Software Version Number: 1	Data File Format Number: 1	Build Version Number: 1	Error Count Since VI Started: 0	Manufacturer: Raytheon	 Model Number: RayMarine 120	 S/N: 	 Cal Date: 	 Wind Direction Offset: 0.00	 Slope (M)1: 0.00	 Offset (B)1: 0.00	 Slope (M)2: 0.00	 Offset (B)2: 0.00	 Slope (M)3: 0.00	 Offset (B)3: 0.00	 Slope (M)4: 0.00	 Offset (B)4: 0.00	 Slope (M)5: 0.00	 Offset (B)5: 0.00	 Slope (M)6: 0.00	 Offset (B)6: 0.00
Computer Date	Computer Time	GGA String
05/31/2014	21:00:00.716	$GPGGA,210009,2508.7305,N,07916.0833,W,1,10,1.5,17,M,,M,,*66
05/31/2014	21:00:01.716	$GPGGA,210010,2508.7310,N,07916.0805,W,1,10,1.5,17,M,,M,,*6F
05/31/2014	21:00:02.736	$GPGGA,210011,2508.7316,N,07916.0776,W,1,10,1.5,17,M,,M,,*63
05/31/2014	21:00:03.726	$GPGGA,210012,2508.7321,N,07916.0747,W,1,10,1.5,17,M,,M,,*66
05/31/2014	21:00:04.706	$GPGGA,210013,2508.7328,N,07916.0719,W,1,10,1.5,17,M,,M,,*65
05/31/2014	21:00:05.706	$GPGGA,210014,2508.7334,N,07916.0691,W,1,10,1.5,17,M,,M,,*6E
05/31/2014	21:00:06.706	$GPGGA,210015,2508.7339,N,07916.0662,W,1,10,1.5,17,M,,M,,*6E
05/31/2014	21:00:07.706	$GPGGA,210016,2508.7345,N,07916.0633,W,1,10,1.5,17,M,,M,,*62
05/31/2014	21:00:08.685	$GPGGA,210017,2508.7350,N,07916.0605,W,1,10,1.5,17,M,,M,,*62
05/31/2014	21:00:09.685	$GPGGA,210018,2508.7357,N,07916.0576,W,1,10,1.5,17,M,,M,,*6D
05/31/2014	21:00:10.725	$GPGGA,210019,2508.7361,N,07916.0547,W,1,10,1.5,17,M,,M,,*6B
05/31/2014	21:00:11.695	$GPGGA,210020,2508.7367,N,07916.0518,W,1,10,1.5,17,M,,M,,*6D
05/31/2014	21:00:12.688	$GPGGA,210021,2508.7372,N,07916.0490,W,1,10,1.5,16,M,,M,,*68
05/31/2014	21:00:13.695	$GPGGA,210022,2508.7378,N,07916.0462,W,1,10,1.5,16,M,,M,,*6C
05/31/2014	21:00:14.695	$GPGGA,210023,2508.7383,N,07916.0433,W,1,10,1.5,16,M,,M,,*6D
05/31/2014	21:00:15.694	$GPGGA,210024,2508.7388,N,07916.0404,W,1,10,1.5,16,M,,M,,*65
05/31/2014	21:00:16.675	$GPGGA,210025,2508.7393,N,07916.0375,W,1,9,1.6,16,M,,M,,*54
05/31/2014	21:00:17.684	$GPGGA,210026,2508.7397,N,07916.0347,W,1,9,1.6,16,M,,M,,*52
05/31/2014	21:00:18.674	$GPGGA,210027,2508.7403,N,07916.0319,W,1,10,1.5,16,M,,M,,*69
05/31/2014	21:00:19.693	$GPGGA,210028,2508.7407,N,07916.0290,W,1,10,1.5,16,M,,M,,*62
05/31/2014	21:00:20.793	$GPGGA,210029,2508.7411,N,07916.0262,W,1,10,1.5,16,M,,M,,*69
05/31/2014	21:00:21.663	$GPGGA,210030,2508.7415,N,07916.0235,W,1,10,1.5,16,M,,M,,*67
05/31/2014	21:00:22.663	$GPGGA,210031,2508.7419,N,07916.0207,W,1,10,1.5,16,M,,M,,*6B
05/31/2014	21:00:23.683	$GPGGA,210032,2508.7424,N,07916.0177,W,1,10,1.5,16,M,,M,,*62
05/31/2014	21:00:24.753	$GPGGA,210033,2508.7429,N,07916.0148,W,1,10,1.5,16,M,,M,,*62
05/31/2014	21:00:25.653	$GPGGA,210034,2508.7433,N,07916.0119,W,1,10,1.7,16,M,,M,,*68
05/31/2014	21:00:26.763	$GPGGA,210035,2508.7439,N,07916.0091,W,1,9,1.6,16,M,,M,,*5B
05/31/2014	21:00:27.663	$GPGGA,210036,2508.7443,N,07916.0062,W,1,9,1.5,16,M,,M,,*5A
05/31/2014	21:00:28.782	$GPGGA,210037,2508.7448,N,07916.0034,W,1,10,1.5,16,M,,M,,*6B
05/31/2014	21:00:29.752	$GPGGA,210038,2508.7453,N,07916.0005,W,1,10,1.5,16,M,,M,,*6C
05/31/2014	21:00:30.742	$GPGGA,210039,2508.7458,N,07915.9976,W,1,10,1.5,16,M,,M,,*61
05/31/2014	21:00:31.752	$GPGGA,210040,2508.7464,N,07915.9946,W,1,10,1.5,16,M,,M,,*63
05/31/2014	21:00:32.772	$GPGGA,210041,2508.7469,N,07915.9917,W,1,9,1.6,16,M,,M,,*50
05/31/2014	21:00:33.741	$GPGGA,210042,2508.7475,N,07915.9889,W,1,9,1.6,16,M,,M,,*58
05/31/2014	21:00:34.761	$GPGGA,210043,2508.7479,N,07915.9861,W,1,10,1.5,16,M,,M,,*68
05/31/2014	21:00:35.751	$GPGGA,210044,2508.7484,N,07915.9831,W,1,10,1.5,16,M,,M,,*68
05/31/2014	21:00:36.731	$GPGGA,210045,2508.7490,N,07915.9802,W,1,9,1.6,16,M,,M,,*57
05/31/2014	21:00:37.730	$GPGGA,210046,2508.7495,N,07915.9775,W,1,9,1.6,16,M,,M,,*5E
05/31/2014	21:00:38.730	$GPGGA,210047,2508.7498,N,07915.9746,W,1,11,1.5,16,M,,M,,*68
05/31/2014	21:00:39.740	$GPGGA,210048,2508.7504,N,07915.9718,W,1,11,1.5,16,M,,M,,*68
05/31/2014	21:00:40.720	$GPGGA,210049,2508.7509,N,07915.9690,W,1,11,1.5,16,M,,M,,*65
05/31/2014	21:00:41.730	$GPGGA,210050,2508.7513,N,07915.9661,W,1,11,1.5,17,M,,M,,*69
05/31/2014	21:00:42.710	$GPGGA,210051,2508.7519,N,07915.9633,W,1,11,1.5,17,M,,M,,*65
05/31/2014	21:00:43.730	$GPGGA,210052,2508.7524,N,07915.9603,W,1,11,1.5,17,M,,M,,*6B
05/31/2014	21:00:44.710	$GPGGA,210053,2508.7530,N,07915.9574,W,1,11,1.5,17,M,,M,,*6C
05/31/2014	21:00:45.710	$GPGGA,210054,2508.7536,N,07915.9545,W,1,11,1.5,17,M,,M,,*6F
05/31/2014	21:00:46.740	$GPGGA,210055,2508.7542,N,07915.9516,W,1,11,1.5,17,M,,M,,*6B
05/31/2014	21:00:47.729	$GPGGA,210056,2508.7547,N,07915.9488,W,1,11,1.5,17,M,,M,,*6B
05/31/2014	21:00:48.740	$GPGGA,210057,2508.7552,N,07915.9459,W,1,11,1.5,17,M,,M,,*62
05/31/2014	21:00:49.699	$GPGGA,210058,2508.7558,N,07915.9430,W,1,11,1.5,17,M,,M,,*68
05/31/2014	21:00:50.738	$GPGGA,210059,2508.7565,N,07915.9402,W,1,11,1.5,17,M,,M,,*66
05/31/2014	21:00:51.728	$GPGGA,210100,2508.7570,N,07915.9373,W,1,11,1.5,17,M,,M,,*6E
05/31/2014	21:00:52.688	$GPGGA,210101,2508.7576,N,07915.9344,W,1,11,1.5,17,M,,M,,*6D
05/31/2014	21:00:53.698	$GPGGA,210102,2508.7581,N,07915.9316,W,1,11,1.5,17,M,,M,,*61
05/31/2014	21:00:54.688	$GPGGA,210103,2508.7587,N,07915.9288,W,1,11,1.5,17,M,,M,,*60
05/31/2014	21:00:55.708	$GPGGA,210104,2508.7592,N,07915.9259,W,1,11,1.5,17,M,,M,,*6F
05/31/2014	21:00:56.687	$GPGGA,210105,2508.7598,N,07915.9231,W,1,11,1.5,17,M,,M,,*6A
05/31/2014	21:00:57.688	$GPGGA,210106,2508.7603,N,07915.9202,W,1,11,1.5,17,M,,M,,*68
05/31/2014	21:00:59.977	$GPGGA,210108,2508.7614,N,07915.9145,W,1,11,1.5,17,M,,M,,*60
05/31/2014	21:01:00.697	$GPGGA,210109,2508.7621,N,07915.9117,W,1,11,1.5,17,M,,M,,*60
05/31/2014	21:01:01.767	$GPGGA,210110,2508.7627,N,07915.9088,W,1,11,1.5,17,M,,M,,*69
05/31/2014	21:01:02.697	$GPGGA,210111,2508.7632,N,07915.9060,W,1,11,1.5,17,M,,M,,*6A
05/31/2014	21:01:03.807	$GPGGA,210112,2508.7639,N,07915.9032,W,1,11,1.5,17,M,,M,,*65
05/31/2014	21:01:04.687	$GPGGA,210113,2508.7643,N,07915.9003,W,1,11,1.5,17,M,,M,,*6B
05/31/2014	21:01:05.657	$GPGGA,210114,2508.7650,N,07915.8974,W,1,11,1.5,17,M,,M,,*66
05/31/2014	21:01:06.667	$GPGGA,210115,2508.7656,N,07915.8945,W,1,11,1.5,17,M,,M,,*63
05/31/2014	21:01:07.766	$GPGGA,210116,2508.7661,N,07915.8916,W,1,11,1.5,17,M,,M,,*62
05/31/2014	21:01:08.795	$GPGGA,210117,2508.7668,N,07915.8888,W,1,11,1.5,17,M,,M,,*6C
05/31/2014	21:01:09.755	$GPGGA,210118,2508.7675,N,07915.8860,W,1,11,1.5,17,M,,M,,*69
05/31/2014	21:01:10.665	$GPGGA,210119,2508.7679,N,07915.8832,W,1,11,1.5,17,M,,M,,*63
05/31/2014	21:01:11.665	$GPGGA,210120,2508.7683,N,07915.8803,W,1,11,1.5,17,M,,M,,*6E
05/31/2014	21:01:12.745	$GPGGA,210121,2508.7690,N,07915.8774,W,1,11,1.5,17,M,,M,,*62
05/31/2014	21:01:13.645	$GPGGA,210122,2508.7696,N,07915.8746,W,1,11,1.5,17,M,,M,,*66
05/31/2014	21:01:14.775	$GPGGA,210123,2508.7701,N,07915.8717,W,1,11,1.5,17,M,,M,,*6C
05/31/2014	21:01:15.745	$GPGGA,210124,2508.7706,N,07915.8689,W,1,11,1.5,17,M,,M,,*6A
05/31/2014	21:01:16.735	$GPGGA,210125,2508.7711,N,07915.8659,W,1,11,1.5,17,M,,M,,*60
05/31/2014	21:01:17.744	$GPGGA,210126,2508.7717,N,07915.8631,W,1,11,1.5,17,M,,M,,*6B
05/31/2014	21:01:18.764	$GPGGA,210127,2508.7722,N,07915.8602,W,1,10,1.6,17,M,,M,,*6E
05/31/2014	21:01:19.744	$GPGGA,210128,2508.7726,N,07915.8573,W,1,10,1.5,17,M,,M,,*63
05/31/2014	21:01:20.754	$GPGGA,210129,2508.7730,N,07915.8545,W,1,11,1.5,17,M,,M,,*61
05/31/2014	21:01:21.725	$GPGGA,210130,2508.7736,N,07915.8517,W,1,11,1.5,17,M,,M,,*68
05/31/2014	21:01:22.744	$GPGGA,210131,2508.7742,N,07915.8488,W,1,11,1.5,17,M,,M,,*6D
05/31/2014	21:01:23.745	$GPGGA,210132,2508.7746,N,07915.8460,W,1,11,1.5,17,M,,M,,*6C
05/31/2014	21:01:24.744	$GPGGA,210133,2508.7751,N,07915.8431,W,1,11,1.5,17,M,,M,,*6F
05/31/2014	21:01:25.733	$GPGGA,210134,2508.7755,N,07915.8403,W,1,11,1.5,17,M,,M,,*6D
05/31/2014	21:01:26.714	$GPGGA,210135,2508.7761,N,07915.8374,W,1,11,1.5,17,M,,M,,*6C
05/31/2014	21:01:27.732	$GPGGA,210136,2508.7765,N,07915.8346,W,1,11,1.5,17,M,,M,,*6A
05/31/2014	21:01:28.712	$GPGGA,210137,2508.7771,N,07915.8317,W,1,11,1.5,17,M,,M,,*6A
05/31/2014	21:01:29.722	$GPGGA,210138,2508.7776,N,07915.8288,W,1,11,1.6,17,M,,M,,*66
05/31/2014	21:01:30.732	$GPGGA,210139,2508.7780,N,07915.8258,W,1,11,1.5,17,M,,M,,*60
05/31/2014	21:01:31.712	$GPGGA,210140,2508.7786,N,07915.8229,W,1,11,1.6,17,M,,M,,*6D
05/31/2014	21:01:32.702	$GPGGA,210141,2508.7790,N,07915.8200,W,1,10,1.6,17,M,,M,,*61
05/31/2014	21:01:33.702	$GPGGA,210142,2508.7795,N,07915.8172,W,1,10,1.5,17,M,,M,,*62
05/31/2014	21:01:34.732	$GPGGA,210143,2508.7801,N,07915.8143,W,1,11,1.5,17,M,,M,,*62
05/31/2014	21:01:35.762	$GPGGA,210144,2508.7805,N,07915.8114,W,1,11,1.6,17,M,,M,,*60
05/31/2014	21:01:36.702	$GPGGA,210145,2508.7804,N,07915.8090,W,1,10,1.6,17,M,,M,,*6C
05/31/2014	21:01:37.702	$GPGGA,210146,2508.7811,N,07915.8061,W,1,10,1.5,17,M,,M,,*66
05/31/2014	21:01:38.691	$GPGGA,210147,2508.7816,N,07915.8031,W,1,11,1.5,17,M,,M,,*64
05/31/2014	21:01:39.701	$GPGGA,210148,2508.7820,N,07915.8002,W,1,11,1.5,17,M,,M,,*6E
05/31/2014	21:01:40.751	$GPGGA,210149,2508.7826,N,07915.7973,W,1,10,1.6,17,M,,M,,*6B
05/31/2014	21:01:41.681	$GPGGA,210150,2508.7831,N,07915.7944,W,1,10,1.6,17,M,,M,,*61
05/31/2014	21:01:42.812	$GPGGA,210151,2508.7837,N,07915.7915,W,1,11,1.5,17,M,,M,,*60
05/31/2014	21:01:43.700	$GPGGA,210152,2508.7842,N,07915.7886,W,1,11,1.5,17,M,,M,,*6A
05/31/2014	21:01:44.678	$GPGGA,210153,2508.7847,N,07915.7857,W,1,11,1.5,17,M,,M,,*62
05/31/2014	21:01:45.680	$GPGGA,210154,2508.7852,N,07915.7828,W,1,11,1.5,17,M,,M,,*69
05/31/2014	21:01:46.690	$GPGGA,210155,2508.7858,N,07915.7799,W,1,11,1.5,17,M,,M,,*67
05/31/2014	21:01:47.680	$GPGGA,210156,2508.7862,N,07915.7770,W,1,11,1.5,17,M,,M,,*6A
05/31/2014	21:01:48.769	$GPGGA,210157,2508.7867,N,07915.7742,W,1,11,1.5,17,M,,M,,*6F
05/31/2014	21:01:49.669	$GPGGA,210158,2508.7873,N,07915.7714,W,1,11,1.5,17,M,,M,,*66
05/31/2014	21:01:50.669	$GPGGA,210159,2508.7878,N,07915.7685,W,1,11,1.5,17,M,,M,,*65
05/31/2014	21:01:51.689	$GPGGA,210200,2508.7883,N,07915.7656,W,1,11,1.5,17,M,,M,,*60
05/31/2014	21:01:52.659	$GPGGA,210201,2508.7888,N,07915.7627,W,1,11,1.5,17,M,,M,,*6C
05/31/2014	21:01:53.769	$GPGGA,210202,2508.7894,N,07915.7598,W,1,11,1.5,17,M,,M,,*65
05/31/2014	21:01:54.769	$GPGGA,210203,2508.7899,N,07915.7570,W,1,11,1.5,17,M,,M,,*6F
05/31/2014	21:01:55.779	$GPGGA,210204,2508.7903,N,07915.7542,W,1,11,1.5,17,M,,M,,*6B
05/31/2014	21:01:56.759	$GPGGA,210205,2508.7909,N,07915.7514,W,1,11,1.5,17,M,,M,,*63
05/31/2014	21:01:57.748	$GPGGA,210206,2508.7914,N,07915.7485,W,1,11,1.5,17,M,,M,,*65
05/31/2014	21:01:58.768	$GPGGA,210207,2508.7920,N,07915.7456,W,1,11,1.5,17,M,,M,,*6D
05/31/2014	21:01:59.758	$GPGGA,210208,2508.7924,N,07915.7427,W,1,11,1.5,17,M,,M,,*60
05/31/2014	21:02:00.817	$GPGGA,210209,2508.7931,N,07915.7398,W,1,11,1.5,17,M,,M,,*66
05/31/2014	21:02:01.737	$GPGGA,210210,2508.7936,N,07915.7369,W,1,11,1.5,17,M,,M,,*67
05/31/2014	21:02:02.757	$GPGGA,210211,2508.7942,N,07915.7340,W,1,11,1.5,17,M,,M,,*6E
05/31/2014	21:02:03.747	$GPGGA,210212,2508.7946,N,07915.7311,W,1,11,1.5,17,M,,M,,*6D
05/31/2014	21:02:04.747	$GPGGA,210213,2508.7953,N,07915.7283,W,1,11,1.5,17,M,,M,,*62
05/31/2014	21:02:05.747	$GPGGA,210214,2508.7959,N,07915.7254,W,1,11,1.5,17,M,,M,,*65
05/31/2014	21:02:06.737	$GPGGA,210215,2508.7964,N,07915.7225,W,1,11,1.5,17,M,,M,,*6C
05/31/2014	21:02:07.746	$GPGGA,210216,2508.7970,N,07915.7196,W,1,11,1.5,17,M,,M,,*61
05/31/2014	21:02:08.756	$GPGGA,210217,2508.7975,N,07915.7168,W,1,11,1.5,17,M,,M,,*64
05/31/2014	21:02:09.716	$GPGGA,210218,2508.7981,N,07915.7139,W,1,11,1.5,17,M,,M,,*64
05/31/2014	21:02:10.736	$GPGGA,210219,2508.7988,N,07915.7111,W,1,11,1.5,17,M,,M,,*66
05/31/2014	21:02:11.736	$GPGGA,210220,2508.7993,N,07915.7082,W,1,11,1.5,17,M,,M,,*6D
05/31/2014	21:02:12.736	$GPGGA,210221,2508.7999,N,07915.7052,W,1,11,1.5,17,M,,M,,*6B
05/31/2014	21:02:13.706	$GPGGA,210222,2508.8004,N,07915.7024,W,1,11,1.5,17,M,,M,,*6B
05/31/2014	21:02:14.726	$GPGGA,210223,2508.8011,N,07915.6995,W,1,11,1.5,17,M,,M,,*6C
05/31/2014	21:02:15.716	$GPGGA,210224,2508.8017,N,07915.6967,W,1,11,1.5,17,M,,M,,*60
05/31/2014	21:02:16.736	$GPGGA,210225,2508.8024,N,07915.6938,W,1,11,1.5,17,M,,M,,*6B
05/31/2014	21:02:17.706	$GPGGA,210226,2508.8029,N,07915.6910,W,1,11,1.5,17,M,,M,,*6F
05/31/2014	21:02:18.724	$GPGGA,210227,2508.8033,N,07915.6881,W,1,11,1.5,17,M,,M,,*6C
05/31/2014	21:02:19.724	$GPGGA,210228,2508.8040,N,07915.6852,W,1,11,1.5,17,M,,M,,*69
05/31/2014	21:02:20.714	$GPGGA,210229,2508.8046,N,07915.6823,W,1,11,1.5,17,M,,M,,*68
05/31/2014	21:02:21.714	$GPGGA,210230,2508.8051,N,07915.6794,W,1,11,1.5,17,M,,M,,*65
05/31/2014	21:02:22.704	$GPGGA,210231,2508.8055,N,07915.6765,W,1,11,1.5,17,M,,M,,*6E
05/31/2014	21:02:23.714	$GPGGA,210232,2508.8062,N,07915.6737,W,1,11,1.5,17,M,,M,,*6E
05/31/2014	21:02:24.714	$GPGGA,210233,2508.8069,N,07915.6707,W,1,11,1.5,17,M,,M,,*67
05/31/2014	21:02:25.714	$GPGGA,210234,2508.8073,N,07915.6678,W,1,11,1.5,17,M,,M,,*62
05/31/2014	21:02:26.745	$GPGGA,210235,2508.8079,N,07915.6650,W,1,11,1.5,17,M,,M,,*63
05/31/2014	21:02:27.714	$GPGGA,210236,2508.8084,N,07915.6621,W,1,11,1.5,17,M,,M,,*64
05/31/2014	21:02:28.694	$GPGGA,210237,2508.8089,N,07915.6592,W,1,11,1.5,17,M,,M,,*63
05/31/2014	21:02:29.703	$GPGGA,210238,2508.8094,N,07915.6564,W,1,11,1.5,17,M,,M,,*69
05/31/2014	21:02:30.703	$GPGGA,210239,2508.8100,N,07915.6535,W,1,11,1.5,17,M,,M,,*60
05/31/2014	21:02:31.693	$GPGGA,210240,2508.8104,N,07915.6505,W,1,11,1.7,17,M,,M,,*6B
05/31/2014	21:02:32.793	$GPGGA,210241,2508.8108,N,07915.6475,W,1,10,1.7,17,M,,M,,*61
05/31/2014	21:02:33.773	$GPGGA,210242,2508.8112,N,07915.6446,W,1,10,1.7,17,M,,M,,*69
05/31/2014	21:02:34.703	$GPGGA,210243,2508.8116,N,07915.6417,W,1,10,1.7,17,M,,M,,*68
05/31/2014	21:02:35.712	$GPGGA,210244,2508.8120,N,07915.6387,W,1,10,1.7,17,M,,M,,*64
05/31/2014	21:02:36.792	$GPGGA,210245,2508.8126,N,07915.6357,W,1,10,1.8,17,M,,M,,*61
05/31/2014	21:02:37.792	$GPGGA,210246,2508.8131,N,07915.6327,W,1,10,1.7,17,M,,M,,*6C
05/31/2014	21:02:38.702	$GPGGA,210247,2508.8136,N,07915.6298,W,1,10,1.7,17,M,,M,,*6F
05/31/2014	21:02:39.711	$GPGGA,210248,2508.8140,N,07915.6269,W,1,10,1.7,16,M,,M,,*6E
05/31/2014	21:02:40.691	$GPGGA,210249,2508.8145,N,07915.6240,W,1,10,1.7,16,M,,M,,*61
05/31/2014	21:02:41.671	$GPGGA,210250,2508.8149,N,07915.6211,W,1,10,1.7,16,M,,M,,*61
05/31/2014	21:02:42.661	$GPGGA,210251,2508.8155,N,07915.6182,W,1,10,1.7,16,M,,M,,*64
05/31/2014	21:02:43.761	$GPGGA,210252,2508.8159,N,07915.6153,W,1,10,1.7,16,M,,M,,*67
05/31/2014	21:02:44.781	$GPGGA,210253,2508.8165,N,07915.6123,W,1,10,1.7,16,M,,M,,*6E
05/31/2014	21:02:45.671	$GPGGA,210254,2508.8170,N,07915.6094,W,1,10,1.7,16,M,,M,,*60
05/31/2014	21:02:46.761	$GPGGA,210255,2508.8174,N,07915.6065,W,1,10,1.7,15,M,,M,,*68
05/31/2014	21:02:47.681	$GPGGA,210256,2508.8180,N,07915.6036,W,1,10,1.7,15,M,,M,,*66
05/31/2014	21:02:48.741	$GPGGA,210257,2508.8185,N,07915.6006,W,1,10,1.7,15,M,,M,,*61
05/31/2014	21:02:49.740	$GPGGA,210258,2508.8190,N,07915.5977,W,1,10,1.7,15,M,,M,,*66
05/31/2014	21:02:50.761	$GPGGA,210259,2508.8195,N,07915.5948,W,1,10,1.7,15,M,,M,,*6E
05/31/2014	21:02:51.780	$GPGGA,210300,2508.8201,N,07915.5919,W,1,10,1.7,15,M,,M,,*69
05/31/2014	21:02:52.741	$GPGGA,210301,2508.8206,N,07915.5890,W,1,10,1.7,14,M,,M,,*6E
05/31/2014	21:02:53.729	$GPGGA,210302,2508.8210,N,07915.5861,W,1,10,1.7,14,M,,M,,*64
05/31/2014	21:02:54.759	$GPGGA,210303,2508.8216,N,07915.5832,W,1,10,1.7,14,M,,M,,*65
05/31/2014	21:02:55.739	$GPGGA,210304,2508.8221,N,07915.5803,W,1,10,1.7,14,M,,M,,*64
05/31/2014	21:02:56.719	$GPGGA,210305,2508.8225,N,07915.5774,W,1,10,1.7,14,M,,M,,*6E
05/31/2014	21:02:57.729	$GPGGA,210306,2508.8232,N,07915.5745,W,1,10,1.7,14,M,,M,,*69
05/31/2014	21:02:58.729	$GPGGA,210307,2508.8237,N,07915.5716,W,1,10,1.7,14,M,,M,,*6B
05/31/2014	21:02:59.738	$GPGGA,210308,2508.8242,N,07915.5687,W,1,10,1.7,14,M,,M,,*6F
05/31/2014	21:03:00.728	$GPGGA,210309,2508.8246,N,07915.5658,W,1,9,1.7,13,M,,M,,*57
05/31/2014	21:03:01.718	$GPGGA,210310,2508.8252,N,07915.5630,W,1,9,1.7,13,M,,M,,*54
05/31/2014	21:03:02.708	$GPGGA,210311,2508.8257,N,07915.5602,W,1,10,1.7,13,M,,M,,*69
05/31/2014	21:03:03.728	$GPGGA,210312,2508.8263,N,07915.5572,W,1,10,1.7,13,M,,M,,*69
05/31/2014	21:03:04.728	$GPGGA,210313,2508.8268,N,07915.5543,W,1,10,1.7,13,M,,M,,*61
05/31/2014	21:03:05.708	$GPGGA,210314,2508.8274,N,07915.5514,W,1,10,1.7,13,M,,M,,*69
05/31/2014	21:03:06.708	$GPGGA,210315,2508.8279,N,07915.5485,W,1,10,1.7,13,M,,M,,*6C
05/31/2014	21:03:07.718	$GPGGA,210316,2508.8284,N,07915.5456,W,1,10,1.7,13,M,,M,,*63
05/31/2014	21:03:08.688	$GPGGA,210317,2508.8289,N,07915.5427,W,1,10,1.7,13,M,,M,,*69
05/31/2014	21:03:09.687	$GPGGA,210318,2508.8295,N,07915.5398,W,1,10,1.7,13,M,,M,,*68
05/31/2014	21:03:10.686	$GPGGA,210319,2508.8300,N,07915.5370,W,1,9,1.8,12,M,,M,,*54
05/31/2014	21:03:11.696	$GPGGA,210320,2508.8307,N,07915.5340,W,1,9,1.7,12,M,,M,,*55
05/31/2014	21:03:12.676	$GPGGA,210321,2508.8313,N,07915.5312,W,1,10,1.7,12,M,,M,,*6E
05/31/2014	21:03:13.686	$GPGGA,210322,2508.8320,N,07915.5283,W,1,10,1.7,12,M,,M,,*64
05/31/2014	21:03:14.696	$GPGGA,210323,2508.8326,N,07915.5254,W,1,10,1.7,12,M,,M,,*69
05/31/2014	21:03:15.686	$GPGGA,210324,2508.8333,N,07915.5225,W,1,10,1.7,12,M,,M,,*6C
05/31/2014	21:03:16.716	$GPGGA,210325,2508.8339,N,07915.5196,W,1,10,1.7,12,M,,M,,*6C
05/31/2014	21:03:17.686	$GPGGA,210326,2508.8344,N,07915.5167,W,1,10,1.7,12,M,,M,,*6B
05/31/2014	21:03:18.676	$GPGGA,210327,2508.8351,N,07915.5138,W,1,10,1.7,12,M,,M,,*64
05/31/2014	21:03:19.706	$GPGGA,210328,2508.8357,N,07915.5110,W,1,10,1.7,12,M,,M,,*67
05/31/2014	21:03:20.686	$GPGGA,210329,2508.8362,N,07915.5081,W,1,9,1.8,12,M,,M,,*5E
05/31/2014	21:03:21.796	$GPGGA,210330,2508.8368,N,07915.5053,W,1,9,1.8,12,M,,M,,*53
05/31/2014	21:03:22.706	$GPGGA,210331,2508.8375,N,07915.5025,W,1,9,1.8,12,M,,M,,*5F
05/31/2014	21:03:23.676	$GPGGA,210332,2508.8380,N,07915.4996,W,1,9,1.7,12,M,,M,,*59
05/31/2014	21:03:24.666	$GPGGA,210333,2508.8387,N,07915.4968,W,1,10,1.7,12,M,,M,,*66
05/31/2014	21:03:25.767	$GPGGA,210334,2508.8393,N,07915.4939,W,1,10,1.7,12,M,,M,,*60
05/31/2014	21:03:26.782	$GPGGA,210335,2508.8398,N,07915.4911,W,1,10,1.7,12,M,,M,,*60
05/31/2014	21:03:27.795	$GPGGA,210336,2508.8405,N,07915.4883,W,1,10,1.7,12,M,,M,,*6A
05/31/2014	21:03:28.685	$GPGGA,210337,2508.8409,N,07915.4854,W,1,9,1.8,12,M,,M,,*5A
05/31/2014	21:03:29.654	$GPGGA,210338,2508.8415,N,07915.4825,W,1,9,1.8,12,M,,M,,*5E
05/31/2014	21:03:30.764	$GPGGA,210339,2508.8420,N,07915.4796,W,1,10,1.7,12,M,,M,,*69
05/31/2014	21:03:31.674	$GPGGA,210340,2508.8426,N,07915.4768,W,1,10,1.7,12,M,,M,,*60
05/31/2014	21:03:32.784	$GPGGA,210341,2508.8430,N,07915.4739,W,1,10,1.7,12,M,,M,,*62
05/31/2014	21:03:33.754	$GPGGA,210342,2508.8437,N,07915.4710,W,1,10,1.7,12,M,,M,,*6D
05/31/2014	21:03:34.754	$GPGGA,210343,2508.8443,N,07915.4681,W,1,10,1.7,12,M,,M,,*66
05/31/2014	21:03:35.664	$GPGGA,210344,2508.8448,N,07915.4653,W,1,10,1.7,12,M,,M,,*65
05/31/2014	21:03:36.744	$GPGGA,210345,2508.8455,N,07915.4624,W,1,10,1.7,12,M,,M,,*68
05/31/2014	21:03:37.744	$GPGGA,210346,2508.8461,N,07915.4596,W,1,10,1.7,12,M,,M,,*66
05/31/2014	21:03:38.744	$GPGGA,210347,2508.8466,N,07915.4567,W,1,10,1.7,12,M,,M,,*6E
05/31/2014	21:03:39.753	$GPGGA,210348,2508.8472,N,07915.4539,W,1,10,1.7,12,M,,M,,*6F
05/31/2014	21:03:40.743	$GPGGA,210349,2508.8477,N,07915.4510,W,1,10,1.7,12,M,,M,,*60
05/31/2014	21:03:41.733	$GPGGA,210350,2508.8481,N,07915.4481,W,1,10,1.7,12,M,,M,,*68
05/31/2014	21:03:42.753	$GPGGA,210351,2508.8488,N,07915.4453,W,1,10,1.7,12,M,,M,,*6F
05/31/2014	21:03:43.743	$GPGGA,210352,2508.8492,N,07915.4424,W,1,10,1.7,12,M,,M,,*67
05/31/2014	21:03:44.723	$GPGGA,210353,2508.8498,N,07915.4395,W,1,10,1.7,12,M,,M,,*61
05/31/2014	21:03:45.712	$GPGGA,210354,2508.8503,N,07915.4366,W,1,10,1.7,12,M,,M,,*69
05/31/2014	21:03:46.742	$GPGGA,210355,2508.8509,N,07915.4337,W,1,10,1.7,12,M,,M,,*66
05/31/2014	21:03:47.732	$GPGGA,210356,2508.8514,N,07915.4309,W,1,10,1.7,12,M,,M,,*64
05/31/2014	21:03:48.712	$GPGGA,210357,2508.8520,N,07915.4281,W,1,10,1.7,12,M,,M,,*63
05/31/2014	21:03:49.721	$GPGGA,210358,2508.8526,N,07915.4251,W,1,10,1.7,12,M,,M,,*67
05/31/2014	21:03:50.711	$GPGGA,210359,2508.8531,N,07915.4222,W,1,10,1.7,12,M,,M,,*64
05/31/2014	21:03:51.741	$GPGGA,210400,2508.8537,N,07915.4193,W,1,10,1.7,12,M,,M,,*60
05/31/2014	21:03:52.701	$GPGGA,210401,2508.8542,N,07915.4165,W,1,10,1.7,12,M,,M,,*6A
05/31/2014	21:03:53.711	$GPGGA,210402,2508.8546,N,07915.4136,W,1,10,1.7,12,M,,M,,*6B
05/31/2014	21:03:54.701	$GPGGA,210403,2508.8553,N,07915.4108,W,1,10,1.7,12,M,,M,,*63
05/31/2014	21:03:55.721	$GPGGA,210404,2508.8557,N,07915.4078,W,1,10,1.7,12,M,,M,,*66
05/31/2014	21:03:56.691	$GPGGA,210405,2508.8564,N,07915.4049,W,1,9,1.8,12,M,,M,,*52
05/31/2014	21:03:57.701	$GPGGA,210406,2508.8570,N,07915.4020,W,1,9,1.8,12,M,,M,,*5B
05/31/2014	21:03:58.701	$GPGGA,210407,2508.8575,N,07915.3991,W,1,9,1.8,12,M,,M,,*5B
05/31/2014	21:03:59.690	$GPGGA,210408,2508.8578,N,07915.3963,W,1,9,1.8,12,M,,M,,*54
05/31/2014	21:04:00.730	$GPGGA,210409,2508.8585,N,07915.3934,W,1,10,1.7,12,M,,M,,*62
05/31/2014	21:04:01.710	$GPGGA,210410,2508.8589,N,07915.3905,W,1,10,1.8,12,M,,M,,*6B
05/31/2014	21:04:02.680	$GPGGA,210411,2508.8593,N,07915.3875,W,1,10,1.7,11,M,,M,,*6B
05/31/2014	21:04:03.709	$GPGGA,210412,2508.8599,N,07915.3846,W,1,10,1.8,11,M,,M,,*6D
05/31/2014	21:04:04.689	$GPGGA,210413,2508.8604,N,07915.3818,W,1,10,1.7,11,M,,M,,*6F
05/31/2014	21:04:05.669	$GPGGA,210414,2508.8610,N,07915.3790,W,1,10,1.7,11,M,,M,,*62
05/31/2014	21:04:06.679	$GPGGA,210415,2508.8614,N,07915.3760,W,1,10,1.7,11,M,,M,,*68
05/31/2014	21:04:07.699	$GPGGA,210416,2508.8618,N,07915.3733,W,1,10,1.8,11,M,,M,,*6E
05/31/2014	21:04:08.679	$GPGGA,210417,2508.8624,N,07915.3704,W,1,10,1.7,11,M,,M,,*6B
05/31/2014	21:04:09.668	$GPGGA,210418,2508.8629,N,07915.3675,W,1,10,1.8,11,M,,M,,*61
05/31/2014	21:04:10.678	$GPGGA,210419,2508.8633,N,07915.3646,W,1,10,1.7,11,M,,M,,*64
05/31/2014	21:04:11.678	$GPGGA,210420,2508.8639,N,07915.3618,W,1,10,1.7,11,M,,M,,*6F
05/31/2014	21:04:12.658	$GPGGA,210421,2508.8643,N,07915.3590,W,1,10,1.7,11,M,,M,,*60
05/31/2014	21:04:13.658	$GPGGA,210422,2508.8649,N,07915.3562,W,1,10,1.7,11,M,,M,,*64
05/31/2014	21:04:14.788	$GPGGA,210423,2508.8654,N,07915.3534,W,1,10,1.7,11,M,,M,,*6A
05/31/2014	21:04:15.788	$GPGGA,210424,2508.8660,N,07915.3507,W,1,10,1.7,11,M,,M,,*6A
05/31/2014	21:04:16.748	$GPGGA,210425,2508.8665,N,07915.3478,W,1,10,1.7,11,M,,M,,*67
05/31/2014	21:04:17.648	$GPGGA,210426,2508.8669,N,07915.3450,W,1,10,1.7,11,M,,M,,*62
05/31/2014	21:04:18.748	$GPGGA,210427,2508.8676,N,07915.3422,W,1,10,1.7,11,M,,M,,*68
05/31/2014	21:04:19.657	$GPGGA,210428,2508.8682,N,07915.3394,W,1,10,1.7,11,M,,M,,*66
05/31/2014	21:04:20.746	$GPGGA,210429,2508.8687,N,07915.3366,W,1,10,1.7,11,M,,M,,*6F
05/31/2014	21:04:21.646	$GPGGA,210430,2508.8691,N,07915.3337,W,1,10,1.7,11,M,,M,,*64
05/31/2014	21:04:22.656	$GPGGA,210431,2508.8698,N,07915.3310,W,1,10,1.7,11,M,,M,,*69
05/31/2014	21:04:23.746	$GPGGA,210432,2508.8705,N,07915.3282,W,1,10,1.8,11,M,,M,,*6A
05/31/2014	21:04:24.746	$GPGGA,210433,2508.8712,N,07915.3254,W,1,10,1.7,11,M,,M,,*69
05/31/2014	21:04:25.726	$GPGGA,210434,2508.8716,N,07915.3225,W,1,10,1.7,11,M,,M,,*6C
05/31/2014	21:04:26.746	$GPGGA,210435,2508.8723,N,07915.3197,W,1,9,1.8,11,M,,M,,*56
05/31/2014	21:04:27.746	$GPGGA,210436,2508.8730,N,07915.3168,W,1,9,1.8,11,M,,M,,*57
05/31/2014	21:04:28.726	$GPGGA,210437,2508.8737,N,07915.3140,W,1,10,1.7,11,M,,M,,*6C
05/31/2014	21:04:29.725	$GPGGA,210438,2508.8743,N,07915.3112,W,1,10,1.8,11,M,,M,,*68
05/31/2014	21:04:30.715	$GPGGA,210439,2508.8748,N,07915.3085,W,1,10,1.7,11,M,,M,,*62
05/31/2014	21:04:31.735	$GPGGA,210440,2508.8752,N,07915.3057,W,1,10,1.7,11,M,,M,,*68
05/31/2014	21:04:32.735	$GPGGA,210441,2508.8759,N,07915.3029,W,1,10,1.7,11,M,,M,,*6B
05/31/2014	21:04:33.725	$GPGGA,210442,2508.8765,N,07915.3000,W,1,10,1.7,11,M,,M,,*6C
05/31/2014	21:04:34.735	$GPGGA,210443,2508.8770,N,07915.2972,W,1,10,1.7,11,M,,M,,*64
05/31/2014	21:04:35.715	$GPGGA,210444,2508.8776,N,07915.2943,W,1,10,1.7,11,M,,M,,*67
05/31/2014	21:04:36.726	$GPGGA,210445,2508.8781,N,07915.2916,W,1,10,1.7,11,M,,M,,*6E
05/31/2014	21:04:37.704	$GPGGA,210446,2508.8788,N,07915.2888,W,1,10,1.7,11,M,,M,,*62
05/31/2014	21:04:38.724	$GPGGA,210447,2508.8794,N,07915.2860,W,1,10,1.7,11,M,,M,,*68
05/31/2014	21:04:39.713	$GPGGA,210448,2508.8799,N,07915.2831,W,1,10,1.7,11,M,,M,,*6E
05/31/2014	21:04:40.693	$GPGGA,210449,2508.8805,N,07915.2803,W,1,10,1.7,11,M,,M,,*64
05/31/2014	21:04:41.703	$GPGGA,210450,2508.8812,N,07915.2775,W,1,10,1.7,11,M,,M,,*64
05/31/2014	21:04:42.703	$GPGGA,210451,2508.8817,N,07915.2747,W,1,10,1.7,11,M,,M,,*61
05/31/2014	21:04:43.703	$GPGGA,210452,2508.8824,N,07915.2718,W,1,10,1.7,11,M,,M,,*68
05/31/2014	21:04:44.723	$GPGGA,210453,2508.8828,N,07915.2689,W,1,10,1.7,11,M,,M,,*6C
05/31/2014	21:04:45.693	$GPGGA,210454,2508.8835,N,07915.2660,W,1,10,1.7,11,M,,M,,*60
05/31/2014	21:04:46.693	$GPGGA,210455,2508.8842,N,07915.2632,W,1,10,1.7,11,M,,M,,*66
05/31/2014	21:04:47.703	$GPGGA,210456,2508.8848,N,07915.2604,W,1,10,1.7,11,M,,M,,*6A
05/31/2014	21:04:48.673	$GPGGA,210457,2508.8853,N,07915.2576,W,1,10,1.7,11,M,,M,,*67
05/31/2014	21:04:49.682	$GPGGA,210458,2508.8860,N,07915.2547,W,1,10,1.7,11,M,,M,,*6A
05/31/2014	21:04:50.682	$GPGGA,210459,2508.8866,N,07915.2519,W,1,10,1.7,11,M,,M,,*66
05/31/2014	21:04:51.703	$GPGGA,210500,2508.8871,N,07915.2490,W,1,10,1.7,11,M,,M,,*6D
05/31/2014	21:04:52.663	$GPGGA,210501,2508.8878,N,07915.2461,W,1,10,1.7,11,M,,M,,*6B
05/31/2014	21:04:53.672	$GPGGA,210502,2508.8882,N,07915.2432,W,1,10,1.7,11,M,,M,,*6B
05/31/2014	21:04:54.672	$GPGGA,210503,2508.8888,N,07915.2404,W,1,10,1.7,11,M,,M,,*65
05/31/2014	21:04:55.701	$GPGGA,210504,2508.8893,N,07915.2376,W,1,10,1.7,11,M,,M,,*6A
05/31/2014	21:04:56.690	$GPGGA,210505,2508.8899,N,07915.2348,W,1,10,1.7,11,M,,M,,*6C
05/31/2014	21:04:57.660	$GPGGA,210506,2508.8904,N,07915.2318,W,1,10,1.7,11,M,,M,,*6F
05/31/2014	21:04:58.680	$GPGGA,210507,2508.8909,N,07915.2291,W,1,9,1.8,11,M,,M,,*54
05/31/2014	21:04:59.660	$GPGGA,210508,2508.8914,N,07915.2263,W,1,9,1.7,11,M,,M,,*55
05/31/2014	21:05:00.670	$GPGGA,210509,2508.8920,N,07915.2235,W,1,10,1.7,12,M,,M,,*6B
05/31/2014	21:05:01.649	$GPGGA,210510,2508.8924,N,07915.2206,W,1,10,1.7,12,M,,M,,*67
05/31/2014	21:05:02.639	$GPGGA,210511,2508.8929,N,07915.2178,W,1,10,1.7,12,M,,M,,*61
05/31/2014	21:05:03.659	$GPGGA,210512,2508.8935,N,07915.2149,W,1,10,1.7,12,M,,M,,*6D
05/31/2014	21:05:04.829	$GPGGA,210513,2508.8940,N,07915.2120,W,1,9,1.7,12,M,,M,,*59
05/31/2014	21:05:05.651	$GPGGA,210514,2508.8946,N,07915.2091,W,1,9,1.7,12,M,,M,,*53
05/31/2014	21:05:06.638	$GPGGA,210515,2508.8951,N,07915.2062,W,1,9,1.8,12,M,,M,,*57
05/31/2014	21:05:07.788	$GPGGA,210516,2508.8957,N,07915.2034,W,1,9,1.7,12,M,,M,,*5E
05/31/2014	21:05:08.808	$GPGGA,210517,2508.8961,N,07915.2005,W,1,10,1.7,12,M,,M,,*60
05/31/2014	21:05:09.728	$GPGGA,210518,2508.8968,N,07915.1976,W,1,10,1.7,12,M,,M,,*68
05/31/2014	21:05:10.837	$GPGGA,210519,2508.8972,N,07915.1948,W,1,10,1.7,12,M,,M,,*6F
05/31/2014	21:05:11.788	$GPGGA,210520,2508.8976,N,07915.1919,W,1,10,1.7,12,M,,M,,*65
05/31/2014	21:05:12.716	$GPGGA,210521,2508.8983,N,07915.1891,W,1,10,1.7,12,M,,M,,*6F
05/31/2014	21:05:13.776	$GPGGA,210522,2508.8989,N,07915.1862,W,1,10,1.7,12,M,,M,,*6A
05/31/2014	21:05:14.716	$GPGGA,210523,2508.8994,N,07915.1833,W,1,10,1.7,12,M,,M,,*63
05/31/2014	21:05:15.726	$GPGGA,210524,2508.8997,N,07915.1805,W,1,10,1.7,12,M,,M,,*62
05/31/2014	21:05:16.825	$GPGGA,210525,2508.9004,N,07915.1776,W,1,10,1.7,12,M,,M,,*6A
05/31/2014	21:05:17.705	$GPGGA,210526,2508.9008,N,07915.1748,W,1,10,1.7,12,M,,M,,*68
05/31/2014	21:05:18.815	$GPGGA,210527,2508.9014,N,07915.1719,W,1,10,1.7,12,M,,M,,*60
05/31/2014	21:05:19.732	$GPGGA,210528,2508.9019,N,07915.1691,W,1,10,1.7,12,M,,M,,*63
05/31/2014	21:05:20.792	$GPGGA,210529,2508.9023,N,07915.1663,W,1,10,1.7,12,M,,M,,*66
05/31/2014	21:05:21.752	$GPGGA,210530,2508.9030,N,07915.1635,W,1,10,1.7,12,M,,M,,*6F
05/31/2014	21:05:22.782	$GPGGA,210531,2508.9036,N,07915.1606,W,1,10,1.7,12,M,,M,,*68
05/31/2014	21:05:23.772	$GPGGA,210532,2508.9041,N,07915.1577,W,1,10,1.7,12,M,,M,,*6E
05/31/2014	21:05:24.711	$GPGGA,210533,2508.9045,N,07915.1549,W,1,10,1.7,12,M,,M,,*66
05/31/2014	21:05:25.731	$GPGGA,210534,2508.9052,N,07915.1520,W,1,10,1.7,12,M,,M,,*68
05/31/2014	21:05:26.711	$GPGGA,210535,2508.9058,N,07915.1491,W,1,10,1.7,12,M,,M,,*68
05/31/2014	21:05:27.761	$GPGGA,210536,2508.9063,N,07915.1463,W,1,10,1.7,12,M,,M,,*6E
05/31/2014	21:05:28.701	$GPGGA,210537,2508.9069,N,07915.1434,W,1,10,1.7,12,M,,M,,*67
05/31/2014	21:05:29.730	$GPGGA,210538,2508.9073,N,07915.1406,W,1,10,1.7,12,M,,M,,*62
05/31/2014	21:05:30.819	$GPGGA,210539,2508.9079,N,07915.1378,W,1,10,1.7,12,M,,M,,*67
05/31/2014	21:05:31.709	$GPGGA,210540,2508.9084,N,07915.1350,W,1,10,1.7,12,M,,M,,*61
05/31/2014	21:05:32.689	$GPGGA,210541,2508.9091,N,07915.1321,W,1,10,1.7,12,M,,M,,*62
05/31/2014	21:05:33.719	$GPGGA,210542,2508.9097,N,07915.1293,W,1,10,1.7,12,M,,M,,*6F
05/31/2014	21:05:34.788	$GPGGA,210543,2508.9102,N,07915.1264,W,1,10,1.7,12,M,,M,,*6B
05/31/2014	21:05:35.728	$GPGGA,210544,2508.9108,N,07915.1236,W,1,10,1.7,12,M,,M,,*61
05/31/2014	21:05:36.778	$GPGGA,210545,2508.9113,N,07915.1209,W,1,10,1.7,12,M,,M,,*66
05/31/2014	21:05:37.708	$GPGGA,210546,2508.9120,N,07915.1181,W,1,10,1.7,12,M,,M,,*66
05/31/2014	21:05:38.768	$GPGGA,210547,2508.9124,N,07915.1153,W,1,10,1.7,12,M,,M,,*6C
05/31/2014	21:05:39.687	$GPGGA,210548,2508.9131,N,07915.1125,W,1,10,1.7,12,M,,M,,*66
05/31/2014	21:05:40.747	$GPGGA,210549,2508.9138,N,07915.1096,W,1,10,1.7,12,M,,M,,*67
05/31/2014	21:05:41.787	$GPGGA,210550,2508.9144,N,07915.1068,W,1,10,1.7,12,M,,M,,*65
05/31/2014	21:05:42.757	$GPGGA,210551,2508.9149,N,07915.1040,W,1,10,1.7,12,M,,M,,*63
05/31/2014	21:05:43.677	$GPGGA,210552,2508.9155,N,07915.1012,W,1,10,1.7,12,M,,M,,*6A
05/31/2014	21:05:44.766	$GPGGA,210553,2508.9160,N,07915.0984,W,1,10,1.7,12,M,,M,,*6A
05/31/2014	21:05:45.686	$GPGGA,210554,2508.9167,N,07915.0956,W,1,10,1.7,12,M,,M,,*65
05/31/2014	21:05:46.756	$GPGGA,210555,2508.9174,N,07915.0927,W,1,10,1.7,12,M,,M,,*60
05/31/2014	21:05:47.705	$GPGGA,210556,2508.9181,N,07915.0899,W,1,10,1.7,12,M,,M,,*6D
05/31/2014	21:05:48.775	$GPGGA,210557,2508.9185,N,07915.0871,W,1,10,1.7,12,M,,M,,*6E
05/31/2014	21:05:49.684	$GPGGA,210558,2508.9191,N,07915.0843,W,1,10,1.6,12,M,,M,,*64
05/31/2014	21:05:50.754	$GPGGA,210559,2508.9199,N,07915.0815,W,1,10,1.6,12,M,,M,,*6E
05/31/2014	21:05:51.714	$GPGGA,210600,2508.9204,N,07915.0786,W,1,10,1.6,12,M,,M,,*63
05/31/2014	21:05:52.644	$GPGGA,210601,2508.9210,N,07915.0757,W,1,10,1.6,12,M,,M,,*6B
05/31/2014	21:05:53.744	$GPGGA,210602,2508.9216,N,07915.0729,W,1,10,1.6,12,M,,M,,*67
05/31/2014	21:05:54.743	$GPGGA,210603,2508.9221,N,07915.0701,W,1,10,1.6,12,M,,M,,*68
05/31/2014	21:05:55.764	$GPGGA,210604,2508.9228,N,07915.0672,W,1,10,1.6,12,M,,M,,*63
05/31/2014	21:05:56.753	$GPGGA,210605,2508.9234,N,07915.0643,W,1,10,1.6,12,M,,M,,*6D
05/31/2014	21:05:57.733	$GPGGA,210606,2508.9240,N,07915.0614,W,1,10,1.6,12,M,,M,,*6F
05/31/2014	21:05:58.743	$GPGGA,210607,2508.9246,N,07915.0586,W,1,10,1.6,12,M,,M,,*60
05/31/2014	21:05:59.742	$GPGGA,210608,2508.9250,N,07915.0558,W,1,10,1.6,12,M,,M,,*6B
05/31/2014	21:06:00.752	$GPGGA,210609,2508.9257,N,07915.0529,W,1,10,1.6,12,M,,M,,*6B
05/31/2014	21:06:01.722	$GPGGA,210610,2508.9263,N,07915.0501,W,1,10,1.6,12,M,,M,,*6E
05/31/2014	21:06:02.742	$GPGGA,210611,2508.9268,N,07915.0473,W,1,10,1.6,12,M,,M,,*60
05/31/2014	21:06:03.732	$GPGGA,210612,2508.9275,N,07915.0444,W,1,10,1.6,12,M,,M,,*6B
05/31/2014	21:06:04.741	$GPGGA,210613,2508.9279,N,07915.0416,W,1,10,1.6,12,M,,M,,*61
05/31/2014	21:06:05.720	$GPGGA,210614,2508.9285,N,07915.0388,W,1,10,1.6,12,M,,M,,*65
05/31/2014	21:06:06.750	$GPGGA,210615,2508.9292,N,07915.0360,W,1,10,1.6,12,M,,M,,*64
05/31/2014	21:06:07.730	$GPGGA,210616,2508.9296,N,07915.0331,W,1,10,1.6,12,M,,M,,*67
05/31/2014	21:06:08.780	$GPGGA,210617,2508.9301,N,07915.0302,W,1,10,1.6,12,M,,M,,*69
05/31/2014	21:06:09.709	$GPGGA,210618,2508.9307,N,07915.0274,W,1,10,1.6,12,M,,M,,*60
05/31/2014	21:06:10.779	$GPGGA,210619,2508.9312,N,07915.0246,W,1,10,1.6,12,M,,M,,*64
05/31/2014	21:06:11.719	$GPGGA,210620,2508.9318,N,07915.0217,W,1,10,1.6,12,M,,M,,*60
05/31/2014	21:06:12.729	$GPGGA,210621,2508.9323,N,07915.0189,W,1,10,1.6,12,M,,M,,*6D
05/31/2014	21:06:13.719	$GPGGA,210622,2508.9328,N,07915.0160,W,1,10,1.6,12,M,,M,,*62
05/31/2014	21:06:14.738	$GPGGA,210623,2508.9333,N,07915.0132,W,1,10,1.6,12,M,,M,,*6E
05/31/2014	21:06:15.708	$GPGGA,210624,2508.9340,N,07915.0104,W,1,10,1.6,12,M,,M,,*68
05/31/2014	21:06:16.738	$GPGGA,210625,2508.9344,N,07915.0075,W,1,10,1.6,12,M,,M,,*6A
05/31/2014	21:06:17.688	$GPGGA,210626,2508.9350,N,07915.0046,W,1,10,1.6,12,M,,M,,*6C
05/31/2014	21:06:18.728	$GPGGA,210627,2508.9355,N,07915.0018,W,1,10,1.6,12,M,,M,,*63
05/31/2014	21:06:19.720	$GPGGA,210628,2508.9359,N,07914.9989,W,1,10,1.6,12,M,,M,,*69
05/31/2014	21:06:20.730	$GPGGA,210629,2508.9366,N,07914.9961,W,1,10,1.6,12,M,,M,,*62
05/31/2014	21:06:21.740	$GPGGA,210630,2508.9370,N,07914.9932,W,1,10,1.6,12,M,,M,,*6B
05/31/2014	21:06:22.709	$GPGGA,210631,2508.9370,N,07914.9932,W,1,10,1.6,12,M,,M,,*6A
05/31/2014	21:06:23.709	$GPGGA,210632,2508.9381,N,07914.9875,W,1,10,1.6,12,M,,M,,*65
05/31/2014	21:06:24.698	$GPGGA,210633,2508.9381,N,07914.9875,W,1,10,1.6,12,M,,M,,*64
05/31/2014	21:06:25.698	$GPGGA,210634,2508.9393,N,07914.9818,W,1,10,1.6,12,M,,M,,*6B
05/31/2014	21:06:26.698	$GPGGA,210635,2508.9393,N,07914.9818,W,1,10,1.6,12,M,,M,,*6A
05/31/2014	21:06:27.678	$GPGGA,210636,2508.9402,N,07914.9761,W,1,10,1.6,12,M,,M,,*67
05/31/2014	21:06:28.698	$GPGGA,210637,2508.9402,N,07914.9761,W,1,10,1.6,12,M,,M,,*66
05/31/2014	21:06:29.677	$GPGGA,210638,2508.9413,N,07914.9704,W,1,10,1.6,12,M,,M,,*6A
05/31/2014	21:06:30.687	$GPGGA,210639,2508.9413,N,07914.9704,W,1,10,1.6,12,M,,M,,*6B
05/31/2014	21:06:31.687	$GPGGA,210640,2508.9426,N,07914.9647,W,1,10,1.6,12,M,,M,,*65
05/31/2014	21:06:32.687	$GPGGA,210641,2508.9426,N,07914.9647,W,1,10,1.6,12,M,,M,,*64
05/31/2014	21:06:33.757	$GPGGA,210642,2508.9437,N,07914.9591,W,1,10,1.6,12,M,,M,,*6F
05/31/2014	21:06:34.686	$GPGGA,210643,2508.9437,N,07914.9591,W,1,10,1.6,12,M,,M,,*6E
05/31/2014	21:06:35.766	$GPGGA,210644,2508.9449,N,07914.9535,W,1,10,1.6,12,M,,M,,*6E
05/31/2014	21:06:36.736	$GPGGA,210645,2508.9455,N,07914.9506,W,1,10,1.6,12,M,,M,,*62
05/31/2014	21:06:37.746	$GPGGA,210646,2508.9460,N,07914.9478,W,1,10,1.6,12,M,,M,,*6F
05/31/2014	21:06:38.756	$GPGGA,210647,2508.9467,N,07914.9450,W,1,10,1.6,12,M,,M,,*63
05/31/2014	21:06:39.765	$GPGGA,210648,2508.9474,N,07914.9422,W,1,10,1.6,12,M,,M,,*6B
05/31/2014	21:06:40.754	$GPGGA,210649,2508.9478,N,07914.9394,W,1,10,1.6,12,M,,M,,*6C
05/31/2014	21:06:41.654	$GPGGA,210650,2508.9485,N,07914.9365,W,1,10,1.6,12,M,,M,,*68
05/31/2014	21:06:42.774	$GPGGA,210651,2508.9492,N,07914.9338,W,1,10,1.6,12,M,,M,,*67
05/31/2014	21:06:43.744	$GPGGA,210652,2508.9498,N,07914.9310,W,1,10,1.6,12,M,,M,,*64
05/31/2014	21:06:44.773	$GPGGA,210653,2508.9498,N,07914.9310,W,1,10,1.6,12,M,,M,,*65
05/31/2014	21:06:45.743	$GPGGA,210654,2508.9510,N,07914.9254,W,1,10,1.6,12,M,,M,,*62
05/31/2014	21:06:46.773	$GPGGA,210655,2508.9517,N,07914.9225,W,1,10,1.6,12,M,,M,,*62
05/31/2014	21:06:47.743	$GPGGA,210656,2508.9523,N,07914.9197,W,1,10,1.6,12,M,,M,,*6C
05/31/2014	21:06:48.753	$GPGGA,210657,2508.9523,N,07914.9197,W,1,10,1.6,12,M,,M,,*6D
05/31/2014	21:06:49.732	$GPGGA,210658,2508.9535,N,07914.9140,W,1,10,1.6,12,M,,M,,*6F
05/31/2014	21:06:50.752	$GPGGA,210659,2508.9539,N,07914.9112,W,1,10,1.6,12,M,,M,,*65
05/31/2014	21:06:51.742	$GPGGA,210700,2508.9547,N,07914.9084,W,1,10,1.6,12,M,,M,,*6F
05/31/2014	21:06:52.752	$GPGGA,210701,2508.9554,N,07914.9056,W,1,10,1.6,12,M,,M,,*63
05/31/2014	21:06:53.712	$GPGGA,210702,2508.9560,N,07914.9028,W,1,10,1.6,12,M,,M,,*6E
05/31/2014	21:06:54.751	$GPGGA,210703,2508.9565,N,07914.8999,W,1,10,1.6,12,M,,M,,*68
05/31/2014	21:06:55.731	$GPGGA,210704,2508.9572,N,07914.8971,W,1,10,1.6,12,M,,M,,*6F
05/31/2014	21:06:56.731	$GPGGA,210705,2508.9578,N,07914.8943,W,1,10,1.6,12,M,,M,,*65
05/31/2014	21:06:57.710	$GPGGA,210706,2508.9583,N,07914.8914,W,1,10,1.6,12,M,,M,,*60
05/31/2014	21:06:58.730	$GPGGA,210707,2508.9590,N,07914.8886,W,1,10,1.6,12,M,,M,,*69
05/31/2014	21:06:59.719	$GPGGA,210708,2508.9596,N,07914.8857,W,1,10,1.6,12,M,,M,,*6C
05/31/2014	21:07:00.719	$GPGGA,210709,2508.9601,N,07914.8828,W,1,10,1.6,12,M,,M,,*68
05/31/2014	21:07:01.689	$GPGGA,210710,2508.9607,N,07914.8800,W,1,10,1.6,12,M,,M,,*6C
05/31/2014	21:07:02.719	$GPGGA,210711,2508.9612,N,07914.8772,W,1,10,1.6,12,M,,M,,*63
05/31/2014	21:07:03.709	$GPGGA,210712,2508.9619,N,07914.8744,W,1,10,1.6,12,M,,M,,*6E
05/31/2014	21:07:04.728	$GPGGA,210713,2508.9625,N,07914.8715,W,1,10,1.6,12,M,,M,,*64
05/31/2014	21:07:05.678	$GPGGA,210714,2508.9630,N,07914.8687,W,1,10,1.6,12,M,,M,,*6D
05/31/2014	21:07:06.718	$GPGGA,210715,2508.9637,N,07914.8658,W,1,10,1.6,12,M,,M,,*69
05/31/2014	21:07:07.708	$GPGGA,210716,2508.9641,N,07914.8629,W,1,10,1.6,12,M,,M,,*6D
05/31/2014	21:07:08.718	$GPGGA,210717,2508.9648,N,07914.8601,W,1,10,1.6,12,M,,M,,*6F
05/31/2014	21:07:09.677	$GPGGA,210718,2508.9654,N,07914.8572,W,1,10,1.6,12,M,,M,,*6A
05/31/2014	21:07:10.677	$GPGGA,210719,2508.9659,N,07914.8544,W,1,10,1.6,12,M,,M,,*63
05/31/2014	21:07:11.697	$GPGGA,210720,2508.9665,N,07914.8516,W,1,10,1.6,12,M,,M,,*61
05/31/2014	21:07:12.697	$GPGGA,210721,2508.9670,N,07914.8488,W,1,10,1.6,12,M,,M,,*62
05/31/2014	21:07:13.667	$GPGGA,210722,2508.9677,N,07914.8459,W,1,10,1.6,12,M,,M,,*6A
05/31/2014	21:07:14.686	$GPGGA,210723,2508.9683,N,07914.8431,W,1,10,1.6,12,M,,M,,*6E
05/31/2014	21:07:15.685	$GPGGA,210724,2508.9688,N,07914.8402,W,1,10,1.6,12,M,,M,,*62
05/31/2014	21:07:16.675	$GPGGA,210725,2508.9694,N,07914.8374,W,1,10,1.6,12,M,,M,,*68
05/31/2014	21:07:17.655	$GPGGA,210726,2508.9699,N,07914.8345,W,1,10,1.6,12,M,,M,,*64
05/31/2014	21:07:18.675	$GPGGA,210727,2508.9706,N,07914.8317,W,1,10,1.6,12,M,,M,,*65
05/31/2014	21:07:19.798	$GPGGA,210728,2508.9711,N,07914.8289,W,1,10,1.6,12,M,,M,,*6A
05/31/2014	21:07:20.778	$GPGGA,210729,2508.9716,N,07914.8260,W,1,10,1.6,12,M,,M,,*6B
05/31/2014	21:07:21.678	$GPGGA,210730,2508.9722,N,07914.8232,W,1,10,1.6,12,M,,M,,*63
05/31/2014	21:07:22.758	$GPGGA,210731,2508.9729,N,07914.8204,W,1,10,1.6,12,M,,M,,*6C
05/31/2014	21:07:23.678	$GPGGA,210732,2508.9734,N,07914.8176,W,1,10,1.6,12,M,,M,,*65
05/31/2014	21:07:24.777	$GPGGA,210733,2508.9740,N,07914.8148,W,1,10,1.6,12,M,,M,,*6A
05/31/2014	21:07:25.748	$GPGGA,210734,2508.9745,N,07914.8120,W,1,10,1.6,12,M,,M,,*66
05/31/2014	21:07:26.757	$GPGGA,210735,2508.9751,N,07914.8091,W,1,10,1.6,12,M,,M,,*69
05/31/2014	21:07:27.667	$GPGGA,210736,2508.9756,N,07914.8063,W,1,10,1.6,12,M,,M,,*60
05/31/2014	21:07:28.757	$GPGGA,210737,2508.9762,N,07914.8034,W,1,10,1.6,12,M,,M,,*64
05/31/2014	21:07:29.656	$GPGGA,210738,2508.9767,N,07914.8005,W,1,10,1.6,12,M,,M,,*6C
05/31/2014	21:07:30.746	$GPGGA,210739,2508.9774,N,07914.7978,W,1,10,1.6,12,M,,M,,*63
05/31/2014	21:07:31.756	$GPGGA,210740,2508.9780,N,07914.7950,W,1,10,1.6,12,M,,M,,*6C
05/31/2014	21:07:32.745	$GPGGA,210741,2508.9785,N,07914.7923,W,1,10,1.6,12,M,,M,,*6C
05/31/2014	21:07:33.745	$GPGGA,210742,2508.9789,N,07914.7894,W,1,10,1.6,12,M,,M,,*6E
05/31/2014	21:07:34.744	$GPGGA,210743,2508.9796,N,07914.7866,W,1,10,1.6,12,M,,M,,*6C
05/31/2014	21:07:35.744	$GPGGA,210744,2508.9803,N,07914.7838,W,1,10,1.6,12,M,,M,,*63
05/31/2014	21:07:36.754	$GPGGA,210745,2508.9807,N,07914.7810,W,1,10,1.6,12,M,,M,,*6C
05/31/2014	21:07:37.724	$GPGGA,210746,2508.9811,N,07914.7783,W,1,10,2.0,12,M,,M,,*68
05/31/2014	21:07:38.744	$GPGGA,210747,2508.9818,N,07914.7755,W,1,10,1.6,12,M,,M,,*6E
05/31/2014	21:07:39.733	$GPGGA,210748,2508.9824,N,07914.7728,W,1,10,1.6,12,M,,M,,*64
05/31/2014	21:07:40.713	$GPGGA,210749,2508.9829,N,07914.7700,W,1,10,1.6,12,M,,M,,*62
05/31/2014	21:07:41.723	$GPGGA,210750,2508.9836,N,07914.7672,W,1,10,1.6,12,M,,M,,*60
05/31/2014	21:07:42.733	$GPGGA,210751,2508.9842,N,07914.7645,W,1,10,1.6,12,M,,M,,*66
05/31/2014	21:07:43.723	$GPGGA,210752,2508.9847,N,07914.7617,W,1,10,1.6,12,M,,M,,*67
05/31/2014	21:07:44.742	$GPGGA,210753,2508.9854,N,07914.7589,W,1,10,1.6,12,M,,M,,*60
05/31/2014	21:07:45.712	$GPGGA,210754,2508.9860,N,07914.7562,W,1,10,1.6,12,M,,M,,*65
05/31/2014	21:07:46.712	$GPGGA,210755,2508.9865,N,07914.7535,W,1,10,1.6,12,M,,M,,*63
05/31/2014	21:07:47.712	$GPGGA,210756,2508.9872,N,07914.7507,W,1,10,1.6,12,M,,M,,*67
05/31/2014	21:07:48.732	$GPGGA,210757,2508.9878,N,07914.7479,W,1,10,1.6,12,M,,M,,*64
05/31/2014	21:07:49.701	$GPGGA,210758,2508.9883,N,07914.7451,W,1,10,1.6,12,M,,M,,*65
05/31/2014	21:07:50.730	$GPGGA,210759,2508.9890,N,07914.7424,W,1,10,1.6,12,M,,M,,*64
05/31/2014	21:07:51.720	$GPGGA,210800,2508.9897,N,07914.7396,W,1,10,1.6,12,M,,M,,*6E
05/31/2014	21:07:52.710	$GPGGA,210801,2508.9903,N,07914.7369,W,1,10,1.6,12,M,,M,,*63
05/31/2014	21:07:53.680	$GPGGA,210802,2508.9908,N,07914.7341,W,1,10,1.6,12,M,,M,,*61
05/31/2014	21:07:54.709	$GPGGA,210803,2508.9915,N,07914.7314,W,1,10,1.6,13,M,,M,,*6D
05/31/2014	21:07:55.689	$GPGGA,210804,2508.9922,N,07914.7286,W,1,10,1.6,13,M,,M,,*64
05/31/2014	21:07:56.699	$GPGGA,210805,2508.9928,N,07914.7258,W,1,10,1.6,13,M,,M,,*6C
05/31/2014	21:07:57.679	$GPGGA,210806,2508.9933,N,07914.7230,W,1,10,1.6,13,M,,M,,*6B
05/31/2014	21:07:58.689	$GPGGA,210807,2508.9941,N,07914.7202,W,1,10,1.6,13,M,,M,,*6E
05/31/2014	21:07:59.698	$GPGGA,210808,2508.9948,N,07914.7174,W,1,10,1.6,13,M,,M,,*6A
05/31/2014	21:08:00.788	$GPGGA,210809,2508.9954,N,07914.7146,W,1,10,1.6,13,M,,M,,*67
05/31/2014	21:08:01.668	$GPGGA,210810,2508.9959,N,07914.7119,W,1,10,1.6,13,M,,M,,*68
05/31/2014	21:08:02.658	$GPGGA,210811,2508.9966,N,07914.7091,W,1,10,1.6,13,M,,M,,*64
05/31/2014	21:08:03.678	$GPGGA,210812,2508.9973,N,07914.7063,W,1,10,1.6,13,M,,M,,*6E
05/31/2014	21:08:04.759	$GPGGA,210813,2508.9977,N,07914.7035,W,1,10,1.6,13,M,,M,,*68
05/31/2014	21:08:05.757	$GPGGA,210814,2508.9984,N,07914.7007,W,1,10,1.6,13,M,,M,,*62
05/31/2014	21:08:06.677	$GPGGA,210815,2508.9991,N,07914.6979,W,1,10,1.6,13,M,,M,,*66
05/31/2014	21:08:07.786	$GPGGA,210816,2508.9997,N,07914.6951,W,1,10,1.6,13,M,,M,,*69
05/31/2014	21:08:08.756	$GPGGA,210817,2509.0002,N,07914.6923,W,1,10,1.6,13,M,,M,,*60
05/31/2014	21:08:09.645	$GPGGA,210818,2509.0009,N,07914.6895,W,1,10,1.6,14,M,,M,,*6F
05/31/2014	21:08:10.755	$GPGGA,210819,2509.0016,N,07914.6867,W,1,10,1.6,14,M,,M,,*6D
05/31/2014	21:08:11.775	$GPGGA,210820,2509.0022,N,07914.6839,W,1,10,1.6,14,M,,M,,*6B
05/31/2014	21:08:12.735	$GPGGA,210821,2509.0027,N,07914.6811,W,1,10,1.6,14,M,,M,,*65
05/31/2014	21:08:13.735	$GPGGA,210822,2509.0034,N,07914.6784,W,1,10,1.6,14,M,,M,,*67
05/31/2014	21:08:14.764	$GPGGA,210823,2509.0041,N,07914.6755,W,1,10,1.6,14,M,,M,,*68
05/31/2014	21:08:15.754	$GPGGA,210824,2509.0047,N,07914.6727,W,1,10,1.6,14,M,,M,,*6C
05/31/2014	21:08:16.724	$GPGGA,210825,2509.0053,N,07914.6699,W,1,10,1.6,14,M,,M,,*6C
05/31/2014	21:08:17.734	$GPGGA,210826,2509.0060,N,07914.6671,W,1,10,1.6,14,M,,M,,*69
05/31/2014	21:08:18.724	$GPGGA,210827,2509.0066,N,07914.6643,W,1,10,1.6,14,M,,M,,*6F
05/31/2014	21:08:19.747	$GPGGA,210828,2509.0071,N,07914.6615,W,1,10,1.6,14,M,,M,,*65
05/31/2014	21:08:20.757	$GPGGA,210829,2509.0078,N,07914.6587,W,1,10,1.6,14,M,,M,,*65
05/31/2014	21:08:21.727	$GPGGA,210830,2509.0084,N,07914.6559,W,1,10,1.6,14,M,,M,,*6D
05/31/2014	21:08:22.747	$GPGGA,210831,2509.0089,N,07914.6531,W,1,10,1.6,14,M,,M,,*6F
05/31/2014	21:08:23.747	$GPGGA,210832,2509.0096,N,07914.6503,W,1,10,1.6,14,M,,M,,*63
05/31/2014	21:08:24.746	$GPGGA,210833,2509.0103,N,07914.6475,W,1,10,1.6,14,M,,M,,*6F
05/31/2014	21:08:25.735	$GPGGA,210834,2509.0109,N,07914.6446,W,1,10,1.6,14,M,,M,,*62
05/31/2014	21:08:26.735	$GPGGA,210835,2509.0116,N,07914.6418,W,1,10,1.6,14,M,,M,,*66
05/31/2014	21:08:27.745	$GPGGA,210836,2509.0123,N,07914.6390,W,1,10,1.6,14,M,,M,,*64
05/31/2014	21:08:28.735	$GPGGA,210837,2509.0128,N,07914.6362,W,1,10,1.6,14,M,,M,,*63
05/31/2014	21:08:29.724	$GPGGA,210838,2509.0135,N,07914.6335,W,1,10,1.6,14,M,,M,,*62
05/31/2014	21:08:30.744	$GPGGA,210839,2509.0142,N,07914.6307,W,1,10,1.6,14,M,,M,,*62
05/31/2014	21:08:31.724	$GPGGA,210840,2509.0146,N,07914.6279,W,1,10,1.6,14,M,,M,,*60
05/31/2014	21:08:32.744	$GPGGA,210841,2509.0154,N,07914.6251,W,1,10,1.6,14,M,,M,,*68
05/31/2014	21:08:33.704	$GPGGA,210842,2509.0161,N,07914.6223,W,1,10,1.6,14,M,,M,,*68
05/31/2014	21:08:34.703	$GPGGA,210843,2509.0167,N,07914.6196,W,1,10,1.6,14,M,,M,,*62
05/31/2014	21:08:35.713	$GPGGA,210844,2509.0174,N,07914.6168,W,1,10,1.6,14,M,,M,,*66
05/31/2014	21:08:36.693	$GPGGA,210845,2509.0179,N,07914.6140,W,1,10,1.6,14,M,,M,,*60
05/31/2014	21:08:37.703	$GPGGA,210846,2509.0186,N,07914.6113,W,1,10,1.6,14,M,,M,,*65
05/31/2014	21:08:38.703	$GPGGA,210847,2509.0193,N,07914.6086,W,1,10,1.6,14,M,,M,,*6D
05/31/2014	21:08:39.712	$GPGGA,210848,2509.0199,N,07914.6058,W,1,10,1.6,14,M,,M,,*6B
05/31/2014	21:08:40.732	$GPGGA,210849,2509.0206,N,07914.6030,W,1,10,1.6,14,M,,M,,*61
05/31/2014	21:08:41.682	$GPGGA,210850,2509.0212,N,07914.6002,W,1,10,1.6,14,M,,M,,*6D
05/31/2014	21:08:42.701	$GPGGA,210851,2509.0219,N,07914.5974,W,1,10,1.6,14,M,,M,,*6C
05/31/2014	21:08:43.702	$GPGGA,210852,2509.0225,N,07914.5946,W,1,10,1.6,14,M,,M,,*61
05/31/2014	21:08:44.690	$GPGGA,210853,2509.0232,N,07914.5918,W,1,10,1.6,14,M,,M,,*6D
05/31/2014	21:08:45.670	$GPGGA,210854,2509.0237,N,07914.5891,W,1,10,1.6,14,M,,M,,*6F
05/31/2014	21:08:46.790	$GPGGA,210855,2509.0244,N,07914.5863,W,1,10,1.6,14,M,,M,,*67
05/31/2014	21:08:47.680	$GPGGA,210856,2509.0248,N,07914.5835,W,1,10,1.6,14,M,,M,,*6B
05/31/2014	21:08:48.700	$GPGGA,210857,2509.0255,N,07914.5807,W,1,10,1.6,14,M,,M,,*67
05/31/2014	21:08:49.669	$GPGGA,210858,2509.0262,N,07914.5779,W,1,10,1.6,14,M,,M,,*6A
05/31/2014	21:08:50.689	$GPGGA,210859,2509.0266,N,07914.5751,W,1,10,1.6,14,M,,M,,*65
05/31/2014	21:08:51.689	$GPGGA,210900,2509.0272,N,07914.5723,W,1,10,1.6,14,M,,M,,*68
05/31/2014	21:08:52.659	$GPGGA,210901,2509.0276,N,07914.5695,W,1,10,1.6,14,M,,M,,*61
05/31/2014	21:08:53.749	$GPGGA,210902,2509.0283,N,07914.5667,W,1,10,1.6,14,M,,M,,*65
05/31/2014	21:08:54.668	$GPGGA,210903,2509.0287,N,07914.5638,W,1,10,1.6,14,M,,M,,*6A
05/31/2014	21:08:55.799	$GPGGA,210904,2509.0291,N,07914.5612,W,1,10,4.0,13,M,,M,,*66
05/31/2014	21:08:56.760	$GPGGA,210905,2509.0295,N,07914.5585,W,1,9,2.0,13,M,,M,,*50
05/31/2014	21:08:57.658	$GPGGA,210906,2509.0298,N,07914.5558,W,1,9,2.0,14,M,,M,,*59
05/31/2014	21:08:58.748	$GPGGA,210907,2509.0302,N,07914.5531,W,1,9,2.0,14,M,,M,,*55
05/31/2014	21:08:59.757	$GPGGA,210908,2509.0305,N,07914.5502,W,1,9,1.6,14,M,,M,,*58
05/31/2014	21:09:00.776	$GPGGA,210909,2509.0309,N,07914.5475,W,1,10,1.6,14,M,,M,,*6C
05/31/2014	21:09:01.736	$GPGGA,210910,2509.0313,N,07914.5448,W,1,10,1.6,14,M,,M,,*61
05/31/2014	21:09:02.646	$GPGGA,210911,2509.0316,N,07914.5420,W,1,10,1.6,14,M,,M,,*6B
05/31/2014	21:09:03.747	$GPGGA,210912,2509.0320,N,07914.5392,W,1,10,1.6,14,M,,M,,*63
05/31/2014	21:09:04.735	$GPGGA,210913,2509.0323,N,07914.5364,W,1,10,1.6,14,M,,M,,*68
05/31/2014	21:09:05.635	$GPGGA,210914,2509.0326,N,07914.5337,W,1,10,1.6,14,M,,M,,*6C
05/31/2014	21:09:06.725	$GPGGA,210915,2509.0327,N,07914.5310,W,1,9,2.0,14,M,,M,,*54
05/31/2014	21:09:07.735	$GPGGA,210916,2509.0331,N,07914.5282,W,1,9,2.0,14,M,,M,,*5A
05/31/2014	21:09:08.755	$GPGGA,210917,2509.0334,N,07914.5255,W,1,9,2.0,14,M,,M,,*54
05/31/2014	21:09:09.724	$GPGGA,210918,2509.0337,N,07914.5228,W,1,9,1.6,14,M,,M,,*57
05/31/2014	21:09:10.714	$GPGGA,210919,2509.0338,N,07914.5200,W,1,9,2.0,14,M,,M,,*56
05/31/2014	21:09:11.724	$GPGGA,210920,2509.0341,N,07914.5173,W,1,9,2.0,15,M,,M,,*54
05/31/2014	21:09:12.704	$GPGGA,210921,2509.0345,N,07914.5145,W,1,9,2.0,15,M,,M,,*54
05/31/2014	21:09:13.704	$GPGGA,210922,2509.0347,N,07914.5117,W,1,9,2.0,15,M,,M,,*52
05/31/2014	21:09:14.703	$GPGGA,210923,2509.0349,N,07914.5091,W,1,9,2.0,15,M,,M,,*52
05/31/2014	21:09:15.723	$GPGGA,210924,2509.0352,N,07914.5063,W,1,9,1.6,15,M,,M,,*57
05/31/2014	21:09:16.693	$GPGGA,210925,2509.0354,N,07914.5036,W,1,9,2.0,15,M,,M,,*55
05/31/2014	21:09:17.702	$GPGGA,210926,2509.0356,N,07914.5008,W,1,9,1.6,15,M,,M,,*5C
05/31/2014	21:09:18.692	$GPGGA,210927,2509.0358,N,07914.4980,W,1,10,1.6,15,M,,M,,*63
05/31/2014	21:09:19.724	$GPGGA,210928,2509.0359,N,07914.4952,W,1,10,1.6,15,M,,M,,*62
05/31/2014	21:09:20.734	$GPGGA,210929,2509.0363,N,07914.4923,W,1,10,1.6,16,M,,M,,*6F
05/31/2014	21:09:21.714	$GPGGA,210930,2509.0365,N,07914.4894,W,1,10,2.0,16,M,,M,,*69
05/31/2014	21:09:22.694	$GPGGA,210931,2509.0367,N,07914.4867,W,1,9,2.0,16,M,,M,,*5E
05/31/2014	21:09:23.724	$GPGGA,210932,2509.0367,N,07914.4842,W,1,9,1.6,16,M,,M,,*5F
05/31/2014	21:09:24.733	$GPGGA,210933,2509.0369,N,07914.4815,W,1,10,1.6,16,M,,M,,*6A
05/31/2014	21:09:25.693	$GPGGA,210934,2509.0370,N,07914.4787,W,1,10,1.6,16,M,,M,,*61
05/31/2014	21:09:26.693	$GPGGA,210935,2509.0373,N,07914.4759,W,1,9,1.8,16,M,,M,,*56
05/31/2014	21:09:27.713	$GPGGA,210936,2509.0378,N,07914.4731,W,1,9,1.6,16,M,,M,,*5E
05/31/2014	21:09:28.723	$GPGGA,210937,2509.0381,N,07914.4702,W,1,10,1.6,16,M,,M,,*61
05/31/2014	21:09:29.702	$GPGGA,210938,2509.0383,N,07914.4672,W,1,10,2.0,17,M,,M,,*6E
05/31/2014	21:09:30.682	$GPGGA,210939,2509.0387,N,07914.4643,W,1,10,1.6,17,M,,M,,*6C
05/31/2014	21:09:31.702	$GPGGA,210940,2509.0389,N,07914.4614,W,1,10,2.0,17,M,,M,,*6B
05/31/2014	21:09:32.702	$GPGGA,210941,2509.0392,N,07914.4586,W,1,9,2.0,17,M,,M,,*50
05/31/2014	21:09:33.669	$GPGGA,210942,2509.0394,N,07914.4558,W,1,9,2.0,17,M,,M,,*56
05/31/2014	21:09:34.681	$GPGGA,210943,2509.0396,N,07914.4530,W,1,10,1.6,17,M,,M,,*66
05/31/2014	21:09:35.700	$GPGGA,210944,2509.0399,N,07914.4502,W,1,10,1.6,17,M,,M,,*6F
05/31/2014	21:09:36.660	$GPGGA,210945,2509.0402,N,07914.4473,W,1,9,2.0,17,M,,M,,*51
05/31/2014	21:09:37.780	$GPGGA,210946,2509.0403,N,07914.4445,W,1,9,2.0,17,M,,M,,*56
05/31/2014	21:09:38.680	$GPGGA,210947,2509.0406,N,07914.4416,W,1,9,2.0,17,M,,M,,*54
05/31/2014	21:09:39.779	$GPGGA,210948,2509.0409,N,07914.4387,W,1,9,2.0,17,M,,M,,*5B
05/31/2014	21:09:40.679	$GPGGA,210949,2509.0412,N,07914.4359,W,1,9,2.0,17,M,,M,,*53
05/31/2014	21:09:41.749	$GPGGA,210950,2509.0414,N,07914.4330,W,1,9,2.0,17,M,,M,,*52
05/31/2014	21:09:42.650	$GPGGA,210951,2509.0417,N,07914.4302,W,1,9,2.0,17,M,,M,,*51
05/31/2014	21:09:43.659	$GPGGA,210952,2509.0421,N,07914.4273,W,1,9,2.0,17,M,,M,,*50
05/31/2014	21:09:44.668	$GPGGA,210953,2509.0425,N,07914.4242,W,1,9,2.0,17,M,,M,,*57
05/31/2014	21:09:45.748	$GPGGA,210954,2509.0428,N,07914.4216,W,1,9,1.6,17,M,,M,,*59
05/31/2014	21:09:46.668	$GPGGA,210955,2509.0432,N,07914.4185,W,1,10,1.6,17,M,,M,,*62
05/31/2014	21:09:47.768	$GPGGA,210956,2509.0435,N,07914.4157,W,1,10,1.6,17,M,,M,,*69
05/31/2014	21:09:48.778	$GPGGA,210957,2509.0436,N,07914.4130,W,1,10,1.6,17,M,,M,,*6A
05/31/2014	21:09:49.737	$GPGGA,210958,2509.0439,N,07914.4103,W,1,10,1.6,17,M,,M,,*6A
05/31/2014	21:09:50.748	$GPGGA,210959,2509.0443,N,07914.4075,W,1,10,1.6,17,M,,M,,*66
05/31/2014	21:09:51.758	$GPGGA,211000,2509.0446,N,07914.4048,W,1,10,2.0,17,M,,M,,*6C
05/31/2014	21:09:52.746	$GPGGA,211001,2509.0448,N,07914.4023,W,1,9,1.6,17,M,,M,,*53
05/31/2014	21:09:53.725	$GPGGA,211002,2509.0450,N,07914.3997,W,1,9,1.7,18,M,,M,,*56
05/31/2014	21:09:54.746	$GPGGA,211003,2509.0452,N,07914.3970,W,1,9,1.6,18,M,,M,,*5D
05/31/2014	21:09:55.745	$GPGGA,211004,2509.0456,N,07914.3944,W,1,9,1.6,18,M,,M,,*59
05/31/2014	21:09:56.745	$GPGGA,211005,2509.0459,N,07914.3917,W,1,10,2.0,18,M,,M,,*6C
05/31/2014	21:09:57.724	$GPGGA,211006,2509.0461,N,07914.3890,W,1,10,2.0,18,M,,M,,*6A
05/31/2014	21:09:58.734	$GPGGA,211007,2509.0464,N,07914.3863,W,1,9,2.0,18,M,,M,,*5A
05/31/2014	21:09:59.734	$GPGGA,211008,2509.0471,N,07914.3832,W,1,9,3.9,18,M,,M,,*5D
05/31/2014	21:10:00.743	$GPGGA,211009,2509.0475,N,07914.3804,W,1,8,2.0,18,M,,M,,*54
05/31/2014	21:10:01.703	$GPGGA,211010,2509.0479,N,07914.3776,W,1,8,2.0,18,M,,M,,*5A
05/31/2014	21:10:02.743	$GPGGA,211011,2509.0482,N,07914.3748,W,1,9,2.0,18,M,,M,,*53
05/31/2014	21:10:03.722	$GPGGA,211012,2509.0486,N,07914.3721,W,1,9,2.0,18,M,,M,,*5B
05/31/2014	21:10:04.722	$GPGGA,211013,2509.0490,N,07914.3693,W,1,9,2.0,18,M,,M,,*55
05/31/2014	21:10:05.692	$GPGGA,211014,2509.0493,N,07914.3666,W,1,9,2.0,19,M,,M,,*5A
05/31/2014	21:10:06.722	$GPGGA,211015,2509.0497,N,07914.3638,W,1,9,2.0,19,M,,M,,*54
05/31/2014	21:10:07.711	$GPGGA,211016,2509.0501,N,07914.3611,W,1,9,2.0,19,M,,M,,*52
05/31/2014	21:10:08.711	$GPGGA,211017,2509.0506,N,07914.3584,W,1,9,2.0,19,M,,M,,*5B
05/31/2014	21:10:09.692	$GPGGA,211018,2509.0508,N,07914.3556,W,1,9,2.0,19,M,,M,,*55
05/31/2014	21:10:10.689	$GPGGA,211019,2509.0513,N,07914.3529,W,1,9,2.0,19,M,,M,,*56
05/31/2014	21:10:11.719	$GPGGA,211020,2509.0515,N,07914.3505,W,1,9,1.6,19,M,,M,,*51
05/31/2014	21:10:12.719	$GPGGA,211021,2509.0517,N,07914.3482,W,1,10,1.7,19,M,,M,,*65
05/31/2014	21:10:13.698	$GPGGA,211022,2509.0519,N,07914.3457,W,1,10,1.7,19,M,,M,,*60
05/31/2014	21:10:14.708	$GPGGA,211023,2509.0524,N,07914.3429,W,1,9,1.7,20,M,,M,,*54
05/31/2014	21:10:15.698	$GPGGA,211024,2509.0528,N,07914.3401,W,1,9,1.7,20,M,,M,,*55
05/31/2014	21:10:16.708	$GPGGA,211025,2509.0529,N,07914.3375,W,1,9,1.6,20,M,,M,,*50
05/31/2014	21:10:17.697	$GPGGA,211026,2509.0533,N,07914.3349,W,1,9,1.6,20,M,,M,,*57
05/31/2014	21:10:18.687	$GPGGA,211027,2509.0536,N,07914.3322,W,1,10,1.6,21,M,,M,,*67
05/31/2014	21:10:19.703	$GPGGA,211028,2509.0537,N,07914.3295,W,1,10,2.0,21,M,,M,,*61
05/31/2014	21:10:20.703	$GPGGA,211029,2509.0543,N,07914.3266,W,1,9,1.6,21,M,,M,,*52
05/31/2014	21:10:21.693	$GPGGA,211030,2509.0547,N,07914.3237,W,1,9,1.6,21,M,,M,,*5A
05/31/2014	21:10:22.693	$GPGGA,211031,2509.0550,N,07914.3209,W,1,10,2.0,21,M,,M,,*6D
05/31/2014	21:10:23.802	$GPGGA,211032,2509.0553,N,07914.3181,W,1,10,2.0,22,M,,M,,*6D
05/31/2014	21:10:24.702	$GPGGA,211033,2509.0557,N,07914.3153,W,1,9,2.0,22,M,,M,,*5F
05/31/2014	21:10:25.682	$GPGGA,211034,2509.0561,N,07914.3124,W,1,9,2.0,22,M,,M,,*5D
05/31/2014	21:10:26.691	$GPGGA,211035,2509.0562,N,07914.3095,W,1,9,2.0,22,M,,M,,*54
05/31/2014	21:10:27.790	$GPGGA,211036,2509.0566,N,07914.3067,W,1,9,2.0,22,M,,M,,*5E
05/31/2014	21:10:28.770	$GPGGA,211037,2509.0569,N,07914.3038,W,1,9,2.0,22,M,,M,,*5A
05/31/2014	21:10:29.669	$GPGGA,211038,2509.0573,N,07914.3010,W,1,9,2.0,22,M,,M,,*54
05/31/2014	21:10:30.659	$GPGGA,211039,2509.0576,N,07914.2982,W,1,9,2.0,22,M,,M,,*53
05/31/2014	21:10:31.769	$GPGGA,211040,2509.0580,N,07914.2952,W,1,9,1.6,22,M,,M,,*5C
05/31/2014	21:10:33.688	$GPGGA,211042,2509.0586,N,07914.2896,W,1,10,2.0,22,M,,M,,*6C
05/31/2014	21:10:34.668	$GPGGA,211043,2509.0589,N,07914.2868,W,1,9,2.0,22,M,,M,,*5B
05/31/2014	21:10:35.748	$GPGGA,211044,2509.0591,N,07914.2840,W,1,9,1.6,22,M,,M,,*5A
05/31/2014	21:10:36.757	$GPGGA,211045,2509.0594,N,07914.2810,W,1,10,1.6,22,M,,M,,*63
05/31/2014	21:10:37.747	$GPGGA,211046,2509.0598,N,07914.2782,W,1,10,1.6,22,M,,M,,*68
05/31/2014	21:10:38.777	$GPGGA,211047,2509.0598,N,07914.2782,W,1,10,1.6,22,M,,M,,*69
05/31/2014	21:10:39.747	$GPGGA,211048,2509.0604,N,07914.2725,W,1,10,2.0,21,M,,M,,*6B
05/31/2014	21:10:40.736	$GPGGA,211049,2509.0605,N,07914.2697,W,1,9,1.6,21,M,,M,,*5E
05/31/2014	21:10:41.726	$GPGGA,211050,2509.0609,N,07914.2669,W,1,9,2.0,21,M,,M,,*5E
05/31/2014	21:10:42.746	$GPGGA,211051,2509.0612,N,07914.2641,W,1,9,2.0,21,M,,M,,*5F
05/31/2014	21:10:43.735	$GPGGA,211052,2509.0615,N,07914.2611,W,1,9,2.0,21,M,,M,,*5E
05/31/2014	21:10:44.745	$GPGGA,211053,2509.0616,N,07914.2584,W,1,10,1.6,21,M,,M,,*6E
05/31/2014	21:10:45.724	$GPGGA,211054,2509.0620,N,07914.2557,W,1,10,1.6,21,M,,M,,*62
05/31/2014	21:10:46.733	$GPGGA,211055,2509.0622,N,07914.2529,W,1,9,2.0,21,M,,M,,*55
05/31/2014	21:10:47.733	$GPGGA,211056,2509.0625,N,07914.2500,W,1,9,2.0,21,M,,M,,*5A
05/31/2014	21:10:48.733	$GPGGA,211057,2509.0627,N,07914.2472,W,1,10,1.6,20,M,,M,,*61
05/31/2014	21:10:49.712	$GPGGA,211058,2509.0630,N,07914.2444,W,1,10,1.6,20,M,,M,,*6D
05/31/2014	21:10:50.732	$GPGGA,211059,2509.0634,N,07914.2416,W,1,9,1.9,20,M,,M,,*58
05/31/2014	21:10:51.722	$GPGGA,211100,2509.0638,N,07914.2386,W,1,9,1.9,20,M,,M,,*57
05/31/2014	21:10:52.731	$GPGGA,211101,2509.0641,N,07914.2358,W,1,8,3.8,20,M,,M,,*59
05/31/2014	21:10:53.701	$GPGGA,211102,2509.0645,N,07914.2330,W,1,8,1.9,20,M,,M,,*53
05/31/2014	21:10:54.721	$GPGGA,211103,2509.0648,N,07914.2302,W,1,9,1.9,20,M,,M,,*5F
05/31/2014	21:10:55.711	$GPGGA,211104,2509.0652,N,07914.2274,W,1,9,1.9,20,M,,M,,*53
05/31/2014	21:10:56.690	$GPGGA,211105,2509.0655,N,07914.2248,W,1,9,1.9,19,M,,M,,*50
05/31/2014	21:10:57.700	$GPGGA,211106,2509.0659,N,07914.2221,W,1,9,1.6,19,M,,M,,*5F
05/31/2014	21:10:58.690	$GPGGA,211107,2509.0663,N,07914.2194,W,1,10,1.6,19,M,,M,,*62
05/31/2014	21:10:59.699	$GPGGA,211108,2509.0666,N,07914.2167,W,1,10,1.6,19,M,,M,,*64
05/31/2014	21:11:00.669	$GPGGA,211109,2509.0667,N,07914.2142,W,1,9,1.7,19,M,,M,,*5A
05/31/2014	21:11:01.689	$GPGGA,211110,2509.0672,N,07914.2116,W,1,9,1.6,19,M,,M,,*56
05/31/2014	21:11:02.678	$GPGGA,211111,2509.0674,N,07914.2090,W,1,10,1.6,19,M,,M,,*66
05/31/2014	21:11:03.687	$GPGGA,211112,2509.0677,N,07914.2064,W,1,10,1.6,19,M,,M,,*6D
05/31/2014	21:11:04.697	$GPGGA,211113,2509.0685,N,07914.2033,W,1,9,1.9,19,M,,M,,*54
05/31/2014	21:11:05.667	$GPGGA,211114,2509.0688,N,07914.2006,W,1,9,3.8,19,M,,M,,*5B
05/31/2014	21:11:06.677	$GPGGA,211115,2509.0692,N,07914.1977,W,1,10,1.6,19,M,,M,,*69
05/31/2014	21:11:07.676	$GPGGA,211116,2509.0698,N,07914.1950,W,1,10,1.6,19,M,,M,,*65
05/31/2014	21:11:08.676	$GPGGA,211117,2509.0702,N,07914.1922,W,1,10,1.6,18,M,,M,,*62
05/31/2014	21:11:09.675	$GPGGA,211118,2509.0705,N,07914.1896,W,1,10,1.9,18,M,,M,,*6B
05/31/2014	21:11:10.665	$GPGGA,211119,2509.0709,N,07914.1869,W,1,9,1.9,18,M,,M,,*5E
05/31/2014	21:11:11.675	$GPGGA,211120,2509.0714,N,07914.1842,W,1,9,1.9,18,M,,M,,*51
05/31/2014	21:11:12.665	$GPGGA,211121,2509.0717,N,07914.1815,W,1,9,1.9,18,M,,M,,*51
05/31/2014	21:11:13.744	$GPGGA,211122,2509.0719,N,07914.1792,W,1,9,1.9,18,M,,M,,*5C
05/31/2014	21:11:14.664	$GPGGA,211123,2509.0724,N,07914.1764,W,1,10,1.6,18,M,,M,,*6D
05/31/2014	21:11:15.674	$GPGGA,211124,2509.0728,N,07914.1737,W,1,10,1.9,18,M,,M,,*6F
05/31/2014	21:11:16.663	$GPGGA,211125,2509.0730,N,07914.1712,W,1,9,1.9,18,M,,M,,*58
05/31/2014	21:11:17.763	$GPGGA,211126,2509.0734,N,07914.1685,W,1,9,1.6,19,M,,M,,*5E
05/31/2014	21:11:18.773	$GPGGA,211127,2509.0739,N,07914.1657,W,1,10,1.6,19,M,,M,,*65
05/31/2014	21:11:19.781	$GPGGA,211128,2509.0743,N,07914.1630,W,1,10,1.9,19,M,,M,,*69
05/31/2014	21:11:20.661	$GPGGA,211129,2509.0748,N,07914.1603,W,1,9,1.9,19,M,,M,,*5B
05/31/2014	21:11:21.750	$GPGGA,211130,2509.0752,N,07914.1576,W,1,9,1.6,19,M,,M,,*56
05/31/2014	21:11:22.779	$GPGGA,211131,2509.0757,N,07914.1549,W,1,10,1.6,19,M,,M,,*66
05/31/2014	21:11:23.749	$GPGGA,211132,2509.0763,N,07914.1519,W,1,10,1.6,19,M,,M,,*67
05/31/2014	21:11:24.649	$GPGGA,211133,2509.0768,N,07914.1492,W,1,8,3.8,19,M,,M,,*5A
05/31/2014	21:11:25.749	$GPGGA,211134,2509.0773,N,07914.1463,W,1,8,1.7,19,M,,M,,*54
05/31/2014	21:11:26.748	$GPGGA,211135,2509.0778,N,07914.1434,W,1,9,1.7,19,M,,M,,*5D
05/31/2014	21:11:27.748	$GPGGA,211136,2509.0782,N,07914.1407,W,1,9,1.6,19,M,,M,,*5A
05/31/2014	21:11:28.738	$GPGGA,211137,2509.0785,N,07914.1380,W,1,9,1.9,19,M,,M,,*5B
05/31/2014	21:11:29.727	$GPGGA,211138,2509.0792,N,07914.1349,W,1,9,1.6,19,M,,M,,*58
05/31/2014	21:11:30.737	$GPGGA,211139,2509.0793,N,07914.1325,W,1,8,3.8,19,M,,M,,*5F
05/31/2014	21:11:31.737	$GPGGA,211140,2509.0797,N,07914.1298,W,1,8,1.9,19,M,,M,,*51
05/31/2014	21:11:32.736	$GPGGA,211141,2509.0804,N,07914.1269,W,1,9,1.9,19,M,,M,,*5A
05/31/2014	21:11:33.716	$GPGGA,211142,2509.0807,N,07914.1241,W,1,9,1.9,19,M,,M,,*50
05/31/2014	21:11:34.736	$GPGGA,211143,2509.0811,N,07914.1212,W,1,9,1.9,19,M,,M,,*50
05/31/2014	21:11:35.736	$GPGGA,211144,2509.0814,N,07914.1186,W,1,9,1.9,19,M,,M,,*5C
05/31/2014	21:11:36.735	$GPGGA,211145,2509.0818,N,07914.1158,W,1,10,1.6,19,M,,M,,*65
05/31/2014	21:11:37.705	$GPGGA,211146,2509.0821,N,07914.1130,W,1,10,1.9,19,M,,M,,*6D
05/31/2014	21:11:38.744	$GPGGA,211147,2509.0825,N,07914.1101,W,1,10,1.6,19,M,,M,,*65
05/31/2014	21:11:39.723	$GPGGA,211148,2509.0829,N,07914.1073,W,1,10,1.6,19,M,,M,,*62
05/31/2014	21:11:40.703	$GPGGA,211149,2509.0833,N,07914.1045,W,1,10,1.6,19,M,,M,,*6D
05/31/2014	21:11:41.703	$GPGGA,211150,2509.0836,N,07914.1018,W,1,10,1.9,19,M,,M,,*67
05/31/2014	21:11:42.702	$GPGGA,211151,2509.0837,N,07914.0992,W,1,10,1.6,19,M,,M,,*62
