Software Version Number: 1	Data File Format Number: 1	Build Version Number: 1	Error Count Since VI Started: 0	Manufacturer: Raytheon	 Model Number: RayMarine 120	 S/N: 	 Cal Date: 	 Wind Direction Offset: 0.00	 Slope (M)1: 0.00	 Offset (B)1: 0.00	 Slope (M)2: 0.00	 Offset (B)2: 0.00	 Slope (M)3: 0.00	 Offset (B)3: 0.00	 Slope (M)4: 0.00	 Offset (B)4: 0.00	 Slope (M)5: 0.00	 Offset (B)5: 0.00	 Slope (M)6: 0.00	 Offset (B)6: 0.00
Computer Date	Computer Time	GGA String
06/02/2014	05:00:00.543	$GPGGA,050001,2445.0670,N,08017.0565,W,1,9,1.9,19,M,,M,,*53
06/02/2014	05:00:01.509	$GPGGA,050002,2445.0663,N,08017.0583,W,1,9,2.2,19,M,,M,,*52
06/02/2014	05:00:02.507	$GPGGA,050003,2445.0656,N,08017.0601,W,1,9,1.9,19,M,,M,,*54
06/02/2014	05:00:03.504	$GPGGA,050004,2445.0647,N,08017.0619,W,1,9,1.9,19,M,,M,,*5A
06/02/2014	05:00:04.522	$GPGGA,050005,2445.0639,N,08017.0639,W,1,9,1.9,19,M,,M,,*50
06/02/2014	05:00:05.500	$GPGGA,050006,2445.0634,N,08017.0658,W,1,9,1.9,19,M,,M,,*59
06/02/2014	05:00:06.497	$GPGGA,050007,2445.0627,N,08017.0676,W,1,9,1.9,19,M,,M,,*56
06/02/2014	05:00:07.504	$GPGGA,050008,2445.0618,N,08017.0691,W,1,9,1.9,19,M,,M,,*5C
06/02/2014	05:00:08.502	$GPGGA,050009,2445.0610,N,08017.0708,W,1,9,1.9,19,M,,M,,*54
06/02/2014	05:00:09.469	$GPGGA,050010,2445.0605,N,08017.0726,W,1,9,1.9,19,M,,M,,*54
06/02/2014	05:00:10.487	$GPGGA,050011,2445.0596,N,08017.0744,W,1,9,1.9,19,M,,M,,*58
06/02/2014	05:00:11.474	$GPGGA,050012,2445.0588,N,08017.0762,W,1,9,1.9,19,M,,M,,*50
06/02/2014	05:00:12.452	$GPGGA,050013,2445.0580,N,08017.0780,W,1,8,2.2,19,M,,M,,*5C
06/02/2014	05:00:13.619	$GPGGA,050014,2445.0573,N,08017.0798,W,1,8,1.9,19,M,,M,,*56
06/02/2014	05:00:14.457	$GPGGA,050015,2445.0565,N,08017.0816,W,1,9,1.9,19,M,,M,,*58
06/02/2014	05:00:15.464	$GPGGA,050016,2445.0558,N,08017.0834,W,1,9,1.9,19,M,,M,,*55
06/02/2014	05:00:16.442	$GPGGA,050017,2445.0551,N,08017.0852,W,1,8,2.0,19,M,,M,,*56
06/02/2014	05:00:17.439	$GPGGA,050018,2445.0544,N,08017.0868,W,1,8,1.9,19,M,,M,,*5E
06/02/2014	05:00:18.457	$GPGGA,050019,2445.0538,N,08017.0885,W,1,9,1.9,19,M,,M,,*56
06/02/2014	05:00:19.453	$GPGGA,050020,2445.0531,N,08017.0903,W,1,9,1.9,19,M,,M,,*5A
06/02/2014	05:00:20.421	$GPGGA,050021,2445.0524,N,08017.0921,W,1,9,1.9,19,M,,M,,*5F
06/02/2014	05:00:21.428	$GPGGA,050022,2445.0518,N,08017.0939,W,1,9,1.9,19,M,,M,,*5A
06/02/2014	05:00:22.426	$GPGGA,050023,2445.0512,N,08017.0958,W,1,9,1.9,19,M,,M,,*56
06/02/2014	05:00:23.433	$GPGGA,050024,2445.0505,N,08017.0976,W,1,9,1.9,19,M,,M,,*5B
06/02/2014	05:00:24.561	$GPGGA,050025,2445.0498,N,08017.0995,W,1,8,2.2,19,M,,M,,*5B
06/02/2014	05:00:25.418	$GPGGA,050026,2445.0492,N,08017.1015,W,1,8,1.9,19,M,,M,,*5A
06/02/2014	05:00:26.546	$GPGGA,050027,2445.0486,N,08017.1033,W,1,9,1.9,19,M,,M,,*5B
06/02/2014	05:00:27.573	$GPGGA,050028,2445.0481,N,08017.1053,W,1,9,1.9,19,M,,M,,*55
06/02/2014	05:00:28.399	$GPGGA,050029,2445.0475,N,08017.1073,W,1,9,1.9,19,M,,M,,*5D
06/02/2014	05:00:29.700	$GPGGA,050030,2445.0468,N,08017.1092,W,1,9,1.9,19,M,,M,,*56
06/02/2014	05:00:30.658	$GPGGA,050031,2445.0462,N,08017.1113,W,1,9,1.9,19,M,,M,,*55
06/02/2014	05:00:31.637	$GPGGA,050032,2445.0457,N,08017.1131,W,1,9,1.9,19,M,,M,,*50
06/02/2014	05:00:32.663	$GPGGA,050033,2445.0450,N,08017.1149,W,1,9,1.9,19,M,,M,,*59
06/02/2014	05:00:33.620	$GPGGA,050034,2445.0444,N,08017.1167,W,1,9,1.9,19,M,,M,,*57
06/02/2014	05:00:34.658	$GPGGA,050035,2445.0439,N,08017.1186,W,1,9,1.9,19,M,,M,,*53
06/02/2014	05:00:35.616	$GPGGA,050036,2445.0432,N,08017.1203,W,1,9,1.9,20,M,,M,,*5F
06/02/2014	05:00:36.652	$GPGGA,050037,2445.0425,N,08017.1221,W,1,8,2.2,20,M,,M,,*51
06/02/2014	05:00:37.669	$GPGGA,050038,2445.0418,N,08017.1239,W,1,8,1.9,20,M,,M,,*51
06/02/2014	05:00:38.687	$GPGGA,050039,2445.0414,N,08017.1257,W,1,9,1.9,20,M,,M,,*55
06/02/2014	05:00:39.674	$GPGGA,050040,2445.0407,N,08017.1272,W,1,9,1.9,20,M,,M,,*5E
06/02/2014	05:00:40.612	$GPGGA,050041,2445.0403,N,08017.1288,W,1,8,1.9,20,M,,M,,*5F
06/02/2014	05:00:41.579	$GPGGA,050042,2445.0396,N,08017.1305,W,1,8,1.9,20,M,,M,,*53
06/02/2014	05:00:42.617	$GPGGA,050043,2445.0390,N,08017.1322,W,1,8,2.2,20,M,,M,,*59
06/02/2014	05:00:43.684	$GPGGA,050044,2445.0383,N,08017.1341,W,1,8,2.2,20,M,,M,,*59
06/02/2014	05:00:44.608	$GPGGA,050045,2445.0376,N,08017.1365,W,1,8,2.2,20,M,,M,,*54
06/02/2014	05:00:45.639	$GPGGA,050046,2445.0368,N,08017.1387,W,1,8,1.9,20,M,,M,,*5C
06/02/2014	05:00:46.557	$GPGGA,050047,2445.0363,N,08017.1405,W,1,9,1.9,20,M,,M,,*5A
06/02/2014	05:00:47.624	$GPGGA,050048,2445.0356,N,08017.1424,W,1,9,1.9,20,M,,M,,*50
06/02/2014	05:00:48.542	$GPGGA,050049,2445.0350,N,08017.1441,W,1,9,1.9,20,M,,M,,*54
06/02/2014	05:00:49.592	$GPGGA,050050,2445.0345,N,08017.1457,W,1,9,2.2,20,M,,M,,*57
06/02/2014	05:00:50.567	$GPGGA,050051,2445.0339,N,08017.1477,W,1,8,1.9,20,M,,M,,*56
06/02/2014	05:00:51.615	$GPGGA,050052,2445.0331,N,08017.1495,W,1,8,1.9,20,M,,M,,*51
06/02/2014	05:00:52.612	$GPGGA,050053,2445.0324,N,08017.1512,W,1,9,1.9,20,M,,M,,*5B
06/02/2014	05:00:53.519	$GPGGA,050054,2445.0318,N,08017.1530,W,1,9,1.9,20,M,,M,,*53
06/02/2014	05:00:54.556	$GPGGA,050055,2445.0311,N,08017.1547,W,1,9,2.2,20,M,,M,,*53
06/02/2014	05:00:55.583	$GPGGA,050056,2445.0304,N,08017.1564,W,1,9,1.9,20,M,,M,,*5D
06/02/2014	05:00:56.561	$GPGGA,050057,2445.0298,N,08017.1580,W,1,9,1.9,20,M,,M,,*52
06/02/2014	05:00:57.559	$GPGGA,050058,2445.0291,N,08017.1597,W,1,9,1.9,20,M,,M,,*52
06/02/2014	05:00:58.536	$GPGGA,050059,2445.0285,N,08017.1615,W,1,8,1.9,20,M,,M,,*5E
06/02/2014	05:00:59.573	$GPGGA,050100,2445.0277,N,08017.1633,W,1,8,1.9,20,M,,M,,*5A
06/02/2014	05:01:00.611	$GPGGA,050101,2445.0270,N,08017.1651,W,1,9,1.9,20,M,,M,,*59
06/02/2014	05:01:01.548	$GPGGA,050102,2445.0264,N,08017.1669,W,1,9,2.2,20,M,,M,,*5C
06/02/2014	05:01:02.526	$GPGGA,050103,2445.0258,N,08017.1687,W,1,8,1.9,20,M,,M,,*5B
06/02/2014	05:01:03.603	$GPGGA,050104,2445.0252,N,08017.1705,W,1,8,1.9,20,M,,M,,*5D
06/02/2014	05:01:04.521	$GPGGA,050105,2445.0246,N,08017.1723,W,1,9,1.9,20,M,,M,,*5C
06/02/2014	05:01:05.588	$GPGGA,050106,2445.0239,N,08017.1741,W,1,9,1.9,20,M,,M,,*53
06/02/2014	05:01:06.566	$GPGGA,050107,2445.0233,N,08017.1759,W,1,9,1.9,20,M,,M,,*51
06/02/2014	05:01:07.533	$GPGGA,050108,2445.0226,N,08017.1777,W,1,9,1.9,20,M,,M,,*56
06/02/2014	05:01:08.551	$GPGGA,050109,2445.0216,N,08017.1797,W,1,9,1.9,20,M,,M,,*5A
06/02/2014	05:01:09.508	$GPGGA,050110,2445.0208,N,08017.1817,W,1,9,1.9,20,M,,M,,*5A
06/02/2014	05:01:10.476	$GPGGA,050111,2445.0201,N,08017.1835,W,1,9,1.9,20,M,,M,,*52
06/02/2014	05:01:11.542	$GPGGA,050112,2445.0194,N,08017.1853,W,1,9,1.9,20,M,,M,,*5E
06/02/2014	05:01:12.531	$GPGGA,050113,2445.0187,N,08017.1871,W,1,9,1.9,20,M,,M,,*5D
06/02/2014	05:01:13.487	$GPGGA,050114,2445.0182,N,08017.1887,W,1,9,2.2,20,M,,M,,*5E
06/02/2014	05:01:14.565	$GPGGA,050115,2445.0175,N,08017.1902,W,1,8,2.2,20,M,,M,,*5A
06/02/2014	05:01:15.492	$GPGGA,050116,2445.0168,N,08017.1919,W,1,8,2.2,20,M,,M,,*5F
06/02/2014	05:01:16.510	$GPGGA,050117,2445.0162,N,08017.1940,W,1,8,1.9,20,M,,M,,*50
06/02/2014	05:01:17.527	$GPGGA,050118,2445.0155,N,08017.1958,W,1,8,1.9,20,M,,M,,*52
06/02/2014	05:01:18.535	$GPGGA,050119,2445.0147,N,08017.1976,W,1,9,2.2,20,M,,M,,*55
06/02/2014	05:01:19.519	$GPGGA,050120,2445.0140,N,08017.1996,W,1,9,1.9,20,M,,M,,*5E
06/02/2014	05:01:20.520	$GPGGA,050121,2445.0133,N,08017.2014,W,1,9,1.9,20,M,,M,,*5B
06/02/2014	05:01:21.497	$GPGGA,050122,2445.0127,N,08017.2034,W,1,9,1.9,20,M,,M,,*5F
06/02/2014	05:01:22.515	$GPGGA,050123,2445.0121,N,08017.2052,W,1,9,2.2,20,M,,M,,*50
06/02/2014	05:01:23.512	$GPGGA,050124,2445.0114,N,08017.2068,W,1,9,2.2,20,M,,M,,*58
06/02/2014	05:01:24.500	$GPGGA,050125,2445.0107,N,08017.2086,W,1,8,1.9,20,M,,M,,*52
06/02/2014	05:01:25.497	$GPGGA,050126,2445.0100,N,08017.2106,W,1,8,1.9,20,M,,M,,*5F
06/02/2014	05:01:26.485	$GPGGA,050127,2445.0094,N,08017.2124,W,1,9,1.9,20,M,,M,,*53
06/02/2014	05:01:27.496	$GPGGA,050128,2445.0087,N,08017.2140,W,1,9,2.2,20,M,,M,,*54
06/02/2014	05:01:28.481	$GPGGA,050129,2445.0080,N,08017.2157,W,1,8,2.2,20,M,,M,,*55
06/02/2014	05:01:29.659	$GPGGA,050130,2445.0080,N,08017.2157,W,1,8,2.2,20,M,,M,,*5D
06/02/2014	05:01:30.637	$GPGGA,050131,2445.0067,N,08017.2193,W,1,8,2.2,20,M,,M,,*5D
06/02/2014	05:01:31.634	$GPGGA,050132,2445.0060,N,08017.2215,W,1,8,1.9,20,M,,M,,*5C
06/02/2014	05:01:32.592	$GPGGA,050133,2445.0052,N,08017.2236,W,1,9,1.9,20,M,,M,,*5C
06/02/2014	05:01:33.589	$GPGGA,050134,2445.0044,N,08017.2256,W,1,9,1.9,20,M,,M,,*5A
06/02/2014	05:01:34.607	$GPGGA,050135,2445.0038,N,08017.2274,W,1,9,1.9,20,M,,M,,*50
06/02/2014	05:01:35.594	$GPGGA,050136,2445.0029,N,08017.2292,W,1,9,1.9,20,M,,M,,*5B
06/02/2014	05:01:36.612	$GPGGA,050137,2445.0024,N,08017.2312,W,1,9,1.9,20,M,,M,,*5E
06/02/2014	05:01:37.589	$GPGGA,050138,2445.0017,N,08017.2330,W,1,9,1.9,20,M,,M,,*51
06/02/2014	05:01:38.597	$GPGGA,050139,2445.0009,N,08017.2348,W,1,9,1.9,20,M,,M,,*50
06/02/2014	05:01:39.574	$GPGGA,050140,2445.0009,N,08017.2348,W,1,9,1.9,20,M,,M,,*5E
06/02/2014	05:01:40.582	$GPGGA,050141,2444.9997,N,08017.2382,W,1,9,1.9,20,M,,M,,*5F
06/02/2014	05:01:41.599	$GPGGA,050142,2444.9989,N,08017.2399,W,1,9,1.9,20,M,,M,,*59
06/02/2014	05:01:42.587	$GPGGA,050143,2444.9984,N,08017.2417,W,1,9,1.9,20,M,,M,,*54
06/02/2014	05:01:43.574	$GPGGA,050144,2444.9977,N,08017.2435,W,1,9,1.9,20,M,,M,,*5F
06/02/2014	05:01:44.552	$GPGGA,050145,2444.9966,N,08017.2451,W,1,9,1.9,20,M,,M,,*5C
06/02/2014	05:01:45.559	$GPGGA,050146,2444.9966,N,08017.2451,W,1,9,1.9,20,M,,M,,*5F
06/02/2014	05:01:46.646	$GPGGA,050147,2444.9952,N,08017.2487,W,1,9,1.9,20,M,,M,,*52
06/02/2014	05:01:47.583	$GPGGA,050148,2444.9944,N,08017.2504,W,1,9,2.0,20,M,,M,,*5A
06/02/2014	05:01:48.531	$GPGGA,050149,2444.9937,N,08017.2522,W,1,8,2.0,20,M,,M,,*5A
06/02/2014	05:01:49.558	$GPGGA,050150,2444.9932,N,08017.2540,W,1,8,1.9,20,M,,M,,*59
06/02/2014	05:01:50.626	$GPGGA,050151,2444.9927,N,08017.2558,W,1,9,1.9,20,M,,M,,*54
06/02/2014	05:01:51.563	$GPGGA,050152,2444.9920,N,08017.2574,W,1,9,2.2,20,M,,M,,*56
06/02/2014	05:01:52.501	$GPGGA,050153,2444.9912,N,08017.2594,W,1,8,2.2,20,M,,M,,*59
06/02/2014	05:01:53.548	$GPGGA,050154,2444.9906,N,08017.2612,W,1,8,2.2,20,M,,M,,*56
06/02/2014	05:01:54.596	$GPGGA,050155,2444.9901,N,08017.2630,W,1,8,2.2,20,M,,M,,*50
06/02/2014	05:01:55.503	$GPGGA,050156,2444.9901,N,08017.2630,W,1,8,1.9,20,M,,M,,*5B
06/02/2014	05:01:56.581	$GPGGA,050157,2444.9884,N,08017.2667,W,1,9,1.9,20,M,,M,,*55
06/02/2014	05:01:57.578	$GPGGA,050158,2444.9877,N,08017.2686,W,1,9,1.9,20,M,,M,,*59
06/02/2014	05:01:58.596	$GPGGA,050159,2444.9870,N,08017.2706,W,1,9,1.9,20,M,,M,,*56
06/02/2014	05:01:59.603	$GPGGA,050200,2444.9861,N,08017.2724,W,1,9,1.9,20,M,,M,,*59
06/02/2014	05:02:00.481	$GPGGA,050201,2444.9854,N,08017.2742,W,1,9,1.9,20,M,,M,,*5E
06/02/2014	05:02:01.478	$GPGGA,050202,2444.9846,N,08017.2760,W,1,9,1.9,20,M,,M,,*5E
06/02/2014	05:02:02.576	$GPGGA,050203,2444.9837,N,08017.2779,W,1,8,2.2,20,M,,M,,*58
06/02/2014	05:02:03.483	$GPGGA,050204,2444.9829,N,08017.2797,W,1,8,2.2,20,M,,M,,*50
06/02/2014	05:02:04.540	$GPGGA,050205,2444.9822,N,08017.2814,W,1,8,2.2,20,M,,M,,*5E
06/02/2014	05:02:05.557	$GPGGA,050206,2444.9816,N,08017.2832,W,1,8,1.9,20,M,,M,,*56
06/02/2014	05:02:06.545	$GPGGA,050207,2444.9810,N,08017.2848,W,1,9,1.9,20,M,,M,,*5D
06/02/2014	05:02:07.552	$GPGGA,050208,2444.9804,N,08017.2865,W,1,9,1.9,20,M,,M,,*58
06/02/2014	05:02:08.542	$GPGGA,050209,2444.9796,N,08017.2881,W,1,9,1.9,20,M,,M,,*57
06/02/2014	05:02:09.527	$GPGGA,050210,2444.9789,N,08017.2899,W,1,9,1.9,20,M,,M,,*58
06/02/2014	05:02:10.515	$GPGGA,050211,2444.9781,N,08017.2919,W,1,9,1.9,20,M,,M,,*58
06/02/2014	05:02:11.532	$GPGGA,050212,2444.9773,N,08017.2937,W,1,9,1.9,20,M,,M,,*5A
06/02/2014	05:02:12.540	$GPGGA,050213,2444.9765,N,08017.2953,W,1,8,2.2,20,M,,M,,*57
06/02/2014	05:02:13.497	$GPGGA,050214,2444.9760,N,08017.2973,W,1,8,2.2,20,M,,M,,*57
06/02/2014	05:02:14.515	$GPGGA,050215,2444.9753,N,08017.2989,W,1,9,1.9,20,M,,M,,*5A
06/02/2014	05:02:15.512	$GPGGA,050216,2444.9746,N,08017.3006,W,1,9,1.9,20,M,,M,,*52
06/02/2014	05:02:16.510	$GPGGA,050217,2444.9742,N,08017.3024,W,1,9,1.9,20,M,,M,,*57
06/02/2014	05:02:17.487	$GPGGA,050218,2444.9736,N,08017.3042,W,1,9,1.9,20,M,,M,,*5B
06/02/2014	05:02:18.505	$GPGGA,050219,2444.9729,N,08017.3058,W,1,8,2.2,20,M,,M,,*56
06/02/2014	05:02:19.492	$GPGGA,050220,2444.9724,N,08017.3076,W,1,8,2.2,20,M,,M,,*5D
06/02/2014	05:02:20.480	$GPGGA,050221,2444.9718,N,08017.3096,W,1,8,2.2,20,M,,M,,*5D
06/02/2014	05:02:21.476	$GPGGA,050222,2444.9713,N,08017.3114,W,1,8,1.9,20,M,,M,,*56
06/02/2014	05:02:22.475	$GPGGA,050223,2444.9706,N,08017.3132,W,1,9,1.9,20,M,,M,,*56
06/02/2014	05:02:23.481	$GPGGA,050224,2444.9700,N,08017.3150,W,1,9,1.9,20,M,,M,,*53
06/02/2014	05:02:24.479	$GPGGA,050225,2444.9693,N,08017.3168,W,1,8,2.2,20,M,,M,,*5B
06/02/2014	05:02:25.446	$GPGGA,050226,2444.9685,N,08017.3188,W,1,8,2.2,20,M,,M,,*51
06/02/2014	05:02:26.464	$GPGGA,050227,2444.9678,N,08017.3208,W,1,8,2.2,20,M,,M,,*59
06/02/2014	05:02:27.461	$GPGGA,050228,2444.9673,N,08017.3230,W,1,8,1.9,20,M,,M,,*5E
06/02/2014	05:02:28.459	$GPGGA,050229,2444.9666,N,08017.3248,W,1,9,1.9,20,M,,M,,*55
06/02/2014	05:02:29.590	$GPGGA,050230,2444.9659,N,08017.3269,W,1,9,1.9,20,M,,M,,*52
06/02/2014	05:02:30.617	$GPGGA,050231,2444.9653,N,08017.3285,W,1,9,1.9,20,M,,M,,*5B
06/02/2014	05:02:31.594	$GPGGA,050232,2444.9646,N,08017.3302,W,1,9,2.2,20,M,,M,,*5A
06/02/2014	05:02:32.612	$GPGGA,050233,2444.9641,N,08017.3318,W,1,8,2.2,20,M,,M,,*56
06/02/2014	05:02:33.559	$GPGGA,050234,2444.9633,N,08017.3336,W,1,8,2.2,20,M,,M,,*58
06/02/2014	05:02:34.557	$GPGGA,050235,2444.9626,N,08017.3354,W,1,8,2.2,20,M,,M,,*59
06/02/2014	05:02:35.584	$GPGGA,050236,2444.9619,N,08017.3372,W,1,8,2.2,20,M,,M,,*52
06/02/2014	05:02:36.562	$GPGGA,050237,2444.9612,N,08017.3390,W,1,8,2.2,20,M,,M,,*54
06/02/2014	05:02:37.549	$GPGGA,050238,2444.9605,N,08017.3408,W,1,8,2.2,20,M,,M,,*5B
06/02/2014	05:02:38.547	$GPGGA,050239,2444.9598,N,08017.3425,W,1,8,2.2,20,M,,M,,*52
06/02/2014	05:02:39.563	$GPGGA,050240,2444.9590,N,08017.3443,W,1,8,1.9,20,M,,M,,*5C
06/02/2014	05:02:40.531	$GPGGA,050241,2444.9584,N,08017.3461,W,1,9,1.9,20,M,,M,,*59
06/02/2014	05:02:41.648	$GPGGA,050242,2444.9579,N,08017.3479,W,1,9,1.9,20,M,,M,,*51
06/02/2014	05:02:42.616	$GPGGA,050243,2444.9570,N,08017.3497,W,1,9,1.9,20,M,,M,,*59
06/02/2014	05:02:43.533	$GPGGA,050244,2444.9565,N,08017.3515,W,1,9,1.9,19,M,,M,,*5B
06/02/2014	05:02:44.531	$GPGGA,050245,2444.9558,N,08017.3533,W,1,9,1.9,19,M,,M,,*50
06/02/2014	05:02:45.508	$GPGGA,050246,2444.9551,N,08017.3555,W,1,9,2.2,19,M,,M,,*52
06/02/2014	05:02:46.526	$GPGGA,050247,2444.9543,N,08017.3573,W,1,9,1.9,19,M,,M,,*5C
06/02/2014	05:02:47.603	$GPGGA,050248,2444.9536,N,08017.3595,W,1,9,2.2,19,M,,M,,*51
06/02/2014	05:02:48.601	$GPGGA,050249,2444.9529,N,08017.3613,W,1,9,1.9,19,M,,M,,*5B
06/02/2014	05:02:49.598	$GPGGA,050250,2444.9522,N,08017.3631,W,1,9,1.9,19,M,,M,,*58
06/02/2014	05:02:50.486	$GPGGA,050251,2444.9515,N,08017.3647,W,1,9,1.9,19,M,,M,,*5C
06/02/2014	05:02:51.603	$GPGGA,050252,2444.9508,N,08017.3667,W,1,9,2.2,19,M,,M,,*59
06/02/2014	05:02:52.575	$GPGGA,050253,2444.9502,N,08017.3685,W,1,9,1.9,19,M,,M,,*56
06/02/2014	05:02:53.578	$GPGGA,050254,2444.9496,N,08017.3703,W,1,9,1.9,19,M,,M,,*52
06/02/2014	05:02:54.596	$GPGGA,050255,2444.9487,N,08017.3722,W,1,9,1.9,19,M,,M,,*50
06/02/2014	05:02:55.613	$GPGGA,050256,2444.9480,N,08017.3740,W,1,9,1.9,19,M,,M,,*50
06/02/2014	05:02:56.578	$GPGGA,050257,2444.9474,N,08017.3759,W,1,9,1.9,19,M,,M,,*52
06/02/2014	05:02:57.557	$GPGGA,050258,2444.9467,N,08017.3777,W,1,9,1.9,19,M,,M,,*53
06/02/2014	05:02:58.545	$GPGGA,050259,2444.9460,N,08017.3797,W,1,9,1.9,19,M,,M,,*5B
06/02/2014	05:02:59.572	$GPGGA,050300,2444.9451,N,08017.3815,W,1,9,1.9,19,M,,M,,*51
06/02/2014	05:03:00.560	$GPGGA,050301,2444.9444,N,08017.3834,W,1,9,1.9,19,M,,M,,*57
06/02/2014	05:03:01.537	$GPGGA,050302,2444.9437,N,08017.3853,W,1,9,1.9,19,M,,M,,*51
06/02/2014	05:03:02.525	$GPGGA,050303,2444.9429,N,08017.3870,W,1,9,1.9,19,M,,M,,*5E
06/02/2014	05:03:03.542	$GPGGA,050304,2444.9424,N,08017.3891,W,1,9,2.2,19,M,,M,,*53
06/02/2014	05:03:04.520	$GPGGA,050305,2444.9418,N,08017.3909,W,1,9,1.9,19,M,,M,,*55
06/02/2014	05:03:05.517	$GPGGA,050306,2444.9413,N,08017.3924,W,1,9,1.9,19,M,,M,,*52
06/02/2014	05:03:06.535	$GPGGA,050307,2444.9406,N,08017.3941,W,1,8,2.2,19,M,,M,,*5D
06/02/2014	05:03:07.512	$GPGGA,050308,2444.9399,N,08017.3959,W,1,8,2.2,19,M,,M,,*5A
06/02/2014	05:03:08.540	$GPGGA,050309,2444.9393,N,08017.3978,W,1,8,2.2,19,M,,M,,*52
06/02/2014	05:03:09.508	$GPGGA,050310,2444.9385,N,08017.3999,W,1,8,1.9,19,M,,M,,*5A
06/02/2014	05:03:10.515	$GPGGA,050311,2444.9377,N,08017.4017,W,1,9,1.9,19,M,,M,,*5F
06/02/2014	05:03:11.512	$GPGGA,050312,2444.9370,N,08017.4039,W,1,9,2.2,19,M,,M,,*5F
06/02/2014	05:03:12.511	$GPGGA,050313,2444.9364,N,08017.4057,W,1,9,1.9,19,M,,M,,*5B
06/02/2014	05:03:13.488	$GPGGA,050314,2444.9357,N,08017.4072,W,1,9,2.2,19,M,,M,,*53
06/02/2014	05:03:14.504	$GPGGA,050315,2444.9352,N,08017.4086,W,1,8,2.2,19,M,,M,,*5D
06/02/2014	05:03:15.491	$GPGGA,050316,2444.9345,N,08017.4105,W,1,8,1.9,19,M,,M,,*5A
06/02/2014	05:03:16.469	$GPGGA,050317,2444.9338,N,08017.4122,W,1,9,1.9,19,M,,M,,*55
06/02/2014	05:03:17.466	$GPGGA,050318,2444.9331,N,08017.4140,W,1,9,1.9,19,M,,M,,*57
06/02/2014	05:03:18.454	$GPGGA,050319,2444.9323,N,08017.4158,W,1,9,1.9,19,M,,M,,*5C
06/02/2014	05:03:19.471	$GPGGA,050320,2444.9316,N,08017.4176,W,1,9,1.9,19,M,,M,,*5C
06/02/2014	05:03:20.449	$GPGGA,050321,2444.9308,N,08017.4194,W,1,9,1.9,19,M,,M,,*5E
06/02/2014	05:03:21.556	$GPGGA,050322,2444.9301,N,08017.4212,W,1,9,1.9,19,M,,M,,*59
06/02/2014	05:03:22.564	$GPGGA,050323,2444.9294,N,08017.4230,W,1,9,1.9,19,M,,M,,*55
06/02/2014	05:03:23.441	$GPGGA,050324,2444.9285,N,08017.4249,W,1,9,1.9,19,M,,M,,*5C
06/02/2014	05:03:24.439	$GPGGA,050325,2444.9278,N,08017.4267,W,1,9,1.9,19,M,,M,,*53
06/02/2014	05:03:25.416	$GPGGA,050326,2444.9272,N,08017.4285,W,1,9,1.9,19,M,,M,,*56
06/02/2014	05:03:26.534	$GPGGA,050327,2444.9263,N,08017.4301,W,1,9,1.9,19,M,,M,,*5A
06/02/2014	05:03:27.431	$GPGGA,050328,2444.9258,N,08017.4321,W,1,9,2.2,19,M,,M,,*57
06/02/2014	05:03:28.429	$GPGGA,050329,2444.9250,N,08017.4340,W,1,9,1.9,19,M,,M,,*51
06/02/2014	05:03:29.568	$GPGGA,050330,2444.9243,N,08017.4358,W,1,9,1.9,19,M,,M,,*52
06/02/2014	05:03:30.576	$GPGGA,050331,2444.9236,N,08017.4376,W,1,8,2.2,19,M,,M,,*54
06/02/2014	05:03:31.683	$GPGGA,050332,2444.9229,N,08017.4394,W,1,8,2.2,19,M,,M,,*55
06/02/2014	05:03:32.670	$GPGGA,050333,2444.9223,N,08017.4413,W,1,8,2.2,19,M,,M,,*56
06/02/2014	05:03:33.637	$GPGGA,050334,2444.9216,N,08017.4433,W,1,8,2.2,19,M,,M,,*55
06/02/2014	05:03:34.645	$GPGGA,050335,2444.9208,N,08017.4451,W,1,9,1.9,18,M,,M,,*57
06/02/2014	05:03:35.652	$GPGGA,050336,2444.9201,N,08017.4469,W,1,9,1.9,18,M,,M,,*56
06/02/2014	05:03:36.533	$GPGGA,050337,2444.9194,N,08017.4487,W,1,9,1.9,18,M,,M,,*58
06/02/2014	05:03:37.617	$GPGGA,050338,2444.9189,N,08017.4503,W,1,9,1.9,18,M,,M,,*56
06/02/2014	05:03:38.525	$GPGGA,050339,2444.9182,N,08017.4520,W,1,9,1.9,18,M,,M,,*5D
06/02/2014	05:03:39.622	$GPGGA,050340,2444.9174,N,08017.4538,W,1,9,2.2,18,M,,M,,*5B
06/02/2014	05:03:40.620	$GPGGA,050341,2444.9166,N,08017.4556,W,1,8,2.2,18,M,,M,,*50
06/02/2014	05:03:41.507	$GPGGA,050342,2444.9160,N,08017.4574,W,1,8,2.2,18,M,,M,,*55
06/02/2014	05:03:42.625	$GPGGA,050343,2444.9151,N,08017.4593,W,1,8,2.2,18,M,,M,,*5F
06/02/2014	05:03:43.602	$GPGGA,050344,2444.9143,N,08017.4613,W,1,8,1.9,18,M,,M,,*58
06/02/2014	05:03:44.604	$GPGGA,050345,2444.9136,N,08017.4632,W,1,9,1.9,18,M,,M,,*59
06/02/2014	05:03:45.587	$GPGGA,050346,2444.9129,N,08017.4650,W,1,9,1.9,18,M,,M,,*50
06/02/2014	05:03:47.623	$GPGGA,050348,2444.9117,N,08017.4683,W,1,9,1.9,18,M,,M,,*5D
06/02/2014	05:03:48.569	$GPGGA,050349,2444.9110,N,08017.4700,W,1,9,1.9,18,M,,M,,*51
06/02/2014	05:03:49.576	$GPGGA,050350,2444.9104,N,08017.4719,W,1,9,1.9,18,M,,M,,*54
06/02/2014	05:03:50.584	$GPGGA,050351,2444.9096,N,08017.4738,W,1,9,1.9,18,M,,M,,*5C
06/02/2014	05:03:51.571	$GPGGA,050352,2444.9088,N,08017.4758,W,1,9,1.9,18,M,,M,,*56
06/02/2014	05:03:52.549	$GPGGA,050353,2444.9079,N,08017.4779,W,1,9,1.9,18,M,,M,,*5A
06/02/2014	05:03:53.556	$GPGGA,050354,2444.9071,N,08017.4798,W,1,9,1.9,18,M,,M,,*5A
06/02/2014	05:03:54.574	$GPGGA,050355,2444.9063,N,08017.4819,W,1,9,1.9,18,M,,M,,*5E
06/02/2014	05:03:55.551	$GPGGA,050356,2444.9055,N,08017.4837,W,1,9,1.9,18,M,,M,,*54
06/02/2014	05:03:56.529	$GPGGA,050357,2444.9048,N,08017.4855,W,1,9,1.9,18,M,,M,,*5D
06/02/2014	05:03:57.537	$GPGGA,050358,2444.9041,N,08017.4871,W,1,9,1.9,18,M,,M,,*5D
06/02/2014	05:03:58.534	$GPGGA,050359,2444.9034,N,08017.4888,W,1,9,1.9,18,M,,M,,*58
06/02/2014	05:03:59.551	$GPGGA,050400,2444.9028,N,08017.4904,W,1,9,1.9,18,M,,M,,*5B
06/02/2014	05:04:00.549	$GPGGA,050401,2444.9023,N,08017.4924,W,1,9,1.9,19,M,,M,,*52
06/02/2014	05:04:01.516	$GPGGA,050402,2444.9014,N,08017.4942,W,1,9,1.9,19,M,,M,,*55
06/02/2014	05:04:02.504	$GPGGA,050403,2444.9006,N,08017.4961,W,1,9,1.9,19,M,,M,,*56
06/02/2014	05:04:03.521	$GPGGA,050404,2444.8999,N,08017.4980,W,1,9,1.9,19,M,,M,,*50
06/02/2014	05:04:04.529	$GPGGA,050405,2444.8992,N,08017.4998,W,1,9,1.9,19,M,,M,,*53
06/02/2014	05:04:05.497	$GPGGA,050406,2444.8983,N,08017.5016,W,1,9,1.9,19,M,,M,,*5E
06/02/2014	05:04:06.483	$GPGGA,050407,2444.8977,N,08017.5033,W,1,9,1.9,19,M,,M,,*53
06/02/2014	05:04:07.500	$GPGGA,050408,2444.8970,N,08017.5050,W,1,9,2.2,19,M,,M,,*56
06/02/2014	05:04:08.488	$GPGGA,050409,2444.8963,N,08017.5069,W,1,8,2.2,19,M,,M,,*5E
06/02/2014	05:04:09.485	$GPGGA,050410,2444.8956,N,08017.5090,W,1,8,1.9,19,M,,M,,*5E
06/02/2014	05:04:10.473	$GPGGA,050411,2444.8951,N,08017.5108,W,1,9,1.9,19,M,,M,,*59
06/02/2014	05:04:11.490	$GPGGA,050412,2444.8944,N,08017.5126,W,1,9,2.0,19,M,,M,,*58
06/02/2014	05:04:12.468	$GPGGA,050413,2444.8940,N,08017.5145,W,1,8,2.2,19,M,,M,,*5B
06/02/2014	05:04:13.465	$GPGGA,050414,2444.8936,N,08017.5163,W,1,8,2.2,19,M,,M,,*59
06/02/2014	05:04:14.443	$GPGGA,050415,2444.8929,N,08017.5182,W,1,8,2.2,19,M,,M,,*59
06/02/2014	05:04:15.460	$GPGGA,050416,2444.8922,N,08017.5202,W,1,8,1.9,20,M,,M,,*58
06/02/2014	05:04:16.548	$GPGGA,050417,2444.8914,N,08017.5220,W,1,8,2.2,20,M,,M,,*54
06/02/2014	05:04:17.425	$GPGGA,050418,2444.8908,N,08017.5238,W,1,8,2.2,20,M,,M,,*5F
06/02/2014	05:04:18.433	$GPGGA,050419,2444.8902,N,08017.5256,W,1,9,1.9,20,M,,M,,*55
06/02/2014	05:04:19.570	$GPGGA,050420,2444.8895,N,08017.5272,W,1,9,1.9,20,M,,M,,*56
06/02/2014	05:04:20.528	$GPGGA,050421,2444.8889,N,08017.5289,W,1,9,1.9,20,M,,M,,*5E
06/02/2014	05:04:21.525	$GPGGA,050422,2444.8882,N,08017.5307,W,1,9,1.9,20,M,,M,,*51
06/02/2014	05:04:22.543	$GPGGA,050423,2444.8875,N,08017.5326,W,1,9,1.9,20,M,,M,,*5B
06/02/2014	05:04:23.519	$GPGGA,050424,2444.8867,N,08017.5345,W,1,9,1.9,20,M,,M,,*5A
06/02/2014	05:04:24.527	$GPGGA,050425,2444.8860,N,08017.5363,W,1,9,1.9,20,M,,M,,*58
06/02/2014	05:04:25.501	$GPGGA,050426,2444.8854,N,08017.5383,W,1,9,2.2,20,M,,M,,*5A
06/02/2014	05:04:26.512	$GPGGA,050427,2444.8848,N,08017.5401,W,1,9,1.9,20,M,,M,,*53
06/02/2014	05:04:27.409	$GPGGA,050428,2444.8842,N,08017.5419,W,1,9,2.2,20,M,,M,,*57
06/02/2014	05:04:28.477	$GPGGA,050429,2444.8835,N,08017.5435,W,1,8,2.2,20,M,,M,,*59
06/02/2014	05:04:29.636	$GPGGA,050430,2444.8828,N,08017.5452,W,1,8,2.2,21,M,,M,,*5D
06/02/2014	05:04:30.644	$GPGGA,050431,2444.8822,N,08017.5471,W,1,9,1.9,21,M,,M,,*5E
06/02/2014	05:04:31.641	$GPGGA,050432,2444.8815,N,08017.5491,W,1,9,1.9,21,M,,M,,*57
06/02/2014	05:04:32.649	$GPGGA,050433,2444.8810,N,08017.5509,W,1,9,1.9,21,M,,M,,*53
06/02/2014	05:04:33.606	$GPGGA,050434,2444.8801,N,08017.5527,W,1,9,1.9,21,M,,M,,*58
06/02/2014	05:04:34.624	$GPGGA,050435,2444.8793,N,08017.5546,W,1,9,1.9,21,M,,M,,*5A
06/02/2014	05:04:35.621	$GPGGA,050436,2444.8788,N,08017.5564,W,1,9,1.9,21,M,,M,,*53
06/02/2014	05:04:36.619	$GPGGA,050437,2444.8781,N,08017.5582,W,1,8,2.2,21,M,,M,,*5A
06/02/2014	05:04:37.586	$GPGGA,050438,2444.8774,N,08017.5600,W,1,8,2.2,21,M,,M,,*56
06/02/2014	05:04:38.584	$GPGGA,050439,2444.8767,N,08017.5614,W,1,8,2.2,21,M,,M,,*50
06/02/2014	05:04:39.591	$GPGGA,050440,2444.8763,N,08017.5632,W,1,8,1.9,21,M,,M,,*56
06/02/2014	05:04:40.600	$GPGGA,050441,2444.8756,N,08017.5652,W,1,8,2.2,21,M,,M,,*5F
06/02/2014	05:04:41.575	$GPGGA,050442,2444.8750,N,08017.5670,W,1,8,1.9,21,M,,M,,*52
06/02/2014	05:04:42.603	$GPGGA,050443,2444.8743,N,08017.5686,W,1,8,2.2,21,M,,M,,*50
06/02/2014	05:04:43.580	$GPGGA,050444,2444.8736,N,08017.5704,W,1,8,1.9,21,M,,M,,*56
06/02/2014	05:04:44.558	$GPGGA,050445,2444.8730,N,08017.5723,W,1,8,2.2,21,M,,M,,*5C
06/02/2014	05:04:45.575	$GPGGA,050446,2444.8723,N,08017.5741,W,1,8,1.9,21,M,,M,,*51
06/02/2014	05:04:46.593	$GPGGA,050447,2444.8714,N,08017.5758,W,1,9,1.9,21,M,,M,,*5D
06/02/2014	05:04:47.550	$GPGGA,050448,2444.8706,N,08017.5777,W,1,9,1.9,21,M,,M,,*5C
06/02/2014	05:04:48.548	$GPGGA,050449,2444.8699,N,08017.5795,W,1,9,1.9,21,M,,M,,*56
06/02/2014	05:04:49.555	$GPGGA,050450,2444.8692,N,08017.5813,W,1,9,1.9,21,M,,M,,*54
06/02/2014	05:04:50.543	$GPGGA,050451,2444.8684,N,08017.5831,W,1,9,1.9,21,M,,M,,*52
06/02/2014	05:04:51.550	$GPGGA,050452,2444.8677,N,08017.5849,W,1,9,1.9,21,M,,M,,*52
06/02/2014	05:04:52.568	$GPGGA,050453,2444.8671,N,08017.5867,W,1,9,1.9,21,M,,M,,*59
06/02/2014	05:04:53.525	$GPGGA,050454,2444.8663,N,08017.5885,W,1,9,1.9,21,M,,M,,*51
06/02/2014	05:04:54.543	$GPGGA,050455,2444.8655,N,08017.5903,W,1,9,1.9,21,M,,M,,*5A
06/02/2014	05:04:55.530	$GPGGA,050456,2444.8648,N,08017.5921,W,1,9,1.9,21,M,,M,,*55
06/02/2014	05:04:56.508	$GPGGA,050457,2444.8640,N,08017.5939,W,1,9,1.9,21,M,,M,,*55
06/02/2014	05:04:57.625	$GPGGA,050458,2444.8633,N,08017.5957,W,1,9,1.9,21,M,,M,,*56
06/02/2014	05:04:58.632	$GPGGA,050459,2444.8623,N,08017.5975,W,1,9,1.9,21,M,,M,,*56
06/02/2014	05:04:59.550	$GPGGA,050500,2444.8616,N,08017.5994,W,1,9,1.9,21,M,,M,,*52
06/02/2014	05:05:00.497	$GPGGA,050501,2444.8608,N,08017.6013,W,1,9,1.9,21,M,,M,,*59
06/02/2014	05:05:01.484	$GPGGA,050502,2444.8600,N,08017.6031,W,1,9,1.9,21,M,,M,,*52
06/02/2014	05:05:02.482	$GPGGA,050503,2444.8593,N,08017.6051,W,1,9,1.9,21,M,,M,,*5C
06/02/2014	05:05:03.609	$GPGGA,050504,2444.8586,N,08017.6069,W,1,9,1.9,21,M,,M,,*54
06/02/2014	05:05:04.467	$GPGGA,050505,2444.8577,N,08017.6087,W,1,9,1.9,21,M,,M,,*5B
06/02/2014	05:05:05.474	$GPGGA,050506,2444.8570,N,08017.6105,W,1,9,2.0,21,M,,M,,*5E
06/02/2014	05:05:06.472	$GPGGA,050507,2444.8562,N,08017.6124,W,1,9,1.9,21,M,,M,,*55
06/02/2014	05:05:07.479	$GPGGA,050508,2444.8555,N,08017.6142,W,1,9,1.9,21,M,,M,,*5E
06/02/2014	05:05:08.457	$GPGGA,050509,2444.8548,N,08017.6157,W,1,9,1.9,21,M,,M,,*57
06/02/2014	05:05:09.454	$GPGGA,050510,2444.8541,N,08017.6175,W,1,9,1.9,21,M,,M,,*56
06/02/2014	05:05:10.582	$GPGGA,050511,2444.8535,N,08017.6193,W,1,9,1.9,21,M,,M,,*5C
06/02/2014	05:05:11.589	$GPGGA,050512,2444.8528,N,08017.6212,W,1,9,1.9,21,M,,M,,*59
06/02/2014	05:05:12.527	$GPGGA,050513,2444.8519,N,08017.6232,W,1,9,1.9,21,M,,M,,*58
06/02/2014	05:05:13.524	$GPGGA,050514,2444.8511,N,08017.6251,W,1,9,1.9,21,M,,M,,*52
06/02/2014	05:05:14.553	$GPGGA,050515,2444.8503,N,08017.6270,W,1,9,1.9,21,M,,M,,*53
06/02/2014	05:05:15.550	$GPGGA,050516,2444.8496,N,08017.6288,W,1,9,2.2,21,M,,M,,*52
06/02/2014	05:05:16.536	$GPGGA,050517,2444.8490,N,08017.6308,W,1,8,1.9,21,M,,M,,*55
06/02/2014	05:05:17.503	$GPGGA,050518,2444.8484,N,08017.6326,W,1,8,1.9,21,M,,M,,*53
06/02/2014	05:05:18.521	$GPGGA,050519,2444.8478,N,08017.6344,W,1,9,1.9,21,M,,M,,*54
06/02/2014	05:05:19.558	$GPGGA,050520,2444.8471,N,08017.6362,W,1,9,1.9,21,M,,M,,*53
06/02/2014	05:05:20.516	$GPGGA,050521,2444.8465,N,08017.6380,W,1,9,1.9,21,M,,M,,*5B
06/02/2014	05:05:21.494	$GPGGA,050522,2444.8458,N,08017.6398,W,1,9,1.9,22,M,,M,,*5C
06/02/2014	05:05:22.511	$GPGGA,050523,2444.8452,N,08017.6418,W,1,9,1.9,22,M,,M,,*58
06/02/2014	05:05:23.488	$GPGGA,050524,2444.8443,N,08017.6435,W,1,9,2.2,22,M,,M,,*58
06/02/2014	05:05:24.496	$GPGGA,050525,2444.8435,N,08017.6456,W,1,8,1.9,22,M,,M,,*54
06/02/2014	05:05:25.463	$GPGGA,050526,2444.8427,N,08017.6474,W,1,8,1.9,22,M,,M,,*54
06/02/2014	05:05:26.501	$GPGGA,050527,2444.8420,N,08017.6492,W,1,9,1.9,22,M,,M,,*5B
06/02/2014	05:05:27.468	$GPGGA,050528,2444.8413,N,08017.6510,W,1,9,1.9,22,M,,M,,*5F
06/02/2014	05:05:28.496	$GPGGA,050529,2444.8405,N,08017.6526,W,1,9,1.9,22,M,,M,,*5C
06/02/2014	05:05:29.617	$GPGGA,050530,2444.8399,N,08017.6543,W,1,9,2.2,22,M,,M,,*5D
06/02/2014	05:05:30.634	$GPGGA,050531,2444.8391,N,08017.6559,W,1,8,1.9,23,M,,M,,*57
06/02/2014	05:05:31.612	$GPGGA,050532,2444.8382,N,08017.6575,W,1,8,1.9,23,M,,M,,*58
06/02/2014	05:05:32.589	$GPGGA,050533,2444.8376,N,08017.6593,W,1,9,1.9,23,M,,M,,*5B
06/02/2014	05:05:33.595	$GPGGA,050534,2444.8369,N,08017.6611,W,1,9,1.9,23,M,,M,,*5B
06/02/2014	05:05:34.613	$GPGGA,050535,2444.8362,N,08017.6629,W,1,9,1.9,23,M,,M,,*5A
06/02/2014	05:05:35.600	$GPGGA,050536,2444.8352,N,08017.6645,W,1,9,1.9,23,M,,M,,*50
06/02/2014	05:05:36.598	$GPGGA,050537,2444.8346,N,08017.6662,W,1,9,1.9,23,M,,M,,*51
06/02/2014	05:05:37.585	$GPGGA,050538,2444.8340,N,08017.6680,W,1,9,1.9,23,M,,M,,*54
06/02/2014	05:05:38.583	$GPGGA,050539,2444.8333,N,08017.6699,W,1,9,1.9,22,M,,M,,*58
06/02/2014	05:05:39.580	$GPGGA,050540,2444.8324,N,08017.6716,W,1,9,1.9,22,M,,M,,*56
06/02/2014	05:05:40.588	$GPGGA,050541,2444.8316,N,08017.6734,W,1,9,1.9,22,M,,M,,*56
06/02/2014	05:05:41.565	$GPGGA,050542,2444.8311,N,08017.6752,W,1,9,1.9,22,M,,M,,*52
06/02/2014	05:05:42.583	$GPGGA,050543,2444.8304,N,08017.6770,W,1,9,1.9,22,M,,M,,*57
06/02/2014	05:05:43.560	$GPGGA,050544,2444.8297,N,08017.6786,W,1,9,1.9,22,M,,M,,*52
06/02/2014	05:05:44.648	$GPGGA,050545,2444.8290,N,08017.6803,W,1,9,1.9,22,M,,M,,*56
06/02/2014	05:05:45.525	$GPGGA,050546,2444.8286,N,08017.6821,W,1,9,1.9,22,M,,M,,*52
06/02/2014	05:05:46.543	$GPGGA,050547,2444.8279,N,08017.6839,W,1,9,1.9,22,M,,M,,*5A
06/02/2014	05:05:47.540	$GPGGA,050548,2444.8273,N,08017.6857,W,1,9,2.2,22,M,,M,,*5F
06/02/2014	05:05:48.538	$GPGGA,050549,2444.8268,N,08017.6875,W,1,8,2.2,22,M,,M,,*55
06/02/2014	05:05:49.605	$GPGGA,050550,2444.8259,N,08017.6897,W,1,8,2.2,22,M,,M,,*53
06/02/2014	05:05:50.523	$GPGGA,050551,2444.8252,N,08017.6916,W,1,9,1.9,23,M,,M,,*59
06/02/2014	05:05:51.639	$GPGGA,050552,2444.8246,N,08017.6936,W,1,9,1.9,23,M,,M,,*5D
06/02/2014	05:05:52.627	$GPGGA,050553,2444.8240,N,08017.6954,W,1,9,2.2,23,M,,M,,*56
06/02/2014	05:05:53.524	$GPGGA,050554,2444.8233,N,08017.6972,W,1,9,2.2,23,M,,M,,*51
06/02/2014	05:05:54.612	$GPGGA,050555,2444.8226,N,08017.6988,W,1,8,2.4,23,M,,M,,*56
06/02/2014	05:05:55.519	$GPGGA,050556,2444.8221,N,08017.7006,W,1,8,2.2,23,M,,M,,*5A
06/02/2014	05:05:56.497	$GPGGA,050557,2444.8215,N,08017.7023,W,1,8,2.2,23,M,,M,,*5B
06/02/2014	05:05:57.574	$GPGGA,050558,2444.8211,N,08017.7042,W,1,8,2.2,23,M,,M,,*57
06/02/2014	05:05:58.612	$GPGGA,050559,2444.8205,N,08017.7060,W,1,8,2.2,23,M,,M,,*53
06/02/2014	05:05:59.609	$GPGGA,050600,2444.8199,N,08017.7078,W,1,8,2.2,23,M,,M,,*53
06/02/2014	05:06:00.577	$GPGGA,050601,2444.8193,N,08017.7095,W,1,8,2.2,23,M,,M,,*5B
06/02/2014	05:06:01.554	$GPGGA,050602,2444.8187,N,08017.7114,W,1,8,1.9,23,M,,M,,*5D
06/02/2014	05:06:02.572	$GPGGA,050603,2444.8181,N,08017.7135,W,1,9,1.9,23,M,,M,,*58
06/02/2014	05:06:03.569	$GPGGA,050604,2444.8174,N,08017.7154,W,1,9,1.9,23,M,,M,,*52
06/02/2014	05:06:04.577	$GPGGA,050605,2444.8165,N,08017.7172,W,1,9,1.9,23,M,,M,,*57
06/02/2014	05:06:05.534	$GPGGA,050606,2444.8159,N,08017.7190,W,1,9,1.9,23,M,,M,,*57
06/02/2014	05:06:06.562	$GPGGA,050607,2444.8152,N,08017.7208,W,1,9,1.9,23,M,,M,,*5F
06/02/2014	05:06:07.544	$GPGGA,050608,2444.8142,N,08017.7226,W,1,9,2.0,23,M,,M,,*57
06/02/2014	05:06:08.556	$GPGGA,050609,2444.8138,N,08017.7244,W,1,9,1.9,23,M,,M,,*55
06/02/2014	05:06:09.523	$GPGGA,050610,2444.8131,N,08017.7262,W,1,9,2.2,23,M,,M,,*58
06/02/2014	05:06:10.533	$GPGGA,050611,2444.8123,N,08017.7280,W,1,9,2.0,23,M,,M,,*54
06/02/2014	05:06:11.538	$GPGGA,050612,2444.8117,N,08017.7296,W,1,9,2.0,23,M,,M,,*57
06/02/2014	05:06:12.506	$GPGGA,050613,2444.8110,N,08017.7313,W,1,9,1.9,23,M,,M,,*57
06/02/2014	05:06:13.513	$GPGGA,050614,2444.8103,N,08017.7332,W,1,9,1.9,23,M,,M,,*51
06/02/2014	05:06:14.522	$GPGGA,050615,2444.8096,N,08017.7352,W,1,9,1.9,23,M,,M,,*5B
06/02/2014	05:06:15.498	$GPGGA,050616,2444.8087,N,08017.7370,W,1,9,1.9,23,M,,M,,*58
06/02/2014	05:06:16.517	$GPGGA,050617,2444.8080,N,08017.7388,W,1,9,1.9,23,M,,M,,*59
06/02/2014	05:06:17.493	$GPGGA,050618,2444.8073,N,08017.7406,W,1,9,1.9,23,M,,M,,*5B
06/02/2014	05:06:18.481	$GPGGA,050619,2444.8065,N,08017.7424,W,1,9,1.9,23,M,,M,,*5D
06/02/2014	05:06:19.508	$GPGGA,050620,2444.8058,N,08017.7440,W,1,9,1.9,23,M,,M,,*5B
06/02/2014	05:06:20.496	$GPGGA,050621,2444.8051,N,08017.7457,W,1,9,1.9,23,M,,M,,*55
06/02/2014	05:06:21.473	$GPGGA,050622,2444.8044,N,08017.7475,W,1,9,1.9,23,M,,M,,*52
06/02/2014	05:06:22.461	$GPGGA,050623,2444.8036,N,08017.7493,W,1,8,2.2,23,M,,M,,*57
06/02/2014	05:06:23.478	$GPGGA,050624,2444.8029,N,08017.7509,W,1,8,1.9,23,M,,M,,*54
06/02/2014	05:06:24.476	$GPGGA,050625,2444.8023,N,08017.7529,W,1,9,1.9,23,M,,M,,*5C
06/02/2014	05:06:25.453	$GPGGA,050626,2444.8016,N,08017.7545,W,1,9,1.9,23,M,,M,,*53
06/02/2014	05:06:26.440	$GPGGA,050627,2444.8008,N,08017.7563,W,1,8,2.2,23,M,,M,,*50
06/02/2014	05:06:27.567	$GPGGA,050628,2444.8001,N,08017.7581,W,1,8,2.2,23,M,,M,,*5A
06/02/2014	05:06:28.425	$GPGGA,050629,2444.7994,N,08017.7599,W,1,9,1.9,23,M,,M,,*51
06/02/2014	05:06:29.584	$GPGGA,050630,2444.7986,N,08017.7617,W,1,9,2.2,23,M,,M,,*57
06/02/2014	05:06:30.602	$GPGGA,050631,2444.7979,N,08017.7633,W,1,9,1.9,23,M,,M,,*58
06/02/2014	05:06:31.599	$GPGGA,050632,2444.7972,N,08017.7648,W,1,9,1.9,23,M,,M,,*5C
06/02/2014	05:06:32.587	$GPGGA,050633,2444.7968,N,08017.7666,W,1,9,1.9,23,M,,M,,*5A
06/02/2014	05:06:33.554	$GPGGA,050634,2444.7961,N,08017.7682,W,1,9,1.9,23,M,,M,,*5E
06/02/2014	05:06:34.552	$GPGGA,050635,2444.7953,N,08017.7700,W,1,8,2.2,22,M,,M,,*5D
06/02/2014	05:06:35.679	$GPGGA,050636,2444.7946,N,08017.7720,W,1,8,1.9,22,M,,M,,*50
06/02/2014	05:06:36.557	$GPGGA,050637,2444.7939,N,08017.7739,W,1,9,1.9,22,M,,M,,*50
06/02/2014	05:06:37.654	$GPGGA,050638,2444.7932,N,08017.7758,W,1,9,1.9,22,M,,M,,*53
06/02/2014	05:06:38.552	$GPGGA,050639,2444.7923,N,08017.7776,W,1,9,1.9,22,M,,M,,*5E
06/02/2014	05:06:39.659	$GPGGA,050640,2444.7915,N,08017.7796,W,1,9,1.9,22,M,,M,,*5B
06/02/2014	05:06:40.648	$GPGGA,050641,2444.7910,N,08017.7814,W,1,9,1.9,22,M,,M,,*5A
06/02/2014	05:06:41.644	$GPGGA,050642,2444.7903,N,08017.7832,W,1,9,1.9,22,M,,M,,*5F
06/02/2014	05:06:42.642	$GPGGA,050643,2444.7894,N,08017.7847,W,1,9,1.9,22,M,,M,,*53
06/02/2014	05:06:43.528	$GPGGA,050644,2444.7888,N,08017.7868,W,1,9,2.2,22,M,,M,,*5C
06/02/2014	05:06:44.606	$GPGGA,050645,2444.7881,N,08017.7888,W,1,9,1.9,22,M,,M,,*52
06/02/2014	05:06:45.613	$GPGGA,050646,2444.7874,N,08017.7908,W,1,9,1.9,22,M,,M,,*52
06/02/2014	05:06:46.631	$GPGGA,050647,2444.7867,N,08017.7927,W,1,9,1.9,22,M,,M,,*5C
06/02/2014	05:06:47.628	$GPGGA,050648,2444.7860,N,08017.7948,W,1,9,1.9,23,M,,M,,*5C
06/02/2014	05:06:48.586	$GPGGA,050649,2444.7852,N,08017.7966,W,1,9,1.9,23,M,,M,,*50
06/02/2014	05:06:49.593	$GPGGA,050650,2444.7845,N,08017.7984,W,1,9,1.9,23,M,,M,,*52
06/02/2014	05:06:50.611	$GPGGA,050651,2444.7839,N,08017.8003,W,1,9,1.9,23,M,,M,,*51
06/02/2014	05:06:51.588	$GPGGA,050652,2444.7831,N,08017.8021,W,1,9,1.9,23,M,,M,,*5A
06/02/2014	05:06:52.576	$GPGGA,050653,2444.7823,N,08017.8040,W,1,9,1.9,23,M,,M,,*5F
06/02/2014	05:06:53.563	$GPGGA,050654,2444.7817,N,08017.8058,W,1,9,1.9,23,M,,M,,*56
06/02/2014	05:06:54.581	$GPGGA,050655,2444.7811,N,08017.8078,W,1,9,1.9,23,M,,M,,*53
06/02/2014	05:06:55.578	$GPGGA,050656,2444.7804,N,08017.8094,W,1,9,1.9,23,M,,M,,*56
06/02/2014	05:06:56.586	$GPGGA,050657,2444.7798,N,08017.8110,W,1,9,1.9,24,M,,M,,*57
06/02/2014	05:06:57.553	$GPGGA,050658,2444.7791,N,08017.8129,W,1,9,2.2,24,M,,M,,*53
06/02/2014	05:06:58.542	$GPGGA,050659,2444.7785,N,08017.8147,W,1,9,1.9,24,M,,M,,*57
06/02/2014	05:06:59.563	$GPGGA,050700,2444.7777,N,08017.8165,W,1,9,1.9,24,M,,M,,*57
06/02/2014	05:07:00.556	$GPGGA,050701,2444.7770,N,08017.8183,W,1,9,1.9,24,M,,M,,*59
06/02/2014	05:07:01.522	$GPGGA,050702,2444.7762,N,08017.8202,W,1,9,1.9,24,M,,M,,*53
06/02/2014	05:07:02.550	$GPGGA,050703,2444.7756,N,08017.8223,W,1,9,1.9,24,M,,M,,*56
06/02/2014	05:07:03.537	$GPGGA,050704,2444.7748,N,08017.8240,W,1,9,1.9,24,M,,M,,*5B
06/02/2014	05:07:04.545	$GPGGA,050705,2444.7741,N,08017.8258,W,1,9,1.9,24,M,,M,,*5A
06/02/2014	05:07:05.512	$GPGGA,050706,2444.7735,N,08017.8274,W,1,9,1.9,24,M,,M,,*54
06/02/2014	05:07:06.510	$GPGGA,050707,2444.7729,N,08017.8291,W,1,9,1.9,24,M,,M,,*53
06/02/2014	05:07:07.527	$GPGGA,050708,2444.7722,N,08017.8309,W,1,9,1.9,24,M,,M,,*57
06/02/2014	05:07:08.495	$GPGGA,050709,2444.7715,N,08017.8327,W,1,9,1.9,24,M,,M,,*5E
06/02/2014	05:07:09.502	$GPGGA,050710,2444.7706,N,08017.8345,W,1,9,1.9,24,M,,M,,*50
06/02/2014	05:07:10.500	$GPGGA,050711,2444.7701,N,08017.8363,W,1,9,1.9,24,M,,M,,*52
06/02/2014	05:07:11.497	$GPGGA,050712,2444.7691,N,08017.8382,W,1,9,1.9,24,M,,M,,*56
06/02/2014	05:07:12.485	$GPGGA,050713,2444.7682,N,08017.8397,W,1,9,1.9,24,M,,M,,*51
06/02/2014	05:07:13.482	$GPGGA,050714,2444.7676,N,08017.8414,W,1,9,2.0,24,M,,M,,*5B
06/02/2014	05:07:14.500	$GPGGA,050715,2444.7670,N,08017.8432,W,1,9,1.9,24,M,,M,,*52
06/02/2014	05:07:15.487	$GPGGA,050716,2444.7662,N,08017.8448,W,1,9,1.9,24,M,,M,,*5F
06/02/2014	05:07:16.475	$GPGGA,050717,2444.7654,N,08017.8466,W,1,9,1.9,24,M,,M,,*57
06/02/2014	05:07:17.462	$GPGGA,050718,2444.7647,N,08017.8486,W,1,9,1.9,24,M,,M,,*54
06/02/2014	05:07:18.479	$GPGGA,050719,2444.7640,N,08017.8504,W,1,9,1.9,24,M,,M,,*59
06/02/2014	05:07:19.556	$GPGGA,050720,2444.7633,N,08017.8522,W,1,9,1.9,24,M,,M,,*53
06/02/2014	05:07:20.454	$GPGGA,050721,2444.7627,N,08017.8538,W,1,9,1.9,23,M,,M,,*5B
06/02/2014	05:07:21.441	$GPGGA,050722,2444.7621,N,08017.8555,W,1,9,1.9,23,M,,M,,*55
06/02/2014	05:07:22.429	$GPGGA,050723,2444.7616,N,08017.8573,W,1,9,1.9,23,M,,M,,*54
06/02/2014	05:07:23.456	$GPGGA,050724,2444.7609,N,08017.8589,W,1,9,2.2,23,M,,M,,*50
06/02/2014	05:07:24.444	$GPGGA,050725,2444.7601,N,08017.8609,W,1,9,1.9,23,M,,M,,*5A
06/02/2014	05:07:25.521	$GPGGA,050726,2444.7594,N,08017.8629,W,1,9,1.9,23,M,,M,,*54
06/02/2014	05:07:26.429	$GPGGA,050727,2444.7587,N,08017.8652,W,1,9,1.9,23,M,,M,,*5B
06/02/2014	05:07:27.436	$GPGGA,050728,2444.7580,N,08017.8671,W,1,9,1.9,23,M,,M,,*52
06/02/2014	05:07:28.504	$GPGGA,050729,2444.7572,N,08017.8689,W,1,9,1.9,23,M,,M,,*59
06/02/2014	05:07:29.564	$GPGGA,050730,2444.7567,N,08017.8707,W,1,9,1.9,23,M,,M,,*52
06/02/2014	05:07:30.562	$GPGGA,050731,2444.7560,N,08017.8726,W,1,9,1.9,23,M,,M,,*57
06/02/2014	05:07:31.649	$GPGGA,050732,2444.7554,N,08017.8743,W,1,9,1.9,23,M,,M,,*50
06/02/2014	05:07:32.687	$GPGGA,050733,2444.7549,N,08017.8761,W,1,9,1.9,23,M,,M,,*5D
06/02/2014	05:07:33.644	$GPGGA,050734,2444.7542,N,08017.8779,W,1,9,1.9,23,M,,M,,*58
06/02/2014	05:07:34.662	$GPGGA,050735,2444.7535,N,08017.8798,W,1,9,1.9,23,M,,M,,*56
06/02/2014	05:07:35.639	$GPGGA,050736,2444.7529,N,08017.8816,W,1,9,1.9,23,M,,M,,*51
06/02/2014	05:07:36.536	$GPGGA,050737,2444.7522,N,08017.8833,W,1,9,1.9,23,M,,M,,*5C
06/02/2014	05:07:37.617	$GPGGA,050738,2444.7516,N,08017.8851,W,1,9,1.9,23,M,,M,,*50
06/02/2014	05:07:38.631	$GPGGA,050739,2444.7510,N,08017.8870,W,1,9,1.9,23,M,,M,,*54
06/02/2014	05:07:39.628	$GPGGA,050740,2444.7504,N,08017.8889,W,1,9,1.9,23,M,,M,,*59
06/02/2014	05:07:40.626	$GPGGA,050741,2444.7496,N,08017.8906,W,1,8,2.2,23,M,,M,,*5D
06/02/2014	05:07:41.603	$GPGGA,050742,2444.7489,N,08017.8924,W,1,8,1.9,23,M,,M,,*58
06/02/2014	05:07:42.611	$GPGGA,050743,2444.7484,N,08017.8942,W,1,9,1.9,23,M,,M,,*55
06/02/2014	05:07:43.608	$GPGGA,050744,2444.7477,N,08017.8960,W,1,9,1.9,23,M,,M,,*5E
06/02/2014	05:07:44.606	$GPGGA,050745,2444.7469,N,08017.8978,W,1,9,1.9,23,M,,M,,*59
06/02/2014	05:07:45.583	$GPGGA,050746,2444.7463,N,08017.8997,W,1,9,1.9,23,M,,M,,*51
06/02/2014	05:07:46.571	$GPGGA,050747,2444.7456,N,08017.9017,W,1,8,2.2,23,M,,M,,*5F
06/02/2014	05:07:47.592	$GPGGA,050748,2444.7448,N,08017.9035,W,1,8,1.9,23,M,,M,,*57
06/02/2014	05:07:48.606	$GPGGA,050749,2444.7440,N,08017.9053,W,1,9,1.9,23,M,,M,,*5F
06/02/2014	05:07:49.553	$GPGGA,050750,2444.7433,N,08017.9072,W,1,9,1.9,23,M,,M,,*50
06/02/2014	05:07:50.561	$GPGGA,050751,2444.7426,N,08017.9090,W,1,9,1.9,23,M,,M,,*59
06/02/2014	05:07:51.569	$GPGGA,050752,2444.7419,N,08017.9109,W,1,9,1.9,23,M,,M,,*57
06/02/2014	05:07:52.556	$GPGGA,050753,2444.7411,N,08017.9129,W,1,9,1.9,22,M,,M,,*5D
06/02/2014	05:07:53.542	$GPGGA,050754,2444.7404,N,08017.9147,W,1,9,1.9,22,M,,M,,*56
06/02/2014	05:07:54.560	$GPGGA,050755,2444.7397,N,08017.9166,W,1,9,1.9,22,M,,M,,*59
06/02/2014	05:07:55.547	$GPGGA,050756,2444.7390,N,08017.9185,W,1,9,1.9,22,M,,M,,*50
06/02/2014	05:07:56.525	$GPGGA,050757,2444.7384,N,08017.9203,W,1,9,1.9,22,M,,M,,*59
06/02/2014	05:07:57.522	$GPGGA,050758,2444.7376,N,08017.9221,W,1,9,1.9,22,M,,M,,*5B
06/02/2014	05:07:58.550	$GPGGA,050759,2444.7368,N,08017.9238,W,1,8,2.2,22,M,,M,,*54
06/02/2014	05:07:59.547	$GPGGA,050800,2444.7361,N,08017.9257,W,1,8,1.9,22,M,,M,,*5F
06/02/2014	05:08:00.535	$GPGGA,050801,2444.7354,N,08017.9277,W,1,9,1.9,22,M,,M,,*5B
06/02/2014	05:08:01.522	$GPGGA,050802,2444.7345,N,08017.9296,W,1,9,1.9,23,M,,M,,*56
06/02/2014	05:08:02.540	$GPGGA,050803,2444.7337,N,08017.9314,W,1,8,2.2,22,M,,M,,*51
06/02/2014	05:08:03.647	$GPGGA,050804,2444.7329,N,08017.9331,W,1,8,1.9,23,M,,M,,*57
06/02/2014	05:08:04.485	$GPGGA,050805,2444.7323,N,08017.9348,W,1,9,1.9,23,M,,M,,*53
06/02/2014	05:08:05.622	$GPGGA,050806,2444.7316,N,08017.9368,W,1,9,1.9,23,M,,M,,*54
06/02/2014	05:08:06.490	$GPGGA,050807,2444.7308,N,08017.9384,W,1,9,1.9,23,M,,M,,*58
06/02/2014	05:08:07.627	$GPGGA,050808,2444.7300,N,08017.9404,W,1,9,2.2,23,M,,M,,*58
06/02/2014	05:08:08.664	$GPGGA,050809,2444.7291,N,08017.9422,W,1,9,1.9,23,M,,M,,*5C
06/02/2014	05:08:09.602	$GPGGA,050810,2444.7283,N,08017.9441,W,1,9,1.9,23,M,,M,,*52
06/02/2014	05:08:10.500	$GPGGA,050811,2444.7276,N,08017.9459,W,1,9,1.9,23,M,,M,,*50
06/02/2014	05:08:11.476	$GPGGA,050812,2444.7268,N,08017.9477,W,1,9,2.0,23,M,,M,,*5A
06/02/2014	05:08:12.454	$GPGGA,050813,2444.7260,N,08017.9494,W,1,8,2.0,23,M,,M,,*5F
06/02/2014	05:08:13.581	$GPGGA,050814,2444.7254,N,08017.9512,W,1,8,1.9,23,M,,M,,*5A
06/02/2014	05:08:14.628	$GPGGA,050815,2444.7249,N,08017.9530,W,1,9,1.9,23,M,,M,,*56
06/02/2014	05:08:15.446	$GPGGA,050816,2444.7240,N,08017.9546,W,1,9,1.9,23,M,,M,,*5D
06/02/2014	05:08:16.623	$GPGGA,050817,2444.7232,N,08017.9563,W,1,9,1.9,23,M,,M,,*5E
06/02/2014	05:08:17.441	$GPGGA,050818,2444.7224,N,08017.9582,W,1,9,1.9,23,M,,M,,*59
06/02/2014	05:08:18.529	$GPGGA,050819,2444.7217,N,08017.9602,W,1,8,2.2,23,M,,M,,*5A
06/02/2014	05:08:19.576	$GPGGA,050820,2444.7208,N,08017.9620,W,1,8,1.9,22,M,,M,,*57
06/02/2014	05:08:20.434	$GPGGA,050821,2444.7200,N,08017.9636,W,1,9,1.9,22,M,,M,,*58
06/02/2014	05:08:21.511	$GPGGA,050822,2444.7193,N,08017.9653,W,1,9,1.9,22,M,,M,,*51
06/02/2014	05:08:22.608	$GPGGA,050823,2444.7188,N,08017.9671,W,1,9,1.9,22,M,,M,,*5A
06/02/2014	05:08:23.516	$GPGGA,050824,2444.7181,N,08017.9686,W,1,9,1.9,22,M,,M,,*5C
06/02/2014	05:08:24.584	$GPGGA,050825,2444.7174,N,08017.9702,W,1,9,1.9,22,M,,M,,*5A
06/02/2014	05:08:25.521	$GPGGA,050826,2444.7167,N,08017.9722,W,1,9,2.2,22,M,,M,,*51
06/02/2014	05:08:26.399	$GPGGA,050827,2444.7160,N,08017.9740,W,1,9,1.9,22,M,,M,,*5B
06/02/2014	05:08:27.546	$GPGGA,050828,2444.7152,N,08017.9761,W,1,9,2.2,22,M,,M,,*5E
06/02/2014	05:08:28.473	$GPGGA,050829,2444.7144,N,08017.9779,W,1,9,1.9,22,M,,M,,*59
06/02/2014	05:08:29.682	$GPGGA,050830,2444.7137,N,08017.9796,W,1,9,1.9,22,M,,M,,*54
06/02/2014	05:08:30.729	$GPGGA,050831,2444.7131,N,08017.9814,W,1,9,1.9,22,M,,M,,*56
06/02/2014	05:08:31.627	$GPGGA,050832,2444.7124,N,08017.9832,W,1,9,1.9,22,M,,M,,*55
06/02/2014	05:08:32.715	$GPGGA,050833,2444.7116,N,08017.9849,W,1,9,1.9,22,M,,M,,*59
06/02/2014	05:08:33.652	$GPGGA,050834,2444.7110,N,08017.9867,W,1,9,1.9,22,M,,M,,*54
06/02/2014	05:08:34.600	$GPGGA,050835,2444.7104,N,08017.9885,W,1,9,1.9,22,M,,M,,*5C
06/02/2014	05:08:35.647	$GPGGA,050836,2444.7097,N,08017.9902,W,1,9,1.9,22,M,,M,,*5A
06/02/2014	05:08:36.705	$GPGGA,050837,2444.7090,N,08017.9921,W,1,9,1.9,22,M,,M,,*5D
06/02/2014	05:08:37.612	$GPGGA,050838,2444.7083,N,08017.9938,W,1,9,1.9,22,M,,M,,*58
06/02/2014	05:08:38.690	$GPGGA,050839,2444.7076,N,08017.9957,W,1,9,1.9,22,M,,M,,*5A
06/02/2014	05:08:39.617	$GPGGA,050840,2444.7070,N,08017.9975,W,1,9,1.9,22,M,,M,,*52
06/02/2014	05:08:40.575	$GPGGA,050841,2444.7063,N,08017.9994,W,1,9,1.9,22,M,,M,,*5E
06/02/2014	05:08:41.602	$GPGGA,050842,2444.7055,N,08018.0014,W,1,9,1.9,22,M,,M,,*5F
06/02/2014	05:08:42.630	$GPGGA,050843,2444.7048,N,08018.0034,W,1,9,1.9,22,M,,M,,*50
06/02/2014	05:08:43.607	$GPGGA,050844,2444.7043,N,08018.0054,W,1,9,2.2,22,M,,M,,*52
06/02/2014	05:08:44.655	$GPGGA,050845,2444.7036,N,08018.0072,W,1,8,2.2,22,M,,M,,*54
06/02/2014	05:08:45.582	$GPGGA,050846,2444.7030,N,08018.0090,W,1,8,2.2,22,M,,M,,*5D
06/02/2014	05:08:46.659	$GPGGA,050847,2444.7025,N,08018.0108,W,1,8,1.9,21,M,,M,,*53
06/02/2014	05:08:47.596	$GPGGA,050848,2444.7019,N,08018.0127,W,1,8,1.9,21,M,,M,,*5E
06/02/2014	05:08:48.634	$GPGGA,050849,2444.7012,N,08018.0145,W,1,9,1.9,21,M,,M,,*51
06/02/2014	05:08:49.531	$GPGGA,050850,2444.7005,N,08018.0163,W,1,9,1.9,21,M,,M,,*5B
06/02/2014	05:08:50.609	$GPGGA,050851,2444.7000,N,08018.0182,W,1,8,2.2,21,M,,M,,*59
06/02/2014	05:08:51.576	$GPGGA,050852,2444.6994,N,08018.0203,W,1,8,1.9,21,M,,M,,*5D
06/02/2014	05:08:52.524	$GPGGA,050853,2444.6986,N,08018.0222,W,1,9,1.9,21,M,,M,,*5D
06/02/2014	05:08:53.551	$GPGGA,050854,2444.6978,N,08018.0242,W,1,9,1.9,22,M,,M,,*5E
06/02/2014	05:08:54.509	$GPGGA,050855,2444.6972,N,08018.0260,W,1,9,1.9,22,M,,M,,*55
06/02/2014	05:08:55.561	$GPGGA,050856,2444.6967,N,08018.0278,W,1,9,1.9,22,M,,M,,*5B
06/02/2014	05:08:56.594	$GPGGA,050857,2444.6958,N,08018.0296,W,1,9,1.9,22,M,,M,,*56
06/02/2014	05:08:57.491	$GPGGA,050858,2444.6951,N,08018.0314,W,1,9,1.9,22,M,,M,,*5B
06/02/2014	05:08:58.569	$GPGGA,050859,2444.6944,N,08018.0330,W,1,9,2.2,22,M,,M,,*50
06/02/2014	05:08:59.626	$GPGGA,050900,2444.6937,N,08018.0350,W,1,9,1.9,22,M,,M,,*57
06/02/2014	05:09:00.574	$GPGGA,050901,2444.6929,N,08018.0366,W,1,9,1.9,22,M,,M,,*5C
06/02/2014	05:09:01.471	$GPGGA,050902,2444.6921,N,08018.0383,W,1,9,1.9,22,M,,M,,*5C
06/02/2014	05:09:02.609	$GPGGA,050903,2444.6914,N,08018.0401,W,1,8,1.9,22,M,,M,,*57
06/02/2014	05:09:03.605	$GPGGA,050904,2444.6907,N,08018.0419,W,1,8,1.9,22,M,,M,,*5B
06/02/2014	05:09:04.583	$GPGGA,050905,2444.6899,N,08018.0434,W,1,9,1.9,22,M,,M,,*52
06/02/2014	05:09:05.490	$GPGGA,050906,2444.6892,N,08018.0452,W,1,9,1.9,22,M,,M,,*5A
06/02/2014	05:09:06.538	$GPGGA,050907,2444.6885,N,08018.0470,W,1,9,1.9,22,M,,M,,*5D
06/02/2014	05:09:07.565	$GPGGA,050908,2444.6877,N,08018.0489,W,1,9,2.2,22,M,,M,,*51
06/02/2014	05:09:08.601	$GPGGA,050909,2444.6868,N,08018.0509,W,1,8,1.9,22,M,,M,,*5E
06/02/2014	05:09:09.536	$GPGGA,050910,2444.6860,N,08018.0527,W,1,8,1.9,22,M,,M,,*52
06/02/2014	05:09:10.540	$GPGGA,050911,2444.6853,N,08018.0546,W,1,9,1.9,22,M,,M,,*55
06/02/2014	05:09:11.535	$GPGGA,050912,2444.6846,N,08018.0564,W,1,9,1.9,22,M,,M,,*52
06/02/2014	05:09:12.569	$GPGGA,050913,2444.6841,N,08018.0582,W,1,9,1.9,22,M,,M,,*5C
06/02/2014	05:09:13.455	$GPGGA,050914,2444.6834,N,08018.0598,W,1,9,2.2,22,M,,M,,*5A
06/02/2014	05:09:14.499	$GPGGA,050915,2444.6827,N,08018.0615,W,1,8,2.2,22,M,,M,,*5E
06/02/2014	05:09:15.504	$GPGGA,050916,2444.6820,N,08018.0634,W,1,8,1.9,22,M,,M,,*51
06/02/2014	05:09:16.528	$GPGGA,050917,2444.6813,N,08018.0654,W,1,9,1.9,22,M,,M,,*57
06/02/2014	05:09:17.475	$GPGGA,050918,2444.6806,N,08018.0673,W,1,9,2.2,22,M,,M,,*51
06/02/2014	05:09:18.498	$GPGGA,050919,2444.6799,N,08018.0691,W,1,8,1.9,22,M,,M,,*5C
06/02/2014	05:09:19.483	$GPGGA,050920,2444.6791,N,08018.0708,W,1,8,1.9,22,M,,M,,*5F
06/02/2014	05:09:20.487	$GPGGA,050921,2444.6786,N,08018.0726,W,1,9,2.2,22,M,,M,,*5D
06/02/2014	05:09:21.451	$GPGGA,050922,2444.6780,N,08018.0745,W,1,9,2.2,22,M,,M,,*5D
06/02/2014	05:09:22.486	$GPGGA,050923,2444.6773,N,08018.0766,W,1,8,1.9,22,M,,M,,*58
06/02/2014	05:09:23.440	$GPGGA,050924,2444.6765,N,08018.0784,W,1,8,1.9,22,M,,M,,*54
06/02/2014	05:09:24.475	$GPGGA,050925,2444.6759,N,08018.0802,W,1,9,1.9,22,M,,M,,*5A
06/02/2014	05:09:25.420	$GPGGA,050926,2444.6752,N,08018.0820,W,1,9,2.2,22,M,,M,,*5A
06/02/2014	05:09:26.444	$GPGGA,050927,2444.6744,N,08018.0838,W,1,8,2.2,22,M,,M,,*54
06/02/2014	05:09:27.419	$GPGGA,050928,2444.6737,N,08018.0854,W,1,8,1.9,22,M,,M,,*5D
06/02/2014	05:09:28.414	$GPGGA,050929,2444.6737,N,08018.0854,W,1,9,1.9,22,M,,M,,*5D
06/02/2014	05:09:29.600	$GPGGA,050930,2444.6725,N,08018.0889,W,1,9,1.9,22,M,,M,,*56
06/02/2014	05:09:30.614	$GPGGA,050931,2444.6715,N,08018.0907,W,1,9,1.9,22,M,,M,,*53
06/02/2014	05:09:31.589	$GPGGA,050932,2444.6707,N,08018.0925,W,1,9,1.9,22,M,,M,,*53
06/02/2014	05:09:32.604	$GPGGA,050933,2444.6707,N,08018.0925,W,1,9,1.9,22,M,,M,,*52
06/02/2014	05:09:33.569	$GPGGA,050934,2444.6693,N,08018.0961,W,1,9,1.9,22,M,,M,,*59
06/02/2014	05:09:34.633	$GPGGA,050935,2444.6684,N,08018.0979,W,1,9,1.9,22,M,,M,,*57
06/02/2014	05:09:35.600	$GPGGA,050936,2444.6678,N,08018.0995,W,1,9,1.9,21,M,,M,,*56
06/02/2014	05:09:36.612	$GPGGA,050937,2444.6669,N,08018.1013,W,1,9,2.2,21,M,,M,,*59
06/02/2014	05:09:37.547	$GPGGA,050938,2444.6662,N,08018.1033,W,1,9,2.2,21,M,,M,,*5F
06/02/2014	05:09:38.631	$GPGGA,050939,2444.6662,N,08018.1033,W,1,9,1.9,21,M,,M,,*56
06/02/2014	05:09:39.557	$GPGGA,050940,2444.6648,N,08018.1069,W,1,9,2.0,21,M,,M,,*55
06/02/2014	05:09:40.550	$GPGGA,050941,2444.6648,N,08018.1069,W,1,8,2.0,21,M,,M,,*55
06/02/2014	05:09:41.525	$GPGGA,050942,2444.6637,N,08018.1105,W,1,8,1.9,21,M,,M,,*5F
06/02/2014	05:09:42.629	$GPGGA,050943,2444.6631,N,08018.1124,W,1,9,1.9,21,M,,M,,*5A
06/02/2014	05:09:43.525	$GPGGA,050944,2444.6624,N,08018.1141,W,1,9,1.9,21,M,,M,,*5A
06/02/2014	05:09:44.579	$GPGGA,050945,2444.6617,N,08018.1161,W,1,8,2.2,21,M,,M,,*50
06/02/2014	05:09:45.524	$GPGGA,050946,2444.6609,N,08018.1179,W,1,8,1.9,21,M,,M,,*5D
06/02/2014	05:09:46.479	$GPGGA,050947,2444.6601,N,08018.1196,W,1,9,1.9,21,M,,M,,*54
06/02/2014	05:09:47.593	$GPGGA,050948,2444.6592,N,08018.1214,W,1,9,1.9,21,M,,M,,*5B
06/02/2014	05:09:48.598	$GPGGA,050949,2444.6585,N,08018.1230,W,1,9,1.9,21,M,,M,,*5A
06/02/2014	05:09:49.473	$GPGGA,050950,2444.6578,N,08018.1247,W,1,9,1.9,21,M,,M,,*50
06/02/2014	05:09:50.557	$GPGGA,050951,2444.6570,N,08018.1264,W,1,9,1.9,21,M,,M,,*58
06/02/2014	05:09:51.462	$GPGGA,050952,2444.6563,N,08018.1280,W,1,9,2.0,21,M,,M,,*59
06/02/2014	05:09:52.527	$GPGGA,050953,2444.6557,N,08018.1298,W,1,9,1.9,21,M,,M,,*5C
06/02/2014	05:09:53.521	$GPGGA,050954,2444.6552,N,08018.1316,W,1,9,1.9,21,M,,M,,*59
06/02/2014	05:09:54.526	$GPGGA,050955,2444.6544,N,08018.1333,W,1,8,2.2,21,M,,M,,*51
06/02/2014	05:09:55.531	$GPGGA,050956,2444.6537,N,08018.1351,W,1,8,1.9,21,M,,M,,*5A
06/02/2014	05:09:56.524	$GPGGA,050957,2444.6531,N,08018.1369,W,1,9,1.9,21,M,,M,,*57
06/02/2014	05:09:57.489	$GPGGA,050958,2444.6524,N,08018.1388,W,1,9,1.9,21,M,,M,,*53
06/02/2014	05:09:58.514	$GPGGA,050959,2444.6516,N,08018.1409,W,1,9,1.9,21,M,,M,,*5D
06/02/2014	05:09:59.508	$GPGGA,051000,2444.6509,N,08018.1428,W,1,9,1.9,20,M,,M,,*55
06/02/2014	05:10:00.533	$GPGGA,051001,2444.6501,N,08018.1449,W,1,8,2.2,20,M,,M,,*52
06/02/2014	05:10:01.468	$GPGGA,051002,2444.6494,N,08018.1467,W,1,8,1.9,20,M,,M,,*58
06/02/2014	05:10:02.473	$GPGGA,051003,2444.6488,N,08018.1486,W,1,9,1.9,20,M,,M,,*5A
06/02/2014	05:10:03.457	$GPGGA,051004,2444.6483,N,08018.1504,W,1,9,1.9,21,M,,M,,*5C
06/02/2014	05:10:04.442	$GPGGA,051005,2444.6476,N,08018.1521,W,1,9,1.9,21,M,,M,,*50
06/02/2014	05:10:05.497	$GPGGA,051006,2444.6469,N,08018.1539,W,1,9,1.9,21,M,,M,,*54
06/02/2014	05:10:06.432	$GPGGA,051007,2444.6462,N,08018.1557,W,1,9,1.9,21,M,,M,,*56
06/02/2014	05:10:07.436	$GPGGA,051008,2444.6455,N,08018.1576,W,1,9,1.9,21,M,,M,,*5E
06/02/2014	05:10:08.433	$GPGGA,051009,2444.6447,N,08018.1595,W,1,8,2.2,21,M,,M,,*58
06/02/2014	05:10:09.396	$GPGGA,051010,2444.6440,N,08018.1615,W,1,8,1.9,21,M,,M,,*54
06/02/2014	05:10:10.420	$GPGGA,051011,2444.6433,N,08018.1633,W,1,9,1.9,21,M,,M,,*54
06/02/2014	05:10:11.406	$GPGGA,051012,2444.6426,N,08018.1651,W,1,9,1.9,21,M,,M,,*57
06/02/2014	05:10:12.381	$GPGGA,051013,2444.6422,N,08018.1669,W,1,9,1.9,21,M,,M,,*59
06/02/2014	05:10:13.386	$GPGGA,051014,2444.6414,N,08018.1687,W,1,9,1.9,21,M,,M,,*5B
06/02/2014	05:10:14.358	$GPGGA,051015,2444.6406,N,08018.1705,W,1,9,1.9,21,M,,M,,*52
06/02/2014	05:10:15.384	$GPGGA,051016,2444.6400,N,08018.1724,W,1,9,1.9,21,M,,M,,*54
06/02/2014	05:10:16.388	$GPGGA,051017,2444.6393,N,08018.1745,W,1,9,1.9,21,M,,M,,*5F
06/02/2014	05:10:17.352	$GPGGA,051018,2444.6385,N,08018.1763,W,1,9,1.9,21,M,,M,,*53
06/02/2014	05:10:18.367	$GPGGA,051019,2444.6378,N,08018.1781,W,1,9,1.9,21,M,,M,,*5C
06/02/2014	05:10:19.342	$GPGGA,051020,2444.6373,N,08018.1799,W,1,9,1.9,21,M,,M,,*54
06/02/2014	05:10:20.317	$GPGGA,051021,2444.6367,N,08018.1817,W,1,9,1.9,21,M,,M,,*59
06/02/2014	05:10:21.321	$GPGGA,051022,2444.6359,N,08018.1835,W,1,9,1.9,21,M,,M,,*57
06/02/2014	05:10:22.336	$GPGGA,051023,2444.6353,N,08018.1853,W,1,9,1.9,21,M,,M,,*5C
06/02/2014	05:10:23.311	$GPGGA,051024,2444.6346,N,08018.1873,W,1,9,1.9,21,M,,M,,*5D
06/02/2014	05:10:24.305	$GPGGA,051025,2444.6339,N,08018.1893,W,1,9,1.9,22,M,,M,,*59
06/02/2014	05:10:25.280	$GPGGA,051026,2444.6332,N,08018.1911,W,1,9,1.9,22,M,,M,,*5A
06/02/2014	05:10:26.305	$GPGGA,051027,2444.6325,N,08018.1929,W,1,9,1.9,22,M,,M,,*56
06/02/2014	05:10:27.289	$GPGGA,051028,2444.6320,N,08018.1947,W,1,9,1.9,22,M,,M,,*54
06/02/2014	05:10:28.254	$GPGGA,051029,2444.6315,N,08018.1965,W,1,9,1.9,22,M,,M,,*53
06/02/2014	05:10:29.698	$GPGGA,051030,2444.6308,N,08018.1984,W,1,9,1.9,22,M,,M,,*58
06/02/2014	05:10:30.604	$GPGGA,051031,2444.6301,N,08018.2005,W,1,9,1.9,22,M,,M,,*53
06/02/2014	05:10:31.687	$GPGGA,051032,2444.6295,N,08018.2025,W,1,9,2.2,22,M,,M,,*56
06/02/2014	05:10:32.671	$GPGGA,051033,2444.6288,N,08018.2043,W,1,9,1.9,22,M,,M,,*53
06/02/2014	05:10:33.666	$GPGGA,051034,2444.6282,N,08018.2061,W,1,9,1.9,22,M,,M,,*5E
06/02/2014	05:10:34.561	$GPGGA,051035,2444.6277,N,08018.2078,W,1,9,1.9,22,M,,M,,*5D
06/02/2014	05:10:35.536	$GPGGA,051036,2444.6272,N,08018.2096,W,1,9,1.9,22,M,,M,,*5B
06/02/2014	05:10:36.640	$GPGGA,051037,2444.6265,N,08018.2113,W,1,9,1.9,22,M,,M,,*50
06/02/2014	05:10:37.506	$GPGGA,051038,2444.6259,N,08018.2132,W,1,9,2.2,22,M,,M,,*5B
06/02/2014	05:10:38.530	$GPGGA,051039,2444.6250,N,08018.2151,W,1,8,2.2,22,M,,M,,*57
06/02/2014	05:10:39.525	$GPGGA,051040,2444.6243,N,08018.2171,W,1,8,1.9,22,M,,M,,*51
06/02/2014	05:10:40.510	$GPGGA,051041,2444.6236,N,08018.2189,W,1,8,2.2,22,M,,M,,*5D
06/02/2014	05:10:41.494	$GPGGA,051042,2444.6228,N,08018.2207,W,1,8,2.2,22,M,,M,,*54
06/02/2014	05:10:42.499	$GPGGA,051043,2444.6221,N,08018.2223,W,1,8,2.2,22,M,,M,,*5A
06/02/2014	05:10:43.593	$GPGGA,051044,2444.6214,N,08018.2240,W,1,8,1.9,22,M,,M,,*56
06/02/2014	05:10:44.588	$GPGGA,051045,2444.6208,N,08018.2256,W,1,9,1.9,22,M,,M,,*5C
06/02/2014	05:10:45.563	$GPGGA,051046,2444.6202,N,08018.2273,W,1,9,1.9,22,M,,M,,*52
06/02/2014	05:10:46.548	$GPGGA,051047,2444.6194,N,08018.2292,W,1,9,1.9,22,M,,M,,*50
06/02/2014	05:10:47.552	$GPGGA,051048,2444.6185,N,08018.2312,W,1,9,1.9,22,M,,M,,*56
06/02/2014	05:10:48.526	$GPGGA,051049,2444.6177,N,08018.2330,W,1,9,1.9,22,M,,M,,*5A
06/02/2014	05:10:49.531	$GPGGA,051050,2444.6170,N,08018.2350,W,1,9,2.2,22,M,,M,,*5B
06/02/2014	05:10:50.515	$GPGGA,051051,2444.6162,N,08018.2368,W,1,9,1.9,22,M,,M,,*5A
06/02/2014	05:10:51.530	$GPGGA,051052,2444.6155,N,08018.2386,W,1,9,1.9,22,M,,M,,*5D
06/02/2014	05:10:52.545	$GPGGA,051053,2444.6151,N,08018.2402,W,1,9,1.9,22,M,,M,,*53
06/02/2014	05:10:53.500	$GPGGA,051054,2444.6144,N,08018.2420,W,1,9,2.2,22,M,,M,,*58
06/02/2014	05:10:54.514	$GPGGA,051055,2444.6136,N,08018.2438,W,1,9,1.9,22,M,,M,,*5D
06/02/2014	05:10:55.499	$GPGGA,051056,2444.6129,N,08018.2454,W,1,9,1.9,22,M,,M,,*5A
06/02/2014	05:10:56.494	$GPGGA,051057,2444.6122,N,08018.2471,W,1,8,2.2,22,M,,M,,*5E
06/02/2014	05:10:57.468	$GPGGA,051058,2444.6113,N,08018.2490,W,1,8,1.9,22,M,,M,,*54
06/02/2014	05:10:58.483	$GPGGA,051059,2444.6105,N,08018.2508,W,1,8,2.2,22,M,,M,,*5A
06/02/2014	05:10:59.478	$GPGGA,051100,2444.6098,N,08018.2527,W,1,8,1.9,22,M,,M,,*57
06/02/2014	05:11:00.463	$GPGGA,051101,2444.6091,N,08018.2547,W,1,9,1.9,22,M,,M,,*58
06/02/2014	05:11:01.437	$GPGGA,051102,2444.6083,N,08018.2563,W,1,9,2.2,22,M,,M,,*56
06/02/2014	05:11:02.422	$GPGGA,051103,2444.6076,N,08018.2583,W,1,8,2.2,22,M,,M,,*52
06/02/2014	05:11:03.427	$GPGGA,051104,2444.6069,N,08018.2601,W,1,8,2.2,22,M,,M,,*52
06/02/2014	05:11:04.411	$GPGGA,051105,2444.6061,N,08018.2619,W,1,8,2.2,22,M,,M,,*52
06/02/2014	05:11:05.416	$GPGGA,051106,2444.6055,N,08018.2637,W,1,8,1.9,22,M,,M,,*52
06/02/2014	05:11:06.420	$GPGGA,051107,2444.6047,N,08018.2655,W,1,9,1.9,22,M,,M,,*55
06/02/2014	05:11:07.404	$GPGGA,051108,2444.6040,N,08018.2675,W,1,9,2.2,22,M,,M,,*57
06/02/2014	05:11:08.399	$GPGGA,051109,2444.6035,N,08018.2695,W,1,9,1.9,22,M,,M,,*52
06/02/2014	05:11:09.374	$GPGGA,051110,2444.6028,N,08018.2713,W,1,9,1.9,22,M,,M,,*59
06/02/2014	05:11:10.398	$GPGGA,051111,2444.6021,N,08018.2728,W,1,9,1.9,22,M,,M,,*59
06/02/2014	05:11:11.373	$GPGGA,051112,2444.6013,N,08018.2746,W,1,9,1.9,22,M,,M,,*53
06/02/2014	05:11:12.378	$GPGGA,051113,2444.6008,N,08018.2765,W,1,9,1.9,22,M,,M,,*59
06/02/2014	05:11:13.343	$GPGGA,051114,2444.6003,N,08018.2785,W,1,9,1.9,22,M,,M,,*5B
06/02/2014	05:11:14.357	$GPGGA,051115,2444.5995,N,08018.2803,W,1,9,1.9,22,M,,M,,*5E
06/02/2014	05:11:15.352	$GPGGA,051116,2444.5988,N,08018.2822,W,1,9,2.2,22,M,,M,,*5A
06/02/2014	05:11:16.317	$GPGGA,051117,2444.5981,N,08018.2840,W,1,9,1.9,22,M,,M,,*5E
06/02/2014	05:11:17.411	$GPGGA,051118,2444.5975,N,08018.2857,W,1,9,1.9,22,M,,M,,*5C
06/02/2014	05:11:18.326	$GPGGA,051119,2444.5970,N,08018.2874,W,1,9,1.9,22,M,,M,,*59
06/02/2014	05:11:19.430	$GPGGA,051120,2444.5964,N,08018.2891,W,1,9,1.9,22,M,,M,,*5D
06/02/2014	05:11:20.415	$GPGGA,051121,2444.5957,N,08018.2908,W,1,9,1.9,22,M,,M,,*5D
06/02/2014	05:11:21.290	$GPGGA,051122,2444.5949,N,08018.2926,W,1,9,1.9,22,M,,M,,*5D
06/02/2014	05:11:22.396	$GPGGA,051123,2444.5942,N,08018.2945,W,1,8,2.2,22,M,,M,,*5B
06/02/2014	05:11:23.279	$GPGGA,051124,2444.5934,N,08018.2964,W,1,8,1.9,22,M,,M,,*56
06/02/2014	05:11:24.283	$GPGGA,051125,2444.5927,N,08018.2984,W,1,9,1.9,22,M,,M,,*5A
06/02/2014	05:11:25.358	$GPGGA,051126,2444.5919,N,08018.3002,W,1,9,1.9,22,M,,M,,*52
06/02/2014	05:11:26.253	$GPGGA,051127,2444.5912,N,08018.3018,W,1,9,1.9,22,M,,M,,*53
06/02/2014	05:11:27.258	$GPGGA,051128,2444.5906,N,08018.3035,W,1,9,1.9,22,M,,M,,*56
06/02/2014	05:11:28.232	$GPGGA,051129,2444.5899,N,08018.3049,W,1,8,2.2,22,M,,M,,*52
06/02/2014	05:11:29.658	$GPGGA,051130,2444.5893,N,08018.3065,W,1,8,1.9,22,M,,M,,*56
06/02/2014	05:11:30.642	$GPGGA,051131,2444.5887,N,08018.3082,W,1,9,1.9,22,M,,M,,*5A
06/02/2014	05:11:31.647	$GPGGA,051132,2444.5878,N,08018.3101,W,1,9,1.9,22,M,,M,,*53
06/02/2014	05:11:32.642	$GPGGA,051133,2444.5871,N,08018.3122,W,1,9,1.9,22,M,,M,,*5A
06/02/2014	05:11:33.626	$GPGGA,051134,2444.5862,N,08018.3143,W,1,9,1.9,22,M,,M,,*58
06/02/2014	05:11:34.608	$GPGGA,051135,2444.5853,N,08018.3163,W,1,9,1.9,22,M,,M,,*59
06/02/2014	05:11:35.526	$GPGGA,051136,2444.5846,N,08018.3183,W,1,9,1.9,23,M,,M,,*51
06/02/2014	05:11:36.640	$GPGGA,051137,2444.5840,N,08018.3201,W,1,8,2.2,23,M,,M,,*56
06/02/2014	05:11:37.595	$GPGGA,051138,2444.5834,N,08018.3216,W,1,8,1.9,23,M,,M,,*54
06/02/2014	05:11:38.600	$GPGGA,051139,2444.5829,N,08018.3231,W,1,9,1.9,23,M,,M,,*5D
06/02/2014	05:11:39.595	$GPGGA,051140,2444.5824,N,08018.3246,W,1,9,1.9,23,M,,M,,*5E
06/02/2014	05:11:40.589	$GPGGA,051141,2444.5818,N,08018.3264,W,1,7,2.3,23,M,,M,,*57
06/02/2014	05:11:41.573	$GPGGA,051142,2444.5811,N,08018.3284,W,1,7,1.9,23,M,,M,,*5A
06/02/2014	05:11:42.568	$GPGGA,051143,2444.5805,N,08018.3305,W,1,9,1.9,23,M,,M,,*58
06/02/2014	05:11:43.562	$GPGGA,051144,2444.5799,N,08018.3324,W,1,9,1.9,23,M,,M,,*56
06/02/2014	05:11:44.557	$GPGGA,051145,2444.5793,N,08018.3342,W,1,9,1.9,23,M,,M,,*5D
06/02/2014	05:11:45.532	$GPGGA,051146,2444.5788,N,08018.3360,W,1,9,1.9,23,M,,M,,*54
06/02/2014	05:11:46.517	$GPGGA,051147,2444.5784,N,08018.3378,W,1,9,1.9,23,M,,M,,*50
06/02/2014	05:11:47.531	$GPGGA,051148,2444.5780,N,08018.3396,W,1,9,1.9,23,M,,M,,*5B
06/02/2014	05:11:48.536	$GPGGA,051149,2444.5775,N,08018.3415,W,1,9,1.9,23,M,,M,,*5C
