Software Version Number: 1	Data File Format Number: 1	Build Version Number: 1	Error Count Since VI Started: 0	Manufacturer: Raytheon	 Model Number: RayMarine 120	 S/N: 	 Cal Date: 	 Wind Direction Offset: 0.00	 Slope (M)1: 0.00	 Offset (B)1: 0.00	 Slope (M)2: 0.00	 Offset (B)2: 0.00	 Slope (M)3: 0.00	 Offset (B)3: 0.00	 Slope (M)4: 0.00	 Offset (B)4: 0.00	 Slope (M)5: 0.00	 Offset (B)5: 0.00	 Slope (M)6: 0.00	 Offset (B)6: 0.00
Computer Date	Computer Time	GGA String
06/02/2014	13:00:00.476	$GPGGA,130001,2430.9498,N,08045.3129,W,1,9,1.6,25,M,,M,,*53
06/02/2014	13:00:01.536	$GPGGA,130002,2430.9490,N,08045.3128,W,1,9,1.8,24,M,,M,,*56
06/02/2014	13:00:02.626	$GPGGA,130003,2430.9485,N,08045.3132,W,1,8,1.8,24,M,,M,,*59
06/02/2014	13:00:03.546	$GPGGA,130004,2430.9478,N,08045.3136,W,1,8,1.8,24,M,,M,,*58
06/02/2014	13:00:04.636	$GPGGA,130005,2430.9469,N,08045.3134,W,1,9,1.6,24,M,,M,,*54
06/02/2014	13:00:05.436	$GPGGA,130006,2430.9461,N,08045.3132,W,1,9,1.6,24,M,,M,,*59
06/02/2014	13:00:06.626	$GPGGA,130007,2430.9456,N,08045.3136,W,1,8,1.6,24,M,,M,,*59
06/02/2014	13:00:07.456	$GPGGA,130008,2430.9450,N,08045.3137,W,1,8,1.6,24,M,,M,,*51
06/02/2014	13:00:08.436	$GPGGA,130009,2430.9442,N,08045.3136,W,1,8,1.9,24,M,,M,,*5D
06/02/2014	13:00:09.526	$GPGGA,130010,2430.9435,N,08045.3136,W,1,8,1.6,24,M,,M,,*5A
06/02/2014	13:00:10.626	$GPGGA,130011,2430.9426,N,08045.3139,W,1,8,1.6,24,M,,M,,*56
06/02/2014	13:00:11.566	$GPGGA,130012,2430.9419,N,08045.3137,W,1,8,1.6,24,M,,M,,*57
06/02/2014	13:00:12.526	$GPGGA,130013,2430.9413,N,08045.3136,W,1,9,1.6,24,M,,M,,*5C
06/02/2014	13:00:13.545	$GPGGA,130014,2430.9407,N,08045.3136,W,1,9,1.9,24,M,,M,,*51
06/02/2014	13:00:14.625	$GPGGA,130015,2430.9399,N,08045.3136,W,1,9,1.6,24,M,,M,,*5F
06/02/2014	13:00:15.555	$GPGGA,130016,2430.9391,N,08045.3137,W,1,9,1.9,24,M,,M,,*5A
06/02/2014	13:00:16.508	$GPGGA,130017,2430.9385,N,08045.3140,W,1,9,1.6,24,M,,M,,*51
06/02/2014	13:00:17.535	$GPGGA,130018,2430.9378,N,08045.3139,W,1,9,1.8,24,M,,M,,*5C
06/02/2014	13:00:18.615	$GPGGA,130019,2430.9368,N,08045.3139,W,1,7,2.7,24,M,,M,,*5E
06/02/2014	13:00:19.515	$GPGGA,130020,2430.9360,N,08045.3143,W,1,7,1.6,24,M,,M,,*53
06/02/2014	13:00:20.605	$GPGGA,130021,2430.9353,N,08045.3143,W,1,9,2.1,24,M,,M,,*58
06/02/2014	13:00:21.535	$GPGGA,130022,2430.9345,N,08045.3140,W,1,9,2.1,24,M,,M,,*5F
06/02/2014	13:00:22.605	$GPGGA,130023,2430.9339,N,08045.3139,W,1,9,1.6,24,M,,M,,*5F
06/02/2014	13:00:23.545	$GPGGA,130024,2430.9334,N,08045.3143,W,1,9,1.9,24,M,,M,,*57
06/02/2014	13:00:24.605	$GPGGA,130025,2430.9325,N,08045.3144,W,1,8,1.6,24,M,,M,,*5F
06/02/2014	13:00:25.515	$GPGGA,130026,2430.9317,N,08045.3142,W,1,8,1.6,24,M,,M,,*5B
06/02/2014	13:00:26.605	$GPGGA,130027,2430.9310,N,08045.3144,W,1,8,1.9,24,M,,M,,*54
06/02/2014	13:00:27.535	$GPGGA,130028,2430.9303,N,08045.3147,W,1,8,1.9,24,M,,M,,*5A
06/02/2014	13:00:28.605	$GPGGA,130029,2430.9295,N,08045.3146,W,1,8,1.6,24,M,,M,,*5B
06/02/2014	13:00:29.505	$GPGGA,130030,2430.9287,N,08045.3148,W,1,8,1.6,24,M,,M,,*5E
06/02/2014	13:00:30.575	$GPGGA,130031,2430.9280,N,08045.3150,W,1,9,1.8,24,M,,M,,*5E
06/02/2014	13:00:31.514	$GPGGA,130032,2430.9272,N,08045.3151,W,1,9,1.8,24,M,,M,,*51
06/02/2014	13:00:32.474	$GPGGA,130033,2430.9265,N,08045.3151,W,1,8,1.8,24,M,,M,,*57
06/02/2014	13:00:33.474	$GPGGA,130034,2430.9252,N,08045.3157,W,1,8,2.1,24,M,,M,,*58
06/02/2014	13:00:34.545	$GPGGA,130035,2430.9245,N,08045.3154,W,1,9,1.6,24,M,,M,,*59
06/02/2014	13:00:35.514	$GPGGA,130036,2430.9241,N,08045.3152,W,1,9,1.6,24,M,,M,,*58
06/02/2014	13:00:36.574	$GPGGA,130037,2430.9236,N,08045.3151,W,1,9,1.6,24,M,,M,,*5A
06/02/2014	13:00:37.464	$GPGGA,130038,2430.9229,N,08045.3151,W,1,9,1.6,24,M,,M,,*5B
06/02/2014	13:00:38.554	$GPGGA,130039,2430.9219,N,08045.3150,W,1,8,1.9,24,M,,M,,*56
06/02/2014	13:00:39.504	$GPGGA,130040,2430.9211,N,08045.3151,W,1,8,1.9,24,M,,M,,*51
06/02/2014	13:00:40.454	$GPGGA,130041,2430.9205,N,08045.3154,W,1,8,1.9,24,M,,M,,*50
06/02/2014	13:00:41.484	$GPGGA,130042,2430.9196,N,08045.3155,W,1,8,1.6,24,M,,M,,*54
06/02/2014	13:00:42.564	$GPGGA,130043,2430.9187,N,08045.3155,W,1,7,2.1,24,M,,M,,*5E
06/02/2014	13:00:43.494	$GPGGA,130044,2430.9179,N,08045.3158,W,1,7,1.8,24,M,,M,,*5F
06/02/2014	13:00:44.444	$GPGGA,130045,2430.9176,N,08045.3153,W,1,9,1.6,24,M,,M,,*5A
06/02/2014	13:00:45.484	$GPGGA,130046,2430.9168,N,08045.3154,W,1,9,1.6,24,M,,M,,*51
06/02/2014	13:00:46.444	$GPGGA,130047,2430.9161,N,08045.3154,W,1,9,1.6,24,M,,M,,*59
06/02/2014	13:00:47.494	$GPGGA,130048,2430.9153,N,08045.3157,W,1,9,1.6,24,M,,M,,*54
06/02/2014	13:00:48.443	$GPGGA,130049,2430.9146,N,08045.3158,W,1,9,1.6,24,M,,M,,*5E
06/02/2014	13:00:49.563	$GPGGA,130050,2430.9138,N,08045.3161,W,1,9,1.6,24,M,,M,,*55
06/02/2014	13:00:50.523	$GPGGA,130051,2430.9131,N,08045.3162,W,1,9,1.6,25,M,,M,,*5F
06/02/2014	13:00:51.553	$GPGGA,130052,2430.9122,N,08045.3163,W,1,9,1.6,25,M,,M,,*5F
06/02/2014	13:00:52.543	$GPGGA,130053,2430.9117,N,08045.3166,W,1,9,1.6,25,M,,M,,*5D
06/02/2014	13:00:53.523	$GPGGA,130054,2430.9109,N,08045.3170,W,1,9,1.6,25,M,,M,,*52
06/02/2014	13:00:54.573	$GPGGA,130055,2430.9101,N,08045.3172,W,1,9,1.6,25,M,,M,,*59
06/02/2014	13:00:55.553	$GPGGA,130056,2430.9093,N,08045.3175,W,1,9,1.6,25,M,,M,,*57
06/02/2014	13:00:56.533	$GPGGA,130057,2430.9086,N,08045.3177,W,1,9,1.6,25,M,,M,,*50
06/02/2014	13:00:57.523	$GPGGA,130058,2430.9079,N,08045.3183,W,1,9,1.6,25,M,,M,,*54
06/02/2014	13:00:58.583	$GPGGA,130059,2430.9072,N,08045.3184,W,1,9,1.6,25,M,,M,,*59
06/02/2014	13:00:59.563	$GPGGA,130100,2430.9063,N,08045.3184,W,1,9,1.6,25,M,,M,,*54
06/02/2014	13:01:00.523	$GPGGA,130101,2430.9057,N,08045.3190,W,1,9,1.9,25,M,,M,,*58
06/02/2014	13:01:01.523	$GPGGA,130102,2430.9050,N,08045.3197,W,1,9,1.6,25,M,,M,,*54
06/02/2014	13:01:02.543	$GPGGA,130103,2430.9041,N,08045.3198,W,1,9,1.6,25,M,,M,,*5A
06/02/2014	13:01:03.524	$GPGGA,130104,2430.9035,N,08045.3201,W,1,9,1.9,25,M,,M,,*52
06/02/2014	13:01:04.623	$GPGGA,130105,2430.9030,N,08045.3204,W,1,8,1.6,25,M,,M,,*5D
06/02/2014	13:01:05.503	$GPGGA,130106,2430.9023,N,08045.3206,W,1,8,1.6,25,M,,M,,*5E
06/02/2014	13:01:06.522	$GPGGA,130107,2430.9016,N,08045.3208,W,1,9,1.6,25,M,,M,,*56
06/02/2014	13:01:07.522	$GPGGA,130108,2430.9009,N,08045.3212,W,1,9,1.6,25,M,,M,,*5C
06/02/2014	13:01:08.522	$GPGGA,130109,2430.9001,N,08045.3215,W,1,9,1.6,25,M,,M,,*52
06/02/2014	13:01:09.502	$GPGGA,130110,2430.8996,N,08045.3217,W,1,9,1.6,25,M,,M,,*5E
06/02/2014	13:01:10.532	$GPGGA,130111,2430.8991,N,08045.3223,W,1,9,1.6,25,M,,M,,*5F
06/02/2014	13:01:11.512	$GPGGA,130112,2430.8983,N,08045.3224,W,1,9,1.6,25,M,,M,,*58
06/02/2014	13:01:12.512	$GPGGA,130113,2430.8983,N,08045.3224,W,1,9,1.6,25,M,,M,,*59
06/02/2014	13:01:13.492	$GPGGA,130114,2430.8970,N,08045.3233,W,1,9,1.6,25,M,,M,,*54
06/02/2014	13:01:14.532	$GPGGA,130115,2430.8963,N,08045.3237,W,1,9,1.6,25,M,,M,,*53
06/02/2014	13:01:15.492	$GPGGA,130116,2430.8956,N,08045.3240,W,1,9,1.6,25,M,,M,,*56
06/02/2014	13:01:16.552	$GPGGA,130117,2430.8951,N,08045.3242,W,1,9,1.6,25,M,,M,,*52
06/02/2014	13:01:17.902	$GPGGA,130118,2430.8947,N,08045.3246,W,1,9,1.6,25,M,,M,,*5E
06/02/2014	13:01:18.532	$GPGGA,130119,2430.8940,N,08045.3248,W,1,9,1.6,25,M,,M,,*56
06/02/2014	13:01:19.502	$GPGGA,130120,2430.8933,N,08045.3252,W,1,9,1.6,25,M,,M,,*53
06/02/2014	13:01:20.512	$GPGGA,130121,2430.8933,N,08045.3252,W,1,9,1.6,25,M,,M,,*52
06/02/2014	13:01:21.482	$GPGGA,130122,2430.8919,N,08045.3263,W,1,9,1.6,25,M,,M,,*5B
06/02/2014	13:01:22.532	$GPGGA,130123,2430.8912,N,08045.3266,W,1,9,1.6,24,M,,M,,*55
06/02/2014	13:01:23.491	$GPGGA,130124,2430.8907,N,08045.3271,W,1,9,1.6,24,M,,M,,*50
06/02/2014	13:01:24.481	$GPGGA,130125,2430.8907,N,08045.3271,W,1,9,1.6,24,M,,M,,*51
06/02/2014	13:01:25.581	$GPGGA,130126,2430.8898,N,08045.3280,W,1,9,1.6,24,M,,M,,*5B
06/02/2014	13:01:26.471	$GPGGA,130127,2430.8898,N,08045.3280,W,1,9,1.6,24,M,,M,,*5A
06/02/2014	13:01:27.481	$GPGGA,130128,2430.8891,N,08045.3282,W,1,9,1.6,24,M,,M,,*5E
06/02/2014	13:01:28.521	$GPGGA,130129,2430.8880,N,08045.3295,W,1,9,1.6,24,M,,M,,*59
06/02/2014	13:01:29.571	$GPGGA,130130,2430.8875,N,08045.3300,W,1,9,1.6,24,M,,M,,*56
06/02/2014	13:01:30.472	$GPGGA,130131,2430.8875,N,08045.3300,W,1,9,1.6,24,M,,M,,*57
06/02/2014	13:01:31.481	$GPGGA,130132,2430.8864,N,08045.3309,W,1,9,1.6,24,M,,M,,*5D
06/02/2014	13:01:32.461	$GPGGA,130133,2430.8864,N,08045.3309,W,1,9,1.6,24,M,,M,,*5C
06/02/2014	13:01:33.541	$GPGGA,130134,2430.8855,N,08045.3317,W,1,9,1.6,24,M,,M,,*56
06/02/2014	13:01:34.461	$GPGGA,130135,2430.8855,N,08045.3317,W,1,9,1.6,24,M,,M,,*57
06/02/2014	13:01:35.461	$GPGGA,130136,2430.8849,N,08045.3321,W,1,9,1.6,23,M,,M,,*5B
06/02/2014	13:01:36.461	$GPGGA,130137,2430.8844,N,08045.3328,W,1,9,1.6,23,M,,M,,*5E
06/02/2014	13:01:37.451	$GPGGA,130138,2430.8835,N,08045.3338,W,1,9,1.6,23,M,,M,,*56
06/02/2014	13:01:38.571	$GPGGA,130139,2430.8829,N,08045.3342,W,1,9,1.6,23,M,,M,,*57
06/02/2014	13:01:39.541	$GPGGA,130140,2430.8826,N,08045.3349,W,1,9,1.6,23,M,,M,,*5D
06/02/2014	13:01:40.532	$GPGGA,130141,2430.8822,N,08045.3353,W,1,8,1.8,23,M,,M,,*5C
06/02/2014	13:01:41.530	$GPGGA,130142,2430.8817,N,08045.3356,W,1,8,1.6,23,M,,M,,*52
06/02/2014	13:01:42.560	$GPGGA,130143,2430.8812,N,08045.3361,W,1,9,1.6,23,M,,M,,*53
06/02/2014	13:01:43.550	$GPGGA,130144,2430.8810,N,08045.3368,W,1,9,1.6,23,M,,M,,*5F
06/02/2014	13:01:44.540	$GPGGA,130145,2430.8806,N,08045.3374,W,1,9,1.6,23,M,,M,,*54
06/02/2014	13:01:45.520	$GPGGA,130146,2430.8800,N,08045.3379,W,1,9,1.6,23,M,,M,,*5C
06/02/2014	13:01:46.550	$GPGGA,130147,2430.8795,N,08045.3385,W,1,8,1.7,23,M,,M,,*5D
06/02/2014	13:01:47.540	$GPGGA,130148,2430.8792,N,08045.3392,W,1,8,1.6,22,M,,M,,*53
06/02/2014	13:01:48.540	$GPGGA,130149,2430.8792,N,08045.3392,W,1,9,1.6,22,M,,M,,*53
06/02/2014	13:01:49.500	$GPGGA,130150,2430.8784,N,08045.3400,W,1,9,1.7,22,M,,M,,*51
06/02/2014	13:01:50.500	$GPGGA,130151,2430.8781,N,08045.3407,W,1,9,1.6,22,M,,M,,*53
06/02/2014	13:01:51.520	$GPGGA,130152,2430.8777,N,08045.3414,W,1,9,1.6,22,M,,M,,*5B
06/02/2014	13:01:52.530	$GPGGA,130153,2430.8772,N,08045.3418,W,1,9,1.6,22,M,,M,,*53
06/02/2014	13:01:53.510	$GPGGA,130154,2430.8770,N,08045.3425,W,1,9,1.6,22,M,,M,,*58
06/02/2014	13:01:54.510	$GPGGA,130155,2430.8766,N,08045.3432,W,1,8,1.7,22,M,,M,,*58
06/02/2014	13:01:55.520	$GPGGA,130156,2430.8763,N,08045.3439,W,1,8,1.7,22,M,,M,,*55
06/02/2014	13:01:56.510	$GPGGA,130157,2430.8759,N,08045.3443,W,1,8,1.7,22,M,,M,,*50
06/02/2014	13:01:57.490	$GPGGA,130158,2430.8754,N,08045.3450,W,1,8,1.6,22,M,,M,,*51
06/02/2014	13:01:58.519	$GPGGA,130159,2430.8750,N,08045.3457,W,1,8,1.7,22,M,,M,,*52
06/02/2014	13:01:59.509	$GPGGA,130200,2430.8745,N,08045.3462,W,1,8,2.2,22,M,,M,,*59
06/02/2014	13:02:00.489	$GPGGA,130201,2430.8741,N,08045.3468,W,1,9,1.6,22,M,,M,,*50
06/02/2014	13:02:01.487	$GPGGA,130202,2430.8737,N,08045.3475,W,1,9,1.7,22,M,,M,,*5F
06/02/2014	13:02:02.479	$GPGGA,130203,2430.8734,N,08045.3479,W,1,8,1.7,22,M,,M,,*50
06/02/2014	13:02:03.499	$GPGGA,130204,2430.8730,N,08045.3484,W,1,8,1.6,22,M,,M,,*50
06/02/2014	13:02:04.469	$GPGGA,130205,2430.8727,N,08045.3493,W,1,9,1.6,22,M,,M,,*50
06/02/2014	13:02:05.489	$GPGGA,130206,2430.8720,N,08045.3498,W,1,9,1.6,22,M,,M,,*5F
06/02/2014	13:02:06.509	$GPGGA,130207,2430.8713,N,08045.3504,W,1,9,1.6,22,M,,M,,*5A
06/02/2014	13:02:07.489	$GPGGA,130208,2430.8709,N,08045.3511,W,1,9,1.6,22,M,,M,,*5A
06/02/2014	13:02:08.471	$GPGGA,130209,2430.8707,N,08045.3517,W,1,9,1.6,22,M,,M,,*53
06/02/2014	13:02:09.479	$GPGGA,130210,2430.8702,N,08045.3522,W,1,9,1.6,22,M,,M,,*58
06/02/2014	13:02:10.509	$GPGGA,130211,2430.8698,N,08045.3526,W,1,8,1.7,22,M,,M,,*5F
06/02/2014	13:02:11.469	$GPGGA,130212,2430.8694,N,08045.3533,W,1,8,1.6,22,M,,M,,*55
06/02/2014	13:02:12.489	$GPGGA,130213,2430.8690,N,08045.3540,W,1,9,1.6,22,M,,M,,*55
06/02/2014	13:02:13.469	$GPGGA,130214,2430.8684,N,08045.3548,W,1,9,1.9,22,M,,M,,*50
06/02/2014	13:02:14.460	$GPGGA,130215,2430.8678,N,08045.3555,W,1,9,1.6,22,M,,M,,*51
06/02/2014	13:02:15.588	$GPGGA,130216,2430.8676,N,08045.3563,W,1,9,1.7,22,M,,M,,*58
06/02/2014	13:02:16.468	$GPGGA,130217,2430.8671,N,08045.3571,W,1,9,1.6,22,M,,M,,*5C
06/02/2014	13:02:17.548	$GPGGA,130218,2430.8667,N,08045.3580,W,1,9,1.6,22,M,,M,,*5A
06/02/2014	13:02:18.578	$GPGGA,130219,2430.8665,N,08045.3587,W,1,9,1.6,22,M,,M,,*5E
06/02/2014	13:02:19.480	$GPGGA,130220,2430.8660,N,08045.3595,W,1,9,1.6,22,M,,M,,*52
06/02/2014	13:02:20.468	$GPGGA,130221,2430.8655,N,08045.3602,W,1,9,1.6,22,M,,M,,*58
06/02/2014	13:02:21.458	$GPGGA,130222,2430.8651,N,08045.3609,W,1,9,1.7,22,M,,M,,*55
06/02/2014	13:02:22.458	$GPGGA,130223,2430.8648,N,08045.3616,W,1,9,1.6,22,M,,M,,*53
06/02/2014	13:02:23.548	$GPGGA,130224,2430.8644,N,08045.3624,W,1,9,1.6,22,M,,M,,*59
06/02/2014	13:02:24.528	$GPGGA,130225,2430.8640,N,08045.3631,W,1,9,1.6,22,M,,M,,*58
06/02/2014	13:02:25.528	$GPGGA,130226,2430.8637,N,08045.3639,W,1,9,1.6,22,M,,M,,*53
06/02/2014	13:02:26.538	$GPGGA,130227,2430.8633,N,08045.3645,W,1,9,1.6,22,M,,M,,*5D
06/02/2014	13:02:27.548	$GPGGA,130228,2430.8629,N,08045.3652,W,1,9,1.6,22,M,,M,,*5F
06/02/2014	13:02:28.438	$GPGGA,130229,2430.8627,N,08045.3660,W,1,8,1.7,22,M,,M,,*51
06/02/2014	13:02:29.518	$GPGGA,130230,2430.8625,N,08045.3668,W,1,8,1.6,22,M,,M,,*52
06/02/2014	13:02:30.528	$GPGGA,130231,2430.8620,N,08045.3676,W,1,9,1.6,22,M,,M,,*58
06/02/2014	13:02:31.538	$GPGGA,130232,2430.8616,N,08045.3683,W,1,9,1.6,22,M,,M,,*54
06/02/2014	13:02:32.538	$GPGGA,130233,2430.8613,N,08045.3692,W,1,9,1.6,22,M,,M,,*50
06/02/2014	13:02:33.517	$GPGGA,130234,2430.8609,N,08045.3699,W,1,9,1.7,22,M,,M,,*56
06/02/2014	13:02:34.507	$GPGGA,130235,2430.8605,N,08045.3704,W,1,9,1.6,22,M,,M,,*5F
06/02/2014	13:02:35.527	$GPGGA,130236,2430.8602,N,08045.3711,W,1,9,1.6,21,M,,M,,*5C
06/02/2014	13:02:36.507	$GPGGA,130237,2430.8598,N,08045.3718,W,1,9,1.6,21,M,,M,,*54
06/02/2014	13:02:37.517	$GPGGA,130238,2430.8593,N,08045.3725,W,1,9,1.6,21,M,,M,,*5E
06/02/2014	13:02:38.527	$GPGGA,130239,2430.8588,N,08045.3733,W,1,8,1.7,21,M,,M,,*52
06/02/2014	13:02:39.527	$GPGGA,130240,2430.8584,N,08045.3741,W,1,8,1.6,21,M,,M,,*54
06/02/2014	13:02:40.527	$GPGGA,130241,2430.8582,N,08045.3748,W,1,8,1.7,21,M,,M,,*5B
06/02/2014	13:02:41.497	$GPGGA,130242,2430.8577,N,08045.3754,W,1,8,1.6,21,M,,M,,*5E
06/02/2014	13:02:42.517	$GPGGA,130243,2430.8573,N,08045.3758,W,1,9,1.6,21,M,,M,,*56
06/02/2014	13:02:43.507	$GPGGA,130244,2430.8570,N,08045.3765,W,1,9,1.6,21,M,,M,,*5C
06/02/2014	13:02:44.507	$GPGGA,130245,2430.8565,N,08045.3772,W,1,9,1.6,21,M,,M,,*5F
06/02/2014	13:02:45.497	$GPGGA,130246,2430.8560,N,08045.3776,W,1,9,1.6,21,M,,M,,*5D
06/02/2014	13:02:46.507	$GPGGA,130247,2430.8557,N,08045.3784,W,1,9,1.6,21,M,,M,,*55
06/02/2014	13:02:47.507	$GPGGA,130248,2430.8553,N,08045.3791,W,1,9,1.7,21,M,,M,,*5B
06/02/2014	13:02:48.507	$GPGGA,130249,2430.8548,N,08045.3797,W,1,9,1.6,21,M,,M,,*57
06/02/2014	13:02:49.477	$GPGGA,130250,2430.8544,N,08045.3804,W,1,9,1.6,21,M,,M,,*56
06/02/2014	13:02:50.497	$GPGGA,130251,2430.8539,N,08045.3808,W,1,8,1.7,21,M,,M,,*51
06/02/2014	13:02:51.496	$GPGGA,130252,2430.8536,N,08045.3815,W,1,8,1.6,21,M,,M,,*50
06/02/2014	13:02:52.506	$GPGGA,130253,2430.8533,N,08045.3823,W,1,9,1.6,21,M,,M,,*50
06/02/2014	13:02:53.467	$GPGGA,130254,2430.8530,N,08045.3829,W,1,9,1.6,21,M,,M,,*5E
06/02/2014	13:02:54.486	$GPGGA,130255,2430.8526,N,08045.3837,W,1,9,1.6,21,M,,M,,*57
06/02/2014	13:02:55.526	$GPGGA,130256,2430.8524,N,08045.3844,W,1,9,1.6,21,M,,M,,*52
06/02/2014	13:02:56.456	$GPGGA,130257,2430.8521,N,08045.3851,W,1,9,1.6,21,M,,M,,*52
06/02/2014	13:02:57.476	$GPGGA,130258,2430.8517,N,08045.3858,W,1,9,1.6,21,M,,M,,*51
06/02/2014	13:02:58.486	$GPGGA,130259,2430.8514,N,08045.3866,W,1,9,1.6,21,M,,M,,*5E
06/02/2014	13:02:59.496	$GPGGA,130300,2430.8511,N,08045.3874,W,1,9,1.6,21,M,,M,,*55
06/02/2014	13:03:00.456	$GPGGA,130301,2430.8508,N,08045.3880,W,1,9,1.6,21,M,,M,,*57
06/02/2014	13:03:01.466	$GPGGA,130302,2430.8506,N,08045.3887,W,1,9,1.6,21,M,,M,,*5D
06/02/2014	13:03:02.576	$GPGGA,130303,2430.8505,N,08045.3895,W,1,9,1.6,21,M,,M,,*5C
06/02/2014	13:03:03.456	$GPGGA,130304,2430.8504,N,08045.3903,W,1,9,1.6,21,M,,M,,*54
06/02/2014	13:03:04.456	$GPGGA,130305,2430.8500,N,08045.3910,W,1,9,1.6,21,M,,M,,*53
06/02/2014	13:03:05.566	$GPGGA,130306,2430.8499,N,08045.3918,W,1,9,1.6,20,M,,M,,*58
06/02/2014	13:03:06.536	$GPGGA,130307,2430.8497,N,08045.3928,W,1,9,1.6,20,M,,M,,*54
06/02/2014	13:03:07.546	$GPGGA,130308,2430.8496,N,08045.3936,W,1,9,1.6,20,M,,M,,*55
06/02/2014	13:03:08.465	$GPGGA,130309,2430.8495,N,08045.3945,W,1,9,1.6,20,M,,M,,*53
06/02/2014	13:03:09.445	$GPGGA,130310,2430.8494,N,08045.3952,W,1,9,1.6,20,M,,M,,*5C
06/02/2014	13:03:10.445	$GPGGA,130311,2430.8495,N,08045.3961,W,1,9,1.6,20,M,,M,,*5C
06/02/2014	13:03:11.455	$GPGGA,130312,2430.8493,N,08045.3970,W,1,9,1.6,20,M,,M,,*59
06/02/2014	13:03:12.445	$GPGGA,130313,2430.8490,N,08045.3981,W,1,9,1.6,20,M,,M,,*55
06/02/2014	13:03:13.525	$GPGGA,130314,2430.8488,N,08045.3990,W,1,9,1.6,20,M,,M,,*5B
06/02/2014	13:03:14.525	$GPGGA,130315,2430.8488,N,08045.4000,W,1,9,1.6,20,M,,M,,*5D
06/02/2014	13:03:15.585	$GPGGA,130316,2430.8486,N,08045.4010,W,1,9,1.6,20,M,,M,,*51
06/02/2014	13:03:16.535	$GPGGA,130317,2430.8487,N,08045.4017,W,1,9,1.6,20,M,,M,,*56
06/02/2014	13:03:17.525	$GPGGA,130318,2430.8484,N,08045.4025,W,1,9,1.6,20,M,,M,,*5B
06/02/2014	13:03:18.515	$GPGGA,130319,2430.8482,N,08045.4033,W,1,9,1.6,20,M,,M,,*5B
06/02/2014	13:03:19.525	$GPGGA,130320,2430.8481,N,08045.4043,W,1,9,1.6,20,M,,M,,*55
06/02/2014	13:03:20.545	$GPGGA,130321,2430.8479,N,08045.4053,W,1,9,1.6,20,M,,M,,*52
06/02/2014	13:03:21.515	$GPGGA,130322,2430.8475,N,08045.4064,W,1,9,1.6,20,M,,M,,*59
06/02/2014	13:03:22.535	$GPGGA,130323,2430.8474,N,08045.4072,W,1,9,1.6,20,M,,M,,*5E
06/02/2014	13:03:23.515	$GPGGA,130324,2430.8471,N,08045.4082,W,1,9,1.6,20,M,,M,,*53
06/02/2014	13:03:24.525	$GPGGA,130325,2430.8470,N,08045.4090,W,1,9,1.6,20,M,,M,,*50
06/02/2014	13:03:25.495	$GPGGA,130326,2430.8466,N,08045.4098,W,1,9,1.6,20,M,,M,,*5C
06/02/2014	13:03:26.524	$GPGGA,130327,2430.8464,N,08045.4105,W,1,9,1.6,20,M,,M,,*5A
06/02/2014	13:03:27.514	$GPGGA,130328,2430.8463,N,08045.4115,W,1,9,1.6,20,M,,M,,*53
06/02/2014	13:03:28.514	$GPGGA,130329,2430.8460,N,08045.4124,W,1,9,1.6,20,M,,M,,*53
06/02/2014	13:03:29.494	$GPGGA,130330,2430.8456,N,08045.4133,W,1,9,1.6,20,M,,M,,*58
06/02/2014	13:03:30.514	$GPGGA,130331,2430.8452,N,08045.4142,W,1,9,1.6,20,M,,M,,*5B
06/02/2014	13:03:31.504	$GPGGA,130332,2430.8450,N,08045.4152,W,1,9,1.6,20,M,,M,,*5B
06/02/2014	13:03:32.484	$GPGGA,130333,2430.8447,N,08045.4160,W,1,9,1.6,20,M,,M,,*5D
06/02/2014	13:03:33.494	$GPGGA,130334,2430.8443,N,08045.4166,W,1,9,1.6,20,M,,M,,*58
06/02/2014	13:03:34.514	$GPGGA,130335,2430.8441,N,08045.4174,W,1,9,1.6,20,M,,M,,*58
06/02/2014	13:03:35.484	$GPGGA,130336,2430.8438,N,08045.4184,W,1,9,1.6,20,M,,M,,*5A
06/02/2014	13:03:36.524	$GPGGA,130337,2430.8434,N,08045.4192,W,1,9,1.6,20,M,,M,,*50
06/02/2014	13:03:37.474	$GPGGA,130338,2430.8430,N,08045.4201,W,1,9,1.6,20,M,,M,,*52
06/02/2014	13:03:38.504	$GPGGA,130339,2430.8427,N,08045.4209,W,1,9,1.6,20,M,,M,,*5D
06/02/2014	13:03:39.494	$GPGGA,130340,2430.8424,N,08045.4217,W,1,9,1.6,20,M,,M,,*5F
06/02/2014	13:03:40.484	$GPGGA,130341,2430.8420,N,08045.4224,W,1,9,1.6,20,M,,M,,*5A
06/02/2014	13:03:41.484	$GPGGA,130342,2430.8417,N,08045.4230,W,1,9,1.6,20,M,,M,,*58
06/02/2014	13:03:42.476	$GPGGA,130343,2430.8416,N,08045.4238,W,1,9,1.6,20,M,,M,,*50
06/02/2014	13:03:43.473	$GPGGA,130344,2430.8413,N,08045.4246,W,1,9,1.6,20,M,,M,,*5B
06/02/2014	13:03:44.473	$GPGGA,130345,2430.8409,N,08045.4254,W,1,9,1.6,20,M,,M,,*52
06/02/2014	13:03:45.463	$GPGGA,130346,2430.8403,N,08045.4261,W,1,9,1.6,20,M,,M,,*5D
06/02/2014	13:03:46.463	$GPGGA,130347,2430.8399,N,08045.4270,W,1,9,1.6,20,M,,M,,*58
06/02/2014	13:03:47.473	$GPGGA,130348,2430.8398,N,08045.4277,W,1,9,1.6,20,M,,M,,*51
06/02/2014	13:03:48.563	$GPGGA,130349,2430.8395,N,08045.4281,W,1,9,1.6,20,M,,M,,*54
06/02/2014	13:03:49.453	$GPGGA,130350,2430.8392,N,08045.4288,W,1,9,1.6,19,M,,M,,*58
06/02/2014	13:03:50.543	$GPGGA,130351,2430.8389,N,08045.4293,W,1,9,1.6,19,M,,M,,*59
06/02/2014	13:03:51.473	$GPGGA,130352,2430.8387,N,08045.4301,W,1,9,1.6,19,M,,M,,*5E
06/02/2014	13:03:52.463	$GPGGA,130353,2430.8383,N,08045.4308,W,1,9,1.6,19,M,,M,,*52
06/02/2014	13:03:53.453	$GPGGA,130354,2430.8380,N,08045.4314,W,1,9,1.6,19,M,,M,,*5B
06/02/2014	13:03:54.453	$GPGGA,130355,2430.8380,N,08045.4321,W,1,9,1.6,19,M,,M,,*5C
06/02/2014	13:03:55.573	$GPGGA,130356,2430.8378,N,08045.4328,W,1,9,1.6,19,M,,M,,*51
06/02/2014	13:03:56.533	$GPGGA,130357,2430.8376,N,08045.4333,W,1,9,1.6,19,M,,M,,*54
06/02/2014	13:03:57.443	$GPGGA,130358,2430.8374,N,08045.4339,W,1,9,1.6,19,M,,M,,*53
06/02/2014	13:03:58.544	$GPGGA,130359,2430.8372,N,08045.4346,W,1,9,1.6,19,M,,M,,*5C
06/02/2014	13:03:59.475	$GPGGA,130400,2430.8370,N,08045.4354,W,1,9,1.6,19,M,,M,,*56
06/02/2014	13:04:00.433	$GPGGA,130401,2430.8369,N,08045.4362,W,1,9,1.6,19,M,,M,,*5A
06/02/2014	13:04:01.432	$GPGGA,130402,2430.8369,N,08045.4369,W,1,9,1.6,19,M,,M,,*52
06/02/2014	13:04:02.572	$GPGGA,130403,2430.8367,N,08045.4376,W,1,9,1.6,19,M,,M,,*53
06/02/2014	13:04:03.532	$GPGGA,130404,2430.8368,N,08045.4382,W,1,9,1.6,19,M,,M,,*50
06/02/2014	13:04:04.542	$GPGGA,130405,2430.8369,N,08045.4390,W,1,9,1.6,19,M,,M,,*53
06/02/2014	13:04:05.522	$GPGGA,130406,2430.8369,N,08045.4397,W,1,9,1.6,19,M,,M,,*57
06/02/2014	13:04:06.512	$GPGGA,130407,2430.8367,N,08045.4404,W,1,9,1.6,19,M,,M,,*55
06/02/2014	13:04:07.522	$GPGGA,130408,2430.8369,N,08045.4413,W,1,9,1.6,19,M,,M,,*52
06/02/2014	13:04:08.522	$GPGGA,130409,2430.8369,N,08045.4422,W,1,9,1.6,19,M,,M,,*51
06/02/2014	13:04:09.512	$GPGGA,130410,2430.8369,N,08045.4429,W,1,9,1.6,19,M,,M,,*52
06/02/2014	13:04:10.522	$GPGGA,130411,2430.8371,N,08045.4438,W,1,9,1.6,19,M,,M,,*5A
06/02/2014	13:04:11.512	$GPGGA,130412,2430.8372,N,08045.4447,W,1,9,1.6,19,M,,M,,*52
06/02/2014	13:04:12.522	$GPGGA,130413,2430.8373,N,08045.4454,W,1,9,1.6,19,M,,M,,*50
06/02/2014	13:04:13.492	$GPGGA,130414,2430.8373,N,08045.4463,W,1,9,1.6,19,M,,M,,*53
06/02/2014	13:04:14.492	$GPGGA,130415,2430.8376,N,08045.4469,W,1,8,1.8,19,M,,M,,*52
06/02/2014	13:04:15.502	$GPGGA,130416,2430.8379,N,08045.4476,W,1,8,1.6,19,M,,M,,*5E
06/02/2014	13:04:16.502	$GPGGA,130417,2430.8380,N,08045.4485,W,1,9,1.6,19,M,,M,,*54
06/02/2014	13:04:17.492	$GPGGA,130418,2430.8382,N,08045.4495,W,1,9,1.6,19,M,,M,,*58
06/02/2014	13:04:18.521	$GPGGA,130419,2430.8383,N,08045.4505,W,1,9,1.6,19,M,,M,,*50
06/02/2014	13:04:19.501	$GPGGA,130420,2430.8381,N,08045.4512,W,1,9,1.6,19,M,,M,,*5E
06/02/2014	13:04:20.501	$GPGGA,130421,2430.8383,N,08045.4521,W,1,9,1.6,19,M,,M,,*5D
06/02/2014	13:04:21.481	$GPGGA,130422,2430.8386,N,08045.4530,W,1,9,1.6,19,M,,M,,*5B
06/02/2014	13:04:22.491	$GPGGA,130423,2430.8385,N,08045.4538,W,1,9,1.6,19,M,,M,,*51
06/02/2014	13:04:23.491	$GPGGA,130424,2430.8387,N,08045.4548,W,1,9,1.6,19,M,,M,,*53
06/02/2014	13:04:24.491	$GPGGA,130425,2430.8389,N,08045.4556,W,1,9,1.6,19,M,,M,,*53
06/02/2014	13:04:25.471	$GPGGA,130426,2430.8391,N,08045.4566,W,1,9,1.6,19,M,,M,,*5A
06/02/2014	13:04:26.481	$GPGGA,130427,2430.8391,N,08045.4577,W,1,9,1.6,19,M,,M,,*5B
06/02/2014	13:04:27.477	$GPGGA,130428,2430.8393,N,08045.4585,W,1,9,1.8,19,M,,M,,*55
06/02/2014	13:04:28.461	$GPGGA,130429,2430.8394,N,08045.4595,W,1,9,1.6,19,M,,M,,*5C
06/02/2014	13:04:29.461	$GPGGA,130430,2430.8398,N,08045.4603,W,1,9,1.6,19,M,,M,,*54
06/02/2014	13:04:30.481	$GPGGA,130431,2430.8401,N,08045.4610,W,1,8,1.8,19,M,,M,,*5F
06/02/2014	13:04:31.481	$GPGGA,130432,2430.8404,N,08045.4617,W,1,8,1.6,19,M,,M,,*50
06/02/2014	13:04:32.501	$GPGGA,130433,2430.8405,N,08045.4626,W,1,9,1.6,19,M,,M,,*53
06/02/2014	13:04:33.571	$GPGGA,130434,2430.8407,N,08045.4636,W,1,9,1.6,19,M,,M,,*57
06/02/2014	13:04:34.477	$GPGGA,130435,2430.8411,N,08045.4646,W,1,9,1.6,19,M,,M,,*56
06/02/2014	13:04:35.470	$GPGGA,130436,2430.8415,N,08045.4653,W,1,9,1.6,19,M,,M,,*55
06/02/2014	13:04:36.590	$GPGGA,130437,2430.8416,N,08045.4660,W,1,9,1.6,19,M,,M,,*57
06/02/2014	13:04:37.450	$GPGGA,130438,2430.8420,N,08045.4668,W,1,9,1.6,19,M,,M,,*55
06/02/2014	13:04:38.610	$GPGGA,130439,2430.8425,N,08045.4676,W,1,9,1.6,19,M,,M,,*5E
06/02/2014	13:04:39.460	$GPGGA,130440,2430.8427,N,08045.4686,W,1,9,1.6,19,M,,M,,*5D
06/02/2014	13:04:40.440	$GPGGA,130441,2430.8430,N,08045.4696,W,1,9,1.6,19,M,,M,,*5B
06/02/2014	13:04:41.540	$GPGGA,130442,2430.8434,N,08045.4707,W,1,9,1.6,19,M,,M,,*55
06/02/2014	13:04:42.550	$GPGGA,130443,2430.8437,N,08045.4715,W,1,9,1.7,19,M,,M,,*55
06/02/2014	13:04:43.560	$GPGGA,130444,2430.8440,N,08045.4722,W,1,9,1.6,19,M,,M,,*57
06/02/2014	13:04:44.540	$GPGGA,130445,2430.8445,N,08045.4729,W,1,9,1.6,19,M,,M,,*58
06/02/2014	13:04:45.550	$GPGGA,130446,2430.8447,N,08045.4736,W,1,9,1.6,19,M,,M,,*57
06/02/2014	13:04:46.540	$GPGGA,130447,2430.8448,N,08045.4743,W,1,9,1.6,19,M,,M,,*5B
06/02/2014	13:04:47.450	$GPGGA,130448,2430.8452,N,08045.4751,W,1,9,1.6,19,M,,M,,*5C
06/02/2014	13:04:48.430	$GPGGA,130449,2430.8456,N,08045.4761,W,1,9,1.6,19,M,,M,,*5A
06/02/2014	13:04:49.420	$GPGGA,130450,2430.8461,N,08045.4770,W,1,9,1.6,19,M,,M,,*56
06/02/2014	13:04:50.540	$GPGGA,130451,2430.8463,N,08045.4780,W,1,8,1.6,20,M,,M,,*51
06/02/2014	13:04:51.530	$GPGGA,130452,2430.8467,N,08045.4787,W,1,8,1.6,20,M,,M,,*51
06/02/2014	13:04:52.540	$GPGGA,130453,2430.8473,N,08045.4794,W,1,9,1.6,20,M,,M,,*56
06/02/2014	13:04:53.509	$GPGGA,130454,2430.8476,N,08045.4805,W,1,9,1.6,20,M,,M,,*53
06/02/2014	13:04:54.529	$GPGGA,130455,2430.8480,N,08045.4814,W,1,9,1.6,20,M,,M,,*5B
06/02/2014	13:04:55.519	$GPGGA,130456,2430.8484,N,08045.4824,W,1,9,1.6,20,M,,M,,*5F
06/02/2014	13:04:56.539	$GPGGA,130457,2430.8490,N,08045.4834,W,1,9,1.6,20,M,,M,,*5A
06/02/2014	13:04:57.509	$GPGGA,130458,2430.8492,N,08045.4841,W,1,9,1.6,20,M,,M,,*55
06/02/2014	13:04:58.519	$GPGGA,130459,2430.8495,N,08045.4852,W,1,9,1.6,20,M,,M,,*51
06/02/2014	13:04:59.519	$GPGGA,130500,2430.8501,N,08045.4861,W,1,9,1.6,20,M,,M,,*50
06/02/2014	13:05:00.519	$GPGGA,130501,2430.8506,N,08045.4871,W,1,9,1.6,20,M,,M,,*57
06/02/2014	13:05:01.499	$GPGGA,130502,2430.8510,N,08045.4881,W,1,9,1.6,20,M,,M,,*5C
06/02/2014	13:05:02.520	$GPGGA,130503,2430.8513,N,08045.4892,W,1,9,1.6,20,M,,M,,*5C
06/02/2014	13:05:03.509	$GPGGA,130504,2430.8517,N,08045.4900,W,1,9,1.6,21,M,,M,,*54
06/02/2014	13:05:04.519	$GPGGA,130505,2430.8523,N,08045.4910,W,1,9,1.6,21,M,,M,,*53
06/02/2014	13:05:05.499	$GPGGA,130506,2430.8527,N,08045.4921,W,1,9,1.6,21,M,,M,,*56
06/02/2014	13:05:06.519	$GPGGA,130507,2430.8531,N,08045.4931,W,1,9,1.6,21,M,,M,,*51
06/02/2014	13:05:07.499	$GPGGA,130508,2430.8537,N,08045.4942,W,1,9,1.6,21,M,,M,,*5C
06/02/2014	13:05:08.489	$GPGGA,130509,2430.8541,N,08045.4953,W,1,9,1.6,21,M,,M,,*5C
06/02/2014	13:05:09.479	$GPGGA,130510,2430.8546,N,08045.4962,W,1,9,1.6,21,M,,M,,*51
06/02/2014	13:05:10.498	$GPGGA,130511,2430.8550,N,08045.4973,W,1,9,1.6,21,M,,M,,*57
06/02/2014	13:05:11.498	$GPGGA,130512,2430.8556,N,08045.4985,W,1,9,1.7,21,M,,M,,*5A
06/02/2014	13:05:12.518	$GPGGA,130513,2430.8559,N,08045.4994,W,1,8,1.6,21,M,,M,,*54
06/02/2014	13:05:13.468	$GPGGA,130514,2430.8564,N,08045.5007,W,1,8,1.6,21,M,,M,,*5F
06/02/2014	13:05:14.488	$GPGGA,130515,2430.8570,N,08045.5018,W,1,9,1.6,21,M,,M,,*54
06/02/2014	13:05:15.488	$GPGGA,130516,2430.8574,N,08045.5029,W,1,9,1.6,21,M,,M,,*51
06/02/2014	13:05:16.468	$GPGGA,130517,2430.8577,N,08045.5040,W,1,9,1.6,21,M,,M,,*5C
06/02/2014	13:05:17.488	$GPGGA,130518,2430.8582,N,08045.5052,W,1,9,1.7,21,M,,M,,*5B
06/02/2014	13:05:18.488	$GPGGA,130519,2430.8586,N,08045.5063,W,1,8,1.6,21,M,,M,,*5C
06/02/2014	13:05:19.488	$GPGGA,130520,2430.8589,N,08045.5074,W,1,8,1.6,21,M,,M,,*5F
06/02/2014	13:05:20.478	$GPGGA,130521,2430.8593,N,08045.5087,W,1,9,1.6,21,M,,M,,*58
06/02/2014	13:05:21.448	$GPGGA,130522,2430.8597,N,08045.5097,W,1,9,1.6,21,M,,M,,*5E
06/02/2014	13:05:22.448	$GPGGA,130523,2430.8603,N,08045.5106,W,1,9,1.6,21,M,,M,,*58
06/02/2014	13:05:23.598	$GPGGA,130524,2430.8607,N,08045.5117,W,1,9,1.6,21,M,,M,,*5B
06/02/2014	13:05:24.448	$GPGGA,130525,2430.8611,N,08045.5127,W,1,9,1.6,21,M,,M,,*5E
06/02/2014	13:05:25.438	$GPGGA,130526,2430.8615,N,08045.5141,W,1,9,1.6,21,M,,M,,*59
06/02/2014	13:05:26.568	$GPGGA,130527,2430.8618,N,08045.5152,W,1,9,1.6,21,M,,M,,*57
06/02/2014	13:05:27.468	$GPGGA,130528,2430.8621,N,08045.5164,W,1,9,1.6,21,M,,M,,*57
06/02/2014	13:05:28.447	$GPGGA,130529,2430.8625,N,08045.5177,W,1,9,1.6,21,M,,M,,*50
06/02/2014	13:05:29.547	$GPGGA,130530,2430.8629,N,08045.5188,W,1,9,1.6,21,M,,M,,*54
06/02/2014	13:05:30.547	$GPGGA,130531,2430.8635,N,08045.5197,W,1,9,1.6,21,M,,M,,*56
06/02/2014	13:05:31.547	$GPGGA,130532,2430.8638,N,08045.5207,W,1,9,1.6,21,M,,M,,*52
06/02/2014	13:05:32.567	$GPGGA,130533,2430.8640,N,08045.5218,W,1,9,1.6,21,M,,M,,*52
06/02/2014	13:05:33.437	$GPGGA,130534,2430.8643,N,08045.5228,W,1,9,1.6,21,M,,M,,*55
06/02/2014	13:05:34.437	$GPGGA,130535,2430.8649,N,08045.5240,W,1,9,1.6,21,M,,M,,*50
06/02/2014	13:05:35.547	$GPGGA,130536,2430.8653,N,08045.5253,W,1,9,1.6,21,M,,M,,*5A
06/02/2014	13:05:36.517	$GPGGA,130537,2430.8656,N,08045.5262,W,1,9,1.6,21,M,,M,,*5C
06/02/2014	13:05:37.517	$GPGGA,130538,2430.8660,N,08045.5274,W,1,9,1.6,21,M,,M,,*51
06/02/2014	13:05:38.517	$GPGGA,130539,2430.8665,N,08045.5283,W,1,9,1.6,20,M,,M,,*5C
06/02/2014	13:05:39.527	$GPGGA,130540,2430.8669,N,08045.5293,W,1,9,1.6,20,M,,M,,*5F
06/02/2014	13:05:40.517	$GPGGA,130541,2430.8674,N,08045.5304,W,1,9,1.6,20,M,,M,,*5D
06/02/2014	13:05:41.517	$GPGGA,130542,2430.8679,N,08045.5315,W,1,9,1.6,20,M,,M,,*53
06/02/2014	13:05:42.508	$GPGGA,130543,2430.8685,N,08045.5326,W,1,9,1.6,20,M,,M,,*51
06/02/2014	13:05:43.517	$GPGGA,130544,2430.8690,N,08045.5336,W,1,9,1.6,20,M,,M,,*53
06/02/2014	13:05:44.517	$GPGGA,130545,2430.8694,N,08045.5347,W,1,9,1.6,20,M,,M,,*50
06/02/2014	13:05:45.496	$GPGGA,130546,2430.8701,N,08045.5357,W,1,9,1.6,20,M,,M,,*5F
06/02/2014	13:05:46.516	$GPGGA,130547,2430.8708,N,08045.5368,W,1,8,1.8,20,M,,M,,*54
06/02/2014	13:05:47.516	$GPGGA,130548,2430.8716,N,08045.5376,W,1,8,1.8,20,M,,M,,*5B
06/02/2014	13:05:48.516	$GPGGA,130549,2430.8719,N,08045.5387,W,1,8,1.8,20,M,,M,,*5B
06/02/2014	13:05:49.486	$GPGGA,130550,2430.8723,N,08045.5398,W,1,8,1.8,20,M,,M,,*54
06/02/2014	13:05:50.506	$GPGGA,130551,2430.8733,N,08045.5409,W,1,8,1.8,20,M,,M,,*5B
06/02/2014	13:05:51.506	$GPGGA,130552,2430.8741,N,08045.5420,W,1,8,1.8,20,M,,M,,*56
06/02/2014	13:05:52.496	$GPGGA,130553,2430.8747,N,08045.5431,W,1,8,1.8,20,M,,M,,*51
06/02/2014	13:05:53.476	$GPGGA,130554,2430.8752,N,08045.5441,W,1,8,1.8,20,M,,M,,*55
06/02/2014	13:05:54.506	$GPGGA,130555,2430.8761,N,08045.5451,W,1,8,1.8,20,M,,M,,*55
06/02/2014	13:05:55.486	$GPGGA,130556,2430.8770,N,08045.5459,W,1,8,1.8,20,M,,M,,*5E
06/02/2014	13:05:56.516	$GPGGA,130557,2430.8774,N,08045.5470,W,1,8,1.8,20,M,,M,,*50
06/02/2014	13:05:57.467	$GPGGA,130558,2430.8783,N,08045.5481,W,1,8,1.8,20,M,,M,,*59
06/02/2014	13:05:58.466	$GPGGA,130559,2430.8792,N,08045.5492,W,1,8,1.8,19,M,,M,,*50
06/02/2014	13:05:59.496	$GPGGA,130600,2430.8799,N,08045.5503,W,1,8,1.8,19,M,,M,,*5D
06/02/2014	13:06:00.497	$GPGGA,130601,2430.8806,N,08045.5514,W,1,8,1.8,19,M,,M,,*53
06/02/2014	13:06:01.456	$GPGGA,130602,2430.8816,N,08045.5524,W,1,8,1.8,19,M,,M,,*52
06/02/2014	13:06:02.487	$GPGGA,130603,2430.8824,N,08045.5535,W,1,8,1.8,19,M,,M,,*52
06/02/2014	13:06:03.475	$GPGGA,130604,2430.8831,N,08045.5545,W,1,8,1.8,19,M,,M,,*56
06/02/2014	13:06:04.456	$GPGGA,130605,2430.8839,N,08045.5556,W,1,8,1.8,19,M,,M,,*5D
06/02/2014	13:06:05.465	$GPGGA,130606,2430.8852,N,08045.5564,W,1,8,1.8,19,M,,M,,*52
06/02/2014	13:06:06.465	$GPGGA,130607,2430.8860,N,08045.5574,W,1,9,1.6,19,M,,M,,*5C
06/02/2014	13:06:07.455	$GPGGA,130608,2430.8867,N,08045.5585,W,1,9,1.6,19,M,,M,,*5A
06/02/2014	13:06:08.455	$GPGGA,130609,2430.8877,N,08045.5596,W,1,9,1.6,19,M,,M,,*58
06/02/2014	13:06:09.455	$GPGGA,130610,2430.8886,N,08045.5607,W,1,9,1.6,19,M,,M,,*55
06/02/2014	13:06:10.455	$GPGGA,130611,2430.8893,N,08045.5618,W,1,9,1.6,19,M,,M,,*5E
06/02/2014	13:06:11.575	$GPGGA,130612,2430.8900,N,08045.5628,W,1,9,1.6,19,M,,M,,*55
06/02/2014	13:06:12.465	$GPGGA,130613,2430.8911,N,08045.5639,W,1,9,1.6,19,M,,M,,*54
06/02/2014	13:06:13.445	$GPGGA,130614,2430.8922,N,08045.5647,W,1,9,1.8,19,M,,M,,*54
06/02/2014	13:06:14.535	$GPGGA,130615,2430.8929,N,08045.5659,W,1,9,1.6,19,M,,M,,*5F
06/02/2014	13:06:15.455	$GPGGA,130616,2430.8936,N,08045.5669,W,1,9,1.6,19,M,,M,,*51
06/02/2014	13:06:16.445	$GPGGA,130617,2430.8949,N,08045.5680,W,1,9,1.6,19,M,,M,,*5F
06/02/2014	13:06:17.525	$GPGGA,130618,2430.8958,N,08045.5690,W,1,9,1.6,19,M,,M,,*51
06/02/2014	13:06:18.525	$GPGGA,130619,2430.8965,N,08045.5701,W,1,9,1.6,19,M,,M,,*57
06/02/2014	13:06:19.445	$GPGGA,130620,2430.8976,N,08045.5712,W,1,9,1.6,19,M,,M,,*5D
06/02/2014	13:06:20.424	$GPGGA,130621,2430.8987,N,08045.5722,W,1,9,1.6,19,M,,M,,*51
06/02/2014	13:06:21.514	$GPGGA,130622,2430.8994,N,08045.5730,W,1,9,1.6,19,M,,M,,*53
06/02/2014	13:06:22.544	$GPGGA,130623,2430.9003,N,08045.5741,W,1,9,1.6,19,M,,M,,*52
06/02/2014	13:06:23.534	$GPGGA,130624,2430.9012,N,08045.5751,W,1,9,1.6,19,M,,M,,*54
06/02/2014	13:06:24.524	$GPGGA,130625,2430.9022,N,08045.5762,W,1,9,1.6,19,M,,M,,*56
06/02/2014	13:06:25.514	$GPGGA,130626,2430.9030,N,08045.5774,W,1,9,1.6,19,M,,M,,*51
06/02/2014	13:06:26.534	$GPGGA,130627,2430.9041,N,08045.5787,W,1,9,1.6,19,M,,M,,*5A
06/02/2014	13:06:27.514	$GPGGA,130628,2430.9050,N,08045.5796,W,1,9,1.6,19,M,,M,,*55
06/02/2014	13:06:28.504	$GPGGA,130629,2430.9058,N,08045.5806,W,1,9,1.6,19,M,,M,,*5A
06/02/2014	13:06:29.503	$GPGGA,130630,2430.9066,N,08045.5816,W,1,9,1.6,19,M,,M,,*5E
06/02/2014	13:06:30.523	$GPGGA,130631,2430.9077,N,08045.5824,W,1,9,1.6,20,M,,M,,*54
06/02/2014	13:06:31.512	$GPGGA,130632,2430.9087,N,08045.5835,W,1,9,1.6,20,M,,M,,*58
06/02/2014	13:06:32.512	$GPGGA,130633,2430.9095,N,08045.5849,W,1,9,1.6,20,M,,M,,*51
06/02/2014	13:06:33.491	$GPGGA,130634,2430.9104,N,08045.5860,W,1,9,1.6,20,M,,M,,*54
06/02/2014	13:06:34.522	$GPGGA,130635,2430.9113,N,08045.5871,W,1,9,1.6,20,M,,M,,*53
06/02/2014	13:06:35.490	$GPGGA,130636,2430.9124,N,08045.5878,W,1,9,1.6,20,M,,M,,*5D
06/02/2014	13:06:36.480	$GPGGA,130637,2430.9134,N,08045.5887,W,1,9,1.6,20,M,,M,,*5D
06/02/2014	13:06:37.489	$GPGGA,130638,2430.9142,N,08045.5896,W,1,9,1.6,20,M,,M,,*53
06/02/2014	13:06:38.498	$GPGGA,130639,2430.9152,N,08045.5907,W,1,9,1.6,20,M,,M,,*5A
06/02/2014	13:06:39.487	$GPGGA,130640,2430.9162,N,08045.5917,W,1,9,1.6,20,M,,M,,*56
06/02/2014	13:06:40.467	$GPGGA,130641,2430.9173,N,08045.5926,W,1,9,1.6,20,M,,M,,*55
06/02/2014	13:06:41.486	$GPGGA,130642,2430.9184,N,08045.5939,W,1,9,1.6,20,M,,M,,*50
06/02/2014	13:06:42.486	$GPGGA,130643,2430.9195,N,08045.5948,W,1,8,1.8,20,M,,M,,*58
06/02/2014	13:06:43.485	$GPGGA,130644,2430.9206,N,08045.5955,W,1,8,1.8,20,M,,M,,*5A
06/02/2014	13:06:44.475	$GPGGA,130645,2430.9214,N,08045.5965,W,1,9,1.6,20,M,,M,,*54
06/02/2014	13:06:45.474	$GPGGA,130646,2430.9225,N,08045.5973,W,1,9,1.6,20,M,,M,,*52
06/02/2014	13:06:46.462	$GPGGA,130647,2430.9236,N,08045.5982,W,1,8,1.8,20,M,,M,,*50
06/02/2014	13:06:47.483	$GPGGA,130648,2430.9249,N,08045.5990,W,1,8,1.8,20,M,,M,,*54
06/02/2014	13:06:48.453	$GPGGA,130649,2430.9260,N,08045.6001,W,1,9,1.6,20,M,,M,,*53
06/02/2014	13:06:49.462	$GPGGA,130650,2430.9272,N,08045.6012,W,1,9,2.2,20,M,,M,,*5D
06/02/2014	13:06:50.462	$GPGGA,130651,2430.9287,N,08045.6017,W,1,7,2.2,20,M,,M,,*5D
06/02/2014	13:06:51.453	$GPGGA,130652,2430.9301,N,08045.6023,W,1,7,1.6,20,M,,M,,*51
06/02/2014	13:06:52.441	$GPGGA,130653,2430.9312,N,08045.6030,W,1,8,1.6,20,M,,M,,*5F
06/02/2014	13:06:53.430	$GPGGA,130654,2430.9326,N,08045.6033,W,1,8,1.6,20,M,,M,,*5C
06/02/2014	13:06:54.430	$GPGGA,130655,2430.9343,N,08045.6040,W,1,9,1.6,20,M,,M,,*5B
06/02/2014	13:06:55.448	$GPGGA,130656,2430.9355,N,08045.6049,W,1,9,1.6,20,M,,M,,*56
06/02/2014	13:06:56.528	$GPGGA,130657,2430.9369,N,08045.6059,W,1,8,1.8,20,M,,M,,*56
06/02/2014	13:06:57.427	$GPGGA,130658,2430.9384,N,08045.6069,W,1,8,1.8,20,M,,M,,*59
06/02/2014	13:06:58.437	$GPGGA,130659,2430.9399,N,08045.6077,W,1,7,2.2,20,M,,M,,*5D
06/02/2014	13:06:59.446	$GPGGA,130700,2430.9415,N,08045.6084,W,1,7,2.2,20,M,,M,,*5F
06/02/2014	13:07:00.416	$GPGGA,130701,2430.9427,N,08045.6091,W,1,8,1.6,20,M,,M,,*53
06/02/2014	13:07:01.515	$GPGGA,130702,2430.9441,N,08045.6098,W,1,8,1.6,20,M,,M,,*59
06/02/2014	13:07:02.545	$GPGGA,130703,2430.9458,N,08045.6105,W,1,9,1.6,20,M,,M,,*54
06/02/2014	13:07:03.434	$GPGGA,130704,2430.9473,N,08045.6114,W,1,9,1.6,20,M,,M,,*5A
06/02/2014	13:07:04.414	$GPGGA,130705,2430.9485,N,08045.6124,W,1,9,1.6,20,M,,M,,*51
06/02/2014	13:07:05.403	$GPGGA,130706,2430.9502,N,08045.6132,W,1,9,1.6,20,M,,M,,*5B
06/02/2014	13:07:06.513	$GPGGA,130707,2430.9518,N,08045.6138,W,1,8,1.6,20,M,,M,,*5A
06/02/2014	13:07:07.412	$GPGGA,130708,2430.9531,N,08045.6145,W,1,8,1.6,20,M,,M,,*54
06/02/2014	13:07:08.492	$GPGGA,130709,2430.9546,N,08045.6152,W,1,9,1.6,20,M,,M,,*52
06/02/2014	13:07:09.491	$GPGGA,130710,2430.9561,N,08045.6160,W,1,9,1.6,20,M,,M,,*5E
06/02/2014	13:07:10.521	$GPGGA,130711,2430.9576,N,08045.6167,W,1,9,1.6,20,M,,M,,*5E
06/02/2014	13:07:11.510	$GPGGA,130712,2430.9590,N,08045.6176,W,1,9,1.6,20,M,,M,,*55
06/02/2014	13:07:12.520	$GPGGA,130713,2430.9607,N,08045.6186,W,1,9,1.6,20,M,,M,,*56
06/02/2014	13:07:13.478	$GPGGA,130714,2430.9622,N,08045.6196,W,1,9,1.8,20,M,,M,,*59
06/02/2014	13:07:14.488	$GPGGA,130715,2430.9637,N,08045.6206,W,1,8,1.8,20,M,,M,,*57
06/02/2014	13:07:15.507	$GPGGA,130716,2430.9652,N,08045.6211,W,1,8,1.6,20,M,,M,,*5F
06/02/2014	13:07:16.517	$GPGGA,130717,2430.9666,N,08045.6219,W,1,9,1.6,20,M,,M,,*50
06/02/2014	13:07:17.486	$GPGGA,130718,2430.9682,N,08045.6226,W,1,9,2.1,20,M,,M,,*5D
06/02/2014	13:07:18.466	$GPGGA,130719,2430.9695,N,08045.6236,W,1,9,1.6,20,M,,M,,*5F
06/02/2014	13:07:19.475	$GPGGA,130720,2430.9713,N,08045.6243,W,1,9,1.6,20,M,,M,,*58
06/02/2014	13:07:20.485	$GPGGA,130721,2430.9730,N,08045.6250,W,1,9,1.6,20,M,,M,,*5A
06/02/2014	13:07:21.474	$GPGGA,130722,2430.9747,N,08045.6257,W,1,9,1.6,20,M,,M,,*5E
06/02/2014	13:07:22.484	$GPGGA,130723,2430.9762,N,08045.6264,W,1,9,1.6,20,M,,M,,*58
06/02/2014	13:07:23.473	$GPGGA,130724,2430.9777,N,08045.6270,W,1,9,1.6,20,M,,M,,*5E
06/02/2014	13:07:24.483	$GPGGA,130725,2430.9792,N,08045.6277,W,1,9,1.6,20,M,,M,,*53
06/02/2014	13:07:25.462	$GPGGA,130726,2430.9809,N,08045.6283,W,1,9,1.6,20,M,,M,,*56
06/02/2014	13:07:26.482	$GPGGA,130727,2430.9823,N,08045.6291,W,1,9,1.6,20,M,,M,,*5C
06/02/2014	13:07:27.461	$GPGGA,130728,2430.9839,N,08045.6298,W,1,9,1.6,20,M,,M,,*51
06/02/2014	13:07:28.471	$GPGGA,130729,2430.9854,N,08045.6308,W,1,9,1.6,20,M,,M,,*53
06/02/2014	13:07:29.471	$GPGGA,130730,2430.9872,N,08045.6315,W,1,9,2.1,21,M,,M,,*56
06/02/2014	13:07:30.509	$GPGGA,130731,2430.9886,N,08045.6323,W,1,9,1.6,21,M,,M,,*5D
06/02/2014	13:07:31.518	$GPGGA,130732,2430.9904,N,08045.6329,W,1,9,2.1,21,M,,M,,*5B
06/02/2014	13:07:32.508	$GPGGA,130733,2430.9919,N,08045.6337,W,1,8,1.6,21,M,,M,,*5C
06/02/2014	13:07:33.468	$GPGGA,130734,2430.9935,N,08045.6345,W,1,8,1.8,21,M,,M,,*5E
06/02/2014	13:07:34.467	$GPGGA,130735,2430.9950,N,08045.6351,W,1,9,1.6,21,M,,M,,*56
06/02/2014	13:07:35.486	$GPGGA,130736,2430.9966,N,08045.6356,W,1,9,1.8,21,M,,M,,*59
06/02/2014	13:07:36.516	$GPGGA,130737,2430.9982,N,08045.6363,W,1,8,1.8,21,M,,M,,*55
06/02/2014	13:07:37.455	$GPGGA,130738,2430.9998,N,08045.6369,W,1,8,1.8,21,M,,M,,*5B
06/02/2014	13:07:38.455	$GPGGA,130739,2431.0016,N,08045.6376,W,1,8,1.8,21,M,,M,,*53
06/02/2014	13:07:39.474	$GPGGA,130740,2431.0031,N,08045.6381,W,1,8,1.6,21,M,,M,,*5E
06/02/2014	13:07:40.444	$GPGGA,130741,2431.0049,N,08045.6387,W,1,8,1.8,21,M,,M,,*58
06/02/2014	13:07:41.453	$GPGGA,130742,2431.0063,N,08045.6395,W,1,8,1.6,21,M,,M,,*5E
06/02/2014	13:07:42.453	$GPGGA,130743,2431.0077,N,08045.6402,W,1,7,2.1,21,M,,M,,*58
06/02/2014	13:07:43.463	$GPGGA,130744,2431.0095,N,08045.6406,W,1,7,1.8,21,M,,M,,*5D
06/02/2014	13:07:44.453	$GPGGA,130745,2431.0113,N,08045.6412,W,1,9,1.6,21,M,,M,,*56
06/02/2014	13:07:45.541	$GPGGA,130746,2431.0128,N,08045.6418,W,1,9,1.6,21,M,,M,,*57
06/02/2014	13:07:46.441	$GPGGA,130747,2431.0145,N,08045.6424,W,1,9,1.6,21,M,,M,,*52
06/02/2014	13:07:47.610	$GPGGA,130748,2431.0161,N,08045.6430,W,1,9,1.6,21,M,,M,,*5E
06/02/2014	13:07:48.579	$GPGGA,130749,2431.0175,N,08045.6435,W,1,8,1.6,21,M,,M,,*5E
06/02/2014	13:07:49.428	$GPGGA,130750,2431.0193,N,08045.6441,W,1,8,1.6,21,M,,M,,*5D
06/02/2014	13:07:50.429	$GPGGA,130751,2431.0211,N,08045.6445,W,1,8,1.6,21,M,,M,,*51
06/02/2014	13:07:51.437	$GPGGA,130752,2431.0226,N,08045.6452,W,1,8,1.6,21,M,,M,,*50
06/02/2014	13:07:52.427	$GPGGA,130753,2431.0240,N,08045.6457,W,1,8,1.6,21,M,,M,,*54
06/02/2014	13:07:53.516	$GPGGA,130754,2431.0260,N,08045.6463,W,1,8,1.6,21,M,,M,,*56
06/02/2014	13:07:54.516	$GPGGA,130755,2431.0276,N,08045.6468,W,1,9,1.6,21,M,,M,,*5A
06/02/2014	13:07:55.525	$GPGGA,130756,2431.0291,N,08045.6475,W,1,9,1.6,21,M,,M,,*5C
06/02/2014	13:07:56.415	$GPGGA,130757,2431.0309,N,08045.6481,W,1,8,1.6,21,M,,M,,*57
06/02/2014	13:07:57.584	$GPGGA,130758,2431.0327,N,08045.6485,W,1,8,1.6,21,M,,M,,*50
06/02/2014	13:07:58.554	$GPGGA,130759,2431.0341,N,08045.6488,W,1,8,1.6,21,M,,M,,*5C
06/02/2014	13:07:59.593	$GPGGA,130800,2431.0358,N,08045.6493,W,1,8,1.6,21,M,,M,,*5D
06/02/2014	13:08:00.533	$GPGGA,130801,2431.0376,N,08045.6499,W,1,9,1.6,21,M,,M,,*5B
06/02/2014	13:08:01.602	$GPGGA,130802,2431.0395,N,08045.6503,W,1,9,1.6,21,M,,M,,*57
06/02/2014	13:08:02.532	$GPGGA,130803,2431.0413,N,08045.6508,W,1,8,1.6,21,M,,M,,*55
06/02/2014	13:08:03.571	$GPGGA,130804,2431.0428,N,08045.6514,W,1,8,1.6,21,M,,M,,*57
06/02/2014	13:08:04.532	$GPGGA,130805,2431.0446,N,08045.6517,W,1,9,1.6,21,M,,M,,*5C
06/02/2014	13:08:05.549	$GPGGA,130806,2431.0461,N,08045.6521,W,1,9,1.6,21,M,,M,,*5F
06/02/2014	13:08:06.609	$GPGGA,130807,2431.0479,N,08045.6524,W,1,8,1.6,21,M,,M,,*53
06/02/2014	13:08:07.568	$GPGGA,130808,2431.0497,N,08045.6526,W,1,8,1.6,21,M,,M,,*5E
06/02/2014	13:08:08.529	$GPGGA,130809,2431.0515,N,08045.6532,W,1,9,1.6,21,M,,M,,*50
06/02/2014	13:08:09.547	$GPGGA,130810,2431.0533,N,08045.6536,W,1,9,1.6,21,M,,M,,*58
06/02/2014	13:08:10.517	$GPGGA,130811,2431.0551,N,08045.6539,W,1,9,1.6,21,M,,M,,*52
06/02/2014	13:08:11.546	$GPGGA,130812,2431.0569,N,08045.6540,W,1,9,1.6,21,M,,M,,*54
06/02/2014	13:08:12.466	$GPGGA,130813,2431.0586,N,08045.6546,W,1,9,1.6,21,M,,M,,*52
06/02/2014	13:08:13.535	$GPGGA,130814,2431.0604,N,08045.6550,W,1,9,1.6,21,M,,M,,*5B
06/02/2014	13:08:14.515	$GPGGA,130815,2431.0625,N,08045.6550,W,1,9,1.6,21,M,,M,,*59
06/02/2014	13:08:15.524	$GPGGA,130816,2431.0644,N,08045.6553,W,1,9,1.6,21,M,,M,,*5E
06/02/2014	13:08:16.504	$GPGGA,130817,2431.0661,N,08045.6559,W,1,9,1.6,21,M,,M,,*52
06/02/2014	13:08:17.453	$GPGGA,130818,2431.0678,N,08045.6562,W,1,9,1.6,21,M,,M,,*5D
06/02/2014	13:08:18.483	$GPGGA,130819,2431.0699,N,08045.6561,W,1,9,1.6,21,M,,M,,*50
06/02/2014	13:08:19.532	$GPGGA,130820,2431.0717,N,08045.6565,W,1,9,1.6,21,M,,M,,*59
06/02/2014	13:08:20.443	$GPGGA,130821,2431.0734,N,08045.6569,W,1,9,1.6,21,M,,M,,*55
06/02/2014	13:08:21.446	$GPGGA,130822,2431.0753,N,08045.6572,W,1,9,1.6,21,M,,M,,*5D
06/02/2014	13:08:22.501	$GPGGA,130823,2431.0774,N,08045.6572,W,1,9,1.6,21,M,,M,,*59
06/02/2014	13:08:23.509	$GPGGA,130824,2431.0790,N,08045.6576,W,1,9,1.6,21,M,,M,,*50
06/02/2014	13:08:24.489	$GPGGA,130825,2431.0810,N,08045.6580,W,1,9,1.6,21,M,,M,,*5F
06/02/2014	13:08:25.488	$GPGGA,130826,2431.0829,N,08045.6582,W,1,9,1.6,21,M,,M,,*54
06/02/2014	13:08:26.458	$GPGGA,130827,2431.0847,N,08045.6584,W,1,8,1.6,21,M,,M,,*5A
06/02/2014	13:08:27.547	$GPGGA,130828,2431.0865,N,08045.6587,W,1,8,1.6,21,M,,M,,*56
06/02/2014	13:08:28.457	$GPGGA,130829,2431.0883,N,08045.6589,W,1,9,1.6,21,M,,M,,*50
06/02/2014	13:08:29.507	$GPGGA,130830,2431.0902,N,08045.6590,W,1,9,1.6,21,M,,M,,*58
06/02/2014	13:08:30.577	$GPGGA,130831,2431.0920,N,08045.6593,W,1,9,1.6,21,M,,M,,*5A
06/02/2014	13:08:31.526	$GPGGA,130832,2431.0938,N,08045.6595,W,1,9,1.6,21,M,,M,,*56
06/02/2014	13:08:32.436	$GPGGA,130833,2431.0958,N,08045.6600,W,1,9,1.6,21,M,,M,,*5E
06/02/2014	13:08:33.495	$GPGGA,130834,2431.0977,N,08045.6600,W,1,9,1.6,21,M,,M,,*54
06/02/2014	13:08:34.435	$GPGGA,130835,2431.0995,N,08045.6604,W,1,8,1.6,21,M,,M,,*5C
06/02/2014	13:08:35.514	$GPGGA,130836,2431.1013,N,08045.6603,W,1,8,1.6,21,M,,M,,*5E
06/02/2014	13:08:36.464	$GPGGA,130837,2431.1030,N,08045.6607,W,1,9,1.6,21,M,,M,,*5B
06/02/2014	13:08:37.493	$GPGGA,130838,2431.1050,N,08045.6608,W,1,9,1.6,21,M,,M,,*5D
06/02/2014	13:08:38.533	$GPGGA,130839,2431.1071,N,08045.6611,W,1,9,1.6,21,M,,M,,*57
06/02/2014	13:08:39.542	$GPGGA,130840,2431.1089,N,08045.6612,W,1,9,1.6,21,M,,M,,*5D
06/02/2014	13:08:40.451	$GPGGA,130841,2431.1109,N,08045.6615,W,1,9,1.6,21,M,,M,,*52
06/02/2014	13:08:41.530	$GPGGA,130842,2431.1128,N,08045.6615,W,1,9,1.6,21,M,,M,,*52
06/02/2014	13:08:42.540	$GPGGA,130843,2431.1147,N,08045.6615,W,1,9,1.6,21,M,,M,,*5A
06/02/2014	13:08:43.539	$GPGGA,130844,2431.1165,N,08045.6616,W,1,9,1.6,21,M,,M,,*5E
06/02/2014	13:08:44.539	$GPGGA,130845,2431.1185,N,08045.6618,W,1,9,1.6,21,M,,M,,*5F
06/02/2014	13:08:45.508	$GPGGA,130846,2431.1205,N,08045.6617,W,1,9,1.6,21,M,,M,,*58
06/02/2014	13:08:46.528	$GPGGA,130847,2431.1226,N,08045.6618,W,1,9,1.6,21,M,,M,,*57
06/02/2014	13:08:47.517	$GPGGA,130848,2431.1241,N,08045.6619,W,1,9,1.6,21,M,,M,,*58
06/02/2014	13:08:48.517	$GPGGA,130849,2431.1262,N,08045.6620,W,1,9,1.6,21,M,,M,,*52
06/02/2014	13:08:49.496	$GPGGA,130850,2431.1283,N,08045.6619,W,1,9,1.6,21,M,,M,,*5F
06/02/2014	13:08:50.506	$GPGGA,130851,2431.1302,N,08045.6618,W,1,8,1.6,21,M,,M,,*56
06/02/2014	13:08:51.525	$GPGGA,130852,2431.1320,N,08045.6622,W,1,8,1.6,21,M,,M,,*5C
06/02/2014	13:08:52.515	$GPGGA,130853,2431.1339,N,08045.6622,W,1,8,1.6,21,M,,M,,*55
06/02/2014	13:08:53.484	$GPGGA,130854,2431.1360,N,08045.6620,W,1,8,1.6,21,M,,M,,*5C
06/02/2014	13:08:54.504	$GPGGA,130855,2431.1378,N,08045.6619,W,1,9,1.6,21,M,,M,,*5F
06/02/2014	13:08:55.493	$GPGGA,130856,2431.1398,N,08045.6620,W,1,9,1.6,21,M,,M,,*58
06/02/2014	13:08:56.503	$GPGGA,130857,2431.1417,N,08045.6622,W,1,9,1.6,21,M,,M,,*5B
06/02/2014	13:08:57.482	$GPGGA,130858,2431.1436,N,08045.6620,W,1,9,1.6,21,M,,M,,*55
06/02/2014	13:08:58.501	$GPGGA,130859,2431.1456,N,08045.6618,W,1,9,1.6,21,M,,M,,*59
06/02/2014	13:08:59.520	$GPGGA,130900,2431.1474,N,08045.6617,W,1,9,1.6,21,M,,M,,*5B
06/02/2014	13:09:00.520	$GPGGA,130901,2431.1492,N,08045.6618,W,1,9,1.6,21,M,,M,,*5D
06/02/2014	13:09:01.479	$GPGGA,130902,2431.1512,N,08045.6615,W,1,9,1.6,21,M,,M,,*5A
06/02/2014	13:09:02.499	$GPGGA,130903,2431.1532,N,08045.6614,W,1,9,1.6,21,M,,M,,*58
06/02/2014	13:09:03.478	$GPGGA,130904,2431.1532,N,08045.6614,W,1,9,1.6,21,M,,M,,*5F
06/02/2014	13:09:04.478	$GPGGA,130905,2431.1569,N,08045.6615,W,1,9,1.6,21,M,,M,,*51
06/02/2014	13:09:05.467	$GPGGA,130906,2431.1569,N,08045.6615,W,1,9,1.6,21,M,,M,,*52
06/02/2014	13:09:06.487	$GPGGA,130907,2431.1609,N,08045.6612,W,1,9,1.6,21,M,,M,,*51
06/02/2014	13:09:07.466	$GPGGA,130908,2431.1609,N,08045.6612,W,1,9,1.6,21,M,,M,,*5E
06/02/2014	13:09:08.456	$GPGGA,130909,2431.1646,N,08045.6611,W,1,9,1.6,20,M,,M,,*56
06/02/2014	13:09:09.465	$GPGGA,130910,2431.1667,N,08045.6611,W,1,9,1.7,20,M,,M,,*5C
06/02/2014	13:09:10.485	$GPGGA,130911,2431.1688,N,08045.6611,W,1,7,1.6,20,M,,M,,*53
06/02/2014	13:09:11.504	$GPGGA,130912,2431.1707,N,08045.6611,W,1,7,1.6,20,M,,M,,*56
06/02/2014	13:09:12.454	$GPGGA,130913,2431.1725,N,08045.6612,W,1,8,1.6,20,M,,M,,*5B
06/02/2014	13:09:13.473	$GPGGA,130914,2431.1745,N,08045.6612,W,1,8,1.6,20,M,,M,,*5A
06/02/2014	13:09:14.553	$GPGGA,130915,2431.1764,N,08045.6610,W,1,9,1.6,20,M,,M,,*5B
06/02/2014	13:09:15.451	$GPGGA,130916,2431.1764,N,08045.6610,W,1,9,1.6,20,M,,M,,*58
06/02/2014	13:09:16.561	$GPGGA,130917,2431.1801,N,08045.6612,W,1,8,1.6,20,M,,M,,*56
06/02/2014	13:09:17.430	$GPGGA,130918,2431.1801,N,08045.6612,W,1,8,1.6,20,M,,M,,*59
06/02/2014	13:09:18.441	$GPGGA,130919,2431.1841,N,08045.6614,W,1,9,1.6,20,M,,M,,*5B
06/02/2014	13:09:19.429	$GPGGA,130920,2431.1841,N,08045.6614,W,1,9,1.6,20,M,,M,,*51
06/02/2014	13:09:20.439	$GPGGA,130921,2431.1879,N,08045.6618,W,1,9,1.6,20,M,,M,,*57
06/02/2014	13:09:21.508	$GPGGA,130922,2431.1895,N,08045.6620,W,1,9,1.6,20,M,,M,,*5D
06/02/2014	13:09:22.548	$GPGGA,130923,2431.1916,N,08045.6622,W,1,9,1.6,20,M,,M,,*54
06/02/2014	13:09:23.438	$GPGGA,130924,2431.1935,N,08045.6621,W,1,9,1.6,20,M,,M,,*51
06/02/2014	13:09:24.417	$GPGGA,130925,2431.1955,N,08045.6624,W,1,9,1.6,20,M,,M,,*53
06/02/2014	13:09:25.416	$GPGGA,130926,2431.1973,N,08045.6629,W,1,9,1.6,20,M,,M,,*59
06/02/2014	13:09:26.456	$GPGGA,130927,2431.1992,N,08045.6630,W,1,8,1.6,20,M,,M,,*5E
06/02/2014	13:09:27.515	$GPGGA,130928,2431.2010,N,08045.6633,W,1,8,1.6,20,M,,M,,*52
06/02/2014	13:09:28.495	$GPGGA,130929,2431.2029,N,08045.6637,W,1,9,1.6,20,M,,M,,*5C
06/02/2014	13:09:29.515	$GPGGA,130930,2431.2049,N,08045.6637,W,1,9,1.6,19,M,,M,,*58
06/02/2014	13:09:30.515	$GPGGA,130931,2431.2065,N,08045.6641,W,1,9,1.6,19,M,,M,,*56
06/02/2014	13:09:31.545	$GPGGA,130932,2431.2083,N,08045.6647,W,1,9,1.6,19,M,,M,,*5B
06/02/2014	13:09:32.514	$GPGGA,130933,2431.2104,N,08045.6648,W,1,9,1.6,19,M,,M,,*5B
06/02/2014	13:09:33.512	$GPGGA,130934,2431.2122,N,08045.6651,W,1,9,1.6,19,M,,M,,*50
06/02/2014	13:09:34.532	$GPGGA,130935,2431.2139,N,08045.6655,W,1,9,1.6,19,M,,M,,*5F
06/02/2014	13:09:35.521	$GPGGA,130936,2431.2158,N,08045.6658,W,1,9,1.6,19,M,,M,,*56
06/02/2014	13:09:36.501	$GPGGA,130937,2431.2176,N,08045.6662,W,1,8,1.6,19,M,,M,,*53
06/02/2014	13:09:37.510	$GPGGA,130938,2431.2194,N,08045.6666,W,1,8,1.6,19,M,,M,,*54
06/02/2014	13:09:38.500	$GPGGA,130939,2431.2213,N,08045.6670,W,1,8,1.6,19,M,,M,,*5E
06/02/2014	13:09:39.519	$GPGGA,130940,2431.2231,N,08045.6674,W,1,8,1.6,19,M,,M,,*54
06/02/2014	13:09:40.519	$GPGGA,130941,2431.2249,N,08045.6678,W,1,8,1.6,19,M,,M,,*56
06/02/2014	13:09:41.508	$GPGGA,130942,2431.2267,N,08045.6683,W,1,8,1.6,19,M,,M,,*5D
06/02/2014	13:09:42.508	$GPGGA,130943,2431.2285,N,08045.6685,W,1,9,1.6,19,M,,M,,*57
06/02/2014	13:09:43.507	$GPGGA,130944,2431.2303,N,08045.6691,W,1,9,1.6,19,M,,M,,*5A
06/02/2014	13:09:44.507	$GPGGA,130945,2431.2320,N,08045.6698,W,1,8,1.9,19,M,,M,,*5D
06/02/2014	13:09:45.486	$GPGGA,130946,2431.2336,N,08045.6705,W,1,8,1.6,19,M,,M,,*53
06/02/2014	13:09:46.516	$GPGGA,130947,2431.2354,N,08045.6710,W,1,9,1.6,19,M,,M,,*53
06/02/2014	13:09:47.486	$GPGGA,130948,2431.2372,N,08045.6716,W,1,9,1.6,19,M,,M,,*5E
06/02/2014	13:09:48.505	$GPGGA,130949,2431.2390,N,08045.6720,W,1,8,1.9,19,M,,M,,*58
06/02/2014	13:09:49.464	$GPGGA,130950,2431.2408,N,08045.6723,W,1,8,1.6,19,M,,M,,*5A
06/02/2014	13:09:50.463	$GPGGA,130951,2431.2425,N,08045.6730,W,1,9,1.6,19,M,,M,,*57
06/02/2014	13:09:51.492	$GPGGA,130952,2431.2443,N,08045.6734,W,1,9,1.6,19,M,,M,,*50
06/02/2014	13:09:52.502	$GPGGA,130953,2431.2464,N,08045.6738,W,1,8,1.6,19,M,,M,,*59
06/02/2014	13:09:53.451	$GPGGA,130954,2431.2482,N,08045.6741,W,1,8,1.6,19,M,,M,,*58
06/02/2014	13:09:54.491	$GPGGA,130955,2431.2498,N,08045.6746,W,1,8,1.6,19,M,,M,,*55
06/02/2014	13:09:55.460	$GPGGA,130956,2431.2515,N,08045.6752,W,1,8,1.6,19,M,,M,,*57
06/02/2014	13:09:56.490	$GPGGA,130957,2431.2533,N,08045.6756,W,1,9,1.6,19,M,,M,,*57
06/02/2014	13:09:57.459	$GPGGA,130958,2431.2552,N,08045.6760,W,1,9,1.6,19,M,,M,,*5A
06/02/2014	13:09:58.489	$GPGGA,130959,2431.2570,N,08045.6767,W,1,8,1.6,19,M,,M,,*5D
06/02/2014	13:09:59.478	$GPGGA,131000,2431.2585,N,08045.6772,W,1,8,1.6,19,M,,M,,*57
06/02/2014	13:10:00.568	$GPGGA,131001,2431.2602,N,08045.6777,W,1,9,1.6,19,M,,M,,*5E
06/02/2014	13:10:01.437	$GPGGA,131002,2431.2620,N,08045.6781,W,1,9,1.6,19,M,,M,,*54
06/02/2014	13:10:02.557	$GPGGA,131003,2431.2638,N,08045.6788,W,1,9,1.6,19,M,,M,,*55
06/02/2014	13:10:03.566	$GPGGA,131004,2431.2654,N,08045.6795,W,1,9,1.6,19,M,,M,,*54
06/02/2014	13:10:04.426	$GPGGA,131005,2431.2671,N,08045.6800,W,1,9,1.6,19,M,,M,,*51
06/02/2014	13:10:05.550	$GPGGA,131006,2431.2690,N,08045.6806,W,1,9,1.6,19,M,,M,,*5B
06/02/2014	13:10:06.436	$GPGGA,131007,2431.2704,N,08045.6813,W,1,8,1.6,19,M,,M,,*53
06/02/2014	13:10:07.434	$GPGGA,131008,2431.2721,N,08045.6818,W,1,8,1.6,19,M,,M,,*50
06/02/2014	13:10:08.444	$GPGGA,131009,2431.2740,N,08045.6822,W,1,9,1.6,19,M,,M,,*5E
06/02/2014	13:10:09.532	$GPGGA,131010,2431.2755,N,08045.6828,W,1,9,1.6,19,M,,M,,*58
06/02/2014	13:10:10.542	$GPGGA,131011,2431.2771,N,08045.6836,W,1,9,1.6,19,M,,M,,*50
06/02/2014	13:10:11.531	$GPGGA,131012,2431.2790,N,08045.6842,W,1,9,1.6,19,M,,M,,*5F
06/02/2014	13:10:12.511	$GPGGA,131013,2431.2808,N,08045.6846,W,1,9,1.6,19,M,,M,,*54
06/02/2014	13:10:13.500	$GPGGA,131014,2431.2823,N,08045.6853,W,1,9,1.6,19,M,,M,,*5E
06/02/2014	13:10:14.530	$GPGGA,131015,2431.2840,N,08045.6857,W,1,8,1.6,19,M,,M,,*5F
06/02/2014	13:10:15.429	$GPGGA,131016,2431.2856,N,08045.6861,W,1,8,1.7,19,M,,M,,*5F
06/02/2014	13:10:16.489	$GPGGA,131017,2431.2870,N,08045.6868,W,1,8,1.6,19,M,,M,,*52
06/02/2014	13:10:17.498	$GPGGA,131018,2431.2888,N,08045.6872,W,1,8,1.6,19,M,,M,,*51
06/02/2014	13:10:18.508	$GPGGA,131019,2431.2907,N,08045.6876,W,1,9,1.6,19,M,,M,,*53
06/02/2014	13:10:19.507	$GPGGA,131020,2431.2924,N,08045.6882,W,1,9,1.6,19,M,,M,,*53
06/02/2014	13:10:20.507	$GPGGA,131021,2431.2939,N,08045.6889,W,1,8,1.6,19,M,,M,,*54
06/02/2014	13:10:21.496	$GPGGA,131022,2431.2956,N,08045.6891,W,1,8,1.6,19,M,,M,,*57
06/02/2014	13:10:22.476	$GPGGA,131023,2431.2974,N,08045.6893,W,1,9,1.6,20,M,,M,,*5F
06/02/2014	13:10:23.485	$GPGGA,131024,2431.2990,N,08045.6897,W,1,9,1.6,20,M,,M,,*56
06/02/2014	13:10:24.495	$GPGGA,131025,2431.3006,N,08045.6902,W,1,8,1.6,20,M,,M,,*5C
06/02/2014	13:10:25.483	$GPGGA,131026,2431.3025,N,08045.6907,W,1,8,1.6,20,M,,M,,*5B
06/02/2014	13:10:26.493	$GPGGA,131027,2431.3043,N,08045.6911,W,1,9,1.6,20,M,,M,,*5C
06/02/2014	13:10:27.482	$GPGGA,131028,2431.3058,N,08045.6918,W,1,9,1.6,20,M,,M,,*50
06/02/2014	13:10:28.482	$GPGGA,131029,2431.3075,N,08045.6922,W,1,9,1.6,20,M,,M,,*57
06/02/2014	13:10:29.513	$GPGGA,131030,2431.3093,N,08045.6922,W,1,9,1.9,20,M,,M,,*58
06/02/2014	13:10:30.523	$GPGGA,131031,2431.3109,N,08045.6926,W,1,9,1.6,20,M,,M,,*50
06/02/2014	13:10:31.512	$GPGGA,131032,2431.3123,N,08045.6933,W,1,9,1.6,21,M,,M,,*5E
06/02/2014	13:10:32.482	$GPGGA,131033,2431.3141,N,08045.6936,W,1,9,1.6,21,M,,M,,*5E
06/02/2014	13:10:33.491	$GPGGA,131034,2431.3159,N,08045.6940,W,1,9,1.6,21,M,,M,,*51
06/02/2014	13:10:34.511	$GPGGA,131035,2431.3177,N,08045.6945,W,1,8,1.6,21,M,,M,,*58
06/02/2014	13:10:35.500	$GPGGA,131036,2431.3196,N,08045.6951,W,1,8,1.6,21,M,,M,,*51
06/02/2014	13:10:36.480	$GPGGA,131037,2431.3214,N,08045.6954,W,1,9,1.6,21,M,,M,,*5D
06/02/2014	13:10:37.489	$GPGGA,131038,2431.3232,N,08045.6956,W,1,9,1.6,21,M,,M,,*54
06/02/2014	13:10:38.499	$GPGGA,131039,2431.3250,N,08045.6959,W,1,9,1.6,21,M,,M,,*5E
06/02/2014	13:10:39.488	$GPGGA,131040,2431.3268,N,08045.6962,W,1,9,1.6,21,M,,M,,*53
06/02/2014	13:10:40.508	$GPGGA,131041,2431.3286,N,08045.6965,W,1,9,1.6,21,M,,M,,*55
06/02/2014	13:10:41.463	$GPGGA,131042,2431.3304,N,08045.6969,W,1,9,1.6,22,M,,M,,*52
06/02/2014	13:10:42.498	$GPGGA,131043,2431.3325,N,08045.6972,W,1,9,1.6,22,M,,M,,*5A
06/02/2014	13:10:43.485	$GPGGA,131044,2431.3344,N,08045.6971,W,1,9,1.6,22,M,,M,,*59
06/02/2014	13:10:44.465	$GPGGA,131045,2431.3362,N,08045.6974,W,1,9,1.6,22,M,,M,,*59
06/02/2014	13:10:45.444	$GPGGA,131046,2431.3380,N,08045.6980,W,1,9,1.6,22,M,,M,,*5D
06/02/2014	13:10:46.444	$GPGGA,131047,2431.3400,N,08045.6979,W,1,9,1.6,22,M,,M,,*55
06/02/2014	13:10:47.473	$GPGGA,131048,2431.3419,N,08045.6980,W,1,9,1.6,22,M,,M,,*54
06/02/2014	13:10:48.573	$GPGGA,131049,2431.3436,N,08045.6984,W,1,9,1.6,22,M,,M,,*5C
06/02/2014	13:10:49.562	$GPGGA,131050,2431.3452,N,08045.6988,W,1,9,1.6,22,M,,M,,*5A
06/02/2014	13:10:50.532	$GPGGA,131051,2431.3473,N,08045.6990,W,1,9,1.6,22,M,,M,,*51
06/02/2014	13:10:51.451	$GPGGA,131052,2431.3494,N,08045.6989,W,1,9,1.6,22,M,,M,,*53
06/02/2014	13:10:52.451	$GPGGA,131053,2431.3512,N,08045.6991,W,1,9,1.6,22,M,,M,,*54
06/02/2014	13:10:53.430	$GPGGA,131054,2431.3528,N,08045.6994,W,1,9,1.7,22,M,,M,,*5E
06/02/2014	13:10:54.430	$GPGGA,131055,2431.3546,N,08045.6995,W,1,9,1.6,22,M,,M,,*57
06/02/2014	13:10:55.439	$GPGGA,131056,2431.3567,N,08045.6993,W,1,9,1.6,22,M,,M,,*51
06/02/2014	13:10:56.429	$GPGGA,131057,2431.3585,N,08045.6994,W,1,9,1.6,22,M,,M,,*5B
06/02/2014	13:10:57.518	$GPGGA,131058,2431.3604,N,08045.6994,W,1,9,1.6,22,M,,M,,*5E
06/02/2014	13:10:58.518	$GPGGA,131059,2431.3624,N,08045.6994,W,1,9,1.6,22,M,,M,,*5D
06/02/2014	13:10:59.457	$GPGGA,131100,2431.3642,N,08045.6995,W,1,9,1.7,22,M,,M,,*50
06/02/2014	13:11:00.426	$GPGGA,131101,2431.3660,N,08045.6996,W,1,9,1.6,22,M,,M,,*53
06/02/2014	13:11:01.415	$GPGGA,131102,2431.3680,N,08045.6992,W,1,9,1.6,22,M,,M,,*5A
06/02/2014	13:11:02.535	$GPGGA,131103,2431.3698,N,08045.6990,W,1,9,1.6,22,M,,M,,*50
06/02/2014	13:11:03.524	$GPGGA,131104,2431.3714,N,08045.6991,W,1,9,1.6,22,M,,M,,*53
06/02/2014	13:11:04.504	$GPGGA,131105,2431.3733,N,08045.6992,W,1,9,1.6,22,M,,M,,*54
06/02/2014	13:11:05.503	$GPGGA,131106,2431.3752,N,08045.6987,W,1,9,1.6,22,M,,M,,*54
06/02/2014	13:11:06.503	$GPGGA,131107,2431.3770,N,08045.6983,W,1,8,1.7,22,M,,M,,*51
06/02/2014	13:11:07.512	$GPGGA,131108,2431.3787,N,08045.6981,W,1,8,1.7,22,M,,M,,*54
06/02/2014	13:11:08.492	$GPGGA,131109,2431.3805,N,08045.6980,W,1,8,1.7,22,M,,M,,*51
06/02/2014	13:11:09.491	$GPGGA,131110,2431.3824,N,08045.6974,W,1,8,1.6,22,M,,M,,*50
06/02/2014	13:11:10.511	$GPGGA,131111,2431.3841,N,08045.6967,W,1,9,1.6,22,M,,M,,*51
06/02/2014	13:11:11.510	$GPGGA,131112,2431.3860,N,08045.6963,W,1,9,1.6,22,M,,M,,*55
06/02/2014	13:11:12.490	$GPGGA,131113,2431.3881,N,08045.6959,W,1,8,1.6,22,M,,M,,*53
06/02/2014	13:11:13.489	$GPGGA,131114,2431.3899,N,08045.6955,W,1,8,1.6,22,M,,M,,*51
06/02/2014	13:11:14.489	$GPGGA,131115,2431.3918,N,08045.6950,W,1,9,1.6,22,M,,M,,*5C
06/02/2014	13:11:15.498	$GPGGA,131116,2431.3938,N,08045.6945,W,1,9,1.6,22,M,,M,,*59
06/02/2014	13:11:16.508	$GPGGA,131117,2431.3954,N,08045.6939,W,1,9,1.6,22,M,,M,,*59
06/02/2014	13:11:17.467	$GPGGA,131118,2431.3975,N,08045.6934,W,1,9,1.6,22,M,,M,,*58
06/02/2014	13:11:18.496	$GPGGA,131119,2431.3994,N,08045.6929,W,1,9,1.6,22,M,,M,,*5A
06/02/2014	13:11:19.475	$GPGGA,131120,2431.4014,N,08045.6923,W,1,9,1.6,22,M,,M,,*5C
06/02/2014	13:11:20.485	$GPGGA,131121,2431.4034,N,08045.6918,W,1,9,1.6,22,M,,M,,*57
06/02/2014	13:11:21.464	$GPGGA,131122,2431.4054,N,08045.6914,W,1,9,1.6,22,M,,M,,*5E
06/02/2014	13:11:22.494	$GPGGA,131123,2431.4073,N,08045.6909,W,1,9,1.6,22,M,,M,,*56
06/02/2014	13:11:23.473	$GPGGA,131124,2431.4094,N,08045.6903,W,1,9,1.6,22,M,,M,,*52
06/02/2014	13:11:24.483	$GPGGA,131125,2431.4115,N,08045.6897,W,1,9,1.6,22,M,,M,,*57
06/02/2014	13:11:25.452	$GPGGA,131126,2431.4135,N,08045.6894,W,1,9,1.6,22,M,,M,,*55
06/02/2014	13:11:26.462	$GPGGA,131127,2431.4156,N,08045.6891,W,1,9,1.6,22,M,,M,,*54
06/02/2014	13:11:27.461	$GPGGA,131128,2431.4177,N,08045.6885,W,1,9,1.6,22,M,,M,,*5D
06/02/2014	13:11:28.451	$GPGGA,131129,2431.4198,N,08045.6879,W,1,9,1.6,22,M,,M,,*5E
06/02/2014	13:11:29.470	$GPGGA,131130,2431.4220,N,08045.6874,W,1,9,1.7,22,M,,M,,*5A
06/02/2014	13:11:30.470	$GPGGA,131131,2431.4240,N,08045.6873,W,1,9,1.6,22,M,,M,,*5B
06/02/2014	13:11:31.480	$GPGGA,131132,2431.4261,N,08045.6869,W,1,9,1.6,22,M,,M,,*50
06/02/2014	13:11:32.480	$GPGGA,131133,2431.4283,N,08045.6865,W,1,9,1.6,22,M,,M,,*51
06/02/2014	13:11:33.450	$GPGGA,131134,2431.4305,N,08045.6862,W,1,9,1.6,22,M,,M,,*5E
06/02/2014	13:11:34.461	$GPGGA,131135,2431.4325,N,08045.6858,W,1,9,1.6,22,M,,M,,*54
06/02/2014	13:11:35.468	$GPGGA,131136,2431.4347,N,08045.6856,W,1,9,1.7,21,M,,M,,*5F
06/02/2014	13:11:36.488	$GPGGA,131137,2431.4368,N,08045.6857,W,1,9,1.6,21,M,,M,,*53
06/02/2014	13:11:37.458	$GPGGA,131138,2431.4388,N,08045.6850,W,1,9,1.7,21,M,,M,,*54
06/02/2014	13:11:38.578	$GPGGA,131139,2431.4411,N,08045.6847,W,1,8,1.7,21,M,,M,,*55
06/02/2014	13:11:39.467	$GPGGA,131140,2431.4431,N,08045.6848,W,1,8,1.6,21,M,,M,,*57
06/02/2014	13:11:40.557	$GPGGA,131141,2431.4453,N,08045.6846,W,1,9,1.5,21,M,,M,,*5E
06/02/2014	13:11:41.437	$GPGGA,131142,2431.4475,N,08045.6842,W,1,9,1.5,21,M,,M,,*5D
06/02/2014	13:11:42.457	$GPGGA,131143,2431.4495,N,08045.6840,W,1,9,1.5,21,M,,M,,*50
06/02/2014	13:11:43.447	$GPGGA,131144,2431.4514,N,08045.6839,W,1,9,1.5,21,M,,M,,*51
06/02/2014	13:11:44.446	$GPGGA,131145,2431.4536,N,08045.6837,W,1,9,1.5,21,M,,M,,*5E
06/02/2014	13:11:45.526	$GPGGA,131146,2431.4557,N,08045.6834,W,1,9,1.5,21,M,,M,,*59
06/02/2014	13:11:46.536	$GPGGA,131147,2431.4576,N,08045.6836,W,1,9,1.5,21,M,,M,,*59
06/02/2014	13:11:47.526	$GPGGA,131148,2431.4599,N,08045.6833,W,1,9,1.7,21,M,,M,,*50
