Software Version Number: 1	Data File Format Number: 1	Build Version Number: 1	Error Count Since VI Started: 0	Manufacturer: Raytheon	 Model Number: RayMarine 120	 S/N: 	 Cal Date: 	 Wind Direction Offset: 0.00	 Slope (M)1: 0.00	 Offset (B)1: 0.00	 Slope (M)2: 0.00	 Offset (B)2: 0.00	 Slope (M)3: 0.00	 Offset (B)3: 0.00	 Slope (M)4: 0.00	 Offset (B)4: 0.00	 Slope (M)5: 0.00	 Offset (B)5: 0.00	 Slope (M)6: 0.00	 Offset (B)6: 0.00
Computer Date	Computer Time	GGA String
06/02/2014	00:00:00.690	$GPGGA,000009,2446.3432,N,07950.4961,W,1,10,1.6,16,M,,M,,*6B
06/02/2014	00:00:01.640	$GPGGA,000010,2446.3434,N,07950.4955,W,1,10,1.6,16,M,,M,,*62
06/02/2014	00:00:02.680	$GPGGA,000011,2446.3436,N,07950.4946,W,1,10,1.6,16,M,,M,,*63
06/02/2014	00:00:03.639	$GPGGA,000012,2446.3438,N,07950.4940,W,1,10,1.6,16,M,,M,,*68
06/02/2014	00:00:04.679	$GPGGA,000013,2446.3443,N,07950.4934,W,1,10,1.6,16,M,,M,,*66
06/02/2014	00:00:05.690	$GPGGA,000014,2446.3445,N,07950.4925,W,1,10,1.6,16,M,,M,,*67
06/02/2014	00:00:06.680	$GPGGA,000015,2446.3447,N,07950.4918,W,1,10,1.6,16,M,,M,,*6A
06/02/2014	00:00:07.700	$GPGGA,000016,2446.3452,N,07950.4913,W,1,10,1.6,16,M,,M,,*66
06/02/2014	00:00:08.670	$GPGGA,000017,2446.3455,N,07950.4904,W,1,10,1.6,16,M,,M,,*66
06/02/2014	00:00:09.620	$GPGGA,000018,2446.3456,N,07950.4897,W,1,10,1.6,16,M,,M,,*61
06/02/2014	00:00:10.641	$GPGGA,000019,2446.3459,N,07950.4891,W,1,10,1.6,16,M,,M,,*69
06/02/2014	00:00:11.631	$GPGGA,000020,2446.3463,N,07950.4884,W,1,10,1.6,16,M,,M,,*6E
06/02/2014	00:00:12.621	$GPGGA,000021,2446.3465,N,07950.4877,W,1,10,1.6,16,M,,M,,*65
06/02/2014	00:00:13.681	$GPGGA,000022,2446.3467,N,07950.4870,W,1,10,1.6,16,M,,M,,*63
06/02/2014	00:00:14.671	$GPGGA,000023,2446.3472,N,07950.4865,W,1,10,1.6,16,M,,M,,*62
06/02/2014	00:00:15.682	$GPGGA,000024,2446.3474,N,07950.4857,W,1,10,1.6,16,M,,M,,*62
06/02/2014	00:00:16.612	$GPGGA,000025,2446.3477,N,07950.4851,W,1,10,1.6,16,M,,M,,*66
06/02/2014	00:00:17.672	$GPGGA,000026,2446.3481,N,07950.4845,W,1,10,1.6,16,M,,M,,*69
06/02/2014	00:00:18.732	$GPGGA,000027,2446.3485,N,07950.4839,W,1,10,1.6,16,M,,M,,*67
06/02/2014	00:00:19.612	$GPGGA,000028,2446.3488,N,07950.4832,W,1,10,1.6,16,M,,M,,*6E
06/02/2014	00:00:20.622	$GPGGA,000029,2446.3490,N,07950.4826,W,1,10,1.6,16,M,,M,,*63
06/02/2014	00:00:21.641	$GPGGA,000030,2446.3494,N,07950.4820,W,1,10,1.6,16,M,,M,,*69
06/02/2014	00:00:22.621	$GPGGA,000031,2446.3498,N,07950.4814,W,1,10,1.6,16,M,,M,,*63
06/02/2014	00:00:23.661	$GPGGA,000032,2446.3499,N,07950.4808,W,1,10,1.6,16,M,,M,,*6C
06/02/2014	00:00:24.571	$GPGGA,000033,2446.3503,N,07950.4801,W,1,10,1.6,16,M,,M,,*66
06/02/2014	00:00:25.622	$GPGGA,000034,2446.3508,N,07950.4796,W,1,10,1.6,16,M,,M,,*6B
06/02/2014	00:00:26.612	$GPGGA,000035,2446.3510,N,07950.4790,W,1,10,1.6,16,M,,M,,*65
06/02/2014	00:00:27.692	$GPGGA,000036,2446.3513,N,07950.4783,W,1,10,1.6,16,M,,M,,*67
06/02/2014	00:00:28.682	$GPGGA,000037,2446.3517,N,07950.4778,W,1,10,1.6,16,M,,M,,*66
06/02/2014	00:00:29.562	$GPGGA,000038,2446.3521,N,07950.4773,W,1,10,1.6,16,M,,M,,*67
06/02/2014	00:00:30.563	$GPGGA,000039,2446.3524,N,07950.4766,W,1,10,1.6,16,M,,M,,*67
06/02/2014	00:00:31.683	$GPGGA,000040,2446.3527,N,07950.4761,W,1,10,1.6,16,M,,M,,*6D
06/02/2014	00:00:32.663	$GPGGA,000041,2446.3530,N,07950.4756,W,1,10,1.6,16,M,,M,,*6E
06/02/2014	00:00:33.623	$GPGGA,000042,2446.3532,N,07950.4750,W,1,10,1.6,16,M,,M,,*69
06/02/2014	00:00:34.663	$GPGGA,000043,2446.3535,N,07950.4745,W,1,10,1.6,16,M,,M,,*6B
06/02/2014	00:00:35.664	$GPGGA,000044,2446.3539,N,07950.4739,W,1,10,1.6,16,M,,M,,*6B
06/02/2014	00:00:36.664	$GPGGA,000045,2446.3542,N,07950.4733,W,1,10,1.6,16,M,,M,,*6C
06/02/2014	00:00:37.644	$GPGGA,000046,2446.3546,N,07950.4727,W,1,10,1.6,16,M,,M,,*6E
06/02/2014	00:00:38.663	$GPGGA,000047,2446.3549,N,07950.4722,W,1,10,1.6,16,M,,M,,*65
06/02/2014	00:00:39.673	$GPGGA,000048,2446.3552,N,07950.4716,W,1,10,1.6,16,M,,M,,*67
06/02/2014	00:00:40.664	$GPGGA,000049,2446.3555,N,07950.4710,W,1,10,1.6,16,M,,M,,*67
06/02/2014	00:00:41.644	$GPGGA,000050,2446.3559,N,07950.4705,W,1,10,1.6,16,M,,M,,*67
06/02/2014	00:00:42.664	$GPGGA,000051,2446.3561,N,07950.4700,W,1,10,1.6,16,M,,M,,*68
06/02/2014	00:00:43.654	$GPGGA,000052,2446.3563,N,07950.4694,W,1,10,1.6,16,M,,M,,*65
06/02/2014	00:00:44.664	$GPGGA,000053,2446.3567,N,07950.4688,W,1,10,1.6,16,M,,M,,*6D
06/02/2014	00:00:45.655	$GPGGA,000054,2446.3570,N,07950.4683,W,1,10,1.6,16,M,,M,,*67
06/02/2014	00:00:46.655	$GPGGA,000055,2446.3574,N,07950.4677,W,1,10,1.6,16,M,,M,,*69
06/02/2014	00:00:47.646	$GPGGA,000056,2446.3575,N,07950.4672,W,1,10,1.6,16,M,,M,,*6E
06/02/2014	00:00:48.665	$GPGGA,000057,2446.3578,N,07950.4666,W,1,10,1.6,16,M,,M,,*67
06/02/2014	00:00:49.655	$GPGGA,000058,2446.3582,N,07950.4661,W,1,10,1.6,16,M,,M,,*6A
06/02/2014	00:00:50.656	$GPGGA,000059,2446.3586,N,07950.4656,W,1,10,1.6,16,M,,M,,*6B
06/02/2014	00:00:51.686	$GPGGA,000100,2446.3589,N,07950.4650,W,1,10,1.6,16,M,,M,,*6F
06/02/2014	00:00:52.666	$GPGGA,000101,2446.3593,N,07950.4645,W,1,10,1.6,16,M,,M,,*61
06/02/2014	00:00:53.666	$GPGGA,000102,2446.3596,N,07950.4640,W,1,10,1.6,16,M,,M,,*62
06/02/2014	00:00:54.626	$GPGGA,000103,2446.3599,N,07950.4634,W,1,10,1.6,16,M,,M,,*6F
06/02/2014	00:00:55.647	$GPGGA,000104,2446.3602,N,07950.4629,W,1,10,1.6,16,M,,M,,*65
06/02/2014	00:00:56.626	$GPGGA,000105,2446.3604,N,07950.4624,W,1,10,1.6,16,M,,M,,*6F
06/02/2014	00:00:57.646	$GPGGA,000106,2446.3604,N,07950.4624,W,1,10,1.6,16,M,,M,,*6C
06/02/2014	00:00:58.636	$GPGGA,000107,2446.3611,N,07950.4612,W,1,10,1.6,16,M,,M,,*6C
06/02/2014	00:00:59.646	$GPGGA,000108,2446.3615,N,07950.4607,W,1,10,1.6,16,M,,M,,*63
06/02/2014	00:01:00.627	$GPGGA,000109,2446.3615,N,07950.4607,W,1,10,1.6,16,M,,M,,*62
06/02/2014	00:01:01.617	$GPGGA,000110,2446.3622,N,07950.4596,W,1,10,1.6,16,M,,M,,*65
06/02/2014	00:01:02.647	$GPGGA,000111,2446.3625,N,07950.4591,W,1,10,1.6,17,M,,M,,*65
06/02/2014	00:01:03.647	$GPGGA,000112,2446.3628,N,07950.4586,W,1,10,1.6,17,M,,M,,*6D
06/02/2014	00:01:05.417	$GPGGA,000113,2446.3629,N,07950.4580,W,1,10,1.6,17,M,,M,,*6B
06/02/2014	00:01:05.628	$GPGGA,000114,2446.3632,N,07950.4575,W,1,10,1.6,17,M,,M,,*6C
06/02/2014	00:01:06.618	$GPGGA,000115,2446.3636,N,07950.4569,W,1,10,1.6,17,M,,M,,*64
06/02/2014	00:01:07.728	$GPGGA,000116,2446.3640,N,07950.4563,W,1,10,1.6,17,M,,M,,*6C
06/02/2014	00:01:08.638	$GPGGA,000117,2446.3642,N,07950.4558,W,1,10,1.6,17,M,,M,,*67
06/02/2014	00:01:09.708	$GPGGA,000118,2446.3644,N,07950.4552,W,1,10,1.6,17,M,,M,,*64
06/02/2014	00:01:10.719	$GPGGA,000119,2446.3649,N,07950.4546,W,1,10,1.6,17,M,,M,,*6D
06/02/2014	00:01:11.609	$GPGGA,000120,2446.3649,N,07950.4546,W,1,10,1.6,17,M,,M,,*67
06/02/2014	00:01:12.690	$GPGGA,000121,2446.3654,N,07950.4535,W,1,10,1.6,17,M,,M,,*6E
06/02/2014	00:01:13.588	$GPGGA,000122,2446.3654,N,07950.4535,W,1,10,1.6,17,M,,M,,*6D
06/02/2014	00:01:14.678	$GPGGA,000123,2446.3661,N,07950.4525,W,1,10,1.6,17,M,,M,,*6B
06/02/2014	00:01:15.609	$GPGGA,000124,2446.3662,N,07950.4519,W,1,10,1.6,17,M,,M,,*60
06/02/2014	00:01:16.709	$GPGGA,000125,2446.3665,N,07950.4514,W,1,10,1.6,17,M,,M,,*6B
06/02/2014	00:01:17.679	$GPGGA,000126,2446.3669,N,07950.4508,W,1,10,1.6,17,M,,M,,*69
06/02/2014	00:01:18.669	$GPGGA,000127,2446.3672,N,07950.4502,W,1,10,1.6,17,M,,M,,*68
06/02/2014	00:01:19.589	$GPGGA,000128,2446.3672,N,07950.4502,W,1,10,1.6,17,M,,M,,*67
06/02/2014	00:01:20.720	$GPGGA,000129,2446.3679,N,07950.4492,W,1,10,1.6,17,M,,M,,*65
06/02/2014	00:01:21.680	$GPGGA,000130,2446.3682,N,07950.4486,W,1,10,1.6,17,M,,M,,*6C
06/02/2014	00:01:22.680	$GPGGA,000131,2446.3685,N,07950.4480,W,1,10,1.6,17,M,,M,,*6C
06/02/2014	00:01:23.680	$GPGGA,000132,2446.3687,N,07950.4476,W,1,10,1.6,17,M,,M,,*64
06/02/2014	00:01:24.670	$GPGGA,000133,2446.3690,N,07950.4470,W,1,10,1.6,17,M,,M,,*65
06/02/2014	00:01:25.661	$GPGGA,000134,2446.3693,N,07950.4464,W,1,10,1.6,17,M,,M,,*64
06/02/2014	00:01:26.661	$GPGGA,000135,2446.3697,N,07950.4459,W,1,10,1.6,17,M,,M,,*6F
06/02/2014	00:01:27.671	$GPGGA,000136,2446.3700,N,07950.4454,W,1,10,1.6,17,M,,M,,*6E
06/02/2014	00:01:28.682	$GPGGA,000137,2446.3701,N,07950.4447,W,1,9,1.6,17,M,,M,,*54
06/02/2014	00:01:29.651	$GPGGA,000138,2446.3705,N,07950.4441,W,1,9,1.6,17,M,,M,,*59
06/02/2014	00:01:30.672	$GPGGA,000139,2446.3708,N,07950.4437,W,1,10,1.6,17,M,,M,,*6C
06/02/2014	00:01:31.661	$GPGGA,000140,2446.3712,N,07950.4432,W,1,10,1.6,17,M,,M,,*6C
06/02/2014	00:01:32.671	$GPGGA,000141,2446.3716,N,07950.4425,W,1,10,1.6,17,M,,M,,*6F
06/02/2014	00:01:33.651	$GPGGA,000142,2446.3719,N,07950.4420,W,1,10,1.6,17,M,,M,,*66
06/02/2014	00:01:34.651	$GPGGA,000143,2446.3723,N,07950.4415,W,1,10,1.6,17,M,,M,,*68
06/02/2014	00:01:35.662	$GPGGA,000144,2446.3725,N,07950.4409,W,1,10,1.6,17,M,,M,,*64
06/02/2014	00:01:36.662	$GPGGA,000145,2446.3729,N,07950.4404,W,1,10,1.6,17,M,,M,,*64
06/02/2014	00:01:37.632	$GPGGA,000146,2446.3733,N,07950.4398,W,1,10,1.6,17,M,,M,,*6E
06/02/2014	00:01:38.662	$GPGGA,000147,2446.3737,N,07950.4393,W,1,10,1.6,17,M,,M,,*60
06/02/2014	00:01:39.642	$GPGGA,000148,2446.3740,N,07950.4387,W,1,10,1.6,16,M,,M,,*6B
06/02/2014	00:01:40.633	$GPGGA,000149,2446.3744,N,07950.4382,W,1,10,1.6,16,M,,M,,*6B
06/02/2014	00:01:41.653	$GPGGA,000150,2446.3748,N,07950.4377,W,1,10,1.6,16,M,,M,,*65
06/02/2014	00:01:42.663	$GPGGA,000151,2446.3751,N,07950.4371,W,1,10,1.6,16,M,,M,,*6A
06/02/2014	00:01:43.643	$GPGGA,000152,2446.3754,N,07950.4365,W,1,10,1.6,16,M,,M,,*69
06/02/2014	00:01:44.653	$GPGGA,000153,2446.3756,N,07950.4360,W,1,10,1.6,16,M,,M,,*6F
06/02/2014	00:01:45.624	$GPGGA,000154,2446.3761,N,07950.4355,W,1,10,1.6,16,M,,M,,*6A
06/02/2014	00:01:46.654	$GPGGA,000155,2446.3763,N,07950.4349,W,1,10,1.6,16,M,,M,,*64
06/02/2014	00:01:47.634	$GPGGA,000156,2446.3765,N,07950.4343,W,1,10,1.6,16,M,,M,,*6B
06/02/2014	00:01:48.643	$GPGGA,000157,2446.3770,N,07950.4339,W,1,10,1.6,16,M,,M,,*63
06/02/2014	00:01:49.613	$GPGGA,000158,2446.3773,N,07950.4333,W,1,10,1.6,16,M,,M,,*65
06/02/2014	00:01:50.634	$GPGGA,000159,2446.3776,N,07950.4328,W,1,10,1.6,16,M,,M,,*6B
06/02/2014	00:01:51.644	$GPGGA,000200,2446.3779,N,07950.4323,W,1,10,1.6,16,M,,M,,*60
06/02/2014	00:01:52.634	$GPGGA,000201,2446.3781,N,07950.4317,W,1,10,1.6,16,M,,M,,*61
06/02/2014	00:01:53.614	$GPGGA,000202,2446.3786,N,07950.4311,W,1,10,1.6,16,M,,M,,*63
06/02/2014	00:01:54.714	$GPGGA,000203,2446.3788,N,07950.4306,W,1,10,1.6,16,M,,M,,*6A
06/02/2014	00:01:55.615	$GPGGA,000204,2446.3791,N,07950.4300,W,1,10,1.6,16,M,,M,,*63
06/02/2014	00:01:56.715	$GPGGA,000205,2446.3795,N,07950.4294,W,1,10,1.6,16,M,,M,,*6A
06/02/2014	00:01:57.605	$GPGGA,000206,2446.3799,N,07950.4288,W,1,10,1.6,16,M,,M,,*68
06/02/2014	00:01:58.615	$GPGGA,000207,2446.3802,N,07950.4283,W,1,10,1.6,16,M,,M,,*6F
06/02/2014	00:01:59.605	$GPGGA,000208,2446.3803,N,07950.4276,W,1,10,1.6,16,M,,M,,*6B
06/02/2014	00:02:00.596	$GPGGA,000209,2446.3808,N,07950.4271,W,1,10,1.6,16,M,,M,,*66
06/02/2014	00:02:01.586	$GPGGA,000210,2446.3813,N,07950.4266,W,1,10,1.6,16,M,,M,,*62
06/02/2014	00:02:02.586	$GPGGA,000211,2446.3816,N,07950.4259,W,1,10,1.6,16,M,,M,,*6A
06/02/2014	00:02:03.706	$GPGGA,000212,2446.3819,N,07950.4253,W,1,10,1.6,16,M,,M,,*6C
06/02/2014	00:02:04.706	$GPGGA,000213,2446.3823,N,07950.4247,W,1,10,1.6,16,M,,M,,*61
06/02/2014	00:02:05.588	$GPGGA,000214,2446.3827,N,07950.4242,W,1,10,1.6,16,M,,M,,*67
06/02/2014	00:02:06.706	$GPGGA,000215,2446.3831,N,07950.4236,W,1,10,1.6,16,M,,M,,*62
06/02/2014	00:02:07.606	$GPGGA,000216,2446.3833,N,07950.4230,W,1,10,1.6,16,M,,M,,*65
06/02/2014	00:02:08.586	$GPGGA,000217,2446.3837,N,07950.4224,W,1,10,1.6,16,M,,M,,*65
06/02/2014	00:02:09.676	$GPGGA,000218,2446.3841,N,07950.4218,W,1,10,1.6,16,M,,M,,*64
06/02/2014	00:02:10.587	$GPGGA,000219,2446.3845,N,07950.4212,W,1,10,1.6,16,M,,M,,*6B
06/02/2014	00:02:11.687	$GPGGA,000220,2446.3848,N,07950.4206,W,1,10,1.6,16,M,,M,,*69
06/02/2014	00:02:12.667	$GPGGA,000221,2446.3850,N,07950.4201,W,1,10,1.6,16,M,,M,,*66
06/02/2014	00:02:13.577	$GPGGA,000222,2446.3856,N,07950.4195,W,1,10,1.6,16,M,,M,,*6D
06/02/2014	00:02:14.697	$GPGGA,000223,2446.3860,N,07950.4189,W,1,9,1.6,16,M,,M,,*5C
06/02/2014	00:02:15.678	$GPGGA,000224,2446.3863,N,07950.4184,W,1,9,1.6,16,M,,M,,*55
06/02/2014	00:02:16.698	$GPGGA,000225,2446.3866,N,07950.4178,W,1,10,1.6,16,M,,M,,*6A
06/02/2014	00:02:17.678	$GPGGA,000226,2446.3870,N,07950.4171,W,1,10,1.6,16,M,,M,,*67
06/02/2014	00:02:18.658	$GPGGA,000227,2446.3873,N,07950.4166,W,1,10,1.6,16,M,,M,,*63
06/02/2014	00:02:19.688	$GPGGA,000228,2446.3875,N,07950.4161,W,1,10,1.6,16,M,,M,,*6D
06/02/2014	00:02:20.649	$GPGGA,000229,2446.3878,N,07950.4155,W,1,10,1.6,17,M,,M,,*67
06/02/2014	00:02:21.639	$GPGGA,000230,2446.3884,N,07950.4149,W,1,10,1.6,17,M,,M,,*61
06/02/2014	00:02:22.679	$GPGGA,000231,2446.3886,N,07950.4143,W,1,10,1.6,17,M,,M,,*68
06/02/2014	00:02:23.648	$GPGGA,000232,2446.3891,N,07950.4137,W,1,10,1.6,17,M,,M,,*6E
06/02/2014	00:02:24.648	$GPGGA,000233,2446.3895,N,07950.4131,W,1,10,1.6,17,M,,M,,*6D
06/02/2014	00:02:25.629	$GPGGA,000234,2446.3899,N,07950.4124,W,1,10,1.6,17,M,,M,,*62
06/02/2014	00:02:26.649	$GPGGA,000235,2446.3900,N,07950.4118,W,1,10,1.6,17,M,,M,,*6D
06/02/2014	00:02:27.649	$GPGGA,000236,2446.3904,N,07950.4113,W,1,10,1.6,17,M,,M,,*61
06/02/2014	00:02:28.639	$GPGGA,000237,2446.3907,N,07950.4106,W,1,10,1.6,17,M,,M,,*67
06/02/2014	00:02:29.629	$GPGGA,000238,2446.3911,N,07950.4099,W,1,10,1.6,17,M,,M,,*68
06/02/2014	00:02:30.640	$GPGGA,000239,2446.3914,N,07950.4095,W,1,10,1.6,17,M,,M,,*60
06/02/2014	00:02:31.650	$GPGGA,000240,2446.3918,N,07950.4088,W,1,10,1.6,17,M,,M,,*6E
06/02/2014	00:02:32.650	$GPGGA,000241,2446.3922,N,07950.4081,W,1,10,1.6,17,M,,M,,*6F
06/02/2014	00:02:33.620	$GPGGA,000242,2446.3925,N,07950.4077,W,1,10,1.6,17,M,,M,,*62
06/02/2014	00:02:34.600	$GPGGA,000243,2446.3929,N,07950.4071,W,1,10,1.6,17,M,,M,,*69
06/02/2014	00:02:35.631	$GPGGA,000244,2446.3932,N,07950.4064,W,1,10,1.6,17,M,,M,,*60
06/02/2014	00:02:36.602	$GPGGA,000245,2446.3936,N,07950.4059,W,1,10,1.6,17,M,,M,,*6B
06/02/2014	00:02:37.601	$GPGGA,000246,2446.3939,N,07950.4056,W,1,10,1.6,17,M,,M,,*68
06/02/2014	00:02:38.611	$GPGGA,000247,2446.3943,N,07950.4050,W,1,10,1.6,17,M,,M,,*62
06/02/2014	00:02:39.611	$GPGGA,000248,2446.3947,N,07950.4043,W,1,10,1.6,17,M,,M,,*6B
06/02/2014	00:02:40.642	$GPGGA,000249,2446.3950,N,07950.4039,W,1,10,1.6,17,M,,M,,*61
06/02/2014	00:02:41.591	$GPGGA,000250,2446.3954,N,07950.4034,W,1,10,1.6,17,M,,M,,*60
06/02/2014	00:02:42.611	$GPGGA,000251,2446.3958,N,07950.4029,W,1,10,1.6,17,M,,M,,*61
06/02/2014	00:02:43.731	$GPGGA,000252,2446.3961,N,07950.4023,W,1,10,1.6,17,M,,M,,*62
06/02/2014	00:02:44.611	$GPGGA,000253,2446.3964,N,07950.4019,W,1,10,1.6,17,M,,M,,*6F
06/02/2014	00:02:45.592	$GPGGA,000254,2446.3968,N,07950.4014,W,1,10,1.6,17,M,,M,,*69
06/02/2014	00:02:46.592	$GPGGA,000255,2446.3972,N,07950.4008,W,1,10,1.6,17,M,,M,,*6E
06/02/2014	00:02:47.612	$GPGGA,000256,2446.3975,N,07950.4003,W,1,10,1.6,17,M,,M,,*61
06/02/2014	00:02:48.602	$GPGGA,000257,2446.3978,N,07950.3998,W,1,10,1.6,17,M,,M,,*61
06/02/2014	00:02:49.572	$GPGGA,000258,2446.3982,N,07950.3992,W,1,10,1.6,17,M,,M,,*61
06/02/2014	00:02:50.583	$GPGGA,000259,2446.3985,N,07950.3987,W,1,10,1.6,17,M,,M,,*63
06/02/2014	00:02:51.613	$GPGGA,000300,2446.3987,N,07950.3981,W,1,10,1.6,17,M,,M,,*6A
06/02/2014	00:02:52.673	$GPGGA,000301,2446.3990,N,07950.3976,W,1,10,1.6,17,M,,M,,*65
06/02/2014	00:02:53.573	$GPGGA,000302,2446.3994,N,07950.3970,W,1,10,1.6,17,M,,M,,*64
06/02/2014	00:02:54.583	$GPGGA,000303,2446.3997,N,07950.3964,W,1,10,1.6,17,M,,M,,*63
06/02/2014	00:02:55.674	$GPGGA,000304,2446.4000,N,07950.3959,W,1,10,1.6,17,M,,M,,*6A
06/02/2014	00:02:56.684	$GPGGA,000305,2446.4003,N,07950.3953,W,1,10,1.6,17,M,,M,,*62
06/02/2014	00:02:57.664	$GPGGA,000306,2446.4005,N,07950.3947,W,1,10,1.6,17,M,,M,,*62
06/02/2014	00:02:58.573	$GPGGA,000307,2446.4010,N,07950.3942,W,1,10,1.6,17,M,,M,,*62
06/02/2014	00:02:59.573	$GPGGA,000308,2446.4012,N,07950.3936,W,1,10,1.6,17,M,,M,,*6C
06/02/2014	00:03:00.664	$GPGGA,000309,2446.4016,N,07950.3930,W,1,10,1.6,17,M,,M,,*6F
06/02/2014	00:03:01.654	$GPGGA,000310,2446.4019,N,07950.3926,W,1,10,1.6,17,M,,M,,*6F
06/02/2014	00:03:02.694	$GPGGA,000311,2446.4022,N,07950.3920,W,1,10,1.6,17,M,,M,,*60
06/02/2014	00:03:03.674	$GPGGA,000312,2446.4025,N,07950.3914,W,1,10,1.6,17,M,,M,,*63
06/02/2014	00:03:04.694	$GPGGA,000313,2446.4029,N,07950.3909,W,1,10,1.6,17,M,,M,,*62
06/02/2014	00:03:05.655	$GPGGA,000314,2446.4033,N,07950.3904,W,1,10,1.6,17,M,,M,,*63
06/02/2014	00:03:06.655	$GPGGA,000315,2446.4036,N,07950.3898,W,1,10,1.6,17,M,,M,,*63
06/02/2014	00:03:07.655	$GPGGA,000316,2446.4040,N,07950.3892,W,1,10,1.6,17,M,,M,,*6B
06/02/2014	00:03:08.665	$GPGGA,000317,2446.4044,N,07950.3887,W,1,9,1.6,17,M,,M,,*52
06/02/2014	00:03:09.635	$GPGGA,000318,2446.4047,N,07950.3883,W,1,9,1.6,17,M,,M,,*5A
06/02/2014	00:03:10.656	$GPGGA,000319,2446.4048,N,07950.3877,W,1,10,1.6,17,M,,M,,*67
06/02/2014	00:03:11.666	$GPGGA,000320,2446.4052,N,07950.3872,W,1,10,1.6,17,M,,M,,*63
06/02/2014	00:03:12.636	$GPGGA,000321,2446.4055,N,07950.3867,W,1,10,1.6,17,M,,M,,*61
06/02/2014	00:03:13.646	$GPGGA,000322,2446.4059,N,07950.3861,W,1,10,1.6,17,M,,M,,*68
06/02/2014	00:03:14.636	$GPGGA,000323,2446.4061,N,07950.3856,W,1,10,1.6,17,M,,M,,*66
06/02/2014	00:03:15.647	$GPGGA,000324,2446.4065,N,07950.3852,W,1,10,1.6,17,M,,M,,*61
06/02/2014	00:03:16.666	$GPGGA,000325,2446.4069,N,07950.3845,W,1,10,1.6,17,M,,M,,*6A
06/02/2014	00:03:17.636	$GPGGA,000326,2446.4072,N,07950.3840,W,1,10,1.6,17,M,,M,,*66
06/02/2014	00:03:18.646	$GPGGA,000327,2446.4074,N,07950.3836,W,1,10,1.6,17,M,,M,,*60
06/02/2014	00:03:19.646	$GPGGA,000328,2446.4079,N,07950.3830,W,1,10,1.6,17,M,,M,,*64
06/02/2014	00:03:20.646	$GPGGA,000329,2446.4081,N,07950.3824,W,1,10,1.6,17,M,,M,,*67
06/02/2014	00:03:21.616	$GPGGA,000330,2446.4086,N,07950.3820,W,1,10,1.6,17,M,,M,,*6C
06/02/2014	00:03:22.606	$GPGGA,000331,2446.4088,N,07950.3815,W,1,10,1.6,17,M,,M,,*65
06/02/2014	00:03:23.616	$GPGGA,000332,2446.4091,N,07950.3809,W,1,10,1.6,17,M,,M,,*63
06/02/2014	00:03:24.646	$GPGGA,000333,2446.4095,N,07950.3804,W,1,10,1.6,17,M,,M,,*6B
06/02/2014	00:03:25.597	$GPGGA,000334,2446.4099,N,07950.3799,W,1,10,1.6,17,M,,M,,*6B
06/02/2014	00:03:26.637	$GPGGA,000335,2446.4101,N,07950.3794,W,1,10,1.6,17,M,,M,,*67
06/02/2014	00:03:27.617	$GPGGA,000336,2446.4104,N,07950.3788,W,1,10,1.6,18,M,,M,,*63
06/02/2014	00:03:28.637	$GPGGA,000337,2446.4109,N,07950.3783,W,1,10,1.6,18,M,,M,,*64
06/02/2014	00:03:29.607	$GPGGA,000338,2446.4112,N,07950.3778,W,1,10,1.6,18,M,,M,,*65
06/02/2014	00:03:30.628	$GPGGA,000339,2446.4113,N,07950.3773,W,1,9,1.6,18,M,,M,,*56
06/02/2014	00:03:31.608	$GPGGA,000340,2446.4117,N,07950.3767,W,1,9,1.6,18,M,,M,,*59
06/02/2014	00:03:32.618	$GPGGA,000341,2446.4120,N,07950.3762,W,1,10,1.6,18,M,,M,,*61
06/02/2014	00:03:33.587	$GPGGA,000342,2446.4123,N,07950.3757,W,1,10,1.6,18,M,,M,,*67
06/02/2014	00:03:34.617	$GPGGA,000343,2446.4126,N,07950.3750,W,1,10,1.6,18,M,,M,,*64
06/02/2014	00:03:35.608	$GPGGA,000344,2446.4128,N,07950.3746,W,1,10,1.6,18,M,,M,,*6A
06/02/2014	00:03:36.578	$GPGGA,000345,2446.4133,N,07950.3741,W,1,10,1.6,18,M,,M,,*66
06/02/2014	00:03:37.698	$GPGGA,000346,2446.4135,N,07950.3735,W,1,10,1.6,18,M,,M,,*60
06/02/2014	00:03:38.698	$GPGGA,000347,2446.4138,N,07950.3730,W,1,9,1.6,18,M,,M,,*51
06/02/2014	00:03:39.598	$GPGGA,000348,2446.4142,N,07950.3725,W,1,9,1.6,18,M,,M,,*57
06/02/2014	00:03:40.679	$GPGGA,000349,2446.4145,N,07950.3719,W,1,10,1.6,18,M,,M,,*66
06/02/2014	00:03:41.569	$GPGGA,000350,2446.4148,N,07950.3713,W,1,10,1.6,18,M,,M,,*69
06/02/2014	00:03:42.689	$GPGGA,000351,2446.4151,N,07950.3709,W,1,10,1.6,18,M,,M,,*6B
06/02/2014	00:03:43.589	$GPGGA,000352,2446.4155,N,07950.3704,W,1,10,1.6,18,M,,M,,*61
06/02/2014	00:03:44.689	$GPGGA,000353,2446.4157,N,07950.3697,W,1,10,1.6,18,M,,M,,*69
06/02/2014	00:03:45.580	$GPGGA,000354,2446.4160,N,07950.3692,W,1,10,1.6,18,M,,M,,*6F
06/02/2014	00:03:46.670	$GPGGA,000355,2446.4164,N,07950.3688,W,1,10,1.6,18,M,,M,,*61
06/02/2014	00:03:47.580	$GPGGA,000356,2446.4169,N,07950.3682,W,1,10,1.6,18,M,,M,,*65
06/02/2014	00:03:48.670	$GPGGA,000357,2446.4171,N,07950.3675,W,1,10,1.6,18,M,,M,,*65
06/02/2014	00:03:49.651	$GPGGA,000358,2446.4175,N,07950.3671,W,1,10,1.6,18,M,,M,,*6A
06/02/2014	00:03:50.650	$GPGGA,000359,2446.4180,N,07950.3667,W,1,10,1.6,18,M,,M,,*66
06/02/2014	00:03:51.680	$GPGGA,000400,2446.4182,N,07950.3661,W,1,10,1.6,18,M,,M,,*69
06/02/2014	00:03:52.660	$GPGGA,000401,2446.4185,N,07950.3656,W,1,10,1.6,18,M,,M,,*6B
06/02/2014	00:03:53.660	$GPGGA,000402,2446.4189,N,07950.3652,W,1,10,1.6,18,M,,M,,*60
06/02/2014	00:03:54.670	$GPGGA,000403,2446.4193,N,07950.3648,W,1,10,1.6,18,M,,M,,*61
06/02/2014	00:03:55.661	$GPGGA,000404,2446.4196,N,07950.3642,W,1,10,1.6,18,M,,M,,*69
06/02/2014	00:03:56.641	$GPGGA,000405,2446.4202,N,07950.3637,W,1,10,1.6,18,M,,M,,*64
06/02/2014	00:03:57.651	$GPGGA,000406,2446.4207,N,07950.3635,W,1,10,1.6,18,M,,M,,*60
06/02/2014	00:03:58.671	$GPGGA,000407,2446.4211,N,07950.3630,W,1,10,1.6,18,M,,M,,*63
06/02/2014	00:03:59.651	$GPGGA,000408,2446.4214,N,07950.3623,W,1,10,1.6,18,M,,M,,*6B
06/02/2014	00:04:00.652	$GPGGA,000409,2446.4218,N,07950.3619,W,1,10,1.6,18,M,,M,,*6F
06/02/2014	00:04:01.642	$GPGGA,000410,2446.4222,N,07950.3616,W,1,10,1.6,18,M,,M,,*61
06/02/2014	00:04:02.652	$GPGGA,000411,2446.4227,N,07950.3610,W,1,9,2.2,18,M,,M,,*5C
06/02/2014	00:04:03.642	$GPGGA,000412,2446.4232,N,07950.3605,W,1,9,1.8,18,M,,M,,*56
06/02/2014	00:04:04.662	$GPGGA,000413,2446.4239,N,07950.3601,W,1,10,1.8,18,M,,M,,*60
06/02/2014	00:04:05.633	$GPGGA,000414,2446.4243,N,07950.3596,W,1,10,1.8,18,M,,M,,*67
06/02/2014	00:04:06.653	$GPGGA,000415,2446.4247,N,07950.3591,W,1,10,1.8,18,M,,M,,*65
06/02/2014	00:04:07.643	$GPGGA,000416,2446.4253,N,07950.3587,W,1,10,1.8,18,M,,M,,*64
06/02/2014	00:04:08.622	$GPGGA,000417,2446.4257,N,07950.3582,W,1,10,1.8,18,M,,M,,*64
06/02/2014	00:04:09.622	$GPGGA,000418,2446.4261,N,07950.3577,W,1,10,1.8,18,M,,M,,*64
06/02/2014	00:04:10.613	$GPGGA,000419,2446.4264,N,07950.3573,W,1,10,1.8,18,M,,M,,*64
06/02/2014	00:04:11.633	$GPGGA,000420,2446.4267,N,07950.3568,W,1,10,1.8,18,M,,M,,*67
06/02/2014	00:04:12.643	$GPGGA,000421,2446.4271,N,07950.3563,W,1,10,1.8,18,M,,M,,*6A
06/02/2014	00:04:13.613	$GPGGA,000422,2446.4274,N,07950.3559,W,1,10,1.8,17,M,,M,,*6A
06/02/2014	00:04:14.623	$GPGGA,000423,2446.4276,N,07950.3553,W,1,10,1.8,17,M,,M,,*63
06/02/2014	00:04:15.624	$GPGGA,000424,2446.4279,N,07950.3549,W,1,10,1.8,17,M,,M,,*60
06/02/2014	00:04:16.614	$GPGGA,000425,2446.4283,N,07950.3544,W,1,10,1.8,17,M,,M,,*69
06/02/2014	00:04:17.614	$GPGGA,000426,2446.4286,N,07950.3539,W,1,10,1.8,17,M,,M,,*65
06/02/2014	00:04:18.634	$GPGGA,000427,2446.4289,N,07950.3534,W,1,10,1.8,17,M,,M,,*66
06/02/2014	00:04:19.624	$GPGGA,000428,2446.4293,N,07950.3529,W,1,10,1.8,17,M,,M,,*6E
06/02/2014	00:04:20.605	$GPGGA,000429,2446.4297,N,07950.3524,W,1,10,1.8,17,M,,M,,*66
06/02/2014	00:04:21.615	$GPGGA,000430,2446.4297,N,07950.3519,W,1,10,2.2,17,M,,M,,*69
06/02/2014	00:04:22.605	$GPGGA,000431,2446.4300,N,07950.3514,W,1,10,1.8,18,M,,M,,*6C
06/02/2014	00:04:23.615	$GPGGA,000432,2446.4303,N,07950.3509,W,1,10,1.8,18,M,,M,,*60
06/02/2014	00:04:24.589	$GPGGA,000433,2446.4307,N,07950.3504,W,1,10,1.8,18,M,,M,,*68
06/02/2014	00:04:25.605	$GPGGA,000434,2446.4310,N,07950.3499,W,1,10,1.8,18,M,,M,,*6C
06/02/2014	00:04:26.725	$GPGGA,000435,2446.4312,N,07950.3494,W,1,10,1.8,18,M,,M,,*62
06/02/2014	00:04:27.595	$GPGGA,000436,2446.4316,N,07950.3489,W,1,10,1.8,18,M,,M,,*69
06/02/2014	00:04:28.605	$GPGGA,000437,2446.4321,N,07950.3484,W,1,10,1.8,18,M,,M,,*61
06/02/2014	00:04:29.695	$GPGGA,000438,2446.4323,N,07950.3479,W,1,10,1.8,18,M,,M,,*6E
06/02/2014	00:04:30.696	$GPGGA,000439,2446.4325,N,07950.3473,W,1,10,1.8,18,M,,M,,*63
06/02/2014	00:04:31.726	$GPGGA,000440,2446.4329,N,07950.3468,W,1,10,1.8,18,M,,M,,*6B
06/02/2014	00:04:32.586	$GPGGA,000441,2446.4332,N,07950.3463,W,1,10,1.8,18,M,,M,,*6B
06/02/2014	00:04:33.576	$GPGGA,000442,2446.4333,N,07950.3457,W,1,10,1.8,18,M,,M,,*6E
06/02/2014	00:04:34.706	$GPGGA,000443,2446.4337,N,07950.3452,W,1,10,1.8,18,M,,M,,*6E
06/02/2014	00:04:35.707	$GPGGA,000444,2446.4341,N,07950.3447,W,1,10,1.8,19,M,,M,,*6D
06/02/2014	00:04:36.687	$GPGGA,000445,2446.4344,N,07950.3442,W,1,10,1.8,19,M,,M,,*6C
06/02/2014	00:04:37.577	$GPGGA,000446,2446.4347,N,07950.3437,W,1,10,1.8,19,M,,M,,*6E
06/02/2014	00:04:38.677	$GPGGA,000447,2446.4350,N,07950.3432,W,1,10,1.8,19,M,,M,,*6C
06/02/2014	00:04:39.577	$GPGGA,000448,2446.4355,N,07950.3427,W,1,10,1.8,19,M,,M,,*62
06/02/2014	00:04:40.558	$GPGGA,000449,2446.4355,N,07950.3422,W,1,9,2.2,19,M,,M,,*57
06/02/2014	00:04:41.658	$GPGGA,000450,2446.4358,N,07950.3417,W,1,9,1.8,19,M,,M,,*5D
06/02/2014	00:04:42.689	$GPGGA,000451,2446.4362,N,07950.3413,W,1,10,1.8,19,M,,M,,*69
06/02/2014	00:04:43.677	$GPGGA,000452,2446.4366,N,07950.3407,W,1,10,1.8,19,M,,M,,*6B
06/02/2014	00:04:44.677	$GPGGA,000453,2446.4370,N,07950.3401,W,1,10,1.8,19,M,,M,,*6B
06/02/2014	00:04:45.658	$GPGGA,000454,2446.4373,N,07950.3397,W,1,10,2.2,19,M,,M,,*6E
06/02/2014	00:04:46.659	$GPGGA,000455,2446.4377,N,07950.3392,W,1,9,2.2,19,M,,M,,*56
06/02/2014	00:04:47.678	$GPGGA,000456,2446.4380,N,07950.3387,W,1,9,1.8,19,M,,M,,*50
06/02/2014	00:04:48.668	$GPGGA,000457,2446.4381,N,07950.3382,W,1,10,1.8,19,M,,M,,*6D
06/02/2014	00:04:49.638	$GPGGA,000458,2446.4384,N,07950.3376,W,1,10,1.8,19,M,,M,,*6C
06/02/2014	00:04:50.659	$GPGGA,000459,2446.4388,N,07950.3371,W,1,10,1.8,20,M,,M,,*6C
06/02/2014	00:04:51.669	$GPGGA,000500,2446.4391,N,07950.3366,W,1,10,1.8,20,M,,M,,*6F
06/02/2014	00:04:52.629	$GPGGA,000501,2446.4393,N,07950.3361,W,1,10,1.8,20,M,,M,,*6B
06/02/2014	00:04:53.639	$GPGGA,000502,2446.4397,N,07950.3355,W,1,10,1.8,20,M,,M,,*6B
06/02/2014	00:04:54.669	$GPGGA,000503,2446.4399,N,07950.3349,W,1,10,1.8,20,M,,M,,*69
06/02/2014	00:04:55.650	$GPGGA,000504,2446.4404,N,07950.3343,W,1,10,1.8,20,M,,M,,*67
06/02/2014	00:04:56.651	$GPGGA,000505,2446.4408,N,07950.3337,W,1,10,1.8,20,M,,M,,*69
06/02/2014	00:04:57.640	$GPGGA,000506,2446.4412,N,07950.3332,W,1,10,1.8,20,M,,M,,*64
06/02/2014	00:04:58.640	$GPGGA,000507,2446.4413,N,07950.3325,W,1,10,1.8,20,M,,M,,*62
06/02/2014	00:04:59.650	$GPGGA,000508,2446.4417,N,07950.3320,W,1,10,1.8,20,M,,M,,*6C
06/02/2014	00:05:00.660	$GPGGA,000509,2446.4422,N,07950.3315,W,1,10,1.8,20,M,,M,,*6D
06/02/2014	00:05:01.630	$GPGGA,000510,2446.4426,N,07950.3308,W,1,10,1.8,20,M,,M,,*6D
06/02/2014	00:05:02.630	$GPGGA,000511,2446.4427,N,07950.3303,W,1,10,1.8,20,M,,M,,*66
06/02/2014	00:05:03.640	$GPGGA,000512,2446.4431,N,07950.3298,W,1,10,1.8,20,M,,M,,*61
06/02/2014	00:05:04.650	$GPGGA,000513,2446.4435,N,07950.3291,W,1,10,1.8,20,M,,M,,*6D
06/02/2014	00:05:05.631	$GPGGA,000514,2446.4440,N,07950.3286,W,1,10,1.8,20,M,,M,,*6E
06/02/2014	00:05:06.651	$GPGGA,000515,2446.4444,N,07950.3281,W,1,10,1.8,20,M,,M,,*6C
06/02/2014	00:05:07.631	$GPGGA,000516,2446.4446,N,07950.3274,W,1,10,1.8,19,M,,M,,*6D
06/02/2014	00:05:08.651	$GPGGA,000517,2446.4451,N,07950.3268,W,1,10,1.8,19,M,,M,,*67
06/02/2014	00:05:09.621	$GPGGA,000518,2446.4453,N,07950.3263,W,1,10,1.8,19,M,,M,,*61
06/02/2014	00:05:10.602	$GPGGA,000519,2446.4458,N,07950.3258,W,1,10,1.8,19,M,,M,,*63
06/02/2014	00:05:11.622	$GPGGA,000520,2446.4460,N,07950.3252,W,1,10,1.8,19,M,,M,,*68
06/02/2014	00:05:12.712	$GPGGA,000521,2446.4463,N,07950.3248,W,1,10,1.8,19,M,,M,,*61
06/02/2014	00:05:13.608	$GPGGA,000522,2446.4466,N,07950.3243,W,1,10,1.8,19,M,,M,,*6C
06/02/2014	00:05:14.692	$GPGGA,000523,2446.4470,N,07950.3237,W,1,10,1.8,19,M,,M,,*69
06/02/2014	00:05:15.613	$GPGGA,000524,2446.4473,N,07950.3232,W,1,10,1.8,19,M,,M,,*68
06/02/2014	00:05:16.703	$GPGGA,000525,2446.4477,N,07950.3227,W,1,10,1.8,19,M,,M,,*69
06/02/2014	00:05:17.613	$GPGGA,000526,2446.4480,N,07950.3221,W,1,10,1.8,19,M,,M,,*64
06/02/2014	00:05:18.703	$GPGGA,000527,2446.4482,N,07950.3216,W,1,10,1.8,19,M,,M,,*63
06/02/2014	00:05:19.722	$GPGGA,000528,2446.4485,N,07950.3209,W,1,10,1.8,19,M,,M,,*65
06/02/2014	00:05:20.663	$GPGGA,000529,2446.4487,N,07950.3203,W,1,10,2.2,19,M,,M,,*65
06/02/2014	00:05:21.573	$GPGGA,000530,2446.4489,N,07950.3197,W,1,10,1.8,19,M,,M,,*64
06/02/2014	00:05:22.693	$GPGGA,000531,2446.4492,N,07950.3189,W,1,10,1.8,19,M,,M,,*60
06/02/2014	00:05:23.693	$GPGGA,000532,2446.4496,N,07950.3181,W,1,10,2.0,19,M,,M,,*64
06/02/2014	00:05:24.687	$GPGGA,000533,2446.4496,N,07950.3177,W,1,8,1.8,19,M,,M,,*5E
06/02/2014	00:05:25.654	$GPGGA,000534,2446.4496,N,07950.3172,W,1,8,1.8,19,M,,M,,*5C
06/02/2014	00:05:26.654	$GPGGA,000535,2446.4499,N,07950.3163,W,1,10,1.9,19,M,,M,,*6A
06/02/2014	00:05:27.675	$GPGGA,000536,2446.4500,N,07950.3158,W,1,10,1.9,19,M,,M,,*60
06/02/2014	00:05:28.694	$GPGGA,000537,2446.4500,N,07950.3151,W,1,10,1.8,19,M,,M,,*69
06/02/2014	00:05:29.644	$GPGGA,000538,2446.4503,N,07950.3144,W,1,10,1.8,19,M,,M,,*61
06/02/2014	00:05:30.675	$GPGGA,000539,2446.4502,N,07950.3136,W,1,10,1.8,19,M,,M,,*64
06/02/2014	00:05:31.665	$GPGGA,000540,2446.4501,N,07950.3127,W,1,10,1.8,18,M,,M,,*68
06/02/2014	00:05:32.655	$GPGGA,000541,2446.4500,N,07950.3118,W,1,9,1.9,18,M,,M,,*5D
06/02/2014	00:05:33.645	$GPGGA,000542,2446.4500,N,07950.3118,W,1,9,1.9,18,M,,M,,*5E
06/02/2014	00:05:34.636	$GPGGA,000543,2446.4497,N,07950.3100,W,1,9,1.9,18,M,,M,,*59
06/02/2014	00:05:35.655	$GPGGA,000544,2446.4496,N,07950.3090,W,1,9,1.9,18,M,,M,,*57
06/02/2014	00:05:36.625	$GPGGA,000545,2446.4494,N,07950.3080,W,1,9,1.9,18,M,,M,,*55
06/02/2014	00:05:37.625	$GPGGA,000546,2446.4493,N,07950.3071,W,1,9,1.9,18,M,,M,,*5F
06/02/2014	00:05:38.645	$GPGGA,000547,2446.4491,N,07950.3060,W,1,9,1.9,18,M,,M,,*5C
06/02/2014	00:05:39.635	$GPGGA,000548,2446.4489,N,07950.3049,W,1,9,1.9,18,M,,M,,*51
06/02/2014	00:05:40.626	$GPGGA,000549,2446.4486,N,07950.3039,W,1,9,1.9,18,M,,M,,*58
06/02/2014	00:05:41.626	$GPGGA,000550,2446.4484,N,07950.3028,W,1,9,1.9,18,M,,M,,*52
06/02/2014	00:05:42.646	$GPGGA,000551,2446.4482,N,07950.3016,W,1,9,2.0,18,M,,M,,*52
06/02/2014	00:05:43.636	$GPGGA,000552,2446.4479,N,07950.3004,W,1,9,2.0,18,M,,M,,*56
06/02/2014	00:05:44.636	$GPGGA,000553,2446.4478,N,07950.2991,W,1,8,2.0,18,M,,M,,*53
06/02/2014	00:05:45.627	$GPGGA,000554,2446.4475,N,07950.2979,W,1,8,2.0,18,M,,M,,*5F
06/02/2014	00:05:46.607	$GPGGA,000555,2446.4473,N,07950.2967,W,1,8,2.0,18,M,,M,,*57
06/02/2014	00:05:47.627	$GPGGA,000556,2446.4471,N,07950.2955,W,1,8,1.9,18,M,,M,,*5D
06/02/2014	00:05:48.627	$GPGGA,000557,2446.4471,N,07950.2943,W,1,9,1.9,18,M,,M,,*5A
06/02/2014	00:05:49.627	$GPGGA,000558,2446.4471,N,07950.2931,W,1,9,1.9,17,M,,M,,*5F
06/02/2014	00:05:50.638	$GPGGA,000559,2446.4471,N,07950.2919,W,1,9,1.9,17,M,,M,,*54
06/02/2014	00:05:51.628	$GPGGA,000600,2446.4469,N,07950.2906,W,1,9,1.9,17,M,,M,,*5C
06/02/2014	00:05:52.628	$GPGGA,000601,2446.4471,N,07950.2894,W,1,9,1.9,17,M,,M,,*5E
06/02/2014	00:05:53.607	$GPGGA,000602,2446.4469,N,07950.2881,W,1,9,1.9,17,M,,M,,*50
06/02/2014	00:05:54.637	$GPGGA,000603,2446.4470,N,07950.2868,W,1,9,1.9,17,M,,M,,*5E
06/02/2014	00:05:55.618	$GPGGA,000604,2446.4471,N,07950.2855,W,1,9,1.9,17,M,,M,,*56
06/02/2014	00:05:56.588	$GPGGA,000605,2446.4471,N,07950.2841,W,1,9,1.9,17,M,,M,,*52
06/02/2014	00:05:57.588	$GPGGA,000606,2446.4474,N,07950.2827,W,1,9,1.9,17,M,,M,,*54
06/02/2014	00:05:58.598	$GPGGA,000607,2446.4477,N,07950.2813,W,1,9,1.9,17,M,,M,,*51
06/02/2014	00:05:59.598	$GPGGA,000608,2446.4478,N,07950.2799,W,1,9,1.9,17,M,,M,,*5C
06/02/2014	00:06:00.589	$GPGGA,000609,2446.4480,N,07950.2784,W,1,9,1.9,17,M,,M,,*56
06/02/2014	00:06:01.599	$GPGGA,000610,2446.4482,N,07950.2771,W,1,9,1.9,17,M,,M,,*56
06/02/2014	00:06:02.619	$GPGGA,000611,2446.4485,N,07950.2756,W,1,9,1.9,17,M,,M,,*55
06/02/2014	00:06:03.609	$GPGGA,000612,2446.4488,N,07950.2741,W,1,9,1.9,17,M,,M,,*5D
06/02/2014	00:06:04.699	$GPGGA,000613,2446.4491,N,07950.2726,W,1,9,1.9,17,M,,M,,*55
06/02/2014	00:06:05.580	$GPGGA,000614,2446.4493,N,07950.2712,W,1,9,1.9,17,M,,M,,*57
06/02/2014	00:06:06.690	$GPGGA,000615,2446.4498,N,07950.2696,W,1,9,1.9,17,M,,M,,*50
06/02/2014	00:06:07.700	$GPGGA,000616,2446.4500,N,07950.2682,W,1,9,1.9,17,M,,M,,*56
06/02/2014	00:06:08.571	$GPGGA,000617,2446.4505,N,07950.2667,W,1,9,1.9,17,M,,M,,*59
06/02/2014	00:06:09.580	$GPGGA,000618,2446.4510,N,07950.2652,W,1,9,1.9,17,M,,M,,*54
06/02/2014	00:06:10.600	$GPGGA,000619,2446.4514,N,07950.2637,W,1,9,1.9,17,M,,M,,*52
06/02/2014	00:06:11.680	$GPGGA,000620,2446.4518,N,07950.2622,W,1,9,1.9,17,M,,M,,*50
06/02/2014	00:06:12.560	$GPGGA,000621,2446.4523,N,07950.2607,W,1,9,1.9,17,M,,M,,*5E
06/02/2014	00:06:13.570	$GPGGA,000622,2446.4528,N,07950.2591,W,1,9,1.9,17,M,,M,,*5A
06/02/2014	00:06:14.681	$GPGGA,000623,2446.4534,N,07950.2575,W,1,9,1.9,17,M,,M,,*5C
06/02/2014	00:06:15.581	$GPGGA,000624,2446.4539,N,07950.2560,W,1,9,1.9,17,M,,M,,*52
06/02/2014	00:06:16.671	$GPGGA,000625,2446.4545,N,07950.2544,W,1,9,1.9,17,M,,M,,*5E
06/02/2014	00:06:17.651	$GPGGA,000626,2446.4550,N,07950.2528,W,1,9,1.9,17,M,,M,,*53
06/02/2014	00:06:18.661	$GPGGA,000627,2446.4557,N,07950.2511,W,1,9,1.9,17,M,,M,,*5F
06/02/2014	00:06:19.671	$GPGGA,000628,2446.4563,N,07950.2495,W,1,9,1.9,17,M,,M,,*5A
06/02/2014	00:06:20.651	$GPGGA,000629,2446.4568,N,07950.2480,W,1,9,1.9,17,M,,M,,*54
06/02/2014	00:06:21.641	$GPGGA,000630,2446.4576,N,07950.2464,W,1,9,1.9,17,M,,M,,*59
06/02/2014	00:06:22.674	$GPGGA,000631,2446.4581,N,07950.2448,W,1,9,1.9,17,M,,M,,*5E
06/02/2014	00:06:23.641	$GPGGA,000632,2446.4586,N,07950.2431,W,1,9,1.9,17,M,,M,,*54
06/02/2014	00:06:24.651	$GPGGA,000633,2446.4594,N,07950.2415,W,1,9,1.9,17,M,,M,,*50
06/02/2014	00:06:25.632	$GPGGA,000634,2446.4599,N,07950.2399,W,1,9,1.9,17,M,,M,,*59
06/02/2014	00:06:26.632	$GPGGA,000635,2446.4604,N,07950.2382,W,1,9,1.9,17,M,,M,,*55
06/02/2014	00:06:27.642	$GPGGA,000636,2446.4612,N,07950.2365,W,1,9,1.9,17,M,,M,,*58
06/02/2014	00:06:28.641	$GPGGA,000637,2446.4619,N,07950.2348,W,1,9,1.9,17,M,,M,,*5D
06/02/2014	00:06:29.631	$GPGGA,000638,2446.4625,N,07950.2331,W,1,9,1.9,17,M,,M,,*53
06/02/2014	00:06:30.653	$GPGGA,000639,2446.4630,N,07950.2314,W,1,9,1.9,17,M,,M,,*51
06/02/2014	00:06:31.642	$GPGGA,000640,2446.4637,N,07950.2298,W,1,9,1.9,17,M,,M,,*5D
06/02/2014	00:06:32.632	$GPGGA,000641,2446.4644,N,07950.2281,W,1,9,1.9,17,M,,M,,*50
06/02/2014	00:06:33.612	$GPGGA,000642,2446.4650,N,07950.2262,W,1,9,1.9,17,M,,M,,*5B
06/02/2014	00:06:34.612	$GPGGA,000643,2446.4655,N,07950.2245,W,1,9,1.9,17,M,,M,,*5A
06/02/2014	00:06:35.633	$GPGGA,000644,2446.4662,N,07950.2228,W,1,9,1.9,17,M,,M,,*52
06/02/2014	00:06:36.633	$GPGGA,000645,2446.4669,N,07950.2211,W,1,9,1.9,17,M,,M,,*52
06/02/2014	00:06:37.613	$GPGGA,000646,2446.4675,N,07950.2193,W,1,9,1.9,17,M,,M,,*55
06/02/2014	00:06:38.603	$GPGGA,000647,2446.4682,N,07950.2175,W,1,9,1.9,17,M,,M,,*54
06/02/2014	00:06:39.623	$GPGGA,000648,2446.4688,N,07950.2158,W,1,9,1.9,17,M,,M,,*5E
06/02/2014	00:06:40.594	$GPGGA,000649,2446.4695,N,07950.2140,W,1,9,1.9,17,M,,M,,*5A
06/02/2014	00:06:41.604	$GPGGA,000650,2446.4701,N,07950.2122,W,1,9,1.9,17,M,,M,,*5A
06/02/2014	00:06:42.604	$GPGGA,000651,2446.4709,N,07950.2106,W,1,9,1.9,17,M,,M,,*55
06/02/2014	00:06:43.614	$GPGGA,000652,2446.4715,N,07950.2087,W,1,9,1.9,17,M,,M,,*53
06/02/2014	00:06:44.594	$GPGGA,000653,2446.4720,N,07950.2069,W,1,9,1.9,17,M,,M,,*54
06/02/2014	00:06:45.584	$GPGGA,000654,2446.4727,N,07950.2052,W,1,9,1.9,17,M,,M,,*5C
06/02/2014	00:06:46.624	$GPGGA,000655,2446.4735,N,07950.2034,W,1,9,1.9,17,M,,M,,*5E
06/02/2014	00:06:47.614	$GPGGA,000656,2446.4741,N,07950.2016,W,1,9,1.9,17,M,,M,,*5E
06/02/2014	00:06:48.594	$GPGGA,000657,2446.4747,N,07950.1998,W,1,9,1.9,17,M,,M,,*55
06/02/2014	00:06:49.684	$GPGGA,000658,2446.4756,N,07950.1981,W,1,9,1.9,17,M,,M,,*52
06/02/2014	00:06:50.695	$GPGGA,000659,2446.4762,N,07950.1962,W,1,9,1.9,16,M,,M,,*58
06/02/2014	00:06:51.605	$GPGGA,000700,2446.4767,N,07950.1944,W,1,9,1.9,16,M,,M,,*54
06/02/2014	00:06:52.595	$GPGGA,000701,2446.4774,N,07950.1927,W,1,9,1.9,16,M,,M,,*52
06/02/2014	00:06:53.575	$GPGGA,000702,2446.4781,N,07950.1908,W,1,9,1.9,16,M,,M,,*56
06/02/2014	00:06:54.695	$GPGGA,000703,2446.4789,N,07950.1891,W,1,9,1.9,16,M,,M,,*5E
06/02/2014	00:06:55.596	$GPGGA,000704,2446.4796,N,07950.1874,W,1,9,1.9,16,M,,M,,*5C
06/02/2014	00:06:56.596	$GPGGA,000705,2446.4803,N,07950.1855,W,1,9,1.9,16,M,,M,,*5D
06/02/2014	00:06:57.606	$GPGGA,000706,2446.4811,N,07950.1839,W,1,9,1.9,16,M,,M,,*57
06/02/2014	00:06:58.566	$GPGGA,000707,2446.4818,N,07950.1821,W,1,9,1.9,16,M,,M,,*56
06/02/2014	00:06:59.676	$GPGGA,000708,2446.4825,N,07950.1803,W,1,9,1.9,16,M,,M,,*57
06/02/2014	00:07:00.689	$GPGGA,000709,2446.4834,N,07950.1788,W,1,9,1.9,16,M,,M,,*5A
06/02/2014	00:07:01.568	$GPGGA,000710,2446.4841,N,07950.1769,W,1,9,1.9,16,M,,M,,*5F
06/02/2014	00:07:02.697	$GPGGA,000711,2446.4846,N,07950.1751,W,1,9,1.9,16,M,,M,,*52
06/02/2014	00:07:03.576	$GPGGA,000712,2446.4854,N,07950.1735,W,1,9,1.9,16,M,,M,,*50
06/02/2014	00:07:04.657	$GPGGA,000713,2446.4863,N,07950.1717,W,1,9,1.9,16,M,,M,,*55
06/02/2014	00:07:05.557	$GPGGA,000714,2446.4868,N,07950.1697,W,1,9,1.9,16,M,,M,,*50
06/02/2014	00:07:06.677	$GPGGA,000715,2446.4875,N,07950.1681,W,1,9,1.9,16,M,,M,,*5A
06/02/2014	00:07:07.668	$GPGGA,000716,2446.4885,N,07950.1663,W,1,9,1.9,16,M,,M,,*5A
06/02/2014	00:07:08.648	$GPGGA,000717,2446.4892,N,07950.1645,W,1,9,1.9,16,M,,M,,*59
06/02/2014	00:07:09.658	$GPGGA,000718,2446.4897,N,07950.1628,W,1,9,1.9,16,M,,M,,*58
06/02/2014	00:07:10.668	$GPGGA,000719,2446.4904,N,07950.1610,W,1,9,1.9,16,M,,M,,*59
06/02/2014	00:07:11.649	$GPGGA,000720,2446.4912,N,07950.1592,W,1,9,1.9,16,M,,M,,*5D
06/02/2014	00:07:12.699	$GPGGA,000721,2446.4918,N,07950.1573,W,1,9,1.9,16,M,,M,,*59
06/02/2014	00:07:13.629	$GPGGA,000722,2446.4924,N,07950.1554,W,1,9,1.9,16,M,,M,,*50
06/02/2014	00:07:14.660	$GPGGA,000723,2446.4932,N,07950.1536,W,1,9,1.9,16,M,,M,,*52
06/02/2014	00:07:15.650	$GPGGA,000724,2446.4939,N,07950.1518,W,1,9,1.9,16,M,,M,,*52
06/02/2014	00:07:16.630	$GPGGA,000725,2446.4944,N,07950.1498,W,1,9,1.9,15,M,,M,,*53
06/02/2014	00:07:17.671	$GPGGA,000726,2446.4951,N,07950.1481,W,1,9,1.9,15,M,,M,,*5C
06/02/2014	00:07:18.651	$GPGGA,000727,2446.4958,N,07950.1462,W,1,9,1.9,15,M,,M,,*59
06/02/2014	00:07:19.641	$GPGGA,000728,2446.4964,N,07950.1443,W,1,9,1.9,15,M,,M,,*5A
06/02/2014	00:07:20.619	$GPGGA,000729,2446.4971,N,07950.1426,W,1,9,1.9,15,M,,M,,*5C
06/02/2014	00:07:21.609	$GPGGA,000730,2446.4977,N,07950.1406,W,1,9,1.9,15,M,,M,,*50
06/02/2014	00:07:22.659	$GPGGA,000731,2446.4983,N,07950.1388,W,1,9,1.9,15,M,,M,,*5B
06/02/2014	00:07:23.629	$GPGGA,000732,2446.4988,N,07950.1369,W,1,9,1.9,15,M,,M,,*5C
06/02/2014	00:07:24.640	$GPGGA,000733,2446.4995,N,07950.1350,W,1,9,1.9,15,M,,M,,*5B
06/02/2014	00:07:25.600	$GPGGA,000734,2446.5002,N,07950.1332,W,1,9,1.9,15,M,,M,,*5E
06/02/2014	00:07:26.600	$GPGGA,000735,2446.5008,N,07950.1312,W,1,9,1.9,15,M,,M,,*57
06/02/2014	00:07:27.621	$GPGGA,000736,2446.5013,N,07950.1294,W,1,9,1.9,15,M,,M,,*51
06/02/2014	00:07:28.611	$GPGGA,000737,2446.5020,N,07950.1276,W,1,9,1.9,15,M,,M,,*5C
06/02/2014	00:07:29.611	$GPGGA,000738,2446.5024,N,07950.1255,W,1,9,1.9,15,M,,M,,*56
06/02/2014	00:07:30.592	$GPGGA,000739,2446.5031,N,07950.1238,W,1,9,1.9,15,M,,M,,*58
06/02/2014	00:07:31.612	$GPGGA,000740,2446.5037,N,07950.1219,W,1,9,1.9,15,M,,M,,*53
06/02/2014	00:07:32.592	$GPGGA,000741,2446.5042,N,07950.1199,W,1,9,1.9,15,M,,M,,*5B
06/02/2014	00:07:34.983	$GPGGA,000743,2446.5052,N,07950.1163,W,1,9,1.9,15,M,,M,,*5D
06/02/2014	00:07:35.593	$GPGGA,000744,2446.5059,N,07950.1145,W,1,9,1.9,15,M,,M,,*55
06/02/2014	00:07:36.613	$GPGGA,000745,2446.5065,N,07950.1126,W,1,9,1.9,15,M,,M,,*5E
06/02/2014	00:07:37.594	$GPGGA,000746,2446.5070,N,07950.1107,W,1,9,1.9,15,M,,M,,*5A
06/02/2014	00:07:38.583	$GPGGA,000747,2446.5076,N,07950.1090,W,1,9,1.9,15,M,,M,,*52
06/02/2014	00:07:39.603	$GPGGA,000748,2446.5081,N,07950.1072,W,1,9,1.9,15,M,,M,,*59
06/02/2014	00:07:40.684	$GPGGA,000749,2446.5088,N,07950.1053,W,1,9,1.9,15,M,,M,,*52
06/02/2014	00:07:41.574	$GPGGA,000750,2446.5094,N,07950.1036,W,1,9,1.9,15,M,,M,,*54
06/02/2014	00:07:42.584	$GPGGA,000751,2446.5099,N,07950.1018,W,1,9,1.9,15,M,,M,,*54
06/02/2014	00:07:43.724	$GPGGA,000752,2446.5106,N,07950.1001,W,1,9,1.9,15,M,,M,,*58
06/02/2014	00:07:44.565	$GPGGA,000753,2446.5112,N,07950.0984,W,1,9,1.9,15,M,,M,,*59
06/02/2014	00:07:45.705	$GPGGA,000754,2446.5118,N,07950.0966,W,1,9,1.9,14,M,,M,,*59
06/02/2014	00:07:46.565	$GPGGA,000755,2446.5125,N,07950.0949,W,1,9,1.9,14,M,,M,,*5B
06/02/2014	00:07:47.676	$GPGGA,000756,2446.5132,N,07950.0932,W,1,9,1.9,14,M,,M,,*52
06/02/2014	00:07:48.586	$GPGGA,000757,2446.5136,N,07950.0915,W,1,9,1.9,14,M,,M,,*52
06/02/2014	00:07:49.566	$GPGGA,000758,2446.5143,N,07950.0899,W,1,9,1.9,14,M,,M,,*5A
06/02/2014	00:07:50.567	$GPGGA,000759,2446.5150,N,07950.0881,W,1,9,1.9,14,M,,M,,*50
06/02/2014	00:07:51.717	$GPGGA,000800,2446.5157,N,07950.0864,W,1,9,1.9,14,M,,M,,*5F
06/02/2014	00:07:52.777	$GPGGA,000801,2446.5163,N,07950.0848,W,1,9,1.9,14,M,,M,,*57
06/02/2014	00:07:53.567	$GPGGA,000802,2446.5170,N,07950.0830,W,1,9,1.9,14,M,,M,,*59
06/02/2014	00:07:54.649	$GPGGA,000803,2446.5178,N,07950.0815,W,1,9,1.9,14,M,,M,,*57
06/02/2014	00:07:55.707	$GPGGA,000804,2446.5185,N,07950.0799,W,1,9,1.9,14,M,,M,,*59
06/02/2014	00:07:56.747	$GPGGA,000805,2446.5190,N,07950.0781,W,1,9,1.9,14,M,,M,,*55
06/02/2014	00:07:57.648	$GPGGA,000806,2446.5199,N,07950.0767,W,1,9,1.9,14,M,,M,,*57
06/02/2014	00:07:58.738	$GPGGA,000807,2446.5207,N,07950.0752,W,1,9,1.9,14,M,,M,,*54
06/02/2014	00:07:59.688	$GPGGA,000808,2446.5211,N,07950.0735,W,1,9,1.9,14,M,,M,,*5D
06/02/2014	00:08:00.749	$GPGGA,000809,2446.5218,N,07950.0721,W,1,9,1.9,14,M,,M,,*50
06/02/2014	00:08:01.669	$GPGGA,000810,2446.5226,N,07950.0708,W,1,9,1.9,14,M,,M,,*5E
06/02/2014	00:08:02.739	$GPGGA,000811,2446.5233,N,07950.0691,W,1,9,1.9,14,M,,M,,*5A
06/02/2014	00:08:03.699	$GPGGA,000812,2446.5240,N,07950.0679,W,1,9,1.9,14,M,,M,,*5B
06/02/2014	00:08:04.700	$GPGGA,000813,2446.5247,N,07950.0666,W,1,9,1.9,14,M,,M,,*53
06/02/2014	00:08:05.630	$GPGGA,000814,2446.5254,N,07950.0650,W,1,9,1.9,14,M,,M,,*53
06/02/2014	00:08:06.630	$GPGGA,000815,2446.5262,N,07950.0639,W,1,9,1.9,14,M,,M,,*58
06/02/2014	00:08:07.701	$GPGGA,000816,2446.5269,N,07950.0627,W,1,9,2.4,14,M,,M,,*51
06/02/2014	00:08:08.741	$GPGGA,000817,2446.5275,N,07950.0613,W,1,8,2.4,14,M,,M,,*5B
06/02/2014	00:08:09.621	$GPGGA,000818,2446.5280,N,07950.0602,W,1,8,1.9,14,M,,M,,*50
06/02/2014	00:08:10.732	$GPGGA,000819,2446.5287,N,07950.0589,W,1,9,1.9,14,M,,M,,*57
06/02/2014	00:08:11.662	$GPGGA,000820,2446.5294,N,07950.0576,W,1,9,1.9,14,M,,M,,*5F
06/02/2014	00:08:12.712	$GPGGA,000821,2446.5298,N,07950.0565,W,1,8,1.9,14,M,,M,,*51
06/02/2014	00:08:13.621	$GPGGA,000822,2446.5308,N,07950.0551,W,1,8,1.9,14,M,,M,,*5D
06/02/2014	00:08:14.732	$GPGGA,000823,2446.5316,N,07950.0538,W,1,9,1.9,14,M,,M,,*5D
06/02/2014	00:08:15.652	$GPGGA,000824,2446.5323,N,07950.0526,W,1,9,1.9,14,M,,M,,*53
06/02/2014	00:08:16.612	$GPGGA,000825,2446.5330,N,07950.0512,W,1,9,1.9,14,M,,M,,*57
06/02/2014	00:08:17.643	$GPGGA,000826,2446.5338,N,07950.0498,W,1,9,1.9,14,M,,M,,*5F
06/02/2014	00:08:18.713	$GPGGA,000827,2446.5342,N,07950.0486,W,1,9,1.9,14,M,,M,,*5C
06/02/2014	00:08:19.653	$GPGGA,000828,2446.5349,N,07950.0472,W,1,9,1.9,14,M,,M,,*53
06/02/2014	00:08:20.667	$GPGGA,000829,2446.5356,N,07950.0458,W,1,9,1.9,14,M,,M,,*54
06/02/2014	00:08:21.587	$GPGGA,000830,2446.5363,N,07950.0444,W,1,9,1.9,14,M,,M,,*57
06/02/2014	00:08:22.707	$GPGGA,000831,2446.5369,N,07950.0431,W,1,10,1.5,14,M,,M,,*6A
06/02/2014	00:08:23.597	$GPGGA,000832,2446.5374,N,07950.0416,W,1,10,1.5,14,M,,M,,*60
06/02/2014	00:08:24.698	$GPGGA,000833,2446.5381,N,07950.0402,W,1,10,1.5,14,M,,M,,*6E
06/02/2014	00:08:25.608	$GPGGA,000834,2446.5388,N,07950.0390,W,1,10,1.5,14,M,,M,,*6C
06/02/2014	00:08:26.708	$GPGGA,000835,2446.5394,N,07950.0375,W,1,10,1.5,14,M,,M,,*6B
06/02/2014	00:08:27.589	$GPGGA,000836,2446.5401,N,07950.0363,W,1,10,1.5,14,M,,M,,*64
06/02/2014	00:08:28.670	$GPGGA,000837,2446.5406,N,07950.0351,W,1,10,1.5,14,M,,M,,*63
06/02/2014	00:08:29.569	$GPGGA,000838,2446.5413,N,07950.0336,W,1,10,1.5,14,M,,M,,*69
06/02/2014	00:08:30.569	$GPGGA,000839,2446.5419,N,07950.0324,W,1,10,1.5,14,M,,M,,*61
06/02/2014	00:08:31.709	$GPGGA,000840,2446.5425,N,07950.0312,W,1,10,1.5,14,M,,M,,*65
06/02/2014	00:08:32.649	$GPGGA,000841,2446.5432,N,07950.0298,W,1,10,1.9,14,M,,M,,*6D
06/02/2014	00:08:33.669	$GPGGA,000842,2446.5438,N,07950.0287,W,1,10,1.5,14,M,,M,,*66
06/02/2014	00:08:34.710	$GPGGA,000843,2446.5445,N,07950.0275,W,1,10,1.5,14,M,,M,,*60
06/02/2014	00:08:35.630	$GPGGA,000844,2446.5452,N,07950.0261,W,1,10,1.5,15,M,,M,,*65
06/02/2014	00:08:36.650	$GPGGA,000845,2446.5457,N,07950.0252,W,1,10,1.5,15,M,,M,,*61
06/02/2014	00:08:37.591	$GPGGA,000846,2446.5464,N,07950.0239,W,1,10,1.5,15,M,,M,,*6F
06/02/2014	00:08:38.651	$GPGGA,000847,2446.5471,N,07950.0227,W,1,10,1.5,15,M,,M,,*65
06/02/2014	00:08:39.671	$GPGGA,000848,2446.5478,N,07950.0217,W,1,10,1.5,15,M,,M,,*60
06/02/2014	00:08:40.702	$GPGGA,000849,2446.5484,N,07950.0205,W,1,10,1.5,15,M,,M,,*61
06/02/2014	00:08:41.652	$GPGGA,000850,2446.5490,N,07950.0193,W,1,10,1.5,15,M,,M,,*60
06/02/2014	00:08:42.682	$GPGGA,000851,2446.5497,N,07950.0183,W,1,10,1.5,15,M,,M,,*67
06/02/2014	00:08:43.674	$GPGGA,000852,2446.5504,N,07950.0173,W,1,10,1.5,15,M,,M,,*60
06/02/2014	00:08:44.683	$GPGGA,000853,2446.5510,N,07950.0161,W,1,10,1.9,15,M,,M,,*6B
06/02/2014	00:08:45.653	$GPGGA,000854,2446.5515,N,07950.0151,W,1,10,1.5,15,M,,M,,*66
06/02/2014	00:08:46.653	$GPGGA,000855,2446.5522,N,07950.0141,W,1,10,1.5,15,M,,M,,*62
06/02/2014	00:08:47.664	$GPGGA,000856,2446.5529,N,07950.0130,W,1,10,1.5,15,M,,M,,*6C
06/02/2014	00:08:48.653	$GPGGA,000857,2446.5535,N,07950.0119,W,1,10,1.5,15,M,,M,,*6B
06/02/2014	00:08:49.643	$GPGGA,000858,2446.5540,N,07950.0110,W,1,10,1.5,15,M,,M,,*6F
06/02/2014	00:08:50.654	$GPGGA,000859,2446.5547,N,07950.0099,W,1,10,1.5,15,M,,M,,*69
06/02/2014	00:08:51.684	$GPGGA,000900,2446.5551,N,07950.0090,W,1,10,1.9,15,M,,M,,*66
06/02/2014	00:08:52.654	$GPGGA,000901,2446.5557,N,07950.0080,W,1,9,1.9,15,M,,M,,*58
06/02/2014	00:08:53.624	$GPGGA,000902,2446.5562,N,07950.0070,W,1,9,1.5,15,M,,M,,*5E
06/02/2014	00:08:54.705	$GPGGA,000903,2446.5569,N,07950.0061,W,1,10,1.5,15,M,,M,,*6C
06/02/2014	00:08:55.645	$GPGGA,000904,2446.5573,N,07950.0050,W,1,10,1.5,15,M,,M,,*62
06/02/2014	00:08:56.715	$GPGGA,000905,2446.5578,N,07950.0039,W,1,10,1.5,15,M,,M,,*67
06/02/2014	00:08:57.636	$GPGGA,000906,2446.5582,N,07950.0030,W,1,10,1.5,15,M,,M,,*68
06/02/2014	00:08:58.716	$GPGGA,000907,2446.5582,N,07950.0030,W,1,10,1.5,15,M,,M,,*69
06/02/2014	00:08:59.646	$GPGGA,000908,2446.5591,N,07950.0009,W,1,10,1.5,15,M,,M,,*6E
06/02/2014	00:09:00.637	$GPGGA,000909,2446.5591,N,07950.0009,W,1,10,1.5,15,M,,M,,*6F
06/02/2014	00:09:01.617	$GPGGA,000910,2446.5600,N,07949.9992,W,1,10,1.6,15,M,,M,,*65
06/02/2014	00:09:02.647	$GPGGA,000911,2446.5605,N,07949.9983,W,1,9,1.5,15,M,,M,,*5A
06/02/2014	00:09:03.637	$GPGGA,000912,2446.5609,N,07949.9975,W,1,9,1.5,15,M,,M,,*5C
06/02/2014	00:09:04.668	$GPGGA,000913,2446.5612,N,07949.9967,W,1,10,1.7,15,M,,M,,*6E
06/02/2014	00:09:05.617	$GPGGA,000914,2446.5618,N,07949.9958,W,1,10,2.4,15,M,,M,,*6F
06/02/2014	00:09:06.657	$GPGGA,000915,2446.5620,N,07949.9950,W,1,8,1.7,15,M,,M,,*54
06/02/2014	00:09:07.618	$GPGGA,000916,2446.5625,N,07949.9943,W,1,8,1.7,15,M,,M,,*50
06/02/2014	00:09:08.608	$GPGGA,000917,2446.5630,N,07949.9935,W,1,9,2.4,15,M,,M,,*55
06/02/2014	00:09:09.608	$GPGGA,000918,2446.5631,N,07949.9929,W,1,9,1.9,16,M,,M,,*5B
06/02/2014	00:09:10.609	$GPGGA,000919,2446.5631,N,07949.9929,W,1,9,1.9,16,M,,M,,*5A
06/02/2014	00:09:11.619	$GPGGA,000920,2446.5634,N,07949.9914,W,1,9,1.9,16,M,,M,,*5B
06/02/2014	00:09:12.609	$GPGGA,000921,2446.5634,N,07949.9914,W,1,9,1.9,16,M,,M,,*5A
06/02/2014	00:09:13.609	$GPGGA,000922,2446.5637,N,07949.9907,W,1,9,1.9,16,M,,M,,*58
06/02/2014	00:09:14.650	$GPGGA,000923,2446.5636,N,07949.9899,W,1,8,2.4,16,M,,M,,*51
06/02/2014	00:09:15.610	$GPGGA,000924,2446.5636,N,07949.9899,W,1,8,2.4,16,M,,M,,*56
06/02/2014	00:09:16.620	$GPGGA,000925,2446.5643,N,07949.9894,W,1,9,1.9,16,M,,M,,*57
06/02/2014	00:09:17.601	$GPGGA,000926,2446.5643,N,07949.9890,W,1,9,1.7,17,M,,M,,*5F
06/02/2014	00:09:18.601	$GPGGA,000927,2446.5643,N,07949.9890,W,1,9,1.7,17,M,,M,,*5E
06/02/2014	00:09:19.711	$GPGGA,000928,2446.5643,N,07949.9879,W,1,9,1.7,17,M,,M,,*56
06/02/2014	00:09:20.696	$GPGGA,000929,2446.5644,N,07949.9872,W,1,10,1.5,17,M,,M,,*61
06/02/2014	00:09:21.579	$GPGGA,000930,2446.5643,N,07949.9865,W,1,10,1.5,17,M,,M,,*68
06/02/2014	00:09:22.686	$GPGGA,000931,2446.5645,N,07949.9857,W,1,10,1.5,18,M,,M,,*61
06/02/2014	00:09:23.581	$GPGGA,000932,2446.5645,N,07949.9848,W,1,10,1.5,18,M,,M,,*6C
06/02/2014	00:09:24.676	$GPGGA,000933,2446.5645,N,07949.9840,W,1,10,1.5,18,M,,M,,*65
06/02/2014	00:09:25.556	$GPGGA,000934,2446.5648,N,07949.9833,W,1,10,1.5,18,M,,M,,*6B
06/02/2014	00:09:26.676	$GPGGA,000935,2446.5649,N,07949.9825,W,1,9,1.9,18,M,,M,,*58
06/02/2014	00:09:27.577	$GPGGA,000936,2446.5651,N,07949.9818,W,1,9,1.9,18,M,,M,,*5C
06/02/2014	00:09:28.567	$GPGGA,000937,2446.5652,N,07949.9811,W,1,9,1.9,18,M,,M,,*57
06/02/2014	00:09:29.647	$GPGGA,000938,2446.5654,N,07949.9803,W,1,9,1.9,18,M,,M,,*5D
06/02/2014	00:09:30.688	$GPGGA,000939,2446.5649,N,07949.9790,W,1,9,1.9,19,M,,M,,*54
06/02/2014	00:09:31.658	$GPGGA,000940,2446.5649,N,07949.9782,W,1,9,1.5,19,M,,M,,*55
06/02/2014	00:09:32.638	$GPGGA,000941,2446.5648,N,07949.9772,W,1,10,1.5,19,M,,M,,*62
06/02/2014	00:09:33.638	$GPGGA,000942,2446.5648,N,07949.9763,W,1,10,1.5,19,M,,M,,*61
06/02/2014	00:09:34.649	$GPGGA,000943,2446.5647,N,07949.9755,W,1,10,1.5,19,M,,M,,*6A
06/02/2014	00:09:35.659	$GPGGA,000944,2446.5646,N,07949.9746,W,1,10,1.5,19,M,,M,,*6E
06/02/2014	00:09:36.649	$GPGGA,000945,2446.5648,N,07949.9737,W,1,10,1.5,19,M,,M,,*67
06/02/2014	00:09:37.640	$GPGGA,000946,2446.5648,N,07949.9729,W,1,10,1.5,19,M,,M,,*6B
06/02/2014	00:09:38.660	$GPGGA,000947,2446.5647,N,07949.9721,W,1,10,1.5,19,M,,M,,*6D
06/02/2014	00:09:39.640	$GPGGA,000948,2446.5648,N,07949.9714,W,1,10,1.5,19,M,,M,,*6B
06/02/2014	00:09:40.650	$GPGGA,000949,2446.5649,N,07949.9706,W,1,9,1.9,19,M,,M,,*5C
06/02/2014	00:09:41.640	$GPGGA,000950,2446.5649,N,07949.9699,W,1,9,1.9,19,M,,M,,*53
06/02/2014	00:09:42.650	$GPGGA,000951,2446.5649,N,07949.9692,W,1,9,1.9,19,M,,M,,*59
06/02/2014	00:09:43.640	$GPGGA,000952,2446.5649,N,07949.9684,W,1,9,1.9,19,M,,M,,*5D
06/02/2014	00:09:44.651	$GPGGA,000953,2446.5651,N,07949.9676,W,1,9,1.9,19,M,,M,,*58
06/02/2014	00:09:45.621	$GPGGA,000954,2446.5649,N,07949.9669,W,1,9,1.9,19,M,,M,,*58
06/02/2014	00:09:46.621	$GPGGA,000955,2446.5647,N,07949.9659,W,1,10,1.5,19,M,,M,,*60
06/02/2014	00:09:47.632	$GPGGA,000956,2446.5648,N,07949.9651,W,1,10,1.5,19,M,,M,,*64
06/02/2014	00:09:48.612	$GPGGA,000957,2446.5648,N,07949.9644,W,1,9,1.9,19,M,,M,,*55
06/02/2014	00:09:49.622	$GPGGA,000958,2446.5646,N,07949.9635,W,1,9,1.5,19,M,,M,,*5E
06/02/2014	00:09:50.623	$GPGGA,000959,2446.5647,N,07949.9626,W,1,10,1.5,19,M,,M,,*64
06/02/2014	00:09:51.643	$GPGGA,001000,2446.5648,N,07949.9618,W,1,10,1.5,19,M,,M,,*62
06/02/2014	00:09:52.613	$GPGGA,001001,2446.5645,N,07949.9611,W,1,10,1.5,19,M,,M,,*67
06/02/2014	00:09:53.603	$GPGGA,001002,2446.5643,N,07949.9602,W,1,10,1.7,19,M,,M,,*62
06/02/2014	00:09:54.604	$GPGGA,001003,2446.5644,N,07949.9595,W,1,9,1.7,20,M,,M,,*5B
06/02/2014	00:09:55.614	$GPGGA,001004,2446.5642,N,07949.9586,W,1,9,1.7,20,M,,M,,*58
06/02/2014	00:09:56.594	$GPGGA,001005,2446.5641,N,07949.9579,W,1,8,2.1,20,M,,M,,*5E
06/02/2014	00:09:57.605	$GPGGA,001006,2446.5638,N,07949.9576,W,1,8,2.1,20,M,,M,,*5C
06/02/2014	00:09:58.645	$GPGGA,001007,2446.5640,N,07949.9567,W,1,9,1.7,20,M,,M,,*56
06/02/2014	00:09:59.604	$GPGGA,001008,2446.5638,N,07949.9567,W,1,9,2.1,20,M,,M,,*53
06/02/2014	00:10:00.595	$GPGGA,001009,2446.5638,N,07949.9559,W,1,9,1.7,20,M,,M,,*5A
06/02/2014	00:10:01.605	$GPGGA,001010,2446.5640,N,07949.9549,W,1,9,2.4,21,M,,M,,*5D
06/02/2014	00:10:02.585	$GPGGA,001011,2446.5641,N,07949.9541,W,1,7,3.1,21,M,,M,,*5F
06/02/2014	00:10:03.725	$GPGGA,001012,2446.5641,N,07949.9530,W,1,7,1.9,21,M,,M,,*50
06/02/2014	00:10:04.606	$GPGGA,001013,2446.5644,N,07949.9519,W,1,9,1.9,21,M,,M,,*51
06/02/2014	00:10:05.686	$GPGGA,001014,2446.5643,N,07949.9511,W,1,9,1.6,21,M,,M,,*56
06/02/2014	00:10:06.686	$GPGGA,001015,2446.5645,N,07949.9503,W,1,8,1.6,21,M,,M,,*53
06/02/2014	00:10:07.607	$GPGGA,001016,2446.5645,N,07949.9494,W,1,8,1.5,21,M,,M,,*5C
06/02/2014	00:10:08.577	$GPGGA,001017,2446.5645,N,07949.9485,W,1,9,1.9,21,M,,M,,*50
06/02/2014	00:10:09.677	$GPGGA,001018,2446.5648,N,07949.9477,W,1,9,1.9,21,M,,M,,*5F
06/02/2014	00:10:10.568	$GPGGA,001019,2446.5651,N,07949.9468,W,1,9,1.9,22,M,,M,,*5B
06/02/2014	00:10:11.708	$GPGGA,001020,2446.5649,N,07949.9456,W,1,9,1.9,22,M,,M,,*55
06/02/2014	00:10:12.678	$GPGGA,001021,2446.5652,N,07949.9449,W,1,10,1.5,22,M,,M,,*64
06/02/2014	00:10:13.568	$GPGGA,001022,2446.5654,N,07949.9440,W,1,10,1.9,22,M,,M,,*64
06/02/2014	00:10:14.670	$GPGGA,001023,2446.5656,N,07949.9431,W,1,9,1.9,22,M,,M,,*59
06/02/2014	00:10:15.698	$GPGGA,001024,2446.5656,N,07949.9423,W,1,9,1.9,22,M,,M,,*5D
06/02/2014	00:10:16.698	$GPGGA,001025,2446.5659,N,07949.9415,W,1,9,1.9,22,M,,M,,*56
06/02/2014	00:10:17.570	$GPGGA,001026,2446.5661,N,07949.9406,W,1,9,1.9,22,M,,M,,*5C
06/02/2014	00:10:18.579	$GPGGA,001027,2446.5663,N,07949.9397,W,1,9,1.9,22,M,,M,,*50
06/02/2014	00:10:19.669	$GPGGA,001028,2446.5665,N,07949.9388,W,1,9,1.9,22,M,,M,,*57
06/02/2014	00:10:20.564	$GPGGA,001029,2446.5666,N,07949.9379,W,1,9,1.9,21,M,,M,,*58
06/02/2014	00:10:21.544	$GPGGA,001030,2446.5669,N,07949.9370,W,1,9,2.4,21,M,,M,,*58
06/02/2014	00:10:22.664	$GPGGA,001031,2446.5667,N,07949.9362,W,1,8,2.4,21,M,,M,,*55
06/02/2014	00:10:23.644	$GPGGA,001032,2446.5667,N,07949.9353,W,1,8,1.9,21,M,,M,,*5A
06/02/2014	00:10:24.635	$GPGGA,001033,2446.5670,N,07949.9345,W,1,9,1.9,21,M,,M,,*5B
06/02/2014	00:10:25.635	$GPGGA,001034,2446.5672,N,07949.9337,W,1,9,2.4,21,M,,M,,*55
06/02/2014	00:10:26.645	$GPGGA,001035,2446.5673,N,07949.9326,W,1,8,2.4,21,M,,M,,*54
06/02/2014	00:10:27.646	$GPGGA,001036,2446.5677,N,07949.9318,W,1,8,1.9,21,M,,M,,*50
06/02/2014	00:10:28.677	$GPGGA,001037,2446.5680,N,07949.9310,W,1,8,2.4,21,M,,M,,*5F
06/02/2014	00:10:29.616	$GPGGA,001038,2446.5681,N,07949.9300,W,1,8,2.4,21,M,,M,,*50
06/02/2014	00:10:30.627	$GPGGA,001039,2446.5684,N,07949.9291,W,1,8,2.4,21,M,,M,,*5D
06/02/2014	00:10:31.637	$GPGGA,001040,2446.5685,N,07949.9282,W,1,8,2.4,21,M,,M,,*50
06/02/2014	00:10:32.637	$GPGGA,001041,2446.5688,N,07949.9272,W,1,8,2.4,21,M,,M,,*53
06/02/2014	00:10:33.626	$GPGGA,001042,2446.5688,N,07949.9263,W,1,8,2.4,21,M,,M,,*50
06/02/2014	00:10:34.637	$GPGGA,001043,2446.5692,N,07949.9254,W,1,9,1.7,21,M,,M,,*5F
06/02/2014	00:10:35.637	$GPGGA,001044,2446.5692,N,07949.9243,W,1,9,1.7,21,M,,M,,*5E
06/02/2014	00:10:36.627	$GPGGA,001045,2446.5695,N,07949.9235,W,1,9,1.7,21,M,,M,,*59
06/02/2014	00:10:37.608	$GPGGA,001046,2446.5699,N,07949.9225,W,1,9,2.4,21,M,,M,,*57
06/02/2014	00:10:38.648	$GPGGA,001047,2446.5702,N,07949.9216,W,1,8,2.4,21,M,,M,,*54
06/02/2014	00:10:39.628	$GPGGA,001048,2446.5703,N,07949.9207,W,1,8,2.4,21,M,,M,,*5A
06/02/2014	00:10:40.639	$GPGGA,001049,2446.5705,N,07949.9197,W,1,9,1.7,21,M,,M,,*56
06/02/2014	00:10:41.609	$GPGGA,001050,2446.5708,N,07949.9188,W,1,9,1.7,21,M,,M,,*5D
06/02/2014	00:10:42.599	$GPGGA,001051,2446.5710,N,07949.9179,W,1,9,1.7,21,M,,M,,*5B
06/02/2014	00:10:43.629	$GPGGA,001052,2446.5712,N,07949.9170,W,1,9,2.4,21,M,,M,,*53
06/02/2014	00:10:44.600	$GPGGA,001053,2446.5714,N,07949.9161,W,1,9,1.9,21,M,,M,,*5A
06/02/2014	00:10:45.610	$GPGGA,001054,2446.5719,N,07949.9153,W,1,9,1.9,21,M,,M,,*51
06/02/2014	00:10:46.620	$GPGGA,001055,2446.5720,N,07949.9143,W,1,8,2.4,21,M,,M,,*54
06/02/2014	00:10:47.611	$GPGGA,001056,2446.5721,N,07949.9135,W,1,8,2.4,21,M,,M,,*57
06/02/2014	00:10:48.601	$GPGGA,001057,2446.5724,N,07949.9126,W,1,9,1.9,21,M,,M,,*5E
06/02/2014	00:10:49.601	$GPGGA,001058,2446.5725,N,07949.9117,W,1,9,1.9,21,M,,M,,*52
06/02/2014	00:10:50.601	$GPGGA,001059,2446.5728,N,07949.9108,W,1,8,2.4,21,M,,M,,*5F
06/02/2014	00:10:51.601	$GPGGA,001100,2446.5732,N,07949.9099,W,1,8,2.4,21,M,,M,,*50
06/02/2014	00:10:52.621	$GPGGA,001101,2446.5735,N,07949.9089,W,1,9,1.9,21,M,,M,,*58
06/02/2014	00:10:53.591	$GPGGA,001102,2446.5737,N,07949.9081,W,1,9,1.9,21,M,,M,,*51
06/02/2014	00:10:54.612	$GPGGA,001103,2446.5739,N,07949.9072,W,1,9,1.9,21,M,,M,,*52
06/02/2014	00:10:55.592	$GPGGA,001104,2446.5741,N,07949.9063,W,1,9,1.9,21,M,,M,,*5A
06/02/2014	00:10:56.572	$GPGGA,001105,2446.5742,N,07949.9055,W,1,9,1.9,21,M,,M,,*5D
06/02/2014	00:10:57.593	$GPGGA,001106,2446.5745,N,07949.9046,W,1,9,1.9,21,M,,M,,*5B
06/02/2014	00:10:58.693	$GPGGA,001107,2446.5746,N,07949.9038,W,1,8,2.4,21,M,,M,,*5F
06/02/2014	00:10:59.584	$GPGGA,001108,2446.5748,N,07949.9026,W,1,8,1.9,21,M,,M,,*5F
06/02/2014	00:11:00.564	$GPGGA,001109,2446.5752,N,07949.9017,W,1,10,1.5,21,M,,M,,*62
06/02/2014	00:11:01.676	$GPGGA,001110,2446.5753,N,07949.9010,W,1,10,1.9,21,M,,M,,*60
06/02/2014	00:11:02.664	$GPGGA,001111,2446.5755,N,07949.9002,W,1,10,1.5,21,M,,M,,*68
06/02/2014	00:11:03.685	$GPGGA,001112,2446.5757,N,07949.8992,W,1,10,2.4,21,M,,M,,*6A
06/02/2014	00:11:04.585	$GPGGA,001113,2446.5760,N,07949.8984,W,1,10,1.5,21,M,,M,,*6A
06/02/2014	00:11:05.655	$GPGGA,001114,2446.5759,N,07949.8976,W,1,10,1.9,21,M,,M,,*66
06/02/2014	00:11:06.566	$GPGGA,001115,2446.5760,N,07949.8967,W,1,9,1.9,21,M,,M,,*55
06/02/2014	00:11:07.666	$GPGGA,001116,2446.5764,N,07949.8960,W,1,9,1.9,21,M,,M,,*55
06/02/2014	00:11:08.565	$GPGGA,001117,2446.5766,N,07949.8952,W,1,9,1.9,21,M,,M,,*57
06/02/2014	00:11:09.645	$GPGGA,001118,2446.5767,N,07949.8942,W,1,9,1.9,21,M,,M,,*58
06/02/2014	00:11:10.656	$GPGGA,001119,2446.5768,N,07949.8935,W,1,9,1.9,21,M,,M,,*56
06/02/2014	00:11:11.666	$GPGGA,001120,2446.5771,N,07949.8926,W,1,9,1.9,21,M,,M,,*56
06/02/2014	00:11:12.656	$GPGGA,001121,2446.5773,N,07949.8917,W,1,9,1.9,20,M,,M,,*56
06/02/2014	00:11:13.656	$GPGGA,001122,2446.5775,N,07949.8909,W,1,9,1.9,20,M,,M,,*5C
06/02/2014	00:11:14.657	$GPGGA,001123,2446.5778,N,07949.8900,W,1,9,1.9,20,M,,M,,*59
06/02/2014	00:11:15.647	$GPGGA,001124,2446.5779,N,07949.8892,W,1,9,1.9,20,M,,M,,*55
06/02/2014	00:11:16.667	$GPGGA,001125,2446.5781,N,07949.8883,W,1,9,1.9,20,M,,M,,*53
06/02/2014	00:11:17.648	$GPGGA,001126,2446.5784,N,07949.8874,W,1,9,2.4,20,M,,M,,*53
06/02/2014	00:11:18.658	$GPGGA,001127,2446.5786,N,07949.8866,W,1,9,1.9,20,M,,M,,*5D
06/02/2014	00:11:19.648	$GPGGA,001128,2446.5788,N,07949.8857,W,1,9,1.9,20,M,,M,,*5E
06/02/2014	00:11:28.702	$GPGGA,001129,2446.5789,N,07949.8848,W,1,8,2.4,20,M,,M,,*5F
06/02/2014	00:11:29.702	$GPGGA,001130,2446.5789,N,07949.8839,W,1,8,2.4,20,M,,M,,*51
06/02/2014	00:11:30.722	$GPGGA,001131,2446.5790,N,07949.8831,W,1,9,1.9,19,M,,M,,*55
06/02/2014	00:11:31.712	$GPGGA,001132,2446.5790,N,07949.8822,W,1,9,1.9,19,M,,M,,*54
06/02/2014	00:11:32.684	$GPGGA,001133,2446.5793,N,07949.8813,W,1,9,1.9,20,M,,M,,*5E
06/02/2014	00:11:33.692	$GPGGA,001134,2446.5796,N,07949.8804,W,1,9,2.4,20,M,,M,,*54
06/02/2014	00:11:34.682	$GPGGA,001135,2446.5799,N,07949.8794,W,1,8,2.4,20,M,,M,,*5D
06/02/2014	00:11:35.703	$GPGGA,001136,2446.5802,N,07949.8786,W,1,8,2.4,19,M,,M,,*5A
06/02/2014	00:11:36.703	$GPGGA,001137,2446.5804,N,07949.8777,W,1,8,2.4,19,M,,M,,*53
06/02/2014	00:11:37.683	$GPGGA,001138,2446.5806,N,07949.8767,W,1,8,2.4,19,M,,M,,*5F
06/02/2014	00:11:38.714	$GPGGA,001139,2446.5808,N,07949.8759,W,1,8,2.4,19,M,,M,,*5D
06/02/2014	00:11:39.694	$GPGGA,001140,2446.5813,N,07949.8749,W,1,8,2.4,19,M,,M,,*58
06/02/2014	00:11:40.704	$GPGGA,001141,2446.5815,N,07949.8740,W,1,8,2.4,19,M,,M,,*56
06/02/2014	00:11:41.664	$GPGGA,001142,2446.5818,N,07949.8731,W,1,8,2.4,19,M,,M,,*5E
06/02/2014	00:11:42.685	$GPGGA,001143,2446.5822,N,07949.8723,W,1,8,2.4,19,M,,M,,*55
06/02/2014	00:11:43.695	$GPGGA,001144,2446.5822,N,07949.8714,W,1,8,2.4,19,M,,M,,*56
06/02/2014	00:11:44.662	$GPGGA,001145,2446.5825,N,07949.8705,W,1,8,2.4,19,M,,M,,*50
06/02/2014	00:11:45.666	$GPGGA,001146,2446.5826,N,07949.8696,W,1,8,2.4,19,M,,M,,*5B
06/02/2014	00:11:46.676	$GPGGA,001147,2446.5829,N,07949.8687,W,1,8,2.4,19,M,,M,,*55
06/02/2014	00:11:47.686	$GPGGA,001148,2446.5831,N,07949.8678,W,1,8,2.4,18,M,,M,,*52
06/02/2014	00:11:48.687	$GPGGA,001149,2446.5832,N,07949.8669,W,1,8,2.4,18,M,,M,,*50
06/02/2014	00:11:49.657	$GPGGA,001150,2446.5836,N,07949.8661,W,1,8,1.8,18,M,,M,,*5B
06/02/2014	00:11:50.658	$GPGGA,001151,2446.5839,N,07949.8652,W,1,8,2.4,18,M,,M,,*5A
06/02/2014	00:11:51.686	$GPGGA,001152,2446.5842,N,07949.8644,W,1,8,2.4,18,M,,M,,*52
06/02/2014	00:11:52.667	$GPGGA,001153,2446.5844,N,07949.8635,W,1,8,2.4,18,M,,M,,*53
