Software Version Number: 1	Data File Format Number: 1	Build Version Number: 1	Error Count Since VI Started: 0	Manufacturer: Raytheon	 Model Number: RayMarine 120	 S/N: 	 Cal Date: 	 Wind Direction Offset: 0.00	 Slope (M)1: 0.00	 Offset (B)1: 0.00	 Slope (M)2: 0.00	 Offset (B)2: 0.00	 Slope (M)3: 0.00	 Offset (B)3: 0.00	 Slope (M)4: 0.00	 Offset (B)4: 0.00	 Slope (M)5: 0.00	 Offset (B)5: 0.00	 Slope (M)6: 0.00	 Offset (B)6: 0.00
Computer Date	Computer Time	GGA String
06/01/2014	11:00:00.633	$GPGGA,110009,2435.0901,N,07952.2783,W,1,8,2.3,11,M,,M,,*5F
06/01/2014	11:00:01.611	$GPGGA,110010,2435.0902,N,07952.2768,W,1,8,2.3,11,M,,M,,*51
06/01/2014	11:00:02.608	$GPGGA,110011,2435.0905,N,07952.2752,W,1,8,2.3,11,M,,M,,*5E
06/01/2014	11:00:03.626	$GPGGA,110012,2435.0908,N,07952.2736,W,1,8,2.3,11,M,,M,,*52
06/01/2014	11:00:04.585	$GPGGA,110013,2435.0909,N,07952.2721,W,1,8,2.3,11,M,,M,,*54
06/01/2014	11:00:05.593	$GPGGA,110014,2435.0912,N,07952.2705,W,1,8,2.3,11,M,,M,,*5F
06/01/2014	11:00:06.601	$GPGGA,110015,2435.0915,N,07952.2689,W,1,8,2.3,11,M,,M,,*5C
06/01/2014	11:00:07.589	$GPGGA,110016,2435.0916,N,07952.2673,W,1,8,2.3,11,M,,M,,*59
06/01/2014	11:00:08.597	$GPGGA,110017,2435.0919,N,07952.2657,W,1,8,2.3,11,M,,M,,*51
06/01/2014	11:00:09.575	$GPGGA,110018,2435.0923,N,07952.2641,W,1,8,2.3,11,M,,M,,*50
06/01/2014	11:00:10.583	$GPGGA,110019,2435.0927,N,07952.2624,W,1,7,2.7,11,M,,M,,*5D
06/01/2014	11:00:11.581	$GPGGA,110020,2435.0929,N,07952.2609,W,1,7,2.7,11,M,,M,,*56
06/01/2014	11:00:12.599	$GPGGA,110021,2435.0932,N,07952.2592,W,1,8,2.3,11,M,,M,,*57
06/01/2014	11:00:13.557	$GPGGA,110022,2435.0937,N,07952.2576,W,1,8,2.3,11,M,,M,,*5B
06/01/2014	11:00:14.566	$GPGGA,110023,2435.0938,N,07952.2560,W,1,8,2.3,11,M,,M,,*52
06/01/2014	11:00:15.564	$GPGGA,110024,2435.0941,N,07952.2545,W,1,8,2.3,11,M,,M,,*5C
06/01/2014	11:00:16.572	$GPGGA,110025,2435.0945,N,07952.2529,W,1,8,2.3,11,M,,M,,*53
06/01/2014	11:00:17.540	$GPGGA,110026,2435.0947,N,07952.2512,W,1,8,2.3,11,M,,M,,*5A
06/01/2014	11:00:18.568	$GPGGA,110027,2435.0948,N,07952.2497,W,1,8,2.3,11,M,,M,,*58
06/01/2014	11:00:19.555	$GPGGA,110028,2435.0951,N,07952.2481,W,1,8,2.3,11,M,,M,,*58
06/01/2014	11:00:20.669	$GPGGA,110029,2435.0955,N,07952.2464,W,1,8,2.3,11,M,,M,,*56
06/01/2014	11:00:21.647	$GPGGA,110030,2435.0956,N,07952.2449,W,1,8,2.3,11,M,,M,,*52
06/01/2014	11:00:22.635	$GPGGA,110031,2435.0959,N,07952.2432,W,1,8,2.3,11,M,,M,,*50
06/01/2014	11:00:23.643	$GPGGA,110032,2435.0962,N,07952.2416,W,1,8,2.3,11,M,,M,,*5D
06/01/2014	11:00:24.662	$GPGGA,110033,2435.0965,N,07952.2401,W,1,8,2.3,11,M,,M,,*5D
06/01/2014	11:00:25.620	$GPGGA,110034,2435.0967,N,07952.2385,W,1,8,2.3,11,M,,M,,*53
06/01/2014	11:00:26.648	$GPGGA,110035,2435.0970,N,07952.2369,W,1,8,2.3,11,M,,M,,*56
06/01/2014	11:00:27.636	$GPGGA,110036,2435.0973,N,07952.2353,W,1,8,2.3,11,M,,M,,*5F
06/01/2014	11:00:28.634	$GPGGA,110037,2435.0976,N,07952.2337,W,1,8,2.3,11,M,,M,,*59
06/01/2014	11:00:29.603	$GPGGA,110038,2435.0979,N,07952.2322,W,1,8,2.3,11,M,,M,,*5D
06/01/2014	11:00:30.630	$GPGGA,110039,2435.0981,N,07952.2306,W,1,8,2.3,11,M,,M,,*5D
06/01/2014	11:00:31.609	$GPGGA,110040,2435.0984,N,07952.2289,W,1,8,2.3,11,M,,M,,*50
06/01/2014	11:00:32.636	$GPGGA,110041,2435.0985,N,07952.2274,W,1,8,2.3,11,M,,M,,*52
06/01/2014	11:00:33.704	$GPGGA,110042,2435.0988,N,07952.2258,W,1,8,2.3,11,M,,M,,*52
06/01/2014	11:00:34.605	$GPGGA,110043,2435.0991,N,07952.2242,W,1,8,2.3,11,M,,M,,*50
06/01/2014	11:00:35.602	$GPGGA,110044,2435.0992,N,07952.2226,W,1,8,2.3,11,M,,M,,*56
06/01/2014	11:00:36.578	$GPGGA,110045,2435.0995,N,07952.2210,W,1,8,2.3,11,M,,M,,*55
06/01/2014	11:00:37.676	$GPGGA,110046,2435.0998,N,07952.2195,W,1,8,2.3,11,M,,M,,*55
06/01/2014	11:00:38.574	$GPGGA,110047,2435.1001,N,07952.2179,W,1,8,2.3,11,M,,M,,*5E
06/01/2014	11:00:39.572	$GPGGA,110048,2435.1003,N,07952.2163,W,1,8,2.3,11,M,,M,,*58
06/01/2014	11:00:40.560	$GPGGA,110049,2435.1006,N,07952.2147,W,1,8,2.3,11,M,,M,,*5A
06/01/2014	11:00:41.659	$GPGGA,110050,2435.1006,N,07952.2131,W,1,8,2.3,11,M,,M,,*53
06/01/2014	11:00:42.566	$GPGGA,110051,2435.1010,N,07952.2115,W,1,8,2.3,11,M,,M,,*53
06/01/2014	11:00:43.664	$GPGGA,110052,2435.1012,N,07952.2099,W,1,8,2.3,11,M,,M,,*57
06/01/2014	11:00:44.574	$GPGGA,110053,2435.1013,N,07952.2083,W,1,8,2.3,11,M,,M,,*5C
06/01/2014	11:00:45.551	$GPGGA,110054,2435.1016,N,07952.2067,W,1,8,2.3,11,M,,M,,*54
06/01/2014	11:00:46.659	$GPGGA,110055,2435.1017,N,07952.2051,W,1,8,2.3,11,M,,M,,*51
06/01/2014	11:00:47.667	$GPGGA,110056,2435.1020,N,07952.2035,W,1,8,2.3,11,M,,M,,*54
06/01/2014	11:00:48.665	$GPGGA,110057,2435.1021,N,07952.2019,W,1,7,2.4,11,M,,M,,*52
06/01/2014	11:00:49.623	$GPGGA,110058,2435.1024,N,07952.2004,W,1,7,2.3,11,M,,M,,*53
06/01/2014	11:00:50.631	$GPGGA,110059,2435.1027,N,07952.1988,W,1,8,2.3,11,M,,M,,*50
06/01/2014	11:00:51.669	$GPGGA,110100,2435.1028,N,07952.1973,W,1,8,2.3,11,M,,M,,*56
06/01/2014	11:00:52.627	$GPGGA,110101,2435.1031,N,07952.1957,W,1,8,2.3,11,M,,M,,*59
06/01/2014	11:00:53.615	$GPGGA,110102,2435.1032,N,07952.1941,W,1,8,2.3,11,M,,M,,*5E
06/01/2014	11:00:54.613	$GPGGA,110103,2435.1034,N,07952.1925,W,1,8,2.3,11,M,,M,,*5B
06/01/2014	11:00:55.621	$GPGGA,110104,2435.1035,N,07952.1909,W,1,8,2.3,11,M,,M,,*53
06/01/2014	11:00:56.619	$GPGGA,110105,2435.1038,N,07952.1893,W,1,8,2.3,11,M,,M,,*5D
06/01/2014	11:00:57.587	$GPGGA,110106,2435.1039,N,07952.1878,W,1,8,2.3,11,M,,M,,*5A
06/01/2014	11:00:58.585	$GPGGA,110107,2435.1041,N,07952.1862,W,1,8,2.3,11,M,,M,,*5F
06/01/2014	11:00:59.603	$GPGGA,110108,2435.1042,N,07952.1845,W,1,8,2.3,11,M,,M,,*56
06/01/2014	11:01:00.601	$GPGGA,110109,2435.1045,N,07952.1829,W,1,8,2.3,11,M,,M,,*5A
06/01/2014	11:01:01.619	$GPGGA,110110,2435.1046,N,07952.1813,W,1,8,2.3,11,M,,M,,*58
06/01/2014	11:01:02.567	$GPGGA,110111,2435.1046,N,07952.1796,W,1,8,2.3,11,M,,M,,*5B
06/01/2014	11:01:03.585	$GPGGA,110112,2435.1049,N,07952.1780,W,1,8,2.3,11,M,,M,,*50
06/01/2014	11:01:04.603	$GPGGA,110113,2435.1050,N,07952.1764,W,1,8,2.3,11,M,,M,,*53
06/01/2014	11:01:05.572	$GPGGA,110114,2435.1052,N,07952.1748,W,1,8,2.3,11,M,,M,,*58
06/01/2014	11:01:06.610	$GPGGA,110115,2435.1051,N,07952.1732,W,1,8,2.3,11,M,,M,,*57
06/01/2014	11:01:07.578	$GPGGA,110116,2435.1053,N,07952.1716,W,1,8,2.3,11,M,,M,,*50
06/01/2014	11:01:08.542	$GPGGA,110117,2435.1056,N,07952.1700,W,1,8,2.3,11,M,,M,,*53
06/01/2014	11:01:09.554	$GPGGA,110118,2435.1057,N,07952.1683,W,1,8,2.3,11,M,,M,,*57
06/01/2014	11:01:10.582	$GPGGA,110119,2435.1059,N,07952.1668,W,1,8,2.3,11,M,,M,,*5D
06/01/2014	11:01:11.559	$GPGGA,110120,2435.1060,N,07952.1651,W,1,8,2.3,11,M,,M,,*57
06/01/2014	11:01:12.537	$GPGGA,110121,2435.1063,N,07952.1635,W,1,8,2.3,11,M,,M,,*57
06/01/2014	11:01:13.545	$GPGGA,110122,2435.1064,N,07952.1620,W,1,8,2.3,11,M,,M,,*57
06/01/2014	11:01:14.564	$GPGGA,110123,2435.1064,N,07952.1604,W,1,8,2.3,10,M,,M,,*51
06/01/2014	11:01:15.542	$GPGGA,110124,2435.1068,N,07952.1588,W,1,8,2.3,10,M,,M,,*5D
06/01/2014	11:01:16.530	$GPGGA,110125,2435.1070,N,07952.1572,W,1,8,2.3,10,M,,M,,*50
06/01/2014	11:01:17.509	$GPGGA,110126,2435.1071,N,07952.1556,W,1,8,2.3,10,M,,M,,*54
06/01/2014	11:01:18.516	$GPGGA,110127,2435.1073,N,07952.1540,W,1,8,2.3,10,M,,M,,*50
06/01/2014	11:01:19.534	$GPGGA,110128,2435.1075,N,07952.1524,W,1,8,2.3,10,M,,M,,*5B
06/01/2014	11:01:20.668	$GPGGA,110129,2435.1077,N,07952.1508,W,1,8,2.3,10,M,,M,,*56
06/01/2014	11:01:21.625	$GPGGA,110130,2435.1078,N,07952.1492,W,1,8,2.3,10,M,,M,,*53
06/01/2014	11:01:22.633	$GPGGA,110131,2435.1082,N,07952.1476,W,1,8,2.3,10,M,,M,,*5D
06/01/2014	11:01:23.622	$GPGGA,110132,2435.1084,N,07952.1460,W,1,8,2.3,10,M,,M,,*5F
06/01/2014	11:01:24.600	$GPGGA,110133,2435.1086,N,07952.1444,W,1,8,2.3,10,M,,M,,*5A
06/01/2014	11:01:25.588	$GPGGA,110134,2435.1088,N,07952.1428,W,1,8,2.3,10,M,,M,,*59
06/01/2014	11:01:26.606	$GPGGA,110135,2435.1091,N,07952.1412,W,1,8,2.3,10,M,,M,,*59
06/01/2014	11:01:27.595	$GPGGA,110136,2435.1093,N,07952.1396,W,1,8,2.3,10,M,,M,,*53
06/01/2014	11:01:28.683	$GPGGA,110137,2435.1096,N,07952.1380,W,1,8,2.3,10,M,,M,,*50
06/01/2014	11:01:29.589	$GPGGA,110138,2435.1099,N,07952.1363,W,1,8,2.3,10,M,,M,,*5D
06/01/2014	11:01:30.687	$GPGGA,110139,2435.1100,N,07952.1347,W,1,8,2.3,10,M,,M,,*5B
06/01/2014	11:01:31.595	$GPGGA,110140,2435.1104,N,07952.1331,W,1,8,2.3,10,M,,M,,*50
06/01/2014	11:01:32.683	$GPGGA,110141,2435.1107,N,07952.1315,W,1,8,2.3,9,M,,M,,*6C
06/01/2014	11:01:33.661	$GPGGA,110142,2435.1109,N,07952.1298,W,1,8,2.3,9,M,,M,,*65
06/01/2014	11:01:34.669	$GPGGA,110143,2435.1111,N,07952.1283,W,1,8,2.3,9,M,,M,,*67
06/01/2014	11:01:35.678	$GPGGA,110144,2435.1115,N,07952.1266,W,1,8,2.3,9,M,,M,,*6F
06/01/2014	11:01:36.676	$GPGGA,110145,2435.1118,N,07952.1250,W,1,8,2.3,9,M,,M,,*66
06/01/2014	11:01:37.634	$GPGGA,110146,2435.1120,N,07952.1234,W,1,8,2.3,9,M,,M,,*6C
06/01/2014	11:01:38.642	$GPGGA,110147,2435.1122,N,07952.1218,W,1,8,2.3,9,M,,M,,*61
06/01/2014	11:01:39.650	$GPGGA,110148,2435.1125,N,07952.1202,W,1,8,2.3,9,M,,M,,*62
06/01/2014	11:01:40.648	$GPGGA,110149,2435.1129,N,07952.1186,W,1,8,2.3,9,M,,M,,*60
06/01/2014	11:01:41.636	$GPGGA,110150,2435.1131,N,07952.1170,W,1,8,2.3,9,M,,M,,*68
06/01/2014	11:01:42.644	$GPGGA,110151,2435.1133,N,07952.1154,W,1,8,2.3,9,M,,M,,*6D
06/01/2014	11:01:43.652	$GPGGA,110152,2435.1136,N,07952.1138,W,1,8,2.3,9,M,,M,,*61
06/01/2014	11:01:44.640	$GPGGA,110153,2435.1140,N,07952.1122,W,1,8,2.3,9,M,,M,,*6A
06/01/2014	11:01:45.609	$GPGGA,110154,2435.1142,N,07952.1106,W,1,8,2.3,9,M,,M,,*69
06/01/2014	11:01:46.637	$GPGGA,110155,2435.1144,N,07952.1090,W,1,8,2.3,9,M,,M,,*60
06/01/2014	11:01:47.625	$GPGGA,110156,2435.1147,N,07952.1074,W,1,8,2.3,9,M,,M,,*6A
06/01/2014	11:01:48.632	$GPGGA,110157,2435.1151,N,07952.1057,W,1,8,2.3,9,M,,M,,*6D
06/01/2014	11:01:49.590	$GPGGA,110158,2435.1153,N,07952.1041,W,1,8,2.3,9,M,,M,,*67
06/01/2014	11:01:50.628	$GPGGA,110159,2435.1156,N,07952.1025,W,1,8,2.3,9,M,,M,,*61
06/01/2014	11:01:51.606	$GPGGA,110200,2435.1158,N,07952.1009,W,1,8,2.3,9,M,,M,,*6E
06/01/2014	11:01:52.624	$GPGGA,110201,2435.1161,N,07952.0994,W,1,8,2.3,9,M,,M,,*69
06/01/2014	11:01:53.572	$GPGGA,110202,2435.1162,N,07952.0977,W,1,8,2.3,9,M,,M,,*64
06/01/2014	11:01:54.601	$GPGGA,110203,2435.1165,N,07952.0961,W,1,8,2.3,9,M,,M,,*65
06/01/2014	11:01:55.589	$GPGGA,110204,2435.1169,N,07952.0945,W,1,8,2.3,9,M,,M,,*68
06/01/2014	11:01:56.597	$GPGGA,110205,2435.1171,N,07952.0929,W,1,8,2.3,9,M,,M,,*6A
06/01/2014	11:01:57.575	$GPGGA,110206,2435.1174,N,07952.0913,W,1,8,2.3,9,M,,M,,*65
06/01/2014	11:01:58.573	$GPGGA,110207,2435.1176,N,07952.0896,W,1,8,2.3,9,M,,M,,*6A
06/01/2014	11:01:59.591	$GPGGA,110208,2435.1178,N,07952.0880,W,1,8,2.3,9,M,,M,,*6C
06/01/2014	11:02:00.556	$GPGGA,110209,2435.1180,N,07952.0864,W,1,8,2.3,9,M,,M,,*60
06/01/2014	11:02:01.557	$GPGGA,110210,2435.1183,N,07952.0848,W,1,8,2.3,9,M,,M,,*65
06/01/2014	11:02:02.565	$GPGGA,110211,2435.1186,N,07952.0832,W,1,8,2.3,9,M,,M,,*6C
06/01/2014	11:02:03.563	$GPGGA,110212,2435.1187,N,07952.0816,W,1,8,2.3,9,M,,M,,*68
06/01/2014	11:02:04.571	$GPGGA,110213,2435.1190,N,07952.0800,W,1,8,2.3,9,M,,M,,*68
06/01/2014	11:02:05.559	$GPGGA,110214,2435.1191,N,07952.0785,W,1,8,2.3,9,M,,M,,*6C
06/01/2014	11:02:06.557	$GPGGA,110215,2435.1194,N,07952.0768,W,1,8,2.3,9,M,,M,,*6B
06/01/2014	11:02:07.537	$GPGGA,110216,2435.1197,N,07952.0752,W,1,8,2.3,9,M,,M,,*62
06/01/2014	11:02:08.523	$GPGGA,110217,2435.1198,N,07952.0736,W,1,8,2.3,9,M,,M,,*6E
06/01/2014	11:02:09.511	$GPGGA,110218,2435.1201,N,07952.0720,W,1,8,2.3,9,M,,M,,*65
06/01/2014	11:02:10.509	$GPGGA,110219,2435.1204,N,07952.0704,W,1,8,2.3,9,M,,M,,*67
06/01/2014	11:02:11.537	$GPGGA,110220,2435.1205,N,07952.0688,W,1,8,2.3,9,M,,M,,*69
06/01/2014	11:02:12.505	$GPGGA,110221,2435.1208,N,07952.0673,W,1,8,2.3,9,M,,M,,*61
06/01/2014	11:02:13.593	$GPGGA,110222,2435.1209,N,07952.0657,W,1,8,2.3,9,M,,M,,*65
06/01/2014	11:02:14.512	$GPGGA,110223,2435.1212,N,07952.0642,W,1,8,2.3,9,M,,M,,*6A
06/01/2014	11:02:15.530	$GPGGA,110224,2435.1214,N,07952.0626,W,1,8,2.3,8,M,,M,,*68
06/01/2014	11:02:16.588	$GPGGA,110225,2435.1216,N,07952.0610,W,1,8,2.3,8,M,,M,,*6E
06/01/2014	11:02:17.596	$GPGGA,110226,2435.1218,N,07952.0594,W,1,8,2.3,8,M,,M,,*6C
06/01/2014	11:02:18.504	$GPGGA,110227,2435.1219,N,07952.0577,W,1,8,2.3,8,M,,M,,*61
06/01/2014	11:02:19.582	$GPGGA,110228,2435.1222,N,07952.0561,W,1,8,2.3,8,M,,M,,*61
06/01/2014	11:02:20.606	$GPGGA,110229,2435.1223,N,07952.0545,W,1,8,2.3,8,M,,M,,*67
06/01/2014	11:02:21.683	$GPGGA,110230,2435.1225,N,07952.0529,W,1,8,2.3,8,M,,M,,*63
06/01/2014	11:02:22.671	$GPGGA,110231,2435.1227,N,07952.0513,W,1,8,2.3,8,M,,M,,*69
06/01/2014	11:02:23.689	$GPGGA,110232,2435.1229,N,07952.0497,W,1,8,2.3,8,M,,M,,*69
06/01/2014	11:02:24.677	$GPGGA,110233,2435.1230,N,07952.0482,W,1,8,2.3,8,M,,M,,*64
06/01/2014	11:02:25.676	$GPGGA,110234,2435.1232,N,07952.0465,W,1,8,2.3,8,M,,M,,*68
06/01/2014	11:02:26.684	$GPGGA,110235,2435.1234,N,07952.0449,W,1,8,2.3,8,M,,M,,*61
06/01/2014	11:02:27.672	$GPGGA,110236,2435.1234,N,07952.0434,W,1,8,2.3,8,M,,M,,*68
06/01/2014	11:02:28.670	$GPGGA,110237,2435.1236,N,07952.0417,W,1,8,2.3,8,M,,M,,*6A
06/01/2014	11:02:29.658	$GPGGA,110238,2435.1238,N,07952.0401,W,1,8,2.3,8,M,,M,,*6C
06/01/2014	11:02:30.636	$GPGGA,110239,2435.1241,N,07952.0386,W,1,8,2.3,8,M,,M,,*6B
06/01/2014	11:02:31.654	$GPGGA,110240,2435.1241,N,07952.0369,W,1,8,2.3,8,M,,M,,*64
06/01/2014	11:02:32.632	$GPGGA,110241,2435.1244,N,07952.0353,W,1,8,2.3,8,M,,M,,*69
06/01/2014	11:02:33.640	$GPGGA,110242,2435.1245,N,07952.0337,W,1,8,2.3,8,M,,M,,*69
06/01/2014	11:02:34.649	$GPGGA,110243,2435.1247,N,07952.0321,W,1,8,2.3,8,M,,M,,*6D
06/01/2014	11:02:35.637	$GPGGA,110244,2435.1248,N,07952.0305,W,1,8,2.3,8,M,,M,,*63
06/01/2014	11:02:36.656	$GPGGA,110245,2435.1250,N,07952.0289,W,1,8,2.3,8,M,,M,,*6E
06/01/2014	11:02:37.613	$GPGGA,110246,2435.1252,N,07952.0273,W,1,8,2.3,7,M,,M,,*65
06/01/2014	11:02:38.611	$GPGGA,110247,2435.1252,N,07952.0257,W,1,8,2.3,7,M,,M,,*62
06/01/2014	11:02:39.628	$GPGGA,110248,2435.1255,N,07952.0241,W,1,8,2.3,7,M,,M,,*6D
06/01/2014	11:02:40.626	$GPGGA,110249,2435.1256,N,07952.0225,W,1,8,2.3,7,M,,M,,*6D
06/01/2014	11:02:41.594	$GPGGA,110250,2435.1259,N,07952.0209,W,1,8,2.3,7,M,,M,,*64
06/01/2014	11:02:42.592	$GPGGA,110251,2435.1259,N,07952.0192,W,1,8,2.3,7,M,,M,,*64
06/01/2014	11:02:43.620	$GPGGA,110252,2435.1262,N,07952.0176,W,1,8,2.3,7,M,,M,,*65
06/01/2014	11:02:44.629	$GPGGA,110253,2435.1263,N,07952.0160,W,1,8,2.3,7,M,,M,,*62
06/01/2014	11:02:45.597	$GPGGA,110254,2435.1266,N,07952.0144,W,1,8,2.3,7,M,,M,,*66
06/01/2014	11:02:46.605	$GPGGA,110255,2435.1268,N,07952.0128,W,1,8,2.3,7,M,,M,,*63
06/01/2014	11:02:47.593	$GPGGA,110256,2435.1270,N,07952.0112,W,1,8,2.3,7,M,,M,,*60
06/01/2014	11:02:48.571	$GPGGA,110257,2435.1270,N,07952.0096,W,1,8,2.3,7,M,,M,,*6C
06/01/2014	11:02:49.559	$GPGGA,110258,2435.1273,N,07952.0080,W,1,8,2.3,7,M,,M,,*67
06/01/2014	11:02:50.597	$GPGGA,110259,2435.1274,N,07952.0064,W,1,8,2.3,7,M,,M,,*6B
06/01/2014	11:02:51.585	$GPGGA,110300,2435.1277,N,07952.0047,W,1,8,2.3,7,M,,M,,*64
06/01/2014	11:02:52.553	$GPGGA,110301,2435.1279,N,07952.0032,W,1,8,2.3,7,M,,M,,*69
06/01/2014	11:02:53.671	$GPGGA,110302,2435.1281,N,07952.0015,W,1,8,2.3,7,M,,M,,*68
06/01/2014	11:02:54.540	$GPGGA,110303,2435.1283,N,07951.9999,W,1,8,2.3,7,M,,M,,*6C
06/01/2014	11:02:55.568	$GPGGA,110304,2435.1286,N,07951.9983,W,1,8,2.3,7,M,,M,,*65
06/01/2014	11:02:56.535	$GPGGA,110305,2435.1287,N,07951.9967,W,1,8,2.3,7,M,,M,,*6F
06/01/2014	11:02:57.553	$GPGGA,110306,2435.1288,N,07951.9952,W,1,8,2.3,7,M,,M,,*65
06/01/2014	11:02:58.531	$GPGGA,110307,2435.1292,N,07951.9935,W,1,8,2.3,7,M,,M,,*6E
06/01/2014	11:02:59.549	$GPGGA,110308,2435.1294,N,07951.9920,W,1,8,2.3,7,M,,M,,*63
06/01/2014	11:03:00.653	$GPGGA,110309,2435.1295,N,07951.9904,W,1,8,2.3,7,M,,M,,*65
06/01/2014	11:03:01.535	$GPGGA,110310,2435.1298,N,07951.9888,W,1,8,2.3,7,M,,M,,*65
06/01/2014	11:03:02.533	$GPGGA,110311,2435.1301,N,07951.9873,W,1,8,2.3,7,M,,M,,*61
06/01/2014	11:03:03.621	$GPGGA,110312,2435.1303,N,07951.9857,W,1,8,2.3,7,M,,M,,*66
06/01/2014	11:03:04.619	$GPGGA,110313,2435.1306,N,07951.9841,W,1,8,2.3,7,M,,M,,*65
06/01/2014	11:03:05.508	$GPGGA,110314,2435.1309,N,07951.9825,W,1,8,2.3,7,M,,M,,*6F
06/01/2014	11:03:06.596	$GPGGA,110315,2435.1310,N,07951.9810,W,1,8,2.3,7,M,,M,,*60
06/01/2014	11:03:07.614	$GPGGA,110316,2435.1313,N,07951.9794,W,1,8,2.3,7,M,,M,,*63
06/01/2014	11:03:08.592	$GPGGA,110317,2435.1317,N,07951.9779,W,1,8,2.3,7,M,,M,,*65
06/01/2014	11:03:09.580	$GPGGA,110318,2435.1320,N,07951.9763,W,1,8,2.3,7,M,,M,,*65
06/01/2014	11:03:10.618	$GPGGA,110319,2435.1320,N,07951.9747,W,1,8,2.3,7,M,,M,,*62
06/01/2014	11:03:11.606	$GPGGA,110320,2435.1324,N,07951.9733,W,1,8,2.3,7,M,,M,,*6F
06/01/2014	11:03:12.574	$GPGGA,110321,2435.1327,N,07951.9717,W,1,8,2.3,7,M,,M,,*6B
06/01/2014	11:03:13.572	$GPGGA,110322,2435.1330,N,07951.9701,W,1,8,2.3,7,M,,M,,*69
06/01/2014	11:03:14.589	$GPGGA,110323,2435.1333,N,07951.9686,W,1,8,2.3,7,M,,M,,*65
06/01/2014	11:03:15.578	$GPGGA,110324,2435.1335,N,07951.9670,W,1,8,2.3,7,M,,M,,*6D
06/01/2014	11:03:16.576	$GPGGA,110325,2435.1339,N,07951.9654,W,1,8,2.3,7,M,,M,,*66
06/01/2014	11:03:17.564	$GPGGA,110326,2435.1342,N,07951.9638,W,1,8,2.3,7,M,,M,,*63
06/01/2014	11:03:18.572	$GPGGA,110327,2435.1345,N,07951.9622,W,1,8,2.3,7,M,,M,,*6E
06/01/2014	11:03:19.560	$GPGGA,110328,2435.1348,N,07951.9607,W,1,8,2.3,7,M,,M,,*6B
06/01/2014	11:03:20.673	$GPGGA,110329,2435.1349,N,07951.9591,W,1,8,2.3,7,M,,M,,*67
06/01/2014	11:03:21.651	$GPGGA,110330,2435.1353,N,07951.9575,W,1,8,2.3,7,M,,M,,*6E
06/01/2014	11:03:22.649	$GPGGA,110331,2435.1356,N,07951.9559,W,1,8,2.3,7,M,,M,,*64
06/01/2014	11:03:23.667	$GPGGA,110332,2435.1359,N,07951.9544,W,1,8,2.3,7,M,,M,,*64
06/01/2014	11:03:24.666	$GPGGA,110333,2435.1360,N,07951.9527,W,1,8,2.3,7,M,,M,,*6A
06/01/2014	11:03:25.634	$GPGGA,110334,2435.1364,N,07951.9512,W,1,8,2.3,7,M,,M,,*6F
06/01/2014	11:03:26.672	$GPGGA,110335,2435.1367,N,07951.9496,W,1,8,2.3,7,M,,M,,*60
06/01/2014	11:03:27.650	$GPGGA,110336,2435.1368,N,07951.9480,W,1,8,2.3,7,M,,M,,*6B
06/01/2014	11:03:28.618	$GPGGA,110337,2435.1371,N,07951.9464,W,1,8,2.3,7,M,,M,,*68
06/01/2014	11:03:29.626	$GPGGA,110338,2435.1375,N,07951.9448,W,1,8,2.3,7,M,,M,,*6D
06/01/2014	11:03:30.654	$GPGGA,110339,2435.1377,N,07951.9432,W,1,8,2.3,7,M,,M,,*63
06/01/2014	11:03:31.621	$GPGGA,110340,2435.1380,N,07951.9416,W,1,8,2.3,7,M,,M,,*63
06/01/2014	11:03:32.609	$GPGGA,110341,2435.1382,N,07951.9400,W,1,8,2.3,7,M,,M,,*67
06/01/2014	11:03:33.617	$GPGGA,110342,2435.1385,N,07951.9384,W,1,8,2.3,7,M,,M,,*68
06/01/2014	11:03:34.636	$GPGGA,110343,2435.1386,N,07951.9368,W,1,8,2.3,7,M,,M,,*68
06/01/2014	11:03:35.614	$GPGGA,110344,2435.1389,N,07951.9351,W,1,8,2.3,7,M,,M,,*6A
06/01/2014	11:03:36.593	$GPGGA,110345,2435.1391,N,07951.9335,W,1,8,2.3,7,M,,M,,*60
06/01/2014	11:03:37.600	$GPGGA,110346,2435.1393,N,07951.9320,W,1,8,2.3,7,M,,M,,*65
06/01/2014	11:03:38.698	$GPGGA,110347,2435.1395,N,07951.9303,W,1,8,2.3,7,M,,M,,*63
06/01/2014	11:03:39.596	$GPGGA,110348,2435.1398,N,07951.9287,W,1,8,2.3,7,M,,M,,*6C
06/01/2014	11:03:40.574	$GPGGA,110349,2435.1400,N,07951.9271,W,1,8,2.3,7,M,,M,,*62
06/01/2014	11:03:41.572	$GPGGA,110350,2435.1402,N,07951.9255,W,1,8,2.3,7,M,,M,,*6E
06/01/2014	11:03:42.580	$GPGGA,110351,2435.1404,N,07951.9239,W,1,8,2.3,7,M,,M,,*63
06/01/2014	11:03:43.569	$GPGGA,110352,2435.1406,N,07951.9223,W,1,8,2.3,7,M,,M,,*69
06/01/2014	11:03:44.557	$GPGGA,110353,2435.1407,N,07951.9207,W,1,8,2.3,7,M,,M,,*6F
06/01/2014	11:03:45.566	$GPGGA,110354,2435.1410,N,07951.9191,W,1,8,2.3,7,M,,M,,*62
06/01/2014	11:03:46.554	$GPGGA,110355,2435.1411,N,07951.9175,W,1,8,2.3,7,M,,M,,*68
06/01/2014	11:03:47.681	$GPGGA,110356,2435.1414,N,07951.9158,W,1,8,2.3,7,M,,M,,*61
06/01/2014	11:03:48.561	$GPGGA,110357,2435.1415,N,07951.9143,W,1,8,2.3,7,M,,M,,*6B
06/01/2014	11:03:49.536	$GPGGA,110358,2435.1418,N,07951.9126,W,1,8,2.3,7,M,,M,,*6A
06/01/2014	11:03:50.664	$GPGGA,110359,2435.1420,N,07951.9110,W,1,8,2.3,7,M,,M,,*65
06/01/2014	11:03:51.572	$GPGGA,110400,2435.1422,N,07951.9094,W,1,8,2.3,7,M,,M,,*61
06/01/2014	11:03:52.540	$GPGGA,110401,2435.1422,N,07951.9078,W,1,8,2.3,7,M,,M,,*62
06/01/2014	11:03:53.628	$GPGGA,110402,2435.1425,N,07951.9062,W,1,8,2.3,7,M,,M,,*6D
06/01/2014	11:03:54.527	$GPGGA,110403,2435.1428,N,07951.9046,W,1,8,2.3,7,M,,M,,*67
06/01/2014	11:03:55.635	$GPGGA,110404,2435.1429,N,07951.9029,W,1,8,2.3,7,M,,M,,*68
06/01/2014	11:03:56.613	$GPGGA,110405,2435.1431,N,07951.9014,W,1,8,2.3,7,M,,M,,*6E
06/01/2014	11:03:57.601	$GPGGA,110406,2435.1432,N,07951.8997,W,1,8,2.3,7,M,,M,,*6D
06/01/2014	11:03:58.609	$GPGGA,110407,2435.1433,N,07951.8980,W,1,8,2.3,7,M,,M,,*6B
06/01/2014	11:03:59.617	$GPGGA,110408,2435.1436,N,07951.8965,W,1,8,2.3,7,M,,M,,*6A
06/01/2014	11:04:00.605	$GPGGA,110409,2435.1436,N,07951.8948,W,1,8,2.3,7,M,,M,,*64
06/01/2014	11:04:01.593	$GPGGA,110410,2435.1438,N,07951.8932,W,1,8,2.3,7,M,,M,,*6F
06/01/2014	11:04:02.611	$GPGGA,110411,2435.1440,N,07951.8916,W,1,8,2.3,7,M,,M,,*67
06/01/2014	11:04:03.599	$GPGGA,110412,2435.1442,N,07951.8900,W,1,8,2.3,7,M,,M,,*61
06/01/2014	11:04:04.607	$GPGGA,110413,2435.1443,N,07951.8885,W,1,8,2.3,7,M,,M,,*6D
06/01/2014	11:04:05.575	$GPGGA,110414,2435.1443,N,07951.8868,W,1,8,2.3,7,M,,M,,*69
06/01/2014	11:04:06.592	$GPGGA,110415,2435.1446,N,07951.8852,W,1,8,2.3,7,M,,M,,*64
06/01/2014	11:04:07.580	$GPGGA,110416,2435.1447,N,07951.8835,W,1,8,2.3,7,M,,M,,*67
06/01/2014	11:04:08.578	$GPGGA,110417,2435.1449,N,07951.8819,W,1,8,2.3,7,M,,M,,*66
06/01/2014	11:04:09.576	$GPGGA,110418,2435.1451,N,07951.8804,W,1,8,2.3,7,M,,M,,*6C
06/01/2014	11:04:10.584	$GPGGA,110419,2435.1453,N,07951.8787,W,1,8,2.3,7,M,,M,,*6B
06/01/2014	11:04:11.573	$GPGGA,110420,2435.1454,N,07951.8771,W,1,8,2.3,7,M,,M,,*6F
06/01/2014	11:04:12.580	$GPGGA,110421,2435.1454,N,07951.8756,W,1,8,2.3,7,M,,M,,*6B
06/01/2014	11:04:13.538	$GPGGA,110422,2435.1457,N,07951.8739,W,1,8,2.3,7,M,,M,,*62
06/01/2014	11:04:14.566	$GPGGA,110423,2435.1460,N,07951.8724,W,1,8,2.3,7,M,,M,,*6B
06/01/2014	11:04:15.544	$GPGGA,110424,2435.1461,N,07951.8707,W,1,8,2.3,7,M,,M,,*6C
06/01/2014	11:04:16.522	$GPGGA,110425,2435.1462,N,07951.8692,W,1,8,2.3,7,M,,M,,*63
06/01/2014	11:04:17.520	$GPGGA,110426,2435.1465,N,07951.8676,W,1,8,2.3,7,M,,M,,*6D
06/01/2014	11:04:18.548	$GPGGA,110427,2435.1467,N,07951.8660,W,1,8,2.3,7,M,,M,,*69
06/01/2014	11:04:19.526	$GPGGA,110428,2435.1469,N,07951.8645,W,1,8,2.3,7,M,,M,,*6F
06/01/2014	11:04:20.642	$GPGGA,110429,2435.1469,N,07951.8628,W,1,8,2.3,7,M,,M,,*65
06/01/2014	11:04:21.624	$GPGGA,110430,2435.1472,N,07951.8613,W,1,8,2.3,7,M,,M,,*6F
06/01/2014	11:04:22.658	$GPGGA,110431,2435.1474,N,07951.8597,W,1,8,2.3,7,M,,M,,*67
06/01/2014	11:04:23.636	$GPGGA,110432,2435.1476,N,07951.8581,W,1,8,2.3,7,M,,M,,*61
06/01/2014	11:04:24.633	$GPGGA,110433,2435.1478,N,07951.8565,W,1,8,2.3,7,M,,M,,*64
06/01/2014	11:04:25.601	$GPGGA,110434,2435.1479,N,07951.8549,W,1,8,2.3,7,M,,M,,*6C
06/01/2014	11:04:26.609	$GPGGA,110435,2435.1483,N,07951.8533,W,1,8,2.3,7,M,,M,,*65
06/01/2014	11:04:27.608	$GPGGA,110436,2435.1485,N,07951.8518,W,1,8,2.3,7,M,,M,,*69
06/01/2014	11:04:28.605	$GPGGA,110437,2435.1486,N,07951.8502,W,1,8,2.3,7,M,,M,,*60
06/01/2014	11:04:29.733	$GPGGA,110438,2435.1489,N,07951.8486,W,1,8,2.3,7,M,,M,,*6D
06/01/2014	11:04:30.594	$GPGGA,110439,2435.1490,N,07951.8470,W,1,8,2.3,7,M,,M,,*6D
06/01/2014	11:04:31.739	$GPGGA,110440,2435.1493,N,07951.8454,W,1,8,2.3,7,M,,M,,*66
06/01/2014	11:04:32.577	$GPGGA,110441,2435.1494,N,07951.8438,W,1,8,2.3,7,M,,M,,*6A
06/01/2014	11:04:33.675	$GPGGA,110442,2435.1497,N,07951.8423,W,1,8,2.3,7,M,,M,,*60
06/01/2014	11:04:34.753	$GPGGA,110443,2435.1500,N,07951.8406,W,1,8,2.3,7,M,,M,,*69
06/01/2014	11:04:35.571	$GPGGA,110444,2435.1501,N,07951.8391,W,1,8,2.3,7,M,,M,,*66
06/01/2014	11:04:36.569	$GPGGA,110445,2435.1504,N,07951.8375,W,1,8,2.3,7,M,,M,,*68
06/01/2014	11:04:37.567	$GPGGA,110446,2435.1507,N,07951.8359,W,1,8,2.3,7,M,,M,,*66
06/01/2014	11:04:38.555	$GPGGA,110447,2435.1508,N,07951.8343,W,1,8,2.3,7,M,,M,,*63
06/01/2014	11:04:39.573	$GPGGA,110448,2435.1511,N,07951.8327,W,1,8,2.3,7,M,,M,,*66
06/01/2014	11:04:40.551	$GPGGA,110449,2435.1514,N,07951.8311,W,1,8,2.3,7,M,,M,,*67
06/01/2014	11:04:41.638	$GPGGA,110450,2435.1516,N,07951.8296,W,1,8,2.3,7,M,,M,,*63
06/01/2014	11:04:42.746	$GPGGA,110451,2435.1518,N,07951.8280,W,1,8,2.3,7,M,,M,,*6B
06/01/2014	11:04:43.694	$GPGGA,110452,2435.1519,N,07951.8264,W,1,8,2.3,7,M,,M,,*63
06/01/2014	11:04:44.742	$GPGGA,110453,2435.1523,N,07951.8248,W,1,8,2.3,7,M,,M,,*65
06/01/2014	11:04:45.650	$GPGGA,110454,2435.1526,N,07951.8232,W,1,8,2.3,7,M,,M,,*6A
06/01/2014	11:04:46.718	$GPGGA,110455,2435.1527,N,07951.8216,W,1,8,2.3,7,M,,M,,*6C
06/01/2014	11:04:47.656	$GPGGA,110456,2435.1530,N,07951.8200,W,1,8,2.3,7,M,,M,,*6E
06/01/2014	11:04:48.674	$GPGGA,110457,2435.1533,N,07951.8184,W,1,8,2.3,7,M,,M,,*63
06/01/2014	11:04:49.602	$GPGGA,110458,2435.1536,N,07951.8168,W,1,8,2.3,7,M,,M,,*6B
06/01/2014	11:04:50.700	$GPGGA,110459,2435.1539,N,07951.8151,W,1,8,2.3,7,M,,M,,*6F
06/01/2014	11:04:51.648	$GPGGA,110500,2435.1541,N,07951.8136,W,1,8,2.3,7,M,,M,,*6C
06/01/2014	11:04:52.596	$GPGGA,110501,2435.1544,N,07951.8120,W,1,8,2.3,7,M,,M,,*6F
06/01/2014	11:04:53.584	$GPGGA,110502,2435.1545,N,07951.8103,W,1,8,2.3,7,M,,M,,*6C
06/01/2014	11:04:54.682	$GPGGA,110503,2435.1548,N,07951.8088,W,1,8,2.3,7,M,,M,,*62
06/01/2014	11:04:55.630	$GPGGA,110504,2435.1552,N,07951.8071,W,1,8,2.3,7,M,,M,,*68
06/01/2014	11:04:56.578	$GPGGA,110505,2435.1554,N,07951.8055,W,1,8,2.3,7,M,,M,,*69
06/01/2014	11:04:57.577	$GPGGA,110506,2435.1557,N,07951.8039,W,1,8,2.3,7,M,,M,,*63
06/01/2014	11:04:58.663	$GPGGA,110507,2435.1561,N,07951.8023,W,1,8,2.3,7,M,,M,,*6C
06/01/2014	11:04:59.611	$GPGGA,110508,2435.1563,N,07951.8007,W,1,8,2.3,7,M,,M,,*67
06/01/2014	11:05:00.559	$GPGGA,110509,2435.1566,N,07951.7991,W,1,8,2.3,7,M,,M,,*6A
06/01/2014	11:05:01.587	$GPGGA,110510,2435.1568,N,07951.7975,W,1,8,2.3,7,M,,M,,*66
06/01/2014	11:05:02.666	$GPGGA,110511,2435.1572,N,07951.7960,W,1,8,2.3,7,M,,M,,*68
06/01/2014	11:05:03.593	$GPGGA,110512,2435.1573,N,07951.7943,W,1,8,2.3,7,M,,M,,*6B
06/01/2014	11:05:04.541	$GPGGA,110513,2435.1576,N,07951.7927,W,1,8,2.3,7,M,,M,,*6D
06/01/2014	11:05:05.569	$GPGGA,110514,2435.1580,N,07951.7912,W,1,8,2.3,7,M,,M,,*65
06/01/2014	11:05:06.657	$GPGGA,110515,2435.1581,N,07951.7895,W,1,8,2.3,7,M,,M,,*6B
06/01/2014	11:05:07.585	$GPGGA,110516,2435.1584,N,07951.7880,W,1,8,2.3,7,M,,M,,*69
06/01/2014	11:05:08.523	$GPGGA,110517,2435.1587,N,07951.7864,W,1,8,2.3,7,M,,M,,*61
06/01/2014	11:05:09.561	$GPGGA,110518,2435.1590,N,07951.7848,W,1,8,2.3,7,M,,M,,*66
06/01/2014	11:05:10.649	$GPGGA,110519,2435.1591,N,07951.7832,W,1,8,2.3,7,M,,M,,*6B
06/01/2014	11:05:11.527	$GPGGA,110520,2435.1594,N,07951.7816,W,1,8,2.3,7,M,,M,,*62
06/01/2014	11:05:12.595	$GPGGA,110521,2435.1597,N,07951.7800,W,1,8,2.3,7,M,,M,,*67
06/01/2014	11:05:13.623	$GPGGA,110522,2435.1599,N,07951.7784,W,1,8,2.3,7,M,,M,,*69
06/01/2014	11:05:14.501	$GPGGA,110523,2435.1602,N,07951.7768,W,1,8,2.3,7,M,,M,,*6B
06/01/2014	11:05:15.509	$GPGGA,110524,2435.1604,N,07951.7751,W,1,8,2.3,7,M,,M,,*60
06/01/2014	11:05:16.626	$GPGGA,110525,2435.1606,N,07951.7736,W,1,8,2.3,7,M,,M,,*62
06/01/2014	11:05:17.484	$GPGGA,110526,2435.1608,N,07951.7719,W,1,8,2.3,7,M,,M,,*62
06/01/2014	11:05:18.492	$GPGGA,110527,2435.1609,N,07951.7703,W,1,8,2.3,7,M,,M,,*69
06/01/2014	11:05:19.540	$GPGGA,110528,2435.1612,N,07951.7688,W,1,8,2.3,7,M,,M,,*6E
06/01/2014	11:05:20.690	$GPGGA,110529,2435.1613,N,07951.7671,W,1,8,2.3,7,M,,M,,*68
06/01/2014	11:05:21.698	$GPGGA,110530,2435.1616,N,07951.7655,W,1,8,2.3,7,M,,M,,*63
06/01/2014	11:05:22.596	$GPGGA,110531,2435.1617,N,07951.7640,W,1,8,2.3,7,M,,M,,*67
06/01/2014	11:05:23.724	$GPGGA,110532,2435.1620,N,07951.7623,W,1,8,2.3,7,M,,M,,*65
06/01/2014	11:05:24.632	$GPGGA,110533,2435.1622,N,07951.7608,W,1,8,2.3,7,M,,M,,*6F
06/01/2014	11:05:25.680	$GPGGA,110534,2435.1624,N,07951.7592,W,1,8,2.3,7,M,,M,,*6E
06/01/2014	11:05:26.678	$GPGGA,110535,2435.1624,N,07951.7576,W,1,8,2.3,7,M,,M,,*65
06/01/2014	11:05:27.626	$GPGGA,110536,2435.1628,N,07951.7560,W,1,8,2.3,7,M,,M,,*6D
06/01/2014	11:05:28.665	$GPGGA,110537,2435.1628,N,07951.7544,W,1,8,2.3,7,M,,M,,*6A
06/01/2014	11:05:29.672	$GPGGA,110538,2435.1631,N,07951.7529,W,1,8,2.3,7,M,,M,,*66
06/01/2014	11:05:30.660	$GPGGA,110539,2435.1633,N,07951.7513,W,1,8,2.3,7,M,,M,,*6C
06/01/2014	11:05:31.678	$GPGGA,110540,2435.1635,N,07951.7497,W,1,8,2.3,7,M,,M,,*69
06/01/2014	11:05:32.667	$GPGGA,110541,2435.1637,N,07951.7481,W,1,8,2.3,7,M,,M,,*6D
06/01/2014	11:05:33.653	$GPGGA,110542,2435.1638,N,07951.7465,W,1,8,2.3,7,M,,M,,*6B
06/01/2014	11:05:34.701	$GPGGA,110543,2435.1641,N,07951.7449,W,1,8,2.3,7,M,,M,,*6A
06/01/2014	11:05:35.649	$GPGGA,110544,2435.1642,N,07951.7433,W,1,8,2.3,7,M,,M,,*63
06/01/2014	11:05:36.667	$GPGGA,110545,2435.1642,N,07951.7418,W,1,8,2.3,7,M,,M,,*6B
06/01/2014	11:05:37.625	$GPGGA,110546,2435.1646,N,07951.7402,W,1,8,2.3,7,M,,M,,*67
06/01/2014	11:05:38.653	$GPGGA,110547,2435.1648,N,07951.7386,W,1,8,2.3,7,M,,M,,*63
06/01/2014	11:05:41.008	$GPGGA,110549,2435.1649,N,07951.7354,W,1,8,2.3,7,M,,M,,*63
06/01/2014	11:05:41.617	$GPGGA,110550,2435.1653,N,07951.7338,W,1,8,2.3,7,M,,M,,*6A
06/01/2014	11:05:42.645	$GPGGA,110551,2435.1655,N,07951.7323,W,1,8,2.3,7,M,,M,,*67
06/01/2014	11:05:43.613	$GPGGA,110552,2435.1656,N,07951.7307,W,1,8,2.3,7,M,,M,,*61
06/01/2014	11:05:44.651	$GPGGA,110553,2435.1659,N,07951.7290,W,1,8,2.3,7,M,,M,,*60
06/01/2014	11:05:45.599	$GPGGA,110554,2435.1660,N,07951.7274,W,1,8,2.3,7,M,,M,,*67
06/01/2014	11:05:46.627	$GPGGA,110555,2435.1663,N,07951.7258,W,1,8,2.3,7,M,,M,,*6B
06/01/2014	11:05:47.615	$GPGGA,110556,2435.1664,N,07951.7242,W,1,8,2.3,7,M,,M,,*64
06/01/2014	11:05:48.624	$GPGGA,110557,2435.1667,N,07951.7227,W,1,8,2.3,7,M,,M,,*65
06/01/2014	11:05:49.591	$GPGGA,110558,2435.1669,N,07951.7211,W,1,8,2.3,7,M,,M,,*61
06/01/2014	11:05:50.619	$GPGGA,110559,2435.1670,N,07951.7195,W,1,8,2.3,7,M,,M,,*67
06/01/2014	11:05:51.586	$GPGGA,110600,2435.1671,N,07951.7179,W,1,8,2.3,7,M,,M,,*6B
06/01/2014	11:05:52.644	$GPGGA,110601,2435.1674,N,07951.7163,W,1,8,2.3,7,M,,M,,*64
06/01/2014	11:05:53.572	$GPGGA,110602,2435.1675,N,07951.7147,W,1,8,2.3,7,M,,M,,*60
06/01/2014	11:05:54.610	$GPGGA,110603,2435.1678,N,07951.7131,W,1,8,2.3,7,M,,M,,*6D
06/01/2014	11:05:55.568	$GPGGA,110604,2435.1680,N,07951.7115,W,1,8,2.3,7,M,,M,,*6B
06/01/2014	11:05:56.616	$GPGGA,110605,2435.1682,N,07951.7099,W,1,8,2.3,7,M,,M,,*6D
06/01/2014	11:05:57.544	$GPGGA,110606,2435.1684,N,07951.7083,W,1,8,2.3,7,M,,M,,*63
06/01/2014	11:05:58.602	$GPGGA,110607,2435.1685,N,07951.7068,W,1,8,2.3,7,M,,M,,*66
06/01/2014	11:05:59.560	$GPGGA,110608,2435.1688,N,07951.7051,W,1,8,2.3,7,M,,M,,*6E
06/01/2014	11:06:00.608	$GPGGA,110609,2435.1689,N,07951.7035,W,1,8,2.3,6,M,,M,,*6D
06/01/2014	11:06:01.537	$GPGGA,110610,2435.1692,N,07951.7019,W,1,8,2.3,6,M,,M,,*61
06/01/2014	11:06:02.544	$GPGGA,110611,2435.1692,N,07951.7019,W,1,8,2.3,6,M,,M,,*60
06/01/2014	11:06:03.532	$GPGGA,110612,2435.1696,N,07951.6988,W,1,8,2.3,6,M,,M,,*67
06/01/2014	11:06:04.600	$GPGGA,110613,2435.1700,N,07951.6971,W,1,8,2.3,6,M,,M,,*6E
06/01/2014	11:06:05.528	$GPGGA,110614,2435.1702,N,07951.6955,W,1,8,2.3,6,M,,M,,*6D
06/01/2014	11:06:06.626	$GPGGA,110615,2435.1704,N,07951.6940,W,1,8,2.3,6,M,,M,,*6E
06/01/2014	11:06:07.526	$GPGGA,110616,2435.1707,N,07951.6924,W,1,8,2.3,6,M,,M,,*6C
06/01/2014	11:06:08.511	$GPGGA,110617,2435.1707,N,07951.6924,W,1,8,2.3,6,M,,M,,*6D
06/01/2014	11:06:09.599	$GPGGA,110618,2435.1711,N,07951.6892,W,1,8,2.3,6,M,,M,,*69
06/01/2014	11:06:10.507	$GPGGA,110619,2435.1714,N,07951.6876,W,1,8,2.3,6,M,,M,,*67
06/01/2014	11:06:11.495	$GPGGA,110620,2435.1717,N,07951.6861,W,1,8,2.3,6,M,,M,,*68
06/01/2014	11:06:12.583	$GPGGA,110621,2435.1718,N,07951.6845,W,1,8,2.3,6,M,,M,,*60
06/01/2014	11:06:13.571	$GPGGA,110622,2435.1721,N,07951.6829,W,1,8,2.3,6,M,,M,,*63
06/01/2014	11:06:14.619	$GPGGA,110623,2435.1725,N,07951.6813,W,1,8,2.3,6,M,,M,,*6F
06/01/2014	11:06:15.597	$GPGGA,110624,2435.1727,N,07951.6797,W,1,8,2.3,6,M,,M,,*69
06/01/2014	11:06:16.595	$GPGGA,110625,2435.1729,N,07951.6781,W,1,8,2.3,6,M,,M,,*61
06/01/2014	11:06:17.573	$GPGGA,110626,2435.1732,N,07951.6765,W,1,8,2.3,6,M,,M,,*62
06/01/2014	11:06:18.561	$GPGGA,110627,2435.1736,N,07951.6750,W,1,8,2.3,6,M,,M,,*61
06/01/2014	11:06:19.579	$GPGGA,110628,2435.1738,N,07951.6734,W,1,8,2.3,6,M,,M,,*62
06/01/2014	11:06:20.708	$GPGGA,110629,2435.1740,N,07951.6718,W,1,8,2.3,6,M,,M,,*62
06/01/2014	11:06:21.686	$GPGGA,110630,2435.1743,N,07951.6702,W,1,8,2.3,6,M,,M,,*62
06/01/2014	11:06:22.694	$GPGGA,110631,2435.1746,N,07951.6686,W,1,8,2.3,6,M,,M,,*6B
06/01/2014	11:06:23.682	$GPGGA,110632,2435.1747,N,07951.6671,W,1,8,2.3,6,M,,M,,*61
06/01/2014	11:06:24.670	$GPGGA,110633,2435.1750,N,07951.6655,W,1,8,2.3,6,M,,M,,*60
06/01/2014	11:06:25.658	$GPGGA,110634,2435.1754,N,07951.6639,W,1,8,2.3,6,M,,M,,*69
06/01/2014	11:06:26.665	$GPGGA,110635,2435.1757,N,07951.6624,W,1,8,2.3,6,M,,M,,*67
06/01/2014	11:06:27.663	$GPGGA,110636,2435.1758,N,07951.6608,W,1,8,2.3,6,M,,M,,*65
06/01/2014	11:06:28.631	$GPGGA,110637,2435.1761,N,07951.6592,W,1,8,2.3,6,M,,M,,*6E
06/01/2014	11:06:29.639	$GPGGA,110638,2435.1765,N,07951.6577,W,1,8,2.3,6,M,,M,,*6E
06/01/2014	11:06:30.647	$GPGGA,110639,2435.1765,N,07951.6561,W,1,8,2.3,6,M,,M,,*68
06/01/2014	11:06:31.646	$GPGGA,110640,2435.1768,N,07951.6545,W,1,8,2.3,6,M,,M,,*6D
06/01/2014	11:06:32.643	$GPGGA,110641,2435.1771,N,07951.6529,W,1,8,2.3,6,M,,M,,*6E
06/01/2014	11:06:33.631	$GPGGA,110642,2435.1772,N,07951.6513,W,1,8,2.3,6,M,,M,,*67
06/01/2014	11:06:34.609	$GPGGA,110643,2435.1776,N,07951.6497,W,1,8,2.3,6,M,,M,,*6F
06/01/2014	11:06:35.637	$GPGGA,110644,2435.1778,N,07951.6481,W,1,8,2.3,6,M,,M,,*61
06/01/2014	11:06:36.605	$GPGGA,110645,2435.1781,N,07951.6465,W,1,8,2.3,6,M,,M,,*6C
06/01/2014	11:06:37.603	$GPGGA,110646,2435.1783,N,07951.6449,W,1,8,2.3,6,M,,M,,*63
06/01/2014	11:06:38.631	$GPGGA,110647,2435.1785,N,07951.6433,W,1,8,2.3,6,M,,M,,*69
06/01/2014	11:06:39.599	$GPGGA,110648,2435.1786,N,07951.6417,W,1,8,2.3,6,M,,M,,*63
06/01/2014	11:06:40.627	$GPGGA,110649,2435.1789,N,07951.6401,W,1,8,2.3,6,M,,M,,*6A
06/01/2014	11:06:41.585	$GPGGA,110650,2435.1792,N,07951.6385,W,1,8,2.3,6,M,,M,,*63
06/01/2014	11:06:42.613	$GPGGA,110651,2435.1794,N,07951.6369,W,1,8,2.3,6,M,,M,,*66
06/01/2014	11:06:43.590	$GPGGA,110652,2435.1796,N,07951.6352,W,1,8,2.3,6,M,,M,,*6F
06/01/2014	11:06:44.588	$GPGGA,110653,2435.1797,N,07951.6336,W,1,8,2.3,6,M,,M,,*6D
06/01/2014	11:06:45.566	$GPGGA,110654,2435.1800,N,07951.6320,W,1,8,2.3,6,M,,M,,*6C
06/01/2014	11:06:46.594	$GPGGA,110655,2435.1801,N,07951.6304,W,1,8,2.3,6,M,,M,,*6A
06/01/2014	11:06:47.582	$GPGGA,110656,2435.1804,N,07951.6288,W,1,8,2.3,6,M,,M,,*69
06/01/2014	11:06:48.550	$GPGGA,110657,2435.1805,N,07951.6272,W,1,8,2.3,6,M,,M,,*6C
06/01/2014	11:06:49.668	$GPGGA,110658,2435.1808,N,07951.6256,W,1,8,2.3,6,M,,M,,*68
06/01/2014	11:06:50.566	$GPGGA,110659,2435.1810,N,07951.6240,W,1,8,2.3,6,M,,M,,*67
06/01/2014	11:06:51.564	$GPGGA,110700,2435.1812,N,07951.6223,W,1,8,2.3,6,M,,M,,*6D
06/01/2014	11:06:52.572	$GPGGA,110701,2435.1814,N,07951.6208,W,1,8,2.3,6,M,,M,,*63
06/01/2014	11:06:53.540	$GPGGA,110702,2435.1815,N,07951.6191,W,1,8,2.3,6,M,,M,,*62
06/01/2014	11:06:54.548	$GPGGA,110703,2435.1816,N,07951.6175,W,1,8,2.3,6,M,,M,,*6A
06/01/2014	11:06:55.636	$GPGGA,110704,2435.1819,N,07951.6159,W,1,8,2.3,6,M,,M,,*6C
06/01/2014	11:06:56.554	$GPGGA,110705,2435.1821,N,07951.6143,W,1,8,2.3,6,M,,M,,*6D
06/01/2014	11:06:57.612	$GPGGA,110706,2435.1822,N,07951.6127,W,1,8,2.3,6,M,,M,,*6F
06/01/2014	11:06:58.520	$GPGGA,110707,2435.1823,N,07951.6111,W,1,8,2.3,6,M,,M,,*6A
06/01/2014	11:06:59.618	$GPGGA,110708,2435.1826,N,07951.6095,W,1,8,2.3,6,M,,M,,*6D
06/01/2014	11:07:00.637	$GPGGA,110709,2435.1826,N,07951.6079,W,1,8,2.3,6,M,,M,,*6E
06/01/2014	11:07:01.593	$GPGGA,110710,2435.1828,N,07951.6063,W,1,8,2.3,6,M,,M,,*63
06/01/2014	11:07:02.601	$GPGGA,110711,2435.1830,N,07951.6048,W,1,8,2.4,6,M,,M,,*65
06/01/2014	11:07:03.619	$GPGGA,110712,2435.1832,N,07951.6032,W,1,8,2.4,6,M,,M,,*69
06/01/2014	11:07:04.597	$GPGGA,110713,2435.1833,N,07951.6016,W,1,8,2.4,6,M,,M,,*6F
06/01/2014	11:07:05.585	$GPGGA,110714,2435.1834,N,07951.6001,W,1,8,2.4,6,M,,M,,*69
06/01/2014	11:07:06.593	$GPGGA,110715,2435.1836,N,07951.5985,W,1,8,2.4,6,M,,M,,*6C
06/01/2014	11:07:07.601	$GPGGA,110716,2435.1837,N,07951.5970,W,1,8,2.4,6,M,,M,,*64
06/01/2014	11:07:08.609	$GPGGA,110717,2435.1839,N,07951.5954,W,1,8,2.3,6,M,,M,,*6A
06/01/2014	11:07:09.577	$GPGGA,110718,2435.1841,N,07951.5938,W,1,8,2.3,6,M,,M,,*60
06/01/2014	11:07:10.565	$GPGGA,110719,2435.1843,N,07951.5924,W,1,8,2.3,6,M,,M,,*6E
06/01/2014	11:07:11.583	$GPGGA,110720,2435.1844,N,07951.5907,W,1,8,2.3,6,M,,M,,*62
06/01/2014	11:07:12.571	$GPGGA,110721,2435.1846,N,07951.5893,W,1,8,2.3,6,M,,M,,*6D
06/01/2014	11:07:13.559	$GPGGA,110722,2435.1847,N,07951.5877,W,1,8,2.3,6,M,,M,,*65
06/01/2014	11:07:14.568	$GPGGA,110723,2435.1848,N,07951.5862,W,1,8,2.4,6,M,,M,,*68
06/01/2014	11:07:15.565	$GPGGA,110724,2435.1850,N,07951.5847,W,1,8,2.4,6,M,,M,,*61
06/01/2014	11:07:16.573	$GPGGA,110725,2435.1852,N,07951.5831,W,1,8,2.4,6,M,,M,,*63
06/01/2014	11:07:17.541	$GPGGA,110726,2435.1854,N,07951.5816,W,1,8,2.4,6,M,,M,,*63
06/01/2014	11:07:18.558	$GPGGA,110727,2435.1855,N,07951.5800,W,1,8,2.4,6,M,,M,,*64
06/01/2014	11:07:19.546	$GPGGA,110728,2435.1857,N,07951.5785,W,1,8,2.4,6,M,,M,,*6B
06/01/2014	11:07:20.676	$GPGGA,110729,2435.1859,N,07951.5770,W,1,8,2.3,6,M,,M,,*69
06/01/2014	11:07:21.634	$GPGGA,110730,2435.1862,N,07951.5754,W,1,8,2.3,6,M,,M,,*6F
06/01/2014	11:07:22.662	$GPGGA,110731,2435.1862,N,07951.5739,W,1,8,2.3,6,M,,M,,*65
06/01/2014	11:07:23.640	$GPGGA,110732,2435.1865,N,07951.5723,W,1,8,2.3,6,M,,M,,*6A
06/01/2014	11:07:24.628	$GPGGA,110733,2435.1866,N,07951.5708,W,1,8,2.3,6,M,,M,,*61
06/01/2014	11:07:25.646	$GPGGA,110734,2435.1869,N,07951.5692,W,1,8,2.3,6,M,,M,,*6B
06/01/2014	11:07:26.614	$GPGGA,110735,2435.1870,N,07951.5676,W,1,8,2.4,6,M,,M,,*6F
06/01/2014	11:07:27.642	$GPGGA,110736,2435.1873,N,07951.5661,W,1,8,2.4,6,M,,M,,*69
06/01/2014	11:07:28.620	$GPGGA,110737,2435.1875,N,07951.5646,W,1,8,2.4,6,M,,M,,*6B
06/01/2014	11:07:29.608	$GPGGA,110738,2435.1877,N,07951.5630,W,1,8,2.4,6,M,,M,,*67
06/01/2014	11:07:30.598	$GPGGA,110739,2435.1879,N,07951.5614,W,1,8,2.4,6,M,,M,,*6E
06/01/2014	11:07:31.604	$GPGGA,110740,2435.1880,N,07951.5598,W,1,8,2.4,6,M,,M,,*61
06/01/2014	11:07:32.612	$GPGGA,110741,2435.1883,N,07951.5582,W,1,8,2.3,6,M,,M,,*6F
06/01/2014	11:07:33.590	$GPGGA,110742,2435.1884,N,07951.5567,W,1,8,2.3,6,M,,M,,*60
06/01/2014	11:07:34.598	$GPGGA,110743,2435.1888,N,07951.5551,W,1,8,2.3,6,M,,M,,*68
06/01/2014	11:07:35.606	$GPGGA,110744,2435.1891,N,07951.5536,W,1,8,2.3,6,M,,M,,*66
06/01/2014	11:07:36.603	$GPGGA,110745,2435.1893,N,07951.5520,W,1,8,2.3,6,M,,M,,*62
06/01/2014	11:07:37.591	$GPGGA,110746,2435.1895,N,07951.5504,W,1,8,2.3,6,M,,M,,*61
06/01/2014	11:07:38.589	$GPGGA,110747,2435.1898,N,07951.5489,W,1,8,2.4,6,M,,M,,*6E
06/01/2014	11:07:39.587	$GPGGA,110748,2435.1901,N,07951.5473,W,1,8,2.4,6,M,,M,,*65
06/01/2014	11:07:40.585	$GPGGA,110749,2435.1902,N,07951.5458,W,1,8,2.4,6,M,,M,,*6E
06/01/2014	11:07:41.653	$GPGGA,110750,2435.1905,N,07951.5442,W,1,8,2.4,6,M,,M,,*6A
06/01/2014	11:07:42.651	$GPGGA,110751,2435.1908,N,07951.5426,W,1,8,2.4,6,M,,M,,*64
06/01/2014	11:07:43.579	$GPGGA,110752,2435.1911,N,07951.5411,W,1,8,2.4,6,M,,M,,*6B
06/01/2014	11:07:44.557	$GPGGA,110753,2435.1913,N,07951.5395,W,1,8,2.3,6,M,,M,,*64
06/01/2014	11:07:45.635	$GPGGA,110754,2435.1916,N,07951.5380,W,1,8,2.3,6,M,,M,,*62
06/01/2014	11:07:46.653	$GPGGA,110755,2435.1919,N,07951.5364,W,1,8,2.3,6,M,,M,,*66
06/01/2014	11:07:47.552	$GPGGA,110756,2435.1922,N,07951.5349,W,1,8,2.3,6,M,,M,,*62
06/01/2014	11:07:48.639	$GPGGA,110757,2435.1924,N,07951.5333,W,1,8,2.3,6,M,,M,,*68
06/01/2014	11:07:49.627	$GPGGA,110758,2435.1926,N,07951.5317,W,1,8,2.3,6,M,,M,,*63
06/01/2014	11:07:50.636	$GPGGA,110759,2435.1928,N,07951.5302,W,1,8,2.4,6,M,,M,,*6F
06/01/2014	11:07:51.644	$GPGGA,110800,2435.1931,N,07951.5286,W,1,8,2.4,6,M,,M,,*69
06/01/2014	11:07:52.621	$GPGGA,110801,2435.1934,N,07951.5270,W,1,8,2.4,6,M,,M,,*64
06/01/2014	11:07:53.598	$GPGGA,110802,2435.1937,N,07951.5255,W,1,8,2.4,6,M,,M,,*63
06/01/2014	11:07:54.626	$GPGGA,110803,2435.1938,N,07951.5239,W,1,8,2.4,6,M,,M,,*67
06/01/2014	11:07:55.614	$GPGGA,110804,2435.1942,N,07951.5223,W,1,8,2.4,6,M,,M,,*66
06/01/2014	11:07:56.603	$GPGGA,110805,2435.1945,N,07951.5208,W,1,8,2.3,6,M,,M,,*6E
06/01/2014	11:07:57.590	$GPGGA,110806,2435.1946,N,07951.5192,W,1,8,2.3,6,M,,M,,*6E
06/01/2014	11:07:58.608	$GPGGA,110807,2435.1951,N,07951.5178,W,1,8,2.3,6,M,,M,,*6D
06/01/2014	11:07:59.586	$GPGGA,110808,2435.1953,N,07951.5161,W,1,8,2.3,6,M,,M,,*68
06/01/2014	11:08:00.594	$GPGGA,110809,2435.1955,N,07951.5146,W,1,8,2.3,6,M,,M,,*6A
06/01/2014	11:08:01.572	$GPGGA,110810,2435.1958,N,07951.5130,W,1,8,2.3,6,M,,M,,*6E
06/01/2014	11:08:02.590	$GPGGA,110811,2435.1960,N,07951.5115,W,1,8,2.4,6,M,,M,,*64
06/01/2014	11:08:03.578	$GPGGA,110812,2435.1963,N,07951.5099,W,1,8,2.4,6,M,,M,,*61
06/01/2014	11:08:04.586	$GPGGA,110813,2435.1964,N,07951.5083,W,1,8,2.4,6,M,,M,,*6C
06/01/2014	11:08:05.564	$GPGGA,110814,2435.1967,N,07951.5067,W,1,8,2.4,6,M,,M,,*62
06/01/2014	11:08:06.562	$GPGGA,110815,2435.1970,N,07951.5051,W,1,8,2.4,6,M,,M,,*60
06/01/2014	11:08:07.590	$GPGGA,110816,2435.1971,N,07951.5036,W,1,8,2.4,6,M,,M,,*63
06/01/2014	11:08:08.578	$GPGGA,110817,2435.1974,N,07951.5020,W,1,8,2.3,6,M,,M,,*67
06/01/2014	11:08:09.536	$GPGGA,110818,2435.1975,N,07951.5004,W,1,8,2.3,6,M,,M,,*6F
06/01/2014	11:08:10.565	$GPGGA,110819,2435.1978,N,07951.4989,W,1,8,2.3,6,M,,M,,*6E
06/01/2014	11:08:11.561	$GPGGA,110820,2435.1980,N,07951.4973,W,1,8,2.3,6,M,,M,,*66
06/01/2014	11:08:12.539	$GPGGA,110821,2435.1981,N,07951.4957,W,1,8,2.3,6,M,,M,,*60
06/01/2014	11:08:13.527	$GPGGA,110822,2435.1984,N,07951.4941,W,1,8,2.3,6,M,,M,,*61
06/01/2014	11:08:14.525	$GPGGA,110823,2435.1985,N,07951.4925,W,1,8,2.4,6,M,,M,,*64
06/01/2014	11:08:15.543	$GPGGA,110824,2435.1987,N,07951.4909,W,1,8,2.4,6,M,,M,,*6F
06/01/2014	11:08:16.511	$GPGGA,110825,2435.1989,N,07951.4894,W,1,8,2.4,6,M,,M,,*65
06/01/2014	11:08:17.519	$GPGGA,110826,2435.1991,N,07951.4878,W,1,8,2.4,6,M,,M,,*6D
06/01/2014	11:08:18.537	$GPGGA,110827,2435.1992,N,07951.4862,W,1,8,2.4,6,M,,M,,*64
06/01/2014	11:08:19.635	$GPGGA,110828,2435.1993,N,07951.4847,W,1,8,2.4,6,M,,M,,*6D
06/01/2014	11:08:20.624	$GPGGA,110829,2435.1996,N,07951.4831,W,1,8,2.3,6,M,,M,,*6F
06/01/2014	11:08:21.622	$GPGGA,110830,2435.1998,N,07951.4815,W,1,8,2.3,6,M,,M,,*6F
06/01/2014	11:08:22.600	$GPGGA,110831,2435.1999,N,07951.4799,W,1,8,2.3,6,M,,M,,*64
06/01/2014	11:08:23.628	$GPGGA,110832,2435.2000,N,07951.4784,W,1,8,2.3,6,M,,M,,*61
06/01/2014	11:08:24.616	$GPGGA,110833,2435.2003,N,07951.4768,W,1,8,2.3,6,M,,M,,*61
06/01/2014	11:08:25.605	$GPGGA,110834,2435.2003,N,07951.4752,W,1,8,2.3,6,M,,M,,*6F
06/01/2014	11:08:26.592	$GPGGA,110835,2435.2006,N,07951.4736,W,1,8,2.4,6,M,,M,,*6E
06/01/2014	11:08:27.600	$GPGGA,110836,2435.2007,N,07951.4720,W,1,8,2.4,6,M,,M,,*6B
06/01/2014	11:08:28.697	$GPGGA,110837,2435.2009,N,07951.4704,W,1,8,2.4,6,M,,M,,*62
06/01/2014	11:08:29.595	$GPGGA,110838,2435.2010,N,07951.4689,W,1,8,2.4,6,M,,M,,*61
06/01/2014	11:08:30.583	$GPGGA,110839,2435.2010,N,07951.4673,W,1,8,2.4,6,M,,M,,*65
06/01/2014	11:08:31.581	$GPGGA,110840,2435.2013,N,07951.4658,W,1,8,2.4,6,M,,M,,*61
06/01/2014	11:08:32.679	$GPGGA,110841,2435.2014,N,07951.4641,W,1,8,2.3,6,M,,M,,*68
06/01/2014	11:08:33.567	$GPGGA,110842,2435.2016,N,07951.4626,W,1,8,2.3,6,M,,M,,*68
06/01/2014	11:08:34.565	$GPGGA,110843,2435.2018,N,07951.4610,W,1,8,2.3,6,M,,M,,*62
06/01/2014	11:08:35.673	$GPGGA,110844,2435.2018,N,07951.4594,W,1,8,2.3,6,M,,M,,*6A
06/01/2014	11:08:36.651	$GPGGA,110845,2435.2020,N,07951.4580,W,1,8,2.3,6,M,,M,,*65
06/01/2014	11:08:37.639	$GPGGA,110846,2435.2021,N,07951.4563,W,1,8,2.3,6,M,,M,,*6A
06/01/2014	11:08:38.677	$GPGGA,110847,2435.2023,N,07951.4548,W,1,8,2.4,6,M,,M,,*67
06/01/2014	11:08:39.655	$GPGGA,110848,2435.2024,N,07951.4533,W,1,8,2.4,6,M,,M,,*63
06/01/2014	11:08:40.663	$GPGGA,110849,2435.2025,N,07951.4517,W,1,8,2.4,6,M,,M,,*65
06/01/2014	11:08:41.621	$GPGGA,110850,2435.2028,N,07951.4502,W,1,8,2.4,6,M,,M,,*64
06/01/2014	11:08:42.640	$GPGGA,110851,2435.2027,N,07951.4485,W,1,8,2.4,6,M,,M,,*64
06/01/2014	11:08:43.637	$GPGGA,110852,2435.2029,N,07951.4470,W,1,8,2.4,6,M,,M,,*63
06/01/2014	11:08:44.615	$GPGGA,110853,2435.2032,N,07951.4454,W,1,8,2.3,7,M,,M,,*68
06/01/2014	11:08:45.613	$GPGGA,110854,2435.2032,N,07951.4438,W,1,8,2.3,7,M,,M,,*65
06/01/2014	11:08:46.630	$GPGGA,110855,2435.2034,N,07951.4423,W,1,8,2.3,7,M,,M,,*68
06/01/2014	11:08:47.618	$GPGGA,110856,2435.2036,N,07951.4407,W,1,8,2.3,7,M,,M,,*6F
06/01/2014	11:08:48.616	$GPGGA,110857,2435.2039,N,07951.4391,W,1,8,2.3,7,M,,M,,*69
06/01/2014	11:08:49.604	$GPGGA,110858,2435.2039,N,07951.4375,W,1,8,2.3,7,M,,M,,*6C
06/01/2014	11:08:50.612	$GPGGA,110859,2435.2040,N,07951.4360,W,1,8,2.4,7,M,,M,,*60
06/01/2014	11:08:51.600	$GPGGA,110900,2435.2043,N,07951.4344,W,1,8,2.4,7,M,,M,,*68
06/01/2014	11:08:52.608	$GPGGA,110901,2435.2045,N,07951.4329,W,1,8,2.4,7,M,,M,,*64
06/01/2014	11:08:53.576	$GPGGA,110902,2435.2047,N,07951.4313,W,1,8,2.4,7,M,,M,,*6C
06/01/2014	11:08:54.564	$GPGGA,110903,2435.2047,N,07951.4297,W,1,8,2.4,7,M,,M,,*60
06/01/2014	11:08:55.592	$GPGGA,110904,2435.2050,N,07951.4282,W,1,8,2.4,7,M,,M,,*65
06/01/2014	11:08:56.560	$GPGGA,110905,2435.2053,N,07951.4265,W,1,8,2.3,7,M,,M,,*69
06/01/2014	11:08:57.568	$GPGGA,110906,2435.2054,N,07951.4250,W,1,8,2.3,7,M,,M,,*6B
06/01/2014	11:08:58.596	$GPGGA,110907,2435.2056,N,07951.4234,W,1,8,2.3,7,M,,M,,*6A
06/01/2014	11:08:59.574	$GPGGA,110908,2435.2057,N,07951.4218,W,1,8,2.3,7,M,,M,,*6A
06/01/2014	11:09:00.582	$GPGGA,110909,2435.2060,N,07951.4203,W,1,8,2.3,7,M,,M,,*65
06/01/2014	11:09:01.550	$GPGGA,110910,2435.2063,N,07951.4187,W,1,8,2.3,7,M,,M,,*61
06/01/2014	11:09:02.588	$GPGGA,110911,2435.2065,N,07951.4172,W,1,8,2.4,7,M,,M,,*6B
06/01/2014	11:09:03.565	$GPGGA,110912,2435.2065,N,07951.4157,W,1,8,2.4,7,M,,M,,*6F
06/01/2014	11:09:04.543	$GPGGA,110913,2435.2068,N,07951.4141,W,1,8,2.4,7,M,,M,,*64
06/01/2014	11:09:05.531	$GPGGA,110914,2435.2071,N,07951.4127,W,1,8,2.4,7,M,,M,,*6B
06/01/2014	11:09:06.579	$GPGGA,110915,2435.2074,N,07951.4110,W,1,8,2.4,7,M,,M,,*6B
06/01/2014	11:09:07.547	$GPGGA,110916,2435.2075,N,07951.4096,W,1,8,2.4,7,M,,M,,*66
06/01/2014	11:09:08.525	$GPGGA,110917,2435.2076,N,07951.4080,W,1,8,2.3,7,M,,M,,*64
06/01/2014	11:09:09.513	$GPGGA,110918,2435.2079,N,07951.4064,W,1,8,2.3,7,M,,M,,*6E
06/01/2014	11:09:10.521	$GPGGA,110919,2435.2082,N,07951.4050,W,1,8,2.3,7,M,,M,,*6C
06/01/2014	11:09:11.529	$GPGGA,110920,2435.2083,N,07951.4034,W,1,8,2.3,7,M,,M,,*65
06/01/2014	11:09:12.527	$GPGGA,110921,2435.2086,N,07951.4019,W,1,8,2.3,7,M,,M,,*6E
06/01/2014	11:09:13.505	$GPGGA,110922,2435.2089,N,07951.4003,W,1,8,2.3,7,M,,M,,*69
06/01/2014	11:09:14.633	$GPGGA,110923,2435.2090,N,07951.3988,W,1,8,2.4,7,M,,M,,*6A
06/01/2014	11:09:15.621	$GPGGA,110924,2435.2093,N,07951.3973,W,1,8,2.4,7,M,,M,,*6A
06/01/2014	11:09:16.579	$GPGGA,110925,2435.2096,N,07951.3957,W,1,8,2.4,7,M,,M,,*68
06/01/2014	11:09:17.478	$GPGGA,110926,2435.2097,N,07951.3942,W,1,8,2.4,7,M,,M,,*6E
06/01/2014	11:09:18.615	$GPGGA,110927,2435.2099,N,07951.3926,W,1,8,2.4,7,M,,M,,*63
06/01/2014	11:09:19.603	$GPGGA,110928,2435.2101,N,07951.3911,W,1,8,2.3,7,M,,M,,*6F
06/01/2014	11:09:20.703	$GPGGA,110929,2435.2104,N,07951.3896,W,1,8,2.3,7,M,,M,,*65
06/01/2014	11:09:21.590	$GPGGA,110930,2435.2105,N,07951.3880,W,1,8,2.3,7,M,,M,,*6B
06/01/2014	11:09:22.718	$GPGGA,110931,2435.2108,N,07951.3865,W,1,8,2.3,7,M,,M,,*6C
06/01/2014	11:09:23.726	$GPGGA,110932,2435.2111,N,07951.3849,W,1,8,2.3,7,M,,M,,*69
06/01/2014	11:09:24.694	$GPGGA,110933,2435.2114,N,07951.3834,W,1,8,2.3,7,M,,M,,*67
06/01/2014	11:09:25.662	$GPGGA,110934,2435.2115,N,07951.3818,W,1,8,2.4,7,M,,M,,*68
06/01/2014	11:09:26.691	$GPGGA,110935,2435.2118,N,07951.3802,W,1,8,2.4,7,M,,M,,*6F
06/01/2014	11:09:27.678	$GPGGA,110936,2435.2121,N,07951.3787,W,1,8,2.4,7,M,,M,,*64
06/01/2014	11:09:28.666	$GPGGA,110937,2435.2122,N,07951.3771,W,1,8,2.4,7,M,,M,,*6F
06/01/2014	11:09:29.664	$GPGGA,110938,2435.2125,N,07951.3755,W,1,8,2.4,7,M,,M,,*61
06/01/2014	11:09:30.662	$GPGGA,110939,2435.2126,N,07951.3740,W,1,8,2.4,7,M,,M,,*67
06/01/2014	11:09:31.680	$GPGGA,110940,2435.2129,N,07951.3724,W,1,8,2.3,7,M,,M,,*63
06/01/2014	11:09:32.668	$GPGGA,110941,2435.2132,N,07951.3708,W,1,8,2.3,7,M,,M,,*66
06/01/2014	11:09:33.636	$GPGGA,110942,2435.2133,N,07951.3692,W,1,8,2.3,7,M,,M,,*66
06/01/2014	11:09:34.634	$GPGGA,110943,2435.2137,N,07951.3677,W,1,8,2.3,7,M,,M,,*68
06/01/2014	11:09:35.642	$GPGGA,110944,2435.2139,N,07951.3661,W,1,8,2.3,7,M,,M,,*66
06/01/2014	11:09:36.640	$GPGGA,110945,2435.2141,N,07951.3645,W,1,8,2.3,7,M,,M,,*6E
06/01/2014	11:09:37.628	$GPGGA,110946,2435.2143,N,07951.3629,W,1,8,2.4,7,M,,M,,*62
06/01/2014	11:09:38.645	$GPGGA,110947,2435.2144,N,07951.3613,W,1,8,2.4,7,M,,M,,*6D
06/01/2014	11:09:39.623	$GPGGA,110948,2435.2148,N,07951.3597,W,1,8,2.4,7,M,,M,,*61
06/01/2014	11:09:40.641	$GPGGA,110949,2435.2148,N,07951.3582,W,1,8,2.4,7,M,,M,,*64
06/01/2014	11:09:41.609	$GPGGA,110950,2435.2151,N,07951.3566,W,1,8,2.4,7,M,,M,,*6E
06/01/2014	11:09:42.627	$GPGGA,110951,2435.2152,N,07951.3550,W,1,8,2.4,7,M,,M,,*69
06/01/2014	11:09:43.595	$GPGGA,110952,2435.2155,N,07951.3534,W,1,8,2.3,7,M,,M,,*68
06/01/2014	11:09:44.623	$GPGGA,110953,2435.2157,N,07951.3518,W,1,8,2.3,7,M,,M,,*65
06/01/2014	11:09:45.591	$GPGGA,110954,2435.2159,N,07951.3502,W,1,8,2.3,7,M,,M,,*67
06/01/2014	11:09:46.589	$GPGGA,110955,2435.2161,N,07951.3487,W,1,8,2.3,7,M,,M,,*61
06/01/2014	11:09:47.598	$GPGGA,110956,2435.2162,N,07951.3471,W,1,8,2.3,7,M,,M,,*68
06/01/2014	11:09:48.605	$GPGGA,110957,2435.2164,N,07951.3455,W,1,8,2.3,7,M,,M,,*69
06/01/2014	11:09:49.593	$GPGGA,110958,2435.2166,N,07951.3439,W,1,8,2.3,7,M,,M,,*6E
06/01/2014	11:09:50.601	$GPGGA,110959,2435.2169,N,07951.3423,W,1,8,2.3,7,M,,M,,*6B
06/01/2014	11:09:51.599	$GPGGA,111000,2435.2170,N,07951.3407,W,1,8,2.3,7,M,,M,,*61
06/01/2014	11:09:52.577	$GPGGA,111001,2435.2173,N,07951.3391,W,1,8,2.3,7,M,,M,,*6B
06/01/2014	11:09:53.546	$GPGGA,111002,2435.2173,N,07951.3375,W,1,8,2.3,7,M,,M,,*62
06/01/2014	11:09:54.553	$GPGGA,111003,2435.2176,N,07951.3360,W,1,8,2.3,7,M,,M,,*62
06/01/2014	11:09:55.581	$GPGGA,111004,2435.2179,N,07951.3344,W,1,8,2.3,7,M,,M,,*6C
06/01/2014	11:09:56.542	$GPGGA,111005,2435.2180,N,07951.3328,W,1,8,2.3,7,M,,M,,*61
06/01/2014	11:09:57.546	$GPGGA,111006,2435.2183,N,07951.3312,W,1,8,2.3,7,M,,M,,*68
06/01/2014	11:09:58.554	$GPGGA,111007,2435.2184,N,07951.3296,W,1,8,2.3,7,M,,M,,*63
06/01/2014	11:09:59.652	$GPGGA,111008,2435.2186,N,07951.3280,W,1,8,2.3,7,M,,M,,*69
06/01/2014	11:10:00.540	$GPGGA,111009,2435.2188,N,07951.3265,W,1,8,2.3,7,M,,M,,*6D
06/01/2014	11:10:01.618	$GPGGA,111010,2435.2190,N,07951.3249,W,1,8,2.3,7,M,,M,,*62
06/01/2014	11:10:02.656	$GPGGA,111011,2435.2191,N,07951.3232,W,1,8,2.3,7,M,,M,,*6E
06/01/2014	11:10:03.554	$GPGGA,111012,2435.2193,N,07951.3217,W,1,8,2.3,7,M,,M,,*68
06/01/2014	11:10:04.512	$GPGGA,111013,2435.2195,N,07951.3200,W,1,8,2.3,7,M,,M,,*69
06/01/2014	11:10:05.600	$GPGGA,111014,2435.2197,N,07951.3184,W,1,8,2.3,7,M,,M,,*63
06/01/2014	11:10:06.518	$GPGGA,111015,2435.2198,N,07951.3168,W,1,8,2.3,7,M,,M,,*6F
06/01/2014	11:10:07.606	$GPGGA,111016,2435.2201,N,07951.3152,W,1,8,2.3,7,M,,M,,*66
06/01/2014	11:10:08.594	$GPGGA,111017,2435.2202,N,07951.3137,W,1,8,2.3,7,M,,M,,*67
06/01/2014	11:10:09.582	$GPGGA,111018,2435.2204,N,07951.3121,W,1,8,2.3,7,M,,M,,*69
06/01/2014	11:10:10.580	$GPGGA,111019,2435.2206,N,07951.3105,W,1,8,2.3,7,M,,M,,*6C
06/01/2014	11:10:11.598	$GPGGA,111020,2435.2208,N,07951.3089,W,1,8,2.3,7,M,,M,,*6D
06/01/2014	11:10:12.596	$GPGGA,111021,2435.2209,N,07951.3073,W,1,8,2.3,7,M,,M,,*68
06/01/2014	11:10:13.563	$GPGGA,111022,2435.2212,N,07951.3058,W,1,8,2.3,7,M,,M,,*68
06/01/2014	11:10:14.571	$GPGGA,111023,2435.2213,N,07951.3042,W,1,8,2.3,7,M,,M,,*63
06/01/2014	11:10:15.579	$GPGGA,111024,2435.2215,N,07951.3026,W,1,8,2.3,7,M,,M,,*60
06/01/2014	11:10:16.557	$GPGGA,111025,2435.2216,N,07951.3010,W,1,8,2.3,7,M,,M,,*67
06/01/2014	11:10:17.555	$GPGGA,111026,2435.2217,N,07951.2994,W,1,8,2.3,7,M,,M,,*61
06/01/2014	11:10:18.573	$GPGGA,111027,2435.2220,N,07951.2978,W,1,8,2.3,7,M,,M,,*66
06/01/2014	11:10:19.561	$GPGGA,111028,2435.2220,N,07951.2962,W,1,8,2.3,7,M,,M,,*62
06/01/2014	11:10:20.681	$GPGGA,111029,2435.2223,N,07951.2946,W,1,8,2.3,7,M,,M,,*66
06/01/2014	11:10:21.669	$GPGGA,111030,2435.2224,N,07951.2930,W,1,8,2.3,7,M,,M,,*68
06/01/2014	11:10:22.677	$GPGGA,111031,2435.2227,N,07951.2914,W,1,8,2.3,7,M,,M,,*6C
06/01/2014	11:10:23.665	$GPGGA,111032,2435.2227,N,07951.2898,W,1,8,2.3,7,M,,M,,*6A
06/01/2014	11:10:24.643	$GPGGA,111033,2435.2230,N,07951.2882,W,1,8,2.3,7,M,,M,,*66
06/01/2014	11:10:25.641	$GPGGA,111034,2435.2231,N,07951.2865,W,1,8,2.3,7,M,,M,,*69
06/01/2014	11:10:26.669	$GPGGA,111035,2435.2233,N,07951.2850,W,1,8,2.3,7,M,,M,,*6C
06/01/2014	11:10:27.647	$GPGGA,111036,2435.2234,N,07951.2834,W,1,8,2.3,7,M,,M,,*6A
06/01/2014	11:10:28.666	$GPGGA,111037,2435.2235,N,07951.2817,W,1,8,2.3,7,M,,M,,*6B
06/01/2014	11:10:29.623	$GPGGA,111038,2435.2238,N,07951.2803,W,1,8,2.3,7,M,,M,,*6C
06/01/2014	11:10:30.611	$GPGGA,111039,2435.2240,N,07951.2786,W,1,8,2.3,7,M,,M,,*60
06/01/2014	11:10:31.638	$GPGGA,111040,2435.2241,N,07951.2771,W,1,8,2.3,7,M,,M,,*67
06/01/2014	11:10:32.646	$GPGGA,111041,2435.2242,N,07951.2756,W,1,8,2.3,7,M,,M,,*60
06/01/2014	11:10:33.664	$GPGGA,111042,2435.2245,N,07951.2739,W,1,8,2.3,7,M,,M,,*6D
06/01/2014	11:10:34.622	$GPGGA,111043,2435.2247,N,07951.2724,W,1,8,2.3,7,M,,M,,*62
06/01/2014	11:10:35.620	$GPGGA,111044,2435.2246,N,07951.2708,W,1,8,2.9,7,M,,M,,*60
06/01/2014	11:10:36.618	$GPGGA,111045,2435.2248,N,07951.2692,W,1,8,2.3,7,M,,M,,*67
06/01/2014	11:10:37.596	$GPGGA,111046,2435.2251,N,07951.2677,W,1,8,2.3,7,M,,M,,*67
06/01/2014	11:10:38.654	$GPGGA,111047,2435.2250,N,07951.2661,W,1,8,2.3,7,M,,M,,*60
06/01/2014	11:10:39.592	$GPGGA,111048,2435.2251,N,07951.2646,W,1,8,2.3,7,M,,M,,*6B
06/01/2014	11:10:40.700	$GPGGA,111049,2435.2252,N,07951.2630,W,1,8,2.3,7,M,,M,,*68
06/01/2014	11:10:41.588	$GPGGA,111050,2435.2253,N,07951.2615,W,1,8,2.3,7,M,,M,,*66
06/01/2014	11:10:42.596	$GPGGA,111051,2435.2253,N,07951.2599,W,1,8,2.3,7,M,,M,,*60
06/01/2014	11:10:43.584	$GPGGA,111052,2435.2253,N,07951.2583,W,1,8,2.3,7,M,,M,,*68
06/01/2014	11:10:44.572	$GPGGA,111053,2435.2255,N,07951.2568,W,1,8,2.3,7,M,,M,,*6A
06/01/2014	11:10:45.562	$GPGGA,111054,2435.2256,N,07951.2552,W,1,8,2.3,7,M,,M,,*67
06/01/2014	11:10:46.560	$GPGGA,111055,2435.2258,N,07951.2537,W,1,8,2.3,7,M,,M,,*6B
06/01/2014	11:10:47.556	$GPGGA,111056,2435.2257,N,07951.2521,W,1,8,2.3,8,M,,M,,*6F
06/01/2014	11:10:48.543	$GPGGA,111057,2435.2260,N,07951.2505,W,1,8,2.3,8,M,,M,,*6C
06/01/2014	11:10:49.641	$GPGGA,111058,2435.2262,N,07951.2490,W,1,8,2.3,8,M,,M,,*6C
06/01/2014	11:10:50.639	$GPGGA,111059,2435.2263,N,07951.2474,W,1,8,2.3,8,M,,M,,*66
06/01/2014	11:10:51.567	$GPGGA,111100,2435.2263,N,07951.2459,W,1,8,2.3,8,M,,M,,*64
06/01/2014	11:10:52.625	$GPGGA,111101,2435.2266,N,07951.2443,W,1,8,2.3,8,M,,M,,*6B
06/01/2014	11:10:53.663	$GPGGA,111102,2435.2267,N,07951.2428,W,1,8,2.3,8,M,,M,,*64
06/01/2014	11:10:54.531	$GPGGA,111103,2435.2270,N,07951.2412,W,1,8,2.3,9,M,,M,,*6B
06/01/2014	11:10:55.529	$GPGGA,111104,2435.2271,N,07951.2396,W,1,8,2.3,9,M,,M,,*66
06/01/2014	11:10:56.647	$GPGGA,111105,2435.2273,N,07951.2381,W,1,8,2.3,9,M,,M,,*63
06/01/2014	11:10:57.616	$GPGGA,111106,2435.2274,N,07951.2365,W,1,8,2.3,9,M,,M,,*6D
06/01/2014	11:10:58.673	$GPGGA,111107,2435.2277,N,07951.2349,W,1,8,2.3,9,M,,M,,*61
06/01/2014	11:10:59.622	$GPGGA,111108,2435.2278,N,07951.2334,W,1,8,2.3,9,M,,M,,*6B
06/01/2014	11:11:00.619	$GPGGA,111109,2435.2281,N,07951.2318,W,1,8,2.3,9,M,,M,,*62
06/01/2014	11:11:01.597	$GPGGA,111110,2435.2282,N,07951.2302,W,1,8,2.3,9,M,,M,,*62
06/01/2014	11:11:02.595	$GPGGA,111111,2435.2284,N,07951.2286,W,1,8,2.3,9,M,,M,,*68
06/01/2014	11:11:03.593	$GPGGA,111112,2435.2285,N,07951.2271,W,1,8,2.3,9,M,,M,,*62
06/01/2014	11:11:04.602	$GPGGA,111113,2435.2288,N,07951.2255,W,1,8,2.3,9,M,,M,,*68
06/01/2014	11:11:05.579	$GPGGA,111114,2435.2289,N,07951.2239,W,1,8,2.3,9,M,,M,,*64
06/01/2014	11:11:06.586	$GPGGA,111115,2435.2292,N,07951.2224,W,1,8,2.3,9,M,,M,,*63
06/01/2014	11:11:07.584	$GPGGA,111116,2435.2294,N,07951.2208,W,1,8,2.3,9,M,,M,,*68
06/01/2014	11:11:08.582	$GPGGA,111117,2435.2296,N,07951.2192,W,1,8,2.3,9,M,,M,,*6B
06/01/2014	11:11:09.560	$GPGGA,111118,2435.2298,N,07951.2176,W,1,8,2.3,9,M,,M,,*60
06/01/2014	11:11:10.568	$GPGGA,111119,2435.2299,N,07951.2161,W,1,8,2.3,9,M,,M,,*66
06/01/2014	11:11:11.566	$GPGGA,111120,2435.2302,N,07951.2145,W,1,8,2.3,10,M,,M,,*51
06/01/2014	11:11:12.574	$GPGGA,111121,2435.2303,N,07951.2129,W,1,8,2.3,10,M,,M,,*5B
06/01/2014	11:11:13.562	$GPGGA,111122,2435.2306,N,07951.2114,W,1,8,2.3,10,M,,M,,*53
06/01/2014	11:11:14.570	$GPGGA,111123,2435.2307,N,07951.2097,W,1,8,2.3,10,M,,M,,*59
06/01/2014	11:11:15.548	$GPGGA,111124,2435.2310,N,07951.2082,W,1,8,2.3,10,M,,M,,*5C
06/01/2014	11:11:16.566	$GPGGA,111125,2435.2311,N,07951.2066,W,1,8,2.3,10,M,,M,,*56
06/01/2014	11:11:17.534	$GPGGA,111126,2435.2314,N,07951.2050,W,1,8,2.3,10,M,,M,,*55
06/01/2014	11:11:18.522	$GPGGA,111127,2435.2316,N,07951.2034,W,1,8,2.3,10,M,,M,,*54
06/01/2014	11:11:19.530	$GPGGA,111128,2435.2318,N,07951.2019,W,1,8,2.3,10,M,,M,,*5A
06/01/2014	11:11:20.629	$GPGGA,111129,2435.2321,N,07951.2003,W,1,8,2.3,10,M,,M,,*5A
06/01/2014	11:11:21.637	$GPGGA,111130,2435.2323,N,07951.1987,W,1,8,2.3,9,M,,M,,*6E
06/01/2014	11:11:22.655	$GPGGA,111131,2435.2325,N,07951.1972,W,1,8,2.3,9,M,,M,,*63
06/01/2014	11:11:23.632	$GPGGA,111132,2435.2327,N,07951.1956,W,1,8,2.3,9,M,,M,,*64
06/01/2014	11:11:24.630	$GPGGA,111133,2435.2328,N,07951.1940,W,1,8,2.3,9,M,,M,,*6D
06/01/2014	11:11:25.608	$GPGGA,111134,2435.2331,N,07951.1924,W,1,8,2.3,9,M,,M,,*60
06/01/2014	11:11:26.606	$GPGGA,111135,2435.2332,N,07951.1908,W,1,8,2.3,9,M,,M,,*6C
06/01/2014	11:11:27.624	$GPGGA,111136,2435.2334,N,07951.1893,W,1,8,2.3,9,M,,M,,*6A
06/01/2014	11:11:28.593	$GPGGA,111137,2435.2336,N,07951.1877,W,1,8,2.3,9,M,,M,,*63
06/01/2014	11:11:29.590	$GPGGA,111138,2435.2339,N,07951.1862,W,1,8,2.3,9,M,,M,,*67
06/01/2014	11:11:30.708	$GPGGA,111139,2435.2341,N,07951.1846,W,1,8,2.3,9,M,,M,,*6F
06/01/2014	11:11:31.596	$GPGGA,111140,2435.2343,N,07951.1830,W,1,8,2.3,9,M,,M,,*62
06/01/2014	11:11:32.574	$GPGGA,111141,2435.2346,N,07951.1815,W,1,8,2.3,9,M,,M,,*61
06/01/2014	11:11:33.592	$GPGGA,111142,2435.2347,N,07951.1799,W,1,8,2.3,9,M,,M,,*68
06/01/2014	11:11:34.710	$GPGGA,111143,2435.2350,N,07951.1784,W,1,8,2.3,9,M,,M,,*63
06/01/2014	11:11:35.598	$GPGGA,111144,2435.2352,N,07951.1769,W,1,8,2.3,9,M,,M,,*65
06/01/2014	11:11:36.576	$GPGGA,111145,2435.2354,N,07951.1753,W,1,8,2.3,9,M,,M,,*6B
06/01/2014	11:11:37.554	$GPGGA,111146,2435.2356,N,07951.1738,W,1,8,2.3,9,M,,M,,*67
06/01/2014	11:11:38.702	$GPGGA,111147,2435.2357,N,07951.1722,W,1,8,2.3,9,M,,M,,*6C
06/01/2014	11:11:39.580	$GPGGA,111148,2435.2360,N,07951.1706,W,1,8,2.3,9,M,,M,,*61
06/01/2014	11:11:40.558	$GPGGA,111149,2435.2361,N,07951.1691,W,1,8,2.3,9,M,,M,,*6E
06/01/2014	11:11:41.645	$GPGGA,111150,2435.2365,N,07951.1675,W,1,8,2.3,9,M,,M,,*68
06/01/2014	11:11:42.543	$GPGGA,111151,2435.2367,N,07951.1659,W,1,8,2.3,9,M,,M,,*65
06/01/2014	11:11:43.641	$GPGGA,111152,2435.2368,N,07951.1645,W,1,8,2.3,9,M,,M,,*64
06/01/2014	11:11:44.639	$GPGGA,111153,2435.2371,N,07951.1629,W,1,8,2.3,8,M,,M,,*66
06/01/2014	11:11:45.637	$GPGGA,111154,2435.2372,N,07951.1614,W,1,8,2.3,8,M,,M,,*6C
06/01/2014	11:11:46.635	$GPGGA,111155,2435.2375,N,07951.1600,W,1,8,2.3,8,M,,M,,*6F
06/01/2014	11:11:47.633	$GPGGA,111156,2435.2376,N,07951.1584,W,1,8,2.3,8,M,,M,,*60
06/01/2014	11:11:48.621	$GPGGA,111157,2435.2379,N,07951.1569,W,1,8,2.3,8,M,,M,,*6D
06/01/2014	11:11:49.609	$GPGGA,111158,2435.2381,N,07951.1555,W,1,8,2.3,8,M,,M,,*6A
06/01/2014	11:11:50.617	$GPGGA,111159,2435.2383,N,07951.1539,W,1,8,2.3,8,M,,M,,*63
06/01/2014	11:11:51.625	$GPGGA,111200,2435.2386,N,07951.1524,W,1,8,2.3,8,M,,M,,*65
06/01/2014	11:11:52.623	$GPGGA,111201,2435.2388,N,07951.1509,W,1,8,2.3,8,M,,M,,*65
06/01/2014	11:11:53.591	$GPGGA,111202,2435.2389,N,07951.1494,W,1,8,2.3,8,M,,M,,*62
06/01/2014	11:11:54.609	$GPGGA,111203,2435.2392,N,07951.1479,W,1,8,2.3,8,M,,M,,*6A
06/01/2014	11:11:55.607	$GPGGA,111204,2435.2393,N,07951.1463,W,1,8,2.3,8,M,,M,,*67
