Software Version Number: 1	Data File Format Number: 1	Build Version Number: 1	Error Count Since VI Started: 0	Manufacturer: Raytheon	 Model Number: RayMarine 120	 S/N: 	 Cal Date: 	 Wind Direction Offset: 0.00	 Slope (M)1: 0.00	 Offset (B)1: 0.00	 Slope (M)2: 0.00	 Offset (B)2: 0.00	 Slope (M)3: 0.00	 Offset (B)3: 0.00	 Slope (M)4: 0.00	 Offset (B)4: 0.00	 Slope (M)5: 0.00	 Offset (B)5: 0.00	 Slope (M)6: 0.00	 Offset (B)6: 0.00
Computer Date	Computer Time	GGA String
05/29/2014	19:00:00.815	$GPGGA,190001,2546.5439,N,07923.1239,W,1,8,2.0,12,M,,M,,*58
05/29/2014	19:00:01.828	$GPGGA,190002,2546.5443,N,07923.1234,W,1,8,2.0,12,M,,M,,*5B
05/29/2014	19:00:02.830	$GPGGA,190003,2546.5446,N,07923.1227,W,1,8,2.0,12,M,,M,,*5D
05/29/2014	19:00:03.853	$GPGGA,190004,2546.5450,N,07923.1222,W,1,8,2.0,12,M,,M,,*58
05/29/2014	19:00:04.906	$GPGGA,190005,2546.5452,N,07923.1217,W,1,8,2.0,12,M,,M,,*5D
05/29/2014	19:00:05.877	$GPGGA,190006,2546.5454,N,07923.1211,W,1,8,2.0,12,M,,M,,*5E
05/29/2014	19:00:06.910	$GPGGA,190007,2546.5459,N,07923.1205,W,1,8,2.0,12,M,,M,,*57
05/29/2014	19:00:07.892	$GPGGA,190008,2546.5461,N,07923.1200,W,1,8,2.0,12,M,,M,,*56
05/29/2014	19:00:08.925	$GPGGA,190009,2546.5463,N,07923.1195,W,1,8,2.0,12,M,,M,,*5A
05/29/2014	19:00:09.897	$GPGGA,190010,2546.5466,N,07923.1189,W,1,8,2.0,12,M,,M,,*5A
05/29/2014	19:00:10.950	$GPGGA,190011,2546.5470,N,07923.1183,W,1,8,2.0,12,M,,M,,*56
05/29/2014	19:00:11.942	$GPGGA,190012,2546.5471,N,07923.1178,W,1,8,2.0,12,M,,M,,*50
05/29/2014	19:00:12.965	$GPGGA,190013,2546.5474,N,07923.1173,W,1,8,2.0,12,M,,M,,*5F
05/29/2014	19:00:13.947	$GPGGA,190014,2546.5477,N,07923.1166,W,1,8,2.0,12,M,,M,,*5F
05/29/2014	19:00:14.980	$GPGGA,190015,2546.5479,N,07923.1161,W,1,8,2.0,12,M,,M,,*57
05/29/2014	19:00:15.993	$GPGGA,190016,2546.5479,N,07923.1161,W,1,8,2.0,12,M,,M,,*54
05/29/2014	19:00:17.005	$GPGGA,190017,2546.5485,N,07923.1149,W,1,8,2.0,12,M,,M,,*5C
05/29/2014	19:00:17.989	$GPGGA,190018,2546.5488,N,07923.1143,W,1,8,2.0,12,M,,M,,*54
05/29/2014	19:00:19.051	$GPGGA,190019,2546.5488,N,07923.1143,W,1,8,2.0,12,M,,M,,*55
05/29/2014	19:00:20.023	$GPGGA,190020,2546.5493,N,07923.1132,W,1,8,2.0,12,M,,M,,*53
05/29/2014	19:00:21.066	$GPGGA,190021,2546.5496,N,07923.1127,W,1,8,2.0,12,M,,M,,*53
05/29/2014	19:00:22.028	$GPGGA,190022,2546.5499,N,07923.1121,W,1,8,2.0,12,M,,M,,*59
05/29/2014	19:00:23.091	$GPGGA,190023,2546.5503,N,07923.1114,W,1,8,2.0,12,M,,M,,*5C
05/29/2014	19:00:24.062	$GPGGA,190024,2546.5504,N,07923.1110,W,1,8,2.0,12,M,,M,,*58
05/29/2014	19:00:25.115	$GPGGA,190025,2546.5506,N,07923.1104,W,1,8,2.0,12,M,,M,,*5E
05/29/2014	19:00:26.067	$GPGGA,190026,2546.5506,N,07923.1104,W,1,8,2.0,12,M,,M,,*5D
05/29/2014	19:00:27.171	$GPGGA,190027,2546.5513,N,07923.1092,W,1,8,2.0,12,M,,M,,*56
05/29/2014	19:00:28.113	$GPGGA,190028,2546.5514,N,07923.1087,W,1,8,2.0,12,M,,M,,*5A
05/29/2014	19:00:29.166	$GPGGA,190029,2546.5518,N,07923.1081,W,1,8,2.0,12,M,,M,,*51
05/29/2014	19:00:30.128	$GPGGA,190030,2546.5521,N,07923.1075,W,1,8,2.0,12,M,,M,,*58
05/29/2014	19:00:31.221	$GPGGA,190031,2546.5521,N,07923.1075,W,1,8,2.0,12,M,,M,,*59
05/29/2014	19:00:32.163	$GPGGA,190032,2546.5526,N,07923.1064,W,1,8,2.0,12,M,,M,,*5D
05/29/2014	19:00:33.166	$GPGGA,190033,2546.5526,N,07923.1064,W,1,8,2.0,12,M,,M,,*5C
05/29/2014	19:00:34.178	$GPGGA,190034,2546.5529,N,07923.1057,W,1,8,2.0,12,M,,M,,*54
05/29/2014	19:00:35.292	$GPGGA,190035,2546.5533,N,07923.1045,W,1,8,2.0,12,M,,M,,*5D
05/29/2014	19:00:36.214	$GPGGA,190036,2546.5536,N,07923.1039,W,1,8,2.0,12,M,,M,,*50
05/29/2014	19:00:37.206	$GPGGA,190037,2546.5536,N,07923.1039,W,1,8,2.0,12,M,,M,,*51
05/29/2014	19:00:38.218	$GPGGA,190038,2546.5543,N,07923.1027,W,1,8,2.0,12,M,,M,,*53
05/29/2014	19:00:39.332	$GPGGA,190039,2546.5544,N,07923.1022,W,1,8,2.0,12,M,,M,,*50
05/29/2014	19:00:40.355	$GPGGA,190040,2546.5549,N,07923.1015,W,1,8,2.0,12,M,,M,,*57
05/29/2014	19:00:40.602	$GPGGA,190041,2546.5551,N,07923.1008,W,1,8,2.0,12,M,,M,,*53
05/29/2014	19:00:41.482	$GPGGA,190042,2546.5554,N,07923.1003,W,1,8,2.0,12,M,,M,,*5E
05/29/2014	19:00:42.556	$GPGGA,190043,2546.5555,N,07923.0998,W,1,8,2.0,12,M,,M,,*54
05/29/2014	19:00:43.620	$GPGGA,190044,2546.5560,N,07923.0991,W,1,8,2.0,12,M,,M,,*5C
05/29/2014	19:00:44.530	$GPGGA,190045,2546.5560,N,07923.0991,W,1,8,2.0,12,M,,M,,*5D
05/29/2014	19:00:45.624	$GPGGA,190046,2546.5563,N,07923.0980,W,1,8,2.3,12,M,,M,,*5E
05/29/2014	19:00:46.667	$GPGGA,190047,2546.5565,N,07923.0976,W,1,8,2.0,12,M,,M,,*53
05/29/2014	19:00:47.578	$GPGGA,190048,2546.5569,N,07923.0969,W,1,8,2.0,12,M,,M,,*5E
05/29/2014	19:00:48.662	$GPGGA,190049,2546.5572,N,07923.0964,W,1,8,2.0,12,M,,M,,*58
05/29/2014	19:00:49.674	$GPGGA,190050,2546.5571,N,07923.0961,W,1,8,2.0,12,M,,M,,*56
05/29/2014	19:00:50.677	$GPGGA,190051,2546.5575,N,07923.0955,W,1,8,2.0,12,M,,M,,*54
05/29/2014	19:00:51.700	$GPGGA,190052,2546.5578,N,07923.0949,W,1,8,2.0,12,M,,M,,*57
05/29/2014	19:00:52.712	$GPGGA,190053,2546.5580,N,07923.0943,W,1,8,2.0,12,M,,M,,*5B
05/29/2014	19:00:53.715	$GPGGA,190054,2546.5582,N,07923.0939,W,1,8,2.0,12,M,,M,,*53
05/29/2014	19:00:54.717	$GPGGA,190055,2546.5583,N,07923.0934,W,1,8,2.0,13,M,,M,,*5F
05/29/2014	19:00:55.740	$GPGGA,190056,2546.5586,N,07923.0928,W,1,8,2.0,13,M,,M,,*54
05/29/2014	19:00:56.773	$GPGGA,190057,2546.5589,N,07923.0922,W,1,8,2.0,13,M,,M,,*50
05/29/2014	19:00:57.765	$GPGGA,190058,2546.5590,N,07923.0917,W,1,8,2.0,13,M,,M,,*51
05/29/2014	19:00:58.787	$GPGGA,190059,2546.5591,N,07923.0911,W,1,8,2.0,13,M,,M,,*57
05/29/2014	19:00:59.799	$GPGGA,190100,2546.5594,N,07923.0905,W,1,8,2.0,13,M,,M,,*5A
05/29/2014	19:01:00.782	$GPGGA,190101,2546.5597,N,07923.0898,W,1,8,2.0,13,M,,M,,*5D
05/29/2014	19:01:01.805	$GPGGA,190102,2546.5600,N,07923.0892,W,1,8,2.0,13,M,,M,,*59
05/29/2014	19:01:02.837	$GPGGA,190103,2546.5602,N,07923.0886,W,1,8,2.0,13,M,,M,,*5F
05/29/2014	19:01:03.830	$GPGGA,190104,2546.5602,N,07923.0879,W,1,8,2.0,13,M,,M,,*58
05/29/2014	19:01:04.862	$GPGGA,190105,2546.5605,N,07923.0873,W,1,8,2.0,13,M,,M,,*54
05/29/2014	19:01:05.834	$GPGGA,190106,2546.5608,N,07923.0866,W,1,8,2.0,13,M,,M,,*5E
05/29/2014	19:01:06.877	$GPGGA,190107,2546.5609,N,07923.0861,W,1,8,2.0,13,M,,M,,*59
05/29/2014	19:01:07.860	$GPGGA,190108,2546.5612,N,07923.0854,W,1,8,2.0,13,M,,M,,*5A
05/29/2014	19:01:08.903	$GPGGA,190109,2546.5615,N,07923.0848,W,1,8,2.0,13,M,,M,,*51
05/29/2014	19:01:09.876	$GPGGA,190110,2546.5616,N,07923.0841,W,1,8,2.0,14,M,,M,,*54
05/29/2014	19:01:10.888	$GPGGA,190111,2546.5619,N,07923.0835,W,1,8,2.0,14,M,,M,,*59
05/29/2014	19:01:11.921	$GPGGA,190112,2546.5620,N,07923.0829,W,1,8,2.0,14,M,,M,,*5D
05/29/2014	19:01:12.943	$GPGGA,190113,2546.5623,N,07923.0822,W,1,8,2.0,14,M,,M,,*54
05/29/2014	19:01:13.916	$GPGGA,190114,2546.5626,N,07923.0815,W,1,8,2.0,14,M,,M,,*52
05/29/2014	19:01:14.978	$GPGGA,190115,2546.5627,N,07923.0809,W,1,8,2.0,14,M,,M,,*5F
05/29/2014	19:01:15.970	$GPGGA,190116,2546.5630,N,07923.0803,W,1,8,2.0,14,M,,M,,*50
05/29/2014	19:01:16.982	$GPGGA,190117,2546.5634,N,07923.0795,W,1,8,2.0,14,M,,M,,*55
05/29/2014	19:01:17.975	$GPGGA,190118,2546.5634,N,07923.0790,W,1,8,2.0,14,M,,M,,*5F
05/29/2014	19:01:19.018	$GPGGA,190119,2546.5636,N,07923.0784,W,1,8,2.0,14,M,,M,,*59
05/29/2014	19:01:19.990	$GPGGA,190120,2546.5640,N,07923.0776,W,1,8,2.0,14,M,,M,,*5F
05/29/2014	19:01:21.002	$GPGGA,190121,2546.5643,N,07923.0769,W,1,8,2.0,14,M,,M,,*53
05/29/2014	19:01:22.116	$GPGGA,190122,2546.5644,N,07923.0764,W,1,8,2.0,14,M,,M,,*5A
05/29/2014	19:01:23.139	$GPGGA,190123,2546.5645,N,07923.0757,W,1,8,2.0,14,M,,M,,*5A
05/29/2014	19:01:24.040	$GPGGA,190124,2546.5648,N,07923.0750,W,1,8,2.0,14,M,,M,,*57
05/29/2014	19:01:25.032	$GPGGA,190125,2546.5651,N,07923.0743,W,1,8,2.0,14,M,,M,,*5C
05/29/2014	19:01:26.161	$GPGGA,190126,2546.5652,N,07923.0737,W,1,8,2.0,14,M,,M,,*5F
05/29/2014	19:01:27.066	$GPGGA,190127,2546.5655,N,07923.0731,W,1,8,2.0,14,M,,M,,*5F
05/29/2014	19:01:28.073	$GPGGA,190128,2546.5658,N,07923.0724,W,1,8,2.0,14,M,,M,,*59
05/29/2014	19:01:29.179	$GPGGA,190129,2546.5661,N,07923.0717,W,1,8,2.0,14,M,,M,,*52
05/29/2014	19:01:30.075	$GPGGA,190130,2546.5663,N,07923.0710,W,1,8,2.0,14,M,,M,,*5F
05/29/2014	19:01:31.172	$GPGGA,190131,2546.5663,N,07923.0704,W,1,8,2.0,14,M,,M,,*5B
05/29/2014	19:01:32.077	$GPGGA,190132,2546.5667,N,07923.0697,W,1,8,2.0,14,M,,M,,*57
05/29/2014	19:01:33.214	$GPGGA,190133,2546.5670,N,07923.0690,W,1,8,2.0,14,M,,M,,*57
05/29/2014	19:01:34.189	$GPGGA,190134,2546.5673,N,07923.0684,W,1,8,2.0,14,M,,M,,*56
05/29/2014	19:01:35.175	$GPGGA,190135,2546.5672,N,07923.0677,W,1,8,2.0,14,M,,M,,*5A
05/29/2014	19:01:36.101	$GPGGA,190136,2546.5676,N,07923.0671,W,1,8,2.0,14,M,,M,,*5B
05/29/2014	19:01:37.188	$GPGGA,190137,2546.5680,N,07923.0664,W,1,8,2.0,14,M,,M,,*57
05/29/2014	19:01:38.093	$GPGGA,190138,2546.5681,N,07923.0657,W,1,8,2.0,14,M,,M,,*59
05/29/2014	19:01:39.190	$GPGGA,190139,2546.5683,N,07923.0651,W,1,8,2.0,14,M,,M,,*5C
05/29/2014	19:01:40.206	$GPGGA,190140,2546.5685,N,07923.0644,W,1,8,2.0,14,M,,M,,*50
05/29/2014	19:01:40.575	$GPGGA,190141,2546.5688,N,07923.0638,W,1,8,2.0,14,M,,M,,*57
05/29/2014	19:01:41.551	$GPGGA,190142,2546.5691,N,07923.0630,W,1,8,2.0,14,M,,M,,*54
05/29/2014	19:01:42.587	$GPGGA,190143,2546.5692,N,07923.0623,W,1,8,2.0,14,M,,M,,*54
05/29/2014	19:01:43.573	$GPGGA,190144,2546.5694,N,07923.0618,W,1,8,2.0,14,M,,M,,*5D
05/29/2014	19:01:44.591	$GPGGA,190145,2546.5695,N,07923.0611,W,1,8,2.0,14,M,,M,,*54
05/29/2014	19:01:45.566	$GPGGA,190146,2546.5699,N,07923.0603,W,1,8,2.0,14,M,,M,,*58
05/29/2014	19:01:46.573	$GPGGA,190147,2546.5702,N,07923.0596,W,1,8,2.0,13,M,,M,,*52
05/29/2014	19:01:47.598	$GPGGA,190148,2546.5703,N,07923.0590,W,1,8,2.0,13,M,,M,,*5A
05/29/2014	19:01:48.594	$GPGGA,190149,2546.5705,N,07923.0583,W,1,8,2.0,13,M,,M,,*5F
05/29/2014	19:01:49.590	$GPGGA,190150,2546.5708,N,07923.0576,W,1,8,2.0,13,M,,M,,*50
05/29/2014	19:01:50.606	$GPGGA,190151,2546.5710,N,07923.0569,W,1,8,2.0,13,M,,M,,*56
05/29/2014	19:01:51.612	$GPGGA,190152,2546.5712,N,07923.0563,W,1,8,2.0,13,M,,M,,*5D
05/29/2014	19:01:52.618	$GPGGA,190153,2546.5714,N,07923.0556,W,1,8,2.0,13,M,,M,,*5C
05/29/2014	19:01:53.604	$GPGGA,190154,2546.5716,N,07923.0549,W,1,8,2.0,13,M,,M,,*57
05/29/2014	19:01:54.600	$GPGGA,190155,2546.5719,N,07923.0542,W,1,8,2.0,13,M,,M,,*52
05/29/2014	19:01:55.616	$GPGGA,190156,2546.5721,N,07923.0535,W,1,8,2.0,13,M,,M,,*5A
05/29/2014	19:01:56.603	$GPGGA,190157,2546.5723,N,07923.0529,W,1,8,2.0,13,M,,M,,*54
05/29/2014	19:01:57.619	$GPGGA,190158,2546.5724,N,07923.0522,W,1,8,2.0,13,M,,M,,*57
05/29/2014	19:01:58.615	$GPGGA,190159,2546.5727,N,07923.0514,W,1,8,2.0,13,M,,M,,*50
05/29/2014	19:01:59.651	$GPGGA,190200,2546.5728,N,07923.0508,W,1,8,2.0,13,M,,M,,*5D
05/29/2014	19:02:00.658	$GPGGA,190201,2546.5732,N,07923.0502,W,1,8,2.0,13,M,,M,,*5D
05/29/2014	19:02:01.623	$GPGGA,190202,2546.5734,N,07923.0495,W,1,8,2.0,13,M,,M,,*57
05/29/2014	19:02:02.641	$GPGGA,190203,2546.5735,N,07923.0488,W,1,8,2.0,13,M,,M,,*5B
05/29/2014	19:02:03.657	$GPGGA,190204,2546.5738,N,07923.0481,W,1,8,2.0,13,M,,M,,*58
05/29/2014	19:02:04.672	$GPGGA,190205,2546.5739,N,07923.0475,W,1,8,2.0,13,M,,M,,*53
05/29/2014	19:02:05.638	$GPGGA,190206,2546.5742,N,07923.0468,W,1,8,2.0,13,M,,M,,*50
05/29/2014	19:02:06.665	$GPGGA,190207,2546.5742,N,07923.0461,W,1,8,2.0,13,M,,M,,*58
05/29/2014	19:02:07.671	$GPGGA,190208,2546.5745,N,07923.0454,W,1,8,2.0,13,M,,M,,*56
05/29/2014	19:02:08.767	$GPGGA,190209,2546.5746,N,07923.0447,W,1,8,2.0,13,M,,M,,*56
05/29/2014	19:02:09.672	$GPGGA,190210,2546.5750,N,07923.0439,W,1,8,2.0,13,M,,M,,*50
05/29/2014	19:02:10.699	$GPGGA,190211,2546.5750,N,07923.0433,W,1,8,2.0,13,M,,M,,*5B
05/29/2014	19:02:11.695	$GPGGA,190212,2546.5752,N,07923.0427,W,1,8,2.0,13,M,,M,,*5F
05/29/2014	19:02:12.681	$GPGGA,190213,2546.5755,N,07923.0420,W,1,8,2.0,13,M,,M,,*5E
05/29/2014	19:02:13.698	$GPGGA,190214,2546.5757,N,07923.0412,W,1,8,2.0,13,M,,M,,*5A
05/29/2014	19:02:14.713	$GPGGA,190215,2546.5757,N,07923.0406,W,1,8,2.0,13,M,,M,,*5E
05/29/2014	19:02:15.719	$GPGGA,190216,2546.5759,N,07923.0401,W,1,8,2.0,13,M,,M,,*54
05/29/2014	19:02:16.705	$GPGGA,190217,2546.5763,N,07923.0392,W,1,8,2.0,13,M,,M,,*51
05/29/2014	19:02:17.812	$GPGGA,190218,2546.5766,N,07923.0385,W,1,8,2.0,12,M,,M,,*5C
05/29/2014	19:02:18.698	$GPGGA,190219,2546.5764,N,07923.0380,W,1,8,2.0,12,M,,M,,*5A
05/29/2014	19:02:19.744	$GPGGA,190220,2546.5767,N,07923.0373,W,1,8,2.0,12,M,,M,,*5F
05/29/2014	19:02:20.801	$GPGGA,190221,2546.5771,N,07923.0365,W,1,8,2.0,12,M,,M,,*5E
05/29/2014	19:02:21.817	$GPGGA,190222,2546.5773,N,07923.0359,W,1,8,2.0,12,M,,M,,*50
05/29/2014	19:02:22.753	$GPGGA,190223,2546.5772,N,07923.0353,W,1,8,2.0,12,M,,M,,*5A
05/29/2014	19:02:23.839	$GPGGA,190224,2546.5775,N,07923.0346,W,1,8,2.0,12,M,,M,,*5E
05/29/2014	19:02:24.846	$GPGGA,190225,2546.5778,N,07923.0339,W,1,8,2.0,12,M,,M,,*5A
05/29/2014	19:02:25.831	$GPGGA,190226,2546.5779,N,07923.0332,W,1,8,2.0,12,M,,M,,*53
05/29/2014	19:02:26.847	$GPGGA,190227,2546.5782,N,07923.0326,W,1,8,2.0,12,M,,M,,*53
05/29/2014	19:02:27.752	$GPGGA,190228,2546.5782,N,07923.0319,W,1,8,2.0,12,M,,M,,*50
05/29/2014	19:02:28.749	$GPGGA,190229,2546.5786,N,07923.0312,W,1,8,2.0,12,M,,M,,*5E
05/29/2014	19:02:29.845	$GPGGA,190230,2546.5788,N,07923.0305,W,1,8,2.0,12,M,,M,,*5E
05/29/2014	19:02:30.852	$GPGGA,190231,2546.5789,N,07923.0298,W,1,8,2.0,12,M,,M,,*5B
05/29/2014	19:02:31.868	$GPGGA,190232,2546.5792,N,07923.0291,W,1,8,2.0,12,M,,M,,*5B
05/29/2014	19:02:32.864	$GPGGA,190233,2546.5795,N,07923.0285,W,1,8,2.0,12,M,,M,,*58
05/29/2014	19:02:33.870	$GPGGA,190234,2546.5796,N,07923.0278,W,1,8,2.0,12,M,,M,,*5E
05/29/2014	19:02:34.897	$GPGGA,190235,2546.5797,N,07923.0271,W,1,8,2.0,12,M,,M,,*57
05/29/2014	19:02:35.893	$GPGGA,190236,2546.5800,N,07923.0265,W,1,8,2.0,12,M,,M,,*50
05/29/2014	19:02:36.869	$GPGGA,190237,2546.5803,N,07923.0258,W,1,8,2.0,12,M,,M,,*5C
05/29/2014	19:02:37.885	$GPGGA,190238,2546.5804,N,07923.0251,W,1,8,2.0,12,M,,M,,*5D
05/29/2014	19:02:38.882	$GPGGA,190239,2546.5807,N,07923.0244,W,1,8,2.0,12,M,,M,,*5B
05/29/2014	19:02:39.907	$GPGGA,190240,2546.5810,N,07923.0237,W,1,8,2.0,12,M,,M,,*57
05/29/2014	19:02:40.514	$GPGGA,190241,2546.5811,N,07923.0230,W,1,8,2.0,12,M,,M,,*50
05/29/2014	19:02:41.530	$GPGGA,190242,2546.5815,N,07923.0223,W,1,8,2.0,12,M,,M,,*55
05/29/2014	19:02:42.555	$GPGGA,190243,2546.5815,N,07923.0217,W,1,8,2.0,12,M,,M,,*53
05/29/2014	19:02:43.551	$GPGGA,190244,2546.5818,N,07923.0210,W,1,8,2.0,11,M,,M,,*5D
05/29/2014	19:02:44.567	$GPGGA,190245,2546.5822,N,07923.0202,W,1,8,2.0,11,M,,M,,*56
05/29/2014	19:02:45.543	$GPGGA,190246,2546.5822,N,07923.0196,W,1,8,2.0,11,M,,M,,*5B
05/29/2014	19:02:46.540	$GPGGA,190247,2546.5825,N,07923.0190,W,1,8,2.0,11,M,,M,,*5B
05/29/2014	19:02:47.566	$GPGGA,190248,2546.5829,N,07923.0182,W,1,8,2.0,11,M,,M,,*5B
05/29/2014	19:02:48.552	$GPGGA,190249,2546.5831,N,07923.0175,W,1,8,2.0,11,M,,M,,*5B
05/29/2014	19:02:49.558	$GPGGA,190250,2546.5833,N,07923.0169,W,1,8,2.0,11,M,,M,,*5C
05/29/2014	19:02:50.565	$GPGGA,190251,2546.5835,N,07923.0162,W,1,8,2.0,11,M,,M,,*50
05/29/2014	19:02:51.582	$GPGGA,190252,2546.5837,N,07923.0155,W,1,8,2.0,11,M,,M,,*55
05/29/2014	19:02:52.608	$GPGGA,190253,2546.5840,N,07923.0148,W,1,8,2.0,11,M,,M,,*58
05/29/2014	19:02:53.583	$GPGGA,190254,2546.5843,N,07923.0141,W,1,8,2.0,11,M,,M,,*55
05/29/2014	19:02:54.619	$GPGGA,190255,2546.5844,N,07923.0135,W,1,8,2.0,11,M,,M,,*50
05/29/2014	19:02:55.615	$GPGGA,190256,2546.5847,N,07923.0128,W,1,8,2.0,11,M,,M,,*5C
05/29/2014	19:02:56.602	$GPGGA,190257,2546.5849,N,07923.0122,W,1,8,2.0,11,M,,M,,*59
05/29/2014	19:02:57.608	$GPGGA,190258,2546.5851,N,07923.0114,W,1,8,2.0,11,M,,M,,*5A
05/29/2014	19:02:58.634	$GPGGA,190259,2546.5854,N,07923.0107,W,1,8,2.0,11,M,,M,,*5C
05/29/2014	19:02:59.731	$GPGGA,190300,2546.5855,N,07923.0101,W,1,8,2.0,11,M,,M,,*56
05/29/2014	19:03:00.726	$GPGGA,190301,2546.5858,N,07923.0094,W,1,8,2.0,11,M,,M,,*57
05/29/2014	19:03:01.621	$GPGGA,190302,2546.5862,N,07923.0087,W,1,8,2.0,11,M,,M,,*5F
05/29/2014	19:03:02.738	$GPGGA,190303,2546.5862,N,07923.0080,W,1,8,2.0,11,M,,M,,*59
05/29/2014	19:03:03.634	$GPGGA,190304,2546.5865,N,07923.0074,W,1,8,2.0,11,M,,M,,*52
05/29/2014	19:03:04.741	$GPGGA,190305,2546.5868,N,07923.0067,W,1,8,2.0,11,M,,M,,*5C
05/29/2014	19:03:05.626	$GPGGA,190306,2546.5871,N,07923.0059,W,1,8,2.0,11,M,,M,,*5A
05/29/2014	19:03:06.632	$GPGGA,190307,2546.5872,N,07923.0053,W,1,8,2.0,11,M,,M,,*52
05/29/2014	19:03:07.659	$GPGGA,190308,2546.5873,N,07923.0046,W,1,8,2.0,11,M,,M,,*58
05/29/2014	19:03:08.675	$GPGGA,190309,2546.5876,N,07923.0038,W,1,8,2.0,11,M,,M,,*55
05/29/2014	19:03:09.742	$GPGGA,190310,2546.5879,N,07923.0031,W,1,8,2.0,11,M,,M,,*5B
05/29/2014	19:03:10.637	$GPGGA,190311,2546.5880,N,07923.0025,W,1,8,2.0,11,M,,M,,*59
05/29/2014	19:03:11.764	$GPGGA,190312,2546.5883,N,07923.0018,W,1,8,2.0,11,M,,M,,*57
05/29/2014	19:03:12.780	$GPGGA,190313,2546.5887,N,07923.0010,W,1,8,2.0,11,M,,M,,*5A
05/29/2014	19:03:13.676	$GPGGA,190314,2546.5887,N,07923.0005,W,1,8,2.0,11,M,,M,,*59
05/29/2014	19:03:14.773	$GPGGA,190315,2546.5889,N,07922.9998,W,1,8,2.0,11,M,,M,,*53
05/29/2014	19:03:15.678	$GPGGA,190316,2546.5893,N,07922.9989,W,1,8,2.0,11,M,,M,,*5B
05/29/2014	19:03:16.775	$GPGGA,190317,2546.5894,N,07922.9983,W,1,8,2.0,10,M,,M,,*56
05/29/2014	19:03:17.790	$GPGGA,190318,2546.5894,N,07922.9977,W,1,8,2.0,10,M,,M,,*52
05/29/2014	19:03:18.796	$GPGGA,190319,2546.5898,N,07922.9969,W,1,8,2.0,10,M,,M,,*50
05/29/2014	19:03:19.803	$GPGGA,190320,2546.5900,N,07922.9963,W,1,8,2.0,10,M,,M,,*50
05/29/2014	19:03:20.819	$GPGGA,190321,2546.5901,N,07922.9956,W,1,8,2.0,10,M,,M,,*56
05/29/2014	19:03:21.795	$GPGGA,190322,2546.5902,N,07922.9949,W,1,8,2.0,10,M,,M,,*58
05/29/2014	19:03:22.821	$GPGGA,190323,2546.5905,N,07922.9941,W,1,8,2.0,10,M,,M,,*56
05/29/2014	19:03:23.817	$GPGGA,190324,2546.5908,N,07922.9934,W,1,8,2.0,10,M,,M,,*5E
05/29/2014	19:03:24.823	$GPGGA,190325,2546.5909,N,07922.9928,W,1,8,2.0,10,M,,M,,*53
05/29/2014	19:03:25.799	$GPGGA,190326,2546.5911,N,07922.9921,W,1,8,2.0,10,M,,M,,*50
05/29/2014	19:03:26.806	$GPGGA,190327,2546.5914,N,07922.9914,W,1,8,2.0,10,M,,M,,*52
05/29/2014	19:03:27.832	$GPGGA,190328,2546.5916,N,07922.9907,W,1,8,2.0,10,M,,M,,*5D
05/29/2014	19:03:28.818	$GPGGA,190329,2546.5916,N,07922.9901,W,1,8,2.0,10,M,,M,,*5A
05/29/2014	19:03:29.835	$GPGGA,190330,2546.5919,N,07922.9894,W,1,8,2.0,10,M,,M,,*50
05/29/2014	19:03:30.820	$GPGGA,190331,2546.5922,N,07922.9887,W,1,8,2.0,10,M,,M,,*5B
05/29/2014	19:03:31.854	$GPGGA,190332,2546.5923,N,07922.9881,W,1,8,2.0,10,M,,M,,*5F
05/29/2014	19:03:32.829	$GPGGA,190333,2546.5925,N,07922.9875,W,1,8,2.0,10,M,,M,,*53
05/29/2014	19:03:33.844	$GPGGA,190334,2546.5927,N,07922.9868,W,1,8,2.0,10,M,,M,,*5A
05/29/2014	19:03:34.880	$GPGGA,190335,2546.5929,N,07922.9862,W,1,8,2.0,10,M,,M,,*5F
05/29/2014	19:03:35.854	$GPGGA,190336,2546.5930,N,07922.9855,W,1,8,2.0,10,M,,M,,*50
05/29/2014	19:03:36.879	$GPGGA,190337,2546.5933,N,07922.9848,W,1,8,2.0,10,M,,M,,*5E
05/29/2014	19:03:37.854	$GPGGA,190338,2546.5934,N,07922.9841,W,1,8,2.0,10,M,,M,,*5F
05/29/2014	19:03:38.889	$GPGGA,190339,2546.5936,N,07922.9835,W,1,8,2.0,10,M,,M,,*5F
05/29/2014	19:03:39.864	$GPGGA,190340,2546.5938,N,07922.9827,W,1,8,2.0,10,M,,M,,*5C
05/29/2014	19:03:40.490	$GPGGA,190341,2546.5941,N,07922.9821,W,1,8,2.0,10,M,,M,,*55
05/29/2014	19:03:41.506	$GPGGA,190342,2546.5941,N,07922.9813,W,1,8,2.0,10,M,,M,,*57
05/29/2014	19:03:42.541	$GPGGA,190343,2546.5944,N,07922.9807,W,1,8,2.0,10,M,,M,,*56
05/29/2014	19:03:43.515	$GPGGA,190344,2546.5945,N,07922.9801,W,1,8,2.0,10,M,,M,,*56
05/29/2014	19:03:44.521	$GPGGA,190345,2546.5948,N,07922.9792,W,1,8,2.0,10,M,,M,,*5F
05/29/2014	19:03:45.516	$GPGGA,190346,2546.5951,N,07922.9786,W,1,8,2.0,10,M,,M,,*51
05/29/2014	19:03:46.531	$GPGGA,190347,2546.5952,N,07922.9780,W,1,8,2.0,10,M,,M,,*55
05/29/2014	19:03:47.647	$GPGGA,190348,2546.5954,N,07922.9773,W,1,8,2.0,10,M,,M,,*50
05/29/2014	19:03:48.531	$GPGGA,190349,2546.5956,N,07922.9766,W,1,8,2.0,10,M,,M,,*57
05/29/2014	19:03:49.647	$GPGGA,190350,2546.5959,N,07922.9759,W,1,8,2.0,10,M,,M,,*5C
05/29/2014	19:03:50.552	$GPGGA,190351,2546.5959,N,07922.9753,W,1,8,2.0,10,M,,M,,*57
05/29/2014	19:03:51.547	$GPGGA,190352,2546.5963,N,07922.9746,W,1,8,2.0,10,M,,M,,*59
05/29/2014	19:03:52.541	$GPGGA,190353,2546.5965,N,07922.9739,W,1,8,2.0,10,M,,M,,*56
05/29/2014	19:03:53.637	$GPGGA,190354,2546.5966,N,07922.9733,W,1,8,2.0,10,M,,M,,*58
05/29/2014	19:03:54.541	$GPGGA,190355,2546.5970,N,07922.9726,W,1,8,2.0,10,M,,M,,*5A
05/29/2014	19:03:55.687	$GPGGA,190356,2546.5972,N,07922.9719,W,1,8,2.0,10,M,,M,,*57
05/29/2014	19:03:56.682	$GPGGA,190357,2546.5974,N,07922.9712,W,1,8,2.0,10,M,,M,,*5B
05/29/2014	19:03:57.547	$GPGGA,190358,2546.5977,N,07922.9705,W,1,8,2.0,10,M,,M,,*51
05/29/2014	19:03:58.693	$GPGGA,190359,2546.5979,N,07922.9698,W,1,8,2.0,10,M,,M,,*5B
05/29/2014	19:03:59.587	$GPGGA,190400,2546.5981,N,07922.9690,W,1,8,2.0,10,M,,M,,*5F
05/29/2014	19:04:00.573	$GPGGA,190401,2546.5983,N,07922.9683,W,1,8,2.0,10,M,,M,,*5E
05/29/2014	19:04:01.668	$GPGGA,190402,2546.5984,N,07922.9677,W,1,8,2.0,10,M,,M,,*51
05/29/2014	19:04:02.694	$GPGGA,190403,2546.5987,N,07922.9670,W,1,8,2.0,10,M,,M,,*54
05/29/2014	19:04:03.699	$GPGGA,190404,2546.5990,N,07922.9663,W,1,8,2.0,10,M,,M,,*57
05/29/2014	19:04:04.684	$GPGGA,190405,2546.5992,N,07922.9656,W,1,8,2.0,10,M,,M,,*52
05/29/2014	19:04:05.689	$GPGGA,190406,2546.5994,N,07922.9649,W,1,8,2.0,10,M,,M,,*59
05/29/2014	19:04:06.704	$GPGGA,190407,2546.5995,N,07922.9642,W,1,8,2.0,10,M,,M,,*52
05/29/2014	19:04:07.709	$GPGGA,190408,2546.5998,N,07922.9635,W,1,8,2.0,10,M,,M,,*50
05/29/2014	19:04:08.716	$GPGGA,190409,2546.5999,N,07922.9628,W,1,8,2.0,10,M,,M,,*5C
05/29/2014	19:04:09.700	$GPGGA,190410,2546.6003,N,07922.9620,W,1,8,2.0,10,M,,M,,*55
05/29/2014	19:04:10.734	$GPGGA,190411,2546.6005,N,07922.9613,W,1,8,2.0,10,M,,M,,*52
05/29/2014	19:04:11.719	$GPGGA,190412,2546.6006,N,07922.9607,W,1,8,2.0,10,M,,M,,*57
05/29/2014	19:04:12.694	$GPGGA,190413,2546.6009,N,07922.9599,W,1,8,2.0,10,M,,M,,*5D
05/29/2014	19:04:13.699	$GPGGA,190414,2546.6012,N,07922.9592,W,1,8,2.0,10,M,,M,,*5B
05/29/2014	19:04:14.725	$GPGGA,190415,2546.6013,N,07922.9585,W,1,8,2.0,10,M,,M,,*5D
05/29/2014	19:04:15.720	$GPGGA,190416,2546.6016,N,07922.9578,W,1,8,2.0,10,M,,M,,*59
05/29/2014	19:04:16.745	$GPGGA,190417,2546.6017,N,07922.9571,W,1,8,2.0,10,M,,M,,*50
05/29/2014	19:04:17.720	$GPGGA,190418,2546.6021,N,07922.9564,W,1,8,2.0,10,M,,M,,*5E
05/29/2014	19:04:18.746	$GPGGA,190419,2546.6023,N,07922.9557,W,1,8,2.0,10,M,,M,,*5D
05/29/2014	19:04:19.731	$GPGGA,190420,2546.6024,N,07922.9551,W,1,8,2.0,10,M,,M,,*56
05/29/2014	19:04:20.746	$GPGGA,190421,2546.6027,N,07922.9543,W,1,8,2.0,10,M,,M,,*57
05/29/2014	19:04:21.741	$GPGGA,190422,2546.6031,N,07922.9536,W,1,8,2.0,10,M,,M,,*51
05/29/2014	19:04:22.766	$GPGGA,190423,2546.6030,N,07922.9530,W,1,8,2.0,10,M,,M,,*57
05/29/2014	19:04:23.762	$GPGGA,190424,2546.6032,N,07922.9523,W,1,8,2.0,10,M,,M,,*50
05/29/2014	19:04:24.767	$GPGGA,190425,2546.6037,N,07922.9515,W,1,8,2.0,10,M,,M,,*51
05/29/2014	19:04:25.743	$GPGGA,190426,2546.6039,N,07922.9508,W,1,8,2.0,10,M,,M,,*50
05/29/2014	19:04:26.777	$GPGGA,190427,2546.6039,N,07922.9503,W,1,8,2.0,11,M,,M,,*5B
05/29/2014	19:04:27.761	$GPGGA,190428,2546.6042,N,07922.9496,W,1,8,2.0,11,M,,M,,*55
05/29/2014	19:04:28.756	$GPGGA,190429,2546.6045,N,07922.9488,W,1,8,2.0,11,M,,M,,*5C
05/29/2014	19:04:29.752	$GPGGA,190430,2546.6046,N,07922.9482,W,1,8,2.0,11,M,,M,,*5D
05/29/2014	19:04:30.757	$GPGGA,190431,2546.6046,N,07922.9476,W,1,8,2.0,11,M,,M,,*57
05/29/2014	19:04:31.793	$GPGGA,190432,2546.6049,N,07922.9469,W,1,8,2.0,11,M,,M,,*55
05/29/2014	19:04:32.787	$GPGGA,190433,2546.6053,N,07922.9462,W,1,8,2.0,11,M,,M,,*54
05/29/2014	19:04:33.762	$GPGGA,190434,2546.6053,N,07922.9455,W,1,8,2.0,11,M,,M,,*57
05/29/2014	19:04:34.798	$GPGGA,190435,2546.6055,N,07922.9449,W,1,8,2.0,11,M,,M,,*5D
05/29/2014	19:04:35.774	$GPGGA,190436,2546.6057,N,07922.9442,W,1,8,2.0,11,M,,M,,*57
05/29/2014	19:04:36.808	$GPGGA,190437,2546.6060,N,07922.9435,W,1,8,2.0,11,M,,M,,*52
05/29/2014	19:04:37.803	$GPGGA,190438,2546.6060,N,07922.9429,W,1,8,2.0,11,M,,M,,*50
05/29/2014	19:04:38.808	$GPGGA,190439,2546.6063,N,07922.9423,W,1,8,2.0,11,M,,M,,*58
05/29/2014	19:04:39.804	$GPGGA,190440,2546.6064,N,07922.9416,W,1,8,2.0,11,M,,M,,*57
05/29/2014	19:04:40.509	$GPGGA,190441,2546.6066,N,07922.9410,W,1,8,2.0,11,M,,M,,*52
05/29/2014	19:04:41.474	$GPGGA,190442,2546.6068,N,07922.9402,W,1,8,2.0,11,M,,M,,*5C
05/29/2014	19:04:42.509	$GPGGA,190443,2546.6070,N,07922.9395,W,1,8,2.0,11,M,,M,,*5D
05/29/2014	19:04:43.514	$GPGGA,190444,2546.6071,N,07922.9389,W,1,8,2.0,11,M,,M,,*56
05/29/2014	19:04:44.520	$GPGGA,190445,2546.6075,N,07922.9382,W,1,8,2.0,11,M,,M,,*58
05/29/2014	19:04:45.604	$GPGGA,190446,2546.6077,N,07922.9375,W,1,8,2.0,11,M,,M,,*51
05/29/2014	19:04:46.599	$GPGGA,190447,2546.6076,N,07922.9369,W,1,8,2.0,11,M,,M,,*5C
05/29/2014	19:04:47.625	$GPGGA,190448,2546.6078,N,07922.9362,W,1,8,2.0,11,M,,M,,*56
05/29/2014	19:04:48.509	$GPGGA,190449,2546.6082,N,07922.9354,W,1,8,2.0,11,M,,M,,*57
05/29/2014	19:04:49.615	$GPGGA,190450,2546.6085,N,07922.9347,W,1,8,2.0,11,M,,M,,*5A
05/29/2014	19:04:50.530	$GPGGA,190451,2546.6084,N,07922.9341,W,1,8,2.0,11,M,,M,,*5C
05/29/2014	19:04:51.625	$GPGGA,190452,2546.6088,N,07922.9334,W,1,8,2.0,11,M,,M,,*51
05/29/2014	19:04:52.651	$GPGGA,190453,2546.6092,N,07922.9326,W,1,8,2.0,11,M,,M,,*58
05/29/2014	19:04:53.627	$GPGGA,190454,2546.6091,N,07922.9320,W,1,8,2.0,11,M,,M,,*5A
05/29/2014	19:04:54.631	$GPGGA,190455,2546.6093,N,07922.9314,W,1,8,2.0,11,M,,M,,*5E
05/29/2014	19:04:55.636	$GPGGA,190456,2546.6096,N,07922.9306,W,1,8,2.0,11,M,,M,,*5B
05/29/2014	19:04:56.641	$GPGGA,190457,2546.6099,N,07922.9299,W,1,8,2.0,11,M,,M,,*52
05/29/2014	19:04:57.636	$GPGGA,190458,2546.6100,N,07922.9293,W,1,8,2.0,11,M,,M,,*56
05/29/2014	19:04:58.642	$GPGGA,190459,2546.6103,N,07922.9286,W,1,8,2.0,11,M,,M,,*50
05/29/2014	19:04:59.657	$GPGGA,190500,2546.6104,N,07922.9279,W,1,8,2.0,11,M,,M,,*5A
05/29/2014	19:05:00.632	$GPGGA,190501,2546.6107,N,07922.9272,W,1,8,2.0,11,M,,M,,*53
05/29/2014	19:05:01.639	$GPGGA,190502,2546.6107,N,07922.9265,W,1,8,2.0,11,M,,M,,*56
05/29/2014	19:05:02.651	$GPGGA,190503,2546.6111,N,07922.9258,W,1,8,2.0,11,M,,M,,*5E
05/29/2014	19:05:03.667	$GPGGA,190504,2546.6113,N,07922.9250,W,1,8,2.0,11,M,,M,,*53
05/29/2014	19:05:04.672	$GPGGA,190505,2546.6115,N,07922.9245,W,1,8,2.0,11,M,,M,,*50
05/29/2014	19:05:05.658	$GPGGA,190506,2546.6117,N,07922.9238,W,1,8,2.0,11,M,,M,,*5B
05/29/2014	19:05:06.652	$GPGGA,190507,2546.6120,N,07922.9230,W,1,8,2.0,11,M,,M,,*56
05/29/2014	19:05:07.667	$GPGGA,190508,2546.6121,N,07922.9224,W,1,8,2.0,11,M,,M,,*5D
05/29/2014	19:05:08.683	$GPGGA,190509,2546.6122,N,07922.9217,W,1,8,2.0,11,M,,M,,*5F
05/29/2014	19:05:09.668	$GPGGA,190510,2546.6125,N,07922.9210,W,1,8,2.0,11,M,,M,,*57
05/29/2014	19:05:10.683	$GPGGA,190511,2546.6128,N,07922.9203,W,1,8,2.0,11,M,,M,,*59
05/29/2014	19:05:11.678	$GPGGA,190512,2546.6129,N,07922.9196,W,1,8,2.0,11,M,,M,,*54
05/29/2014	19:05:12.703	$GPGGA,190513,2546.6132,N,07922.9190,W,1,8,2.0,11,M,,M,,*59
05/29/2014	19:05:13.679	$GPGGA,190514,2546.6135,N,07922.9182,W,1,8,2.0,11,M,,M,,*5A
05/29/2014	19:05:14.673	$GPGGA,190515,2546.6136,N,07922.9175,W,1,8,2.0,11,M,,M,,*50
05/29/2014	19:05:15.699	$GPGGA,190516,2546.6139,N,07922.9169,W,1,8,2.0,11,M,,M,,*51
05/29/2014	19:05:16.704	$GPGGA,190517,2546.6140,N,07922.9162,W,1,8,2.0,11,M,,M,,*55
05/29/2014	19:05:17.689	$GPGGA,190518,2546.6143,N,07922.9155,W,1,8,2.0,11,M,,M,,*5D
05/29/2014	19:05:18.724	$GPGGA,190519,2546.6144,N,07922.9148,W,1,8,2.0,11,M,,M,,*57
05/29/2014	19:05:19.710	$GPGGA,190520,2546.6147,N,07922.9142,W,1,8,2.0,11,M,,M,,*54
05/29/2014	19:05:20.704	$GPGGA,190521,2546.6150,N,07922.9134,W,1,8,2.0,11,M,,M,,*52
05/29/2014	19:05:21.699	$GPGGA,190522,2546.6151,N,07922.9127,W,1,8,2.0,11,M,,M,,*52
05/29/2014	19:05:22.714	$GPGGA,190523,2546.6153,N,07922.9121,W,1,8,2.0,11,M,,M,,*57
05/29/2014	19:05:23.729	$GPGGA,190524,2546.6156,N,07922.9114,W,1,8,2.0,11,M,,M,,*53
05/29/2014	19:05:24.835	$GPGGA,190525,2546.6158,N,07922.9106,W,1,8,2.0,11,M,,M,,*5F
05/29/2014	19:05:25.731	$GPGGA,190526,2546.6160,N,07922.9100,W,1,8,2.0,11,M,,M,,*51
05/29/2014	19:05:26.825	$GPGGA,190527,2546.6161,N,07922.9093,W,1,8,2.0,11,M,,M,,*5A
05/29/2014	19:05:27.730	$GPGGA,190528,2546.6164,N,07922.9086,W,1,8,2.0,11,M,,M,,*54
05/29/2014	19:05:28.846	$GPGGA,190529,2546.6165,N,07922.9079,W,1,8,2.0,11,M,,M,,*54
05/29/2014	19:05:29.720	$GPGGA,190530,2546.6169,N,07922.9072,W,1,8,2.0,11,M,,M,,*5B
05/29/2014	19:05:30.736	$GPGGA,190531,2546.6169,N,07922.9066,W,1,8,2.0,11,M,,M,,*5F
05/29/2014	19:05:31.841	$GPGGA,190532,2546.6172,N,07922.9060,W,1,8,2.0,11,M,,M,,*50
05/29/2014	19:05:32.736	$GPGGA,190533,2546.6174,N,07922.9053,W,1,8,2.0,11,M,,M,,*57
05/29/2014	19:05:33.832	$GPGGA,190534,2546.6176,N,07922.9045,W,1,8,2.0,11,M,,M,,*55
05/29/2014	19:05:34.877	$GPGGA,190535,2546.6179,N,07922.9039,W,1,8,2.0,11,M,,M,,*50
05/29/2014	19:05:35.872	$GPGGA,190536,2546.6180,N,07922.9033,W,1,8,2.0,11,M,,M,,*5F
05/29/2014	19:05:36.847	$GPGGA,190537,2546.6183,N,07922.9026,W,1,8,2.0,11,M,,M,,*59
05/29/2014	19:05:37.761	$GPGGA,190538,2546.6185,N,07922.9020,W,1,8,2.0,11,M,,M,,*56
05/29/2014	19:05:38.857	$GPGGA,190539,2546.6187,N,07922.9013,W,1,8,2.0,11,M,,M,,*55
05/29/2014	19:05:39.872	$GPGGA,190540,2546.6190,N,07922.9006,W,1,8,2.0,11,M,,M,,*59
05/29/2014	19:05:40.546	$GPGGA,190541,2546.6190,N,07922.9000,W,1,8,2.0,11,M,,M,,*5E
05/29/2014	19:05:41.561	$GPGGA,190542,2546.6194,N,07922.8993,W,1,8,2.0,11,M,,M,,*5B
05/29/2014	19:05:42.556	$GPGGA,190543,2546.6198,N,07922.8986,W,1,8,2.0,11,M,,M,,*52
05/29/2014	19:05:43.572	$GPGGA,190544,2546.6198,N,07922.8980,W,1,8,2.0,11,M,,M,,*53
05/29/2014	19:05:44.577	$GPGGA,190545,2546.6200,N,07922.8974,W,1,8,2.0,11,M,,M,,*5B
05/29/2014	19:05:45.572	$GPGGA,190546,2546.6203,N,07922.8967,W,1,8,2.0,11,M,,M,,*59
05/29/2014	19:05:46.567	$GPGGA,190547,2546.6205,N,07922.8960,W,1,8,2.0,12,M,,M,,*5A
05/29/2014	19:05:47.592	$GPGGA,190548,2546.6207,N,07922.8954,W,1,8,2.0,12,M,,M,,*50
05/29/2014	19:05:48.577	$GPGGA,190549,2546.6208,N,07922.8947,W,1,8,2.0,12,M,,M,,*5C
05/29/2014	19:05:49.583	$GPGGA,190550,2546.6212,N,07922.8940,W,1,8,2.0,12,M,,M,,*58
05/29/2014	19:05:50.608	$GPGGA,190551,2546.6214,N,07922.8934,W,1,8,2.0,12,M,,M,,*5C
05/29/2014	19:05:51.593	$GPGGA,190552,2546.6215,N,07922.8927,W,1,8,2.0,12,M,,M,,*5C
05/29/2014	19:05:52.598	$GPGGA,190553,2546.6216,N,07922.8920,W,1,8,2.0,12,M,,M,,*59
05/29/2014	19:05:53.594	$GPGGA,190554,2546.6219,N,07922.8914,W,1,8,2.0,12,M,,M,,*56
05/29/2014	19:05:54.619	$GPGGA,190555,2546.6222,N,07922.8907,W,1,8,2.0,12,M,,M,,*5D
05/29/2014	19:05:55.623	$GPGGA,190556,2546.6223,N,07922.8900,W,1,8,2.0,12,M,,M,,*58
05/29/2014	19:05:56.628	$GPGGA,190557,2546.6227,N,07922.8893,W,1,8,2.0,12,M,,M,,*56
05/29/2014	19:05:57.613	$GPGGA,190558,2546.6227,N,07922.8887,W,1,8,2.0,12,M,,M,,*5C
05/29/2014	19:05:58.639	$GPGGA,190559,2546.6230,N,07922.8880,W,1,8,2.0,12,M,,M,,*5C
05/29/2014	19:05:59.634	$GPGGA,190600,2546.6233,N,07922.8873,W,1,8,2.0,12,M,,M,,*5C
05/29/2014	19:06:00.639	$GPGGA,190601,2546.6234,N,07922.8867,W,1,8,2.0,12,M,,M,,*5F
05/29/2014	19:06:01.614	$GPGGA,190602,2546.6236,N,07922.8860,W,1,8,2.0,12,M,,M,,*59
05/29/2014	19:06:02.620	$GPGGA,190603,2546.6238,N,07922.8854,W,1,8,2.0,12,M,,M,,*51
05/29/2014	19:06:03.644	$GPGGA,190604,2546.6241,N,07922.8847,W,1,8,2.0,12,M,,M,,*5A
05/29/2014	19:06:04.651	$GPGGA,190605,2546.6243,N,07922.8840,W,1,8,2.0,12,M,,M,,*5E
05/29/2014	19:06:05.635	$GPGGA,190606,2546.6245,N,07922.8833,W,1,8,2.0,12,M,,M,,*5F
05/29/2014	19:06:06.640	$GPGGA,190607,2546.6248,N,07922.8826,W,1,8,2.0,12,M,,M,,*57
05/29/2014	19:06:07.655	$GPGGA,190608,2546.6250,N,07922.8819,W,1,8,2.0,12,M,,M,,*5D
05/29/2014	19:06:08.660	$GPGGA,190609,2546.6252,N,07922.8812,W,1,8,2.0,12,M,,M,,*55
05/29/2014	19:06:09.656	$GPGGA,190610,2546.6254,N,07922.8805,W,1,8,2.0,12,M,,M,,*5D
05/29/2014	19:06:10.651	$GPGGA,190611,2546.6256,N,07922.8799,W,1,8,2.0,12,M,,M,,*54
05/29/2014	19:06:11.676	$GPGGA,190612,2546.6259,N,07922.8790,W,1,8,2.0,12,M,,M,,*51
05/29/2014	19:06:12.670	$GPGGA,190613,2546.6261,N,07922.8784,W,1,8,2.0,12,M,,M,,*5E
05/29/2014	19:06:13.776	$GPGGA,190614,2546.6263,N,07922.8778,W,1,8,2.0,12,M,,M,,*58
05/29/2014	19:06:14.781	$GPGGA,190615,2546.6266,N,07922.8769,W,1,8,2.0,12,M,,M,,*5C
05/29/2014	19:06:15.676	$GPGGA,190616,2546.6269,N,07922.8763,W,1,8,2.0,12,M,,M,,*5A
05/29/2014	19:06:16.751	$GPGGA,190617,2546.6268,N,07922.8757,W,1,8,2.0,12,M,,M,,*5D
05/29/2014	19:06:17.666	$GPGGA,190618,2546.6273,N,07922.8749,W,1,8,2.0,12,M,,M,,*57
05/29/2014	19:06:18.782	$GPGGA,190619,2546.6277,N,07922.8742,W,1,8,2.0,12,M,,M,,*59
05/29/2014	19:06:19.696	$GPGGA,190620,2546.6277,N,07922.8735,W,1,8,2.0,12,M,,M,,*53
05/29/2014	19:06:20.692	$GPGGA,190621,2546.6280,N,07922.8728,W,1,8,2.0,12,M,,M,,*56
05/29/2014	19:06:21.687	$GPGGA,190622,2546.6284,N,07922.8721,W,1,8,2.0,12,M,,M,,*58
05/29/2014	19:06:22.814	$GPGGA,190623,2546.6286,N,07922.8715,W,1,8,2.0,12,M,,M,,*5C
05/29/2014	19:06:23.707	$GPGGA,190624,2546.6287,N,07922.8708,W,1,8,2.0,12,M,,M,,*56
05/29/2014	19:06:24.702	$GPGGA,190625,2546.6290,N,07922.8701,W,1,8,2.0,12,M,,M,,*58
05/29/2014	19:06:25.687	$GPGGA,190626,2546.6292,N,07922.8694,W,1,8,2.0,12,M,,M,,*54
05/29/2014	19:06:26.803	$GPGGA,190627,2546.6295,N,07922.8688,W,1,8,2.0,12,M,,M,,*5F
05/29/2014	19:06:27.718	$GPGGA,190628,2546.6297,N,07922.8681,W,1,8,2.0,12,M,,M,,*5B
05/29/2014	19:06:28.804	$GPGGA,190629,2546.6299,N,07922.8674,W,1,8,2.0,12,M,,M,,*5E
05/29/2014	19:06:29.809	$GPGGA,190630,2546.6302,N,07922.8668,W,1,8,2.0,12,M,,M,,*58
05/29/2014	19:06:30.803	$GPGGA,190631,2546.6303,N,07922.8662,W,1,8,2.0,12,M,,M,,*52
05/29/2014	19:06:31.828	$GPGGA,190632,2546.6306,N,07922.8655,W,1,8,2.0,12,M,,M,,*50
05/29/2014	19:06:32.803	$GPGGA,190633,2546.6309,N,07922.8648,W,1,8,2.0,12,M,,M,,*52
05/29/2014	19:06:33.808	$GPGGA,190634,2546.6310,N,07922.8641,W,1,8,2.0,12,M,,M,,*54
05/29/2014	19:06:34.854	$GPGGA,190635,2546.6313,N,07922.8635,W,1,8,2.0,12,M,,M,,*55
05/29/2014	19:06:35.839	$GPGGA,190636,2546.6316,N,07922.8628,W,1,8,2.0,12,M,,M,,*5F
05/29/2014	19:06:36.844	$GPGGA,190637,2546.6317,N,07922.8621,W,1,8,2.0,12,M,,M,,*56
05/29/2014	19:06:37.829	$GPGGA,190638,2546.6320,N,07922.8615,W,1,8,2.0,12,M,,M,,*5A
05/29/2014	19:06:38.856	$GPGGA,190639,2546.6321,N,07922.8608,W,1,8,2.0,12,M,,M,,*56
05/29/2014	19:06:39.850	$GPGGA,190640,2546.6323,N,07922.8601,W,1,8,2.0,12,M,,M,,*53
05/29/2014	19:06:40.555	$GPGGA,190641,2546.6324,N,07922.8595,W,1,8,2.0,12,M,,M,,*5B
05/29/2014	19:06:41.530	$GPGGA,190642,2546.6327,N,07922.8588,W,1,8,2.0,12,M,,M,,*57
05/29/2014	19:06:42.565	$GPGGA,190643,2546.6330,N,07922.8581,W,1,8,2.0,12,M,,M,,*59
05/29/2014	19:06:43.550	$GPGGA,190644,2546.6331,N,07922.8575,W,1,8,2.0,12,M,,M,,*54
05/29/2014	19:06:44.566	$GPGGA,190645,2546.6331,N,07922.8569,W,1,8,2.0,12,M,,M,,*58
05/29/2014	19:06:45.541	$GPGGA,190646,2546.6335,N,07922.8562,W,1,8,2.0,12,M,,M,,*54
05/29/2014	19:06:46.566	$GPGGA,190647,2546.6338,N,07922.8555,W,1,8,2.0,12,M,,M,,*5C
05/29/2014	19:06:47.570	$GPGGA,190648,2546.6336,N,07922.8551,W,1,8,2.0,12,M,,M,,*59
05/29/2014	19:06:48.575	$GPGGA,190649,2546.6339,N,07922.8544,W,1,8,2.0,12,M,,M,,*53
05/29/2014	19:06:49.561	$GPGGA,190650,2546.6344,N,07922.8536,W,1,8,2.0,12,M,,M,,*54
05/29/2014	19:06:50.586	$GPGGA,190651,2546.6343,N,07922.8530,W,1,8,2.0,12,M,,M,,*54
05/29/2014	19:06:51.581	$GPGGA,190652,2546.6345,N,07922.8525,W,1,8,2.0,12,M,,M,,*55
05/29/2014	19:06:52.596	$GPGGA,190653,2546.6348,N,07922.8517,W,1,8,2.0,12,M,,M,,*58
05/29/2014	19:06:53.582	$GPGGA,190654,2546.6350,N,07922.8510,W,1,8,2.0,12,M,,M,,*51
05/29/2014	19:06:54.607	$GPGGA,190655,2546.6350,N,07922.8504,W,1,8,2.0,12,M,,M,,*55
05/29/2014	19:06:55.582	$GPGGA,190656,2546.6352,N,07922.8499,W,1,8,2.0,11,M,,M,,*52
05/29/2014	19:06:56.577	$GPGGA,190657,2546.6356,N,07922.8491,W,1,8,2.0,11,M,,M,,*5F
05/29/2014	19:06:57.592	$GPGGA,190658,2546.6357,N,07922.8484,W,1,8,2.0,11,M,,M,,*55
05/29/2014	19:06:58.607	$GPGGA,190659,2546.6359,N,07922.8479,W,1,8,2.0,11,M,,M,,*58
05/29/2014	19:06:59.614	$GPGGA,190700,2546.6360,N,07922.8472,W,1,8,2.0,11,M,,M,,*54
05/29/2014	19:07:00.618	$GPGGA,190701,2546.6363,N,07922.8465,W,1,8,2.0,11,M,,M,,*50
05/29/2014	19:07:01.604	$GPGGA,190702,2546.6364,N,07922.8458,W,1,8,2.0,11,M,,M,,*5A
05/29/2014	19:07:02.629	$GPGGA,190703,2546.6367,N,07922.8452,W,1,8,2.0,11,M,,M,,*52
05/29/2014	19:07:03.633	$GPGGA,190704,2546.6368,N,07922.8445,W,1,8,2.0,11,M,,M,,*5C
05/29/2014	19:07:04.599	$GPGGA,190705,2546.6371,N,07922.8438,W,1,8,2.0,11,M,,M,,*5F
05/29/2014	19:07:05.613	$GPGGA,190706,2546.6373,N,07922.8432,W,1,8,2.0,11,M,,M,,*54
05/29/2014	19:07:06.708	$GPGGA,190707,2546.6375,N,07922.8424,W,1,8,2.0,11,M,,M,,*54
05/29/2014	19:07:07.633	$GPGGA,190708,2546.6378,N,07922.8417,W,1,8,2.0,11,M,,M,,*56
05/29/2014	19:07:08.628	$GPGGA,190709,2546.6378,N,07922.8411,W,1,8,2.0,11,M,,M,,*51
05/29/2014	19:07:09.613	$GPGGA,190710,2546.6382,N,07922.8405,W,1,8,2.0,11,M,,M,,*59
05/29/2014	19:07:10.619	$GPGGA,190711,2546.6385,N,07922.8397,W,1,8,2.0,11,M,,M,,*53
05/29/2014	19:07:11.805	$GPGGA,190712,2546.6386,N,07922.8390,W,1,8,2.0,11,M,,M,,*54
05/29/2014	19:07:12.660	$GPGGA,190713,2546.6388,N,07922.8384,W,1,8,2.0,11,M,,M,,*5E
05/29/2014	19:07:13.624	$GPGGA,190714,2546.6389,N,07922.8377,W,1,8,2.0,11,M,,M,,*54
05/29/2014	19:07:14.629	$GPGGA,190715,2546.6393,N,07922.8370,W,1,8,2.0,11,M,,M,,*59
05/29/2014	19:07:15.655	$GPGGA,190716,2546.6396,N,07922.8363,W,1,8,2.0,11,M,,M,,*5D
05/29/2014	19:07:16.812	$GPGGA,190717,2546.6396,N,07922.8357,W,1,8,2.0,11,M,,M,,*5B
05/29/2014	19:07:17.819	$GPGGA,190718,2546.6398,N,07922.8349,W,1,8,2.0,11,M,,M,,*55
05/29/2014	19:07:18.802	$GPGGA,190719,2546.6400,N,07922.8339,W,1,9,1.7,11,M,,M,,*50
05/29/2014	19:07:19.836	$GPGGA,190720,2546.6402,N,07922.8330,W,1,9,1.7,11,M,,M,,*51
05/29/2014	19:07:20.761	$GPGGA,190721,2546.6401,N,07922.8322,W,1,9,1.7,11,M,,M,,*50
05/29/2014	19:07:21.826	$GPGGA,190722,2546.6404,N,07922.8315,W,1,9,1.7,11,M,,M,,*52
05/29/2014	19:07:22.831	$GPGGA,190723,2546.6407,N,07922.8308,W,1,9,2.0,11,M,,M,,*58
05/29/2014	19:07:23.846	$GPGGA,190724,2546.6410,N,07922.8302,W,1,9,2.0,11,M,,M,,*53
05/29/2014	19:07:24.832	$GPGGA,190725,2546.6409,N,07922.8297,W,1,8,2.0,11,M,,M,,*56
05/29/2014	19:07:25.766	$GPGGA,190726,2546.6411,N,07922.8288,W,1,8,2.0,12,M,,M,,*51
05/29/2014	19:07:26.771	$GPGGA,190727,2546.6414,N,07922.8281,W,1,9,1.7,12,M,,M,,*59
05/29/2014	19:07:27.857	$GPGGA,190728,2546.6417,N,07922.8275,W,1,9,2.0,12,M,,M,,*5A
05/29/2014	19:07:28.812	$GPGGA,190729,2546.6416,N,07922.8269,W,1,8,2.0,12,M,,M,,*56
05/29/2014	19:07:29.848	$GPGGA,190730,2546.6421,N,07922.8262,W,1,8,2.0,12,M,,M,,*51
05/29/2014	19:07:30.822	$GPGGA,190731,2546.6424,N,07922.8255,W,1,8,2.0,12,M,,M,,*51
05/29/2014	19:07:31.867	$GPGGA,190732,2546.6425,N,07922.8249,W,1,8,2.0,12,M,,M,,*5E
05/29/2014	19:07:32.784	$GPGGA,190733,2546.6425,N,07922.8243,W,1,8,2.0,12,M,,M,,*55
05/29/2014	19:07:33.848	$GPGGA,190734,2546.6429,N,07922.8235,W,1,8,2.0,12,M,,M,,*5F
05/29/2014	19:07:34.843	$GPGGA,190735,2546.6431,N,07922.8229,W,1,8,2.0,12,M,,M,,*5A
05/29/2014	19:07:35.808	$GPGGA,190736,2546.6432,N,07922.8223,W,1,8,2.0,12,M,,M,,*50
05/29/2014	19:07:36.843	$GPGGA,190737,2546.6435,N,07922.8216,W,1,8,2.0,12,M,,M,,*50
05/29/2014	19:07:37.868	$GPGGA,190738,2546.6438,N,07922.8208,W,1,8,2.0,12,M,,M,,*5D
05/29/2014	19:07:38.864	$GPGGA,190739,2546.6437,N,07922.8202,W,1,8,2.0,12,M,,M,,*59
05/29/2014	19:07:39.879	$GPGGA,190740,2546.6439,N,07922.8195,W,1,8,2.0,12,M,,M,,*54
05/29/2014	19:07:40.502	$GPGGA,190741,2546.6443,N,07922.8187,W,1,8,2.0,12,M,,M,,*5B
05/29/2014	19:07:41.567	$GPGGA,190742,2546.6443,N,07922.8181,W,1,8,2.0,12,M,,M,,*5E
05/29/2014	19:07:42.502	$GPGGA,190743,2546.6445,N,07922.8174,W,1,8,2.0,12,M,,M,,*53
05/29/2014	19:07:43.588	$GPGGA,190744,2546.6447,N,07922.8167,W,1,8,2.0,12,M,,M,,*54
05/29/2014	19:07:44.563	$GPGGA,190745,2546.6450,N,07922.8160,W,1,8,2.0,12,M,,M,,*54
05/29/2014	19:07:45.588	$GPGGA,190746,2546.6451,N,07922.8154,W,1,8,2.0,12,M,,M,,*51
05/29/2014	19:07:46.583	$GPGGA,190747,2546.6453,N,07922.8148,W,1,8,2.0,11,M,,M,,*5C
05/29/2014	19:07:47.598	$GPGGA,190748,2546.6454,N,07922.8140,W,1,8,2.0,11,M,,M,,*5C
05/29/2014	19:07:48.553	$GPGGA,190749,2546.6458,N,07922.8133,W,1,8,2.0,11,M,,M,,*55
05/29/2014	19:07:49.649	$GPGGA,190750,2546.6458,N,07922.8127,W,1,8,2.0,11,M,,M,,*58
05/29/2014	19:07:50.654	$GPGGA,190751,2546.6461,N,07922.8120,W,1,8,2.0,11,M,,M,,*54
05/29/2014	19:07:51.549	$GPGGA,190752,2546.6462,N,07922.8113,W,1,8,2.0,11,M,,M,,*54
05/29/2014	19:07:52.564	$GPGGA,190753,2546.6464,N,07922.8106,W,1,8,2.0,11,M,,M,,*57
05/29/2014	19:07:53.610	$GPGGA,190754,2546.6465,N,07922.8100,W,1,8,2.0,11,M,,M,,*57
05/29/2014	19:07:54.676	$GPGGA,190755,2546.6468,N,07922.8092,W,1,8,2.0,11,M,,M,,*51
05/29/2014	19:07:55.551	$GPGGA,190756,2546.6471,N,07922.8085,W,1,8,2.0,11,M,,M,,*5C
05/29/2014	19:07:56.585	$GPGGA,190757,2546.6470,N,07922.8078,W,1,8,2.0,11,M,,M,,*5E
05/29/2014	19:07:57.611	$GPGGA,190758,2546.6472,N,07922.8072,W,1,8,2.0,11,M,,M,,*59
05/29/2014	19:07:58.614	$GPGGA,190759,2546.6475,N,07922.8064,W,1,8,2.0,11,M,,M,,*58
05/29/2014	19:07:59.710	$GPGGA,190800,2546.6476,N,07922.8057,W,1,8,2.0,11,M,,M,,*58
05/29/2014	19:08:00.626	$GPGGA,190801,2546.6478,N,07922.8050,W,1,8,2.0,11,M,,M,,*50
05/29/2014	19:08:01.671	$GPGGA,190802,2546.6479,N,07922.8044,W,1,8,2.0,11,M,,M,,*57
05/29/2014	19:08:02.565	$GPGGA,190803,2546.6480,N,07922.8036,W,1,8,2.0,11,M,,M,,*55
05/29/2014	19:08:03.711	$GPGGA,190804,2546.6483,N,07922.8029,W,1,8,2.0,11,M,,M,,*5F
05/29/2014	19:08:04.706	$GPGGA,190805,2546.6485,N,07922.8022,W,1,8,2.0,11,M,,M,,*53
05/29/2014	19:08:05.671	$GPGGA,190806,2546.6486,N,07922.8016,W,1,8,2.0,11,M,,M,,*54
05/29/2014	19:08:06.696	$GPGGA,190807,2546.6487,N,07922.8009,W,1,8,2.0,11,M,,M,,*5A
05/29/2014	19:08:07.671	$GPGGA,190808,2546.6490,N,07922.8001,W,1,8,2.0,11,M,,M,,*5B
05/29/2014	19:08:08.727	$GPGGA,190809,2546.6493,N,07922.7995,W,1,8,2.0,11,M,,M,,*52
05/29/2014	19:08:09.692	$GPGGA,190810,2546.6492,N,07922.7989,W,1,8,2.0,11,M,,M,,*56
05/29/2014	19:08:10.727	$GPGGA,190811,2546.6496,N,07922.7981,W,1,8,2.0,11,M,,M,,*5B
05/29/2014	19:08:11.722	$GPGGA,190812,2546.6498,N,07922.7974,W,1,8,2.0,11,M,,M,,*5C
05/29/2014	19:08:12.697	$GPGGA,190813,2546.6500,N,07922.7967,W,1,8,2.0,11,M,,M,,*5F
05/29/2014	19:08:13.723	$GPGGA,190814,2546.6501,N,07922.7961,W,1,8,2.0,11,M,,M,,*5F
05/29/2014	19:08:14.738	$GPGGA,190815,2546.6503,N,07922.7954,W,1,8,1.7,11,M,,M,,*5E
05/29/2014	19:08:15.722	$GPGGA,190816,2546.6505,N,07922.7946,W,1,8,2.0,11,M,,M,,*5C
05/29/2014	19:08:16.757	$GPGGA,190817,2546.6508,N,07922.7938,W,1,8,1.7,11,M,,M,,*5D
05/29/2014	19:08:17.722	$GPGGA,190818,2546.6508,N,07922.7930,W,1,8,1.7,11,M,,M,,*5A
05/29/2014	19:08:18.738	$GPGGA,190819,2546.6510,N,07922.7921,W,1,9,1.7,11,M,,M,,*53
05/29/2014	19:08:19.763	$GPGGA,190820,2546.6511,N,07922.7913,W,1,9,1.7,11,M,,M,,*59
05/29/2014	19:08:20.758	$GPGGA,190821,2546.6512,N,07922.7904,W,1,9,1.7,11,M,,M,,*5D
05/29/2014	19:08:21.773	$GPGGA,190822,2546.6515,N,07922.7898,W,1,9,2.0,11,M,,M,,*59
05/29/2014	19:08:22.758	$GPGGA,190823,2546.6516,N,07922.7891,W,1,8,1.7,11,M,,M,,*57
05/29/2014	19:08:23.784	$GPGGA,190824,2546.6519,N,07922.7884,W,1,8,1.7,12,M,,M,,*58
05/29/2014	19:08:24.759	$GPGGA,190825,2546.6521,N,07922.7879,W,1,9,1.7,12,M,,M,,*51
05/29/2014	19:08:25.765	$GPGGA,190826,2546.6523,N,07922.7868,W,1,9,1.7,12,M,,M,,*50
05/29/2014	19:08:26.779	$GPGGA,190827,2546.6525,N,07922.7861,W,1,9,1.7,12,M,,M,,*5E
05/29/2014	19:08:27.815	$GPGGA,190828,2546.6526,N,07922.7854,W,1,9,1.7,12,M,,M,,*54
05/29/2014	19:08:28.749	$GPGGA,190829,2546.6529,N,07922.7848,W,1,9,1.7,12,M,,M,,*57
05/29/2014	19:08:29.783	$GPGGA,190830,2546.6530,N,07922.7840,W,1,9,1.7,12,M,,M,,*5F
05/29/2014	19:08:30.787	$GPGGA,190831,2546.6532,N,07922.7834,W,1,9,1.7,12,M,,M,,*5F
05/29/2014	19:08:31.780	$GPGGA,190832,2546.6534,N,07922.7828,W,1,9,2.0,12,M,,M,,*53
05/29/2014	19:08:32.793	$GPGGA,190833,2546.6536,N,07922.7819,W,1,8,1.7,13,M,,M,,*56
05/29/2014	19:08:33.796	$GPGGA,190834,2546.6537,N,07922.7812,W,1,8,1.7,13,M,,M,,*5B
05/29/2014	19:08:34.780	$GPGGA,190835,2546.6539,N,07922.7807,W,1,9,1.7,13,M,,M,,*51
05/29/2014	19:08:35.813	$GPGGA,190836,2546.6541,N,07922.7800,W,1,9,1.7,13,M,,M,,*5A
05/29/2014	19:08:36.827	$GPGGA,190837,2546.6544,N,07922.7794,W,1,9,2.0,13,M,,M,,*58
05/29/2014	19:08:37.803	$GPGGA,190838,2546.6545,N,07922.7788,W,1,9,2.0,13,M,,M,,*5B
05/29/2014	19:08:38.794	$GPGGA,190839,2546.6547,N,07922.7782,W,1,8,2.0,13,M,,M,,*53
05/29/2014	19:08:39.797	$GPGGA,190840,2546.6547,N,07922.7782,W,1,8,2.0,13,M,,M,,*5D
05/29/2014	19:08:40.504	$GPGGA,190841,2546.6552,N,07922.7769,W,1,8,2.0,13,M,,M,,*5D
05/29/2014	19:08:41.527	$GPGGA,190842,2546.6555,N,07922.7763,W,1,8,2.0,13,M,,M,,*53
05/29/2014	19:08:42.510	$GPGGA,190843,2546.6555,N,07922.7756,W,1,8,1.7,13,M,,M,,*50
05/29/2014	19:08:43.543	$GPGGA,190844,2546.6555,N,07922.7756,W,1,8,1.7,13,M,,M,,*57
05/29/2014	19:08:44.607	$GPGGA,190845,2546.6559,N,07922.7743,W,1,8,2.0,13,M,,M,,*5A
05/29/2014	19:08:45.500	$GPGGA,190846,2546.6559,N,07922.7743,W,1,8,2.0,13,M,,M,,*59
05/29/2014	19:08:46.514	$GPGGA,190847,2546.6563,N,07922.7728,W,1,8,2.0,13,M,,M,,*5C
05/29/2014	19:08:47.597	$GPGGA,190848,2546.6565,N,07922.7722,W,1,8,1.7,13,M,,M,,*5B
05/29/2014	19:08:48.621	$GPGGA,190849,2546.6566,N,07922.7716,W,1,8,2.0,13,M,,M,,*5A
05/29/2014	19:08:49.504	$GPGGA,190850,2546.6570,N,07922.7709,W,1,8,2.0,13,M,,M,,*5B
05/29/2014	19:08:50.627	$GPGGA,190851,2546.6572,N,07922.7703,W,1,8,2.0,13,M,,M,,*52
05/29/2014	19:08:51.630	$GPGGA,190852,2546.6573,N,07922.7696,W,1,8,1.7,13,M,,M,,*59
05/29/2014	19:08:52.635	$GPGGA,190853,2546.6574,N,07922.7686,W,1,8,2.0,13,M,,M,,*5A
05/29/2014	19:08:53.597	$GPGGA,190854,2546.6577,N,07922.7681,W,1,8,1.7,13,M,,M,,*5D
05/29/2014	19:08:54.611	$GPGGA,190855,2546.6579,N,07922.7674,W,1,8,2.0,13,M,,M,,*5C
05/29/2014	19:08:55.524	$GPGGA,190856,2546.6579,N,07922.7674,W,1,8,1.7,13,M,,M,,*5B
05/29/2014	19:08:56.618	$GPGGA,190857,2546.6584,N,07922.7662,W,1,8,2.0,13,M,,M,,*5B
05/29/2014	19:08:57.601	$GPGGA,190858,2546.6584,N,07922.7655,W,1,8,1.7,13,M,,M,,*54
05/29/2014	19:08:58.615	$GPGGA,190859,2546.6587,N,07922.7649,W,1,8,2.0,13,M,,M,,*5F
05/29/2014	19:08:59.638	$GPGGA,190900,2546.6590,N,07922.7641,W,1,8,2.0,13,M,,M,,*5C
05/29/2014	19:09:00.602	$GPGGA,190901,2546.6591,N,07922.7635,W,1,8,2.0,13,M,,M,,*5F
05/29/2014	19:09:01.615	$GPGGA,190902,2546.6591,N,07922.7628,W,1,8,2.0,13,M,,M,,*50
05/29/2014	19:09:02.620	$GPGGA,190903,2546.6595,N,07922.7621,W,1,8,2.0,13,M,,M,,*5C
05/29/2014	19:09:03.632	$GPGGA,190904,2546.6595,N,07922.7614,W,1,8,2.0,13,M,,M,,*5D
05/29/2014	19:09:04.636	$GPGGA,190905,2546.6598,N,07922.7609,W,1,8,2.0,13,M,,M,,*5D
05/29/2014	19:09:05.619	$GPGGA,190906,2546.6599,N,07922.7602,W,1,8,2.0,13,M,,M,,*54
05/29/2014	19:09:06.633	$GPGGA,190907,2546.6602,N,07922.7595,W,1,8,2.0,13,M,,M,,*59
05/29/2014	19:09:07.635	$GPGGA,190908,2546.6602,N,07922.7588,W,1,8,2.0,13,M,,M,,*5A
05/29/2014	19:09:08.649	$GPGGA,190909,2546.6605,N,07922.7581,W,1,8,2.0,13,M,,M,,*55
05/29/2014	19:09:09.632	$GPGGA,190910,2546.6608,N,07922.7574,W,1,8,2.0,13,M,,M,,*5A
05/29/2014	19:09:10.636	$GPGGA,190911,2546.6609,N,07922.7567,W,1,8,2.0,13,M,,M,,*58
05/29/2014	19:09:11.639	$GPGGA,190912,2546.6609,N,07922.7561,W,1,8,2.0,13,M,,M,,*5D
05/29/2014	19:09:12.623	$GPGGA,190913,2546.6612,N,07922.7553,W,1,9,1.7,13,M,,M,,*52
05/29/2014	19:09:13.646	$GPGGA,190914,2546.6613,N,07922.7543,W,1,9,1.7,13,M,,M,,*55
05/29/2014	19:09:14.660	$GPGGA,190915,2546.6615,N,07922.7537,W,1,9,1.7,13,M,,M,,*51
05/29/2014	19:09:15.654	$GPGGA,190916,2546.6614,N,07922.7529,W,1,9,2.0,13,M,,M,,*58
05/29/2014	19:09:16.657	$GPGGA,190917,2546.6617,N,07922.7522,W,1,9,1.7,13,M,,M,,*55
05/29/2014	19:09:17.640	$GPGGA,190918,2546.6619,N,07922.7514,W,1,9,2.1,13,M,,M,,*54
05/29/2014	19:09:18.634	$GPGGA,190919,2546.6620,N,07922.7507,W,1,9,1.7,14,M,,M,,*5F
05/29/2014	19:09:19.658	$GPGGA,190920,2546.6620,N,07922.7500,W,1,9,1.7,14,M,,M,,*52
05/29/2014	19:09:20.641	$GPGGA,190921,2546.6624,N,07922.7493,W,1,9,1.7,14,M,,M,,*5C
05/29/2014	19:09:21.654	$GPGGA,190922,2546.6627,N,07922.7486,W,1,9,2.1,14,M,,M,,*5D
05/29/2014	19:09:22.659	$GPGGA,190923,2546.6625,N,07922.7478,W,1,8,2.1,14,M,,M,,*5E
05/29/2014	19:09:23.661	$GPGGA,190924,2546.6627,N,07922.7471,W,1,8,1.7,14,M,,M,,*57
05/29/2014	19:09:24.685	$GPGGA,190925,2546.6631,N,07922.7462,W,1,9,1.7,14,M,,M,,*52
05/29/2014	19:09:25.637	$GPGGA,190926,2546.6633,N,07922.7455,W,1,9,2.1,14,M,,M,,*52
05/29/2014	19:09:26.672	$GPGGA,190927,2546.6632,N,07922.7450,W,1,8,2.1,14,M,,M,,*56
05/29/2014	19:09:27.674	$GPGGA,190928,2546.6635,N,07922.7443,W,1,8,1.7,14,M,,M,,*59
05/29/2014	19:09:28.668	$GPGGA,190929,2546.6638,N,07922.7433,W,1,8,2.1,14,M,,M,,*57
05/29/2014	19:09:29.661	$GPGGA,190930,2546.6637,N,07922.7425,W,1,8,1.7,14,M,,M,,*52
05/29/2014	19:09:30.665	$GPGGA,190931,2546.6638,N,07922.7418,W,1,9,1.7,14,M,,M,,*53
05/29/2014	19:09:31.768	$GPGGA,190932,2546.6642,N,07922.7410,W,1,9,1.7,14,M,,M,,*55
05/29/2014	19:09:32.673	$GPGGA,190933,2546.6645,N,07922.7402,W,1,9,1.7,14,M,,M,,*50
05/29/2014	19:09:33.655	$GPGGA,190934,2546.6643,N,07922.7395,W,1,9,1.7,14,M,,M,,*58
05/29/2014	19:09:34.759	$GPGGA,190935,2546.6645,N,07922.7388,W,1,9,1.7,14,M,,M,,*53
05/29/2014	19:09:35.673	$GPGGA,190936,2546.6648,N,07922.7381,W,1,9,1.7,14,M,,M,,*54
05/29/2014	19:09:36.757	$GPGGA,190937,2546.6649,N,07922.7373,W,1,8,2.1,14,M,,M,,*5D
05/29/2014	19:09:37.659	$GPGGA,190938,2546.6651,N,07922.7368,W,1,8,1.7,14,M,,M,,*54
05/29/2014	19:09:38.673	$GPGGA,190939,2546.6653,N,07922.7362,W,1,8,2.1,14,M,,M,,*58
05/29/2014	19:09:39.697	$GPGGA,190940,2546.6656,N,07922.7356,W,1,8,2.1,14,M,,M,,*54
05/29/2014	19:09:40.592	$GPGGA,190941,2546.6656,N,07922.7350,W,1,8,2.1,14,M,,M,,*53
05/29/2014	19:09:41.555	$GPGGA,190942,2546.6659,N,07922.7343,W,1,8,1.7,14,M,,M,,*58
05/29/2014	19:09:42.598	$GPGGA,190943,2546.6662,N,07922.7336,W,1,9,1.7,14,M,,M,,*52
05/29/2014	19:09:43.571	$GPGGA,190944,2546.6663,N,07922.7330,W,1,9,2.1,14,M,,M,,*57
05/29/2014	19:09:44.475	$GPGGA,190945,2546.6664,N,07922.7324,W,1,8,2.1,14,M,,M,,*55
05/29/2014	19:09:45.578	$GPGGA,190946,2546.6667,N,07922.7318,W,1,8,2.1,14,M,,M,,*5A
05/29/2014	19:09:46.602	$GPGGA,190947,2546.6669,N,07922.7310,W,1,9,1.7,14,M,,M,,*59
05/29/2014	19:09:47.585	$GPGGA,190948,2546.6671,N,07922.7304,W,1,9,1.7,14,M,,M,,*5A
05/29/2014	19:09:48.579	$GPGGA,190949,2546.6671,N,07922.7297,W,1,8,2.1,14,M,,M,,*54
05/29/2014	19:09:49.582	$GPGGA,190950,2546.6674,N,07922.7290,W,1,8,2.1,14,M,,M,,*5E
05/29/2014	19:09:50.606	$GPGGA,190951,2546.6675,N,07922.7281,W,1,9,1.7,14,M,,M,,*5A
05/29/2014	19:09:51.589	$GPGGA,190952,2546.6678,N,07922.7274,W,1,9,1.7,14,M,,M,,*5E
05/29/2014	19:09:52.593	$GPGGA,190953,2546.6681,N,07922.7268,W,1,8,2.1,14,M,,M,,*50
05/29/2014	19:09:53.586	$GPGGA,190954,2546.6682,N,07922.7261,W,1,8,1.7,14,M,,M,,*58
05/29/2014	19:09:54.600	$GPGGA,190955,2546.6682,N,07922.7254,W,1,9,1.7,14,M,,M,,*5E
05/29/2014	19:09:55.603	$GPGGA,190956,2546.6685,N,07922.7246,W,1,9,1.7,13,M,,M,,*5E
05/29/2014	19:09:56.607	$GPGGA,190957,2546.6686,N,07922.7239,W,1,9,1.7,13,M,,M,,*54
05/29/2014	19:09:57.580	$GPGGA,190958,2546.6688,N,07922.7232,W,1,9,2.1,13,M,,M,,*5B
05/29/2014	19:09:58.604	$GPGGA,190959,2546.6689,N,07922.7226,W,1,9,1.7,13,M,,M,,*5B
05/29/2014	19:09:59.617	$GPGGA,191000,2546.6692,N,07922.7219,W,1,9,2.1,13,M,,M,,*5C
05/29/2014	19:10:00.610	$GPGGA,191001,2546.6695,N,07922.7213,W,1,8,2.1,13,M,,M,,*51
05/29/2014	19:10:01.593	$GPGGA,191002,2546.6696,N,07922.7207,W,1,8,1.7,13,M,,M,,*51
05/29/2014	19:10:02.617	$GPGGA,191003,2546.6698,N,07922.7200,W,1,9,1.7,13,M,,M,,*58
05/29/2014	19:10:03.610	$GPGGA,191004,2546.6700,N,07922.7193,W,1,9,1.7,13,M,,M,,*56
05/29/2014	19:10:04.614	$GPGGA,191005,2546.6702,N,07922.7186,W,1,8,2.1,13,M,,M,,*55
05/29/2014	19:10:05.587	$GPGGA,191006,2546.6703,N,07922.7180,W,1,8,2.1,13,M,,M,,*51
05/29/2014	19:10:06.611	$GPGGA,191007,2546.6704,N,07922.7174,W,1,8,2.1,13,M,,M,,*5C
05/29/2014	19:10:07.614	$GPGGA,191008,2546.6707,N,07922.7166,W,1,8,2.1,13,M,,M,,*53
05/29/2014	19:10:08.608	$GPGGA,191009,2546.6710,N,07922.7160,W,1,8,2.1,13,M,,M,,*52
05/29/2014	19:10:09.601	$GPGGA,191010,2546.6709,N,07922.7154,W,1,8,1.7,13,M,,M,,*50
05/29/2014	19:10:10.635	$GPGGA,191011,2546.6711,N,07922.7145,W,1,8,2.1,13,M,,M,,*5D
05/29/2014	19:10:11.628	$GPGGA,191012,2546.6714,N,07922.7136,W,1,8,1.7,13,M,,M,,*5A
05/29/2014	19:10:12.642	$GPGGA,191013,2546.6714,N,07922.7130,W,1,9,1.7,13,M,,M,,*5C
05/29/2014	19:10:13.615	$GPGGA,191014,2546.6716,N,07922.7124,W,1,9,2.1,13,M,,M,,*59
05/29/2014	19:10:14.600	$GPGGA,191015,2546.6718,N,07922.7116,W,1,8,2.1,13,M,,M,,*56
05/29/2014	19:10:15.632	$GPGGA,191016,2546.6721,N,07922.7109,W,1,8,1.7,13,M,,M,,*54
05/29/2014	19:10:16.626	$GPGGA,191017,2546.6721,N,07922.7104,W,1,9,1.7,13,M,,M,,*59
05/29/2014	19:10:17.609	$GPGGA,191018,2546.6724,N,07922.7098,W,1,9,2.1,13,M,,M,,*52
05/29/2014	19:10:18.632	$GPGGA,191019,2546.6728,N,07922.7091,W,1,8,2.1,13,M,,M,,*57
05/29/2014	19:10:19.625	$GPGGA,191020,2546.6729,N,07922.7085,W,1,8,2.1,13,M,,M,,*59
05/29/2014	19:10:20.709	$GPGGA,191021,2546.6729,N,07922.7080,W,1,8,2.1,13,M,,M,,*5D
05/29/2014	19:10:21.612	$GPGGA,191022,2546.6732,N,07922.7073,W,1,8,2.1,13,M,,M,,*58
05/29/2014	19:10:22.726	$GPGGA,191023,2546.6736,N,07922.7065,W,1,8,2.1,13,M,,M,,*5A
05/29/2014	19:10:23.639	$GPGGA,191024,2546.6736,N,07922.7060,W,1,8,2.1,13,M,,M,,*58
05/29/2014	19:10:24.643	$GPGGA,191025,2546.6736,N,07922.7053,W,1,8,2.1,13,M,,M,,*59
05/29/2014	19:10:25.716	$GPGGA,191026,2546.6740,N,07922.7046,W,1,8,2.1,13,M,,M,,*5F
05/29/2014	19:10:26.750	$GPGGA,191027,2546.6743,N,07922.7039,W,1,8,2.1,13,M,,M,,*55
05/29/2014	19:10:27.754	$GPGGA,191028,2546.6743,N,07922.7033,W,1,8,2.1,13,M,,M,,*50
05/29/2014	19:10:28.748	$GPGGA,191029,2546.6743,N,07922.7027,W,1,8,2.1,13,M,,M,,*54
05/29/2014	19:10:29.730	$GPGGA,191030,2546.6747,N,07922.7021,W,1,8,2.1,13,M,,M,,*5E
05/29/2014	19:10:30.634	$GPGGA,191031,2546.6749,N,07922.7013,W,1,8,2.1,13,M,,M,,*50
05/29/2014	19:10:31.649	$GPGGA,191032,2546.6750,N,07922.7007,W,1,8,2.1,13,M,,M,,*5E
05/29/2014	19:10:32.761	$GPGGA,191033,2546.6750,N,07922.7001,W,1,8,2.1,13,M,,M,,*59
05/29/2014	19:10:33.734	$GPGGA,191034,2546.6753,N,07922.6994,W,1,8,2.1,12,M,,M,,*58
05/29/2014	19:10:34.748	$GPGGA,191035,2546.6754,N,07922.6986,W,1,9,1.7,12,M,,M,,*59
05/29/2014	19:10:35.750	$GPGGA,191036,2546.6757,N,07922.6979,W,1,9,2.1,12,M,,M,,*5C
05/29/2014	19:10:36.764	$GPGGA,191037,2546.6758,N,07922.6974,W,1,8,2.1,12,M,,M,,*5E
05/29/2014	19:10:37.737	$GPGGA,191038,2546.6758,N,07922.6967,W,1,8,1.7,12,M,,M,,*56
05/29/2014	19:10:38.771	$GPGGA,191039,2546.6761,N,07922.6959,W,1,9,1.7,12,M,,M,,*51
05/29/2014	19:10:39.754	$GPGGA,191040,2546.6763,N,07922.6953,W,1,9,2.1,12,M,,M,,*52
05/29/2014	19:10:40.539	$GPGGA,191041,2546.6762,N,07922.6947,W,1,8,2.1,12,M,,M,,*56
05/29/2014	19:10:41.542	$GPGGA,191042,2546.6765,N,07922.6940,W,1,8,2.1,12,M,,M,,*55
05/29/2014	19:10:42.556	$GPGGA,191043,2546.6768,N,07922.6933,W,1,8,2.1,12,M,,M,,*5D
05/29/2014	19:10:43.559	$GPGGA,191044,2546.6767,N,07922.6926,W,1,8,2.1,12,M,,M,,*51
05/29/2014	19:10:44.543	$GPGGA,191045,2546.6769,N,07922.6920,W,1,8,2.1,12,M,,M,,*58
05/29/2014	19:10:45.546	$GPGGA,191046,2546.6772,N,07922.6912,W,1,8,2.1,12,M,,M,,*50
05/29/2014	19:10:46.570	$GPGGA,191047,2546.6775,N,07922.6906,W,1,8,2.1,12,M,,M,,*53
05/29/2014	19:10:47.563	$GPGGA,191048,2546.6774,N,07922.6899,W,1,8,2.1,12,M,,M,,*5A
05/29/2014	19:10:48.567	$GPGGA,191049,2546.6776,N,07922.6892,W,1,9,1.7,12,M,,M,,*56
05/29/2014	19:10:49.560	$GPGGA,191050,2546.6779,N,07922.6884,W,1,9,1.7,12,M,,M,,*56
05/29/2014	19:10:50.554	$GPGGA,191051,2546.6781,N,07922.6878,W,1,9,1.7,12,M,,M,,*53
05/29/2014	19:10:51.567	$GPGGA,191052,2546.6780,N,07922.6873,W,1,9,2.1,12,M,,M,,*5F
05/29/2014	19:10:52.580	$GPGGA,191053,2546.6783,N,07922.6866,W,1,9,1.7,12,M,,M,,*5C
05/29/2014	19:10:53.563	$GPGGA,191054,2546.6786,N,07922.6859,W,1,9,1.7,12,M,,M,,*52
05/29/2014	19:10:54.557	$GPGGA,191055,2546.6787,N,07922.6852,W,1,8,2.1,12,M,,M,,*5D
05/29/2014	19:10:55.580	$GPGGA,191056,2546.6789,N,07922.6845,W,1,8,1.7,12,M,,M,,*53
05/29/2014	19:10:56.594	$GPGGA,191057,2546.6790,N,07922.6838,W,1,8,2.1,12,M,,M,,*55
05/29/2014	19:10:57.567	$GPGGA,191058,2546.6793,N,07922.6832,W,1,8,1.7,12,M,,M,,*56
05/29/2014	19:10:58.591	$GPGGA,191059,2546.6794,N,07922.6825,W,1,8,2.1,12,M,,M,,*53
05/29/2014	19:10:59.584	$GPGGA,191100,2546.6796,N,07922.6819,W,1,8,2.1,12,M,,M,,*53
05/29/2014	19:11:00.558	$GPGGA,191101,2546.6795,N,07922.6812,W,1,8,2.1,12,M,,M,,*5A
05/29/2014	19:11:01.561	$GPGGA,191102,2546.6799,N,07922.6803,W,1,8,1.7,12,M,,M,,*50
05/29/2014	19:11:02.565	$GPGGA,191103,2546.6801,N,07922.6796,W,1,9,1.7,12,M,,M,,*5D
05/29/2014	19:11:03.598	$GPGGA,191104,2546.6801,N,07922.6791,W,1,9,1.7,12,M,,M,,*5D
05/29/2014	19:11:04.603	$GPGGA,191105,2546.6803,N,07922.6783,W,1,9,1.7,12,M,,M,,*5D
05/29/2014	19:11:05.575	$GPGGA,191106,2546.6805,N,07922.6775,W,1,9,1.7,12,M,,M,,*51
05/29/2014	19:11:06.570	$GPGGA,191107,2546.6805,N,07922.6768,W,1,9,1.7,12,M,,M,,*5C
05/29/2014	19:11:07.592	$GPGGA,191108,2546.6807,N,07922.6761,W,1,9,1.7,12,M,,M,,*58
05/29/2014	19:11:08.706	$GPGGA,191109,2546.6810,N,07922.6754,W,1,9,1.7,13,M,,M,,*58
05/29/2014	19:11:09.580	$GPGGA,191110,2546.6811,N,07922.6748,W,1,9,1.7,13,M,,M,,*5C
05/29/2014	19:11:10.592	$GPGGA,191111,2546.6812,N,07922.6741,W,1,8,2.1,13,M,,M,,*53
05/29/2014	19:11:11.685	$GPGGA,191112,2546.6815,N,07922.6735,W,1,8,2.1,13,M,,M,,*54
05/29/2014	19:11:12.579	$GPGGA,191113,2546.6815,N,07922.6729,W,1,9,1.7,13,M,,M,,*5C
05/29/2014	19:11:13.702	$GPGGA,191114,2546.6818,N,07922.6723,W,1,9,2.1,13,M,,M,,*59
05/29/2014	19:11:14.696	$GPGGA,191115,2546.6819,N,07922.6717,W,1,9,1.7,13,M,,M,,*5B
05/29/2014	19:11:15.599	$GPGGA,191116,2546.6822,N,07922.6710,W,1,9,1.7,13,M,,M,,*57
05/29/2014	19:11:16.593	$GPGGA,191117,2546.6823,N,07922.6703,W,1,9,1.7,13,M,,M,,*55
05/29/2014	19:11:17.676	$GPGGA,191118,2546.6825,N,07922.6697,W,1,9,1.7,13,M,,M,,*50
05/29/2014	19:11:18.589	$GPGGA,191119,2546.6828,N,07922.6690,W,1,8,2.1,13,M,,M,,*5F
05/29/2014	19:11:19.703	$GPGGA,191120,2546.6827,N,07922.6682,W,1,8,2.1,13,M,,M,,*59
05/29/2014	19:11:20.707	$GPGGA,191121,2546.6828,N,07922.6674,W,1,9,1.7,12,M,,M,,*5B
05/29/2014	19:11:21.690	$GPGGA,191122,2546.6832,N,07922.6668,W,1,9,1.7,12,M,,M,,*5E
05/29/2014	19:11:22.704	$GPGGA,191123,2546.6833,N,07922.6660,W,1,9,1.7,13,M,,M,,*57
05/29/2014	19:11:23.717	$GPGGA,191124,2546.6836,N,07922.6653,W,1,9,1.4,13,M,,M,,*56
05/29/2014	19:11:24.711	$GPGGA,191125,2546.6837,N,07922.6647,W,1,10,1.4,13,M,,M,,*6B
05/29/2014	19:11:25.704	$GPGGA,191126,2546.6841,N,07922.6641,W,1,10,1.7,13,M,,M,,*6C
05/29/2014	19:11:26.728	$GPGGA,191127,2546.6844,N,07922.6634,W,1,9,1.7,13,M,,M,,*52
05/29/2014	19:11:27.720	$GPGGA,191128,2546.6843,N,07922.6623,W,1,9,1.7,13,M,,M,,*5C
05/29/2014	19:11:28.724	$GPGGA,191129,2546.6844,N,07922.6617,W,1,10,1.4,13,M,,M,,*66
05/29/2014	19:11:29.718	$GPGGA,191130,2546.6848,N,07922.6610,W,1,10,1.4,14,M,,M,,*62
05/29/2014	19:11:30.731	$GPGGA,191131,2546.6851,N,07922.6604,W,1,9,1.7,14,M,,M,,*55
05/29/2014	19:11:31.724	$GPGGA,191132,2546.6850,N,07922.6598,W,1,9,1.7,14,M,,M,,*51
05/29/2014	19:11:32.728	$GPGGA,191133,2546.6852,N,07922.6592,W,1,8,2.1,14,M,,M,,*5C
05/29/2014	19:11:33.711	$GPGGA,191134,2546.6855,N,07922.6585,W,1,8,1.4,14,M,,M,,*5C
05/29/2014	19:11:34.735	$GPGGA,191135,2546.6859,N,07922.6578,W,1,10,1.4,14,M,,M,,*6A
05/29/2014	19:11:35.728	$GPGGA,191136,2546.6859,N,07922.6572,W,1,10,1.7,15,M,,M,,*61
05/29/2014	19:11:36.732	$GPGGA,191137,2546.6859,N,07922.6568,W,1,9,1.7,15,M,,M,,*53
05/29/2014	19:11:37.716	$GPGGA,191138,2546.6863,N,07922.6560,W,1,9,1.4,15,M,,M,,*5E
05/29/2014	19:11:38.739	$GPGGA,191139,2546.6865,N,07922.6554,W,1,9,1.7,15,M,,M,,*5D
05/29/2014	19:11:39.723	$GPGGA,191140,2546.6866,N,07922.6549,W,1,9,2.1,15,M,,M,,*59
05/29/2014	19:11:40.508	$GPGGA,191141,2546.6866,N,07922.6542,W,1,9,1.7,15,M,,M,,*56
05/29/2014	19:11:41.520	$GPGGA,191142,2546.6870,N,07922.6536,W,1,9,1.7,15,M,,M,,*51
05/29/2014	19:11:42.504	$GPGGA,191143,2546.6870,N,07922.6529,W,1,9,1.7,15,M,,M,,*5E
05/29/2014	19:11:43.537	$GPGGA,191144,2546.6870,N,07922.6523,W,1,9,1.7,15,M,,M,,*53
05/29/2014	19:11:44.511	$GPGGA,191145,2546.6873,N,07922.6517,W,1,9,1.7,16,M,,M,,*55
05/29/2014	19:11:45.533	$GPGGA,191146,2546.6875,N,07922.6510,W,1,9,1.7,16,M,,M,,*57
05/29/2014	19:11:46.527	$GPGGA,191147,2546.6874,N,07922.6504,W,1,9,1.7,16,M,,M,,*52
05/29/2014	19:11:47.550	$GPGGA,191148,2546.6877,N,07922.6497,W,1,9,2.1,16,M,,M,,*50
