Software Version Number: 1	Data File Format Number: 1	Build Version Number: 1	Error Count Since VI Started: 0	Manufacturer: Raytheon	 Model Number: RayMarine 120	 S/N: 	 Cal Date: 	 Wind Direction Offset: 0.00	 Slope (M)1: 0.00	 Offset (B)1: 0.00	 Slope (M)2: 0.00	 Offset (B)2: 0.00	 Slope (M)3: 0.00	 Offset (B)3: 0.00	 Slope (M)4: 0.00	 Offset (B)4: 0.00	 Slope (M)5: 0.00	 Offset (B)5: 0.00	 Slope (M)6: 0.00	 Offset (B)6: 0.00
Computer Date	Computer Time	GGA String
06/02/2014	20:00:00.681	$GPGGA,200001,2444.1821,N,08029.1525,W,1,11,1.6,16,M,,M,,*6F
06/02/2014	20:00:01.684	$GPGGA,200002,2444.1814,N,08029.1512,W,1,11,1.6,16,M,,M,,*6E
06/02/2014	20:00:02.717	$GPGGA,200003,2444.1806,N,08029.1504,W,1,11,1.6,16,M,,M,,*6B
06/02/2014	20:00:03.699	$GPGGA,200004,2444.1797,N,08029.1498,W,1,11,1.6,16,M,,M,,*6F
06/02/2014	20:00:04.682	$GPGGA,200005,2444.1788,N,08029.1486,W,1,10,1.6,16,M,,M,,*6E
06/02/2014	20:00:05.805	$GPGGA,200006,2444.1780,N,08029.1473,W,1,10,1.6,16,M,,M,,*6F
06/02/2014	20:00:06.736	$GPGGA,200007,2444.1772,N,08029.1465,W,1,11,1.6,16,M,,M,,*65
06/02/2014	20:00:07.689	$GPGGA,200008,2444.1762,N,08029.1459,W,1,11,1.6,16,M,,M,,*64
06/02/2014	20:00:08.781	$GPGGA,200009,2444.1754,N,08029.1448,W,1,11,1.6,16,M,,M,,*60
06/02/2014	20:00:09.684	$GPGGA,200010,2444.1748,N,08029.1435,W,1,11,1.6,16,M,,M,,*6F
06/02/2014	20:00:10.706	$GPGGA,200011,2444.1740,N,08029.1426,W,1,11,1.6,16,M,,M,,*64
06/02/2014	20:00:11.699	$GPGGA,200012,2444.1731,N,08029.1419,W,1,11,1.6,16,M,,M,,*6D
06/02/2014	20:00:12.812	$GPGGA,200013,2444.1722,N,08029.1408,W,1,11,1.6,16,M,,M,,*6E
06/02/2014	20:00:13.694	$GPGGA,200014,2444.1713,N,08029.1397,W,1,11,1.6,16,M,,M,,*6A
06/02/2014	20:00:14.717	$GPGGA,200015,2444.1704,N,08029.1387,W,1,11,1.6,16,M,,M,,*6C
06/02/2014	20:00:15.719	$GPGGA,200016,2444.1697,N,08029.1377,W,1,11,1.6,16,M,,M,,*6B
06/02/2014	20:00:16.792	$GPGGA,200017,2444.1689,N,08029.1367,W,1,11,1.6,16,M,,M,,*64
06/02/2014	20:00:17.685	$GPGGA,200018,2444.1680,N,08029.1358,W,1,11,1.6,16,M,,M,,*6E
06/02/2014	20:00:18.787	$GPGGA,200019,2444.1672,N,08029.1346,W,1,11,1.6,16,M,,M,,*6D
06/02/2014	20:00:19.810	$GPGGA,200020,2444.1665,N,08029.1332,W,1,11,1.6,16,M,,M,,*62
06/02/2014	20:00:20.843	$GPGGA,200021,2444.1654,N,08029.1323,W,1,11,1.6,16,M,,M,,*61
06/02/2014	20:00:21.705	$GPGGA,200022,2444.1646,N,08029.1317,W,1,11,1.6,16,M,,M,,*66
06/02/2014	20:00:22.798	$GPGGA,200023,2444.1637,N,08029.1304,W,1,11,1.6,16,M,,M,,*63
06/02/2014	20:00:23.800	$GPGGA,200024,2444.1629,N,08029.1291,W,1,11,1.6,16,M,,M,,*66
06/02/2014	20:00:24.812	$GPGGA,200025,2444.1620,N,08029.1284,W,1,11,1.6,16,M,,M,,*6A
06/02/2014	20:00:25.795	$GPGGA,200026,2444.1611,N,08029.1274,W,1,11,1.6,16,M,,M,,*64
06/02/2014	20:00:26.787	$GPGGA,200027,2444.1602,N,08029.1263,W,1,11,1.6,16,M,,M,,*61
06/02/2014	20:00:27.810	$GPGGA,200028,2444.1593,N,08029.1252,W,1,11,1.6,16,M,,M,,*67
06/02/2014	20:00:28.812	$GPGGA,200029,2444.1584,N,08029.1242,W,1,11,1.6,16,M,,M,,*61
06/02/2014	20:00:29.650	$GPGGA,200030,2444.1574,N,08029.1233,W,1,11,1.6,16,M,,M,,*60
06/02/2014	20:00:30.683	$GPGGA,200031,2444.1566,N,08029.1221,W,1,11,1.6,16,M,,M,,*61
06/02/2014	20:00:31.655	$GPGGA,200032,2444.1559,N,08029.1209,W,1,11,1.6,16,M,,M,,*64
06/02/2014	20:00:32.638	$GPGGA,200033,2444.1549,N,08029.1200,W,1,11,1.6,16,M,,M,,*6D
06/02/2014	20:00:33.640	$GPGGA,200034,2444.1539,N,08029.1191,W,1,11,1.6,16,M,,M,,*66
06/02/2014	20:00:34.644	$GPGGA,200035,2444.1531,N,08029.1179,W,1,11,1.6,16,M,,M,,*69
06/02/2014	20:00:35.666	$GPGGA,200036,2444.1521,N,08029.1166,W,1,11,1.6,16,M,,M,,*65
06/02/2014	20:00:36.638	$GPGGA,200037,2444.1512,N,08029.1158,W,1,11,1.6,16,M,,M,,*69
06/02/2014	20:00:37.651	$GPGGA,200038,2444.1503,N,08029.1149,W,1,11,1.6,16,M,,M,,*66
06/02/2014	20:00:38.633	$GPGGA,200039,2444.1495,N,08029.1136,W,1,11,1.6,16,M,,M,,*61
06/02/2014	20:00:39.656	$GPGGA,200040,2444.1487,N,08029.1125,W,1,11,1.6,16,M,,M,,*6E
06/02/2014	20:00:40.679	$GPGGA,200041,2444.1477,N,08029.1116,W,1,11,1.6,16,M,,M,,*60
06/02/2014	20:00:41.650	$GPGGA,200042,2444.1469,N,08029.1103,W,1,11,1.6,15,M,,M,,*6B
06/02/2014	20:00:42.643	$GPGGA,200043,2444.1459,N,08029.1094,W,1,11,1.6,15,M,,M,,*66
06/02/2014	20:00:43.665	$GPGGA,200044,2444.1449,N,08029.1087,W,1,11,1.6,15,M,,M,,*62
06/02/2014	20:00:44.648	$GPGGA,200045,2444.1440,N,08029.1074,W,1,11,1.6,15,M,,M,,*66
06/02/2014	20:00:45.671	$GPGGA,200046,2444.1431,N,08029.1061,W,1,11,1.6,15,M,,M,,*67
06/02/2014	20:00:46.683	$GPGGA,200047,2444.1424,N,08029.1054,W,1,11,1.6,15,M,,M,,*64
06/02/2014	20:00:47.656	$GPGGA,200048,2444.1415,N,08029.1046,W,1,11,1.6,15,M,,M,,*6A
06/02/2014	20:00:48.688	$GPGGA,200049,2444.1405,N,08029.1033,W,1,11,1.6,15,M,,M,,*68
06/02/2014	20:00:49.641	$GPGGA,200050,2444.1396,N,08029.1020,W,1,11,1.6,15,M,,M,,*6F
06/02/2014	20:00:50.704	$GPGGA,200051,2444.1389,N,08029.1013,W,1,11,1.6,15,M,,M,,*60
06/02/2014	20:00:51.666	$GPGGA,200052,2444.1378,N,08029.1003,W,1,11,1.6,15,M,,M,,*6C
06/02/2014	20:00:52.649	$GPGGA,200053,2444.1371,N,08029.0992,W,1,11,1.6,15,M,,M,,*64
06/02/2014	20:00:53.661	$GPGGA,200054,2444.1364,N,08029.0983,W,1,11,1.6,15,M,,M,,*67
06/02/2014	20:00:54.694	$GPGGA,200055,2444.1357,N,08029.0972,W,1,11,1.6,15,M,,M,,*68
06/02/2014	20:00:55.687	$GPGGA,200056,2444.1346,N,08029.0961,W,1,11,1.6,15,M,,M,,*69
06/02/2014	20:00:56.649	$GPGGA,200057,2444.1336,N,08029.0950,W,1,11,1.6,15,M,,M,,*6D
06/02/2014	20:00:57.663	$GPGGA,200058,2444.1330,N,08029.0942,W,1,11,1.6,15,M,,M,,*67
06/02/2014	20:00:58.785	$GPGGA,200059,2444.1321,N,08029.0933,W,1,11,1.6,15,M,,M,,*60
06/02/2014	20:00:59.776	$GPGGA,200100,2444.1311,N,08029.0924,W,1,11,1.6,15,M,,M,,*68
06/02/2014	20:01:00.678	$GPGGA,200101,2444.1304,N,08029.0913,W,1,11,1.6,15,M,,M,,*69
06/02/2014	20:01:01.652	$GPGGA,200102,2444.1297,N,08029.0903,W,1,11,1.6,15,M,,M,,*60
06/02/2014	20:01:02.694	$GPGGA,200103,2444.1289,N,08029.0894,W,1,11,1.6,15,M,,M,,*61
06/02/2014	20:01:03.787	$GPGGA,200104,2444.1281,N,08029.0884,W,1,11,1.6,15,M,,M,,*6F
06/02/2014	20:01:04.800	$GPGGA,200105,2444.1271,N,08029.0875,W,1,11,1.6,15,M,,M,,*6F
06/02/2014	20:01:05.651	$GPGGA,200106,2444.1263,N,08029.0864,W,1,11,1.6,15,M,,M,,*6F
06/02/2014	20:01:06.764	$GPGGA,200107,2444.1255,N,08029.0853,W,1,11,1.6,15,M,,M,,*6F
06/02/2014	20:01:07.677	$GPGGA,200108,2444.1245,N,08029.0846,W,1,11,1.6,15,M,,M,,*65
06/02/2014	20:01:08.779	$GPGGA,200109,2444.1237,N,08029.0837,W,1,10,1.6,15,M,,M,,*66
06/02/2014	20:01:09.662	$GPGGA,200110,2444.1228,N,08029.0824,W,1,10,1.6,15,M,,M,,*62
06/02/2014	20:01:10.785	$GPGGA,200111,2444.1219,N,08029.0813,W,1,11,1.6,15,M,,M,,*64
06/02/2014	20:01:11.777	$GPGGA,200112,2444.1212,N,08029.0807,W,1,11,1.6,15,M,,M,,*69
06/02/2014	20:01:12.781	$GPGGA,200113,2444.1201,N,08029.0798,W,1,11,1.6,15,M,,M,,*63
06/02/2014	20:01:13.762	$GPGGA,200114,2444.1194,N,08029.0786,W,1,11,1.6,15,M,,M,,*64
06/02/2014	20:01:14.775	$GPGGA,200115,2444.1187,N,08029.0774,W,1,11,1.6,15,M,,M,,*6A
06/02/2014	20:01:15.778	$GPGGA,200116,2444.1176,N,08029.0766,W,1,11,1.6,15,M,,M,,*64
06/02/2014	20:01:16.779	$GPGGA,200117,2444.1169,N,08029.0757,W,1,11,1.6,15,M,,M,,*69
06/02/2014	20:01:17.762	$GPGGA,200118,2444.1158,N,08029.0746,W,1,11,1.6,15,M,,M,,*64
06/02/2014	20:01:18.804	$GPGGA,200119,2444.1148,N,08029.0735,W,1,11,1.6,15,M,,M,,*60
06/02/2014	20:01:19.787	$GPGGA,200120,2444.1141,N,08029.0726,W,1,11,1.6,15,M,,M,,*61
06/02/2014	20:01:20.790	$GPGGA,200121,2444.1133,N,08029.0717,W,1,11,1.6,15,M,,M,,*67
06/02/2014	20:01:21.772	$GPGGA,200122,2444.1123,N,08029.0706,W,1,11,1.6,15,M,,M,,*65
06/02/2014	20:01:22.785	$GPGGA,200123,2444.1116,N,08029.0695,W,1,11,1.6,15,M,,M,,*69
06/02/2014	20:01:23.797	$GPGGA,200124,2444.1108,N,08029.0685,W,1,11,1.6,15,M,,M,,*60
06/02/2014	20:01:24.790	$GPGGA,200125,2444.1098,N,08029.0675,W,1,11,1.6,15,M,,M,,*66
06/02/2014	20:01:25.773	$GPGGA,200126,2444.1089,N,08029.0664,W,1,11,1.6,15,M,,M,,*65
06/02/2014	20:01:26.766	$GPGGA,200127,2444.1082,N,08029.0653,W,1,11,1.6,15,M,,M,,*6B
06/02/2014	20:01:27.788	$GPGGA,200128,2444.1072,N,08029.0642,W,1,11,1.6,15,M,,M,,*6B
06/02/2014	20:01:28.790	$GPGGA,200129,2444.1064,N,08029.0632,W,1,11,1.6,15,M,,M,,*6A
06/02/2014	20:01:29.627	$GPGGA,200130,2444.1057,N,08029.0621,W,1,11,1.6,15,M,,M,,*60
06/02/2014	20:01:30.661	$GPGGA,200131,2444.1047,N,08029.0608,W,1,11,1.6,15,M,,M,,*6B
06/02/2014	20:01:31.626	$GPGGA,200132,2444.1037,N,08029.0598,W,1,11,1.6,15,M,,M,,*65
06/02/2014	20:01:32.649	$GPGGA,200133,2444.1029,N,08029.0588,W,1,11,1.6,15,M,,M,,*6A
06/02/2014	20:01:33.619	$GPGGA,200134,2444.1021,N,08029.0576,W,1,11,1.6,15,M,,M,,*64
06/02/2014	20:01:34.660	$GPGGA,200135,2444.1010,N,08029.0565,W,1,11,1.6,15,M,,M,,*65
06/02/2014	20:01:35.663	$GPGGA,200136,2444.1003,N,08029.0556,W,1,11,1.6,15,M,,M,,*64
06/02/2014	20:01:36.643	$GPGGA,200137,2444.0995,N,08029.0545,W,1,11,1.6,15,M,,M,,*60
06/02/2014	20:01:37.643	$GPGGA,200138,2444.0986,N,08029.0533,W,1,11,1.6,15,M,,M,,*6C
06/02/2014	20:01:38.660	$GPGGA,200139,2444.0977,N,08029.0523,W,1,11,1.6,15,M,,M,,*62
06/02/2014	20:01:39.653	$GPGGA,200140,2444.0970,N,08029.0512,W,1,11,1.6,15,M,,M,,*69
06/02/2014	20:01:40.663	$GPGGA,200141,2444.0961,N,08029.0502,W,1,11,1.6,15,M,,M,,*69
06/02/2014	20:01:41.638	$GPGGA,200142,2444.0952,N,08029.0492,W,1,11,1.6,15,M,,M,,*62
06/02/2014	20:01:42.621	$GPGGA,200143,2444.0943,N,08029.0481,W,1,11,1.6,15,M,,M,,*61
06/02/2014	20:01:43.669	$GPGGA,200144,2444.0936,N,08029.0470,W,1,11,1.6,15,M,,M,,*6A
06/02/2014	20:01:44.746	$GPGGA,200145,2444.0927,N,08029.0462,W,1,10,1.6,15,M,,M,,*69
06/02/2014	20:01:45.648	$GPGGA,200146,2444.0917,N,08029.0452,W,1,10,1.6,15,M,,M,,*6A
06/02/2014	20:01:46.721	$GPGGA,200147,2444.0909,N,08029.0440,W,1,11,1.6,15,M,,M,,*66
06/02/2014	20:01:47.724	$GPGGA,200148,2444.0899,N,08029.0428,W,1,11,1.6,15,M,,M,,*6F
06/02/2014	20:01:48.656	$GPGGA,200149,2444.0891,N,08029.0419,W,1,11,1.6,14,M,,M,,*65
06/02/2014	20:01:49.719	$GPGGA,200150,2444.0882,N,08029.0410,W,1,11,1.6,14,M,,M,,*66
06/02/2014	20:01:50.631	$GPGGA,200151,2444.0873,N,08029.0398,W,1,11,1.6,14,M,,M,,*6E
06/02/2014	20:01:51.734	$GPGGA,200152,2444.0866,N,08029.0389,W,1,11,1.6,14,M,,M,,*69
06/02/2014	20:01:52.756	$GPGGA,200153,2444.0856,N,08029.0378,W,1,11,1.6,14,M,,M,,*65
06/02/2014	20:01:53.728	$GPGGA,200154,2444.0847,N,08029.0366,W,1,11,1.6,14,M,,M,,*6D
06/02/2014	20:01:54.731	$GPGGA,200155,2444.0838,N,08029.0356,W,1,11,1.6,14,M,,M,,*67
06/02/2014	20:01:55.744	$GPGGA,200156,2444.0829,N,08029.0347,W,1,11,1.6,14,M,,M,,*64
06/02/2014	20:01:56.746	$GPGGA,200157,2444.0819,N,08029.0337,W,1,11,1.6,14,M,,M,,*61
06/02/2014	20:01:57.729	$GPGGA,200158,2444.0811,N,08029.0326,W,1,11,1.6,14,M,,M,,*66
06/02/2014	20:01:58.751	$GPGGA,200159,2444.0804,N,08029.0314,W,1,11,1.6,14,M,,M,,*62
06/02/2014	20:01:59.754	$GPGGA,200200,2444.0794,N,08029.0307,W,1,11,1.6,14,M,,M,,*69
06/02/2014	20:02:00.747	$GPGGA,200201,2444.0786,N,08029.0296,W,1,11,1.6,14,M,,M,,*62
06/02/2014	20:02:01.729	$GPGGA,200202,2444.0776,N,08029.0284,W,1,11,1.6,14,M,,M,,*6D
06/02/2014	20:02:02.742	$GPGGA,200203,2444.0766,N,08029.0275,W,1,11,1.6,14,M,,M,,*63
06/02/2014	20:02:03.754	$GPGGA,200204,2444.0757,N,08029.0265,W,1,11,1.6,14,M,,M,,*67
06/02/2014	20:02:04.737	$GPGGA,200205,2444.0748,N,08029.0252,W,1,11,1.6,14,M,,M,,*6C
06/02/2014	20:02:05.729	$GPGGA,200206,2444.0739,N,08029.0241,W,1,11,1.6,14,M,,M,,*6B
06/02/2014	20:02:06.742	$GPGGA,200207,2444.0732,N,08029.0234,W,1,11,1.6,14,M,,M,,*63
06/02/2014	20:02:07.745	$GPGGA,200208,2444.0722,N,08029.0223,W,1,11,1.6,14,M,,M,,*6B
06/02/2014	20:02:08.747	$GPGGA,200209,2444.0714,N,08029.0209,W,1,11,1.6,14,M,,M,,*67
06/02/2014	20:02:09.719	$GPGGA,200210,2444.0704,N,08029.0198,W,1,11,1.6,14,M,,M,,*65
06/02/2014	20:02:10.762	$GPGGA,200211,2444.0693,N,08029.0191,W,1,11,1.6,14,M,,M,,*62
06/02/2014	20:02:11.744	$GPGGA,200212,2444.0686,N,08029.0180,W,1,11,1.6,14,M,,M,,*65
06/02/2014	20:02:12.745	$GPGGA,200213,2444.0679,N,08029.0166,W,1,11,1.6,14,M,,M,,*6C
06/02/2014	20:02:13.730	$GPGGA,200214,2444.0669,N,08029.0157,W,1,11,1.6,14,M,,M,,*68
06/02/2014	20:02:14.762	$GPGGA,200215,2444.0659,N,08029.0149,W,1,11,1.6,14,M,,M,,*65
06/02/2014	20:02:15.752	$GPGGA,200216,2444.0652,N,08029.0136,W,1,11,1.6,13,M,,M,,*62
06/02/2014	20:02:16.767	$GPGGA,200217,2444.0641,N,08029.0126,W,1,11,1.6,13,M,,M,,*60
06/02/2014	20:02:17.763	$GPGGA,200218,2444.0631,N,08029.0118,W,1,11,1.6,13,M,,M,,*65
06/02/2014	20:02:18.732	$GPGGA,200219,2444.0623,N,08029.0105,W,1,11,1.6,13,M,,M,,*6B
06/02/2014	20:02:19.746	$GPGGA,200220,2444.0616,N,08029.0095,W,1,11,1.6,13,M,,M,,*6F
06/02/2014	20:02:20.768	$GPGGA,200221,2444.0607,N,08029.0086,W,1,11,1.6,13,M,,M,,*6C
06/02/2014	20:02:21.756	$GPGGA,200222,2444.0598,N,08029.0077,W,1,11,1.6,13,M,,M,,*64
06/02/2014	20:02:22.770	$GPGGA,200223,2444.0588,N,08029.0063,W,1,11,1.6,13,M,,M,,*61
06/02/2014	20:02:23.745	$GPGGA,200224,2444.0580,N,08029.0050,W,1,11,1.6,13,M,,M,,*6E
06/02/2014	20:02:24.738	$GPGGA,200225,2444.0569,N,08029.0042,W,1,11,1.6,13,M,,M,,*6B
06/02/2014	20:02:25.768	$GPGGA,200226,2444.0560,N,08029.0033,W,1,11,1.6,13,M,,M,,*67
06/02/2014	20:02:26.732	$GPGGA,200227,2444.0552,N,08029.0019,W,1,11,1.6,13,M,,M,,*6F
06/02/2014	20:02:27.745	$GPGGA,200228,2444.0544,N,08029.0008,W,1,11,1.6,13,M,,M,,*67
06/02/2014	20:02:28.747	$GPGGA,200229,2444.0533,N,08029.0000,W,1,11,1.6,13,M,,M,,*6E
06/02/2014	20:02:29.676	$GPGGA,200230,2444.0526,N,08028.9989,W,1,11,1.6,13,M,,M,,*62
06/02/2014	20:02:30.721	$GPGGA,200231,2444.0517,N,08028.9976,W,1,11,1.6,13,M,,M,,*61
06/02/2014	20:02:31.612	$GPGGA,200232,2444.0508,N,08028.9966,W,1,11,1.6,13,M,,M,,*6D
06/02/2014	20:02:32.584	$GPGGA,200233,2444.0497,N,08028.9958,W,1,11,1.6,13,M,,M,,*66
06/02/2014	20:02:33.596	$GPGGA,200234,2444.0490,N,08028.9948,W,1,11,1.6,13,M,,M,,*67
06/02/2014	20:02:34.609	$GPGGA,200235,2444.0482,N,08028.9935,W,1,11,1.6,13,M,,M,,*6F
06/02/2014	20:02:35.736	$GPGGA,200236,2444.0472,N,08028.9925,W,1,11,1.6,13,M,,M,,*62
06/02/2014	20:02:36.684	$GPGGA,200237,2444.0463,N,08028.9917,W,1,11,1.6,13,M,,M,,*62
06/02/2014	20:02:37.587	$GPGGA,200238,2444.0454,N,08028.9908,W,1,11,1.6,13,M,,M,,*67
06/02/2014	20:02:38.699	$GPGGA,200239,2444.0445,N,08028.9897,W,1,11,1.6,13,M,,M,,*61
06/02/2014	20:02:39.612	$GPGGA,200240,2444.0437,N,08028.9886,W,1,11,1.6,13,M,,M,,*6A
06/02/2014	20:02:40.705	$GPGGA,200241,2444.0428,N,08028.9878,W,1,11,1.6,13,M,,M,,*64
06/02/2014	20:02:41.597	$GPGGA,200242,2444.0419,N,08028.9867,W,1,11,1.6,13,M,,M,,*6B
06/02/2014	20:02:42.700	$GPGGA,200243,2444.0412,N,08028.9858,W,1,11,1.6,13,M,,M,,*6D
06/02/2014	20:02:43.613	$GPGGA,200244,2444.0403,N,08028.9850,W,1,11,1.6,13,M,,M,,*62
06/02/2014	20:02:44.704	$GPGGA,200245,2444.0394,N,08028.9840,W,1,11,1.6,13,M,,M,,*6B
06/02/2014	20:02:45.697	$GPGGA,200246,2444.0386,N,08028.9828,W,1,11,1.6,13,M,,M,,*65
06/02/2014	20:02:46.689	$GPGGA,200247,2444.0376,N,08028.9818,W,1,11,1.6,13,M,,M,,*68
06/02/2014	20:02:47.702	$GPGGA,200248,2444.0367,N,08028.9812,W,1,11,1.6,13,M,,M,,*6D
06/02/2014	20:02:48.714	$GPGGA,200249,2444.0359,N,08028.9802,W,1,11,1.6,13,M,,M,,*60
06/02/2014	20:02:49.687	$GPGGA,200250,2444.0351,N,08028.9790,W,1,11,1.6,13,M,,M,,*64
06/02/2014	20:02:50.710	$GPGGA,200251,2444.0342,N,08028.9779,W,1,11,1.6,13,M,,M,,*60
06/02/2014	20:02:51.712	$GPGGA,200252,2444.0334,N,08028.9770,W,1,11,1.6,13,M,,M,,*6B
06/02/2014	20:02:52.715	$GPGGA,200253,2444.0325,N,08028.9761,W,1,11,1.6,13,M,,M,,*6A
06/02/2014	20:02:53.697	$GPGGA,200254,2444.0316,N,08028.9752,W,1,11,1.6,13,M,,M,,*6D
06/02/2014	20:02:54.700	$GPGGA,200255,2444.0307,N,08028.9741,W,1,11,1.6,13,M,,M,,*6E
06/02/2014	20:02:55.713	$GPGGA,200256,2444.0299,N,08028.9729,W,1,11,1.6,13,M,,M,,*65
06/02/2014	20:02:56.695	$GPGGA,200257,2444.0291,N,08028.9718,W,1,11,1.6,13,M,,M,,*6E
06/02/2014	20:02:57.690	$GPGGA,200258,2444.0281,N,08028.9712,W,1,11,1.6,13,M,,M,,*6A
06/02/2014	20:02:58.720	$GPGGA,200259,2444.0273,N,08028.9705,W,1,11,1.6,13,M,,M,,*60
06/02/2014	20:02:59.723	$GPGGA,200300,2444.0264,N,08028.9691,W,1,11,1.6,13,M,,M,,*67
06/02/2014	20:03:00.716	$GPGGA,200301,2444.0255,N,08028.9680,W,1,11,1.6,13,M,,M,,*64
06/02/2014	20:03:01.697	$GPGGA,200302,2444.0247,N,08028.9674,W,1,11,1.6,13,M,,M,,*6F
06/02/2014	20:03:02.720	$GPGGA,200303,2444.0239,N,08028.9666,W,1,11,1.6,13,M,,M,,*64
06/02/2014	20:03:03.732	$GPGGA,200304,2444.0233,N,08028.9653,W,1,11,1.6,13,M,,M,,*6F
06/02/2014	20:03:04.745	$GPGGA,200305,2444.0224,N,08028.9640,W,1,11,1.6,13,M,,M,,*6A
06/02/2014	20:03:05.697	$GPGGA,200306,2444.0217,N,08028.9633,W,1,11,1.6,13,M,,M,,*6D
06/02/2014	20:03:06.690	$GPGGA,200307,2444.0209,N,08028.9625,W,1,11,1.6,13,M,,M,,*64
06/02/2014	20:03:07.714	$GPGGA,200308,2444.0201,N,08028.9612,W,1,11,1.6,13,M,,M,,*67
06/02/2014	20:03:08.775	$GPGGA,200309,2444.0194,N,08028.9599,W,1,11,1.6,13,M,,M,,*69
06/02/2014	20:03:09.698	$GPGGA,200310,2444.0186,N,08028.9591,W,1,11,1.6,13,M,,M,,*6A
06/02/2014	20:03:10.700	$GPGGA,200311,2444.0179,N,08028.9582,W,1,11,1.6,13,M,,M,,*69
06/02/2014	20:03:11.726	$GPGGA,200312,2444.0172,N,08028.9569,W,1,11,1.6,13,M,,M,,*64
06/02/2014	20:03:12.716	$GPGGA,200313,2444.0163,N,08028.9557,W,1,11,1.6,13,M,,M,,*68
06/02/2014	20:03:13.708	$GPGGA,200314,2444.0154,N,08028.9547,W,1,11,1.6,13,M,,M,,*6A
06/02/2014	20:03:14.741	$GPGGA,200315,2444.0146,N,08028.9538,W,1,11,1.6,13,M,,M,,*60
06/02/2014	20:03:15.744	$GPGGA,200316,2444.0139,N,08028.9528,W,1,11,1.6,13,M,,M,,*6A
06/02/2014	20:03:16.796	$GPGGA,200317,2444.0129,N,08028.9517,W,1,11,1.6,13,M,,M,,*66
06/02/2014	20:03:17.799	$GPGGA,200318,2444.0121,N,08028.9504,W,1,11,1.6,13,M,,M,,*63
06/02/2014	20:03:18.721	$GPGGA,200319,2444.0114,N,08028.9494,W,1,11,1.6,13,M,,M,,*6C
06/02/2014	20:03:19.723	$GPGGA,200320,2444.0104,N,08028.9484,W,1,11,1.6,13,M,,M,,*66
06/02/2014	20:03:20.836	$GPGGA,200321,2444.0094,N,08028.9475,W,1,11,1.6,13,M,,M,,*61
06/02/2014	20:03:21.718	$GPGGA,200322,2444.0085,N,08028.9465,W,1,11,1.6,13,M,,M,,*63
06/02/2014	20:03:22.831	$GPGGA,200323,2444.0078,N,08028.9452,W,1,11,1.6,13,M,,M,,*64
06/02/2014	20:03:23.870	$GPGGA,200324,2444.0069,N,08028.9442,W,1,11,1.6,13,M,,M,,*62
06/02/2014	20:03:24.836	$GPGGA,200325,2444.0060,N,08028.9434,W,1,11,1.6,13,M,,M,,*6B
06/02/2014	20:03:25.708	$GPGGA,200326,2444.0050,N,08028.9423,W,1,11,1.6,13,M,,M,,*6D
06/02/2014	20:03:26.821	$GPGGA,200327,2444.0042,N,08028.9412,W,1,11,1.6,13,M,,M,,*6D
06/02/2014	20:03:27.824	$GPGGA,200328,2444.0034,N,08028.9402,W,1,11,1.6,13,M,,M,,*62
06/02/2014	20:03:28.826	$GPGGA,200329,2444.0024,N,08028.9391,W,1,11,1.6,13,M,,M,,*6F
06/02/2014	20:03:29.664	$GPGGA,200330,2444.0015,N,08028.9381,W,1,11,1.6,13,M,,M,,*64
06/02/2014	20:03:30.647	$GPGGA,200331,2444.0007,N,08028.9371,W,1,11,1.6,13,M,,M,,*69
06/02/2014	20:03:31.659	$GPGGA,200332,2443.9998,N,08028.9362,W,1,11,1.6,13,M,,M,,*69
06/02/2014	20:03:32.683	$GPGGA,200333,2443.9988,N,08028.9352,W,1,11,1.6,13,M,,M,,*6A
06/02/2014	20:03:33.654	$GPGGA,200334,2443.9980,N,08028.9340,W,1,11,1.6,13,M,,M,,*66
06/02/2014	20:03:34.657	$GPGGA,200335,2443.9971,N,08028.9330,W,1,11,1.6,13,M,,M,,*6E
06/02/2014	20:03:35.660	$GPGGA,200336,2443.9963,N,08028.9323,W,1,11,1.6,13,M,,M,,*6C
06/02/2014	20:03:36.661	$GPGGA,200337,2443.9955,N,08028.9313,W,1,11,1.6,13,M,,M,,*6B
06/02/2014	20:03:37.664	$GPGGA,200338,2443.9946,N,08028.9300,W,1,11,1.6,13,M,,M,,*64
06/02/2014	20:03:38.666	$GPGGA,200339,2443.9939,N,08028.9289,W,1,11,1.6,13,M,,M,,*6D
06/02/2014	20:03:39.679	$GPGGA,200340,2443.9930,N,08028.9281,W,1,11,1.6,13,M,,M,,*62
06/02/2014	20:03:40.682	$GPGGA,200341,2443.9919,N,08028.9271,W,1,11,1.6,13,M,,M,,*67
06/02/2014	20:03:41.656	$GPGGA,200342,2443.9912,N,08028.9260,W,1,11,1.6,13,M,,M,,*6F
06/02/2014	20:03:42.658	$GPGGA,200343,2443.9906,N,08028.9250,W,1,11,1.6,13,M,,M,,*68
06/02/2014	20:03:43.669	$GPGGA,200344,2443.9897,N,08028.9241,W,1,11,1.6,13,M,,M,,*66
06/02/2014	20:03:44.682	$GPGGA,200345,2443.9887,N,08028.9231,W,1,11,1.6,13,M,,M,,*61
06/02/2014	20:03:45.665	$GPGGA,200346,2443.9881,N,08028.9221,W,1,11,1.6,13,M,,M,,*65
06/02/2014	20:03:46.658	$GPGGA,200347,2443.9873,N,08028.9210,W,1,11,1.6,13,M,,M,,*6B
06/02/2014	20:03:47.680	$GPGGA,200348,2443.9862,N,08028.9200,W,1,11,1.6,13,M,,M,,*65
06/02/2014	20:03:48.675	$GPGGA,200349,2443.9855,N,08028.9192,W,1,11,1.6,13,M,,M,,*68
06/02/2014	20:03:49.670	$GPGGA,200350,2443.9848,N,08028.9183,W,1,11,1.6,13,M,,M,,*6C
06/02/2014	20:03:50.698	$GPGGA,200351,2443.9840,N,08028.9173,W,1,11,1.6,13,M,,M,,*6A
06/02/2014	20:03:51.680	$GPGGA,200352,2443.9832,N,08028.9164,W,1,11,1.6,13,M,,M,,*6A
06/02/2014	20:03:52.703	$GPGGA,200353,2443.9823,N,08028.9156,W,1,11,1.6,13,M,,M,,*6A
06/02/2014	20:03:53.664	$GPGGA,200354,2443.9814,N,08028.9144,W,1,11,1.6,13,M,,M,,*6A
06/02/2014	20:03:54.667	$GPGGA,200355,2443.9805,N,08028.9133,W,1,11,1.6,13,M,,M,,*6B
06/02/2014	20:03:55.679	$GPGGA,200356,2443.9797,N,08028.9126,W,1,11,1.6,13,M,,M,,*68
06/02/2014	20:03:56.683	$GPGGA,200357,2443.9789,N,08028.9119,W,1,10,1.6,13,M,,M,,*6B
06/02/2014	20:03:57.665	$GPGGA,200358,2443.9779,N,08028.9106,W,1,10,1.6,13,M,,M,,*65
06/02/2014	20:03:58.657	$GPGGA,200359,2443.9772,N,08028.9095,W,1,11,1.6,13,M,,M,,*65
06/02/2014	20:03:59.690	$GPGGA,200400,2443.9763,N,08028.9088,W,1,11,1.6,13,M,,M,,*62
06/02/2014	20:04:00.662	$GPGGA,200401,2443.9755,N,08028.9080,W,1,11,1.6,13,M,,M,,*6E
06/02/2014	20:04:01.675	$GPGGA,200402,2443.9747,N,08028.9067,W,1,11,1.6,13,M,,M,,*67
06/02/2014	20:04:02.858	$GPGGA,200403,2443.9738,N,08028.9057,W,1,11,1.6,13,M,,M,,*6D
06/02/2014	20:04:03.690	$GPGGA,200404,2443.9729,N,08028.9050,W,1,11,1.6,13,M,,M,,*6D
06/02/2014	20:04:04.853	$GPGGA,200405,2443.9722,N,08028.9040,W,1,11,1.6,13,M,,M,,*66
06/02/2014	20:04:05.705	$GPGGA,200406,2443.9714,N,08028.9028,W,1,11,1.6,13,M,,M,,*6E
06/02/2014	20:04:06.858	$GPGGA,200407,2443.9706,N,08028.9019,W,1,11,1.6,13,M,,M,,*6E
06/02/2014	20:04:07.681	$GPGGA,200408,2443.9697,N,08028.9011,W,1,11,1.6,13,M,,M,,*60
06/02/2014	20:04:08.693	$GPGGA,200409,2443.9688,N,08028.8999,W,1,11,1.6,13,M,,M,,*67
06/02/2014	20:04:09.766	$GPGGA,200410,2443.9679,N,08028.8987,W,1,11,1.6,13,M,,M,,*6E
06/02/2014	20:04:10.859	$GPGGA,200411,2443.9671,N,08028.8977,W,1,11,1.6,13,M,,M,,*68
06/02/2014	20:04:11.680	$GPGGA,200412,2443.9662,N,08028.8969,W,1,11,1.6,13,M,,M,,*66
06/02/2014	20:04:12.683	$GPGGA,200413,2443.9653,N,08028.8959,W,1,11,1.6,13,M,,M,,*66
06/02/2014	20:04:13.765	$GPGGA,200414,2443.9644,N,08028.8946,W,1,11,1.6,13,M,,M,,*69
06/02/2014	20:04:14.878	$GPGGA,200415,2443.9637,N,08028.8935,W,1,11,1.6,13,M,,M,,*68
06/02/2014	20:04:15.710	$GPGGA,200416,2443.9626,N,08028.8926,W,1,11,1.6,13,M,,M,,*69
06/02/2014	20:04:16.683	$GPGGA,200417,2443.9617,N,08028.8916,W,1,11,1.6,13,M,,M,,*69
06/02/2014	20:04:17.686	$GPGGA,200418,2443.9608,N,08028.8902,W,1,11,1.6,13,M,,M,,*6D
06/02/2014	20:04:18.879	$GPGGA,200419,2443.9599,N,08028.8891,W,1,11,1.6,13,M,,M,,*6C
06/02/2014	20:04:19.811	$GPGGA,200420,2443.9592,N,08028.8881,W,1,11,1.6,13,M,,M,,*6C
06/02/2014	20:04:20.884	$GPGGA,200421,2443.9583,N,08028.8870,W,1,11,1.6,13,M,,M,,*63
06/02/2014	20:04:21.806	$GPGGA,200422,2443.9574,N,08028.8859,W,1,11,1.6,13,M,,M,,*63
06/02/2014	20:04:22.769	$GPGGA,200423,2443.9566,N,08028.8848,W,1,11,1.6,13,M,,M,,*61
06/02/2014	20:04:23.842	$GPGGA,200424,2443.9556,N,08028.8835,W,1,11,1.6,13,M,,M,,*6F
06/02/2014	20:04:24.884	$GPGGA,200425,2443.9547,N,08028.8826,W,1,11,1.6,13,M,,M,,*6C
06/02/2014	20:04:25.787	$GPGGA,200426,2443.9538,N,08028.8820,W,1,11,1.6,13,M,,M,,*61
06/02/2014	20:04:26.779	$GPGGA,200427,2443.9529,N,08028.8807,W,1,10,1.6,13,M,,M,,*64
06/02/2014	20:04:27.812	$GPGGA,200428,2443.9522,N,08028.8794,W,1,10,1.6,13,M,,M,,*65
06/02/2014	20:04:28.904	$GPGGA,200429,2443.9514,N,08028.8786,W,1,11,1.6,13,M,,M,,*63
06/02/2014	20:04:29.621	$GPGGA,200430,2443.9507,N,08028.8777,W,1,11,1.6,13,M,,M,,*67
06/02/2014	20:04:30.624	$GPGGA,200431,2443.9497,N,08028.8768,W,1,11,1.6,13,M,,M,,*60
06/02/2014	20:04:31.666	$GPGGA,200432,2443.9489,N,08028.8757,W,1,11,1.6,13,M,,M,,*60
06/02/2014	20:04:32.720	$GPGGA,200433,2443.9480,N,08028.8746,W,1,11,1.6,13,M,,M,,*68
06/02/2014	20:04:33.651	$GPGGA,200434,2443.9472,N,08028.8736,W,1,11,1.6,13,M,,M,,*65
06/02/2014	20:04:34.734	$GPGGA,200435,2443.9464,N,08028.8728,W,1,11,1.6,13,M,,M,,*6C
06/02/2014	20:04:35.667	$GPGGA,200436,2443.9456,N,08028.8718,W,1,11,1.6,13,M,,M,,*6D
06/02/2014	20:04:36.699	$GPGGA,200437,2443.9449,N,08028.8705,W,1,11,1.6,13,M,,M,,*6E
06/02/2014	20:04:37.652	$GPGGA,200438,2443.9440,N,08028.8694,W,1,11,1.6,13,M,,M,,*61
06/02/2014	20:04:38.624	$GPGGA,200439,2443.9431,N,08028.8687,W,1,11,1.6,13,M,,M,,*64
06/02/2014	20:04:39.687	$GPGGA,200440,2443.9424,N,08028.8675,W,1,11,1.6,13,M,,M,,*63
06/02/2014	20:04:40.700	$GPGGA,200441,2443.9415,N,08028.8662,W,1,11,1.6,13,M,,M,,*66
06/02/2014	20:04:41.662	$GPGGA,200442,2443.9408,N,08028.8653,W,1,11,1.6,13,M,,M,,*6B
06/02/2014	20:04:42.725	$GPGGA,200443,2443.9399,N,08028.8644,W,1,11,1.6,13,M,,M,,*63
06/02/2014	20:04:43.667	$GPGGA,200444,2443.9390,N,08028.8632,W,1,11,1.6,13,M,,M,,*6C
06/02/2014	20:04:44.720	$GPGGA,200445,2443.9382,N,08028.8619,W,1,11,1.6,13,M,,M,,*67
06/02/2014	20:04:45.683	$GPGGA,200446,2443.9373,N,08028.8609,W,1,11,1.6,13,M,,M,,*6B
06/02/2014	20:04:46.724	$GPGGA,200447,2443.9364,N,08028.8599,W,1,11,1.6,13,M,,M,,*66
06/02/2014	20:04:47.677	$GPGGA,200448,2443.9355,N,08028.8587,W,1,11,1.6,13,M,,M,,*64
06/02/2014	20:04:48.629	$GPGGA,200449,2443.9348,N,08028.8575,W,1,11,1.6,13,M,,M,,*64
06/02/2014	20:04:49.732	$GPGGA,200450,2443.9339,N,08028.8565,W,1,11,1.6,13,M,,M,,*6B
06/02/2014	20:04:50.765	$GPGGA,200451,2443.9330,N,08028.8553,W,1,11,1.6,13,M,,M,,*66
06/02/2014	20:04:51.679	$GPGGA,200452,2443.9321,N,08028.8541,W,1,11,1.6,13,M,,M,,*66
06/02/2014	20:04:52.750	$GPGGA,200453,2443.9313,N,08028.8531,W,1,11,1.6,13,M,,M,,*61
06/02/2014	20:04:53.672	$GPGGA,200454,2443.9303,N,08028.8521,W,1,11,1.6,13,M,,M,,*66
06/02/2014	20:04:54.785	$GPGGA,200455,2443.9295,N,08028.8507,W,1,11,1.6,13,M,,M,,*6D
06/02/2014	20:04:55.748	$GPGGA,200456,2443.9286,N,08028.8495,W,1,11,1.6,13,M,,M,,*66
06/02/2014	20:04:56.770	$GPGGA,200457,2443.9277,N,08028.8487,W,1,11,1.6,13,M,,M,,*6A
06/02/2014	20:04:57.743	$GPGGA,200458,2443.9268,N,08028.8476,W,1,11,1.6,13,M,,M,,*65
06/02/2014	20:04:58.765	$GPGGA,200459,2443.9258,N,08028.8463,W,1,11,1.6,13,M,,M,,*63
06/02/2014	20:04:59.778	$GPGGA,200500,2443.9249,N,08028.8452,W,1,11,1.6,13,M,,M,,*6C
06/02/2014	20:05:00.741	$GPGGA,200501,2443.9240,N,08028.8442,W,1,11,1.6,13,M,,M,,*65
06/02/2014	20:05:01.684	$GPGGA,200502,2443.9230,N,08028.8432,W,1,11,1.6,13,M,,M,,*66
06/02/2014	20:05:02.756	$GPGGA,200503,2443.9221,N,08028.8420,W,1,11,1.6,13,M,,M,,*64
06/02/2014	20:05:03.688	$GPGGA,200504,2443.9213,N,08028.8410,W,1,11,1.6,13,M,,M,,*61
06/02/2014	20:05:04.750	$GPGGA,200505,2443.9204,N,08028.8400,W,1,11,1.6,13,M,,M,,*67
06/02/2014	20:05:05.743	$GPGGA,200506,2443.9194,N,08028.8388,W,1,11,1.6,13,M,,M,,*69
06/02/2014	20:05:06.745	$GPGGA,200507,2443.9184,N,08028.8376,W,1,11,1.6,13,M,,M,,*68
06/02/2014	20:05:07.758	$GPGGA,200508,2443.9176,N,08028.8366,W,1,11,1.6,13,M,,M,,*6B
06/02/2014	20:05:08.801	$GPGGA,200509,2443.9167,N,08028.8354,W,1,11,1.6,13,M,,M,,*6B
06/02/2014	20:05:09.743	$GPGGA,200510,2443.9157,N,08028.8343,W,1,11,1.6,13,M,,M,,*66
06/02/2014	20:05:10.776	$GPGGA,200511,2443.9148,N,08028.8336,W,1,11,1.6,13,M,,M,,*6B
06/02/2014	20:05:11.758	$GPGGA,200512,2443.9138,N,08028.8324,W,1,11,1.6,13,M,,M,,*6C
06/02/2014	20:05:12.771	$GPGGA,200513,2443.9129,N,08028.8311,W,1,11,1.6,13,M,,M,,*6B
06/02/2014	20:05:13.743	$GPGGA,200514,2443.9119,N,08028.8303,W,1,11,1.6,13,M,,M,,*6C
06/02/2014	20:05:14.776	$GPGGA,200515,2443.9109,N,08028.8295,W,1,11,1.6,13,M,,M,,*62
06/02/2014	20:05:15.769	$GPGGA,200516,2443.9099,N,08028.8282,W,1,11,1.6,13,M,,M,,*6F
06/02/2014	20:05:16.771	$GPGGA,200517,2443.9091,N,08028.8270,W,1,11,1.6,13,M,,M,,*6B
06/02/2014	20:05:17.754	$GPGGA,200518,2443.9082,N,08028.8260,W,1,11,1.6,13,M,,M,,*67
06/02/2014	20:05:18.786	$GPGGA,200519,2443.9073,N,08028.8250,W,1,11,1.6,13,M,,M,,*6B
06/02/2014	20:05:19.759	$GPGGA,200520,2443.9063,N,08028.8241,W,1,11,1.6,13,M,,M,,*60
06/02/2014	20:05:20.792	$GPGGA,200521,2443.9052,N,08028.8230,W,1,11,1.6,13,M,,M,,*65
06/02/2014	20:05:21.743	$GPGGA,200522,2443.9043,N,08028.8217,W,1,11,1.6,13,M,,M,,*63
06/02/2014	20:05:22.796	$GPGGA,200523,2443.9032,N,08028.8208,W,1,11,1.6,13,M,,M,,*6A
06/02/2014	20:05:23.768	$GPGGA,200524,2443.9021,N,08028.8200,W,1,11,1.6,13,M,,M,,*67
06/02/2014	20:05:24.801	$GPGGA,200525,2443.9013,N,08028.8188,W,1,11,1.6,13,M,,M,,*64
06/02/2014	20:05:25.774	$GPGGA,200526,2443.9007,N,08028.8173,W,1,11,1.6,13,M,,M,,*66
06/02/2014	20:05:26.806	$GPGGA,200527,2443.8998,N,08028.8163,W,1,11,1.6,13,M,,M,,*68
06/02/2014	20:05:27.779	$GPGGA,200528,2443.8988,N,08028.8156,W,1,11,1.6,13,M,,M,,*60
06/02/2014	20:05:28.801	$GPGGA,200529,2443.8979,N,08028.8144,W,1,11,1.6,13,M,,M,,*6C
06/02/2014	20:05:29.600	$GPGGA,200530,2443.8969,N,08028.8129,W,1,11,1.6,13,M,,M,,*6E
06/02/2014	20:05:30.653	$GPGGA,200531,2443.8958,N,08028.8120,W,1,11,1.6,13,M,,M,,*64
06/02/2014	20:05:31.635	$GPGGA,200532,2443.8949,N,08028.8112,W,1,11,1.6,13,M,,M,,*66
06/02/2014	20:05:32.618	$GPGGA,200533,2443.8949,N,08028.8112,W,1,11,1.6,13,M,,M,,*67
06/02/2014	20:05:33.610	$GPGGA,200534,2443.8932,N,08028.8087,W,1,11,1.6,13,M,,M,,*61
06/02/2014	20:05:34.633	$GPGGA,200535,2443.8932,N,08028.8087,W,1,11,1.6,13,M,,M,,*60
06/02/2014	20:05:35.638	$GPGGA,200536,2443.8915,N,08028.8065,W,1,11,1.6,13,M,,M,,*6A
06/02/2014	20:05:36.718	$GPGGA,200537,2443.8907,N,08028.8054,W,1,11,1.6,13,M,,M,,*6A
06/02/2014	20:05:37.621	$GPGGA,200538,2443.8898,N,08028.8044,W,1,11,1.6,13,M,,M,,*63
06/02/2014	20:05:38.672	$GPGGA,200539,2443.8889,N,08028.8032,W,1,11,1.6,13,M,,M,,*63
06/02/2014	20:05:39.635	$GPGGA,200540,2443.8880,N,08028.8020,W,1,11,1.6,13,M,,M,,*67
06/02/2014	20:05:40.718	$GPGGA,200541,2443.8871,N,08028.8011,W,1,11,1.6,13,M,,M,,*6A
06/02/2014	20:05:41.610	$GPGGA,200542,2443.8861,N,08028.8001,W,1,11,1.6,13,M,,M,,*69
06/02/2014	20:05:42.713	$GPGGA,200543,2443.8851,N,08028.7988,W,1,11,1.6,13,M,,M,,*6C
06/02/2014	20:05:43.625	$GPGGA,200544,2443.8843,N,08028.7976,W,1,11,1.6,13,M,,M,,*69
06/02/2014	20:05:44.708	$GPGGA,200545,2443.8832,N,08028.7968,W,1,11,1.6,13,M,,M,,*61
06/02/2014	20:05:45.701	$GPGGA,200546,2443.8822,N,08028.7957,W,1,11,1.6,13,M,,M,,*6F
06/02/2014	20:05:46.753	$GPGGA,200547,2443.8814,N,08028.7944,W,1,11,1.6,13,M,,M,,*69
06/02/2014	20:05:47.716	$GPGGA,200548,2443.8804,N,08028.7933,W,1,11,1.6,13,M,,M,,*67
06/02/2014	20:05:48.708	$GPGGA,200549,2443.8795,N,08028.7921,W,1,11,1.6,13,M,,M,,*62
06/02/2014	20:05:49.701	$GPGGA,200550,2443.8788,N,08028.7911,W,1,11,1.6,13,M,,M,,*65
06/02/2014	20:05:50.714	$GPGGA,200551,2443.8777,N,08028.7901,W,1,11,1.6,13,M,,M,,*65
06/02/2014	20:05:51.726	$GPGGA,200552,2443.8767,N,08028.7890,W,1,11,1.6,13,M,,M,,*6E
06/02/2014	20:05:52.729	$GPGGA,200553,2443.8757,N,08028.7877,W,1,11,1.6,13,M,,M,,*65
06/02/2014	20:05:53.711	$GPGGA,200554,2443.8748,N,08028.7866,W,1,11,1.6,13,M,,M,,*6C
06/02/2014	20:05:54.724	$GPGGA,200555,2443.8738,N,08028.7857,W,1,11,1.6,13,M,,M,,*68
06/02/2014	20:05:55.737	$GPGGA,200556,2443.8728,N,08028.7846,W,1,11,1.6,13,M,,M,,*6A
06/02/2014	20:05:56.728	$GPGGA,200557,2443.8720,N,08028.7834,W,1,11,1.6,13,M,,M,,*66
06/02/2014	20:05:57.711	$GPGGA,200558,2443.8712,N,08028.7822,W,1,11,1.6,13,M,,M,,*6F
06/02/2014	20:05:58.723	$GPGGA,200559,2443.8703,N,08028.7812,W,1,11,1.6,13,M,,M,,*6D
06/02/2014	20:05:59.736	$GPGGA,200600,2443.8694,N,08028.7802,W,1,11,1.6,13,M,,M,,*6C
06/02/2014	20:06:00.739	$GPGGA,200601,2443.8694,N,08028.7802,W,1,11,1.6,13,M,,M,,*6D
06/02/2014	20:06:01.711	$GPGGA,200602,2443.8674,N,08028.7783,W,1,11,1.6,13,M,,M,,*66
06/02/2014	20:06:02.704	$GPGGA,200603,2443.8665,N,08028.7769,W,1,11,1.6,13,M,,M,,*63
06/02/2014	20:06:03.726	$GPGGA,200604,2443.8654,N,08028.7760,W,1,11,1.6,13,M,,M,,*6F
06/02/2014	20:06:04.729	$GPGGA,200605,2443.8643,N,08028.7752,W,1,11,1.6,13,M,,M,,*69
06/02/2014	20:06:05.712	$GPGGA,200606,2443.8634,N,08028.7740,W,1,11,1.6,13,M,,M,,*69
06/02/2014	20:06:06.714	$GPGGA,200607,2443.8627,N,08028.7728,W,1,11,1.6,13,M,,M,,*64
06/02/2014	20:06:07.727	$GPGGA,200608,2443.8617,N,08028.7718,W,1,11,1.6,13,M,,M,,*6B
06/02/2014	20:06:08.749	$GPGGA,200609,2443.8608,N,08028.7708,W,1,11,1.6,13,M,,M,,*65
06/02/2014	20:06:09.722	$GPGGA,200610,2443.8600,N,08028.7697,W,1,11,1.6,13,M,,M,,*62
06/02/2014	20:06:10.714	$GPGGA,200611,2443.8590,N,08028.7687,W,1,11,1.6,13,M,,M,,*68
06/02/2014	20:06:11.737	$GPGGA,200612,2443.8580,N,08028.7677,W,1,11,1.6,13,M,,M,,*65
06/02/2014	20:06:12.722	$GPGGA,200613,2443.8571,N,08028.7665,W,1,11,1.6,13,M,,M,,*69
06/02/2014	20:06:13.721	$GPGGA,200614,2443.8562,N,08028.7654,W,1,11,1.6,13,M,,M,,*6E
06/02/2014	20:06:14.714	$GPGGA,200615,2443.8554,N,08028.7645,W,1,11,1.6,13,M,,M,,*6A
06/02/2014	20:06:15.737	$GPGGA,200616,2443.8546,N,08028.7633,W,1,11,1.6,13,M,,M,,*6B
06/02/2014	20:06:16.709	$GPGGA,200617,2443.8537,N,08028.7621,W,1,11,1.6,13,M,,M,,*6F
06/02/2014	20:06:17.723	$GPGGA,200618,2443.8528,N,08028.7609,W,1,11,1.6,13,M,,M,,*64
06/02/2014	20:06:18.734	$GPGGA,200619,2443.8521,N,08028.7599,W,1,11,1.6,13,M,,M,,*66
06/02/2014	20:06:19.737	$GPGGA,200620,2443.8510,N,08028.7588,W,1,11,1.6,13,M,,M,,*6E
06/02/2014	20:06:20.719	$GPGGA,200621,2443.8501,N,08028.7576,W,1,11,1.6,13,M,,M,,*6E
06/02/2014	20:06:21.732	$GPGGA,200622,2443.8493,N,08028.7565,W,1,11,1.6,13,M,,M,,*65
06/02/2014	20:06:22.744	$GPGGA,200623,2443.8484,N,08028.7555,W,1,11,1.6,13,M,,M,,*61
06/02/2014	20:06:23.727	$GPGGA,200624,2443.8475,N,08028.7545,W,1,11,1.6,13,M,,M,,*69
06/02/2014	20:06:24.729	$GPGGA,200625,2443.8466,N,08028.7531,W,1,11,1.6,13,M,,M,,*69
06/02/2014	20:06:25.742	$GPGGA,200626,2443.8457,N,08028.7518,W,1,11,1.6,13,M,,M,,*63
06/02/2014	20:06:26.825	$GPGGA,200627,2443.8446,N,08028.7510,W,1,11,1.6,13,M,,M,,*6A
06/02/2014	20:06:27.727	$GPGGA,200628,2443.8438,N,08028.7502,W,1,11,1.6,13,M,,M,,*6F
06/02/2014	20:06:28.719	$GPGGA,200629,2443.8429,N,08028.7486,W,1,11,1.6,13,M,,M,,*63
06/02/2014	20:06:29.678	$GPGGA,200630,2443.8420,N,08028.7474,W,1,11,1.6,13,M,,M,,*6F
06/02/2014	20:06:30.691	$GPGGA,200631,2443.8411,N,08028.7469,W,1,11,1.6,13,M,,M,,*60
06/02/2014	20:06:31.592	$GPGGA,200632,2443.8402,N,08028.7461,W,1,11,1.6,13,M,,M,,*69
06/02/2014	20:06:32.684	$GPGGA,200633,2443.8391,N,08028.7449,W,1,10,1.9,13,M,,M,,*61
06/02/2014	20:06:33.577	$GPGGA,200634,2443.8380,N,08028.7437,W,1,10,1.6,13,M,,M,,*60
06/02/2014	20:06:34.579	$GPGGA,200635,2443.8373,N,08028.7431,W,1,11,1.6,13,M,,M,,*6A
06/02/2014	20:06:35.682	$GPGGA,200636,2443.8365,N,08028.7424,W,1,11,1.6,13,M,,M,,*6A
06/02/2014	20:06:36.674	$GPGGA,200637,2443.8358,N,08028.7414,W,1,11,1.6,13,M,,M,,*66
06/02/2014	20:06:37.677	$GPGGA,200638,2443.8349,N,08028.7403,W,1,11,1.6,13,M,,M,,*6F
06/02/2014	20:06:38.669	$GPGGA,200639,2443.8342,N,08028.7392,W,1,11,1.6,13,M,,M,,*6A
06/02/2014	20:06:39.692	$GPGGA,200640,2443.8334,N,08028.7383,W,1,11,1.6,13,M,,M,,*65
06/02/2014	20:06:40.694	$GPGGA,200641,2443.8326,N,08028.7375,W,1,11,1.6,13,M,,M,,*6E
06/02/2014	20:06:41.677	$GPGGA,200642,2443.8316,N,08028.7364,W,1,11,1.6,13,M,,M,,*6E
06/02/2014	20:06:42.699	$GPGGA,200643,2443.8309,N,08028.7352,W,1,11,1.6,13,M,,M,,*64
06/02/2014	20:06:43.692	$GPGGA,200644,2443.8301,N,08028.7342,W,1,11,1.6,13,M,,M,,*6A
06/02/2014	20:06:44.694	$GPGGA,200645,2443.8293,N,08028.7334,W,1,11,1.6,13,M,,M,,*60
06/02/2014	20:06:45.677	$GPGGA,200646,2443.8287,N,08028.7324,W,1,11,1.6,13,M,,M,,*67
06/02/2014	20:06:46.689	$GPGGA,200647,2443.8279,N,08028.7312,W,1,11,1.6,13,M,,M,,*62
06/02/2014	20:06:47.692	$GPGGA,200648,2443.8271,N,08028.7302,W,1,11,1.6,13,M,,M,,*64
06/02/2014	20:06:48.675	$GPGGA,200649,2443.8264,N,08028.7292,W,1,11,1.6,13,M,,M,,*69
06/02/2014	20:06:49.676	$GPGGA,200650,2443.8254,N,08028.7283,W,1,11,1.6,14,M,,M,,*65
06/02/2014	20:06:50.708	$GPGGA,200651,2443.8246,N,08028.7275,W,1,11,1.6,14,M,,M,,*6E
06/02/2014	20:06:51.691	$GPGGA,200652,2443.8239,N,08028.7266,W,1,11,1.6,14,M,,M,,*67
06/02/2014	20:06:52.693	$GPGGA,200653,2443.8229,N,08028.7254,W,1,11,1.6,14,M,,M,,*66
06/02/2014	20:06:53.684	$GPGGA,200654,2443.8221,N,08028.7245,W,1,11,1.6,14,M,,M,,*69
06/02/2014	20:06:54.677	$GPGGA,200655,2443.8214,N,08028.7238,W,1,11,1.6,14,M,,M,,*64
06/02/2014	20:06:55.691	$GPGGA,200656,2443.8204,N,08028.7229,W,1,11,1.6,14,M,,M,,*66
06/02/2014	20:06:56.687	$GPGGA,200657,2443.8195,N,08028.7217,W,1,11,1.6,14,M,,M,,*61
06/02/2014	20:06:57.681	$GPGGA,200658,2443.8187,N,08028.7206,W,1,11,1.6,14,M,,M,,*6D
06/02/2014	20:06:58.690	$GPGGA,200659,2443.8178,N,08028.7199,W,1,11,1.6,14,M,,M,,*69
06/02/2014	20:06:59.711	$GPGGA,200700,2443.8169,N,08028.7190,W,1,11,1.6,14,M,,M,,*6D
06/02/2014	20:07:00.673	$GPGGA,200701,2443.8163,N,08028.7178,W,1,11,1.6,14,M,,M,,*60
06/02/2014	20:07:01.692	$GPGGA,200702,2443.8154,N,08028.7168,W,1,11,1.6,14,M,,M,,*66
06/02/2014	20:07:02.678	$GPGGA,200703,2443.8145,N,08028.7160,W,1,11,1.6,14,M,,M,,*6F
06/02/2014	20:07:03.706	$GPGGA,200704,2443.8134,N,08028.7149,W,1,11,1.6,14,M,,M,,*65
06/02/2014	20:07:04.723	$GPGGA,200705,2443.8125,N,08028.7135,W,1,11,1.6,15,M,,M,,*6E
06/02/2014	20:07:05.686	$GPGGA,200706,2443.8116,N,08028.7126,W,1,11,1.6,15,M,,M,,*6F
06/02/2014	20:07:06.788	$GPGGA,200707,2443.8109,N,08028.7120,W,1,11,1.6,15,M,,M,,*66
06/02/2014	20:07:07.690	$GPGGA,200708,2443.8100,N,08028.7107,W,1,11,1.6,15,M,,M,,*65
06/02/2014	20:07:08.709	$GPGGA,200709,2443.8092,N,08028.7093,W,1,11,1.6,15,M,,M,,*62
06/02/2014	20:07:09.675	$GPGGA,200710,2443.8083,N,08028.7086,W,1,11,1.6,15,M,,M,,*6E
06/02/2014	20:07:10.713	$GPGGA,200711,2443.8074,N,08028.7082,W,1,11,1.6,15,M,,M,,*63
06/02/2014	20:07:11.690	$GPGGA,200712,2443.8065,N,08028.7070,W,1,11,1.6,15,M,,M,,*6D
06/02/2014	20:07:12.803	$GPGGA,200713,2443.8057,N,08028.7056,W,1,11,1.6,15,M,,M,,*69
06/02/2014	20:07:13.685	$GPGGA,200714,2443.8051,N,08028.7052,W,1,11,1.6,15,M,,M,,*6C
06/02/2014	20:07:14.707	$GPGGA,200715,2443.8044,N,08028.7048,W,1,11,1.6,15,M,,M,,*62
06/02/2014	20:07:15.710	$GPGGA,200716,2443.8037,N,08028.7035,W,1,11,1.6,15,M,,M,,*6F
06/02/2014	20:07:16.782	$GPGGA,200717,2443.8031,N,08028.7023,W,1,11,1.6,15,M,,M,,*6F
06/02/2014	20:07:17.695	$GPGGA,200718,2443.8023,N,08028.7016,W,1,11,1.6,15,M,,M,,*65
06/02/2014	20:07:18.677	$GPGGA,200719,2443.8016,N,08028.7010,W,1,11,1.6,15,M,,M,,*64
06/02/2014	20:07:19.710	$GPGGA,200720,2443.8011,N,08028.7001,W,1,11,1.6,15,M,,M,,*69
06/02/2014	20:07:20.782	$GPGGA,200721,2443.8005,N,08028.6989,W,1,11,1.6,15,M,,M,,*65
06/02/2014	20:07:21.795	$GPGGA,200722,2443.7999,N,08028.6981,W,1,11,1.6,15,M,,M,,*6D
06/02/2014	20:07:22.777	$GPGGA,200723,2443.7994,N,08028.6976,W,1,11,1.6,15,M,,M,,*69
06/02/2014	20:07:23.789	$GPGGA,200724,2443.7988,N,08028.6966,W,1,11,1.6,15,M,,M,,*62
06/02/2014	20:07:24.801	$GPGGA,200725,2443.7982,N,08028.6956,W,1,11,1.6,15,M,,M,,*6A
06/02/2014	20:07:25.794	$GPGGA,200726,2443.7976,N,08028.6948,W,1,11,1.6,15,M,,M,,*6D
06/02/2014	20:07:26.806	$GPGGA,200727,2443.7971,N,08028.6941,W,1,11,1.6,15,M,,M,,*62
06/02/2014	20:07:27.809	$GPGGA,200728,2443.7966,N,08028.6934,W,1,11,1.6,15,M,,M,,*69
06/02/2014	20:07:28.811	$GPGGA,200729,2443.7962,N,08028.6926,W,1,11,1.6,15,M,,M,,*6F
06/02/2014	20:07:29.636	$GPGGA,200730,2443.7958,N,08028.6917,W,1,11,1.6,15,M,,M,,*6C
06/02/2014	20:07:30.658	$GPGGA,200731,2443.7953,N,08028.6907,W,1,11,1.6,15,M,,M,,*67
06/02/2014	20:07:31.661	$GPGGA,200732,2443.7948,N,08028.6900,W,1,11,1.6,15,M,,M,,*69
06/02/2014	20:07:32.663	$GPGGA,200733,2443.7943,N,08028.6895,W,1,11,1.6,15,M,,M,,*6E
06/02/2014	20:07:33.636	$GPGGA,200734,2443.7939,N,08028.6888,W,1,11,1.6,15,M,,M,,*68
06/02/2014	20:07:34.658	$GPGGA,200735,2443.7933,N,08028.6880,W,1,11,1.6,15,M,,M,,*6B
06/02/2014	20:07:35.661	$GPGGA,200736,2443.7928,N,08028.6874,W,1,11,1.6,15,M,,M,,*69
06/02/2014	20:07:36.643	$GPGGA,200737,2443.7923,N,08028.6869,W,1,11,1.6,15,M,,M,,*6F
06/02/2014	20:07:37.646	$GPGGA,200738,2443.7919,N,08028.6861,W,1,11,1.6,15,M,,M,,*61
06/02/2014	20:07:38.648	$GPGGA,200739,2443.7914,N,08028.6854,W,1,11,1.6,15,M,,M,,*6B
06/02/2014	20:07:39.661	$GPGGA,200740,2443.7908,N,08028.6849,W,1,11,1.6,15,M,,M,,*64
06/02/2014	20:07:40.673	$GPGGA,200741,2443.7904,N,08028.6844,W,1,11,1.6,15,M,,M,,*64
06/02/2014	20:07:41.646	$GPGGA,200742,2443.7899,N,08028.6837,W,1,11,1.6,15,M,,M,,*66
06/02/2014	20:07:42.648	$GPGGA,200743,2443.7894,N,08028.6831,W,1,11,1.6,15,M,,M,,*6C
06/02/2014	20:07:43.660	$GPGGA,200744,2443.7890,N,08028.6829,W,1,11,1.6,15,M,,M,,*66
06/02/2014	20:07:44.672	$GPGGA,200745,2443.7885,N,08028.6824,W,1,10,1.7,15,M,,M,,*6E
06/02/2014	20:07:45.655	$GPGGA,200746,2443.7879,N,08028.6817,W,1,10,1.6,15,M,,M,,*6F
06/02/2014	20:07:46.650	$GPGGA,200747,2443.7875,N,08028.6815,W,1,11,1.6,15,M,,M,,*61
06/02/2014	20:07:47.660	$GPGGA,200748,2443.7871,N,08028.6814,W,1,11,1.6,15,M,,M,,*6B
06/02/2014	20:07:48.659	$GPGGA,200749,2443.7867,N,08028.6811,W,1,11,1.6,15,M,,M,,*68
06/02/2014	20:07:49.705	$GPGGA,200750,2443.7863,N,08028.6807,W,1,11,1.6,14,M,,M,,*62
06/02/2014	20:07:50.647	$GPGGA,200751,2443.7859,N,08028.6801,W,1,11,1.6,14,M,,M,,*6C
06/02/2014	20:07:51.670	$GPGGA,200752,2443.7856,N,08028.6798,W,1,11,1.6,14,M,,M,,*6F
06/02/2014	20:07:52.652	$GPGGA,200753,2443.7850,N,08028.6799,W,1,11,1.6,14,M,,M,,*69
06/02/2014	20:07:53.645	$GPGGA,200754,2443.7845,N,08028.6796,W,1,11,1.6,14,M,,M,,*65
06/02/2014	20:07:55.683	$GPGGA,200756,2443.7833,N,08028.6791,W,1,11,1.6,14,M,,M,,*61
06/02/2014	20:07:56.642	$GPGGA,200757,2443.7831,N,08028.6790,W,1,10,1.6,14,M,,M,,*62
06/02/2014	20:07:57.645	$GPGGA,200758,2443.7828,N,08028.6790,W,1,10,1.6,14,M,,M,,*65
06/02/2014	20:07:58.646	$GPGGA,200759,2443.7824,N,08028.6788,W,1,11,1.6,14,M,,M,,*60
06/02/2014	20:07:59.679	$GPGGA,200800,2443.7820,N,08028.6786,W,1,11,1.6,14,M,,M,,*69
06/02/2014	20:08:00.651	$GPGGA,200801,2443.7813,N,08028.6784,W,1,10,1.6,14,M,,M,,*6B
06/02/2014	20:08:01.654	$GPGGA,200802,2443.7810,N,08028.6785,W,1,10,1.6,14,M,,M,,*6A
06/02/2014	20:08:02.777	$GPGGA,200803,2443.7807,N,08028.6788,W,1,10,1.7,14,M,,M,,*61
06/02/2014	20:08:03.659	$GPGGA,200804,2443.7803,N,08028.6784,W,1,10,1.7,14,M,,M,,*6E
06/02/2014	20:08:04.661	$GPGGA,200805,2443.7799,N,08028.6782,W,1,11,1.6,14,M,,M,,*65
06/02/2014	20:08:05.744	$GPGGA,200806,2443.7796,N,08028.6785,W,1,11,1.6,14,M,,M,,*6E
06/02/2014	20:08:06.646	$GPGGA,200807,2443.7793,N,08028.6786,W,1,11,1.6,14,M,,M,,*69
06/02/2014	20:08:07.769	$GPGGA,200808,2443.7786,N,08028.6788,W,1,11,1.6,14,M,,M,,*6C
06/02/2014	20:08:08.792	$GPGGA,200809,2443.7781,N,08028.6789,W,1,11,1.6,14,M,,M,,*6B
06/02/2014	20:08:09.654	$GPGGA,200810,2443.7778,N,08028.6792,W,1,11,1.6,14,M,,M,,*6F
06/02/2014	20:08:10.746	$GPGGA,200811,2443.7776,N,08028.6795,W,1,11,1.6,14,M,,M,,*67
06/02/2014	20:08:11.769	$GPGGA,200812,2443.7775,N,08028.6797,W,1,11,1.6,14,M,,M,,*65
06/02/2014	20:08:12.751	$GPGGA,200813,2443.7770,N,08028.6796,W,1,11,1.6,14,M,,M,,*60
06/02/2014	20:08:13.755	$GPGGA,200814,2443.7766,N,08028.6799,W,1,11,1.6,14,M,,M,,*6F
06/02/2014	20:08:14.797	$GPGGA,200815,2443.7764,N,08028.6803,W,1,11,1.6,14,M,,M,,*60
06/02/2014	20:08:15.769	$GPGGA,200816,2443.7762,N,08028.6807,W,1,11,1.6,14,M,,M,,*61
06/02/2014	20:08:16.750	$GPGGA,200817,2443.7758,N,08028.6810,W,1,10,1.9,14,M,,M,,*61
06/02/2014	20:08:17.753	$GPGGA,200818,2443.7755,N,08028.6814,W,1,10,1.9,14,M,,M,,*67
06/02/2014	20:08:18.755	$GPGGA,200819,2443.7752,N,08028.6818,W,1,11,1.6,14,M,,M,,*63
06/02/2014	20:08:19.768	$GPGGA,200820,2443.7751,N,08028.6824,W,1,11,1.6,15,M,,M,,*64
06/02/2014	20:08:20.770	$GPGGA,200821,2443.7748,N,08028.6828,W,1,9,2.0,15,M,,M,,*5D
06/02/2014	20:08:21.753	$GPGGA,200822,2443.7745,N,08028.6832,W,1,9,1.9,15,M,,M,,*52
06/02/2014	20:08:22.805	$GPGGA,200823,2443.7744,N,08028.6835,W,1,11,1.6,15,M,,M,,*63
06/02/2014	20:08:23.778	$GPGGA,200824,2443.7744,N,08028.6842,W,1,11,1.6,15,M,,M,,*64
06/02/2014	20:08:24.780	$GPGGA,200825,2443.7740,N,08028.6846,W,1,11,1.6,15,M,,M,,*65
06/02/2014	20:08:25.763	$GPGGA,200826,2443.7737,N,08028.6853,W,1,11,1.6,15,M,,M,,*62
06/02/2014	20:08:26.775	$GPGGA,200827,2443.7737,N,08028.6860,W,1,11,1.6,15,M,,M,,*63
06/02/2014	20:08:27.768	$GPGGA,200828,2443.7735,N,08028.6865,W,1,11,1.6,15,M,,M,,*6B
06/02/2014	20:08:28.750	$GPGGA,200829,2443.7733,N,08028.6871,W,1,11,1.6,15,M,,M,,*69
06/02/2014	20:08:29.614	$GPGGA,200830,2443.7733,N,08028.6879,W,1,11,1.6,15,M,,M,,*69
06/02/2014	20:08:30.626	$GPGGA,200831,2443.7733,N,08028.6884,W,1,11,1.6,15,M,,M,,*6A
06/02/2014	20:08:31.629	$GPGGA,200832,2443.7731,N,08028.6891,W,1,11,1.6,15,M,,M,,*6F
06/02/2014	20:08:32.616	$GPGGA,200833,2443.7732,N,08028.6900,W,1,11,1.6,15,M,,M,,*64
06/02/2014	20:08:33.613	$GPGGA,200834,2443.7730,N,08028.6907,W,1,11,1.6,15,M,,M,,*66
06/02/2014	20:08:34.635	$GPGGA,200835,2443.7732,N,08028.6913,W,1,11,1.6,15,M,,M,,*60
06/02/2014	20:08:35.618	$GPGGA,200836,2443.7733,N,08028.6919,W,1,11,1.9,15,M,,M,,*67
06/02/2014	20:08:36.610	$GPGGA,200837,2443.7733,N,08028.6926,W,1,10,1.9,15,M,,M,,*6B
06/02/2014	20:08:37.623	$GPGGA,200838,2443.7733,N,08028.6933,W,1,10,1.9,15,M,,M,,*60
06/02/2014	20:08:38.605	$GPGGA,200839,2443.7733,N,08028.6940,W,1,10,1.9,15,M,,M,,*65
06/02/2014	20:08:39.628	$GPGGA,200840,2443.7733,N,08028.6947,W,1,10,1.9,15,M,,M,,*6C
06/02/2014	20:08:40.620	$GPGGA,200841,2443.7733,N,08028.6955,W,1,11,1.6,15,M,,M,,*60
06/02/2014	20:08:41.623	$GPGGA,200842,2443.7733,N,08028.6962,W,1,11,1.6,15,M,,M,,*67
06/02/2014	20:08:42.625	$GPGGA,200843,2443.7733,N,08028.6972,W,1,11,1.6,16,M,,M,,*64
06/02/2014	20:08:43.748	$GPGGA,200844,2443.7733,N,08028.6980,W,1,11,1.6,16,M,,M,,*6E
06/02/2014	20:08:44.610	$GPGGA,200845,2443.7733,N,08028.6987,W,1,11,1.6,16,M,,M,,*68
06/02/2014	20:08:45.613	$GPGGA,200846,2443.7733,N,08028.6994,W,1,11,1.6,16,M,,M,,*69
06/02/2014	20:08:46.645	$GPGGA,200847,2443.7733,N,08028.7001,W,1,10,1.9,16,M,,M,,*62
06/02/2014	20:08:47.638	$GPGGA,200848,2443.7735,N,08028.7008,W,1,10,1.9,16,M,,M,,*62
06/02/2014	20:08:48.610	$GPGGA,200849,2443.7734,N,08028.7016,W,1,11,1.6,16,M,,M,,*63
06/02/2014	20:08:49.633	$GPGGA,200850,2443.7736,N,08028.7023,W,1,11,1.6,16,M,,M,,*6F
06/02/2014	20:08:50.715	$GPGGA,200851,2443.7737,N,08028.7030,W,1,11,1.6,16,M,,M,,*6D
06/02/2014	20:08:51.757	$GPGGA,200852,2443.7739,N,08028.7038,W,1,11,1.6,16,M,,M,,*68
06/02/2014	20:08:52.619	$GPGGA,200853,2443.7738,N,08028.7045,W,1,11,1.6,16,M,,M,,*62
06/02/2014	20:08:53.622	$GPGGA,200854,2443.7740,N,08028.7055,W,1,11,1.6,16,M,,M,,*6B
06/02/2014	20:08:54.724	$GPGGA,200855,2443.7742,N,08028.7063,W,1,11,1.6,17,M,,M,,*6C
06/02/2014	20:08:55.637	$GPGGA,200856,2443.7744,N,08028.7068,W,1,11,1.6,17,M,,M,,*62
06/02/2014	20:08:56.739	$GPGGA,200857,2443.7748,N,08028.7074,W,1,9,1.6,17,M,,M,,*5B
06/02/2014	20:08:57.632	$GPGGA,200858,2443.7751,N,08028.7081,W,1,9,1.6,17,M,,M,,*56
06/02/2014	20:08:58.734	$GPGGA,200859,2443.7755,N,08028.7088,W,1,10,1.6,17,M,,M,,*62
06/02/2014	20:08:59.647	$GPGGA,200900,2443.7758,N,08028.7096,W,1,10,1.6,17,M,,M,,*6D
06/02/2014	20:09:00.749	$GPGGA,200901,2443.7761,N,08028.7106,W,1,11,1.6,17,M,,M,,*6F
06/02/2014	20:09:01.722	$GPGGA,200902,2443.7764,N,08028.7113,W,1,11,1.6,17,M,,M,,*6D
06/02/2014	20:09:02.754	$GPGGA,200903,2443.7766,N,08028.7121,W,1,11,1.6,17,M,,M,,*6F
06/02/2014	20:09:03.738	$GPGGA,200904,2443.7771,N,08028.7129,W,1,11,1.6,17,M,,M,,*66
06/02/2014	20:09:04.739	$GPGGA,200905,2443.7773,N,08028.7136,W,1,11,1.6,17,M,,M,,*6B
06/02/2014	20:09:05.722	$GPGGA,200906,2443.7776,N,08028.7144,W,1,11,1.6,17,M,,M,,*68
06/02/2014	20:09:06.745	$GPGGA,200907,2443.7780,N,08028.7153,W,1,11,1.6,17,M,,M,,*66
06/02/2014	20:09:07.737	$GPGGA,200908,2443.7784,N,08028.7160,W,1,11,1.6,17,M,,M,,*6D
06/02/2014	20:09:08.718	$GPGGA,200909,2443.7787,N,08028.7168,W,1,11,1.6,17,M,,M,,*67
06/02/2014	20:09:09.741	$GPGGA,200910,2443.7791,N,08028.7175,W,1,11,1.6,17,M,,M,,*64
06/02/2014	20:09:10.723	$GPGGA,200911,2443.7794,N,08028.7183,W,1,11,1.6,18,M,,M,,*66
06/02/2014	20:09:13.169	$GPGGA,200913,2443.7802,N,08028.7200,W,1,11,1.6,18,M,,M,,*6C
06/02/2014	20:09:13.731	$GPGGA,200914,2443.7805,N,08028.7207,W,1,11,1.6,18,M,,M,,*6B
06/02/2014	20:09:14.723	$GPGGA,200915,2443.7808,N,08028.7216,W,1,11,1.7,18,M,,M,,*66
06/02/2014	20:09:15.746	$GPGGA,200916,2443.7811,N,08028.7223,W,1,11,1.6,18,M,,M,,*6A
06/02/2014	20:09:16.738	$GPGGA,200917,2443.7815,N,08028.7232,W,1,11,1.6,18,M,,M,,*6F
06/02/2014	20:09:17.732	$GPGGA,200918,2443.7818,N,08028.7238,W,1,11,1.6,18,M,,M,,*67
06/02/2014	20:09:18.753	$GPGGA,200919,2443.7820,N,08028.7245,W,1,11,1.6,18,M,,M,,*67
06/02/2014	20:09:19.766	$GPGGA,200920,2443.7823,N,08028.7254,W,1,11,1.6,18,M,,M,,*6E
06/02/2014	20:09:20.748	$GPGGA,200921,2443.7827,N,08028.7262,W,1,11,1.6,18,M,,M,,*6E
06/02/2014	20:09:21.741	$GPGGA,200922,2443.7830,N,08028.7270,W,1,11,1.6,18,M,,M,,*68
06/02/2014	20:09:22.763	$GPGGA,200923,2443.7833,N,08028.7279,W,1,11,1.6,18,M,,M,,*63
06/02/2014	20:09:23.746	$GPGGA,200924,2443.7837,N,08028.7287,W,1,11,1.6,18,M,,M,,*61
06/02/2014	20:09:24.758	$GPGGA,200925,2443.7841,N,08028.7294,W,1,11,1.6,18,M,,M,,*63
06/02/2014	20:09:25.742	$GPGGA,200926,2443.7842,N,08028.7301,W,1,11,1.6,18,M,,M,,*6E
06/02/2014	20:09:26.742	$GPGGA,200927,2443.7847,N,08028.7309,W,1,11,1.6,18,M,,M,,*62
06/02/2014	20:09:27.746	$GPGGA,200928,2443.7851,N,08028.7317,W,1,11,1.6,18,M,,M,,*65
06/02/2014	20:09:28.727	$GPGGA,200929,2443.7854,N,08028.7327,W,1,11,1.6,18,M,,M,,*62
06/02/2014	20:09:29.681	$GPGGA,200930,2443.7856,N,08028.7334,W,1,11,1.6,18,M,,M,,*6A
06/02/2014	20:09:30.603	$GPGGA,200931,2443.7859,N,08028.7341,W,1,11,1.6,18,M,,M,,*66
06/02/2014	20:09:31.717	$GPGGA,200932,2443.7865,N,08028.7346,W,1,11,1.6,18,M,,M,,*6D
06/02/2014	20:09:32.608	$GPGGA,200933,2443.7869,N,08028.7352,W,1,11,1.6,18,M,,M,,*65
06/02/2014	20:09:33.681	$GPGGA,200934,2443.7872,N,08028.7359,W,1,11,1.6,18,M,,M,,*63
06/02/2014	20:09:34.717	$GPGGA,200935,2443.7874,N,08028.7366,W,1,11,1.5,18,M,,M,,*6B
06/02/2014	20:09:35.696	$GPGGA,200936,2443.7878,N,08028.7373,W,1,11,1.5,18,M,,M,,*60
06/02/2014	20:09:36.688	$GPGGA,200937,2443.7883,N,08028.7379,W,1,11,1.5,18,M,,M,,*6F
06/02/2014	20:09:37.591	$GPGGA,200938,2443.7885,N,08028.7385,W,1,11,1.5,18,M,,M,,*65
06/02/2014	20:09:38.593	$GPGGA,200939,2443.7889,N,08028.7391,W,1,11,1.5,18,M,,M,,*6D
06/02/2014	20:09:39.696	$GPGGA,200940,2443.7894,N,08028.7396,W,1,11,1.5,18,M,,M,,*68
06/02/2014	20:09:40.598	$GPGGA,200941,2443.7898,N,08028.7402,W,1,11,1.5,18,M,,M,,*6F
06/02/2014	20:09:41.691	$GPGGA,200942,2443.7902,N,08028.7406,W,1,11,1.5,18,M,,M,,*6A
06/02/2014	20:09:42.693	$GPGGA,200943,2443.7906,N,08028.7411,W,1,11,1.5,18,M,,M,,*69
06/02/2014	20:09:43.626	$GPGGA,200944,2443.7910,N,08028.7417,W,1,11,1.5,18,M,,M,,*6F
06/02/2014	20:09:44.707	$GPGGA,200945,2443.7914,N,08028.7421,W,1,11,1.5,18,M,,M,,*6F
06/02/2014	20:09:45.690	$GPGGA,200946,2443.7919,N,08028.7426,W,1,11,1.5,18,M,,M,,*66
06/02/2014	20:09:46.702	$GPGGA,200947,2443.7921,N,08028.7431,W,1,11,1.5,18,M,,M,,*6A
06/02/2014	20:09:47.705	$GPGGA,200948,2443.7927,N,08028.7435,W,1,11,1.5,18,M,,M,,*67
06/02/2014	20:09:48.697	$GPGGA,200949,2443.7932,N,08028.7440,W,1,11,1.5,18,M,,M,,*60
06/02/2014	20:09:49.600	$GPGGA,200950,2443.7935,N,08028.7444,W,1,11,1.5,18,M,,M,,*6B
06/02/2014	20:09:50.682	$GPGGA,200951,2443.7941,N,08028.7449,W,1,11,1.5,18,M,,M,,*64
06/02/2014	20:09:51.705	$GPGGA,200952,2443.7946,N,08028.7453,W,1,11,1.5,18,M,,M,,*6B
06/02/2014	20:09:52.707	$GPGGA,200953,2443.7950,N,08028.7457,W,1,11,1.5,18,M,,M,,*69
06/02/2014	20:09:53.700	$GPGGA,200954,2443.7956,N,08028.7462,W,1,11,1.5,18,M,,M,,*6E
06/02/2014	20:09:54.702	$GPGGA,200955,2443.7961,N,08028.7467,W,1,11,1.5,18,M,,M,,*6E
06/02/2014	20:09:55.705	$GPGGA,200956,2443.7964,N,08028.7471,W,1,11,1.5,18,M,,M,,*6F
06/02/2014	20:09:56.687	$GPGGA,200957,2443.7968,N,08028.7475,W,1,11,1.5,18,M,,M,,*66
06/02/2014	20:09:57.681	$GPGGA,200958,2443.7974,N,08028.7478,W,1,11,1.5,18,M,,M,,*69
06/02/2014	20:09:58.702	$GPGGA,200959,2443.7979,N,08028.7482,W,1,11,1.5,18,M,,M,,*60
06/02/2014	20:09:59.705	$GPGGA,201000,2443.7984,N,08028.7487,W,1,11,1.5,18,M,,M,,*63
06/02/2014	20:10:00.688	$GPGGA,201001,2443.7988,N,08028.7493,W,1,10,1.6,18,M,,M,,*69
06/02/2014	20:10:01.689	$GPGGA,201002,2443.7993,N,08028.7497,W,1,10,1.5,18,M,,M,,*67
06/02/2014	20:10:02.685	$GPGGA,201003,2443.7999,N,08028.7503,W,1,11,1.5,18,M,,M,,*61
06/02/2014	20:10:03.714	$GPGGA,201004,2443.8001,N,08028.7507,W,1,11,1.5,18,M,,M,,*65
06/02/2014	20:10:04.716	$GPGGA,201005,2443.8004,N,08028.7509,W,1,11,1.5,18,M,,M,,*6F
06/02/2014	20:10:05.689	$GPGGA,201006,2443.8010,N,08028.7514,W,1,11,1.5,18,M,,M,,*65
06/02/2014	20:10:06.691	$GPGGA,201007,2443.8015,N,08028.7518,W,1,11,1.5,18,M,,M,,*6D
06/02/2014	20:10:07.714	$GPGGA,201008,2443.8019,N,08028.7523,W,1,11,1.5,18,M,,M,,*66
06/02/2014	20:10:08.726	$GPGGA,201009,2443.8024,N,08028.7527,W,1,11,1.5,18,M,,M,,*6D
06/02/2014	20:10:09.690	$GPGGA,201010,2443.8029,N,08028.7530,W,1,11,1.5,18,M,,M,,*6E
06/02/2014	20:10:10.711	$GPGGA,201011,2443.8035,N,08028.7533,W,1,11,1.5,18,M,,M,,*61
06/02/2014	20:10:11.707	$GPGGA,201012,2443.8040,N,08028.7536,W,1,11,1.5,18,M,,M,,*65
06/02/2014	20:10:12.696	$GPGGA,201013,2443.8043,N,08028.7541,W,1,11,1.5,18,M,,M,,*67
06/02/2014	20:10:13.709	$GPGGA,201014,2443.8047,N,08028.7545,W,1,11,1.5,18,M,,M,,*60
06/02/2014	20:10:14.721	$GPGGA,201015,2443.8053,N,08028.7551,W,1,11,1.5,18,M,,M,,*61
06/02/2014	20:10:15.704	$GPGGA,201016,2443.8058,N,08028.7554,W,1,11,1.6,18,M,,M,,*6F
06/02/2014	20:10:16.716	$GPGGA,201017,2443.8062,N,08028.7556,W,1,11,1.5,18,M,,M,,*66
06/02/2014	20:10:17.690	$GPGGA,201018,2443.8069,N,08028.7558,W,1,11,1.5,18,M,,M,,*6C
06/02/2014	20:10:18.821	$GPGGA,201019,2443.8076,N,08028.7561,W,1,11,1.5,18,M,,M,,*69
06/02/2014	20:10:19.823	$GPGGA,201020,2443.8080,N,08028.7563,W,1,11,1.5,18,M,,M,,*68
06/02/2014	20:10:20.715	$GPGGA,201021,2443.8084,N,08028.7568,W,1,11,1.5,17,M,,M,,*69
06/02/2014	20:10:21.698	$GPGGA,201022,2443.8091,N,08028.7572,W,1,11,1.5,17,M,,M,,*65
06/02/2014	20:10:22.720	$GPGGA,201023,2443.8096,N,08028.7576,W,1,11,1.5,17,M,,M,,*67
06/02/2014	20:10:23.813	$GPGGA,201024,2443.8100,N,08028.7580,W,1,11,1.6,17,M,,M,,*64
06/02/2014	20:10:24.715	$GPGGA,201025,2443.8105,N,08028.7583,W,1,11,1.5,17,M,,M,,*60
06/02/2014	20:10:25.698	$GPGGA,201026,2443.8111,N,08028.7585,W,1,11,1.8,17,M,,M,,*6D
06/02/2014	20:10:26.720	$GPGGA,201027,2443.8116,N,08028.7587,W,1,10,1.8,17,M,,M,,*68
06/02/2014	20:10:27.803	$GPGGA,201028,2443.8122,N,08028.7592,W,1,10,1.8,17,M,,M,,*64
06/02/2014	20:10:28.705	$GPGGA,201029,2443.8125,N,08028.7598,W,1,11,1.5,17,M,,M,,*64
06/02/2014	20:10:29.661	$GPGGA,201030,2443.8130,N,08028.7601,W,1,11,1.5,17,M,,M,,*6B
06/02/2014	20:10:30.704	$GPGGA,201031,2443.8137,N,08028.7605,W,1,11,1.5,17,M,,M,,*69
06/02/2014	20:10:31.665	$GPGGA,201032,2443.8141,N,08028.7608,W,1,11,1.5,17,M,,M,,*66
06/02/2014	20:10:32.657	$GPGGA,201033,2443.8145,N,08028.7612,W,1,11,1.5,17,M,,M,,*68
06/02/2014	20:10:33.560	$GPGGA,201034,2443.8151,N,08028.7616,W,1,11,1.5,17,M,,M,,*6E
06/02/2014	20:10:34.673	$GPGGA,201035,2443.8155,N,08028.7620,W,1,11,1.5,17,M,,M,,*6E
06/02/2014	20:10:35.665	$GPGGA,201036,2443.8156,N,08028.7624,W,1,11,1.5,17,M,,M,,*6A
06/02/2014	20:10:36.686	$GPGGA,201037,2443.8163,N,08028.7628,W,1,11,1.5,17,M,,M,,*61
06/02/2014	20:10:37.649	$GPGGA,201038,2443.8170,N,08028.7633,W,1,11,1.5,17,M,,M,,*66
06/02/2014	20:10:38.681	$GPGGA,201039,2443.8173,N,08028.7634,W,1,11,1.5,17,M,,M,,*63
06/02/2014	20:10:39.674	$GPGGA,201040,2443.8176,N,08028.7638,W,1,11,1.5,17,M,,M,,*64
06/02/2014	20:10:40.696	$GPGGA,201041,2443.8181,N,08028.7642,W,1,11,1.5,17,M,,M,,*60
06/02/2014	20:10:41.649	$GPGGA,201042,2443.8187,N,08028.7646,W,1,11,1.8,16,M,,M,,*6D
06/02/2014	20:10:42.651	$GPGGA,201043,2443.8190,N,08028.7652,W,1,11,1.5,16,M,,M,,*62
06/02/2014	20:10:43.674	$GPGGA,201044,2443.8195,N,08028.7655,W,1,11,1.7,16,M,,M,,*65
06/02/2014	20:10:44.666	$GPGGA,201045,2443.8201,N,08028.7656,W,1,11,1.5,16,M,,M,,*6B
06/02/2014	20:10:45.659	$GPGGA,201046,2443.8206,N,08028.7660,W,1,11,1.8,16,M,,M,,*67
06/02/2014	20:10:46.681	$GPGGA,201047,2443.8210,N,08028.7666,W,1,10,1.8,16,M,,M,,*66
06/02/2014	20:10:47.664	$GPGGA,201048,2443.8214,N,08028.7670,W,1,10,1.5,16,M,,M,,*67
06/02/2014	20:10:48.656	$GPGGA,201049,2443.8219,N,08028.7675,W,1,11,1.5,16,M,,M,,*6F
06/02/2014	20:10:49.659	$GPGGA,201050,2443.8224,N,08028.7681,W,1,11,1.5,16,M,,M,,*62
06/02/2014	20:10:50.671	$GPGGA,201051,2443.8228,N,08028.7684,W,1,11,1.5,16,M,,M,,*6A
06/02/2014	20:10:51.674	$GPGGA,201052,2443.8234,N,08028.7688,W,1,11,1.5,16,M,,M,,*68
06/02/2014	20:10:52.696	$GPGGA,201053,2443.8239,N,08028.7691,W,1,11,1.5,17,M,,M,,*6D
06/02/2014	20:10:53.659	$GPGGA,201054,2443.8245,N,08028.7696,W,1,11,1.5,17,M,,M,,*66
06/02/2014	20:10:54.660	$GPGGA,201055,2443.8248,N,08028.7700,W,1,11,1.5,17,M,,M,,*64
06/02/2014	20:10:55.674	$GPGGA,201056,2443.8250,N,08028.7706,W,1,11,1.5,17,M,,M,,*68
06/02/2014	20:10:56.655	$GPGGA,201057,2443.8256,N,08028.7710,W,1,11,1.5,17,M,,M,,*68
06/02/2014	20:10:57.669	$GPGGA,201058,2443.8261,N,08028.7713,W,1,11,1.5,17,M,,M,,*60
06/02/2014	20:10:58.690	$GPGGA,201059,2443.8264,N,08028.7717,W,1,11,1.5,17,M,,M,,*60
06/02/2014	20:10:59.693	$GPGGA,201100,2443.8268,N,08028.7721,W,1,11,1.5,17,M,,M,,*64
06/02/2014	20:11:00.680	$GPGGA,201101,2443.8275,N,08028.7727,W,1,11,1.5,17,M,,M,,*6F
06/02/2014	20:11:01.678	$GPGGA,201102,2443.8279,N,08028.7731,W,1,11,1.5,17,M,,M,,*67
06/02/2014	20:11:02.660	$GPGGA,201103,2443.8282,N,08028.7733,W,1,11,1.5,17,M,,M,,*60
06/02/2014	20:11:03.803	$GPGGA,201104,2443.8286,N,08028.7738,W,1,11,1.5,17,M,,M,,*68
06/02/2014	20:11:04.798	$GPGGA,201105,2443.8289,N,08028.7742,W,1,11,1.5,17,M,,M,,*6B
06/02/2014	20:11:05.758	$GPGGA,201106,2443.8295,N,08028.7746,W,1,11,1.5,17,M,,M,,*61
06/02/2014	20:11:06.791	$GPGGA,201107,2443.8299,N,08028.7751,W,1,11,1.5,17,M,,M,,*6A
06/02/2014	20:11:07.683	$GPGGA,201108,2443.8303,N,08028.7756,W,1,11,1.5,17,M,,M,,*60
06/02/2014	20:11:08.686	$GPGGA,201109,2443.8306,N,08028.7760,W,1,11,1.5,17,M,,M,,*61
06/02/2014	20:11:09.759	$GPGGA,201110,2443.8311,N,08028.7764,W,1,11,1.5,17,M,,M,,*6B
06/02/2014	20:11:10.690	$GPGGA,201111,2443.8314,N,08028.7767,W,1,11,1.5,17,M,,M,,*6C
06/02/2014	20:11:11.672	$GPGGA,201112,2443.8318,N,08028.7771,W,1,11,1.5,17,M,,M,,*64
06/02/2014	20:11:12.674	$GPGGA,201113,2443.8322,N,08028.7776,W,1,11,1.5,17,M,,M,,*6B
06/02/2014	20:11:13.767	$GPGGA,201114,2443.8324,N,08028.7782,W,1,11,1.5,18,M,,M,,*6E
06/02/2014	20:11:14.800	$GPGGA,201115,2443.8328,N,08028.7785,W,1,11,1.5,18,M,,M,,*64
06/02/2014	20:11:15.802	$GPGGA,201116,2443.8332,N,08028.7787,W,1,11,1.5,18,M,,M,,*6E
06/02/2014	20:11:16.784	$GPGGA,201117,2443.8336,N,08028.7792,W,1,11,1.5,18,M,,M,,*6F
06/02/2014	20:11:17.677	$GPGGA,201118,2443.8337,N,08028.7796,W,1,11,1.5,18,M,,M,,*65
06/02/2014	20:11:18.799	$GPGGA,201119,2443.8340,N,08028.7800,W,1,11,1.5,18,M,,M,,*64
06/02/2014	20:11:19.782	$GPGGA,201120,2443.8344,N,08028.7804,W,1,11,1.5,18,M,,M,,*6E
06/02/2014	20:11:20.764	$GPGGA,201121,2443.8349,N,08028.7808,W,1,11,1.5,18,M,,M,,*6E
06/02/2014	20:11:21.767	$GPGGA,201122,2443.8353,N,08028.7811,W,1,11,1.6,18,M,,M,,*6D
06/02/2014	20:11:22.679	$GPGGA,201123,2443.8355,N,08028.7812,W,1,11,1.5,18,M,,M,,*6A
06/02/2014	20:11:23.782	$GPGGA,201124,2443.8358,N,08028.7816,W,1,11,1.6,18,M,,M,,*67
06/02/2014	20:11:24.784	$GPGGA,201125,2443.8362,N,08028.7818,W,1,9,1.7,18,M,,M,,*59
06/02/2014	20:11:25.777	$GPGGA,201126,2443.8367,N,08028.7822,W,1,9,1.5,18,M,,M,,*54
06/02/2014	20:11:26.680	$GPGGA,201127,2443.8369,N,08028.7823,W,1,11,1.5,18,M,,M,,*63
06/02/2014	20:11:27.782	$GPGGA,201128,2443.8373,N,08028.7825,W,1,11,1.8,18,M,,M,,*6C
06/02/2014	20:11:28.793	$GPGGA,201129,2443.8379,N,08028.7829,W,1,10,1.8,18,M,,M,,*6A
06/02/2014	20:11:29.617	$GPGGA,201130,2443.8380,N,08028.7830,W,1,10,1.5,18,M,,M,,*61
06/02/2014	20:11:30.619	$GPGGA,201131,2443.8385,N,08028.7832,W,1,9,1.9,18,M,,M,,*53
06/02/2014	20:11:31.642	$GPGGA,201132,2443.8390,N,08028.7834,W,1,9,1.5,18,M,,M,,*5E
06/02/2014	20:11:32.654	$GPGGA,201133,2443.8394,N,08028.7836,W,1,10,1.8,18,M,,M,,*6C
06/02/2014	20:11:33.627	$GPGGA,201134,2443.8396,N,08028.7840,W,1,10,1.5,18,M,,M,,*65
06/02/2014	20:11:34.649	$GPGGA,201135,2443.8398,N,08028.7845,W,1,11,1.5,18,M,,M,,*6E
06/02/2014	20:11:35.642	$GPGGA,201136,2443.8404,N,08028.7850,W,1,11,1.5,18,M,,M,,*6B
06/02/2014	20:11:36.644	$GPGGA,201137,2443.8407,N,08028.7852,W,1,11,1.5,18,M,,M,,*6B
06/02/2014	20:11:37.622	$GPGGA,201138,2443.8409,N,08028.7855,W,1,11,1.5,18,M,,M,,*6D
06/02/2014	20:11:38.639	$GPGGA,201139,2443.8414,N,08028.7858,W,1,11,1.5,18,M,,M,,*6D
06/02/2014	20:11:39.637	$GPGGA,201140,2443.8418,N,08028.7863,W,1,11,1.5,18,M,,M,,*67
06/02/2014	20:11:40.626	$GPGGA,201141,2443.8419,N,08028.7866,W,1,11,1.5,18,M,,M,,*62
06/02/2014	20:11:41.632	$GPGGA,201142,2443.8423,N,08028.7870,W,1,11,1.5,18,M,,M,,*6F
