Software Version Number: 1	Data File Format Number: 1	Build Version Number: 1	Error Count Since VI Started: 0	Manufacturer: Raytheon	 Model Number: RayMarine 120	 S/N: 	 Cal Date: 	 Wind Direction Offset: 0.00	 Slope (M)1: 0.00	 Offset (B)1: 0.00	 Slope (M)2: 0.00	 Offset (B)2: 0.00	 Slope (M)3: 0.00	 Offset (B)3: 0.00	 Slope (M)4: 0.00	 Offset (B)4: 0.00	 Slope (M)5: 0.00	 Offset (B)5: 0.00	 Slope (M)6: 0.00	 Offset (B)6: 0.00
Computer Date	Computer Time	GGA String
05/31/2014	12:00:00.665	$GPGGA,120001,2506.2241,N,07917.5614,W,1,8,1.9,12,M,,M,,*5B
05/31/2014	12:00:01.755	$GPGGA,120002,2506.2244,N,07917.5601,W,1,8,1.9,12,M,,M,,*59
05/31/2014	12:00:02.785	$GPGGA,120003,2506.2248,N,07917.5587,W,1,8,1.9,12,M,,M,,*59
05/31/2014	12:00:03.765	$GPGGA,120004,2506.2249,N,07917.5573,W,1,8,1.9,12,M,,M,,*54
05/31/2014	12:00:04.775	$GPGGA,120005,2506.2252,N,07917.5559,W,1,8,1.9,12,M,,M,,*57
05/31/2014	12:00:05.755	$GPGGA,120006,2506.2256,N,07917.5546,W,1,8,1.9,12,M,,M,,*5E
05/31/2014	12:00:06.766	$GPGGA,120007,2506.2256,N,07917.5532,W,1,8,1.9,12,M,,M,,*5C
05/31/2014	12:00:07.755	$GPGGA,120008,2506.2260,N,07917.5518,W,1,8,1.9,12,M,,M,,*5E
05/31/2014	12:00:08.757	$GPGGA,120009,2506.2263,N,07917.5505,W,1,8,1.9,12,M,,M,,*50
05/31/2014	12:00:09.745	$GPGGA,120010,2506.2264,N,07917.5491,W,1,8,1.9,12,M,,M,,*53
05/31/2014	12:00:10.764	$GPGGA,120011,2506.2267,N,07917.5477,W,1,8,1.9,12,M,,M,,*59
05/31/2014	12:00:11.754	$GPGGA,120012,2506.2271,N,07917.5463,W,1,8,1.9,12,M,,M,,*58
05/31/2014	12:00:12.744	$GPGGA,120013,2506.2273,N,07917.5449,W,1,8,1.9,12,M,,M,,*53
05/31/2014	12:00:13.724	$GPGGA,120014,2506.2276,N,07917.5435,W,1,8,1.9,12,M,,M,,*5A
05/31/2014	12:00:14.755	$GPGGA,120015,2506.2280,N,07917.5421,W,1,8,1.9,12,M,,M,,*57
05/31/2014	12:00:15.745	$GPGGA,120016,2506.2281,N,07917.5407,W,1,8,1.9,12,M,,M,,*51
05/31/2014	12:00:16.735	$GPGGA,120017,2506.2284,N,07917.5392,W,1,8,1.9,12,M,,M,,*5E
05/31/2014	12:00:17.725	$GPGGA,120018,2506.2288,N,07917.5378,W,1,8,1.9,12,M,,M,,*59
05/31/2014	12:00:18.765	$GPGGA,120019,2506.2291,N,07917.5364,W,1,8,1.9,12,M,,M,,*5D
05/31/2014	12:00:19.736	$GPGGA,120020,2506.2292,N,07917.5350,W,1,8,1.9,12,M,,M,,*53
05/31/2014	12:00:20.705	$GPGGA,120021,2506.2296,N,07917.5335,W,1,8,1.9,12,M,,M,,*55
05/31/2014	12:00:21.725	$GPGGA,120022,2506.2299,N,07917.5321,W,1,8,1.9,12,M,,M,,*5C
05/31/2014	12:00:22.745	$GPGGA,120023,2506.2303,N,07917.5307,W,1,8,1.9,12,M,,M,,*5B
05/31/2014	12:00:23.725	$GPGGA,120024,2506.2305,N,07917.5293,W,1,8,1.9,12,M,,M,,*56
05/31/2014	12:00:24.735	$GPGGA,120025,2506.2307,N,07917.5278,W,1,8,1.9,12,M,,M,,*50
05/31/2014	12:00:25.695	$GPGGA,120026,2506.2311,N,07917.5264,W,1,8,1.9,12,M,,M,,*59
05/31/2014	12:00:26.715	$GPGGA,120027,2506.2314,N,07917.5250,W,1,8,1.9,12,M,,M,,*5A
05/31/2014	12:00:27.714	$GPGGA,120028,2506.2317,N,07917.5235,W,1,8,1.9,12,M,,M,,*55
05/31/2014	12:00:28.734	$GPGGA,120029,2506.2320,N,07917.5221,W,1,8,1.9,12,M,,M,,*55
05/31/2014	12:00:29.694	$GPGGA,120030,2506.2324,N,07917.5207,W,1,8,1.9,12,M,,M,,*5D
05/31/2014	12:00:30.694	$GPGGA,120031,2506.2327,N,07917.5193,W,1,8,1.9,12,M,,M,,*51
05/31/2014	12:00:31.724	$GPGGA,120032,2506.2329,N,07917.5178,W,1,8,1.9,12,M,,M,,*59
05/31/2014	12:00:32.715	$GPGGA,120033,2506.2334,N,07917.5164,W,1,8,1.9,12,M,,M,,*59
05/31/2014	12:00:33.785	$GPGGA,120034,2506.2336,N,07917.5150,W,1,8,1.9,12,M,,M,,*5B
05/31/2014	12:00:34.715	$GPGGA,120035,2506.2339,N,07917.5136,W,1,8,1.9,12,M,,M,,*55
05/31/2014	12:00:35.705	$GPGGA,120036,2506.2343,N,07917.5122,W,1,8,1.9,12,M,,M,,*5E
05/31/2014	12:00:36.675	$GPGGA,120037,2506.2346,N,07917.5108,W,1,8,1.9,12,M,,M,,*52
05/31/2014	12:00:37.775	$GPGGA,120038,2506.2350,N,07917.5094,W,1,8,1.9,12,M,,M,,*5E
05/31/2014	12:00:38.705	$GPGGA,120039,2506.2353,N,07917.5080,W,1,8,1.9,12,M,,M,,*59
05/31/2014	12:00:39.815	$GPGGA,120040,2506.2357,N,07917.5065,W,1,8,1.9,12,M,,M,,*58
05/31/2014	12:00:40.775	$GPGGA,120041,2506.2360,N,07917.5051,W,1,8,1.9,12,M,,M,,*5A
05/31/2014	12:00:41.695	$GPGGA,120042,2506.2363,N,07917.5036,W,1,8,1.9,12,M,,M,,*5B
05/31/2014	12:00:42.685	$GPGGA,120043,2506.2367,N,07917.5022,W,1,8,1.9,12,M,,M,,*5B
05/31/2014	12:00:43.705	$GPGGA,120044,2506.2368,N,07917.5008,W,1,8,1.9,12,M,,M,,*5B
05/31/2014	12:00:44.775	$GPGGA,120045,2506.2372,N,07917.4993,W,1,8,1.9,12,M,,M,,*5B
05/31/2014	12:00:45.754	$GPGGA,120046,2506.2375,N,07917.4979,W,1,8,1.9,12,M,,M,,*5B
05/31/2014	12:00:46.765	$GPGGA,120047,2506.2379,N,07917.4964,W,1,8,1.9,12,M,,M,,*5A
05/31/2014	12:00:47.784	$GPGGA,120048,2506.2382,N,07917.4950,W,1,8,1.9,12,M,,M,,*56
05/31/2014	12:00:48.754	$GPGGA,120049,2506.2386,N,07917.4936,W,1,8,1.9,12,M,,M,,*53
05/31/2014	12:00:49.755	$GPGGA,120050,2506.2389,N,07917.4921,W,1,8,1.9,12,M,,M,,*52
05/31/2014	12:00:50.755	$GPGGA,120051,2506.2390,N,07917.4906,W,1,8,1.9,12,M,,M,,*5E
05/31/2014	12:00:51.765	$GPGGA,120052,2506.2396,N,07917.4892,W,1,8,1.9,12,M,,M,,*57
05/31/2014	12:00:52.765	$GPGGA,120053,2506.2400,N,07917.4878,W,1,8,1.9,12,M,,M,,*5A
05/31/2014	12:00:53.745	$GPGGA,120054,2506.2401,N,07917.4863,W,1,8,1.9,12,M,,M,,*56
05/31/2014	12:00:54.766	$GPGGA,120055,2506.2404,N,07917.4849,W,1,8,1.9,11,M,,M,,*59
05/31/2014	12:00:55.760	$GPGGA,120056,2506.2408,N,07917.4835,W,1,8,1.9,11,M,,M,,*5D
05/31/2014	12:00:56.745	$GPGGA,120057,2506.2412,N,07917.4820,W,1,8,1.9,11,M,,M,,*53
05/31/2014	12:00:57.735	$GPGGA,120058,2506.2415,N,07917.4807,W,1,8,1.9,11,M,,M,,*5E
05/31/2014	12:00:58.755	$GPGGA,120059,2506.2419,N,07917.4792,W,1,8,1.9,11,M,,M,,*50
05/31/2014	12:00:59.756	$GPGGA,120100,2506.2422,N,07917.4778,W,1,8,1.9,11,M,,M,,*51
05/31/2014	12:01:00.755	$GPGGA,120101,2506.2426,N,07917.4764,W,1,8,1.9,11,M,,M,,*59
05/31/2014	12:01:01.725	$GPGGA,120102,2506.2429,N,07917.4749,W,1,8,1.9,11,M,,M,,*5A
05/31/2014	12:01:02.754	$GPGGA,120103,2506.2432,N,07917.4735,W,1,8,1.9,11,M,,M,,*5A
05/31/2014	12:01:03.744	$GPGGA,120104,2506.2436,N,07917.4721,W,1,8,1.9,11,M,,M,,*5C
05/31/2014	12:01:04.755	$GPGGA,120105,2506.2439,N,07917.4707,W,1,8,1.9,11,M,,M,,*56
05/31/2014	12:01:05.724	$GPGGA,120106,2506.2440,N,07917.4692,W,1,8,1.9,11,M,,M,,*56
05/31/2014	12:01:06.755	$GPGGA,120107,2506.2444,N,07917.4678,W,1,8,1.9,11,M,,M,,*57
05/31/2014	12:01:07.725	$GPGGA,120108,2506.2448,N,07917.4665,W,1,8,1.9,11,M,,M,,*58
05/31/2014	12:01:08.715	$GPGGA,120109,2506.2451,N,07917.4650,W,1,8,1.9,11,M,,M,,*57
05/31/2014	12:01:09.715	$GPGGA,120110,2506.2451,N,07917.4635,W,1,8,1.9,11,M,,M,,*5C
05/31/2014	12:01:10.705	$GPGGA,120111,2506.2455,N,07917.4622,W,1,8,1.9,11,M,,M,,*5F
05/31/2014	12:01:11.715	$GPGGA,120112,2506.2459,N,07917.4608,W,1,8,1.9,11,M,,M,,*58
05/31/2014	12:01:12.695	$GPGGA,120113,2506.2461,N,07917.4593,W,1,8,1.9,11,M,,M,,*53
05/31/2014	12:01:13.715	$GPGGA,120114,2506.2462,N,07917.4580,W,1,8,1.9,11,M,,M,,*55
05/31/2014	12:01:14.705	$GPGGA,120115,2506.2466,N,07917.4565,W,1,8,1.9,11,M,,M,,*5B
05/31/2014	12:01:15.715	$GPGGA,120116,2506.2469,N,07917.4551,W,1,8,1.9,11,M,,M,,*50
05/31/2014	12:01:16.725	$GPGGA,120117,2506.2472,N,07917.4537,W,1,8,1.9,11,M,,M,,*5B
05/31/2014	12:01:17.705	$GPGGA,120118,2506.2475,N,07917.4523,W,1,8,1.9,11,M,,M,,*56
05/31/2014	12:01:18.706	$GPGGA,120119,2506.2477,N,07917.4509,W,1,8,1.9,11,M,,M,,*5D
05/31/2014	12:01:19.696	$GPGGA,120120,2506.2479,N,07917.4495,W,1,8,1.9,11,M,,M,,*5D
05/31/2014	12:01:20.694	$GPGGA,120121,2506.2482,N,07917.4480,W,1,8,1.9,11,M,,M,,*5C
05/31/2014	12:01:21.684	$GPGGA,120122,2506.2484,N,07917.4466,W,1,8,1.9,11,M,,M,,*51
05/31/2014	12:01:22.694	$GPGGA,120123,2506.2487,N,07917.4452,W,1,8,1.9,11,M,,M,,*54
05/31/2014	12:01:23.684	$GPGGA,120124,2506.2490,N,07917.4436,W,1,8,1.9,11,M,,M,,*57
05/31/2014	12:01:24.675	$GPGGA,120125,2506.2493,N,07917.4421,W,1,8,1.9,11,M,,M,,*53
05/31/2014	12:01:25.685	$GPGGA,120126,2506.2495,N,07917.4407,W,1,8,1.9,11,M,,M,,*52
05/31/2014	12:01:26.675	$GPGGA,120127,2506.2498,N,07917.4393,W,1,8,1.9,11,M,,M,,*54
05/31/2014	12:01:27.675	$GPGGA,120128,2506.2501,N,07917.4379,W,1,8,1.9,11,M,,M,,*5E
05/31/2014	12:01:28.765	$GPGGA,120129,2506.2502,N,07917.4365,W,1,8,1.9,11,M,,M,,*51
05/31/2014	12:01:29.675	$GPGGA,120130,2506.2504,N,07917.4351,W,1,8,1.9,11,M,,M,,*58
05/31/2014	12:01:30.685	$GPGGA,120131,2506.2506,N,07917.4337,W,1,8,1.9,11,M,,M,,*5B
05/31/2014	12:01:31.675	$GPGGA,120132,2506.2509,N,07917.4323,W,1,8,1.9,11,M,,M,,*52
05/31/2014	12:01:32.675	$GPGGA,120133,2506.2512,N,07917.4310,W,1,8,1.9,11,M,,M,,*59
05/31/2014	12:01:33.665	$GPGGA,120134,2506.2513,N,07917.4296,W,1,8,1.9,11,M,,M,,*50
05/31/2014	12:01:34.755	$GPGGA,120135,2506.2516,N,07917.4282,W,1,8,1.9,11,M,,M,,*51
05/31/2014	12:01:35.791	$GPGGA,120136,2506.2519,N,07917.4268,W,1,8,1.9,11,M,,M,,*59
05/31/2014	12:01:36.775	$GPGGA,120137,2506.2522,N,07917.4254,W,1,8,1.9,11,M,,M,,*5F
05/31/2014	12:01:37.754	$GPGGA,120138,2506.2523,N,07917.4239,W,1,8,1.9,11,M,,M,,*5A
05/31/2014	12:01:38.764	$GPGGA,120139,2506.2524,N,07917.4225,W,1,8,1.9,11,M,,M,,*51
05/31/2014	12:01:39.764	$GPGGA,120140,2506.2530,N,07917.4212,W,1,8,1.9,11,M,,M,,*5E
05/31/2014	12:01:40.754	$GPGGA,120141,2506.2531,N,07917.4198,W,1,8,1.9,11,M,,M,,*5F
05/31/2014	12:01:41.755	$GPGGA,120142,2506.2531,N,07917.4183,W,1,8,1.9,11,M,,M,,*56
05/31/2014	12:01:42.767	$GPGGA,120143,2506.2536,N,07917.4170,W,1,8,1.9,11,M,,M,,*5C
05/31/2014	12:01:43.755	$GPGGA,120144,2506.2540,N,07917.4156,W,1,8,1.9,11,M,,M,,*5E
05/31/2014	12:01:44.755	$GPGGA,120145,2506.2542,N,07917.4141,W,1,8,1.9,11,M,,M,,*5B
05/31/2014	12:01:45.735	$GPGGA,120146,2506.2544,N,07917.4127,W,1,8,1.9,11,M,,M,,*5E
05/31/2014	12:01:46.725	$GPGGA,120147,2506.2547,N,07917.4114,W,1,8,1.9,11,M,,M,,*5C
05/31/2014	12:01:47.745	$GPGGA,120148,2506.2551,N,07917.4099,W,1,8,1.9,11,M,,M,,*50
05/31/2014	12:01:48.745	$GPGGA,120149,2506.2552,N,07917.4086,W,1,8,1.9,11,M,,M,,*5C
05/31/2014	12:01:49.735	$GPGGA,120150,2506.2555,N,07917.4072,W,1,8,1.9,11,M,,M,,*58
05/31/2014	12:01:50.745	$GPGGA,120151,2506.2559,N,07917.4057,W,1,8,1.9,11,M,,M,,*52
05/31/2014	12:01:51.735	$GPGGA,120152,2506.2562,N,07917.4043,W,1,8,1.9,11,M,,M,,*5C
05/31/2014	12:01:52.716	$GPGGA,120153,2506.2565,N,07917.4029,W,1,8,1.9,11,M,,M,,*56
05/31/2014	12:01:53.725	$GPGGA,120154,2506.2567,N,07917.4014,W,1,8,1.9,11,M,,M,,*5D
05/31/2014	12:01:54.746	$GPGGA,120155,2506.2570,N,07917.4000,W,1,8,1.9,11,M,,M,,*5F
05/31/2014	12:01:55.734	$GPGGA,120156,2506.2574,N,07917.3986,W,1,8,1.9,11,M,,M,,*58
05/31/2014	12:01:56.754	$GPGGA,120157,2506.2576,N,07917.3971,W,1,8,1.9,11,M,,M,,*53
05/31/2014	12:01:57.704	$GPGGA,120158,2506.2578,N,07917.3957,W,1,8,1.9,11,M,,M,,*56
05/31/2014	12:01:58.744	$GPGGA,120159,2506.2584,N,07917.3943,W,1,8,1.9,11,M,,M,,*51
05/31/2014	12:01:59.715	$GPGGA,120200,2506.2585,N,07917.3928,W,1,8,1.9,11,M,,M,,*52
05/31/2014	12:02:00.715	$GPGGA,120201,2506.2588,N,07917.3913,W,1,8,1.9,11,M,,M,,*56
05/31/2014	12:02:01.695	$GPGGA,120202,2506.2592,N,07917.3899,W,1,8,1.9,11,M,,M,,*5D
05/31/2014	12:02:03.725	$GPGGA,120203,2506.2596,N,07917.3885,W,1,8,1.9,11,M,,M,,*55
05/31/2014	12:02:03.745	$GPGGA,120204,2506.2599,N,07917.3871,W,1,8,1.9,11,M,,M,,*56
05/31/2014	12:02:04.695	$GPGGA,120205,2506.2600,N,07917.3856,W,1,8,1.9,11,M,,M,,*51
05/31/2014	12:02:05.705	$GPGGA,120206,2506.2605,N,07917.3841,W,1,8,1.9,11,M,,M,,*51
05/31/2014	12:02:06.705	$GPGGA,120207,2506.2609,N,07917.3828,W,1,8,1.9,11,M,,M,,*53
05/31/2014	12:02:07.705	$GPGGA,120208,2506.2612,N,07917.3814,W,1,8,1.9,11,M,,M,,*59
05/31/2014	12:02:08.705	$GPGGA,120209,2506.2614,N,07917.3799,W,1,8,1.9,11,M,,M,,*54
05/31/2014	12:02:09.685	$GPGGA,120210,2506.2617,N,07917.3785,W,1,8,1.9,11,M,,M,,*52
05/31/2014	12:02:10.675	$GPGGA,120211,2506.2623,N,07917.3771,W,1,8,1.9,11,M,,M,,*5F
05/31/2014	12:02:11.706	$GPGGA,120212,2506.2625,N,07917.3757,W,1,8,1.9,11,M,,M,,*5E
05/31/2014	12:02:12.704	$GPGGA,120213,2506.2628,N,07917.3742,W,1,8,1.9,11,M,,M,,*56
05/31/2014	12:02:13.774	$GPGGA,120214,2506.2632,N,07917.3728,W,1,8,1.9,11,M,,M,,*56
05/31/2014	12:02:14.694	$GPGGA,120215,2506.2636,N,07917.3714,W,1,8,1.9,11,M,,M,,*5C
05/31/2014	12:02:15.811	$GPGGA,120216,2506.2639,N,07917.3700,W,1,8,1.9,11,M,,M,,*55
05/31/2014	12:02:16.685	$GPGGA,120217,2506.2642,N,07917.3685,W,1,8,1.8,11,M,,M,,*55
05/31/2014	12:02:17.775	$GPGGA,120218,2506.2646,N,07917.3671,W,1,8,1.8,11,M,,M,,*55
05/31/2014	12:02:18.675	$GPGGA,120219,2506.2650,N,07917.3657,W,1,8,1.8,11,M,,M,,*57
05/31/2014	12:02:19.795	$GPGGA,120220,2506.2652,N,07917.3643,W,1,8,1.8,11,M,,M,,*5A
05/31/2014	12:02:20.775	$GPGGA,120221,2506.2654,N,07917.3628,W,1,8,1.8,11,M,,M,,*50
05/31/2014	12:02:21.755	$GPGGA,120222,2506.2660,N,07917.3614,W,1,8,1.8,11,M,,M,,*5B
05/31/2014	12:02:22.755	$GPGGA,120223,2506.2664,N,07917.3600,W,1,8,1.8,11,M,,M,,*5B
05/31/2014	12:02:23.775	$GPGGA,120224,2506.2664,N,07917.3585,W,1,8,1.8,11,M,,M,,*52
05/31/2014	12:02:24.775	$GPGGA,120225,2506.2668,N,07917.3571,W,1,8,1.8,11,M,,M,,*54
05/31/2014	12:02:25.755	$GPGGA,120226,2506.2674,N,07917.3557,W,1,8,1.8,11,M,,M,,*5E
05/31/2014	12:02:26.765	$GPGGA,120227,2506.2675,N,07917.3543,W,1,8,1.8,11,M,,M,,*5B
05/31/2014	12:02:27.765	$GPGGA,120228,2506.2678,N,07917.3528,W,1,8,1.8,11,M,,M,,*54
05/31/2014	12:02:28.765	$GPGGA,120229,2506.2682,N,07917.3515,W,1,8,1.8,11,M,,M,,*5E
05/31/2014	12:02:29.745	$GPGGA,120230,2506.2686,N,07917.3501,W,1,8,1.8,11,M,,M,,*57
05/31/2014	12:02:30.774	$GPGGA,120231,2506.2689,N,07917.3486,W,1,8,1.8,11,M,,M,,*57
05/31/2014	12:02:31.754	$GPGGA,120232,2506.2692,N,07917.3472,W,1,8,1.8,11,M,,M,,*55
05/31/2014	12:02:32.744	$GPGGA,120233,2506.2696,N,07917.3459,W,1,8,1.8,11,M,,M,,*59
05/31/2014	12:02:33.735	$GPGGA,120234,2506.2700,N,07917.3444,W,1,8,1.8,11,M,,M,,*5C
05/31/2014	12:02:34.755	$GPGGA,120235,2506.2701,N,07917.3430,W,1,8,1.8,11,M,,M,,*5F
05/31/2014	12:02:35.745	$GPGGA,120236,2506.2704,N,07917.3416,W,1,8,1.8,11,M,,M,,*5D
05/31/2014	12:02:36.725	$GPGGA,120237,2506.2708,N,07917.3403,W,1,8,1.8,11,M,,M,,*54
05/31/2014	12:02:37.725	$GPGGA,120238,2506.2711,N,07917.3388,W,1,8,1.8,11,M,,M,,*57
05/31/2014	12:02:38.725	$GPGGA,120239,2506.2714,N,07917.3375,W,1,8,1.8,11,M,,M,,*51
05/31/2014	12:02:39.735	$GPGGA,120240,2506.2718,N,07917.3361,W,1,8,1.8,12,M,,M,,*55
05/31/2014	12:02:40.745	$GPGGA,120241,2506.2722,N,07917.3347,W,1,8,1.8,12,M,,M,,*59
05/31/2014	12:02:41.725	$GPGGA,120242,2506.2724,N,07917.3333,W,1,8,1.8,12,M,,M,,*5F
05/31/2014	12:02:42.755	$GPGGA,120243,2506.2728,N,07917.3319,W,1,8,1.8,12,M,,M,,*5A
05/31/2014	12:02:43.725	$GPGGA,120244,2506.2730,N,07917.3305,W,1,8,1.8,12,M,,M,,*59
05/31/2014	12:02:44.725	$GPGGA,120245,2506.2733,N,07917.3291,W,1,8,1.8,12,M,,M,,*57
05/31/2014	12:02:45.715	$GPGGA,120246,2506.2737,N,07917.3277,W,1,8,1.8,12,M,,M,,*58
05/31/2014	12:02:46.705	$GPGGA,120247,2506.2740,N,07917.3263,W,1,8,1.8,12,M,,M,,*5C
05/31/2014	12:02:47.724	$GPGGA,120248,2506.2743,N,07917.3249,W,1,8,1.8,12,M,,M,,*58
05/31/2014	12:02:48.704	$GPGGA,120249,2506.2744,N,07917.3235,W,1,8,1.8,12,M,,M,,*55
05/31/2014	12:02:49.714	$GPGGA,120250,2506.2750,N,07917.3221,W,1,8,1.8,12,M,,M,,*5D
05/31/2014	12:02:50.714	$GPGGA,120251,2506.2753,N,07917.3207,W,1,8,1.8,12,M,,M,,*5B
05/31/2014	12:02:51.715	$GPGGA,120252,2506.2754,N,07917.3193,W,1,8,1.8,12,M,,M,,*51
05/31/2014	12:02:52.685	$GPGGA,120253,2506.2757,N,07917.3180,W,1,8,1.8,12,M,,M,,*51
05/31/2014	12:02:53.855	$GPGGA,120254,2506.2761,N,07917.3166,W,1,8,1.8,12,M,,M,,*5B
05/31/2014	12:02:54.685	$GPGGA,120255,2506.2764,N,07917.3152,W,1,8,1.8,12,M,,M,,*58
05/31/2014	12:02:55.725	$GPGGA,120256,2506.2765,N,07917.3138,W,1,8,1.8,12,M,,M,,*56
05/31/2014	12:02:56.685	$GPGGA,120257,2506.2768,N,07917.3124,W,1,8,1.8,12,M,,M,,*57
05/31/2014	12:02:57.775	$GPGGA,120258,2506.2771,N,07917.3110,W,1,8,1.8,12,M,,M,,*57
05/31/2014	12:02:58.695	$GPGGA,120259,2506.2773,N,07917.3096,W,1,8,1.8,12,M,,M,,*5B
05/31/2014	12:02:59.715	$GPGGA,120300,2506.2776,N,07917.3081,W,1,8,1.9,12,M,,M,,*54
05/31/2014	12:03:00.725	$GPGGA,120301,2506.2777,N,07917.3068,W,1,7,1.9,12,M,,M,,*5C
05/31/2014	12:03:01.765	$GPGGA,120302,2506.2780,N,07917.3055,W,1,7,1.8,12,M,,M,,*58
05/31/2014	12:03:02.685	$GPGGA,120303,2506.2784,N,07917.3043,W,1,7,1.9,12,M,,M,,*5B
05/31/2014	12:03:03.685	$GPGGA,120304,2506.2784,N,07917.3028,W,1,7,1.8,12,M,,M,,*50
05/31/2014	12:03:04.795	$GPGGA,120305,2506.2787,N,07917.3014,W,1,7,1.9,12,M,,M,,*5C
05/31/2014	12:03:05.834	$GPGGA,120306,2506.2791,N,07917.3001,W,1,7,1.8,12,M,,M,,*5D
05/31/2014	12:03:06.755	$GPGGA,120307,2506.2791,N,07917.2987,W,1,8,1.8,12,M,,M,,*55
05/31/2014	12:03:07.684	$GPGGA,120308,2506.2793,N,07917.2974,W,1,8,1.8,12,M,,M,,*54
05/31/2014	12:03:08.664	$GPGGA,120309,2506.2797,N,07917.2959,W,1,8,1.8,12,M,,M,,*5E
05/31/2014	12:03:09.665	$GPGGA,120310,2506.2800,N,07917.2945,W,1,8,1.9,12,M,,M,,*5B
05/31/2014	12:03:10.815	$GPGGA,120311,2506.2799,N,07917.2933,W,1,7,1.9,12,M,,M,,*5B
05/31/2014	12:03:11.835	$GPGGA,120312,2506.2801,N,07917.2920,W,1,7,1.8,12,M,,M,,*55
05/31/2014	12:03:12.805	$GPGGA,120313,2506.2804,N,07917.2907,W,1,8,1.8,12,M,,M,,*5B
05/31/2014	12:03:13.745	$GPGGA,120314,2506.2805,N,07917.2894,W,1,8,1.8,12,M,,M,,*56
05/31/2014	12:03:14.775	$GPGGA,120315,2506.2805,N,07917.2880,W,1,8,1.8,12,M,,M,,*52
05/31/2014	12:03:15.825	$GPGGA,120316,2506.2808,N,07917.2866,W,1,8,1.8,12,M,,M,,*54
05/31/2014	12:03:16.785	$GPGGA,120317,2506.2811,N,07917.2850,W,1,7,1.9,12,M,,M,,*56
05/31/2014	12:03:17.735	$GPGGA,120318,2506.2813,N,07917.2836,W,1,7,1.8,12,M,,M,,*5A
05/31/2014	12:03:18.735	$GPGGA,120319,2506.2813,N,07917.2821,W,1,8,1.8,12,M,,M,,*52
05/31/2014	12:03:19.835	$GPGGA,120320,2506.2815,N,07917.2807,W,1,8,1.8,12,M,,M,,*5A
05/31/2014	12:03:20.785	$GPGGA,120321,2506.2816,N,07917.2793,W,1,8,1.8,12,M,,M,,*5A
05/31/2014	12:03:21.725	$GPGGA,120322,2506.2819,N,07917.2779,W,1,8,1.8,12,M,,M,,*52
05/31/2014	12:03:22.784	$GPGGA,120323,2506.2818,N,07917.2764,W,1,8,1.9,12,M,,M,,*5F
05/31/2014	12:03:23.804	$GPGGA,120324,2506.2820,N,07917.2751,W,1,8,1.9,12,M,,M,,*55
05/31/2014	12:03:24.784	$GPGGA,120325,2506.2823,N,07917.2737,W,1,8,1.8,12,M,,M,,*56
05/31/2014	12:03:25.714	$GPGGA,120326,2506.2823,N,07917.2723,W,1,8,1.8,12,M,,M,,*50
05/31/2014	12:03:26.795	$GPGGA,120327,2506.2823,N,07917.2709,W,1,8,1.8,12,M,,M,,*59
05/31/2014	12:03:27.774	$GPGGA,120328,2506.2826,N,07917.2694,W,1,8,1.9,12,M,,M,,*57
05/31/2014	12:03:28.724	$GPGGA,120329,2506.2827,N,07917.2681,W,1,7,1.8,12,M,,M,,*5D
05/31/2014	12:03:29.704	$GPGGA,120330,2506.2827,N,07917.2667,W,1,7,1.8,12,M,,M,,*5D
05/31/2014	12:03:30.754	$GPGGA,120331,2506.2829,N,07917.2653,W,1,8,1.8,12,M,,M,,*5A
05/31/2014	12:03:31.764	$GPGGA,120332,2506.2831,N,07917.2639,W,1,8,1.8,12,M,,M,,*5C
05/31/2014	12:03:32.724	$GPGGA,120333,2506.2833,N,07917.2624,W,1,8,1.8,12,M,,M,,*53
05/31/2014	12:03:33.754	$GPGGA,120334,2506.2834,N,07917.2610,W,1,8,1.8,12,M,,M,,*54
05/31/2014	12:03:34.745	$GPGGA,120335,2506.2834,N,07917.2595,W,1,8,1.8,12,M,,M,,*5B
05/31/2014	12:03:35.755	$GPGGA,120336,2506.2837,N,07917.2580,W,1,8,1.9,12,M,,M,,*5E
05/31/2014	12:03:36.684	$GPGGA,120337,2506.2838,N,07917.2566,W,1,7,1.9,12,M,,M,,*57
05/31/2014	12:03:37.794	$GPGGA,120338,2506.2840,N,07917.2550,W,1,7,1.8,12,M,,M,,*53
05/31/2014	12:03:38.714	$GPGGA,120339,2506.2841,N,07917.2535,W,1,8,1.8,12,M,,M,,*5F
05/31/2014	12:03:39.754	$GPGGA,120340,2506.2842,N,07917.2520,W,1,8,1.8,12,M,,M,,*56
05/31/2014	12:03:40.713	$GPGGA,120341,2506.2844,N,07917.2506,W,1,8,1.8,12,M,,M,,*55
05/31/2014	12:03:41.733	$GPGGA,120342,2506.2845,N,07917.2491,W,1,8,1.8,12,M,,M,,*58
05/31/2014	12:03:42.733	$GPGGA,120343,2506.2847,N,07917.2477,W,1,8,1.8,12,M,,M,,*53
05/31/2014	12:03:43.753	$GPGGA,120344,2506.2849,N,07917.2462,W,1,8,1.8,12,M,,M,,*5E
05/31/2014	12:03:44.664	$GPGGA,120345,2506.2851,N,07917.2448,W,1,8,1.8,12,M,,M,,*5E
05/31/2014	12:03:45.734	$GPGGA,120346,2506.2852,N,07917.2434,W,1,8,1.8,12,M,,M,,*55
05/31/2014	12:03:46.724	$GPGGA,120347,2506.2854,N,07917.2420,W,1,8,1.8,12,M,,M,,*57
05/31/2014	12:03:47.784	$GPGGA,120348,2506.2856,N,07917.2405,W,1,8,1.9,12,M,,M,,*5C
05/31/2014	12:03:48.704	$GPGGA,120349,2506.2859,N,07917.2390,W,1,7,1.9,12,M,,M,,*56
05/31/2014	12:03:49.654	$GPGGA,120350,2506.2859,N,07917.2375,W,1,7,1.9,12,M,,M,,*55
05/31/2014	12:03:50.794	$GPGGA,120351,2506.2863,N,07917.2360,W,1,7,1.9,12,M,,M,,*59
05/31/2014	12:03:51.734	$GPGGA,120352,2506.2865,N,07917.2348,W,1,7,1.8,12,M,,M,,*57
05/31/2014	12:03:52.684	$GPGGA,120353,2506.2866,N,07917.2333,W,1,8,1.9,12,M,,M,,*57
05/31/2014	12:03:53.714	$GPGGA,120354,2506.2867,N,07917.2321,W,1,8,1.8,12,M,,M,,*53
05/31/2014	12:03:54.764	$GPGGA,120355,2506.2870,N,07917.2309,W,1,8,1.8,12,M,,M,,*5E
05/31/2014	12:03:55.764	$GPGGA,120356,2506.2870,N,07917.2295,W,1,8,1.8,12,M,,M,,*59
05/31/2014	12:03:56.745	$GPGGA,120357,2506.2874,N,07917.2281,W,1,8,1.8,12,M,,M,,*59
05/31/2014	12:03:57.763	$GPGGA,120358,2506.2877,N,07917.2268,W,1,8,1.8,12,M,,M,,*52
05/31/2014	12:03:58.773	$GPGGA,120359,2506.2878,N,07917.2254,W,1,8,1.8,12,M,,M,,*53
05/31/2014	12:03:59.783	$GPGGA,120400,2506.2881,N,07917.2239,W,1,8,1.9,12,M,,M,,*54
05/31/2014	12:04:00.743	$GPGGA,120401,2506.2884,N,07917.2224,W,1,7,1.8,12,M,,M,,*52
05/31/2014	12:04:01.803	$GPGGA,120402,2506.2888,N,07917.2209,W,1,7,1.9,12,M,,M,,*53
05/31/2014	12:04:02.754	$GPGGA,120403,2506.2888,N,07917.2197,W,1,7,1.8,12,M,,M,,*57
05/31/2014	12:04:03.744	$GPGGA,120404,2506.2889,N,07917.2183,W,1,7,1.8,12,M,,M,,*54
05/31/2014	12:04:04.774	$GPGGA,120405,2506.2892,N,07917.2170,W,1,8,1.8,12,M,,M,,*5C
05/31/2014	12:04:05.757	$GPGGA,120406,2506.2896,N,07917.2155,W,1,8,1.9,12,M,,M,,*5D
05/31/2014	12:04:06.754	$GPGGA,120407,2506.2898,N,07917.2141,W,1,7,1.8,12,M,,M,,*59
05/31/2014	12:04:07.744	$GPGGA,120408,2506.2899,N,07917.2125,W,1,7,1.8,12,M,,M,,*55
05/31/2014	12:04:08.774	$GPGGA,120409,2506.2903,N,07917.2112,W,1,8,1.8,12,M,,M,,*5D
05/31/2014	12:04:09.764	$GPGGA,120410,2506.2907,N,07917.2097,W,1,8,1.9,12,M,,M,,*5C
05/31/2014	12:04:10.744	$GPGGA,120411,2506.2909,N,07917.2083,W,1,7,1.8,12,M,,M,,*58
05/31/2014	12:04:11.744	$GPGGA,120412,2506.2910,N,07917.2068,W,1,7,1.8,12,M,,M,,*56
05/31/2014	12:04:12.734	$GPGGA,120413,2506.2914,N,07917.2052,W,1,8,1.8,12,M,,M,,*55
05/31/2014	12:04:13.755	$GPGGA,120414,2506.2914,N,07917.2052,W,1,8,1.8,12,M,,M,,*52
05/31/2014	12:04:14.704	$GPGGA,120415,2506.2921,N,07917.2023,W,1,8,1.8,12,M,,M,,*53
05/31/2014	12:04:15.733	$GPGGA,120416,2506.2921,N,07917.2023,W,1,8,1.8,12,M,,M,,*50
05/31/2014	12:04:16.743	$GPGGA,120417,2506.2927,N,07917.1994,W,1,8,1.8,12,M,,M,,*51
05/31/2014	12:04:17.743	$GPGGA,120418,2506.2927,N,07917.1994,W,1,8,1.8,12,M,,M,,*5E
05/31/2014	12:04:18.743	$GPGGA,120419,2506.2930,N,07917.1980,W,1,8,1.8,12,M,,M,,*5C
05/31/2014	12:04:19.754	$GPGGA,120420,2506.2934,N,07917.1951,W,1,8,1.9,12,M,,M,,*5F
05/31/2014	12:04:20.694	$GPGGA,120421,2506.2938,N,07917.1939,W,1,7,1.8,12,M,,M,,*52
05/31/2014	12:04:21.714	$GPGGA,120422,2506.2941,N,07917.1924,W,1,7,1.9,12,M,,M,,*52
05/31/2014	12:04:22.724	$GPGGA,120423,2506.2940,N,07917.1910,W,1,7,1.8,12,M,,M,,*54
05/31/2014	12:04:23.704	$GPGGA,120424,2506.2940,N,07917.1910,W,1,7,1.8,12,M,,M,,*53
05/31/2014	12:04:24.694	$GPGGA,120425,2506.2946,N,07917.1882,W,1,7,1.9,12,M,,M,,*5F
05/31/2014	12:04:25.714	$GPGGA,120426,2506.2950,N,07917.1868,W,1,7,1.8,12,M,,M,,*5E
05/31/2014	12:04:26.794	$GPGGA,120427,2506.2952,N,07917.1855,W,1,8,1.8,12,M,,M,,*5C
05/31/2014	12:04:27.714	$GPGGA,120428,2506.2953,N,07917.1841,W,1,8,1.8,12,M,,M,,*57
05/31/2014	12:04:28.724	$GPGGA,120429,2506.2956,N,07917.1828,W,1,8,1.8,12,M,,M,,*5C
05/31/2014	12:04:29.725	$GPGGA,120430,2506.2956,N,07917.1828,W,1,8,1.8,12,M,,M,,*54
05/31/2014	12:04:30.684	$GPGGA,120431,2506.2961,N,07917.1800,W,1,8,1.8,12,M,,M,,*5B
05/31/2014	12:04:31.714	$GPGGA,120432,2506.2961,N,07917.1800,W,1,8,1.8,12,M,,M,,*58
05/31/2014	12:04:32.673	$GPGGA,120433,2506.2964,N,07917.1771,W,1,8,1.8,12,M,,M,,*55
05/31/2014	12:04:33.783	$GPGGA,120434,2506.2968,N,07917.1758,W,1,8,1.8,12,M,,M,,*55
05/31/2014	12:04:34.663	$GPGGA,120435,2506.2970,N,07917.1743,W,1,8,1.8,12,M,,M,,*57
05/31/2014	12:04:35.773	$GPGGA,120436,2506.2971,N,07917.1729,W,1,8,1.8,12,M,,M,,*59
05/31/2014	12:04:36.783	$GPGGA,120437,2506.2974,N,07917.1715,W,1,8,1.8,12,M,,M,,*52
05/31/2014	12:04:37.754	$GPGGA,120438,2506.2977,N,07917.1700,W,1,8,1.8,12,M,,M,,*5A
05/31/2014	12:04:38.754	$GPGGA,120439,2506.2978,N,07917.1686,W,1,7,1.9,12,M,,M,,*55
05/31/2014	12:04:39.774	$GPGGA,120440,2506.2979,N,07917.1673,W,1,7,1.8,12,M,,M,,*51
05/31/2014	12:04:40.784	$GPGGA,120441,2506.2981,N,07917.1659,W,1,8,1.8,12,M,,M,,*50
05/31/2014	12:04:41.764	$GPGGA,120442,2506.2984,N,07917.1645,W,1,8,1.8,12,M,,M,,*5B
05/31/2014	12:04:42.754	$GPGGA,120443,2506.2985,N,07917.1632,W,1,8,1.8,12,M,,M,,*5B
05/31/2014	12:04:43.754	$GPGGA,120444,2506.2986,N,07917.1617,W,1,8,1.8,12,M,,M,,*58
05/31/2014	12:04:44.744	$GPGGA,120445,2506.2988,N,07917.1603,W,1,8,1.8,12,M,,M,,*52
05/31/2014	12:04:45.744	$GPGGA,120446,2506.2990,N,07917.1589,W,1,8,1.8,12,M,,M,,*59
05/31/2014	12:04:46.754	$GPGGA,120447,2506.2992,N,07917.1575,W,1,8,1.8,12,M,,M,,*59
05/31/2014	12:04:47.755	$GPGGA,120448,2506.2993,N,07917.1560,W,1,8,1.8,12,M,,M,,*53
05/31/2014	12:04:48.734	$GPGGA,120449,2506.2996,N,07917.1546,W,1,8,1.8,12,M,,M,,*53
05/31/2014	12:04:49.723	$GPGGA,120450,2506.2997,N,07917.1532,W,1,8,1.8,12,M,,M,,*59
05/31/2014	12:04:50.753	$GPGGA,120451,2506.2999,N,07917.1517,W,1,8,1.8,12,M,,M,,*51
05/31/2014	12:04:51.743	$GPGGA,120452,2506.3000,N,07917.1502,W,1,8,1.8,12,M,,M,,*5E
05/31/2014	12:04:52.743	$GPGGA,120453,2506.3001,N,07917.1488,W,1,7,1.9,12,M,,M,,*53
05/31/2014	12:04:53.733	$GPGGA,120454,2506.3004,N,07917.1475,W,1,7,1.8,12,M,,M,,*52
05/31/2014	12:04:54.744	$GPGGA,120455,2506.3006,N,07917.1461,W,1,8,1.8,12,M,,M,,*5B
05/31/2014	12:04:55.744	$GPGGA,120456,2506.3008,N,07917.1447,W,1,8,1.8,12,M,,M,,*52
05/31/2014	12:04:56.744	$GPGGA,120457,2506.3008,N,07917.1433,W,1,8,1.8,12,M,,M,,*50
05/31/2014	12:04:57.714	$GPGGA,120458,2506.3011,N,07917.1418,W,1,8,1.8,12,M,,M,,*5E
05/31/2014	12:04:58.744	$GPGGA,120459,2506.3013,N,07917.1403,W,1,8,1.8,12,M,,M,,*57
05/31/2014	12:04:59.734	$GPGGA,120500,2506.3012,N,07917.1389,W,1,8,1.8,12,M,,M,,*5E
05/31/2014	12:05:00.704	$GPGGA,120501,2506.3014,N,07917.1374,W,1,8,1.8,12,M,,M,,*5B
05/31/2014	12:05:01.714	$GPGGA,120502,2506.3015,N,07917.1360,W,1,8,1.8,12,M,,M,,*5C
05/31/2014	12:05:02.704	$GPGGA,120503,2506.3018,N,07917.1345,W,1,8,1.8,12,M,,M,,*57
05/31/2014	12:05:03.724	$GPGGA,120504,2506.3018,N,07917.1331,W,1,8,1.8,12,M,,M,,*53
05/31/2014	12:05:04.734	$GPGGA,120505,2506.3018,N,07917.1316,W,1,8,1.8,12,M,,M,,*57
05/31/2014	12:05:05.714	$GPGGA,120506,2506.3022,N,07917.1301,W,1,8,1.8,12,M,,M,,*5B
05/31/2014	12:05:06.704	$GPGGA,120507,2506.3025,N,07917.1287,W,1,7,1.9,12,M,,M,,*5C
05/31/2014	12:05:07.723	$GPGGA,120508,2506.3024,N,07917.1272,W,1,7,1.8,12,M,,M,,*59
05/31/2014	12:05:08.723	$GPGGA,120509,2506.3025,N,07917.1257,W,1,8,1.8,12,M,,M,,*51
05/31/2014	12:05:09.683	$GPGGA,120510,2506.3029,N,07917.1243,W,1,8,1.8,12,M,,M,,*50
05/31/2014	12:05:10.723	$GPGGA,120511,2506.3032,N,07917.1228,W,1,8,1.8,12,M,,M,,*56
05/31/2014	12:05:11.703	$GPGGA,120512,2506.3030,N,07917.1214,W,1,8,1.9,12,M,,M,,*59
05/31/2014	12:05:12.684	$GPGGA,120513,2506.3032,N,07917.1200,W,1,8,1.8,12,M,,M,,*5E
05/31/2014	12:05:13.704	$GPGGA,120514,2506.3036,N,07917.1185,W,1,8,1.8,12,M,,M,,*53
05/31/2014	12:05:14.674	$GPGGA,120515,2506.3037,N,07917.1171,W,1,8,1.8,12,M,,M,,*58
05/31/2014	12:05:15.704	$GPGGA,120516,2506.3036,N,07917.1156,W,1,8,1.8,12,M,,M,,*5F
05/31/2014	12:05:16.684	$GPGGA,120517,2506.3039,N,07917.1142,W,1,8,1.8,12,M,,M,,*54
05/31/2014	12:05:17.764	$GPGGA,120518,2506.3043,N,07917.1129,W,1,8,1.8,12,M,,M,,*5B
05/31/2014	12:05:18.694	$GPGGA,120519,2506.3044,N,07917.1114,W,1,8,1.8,12,M,,M,,*53
05/31/2014	12:05:19.694	$GPGGA,120520,2506.3044,N,07917.1100,W,1,8,1.8,12,M,,M,,*5C
05/31/2014	12:05:20.764	$GPGGA,120521,2506.3046,N,07917.1087,W,1,8,1.8,12,M,,M,,*51
05/31/2014	12:05:21.674	$GPGGA,120522,2506.3049,N,07917.1072,W,1,8,1.8,12,M,,M,,*57
05/31/2014	12:05:22.674	$GPGGA,120523,2506.3050,N,07917.1059,W,1,8,1.8,12,M,,M,,*57
05/31/2014	12:05:23.684	$GPGGA,120524,2506.3051,N,07917.1045,W,1,8,1.8,12,M,,M,,*5C
05/31/2014	12:05:24.664	$GPGGA,120525,2506.3054,N,07917.1031,W,1,8,1.8,12,M,,M,,*5B
05/31/2014	12:05:25.753	$GPGGA,120526,2506.3055,N,07917.1017,W,1,8,1.8,12,M,,M,,*5D
05/31/2014	12:05:26.753	$GPGGA,120527,2506.3058,N,07917.1004,W,1,8,1.8,12,M,,M,,*53
05/31/2014	12:05:27.763	$GPGGA,120528,2506.3061,N,07917.0989,W,1,8,1.8,12,M,,M,,*5B
05/31/2014	12:05:28.753	$GPGGA,120529,2506.3060,N,07917.0975,W,1,8,1.8,12,M,,M,,*58
05/31/2014	12:05:29.754	$GPGGA,120530,2506.3062,N,07917.0961,W,1,8,1.8,12,M,,M,,*57
05/31/2014	12:05:30.744	$GPGGA,120531,2506.3066,N,07917.0948,W,1,8,1.8,12,M,,M,,*59
05/31/2014	12:05:31.764	$GPGGA,120532,2506.3069,N,07917.0934,W,1,8,1.8,12,M,,M,,*5E
05/31/2014	12:05:32.734	$GPGGA,120533,2506.3069,N,07917.0921,W,1,8,1.8,12,M,,M,,*5B
05/31/2014	12:05:33.734	$GPGGA,120534,2506.3073,N,07917.0906,W,1,8,1.8,12,M,,M,,*52
05/31/2014	12:05:34.754	$GPGGA,120535,2506.3076,N,07917.0892,W,1,7,1.9,12,M,,M,,*54
05/31/2014	12:05:35.754	$GPGGA,120536,2506.3079,N,07917.0878,W,1,7,1.8,12,M,,M,,*5D
05/31/2014	12:05:36.756	$GPGGA,120537,2506.3080,N,07917.0863,W,1,8,1.8,12,M,,M,,*5F
05/31/2014	12:05:37.734	$GPGGA,120538,2506.3083,N,07917.0849,W,1,8,1.9,12,M,,M,,*5A
05/31/2014	12:05:38.744	$GPGGA,120539,2506.3087,N,07917.0834,W,1,7,1.9,12,M,,M,,*5A
05/31/2014	12:05:39.744	$GPGGA,120540,2506.3089,N,07917.0822,W,1,7,1.9,12,M,,M,,*5D
05/31/2014	12:05:40.744	$GPGGA,120541,2506.3091,N,07917.0807,W,1,8,1.8,12,M,,M,,*5C
05/31/2014	12:05:41.735	$GPGGA,120542,2506.3094,N,07917.0793,W,1,8,1.9,12,M,,M,,*59
05/31/2014	12:05:42.743	$GPGGA,120543,2506.3098,N,07917.0779,W,1,8,1.8,12,M,,M,,*51
05/31/2014	12:05:43.733	$GPGGA,120544,2506.3100,N,07917.0766,W,1,8,1.8,12,M,,M,,*58
05/31/2014	12:05:44.753	$GPGGA,120545,2506.3102,N,07917.0752,W,1,8,1.8,12,M,,M,,*5C
05/31/2014	12:05:45.723	$GPGGA,120546,2506.3104,N,07917.0739,W,1,8,1.8,12,M,,M,,*54
05/31/2014	12:05:46.713	$GPGGA,120547,2506.3107,N,07917.0725,W,1,8,1.8,12,M,,M,,*5B
05/31/2014	12:05:47.734	$GPGGA,120548,2506.3109,N,07917.0712,W,1,8,1.8,12,M,,M,,*5E
05/31/2014	12:05:48.744	$GPGGA,120549,2506.3112,N,07917.0698,W,1,8,1.8,12,M,,M,,*56
05/31/2014	12:05:49.714	$GPGGA,120550,2506.3115,N,07917.0683,W,1,8,1.8,12,M,,M,,*53
05/31/2014	12:05:50.734	$GPGGA,120551,2506.3118,N,07917.0669,W,1,7,1.9,12,M,,M,,*55
05/31/2014	12:05:51.724	$GPGGA,120552,2506.3120,N,07917.0656,W,1,7,1.8,12,M,,M,,*50
05/31/2014	12:05:52.744	$GPGGA,120553,2506.3122,N,07917.0642,W,1,8,1.8,12,M,,M,,*59
05/31/2014	12:05:53.704	$GPGGA,120554,2506.3125,N,07917.0627,W,1,8,1.9,12,M,,M,,*5B
05/31/2014	12:05:54.734	$GPGGA,120555,2506.3127,N,07917.0612,W,1,7,1.9,12,M,,M,,*51
05/31/2014	12:05:55.714	$GPGGA,120556,2506.3130,N,07917.0598,W,1,7,1.9,12,M,,M,,*55
05/31/2014	12:05:56.714	$GPGGA,120557,2506.3133,N,07917.0583,W,1,7,1.9,12,M,,M,,*5D
05/31/2014	12:05:57.705	$GPGGA,120558,2506.3136,N,07917.0568,W,1,7,1.9,12,M,,M,,*52
05/31/2014	12:05:58.704	$GPGGA,120559,2506.3138,N,07917.0554,W,1,7,1.9,12,M,,M,,*52
05/31/2014	12:05:59.713	$GPGGA,120600,2506.3140,N,07917.0541,W,1,7,1.9,12,M,,M,,*56
05/31/2014	12:06:00.683	$GPGGA,120601,2506.3143,N,07917.0527,W,1,8,1.8,12,M,,M,,*5A
05/31/2014	12:06:01.803	$GPGGA,120602,2506.3145,N,07917.0512,W,1,8,1.8,12,M,,M,,*59
05/31/2014	12:06:02.683	$GPGGA,120603,2506.3148,N,07917.0498,W,1,7,1.9,12,M,,M,,*58
05/31/2014	12:06:03.703	$GPGGA,120604,2506.3149,N,07917.0485,W,1,7,1.9,12,M,,M,,*52
05/31/2014	12:06:04.694	$GPGGA,120605,2506.3152,N,07917.0472,W,1,8,1.8,12,M,,M,,*5F
05/31/2014	12:06:05.764	$GPGGA,120606,2506.3155,N,07917.0458,W,1,8,1.8,12,M,,M,,*53
05/31/2014	12:06:06.694	$GPGGA,120607,2506.3156,N,07917.0444,W,1,8,1.8,12,M,,M,,*5C
05/31/2014	12:06:07.794	$GPGGA,120608,2506.3159,N,07917.0431,W,1,8,1.8,12,M,,M,,*5E
05/31/2014	12:06:08.684	$GPGGA,120609,2506.3162,N,07917.0417,W,1,8,1.8,12,M,,M,,*53
05/31/2014	12:06:09.664	$GPGGA,120610,2506.3165,N,07917.0403,W,1,8,1.8,12,M,,M,,*59
05/31/2014	12:06:10.674	$GPGGA,120611,2506.3166,N,07917.0390,W,1,7,1.9,12,M,,M,,*58
05/31/2014	12:06:11.674	$GPGGA,120612,2506.3167,N,07917.0376,W,1,7,1.8,12,M,,M,,*53
05/31/2014	12:06:12.774	$GPGGA,120613,2506.3170,N,07917.0364,W,1,8,1.8,12,M,,M,,*58
05/31/2014	12:06:13.674	$GPGGA,120614,2506.3173,N,07917.0350,W,1,8,1.8,12,M,,M,,*5B
05/31/2014	12:06:14.774	$GPGGA,120615,2506.3174,N,07917.0335,W,1,8,1.8,12,M,,M,,*5E
05/31/2014	12:06:15.784	$GPGGA,120616,2506.3177,N,07917.0322,W,1,8,1.8,12,M,,M,,*58
05/31/2014	12:06:16.754	$GPGGA,120617,2506.3180,N,07917.0308,W,1,8,1.8,12,M,,M,,*59
05/31/2014	12:06:17.743	$GPGGA,120618,2506.3181,N,07917.0293,W,1,8,1.8,12,M,,M,,*54
05/31/2014	12:06:18.743	$GPGGA,120619,2506.3184,N,07917.0279,W,1,8,1.8,12,M,,M,,*54
05/31/2014	12:06:19.763	$GPGGA,120620,2506.3185,N,07917.0265,W,1,8,1.8,12,M,,M,,*52
05/31/2014	12:06:20.733	$GPGGA,120621,2506.3188,N,07917.0251,W,1,8,1.8,12,M,,M,,*59
05/31/2014	12:06:21.733	$GPGGA,120622,2506.3191,N,07917.0236,W,1,8,1.8,12,M,,M,,*53
05/31/2014	12:06:22.754	$GPGGA,120623,2506.3192,N,07917.0221,W,1,7,1.9,11,M,,M,,*5A
05/31/2014	12:06:23.754	$GPGGA,120624,2506.3195,N,07917.0207,W,1,7,1.9,11,M,,M,,*5E
05/31/2014	12:06:24.764	$GPGGA,120625,2506.3198,N,07917.0192,W,1,8,1.8,11,M,,M,,*53
05/31/2014	12:06:25.734	$GPGGA,120626,2506.3197,N,07917.0180,W,1,8,1.9,11,M,,M,,*5D
05/31/2014	12:06:26.724	$GPGGA,120627,2506.3201,N,07917.0166,W,1,8,1.8,11,M,,M,,*59
05/31/2014	12:06:27.744	$GPGGA,120628,2506.3202,N,07917.0153,W,1,8,1.8,11,M,,M,,*53
05/31/2014	12:06:28.746	$GPGGA,120629,2506.3203,N,07917.0138,W,1,8,1.8,11,M,,M,,*5E
05/31/2014	12:06:29.724	$GPGGA,120630,2506.3206,N,07917.0124,W,1,8,1.8,11,M,,M,,*5E
05/31/2014	12:06:30.744	$GPGGA,120631,2506.3206,N,07917.0110,W,1,8,1.8,11,M,,M,,*58
05/31/2014	12:06:31.734	$GPGGA,120632,2506.3209,N,07917.0095,W,1,8,1.8,11,M,,M,,*58
05/31/2014	12:06:32.725	$GPGGA,120633,2506.3210,N,07917.0081,W,1,8,1.8,11,M,,M,,*54
05/31/2014	12:06:33.725	$GPGGA,120634,2506.3212,N,07917.0067,W,1,8,1.8,11,M,,M,,*59
05/31/2014	12:06:34.723	$GPGGA,120635,2506.3214,N,07917.0052,W,1,8,1.8,11,M,,M,,*58
05/31/2014	12:06:35.723	$GPGGA,120636,2506.3216,N,07917.0038,W,1,8,1.8,11,M,,M,,*55
05/31/2014	12:06:36.703	$GPGGA,120637,2506.3217,N,07917.0024,W,1,8,1.8,11,M,,M,,*58
05/31/2014	12:06:37.713	$GPGGA,120638,2506.3220,N,07917.0009,W,1,8,1.8,11,M,,M,,*5C
05/31/2014	12:06:38.743	$GPGGA,120639,2506.3221,N,07916.9995,W,1,8,1.8,11,M,,M,,*58
05/31/2014	12:06:39.714	$GPGGA,120640,2506.3221,N,07916.9981,W,1,8,1.8,11,M,,M,,*53
05/31/2014	12:06:40.704	$GPGGA,120641,2506.3224,N,07916.9966,W,1,8,1.8,11,M,,M,,*5E
05/31/2014	12:06:41.694	$GPGGA,120642,2506.3225,N,07916.9952,W,1,8,1.8,11,M,,M,,*5B
05/31/2014	12:06:42.694	$GPGGA,120643,2506.3228,N,07916.9938,W,1,8,1.8,11,M,,M,,*5B
05/31/2014	12:06:43.714	$GPGGA,120644,2506.3228,N,07916.9923,W,1,8,1.8,11,M,,M,,*56
05/31/2014	12:06:44.724	$GPGGA,120645,2506.3231,N,07916.9909,W,1,8,1.8,11,M,,M,,*57
05/31/2014	12:06:45.684	$GPGGA,120646,2506.3232,N,07916.9894,W,1,8,1.8,11,M,,M,,*52
05/31/2014	12:06:46.704	$GPGGA,120647,2506.3235,N,07916.9880,W,1,8,1.8,11,M,,M,,*51
05/31/2014	12:06:47.704	$GPGGA,120648,2506.3237,N,07916.9865,W,1,8,1.8,11,M,,M,,*57
05/31/2014	12:06:48.694	$GPGGA,120649,2506.3238,N,07916.9851,W,1,8,1.8,11,M,,M,,*5E
05/31/2014	12:06:49.674	$GPGGA,120650,2506.3241,N,07916.9837,W,1,8,1.8,11,M,,M,,*58
05/31/2014	12:06:50.675	$GPGGA,120651,2506.3242,N,07916.9822,W,1,8,1.8,11,M,,M,,*5E
05/31/2014	12:06:51.784	$GPGGA,120652,2506.3245,N,07916.9807,W,1,8,1.8,11,M,,M,,*5D
05/31/2014	12:06:52.693	$GPGGA,120653,2506.3246,N,07916.9793,W,1,8,1.8,11,M,,M,,*5D
05/31/2014	12:06:53.763	$GPGGA,120654,2506.3249,N,07916.9779,W,1,8,1.8,11,M,,M,,*51
05/31/2014	12:06:54.683	$GPGGA,120655,2506.3252,N,07916.9764,W,1,8,1.8,11,M,,M,,*56
05/31/2014	12:06:55.703	$GPGGA,120656,2506.3253,N,07916.9749,W,1,8,1.8,11,M,,M,,*5B
05/31/2014	12:06:56.683	$GPGGA,120657,2506.3255,N,07916.9735,W,1,8,1.8,11,M,,M,,*57
05/31/2014	12:06:57.754	$GPGGA,120658,2506.3259,N,07916.9722,W,1,8,1.8,11,M,,M,,*52
05/31/2014	12:06:58.754	$GPGGA,120659,2506.3260,N,07916.9707,W,1,8,1.8,11,M,,M,,*5E
05/31/2014	12:06:59.784	$GPGGA,120700,2506.3260,N,07916.9693,W,1,8,1.8,11,M,,M,,*5F
05/31/2014	12:07:00.784	$GPGGA,120701,2506.3264,N,07916.9678,W,1,8,1.8,11,M,,M,,*5F
05/31/2014	12:07:01.755	$GPGGA,120702,2506.3268,N,07916.9664,W,1,8,1.8,11,M,,M,,*5D
05/31/2014	12:07:02.774	$GPGGA,120703,2506.3268,N,07916.9650,W,1,8,1.8,11,M,,M,,*5B
05/31/2014	12:07:03.764	$GPGGA,120704,2506.3270,N,07916.9636,W,1,8,1.8,11,M,,M,,*55
05/31/2014	12:07:04.744	$GPGGA,120705,2506.3274,N,07916.9623,W,1,8,1.8,11,M,,M,,*54
05/31/2014	12:07:05.735	$GPGGA,120706,2506.3277,N,07916.9607,W,1,8,1.8,11,M,,M,,*52
05/31/2014	12:07:06.764	$GPGGA,120707,2506.3278,N,07916.9594,W,1,7,1.8,11,M,,M,,*5A
05/31/2014	12:07:07.755	$GPGGA,120708,2506.3279,N,07916.9580,W,1,7,1.8,11,M,,M,,*51
05/31/2014	12:07:08.756	$GPGGA,120709,2506.3284,N,07916.9566,W,1,8,1.8,11,M,,M,,*55
05/31/2014	12:07:09.743	$GPGGA,120710,2506.3286,N,07916.9551,W,1,8,1.8,11,M,,M,,*5B
05/31/2014	12:07:10.733	$GPGGA,120711,2506.3286,N,07916.9538,W,1,7,1.8,11,M,,M,,*5A
05/31/2014	12:07:11.753	$GPGGA,120712,2506.3289,N,07916.9524,W,1,7,1.8,11,M,,M,,*5B
05/31/2014	12:07:12.763	$GPGGA,120713,2506.3293,N,07916.9510,W,1,8,1.8,11,M,,M,,*59
05/31/2014	12:07:13.733	$GPGGA,120714,2506.3296,N,07916.9495,W,1,8,1.8,11,M,,M,,*57
05/31/2014	12:07:14.754	$GPGGA,120715,2506.3297,N,07916.9482,W,1,7,1.8,11,M,,M,,*5E
05/31/2014	12:07:15.734	$GPGGA,120716,2506.3300,N,07916.9468,W,1,7,1.8,11,M,,M,,*56
05/31/2014	12:07:16.764	$GPGGA,120717,2506.3303,N,07916.9454,W,1,8,1.8,11,M,,M,,*54
05/31/2014	12:07:17.714	$GPGGA,120718,2506.3306,N,07916.9439,W,1,8,1.8,11,M,,M,,*55
05/31/2014	12:07:18.714	$GPGGA,120719,2506.3307,N,07916.9426,W,1,7,1.8,11,M,,M,,*54
05/31/2014	12:07:19.734	$GPGGA,120720,2506.3311,N,07916.9412,W,1,7,1.8,11,M,,M,,*5E
05/31/2014	12:07:20.704	$GPGGA,120721,2506.3314,N,07916.9397,W,1,8,1.8,11,M,,M,,*5F
05/31/2014	12:07:21.704	$GPGGA,120722,2506.3315,N,07916.9382,W,1,8,1.8,11,M,,M,,*59
05/31/2014	12:07:22.704	$GPGGA,120723,2506.3318,N,07916.9369,W,1,8,1.8,11,M,,M,,*50
05/31/2014	12:07:23.724	$GPGGA,120724,2506.3321,N,07916.9355,W,1,8,1.8,11,M,,M,,*52
05/31/2014	12:07:24.746	$GPGGA,120725,2506.3324,N,07916.9340,W,1,8,1.8,11,M,,M,,*52
05/31/2014	12:07:25.694	$GPGGA,120726,2506.3326,N,07916.9326,W,1,8,1.8,11,M,,M,,*53
05/31/2014	12:07:26.714	$GPGGA,120727,2506.3329,N,07916.9313,W,1,8,1.8,11,M,,M,,*5B
05/31/2014	12:07:27.713	$GPGGA,120728,2506.3331,N,07916.9299,W,1,8,1.8,11,M,,M,,*5E
05/31/2014	12:07:28.733	$GPGGA,120729,2506.3333,N,07916.9286,W,1,8,1.8,11,M,,M,,*53
05/31/2014	12:07:29.693	$GPGGA,120730,2506.3335,N,07916.9272,W,1,8,1.8,11,M,,M,,*56
05/31/2014	12:07:30.683	$GPGGA,120731,2506.3337,N,07916.9258,W,1,8,1.8,11,M,,M,,*5D
05/31/2014	12:07:31.703	$GPGGA,120732,2506.3340,N,07916.9244,W,1,8,1.8,11,M,,M,,*53
05/31/2014	12:07:32.704	$GPGGA,120733,2506.3342,N,07916.9230,W,1,8,1.8,11,M,,M,,*53
05/31/2014	12:07:33.804	$GPGGA,120734,2506.3344,N,07916.9216,W,1,8,1.8,10,M,,M,,*57
05/31/2014	12:07:34.684	$GPGGA,120735,2506.3347,N,07916.9202,W,1,8,1.8,10,M,,M,,*50
05/31/2014	12:07:35.704	$GPGGA,120736,2506.3349,N,07916.9188,W,1,8,1.8,10,M,,M,,*5C
05/31/2014	12:07:36.704	$GPGGA,120737,2506.3351,N,07916.9174,W,1,8,1.8,10,M,,M,,*57
05/31/2014	12:07:37.684	$GPGGA,120738,2506.3354,N,07916.9160,W,1,8,1.8,10,M,,M,,*58
05/31/2014	12:07:38.815	$GPGGA,120739,2506.3354,N,07916.9146,W,1,8,1.8,10,M,,M,,*5D
05/31/2014	12:07:39.694	$GPGGA,120740,2506.3358,N,07916.9131,W,1,8,1.8,10,M,,M,,*5F
05/31/2014	12:07:40.684	$GPGGA,120741,2506.3360,N,07916.9117,W,1,8,1.8,10,M,,M,,*51
05/31/2014	12:07:41.774	$GPGGA,120742,2506.3362,N,07916.9102,W,1,8,1.8,10,M,,M,,*54
05/31/2014	12:07:42.784	$GPGGA,120743,2506.3364,N,07916.9088,W,1,8,1.8,10,M,,M,,*50
05/31/2014	12:07:43.684	$GPGGA,120744,2506.3367,N,07916.9074,W,1,8,1.8,10,M,,M,,*57
05/31/2014	12:07:44.773	$GPGGA,120745,2506.3369,N,07916.9059,W,1,8,1.8,10,M,,M,,*57
05/31/2014	12:07:45.673	$GPGGA,120746,2506.3371,N,07916.9044,W,1,8,1.8,10,M,,M,,*51
05/31/2014	12:07:46.783	$GPGGA,120747,2506.3372,N,07916.9030,W,1,8,1.8,10,M,,M,,*50
05/31/2014	12:07:47.773	$GPGGA,120748,2506.3376,N,07916.9016,W,1,8,1.8,10,M,,M,,*5F
05/31/2014	12:07:48.773	$GPGGA,120749,2506.3376,N,07916.9001,W,1,8,1.8,10,M,,M,,*58
05/31/2014	12:07:49.764	$GPGGA,120750,2506.3379,N,07916.8987,W,1,8,1.8,10,M,,M,,*59
05/31/2014	12:07:50.784	$GPGGA,120751,2506.3382,N,07916.8972,W,1,8,1.8,11,M,,M,,*57
05/31/2014	12:07:51.764	$GPGGA,120752,2506.3383,N,07916.8957,W,1,8,1.8,11,M,,M,,*52
05/31/2014	12:07:52.764	$GPGGA,120753,2506.3383,N,07916.8943,W,1,8,1.8,11,M,,M,,*56
05/31/2014	12:07:53.744	$GPGGA,120754,2506.3387,N,07916.8929,W,1,8,1.8,11,M,,M,,*59
05/31/2014	12:07:54.764	$GPGGA,120755,2506.3389,N,07916.8915,W,1,8,1.8,11,M,,M,,*59
05/31/2014	12:07:55.754	$GPGGA,120756,2506.3388,N,07916.8900,W,1,8,1.8,11,M,,M,,*5F
05/31/2014	12:07:56.774	$GPGGA,120757,2506.3391,N,07916.8886,W,1,8,1.8,11,M,,M,,*59
05/31/2014	12:07:57.744	$GPGGA,120758,2506.3394,N,07916.8872,W,1,8,1.8,11,M,,M,,*58
05/31/2014	12:07:58.724	$GPGGA,120759,2506.3394,N,07916.8857,W,1,8,1.8,11,M,,M,,*5E
05/31/2014	12:07:59.764	$GPGGA,120800,2506.3396,N,07916.8843,W,1,8,1.8,11,M,,M,,*5A
05/31/2014	12:08:00.734	$GPGGA,120801,2506.3398,N,07916.8829,W,1,8,1.8,11,M,,M,,*59
05/31/2014	12:08:01.724	$GPGGA,120802,2506.3400,N,07916.8814,W,1,8,1.8,11,M,,M,,*52
05/31/2014	12:08:02.743	$GPGGA,120803,2506.3401,N,07916.8800,W,1,8,1.8,11,M,,M,,*57
05/31/2014	12:08:03.744	$GPGGA,120804,2506.3404,N,07916.8786,W,1,8,1.8,11,M,,M,,*54
05/31/2014	12:08:04.753	$GPGGA,120805,2506.3405,N,07916.8771,W,1,8,1.8,11,M,,M,,*5C
05/31/2014	12:08:05.723	$GPGGA,120806,2506.3407,N,07916.8757,W,1,8,1.8,11,M,,M,,*59
05/31/2014	12:08:06.784	$GPGGA,120807,2506.3409,N,07916.8743,W,1,8,1.8,11,M,,M,,*53
05/31/2014	12:08:07.734	$GPGGA,120808,2506.3409,N,07916.8729,W,1,8,1.8,11,M,,M,,*50
05/31/2014	12:08:08.744	$GPGGA,120809,2506.3411,N,07916.8714,W,1,8,1.8,11,M,,M,,*56
05/31/2014	12:08:09.724	$GPGGA,120810,2506.3414,N,07916.8701,W,1,8,1.8,11,M,,M,,*5F
05/31/2014	12:08:10.734	$GPGGA,120811,2506.3415,N,07916.8686,W,1,8,1.8,11,M,,M,,*51
05/31/2014	12:08:11.724	$GPGGA,120812,2506.3416,N,07916.8672,W,1,8,2.2,11,M,,M,,*53
05/31/2014	12:08:12.734	$GPGGA,120813,2506.3419,N,07916.8657,W,1,7,1.8,11,M,,M,,*5C
05/31/2014	12:08:13.714	$GPGGA,120814,2506.3423,N,07916.8642,W,1,7,1.8,11,M,,M,,*56
05/31/2014	12:08:14.694	$GPGGA,120815,2506.3426,N,07916.8627,W,1,8,1.8,11,M,,M,,*5E
05/31/2014	12:08:15.824	$GPGGA,120816,2506.3427,N,07916.8613,W,1,8,1.8,11,M,,M,,*5B
05/31/2014	12:08:16.691	$GPGGA,120817,2506.3430,N,07916.8598,W,1,8,1.8,11,M,,M,,*5C
05/31/2014	12:08:17.714	$GPGGA,120818,2506.3434,N,07916.8583,W,1,8,1.8,11,M,,M,,*5D
05/31/2014	12:08:18.725	$GPGGA,120819,2506.3434,N,07916.8570,W,1,7,1.8,11,M,,M,,*5F
05/31/2014	12:08:19.714	$GPGGA,120820,2506.3436,N,07916.8556,W,1,7,1.8,12,M,,M,,*50
05/31/2014	12:08:20.683	$GPGGA,120821,2506.3440,N,07916.8543,W,1,8,1.8,12,M,,M,,*5B
05/31/2014	12:08:21.773	$GPGGA,120822,2506.3441,N,07916.8528,W,1,8,1.8,12,M,,M,,*54
05/31/2014	12:08:22.673	$GPGGA,120823,2506.3444,N,07916.8513,W,1,8,1.8,12,M,,M,,*58
05/31/2014	12:08:23.803	$GPGGA,120824,2506.3445,N,07916.8499,W,1,8,1.8,12,M,,M,,*5D
05/31/2014	12:08:24.714	$GPGGA,120825,2506.3449,N,07916.8485,W,1,8,1.8,12,M,,M,,*5D
05/31/2014	12:08:25.684	$GPGGA,120826,2506.3451,N,07916.8470,W,1,8,1.8,12,M,,M,,*5D
05/31/2014	12:08:26.674	$GPGGA,120827,2506.3452,N,07916.8456,W,1,8,1.8,12,M,,M,,*5B
05/31/2014	12:08:27.714	$GPGGA,120828,2506.3455,N,07916.8442,W,1,8,1.8,12,M,,M,,*56
05/31/2014	12:08:28.694	$GPGGA,120829,2506.3458,N,07916.8428,W,1,8,1.8,12,M,,M,,*56
05/31/2014	12:08:29.764	$GPGGA,120830,2506.3459,N,07916.8414,W,1,8,1.8,12,M,,M,,*50
05/31/2014	12:08:30.764	$GPGGA,120831,2506.3462,N,07916.8400,W,1,8,1.8,12,M,,M,,*5C
05/31/2014	12:08:31.784	$GPGGA,120832,2506.3463,N,07916.8385,W,1,8,1.8,12,M,,M,,*54
05/31/2014	12:08:32.774	$GPGGA,120833,2506.3466,N,07916.8371,W,1,8,1.8,12,M,,M,,*5B
05/31/2014	12:08:33.764	$GPGGA,120834,2506.3469,N,07916.8357,W,1,8,1.8,12,M,,M,,*57
05/31/2014	12:08:34.794	$GPGGA,120835,2506.3472,N,07916.8344,W,1,8,1.8,12,M,,M,,*5E
05/31/2014	12:08:35.774	$GPGGA,120836,2506.3474,N,07916.8329,W,1,8,1.8,12,M,,M,,*50
05/31/2014	12:08:36.754	$GPGGA,120837,2506.3476,N,07916.8314,W,1,8,1.8,13,M,,M,,*5C
05/31/2014	12:08:37.763	$GPGGA,120838,2506.3479,N,07916.8300,W,1,8,1.8,13,M,,M,,*59
05/31/2014	12:08:38.773	$GPGGA,120839,2506.3483,N,07916.8285,W,1,8,1.8,13,M,,M,,*51
05/31/2014	12:08:39.763	$GPGGA,120840,2506.3485,N,07916.8271,W,1,8,1.8,13,M,,M,,*52
05/31/2014	12:08:40.753	$GPGGA,120841,2506.3487,N,07916.8257,W,1,7,1.8,13,M,,M,,*5A
05/31/2014	12:08:41.755	$GPGGA,120842,2506.3488,N,07916.8244,W,1,7,1.8,13,M,,M,,*54
05/31/2014	12:08:42.774	$GPGGA,120843,2506.3492,N,07916.8231,W,1,8,1.8,13,M,,M,,*53
05/31/2014	12:08:43.764	$GPGGA,120844,2506.3495,N,07916.8216,W,1,8,1.8,13,M,,M,,*56
05/31/2014	12:08:44.754	$GPGGA,120845,2506.3497,N,07916.8202,W,1,7,1.8,13,M,,M,,*5F
05/31/2014	12:08:45.724	$GPGGA,120846,2506.3499,N,07916.8189,W,1,7,1.8,13,M,,M,,*52
05/31/2014	12:08:46.724	$GPGGA,120847,2506.3503,N,07916.8175,W,1,8,1.8,13,M,,M,,*5D
05/31/2014	12:08:47.734	$GPGGA,120848,2506.3505,N,07916.8161,W,1,8,1.8,13,M,,M,,*51
05/31/2014	12:08:48.758	$GPGGA,120849,2506.3506,N,07916.8147,W,1,8,1.8,13,M,,M,,*57
05/31/2014	12:08:49.714	$GPGGA,120850,2506.3510,N,07916.8134,W,1,8,1.8,13,M,,M,,*5C
05/31/2014	12:08:50.744	$GPGGA,120851,2506.3513,N,07916.8119,W,1,8,1.8,13,M,,M,,*51
05/31/2014	12:08:51.734	$GPGGA,120852,2506.3514,N,07916.8104,W,1,8,1.8,13,M,,M,,*59
05/31/2014	12:08:52.755	$GPGGA,120853,2506.3517,N,07916.8090,W,1,8,1.8,13,M,,M,,*57
05/31/2014	12:08:53.714	$GPGGA,120854,2506.3521,N,07916.8076,W,1,8,1.8,13,M,,M,,*5D
05/31/2014	12:08:54.713	$GPGGA,120855,2506.3524,N,07916.8062,W,1,8,1.8,14,M,,M,,*5B
05/31/2014	12:08:55.723	$GPGGA,120856,2506.3524,N,07916.8048,W,1,8,1.8,14,M,,M,,*50
05/31/2014	12:08:56.713	$GPGGA,120857,2506.3527,N,07916.8034,W,1,8,1.8,14,M,,M,,*59
05/31/2014	12:08:57.723	$GPGGA,120858,2506.3531,N,07916.8020,W,1,8,1.8,14,M,,M,,*54
05/31/2014	12:08:58.723	$GPGGA,120859,2506.3532,N,07916.8007,W,1,8,1.8,14,M,,M,,*53
05/31/2014	12:08:59.724	$GPGGA,120900,2506.3535,N,07916.7993,W,1,8,1.8,14,M,,M,,*52
05/31/2014	12:09:00.714	$GPGGA,120901,2506.3538,N,07916.7979,W,1,8,1.8,14,M,,M,,*5A
05/31/2014	12:09:01.694	$GPGGA,120902,2506.3541,N,07916.7965,W,1,8,1.8,14,M,,M,,*5A
05/31/2014	12:09:02.724	$GPGGA,120903,2506.3542,N,07916.7950,W,1,8,1.8,14,M,,M,,*5E
05/31/2014	12:09:03.714	$GPGGA,120904,2506.3546,N,07916.7936,W,1,8,1.8,14,M,,M,,*5D
05/31/2014	12:09:04.704	$GPGGA,120905,2506.3549,N,07916.7923,W,1,8,1.8,14,M,,M,,*57
05/31/2014	12:09:05.684	$GPGGA,120906,2506.3549,N,07916.7911,W,1,8,1.8,14,M,,M,,*55
05/31/2014	12:09:06.704	$GPGGA,120907,2506.3552,N,07916.7897,W,1,8,1.8,14,M,,M,,*51
05/31/2014	12:09:07.705	$GPGGA,120908,2506.3553,N,07916.7884,W,1,8,1.8,14,M,,M,,*5D
05/31/2014	12:09:08.694	$GPGGA,120909,2506.3557,N,07916.7870,W,1,8,1.8,14,M,,M,,*53
05/31/2014	12:09:09.694	$GPGGA,120910,2506.3559,N,07916.7856,W,1,8,1.8,14,M,,M,,*51
05/31/2014	12:09:10.784	$GPGGA,120911,2506.3560,N,07916.7843,W,1,8,1.8,14,M,,M,,*5E
05/31/2014	12:09:11.704	$GPGGA,120912,2506.3563,N,07916.7829,W,1,8,1.8,14,M,,M,,*52
05/31/2014	12:09:12.683	$GPGGA,120913,2506.3564,N,07916.7815,W,1,8,1.8,14,M,,M,,*5B
05/31/2014	12:09:13.763	$GPGGA,120914,2506.3566,N,07916.7800,W,1,8,1.8,14,M,,M,,*5A
05/31/2014	12:09:14.773	$GPGGA,120915,2506.3568,N,07916.7786,W,1,8,1.8,14,M,,M,,*54
05/31/2014	12:09:15.693	$GPGGA,120916,2506.3571,N,07916.7772,W,1,8,1.8,14,M,,M,,*54
05/31/2014	12:09:16.784	$GPGGA,120917,2506.3573,N,07916.7758,W,1,8,1.8,14,M,,M,,*5F
05/31/2014	12:09:17.764	$GPGGA,120918,2506.3574,N,07916.7743,W,1,8,1.8,14,M,,M,,*5D
05/31/2014	12:09:18.794	$GPGGA,120919,2506.3577,N,07916.7729,W,1,8,1.8,14,M,,M,,*53
05/31/2014	12:09:19.764	$GPGGA,120920,2506.3578,N,07916.7715,W,1,8,1.8,13,M,,M,,*5E
05/31/2014	12:09:20.764	$GPGGA,120921,2506.3581,N,07916.7700,W,1,8,1.8,13,M,,M,,*5D
05/31/2014	12:09:21.764	$GPGGA,120922,2506.3582,N,07916.7686,W,1,8,1.8,13,M,,M,,*52
05/31/2014	12:09:22.774	$GPGGA,120923,2506.3584,N,07916.7672,W,1,8,1.8,13,M,,M,,*5E
05/31/2014	12:09:23.760	$GPGGA,120924,2506.3588,N,07916.7657,W,1,8,1.8,13,M,,M,,*52
05/31/2014	12:09:24.754	$GPGGA,120925,2506.3589,N,07916.7643,W,1,8,1.8,13,M,,M,,*57
05/31/2014	12:09:25.754	$GPGGA,120926,2506.3589,N,07916.7629,W,1,8,1.8,13,M,,M,,*58
05/31/2014	12:09:26.754	$GPGGA,120927,2506.3592,N,07916.7614,W,1,8,1.8,13,M,,M,,*5D
05/31/2014	12:09:27.754	$GPGGA,120928,2506.3595,N,07916.7600,W,1,8,1.8,13,M,,M,,*50
05/31/2014	12:09:28.756	$GPGGA,120929,2506.3596,N,07916.7586,W,1,8,1.8,13,M,,M,,*5F
05/31/2014	12:09:29.733	$GPGGA,120930,2506.3597,N,07916.7571,W,1,8,1.8,13,M,,M,,*5E
05/31/2014	12:09:30.753	$GPGGA,120931,2506.3600,N,07916.7557,W,1,8,1.8,13,M,,M,,*56
05/31/2014	12:09:31.753	$GPGGA,120932,2506.3603,N,07916.7543,W,1,8,1.8,13,M,,M,,*53
05/31/2014	12:09:32.723	$GPGGA,120933,2506.3604,N,07916.7529,W,1,8,1.8,13,M,,M,,*59
05/31/2014	12:09:33.723	$GPGGA,120934,2506.3606,N,07916.7514,W,1,8,1.8,13,M,,M,,*52
05/31/2014	12:09:34.754	$GPGGA,120935,2506.3607,N,07916.7500,W,1,8,1.8,13,M,,M,,*57
05/31/2014	12:09:35.744	$GPGGA,120936,2506.3610,N,07916.7485,W,1,8,1.8,13,M,,M,,*5E
05/31/2014	12:09:36.754	$GPGGA,120937,2506.3611,N,07916.7470,W,1,8,1.8,13,M,,M,,*54
05/31/2014	12:09:37.734	$GPGGA,120938,2506.3613,N,07916.7455,W,1,8,1.8,13,M,,M,,*5E
05/31/2014	12:09:38.714	$GPGGA,120939,2506.3615,N,07916.7441,W,1,8,1.8,13,M,,M,,*5C
05/31/2014	12:09:39.734	$GPGGA,120940,2506.3617,N,07916.7426,W,1,8,1.8,13,M,,M,,*51
05/31/2014	12:09:40.754	$GPGGA,120941,2506.3616,N,07916.7411,W,1,8,1.8,13,M,,M,,*55
05/31/2014	12:09:41.724	$GPGGA,120942,2506.3618,N,07916.7398,W,1,8,2.2,13,M,,M,,*57
05/31/2014	12:09:42.754	$GPGGA,120943,2506.3622,N,07916.7383,W,1,8,1.8,13,M,,M,,*5C
05/31/2014	12:09:43.734	$GPGGA,120944,2506.3624,N,07916.7368,W,1,8,1.8,13,M,,M,,*58
05/31/2014	12:09:44.749	$GPGGA,120945,2506.3625,N,07916.7354,W,1,8,1.8,13,M,,M,,*57
05/31/2014	12:09:45.714	$GPGGA,120946,2506.3626,N,07916.7340,W,1,8,1.8,13,M,,M,,*52
05/31/2014	12:09:46.714	$GPGGA,120947,2506.3629,N,07916.7325,W,1,8,1.8,13,M,,M,,*5F
05/31/2014	12:09:47.723	$GPGGA,120948,2506.3629,N,07916.7311,W,1,8,1.8,13,M,,M,,*57
05/31/2014	12:09:48.813	$GPGGA,120949,2506.3633,N,07916.7297,W,1,8,1.8,13,M,,M,,*52
05/31/2014	12:09:49.694	$GPGGA,120950,2506.3635,N,07916.7282,W,1,8,1.8,13,M,,M,,*58
05/31/2014	12:09:50.703	$GPGGA,120951,2506.3636,N,07916.7268,W,1,8,1.8,13,M,,M,,*5E
05/31/2014	12:09:51.824	$GPGGA,120952,2506.3639,N,07916.7253,W,1,8,1.8,13,M,,M,,*5A
05/31/2014	12:09:52.684	$GPGGA,120953,2506.3643,N,07916.7239,W,1,8,1.8,13,M,,M,,*5A
05/31/2014	12:09:53.804	$GPGGA,120954,2506.3644,N,07916.7223,W,1,8,1.8,13,M,,M,,*51
05/31/2014	12:09:54.804	$GPGGA,120955,2506.3647,N,07916.7209,W,1,8,1.8,13,M,,M,,*5B
05/31/2014	12:09:55.714	$GPGGA,120956,2506.3650,N,07916.7195,W,1,8,1.8,13,M,,M,,*58
05/31/2014	12:09:56.694	$GPGGA,120957,2506.3653,N,07916.7180,W,1,8,1.8,13,M,,M,,*5E
05/31/2014	12:09:57.674	$GPGGA,120958,2506.3654,N,07916.7166,W,1,8,1.8,13,M,,M,,*5E
05/31/2014	12:09:58.774	$GPGGA,120959,2506.3657,N,07916.7151,W,1,8,1.8,13,M,,M,,*58
05/31/2014	12:09:59.714	$GPGGA,121000,2506.3660,N,07916.7137,W,1,8,1.8,13,M,,M,,*58
05/31/2014	12:10:00.774	$GPGGA,121001,2506.3664,N,07916.7123,W,1,8,1.8,13,M,,M,,*58
05/31/2014	12:10:01.684	$GPGGA,121002,2506.3665,N,07916.7109,W,1,8,1.8,13,M,,M,,*52
05/31/2014	12:10:02.764	$GPGGA,121003,2506.3668,N,07916.7095,W,1,8,1.8,13,M,,M,,*5A
05/31/2014	12:10:03.794	$GPGGA,121004,2506.3671,N,07916.7080,W,1,8,1.8,13,M,,M,,*51
05/31/2014	12:10:04.773	$GPGGA,121005,2506.3674,N,07916.7066,W,1,8,1.8,13,M,,M,,*5D
05/31/2014	12:10:05.773	$GPGGA,121006,2506.3676,N,07916.7053,W,1,8,1.8,13,M,,M,,*5A
05/31/2014	12:10:06.763	$GPGGA,121007,2506.3679,N,07916.7038,W,1,8,1.8,13,M,,M,,*59
05/31/2014	12:10:07.773	$GPGGA,121008,2506.3680,N,07916.7024,W,1,8,1.8,13,M,,M,,*5D
05/31/2014	12:10:08.793	$GPGGA,121009,2506.3685,N,07916.7010,W,1,8,1.8,13,M,,M,,*5E
05/31/2014	12:10:09.754	$GPGGA,121010,2506.3687,N,07916.6996,W,1,8,1.8,13,M,,M,,*52
05/31/2014	12:10:10.784	$GPGGA,121011,2506.3690,N,07916.6982,W,1,8,1.8,13,M,,M,,*50
05/31/2014	12:10:11.774	$GPGGA,121012,2506.3693,N,07916.6968,W,1,8,1.8,13,M,,M,,*54
05/31/2014	12:10:12.774	$GPGGA,121013,2506.3694,N,07916.6953,W,1,8,1.8,13,M,,M,,*5A
05/31/2014	12:10:13.744	$GPGGA,121014,2506.3698,N,07916.6940,W,1,8,1.8,13,M,,M,,*53
05/31/2014	12:10:14.744	$GPGGA,121015,2506.3701,N,07916.6926,W,1,8,1.8,13,M,,M,,*53
05/31/2014	12:10:15.754	$GPGGA,121016,2506.3704,N,07916.6912,W,1,8,1.8,13,M,,M,,*52
05/31/2014	12:10:16.754	$GPGGA,121017,2506.3705,N,07916.6898,W,1,8,1.8,13,M,,M,,*51
05/31/2014	12:10:17.734	$GPGGA,121018,2506.3708,N,07916.6884,W,1,8,1.8,13,M,,M,,*5E
05/31/2014	12:10:18.764	$GPGGA,121019,2506.3712,N,07916.6870,W,1,8,1.8,13,M,,M,,*5F
05/31/2014	12:10:19.754	$GPGGA,121020,2506.3715,N,07916.6856,W,1,8,1.8,13,M,,M,,*56
05/31/2014	12:10:20.744	$GPGGA,121021,2506.3718,N,07916.6842,W,1,8,1.8,13,M,,M,,*5F
05/31/2014	12:10:21.735	$GPGGA,121022,2506.3721,N,07916.6828,W,1,8,1.8,13,M,,M,,*5A
05/31/2014	12:10:22.743	$GPGGA,121023,2506.3723,N,07916.6814,W,1,8,1.8,13,M,,M,,*56
05/31/2014	12:10:23.743	$GPGGA,121024,2506.3726,N,07916.6799,W,1,8,1.8,13,M,,M,,*5E
05/31/2014	12:10:24.763	$GPGGA,121025,2506.3729,N,07916.6785,W,1,8,1.8,13,M,,M,,*5D
05/31/2014	12:10:25.713	$GPGGA,121026,2506.3730,N,07916.6771,W,1,8,1.8,13,M,,M,,*5D
05/31/2014	12:10:26.755	$GPGGA,121027,2506.3733,N,07916.6757,W,1,7,1.8,13,M,,M,,*54
05/31/2014	12:10:27.723	$GPGGA,121028,2506.3737,N,07916.6743,W,1,7,1.8,13,M,,M,,*5A
05/31/2014	12:10:28.693	$GPGGA,121029,2506.3740,N,07916.6728,W,1,8,1.8,13,M,,M,,*59
05/31/2014	12:10:29.713	$GPGGA,121030,2506.3741,N,07916.6715,W,1,8,1.8,13,M,,M,,*5E
05/31/2014	12:10:30.733	$GPGGA,121031,2506.3743,N,07916.6702,W,1,8,1.8,13,M,,M,,*5B
05/31/2014	12:10:31.713	$GPGGA,121032,2506.3745,N,07916.6688,W,1,8,1.8,13,M,,M,,*5D
05/31/2014	12:10:32.693	$GPGGA,121033,2506.3748,N,07916.6673,W,1,8,1.8,13,M,,M,,*55
05/31/2014	12:10:33.693	$GPGGA,121034,2506.3750,N,07916.6660,W,1,8,1.8,13,M,,M,,*59
05/31/2014	12:10:34.873	$GPGGA,121035,2506.3752,N,07916.6646,W,1,8,1.8,13,M,,M,,*5E
05/31/2014	12:10:35.703	$GPGGA,121036,2506.3755,N,07916.6631,W,1,8,1.8,13,M,,M,,*5A
05/31/2014	12:10:36.833	$GPGGA,121037,2506.3756,N,07916.6617,W,1,8,1.8,13,M,,M,,*5C
05/31/2014	12:10:37.693	$GPGGA,121038,2506.3759,N,07916.6603,W,1,8,1.8,13,M,,M,,*59
05/31/2014	12:10:38.863	$GPGGA,121039,2506.3762,N,07916.6589,W,1,8,1.8,13,M,,M,,*51
05/31/2014	12:10:39.702	$GPGGA,121040,2506.3763,N,07916.6575,W,1,8,1.8,13,M,,M,,*5D
05/31/2014	12:10:40.692	$GPGGA,121041,2506.3766,N,07916.6561,W,1,8,1.8,13,M,,M,,*5C
05/31/2014	12:10:41.672	$GPGGA,121042,2506.3768,N,07916.6547,W,1,8,1.8,13,M,,M,,*55
05/31/2014	12:10:42.692	$GPGGA,121043,2506.3770,N,07916.6533,W,1,8,1.8,13,M,,M,,*5E
05/31/2014	12:10:43.682	$GPGGA,121044,2506.3773,N,07916.6519,W,1,8,1.8,13,M,,M,,*52
05/31/2014	12:10:44.663	$GPGGA,121045,2506.3776,N,07916.6504,W,1,8,1.8,13,M,,M,,*5A
05/31/2014	12:10:45.773	$GPGGA,121046,2506.3777,N,07916.6490,W,1,8,1.8,13,M,,M,,*54
05/31/2014	12:10:46.763	$GPGGA,121047,2506.3780,N,07916.6476,W,1,8,1.8,13,M,,M,,*55
05/31/2014	12:10:47.813	$GPGGA,121048,2506.3783,N,07916.6463,W,1,8,1.8,13,M,,M,,*5D
05/31/2014	12:10:48.683	$GPGGA,121049,2506.3784,N,07916.6448,W,1,8,1.8,13,M,,M,,*52
05/31/2014	12:10:49.753	$GPGGA,121050,2506.3786,N,07916.6434,W,1,8,1.8,13,M,,M,,*53
05/31/2014	12:10:50.853	$GPGGA,121051,2506.3788,N,07916.6420,W,1,8,1.8,13,M,,M,,*59
05/31/2014	12:10:51.813	$GPGGA,121052,2506.3791,N,07916.6406,W,1,8,1.8,13,M,,M,,*56
05/31/2014	12:10:52.843	$GPGGA,121053,2506.3794,N,07916.6393,W,1,8,1.8,13,M,,M,,*59
05/31/2014	12:10:53.773	$GPGGA,121054,2506.3795,N,07916.6379,W,1,8,1.8,13,M,,M,,*5B
05/31/2014	12:10:54.843	$GPGGA,121055,2506.3797,N,07916.6365,W,1,8,1.8,13,M,,M,,*55
05/31/2014	12:10:55.783	$GPGGA,121056,2506.3799,N,07916.6351,W,1,8,1.8,13,M,,M,,*5F
05/31/2014	12:10:56.844	$GPGGA,121057,2506.3802,N,07916.6337,W,1,8,1.8,13,M,,M,,*53
05/31/2014	12:10:57.762	$GPGGA,121058,2506.3803,N,07916.6323,W,1,8,1.8,13,M,,M,,*58
05/31/2014	12:10:58.842	$GPGGA,121059,2506.3806,N,07916.6309,W,1,8,1.8,13,M,,M,,*54
05/31/2014	12:10:59.782	$GPGGA,121100,2506.3809,N,07916.6295,W,1,8,1.8,13,M,,M,,*52
05/31/2014	12:11:00.842	$GPGGA,121101,2506.3810,N,07916.6281,W,1,8,1.8,13,M,,M,,*5E
05/31/2014	12:11:01.762	$GPGGA,121102,2506.3813,N,07916.6267,W,1,8,1.8,13,M,,M,,*56
05/31/2014	12:11:02.843	$GPGGA,121103,2506.3815,N,07916.6252,W,1,8,1.8,13,M,,M,,*57
05/31/2014	12:11:03.783	$GPGGA,121104,2506.3817,N,07916.6238,W,1,8,1.8,13,M,,M,,*5E
05/31/2014	12:11:04.843	$GPGGA,121105,2506.3819,N,07916.6224,W,1,8,1.8,13,M,,M,,*5C
05/31/2014	12:11:05.753	$GPGGA,121106,2506.3820,N,07916.6210,W,1,8,1.8,13,M,,M,,*52
05/31/2014	12:11:06.813	$GPGGA,121107,2506.3823,N,07916.6195,W,1,8,1.8,13,M,,M,,*5E
05/31/2014	12:11:07.763	$GPGGA,121108,2506.3824,N,07916.6181,W,1,8,1.8,13,M,,M,,*53
05/31/2014	12:11:08.833	$GPGGA,121109,2506.3827,N,07916.6167,W,1,8,1.8,13,M,,M,,*59
05/31/2014	12:11:09.713	$GPGGA,121110,2506.3828,N,07916.6153,W,1,8,1.8,13,M,,M,,*59
05/31/2014	12:11:10.833	$GPGGA,121111,2506.3831,N,07916.6139,W,1,8,1.8,13,M,,M,,*5C
05/31/2014	12:11:11.753	$GPGGA,121112,2506.3834,N,07916.6125,W,1,8,1.8,13,M,,M,,*57
05/31/2014	12:11:12.703	$GPGGA,121113,2506.3835,N,07916.6111,W,1,8,1.8,13,M,,M,,*50
05/31/2014	12:11:13.744	$GPGGA,121114,2506.3837,N,07916.6096,W,1,8,1.8,13,M,,M,,*5B
05/31/2014	12:11:14.772	$GPGGA,121115,2506.3839,N,07916.6082,W,1,8,1.8,13,M,,M,,*51
05/31/2014	12:11:15.712	$GPGGA,121116,2506.3842,N,07916.6068,W,1,8,1.8,13,M,,M,,*5A
05/31/2014	12:11:16.792	$GPGGA,121117,2506.3842,N,07916.6054,W,1,8,1.8,13,M,,M,,*54
05/31/2014	12:11:17.702	$GPGGA,121118,2506.3845,N,07916.6040,W,1,8,1.8,13,M,,M,,*59
05/31/2014	12:11:18.802	$GPGGA,121119,2506.3848,N,07916.6025,W,1,8,1.8,13,M,,M,,*56
05/31/2014	12:11:19.713	$GPGGA,121120,2506.3849,N,07916.6011,W,1,8,1.8,13,M,,M,,*5A
05/31/2014	12:11:20.693	$GPGGA,121121,2506.3852,N,07916.5996,W,1,8,1.8,13,M,,M,,*54
05/31/2014	12:11:21.723	$GPGGA,121122,2506.3853,N,07916.5982,W,1,8,1.8,13,M,,M,,*53
05/31/2014	12:11:22.763	$GPGGA,121123,2506.3856,N,07916.5967,W,1,8,1.8,13,M,,M,,*5C
05/31/2014	12:11:23.723	$GPGGA,121124,2506.3859,N,07916.5953,W,1,8,1.8,13,M,,M,,*53
05/31/2014	12:11:24.793	$GPGGA,121125,2506.3860,N,07916.5939,W,1,8,1.8,13,M,,M,,*54
05/31/2014	12:11:25.713	$GPGGA,121126,2506.3863,N,07916.5924,W,1,8,1.8,13,M,,M,,*58
05/31/2014	12:11:26.763	$GPGGA,121127,2506.3864,N,07916.5910,W,1,8,1.8,13,M,,M,,*59
05/31/2014	12:11:27.725	$GPGGA,121128,2506.3867,N,07916.5896,W,1,8,1.8,13,M,,M,,*5A
05/31/2014	12:11:28.814	$GPGGA,121129,2506.3870,N,07916.5881,W,1,8,1.8,13,M,,M,,*5B
05/31/2014	12:11:29.783	$GPGGA,121130,2506.3871,N,07916.5866,W,1,8,1.8,13,M,,M,,*5B
05/31/2014	12:11:30.753	$GPGGA,121131,2506.3875,N,07916.5852,W,1,8,1.8,13,M,,M,,*59
05/31/2014	12:11:31.673	$GPGGA,121132,2506.3877,N,07916.5838,W,1,8,1.8,13,M,,M,,*54
05/31/2014	12:11:32.662	$GPGGA,121133,2506.3880,N,07916.5823,W,1,8,1.8,13,M,,M,,*57
05/31/2014	12:11:33.762	$GPGGA,121134,2506.3882,N,07916.5809,W,1,8,1.8,13,M,,M,,*5A
05/31/2014	12:11:34.772	$GPGGA,121135,2506.3885,N,07916.5795,W,1,8,1.8,13,M,,M,,*56
05/31/2014	12:11:35.782	$GPGGA,121136,2506.3886,N,07916.5780,W,1,8,1.8,13,M,,M,,*52
05/31/2014	12:11:36.744	$GPGGA,121137,2506.3889,N,07916.5766,W,1,8,1.8,14,M,,M,,*53
05/31/2014	12:11:37.753	$GPGGA,121138,2506.3892,N,07916.5752,W,1,8,1.8,14,M,,M,,*51
05/31/2014	12:11:38.793	$GPGGA,121139,2506.3896,N,07916.5737,W,1,8,1.8,14,M,,M,,*57
05/31/2014	12:11:39.773	$GPGGA,121140,2506.3898,N,07916.5724,W,1,8,1.8,14,M,,M,,*55
05/31/2014	12:11:40.793	$GPGGA,121141,2506.3900,N,07916.5710,W,1,8,1.8,14,M,,M,,*53
05/31/2014	12:11:41.743	$GPGGA,121142,2506.3902,N,07916.5696,W,1,8,1.8,14,M,,M,,*5D
05/31/2014	12:11:42.773	$GPGGA,121143,2506.3904,N,07916.5682,W,1,8,1.8,14,M,,M,,*5F
05/31/2014	12:11:43.763	$GPGGA,121144,2506.3907,N,07916.5669,W,1,8,1.8,14,M,,M,,*5E
05/31/2014	12:11:44.753	$GPGGA,121145,2506.3910,N,07916.5656,W,1,8,1.8,14,M,,M,,*55
05/31/2014	12:11:45.743	$GPGGA,121146,2506.3911,N,07916.5642,W,1,8,1.8,14,M,,M,,*52
05/31/2014	12:11:46.763	$GPGGA,121147,2506.3914,N,07916.5629,W,1,8,1.8,14,M,,M,,*5B
05/31/2014	12:11:47.753	$GPGGA,121148,2506.3918,N,07916.5615,W,1,8,1.8,14,M,,M,,*57
