Software Version Number: 1	Data File Format Number: 1	Build Version Number: 1	Error Count Since VI Started: 0	Manufacturer: Raytheon	 Model Number: RayMarine 120	 S/N: 	 Cal Date: 	 Wind Direction Offset: 0.00	 Slope (M)1: 0.00	 Offset (B)1: 0.00	 Slope (M)2: 0.00	 Offset (B)2: 0.00	 Slope (M)3: 0.00	 Offset (B)3: 0.00	 Slope (M)4: 0.00	 Offset (B)4: 0.00	 Slope (M)5: 0.00	 Offset (B)5: 0.00	 Slope (M)6: 0.00	 Offset (B)6: 0.00
Computer Date	Computer Time	GGA String
06/11/2014	17:00:00.817	$GPGGA,170010,2526.2478,N,07959.2968,W,1,9,2.4,23,M,,M,,*54
06/11/2014	17:00:01.839	$GPGGA,170011,2526.2484,N,07959.2940,W,1,9,2.4,23,M,,M,,*5C
06/11/2014	17:00:02.831	$GPGGA,170012,2526.2489,N,07959.2913,W,1,9,2.4,23,M,,M,,*54
06/11/2014	17:00:03.814	$GPGGA,170013,2526.2492,N,07959.2888,W,1,9,2.4,22,M,,M,,*5D
06/11/2014	17:00:04.817	$GPGGA,170014,2526.2496,N,07959.2862,W,1,9,1.6,22,M,,M,,*5B
06/11/2014	17:00:05.819	$GPGGA,170015,2526.2500,N,07959.2834,W,1,9,1.6,22,M,,M,,*57
06/11/2014	17:00:06.842	$GPGGA,170016,2526.2504,N,07959.2806,W,1,9,2.8,22,M,,M,,*5C
06/11/2014	17:00:07.844	$GPGGA,170017,2526.2507,N,07959.2778,W,1,9,1.6,22,M,,M,,*55
06/11/2014	17:00:08.817	$GPGGA,170018,2526.2513,N,07959.2754,W,1,9,2.4,22,M,,M,,*50
06/11/2014	17:00:09.860	$GPGGA,170019,2526.2515,N,07959.2728,W,1,10,1.5,22,M,,M,,*66
06/11/2014	17:00:10.822	$GPGGA,170020,2526.2520,N,07959.2702,W,1,10,2.4,22,M,,M,,*60
06/11/2014	17:00:11.855	$GPGGA,170021,2526.2524,N,07959.2675,W,1,9,2.4,22,M,,M,,*5C
06/11/2014	17:00:12.827	$GPGGA,170022,2526.2528,N,07959.2650,W,1,9,2.4,22,M,,M,,*54
06/11/2014	17:00:13.830	$GPGGA,170023,2526.2531,N,07959.2625,W,1,9,2.4,22,M,,M,,*5F
06/11/2014	17:00:14.863	$GPGGA,170024,2526.2532,N,07959.2601,W,1,9,1.5,22,M,,M,,*5F
06/11/2014	17:00:15.856	$GPGGA,170025,2526.2533,N,07959.2577,W,1,10,1.5,21,M,,M,,*66
06/11/2014	17:00:16.838	$GPGGA,170026,2526.2536,N,07959.2554,W,1,10,1.5,21,M,,M,,*61
06/11/2014	17:00:17.961	$GPGGA,170027,2526.2538,N,07959.2529,W,1,9,1.7,21,M,,M,,*5E
06/11/2014	17:00:18.843	$GPGGA,170028,2526.2540,N,07959.2505,W,1,9,1.5,21,M,,M,,*52
06/11/2014	17:00:19.834	$GPGGA,170029,2526.2542,N,07959.2481,W,1,10,1.5,21,M,,M,,*64
06/11/2014	17:00:20.830	$GPGGA,170030,2526.2543,N,07959.2457,W,1,10,1.5,21,M,,M,,*66
06/11/2014	17:00:21.940	$GPGGA,170031,2526.2546,N,07959.2433,W,1,9,1.7,21,M,,M,,*5A
06/11/2014	17:00:22.842	$GPGGA,170032,2526.2547,N,07959.2408,W,1,9,1.7,21,M,,M,,*50
06/11/2014	17:00:23.845	$GPGGA,170033,2526.2549,N,07959.2382,W,1,8,2.7,21,M,,M,,*58
06/11/2014	17:00:24.817	$GPGGA,170034,2526.2550,N,07959.2356,W,1,8,1.5,21,M,,M,,*5F
06/11/2014	17:00:25.820	$GPGGA,170035,2526.2551,N,07959.2331,W,1,10,1.5,21,M,,M,,*67
06/11/2014	17:00:26.835	$GPGGA,170036,2526.2551,N,07959.2310,W,1,10,2.4,21,M,,M,,*65
06/11/2014	17:00:27.875	$GPGGA,170037,2526.2551,N,07959.2282,W,1,10,1.5,21,M,,M,,*6C
06/11/2014	17:00:28.818	$GPGGA,170038,2526.2554,N,07959.2255,W,1,10,1.5,21,M,,M,,*6C
06/11/2014	17:00:29.951	$GPGGA,170039,2526.2554,N,07959.2228,W,1,10,1.5,21,M,,M,,*67
06/11/2014	17:00:30.854	$GPGGA,170040,2526.2556,N,07959.2202,W,1,10,1.5,21,M,,M,,*63
06/11/2014	17:00:31.926	$GPGGA,170041,2526.2555,N,07959.2176,W,1,10,1.5,21,M,,M,,*61
06/11/2014	17:00:32.828	$GPGGA,170042,2526.2556,N,07959.2152,W,1,10,1.5,21,M,,M,,*67
06/11/2014	17:00:33.961	$GPGGA,170043,2526.2557,N,07959.2128,W,1,10,1.5,21,M,,M,,*6A
06/11/2014	17:00:34.934	$GPGGA,170044,2526.2556,N,07959.2105,W,1,10,1.5,21,M,,M,,*63
06/11/2014	17:00:35.794	$GPGGA,170045,2526.2557,N,07959.2082,W,1,10,1.5,21,M,,M,,*6D
06/11/2014	17:00:36.774	$GPGGA,170046,2526.2555,N,07959.2060,W,1,10,1.5,21,M,,M,,*60
06/11/2014	17:00:37.817	$GPGGA,170047,2526.2556,N,07959.2039,W,1,10,1.5,21,M,,M,,*6E
06/11/2014	17:00:38.799	$GPGGA,170048,2526.2552,N,07959.2025,W,1,10,2.4,21,M,,M,,*6A
06/11/2014	17:00:39.782	$GPGGA,170049,2526.2551,N,07959.2004,W,1,10,1.5,21,M,,M,,*69
06/11/2014	17:00:40.774	$GPGGA,170050,2526.2549,N,07959.1986,W,1,10,2.4,21,M,,M,,*6A
06/11/2014	17:00:41.787	$GPGGA,170051,2526.2547,N,07959.1969,W,1,10,1.5,21,M,,M,,*66
06/11/2014	17:00:42.789	$GPGGA,170052,2526.2544,N,07959.1952,W,1,10,1.5,21,M,,M,,*6E
06/11/2014	17:00:43.802	$GPGGA,170053,2526.2541,N,07959.1934,W,1,10,1.4,21,M,,M,,*6B
06/11/2014	17:00:44.785	$GPGGA,170054,2526.2538,N,07959.1916,W,1,10,1.4,21,M,,M,,*62
06/11/2014	17:00:45.787	$GPGGA,170055,2526.2536,N,07959.1900,W,1,10,1.4,21,M,,M,,*6A
06/11/2014	17:00:46.800	$GPGGA,170056,2526.2533,N,07959.1883,W,1,10,1.4,21,M,,M,,*66
06/11/2014	17:00:47.802	$GPGGA,170057,2526.2529,N,07959.1867,W,1,10,1.4,21,M,,M,,*66
06/11/2014	17:00:48.775	$GPGGA,170058,2526.2525,N,07959.1852,W,1,10,1.4,21,M,,M,,*63
06/11/2014	17:00:49.778	$GPGGA,170059,2526.2522,N,07959.1838,W,1,10,1.4,21,M,,M,,*69
06/11/2014	17:00:50.810	$GPGGA,170100,2526.2518,N,07959.1824,W,1,10,1.4,21,M,,M,,*60
06/11/2014	17:00:51.783	$GPGGA,170101,2526.2512,N,07959.1811,W,1,10,1.4,21,M,,M,,*6D
06/11/2014	17:00:52.775	$GPGGA,170102,2526.2507,N,07959.1799,W,1,10,1.4,21,M,,M,,*65
06/11/2014	17:00:53.818	$GPGGA,170103,2526.2502,N,07959.1787,W,1,10,1.4,21,M,,M,,*6E
06/11/2014	17:00:54.790	$GPGGA,170104,2526.2497,N,07959.1776,W,1,10,1.4,21,M,,M,,*6A
06/11/2014	17:00:55.782	$GPGGA,170105,2526.2493,N,07959.1767,W,1,10,1.4,21,M,,M,,*6F
06/11/2014	17:00:56.785	$GPGGA,170106,2526.2487,N,07959.1757,W,1,10,1.4,21,M,,M,,*6A
06/11/2014	17:00:57.817	$GPGGA,170107,2526.2482,N,07959.1749,W,1,10,1.4,21,M,,M,,*61
06/11/2014	17:00:58.800	$GPGGA,170108,2526.2475,N,07959.1742,W,1,10,1.4,21,M,,M,,*6D
06/11/2014	17:00:59.823	$GPGGA,170109,2526.2468,N,07959.1735,W,1,10,1.4,21,M,,M,,*60
06/11/2014	17:01:00.775	$GPGGA,170110,2526.2461,N,07959.1730,W,1,10,1.4,21,M,,M,,*64
06/11/2014	17:01:01.788	$GPGGA,170111,2526.2455,N,07959.1725,W,1,10,1.4,21,M,,M,,*66
06/11/2014	17:01:02.810	$GPGGA,170112,2526.2449,N,07959.1720,W,1,10,1.4,21,M,,M,,*6D
06/11/2014	17:01:03.786	$GPGGA,170113,2526.2442,N,07959.1716,W,1,10,1.4,21,M,,M,,*62
06/11/2014	17:01:04.795	$GPGGA,170114,2526.2435,N,07959.1713,W,1,10,1.4,21,M,,M,,*60
06/11/2014	17:01:05.818	$GPGGA,170115,2526.2428,N,07959.1710,W,1,10,1.4,20,M,,M,,*6F
06/11/2014	17:01:06.801	$GPGGA,170116,2526.2421,N,07959.1709,W,1,10,1.5,20,M,,M,,*6C
06/11/2014	17:01:07.813	$GPGGA,170117,2526.2414,N,07959.1707,W,1,10,1.4,20,M,,M,,*64
06/11/2014	17:01:08.790	$GPGGA,170118,2526.2406,N,07959.1706,W,1,10,1.4,20,M,,M,,*69
06/11/2014	17:01:09.792	$GPGGA,170119,2526.2397,N,07959.1705,W,1,9,1.6,20,M,,M,,*5E
06/11/2014	17:01:10.811	$GPGGA,170120,2526.2388,N,07959.1705,W,1,9,1.6,20,M,,M,,*5A
06/11/2014	17:01:11.784	$GPGGA,170121,2526.2379,N,07959.1705,W,1,9,1.6,20,M,,M,,*55
06/11/2014	17:01:12.785	$GPGGA,170122,2526.2370,N,07959.1706,W,1,9,1.4,20,M,,M,,*5E
06/11/2014	17:01:13.891	$GPGGA,170123,2526.2359,N,07959.1707,W,1,10,1.4,20,M,,M,,*6D
06/11/2014	17:01:14.903	$GPGGA,170124,2526.2350,N,07959.1709,W,1,10,1.4,19,M,,M,,*67
06/11/2014	17:01:15.923	$GPGGA,170125,2526.2341,N,07959.1709,W,1,10,1.4,19,M,,M,,*66
06/11/2014	17:01:16.797	$GPGGA,170126,2526.2330,N,07959.1710,W,1,10,1.4,19,M,,M,,*6B
06/11/2014	17:01:17.898	$GPGGA,170127,2526.2320,N,07959.1712,W,1,10,1.4,19,M,,M,,*69
06/11/2014	17:01:18.811	$GPGGA,170128,2526.2310,N,07959.1711,W,1,10,1.4,19,M,,M,,*66
06/11/2014	17:01:19.894	$GPGGA,170129,2526.2299,N,07959.1713,W,1,10,1.4,19,M,,M,,*65
06/11/2014	17:01:20.886	$GPGGA,170130,2526.2288,N,07959.1713,W,1,10,1.4,19,M,,M,,*6D
06/11/2014	17:01:21.922	$GPGGA,170131,2526.2278,N,07959.1712,W,1,9,1.6,18,M,,M,,*59
06/11/2014	17:01:22.901	$GPGGA,170132,2526.2269,N,07959.1713,W,1,9,1.4,18,M,,M,,*59
06/11/2014	17:01:23.924	$GPGGA,170133,2526.2258,N,07959.1711,W,1,9,1.6,18,M,,M,,*5A
06/11/2014	17:01:24.897	$GPGGA,170134,2526.2249,N,07959.1710,W,1,9,1.4,18,M,,M,,*5E
06/11/2014	17:01:25.889	$GPGGA,170135,2526.2240,N,07959.1709,W,1,10,1.4,18,M,,M,,*66
06/11/2014	17:01:26.912	$GPGGA,170136,2526.2229,N,07959.1708,W,1,10,1.4,18,M,,M,,*6B
06/11/2014	17:01:27.927	$GPGGA,170137,2526.2219,N,07959.1706,W,1,10,1.4,18,M,,M,,*67
06/11/2014	17:01:28.907	$GPGGA,170138,2526.2208,N,07959.1705,W,1,10,1.4,18,M,,M,,*6B
06/11/2014	17:01:29.919	$GPGGA,170139,2526.2197,N,07959.1703,W,1,10,1.4,18,M,,M,,*69
06/11/2014	17:01:30.901	$GPGGA,170140,2526.2186,N,07959.1702,W,1,10,1.4,18,M,,M,,*66
06/11/2014	17:01:31.914	$GPGGA,170141,2526.2175,N,07959.1701,W,1,9,1.6,18,M,,M,,*52
06/11/2014	17:01:32.896	$GPGGA,170142,2526.2164,N,07959.1699,W,1,9,1.6,17,M,,M,,*5E
06/11/2014	17:01:33.919	$GPGGA,170143,2526.2154,N,07959.1698,W,1,10,1.4,17,M,,M,,*67
06/11/2014	17:01:34.912	$GPGGA,170144,2526.2143,N,07959.1697,W,1,10,1.4,17,M,,M,,*69
06/11/2014	17:01:35.769	$GPGGA,170145,2526.2133,N,07959.1695,W,1,10,1.4,17,M,,M,,*6D
06/11/2014	17:01:36.752	$GPGGA,170146,2526.2121,N,07959.1694,W,1,10,1.4,17,M,,M,,*6C
06/11/2014	17:01:37.764	$GPGGA,170147,2526.2110,N,07959.1692,W,1,9,1.6,17,M,,M,,*53
06/11/2014	17:01:38.757	$GPGGA,170148,2526.2097,N,07959.1691,W,1,9,1.6,17,M,,M,,*51
06/11/2014	17:01:39.780	$GPGGA,170149,2526.2085,N,07959.1690,W,1,9,1.6,17,M,,M,,*52
06/11/2014	17:01:40.752	$GPGGA,170150,2526.2075,N,07959.1688,W,1,9,1.4,17,M,,M,,*5E
06/11/2014	17:01:41.765	$GPGGA,170151,2526.2064,N,07959.1687,W,1,10,1.4,17,M,,M,,*68
06/11/2014	17:01:42.767	$GPGGA,170152,2526.2053,N,07959.1686,W,1,10,1.4,17,M,,M,,*6E
06/11/2014	17:01:43.770	$GPGGA,170153,2526.2042,N,07959.1685,W,1,10,1.4,17,M,,M,,*6C
06/11/2014	17:01:44.742	$GPGGA,170154,2526.2031,N,07959.1684,W,1,10,1.4,17,M,,M,,*6E
06/11/2014	17:01:45.775	$GPGGA,170155,2526.2018,N,07959.1683,W,1,10,1.4,17,M,,M,,*63
06/11/2014	17:01:46.768	$GPGGA,170156,2526.2007,N,07959.1682,W,1,10,1.6,17,M,,M,,*6D
06/11/2014	17:01:47.759	$GPGGA,170157,2526.1995,N,07959.1681,W,1,10,1.4,17,M,,M,,*6C
06/11/2014	17:01:48.752	$GPGGA,170158,2526.1984,N,07959.1679,W,1,10,1.4,17,M,,M,,*64
06/11/2014	17:01:49.745	$GPGGA,170159,2526.1973,N,07959.1678,W,1,10,1.4,17,M,,M,,*6C
06/11/2014	17:01:52.162	$GPGGA,170201,2526.1948,N,07959.1676,W,1,10,1.4,16,M,,M,,*65
06/11/2014	17:01:52.762	$GPGGA,170202,2526.1937,N,07959.1675,W,1,10,1.4,16,M,,M,,*6D
06/11/2014	17:01:53.845	$GPGGA,170203,2526.1926,N,07959.1674,W,1,10,1.4,16,M,,M,,*6D
06/11/2014	17:01:54.767	$GPGGA,170204,2526.1915,N,07959.1673,W,1,10,1.4,16,M,,M,,*6D
06/11/2014	17:01:55.770	$GPGGA,170205,2526.1904,N,07959.1672,W,1,10,1.4,16,M,,M,,*6D
06/11/2014	17:01:56.763	$GPGGA,170206,2526.1893,N,07959.1671,W,1,10,1.4,16,M,,M,,*62
06/11/2014	17:01:57.745	$GPGGA,170207,2526.1881,N,07959.1670,W,1,10,1.4,16,M,,M,,*61
06/11/2014	17:01:58.762	$GPGGA,170208,2526.1868,N,07959.1669,W,1,10,1.4,16,M,,M,,*61
06/11/2014	17:01:59.770	$GPGGA,170209,2526.1857,N,07959.1668,W,1,10,1.4,16,M,,M,,*6D
06/11/2014	17:02:00.853	$GPGGA,170210,2526.1844,N,07959.1669,W,1,10,1.4,16,M,,M,,*66
06/11/2014	17:02:01.772	$GPGGA,170211,2526.1832,N,07959.1667,W,1,9,1.6,16,M,,M,,*52
06/11/2014	17:02:02.868	$GPGGA,170212,2526.1822,N,07959.1666,W,1,9,1.6,16,M,,M,,*51
06/11/2014	17:02:03.762	$GPGGA,170213,2526.1810,N,07959.1665,W,1,10,1.4,16,M,,M,,*68
06/11/2014	17:02:04.863	$GPGGA,170214,2526.1799,N,07959.1664,W,1,10,1.4,16,M,,M,,*60
06/11/2014	17:02:05.875	$GPGGA,170215,2526.1789,N,07959.1663,W,1,10,1.4,16,M,,M,,*67
06/11/2014	17:02:06.879	$GPGGA,170216,2526.1777,N,07959.1662,W,1,10,1.4,16,M,,M,,*64
06/11/2014	17:02:07.870	$GPGGA,170217,2526.1767,N,07959.1661,W,1,10,1.4,16,M,,M,,*67
06/11/2014	17:02:08.863	$GPGGA,170218,2526.1754,N,07959.1662,W,1,10,1.4,16,M,,M,,*6B
06/11/2014	17:02:09.906	$GPGGA,170219,2526.1742,N,07959.1660,W,1,10,1.4,16,M,,M,,*6F
06/11/2014	17:02:10.868	$GPGGA,170220,2526.1730,N,07959.1659,W,1,10,1.4,16,M,,M,,*6A
06/11/2014	17:02:11.851	$GPGGA,170221,2526.1720,N,07959.1659,W,1,10,1.4,16,M,,M,,*6A
06/11/2014	17:02:12.853	$GPGGA,170222,2526.1709,N,07959.1658,W,1,10,1.4,16,M,,M,,*63
06/11/2014	17:02:13.886	$GPGGA,170223,2526.1698,N,07959.1657,W,1,10,1.4,16,M,,M,,*64
06/11/2014	17:02:14.869	$GPGGA,170224,2526.1686,N,07959.1656,W,1,10,1.4,16,M,,M,,*6D
06/11/2014	17:02:15.881	$GPGGA,170225,2526.1675,N,07959.1655,W,1,10,1.4,16,M,,M,,*63
06/11/2014	17:02:16.864	$GPGGA,170226,2526.1664,N,07959.1654,W,1,10,1.4,16,M,,M,,*61
06/11/2014	17:02:17.886	$GPGGA,170227,2526.1652,N,07959.1653,W,1,10,1.4,15,M,,M,,*61
06/11/2014	17:02:18.879	$GPGGA,170228,2526.1640,N,07959.1652,W,1,10,1.4,15,M,,M,,*6C
06/11/2014	17:02:19.852	$GPGGA,170229,2526.1628,N,07959.1651,W,1,10,1.4,15,M,,M,,*60
06/11/2014	17:02:20.854	$GPGGA,170230,2526.1616,N,07959.1650,W,1,10,1.4,15,M,,M,,*64
06/11/2014	17:02:21.876	$GPGGA,170231,2526.1604,N,07959.1649,W,1,10,1.4,15,M,,M,,*6E
06/11/2014	17:02:22.868	$GPGGA,170232,2526.1592,N,07959.1647,W,1,10,1.4,15,M,,M,,*6F
06/11/2014	17:02:23.902	$GPGGA,170233,2526.1580,N,07959.1646,W,1,10,1.4,15,M,,M,,*6C
06/11/2014	17:02:24.854	$GPGGA,170234,2526.1568,N,07959.1645,W,1,10,1.6,15,M,,M,,*6C
06/11/2014	17:02:25.886	$GPGGA,170235,2526.1557,N,07959.1643,W,1,9,1.6,15,M,,M,,*5F
06/11/2014	17:02:26.879	$GPGGA,170236,2526.1544,N,07959.1642,W,1,9,1.6,15,M,,M,,*5F
06/11/2014	17:02:27.861	$GPGGA,170237,2526.1532,N,07959.1640,W,1,9,1.6,15,M,,M,,*5D
06/11/2014	17:02:28.874	$GPGGA,170238,2526.1519,N,07959.1639,W,1,9,1.6,15,M,,M,,*55
06/11/2014	17:02:29.866	$GPGGA,170239,2526.1507,N,07959.1637,W,1,9,1.6,15,M,,M,,*55
06/11/2014	17:02:30.879	$GPGGA,170240,2526.1494,N,07959.1636,W,1,9,1.6,15,M,,M,,*51
06/11/2014	17:02:31.882	$GPGGA,170241,2526.1482,N,07959.1634,W,1,9,1.6,15,M,,M,,*55
06/11/2014	17:02:32.864	$GPGGA,170242,2526.1471,N,07959.1633,W,1,9,1.6,15,M,,M,,*5D
06/11/2014	17:02:33.887	$GPGGA,170243,2526.1460,N,07959.1631,W,1,10,1.4,15,M,,M,,*64
06/11/2014	17:02:34.869	$GPGGA,170244,2526.1449,N,07959.1630,W,1,10,1.4,15,M,,M,,*69
06/11/2014	17:02:35.728	$GPGGA,170245,2526.1438,N,07959.1628,W,1,10,1.4,15,M,,M,,*67
06/11/2014	17:02:36.711	$GPGGA,170246,2526.1427,N,07959.1626,W,1,10,1.6,15,M,,M,,*66
06/11/2014	17:02:37.834	$GPGGA,170247,2526.1414,N,07959.1625,W,1,9,1.6,15,M,,M,,*5C
06/11/2014	17:02:38.716	$GPGGA,170248,2526.1403,N,07959.1623,W,1,9,1.6,15,M,,M,,*53
06/11/2014	17:02:39.727	$GPGGA,170249,2526.1391,N,07959.1622,W,1,10,1.4,15,M,,M,,*65
06/11/2014	17:02:40.712	$GPGGA,170250,2526.1380,N,07959.1621,W,1,10,1.6,15,M,,M,,*6C
06/11/2014	17:02:41.853	$GPGGA,170251,2526.1367,N,07959.1619,W,1,9,1.6,14,M,,M,,*56
06/11/2014	17:02:42.735	$GPGGA,170252,2526.1355,N,07959.1618,W,1,9,1.6,14,M,,M,,*55
06/11/2014	17:02:43.838	$GPGGA,170253,2526.1342,N,07959.1616,W,1,9,1.6,14,M,,M,,*5C
06/11/2014	17:02:44.720	$GPGGA,170254,2526.1330,N,07959.1615,W,1,9,1.6,14,M,,M,,*5D
06/11/2014	17:02:45.813	$GPGGA,170255,2526.1319,N,07959.1613,W,1,9,1.6,14,M,,M,,*51
06/11/2014	17:02:46.716	$GPGGA,170256,2526.1306,N,07959.1612,W,1,9,1.6,14,M,,M,,*5D
06/11/2014	17:02:47.734	$GPGGA,170257,2526.1295,N,07959.1611,W,1,9,1.6,14,M,,M,,*54
06/11/2014	17:02:48.822	$GPGGA,170258,2526.1283,N,07959.1609,W,1,9,1.6,14,M,,M,,*55
06/11/2014	17:02:49.864	$GPGGA,170259,2526.1272,N,07959.1608,W,1,9,1.6,14,M,,M,,*5B
06/11/2014	17:02:50.856	$GPGGA,170300,2526.1259,N,07959.1607,W,1,9,1.6,14,M,,M,,*50
06/11/2014	17:02:51.719	$GPGGA,170301,2526.1247,N,07959.1605,W,1,9,1.6,14,M,,M,,*5C
06/11/2014	17:02:52.821	$GPGGA,170302,2526.1234,N,07959.1604,W,1,9,1.6,14,M,,M,,*5A
06/11/2014	17:02:53.814	$GPGGA,170303,2526.1222,N,07959.1603,W,1,9,1.6,14,M,,M,,*5B
06/11/2014	17:02:54.847	$GPGGA,170304,2526.1210,N,07959.1601,W,1,9,1.6,14,M,,M,,*5F
06/11/2014	17:02:55.859	$GPGGA,170305,2526.1198,N,07959.1600,W,1,9,1.6,14,M,,M,,*5C
06/11/2014	17:02:56.831	$GPGGA,170306,2526.1186,N,07959.1599,W,1,9,1.6,14,M,,M,,*53
06/11/2014	17:02:57.833	$GPGGA,170307,2526.1174,N,07959.1597,W,1,9,1.6,14,M,,M,,*51
06/11/2014	17:02:58.836	$GPGGA,170308,2526.1164,N,07959.1596,W,1,9,1.4,14,M,,M,,*5C
06/11/2014	17:02:59.839	$GPGGA,170309,2526.1153,N,07959.1594,W,1,10,1.4,14,M,,M,,*63
06/11/2014	17:03:00.821	$GPGGA,170310,2526.1142,N,07959.1593,W,1,10,1.4,14,M,,M,,*6C
06/11/2014	17:03:01.824	$GPGGA,170311,2526.1131,N,07959.1592,W,1,10,1.4,14,M,,M,,*68
06/11/2014	17:03:02.836	$GPGGA,170312,2526.1120,N,07959.1591,W,1,10,1.4,14,M,,M,,*68
06/11/2014	17:03:03.829	$GPGGA,170313,2526.1107,N,07959.1590,W,1,10,1.4,14,M,,M,,*6D
06/11/2014	17:03:04.822	$GPGGA,170314,2526.1095,N,07959.1589,W,1,10,1.4,14,M,,M,,*68
06/11/2014	17:03:05.844	$GPGGA,170315,2526.1084,N,07959.1588,W,1,10,1.4,14,M,,M,,*68
06/11/2014	17:03:06.837	$GPGGA,170316,2526.1073,N,07959.1587,W,1,10,1.4,14,M,,M,,*6C
06/11/2014	17:03:07.819	$GPGGA,170317,2526.1061,N,07959.1585,W,1,10,1.4,14,M,,M,,*6C
06/11/2014	17:03:08.832	$GPGGA,170318,2526.1049,N,07959.1586,W,1,10,1.6,14,M,,M,,*68
06/11/2014	17:03:09.835	$GPGGA,170319,2526.1037,N,07959.1584,W,1,9,1.6,14,M,,M,,*5A
06/11/2014	17:03:10.837	$GPGGA,170320,2526.1026,N,07959.1582,W,1,9,1.6,14,M,,M,,*56
06/11/2014	17:03:11.860	$GPGGA,170321,2526.1013,N,07959.1582,W,1,9,1.6,14,M,,M,,*51
06/11/2014	17:03:12.832	$GPGGA,170322,2526.1002,N,07959.1580,W,1,9,1.4,14,M,,M,,*52
06/11/2014	17:03:13.825	$GPGGA,170323,2526.0990,N,07959.1579,W,1,10,1.6,14,M,,M,,*6C
06/11/2014	17:03:14.847	$GPGGA,170324,2526.0979,N,07959.1579,W,1,10,1.6,14,M,,M,,*6C
06/11/2014	17:03:15.859	$GPGGA,170325,2526.0967,N,07959.1578,W,1,9,1.6,13,M,,M,,*5C
06/11/2014	17:03:16.832	$GPGGA,170326,2526.0955,N,07959.1577,W,1,9,1.6,13,M,,M,,*51
06/11/2014	17:03:17.854	$GPGGA,170327,2526.0943,N,07959.1576,W,1,9,1.6,13,M,,M,,*56
06/11/2014	17:03:18.867	$GPGGA,170328,2526.0932,N,07959.1576,W,1,9,1.6,13,M,,M,,*5F
06/11/2014	17:03:19.860	$GPGGA,170329,2526.0919,N,07959.1575,W,1,9,1.6,13,M,,M,,*54
06/11/2014	17:03:20.852	$GPGGA,170330,2526.0908,N,07959.1575,W,1,9,1.6,13,M,,M,,*5C
06/11/2014	17:03:21.865	$GPGGA,170331,2526.0898,N,07959.1574,W,1,9,1.4,13,M,,M,,*56
06/11/2014	17:03:22.867	$GPGGA,170332,2526.0887,N,07959.1573,W,1,9,1.6,13,M,,M,,*5E
06/11/2014	17:03:23.861	$GPGGA,170333,2526.0878,N,07959.1573,W,1,9,1.4,13,M,,M,,*5D
06/11/2014	17:03:24.923	$GPGGA,170334,2526.0867,N,07959.1572,W,1,9,1.4,13,M,,M,,*55
06/11/2014	17:03:25.831	$GPGGA,170335,2526.0856,N,07959.1571,W,1,10,1.4,13,M,,M,,*6D
06/11/2014	17:03:26.869	$GPGGA,170336,2526.0844,N,07959.1572,W,1,10,1.6,13,M,,M,,*6C
06/11/2014	17:03:27.831	$GPGGA,170337,2526.0831,N,07959.1570,W,1,9,1.6,13,M,,M,,*55
06/11/2014	17:03:28.923	$GPGGA,170338,2526.0820,N,07959.1571,W,1,9,1.6,13,M,,M,,*5B
06/11/2014	17:03:29.845	$GPGGA,170339,2526.0807,N,07959.1569,W,1,9,1.6,13,M,,M,,*56
06/11/2014	17:03:30.968	$GPGGA,170340,2526.0795,N,07959.1569,W,1,9,1.6,13,M,,M,,*5C
06/11/2014	17:03:31.960	$GPGGA,170341,2526.0784,N,07959.1568,W,1,9,1.5,13,M,,M,,*5F
06/11/2014	17:03:32.932	$GPGGA,170342,2526.0773,N,07959.1568,W,1,9,1.5,13,M,,M,,*54
06/11/2014	17:03:33.952	$GPGGA,170343,2526.0761,N,07959.1566,W,1,10,1.4,13,M,,M,,*61
06/11/2014	17:03:34.958	$GPGGA,170344,2526.0750,N,07959.1566,W,1,10,1.5,13,M,,M,,*65
06/11/2014	17:03:35.786	$GPGGA,170345,2526.0739,N,07959.1565,W,1,9,1.4,13,M,,M,,*51
06/11/2014	17:03:36.706	$GPGGA,170346,2526.0727,N,07959.1564,W,1,9,1.5,13,M,,M,,*5D
06/11/2014	17:03:37.821	$GPGGA,170347,2526.0715,N,07959.1564,W,1,9,1.5,13,M,,M,,*5D
06/11/2014	17:03:38.793	$GPGGA,170348,2526.0703,N,07959.1564,W,1,9,1.5,13,M,,M,,*55
06/11/2014	17:03:39.786	$GPGGA,170349,2526.0691,N,07959.1564,W,1,9,1.5,13,M,,M,,*5E
06/11/2014	17:03:40.788	$GPGGA,170350,2526.0683,N,07959.1563,W,1,9,1.4,13,M,,M,,*53
06/11/2014	17:03:41.781	$GPGGA,170351,2526.0672,N,07959.1562,W,1,10,1.5,13,M,,M,,*64
06/11/2014	17:03:42.793	$GPGGA,170352,2526.0663,N,07959.1562,W,1,10,1.4,13,M,,M,,*66
06/11/2014	17:03:43.796	$GPGGA,170353,2526.0654,N,07959.1562,W,1,10,1.4,13,M,,M,,*63
06/11/2014	17:03:44.789	$GPGGA,170354,2526.0647,N,07959.1564,W,1,10,1.4,13,M,,M,,*60
06/11/2014	17:03:45.811	$GPGGA,170355,2526.0637,N,07959.1565,W,1,10,1.4,13,M,,M,,*67
06/11/2014	17:03:46.794	$GPGGA,170356,2526.0629,N,07959.1568,W,1,10,1.4,13,M,,M,,*66
06/11/2014	17:03:47.796	$GPGGA,170357,2526.0620,N,07959.1569,W,1,10,1.4,13,M,,M,,*6F
06/11/2014	17:03:48.789	$GPGGA,170358,2526.0612,N,07959.1573,W,1,10,1.4,13,M,,M,,*6A
06/11/2014	17:03:49.801	$GPGGA,170359,2526.0604,N,07959.1576,W,1,10,1.4,13,M,,M,,*69
06/11/2014	17:03:50.814	$GPGGA,170400,2526.0596,N,07959.1582,W,1,10,1.4,13,M,,M,,*61
06/11/2014	17:03:51.806	$GPGGA,170401,2526.0590,N,07959.1586,W,1,10,1.4,13,M,,M,,*62
06/11/2014	17:03:52.788	$GPGGA,170402,2526.0584,N,07959.1591,W,1,10,1.4,13,M,,M,,*62
06/11/2014	17:03:53.801	$GPGGA,170403,2526.0578,N,07959.1597,W,1,10,1.4,13,M,,M,,*66
06/11/2014	17:03:54.804	$GPGGA,170404,2526.0571,N,07959.1604,W,1,10,1.5,13,M,,M,,*60
06/11/2014	17:03:55.786	$GPGGA,170405,2526.0565,N,07959.1611,W,1,9,1.5,13,M,,M,,*58
06/11/2014	17:03:56.789	$GPGGA,170406,2526.0560,N,07959.1619,W,1,9,1.4,13,M,,M,,*57
06/11/2014	17:03:57.821	$GPGGA,170407,2526.0555,N,07959.1629,W,1,10,1.4,13,M,,M,,*6B
06/11/2014	17:03:58.804	$GPGGA,170408,2526.0550,N,07959.1637,W,1,10,1.4,13,M,,M,,*6E
06/11/2014	17:03:59.786	$GPGGA,170409,2526.0544,N,07959.1647,W,1,10,1.4,13,M,,M,,*6D
06/11/2014	17:04:00.789	$GPGGA,170410,2526.0539,N,07959.1658,W,1,10,1.4,13,M,,M,,*61
06/11/2014	17:04:01.792	$GPGGA,170411,2526.0535,N,07959.1667,W,1,10,1.4,13,M,,M,,*60
06/11/2014	17:04:02.814	$GPGGA,170412,2526.0528,N,07959.1680,W,1,10,1.4,13,M,,M,,*66
06/11/2014	17:04:03.827	$GPGGA,170413,2526.0522,N,07959.1691,W,1,10,1.4,13,M,,M,,*6D
06/11/2014	17:04:04.799	$GPGGA,170414,2526.0517,N,07959.1702,W,1,10,1.4,13,M,,M,,*67
06/11/2014	17:04:05.812	$GPGGA,170415,2526.0510,N,07959.1713,W,1,10,1.4,13,M,,M,,*61
06/11/2014	17:04:06.794	$GPGGA,170416,2526.0504,N,07959.1725,W,1,10,1.4,13,M,,M,,*62
06/11/2014	17:04:07.786	$GPGGA,170417,2526.0499,N,07959.1738,W,1,10,1.4,13,M,,M,,*6A
06/11/2014	17:04:08.809	$GPGGA,170418,2526.0493,N,07959.1750,W,1,10,1.4,13,M,,M,,*61
06/11/2014	17:04:09.801	$GPGGA,170419,2526.0488,N,07959.1763,W,1,10,1.4,13,M,,M,,*6A
06/11/2014	17:04:10.814	$GPGGA,170420,2526.0482,N,07959.1775,W,1,10,1.4,13,M,,M,,*6D
06/11/2014	17:04:11.927	$GPGGA,170421,2526.0475,N,07959.1788,W,1,10,1.4,13,M,,M,,*66
06/11/2014	17:04:12.789	$GPGGA,170422,2526.0470,N,07959.1801,W,1,10,1.4,13,M,,M,,*6E
06/11/2014	17:04:13.807	$GPGGA,170423,2526.0463,N,07959.1814,W,1,10,1.4,13,M,,M,,*69
06/11/2014	17:04:14.814	$GPGGA,170424,2526.0457,N,07959.1828,W,1,10,1.4,14,M,,M,,*61
06/11/2014	17:04:15.788	$GPGGA,170425,2526.0450,N,07959.1842,W,1,10,1.4,14,M,,M,,*6B
06/11/2014	17:04:16.890	$GPGGA,170426,2526.0444,N,07959.1855,W,1,10,1.4,14,M,,M,,*6B
06/11/2014	17:04:17.802	$GPGGA,170427,2526.0437,N,07959.1868,W,1,10,1.4,14,M,,M,,*60
06/11/2014	17:04:18.908	$GPGGA,170428,2526.0430,N,07959.1882,W,1,10,1.4,14,M,,M,,*6C
06/11/2014	17:04:19.898	$GPGGA,170429,2526.0425,N,07959.1897,W,1,10,1.4,14,M,,M,,*6D
06/11/2014	17:04:20.900	$GPGGA,170430,2526.0419,N,07959.1909,W,1,10,1.4,14,M,,M,,*6C
06/11/2014	17:04:21.793	$GPGGA,170431,2526.0412,N,07959.1922,W,1,10,1.4,14,M,,M,,*6F
06/11/2014	17:04:22.906	$GPGGA,170432,2526.0406,N,07959.1936,W,1,10,1.4,14,M,,M,,*6C
06/11/2014	17:04:23.910	$GPGGA,170433,2526.0401,N,07959.1951,W,1,10,1.4,14,M,,M,,*6B
06/11/2014	17:04:24.911	$GPGGA,170434,2526.0394,N,07959.1963,W,1,10,1.4,14,M,,M,,*66
06/11/2014	17:04:25.932	$GPGGA,170435,2526.0387,N,07959.1976,W,1,10,1.4,14,M,,M,,*61
06/11/2014	17:04:26.905	$GPGGA,170436,2526.0380,N,07959.1991,W,1,10,1.4,14,M,,M,,*6C
06/11/2014	17:04:27.897	$GPGGA,170437,2526.0373,N,07959.2005,W,1,10,1.4,14,M,,M,,*66
06/11/2014	17:04:28.900	$GPGGA,170438,2526.0367,N,07959.2017,W,1,10,1.4,14,M,,M,,*6F
06/11/2014	17:04:29.913	$GPGGA,170439,2526.0360,N,07959.2031,W,1,10,1.4,14,M,,M,,*6D
06/11/2014	17:04:30.915	$GPGGA,170440,2526.0354,N,07959.2045,W,1,10,1.4,14,M,,M,,*67
06/11/2014	17:04:31.908	$GPGGA,170441,2526.0347,N,07959.2059,W,1,10,1.4,14,M,,M,,*69
06/11/2014	17:04:32.900	$GPGGA,170442,2526.0340,N,07959.2072,W,1,10,1.4,14,M,,M,,*64
06/11/2014	17:04:33.923	$GPGGA,170443,2526.0334,N,07959.2085,W,1,10,1.4,14,M,,M,,*6E
06/11/2014	17:04:34.906	$GPGGA,170444,2526.0327,N,07959.2099,W,1,10,1.4,14,M,,M,,*66
06/11/2014	17:04:35.754	$GPGGA,170445,2526.0322,N,07959.2113,W,1,10,1.4,14,M,,M,,*61
06/11/2014	17:04:36.758	$GPGGA,170446,2526.0314,N,07959.2125,W,1,10,1.4,14,M,,M,,*62
06/11/2014	17:04:37.769	$GPGGA,170447,2526.0307,N,07959.2139,W,1,10,1.4,14,M,,M,,*6C
06/11/2014	17:04:38.762	$GPGGA,170448,2526.0300,N,07959.2151,W,1,10,1.4,14,M,,M,,*6A
06/11/2014	17:04:39.755	$GPGGA,170449,2526.0293,N,07959.2165,W,1,10,1.4,14,M,,M,,*67
06/11/2014	17:04:40.757	$GPGGA,170450,2526.0286,N,07959.2178,W,1,10,1.4,14,M,,M,,*67
06/11/2014	17:04:41.749	$GPGGA,170451,2526.0279,N,07959.2190,W,1,10,1.4,14,M,,M,,*60
06/11/2014	17:04:42.771	$GPGGA,170452,2526.0272,N,07959.2204,W,1,10,1.4,14,M,,M,,*66
06/11/2014	17:04:43.764	$GPGGA,170453,2526.0265,N,07959.2218,W,1,10,1.4,14,M,,M,,*6C
06/11/2014	17:04:44.746	$GPGGA,170454,2526.0258,N,07959.2229,W,1,10,1.4,14,M,,M,,*67
06/11/2014	17:04:45.749	$GPGGA,170455,2526.0253,N,07959.2241,W,1,9,1.5,14,M,,M,,*5A
06/11/2014	17:04:46.772	$GPGGA,170456,2526.0246,N,07959.2254,W,1,9,1.4,14,M,,M,,*58
06/11/2014	17:04:47.774	$GPGGA,170457,2526.0239,N,07959.2266,W,1,10,1.4,14,M,,M,,*68
06/11/2014	17:04:48.747	$GPGGA,170458,2526.0232,N,07959.2279,W,1,10,1.5,14,M,,M,,*63
06/11/2014	17:04:49.780	$GPGGA,170459,2526.0228,N,07959.2290,W,1,10,1.4,14,M,,M,,*6F
06/11/2014	17:04:50.782	$GPGGA,170500,2526.0219,N,07959.2303,W,1,10,1.4,14,M,,M,,*6B
06/11/2014	17:04:51.755	$GPGGA,170501,2526.0210,N,07959.2316,W,1,10,1.4,14,M,,M,,*67
06/11/2014	17:04:52.767	$GPGGA,170502,2526.0203,N,07959.2330,W,1,10,1.4,14,M,,M,,*62
06/11/2014	17:04:53.760	$GPGGA,170503,2526.0195,N,07959.2344,W,1,9,1.5,14,M,,M,,*55
06/11/2014	17:04:54.762	$GPGGA,170504,2526.0188,N,07959.2355,W,1,9,1.4,14,M,,M,,*5F
06/11/2014	17:04:55.875	$GPGGA,170505,2526.0181,N,07959.2368,W,1,9,1.5,14,M,,M,,*58
06/11/2014	17:04:56.759	$GPGGA,170506,2526.0174,N,07959.2381,W,1,9,1.5,14,M,,M,,*56
06/11/2014	17:04:57.765	$GPGGA,170507,2526.0167,N,07959.2392,W,1,10,1.4,14,M,,M,,*6E
06/11/2014	17:04:58.883	$GPGGA,170508,2526.0161,N,07959.2404,W,1,10,1.4,14,M,,M,,*6F
06/11/2014	17:04:59.855	$GPGGA,170509,2526.0155,N,07959.2417,W,1,10,1.4,14,M,,M,,*6B
06/11/2014	17:05:00.797	$GPGGA,170510,2526.0148,N,07959.2428,W,1,10,1.4,14,M,,M,,*63
06/11/2014	17:05:01.890	$GPGGA,170511,2526.0141,N,07959.2442,W,1,10,1.4,14,M,,M,,*67
06/11/2014	17:05:02.782	$GPGGA,170512,2526.0134,N,07959.2454,W,1,10,1.4,14,M,,M,,*61
06/11/2014	17:05:03.885	$GPGGA,170513,2526.0127,N,07959.2467,W,1,9,1.5,14,M,,M,,*5B
06/11/2014	17:05:04.767	$GPGGA,170514,2526.0120,N,07959.2478,W,1,9,1.4,14,M,,M,,*54
06/11/2014	17:05:05.860	$GPGGA,170515,2526.0114,N,07959.2491,W,1,10,1.4,14,M,,M,,*6D
06/11/2014	17:05:06.873	$GPGGA,170516,2526.0107,N,07959.2504,W,1,10,1.4,14,M,,M,,*61
06/11/2014	17:05:07.906	$GPGGA,170517,2526.0100,N,07959.2516,W,1,10,1.4,14,M,,M,,*64
06/11/2014	17:05:08.868	$GPGGA,170518,2526.0094,N,07959.2529,W,1,10,1.4,14,M,,M,,*6B
06/11/2014	17:05:09.861	$GPGGA,170519,2526.0087,N,07959.2543,W,1,10,1.4,14,M,,M,,*64
06/11/2014	17:05:10.883	$GPGGA,170520,2526.0081,N,07959.2555,W,1,10,1.4,14,M,,M,,*6F
06/11/2014	17:05:11.888	$GPGGA,170521,2526.0074,N,07959.2568,W,1,10,1.4,14,M,,M,,*6A
06/11/2014	17:05:12.868	$GPGGA,170522,2526.0069,N,07959.2580,W,1,10,1.4,14,M,,M,,*63
06/11/2014	17:05:13.871	$GPGGA,170523,2526.0061,N,07959.2594,W,1,10,1.4,14,M,,M,,*6F
06/11/2014	17:05:14.874	$GPGGA,170524,2526.0055,N,07959.2606,W,1,10,1.4,14,M,,M,,*67
06/11/2014	17:05:15.886	$GPGGA,170525,2526.0048,N,07959.2619,W,1,10,1.4,14,M,,M,,*64
06/11/2014	17:05:16.868	$GPGGA,170526,2526.0041,N,07959.2633,W,1,10,1.4,14,M,,M,,*66
06/11/2014	17:05:17.891	$GPGGA,170527,2526.0034,N,07959.2646,W,1,10,1.4,14,M,,M,,*67
06/11/2014	17:05:18.884	$GPGGA,170528,2526.0029,N,07959.2659,W,1,10,1.4,14,M,,M,,*6A
06/11/2014	17:05:19.886	$GPGGA,170529,2526.0022,N,07959.2673,W,1,10,1.4,14,M,,M,,*68
06/11/2014	17:05:20.868	$GPGGA,170530,2526.0013,N,07959.2686,W,1,10,1.4,14,M,,M,,*68
06/11/2014	17:05:21.891	$GPGGA,170531,2526.0007,N,07959.2699,W,1,10,1.4,14,M,,M,,*62
06/11/2014	17:05:22.873	$GPGGA,170532,2526.0000,N,07959.2713,W,1,10,1.4,14,M,,M,,*65
06/11/2014	17:05:23.886	$GPGGA,170533,2525.9993,N,07959.2728,W,1,9,1.5,14,M,,M,,*5C
06/11/2014	17:05:24.869	$GPGGA,170534,2525.9987,N,07959.2739,W,1,9,1.5,14,M,,M,,*5E
06/11/2014	17:05:25.901	$GPGGA,170535,2525.9982,N,07959.2753,W,1,10,1.4,14,M,,M,,*6F
06/11/2014	17:05:26.884	$GPGGA,170536,2525.9976,N,07959.2767,W,1,10,1.4,14,M,,M,,*60
06/11/2014	17:05:27.866	$GPGGA,170537,2525.9971,N,07959.2779,W,1,10,1.4,14,M,,M,,*69
06/11/2014	17:05:28.879	$GPGGA,170538,2525.9965,N,07959.2793,W,1,10,1.4,14,M,,M,,*67
06/11/2014	17:05:29.902	$GPGGA,170539,2525.9960,N,07959.2807,W,1,10,1.4,14,M,,M,,*61
06/11/2014	17:05:30.884	$GPGGA,170540,2525.9959,N,07959.2822,W,1,10,1.5,14,M,,M,,*63
06/11/2014	17:05:31.857	$GPGGA,170541,2525.9954,N,07959.2836,W,1,10,1.4,14,M,,M,,*6B
06/11/2014	17:05:32.899	$GPGGA,170542,2525.9951,N,07959.2850,W,1,10,1.4,14,M,,M,,*6D
06/11/2014	17:05:33.872	$GPGGA,170543,2525.9948,N,07959.2865,W,1,10,1.4,14,M,,M,,*62
06/11/2014	17:05:34.874	$GPGGA,170544,2525.9946,N,07959.2881,W,1,10,1.4,14,M,,M,,*61
06/11/2014	17:05:35.722	$GPGGA,170545,2525.9942,N,07959.2897,W,1,9,1.5,14,M,,M,,*5A
06/11/2014	17:05:36.735	$GPGGA,170546,2525.9940,N,07959.2913,W,1,9,1.4,14,M,,M,,*57
06/11/2014	17:05:37.717	$GPGGA,170547,2525.9937,N,07959.2930,W,1,10,1.4,14,M,,M,,*6F
06/11/2014	17:05:38.740	$GPGGA,170548,2525.9935,N,07959.2948,W,1,10,1.4,14,M,,M,,*6D
06/11/2014	17:05:39.883	$GPGGA,170549,2525.9932,N,07959.2966,W,1,9,1.4,14,M,,M,,*5F
06/11/2014	17:05:40.718	$GPGGA,170550,2525.9929,N,07959.2984,W,1,9,1.4,14,M,,M,,*51
06/11/2014	17:05:41.728	$GPGGA,170551,2525.9928,N,07959.3002,W,1,9,1.5,14,M,,M,,*56
06/11/2014	17:05:42.901	$GPGGA,170552,2525.9928,N,07959.3017,W,1,9,1.5,14,M,,M,,*51
06/11/2014	17:05:43.853	$GPGGA,170553,2525.9928,N,07959.3035,W,1,10,1.4,14,M,,M,,*69
06/11/2014	17:05:44.730	$GPGGA,170554,2525.9926,N,07959.3053,W,1,10,1.4,14,M,,M,,*60
06/11/2014	17:05:45.723	$GPGGA,170555,2525.9927,N,07959.3071,W,1,8,2.4,14,M,,M,,*5A
06/11/2014	17:05:48.104	$GPGGA,170557,2525.9927,N,07959.3114,W,1,9,1.5,14,M,,M,,*59
06/11/2014	17:05:48.819	$GPGGA,170558,2525.9926,N,07959.3134,W,1,9,2.2,14,M,,M,,*51
06/11/2014	17:05:49.859	$GPGGA,170559,2525.9925,N,07959.3157,W,1,9,1.5,14,M,,M,,*52
06/11/2014	17:05:50.761	$GPGGA,170600,2525.9926,N,07959.3179,W,1,9,1.5,14,M,,M,,*52
06/11/2014	17:05:51.853	$GPGGA,170601,2525.9928,N,07959.3201,W,1,9,1.4,14,M,,M,,*50
06/11/2014	17:05:52.825	$GPGGA,170602,2525.9928,N,07959.3223,W,1,9,1.4,14,M,,M,,*53
06/11/2014	17:05:53.908	$GPGGA,170603,2525.9931,N,07959.3241,W,1,10,2.2,14,M,,M,,*63
06/11/2014	17:05:54.745	$GPGGA,170604,2525.9935,N,07959.3260,W,1,10,2.2,14,M,,M,,*63
06/11/2014	17:05:55.723	$GPGGA,170605,2525.9938,N,07959.3280,W,1,8,2.2,14,M,,M,,*58
06/11/2014	17:05:56.816	$GPGGA,170606,2525.9941,N,07959.3300,W,1,8,2.2,14,M,,M,,*5C
06/11/2014	17:05:57.858	$GPGGA,170607,2525.9944,N,07959.3320,W,1,9,2.2,15,M,,M,,*5A
06/11/2014	17:05:58.911	$GPGGA,170608,2525.9949,N,07959.3342,W,1,9,2.2,15,M,,M,,*5C
06/11/2014	17:05:59.825	$GPGGA,170609,2525.9952,N,07959.3363,W,1,9,2.2,15,M,,M,,*54
06/11/2014	17:06:00.816	$GPGGA,170610,2525.9956,N,07959.3386,W,1,9,2.2,15,M,,M,,*53
06/11/2014	17:06:01.870	$GPGGA,170611,2525.9957,N,07959.3410,W,1,10,1.4,15,M,,M,,*66
06/11/2014	17:06:02.912	$GPGGA,170612,2525.9960,N,07959.3433,W,1,10,1.4,15,M,,M,,*60
06/11/2014	17:06:03.874	$GPGGA,170613,2525.9966,N,07959.3454,W,1,10,1.4,15,M,,M,,*66
06/11/2014	17:06:04.817	$GPGGA,170614,2525.9968,N,07959.3479,W,1,10,2.2,15,M,,M,,*65
06/11/2014	17:06:05.870	$GPGGA,170615,2525.9974,N,07959.3498,W,1,9,1.4,15,M,,M,,*5B
06/11/2014	17:06:06.833	$GPGGA,170616,2525.9980,N,07959.3519,W,1,9,1.4,15,M,,M,,*5B
06/11/2014	17:06:07.894	$GPGGA,170617,2525.9985,N,07959.3542,W,1,10,1.4,15,M,,M,,*69
06/11/2014	17:06:08.889	$GPGGA,170618,2525.9989,N,07959.3564,W,1,10,1.4,15,M,,M,,*6E
06/11/2014	17:06:09.869	$GPGGA,170619,2525.9995,N,07959.3587,W,1,9,1.4,16,M,,M,,*54
06/11/2014	17:06:10.841	$GPGGA,170620,2526.0000,N,07959.3610,W,1,9,1.4,16,M,,M,,*5C
06/11/2014	17:06:11.854	$GPGGA,170621,2526.0007,N,07959.3634,W,1,9,1.4,16,M,,M,,*5C
06/11/2014	17:06:12.826	$GPGGA,170622,2526.0014,N,07959.3656,W,1,9,1.4,16,M,,M,,*59
06/11/2014	17:06:13.829	$GPGGA,170623,2526.0020,N,07959.3678,W,1,10,1.4,16,M,,M,,*6B
06/11/2014	17:06:14.902	$GPGGA,170624,2526.0027,N,07959.3699,W,1,10,1.4,16,M,,M,,*64
06/11/2014	17:06:15.886	$GPGGA,170625,2526.0035,N,07959.3721,W,1,10,1.4,16,M,,M,,*64
06/11/2014	17:06:16.888	$GPGGA,170626,2526.0043,N,07959.3743,W,1,10,2.2,17,M,,M,,*66
06/11/2014	17:06:17.894	$GPGGA,170627,2526.0051,N,07959.3764,W,1,8,2.2,17,M,,M,,*58
06/11/2014	17:06:18.842	$GPGGA,170628,2526.0060,N,07959.3784,W,1,8,2.2,17,M,,M,,*5B
06/11/2014	17:06:19.955	$GPGGA,170629,2526.0069,N,07959.3804,W,1,9,1.4,17,M,,M,,*50
06/11/2014	17:06:20.897	$GPGGA,170630,2526.0079,N,07959.3826,W,1,9,1.4,17,M,,M,,*59
06/11/2014	17:06:21.950	$GPGGA,170631,2526.0087,N,07959.3847,W,1,10,1.4,17,M,,M,,*66
06/11/2014	17:06:22.892	$GPGGA,170632,2526.0097,N,07959.3869,W,1,10,1.4,17,M,,M,,*68
06/11/2014	17:06:23.865	$GPGGA,170633,2526.0107,N,07959.3891,W,1,10,1.4,18,M,,M,,*69
06/11/2014	17:06:24.837	$GPGGA,170634,2526.0116,N,07959.3913,W,1,10,1.4,18,M,,M,,*65
06/11/2014	17:06:25.835	$GPGGA,170635,2526.0126,N,07959.3935,W,1,10,1.4,18,M,,M,,*63
06/11/2014	17:06:26.972	$GPGGA,170636,2526.0137,N,07959.3959,W,1,10,1.4,18,M,,M,,*6A
06/11/2014	17:06:27.874	$GPGGA,170637,2526.0148,N,07959.3981,W,1,10,1.4,18,M,,M,,*66
06/11/2014	17:06:28.927	$GPGGA,170638,2526.0159,N,07959.4003,W,1,10,1.4,18,M,,M,,*6D
06/11/2014	17:06:29.859	$GPGGA,170639,2526.0170,N,07959.4026,W,1,10,1.4,18,M,,M,,*60
06/11/2014	17:06:30.952	$GPGGA,170640,2526.0181,N,07959.4048,W,1,10,2.0,18,M,,M,,*6F
06/11/2014	17:06:31.905	$GPGGA,170641,2526.0194,N,07959.4068,W,1,9,1.4,18,M,,M,,*57
06/11/2014	17:06:32.927	$GPGGA,170642,2526.0206,N,07959.4090,W,1,9,1.4,18,M,,M,,*5B
06/11/2014	17:06:33.944	$GPGGA,170643,2526.0219,N,07959.4113,W,1,10,1.4,18,M,,M,,*66
06/11/2014	17:06:34.913	$GPGGA,170644,2526.0231,N,07959.4136,W,1,10,1.4,18,M,,M,,*6C
06/11/2014	17:06:35.800	$GPGGA,170645,2526.0242,N,07959.4158,W,1,10,1.4,18,M,,M,,*61
06/11/2014	17:06:36.783	$GPGGA,170646,2526.0256,N,07959.4181,W,1,10,1.4,18,M,,M,,*63
06/11/2014	17:06:37.815	$GPGGA,170647,2526.0268,N,07959.4203,W,1,11,1.4,18,M,,M,,*67
06/11/2014	17:06:38.788	$GPGGA,170648,2526.0281,N,07959.4227,W,1,11,1.4,18,M,,M,,*69
06/11/2014	17:06:39.810	$GPGGA,170649,2526.0293,N,07959.4249,W,1,11,1.4,18,M,,M,,*63
06/11/2014	17:06:40.783	$GPGGA,170650,2526.0306,N,07959.4271,W,1,11,1.4,18,M,,M,,*6D
06/11/2014	17:06:41.796	$GPGGA,170651,2526.0318,N,07959.4293,W,1,11,1.4,18,M,,M,,*6F
06/11/2014	17:06:42.818	$GPGGA,170652,2526.0332,N,07959.4317,W,1,11,1.4,18,M,,M,,*69
06/11/2014	17:06:43.841	$GPGGA,170653,2526.0343,N,07959.4339,W,1,11,1.4,18,M,,M,,*62
06/11/2014	17:06:46.798	$GPGGA,170656,2526.0383,N,07959.4405,W,1,11,1.4,18,M,,M,,*63
06/11/2014	17:06:47.810	$GPGGA,170657,2526.0397,N,07959.4429,W,1,11,1.4,18,M,,M,,*69
06/11/2014	17:06:48.803	$GPGGA,170658,2526.0410,N,07959.4451,W,1,11,1.4,18,M,,M,,*61
06/11/2014	17:06:49.816	$GPGGA,170659,2526.0423,N,07959.4473,W,1,11,1.4,18,M,,M,,*60
06/11/2014	17:06:50.848	$GPGGA,170700,2526.0436,N,07959.4495,W,1,11,1.4,18,M,,M,,*61
06/11/2014	17:06:51.801	$GPGGA,170701,2526.0450,N,07959.4517,W,1,11,1.4,18,M,,M,,*6B
06/11/2014	17:06:52.803	$GPGGA,170702,2526.0463,N,07959.4539,W,1,11,1.4,18,M,,M,,*64
06/11/2014	17:06:53.796	$GPGGA,170703,2526.0477,N,07959.4563,W,1,11,1.4,18,M,,M,,*6F
06/11/2014	17:06:54.809	$GPGGA,170704,2526.0490,N,07959.4585,W,1,11,1.4,18,M,,M,,*69
06/11/2014	17:06:55.791	$GPGGA,170705,2526.0502,N,07959.4607,W,1,11,1.4,18,M,,M,,*6B
06/11/2014	17:06:56.804	$GPGGA,170706,2526.0516,N,07959.4631,W,1,11,1.4,18,M,,M,,*68
06/11/2014	17:06:57.826	$GPGGA,170707,2526.0530,N,07959.4653,W,1,11,1.4,18,M,,M,,*69
06/11/2014	17:06:58.819	$GPGGA,170708,2526.0544,N,07959.4675,W,1,11,1.4,18,M,,M,,*61
06/11/2014	17:06:59.801	$GPGGA,170709,2526.0556,N,07959.4697,W,1,11,1.4,18,M,,M,,*6F
06/11/2014	17:07:00.824	$GPGGA,170710,2526.0571,N,07959.4720,W,1,11,1.4,18,M,,M,,*6F
06/11/2014	17:07:01.836	$GPGGA,170711,2526.0584,N,07959.4743,W,1,11,1.4,18,M,,M,,*61
06/11/2014	17:07:02.818	$GPGGA,170712,2526.0584,N,07959.4743,W,1,11,1.4,18,M,,M,,*62
06/11/2014	17:07:03.801	$GPGGA,170713,2526.0611,N,07959.4787,W,1,11,1.4,18,M,,M,,*64
06/11/2014	17:07:04.793	$GPGGA,170714,2526.0611,N,07959.4787,W,1,11,1.4,18,M,,M,,*63
06/11/2014	17:07:05.806	$GPGGA,170715,2526.0639,N,07959.4834,W,1,11,1.4,18,M,,M,,*6F
06/11/2014	17:07:06.839	$GPGGA,170716,2526.0639,N,07959.4834,W,1,11,1.4,18,M,,M,,*6C
06/11/2014	17:07:07.891	$GPGGA,170717,2526.0667,N,07959.4878,W,1,11,1.4,18,M,,M,,*6E
06/11/2014	17:07:08.824	$GPGGA,170718,2526.0667,N,07959.4878,W,1,11,1.4,17,M,,M,,*6E
06/11/2014	17:07:09.806	$GPGGA,170719,2526.0694,N,07959.4924,W,1,11,1.4,17,M,,M,,*6B
06/11/2014	17:07:10.809	$GPGGA,170720,2526.0694,N,07959.4924,W,1,11,1.4,17,M,,M,,*61
06/11/2014	17:07:11.902	$GPGGA,170721,2526.0722,N,07959.4968,W,1,11,1.4,17,M,,M,,*64
06/11/2014	17:07:12.794	$GPGGA,170722,2526.0722,N,07959.4968,W,1,11,1.4,17,M,,M,,*67
06/11/2014	17:07:13.817	$GPGGA,170723,2526.0750,N,07959.5014,W,1,11,1.4,17,M,,M,,*60
06/11/2014	17:07:14.910	$GPGGA,170724,2526.0765,N,07959.5036,W,1,11,1.4,17,M,,M,,*61
06/11/2014	17:07:15.805	$GPGGA,170725,2526.0779,N,07959.5058,W,1,11,1.4,17,M,,M,,*65
06/11/2014	17:07:16.901	$GPGGA,170726,2526.0793,N,07959.5080,W,1,11,1.4,17,M,,M,,*67
06/11/2014	17:07:17.901	$GPGGA,170727,2526.0808,N,07959.5103,W,1,11,1.4,17,M,,M,,*61
06/11/2014	17:07:18.820	$GPGGA,170728,2526.0808,N,07959.5103,W,1,11,1.4,17,M,,M,,*6E
06/11/2014	17:07:19.912	$GPGGA,170729,2526.0837,N,07959.5149,W,1,11,1.4,17,M,,M,,*6D
06/11/2014	17:07:20.904	$GPGGA,170730,2526.0851,N,07959.5171,W,1,11,1.4,17,M,,M,,*6E
06/11/2014	17:07:21.897	$GPGGA,170731,2526.0866,N,07959.5193,W,1,11,1.4,17,M,,M,,*67
06/11/2014	17:07:22.911	$GPGGA,170732,2526.0881,N,07959.5215,W,1,11,1.4,17,M,,M,,*60
06/11/2014	17:07:23.922	$GPGGA,170733,2526.0896,N,07959.5238,W,1,11,1.4,17,M,,M,,*68
06/11/2014	17:07:24.918	$GPGGA,170734,2526.0910,N,07959.5260,W,1,11,1.4,17,M,,M,,*6D
06/11/2014	17:07:25.927	$GPGGA,170735,2526.0925,N,07959.5282,W,1,10,1.4,17,M,,M,,*67
06/11/2014	17:07:26.910	$GPGGA,170736,2526.0941,N,07959.5304,W,1,10,1.4,17,M,,M,,*69
06/11/2014	17:07:27.942	$GPGGA,170737,2526.0957,N,07959.5326,W,1,10,1.4,17,M,,M,,*6F
06/11/2014	17:07:28.905	$GPGGA,170738,2526.0972,N,07959.5350,W,1,10,1.4,17,M,,M,,*66
06/11/2014	17:07:29.938	$GPGGA,170739,2526.0988,N,07959.5372,W,1,11,1.4,17,M,,M,,*63
06/11/2014	17:07:30.939	$GPGGA,170740,2526.1003,N,07959.5394,W,1,11,1.4,17,M,,M,,*6E
06/11/2014	17:07:31.923	$GPGGA,170741,2526.1018,N,07959.5416,W,1,10,1.4,17,M,,M,,*69
06/11/2014	17:07:32.915	$GPGGA,170742,2526.1032,N,07959.5438,W,1,10,1.4,17,M,,M,,*6E
06/11/2014	17:07:33.942	$GPGGA,170743,2526.1047,N,07959.5462,W,1,10,1.4,17,M,,M,,*62
06/11/2014	17:07:34.911	$GPGGA,170744,2526.1061,N,07959.5484,W,1,10,1.4,17,M,,M,,*69
06/11/2014	17:07:35.771	$GPGGA,170745,2526.1077,N,07959.5506,W,1,11,1.4,17,M,,M,,*65
06/11/2014	17:07:36.761	$GPGGA,170746,2526.1093,N,07959.5527,W,1,11,1.4,17,M,,M,,*6F
06/11/2014	17:07:37.744	$GPGGA,170747,2526.1108,N,07959.5550,W,1,11,1.4,17,M,,M,,*6D
06/11/2014	17:07:38.776	$GPGGA,170748,2526.1124,N,07959.5574,W,1,11,1.4,17,M,,M,,*6A
06/11/2014	17:07:39.748	$GPGGA,170749,2526.1140,N,07959.5596,W,1,11,1.4,17,M,,M,,*65
06/11/2014	17:07:40.761	$GPGGA,170750,2526.1156,N,07959.5618,W,1,11,1.4,17,M,,M,,*6F
06/11/2014	17:07:41.754	$GPGGA,170751,2526.1171,N,07959.5641,W,1,11,1.4,17,M,,M,,*67
06/11/2014	17:07:42.776	$GPGGA,170752,2526.1185,N,07959.5663,W,1,11,1.4,17,M,,M,,*6F
06/11/2014	17:07:43.789	$GPGGA,170753,2526.1200,N,07959.5686,W,1,11,1.4,17,M,,M,,*6B
06/11/2014	17:07:44.751	$GPGGA,170754,2526.1217,N,07959.5708,W,1,11,1.4,17,M,,M,,*6D
06/11/2014	17:07:45.764	$GPGGA,170755,2526.1232,N,07959.5730,W,1,11,1.4,17,M,,M,,*60
06/11/2014	17:07:46.777	$GPGGA,170756,2526.1246,N,07959.5753,W,1,11,1.4,17,M,,M,,*65
06/11/2014	17:07:47.769	$GPGGA,170757,2526.1263,N,07959.5775,W,1,11,1.4,17,M,,M,,*67
06/11/2014	17:07:48.752	$GPGGA,170758,2526.1278,N,07959.5798,W,1,11,1.4,17,M,,M,,*61
06/11/2014	17:07:49.764	$GPGGA,170759,2526.1293,N,07959.5820,W,1,11,1.4,17,M,,M,,*69
06/11/2014	17:07:50.787	$GPGGA,170800,2526.1308,N,07959.5843,W,1,11,1.4,17,M,,M,,*6C
06/11/2014	17:07:51.780	$GPGGA,170801,2526.1325,N,07959.5865,W,1,11,1.4,17,M,,M,,*66
06/11/2014	17:07:52.772	$GPGGA,170802,2526.1340,N,07959.5887,W,1,11,1.4,17,M,,M,,*6A
06/11/2014	17:07:53.795	$GPGGA,170803,2526.1355,N,07959.5910,W,1,11,1.4,17,M,,M,,*60
06/11/2014	17:07:54.766	$GPGGA,170804,2526.1371,N,07959.5932,W,1,11,1.4,17,M,,M,,*61
06/11/2014	17:07:55.779	$GPGGA,170805,2526.1387,N,07959.5954,W,1,11,1.4,17,M,,M,,*69
06/11/2014	17:07:56.752	$GPGGA,170806,2526.1402,N,07959.5975,W,1,11,1.4,17,M,,M,,*63
06/11/2014	17:07:57.754	$GPGGA,170807,2526.1418,N,07959.5997,W,1,11,1.4,16,M,,M,,*64
06/11/2014	17:07:58.787	$GPGGA,170808,2526.1434,N,07959.6019,W,1,11,1.4,16,M,,M,,*69
06/11/2014	17:07:59.880	$GPGGA,170809,2526.1449,N,07959.6042,W,1,11,1.4,16,M,,M,,*6C
06/11/2014	17:08:00.765	$GPGGA,170810,2526.1463,N,07959.6064,W,1,11,1.4,16,M,,M,,*68
06/11/2014	17:08:01.865	$GPGGA,170811,2526.1478,N,07959.6087,W,1,11,1.3,16,M,,M,,*69
06/11/2014	17:08:02.787	$GPGGA,170812,2526.1495,N,07959.6109,W,1,11,1.3,16,M,,M,,*6E
06/11/2014	17:08:03.900	$GPGGA,170813,2526.1510,N,07959.6131,W,1,11,1.3,16,M,,M,,*68
06/11/2014	17:08:04.883	$GPGGA,170814,2526.1524,N,07959.6153,W,1,11,1.4,16,M,,M,,*6B
06/11/2014	17:08:05.875	$GPGGA,170815,2526.1539,N,07959.6175,W,1,9,1.7,16,M,,M,,*58
06/11/2014	17:08:06.869	$GPGGA,170816,2526.1553,N,07959.6196,W,1,9,1.6,16,M,,M,,*5B
06/11/2014	17:08:07.890	$GPGGA,170817,2526.1566,N,07959.6218,W,1,11,1.3,16,M,,M,,*65
06/11/2014	17:08:08.853	$GPGGA,170818,2526.1578,N,07959.6239,W,1,11,1.3,16,M,,M,,*66
06/11/2014	17:08:09.857	$GPGGA,170819,2526.1590,N,07959.6261,W,1,11,1.3,16,M,,M,,*6C
06/11/2014	17:08:10.868	$GPGGA,170820,2526.1604,N,07959.6283,W,1,11,1.3,16,M,,M,,*64
06/11/2014	17:08:11.860	$GPGGA,170821,2526.1617,N,07959.6304,W,1,11,1.3,16,M,,M,,*69
06/11/2014	17:08:12.872	$GPGGA,170822,2526.1629,N,07959.6326,W,1,11,1.3,16,M,,M,,*67
06/11/2014	17:08:13.885	$GPGGA,170823,2526.1642,N,07959.6348,W,1,11,1.3,16,M,,M,,*63
06/11/2014	17:08:14.878	$GPGGA,170824,2526.1654,N,07959.6369,W,1,11,1.3,16,M,,M,,*60
06/11/2014	17:08:15.893	$GPGGA,170825,2526.1665,N,07959.6391,W,1,11,1.3,16,M,,M,,*64
06/11/2014	17:08:16.873	$GPGGA,170826,2526.1678,N,07959.6413,W,1,11,1.3,17,M,,M,,*67
06/11/2014	17:08:17.885	$GPGGA,170827,2526.1689,N,07959.6435,W,1,11,1.3,17,M,,M,,*6C
06/11/2014	17:08:18.878	$GPGGA,170828,2526.1698,N,07959.6457,W,1,11,1.3,17,M,,M,,*67
06/11/2014	17:08:19.891	$GPGGA,170829,2526.1709,N,07959.6479,W,1,10,1.4,17,M,,M,,*65
06/11/2014	17:08:20.863	$GPGGA,170830,2526.1720,N,07959.6501,W,1,10,1.3,17,M,,M,,*6F
06/11/2014	17:08:21.886	$GPGGA,170831,2526.1730,N,07959.6524,W,1,11,1.3,17,M,,M,,*69
06/11/2014	17:08:22.878	$GPGGA,170832,2526.1741,N,07959.6546,W,1,11,1.3,17,M,,M,,*68
06/11/2014	17:08:23.901	$GPGGA,170833,2526.1752,N,07959.6568,W,1,11,1.3,17,M,,M,,*67
06/11/2014	17:08:24.863	$GPGGA,170834,2526.1762,N,07959.6590,W,1,11,1.9,17,M,,M,,*6E
06/11/2014	17:08:25.886	$GPGGA,170835,2526.1769,N,07959.6616,W,1,9,2.1,17,M,,M,,*5B
06/11/2014	17:08:26.889	$GPGGA,170836,2526.1778,N,07959.6636,W,1,9,1.4,17,M,,M,,*5C
06/11/2014	17:08:27.891	$GPGGA,170837,2526.1788,N,07959.6658,W,1,10,1.6,17,M,,M,,*60
06/11/2014	17:08:28.874	$GPGGA,170838,2526.1796,N,07959.6676,W,1,10,1.4,17,M,,M,,*6E
06/11/2014	17:08:29.906	$GPGGA,170839,2526.1805,N,07959.6698,W,1,11,1.3,17,M,,M,,*6C
06/11/2014	17:08:30.888	$GPGGA,170840,2526.1814,N,07959.6720,W,1,11,1.4,17,M,,M,,*67
06/11/2014	17:08:31.871	$GPGGA,170841,2526.1821,N,07959.6742,W,1,11,1.3,17,M,,M,,*63
06/11/2014	17:08:32.893	$GPGGA,170842,2526.1828,N,07959.6764,W,1,11,1.4,17,M,,M,,*6A
06/11/2014	17:08:33.896	$GPGGA,170843,2526.1837,N,07959.6788,W,1,11,1.3,17,M,,M,,*60
06/11/2014	17:08:34.888	$GPGGA,170844,2526.1843,N,07959.6810,W,1,11,1.3,17,M,,M,,*6A
06/11/2014	17:08:35.716	$GPGGA,170845,2526.1850,N,07959.6833,W,1,10,1.4,17,M,,M,,*6E
06/11/2014	17:08:36.719	$GPGGA,170846,2526.1857,N,07959.6855,W,1,10,1.4,17,M,,M,,*6A
06/11/2014	17:08:37.832	$GPGGA,170847,2526.1864,N,07959.6878,W,1,10,1.4,17,M,,M,,*64
06/11/2014	17:08:38.734	$GPGGA,170848,2526.1870,N,07959.6900,W,1,10,1.4,17,M,,M,,*60
06/11/2014	17:08:39.716	$GPGGA,170849,2526.1875,N,07959.6922,W,1,10,1.4,17,M,,M,,*64
06/11/2014	17:08:40.839	$GPGGA,170850,2526.1882,N,07959.6944,W,1,10,1.4,17,M,,M,,*64
06/11/2014	17:08:41.822	$GPGGA,170851,2526.1889,N,07959.6966,W,1,10,1.4,17,M,,M,,*6E
06/11/2014	17:08:42.855	$GPGGA,170852,2526.1895,N,07959.6988,W,1,10,1.4,17,M,,M,,*60
06/11/2014	17:08:43.867	$GPGGA,170853,2526.1902,N,07959.7010,W,1,11,1.3,17,M,,M,,*61
06/11/2014	17:08:44.729	$GPGGA,170854,2526.1907,N,07959.7032,W,1,11,1.3,18,M,,M,,*6C
06/11/2014	17:08:45.852	$GPGGA,170855,2526.1913,N,07959.7053,W,1,10,1.9,18,M,,M,,*64
06/11/2014	17:08:46.744	$GPGGA,170856,2526.1918,N,07959.7077,W,1,10,1.3,18,M,,M,,*60
06/11/2014	17:08:47.827	$GPGGA,170857,2526.1922,N,07959.7100,W,1,11,1.3,18,M,,M,,*68
06/11/2014	17:08:48.729	$GPGGA,170858,2526.1926,N,07959.7124,W,1,11,1.4,18,M,,M,,*62
06/11/2014	17:08:49.731	$GPGGA,170859,2526.1931,N,07959.7144,W,1,11,1.3,18,M,,M,,*64
06/11/2014	17:08:50.764	$GPGGA,170900,2526.1933,N,07959.7167,W,1,11,1.3,18,M,,M,,*6A
06/11/2014	17:08:51.867	$GPGGA,170901,2526.1936,N,07959.7189,W,1,10,1.4,18,M,,M,,*68
06/11/2014	17:08:52.831	$GPGGA,170902,2526.1939,N,07959.7209,W,1,10,1.3,18,M,,M,,*68
06/11/2014	17:08:53.862	$GPGGA,170903,2526.1942,N,07959.7229,W,1,11,1.3,18,M,,M,,*66
06/11/2014	17:08:54.835	$GPGGA,170904,2526.1944,N,07959.7254,W,1,11,1.9,19,M,,M,,*66
06/11/2014	17:08:55.857	$GPGGA,170905,2526.1944,N,07959.7277,W,1,11,1.3,19,M,,M,,*6C
06/11/2014	17:08:56.830	$GPGGA,170906,2526.1947,N,07959.7301,W,1,11,1.3,19,M,,M,,*6C
06/11/2014	17:08:57.852	$GPGGA,170907,2526.1947,N,07959.7323,W,1,11,1.3,19,M,,M,,*6D
06/11/2014	17:08:58.851	$GPGGA,170908,2526.1951,N,07959.7339,W,1,11,1.4,19,M,,M,,*69
06/11/2014	17:08:59.849	$GPGGA,170909,2526.1951,N,07959.7359,W,1,10,1.9,19,M,,M,,*62
06/11/2014	17:09:00.832	$GPGGA,170910,2526.1954,N,07959.7375,W,1,10,2.1,19,M,,M,,*6A
06/11/2014	17:09:01.833	$GPGGA,170911,2526.1955,N,07959.7395,W,1,11,1.3,19,M,,M,,*64
06/11/2014	17:09:02.849	$GPGGA,170912,2526.1955,N,07959.7413,W,1,11,1.3,19,M,,M,,*6E
06/11/2014	17:09:03.827	$GPGGA,170913,2526.1957,N,07959.7431,W,1,10,1.4,19,M,,M,,*6B
06/11/2014	17:09:04.830	$GPGGA,170914,2526.1958,N,07959.7450,W,1,10,1.4,19,M,,M,,*64
06/11/2014	17:09:05.852	$GPGGA,170915,2526.1958,N,07959.7468,W,1,10,1.4,19,M,,M,,*6E
06/11/2014	17:09:06.845	$GPGGA,170916,2526.1958,N,07959.7486,W,1,10,1.3,19,M,,M,,*6A
06/11/2014	17:09:07.827	$GPGGA,170917,2526.1958,N,07959.7504,W,1,11,1.3,19,M,,M,,*61
06/11/2014	17:09:08.840	$GPGGA,170918,2526.1958,N,07959.7522,W,1,11,1.3,19,M,,M,,*6A
06/11/2014	17:09:09.822	$GPGGA,170919,2526.1955,N,07959.7540,W,1,11,1.3,19,M,,M,,*62
06/11/2014	17:09:10.855	$GPGGA,170920,2526.1953,N,07959.7558,W,1,11,1.4,19,M,,M,,*60
06/11/2014	17:09:11.868	$GPGGA,170921,2526.1952,N,07959.7574,W,1,11,1.3,19,M,,M,,*69
06/11/2014	17:09:12.830	$GPGGA,170922,2526.1951,N,07959.7591,W,1,11,1.3,19,M,,M,,*62
06/11/2014	17:09:13.843	$GPGGA,170923,2526.1949,N,07959.7608,W,1,11,1.3,19,M,,M,,*69
06/11/2014	17:09:14.856	$GPGGA,170924,2526.1947,N,07959.7624,W,1,11,1.3,19,M,,M,,*6E
06/11/2014	17:09:15.868	$GPGGA,170925,2526.1944,N,07959.7641,W,1,11,1.3,19,M,,M,,*6F
06/11/2014	17:09:16.841	$GPGGA,170926,2526.1942,N,07959.7659,W,1,11,1.3,19,M,,M,,*63
06/11/2014	17:09:17.843	$GPGGA,170927,2526.1940,N,07959.7675,W,1,11,1.3,19,M,,M,,*6E
06/11/2014	17:09:18.856	$GPGGA,170928,2526.1936,N,07959.7691,W,1,11,1.3,19,M,,M,,*6A
06/11/2014	17:09:19.828	$GPGGA,170929,2526.1933,N,07959.7707,W,1,11,1.3,19,M,,M,,*60
06/11/2014	17:09:20.951	$GPGGA,170930,2526.1930,N,07959.7724,W,1,11,1.3,19,M,,M,,*6A
06/11/2014	17:09:21.833	$GPGGA,170931,2526.1927,N,07959.7740,W,1,11,1.3,19,M,,M,,*6F
06/11/2014	17:09:22.855	$GPGGA,170932,2526.1923,N,07959.7757,W,1,11,1.3,19,M,,M,,*6E
06/11/2014	17:09:23.858	$GPGGA,170933,2526.1920,N,07959.7771,W,1,11,1.3,19,M,,M,,*68
06/11/2014	17:09:24.850	$GPGGA,170934,2526.1917,N,07959.7787,W,1,11,1.3,18,M,,M,,*63
06/11/2014	17:09:25.853	$GPGGA,170935,2526.1913,N,07959.7803,W,1,10,1.4,18,M,,M,,*63
06/11/2014	17:09:26.976	$GPGGA,170936,2526.1909,N,07959.7818,W,1,10,1.3,18,M,,M,,*66
06/11/2014	17:09:27.959	$GPGGA,170937,2526.1905,N,07959.7834,W,1,11,1.3,18,M,,M,,*64
06/11/2014	17:09:28.841	$GPGGA,170938,2526.1900,N,07959.7850,W,1,11,1.3,18,M,,M,,*6C
06/11/2014	17:09:29.853	$GPGGA,170939,2526.1895,N,07959.7865,W,1,11,1.3,18,M,,M,,*66
06/11/2014	17:09:30.866	$GPGGA,170940,2526.1890,N,07959.7879,W,1,11,1.3,18,M,,M,,*60
06/11/2014	17:09:31.860	$GPGGA,170941,2526.1886,N,07959.7894,W,1,10,1.4,18,M,,M,,*63
06/11/2014	17:09:32.931	$GPGGA,170942,2526.1881,N,07959.7909,W,1,10,1.4,18,M,,M,,*62
06/11/2014	17:09:33.854	$GPGGA,170943,2526.1876,N,07959.7921,W,1,10,1.4,18,M,,M,,*61
06/11/2014	17:09:34.957	$GPGGA,170944,2526.1872,N,07959.7934,W,1,10,1.3,18,M,,M,,*61
06/11/2014	17:09:35.705	$GPGGA,170945,2526.1866,N,07959.7948,W,1,10,1.4,18,M,,M,,*69
06/11/2014	17:09:36.708	$GPGGA,170946,2526.1862,N,07959.7960,W,1,10,1.5,17,M,,M,,*6A
06/11/2014	17:09:37.782	$GPGGA,170947,2526.1855,N,07959.7973,W,1,10,1.4,17,M,,M,,*6C
06/11/2014	17:09:38.802	$GPGGA,170948,2526.1850,N,07959.7985,W,1,10,1.3,17,M,,M,,*68
06/11/2014	17:09:39.845	$GPGGA,170949,2526.1842,N,07959.7999,W,1,11,1.3,17,M,,M,,*66
06/11/2014	17:09:40.798	$GPGGA,170950,2526.1834,N,07959.8013,W,1,11,1.3,17,M,,M,,*6B
06/11/2014	17:09:41.790	$GPGGA,170951,2526.1828,N,07959.8024,W,1,11,1.3,17,M,,M,,*63
06/11/2014	17:09:42.804	$GPGGA,170952,2526.1821,N,07959.8038,W,1,11,1.3,17,M,,M,,*64
06/11/2014	17:09:43.785	$GPGGA,170953,2526.1814,N,07959.8049,W,1,11,1.3,17,M,,M,,*65
06/11/2014	17:09:44.788	$GPGGA,170954,2526.1806,N,07959.8061,W,1,11,1.3,17,M,,M,,*6B
06/11/2014	17:09:45.800	$GPGGA,170955,2526.1799,N,07959.8074,W,1,11,1.3,17,M,,M,,*67
06/11/2014	17:09:46.813	$GPGGA,170956,2526.1792,N,07959.8086,W,1,11,1.3,17,M,,M,,*62
06/11/2014	17:09:47.815	$GPGGA,170957,2526.1785,N,07959.8098,W,1,11,1.3,17,M,,M,,*6A
06/11/2014	17:09:48.788	$GPGGA,170958,2526.1778,N,07959.8111,W,1,11,1.3,17,M,,M,,*67
06/11/2014	17:09:49.811	$GPGGA,170959,2526.1771,N,07959.8123,W,1,11,1.3,17,M,,M,,*6E
06/11/2014	17:09:50.813	$GPGGA,171000,2526.1764,N,07959.8136,W,1,11,1.4,17,M,,M,,*6D
06/11/2014	17:09:51.816	$GPGGA,171001,2526.1757,N,07959.8147,W,1,10,1.4,17,M,,M,,*6B
06/11/2014	17:09:52.788	$GPGGA,171002,2526.1750,N,07959.8161,W,1,10,1.4,17,M,,M,,*6B
06/11/2014	17:09:53.781	$GPGGA,171003,2526.1745,N,07959.8170,W,1,9,1.5,17,M,,M,,*57
06/11/2014	17:09:54.804	$GPGGA,171004,2526.1738,N,07959.8181,W,1,9,1.4,17,M,,M,,*55
06/11/2014	17:09:55.806	$GPGGA,171005,2526.1732,N,07959.8194,W,1,10,1.4,17,M,,M,,*62
06/11/2014	17:09:56.798	$GPGGA,171006,2526.1727,N,07959.8205,W,1,10,1.4,17,M,,M,,*6E
06/11/2014	17:09:57.820	$GPGGA,171007,2526.1720,N,07959.8217,W,1,10,1.4,17,M,,M,,*6B
06/11/2014	17:09:58.813	$GPGGA,171008,2526.1713,N,07959.8228,W,1,10,1.4,17,M,,M,,*68
06/11/2014	17:09:59.795	$GPGGA,171009,2526.1707,N,07959.8241,W,1,10,1.4,17,M,,M,,*63
06/11/2014	17:10:00.808	$GPGGA,171010,2526.1702,N,07959.8255,W,1,10,1.4,17,M,,M,,*6B
06/11/2014	17:10:01.801	$GPGGA,171011,2526.1694,N,07959.8266,W,1,10,1.4,17,M,,M,,*64
06/11/2014	17:10:02.823	$GPGGA,171012,2526.1688,N,07959.8278,W,1,10,1.4,17,M,,M,,*65
06/11/2014	17:10:03.816	$GPGGA,171013,2526.1682,N,07959.8291,W,1,10,1.4,17,M,,M,,*69
06/11/2014	17:10:04.788	$GPGGA,171014,2526.1676,N,07959.8303,W,1,10,1.4,17,M,,M,,*6F
06/11/2014	17:10:05.821	$GPGGA,171015,2526.1670,N,07959.8316,W,1,9,1.5,17,M,,M,,*55
06/11/2014	17:10:06.824	$GPGGA,171016,2526.1664,N,07959.8329,W,1,9,1.4,17,M,,M,,*5E
06/11/2014	17:10:07.816	$GPGGA,171017,2526.1657,N,07959.8342,W,1,11,1.3,17,M,,M,,*6C
06/11/2014	17:10:08.809	$GPGGA,171018,2526.1651,N,07959.8354,W,1,11,1.3,17,M,,M,,*62
06/11/2014	17:10:09.811	$GPGGA,171019,2526.1644,N,07959.8368,W,1,11,1.3,17,M,,M,,*68
06/11/2014	17:10:10.935	$GPGGA,171020,2526.1637,N,07959.8382,W,1,11,1.3,17,M,,M,,*62
06/11/2014	17:10:11.927	$GPGGA,171021,2526.1630,N,07959.8393,W,1,11,1.3,17,M,,M,,*64
06/11/2014	17:10:12.799	$GPGGA,171022,2526.1624,N,07959.8407,W,1,11,1.3,17,M,,M,,*68
06/11/2014	17:10:13.800	$GPGGA,171023,2526.1618,N,07959.8421,W,1,11,1.3,17,M,,M,,*62
06/11/2014	17:10:14.933	$GPGGA,171024,2526.1611,N,07959.8433,W,1,11,1.3,18,M,,M,,*60
06/11/2014	17:10:15.946	$GPGGA,171025,2526.1604,N,07959.8447,W,1,11,1.3,18,M,,M,,*66
06/11/2014	17:10:16.918	$GPGGA,171026,2526.1598,N,07959.8461,W,1,11,1.3,18,M,,M,,*67
06/11/2014	17:10:17.901	$GPGGA,171027,2526.1591,N,07959.8475,W,1,11,1.3,18,M,,M,,*6A
06/11/2014	17:10:18.943	$GPGGA,171028,2526.1584,N,07959.8490,W,1,11,1.3,18,M,,M,,*6A
06/11/2014	17:10:19.916	$GPGGA,171029,2526.1577,N,07959.8504,W,1,11,1.3,18,M,,M,,*6B
06/11/2014	17:10:20.908	$GPGGA,171030,2526.1570,N,07959.8519,W,1,11,1.3,18,M,,M,,*68
06/11/2014	17:10:21.811	$GPGGA,171031,2526.1564,N,07959.8533,W,1,11,1.3,18,M,,M,,*64
06/11/2014	17:10:22.923	$GPGGA,171032,2526.1557,N,07959.8548,W,1,11,1.4,18,M,,M,,*6C
06/11/2014	17:10:23.926	$GPGGA,171033,2526.1550,N,07959.8562,W,1,10,1.3,18,M,,M,,*64
06/11/2014	17:10:24.909	$GPGGA,171034,2526.1544,N,07959.8576,W,1,10,1.3,18,M,,M,,*63
06/11/2014	17:10:25.941	$GPGGA,171035,2526.1539,N,07959.8588,W,1,11,1.3,18,M,,M,,*68
06/11/2014	17:10:26.923	$GPGGA,171036,2526.1532,N,07959.8602,W,1,11,1.3,18,M,,M,,*61
06/11/2014	17:10:27.926	$GPGGA,171037,2526.1526,N,07959.8616,W,1,11,1.3,18,M,,M,,*60
06/11/2014	17:10:28.910	$GPGGA,171038,2526.1519,N,07959.8629,W,1,11,1.4,18,M,,M,,*68
06/11/2014	17:10:29.933	$GPGGA,171039,2526.1514,N,07959.8643,W,1,10,1.3,18,M,,M,,*6E
06/11/2014	17:10:30.929	$GPGGA,171040,2526.1508,N,07959.8656,W,1,10,1.3,18,M,,M,,*69
06/11/2014	17:10:31.925	$GPGGA,171041,2526.1501,N,07959.8670,W,1,11,1.4,18,M,,M,,*63
06/11/2014	17:10:32.908	$GPGGA,171042,2526.1494,N,07959.8685,W,1,11,1.3,18,M,,M,,*60
06/11/2014	17:10:33.930	$GPGGA,171043,2526.1487,N,07959.8699,W,1,11,1.3,17,M,,M,,*61
06/11/2014	17:10:34.935	$GPGGA,171044,2526.1481,N,07959.8714,W,1,11,1.4,17,M,,M,,*63
06/11/2014	17:10:35.772	$GPGGA,171045,2526.1474,N,07959.8728,W,1,10,1.4,17,M,,M,,*66
06/11/2014	17:10:36.765	$GPGGA,171046,2526.1468,N,07959.8741,W,1,10,1.4,17,M,,M,,*67
06/11/2014	17:10:37.781	$GPGGA,171047,2526.1461,N,07959.8757,W,1,10,1.4,17,M,,M,,*68
06/11/2014	17:10:38.770	$GPGGA,171048,2526.1456,N,07959.8770,W,1,10,1.4,17,M,,M,,*66
06/11/2014	17:10:39.782	$GPGGA,171049,2526.1449,N,07959.8784,W,1,10,1.4,17,M,,M,,*62
06/11/2014	17:10:40.765	$GPGGA,171050,2526.1442,N,07959.8798,W,1,10,1.5,17,M,,M,,*6D
06/11/2014	17:10:41.757	$GPGGA,171051,2526.1435,N,07959.8813,W,1,9,1.4,17,M,,M,,*59
06/11/2014	17:10:42.791	$GPGGA,171052,2526.1428,N,07959.8827,W,1,9,1.4,17,M,,M,,*51
06/11/2014	17:10:43.752	$GPGGA,171053,2526.1420,N,07959.8842,W,1,10,1.4,17,M,,M,,*63
06/11/2014	17:10:44.765	$GPGGA,171054,2526.1414,N,07959.8856,W,1,10,1.5,17,M,,M,,*67
06/11/2014	17:10:45.787	$GPGGA,171055,2526.1409,N,07959.8870,W,1,9,1.4,17,M,,M,,*57
06/11/2014	17:10:46.770	$GPGGA,171056,2526.1404,N,07959.8884,W,1,9,1.4,17,M,,M,,*52
06/11/2014	17:10:47.792	$GPGGA,171057,2526.1399,N,07959.8896,W,1,10,1.4,17,M,,M,,*6B
06/11/2014	17:10:48.764	$GPGGA,171058,2526.1395,N,07959.8910,W,1,10,1.4,17,M,,M,,*67
06/11/2014	17:10:49.796	$GPGGA,171059,2526.1388,N,07959.8924,W,1,10,1.4,17,M,,M,,*6D
06/11/2014	17:10:50.809	$GPGGA,171100,2526.1382,N,07959.8938,W,1,10,1.4,17,M,,M,,*67
06/11/2014	17:10:51.791	$GPGGA,171101,2526.1376,N,07959.8952,W,1,10,1.4,17,M,,M,,*61
06/11/2014	17:10:52.774	$GPGGA,171102,2526.1369,N,07959.8967,W,1,10,1.3,17,M,,M,,*6D
06/11/2014	17:10:53.776	$GPGGA,171103,2526.1362,N,07959.8979,W,1,11,1.3,17,M,,M,,*69
06/11/2014	17:10:54.779	$GPGGA,171104,2526.1356,N,07959.8993,W,1,11,1.4,17,M,,M,,*6A
06/11/2014	17:10:55.791	$GPGGA,171105,2526.1349,N,07959.9007,W,1,10,1.3,17,M,,M,,*66
06/11/2014	17:10:56.774	$GPGGA,171106,2526.1344,N,07959.9021,W,1,10,1.3,17,M,,M,,*6C
06/11/2014	17:10:57.886	$GPGGA,171107,2526.1337,N,07959.9035,W,1,11,1.3,17,M,,M,,*6D
06/11/2014	17:10:58.789	$GPGGA,171108,2526.1330,N,07959.9048,W,1,11,1.3,17,M,,M,,*6F
06/11/2014	17:10:59.791	$GPGGA,171109,2526.1323,N,07959.9061,W,1,11,1.3,17,M,,M,,*67
06/11/2014	17:11:00.784	$GPGGA,171110,2526.1319,N,07959.9075,W,1,11,1.4,17,M,,M,,*64
06/11/2014	17:11:01.796	$GPGGA,171111,2526.1311,N,07959.9090,W,1,10,1.4,17,M,,M,,*67
06/11/2014	17:11:02.869	$GPGGA,171112,2526.1303,N,07959.9104,W,1,10,1.4,17,M,,M,,*6B
06/11/2014	17:11:03.771	$GPGGA,171113,2526.1297,N,07959.9118,W,1,11,1.4,17,M,,M,,*6A
06/11/2014	17:11:04.861	$GPGGA,171114,2526.1291,N,07959.9131,W,1,11,1.4,17,M,,M,,*60
06/11/2014	17:11:05.876	$GPGGA,171115,2526.1283,N,07959.9144,W,1,10,1.3,17,M,,M,,*66
06/11/2014	17:11:06.868	$GPGGA,171116,2526.1276,N,07959.9158,W,1,10,1.3,17,M,,M,,*62
06/11/2014	17:11:07.780	$GPGGA,171117,2526.1270,N,07959.9173,W,1,11,1.4,17,M,,M,,*6A
06/11/2014	17:11:08.773	$GPGGA,171118,2526.1264,N,07959.9187,W,1,11,1.3,17,M,,M,,*6C
06/11/2014	17:11:09.885	$GPGGA,171119,2526.1256,N,07959.9199,W,1,11,1.3,17,M,,M,,*63
06/11/2014	17:11:10.878	$GPGGA,171120,2526.1250,N,07959.9213,W,1,11,1.3,17,M,,M,,*6E
06/11/2014	17:11:11.871	$GPGGA,171121,2526.1245,N,07959.9227,W,1,11,1.3,17,M,,M,,*6C
06/11/2014	17:11:12.880	$GPGGA,171122,2526.1237,N,07959.9239,W,1,11,1.3,17,M,,M,,*65
06/11/2014	17:11:13.885	$GPGGA,171123,2526.1232,N,07959.9252,W,1,10,1.3,17,M,,M,,*6D
06/11/2014	17:11:14.890	$GPGGA,171124,2526.1225,N,07959.9267,W,1,10,1.3,17,M,,M,,*6A
06/11/2014	17:11:15.910	$GPGGA,171125,2526.1218,N,07959.9281,W,1,11,1.3,17,M,,M,,*6C
06/11/2014	17:11:16.863	$GPGGA,171126,2526.1211,N,07959.9293,W,1,11,1.3,17,M,,M,,*65
06/11/2014	17:11:17.886	$GPGGA,171127,2526.1205,N,07959.9306,W,1,10,1.4,17,M,,M,,*6A
06/11/2014	17:11:18.895	$GPGGA,171128,2526.1199,N,07959.9318,W,1,10,1.3,17,M,,M,,*6B
06/11/2014	17:11:19.870	$GPGGA,171129,2526.1193,N,07959.9332,W,1,11,1.3,17,M,,M,,*69
06/11/2014	17:11:20.864	$GPGGA,171130,2526.1187,N,07959.9344,W,1,11,1.3,16,M,,M,,*64
06/11/2014	17:11:21.865	$GPGGA,171131,2526.1180,N,07959.9357,W,1,11,1.3,16,M,,M,,*60
06/11/2014	17:11:22.888	$GPGGA,171132,2526.1174,N,07959.9371,W,1,11,1.3,16,M,,M,,*6C
06/11/2014	17:11:23.890	$GPGGA,171133,2526.1167,N,07959.9384,W,1,11,1.3,16,M,,M,,*65
06/11/2014	17:11:24.862	$GPGGA,171134,2526.1161,N,07959.9397,W,1,11,1.3,16,M,,M,,*66
06/11/2014	17:11:25.894	$GPGGA,171135,2526.1154,N,07959.9411,W,1,11,1.3,16,M,,M,,*68
06/11/2014	17:11:26.887	$GPGGA,171136,2526.1147,N,07959.9423,W,1,11,1.3,16,M,,M,,*68
06/11/2014	17:11:27.889	$GPGGA,171137,2526.1140,N,07959.9436,W,1,11,1.3,16,M,,M,,*6A
06/11/2014	17:11:28.872	$GPGGA,171138,2526.1134,N,07959.9449,W,1,11,1.3,16,M,,M,,*6E
06/11/2014	17:11:29.864	$GPGGA,171139,2526.1127,N,07959.9462,W,1,10,1.4,16,M,,M,,*62
06/11/2014	17:11:30.887	$GPGGA,171140,2526.1120,N,07959.9476,W,1,10,1.4,16,M,,M,,*6E
06/11/2014	17:11:31.879	$GPGGA,171141,2526.1113,N,07959.9491,W,1,10,1.4,16,M,,M,,*66
06/11/2014	17:11:32.882	$GPGGA,171142,2526.1106,N,07959.9503,W,1,10,1.4,16,M,,M,,*6B
06/11/2014	17:11:33.874	$GPGGA,171143,2526.1099,N,07959.9516,W,1,11,1.3,16,M,,M,,*6F
06/11/2014	17:11:34.877	$GPGGA,171144,2526.1093,N,07959.9530,W,1,11,1.3,16,M,,M,,*66
06/11/2014	17:11:35.751	$GPGGA,171145,2526.1087,N,07959.9543,W,1,11,1.3,16,M,,M,,*66
06/11/2014	17:11:36.724	$GPGGA,171146,2526.1080,N,07959.9556,W,1,11,1.3,16,M,,M,,*66
06/11/2014	17:11:37.726	$GPGGA,171147,2526.1073,N,07959.9570,W,1,10,1.4,16,M,,M,,*69
06/11/2014	17:11:38.839	$GPGGA,171148,2526.1067,N,07959.9581,W,1,10,1.4,16,M,,M,,*6D
06/11/2014	17:11:39.841	$GPGGA,171149,2526.1062,N,07959.9595,W,1,11,1.3,16,M,,M,,*6A
06/11/2014	17:11:40.723	$GPGGA,171150,2526.1057,N,07959.9606,W,1,11,1.4,16,M,,M,,*6A
06/11/2014	17:11:41.745	$GPGGA,171151,2526.1052,N,07959.9617,W,1,11,1.3,16,M,,M,,*69
06/11/2014	17:11:42.727	$GPGGA,171152,2526.1049,N,07959.9628,W,1,11,1.3,16,M,,M,,*6C
06/11/2014	17:11:43.840	$GPGGA,171153,2526.1046,N,07959.9639,W,1,11,1.3,16,M,,M,,*62
06/11/2014	17:11:44.722	$GPGGA,171154,2526.1044,N,07959.9650,W,1,11,1.3,16,M,,M,,*68
06/11/2014	17:11:45.725	$GPGGA,171155,2526.1040,N,07959.9660,W,1,11,1.3,16,M,,M,,*6E
