Software Version Number: 1	Data File Format Number: 1	Build Version Number: 1	Error Count Since VI Started: 0	Manufacturer: Raytheon	 Model Number: RayMarine 120	 S/N: 	 Cal Date: 	 Wind Direction Offset: 0.00	 Slope (M)1: 0.00	 Offset (B)1: 0.00	 Slope (M)2: 0.00	 Offset (B)2: 0.00	 Slope (M)3: 0.00	 Offset (B)3: 0.00	 Slope (M)4: 0.00	 Offset (B)4: 0.00	 Slope (M)5: 0.00	 Offset (B)5: 0.00	 Slope (M)6: 0.00	 Offset (B)6: 0.00
Computer Date	Computer Time	GGA String
05/29/2014	01:00:00.250	$GPGGA,010000,2608.2549,N,07954.1525,W,1,8,1.7,18,M,,M,,*5C
05/29/2014	01:00:01.258	$GPGGA,010001,2608.2542,N,07954.1508,W,1,8,1.7,18,M,,M,,*59
05/29/2014	01:00:02.164	$GPGGA,010002,2608.2542,N,07954.1508,W,1,8,1.7,18,M,,M,,*5A
05/29/2014	01:00:03.202	$GPGGA,010003,2608.2525,N,07954.1474,W,1,8,1.7,18,M,,M,,*50
05/29/2014	01:00:04.231	$GPGGA,010004,2608.2525,N,07954.1474,W,1,8,1.7,18,M,,M,,*57
05/29/2014	01:00:05.270	$GPGGA,010005,2608.2509,N,07954.1440,W,1,8,1.7,18,M,,M,,*5F
05/29/2014	01:00:06.309	$GPGGA,010006,2608.2502,N,07954.1422,W,1,8,1.7,18,M,,M,,*53
05/29/2014	01:00:07.298	$GPGGA,010007,2608.2495,N,07954.1405,W,1,8,1.7,18,M,,M,,*58
05/29/2014	01:00:08.459	$GPGGA,010008,2608.2487,N,07954.1388,W,1,8,1.7,18,M,,M,,*56
05/29/2014	01:00:09.448	$GPGGA,010009,2608.2480,N,07954.1371,W,1,8,1.7,18,M,,M,,*56
05/29/2014	01:00:10.383	$GPGGA,010010,2608.2473,N,07954.1353,W,1,8,1.7,18,M,,M,,*52
05/29/2014	01:00:11.494	$GPGGA,010011,2608.2466,N,07954.1336,W,1,8,1.7,18,M,,M,,*54
05/29/2014	01:00:12.543	$GPGGA,010012,2608.2458,N,07954.1319,W,1,8,1.7,18,M,,M,,*57
05/29/2014	01:00:13.562	$GPGGA,010013,2608.2450,N,07954.1300,W,1,8,1.7,18,M,,M,,*56
05/29/2014	01:00:14.579	$GPGGA,010014,2608.2442,N,07954.1284,W,1,8,1.7,17,M,,M,,*50
05/29/2014	01:00:15.638	$GPGGA,010015,2608.2435,N,07954.1266,W,1,8,1.7,17,M,,M,,*5D
05/29/2014	01:00:16.667	$GPGGA,010016,2608.2428,N,07954.1248,W,1,8,1.7,17,M,,M,,*5E
05/29/2014	01:00:17.685	$GPGGA,010017,2608.2420,N,07954.1231,W,1,8,1.7,17,M,,M,,*59
05/29/2014	01:00:18.683	$GPGGA,010018,2608.2413,N,07954.1214,W,1,8,1.7,17,M,,M,,*51
05/29/2014	01:00:21.238	$GPGGA,010020,2608.2399,N,07954.1179,W,1,8,1.7,17,M,,M,,*57
05/29/2014	01:00:21.800	$GPGGA,010021,2608.2392,N,07954.1162,W,1,8,1.7,17,M,,M,,*57
05/29/2014	01:00:22.789	$GPGGA,010022,2608.2385,N,07954.1144,W,1,8,1.7,17,M,,M,,*56
05/29/2014	01:00:23.838	$GPGGA,010023,2608.2377,N,07954.1126,W,1,8,1.7,17,M,,M,,*5E
05/29/2014	01:00:24.866	$GPGGA,010024,2608.2370,N,07954.1109,W,1,8,1.7,17,M,,M,,*53
05/29/2014	01:00:25.884	$GPGGA,010025,2608.2363,N,07954.1091,W,1,8,1.7,17,M,,M,,*50
05/29/2014	01:00:26.904	$GPGGA,010026,2608.2356,N,07954.1073,W,1,8,1.7,17,M,,M,,*59
05/29/2014	01:00:27.942	$GPGGA,010027,2608.2350,N,07954.1056,W,1,8,1.7,17,M,,M,,*59
05/29/2014	01:00:28.960	$GPGGA,010028,2608.2343,N,07954.1038,W,1,8,1.7,17,M,,M,,*5C
05/29/2014	01:00:29.999	$GPGGA,010029,2608.2336,N,07954.1020,W,1,8,1.7,17,M,,M,,*56
05/29/2014	01:00:31.007	$GPGGA,010030,2608.2328,N,07954.1003,W,1,8,1.7,17,M,,M,,*50
05/29/2014	01:00:32.046	$GPGGA,010031,2608.2320,N,07954.0985,W,1,8,1.7,17,M,,M,,*5F
05/29/2014	01:00:33.064	$GPGGA,010032,2608.2314,N,07954.0967,W,1,8,1.7,17,M,,M,,*57
05/29/2014	01:00:34.082	$GPGGA,010033,2608.2307,N,07954.0949,W,1,8,1.7,17,M,,M,,*58
05/29/2014	01:00:35.100	$GPGGA,010034,2608.2297,N,07954.0932,W,1,8,1.7,17,M,,M,,*5B
05/29/2014	01:00:36.160	$GPGGA,010035,2608.2290,N,07954.0914,W,1,8,1.7,17,M,,M,,*59
05/29/2014	01:00:37.189	$GPGGA,010036,2608.2283,N,07954.0897,W,1,8,1.7,17,M,,M,,*52
05/29/2014	01:00:38.186	$GPGGA,010037,2608.2275,N,07954.0879,W,1,8,1.7,17,M,,M,,*5A
05/29/2014	01:00:39.225	$GPGGA,010038,2608.2267,N,07954.0862,W,1,8,1.7,17,M,,M,,*5C
05/29/2014	01:00:40.234	$GPGGA,010039,2608.2261,N,07954.0845,W,1,8,1.7,17,M,,M,,*5E
05/29/2014	01:00:39.551	$GPGGA,010040,2608.2253,N,07954.0828,W,1,8,1.7,16,M,,M,,*5B
05/29/2014	01:00:40.602	$GPGGA,010041,2608.2246,N,07954.0811,W,1,8,1.7,16,M,,M,,*54
05/29/2014	01:00:41.609	$GPGGA,010042,2608.2239,N,07954.0793,W,1,8,1.7,16,M,,M,,*5A
05/29/2014	01:00:42.627	$GPGGA,010043,2608.2231,N,07954.0776,W,1,8,1.7,16,M,,M,,*58
05/29/2014	01:00:43.687	$GPGGA,010044,2608.2224,N,07954.0760,W,1,8,1.7,16,M,,M,,*5C
05/29/2014	01:00:44.695	$GPGGA,010045,2608.2217,N,07954.0742,W,1,8,1.7,16,M,,M,,*5D
05/29/2014	01:00:45.703	$GPGGA,010046,2608.2208,N,07954.0725,W,1,8,1.7,16,M,,M,,*51
05/29/2014	01:00:46.742	$GPGGA,010047,2608.2200,N,07954.0709,W,1,8,1.7,16,M,,M,,*56
05/29/2014	01:00:47.781	$GPGGA,010048,2608.2193,N,07954.0691,W,1,8,1.7,16,M,,M,,*50
05/29/2014	01:00:48.790	$GPGGA,010049,2608.2185,N,07954.0674,W,1,8,1.7,16,M,,M,,*5D
05/29/2014	01:00:49.808	$GPGGA,010050,2608.2177,N,07954.0658,W,1,8,1.7,16,M,,M,,*56
05/29/2014	01:00:50.856	$GPGGA,010051,2608.2170,N,07954.0641,W,1,8,1.7,16,M,,M,,*58
05/29/2014	01:00:51.874	$GPGGA,010052,2608.2163,N,07954.0624,W,1,8,1.7,16,M,,M,,*5A
05/29/2014	01:00:52.903	$GPGGA,010053,2608.2155,N,07954.0608,W,1,8,1.7,16,M,,M,,*50
05/29/2014	01:00:53.911	$GPGGA,010054,2608.2148,N,07954.0591,W,1,8,1.7,16,M,,M,,*58
05/29/2014	01:00:54.940	$GPGGA,010055,2608.2141,N,07954.0575,W,1,8,1.7,16,M,,M,,*5A
05/29/2014	01:00:56.102	$GPGGA,010056,2608.2131,N,07954.0559,W,1,8,1.7,16,M,,M,,*50
05/29/2014	01:00:57.011	$GPGGA,010057,2608.2124,N,07954.0541,W,1,8,1.7,16,M,,M,,*5C
05/29/2014	01:00:58.026	$GPGGA,010058,2608.2115,N,07954.0525,W,1,8,1.7,16,M,,M,,*53
05/29/2014	01:00:59.055	$GPGGA,010059,2608.2108,N,07954.0509,W,1,8,1.7,16,M,,M,,*50
05/29/2014	01:01:00.124	$GPGGA,010100,2608.2099,N,07954.0492,W,1,8,1.7,16,M,,M,,*57
05/29/2014	01:01:01.246	$GPGGA,010101,2608.2091,N,07954.0475,W,1,8,1.7,16,M,,M,,*57
05/29/2014	01:01:02.142	$GPGGA,010102,2608.2083,N,07954.0460,W,1,8,1.7,16,M,,M,,*53
05/29/2014	01:01:03.284	$GPGGA,010103,2608.2076,N,07954.0444,W,1,8,1.7,16,M,,M,,*5E
05/29/2014	01:01:04.288	$GPGGA,010104,2608.2068,N,07954.0427,W,1,8,1.7,16,M,,M,,*53
05/29/2014	01:01:05.290	$GPGGA,010105,2608.2061,N,07954.0411,W,1,8,1.7,16,M,,M,,*5E
05/29/2014	01:01:06.292	$GPGGA,010106,2608.2052,N,07954.0396,W,1,8,1.7,16,M,,M,,*55
05/29/2014	01:01:07.293	$GPGGA,010107,2608.2044,N,07954.0379,W,1,8,1.7,16,M,,M,,*52
05/29/2014	01:01:08.355	$GPGGA,010108,2608.2036,N,07954.0363,W,1,8,1.7,16,M,,M,,*53
05/29/2014	01:01:09.347	$GPGGA,010109,2608.2027,N,07954.0346,W,1,8,1.7,16,M,,M,,*55
05/29/2014	01:01:10.328	$GPGGA,010110,2608.2020,N,07954.0329,W,1,8,1.7,16,M,,M,,*53
05/29/2014	01:01:11.350	$GPGGA,010111,2608.2012,N,07954.0313,W,1,8,1.7,16,M,,M,,*5A
05/29/2014	01:01:12.363	$GPGGA,010112,2608.2004,N,07954.0295,W,1,8,1.7,16,M,,M,,*51
05/29/2014	01:01:13.374	$GPGGA,010113,2608.1997,N,07954.0278,W,1,8,1.7,16,M,,M,,*53
05/29/2014	01:01:14.386	$GPGGA,010114,2608.1989,N,07954.0262,W,1,8,1.7,16,M,,M,,*50
05/29/2014	01:01:15.398	$GPGGA,010115,2608.1982,N,07954.0244,W,1,8,1.7,16,M,,M,,*5E
05/29/2014	01:01:16.411	$GPGGA,010116,2608.1974,N,07954.0228,W,1,8,1.7,16,M,,M,,*5E
05/29/2014	01:01:17.412	$GPGGA,010117,2608.1967,N,07954.0211,W,1,8,1.7,16,M,,M,,*57
05/29/2014	01:01:18.413	$GPGGA,010118,2608.1960,N,07954.0194,W,1,8,1.9,16,M,,M,,*5F
05/29/2014	01:01:19.435	$GPGGA,010119,2608.1951,N,07954.0177,W,1,7,1.9,16,M,,M,,*5E
05/29/2014	01:01:20.438	$GPGGA,010120,2608.1943,N,07954.0160,W,1,7,1.7,16,M,,M,,*5F
05/29/2014	01:01:21.429	$GPGGA,010121,2608.1937,N,07954.0142,W,1,8,1.7,16,M,,M,,*52
05/29/2014	01:01:22.451	$GPGGA,010122,2608.1931,N,07954.0125,W,1,8,1.7,16,M,,M,,*56
05/29/2014	01:01:23.483	$GPGGA,010123,2608.1922,N,07954.0108,W,1,8,1.7,16,M,,M,,*5A
05/29/2014	01:01:24.484	$GPGGA,010124,2608.1915,N,07954.0091,W,1,8,1.7,16,M,,M,,*58
05/29/2014	01:01:25.496	$GPGGA,010125,2608.1908,N,07954.0073,W,1,8,1.7,16,M,,M,,*59
05/29/2014	01:01:26.497	$GPGGA,010126,2608.1900,N,07954.0057,W,1,8,1.7,15,M,,M,,*57
05/29/2014	01:01:27.489	$GPGGA,010127,2608.1895,N,07954.0039,W,1,8,1.7,15,M,,M,,*53
05/29/2014	01:01:28.521	$GPGGA,010128,2608.1886,N,07954.0022,W,1,8,1.7,15,M,,M,,*54
05/29/2014	01:01:29.505	$GPGGA,010129,2608.1880,N,07954.0004,W,1,8,1.7,15,M,,M,,*57
05/29/2014	01:01:30.535	$GPGGA,010130,2608.1874,N,07953.9987,W,1,8,1.7,15,M,,M,,*58
05/29/2014	01:01:31.537	$GPGGA,010131,2608.1868,N,07953.9969,W,1,8,1.7,15,M,,M,,*54
05/29/2014	01:01:32.559	$GPGGA,010132,2608.1860,N,07953.9953,W,1,8,1.7,15,M,,M,,*56
05/29/2014	01:01:33.571	$GPGGA,010133,2608.1855,N,07953.9935,W,1,8,1.7,15,M,,M,,*51
05/29/2014	01:01:34.572	$GPGGA,010134,2608.1848,N,07953.9918,W,1,8,1.7,15,M,,M,,*55
05/29/2014	01:01:35.605	$GPGGA,010135,2608.1841,N,07953.9900,W,1,8,1.7,15,M,,M,,*54
05/29/2014	01:01:36.588	$GPGGA,010136,2608.1832,N,07953.9882,W,1,8,1.7,15,M,,M,,*58
05/29/2014	01:01:37.608	$GPGGA,010137,2608.1825,N,07953.9865,W,1,8,1.7,15,M,,M,,*56
05/29/2014	01:01:38.601	$GPGGA,010138,2608.1819,N,07953.9847,W,1,8,1.7,15,M,,M,,*56
05/29/2014	01:01:39.627	$GPGGA,010139,2608.1810,N,07953.9829,W,1,8,1.7,15,M,,M,,*56
05/29/2014	01:01:39.641	$GPGGA,010140,2608.1802,N,07953.9811,W,1,8,1.9,15,M,,M,,*5E
05/29/2014	01:01:40.663	$GPGGA,010141,2608.1794,N,07953.9793,W,1,8,1.7,15,M,,M,,*54
05/29/2014	01:01:41.542	$GPGGA,010142,2608.1787,N,07953.9776,W,1,8,1.7,15,M,,M,,*5E
05/29/2014	01:01:42.645	$GPGGA,010143,2608.1780,N,07953.9758,W,1,8,1.7,15,M,,M,,*54
05/29/2014	01:01:43.560	$GPGGA,010144,2608.1773,N,07953.9741,W,1,8,1.9,15,M,,M,,*59
05/29/2014	01:01:44.659	$GPGGA,010145,2608.1765,N,07953.9724,W,1,8,1.7,15,M,,M,,*52
05/29/2014	01:01:45.661	$GPGGA,010146,2608.1758,N,07953.9706,W,1,8,1.9,15,M,,M,,*51
05/29/2014	01:01:46.582	$GPGGA,010147,2608.1750,N,07953.9689,W,1,8,1.7,15,M,,M,,*50
05/29/2014	01:01:47.715	$GPGGA,010148,2608.1742,N,07953.9672,W,1,8,1.7,15,M,,M,,*58
05/29/2014	01:01:48.707	$GPGGA,010149,2608.1734,N,07953.9655,W,1,8,1.7,15,M,,M,,*5D
05/29/2014	01:01:49.607	$GPGGA,010150,2608.1727,N,07953.9637,W,1,8,1.7,15,M,,M,,*53
05/29/2014	01:01:50.619	$GPGGA,010151,2608.1719,N,07953.9620,W,1,8,1.7,15,M,,M,,*59
05/29/2014	01:01:51.763	$GPGGA,010152,2608.1711,N,07953.9602,W,1,8,1.7,15,M,,M,,*52
05/29/2014	01:01:52.745	$GPGGA,010153,2608.1703,N,07953.9585,W,1,8,1.7,15,M,,M,,*5C
05/29/2014	01:01:53.747	$GPGGA,010154,2608.1695,N,07953.9568,W,1,8,1.7,15,M,,M,,*56
05/29/2014	01:01:54.788	$GPGGA,010155,2608.1689,N,07953.9551,W,1,8,1.7,15,M,,M,,*50
05/29/2014	01:01:55.771	$GPGGA,010156,2608.1680,N,07953.9533,W,1,8,1.7,15,M,,M,,*5E
05/29/2014	01:01:56.792	$GPGGA,010157,2608.1672,N,07953.9517,W,1,8,1.7,15,M,,M,,*54
05/29/2014	01:01:57.783	$GPGGA,010158,2608.1664,N,07953.9500,W,1,8,1.7,15,M,,M,,*5A
05/29/2014	01:01:58.804	$GPGGA,010159,2608.1657,N,07953.9483,W,1,8,1.7,15,M,,M,,*51
05/29/2014	01:01:59.827	$GPGGA,010200,2608.1649,N,07953.9467,W,1,8,1.7,15,M,,M,,*5B
05/29/2014	01:02:00.839	$GPGGA,010201,2608.1642,N,07953.9449,W,1,8,1.7,15,M,,M,,*5D
05/29/2014	01:02:01.830	$GPGGA,010202,2608.1633,N,07953.9432,W,1,8,1.9,15,M,,M,,*5A
05/29/2014	01:02:02.852	$GPGGA,010203,2608.1625,N,07953.9415,W,1,8,1.7,15,M,,M,,*57
05/29/2014	01:02:03.865	$GPGGA,010204,2608.1617,N,07953.9398,W,1,8,1.7,15,M,,M,,*53
05/29/2014	01:02:04.886	$GPGGA,010205,2608.1608,N,07953.9381,W,1,8,1.7,15,M,,M,,*54
05/29/2014	01:02:05.858	$GPGGA,010206,2608.1601,N,07953.9365,W,1,8,1.7,15,M,,M,,*54
05/29/2014	01:02:06.900	$GPGGA,010207,2608.1593,N,07953.9347,W,1,8,1.7,15,M,,M,,*5D
05/29/2014	01:02:07.891	$GPGGA,010208,2608.1584,N,07953.9331,W,1,8,1.7,15,M,,M,,*55
05/29/2014	01:02:08.924	$GPGGA,010209,2608.1577,N,07953.9315,W,1,8,1.7,15,M,,M,,*5E
05/29/2014	01:02:09.895	$GPGGA,010210,2608.1570,N,07953.9297,W,1,8,1.7,15,M,,M,,*5A
05/29/2014	01:02:10.907	$GPGGA,010211,2608.1561,N,07953.9280,W,1,8,1.7,15,M,,M,,*5D
05/29/2014	01:02:11.939	$GPGGA,010212,2608.1552,N,07953.9264,W,1,8,1.7,15,M,,M,,*54
05/29/2014	01:02:12.961	$GPGGA,010213,2608.1545,N,07953.9247,W,1,8,1.7,15,M,,M,,*52
05/29/2014	01:02:13.953	$GPGGA,010214,2608.1537,N,07953.9230,W,1,8,1.7,15,M,,M,,*50
05/29/2014	01:02:14.944	$GPGGA,010215,2608.1530,N,07953.9215,W,1,8,1.7,15,M,,M,,*51
05/29/2014	01:02:15.976	$GPGGA,010216,2608.1521,N,07953.9197,W,1,8,1.7,15,M,,M,,*5B
05/29/2014	01:02:16.977	$GPGGA,010217,2608.1514,N,07953.9181,W,1,8,1.7,15,M,,M,,*5B
05/29/2014	01:02:17.999	$GPGGA,010218,2608.1506,N,07953.9165,W,1,8,1.7,15,M,,M,,*5D
05/29/2014	01:02:19.001	$GPGGA,010219,2608.1498,N,07953.9147,W,1,8,1.7,15,M,,M,,*5A
05/29/2014	01:02:20.124	$GPGGA,010220,2608.1491,N,07953.9130,W,1,8,1.7,15,M,,M,,*59
05/29/2014	01:02:21.010	$GPGGA,010221,2608.1483,N,07953.9114,W,1,8,1.7,15,M,,M,,*5D
05/29/2014	01:02:22.027	$GPGGA,010222,2608.1476,N,07953.9096,W,1,8,1.7,15,M,,M,,*5F
05/29/2014	01:02:23.023	$GPGGA,010223,2608.1469,N,07953.9079,W,1,8,1.7,15,M,,M,,*51
05/29/2014	01:02:24.060	$GPGGA,010224,2608.1462,N,07953.9063,W,1,8,1.7,15,M,,M,,*56
05/29/2014	01:02:25.044	$GPGGA,010225,2608.1454,N,07953.9046,W,1,8,1.7,15,M,,M,,*55
05/29/2014	01:02:26.083	$GPGGA,010226,2608.1447,N,07953.9028,W,1,8,1.7,15,M,,M,,*5C
05/29/2014	01:02:27.180	$GPGGA,010227,2608.1440,N,07953.9012,W,1,8,1.7,15,M,,M,,*53
05/29/2014	01:02:28.209	$GPGGA,010228,2608.1432,N,07953.8994,W,1,8,1.7,15,M,,M,,*5F
05/29/2014	01:02:29.192	$GPGGA,010229,2608.1423,N,07953.8976,W,1,8,1.7,15,M,,M,,*52
05/29/2014	01:02:30.103	$GPGGA,010230,2608.1415,N,07953.8959,W,1,8,1.7,15,M,,M,,*52
05/29/2014	01:02:31.125	$GPGGA,010231,2608.1407,N,07953.8941,W,1,7,1.9,15,M,,M,,*58
05/29/2014	01:02:32.125	$GPGGA,010232,2608.1401,N,07953.8924,W,1,7,1.9,15,M,,M,,*5E
05/29/2014	01:02:33.239	$GPGGA,010233,2608.1393,N,07953.8906,W,1,8,1.7,15,M,,M,,*52
05/29/2014	01:02:34.239	$GPGGA,010234,2608.1386,N,07953.8888,W,1,8,1.7,15,M,,M,,*56
05/29/2014	01:02:35.188	$GPGGA,010235,2608.1378,N,07953.8871,W,1,8,1.7,15,M,,M,,*50
05/29/2014	01:02:36.172	$GPGGA,010236,2608.1371,N,07953.8853,W,1,8,1.7,15,M,,M,,*5A
05/29/2014	01:02:37.275	$GPGGA,010237,2608.1364,N,07953.8834,W,1,8,1.7,15,M,,M,,*5E
05/29/2014	01:02:38.267	$GPGGA,010238,2608.1355,N,07953.8817,W,1,8,1.7,15,M,,M,,*52
05/29/2014	01:02:39.278	$GPGGA,010239,2608.1348,N,07953.8799,W,1,8,1.7,15,M,,M,,*56
05/29/2014	01:02:39.598	$GPGGA,010240,2608.1342,N,07953.8781,W,1,8,1.7,14,M,,M,,*5A
05/29/2014	01:02:40.640	$GPGGA,010241,2608.1333,N,07953.8764,W,1,7,2.0,14,M,,M,,*5D
05/29/2014	01:02:41.601	$GPGGA,010242,2608.1328,N,07953.8747,W,1,7,1.7,14,M,,M,,*51
05/29/2014	01:02:42.664	$GPGGA,010243,2608.1322,N,07953.8729,W,1,8,1.7,14,M,,M,,*5D
05/29/2014	01:02:43.636	$GPGGA,010244,2608.1315,N,07953.8712,W,1,8,1.7,14,M,,M,,*56
05/29/2014	01:02:44.647	$GPGGA,010245,2608.1307,N,07953.8695,W,1,8,1.7,14,M,,M,,*5A
05/29/2014	01:02:45.629	$GPGGA,010246,2608.1301,N,07953.8677,W,1,8,1.7,14,M,,M,,*53
05/29/2014	01:02:46.681	$GPGGA,010247,2608.1294,N,07953.8660,W,1,8,1.7,14,M,,M,,*59
05/29/2014	01:02:47.673	$GPGGA,010248,2608.1288,N,07953.8642,W,1,8,1.7,14,M,,M,,*5B
05/29/2014	01:02:48.695	$GPGGA,010249,2608.1281,N,07953.8625,W,1,8,1.7,14,M,,M,,*52
05/29/2014	01:02:49.676	$GPGGA,010250,2608.1273,N,07953.8608,W,1,8,1.7,14,M,,M,,*58
05/29/2014	01:02:50.708	$GPGGA,010251,2608.1265,N,07953.8590,W,1,8,1.7,14,M,,M,,*5C
05/29/2014	01:02:51.709	$GPGGA,010252,2608.1257,N,07953.8571,W,1,8,2.0,14,M,,M,,*55
05/29/2014	01:02:52.731	$GPGGA,010253,2608.1250,N,07953.8555,W,1,7,2.0,14,M,,M,,*5A
05/29/2014	01:02:53.723	$GPGGA,010254,2608.1243,N,07953.8538,W,1,7,1.7,14,M,,M,,*50
05/29/2014	01:02:54.735	$GPGGA,010255,2608.1235,N,07953.8519,W,1,8,1.7,14,M,,M,,*5C
05/29/2014	01:02:55.747	$GPGGA,010256,2608.1228,N,07953.8502,W,1,8,2.0,14,M,,M,,*5D
05/29/2014	01:02:56.738	$GPGGA,010257,2608.1221,N,07953.8485,W,1,8,1.7,14,M,,M,,*5F
05/29/2014	01:02:57.760	$GPGGA,010258,2608.1214,N,07953.8466,W,1,8,1.7,14,M,,M,,*5B
05/29/2014	01:02:58.792	$GPGGA,010259,2608.1206,N,07953.8450,W,1,8,1.7,14,M,,M,,*5C
05/29/2014	01:02:59.804	$GPGGA,010300,2608.1199,N,07953.8433,W,1,8,1.7,14,M,,M,,*51
05/29/2014	01:03:00.786	$GPGGA,010301,2608.1192,N,07953.8415,W,1,8,1.7,14,M,,M,,*5F
05/29/2014	01:03:01.818	$GPGGA,010302,2608.1185,N,07953.8398,W,1,8,1.7,14,M,,M,,*58
05/29/2014	01:03:02.799	$GPGGA,010303,2608.1178,N,07953.8381,W,1,8,1.7,15,M,,M,,*52
05/29/2014	01:03:03.832	$GPGGA,010304,2608.1172,N,07953.8364,W,1,8,1.7,15,M,,M,,*54
05/29/2014	01:03:04.854	$GPGGA,010305,2608.1165,N,07953.8346,W,1,8,1.7,15,M,,M,,*53
05/29/2014	01:03:05.855	$GPGGA,010306,2608.1156,N,07953.8329,W,1,8,1.7,15,M,,M,,*59
05/29/2014	01:03:06.857	$GPGGA,010307,2608.1149,N,07953.8311,W,1,8,1.7,15,M,,M,,*5D
05/29/2014	01:03:07.869	$GPGGA,010308,2608.1142,N,07953.8293,W,1,8,1.7,15,M,,M,,*52
05/29/2014	01:03:08.870	$GPGGA,010309,2608.1135,N,07953.8277,W,1,8,1.7,15,M,,M,,*59
05/29/2014	01:03:09.872	$GPGGA,010310,2608.1127,N,07953.8260,W,1,8,1.7,15,M,,M,,*54
05/29/2014	01:03:10.894	$GPGGA,010311,2608.1120,N,07953.8243,W,1,8,1.7,15,M,,M,,*53
05/29/2014	01:03:11.910	$GPGGA,010312,2608.1113,N,07953.8226,W,1,8,1.7,15,M,,M,,*53
05/29/2014	01:03:12.917	$GPGGA,010313,2608.1106,N,07953.8210,W,1,8,1.7,15,M,,M,,*53
05/29/2014	01:03:14.011	$GPGGA,010314,2608.1098,N,07953.8194,W,1,8,1.7,16,M,,M,,*5E
05/29/2014	01:03:15.052	$GPGGA,010315,2608.1090,N,07953.8176,W,1,8,1.7,16,M,,M,,*5B
05/29/2014	01:03:15.943	$GPGGA,010316,2608.1082,N,07953.8159,W,1,8,1.7,16,M,,M,,*56
05/29/2014	01:03:16.955	$GPGGA,010317,2608.1072,N,07953.8142,W,1,8,1.7,16,M,,M,,*52
05/29/2014	01:03:17.958	$GPGGA,010318,2608.1064,N,07953.8124,W,1,8,2.0,16,M,,M,,*5E
05/29/2014	01:03:18.980	$GPGGA,010319,2608.1057,N,07953.8106,W,1,7,2.0,16,M,,M,,*50
05/29/2014	01:03:20.021	$GPGGA,010320,2608.1048,N,07953.8089,W,1,7,1.7,16,M,,M,,*56
05/29/2014	01:03:21.005	$GPGGA,010321,2608.1040,N,07953.8072,W,1,8,1.7,16,M,,M,,*54
05/29/2014	01:03:22.095	$GPGGA,010322,2608.1033,N,07953.8055,W,1,8,1.7,16,M,,M,,*56
05/29/2014	01:03:23.127	$GPGGA,010323,2608.1025,N,07953.8038,W,1,8,1.7,16,M,,M,,*5B
05/29/2014	01:03:24.030	$GPGGA,010324,2608.1018,N,07953.8021,W,1,8,1.7,16,M,,M,,*5A
05/29/2014	01:03:25.131	$GPGGA,010325,2608.1011,N,07953.8004,W,1,8,1.7,16,M,,M,,*55
05/29/2014	01:03:26.142	$GPGGA,010326,2608.1004,N,07953.7986,W,1,8,1.7,16,M,,M,,*5E
05/29/2014	01:03:27.154	$GPGGA,010327,2608.0997,N,07953.7970,W,1,8,1.7,16,M,,M,,*54
05/29/2014	01:03:28.168	$GPGGA,010328,2608.0990,N,07953.7952,W,1,8,1.7,16,M,,M,,*5C
05/29/2014	01:03:29.171	$GPGGA,010329,2608.0983,N,07953.7934,W,1,8,1.7,16,M,,M,,*5F
05/29/2014	01:03:30.179	$GPGGA,010330,2608.0976,N,07953.7918,W,1,8,1.7,16,M,,M,,*53
05/29/2014	01:03:31.205	$GPGGA,010331,2608.0970,N,07953.7900,W,1,8,1.7,16,M,,M,,*5D
05/29/2014	01:03:32.203	$GPGGA,010332,2608.0961,N,07953.7882,W,1,8,1.7,16,M,,M,,*55
05/29/2014	01:03:33.226	$GPGGA,010333,2608.0953,N,07953.7864,W,1,8,1.7,16,M,,M,,*5D
05/29/2014	01:03:34.207	$GPGGA,010334,2608.0946,N,07953.7848,W,1,8,1.7,16,M,,M,,*50
05/29/2014	01:03:35.262	$GPGGA,010335,2608.0939,N,07953.7830,W,1,8,1.7,16,M,,M,,*56
05/29/2014	01:03:36.241	$GPGGA,010336,2608.0932,N,07953.7813,W,1,8,1.7,16,M,,M,,*5F
05/29/2014	01:03:37.264	$GPGGA,010337,2608.0924,N,07953.7798,W,1,8,1.7,16,M,,M,,*55
05/29/2014	01:03:38.244	$GPGGA,010338,2608.0917,N,07953.7780,W,1,8,1.7,16,M,,M,,*53
05/29/2014	01:03:39.277	$GPGGA,010339,2608.0911,N,07953.7762,W,1,8,1.7,16,M,,M,,*58
05/29/2014	01:03:39.576	$GPGGA,010340,2608.0903,N,07953.7746,W,1,8,1.7,16,M,,M,,*53
05/29/2014	01:03:40.598	$GPGGA,010341,2608.0895,N,07953.7729,W,1,8,1.7,17,M,,M,,*54
05/29/2014	01:03:41.580	$GPGGA,010342,2608.0888,N,07953.7711,W,1,8,1.7,17,M,,M,,*50
05/29/2014	01:03:42.582	$GPGGA,010343,2608.0880,N,07953.7694,W,1,8,1.7,17,M,,M,,*55
05/29/2014	01:03:43.613	$GPGGA,010344,2608.0873,N,07953.7677,W,1,8,1.7,17,M,,M,,*53
05/29/2014	01:03:44.635	$GPGGA,010345,2608.0866,N,07953.7660,W,1,8,1.7,17,M,,M,,*50
05/29/2014	01:03:45.628	$GPGGA,010346,2608.0858,N,07953.7642,W,1,8,1.7,17,M,,M,,*5E
05/29/2014	01:03:46.619	$GPGGA,010347,2608.0852,N,07953.7625,W,1,8,1.7,17,M,,M,,*54
05/29/2014	01:03:47.651	$GPGGA,010348,2608.0844,N,07953.7607,W,1,8,2.0,17,M,,M,,*58
05/29/2014	01:03:48.642	$GPGGA,010349,2608.0835,N,07953.7589,W,1,7,1.7,17,M,,M,,*51
05/29/2014	01:03:49.664	$GPGGA,010350,2608.0829,N,07953.7573,W,1,7,1.7,17,M,,M,,*51
05/29/2014	01:03:50.697	$GPGGA,010351,2608.0822,N,07953.7554,W,1,8,2.0,17,M,,M,,*55
05/29/2014	01:03:51.688	$GPGGA,010352,2608.0812,N,07953.7535,W,1,8,2.0,17,M,,M,,*52
05/29/2014	01:03:52.710	$GPGGA,010353,2608.0806,N,07953.7519,W,1,7,1.7,17,M,,M,,*53
05/29/2014	01:03:53.712	$GPGGA,010354,2608.0800,N,07953.7502,W,1,7,1.7,17,M,,M,,*58
05/29/2014	01:03:54.724	$GPGGA,010355,2608.0793,N,07953.7484,W,1,8,2.0,17,M,,M,,*58
05/29/2014	01:03:55.758	$GPGGA,010356,2608.0787,N,07953.7467,W,1,8,1.7,17,M,,M,,*57
05/29/2014	01:03:56.748	$GPGGA,010357,2608.0781,N,07953.7452,W,1,8,1.7,17,M,,M,,*56
05/29/2014	01:03:57.759	$GPGGA,010358,2608.0775,N,07953.7435,W,1,8,1.7,17,M,,M,,*53
05/29/2014	01:03:58.771	$GPGGA,010359,2608.0769,N,07953.7417,W,1,8,1.7,17,M,,M,,*5F
05/29/2014	01:03:59.784	$GPGGA,010400,2608.0761,N,07953.7400,W,1,8,1.7,17,M,,M,,*5A
05/29/2014	01:04:00.784	$GPGGA,010401,2608.0753,N,07953.7382,W,1,8,1.7,17,M,,M,,*57
05/29/2014	01:04:01.768	$GPGGA,010402,2608.0747,N,07953.7365,W,1,8,1.7,17,M,,M,,*58
05/29/2014	01:04:02.808	$GPGGA,010403,2608.0739,N,07953.7348,W,1,8,1.7,17,M,,M,,*5F
05/29/2014	01:04:03.900	$GPGGA,010404,2608.0732,N,07953.7330,W,1,8,1.7,17,M,,M,,*5C
05/29/2014	01:04:04.821	$GPGGA,010405,2608.0726,N,07953.7314,W,1,8,1.6,17,M,,M,,*5F
05/29/2014	01:04:05.904	$GPGGA,010406,2608.0719,N,07953.7296,W,1,8,1.6,17,M,,M,,*5B
05/29/2014	01:04:06.916	$GPGGA,010407,2608.0712,N,07953.7279,W,1,8,1.6,18,M,,M,,*5F
05/29/2014	01:04:07.877	$GPGGA,010408,2608.0705,N,07953.7262,W,1,8,1.6,18,M,,M,,*5C
05/29/2014	01:04:08.860	$GPGGA,010409,2608.0697,N,07953.7244,W,1,8,1.6,18,M,,M,,*53
05/29/2014	01:04:09.941	$GPGGA,010410,2608.0690,N,07953.7226,W,1,8,1.6,18,M,,M,,*58
05/29/2014	01:04:10.977	$GPGGA,010411,2608.0682,N,07953.7208,W,1,8,1.6,18,M,,M,,*56
05/29/2014	01:04:11.915	$GPGGA,010412,2608.0674,N,07953.7191,W,1,8,1.6,18,M,,M,,*5F
05/29/2014	01:04:12.988	$GPGGA,010413,2608.0667,N,07953.7174,W,1,8,1.6,18,M,,M,,*57
05/29/2014	01:04:13.999	$GPGGA,010414,2608.0659,N,07953.7156,W,1,8,1.6,18,M,,M,,*5D
05/29/2014	01:04:15.033	$GPGGA,010415,2608.0652,N,07953.7139,W,1,8,1.6,18,M,,M,,*5E
05/29/2014	01:04:16.037	$GPGGA,010416,2608.0645,N,07953.7122,W,1,8,1.6,18,M,,M,,*51
05/29/2014	01:04:17.035	$GPGGA,010417,2608.0638,N,07953.7105,W,1,8,1.6,18,M,,M,,*5F
05/29/2014	01:04:18.027	$GPGGA,010418,2608.0631,N,07953.7088,W,1,8,1.6,18,M,,M,,*5D
05/29/2014	01:04:19.058	$GPGGA,010419,2608.0623,N,07953.7071,W,1,8,1.6,18,M,,M,,*59
05/29/2014	01:04:20.059	$GPGGA,010420,2608.0616,N,07953.7053,W,1,8,1.6,18,M,,M,,*55
05/29/2014	01:04:21.051	$GPGGA,010421,2608.0607,N,07953.7035,W,1,8,1.6,18,M,,M,,*54
05/29/2014	01:04:22.073	$GPGGA,010422,2608.0600,N,07953.7018,W,1,8,1.6,18,M,,M,,*5F
05/29/2014	01:04:23.095	$GPGGA,010423,2608.0592,N,07953.7001,W,1,8,1.6,18,M,,M,,*5E
05/29/2014	01:04:24.097	$GPGGA,010424,2608.0585,N,07953.6984,W,1,8,1.6,18,M,,M,,*5A
05/29/2014	01:04:25.109	$GPGGA,010425,2608.0578,N,07953.6967,W,1,8,1.6,18,M,,M,,*54
05/29/2014	01:04:26.100	$GPGGA,010426,2608.0570,N,07953.6950,W,1,8,1.6,18,M,,M,,*5B
05/29/2014	01:04:27.144	$GPGGA,010427,2608.0563,N,07953.6933,W,1,8,1.6,18,M,,M,,*5D
05/29/2014	01:04:28.145	$GPGGA,010428,2608.0556,N,07953.6916,W,1,8,1.6,18,M,,M,,*53
05/29/2014	01:04:29.136	$GPGGA,010429,2608.0548,N,07953.6898,W,1,8,1.6,18,M,,M,,*5A
05/29/2014	01:04:30.148	$GPGGA,010430,2608.0540,N,07953.6882,W,1,8,1.6,18,M,,M,,*51
05/29/2014	01:04:31.180	$GPGGA,010431,2608.0533,N,07953.6865,W,1,8,1.6,18,M,,M,,*5D
05/29/2014	01:04:32.182	$GPGGA,010432,2608.0524,N,07953.6847,W,1,8,1.6,18,M,,M,,*58
05/29/2014	01:04:33.164	$GPGGA,010433,2608.0517,N,07953.6831,W,1,8,1.6,18,M,,M,,*58
05/29/2014	01:04:34.186	$GPGGA,010434,2608.0509,N,07953.6814,W,1,8,1.6,18,M,,M,,*57
05/29/2014	01:04:35.228	$GPGGA,010435,2608.0501,N,07953.6796,W,1,7,2.0,18,M,,M,,*51
05/29/2014	01:04:36.229	$GPGGA,010436,2608.0495,N,07953.6780,W,1,7,2.0,18,M,,M,,*59
05/29/2014	01:04:37.240	$GPGGA,010437,2608.0487,N,07953.6762,W,1,8,1.6,18,M,,M,,*5D
05/29/2014	01:04:38.222	$GPGGA,010438,2608.0479,N,07953.6745,W,1,8,1.6,18,M,,M,,*56
05/29/2014	01:04:39.264	$GPGGA,010439,2608.0471,N,07953.6728,W,1,8,1.6,18,M,,M,,*54
05/29/2014	01:04:39.544	$GPGGA,010440,2608.0464,N,07953.6711,W,1,8,1.6,18,M,,M,,*54
05/29/2014	01:04:40.576	$GPGGA,010441,2608.0457,N,07953.6694,W,1,8,1.6,18,M,,M,,*59
05/29/2014	01:04:41.568	$GPGGA,010442,2608.0450,N,07953.6677,W,1,8,1.6,18,M,,M,,*50
05/29/2014	01:04:42.559	$GPGGA,010443,2608.0443,N,07953.6660,W,1,8,1.6,17,M,,M,,*5A
05/29/2014	01:04:43.592	$GPGGA,010444,2608.0436,N,07953.6643,W,1,8,1.6,17,M,,M,,*5E
05/29/2014	01:04:44.593	$GPGGA,010445,2608.0428,N,07953.6626,W,1,8,1.6,17,M,,M,,*53
05/29/2014	01:04:45.595	$GPGGA,010446,2608.0422,N,07953.6610,W,1,8,1.6,17,M,,M,,*5F
05/29/2014	01:04:46.597	$GPGGA,010447,2608.0414,N,07953.6591,W,1,8,1.6,17,M,,M,,*51
05/29/2014	01:04:47.740	$GPGGA,010448,2608.0407,N,07953.6575,W,1,8,1.6,17,M,,M,,*56
05/29/2014	01:04:48.626	$GPGGA,010449,2608.0399,N,07953.6558,W,1,8,1.6,17,M,,M,,*58
05/29/2014	01:04:49.622	$GPGGA,010450,2608.0392,N,07953.6539,W,1,8,1.6,17,M,,M,,*5C
05/29/2014	01:04:50.655	$GPGGA,010451,2608.0385,N,07953.6523,W,1,8,1.6,17,M,,M,,*50
05/29/2014	01:04:51.778	$GPGGA,010452,2608.0378,N,07953.6506,W,1,8,1.6,17,M,,M,,*56
05/29/2014	01:04:52.750	$GPGGA,010453,2608.0371,N,07953.6488,W,1,8,1.6,17,M,,M,,*59
05/29/2014	01:04:53.659	$GPGGA,010454,2608.0364,N,07953.6472,W,1,8,1.6,17,M,,M,,*5F
05/29/2014	01:04:54.792	$GPGGA,010455,2608.0357,N,07953.6455,W,1,8,1.6,17,M,,M,,*5B
05/29/2014	01:04:55.710	$GPGGA,010456,2608.0349,N,07953.6437,W,1,8,1.6,17,M,,M,,*53
05/29/2014	01:04:56.705	$GPGGA,010457,2608.0342,N,07953.6420,W,1,7,2.0,17,M,,M,,*55
05/29/2014	01:04:57.798	$GPGGA,010458,2608.0334,N,07953.6403,W,1,7,1.6,17,M,,M,,*5F
05/29/2014	01:04:58.820	$GPGGA,010459,2608.0327,N,07953.6385,W,1,8,1.6,17,M,,M,,*5A
05/29/2014	01:04:59.862	$GPGGA,010500,2608.0320,N,07953.6368,W,1,8,1.6,17,M,,M,,*53
05/29/2014	01:05:00.843	$GPGGA,010501,2608.0313,N,07953.6350,W,1,8,1.6,17,M,,M,,*59
05/29/2014	01:05:01.856	$GPGGA,010502,2608.0305,N,07953.6332,W,1,8,1.6,17,M,,M,,*59
05/29/2014	01:05:02.868	$GPGGA,010503,2608.0298,N,07953.6314,W,1,8,1.6,17,M,,M,,*59
05/29/2014	01:05:03.870	$GPGGA,010504,2608.0292,N,07953.6298,W,1,8,2.0,17,M,,M,,*54
05/29/2014	01:05:04.904	$GPGGA,010505,2608.0286,N,07953.6281,W,1,8,1.6,17,M,,M,,*5D
05/29/2014	01:05:05.873	$GPGGA,010506,2608.0278,N,07953.6264,W,1,8,1.6,17,M,,M,,*54
05/29/2014	01:05:06.905	$GPGGA,010507,2608.0270,N,07953.6246,W,1,7,2.0,17,M,,M,,*57
05/29/2014	01:05:07.918	$GPGGA,010508,2608.0262,N,07953.6227,W,1,7,2.0,17,M,,M,,*5C
05/29/2014	01:05:08.929	$GPGGA,010509,2608.0255,N,07953.6209,W,1,7,2.0,17,M,,M,,*55
05/29/2014	01:05:09.930	$GPGGA,010510,2608.0247,N,07953.6192,W,1,7,2.0,16,M,,M,,*5E
05/29/2014	01:05:10.951	$GPGGA,010511,2608.0239,N,07953.6173,W,1,7,2.0,16,M,,M,,*59
05/29/2014	01:05:11.953	$GPGGA,010512,2608.0231,N,07953.6155,W,1,7,2.0,16,M,,M,,*56
05/29/2014	01:05:12.975	$GPGGA,010513,2608.0223,N,07953.6137,W,1,7,2.0,16,M,,M,,*50
05/29/2014	01:05:13.957	$GPGGA,010514,2608.0217,N,07953.6120,W,1,7,2.0,16,M,,M,,*56
05/29/2014	01:05:14.980	$GPGGA,010515,2608.0209,N,07953.6101,W,1,8,1.6,16,M,,M,,*51
05/29/2014	01:05:15.991	$GPGGA,010516,2608.0201,N,07953.6083,W,1,8,1.6,16,M,,M,,*51
05/29/2014	01:05:17.002	$GPGGA,010517,2608.0195,N,07953.6065,W,1,8,1.6,16,M,,M,,*56
05/29/2014	01:05:18.005	$GPGGA,010518,2608.0188,N,07953.6048,W,1,8,1.6,15,M,,M,,*59
05/29/2014	01:05:19.006	$GPGGA,010519,2608.0180,N,07953.6030,W,1,7,2.0,15,M,,M,,*55
05/29/2014	01:05:20.028	$GPGGA,010520,2608.0173,N,07953.6013,W,1,7,2.0,15,M,,M,,*52
05/29/2014	01:05:21.020	$GPGGA,010521,2608.0166,N,07953.5995,W,1,7,2.0,15,M,,M,,*53
05/29/2014	01:05:22.052	$GPGGA,010522,2608.0159,N,07953.5977,W,1,7,1.6,15,M,,M,,*55
05/29/2014	01:05:23.054	$GPGGA,010523,2608.0152,N,07953.5960,W,1,8,1.6,15,M,,M,,*56
05/29/2014	01:05:24.086	$GPGGA,010524,2608.0145,N,07953.5944,W,1,8,1.6,15,M,,M,,*51
05/29/2014	01:05:25.098	$GPGGA,010525,2608.0139,N,07953.5927,W,1,8,1.6,15,M,,M,,*5E
05/29/2014	01:05:26.089	$GPGGA,010526,2608.0133,N,07953.5909,W,1,8,1.6,15,M,,M,,*5B
05/29/2014	01:05:27.084	$GPGGA,010527,2608.0127,N,07953.5892,W,1,8,1.6,15,M,,M,,*5C
05/29/2014	01:05:28.123	$GPGGA,010528,2608.0121,N,07953.5876,W,1,8,1.6,15,M,,M,,*5F
05/29/2014	01:05:29.105	$GPGGA,010529,2608.0114,N,07953.5858,W,1,8,1.6,15,M,,M,,*54
05/29/2014	01:05:30.237	$GPGGA,010530,2608.0107,N,07953.5841,W,1,8,1.6,15,M,,M,,*56
05/29/2014	01:05:31.138	$GPGGA,010531,2608.0100,N,07953.5823,W,1,8,1.6,15,M,,M,,*54
05/29/2014	01:05:32.160	$GPGGA,010532,2608.0093,N,07953.5805,W,1,8,1.6,15,M,,M,,*58
05/29/2014	01:05:33.162	$GPGGA,010533,2608.0085,N,07953.5788,W,1,8,1.6,15,M,,M,,*54
05/29/2014	01:05:34.256	$GPGGA,010534,2608.0078,N,07953.5771,W,1,8,1.6,15,M,,M,,*57
05/29/2014	01:05:35.195	$GPGGA,010535,2608.0071,N,07953.5753,W,1,8,1.6,15,M,,M,,*5F
05/29/2014	01:05:36.178	$GPGGA,010536,2608.0064,N,07953.5736,W,1,8,1.6,15,M,,M,,*5B
05/29/2014	01:05:37.189	$GPGGA,010537,2608.0057,N,07953.5720,W,1,8,1.6,15,M,,M,,*5D
05/29/2014	01:05:38.312	$GPGGA,010538,2608.0050,N,07953.5702,W,1,8,1.6,15,M,,M,,*55
05/29/2014	01:05:39.223	$GPGGA,010539,2608.0044,N,07953.5685,W,1,8,1.6,15,M,,M,,*5F
05/29/2014	01:05:39.613	$GPGGA,010540,2608.0036,N,07953.5670,W,1,8,1.6,15,M,,M,,*5E
05/29/2014	01:05:40.534	$GPGGA,010541,2608.0029,N,07953.5652,W,1,8,1.6,15,M,,M,,*51
05/29/2014	01:05:41.535	$GPGGA,010542,2608.0023,N,07953.5635,W,1,8,1.6,15,M,,M,,*59
05/29/2014	01:05:42.659	$GPGGA,010543,2608.0015,N,07953.5618,W,1,8,1.6,15,M,,M,,*52
05/29/2014	01:05:43.670	$GPGGA,010544,2608.0007,N,07953.5601,W,1,8,1.6,15,M,,M,,*5E
05/29/2014	01:05:44.662	$GPGGA,010545,2608.0002,N,07953.5584,W,1,8,1.6,15,M,,M,,*54
05/29/2014	01:05:45.653	$GPGGA,010546,2607.9993,N,07953.5568,W,1,8,1.6,15,M,,M,,*52
05/29/2014	01:05:46.705	$GPGGA,010547,2607.9985,N,07953.5551,W,1,8,1.6,15,M,,M,,*5E
05/29/2014	01:05:47.716	$GPGGA,010548,2607.9978,N,07953.5534,W,1,8,1.6,15,M,,M,,*50
05/29/2014	01:05:49.700	$GPGGA,010550,2607.9963,N,07953.5500,W,1,8,1.6,16,M,,M,,*57
05/29/2014	01:05:50.734	$GPGGA,010551,2607.9956,N,07953.5483,W,1,8,1.6,16,M,,M,,*5A
05/29/2014	01:05:51.734	$GPGGA,010552,2607.9949,N,07953.5467,W,1,8,1.6,16,M,,M,,*5D
05/29/2014	01:05:52.746	$GPGGA,010553,2607.9942,N,07953.5451,W,1,8,1.6,16,M,,M,,*52
05/29/2014	01:05:53.738	$GPGGA,010554,2607.9935,N,07953.5433,W,1,8,1.6,16,M,,M,,*51
05/29/2014	01:05:54.770	$GPGGA,010555,2607.9928,N,07953.5417,W,1,8,1.6,16,M,,M,,*5A
05/29/2014	01:05:55.773	$GPGGA,010556,2607.9921,N,07953.5400,W,1,8,1.6,16,M,,M,,*56
05/29/2014	01:05:56.794	$GPGGA,010557,2607.9912,N,07953.5383,W,1,8,1.6,16,M,,M,,*5B
05/29/2014	01:05:57.775	$GPGGA,010558,2607.9905,N,07953.5366,W,1,8,1.6,16,M,,M,,*59
05/29/2014	01:05:58.807	$GPGGA,010559,2607.9898,N,07953.5349,W,1,8,1.6,16,M,,M,,*50
05/29/2014	01:05:59.819	$GPGGA,010600,2607.9890,N,07953.5332,W,1,8,1.6,16,M,,M,,*5B
05/29/2014	01:06:00.801	$GPGGA,010601,2607.9884,N,07953.5316,W,1,8,1.6,16,M,,M,,*59
05/29/2014	01:06:01.824	$GPGGA,010602,2607.9877,N,07953.5299,W,1,8,1.6,16,M,,M,,*50
05/29/2014	01:06:02.826	$GPGGA,010603,2607.9870,N,07953.5283,W,1,8,1.6,16,M,,M,,*5D
05/29/2014	01:06:03.841	$GPGGA,010604,2607.9863,N,07953.5266,W,1,8,1.6,16,M,,M,,*53
05/29/2014	01:06:04.857	$GPGGA,010605,2607.9856,N,07953.5249,W,1,8,1.6,16,M,,M,,*59
05/29/2014	01:06:05.833	$GPGGA,010606,2607.9850,N,07953.5232,W,1,8,1.6,16,M,,M,,*50
05/29/2014	01:06:06.839	$GPGGA,010607,2607.9840,N,07953.5216,W,1,8,1.6,16,M,,M,,*56
05/29/2014	01:06:07.865	$GPGGA,010608,2607.9833,N,07953.5198,W,1,8,1.6,16,M,,M,,*58
05/29/2014	01:06:08.841	$GPGGA,010609,2607.9826,N,07953.5180,W,1,8,1.6,16,M,,M,,*54
05/29/2014	01:06:09.857	$GPGGA,010610,2607.9818,N,07953.5164,W,1,8,1.6,16,M,,M,,*5B
05/29/2014	01:06:10.853	$GPGGA,010611,2607.9812,N,07953.5148,W,1,8,1.6,16,M,,M,,*5E
05/29/2014	01:06:11.889	$GPGGA,010612,2607.9807,N,07953.5130,W,1,8,1.6,16,M,,M,,*56
05/29/2014	01:06:12.854	$GPGGA,010613,2607.9800,N,07953.5114,W,1,8,1.6,16,M,,M,,*56
05/29/2014	01:06:13.880	$GPGGA,010614,2607.9792,N,07953.5098,W,1,8,1.6,16,M,,M,,*50
05/29/2014	01:06:14.866	$GPGGA,010615,2607.9785,N,07953.5080,W,1,8,1.6,16,M,,M,,*5E
05/29/2014	01:06:15.902	$GPGGA,010616,2607.9778,N,07953.5062,W,1,8,1.6,16,M,,M,,*53
05/29/2014	01:06:16.878	$GPGGA,010617,2607.9769,N,07953.5047,W,1,8,1.6,16,M,,M,,*55
05/29/2014	01:06:17.894	$GPGGA,010618,2607.9762,N,07953.5029,W,1,8,1.6,16,M,,M,,*59
05/29/2014	01:06:18.900	$GPGGA,010619,2607.9755,N,07953.5011,W,1,8,1.6,16,M,,M,,*57
05/29/2014	01:06:19.916	$GPGGA,010620,2607.9747,N,07953.4994,W,1,8,1.6,16,M,,M,,*5B
05/29/2014	01:06:20.890	$GPGGA,010621,2607.9739,N,07953.4978,W,1,8,1.6,16,M,,M,,*51
05/29/2014	01:06:22.037	$GPGGA,010622,2607.9734,N,07953.4960,W,1,8,1.6,16,M,,M,,*56
05/29/2014	01:06:22.892	$GPGGA,010623,2607.9727,N,07953.4944,W,1,8,1.6,16,M,,M,,*53
05/29/2014	01:06:24.049	$GPGGA,010624,2607.9720,N,07953.4927,W,1,8,1.6,16,M,,M,,*56
05/29/2014	01:06:25.075	$GPGGA,010625,2607.9713,N,07953.4910,W,1,8,1.6,16,M,,M,,*53
05/29/2014	01:06:25.920	$GPGGA,010626,2607.9706,N,07953.4893,W,1,8,1.6,16,M,,M,,*5E
05/29/2014	01:06:26.936	$GPGGA,010627,2607.9697,N,07953.4875,W,1,8,1.6,16,M,,M,,*5E
05/29/2014	01:06:27.942	$GPGGA,010628,2607.9691,N,07953.4859,W,1,8,1.6,16,M,,M,,*59
05/29/2014	01:06:28.928	$GPGGA,010629,2607.9684,N,07953.4841,W,1,8,1.6,16,M,,M,,*55
05/29/2014	01:06:30.024	$GPGGA,010630,2607.9677,N,07953.4824,W,1,8,1.6,16,M,,M,,*52
05/29/2014	01:06:30.939	$GPGGA,010631,2607.9669,N,07953.4807,W,1,8,1.6,16,M,,M,,*5D
05/29/2014	01:06:32.052	$GPGGA,010632,2607.9662,N,07953.4790,W,1,8,1.6,16,M,,M,,*54
05/29/2014	01:06:33.122	$GPGGA,010633,2607.9655,N,07953.4773,W,1,8,1.6,16,M,,M,,*5C
05/29/2014	01:06:34.049	$GPGGA,010634,2607.9648,N,07953.4756,W,1,8,1.6,16,M,,M,,*50
05/29/2014	01:06:35.144	$GPGGA,010635,2607.9641,N,07953.4739,W,1,8,1.6,16,M,,M,,*51
05/29/2014	01:06:36.097	$GPGGA,010636,2607.9634,N,07953.4722,W,1,8,2.0,16,M,,M,,*5F
05/29/2014	01:06:37.166	$GPGGA,010637,2607.9628,N,07953.4705,W,1,8,1.6,16,M,,M,,*53
05/29/2014	01:06:38.110	$GPGGA,010638,2607.9622,N,07953.4688,W,1,8,1.6,16,M,,M,,*52
05/29/2014	01:06:39.157	$GPGGA,010639,2607.9615,N,07953.4671,W,1,8,1.6,16,M,,M,,*51
05/29/2014	01:06:39.627	$GPGGA,010640,2607.9608,N,07953.4653,W,1,8,1.6,16,M,,M,,*53
05/29/2014	01:06:40.643	$GPGGA,010641,2607.9602,N,07953.4637,W,1,8,1.6,16,M,,M,,*5A
05/29/2014	01:06:41.628	$GPGGA,010642,2607.9595,N,07953.4619,W,1,8,1.6,16,M,,M,,*58
05/29/2014	01:06:42.654	$GPGGA,010643,2607.9587,N,07953.4602,W,1,8,1.6,16,M,,M,,*50
05/29/2014	01:06:43.590	$GPGGA,010644,2607.9581,N,07953.4585,W,1,8,1.6,16,M,,M,,*5D
05/29/2014	01:06:44.696	$GPGGA,010645,2607.9573,N,07953.4566,W,1,8,1.6,16,M,,M,,*5C
05/29/2014	01:06:45.592	$GPGGA,010646,2607.9566,N,07953.4550,W,1,8,2.0,16,M,,M,,*5B
05/29/2014	01:06:46.698	$GPGGA,010647,2607.9558,N,07953.4533,W,1,8,2.0,16,M,,M,,*52
05/29/2014	01:06:47.614	$GPGGA,010648,2607.9550,N,07953.4514,W,1,8,2.0,16,M,,M,,*50
05/29/2014	01:06:48.670	$GPGGA,010649,2607.9543,N,07953.4496,W,1,8,1.6,16,M,,M,,*5D
05/29/2014	01:06:49.606	$GPGGA,010650,2607.9534,N,07953.4479,W,1,8,2.0,16,M,,M,,*51
05/29/2014	01:06:50.722	$GPGGA,010651,2607.9527,N,07953.4460,W,1,8,1.6,16,M,,M,,*5F
05/29/2014	01:06:51.627	$GPGGA,010652,2607.9519,N,07953.4442,W,1,8,1.6,16,M,,M,,*51
05/29/2014	01:06:52.713	$GPGGA,010653,2607.9514,N,07953.4426,W,1,8,1.6,16,M,,M,,*5F
05/29/2014	01:06:53.650	$GPGGA,010654,2607.9507,N,07953.4408,W,1,8,1.6,16,M,,M,,*56
05/29/2014	01:06:54.695	$GPGGA,010655,2607.9500,N,07953.4391,W,1,8,1.6,16,M,,M,,*57
05/29/2014	01:06:55.680	$GPGGA,010656,2607.9493,N,07953.4375,W,1,8,1.6,16,M,,M,,*55
05/29/2014	01:06:56.635	$GPGGA,010657,2607.9486,N,07953.4358,W,1,8,1.6,16,M,,M,,*5F
05/29/2014	01:06:57.672	$GPGGA,010658,2607.9480,N,07953.4341,W,1,8,1.6,16,M,,M,,*5E
05/29/2014	01:06:58.738	$GPGGA,010659,2607.9472,N,07953.4324,W,1,8,1.6,16,M,,M,,*51
05/29/2014	01:06:59.694	$GPGGA,010700,2607.9465,N,07953.4307,W,1,8,1.6,16,M,,M,,*5B
05/29/2014	01:07:00.721	$GPGGA,010701,2607.9458,N,07953.4289,W,1,8,1.6,16,M,,M,,*53
05/29/2014	01:07:01.685	$GPGGA,010702,2607.9451,N,07953.4272,W,1,8,1.6,16,M,,M,,*5D
05/29/2014	01:07:02.651	$GPGGA,010703,2607.9443,N,07953.4256,W,1,8,1.6,16,M,,M,,*59
05/29/2014	01:07:03.707	$GPGGA,010704,2607.9435,N,07953.4237,W,1,8,2.0,16,M,,M,,*5D
05/29/2014	01:07:04.783	$GPGGA,010705,2607.9427,N,07953.4221,W,1,7,2.0,16,M,,M,,*57
05/29/2014	01:07:05.790	$GPGGA,010706,2607.9420,N,07953.4203,W,1,7,2.0,16,M,,M,,*53
05/29/2014	01:07:06.785	$GPGGA,010707,2607.9413,N,07953.4186,W,1,7,2.0,16,M,,M,,*5C
05/29/2014	01:07:07.731	$GPGGA,010708,2607.9404,N,07953.4169,W,1,7,2.0,16,M,,M,,*54
05/29/2014	01:07:08.757	$GPGGA,010709,2607.9396,N,07953.4151,W,1,7,2.0,15,M,,M,,*51
05/29/2014	01:07:09.702	$GPGGA,010710,2607.9388,N,07953.4133,W,1,7,2.0,15,M,,M,,*52
05/29/2014	01:07:10.768	$GPGGA,010711,2607.9380,N,07953.4116,W,1,7,2.0,15,M,,M,,*5C
05/29/2014	01:07:11.734	$GPGGA,010712,2607.9373,N,07953.4100,W,1,7,2.0,15,M,,M,,*54
05/29/2014	01:07:12.694	$GPGGA,010713,2607.9366,N,07953.4082,W,1,7,2.0,15,M,,M,,*5A
05/29/2014	01:07:13.695	$GPGGA,010714,2607.9359,N,07953.4065,W,1,7,2.0,15,M,,M,,*58
05/29/2014	01:07:14.811	$GPGGA,010715,2607.9352,N,07953.4049,W,1,7,2.0,15,M,,M,,*5C
05/29/2014	01:07:15.758	$GPGGA,010716,2607.9344,N,07953.4031,W,1,7,2.0,15,M,,M,,*57
05/29/2014	01:07:16.703	$GPGGA,010717,2607.9337,N,07953.4014,W,1,7,2.0,15,M,,M,,*55
05/29/2014	01:07:17.809	$GPGGA,010718,2607.9330,N,07953.3997,W,1,7,2.0,14,M,,M,,*59
05/29/2014	01:07:18.815	$GPGGA,010719,2607.9321,N,07953.3980,W,1,7,2.0,14,M,,M,,*5E
05/29/2014	01:07:19.770	$GPGGA,010720,2607.9313,N,07953.3962,W,1,7,2.0,14,M,,M,,*59
05/29/2014	01:07:20.857	$GPGGA,010721,2607.9305,N,07953.3946,W,1,7,2.0,14,M,,M,,*59
05/29/2014	01:07:21.752	$GPGGA,010722,2607.9297,N,07953.3928,W,1,7,2.0,14,M,,M,,*58
05/29/2014	01:07:22.839	$GPGGA,010723,2607.9290,N,07953.3911,W,1,7,2.0,14,M,,M,,*54
05/29/2014	01:07:23.857	$GPGGA,010724,2607.9283,N,07953.3895,W,1,7,2.0,14,M,,M,,*5C
05/29/2014	01:07:24.860	$GPGGA,010725,2607.9274,N,07953.3878,W,1,7,2.0,13,M,,M,,*51
05/29/2014	01:07:25.847	$GPGGA,010726,2607.9268,N,07953.3860,W,1,7,2.0,13,M,,M,,*56
05/29/2014	01:07:26.862	$GPGGA,010727,2607.9260,N,07953.3843,W,1,7,2.0,13,M,,M,,*5E
05/29/2014	01:07:27.870	$GPGGA,010728,2607.9254,N,07953.3827,W,1,7,2.0,13,M,,M,,*54
05/29/2014	01:07:28.874	$GPGGA,010729,2607.9247,N,07953.3809,W,1,7,2.0,13,M,,M,,*5B
05/29/2014	01:07:29.869	$GPGGA,010730,2607.9238,N,07953.3792,W,1,7,2.0,13,M,,M,,*56
05/29/2014	01:07:30.884	$GPGGA,010731,2607.9231,N,07953.3775,W,1,7,2.0,13,M,,M,,*57
05/29/2014	01:07:31.890	$GPGGA,010732,2607.9225,N,07953.3757,W,1,7,2.0,13,M,,M,,*51
05/29/2014	01:07:32.896	$GPGGA,010733,2607.9216,N,07953.3740,W,1,7,2.0,13,M,,M,,*56
05/29/2014	01:07:33.882	$GPGGA,010734,2607.9216,N,07953.3740,W,1,7,2.0,13,M,,M,,*51
05/29/2014	01:07:34.908	$GPGGA,010735,2607.9202,N,07953.3706,W,1,7,2.0,13,M,,M,,*57
05/29/2014	01:07:35.894	$GPGGA,010736,2607.9196,N,07953.3690,W,1,7,2.0,13,M,,M,,*54
05/29/2014	01:07:36.922	$GPGGA,010737,2607.9189,N,07953.3672,W,1,7,2.0,12,M,,M,,*56
05/29/2014	01:07:37.907	$GPGGA,010738,2607.9183,N,07953.3656,W,1,7,2.0,12,M,,M,,*55
05/29/2014	01:07:38.944	$GPGGA,010739,2607.9175,N,07953.3638,W,1,7,2.0,12,M,,M,,*55
05/29/2014	01:07:39.565	$GPGGA,010740,2607.9168,N,07953.3620,W,1,7,2.0,12,M,,M,,*5E
05/29/2014	01:07:40.581	$GPGGA,010741,2607.9161,N,07953.3602,W,1,7,2.0,12,M,,M,,*56
05/29/2014	01:07:41.558	$GPGGA,010742,2607.9153,N,07953.3585,W,1,7,2.0,12,M,,M,,*58
05/29/2014	01:07:42.603	$GPGGA,010743,2607.9146,N,07953.3567,W,1,7,2.0,12,M,,M,,*51
05/29/2014	01:07:43.579	$GPGGA,010744,2607.9139,N,07953.3550,W,1,7,2.0,12,M,,M,,*5A
05/29/2014	01:07:44.605	$GPGGA,010745,2607.9132,N,07953.3533,W,1,7,2.0,12,M,,M,,*55
05/29/2014	01:07:45.561	$GPGGA,010746,2607.9125,N,07953.3517,W,1,7,2.0,12,M,,M,,*56
05/29/2014	01:07:46.607	$GPGGA,010747,2607.9118,N,07953.3500,W,1,7,2.0,12,M,,M,,*5F
05/29/2014	01:07:47.592	$GPGGA,010748,2607.9118,N,07953.3500,W,1,7,2.0,12,M,,M,,*50
05/29/2014	01:07:48.638	$GPGGA,010749,2607.9104,N,07953.3465,W,1,7,2.0,11,M,,M,,*5D
05/29/2014	01:07:49.593	$GPGGA,010750,2607.9104,N,07953.3465,W,1,7,2.0,11,M,,M,,*55
05/29/2014	01:07:50.668	$GPGGA,010751,2607.9089,N,07953.3430,W,1,7,2.0,11,M,,M,,*50
05/29/2014	01:07:51.615	$GPGGA,010752,2607.9083,N,07953.3412,W,1,7,2.0,11,M,,M,,*59
05/29/2014	01:07:52.732	$GPGGA,010753,2607.9075,N,07953.3396,W,1,7,2.0,11,M,,M,,*5A
05/29/2014	01:07:53.597	$GPGGA,010754,2607.9075,N,07953.3396,W,1,7,2.0,11,M,,M,,*5D
05/29/2014	01:07:54.713	$GPGGA,010755,2607.9061,N,07953.3361,W,1,7,2.0,11,M,,M,,*51
05/29/2014	01:07:55.729	$GPGGA,010756,2607.9054,N,07953.3343,W,1,7,2.0,11,M,,M,,*54
05/29/2014	01:07:56.634	$GPGGA,010757,2607.9054,N,07953.3343,W,1,7,2.0,11,M,,M,,*55
05/29/2014	01:07:57.610	$GPGGA,010758,2607.9039,N,07953.3309,W,1,7,2.0,11,M,,M,,*5F
05/29/2014	01:07:58.717	$GPGGA,010759,2607.9031,N,07953.3291,W,1,7,2.0,11,M,,M,,*56
05/29/2014	01:07:59.652	$GPGGA,010800,2607.9023,N,07953.3274,W,1,7,2.0,11,M,,M,,*5D
05/29/2014	01:08:00.648	$GPGGA,010801,2607.9023,N,07953.3274,W,1,7,2.0,11,M,,M,,*5C
05/29/2014	01:08:01.744	$GPGGA,010802,2607.9010,N,07953.3240,W,1,7,2.0,11,M,,M,,*58
05/29/2014	01:08:02.730	$GPGGA,010803,2607.9003,N,07953.3223,W,1,7,2.0,11,M,,M,,*5E
05/29/2014	01:08:03.656	$GPGGA,010804,2607.8995,N,07953.3206,W,1,7,2.0,11,M,,M,,*59
05/29/2014	01:08:04.733	$GPGGA,010805,2607.8988,N,07953.3188,W,1,7,2.0,11,M,,M,,*51
05/29/2014	01:08:05.660	$GPGGA,010806,2607.8980,N,07953.3170,W,1,7,2.0,11,M,,M,,*5D
05/29/2014	01:08:06.662	$GPGGA,010807,2607.8972,N,07953.3154,W,1,7,2.0,11,M,,M,,*57
05/29/2014	01:08:07.816	$GPGGA,010808,2607.8965,N,07953.3136,W,1,7,2.0,10,M,,M,,*5B
05/29/2014	01:08:08.912	$GPGGA,010809,2607.8958,N,07953.3118,W,1,7,2.0,10,M,,M,,*58
05/29/2014	01:08:09.837	$GPGGA,010810,2607.8949,N,07953.3102,W,1,7,2.0,10,M,,M,,*5B
05/29/2014	01:08:11.010	$GPGGA,010811,2607.8942,N,07953.3085,W,1,7,2.0,10,M,,M,,*5F
05/29/2014	01:08:12.109	$GPGGA,010812,2607.8936,N,07953.3067,W,1,7,2.0,10,M,,M,,*53
05/29/2014	01:08:13.214	$GPGGA,010813,2607.8929,N,07953.3051,W,1,7,2.0,10,M,,M,,*59
05/29/2014	01:08:14.246	$GPGGA,010814,2607.8922,N,07953.3034,W,1,7,2.0,10,M,,M,,*56
05/29/2014	01:08:15.300	$GPGGA,010815,2607.8913,N,07953.3017,W,1,7,2.0,10,M,,M,,*54
05/29/2014	01:08:16.396	$GPGGA,010816,2607.8906,N,07953.2999,W,1,7,2.0,10,M,,M,,*5D
05/29/2014	01:08:17.489	$GPGGA,010817,2607.8898,N,07953.2982,W,1,7,2.0,10,M,,M,,*50
05/29/2014	01:08:18.536	$GPGGA,010818,2607.8890,N,07953.2964,W,1,7,2.0,10,M,,M,,*5F
05/29/2014	01:08:19.590	$GPGGA,010819,2607.8883,N,07953.2948,W,1,7,2.0,10,M,,M,,*52
05/29/2014	01:08:20.687	$GPGGA,010820,2607.8876,N,07953.2929,W,1,7,2.0,10,M,,M,,*55
05/29/2014	01:08:21.751	$GPGGA,010821,2607.8869,N,07953.2913,W,1,7,2.0,10,M,,M,,*53
05/29/2014	01:08:22.827	$GPGGA,010822,2607.8861,N,07953.2896,W,1,7,2.0,10,M,,M,,*54
05/29/2014	01:08:23.881	$GPGGA,010823,2607.8854,N,07953.2878,W,1,7,2.0,10,M,,M,,*53
05/29/2014	01:08:24.976	$GPGGA,010824,2607.8847,N,07953.2861,W,1,7,2.0,10,M,,M,,*5E
05/29/2014	01:08:26.030	$GPGGA,010825,2607.8839,N,07953.2844,W,1,7,2.0,10,M,,M,,*51
05/29/2014	01:08:27.117	$GPGGA,010826,2607.8832,N,07953.2827,W,1,7,2.0,10,M,,M,,*5C
05/29/2014	01:08:28.202	$GPGGA,010827,2607.8825,N,07953.2810,W,1,7,2.0,10,M,,M,,*5F
05/29/2014	01:08:29.278	$GPGGA,010828,2607.8818,N,07953.2791,W,1,7,2.0,10,M,,M,,*58
05/29/2014	01:08:30.353	$GPGGA,010829,2607.8810,N,07953.2776,W,1,7,2.0,10,M,,M,,*58
05/29/2014	01:08:31.407	$GPGGA,010830,2607.8802,N,07953.2758,W,1,7,2.0,10,M,,M,,*5F
05/29/2014	01:08:32.471	$GPGGA,010831,2607.8795,N,07953.2740,W,1,7,2.0,10,M,,M,,*56
05/29/2014	01:08:33.568	$GPGGA,010832,2607.8788,N,07953.2724,W,1,7,2.0,10,M,,M,,*5B
05/29/2014	01:08:34.622	$GPGGA,010833,2607.8781,N,07953.2707,W,1,7,2.0,10,M,,M,,*52
05/29/2014	01:08:35.708	$GPGGA,010834,2607.8773,N,07953.2689,W,1,7,2.0,10,M,,M,,*5F
05/29/2014	01:08:36.762	$GPGGA,010835,2607.8766,N,07953.2672,W,1,7,2.0,9,M,,M,,*66
05/29/2014	01:08:37.859	$GPGGA,010836,2607.8759,N,07953.2655,W,1,7,2.0,9,M,,M,,*6C
05/29/2014	01:08:38.944	$GPGGA,010837,2607.8752,N,07953.2638,W,1,7,2.0,9,M,,M,,*6D
05/29/2014	01:08:39.998	$GPGGA,010838,2607.8745,N,07953.2621,W,1,7,2.0,9,M,,M,,*6C
05/29/2014	01:08:41.064	$GPGGA,010839,2607.8737,N,07953.2604,W,1,7,2.0,9,M,,M,,*6F
05/29/2014	01:08:39.576	$GPGGA,010840,2607.8731,N,07953.2586,W,1,7,2.0,9,M,,M,,*6E
05/29/2014	01:08:40.650	$GPGGA,010841,2607.8724,N,07953.2569,W,1,7,2.0,9,M,,M,,*6A
05/29/2014	01:08:41.715	$GPGGA,010842,2607.8717,N,07953.2552,W,1,7,2.0,9,M,,M,,*61
05/29/2014	01:08:42.813	$GPGGA,010843,2607.8709,N,07953.2534,W,1,7,2.0,9,M,,M,,*6F
05/29/2014	01:08:43.876	$GPGGA,010844,2607.8702,N,07953.2517,W,1,7,2.0,9,M,,M,,*62
05/29/2014	01:08:44.919	$GPGGA,010845,2607.8695,N,07953.2500,W,1,7,2.0,9,M,,M,,*6A
05/29/2014	01:08:46.005	$GPGGA,010846,2607.8688,N,07953.2483,W,1,7,2.0,9,M,,M,,*6F
05/29/2014	01:08:47.188	$GPGGA,010847,2607.8681,N,07953.2466,W,1,7,2.0,9,M,,M,,*6C
05/29/2014	01:08:48.167	$GPGGA,010848,2607.8674,N,07953.2449,W,1,7,2.0,9,M,,M,,*64
05/29/2014	01:08:49.233	$GPGGA,010849,2607.8667,N,07953.2432,W,1,7,2.0,9,M,,M,,*6B
05/29/2014	01:08:50.397	$GPGGA,010850,2607.8659,N,07953.2414,W,1,7,2.0,9,M,,M,,*6A
05/29/2014	01:08:51.489	$GPGGA,010851,2607.8652,N,07953.2398,W,1,7,2.0,9,M,,M,,*63
05/29/2014	01:08:52.457	$GPGGA,010852,2607.8645,N,07953.2381,W,1,7,2.0,9,M,,M,,*6E
05/29/2014	01:08:53.609	$GPGGA,010853,2607.8637,N,07953.2363,W,1,7,2.0,9,M,,M,,*66
05/29/2014	01:08:54.683	$GPGGA,010854,2607.8629,N,07953.2346,W,1,7,2.0,9,M,,M,,*69
05/29/2014	01:08:55.760	$GPGGA,010855,2607.8622,N,07953.2329,W,1,7,2.0,9,M,,M,,*6A
05/29/2014	01:08:56.755	$GPGGA,010856,2607.8615,N,07953.2311,W,1,7,2.0,9,M,,M,,*66
05/29/2014	01:08:57.801	$GPGGA,010857,2607.8608,N,07953.2295,W,1,7,2.0,9,M,,M,,*66
05/29/2014	01:08:58.973	$GPGGA,010858,2607.8601,N,07953.2278,W,1,7,2.0,9,M,,M,,*63
05/29/2014	01:09:00.081	$GPGGA,010859,2607.8594,N,07953.2261,W,1,7,2.0,9,M,,M,,*65
05/29/2014	01:09:01.156	$GPGGA,010900,2607.8586,N,07953.2245,W,1,7,2.0,9,M,,M,,*6D
05/29/2014	01:09:02.209	$GPGGA,010901,2607.8579,N,07953.2227,W,1,7,2.0,9,M,,M,,*68
05/29/2014	01:09:03.273	$GPGGA,010902,2607.8571,N,07953.2211,W,1,7,2.0,9,M,,M,,*66
05/29/2014	01:09:04.381	$GPGGA,010903,2607.8564,N,07953.2194,W,1,7,2.0,9,M,,M,,*6D
05/29/2014	01:09:06.908	$GPGGA,010904,2607.8557,N,07953.2177,W,1,7,2.0,9,M,,M,,*67
05/29/2014	01:09:06.929	$GPGGA,010905,2607.8548,N,07953.2160,W,1,7,2.0,9,M,,M,,*6E
05/29/2014	01:09:07.576	$GPGGA,010906,2607.8541,N,07953.2144,W,1,7,2.0,9,M,,M,,*62
05/29/2014	01:09:08.639	$GPGGA,010907,2607.8533,N,07953.2126,W,1,7,2.0,9,M,,M,,*62
05/29/2014	01:09:09.725	$GPGGA,010908,2607.8525,N,07953.2109,W,1,7,2.0,9,M,,M,,*67
05/29/2014	01:09:10.780	$GPGGA,010909,2607.8517,N,07953.2093,W,1,7,2.0,9,M,,M,,*65
05/29/2014	01:09:11.854	$GPGGA,010910,2607.8510,N,07953.2075,W,1,7,2.0,9,M,,M,,*62
05/29/2014	01:09:12.951	$GPGGA,010911,2607.8503,N,07953.2059,W,1,7,2.0,9,M,,M,,*6F
05/29/2014	01:09:14.005	$GPGGA,010912,2607.8495,N,07953.2043,W,1,7,2.0,9,M,,M,,*69
05/29/2014	01:09:15.091	$GPGGA,010913,2607.8488,N,07953.2026,W,1,7,2.0,9,M,,M,,*67
05/29/2014	01:09:16.145	$GPGGA,010914,2607.8481,N,07953.2009,W,1,7,2.0,9,M,,M,,*64
05/29/2014	01:09:17.220	$GPGGA,010915,2607.8471,N,07953.1992,W,1,7,2.0,9,M,,M,,*62
05/29/2014	01:09:18.305	$GPGGA,010916,2607.8463,N,07953.1975,W,1,7,2.0,9,M,,M,,*6B
05/29/2014	01:09:19.380	$GPGGA,010917,2607.8456,N,07953.1958,W,1,7,2.0,9,M,,M,,*63
05/29/2014	01:09:20.445	$GPGGA,010918,2607.8448,N,07953.1942,W,1,7,2.0,9,M,,M,,*68
05/29/2014	01:09:21.509	$GPGGA,010919,2607.8441,N,07953.1925,W,1,7,2.0,9,M,,M,,*61
05/29/2014	01:09:22.618	$GPGGA,010920,2607.8434,N,07953.1908,W,1,7,2.0,9,M,,M,,*66
05/29/2014	01:09:23.671	$GPGGA,010921,2607.8425,N,07953.1891,W,1,7,2.0,9,M,,M,,*66
05/29/2014	01:09:24.725	$GPGGA,010922,2607.8418,N,07953.1875,W,1,7,2.0,9,M,,M,,*61
05/29/2014	01:09:25.800	$GPGGA,010923,2607.8410,N,07953.1857,W,1,7,2.0,9,M,,M,,*68
05/29/2014	01:09:26.886	$GPGGA,010924,2607.8403,N,07953.1840,W,1,7,2.0,9,M,,M,,*6B
05/29/2014	01:09:27.984	$GPGGA,010925,2607.8395,N,07953.1824,W,1,7,2.0,9,M,,M,,*60
05/29/2014	01:09:29.026	$GPGGA,010926,2607.8387,N,07953.1807,W,1,7,2.0,9,M,,M,,*61
05/29/2014	01:09:30.101	$GPGGA,010927,2607.8380,N,07953.1790,W,1,7,2.0,9,M,,M,,*66
05/29/2014	01:09:31.187	$GPGGA,010928,2607.8373,N,07953.1773,W,1,7,2.0,9,M,,M,,*68
05/29/2014	01:09:32.262	$GPGGA,010929,2607.8366,N,07953.1756,W,1,7,2.0,9,M,,M,,*6A
05/29/2014	01:09:33.305	$GPGGA,010930,2607.8358,N,07953.1739,W,1,7,2.0,9,M,,M,,*66
05/29/2014	01:09:34.413	$GPGGA,010931,2607.8351,N,07953.1722,W,1,7,2.0,9,M,,M,,*64
05/29/2014	01:09:35.478	$GPGGA,010932,2607.8344,N,07953.1705,W,1,7,2.0,9,M,,M,,*66
05/29/2014	01:09:36.531	$GPGGA,010933,2607.8336,N,07953.1687,W,1,7,2.0,9,M,,M,,*69
05/29/2014	01:09:37.735	$GPGGA,010934,2607.8329,N,07953.1670,W,1,7,2.0,9,M,,M,,*68
05/29/2014	01:09:38.812	$GPGGA,010935,2607.8322,N,07953.1652,W,1,7,2.0,9,M,,M,,*62
05/29/2014	01:09:39.778	$GPGGA,010936,2607.8315,N,07953.1635,W,1,7,2.0,9,M,,M,,*64
05/29/2014	01:09:40.825	$GPGGA,010937,2607.8309,N,07953.1619,W,1,7,2.0,9,M,,M,,*66
05/29/2014	01:09:42.005	$GPGGA,010938,2607.8302,N,07953.1601,W,1,7,2.0,9,M,,M,,*6B
05/29/2014	01:09:42.962	$GPGGA,010939,2607.8297,N,07953.1583,W,1,7,2.0,9,M,,M,,*6E
05/29/2014	01:09:39.552	$GPGGA,010940,2607.8288,N,07953.1566,W,1,7,2.0,9,M,,M,,*65
05/29/2014	01:09:40.746	$GPGGA,010941,2607.8281,N,07953.1548,W,1,7,2.0,9,M,,M,,*61
05/29/2014	01:09:41.799	$GPGGA,010942,2607.8273,N,07953.1531,W,1,7,2.0,9,M,,M,,*61
05/29/2014	01:09:42.843	$GPGGA,010943,2607.8268,N,07953.1513,W,1,7,2.0,9,M,,M,,*6A
05/29/2014	01:09:43.961	$GPGGA,010944,2607.8260,N,07953.1496,W,1,7,2.0,9,M,,M,,*69
05/29/2014	01:09:45.004	$GPGGA,010945,2607.8253,N,07953.1478,W,1,7,2.0,9,M,,M,,*68
05/29/2014	01:09:46.079	$GPGGA,010946,2607.8246,N,07953.1461,W,1,7,2.0,9,M,,M,,*67
05/29/2014	01:09:47.154	$GPGGA,010947,2607.8240,N,07953.1445,W,1,7,2.0,9,M,,M,,*66
05/29/2014	01:09:48.251	$GPGGA,010948,2607.8233,N,07953.1427,W,1,7,2.0,9,M,,M,,*69
05/29/2014	01:09:49.319	$GPGGA,010949,2607.8226,N,07953.1409,W,1,7,2.0,9,M,,M,,*60
05/29/2014	01:09:50.370	$GPGGA,010950,2607.8219,N,07953.1392,W,1,7,2.0,9,M,,M,,*61
05/29/2014	01:09:51.476	$GPGGA,010951,2607.8211,N,07953.1374,W,1,7,2.0,9,M,,M,,*60
05/29/2014	01:09:52.530	$GPGGA,010952,2607.8204,N,07953.1355,W,1,7,2.0,9,M,,M,,*64
05/29/2014	01:09:53.584	$GPGGA,010953,2607.8196,N,07953.1338,W,1,7,2.0,9,M,,M,,*66
05/29/2014	01:09:54.659	$GPGGA,010954,2607.8189,N,07953.1321,W,1,7,2.0,9,M,,M,,*67
05/29/2014	01:09:55.724	$GPGGA,010955,2607.8182,N,07953.1303,W,1,7,2.0,9,M,,M,,*6D
05/29/2014	01:09:56.820	$GPGGA,010956,2607.8176,N,07953.1286,W,1,7,2.0,10,M,,M,,*51
05/29/2014	01:09:57.896	$GPGGA,010957,2607.8169,N,07953.1270,W,1,7,2.0,10,M,,M,,*57
05/29/2014	01:09:58.949	$GPGGA,010958,2607.8163,N,07953.1252,W,1,7,2.0,10,M,,M,,*52
05/29/2014	01:10:00.046	$GPGGA,010959,2607.8156,N,07953.1235,W,1,7,2.0,10,M,,M,,*54
05/29/2014	01:10:01.123	$GPGGA,011000,2607.8147,N,07953.1218,W,1,7,2.0,10,M,,M,,*5F
05/29/2014	01:10:02.165	$GPGGA,011001,2607.8140,N,07953.1200,W,1,7,2.0,10,M,,M,,*50
05/29/2014	01:10:03.261	$GPGGA,011002,2607.8132,N,07953.1183,W,1,7,2.0,10,M,,M,,*5E
05/29/2014	01:10:04.315	$GPGGA,011003,2607.8124,N,07953.1165,W,1,7,2.0,10,M,,M,,*50
05/29/2014	01:10:05.412	$GPGGA,011004,2607.8117,N,07953.1148,W,1,7,2.0,10,M,,M,,*58
05/29/2014	01:10:06.456	$GPGGA,011005,2607.8110,N,07953.1131,W,1,7,2.0,10,M,,M,,*50
05/29/2014	01:10:07.531	$GPGGA,011006,2607.8103,N,07953.1114,W,1,7,2.0,10,M,,M,,*56
05/29/2014	01:10:08.606	$GPGGA,011007,2607.8096,N,07953.1097,W,1,7,2.0,10,M,,M,,*50
05/29/2014	01:10:09.702	$GPGGA,011008,2607.8088,N,07953.1080,W,1,7,2.0,10,M,,M,,*56
05/29/2014	01:10:10.744	$GPGGA,011009,2607.8081,N,07953.1063,W,1,7,2.0,10,M,,M,,*53
05/29/2014	01:10:11.820	$GPGGA,011010,2607.8073,N,07953.1046,W,1,7,2.0,10,M,,M,,*51
05/29/2014	01:10:12.916	$GPGGA,011011,2607.8065,N,07953.1030,W,1,7,2.0,10,M,,M,,*56
05/29/2014	01:10:13.981	$GPGGA,011012,2607.8058,N,07953.1013,W,1,7,2.0,10,M,,M,,*5A
05/29/2014	01:10:15.046	$GPGGA,011013,2607.8051,N,07953.0996,W,1,7,2.0,10,M,,M,,*57
05/29/2014	01:10:16.121	$GPGGA,011014,2607.8044,N,07953.0980,W,1,7,2.0,10,M,,M,,*53
05/29/2014	01:10:17.230	$GPGGA,011015,2607.8035,N,07953.0963,W,1,7,2.0,10,M,,M,,*59
05/29/2014	01:10:18.282	$GPGGA,011016,2607.8027,N,07953.0946,W,1,7,2.0,10,M,,M,,*5E
05/29/2014	01:10:19.347	$GPGGA,011017,2607.8019,N,07953.0928,W,1,7,2.0,10,M,,M,,*5A
05/29/2014	01:10:20.422	$GPGGA,011018,2607.8011,N,07953.0912,W,1,7,2.0,10,M,,M,,*54
05/29/2014	01:10:21.616	$GPGGA,011019,2607.8004,N,07953.0895,W,1,7,2.0,10,M,,M,,*5F
05/29/2014	01:10:22.563	$GPGGA,011020,2607.7997,N,07953.0878,W,1,7,2.0,10,M,,M,,*5A
05/29/2014	01:10:23.648	$GPGGA,011021,2607.7990,N,07953.0862,W,1,7,2.0,10,M,,M,,*57
05/29/2014	01:10:24.723	$GPGGA,011022,2607.7981,N,07953.0846,W,1,7,2.0,10,M,,M,,*52
05/29/2014	01:10:25.875	$GPGGA,011023,2607.7975,N,07953.0828,W,1,7,2.0,10,M,,M,,*50
05/29/2014	01:10:26.853	$GPGGA,011024,2607.7966,N,07953.0811,W,1,7,2.0,10,M,,M,,*5F
05/29/2014	01:10:28.027	$GPGGA,011025,2607.7959,N,07953.0795,W,1,7,2.0,10,M,,M,,*51
05/29/2014	01:10:29.127	$GPGGA,011026,2607.7951,N,07953.0776,W,1,7,2.0,10,M,,M,,*57
05/29/2014	01:10:30.180	$GPGGA,011027,2607.7943,N,07953.0759,W,1,7,2.0,10,M,,M,,*58
05/29/2014	01:10:31.164	$GPGGA,011028,2607.7936,N,07953.0743,W,1,7,2.0,10,M,,M,,*5E
05/29/2014	01:10:32.328	$GPGGA,011029,2607.7928,N,07953.0726,W,1,7,2.0,10,M,,M,,*53
05/29/2014	01:10:33.297	$GPGGA,011030,2607.7921,N,07953.0709,W,1,7,2.0,10,M,,M,,*5F
05/29/2014	01:10:34.368	$GPGGA,011031,2607.7914,N,07953.0692,W,1,7,2.0,10,M,,M,,*5B
05/29/2014	01:10:35.561	$GPGGA,011032,2607.7906,N,07953.0676,W,1,7,2.0,10,M,,M,,*51
05/29/2014	01:10:36.651	$GPGGA,011033,2607.7898,N,07953.0658,W,1,7,2.0,10,M,,M,,*5A
05/29/2014	01:10:37.690	$GPGGA,011034,2607.7892,N,07953.0641,W,1,7,2.0,10,M,,M,,*5F
05/29/2014	01:10:38.766	$GPGGA,011035,2607.7883,N,07953.0624,W,1,7,2.0,10,M,,M,,*5D
05/29/2014	01:10:39.862	$GPGGA,011036,2607.7875,N,07953.0606,W,1,7,2.0,10,M,,M,,*57
05/29/2014	01:10:40.895	$GPGGA,011037,2607.7868,N,07953.0589,W,1,7,2.0,10,M,,M,,*5E
05/29/2014	01:10:41.970	$GPGGA,011038,2607.7861,N,07953.0571,W,1,7,2.0,10,M,,M,,*5F
05/29/2014	01:10:43.067	$GPGGA,011039,2607.7854,N,07953.0555,W,1,7,2.0,10,M,,M,,*5E
05/29/2014	01:10:39.615	$GPGGA,011040,2607.7847,N,07953.0537,W,1,7,2.0,10,M,,M,,*56
05/29/2014	01:10:40.702	$GPGGA,011041,2607.7840,N,07953.0520,W,1,7,2.0,10,M,,M,,*56
05/29/2014	01:10:41.766	$GPGGA,011042,2607.7833,N,07953.0502,W,1,7,2.0,10,M,,M,,*51
05/29/2014	01:10:42.841	$GPGGA,011043,2607.7825,N,07953.0486,W,1,7,2.0,10,M,,M,,*5A
05/29/2014	01:10:43.916	$GPGGA,011044,2607.7818,N,07953.0468,W,1,7,2.0,10,M,,M,,*53
05/29/2014	01:10:44.969	$GPGGA,011045,2607.7810,N,07953.0451,W,1,7,2.0,10,M,,M,,*50
05/29/2014	01:10:46.045	$GPGGA,011046,2607.7803,N,07953.0433,W,1,7,2.0,10,M,,M,,*55
05/29/2014	01:10:47.131	$GPGGA,011047,2607.7796,N,07953.0416,W,1,7,2.0,10,M,,M,,*50
05/29/2014	01:10:48.217	$GPGGA,011048,2607.7789,N,07953.0398,W,1,7,2.0,10,M,,M,,*50
05/29/2014	01:10:49.293	$GPGGA,011049,2607.7782,N,07953.0381,W,1,7,2.0,10,M,,M,,*52
05/29/2014	01:10:50.346	$GPGGA,011050,2607.7776,N,07953.0364,W,1,7,2.0,10,M,,M,,*5A
05/29/2014	01:10:51.410	$GPGGA,011051,2607.7768,N,07953.0347,W,1,7,2.0,10,M,,M,,*55
05/29/2014	01:10:52.507	$GPGGA,011052,2607.7762,N,07953.0329,W,1,7,2.0,10,M,,M,,*54
05/29/2014	01:10:53.583	$GPGGA,011053,2607.7755,N,07953.0312,W,1,7,2.0,10,M,,M,,*59
05/29/2014	01:10:54.626	$GPGGA,011054,2607.7746,N,07953.0294,W,1,7,2.0,10,M,,M,,*53
05/29/2014	01:10:55.744	$GPGGA,011055,2607.7739,N,07953.0276,W,1,7,2.0,10,M,,M,,*56
05/29/2014	01:10:56.799	$GPGGA,011056,2607.7731,N,07953.0258,W,1,7,2.0,10,M,,M,,*51
05/29/2014	01:10:57.894	$GPGGA,011057,2607.7724,N,07953.0240,W,1,7,2.0,10,M,,M,,*5D
05/29/2014	01:10:58.927	$GPGGA,011058,2607.7717,N,07953.0223,W,1,7,2.0,10,M,,M,,*57
05/29/2014	01:10:59.991	$GPGGA,011059,2607.7709,N,07953.0206,W,1,7,2.0,10,M,,M,,*5E
05/29/2014	01:11:01.099	$GPGGA,011100,2607.7702,N,07953.0189,W,1,7,2.0,10,M,,M,,*5C
05/29/2014	01:11:02.195	$GPGGA,011101,2607.7695,N,07953.0172,W,1,7,2.0,10,M,,M,,*56
05/29/2014	01:11:03.227	$GPGGA,011102,2607.7688,N,07953.0155,W,1,7,2.0,10,M,,M,,*5C
05/29/2014	01:11:04.336	$GPGGA,011103,2607.7681,N,07953.0137,W,1,7,2.0,10,M,,M,,*50
05/29/2014	01:11:05.377	$GPGGA,011104,2607.7673,N,07953.0120,W,1,7,2.0,10,M,,M,,*5C
05/29/2014	01:11:06.571	$GPGGA,011105,2607.7666,N,07953.0102,W,1,7,2.0,10,M,,M,,*59
05/29/2014	01:11:07.507	$GPGGA,011106,2607.7658,N,07953.0085,W,1,7,2.0,10,M,,M,,*59
05/29/2014	01:11:08.571	$GPGGA,011107,2607.7650,N,07953.0068,W,1,7,2.0,10,M,,M,,*53
05/29/2014	01:11:09.797	$GPGGA,011108,2607.7643,N,07953.0050,W,1,7,2.0,10,M,,M,,*55
05/29/2014	01:11:10.862	$GPGGA,011109,2607.7634,N,07953.0033,W,1,7,2.0,10,M,,M,,*51
05/29/2014	01:11:11.797	$GPGGA,011110,2607.7627,N,07953.0016,W,1,7,2.0,10,M,,M,,*5C
05/29/2014	01:11:12.894	$GPGGA,011111,2607.7619,N,07953.0000,W,1,7,2.0,10,M,,M,,*57
05/29/2014	01:11:13.969	$GPGGA,011112,2607.7612,N,07952.9984,W,1,7,2.0,10,M,,M,,*52
05/29/2014	01:11:15.028	$GPGGA,011113,2607.7605,N,07952.9966,W,1,7,2.0,10,M,,M,,*59
05/29/2014	01:11:16.197	$GPGGA,011114,2607.7598,N,07952.9950,W,1,7,2.0,10,M,,M,,*5C
05/29/2014	01:11:17.313	$GPGGA,011115,2607.7590,N,07952.9932,W,1,7,2.0,10,M,,M,,*51
05/29/2014	01:11:18.378	$GPGGA,011116,2607.7583,N,07952.9915,W,1,7,2.0,10,M,,M,,*55
05/29/2014	01:11:19.442	$GPGGA,011117,2607.7575,N,07952.9897,W,1,7,2.0,10,M,,M,,*56
05/29/2014	01:11:20.391	$GPGGA,011118,2607.7567,N,07952.9879,W,1,7,2.0,10,M,,M,,*5A
05/29/2014	01:11:21.463	$GPGGA,011119,2607.7560,N,07952.9862,W,1,7,2.0,10,M,,M,,*56
05/29/2014	01:11:22.656	$GPGGA,011120,2607.7551,N,07952.9845,W,1,7,2.0,10,M,,M,,*5B
05/29/2014	01:11:23.724	$GPGGA,011121,2607.7544,N,07952.9828,W,1,7,2.0,10,M,,M,,*55
05/29/2014	01:11:24.796	$GPGGA,011122,2607.7536,N,07952.9811,W,1,7,2.0,10,M,,M,,*59
05/29/2014	01:11:25.893	$GPGGA,011123,2607.7529,N,07952.9794,W,1,7,2.0,10,M,,M,,*54
05/29/2014	01:11:26.947	$GPGGA,011124,2607.7522,N,07952.9777,W,1,7,2.0,10,M,,M,,*55
05/29/2014	01:11:28.035	$GPGGA,011125,2607.7515,N,07952.9759,W,1,7,2.0,10,M,,M,,*5C
05/29/2014	01:11:29.099	$GPGGA,011126,2607.7507,N,07952.9742,W,1,7,2.0,10,M,,M,,*56
05/29/2014	01:11:30.173	$GPGGA,011127,2607.7499,N,07952.9726,W,1,7,2.0,10,M,,M,,*53
05/29/2014	01:11:31.249	$GPGGA,011128,2607.7491,N,07952.9707,W,1,7,2.0,10,M,,M,,*57
05/29/2014	01:11:32.328	$GPGGA,011129,2607.7484,N,07952.9690,W,1,7,2.0,10,M,,M,,*5D
05/29/2014	01:11:33.366	$GPGGA,011130,2607.7477,N,07952.9673,W,1,7,2.0,10,M,,M,,*54
05/29/2014	01:11:34.463	$GPGGA,011131,2607.7468,N,07952.9655,W,1,7,2.0,10,M,,M,,*5F
05/29/2014	01:11:35.528	$GPGGA,011132,2607.7462,N,07952.9638,W,1,7,2.0,10,M,,M,,*5D
05/29/2014	01:11:36.614	$GPGGA,011133,2607.7455,N,07952.9622,W,1,7,2.0,10,M,,M,,*53
05/29/2014	01:11:37.668	$GPGGA,011134,2607.7446,N,07952.9604,W,1,7,2.0,10,M,,M,,*52
05/29/2014	01:11:38.754	$GPGGA,011135,2607.7439,N,07952.9586,W,1,7,2.0,10,M,,M,,*52
05/29/2014	01:11:39.828	$GPGGA,011136,2607.7431,N,07952.9569,W,1,7,2.0,10,M,,M,,*58
05/29/2014	01:11:40.914	$GPGGA,011137,2607.7423,N,07952.9552,W,1,7,2.1,10,M,,M,,*53
05/29/2014	01:11:41.959	$GPGGA,011138,2607.7417,N,07952.9533,W,1,7,2.0,10,M,,M,,*5D
05/29/2014	01:11:43.043	$GPGGA,011139,2607.7410,N,07952.9514,W,1,7,2.0,10,M,,M,,*5E
05/29/2014	01:11:39.603	$GPGGA,011140,2607.7404,N,07952.9496,W,1,7,2.0,11,M,,M,,*5F
05/29/2014	01:11:40.666	$GPGGA,011141,2607.7397,N,07952.9477,W,1,7,2.0,11,M,,M,,*5C
05/29/2014	01:11:41.731	$GPGGA,011142,2607.7390,N,07952.9459,W,1,7,2.0,11,M,,M,,*54
05/29/2014	01:11:42.806	$GPGGA,011143,2607.7383,N,07952.9441,W,1,7,2.0,11,M,,M,,*5E
05/29/2014	01:11:43.903	$GPGGA,011144,2607.7376,N,07952.9423,W,1,7,2.0,11,M,,M,,*57
05/29/2014	01:11:44.978	$GPGGA,011145,2607.7369,N,07952.9405,W,1,7,2.0,11,M,,M,,*5C
05/29/2014	01:11:46.032	$GPGGA,011146,2607.7361,N,07952.9387,W,1,7,2.0,11,M,,M,,*5A
05/29/2014	01:11:47.089	$GPGGA,011147,2607.7354,N,07952.9369,W,1,7,2.0,11,M,,M,,*5D
05/29/2014	01:11:48.204	$GPGGA,011148,2607.7347,N,07952.9351,W,1,7,2.0,11,M,,M,,*5B
05/29/2014	01:11:49.258	$GPGGA,011149,2607.7340,N,07952.9334,W,1,7,2.0,11,M,,M,,*5E
05/29/2014	01:11:50.430	$GPGGA,011150,2607.7332,N,07952.9316,W,1,7,2.0,11,M,,M,,*53
