Software Version Number: 1	Data File Format Number: 1	Build Version Number: 1	Error Count Since VI Started: 0	Manufacturer: Raytheon	 Model Number: RayMarine 120	 S/N: 	 Cal Date: 	 Wind Direction Offset: 0.00	 Slope (M)1: 0.00	 Offset (B)1: 0.00	 Slope (M)2: 0.00	 Offset (B)2: 0.00	 Slope (M)3: 0.00	 Offset (B)3: 0.00	 Slope (M)4: 0.00	 Offset (B)4: 0.00	 Slope (M)5: 0.00	 Offset (B)5: 0.00	 Slope (M)6: 0.00	 Offset (B)6: 0.00
Computer Date	Computer Time	GGA String
06/10/2014	12:00:00.038	$GPGGA,120000,2611.9098,N,08002.1477,W,1,8,1.9,13,M,,M,,*52
06/10/2014	12:00:01.084	$GPGGA,120001,2611.9095,N,08002.1488,W,1,8,1.9,13,M,,M,,*5E
06/10/2014	12:00:02.064	$GPGGA,120002,2611.9091,N,08002.1499,W,1,8,1.9,13,M,,M,,*59
06/10/2014	12:00:03.226	$GPGGA,120003,2611.9088,N,08002.1510,W,1,8,1.9,13,M,,M,,*50
06/10/2014	12:00:04.183	$GPGGA,120004,2611.9084,N,08002.1522,W,1,8,1.9,13,M,,M,,*5A
06/10/2014	12:00:05.172	$GPGGA,120005,2611.9080,N,08002.1535,W,1,8,1.9,13,M,,M,,*59
06/10/2014	12:00:06.197	$GPGGA,120006,2611.9076,N,08002.1546,W,1,8,1.9,13,M,,M,,*57
06/10/2014	12:00:07.211	$GPGGA,120007,2611.9072,N,08002.1557,W,1,8,1.9,13,M,,M,,*52
06/10/2014	12:00:08.257	$GPGGA,120008,2611.9068,N,08002.1568,W,1,8,1.9,13,M,,M,,*5A
06/10/2014	12:00:09.261	$GPGGA,120009,2611.9065,N,08002.1580,W,1,8,1.9,13,M,,M,,*50
06/10/2014	12:00:10.296	$GPGGA,120010,2611.9061,N,08002.1591,W,1,8,1.9,13,M,,M,,*5C
06/10/2014	12:00:11.321	$GPGGA,120011,2611.9058,N,08002.1602,W,1,8,1.9,13,M,,M,,*5E
06/10/2014	12:00:12.356	$GPGGA,120012,2611.9055,N,08002.1613,W,1,8,1.9,13,M,,M,,*50
06/10/2014	12:00:13.361	$GPGGA,120013,2611.9052,N,08002.1626,W,1,8,1.9,13,M,,M,,*50
06/10/2014	12:00:14.365	$GPGGA,120014,2611.9048,N,08002.1637,W,1,8,1.9,13,M,,M,,*5C
06/10/2014	12:00:15.411	$GPGGA,120015,2611.9044,N,08002.1647,W,1,8,1.9,13,M,,M,,*56
06/10/2014	12:00:16.436	$GPGGA,120016,2611.9041,N,08002.1659,W,1,8,1.9,13,M,,M,,*5F
06/10/2014	12:00:17.450	$GPGGA,120017,2611.9037,N,08002.1670,W,1,8,1.9,13,M,,M,,*54
06/10/2014	12:00:18.475	$GPGGA,120018,2611.9034,N,08002.1681,W,1,8,1.9,13,M,,M,,*56
06/10/2014	12:00:19.500	$GPGGA,120019,2611.9030,N,08002.1694,W,1,8,1.9,13,M,,M,,*57
06/10/2014	12:00:20.525	$GPGGA,120020,2611.9027,N,08002.1705,W,1,8,1.9,13,M,,M,,*52
06/10/2014	12:00:21.559	$GPGGA,120021,2611.9023,N,08002.1716,W,1,8,1.9,13,M,,M,,*55
06/10/2014	12:00:22.543	$GPGGA,120022,2611.9023,N,08002.1716,W,1,8,1.9,13,M,,M,,*56
06/10/2014	12:00:23.609	$GPGGA,120023,2611.9016,N,08002.1738,W,1,8,1.9,13,M,,M,,*5D
06/10/2014	12:00:24.634	$GPGGA,120024,2611.9014,N,08002.1749,W,1,8,1.9,13,M,,M,,*5E
06/10/2014	12:00:25.659	$GPGGA,120025,2611.9008,N,08002.1760,W,1,8,1.9,13,M,,M,,*59
06/10/2014	12:00:26.643	$GPGGA,120026,2611.9008,N,08002.1760,W,1,8,1.9,13,M,,M,,*5A
06/10/2014	12:00:27.667	$GPGGA,120027,2611.9001,N,08002.1782,W,1,8,1.9,13,M,,M,,*5E
06/10/2014	12:00:28.754	$GPGGA,120028,2611.9001,N,08002.1782,W,1,8,1.9,13,M,,M,,*51
06/10/2014	12:00:29.748	$GPGGA,120029,2611.8994,N,08002.1804,W,1,8,1.9,13,M,,M,,*55
06/10/2014	12:00:30.763	$GPGGA,120030,2611.8992,N,08002.1815,W,1,8,1.9,13,M,,M,,*5B
06/10/2014	12:00:31.749	$GPGGA,120031,2611.8987,N,08002.1826,W,1,8,1.9,13,M,,M,,*5E
06/10/2014	12:00:32.802	$GPGGA,120032,2611.8987,N,08002.1826,W,1,8,1.9,13,M,,M,,*5D
06/10/2014	12:00:33.827	$GPGGA,120033,2611.8980,N,08002.1847,W,1,8,1.9,13,M,,M,,*5C
06/10/2014	12:00:34.831	$GPGGA,120034,2611.8980,N,08002.1847,W,1,8,1.9,13,M,,M,,*5B
06/10/2014	12:00:35.857	$GPGGA,120035,2611.8972,N,08002.1869,W,1,8,1.9,13,M,,M,,*5B
06/10/2014	12:00:36.923	$GPGGA,120036,2611.8972,N,08002.1869,W,1,8,1.9,13,M,,M,,*58
06/10/2014	12:00:37.916	$GPGGA,120037,2611.8965,N,08002.1890,W,1,8,1.9,13,M,,M,,*59
06/10/2014	12:00:38.924	$GPGGA,120038,2611.8961,N,08002.1901,W,1,8,1.9,13,M,,M,,*5B
06/10/2014	12:00:39.937	$GPGGA,120039,2611.8957,N,08002.1912,W,1,8,1.9,13,M,,M,,*5D
06/10/2014	12:00:40.981	$GPGGA,120040,2611.8957,N,08002.1912,W,1,8,1.9,13,M,,M,,*53
06/10/2014	12:00:41.984	$GPGGA,120041,2611.8951,N,08002.1933,W,1,8,1.9,13,M,,M,,*57
06/10/2014	12:00:41.609	$GPGGA,120042,2611.8949,N,08002.1944,W,1,8,1.9,13,M,,M,,*5D
06/10/2014	12:00:42.666	$GPGGA,120043,2611.8945,N,08002.1955,W,1,8,1.9,13,M,,M,,*50
06/10/2014	12:00:43.590	$GPGGA,120044,2611.8940,N,08002.1965,W,1,8,1.9,13,M,,M,,*51
06/10/2014	12:00:44.571	$GPGGA,120045,2611.8936,N,08002.1976,W,1,8,1.9,13,M,,M,,*53
06/10/2014	12:00:45.709	$GPGGA,120046,2611.8932,N,08002.1987,W,1,8,1.9,13,M,,M,,*5A
06/10/2014	12:00:46.744	$GPGGA,120047,2611.8928,N,08002.1998,W,1,8,1.9,13,M,,M,,*5E
06/10/2014	12:00:47.790	$GPGGA,120048,2611.8925,N,08002.2009,W,1,8,1.9,13,M,,M,,*5E
06/10/2014	12:00:48.681	$GPGGA,120049,2611.8921,N,08002.2020,W,1,8,1.9,13,M,,M,,*50
06/10/2014	12:00:49.798	$GPGGA,120050,2611.8918,N,08002.2030,W,1,8,1.9,13,M,,M,,*53
06/10/2014	12:00:50.875	$GPGGA,120051,2611.8914,N,08002.2041,W,1,8,1.9,13,M,,M,,*58
06/10/2014	12:00:51.858	$GPGGA,120052,2611.8911,N,08002.2052,W,1,8,1.9,13,M,,M,,*5C
06/10/2014	12:00:53.908	$GPGGA,120053,2611.8907,N,08002.2063,W,1,8,1.9,13,M,,M,,*58
06/10/2014	12:00:53.929	$GPGGA,120054,2611.8903,N,08002.2074,W,1,8,1.9,13,M,,M,,*5D
06/10/2014	12:00:54.922	$GPGGA,120055,2611.8899,N,08002.2085,W,1,8,1.9,13,M,,M,,*50
06/10/2014	12:00:55.947	$GPGGA,120056,2611.8895,N,08002.2095,W,1,8,1.9,13,M,,M,,*5E
06/10/2014	12:00:56.982	$GPGGA,120057,2611.8892,N,08002.2106,W,1,8,1.9,12,M,,M,,*52
06/10/2014	12:00:57.976	$GPGGA,120058,2611.8888,N,08002.2117,W,1,8,1.9,12,M,,M,,*56
06/10/2014	12:00:59.021	$GPGGA,120059,2611.8885,N,08002.2128,W,1,8,1.9,12,M,,M,,*56
06/10/2014	12:01:00.101	$GPGGA,120100,2611.8881,N,08002.2139,W,1,8,1.9,12,M,,M,,*5F
06/10/2014	12:01:01.051	$GPGGA,120101,2611.8878,N,08002.2150,W,1,8,1.9,12,M,,M,,*57
06/10/2014	12:01:02.076	$GPGGA,120102,2611.8874,N,08002.2160,W,1,8,1.9,12,M,,M,,*5B
06/10/2014	12:01:03.111	$GPGGA,120103,2611.8870,N,08002.2171,W,1,8,1.9,12,M,,M,,*5E
06/10/2014	12:01:04.125	$GPGGA,120104,2611.8867,N,08002.2182,W,1,8,1.9,12,M,,M,,*53
06/10/2014	12:01:05.161	$GPGGA,120105,2611.8863,N,08002.2193,W,1,8,1.9,12,M,,M,,*56
06/10/2014	12:01:06.175	$GPGGA,120106,2611.8859,N,08002.2204,W,1,8,1.9,12,M,,M,,*51
06/10/2014	12:01:07.210	$GPGGA,120107,2611.8856,N,08002.2215,W,1,8,1.9,12,M,,M,,*5F
06/10/2014	12:01:08.225	$GPGGA,120108,2611.8853,N,08002.2225,W,1,8,1.9,12,M,,M,,*56
06/10/2014	12:01:09.250	$GPGGA,120109,2611.8849,N,08002.2236,W,1,8,1.9,12,M,,M,,*5E
06/10/2014	12:01:10.265	$GPGGA,120110,2611.8846,N,08002.2247,W,1,8,1.9,12,M,,M,,*5F
06/10/2014	12:01:11.310	$GPGGA,120111,2611.8842,N,08002.2258,W,1,8,1.9,12,M,,M,,*54
06/10/2014	12:01:12.325	$GPGGA,120112,2611.8839,N,08002.2269,W,1,8,1.9,12,M,,M,,*59
06/10/2014	12:01:13.334	$GPGGA,120113,2611.8835,N,08002.2280,W,1,8,1.9,12,M,,M,,*53
06/10/2014	12:01:14.345	$GPGGA,120114,2611.8831,N,08002.2291,W,1,8,1.9,12,M,,M,,*50
06/10/2014	12:01:15.345	$GPGGA,120115,2611.8827,N,08002.2302,W,1,8,1.9,12,M,,M,,*5D
06/10/2014	12:01:16.356	$GPGGA,120116,2611.8824,N,08002.2313,W,1,8,1.9,12,M,,M,,*5D
06/10/2014	12:01:17.347	$GPGGA,120117,2611.8820,N,08002.2326,W,1,8,1.9,12,M,,M,,*5E
06/10/2014	12:01:18.377	$GPGGA,120118,2611.8817,N,08002.2337,W,1,8,1.9,12,M,,M,,*55
06/10/2014	12:01:19.358	$GPGGA,120119,2611.8813,N,08002.2348,W,1,8,1.9,12,M,,M,,*58
06/10/2014	12:01:20.398	$GPGGA,120120,2611.8809,N,08002.2359,W,1,8,1.9,12,M,,M,,*59
06/10/2014	12:01:21.419	$GPGGA,120121,2611.8806,N,08002.2370,W,1,8,1.9,12,M,,M,,*5C
06/10/2014	12:01:22.391	$GPGGA,120122,2611.8802,N,08002.2381,W,1,8,1.9,12,M,,M,,*55
06/10/2014	12:01:23.420	$GPGGA,120123,2611.8798,N,08002.2392,W,1,8,1.9,12,M,,M,,*5A
06/10/2014	12:01:24.421	$GPGGA,120124,2611.8794,N,08002.2402,W,1,8,1.9,12,M,,M,,*5F
06/10/2014	12:01:25.415	$GPGGA,120125,2611.8791,N,08002.2414,W,1,8,1.9,12,M,,M,,*5C
06/10/2014	12:01:26.433	$GPGGA,120126,2611.8787,N,08002.2425,W,1,8,1.9,12,M,,M,,*5A
06/10/2014	12:01:27.455	$GPGGA,120127,2611.8786,N,08002.2436,W,1,7,2.4,12,M,,M,,*59
06/10/2014	12:01:28.454	$GPGGA,120128,2611.8783,N,08002.2449,W,1,7,1.9,12,M,,M,,*55
06/10/2014	12:01:29.476	$GPGGA,120129,2611.8779,N,08002.2460,W,1,8,1.9,12,M,,M,,*55
06/10/2014	12:01:30.454	$GPGGA,120130,2611.8776,N,08002.2471,W,1,8,1.9,12,M,,M,,*52
06/10/2014	12:01:31.463	$GPGGA,120131,2611.8773,N,08002.2482,W,1,8,1.9,12,M,,M,,*5A
06/10/2014	12:01:32.506	$GPGGA,120132,2611.8770,N,08002.2494,W,1,8,1.9,12,M,,M,,*5D
06/10/2014	12:01:33.474	$GPGGA,120133,2611.8768,N,08002.2505,W,1,8,1.9,12,M,,M,,*5C
06/10/2014	12:01:34.586	$GPGGA,120134,2611.8763,N,08002.2518,W,1,8,1.9,12,M,,M,,*5C
06/10/2014	12:01:35.607	$GPGGA,120135,2611.8761,N,08002.2529,W,1,8,1.9,12,M,,M,,*5D
06/10/2014	12:01:36.526	$GPGGA,120136,2611.8757,N,08002.2540,W,1,8,1.9,12,M,,M,,*54
06/10/2014	12:01:37.628	$GPGGA,120137,2611.8754,N,08002.2552,W,1,8,1.9,12,M,,M,,*55
06/10/2014	12:01:38.537	$GPGGA,120138,2611.8750,N,08002.2563,W,1,8,1.9,12,M,,M,,*5C
06/10/2014	12:01:39.629	$GPGGA,120139,2611.8747,N,08002.2576,W,1,8,1.9,12,M,,M,,*5F
06/10/2014	12:01:40.696	$GPGGA,120140,2611.8743,N,08002.2587,W,1,8,1.9,12,M,,M,,*5B
06/10/2014	12:01:41.696	$GPGGA,120141,2611.8740,N,08002.2598,W,1,8,1.9,12,M,,M,,*57
06/10/2014	12:01:41.597	$GPGGA,120142,2611.8737,N,08002.2609,W,1,8,1.9,12,M,,M,,*5F
06/10/2014	12:01:42.587	$GPGGA,120143,2611.8733,N,08002.2620,W,1,8,1.9,13,M,,M,,*50
06/10/2014	12:01:43.608	$GPGGA,120144,2611.8729,N,08002.2631,W,1,8,1.9,13,M,,M,,*5C
06/10/2014	12:01:44.629	$GPGGA,120145,2611.8726,N,08002.2644,W,1,8,1.9,13,M,,M,,*50
06/10/2014	12:01:45.619	$GPGGA,120146,2611.8723,N,08002.2655,W,1,8,1.9,13,M,,M,,*56
06/10/2014	12:01:46.640	$GPGGA,120147,2611.8721,N,08002.2666,W,1,8,1.9,13,M,,M,,*55
06/10/2014	12:01:47.639	$GPGGA,120148,2611.8717,N,08002.2677,W,1,8,1.9,13,M,,M,,*5F
06/10/2014	12:01:48.661	$GPGGA,120149,2611.8714,N,08002.2688,W,1,8,1.9,13,M,,M,,*5D
06/10/2014	12:01:49.640	$GPGGA,120150,2611.8708,N,08002.2703,W,1,8,2.2,13,M,,M,,*52
06/10/2014	12:01:50.681	$GPGGA,120151,2611.8705,N,08002.2713,W,1,8,1.9,13,M,,M,,*57
06/10/2014	12:01:51.682	$GPGGA,120152,2611.8703,N,08002.2722,W,1,8,2.2,13,M,,M,,*58
06/10/2014	12:01:52.662	$GPGGA,120153,2611.8700,N,08002.2732,W,1,8,1.9,13,M,,M,,*53
06/10/2014	12:01:53.683	$GPGGA,120154,2611.8697,N,08002.2743,W,1,8,1.9,13,M,,M,,*5D
06/10/2014	12:01:54.714	$GPGGA,120155,2611.8694,N,08002.2754,W,1,8,1.9,13,M,,M,,*59
06/10/2014	12:01:55.714	$GPGGA,120156,2611.8691,N,08002.2767,W,1,8,1.9,13,M,,M,,*5F
06/10/2014	12:01:56.735	$GPGGA,120157,2611.8689,N,08002.2778,W,1,8,1.9,13,M,,M,,*59
06/10/2014	12:01:57.725	$GPGGA,120158,2611.8685,N,08002.2789,W,1,8,1.9,13,M,,M,,*54
06/10/2014	12:01:58.756	$GPGGA,120159,2611.8680,N,08002.2800,W,1,8,1.9,13,M,,M,,*5E
06/10/2014	12:01:59.756	$GPGGA,120200,2611.8678,N,08002.2811,W,1,8,1.9,13,M,,M,,*56
06/10/2014	12:02:00.767	$GPGGA,120201,2611.8674,N,08002.2822,W,1,8,1.9,13,M,,M,,*5B
06/10/2014	12:02:01.747	$GPGGA,120202,2611.8669,N,08002.2833,W,1,8,1.9,14,M,,M,,*53
06/10/2014	12:02:02.758	$GPGGA,120203,2611.8667,N,08002.2845,W,1,8,1.9,14,M,,M,,*5D
06/10/2014	12:02:03.790	$GPGGA,120204,2611.8662,N,08002.2857,W,1,8,1.9,14,M,,M,,*5C
06/10/2014	12:02:04.798	$GPGGA,120205,2611.8658,N,08002.2868,W,1,8,1.9,14,M,,M,,*58
06/10/2014	12:02:05.789	$GPGGA,120206,2611.8654,N,08002.2879,W,1,8,1.9,14,M,,M,,*57
06/10/2014	12:02:06.791	$GPGGA,120207,2611.8650,N,08002.2890,W,1,8,1.9,14,M,,M,,*55
06/10/2014	12:02:07.820	$GPGGA,120208,2611.8646,N,08002.2901,W,1,8,1.9,14,M,,M,,*54
06/10/2014	12:02:08.821	$GPGGA,120209,2611.8642,N,08002.2913,W,1,8,1.9,14,M,,M,,*52
06/10/2014	12:02:09.812	$GPGGA,120210,2611.8638,N,08002.2924,W,1,8,1.9,14,M,,M,,*53
06/10/2014	12:02:10.811	$GPGGA,120211,2611.8635,N,08002.2937,W,1,8,1.9,14,M,,M,,*5D
06/10/2014	12:02:11.852	$GPGGA,120212,2611.8631,N,08002.2948,W,1,8,1.9,14,M,,M,,*52
06/10/2014	12:02:12.863	$GPGGA,120213,2611.8627,N,08002.2959,W,1,8,1.9,14,M,,M,,*54
06/10/2014	12:02:13.856	$GPGGA,120214,2611.8624,N,08002.2970,W,1,8,1.9,14,M,,M,,*5B
06/10/2014	12:02:14.874	$GPGGA,120215,2611.8620,N,08002.2980,W,1,8,1.9,14,M,,M,,*51
06/10/2014	12:02:15.885	$GPGGA,120216,2611.8616,N,08002.2991,W,1,8,1.9,14,M,,M,,*57
06/10/2014	12:02:16.901	$GPGGA,120217,2611.8613,N,08002.3003,W,1,8,1.9,14,M,,M,,*50
06/10/2014	12:02:17.888	$GPGGA,120218,2611.8609,N,08002.3014,W,1,8,1.9,14,M,,M,,*52
06/10/2014	12:02:18.886	$GPGGA,120219,2611.8604,N,08002.3025,W,1,8,1.9,15,M,,M,,*5D
06/10/2014	12:02:19.917	$GPGGA,120220,2611.8602,N,08002.3035,W,1,8,1.9,15,M,,M,,*50
06/10/2014	12:02:20.948	$GPGGA,120221,2611.8598,N,08002.3046,W,1,7,2.2,15,M,,M,,*52
06/10/2014	12:02:22.019	$GPGGA,120222,2611.8593,N,08002.3057,W,1,7,2.2,15,M,,M,,*5A
06/10/2014	12:02:22.927	$GPGGA,120223,2611.8589,N,08002.3068,W,1,8,1.9,15,M,,M,,*5B
06/10/2014	12:02:24.039	$GPGGA,120224,2611.8585,N,08002.3079,W,1,8,1.9,15,M,,M,,*50
06/10/2014	12:02:25.051	$GPGGA,120225,2611.8581,N,08002.3090,W,1,8,1.9,15,M,,M,,*52
06/10/2014	12:02:26.050	$GPGGA,120226,2611.8577,N,08002.3103,W,1,8,1.9,15,M,,M,,*53
06/10/2014	12:02:27.081	$GPGGA,120227,2611.8573,N,08002.3112,W,1,8,1.9,15,M,,M,,*56
06/10/2014	12:02:28.092	$GPGGA,120228,2611.8570,N,08002.3125,W,1,8,1.9,15,M,,M,,*5E
06/10/2014	12:02:29.073	$GPGGA,120229,2611.8566,N,08002.3136,W,1,8,1.9,15,M,,M,,*5A
06/10/2014	12:02:30.083	$GPGGA,120230,2611.8563,N,08002.3147,W,1,8,1.9,15,M,,M,,*51
06/10/2014	12:02:31.103	$GPGGA,120231,2611.8560,N,08002.3157,W,1,8,1.9,15,M,,M,,*52
06/10/2014	12:02:32.114	$GPGGA,120232,2611.8556,N,08002.3168,W,1,8,1.9,15,M,,M,,*58
06/10/2014	12:02:33.124	$GPGGA,120233,2611.8552,N,08002.3179,W,1,8,1.9,15,M,,M,,*5D
06/10/2014	12:02:34.125	$GPGGA,120234,2611.8549,N,08002.3190,W,1,8,1.9,16,M,,M,,*54
06/10/2014	12:02:35.146	$GPGGA,120235,2611.8545,N,08002.3201,W,1,8,1.9,16,M,,M,,*52
06/10/2014	12:02:36.177	$GPGGA,120236,2611.8541,N,08002.3212,W,1,8,1.9,16,M,,M,,*57
06/10/2014	12:02:37.167	$GPGGA,120237,2611.8537,N,08002.3223,W,1,8,1.9,16,M,,M,,*55
06/10/2014	12:02:38.167	$GPGGA,120238,2611.8534,N,08002.3234,W,1,8,1.9,16,M,,M,,*5F
06/10/2014	12:02:39.178	$GPGGA,120239,2611.8530,N,08002.3245,W,1,8,1.9,16,M,,M,,*5C
06/10/2014	12:02:40.188	$GPGGA,120240,2611.8527,N,08002.3256,W,1,8,1.9,16,M,,M,,*56
06/10/2014	12:02:41.239	$GPGGA,120241,2611.8523,N,08002.3267,W,1,8,1.9,16,M,,M,,*51
06/10/2014	12:02:41.565	$GPGGA,120242,2611.8520,N,08002.3280,W,1,8,1.9,16,M,,M,,*58
06/10/2014	12:02:42.555	$GPGGA,120243,2611.8517,N,08002.3291,W,1,8,1.9,16,M,,M,,*5D
06/10/2014	12:02:43.596	$GPGGA,120244,2611.8513,N,08002.3302,W,1,8,1.9,16,M,,M,,*55
06/10/2014	12:02:44.576	$GPGGA,120245,2611.8509,N,08002.3313,W,1,8,1.9,16,M,,M,,*5F
06/10/2014	12:02:45.598	$GPGGA,120246,2611.8506,N,08002.3324,W,1,8,1.9,16,M,,M,,*57
06/10/2014	12:02:46.638	$GPGGA,120247,2611.8502,N,08002.3335,W,1,9,1.9,16,M,,M,,*53
06/10/2014	12:02:47.628	$GPGGA,120248,2611.8499,N,08002.3347,W,1,9,1.9,16,M,,M,,*5A
06/10/2014	12:02:48.608	$GPGGA,120249,2611.8497,N,08002.3360,W,1,9,1.9,16,M,,M,,*50
06/10/2014	12:02:49.609	$GPGGA,120250,2611.8493,N,08002.3371,W,1,9,1.9,16,M,,M,,*5C
06/10/2014	12:02:50.640	$GPGGA,120251,2611.8490,N,08002.3382,W,1,9,1.9,16,M,,M,,*52
06/10/2014	12:02:51.640	$GPGGA,120252,2611.8486,N,08002.3393,W,1,9,1.9,16,M,,M,,*56
06/10/2014	12:02:52.681	$GPGGA,120253,2611.8483,N,08002.3404,W,1,9,1.9,16,M,,M,,*5B
06/10/2014	12:02:53.661	$GPGGA,120254,2611.8479,N,08002.3415,W,1,9,1.9,16,M,,M,,*59
06/10/2014	12:02:54.672	$GPGGA,120255,2611.8476,N,08002.3428,W,1,9,1.9,16,M,,M,,*59
06/10/2014	12:02:55.673	$GPGGA,120256,2611.8473,N,08002.3439,W,1,9,1.9,16,M,,M,,*5F
06/10/2014	12:02:56.693	$GPGGA,120257,2611.8469,N,08002.3450,W,1,9,1.9,16,M,,M,,*5A
06/10/2014	12:02:57.693	$GPGGA,120258,2611.8466,N,08002.3462,W,1,9,1.9,16,M,,M,,*5B
06/10/2014	12:02:58.693	$GPGGA,120259,2611.8462,N,08002.3473,W,1,9,1.9,16,M,,M,,*5E
06/10/2014	12:02:59.734	$GPGGA,120300,2611.8459,N,08002.3486,W,1,9,1.9,16,M,,M,,*51
06/10/2014	12:03:00.735	$GPGGA,120301,2611.8455,N,08002.3497,W,1,9,1.9,16,M,,M,,*5C
06/10/2014	12:03:01.816	$GPGGA,120302,2611.8452,N,08002.3508,W,1,9,1.9,16,M,,M,,*5F
06/10/2014	12:03:02.746	$GPGGA,120303,2611.8449,N,08002.3519,W,1,9,1.9,16,M,,M,,*54
06/10/2014	12:03:03.853	$GPGGA,120304,2611.8447,N,08002.3531,W,1,9,1.9,16,M,,M,,*57
06/10/2014	12:03:04.888	$GPGGA,120305,2611.8443,N,08002.3542,W,1,9,1.9,15,M,,M,,*55
06/10/2014	12:03:05.747	$GPGGA,120306,2611.8439,N,08002.3553,W,1,9,1.9,15,M,,M,,*5B
06/10/2014	12:03:06.884	$GPGGA,120307,2611.8436,N,08002.3566,W,1,9,1.9,15,M,,M,,*53
06/10/2014	12:03:07.779	$GPGGA,120308,2611.8433,N,08002.3577,W,1,9,1.9,15,M,,M,,*59
06/10/2014	12:03:08.870	$GPGGA,120309,2611.8429,N,08002.3588,W,1,9,1.9,15,M,,M,,*53
06/10/2014	12:03:09.800	$GPGGA,120310,2611.8426,N,08002.3600,W,1,9,1.9,15,M,,M,,*57
06/10/2014	12:03:10.901	$GPGGA,120311,2611.8423,N,08002.3611,W,1,9,1.9,15,M,,M,,*53
06/10/2014	12:03:11.822	$GPGGA,120312,2611.8419,N,08002.3623,W,1,9,1.9,15,M,,M,,*58
06/10/2014	12:03:12.944	$GPGGA,120313,2611.8416,N,08002.3634,W,1,9,1.9,15,M,,M,,*50
06/10/2014	12:03:13.923	$GPGGA,120314,2611.8414,N,08002.3645,W,1,9,1.9,15,M,,M,,*53
06/10/2014	12:03:14.983	$GPGGA,120315,2611.8409,N,08002.3656,W,1,9,1.9,15,M,,M,,*5C
06/10/2014	12:03:15.964	$GPGGA,120316,2611.8407,N,08002.3667,W,1,9,1.9,15,M,,M,,*53
06/10/2014	12:03:16.974	$GPGGA,120317,2611.8403,N,08002.3679,W,1,9,1.9,15,M,,M,,*59
06/10/2014	12:03:17.964	$GPGGA,120318,2611.8400,N,08002.3690,W,1,9,1.9,15,M,,M,,*52
06/10/2014	12:03:18.965	$GPGGA,120319,2611.8396,N,08002.3701,W,1,9,1.9,15,M,,M,,*52
06/10/2014	12:03:19.996	$GPGGA,120320,2611.8393,N,08002.3712,W,1,9,1.9,14,M,,M,,*5E
06/10/2014	12:03:21.006	$GPGGA,120321,2611.8389,N,08002.3723,W,1,9,1.9,14,M,,M,,*56
06/10/2014	12:03:21.997	$GPGGA,120322,2611.8386,N,08002.3735,W,1,9,1.9,14,M,,M,,*5D
06/10/2014	12:03:22.997	$GPGGA,120323,2611.8382,N,08002.3746,W,1,9,1.9,14,M,,M,,*5C
06/10/2014	12:03:24.028	$GPGGA,120324,2611.8379,N,08002.3757,W,1,9,1.9,14,M,,M,,*5F
06/10/2014	12:03:25.018	$GPGGA,120325,2611.8375,N,08002.3768,W,1,9,1.9,14,M,,M,,*5E
06/10/2014	12:03:26.019	$GPGGA,120326,2611.8373,N,08002.3779,W,1,9,1.9,14,M,,M,,*5B
06/10/2014	12:03:27.050	$GPGGA,120327,2611.8371,N,08002.3790,W,1,9,1.9,14,M,,M,,*5F
06/10/2014	12:03:28.060	$GPGGA,120328,2611.8367,N,08002.3801,W,1,9,1.9,14,M,,M,,*50
06/10/2014	12:03:29.071	$GPGGA,120329,2611.8363,N,08002.3811,W,1,9,1.9,14,M,,M,,*54
06/10/2014	12:03:30.071	$GPGGA,120330,2611.8360,N,08002.3822,W,1,9,1.9,14,M,,M,,*5F
06/10/2014	12:03:31.092	$GPGGA,120331,2611.8358,N,08002.3829,W,1,8,2.0,14,M,,M,,*55
06/10/2014	12:03:32.093	$GPGGA,120332,2611.8355,N,08002.3840,W,1,8,1.9,14,M,,M,,*5E
06/10/2014	12:03:33.082	$GPGGA,120333,2611.8353,N,08002.3851,W,1,8,2.0,14,M,,M,,*53
06/10/2014	12:03:34.093	$GPGGA,120334,2611.8349,N,08002.3862,W,1,8,2.0,13,M,,M,,*58
06/10/2014	12:03:35.144	$GPGGA,120335,2611.8346,N,08002.3873,W,1,8,2.0,13,M,,M,,*56
06/10/2014	12:03:36.124	$GPGGA,120336,2611.8342,N,08002.3884,W,1,8,2.0,13,M,,M,,*59
06/10/2014	12:03:37.122	$GPGGA,120337,2611.8339,N,08002.3894,W,1,9,1.9,13,M,,M,,*5E
06/10/2014	12:03:38.135	$GPGGA,120338,2611.8335,N,08002.3905,W,1,9,1.9,13,M,,M,,*54
06/10/2014	12:03:39.166	$GPGGA,120339,2611.8332,N,08002.3917,W,1,9,1.9,13,M,,M,,*51
06/10/2014	12:03:40.166	$GPGGA,120340,2611.8328,N,08002.3928,W,1,9,1.9,13,M,,M,,*58
06/10/2014	12:03:41.157	$GPGGA,120341,2611.8324,N,08002.3941,W,1,9,1.9,13,M,,M,,*5A
06/10/2014	12:03:41.644	$GPGGA,120342,2611.8321,N,08002.3952,W,1,9,1.9,13,M,,M,,*5E
06/10/2014	12:03:42.544	$GPGGA,120343,2611.8318,N,08002.3963,W,1,9,1.9,13,M,,M,,*57
06/10/2014	12:03:43.676	$GPGGA,120344,2611.8314,N,08002.3975,W,1,9,1.9,13,M,,M,,*5B
06/10/2014	12:03:44.575	$GPGGA,120345,2611.8310,N,08002.3988,W,1,9,1.9,13,M,,M,,*5C
06/10/2014	12:03:45.555	$GPGGA,120346,2611.8306,N,08002.3999,W,1,9,1.9,13,M,,M,,*58
06/10/2014	12:03:46.687	$GPGGA,120347,2611.8302,N,08002.4010,W,1,9,1.9,13,M,,M,,*52
06/10/2014	12:03:47.587	$GPGGA,120348,2611.8298,N,08002.4022,W,1,9,1.9,13,M,,M,,*5E
06/10/2014	12:03:48.729	$GPGGA,120349,2611.8295,N,08002.4033,W,1,9,1.9,13,M,,M,,*52
06/10/2014	12:03:49.607	$GPGGA,120350,2611.8291,N,08002.4044,W,1,9,1.9,13,M,,M,,*5E
06/10/2014	12:03:50.719	$GPGGA,120351,2611.8288,N,08002.4055,W,1,9,1.9,13,M,,M,,*57
06/10/2014	12:03:51.618	$GPGGA,120352,2611.8285,N,08002.4066,W,1,9,1.9,13,M,,M,,*59
06/10/2014	12:03:52.608	$GPGGA,120353,2611.8282,N,08002.4077,W,1,9,1.9,13,M,,M,,*5F
06/10/2014	12:03:53.639	$GPGGA,120354,2611.8278,N,08002.4090,W,1,9,1.9,13,M,,M,,*54
06/10/2014	12:03:54.653	$GPGGA,120355,2611.8275,N,08002.4100,W,1,9,1.9,13,M,,M,,*50
06/10/2014	12:03:55.650	$GPGGA,120356,2611.8273,N,08002.4111,W,1,9,1.9,13,M,,M,,*55
06/10/2014	12:03:56.787	$GPGGA,120357,2611.8268,N,08002.4122,W,1,9,1.9,13,M,,M,,*5E
06/10/2014	12:03:57.661	$GPGGA,120358,2611.8266,N,08002.4133,W,1,9,1.9,13,M,,M,,*5F
06/10/2014	12:03:58.763	$GPGGA,120359,2611.8261,N,08002.4144,W,1,9,1.9,13,M,,M,,*59
06/10/2014	12:03:59.834	$GPGGA,120400,2611.8259,N,08002.4156,W,1,9,1.9,13,M,,M,,*5A
06/10/2014	12:04:00.823	$GPGGA,120401,2611.8255,N,08002.4167,W,1,9,1.9,13,M,,M,,*55
06/10/2014	12:04:01.805	$GPGGA,120402,2611.8251,N,08002.4180,W,1,9,1.9,13,M,,M,,*5B
06/10/2014	12:04:02.836	$GPGGA,120403,2611.8248,N,08002.4191,W,1,9,1.9,13,M,,M,,*52
06/10/2014	12:04:03.826	$GPGGA,120404,2611.8244,N,08002.4202,W,1,9,1.9,13,M,,M,,*50
06/10/2014	12:04:04.847	$GPGGA,120405,2611.8242,N,08002.4213,W,1,9,1.9,14,M,,M,,*50
06/10/2014	12:04:05.837	$GPGGA,120406,2611.8239,N,08002.4224,W,1,9,1.9,14,M,,M,,*5B
06/10/2014	12:04:06.848	$GPGGA,120407,2611.8235,N,08002.4235,W,1,9,1.9,14,M,,M,,*56
06/10/2014	12:04:07.867	$GPGGA,120408,2611.8233,N,08002.4248,W,1,9,1.9,14,M,,M,,*55
06/10/2014	12:04:08.878	$GPGGA,120409,2611.8230,N,08002.4259,W,1,9,1.9,14,M,,M,,*57
06/10/2014	12:04:09.868	$GPGGA,120410,2611.8226,N,08002.4270,W,1,9,1.9,14,M,,M,,*53
06/10/2014	12:04:10.899	$GPGGA,120411,2611.8223,N,08002.4281,W,1,9,1.9,14,M,,M,,*59
06/10/2014	12:04:11.900	$GPGGA,120412,2611.8220,N,08002.4292,W,1,9,1.9,14,M,,M,,*5B
06/10/2014	12:04:12.910	$GPGGA,120413,2611.8217,N,08002.4303,W,1,9,1.9,14,M,,M,,*57
06/10/2014	12:04:13.911	$GPGGA,120414,2611.8214,N,08002.4314,W,1,9,1.9,14,M,,M,,*55
06/10/2014	12:04:14.982	$GPGGA,120415,2611.8212,N,08002.4325,W,1,9,1.9,14,M,,M,,*50
06/10/2014	12:04:15.952	$GPGGA,120416,2611.8208,N,08002.4336,W,1,9,1.9,14,M,,M,,*5A
06/10/2014	12:04:16.943	$GPGGA,120417,2611.8203,N,08002.4347,W,1,9,1.9,14,M,,M,,*56
06/10/2014	12:04:17.943	$GPGGA,120418,2611.8201,N,08002.4360,W,1,9,1.9,14,M,,M,,*5E
06/10/2014	12:04:18.974	$GPGGA,120419,2611.8198,N,08002.4371,W,1,9,1.9,14,M,,M,,*5C
06/10/2014	12:04:20.027	$GPGGA,120420,2611.8195,N,08002.4382,W,1,9,2.4,14,M,,M,,*59
06/10/2014	12:04:20.985	$GPGGA,120421,2611.8196,N,08002.4394,W,1,8,1.9,15,M,,M,,*52
06/10/2014	12:04:21.975	$GPGGA,120422,2611.8194,N,08002.4405,W,1,8,1.9,15,M,,M,,*5C
06/10/2014	12:04:23.006	$GPGGA,120423,2611.8194,N,08002.4418,W,1,9,1.9,15,M,,M,,*50
06/10/2014	12:04:23.997	$GPGGA,120424,2611.8190,N,08002.4429,W,1,9,2.4,15,M,,M,,*5F
06/10/2014	12:04:24.986	$GPGGA,120425,2611.8190,N,08002.4441,W,1,8,1.9,15,M,,M,,*5F
06/10/2014	12:04:26.007	$GPGGA,120426,2611.8190,N,08002.4454,W,1,8,1.9,15,M,,M,,*58
06/10/2014	12:04:27.038	$GPGGA,120427,2611.8190,N,08002.4465,W,1,9,1.9,15,M,,M,,*5A
06/10/2014	12:04:28.038	$GPGGA,120428,2611.8188,N,08002.4477,W,1,9,1.9,16,M,,M,,*5C
06/10/2014	12:04:29.059	$GPGGA,120429,2611.8187,N,08002.4490,W,1,9,1.9,16,M,,M,,*5B
06/10/2014	12:04:30.130	$GPGGA,120430,2611.8185,N,08002.4501,W,1,9,1.9,16,M,,M,,*58
06/10/2014	12:04:31.060	$GPGGA,120431,2611.8180,N,08002.4512,W,1,9,2.4,16,M,,M,,*50
06/10/2014	12:04:32.070	$GPGGA,120432,2611.8173,N,08002.4521,W,1,9,1.9,16,M,,M,,*51
06/10/2014	12:04:33.056	$GPGGA,120433,2611.8168,N,08002.4532,W,1,9,1.9,17,M,,M,,*59
06/10/2014	12:04:34.093	$GPGGA,120434,2611.8163,N,08002.4542,W,1,9,1.9,17,M,,M,,*52
06/10/2014	12:04:35.223	$GPGGA,120435,2611.8159,N,08002.4553,W,1,9,1.9,17,M,,M,,*5A
06/10/2014	12:04:36.114	$GPGGA,120436,2611.8156,N,08002.4564,W,1,9,1.9,17,M,,M,,*52
06/10/2014	12:04:37.123	$GPGGA,120437,2611.8154,N,08002.4575,W,1,9,1.9,17,M,,M,,*51
06/10/2014	12:04:38.121	$GPGGA,120438,2611.8150,N,08002.4586,W,1,9,1.9,17,M,,M,,*56
06/10/2014	12:04:39.205	$GPGGA,120439,2611.8147,N,08002.4597,W,1,9,1.9,17,M,,M,,*51
06/10/2014	12:04:40.145	$GPGGA,120440,2611.8143,N,08002.4608,W,1,9,1.8,17,M,,M,,*5F
06/10/2014	12:04:41.156	$GPGGA,120441,2611.8138,N,08002.4620,W,1,9,1.8,17,M,,M,,*58
06/10/2014	12:04:41.593	$GPGGA,120442,2611.8134,N,08002.4631,W,1,9,1.8,17,M,,M,,*57
06/10/2014	12:04:42.613	$GPGGA,120443,2611.8130,N,08002.4640,W,1,9,1.8,17,M,,M,,*54
06/10/2014	12:04:43.563	$GPGGA,120444,2611.8126,N,08002.4651,W,1,9,1.8,17,M,,M,,*54
06/10/2014	12:04:44.647	$GPGGA,120445,2611.8123,N,08002.4662,W,1,9,1.8,18,M,,M,,*5F
06/10/2014	12:04:45.634	$GPGGA,120446,2611.8119,N,08002.4672,W,1,9,1.8,18,M,,M,,*54
06/10/2014	12:04:46.655	$GPGGA,120447,2611.8116,N,08002.4683,W,1,9,1.8,18,M,,M,,*54
06/10/2014	12:04:47.666	$GPGGA,120448,2611.8112,N,08002.4696,W,1,9,1.8,18,M,,M,,*5B
06/10/2014	12:04:48.686	$GPGGA,120449,2611.8108,N,08002.4705,W,1,9,1.8,18,M,,M,,*5A
06/10/2014	12:04:49.687	$GPGGA,120450,2611.8105,N,08002.4716,W,1,9,1.8,18,M,,M,,*5D
06/10/2014	12:04:50.677	$GPGGA,120451,2611.8101,N,08002.4727,W,1,9,1.8,18,M,,M,,*5A
06/10/2014	12:04:51.698	$GPGGA,120452,2611.8098,N,08002.4738,W,1,9,1.8,18,M,,M,,*56
06/10/2014	12:04:52.708	$GPGGA,120453,2611.8094,N,08002.4749,W,1,9,1.8,18,M,,M,,*5D
06/10/2014	12:04:53.709	$GPGGA,120454,2611.8091,N,08002.4759,W,1,9,1.8,18,M,,M,,*5E
06/10/2014	12:04:54.720	$GPGGA,120455,2611.8087,N,08002.4770,W,1,9,1.8,18,M,,M,,*53
06/10/2014	12:04:55.730	$GPGGA,120456,2611.8083,N,08002.4781,W,1,9,1.8,18,M,,M,,*5A
06/10/2014	12:04:56.741	$GPGGA,120457,2611.8079,N,08002.4792,W,1,9,1.8,18,M,,M,,*5C
06/10/2014	12:04:57.741	$GPGGA,120458,2611.8074,N,08002.4802,W,1,9,1.8,18,M,,M,,*58
06/10/2014	12:04:58.742	$GPGGA,120459,2611.8071,N,08002.4813,W,1,9,1.8,18,M,,M,,*5C
06/10/2014	12:04:59.814	$GPGGA,120500,2611.8066,N,08002.4823,W,1,9,1.8,18,M,,M,,*54
06/10/2014	12:05:00.782	$GPGGA,120501,2611.8062,N,08002.4834,W,1,9,1.8,18,M,,M,,*57
06/10/2014	12:05:01.773	$GPGGA,120502,2611.8058,N,08002.4845,W,1,9,1.8,18,M,,M,,*5B
06/10/2014	12:05:02.803	$GPGGA,120503,2611.8054,N,08002.4855,W,1,9,1.8,18,M,,M,,*57
06/10/2014	12:05:03.804	$GPGGA,120504,2611.8049,N,08002.4866,W,1,9,1.8,18,M,,M,,*5C
06/10/2014	12:05:04.845	$GPGGA,120505,2611.8046,N,08002.4875,W,1,9,1.8,18,M,,M,,*50
06/10/2014	12:05:05.805	$GPGGA,120506,2611.8040,N,08002.4885,W,1,9,1.8,18,M,,M,,*5A
06/10/2014	12:05:06.836	$GPGGA,120507,2611.8036,N,08002.4895,W,1,9,1.8,18,M,,M,,*5B
06/10/2014	12:05:07.846	$GPGGA,120508,2611.8032,N,08002.4906,W,1,9,1.8,18,M,,M,,*5B
06/10/2014	12:05:08.827	$GPGGA,120509,2611.8027,N,08002.4917,W,1,9,1.8,18,M,,M,,*5E
06/10/2014	12:05:09.837	$GPGGA,120510,2611.8024,N,08002.4926,W,1,9,1.8,18,M,,M,,*57
06/10/2014	12:05:10.838	$GPGGA,120511,2611.8019,N,08002.4936,W,1,9,1.8,18,M,,M,,*59
06/10/2014	12:05:11.879	$GPGGA,120512,2611.8014,N,08002.4947,W,1,9,1.8,18,M,,M,,*51
06/10/2014	12:05:12.899	$GPGGA,120513,2611.8010,N,08002.4957,W,1,9,1.8,18,M,,M,,*55
06/10/2014	12:05:13.869	$GPGGA,120514,2611.8006,N,08002.4968,W,1,9,1.8,18,M,,M,,*59
06/10/2014	12:05:14.900	$GPGGA,120515,2611.8002,N,08002.4978,W,1,9,1.8,18,M,,M,,*5D
06/10/2014	12:05:15.921	$GPGGA,120516,2611.7997,N,08002.4989,W,1,9,1.8,18,M,,M,,*5A
06/10/2014	12:05:16.891	$GPGGA,120517,2611.7993,N,08002.5000,W,1,9,1.8,18,M,,M,,*56
06/10/2014	12:05:17.901	$GPGGA,120518,2611.7989,N,08002.5011,W,1,9,1.8,18,M,,M,,*52
06/10/2014	12:05:18.922	$GPGGA,120519,2611.7985,N,08002.5020,W,1,9,1.8,18,M,,M,,*5D
06/10/2014	12:05:20.053	$GPGGA,120520,2611.7981,N,08002.5030,W,1,9,1.8,18,M,,M,,*52
06/10/2014	12:05:21.062	$GPGGA,120521,2611.7977,N,08002.5041,W,1,9,1.8,18,M,,M,,*5C
06/10/2014	12:05:22.051	$GPGGA,120522,2611.7973,N,08002.5052,W,1,9,1.8,18,M,,M,,*59
06/10/2014	12:05:22.964	$GPGGA,120523,2611.7968,N,08002.5062,W,1,9,1.8,18,M,,M,,*51
06/10/2014	12:05:23.964	$GPGGA,120524,2611.7964,N,08002.5073,W,1,9,1.8,18,M,,M,,*5A
06/10/2014	12:05:24.975	$GPGGA,120525,2611.7961,N,08002.5084,W,1,9,1.8,18,M,,M,,*56
06/10/2014	12:05:25.965	$GPGGA,120526,2611.7960,N,08002.5095,W,1,9,2.5,18,M,,M,,*5A
06/10/2014	12:05:26.976	$GPGGA,120527,2611.7956,N,08002.5106,W,1,9,1.8,18,M,,M,,*5B
06/10/2014	12:05:28.125	$GPGGA,120528,2611.7952,N,08002.5116,W,1,9,2.5,18,M,,M,,*5F
06/10/2014	12:05:29.019	$GPGGA,120529,2611.7948,N,08002.5127,W,1,8,2.5,18,M,,M,,*56
06/10/2014	12:05:30.021	$GPGGA,120530,2611.7943,N,08002.5137,W,1,8,2.5,18,M,,M,,*54
06/10/2014	12:05:31.045	$GPGGA,120531,2611.7939,N,08002.5148,W,1,8,2.5,18,M,,M,,*50
06/10/2014	12:05:32.040	$GPGGA,120532,2611.7935,N,08002.5159,W,1,8,2.5,18,M,,M,,*5F
06/10/2014	12:05:33.164	$GPGGA,120533,2611.7931,N,08002.5170,W,1,8,2.5,17,M,,M,,*5E
06/10/2014	12:05:34.051	$GPGGA,120534,2611.7927,N,08002.5181,W,1,8,2.5,17,M,,M,,*50
06/10/2014	12:05:35.061	$GPGGA,120535,2611.7923,N,08002.5191,W,1,8,2.5,17,M,,M,,*54
06/10/2014	12:05:36.161	$GPGGA,120536,2611.7925,N,08002.5203,W,1,8,2.5,17,M,,M,,*59
06/10/2014	12:05:37.071	$GPGGA,120537,2611.7920,N,08002.5214,W,1,9,1.8,17,M,,M,,*54
06/10/2014	12:05:38.182	$GPGGA,120538,2611.7915,N,08002.5224,W,1,9,2.5,17,M,,M,,*50
06/10/2014	12:05:39.193	$GPGGA,120539,2611.7910,N,08002.5235,W,1,8,2.5,17,M,,M,,*55
06/10/2014	12:05:40.204	$GPGGA,120540,2611.7906,N,08002.5246,W,1,8,2.5,17,M,,M,,*58
06/10/2014	12:05:41.214	$GPGGA,120541,2611.7908,N,08002.5258,W,1,9,1.8,17,M,,M,,*57
06/10/2014	12:05:41.581	$GPGGA,120542,2611.7903,N,08002.5268,W,1,9,1.8,17,M,,M,,*5C
06/10/2014	12:05:42.613	$GPGGA,120543,2611.7905,N,08002.5280,W,1,8,2.5,18,M,,M,,*5D
06/10/2014	12:05:43.602	$GPGGA,120544,2611.7902,N,08002.5292,W,1,8,1.8,18,M,,M,,*50
06/10/2014	12:05:44.623	$GPGGA,120545,2611.7901,N,08002.5303,W,1,9,1.8,18,M,,M,,*5A
06/10/2014	12:05:45.603	$GPGGA,120546,2611.7899,N,08002.5314,W,1,9,1.8,18,M,,M,,*5F
06/10/2014	12:05:46.614	$GPGGA,120547,2611.7896,N,08002.5325,W,1,9,1.8,18,M,,M,,*53
06/10/2014	12:05:47.644	$GPGGA,120548,2611.7892,N,08002.5336,W,1,9,1.8,18,M,,M,,*5A
06/10/2014	12:05:48.656	$GPGGA,120549,2611.7889,N,08002.5347,W,1,9,1.8,18,M,,M,,*57
06/10/2014	12:05:49.645	$GPGGA,120550,2611.7885,N,08002.5358,W,1,9,1.8,18,M,,M,,*5D
06/10/2014	12:05:50.646	$GPGGA,120551,2611.7883,N,08002.5368,W,1,9,1.8,18,M,,M,,*59
06/10/2014	12:05:51.677	$GPGGA,120552,2611.7878,N,08002.5379,W,1,9,1.8,18,M,,M,,*5E
06/10/2014	12:05:52.707	$GPGGA,120553,2611.7876,N,08002.5390,W,1,9,1.8,19,M,,M,,*57
06/10/2014	12:05:53.687	$GPGGA,120554,2611.7872,N,08002.5401,W,1,9,1.8,19,M,,M,,*5B
06/10/2014	12:05:54.719	$GPGGA,120555,2611.7866,N,08002.5410,W,1,9,1.8,19,M,,M,,*5F
06/10/2014	12:05:55.698	$GPGGA,120556,2611.7862,N,08002.5421,W,1,9,1.8,19,M,,M,,*5A
06/10/2014	12:05:56.698	$GPGGA,120557,2611.7858,N,08002.5431,W,1,9,1.8,19,M,,M,,*53
06/10/2014	12:05:57.729	$GPGGA,120558,2611.7854,N,08002.5441,W,1,9,1.8,19,M,,M,,*57
06/10/2014	12:05:58.709	$GPGGA,120559,2611.7849,N,08002.5452,W,1,9,1.8,19,M,,M,,*58
06/10/2014	12:05:59.760	$GPGGA,120600,2611.7844,N,08002.5462,W,1,9,1.8,19,M,,M,,*59
06/10/2014	12:06:00.751	$GPGGA,120601,2611.7840,N,08002.5473,W,1,9,1.8,19,M,,M,,*5C
06/10/2014	12:06:01.751	$GPGGA,120602,2611.7836,N,08002.5482,W,1,9,1.8,19,M,,M,,*50
06/10/2014	12:06:02.746	$GPGGA,120603,2611.7832,N,08002.5492,W,1,9,1.8,19,M,,M,,*54
06/10/2014	12:06:03.783	$GPGGA,120604,2611.7827,N,08002.5502,W,1,9,1.8,19,M,,M,,*5F
06/10/2014	12:06:04.773	$GPGGA,120605,2611.7822,N,08002.5513,W,1,9,1.8,19,M,,M,,*5B
06/10/2014	12:06:05.781	$GPGGA,120606,2611.7818,N,08002.5524,W,1,9,1.8,19,M,,M,,*55
06/10/2014	12:06:06.905	$GPGGA,120607,2611.7813,N,08002.5533,W,1,9,1.8,19,M,,M,,*59
06/10/2014	12:06:07.802	$GPGGA,120608,2611.7808,N,08002.5545,W,1,9,1.8,19,M,,M,,*5D
06/10/2014	12:06:08.810	$GPGGA,120609,2611.7804,N,08002.5556,W,1,9,1.8,19,M,,M,,*52
06/10/2014	12:06:09.819	$GPGGA,120610,2611.7800,N,08002.5565,W,1,9,1.8,19,M,,M,,*5E
06/10/2014	12:06:10.836	$GPGGA,120610,2611.7800,N,08002.5565,W,1,9,1.8,19,M,,M,,*5E
06/10/2014	12:06:11.846	$GPGGA,120612,2611.7791,N,08002.5585,W,1,9,1.8,19,M,,M,,*55
06/10/2014	12:06:12.855	$GPGGA,120613,2611.7787,N,08002.5596,W,1,9,1.8,19,M,,M,,*51
06/10/2014	12:06:13.831	$GPGGA,120614,2611.7782,N,08002.5607,W,1,9,1.8,19,M,,M,,*58
06/10/2014	12:06:14.866	$GPGGA,120615,2611.7778,N,08002.5616,W,1,9,1.8,19,M,,M,,*5C
06/10/2014	12:06:15.865	$GPGGA,120616,2611.7773,N,08002.5626,W,1,9,1.8,19,M,,M,,*57
06/10/2014	12:06:16.868	$GPGGA,120617,2611.7769,N,08002.5637,W,1,9,1.8,19,M,,M,,*5D
06/10/2014	12:06:17.872	$GPGGA,120618,2611.7765,N,08002.5648,W,1,9,1.8,19,M,,M,,*56
06/10/2014	12:06:18.968	$GPGGA,120619,2611.7760,N,08002.5658,W,1,9,1.8,19,M,,M,,*53
06/10/2014	12:06:19.964	$GPGGA,120620,2611.7757,N,08002.5669,W,1,9,1.8,19,M,,M,,*5F
06/10/2014	12:06:20.959	$GPGGA,120621,2611.7751,N,08002.5679,W,1,9,1.8,19,M,,M,,*59
06/10/2014	12:06:21.974	$GPGGA,120622,2611.7747,N,08002.5690,W,1,9,1.8,19,M,,M,,*5A
06/10/2014	12:06:22.869	$GPGGA,120623,2611.7742,N,08002.5701,W,1,9,1.8,19,M,,M,,*57
06/10/2014	12:06:23.975	$GPGGA,120624,2611.7738,N,08002.5710,W,1,9,1.8,19,M,,M,,*5D
06/10/2014	12:06:24.992	$GPGGA,120625,2611.7733,N,08002.5722,W,1,9,1.8,19,M,,M,,*56
06/10/2014	12:06:25.987	$GPGGA,120626,2611.7728,N,08002.5731,W,1,9,1.8,19,M,,M,,*5D
06/10/2014	12:06:27.011	$GPGGA,120627,2611.7724,N,08002.5741,W,1,9,1.8,19,M,,M,,*57
06/10/2014	12:06:27.996	$GPGGA,120628,2611.7719,N,08002.5751,W,1,9,1.8,19,M,,M,,*57
06/10/2014	12:06:28.991	$GPGGA,120629,2611.7715,N,08002.5762,W,1,9,1.8,19,M,,M,,*5A
06/10/2014	12:06:29.996	$GPGGA,120630,2611.7710,N,08002.5773,W,1,9,1.8,19,M,,M,,*57
06/10/2014	12:06:30.992	$GPGGA,120631,2611.7706,N,08002.5784,W,1,9,1.8,19,M,,M,,*59
06/10/2014	12:06:32.007	$GPGGA,120632,2611.7702,N,08002.5793,W,1,9,1.8,19,M,,M,,*58
06/10/2014	12:06:33.023	$GPGGA,120633,2611.7699,N,08002.5803,W,1,9,1.8,19,M,,M,,*5C
06/10/2014	12:06:33.998	$GPGGA,120634,2611.7693,N,08002.5813,W,1,9,1.8,19,M,,M,,*50
06/10/2014	12:06:35.035	$GPGGA,120635,2611.7689,N,08002.5824,W,1,9,1.8,19,M,,M,,*5E
06/10/2014	12:06:36.029	$GPGGA,120636,2611.7684,N,08002.5835,W,1,9,1.8,19,M,,M,,*50
06/10/2014	12:06:37.044	$GPGGA,120637,2611.7679,N,08002.5845,W,1,9,1.8,19,M,,M,,*54
06/10/2014	12:06:38.020	$GPGGA,120638,2611.7675,N,08002.5856,W,1,9,1.8,19,M,,M,,*55
06/10/2014	12:06:39.065	$GPGGA,120639,2611.7670,N,08002.5865,W,1,9,1.8,19,M,,M,,*51
06/10/2014	12:06:40.030	$GPGGA,120640,2611.7666,N,08002.5876,W,1,9,1.8,19,M,,M,,*5A
06/10/2014	12:06:41.036	$GPGGA,120641,2611.7661,N,08002.5886,W,1,9,1.8,19,M,,M,,*53
06/10/2014	12:06:41.555	$GPGGA,120642,2611.7657,N,08002.5896,W,1,9,1.8,19,M,,M,,*54
06/10/2014	12:06:42.570	$GPGGA,120643,2611.7653,N,08002.5907,W,1,9,1.8,19,M,,M,,*58
06/10/2014	12:06:43.555	$GPGGA,120644,2611.7648,N,08002.5918,W,1,9,1.8,19,M,,M,,*5B
06/10/2014	12:06:44.580	$GPGGA,120645,2611.7645,N,08002.5928,W,1,9,1.8,19,M,,M,,*54
06/10/2014	12:06:45.555	$GPGGA,120646,2611.7641,N,08002.5937,W,1,9,1.8,19,M,,M,,*5D
06/10/2014	12:06:46.550	$GPGGA,120647,2611.7635,N,08002.5948,W,1,9,1.8,19,M,,M,,*57
06/10/2014	12:06:47.586	$GPGGA,120648,2611.7630,N,08002.5958,W,1,9,1.8,19,M,,M,,*5C
06/10/2014	12:06:48.601	$GPGGA,120649,2611.7626,N,08002.5969,W,1,9,1.8,19,M,,M,,*58
06/10/2014	12:06:49.567	$GPGGA,120650,2611.7621,N,08002.5979,W,1,9,1.8,18,M,,M,,*57
06/10/2014	12:06:50.602	$GPGGA,120651,2611.7617,N,08002.5990,W,1,9,1.8,18,M,,M,,*54
06/10/2014	12:06:51.599	$GPGGA,120652,2611.7613,N,08002.6001,W,1,9,1.8,18,M,,M,,*51
06/10/2014	12:06:52.755	$GPGGA,120653,2611.7609,N,08002.6012,W,1,9,1.8,18,M,,M,,*59
06/10/2014	12:06:53.578	$GPGGA,120654,2611.7605,N,08002.6022,W,1,9,1.8,18,M,,M,,*51
06/10/2014	12:06:54.594	$GPGGA,120655,2611.7601,N,08002.6033,W,1,9,1.8,18,M,,M,,*54
06/10/2014	12:06:55.599	$GPGGA,120656,2611.7596,N,08002.6042,W,1,9,1.8,18,M,,M,,*5C
06/10/2014	12:06:56.635	$GPGGA,120657,2611.7592,N,08002.6053,W,1,9,1.8,18,M,,M,,*59
06/10/2014	12:06:57.610	$GPGGA,120658,2611.7588,N,08002.6063,W,1,9,1.8,18,M,,M,,*5E
06/10/2014	12:06:58.595	$GPGGA,120659,2611.7584,N,08002.6074,W,1,9,1.8,18,M,,M,,*55
06/10/2014	12:06:59.631	$GPGGA,120700,2611.7579,N,08002.6085,W,1,9,1.8,18,M,,M,,*54
06/10/2014	12:07:00.626	$GPGGA,120701,2611.7576,N,08002.6095,W,1,9,1.8,18,M,,M,,*5B
06/10/2014	12:07:01.621	$GPGGA,120702,2611.7571,N,08002.6106,W,1,9,1.8,18,M,,M,,*54
06/10/2014	12:07:02.797	$GPGGA,120703,2611.7567,N,08002.6116,W,1,9,1.8,18,M,,M,,*53
06/10/2014	12:07:03.641	$GPGGA,120704,2611.7563,N,08002.6127,W,1,9,1.8,18,M,,M,,*52
06/10/2014	12:07:04.818	$GPGGA,120705,2611.7559,N,08002.6138,W,1,9,1.8,18,M,,M,,*54
06/10/2014	12:07:05.634	$GPGGA,120706,2611.7554,N,08002.6147,W,1,9,1.8,18,M,,M,,*52
06/10/2014	12:07:06.617	$GPGGA,120707,2611.7551,N,08002.6158,W,1,9,1.8,18,M,,M,,*58
06/10/2014	12:07:07.743	$GPGGA,120708,2611.7547,N,08002.6168,W,1,9,1.8,18,M,,M,,*53
06/10/2014	12:07:08.829	$GPGGA,120709,2611.7542,N,08002.6179,W,1,9,1.8,18,M,,M,,*57
06/10/2014	12:07:09.643	$GPGGA,120710,2611.7537,N,08002.6189,W,1,9,1.8,18,M,,M,,*52
06/10/2014	12:07:10.649	$GPGGA,120711,2611.7533,N,08002.6199,W,1,9,1.8,18,M,,M,,*56
06/10/2014	12:07:11.805	$GPGGA,120712,2611.7529,N,08002.6210,W,1,9,1.8,18,M,,M,,*5C
06/10/2014	12:07:12.841	$GPGGA,120713,2611.7524,N,08002.6221,W,1,9,1.8,18,M,,M,,*52
06/10/2014	12:07:13.782	$GPGGA,120714,2611.7519,N,08002.6230,W,1,9,1.8,18,M,,M,,*5B
06/10/2014	12:07:14.872	$GPGGA,120715,2611.7514,N,08002.6241,W,1,9,1.8,17,M,,M,,*5E
06/10/2014	12:07:15.797	$GPGGA,120716,2611.7511,N,08002.6251,W,1,9,1.8,17,M,,M,,*59
06/10/2014	12:07:16.842	$GPGGA,120717,2611.7505,N,08002.6261,W,1,9,1.8,17,M,,M,,*5E
06/10/2014	12:07:17.787	$GPGGA,120718,2611.7500,N,08002.6272,W,1,9,1.8,17,M,,M,,*56
06/10/2014	12:07:18.873	$GPGGA,120719,2611.7495,N,08002.6283,W,1,9,1.8,17,M,,M,,*54
06/10/2014	12:07:19.787	$GPGGA,120720,2611.7491,N,08002.6293,W,1,9,1.8,17,M,,M,,*5B
06/10/2014	12:07:20.873	$GPGGA,120721,2611.7486,N,08002.6302,W,1,9,1.8,17,M,,M,,*55
06/10/2014	12:07:21.798	$GPGGA,120722,2611.7482,N,08002.6312,W,1,9,1.8,17,M,,M,,*53
06/10/2014	12:07:22.874	$GPGGA,120723,2611.7476,N,08002.6322,W,1,9,1.8,17,M,,M,,*5A
06/10/2014	12:07:23.840	$GPGGA,120724,2611.7471,N,08002.6333,W,1,9,1.8,17,M,,M,,*5A
06/10/2014	12:07:24.915	$GPGGA,120725,2611.7467,N,08002.6342,W,1,9,1.8,17,M,,M,,*5A
06/10/2014	12:07:25.779	$GPGGA,120726,2611.7462,N,08002.6353,W,1,9,1.8,17,M,,M,,*5C
06/10/2014	12:07:26.905	$GPGGA,120727,2611.7457,N,08002.6363,W,1,9,1.8,17,M,,M,,*58
06/10/2014	12:07:27.830	$GPGGA,120728,2611.7451,N,08002.6373,W,1,9,1.8,17,M,,M,,*50
06/10/2014	12:07:28.886	$GPGGA,120729,2611.7446,N,08002.6384,W,1,9,1.8,17,M,,M,,*5F
06/10/2014	12:07:29.801	$GPGGA,120730,2611.7441,N,08002.6394,W,1,9,1.8,17,M,,M,,*51
06/10/2014	12:07:30.907	$GPGGA,120731,2611.7436,N,08002.6403,W,1,9,1.8,17,M,,M,,*59
06/10/2014	12:07:31.862	$GPGGA,120732,2611.7432,N,08002.6413,W,1,9,1.8,17,M,,M,,*5F
06/10/2014	12:07:32.938	$GPGGA,120733,2611.7428,N,08002.6423,W,1,9,1.8,17,M,,M,,*56
06/10/2014	12:07:33.812	$GPGGA,120734,2611.7421,N,08002.6434,W,1,9,1.8,17,M,,M,,*5E
06/10/2014	12:07:34.938	$GPGGA,120735,2611.7417,N,08002.6445,W,1,9,1.8,17,M,,M,,*5C
06/10/2014	12:07:35.823	$GPGGA,120736,2611.7411,N,08002.6454,W,1,9,1.8,17,M,,M,,*59
06/10/2014	12:07:36.929	$GPGGA,120737,2611.7406,N,08002.6464,W,1,9,1.8,17,M,,M,,*5D
06/10/2014	12:07:37.823	$GPGGA,120738,2611.7401,N,08002.6474,W,1,9,1.8,17,M,,M,,*54
06/10/2014	12:07:38.828	$GPGGA,120739,2611.7396,N,08002.6485,W,1,9,1.8,17,M,,M,,*52
06/10/2014	12:07:39.974	$GPGGA,120740,2611.7392,N,08002.6495,W,1,9,1.8,17,M,,M,,*59
06/10/2014	12:07:40.950	$GPGGA,120741,2611.7386,N,08002.6504,W,1,9,1.8,17,M,,M,,*54
06/10/2014	12:07:41.532	$GPGGA,120742,2611.7381,N,08002.6514,W,1,9,1.8,17,M,,M,,*51
06/10/2014	12:07:42.598	$GPGGA,120743,2611.7376,N,08002.6525,W,1,9,1.8,17,M,,M,,*5A
06/10/2014	12:07:43.563	$GPGGA,120744,2611.7371,N,08002.6535,W,1,9,1.8,17,M,,M,,*5B
06/10/2014	12:07:44.609	$GPGGA,120745,2611.7366,N,08002.6544,W,1,9,1.8,16,M,,M,,*5B
06/10/2014	12:07:45.624	$GPGGA,120746,2611.7361,N,08002.6554,W,1,9,1.8,16,M,,M,,*5E
06/10/2014	12:07:46.690	$GPGGA,120747,2611.7357,N,08002.6564,W,1,9,1.8,16,M,,M,,*59
06/10/2014	12:07:47.575	$GPGGA,120748,2611.7352,N,08002.6573,W,1,9,1.8,16,M,,M,,*55
06/10/2014	12:07:48.621	$GPGGA,120749,2611.7347,N,08002.6583,W,1,9,1.8,16,M,,M,,*5F
06/10/2014	12:07:49.535	$GPGGA,120750,2611.7343,N,08002.6594,W,1,9,1.8,16,M,,M,,*55
06/10/2014	12:07:50.541	$GPGGA,120751,2611.7338,N,08002.6604,W,1,9,1.8,16,M,,M,,*52
06/10/2014	12:07:51.557	$GPGGA,120752,2611.7331,N,08002.6613,W,1,9,1.8,16,M,,M,,*5E
06/10/2014	12:07:52.642	$GPGGA,120753,2611.7327,N,08002.6623,W,1,9,1.8,16,M,,M,,*5B
06/10/2014	12:07:53.557	$GPGGA,120754,2611.7321,N,08002.6633,W,1,9,1.8,16,M,,M,,*5B
06/10/2014	12:07:54.561	$GPGGA,120755,2611.7316,N,08002.6644,W,1,9,1.8,16,M,,M,,*5E
06/10/2014	12:07:55.677	$GPGGA,120756,2611.7311,N,08002.6654,W,1,9,1.8,16,M,,M,,*5B
06/10/2014	12:07:56.673	$GPGGA,120757,2611.7307,N,08002.6663,W,1,9,1.8,16,M,,M,,*59
06/10/2014	12:07:57.598	$GPGGA,120758,2611.7302,N,08002.6673,W,1,9,1.8,16,M,,M,,*52
06/10/2014	12:07:58.663	$GPGGA,120759,2611.7298,N,08002.6684,W,1,9,1.8,16,M,,M,,*59
06/10/2014	12:07:59.709	$GPGGA,120800,2611.7292,N,08002.6694,W,1,9,1.8,16,M,,M,,*51
06/10/2014	12:08:00.756	$GPGGA,120801,2611.7288,N,08002.6705,W,1,9,1.8,16,M,,M,,*52
06/10/2014	12:08:01.779	$GPGGA,120802,2611.7283,N,08002.6716,W,1,9,1.9,16,M,,M,,*59
06/10/2014	12:08:02.831	$GPGGA,120803,2611.7280,N,08002.6725,W,1,8,1.9,16,M,,M,,*5A
06/10/2014	12:08:03.906	$GPGGA,120804,2611.7274,N,08002.6736,W,1,8,1.9,16,M,,M,,*54
06/10/2014	12:08:04.981	$GPGGA,120805,2611.7270,N,08002.6748,W,1,8,1.9,16,M,,M,,*58
06/10/2014	12:08:06.013	$GPGGA,120806,2611.7265,N,08002.6757,W,1,8,1.9,16,M,,M,,*51
06/10/2014	12:08:07.098	$GPGGA,120807,2611.7262,N,08002.6768,W,1,8,1.9,16,M,,M,,*5B
06/10/2014	12:08:08.152	$GPGGA,120808,2611.7256,N,08002.6779,W,1,8,1.9,16,M,,M,,*53
06/10/2014	12:08:09.242	$GPGGA,120809,2611.7252,N,08002.6790,W,1,8,1.9,16,M,,M,,*51
06/10/2014	12:08:10.248	$GPGGA,120810,2611.7248,N,08002.6801,W,1,8,1.9,16,M,,M,,*55
06/10/2014	12:08:11.344	$GPGGA,120811,2611.7244,N,08002.6813,W,1,8,1.9,15,M,,M,,*58
06/10/2014	12:08:12.409	$GPGGA,120812,2611.7240,N,08002.6824,W,1,8,1.9,15,M,,M,,*5B
06/10/2014	12:08:13.471	$GPGGA,120813,2611.7236,N,08002.6835,W,1,8,1.9,15,M,,M,,*5B
06/10/2014	12:08:14.525	$GPGGA,120814,2611.7231,N,08002.6846,W,1,8,1.9,15,M,,M,,*5F
06/10/2014	12:08:15.621	$GPGGA,120815,2611.7227,N,08002.6857,W,1,8,1.9,15,M,,M,,*59
06/10/2014	12:08:16.642	$GPGGA,120816,2611.7223,N,08002.6868,W,1,8,1.9,15,M,,M,,*52
06/10/2014	12:08:17.728	$GPGGA,120817,2611.7223,N,08002.6868,W,1,8,1.9,15,M,,M,,*53
06/10/2014	12:08:18.749	$GPGGA,120818,2611.7215,N,08002.6889,W,1,8,1.9,15,M,,M,,*56
06/10/2014	12:08:19.856	$GPGGA,120819,2611.7211,N,08002.6900,W,1,8,1.9,15,M,,M,,*53
06/10/2014	12:08:20.878	$GPGGA,120820,2611.7205,N,08002.6912,W,1,8,1.9,15,M,,M,,*5F
06/10/2014	12:08:21.974	$GPGGA,120821,2611.7205,N,08002.6912,W,1,8,1.9,15,M,,M,,*5E
06/10/2014	12:08:23.006	$GPGGA,120822,2611.7197,N,08002.6934,W,1,8,1.9,15,M,,M,,*51
06/10/2014	12:08:24.112	$GPGGA,120823,2611.7193,N,08002.6944,W,1,8,1.9,15,M,,M,,*53
06/10/2014	12:08:25.145	$GPGGA,120824,2611.7188,N,08002.6955,W,1,8,1.9,15,M,,M,,*5E
06/10/2014	12:08:26.272	$GPGGA,120825,2611.7184,N,08002.6966,W,1,8,1.9,15,M,,M,,*53
06/10/2014	12:08:27.262	$GPGGA,120826,2611.7179,N,08002.6977,W,1,8,1.9,15,M,,M,,*52
06/10/2014	12:08:28.370	$GPGGA,120827,2611.7175,N,08002.6988,W,1,8,1.9,15,M,,M,,*5F
06/10/2014	12:08:29.401	$GPGGA,120828,2611.7171,N,08002.6998,W,1,8,1.9,15,M,,M,,*55
06/10/2014	12:08:30.497	$GPGGA,120829,2611.7171,N,08002.6998,W,1,8,1.9,15,M,,M,,*54
06/10/2014	12:08:31.496	$GPGGA,120830,2611.7162,N,08002.7020,W,1,8,1.9,15,M,,M,,*55
06/10/2014	12:08:32.582	$GPGGA,120831,2611.7162,N,08002.7020,W,1,8,1.9,15,M,,M,,*54
06/10/2014	12:08:33.635	$GPGGA,120832,2611.7153,N,08002.7043,W,1,8,1.9,15,M,,M,,*50
06/10/2014	12:08:34.795	$GPGGA,120833,2611.7150,N,08002.7055,W,1,8,1.9,14,M,,M,,*54
06/10/2014	12:08:35.743	$GPGGA,120834,2611.7146,N,08002.7066,W,1,8,1.9,14,M,,M,,*54
06/10/2014	12:08:36.827	$GPGGA,120835,2611.7146,N,08002.7066,W,1,8,1.9,14,M,,M,,*55
06/10/2014	12:08:37.891	$GPGGA,120836,2611.7137,N,08002.7088,W,1,8,1.9,14,M,,M,,*50
06/10/2014	12:08:38.945	$GPGGA,120837,2611.7137,N,08002.7088,W,1,8,1.9,14,M,,M,,*51
06/10/2014	12:08:40.020	$GPGGA,120838,2611.7128,N,08002.7110,W,1,8,1.8,14,M,,M,,*51
06/10/2014	12:08:41.056	$GPGGA,120839,2611.7128,N,08002.7110,W,1,9,1.8,14,M,,M,,*51
06/10/2014	12:08:42.265	$GPGGA,120840,2611.7121,N,08002.7132,W,1,9,1.8,14,M,,M,,*56
06/10/2014	12:08:43.318	$GPGGA,120841,2611.7115,N,08002.7142,W,1,9,1.8,14,M,,M,,*57
06/10/2014	12:08:41.650	$GPGGA,120842,2611.7111,N,08002.7153,W,1,9,1.8,14,M,,M,,*50
06/10/2014	12:08:42.702	$GPGGA,120843,2611.7106,N,08002.7162,W,1,9,1.8,14,M,,M,,*55
06/10/2014	12:08:43.681	$GPGGA,120844,2611.7103,N,08002.7173,W,1,9,1.8,14,M,,M,,*57
06/10/2014	12:08:44.809	$GPGGA,120845,2611.7103,N,08002.7173,W,1,9,1.8,14,M,,M,,*56
06/10/2014	12:08:45.895	$GPGGA,120846,2611.7092,N,08002.7194,W,1,9,1.8,14,M,,M,,*55
06/10/2014	12:08:46.959	$GPGGA,120847,2611.7088,N,08002.7205,W,1,9,1.8,14,M,,M,,*54
06/10/2014	12:08:48.024	$GPGGA,120848,2611.7083,N,08002.7216,W,1,9,1.8,14,M,,M,,*52
06/10/2014	12:08:49.075	$GPGGA,120849,2611.7079,N,08002.7227,W,1,9,1.8,14,M,,M,,*54
06/10/2014	12:08:50.152	$GPGGA,120850,2611.7074,N,08002.7238,W,1,9,1.8,14,M,,M,,*5F
06/10/2014	12:08:51.228	$GPGGA,120851,2611.7070,N,08002.7248,W,1,9,1.8,14,M,,M,,*5D
06/10/2014	12:08:52.304	$GPGGA,120852,2611.7065,N,08002.7259,W,1,9,1.8,14,M,,M,,*5A
06/10/2014	12:08:53.342	$GPGGA,120853,2611.7060,N,08002.7269,W,1,9,1.8,14,M,,M,,*5D
06/10/2014	12:08:54.385	$GPGGA,120854,2611.7056,N,08002.7280,W,1,9,1.8,14,M,,M,,*58
06/10/2014	12:08:55.470	$GPGGA,120855,2611.7052,N,08002.7291,W,1,9,1.8,14,M,,M,,*5D
06/10/2014	12:08:56.524	$GPGGA,120856,2611.7046,N,08002.7301,W,1,9,1.8,14,M,,M,,*53
06/10/2014	12:08:57.600	$GPGGA,120857,2611.7041,N,08002.7312,W,1,9,1.8,14,M,,M,,*57
06/10/2014	12:08:58.641	$GPGGA,120858,2611.7036,N,08002.7323,W,1,9,1.8,14,M,,M,,*5A
06/10/2014	12:08:59.716	$GPGGA,120859,2611.7031,N,08002.7334,W,1,9,1.8,14,M,,M,,*5A
06/10/2014	12:09:00.780	$GPGGA,120900,2611.7027,N,08002.7344,W,1,9,1.8,14,M,,M,,*57
06/10/2014	12:09:01.845	$GPGGA,120901,2611.7023,N,08002.7355,W,1,9,1.8,14,M,,M,,*52
06/10/2014	12:09:02.887	$GPGGA,120902,2611.7017,N,08002.7366,W,1,9,1.8,14,M,,M,,*56
06/10/2014	12:09:03.973	$GPGGA,120903,2611.7013,N,08002.7375,W,1,9,1.8,14,M,,M,,*51
06/10/2014	12:09:05.015	$GPGGA,120904,2611.7009,N,08002.7386,W,1,9,1.8,14,M,,M,,*51
06/10/2014	12:09:06.089	$GPGGA,120905,2611.7005,N,08002.7396,W,1,9,1.8,14,M,,M,,*5D
06/10/2014	12:09:07.121	$GPGGA,120906,2611.6999,N,08002.7406,W,1,9,1.8,14,M,,M,,*5D
06/10/2014	12:09:08.228	$GPGGA,120907,2611.6994,N,08002.7417,W,1,9,1.8,14,M,,M,,*51
06/10/2014	12:09:09.260	$GPGGA,120908,2611.6991,N,08002.7428,W,1,9,1.8,14,M,,M,,*57
06/10/2014	12:09:10.303	$GPGGA,120909,2611.6985,N,08002.7439,W,1,9,1.8,14,M,,M,,*53
06/10/2014	12:09:11.378	$GPGGA,120910,2611.6980,N,08002.7449,W,1,9,1.8,14,M,,M,,*59
06/10/2014	12:09:12.431	$GPGGA,120911,2611.6976,N,08002.7460,W,1,9,1.8,14,M,,M,,*5A
06/10/2014	12:09:13.517	$GPGGA,120912,2611.6971,N,08002.7471,W,1,9,1.8,14,M,,M,,*5E
06/10/2014	12:09:14.602	$GPGGA,120913,2611.6967,N,08002.7480,W,1,9,1.8,14,M,,M,,*56
06/10/2014	12:09:15.623	$GPGGA,120914,2611.6962,N,08002.7491,W,1,9,1.8,14,M,,M,,*54
06/10/2014	12:09:16.826	$GPGGA,120915,2611.6958,N,08002.7501,W,1,9,1.8,14,M,,M,,*54
06/10/2014	12:09:17.879	$GPGGA,120916,2611.6953,N,08002.7512,W,1,9,1.8,14,M,,M,,*5E
06/10/2014	12:09:18.837	$GPGGA,120917,2611.6949,N,08002.7522,W,1,9,1.8,14,M,,M,,*57
06/10/2014	12:09:19.859	$GPGGA,120918,2611.6945,N,08002.7533,W,1,9,1.8,14,M,,M,,*54
06/10/2014	12:09:20.944	$GPGGA,120919,2611.6940,N,08002.7544,W,1,9,1.8,14,M,,M,,*50
06/10/2014	12:09:22.019	$GPGGA,120920,2611.6936,N,08002.7554,W,1,9,1.8,14,M,,M,,*5A
06/10/2014	12:09:23.053	$GPGGA,120921,2611.6931,N,08002.7565,W,1,9,1.8,14,M,,M,,*5E
06/10/2014	12:09:24.210	$GPGGA,120922,2611.6927,N,08002.7576,W,1,9,1.8,14,M,,M,,*58
06/10/2014	12:09:25.327	$GPGGA,120923,2611.6922,N,08002.7587,W,1,9,1.8,14,M,,M,,*52
06/10/2014	12:09:26.253	$GPGGA,120924,2611.6918,N,08002.7598,W,1,9,1.8,14,M,,M,,*52
06/10/2014	12:09:27.434	$GPGGA,120925,2611.6913,N,08002.7609,W,1,9,1.8,14,M,,M,,*53
06/10/2014	12:09:28.360	$GPGGA,120926,2611.6909,N,08002.7620,W,1,9,1.9,14,M,,M,,*51
06/10/2014	12:09:29.562	$GPGGA,120927,2611.6905,N,08002.7630,W,1,9,1.8,14,M,,M,,*5C
06/10/2014	12:09:30.509	$GPGGA,120928,2611.6900,N,08002.7641,W,1,9,1.8,14,M,,M,,*50
06/10/2014	12:09:31.563	$GPGGA,120929,2611.6897,N,08002.7652,W,1,9,1.8,14,M,,M,,*5C
06/10/2014	12:09:32.714	$GPGGA,120930,2611.6891,N,08002.7663,W,1,9,1.8,14,M,,M,,*50
06/10/2014	12:09:33.680	$GPGGA,120931,2611.6887,N,08002.7674,W,1,9,1.8,14,M,,M,,*50
06/10/2014	12:09:34.853	$GPGGA,120932,2611.6883,N,08002.7685,W,1,9,1.9,14,M,,M,,*58
06/10/2014	12:09:35.893	$GPGGA,120933,2611.6879,N,08002.7696,W,1,8,1.9,14,M,,M,,*5F
06/10/2014	12:09:36.968	$GPGGA,120934,2611.6875,N,08002.7707,W,1,8,1.9,14,M,,M,,*5D
06/10/2014	12:09:37.927	$GPGGA,120935,2611.6870,N,08002.7718,W,1,8,1.9,14,M,,M,,*57
06/10/2014	12:09:39.110	$GPGGA,120936,2611.6866,N,08002.7729,W,1,8,1.9,14,M,,M,,*51
06/10/2014	12:09:40.150	$GPGGA,120937,2611.6862,N,08002.7740,W,1,8,1.9,14,M,,M,,*5B
06/10/2014	12:09:41.214	$GPGGA,120938,2611.6857,N,08002.7751,W,1,8,1.9,14,M,,M,,*52
06/10/2014	12:09:42.279	$GPGGA,120939,2611.6853,N,08002.7761,W,1,8,1.9,14,M,,M,,*54
06/10/2014	12:09:43.352	$GPGGA,120940,2611.6848,N,08002.7772,W,1,8,1.9,14,M,,M,,*52
06/10/2014	12:09:44.438	$GPGGA,120941,2611.6844,N,08002.7783,W,1,8,1.9,14,M,,M,,*51
06/10/2014	12:09:41.625	$GPGGA,120942,2611.6840,N,08002.7794,W,1,8,1.9,14,M,,M,,*50
06/10/2014	12:09:42.700	$GPGGA,120943,2611.6835,N,08002.7805,W,1,8,1.9,13,M,,M,,*53
06/10/2014	12:09:43.754	$GPGGA,120944,2611.6832,N,08002.7816,W,1,8,1.9,13,M,,M,,*51
06/10/2014	12:09:44.828	$GPGGA,120945,2611.6828,N,08002.7827,W,1,8,1.9,13,M,,M,,*59
06/10/2014	12:09:45.860	$GPGGA,120946,2611.6822,N,08002.7837,W,1,8,1.9,13,M,,M,,*51
06/10/2014	12:09:46.914	$GPGGA,120947,2611.6817,N,08002.7848,W,1,8,1.9,13,M,,M,,*5E
06/10/2014	12:09:48.010	$GPGGA,120948,2611.6814,N,08002.7859,W,1,8,1.9,13,M,,M,,*52
06/10/2014	12:09:49.042	$GPGGA,120949,2611.6808,N,08002.7870,W,1,8,1.9,13,M,,M,,*55
06/10/2014	12:09:50.117	$GPGGA,120950,2611.6804,N,08002.7881,W,1,8,1.9,13,M,,M,,*5F
06/10/2014	12:09:51.202	$GPGGA,120951,2611.6799,N,08002.7891,W,1,8,1.9,13,M,,M,,*54
06/10/2014	12:09:52.256	$GPGGA,120952,2611.6794,N,08002.7902,W,1,8,1.9,13,M,,M,,*51
06/10/2014	12:09:53.288	$GPGGA,120953,2611.6790,N,08002.7913,W,1,9,1.8,13,M,,M,,*54
06/10/2014	12:09:54.352	$GPGGA,120954,2611.6785,N,08002.7923,W,1,9,1.8,13,M,,M,,*54
06/10/2014	12:09:55.416	$GPGGA,120955,2611.6781,N,08002.7935,W,1,9,1.8,13,M,,M,,*56
06/10/2014	12:09:56.503	$GPGGA,120956,2611.6775,N,08002.7946,W,1,9,1.8,13,M,,M,,*5A
06/10/2014	12:09:57.575	$GPGGA,120957,2611.6771,N,08002.7956,W,1,9,1.8,13,M,,M,,*5E
06/10/2014	12:09:58.607	$GPGGA,120958,2611.6767,N,08002.7967,W,1,9,1.8,13,M,,M,,*54
06/10/2014	12:09:59.661	$GPGGA,120959,2611.6761,N,08002.7978,W,1,9,1.8,13,M,,M,,*5D
06/10/2014	12:10:00.757	$GPGGA,121000,2611.6756,N,08002.7988,W,1,9,1.8,13,M,,M,,*52
06/10/2014	12:10:01.789	$GPGGA,121001,2611.6751,N,08002.7999,W,1,9,1.8,13,M,,M,,*54
06/10/2014	12:10:02.842	$GPGGA,121002,2611.6746,N,08002.8010,W,1,9,1.8,13,M,,M,,*56
06/10/2014	12:10:03.928	$GPGGA,121003,2611.6741,N,08002.8021,W,1,9,1.8,13,M,,M,,*52
06/10/2014	12:10:05.003	$GPGGA,121004,2611.6736,N,08002.8032,W,1,9,1.8,13,M,,M,,*57
06/10/2014	12:10:06.058	$GPGGA,121005,2611.6731,N,08002.8043,W,1,9,1.8,13,M,,M,,*57
06/10/2014	12:10:07.228	$GPGGA,121006,2611.6727,N,08002.8054,W,1,9,1.8,13,M,,M,,*55
06/10/2014	12:10:08.174	$GPGGA,121007,2611.6720,N,08002.8065,W,1,9,1.8,13,M,,M,,*51
06/10/2014	12:10:09.238	$GPGGA,121008,2611.6716,N,08002.8076,W,1,9,1.8,13,M,,M,,*59
06/10/2014	12:10:10.272	$GPGGA,121009,2611.6711,N,08002.8087,W,1,9,1.8,13,M,,M,,*51
06/10/2014	12:10:11.451	$GPGGA,121010,2611.6706,N,08002.8098,W,1,9,1.8,13,M,,M,,*51
06/10/2014	12:10:12.430	$GPGGA,121011,2611.6702,N,08002.8110,W,1,9,1.8,13,M,,M,,*55
06/10/2014	12:10:13.481	$GPGGA,121012,2611.6696,N,08002.8121,W,1,9,1.8,13,M,,M,,*58
06/10/2014	12:10:14.527	$GPGGA,121013,2611.6691,N,08002.8132,W,1,9,1.8,13,M,,M,,*5C
06/10/2014	12:10:15.699	$GPGGA,121014,2611.6686,N,08002.8143,W,1,9,1.8,13,M,,M,,*5B
06/10/2014	12:10:16.653	$GPGGA,121015,2611.6680,N,08002.8154,W,1,9,1.8,13,M,,M,,*5A
06/10/2014	12:10:17.728	$GPGGA,121016,2611.6675,N,08002.8165,W,1,9,1.8,13,M,,M,,*51
06/10/2014	12:10:18.794	$GPGGA,121017,2611.6670,N,08002.8176,W,1,9,1.8,13,M,,M,,*57
06/10/2014	12:10:19.846	$GPGGA,121018,2611.6665,N,08002.8186,W,1,9,1.8,13,M,,M,,*53
06/10/2014	12:10:21.006	$GPGGA,121019,2611.6660,N,08002.8197,W,1,9,1.8,13,M,,M,,*57
06/10/2014	12:10:21.986	$GPGGA,121020,2611.6655,N,08002.8208,W,1,9,1.8,13,M,,M,,*5E
06/10/2014	12:10:23.135	$GPGGA,121021,2611.6651,N,08002.8219,W,1,9,1.8,13,M,,M,,*5B
06/10/2014	12:10:24.091	$GPGGA,121022,2611.6645,N,08002.8230,W,1,9,1.8,13,M,,M,,*56
06/10/2014	12:10:25.251	$GPGGA,121023,2611.6640,N,08002.8241,W,1,8,1.9,13,M,,M,,*54
06/10/2014	12:10:26.326	$GPGGA,121024,2611.6634,N,08002.8251,W,1,8,1.8,13,M,,M,,*50
06/10/2014	12:10:27.411	$GPGGA,121025,2611.6629,N,08002.8262,W,1,9,1.8,13,M,,M,,*5C
06/10/2014	12:10:28.444	$GPGGA,121026,2611.6624,N,08002.8273,W,1,9,1.8,13,M,,M,,*52
06/10/2014	12:10:29.518	$GPGGA,121027,2611.6620,N,08002.8284,W,1,8,1.9,13,M,,M,,*5F
06/10/2014	12:10:30.582	$GPGGA,121028,2611.6615,N,08002.8295,W,1,8,1.9,13,M,,M,,*56
06/10/2014	12:10:31.648	$GPGGA,121029,2611.6610,N,08002.8306,W,1,8,1.9,13,M,,M,,*59
06/10/2014	12:10:32.700	$GPGGA,121030,2611.6605,N,08002.8316,W,1,8,1.9,13,M,,M,,*54
06/10/2014	12:10:33.754	$GPGGA,121031,2611.6600,N,08002.8327,W,1,8,1.9,13,M,,M,,*52
06/10/2014	12:10:34.827	$GPGGA,121032,2611.6594,N,08002.8338,W,1,8,1.9,13,M,,M,,*51
06/10/2014	12:10:35.892	$GPGGA,121033,2611.6590,N,08002.8349,W,1,8,1.9,13,M,,M,,*52
06/10/2014	12:10:36.934	$GPGGA,121034,2611.6586,N,08002.8360,W,1,8,1.9,13,M,,M,,*59
06/10/2014	12:10:38.021	$GPGGA,121035,2611.6580,N,08002.8371,W,1,8,1.9,13,M,,M,,*5E
06/10/2014	12:10:39.073	$GPGGA,121036,2611.6575,N,08002.8382,W,1,8,1.9,13,M,,M,,*5B
06/10/2014	12:10:40.116	$GPGGA,121037,2611.6570,N,08002.8393,W,1,8,1.9,13,M,,M,,*5F
06/10/2014	12:10:41.192	$GPGGA,121038,2611.6565,N,08002.8403,W,1,8,1.9,13,M,,M,,*5A
06/10/2014	12:10:42.265	$GPGGA,121039,2611.6561,N,08002.8414,W,1,8,1.9,13,M,,M,,*59
06/10/2014	12:10:43.329	$GPGGA,121040,2611.6555,N,08002.8425,W,1,8,1.9,13,M,,M,,*52
06/10/2014	12:10:44.362	$GPGGA,121041,2611.6550,N,08002.8436,W,1,8,1.9,13,M,,M,,*54
06/10/2014	12:10:41.591	$GPGGA,121042,2611.6544,N,08002.8447,W,1,8,1.8,13,M,,M,,*55
06/10/2014	12:10:42.687	$GPGGA,121043,2611.6540,N,08002.8457,W,1,9,1.8,13,M,,M,,*50
06/10/2014	12:10:43.720	$GPGGA,121044,2611.6535,N,08002.8468,W,1,9,1.8,13,M,,M,,*59
06/10/2014	12:10:44.837	$GPGGA,121045,2611.6530,N,08002.8479,W,1,9,1.8,13,M,,M,,*5D
06/10/2014	12:10:45.848	$GPGGA,121046,2611.6525,N,08002.8490,W,1,9,1.8,13,M,,M,,*5D
06/10/2014	12:10:46.933	$GPGGA,121047,2611.6521,N,08002.8501,W,1,9,1.8,13,M,,M,,*51
06/10/2014	12:10:47.965	$GPGGA,121048,2611.6515,N,08002.8512,W,1,9,1.8,13,M,,M,,*5B
06/10/2014	12:10:49.051	$GPGGA,121049,2611.6510,N,08002.8523,W,1,9,1.8,13,M,,M,,*5D
06/10/2014	12:10:50.092	$GPGGA,121050,2611.6507,N,08002.8534,W,1,9,1.8,13,M,,M,,*55
06/10/2014	12:10:51.167	$GPGGA,121051,2611.6501,N,08002.8544,W,1,9,1.8,13,M,,M,,*55
06/10/2014	12:10:52.231	$GPGGA,121052,2611.6496,N,08002.8556,W,1,9,1.8,13,M,,M,,*5A
06/10/2014	12:10:53.306	$GPGGA,121053,2611.6492,N,08002.8566,W,1,9,1.8,13,M,,M,,*5C
06/10/2014	12:10:54.328	$GPGGA,121054,2611.6486,N,08002.8578,W,1,9,1.8,13,M,,M,,*51
06/10/2014	12:10:55.381	$GPGGA,121055,2611.6482,N,08002.8589,W,1,9,1.8,13,M,,M,,*5A
06/10/2014	12:10:56.605	$GPGGA,121056,2611.6478,N,08002.8600,W,1,9,1.8,13,M,,M,,*5E
06/10/2014	12:10:57.530	$GPGGA,121057,2611.6472,N,08002.8611,W,1,9,1.8,13,M,,M,,*55
06/10/2014	12:10:58.584	$GPGGA,121058,2611.6467,N,08002.8623,W,1,9,1.8,13,M,,M,,*5F
06/10/2014	12:10:59.765	$GPGGA,121059,2611.6462,N,08002.8634,W,1,9,1.8,13,M,,M,,*5D
06/10/2014	12:11:00.872	$GPGGA,121100,2611.6457,N,08002.8645,W,1,9,1.8,14,M,,M,,*57
06/10/2014	12:11:01.776	$GPGGA,121101,2611.6452,N,08002.8654,W,1,9,1.8,14,M,,M,,*53
06/10/2014	12:11:02.830	$GPGGA,121102,2611.6447,N,08002.8665,W,1,9,1.8,14,M,,M,,*56
06/10/2014	12:11:03.994	$GPGGA,121103,2611.6442,N,08002.8676,W,1,9,1.8,14,M,,M,,*50
06/10/2014	12:11:05.094	$GPGGA,121104,2611.6436,N,08002.8688,W,1,9,1.8,14,M,,M,,*55
06/10/2014	12:11:06.035	$GPGGA,121105,2611.6432,N,08002.8699,W,1,9,1.8,14,M,,M,,*50
06/10/2014	12:11:07.089	$GPGGA,121106,2611.6427,N,08002.8710,W,1,9,1.9,14,M,,M,,*56
06/10/2014	12:11:08.140	$GPGGA,121107,2611.6422,N,08002.8721,W,1,8,1.9,14,M,,M,,*51
06/10/2014	12:11:09.213	$GPGGA,121108,2611.6417,N,08002.8732,W,1,8,1.9,14,M,,M,,*5A
06/10/2014	12:11:10.269	$GPGGA,121109,2611.6413,N,08002.8743,W,1,8,1.9,14,M,,M,,*59
06/10/2014	12:11:11.437	$GPGGA,121110,2611.6409,N,08002.8754,W,1,8,1.9,14,M,,M,,*5C
06/10/2014	12:11:12.513	$GPGGA,121111,2611.6403,N,08002.8764,W,1,8,1.9,14,M,,M,,*54
06/10/2014	12:11:13.566	$GPGGA,121112,2611.6398,N,08002.8775,W,1,8,1.9,13,M,,M,,*55
06/10/2014	12:11:14.619	$GPGGA,121113,2611.6393,N,08002.8787,W,1,8,1.9,13,M,,M,,*52
06/10/2014	12:11:15.683	$GPGGA,121114,2611.6388,N,08002.8798,W,1,8,1.9,13,M,,M,,*51
06/10/2014	12:11:16.747	$GPGGA,121115,2611.6384,N,08002.8809,W,1,8,1.9,13,M,,M,,*5B
06/10/2014	12:11:17.811	$GPGGA,121116,2611.6378,N,08002.8820,W,1,8,1.9,13,M,,M,,*50
06/10/2014	12:11:18.875	$GPGGA,121117,2611.6373,N,08002.8833,W,1,8,1.9,13,M,,M,,*58
06/10/2014	12:11:19.929	$GPGGA,121118,2611.6368,N,08002.8844,W,1,8,1.9,13,M,,M,,*5D
06/10/2014	12:11:21.003	$GPGGA,121119,2611.6362,N,08002.8855,W,1,8,1.9,13,M,,M,,*56
06/10/2014	12:11:22.068	$GPGGA,121120,2611.6358,N,08002.8866,W,1,8,1.9,13,M,,M,,*55
06/10/2014	12:11:23.134	$GPGGA,121121,2611.6353,N,08002.8876,W,1,8,1.9,13,M,,M,,*5E
06/10/2014	12:11:24.174	$GPGGA,121122,2611.6348,N,08002.8888,W,1,8,1.9,13,M,,M,,*56
06/10/2014	12:11:25.249	$GPGGA,121123,2611.6344,N,08002.8899,W,1,8,1.9,13,M,,M,,*5B
06/10/2014	12:11:26.313	$GPGGA,121124,2611.6338,N,08002.8910,W,1,8,1.9,13,M,,M,,*57
06/10/2014	12:11:27.405	$GPGGA,121125,2611.6333,N,08002.8921,W,1,8,1.9,13,M,,M,,*5F
06/10/2014	12:11:28.430	$GPGGA,121126,2611.6328,N,08002.8932,W,1,8,1.9,13,M,,M,,*54
06/10/2014	12:11:29.505	$GPGGA,121127,2611.6323,N,08002.8945,W,1,8,1.9,13,M,,M,,*5E
06/10/2014	12:11:30.558	$GPGGA,121128,2611.6319,N,08002.8956,W,1,8,1.9,13,M,,M,,*5A
06/10/2014	12:11:31.633	$GPGGA,121129,2611.6315,N,08002.8967,W,1,8,1.9,13,M,,M,,*55
06/10/2014	12:11:32.654	$GPGGA,121130,2611.6310,N,08002.8978,W,1,8,1.8,13,M,,M,,*57
06/10/2014	12:11:33.740	$GPGGA,121131,2611.6305,N,08002.8988,W,1,9,1.8,13,M,,M,,*5C
06/10/2014	12:11:34.793	$GPGGA,121132,2611.6301,N,08002.8999,W,1,9,1.8,12,M,,M,,*5A
06/10/2014	12:11:35.857	$GPGGA,121133,2611.6297,N,08002.9011,W,1,9,1.8,12,M,,M,,*5D
06/10/2014	12:11:36.900	$GPGGA,121134,2611.6292,N,08002.9022,W,1,9,1.8,12,M,,M,,*5F
06/10/2014	12:11:37.964	$GPGGA,121135,2611.6287,N,08002.9035,W,1,9,1.8,12,M,,M,,*5C
06/10/2014	12:11:39.050	$GPGGA,121136,2611.6283,N,08002.9046,W,1,9,1.8,12,M,,M,,*5F
06/10/2014	12:11:40.135	$GPGGA,121137,2611.6279,N,08002.9057,W,1,8,1.8,12,M,,M,,*5A
06/10/2014	12:11:41.156	$GPGGA,121138,2611.6273,N,08002.9068,W,1,8,1.8,12,M,,M,,*53
06/10/2014	12:11:42.210	$GPGGA,121139,2611.6269,N,08002.9079,W,1,9,1.8,12,M,,M,,*58
06/10/2014	12:11:43.306	$GPGGA,121140,2611.6265,N,08002.9091,W,1,9,1.8,12,M,,M,,*5C
06/10/2014	12:11:44.360	$GPGGA,121141,2611.6261,N,08002.9102,W,1,9,1.8,12,M,,M,,*52
06/10/2014	12:11:41.547	$GPGGA,121142,2611.6256,N,08002.9115,W,1,9,1.8,12,M,,M,,*53
06/10/2014	12:11:42.621	$GPGGA,121143,2611.6252,N,08002.9126,W,1,8,1.8,12,M,,M,,*57
06/10/2014	12:11:43.685	$GPGGA,121144,2611.6248,N,08002.9138,W,1,8,1.9,12,M,,M,,*55
06/10/2014	12:11:44.749	$GPGGA,121145,2611.6244,N,08002.9149,W,1,8,1.8,12,M,,M,,*5F
06/10/2014	12:11:45.913	$GPGGA,121146,2611.6240,N,08002.9160,W,1,8,1.8,12,M,,M,,*53
06/10/2014	12:11:46.995	$GPGGA,121147,2611.6236,N,08002.9171,W,1,9,1.8,12,M,,M,,*52
