Software Version Number: 1	Data File Format Number: 1	Build Version Number: 1	Error Count Since VI Started: 0	Manufacturer: Raytheon	 Model Number: RayMarine 120	 S/N: 	 Cal Date: 	 Wind Direction Offset: 0.00	 Slope (M)1: 0.00	 Offset (B)1: 0.00	 Slope (M)2: 0.00	 Offset (B)2: 0.00	 Slope (M)3: 0.00	 Offset (B)3: 0.00	 Slope (M)4: 0.00	 Offset (B)4: 0.00	 Slope (M)5: 0.00	 Offset (B)5: 0.00	 Slope (M)6: 0.00	 Offset (B)6: 0.00
Computer Date	Computer Time	GGA String
06/04/2014	04:00:00.862	$GPGGA,040001,2506.7563,N,08022.2169,W,1,9,1.7,14,M,,M,,*5D
06/04/2014	04:00:01.748	$GPGGA,040002,2506.7547,N,08022.2182,W,1,9,1.7,14,M,,M,,*5D
06/04/2014	04:00:02.754	$GPGGA,040003,2506.7530,N,08022.2197,W,1,9,1.7,14,M,,M,,*58
06/04/2014	04:00:03.801	$GPGGA,040004,2506.7514,N,08022.2211,W,1,9,1.7,14,M,,M,,*54
06/04/2014	04:00:04.767	$GPGGA,040005,2506.7500,N,08022.2223,W,1,9,1.7,14,M,,M,,*51
06/04/2014	04:00:05.804	$GPGGA,040006,2506.7483,N,08022.2237,W,1,9,1.7,14,M,,M,,*5D
06/04/2014	04:00:06.901	$GPGGA,040007,2506.7467,N,08022.2251,W,1,9,1.7,14,M,,M,,*56
06/04/2014	04:00:07.817	$GPGGA,040008,2506.7451,N,08022.2265,W,1,9,1.7,14,M,,M,,*5B
06/04/2014	04:00:08.874	$GPGGA,040009,2506.7435,N,08022.2280,W,1,9,1.7,14,M,,M,,*53
06/04/2014	04:00:09.791	$GPGGA,040010,2506.7419,N,08022.2294,W,1,9,1.7,14,M,,M,,*50
06/04/2014	04:00:10.858	$GPGGA,040011,2506.7403,N,08022.2306,W,1,9,1.7,14,M,,M,,*50
06/04/2014	04:00:11.814	$GPGGA,040012,2506.7388,N,08022.2321,W,1,9,1.7,14,M,,M,,*52
06/04/2014	04:00:12.921	$GPGGA,040013,2506.7372,N,08022.2334,W,1,9,1.7,14,M,,M,,*52
06/04/2014	04:00:13.849	$GPGGA,040014,2506.7355,N,08022.2348,W,1,9,1.7,14,M,,M,,*5B
06/04/2014	04:00:14.935	$GPGGA,040015,2506.7341,N,08022.2363,W,1,9,1.7,14,M,,M,,*56
06/04/2014	04:00:15.841	$GPGGA,040016,2506.7324,N,08022.2377,W,1,9,1.7,14,M,,M,,*53
06/04/2014	04:00:16.827	$GPGGA,040017,2506.7309,N,08022.2391,W,1,9,1.7,14,M,,M,,*55
06/04/2014	04:00:17.865	$GPGGA,040018,2506.7292,N,08022.2404,W,1,9,1.7,14,M,,M,,*52
06/04/2014	04:00:18.911	$GPGGA,040019,2506.7276,N,08022.2418,W,1,9,1.7,14,M,,M,,*54
06/04/2014	04:00:19.897	$GPGGA,040020,2506.7260,N,08022.2432,W,1,9,1.7,14,M,,M,,*51
06/04/2014	04:00:20.914	$GPGGA,040021,2506.7245,N,08022.2446,W,1,9,1.7,14,M,,M,,*54
06/04/2014	04:00:21.890	$GPGGA,040022,2506.7229,N,08022.2460,W,1,9,1.4,14,M,,M,,*5A
06/04/2014	04:00:22.937	$GPGGA,040023,2506.7212,N,08022.2473,W,1,9,1.4,14,M,,M,,*51
06/04/2014	04:00:23.863	$GPGGA,040024,2506.7197,N,08022.2486,W,1,9,1.4,14,M,,M,,*52
06/04/2014	04:00:24.850	$GPGGA,040025,2506.7180,N,08022.2500,W,1,9,1.4,14,M,,M,,*5A
06/04/2014	04:00:25.957	$GPGGA,040026,2506.7164,N,08022.2514,W,1,9,1.4,14,M,,M,,*56
06/04/2014	04:00:26.964	$GPGGA,040027,2506.7147,N,08022.2526,W,1,9,1.4,15,M,,M,,*56
06/04/2014	04:00:29.007	$GPGGA,040029,2506.7115,N,08022.2554,W,1,9,1.4,15,M,,M,,*5A
06/04/2014	04:00:29.914	$GPGGA,040030,2506.7099,N,08022.2568,W,1,9,1.4,15,M,,M,,*58
06/04/2014	04:00:30.971	$GPGGA,040031,2506.7083,N,08022.2580,W,1,9,1.4,15,M,,M,,*54
06/04/2014	04:00:31.498	$GPGGA,040032,2506.7067,N,08022.2594,W,1,9,1.4,15,M,,M,,*58
06/04/2014	04:00:32.604	$GPGGA,040033,2506.7050,N,08022.2608,W,1,9,1.4,15,M,,M,,*5B
06/04/2014	04:00:33.591	$GPGGA,040034,2506.7034,N,08022.2621,W,1,9,1.4,15,M,,M,,*55
06/04/2014	04:00:34.617	$GPGGA,040035,2506.7018,N,08022.2635,W,1,9,1.4,15,M,,M,,*5F
06/04/2014	04:00:35.584	$GPGGA,040036,2506.7001,N,08022.2649,W,1,9,1.4,16,M,,M,,*5C
06/04/2014	04:00:36.632	$GPGGA,040037,2506.6985,N,08022.2663,W,1,9,1.4,16,M,,M,,*51
06/04/2014	04:00:37.627	$GPGGA,040038,2506.6969,N,08022.2677,W,1,9,1.4,16,M,,M,,*59
06/04/2014	04:00:38.643	$GPGGA,040039,2506.6952,N,08022.2691,W,1,10,1.4,16,M,,M,,*60
06/04/2014	04:00:39.650	$GPGGA,040040,2506.6936,N,08022.2703,W,1,10,1.4,16,M,,M,,*66
06/04/2014	04:00:40.667	$GPGGA,040041,2506.6920,N,08022.2717,W,1,10,1.4,16,M,,M,,*65
06/04/2014	04:00:41.643	$GPGGA,040042,2506.6904,N,08022.2731,W,1,10,1.4,16,M,,M,,*64
06/04/2014	04:00:42.680	$GPGGA,040043,2506.6887,N,08022.2743,W,1,10,1.4,16,M,,M,,*6A
06/04/2014	04:00:43.657	$GPGGA,040044,2506.6870,N,08022.2757,W,1,10,1.4,16,M,,M,,*60
06/04/2014	04:00:44.714	$GPGGA,040045,2506.6854,N,08022.2769,W,1,10,1.4,16,M,,M,,*6A
06/04/2014	04:00:45.660	$GPGGA,040046,2506.6837,N,08022.2782,W,1,10,1.4,17,M,,M,,*68
06/04/2014	04:00:46.727	$GPGGA,040047,2506.6821,N,08022.2796,W,1,10,1.4,17,M,,M,,*6B
06/04/2014	04:00:47.683	$GPGGA,040048,2506.6804,N,08022.2809,W,1,10,1.4,17,M,,M,,*6A
06/04/2014	04:00:48.710	$GPGGA,040049,2506.6787,N,08022.2822,W,1,10,1.4,17,M,,M,,*66
06/04/2014	04:00:49.687	$GPGGA,040050,2506.6770,N,08022.2836,W,1,10,1.4,17,M,,M,,*63
06/04/2014	04:00:50.704	$GPGGA,040051,2506.6754,N,08022.2848,W,1,10,1.4,17,M,,M,,*6D
06/04/2014	04:00:51.700	$GPGGA,040052,2506.6738,N,08022.2861,W,1,10,1.4,17,M,,M,,*6F
06/04/2014	04:00:52.757	$GPGGA,040053,2506.6720,N,08022.2874,W,1,10,1.4,17,M,,M,,*63
06/04/2014	04:00:53.693	$GPGGA,040054,2506.6703,N,08022.2887,W,1,10,1.4,17,M,,M,,*69
06/04/2014	04:00:54.760	$GPGGA,040055,2506.6686,N,08022.2901,W,1,10,1.4,17,M,,M,,*6B
06/04/2014	04:00:55.736	$GPGGA,040056,2506.6670,N,08022.2915,W,1,10,1.4,17,M,,M,,*64
06/04/2014	04:00:56.768	$GPGGA,040057,2506.6653,N,08022.2927,W,1,10,1.4,17,M,,M,,*65
06/04/2014	04:00:57.729	$GPGGA,040058,2506.6637,N,08022.2941,W,1,10,1.4,17,M,,M,,*68
06/04/2014	04:00:58.776	$GPGGA,040059,2506.6620,N,08022.2953,W,1,10,1.4,17,M,,M,,*6C
06/04/2014	04:00:59.753	$GPGGA,040100,2506.6604,N,08022.2966,W,1,10,1.4,17,M,,M,,*61
06/04/2014	04:01:00.820	$GPGGA,040101,2506.6586,N,08022.2980,W,1,10,1.4,17,M,,M,,*61
06/04/2014	04:01:01.756	$GPGGA,040102,2506.6569,N,08022.2992,W,1,10,1.4,17,M,,M,,*60
06/04/2014	04:01:02.753	$GPGGA,040103,2506.6553,N,08022.3006,W,1,10,1.4,17,M,,M,,*6D
06/04/2014	04:01:03.770	$GPGGA,040104,2506.6536,N,08022.3020,W,1,10,1.4,17,M,,M,,*6D
06/04/2014	04:01:04.806	$GPGGA,040105,2506.6519,N,08022.3032,W,1,10,1.4,17,M,,M,,*62
06/04/2014	04:01:05.843	$GPGGA,040106,2506.6503,N,08022.3046,W,1,10,1.4,17,M,,M,,*69
06/04/2014	04:01:06.769	$GPGGA,040107,2506.6503,N,08022.3046,W,1,10,1.4,18,M,,M,,*67
06/04/2014	04:01:07.873	$GPGGA,040108,2506.6469,N,08022.3072,W,1,10,1.4,18,M,,M,,*62
06/04/2014	04:01:08.897	$GPGGA,040109,2506.6469,N,08022.3072,W,1,10,1.4,18,M,,M,,*63
06/04/2014	04:01:09.772	$GPGGA,040110,2506.6453,N,08022.3085,W,1,10,1.4,18,M,,M,,*6A
06/04/2014	04:01:10.845	$GPGGA,040111,2506.6436,N,08022.3098,W,1,10,1.4,18,M,,M,,*64
06/04/2014	04:01:11.899	$GPGGA,040112,2506.6404,N,08022.3126,W,1,10,1.4,18,M,,M,,*62
06/04/2014	04:01:12.782	$GPGGA,040113,2506.6404,N,08022.3126,W,1,10,1.4,18,M,,M,,*63
06/04/2014	04:01:13.866	$GPGGA,040114,2506.6371,N,08022.3152,W,1,10,1.4,18,M,,M,,*62
06/04/2014	04:01:14.890	$GPGGA,040115,2506.6355,N,08022.3166,W,1,10,1.4,18,M,,M,,*62
06/04/2014	04:01:15.794	$GPGGA,040116,2506.6338,N,08022.3180,W,1,10,1.4,18,M,,M,,*62
06/04/2014	04:01:16.898	$GPGGA,040117,2506.6321,N,08022.3194,W,1,10,1.4,18,M,,M,,*6E
06/04/2014	04:01:17.782	$GPGGA,040118,2506.6305,N,08022.3208,W,1,10,1.4,18,M,,M,,*61
06/04/2014	04:01:18.886	$GPGGA,040119,2506.6288,N,08022.3222,W,1,10,1.4,18,M,,M,,*6C
06/04/2014	04:01:19.800	$GPGGA,040120,2506.6272,N,08022.3235,W,1,10,1.4,18,M,,M,,*65
06/04/2014	04:01:20.904	$GPGGA,040121,2506.6255,N,08022.3248,W,1,10,1.4,18,M,,M,,*6B
06/04/2014	04:01:21.888	$GPGGA,040122,2506.6239,N,08022.3262,W,1,10,1.4,18,M,,M,,*6A
06/04/2014	04:01:22.902	$GPGGA,040123,2506.6223,N,08022.3277,W,1,10,1.4,18,M,,M,,*64
06/04/2014	04:01:23.906	$GPGGA,040124,2506.6207,N,08022.3291,W,1,10,1.4,18,M,,M,,*6D
06/04/2014	04:01:24.920	$GPGGA,040125,2506.6190,N,08022.3305,W,1,10,1.4,18,M,,M,,*6D
06/04/2014	04:01:25.884	$GPGGA,040126,2506.6174,N,08022.3317,W,1,10,1.4,18,M,,M,,*67
06/04/2014	04:01:26.908	$GPGGA,040127,2506.6158,N,08022.3332,W,1,10,1.4,18,M,,M,,*6F
06/04/2014	04:01:27.912	$GPGGA,040128,2506.6142,N,08022.3345,W,1,10,1.4,18,M,,M,,*6B
06/04/2014	04:01:28.936	$GPGGA,040129,2506.6126,N,08022.3360,W,1,10,1.4,18,M,,M,,*6F
06/04/2014	04:01:29.899	$GPGGA,040130,2506.6110,N,08022.3374,W,1,10,1.4,18,M,,M,,*67
06/04/2014	04:01:30.923	$GPGGA,040131,2506.6095,N,08022.3387,W,1,10,1.4,18,M,,M,,*66
06/04/2014	04:01:31.583	$GPGGA,040132,2506.6078,N,08022.3403,W,1,10,1.4,18,M,,M,,*6D
06/04/2014	04:01:32.586	$GPGGA,040133,2506.6062,N,08022.3415,W,1,10,1.4,18,M,,M,,*60
06/04/2014	04:01:33.610	$GPGGA,040134,2506.6046,N,08022.3430,W,1,10,1.4,18,M,,M,,*66
06/04/2014	04:01:34.594	$GPGGA,040135,2506.6030,N,08022.3444,W,1,10,1.4,18,M,,M,,*65
06/04/2014	04:01:35.598	$GPGGA,040136,2506.6014,N,08022.3457,W,1,10,1.4,18,M,,M,,*62
06/04/2014	04:01:36.602	$GPGGA,040137,2506.5999,N,08022.3472,W,1,10,1.4,18,M,,M,,*6B
06/04/2014	04:01:37.576	$GPGGA,040138,2506.5983,N,08022.3486,W,1,10,1.4,18,M,,M,,*64
06/04/2014	04:01:38.630	$GPGGA,040139,2506.5966,N,08022.3499,W,1,9,1.7,18,M,,M,,*5B
06/04/2014	04:01:39.594	$GPGGA,040140,2506.5950,N,08022.3513,W,1,9,1.4,18,M,,M,,*50
06/04/2014	04:01:40.618	$GPGGA,040141,2506.5933,N,08022.3526,W,1,10,1.4,18,M,,M,,*6A
06/04/2014	04:01:41.593	$GPGGA,040142,2506.5918,N,08022.3541,W,1,10,1.4,18,M,,M,,*61
06/04/2014	04:01:42.586	$GPGGA,040143,2506.5901,N,08022.3555,W,1,10,1.4,18,M,,M,,*6D
06/04/2014	04:01:43.610	$GPGGA,040144,2506.5885,N,08022.3570,W,1,10,1.7,18,M,,M,,*63
06/04/2014	04:01:44.584	$GPGGA,040145,2506.5869,N,08022.3584,W,1,9,1.7,18,M,,M,,*53
06/04/2014	04:01:45.588	$GPGGA,040146,2506.5853,N,08022.3598,W,1,9,1.4,18,M,,M,,*57
06/04/2014	04:01:46.593	$GPGGA,040147,2506.5836,N,08022.3610,W,1,10,1.4,18,M,,M,,*6E
06/04/2014	04:01:47.615	$GPGGA,040148,2506.5821,N,08022.3624,W,1,10,1.4,18,M,,M,,*60
06/04/2014	04:01:48.589	$GPGGA,040149,2506.5804,N,08022.3638,W,1,9,1.7,18,M,,M,,*50
06/04/2014	04:01:49.603	$GPGGA,040150,2506.5788,N,08022.3649,W,1,9,1.4,18,M,,M,,*56
06/04/2014	04:01:50.607	$GPGGA,040151,2506.5770,N,08022.3661,W,1,10,1.4,18,M,,M,,*62
06/04/2014	04:01:51.611	$GPGGA,040152,2506.5755,N,08022.3674,W,1,10,1.4,18,M,,M,,*62
06/04/2014	04:01:52.615	$GPGGA,040153,2506.5738,N,08022.3689,W,1,10,1.4,18,M,,M,,*6A
06/04/2014	04:01:53.609	$GPGGA,040154,2506.5723,N,08022.3703,W,1,10,1.4,18,M,,M,,*64
06/04/2014	04:01:54.613	$GPGGA,040155,2506.5705,N,08022.3715,W,1,10,1.4,19,M,,M,,*67
06/04/2014	04:01:55.617	$GPGGA,040156,2506.5690,N,08022.3729,W,1,10,1.4,19,M,,M,,*66
06/04/2014	04:01:56.751	$GPGGA,040157,2506.5673,N,08022.3743,W,1,10,1.4,19,M,,M,,*66
06/04/2014	04:01:57.625	$GPGGA,040158,2506.5658,N,08022.3757,W,1,10,1.4,19,M,,M,,*65
06/04/2014	04:01:58.629	$GPGGA,040159,2506.5641,N,08022.3770,W,1,10,1.4,19,M,,M,,*69
06/04/2014	04:01:59.653	$GPGGA,040200,2506.5625,N,08022.3784,W,1,10,1.4,19,M,,M,,*6F
06/04/2014	04:02:00.747	$GPGGA,040201,2506.5608,N,08022.3797,W,1,10,1.4,19,M,,M,,*63
06/04/2014	04:02:01.641	$GPGGA,040202,2506.5592,N,08022.3811,W,1,10,1.4,19,M,,M,,*61
06/04/2014	04:02:02.645	$GPGGA,040203,2506.5576,N,08022.3826,W,1,10,1.4,19,M,,M,,*6E
06/04/2014	04:02:03.760	$GPGGA,040204,2506.5560,N,08022.3838,W,1,10,1.4,19,M,,M,,*61
06/04/2014	04:02:04.732	$GPGGA,040205,2506.5543,N,08022.3851,W,1,10,1.4,19,M,,M,,*6E
06/04/2014	04:02:05.646	$GPGGA,040206,2506.5527,N,08022.3865,W,1,10,1.4,19,M,,M,,*68
06/04/2014	04:02:06.740	$GPGGA,040207,2506.5511,N,08022.3878,W,1,10,1.4,19,M,,M,,*60
06/04/2014	04:02:07.754	$GPGGA,040208,2506.5495,N,08022.3891,W,1,10,1.4,19,M,,M,,*65
06/04/2014	04:02:08.738	$GPGGA,040209,2506.5478,N,08022.3905,W,1,10,1.4,19,M,,M,,*6B
06/04/2014	04:02:09.732	$GPGGA,040210,2506.5461,N,08022.3917,W,1,10,1.4,19,M,,M,,*68
06/04/2014	04:02:10.736	$GPGGA,040211,2506.5445,N,08022.3931,W,1,10,1.4,19,M,,M,,*6B
06/04/2014	04:02:11.750	$GPGGA,040212,2506.5428,N,08022.3945,W,1,10,1.4,20,M,,M,,*6A
06/04/2014	04:02:12.774	$GPGGA,040213,2506.5412,N,08022.3956,W,1,10,1.4,20,M,,M,,*60
06/04/2014	04:02:13.748	$GPGGA,040214,2506.5396,N,08022.3970,W,1,10,1.4,20,M,,M,,*68
06/04/2014	04:02:14.782	$GPGGA,040215,2506.5380,N,08022.3983,W,1,10,1.4,20,M,,M,,*62
06/04/2014	04:02:15.766	$GPGGA,040216,2506.5363,N,08022.3996,W,1,10,1.4,20,M,,M,,*68
06/04/2014	04:02:16.770	$GPGGA,040217,2506.5347,N,08022.4010,W,1,10,1.4,20,M,,M,,*6F
06/04/2014	04:02:17.764	$GPGGA,040218,2506.5330,N,08022.4022,W,1,10,1.4,20,M,,M,,*61
06/04/2014	04:02:18.779	$GPGGA,040219,2506.5314,N,08022.4035,W,1,10,1.4,20,M,,M,,*60
06/04/2014	04:02:19.782	$GPGGA,040220,2506.5298,N,08022.4050,W,1,10,1.4,20,M,,M,,*6C
06/04/2014	04:02:20.756	$GPGGA,040221,2506.5282,N,08022.4062,W,1,10,1.4,20,M,,M,,*67
06/04/2014	04:02:21.770	$GPGGA,040222,2506.5265,N,08022.4075,W,1,10,1.4,20,M,,M,,*6B
06/04/2014	04:02:22.793	$GPGGA,040223,2506.5249,N,08022.4090,W,1,10,1.4,19,M,,M,,*65
06/04/2014	04:02:23.787	$GPGGA,040224,2506.5232,N,08022.4102,W,1,10,1.4,19,M,,M,,*64
06/04/2014	04:02:24.771	$GPGGA,040225,2506.5217,N,08022.4116,W,1,10,1.4,19,M,,M,,*67
06/04/2014	04:02:25.775	$GPGGA,040226,2506.5200,N,08022.4129,W,1,10,1.4,19,M,,M,,*6E
06/04/2014	04:02:26.769	$GPGGA,040227,2506.5183,N,08022.4144,W,1,10,1.4,19,M,,M,,*6C
06/04/2014	04:02:27.793	$GPGGA,040228,2506.5167,N,08022.4156,W,1,10,1.4,19,M,,M,,*6A
06/04/2014	04:02:28.777	$GPGGA,040229,2506.5152,N,08022.4170,W,1,10,1.4,19,M,,M,,*69
06/04/2014	04:02:29.791	$GPGGA,040230,2506.5135,N,08022.4184,W,1,10,1.4,19,M,,M,,*6B
06/04/2014	04:02:30.775	$GPGGA,040231,2506.5118,N,08022.4198,W,1,10,1.4,19,M,,M,,*68
06/04/2014	04:02:31.571	$GPGGA,040232,2506.5102,N,08022.4212,W,1,10,1.4,19,M,,M,,*61
06/04/2014	04:02:32.575	$GPGGA,040233,2506.5087,N,08022.4225,W,1,10,1.4,19,M,,M,,*68
06/04/2014	04:02:33.559	$GPGGA,040234,2506.5069,N,08022.4238,W,1,10,1.4,19,M,,M,,*63
06/04/2014	04:02:34.553	$GPGGA,040235,2506.5053,N,08022.4252,W,1,10,1.4,19,M,,M,,*67
06/04/2014	04:02:35.577	$GPGGA,040236,2506.5037,N,08022.4267,W,1,10,1.4,19,M,,M,,*60
06/04/2014	04:02:36.571	$GPGGA,040237,2506.5020,N,08022.4281,W,1,10,1.4,19,M,,M,,*6F
06/04/2014	04:02:37.545	$GPGGA,040238,2506.5004,N,08022.4295,W,1,10,1.4,19,M,,M,,*63
06/04/2014	04:02:38.570	$GPGGA,040239,2506.4988,N,08022.4308,W,1,10,1.4,19,M,,M,,*6B
06/04/2014	04:02:39.562	$GPGGA,040240,2506.4971,N,08022.4322,W,1,10,1.4,19,M,,M,,*6B
06/04/2014	04:02:40.577	$GPGGA,040241,2506.4955,N,08022.4335,W,1,10,1.4,19,M,,M,,*6A
06/04/2014	04:02:41.560	$GPGGA,040242,2506.4939,N,08022.4350,W,1,10,1.4,19,M,,M,,*60
06/04/2014	04:02:42.564	$GPGGA,040243,2506.4924,N,08022.4364,W,1,10,1.4,19,M,,M,,*6A
06/04/2014	04:02:43.578	$GPGGA,040244,2506.4907,N,08022.4378,W,1,10,1.4,19,M,,M,,*61
06/04/2014	04:02:44.582	$GPGGA,040245,2506.4892,N,08022.4391,W,1,10,1.4,19,M,,M,,*6A
06/04/2014	04:02:45.576	$GPGGA,040246,2506.4875,N,08022.4407,W,1,10,1.4,19,M,,M,,*68
06/04/2014	04:02:46.690	$GPGGA,040247,2506.4859,N,08022.4420,W,1,10,1.4,19,M,,M,,*62
06/04/2014	04:02:47.594	$GPGGA,040248,2506.4843,N,08022.4434,W,1,10,1.4,19,M,,M,,*63
06/04/2014	04:02:48.598	$GPGGA,040249,2506.4827,N,08022.4448,W,1,10,1.4,19,M,,M,,*6B
06/04/2014	04:02:49.592	$GPGGA,040250,2506.4811,N,08022.4462,W,1,10,1.4,19,M,,M,,*6E
06/04/2014	04:02:50.676	$GPGGA,040251,2506.4795,N,08022.4476,W,1,10,1.4,19,M,,M,,*69
06/04/2014	04:02:51.610	$GPGGA,040252,2506.4780,N,08022.4491,W,1,10,1.4,19,M,,M,,*67
06/04/2014	04:02:52.714	$GPGGA,040253,2506.4763,N,08022.4505,W,1,10,1.4,19,M,,M,,*67
06/04/2014	04:02:53.688	$GPGGA,040254,2506.4747,N,08022.4520,W,1,10,1.4,19,M,,M,,*61
06/04/2014	04:02:54.592	$GPGGA,040255,2506.4731,N,08022.4534,W,1,10,1.4,18,M,,M,,*65
06/04/2014	04:02:55.606	$GPGGA,040256,2506.4715,N,08022.4548,W,1,10,1.4,18,M,,M,,*6B
06/04/2014	04:02:56.719	$GPGGA,040257,2506.4698,N,08022.4563,W,1,10,1.4,18,M,,M,,*67
06/04/2014	04:02:57.693	$GPGGA,040258,2506.4683,N,08022.4577,W,1,10,1.4,18,M,,M,,*67
06/04/2014	04:02:58.727	$GPGGA,040259,2506.4668,N,08022.4590,W,1,10,1.4,18,M,,M,,*6A
06/04/2014	04:02:59.711	$GPGGA,040300,2506.4651,N,08022.4606,W,1,10,1.4,18,M,,M,,*61
06/04/2014	04:03:00.715	$GPGGA,040301,2506.4635,N,08022.4620,W,1,10,1.4,18,M,,M,,*66
06/04/2014	04:03:01.699	$GPGGA,040302,2506.4619,N,08022.4633,W,1,10,1.4,18,M,,M,,*69
06/04/2014	04:03:02.723	$GPGGA,040303,2506.4603,N,08022.4647,W,1,10,1.4,18,M,,M,,*60
06/04/2014	04:03:03.727	$GPGGA,040304,2506.4586,N,08022.4661,W,1,10,1.4,18,M,,M,,*6D
06/04/2014	04:03:04.731	$GPGGA,040305,2506.4570,N,08022.4676,W,1,10,1.4,18,M,,M,,*63
06/04/2014	04:03:05.705	$GPGGA,040306,2506.4554,N,08022.4689,W,1,10,1.4,18,M,,M,,*66
06/04/2014	04:03:06.729	$GPGGA,040307,2506.4538,N,08022.4704,W,1,10,1.4,18,M,,M,,*69
06/04/2014	04:03:07.733	$GPGGA,040308,2506.4523,N,08022.4718,W,1,10,1.4,18,M,,M,,*61
06/04/2014	04:03:08.707	$GPGGA,040309,2506.4505,N,08022.4732,W,1,10,1.4,18,M,,M,,*6C
06/04/2014	04:03:09.711	$GPGGA,040310,2506.4489,N,08022.4745,W,1,10,1.4,18,M,,M,,*61
06/04/2014	04:03:10.745	$GPGGA,040311,2506.4473,N,08022.4758,W,1,10,1.4,18,M,,M,,*69
06/04/2014	04:03:11.730	$GPGGA,040312,2506.4456,N,08022.4772,W,1,10,1.4,18,M,,M,,*65
06/04/2014	04:03:12.744	$GPGGA,040313,2506.4440,N,08022.4787,W,1,10,1.4,18,M,,M,,*69
06/04/2014	04:03:13.737	$GPGGA,040314,2506.4423,N,08022.4799,W,1,10,1.4,18,M,,M,,*64
06/04/2014	04:03:14.760	$GPGGA,040315,2506.4408,N,08022.4813,W,1,10,1.4,18,M,,M,,*61
06/04/2014	04:03:15.744	$GPGGA,040316,2506.4391,N,08022.4827,W,1,10,1.4,18,M,,M,,*62
06/04/2014	04:03:16.738	$GPGGA,040317,2506.4375,N,08022.4841,W,1,10,1.4,18,M,,M,,*69
06/04/2014	04:03:17.732	$GPGGA,040318,2506.4357,N,08022.4853,W,1,10,1.4,18,M,,M,,*65
06/04/2014	04:03:18.726	$GPGGA,040319,2506.4341,N,08022.4866,W,1,10,1.4,18,M,,M,,*65
06/04/2014	04:03:19.740	$GPGGA,040320,2506.4324,N,08022.4881,W,1,10,1.4,18,M,,M,,*65
06/04/2014	04:03:20.734	$GPGGA,040321,2506.4308,N,08022.4893,W,1,10,1.4,18,M,,M,,*69
06/04/2014	04:03:21.728	$GPGGA,040322,2506.4292,N,08022.4906,W,1,10,1.4,18,M,,M,,*65
06/04/2014	04:03:22.772	$GPGGA,040323,2506.4275,N,08022.4920,W,1,10,1.4,18,M,,M,,*69
06/04/2014	04:03:23.766	$GPGGA,040324,2506.4258,N,08022.4932,W,1,10,1.4,18,M,,M,,*62
06/04/2014	04:03:24.740	$GPGGA,040325,2506.4241,N,08022.4946,W,1,9,1.5,18,M,,M,,*51
06/04/2014	04:03:25.764	$GPGGA,040326,2506.4225,N,08022.4960,W,1,9,1.4,18,M,,M,,*55
06/04/2014	04:03:26.768	$GPGGA,040327,2506.4209,N,08022.4972,W,1,10,1.4,18,M,,M,,*61
06/04/2014	04:03:27.882	$GPGGA,040328,2506.4192,N,08022.4985,W,1,10,1.4,18,M,,M,,*67
06/04/2014	04:03:28.757	$GPGGA,040329,2506.4176,N,08022.4997,W,1,10,1.4,18,M,,M,,*6F
06/04/2014	04:03:29.760	$GPGGA,040330,2506.4160,N,08022.5011,W,1,10,1.4,18,M,,M,,*66
06/04/2014	04:03:30.775	$GPGGA,040331,2506.4144,N,08022.5023,W,1,10,1.4,18,M,,M,,*60
06/04/2014	04:03:31.530	$GPGGA,040332,2506.4127,N,08022.5036,W,1,10,1.4,18,M,,M,,*62
06/04/2014	04:03:32.543	$GPGGA,040333,2506.4111,N,08022.5050,W,1,10,1.4,18,M,,M,,*66
06/04/2014	04:03:33.517	$GPGGA,040334,2506.4095,N,08022.5062,W,1,10,1.4,18,M,,M,,*6D
06/04/2014	04:03:34.541	$GPGGA,040335,2506.4079,N,08022.5076,W,1,10,1.4,18,M,,M,,*6B
06/04/2014	04:03:35.545	$GPGGA,040336,2506.4063,N,08022.5088,W,1,10,1.4,18,M,,M,,*62
06/04/2014	04:03:36.569	$GPGGA,040337,2506.4047,N,08022.5101,W,1,10,1.4,18,M,,M,,*65
06/04/2014	04:03:37.623	$GPGGA,040338,2506.4032,N,08022.5115,W,1,10,1.4,18,M,,M,,*6D
06/04/2014	04:03:38.557	$GPGGA,040339,2506.4014,N,08022.5127,W,1,10,1.4,18,M,,M,,*69
06/04/2014	04:03:39.641	$GPGGA,040340,2506.3998,N,08022.5141,W,1,10,1.4,18,M,,M,,*6D
06/04/2014	04:03:40.555	$GPGGA,040341,2506.3982,N,08022.5153,W,1,10,1.4,18,M,,M,,*64
06/04/2014	04:03:41.639	$GPGGA,040342,2506.3967,N,08022.5167,W,1,10,1.4,18,M,,M,,*6B
06/04/2014	04:03:42.653	$GPGGA,040343,2506.3950,N,08022.5181,W,1,10,1.4,18,M,,M,,*66
06/04/2014	04:03:43.567	$GPGGA,040344,2506.3933,N,08022.5195,W,1,10,1.4,18,M,,M,,*61
06/04/2014	04:03:44.681	$GPGGA,040345,2506.3917,N,08022.5207,W,1,10,1.4,18,M,,M,,*6E
06/04/2014	04:03:45.550	$GPGGA,040346,2506.3902,N,08022.5221,W,1,10,1.4,18,M,,M,,*6D
06/04/2014	04:03:46.651	$GPGGA,040347,2506.3886,N,08022.5235,W,1,9,1.6,18,M,,M,,*5E
06/04/2014	04:03:47.563	$GPGGA,040348,2506.3870,N,08022.5247,W,1,9,1.6,18,M,,M,,*5D
06/04/2014	04:03:48.567	$GPGGA,040349,2506.3855,N,08022.5261,W,1,9,1.6,18,M,,M,,*5F
06/04/2014	04:03:49.650	$GPGGA,040350,2506.3839,N,08022.5275,W,1,9,1.6,18,M,,M,,*58
06/04/2014	04:03:50.654	$GPGGA,040351,2506.3823,N,08022.5287,W,1,9,1.6,18,M,,M,,*5F
06/04/2014	04:03:51.668	$GPGGA,040352,2506.3808,N,08022.5303,W,1,9,1.6,18,M,,M,,*58
06/04/2014	04:03:52.662	$GPGGA,040353,2506.3791,N,08022.5315,W,1,9,1.6,18,M,,M,,*51
06/04/2014	04:03:53.666	$GPGGA,040354,2506.3774,N,08022.5329,W,1,9,1.6,18,M,,M,,*52
06/04/2014	04:03:54.670	$GPGGA,040355,2506.3759,N,08022.5343,W,1,9,1.6,18,M,,M,,*50
06/04/2014	04:03:55.694	$GPGGA,040356,2506.3743,N,08022.5357,W,1,9,1.6,18,M,,M,,*5D
06/04/2014	04:03:56.698	$GPGGA,040357,2506.3726,N,08022.5370,W,1,9,1.6,18,M,,M,,*5A
06/04/2014	04:03:57.672	$GPGGA,040358,2506.3710,N,08022.5384,W,1,9,1.6,18,M,,M,,*5B
06/04/2014	04:03:58.686	$GPGGA,040359,2506.3694,N,08022.5398,W,1,9,1.6,18,M,,M,,*5A
06/04/2014	04:03:59.690	$GPGGA,040400,2506.3678,N,08022.5412,W,1,9,1.6,18,M,,M,,*56
06/04/2014	04:04:00.694	$GPGGA,040401,2506.3662,N,08022.5426,W,1,9,1.6,18,M,,M,,*5B
06/04/2014	04:04:01.688	$GPGGA,040402,2506.3645,N,08022.5439,W,1,9,1.6,18,M,,M,,*53
06/04/2014	04:04:02.692	$GPGGA,040403,2506.3631,N,08022.5453,W,1,9,1.6,18,M,,M,,*5D
06/04/2014	04:04:03.686	$GPGGA,040404,2506.3613,N,08022.5467,W,1,9,1.6,17,M,,M,,*52
06/04/2014	04:04:04.710	$GPGGA,040405,2506.3597,N,08022.5481,W,1,9,1.6,17,M,,M,,*54
06/04/2014	04:04:05.704	$GPGGA,040406,2506.3581,N,08022.5496,W,1,9,1.6,17,M,,M,,*56
06/04/2014	04:04:06.707	$GPGGA,040407,2506.3566,N,08022.5510,W,1,9,1.6,17,M,,M,,*51
06/04/2014	04:04:07.711	$GPGGA,040408,2506.3549,N,08022.5524,W,1,9,1.6,17,M,,M,,*54
06/04/2014	04:04:08.685	$GPGGA,040409,2506.3532,N,08022.5538,W,1,9,1.6,17,M,,M,,*54
06/04/2014	04:04:09.689	$GPGGA,040410,2506.3516,N,08022.5553,W,1,9,1.6,17,M,,M,,*57
06/04/2014	04:04:10.683	$GPGGA,040411,2506.3501,N,08022.5567,W,1,9,1.6,17,M,,M,,*57
06/04/2014	04:04:11.717	$GPGGA,040412,2506.3484,N,08022.5581,W,1,9,1.6,17,M,,M,,*50
06/04/2014	04:04:12.721	$GPGGA,040413,2506.3468,N,08022.5596,W,1,9,1.6,17,M,,M,,*55
06/04/2014	04:04:13.695	$GPGGA,040414,2506.3452,N,08022.5610,W,1,9,1.6,17,M,,M,,*56
06/04/2014	04:04:14.739	$GPGGA,040415,2506.3436,N,08022.5623,W,1,9,1.6,17,M,,M,,*55
06/04/2014	04:04:15.733	$GPGGA,040416,2506.3419,N,08022.5637,W,1,9,1.6,17,M,,M,,*5E
06/04/2014	04:04:16.717	$GPGGA,040417,2506.3403,N,08022.5651,W,1,9,1.6,17,M,,M,,*54
06/04/2014	04:04:17.711	$GPGGA,040418,2506.3387,N,08022.5665,W,1,9,1.6,17,M,,M,,*57
06/04/2014	04:04:18.705	$GPGGA,040419,2506.3371,N,08022.5679,W,1,9,1.6,17,M,,M,,*52
06/04/2014	04:04:19.739	$GPGGA,040420,2506.3354,N,08022.5694,W,1,9,1.6,17,M,,M,,*5C
06/04/2014	04:04:20.723	$GPGGA,040421,2506.3338,N,08022.5708,W,1,9,1.6,17,M,,M,,*53
06/04/2014	04:04:21.717	$GPGGA,040422,2506.3322,N,08022.5722,W,1,9,1.6,17,M,,M,,*53
06/04/2014	04:04:22.721	$GPGGA,040423,2506.3306,N,08022.5735,W,1,9,1.6,17,M,,M,,*52
06/04/2014	04:04:23.735	$GPGGA,040424,2506.3289,N,08022.5748,W,1,9,1.6,17,M,,M,,*59
06/04/2014	04:04:24.718	$GPGGA,040425,2506.3273,N,08022.5762,W,1,9,1.6,17,M,,M,,*55
06/04/2014	04:04:25.732	$GPGGA,040426,2506.3256,N,08022.5777,W,1,9,1.6,17,M,,M,,*55
06/04/2014	04:04:26.846	$GPGGA,040427,2506.3239,N,08022.5789,W,1,9,1.6,17,M,,M,,*5C
06/04/2014	04:04:27.750	$GPGGA,040428,2506.3223,N,08022.5803,W,1,9,1.6,17,M,,M,,*55
06/04/2014	04:04:28.744	$GPGGA,040429,2506.3206,N,08022.5817,W,1,9,1.6,16,M,,M,,*57
06/04/2014	04:04:29.828	$GPGGA,040430,2506.3190,N,08022.5831,W,1,9,1.6,16,M,,M,,*57
06/04/2014	04:04:30.722	$GPGGA,040431,2506.3173,N,08022.5845,W,1,9,1.6,16,M,,M,,*58
06/04/2014	04:04:31.507	$GPGGA,040432,2506.3158,N,08022.5857,W,1,9,1.6,16,M,,M,,*51
06/04/2014	04:04:32.631	$GPGGA,040433,2506.3140,N,08022.5871,W,1,9,1.6,16,M,,M,,*5D
06/04/2014	04:04:33.595	$GPGGA,040434,2506.3125,N,08022.5885,W,1,9,1.6,16,M,,M,,*52
06/04/2014	04:04:34.639	$GPGGA,040435,2506.3107,N,08022.5897,W,1,9,1.7,16,M,,M,,*51
06/04/2014	04:04:35.523	$GPGGA,040436,2506.3090,N,08022.5910,W,1,9,1.7,16,M,,M,,*53
06/04/2014	04:04:36.527	$GPGGA,040437,2506.3073,N,08022.5923,W,1,9,1.6,16,M,,M,,*5E
06/04/2014	04:04:37.621	$GPGGA,040438,2506.3056,N,08022.5936,W,1,9,1.6,16,M,,M,,*52
06/04/2014	04:04:38.625	$GPGGA,040439,2506.3039,N,08022.5950,W,1,9,1.6,16,M,,M,,*5A
06/04/2014	04:04:39.629	$GPGGA,040440,2506.3022,N,08022.5964,W,1,9,1.7,16,M,,M,,*58
06/04/2014	04:04:40.624	$GPGGA,040441,2506.3007,N,08022.5976,W,1,8,1.6,16,M,,M,,*5D
06/04/2014	04:04:41.606	$GPGGA,040442,2506.2991,N,08022.5990,W,1,8,1.6,16,M,,M,,*51
06/04/2014	04:04:42.630	$GPGGA,040443,2506.2975,N,08022.6002,W,1,9,1.6,16,M,,M,,*5A
06/04/2014	04:04:43.634	$GPGGA,040444,2506.2959,N,08022.6016,W,1,9,1.6,16,M,,M,,*56
06/04/2014	04:04:44.648	$GPGGA,040445,2506.2942,N,08022.6030,W,1,9,1.6,16,M,,M,,*59
06/04/2014	04:04:45.622	$GPGGA,040446,2506.2925,N,08022.6042,W,1,9,1.6,16,M,,M,,*5E
06/04/2014	04:04:46.656	$GPGGA,040447,2506.2909,N,08022.6055,W,1,9,1.6,16,M,,M,,*57
06/04/2014	04:04:47.640	$GPGGA,040448,2506.2892,N,08022.6069,W,1,9,1.6,16,M,,M,,*54
06/04/2014	04:04:48.634	$GPGGA,040449,2506.2876,N,08022.6082,W,1,9,1.6,16,M,,M,,*5A
06/04/2014	04:04:49.638	$GPGGA,040450,2506.2859,N,08022.6095,W,1,9,1.6,16,M,,M,,*59
06/04/2014	04:04:50.663	$GPGGA,040451,2506.2842,N,08022.6109,W,1,9,1.6,16,M,,M,,*56
06/04/2014	04:04:51.646	$GPGGA,040452,2506.2826,N,08022.6121,W,1,9,1.6,16,M,,M,,*5D
06/04/2014	04:04:52.660	$GPGGA,040453,2506.2811,N,08022.6134,W,1,9,1.6,16,M,,M,,*5C
06/04/2014	04:04:53.644	$GPGGA,040454,2506.2793,N,08022.6149,W,1,9,1.6,16,M,,M,,*54
06/04/2014	04:04:54.658	$GPGGA,040455,2506.2776,N,08022.6161,W,1,9,1.6,16,M,,M,,*54
06/04/2014	04:04:55.652	$GPGGA,040456,2506.2760,N,08022.6175,W,1,9,1.6,16,M,,M,,*55
06/04/2014	04:04:56.646	$GPGGA,040457,2506.2743,N,08022.6189,W,1,9,1.6,16,M,,M,,*56
06/04/2014	04:04:57.660	$GPGGA,040458,2506.2728,N,08022.6203,W,1,9,1.6,16,M,,M,,*55
06/04/2014	04:04:58.684	$GPGGA,040459,2506.2711,N,08022.6215,W,1,9,1.6,16,M,,M,,*59
06/04/2014	04:04:59.677	$GPGGA,040500,2506.2695,N,08022.6229,W,1,9,1.6,16,M,,M,,*56
06/04/2014	04:05:00.681	$GPGGA,040501,2506.2678,N,08022.6243,W,1,9,1.6,16,M,,M,,*58
06/04/2014	04:05:01.656	$GPGGA,040502,2506.2661,N,08022.6257,W,1,9,1.6,16,M,,M,,*56
06/04/2014	04:05:02.689	$GPGGA,040503,2506.2645,N,08022.6269,W,1,9,1.6,16,M,,M,,*5C
06/04/2014	04:05:03.673	$GPGGA,040504,2506.2630,N,08022.6283,W,1,9,1.6,16,M,,M,,*5D
06/04/2014	04:05:04.697	$GPGGA,040505,2506.2613,N,08022.6297,W,1,9,1.6,16,M,,M,,*58
06/04/2014	04:05:05.651	$GPGGA,040506,2506.2598,N,08022.6311,W,1,9,1.6,16,M,,M,,*54
06/04/2014	04:05:06.705	$GPGGA,040507,2506.2581,N,08022.6323,W,1,9,1.6,16,M,,M,,*5C
06/04/2014	04:05:07.679	$GPGGA,040508,2506.2565,N,08022.6337,W,1,9,1.6,16,M,,M,,*5C
06/04/2014	04:05:08.703	$GPGGA,040509,2506.2551,N,08022.6351,W,1,9,1.6,16,M,,M,,*5A
06/04/2014	04:05:09.687	$GPGGA,040510,2506.2534,N,08022.6366,W,1,9,1.6,16,M,,M,,*55
06/04/2014	04:05:10.691	$GPGGA,040511,2506.2518,N,08022.6380,W,1,9,1.6,16,M,,M,,*52
06/04/2014	04:05:11.705	$GPGGA,040512,2506.2501,N,08022.6394,W,1,9,1.6,16,M,,M,,*5C
06/04/2014	04:05:12.700	$GPGGA,040513,2506.2486,N,08022.6407,W,1,9,1.6,16,M,,M,,*5E
06/04/2014	04:05:13.673	$GPGGA,040514,2506.2471,N,08022.6420,W,1,9,1.6,16,M,,M,,*54
06/04/2014	04:05:14.707	$GPGGA,040515,2506.2454,N,08022.6434,W,1,9,1.6,16,M,,M,,*57
06/04/2014	04:05:15.701	$GPGGA,040516,2506.2437,N,08022.6449,W,1,9,1.6,16,M,,M,,*5B
06/04/2014	04:05:16.714	$GPGGA,040517,2506.2422,N,08022.6463,W,1,9,1.6,16,M,,M,,*56
06/04/2014	04:05:17.698	$GPGGA,040518,2506.2406,N,08022.6477,W,1,9,1.6,16,M,,M,,*5A
06/04/2014	04:05:18.682	$GPGGA,040519,2506.2390,N,08022.6490,W,1,9,1.6,16,M,,M,,*5A
06/04/2014	04:05:19.816	$GPGGA,040520,2506.2375,N,08022.6504,W,1,9,1.6,16,M,,M,,*57
06/04/2014	04:05:20.720	$GPGGA,040521,2506.2360,N,08022.6518,W,1,8,1.6,16,M,,M,,*5E
06/04/2014	04:05:21.714	$GPGGA,040522,2506.2345,N,08022.6532,W,1,8,1.6,16,M,,M,,*52
06/04/2014	04:05:22.798	$GPGGA,040523,2506.2328,N,08022.6547,W,1,9,1.6,16,M,,M,,*5B
06/04/2014	04:05:23.732	$GPGGA,040524,2506.2313,N,08022.6561,W,1,9,1.6,16,M,,M,,*50
06/04/2014	04:05:24.786	$GPGGA,040525,2506.2298,N,08022.6575,W,1,9,1.6,16,M,,M,,*56
06/04/2014	04:05:25.790	$GPGGA,040526,2506.2283,N,08022.6590,W,1,9,1.6,16,M,,M,,*54
06/04/2014	04:05:26.814	$GPGGA,040527,2506.2269,N,08022.6604,W,1,9,1.6,16,M,,M,,*5F
06/04/2014	04:05:27.818	$GPGGA,040528,2506.2252,N,08022.6618,W,1,9,1.6,16,M,,M,,*55
06/04/2014	04:05:28.722	$GPGGA,040529,2506.2237,N,08022.6631,W,1,9,1.6,16,M,,M,,*5C
06/04/2014	04:05:29.816	$GPGGA,040530,2506.2222,N,08022.6645,W,1,9,1.6,16,M,,M,,*53
06/04/2014	04:05:30.840	$GPGGA,040531,2506.2207,N,08022.6660,W,1,9,1.6,16,M,,M,,*52
06/04/2014	04:05:31.586	$GPGGA,040532,2506.2191,N,08022.6674,W,1,9,1.6,16,M,,M,,*58
06/04/2014	04:05:32.600	$GPGGA,040533,2506.2176,N,08022.6688,W,1,9,1.6,16,M,,M,,*53
06/04/2014	04:05:33.585	$GPGGA,040534,2506.2160,N,08022.6702,W,1,9,1.6,16,M,,M,,*50
06/04/2014	04:05:34.592	$GPGGA,040535,2506.2144,N,08022.6716,W,1,9,1.6,16,M,,M,,*52
06/04/2014	04:05:35.591	$GPGGA,040536,2506.2129,N,08022.6730,W,1,9,1.6,16,M,,M,,*5E
06/04/2014	04:05:36.615	$GPGGA,040537,2506.2112,N,08022.6745,W,1,9,1.6,15,M,,M,,*56
06/04/2014	04:05:37.599	$GPGGA,040538,2506.2096,N,08022.6759,W,1,9,1.6,15,M,,M,,*59
06/04/2014	04:05:38.603	$GPGGA,040539,2506.2081,N,08022.6772,W,1,9,1.6,15,M,,M,,*57
06/04/2014	04:05:39.607	$GPGGA,040540,2506.2064,N,08022.6786,W,1,9,1.6,15,M,,M,,*59
06/04/2014	04:05:40.611	$GPGGA,040541,2506.2047,N,08022.6799,W,1,9,1.6,15,M,,M,,*57
06/04/2014	04:05:41.595	$GPGGA,040542,2506.2031,N,08022.6814,W,1,9,1.6,15,M,,M,,*5F
06/04/2014	04:05:42.589	$GPGGA,040543,2506.2014,N,08022.6826,W,1,9,1.6,15,M,,M,,*58
06/04/2014	04:05:43.614	$GPGGA,040544,2506.1998,N,08022.6840,W,1,9,1.6,15,M,,M,,*51
06/04/2014	04:05:44.627	$GPGGA,040545,2506.1982,N,08022.6853,W,1,9,1.6,15,M,,M,,*59
06/04/2014	04:05:45.591	$GPGGA,040546,2506.1966,N,08022.6868,W,1,9,1.6,15,M,,M,,*58
06/04/2014	04:05:46.615	$GPGGA,040547,2506.1949,N,08022.6880,W,1,9,1.6,15,M,,M,,*52
06/04/2014	04:05:47.619	$GPGGA,040548,2506.1933,N,08022.6894,W,1,9,1.6,15,M,,M,,*55
06/04/2014	04:05:48.623	$GPGGA,040549,2506.1917,N,08022.6908,W,1,9,1.6,15,M,,M,,*56
06/04/2014	04:05:49.617	$GPGGA,040550,2506.1899,N,08022.6922,W,1,9,1.6,15,M,,M,,*51
06/04/2014	04:05:50.601	$GPGGA,040551,2506.1883,N,08022.6934,W,1,9,1.6,15,M,,M,,*5C
06/04/2014	04:05:51.624	$GPGGA,040552,2506.1866,N,08022.6948,W,1,9,1.6,15,M,,M,,*5F
06/04/2014	04:05:52.648	$GPGGA,040553,2506.1850,N,08022.6962,W,1,9,1.6,15,M,,M,,*53
06/04/2014	04:05:53.612	$GPGGA,040554,2506.1832,N,08022.6974,W,1,9,1.6,15,M,,M,,*57
06/04/2014	04:05:54.646	$GPGGA,040555,2506.1815,N,08022.6987,W,1,9,1.6,15,M,,M,,*5F
06/04/2014	04:05:55.640	$GPGGA,040556,2506.1799,N,08022.7001,W,1,9,1.6,15,M,,M,,*51
06/04/2014	04:05:56.654	$GPGGA,040557,2506.1782,N,08022.7013,W,1,9,1.6,15,M,,M,,*59
06/04/2014	04:05:57.618	$GPGGA,040558,2506.1767,N,08022.7027,W,1,9,1.6,15,M,,M,,*5A
06/04/2014	04:05:58.632	$GPGGA,040559,2506.1749,N,08022.7041,W,1,9,1.6,15,M,,M,,*57
06/04/2014	04:05:59.766	$GPGGA,040600,2506.1731,N,08022.7053,W,1,9,1.6,15,M,,M,,*54
06/04/2014	04:06:00.620	$GPGGA,040601,2506.1716,N,08022.7066,W,1,9,1.6,15,M,,M,,*56
06/04/2014	04:06:01.724	$GPGGA,040602,2506.1699,N,08022.7079,W,1,9,1.6,15,M,,M,,*5D
06/04/2014	04:06:02.648	$GPGGA,040603,2506.1682,N,08022.7092,W,1,9,1.6,15,M,,M,,*53
06/04/2014	04:06:03.652	$GPGGA,040604,2506.1666,N,08022.7106,W,1,9,1.6,15,M,,M,,*52
06/04/2014	04:06:04.676	$GPGGA,040605,2506.1649,N,08022.7118,W,1,9,1.6,15,M,,M,,*51
06/04/2014	04:06:05.640	$GPGGA,040606,2506.1633,N,08022.7132,W,1,9,1.6,15,M,,M,,*57
06/04/2014	04:06:06.754	$GPGGA,040607,2506.1616,N,08022.7144,W,1,9,1.6,15,M,,M,,*50
06/04/2014	04:06:07.767	$GPGGA,040608,2506.1600,N,08022.7157,W,1,9,1.6,15,M,,M,,*5A
06/04/2014	04:06:08.770	$GPGGA,040609,2506.1583,N,08022.7171,W,1,9,1.6,15,M,,M,,*57
06/04/2014	04:06:09.762	$GPGGA,040610,2506.1568,N,08022.7183,W,1,9,1.6,15,M,,M,,*57
06/04/2014	04:06:10.765	$GPGGA,040611,2506.1550,N,08022.7197,W,1,9,1.6,15,M,,M,,*58
06/04/2014	04:06:11.668	$GPGGA,040612,2506.1534,N,08022.7211,W,1,9,1.6,15,M,,M,,*54
06/04/2014	04:06:12.744	$GPGGA,040613,2506.1518,N,08022.7225,W,1,9,1.6,15,M,,M,,*5C
06/04/2014	04:06:13.764	$GPGGA,040614,2506.1501,N,08022.7236,W,1,9,1.6,15,M,,M,,*51
06/04/2014	04:06:14.738	$GPGGA,040615,2506.1485,N,08022.7251,W,1,9,1.6,15,M,,M,,*5C
06/04/2014	04:06:15.670	$GPGGA,040616,2506.1469,N,08022.7265,W,1,9,1.6,15,M,,M,,*5A
06/04/2014	04:06:16.744	$GPGGA,040617,2506.1452,N,08022.7276,W,1,9,1.6,15,M,,M,,*51
06/04/2014	04:06:17.747	$GPGGA,040618,2506.1436,N,08022.7290,W,1,9,1.6,15,M,,M,,*54
06/04/2014	04:06:18.760	$GPGGA,040619,2506.1420,N,08022.7305,W,1,9,1.6,15,M,,M,,*5F
06/04/2014	04:06:20.214	$GPGGA,040620,2506.1403,N,08022.7319,W,1,9,1.6,16,M,,M,,*5A
06/04/2014	04:06:20.766	$GPGGA,040621,2506.1387,N,08022.7331,W,1,9,1.6,16,M,,M,,*5A
06/04/2014	04:06:21.759	$GPGGA,040622,2506.1371,N,08022.7345,W,1,9,1.6,16,M,,M,,*53
06/04/2014	04:06:22.766	$GPGGA,040623,2506.1355,N,08022.7359,W,1,9,1.6,16,M,,M,,*59
06/04/2014	04:06:23.775	$GPGGA,040624,2506.1338,N,08022.7373,W,1,9,1.6,16,M,,M,,*5D
06/04/2014	04:06:24.783	$GPGGA,040625,2506.1322,N,08022.7386,W,1,9,1.6,16,M,,M,,*5D
06/04/2014	04:06:25.752	$GPGGA,040626,2506.1306,N,08022.7400,W,1,9,1.6,16,M,,M,,*51
06/04/2014	04:06:26.784	$GPGGA,040627,2506.1290,N,08022.7413,W,1,9,1.6,16,M,,M,,*5C
06/04/2014	04:06:27.777	$GPGGA,040628,2506.1273,N,08022.7428,W,1,9,1.6,16,M,,M,,*56
06/04/2014	04:06:28.770	$GPGGA,040629,2506.1257,N,08022.7442,W,1,9,1.6,16,M,,M,,*5D
06/04/2014	04:06:29.773	$GPGGA,040630,2506.1241,N,08022.7456,W,1,9,1.6,16,M,,M,,*57
06/04/2014	04:06:30.786	$GPGGA,040631,2506.1225,N,08022.7468,W,1,9,1.6,16,M,,M,,*59
06/04/2014	04:06:31.563	$GPGGA,040632,2506.1209,N,08022.7482,W,1,9,1.6,16,M,,M,,*50
06/04/2014	04:06:32.546	$GPGGA,040633,2506.1193,N,08022.7496,W,1,9,1.6,16,M,,M,,*54
06/04/2014	04:06:33.549	$GPGGA,040634,2506.1178,N,08022.7511,W,1,9,1.6,16,M,,M,,*58
06/04/2014	04:06:34.542	$GPGGA,040635,2506.1161,N,08022.7523,W,1,9,1.6,16,M,,M,,*50
06/04/2014	04:06:35.566	$GPGGA,040636,2506.1144,N,08022.7537,W,1,9,1.6,16,M,,M,,*51
06/04/2014	04:06:36.579	$GPGGA,040637,2506.1129,N,08022.7551,W,1,9,1.6,16,M,,M,,*5B
06/04/2014	04:06:37.552	$GPGGA,040638,2506.1113,N,08022.7565,W,1,9,1.6,16,M,,M,,*5A
06/04/2014	04:06:38.597	$GPGGA,040639,2506.1097,N,08022.7579,W,1,9,1.6,16,M,,M,,*5B
06/04/2014	04:06:40.049	$GPGGA,040640,2506.1080,N,08022.7594,W,1,9,1.6,16,M,,M,,*50
06/04/2014	04:06:40.551	$GPGGA,040641,2506.1066,N,08022.7608,W,1,9,1.6,16,M,,M,,*5F
06/04/2014	04:06:41.554	$GPGGA,040642,2506.1049,N,08022.7623,W,1,9,1.6,16,M,,M,,*58
06/04/2014	04:06:42.587	$GPGGA,040643,2506.1033,N,08022.7637,W,1,9,1.6,16,M,,M,,*51
06/04/2014	04:06:43.580	$GPGGA,040644,2506.1017,N,08022.7650,W,1,9,1.6,16,M,,M,,*51
06/04/2014	04:06:44.562	$GPGGA,040645,2506.1001,N,08022.7664,W,1,9,1.6,16,M,,M,,*50
06/04/2014	04:06:45.555	$GPGGA,040646,2506.0985,N,08022.7678,W,1,9,1.6,16,M,,M,,*5A
06/04/2014	04:06:46.558	$GPGGA,040647,2506.0969,N,08022.7692,W,1,9,1.6,16,M,,M,,*5D
06/04/2014	04:06:47.582	$GPGGA,040648,2506.0954,N,08022.7706,W,1,9,1.6,16,M,,M,,*50
06/04/2014	04:06:48.585	$GPGGA,040649,2506.0937,N,08022.7720,W,1,9,1.6,16,M,,M,,*50
06/04/2014	04:06:49.568	$GPGGA,040650,2506.0921,N,08022.7735,W,1,9,1.6,16,M,,M,,*5B
06/04/2014	04:06:50.591	$GPGGA,040651,2506.0904,N,08022.7747,W,1,9,1.6,16,M,,M,,*58
06/04/2014	04:06:51.594	$GPGGA,040652,2506.0889,N,08022.7762,W,1,9,1.6,16,M,,M,,*58
06/04/2014	04:06:52.577	$GPGGA,040653,2506.0871,N,08022.7775,W,1,9,1.6,16,M,,M,,*58
06/04/2014	04:06:53.560	$GPGGA,040654,2506.0855,N,08022.7789,W,1,9,1.6,16,M,,M,,*5A
06/04/2014	04:06:54.583	$GPGGA,040655,2506.0839,N,08022.7803,W,1,9,1.6,16,M,,M,,*5C
06/04/2014	04:06:55.586	$GPGGA,040656,2506.0824,N,08022.7818,W,1,9,1.6,16,M,,M,,*59
06/04/2014	04:06:56.589	$GPGGA,040657,2506.0806,N,08022.7832,W,1,9,1.6,16,M,,M,,*50
06/04/2014	04:06:57.572	$GPGGA,040658,2506.0789,N,08022.7845,W,1,9,1.6,16,M,,M,,*57
06/04/2014	04:06:58.706	$GPGGA,040659,2506.0773,N,08022.7858,W,1,9,1.6,16,M,,M,,*5F
06/04/2014	04:06:59.609	$GPGGA,040700,2506.0757,N,08022.7872,W,1,9,1.6,16,M,,M,,*5C
06/04/2014	04:07:00.673	$GPGGA,040701,2506.0741,N,08022.7886,W,1,9,1.6,16,M,,M,,*51
06/04/2014	04:07:01.584	$GPGGA,040702,2506.0723,N,08022.7898,W,1,9,1.6,16,M,,M,,*59
06/04/2014	04:07:02.687	$GPGGA,040703,2506.0708,N,08022.7912,W,1,9,1.6,16,M,,M,,*52
06/04/2014	04:07:03.600	$GPGGA,040704,2506.0690,N,08022.7926,W,1,9,1.6,16,M,,M,,*52
06/04/2014	04:07:04.714	$GPGGA,040705,2506.0673,N,08022.7938,W,1,9,1.6,16,M,,M,,*51
06/04/2014	04:07:05.678	$GPGGA,040706,2506.0658,N,08022.7952,W,1,9,1.6,16,M,,M,,*57
06/04/2014	04:07:06.682	$GPGGA,040707,2506.0640,N,08022.7964,W,1,9,1.6,16,M,,M,,*5A
06/04/2014	04:07:07.703	$GPGGA,040708,2506.0625,N,08022.7978,W,1,9,1.7,16,M,,M,,*5A
06/04/2014	04:07:08.706	$GPGGA,040709,2506.0609,N,08022.7991,W,1,9,1.6,16,M,,M,,*53
06/04/2014	04:07:09.699	$GPGGA,040710,2506.0593,N,08022.8004,W,1,9,1.6,16,M,,M,,*51
06/04/2014	04:07:10.702	$GPGGA,040711,2506.0576,N,08022.8017,W,1,9,1.6,16,M,,M,,*59
06/04/2014	04:07:11.707	$GPGGA,040712,2506.0560,N,08022.8031,W,1,9,1.6,16,M,,M,,*59
06/04/2014	04:07:12.708	$GPGGA,040713,2506.0544,N,08022.8045,W,1,9,1.6,16,M,,M,,*5D
06/04/2014	04:07:13.691	$GPGGA,040714,2506.0528,N,08022.8057,W,1,9,1.6,16,M,,M,,*53
06/04/2014	04:07:14.705	$GPGGA,040715,2506.0513,N,08022.8071,W,1,9,1.6,16,M,,M,,*5E
06/04/2014	04:07:15.709	$GPGGA,040716,2506.0497,N,08022.8083,W,1,9,1.6,16,M,,M,,*5D
06/04/2014	04:07:16.701	$GPGGA,040717,2506.0481,N,08022.8097,W,1,9,1.6,16,M,,M,,*5E
06/04/2014	04:07:17.684	$GPGGA,040718,2506.0464,N,08022.8111,W,1,9,1.6,16,M,,M,,*55
06/04/2014	04:07:18.718	$GPGGA,040719,2506.0448,N,08022.8123,W,1,9,1.6,16,M,,M,,*5B
06/04/2014	04:07:19.709	$GPGGA,040720,2506.0432,N,08022.8136,W,1,9,1.6,16,M,,M,,*58
06/04/2014	04:07:20.722	$GPGGA,040721,2506.0416,N,08022.8150,W,1,9,1.6,16,M,,M,,*5F
06/04/2014	04:07:21.695	$GPGGA,040722,2506.0401,N,08022.8162,W,1,9,1.6,16,M,,M,,*5B
06/04/2014	04:07:22.718	$GPGGA,040723,2506.0384,N,08022.8176,W,1,9,1.6,16,M,,M,,*55
06/04/2014	04:07:23.721	$GPGGA,040724,2506.0368,N,08022.8188,W,1,9,1.6,16,M,,M,,*51
06/04/2014	04:07:24.724	$GPGGA,040725,2506.0351,N,08022.8201,W,1,9,1.6,16,M,,M,,*58
06/04/2014	04:07:25.697	$GPGGA,040726,2506.0336,N,08022.8215,W,1,9,1.6,16,M,,M,,*5F
06/04/2014	04:07:26.731	$GPGGA,040727,2506.0319,N,08022.8228,W,1,9,1.6,16,M,,M,,*5D
06/04/2014	04:07:27.724	$GPGGA,040728,2506.0303,N,08022.8241,W,1,9,1.6,16,M,,M,,*56
06/04/2014	04:07:28.707	$GPGGA,040729,2506.0287,N,08022.8255,W,1,9,1.6,16,M,,M,,*5F
06/04/2014	04:07:29.710	$GPGGA,040730,2506.0271,N,08022.8269,W,1,9,1.6,16,M,,M,,*51
06/04/2014	04:07:30.703	$GPGGA,040731,2506.0254,N,08022.8281,W,1,9,1.6,16,M,,M,,*51
06/04/2014	04:07:31.531	$GPGGA,040732,2506.0238,N,08022.8295,W,1,9,1.6,16,M,,M,,*5D
06/04/2014	04:07:32.564	$GPGGA,040733,2506.0222,N,08022.8309,W,1,9,1.6,16,M,,M,,*53
06/04/2014	04:07:33.517	$GPGGA,040734,2506.0206,N,08022.8322,W,1,9,1.6,16,M,,M,,*5B
06/04/2014	04:07:34.540	$GPGGA,040735,2506.0190,N,08022.8336,W,1,9,1.6,16,M,,M,,*53
06/04/2014	04:07:35.533	$GPGGA,040736,2506.0174,N,08022.8349,W,1,9,1.6,16,M,,M,,*52
06/04/2014	04:07:36.525	$GPGGA,040737,2506.0157,N,08022.8363,W,1,9,1.6,16,M,,M,,*5A
06/04/2014	04:07:37.529	$GPGGA,040738,2506.0141,N,08022.8378,W,1,9,1.6,16,M,,M,,*58
06/04/2014	04:07:38.552	$GPGGA,040739,2506.0125,N,08022.8392,W,1,9,1.6,16,M,,M,,*5F
06/04/2014	04:07:39.565	$GPGGA,040740,2506.0109,N,08022.8404,W,1,9,1.6,16,M,,M,,*57
06/04/2014	04:07:40.548	$GPGGA,040741,2506.0094,N,08022.8418,W,1,9,1.6,16,M,,M,,*5E
06/04/2014	04:07:41.531	$GPGGA,040742,2506.0077,N,08022.8432,W,1,9,1.6,16,M,,M,,*58
06/04/2014	04:07:42.544	$GPGGA,040743,2506.0061,N,08022.8447,W,1,9,1.6,16,M,,M,,*5C
06/04/2014	04:07:43.708	$GPGGA,040744,2506.0045,N,08022.8461,W,1,9,1.6,16,M,,M,,*59
06/04/2014	04:07:44.661	$GPGGA,040745,2506.0029,N,08022.8475,W,1,9,1.6,16,M,,M,,*57
06/04/2014	04:07:45.634	$GPGGA,040746,2506.0012,N,08022.8488,W,1,9,1.6,16,M,,M,,*5E
06/04/2014	04:07:46.556	$GPGGA,040747,2505.9996,N,08022.8502,W,1,9,1.6,16,M,,M,,*53
06/04/2014	04:07:47.650	$GPGGA,040748,2505.9980,N,08022.8517,W,1,9,1.6,15,M,,M,,*5C
06/04/2014	04:07:48.553	$GPGGA,040749,2505.9964,N,08022.8530,W,1,9,1.6,15,M,,M,,*52
06/04/2014	04:07:49.536	$GPGGA,040750,2505.9949,N,08022.8544,W,1,9,1.6,15,M,,M,,*56
06/04/2014	04:07:50.699	$GPGGA,040751,2505.9932,N,08022.8559,W,1,9,1.6,15,M,,M,,*57
06/04/2014	04:07:51.713	$GPGGA,040752,2505.9917,N,08022.8573,W,1,9,1.6,15,M,,M,,*5B
06/04/2014	04:07:52.695	$GPGGA,040753,2505.9900,N,08022.8587,W,1,9,1.6,15,M,,M,,*57
06/04/2014	04:07:53.719	$GPGGA,040754,2505.9884,N,08022.8602,W,1,9,1.6,15,M,,M,,*53
06/04/2014	04:07:54.671	$GPGGA,040755,2505.9868,N,08022.8616,W,1,9,1.6,15,M,,M,,*55
06/04/2014	04:07:55.654	$GPGGA,040756,2505.9852,N,08022.8629,W,1,9,1.6,15,M,,M,,*53
06/04/2014	04:07:56.707	$GPGGA,040757,2505.9836,N,08022.8643,W,1,9,1.6,15,M,,M,,*5C
06/04/2014	04:07:57.640	$GPGGA,040758,2505.9819,N,08022.8657,W,1,9,1.6,15,M,,M,,*5B
06/04/2014	04:07:58.673	$GPGGA,040759,2505.9803,N,08022.8671,W,1,9,1.6,15,M,,M,,*55
06/04/2014	04:07:59.746	$GPGGA,040800,2505.9787,N,08022.8685,W,1,9,1.6,15,M,,M,,*5E
06/04/2014	04:08:00.689	$GPGGA,040801,2505.9770,N,08022.8699,W,1,9,1.6,15,M,,M,,*5A
06/04/2014	04:08:01.722	$GPGGA,040802,2505.9754,N,08022.8712,W,1,9,1.6,15,M,,M,,*5D
06/04/2014	04:08:02.705	$GPGGA,040803,2505.9738,N,08022.8725,W,1,9,1.6,15,M,,M,,*52
06/04/2014	04:08:03.658	$GPGGA,040804,2505.9722,N,08022.8739,W,1,9,1.6,15,M,,M,,*53
06/04/2014	04:08:04.702	$GPGGA,040805,2505.9705,N,08022.8753,W,1,9,1.6,14,M,,M,,*5A
06/04/2014	04:08:05.705	$GPGGA,040806,2505.9688,N,08022.8766,W,1,9,1.6,14,M,,M,,*5B
06/04/2014	04:08:06.698	$GPGGA,040807,2505.9672,N,08022.8779,W,1,9,1.6,14,M,,M,,*51
06/04/2014	04:08:07.671	$GPGGA,040808,2505.9657,N,08022.8793,W,1,9,1.6,14,M,,M,,*5D
06/04/2014	04:08:08.699	$GPGGA,040809,2505.9639,N,08022.8806,W,1,9,1.6,14,M,,M,,*57
06/04/2014	04:08:09.727	$GPGGA,040810,2505.9623,N,08022.8819,W,1,9,1.6,14,M,,M,,*5A
06/04/2014	04:08:10.700	$GPGGA,040811,2505.9606,N,08022.8833,W,1,9,1.6,14,M,,M,,*54
06/04/2014	04:08:11.742	$GPGGA,040812,2505.9590,N,08022.8847,W,1,9,1.6,14,M,,M,,*58
06/04/2014	04:08:12.725	$GPGGA,040813,2505.9574,N,08022.8859,W,1,9,1.6,14,M,,M,,*5C
06/04/2014	04:08:13.728	$GPGGA,040814,2505.9557,N,08022.8873,W,1,9,1.6,14,M,,M,,*52
06/04/2014	04:08:14.701	$GPGGA,040815,2505.9540,N,08022.8885,W,1,9,1.6,14,M,,M,,*5C
06/04/2014	04:08:15.734	$GPGGA,040816,2505.9524,N,08022.8899,W,1,9,1.6,14,M,,M,,*50
06/04/2014	04:08:16.666	$GPGGA,040817,2505.9507,N,08022.8912,W,1,9,1.6,14,M,,M,,*52
06/04/2014	04:08:17.659	$GPGGA,040818,2505.9491,N,08022.8925,W,1,9,1.6,14,M,,M,,*57
06/04/2014	04:08:18.692	$GPGGA,040819,2505.9474,N,08022.8938,W,1,9,1.6,14,M,,M,,*51
06/04/2014	04:08:19.735	$GPGGA,040820,2505.9458,N,08022.8952,W,1,9,1.6,14,M,,M,,*59
06/04/2014	04:08:20.728	$GPGGA,040821,2505.9441,N,08022.8963,W,1,9,1.6,14,M,,M,,*52
06/04/2014	04:08:21.721	$GPGGA,040822,2505.9426,N,08022.8977,W,1,9,1.6,14,M,,M,,*55
06/04/2014	04:08:22.664	$GPGGA,040823,2505.9408,N,08022.8990,W,1,9,1.6,14,M,,M,,*51
06/04/2014	04:08:23.747	$GPGGA,040824,2505.9393,N,08022.9003,W,1,9,1.6,14,M,,M,,*51
06/04/2014	04:08:24.689	$GPGGA,040825,2505.9376,N,08022.9017,W,1,9,1.6,14,M,,M,,*5E
06/04/2014	04:08:25.773	$GPGGA,040826,2505.9359,N,08022.9029,W,1,9,1.6,14,M,,M,,*5D
06/04/2014	04:08:26.735	$GPGGA,040827,2505.9343,N,08022.9043,W,1,9,1.6,14,M,,M,,*5B
06/04/2014	04:08:27.751	$GPGGA,040828,2505.9328,N,08022.9055,W,1,9,1.5,14,M,,M,,*5D
06/04/2014	04:08:28.671	$GPGGA,040829,2505.9310,N,08022.9068,W,1,9,1.5,14,M,,M,,*59
06/04/2014	04:08:29.743	$GPGGA,040830,2505.9294,N,08022.9082,W,1,9,1.5,13,M,,M,,*5F
06/04/2014	04:08:30.786	$GPGGA,040831,2505.9278,N,08022.9093,W,1,9,1.5,13,M,,M,,*5C
06/04/2014	04:08:31.579	$GPGGA,040832,2505.9263,N,08022.9107,W,1,9,1.5,13,M,,M,,*59
06/04/2014	04:08:32.622	$GPGGA,040833,2505.9246,N,08022.9119,W,1,9,1.5,14,M,,M,,*57
06/04/2014	04:08:33.555	$GPGGA,040834,2505.9231,N,08022.9133,W,1,9,1.5,14,M,,M,,*58
06/04/2014	04:08:34.558	$GPGGA,040835,2505.9214,N,08022.9145,W,1,9,1.5,14,M,,M,,*5F
06/04/2014	04:08:35.631	$GPGGA,040836,2505.9198,N,08022.9158,W,1,9,1.5,14,M,,M,,*57
06/04/2014	04:08:36.604	$GPGGA,040837,2505.9182,N,08022.9173,W,1,9,1.5,14,M,,M,,*54
06/04/2014	04:08:37.566	$GPGGA,040838,2505.9166,N,08022.9185,W,1,9,1.5,14,M,,M,,*58
06/04/2014	04:08:38.639	$GPGGA,040839,2505.9151,N,08022.9198,W,1,9,1.5,14,M,,M,,*51
06/04/2014	04:08:39.612	$GPGGA,040840,2505.9134,N,08022.9212,W,1,9,1.5,14,M,,M,,*5D
06/04/2014	04:08:40.645	$GPGGA,040841,2505.9117,N,08022.9225,W,1,9,1.6,14,M,,M,,*5A
06/04/2014	04:08:41.610	$GPGGA,040842,2505.9102,N,08022.9238,W,1,9,1.5,14,M,,M,,*52
06/04/2014	04:08:42.621	$GPGGA,040843,2505.9087,N,08022.9250,W,1,9,1.5,14,M,,M,,*51
06/04/2014	04:08:43.620	$GPGGA,040844,2505.9072,N,08022.9264,W,1,9,1.5,14,M,,M,,*5B
06/04/2014	04:08:44.627	$GPGGA,040845,2505.9057,N,08022.9277,W,1,9,1.5,14,M,,M,,*5F
06/04/2014	04:08:45.600	$GPGGA,040846,2505.9041,N,08022.9290,W,1,9,1.5,14,M,,M,,*52
06/04/2014	04:08:46.632	$GPGGA,040847,2505.9025,N,08022.9304,W,1,10,1.5,15,M,,M,,*64
06/04/2014	04:08:47.624	$GPGGA,040848,2505.9010,N,08022.9318,W,1,10,1.5,15,M,,M,,*60
06/04/2014	04:08:48.667	$GPGGA,040849,2505.8994,N,08022.9332,W,1,10,1.5,15,M,,M,,*6D
06/04/2014	04:08:49.610	$GPGGA,040850,2505.8978,N,08022.9346,W,1,10,1.5,15,M,,M,,*64
06/04/2014	04:08:50.641	$GPGGA,040851,2505.8962,N,08022.9360,W,1,10,1.5,15,M,,M,,*6A
06/04/2014	04:08:51.656	$GPGGA,040852,2505.8946,N,08022.9372,W,1,10,1.5,15,M,,M,,*6C
06/04/2014	04:08:52.619	$GPGGA,040853,2505.8929,N,08022.9386,W,1,10,1.5,15,M,,M,,*6F
06/04/2014	04:08:53.632	$GPGGA,040854,2505.8913,N,08022.9401,W,1,10,1.5,15,M,,M,,*69
06/04/2014	04:08:54.645	$GPGGA,040855,2505.8896,N,08022.9415,W,1,10,1.5,15,M,,M,,*61
06/04/2014	04:08:55.638	$GPGGA,040856,2505.8880,N,08022.9430,W,1,10,1.5,15,M,,M,,*62
06/04/2014	04:08:56.640	$GPGGA,040857,2505.8863,N,08022.9444,W,1,10,1.6,15,M,,M,,*6E
06/04/2014	04:08:57.613	$GPGGA,040858,2505.8846,N,08022.9458,W,1,10,1.6,15,M,,M,,*6B
06/04/2014	04:08:58.626	$GPGGA,040859,2505.8828,N,08022.9473,W,1,9,1.6,16,M,,M,,*50
06/04/2014	04:08:59.659	$GPGGA,040900,2505.8813,N,08022.9487,W,1,9,1.5,16,M,,M,,*5D
06/04/2014	04:09:00.642	$GPGGA,040901,2505.8797,N,08022.9501,W,1,10,1.5,16,M,,M,,*68
06/04/2014	04:09:01.636	$GPGGA,040902,2505.8780,N,08022.9516,W,1,10,1.5,16,M,,M,,*6B
06/04/2014	04:09:02.668	$GPGGA,040903,2505.8763,N,08022.9530,W,1,10,1.5,16,M,,M,,*63
06/04/2014	04:09:03.651	$GPGGA,040904,2505.8747,N,08022.9543,W,1,10,1.5,16,M,,M,,*66
06/04/2014	04:09:04.643	$GPGGA,040905,2505.8732,N,08022.9559,W,1,10,1.5,16,M,,M,,*6E
06/04/2014	04:09:05.676	$GPGGA,040906,2505.8715,N,08022.9571,W,1,10,1.5,16,M,,M,,*62
06/04/2014	04:09:06.638	$GPGGA,040907,2505.8699,N,08022.9585,W,1,10,1.5,16,M,,M,,*6D
06/04/2014	04:09:07.641	$GPGGA,040908,2505.8699,N,08022.9585,W,1,10,1.5,16,M,,M,,*62
06/04/2014	04:09:08.634	$GPGGA,040909,2505.8667,N,08022.9613,W,1,9,1.6,16,M,,M,,*55
06/04/2014	04:09:09.667	$GPGGA,040910,2505.8651,N,08022.9628,W,1,9,1.5,16,M,,M,,*53
06/04/2014	04:09:10.630	$GPGGA,040911,2505.8635,N,08022.9642,W,1,10,1.5,16,M,,M,,*64
06/04/2014	04:09:11.703	$GPGGA,040912,2505.8620,N,08022.9655,W,1,10,1.5,16,M,,M,,*65
06/04/2014	04:09:12.656	$GPGGA,040913,2505.8603,N,08022.9669,W,1,10,1.5,16,M,,M,,*6A
06/04/2014	04:09:13.669	$GPGGA,040914,2505.8587,N,08022.9683,W,1,10,1.5,16,M,,M,,*66
06/04/2014	04:09:14.762	$GPGGA,040915,2505.8571,N,08022.9697,W,1,10,1.5,16,M,,M,,*6B
06/04/2014	04:09:15.695	$GPGGA,040916,2505.8571,N,08022.9697,W,1,10,1.5,16,M,,M,,*68
06/04/2014	04:09:16.647	$GPGGA,040917,2505.8538,N,08022.9725,W,1,10,1.5,16,M,,M,,*6C
06/04/2014	04:09:17.690	$GPGGA,040918,2505.8523,N,08022.9738,W,1,10,1.5,16,M,,M,,*65
06/04/2014	04:09:18.643	$GPGGA,040919,2505.8506,N,08022.9752,W,1,10,1.5,16,M,,M,,*6F
06/04/2014	04:09:19.746	$GPGGA,040920,2505.8490,N,08022.9766,W,1,10,1.5,17,M,,M,,*6D
06/04/2014	04:09:20.649	$GPGGA,040921,2505.8474,N,08022.9780,W,1,10,1.5,17,M,,M,,*6E
06/04/2014	04:09:21.731	$GPGGA,040922,2505.8457,N,08022.9794,W,1,10,1.5,17,M,,M,,*69
06/04/2014	04:09:22.734	$GPGGA,040923,2505.8441,N,08022.9806,W,1,10,1.5,17,M,,M,,*6B
06/04/2014	04:09:23.717	$GPGGA,040924,2505.8425,N,08022.9820,W,1,10,1.5,17,M,,M,,*6A
06/04/2014	04:09:24.740	$GPGGA,040925,2505.8409,N,08022.9834,W,1,10,1.5,17,M,,M,,*60
06/04/2014	04:09:25.692	$GPGGA,040926,2505.8392,N,08022.9846,W,1,10,1.5,17,M,,M,,*63
06/04/2014	04:09:26.746	$GPGGA,040927,2505.8376,N,08022.9860,W,1,10,1.5,17,M,,M,,*6C
06/04/2014	04:09:27.678	$GPGGA,040928,2505.8376,N,08022.9860,W,1,10,1.5,17,M,,M,,*63
06/04/2014	04:09:28.741	$GPGGA,040929,2505.8343,N,08022.9888,W,1,10,1.5,17,M,,M,,*62
06/04/2014	04:09:29.745	$GPGGA,040930,2505.8327,N,08022.9900,W,1,10,1.5,17,M,,M,,*69
06/04/2014	04:09:30.777	$GPGGA,040931,2505.8310,N,08022.9914,W,1,10,1.5,17,M,,M,,*69
06/04/2014	04:09:31.597	$GPGGA,040932,2505.8293,N,08022.9926,W,1,10,1.5,17,M,,M,,*61
06/04/2014	04:09:32.600	$GPGGA,040933,2505.8277,N,08022.9940,W,1,10,1.5,17,M,,M,,*6A
06/04/2014	04:09:33.573	$GPGGA,040934,2505.8260,N,08022.9953,W,1,10,1.5,17,M,,M,,*69
06/04/2014	04:09:34.596	$GPGGA,040935,2505.8244,N,08022.9967,W,1,10,1.5,17,M,,M,,*69
06/04/2014	04:09:35.589	$GPGGA,040936,2505.8227,N,08022.9980,W,1,10,1.5,17,M,,M,,*66
06/04/2014	04:09:36.593	$GPGGA,040937,2505.8212,N,08022.9993,W,1,10,1.5,17,M,,M,,*63
06/04/2014	04:09:37.584	$GPGGA,040938,2505.8195,N,08023.0007,W,1,10,1.5,17,M,,M,,*6C
06/04/2014	04:09:38.597	$GPGGA,040939,2505.8178,N,08023.0020,W,1,10,1.5,17,M,,M,,*6B
06/04/2014	04:09:39.589	$GPGGA,040940,2505.8161,N,08023.0033,W,1,10,1.5,17,M,,M,,*6F
06/04/2014	04:09:40.592	$GPGGA,040941,2505.8145,N,08023.0045,W,1,10,1.5,17,M,,M,,*69
06/04/2014	04:09:41.595	$GPGGA,040942,2505.8129,N,08023.0059,W,1,10,1.5,17,M,,M,,*6D
06/04/2014	04:09:42.598	$GPGGA,040943,2505.8112,N,08023.0072,W,1,10,1.5,17,M,,M,,*6D
06/04/2014	04:09:43.601	$GPGGA,040944,2505.8096,N,08023.0085,W,1,10,1.5,17,M,,M,,*6F
06/04/2014	04:09:44.584	$GPGGA,040945,2505.8079,N,08023.0098,W,1,10,1.5,17,M,,M,,*63
06/04/2014	04:09:45.597	$GPGGA,040946,2505.8064,N,08023.0112,W,1,10,1.5,17,M,,M,,*6F
06/04/2014	04:09:46.589	$GPGGA,040947,2505.8046,N,08023.0126,W,1,10,1.5,16,M,,M,,*68
06/04/2014	04:09:47.612	$GPGGA,040948,2505.8031,N,08023.0138,W,1,10,1.5,16,M,,M,,*68
06/04/2014	04:09:48.615	$GPGGA,040949,2505.8014,N,08023.0152,W,1,10,1.5,16,M,,M,,*62
06/04/2014	04:09:49.588	$GPGGA,040950,2505.7999,N,08023.0166,W,1,10,1.5,16,M,,M,,*6E
06/04/2014	04:09:50.591	$GPGGA,040951,2505.7981,N,08023.0180,W,1,10,1.5,16,M,,M,,*6E
06/04/2014	04:09:51.604	$GPGGA,040952,2505.7966,N,08023.0192,W,1,10,1.5,16,M,,M,,*67
06/04/2014	04:09:52.597	$GPGGA,040953,2505.7949,N,08023.0206,W,1,10,1.5,16,M,,M,,*65
06/04/2014	04:09:53.590	$GPGGA,040954,2505.7934,N,08023.0220,W,1,10,1.5,16,M,,M,,*6C
06/04/2014	04:09:54.593	$GPGGA,040955,2505.7917,N,08023.0232,W,1,10,1.5,16,M,,M,,*6F
06/04/2014	04:09:55.627	$GPGGA,040956,2505.7901,N,08023.0246,W,1,10,1.5,16,M,,M,,*68
06/04/2014	04:09:56.587	$GPGGA,040957,2505.7884,N,08023.0260,W,1,10,1.5,16,M,,M,,*61
06/04/2014	04:09:57.610	$GPGGA,040958,2505.7868,N,08023.0274,W,1,10,1.5,16,M,,M,,*69
06/04/2014	04:09:58.603	$GPGGA,040959,2505.7852,N,08023.0287,W,1,10,1.5,16,M,,M,,*6D
06/04/2014	04:09:59.626	$GPGGA,041000,2505.7836,N,08023.0301,W,1,10,1.5,16,M,,M,,*64
06/04/2014	04:10:00.599	$GPGGA,041001,2505.7820,N,08023.0315,W,1,10,1.5,16,M,,M,,*67
06/04/2014	04:10:01.612	$GPGGA,041002,2505.7804,N,08023.0329,W,1,10,1.5,16,M,,M,,*6D
06/04/2014	04:10:02.595	$GPGGA,041003,2505.7789,N,08023.0343,W,1,10,1.5,16,M,,M,,*6A
06/04/2014	04:10:03.628	$GPGGA,041004,2505.7772,N,08023.0358,W,1,10,1.5,16,M,,M,,*63
06/04/2014	04:10:04.612	$GPGGA,041005,2505.7755,N,08023.0370,W,1,10,1.5,15,M,,M,,*6E
06/04/2014	04:10:05.714	$GPGGA,041006,2505.7739,N,08023.0384,W,1,10,1.5,15,M,,M,,*6C
06/04/2014	04:10:06.727	$GPGGA,041007,2505.7724,N,08023.0398,W,1,10,1.5,15,M,,M,,*6C
06/04/2014	04:10:07.629	$GPGGA,041008,2505.7706,N,08023.0412,W,1,10,1.5,15,M,,M,,*66
06/04/2014	04:10:08.612	$GPGGA,041009,2505.7689,N,08023.0427,W,1,9,1.6,15,M,,M,,*5C
06/04/2014	04:10:09.705	$GPGGA,041010,2505.7673,N,08023.0441,W,1,9,1.6,15,M,,M,,*51
06/04/2014	04:10:10.608	$GPGGA,041011,2505.7657,N,08023.0455,W,1,10,1.5,15,M,,M,,*68
06/04/2014	04:10:11.711	$GPGGA,041012,2505.7642,N,08023.0469,W,1,10,1.5,15,M,,M,,*60
06/04/2014	04:10:12.744	$GPGGA,041013,2505.7627,N,08023.0482,W,1,10,1.5,15,M,,M,,*67
06/04/2014	04:10:13.717	$GPGGA,041014,2505.7612,N,08023.0496,W,1,10,1.5,15,M,,M,,*63
06/04/2014	04:10:14.739	$GPGGA,041015,2505.7594,N,08023.0510,W,1,10,1.5,15,M,,M,,*60
06/04/2014	04:10:15.641	$GPGGA,041016,2505.7577,N,08023.0524,W,1,10,1.6,15,M,,M,,*6A
06/04/2014	04:10:16.704	$GPGGA,041017,2505.7561,N,08023.0538,W,1,9,1.6,15,M,,M,,*59
06/04/2014	04:10:17.717	$GPGGA,041018,2505.7544,N,08023.0553,W,1,9,1.6,15,M,,M,,*5C
06/04/2014	04:10:18.740	$GPGGA,041019,2505.7529,N,08023.0567,W,1,9,1.6,14,M,,M,,*50
06/04/2014	04:10:19.743	$GPGGA,041020,2505.7512,N,08023.0582,W,1,9,1.6,14,M,,M,,*59
06/04/2014	04:10:20.706	$GPGGA,041021,2505.7495,N,08023.0596,W,1,9,1.6,14,M,,M,,*53
06/04/2014	04:10:21.719	$GPGGA,041022,2505.7480,N,08023.0608,W,1,9,1.6,14,M,,M,,*50
06/04/2014	04:10:22.732	$GPGGA,041023,2505.7465,N,08023.0622,W,1,10,1.5,14,M,,M,,*69
06/04/2014	04:10:23.735	$GPGGA,041024,2505.7450,N,08023.0636,W,1,10,1.5,14,M,,M,,*6D
06/04/2014	04:10:24.748	$GPGGA,041025,2505.7435,N,08023.0650,W,1,10,1.5,14,M,,M,,*6F
06/04/2014	04:10:25.711	$GPGGA,041026,2505.7419,N,08023.0662,W,1,10,1.5,14,M,,M,,*63
06/04/2014	04:10:26.723	$GPGGA,041027,2505.7403,N,08023.0676,W,1,10,1.5,14,M,,M,,*6C
06/04/2014	04:10:27.737	$GPGGA,041028,2505.7388,N,08023.0690,W,1,10,1.5,14,M,,M,,*6F
06/04/2014	04:10:28.743	$GPGGA,041029,2505.7372,N,08023.0702,W,1,10,1.5,14,M,,M,,*61
06/04/2014	04:10:29.722	$GPGGA,041030,2505.7357,N,08023.0715,W,1,10,1.5,14,M,,M,,*68
06/04/2014	04:10:30.725	$GPGGA,041031,2505.7341,N,08023.0728,W,1,10,1.5,14,M,,M,,*60
06/04/2014	04:10:31.565	$GPGGA,041032,2505.7324,N,08023.0741,W,1,10,1.5,14,M,,M,,*6F
06/04/2014	04:10:32.568	$GPGGA,041033,2505.7309,N,08023.0755,W,1,10,1.5,14,M,,M,,*64
06/04/2014	04:10:33.551	$GPGGA,041034,2505.7294,N,08023.0767,W,1,10,1.5,14,M,,M,,*67
06/04/2014	04:10:34.574	$GPGGA,041035,2505.7276,N,08023.0780,W,1,10,1.5,14,M,,M,,*63
06/04/2014	04:10:35.567	$GPGGA,041036,2505.7260,N,08023.0793,W,1,10,1.5,14,M,,M,,*65
06/04/2014	04:10:36.549	$GPGGA,041037,2505.7244,N,08023.0806,W,1,10,1.5,14,M,,M,,*61
06/04/2014	04:10:37.562	$GPGGA,041038,2505.7229,N,08023.0820,W,1,10,1.5,14,M,,M,,*61
06/04/2014	04:10:38.555	$GPGGA,041039,2505.7212,N,08023.0832,W,1,10,1.5,14,M,,M,,*6B
06/04/2014	04:10:39.578	$GPGGA,041040,2505.7197,N,08023.0845,W,1,10,1.5,14,M,,M,,*6B
06/04/2014	04:10:40.592	$GPGGA,041041,2505.7180,N,08023.0857,W,1,10,1.5,14,M,,M,,*6F
06/04/2014	04:10:41.554	$GPGGA,041042,2505.7165,N,08023.0871,W,1,10,1.5,14,M,,M,,*63
06/04/2014	04:10:42.557	$GPGGA,041043,2505.7150,N,08023.0882,W,1,10,1.5,14,M,,M,,*68
06/04/2014	04:10:43.580	$GPGGA,041044,2505.7133,N,08023.0896,W,1,10,1.5,14,M,,M,,*6F
06/04/2014	04:10:44.605	$GPGGA,041045,2505.7117,N,08023.0908,W,1,10,1.5,14,M,,M,,*6E
06/04/2014	04:10:45.575	$GPGGA,041046,2505.7101,N,08023.0921,W,1,10,1.5,14,M,,M,,*61
06/04/2014	04:10:46.588	$GPGGA,041047,2505.7086,N,08023.0932,W,1,10,1.5,15,M,,M,,*6D
06/04/2014	04:10:47.591	$GPGGA,041048,2505.7070,N,08023.0946,W,1,10,1.5,15,M,,M,,*68
06/04/2014	04:10:48.564	$GPGGA,041049,2505.7053,N,08023.0958,W,1,10,1.5,15,M,,M,,*67
06/04/2014	04:10:49.576	$GPGGA,041050,2505.7038,N,08023.0972,W,1,10,1.5,15,M,,M,,*6A
06/04/2014	04:10:50.589	$GPGGA,041051,2505.7021,N,08023.0983,W,1,9,1.6,15,M,,M,,*56
06/04/2014	04:10:51.592	$GPGGA,041052,2505.7006,N,08023.0995,W,1,9,1.5,15,M,,M,,*54
06/04/2014	04:10:52.675	$GPGGA,041053,2505.6991,N,08023.1008,W,1,10,1.5,15,M,,M,,*67
06/04/2014	04:10:53.568	$GPGGA,041054,2505.6975,N,08023.1020,W,1,10,1.5,15,M,,M,,*60
06/04/2014	04:10:54.591	$GPGGA,041055,2505.6959,N,08023.1033,W,1,10,1.5,15,M,,M,,*6D
06/04/2014	04:10:55.603	$GPGGA,041056,2505.6944,N,08023.1044,W,1,10,1.5,15,M,,M,,*62
06/04/2014	04:10:56.586	$GPGGA,041057,2505.6929,N,08023.1058,W,1,10,1.5,15,M,,M,,*65
06/04/2014	04:10:57.579	$GPGGA,041058,2505.6913,N,08023.1069,W,1,10,1.5,15,M,,M,,*61
06/04/2014	04:10:58.692	$GPGGA,041059,2505.6898,N,08023.1081,W,1,10,1.5,15,M,,M,,*64
06/04/2014	04:10:59.605	$GPGGA,041100,2505.6883,N,08023.1095,W,1,10,1.5,15,M,,M,,*66
06/04/2014	04:11:00.708	$GPGGA,041101,2505.6868,N,08023.1106,W,1,10,1.5,15,M,,M,,*69
06/04/2014	04:11:01.681	$GPGGA,041102,2505.6852,N,08023.1120,W,1,10,1.5,15,M,,M,,*67
06/04/2014	04:11:02.674	$GPGGA,041103,2505.6837,N,08023.1131,W,1,10,1.5,15,M,,M,,*65
06/04/2014	04:11:03.687	$GPGGA,041104,2505.6822,N,08023.1145,W,1,10,1.5,15,M,,M,,*65
06/04/2014	04:11:04.710	$GPGGA,041105,2505.6806,N,08023.1157,W,1,10,1.5,15,M,,M,,*61
06/04/2014	04:11:05.673	$GPGGA,041106,2505.6792,N,08023.1171,W,1,10,1.5,15,M,,M,,*64
06/04/2014	04:11:06.678	$GPGGA,041107,2505.6776,N,08023.1183,W,1,10,1.5,15,M,,M,,*62
06/04/2014	04:11:07.697	$GPGGA,041108,2505.6760,N,08023.1196,W,1,10,1.5,15,M,,M,,*6E
06/04/2014	04:11:08.690	$GPGGA,041109,2505.6745,N,08023.1210,W,1,10,1.5,16,M,,M,,*66
06/04/2014	04:11:09.683	$GPGGA,041110,2505.6729,N,08023.1221,W,1,10,1.5,16,M,,M,,*66
06/04/2014	04:11:10.706	$GPGGA,041111,2505.6714,N,08023.1236,W,1,10,1.5,16,M,,M,,*6F
06/04/2014	04:11:11.699	$GPGGA,041112,2505.6698,N,08023.1248,W,1,10,1.5,16,M,,M,,*60
06/04/2014	04:11:12.722	$GPGGA,041113,2505.6682,N,08023.1261,W,1,10,1.5,16,M,,M,,*61
06/04/2014	04:11:13.695	$GPGGA,041114,2505.6667,N,08023.1275,W,1,10,1.5,16,M,,M,,*68
06/04/2014	04:11:14.708	$GPGGA,041115,2505.6652,N,08023.1287,W,1,10,1.5,16,M,,M,,*62
06/04/2014	04:11:15.741	$GPGGA,041116,2505.6637,N,08023.1301,W,1,10,1.5,16,M,,M,,*6D
06/04/2014	04:11:16.713	$GPGGA,041117,2505.6622,N,08023.1313,W,1,10,1.5,16,M,,M,,*6B
06/04/2014	04:11:17.697	$GPGGA,041118,2505.6606,N,08023.1326,W,1,10,1.5,16,M,,M,,*64
06/04/2014	04:11:18.689	$GPGGA,041119,2505.6591,N,08023.1340,W,1,10,1.5,16,M,,M,,*68
06/04/2014	04:11:19.702	$GPGGA,041120,2505.6576,N,08023.1352,W,1,10,1.5,16,M,,M,,*68
06/04/2014	04:11:20.755	$GPGGA,041121,2505.6561,N,08023.1366,W,1,10,1.5,16,M,,M,,*68
06/04/2014	04:11:21.698	$GPGGA,041122,2505.6546,N,08023.1378,W,1,10,1.5,16,M,,M,,*61
06/04/2014	04:11:22.691	$GPGGA,041123,2505.6530,N,08023.1391,W,1,10,1.5,16,M,,M,,*66
06/04/2014	04:11:23.715	$GPGGA,041124,2505.6515,N,08023.1405,W,1,10,1.5,16,M,,M,,*6C
06/04/2014	04:11:24.726	$GPGGA,041125,2505.6501,N,08023.1417,W,1,10,1.5,16,M,,M,,*6B
06/04/2014	04:11:25.688	$GPGGA,041126,2505.6485,N,08023.1430,W,1,10,1.5,16,M,,M,,*60
06/04/2014	04:11:26.701	$GPGGA,041127,2505.6470,N,08023.1442,W,1,10,1.5,16,M,,M,,*6E
06/04/2014	04:11:27.704	$GPGGA,041128,2505.6456,N,08023.1456,W,1,10,1.5,16,M,,M,,*60
06/04/2014	04:11:28.697	$GPGGA,041129,2505.6440,N,08023.1467,W,1,10,1.5,16,M,,M,,*64
06/04/2014	04:11:29.710	$GPGGA,041130,2505.6425,N,08023.1481,W,1,10,1.5,16,M,,M,,*67
06/04/2014	04:11:30.733	$GPGGA,041131,2505.6410,N,08023.1493,W,1,10,1.5,16,M,,M,,*63
06/04/2014	04:11:31.534	$GPGGA,041132,2505.6395,N,08023.1507,W,1,10,1.5,16,M,,M,,*66
06/04/2014	04:11:32.568	$GPGGA,041133,2505.6380,N,08023.1519,W,1,10,1.5,16,M,,M,,*6C
06/04/2014	04:11:33.540	$GPGGA,041134,2505.6366,N,08023.1532,W,1,10,1.5,16,M,,M,,*6A
06/04/2014	04:11:34.563	$GPGGA,041135,2505.6350,N,08023.1546,W,1,10,1.5,16,M,,M,,*6D
06/04/2014	04:11:35.555	$GPGGA,041136,2505.6335,N,08023.1558,W,1,10,1.5,16,M,,M,,*62
06/04/2014	04:11:36.548	$GPGGA,041137,2505.6320,N,08023.1572,W,1,10,1.5,16,M,,M,,*6F
06/04/2014	04:11:37.541	$GPGGA,041138,2505.6305,N,08023.1584,W,1,10,1.5,16,M,,M,,*6E
06/04/2014	04:11:38.554	$GPGGA,041139,2505.6290,N,08023.1597,W,1,10,1.5,16,M,,M,,*60
06/04/2014	04:11:39.547	$GPGGA,041140,2505.6274,N,08023.1609,W,1,10,1.5,16,M,,M,,*60
06/04/2014	04:11:40.540	$GPGGA,041141,2505.6259,N,08023.1622,W,1,10,1.5,16,M,,M,,*67
06/04/2014	04:11:41.642	$GPGGA,041142,2505.6245,N,08023.1636,W,1,10,1.5,16,M,,M,,*6C
06/04/2014	04:11:42.655	$GPGGA,041143,2505.6230,N,08023.1647,W,1,10,1.5,16,M,,M,,*69
06/04/2014	04:11:43.558	$GPGGA,041144,2505.6215,N,08023.1659,W,1,10,1.5,16,M,,M,,*66
06/04/2014	04:11:44.651	$GPGGA,041145,2505.6200,N,08023.1673,W,1,10,1.5,16,M,,M,,*6B
