Software Version Number: 1	Data File Format Number: 1	Build Version Number: 1	Error Count Since VI Started: 0	Manufacturer: Raytheon	 Model Number: RayMarine 120	 S/N: 	 Cal Date: 	 Wind Direction Offset: 0.00	 Slope (M)1: 0.00	 Offset (B)1: 0.00	 Slope (M)2: 0.00	 Offset (B)2: 0.00	 Slope (M)3: 0.00	 Offset (B)3: 0.00	 Slope (M)4: 0.00	 Offset (B)4: 0.00	 Slope (M)5: 0.00	 Offset (B)5: 0.00	 Slope (M)6: 0.00	 Offset (B)6: 0.00
Computer Date	Computer Time	GGA String
06/05/2014	09:00:00.899	$GPGGA,090001,2437.4189,N,08058.7493,W,1,8,2.0,13,M,,M,,*5A
06/05/2014	09:00:01.819	$GPGGA,090002,2437.4181,N,08058.7518,W,1,8,2.0,13,M,,M,,*53
06/05/2014	09:00:02.798	$GPGGA,090003,2437.4171,N,08058.7544,W,1,8,2.0,13,M,,M,,*54
06/05/2014	09:00:03.869	$GPGGA,090004,2437.4163,N,08058.7570,W,1,8,2.0,13,M,,M,,*57
06/05/2014	09:00:04.950	$GPGGA,090005,2437.4155,N,08058.7598,W,1,8,2.0,13,M,,M,,*55
06/05/2014	09:00:05.860	$GPGGA,090006,2437.4146,N,08058.7624,W,1,8,2.0,13,M,,M,,*50
06/05/2014	09:00:06.921	$GPGGA,090007,2437.4137,N,08058.7650,W,1,8,2.0,13,M,,M,,*54
06/05/2014	09:00:07.901	$GPGGA,090008,2437.4128,N,08058.7677,W,1,8,2.0,13,M,,M,,*50
06/05/2014	09:00:08.921	$GPGGA,090009,2437.4119,N,08058.7704,W,1,8,2.0,13,M,,M,,*56
06/05/2014	09:00:09.891	$GPGGA,090010,2437.4110,N,08058.7731,W,1,8,2.0,13,M,,M,,*51
06/05/2014	09:00:10.992	$GPGGA,090011,2437.4101,N,08058.7757,W,1,8,2.0,13,M,,M,,*50
06/05/2014	09:00:11.921	$GPGGA,090012,2437.4092,N,08058.7783,W,1,8,2.0,13,M,,M,,*51
06/05/2014	09:00:13.012	$GPGGA,090013,2437.4082,N,08058.7809,W,1,8,2.0,13,M,,M,,*5C
06/05/2014	09:00:13.902	$GPGGA,090014,2437.4073,N,08058.7834,W,1,8,2.0,13,M,,M,,*5B
06/05/2014	09:00:14.983	$GPGGA,090015,2437.4065,N,08058.7861,W,1,8,2.0,13,M,,M,,*5D
06/05/2014	09:00:15.953	$GPGGA,090016,2437.4057,N,08058.7887,W,1,8,2.0,12,M,,M,,*56
06/05/2014	09:00:16.923	$GPGGA,090017,2437.4047,N,08058.7913,W,1,8,2.0,12,M,,M,,*5A
06/05/2014	09:00:18.044	$GPGGA,090018,2437.4039,N,08058.7941,W,1,8,2.0,12,M,,M,,*5B
06/05/2014	09:00:19.024	$GPGGA,090019,2437.4029,N,08058.7967,W,1,8,2.0,12,M,,M,,*5F
06/05/2014	09:00:20.085	$GPGGA,090020,2437.4019,N,08058.7995,W,1,8,2.0,12,M,,M,,*5B
06/05/2014	09:00:21.096	$GPGGA,090021,2437.4011,N,08058.8020,W,1,8,2.0,12,M,,M,,*5A
06/05/2014	09:00:21.995	$GPGGA,090022,2437.4001,N,08058.8047,W,1,8,2.0,12,M,,M,,*59
06/05/2014	09:00:23.066	$GPGGA,090023,2437.3992,N,08058.8072,W,1,8,2.0,12,M,,M,,*5A
06/05/2014	09:00:24.026	$GPGGA,090024,2437.3985,N,08058.8098,W,1,8,2.0,12,M,,M,,*5F
06/05/2014	09:00:25.077	$GPGGA,090025,2437.3974,N,08058.8125,W,1,8,2.0,12,M,,M,,*57
06/05/2014	09:00:26.037	$GPGGA,090026,2437.3965,N,08058.8150,W,1,8,2.0,12,M,,M,,*56
06/05/2014	09:00:27.125	$GPGGA,090027,2437.3956,N,08058.8177,W,1,8,2.0,12,M,,M,,*52
06/05/2014	09:00:28.128	$GPGGA,090028,2437.3947,N,08058.8204,W,1,8,2.0,12,M,,M,,*5A
06/05/2014	09:00:29.140	$GPGGA,090029,2437.3938,N,08058.8231,W,1,8,2.0,12,M,,M,,*55
06/05/2014	09:00:30.138	$GPGGA,090030,2437.3928,N,08058.8258,W,1,8,2.0,12,M,,M,,*53
06/05/2014	09:00:31.158	$GPGGA,090031,2437.3920,N,08058.8284,W,1,8,2.0,11,M,,M,,*58
06/05/2014	09:00:32.169	$GPGGA,090032,2437.3911,N,08058.8311,W,1,8,2.0,11,M,,M,,*54
06/05/2014	09:00:32.546	$GPGGA,090033,2437.3902,N,08058.8338,W,1,8,2.0,11,M,,M,,*5C
06/05/2014	09:00:33.536	$GPGGA,090034,2437.3893,N,08058.8363,W,1,8,2.0,11,M,,M,,*5C
06/05/2014	09:00:34.567	$GPGGA,090035,2437.3884,N,08058.8390,W,1,8,2.0,11,M,,M,,*57
06/05/2014	09:00:35.577	$GPGGA,090036,2437.3876,N,08058.8417,W,1,8,2.0,11,M,,M,,*51
06/05/2014	09:00:36.595	$GPGGA,090037,2437.3867,N,08058.8443,W,1,8,2.0,11,M,,M,,*51
06/05/2014	09:00:37.578	$GPGGA,090038,2437.3859,N,08058.8469,W,1,8,2.0,11,M,,M,,*5B
06/05/2014	09:00:38.608	$GPGGA,090039,2437.3859,N,08058.8469,W,1,8,2.0,11,M,,M,,*5A
06/05/2014	09:00:39.629	$GPGGA,090040,2437.3841,N,08058.8522,W,1,8,2.0,11,M,,M,,*53
06/05/2014	09:00:40.680	$GPGGA,090041,2437.3834,N,08058.8549,W,1,8,2.0,11,M,,M,,*5D
06/05/2014	09:00:41.619	$GPGGA,090042,2437.3824,N,08058.8577,W,1,8,2.0,11,M,,M,,*52
06/05/2014	09:00:42.711	$GPGGA,090043,2437.3815,N,08058.8602,W,1,8,2.0,11,M,,M,,*50
06/05/2014	09:00:43.640	$GPGGA,090044,2437.3806,N,08058.8629,W,1,8,2.0,11,M,,M,,*5C
06/05/2014	09:00:44.671	$GPGGA,090045,2437.3798,N,08058.8656,W,1,8,2.0,11,M,,M,,*5D
06/05/2014	09:00:45.650	$GPGGA,090046,2437.3790,N,08058.8681,W,1,8,2.0,11,M,,M,,*5C
06/05/2014	09:00:46.680	$GPGGA,090047,2437.3790,N,08058.8681,W,1,8,2.0,11,M,,M,,*5D
06/05/2014	09:00:47.671	$GPGGA,090048,2437.3772,N,08058.8732,W,1,8,2.0,11,M,,M,,*57
06/05/2014	09:00:48.711	$GPGGA,090049,2437.3763,N,08058.8758,W,1,8,2.0,11,M,,M,,*5A
06/05/2014	09:00:49.671	$GPGGA,090050,2437.3754,N,08058.8784,W,1,8,2.0,11,M,,M,,*57
06/05/2014	09:00:50.692	$GPGGA,090051,2437.3745,N,08058.8811,W,1,8,2.0,10,M,,M,,*54
06/05/2014	09:00:51.712	$GPGGA,090052,2437.3736,N,08058.8840,W,1,8,2.0,10,M,,M,,*57
06/05/2014	09:00:52.763	$GPGGA,090053,2437.3727,N,08058.8866,W,1,8,2.0,10,M,,M,,*52
06/05/2014	09:00:53.713	$GPGGA,090054,2437.3718,N,08058.8891,W,1,8,2.0,10,M,,M,,*51
06/05/2014	09:00:54.764	$GPGGA,090055,2437.3718,N,08058.8891,W,1,8,2.0,10,M,,M,,*50
06/05/2014	09:00:55.754	$GPGGA,090056,2437.3701,N,08058.8942,W,1,8,2.0,10,M,,M,,*54
06/05/2014	09:00:56.795	$GPGGA,090057,2437.3691,N,08058.8968,W,1,8,2.0,10,M,,M,,*55
06/05/2014	09:00:57.754	$GPGGA,090058,2437.3682,N,08058.8996,W,1,8,2.0,10,M,,M,,*59
06/05/2014	09:00:58.805	$GPGGA,090059,2437.3674,N,08058.9022,W,1,8,2.0,10,M,,M,,*56
06/05/2014	09:00:59.795	$GPGGA,090100,2437.3663,N,08058.9048,W,1,8,2.0,10,M,,M,,*51
06/05/2014	09:01:00.887	$GPGGA,090101,2437.3654,N,08058.9075,W,1,8,2.0,10,M,,M,,*5A
06/05/2014	09:01:01.776	$GPGGA,090102,2437.3645,N,08058.9101,W,1,8,2.0,10,M,,M,,*5B
06/05/2014	09:01:02.861	$GPGGA,090103,2437.3645,N,08058.9101,W,1,8,2.0,10,M,,M,,*5A
06/05/2014	09:01:03.917	$GPGGA,090104,2437.3627,N,08058.9154,W,1,8,2.0,10,M,,M,,*59
06/05/2014	09:01:04.927	$GPGGA,090105,2437.3620,N,08058.9180,W,1,8,2.0,10,M,,M,,*56
06/05/2014	09:01:05.816	$GPGGA,090106,2437.3610,N,08058.9205,W,1,8,2.0,10,M,,M,,*58
06/05/2014	09:01:06.827	$GPGGA,090107,2437.3610,N,08058.9205,W,1,8,2.0,10,M,,M,,*59
06/05/2014	09:01:07.837	$GPGGA,090108,2437.3591,N,08058.9259,W,1,8,2.0,10,M,,M,,*55
06/05/2014	09:01:08.848	$GPGGA,090109,2437.3591,N,08058.9259,W,1,8,2.0,10,M,,M,,*54
06/05/2014	09:01:09.940	$GPGGA,090110,2437.3574,N,08058.9311,W,1,8,2.0,10,M,,M,,*5A
06/05/2014	09:01:10.878	$GPGGA,090111,2437.3574,N,08058.9311,W,1,8,2.0,10,M,,M,,*5B
06/05/2014	09:01:11.970	$GPGGA,090112,2437.3556,N,08058.9365,W,1,8,2.0,10,M,,M,,*5B
06/05/2014	09:01:12.970	$GPGGA,090113,2437.3548,N,08058.9391,W,1,8,2.0,10,M,,M,,*5E
06/05/2014	09:01:13.879	$GPGGA,090114,2437.3537,N,08058.9418,W,1,8,2.0,10,M,,M,,*57
06/05/2014	09:01:15.021	$GPGGA,090115,2437.3528,N,08058.9444,W,1,8,2.0,10,M,,M,,*51
06/05/2014	09:01:16.001	$GPGGA,090116,2437.3519,N,08058.9470,W,1,8,2.0,10,M,,M,,*57
06/05/2014	09:01:17.024	$GPGGA,090117,2437.3510,N,08058.9496,W,1,8,2.0,10,M,,M,,*57
06/05/2014	09:01:18.012	$GPGGA,090118,2437.3501,N,08058.9523,W,1,8,2.0,10,M,,M,,*57
06/05/2014	09:01:19.034	$GPGGA,090119,2437.3491,N,08058.9549,W,1,8,2.0,10,M,,M,,*52
06/05/2014	09:01:20.033	$GPGGA,090120,2437.3481,N,08058.9575,W,1,8,2.0,10,M,,M,,*56
06/05/2014	09:01:21.042	$GPGGA,090121,2437.3472,N,08058.9603,W,1,8,2.0,10,M,,M,,*59
06/05/2014	09:01:22.042	$GPGGA,090122,2437.3463,N,08058.9629,W,1,8,2.0,10,M,,M,,*52
06/05/2014	09:01:23.074	$GPGGA,090123,2437.3455,N,08058.9657,W,1,8,1.9,10,M,,M,,*55
06/05/2014	09:01:24.073	$GPGGA,090124,2437.3445,N,08058.9682,W,1,8,1.9,10,M,,M,,*5B
06/05/2014	09:01:25.084	$GPGGA,090125,2437.3436,N,08058.9708,W,1,8,1.9,10,M,,M,,*5D
06/05/2014	09:01:26.064	$GPGGA,090126,2437.3428,N,08058.9736,W,1,8,1.9,10,M,,M,,*5C
06/05/2014	09:01:27.116	$GPGGA,090127,2437.3419,N,08058.9762,W,1,8,1.9,10,M,,M,,*5E
06/05/2014	09:01:28.105	$GPGGA,090128,2437.3409,N,08058.9787,W,1,8,1.9,10,M,,M,,*5B
06/05/2014	09:01:29.125	$GPGGA,090129,2437.3400,N,08058.9813,W,1,8,1.9,10,M,,M,,*51
06/05/2014	09:01:30.105	$GPGGA,090130,2437.3391,N,08058.9841,W,1,8,1.9,10,M,,M,,*51
06/05/2014	09:01:31.149	$GPGGA,090131,2437.3383,N,08058.9866,W,1,8,1.9,10,M,,M,,*56
06/05/2014	09:01:32.136	$GPGGA,090132,2437.3374,N,08058.9892,W,1,8,1.9,10,M,,M,,*56
06/05/2014	09:01:32.503	$GPGGA,090133,2437.3367,N,08058.9920,W,1,8,1.9,10,M,,M,,*5D
06/05/2014	09:01:33.524	$GPGGA,090134,2437.3358,N,08058.9946,W,1,8,1.9,10,M,,M,,*56
06/05/2014	09:01:34.524	$GPGGA,090135,2437.3350,N,08058.9971,W,1,8,1.9,10,M,,M,,*5B
06/05/2014	09:01:35.545	$GPGGA,090136,2437.3342,N,08058.9997,W,1,8,1.9,10,M,,M,,*53
06/05/2014	09:01:36.575	$GPGGA,090137,2437.3335,N,08059.0023,W,1,8,1.9,10,M,,M,,*5C
06/05/2014	09:01:37.555	$GPGGA,090138,2437.3326,N,08059.0051,W,1,8,1.9,10,M,,M,,*54
06/05/2014	09:01:38.585	$GPGGA,090139,2437.3317,N,08059.0076,W,1,8,1.9,10,M,,M,,*52
06/05/2014	09:01:39.585	$GPGGA,090140,2437.3309,N,08059.0102,W,1,8,1.9,10,M,,M,,*51
06/05/2014	09:01:40.576	$GPGGA,090141,2437.3302,N,08059.0130,W,1,8,1.9,9,M,,M,,*62
06/05/2014	09:01:41.596	$GPGGA,090142,2437.3293,N,08059.0155,W,1,8,1.9,9,M,,M,,*6B
06/05/2014	09:01:42.586	$GPGGA,090143,2437.3285,N,08059.0182,W,1,8,1.9,9,M,,M,,*67
06/05/2014	09:01:43.627	$GPGGA,090144,2437.3277,N,08059.0209,W,1,8,1.9,9,M,,M,,*6D
06/05/2014	09:01:44.607	$GPGGA,090145,2437.3268,N,08059.0235,W,1,8,1.9,9,M,,M,,*6D
06/05/2014	09:01:45.617	$GPGGA,090146,2437.3261,N,08059.0261,W,1,8,1.9,9,M,,M,,*66
06/05/2014	09:01:46.749	$GPGGA,090147,2437.3252,N,08059.0289,W,1,8,1.9,9,M,,M,,*61
06/05/2014	09:01:47.760	$GPGGA,090148,2437.3243,N,08059.0314,W,1,8,1.9,9,M,,M,,*6B
06/05/2014	09:01:48.649	$GPGGA,090149,2437.3237,N,08059.0340,W,1,8,1.9,9,M,,M,,*68
06/05/2014	09:01:49.649	$GPGGA,090150,2437.3228,N,08059.0368,W,1,8,1.9,9,M,,M,,*64
06/05/2014	09:01:50.791	$GPGGA,090151,2437.3219,N,08059.0394,W,1,8,1.9,9,M,,M,,*64
06/05/2014	09:01:51.680	$GPGGA,090152,2437.3209,N,08059.0420,W,1,8,1.9,9,M,,M,,*6E
06/05/2014	09:01:52.670	$GPGGA,090153,2437.3201,N,08059.0448,W,1,8,1.9,9,M,,M,,*69
06/05/2014	09:01:53.771	$GPGGA,090154,2437.3192,N,08059.0474,W,1,8,1.9,9,M,,M,,*68
06/05/2014	09:01:54.711	$GPGGA,090155,2437.3183,N,08059.0500,W,1,8,1.9,9,M,,M,,*6B
06/05/2014	09:01:55.720	$GPGGA,090156,2437.3173,N,08059.0527,W,1,8,1.9,9,M,,M,,*62
06/05/2014	09:01:56.701	$GPGGA,090157,2437.3165,N,08059.0554,W,1,8,1.9,9,M,,M,,*60
06/05/2014	09:01:57.721	$GPGGA,090158,2437.3155,N,08059.0579,W,1,8,1.9,9,M,,M,,*63
06/05/2014	09:01:58.812	$GPGGA,090159,2437.3147,N,08059.0607,W,1,8,1.9,9,M,,M,,*6B
06/05/2014	09:01:59.883	$GPGGA,090200,2437.3137,N,08059.0632,W,1,8,1.9,8,M,,M,,*64
06/05/2014	09:02:00.853	$GPGGA,090201,2437.3129,N,08059.0659,W,1,8,1.9,8,M,,M,,*67
06/05/2014	09:02:01.753	$GPGGA,090202,2437.3119,N,08059.0686,W,1,8,1.9,8,M,,M,,*65
06/05/2014	09:02:02.854	$GPGGA,090203,2437.3111,N,08059.0712,W,1,8,1.9,8,M,,M,,*60
06/05/2014	09:02:03.874	$GPGGA,090204,2437.3101,N,08059.0740,W,1,8,1.9,8,M,,M,,*61
06/05/2014	09:02:04.876	$GPGGA,090205,2437.3091,N,08059.0766,W,1,8,1.9,8,M,,M,,*6C
06/05/2014	09:02:05.885	$GPGGA,090206,2437.3082,N,08059.0792,W,1,8,1.9,8,M,,M,,*66
06/05/2014	09:02:06.895	$GPGGA,090207,2437.3074,N,08059.0818,W,1,8,1.9,8,M,,M,,*63
06/05/2014	09:02:07.916	$GPGGA,090208,2437.3064,N,08059.0845,W,1,8,1.9,8,M,,M,,*65
06/05/2014	09:02:08.916	$GPGGA,090209,2437.3055,N,08059.0872,W,1,8,1.9,8,M,,M,,*62
06/05/2014	09:02:09.927	$GPGGA,090210,2437.3046,N,08059.0899,W,1,8,1.9,8,M,,M,,*6D
06/05/2014	09:02:10.937	$GPGGA,090211,2437.3036,N,08059.0925,W,1,8,1.9,8,M,,M,,*6D
06/05/2014	09:02:11.947	$GPGGA,090212,2437.3027,N,08059.0951,W,1,8,1.9,8,M,,M,,*6D
06/05/2014	09:02:12.938	$GPGGA,090213,2437.3017,N,08059.0976,W,1,8,1.9,8,M,,M,,*6A
06/05/2014	09:02:13.946	$GPGGA,090214,2437.3008,N,08059.1002,W,1,8,1.9,8,M,,M,,*68
06/05/2014	09:02:14.972	$GPGGA,090215,2437.2999,N,08059.1027,W,1,8,1.9,8,M,,M,,*6E
06/05/2014	09:02:15.957	$GPGGA,090216,2437.2989,N,08059.1053,W,1,8,1.9,8,M,,M,,*6F
06/05/2014	09:02:16.972	$GPGGA,090217,2437.2980,N,08059.1080,W,1,8,1.9,8,M,,M,,*69
06/05/2014	09:02:17.968	$GPGGA,090218,2437.2971,N,08059.1106,W,1,8,1.9,8,M,,M,,*67
06/05/2014	09:02:18.983	$GPGGA,090219,2437.2961,N,08059.1132,W,1,8,1.9,8,M,,M,,*60
06/05/2014	09:02:19.989	$GPGGA,090220,2437.2952,N,08059.1158,W,1,8,1.9,8,M,,M,,*66
06/05/2014	09:02:21.004	$GPGGA,090221,2437.2943,N,08059.1185,W,1,8,1.9,8,M,,M,,*67
06/05/2014	09:02:21.969	$GPGGA,090222,2437.2934,N,08059.1210,W,1,8,1.9,8,M,,M,,*6B
06/05/2014	09:02:23.005	$GPGGA,090223,2437.2924,N,08059.1236,W,1,8,1.9,8,M,,M,,*6F
06/05/2014	09:02:24.000	$GPGGA,090224,2437.2915,N,08059.1261,W,1,8,1.9,8,M,,M,,*68
06/05/2014	09:02:25.026	$GPGGA,090225,2437.2906,N,08059.1286,W,1,8,1.9,8,M,,M,,*62
06/05/2014	09:02:25.991	$GPGGA,090226,2437.2896,N,08059.1312,W,1,8,1.9,8,M,,M,,*65
06/05/2014	09:02:27.006	$GPGGA,090227,2437.2887,N,08059.1338,W,1,7,2.0,8,M,,M,,*69
06/05/2014	09:02:28.012	$GPGGA,090228,2437.2876,N,08059.1365,W,1,7,1.9,8,M,,M,,*6A
06/05/2014	09:02:28.987	$GPGGA,090229,2437.2867,N,08059.1389,W,1,8,1.9,8,M,,M,,*66
06/05/2014	09:02:30.012	$GPGGA,090230,2437.2858,N,08059.1416,W,1,8,1.9,8,M,,M,,*63
06/05/2014	09:02:30.997	$GPGGA,090231,2437.2848,N,08059.1441,W,1,8,1.9,8,M,,M,,*61
06/05/2014	09:02:32.042	$GPGGA,090232,2437.2838,N,08059.1467,W,1,8,1.9,8,M,,M,,*61
06/05/2014	09:02:32.600	$GPGGA,090233,2437.2830,N,08059.1495,W,1,8,1.9,8,M,,M,,*65
06/05/2014	09:02:33.474	$GPGGA,090234,2437.2822,N,08059.1521,W,1,8,1.9,8,M,,M,,*6F
06/05/2014	09:02:34.520	$GPGGA,090235,2437.2811,N,08059.1548,W,1,8,1.9,8,M,,M,,*61
06/05/2014	09:02:35.505	$GPGGA,090236,2437.2802,N,08059.1575,W,1,8,1.9,8,M,,M,,*6E
06/05/2014	09:02:36.490	$GPGGA,090237,2437.2793,N,08059.1601,W,1,8,1.9,8,M,,M,,*68
06/05/2014	09:02:37.496	$GPGGA,090238,2437.2784,N,08059.1627,W,1,8,1.9,8,M,,M,,*65
06/05/2014	09:02:38.491	$GPGGA,090239,2437.2775,N,08059.1652,W,1,8,1.9,8,M,,M,,*68
06/05/2014	09:02:39.637	$GPGGA,090240,2437.2766,N,08059.1677,W,1,8,1.9,8,M,,M,,*63
06/05/2014	09:02:40.522	$GPGGA,090241,2437.2758,N,08059.1703,W,1,8,1.9,8,M,,M,,*6D
06/05/2014	09:02:41.517	$GPGGA,090242,2437.2749,N,08059.1730,W,1,8,1.9,8,M,,M,,*6E
06/05/2014	09:02:42.513	$GPGGA,090243,2437.2739,N,08059.1757,W,1,8,1.9,8,M,,M,,*69
06/05/2014	09:02:43.528	$GPGGA,090244,2437.2730,N,08059.1785,W,1,8,1.9,8,M,,M,,*68
06/05/2014	09:02:44.664	$GPGGA,090245,2437.2722,N,08059.1814,W,1,8,1.9,8,M,,M,,*6D
06/05/2014	09:02:45.539	$GPGGA,090246,2437.2712,N,08059.1840,W,1,8,1.9,8,M,,M,,*6C
06/05/2014	09:02:46.534	$GPGGA,090247,2437.2703,N,08059.1868,W,1,8,1.9,8,M,,M,,*67
06/05/2014	09:02:47.639	$GPGGA,090248,2437.2695,N,08059.1893,W,1,8,1.9,8,M,,M,,*62
06/05/2014	09:02:48.554	$GPGGA,090249,2437.2686,N,08059.1918,W,1,8,1.9,8,M,,M,,*63
06/05/2014	09:02:49.640	$GPGGA,090250,2437.2677,N,08059.1944,W,1,8,1.9,8,M,,M,,*6C
06/05/2014	09:02:50.666	$GPGGA,090251,2437.2670,N,08059.1969,W,1,8,1.9,8,M,,M,,*65
06/05/2014	09:02:51.671	$GPGGA,090252,2437.2660,N,08059.1994,W,1,8,1.9,8,M,,M,,*65
06/05/2014	09:02:52.661	$GPGGA,090253,2437.2652,N,08059.2020,W,1,8,1.9,8,M,,M,,*60
06/05/2014	09:02:53.666	$GPGGA,090254,2437.2642,N,08059.2048,W,1,8,1.9,8,M,,M,,*68
06/05/2014	09:02:54.697	$GPGGA,090255,2437.2632,N,08059.2075,W,1,8,1.9,8,M,,M,,*60
06/05/2014	09:02:55.673	$GPGGA,090256,2437.2624,N,08059.2103,W,1,8,1.9,8,M,,M,,*64
06/05/2014	09:02:56.678	$GPGGA,090257,2437.2616,N,08059.2131,W,1,8,1.9,8,M,,M,,*65
06/05/2014	09:02:57.663	$GPGGA,090258,2437.2607,N,08059.2157,W,1,8,1.9,8,M,,M,,*6A
06/05/2014	09:02:58.689	$GPGGA,090259,2437.2599,N,08059.2183,W,1,8,1.9,8,M,,M,,*66
06/05/2014	09:02:59.704	$GPGGA,090300,2437.2591,N,08059.2208,W,1,8,1.9,8,M,,M,,*63
06/05/2014	09:03:00.689	$GPGGA,090301,2437.2583,N,08059.2233,W,1,8,1.9,8,M,,M,,*69
06/05/2014	09:03:01.675	$GPGGA,090302,2437.2576,N,08059.2261,W,1,8,2.2,8,M,,M,,*6F
06/05/2014	09:03:02.700	$GPGGA,090303,2437.2569,N,08059.2287,W,1,7,2.2,8,M,,M,,*67
06/05/2014	09:03:03.696	$GPGGA,090304,2437.2559,N,08059.2312,W,1,7,1.9,8,M,,M,,*66
06/05/2014	09:03:04.712	$GPGGA,090305,2437.2551,N,08059.2341,W,1,8,1.9,8,M,,M,,*66
06/05/2014	09:03:05.695	$GPGGA,090306,2437.2543,N,08059.2366,W,1,8,1.9,8,M,,M,,*63
06/05/2014	09:03:06.711	$GPGGA,090307,2437.2534,N,08059.2395,W,1,8,1.9,8,M,,M,,*6E
06/05/2014	09:03:07.706	$GPGGA,090308,2437.2525,N,08059.2421,W,1,8,1.9,8,M,,M,,*69
06/05/2014	09:03:08.691	$GPGGA,090309,2437.2516,N,08059.2447,W,1,8,1.9,8,M,,M,,*68
06/05/2014	09:03:09.707	$GPGGA,090310,2437.2507,N,08059.2473,W,1,8,1.9,8,M,,M,,*67
06/05/2014	09:03:10.732	$GPGGA,090311,2437.2498,N,08059.2500,W,1,8,1.9,8,M,,M,,*64
06/05/2014	09:03:11.738	$GPGGA,090312,2437.2490,N,08059.2526,W,1,8,1.9,8,M,,M,,*6B
06/05/2014	09:03:12.703	$GPGGA,090313,2437.2482,N,08059.2552,W,1,8,1.9,8,M,,M,,*6A
06/05/2014	09:03:13.718	$GPGGA,090314,2437.2471,N,08059.2579,W,1,8,1.9,8,M,,M,,*68
06/05/2014	09:03:14.754	$GPGGA,090315,2437.2464,N,08059.2606,W,1,8,1.9,8,M,,M,,*66
06/05/2014	09:03:15.729	$GPGGA,090316,2437.2454,N,08059.2634,W,1,8,1.9,8,M,,M,,*67
06/05/2014	09:03:16.715	$GPGGA,090317,2437.2443,N,08059.2662,W,1,8,1.9,8,M,,M,,*63
06/05/2014	09:03:17.730	$GPGGA,090318,2437.2435,N,08059.2688,W,1,8,2.0,9,M,,M,,*62
06/05/2014	09:03:18.766	$GPGGA,090319,2437.2428,N,08059.2717,W,1,8,1.9,9,M,,M,,*62
06/05/2014	09:03:19.741	$GPGGA,090320,2437.2417,N,08059.2742,W,1,8,1.9,9,M,,M,,*64
06/05/2014	09:03:20.736	$GPGGA,090321,2437.2410,N,08059.2767,W,1,8,1.9,9,M,,M,,*65
06/05/2014	09:03:21.742	$GPGGA,090322,2437.2400,N,08059.2793,W,1,8,1.9,9,M,,M,,*6C
06/05/2014	09:03:22.776	$GPGGA,090323,2437.2392,N,08059.2818,W,1,8,1.9,9,M,,M,,*6D
06/05/2014	09:03:23.872	$GPGGA,090324,2437.2384,N,08059.2844,W,1,8,1.9,9,M,,M,,*64
06/05/2014	09:03:24.767	$GPGGA,090325,2437.2376,N,08059.2869,W,1,8,1.9,9,M,,M,,*67
06/05/2014	09:03:25.772	$GPGGA,090326,2437.2367,N,08059.2894,W,1,8,1.9,9,M,,M,,*66
06/05/2014	09:03:26.768	$GPGGA,090327,2437.2359,N,08059.2921,W,1,8,1.9,9,M,,M,,*65
06/05/2014	09:03:27.783	$GPGGA,090328,2437.2349,N,08059.2948,W,1,8,1.9,9,M,,M,,*64
06/05/2014	09:03:28.778	$GPGGA,090329,2437.2338,N,08059.2977,W,1,7,2.0,9,M,,M,,*6A
06/05/2014	09:03:29.894	$GPGGA,090330,2437.2329,N,08059.3002,W,1,7,1.9,9,M,,M,,*62
06/05/2014	09:03:30.789	$GPGGA,090331,2437.2320,N,08059.3028,W,1,8,1.9,9,M,,M,,*6D
06/05/2014	09:03:31.795	$GPGGA,090332,2437.2310,N,08059.3054,W,1,8,1.9,9,M,,M,,*66
06/05/2014	09:03:32.578	$GPGGA,090333,2437.2300,N,08059.3082,W,1,7,2.0,9,M,,M,,*68
06/05/2014	09:03:33.473	$GPGGA,090334,2437.2292,N,08059.3107,W,1,7,1.9,10,M,,M,,*5B
06/05/2014	09:03:34.479	$GPGGA,090335,2437.2283,N,08059.3132,W,1,8,1.9,10,M,,M,,*53
06/05/2014	09:03:35.585	$GPGGA,090336,2437.2273,N,08059.3158,W,1,8,1.9,10,M,,M,,*53
06/05/2014	09:03:36.489	$GPGGA,090337,2437.2264,N,08059.3184,W,1,8,1.9,10,M,,M,,*55
06/05/2014	09:03:37.575	$GPGGA,090338,2437.2256,N,08059.3212,W,1,8,1.9,10,M,,M,,*57
06/05/2014	09:03:38.482	$GPGGA,090339,2437.2248,N,08059.3238,W,1,8,1.9,10,M,,M,,*51
06/05/2014	09:03:39.596	$GPGGA,090340,2437.2240,N,08059.3266,W,1,8,1.9,10,M,,M,,*5C
06/05/2014	09:03:40.611	$GPGGA,090341,2437.2230,N,08059.3292,W,1,8,1.9,10,M,,M,,*51
06/05/2014	09:03:41.587	$GPGGA,090342,2437.2222,N,08059.3320,W,1,8,1.9,10,M,,M,,*59
06/05/2014	09:03:42.621	$GPGGA,090343,2437.2212,N,08059.3347,W,1,8,1.9,10,M,,M,,*5A
06/05/2014	09:03:43.597	$GPGGA,090344,2437.2204,N,08059.3374,W,1,8,1.9,10,M,,M,,*5A
06/05/2014	09:03:44.652	$GPGGA,090345,2437.2195,N,08059.3400,W,1,8,1.9,10,M,,M,,*54
06/05/2014	09:03:45.597	$GPGGA,090346,2437.2186,N,08059.3426,W,1,8,1.9,10,M,,M,,*51
06/05/2014	09:03:46.623	$GPGGA,090347,2437.2178,N,08059.3452,W,1,8,1.9,10,M,,M,,*52
06/05/2014	09:03:47.628	$GPGGA,090348,2437.2169,N,08059.3477,W,1,8,1.9,10,M,,M,,*5A
06/05/2014	09:03:48.604	$GPGGA,090349,2437.2160,N,08059.3502,W,1,8,1.9,10,M,,M,,*51
06/05/2014	09:03:49.629	$GPGGA,090350,2437.2152,N,08059.3530,W,1,8,1.9,10,M,,M,,*59
06/05/2014	09:03:50.644	$GPGGA,090351,2437.2144,N,08059.3556,W,1,8,1.9,10,M,,M,,*5F
06/05/2014	09:03:51.640	$GPGGA,090352,2437.2135,N,08059.3584,W,1,8,1.9,10,M,,M,,*55
06/05/2014	09:03:52.645	$GPGGA,090353,2437.2125,N,08059.3611,W,1,8,1.9,10,M,,M,,*5A
06/05/2014	09:03:53.620	$GPGGA,090354,2437.2117,N,08059.3639,W,1,8,1.9,10,M,,M,,*56
06/05/2014	09:03:54.646	$GPGGA,090355,2437.2108,N,08059.3667,W,1,8,1.9,9,M,,M,,*6A
06/05/2014	09:03:55.651	$GPGGA,090356,2437.2099,N,08059.3692,W,1,8,1.9,9,M,,M,,*6A
06/05/2014	09:03:56.657	$GPGGA,090357,2437.2090,N,08059.3717,W,1,8,1.9,9,M,,M,,*6E
06/05/2014	09:03:57.641	$GPGGA,090358,2437.2081,N,08059.3743,W,1,8,1.9,9,M,,M,,*60
06/05/2014	09:03:58.667	$GPGGA,090359,2437.2074,N,08059.3769,W,1,8,1.9,9,M,,M,,*63
06/05/2014	09:03:59.672	$GPGGA,090400,2437.2065,N,08059.3795,W,1,8,1.9,9,M,,M,,*6B
06/05/2014	09:04:00.677	$GPGGA,090401,2437.2056,N,08059.3822,W,1,8,1.9,9,M,,M,,*69
06/05/2014	09:04:01.663	$GPGGA,090402,2437.2047,N,08059.3851,W,1,8,1.9,9,M,,M,,*6E
06/05/2014	09:04:02.668	$GPGGA,090403,2437.2038,N,08059.3878,W,1,8,1.9,9,M,,M,,*6C
06/05/2014	09:04:03.673	$GPGGA,090404,2437.2029,N,08059.3906,W,1,8,1.9,9,M,,M,,*63
06/05/2014	09:04:04.669	$GPGGA,090405,2437.2020,N,08059.3932,W,1,8,1.9,9,M,,M,,*6C
06/05/2014	09:04:05.674	$GPGGA,090406,2437.2011,N,08059.3959,W,1,8,1.9,9,M,,M,,*60
06/05/2014	09:04:06.710	$GPGGA,090407,2437.2005,N,08059.3985,W,1,8,1.9,9,M,,M,,*65
06/05/2014	09:04:07.695	$GPGGA,090408,2437.1996,N,08059.4010,W,1,8,1.9,9,M,,M,,*68
06/05/2014	09:04:08.801	$GPGGA,090409,2437.1987,N,08059.4035,W,1,8,1.9,9,M,,M,,*6E
06/05/2014	09:04:09.686	$GPGGA,090410,2437.1978,N,08059.4061,W,1,8,1.9,9,M,,M,,*67
06/05/2014	09:04:10.812	$GPGGA,090411,2437.1970,N,08059.4089,W,1,8,1.9,9,M,,M,,*68
06/05/2014	09:04:11.807	$GPGGA,090412,2437.1962,N,08059.4115,W,1,8,1.9,9,M,,M,,*6C
06/05/2014	09:04:12.692	$GPGGA,090413,2437.1953,N,08059.4141,W,1,8,1.9,9,M,,M,,*6E
06/05/2014	09:04:13.788	$GPGGA,090414,2437.1945,N,08059.4167,W,1,8,1.9,9,M,,M,,*6A
06/05/2014	09:04:14.843	$GPGGA,090415,2437.1938,N,08059.4195,W,1,8,1.9,9,M,,M,,*6C
06/05/2014	09:04:15.717	$GPGGA,090416,2437.1929,N,08059.4221,W,1,8,1.9,9,M,,M,,*63
06/05/2014	09:04:16.713	$GPGGA,090417,2437.1919,N,08059.4248,W,1,8,1.9,9,M,,M,,*6E
06/05/2014	09:04:17.798	$GPGGA,090418,2437.1911,N,08059.4275,W,1,8,1.9,9,M,,M,,*67
06/05/2014	09:04:18.703	$GPGGA,090419,2437.1902,N,08059.4303,W,1,8,1.9,9,M,,M,,*64
06/05/2014	09:04:19.849	$GPGGA,090420,2437.1893,N,08059.4328,W,1,8,1.9,9,M,,M,,*6E
06/05/2014	09:04:20.835	$GPGGA,090421,2437.1883,N,08059.4355,W,1,8,2.0,9,M,,M,,*6E
06/05/2014	09:04:21.820	$GPGGA,090422,2437.1875,N,08059.4382,W,1,8,1.9,9,M,,M,,*64
06/05/2014	09:04:22.735	$GPGGA,090423,2437.1865,N,08059.4408,W,1,8,1.9,9,M,,M,,*61
06/05/2014	09:04:23.750	$GPGGA,090424,2437.1857,N,08059.4433,W,1,8,1.9,9,M,,M,,*6F
06/05/2014	09:04:24.846	$GPGGA,090425,2437.1847,N,08059.4459,W,1,8,1.9,9,M,,M,,*63
06/05/2014	09:04:25.741	$GPGGA,090426,2437.1839,N,08059.4485,W,1,8,1.9,9,M,,M,,*68
06/05/2014	09:04:26.867	$GPGGA,090427,2437.1828,N,08059.4513,W,1,8,1.9,9,M,,M,,*67
06/05/2014	09:04:27.872	$GPGGA,090428,2437.1821,N,08059.4541,W,1,8,1.9,9,M,,M,,*66
06/05/2014	09:04:28.858	$GPGGA,090429,2437.1810,N,08059.4567,W,1,8,1.9,9,M,,M,,*61
06/05/2014	09:04:29.863	$GPGGA,090430,2437.1800,N,08059.4593,W,1,8,1.9,9,M,,M,,*63
06/05/2014	09:04:30.879	$GPGGA,090431,2437.1792,N,08059.4621,W,1,8,1.9,9,M,,M,,*6C
06/05/2014	09:04:31.865	$GPGGA,090432,2437.1785,N,08059.4646,W,1,8,1.9,10,M,,M,,*50
06/05/2014	09:04:32.535	$GPGGA,090433,2437.1775,N,08059.4671,W,1,8,1.9,10,M,,M,,*5A
06/05/2014	09:04:33.542	$GPGGA,090434,2437.1767,N,08059.4696,W,1,8,1.9,10,M,,M,,*57
06/05/2014	09:04:34.596	$GPGGA,090435,2437.1759,N,08059.4722,W,1,8,1.9,10,M,,M,,*55
06/05/2014	09:04:35.572	$GPGGA,090436,2437.1749,N,08059.4747,W,1,8,1.9,10,M,,M,,*54
06/05/2014	09:04:36.577	$GPGGA,090437,2437.1740,N,08059.4772,W,1,8,1.9,10,M,,M,,*5A
06/05/2014	09:04:37.552	$GPGGA,090438,2437.1732,N,08059.4799,W,1,8,1.9,10,M,,M,,*55
06/05/2014	09:04:38.589	$GPGGA,090439,2437.1722,N,08059.4827,W,1,8,1.9,10,M,,M,,*5F
06/05/2014	09:04:39.593	$GPGGA,090440,2437.1713,N,08059.4852,W,1,8,1.9,10,M,,M,,*51
06/05/2014	09:04:40.581	$GPGGA,090441,2437.1703,N,08059.4881,W,1,8,2.0,10,M,,M,,*55
06/05/2014	09:04:41.574	$GPGGA,090442,2437.1694,N,08059.4907,W,1,8,2.0,10,M,,M,,*56
06/05/2014	09:04:42.589	$GPGGA,090443,2437.1684,N,08059.4933,W,1,7,1.9,10,M,,M,,*54
06/05/2014	09:04:43.585	$GPGGA,090444,2437.1675,N,08059.4960,W,1,7,1.9,10,M,,M,,*5B
06/05/2014	09:04:44.610	$GPGGA,090445,2437.1666,N,08059.4986,W,1,8,1.9,10,M,,M,,*5F
06/05/2014	09:04:45.575	$GPGGA,090446,2437.1658,N,08059.5012,W,1,8,1.9,10,M,,M,,*54
06/05/2014	09:04:46.635	$GPGGA,090447,2437.1649,N,08059.5038,W,1,8,1.9,10,M,,M,,*5D
06/05/2014	09:04:47.606	$GPGGA,090448,2437.1641,N,08059.5065,W,1,8,1.9,10,M,,M,,*52
06/05/2014	09:04:48.581	$GPGGA,090449,2437.1633,N,08059.5090,W,1,8,1.9,10,M,,M,,*5C
06/05/2014	09:04:49.597	$GPGGA,090450,2437.1623,N,08059.5116,W,1,8,1.9,10,M,,M,,*5A
06/05/2014	09:04:50.631	$GPGGA,090451,2437.1615,N,08059.5145,W,1,8,1.9,10,M,,M,,*58
06/05/2014	09:04:51.617	$GPGGA,090452,2437.1608,N,08059.5173,W,1,8,2.4,10,M,,M,,*5C
06/05/2014	09:04:52.622	$GPGGA,090453,2437.1597,N,08059.5199,W,1,7,1.9,10,M,,M,,*5D
06/05/2014	09:04:53.607	$GPGGA,090454,2437.1590,N,08059.5224,W,1,7,1.9,10,M,,M,,*58
06/05/2014	09:04:54.657	$GPGGA,090455,2437.1581,N,08059.5250,W,1,8,1.9,10,M,,M,,*55
06/05/2014	09:04:55.628	$GPGGA,090456,2437.1575,N,08059.5276,W,1,8,1.9,10,M,,M,,*59
06/05/2014	09:04:56.614	$GPGGA,090457,2437.1566,N,08059.5301,W,1,8,1.9,10,M,,M,,*5B
06/05/2014	09:04:57.730	$GPGGA,090458,2437.1558,N,08059.5326,W,1,8,1.9,10,M,,M,,*5C
06/05/2014	09:04:58.735	$GPGGA,090459,2437.1551,N,08059.5354,W,1,8,1.9,10,M,,M,,*51
06/05/2014	09:04:59.670	$GPGGA,090500,2437.1544,N,08059.5380,W,1,8,1.9,10,M,,M,,*51
06/05/2014	09:05:00.625	$GPGGA,090501,2437.1535,N,08059.5406,W,1,8,1.9,10,M,,M,,*5F
06/05/2014	09:05:01.751	$GPGGA,090502,2437.1526,N,08059.5434,W,1,8,1.9,10,M,,M,,*5F
06/05/2014	09:05:02.726	$GPGGA,090503,2437.1519,N,08059.5462,W,1,8,1.9,10,M,,M,,*51
06/05/2014	09:05:03.671	$GPGGA,090504,2437.1511,N,08059.5488,W,1,8,1.9,10,M,,M,,*5A
06/05/2014	09:05:04.757	$GPGGA,090505,2437.1503,N,08059.5513,W,1,8,1.9,10,M,,M,,*5B
06/05/2014	09:05:05.652	$GPGGA,090506,2437.1494,N,08059.5539,W,1,8,1.9,10,M,,M,,*5F
06/05/2014	09:05:06.658	$GPGGA,090507,2437.1487,N,08059.5567,W,1,8,1.9,10,M,,M,,*57
06/05/2014	09:05:07.793	$GPGGA,090508,2437.1478,N,08059.5592,W,1,8,1.9,10,M,,M,,*52
06/05/2014	09:05:08.687	$GPGGA,090509,2437.1470,N,08059.5618,W,1,8,1.9,11,M,,M,,*5B
06/05/2014	09:05:09.673	$GPGGA,090510,2437.1463,N,08059.5645,W,1,8,2.2,11,M,,M,,*51
06/05/2014	09:05:10.688	$GPGGA,090511,2437.1454,N,08059.5672,W,1,7,1.9,11,M,,M,,*57
06/05/2014	09:05:11.704	$GPGGA,090512,2437.1445,N,08059.5698,W,1,7,1.9,11,M,,M,,*50
06/05/2014	09:05:12.810	$GPGGA,090513,2437.1436,N,08059.5726,W,1,8,1.9,11,M,,M,,*5E
06/05/2014	09:05:13.684	$GPGGA,090514,2437.1429,N,08059.5753,W,1,8,1.9,11,M,,M,,*55
06/05/2014	09:05:14.810	$GPGGA,090515,2437.1420,N,08059.5780,W,1,8,1.9,11,M,,M,,*53
06/05/2014	09:05:15.786	$GPGGA,090516,2437.1410,N,08059.5806,W,1,8,1.9,11,M,,M,,*52
06/05/2014	09:05:16.783	$GPGGA,090517,2437.1402,N,08059.5834,W,1,8,1.9,11,M,,M,,*51
06/05/2014	09:05:17.787	$GPGGA,090518,2437.1395,N,08059.5860,W,1,8,1.9,11,M,,M,,*56
06/05/2014	09:05:18.822	$GPGGA,090519,2437.1385,N,08059.5885,W,1,8,1.9,11,M,,M,,*5D
06/05/2014	09:05:19.817	$GPGGA,090520,2437.1375,N,08059.5911,W,1,8,1.9,12,M,,M,,*57
06/05/2014	09:05:20.805	$GPGGA,090521,2437.1367,N,08059.5939,W,1,8,1.9,12,M,,M,,*5F
06/05/2014	09:05:23.045	$GPGGA,090523,2437.1349,N,08059.5991,W,1,8,1.9,12,M,,M,,*53
06/05/2014	09:05:23.822	$GPGGA,090524,2437.1339,N,08059.6019,W,1,8,1.9,12,M,,M,,*59
06/05/2014	09:05:24.826	$GPGGA,090525,2437.1331,N,08059.6046,W,1,8,1.9,12,M,,M,,*5A
06/05/2014	09:05:25.818	$GPGGA,090526,2437.1321,N,08059.6073,W,1,8,1.9,12,M,,M,,*5E
06/05/2014	09:05:26.840	$GPGGA,090527,2437.1311,N,08059.6099,W,1,8,1.9,12,M,,M,,*58
06/05/2014	09:05:27.829	$GPGGA,090528,2437.1302,N,08059.6125,W,1,8,1.9,12,M,,M,,*53
06/05/2014	09:05:28.836	$GPGGA,090529,2437.1293,N,08059.6152,W,1,8,1.9,12,M,,M,,*5B
06/05/2014	09:05:29.840	$GPGGA,090530,2437.1286,N,08059.6178,W,1,8,1.9,13,M,,M,,*5E
06/05/2014	09:05:30.845	$GPGGA,090531,2437.1275,N,08059.6204,W,1,8,1.9,13,M,,M,,*5B
06/05/2014	09:05:31.851	$GPGGA,090532,2437.1264,N,08059.6230,W,1,8,1.9,13,M,,M,,*5F
06/05/2014	09:05:32.533	$GPGGA,090533,2437.1256,N,08059.6257,W,1,8,1.9,13,M,,M,,*5E
06/05/2014	09:05:33.508	$GPGGA,090534,2437.1247,N,08059.6283,W,1,8,1.9,13,M,,M,,*50
06/05/2014	09:05:34.514	$GPGGA,090535,2437.1237,N,08059.6309,W,1,8,1.9,13,M,,M,,*55
06/05/2014	09:05:35.539	$GPGGA,090536,2437.1229,N,08059.6334,W,1,8,1.9,13,M,,M,,*57
06/05/2014	09:05:36.555	$GPGGA,090537,2437.1221,N,08059.6360,W,1,8,1.9,13,M,,M,,*5F
06/05/2014	09:05:37.520	$GPGGA,090538,2437.1210,N,08059.6387,W,1,8,1.9,13,M,,M,,*5B
06/05/2014	09:05:38.546	$GPGGA,090539,2437.1201,N,08059.6413,W,1,8,1.9,13,M,,M,,*50
06/05/2014	09:05:39.551	$GPGGA,090540,2437.1192,N,08059.6441,W,1,8,1.9,13,M,,M,,*50
06/05/2014	09:05:40.527	$GPGGA,090541,2437.1183,N,08059.6467,W,1,8,1.9,13,M,,M,,*55
06/05/2014	09:05:41.542	$GPGGA,090542,2437.1174,N,08059.6493,W,1,8,1.9,13,M,,M,,*55
06/05/2014	09:05:42.567	$GPGGA,090543,2437.1164,N,08059.6518,W,1,8,1.9,13,M,,M,,*57
06/05/2014	09:05:43.561	$GPGGA,090544,2437.1156,N,08059.6543,W,1,8,1.9,13,M,,M,,*5F
06/05/2014	09:05:44.557	$GPGGA,090545,2437.1147,N,08059.6568,W,1,8,1.9,13,M,,M,,*57
06/05/2014	09:05:45.542	$GPGGA,090546,2437.1138,N,08059.6594,W,1,8,1.9,13,M,,M,,*5F
06/05/2014	09:05:46.588	$GPGGA,090547,2437.1129,N,08059.6620,W,1,8,1.9,13,M,,M,,*52
06/05/2014	09:05:47.573	$GPGGA,090548,2437.1120,N,08059.6647,W,1,8,1.9,13,M,,M,,*55
06/05/2014	09:05:48.558	$GPGGA,090549,2437.1110,N,08059.6673,W,1,8,1.9,13,M,,M,,*50
06/05/2014	09:05:49.584	$GPGGA,090550,2437.1102,N,08059.6701,W,1,8,1.9,14,M,,M,,*58
06/05/2014	09:05:50.579	$GPGGA,090551,2437.1093,N,08059.6727,W,1,8,1.9,14,M,,M,,*54
06/05/2014	09:05:51.585	$GPGGA,090552,2437.1084,N,08059.6752,W,1,8,1.9,14,M,,M,,*53
06/05/2014	09:05:52.580	$GPGGA,090553,2437.1074,N,08059.6777,W,1,8,1.9,14,M,,M,,*5A
06/05/2014	09:05:53.575	$GPGGA,090554,2437.1066,N,08059.6801,W,1,8,1.9,14,M,,M,,*50
06/05/2014	09:05:54.581	$GPGGA,090555,2437.1057,N,08059.6828,W,1,8,1.9,14,M,,M,,*58
06/05/2014	09:05:55.596	$GPGGA,090556,2437.1048,N,08059.6854,W,1,8,1.9,14,M,,M,,*5E
06/05/2014	09:05:56.682	$GPGGA,090557,2437.1038,N,08059.6880,W,1,8,1.9,14,M,,M,,*51
06/05/2014	09:05:57.597	$GPGGA,090558,2437.1030,N,08059.6908,W,1,8,1.9,14,M,,M,,*57
06/05/2014	09:05:58.733	$GPGGA,090559,2437.1020,N,08059.6934,W,1,8,1.9,14,M,,M,,*58
06/05/2014	09:05:59.718	$GPGGA,090600,2437.1012,N,08059.6962,W,1,8,1.9,14,M,,M,,*55
06/05/2014	09:06:00.743	$GPGGA,090601,2437.1002,N,08059.6990,W,1,8,1.9,14,M,,M,,*58
06/05/2014	09:06:01.699	$GPGGA,090602,2437.0993,N,08059.7016,W,1,8,1.9,14,M,,M,,*5D
06/05/2014	09:06:02.743	$GPGGA,090603,2437.0985,N,08059.7042,W,1,8,1.9,14,M,,M,,*5A
06/05/2014	09:06:03.729	$GPGGA,090604,2437.0976,N,08059.7068,W,1,8,1.9,14,M,,M,,*59
06/05/2014	09:06:04.714	$GPGGA,090605,2437.0969,N,08059.7095,W,1,8,1.9,14,M,,M,,*54
06/05/2014	09:06:05.709	$GPGGA,090606,2437.0961,N,08059.7122,W,1,8,1.9,14,M,,M,,*52
06/05/2014	09:06:06.725	$GPGGA,090607,2437.0952,N,08059.7149,W,1,8,1.9,14,M,,M,,*5E
06/05/2014	09:06:07.740	$GPGGA,090608,2437.0944,N,08059.7175,W,1,8,1.9,14,M,,M,,*59
06/05/2014	09:06:08.756	$GPGGA,090609,2437.0936,N,08059.7202,W,1,8,1.9,14,M,,M,,*5E
06/05/2014	09:06:09.731	$GPGGA,090610,2437.0928,N,08059.7229,W,1,8,1.9,14,M,,M,,*50
06/05/2014	09:06:10.726	$GPGGA,090611,2437.0919,N,08059.7256,W,1,8,1.9,14,M,,M,,*5B
06/05/2014	09:06:11.753	$GPGGA,090612,2437.0910,N,08059.7283,W,1,8,1.9,14,M,,M,,*59
06/05/2014	09:06:12.757	$GPGGA,090613,2437.0902,N,08059.7309,W,1,8,1.9,14,M,,M,,*58
06/05/2014	09:06:13.743	$GPGGA,090614,2437.0893,N,08059.7337,W,1,8,1.9,14,M,,M,,*5B
06/05/2014	09:06:14.778	$GPGGA,090615,2437.0885,N,08059.7363,W,1,8,1.9,14,M,,M,,*5C
06/05/2014	09:06:15.763	$GPGGA,090616,2437.0878,N,08059.7388,W,1,8,1.9,14,M,,M,,*58
06/05/2014	09:06:16.779	$GPGGA,090617,2437.0871,N,08059.7414,W,1,8,1.9,14,M,,M,,*52
06/05/2014	09:06:17.753	$GPGGA,090618,2437.0862,N,08059.7440,W,1,8,1.9,14,M,,M,,*5E
06/05/2014	09:06:18.758	$GPGGA,090619,2437.0855,N,08059.7467,W,1,8,1.9,14,M,,M,,*5E
06/05/2014	09:06:19.794	$GPGGA,090620,2437.0849,N,08059.7494,W,1,8,1.9,14,M,,M,,*55
06/05/2014	09:06:20.790	$GPGGA,090621,2437.0840,N,08059.7522,W,1,8,1.9,14,M,,M,,*51
06/05/2014	09:06:21.765	$GPGGA,090622,2437.0832,N,08059.7548,W,1,8,1.9,14,M,,M,,*5B
06/05/2014	09:06:22.770	$GPGGA,090623,2437.0825,N,08059.7576,W,1,8,1.9,14,M,,M,,*51
06/05/2014	09:06:23.796	$GPGGA,090624,2437.0817,N,08059.7605,W,1,8,1.9,14,M,,M,,*50
06/05/2014	09:06:24.791	$GPGGA,090625,2437.0808,N,08059.7631,W,1,8,1.9,14,M,,M,,*58
06/05/2014	09:06:25.776	$GPGGA,090626,2437.0799,N,08059.7657,W,1,8,1.9,14,M,,M,,*5C
06/05/2014	09:06:26.782	$GPGGA,090627,2437.0791,N,08059.7684,W,1,8,1.9,13,M,,M,,*5C
06/05/2014	09:06:27.807	$GPGGA,090628,2437.0782,N,08059.7707,W,1,8,1.9,13,M,,M,,*5B
06/05/2014	09:06:28.833	$GPGGA,090629,2437.0773,N,08059.7732,W,1,8,1.9,13,M,,M,,*52
06/05/2014	09:06:29.818	$GPGGA,090630,2437.0764,N,08059.7758,W,1,8,1.9,13,M,,M,,*50
06/05/2014	09:06:30.793	$GPGGA,090631,2437.0755,N,08059.7785,W,1,8,1.9,13,M,,M,,*53
06/05/2014	09:06:31.829	$GPGGA,090632,2437.0745,N,08059.7811,W,1,8,1.9,13,M,,M,,*53
06/05/2014	09:06:32.512	$GPGGA,090633,2437.0735,N,08059.7839,W,1,8,1.9,13,M,,M,,*5F
06/05/2014	09:06:33.477	$GPGGA,090634,2437.0726,N,08059.7866,W,1,8,1.9,13,M,,M,,*50
06/05/2014	09:06:34.513	$GPGGA,090635,2437.0717,N,08059.7894,W,1,8,1.9,13,M,,M,,*5E
06/05/2014	09:06:35.517	$GPGGA,090636,2437.0706,N,08059.7920,W,1,8,1.9,13,M,,M,,*53
06/05/2014	09:06:36.492	$GPGGA,090637,2437.0696,N,08059.7946,W,1,8,1.9,13,M,,M,,*5A
06/05/2014	09:06:37.619	$GPGGA,090638,2437.0687,N,08059.7973,W,1,8,1.9,13,M,,M,,*53
06/05/2014	09:06:38.503	$GPGGA,090639,2437.0678,N,08059.7999,W,1,8,1.9,13,M,,M,,*56
06/05/2014	09:06:39.539	$GPGGA,090640,2437.0668,N,08059.8024,W,1,8,1.9,13,M,,M,,*59
06/05/2014	09:06:40.625	$GPGGA,090641,2437.0659,N,08059.8047,W,1,8,1.9,13,M,,M,,*5F
06/05/2014	09:06:41.530	$GPGGA,090642,2437.0649,N,08059.8074,W,1,8,1.9,13,M,,M,,*5D
06/05/2014	09:06:42.515	$GPGGA,090643,2437.0639,N,08059.8100,W,1,8,1.9,13,M,,M,,*59
06/05/2014	09:06:43.651	$GPGGA,090644,2437.0629,N,08059.8128,W,1,8,1.9,12,M,,M,,*54
06/05/2014	09:06:44.526	$GPGGA,090645,2437.0619,N,08059.8154,W,1,8,1.9,12,M,,M,,*5D
06/05/2014	09:06:45.622	$GPGGA,090646,2437.0608,N,08059.8183,W,1,8,1.9,12,M,,M,,*54
06/05/2014	09:06:46.536	$GPGGA,090647,2437.0600,N,08059.8209,W,1,8,1.9,12,M,,M,,*5C
06/05/2014	09:06:47.552	$GPGGA,090648,2437.0589,N,08059.8235,W,1,8,1.9,12,M,,M,,*5E
06/05/2014	09:06:48.547	$GPGGA,090649,2437.0580,N,08059.8260,W,1,8,1.9,12,M,,M,,*56
06/05/2014	09:06:49.643	$GPGGA,090650,2437.0571,N,08059.8285,W,1,8,1.9,12,M,,M,,*5B
06/05/2014	09:06:50.679	$GPGGA,090651,2437.0562,N,08059.8310,W,1,8,1.9,12,M,,M,,*55
06/05/2014	09:06:51.563	$GPGGA,090652,2437.0554,N,08059.8336,W,1,8,1.9,12,M,,M,,*57
06/05/2014	09:06:52.658	$GPGGA,090653,2437.0546,N,08059.8363,W,1,8,1.9,12,M,,M,,*55
06/05/2014	09:06:53.664	$GPGGA,090654,2437.0538,N,08059.8390,W,1,8,2.4,12,M,,M,,*59
06/05/2014	09:06:54.669	$GPGGA,090655,2437.0529,N,08059.8418,W,1,8,1.9,12,M,,M,,*51
06/05/2014	09:06:55.664	$GPGGA,090656,2437.0520,N,08059.8447,W,1,8,1.9,12,M,,M,,*51
06/05/2014	09:06:56.680	$GPGGA,090657,2437.0510,N,08059.8475,W,1,8,1.9,12,M,,M,,*52
06/05/2014	09:06:57.665	$GPGGA,090658,2437.0501,N,08059.8501,W,1,8,1.9,12,M,,M,,*5F
06/05/2014	09:06:58.681	$GPGGA,090659,2437.0492,N,08059.8529,W,1,8,1.9,12,M,,M,,*5F
06/05/2014	09:06:59.716	$GPGGA,090700,2437.0484,N,08059.8555,W,1,8,2.4,12,M,,M,,*50
06/05/2014	09:07:00.691	$GPGGA,090701,2437.0478,N,08059.8580,W,1,7,2.4,12,M,,M,,*55
06/05/2014	09:07:01.687	$GPGGA,090702,2437.0471,N,08059.8606,W,1,7,1.9,12,M,,M,,*5C
06/05/2014	09:07:02.692	$GPGGA,090703,2437.0466,N,08059.8632,W,1,8,1.9,12,M,,M,,*53
06/05/2014	09:07:03.708	$GPGGA,090704,2437.0459,N,08059.8658,W,1,8,1.9,12,M,,M,,*54
06/05/2014	09:07:04.703	$GPGGA,090705,2437.0450,N,08059.8685,W,1,8,1.9,12,M,,M,,*5C
06/05/2014	09:07:05.699	$GPGGA,090706,2437.0442,N,08059.8714,W,1,8,1.9,12,M,,M,,*55
06/05/2014	09:07:06.724	$GPGGA,090707,2437.0435,N,08059.8743,W,1,8,1.9,13,M,,M,,*57
06/05/2014	09:07:07.719	$GPGGA,090708,2437.0426,N,08059.8770,W,1,8,1.9,13,M,,M,,*5A
06/05/2014	09:07:08.715	$GPGGA,090709,2437.0419,N,08059.8798,W,1,8,1.9,13,M,,M,,*51
06/05/2014	09:07:09.730	$GPGGA,090710,2437.0410,N,08059.8826,W,1,8,2.2,13,M,,M,,*52
06/05/2014	09:07:10.734	$GPGGA,090711,2437.0401,N,08059.8852,W,1,7,2.2,13,M,,M,,*5F
06/05/2014	09:07:11.730	$GPGGA,090712,2437.0394,N,08059.8878,W,1,7,1.9,13,M,,M,,*57
06/05/2014	09:07:12.715	$GPGGA,090713,2437.0387,N,08059.8905,W,1,8,1.9,13,M,,M,,*50
06/05/2014	09:07:13.730	$GPGGA,090714,2437.0379,N,08059.8930,W,1,8,1.9,13,M,,M,,*50
06/05/2014	09:07:14.724	$GPGGA,090715,2437.0372,N,08059.8956,W,1,8,1.9,13,M,,M,,*5A
06/05/2014	09:07:15.747	$GPGGA,090716,2437.0363,N,08059.8982,W,1,8,1.9,13,M,,M,,*50
06/05/2014	09:07:16.721	$GPGGA,090717,2437.0355,N,08059.9010,W,1,8,1.9,13,M,,M,,*57
06/05/2014	09:07:17.755	$GPGGA,090718,2437.0347,N,08059.9039,W,1,8,1.9,13,M,,M,,*50
06/05/2014	09:07:18.758	$GPGGA,090719,2437.0337,N,08059.9068,W,1,8,1.9,13,M,,M,,*52
06/05/2014	09:07:19.752	$GPGGA,090720,2437.0329,N,08059.9095,W,1,8,1.9,13,M,,M,,*55
06/05/2014	09:07:20.755	$GPGGA,090721,2437.0320,N,08059.9122,W,1,8,1.9,13,M,,M,,*50
06/05/2014	09:07:21.729	$GPGGA,090722,2437.0312,N,08059.9147,W,1,8,1.9,13,M,,M,,*51
06/05/2014	09:07:24.328	$GPGGA,090724,2437.0294,N,08059.9198,W,1,8,1.9,13,M,,M,,*5A
06/05/2014	09:07:24.740	$GPGGA,090725,2437.0286,N,08059.9223,W,1,8,1.9,13,M,,M,,*5B
06/05/2014	09:07:25.743	$GPGGA,090726,2437.0276,N,08059.9249,W,1,8,1.9,13,M,,M,,*5B
06/05/2014	09:07:26.747	$GPGGA,090727,2437.0267,N,08059.9274,W,1,8,1.9,13,M,,M,,*54
06/05/2014	09:07:27.759	$GPGGA,090728,2437.0257,N,08059.9301,W,1,8,1.9,13,M,,M,,*5B
06/05/2014	09:07:28.904	$GPGGA,090729,2437.0247,N,08059.9328,W,1,8,1.9,14,M,,M,,*57
06/05/2014	09:07:29.767	$GPGGA,090730,2437.0237,N,08059.9357,W,1,8,1.9,14,M,,M,,*50
06/05/2014	09:07:30.750	$GPGGA,090731,2437.0228,N,08059.9383,W,1,8,1.9,14,M,,M,,*56
06/05/2014	09:07:31.924	$GPGGA,090732,2437.0219,N,08059.9409,W,1,8,1.9,14,M,,M,,*52
06/05/2014	09:07:32.468	$GPGGA,090733,2437.0210,N,08059.9434,W,1,8,1.9,14,M,,M,,*54
06/05/2014	09:07:33.552	$GPGGA,090734,2437.0201,N,08059.9459,W,1,8,1.9,14,M,,M,,*58
06/05/2014	09:07:34.616	$GPGGA,090735,2437.0193,N,08059.9484,W,1,8,1.9,14,M,,M,,*51
06/05/2014	09:07:35.469	$GPGGA,090736,2437.0185,N,08059.9510,W,1,8,1.9,14,M,,M,,*59
06/05/2014	09:07:36.463	$GPGGA,090737,2437.0175,N,08059.9535,W,1,8,1.9,14,M,,M,,*50
06/05/2014	09:07:37.577	$GPGGA,090738,2437.0166,N,08059.9563,W,1,8,1.9,14,M,,M,,*5E
06/05/2014	09:07:38.651	$GPGGA,090739,2437.0157,N,08059.9590,W,1,8,1.9,14,M,,M,,*51
06/05/2014	09:07:39.494	$GPGGA,090740,2437.0148,N,08059.9617,W,1,8,1.9,14,M,,M,,*5D
06/05/2014	09:07:40.477	$GPGGA,090741,2437.0138,N,08059.9643,W,1,8,1.9,14,M,,M,,*5A
06/05/2014	09:07:41.571	$GPGGA,090742,2437.0130,N,08059.9669,W,1,8,1.9,14,M,,M,,*59
06/05/2014	09:07:42.565	$GPGGA,090743,2437.0120,N,08059.9696,W,1,8,1.9,14,M,,M,,*59
06/05/2014	09:07:43.578	$GPGGA,090744,2437.0112,N,08059.9722,W,1,8,1.9,14,M,,M,,*51
06/05/2014	09:07:44.642	$GPGGA,090745,2437.0101,N,08059.9747,W,1,7,2.4,14,M,,M,,*50
06/05/2014	09:07:45.645	$GPGGA,090746,2437.0092,N,08059.9773,W,1,7,2.4,14,M,,M,,*5F
06/05/2014	09:07:46.618	$GPGGA,090747,2437.0085,N,08059.9801,W,1,7,1.9,15,M,,M,,*5D
06/05/2014	09:07:47.592	$GPGGA,090748,2437.0077,N,08059.9827,W,1,7,1.9,15,M,,M,,*5B
06/05/2014	09:07:48.575	$GPGGA,090749,2437.0069,N,08059.9855,W,1,8,1.9,15,M,,M,,*5F
06/05/2014	09:07:49.669	$GPGGA,090750,2437.0060,N,08059.9881,W,1,8,1.9,15,M,,M,,*57
06/05/2014	09:07:50.633	$GPGGA,090751,2437.0051,N,08059.9906,W,1,8,1.9,15,M,,M,,*5A
06/05/2014	09:07:51.596	$GPGGA,090752,2437.0041,N,08059.9931,W,1,8,1.9,15,M,,M,,*5C
06/05/2014	09:07:52.630	$GPGGA,090753,2437.0033,N,08059.9958,W,1,8,1.9,15,M,,M,,*57
06/05/2014	09:07:53.643	$GPGGA,090754,2437.0025,N,08059.9986,W,1,8,1.9,15,M,,M,,*54
06/05/2014	09:07:54.637	$GPGGA,090755,2437.0016,N,08100.0011,W,1,8,1.9,15,M,,M,,*56
06/05/2014	09:07:55.691	$GPGGA,090756,2437.0008,N,08100.0038,W,1,8,2.1,15,M,,M,,*5A
06/05/2014	09:07:56.634	$GPGGA,090757,2437.0000,N,08100.0065,W,1,7,2.1,15,M,,M,,*54
06/05/2014	09:07:57.658	$GPGGA,090758,2436.9993,N,08100.0094,W,1,7,2.1,15,M,,M,,*5E
06/05/2014	09:07:58.651	$GPGGA,090759,2436.9984,N,08100.0120,W,1,8,1.9,15,M,,M,,*53
06/05/2014	09:07:59.695	$GPGGA,090800,2436.9975,N,08100.0145,W,1,8,1.9,15,M,,M,,*5D
06/05/2014	09:08:00.648	$GPGGA,090801,2436.9967,N,08100.0173,W,1,8,1.9,15,M,,M,,*5A
06/05/2014	09:08:01.602	$GPGGA,090802,2436.9960,N,08100.0197,W,1,8,1.9,15,M,,M,,*54
06/05/2014	09:08:02.695	$GPGGA,090803,2436.9951,N,08100.0224,W,1,8,1.9,15,M,,M,,*5C
06/05/2014	09:08:03.688	$GPGGA,090804,2436.9943,N,08100.0249,W,1,8,1.9,15,M,,M,,*53
06/05/2014	09:08:04.672	$GPGGA,090805,2436.9935,N,08100.0275,W,1,7,1.9,15,M,,M,,*53
06/05/2014	09:08:05.665	$GPGGA,090806,2436.9925,N,08100.0303,W,1,7,1.9,15,M,,M,,*51
06/05/2014	09:08:06.609	$GPGGA,090807,2436.9915,N,08100.0329,W,1,8,1.9,15,M,,M,,*54
06/05/2014	09:08:07.673	$GPGGA,090808,2436.9906,N,08100.0357,W,1,8,1.9,15,M,,M,,*50
06/05/2014	09:08:08.676	$GPGGA,090809,2436.9897,N,08100.0384,W,1,8,1.9,15,M,,M,,*56
06/05/2014	09:08:09.690	$GPGGA,090810,2436.9888,N,08100.0412,W,1,8,1.9,15,M,,M,,*58
06/05/2014	09:08:10.663	$GPGGA,090811,2436.9879,N,08100.0437,W,1,8,1.9,15,M,,M,,*50
06/05/2014	09:08:11.747	$GPGGA,090812,2436.9870,N,08100.0462,W,1,8,1.9,15,M,,M,,*5A
06/05/2014	09:08:12.651	$GPGGA,090813,2436.9863,N,08100.0488,W,1,8,1.9,15,M,,M,,*5D
06/05/2014	09:08:13.674	$GPGGA,090814,2436.9855,N,08100.0514,W,1,8,1.9,15,M,,M,,*5B
06/05/2014	09:08:14.678	$GPGGA,090815,2436.9846,N,08100.0542,W,1,8,2.1,15,M,,M,,*50
06/05/2014	09:08:15.691	$GPGGA,090816,2436.9837,N,08100.0568,W,1,8,2.1,15,M,,M,,*5D
06/05/2014	09:08:16.755	$GPGGA,090817,2436.9828,N,08100.0596,W,1,8,1.9,15,M,,M,,*58
06/05/2014	09:08:17.679	$GPGGA,090818,2436.9819,N,08100.0623,W,1,8,1.9,15,M,,M,,*58
06/05/2014	09:08:18.652	$GPGGA,090819,2436.9809,N,08100.0650,W,1,8,1.9,15,M,,M,,*5C
06/05/2014	09:08:19.706	$GPGGA,090820,2436.9801,N,08100.0677,W,1,8,2.1,15,M,,M,,*50
06/05/2014	09:08:20.658	$GPGGA,090821,2436.9794,N,08100.0705,W,1,7,1.9,14,M,,M,,*53
06/05/2014	09:08:21.682	$GPGGA,090822,2436.9787,N,08100.0731,W,1,7,1.9,14,M,,M,,*55
06/05/2014	09:08:22.625	$GPGGA,090823,2436.9780,N,08100.0756,W,1,8,1.9,14,M,,M,,*5D
06/05/2014	09:08:23.749	$GPGGA,090824,2436.9771,N,08100.0782,W,1,8,2.1,14,M,,M,,*56
06/05/2014	09:08:24.743	$GPGGA,090825,2436.9762,N,08100.0807,W,1,7,1.9,14,M,,M,,*53
06/05/2014	09:08:25.696	$GPGGA,090826,2436.9753,N,08100.0834,W,1,7,1.9,14,M,,M,,*52
06/05/2014	09:08:26.670	$GPGGA,090827,2436.9744,N,08100.0860,W,1,8,1.9,14,M,,M,,*5B
06/05/2014	09:08:27.714	$GPGGA,090828,2436.9735,N,08100.0887,W,1,8,1.9,14,M,,M,,*5B
06/05/2014	09:08:28.757	$GPGGA,090829,2436.9726,N,08100.0915,W,1,8,1.9,14,M,,M,,*52
06/05/2014	09:08:29.721	$GPGGA,090830,2436.9717,N,08100.0943,W,1,8,1.9,14,M,,M,,*5B
06/05/2014	09:08:30.765	$GPGGA,090831,2436.9709,N,08100.0970,W,1,8,1.9,15,M,,M,,*54
06/05/2014	09:08:31.768	$GPGGA,090832,2436.9700,N,08100.0997,W,1,8,1.9,15,M,,M,,*57
06/05/2014	09:08:32.557	$GPGGA,090833,2436.9691,N,08100.1023,W,1,8,1.9,15,M,,M,,*58
06/05/2014	09:08:33.540	$GPGGA,090834,2436.9683,N,08100.1049,W,1,8,1.9,15,M,,M,,*50
06/05/2014	09:08:34.564	$GPGGA,090835,2436.9675,N,08100.1076,W,1,8,1.9,15,M,,M,,*54
06/05/2014	09:08:35.557	$GPGGA,090836,2436.9665,N,08100.1102,W,1,8,1.9,15,M,,M,,*54
06/05/2014	09:08:36.561	$GPGGA,090837,2436.9657,N,08100.1127,W,1,8,1.9,15,M,,M,,*53
06/05/2014	09:08:37.544	$GPGGA,090838,2436.9647,N,08100.1154,W,1,8,1.9,15,M,,M,,*59
06/05/2014	09:08:38.567	$GPGGA,090839,2436.9637,N,08100.1181,W,1,8,1.9,15,M,,M,,*57
06/05/2014	09:08:39.551	$GPGGA,090840,2436.9628,N,08100.1208,W,1,8,1.9,15,M,,M,,*55
06/05/2014	09:08:40.564	$GPGGA,090841,2436.9619,N,08100.1236,W,1,8,1.9,15,M,,M,,*5B
06/05/2014	09:08:41.569	$GPGGA,090842,2436.9610,N,08100.1264,W,1,8,1.9,15,M,,M,,*56
06/05/2014	09:08:42.572	$GPGGA,090843,2436.9600,N,08100.1290,W,1,8,1.9,15,M,,M,,*5D
06/05/2014	09:08:43.555	$GPGGA,090844,2436.9592,N,08100.1318,W,1,8,1.9,15,M,,M,,*53
06/05/2014	09:08:44.579	$GPGGA,090845,2436.9583,N,08100.1342,W,1,8,1.9,15,M,,M,,*5D
06/05/2014	09:08:45.552	$GPGGA,090846,2436.9575,N,08100.1367,W,1,8,1.9,15,M,,M,,*50
06/05/2014	09:08:46.556	$GPGGA,090847,2436.9566,N,08100.1394,W,1,8,1.9,15,M,,M,,*5F
06/05/2014	09:08:47.580	$GPGGA,090848,2436.9558,N,08100.1420,W,1,8,1.9,15,M,,M,,*55
06/05/2014	09:08:48.603	$GPGGA,090849,2436.9549,N,08100.1445,W,1,8,1.9,15,M,,M,,*57
06/05/2014	09:08:49.607	$GPGGA,090850,2436.9540,N,08100.1471,W,1,8,1.9,15,M,,M,,*51
06/05/2014	09:08:50.570	$GPGGA,090851,2436.9529,N,08100.1497,W,1,8,1.9,15,M,,M,,*57
06/05/2014	09:08:51.584	$GPGGA,090852,2436.9521,N,08100.1525,W,1,8,1.9,15,M,,M,,*54
06/05/2014	09:08:52.598	$GPGGA,090853,2436.9511,N,08100.1551,W,1,8,1.9,15,M,,M,,*55
06/05/2014	09:08:53.601	$GPGGA,090854,2436.9501,N,08100.1577,W,1,8,1.9,15,M,,M,,*57
06/05/2014	09:08:54.605	$GPGGA,090855,2436.9492,N,08100.1604,W,1,8,1.9,15,M,,M,,*5A
06/05/2014	09:08:55.597	$GPGGA,090856,2436.9484,N,08100.1629,W,1,8,1.9,15,M,,M,,*51
06/05/2014	09:08:56.611	$GPGGA,090857,2436.9474,N,08100.1655,W,1,8,1.9,15,M,,M,,*54
06/05/2014	09:08:57.635	$GPGGA,090858,2436.9464,N,08100.1680,W,1,8,1.9,15,M,,M,,*52
06/05/2014	09:08:58.578	$GPGGA,090859,2436.9456,N,08100.1706,W,1,8,1.9,15,M,,M,,*5D
06/05/2014	09:08:59.632	$GPGGA,090900,2436.9456,N,08100.1706,W,1,8,1.9,15,M,,M,,*50
06/05/2014	09:09:00.595	$GPGGA,090901,2436.9438,N,08100.1759,W,1,8,1.9,15,M,,M,,*53
06/05/2014	09:09:01.612	$GPGGA,090902,2436.9429,N,08100.1785,W,1,8,1.9,15,M,,M,,*51
06/05/2014	09:09:02.616	$GPGGA,090903,2436.9420,N,08100.1813,W,1,8,1.9,15,M,,M,,*59
06/05/2014	09:09:03.650	$GPGGA,090904,2436.9420,N,08100.1813,W,1,8,1.9,15,M,,M,,*5E
06/05/2014	09:09:04.705	$GPGGA,090905,2436.9404,N,08100.1868,W,1,8,1.9,15,M,,M,,*55
06/05/2014	09:09:05.678	$GPGGA,090906,2436.9404,N,08100.1868,W,1,8,1.9,15,M,,M,,*56
06/05/2014	09:09:06.692	$GPGGA,090907,2436.9386,N,08100.1920,W,1,8,1.9,15,M,,M,,*57
06/05/2014	09:09:07.757	$GPGGA,090908,2436.9386,N,08100.1920,W,1,8,1.9,15,M,,M,,*58
06/05/2014	09:09:08.750	$GPGGA,090909,2436.9369,N,08100.1974,W,1,8,1.9,15,M,,M,,*59
06/05/2014	09:09:09.774	$GPGGA,090910,2436.9369,N,08100.1974,W,1,8,1.9,15,M,,M,,*51
06/05/2014	09:09:10.798	$GPGGA,090911,2436.9352,N,08100.2027,W,1,8,1.9,15,M,,M,,*54
06/05/2014	09:09:11.812	$GPGGA,090912,2436.9352,N,08100.2027,W,1,8,1.9,15,M,,M,,*57
06/05/2014	09:09:12.958	$GPGGA,090913,2436.9336,N,08100.2079,W,1,8,1.9,15,M,,M,,*5F
06/05/2014	09:09:13.870	$GPGGA,090914,2436.9328,N,08100.2106,W,1,8,1.9,15,M,,M,,*5E
06/05/2014	09:09:14.966	$GPGGA,090915,2436.9318,N,08100.2133,W,1,8,1.9,15,M,,M,,*5A
06/05/2014	09:09:16.010	$GPGGA,090916,2436.9310,N,08100.2161,W,1,8,1.9,15,M,,M,,*56
06/05/2014	09:09:17.014	$GPGGA,090917,2436.9303,N,08100.2189,W,1,8,1.9,14,M,,M,,*52
06/05/2014	09:09:17.946	$GPGGA,090918,2436.9303,N,08100.2189,W,1,8,1.9,14,M,,M,,*5D
06/05/2014	09:09:19.082	$GPGGA,090919,2436.9283,N,08100.2240,W,1,8,1.9,14,M,,M,,*53
06/05/2014	09:09:20.090	$GPGGA,090920,2436.9276,N,08100.2266,W,1,8,1.9,14,M,,M,,*57
06/05/2014	09:09:21.118	$GPGGA,090921,2436.9267,N,08100.2291,W,1,8,1.9,14,M,,M,,*5E
06/05/2014	09:09:22.111	$GPGGA,090922,2436.9259,N,08100.2316,W,1,8,1.9,14,M,,M,,*5E
06/05/2014	09:09:23.165	$GPGGA,090923,2436.9252,N,08100.2342,W,1,8,1.8,14,M,,M,,*54
06/05/2014	09:09:24.178	$GPGGA,090924,2436.9243,N,08100.2370,W,1,8,1.8,14,M,,M,,*52
06/05/2014	09:09:25.192	$GPGGA,090925,2436.9235,N,08100.2396,W,1,8,1.8,14,M,,M,,*5A
06/05/2014	09:09:26.215	$GPGGA,090926,2436.9227,N,08100.2424,W,1,8,1.8,14,M,,M,,*54
06/05/2014	09:09:27.247	$GPGGA,090927,2436.9220,N,08100.2453,W,1,8,1.8,14,M,,M,,*52
06/05/2014	09:09:28.261	$GPGGA,090928,2436.9210,N,08100.2480,W,1,8,1.8,14,M,,M,,*50
06/05/2014	09:09:29.275	$GPGGA,090929,2436.9202,N,08100.2507,W,1,8,1.8,14,M,,M,,*5C
06/05/2014	09:09:30.309	$GPGGA,090930,2436.9192,N,08100.2533,W,1,8,1.8,14,M,,M,,*59
06/05/2014	09:09:31.331	$GPGGA,090931,2436.9185,N,08100.2559,W,1,8,1.8,14,M,,M,,*52
06/05/2014	09:09:32.344	$GPGGA,090932,2436.9177,N,08100.2584,W,1,8,2.4,14,M,,M,,*53
06/05/2014	09:09:32.541	$GPGGA,090933,2436.9169,N,08100.2609,W,1,8,1.8,14,M,,M,,*54
06/05/2014	09:09:33.544	$GPGGA,090934,2436.9162,N,08100.2635,W,1,8,2.4,14,M,,M,,*58
06/05/2014	09:09:34.588	$GPGGA,090935,2436.9152,N,08100.2662,W,1,8,1.8,14,M,,M,,*57
06/05/2014	09:09:35.592	$GPGGA,090936,2436.9144,N,08100.2688,W,1,8,2.4,14,M,,M,,*58
06/05/2014	09:09:36.614	$GPGGA,090937,2436.9135,N,08100.2717,W,1,8,1.8,14,M,,M,,*57
06/05/2014	09:09:37.617	$GPGGA,090938,2436.9126,N,08100.2743,W,1,8,1.8,14,M,,M,,*5B
06/05/2014	09:09:38.640	$GPGGA,090939,2436.9116,N,08100.2771,W,1,8,1.8,14,M,,M,,*58
06/05/2014	09:09:39.684	$GPGGA,090940,2436.9106,N,08100.2796,W,1,8,1.8,14,M,,M,,*5E
06/05/2014	09:09:40.737	$GPGGA,090941,2436.9097,N,08100.2822,W,1,8,1.8,13,M,,M,,*51
06/05/2014	09:09:41.711	$GPGGA,090942,2436.9090,N,08100.2847,W,1,8,1.8,13,M,,M,,*56
06/05/2014	09:09:42.724	$GPGGA,090943,2436.9081,N,08100.2872,W,1,8,1.8,13,M,,M,,*51
06/05/2014	09:09:43.778	$GPGGA,090944,2436.9072,N,08100.2897,W,1,8,1.8,13,M,,M,,*51
06/05/2014	09:09:44.781	$GPGGA,090945,2436.9061,N,08100.2921,W,1,7,2.4,13,M,,M,,*5E
06/05/2014	09:09:45.804	$GPGGA,090946,2436.9051,N,08100.2948,W,1,7,1.8,13,M,,M,,*5E
06/05/2014	09:09:46.839	$GPGGA,090947,2436.9043,N,08100.2977,W,1,8,1.8,13,M,,M,,*5F
06/05/2014	09:09:47.850	$GPGGA,090948,2436.9033,N,08100.3003,W,1,8,1.8,13,M,,M,,*5C
06/05/2014	09:09:48.977	$GPGGA,090949,2436.9022,N,08100.3031,W,1,7,2.4,13,M,,M,,*5C
06/05/2014	09:09:49.897	$GPGGA,090950,2436.9014,N,08100.3060,W,1,7,1.8,13,M,,M,,*5A
06/05/2014	09:09:50.910	$GPGGA,090951,2436.9007,N,08100.3087,W,1,8,1.8,13,M,,M,,*5F
06/05/2014	09:09:51.933	$GPGGA,090952,2436.8998,N,08100.3114,W,1,8,1.8,13,M,,M,,*59
06/05/2014	09:09:52.957	$GPGGA,090953,2436.8988,N,08100.3139,W,1,8,1.8,13,M,,M,,*56
06/05/2014	09:09:53.960	$GPGGA,090954,2436.8980,N,08100.3165,W,1,8,2.4,13,M,,M,,*5F
06/05/2014	09:09:55.014	$GPGGA,090955,2436.8974,N,08100.3190,W,1,8,1.8,13,M,,M,,*50
06/05/2014	09:09:56.027	$GPGGA,090956,2436.8964,N,08100.3215,W,1,8,1.8,13,M,,M,,*5C
06/05/2014	09:09:57.020	$GPGGA,090957,2436.8954,N,08100.3241,W,1,8,1.8,13,M,,M,,*5F
06/05/2014	09:09:58.166	$GPGGA,090958,2436.8945,N,08100.3269,W,1,8,1.8,13,M,,M,,*5A
06/05/2014	09:09:59.066	$GPGGA,090959,2436.8938,N,08100.3295,W,1,8,1.8,13,M,,M,,*52
06/05/2014	09:10:00.151	$GPGGA,091000,2436.8927,N,08100.3322,W,1,8,1.8,13,M,,M,,*55
06/05/2014	09:10:01.113	$GPGGA,091001,2436.8920,N,08100.3349,W,1,8,1.8,13,M,,M,,*5E
06/05/2014	09:10:02.249	$GPGGA,091002,2436.8910,N,08100.3376,W,1,8,1.8,13,M,,M,,*52
06/05/2014	09:10:03.293	$GPGGA,091003,2436.8902,N,08100.3403,W,1,8,1.8,13,M,,M,,*55
06/05/2014	09:10:04.306	$GPGGA,091004,2436.8895,N,08100.3428,W,1,8,2.4,13,M,,M,,*5B
06/05/2014	09:10:05.319	$GPGGA,091005,2436.8888,N,08100.3455,W,1,7,2.4,13,M,,M,,*53
06/05/2014	09:10:06.229	$GPGGA,091006,2436.8882,N,08100.3483,W,1,7,1.8,13,M,,M,,*5E
06/05/2014	09:10:07.355	$GPGGA,091007,2436.8875,N,08100.3509,W,1,8,1.8,13,M,,M,,*5B
06/05/2014	09:10:08.399	$GPGGA,091008,2436.8867,N,08100.3537,W,1,8,1.8,13,M,,M,,*5A
06/05/2014	09:10:09.383	$GPGGA,091009,2436.8862,N,08100.3564,W,1,8,1.8,13,M,,M,,*58
06/05/2014	09:10:10.415	$GPGGA,091010,2436.8855,N,08100.3591,W,1,8,1.8,13,M,,M,,*5E
06/05/2014	09:10:11.428	$GPGGA,091011,2436.8846,N,08100.3617,W,1,8,1.8,13,M,,M,,*50
06/05/2014	09:10:12.472	$GPGGA,091012,2436.8838,N,08100.3645,W,1,8,1.8,13,M,,M,,*5D
06/05/2014	09:10:13.485	$GPGGA,091013,2436.8830,N,08100.3671,W,1,8,1.8,13,M,,M,,*53
06/05/2014	09:10:14.488	$GPGGA,091014,2436.8822,N,08100.3699,W,1,8,1.8,13,M,,M,,*51
06/05/2014	09:10:15.532	$GPGGA,091015,2436.8813,N,08100.3725,W,1,8,1.8,13,M,,M,,*54
06/05/2014	09:10:16.545	$GPGGA,091016,2436.8804,N,08100.3753,W,1,8,1.8,13,M,,M,,*50
06/05/2014	09:10:17.568	$GPGGA,091017,2436.8797,N,08100.3779,W,1,8,1.8,13,M,,M,,*5C
06/05/2014	09:10:18.582	$GPGGA,091018,2436.8790,N,08100.3805,W,1,8,1.8,13,M,,M,,*50
06/05/2014	09:10:19.626	$GPGGA,091019,2436.8780,N,08100.3830,W,1,8,1.8,13,M,,M,,*56
06/05/2014	09:10:20.639	$GPGGA,091020,2436.8772,N,08100.3856,W,1,8,1.8,13,M,,M,,*51
06/05/2014	09:10:21.663	$GPGGA,091021,2436.8764,N,08100.3884,W,1,8,1.8,13,M,,M,,*58
06/05/2014	09:10:22.666	$GPGGA,091022,2436.8754,N,08100.3909,W,1,8,1.8,13,M,,M,,*5C
06/05/2014	09:10:23.708	$GPGGA,091023,2436.8745,N,08100.3936,W,1,8,1.8,13,M,,M,,*51
06/05/2014	09:10:24.721	$GPGGA,091024,2436.8737,N,08100.3964,W,1,8,1.8,13,M,,M,,*54
06/05/2014	09:10:25.744	$GPGGA,091025,2436.8728,N,08100.3992,W,1,8,1.8,13,M,,M,,*52
06/05/2014	09:10:26.747	$GPGGA,091026,2436.8721,N,08100.4018,W,1,8,1.8,13,M,,M,,*54
06/05/2014	09:10:27.801	$GPGGA,091027,2436.8712,N,08100.4044,W,1,8,1.8,13,M,,M,,*5C
06/05/2014	09:10:28.804	$GPGGA,091028,2436.8703,N,08100.4069,W,1,8,1.8,13,M,,M,,*5C
06/05/2014	09:10:29.818	$GPGGA,091029,2436.8696,N,08100.4095,W,1,7,2.1,13,M,,M,,*56
06/05/2014	09:10:30.841	$GPGGA,091030,2436.8686,N,08100.4120,W,1,7,2.1,13,M,,M,,*50
06/05/2014	09:10:31.885	$GPGGA,091031,2436.8675,N,08100.4145,W,1,8,1.8,13,M,,M,,*5B
06/05/2014	09:10:32.898	$GPGGA,091032,2436.8667,N,08100.4171,W,1,8,1.8,13,M,,M,,*5C
06/05/2014	09:10:32.498	$GPGGA,091033,2436.8658,N,08100.4198,W,1,8,1.8,13,M,,M,,*56
06/05/2014	09:10:33.532	$GPGGA,091034,2436.8649,N,08100.4225,W,1,8,1.8,13,M,,M,,*54
06/05/2014	09:10:34.565	$GPGGA,091035,2436.8639,N,08100.4252,W,1,8,1.8,13,M,,M,,*52
06/05/2014	09:10:35.568	$GPGGA,091036,2436.8631,N,08100.4279,W,1,8,1.8,13,M,,M,,*50
06/05/2014	09:10:36.612	$GPGGA,091037,2436.8621,N,08100.4306,W,1,8,1.8,14,M,,M,,*5E
06/05/2014	09:10:37.615	$GPGGA,091038,2436.8613,N,08100.4332,W,1,8,1.8,14,M,,M,,*57
06/05/2014	09:10:38.638	$GPGGA,091039,2436.8604,N,08100.4358,W,1,7,2.1,14,M,,M,,*59
06/05/2014	09:10:39.662	$GPGGA,091040,2436.8595,N,08100.4383,W,1,7,1.8,14,M,,M,,*50
06/05/2014	09:10:40.664	$GPGGA,091041,2436.8585,N,08100.4408,W,1,7,2.5,14,M,,M,,*5A
06/05/2014	09:10:41.677	$GPGGA,091042,2436.8575,N,08100.4433,W,1,7,1.8,14,M,,M,,*50
06/05/2014	09:10:42.700	$GPGGA,091043,2436.8564,N,08100.4459,W,1,8,1.8,14,M,,M,,*52
06/05/2014	09:10:43.744	$GPGGA,091044,2436.8559,N,08100.4487,W,1,8,2.5,14,M,,M,,*56
06/05/2014	09:10:44.767	$GPGGA,091045,2436.8548,N,08100.4513,W,1,8,1.8,14,M,,M,,*55
06/05/2014	09:10:45.863	$GPGGA,091046,2436.8538,N,08100.4541,W,1,8,1.8,14,M,,M,,*56
06/05/2014	09:10:46.794	$GPGGA,091047,2436.8531,N,08100.4567,W,1,7,2.5,14,M,,M,,*5B
06/05/2014	09:10:47.940	$GPGGA,091048,2436.8524,N,08100.4595,W,1,7,1.8,14,M,,M,,*53
06/05/2014	09:10:48.851	$GPGGA,091049,2436.8516,N,08100.4621,W,1,8,1.8,14,M,,M,,*50
06/05/2014	09:10:49.946	$GPGGA,091050,2436.8506,N,08100.4646,W,1,8,1.8,15,M,,M,,*59
06/05/2014	09:10:50.887	$GPGGA,091051,2436.8498,N,08100.4672,W,1,8,1.8,15,M,,M,,*59
06/05/2014	09:10:52.013	$GPGGA,091052,2436.8491,N,08100.4700,W,1,8,1.8,15,M,,M,,*57
06/05/2014	09:10:53.037	$GPGGA,091053,2436.8483,N,08100.4725,W,1,8,1.8,15,M,,M,,*52
06/05/2014	09:10:53.947	$GPGGA,091054,2436.8473,N,08100.4751,W,1,8,1.8,15,M,,M,,*59
06/05/2014	09:10:55.073	$GPGGA,091055,2436.8465,N,08100.4779,W,1,8,1.8,15,M,,M,,*55
06/05/2014	09:10:56.097	$GPGGA,091056,2436.8455,N,08100.4805,W,1,8,1.8,15,M,,M,,*51
06/05/2014	09:10:57.130	$GPGGA,091057,2436.8447,N,08100.4830,W,1,8,1.8,15,M,,M,,*55
06/05/2014	09:10:58.132	$GPGGA,091058,2436.8436,N,08100.4856,W,1,8,1.8,15,M,,M,,*5C
06/05/2014	09:10:59.155	$GPGGA,091059,2436.8428,N,08100.4884,W,1,8,1.8,15,M,,M,,*5D
06/05/2014	09:11:00.211	$GPGGA,091100,2436.8419,N,08100.4910,W,1,8,2.1,15,M,,M,,*54
06/05/2014	09:11:01.202	$GPGGA,091101,2436.8410,N,08100.4935,W,1,8,1.8,16,M,,M,,*52
06/05/2014	09:11:02.215	$GPGGA,091102,2436.8401,N,08100.4960,W,1,8,1.8,16,M,,M,,*51
06/05/2014	09:11:03.229	$GPGGA,091103,2436.8392,N,08100.4986,W,1,8,1.8,16,M,,M,,*55
06/05/2014	09:11:04.272	$GPGGA,091104,2436.8383,N,08100.5014,W,1,8,1.8,16,M,,M,,*51
06/05/2014	09:11:05.296	$GPGGA,091105,2436.8374,N,08100.5040,W,1,8,1.8,16,M,,M,,*59
06/05/2014	09:11:06.299	$GPGGA,091106,2436.8365,N,08100.5068,W,1,8,1.8,15,M,,M,,*53
06/05/2014	09:11:07.312	$GPGGA,091107,2436.8356,N,08100.5094,W,1,8,1.8,15,M,,M,,*51
06/05/2014	09:11:08.356	$GPGGA,091108,2436.8347,N,08100.5120,W,1,8,1.8,15,M,,M,,*50
06/05/2014	09:11:09.379	$GPGGA,091109,2436.8339,N,08100.5146,W,1,8,1.8,15,M,,M,,*58
06/05/2014	09:11:10.382	$GPGGA,091110,2436.8331,N,08100.5173,W,1,8,1.8,15,M,,M,,*5E
06/05/2014	09:11:11.436	$GPGGA,091111,2436.8321,N,08100.5199,W,1,8,1.8,15,M,,M,,*5A
06/05/2014	09:11:12.439	$GPGGA,091112,2436.8313,N,08100.5225,W,1,8,1.8,15,M,,M,,*5C
06/05/2014	09:11:13.493	$GPGGA,091113,2436.8303,N,08100.5251,W,1,8,1.8,15,M,,M,,*5F
06/05/2014	09:11:14.466	$GPGGA,091114,2436.8295,N,08100.5279,W,1,8,1.8,15,M,,M,,*5C
06/05/2014	09:11:15.521	$GPGGA,091115,2436.8286,N,08100.5307,W,1,8,1.8,15,M,,M,,*57
06/05/2014	09:11:16.522	$GPGGA,091116,2436.8277,N,08100.5332,W,1,8,1.8,15,M,,M,,*5C
06/05/2014	09:11:17.535	$GPGGA,091117,2436.8270,N,08100.5359,W,1,8,1.8,15,M,,M,,*57
06/05/2014	09:11:18.568	$GPGGA,091118,2436.8261,N,08100.5387,W,1,8,2.1,15,M,,M,,*51
06/05/2014	09:11:19.571	$GPGGA,091119,2436.8255,N,08100.5412,W,1,7,2.1,15,M,,M,,*53
06/05/2014	09:11:20.615	$GPGGA,091120,2436.8245,N,08100.5437,W,1,7,1.8,15,M,,M,,*55
06/05/2014	09:11:21.608	$GPGGA,091121,2436.8237,N,08100.5462,W,1,8,1.8,15,M,,M,,*5E
06/05/2014	09:11:22.641	$GPGGA,091122,2436.8228,N,08100.5489,W,1,8,1.8,15,M,,M,,*56
06/05/2014	09:11:23.665	$GPGGA,091123,2436.8220,N,08100.5517,W,1,8,1.8,15,M,,M,,*59
06/05/2014	09:11:24.688	$GPGGA,091124,2436.8212,N,08100.5543,W,1,8,1.8,15,M,,M,,*5E
06/05/2014	09:11:25.722	$GPGGA,091125,2436.8202,N,08100.5571,W,1,8,1.8,15,M,,M,,*5F
06/05/2014	09:11:26.725	$GPGGA,091126,2436.8194,N,08100.5598,W,1,8,1.8,15,M,,M,,*57
06/05/2014	09:11:27.748	$GPGGA,091127,2436.8185,N,08100.5626,W,1,8,1.8,15,M,,M,,*50
06/05/2014	09:11:28.792	$GPGGA,091128,2436.8176,N,08100.5652,W,1,8,1.8,15,M,,M,,*50
06/05/2014	09:11:29.795	$GPGGA,091129,2436.8168,N,08100.5679,W,1,8,1.8,14,M,,M,,*56
06/05/2014	09:11:30.808	$GPGGA,091130,2436.8161,N,08100.5704,W,1,8,1.8,14,M,,M,,*5C
06/05/2014	09:11:31.842	$GPGGA,091131,2436.8151,N,08100.5728,W,1,8,1.8,14,M,,M,,*50
06/05/2014	09:11:32.988	$GPGGA,091132,2436.8143,N,08100.5755,W,1,8,1.8,14,M,,M,,*5A
06/05/2014	09:11:32.464	$GPGGA,091133,2436.8133,N,08100.5780,W,1,8,1.8,14,M,,M,,*54
06/05/2014	09:11:33.610	$GPGGA,091134,2436.8125,N,08100.5807,W,1,8,1.8,14,M,,M,,*54
06/05/2014	09:11:34.521	$GPGGA,091135,2436.8114,N,08100.5834,W,1,8,1.8,14,M,,M,,*57
06/05/2014	09:11:35.545	$GPGGA,091136,2436.8105,N,08100.5860,W,1,8,1.8,14,M,,M,,*55
06/05/2014	09:11:36.568	$GPGGA,091137,2436.8096,N,08100.5886,W,1,7,2.5,14,M,,M,,*56
06/05/2014	09:11:37.602	$GPGGA,091138,2436.8089,N,08100.5914,W,1,7,1.8,14,M,,M,,*53
06/05/2014	09:11:38.697	$GPGGA,091139,2436.8079,N,08100.5939,W,1,8,1.8,14,M,,M,,*5D
06/05/2014	09:11:39.648	$GPGGA,091140,2436.8071,N,08100.5965,W,1,8,1.8,14,M,,M,,*52
06/05/2014	09:11:40.651	$GPGGA,091141,2436.8062,N,08100.5993,W,1,8,1.8,14,M,,M,,*58
06/05/2014	09:11:41.757	$GPGGA,091142,2436.8055,N,08100.6019,W,1,8,2.1,14,M,,M,,*5D
06/05/2014	09:11:42.688	$GPGGA,091143,2436.8046,N,08100.6045,W,1,8,1.8,14,M,,M,,*5D
06/05/2014	09:11:43.815	$GPGGA,091144,2436.8038,N,08100.6073,W,1,8,1.8,14,M,,M,,*56
06/05/2014	09:11:44.868	$GPGGA,091145,2436.8031,N,08100.6098,W,1,8,1.8,14,M,,M,,*5B
06/05/2014	09:11:45.850	$GPGGA,091146,2436.8021,N,08100.6124,W,1,8,1.8,14,M,,M,,*5F
06/05/2014	09:11:46.894	$GPGGA,091147,2436.8013,N,08100.6150,W,1,8,1.8,14,M,,M,,*5C
06/05/2014	09:11:47.907	$GPGGA,091148,2436.8004,N,08100.6176,W,1,8,2.5,14,M,,M,,*5F
06/05/2014	09:11:48.920	$GPGGA,091149,2436.7995,N,08100.6203,W,1,8,1.8,14,M,,M,,*5F
06/05/2014	09:11:49.937	$GPGGA,091150,2436.7985,N,08100.6228,W,1,8,1.8,13,M,,M,,*58
06/05/2014	09:11:50.976	$GPGGA,091151,2436.7977,N,08100.6254,W,1,8,1.8,13,M,,M,,*5F
06/05/2014	09:11:51.980	$GPGGA,091152,2436.7967,N,08100.6279,W,1,8,1.8,13,M,,M,,*52
