Software Version Number: 1	Data File Format Number: 1	Build Version Number: 1	Error Count Since VI Started: 0	Manufacturer: Raytheon	 Model Number: RayMarine 120	 S/N: 	 Cal Date: 	 Wind Direction Offset: 0.00	 Slope (M)1: 0.00	 Offset (B)1: 0.00	 Slope (M)2: 0.00	 Offset (B)2: 0.00	 Slope (M)3: 0.00	 Offset (B)3: 0.00	 Slope (M)4: 0.00	 Offset (B)4: 0.00	 Slope (M)5: 0.00	 Offset (B)5: 0.00	 Slope (M)6: 0.00	 Offset (B)6: 0.00
Computer Date	Computer Time	GGA String
06/11/2014	21:00:00.781	$GPGGA,210010,2525.9296,N,08001.9882,W,1,11,1.2,15,M,,M,,*63
06/11/2014	21:00:01.854	$GPGGA,210011,2525.9310,N,08001.9906,W,1,11,1.2,15,M,,M,,*60
06/11/2014	21:00:02.908	$GPGGA,210012,2525.9324,N,08001.9931,W,1,11,1.2,15,M,,M,,*60
06/11/2014	21:00:03.870	$GPGGA,210013,2525.9339,N,08001.9956,W,1,11,1.2,15,M,,M,,*6C
06/11/2014	21:00:04.863	$GPGGA,210014,2525.9353,N,08001.9980,W,1,11,1.2,15,M,,M,,*6C
06/11/2014	21:00:05.856	$GPGGA,210015,2525.9368,N,08002.0004,W,1,11,1.2,15,M,,M,,*6A
06/11/2014	21:00:06.879	$GPGGA,210016,2525.9382,N,08002.0029,W,1,11,1.2,15,M,,M,,*62
06/11/2014	21:00:07.860	$GPGGA,210017,2525.9397,N,08002.0052,W,1,11,1.2,15,M,,M,,*6B
06/11/2014	21:00:08.863	$GPGGA,210018,2525.9411,N,08002.0077,W,1,11,1.2,15,M,,M,,*6A
06/11/2014	21:00:09.866	$GPGGA,210019,2525.9425,N,08002.0101,W,1,11,1.2,15,M,,M,,*6C
06/11/2014	21:00:10.879	$GPGGA,210020,2525.9439,N,08002.0126,W,1,11,1.2,15,M,,M,,*6E
06/11/2014	21:00:11.882	$GPGGA,210021,2525.9453,N,08002.0150,W,1,11,1.2,15,M,,M,,*62
06/11/2014	21:00:12.855	$GPGGA,210022,2525.9467,N,08002.0175,W,1,11,1.2,15,M,,M,,*61
06/11/2014	21:00:13.878	$GPGGA,210023,2525.9480,N,08002.0200,W,1,11,1.2,15,M,,M,,*68
06/11/2014	21:00:14.881	$GPGGA,210024,2525.9494,N,08002.0224,W,1,11,1.2,15,M,,M,,*6C
06/11/2014	21:00:15.894	$GPGGA,210025,2525.9509,N,08002.0249,W,1,11,1.2,15,M,,M,,*63
06/11/2014	21:00:16.877	$GPGGA,210026,2525.9523,N,08002.0272,W,1,11,1.2,15,M,,M,,*60
06/11/2014	21:00:17.879	$GPGGA,210027,2525.9536,N,08002.0296,W,1,10,1.2,15,M,,M,,*6E
06/11/2014	21:00:18.882	$GPGGA,210028,2525.9549,N,08002.0322,W,1,10,1.2,15,M,,M,,*67
06/11/2014	21:00:19.905	$GPGGA,210029,2525.9563,N,08002.0347,W,1,11,1.2,15,M,,M,,*6C
06/11/2014	21:00:20.878	$GPGGA,210030,2525.9577,N,08002.0372,W,1,11,1.2,15,M,,M,,*67
06/11/2014	21:00:21.891	$GPGGA,210031,2525.9591,N,08002.0395,W,1,11,1.2,15,M,,M,,*67
06/11/2014	21:00:22.884	$GPGGA,210032,2525.9605,N,08002.0419,W,1,11,1.3,15,M,,M,,*68
06/11/2014	21:00:23.900	$GPGGA,210033,2525.9617,N,08002.0444,W,1,10,1.3,15,M,,M,,*63
06/11/2014	21:00:24.880	$GPGGA,210034,2525.9631,N,08002.0466,W,1,10,1.3,15,M,,M,,*60
06/11/2014	21:00:25.873	$GPGGA,210035,2525.9645,N,08002.0491,W,1,11,1.2,15,M,,M,,*6A
06/11/2014	21:00:26.884	$GPGGA,210036,2525.9659,N,08002.0516,W,1,11,1.2,15,M,,M,,*6A
06/11/2014	21:00:27.907	$GPGGA,210037,2525.9671,N,08002.0540,W,1,11,1.2,15,M,,M,,*62
06/11/2014	21:00:28.880	$GPGGA,210038,2525.9685,N,08002.0564,W,1,11,1.2,15,M,,M,,*60
06/11/2014	21:00:29.883	$GPGGA,210039,2525.9697,N,08002.0587,W,1,10,1.3,15,M,,M,,*6F
06/11/2014	21:00:30.886	$GPGGA,210040,2525.9711,N,08002.0611,W,1,10,1.2,15,M,,M,,*63
06/11/2014	21:00:31.889	$GPGGA,210041,2525.9722,N,08002.0634,W,1,11,1.2,15,M,,M,,*64
06/11/2014	21:00:32.872	$GPGGA,210042,2525.9736,N,08002.0658,W,1,11,1.2,15,M,,M,,*68
06/11/2014	21:00:33.885	$GPGGA,210043,2525.9749,N,08002.0679,W,1,10,1.2,15,M,,M,,*63
06/11/2014	21:00:34.898	$GPGGA,210044,2525.9762,N,08002.0702,W,1,10,1.2,15,M,,M,,*60
06/11/2014	21:00:35.870	$GPGGA,210045,2525.9776,N,08002.0726,W,1,10,1.3,15,M,,M,,*63
06/11/2014	21:00:36.720	$GPGGA,210046,2525.9790,N,08002.0751,W,1,10,1.3,15,M,,M,,*68
06/11/2014	21:00:37.733	$GPGGA,210047,2525.9803,N,08002.0773,W,1,10,1.3,15,M,,M,,*6C
06/11/2014	21:00:38.726	$GPGGA,210048,2525.9816,N,08002.0796,W,1,10,1.3,15,M,,M,,*6C
06/11/2014	21:00:39.729	$GPGGA,210049,2525.9829,N,08002.0820,W,1,10,1.3,15,M,,M,,*63
06/11/2014	21:00:40.842	$GPGGA,210050,2525.9841,N,08002.0845,W,1,10,1.2,15,M,,M,,*67
06/11/2014	21:00:41.806	$GPGGA,210051,2525.9855,N,08002.0871,W,1,11,1.2,15,M,,M,,*65
06/11/2014	21:00:42.717	$GPGGA,210052,2525.9867,N,08002.0894,W,1,11,1.2,15,M,,M,,*6C
06/11/2014	21:00:43.730	$GPGGA,210053,2525.9881,N,08002.0918,W,1,11,1.2,16,M,,M,,*63
06/11/2014	21:00:44.813	$GPGGA,210054,2525.9895,N,08002.0943,W,1,11,1.2,16,M,,M,,*6F
06/11/2014	21:00:45.846	$GPGGA,210055,2525.9909,N,08002.0968,W,1,11,1.2,16,M,,M,,*63
06/11/2014	21:00:46.829	$GPGGA,210056,2525.9921,N,08002.0991,W,1,11,1.2,16,M,,M,,*6C
06/11/2014	21:00:47.811	$GPGGA,210057,2525.9935,N,08002.1015,W,1,11,1.2,16,M,,M,,*6C
06/11/2014	21:00:48.805	$GPGGA,210058,2525.9949,N,08002.1038,W,1,11,1.2,16,M,,M,,*67
06/11/2014	21:00:49.837	$GPGGA,210059,2525.9964,N,08002.1062,W,1,11,1.2,16,M,,M,,*66
06/11/2014	21:00:50.840	$GPGGA,210100,2525.9978,N,08002.1087,W,1,11,1.2,16,M,,M,,*6D
06/11/2014	21:00:51.823	$GPGGA,210101,2525.9993,N,08002.1110,W,1,11,1.2,16,M,,M,,*66
06/11/2014	21:00:52.826	$GPGGA,210102,2526.0007,N,08002.1135,W,1,11,1.2,16,M,,M,,*6C
06/11/2014	21:00:55.424	$GPGGA,210104,2526.0036,N,08002.1185,W,1,11,1.2,16,M,,M,,*63
06/11/2014	21:00:55.845	$GPGGA,210105,2526.0050,N,08002.1208,W,1,11,1.2,16,M,,M,,*64
06/11/2014	21:00:56.820	$GPGGA,210106,2526.0065,N,08002.1232,W,1,11,1.2,16,M,,M,,*68
06/11/2014	21:00:57.831	$GPGGA,210107,2526.0079,N,08002.1257,W,1,11,1.2,16,M,,M,,*67
06/11/2014	21:00:58.835	$GPGGA,210108,2526.0094,N,08002.1280,W,1,11,1.2,16,M,,M,,*61
06/11/2014	21:00:59.856	$GPGGA,210109,2526.0108,N,08002.1305,W,1,11,1.2,16,M,,M,,*68
06/11/2014	21:01:00.829	$GPGGA,210110,2526.0123,N,08002.1329,W,1,11,1.2,16,M,,M,,*67
06/11/2014	21:01:01.841	$GPGGA,210111,2526.0137,N,08002.1353,W,1,11,1.2,16,M,,M,,*6E
06/11/2014	21:01:02.846	$GPGGA,210112,2526.0152,N,08002.1377,W,1,11,1.2,17,M,,M,,*69
06/11/2014	21:01:03.857	$GPGGA,210113,2526.0168,N,08002.1402,W,1,11,1.2,17,M,,M,,*64
06/11/2014	21:01:04.830	$GPGGA,210114,2526.0181,N,08002.1425,W,1,11,1.2,17,M,,M,,*61
06/11/2014	21:01:05.823	$GPGGA,210115,2526.0195,N,08002.1449,W,1,11,1.2,17,M,,M,,*6F
06/11/2014	21:01:06.836	$GPGGA,210116,2526.0210,N,08002.1474,W,1,11,1.2,17,M,,M,,*6C
06/11/2014	21:01:07.868	$GPGGA,210117,2526.0226,N,08002.1499,W,1,11,1.2,17,M,,M,,*6B
06/11/2014	21:01:08.831	$GPGGA,210118,2526.0239,N,08002.1522,W,1,11,1.2,17,M,,M,,*6B
06/11/2014	21:01:09.834	$GPGGA,210119,2526.0255,N,08002.1546,W,1,11,1.2,17,M,,M,,*62
06/11/2014	21:01:10.861	$GPGGA,210120,2526.0270,N,08002.1571,W,1,11,1.2,17,M,,M,,*6B
06/11/2014	21:01:11.866	$GPGGA,210121,2526.0284,N,08002.1594,W,1,11,1.2,17,M,,M,,*6A
06/11/2014	21:01:12.843	$GPGGA,210122,2526.0299,N,08002.1618,W,1,11,1.2,17,M,,M,,*62
06/11/2014	21:01:13.826	$GPGGA,210123,2526.0314,N,08002.1642,W,1,11,1.2,17,M,,M,,*68
06/11/2014	21:01:14.851	$GPGGA,210124,2526.0327,N,08002.1667,W,1,11,1.2,17,M,,M,,*68
06/11/2014	21:01:15.832	$GPGGA,210125,2526.0342,N,08002.1691,W,1,11,1.2,17,M,,M,,*63
06/11/2014	21:01:16.955	$GPGGA,210126,2526.0356,N,08002.1716,W,1,11,1.2,17,M,,M,,*6B
06/11/2014	21:01:17.957	$GPGGA,210127,2526.0371,N,08002.1741,W,1,11,1.2,17,M,,M,,*6D
06/11/2014	21:01:18.839	$GPGGA,210128,2526.0385,N,08002.1764,W,1,11,1.2,16,M,,M,,*6F
06/11/2014	21:01:19.842	$GPGGA,210129,2526.0398,N,08002.1788,W,1,11,1.2,16,M,,M,,*60
06/11/2014	21:01:20.845	$GPGGA,210130,2526.0412,N,08002.1813,W,1,11,1.2,16,M,,M,,*60
06/11/2014	21:01:21.978	$GPGGA,210131,2526.0426,N,08002.1837,W,1,11,1.2,16,M,,M,,*60
06/11/2014	21:01:22.971	$GPGGA,210132,2526.0441,N,08002.1861,W,1,11,1.2,16,M,,M,,*61
06/11/2014	21:01:23.844	$GPGGA,210133,2526.0454,N,08002.1886,W,1,11,1.2,16,M,,M,,*6D
06/11/2014	21:01:24.937	$GPGGA,210134,2526.0468,N,08002.1911,W,1,11,1.2,16,M,,M,,*6A
06/11/2014	21:01:25.860	$GPGGA,210135,2526.0481,N,08002.1936,W,1,11,1.2,16,M,,M,,*69
06/11/2014	21:01:26.943	$GPGGA,210136,2526.0495,N,08002.1962,W,1,11,1.2,16,M,,M,,*6E
06/11/2014	21:01:27.976	$GPGGA,210137,2526.0508,N,08002.1987,W,1,11,1.2,16,M,,M,,*61
06/11/2014	21:01:28.858	$GPGGA,210138,2526.0520,N,08002.2010,W,1,11,1.2,16,M,,M,,*60
06/11/2014	21:01:29.961	$GPGGA,210139,2526.0535,N,08002.2034,W,1,11,1.2,16,M,,M,,*63
06/11/2014	21:01:30.954	$GPGGA,210140,2526.0548,N,08002.2059,W,1,11,1.2,16,M,,M,,*6C
06/11/2014	21:01:31.947	$GPGGA,210141,2526.0560,N,08002.2084,W,1,11,1.2,16,M,,M,,*67
06/11/2014	21:01:32.940	$GPGGA,210142,2526.0574,N,08002.2107,W,1,11,1.2,16,M,,M,,*6B
06/11/2014	21:01:33.963	$GPGGA,210143,2526.0589,N,08002.2132,W,1,11,1.2,16,M,,M,,*6E
06/11/2014	21:01:34.966	$GPGGA,210144,2526.0602,N,08002.2157,W,1,11,1.2,16,M,,M,,*6A
06/11/2014	21:01:35.796	$GPGGA,210145,2526.0614,N,08002.2180,W,1,11,1.2,16,M,,M,,*66
06/11/2014	21:01:36.779	$GPGGA,210146,2526.0629,N,08002.2205,W,1,11,1.3,16,M,,M,,*64
06/11/2014	21:01:37.781	$GPGGA,210147,2526.0642,N,08002.2229,W,1,11,1.2,16,M,,M,,*67
06/11/2014	21:01:38.794	$GPGGA,210148,2526.0654,N,08002.2251,W,1,11,1.2,16,M,,M,,*60
06/11/2014	21:01:39.787	$GPGGA,210149,2526.0667,N,08002.2276,W,1,11,1.2,16,M,,M,,*64
06/11/2014	21:01:40.770	$GPGGA,210150,2526.0679,N,08002.2298,W,1,11,1.2,16,M,,M,,*63
06/11/2014	21:01:41.803	$GPGGA,210151,2526.0694,N,08002.2323,W,1,11,1.2,16,M,,M,,*60
06/11/2014	21:01:42.796	$GPGGA,210152,2526.0707,N,08002.2346,W,1,11,1.2,16,M,,M,,*6B
06/11/2014	21:01:43.809	$GPGGA,210153,2526.0719,N,08002.2370,W,1,11,1.2,16,M,,M,,*60
06/11/2014	21:01:44.789	$GPGGA,210154,2526.0733,N,08002.2395,W,1,11,1.2,16,M,,M,,*64
06/11/2014	21:01:45.815	$GPGGA,210155,2526.0747,N,08002.2418,W,1,11,1.2,16,M,,M,,*64
06/11/2014	21:01:46.798	$GPGGA,210156,2526.0759,N,08002.2442,W,1,11,1.2,16,M,,M,,*67
06/11/2014	21:01:47.821	$GPGGA,210157,2526.0773,N,08002.2467,W,1,11,1.2,16,M,,M,,*69
06/11/2014	21:01:48.783	$GPGGA,210158,2526.0788,N,08002.2490,W,1,11,1.2,16,M,,M,,*6A
06/11/2014	21:01:49.786	$GPGGA,210159,2526.0802,N,08002.2515,W,1,11,1.2,16,M,,M,,*6A
06/11/2014	21:01:50.809	$GPGGA,210200,2526.0815,N,08002.2540,W,1,11,1.2,16,M,,M,,*63
06/11/2014	21:01:51.813	$GPGGA,210201,2526.0829,N,08002.2563,W,1,11,1.2,16,M,,M,,*6C
06/11/2014	21:01:52.784	$GPGGA,210202,2526.0842,N,08002.2588,W,1,11,1.2,16,M,,M,,*67
06/11/2014	21:01:53.820	$GPGGA,210203,2526.0856,N,08002.2612,W,1,11,1.2,16,M,,M,,*63
06/11/2014	21:01:54.810	$GPGGA,210204,2526.0870,N,08002.2637,W,1,11,1.2,16,M,,M,,*67
06/11/2014	21:01:55.793	$GPGGA,210205,2526.0884,N,08002.2659,W,1,11,1.2,16,M,,M,,*65
06/11/2014	21:01:56.795	$GPGGA,210206,2526.0898,N,08002.2684,W,1,11,1.2,16,M,,M,,*6B
06/11/2014	21:01:57.818	$GPGGA,210207,2526.0911,N,08002.2709,W,1,11,1.2,16,M,,M,,*6E
06/11/2014	21:01:58.801	$GPGGA,210208,2526.0925,N,08002.2732,W,1,11,1.2,16,M,,M,,*6E
06/11/2014	21:01:59.804	$GPGGA,210209,2526.0941,N,08002.2757,W,1,11,1.2,16,M,,M,,*6E
06/11/2014	21:02:00.797	$GPGGA,210210,2526.0954,N,08002.2782,W,1,11,1.2,16,M,,M,,*6A
06/11/2014	21:02:01.810	$GPGGA,210211,2526.0970,N,08002.2805,W,1,11,1.2,16,M,,M,,*6D
06/11/2014	21:02:02.803	$GPGGA,210212,2526.0983,N,08002.2830,W,1,11,1.2,16,M,,M,,*64
06/11/2014	21:02:03.986	$GPGGA,210213,2526.0997,N,08002.2854,W,1,11,1.2,16,M,,M,,*62
06/11/2014	21:02:04.789	$GPGGA,210214,2526.1012,N,08002.2879,W,1,11,1.2,16,M,,M,,*6F
06/11/2014	21:02:05.972	$GPGGA,210215,2526.1026,N,08002.2904,W,1,11,1.2,16,M,,M,,*62
06/11/2014	21:02:06.804	$GPGGA,210216,2526.1041,N,08002.2927,W,1,11,1.2,16,M,,M,,*61
06/11/2014	21:02:07.807	$GPGGA,210217,2526.1057,N,08002.2952,W,1,11,1.2,16,M,,M,,*65
06/11/2014	21:02:08.800	$GPGGA,210218,2526.1070,N,08002.2977,W,1,11,1.2,16,M,,M,,*68
06/11/2014	21:02:09.823	$GPGGA,210219,2526.1086,N,08002.3002,W,1,11,1.2,16,M,,M,,*6A
06/11/2014	21:02:10.957	$GPGGA,210220,2526.1100,N,08002.3025,W,1,11,1.2,16,M,,M,,*6A
06/11/2014	21:02:11.988	$GPGGA,210221,2526.1115,N,08002.3049,W,1,11,1.2,16,M,,M,,*65
06/11/2014	21:02:12.921	$GPGGA,210222,2526.1129,N,08002.3074,W,1,11,1.2,16,M,,M,,*67
06/11/2014	21:02:13.804	$GPGGA,210223,2526.1144,N,08002.3098,W,1,11,1.2,16,M,,M,,*6F
06/11/2014	21:02:14.937	$GPGGA,210224,2526.1159,N,08002.3122,W,1,11,1.2,16,M,,M,,*64
06/11/2014	21:02:15.819	$GPGGA,210225,2526.1174,N,08002.3147,W,1,11,1.2,16,M,,M,,*69
06/11/2014	21:02:16.953	$GPGGA,210226,2526.1188,N,08002.3172,W,1,11,1.2,16,M,,M,,*6F
06/11/2014	21:02:18.006	$GPGGA,210227,2526.1203,N,08002.3197,W,1,11,1.2,16,M,,M,,*65
06/11/2014	21:02:18.818	$GPGGA,210228,2526.1218,N,08002.3222,W,1,11,1.2,16,M,,M,,*6D
06/11/2014	21:02:19.901	$GPGGA,210229,2526.1232,N,08002.3246,W,1,11,1.2,16,M,,M,,*66
06/11/2014	21:02:20.904	$GPGGA,210230,2526.1247,N,08002.3271,W,1,11,1.2,16,M,,M,,*68
06/11/2014	21:02:22.007	$GPGGA,210231,2526.1263,N,08002.3295,W,1,11,1.2,16,M,,M,,*65
06/11/2014	21:02:22.949	$GPGGA,210232,2526.1278,N,08002.3320,W,1,11,1.2,16,M,,M,,*63
06/11/2014	21:02:23.996	$GPGGA,210233,2526.1293,N,08002.3345,W,1,11,1.2,16,M,,M,,*64
06/11/2014	21:02:24.904	$GPGGA,210234,2526.1308,N,08002.3370,W,1,11,1.2,16,M,,M,,*66
06/11/2014	21:02:25.907	$GPGGA,210235,2526.1322,N,08002.3393,W,1,11,1.2,16,M,,M,,*62
06/11/2014	21:02:26.920	$GPGGA,210236,2526.1337,N,08002.3418,W,1,11,1.2,16,M,,M,,*61
06/11/2014	21:02:27.972	$GPGGA,210237,2526.1351,N,08002.3443,W,1,11,1.2,16,M,,M,,*6E
06/11/2014	21:02:28.944	$GPGGA,210238,2526.1366,N,08002.3468,W,1,11,1.2,16,M,,M,,*6C
06/11/2014	21:02:30.007	$GPGGA,210239,2526.1380,N,08002.3493,W,1,11,1.2,16,M,,M,,*61
06/11/2014	21:02:30.950	$GPGGA,210240,2526.1395,N,08002.3516,W,1,11,1.2,16,M,,M,,*67
06/11/2014	21:02:32.026	$GPGGA,210241,2526.1409,N,08002.3540,W,1,11,1.2,16,M,,M,,*67
06/11/2014	21:02:32.935	$GPGGA,210242,2526.1423,N,08002.3566,W,1,11,1.2,16,M,,M,,*68
06/11/2014	21:02:34.036	$GPGGA,210243,2526.1437,N,08002.3589,W,1,11,1.2,16,M,,M,,*6D
06/11/2014	21:02:34.960	$GPGGA,210244,2526.1452,N,08002.3614,W,1,11,1.2,15,M,,M,,*6D
06/11/2014	21:02:35.756	$GPGGA,210245,2526.1466,N,08002.3639,W,1,11,1.2,15,M,,M,,*64
06/11/2014	21:02:36.777	$GPGGA,210246,2526.1478,N,08002.3663,W,1,11,1.2,15,M,,M,,*67
06/11/2014	21:02:37.820	$GPGGA,210247,2526.1492,N,08002.3689,W,1,11,1.2,15,M,,M,,*66
06/11/2014	21:02:38.793	$GPGGA,210248,2526.1506,N,08002.3712,W,1,11,1.2,15,M,,M,,*66
06/11/2014	21:02:39.856	$GPGGA,210249,2526.1518,N,08002.3737,W,1,11,1.2,15,M,,M,,*6F
06/11/2014	21:02:40.748	$GPGGA,210250,2526.1532,N,08002.3761,W,1,11,1.2,15,M,,M,,*6C
06/11/2014	21:02:41.861	$GPGGA,210251,2526.1546,N,08002.3786,W,1,11,1.2,15,M,,M,,*67
06/11/2014	21:02:42.784	$GPGGA,210252,2526.1559,N,08002.3811,W,1,11,1.2,15,M,,M,,*6B
06/11/2014	21:02:43.816	$GPGGA,210253,2526.1572,N,08002.3835,W,1,11,1.2,15,M,,M,,*65
06/11/2014	21:02:44.789	$GPGGA,210254,2526.1585,N,08002.3860,W,1,11,1.2,15,M,,M,,*6A
06/11/2014	21:02:45.841	$GPGGA,210255,2526.1597,N,08002.3885,W,1,11,1.2,15,M,,M,,*63
06/11/2014	21:02:46.795	$GPGGA,210256,2526.1611,N,08002.3910,W,1,11,1.2,15,M,,M,,*60
06/11/2014	21:02:47.866	$GPGGA,210257,2526.1624,N,08002.3935,W,1,10,1.3,15,M,,M,,*60
06/11/2014	21:02:48.749	$GPGGA,210258,2526.1636,N,08002.3957,W,1,10,1.3,15,M,,M,,*68
06/11/2014	21:02:49.872	$GPGGA,210259,2526.1648,N,08002.3982,W,1,11,1.3,15,M,,M,,*69
06/11/2014	21:02:50.814	$GPGGA,210300,2526.1661,N,08002.4004,W,1,11,1.2,15,M,,M,,*6E
06/11/2014	21:02:51.837	$GPGGA,210301,2526.1673,N,08002.4028,W,1,11,1.2,15,M,,M,,*62
06/11/2014	21:02:52.780	$GPGGA,210302,2526.1684,N,08002.4051,W,1,11,1.2,15,M,,M,,*67
06/11/2014	21:02:53.882	$GPGGA,210303,2526.1697,N,08002.4075,W,1,11,1.2,15,M,,M,,*62
06/11/2014	21:02:54.809	$GPGGA,210304,2526.1709,N,08002.4100,W,1,11,1.2,15,M,,M,,*60
06/11/2014	21:02:55.838	$GPGGA,210305,2526.1722,N,08002.4123,W,1,11,1.2,15,M,,M,,*69
06/11/2014	21:02:56.850	$GPGGA,210306,2526.1734,N,08002.4147,W,1,11,1.2,15,M,,M,,*6F
06/11/2014	21:02:57.843	$GPGGA,210307,2526.1748,N,08002.4171,W,1,11,1.2,15,M,,M,,*60
06/11/2014	21:02:58.866	$GPGGA,210308,2526.1760,N,08002.4195,W,1,11,1.2,15,M,,M,,*6F
06/11/2014	21:02:59.859	$GPGGA,210309,2526.1774,N,08002.4220,W,1,11,1.2,15,M,,M,,*66
06/11/2014	21:03:00.751	$GPGGA,210310,2526.1788,N,08002.4246,W,1,11,1.2,15,M,,M,,*6D
06/11/2014	21:03:01.864	$GPGGA,210311,2526.1802,N,08002.4271,W,1,11,1.2,16,M,,M,,*66
06/11/2014	21:03:02.876	$GPGGA,210312,2526.1816,N,08002.4296,W,1,11,1.2,16,M,,M,,*69
06/11/2014	21:03:03.858	$GPGGA,210313,2526.1830,N,08002.4321,W,1,11,1.2,16,M,,M,,*61
06/11/2014	21:03:04.861	$GPGGA,210314,2526.1843,N,08002.4346,W,1,11,1.2,16,M,,M,,*63
06/11/2014	21:03:05.904	$GPGGA,210315,2526.1857,N,08002.4371,W,1,11,1.2,16,M,,M,,*63
06/11/2014	21:03:06.877	$GPGGA,210316,2526.1871,N,08002.4395,W,1,11,1.2,16,M,,M,,*6E
06/11/2014	21:03:07.869	$GPGGA,210317,2526.1885,N,08002.4419,W,1,11,1.2,16,M,,M,,*67
06/11/2014	21:03:08.872	$GPGGA,210318,2526.1899,N,08002.4444,W,1,11,1.2,16,M,,M,,*6D
06/11/2014	21:03:09.895	$GPGGA,210319,2526.1914,N,08002.4469,W,1,11,1.2,16,M,,M,,*67
06/11/2014	21:03:10.887	$GPGGA,210320,2526.1928,N,08002.4494,W,1,11,1.2,16,M,,M,,*60
06/11/2014	21:03:11.890	$GPGGA,210321,2526.1942,N,08002.4520,W,1,11,1.2,16,M,,M,,*63
06/11/2014	21:03:12.863	$GPGGA,210322,2526.1957,N,08002.4545,W,1,11,1.2,16,M,,M,,*67
06/11/2014	21:03:13.885	$GPGGA,210323,2526.1969,N,08002.4568,W,1,11,1.2,16,M,,M,,*64
06/11/2014	21:03:14.878	$GPGGA,210324,2526.1984,N,08002.4593,W,1,11,1.2,16,M,,M,,*64
06/11/2014	21:03:15.931	$GPGGA,210325,2526.2000,N,08002.4618,W,1,11,1.2,16,M,,M,,*63
06/11/2014	21:03:16.873	$GPGGA,210326,2526.2015,N,08002.4643,W,1,11,1.2,16,M,,M,,*6A
06/11/2014	21:03:17.896	$GPGGA,210327,2526.2030,N,08002.4668,W,1,11,1.2,16,M,,M,,*65
06/11/2014	21:03:18.889	$GPGGA,210328,2526.2045,N,08002.4693,W,1,11,1.2,16,M,,M,,*6C
06/11/2014	21:03:19.912	$GPGGA,210329,2526.2059,N,08002.4718,W,1,11,1.2,16,M,,M,,*62
06/11/2014	21:03:20.873	$GPGGA,210330,2526.2074,N,08002.4743,W,1,11,1.2,16,M,,M,,*6B
06/11/2014	21:03:21.906	$GPGGA,210331,2526.2088,N,08002.4769,W,1,11,1.2,16,M,,M,,*61
06/11/2014	21:03:22.889	$GPGGA,210332,2526.2103,N,08002.4792,W,1,11,1.2,16,M,,M,,*64
06/11/2014	21:03:23.912	$GPGGA,210333,2526.2117,N,08002.4817,W,1,11,1.2,16,M,,M,,*62
06/11/2014	21:03:24.874	$GPGGA,210334,2526.2132,N,08002.4841,W,1,11,1.2,16,M,,M,,*61
06/11/2014	21:03:25.917	$GPGGA,210335,2526.2148,N,08002.4866,W,1,11,1.2,16,M,,M,,*68
06/11/2014	21:03:26.899	$GPGGA,210336,2526.2161,N,08002.4892,W,1,11,1.2,16,M,,M,,*6B
06/11/2014	21:03:27.892	$GPGGA,210337,2526.2161,N,08002.4892,W,1,11,1.2,16,M,,M,,*6A
06/11/2014	21:03:28.865	$GPGGA,210338,2526.2192,N,08002.4940,W,1,11,1.2,16,M,,M,,*67
06/11/2014	21:03:29.887	$GPGGA,210339,2526.2206,N,08002.4965,W,1,11,1.2,16,M,,M,,*6F
06/11/2014	21:03:30.900	$GPGGA,210340,2526.2221,N,08002.4989,W,1,11,1.2,15,M,,M,,*65
06/11/2014	21:03:31.883	$GPGGA,210341,2526.2221,N,08002.4989,W,1,11,1.2,15,M,,M,,*64
06/11/2014	21:03:32.885	$GPGGA,210342,2526.2250,N,08002.5038,W,1,11,1.2,15,M,,M,,*63
06/11/2014	21:03:34.021	$GPGGA,210343,2526.2264,N,08002.5063,W,1,11,1.2,15,M,,M,,*6B
06/11/2014	21:03:34.902	$GPGGA,210344,2526.2279,N,08002.5088,W,1,11,1.2,15,M,,M,,*65
06/11/2014	21:03:35.752	$GPGGA,210345,2526.2279,N,08002.5088,W,1,11,1.2,15,M,,M,,*64
06/11/2014	21:03:36.726	$GPGGA,210346,2526.2308,N,08002.5137,W,1,11,1.2,15,M,,M,,*65
06/11/2014	21:03:37.737	$GPGGA,210347,2526.2308,N,08002.5137,W,1,11,1.2,15,M,,M,,*64
06/11/2014	21:03:38.850	$GPGGA,210348,2526.2337,N,08002.5186,W,1,11,1.2,15,M,,M,,*6D
06/11/2014	21:03:39.792	$GPGGA,210349,2526.2337,N,08002.5186,W,1,11,1.2,15,M,,M,,*6C
06/11/2014	21:03:40.715	$GPGGA,210350,2526.2365,N,08002.5235,W,1,11,1.2,15,M,,M,,*68
06/11/2014	21:03:41.758	$GPGGA,210351,2526.2365,N,08002.5235,W,1,11,1.2,15,M,,M,,*69
06/11/2014	21:03:42.740	$GPGGA,210352,2526.2394,N,08002.5285,W,1,11,1.2,15,M,,M,,*6F
06/11/2014	21:03:43.863	$GPGGA,210353,2526.2408,N,08002.5311,W,1,11,1.2,15,M,,M,,*60
06/11/2014	21:03:44.726	$GPGGA,210354,2526.2421,N,08002.5336,W,1,11,1.2,15,M,,M,,*69
06/11/2014	21:03:45.718	$GPGGA,210355,2526.2421,N,08002.5336,W,1,11,1.2,15,M,,M,,*68
06/11/2014	21:03:46.831	$GPGGA,210356,2526.2449,N,08002.5384,W,1,11,1.2,15,M,,M,,*6C
06/11/2014	21:03:47.835	$GPGGA,210357,2526.2463,N,08002.5408,W,1,11,1.2,15,M,,M,,*66
06/11/2014	21:03:48.817	$GPGGA,210358,2526.2477,N,08002.5434,W,1,11,1.2,15,M,,M,,*63
06/11/2014	21:03:49.860	$GPGGA,210359,2526.2489,N,08002.5459,W,1,11,1.2,15,M,,M,,*68
06/11/2014	21:03:50.852	$GPGGA,210400,2526.2504,N,08002.5484,W,1,11,1.2,15,M,,M,,*67
06/11/2014	21:03:51.855	$GPGGA,210401,2526.2518,N,08002.5509,W,1,11,1.2,15,M,,M,,*6F
06/11/2014	21:03:52.818	$GPGGA,210402,2526.2532,N,08002.5532,W,1,11,1.2,15,M,,M,,*6C
06/11/2014	21:03:53.850	$GPGGA,210403,2526.2546,N,08002.5557,W,1,11,1.2,15,M,,M,,*6D
06/11/2014	21:03:54.833	$GPGGA,210404,2526.2558,N,08002.5582,W,1,11,1.2,15,M,,M,,*6D
06/11/2014	21:03:55.815	$GPGGA,210405,2526.2572,N,08002.5607,W,1,11,1.2,15,M,,M,,*6A
06/11/2014	21:03:56.837	$GPGGA,210406,2526.2586,N,08002.5632,W,1,11,1.2,15,M,,M,,*64
06/11/2014	21:03:57.820	$GPGGA,210407,2526.2598,N,08002.5657,W,1,11,1.2,15,M,,M,,*69
06/11/2014	21:03:58.843	$GPGGA,210408,2526.2612,N,08002.5681,W,1,11,1.2,15,M,,M,,*6C
06/11/2014	21:03:59.825	$GPGGA,210409,2526.2626,N,08002.5706,W,1,11,1.2,15,M,,M,,*64
06/11/2014	21:04:00.828	$GPGGA,210410,2526.2640,N,08002.5731,W,1,11,1.2,15,M,,M,,*68
06/11/2014	21:04:01.831	$GPGGA,210411,2526.2654,N,08002.5756,W,1,11,1.2,15,M,,M,,*6D
06/11/2014	21:04:02.844	$GPGGA,210412,2526.2666,N,08002.5781,W,1,11,1.2,15,M,,M,,*65
06/11/2014	21:04:03.835	$GPGGA,210413,2526.2681,N,08002.5806,W,1,11,1.2,15,M,,M,,*6D
06/11/2014	21:04:04.836	$GPGGA,210414,2526.2694,N,08002.5831,W,1,11,1.2,15,M,,M,,*6A
06/11/2014	21:04:05.832	$GPGGA,210415,2526.2706,N,08002.5856,W,1,11,1.2,15,M,,M,,*60
06/11/2014	21:04:06.844	$GPGGA,210416,2526.2720,N,08002.5881,W,1,11,1.2,15,M,,M,,*6D
06/11/2014	21:04:07.857	$GPGGA,210417,2526.2734,N,08002.5905,W,1,11,1.2,15,M,,M,,*64
06/11/2014	21:04:08.820	$GPGGA,210418,2526.2748,N,08002.5930,W,1,11,1.2,15,M,,M,,*66
06/11/2014	21:04:09.833	$GPGGA,210419,2526.2762,N,08002.5955,W,1,11,1.2,15,M,,M,,*6C
06/11/2014	21:04:10.852	$GPGGA,210420,2526.2775,N,08002.5980,W,1,11,1.2,15,M,,M,,*68
06/11/2014	21:04:11.868	$GPGGA,210421,2526.2789,N,08002.6004,W,1,11,1.2,15,M,,M,,*6C
06/11/2014	21:04:12.829	$GPGGA,210422,2526.2802,N,08002.6030,W,1,11,1.2,15,M,,M,,*64
06/11/2014	21:04:13.832	$GPGGA,210423,2526.2816,N,08002.6055,W,1,11,1.2,15,M,,M,,*63
06/11/2014	21:04:14.855	$GPGGA,210424,2526.2829,N,08002.6080,W,1,11,1.2,15,M,,M,,*60
06/11/2014	21:04:15.838	$GPGGA,210425,2526.2843,N,08002.6105,W,1,11,1.2,15,M,,M,,*61
06/11/2014	21:04:16.840	$GPGGA,210426,2526.2857,N,08002.6129,W,1,11,1.2,15,M,,M,,*69
06/11/2014	21:04:17.953	$GPGGA,210427,2526.2869,N,08002.6154,W,1,11,1.2,15,M,,M,,*6F
06/11/2014	21:04:18.846	$GPGGA,210428,2526.2883,N,08002.6178,W,1,11,1.2,15,M,,M,,*6A
06/11/2014	21:04:19.978	$GPGGA,210429,2526.2897,N,08002.6203,W,1,11,1.2,15,M,,M,,*61
06/11/2014	21:04:20.841	$GPGGA,210430,2526.2911,N,08002.6228,W,1,11,1.2,15,M,,M,,*6F
06/11/2014	21:04:21.874	$GPGGA,210431,2526.2925,N,08002.6253,W,1,11,1.2,15,M,,M,,*65
06/11/2014	21:04:22.856	$GPGGA,210432,2526.2939,N,08002.6277,W,1,11,1.2,15,M,,M,,*6D
06/11/2014	21:04:23.829	$GPGGA,210433,2526.2952,N,08002.6302,W,1,11,1.2,15,M,,M,,*62
06/11/2014	21:04:24.832	$GPGGA,210434,2526.2966,N,08002.6327,W,1,11,1.2,15,M,,M,,*65
06/11/2014	21:04:25.834	$GPGGA,210435,2526.2980,N,08002.6351,W,1,11,1.2,15,M,,M,,*6D
06/11/2014	21:04:26.857	$GPGGA,210436,2526.2994,N,08002.6376,W,1,11,1.2,15,M,,M,,*6E
06/11/2014	21:04:27.951	$GPGGA,210437,2526.3006,N,08002.6400,W,1,11,1.2,15,M,,M,,*6A
06/11/2014	21:04:30.265	$GPGGA,210439,2526.3035,N,08002.6449,W,1,11,1.2,15,M,,M,,*69
06/11/2014	21:04:30.857	$GPGGA,210440,2526.3049,N,08002.6474,W,1,11,1.2,15,M,,M,,*62
06/11/2014	21:04:31.940	$GPGGA,210441,2526.3064,N,08002.6499,W,1,11,1.2,15,M,,M,,*6F
06/11/2014	21:04:32.943	$GPGGA,210442,2526.3078,N,08002.6522,W,1,11,1.2,15,M,,M,,*60
06/11/2014	21:04:33.945	$GPGGA,210443,2526.3092,N,08002.6547,W,1,11,1.2,15,M,,M,,*66
06/11/2014	21:04:34.948	$GPGGA,210444,2526.3106,N,08002.6572,W,1,11,1.2,15,M,,M,,*6B
06/11/2014	21:04:35.801	$GPGGA,210445,2526.3120,N,08002.6597,W,1,11,1.2,15,M,,M,,*65
06/11/2014	21:04:36.793	$GPGGA,210446,2526.3134,N,08002.6622,W,1,11,1.2,15,M,,M,,*6E
06/11/2014	21:04:37.796	$GPGGA,210447,2526.3149,N,08002.6645,W,1,11,1.2,15,M,,M,,*64
06/11/2014	21:04:38.799	$GPGGA,210448,2526.3163,N,08002.6670,W,1,11,1.2,15,M,,M,,*65
06/11/2014	21:04:39.802	$GPGGA,210449,2526.3176,N,08002.6694,W,1,11,1.2,15,M,,M,,*6A
06/11/2014	21:04:40.795	$GPGGA,210450,2526.3192,N,08002.6720,W,1,11,1.2,15,M,,M,,*66
06/11/2014	21:04:41.797	$GPGGA,210451,2526.3205,N,08002.6745,W,1,11,1.2,15,M,,M,,*69
06/11/2014	21:04:42.810	$GPGGA,210452,2526.3221,N,08002.6770,W,1,11,1.2,15,M,,M,,*6A
06/11/2014	21:04:43.812	$GPGGA,210453,2526.3236,N,08002.6795,W,1,11,1.2,15,M,,M,,*66
06/11/2014	21:04:44.785	$GPGGA,210454,2526.3250,N,08002.6819,W,1,11,1.2,15,M,,M,,*6A
06/11/2014	21:04:45.808	$GPGGA,210455,2526.3265,N,08002.6843,W,1,11,1.2,15,M,,M,,*62
06/11/2014	21:04:46.793	$GPGGA,210456,2526.3280,N,08002.6868,W,1,11,1.2,15,M,,M,,*63
06/11/2014	21:04:47.812	$GPGGA,210457,2526.3294,N,08002.6893,W,1,11,1.2,15,M,,M,,*63
06/11/2014	21:04:48.793	$GPGGA,210458,2526.3308,N,08002.6918,W,1,11,1.2,15,M,,M,,*6A
06/11/2014	21:04:49.787	$GPGGA,210459,2526.3323,N,08002.6943,W,1,11,1.2,15,M,,M,,*6C
06/11/2014	21:04:50.800	$GPGGA,210500,2526.3337,N,08002.6969,W,1,11,1.2,15,M,,M,,*6C
06/11/2014	21:04:51.783	$GPGGA,210501,2526.3351,N,08002.6994,W,1,11,1.2,15,M,,M,,*6F
06/11/2014	21:04:52.796	$GPGGA,210502,2526.3364,N,08002.7017,W,1,11,1.2,15,M,,M,,*69
06/11/2014	21:04:53.789	$GPGGA,210503,2526.3380,N,08002.7041,W,1,11,1.2,15,M,,M,,*61
06/11/2014	21:04:54.811	$GPGGA,210504,2526.3392,N,08002.7066,W,1,11,1.2,15,M,,M,,*60
06/11/2014	21:04:55.796	$GPGGA,210505,2526.3407,N,08002.7090,W,1,11,1.2,15,M,,M,,*63
06/11/2014	21:04:56.796	$GPGGA,210506,2526.3421,N,08002.7115,W,1,11,1.2,15,M,,M,,*68
06/11/2014	21:04:57.819	$GPGGA,210507,2526.3435,N,08002.7139,W,1,11,1.2,15,M,,M,,*62
06/11/2014	21:04:58.812	$GPGGA,210508,2526.3447,N,08002.7164,W,1,11,1.2,15,M,,M,,*60
06/11/2014	21:04:59.794	$GPGGA,210509,2526.3461,N,08002.7190,W,1,10,1.3,15,M,,M,,*6E
06/11/2014	21:05:00.807	$GPGGA,210510,2526.3475,N,08002.7215,W,1,10,1.2,15,M,,M,,*6C
06/11/2014	21:05:01.810	$GPGGA,210511,2526.3488,N,08002.7240,W,1,11,1.2,15,M,,M,,*6E
06/11/2014	21:05:02.812	$GPGGA,210512,2526.3501,N,08002.7265,W,1,11,1.2,15,M,,M,,*6A
06/11/2014	21:05:03.805	$GPGGA,210513,2526.3514,N,08002.7290,W,1,11,1.2,15,M,,M,,*65
06/11/2014	21:05:04.808	$GPGGA,210514,2526.3526,N,08002.7314,W,1,11,1.2,15,M,,M,,*6E
06/11/2014	21:05:07.354	$GPGGA,210516,2526.3553,N,08002.7364,W,1,11,1.2,15,M,,M,,*69
06/11/2014	21:05:07.795	$GPGGA,210517,2526.3566,N,08002.7388,W,1,10,1.3,15,M,,M,,*6C
06/11/2014	21:05:08.918	$GPGGA,210518,2526.3580,N,08002.7413,W,1,10,1.2,15,M,,M,,*6F
06/11/2014	21:05:09.810	$GPGGA,210519,2526.3593,N,08002.7438,W,1,11,1.2,15,M,,M,,*64
06/11/2014	21:05:10.923	$GPGGA,210520,2526.3606,N,08002.7462,W,1,11,1.2,15,M,,M,,*6E
06/11/2014	21:05:12.869	$GPGGA,210522,2526.3633,N,08002.7511,W,1,11,1.2,15,M,,M,,*6F
06/11/2014	21:05:13.901	$GPGGA,210523,2526.3645,N,08002.7536,W,1,11,1.2,15,M,,M,,*6A
06/11/2014	21:05:14.804	$GPGGA,210524,2526.3659,N,08002.7561,W,1,11,1.2,15,M,,M,,*62
06/11/2014	21:05:15.796	$GPGGA,210525,2526.3671,N,08002.7585,W,1,11,1.2,15,M,,M,,*63
06/11/2014	21:05:16.899	$GPGGA,210526,2526.3685,N,08002.7610,W,1,11,1.2,15,M,,M,,*64
06/11/2014	21:05:17.822	$GPGGA,210527,2526.3698,N,08002.7635,W,1,11,1.2,15,M,,M,,*6E
06/11/2014	21:05:18.926	$GPGGA,210528,2526.3710,N,08002.7659,W,1,11,1.2,15,M,,M,,*6A
06/11/2014	21:05:19.817	$GPGGA,210529,2526.3725,N,08002.7684,W,1,11,1.2,15,M,,M,,*6D
06/11/2014	21:05:20.910	$GPGGA,210530,2526.3739,N,08002.7709,W,1,11,1.2,15,M,,M,,*6C
06/11/2014	21:05:21.933	$GPGGA,210531,2526.3752,N,08002.7732,W,1,11,1.2,15,M,,M,,*68
06/11/2014	21:05:22.925	$GPGGA,210532,2526.3764,N,08002.7757,W,1,11,1.3,15,M,,M,,*6C
06/11/2014	21:05:23.937	$GPGGA,210533,2526.3778,N,08002.7782,W,1,11,1.2,15,M,,M,,*69
06/11/2014	21:05:24.900	$GPGGA,210534,2526.3792,N,08002.7807,W,1,11,1.2,15,M,,M,,*68
06/11/2014	21:05:25.923	$GPGGA,210535,2526.3804,N,08002.7832,W,1,11,1.2,15,M,,M,,*6F
06/11/2014	21:05:26.915	$GPGGA,210536,2526.3817,N,08002.7858,W,1,11,1.2,15,M,,M,,*62
06/11/2014	21:05:27.918	$GPGGA,210537,2526.3829,N,08002.7881,W,1,11,1.2,15,M,,M,,*6A
06/11/2014	21:05:28.911	$GPGGA,210538,2526.3844,N,08002.7906,W,1,11,1.2,15,M,,M,,*60
06/11/2014	21:05:29.905	$GPGGA,210539,2526.3858,N,08002.7930,W,1,11,1.2,15,M,,M,,*69
06/11/2014	21:05:30.926	$GPGGA,210540,2526.3872,N,08002.7955,W,1,11,1.2,15,M,,M,,*6C
06/11/2014	21:05:31.929	$GPGGA,210541,2526.3884,N,08002.7980,W,1,11,1.2,15,M,,M,,*6C
06/11/2014	21:05:32.912	$GPGGA,210542,2526.3898,N,08002.8003,W,1,11,1.2,15,M,,M,,*6F
06/11/2014	21:05:33.934	$GPGGA,210543,2526.3913,N,08002.8027,W,1,11,1.2,15,M,,M,,*6A
06/11/2014	21:05:34.927	$GPGGA,210544,2526.3927,N,08002.8051,W,1,11,1.2,16,M,,M,,*68
06/11/2014	21:05:35.812	$GPGGA,210545,2526.3941,N,08002.8075,W,1,11,1.2,16,M,,M,,*6F
06/11/2014	21:05:36.760	$GPGGA,210546,2526.3956,N,08002.8100,W,1,11,1.2,16,M,,M,,*69
06/11/2014	21:05:37.754	$GPGGA,210547,2526.3970,N,08002.8123,W,1,11,1.2,16,M,,M,,*6D
06/11/2014	21:05:38.767	$GPGGA,210548,2526.3984,N,08002.8147,W,1,11,1.2,16,M,,M,,*6B
06/11/2014	21:05:39.752	$GPGGA,210549,2526.3999,N,08002.8172,W,1,11,1.2,16,M,,M,,*60
06/11/2014	21:05:40.771	$GPGGA,210550,2526.4013,N,08002.8195,W,1,11,1.2,16,M,,M,,*6D
06/11/2014	21:05:41.784	$GPGGA,210551,2526.4028,N,08002.8219,W,1,11,1.2,16,M,,M,,*63
06/11/2014	21:05:42.780	$GPGGA,210552,2526.4042,N,08002.8244,W,1,11,1.2,16,M,,M,,*64
06/11/2014	21:05:43.749	$GPGGA,210553,2526.4057,N,08002.8267,W,1,11,1.2,16,M,,M,,*60
06/11/2014	21:05:44.762	$GPGGA,210554,2526.4072,N,08002.8292,W,1,11,1.2,16,M,,M,,*6A
06/11/2014	21:05:45.755	$GPGGA,210555,2526.4086,N,08002.8316,W,1,11,1.2,16,M,,M,,*6D
06/11/2014	21:05:46.778	$GPGGA,210556,2526.4100,N,08002.8340,W,1,11,1.2,16,M,,M,,*62
06/11/2014	21:05:47.761	$GPGGA,210557,2526.4115,N,08002.8364,W,1,11,1.2,16,M,,M,,*61
06/11/2014	21:05:48.773	$GPGGA,210558,2526.4130,N,08002.8389,W,1,11,1.2,16,M,,M,,*6A
06/11/2014	21:05:50.939	$GPGGA,210559,2526.4144,N,08002.8412,W,1,11,1.2,16,M,,M,,*6D
06/11/2014	21:05:50.959	$GPGGA,210600,2526.4160,N,08002.8436,W,1,11,1.2,16,M,,M,,*62
06/11/2014	21:05:53.144	$GPGGA,210602,2526.4189,N,08002.8486,W,1,11,1.2,16,M,,M,,*6C
06/11/2014	21:05:53.766	$GPGGA,210603,2526.4202,N,08002.8509,W,1,11,1.2,16,M,,M,,*6B
06/11/2014	21:05:54.769	$GPGGA,210604,2526.4216,N,08002.8534,W,1,11,1.2,16,M,,M,,*67
06/11/2014	21:05:55.761	$GPGGA,210605,2526.4230,N,08002.8558,W,1,11,1.2,16,M,,M,,*68
06/11/2014	21:05:56.874	$GPGGA,210606,2526.4244,N,08002.8581,W,1,11,1.2,16,M,,M,,*6C
06/11/2014	21:05:57.756	$GPGGA,210607,2526.4258,N,08002.8605,W,1,11,1.2,16,M,,M,,*6F
06/11/2014	21:05:58.789	$GPGGA,210608,2526.4272,N,08002.8629,W,1,11,1.2,16,M,,M,,*66
06/11/2014	21:05:59.761	$GPGGA,210609,2526.4285,N,08002.8653,W,1,11,1.2,16,M,,M,,*62
06/11/2014	21:06:00.854	$GPGGA,210610,2526.4299,N,08002.8678,W,1,11,1.2,16,M,,M,,*6E
06/11/2014	21:06:01.787	$GPGGA,210611,2526.4314,N,08002.8701,W,1,11,1.2,16,M,,M,,*64
06/11/2014	21:06:02.880	$GPGGA,210612,2526.4328,N,08002.8726,W,1,11,1.2,16,M,,M,,*6D
06/11/2014	21:06:03.892	$GPGGA,210613,2526.4342,N,08002.8750,W,1,11,1.2,16,M,,M,,*61
06/11/2014	21:06:04.775	$GPGGA,210614,2526.4355,N,08002.8775,W,1,11,1.2,16,M,,M,,*67
06/11/2014	21:06:05.777	$GPGGA,210615,2526.4368,N,08002.8800,W,1,11,1.2,16,M,,M,,*65
06/11/2014	21:06:06.880	$GPGGA,210616,2526.4382,N,08002.8822,W,1,11,1.2,16,M,,M,,*62
06/11/2014	21:06:07.863	$GPGGA,210617,2526.4396,N,08002.8847,W,1,11,1.2,16,M,,M,,*65
06/11/2014	21:06:08.866	$GPGGA,210618,2526.4410,N,08002.8870,W,1,11,1.2,16,M,,M,,*67
06/11/2014	21:06:09.899	$GPGGA,210619,2526.4422,N,08002.8895,W,1,11,1.2,16,M,,M,,*6C
06/11/2014	21:06:10.881	$GPGGA,210620,2526.4436,N,08002.8920,W,1,11,1.2,16,M,,M,,*6C
06/11/2014	21:06:11.874	$GPGGA,210621,2526.4449,N,08002.8943,W,1,11,1.2,16,M,,M,,*60
06/11/2014	21:06:12.877	$GPGGA,210622,2526.4462,N,08002.8967,W,1,11,1.2,16,M,,M,,*6C
06/11/2014	21:06:13.869	$GPGGA,210623,2526.4476,N,08002.8992,W,1,11,1.2,16,M,,M,,*62
06/11/2014	21:06:14.882	$GPGGA,210624,2526.4489,N,08002.9017,W,1,11,1.2,16,M,,M,,*60
06/11/2014	21:06:15.874	$GPGGA,210625,2526.4501,N,08002.9040,W,1,11,1.2,16,M,,M,,*62
06/11/2014	21:06:16.866	$GPGGA,210626,2526.4516,N,08002.9065,W,1,11,1.2,16,M,,M,,*60
06/11/2014	21:06:17.919	$GPGGA,210627,2526.4529,N,08002.9090,W,1,11,1.2,16,M,,M,,*67
06/11/2014	21:06:18.892	$GPGGA,210628,2526.4541,N,08002.9115,W,1,11,1.2,16,M,,M,,*6A
06/11/2014	21:06:19.894	$GPGGA,210629,2526.4555,N,08002.9138,W,1,11,1.2,16,M,,M,,*61
06/11/2014	21:06:20.870	$GPGGA,210630,2526.4567,N,08002.9162,W,1,11,1.2,16,M,,M,,*67
06/11/2014	21:06:21.910	$GPGGA,210631,2526.4581,N,08002.9187,W,1,11,1.2,16,M,,M,,*65
06/11/2014	21:06:22.893	$GPGGA,210632,2526.4595,N,08002.9210,W,1,11,1.2,16,M,,M,,*6E
06/11/2014	21:06:23.905	$GPGGA,210633,2526.4609,N,08002.9234,W,1,11,1.2,16,M,,M,,*6F
06/11/2014	21:06:25.911	$GPGGA,210635,2526.4635,N,08002.9283,W,1,11,1.2,16,M,,M,,*6A
06/11/2014	21:06:26.895	$GPGGA,210636,2526.4649,N,08002.9307,W,1,11,1.2,16,M,,M,,*6F
06/11/2014	21:06:27.876	$GPGGA,210637,2526.4661,N,08002.9332,W,1,11,1.2,16,M,,M,,*62
06/11/2014	21:06:28.889	$GPGGA,210638,2526.4675,N,08002.9357,W,1,11,1.2,16,M,,M,,*6B
06/11/2014	21:06:29.904	$GPGGA,210639,2526.4689,N,08002.9380,W,1,11,1.2,16,M,,M,,*63
06/11/2014	21:06:30.902	$GPGGA,210640,2526.4703,N,08002.9404,W,1,11,1.2,16,M,,M,,*65
06/11/2014	21:06:31.897	$GPGGA,210641,2526.4717,N,08002.9429,W,1,11,1.2,16,M,,M,,*6E
06/11/2014	21:06:32.888	$GPGGA,210642,2526.4729,N,08002.9452,W,1,11,1.2,16,M,,M,,*6C
06/11/2014	21:06:33.872	$GPGGA,210643,2526.4743,N,08002.9476,W,1,11,1.2,16,M,,M,,*67
06/11/2014	21:06:34.904	$GPGGA,210644,2526.4757,N,08002.9501,W,1,11,1.2,16,M,,M,,*64
06/11/2014	21:06:35.770	$GPGGA,210645,2526.4771,N,08002.9524,W,1,11,1.2,16,M,,M,,*66
06/11/2014	21:06:36.709	$GPGGA,210646,2526.4785,N,08002.9548,W,1,11,1.2,15,M,,M,,*67
06/11/2014	21:06:37.733	$GPGGA,210647,2526.4798,N,08002.9572,W,1,11,1.2,15,M,,M,,*63
06/11/2014	21:06:38.745	$GPGGA,210648,2526.4812,N,08002.9596,W,1,11,1.2,15,M,,M,,*6B
06/11/2014	21:06:39.717	$GPGGA,210649,2526.4826,N,08002.9621,W,1,11,1.2,15,M,,M,,*62
06/11/2014	21:06:40.840	$GPGGA,210650,2526.4840,N,08002.9646,W,1,11,1.2,15,M,,M,,*6B
06/11/2014	21:06:41.713	$GPGGA,210651,2526.4854,N,08002.9669,W,1,11,1.2,15,M,,M,,*62
06/11/2014	21:06:42.745	$GPGGA,210652,2526.4867,N,08002.9693,W,1,11,1.2,15,M,,M,,*64
06/11/2014	21:06:43.818	$GPGGA,210653,2526.4881,N,08002.9718,W,1,11,1.2,15,M,,M,,*6F
06/11/2014	21:06:44.721	$GPGGA,210654,2526.4895,N,08002.9743,W,1,11,1.2,15,M,,M,,*63
06/11/2014	21:06:45.864	$GPGGA,210655,2526.4910,N,08002.9765,W,1,11,1.2,15,M,,M,,*6A
06/11/2014	21:06:46.746	$GPGGA,210656,2526.4924,N,08002.9790,W,1,11,1.2,15,M,,M,,*64
06/11/2014	21:06:47.820	$GPGGA,210657,2526.4939,N,08002.9813,W,1,11,1.2,15,M,,M,,*6D
06/11/2014	21:06:48.733	$GPGGA,210658,2526.4953,N,08002.9837,W,1,11,1.2,15,M,,M,,*68
06/11/2014	21:06:49.724	$GPGGA,210659,2526.4967,N,08002.9861,W,1,11,1.2,15,M,,M,,*6D
06/11/2014	21:06:50.846	$GPGGA,210700,2526.4982,N,08002.9885,W,1,11,1.2,15,M,,M,,*61
06/11/2014	21:06:51.869	$GPGGA,210701,2526.4996,N,08002.9910,W,1,11,1.2,15,M,,M,,*68
06/11/2014	21:06:52.741	$GPGGA,210702,2526.5011,N,08002.9935,W,1,11,1.2,15,M,,M,,*6B
06/11/2014	21:06:53.834	$GPGGA,210703,2526.5025,N,08002.9958,W,1,11,1.2,15,M,,M,,*66
06/11/2014	21:06:54.737	$GPGGA,210704,2526.5040,N,08002.9982,W,1,11,1.2,15,M,,M,,*65
06/11/2014	21:06:55.850	$GPGGA,210705,2526.5057,N,08003.0007,W,1,10,1.2,15,M,,M,,*6F
06/11/2014	21:06:56.832	$GPGGA,210706,2526.5072,N,08003.0029,W,1,10,1.2,15,M,,M,,*67
06/11/2014	21:06:57.845	$GPGGA,210707,2526.5087,N,08003.0054,W,1,11,1.2,15,M,,M,,*67
06/11/2014	21:06:58.748	$GPGGA,210708,2526.5103,N,08003.0077,W,1,11,1.2,15,M,,M,,*64
06/11/2014	21:06:59.871	$GPGGA,210709,2526.5118,N,08003.0101,W,1,11,1.2,15,M,,M,,*6F
06/11/2014	21:07:00.843	$GPGGA,210710,2526.5133,N,08003.0126,W,1,11,1.2,15,M,,M,,*6B
06/11/2014	21:07:01.846	$GPGGA,210711,2526.5148,N,08003.0150,W,1,11,1.2,15,M,,M,,*67
06/11/2014	21:07:02.849	$GPGGA,210712,2526.5162,N,08003.0174,W,1,11,1.2,15,M,,M,,*6A
06/11/2014	21:07:03.851	$GPGGA,210713,2526.5177,N,08003.0199,W,1,11,1.2,15,M,,M,,*6C
06/11/2014	21:07:04.834	$GPGGA,210714,2526.5191,N,08003.0222,W,1,11,1.2,15,M,,M,,*60
06/11/2014	21:07:05.867	$GPGGA,210715,2526.5206,N,08003.0246,W,1,11,1.2,15,M,,M,,*6E
06/11/2014	21:07:06.849	$GPGGA,210716,2526.5220,N,08003.0271,W,1,11,1.2,15,M,,M,,*6D
06/11/2014	21:07:07.851	$GPGGA,210717,2526.5235,N,08003.0294,W,1,11,1.2,15,M,,M,,*63
06/11/2014	21:07:08.844	$GPGGA,210718,2526.5249,N,08003.0318,W,1,11,1.2,15,M,,M,,*62
06/11/2014	21:07:09.856	$GPGGA,210719,2526.5263,N,08003.0340,W,1,11,1.2,15,M,,M,,*66
06/11/2014	21:07:10.859	$GPGGA,210720,2526.5275,N,08003.0361,W,1,11,1.2,15,M,,M,,*68
06/11/2014	21:07:11.832	$GPGGA,210721,2526.5289,N,08003.0380,W,1,11,1.2,15,M,,M,,*65
06/11/2014	21:07:12.846	$GPGGA,210722,2526.5302,N,08003.0398,W,1,11,1.2,15,M,,M,,*6D
06/11/2014	21:07:13.857	$GPGGA,210723,2526.5316,N,08003.0415,W,1,11,1.2,15,M,,M,,*6B
06/11/2014	21:07:14.860	$GPGGA,210724,2526.5328,N,08003.0431,W,1,11,1.2,15,M,,M,,*67
06/11/2014	21:07:15.843	$GPGGA,210725,2526.5340,N,08003.0446,W,1,11,1.2,15,M,,M,,*68
06/11/2014	21:07:16.845	$GPGGA,210726,2526.5354,N,08003.0462,W,1,11,1.2,15,M,,M,,*68
06/11/2014	21:07:17.838	$GPGGA,210727,2526.5367,N,08003.0477,W,1,11,1.2,15,M,,M,,*6D
06/11/2014	21:07:18.861	$GPGGA,210728,2526.5379,N,08003.0489,W,1,11,1.2,15,M,,M,,*6C
06/11/2014	21:07:19.853	$GPGGA,210729,2526.5390,N,08003.0502,W,1,11,1.2,15,M,,M,,*68
06/11/2014	21:07:20.857	$GPGGA,210730,2526.5390,N,08003.0502,W,1,11,1.2,15,M,,M,,*60
06/11/2014	21:07:21.849	$GPGGA,210731,2526.5415,N,08003.0525,W,1,11,1.2,15,M,,M,,*6E
06/11/2014	21:07:22.892	$GPGGA,210732,2526.5426,N,08003.0536,W,1,11,1.2,15,M,,M,,*6F
06/11/2014	21:07:23.855	$GPGGA,210733,2526.5437,N,08003.0546,W,1,11,1.2,15,M,,M,,*69
06/11/2014	21:07:24.858	$GPGGA,210734,2526.5450,N,08003.0556,W,1,11,1.2,15,M,,M,,*6E
06/11/2014	21:07:25.859	$GPGGA,210735,2526.5462,N,08003.0565,W,1,11,1.2,15,M,,M,,*6E
06/11/2014	21:07:26.972	$GPGGA,210736,2526.5473,N,08003.0575,W,1,11,1.2,15,M,,M,,*6C
06/11/2014	21:07:27.874	$GPGGA,210737,2526.5484,N,08003.0585,W,1,11,1.2,15,M,,M,,*6A
06/11/2014	21:07:28.847	$GPGGA,210738,2526.5495,N,08003.0592,W,1,11,1.2,15,M,,M,,*63
06/11/2014	21:07:29.879	$GPGGA,210739,2526.5506,N,08003.0601,W,1,11,1.2,16,M,,M,,*63
06/11/2014	21:07:30.972	$GPGGA,210740,2526.5519,N,08003.0608,W,1,11,1.2,16,M,,M,,*6A
06/11/2014	21:07:31.865	$GPGGA,210741,2526.5530,N,08003.0616,W,1,11,1.2,16,M,,M,,*6F
06/11/2014	21:07:32.867	$GPGGA,210742,2526.5542,N,08003.0623,W,1,11,1.2,16,M,,M,,*6F
06/11/2014	21:07:33.860	$GPGGA,210743,2526.5553,N,08003.0630,W,1,11,1.2,16,M,,M,,*6C
06/11/2014	21:07:34.963	$GPGGA,210744,2526.5564,N,08003.0636,W,1,11,1.2,16,M,,M,,*69
06/11/2014	21:07:35.786	$GPGGA,210745,2526.5574,N,08003.0643,W,1,10,1.2,16,M,,M,,*6A
06/11/2014	21:07:36.708	$GPGGA,210746,2526.5585,N,08003.0647,W,1,10,1.2,16,M,,M,,*63
06/11/2014	21:07:37.701	$GPGGA,210747,2526.5596,N,08003.0652,W,1,11,1.3,16,M,,M,,*64
06/11/2014	21:07:38.795	$GPGGA,210748,2526.5607,N,08003.0657,W,1,11,1.2,16,M,,M,,*64
06/11/2014	21:07:39.796	$GPGGA,210749,2526.5618,N,08003.0661,W,1,11,1.2,16,M,,M,,*6E
06/11/2014	21:07:40.799	$GPGGA,210750,2526.5629,N,08003.0665,W,1,11,1.2,16,M,,M,,*60
06/11/2014	21:07:41.792	$GPGGA,210751,2526.5639,N,08003.0669,W,1,11,1.2,16,M,,M,,*6C
06/11/2014	21:07:42.805	$GPGGA,210752,2526.5650,N,08003.0675,W,1,11,1.2,16,M,,M,,*6D
06/11/2014	21:07:43.816	$GPGGA,210753,2526.5661,N,08003.0679,W,1,11,1.2,16,M,,M,,*62
06/11/2014	21:07:44.789	$GPGGA,210754,2526.5672,N,08003.0683,W,1,11,1.2,16,M,,M,,*62
06/11/2014	21:07:45.822	$GPGGA,210755,2526.5683,N,08003.0686,W,1,11,1.2,16,M,,M,,*68
06/11/2014	21:07:46.814	$GPGGA,210756,2526.5694,N,08003.0690,W,1,11,1.2,16,M,,M,,*6A
06/11/2014	21:07:47.817	$GPGGA,210757,2526.5704,N,08003.0694,W,1,11,1.2,16,M,,M,,*67
06/11/2014	21:07:48.800	$GPGGA,210758,2526.5715,N,08003.0697,W,1,11,1.2,16,M,,M,,*6B
06/11/2014	21:07:49.792	$GPGGA,210759,2526.5726,N,08003.0701,W,1,11,1.2,16,M,,M,,*64
06/11/2014	21:07:50.825	$GPGGA,210800,2526.5737,N,08003.0704,W,1,11,1.2,16,M,,M,,*62
06/11/2014	21:07:51.818	$GPGGA,210801,2526.5748,N,08003.0708,W,1,11,1.2,16,M,,M,,*67
06/11/2014	21:07:52.802	$GPGGA,210802,2526.5759,N,08003.0712,W,1,11,1.2,16,M,,M,,*6F
06/11/2014	21:07:53.803	$GPGGA,210803,2526.5770,N,08003.0715,W,1,11,1.2,16,M,,M,,*62
06/11/2014	21:07:54.816	$GPGGA,210804,2526.5781,N,08003.0717,W,1,11,1.2,16,M,,M,,*69
06/11/2014	21:07:55.799	$GPGGA,210805,2526.5793,N,08003.0720,W,1,11,1.2,16,M,,M,,*6F
06/11/2014	21:07:56.821	$GPGGA,210806,2526.5804,N,08003.0723,W,1,11,1.2,16,M,,M,,*6E
06/11/2014	21:07:57.834	$GPGGA,210807,2526.5815,N,08003.0726,W,1,11,1.2,16,M,,M,,*6A
06/11/2014	21:07:58.807	$GPGGA,210808,2526.5826,N,08003.0730,W,1,11,1.2,16,M,,M,,*62
06/11/2014	21:07:59.819	$GPGGA,210809,2526.5837,N,08003.0733,W,1,11,1.2,16,M,,M,,*60
06/11/2014	21:08:00.802	$GPGGA,210810,2526.5846,N,08003.0734,W,1,11,1.2,16,M,,M,,*69
06/11/2014	21:08:01.824	$GPGGA,210811,2526.5858,N,08003.0737,W,1,11,1.2,16,M,,M,,*64
06/11/2014	21:08:02.827	$GPGGA,210812,2526.5869,N,08003.0740,W,1,11,1.2,16,M,,M,,*65
06/11/2014	21:08:03.824	$GPGGA,210813,2526.5880,N,08003.0742,W,1,11,1.2,16,M,,M,,*61
06/11/2014	21:08:04.802	$GPGGA,210814,2526.5891,N,08003.0744,W,1,11,1.2,16,M,,M,,*60
06/11/2014	21:08:05.815	$GPGGA,210815,2526.5902,N,08003.0746,W,1,11,1.2,16,M,,M,,*68
06/11/2014	21:08:06.827	$GPGGA,210816,2526.5913,N,08003.0749,W,1,11,1.2,16,M,,M,,*64
06/11/2014	21:08:07.800	$GPGGA,210817,2526.5923,N,08003.0751,W,1,11,1.2,16,M,,M,,*6F
06/11/2014	21:08:08.813	$GPGGA,210818,2526.5934,N,08003.0753,W,1,11,1.2,16,M,,M,,*64
06/11/2014	21:08:09.825	$GPGGA,210819,2526.5945,N,08003.0755,W,1,11,1.2,16,M,,M,,*65
06/11/2014	21:08:10.808	$GPGGA,210820,2526.5956,N,08003.0758,W,1,11,1.2,16,M,,M,,*60
06/11/2014	21:08:11.801	$GPGGA,210821,2526.5965,N,08003.0759,W,1,11,1.2,16,M,,M,,*60
06/11/2014	21:08:12.813	$GPGGA,210822,2526.5976,N,08003.0760,W,1,11,1.2,16,M,,M,,*6B
06/11/2014	21:08:13.806	$GPGGA,210823,2526.5988,N,08003.0762,W,1,11,1.2,16,M,,M,,*69
06/11/2014	21:08:14.829	$GPGGA,210824,2526.5999,N,08003.0763,W,1,11,1.2,16,M,,M,,*6F
06/11/2014	21:08:15.902	$GPGGA,210825,2526.6008,N,08003.0766,W,1,11,1.2,16,M,,M,,*69
06/11/2014	21:08:16.814	$GPGGA,210826,2526.6019,N,08003.0767,W,1,11,1.2,17,M,,M,,*6A
06/11/2014	21:08:17.937	$GPGGA,210827,2526.6030,N,08003.0770,W,1,11,1.2,17,M,,M,,*66
06/11/2014	21:08:18.819	$GPGGA,210828,2526.6040,N,08003.0771,W,1,11,1.2,17,M,,M,,*6F
06/11/2014	21:08:19.912	$GPGGA,210829,2526.6051,N,08003.0773,W,1,11,1.2,17,M,,M,,*6C
06/11/2014	21:08:20.824	$GPGGA,210830,2526.6062,N,08003.0775,W,1,11,1.2,17,M,,M,,*62
06/11/2014	21:08:21.807	$GPGGA,210831,2526.6073,N,08003.0777,W,1,11,1.2,17,M,,M,,*61
06/11/2014	21:08:22.951	$GPGGA,210832,2526.6084,N,08003.0778,W,1,11,1.2,17,M,,M,,*65
06/11/2014	21:08:23.922	$GPGGA,210833,2526.6095,N,08003.0780,W,1,10,1.2,17,M,,M,,*62
06/11/2014	21:08:24.915	$GPGGA,210834,2526.6105,N,08003.0779,W,1,10,1.2,17,M,,M,,*6B
06/11/2014	21:08:25.938	$GPGGA,210835,2526.6116,N,08003.0780,W,1,11,1.2,17,M,,M,,*6F
06/11/2014	21:08:26.930	$GPGGA,210836,2526.6127,N,08003.0781,W,1,11,1.2,17,M,,M,,*6F
06/11/2014	21:08:27.954	$GPGGA,210837,2526.6138,N,08003.0782,W,1,11,1.2,17,M,,M,,*63
06/11/2014	21:08:28.906	$GPGGA,210838,2526.6149,N,08003.0784,W,1,11,1.2,17,M,,M,,*6C
06/11/2014	21:08:29.939	$GPGGA,210839,2526.6160,N,08003.0784,W,1,11,1.2,17,M,,M,,*66
06/11/2014	21:08:30.931	$GPGGA,210840,2526.6171,N,08003.0785,W,1,11,1.2,17,M,,M,,*69
06/11/2014	21:08:33.124	$GPGGA,210842,2526.6191,N,08003.0788,W,1,11,1.2,17,M,,M,,*68
06/11/2014	21:08:33.939	$GPGGA,210843,2526.6202,N,08003.0789,W,1,10,1.2,17,M,,M,,*60
06/11/2014	21:08:34.931	$GPGGA,210844,2526.6213,N,08003.0791,W,1,10,1.2,17,M,,M,,*6E
06/11/2014	21:08:35.786	$GPGGA,210845,2526.6224,N,08003.0791,W,1,11,1.2,17,M,,M,,*6A
06/11/2014	21:08:36.765	$GPGGA,210846,2526.6234,N,08003.0792,W,1,11,1.2,17,M,,M,,*6B
06/11/2014	21:08:37.778	$GPGGA,210847,2526.6245,N,08003.0793,W,1,11,1.2,17,M,,M,,*6D
06/11/2014	21:08:38.761	$GPGGA,210848,2526.6256,N,08003.0795,W,1,11,1.2,17,M,,M,,*66
06/11/2014	21:08:39.783	$GPGGA,210849,2526.6265,N,08003.0796,W,1,10,1.2,17,M,,M,,*65
06/11/2014	21:08:40.759	$GPGGA,210850,2526.6275,N,08003.0798,W,1,10,1.2,17,M,,M,,*62
06/11/2014	21:08:41.779	$GPGGA,210851,2526.6286,N,08003.0799,W,1,11,1.2,17,M,,M,,*6F
06/11/2014	21:08:42.772	$GPGGA,210852,2526.6297,N,08003.0800,W,1,11,1.2,17,M,,M,,*63
06/11/2014	21:08:43.784	$GPGGA,210853,2526.6308,N,08003.0800,W,1,11,1.2,17,M,,M,,*65
06/11/2014	21:08:44.757	$GPGGA,210854,2526.6319,N,08003.0802,W,1,11,1.2,17,M,,M,,*60
06/11/2014	21:08:45.760	$GPGGA,210855,2526.6329,N,08003.0801,W,1,10,1.2,17,M,,M,,*60
06/11/2014	21:08:46.782	$GPGGA,210856,2526.6340,N,08003.0802,W,1,10,1.2,17,M,,M,,*6F
06/11/2014	21:08:47.766	$GPGGA,210857,2526.6351,N,08003.0802,W,1,11,1.2,17,M,,M,,*6F
06/11/2014	21:08:48.768	$GPGGA,210858,2526.6361,N,08003.0802,W,1,11,1.2,17,M,,M,,*63
06/11/2014	21:08:49.790	$GPGGA,210859,2526.6372,N,08003.0803,W,1,10,1.2,17,M,,M,,*60
06/11/2014	21:08:50.783	$GPGGA,210900,2526.6382,N,08003.0803,W,1,10,1.2,17,M,,M,,*62
06/11/2014	21:08:51.766	$GPGGA,210901,2526.6391,N,08003.0805,W,1,11,1.2,17,M,,M,,*66
06/11/2014	21:08:52.778	$GPGGA,210902,2526.6402,N,08003.0804,W,1,11,1.2,17,M,,M,,*69
06/11/2014	21:08:53.800	$GPGGA,210903,2526.6413,N,08003.0805,W,1,11,1.2,17,M,,M,,*69
06/11/2014	21:08:54.773	$GPGGA,210904,2526.6423,N,08003.0804,W,1,11,1.2,17,M,,M,,*6C
06/11/2014	21:08:55.796	$GPGGA,210905,2526.6434,N,08003.0805,W,1,11,1.2,17,M,,M,,*6A
06/11/2014	21:08:56.758	$GPGGA,210906,2526.6445,N,08003.0804,W,1,11,1.2,17,M,,M,,*6E
06/11/2014	21:08:57.771	$GPGGA,210907,2526.6455,N,08003.0805,W,1,11,1.2,17,M,,M,,*6F
06/11/2014	21:08:58.894	$GPGGA,210908,2526.6466,N,08003.0804,W,1,11,1.2,17,M,,M,,*61
06/11/2014	21:08:59.766	$GPGGA,210909,2526.6477,N,08003.0805,W,1,11,1.2,17,M,,M,,*61
06/11/2014	21:09:00.769	$GPGGA,210910,2526.6487,N,08003.0803,W,1,11,1.2,16,M,,M,,*61
06/11/2014	21:09:01.792	$GPGGA,210911,2526.6498,N,08003.0803,W,1,11,1.2,16,M,,M,,*6E
06/11/2014	21:09:02.905	$GPGGA,210912,2526.6507,N,08003.0803,W,1,11,1.2,16,M,,M,,*6A
06/11/2014	21:09:03.887	$GPGGA,210913,2526.6517,N,08003.0803,W,1,11,1.2,16,M,,M,,*6A
06/11/2014	21:09:04.880	$GPGGA,210914,2526.6528,N,08003.0802,W,1,11,1.2,16,M,,M,,*60
06/11/2014	21:09:05.792	$GPGGA,210915,2526.6539,N,08003.0802,W,1,11,1.2,16,M,,M,,*61
06/11/2014	21:09:06.795	$GPGGA,210916,2526.6549,N,08003.0802,W,1,11,1.2,16,M,,M,,*65
06/11/2014	21:09:07.908	$GPGGA,210917,2526.6559,N,08003.0801,W,1,11,1.2,16,M,,M,,*66
06/11/2014	21:09:08.883	$GPGGA,210918,2526.6568,N,08003.0802,W,1,11,1.2,16,M,,M,,*68
06/11/2014	21:09:09.872	$GPGGA,210919,2526.6579,N,08003.0800,W,1,11,1.2,16,M,,M,,*6B
06/11/2014	21:09:10.885	$GPGGA,210920,2526.6590,N,08003.0800,W,1,11,1.2,16,M,,M,,*66
06/11/2014	21:09:11.889	$GPGGA,210921,2526.6600,N,08003.0800,W,1,11,1.2,16,M,,M,,*6D
06/11/2014	21:09:12.870	$GPGGA,210922,2526.6610,N,08003.0799,W,1,11,1.2,16,M,,M,,*60
06/11/2014	21:09:13.893	$GPGGA,210923,2526.6619,N,08003.0799,W,1,11,1.2,16,M,,M,,*68
06/11/2014	21:09:14.886	$GPGGA,210924,2526.6630,N,08003.0798,W,1,11,1.2,16,M,,M,,*65
06/11/2014	21:09:15.888	$GPGGA,210925,2526.6640,N,08003.0798,W,1,11,1.2,16,M,,M,,*63
06/11/2014	21:09:16.881	$GPGGA,210926,2526.6651,N,08003.0797,W,1,11,1.2,16,M,,M,,*6F
06/11/2014	21:09:17.873	$GPGGA,210927,2526.6662,N,08003.0796,W,1,11,1.2,16,M,,M,,*6F
06/11/2014	21:09:18.896	$GPGGA,210928,2526.6672,N,08003.0796,W,1,11,1.2,16,M,,M,,*61
06/11/2014	21:09:19.899	$GPGGA,210929,2526.6682,N,08003.0796,W,1,11,1.2,16,M,,M,,*6F
06/11/2014	21:09:20.881	$GPGGA,210930,2526.6693,N,08003.0795,W,1,11,1.2,16,M,,M,,*64
06/11/2014	21:09:21.894	$GPGGA,210931,2526.6702,N,08003.0794,W,1,11,1.2,16,M,,M,,*6D
06/11/2014	21:09:22.906	$GPGGA,210932,2526.6712,N,08003.0793,W,1,11,1.2,16,M,,M,,*68
06/11/2014	21:09:23.899	$GPGGA,210933,2526.6723,N,08003.0792,W,1,11,1.2,16,M,,M,,*6A
06/11/2014	21:09:24.873	$GPGGA,210934,2526.6733,N,08003.0791,W,1,11,1.2,16,M,,M,,*6F
06/11/2014	21:09:25.904	$GPGGA,210935,2526.6744,N,08003.0790,W,1,11,1.2,16,M,,M,,*6F
06/11/2014	21:09:26.897	$GPGGA,210936,2526.6754,N,08003.0791,W,1,11,1.2,16,M,,M,,*6C
06/11/2014	21:09:27.908	$GPGGA,210937,2526.6763,N,08003.0789,W,1,11,1.2,16,M,,M,,*60
06/11/2014	21:09:28.891	$GPGGA,210938,2526.6774,N,08003.0788,W,1,11,1.2,16,M,,M,,*68
06/11/2014	21:09:29.873	$GPGGA,210939,2526.6785,N,08003.0787,W,1,11,1.2,16,M,,M,,*68
06/11/2014	21:09:30.906	$GPGGA,210940,2526.6795,N,08003.0786,W,1,11,1.2,16,M,,M,,*66
06/11/2014	21:09:32.250	$GPGGA,210941,2526.6805,N,08003.0785,W,1,11,1.2,16,M,,M,,*62
06/11/2014	21:09:32.891	$GPGGA,210942,2526.6816,N,08003.0783,W,1,11,1.2,16,M,,M,,*65
06/11/2014	21:09:33.924	$GPGGA,210943,2526.6825,N,08003.0784,W,1,11,1.2,16,M,,M,,*63
06/11/2014	21:09:34.896	$GPGGA,210944,2526.6835,N,08003.0782,W,1,11,1.2,16,M,,M,,*63
06/11/2014	21:09:35.754	$GPGGA,210945,2526.6846,N,08003.0780,W,1,11,1.2,16,M,,M,,*64
06/11/2014	21:09:36.724	$GPGGA,210946,2526.6857,N,08003.0779,W,1,11,1.2,16,M,,M,,*61
06/11/2014	21:09:37.747	$GPGGA,210947,2526.6867,N,08003.0778,W,1,11,1.2,16,M,,M,,*62
06/11/2014	21:09:38.740	$GPGGA,210948,2526.6877,N,08003.0777,W,1,11,1.2,16,M,,M,,*63
06/11/2014	21:09:39.753	$GPGGA,210949,2526.6886,N,08003.0776,W,1,11,1.2,16,M,,M,,*6D
06/11/2014	21:09:40.724	$GPGGA,210950,2526.6897,N,08003.0774,W,1,11,1.2,16,M,,M,,*67
06/11/2014	21:09:41.737	$GPGGA,210951,2526.6907,N,08003.0773,W,1,11,1.2,16,M,,M,,*69
06/11/2014	21:09:42.910	$GPGGA,210952,2526.6918,N,08003.0772,W,1,11,1.2,16,M,,M,,*65
06/11/2014	21:09:43.883	$GPGGA,210953,2526.6928,N,08003.0770,W,1,11,1.2,16,M,,M,,*65
06/11/2014	21:09:44.894	$GPGGA,210954,2526.6937,N,08003.0769,W,1,11,1.2,16,M,,M,,*64
06/11/2014	21:09:45.727	$GPGGA,210955,2526.6947,N,08003.0767,W,1,11,1.2,16,M,,M,,*6C
06/11/2014	21:09:46.759	$GPGGA,210956,2526.6958,N,08003.0765,W,1,11,1.2,16,M,,M,,*63
06/11/2014	21:09:47.852	$GPGGA,210957,2526.6969,N,08003.0764,W,1,11,1.2,15,M,,M,,*62
06/11/2014	21:09:48.734	$GPGGA,210958,2526.6979,N,08003.0763,W,1,11,1.2,15,M,,M,,*6B
06/11/2014	21:09:49.727	$GPGGA,210959,2526.6990,N,08003.0764,W,1,11,1.2,15,M,,M,,*6A
06/11/2014	21:09:50.771	$GPGGA,211000,2526.7001,N,08003.0766,W,1,11,1.2,15,M,,M,,*6C
06/11/2014	21:09:51.742	$GPGGA,211001,2526.7012,N,08003.0766,W,1,11,1.2,15,M,,M,,*6F
06/11/2014	21:09:52.725	$GPGGA,211002,2526.7023,N,08003.0770,W,1,11,1.2,15,M,,M,,*69
06/11/2014	21:09:53.727	$GPGGA,211003,2526.7034,N,08003.0773,W,1,11,1.2,15,M,,M,,*6D
06/11/2014	21:09:54.920	$GPGGA,211004,2526.7045,N,08003.0778,W,1,11,1.2,15,M,,M,,*67
06/11/2014	21:09:55.854	$GPGGA,211005,2526.7056,N,08003.0784,W,1,11,1.2,15,M,,M,,*67
06/11/2014	21:09:56.905	$GPGGA,211006,2526.7067,N,08003.0791,W,1,11,1.2,15,M,,M,,*62
06/11/2014	21:09:57.868	$GPGGA,211007,2526.7080,N,08003.0800,W,1,11,1.2,15,M,,M,,*6D
06/11/2014	21:09:58.912	$GPGGA,211008,2526.7092,N,08003.0809,W,1,11,1.2,15,M,,M,,*68
06/11/2014	21:09:59.864	$GPGGA,211009,2526.7103,N,08003.0820,W,1,11,1.2,15,M,,M,,*6B
06/11/2014	21:10:00.897	$GPGGA,211010,2526.7116,N,08003.0832,W,1,11,1.2,15,M,,M,,*64
06/11/2014	21:10:01.900	$GPGGA,211011,2526.7128,N,08003.0845,W,1,11,1.2,15,M,,M,,*68
06/11/2014	21:10:02.840	$GPGGA,211012,2526.7142,N,08003.0860,W,1,11,1.2,15,M,,M,,*60
06/11/2014	21:10:03.873	$GPGGA,211013,2526.7155,N,08003.0874,W,1,11,1.2,15,M,,M,,*62
06/11/2014	21:10:04.917	$GPGGA,211014,2526.7167,N,08003.0890,W,1,11,1.2,15,M,,M,,*6E
06/11/2014	21:10:05.868	$GPGGA,211015,2526.7181,N,08003.0907,W,1,10,1.2,15,M,,M,,*69
06/11/2014	21:10:06.940	$GPGGA,211016,2526.7193,N,08003.0925,W,1,10,1.2,15,M,,M,,*69
06/11/2014	21:10:07.883	$GPGGA,211017,2526.7207,N,08003.0944,W,1,11,1.2,15,M,,M,,*60
06/11/2014	21:10:08.835	$GPGGA,211018,2526.7220,N,08003.0964,W,1,11,1.2,15,M,,M,,*68
06/11/2014	21:10:09.918	$GPGGA,211019,2526.7233,N,08003.0983,W,1,11,1.3,15,M,,M,,*63
06/11/2014	21:10:10.921	$GPGGA,211020,2526.7247,N,08003.1004,W,1,11,1.3,15,M,,M,,*6D
06/11/2014	21:10:11.883	$GPGGA,211021,2526.7262,N,08003.1026,W,1,11,1.3,15,M,,M,,*6B
06/11/2014	21:10:12.836	$GPGGA,211022,2526.7275,N,08003.1048,W,1,11,1.3,15,M,,M,,*66
06/11/2014	21:10:13.842	$GPGGA,211023,2526.7289,N,08003.1069,W,1,10,1.3,15,M,,M,,*66
06/11/2014	21:10:14.911	$GPGGA,211024,2526.7303,N,08003.1091,W,1,10,1.3,15,M,,M,,*65
06/11/2014	21:10:15.894	$GPGGA,211025,2526.7316,N,08003.1114,W,1,10,1.3,15,M,,M,,*6C
06/11/2014	21:10:16.836	$GPGGA,211026,2526.7329,N,08003.1138,W,1,10,1.2,15,M,,M,,*6C
06/11/2014	21:10:17.879	$GPGGA,211027,2526.7343,N,08003.1161,W,1,11,1.2,15,M,,M,,*6C
06/11/2014	21:10:18.912	$GPGGA,211028,2526.7355,N,08003.1185,W,1,11,1.2,15,M,,M,,*6E
06/11/2014	21:10:19.893	$GPGGA,211029,2526.7370,N,08003.1207,W,1,11,1.2,15,M,,M,,*61
06/11/2014	21:10:20.906	$GPGGA,211030,2526.7383,N,08003.1232,W,1,11,1.2,15,M,,M,,*63
06/11/2014	21:10:21.838	$GPGGA,211031,2526.7397,N,08003.1255,W,1,11,1.2,15,M,,M,,*66
06/11/2014	21:10:22.921	$GPGGA,211032,2526.7410,N,08003.1279,W,1,11,1.2,15,M,,M,,*63
06/11/2014	21:10:23.903	$GPGGA,211033,2526.7423,N,08003.1304,W,1,11,1.2,15,M,,M,,*69
06/11/2014	21:10:24.896	$GPGGA,211034,2526.7437,N,08003.1327,W,1,11,1.2,15,M,,M,,*6A
06/11/2014	21:10:25.899	$GPGGA,211035,2526.7450,N,08003.1351,W,1,11,1.2,15,M,,M,,*6B
06/11/2014	21:10:26.851	$GPGGA,211036,2526.7464,N,08003.1376,W,1,11,1.2,15,M,,M,,*6A
06/11/2014	21:10:27.975	$GPGGA,211037,2526.7478,N,08003.1399,W,1,11,1.2,15,M,,M,,*67
06/11/2014	21:10:28.906	$GPGGA,211038,2526.7491,N,08003.1424,W,1,11,1.2,15,M,,M,,*6E
06/11/2014	21:10:29.839	$GPGGA,211039,2526.7504,N,08003.1449,W,1,11,1.2,15,M,,M,,*69
06/11/2014	21:10:30.932	$GPGGA,211040,2526.7517,N,08003.1474,W,1,11,1.2,15,M,,M,,*6B
06/11/2014	21:10:32.938	$GPGGA,211042,2526.7544,N,08003.1522,W,1,11,1.2,15,M,,M,,*6D
06/11/2014	21:10:33.839	$GPGGA,211043,2526.7558,N,08003.1546,W,1,11,1.2,15,M,,M,,*63
06/11/2014	21:10:34.862	$GPGGA,211044,2526.7571,N,08003.1572,W,1,11,1.2,15,M,,M,,*68
06/11/2014	21:10:35.790	$GPGGA,211045,2526.7585,N,08003.1595,W,1,11,1.2,15,M,,M,,*6B
06/11/2014	21:10:36.693	$GPGGA,211046,2526.7598,N,08003.1620,W,1,11,1.2,15,M,,M,,*69
06/11/2014	21:10:37.824	$GPGGA,211047,2526.7611,N,08003.1644,W,1,11,1.2,15,M,,M,,*68
06/11/2014	21:10:38.817	$GPGGA,211048,2526.7625,N,08003.1669,W,1,11,1.2,15,M,,M,,*6F
06/11/2014	21:10:39.809	$GPGGA,211049,2526.7637,N,08003.1694,W,1,11,1.3,15,M,,M,,*6E
06/11/2014	21:10:40.802	$GPGGA,211050,2526.7652,N,08003.1717,W,1,11,1.2,15,M,,M,,*6E
06/11/2014	21:10:41.724	$GPGGA,211051,2526.7665,N,08003.1741,W,1,11,1.2,15,M,,M,,*68
06/11/2014	21:10:42.817	$GPGGA,211052,2526.7679,N,08003.1767,W,1,11,1.2,15,M,,M,,*62
06/11/2014	21:10:43.799	$GPGGA,211053,2526.7692,N,08003.1790,W,1,11,1.2,15,M,,M,,*6E
06/11/2014	21:10:44.802	$GPGGA,211054,2526.7706,N,08003.1814,W,1,11,1.2,15,M,,M,,*66
06/11/2014	21:10:45.765	$GPGGA,211055,2526.7720,N,08003.1839,W,1,11,1.2,15,M,,M,,*6C
06/11/2014	21:10:46.817	$GPGGA,211056,2526.7734,N,08003.1862,W,1,11,1.3,15,M,,M,,*65
06/11/2014	21:10:47.810	$GPGGA,211057,2526.7748,N,08003.1886,W,1,10,1.2,15,M,,M,,*65
06/11/2014	21:10:48.812	$GPGGA,211058,2526.7763,N,08003.1911,W,1,10,1.2,15,M,,M,,*6C
06/11/2014	21:10:49.825	$GPGGA,211059,2526.7777,N,08003.1936,W,1,11,1.2,15,M,,M,,*6C
06/11/2014	21:10:50.848	$GPGGA,211100,2526.7789,N,08003.1959,W,1,11,1.3,15,M,,M,,*68
06/11/2014	21:10:51.820	$GPGGA,211101,2526.7803,N,08003.1984,W,1,10,1.3,16,M,,M,,*66
06/11/2014	21:10:52.813	$GPGGA,211102,2526.7816,N,08003.2009,W,1,10,1.3,16,M,,M,,*6E
06/11/2014	21:10:53.815	$GPGGA,211103,2526.7829,N,08003.2034,W,1,10,1.3,16,M,,M,,*6D
06/11/2014	21:10:54.817	$GPGGA,211104,2526.7843,N,08003.2059,W,1,10,1.3,16,M,,M,,*6D
06/11/2014	21:10:55.820	$GPGGA,211105,2526.7856,N,08003.2082,W,1,10,1.3,16,M,,M,,*6E
06/11/2014	21:10:56.822	$GPGGA,211106,2526.7869,N,08003.2106,W,1,10,1.2,16,M,,M,,*6D
06/11/2014	21:10:57.855	$GPGGA,211107,2526.7883,N,08003.2132,W,1,11,1.2,16,M,,M,,*6E
06/11/2014	21:10:58.827	$GPGGA,211108,2526.7897,N,08003.2155,W,1,11,1.5,16,M,,M,,*62
06/11/2014	21:10:59.800	$GPGGA,211109,2526.7910,N,08003.2178,W,1,9,1.3,16,M,,M,,*5D
06/11/2014	21:11:00.823	$GPGGA,211110,2526.7923,N,08003.2202,W,1,9,1.3,16,M,,M,,*5B
06/11/2014	21:11:01.825	$GPGGA,211111,2526.7937,N,08003.2226,W,1,10,1.3,16,M,,M,,*61
06/11/2014	21:11:02.818	$GPGGA,211112,2526.7952,N,08003.2251,W,1,10,1.3,16,M,,M,,*61
06/11/2014	21:11:03.822	$GPGGA,211113,2526.7966,N,08003.2274,W,1,10,1.3,16,M,,M,,*60
06/11/2014	21:11:04.819	$GPGGA,211114,2526.7980,N,08003.2298,W,1,10,1.3,16,M,,M,,*6D
06/11/2014	21:11:05.827	$GPGGA,211115,2526.7992,N,08003.2323,W,1,10,1.5,16,M,,M,,*68
06/11/2014	21:11:06.848	$GPGGA,211116,2526.8006,N,08003.2348,W,1,10,1.5,16,M,,M,,*6D
06/11/2014	21:11:07.851	$GPGGA,211117,2526.8020,N,08003.2366,W,1,9,1.3,16,M,,M,,*5A
06/11/2014	21:11:08.813	$GPGGA,211118,2526.8034,N,08003.2392,W,1,9,1.3,16,M,,M,,*5B
06/11/2014	21:11:09.826	$GPGGA,211119,2526.8051,N,08003.2415,W,1,10,1.2,16,M,,M,,*68
06/11/2014	21:11:10.849	$GPGGA,211120,2526.8064,N,08003.2439,W,1,10,1.3,16,M,,M,,*6B
06/11/2014	21:11:11.823	$GPGGA,211121,2526.8064,N,08003.2439,W,1,10,1.3,16,M,,M,,*6A
06/11/2014	21:11:12.833	$GPGGA,211122,2526.8092,N,08003.2489,W,1,10,1.2,17,M,,M,,*6B
06/11/2014	21:11:13.826	$GPGGA,211123,2526.8107,N,08003.2514,W,1,11,1.2,17,M,,M,,*63
06/11/2014	21:11:14.858	$GPGGA,211124,2526.8121,N,08003.2540,W,1,11,1.3,17,M,,M,,*60
06/11/2014	21:11:15.849	$GPGGA,211125,2526.8134,N,08003.2565,W,1,10,1.3,17,M,,M,,*63
06/11/2014	21:11:16.845	$GPGGA,211126,2526.8134,N,08003.2565,W,1,10,1.3,17,M,,M,,*60
06/11/2014	21:11:17.837	$GPGGA,211127,2526.8161,N,08003.2613,W,1,10,1.3,17,M,,M,,*63
06/11/2014	21:11:18.838	$GPGGA,211128,2526.8176,N,08003.2638,W,1,10,1.3,17,M,,M,,*63
06/11/2014	21:11:19.941	$GPGGA,211129,2526.8190,N,08003.2663,W,1,10,1.3,17,M,,M,,*64
06/11/2014	21:11:20.823	$GPGGA,211130,2526.8190,N,08003.2663,W,1,10,1.2,17,M,,M,,*6D
06/11/2014	21:11:21.906	$GPGGA,211131,2526.8218,N,08003.2711,W,1,11,1.2,17,M,,M,,*6A
06/11/2014	21:11:22.829	$GPGGA,211132,2526.8218,N,08003.2711,W,1,11,1.2,17,M,,M,,*69
06/11/2014	21:11:23.942	$GPGGA,211133,2526.8246,N,08003.2760,W,1,11,1.2,17,M,,M,,*65
06/11/2014	21:11:24.824	$GPGGA,211134,2526.8246,N,08003.2760,W,1,11,1.3,17,M,,M,,*63
06/11/2014	21:11:25.917	$GPGGA,211135,2526.8273,N,08003.2811,W,1,10,1.3,17,M,,M,,*6C
06/11/2014	21:11:26.939	$GPGGA,211136,2526.8288,N,08003.2834,W,1,10,1.2,17,M,,M,,*6D
06/11/2014	21:11:27.922	$GPGGA,211137,2526.8302,N,08003.2858,W,1,11,1.2,17,M,,M,,*64
06/11/2014	21:11:28.924	$GPGGA,211138,2526.8315,N,08003.2883,W,1,11,1.2,17,M,,M,,*6B
06/11/2014	21:11:29.916	$GPGGA,211139,2526.8329,N,08003.2908,W,1,11,1.2,17,M,,M,,*67
06/11/2014	21:11:30.929	$GPGGA,211140,2526.8342,N,08003.2933,W,1,11,1.2,17,M,,M,,*6C
06/11/2014	21:11:31.911	$GPGGA,211141,2526.8355,N,08003.2957,W,1,11,1.2,17,M,,M,,*69
06/11/2014	21:11:32.924	$GPGGA,211142,2526.8367,N,08003.2981,W,1,11,1.2,17,M,,M,,*60
06/11/2014	21:11:33.947	$GPGGA,211143,2526.8381,N,08003.3006,W,1,11,1.2,17,M,,M,,*6E
06/11/2014	21:11:34.939	$GPGGA,211144,2526.8392,N,08003.3031,W,1,11,1.2,17,M,,M,,*6F
06/11/2014	21:11:35.788	$GPGGA,211145,2526.8406,N,08003.3056,W,1,11,1.2,17,M,,M,,*65
06/11/2014	21:11:36.770	$GPGGA,211146,2526.8418,N,08003.3081,W,1,11,1.2,17,M,,M,,*63
06/11/2014	21:11:37.753	$GPGGA,211147,2526.8432,N,08003.3105,W,1,11,1.2,17,M,,M,,*67
06/11/2014	21:11:38.775	$GPGGA,211148,2526.8443,N,08003.3130,W,1,11,1.2,17,M,,M,,*68
06/11/2014	21:11:39.798	$GPGGA,211149,2526.8457,N,08003.3155,W,1,11,1.2,17,M,,M,,*6F
06/11/2014	21:11:40.771	$GPGGA,211150,2526.8470,N,08003.3180,W,1,11,1.3,17,M,,M,,*6B
06/11/2014	21:11:41.783	$GPGGA,211151,2526.8482,N,08003.3205,W,1,11,1.2,17,M,,M,,*68
06/11/2014	21:11:42.776	$GPGGA,211152,2526.8494,N,08003.3230,W,1,11,1.2,17,M,,M,,*6A
06/11/2014	21:11:43.763	$GPGGA,211153,2526.8508,N,08003.3255,W,1,11,1.2,17,M,,M,,*6C
06/11/2014	21:11:44.771	$GPGGA,211154,2526.8519,N,08003.3280,W,1,11,1.2,17,M,,M,,*63
06/11/2014	21:11:45.794	$GPGGA,211155,2526.8533,N,08003.3305,W,1,10,1.3,17,M,,M,,*66
06/11/2014	21:11:46.786	$GPGGA,211156,2526.8546,N,08003.3329,W,1,10,1.3,17,M,,M,,*69
06/11/2014	21:11:47.808	$GPGGA,211157,2526.8559,N,08003.3353,W,1,10,1.3,17,M,,M,,*6B
