Software Version Number: 1	Data File Format Number: 1	Build Version Number: 1	Error Count Since VI Started: 0	Manufacturer: Raytheon	 Model Number: RayMarine 120	 S/N: 	 Cal Date: 	 Wind Direction Offset: 0.00	 Slope (M)1: 0.00	 Offset (B)1: 0.00	 Slope (M)2: 0.00	 Offset (B)2: 0.00	 Slope (M)3: 0.00	 Offset (B)3: 0.00	 Slope (M)4: 0.00	 Offset (B)4: 0.00	 Slope (M)5: 0.00	 Offset (B)5: 0.00	 Slope (M)6: 0.00	 Offset (B)6: 0.00
Computer Date	Computer Time	GGA String
06/05/2014	00:00:00.599	$GPGGA,000001,2514.8378,N,08008.3973,W,1,10,1.5,23,M,,M,,*6D
06/05/2014	00:00:01.604	$GPGGA,000002,2514.8381,N,08008.3948,W,1,10,1.5,23,M,,M,,*60
06/05/2014	00:00:02.620	$GPGGA,000003,2514.8384,N,08008.3925,W,1,10,1.5,23,M,,M,,*6F
06/05/2014	00:00:03.625	$GPGGA,000004,2514.8385,N,08008.3898,W,1,10,1.5,23,M,,M,,*6E
06/05/2014	00:00:04.640	$GPGGA,000005,2514.8388,N,08008.3872,W,1,10,1.5,23,M,,M,,*66
06/05/2014	00:00:05.624	$GPGGA,000006,2514.8389,N,08008.3848,W,1,10,1.8,23,M,,M,,*60
06/05/2014	00:00:06.619	$GPGGA,000007,2514.8391,N,08008.3821,W,1,10,1.5,23,M,,M,,*6A
06/05/2014	00:00:07.645	$GPGGA,000008,2514.8392,N,08008.3796,W,1,10,1.5,23,M,,M,,*65
06/05/2014	00:00:08.659	$GPGGA,000009,2514.8393,N,08008.3772,W,1,10,1.5,23,M,,M,,*6F
06/05/2014	00:00:09.622	$GPGGA,000010,2514.8393,N,08008.3747,W,1,10,1.5,23,M,,M,,*61
06/05/2014	00:00:10.665	$GPGGA,000011,2514.8393,N,08008.3722,W,1,8,1.7,23,M,,M,,*58
06/05/2014	00:00:11.639	$GPGGA,000012,2514.8396,N,08008.3699,W,1,8,1.7,23,M,,M,,*5F
06/05/2014	00:00:12.637	$GPGGA,000013,2514.8396,N,08008.3675,W,1,8,2.4,23,M,,M,,*5C
06/05/2014	00:00:13.625	$GPGGA,000014,2514.8396,N,08008.3650,W,1,8,2.4,23,M,,M,,*5C
06/05/2014	00:00:14.638	$GPGGA,000015,2514.8391,N,08008.3628,W,1,9,1.8,23,M,,M,,*5B
06/05/2014	00:00:15.661	$GPGGA,000016,2514.8389,N,08008.3605,W,1,9,1.8,23,M,,M,,*5E
06/05/2014	00:00:16.675	$GPGGA,000017,2514.8387,N,08008.3582,W,1,10,1.5,23,M,,M,,*68
06/05/2014	00:00:17.638	$GPGGA,000018,2514.8385,N,08008.3561,W,1,10,1.5,23,M,,M,,*68
06/05/2014	00:00:18.652	$GPGGA,000019,2514.8379,N,08008.3545,W,1,9,1.6,23,M,,M,,*57
06/05/2014	00:00:19.645	$GPGGA,000020,2514.8373,N,08008.3521,W,1,9,1.7,24,M,,M,,*53
06/05/2014	00:00:20.658	$GPGGA,000021,2514.8367,N,08008.3496,W,1,8,1.9,24,M,,M,,*55
06/05/2014	00:00:21.652	$GPGGA,000022,2514.8362,N,08008.3477,W,1,8,1.5,24,M,,M,,*50
06/05/2014	00:00:22.655	$GPGGA,000023,2514.8354,N,08008.3458,W,1,8,2.4,24,M,,M,,*5B
06/05/2014	00:00:23.658	$GPGGA,000024,2514.8351,N,08008.3441,W,1,8,2.4,24,M,,M,,*51
06/05/2014	00:00:24.742	$GPGGA,000025,2514.8346,N,08008.3419,W,1,9,1.7,24,M,,M,,*5A
06/05/2014	00:00:25.645	$GPGGA,000026,2514.8340,N,08008.3398,W,1,9,1.7,25,M,,M,,*50
06/05/2014	00:00:26.749	$GPGGA,000027,2514.8335,N,08008.3376,W,1,9,1.7,25,M,,M,,*53
06/05/2014	00:00:27.652	$GPGGA,000028,2514.8328,N,08008.3353,W,1,9,1.5,25,M,,M,,*55
06/05/2014	00:00:28.645	$GPGGA,000029,2514.8322,N,08008.3331,W,1,10,1.5,25,M,,M,,*62
06/05/2014	00:00:29.749	$GPGGA,000030,2514.8315,N,08008.3308,W,1,10,1.5,25,M,,M,,*64
06/05/2014	00:00:30.652	$GPGGA,000031,2514.8309,N,08008.3286,W,1,10,1.5,25,M,,M,,*6F
06/05/2014	00:00:31.656	$GPGGA,000032,2514.8302,N,08008.3263,W,1,10,1.5,25,M,,M,,*6C
06/05/2014	00:00:32.497	$GPGGA,000033,2514.8297,N,08008.3239,W,1,10,1.5,25,M,,M,,*6F
06/05/2014	00:00:33.400	$GPGGA,000034,2514.8290,N,08008.3217,W,1,10,1.5,26,M,,M,,*60
06/05/2014	00:00:34.534	$GPGGA,000035,2514.8282,N,08008.3196,W,1,10,1.5,26,M,,M,,*68
06/05/2014	00:00:35.508	$GPGGA,000036,2514.8277,N,08008.3174,W,1,10,1.5,26,M,,M,,*6D
06/05/2014	00:00:36.501	$GPGGA,000037,2514.8268,N,08008.3149,W,1,10,1.5,26,M,,M,,*6C
06/05/2014	00:00:37.404	$GPGGA,000038,2514.8259,N,08008.3124,W,1,10,1.6,26,M,,M,,*69
06/05/2014	00:00:38.508	$GPGGA,000039,2514.8251,N,08008.3104,W,1,10,1.5,26,M,,M,,*61
06/05/2014	00:00:39.521	$GPGGA,000040,2514.8243,N,08008.3080,W,1,10,1.5,25,M,,M,,*62
06/05/2014	00:00:40.514	$GPGGA,000041,2514.8235,N,08008.3057,W,1,9,1.6,25,M,,M,,*53
06/05/2014	00:00:41.498	$GPGGA,000042,2514.8227,N,08008.3037,W,1,9,1.6,25,M,,M,,*55
06/05/2014	00:00:42.541	$GPGGA,000043,2514.8219,N,08008.3016,W,1,10,1.5,25,M,,M,,*61
06/05/2014	00:00:43.515	$GPGGA,000044,2514.8210,N,08008.2992,W,1,10,1.5,25,M,,M,,*6B
06/05/2014	00:00:44.498	$GPGGA,000045,2514.8202,N,08008.2972,W,1,9,1.6,25,M,,M,,*5C
06/05/2014	00:00:45.501	$GPGGA,000046,2514.8194,N,08008.2950,W,1,9,1.5,25,M,,M,,*50
06/05/2014	00:00:46.535	$GPGGA,000047,2514.8184,N,08008.2927,W,1,10,1.5,25,M,,M,,*68
06/05/2014	00:00:47.518	$GPGGA,000048,2514.8176,N,08008.2908,W,1,10,1.9,25,M,,M,,*6B
06/05/2014	00:00:48.542	$GPGGA,000049,2514.8168,N,08008.2888,W,1,10,1.5,25,M,,M,,*60
06/05/2014	00:00:49.514	$GPGGA,000050,2514.8159,N,08008.2866,W,1,10,1.5,25,M,,M,,*6A
06/05/2014	00:00:50.547	$GPGGA,000051,2514.8150,N,08008.2849,W,1,9,1.8,25,M,,M,,*5A
06/05/2014	00:00:51.531	$GPGGA,000052,2514.8143,N,08008.2831,W,1,9,1.8,25,M,,M,,*54
06/05/2014	00:00:52.514	$GPGGA,000053,2514.8134,N,08008.2809,W,1,9,1.8,24,M,,M,,*5F
06/05/2014	00:00:53.518	$GPGGA,000054,2514.8125,N,08008.2792,W,1,9,1.8,24,M,,M,,*55
06/05/2014	00:00:54.541	$GPGGA,000055,2514.8116,N,08008.2774,W,1,9,1.8,24,M,,M,,*5C
06/05/2014	00:00:55.524	$GPGGA,000056,2514.8107,N,08008.2753,W,1,9,1.8,24,M,,M,,*5A
06/05/2014	00:00:56.548	$GPGGA,000057,2514.8098,N,08008.2735,W,1,9,1.8,24,M,,M,,*5C
06/05/2014	00:00:57.531	$GPGGA,000058,2514.8089,N,08008.2719,W,1,9,1.8,24,M,,M,,*5D
06/05/2014	00:00:58.525	$GPGGA,000059,2514.8079,N,08008.2697,W,1,9,1.8,23,M,,M,,*53
06/05/2014	00:00:59.548	$GPGGA,000100,2514.8071,N,08008.2679,W,1,9,1.8,23,M,,M,,*56
06/05/2014	00:01:00.531	$GPGGA,000101,2514.8060,N,08008.2662,W,1,10,1.5,23,M,,M,,*68
06/05/2014	00:01:01.537	$GPGGA,000102,2514.8050,N,08008.2641,W,1,10,1.8,23,M,,M,,*64
06/05/2014	00:01:02.540	$GPGGA,000103,2514.8042,N,08008.2623,W,1,9,1.8,23,M,,M,,*5A
06/05/2014	00:01:03.552	$GPGGA,000104,2514.8031,N,08008.2604,W,1,9,1.8,23,M,,M,,*5C
06/05/2014	00:01:04.565	$GPGGA,000105,2514.8021,N,08008.2585,W,1,9,1.8,23,M,,M,,*56
06/05/2014	00:01:05.528	$GPGGA,000106,2514.8013,N,08008.2566,W,1,9,1.8,22,M,,M,,*58
06/05/2014	00:01:06.572	$GPGGA,000107,2514.8002,N,08008.2543,W,1,9,1.8,22,M,,M,,*5E
06/05/2014	00:01:07.554	$GPGGA,000108,2514.7995,N,08008.2524,W,1,9,1.9,22,M,,M,,*59
06/05/2014	00:01:08.567	$GPGGA,000109,2514.7984,N,08008.2505,W,1,9,1.5,22,M,,M,,*57
06/05/2014	00:01:09.542	$GPGGA,000110,2514.7975,N,08008.2485,W,1,9,1.5,22,M,,M,,*58
06/05/2014	00:01:10.544	$GPGGA,000111,2514.7967,N,08008.2463,W,1,9,1.8,22,M,,M,,*5F
06/05/2014	00:01:11.688	$GPGGA,000112,2514.7959,N,08008.2443,W,1,9,1.9,22,M,,M,,*52
06/05/2014	00:01:12.681	$GPGGA,000113,2514.7949,N,08008.2422,W,1,10,1.5,21,M,,M,,*62
06/05/2014	00:01:13.554	$GPGGA,000114,2514.7939,N,08008.2399,W,1,10,1.5,21,M,,M,,*65
06/05/2014	00:01:14.678	$GPGGA,000115,2514.7931,N,08008.2378,W,1,10,1.5,21,M,,M,,*63
06/05/2014	00:01:15.573	$GPGGA,000116,2514.7921,N,08008.2358,W,1,10,1.5,21,M,,M,,*63
06/05/2014	00:01:16.665	$GPGGA,000117,2514.7912,N,08008.2337,W,1,10,1.5,21,M,,M,,*6B
06/05/2014	00:01:17.548	$GPGGA,000118,2514.7905,N,08008.2316,W,1,10,1.5,21,M,,M,,*61
06/05/2014	00:01:18.652	$GPGGA,000119,2514.7896,N,08008.2295,W,1,10,1.5,21,M,,M,,*61
06/05/2014	00:01:19.565	$GPGGA,000120,2514.7888,N,08008.2272,W,1,10,1.5,21,M,,M,,*6D
06/05/2014	00:01:20.568	$GPGGA,000121,2514.7880,N,08008.2252,W,1,10,1.5,21,M,,M,,*66
06/05/2014	00:01:21.652	$GPGGA,000122,2514.7872,N,08008.2230,W,1,10,1.8,21,M,,M,,*61
06/05/2014	00:01:22.655	$GPGGA,000123,2514.7863,N,08008.2207,W,1,10,1.5,21,M,,M,,*69
06/05/2014	00:01:23.588	$GPGGA,000124,2514.7856,N,08008.2184,W,1,10,1.5,21,M,,M,,*60
06/05/2014	00:01:24.691	$GPGGA,000125,2514.7848,N,08008.2167,W,1,9,1.8,21,M,,M,,*56
06/05/2014	00:01:25.654	$GPGGA,000126,2514.7840,N,08008.2145,W,1,9,1.5,21,M,,M,,*50
06/05/2014	00:01:26.688	$GPGGA,000127,2514.7833,N,08008.2123,W,1,10,1.5,21,M,,M,,*6D
06/05/2014	00:01:27.681	$GPGGA,000128,2514.7829,N,08008.2105,W,1,10,1.8,21,M,,M,,*60
06/05/2014	00:01:28.695	$GPGGA,000129,2514.7819,N,08008.2083,W,1,9,1.8,21,M,,M,,*55
06/05/2014	00:01:29.668	$GPGGA,000130,2514.7811,N,08008.2060,W,1,9,1.5,21,M,,M,,*55
06/05/2014	00:01:30.692	$GPGGA,000131,2514.7804,N,08008.2039,W,1,10,1.5,21,M,,M,,*64
06/05/2014	00:01:31.695	$GPGGA,000132,2514.7797,N,08008.2018,W,1,10,1.5,21,M,,M,,*61
06/05/2014	00:01:32.466	$GPGGA,000133,2514.7791,N,08008.1997,W,1,10,1.5,21,M,,M,,*6B
06/05/2014	00:01:33.470	$GPGGA,000134,2514.7784,N,08008.1975,W,1,10,1.5,21,M,,M,,*64
06/05/2014	00:01:34.493	$GPGGA,000135,2514.7778,N,08008.1952,W,1,10,1.5,21,M,,M,,*63
06/05/2014	00:01:35.486	$GPGGA,000136,2514.7773,N,08008.1930,W,1,10,1.5,21,M,,M,,*6F
06/05/2014	00:01:36.500	$GPGGA,000137,2514.7765,N,08008.1908,W,1,8,2.4,21,M,,M,,*59
06/05/2014	00:01:37.473	$GPGGA,000138,2514.7760,N,08008.1888,W,1,8,2.4,21,M,,M,,*5A
06/05/2014	00:01:38.507	$GPGGA,000139,2514.7753,N,08008.1864,W,1,9,1.7,21,M,,M,,*58
06/05/2014	00:01:39.500	$GPGGA,000140,2514.7746,N,08008.1843,W,1,9,1.7,21,M,,M,,*57
06/05/2014	00:01:40.473	$GPGGA,000141,2514.7739,N,08008.1821,W,1,9,1.7,21,M,,M,,*5A
06/05/2014	00:01:41.487	$GPGGA,000142,2514.7732,N,08008.1798,W,1,9,1.7,21,M,,M,,*5F
06/05/2014	00:01:42.489	$GPGGA,000143,2514.7725,N,08008.1775,W,1,9,1.7,21,M,,M,,*5B
06/05/2014	00:01:43.503	$GPGGA,000144,2514.7717,N,08008.1754,W,1,9,1.7,21,M,,M,,*5E
06/05/2014	00:01:44.486	$GPGGA,000145,2514.7711,N,08008.1730,W,1,10,1.5,21,M,,M,,*61
06/05/2014	00:01:45.499	$GPGGA,000146,2514.7706,N,08008.1707,W,1,10,1.5,21,M,,M,,*60
06/05/2014	00:01:46.513	$GPGGA,000147,2514.7700,N,08008.1684,W,1,9,1.7,21,M,,M,,*57
06/05/2014	00:01:47.496	$GPGGA,000148,2514.7693,N,08008.1662,W,1,9,2.1,22,M,,M,,*5D
06/05/2014	00:01:48.520	$GPGGA,000149,2514.7688,N,08008.1639,W,1,10,1.5,22,M,,M,,*67
06/05/2014	00:01:49.483	$GPGGA,000150,2514.7683,N,08008.1616,W,1,10,1.5,22,M,,M,,*69
06/05/2014	00:01:50.526	$GPGGA,000151,2514.7679,N,08008.1595,W,1,9,1.5,22,M,,M,,*5D
06/05/2014	00:01:51.500	$GPGGA,000152,2514.7672,N,08008.1572,W,1,9,2.4,22,M,,M,,*5E
06/05/2014	00:01:52.523	$GPGGA,000153,2514.7670,N,08008.1552,W,1,8,1.9,22,M,,M,,*50
06/05/2014	00:01:53.486	$GPGGA,000154,2514.7667,N,08008.1533,W,1,8,1.5,22,M,,M,,*5A
06/05/2014	00:01:54.530	$GPGGA,000155,2514.7660,N,08008.1508,W,1,10,1.5,22,M,,M,,*6D
06/05/2014	00:01:55.503	$GPGGA,000156,2514.7656,N,08008.1484,W,1,10,1.5,23,M,,M,,*6F
06/05/2014	00:01:56.602	$GPGGA,000157,2514.7654,N,08008.1464,W,1,8,1.9,23,M,,M,,*57
06/05/2014	00:01:57.522	$GPGGA,000158,2514.7650,N,08008.1437,W,1,8,1.5,23,M,,M,,*56
06/05/2014	00:01:58.696	$GPGGA,000159,2514.7648,N,08008.1418,W,1,8,1.5,23,M,,M,,*53
06/05/2014	00:01:59.584	$GPGGA,000200,2514.7643,N,08008.1396,W,1,8,1.5,23,M,,M,,*56
06/05/2014	00:02:00.748	$GPGGA,000201,2514.7639,N,08008.1370,W,1,10,1.5,23,M,,M,,*6B
06/05/2014	00:02:01.606	$GPGGA,000202,2514.7635,N,08008.1350,W,1,10,1.5,23,M,,M,,*66
06/05/2014	00:02:02.618	$GPGGA,000203,2514.7630,N,08008.1324,W,1,10,1.5,23,M,,M,,*61
06/05/2014	00:02:03.649	$GPGGA,000204,2514.7625,N,08008.1299,W,1,10,1.9,23,M,,M,,*69
06/05/2014	00:02:04.814	$GPGGA,000205,2514.7621,N,08008.1268,W,1,7,1.5,23,M,,M,,*58
06/05/2014	00:02:05.774	$GPGGA,000206,2514.7616,N,08008.1241,W,1,7,1.5,23,M,,M,,*54
06/05/2014	00:02:06.867	$GPGGA,000207,2514.7612,N,08008.1216,W,1,10,3.1,23,M,,M,,*63
06/05/2014	00:02:07.827	$GPGGA,000208,2514.7607,N,08008.1197,W,1,10,3.1,23,M,,M,,*62
06/05/2014	00:02:08.756	$GPGGA,000209,2514.7603,N,08008.1176,W,1,10,1.5,23,M,,M,,*6E
06/05/2014	00:02:09.941	$GPGGA,000210,2514.7599,N,08008.1155,W,1,10,1.5,23,M,,M,,*67
06/05/2014	00:02:10.911	$GPGGA,000211,2514.7595,N,08008.1135,W,1,9,1.5,23,M,,M,,*54
06/05/2014	00:02:11.820	$GPGGA,000212,2514.7590,N,08008.1113,W,1,9,1.5,23,M,,M,,*56
06/05/2014	00:02:12.821	$GPGGA,000213,2514.7585,N,08008.1093,W,1,10,1.5,23,M,,M,,*62
06/05/2014	00:02:13.924	$GPGGA,000214,2514.7579,N,08008.1071,W,1,10,1.5,23,M,,M,,*6A
06/05/2014	00:02:14.966	$GPGGA,000215,2514.7572,N,08008.1048,W,1,10,1.7,23,M,,M,,*68
06/05/2014	00:02:15.978	$GPGGA,000216,2514.7567,N,08008.1026,W,1,10,1.7,23,M,,M,,*67
06/05/2014	00:02:16.978	$GPGGA,000217,2514.7559,N,08008.1004,W,1,9,1.8,23,M,,M,,*5C
06/05/2014	00:02:17.999	$GPGGA,000218,2514.7553,N,08008.0980,W,1,9,1.7,24,M,,M,,*55
06/05/2014	00:02:19.071	$GPGGA,000219,2514.7547,N,08008.0958,W,1,9,1.7,24,M,,M,,*54
06/05/2014	00:02:20.052	$GPGGA,000220,2514.7541,N,08008.0933,W,1,9,1.5,24,M,,M,,*57
06/05/2014	00:02:21.053	$GPGGA,000221,2514.7536,N,08008.0910,W,1,9,1.7,24,M,,M,,*55
06/05/2014	00:02:22.084	$GPGGA,000222,2514.7533,N,08008.0885,W,1,9,1.7,24,M,,M,,*5E
06/05/2014	00:02:23.147	$GPGGA,000223,2514.7525,N,08008.0860,W,1,10,1.5,24,M,,M,,*69
06/05/2014	00:02:24.127	$GPGGA,000224,2514.7519,N,08008.0836,W,1,10,1.5,24,M,,M,,*62
06/05/2014	00:02:25.210	$GPGGA,000225,2514.7514,N,08008.0816,W,1,9,1.8,25,M,,M,,*58
06/05/2014	00:02:26.211	$GPGGA,000226,2514.7506,N,08008.0791,W,1,9,1.5,25,M,,M,,*55
06/05/2014	00:02:27.232	$GPGGA,000227,2514.7500,N,08008.0769,W,1,10,1.5,25,M,,M,,*6D
06/05/2014	00:02:28.264	$GPGGA,000228,2514.7494,N,08008.0747,W,1,10,1.8,25,M,,M,,*6F
06/05/2014	00:02:29.214	$GPGGA,000229,2514.7487,N,08008.0721,W,1,9,1.8,25,M,,M,,*54
06/05/2014	00:02:30.296	$GPGGA,000230,2514.7482,N,08008.0699,W,1,9,1.5,25,M,,M,,*56
06/05/2014	00:02:31.328	$GPGGA,000231,2514.7475,N,08008.0677,W,1,10,1.8,25,M,,M,,*6A
06/05/2014	00:02:32.349	$GPGGA,000232,2514.7469,N,08008.0653,W,1,10,1.5,25,M,,M,,*6F
06/05/2014	00:02:32.551	$GPGGA,000233,2514.7464,N,08008.0631,W,1,10,1.5,25,M,,M,,*67
06/05/2014	00:02:33.531	$GPGGA,000234,2514.7458,N,08008.0609,W,1,10,1.5,25,M,,M,,*64
06/05/2014	00:02:34.561	$GPGGA,000235,2514.7454,N,08008.0587,W,1,10,1.5,25,M,,M,,*6C
06/05/2014	00:02:35.593	$GPGGA,000236,2514.7449,N,08008.0565,W,1,10,1.5,25,M,,M,,*6F
06/05/2014	00:02:36.584	$GPGGA,000237,2514.7442,N,08008.0541,W,1,10,1.5,25,M,,M,,*63
06/05/2014	00:02:37.605	$GPGGA,000238,2514.7435,N,08008.0518,W,1,10,1.5,25,M,,M,,*60
06/05/2014	00:02:38.606	$GPGGA,000239,2514.7429,N,08008.0496,W,1,10,1.5,25,M,,M,,*6B
06/05/2014	00:02:39.597	$GPGGA,000240,2514.7422,N,08008.0471,W,1,10,1.5,25,M,,M,,*67
06/05/2014	00:02:40.608	$GPGGA,000241,2514.7415,N,08008.0449,W,1,10,1.5,25,M,,M,,*69
06/05/2014	00:02:41.680	$GPGGA,000242,2514.7410,N,08008.0426,W,1,10,1.5,25,M,,M,,*66
06/05/2014	00:02:42.681	$GPGGA,000243,2514.7402,N,08008.0402,W,1,10,1.5,25,M,,M,,*62
06/05/2014	00:02:43.672	$GPGGA,000244,2514.7395,N,08008.0378,W,1,10,1.5,25,M,,M,,*66
06/05/2014	00:02:44.806	$GPGGA,000245,2514.7390,N,08008.0357,W,1,10,1.8,25,M,,M,,*62
06/05/2014	00:02:45.756	$GPGGA,000246,2514.7385,N,08008.0334,W,1,10,1.5,25,M,,M,,*6D
06/05/2014	00:02:46.849	$GPGGA,000247,2514.7379,N,08008.0311,W,1,10,1.5,25,M,,M,,*68
06/05/2014	00:02:47.758	$GPGGA,000248,2514.7374,N,08008.0290,W,1,10,1.5,25,M,,M,,*62
06/05/2014	00:02:48.882	$GPGGA,000249,2514.7365,N,08008.0263,W,1,9,1.5,25,M,,M,,*57
06/05/2014	00:02:49.903	$GPGGA,000250,2514.7359,N,08008.0239,W,1,9,1.5,25,M,,M,,*5F
06/05/2014	00:02:50.791	$GPGGA,000251,2514.7354,N,08008.0217,W,1,10,1.5,25,M,,M,,*67
06/05/2014	00:02:51.904	$GPGGA,000252,2514.7346,N,08008.0194,W,1,10,1.7,25,M,,M,,*6D
06/05/2014	00:02:52.884	$GPGGA,000253,2514.7341,N,08008.0171,W,1,9,1.7,25,M,,M,,*58
06/05/2014	00:02:53.916	$GPGGA,000254,2514.7337,N,08008.0148,W,1,9,3.1,25,M,,M,,*50
06/05/2014	00:02:54.978	$GPGGA,000255,2514.7331,N,08008.0125,W,1,7,1.7,25,M,,M,,*56
06/05/2014	00:02:55.907	$GPGGA,000256,2514.7328,N,08008.0104,W,1,7,1.7,25,M,,M,,*5E
06/05/2014	00:02:56.949	$GPGGA,000257,2514.7320,N,08008.0082,W,1,10,1.8,25,M,,M,,*61
06/05/2014	00:02:58.022	$GPGGA,000258,2514.7316,N,08008.0058,W,1,10,1.7,25,M,,M,,*63
06/05/2014	00:02:59.084	$GPGGA,000259,2514.7310,N,08008.0036,W,1,9,1.5,25,M,,M,,*56
06/05/2014	00:03:00.095	$GPGGA,000300,2514.7305,N,08008.0013,W,1,9,1.5,25,M,,M,,*58
06/05/2014	00:03:01.106	$GPGGA,000301,2514.7301,N,08007.9990,W,1,10,1.5,25,M,,M,,*61
06/05/2014	00:03:02.118	$GPGGA,000302,2514.7296,N,08007.9967,W,1,10,1.7,25,M,,M,,*67
06/05/2014	00:03:03.149	$GPGGA,000303,2514.7292,N,08007.9942,W,1,9,1.7,25,M,,M,,*5D
06/05/2014	00:03:04.160	$GPGGA,000304,2514.7289,N,08007.9917,W,1,9,1.5,25,M,,M,,*52
06/05/2014	00:03:05.192	$GPGGA,000305,2514.7284,N,08007.9895,W,1,10,1.5,24,M,,M,,*6C
06/05/2014	00:03:06.193	$GPGGA,000306,2514.7278,N,08007.9871,W,1,10,1.5,24,M,,M,,*66
06/05/2014	00:03:07.225	$GPGGA,000307,2514.7274,N,08007.9846,W,1,10,1.7,24,M,,M,,*6D
06/05/2014	00:03:08.266	$GPGGA,000308,2514.7270,N,08007.9824,W,1,10,1.9,24,M,,M,,*6C
06/05/2014	00:03:09.308	$GPGGA,000309,2514.7263,N,08007.9801,W,1,8,1.5,24,M,,M,,*5D
06/05/2014	00:03:10.257	$GPGGA,000310,2514.7258,N,08007.9776,W,1,8,1.5,24,M,,M,,*52
06/05/2014	00:03:11.309	$GPGGA,000311,2514.7258,N,08007.9752,W,1,10,2.1,24,M,,M,,*6B
06/05/2014	00:03:12.331	$GPGGA,000312,2514.7252,N,08007.9728,W,1,10,2.4,24,M,,M,,*6A
06/05/2014	00:03:13.383	$GPGGA,000313,2514.7248,N,08007.9703,W,1,8,1.7,24,M,,M,,*50
06/05/2014	00:03:14.343	$GPGGA,000314,2514.7243,N,08007.9681,W,1,8,1.5,24,M,,M,,*55
06/05/2014	00:03:15.374	$GPGGA,000315,2514.7240,N,08007.9658,W,1,9,1.5,24,M,,M,,*52
06/05/2014	00:03:16.416	$GPGGA,000316,2514.7235,N,08007.9635,W,1,9,1.5,24,M,,M,,*58
06/05/2014	00:03:17.407	$GPGGA,000317,2514.7231,N,08007.9611,W,1,10,1.5,24,M,,M,,*63
06/05/2014	00:03:18.438	$GPGGA,000318,2514.7225,N,08007.9589,W,1,10,2.4,24,M,,M,,*69
06/05/2014	00:03:19.450	$GPGGA,000319,2514.7218,N,08007.9567,W,1,8,1.5,24,M,,M,,*5D
06/05/2014	00:03:20.502	$GPGGA,000320,2514.7215,N,08007.9541,W,1,8,2.1,24,M,,M,,*59
06/05/2014	00:03:21.513	$GPGGA,000321,2514.7208,N,08007.9517,W,1,8,1.5,24,M,,M,,*50
06/05/2014	00:03:22.534	$GPGGA,000322,2514.7204,N,08007.9496,W,1,8,1.5,25,M,,M,,*56
06/05/2014	00:03:23.586	$GPGGA,000323,2514.7199,N,08007.9470,W,1,10,1.5,25,M,,M,,*61
06/05/2014	00:03:24.567	$GPGGA,000324,2514.7197,N,08007.9444,W,1,10,1.5,25,M,,M,,*6F
06/05/2014	00:03:25.568	$GPGGA,000325,2514.7193,N,08007.9422,W,1,9,1.5,25,M,,M,,*52
06/05/2014	00:03:26.630	$GPGGA,000326,2514.7193,N,08007.9422,W,1,9,1.8,25,M,,M,,*5C
06/05/2014	00:03:27.630	$GPGGA,000327,2514.7188,N,08007.9378,W,1,10,1.5,25,M,,M,,*6A
06/05/2014	00:03:28.641	$GPGGA,000328,2514.7188,N,08007.9378,W,1,10,1.5,25,M,,M,,*65
06/05/2014	00:03:29.785	$GPGGA,000329,2514.7182,N,08007.9336,W,1,10,1.5,25,M,,M,,*64
06/05/2014	00:03:30.674	$GPGGA,000330,2514.7182,N,08007.9336,W,1,10,1.5,25,M,,M,,*6C
06/05/2014	00:03:31.695	$GPGGA,000331,2514.7172,N,08007.9290,W,1,10,1.5,25,M,,M,,*6F
06/05/2014	00:03:32.758	$GPGGA,000332,2514.7168,N,08007.9268,W,1,10,2.4,24,M,,M,,*63
06/05/2014	00:03:32.578	$GPGGA,000333,2514.7159,N,08007.9243,W,1,8,2.4,24,M,,M,,*50
06/05/2014	00:03:33.487	$GPGGA,000334,2514.7159,N,08007.9243,W,1,8,1.7,24,M,,M,,*57
06/05/2014	00:03:34.590	$GPGGA,000335,2514.7148,N,08007.9196,W,1,9,1.7,24,M,,M,,*5C
06/05/2014	00:03:35.591	$GPGGA,000336,2514.7142,N,08007.9172,W,1,9,1.7,24,M,,M,,*5F
06/05/2014	00:03:36.520	$GPGGA,000337,2514.7137,N,08007.9148,W,1,9,1.7,24,M,,M,,*55
06/05/2014	00:03:37.562	$GPGGA,000338,2514.7132,N,08007.9125,W,1,9,1.7,25,M,,M,,*55
06/05/2014	00:03:38.563	$GPGGA,000339,2514.7124,N,08007.9101,W,1,9,1.7,25,M,,M,,*55
06/05/2014	00:03:39.584	$GPGGA,000340,2514.7124,N,08007.9101,W,1,9,1.8,25,M,,M,,*54
06/05/2014	00:03:40.575	$GPGGA,000341,2514.7114,N,08007.9055,W,1,10,1.5,25,M,,M,,*63
06/05/2014	00:03:41.617	$GPGGA,000342,2514.7114,N,08007.9055,W,1,10,2.4,25,M,,M,,*62
06/05/2014	00:03:42.793	$GPGGA,000343,2514.7108,N,08007.9011,W,1,9,1.7,25,M,,M,,*56
06/05/2014	00:03:43.660	$GPGGA,000344,2514.7108,N,08007.9011,W,1,9,1.7,25,M,,M,,*51
06/05/2014	00:03:44.762	$GPGGA,000345,2514.7099,N,08007.8966,W,1,9,1.7,25,M,,M,,*51
06/05/2014	00:03:45.681	$GPGGA,000346,2514.7099,N,08007.8966,W,1,9,1.7,25,M,,M,,*52
06/05/2014	00:03:46.825	$GPGGA,000347,2514.7088,N,08007.8918,W,1,10,1.5,25,M,,M,,*60
06/05/2014	00:03:47.847	$GPGGA,000348,2514.7085,N,08007.8897,W,1,10,1.5,25,M,,M,,*64
06/05/2014	00:03:48.848	$GPGGA,000349,2514.7075,N,08007.8872,W,1,8,2.4,25,M,,M,,*5A
06/05/2014	00:03:49.859	$GPGGA,000350,2514.7070,N,08007.8850,W,1,8,1.7,25,M,,M,,*57
06/05/2014	00:03:50.901	$GPGGA,000351,2514.7065,N,08007.8828,W,1,10,1.5,25,M,,M,,*66
06/05/2014	00:03:51.902	$GPGGA,000352,2514.7059,N,08007.8804,W,1,10,1.5,25,M,,M,,*64
06/05/2014	00:03:52.933	$GPGGA,000353,2514.7056,N,08007.8783,W,1,10,1.5,24,M,,M,,*6B
06/05/2014	00:03:53.944	$GPGGA,000354,2514.7049,N,08007.8761,W,1,10,1.5,24,M,,M,,*6E
06/05/2014	00:03:54.986	$GPGGA,000355,2514.7041,N,08007.8736,W,1,8,2.4,24,M,,M,,*5E
06/05/2014	00:03:55.977	$GPGGA,000356,2514.7034,N,08007.8717,W,1,8,1.5,24,M,,M,,*5E
06/05/2014	00:03:57.019	$GPGGA,000357,2514.7027,N,08007.8693,W,1,10,1.5,24,M,,M,,*69
06/05/2014	00:03:58.020	$GPGGA,000358,2514.7024,N,08007.8670,W,1,10,1.7,25,M,,M,,*6B
06/05/2014	00:03:59.031	$GPGGA,000359,2514.7021,N,08007.8649,W,1,10,1.5,25,M,,M,,*67
06/05/2014	00:04:00.073	$GPGGA,000400,2514.7016,N,08007.8625,W,1,10,1.5,25,M,,M,,*62
06/05/2014	00:04:01.094	$GPGGA,000401,2514.7011,N,08007.8606,W,1,10,1.5,25,M,,M,,*65
06/05/2014	00:04:02.084	$GPGGA,000402,2514.7006,N,08007.8585,W,1,10,1.5,25,M,,M,,*68
06/05/2014	00:04:03.136	$GPGGA,000403,2514.7000,N,08007.8562,W,1,9,1.8,25,M,,M,,*53
06/05/2014	00:04:04.137	$GPGGA,000404,2514.6995,N,08007.8543,W,1,9,1.5,25,M,,M,,*5E
06/05/2014	00:04:05.168	$GPGGA,000405,2514.6989,N,08007.8520,W,1,9,1.8,24,M,,M,,*5B
06/05/2014	00:04:06.180	$GPGGA,000406,2514.6985,N,08007.8498,W,1,9,1.5,24,M,,M,,*5B
06/05/2014	00:04:07.191	$GPGGA,000407,2514.6980,N,08007.8476,W,1,8,2.4,24,M,,M,,*5C
06/05/2014	00:04:08.222	$GPGGA,000408,2514.6973,N,08007.8457,W,1,8,2.4,24,M,,M,,*5C
06/05/2014	00:04:09.214	$GPGGA,000409,2514.6970,N,08007.8436,W,1,10,1.5,24,M,,M,,*62
06/05/2014	00:04:10.245	$GPGGA,000410,2514.6963,N,08007.8410,W,1,10,1.8,24,M,,M,,*61
06/05/2014	00:04:11.297	$GPGGA,000411,2514.6956,N,08007.8387,W,1,10,1.5,24,M,,M,,*62
06/05/2014	00:04:12.288	$GPGGA,000412,2514.6951,N,08007.8365,W,1,10,1.5,24,M,,M,,*6A
06/05/2014	00:04:13.309	$GPGGA,000413,2514.6944,N,08007.8341,W,1,9,1.7,24,M,,M,,*53
06/05/2014	00:04:14.320	$GPGGA,000414,2514.6940,N,08007.8318,W,1,9,1.7,24,M,,M,,*5C
06/05/2014	00:04:15.331	$GPGGA,000415,2514.6933,N,08007.8295,W,1,9,1.7,24,M,,M,,*5D
06/05/2014	00:04:16.383	$GPGGA,000416,2514.6927,N,08007.8272,W,1,9,1.7,24,M,,M,,*52
06/05/2014	00:04:17.497	$GPGGA,000417,2514.6923,N,08007.8248,W,1,9,1.7,24,M,,M,,*5E
06/05/2014	00:04:18.385	$GPGGA,000418,2514.6920,N,08007.8224,W,1,9,1.5,24,M,,M,,*5A
06/05/2014	00:04:19.417	$GPGGA,000419,2514.6915,N,08007.8200,W,1,10,1.5,24,M,,M,,*63
06/05/2014	00:04:20.458	$GPGGA,000420,2514.6911,N,08007.8175,W,1,10,1.5,24,M,,M,,*6C
06/05/2014	00:04:21.469	$GPGGA,000421,2514.6908,N,08007.8149,W,1,9,1.5,24,M,,M,,*52
06/05/2014	00:04:22.470	$GPGGA,000422,2514.6904,N,08007.8126,W,1,9,1.5,24,M,,M,,*54
06/05/2014	00:04:23.512	$GPGGA,000423,2514.6899,N,08007.8105,W,1,10,1.5,24,M,,M,,*69
06/05/2014	00:04:24.533	$GPGGA,000424,2514.6895,N,08007.8082,W,1,10,1.5,24,M,,M,,*6C
06/05/2014	00:04:25.544	$GPGGA,000425,2514.6893,N,08007.8056,W,1,10,1.5,24,M,,M,,*62
06/05/2014	00:04:26.545	$GPGGA,000426,2514.6888,N,08007.8035,W,1,10,1.5,24,M,,M,,*6E
06/05/2014	00:04:27.700	$GPGGA,000427,2514.6884,N,08007.8012,W,1,9,1.8,24,M,,M,,*53
06/05/2014	00:04:28.711	$GPGGA,000428,2514.6879,N,08007.7988,W,1,9,1.8,24,M,,M,,*5B
06/05/2014	00:04:29.712	$GPGGA,000429,2514.6877,N,08007.7964,W,1,10,1.5,24,M,,M,,*63
06/05/2014	00:04:30.631	$GPGGA,000430,2514.6870,N,08007.7939,W,1,10,3.1,24,M,,M,,*62
06/05/2014	00:04:31.744	$GPGGA,000431,2514.6863,N,08007.7917,W,1,8,2.1,24,M,,M,,*55
06/05/2014	00:04:32.684	$GPGGA,000432,2514.6861,N,08007.7893,W,1,8,1.5,24,M,,M,,*5E
06/05/2014	00:04:32.413	$GPGGA,000433,2514.6857,N,08007.7866,W,1,10,1.5,24,M,,M,,*69
06/05/2014	00:04:33.516	$GPGGA,000434,2514.6854,N,08007.7842,W,1,10,1.5,24,M,,M,,*6B
06/05/2014	00:04:34.446	$GPGGA,000435,2514.6851,N,08007.7820,W,1,10,1.5,24,M,,M,,*6B
06/05/2014	00:04:35.569	$GPGGA,000436,2514.6846,N,08007.7794,W,1,10,1.5,24,M,,M,,*6E
06/05/2014	00:04:36.579	$GPGGA,000437,2514.6843,N,08007.7771,W,1,10,1.5,24,M,,M,,*61
06/05/2014	00:04:37.591	$GPGGA,000438,2514.6839,N,08007.7749,W,1,10,1.5,24,M,,M,,*68
06/05/2014	00:04:38.653	$GPGGA,000439,2514.6834,N,08007.7724,W,1,10,1.5,24,M,,M,,*6F
06/05/2014	00:04:39.654	$GPGGA,000440,2514.6830,N,08007.7700,W,1,10,1.5,24,M,,M,,*63
06/05/2014	00:04:40.706	$GPGGA,000441,2514.6826,N,08007.7678,W,1,10,1.5,24,M,,M,,*6B
06/05/2014	00:04:41.676	$GPGGA,000442,2514.6821,N,08007.7654,W,1,10,1.5,23,M,,M,,*66
06/05/2014	00:04:42.708	$GPGGA,000443,2514.6817,N,08007.7631,W,1,10,1.5,23,M,,M,,*61
06/05/2014	00:04:43.729	$GPGGA,000444,2514.6812,N,08007.7608,W,1,10,1.5,23,M,,M,,*69
06/05/2014	00:04:44.730	$GPGGA,000445,2514.6808,N,08007.7584,W,1,9,1.5,23,M,,M,,*5C
06/05/2014	00:04:45.762	$GPGGA,000446,2514.6804,N,08007.7560,W,1,9,1.5,23,M,,M,,*59
06/05/2014	00:04:46.773	$GPGGA,000447,2514.6799,N,08007.7538,W,1,9,1.7,23,M,,M,,*5C
06/05/2014	00:04:47.805	$GPGGA,000448,2514.6792,N,08007.7516,W,1,9,1.5,23,M,,M,,*56
06/05/2014	00:04:48.836	$GPGGA,000449,2514.6788,N,08007.7493,W,1,10,1.5,24,M,,M,,*6F
06/05/2014	00:04:49.837	$GPGGA,000450,2514.6783,N,08007.7470,W,1,10,1.5,24,M,,M,,*61
06/05/2014	00:04:50.869	$GPGGA,000451,2514.6777,N,08007.7446,W,1,10,1.5,24,M,,M,,*6E
06/05/2014	00:04:51.880	$GPGGA,000452,2514.6772,N,08007.7423,W,1,10,1.7,24,M,,M,,*69
06/05/2014	00:04:52.891	$GPGGA,000453,2514.6767,N,08007.7399,W,1,9,1.7,24,M,,M,,*52
06/05/2014	00:04:53.913	$GPGGA,000454,2514.6763,N,08007.7376,W,1,9,1.5,24,M,,M,,*52
06/05/2014	00:04:54.933	$GPGGA,000455,2514.6758,N,08007.7352,W,1,9,1.7,24,M,,M,,*5F
06/05/2014	00:04:55.965	$GPGGA,000456,2514.6754,N,08007.7329,W,1,9,1.5,24,M,,M,,*5E
06/05/2014	00:04:56.955	$GPGGA,000457,2514.6749,N,08007.7307,W,1,9,1.7,24,M,,M,,*5D
06/05/2014	00:04:57.977	$GPGGA,000458,2514.6745,N,08007.7283,W,1,9,2.4,24,M,,M,,*53
06/05/2014	00:04:58.998	$GPGGA,000459,2514.6740,N,08007.7260,W,1,10,1.5,24,M,,M,,*60
06/05/2014	00:05:00.050	$GPGGA,000500,2514.6735,N,08007.7238,W,1,10,1.7,24,M,,M,,*60
06/05/2014	00:05:01.051	$GPGGA,000501,2514.6732,N,08007.7214,W,1,9,1.7,24,M,,M,,*50
06/05/2014	00:05:02.052	$GPGGA,000502,2514.6728,N,08007.7188,W,1,9,1.8,24,M,,M,,*51
06/05/2014	00:05:03.104	$GPGGA,000503,2514.6722,N,08007.7166,W,1,10,1.5,24,M,,M,,*6F
06/05/2014	00:05:04.115	$GPGGA,000504,2514.6716,N,08007.7142,W,1,10,1.7,24,M,,M,,*6B
06/05/2014	00:05:05.127	$GPGGA,000505,2514.6709,N,08007.7116,W,1,8,2.4,24,M,,M,,*5C
06/05/2014	00:05:06.138	$GPGGA,000506,2514.6704,N,08007.7093,W,1,8,1.7,24,M,,M,,*5E
06/05/2014	00:05:07.149	$GPGGA,000507,2514.6698,N,08007.7070,W,1,9,1.8,25,M,,M,,*59
06/05/2014	00:05:08.303	$GPGGA,000508,2514.6692,N,08007.7046,W,1,9,2.4,25,M,,M,,*56
06/05/2014	00:05:09.214	$GPGGA,000509,2514.6688,N,08007.7023,W,1,10,1.5,25,M,,M,,*65
06/05/2014	00:05:10.214	$GPGGA,000510,2514.6684,N,08007.7000,W,1,10,1.5,25,M,,M,,*60
06/05/2014	00:05:11.357	$GPGGA,000511,2514.6678,N,08007.6977,W,1,9,1.7,25,M,,M,,*50
06/05/2014	00:05:12.256	$GPGGA,000512,2514.6673,N,08007.6952,W,1,9,1.7,25,M,,M,,*5F
06/05/2014	00:05:13.389	$GPGGA,000513,2514.6666,N,08007.6928,W,1,8,2.4,25,M,,M,,*56
06/05/2014	00:05:14.298	$GPGGA,000514,2514.6659,N,08007.6905,W,1,8,2.4,25,M,,M,,*52
06/05/2014	00:05:15.452	$GPGGA,000515,2514.6655,N,08007.6881,W,1,9,1.7,25,M,,M,,*53
06/05/2014	00:05:16.463	$GPGGA,000516,2514.6651,N,08007.6858,W,1,9,1.5,25,M,,M,,*52
06/05/2014	00:05:17.341	$GPGGA,000517,2514.6644,N,08007.6835,W,1,8,2.4,25,M,,M,,*5F
06/05/2014	00:05:18.465	$GPGGA,000518,2514.6637,N,08007.6812,W,1,8,1.5,25,M,,M,,*53
06/05/2014	00:05:19.395	$GPGGA,000519,2514.6633,N,08007.6786,W,1,9,1.7,25,M,,M,,*57
06/05/2014	00:05:20.508	$GPGGA,000520,2514.6627,N,08007.6762,W,1,9,1.7,25,M,,M,,*52
06/05/2014	00:05:21.550	$GPGGA,000521,2514.6622,N,08007.6739,W,1,9,1.7,25,M,,M,,*58
06/05/2014	00:05:22.448	$GPGGA,000522,2514.6617,N,08007.6715,W,1,9,1.5,25,M,,M,,*51
06/05/2014	00:05:23.572	$GPGGA,000523,2514.6615,N,08007.6692,W,1,9,1.7,25,M,,M,,*5E
06/05/2014	00:05:24.593	$GPGGA,000524,2514.6609,N,08007.6670,W,1,9,1.7,25,M,,M,,*58
06/05/2014	00:05:25.625	$GPGGA,000525,2514.6604,N,08007.6645,W,1,8,2.4,25,M,,M,,*53
06/05/2014	00:05:26.616	$GPGGA,000526,2514.6601,N,08007.6623,W,1,8,1.7,25,M,,M,,*55
06/05/2014	00:05:27.637	$GPGGA,000527,2514.6593,N,08007.6598,W,1,8,2.4,25,M,,M,,*5F
06/05/2014	00:05:28.669	$GPGGA,000528,2514.6584,N,08007.6573,W,1,8,1.7,25,M,,M,,*53
06/05/2014	00:05:29.680	$GPGGA,000529,2514.6582,N,08007.6551,W,1,9,1.7,26,M,,M,,*56
06/05/2014	00:05:30.700	$GPGGA,000530,2514.6581,N,08007.6529,W,1,9,2.4,26,M,,M,,*52
06/05/2014	00:05:31.742	$GPGGA,000531,2514.6576,N,08007.6506,W,1,9,1.7,26,M,,M,,*56
06/05/2014	00:05:32.753	$GPGGA,000532,2514.6573,N,08007.6486,W,1,9,1.7,26,M,,M,,*59
06/05/2014	00:05:32.502	$GPGGA,000533,2514.6569,N,08007.6464,W,1,10,1.5,26,M,,M,,*65
06/05/2014	00:05:33.503	$GPGGA,000534,2514.6563,N,08007.6443,W,1,10,1.5,26,M,,M,,*6D
06/05/2014	00:05:34.514	$GPGGA,000535,2514.6558,N,08007.6421,W,1,10,1.5,26,M,,M,,*60
06/05/2014	00:05:35.546	$GPGGA,000536,2514.6552,N,08007.6397,W,1,10,1.8,26,M,,M,,*6E
06/05/2014	00:05:36.567	$GPGGA,000537,2514.6547,N,08007.6375,W,1,10,1.5,26,M,,M,,*6A
06/05/2014	00:05:37.568	$GPGGA,000538,2514.6541,N,08007.6353,W,1,10,1.5,26,M,,M,,*67
06/05/2014	00:05:38.600	$GPGGA,000539,2514.6534,N,08007.6330,W,1,10,1.5,26,M,,M,,*61
06/05/2014	00:05:39.621	$GPGGA,000540,2514.6529,N,08007.6307,W,1,10,1.5,26,M,,M,,*67
06/05/2014	00:05:40.663	$GPGGA,000541,2514.6525,N,08007.6287,W,1,10,1.5,26,M,,M,,*63
06/05/2014	00:05:41.644	$GPGGA,000542,2514.6517,N,08007.6262,W,1,10,1.5,26,M,,M,,*6A
06/05/2014	00:05:42.665	$GPGGA,000543,2514.6511,N,08007.6242,W,1,9,1.5,26,M,,M,,*57
06/05/2014	00:05:43.717	$GPGGA,000544,2514.6507,N,08007.6225,W,1,9,1.5,26,M,,M,,*56
06/05/2014	00:05:44.738	$GPGGA,000545,2514.6499,N,08007.6201,W,1,10,1.5,25,M,,M,,*6C
06/05/2014	00:05:45.739	$GPGGA,000546,2514.6494,N,08007.6178,W,1,10,1.5,25,M,,M,,*6F
06/05/2014	00:05:46.780	$GPGGA,000547,2514.6488,N,08007.6160,W,1,9,1.5,25,M,,M,,*52
06/05/2014	00:05:47.791	$GPGGA,000548,2514.6480,N,08007.6138,W,1,9,1.5,25,M,,M,,*58
06/05/2014	00:05:48.813	$GPGGA,000549,2514.6475,N,08007.6118,W,1,10,1.5,25,M,,M,,*69
06/05/2014	00:05:49.814	$GPGGA,000550,2514.6469,N,08007.6099,W,1,10,1.5,25,M,,M,,*64
06/05/2014	00:05:50.815	$GPGGA,000551,2514.6463,N,08007.6078,W,1,10,1.5,25,M,,M,,*60
06/05/2014	00:05:51.969	$GPGGA,000552,2514.6458,N,08007.6058,W,1,10,1.5,25,M,,M,,*69
06/05/2014	00:05:52.859	$GPGGA,000553,2514.6454,N,08007.6041,W,1,10,1.5,25,M,,M,,*6C
06/05/2014	00:05:54.012	$GPGGA,000554,2514.6449,N,08007.6022,W,1,10,1.5,25,M,,M,,*62
06/05/2014	00:05:54.900	$GPGGA,000555,2514.6446,N,08007.6004,W,1,10,1.5,25,M,,M,,*68
06/05/2014	00:05:55.932	$GPGGA,000556,2514.6442,N,08007.5986,W,1,10,1.5,25,M,,M,,*6F
06/05/2014	00:05:57.066	$GPGGA,000557,2514.6438,N,08007.5970,W,1,10,1.5,25,M,,M,,*6A
06/05/2014	00:05:58.056	$GPGGA,000558,2514.6434,N,08007.5952,W,1,10,1.5,25,M,,M,,*69
06/05/2014	00:05:58.986	$GPGGA,000559,2514.6431,N,08007.5936,W,1,10,1.5,25,M,,M,,*6F
06/05/2014	00:06:00.007	$GPGGA,000600,2514.6427,N,08007.5923,W,1,10,1.5,25,M,,M,,*63
06/05/2014	00:06:01.121	$GPGGA,000601,2514.6423,N,08007.5906,W,1,10,1.5,25,M,,M,,*61
06/05/2014	00:06:02.132	$GPGGA,000602,2514.6422,N,08007.5891,W,1,10,1.5,24,M,,M,,*6D
06/05/2014	00:06:03.176	$GPGGA,000603,2514.6421,N,08007.5879,W,1,9,1.5,24,M,,M,,*51
06/05/2014	00:06:04.093	$GPGGA,000604,2514.6417,N,08007.5865,W,1,9,1.8,24,M,,M,,*53
06/05/2014	00:06:05.205	$GPGGA,000605,2514.6419,N,08007.5855,W,1,9,1.8,24,M,,M,,*5F
06/05/2014	00:06:06.114	$GPGGA,000606,2514.6417,N,08007.5842,W,1,9,1.5,24,M,,M,,*59
06/05/2014	00:06:07.268	$GPGGA,000607,2514.6415,N,08007.5827,W,1,9,1.8,24,M,,M,,*54
06/05/2014	00:06:08.167	$GPGGA,000608,2514.6413,N,08007.5813,W,1,9,1.5,24,M,,M,,*57
06/05/2014	00:06:09.281	$GPGGA,000609,2514.6411,N,08007.5801,W,1,10,1.5,24,M,,M,,*6F
06/05/2014	00:06:10.302	$GPGGA,000610,2514.6410,N,08007.5789,W,1,10,1.5,24,M,,M,,*69
06/05/2014	00:06:11.334	$GPGGA,000611,2514.6411,N,08007.5778,W,1,10,1.5,24,M,,M,,*67
06/05/2014	00:06:12.336	$GPGGA,000612,2514.6409,N,08007.5768,W,1,10,1.5,24,M,,M,,*6C
06/05/2014	00:06:13.389	$GPGGA,000613,2514.6409,N,08007.5757,W,1,10,1.5,23,M,,M,,*66
06/05/2014	00:06:14.367	$GPGGA,000614,2514.6411,N,08007.5747,W,1,10,1.5,23,M,,M,,*69
06/05/2014	00:06:15.419	$GPGGA,000615,2514.6409,N,08007.5738,W,1,10,1.5,23,M,,M,,*69
06/05/2014	00:06:16.420	$GPGGA,000616,2514.6409,N,08007.5727,W,1,10,1.8,23,M,,M,,*69
06/05/2014	00:06:17.421	$GPGGA,000617,2514.6409,N,08007.5717,W,1,9,1.8,23,M,,M,,*53
06/05/2014	00:06:18.443	$GPGGA,000618,2514.6407,N,08007.5708,W,1,9,1.8,23,M,,M,,*5C
06/05/2014	00:06:19.464	$GPGGA,000619,2514.6408,N,08007.5695,W,1,9,1.8,23,M,,M,,*57
06/05/2014	00:06:20.496	$GPGGA,000620,2514.6406,N,08007.5686,W,1,9,1.9,23,M,,M,,*50
06/05/2014	00:06:21.497	$GPGGA,000621,2514.6405,N,08007.5676,W,1,9,1.8,23,M,,M,,*5C
06/05/2014	00:06:22.517	$GPGGA,000622,2514.6404,N,08007.5667,W,1,9,1.8,23,M,,M,,*5E
06/05/2014	00:06:23.538	$GPGGA,000623,2514.6405,N,08007.5655,W,1,9,1.8,23,M,,M,,*5F
06/05/2014	00:06:24.570	$GPGGA,000624,2514.6403,N,08007.5645,W,1,9,1.9,23,M,,M,,*5E
06/05/2014	00:06:25.602	$GPGGA,000625,2514.6402,N,08007.5638,W,1,10,1.5,22,M,,M,,*61
06/05/2014	00:06:26.592	$GPGGA,000626,2514.6399,N,08007.5628,W,1,10,1.8,22,M,,M,,*6B
06/05/2014	00:06:27.614	$GPGGA,000627,2514.6402,N,08007.5621,W,1,10,1.5,22,M,,M,,*6B
06/05/2014	00:06:28.656	$GPGGA,000628,2514.6400,N,08007.5612,W,1,10,1.5,22,M,,M,,*66
06/05/2014	00:06:29.677	$GPGGA,000629,2514.6401,N,08007.5603,W,1,9,1.5,22,M,,M,,*5E
06/05/2014	00:06:30.678	$GPGGA,000630,2514.6402,N,08007.5596,W,1,9,1.5,22,M,,M,,*5A
06/05/2014	00:06:31.689	$GPGGA,000631,2514.6402,N,08007.5589,W,1,10,1.5,22,M,,M,,*6D
06/05/2014	00:06:32.731	$GPGGA,000632,2514.6399,N,08007.5583,W,1,10,1.5,22,M,,M,,*61
06/05/2014	00:06:32.459	$GPGGA,000633,2514.6400,N,08007.5577,W,1,10,1.5,22,M,,M,,*6C
06/05/2014	00:06:33.460	$GPGGA,000634,2514.6399,N,08007.5570,W,1,10,1.5,22,M,,M,,*6B
06/05/2014	00:06:34.502	$GPGGA,000635,2514.6398,N,08007.5565,W,1,10,1.5,22,M,,M,,*6F
06/05/2014	00:06:35.523	$GPGGA,000636,2514.6398,N,08007.5559,W,1,10,1.5,22,M,,M,,*63
06/05/2014	00:06:36.524	$GPGGA,000637,2514.6398,N,08007.5552,W,1,9,1.8,22,M,,M,,*5C
06/05/2014	00:06:37.556	$GPGGA,000638,2514.6396,N,08007.5548,W,1,9,1.5,22,M,,M,,*5B
06/05/2014	00:06:38.679	$GPGGA,000639,2514.6392,N,08007.5537,W,1,9,1.5,22,M,,M,,*56
06/05/2014	00:06:39.710	$GPGGA,000640,2514.6391,N,08007.5529,W,1,9,1.5,22,M,,M,,*54
06/05/2014	00:06:40.615	$GPGGA,000641,2514.6389,N,08007.5523,W,1,10,1.5,22,M,,M,,*6E
06/05/2014	00:06:41.620	$GPGGA,000642,2514.6387,N,08007.5516,W,1,10,1.5,22,M,,M,,*65
06/05/2014	00:06:42.744	$GPGGA,000643,2514.6386,N,08007.5507,W,1,10,1.5,22,M,,M,,*65
06/05/2014	00:06:43.796	$GPGGA,000644,2514.6385,N,08007.5502,W,1,10,1.5,22,M,,M,,*64
06/05/2014	00:06:44.674	$GPGGA,000645,2514.6382,N,08007.5496,W,1,10,1.5,22,M,,M,,*6E
06/05/2014	00:06:45.695	$GPGGA,000646,2514.6380,N,08007.5488,W,1,10,1.5,22,M,,M,,*60
06/05/2014	00:06:46.839	$GPGGA,000647,2514.6378,N,08007.5481,W,1,10,1.5,22,M,,M,,*6F
06/05/2014	00:06:47.759	$GPGGA,000648,2514.6375,N,08007.5475,W,1,10,1.5,22,M,,M,,*66
06/05/2014	00:06:48.749	$GPGGA,000649,2514.6373,N,08007.5470,W,1,10,1.5,22,M,,M,,*64
06/05/2014	00:06:49.771	$GPGGA,000650,2514.6371,N,08007.5463,W,1,10,1.5,22,M,,M,,*6C
06/05/2014	00:06:50.905	$GPGGA,000651,2514.6369,N,08007.5457,W,1,9,1.5,22,M,,M,,*5B
06/05/2014	00:06:51.926	$GPGGA,000652,2514.6368,N,08007.5452,W,1,9,1.5,22,M,,M,,*5C
06/05/2014	00:06:52.958	$GPGGA,000653,2514.6366,N,08007.5446,W,1,10,1.5,22,M,,M,,*6E
06/05/2014	00:06:53.856	$GPGGA,000654,2514.6364,N,08007.5438,W,1,10,1.5,22,M,,M,,*62
06/05/2014	00:06:55.001	$GPGGA,000655,2514.6360,N,08007.5433,W,1,10,1.5,22,M,,M,,*6C
06/05/2014	00:06:56.042	$GPGGA,000656,2514.6358,N,08007.5428,W,1,10,1.5,22,M,,M,,*6E
06/05/2014	00:06:57.038	$GPGGA,000657,2514.6356,N,08007.5422,W,1,10,1.5,22,M,,M,,*6B
06/05/2014	00:06:58.017	$GPGGA,000658,2514.6353,N,08007.5416,W,1,10,1.5,22,M,,M,,*66
06/05/2014	00:06:59.057	$GPGGA,000659,2514.6349,N,08007.5411,W,1,10,1.5,22,M,,M,,*6B
06/05/2014	00:07:00.087	$GPGGA,000700,2514.6348,N,08007.5406,W,1,10,1.5,22,M,,M,,*61
06/05/2014	00:07:01.065	$GPGGA,000701,2514.6344,N,08007.5401,W,1,10,1.5,22,M,,M,,*6B
06/05/2014	00:07:02.045	$GPGGA,000702,2514.6340,N,08007.5396,W,1,10,1.5,22,M,,M,,*65
06/05/2014	00:07:03.064	$GPGGA,000703,2514.6337,N,08007.5391,W,1,10,1.5,22,M,,M,,*63
06/05/2014	00:07:04.073	$GPGGA,000704,2514.6337,N,08007.5388,W,1,10,1.5,22,M,,M,,*6C
06/05/2014	00:07:05.062	$GPGGA,000705,2514.6334,N,08007.5383,W,1,10,1.5,22,M,,M,,*65
06/05/2014	00:07:06.082	$GPGGA,000706,2514.6331,N,08007.5378,W,1,10,1.5,22,M,,M,,*67
06/05/2014	00:07:07.101	$GPGGA,000707,2514.6329,N,08007.5376,W,1,10,1.5,22,M,,M,,*61
06/05/2014	00:07:08.121	$GPGGA,000708,2514.6328,N,08007.5371,W,1,10,1.5,22,M,,M,,*68
06/05/2014	00:07:09.110	$GPGGA,000709,2514.6324,N,08007.5367,W,1,10,1.5,22,M,,M,,*62
06/05/2014	00:07:10.119	$GPGGA,000710,2514.6321,N,08007.5363,W,1,10,1.5,22,M,,M,,*6B
06/05/2014	00:07:11.128	$GPGGA,000711,2514.6319,N,08007.5359,W,1,10,1.5,22,M,,M,,*68
06/05/2014	00:07:12.148	$GPGGA,000712,2514.6316,N,08007.5356,W,1,10,1.5,22,M,,M,,*6B
06/05/2014	00:07:13.137	$GPGGA,000713,2514.6313,N,08007.5351,W,1,10,1.5,22,M,,M,,*68
06/05/2014	00:07:14.126	$GPGGA,000714,2514.6310,N,08007.5347,W,1,10,1.5,22,M,,M,,*6B
06/05/2014	00:07:15.154	$GPGGA,000715,2514.6309,N,08007.5344,W,1,10,1.5,22,M,,M,,*61
06/05/2014	00:07:16.174	$GPGGA,000716,2514.6306,N,08007.5341,W,1,10,1.5,22,M,,M,,*68
06/05/2014	00:07:17.173	$GPGGA,000717,2514.6303,N,08007.5336,W,1,9,1.5,21,M,,M,,*57
06/05/2014	00:07:18.152	$GPGGA,000718,2514.6301,N,08007.5332,W,1,9,1.5,21,M,,M,,*5E
06/05/2014	00:07:19.202	$GPGGA,000719,2514.6299,N,08007.5331,W,1,10,1.5,21,M,,M,,*64
06/05/2014	00:07:20.191	$GPGGA,000720,2514.6297,N,08007.5327,W,1,10,1.5,21,M,,M,,*67
06/05/2014	00:07:21.200	$GPGGA,000721,2514.6294,N,08007.5322,W,1,10,1.5,21,M,,M,,*60
06/05/2014	00:07:22.179	$GPGGA,000722,2514.6291,N,08007.5319,W,1,10,1.5,21,M,,M,,*6E
06/05/2014	00:07:23.229	$GPGGA,000723,2514.6288,N,08007.5316,W,1,10,1.5,21,M,,M,,*68
06/05/2014	00:07:24.218	$GPGGA,000724,2514.6286,N,08007.5312,W,1,10,1.5,21,M,,M,,*65
06/05/2014	00:07:25.217	$GPGGA,000725,2514.6283,N,08007.5308,W,1,10,1.5,21,M,,M,,*6A
06/05/2014	00:07:26.236	$GPGGA,000726,2514.6281,N,08007.5305,W,1,10,1.5,21,M,,M,,*66
06/05/2014	00:07:27.236	$GPGGA,000727,2514.6279,N,08007.5303,W,1,10,1.5,21,M,,M,,*66
06/05/2014	00:07:28.275	$GPGGA,000728,2514.6279,N,08007.5299,W,1,10,1.5,21,M,,M,,*6B
06/05/2014	00:07:29.345	$GPGGA,000729,2514.6276,N,08007.5295,W,1,10,1.5,21,M,,M,,*69
06/05/2014	00:07:30.364	$GPGGA,000730,2514.6274,N,08007.5293,W,1,10,1.5,21,M,,M,,*65
06/05/2014	00:07:31.283	$GPGGA,000731,2514.6273,N,08007.5289,W,1,10,1.5,21,M,,M,,*68
06/05/2014	00:07:32.281	$GPGGA,000732,2514.6272,N,08007.5286,W,1,10,1.5,21,M,,M,,*65
06/05/2014	00:07:32.437	$GPGGA,000733,2514.6270,N,08007.5282,W,1,10,1.5,21,M,,M,,*62
06/05/2014	00:07:33.436	$GPGGA,000734,2514.6269,N,08007.5280,W,1,10,1.5,21,M,,M,,*6F
06/05/2014	00:07:34.556	$GPGGA,000735,2514.6268,N,08007.5278,W,1,10,1.5,21,M,,M,,*68
06/05/2014	00:07:35.459	$GPGGA,000736,2514.6270,N,08007.5273,W,1,10,1.5,21,M,,M,,*69
06/05/2014	00:07:36.544	$GPGGA,000737,2514.6272,N,08007.5271,W,1,9,1.5,21,M,,M,,*50
06/05/2014	00:07:37.463	$GPGGA,000738,2514.6270,N,08007.5270,W,1,9,1.5,21,M,,M,,*5C
06/05/2014	00:07:38.553	$GPGGA,000739,2514.6271,N,08007.5266,W,1,10,1.5,21,M,,M,,*63
06/05/2014	00:07:39.572	$GPGGA,000740,2514.6272,N,08007.5261,W,1,10,1.5,21,M,,M,,*69
06/05/2014	00:07:40.572	$GPGGA,000741,2514.6272,N,08007.5260,W,1,10,1.5,21,M,,M,,*69
06/05/2014	00:07:41.571	$GPGGA,000742,2514.6272,N,08007.5257,W,1,10,1.5,21,M,,M,,*6E
06/05/2014	00:07:42.610	$GPGGA,000743,2514.6272,N,08007.5254,W,1,9,1.5,21,M,,M,,*54
06/05/2014	00:07:43.610	$GPGGA,000744,2514.6275,N,08007.5252,W,1,9,1.5,21,M,,M,,*52
06/05/2014	00:07:44.610	$GPGGA,000745,2514.6277,N,08007.5249,W,1,10,1.5,21,M,,M,,*63
06/05/2014	00:07:45.608	$GPGGA,000746,2514.6278,N,08007.5247,W,1,10,1.5,21,M,,M,,*61
06/05/2014	00:07:46.607	$GPGGA,000747,2514.6279,N,08007.5244,W,1,10,1.5,21,M,,M,,*62
06/05/2014	00:07:47.637	$GPGGA,000748,2514.6281,N,08007.5242,W,1,10,1.5,21,M,,M,,*6C
06/05/2014	00:07:48.636	$GPGGA,000749,2514.6279,N,08007.5238,W,1,9,1.5,21,M,,M,,*5F
06/05/2014	00:07:49.644	$GPGGA,000750,2514.6281,N,08007.5236,W,1,9,1.5,21,M,,M,,*5E
06/05/2014	00:07:50.664	$GPGGA,000751,2514.6282,N,08007.5234,W,1,10,1.5,21,M,,M,,*66
06/05/2014	00:07:51.653	$GPGGA,000752,2514.6281,N,08007.5229,W,1,10,1.5,20,M,,M,,*6B
06/05/2014	00:07:52.682	$GPGGA,000753,2514.6283,N,08007.5227,W,1,10,1.5,20,M,,M,,*66
06/05/2014	00:07:53.671	$GPGGA,000754,2514.6283,N,08007.5224,W,1,10,1.5,20,M,,M,,*62
06/05/2014	00:07:54.670	$GPGGA,000755,2514.6285,N,08007.5221,W,1,10,1.5,20,M,,M,,*60
06/05/2014	00:07:55.690	$GPGGA,000756,2514.6284,N,08007.5217,W,1,10,1.5,20,M,,M,,*67
06/05/2014	00:07:56.709	$GPGGA,000757,2514.6285,N,08007.5215,W,1,10,1.5,20,M,,M,,*65
06/05/2014	00:07:57.688	$GPGGA,000758,2514.6283,N,08007.5213,W,1,10,1.5,20,M,,M,,*6A
06/05/2014	00:07:58.718	$GPGGA,000759,2514.6283,N,08007.5208,W,1,9,1.7,20,M,,M,,*5B
06/05/2014	00:07:59.727	$GPGGA,000800,2514.6281,N,08007.5204,W,1,9,1.5,20,M,,M,,*54
06/05/2014	00:08:00.746	$GPGGA,000801,2514.6279,N,08007.5202,W,1,10,1.5,20,M,,M,,*6C
06/05/2014	00:08:01.715	$GPGGA,000802,2514.6279,N,08007.5200,W,1,10,1.5,20,M,,M,,*6D
06/05/2014	00:08:02.725	$GPGGA,000803,2514.6277,N,08007.5195,W,1,10,1.5,20,M,,M,,*6D
06/05/2014	00:08:03.774	$GPGGA,000804,2514.6276,N,08007.5191,W,1,10,1.5,20,M,,M,,*6F
06/05/2014	00:08:04.743	$GPGGA,000805,2514.6275,N,08007.5190,W,1,10,1.5,20,M,,M,,*6C
06/05/2014	00:08:05.743	$GPGGA,000806,2514.6274,N,08007.5191,W,1,10,1.5,20,M,,M,,*6F
06/05/2014	00:08:06.791	$GPGGA,000807,2514.6272,N,08007.5183,W,1,10,1.5,20,M,,M,,*6B
06/05/2014	00:08:07.770	$GPGGA,000808,2514.6269,N,08007.5179,W,1,10,1.5,20,M,,M,,*6B
06/05/2014	00:08:08.820	$GPGGA,000809,2514.6266,N,08007.5182,W,1,10,1.5,20,M,,M,,*61
06/05/2014	00:08:09.769	$GPGGA,000810,2514.6263,N,08007.5180,W,1,10,1.5,20,M,,M,,*6E
06/05/2014	00:08:10.778	$GPGGA,000811,2514.6261,N,08007.5173,W,1,10,1.5,20,M,,M,,*61
06/05/2014	00:08:11.807	$GPGGA,000812,2514.6256,N,08007.5172,W,1,10,1.5,20,M,,M,,*67
06/05/2014	00:08:12.807	$GPGGA,000813,2514.6254,N,08007.5174,W,1,9,1.5,20,M,,M,,*5A
06/05/2014	00:08:13.796	$GPGGA,000814,2514.6251,N,08007.5171,W,1,9,1.5,20,M,,M,,*5D
06/05/2014	00:08:14.936	$GPGGA,000815,2514.6248,N,08007.5167,W,1,10,1.5,20,M,,M,,*6B
06/05/2014	00:08:15.845	$GPGGA,000816,2514.6245,N,08007.5167,W,1,10,1.5,20,M,,M,,*65
06/05/2014	00:08:16.834	$GPGGA,000817,2514.6243,N,08007.5167,W,1,10,1.5,20,M,,M,,*62
06/05/2014	00:08:17.823	$GPGGA,000818,2514.6238,N,08007.5166,W,1,10,1.5,20,M,,M,,*60
06/05/2014	00:08:18.832	$GPGGA,000819,2514.6236,N,08007.5164,W,1,9,1.5,20,M,,M,,*55
06/05/2014	00:08:19.872	$GPGGA,000820,2514.6232,N,08007.5164,W,1,9,1.5,20,M,,M,,*5B
06/05/2014	00:08:20.851	$GPGGA,000821,2514.6227,N,08007.5163,W,1,9,1.5,20,M,,M,,*59
06/05/2014	00:08:21.860	$GPGGA,000822,2514.6222,N,08007.5164,W,1,9,1.5,20,M,,M,,*58
06/05/2014	00:08:22.890	$GPGGA,000823,2514.6218,N,08007.5166,W,1,9,1.5,20,M,,M,,*52
06/05/2014	00:08:23.900	$GPGGA,000824,2514.6214,N,08007.5164,W,1,9,1.5,20,M,,M,,*5B
06/05/2014	00:08:24.887	$GPGGA,000825,2514.6208,N,08007.5164,W,1,8,1.7,20,M,,M,,*54
06/05/2014	00:08:25.896	$GPGGA,000826,2514.6204,N,08007.5166,W,1,8,1.5,20,M,,M,,*5B
06/05/2014	00:08:26.916	$GPGGA,000827,2514.6199,N,08007.5164,W,1,9,1.5,20,M,,M,,*5E
06/05/2014	00:08:28.026	$GPGGA,000828,2514.6194,N,08007.5166,W,1,9,1.5,20,M,,M,,*5E
06/05/2014	00:08:29.045	$GPGGA,000829,2514.6190,N,08007.5165,W,1,10,1.5,20,M,,M,,*60
06/05/2014	00:08:30.014	$GPGGA,000830,2514.6185,N,08007.5166,W,1,10,1.5,20,M,,M,,*6F
06/05/2014	00:08:31.023	$GPGGA,000831,2514.6179,N,08007.5166,W,1,10,1.5,20,M,,M,,*6D
06/05/2014	00:08:32.043	$GPGGA,000832,2514.6174,N,08007.5165,W,1,10,1.5,20,M,,M,,*60
06/05/2014	00:08:32.516	$GPGGA,000833,2514.6167,N,08007.5166,W,1,9,1.5,20,M,,M,,*58
06/05/2014	00:08:33.485	$GPGGA,000834,2514.6161,N,08007.5167,W,1,9,1.5,20,M,,M,,*58
06/05/2014	00:08:34.525	$GPGGA,000835,2514.6154,N,08007.5164,W,1,10,1.5,20,M,,M,,*64
06/05/2014	00:08:35.524	$GPGGA,000836,2514.6147,N,08007.5164,W,1,10,1.5,20,M,,M,,*65
06/05/2014	00:08:36.513	$GPGGA,000837,2514.6142,N,08007.5167,W,1,10,1.5,20,M,,M,,*62
06/05/2014	00:08:37.533	$GPGGA,000838,2514.6135,N,08007.5167,W,1,10,1.5,20,M,,M,,*6D
06/05/2014	00:08:38.552	$GPGGA,000839,2514.6128,N,08007.5165,W,1,10,1.5,20,M,,M,,*62
06/05/2014	00:08:39.551	$GPGGA,000840,2514.6122,N,08007.5166,W,1,10,1.5,20,M,,M,,*65
06/05/2014	00:08:40.560	$GPGGA,000841,2514.6115,N,08007.5166,W,1,10,1.5,20,M,,M,,*60
06/05/2014	00:08:41.559	$GPGGA,000842,2514.6109,N,08007.5168,W,1,10,1.5,20,M,,M,,*60
06/05/2014	00:08:42.568	$GPGGA,000843,2514.6102,N,08007.5167,W,1,10,1.5,20,M,,M,,*65
06/05/2014	00:08:43.577	$GPGGA,000844,2514.6093,N,08007.5164,W,1,10,1.5,20,M,,M,,*68
06/05/2014	00:08:44.566	$GPGGA,000845,2514.6086,N,08007.5166,W,1,10,1.5,20,M,,M,,*6F
06/05/2014	00:08:45.586	$GPGGA,000846,2514.6079,N,08007.5168,W,1,10,1.7,20,M,,M,,*60
06/05/2014	00:08:46.595	$GPGGA,000847,2514.6070,N,08007.5170,W,1,10,1.5,21,M,,M,,*62
06/05/2014	00:08:47.604	$GPGGA,000848,2514.6062,N,08007.5167,W,1,10,1.5,21,M,,M,,*68
06/05/2014	00:08:48.624	$GPGGA,000849,2514.6055,N,08007.5165,W,1,10,1.5,21,M,,M,,*6F
06/05/2014	00:08:49.613	$GPGGA,000850,2514.6045,N,08007.5167,W,1,10,1.5,21,M,,M,,*64
06/05/2014	00:08:50.612	$GPGGA,000851,2514.6038,N,08007.5170,W,1,10,1.5,21,M,,M,,*69
06/05/2014	00:08:51.642	$GPGGA,000852,2514.6030,N,08007.5165,W,1,10,1.5,21,M,,M,,*66
06/05/2014	00:08:52.631	$GPGGA,000853,2514.6022,N,08007.5160,W,1,10,1.5,21,M,,M,,*61
06/05/2014	00:08:53.650	$GPGGA,000854,2514.6016,N,08007.5163,W,1,10,1.5,21,M,,M,,*62
06/05/2014	00:08:54.639	$GPGGA,000855,2514.6010,N,08007.5164,W,1,10,1.5,21,M,,M,,*62
06/05/2014	00:08:55.669	$GPGGA,000856,2514.6002,N,08007.5159,W,1,10,1.5,21,M,,M,,*6C
06/05/2014	00:08:56.688	$GPGGA,000857,2514.5994,N,08007.5154,W,1,10,1.5,21,M,,M,,*65
06/05/2014	00:08:57.667	$GPGGA,000858,2514.5986,N,08007.5155,W,1,10,1.5,21,M,,M,,*68
06/05/2014	00:08:58.676	$GPGGA,000859,2514.5979,N,08007.5154,W,1,9,1.5,22,M,,M,,*53
06/05/2014	00:08:59.705	$GPGGA,000900,2514.5972,N,08007.5151,W,1,9,1.5,22,M,,M,,*50
06/05/2014	00:09:00.684	$GPGGA,000901,2514.5965,N,08007.5147,W,1,10,1.5,22,M,,M,,*68
06/05/2014	00:09:01.703	$GPGGA,000902,2514.5958,N,08007.5145,W,1,10,1.5,22,M,,M,,*67
06/05/2014	00:09:02.713	$GPGGA,000903,2514.5954,N,08007.5146,W,1,10,1.5,22,M,,M,,*69
06/05/2014	00:09:03.732	$GPGGA,000904,2514.5948,N,08007.5144,W,1,10,1.5,22,M,,M,,*61
06/05/2014	00:09:04.721	$GPGGA,000905,2514.5943,N,08007.5139,W,1,10,1.5,22,M,,M,,*61
06/05/2014	00:09:05.720	$GPGGA,000906,2514.5937,N,08007.5141,W,1,10,1.5,22,M,,M,,*6E
06/05/2014	00:09:06.851	$GPGGA,000907,2514.5932,N,08007.5141,W,1,10,1.5,22,M,,M,,*6A
06/05/2014	00:09:07.749	$GPGGA,000908,2514.5927,N,08007.5139,W,1,10,1.5,22,M,,M,,*6E
06/05/2014	00:09:08.849	$GPGGA,000909,2514.5922,N,08007.5137,W,1,10,1.5,22,M,,M,,*64
06/05/2014	00:09:09.848	$GPGGA,000910,2514.5916,N,08007.5136,W,1,10,1.5,22,M,,M,,*6A
06/05/2014	00:09:10.888	$GPGGA,000911,2514.5912,N,08007.5138,W,1,10,1.5,22,M,,M,,*61
06/05/2014	00:09:11.786	$GPGGA,000912,2514.5908,N,08007.5137,W,1,10,1.5,22,M,,M,,*66
06/05/2014	00:09:12.785	$GPGGA,000913,2514.5903,N,08007.5135,W,1,10,1.5,22,M,,M,,*6E
06/05/2014	00:09:13.875	$GPGGA,000914,2514.5898,N,08007.5137,W,1,10,1.5,22,M,,M,,*68
06/05/2014	00:09:14.794	$GPGGA,000915,2514.5894,N,08007.5138,W,1,10,1.5,22,M,,M,,*6A
06/05/2014	00:09:15.804	$GPGGA,000916,2514.5889,N,08007.5136,W,1,10,1.5,22,M,,M,,*6B
06/05/2014	00:09:16.801	$GPGGA,000917,2514.5885,N,08007.5137,W,1,9,1.5,22,M,,M,,*5F
06/05/2014	00:09:17.922	$GPGGA,000918,2514.5880,N,08007.5139,W,1,9,1.5,22,M,,M,,*5B
06/05/2014	00:09:18.911	$GPGGA,000919,2514.5875,N,08007.5139,W,1,9,1.5,22,M,,M,,*50
06/05/2014	00:09:19.930	$GPGGA,000920,2514.5871,N,08007.5137,W,1,9,1.6,21,M,,M,,*50
06/05/2014	00:09:20.950	$GPGGA,000921,2514.5867,N,08007.5141,W,1,8,1.6,21,M,,M,,*56
06/05/2014	00:09:21.939	$GPGGA,000922,2514.5865,N,08007.5145,W,1,8,1.5,21,M,,M,,*50
06/05/2014	00:09:22.978	$GPGGA,000923,2514.5860,N,08007.5143,W,1,9,1.5,21,M,,M,,*53
06/05/2014	00:09:23.978	$GPGGA,000924,2514.5860,N,08007.5146,W,1,9,1.9,21,M,,M,,*5D
06/05/2014	00:09:24.977	$GPGGA,000925,2514.5856,N,08007.5150,W,1,7,1.8,21,M,,M,,*51
06/05/2014	00:09:25.966	$GPGGA,000926,2514.5854,N,08007.5155,W,1,7,1.5,21,M,,M,,*58
06/05/2014	00:09:26.975	$GPGGA,000927,2514.5849,N,08007.5154,W,1,10,1.5,21,M,,M,,*62
06/05/2014	00:09:27.995	$GPGGA,000928,2514.5847,N,08007.5156,W,1,10,1.5,21,M,,M,,*61
06/05/2014	00:09:29.014	$GPGGA,000929,2514.5846,N,08007.5163,W,1,10,1.5,21,M,,M,,*67
06/05/2014	00:09:30.004	$GPGGA,000930,2514.5843,N,08007.5166,W,1,10,1.5,22,M,,M,,*6C
06/05/2014	00:09:31.022	$GPGGA,000931,2514.5839,N,08007.5166,W,1,10,1.5,22,M,,M,,*60
06/05/2014	00:09:32.012	$GPGGA,000932,2514.5837,N,08007.5167,W,1,10,1.5,22,M,,M,,*6C
06/05/2014	00:09:32.484	$GPGGA,000933,2514.5836,N,08007.5173,W,1,10,1.5,22,M,,M,,*69
06/05/2014	00:09:33.473	$GPGGA,000934,2514.5835,N,08007.5177,W,1,10,1.5,22,M,,M,,*69
06/05/2014	00:09:34.471	$GPGGA,000935,2514.5832,N,08007.5177,W,1,10,1.5,22,M,,M,,*6F
06/05/2014	00:09:35.481	$GPGGA,000936,2514.5831,N,08007.5180,W,1,10,1.5,22,M,,M,,*67
06/05/2014	00:09:36.510	$GPGGA,000937,2514.5829,N,08007.5184,W,1,10,1.5,22,M,,M,,*6B
06/05/2014	00:09:37.499	$GPGGA,000938,2514.5827,N,08007.5188,W,1,10,1.5,22,M,,M,,*66
06/05/2014	00:09:38.498	$GPGGA,000939,2514.5824,N,08007.5189,W,1,10,1.5,22,M,,M,,*65
06/05/2014	00:09:39.528	$GPGGA,000940,2514.5824,N,08007.5193,W,1,10,1.5,22,M,,M,,*60
06/05/2014	00:09:40.547	$GPGGA,000941,2514.5824,N,08007.5199,W,1,10,1.5,22,M,,M,,*6B
06/05/2014	00:09:41.516	$GPGGA,000942,2514.5824,N,08007.5202,W,1,10,1.5,22,M,,M,,*69
06/05/2014	00:09:42.566	$GPGGA,000943,2514.5822,N,08007.5203,W,1,9,1.5,22,M,,M,,*57
06/05/2014	00:09:43.555	$GPGGA,000944,2514.5823,N,08007.5209,W,1,9,1.5,22,M,,M,,*5B
06/05/2014	00:09:44.544	$GPGGA,000945,2514.5821,N,08007.5214,W,1,10,1.5,22,M,,M,,*6C
06/05/2014	00:09:45.553	$GPGGA,000946,2514.5822,N,08007.5217,W,1,10,1.5,22,M,,M,,*6F
06/05/2014	00:09:46.593	$GPGGA,000947,2514.5821,N,08007.5222,W,1,10,1.5,22,M,,M,,*6B
06/05/2014	00:09:47.572	$GPGGA,000948,2514.5823,N,08007.5228,W,1,10,1.5,22,M,,M,,*6C
06/05/2014	00:09:48.754	$GPGGA,000949,2514.5822,N,08007.5235,W,1,9,1.5,22,M,,M,,*58
06/05/2014	00:09:49.581	$GPGGA,000950,2514.5821,N,08007.5240,W,1,9,1.5,22,M,,M,,*51
06/05/2014	00:09:50.772	$GPGGA,000951,2514.5822,N,08007.5246,W,1,9,1.5,22,M,,M,,*55
06/05/2014	00:09:51.608	$GPGGA,000952,2514.5824,N,08007.5249,W,1,9,1.5,22,M,,M,,*5F
06/05/2014	00:09:52.789	$GPGGA,000953,2514.5827,N,08007.5254,W,1,9,1.5,22,M,,M,,*51
06/05/2014	00:09:53.748	$GPGGA,000954,2514.5829,N,08007.5260,W,1,9,1.5,22,M,,M,,*5F
06/05/2014	00:09:54.616	$GPGGA,000955,2514.5830,N,08007.5265,W,1,10,1.5,22,M,,M,,*6B
06/05/2014	00:09:55.645	$GPGGA,000956,2514.5831,N,08007.5271,W,1,10,1.5,22,M,,M,,*6C
06/05/2014	00:09:56.624	$GPGGA,000957,2514.5831,N,08007.5278,W,1,10,1.5,22,M,,M,,*64
06/05/2014	00:09:57.654	$GPGGA,000958,2514.5833,N,08007.5283,W,1,10,1.5,22,M,,M,,*6D
06/05/2014	00:09:58.845	$GPGGA,000959,2514.5832,N,08007.5289,W,1,10,1.5,22,M,,M,,*67
06/05/2014	00:09:59.763	$GPGGA,001000,2514.5835,N,08007.5294,W,1,10,1.5,22,M,,M,,*68
06/05/2014	00:10:00.672	$GPGGA,001001,2514.5837,N,08007.5300,W,1,10,1.5,22,M,,M,,*67
06/05/2014	00:10:01.762	$GPGGA,001002,2514.5838,N,08007.5304,W,1,10,1.5,22,M,,M,,*6F
06/05/2014	00:10:02.690	$GPGGA,001003,2514.5842,N,08007.5311,W,1,10,1.5,22,M,,M,,*67
06/05/2014	00:10:03.841	$GPGGA,001004,2514.5845,N,08007.5316,W,1,10,1.5,22,M,,M,,*60
06/05/2014	00:10:04.901	$GPGGA,001005,2514.5848,N,08007.5322,W,1,10,1.5,22,M,,M,,*6B
06/05/2014	00:10:05.829	$GPGGA,001006,2514.5849,N,08007.5327,W,1,10,1.5,22,M,,M,,*6C
06/05/2014	00:10:06.899	$GPGGA,001007,2514.5852,N,08007.5333,W,1,9,1.5,22,M,,M,,*5A
06/05/2014	00:10:07.848	$GPGGA,001008,2514.5855,N,08007.5340,W,1,9,1.5,22,M,,M,,*56
06/05/2014	00:10:08.817	$GPGGA,001009,2514.5856,N,08007.5344,W,1,9,1.5,22,M,,M,,*50
06/05/2014	00:10:09.815	$GPGGA,001010,2514.5860,N,08007.5350,W,1,9,1.5,22,M,,M,,*58
06/05/2014	00:10:12.379	$GPGGA,001012,2514.5867,N,08007.5363,W,1,10,1.5,22,M,,M,,*65
06/05/2014	00:10:12.964	$GPGGA,001013,2514.5869,N,08007.5368,W,1,10,1.5,22,M,,M,,*61
06/05/2014	00:10:13.852	$GPGGA,001014,2514.5871,N,08007.5374,W,1,10,1.5,22,M,,M,,*62
06/05/2014	00:10:14.962	$GPGGA,001015,2514.5876,N,08007.5381,W,1,10,1.5,22,M,,M,,*6E
06/05/2014	00:10:15.901	$GPGGA,001016,2514.5878,N,08007.5386,W,1,10,1.5,22,M,,M,,*64
06/05/2014	00:10:16.870	$GPGGA,001017,2514.5880,N,08007.5391,W,1,8,1.7,22,M,,M,,*5F
06/05/2014	00:10:17.920	$GPGGA,001018,2514.5882,N,08007.5399,W,1,8,1.5,22,M,,M,,*58
06/05/2014	00:10:18.959	$GPGGA,001019,2514.5885,N,08007.5405,W,1,9,1.5,22,M,,M,,*5D
06/05/2014	00:10:19.928	$GPGGA,001020,2514.5887,N,08007.5410,W,1,9,1.5,22,M,,M,,*51
06/05/2014	00:10:21.018	$GPGGA,001021,2514.5889,N,08007.5415,W,1,10,1.5,22,M,,M,,*63
06/05/2014	00:10:21.937	$GPGGA,001022,2514.5892,N,08007.5421,W,1,10,1.5,22,M,,M,,*6D
06/05/2014	00:10:22.916	$GPGGA,001023,2514.5895,N,08007.5427,W,1,9,1.5,22,M,,M,,*55
06/05/2014	00:10:23.965	$GPGGA,001024,2514.5896,N,08007.5433,W,1,9,1.5,23,M,,M,,*55
06/05/2014	00:10:25.025	$GPGGA,001025,2514.5899,N,08007.5437,W,1,10,1.5,23,M,,M,,*67
06/05/2014	00:10:25.964	$GPGGA,001026,2514.5903,N,08007.5444,W,1,10,1.5,23,M,,M,,*62
06/05/2014	00:10:27.063	$GPGGA,001027,2514.5905,N,08007.5449,W,1,10,1.5,23,M,,M,,*68
06/05/2014	00:10:27.992	$GPGGA,001028,2514.5907,N,08007.5455,W,1,10,1.5,23,M,,M,,*68
06/05/2014	00:10:29.071	$GPGGA,001029,2514.5909,N,08007.5460,W,1,10,1.5,23,M,,M,,*61
06/05/2014	00:10:30.000	$GPGGA,001030,2514.5914,N,08007.5466,W,1,10,2.4,23,M,,M,,*61
06/05/2014	00:10:30.969	$GPGGA,001031,2514.5916,N,08007.5470,W,1,8,2.4,23,M,,M,,*5C
06/05/2014	00:10:32.029	$GPGGA,001032,2514.5918,N,08007.5474,W,1,8,1.8,23,M,,M,,*5A
06/05/2014	00:10:32.552	$GPGGA,001033,2514.5921,N,08007.5480,W,1,10,1.5,23,M,,M,,*6E
06/05/2014	00:10:33.440	$GPGGA,001034,2514.5924,N,08007.5484,W,1,10,1.8,23,M,,M,,*65
06/05/2014	00:10:34.550	$GPGGA,001035,2514.5927,N,08007.5488,W,1,10,1.5,23,M,,M,,*66
06/05/2014	00:10:35.489	$GPGGA,001036,2514.5928,N,08007.5491,W,1,10,1.5,23,M,,M,,*62
06/05/2014	00:10:36.458	$GPGGA,001037,2514.5931,N,08007.5495,W,1,10,1.5,23,M,,M,,*6F
06/05/2014	00:10:37.497	$GPGGA,001038,2514.5936,N,08007.5503,W,1,10,1.5,23,M,,M,,*69
06/05/2014	00:10:38.557	$GPGGA,001039,2514.5939,N,08007.5507,W,1,10,1.8,23,M,,M,,*6E
06/05/2014	00:10:39.516	$GPGGA,001040,2514.5941,N,08007.5511,W,1,10,1.8,23,M,,M,,*68
06/05/2014	00:10:40.577	$GPGGA,001041,2514.5943,N,08007.5514,W,1,10,1.5,23,M,,M,,*63
06/05/2014	00:10:41.595	$GPGGA,001042,2514.5946,N,08007.5518,W,1,10,1.5,23,M,,M,,*69
06/05/2014	00:10:42.594	$GPGGA,001043,2514.5947,N,08007.5524,W,1,10,1.5,23,M,,M,,*66
06/05/2014	00:10:43.553	$GPGGA,001044,2514.5950,N,08007.5528,W,1,10,1.5,23,M,,M,,*6B
06/05/2014	00:10:44.602	$GPGGA,001045,2514.5950,N,08007.5531,W,1,10,1.5,23,M,,M,,*62
06/05/2014	00:10:45.621	$GPGGA,001046,2514.5953,N,08007.5535,W,1,10,1.5,23,M,,M,,*66
06/05/2014	00:10:46.529	$GPGGA,001047,2514.5956,N,08007.5539,W,1,10,1.5,23,M,,M,,*6E
06/05/2014	00:10:47.650	$GPGGA,001048,2514.5957,N,08007.5545,W,1,10,1.5,23,M,,M,,*6B
06/05/2014	00:10:48.679	$GPGGA,001049,2514.5960,N,08007.5547,W,1,10,1.5,23,M,,M,,*6C
06/05/2014	00:10:49.588	$GPGGA,001050,2514.5961,N,08007.5551,W,1,10,1.5,23,M,,M,,*62
06/05/2014	00:10:50.708	$GPGGA,001051,2514.5964,N,08007.5556,W,1,10,1.5,23,M,,M,,*61
06/05/2014	00:10:51.677	$GPGGA,001052,2514.5965,N,08007.5560,W,1,10,1.5,23,M,,M,,*66
06/05/2014	00:10:52.727	$GPGGA,001053,2514.5967,N,08007.5564,W,1,10,1.5,23,M,,M,,*61
06/05/2014	00:10:53.675	$GPGGA,001054,2514.5968,N,08007.5567,W,1,10,1.5,23,M,,M,,*6A
06/05/2014	00:10:54.725	$GPGGA,001055,2514.5970,N,08007.5571,W,1,10,1.5,23,M,,M,,*65
06/05/2014	00:10:55.714	$GPGGA,001056,2514.5972,N,08007.5575,W,1,10,1.5,23,M,,M,,*60
06/05/2014	00:10:56.703	$GPGGA,001057,2514.5975,N,08007.5581,W,1,10,1.5,23,M,,M,,*6D
06/05/2014	00:10:57.713	$GPGGA,001058,2514.5975,N,08007.5583,W,1,10,1.5,23,M,,M,,*60
06/05/2014	00:10:58.723	$GPGGA,001059,2514.5976,N,08007.5586,W,1,10,1.5,23,M,,M,,*67
06/05/2014	00:10:59.761	$GPGGA,001100,2514.5979,N,08007.5590,W,1,10,1.5,23,M,,M,,*62
06/05/2014	00:11:00.781	$GPGGA,001101,2514.5981,N,08007.5596,W,1,9,1.5,23,M,,M,,*5A
06/05/2014	00:11:01.739	$GPGGA,001102,2514.5983,N,08007.5600,W,1,9,1.5,23,M,,M,,*57
06/05/2014	00:11:02.768	$GPGGA,001103,2514.5983,N,08007.5603,W,1,10,1.5,23,M,,M,,*6D
06/05/2014	00:11:03.767	$GPGGA,001104,2514.5985,N,08007.5607,W,1,10,1.5,23,M,,M,,*68
06/05/2014	00:11:04.777	$GPGGA,001105,2514.5986,N,08007.5611,W,1,10,1.5,23,M,,M,,*6D
06/05/2014	00:11:05.776	$GPGGA,001106,2514.5986,N,08007.5611,W,1,10,1.5,23,M,,M,,*6E
06/05/2014	00:11:06.815	$GPGGA,001107,2514.5988,N,08007.5614,W,1,9,1.5,23,M,,M,,*5C
06/05/2014	00:11:07.784	$GPGGA,001108,2514.5989,N,08007.5621,W,1,9,1.5,23,M,,M,,*54
06/05/2014	00:11:08.814	$GPGGA,001109,2514.5990,N,08007.5625,W,1,10,1.5,23,M,,M,,*61
06/05/2014	00:11:09.793	$GPGGA,001110,2514.5990,N,08007.5629,W,1,10,1.5,23,M,,M,,*65
06/05/2014	00:11:10.853	$GPGGA,001111,2514.5993,N,08007.5632,W,1,9,1.5,23,M,,M,,*55
06/05/2014	00:11:11.822	$GPGGA,001112,2514.5993,N,08007.5636,W,1,9,1.5,23,M,,M,,*52
06/05/2014	00:11:12.861	$GPGGA,001113,2514.5997,N,08007.5640,W,1,9,1.5,23,M,,M,,*56
06/05/2014	00:11:13.820	$GPGGA,001114,2514.5999,N,08007.5644,W,1,9,1.5,23,M,,M,,*5B
06/05/2014	00:11:14.860	$GPGGA,001115,2514.5998,N,08007.5647,W,1,9,1.5,23,M,,M,,*58
06/05/2014	00:11:15.859	$GPGGA,001116,2514.6000,N,08007.5650,W,1,9,1.5,23,M,,M,,*56
06/05/2014	00:11:16.858	$GPGGA,001117,2514.6000,N,08007.5650,W,1,9,1.5,23,M,,M,,*57
06/05/2014	00:11:17.857	$GPGGA,001118,2514.6003,N,08007.5658,W,1,9,1.5,23,M,,M,,*53
06/05/2014	00:11:18.906	$GPGGA,001119,2514.6004,N,08007.5661,W,1,10,1.5,23,M,,M,,*67
06/05/2014	00:11:19.915	$GPGGA,001120,2514.6003,N,08007.5665,W,1,10,1.5,23,M,,M,,*6E
06/05/2014	00:11:20.884	$GPGGA,001121,2514.6008,N,08007.5670,W,1,8,1.5,23,M,,M,,*59
06/05/2014	00:11:21.873	$GPGGA,001122,2514.6011,N,08007.5675,W,1,8,1.5,23,M,,M,,*57
06/05/2014	00:11:22.963	$GPGGA,001123,2514.6012,N,08007.5679,W,1,10,1.5,23,M,,M,,*60
06/05/2014	00:11:24.034	$GPGGA,001124,2514.6015,N,08007.5683,W,1,10,1.5,23,M,,M,,*65
06/05/2014	00:11:24.972	$GPGGA,001125,2514.6017,N,08007.5686,W,1,10,1.5,23,M,,M,,*63
06/05/2014	00:11:25.941	$GPGGA,001126,2514.6019,N,08007.5690,W,1,10,1.5,23,M,,M,,*69
06/05/2014	00:11:26.940	$GPGGA,001127,2514.6019,N,08007.5690,W,1,9,1.5,23,M,,M,,*50
06/05/2014	00:11:27.939	$GPGGA,001128,2514.6022,N,08007.5694,W,1,9,1.6,23,M,,M,,*50
06/05/2014	00:11:29.059	$GPGGA,001129,2514.6022,N,08007.5701,W,1,9,1.5,23,M,,M,,*5F
06/05/2014	00:11:29.937	$GPGGA,001130,2514.6021,N,08007.5705,W,1,9,1.5,23,M,,M,,*50
06/05/2014	00:11:30.967	$GPGGA,001131,2514.6021,N,08007.5705,W,1,10,1.5,23,M,,M,,*69
06/05/2014	00:11:32.087	$GPGGA,001132,2514.6020,N,08007.5708,W,1,10,1.5,23,M,,M,,*66
06/05/2014	00:11:32.541	$GPGGA,001133,2514.6021,N,08007.5713,W,1,10,1.5,23,M,,M,,*6C
06/05/2014	00:11:33.419	$GPGGA,001134,2514.6022,N,08007.5719,W,1,10,1.5,23,M,,M,,*62
06/05/2014	00:11:34.530	$GPGGA,001135,2514.6021,N,08007.5720,W,1,10,1.5,23,M,,M,,*6A
06/05/2014	00:11:35.548	$GPGGA,001136,2514.6020,N,08007.5722,W,1,10,1.5,23,M,,M,,*6A
06/05/2014	00:11:36.446	$GPGGA,001137,2514.6020,N,08007.5722,W,1,10,1.5,23,M,,M,,*6B
06/05/2014	00:11:37.536	$GPGGA,001138,2514.6022,N,08007.5730,W,1,10,1.5,23,M,,M,,*65
06/05/2014	00:11:38.585	$GPGGA,001139,2514.6023,N,08007.5733,W,1,10,1.5,23,M,,M,,*66
06/05/2014	00:11:39.473	$GPGGA,001140,2514.6023,N,08007.5734,W,1,10,1.5,23,M,,M,,*6F
06/05/2014	00:11:40.594	$GPGGA,001141,2514.6023,N,08007.5737,W,1,10,1.5,23,M,,M,,*6D
06/05/2014	00:11:41.583	$GPGGA,001142,2514.6023,N,08007.5740,W,1,10,1.5,23,M,,M,,*6E
06/05/2014	00:11:42.592	$GPGGA,001143,2514.6023,N,08007.5744,W,1,10,1.5,23,M,,M,,*6B
06/05/2014	00:11:43.612	$GPGGA,001144,2514.6022,N,08007.5746,W,1,10,1.5,23,M,,M,,*6F
