Software Version Number: 1	Data File Format Number: 1	Build Version Number: 1	Error Count Since VI Started: 0	Manufacturer: Raytheon	 Model Number: RayMarine 120	 S/N: 	 Cal Date: 	 Wind Direction Offset: 0.00	 Slope (M)1: 0.00	 Offset (B)1: 0.00	 Slope (M)2: 0.00	 Offset (B)2: 0.00	 Slope (M)3: 0.00	 Offset (B)3: 0.00	 Slope (M)4: 0.00	 Offset (B)4: 0.00	 Slope (M)5: 0.00	 Offset (B)5: 0.00	 Slope (M)6: 0.00	 Offset (B)6: 0.00
Computer Date	Computer Time	GGA String
06/12/2014	22:00:00.321	$GPGGA,220000,2522.9708,N,08003.0042,W,1,10,1.4,20,M,,M,,*6A
06/12/2014	22:00:01.414	$GPGGA,220001,2522.9702,N,08003.0043,W,1,10,1.4,20,M,,M,,*60
06/12/2014	22:00:02.463	$GPGGA,220002,2522.9695,N,08003.0043,W,1,10,1.4,20,M,,M,,*6C
06/12/2014	22:00:03.551	$GPGGA,220003,2522.9690,N,08003.0042,W,1,9,1.5,20,M,,M,,*50
06/12/2014	22:00:04.650	$GPGGA,220004,2522.9684,N,08003.0043,W,1,9,1.4,20,M,,M,,*52
06/12/2014	22:00:05.743	$GPGGA,220005,2522.9679,N,08003.0044,W,1,10,1.4,20,M,,M,,*6E
06/12/2014	22:00:06.804	$GPGGA,220006,2522.9673,N,08003.0044,W,1,10,1.4,20,M,,M,,*67
06/12/2014	22:00:07.897	$GPGGA,220007,2522.9668,N,08003.0044,W,1,10,1.4,21,M,,M,,*6D
06/12/2014	22:00:08.947	$GPGGA,220008,2522.9662,N,08003.0044,W,1,10,1.4,21,M,,M,,*68
06/12/2014	22:00:10.062	$GPGGA,220009,2522.9657,N,08003.0043,W,1,9,1.4,21,M,,M,,*50
06/12/2014	22:00:11.118	$GPGGA,220010,2522.9650,N,08003.0044,W,1,9,1.4,21,M,,M,,*58
06/12/2014	22:00:12.216	$GPGGA,220011,2522.9643,N,08003.0045,W,1,9,1.5,21,M,,M,,*5B
06/12/2014	22:00:13.276	$GPGGA,220012,2522.9637,N,08003.0047,W,1,9,1.4,21,M,,M,,*58
06/12/2014	22:00:14.359	$GPGGA,220013,2522.9630,N,08003.0046,W,1,9,1.5,21,M,,M,,*5E
06/12/2014	22:00:15.430	$GPGGA,220014,2522.9624,N,08003.0047,W,1,9,1.5,21,M,,M,,*5D
06/12/2014	22:00:16.621	$GPGGA,220015,2522.9619,N,08003.0047,W,1,10,1.4,21,M,,M,,*6B
06/12/2014	22:00:17.596	$GPGGA,220016,2522.9613,N,08003.0046,W,1,10,1.4,21,M,,M,,*63
06/12/2014	22:00:18.671	$GPGGA,220017,2522.9607,N,08003.0045,W,1,10,1.4,21,M,,M,,*64
06/12/2014	22:00:19.760	$GPGGA,220018,2522.9601,N,08003.0045,W,1,10,1.4,21,M,,M,,*6D
06/12/2014	22:00:20.972	$GPGGA,220019,2522.9595,N,08003.0044,W,1,9,1.4,21,M,,M,,*5B
06/12/2014	22:00:21.924	$GPGGA,220020,2522.9588,N,08003.0044,W,1,9,1.4,21,M,,M,,*5D
06/12/2014	22:00:23.108	$GPGGA,220021,2522.9582,N,08003.0043,W,1,10,1.4,21,M,,M,,*69
06/12/2014	22:00:24.086	$GPGGA,220022,2522.9575,N,08003.0042,W,1,10,1.4,21,M,,M,,*63
06/12/2014	22:00:25.257	$GPGGA,220023,2522.9568,N,08003.0043,W,1,10,1.4,21,M,,M,,*6F
06/12/2014	22:00:26.352	$GPGGA,220024,2522.9563,N,08003.0041,W,1,10,1.4,21,M,,M,,*61
06/12/2014	22:00:27.411	$GPGGA,220025,2522.9556,N,08003.0040,W,1,10,1.4,21,M,,M,,*67
06/12/2014	22:00:28.396	$GPGGA,220026,2522.9548,N,08003.0040,W,1,10,1.4,21,M,,M,,*6B
06/12/2014	22:00:29.565	$GPGGA,220027,2522.9542,N,08003.0039,W,1,10,1.4,21,M,,M,,*6E
06/12/2014	22:00:30.561	$GPGGA,220028,2522.9535,N,08003.0038,W,1,10,1.4,21,M,,M,,*60
06/12/2014	22:00:31.773	$GPGGA,220029,2522.9529,N,08003.0038,W,1,10,1.4,21,M,,M,,*6C
06/12/2014	22:00:32.823	$GPGGA,220030,2522.9523,N,08003.0037,W,1,10,1.4,21,M,,M,,*61
06/12/2014	22:00:33.895	$GPGGA,220031,2522.9516,N,08003.0035,W,1,10,1.4,21,M,,M,,*64
06/12/2014	22:00:34.988	$GPGGA,220032,2522.9509,N,08003.0036,W,1,10,1.4,21,M,,M,,*6A
06/12/2014	22:00:36.071	$GPGGA,220033,2522.9502,N,08003.0034,W,1,10,1.4,21,M,,M,,*62
06/12/2014	22:00:37.142	$GPGGA,220034,2522.9495,N,08003.0033,W,1,10,1.4,21,M,,M,,*6D
06/12/2014	22:00:38.235	$GPGGA,220035,2522.9489,N,08003.0032,W,1,10,1.4,21,M,,M,,*60
06/12/2014	22:00:39.308	$GPGGA,220036,2522.9483,N,08003.0031,W,1,10,1.4,21,M,,M,,*6A
06/12/2014	22:00:40.367	$GPGGA,220037,2522.9477,N,08003.0029,W,1,10,1.4,21,M,,M,,*69
06/12/2014	22:00:41.460	$GPGGA,220038,2522.9470,N,08003.0028,W,1,10,1.4,21,M,,M,,*60
06/12/2014	22:00:42.564	$GPGGA,220039,2522.9464,N,08003.0027,W,1,10,1.4,21,M,,M,,*6B
06/12/2014	22:00:43.636	$GPGGA,220040,2522.9458,N,08003.0027,W,1,10,1.4,21,M,,M,,*6A
06/12/2014	22:00:44.718	$GPGGA,220041,2522.9451,N,08003.0026,W,1,10,1.4,21,M,,M,,*63
06/12/2014	22:00:45.789	$GPGGA,220042,2522.9445,N,08003.0024,W,1,10,1.4,21,M,,M,,*67
06/12/2014	22:00:46.850	$GPGGA,220043,2522.9440,N,08003.0023,W,1,10,1.4,21,M,,M,,*64
06/12/2014	22:00:47.954	$GPGGA,220044,2522.9433,N,08003.0022,W,1,10,1.4,21,M,,M,,*66
06/12/2014	22:00:49.004	$GPGGA,220045,2522.9426,N,08003.0021,W,1,10,1.4,21,M,,M,,*60
06/12/2014	22:00:50.108	$GPGGA,220046,2522.9420,N,08003.0022,W,1,10,1.4,21,M,,M,,*66
06/12/2014	22:00:46.500	$GPGGA,220047,2522.9413,N,08003.0019,W,1,10,1.4,21,M,,M,,*6F
06/12/2014	22:00:47.614	$GPGGA,220048,2522.9408,N,08003.0018,W,1,10,1.4,21,M,,M,,*6B
06/12/2014	22:00:48.664	$GPGGA,220049,2522.9401,N,08003.0017,W,1,10,1.4,21,M,,M,,*6C
06/12/2014	22:00:49.757	$GPGGA,220050,2522.9394,N,08003.0016,W,1,10,1.4,21,M,,M,,*6E
06/12/2014	22:00:50.861	$GPGGA,220051,2522.9388,N,08003.0015,W,1,10,1.4,21,M,,M,,*61
06/12/2014	22:00:51.922	$GPGGA,220052,2522.9381,N,08003.0014,W,1,10,1.4,21,M,,M,,*6A
06/12/2014	22:00:52.983	$GPGGA,220053,2522.9375,N,08003.0013,W,1,10,1.4,21,M,,M,,*67
06/12/2014	22:00:54.078	$GPGGA,220054,2522.9368,N,08003.0012,W,1,10,1.4,21,M,,M,,*6D
06/12/2014	22:00:55.266	$GPGGA,220055,2522.9362,N,08003.0010,W,1,10,1.4,21,M,,M,,*64
06/12/2014	22:00:56.240	$GPGGA,220056,2522.9355,N,08003.0009,W,1,10,1.4,21,M,,M,,*6B
06/12/2014	22:00:57.345	$GPGGA,220057,2522.9350,N,08003.0009,W,1,10,1.4,21,M,,M,,*6F
06/12/2014	22:00:58.383	$GPGGA,220058,2522.9342,N,08003.0007,W,1,10,1.4,21,M,,M,,*6D
06/12/2014	22:00:59.476	$GPGGA,220059,2522.9335,N,08003.0007,W,1,10,1.4,21,M,,M,,*6C
06/12/2014	22:01:00.699	$GPGGA,220100,2522.9328,N,08003.0004,W,1,10,1.4,21,M,,M,,*6E
06/12/2014	22:01:01.641	$GPGGA,220101,2522.9321,N,08003.0002,W,1,10,1.4,21,M,,M,,*60
06/12/2014	22:01:02.712	$GPGGA,220102,2522.9314,N,08003.0001,W,1,10,1.4,21,M,,M,,*66
06/12/2014	22:01:03.795	$GPGGA,220103,2522.9307,N,08002.9999,W,1,10,1.4,21,M,,M,,*65
06/12/2014	22:01:04.899	$GPGGA,220104,2522.9301,N,08003.0000,W,1,10,1.4,20,M,,M,,*64
06/12/2014	22:01:05.938	$GPGGA,220105,2522.9294,N,08002.9998,W,1,10,1.4,20,M,,M,,*68
06/12/2014	22:01:07.038	$GPGGA,220106,2522.9288,N,08002.9998,W,1,10,1.4,20,M,,M,,*66
06/12/2014	22:01:08.114	$GPGGA,220107,2522.9282,N,08002.9998,W,1,10,1.4,20,M,,M,,*6D
06/12/2014	22:01:09.208	$GPGGA,220108,2522.9276,N,08002.9998,W,1,10,1.4,20,M,,M,,*69
06/12/2014	22:01:10.376	$GPGGA,220109,2522.9270,N,08002.9997,W,1,10,1.4,20,M,,M,,*61
06/12/2014	22:01:11.372	$GPGGA,220110,2522.9264,N,08002.9997,W,1,10,1.4,20,M,,M,,*6C
06/12/2014	22:01:12.422	$GPGGA,220111,2522.9258,N,08002.9998,W,1,10,1.4,20,M,,M,,*6D
06/12/2014	22:01:13.622	$GPGGA,220112,2522.9251,N,08002.9998,W,1,10,1.4,20,M,,M,,*67
06/12/2014	22:01:14.694	$GPGGA,220113,2522.9245,N,08002.9997,W,1,10,1.4,20,M,,M,,*6C
06/12/2014	22:01:15.679	$GPGGA,220114,2522.9239,N,08002.9997,W,1,10,1.4,20,M,,M,,*60
06/12/2014	22:01:16.891	$GPGGA,220115,2522.9234,N,08002.9997,W,1,10,1.4,20,M,,M,,*6C
06/12/2014	22:01:17.952	$GPGGA,220116,2522.9227,N,08002.9997,W,1,10,1.4,20,M,,M,,*6D
06/12/2014	22:01:19.012	$GPGGA,220117,2522.9221,N,08002.9997,W,1,10,1.4,20,M,,M,,*6A
06/12/2014	22:01:20.106	$GPGGA,220118,2522.9216,N,08002.9997,W,1,10,1.4,20,M,,M,,*61
06/12/2014	22:01:21.212	$GPGGA,220119,2522.9209,N,08002.9997,W,1,10,1.4,20,M,,M,,*6E
06/12/2014	22:01:22.270	$GPGGA,220120,2522.9202,N,08002.9997,W,1,10,1.4,20,M,,M,,*6F
06/12/2014	22:01:23.331	$GPGGA,220121,2522.9196,N,08002.9997,W,1,10,1.4,20,M,,M,,*60
06/12/2014	22:01:24.414	$GPGGA,220122,2522.9191,N,08002.9998,W,1,10,1.4,20,M,,M,,*6B
06/12/2014	22:01:25.518	$GPGGA,220123,2522.9186,N,08002.9997,W,1,9,1.5,20,M,,M,,*5A
06/12/2014	22:01:26.578	$GPGGA,220124,2522.9180,N,08002.9997,W,1,9,1.4,20,M,,M,,*5A
06/12/2014	22:01:27.682	$GPGGA,220125,2522.9173,N,08002.9997,W,1,10,1.4,20,M,,M,,*6F
06/12/2014	22:01:28.743	$GPGGA,220126,2522.9166,N,08002.9997,W,1,10,1.5,20,M,,M,,*69
06/12/2014	22:01:29.804	$GPGGA,220127,2522.9162,N,08002.9996,W,1,9,1.5,20,M,,M,,*55
06/12/2014	22:01:30.908	$GPGGA,220128,2522.9155,N,08002.9996,W,1,9,1.4,20,M,,M,,*5F
06/12/2014	22:01:32.001	$GPGGA,220129,2522.9149,N,08002.9997,W,1,10,1.4,20,M,,M,,*6A
06/12/2014	22:01:33.072	$GPGGA,220130,2522.9142,N,08002.9997,W,1,10,1.5,20,M,,M,,*68
06/12/2014	22:01:34.132	$GPGGA,220131,2522.9137,N,08002.9997,W,1,8,1.6,20,M,,M,,*51
06/12/2014	22:01:35.226	$GPGGA,220132,2522.9130,N,08002.9996,W,1,8,1.4,21,M,,M,,*57
06/12/2014	22:01:36.319	$GPGGA,220133,2522.9124,N,08002.9997,W,1,10,1.4,21,M,,M,,*6B
06/12/2014	22:01:37.380	$GPGGA,220134,2522.9118,N,08002.9998,W,1,10,1.4,21,M,,M,,*6C
06/12/2014	22:01:38.484	$GPGGA,220135,2522.9112,N,08002.9998,W,1,10,1.4,21,M,,M,,*67
06/12/2014	22:01:39.555	$GPGGA,220136,2522.9106,N,08003.0000,W,1,10,1.4,21,M,,M,,*61
06/12/2014	22:01:40.648	$GPGGA,220137,2522.9100,N,08002.9999,W,1,10,1.4,21,M,,M,,*67
06/12/2014	22:01:41.699	$GPGGA,220138,2522.9094,N,08003.0000,W,1,10,1.5,21,M,,M,,*64
06/12/2014	22:01:42.813	$GPGGA,220139,2522.9088,N,08003.0001,W,1,10,1.4,21,M,,M,,*68
06/12/2014	22:01:43.863	$GPGGA,220140,2522.9082,N,08003.0001,W,1,10,1.4,21,M,,M,,*6C
06/12/2014	22:01:44.978	$GPGGA,220141,2522.9075,N,08003.0003,W,1,9,1.5,21,M,,M,,*5E
06/12/2014	22:01:46.028	$GPGGA,220142,2522.9069,N,08003.0002,W,1,9,1.5,21,M,,M,,*51
06/12/2014	22:01:47.104	$GPGGA,220143,2522.9063,N,08003.0004,W,1,9,1.5,21,M,,M,,*5C
06/12/2014	22:01:48.193	$GPGGA,220144,2522.9057,N,08003.0003,W,1,9,1.5,21,M,,M,,*5B
06/12/2014	22:01:49.286	$GPGGA,220145,2522.9051,N,08003.0004,W,1,9,1.5,21,M,,M,,*5B
06/12/2014	22:01:50.347	$GPGGA,220146,2522.9045,N,08003.0005,W,1,9,1.5,21,M,,M,,*5C
06/12/2014	22:01:46.475	$GPGGA,220147,2522.9039,N,08003.0005,W,1,9,1.5,21,M,,M,,*56
06/12/2014	22:01:47.569	$GPGGA,220148,2522.9033,N,08003.0007,W,1,9,1.4,21,M,,M,,*50
06/12/2014	22:01:48.629	$GPGGA,220149,2522.9027,N,08003.0006,W,1,9,1.5,21,M,,M,,*54
06/12/2014	22:01:49.723	$GPGGA,220150,2522.9021,N,08003.0007,W,1,9,1.5,21,M,,M,,*5B
06/12/2014	22:01:50.892	$GPGGA,220151,2522.9015,N,08003.0007,W,1,10,1.4,21,M,,M,,*64
06/12/2014	22:01:51.898	$GPGGA,220152,2522.9008,N,08003.0007,W,1,10,1.4,21,M,,M,,*6B
06/12/2014	22:01:53.062	$GPGGA,220153,2522.9003,N,08003.0007,W,1,10,1.4,21,M,,M,,*61
06/12/2014	22:01:54.065	$GPGGA,220154,2522.8996,N,08003.0008,W,1,10,1.4,21,M,,M,,*6D
06/12/2014	22:01:55.221	$GPGGA,220155,2522.8989,N,08003.0008,W,1,10,1.4,21,M,,M,,*62
06/12/2014	22:01:56.314	$GPGGA,220156,2522.8982,N,08003.0007,W,1,10,1.4,21,M,,M,,*65
06/12/2014	22:01:57.278	$GPGGA,220157,2522.8976,N,08003.0008,W,1,10,1.4,21,M,,M,,*60
06/12/2014	22:01:58.371	$GPGGA,220158,2522.8971,N,08003.0008,W,1,10,1.4,21,M,,M,,*68
06/12/2014	22:01:59.562	$GPGGA,220159,2522.8964,N,08003.0008,W,1,10,1.4,21,M,,M,,*6D
06/12/2014	22:02:00.557	$GPGGA,220200,2522.8958,N,08003.0007,W,1,10,1.4,21,M,,M,,*62
06/12/2014	22:02:01.726	$GPGGA,220201,2522.8952,N,08003.0007,W,1,10,1.4,21,M,,M,,*69
06/12/2014	22:02:02.798	$GPGGA,220202,2522.8946,N,08003.0007,W,1,10,1.4,21,M,,M,,*6F
06/12/2014	22:02:03.859	$GPGGA,220203,2522.8940,N,08003.0007,W,1,10,1.4,21,M,,M,,*68
06/12/2014	22:02:04.968	$GPGGA,220204,2522.8934,N,08003.0006,W,1,10,1.4,21,M,,M,,*6D
06/12/2014	22:02:06.064	$GPGGA,220205,2522.8927,N,08003.0007,W,1,10,1.4,21,M,,M,,*6F
06/12/2014	22:02:07.105	$GPGGA,220206,2522.8921,N,08003.0005,W,1,10,1.4,21,M,,M,,*68
06/12/2014	22:02:08.187	$GPGGA,220207,2522.8914,N,08003.0005,W,1,10,1.4,21,M,,M,,*6F
06/12/2014	22:02:09.291	$GPGGA,220208,2522.8909,N,08003.0004,W,1,10,1.4,21,M,,M,,*6D
06/12/2014	22:02:10.374	$GPGGA,220209,2522.8902,N,08003.0003,W,1,10,1.4,21,M,,M,,*60
06/12/2014	22:02:11.424	$GPGGA,220210,2522.8896,N,08003.0004,W,1,10,1.4,21,M,,M,,*63
06/12/2014	22:02:12.506	$GPGGA,220211,2522.8889,N,08003.0002,W,1,10,1.4,21,M,,M,,*6A
06/12/2014	22:02:13.599	$GPGGA,220212,2522.8882,N,08003.0001,W,1,10,1.4,21,M,,M,,*61
06/12/2014	22:02:14.692	$GPGGA,220213,2522.8876,N,08003.0001,W,1,10,1.4,21,M,,M,,*6B
06/12/2014	22:02:15.753	$GPGGA,220214,2522.8870,N,08003.0000,W,1,10,1.8,21,M,,M,,*67
06/12/2014	22:02:16.825	$GPGGA,220215,2522.8863,N,08002.9997,W,1,10,1.4,21,M,,M,,*67
06/12/2014	22:02:17.961	$GPGGA,220216,2522.8856,N,08002.9995,W,1,10,1.4,21,M,,M,,*60
06/12/2014	22:02:18.990	$GPGGA,220217,2522.8849,N,08002.9993,W,1,10,1.4,21,M,,M,,*69
06/12/2014	22:02:20.072	$GPGGA,220218,2522.8842,N,08002.9990,W,1,10,1.4,21,M,,M,,*6E
06/12/2014	22:02:21.176	$GPGGA,220219,2522.8837,N,08002.9989,W,1,10,1.4,21,M,,M,,*65
06/12/2014	22:02:22.250	$GPGGA,220220,2522.8829,N,08002.9987,W,1,10,1.4,21,M,,M,,*6E
06/12/2014	22:02:23.330	$GPGGA,220221,2522.8823,N,08002.9985,W,1,10,1.4,21,M,,M,,*67
06/12/2014	22:02:24.379	$GPGGA,220222,2522.8816,N,08002.9986,W,1,10,1.4,21,M,,M,,*61
06/12/2014	22:02:25.505	$GPGGA,220223,2522.8809,N,08002.9982,W,1,10,1.4,22,M,,M,,*69
06/12/2014	22:02:26.554	$GPGGA,220224,2522.8803,N,08002.9981,W,1,10,1.4,22,M,,M,,*67
06/12/2014	22:02:27.615	$GPGGA,220225,2522.8797,N,08002.9980,W,1,10,1.4,22,M,,M,,*65
06/12/2014	22:02:28.719	$GPGGA,220226,2522.8791,N,08002.9979,W,1,10,1.4,22,M,,M,,*66
06/12/2014	22:02:29.802	$GPGGA,220227,2522.8786,N,08002.9977,W,1,10,1.4,22,M,,M,,*6F
06/12/2014	22:02:31.003	$GPGGA,220228,2522.8779,N,08002.9976,W,1,10,1.4,22,M,,M,,*61
06/12/2014	22:02:32.085	$GPGGA,220229,2522.8772,N,08002.9975,W,1,10,1.4,22,M,,M,,*68
06/12/2014	22:02:33.027	$GPGGA,220230,2522.8766,N,08002.9974,W,1,10,1.4,22,M,,M,,*64
06/12/2014	22:02:34.165	$GPGGA,220231,2522.8761,N,08002.9972,W,1,10,1.4,22,M,,M,,*64
06/12/2014	22:02:35.192	$GPGGA,220232,2522.8754,N,08002.9972,W,1,10,1.4,22,M,,M,,*61
06/12/2014	22:02:36.404	$GPGGA,220233,2522.8747,N,08002.9971,W,1,10,1.4,23,M,,M,,*60
06/12/2014	22:02:37.465	$GPGGA,220234,2522.8741,N,08002.9970,W,1,10,1.4,23,M,,M,,*60
06/12/2014	22:02:38.472	$GPGGA,220235,2522.8736,N,08002.9969,W,1,10,1.4,23,M,,M,,*69
06/12/2014	22:02:39.651	$GPGGA,220236,2522.8728,N,08002.9968,W,1,10,1.4,23,M,,M,,*64
06/12/2014	22:02:40.734	$GPGGA,220237,2522.8722,N,08002.9967,W,1,10,1.4,23,M,,M,,*60
06/12/2014	22:02:41.686	$GPGGA,220238,2522.8716,N,08002.9966,W,1,10,1.4,23,M,,M,,*69
06/12/2014	22:02:42.899	$GPGGA,220239,2522.8710,N,08002.9965,W,1,10,1.4,23,M,,M,,*6D
06/12/2014	22:02:43.850	$GPGGA,220240,2522.8704,N,08002.9964,W,1,10,1.4,23,M,,M,,*67
06/12/2014	22:02:45.030	$GPGGA,220241,2522.8698,N,08002.9963,W,1,10,1.4,23,M,,M,,*65
06/12/2014	22:02:46.100	$GPGGA,220242,2522.8692,N,08002.9962,W,1,10,1.4,23,M,,M,,*6D
06/12/2014	22:02:47.187	$GPGGA,220243,2522.8685,N,08002.9962,W,1,10,1.4,23,M,,M,,*6A
06/12/2014	22:02:48.180	$GPGGA,220244,2522.8679,N,08002.9960,W,1,10,1.4,23,M,,M,,*6C
06/12/2014	22:02:49.360	$GPGGA,220245,2522.8672,N,08002.9960,W,1,10,1.4,23,M,,M,,*66
06/12/2014	22:02:50.409	$GPGGA,220246,2522.8665,N,08002.9959,W,1,10,1.4,23,M,,M,,*69
06/12/2014	22:02:46.593	$GPGGA,220247,2522.8660,N,08002.9960,W,1,10,1.4,23,M,,M,,*67
06/12/2014	22:02:47.654	$GPGGA,220248,2522.8652,N,08002.9958,W,1,10,1.4,23,M,,M,,*62
06/12/2014	22:02:48.747	$GPGGA,220249,2522.8647,N,08002.9957,W,1,10,1.4,23,M,,M,,*68
06/12/2014	22:02:49.797	$GPGGA,220250,2522.8640,N,08002.9957,W,1,10,1.4,23,M,,M,,*67
06/12/2014	22:02:50.903	$GPGGA,220251,2522.8634,N,08002.9956,W,1,10,1.4,23,M,,M,,*64
06/12/2014	22:02:51.975	$GPGGA,220252,2522.8627,N,08002.9957,W,1,10,1.4,23,M,,M,,*64
06/12/2014	22:02:53.044	$GPGGA,220253,2522.8621,N,08002.9956,W,1,10,1.4,23,M,,M,,*62
06/12/2014	22:02:54.116	$GPGGA,220254,2522.8615,N,08002.9957,W,1,10,1.4,23,M,,M,,*63
06/12/2014	22:02:55.198	$GPGGA,220255,2522.8609,N,08002.9955,W,1,10,1.4,23,M,,M,,*6D
06/12/2014	22:02:56.292	$GPGGA,220256,2522.8602,N,08002.9956,W,1,10,1.4,23,M,,M,,*66
06/12/2014	22:02:57.374	$GPGGA,220257,2522.8596,N,08002.9957,W,1,10,1.4,23,M,,M,,*68
06/12/2014	22:02:58.444	$GPGGA,220258,2522.8591,N,08002.9956,W,1,10,1.4,23,M,,M,,*61
06/12/2014	22:02:59.538	$GPGGA,220259,2522.8584,N,08002.9957,W,1,10,1.4,23,M,,M,,*65
06/12/2014	22:03:00.631	$GPGGA,220300,2522.8577,N,08002.9956,W,1,10,1.4,23,M,,M,,*65
06/12/2014	22:03:01.702	$GPGGA,220301,2522.8571,N,08002.9957,W,1,10,1.4,23,M,,M,,*63
06/12/2014	22:03:02.763	$GPGGA,220302,2522.8566,N,08002.9956,W,1,10,1.4,23,M,,M,,*67
06/12/2014	22:03:03.856	$GPGGA,220303,2522.8559,N,08002.9957,W,1,10,1.4,22,M,,M,,*6A
06/12/2014	22:03:04.928	$GPGGA,220304,2522.8553,N,08002.9957,W,1,10,1.4,22,M,,M,,*67
06/12/2014	22:03:05.989	$GPGGA,220305,2522.8548,N,08002.9957,W,1,10,1.4,22,M,,M,,*6C
06/12/2014	22:03:07.083	$GPGGA,220306,2522.8541,N,08002.9957,W,1,10,1.4,22,M,,M,,*66
06/12/2014	22:03:08.186	$GPGGA,220307,2522.8535,N,08002.9958,W,1,10,1.4,22,M,,M,,*6B
06/12/2014	22:03:09.258	$GPGGA,220308,2522.8530,N,08002.9960,W,1,10,1.4,22,M,,M,,*6A
06/12/2014	22:03:10.351	$GPGGA,220309,2522.8523,N,08002.9959,W,1,10,1.4,22,M,,M,,*63
06/12/2014	22:03:11.401	$GPGGA,220310,2522.8516,N,08002.9960,W,1,10,1.4,22,M,,M,,*67
06/12/2014	22:03:12.483	$GPGGA,220311,2522.8512,N,08002.9961,W,1,10,1.4,22,M,,M,,*63
06/12/2014	22:03:13.577	$GPGGA,220312,2522.8504,N,08002.9961,W,1,10,1.4,22,M,,M,,*67
06/12/2014	22:03:14.659	$GPGGA,220313,2522.8498,N,08002.9962,W,1,10,1.4,22,M,,M,,*61
06/12/2014	22:03:15.730	$GPGGA,220314,2522.8492,N,08002.9964,W,1,10,1.4,22,M,,M,,*6A
06/12/2014	22:03:16.833	$GPGGA,220315,2522.8486,N,08002.9962,W,1,10,1.4,22,M,,M,,*68
06/12/2014	22:03:17.905	$GPGGA,220316,2522.8480,N,08002.9964,W,1,10,1.4,22,M,,M,,*6B
06/12/2014	22:03:18.987	$GPGGA,220317,2522.8474,N,08002.9964,W,1,10,1.4,22,M,,M,,*61
06/12/2014	22:03:20.048	$GPGGA,220318,2522.8468,N,08002.9964,W,1,10,1.4,22,M,,M,,*63
06/12/2014	22:03:21.130	$GPGGA,220319,2522.8462,N,08002.9965,W,1,10,1.4,22,M,,M,,*69
06/12/2014	22:03:22.224	$GPGGA,220320,2522.8456,N,08002.9967,W,1,10,1.4,22,M,,M,,*66
06/12/2014	22:03:23.306	$GPGGA,220321,2522.8450,N,08002.9966,W,1,10,1.5,22,M,,M,,*61
06/12/2014	22:03:24.367	$GPGGA,220322,2522.8444,N,08002.9967,W,1,10,1.4,22,M,,M,,*67
06/12/2014	22:03:25.568	$GPGGA,220323,2522.8438,N,08002.9966,W,1,10,1.5,22,M,,M,,*6D
06/12/2014	22:03:26.565	$GPGGA,220324,2522.8432,N,08002.9967,W,1,10,1.5,22,M,,M,,*61
06/12/2014	22:03:27.592	$GPGGA,220325,2522.8427,N,08002.9967,W,1,9,1.5,22,M,,M,,*5C
06/12/2014	22:03:28.805	$GPGGA,220326,2522.8421,N,08002.9968,W,1,9,1.4,21,M,,M,,*54
06/12/2014	22:03:29.898	$GPGGA,220327,2522.8416,N,08002.9968,W,1,10,1.4,21,M,,M,,*69
06/12/2014	22:03:30.883	$GPGGA,220328,2522.8410,N,08002.9967,W,1,10,1.4,21,M,,M,,*6F
06/12/2014	22:03:31.932	$GPGGA,220329,2522.8404,N,08002.9968,W,1,10,1.4,21,M,,M,,*64
06/12/2014	22:03:33.115	$GPGGA,220330,2522.8398,N,08002.9967,W,1,10,1.4,21,M,,M,,*61
06/12/2014	22:03:34.094	$GPGGA,220331,2522.8392,N,08002.9967,W,1,10,1.4,21,M,,M,,*6A
06/12/2014	22:03:35.211	$GPGGA,220332,2522.8386,N,08002.9967,W,1,10,1.4,21,M,,M,,*6C
06/12/2014	22:03:36.261	$GPGGA,220333,2522.8382,N,08002.9967,W,1,10,1.4,21,M,,M,,*69
06/12/2014	22:03:37.432	$GPGGA,220334,2522.8374,N,08002.9966,W,1,10,1.4,21,M,,M,,*66
06/12/2014	22:03:38.545	$GPGGA,220335,2522.8369,N,08002.9967,W,1,10,1.4,21,M,,M,,*6A
06/12/2014	22:03:39.606	$GPGGA,220336,2522.8363,N,08002.9966,W,1,10,1.4,21,M,,M,,*62
06/12/2014	22:03:40.688	$GPGGA,220337,2522.8357,N,08002.9967,W,1,10,1.4,21,M,,M,,*65
06/12/2014	22:03:41.749	$GPGGA,220338,2522.8351,N,08002.9966,W,1,10,1.4,21,M,,M,,*6D
06/12/2014	22:03:42.875	$GPGGA,220339,2522.8345,N,08002.9967,W,1,10,1.4,21,M,,M,,*68
06/12/2014	22:03:43.914	$GPGGA,220340,2522.8339,N,08002.9966,W,1,10,1.4,21,M,,M,,*6C
06/12/2014	22:03:45.010	$GPGGA,220341,2522.8333,N,08002.9967,W,1,10,1.4,21,M,,M,,*66
06/12/2014	22:03:46.068	$GPGGA,220342,2522.8327,N,08002.9965,W,1,10,1.4,21,M,,M,,*62
06/12/2014	22:03:47.175	$GPGGA,220343,2522.8321,N,08002.9965,W,1,10,1.4,21,M,,M,,*65
06/12/2014	22:03:48.243	$GPGGA,220344,2522.8315,N,08002.9965,W,1,10,1.4,21,M,,M,,*65
06/12/2014	22:03:49.327	$GPGGA,220345,2522.8309,N,08002.9964,W,1,10,1.4,21,M,,M,,*68
06/12/2014	22:03:50.387	$GPGGA,220346,2522.8304,N,08002.9964,W,1,10,1.4,21,M,,M,,*66
06/12/2014	22:03:46.549	$GPGGA,220347,2522.8298,N,08002.9964,W,1,10,1.4,21,M,,M,,*63
06/12/2014	22:03:47.620	$GPGGA,220348,2522.8292,N,08002.9963,W,1,10,1.4,21,M,,M,,*61
06/12/2014	22:03:48.714	$GPGGA,220349,2522.8286,N,08002.9964,W,1,10,1.4,21,M,,M,,*62
06/12/2014	22:03:49.762	$GPGGA,220350,2522.8280,N,08002.9963,W,1,10,1.4,21,M,,M,,*6B
06/12/2014	22:03:50.845	$GPGGA,220351,2522.8274,N,08002.9962,W,1,10,1.4,21,M,,M,,*60
06/12/2014	22:03:51.949	$GPGGA,220352,2522.8267,N,08002.9961,W,1,10,1.4,21,M,,M,,*62
06/12/2014	22:03:53.010	$GPGGA,220353,2522.8261,N,08002.9960,W,1,10,1.4,21,M,,M,,*64
06/12/2014	22:03:54.092	$GPGGA,220354,2522.8255,N,08002.9959,W,1,10,1.4,21,M,,M,,*6E
06/12/2014	22:03:55.207	$GPGGA,220355,2522.8248,N,08002.9958,W,1,10,1.4,21,M,,M,,*62
06/12/2014	22:03:56.257	$GPGGA,220356,2522.8241,N,08002.9958,W,1,10,1.4,21,M,,M,,*68
06/12/2014	22:03:57.318	$GPGGA,220357,2522.8235,N,08002.9957,W,1,10,1.4,21,M,,M,,*65
06/12/2014	22:03:58.411	$GPGGA,220358,2522.8230,N,08002.9956,W,1,10,1.4,20,M,,M,,*6F
06/12/2014	22:03:59.482	$GPGGA,220359,2522.8223,N,08002.9955,W,1,10,1.4,20,M,,M,,*6F
06/12/2014	22:04:00.597	$GPGGA,220400,2522.8216,N,08002.9956,W,1,10,1.4,20,M,,M,,*61
06/12/2014	22:04:01.647	$GPGGA,220401,2522.8210,N,08002.9953,W,1,10,1.4,20,M,,M,,*63
06/12/2014	22:04:02.740	$GPGGA,220402,2522.8203,N,08002.9952,W,1,10,1.4,20,M,,M,,*63
06/12/2014	22:04:03.942	$GPGGA,220403,2522.8197,N,08002.9953,W,1,10,1.4,20,M,,M,,*6D
06/12/2014	22:04:04.905	$GPGGA,220404,2522.8191,N,08002.9951,W,1,10,1.4,20,M,,M,,*6E
06/12/2014	22:04:06.075	$GPGGA,220405,2522.8184,N,08002.9950,W,1,10,1.4,20,M,,M,,*6A
06/12/2014	22:04:07.157	$GPGGA,220406,2522.8178,N,08002.9950,W,1,10,1.4,20,M,,M,,*6A
06/12/2014	22:04:08.135	$GPGGA,220407,2522.8172,N,08002.9949,W,1,10,1.4,20,M,,M,,*69
06/12/2014	22:04:09.234	$GPGGA,220408,2522.8166,N,08002.9948,W,1,10,1.4,20,M,,M,,*62
06/12/2014	22:04:10.316	$GPGGA,220409,2522.8161,N,08002.9949,W,1,10,1.4,20,M,,M,,*65
06/12/2014	22:04:11.467	$GPGGA,220410,2522.8154,N,08002.9947,W,1,10,1.4,20,M,,M,,*65
06/12/2014	22:04:12.589	$GPGGA,220411,2522.8148,N,08002.9947,W,1,10,1.4,20,M,,M,,*69
06/12/2014	22:04:13.531	$GPGGA,220412,2522.8141,N,08002.9946,W,1,10,1.4,20,M,,M,,*62
06/12/2014	22:04:14.624	$GPGGA,220413,2522.8136,N,08002.9945,W,1,10,1.4,20,M,,M,,*60
06/12/2014	22:04:15.804	$GPGGA,220414,2522.8129,N,08002.9946,W,1,10,1.4,20,M,,M,,*6A
06/12/2014	22:04:16.875	$GPGGA,220415,2522.8122,N,08002.9945,W,1,10,1.4,20,M,,M,,*63
06/12/2014	22:04:17.852	$GPGGA,220416,2522.8116,N,08002.9944,W,1,10,1.4,20,M,,M,,*66
06/12/2014	22:04:19.073	$GPGGA,220417,2522.8109,N,08002.9946,W,1,10,1.4,20,M,,M,,*6B
06/12/2014	22:04:20.014	$GPGGA,220418,2522.8103,N,08002.9944,W,1,10,1.4,20,M,,M,,*6C
06/12/2014	22:04:21.195	$GPGGA,220419,2522.8097,N,08002.9944,W,1,10,1.4,20,M,,M,,*61
06/12/2014	22:04:22.179	$GPGGA,220420,2522.8091,N,08002.9944,W,1,10,1.4,20,M,,M,,*6D
06/12/2014	22:04:23.348	$GPGGA,220421,2522.8085,N,08002.9944,W,1,10,1.4,20,M,,M,,*69
06/12/2014	22:04:24.431	$GPGGA,220422,2522.8079,N,08002.9944,W,1,10,1.4,20,M,,M,,*69
06/12/2014	22:04:25.417	$GPGGA,220423,2522.8072,N,08002.9944,W,1,10,1.4,20,M,,M,,*63
06/12/2014	22:04:26.650	$GPGGA,220424,2522.8066,N,08002.9944,W,1,10,1.4,20,M,,M,,*61
06/12/2014	22:04:27.698	$GPGGA,220425,2522.8060,N,08002.9944,W,1,10,1.4,20,M,,M,,*66
06/12/2014	22:04:28.759	$GPGGA,220426,2522.8053,N,08002.9944,W,1,10,1.4,20,M,,M,,*65
06/12/2014	22:04:29.842	$GPGGA,220427,2522.8047,N,08002.9944,W,1,10,1.4,20,M,,M,,*61
06/12/2014	22:04:30.925	$GPGGA,220428,2522.8040,N,08002.9944,W,1,10,1.4,20,M,,M,,*69
06/12/2014	22:04:32.025	$GPGGA,220429,2522.8035,N,08002.9946,W,1,10,1.4,20,M,,M,,*68
06/12/2014	22:04:33.078	$GPGGA,220430,2522.8028,N,08002.9944,W,1,10,1.4,20,M,,M,,*6E
06/12/2014	22:04:34.182	$GPGGA,220431,2522.8022,N,08002.9946,W,1,10,1.4,20,M,,M,,*67
06/12/2014	22:04:35.254	$GPGGA,220432,2522.8015,N,08002.9946,W,1,10,1.4,20,M,,M,,*60
06/12/2014	22:04:36.347	$GPGGA,220433,2522.8009,N,08002.9946,W,1,10,1.4,20,M,,M,,*6C
06/12/2014	22:04:37.387	$GPGGA,220434,2522.8003,N,08002.9946,W,1,10,1.4,20,M,,M,,*61
06/12/2014	22:04:38.501	$GPGGA,220435,2522.7996,N,08002.9947,W,1,10,1.4,20,M,,M,,*6B
06/12/2014	22:04:39.572	$GPGGA,220436,2522.7990,N,08002.9949,W,1,10,1.4,20,M,,M,,*60
06/12/2014	22:04:40.633	$GPGGA,220437,2522.7984,N,08002.9947,W,1,10,1.4,20,M,,M,,*6A
06/12/2014	22:04:41.726	$GPGGA,220438,2522.7977,N,08002.9949,W,1,10,1.4,20,M,,M,,*67
06/12/2014	22:04:42.819	$GPGGA,220439,2522.7971,N,08002.9949,W,1,10,1.4,20,M,,M,,*60
06/12/2014	22:04:43.891	$GPGGA,220440,2522.7966,N,08002.9949,W,1,10,1.4,20,M,,M,,*68
06/12/2014	22:04:44.985	$GPGGA,220441,2522.7959,N,08002.9950,W,1,9,1.5,20,M,,M,,*54
06/12/2014	22:04:46.033	$GPGGA,220442,2522.7953,N,08002.9951,W,1,9,1.4,20,M,,M,,*5D
06/12/2014	22:04:47.137	$GPGGA,220443,2522.7946,N,08002.9951,W,1,10,1.4,20,M,,M,,*60
06/12/2014	22:04:48.241	$GPGGA,220444,2522.7941,N,08002.9951,W,1,10,1.5,20,M,,M,,*61
06/12/2014	22:04:49.270	$GPGGA,220445,2522.7935,N,08002.9953,W,1,10,1.4,20,M,,M,,*60
06/12/2014	22:04:50.363	$GPGGA,220446,2522.7930,N,08002.9953,W,1,10,1.5,20,M,,M,,*67
06/12/2014	22:04:46.536	$GPGGA,220447,2522.7923,N,08002.9953,W,1,10,1.4,20,M,,M,,*65
06/12/2014	22:04:47.596	$GPGGA,220448,2522.7917,N,08002.9953,W,1,10,1.4,19,M,,M,,*67
06/12/2014	22:04:48.690	$GPGGA,220449,2522.7912,N,08002.9954,W,1,10,1.4,19,M,,M,,*64
06/12/2014	22:04:49.725	$GPGGA,220450,2522.7906,N,08002.9954,W,1,10,1.4,19,M,,M,,*69
06/12/2014	22:04:50.766	$GPGGA,220451,2522.7899,N,08002.9956,W,1,10,1.4,19,M,,M,,*6D
06/12/2014	22:04:51.797	$GPGGA,220452,2522.7894,N,08002.9955,W,1,10,1.4,19,M,,M,,*60
06/12/2014	22:04:52.932	$GPGGA,220453,2522.7887,N,08002.9956,W,1,10,1.4,19,M,,M,,*60
06/12/2014	22:04:53.953	$GPGGA,220454,2522.7881,N,08002.9957,W,1,10,1.4,19,M,,M,,*60
06/12/2014	22:04:54.912	$GPGGA,220455,2522.7876,N,08002.9956,W,1,10,1.4,19,M,,M,,*68
06/12/2014	22:04:55.912	$GPGGA,220456,2522.7869,N,08002.9957,W,1,10,1.4,19,M,,M,,*64
06/12/2014	22:04:56.929	$GPGGA,220457,2522.7863,N,08002.9957,W,1,10,1.4,19,M,,M,,*6F
06/12/2014	22:04:58.084	$GPGGA,220458,2522.7858,N,08002.9957,W,1,10,1.4,19,M,,M,,*68
06/12/2014	22:04:59.120	$GPGGA,220459,2522.7851,N,08002.9958,W,1,10,1.4,19,M,,M,,*6F
06/12/2014	22:05:00.046	$GPGGA,220500,2522.7845,N,08002.9958,W,1,10,1.4,19,M,,M,,*67
06/12/2014	22:05:01.163	$GPGGA,220501,2522.7840,N,08002.9958,W,1,10,1.4,19,M,,M,,*63
06/12/2014	22:05:02.175	$GPGGA,220502,2522.7832,N,08002.9958,W,1,10,1.4,19,M,,M,,*65
06/12/2014	22:05:03.218	$GPGGA,220503,2522.7826,N,08002.9958,W,1,10,1.4,19,M,,M,,*61
06/12/2014	22:05:04.253	$GPGGA,220504,2522.7820,N,08002.9958,W,1,10,1.4,19,M,,M,,*60
06/12/2014	22:05:05.166	$GPGGA,220505,2522.7814,N,08002.9958,W,1,10,1.4,19,M,,M,,*66
06/12/2014	22:05:06.298	$GPGGA,220506,2522.7807,N,08002.9958,W,1,10,1.4,19,M,,M,,*67
06/12/2014	22:05:07.330	$GPGGA,220507,2522.7801,N,08002.9960,W,1,10,1.4,19,M,,M,,*6B
06/12/2014	22:05:08.374	$GPGGA,220508,2522.7795,N,08002.9959,W,1,10,1.4,19,M,,M,,*6C
06/12/2014	22:05:09.391	$GPGGA,220509,2522.7789,N,08002.9958,W,1,10,1.4,19,M,,M,,*61
06/12/2014	22:05:10.410	$GPGGA,220510,2522.7782,N,08002.9960,W,1,10,1.4,19,M,,M,,*69
06/12/2014	22:05:11.353	$GPGGA,220511,2522.7776,N,08002.9958,W,1,10,1.4,19,M,,M,,*68
06/12/2014	22:05:12.497	$GPGGA,220512,2522.7771,N,08002.9958,W,1,10,1.4,19,M,,M,,*6C
06/12/2014	22:05:13.493	$GPGGA,220513,2522.7764,N,08002.9958,W,1,10,1.4,19,M,,M,,*69
06/12/2014	22:05:14.524	$GPGGA,220514,2522.7757,N,08002.9958,W,1,10,1.4,19,M,,M,,*6E
06/12/2014	22:05:15.588	$GPGGA,220515,2522.7750,N,08002.9957,W,1,10,1.4,19,M,,M,,*67
06/12/2014	22:05:16.610	$GPGGA,220516,2522.7744,N,08002.9957,W,1,10,1.4,19,M,,M,,*61
06/12/2014	22:05:17.608	$GPGGA,220517,2522.7738,N,08002.9957,W,1,10,1.4,19,M,,M,,*6B
06/12/2014	22:05:18.658	$GPGGA,220518,2522.7731,N,08002.9956,W,1,10,1.4,20,M,,M,,*66
06/12/2014	22:05:19.669	$GPGGA,220519,2522.7725,N,08002.9957,W,1,10,1.4,20,M,,M,,*63
06/12/2014	22:05:20.710	$GPGGA,220520,2522.7719,N,08002.9955,W,1,10,1.4,20,M,,M,,*64
06/12/2014	22:05:21.755	$GPGGA,220521,2522.7712,N,08002.9954,W,1,10,1.4,20,M,,M,,*6F
06/12/2014	22:05:22.762	$GPGGA,220522,2522.7706,N,08002.9954,W,1,10,1.4,20,M,,M,,*69
06/12/2014	22:05:23.793	$GPGGA,220523,2522.7699,N,08002.9953,W,1,10,1.4,20,M,,M,,*68
06/12/2014	22:05:24.835	$GPGGA,220524,2522.7692,N,08002.9952,W,1,10,1.4,20,M,,M,,*65
06/12/2014	22:05:25.866	$GPGGA,220525,2522.7685,N,08002.9951,W,1,10,1.4,20,M,,M,,*61
06/12/2014	22:05:26.877	$GPGGA,220526,2522.7678,N,08002.9950,W,1,10,1.4,20,M,,M,,*61
06/12/2014	22:05:27.929	$GPGGA,220527,2522.7672,N,08002.9950,W,1,10,1.4,20,M,,M,,*6A
06/12/2014	22:05:28.949	$GPGGA,220528,2522.7665,N,08002.9948,W,1,10,1.4,20,M,,M,,*6A
06/12/2014	22:05:29.960	$GPGGA,220529,2522.7659,N,08002.9947,W,1,10,1.4,20,M,,M,,*6B
06/12/2014	22:05:31.002	$GPGGA,220530,2522.7652,N,08002.9946,W,1,10,1.4,20,M,,M,,*69
06/12/2014	22:05:32.054	$GPGGA,220531,2522.7646,N,08002.9946,W,1,10,1.4,20,M,,M,,*6D
06/12/2014	22:05:33.074	$GPGGA,220532,2522.7639,N,08002.9945,W,1,10,1.4,20,M,,M,,*65
06/12/2014	22:05:34.105	$GPGGA,220533,2522.7634,N,08002.9944,W,1,10,1.4,20,M,,M,,*68
06/12/2014	22:05:35.126	$GPGGA,220534,2522.7626,N,08002.9943,W,1,10,1.4,20,M,,M,,*6B
06/12/2014	22:05:36.301	$GPGGA,220535,2522.7620,N,08002.9942,W,1,10,1.4,20,M,,M,,*6D
06/12/2014	22:05:37.177	$GPGGA,220536,2522.7613,N,08002.9941,W,1,10,1.4,20,M,,M,,*6D
06/12/2014	22:05:38.229	$GPGGA,220537,2522.7607,N,08002.9940,W,1,10,1.4,20,M,,M,,*68
06/12/2014	22:05:39.216	$GPGGA,220538,2522.7600,N,08002.9939,W,1,10,1.4,20,M,,M,,*6E
06/12/2014	22:05:40.250	$GPGGA,220539,2522.7594,N,08002.9938,W,1,10,1.4,20,M,,M,,*60
06/12/2014	22:05:41.313	$GPGGA,220540,2522.7587,N,08002.9937,W,1,10,1.4,20,M,,M,,*63
06/12/2014	22:05:42.354	$GPGGA,220541,2522.7580,N,08002.9936,W,1,10,1.4,20,M,,M,,*64
06/12/2014	22:05:43.344	$GPGGA,220542,2522.7574,N,08002.9935,W,1,10,1.4,20,M,,M,,*6F
06/12/2014	22:05:44.375	$GPGGA,220543,2522.7567,N,08002.9934,W,1,10,1.4,20,M,,M,,*6D
06/12/2014	22:05:45.427	$GPGGA,220544,2522.7561,N,08002.9933,W,1,10,1.4,20,M,,M,,*6B
06/12/2014	22:05:46.425	$GPGGA,220545,2522.7554,N,08002.9933,W,1,10,1.4,20,M,,M,,*6C
06/12/2014	22:05:47.553	$GPGGA,220546,2522.7547,N,08002.9932,W,1,10,1.4,20,M,,M,,*6C
06/12/2014	22:05:46.427	$GPGGA,220547,2522.7541,N,08002.9930,W,1,10,1.4,20,M,,M,,*69
06/12/2014	22:05:47.489	$GPGGA,220548,2522.7534,N,08002.9931,W,1,10,1.4,20,M,,M,,*65
06/12/2014	22:05:48.483	$GPGGA,220549,2522.7527,N,08002.9929,W,1,10,1.4,20,M,,M,,*6F
06/12/2014	22:05:49.510	$GPGGA,220550,2522.7522,N,08002.9928,W,1,10,1.4,20,M,,M,,*63
06/12/2014	22:05:50.541	$GPGGA,220551,2522.7514,N,08002.9927,W,1,10,1.4,20,M,,M,,*68
06/12/2014	22:05:51.602	$GPGGA,220552,2522.7507,N,08002.9926,W,1,10,1.4,20,M,,M,,*68
06/12/2014	22:05:52.616	$GPGGA,220553,2522.7500,N,08002.9926,W,1,10,1.4,20,M,,M,,*6E
06/12/2014	22:05:53.758	$GPGGA,220554,2522.7493,N,08002.9925,W,1,10,1.4,20,M,,M,,*61
06/12/2014	22:05:54.799	$GPGGA,220555,2522.7486,N,08002.9925,W,1,10,1.4,20,M,,M,,*64
06/12/2014	22:05:55.892	$GPGGA,220556,2522.7479,N,08002.9924,W,1,10,1.4,20,M,,M,,*66
06/12/2014	22:05:56.882	$GPGGA,220557,2522.7472,N,08002.9924,W,1,10,1.4,20,M,,M,,*6C
06/12/2014	22:05:57.852	$GPGGA,220558,2522.7466,N,08002.9924,W,1,10,1.4,20,M,,M,,*66
06/12/2014	22:05:58.924	$GPGGA,220559,2522.7459,N,08002.9923,W,1,10,1.4,20,M,,M,,*6C
06/12/2014	22:06:00.017	$GPGGA,220600,2522.7453,N,08002.9924,W,1,10,1.4,20,M,,M,,*6E
06/12/2014	22:06:00.986	$GPGGA,220601,2522.7446,N,08002.9923,W,1,10,1.4,20,M,,M,,*6C
06/12/2014	22:06:02.038	$GPGGA,220602,2522.7439,N,08002.9922,W,1,10,1.4,20,M,,M,,*66
06/12/2014	22:06:03.059	$GPGGA,220603,2522.7433,N,08002.9922,W,1,10,1.4,20,M,,M,,*6D
06/12/2014	22:06:04.039	$GPGGA,220604,2522.7426,N,08002.9924,W,1,10,1.4,20,M,,M,,*68
06/12/2014	22:06:05.098	$GPGGA,220605,2522.7419,N,08002.9922,W,1,10,1.4,20,M,,M,,*63
06/12/2014	22:06:06.081	$GPGGA,220606,2522.7412,N,08002.9922,W,1,10,1.4,20,M,,M,,*6B
06/12/2014	22:06:07.112	$GPGGA,220607,2522.7406,N,08002.9924,W,1,10,1.4,20,M,,M,,*69
06/12/2014	22:06:08.236	$GPGGA,220608,2522.7399,N,08002.9923,W,1,10,1.4,20,M,,M,,*60
06/12/2014	22:06:09.207	$GPGGA,220609,2522.7392,N,08002.9924,W,1,10,1.4,20,M,,M,,*6D
06/12/2014	22:06:10.276	$GPGGA,220610,2522.7385,N,08002.9923,W,1,10,1.4,20,M,,M,,*64
06/12/2014	22:06:11.282	$GPGGA,220611,2522.7378,N,08002.9924,W,1,10,1.5,20,M,,M,,*61
06/12/2014	22:06:12.267	$GPGGA,220612,2522.7372,N,08002.9923,W,1,10,1.5,20,M,,M,,*6F
06/12/2014	22:06:13.346	$GPGGA,220613,2522.7366,N,08002.9924,W,1,10,1.4,20,M,,M,,*6D
06/12/2014	22:06:14.371	$GPGGA,220614,2522.7360,N,08002.9923,W,1,10,1.4,20,M,,M,,*6B
06/12/2014	22:06:15.350	$GPGGA,220615,2522.7354,N,08002.9924,W,1,10,1.4,20,M,,M,,*6A
06/12/2014	22:06:16.443	$GPGGA,220616,2522.7348,N,08002.9925,W,1,10,1.4,20,M,,M,,*65
06/12/2014	22:06:17.458	$GPGGA,220617,2522.7342,N,08002.9926,W,1,10,1.4,20,M,,M,,*6D
06/12/2014	22:06:18.494	$GPGGA,220618,2522.7336,N,08002.9926,W,1,10,1.4,20,M,,M,,*61
06/12/2014	22:06:19.519	$GPGGA,220619,2522.7329,N,08002.9926,W,1,10,1.4,20,M,,M,,*6E
06/12/2014	22:06:20.569	$GPGGA,220620,2522.7323,N,08002.9928,W,1,10,1.4,20,M,,M,,*60
06/12/2014	22:06:21.609	$GPGGA,220621,2522.7317,N,08002.9928,W,1,10,1.4,20,M,,M,,*66
06/12/2014	22:06:22.548	$GPGGA,220622,2522.7311,N,08002.9929,W,1,10,1.4,20,M,,M,,*62
06/12/2014	22:06:23.600	$GPGGA,220623,2522.7305,N,08002.9931,W,1,10,1.4,20,M,,M,,*6F
06/12/2014	22:06:24.685	$GPGGA,220624,2522.7298,N,08002.9931,W,1,10,1.4,20,M,,M,,*6D
06/12/2014	22:06:25.672	$GPGGA,220625,2522.7291,N,08002.9933,W,1,9,1.5,21,M,,M,,*5F
06/12/2014	22:06:26.724	$GPGGA,220626,2522.7284,N,08002.9935,W,1,9,1.5,21,M,,M,,*5E
06/12/2014	22:06:27.723	$GPGGA,220627,2522.7278,N,08002.9935,W,1,9,1.5,21,M,,M,,*5C
06/12/2014	22:06:28.858	$GPGGA,220628,2522.7270,N,08002.9936,W,1,9,1.4,21,M,,M,,*59
06/12/2014	22:06:29.868	$GPGGA,220629,2522.7264,N,08002.9936,W,1,10,1.4,21,M,,M,,*65
06/12/2014	22:06:30.786	$GPGGA,220630,2522.7258,N,08002.9938,W,1,10,1.4,21,M,,M,,*6C
06/12/2014	22:06:31.931	$GPGGA,220631,2522.7251,N,08002.9939,W,1,10,1.4,21,M,,M,,*65
06/12/2014	22:06:32.911	$GPGGA,220632,2522.7245,N,08002.9938,W,1,10,1.4,21,M,,M,,*62
06/12/2014	22:06:33.966	$GPGGA,220633,2522.7240,N,08002.9939,W,1,10,1.4,21,M,,M,,*67
06/12/2014	22:06:35.004	$GPGGA,220634,2522.7233,N,08002.9940,W,1,10,1.4,21,M,,M,,*6A
06/12/2014	22:06:36.049	$GPGGA,220635,2522.7226,N,08002.9940,W,1,10,1.4,21,M,,M,,*6F
06/12/2014	22:06:37.035	$GPGGA,220636,2522.7220,N,08002.9940,W,1,10,1.4,21,M,,M,,*6A
06/12/2014	22:06:38.056	$GPGGA,220637,2522.7213,N,08002.9942,W,1,10,1.4,21,M,,M,,*69
06/12/2014	22:06:39.126	$GPGGA,220638,2522.7206,N,08002.9940,W,1,10,1.4,21,M,,M,,*60
06/12/2014	22:06:40.108	$GPGGA,220639,2522.7199,N,08002.9940,W,1,10,1.4,21,M,,M,,*64
06/12/2014	22:06:41.201	$GPGGA,220640,2522.7193,N,08002.9942,W,1,10,1.4,21,M,,M,,*62
06/12/2014	22:06:42.232	$GPGGA,220641,2522.7186,N,08002.9941,W,1,10,1.4,21,M,,M,,*64
06/12/2014	22:06:43.245	$GPGGA,220642,2522.7180,N,08002.9942,W,1,10,1.4,21,M,,M,,*62
06/12/2014	22:06:44.266	$GPGGA,220643,2522.7173,N,08002.9941,W,1,10,1.4,21,M,,M,,*6C
06/12/2014	22:06:45.276	$GPGGA,220644,2522.7168,N,08002.9942,W,1,10,1.4,21,M,,M,,*62
06/12/2014	22:06:46.328	$GPGGA,220645,2522.7160,N,08002.9942,W,1,10,1.4,21,M,,M,,*6B
06/12/2014	22:06:47.305	$GPGGA,220646,2522.7154,N,08002.9941,W,1,10,1.4,21,M,,M,,*6C
06/12/2014	22:06:46.507	$GPGGA,220647,2522.7147,N,08002.9942,W,1,10,1.4,21,M,,M,,*6C
06/12/2014	22:06:47.559	$GPGGA,220648,2522.7141,N,08002.9942,W,1,10,1.4,21,M,,M,,*65
06/12/2014	22:06:48.584	$GPGGA,220649,2522.7135,N,08002.9941,W,1,10,1.4,21,M,,M,,*64
06/12/2014	22:06:49.601	$GPGGA,220650,2522.7128,N,08002.9942,W,1,10,1.4,21,M,,M,,*63
06/12/2014	22:06:50.645	$GPGGA,220651,2522.7121,N,08002.9940,W,1,10,1.4,21,M,,M,,*69
06/12/2014	22:06:51.663	$GPGGA,220652,2522.7114,N,08002.9940,W,1,10,1.4,21,M,,M,,*6C
06/12/2014	22:06:52.705	$GPGGA,220653,2522.7108,N,08002.9940,W,1,10,1.4,21,M,,M,,*60
06/12/2014	22:06:53.715	$GPGGA,220654,2522.7101,N,08002.9939,W,1,10,1.4,21,M,,M,,*60
06/12/2014	22:06:54.771	$GPGGA,220655,2522.7095,N,08002.9939,W,1,10,1.4,21,M,,M,,*6D
06/12/2014	22:06:55.788	$GPGGA,220656,2522.7088,N,08002.9938,W,1,10,1.4,21,M,,M,,*63
06/12/2014	22:06:56.861	$GPGGA,220657,2522.7082,N,08002.9939,W,1,10,1.4,21,M,,M,,*69
06/12/2014	22:06:57.840	$GPGGA,220658,2522.7075,N,08002.9938,W,1,10,1.4,21,M,,M,,*6F
06/12/2014	22:06:58.893	$GPGGA,220659,2522.7070,N,08002.9936,W,1,10,1.4,21,M,,M,,*65
06/12/2014	22:06:59.914	$GPGGA,220700,2522.7063,N,08002.9935,W,1,10,1.4,20,M,,M,,*68
06/12/2014	22:07:00.935	$GPGGA,220701,2522.7056,N,08002.9934,W,1,10,1.4,20,M,,M,,*6E
06/12/2014	22:07:01.954	$GPGGA,220702,2522.7049,N,08002.9935,W,1,10,1.4,20,M,,M,,*62
06/12/2014	22:07:03.005	$GPGGA,220703,2522.7043,N,08002.9932,W,1,10,1.4,20,M,,M,,*6E
06/12/2014	22:07:04.026	$GPGGA,220704,2522.7036,N,08002.9931,W,1,10,1.4,20,M,,M,,*68
06/12/2014	22:07:05.037	$GPGGA,220705,2522.7030,N,08002.9931,W,1,10,1.4,20,M,,M,,*6F
06/12/2014	22:07:06.078	$GPGGA,220706,2522.7023,N,08002.9929,W,1,10,1.4,20,M,,M,,*67
06/12/2014	22:07:07.120	$GPGGA,220707,2522.7016,N,08002.9928,W,1,10,1.4,20,M,,M,,*61
06/12/2014	22:07:08.161	$GPGGA,220708,2522.7010,N,08002.9927,W,1,10,1.4,20,M,,M,,*67
06/12/2014	22:07:09.162	$GPGGA,220709,2522.7003,N,08002.9926,W,1,10,1.4,20,M,,M,,*65
06/12/2014	22:07:10.224	$GPGGA,220710,2522.6996,N,08002.9925,W,1,10,1.4,20,M,,M,,*6A
06/12/2014	22:07:11.214	$GPGGA,220711,2522.6991,N,08002.9924,W,1,10,1.4,20,M,,M,,*6D
06/12/2014	22:07:12.255	$GPGGA,220712,2522.6991,N,08002.9924,W,1,10,1.4,20,M,,M,,*6E
06/12/2014	22:07:13.297	$GPGGA,220713,2522.6977,N,08002.9922,W,1,10,1.4,20,M,,M,,*61
06/12/2014	22:07:14.297	$GPGGA,220714,2522.6970,N,08002.9920,W,1,10,1.4,20,M,,M,,*63
06/12/2014	22:07:15.442	$GPGGA,220715,2522.6964,N,08002.9921,W,1,10,1.4,20,M,,M,,*66
06/12/2014	22:07:16.380	$GPGGA,220716,2522.6964,N,08002.9921,W,1,10,1.4,20,M,,M,,*65
06/12/2014	22:07:17.391	$GPGGA,220717,2522.6951,N,08002.9917,W,1,10,1.4,20,M,,M,,*67
06/12/2014	22:07:18.463	$GPGGA,220718,2522.6944,N,08002.9917,W,1,10,1.4,20,M,,M,,*6C
06/12/2014	22:07:19.536	$GPGGA,220719,2522.6937,N,08002.9917,W,1,10,1.4,20,M,,M,,*69
06/12/2014	22:07:20.526	$GPGGA,220720,2522.6937,N,08002.9917,W,1,10,1.4,20,M,,M,,*63
06/12/2014	22:07:21.504	$GPGGA,220721,2522.6924,N,08002.9915,W,1,10,1.4,20,M,,M,,*62
06/12/2014	22:07:22.567	$GPGGA,220722,2522.6918,N,08002.9914,W,1,10,1.4,20,M,,M,,*6F
06/12/2014	22:07:23.546	$GPGGA,220723,2522.6912,N,08002.9913,W,1,10,1.4,20,M,,M,,*63
06/12/2014	22:07:24.711	$GPGGA,220724,2522.6906,N,08002.9912,W,1,10,1.4,20,M,,M,,*60
06/12/2014	22:07:25.712	$GPGGA,220725,2522.6899,N,08002.9913,W,1,10,1.4,20,M,,M,,*67
06/12/2014	22:07:26.650	$GPGGA,220726,2522.6893,N,08002.9911,W,1,10,1.4,20,M,,M,,*6C
06/12/2014	22:07:27.774	$GPGGA,220727,2522.6886,N,08002.9910,W,1,10,1.4,20,M,,M,,*68
06/12/2014	22:07:28.723	$GPGGA,220728,2522.6886,N,08002.9910,W,1,10,1.4,20,M,,M,,*67
06/12/2014	22:07:29.877	$GPGGA,220729,2522.6873,N,08002.9910,W,1,10,1.4,20,M,,M,,*6C
06/12/2014	22:07:30.785	$GPGGA,220730,2522.6873,N,08002.9910,W,1,10,1.4,20,M,,M,,*64
06/12/2014	22:07:31.888	$GPGGA,220731,2522.6861,N,08002.9907,W,1,10,1.4,20,M,,M,,*60
06/12/2014	22:07:32.971	$GPGGA,220732,2522.6854,N,08002.9906,W,1,10,1.4,20,M,,M,,*64
06/12/2014	22:07:33.982	$GPGGA,220733,2522.6847,N,08002.9906,W,1,10,1.4,20,M,,M,,*67
06/12/2014	22:07:34.994	$GPGGA,220734,2522.6840,N,08002.9904,W,1,10,1.4,20,M,,M,,*65
06/12/2014	22:07:36.034	$GPGGA,220735,2522.6833,N,08002.9904,W,1,10,1.4,20,M,,M,,*60
06/12/2014	22:07:37.063	$GPGGA,220736,2522.6826,N,08002.9903,W,1,10,1.4,20,M,,M,,*60
06/12/2014	22:07:38.054	$GPGGA,220737,2522.6821,N,08002.9903,W,1,10,1.4,20,M,,M,,*66
06/12/2014	22:07:39.096	$GPGGA,220738,2522.6814,N,08002.9902,W,1,10,1.4,20,M,,M,,*6E
06/12/2014	22:07:40.127	$GPGGA,220739,2522.6806,N,08002.9902,W,1,10,1.4,20,M,,M,,*6C
06/12/2014	22:07:41.171	$GPGGA,220740,2522.6800,N,08002.9902,W,1,10,1.4,20,M,,M,,*64
06/12/2014	22:07:42.202	$GPGGA,220741,2522.6793,N,08002.9901,W,1,10,1.4,20,M,,M,,*63
06/12/2014	22:07:43.210	$GPGGA,220742,2522.6787,N,08002.9902,W,1,10,1.4,20,M,,M,,*66
06/12/2014	22:07:45.758	$GPGGA,220744,2522.6774,N,08002.9900,W,1,10,1.4,20,M,,M,,*6E
06/12/2014	22:07:46.293	$GPGGA,220745,2522.6767,N,08002.9899,W,1,10,1.4,20,M,,M,,*6C
06/12/2014	22:07:47.324	$GPGGA,220746,2522.6760,N,08002.9899,W,1,10,1.4,20,M,,M,,*68
06/12/2014	22:07:46.496	$GPGGA,220747,2522.6753,N,08002.9899,W,1,10,1.4,20,M,,M,,*69
06/12/2014	22:07:47.527	$GPGGA,220748,2522.6747,N,08002.9898,W,1,10,1.4,20,M,,M,,*62
06/12/2014	22:07:48.558	$GPGGA,220749,2522.6740,N,08002.9899,W,1,10,1.4,20,M,,M,,*65
06/12/2014	22:07:49.569	$GPGGA,220750,2522.6734,N,08002.9898,W,1,10,1.4,20,M,,M,,*6F
06/12/2014	22:07:50.631	$GPGGA,220751,2522.6727,N,08002.9899,W,1,10,1.4,20,M,,M,,*6D
06/12/2014	22:07:51.652	$GPGGA,220752,2522.6720,N,08002.9898,W,1,10,1.4,20,M,,M,,*68
06/12/2014	22:07:52.683	$GPGGA,220753,2522.6714,N,08002.9897,W,1,10,1.4,20,M,,M,,*61
06/12/2014	22:07:53.683	$GPGGA,220754,2522.6707,N,08002.9899,W,1,10,1.4,20,M,,M,,*6A
06/12/2014	22:07:54.744	$GPGGA,220755,2522.6702,N,08002.9897,W,1,10,1.4,20,M,,M,,*60
06/12/2014	22:07:55.755	$GPGGA,220756,2522.6695,N,08002.9899,W,1,10,1.4,20,M,,M,,*62
06/12/2014	22:07:56.766	$GPGGA,220757,2522.6688,N,08002.9898,W,1,10,1.4,20,M,,M,,*6E
06/12/2014	22:07:57.807	$GPGGA,220758,2522.6681,N,08002.9899,W,1,10,1.5,20,M,,M,,*68
06/12/2014	22:07:58.859	$GPGGA,220759,2522.6675,N,08002.9898,W,1,9,1.5,20,M,,M,,*5B
06/12/2014	22:07:59.900	$GPGGA,220800,2522.6670,N,08002.9899,W,1,9,1.5,20,M,,M,,*5C
06/12/2014	22:08:00.921	$GPGGA,220801,2522.6662,N,08002.9898,W,1,10,1.4,20,M,,M,,*66
06/12/2014	22:08:01.911	$GPGGA,220802,2522.6657,N,08002.9900,W,1,10,1.6,20,M,,M,,*61
06/12/2014	22:08:02.942	$GPGGA,220803,2522.6652,N,08002.9902,W,1,9,1.5,20,M,,M,,*5C
06/12/2014	22:08:04.108	$GPGGA,220804,2522.6646,N,08002.9902,W,1,9,1.4,20,M,,M,,*5F
06/12/2014	22:08:05.125	$GPGGA,220805,2522.6640,N,08002.9904,W,1,10,1.4,20,M,,M,,*66
06/12/2014	22:08:06.036	$GPGGA,220806,2522.6633,N,08002.9903,W,1,10,1.4,20,M,,M,,*66
06/12/2014	22:08:07.081	$GPGGA,220807,2522.6627,N,08002.9903,W,1,9,1.5,20,M,,M,,*5B
06/12/2014	22:08:08.108	$GPGGA,220808,2522.6622,N,08002.9904,W,1,9,1.4,20,M,,M,,*57
06/12/2014	22:08:09.216	$GPGGA,220809,2522.6615,N,08002.9904,W,1,10,1.4,20,M,,M,,*6A
06/12/2014	22:08:10.140	$GPGGA,220810,2522.6608,N,08002.9903,W,1,10,1.4,20,M,,M,,*69
06/12/2014	22:08:11.295	$GPGGA,220811,2522.6602,N,08002.9904,W,1,10,1.4,20,M,,M,,*65
06/12/2014	22:08:12.233	$GPGGA,220812,2522.6597,N,08002.9904,W,1,10,1.4,20,M,,M,,*69
06/12/2014	22:08:13.367	$GPGGA,220813,2522.6590,N,08002.9904,W,1,10,1.4,20,M,,M,,*6F
06/12/2014	22:08:14.367	$GPGGA,220814,2522.6583,N,08002.9904,W,1,10,1.4,20,M,,M,,*6A
06/12/2014	22:08:15.398	$GPGGA,220815,2522.6577,N,08002.9904,W,1,10,1.4,20,M,,M,,*60
06/12/2014	22:08:16.450	$GPGGA,220816,2522.6572,N,08002.9906,W,1,10,1.4,20,M,,M,,*64
06/12/2014	22:08:17.492	$GPGGA,220817,2522.6565,N,08002.9905,W,1,10,1.4,20,M,,M,,*60
06/12/2014	22:08:18.471	$GPGGA,220818,2522.6558,N,08002.9906,W,1,10,1.4,20,M,,M,,*62
06/12/2014	22:08:19.513	$GPGGA,220819,2522.6552,N,08002.9906,W,1,10,1.4,20,M,,M,,*69
06/12/2014	22:08:20.557	$GPGGA,220820,2522.6546,N,08002.9906,W,1,10,1.4,20,M,,M,,*66
06/12/2014	22:08:21.606	$GPGGA,220821,2522.6539,N,08002.9906,W,1,10,1.4,20,M,,M,,*6F
06/12/2014	22:08:22.607	$GPGGA,220822,2522.6533,N,08002.9907,W,1,10,1.4,21,M,,M,,*66
06/12/2014	22:08:23.638	$GPGGA,220823,2522.6527,N,08002.9906,W,1,10,1.4,21,M,,M,,*63
06/12/2014	22:08:24.669	$GPGGA,220824,2522.6521,N,08002.9906,W,1,10,1.4,21,M,,M,,*62
06/12/2014	22:08:25.690	$GPGGA,220825,2522.6515,N,08002.9906,W,1,10,1.4,21,M,,M,,*64
06/12/2014	22:08:26.721	$GPGGA,220826,2522.6508,N,08002.9906,W,1,10,1.4,21,M,,M,,*6B
06/12/2014	22:08:27.752	$GPGGA,220827,2522.6503,N,08002.9906,W,1,10,1.4,21,M,,M,,*61
06/12/2014	22:08:28.783	$GPGGA,220828,2522.6496,N,08002.9905,W,1,10,1.4,21,M,,M,,*60
06/12/2014	22:08:29.824	$GPGGA,220829,2522.6489,N,08002.9906,W,1,10,1.4,21,M,,M,,*6C
06/12/2014	22:08:30.834	$GPGGA,220830,2522.6483,N,08002.9905,W,1,10,1.4,21,M,,M,,*6D
06/12/2014	22:08:31.866	$GPGGA,220831,2522.6476,N,08002.9904,W,1,10,1.4,21,M,,M,,*67
06/12/2014	22:08:32.907	$GPGGA,220832,2522.6470,N,08002.9903,W,1,10,1.4,21,M,,M,,*65
06/12/2014	22:08:33.938	$GPGGA,220833,2522.6464,N,08002.9903,W,1,10,1.4,21,M,,M,,*61
06/12/2014	22:08:34.939	$GPGGA,220834,2522.6458,N,08002.9903,W,1,10,1.4,21,M,,M,,*69
06/12/2014	22:08:36.001	$GPGGA,220835,2522.6451,N,08002.9902,W,1,10,1.4,21,M,,M,,*60
06/12/2014	22:08:37.022	$GPGGA,220836,2522.6445,N,08002.9902,W,1,10,1.4,21,M,,M,,*66
06/12/2014	22:08:38.032	$GPGGA,220837,2522.6439,N,08002.9901,W,1,10,1.4,21,M,,M,,*6F
06/12/2014	22:08:39.063	$GPGGA,220838,2522.6432,N,08002.9900,W,1,10,1.4,21,M,,M,,*6A
06/12/2014	22:08:40.095	$GPGGA,220839,2522.6427,N,08002.9899,W,1,10,1.4,21,M,,M,,*6E
06/12/2014	22:08:41.136	$GPGGA,220840,2522.6420,N,08002.9898,W,1,10,1.4,21,M,,M,,*66
06/12/2014	22:08:42.147	$GPGGA,220841,2522.6413,N,08002.9899,W,1,10,1.4,21,M,,M,,*66
06/12/2014	22:08:43.178	$GPGGA,220842,2522.6406,N,08002.9897,W,1,10,1.4,21,M,,M,,*6F
06/12/2014	22:08:44.199	$GPGGA,220843,2522.6400,N,08002.9895,W,1,10,1.4,21,M,,M,,*6A
06/12/2014	22:08:45.251	$GPGGA,220844,2522.6393,N,08002.9895,W,1,10,1.4,21,M,,M,,*60
06/12/2014	22:08:46.271	$GPGGA,220845,2522.6387,N,08002.9894,W,1,10,1.4,21,M,,M,,*65
06/12/2014	22:08:47.282	$GPGGA,220846,2522.6380,N,08002.9893,W,1,10,1.4,21,M,,M,,*66
06/12/2014	22:08:46.442	$GPGGA,220847,2522.6374,N,08002.9892,W,1,10,1.4,21,M,,M,,*6D
06/12/2014	22:08:47.504	$GPGGA,220848,2522.6367,N,08002.9891,W,1,10,1.4,21,M,,M,,*63
06/12/2014	22:08:48.515	$GPGGA,220849,2522.6362,N,08002.9890,W,1,10,1.4,21,M,,M,,*66
06/12/2014	22:08:49.546	$GPGGA,220850,2522.6355,N,08002.9889,W,1,10,1.4,21,M,,M,,*62
06/12/2014	22:08:50.577	$GPGGA,220851,2522.6348,N,08002.9888,W,1,10,1.4,21,M,,M,,*6E
06/12/2014	22:08:51.619	$GPGGA,220852,2522.6342,N,08002.9887,W,1,10,1.4,21,M,,M,,*68
06/12/2014	22:08:52.763	$GPGGA,220853,2522.6335,N,08002.9886,W,1,10,1.4,21,M,,M,,*68
06/12/2014	22:08:53.774	$GPGGA,220854,2522.6329,N,08002.9885,W,1,10,1.4,21,M,,M,,*61
06/12/2014	22:08:54.805	$GPGGA,220855,2522.6323,N,08002.9884,W,1,10,1.4,21,M,,M,,*6B
06/12/2014	22:08:55.733	$GPGGA,220856,2522.6316,N,08002.9883,W,1,10,1.4,21,M,,M,,*69
06/12/2014	22:08:56.857	$GPGGA,220857,2522.6310,N,08002.9882,W,1,10,1.4,21,M,,M,,*6F
06/12/2014	22:08:57.766	$GPGGA,220858,2522.6303,N,08002.9881,W,1,10,1.4,21,M,,M,,*61
06/12/2014	22:08:58.796	$GPGGA,220859,2522.6297,N,08002.9880,W,1,10,1.4,21,M,,M,,*6D
06/12/2014	22:08:59.951	$GPGGA,220900,2522.6290,N,08002.9879,W,1,10,1.4,21,M,,M,,*61
06/12/2014	22:09:00.992	$GPGGA,220901,2522.6283,N,08002.9877,W,1,10,1.4,21,M,,M,,*6C
06/12/2014	22:09:01.900	$GPGGA,220902,2522.6277,N,08002.9876,W,1,10,1.4,21,M,,M,,*65
06/12/2014	22:09:02.921	$GPGGA,220903,2522.6270,N,08002.9875,W,1,10,1.4,21,M,,M,,*60
06/12/2014	22:09:04.086	$GPGGA,220904,2522.6263,N,08002.9875,W,1,10,1.4,21,M,,M,,*65
06/12/2014	22:09:05.077	$GPGGA,220905,2522.6257,N,08002.9874,W,1,10,1.4,21,M,,M,,*62
06/12/2014	22:09:06.097	$GPGGA,220906,2522.6251,N,08002.9872,W,1,10,1.4,21,M,,M,,*61
06/12/2014	22:09:07.158	$GPGGA,220907,2522.6244,N,08002.9873,W,1,10,1.4,21,M,,M,,*65
06/12/2014	22:09:08.179	$GPGGA,220908,2522.6237,N,08002.9871,W,1,10,1.4,21,M,,M,,*6C
06/12/2014	22:09:09.192	$GPGGA,220909,2522.6230,N,08002.9870,W,1,10,1.4,21,M,,M,,*6B
06/12/2014	22:09:10.231	$GPGGA,220910,2522.6223,N,08002.9869,W,1,10,1.4,21,M,,M,,*69
06/12/2014	22:09:11.284	$GPGGA,220911,2522.6217,N,08002.9870,W,1,10,1.4,21,M,,M,,*67
06/12/2014	22:09:12.293	$GPGGA,220912,2522.6210,N,08002.9868,W,1,10,1.4,21,M,,M,,*6A
06/12/2014	22:09:13.325	$GPGGA,220913,2522.6204,N,08002.9867,W,1,10,1.4,21,M,,M,,*61
06/12/2014	22:09:14.335	$GPGGA,220914,2522.6197,N,08002.9867,W,1,10,1.4,21,M,,M,,*6F
06/12/2014	22:09:15.366	$GPGGA,220915,2522.6191,N,08002.9866,W,1,10,1.4,21,M,,M,,*69
06/12/2014	22:09:16.408	$GPGGA,220916,2522.6185,N,08002.9865,W,1,10,1.4,21,M,,M,,*6C
06/12/2014	22:09:17.449	$GPGGA,220917,2522.6178,N,08002.9866,W,1,10,1.4,21,M,,M,,*6C
06/12/2014	22:09:18.450	$GPGGA,220918,2522.6171,N,08002.9864,W,1,10,1.4,20,M,,M,,*69
06/12/2014	22:09:19.501	$GPGGA,220919,2522.6165,N,08002.9864,W,1,10,1.4,20,M,,M,,*6D
06/12/2014	22:09:20.536	$GPGGA,220920,2522.6158,N,08002.9864,W,1,10,1.4,20,M,,M,,*69
06/12/2014	22:09:21.581	$GPGGA,220921,2522.6151,N,08002.9864,W,1,10,1.4,20,M,,M,,*61
06/12/2014	22:09:22.584	$GPGGA,220922,2522.6144,N,08002.9864,W,1,10,1.4,20,M,,M,,*66
06/12/2014	22:09:23.615	$GPGGA,220923,2522.6138,N,08002.9864,W,1,10,1.4,20,M,,M,,*6C
06/12/2014	22:09:24.656	$GPGGA,220924,2522.6132,N,08002.9863,W,1,10,1.4,20,M,,M,,*66
06/12/2014	22:09:25.688	$GPGGA,220925,2522.6125,N,08002.9863,W,1,10,1.4,20,M,,M,,*61
06/12/2014	22:09:26.678	$GPGGA,220926,2522.6120,N,08002.9863,W,1,10,1.4,20,M,,M,,*67
06/12/2014	22:09:27.750	$GPGGA,220927,2522.6113,N,08002.9863,W,1,10,1.4,20,M,,M,,*66
06/12/2014	22:09:28.750	$GPGGA,220928,2522.6106,N,08002.9863,W,1,10,1.4,20,M,,M,,*6D
06/12/2014	22:09:29.792	$GPGGA,220929,2522.6100,N,08002.9864,W,1,10,1.4,20,M,,M,,*6D
06/12/2014	22:09:30.814	$GPGGA,220930,2522.6095,N,08002.9863,W,1,10,1.4,20,M,,M,,*6F
06/12/2014	22:09:31.834	$GPGGA,220931,2522.6087,N,08002.9863,W,1,10,1.4,20,M,,M,,*6D
06/12/2014	22:09:32.875	$GPGGA,220932,2522.6081,N,08002.9863,W,1,10,1.4,20,M,,M,,*68
06/12/2014	22:09:33.917	$GPGGA,220933,2522.6075,N,08002.9863,W,1,10,1.4,20,M,,M,,*62
06/12/2014	22:09:34.937	$GPGGA,220934,2522.6068,N,08002.9862,W,1,10,1.5,20,M,,M,,*69
06/12/2014	22:09:35.980	$GPGGA,220935,2522.6061,N,08002.9861,W,1,10,1.4,20,M,,M,,*63
06/12/2014	22:09:37.000	$GPGGA,220936,2522.6055,N,08002.9861,W,1,10,1.4,20,M,,M,,*67
06/12/2014	22:09:38.010	$GPGGA,220937,2522.6048,N,08002.9861,W,1,10,1.4,20,M,,M,,*6A
06/12/2014	22:09:39.155	$GPGGA,220938,2522.6041,N,08002.9863,W,1,10,1.5,20,M,,M,,*6F
06/12/2014	22:09:40.072	$GPGGA,220939,2522.6035,N,08002.9862,W,1,10,1.4,20,M,,M,,*6D
06/12/2014	22:09:41.100	$GPGGA,220940,2522.6030,N,08002.9863,W,1,10,1.4,20,M,,M,,*67
06/12/2014	22:09:42.248	$GPGGA,220941,2522.6023,N,08002.9863,W,1,10,1.4,20,M,,M,,*64
06/12/2014	22:09:43.165	$GPGGA,220942,2522.6017,N,08002.9864,W,1,10,1.4,20,M,,M,,*67
06/12/2014	22:09:44.176	$GPGGA,220943,2522.6012,N,08002.9864,W,1,10,1.4,20,M,,M,,*63
06/12/2014	22:09:45.352	$GPGGA,220944,2522.6004,N,08002.9864,W,1,10,1.5,20,M,,M,,*62
06/12/2014	22:09:46.259	$GPGGA,220945,2522.5998,N,08002.9864,W,1,10,1.4,20,M,,M,,*6D
06/12/2014	22:09:47.280	$GPGGA,220946,2522.5991,N,08002.9864,W,1,10,1.4,20,M,,M,,*67
06/12/2014	22:09:46.534	$GPGGA,220947,2522.5985,N,08002.9864,W,1,10,1.4,19,M,,M,,*69
06/12/2014	22:09:47.483	$GPGGA,220948,2522.5979,N,08002.9864,W,1,10,1.4,19,M,,M,,*65
06/12/2014	22:09:48.587	$GPGGA,220949,2522.5973,N,08002.9866,W,1,10,1.4,19,M,,M,,*6C
06/12/2014	22:09:49.513	$GPGGA,220950,2522.5966,N,08002.9865,W,1,10,1.4,19,M,,M,,*63
06/12/2014	22:09:50.617	$GPGGA,220951,2522.5961,N,08002.9866,W,1,10,1.4,19,M,,M,,*66
06/12/2014	22:09:51.650	$GPGGA,220952,2522.5954,N,08002.9866,W,1,10,1.4,19,M,,M,,*63
06/12/2014	22:09:52.673	$GPGGA,220953,2522.5947,N,08002.9866,W,1,10,1.4,19,M,,M,,*60
06/12/2014	22:09:53.655	$GPGGA,220954,2522.5941,N,08002.9866,W,1,10,1.4,19,M,,M,,*61
06/12/2014	22:09:54.668	$GPGGA,220955,2522.5934,N,08002.9866,W,1,10,1.4,19,M,,M,,*62
06/12/2014	22:09:55.695	$GPGGA,220956,2522.5928,N,08002.9866,W,1,10,1.4,19,M,,M,,*6C
06/12/2014	22:09:56.693	$GPGGA,220957,2522.5922,N,08002.9865,W,1,10,1.4,19,M,,M,,*64
06/12/2014	22:09:57.698	$GPGGA,220958,2522.5915,N,08002.9866,W,1,10,1.4,19,M,,M,,*6C
06/12/2014	22:09:58.698	$GPGGA,220959,2522.5909,N,08002.9865,W,1,10,1.4,19,M,,M,,*63
06/12/2014	22:09:59.731	$GPGGA,221000,2522.5903,N,08002.9864,W,1,10,1.4,19,M,,M,,*6C
06/12/2014	22:10:00.744	$GPGGA,221001,2522.5897,N,08002.9866,W,1,10,1.4,19,M,,M,,*63
06/12/2014	22:10:01.749	$GPGGA,221002,2522.5890,N,08002.9864,W,1,10,1.4,19,M,,M,,*65
06/12/2014	22:10:02.776	$GPGGA,221003,2522.5885,N,08002.9864,W,1,10,1.4,19,M,,M,,*60
06/12/2014	22:10:03.772	$GPGGA,221004,2522.5878,N,08002.9864,W,1,10,1.4,19,M,,M,,*65
06/12/2014	22:10:04.775	$GPGGA,221005,2522.5872,N,08002.9863,W,1,10,1.4,19,M,,M,,*69
06/12/2014	22:10:05.788	$GPGGA,221006,2522.5865,N,08002.9862,W,1,10,1.4,19,M,,M,,*6D
06/12/2014	22:10:06.811	$GPGGA,221007,2522.5860,N,08002.9863,W,1,10,1.4,19,M,,M,,*68
06/12/2014	22:10:07.826	$GPGGA,221008,2522.5853,N,08002.9862,W,1,10,1.4,19,M,,M,,*66
06/12/2014	22:10:08.841	$GPGGA,221009,2522.5846,N,08002.9861,W,1,10,1.4,19,M,,M,,*60
06/12/2014	22:10:09.820	$GPGGA,221010,2522.5839,N,08002.9860,W,1,10,1.4,19,M,,M,,*61
06/12/2014	22:10:10.842	$GPGGA,221011,2522.5833,N,08002.9860,W,1,10,1.4,19,M,,M,,*6A
06/12/2014	22:10:11.865	$GPGGA,221012,2522.5826,N,08002.9859,W,1,10,1.4,19,M,,M,,*67
06/12/2014	22:10:12.848	$GPGGA,221013,2522.5820,N,08002.9858,W,1,10,1.4,19,M,,M,,*61
06/12/2014	22:10:13.879	$GPGGA,221014,2522.5814,N,08002.9859,W,1,10,1.4,19,M,,M,,*60
06/12/2014	22:10:14.892	$GPGGA,221015,2522.5807,N,08002.9857,W,1,10,1.4,19,M,,M,,*6D
06/12/2014	22:10:15.905	$GPGGA,221016,2522.5802,N,08002.9856,W,1,10,1.4,19,M,,M,,*6A
06/12/2014	22:10:16.887	$GPGGA,221017,2522.5795,N,08002.9855,W,1,10,1.4,19,M,,M,,*69
06/12/2014	22:10:17.930	$GPGGA,221018,2522.5788,N,08002.9854,W,1,10,1.4,19,M,,M,,*6B
06/12/2014	22:10:18.923	$GPGGA,221019,2522.5782,N,08002.9855,W,1,10,1.4,19,M,,M,,*61
06/12/2014	22:10:19.956	$GPGGA,221020,2522.5775,N,08002.9853,W,1,10,1.4,19,M,,M,,*65
06/12/2014	22:10:20.938	$GPGGA,221021,2522.5770,N,08002.9852,W,1,10,1.4,19,M,,M,,*60
06/12/2014	22:10:21.971	$GPGGA,221022,2522.5762,N,08002.9852,W,1,10,1.4,19,M,,M,,*60
06/12/2014	22:10:22.954	$GPGGA,221023,2522.5756,N,08002.9851,W,1,10,1.4,19,M,,M,,*65
06/12/2014	22:10:24.098	$GPGGA,221024,2522.5749,N,08002.9850,W,1,10,1.4,19,M,,M,,*6D
06/12/2014	22:10:25.101	$GPGGA,221025,2522.5743,N,08002.9849,W,1,10,1.4,19,M,,M,,*6E
06/12/2014	22:10:25.992	$GPGGA,221026,2522.5737,N,08002.9849,W,1,10,1.4,19,M,,M,,*6E
06/12/2014	22:10:27.025	$GPGGA,221027,2522.5730,N,08002.9847,W,1,10,1.4,19,M,,M,,*66
06/12/2014	22:10:28.028	$GPGGA,221028,2522.5724,N,08002.9846,W,1,10,1.4,19,M,,M,,*6D
06/12/2014	22:10:29.041	$GPGGA,221029,2522.5717,N,08002.9846,W,1,10,1.4,19,M,,M,,*6C
06/12/2014	22:10:30.043	$GPGGA,221030,2522.5712,N,08002.9845,W,1,10,1.4,19,M,,M,,*62
06/12/2014	22:10:31.178	$GPGGA,221031,2522.5704,N,08002.9844,W,1,10,1.4,19,M,,M,,*65
06/12/2014	22:10:32.070	$GPGGA,221032,2522.5697,N,08002.9845,W,1,10,1.4,19,M,,M,,*6C
06/12/2014	22:10:33.072	$GPGGA,221033,2522.5691,N,08002.9843,W,1,10,1.4,19,M,,M,,*6D
06/12/2014	22:10:34.186	$GPGGA,221034,2522.5685,N,08002.9842,W,1,10,1.4,19,M,,M,,*6E
06/12/2014	22:10:35.096	$GPGGA,221035,2522.5679,N,08002.9841,W,1,10,1.4,19,M,,M,,*6F
06/12/2014	22:10:36.241	$GPGGA,221036,2522.5672,N,08002.9841,W,1,10,1.4,19,M,,M,,*67
06/12/2014	22:10:37.125	$GPGGA,221037,2522.5666,N,08002.9840,W,1,10,1.4,19,M,,M,,*62
06/12/2014	22:10:38.246	$GPGGA,221038,2522.5661,N,08002.9839,W,1,10,1.4,19,M,,M,,*64
06/12/2014	22:10:39.242	$GPGGA,221039,2522.5654,N,08002.9839,W,1,10,1.4,19,M,,M,,*63
06/12/2014	22:10:40.261	$GPGGA,221040,2522.5647,N,08002.9838,W,1,10,1.4,19,M,,M,,*6E
06/12/2014	22:10:41.274	$GPGGA,221041,2522.5641,N,08002.9837,W,1,10,1.4,19,M,,M,,*66
06/12/2014	22:10:42.269	$GPGGA,221042,2522.5634,N,08002.9837,W,1,10,1.4,19,M,,M,,*67
06/12/2014	22:10:43.300	$GPGGA,221043,2522.5629,N,08002.9836,W,1,10,1.4,19,M,,M,,*6B
06/12/2014	22:10:44.307	$GPGGA,221044,2522.5622,N,08002.9837,W,1,10,1.4,19,M,,M,,*66
06/12/2014	22:10:45.315	$GPGGA,221045,2522.5615,N,08002.9835,W,1,10,1.4,19,M,,M,,*61
06/12/2014	22:10:46.310	$GPGGA,221046,2522.5609,N,08002.9834,W,1,10,1.4,19,M,,M,,*6E
06/12/2014	22:10:46.510	$GPGGA,221047,2522.5603,N,08002.9834,W,1,10,1.4,19,M,,M,,*65
06/12/2014	22:10:47.523	$GPGGA,221048,2522.5596,N,08002.9833,W,1,10,1.4,19,M,,M,,*62
06/12/2014	22:10:48.529	$GPGGA,221049,2522.5590,N,08002.9834,W,1,10,1.4,19,M,,M,,*62
06/12/2014	22:10:49.517	$GPGGA,221050,2522.5583,N,08002.9832,W,1,10,1.4,19,M,,M,,*6E
06/12/2014	22:10:50.557	$GPGGA,221051,2522.5578,N,08002.9832,W,1,10,1.4,19,M,,M,,*6B
06/12/2014	22:10:51.552	$GPGGA,221052,2522.5571,N,08002.9832,W,1,10,1.4,19,M,,M,,*61
06/12/2014	22:10:52.555	$GPGGA,221053,2522.5565,N,08002.9832,W,1,10,1.4,19,M,,M,,*65
06/12/2014	22:10:53.568	$GPGGA,221054,2522.5558,N,08002.9831,W,1,10,1.4,19,M,,M,,*6F
06/12/2014	22:10:54.570	$GPGGA,221055,2522.5553,N,08002.9832,W,1,10,1.4,19,M,,M,,*66
06/12/2014	22:10:55.604	$GPGGA,221056,2522.5546,N,08002.9831,W,1,10,1.4,19,M,,M,,*62
06/12/2014	22:10:56.630	$GPGGA,221057,2522.5540,N,08002.9831,W,1,10,1.4,19,M,,M,,*65
06/12/2014	22:10:57.619	$GPGGA,221058,2522.5535,N,08002.9831,W,1,10,1.4,19,M,,M,,*68
06/12/2014	22:10:58.632	$GPGGA,221059,2522.5528,N,08002.9831,W,1,10,1.4,19,M,,M,,*65
06/12/2014	22:10:59.655	$GPGGA,221100,2522.5521,N,08002.9831,W,1,10,1.4,19,M,,M,,*61
06/12/2014	22:11:00.667	$GPGGA,221101,2522.5515,N,08002.9831,W,1,10,1.4,19,M,,M,,*67
06/12/2014	22:11:01.660	$GPGGA,221102,2522.5509,N,08002.9830,W,1,10,1.4,19,M,,M,,*68
06/12/2014	22:11:02.693	$GPGGA,221103,2522.5502,N,08002.9830,W,1,10,1.4,19,M,,M,,*62
06/12/2014	22:11:03.686	$GPGGA,221104,2522.5496,N,08002.9830,W,1,10,1.4,19,M,,M,,*69
06/12/2014	22:11:04.710	$GPGGA,221105,2522.5490,N,08002.9829,W,1,10,1.4,19,M,,M,,*66
06/12/2014	22:11:05.691	$GPGGA,221106,2522.5484,N,08002.9830,W,1,10,1.4,19,M,,M,,*68
06/12/2014	22:11:06.723	$GPGGA,221107,2522.5478,N,08002.9830,W,1,10,1.4,19,M,,M,,*6A
06/12/2014	22:11:07.736	$GPGGA,221108,2522.5471,N,08002.9830,W,1,10,1.4,19,M,,M,,*6C
06/12/2014	22:11:08.728	$GPGGA,221109,2522.5466,N,08002.9830,W,1,10,1.5,19,M,,M,,*6A
06/12/2014	22:11:09.751	$GPGGA,221110,2522.5459,N,08002.9830,W,1,10,1.4,19,M,,M,,*6F
06/12/2014	22:11:10.855	$GPGGA,221111,2522.5454,N,08002.9832,W,1,10,1.4,19,M,,M,,*61
06/12/2014	22:11:11.787	$GPGGA,221112,2522.5448,N,08002.9834,W,1,10,1.4,19,M,,M,,*69
06/12/2014	22:11:12.800	$GPGGA,221113,2522.5442,N,08002.9833,W,1,10,1.4,19,M,,M,,*65
06/12/2014	22:11:13.884	$GPGGA,221114,2522.5436,N,08002.9834,W,1,10,1.4,19,M,,M,,*66
06/12/2014	22:11:14.815	$GPGGA,221115,2522.5430,N,08002.9834,W,1,10,1.5,19,M,,M,,*60
06/12/2014	22:11:15.828	$GPGGA,221116,2522.5423,N,08002.9832,W,1,10,1.4,19,M,,M,,*66
06/12/2014	22:11:16.831	$GPGGA,221117,2522.5417,N,08002.9832,W,1,10,1.4,19,M,,M,,*60
06/12/2014	22:11:17.813	$GPGGA,221118,2522.5410,N,08002.9832,W,1,10,1.4,19,M,,M,,*68
06/12/2014	22:11:18.923	$GPGGA,221119,2522.5405,N,08002.9832,W,1,10,1.4,19,M,,M,,*6D
06/12/2014	22:11:19.870	$GPGGA,221120,2522.5398,N,08002.9834,W,1,10,1.4,19,M,,M,,*62
06/12/2014	22:11:20.946	$GPGGA,221121,2522.5391,N,08002.9833,W,1,10,1.4,19,M,,M,,*6D
06/12/2014	22:11:21.864	$GPGGA,221122,2522.5385,N,08002.9834,W,1,10,1.4,19,M,,M,,*6C
06/12/2014	22:11:23.000	$GPGGA,221123,2522.5379,N,08002.9834,W,1,10,1.4,19,M,,M,,*6E
06/12/2014	22:11:23.929	$GPGGA,221124,2522.5373,N,08002.9833,W,1,10,1.4,19,M,,M,,*64
06/12/2014	22:11:24.998	$GPGGA,221125,2522.5367,N,08002.9834,W,1,10,1.4,19,M,,M,,*67
06/12/2014	22:11:26.001	$GPGGA,221126,2522.5361,N,08002.9835,W,1,10,1.4,19,M,,M,,*63
06/12/2014	22:11:27.038	$GPGGA,221127,2522.5355,N,08002.9834,W,1,10,1.4,19,M,,M,,*64
06/12/2014	22:11:28.042	$GPGGA,221128,2522.5349,N,08002.9835,W,1,10,1.4,19,M,,M,,*67
06/12/2014	22:11:29.042	$GPGGA,221129,2522.5343,N,08002.9835,W,1,10,1.4,19,M,,M,,*6C
06/12/2014	22:11:30.056	$GPGGA,221130,2522.5337,N,08002.9837,W,1,10,1.4,19,M,,M,,*65
06/12/2014	22:11:32.123	$GPGGA,221132,2522.5325,N,08002.9837,W,1,10,1.4,19,M,,M,,*64
06/12/2014	22:11:33.090	$GPGGA,221133,2522.5318,N,08002.9838,W,1,10,1.4,19,M,,M,,*64
06/12/2014	22:11:34.104	$GPGGA,221134,2522.5313,N,08002.9838,W,1,10,1.4,19,M,,M,,*68
06/12/2014	22:11:35.121	$GPGGA,221135,2522.5307,N,08002.9838,W,1,10,1.4,19,M,,M,,*6C
06/12/2014	22:11:36.126	$GPGGA,221136,2522.5301,N,08002.9838,W,1,10,1.4,19,M,,M,,*69
06/12/2014	22:11:37.141	$GPGGA,221137,2522.5295,N,08002.9839,W,1,10,1.4,19,M,,M,,*65
06/12/2014	22:11:38.120	$GPGGA,221138,2522.5289,N,08002.9839,W,1,10,1.4,19,M,,M,,*67
06/12/2014	22:11:39.170	$GPGGA,221139,2522.5282,N,08002.9839,W,1,10,1.4,19,M,,M,,*6D
06/12/2014	22:11:40.166	$GPGGA,221140,2522.5276,N,08002.9839,W,1,10,1.4,19,M,,M,,*68
06/12/2014	22:11:41.157	$GPGGA,221141,2522.5271,N,08002.9841,W,1,10,1.4,19,M,,M,,*61
