Software Version Number: 1	Data File Format Number: 1	Build Version Number: 1	Error Count Since VI Started: 0	Manufacturer: Raytheon	 Model Number: RayMarine 120	 S/N: 	 Cal Date: 	 Wind Direction Offset: 0.00	 Slope (M)1: 0.00	 Offset (B)1: 0.00	 Slope (M)2: 0.00	 Offset (B)2: 0.00	 Slope (M)3: 0.00	 Offset (B)3: 0.00	 Slope (M)4: 0.00	 Offset (B)4: 0.00	 Slope (M)5: 0.00	 Offset (B)5: 0.00	 Slope (M)6: 0.00	 Offset (B)6: 0.00
Computer Date	Computer Time	GGA String
06/12/2014	17:00:00.982	$GPGGA,170001,2545.3923,N,08007.0130,W,1,10,1.4,17,M,,M,,*65
06/12/2014	17:00:01.963	$GPGGA,170002,2545.3914,N,08007.0104,W,1,10,2.5,18,M,,M,,*68
06/12/2014	17:00:03.004	$GPGGA,170003,2545.3905,N,08007.0078,W,1,9,2.3,18,M,,M,,*5D
06/12/2014	17:00:04.036	$GPGGA,170004,2545.3896,N,08007.0052,W,1,9,2.5,18,M,,M,,*5F
06/12/2014	17:00:05.043	$GPGGA,170005,2545.3887,N,08007.0026,W,1,9,2.3,18,M,,M,,*5B
06/12/2014	17:00:06.094	$GPGGA,170006,2545.3880,N,08006.9996,W,1,9,2.3,18,M,,M,,*55
06/12/2014	17:00:07.123	$GPGGA,170007,2545.3869,N,08006.9970,W,1,10,1.4,18,M,,M,,*67
06/12/2014	17:00:08.143	$GPGGA,170008,2545.3860,N,08006.9944,W,1,10,1.4,18,M,,M,,*66
06/12/2014	17:00:09.183	$GPGGA,170009,2545.3851,N,08006.9918,W,1,10,1.4,18,M,,M,,*6C
06/12/2014	17:00:10.203	$GPGGA,170010,2545.3842,N,08006.9893,W,1,10,1.5,18,M,,M,,*65
06/12/2014	17:00:11.234	$GPGGA,170011,2545.3833,N,08006.9867,W,1,9,1.5,18,M,,M,,*51
06/12/2014	17:00:12.355	$GPGGA,170012,2545.3824,N,08006.9841,W,1,9,1.5,17,M,,M,,*5F
06/12/2014	17:00:13.292	$GPGGA,170013,2545.3815,N,08006.9814,W,1,9,1.5,17,M,,M,,*5C
06/12/2014	17:00:14.302	$GPGGA,170014,2545.3808,N,08006.9788,W,1,9,2.7,17,M,,M,,*5C
06/12/2014	17:00:15.332	$GPGGA,170015,2545.3799,N,08006.9762,W,1,8,2.7,17,M,,M,,*5F
06/12/2014	17:00:16.463	$GPGGA,170016,2545.3791,N,08006.9736,W,1,8,2.3,17,M,,M,,*51
06/12/2014	17:00:17.483	$GPGGA,170017,2545.3783,N,08006.9708,W,1,9,2.3,17,M,,M,,*5F
06/12/2014	17:00:18.533	$GPGGA,170018,2545.3774,N,08006.9685,W,1,9,1.4,17,M,,M,,*58
06/12/2014	17:00:19.553	$GPGGA,170019,2545.3766,N,08006.9658,W,1,10,1.4,17,M,,M,,*62
06/12/2014	17:00:20.583	$GPGGA,170020,2545.3759,N,08006.9632,W,1,10,2.3,17,M,,M,,*6C
06/12/2014	17:00:21.613	$GPGGA,170021,2545.3752,N,08006.9605,W,1,9,2.3,17,M,,M,,*5A
06/12/2014	17:00:22.632	$GPGGA,170022,2545.3744,N,08006.9578,W,1,9,2.3,17,M,,M,,*57
06/12/2014	17:00:23.673	$GPGGA,170023,2545.3736,N,08006.9554,W,1,9,2.3,18,M,,M,,*52
06/12/2014	17:00:24.692	$GPGGA,170024,2545.3729,N,08006.9525,W,1,9,1.4,18,M,,M,,*59
06/12/2014	17:00:25.722	$GPGGA,170025,2545.3721,N,08006.9498,W,1,10,1.4,18,M,,M,,*6F
06/12/2014	17:00:26.742	$GPGGA,170026,2545.3714,N,08006.9472,W,1,10,1.4,18,M,,M,,*6E
06/12/2014	17:00:27.782	$GPGGA,170027,2545.3707,N,08006.9445,W,1,10,1.4,18,M,,M,,*69
06/12/2014	17:00:28.812	$GPGGA,170028,2545.3697,N,08006.9420,W,1,10,1.4,18,M,,M,,*6D
06/12/2014	17:00:29.842	$GPGGA,170029,2545.3690,N,08006.9392,W,1,10,1.4,18,M,,M,,*65
06/12/2014	17:00:30.850	$GPGGA,170030,2545.3682,N,08006.9365,W,1,10,2.3,18,M,,M,,*62
06/12/2014	17:00:31.901	$GPGGA,170031,2545.3674,N,08006.9339,W,1,8,2.7,18,M,,M,,*5E
06/12/2014	17:00:32.920	$GPGGA,170032,2545.3664,N,08006.9313,W,1,8,1.4,18,M,,M,,*54
06/12/2014	17:00:33.940	$GPGGA,170033,2545.3656,N,08006.9287,W,1,10,1.4,18,M,,M,,*61
06/12/2014	17:00:34.959	$GPGGA,170034,2545.3647,N,08006.9261,W,1,10,1.4,18,M,,M,,*6E
06/12/2014	17:00:36.000	$GPGGA,170035,2545.3639,N,08006.9236,W,1,9,1.7,18,M,,M,,*5F
06/12/2014	17:00:37.029	$GPGGA,170036,2545.3631,N,08006.9209,W,1,9,1.4,18,M,,M,,*5B
06/12/2014	17:00:38.042	$GPGGA,170037,2545.3621,N,08006.9183,W,1,10,1.4,18,M,,M,,*62
06/12/2014	17:00:39.088	$GPGGA,170038,2545.3613,N,08006.9157,W,1,10,1.4,18,M,,M,,*65
06/12/2014	17:00:40.124	$GPGGA,170039,2545.3603,N,08006.9131,W,1,9,1.7,18,M,,M,,*5E
06/12/2014	17:00:41.140	$GPGGA,170040,2545.3595,N,08006.9105,W,1,9,1.7,18,M,,M,,*5B
06/12/2014	17:00:42.179	$GPGGA,170041,2545.3585,N,08006.9079,W,1,10,1.4,18,M,,M,,*6A
06/12/2014	17:00:43.184	$GPGGA,170042,2545.3577,N,08006.9053,W,1,10,1.4,18,M,,M,,*6C
06/12/2014	17:00:44.220	$GPGGA,170043,2545.3566,N,08006.9028,W,1,10,1.4,18,M,,M,,*61
06/12/2014	17:00:45.246	$GPGGA,170044,2545.3557,N,08006.9002,W,1,10,1.4,18,M,,M,,*6C
06/12/2014	17:00:46.402	$GPGGA,170045,2545.3548,N,08006.8977,W,1,9,1.4,18,M,,M,,*51
06/12/2014	17:00:47.307	$GPGGA,170046,2545.3537,N,08006.8955,W,1,9,1.4,18,M,,M,,*5A
06/12/2014	17:00:46.534	$GPGGA,170047,2545.3528,N,08006.8927,W,1,10,1.4,18,M,,M,,*68
06/12/2014	17:00:47.564	$GPGGA,170048,2545.3519,N,08006.8901,W,1,10,1.4,18,M,,M,,*61
06/12/2014	17:00:48.599	$GPGGA,170049,2545.3509,N,08006.8875,W,1,10,1.4,18,M,,M,,*63
06/12/2014	17:00:49.604	$GPGGA,170050,2545.3501,N,08006.8849,W,1,10,1.4,18,M,,M,,*6C
06/12/2014	17:00:50.633	$GPGGA,170051,2545.3490,N,08006.8823,W,1,10,1.4,18,M,,M,,*68
06/12/2014	17:00:51.706	$GPGGA,170052,2545.3480,N,08006.8797,W,1,10,1.4,18,M,,M,,*6A
06/12/2014	17:00:52.717	$GPGGA,170053,2545.3470,N,08006.8770,W,1,10,1.4,18,M,,M,,*6D
06/12/2014	17:00:53.816	$GPGGA,170054,2545.3461,N,08006.8743,W,1,10,1.4,18,M,,M,,*6A
06/12/2014	17:00:54.856	$GPGGA,170055,2545.3450,N,08006.8718,W,1,10,1.4,18,M,,M,,*67
06/12/2014	17:00:55.793	$GPGGA,170056,2545.3440,N,08006.8693,W,1,10,1.4,18,M,,M,,*67
06/12/2014	17:00:56.813	$GPGGA,170057,2545.3432,N,08006.8665,W,1,10,1.4,18,M,,M,,*6A
06/12/2014	17:00:57.822	$GPGGA,170058,2545.3422,N,08006.8638,W,1,10,2.2,18,M,,M,,*69
06/12/2014	17:00:58.986	$GPGGA,170059,2545.3412,N,08006.8613,W,1,9,1.4,18,M,,M,,*5F
06/12/2014	17:00:59.903	$GPGGA,170100,2545.3402,N,08006.8587,W,1,9,1.4,18,M,,M,,*5D
06/12/2014	17:01:00.922	$GPGGA,170101,2545.3393,N,08006.8561,W,1,10,1.4,18,M,,M,,*63
06/12/2014	17:01:02.046	$GPGGA,170102,2545.3383,N,08006.8535,W,1,10,1.7,18,M,,M,,*63
06/12/2014	17:01:03.085	$GPGGA,170103,2545.3373,N,08006.8509,W,1,9,1.4,18,M,,M,,*59
06/12/2014	17:01:04.115	$GPGGA,170104,2545.3364,N,08006.8482,W,1,9,1.4,18,M,,M,,*5A
06/12/2014	17:01:05.165	$GPGGA,170105,2545.3354,N,08006.8456,W,1,10,1.4,18,M,,M,,*69
06/12/2014	17:01:06.147	$GPGGA,170106,2545.3345,N,08006.8430,W,1,10,1.4,18,M,,M,,*6A
06/12/2014	17:01:07.183	$GPGGA,170107,2545.3336,N,08006.8403,W,1,10,1.4,18,M,,M,,*6F
06/12/2014	17:01:08.223	$GPGGA,170108,2545.3327,N,08006.8377,W,1,10,1.4,18,M,,M,,*64
06/12/2014	17:01:09.253	$GPGGA,170109,2545.3317,N,08006.8351,W,1,10,1.4,18,M,,M,,*62
06/12/2014	17:01:10.262	$GPGGA,170110,2545.3308,N,08006.8323,W,1,10,2.2,18,M,,M,,*64
06/12/2014	17:01:11.323	$GPGGA,170111,2545.3298,N,08006.8298,W,1,9,1.4,18,M,,M,,*51
06/12/2014	17:01:12.343	$GPGGA,170112,2545.3289,N,08006.8273,W,1,9,1.4,19,M,,M,,*56
06/12/2014	17:01:13.373	$GPGGA,170113,2545.3279,N,08006.8248,W,1,10,1.4,19,M,,M,,*68
06/12/2014	17:01:14.382	$GPGGA,170114,2545.3270,N,08006.8221,W,1,10,1.4,19,M,,M,,*69
06/12/2014	17:01:15.412	$GPGGA,170115,2545.3260,N,08006.8194,W,1,10,1.4,19,M,,M,,*64
06/12/2014	17:01:16.442	$GPGGA,170116,2545.3250,N,08006.8168,W,1,10,1.4,19,M,,M,,*67
06/12/2014	17:01:17.492	$GPGGA,170117,2545.3241,N,08006.8141,W,1,10,1.4,19,M,,M,,*6D
06/12/2014	17:01:18.491	$GPGGA,170118,2545.3232,N,08006.8115,W,1,10,1.4,19,M,,M,,*67
06/12/2014	17:01:19.552	$GPGGA,170119,2545.3223,N,08006.8089,W,1,10,1.4,19,M,,M,,*62
06/12/2014	17:01:20.561	$GPGGA,170120,2545.3213,N,08006.8063,W,1,10,1.4,19,M,,M,,*6F
06/12/2014	17:01:21.602	$GPGGA,170121,2545.3204,N,08006.8036,W,1,10,1.4,19,M,,M,,*68
06/12/2014	17:01:22.604	$GPGGA,170122,2545.3195,N,08006.8010,W,1,10,1.4,19,M,,M,,*64
06/12/2014	17:01:23.650	$GPGGA,170123,2545.3186,N,08006.7982,W,1,10,2.7,19,M,,M,,*6A
06/12/2014	17:01:24.670	$GPGGA,170124,2545.3178,N,08006.7958,W,1,10,1.4,19,M,,M,,*6B
06/12/2014	17:01:25.677	$GPGGA,170125,2545.3169,N,08006.7930,W,1,10,1.4,19,M,,M,,*64
06/12/2014	17:01:26.712	$GPGGA,170126,2545.3161,N,08006.7903,W,1,10,1.4,19,M,,M,,*6F
06/12/2014	17:01:27.780	$GPGGA,170127,2545.3154,N,08006.7876,W,1,10,2.2,19,M,,M,,*6E
06/12/2014	17:01:28.779	$GPGGA,170128,2545.3147,N,08006.7849,W,1,10,2.2,19,M,,M,,*6F
06/12/2014	17:01:29.788	$GPGGA,170129,2545.3139,N,08006.7823,W,1,9,1.7,19,M,,M,,*55
06/12/2014	17:01:30.840	$GPGGA,170130,2545.3133,N,08006.7793,W,1,9,1.4,19,M,,M,,*50
06/12/2014	17:01:31.961	$GPGGA,170131,2545.3126,N,08006.7765,W,1,10,1.4,19,M,,M,,*64
06/12/2014	17:01:32.896	$GPGGA,170132,2545.3120,N,08006.7738,W,1,10,1.4,19,M,,M,,*69
06/12/2014	17:01:33.929	$GPGGA,170133,2545.3114,N,08006.7712,W,1,10,1.4,19,M,,M,,*67
06/12/2014	17:01:34.943	$GPGGA,170134,2545.3109,N,08006.7685,W,1,10,1.4,19,M,,M,,*63
06/12/2014	17:01:35.984	$GPGGA,170135,2545.3104,N,08006.7657,W,1,10,1.4,19,M,,M,,*60
06/12/2014	17:01:37.010	$GPGGA,170136,2545.3100,N,08006.7631,W,1,10,1.4,19,M,,M,,*67
06/12/2014	17:01:38.130	$GPGGA,170137,2545.3096,N,08006.7604,W,1,10,1.4,19,M,,M,,*6E
06/12/2014	17:01:39.037	$GPGGA,170138,2545.3091,N,08006.7577,W,1,10,1.4,19,M,,M,,*61
06/12/2014	17:01:40.214	$GPGGA,170139,2545.3087,N,08006.7550,W,1,10,1.4,19,M,,M,,*62
06/12/2014	17:01:41.146	$GPGGA,170140,2545.3084,N,08006.7523,W,1,10,1.4,19,M,,M,,*6B
06/12/2014	17:01:42.151	$GPGGA,170141,2545.3080,N,08006.7495,W,1,10,1.4,19,M,,M,,*62
06/12/2014	17:01:43.248	$GPGGA,170142,2545.3078,N,08006.7468,W,1,10,1.4,19,M,,M,,*64
06/12/2014	17:01:44.185	$GPGGA,170143,2545.3074,N,08006.7441,W,1,10,1.4,19,M,,M,,*62
06/12/2014	17:01:45.339	$GPGGA,170144,2545.3071,N,08006.7413,W,1,10,1.4,19,M,,M,,*67
06/12/2014	17:01:46.255	$GPGGA,170145,2545.3068,N,08006.7386,W,1,10,1.4,19,M,,M,,*65
06/12/2014	17:01:47.275	$GPGGA,170146,2545.3065,N,08006.7360,W,1,10,1.4,19,M,,M,,*63
06/12/2014	17:01:46.594	$GPGGA,170147,2545.3064,N,08006.7333,W,1,10,1.4,19,M,,M,,*65
06/12/2014	17:01:47.645	$GPGGA,170148,2545.3060,N,08006.7307,W,1,10,1.4,19,M,,M,,*69
06/12/2014	17:01:48.644	$GPGGA,170149,2545.3056,N,08006.7280,W,1,10,1.4,19,M,,M,,*63
06/12/2014	17:01:49.684	$GPGGA,170150,2545.3051,N,08006.7254,W,1,10,1.4,19,M,,M,,*65
06/12/2014	17:01:50.705	$GPGGA,170151,2545.3047,N,08006.7227,W,1,10,1.4,19,M,,M,,*67
06/12/2014	17:01:51.744	$GPGGA,170152,2545.3042,N,08006.7200,W,1,10,1.4,19,M,,M,,*64
06/12/2014	17:01:52.794	$GPGGA,170153,2545.3037,N,08006.7174,W,1,10,1.4,19,M,,M,,*67
06/12/2014	17:01:53.793	$GPGGA,170154,2545.3033,N,08006.7147,W,1,10,1.4,19,M,,M,,*64
06/12/2014	17:01:54.833	$GPGGA,170155,2545.3029,N,08006.7120,W,1,10,1.4,19,M,,M,,*6F
06/12/2014	17:01:55.864	$GPGGA,170156,2545.3024,N,08006.7093,W,1,10,1.4,19,M,,M,,*68
06/12/2014	17:01:56.872	$GPGGA,170157,2545.3019,N,08006.7066,W,1,10,1.4,19,M,,M,,*6D
06/12/2014	17:01:57.901	$GPGGA,170158,2545.3015,N,08006.7039,W,1,10,1.4,19,M,,M,,*64
06/12/2014	17:01:58.962	$GPGGA,170159,2545.3010,N,08006.7011,W,1,10,1.4,19,M,,M,,*6A
06/12/2014	17:01:59.982	$GPGGA,170200,2545.3006,N,08006.6984,W,1,10,1.4,19,M,,M,,*66
06/12/2014	17:02:00.981	$GPGGA,170201,2545.3000,N,08006.6957,W,1,10,1.4,19,M,,M,,*6F
06/12/2014	17:02:02.011	$GPGGA,170202,2545.2995,N,08006.6930,W,1,10,1.4,19,M,,M,,*69
06/12/2014	17:02:03.031	$GPGGA,170203,2545.2990,N,08006.6903,W,1,10,1.4,19,M,,M,,*6D
06/12/2014	17:02:04.081	$GPGGA,170204,2545.2986,N,08006.6875,W,1,10,1.4,19,M,,M,,*6D
06/12/2014	17:02:05.121	$GPGGA,170205,2545.2981,N,08006.6848,W,1,10,1.4,19,M,,M,,*65
06/12/2014	17:02:06.116	$GPGGA,170206,2545.2977,N,08006.6821,W,1,10,1.4,19,M,,M,,*60
06/12/2014	17:02:07.181	$GPGGA,170207,2545.2972,N,08006.6794,W,1,10,1.4,19,M,,M,,*65
06/12/2014	17:02:08.200	$GPGGA,170208,2545.2968,N,08006.6767,W,1,10,1.4,19,M,,M,,*6D
06/12/2014	17:02:09.220	$GPGGA,170209,2545.2964,N,08006.6739,W,1,10,1.4,19,M,,M,,*6B
06/12/2014	17:02:10.240	$GPGGA,170210,2545.2960,N,08006.6711,W,1,10,1.4,19,M,,M,,*6D
06/12/2014	17:02:11.262	$GPGGA,170211,2545.2956,N,08006.6684,W,1,10,1.4,19,M,,M,,*64
06/12/2014	17:02:12.299	$GPGGA,170212,2545.2953,N,08006.6656,W,1,10,1.4,19,M,,M,,*6D
06/12/2014	17:02:13.350	$GPGGA,170213,2545.2950,N,08006.6629,W,1,10,1.4,19,M,,M,,*67
06/12/2014	17:02:14.340	$GPGGA,170214,2545.2948,N,08006.6601,W,1,10,1.4,19,M,,M,,*63
06/12/2014	17:02:15.388	$GPGGA,170215,2545.2943,N,08006.6574,W,1,10,1.4,19,M,,M,,*68
06/12/2014	17:02:16.408	$GPGGA,170216,2545.2941,N,08006.6547,W,1,10,1.4,19,M,,M,,*69
06/12/2014	17:02:17.572	$GPGGA,170217,2545.2938,N,08006.6519,W,1,10,1.4,19,M,,M,,*6D
06/12/2014	17:02:18.468	$GPGGA,170218,2545.2935,N,08006.6492,W,1,10,1.4,19,M,,M,,*6D
06/12/2014	17:02:19.621	$GPGGA,170219,2545.2932,N,08006.6464,W,1,10,1.4,18,M,,M,,*63
06/12/2014	17:02:20.520	$GPGGA,170220,2545.2930,N,08006.6437,W,1,10,1.4,18,M,,M,,*6D
06/12/2014	17:02:21.557	$GPGGA,170221,2545.2927,N,08006.6409,W,1,10,1.4,18,M,,M,,*67
06/12/2014	17:02:22.528	$GPGGA,170222,2545.2924,N,08006.6382,W,1,10,1.4,18,M,,M,,*63
06/12/2014	17:02:23.683	$GPGGA,170223,2545.2923,N,08006.6354,W,1,10,1.4,18,M,,M,,*6E
06/12/2014	17:02:24.573	$GPGGA,170224,2545.2920,N,08006.6326,W,1,10,1.4,18,M,,M,,*6F
06/12/2014	17:02:25.566	$GPGGA,170225,2545.2917,N,08006.6299,W,1,10,1.4,18,M,,M,,*6F
06/12/2014	17:02:26.679	$GPGGA,170226,2545.2914,N,08006.6271,W,1,10,1.4,18,M,,M,,*69
06/12/2014	17:02:27.612	$GPGGA,170227,2545.2912,N,08006.6243,W,1,10,1.4,18,M,,M,,*6F
06/12/2014	17:02:28.603	$GPGGA,170228,2545.2910,N,08006.6215,W,1,10,1.4,18,M,,M,,*61
06/12/2014	17:02:29.615	$GPGGA,170229,2545.2908,N,08006.6187,W,1,10,1.4,18,M,,M,,*61
06/12/2014	17:02:30.719	$GPGGA,170230,2545.2905,N,08006.6159,W,1,10,1.4,18,M,,M,,*67
06/12/2014	17:02:31.731	$GPGGA,170231,2545.2903,N,08006.6132,W,1,10,1.4,18,M,,M,,*6D
06/12/2014	17:02:32.663	$GPGGA,170232,2545.2901,N,08006.6104,W,1,10,1.4,18,M,,M,,*69
06/12/2014	17:02:33.655	$GPGGA,170233,2545.2897,N,08006.6076,W,1,10,1.4,18,M,,M,,*62
06/12/2014	17:02:34.757	$GPGGA,170234,2545.2894,N,08006.6049,W,1,10,1.4,18,M,,M,,*6A
06/12/2014	17:02:35.678	$GPGGA,170235,2545.2891,N,08006.6021,W,1,10,1.4,18,M,,M,,*60
06/12/2014	17:02:36.792	$GPGGA,170236,2545.2888,N,08006.5993,W,1,10,1.4,18,M,,M,,*68
06/12/2014	17:02:37.805	$GPGGA,170237,2545.2885,N,08006.5965,W,1,10,1.4,18,M,,M,,*6D
06/12/2014	17:02:38.807	$GPGGA,170238,2545.2883,N,08006.5938,W,1,10,1.4,18,M,,M,,*6C
06/12/2014	17:02:39.839	$GPGGA,170239,2545.2880,N,08006.5909,W,1,10,1.4,18,M,,M,,*6C
06/12/2014	17:02:40.843	$GPGGA,170240,2545.2878,N,08006.5881,W,1,10,1.4,18,M,,M,,*64
06/12/2014	17:02:41.874	$GPGGA,170241,2545.2876,N,08006.5853,W,1,10,1.4,18,M,,M,,*64
06/12/2014	17:02:42.836	$GPGGA,170242,2545.2874,N,08006.5825,W,1,10,1.5,18,M,,M,,*65
06/12/2014	17:02:43.859	$GPGGA,170243,2545.2872,N,08006.5797,W,1,10,1.4,18,M,,M,,*65
06/12/2014	17:02:44.881	$GPGGA,170244,2545.2870,N,08006.5770,W,1,10,1.4,18,M,,M,,*69
06/12/2014	17:02:45.894	$GPGGA,170245,2545.2867,N,08006.5741,W,1,10,1.4,18,M,,M,,*6C
06/12/2014	17:02:46.886	$GPGGA,170246,2545.2865,N,08006.5713,W,1,10,1.4,18,M,,M,,*6A
06/12/2014	17:02:46.576	$GPGGA,170247,2545.2863,N,08006.5685,W,1,10,1.4,18,M,,M,,*63
06/12/2014	17:02:47.578	$GPGGA,170248,2545.2860,N,08006.5657,W,1,10,1.4,18,M,,M,,*60
06/12/2014	17:02:48.590	$GPGGA,170249,2545.2858,N,08006.5629,W,1,10,1.4,18,M,,M,,*63
06/12/2014	17:02:49.592	$GPGGA,170250,2545.2854,N,08006.5601,W,1,10,1.4,18,M,,M,,*6D
06/12/2014	17:02:50.584	$GPGGA,170251,2545.2851,N,08006.5573,W,1,10,1.4,18,M,,M,,*6F
06/12/2014	17:02:51.617	$GPGGA,170252,2545.2847,N,08006.5546,W,1,10,1.4,18,M,,M,,*6D
06/12/2014	17:02:52.649	$GPGGA,170253,2545.2844,N,08006.5518,W,1,10,1.4,18,M,,M,,*64
06/12/2014	17:02:53.621	$GPGGA,170254,2545.2841,N,08006.5490,W,1,10,1.4,18,M,,M,,*67
06/12/2014	17:02:54.654	$GPGGA,170255,2545.2837,N,08006.5463,W,1,10,1.4,18,M,,M,,*6B
06/12/2014	17:02:55.666	$GPGGA,170256,2545.2833,N,08006.5435,W,1,10,1.4,18,M,,M,,*6F
06/12/2014	17:02:56.651	$GPGGA,170257,2545.2829,N,08006.5407,W,1,10,1.4,18,M,,M,,*64
06/12/2014	17:02:57.661	$GPGGA,170258,2545.2825,N,08006.5380,W,1,10,1.4,18,M,,M,,*6F
06/12/2014	17:02:58.683	$GPGGA,170259,2545.2822,N,08006.5352,W,1,10,1.4,18,M,,M,,*66
06/12/2014	17:02:59.716	$GPGGA,170300,2545.2818,N,08006.5325,W,1,10,1.4,17,M,,M,,*6D
06/12/2014	17:03:00.728	$GPGGA,170301,2545.2812,N,08006.5297,W,1,10,1.4,17,M,,M,,*6E
06/12/2014	17:03:01.711	$GPGGA,170302,2545.2808,N,08006.5270,W,1,10,1.4,17,M,,M,,*6F
06/12/2014	17:03:02.733	$GPGGA,170303,2545.2803,N,08006.5243,W,1,10,1.4,17,M,,M,,*65
06/12/2014	17:03:03.745	$GPGGA,170304,2545.2800,N,08006.5215,W,1,10,1.4,17,M,,M,,*62
06/12/2014	17:03:04.849	$GPGGA,170305,2545.2794,N,08006.5188,W,1,10,1.4,17,M,,M,,*66
06/12/2014	17:03:05.751	$GPGGA,170306,2545.2790,N,08006.5161,W,1,10,1.4,17,M,,M,,*66
06/12/2014	17:03:06.751	$GPGGA,170307,2545.2785,N,08006.5133,W,1,10,1.4,17,M,,M,,*64
06/12/2014	17:03:07.895	$GPGGA,170308,2545.2782,N,08006.5106,W,1,10,1.4,17,M,,M,,*6A
06/12/2014	17:03:08.907	$GPGGA,170309,2545.2777,N,08006.5079,W,1,10,1.4,17,M,,M,,*68
06/12/2014	17:03:09.879	$GPGGA,170310,2545.2772,N,08006.5051,W,1,10,1.4,17,M,,M,,*6F
06/12/2014	17:03:10.892	$GPGGA,170311,2545.2767,N,08006.5024,W,1,10,1.4,17,M,,M,,*68
06/12/2014	17:03:11.914	$GPGGA,170312,2545.2762,N,08006.4997,W,1,10,1.4,17,M,,M,,*6E
06/12/2014	17:03:12.815	$GPGGA,170313,2545.2757,N,08006.4969,W,1,10,1.4,17,M,,M,,*68
06/12/2014	17:03:13.929	$GPGGA,170314,2545.2753,N,08006.4942,W,1,10,1.4,17,M,,M,,*62
06/12/2014	17:03:14.850	$GPGGA,170315,2545.2747,N,08006.4914,W,1,10,1.4,17,M,,M,,*65
06/12/2014	17:03:15.954	$GPGGA,170316,2545.2742,N,08006.4886,W,1,10,1.4,17,M,,M,,*69
06/12/2014	17:03:16.875	$GPGGA,170317,2545.2737,N,08006.4859,W,1,10,1.4,17,M,,M,,*68
06/12/2014	17:03:17.887	$GPGGA,170318,2545.2733,N,08006.4831,W,1,10,1.4,17,M,,M,,*6D
06/12/2014	17:03:18.880	$GPGGA,170319,2545.2728,N,08006.4804,W,1,10,1.4,17,M,,M,,*60
06/12/2014	17:03:20.037	$GPGGA,170320,2545.2724,N,08006.4777,W,1,10,1.4,16,M,,M,,*6C
06/12/2014	17:03:20.995	$GPGGA,170321,2545.2718,N,08006.4750,W,1,10,1.4,16,M,,M,,*67
06/12/2014	17:03:22.019	$GPGGA,170322,2545.2713,N,08006.4723,W,1,10,1.4,16,M,,M,,*6B
06/12/2014	17:03:23.030	$GPGGA,170323,2545.2707,N,08006.4695,W,1,10,1.4,16,M,,M,,*63
06/12/2014	17:03:24.054	$GPGGA,170324,2545.2702,N,08006.4668,W,1,10,1.4,16,M,,M,,*63
06/12/2014	17:03:25.064	$GPGGA,170325,2545.2697,N,08006.4641,W,1,10,1.4,16,M,,M,,*64
06/12/2014	17:03:26.046	$GPGGA,170326,2545.2691,N,08006.4614,W,1,10,1.4,16,M,,M,,*61
06/12/2014	17:03:27.080	$GPGGA,170327,2545.2686,N,08006.4587,W,1,10,1.4,16,M,,M,,*6F
06/12/2014	17:03:28.081	$GPGGA,170328,2545.2681,N,08006.4560,W,1,10,1.4,16,M,,M,,*6E
06/12/2014	17:03:29.104	$GPGGA,170329,2545.2678,N,08006.4532,W,1,10,1.4,16,M,,M,,*6E
06/12/2014	17:03:30.096	$GPGGA,170330,2545.2673,N,08006.4505,W,1,10,1.4,16,M,,M,,*69
06/12/2014	17:03:31.099	$GPGGA,170331,2545.2668,N,08006.4478,W,1,10,1.4,16,M,,M,,*69
06/12/2014	17:03:32.131	$GPGGA,170332,2545.2663,N,08006.4451,W,1,10,1.4,16,M,,M,,*6A
06/12/2014	17:03:33.143	$GPGGA,170333,2545.2661,N,08006.4424,W,1,10,1.4,16,M,,M,,*6B
06/12/2014	17:03:34.141	$GPGGA,170334,2545.2655,N,08006.4397,W,1,10,1.4,16,M,,M,,*64
06/12/2014	17:03:35.168	$GPGGA,170335,2545.2650,N,08006.4370,W,1,10,1.4,16,M,,M,,*69
06/12/2014	17:03:36.160	$GPGGA,170336,2545.2645,N,08006.4343,W,1,10,1.4,16,M,,M,,*6E
06/12/2014	17:03:37.183	$GPGGA,170337,2545.2641,N,08006.4315,W,1,10,1.4,16,M,,M,,*68
06/12/2014	17:03:38.185	$GPGGA,170338,2545.2634,N,08006.4288,W,1,10,1.4,16,M,,M,,*60
06/12/2014	17:03:39.218	$GPGGA,170339,2545.2630,N,08006.4261,W,1,9,1.6,16,M,,M,,*58
06/12/2014	17:03:40.210	$GPGGA,170340,2545.2623,N,08006.4233,W,1,9,1.4,16,M,,M,,*51
06/12/2014	17:03:41.242	$GPGGA,170341,2545.2616,N,08006.4205,W,1,10,1.4,16,M,,M,,*6B
06/12/2014	17:03:42.211	$GPGGA,170342,2545.2610,N,08006.4177,W,1,10,1.4,16,M,,M,,*68
06/12/2014	17:03:43.220	$GPGGA,170343,2545.2605,N,08006.4149,W,1,10,1.4,16,M,,M,,*60
06/12/2014	17:03:44.258	$GPGGA,170344,2545.2598,N,08006.4121,W,1,10,1.4,16,M,,M,,*6E
06/12/2014	17:03:45.281	$GPGGA,170345,2545.2591,N,08006.4094,W,1,10,1.4,16,M,,M,,*69
06/12/2014	17:03:46.273	$GPGGA,170346,2545.2585,N,08006.4066,W,1,10,1.4,16,M,,M,,*62
06/12/2014	17:03:46.543	$GPGGA,170347,2545.2579,N,08006.4039,W,1,11,1.4,16,M,,M,,*6B
06/12/2014	17:03:47.539	$GPGGA,170348,2545.2573,N,08006.4012,W,1,11,1.4,16,M,,M,,*67
06/12/2014	17:03:48.690	$GPGGA,170349,2545.2569,N,08006.3984,W,1,11,1.4,16,M,,M,,*6C
06/12/2014	17:03:49.552	$GPGGA,170350,2545.2562,N,08006.3957,W,1,11,1.4,16,M,,M,,*61
06/12/2014	17:03:50.581	$GPGGA,170351,2545.2556,N,08006.3931,W,1,11,1.4,16,M,,M,,*67
06/12/2014	17:03:51.605	$GPGGA,170352,2545.2551,N,08006.3905,W,1,11,1.4,17,M,,M,,*65
06/12/2014	17:03:52.577	$GPGGA,170353,2545.2543,N,08006.3880,W,1,10,2.0,17,M,,M,,*6D
06/12/2014	17:03:53.731	$GPGGA,170354,2545.2536,N,08006.3856,W,1,10,2.0,17,M,,M,,*63
06/12/2014	17:03:54.612	$GPGGA,170355,2545.2529,N,08006.3831,W,1,10,1.4,17,M,,M,,*6A
06/12/2014	17:03:55.638	$GPGGA,170356,2545.2522,N,08006.3806,W,1,10,1.4,17,M,,M,,*66
06/12/2014	17:03:56.642	$GPGGA,170357,2545.2515,N,08006.3780,W,1,11,1.4,17,M,,M,,*63
06/12/2014	17:03:59.067	$GPGGA,170359,2545.2501,N,08006.3729,W,1,11,1.4,17,M,,M,,*6B
06/12/2014	17:03:59.825	$GPGGA,170400,2545.2494,N,08006.3703,W,1,11,1.4,17,M,,M,,*65
06/12/2014	17:04:00.675	$GPGGA,170401,2545.2486,N,08006.3677,W,1,10,2.0,18,M,,M,,*6C
06/12/2014	17:04:01.799	$GPGGA,170402,2545.2479,N,08006.3652,W,1,10,2.1,18,M,,M,,*69
06/12/2014	17:04:02.883	$GPGGA,170403,2545.2471,N,08006.3625,W,1,11,1.4,18,M,,M,,*67
06/12/2014	17:04:03.713	$GPGGA,170404,2545.2464,N,08006.3599,W,1,11,1.4,18,M,,M,,*60
06/12/2014	17:04:04.907	$GPGGA,170405,2545.2457,N,08006.3573,W,1,11,1.4,18,M,,M,,*65
06/12/2014	17:04:05.717	$GPGGA,170406,2545.2447,N,08006.3547,W,1,11,1.4,18,M,,M,,*60
06/12/2014	17:04:06.932	$GPGGA,170407,2545.2439,N,08006.3521,W,1,10,1.6,18,M,,M,,*6B
06/12/2014	17:04:07.874	$GPGGA,170408,2545.2431,N,08006.3494,W,1,10,1.4,19,M,,M,,*60
06/12/2014	17:04:08.957	$GPGGA,170409,2545.2422,N,08006.3466,W,1,10,2.0,19,M,,M,,*69
06/12/2014	17:04:09.878	$GPGGA,170410,2545.2413,N,08006.3439,W,1,10,2.0,19,M,,M,,*69
06/12/2014	17:04:10.870	$GPGGA,170411,2545.2403,N,08006.3415,W,1,10,2.0,19,M,,M,,*67
06/12/2014	17:04:11.923	$GPGGA,170412,2545.2394,N,08006.3389,W,1,10,1.3,19,M,,M,,*6F
06/12/2014	17:04:12.956	$GPGGA,170413,2545.2385,N,08006.3364,W,1,11,1.3,19,M,,M,,*6C
06/12/2014	17:04:13.928	$GPGGA,170414,2545.2377,N,08006.3339,W,1,11,1.3,19,M,,M,,*6E
06/12/2014	17:04:14.981	$GPGGA,170415,2545.2370,N,08006.3315,W,1,11,1.3,19,M,,M,,*66
06/12/2014	17:04:15.953	$GPGGA,170416,2545.2360,N,08006.3290,W,1,11,1.3,19,M,,M,,*68
06/12/2014	17:04:17.045	$GPGGA,170417,2545.2352,N,08006.3265,W,1,11,1.3,19,M,,M,,*62
06/12/2014	17:04:17.936	$GPGGA,170418,2545.2341,N,08006.3240,W,1,11,1.3,19,M,,M,,*68
06/12/2014	17:04:19.050	$GPGGA,170419,2545.2331,N,08006.3215,W,1,10,1.6,20,M,,M,,*60
06/12/2014	17:04:20.025	$GPGGA,170420,2545.2323,N,08006.3190,W,1,10,1.6,20,M,,M,,*67
06/12/2014	17:04:20.963	$GPGGA,170421,2545.2312,N,08006.3165,W,1,10,1.6,20,M,,M,,*6E
06/12/2014	17:04:21.975	$GPGGA,170422,2545.2303,N,08006.3139,W,1,10,1.6,20,M,,M,,*64
06/12/2014	17:04:23.079	$GPGGA,170423,2545.2294,N,08006.3114,W,1,10,1.3,20,M,,M,,*60
06/12/2014	17:04:24.041	$GPGGA,170424,2545.2284,N,08006.3088,W,1,10,1.3,20,M,,M,,*62
06/12/2014	17:04:25.109	$GPGGA,170425,2545.2276,N,08006.3062,W,1,11,1.6,20,M,,M,,*6E
06/12/2014	17:04:26.056	$GPGGA,170426,2545.2265,N,08006.3037,W,1,11,1.3,20,M,,M,,*6A
06/12/2014	17:04:27.140	$GPGGA,170427,2545.2255,N,08006.3010,W,1,11,1.3,20,M,,M,,*6D
06/12/2014	17:04:28.090	$GPGGA,170428,2545.2247,N,08006.2985,W,1,11,1.3,20,M,,M,,*65
06/12/2014	17:04:29.069	$GPGGA,170429,2545.2238,N,08006.2959,W,1,11,1.3,20,M,,M,,*6D
06/12/2014	17:04:30.063	$GPGGA,170430,2545.2229,N,08006.2933,W,1,11,1.3,20,M,,M,,*69
06/12/2014	17:04:31.078	$GPGGA,170431,2545.2218,N,08006.2908,W,1,11,1.3,20,M,,M,,*62
06/12/2014	17:04:32.115	$GPGGA,170432,2545.2209,N,08006.2883,W,1,11,1.3,21,M,,M,,*62
06/12/2014	17:04:33.195	$GPGGA,170433,2545.2200,N,08006.2857,W,1,11,1.6,21,M,,M,,*66
06/12/2014	17:04:34.151	$GPGGA,170434,2545.2191,N,08006.2831,W,1,11,1.6,21,M,,M,,*6A
06/12/2014	17:04:35.258	$GPGGA,170435,2545.2183,N,08006.2806,W,1,10,1.3,21,M,,M,,*68
06/12/2014	17:04:36.168	$GPGGA,170436,2545.2173,N,08006.2780,W,1,10,1.6,21,M,,M,,*60
06/12/2014	17:04:37.211	$GPGGA,170437,2545.2166,N,08006.2756,W,1,10,1.3,21,M,,M,,*6B
06/12/2014	17:04:38.174	$GPGGA,170438,2545.2158,N,08006.2732,W,1,10,1.3,21,M,,M,,*6B
06/12/2014	17:04:39.236	$GPGGA,170439,2545.2150,N,08006.2707,W,1,11,1.3,21,M,,M,,*65
06/12/2014	17:04:40.218	$GPGGA,170440,2545.2142,N,08006.2682,W,1,11,1.3,21,M,,M,,*64
06/12/2014	17:04:41.261	$GPGGA,170441,2545.2135,N,08006.2658,W,1,11,1.3,21,M,,M,,*62
06/12/2014	17:04:42.182	$GPGGA,170442,2545.2125,N,08006.2632,W,1,11,1.3,21,M,,M,,*6C
06/12/2014	17:04:43.194	$GPGGA,170443,2545.2117,N,08006.2607,W,1,11,1.3,21,M,,M,,*6A
06/12/2014	17:04:44.247	$GPGGA,170444,2545.2107,N,08006.2581,W,1,11,1.6,21,M,,M,,*64
06/12/2014	17:04:45.330	$GPGGA,170445,2545.2099,N,08006.2554,W,1,10,2.1,21,M,,M,,*6E
06/12/2014	17:04:45.618	$GPGGA,170446,2545.2089,N,08006.2527,W,1,10,2.1,21,M,,M,,*68
06/12/2014	17:04:46.491	$GPGGA,170447,2545.2081,N,08006.2499,W,1,9,2.1,21,M,,M,,*5D
06/12/2014	17:04:47.616	$GPGGA,170448,2545.2070,N,08006.2473,W,1,9,1.3,20,M,,M,,*58
06/12/2014	17:04:48.657	$GPGGA,170449,2545.2061,N,08006.2448,W,1,11,1.6,20,M,,M,,*6D
06/12/2014	17:04:49.558	$GPGGA,170450,2545.2052,N,08006.2423,W,1,11,1.6,20,M,,M,,*68
06/12/2014	17:04:50.643	$GPGGA,170451,2545.2040,N,08006.2398,W,1,10,1.3,20,M,,M,,*69
06/12/2014	17:04:51.663	$GPGGA,170452,2545.2028,N,08006.2372,W,1,10,1.3,20,M,,M,,*60
06/12/2014	17:04:52.665	$GPGGA,170453,2545.2017,N,08006.2346,W,1,11,1.3,20,M,,M,,*6B
06/12/2014	17:04:53.668	$GPGGA,170454,2545.2006,N,08006.2321,W,1,11,1.3,20,M,,M,,*6D
06/12/2014	17:04:54.741	$GPGGA,170455,2545.1995,N,08006.2295,W,1,11,1.3,20,M,,M,,*62
06/12/2014	17:04:55.703	$GPGGA,170456,2545.1983,N,08006.2270,W,1,11,1.3,20,M,,M,,*6D
06/12/2014	17:04:56.755	$GPGGA,170457,2545.1983,N,08006.2270,W,1,11,1.3,20,M,,M,,*6C
06/12/2014	17:04:57.697	$GPGGA,170458,2545.1962,N,08006.2221,W,1,11,1.3,20,M,,M,,*68
06/12/2014	17:04:58.750	$GPGGA,170459,2545.1951,N,08006.2196,W,1,11,1.3,20,M,,M,,*66
06/12/2014	17:04:59.752	$GPGGA,170500,2545.1940,N,08006.2172,W,1,11,1.3,20,M,,M,,*61
06/12/2014	17:05:00.775	$GPGGA,170501,2545.1929,N,08006.2147,W,1,11,1.3,20,M,,M,,*69
06/12/2014	17:05:01.747	$GPGGA,170502,2545.1919,N,08006.2122,W,1,11,1.3,20,M,,M,,*6A
06/12/2014	17:05:02.779	$GPGGA,170503,2545.1908,N,08006.2098,W,1,11,1.3,20,M,,M,,*6B
06/12/2014	17:05:03.792	$GPGGA,170504,2545.1898,N,08006.2073,W,1,11,1.6,20,M,,M,,*64
06/12/2014	17:05:04.804	$GPGGA,170505,2545.1887,N,08006.2049,W,1,10,1.6,20,M,,M,,*63
06/12/2014	17:05:05.796	$GPGGA,170506,2545.1877,N,08006.2024,W,1,10,1.6,20,M,,M,,*64
06/12/2014	17:05:06.829	$GPGGA,170507,2545.1868,N,08006.2000,W,1,10,1.6,20,M,,M,,*6D
06/12/2014	17:05:07.811	$GPGGA,170508,2545.1857,N,08006.1976,W,1,10,1.6,20,M,,M,,*65
06/12/2014	17:05:08.844	$GPGGA,170509,2545.1857,N,08006.1976,W,1,10,1.6,20,M,,M,,*64
06/12/2014	17:05:09.835	$GPGGA,170510,2545.1836,N,08006.1927,W,1,10,1.6,20,M,,M,,*6F
06/12/2014	17:05:10.898	$GPGGA,170511,2545.1825,N,08006.1902,W,1,10,1.3,20,M,,M,,*6E
06/12/2014	17:05:11.870	$GPGGA,170512,2545.1812,N,08006.1875,W,1,10,1.3,20,M,,M,,*68
06/12/2014	17:05:12.933	$GPGGA,170513,2545.1800,N,08006.1848,W,1,11,1.3,20,M,,M,,*65
06/12/2014	17:05:13.884	$GPGGA,170514,2545.1788,N,08006.1823,W,1,11,1.3,20,M,,M,,*60
06/12/2014	17:05:14.937	$GPGGA,170515,2545.1776,N,08006.1797,W,1,11,1.3,20,M,,M,,*60
06/12/2014	17:05:15.909	$GPGGA,170516,2545.1765,N,08006.1773,W,1,11,1.3,20,M,,M,,*6B
06/12/2014	17:05:16.952	$GPGGA,170517,2545.1756,N,08006.1748,W,1,11,1.3,20,M,,M,,*62
06/12/2014	17:05:17.914	$GPGGA,170518,2545.1745,N,08006.1724,W,1,11,1.3,20,M,,M,,*65
06/12/2014	17:05:18.936	$GPGGA,170519,2545.1745,N,08006.1724,W,1,11,1.3,20,M,,M,,*64
06/12/2014	17:05:19.959	$GPGGA,170520,2545.1722,N,08006.1675,W,1,11,1.3,20,M,,M,,*6A
06/12/2014	17:05:21.012	$GPGGA,170521,2545.1710,N,08006.1651,W,1,11,1.3,20,M,,M,,*6C
06/12/2014	17:05:22.072	$GPGGA,170522,2545.1699,N,08006.1627,W,1,11,1.3,20,M,,M,,*6E
06/12/2014	17:05:23.078	$GPGGA,170523,2545.1688,N,08006.1602,W,1,11,1.3,20,M,,M,,*68
06/12/2014	17:05:23.999	$GPGGA,170524,2545.1677,N,08006.1578,W,1,11,1.3,20,M,,M,,*61
06/12/2014	17:05:24.990	$GPGGA,170525,2545.1677,N,08006.1578,W,1,11,1.3,20,M,,M,,*60
06/12/2014	17:05:26.085	$GPGGA,170526,2545.1655,N,08006.1530,W,1,11,1.3,20,M,,M,,*6F
06/12/2014	17:05:27.014	$GPGGA,170527,2545.1655,N,08006.1530,W,1,11,1.3,20,M,,M,,*6E
06/12/2014	17:05:28.143	$GPGGA,170528,2545.1633,N,08006.1482,W,1,11,1.3,20,M,,M,,*69
06/12/2014	17:05:29.160	$GPGGA,170529,2545.1622,N,08006.1458,W,1,11,1.3,20,M,,M,,*6F
06/12/2014	17:05:30.079	$GPGGA,170530,2545.1610,N,08006.1434,W,1,11,1.3,20,M,,M,,*6C
06/12/2014	17:05:31.068	$GPGGA,170531,2545.1610,N,08006.1434,W,1,11,1.3,20,M,,M,,*6D
06/12/2014	17:05:32.157	$GPGGA,170532,2545.1586,N,08006.1384,W,1,11,1.3,20,M,,M,,*6E
06/12/2014	17:05:33.184	$GPGGA,170533,2545.1575,N,08006.1360,W,1,11,1.3,20,M,,M,,*69
06/12/2014	17:05:34.081	$GPGGA,170534,2545.1564,N,08006.1335,W,1,11,1.3,19,M,,M,,*64
06/12/2014	17:05:35.217	$GPGGA,170535,2545.1553,N,08006.1311,W,1,11,1.3,19,M,,M,,*67
06/12/2014	17:05:36.107	$GPGGA,170536,2545.1541,N,08006.1287,W,1,11,1.3,19,M,,M,,*69
06/12/2014	17:05:37.219	$GPGGA,170537,2545.1532,N,08006.1263,W,1,11,1.3,19,M,,M,,*66
06/12/2014	17:05:38.120	$GPGGA,170538,2545.1521,N,08006.1239,W,1,11,1.3,19,M,,M,,*64
06/12/2014	17:05:39.234	$GPGGA,170539,2545.1510,N,08006.1215,W,1,11,1.3,19,M,,M,,*69
06/12/2014	17:05:40.259	$GPGGA,170540,2545.1497,N,08006.1191,W,1,11,1.3,19,M,,M,,*66
06/12/2014	17:05:41.270	$GPGGA,170541,2545.1486,N,08006.1166,W,1,11,1.3,19,M,,M,,*6F
06/12/2014	17:05:42.261	$GPGGA,170542,2545.1476,N,08006.1142,W,1,11,1.3,19,M,,M,,*65
06/12/2014	17:05:43.293	$GPGGA,170543,2545.1465,N,08006.1118,W,1,11,1.3,19,M,,M,,*69
06/12/2014	17:05:44.286	$GPGGA,170544,2545.1454,N,08006.1094,W,1,11,1.3,19,M,,M,,*69
06/12/2014	17:05:45.317	$GPGGA,170545,2545.1454,N,08006.1094,W,1,11,1.3,19,M,,M,,*68
06/12/2014	17:05:46.299	$GPGGA,170546,2545.1435,N,08006.1047,W,1,11,1.6,19,M,,M,,*67
06/12/2014	17:05:46.590	$GPGGA,170547,2545.1420,N,08006.1018,W,1,11,1.3,19,M,,M,,*6D
06/12/2014	17:05:47.582	$GPGGA,170548,2545.1409,N,08006.0993,W,1,11,1.3,19,M,,M,,*62
06/12/2014	17:05:48.615	$GPGGA,170549,2545.1409,N,08006.0993,W,1,11,1.3,19,M,,M,,*63
06/12/2014	17:05:49.597	$GPGGA,170550,2545.1386,N,08006.0945,W,1,11,1.3,19,M,,M,,*60
06/12/2014	17:05:50.629	$GPGGA,170551,2545.1375,N,08006.0921,W,1,11,1.3,19,M,,M,,*6F
06/12/2014	17:05:51.632	$GPGGA,170552,2545.1364,N,08006.0896,W,1,11,1.3,19,M,,M,,*61
06/12/2014	17:05:52.644	$GPGGA,170553,2545.1355,N,08006.0872,W,1,10,1.9,19,M,,M,,*63
06/12/2014	17:05:53.646	$GPGGA,170554,2545.1344,N,08006.0849,W,1,10,1.6,19,M,,M,,*63
06/12/2014	17:05:54.649	$GPGGA,170555,2545.1333,N,08006.0824,W,1,10,1.6,18,M,,M,,*68
06/12/2014	17:05:55.671	$GPGGA,170556,2545.1321,N,08006.0801,W,1,10,1.3,18,M,,M,,*6A
06/12/2014	17:05:56.663	$GPGGA,170557,2545.1309,N,08006.0777,W,1,11,1.3,18,M,,M,,*6E
06/12/2014	17:05:57.676	$GPGGA,170558,2545.1297,N,08006.0753,W,1,11,1.3,18,M,,M,,*61
06/12/2014	17:05:58.720	$GPGGA,170559,2545.1286,N,08006.0729,W,1,11,1.3,18,M,,M,,*6D
06/12/2014	17:05:59.711	$GPGGA,170600,2545.1275,N,08006.0705,W,1,11,1.3,18,M,,M,,*60
06/12/2014	17:06:00.703	$GPGGA,170601,2545.1263,N,08006.0681,W,1,11,1.3,18,M,,M,,*6B
06/12/2014	17:06:01.724	$GPGGA,170602,2545.1252,N,08006.0657,W,1,11,1.3,18,M,,M,,*61
06/12/2014	17:06:02.737	$GPGGA,170603,2545.1241,N,08006.0633,W,1,11,1.3,18,M,,M,,*60
06/12/2014	17:06:03.759	$GPGGA,170604,2545.1230,N,08006.0609,W,1,11,1.3,18,M,,M,,*68
06/12/2014	17:06:04.751	$GPGGA,170605,2545.1219,N,08006.0586,W,1,11,1.3,18,M,,M,,*66
06/12/2014	17:06:05.784	$GPGGA,170606,2545.1208,N,08006.0562,W,1,11,1.6,18,M,,M,,*6A
06/12/2014	17:06:06.796	$GPGGA,170607,2545.1196,N,08006.0536,W,1,11,1.3,18,M,,M,,*6B
06/12/2014	17:06:07.799	$GPGGA,170608,2545.1185,N,08006.0512,W,1,11,1.3,18,M,,M,,*60
06/12/2014	17:06:08.801	$GPGGA,170609,2545.1174,N,08006.0488,W,1,10,1.4,18,M,,M,,*6B
06/12/2014	17:06:09.813	$GPGGA,170610,2545.1163,N,08006.0464,W,1,10,1.3,18,M,,M,,*60
06/12/2014	17:06:10.826	$GPGGA,170611,2545.1152,N,08006.0440,W,1,11,1.3,18,M,,M,,*64
06/12/2014	17:06:11.950	$GPGGA,170612,2545.1142,N,08006.0416,W,1,11,1.3,18,M,,M,,*65
06/12/2014	17:06:12.952	$GPGGA,170613,2545.1131,N,08006.0392,W,1,11,1.3,19,M,,M,,*6A
06/12/2014	17:06:13.848	$GPGGA,170614,2545.1120,N,08006.0368,W,1,11,1.3,19,M,,M,,*68
06/12/2014	17:06:14.968	$GPGGA,170615,2545.1109,N,08006.0344,W,1,11,1.3,19,M,,M,,*6C
06/12/2014	17:06:15.879	$GPGGA,170616,2545.1099,N,08006.0320,W,1,11,1.3,19,M,,M,,*65
06/12/2014	17:06:16.890	$GPGGA,170617,2545.1088,N,08006.0296,W,1,11,1.3,19,M,,M,,*68
06/12/2014	17:06:18.005	$GPGGA,170618,2545.1078,N,08006.0273,W,1,11,1.3,19,M,,M,,*63
06/12/2014	17:06:18.996	$GPGGA,170619,2545.1067,N,08006.0250,W,1,10,1.6,19,M,,M,,*69
06/12/2014	17:06:19.906	$GPGGA,170620,2545.1057,N,08006.0226,W,1,10,1.6,19,M,,M,,*61
06/12/2014	17:06:21.020	$GPGGA,170621,2545.1046,N,08006.0202,W,1,10,1.6,19,M,,M,,*66
06/12/2014	17:06:21.931	$GPGGA,170622,2545.1034,N,08006.0177,W,1,10,1.3,19,M,,M,,*64
06/12/2014	17:06:23.044	$GPGGA,170623,2545.1023,N,08006.0153,W,1,11,1.3,19,M,,M,,*64
06/12/2014	17:06:24.057	$GPGGA,170624,2545.1012,N,08006.0128,W,1,11,1.3,19,M,,M,,*6D
06/12/2014	17:06:25.070	$GPGGA,170625,2545.1001,N,08006.0104,W,1,11,1.3,19,M,,M,,*60
06/12/2014	17:06:25.960	$GPGGA,170626,2545.0991,N,08006.0081,W,1,11,1.3,19,M,,M,,*6E
06/12/2014	17:06:27.084	$GPGGA,170627,2545.0980,N,08006.0057,W,1,10,1.6,19,M,,M,,*60
06/12/2014	17:06:28.096	$GPGGA,170628,2545.0970,N,08006.0034,W,1,10,1.6,19,M,,M,,*65
06/12/2014	17:06:29.099	$GPGGA,170629,2545.0959,N,08006.0010,W,1,10,1.6,19,M,,M,,*69
06/12/2014	17:06:30.111	$GPGGA,170630,2545.0949,N,08005.9987,W,1,10,1.6,19,M,,M,,*6D
06/12/2014	17:06:31.145	$GPGGA,170631,2545.0938,N,08005.9964,W,1,10,1.6,19,M,,M,,*67
06/12/2014	17:06:32.136	$GPGGA,170632,2545.0928,N,08005.9940,W,1,10,1.6,19,M,,M,,*63
06/12/2014	17:06:33.158	$GPGGA,170633,2545.0918,N,08005.9917,W,1,10,1.6,19,M,,M,,*63
06/12/2014	17:06:34.140	$GPGGA,170634,2545.0907,N,08005.9894,W,1,10,1.6,18,M,,M,,*61
06/12/2014	17:06:35.174	$GPGGA,170635,2545.0896,N,08005.9871,W,1,10,1.6,18,M,,M,,*62
06/12/2014	17:06:36.185	$GPGGA,170636,2545.0885,N,08005.9847,W,1,10,1.6,18,M,,M,,*66
06/12/2014	17:06:37.197	$GPGGA,170637,2545.0873,N,08005.9822,W,1,10,1.6,18,M,,M,,*6D
06/12/2014	17:06:38.179	$GPGGA,170638,2545.0861,N,08005.9799,W,1,10,1.3,18,M,,M,,*6B
06/12/2014	17:06:39.232	$GPGGA,170639,2545.0850,N,08005.9774,W,1,11,1.3,18,M,,M,,*6A
06/12/2014	17:06:40.224	$GPGGA,170640,2545.0838,N,08005.9751,W,1,11,1.3,18,M,,M,,*6D
06/12/2014	17:06:41.216	$GPGGA,170641,2545.0826,N,08005.9726,W,1,11,1.3,18,M,,M,,*63
06/12/2014	17:06:42.228	$GPGGA,170642,2545.0814,N,08005.9702,W,1,11,1.3,18,M,,M,,*67
06/12/2014	17:06:43.231	$GPGGA,170643,2545.0803,N,08005.9678,W,1,11,1.3,18,M,,M,,*6C
06/12/2014	17:06:44.263	$GPGGA,170644,2545.0791,N,08005.9654,W,1,11,1.3,18,M,,M,,*61
06/12/2014	17:06:45.255	$GPGGA,170645,2545.0780,N,08005.9630,W,1,11,1.3,18,M,,M,,*62
06/12/2014	17:06:46.268	$GPGGA,170646,2545.0770,N,08005.9606,W,1,11,1.3,18,M,,M,,*6B
06/12/2014	17:06:46.558	$GPGGA,170647,2545.0759,N,08005.9581,W,1,11,1.3,18,M,,M,,*6D
06/12/2014	17:06:47.570	$GPGGA,170648,2545.0748,N,08005.9558,W,1,11,1.3,18,M,,M,,*66
06/12/2014	17:06:48.552	$GPGGA,170649,2545.0737,N,08005.9534,W,1,10,1.6,18,M,,M,,*61
06/12/2014	17:06:49.574	$GPGGA,170650,2545.0726,N,08005.9511,W,1,10,1.6,18,M,,M,,*6E
06/12/2014	17:06:50.567	$GPGGA,170651,2545.0715,N,08005.9487,W,1,10,1.6,18,M,,M,,*61
06/12/2014	17:06:51.609	$GPGGA,170652,2545.0704,N,08005.9463,W,1,10,1.6,18,M,,M,,*68
06/12/2014	17:06:52.602	$GPGGA,170653,2545.0694,N,08005.9439,W,1,10,1.6,18,M,,M,,*6E
06/12/2014	17:06:53.614	$GPGGA,170654,2545.0683,N,08005.9414,W,1,10,1.6,18,M,,M,,*60
06/12/2014	17:06:54.625	$GPGGA,170655,2545.0672,N,08005.9390,W,1,10,1.6,18,M,,M,,*64
06/12/2014	17:06:56.670	$GPGGA,170657,2545.0650,N,08005.9341,W,1,10,1.6,18,M,,M,,*6A
06/12/2014	17:06:57.663	$GPGGA,170658,2545.0640,N,08005.9317,W,1,10,1.6,18,M,,M,,*67
06/12/2014	17:06:58.665	$GPGGA,170659,2545.0629,N,08005.9292,W,1,10,1.6,18,M,,M,,*65
06/12/2014	17:06:59.809	$GPGGA,170700,2545.0618,N,08005.9267,W,1,10,1.6,18,M,,M,,*60
06/12/2014	17:07:00.801	$GPGGA,170701,2545.0608,N,08005.9243,W,1,10,1.6,18,M,,M,,*66
06/12/2014	17:07:01.682	$GPGGA,170702,2545.0597,N,08005.9218,W,1,10,1.6,18,M,,M,,*6E
06/12/2014	17:07:02.714	$GPGGA,170703,2545.0586,N,08005.9193,W,1,10,1.6,18,M,,M,,*6F
06/12/2014	17:07:03.728	$GPGGA,170704,2545.0576,N,08005.9168,W,1,10,1.6,18,M,,M,,*63
06/12/2014	17:07:04.739	$GPGGA,170705,2545.0565,N,08005.9143,W,1,10,1.6,18,M,,M,,*69
06/12/2014	17:07:05.823	$GPGGA,170706,2545.0554,N,08005.9119,W,1,10,1.6,18,M,,M,,*67
06/12/2014	17:07:06.835	$GPGGA,170707,2545.0543,N,08005.9094,W,1,10,1.6,17,M,,M,,*6B
06/12/2014	17:07:07.766	$GPGGA,170708,2545.0533,N,08005.9068,W,1,10,1.6,17,M,,M,,*60
06/12/2014	17:07:08.860	$GPGGA,170709,2545.0522,N,08005.9043,W,1,10,1.6,17,M,,M,,*68
06/12/2014	17:07:09.862	$GPGGA,170710,2545.0511,N,08005.9019,W,1,10,1.6,17,M,,M,,*6F
06/12/2014	17:07:10.783	$GPGGA,170711,2545.0501,N,08005.8994,W,1,10,1.6,17,M,,M,,*62
06/12/2014	17:07:11.917	$GPGGA,170712,2545.0490,N,08005.8969,W,1,10,1.6,17,M,,M,,*6A
06/12/2014	17:07:12.909	$GPGGA,170713,2545.0479,N,08005.8944,W,1,10,1.6,17,M,,M,,*63
06/12/2014	17:07:13.932	$GPGGA,170714,2545.0470,N,08005.8919,W,1,10,1.6,17,M,,M,,*65
06/12/2014	17:07:14.933	$GPGGA,170715,2545.0459,N,08005.8895,W,1,10,1.6,17,M,,M,,*6A
06/12/2014	17:07:15.945	$GPGGA,170716,2545.0448,N,08005.8869,W,1,10,1.6,17,M,,M,,*6A
06/12/2014	17:07:16.968	$GPGGA,170717,2545.0437,N,08005.8845,W,1,10,1.6,17,M,,M,,*6D
06/12/2014	17:07:17.950	$GPGGA,170718,2545.0426,N,08005.8820,W,1,10,1.6,17,M,,M,,*61
06/12/2014	17:07:18.973	$GPGGA,170719,2545.0414,N,08005.8794,W,1,10,1.6,17,M,,M,,*61
06/12/2014	17:07:19.985	$GPGGA,170720,2545.0403,N,08005.8768,W,1,10,1.3,17,M,,M,,*6B
06/12/2014	17:07:21.003	$GPGGA,170721,2545.0392,N,08005.8744,W,1,11,1.3,17,M,,M,,*6A
06/12/2014	17:07:21.989	$GPGGA,170722,2545.0380,N,08005.8719,W,1,11,1.3,17,M,,M,,*62
06/12/2014	17:07:23.005	$GPGGA,170723,2545.0369,N,08005.8694,W,1,11,1.3,17,M,,M,,*60
06/12/2014	17:07:24.001	$GPGGA,170724,2545.0358,N,08005.8669,W,1,11,1.3,17,M,,M,,*67
06/12/2014	17:07:24.997	$GPGGA,170725,2545.0347,N,08005.8644,W,1,11,1.3,17,M,,M,,*67
06/12/2014	17:07:25.993	$GPGGA,170726,2545.0336,N,08005.8619,W,1,11,1.3,17,M,,M,,*6A
06/12/2014	17:07:26.999	$GPGGA,170727,2545.0325,N,08005.8595,W,1,11,1.3,17,M,,M,,*6E
06/12/2014	17:07:28.016	$GPGGA,170728,2545.0314,N,08005.8570,W,1,11,1.3,17,M,,M,,*68
06/12/2014	17:07:29.012	$GPGGA,170729,2545.0303,N,08005.8546,W,1,11,1.3,17,M,,M,,*6A
06/12/2014	17:07:30.017	$GPGGA,170730,2545.0293,N,08005.8521,W,1,11,1.3,17,M,,M,,*6B
06/12/2014	17:07:31.043	$GPGGA,170731,2545.0280,N,08005.8496,W,1,11,1.3,17,M,,M,,*65
06/12/2014	17:07:32.039	$GPGGA,170732,2545.0269,N,08005.8471,W,1,11,1.3,17,M,,M,,*68
06/12/2014	17:07:33.025	$GPGGA,170733,2545.0258,N,08005.8447,W,1,11,1.3,17,M,,M,,*6E
06/12/2014	17:07:34.031	$GPGGA,170734,2545.0246,N,08005.8421,W,1,11,1.3,17,M,,M,,*66
06/12/2014	17:07:35.067	$GPGGA,170735,2545.0235,N,08005.8397,W,1,11,1.3,17,M,,M,,*69
06/12/2014	17:07:36.063	$GPGGA,170736,2545.0224,N,08005.8372,W,1,11,1.3,17,M,,M,,*61
06/12/2014	17:07:37.049	$GPGGA,170737,2545.0211,N,08005.8347,W,1,11,1.3,17,M,,M,,*60
06/12/2014	17:07:38.053	$GPGGA,170738,2545.0200,N,08005.8322,W,1,11,1.3,17,M,,M,,*6C
06/12/2014	17:07:39.065	$GPGGA,170739,2545.0188,N,08005.8298,W,1,11,1.3,17,M,,M,,*6E
06/12/2014	17:07:40.078	$GPGGA,170740,2545.0177,N,08005.8273,W,1,11,1.3,17,M,,M,,*65
06/12/2014	17:07:41.084	$GPGGA,170741,2545.0166,N,08005.8249,W,1,11,1.3,17,M,,M,,*6D
06/12/2014	17:07:42.057	$GPGGA,170742,2545.0154,N,08005.8224,W,1,11,1.3,17,M,,M,,*64
06/12/2014	17:07:43.082	$GPGGA,170743,2545.0142,N,08005.8200,W,1,11,1.3,17,M,,M,,*64
06/12/2014	17:07:44.089	$GPGGA,170744,2545.0131,N,08005.8175,W,1,11,1.3,17,M,,M,,*66
06/12/2014	17:07:45.085	$GPGGA,170745,2545.0120,N,08005.8150,W,1,11,1.3,17,M,,M,,*60
06/12/2014	17:07:45.634	$GPGGA,170746,2545.0108,N,08005.8126,W,1,11,1.3,17,M,,M,,*68
06/12/2014	17:07:46.519	$GPGGA,170747,2545.0098,N,08005.8101,W,1,11,1.3,17,M,,M,,*64
06/12/2014	17:07:47.515	$GPGGA,170748,2545.0085,N,08005.8077,W,1,11,1.3,17,M,,M,,*67
06/12/2014	17:07:48.613	$GPGGA,170749,2545.0074,N,08005.8053,W,1,11,1.3,17,M,,M,,*6E
06/12/2014	17:07:49.507	$GPGGA,170750,2545.0062,N,08005.8028,W,1,11,1.3,17,M,,M,,*6D
06/12/2014	17:07:50.654	$GPGGA,170751,2545.0051,N,08005.8004,W,1,11,1.3,17,M,,M,,*62
06/12/2014	17:07:51.538	$GPGGA,170752,2545.0040,N,08005.7979,W,1,11,1.3,17,M,,M,,*6D
06/12/2014	17:07:52.626	$GPGGA,170753,2545.0027,N,08005.7955,W,1,11,1.3,17,M,,M,,*63
06/12/2014	17:07:53.532	$GPGGA,170754,2545.0015,N,08005.7931,W,1,11,1.3,17,M,,M,,*67
06/12/2014	17:07:55.272	$GPGGA,170755,2545.0004,N,08005.7907,W,1,11,1.3,17,M,,M,,*63
06/12/2014	17:07:55.645	$GPGGA,170756,2544.9993,N,08005.7882,W,1,11,1.3,17,M,,M,,*63
06/12/2014	17:07:56.671	$GPGGA,170757,2544.9980,N,08005.7858,W,1,11,1.3,17,M,,M,,*67
06/12/2014	17:07:57.647	$GPGGA,170758,2544.9968,N,08005.7834,W,1,11,1.3,17,M,,M,,*64
06/12/2014	17:07:58.653	$GPGGA,170759,2544.9957,N,08005.7810,W,1,11,1.3,17,M,,M,,*6F
06/12/2014	17:07:59.679	$GPGGA,170800,2544.9946,N,08005.7785,W,1,11,1.3,17,M,,M,,*6F
06/12/2014	17:08:00.705	$GPGGA,170801,2544.9933,N,08005.7761,W,1,11,1.3,17,M,,M,,*66
06/12/2014	17:08:01.661	$GPGGA,170802,2544.9921,N,08005.7738,W,1,11,1.3,17,M,,M,,*6A
06/12/2014	17:08:02.687	$GPGGA,170803,2544.9910,N,08005.7714,W,1,11,1.3,17,M,,M,,*67
06/12/2014	17:08:03.682	$GPGGA,170804,2544.9899,N,08005.7690,W,1,11,1.3,17,M,,M,,*6D
06/12/2014	17:08:04.709	$GPGGA,170805,2544.9885,N,08005.7665,W,1,10,1.6,17,M,,M,,*6F
06/12/2014	17:08:05.674	$GPGGA,170806,2544.9874,N,08005.7641,W,1,10,1.3,17,M,,M,,*61
06/12/2014	17:08:06.711	$GPGGA,170807,2544.9863,N,08005.7617,W,1,11,1.3,17,M,,M,,*64
06/12/2014	17:08:07.697	$GPGGA,170808,2544.9852,N,08005.7594,W,1,11,1.6,17,M,,M,,*64
06/12/2014	17:08:08.703	$GPGGA,170809,2544.9841,N,08005.7570,W,1,10,1.6,17,M,,M,,*6C
06/12/2014	17:08:09.699	$GPGGA,170810,2544.9828,N,08005.7545,W,1,10,1.6,17,M,,M,,*6D
06/12/2014	17:08:10.715	$GPGGA,170811,2544.9816,N,08005.7521,W,1,11,1.3,17,M,,M,,*67
06/12/2014	17:08:11.711	$GPGGA,170812,2544.9805,N,08005.7497,W,1,11,1.3,17,M,,M,,*6A
06/12/2014	17:08:12.707	$GPGGA,170813,2544.9792,N,08005.7472,W,1,11,1.3,17,M,,M,,*61
06/12/2014	17:08:13.713	$GPGGA,170814,2544.9780,N,08005.7448,W,1,11,1.3,17,M,,M,,*6C
06/12/2014	17:08:14.729	$GPGGA,170815,2544.9769,N,08005.7423,W,1,11,1.3,17,M,,M,,*67
06/12/2014	17:08:15.735	$GPGGA,170816,2544.9756,N,08005.7399,W,1,11,1.3,17,M,,M,,*6E
06/12/2014	17:08:16.741	$GPGGA,170817,2544.9744,N,08005.7374,W,1,11,1.3,17,M,,M,,*6F
06/12/2014	17:08:17.727	$GPGGA,170818,2544.9733,N,08005.7350,W,1,11,1.3,17,M,,M,,*66
06/12/2014	17:08:18.744	$GPGGA,170819,2544.9720,N,08005.7326,W,1,11,1.3,17,M,,M,,*64
06/12/2014	17:08:19.750	$GPGGA,170820,2544.9708,N,08005.7302,W,1,11,1.3,17,M,,M,,*62
06/12/2014	17:08:20.746	$GPGGA,170821,2544.9697,N,08005.7277,W,1,11,1.3,17,M,,M,,*67
06/12/2014	17:08:21.751	$GPGGA,170822,2544.9686,N,08005.7253,W,1,11,1.3,17,M,,M,,*62
06/12/2014	17:08:22.767	$GPGGA,170823,2544.9673,N,08005.7229,W,1,11,1.3,17,M,,M,,*64
06/12/2014	17:08:23.773	$GPGGA,170824,2544.9662,N,08005.7204,W,1,11,1.3,17,M,,M,,*6C
06/12/2014	17:08:24.759	$GPGGA,170825,2544.9650,N,08005.7180,W,1,11,1.3,17,M,,M,,*63
06/12/2014	17:08:25.765	$GPGGA,170826,2544.9637,N,08005.7156,W,1,11,1.3,17,M,,M,,*6A
06/12/2014	17:08:26.771	$GPGGA,170827,2544.9625,N,08005.7132,W,1,11,1.3,17,M,,M,,*6A
06/12/2014	17:08:27.767	$GPGGA,170828,2544.9613,N,08005.7108,W,1,11,1.3,17,M,,M,,*69
06/12/2014	17:08:28.814	$GPGGA,170829,2544.9601,N,08005.7084,W,1,11,1.3,17,M,,M,,*6E
06/12/2014	17:08:29.772	$GPGGA,170830,2544.9589,N,08005.7061,W,1,11,1.3,17,M,,M,,*6E
06/12/2014	17:08:30.768	$GPGGA,170831,2544.9577,N,08005.7037,W,1,11,1.3,17,M,,M,,*6D
06/12/2014	17:08:31.783	$GPGGA,170832,2544.9564,N,08005.7013,W,1,11,1.3,17,M,,M,,*6A
06/12/2014	17:08:32.908	$GPGGA,170833,2544.9552,N,08005.6990,W,1,11,1.3,17,M,,M,,*6D
06/12/2014	17:08:33.784	$GPGGA,170834,2544.9540,N,08005.6966,W,1,11,1.3,17,M,,M,,*60
06/12/2014	17:08:34.911	$GPGGA,170835,2544.9528,N,08005.6943,W,1,11,1.3,17,M,,M,,*68
06/12/2014	17:08:35.917	$GPGGA,170836,2544.9516,N,08005.6920,W,1,11,1.3,17,M,,M,,*63
06/12/2014	17:08:36.814	$GPGGA,170837,2544.9502,N,08005.6896,W,1,11,1.3,17,M,,M,,*6B
06/12/2014	17:08:37.909	$GPGGA,170838,2544.9489,N,08005.6872,W,1,11,1.3,17,M,,M,,*6C
06/12/2014	17:08:38.804	$GPGGA,170839,2544.9477,N,08005.6849,W,1,11,1.3,17,M,,M,,*64
06/12/2014	17:08:39.950	$GPGGA,170840,2544.9463,N,08005.6825,W,1,11,1.3,17,M,,M,,*65
06/12/2014	17:08:40.936	$GPGGA,170841,2544.9451,N,08005.6803,W,1,11,1.3,16,M,,M,,*60
06/12/2014	17:08:41.827	$GPGGA,170842,2544.9440,N,08005.6779,W,1,11,1.3,16,M,,M,,*61
06/12/2014	17:08:44.418	$GPGGA,170844,2544.9413,N,08005.6733,W,1,11,1.4,16,M,,M,,*68
06/12/2014	17:08:44.940	$GPGGA,170845,2544.9401,N,08005.6711,W,1,10,1.6,16,M,,M,,*69
06/12/2014	17:08:45.836	$GPGGA,170846,2544.9388,N,08005.6688,W,1,10,1.6,16,M,,M,,*6D
06/12/2014	17:08:46.569	$GPGGA,170847,2544.9375,N,08005.6665,W,1,9,1.3,16,M,,M,,*50
06/12/2014	17:08:47.617	$GPGGA,170848,2544.9363,N,08005.6643,W,1,9,1.6,16,M,,M,,*59
06/12/2014	17:08:48.604	$GPGGA,170849,2544.9350,N,08005.6621,W,1,10,2.1,16,M,,M,,*60
06/12/2014	17:08:49.587	$GPGGA,170850,2544.9337,N,08005.6599,W,1,10,2.1,16,M,,M,,*69
06/12/2014	17:08:50.613	$GPGGA,170851,2544.9325,N,08005.6577,W,1,9,1.3,16,M,,M,,*52
06/12/2014	17:08:51.609	$GPGGA,170852,2544.9310,N,08005.6554,W,1,9,1.3,16,M,,M,,*56
06/12/2014	17:08:52.625	$GPGGA,170853,2544.9296,N,08005.6531,W,1,11,1.3,16,M,,M,,*62
06/12/2014	17:08:53.601	$GPGGA,170854,2544.9282,N,08005.6509,W,1,11,1.3,16,M,,M,,*6B
06/12/2014	17:08:54.607	$GPGGA,170855,2544.9268,N,08005.6486,W,1,11,1.3,16,M,,M,,*68
06/12/2014	17:08:55.623	$GPGGA,170856,2544.9254,N,08005.6464,W,1,11,1.3,16,M,,M,,*68
06/12/2014	17:08:56.629	$GPGGA,170857,2544.9241,N,08005.6442,W,1,11,1.3,17,M,,M,,*68
06/12/2014	17:08:57.625	$GPGGA,170858,2544.9227,N,08005.6420,W,1,11,1.6,17,M,,M,,*66
06/12/2014	17:08:58.632	$GPGGA,170859,2544.9211,N,08005.6396,W,1,9,1.4,17,M,,M,,*53
06/12/2014	17:08:59.647	$GPGGA,170900,2544.9198,N,08005.6375,W,1,9,1.6,17,M,,M,,*53
06/12/2014	17:09:00.663	$GPGGA,170901,2544.9185,N,08005.6354,W,1,9,1.6,17,M,,M,,*5D
06/12/2014	17:09:01.629	$GPGGA,170902,2544.9171,N,08005.6333,W,1,9,1.6,17,M,,M,,*54
06/12/2014	17:09:02.655	$GPGGA,170903,2544.9158,N,08005.6312,W,1,9,1.6,17,M,,M,,*5D
06/12/2014	17:09:03.671	$GPGGA,170904,2544.9144,N,08005.6290,W,1,9,1.6,17,M,,M,,*5C
06/12/2014	17:09:04.677	$GPGGA,170905,2544.9131,N,08005.6270,W,1,10,1.6,17,M,,M,,*69
06/12/2014	17:09:05.653	$GPGGA,170906,2544.9117,N,08005.6249,W,1,10,1.6,17,M,,M,,*64
06/12/2014	17:09:06.649	$GPGGA,170907,2544.9104,N,08005.6227,W,1,10,1.6,17,M,,M,,*6F
06/12/2014	17:09:07.675	$GPGGA,170908,2544.9090,N,08005.6207,W,1,10,1.6,17,M,,M,,*6E
06/12/2014	17:09:08.737	$GPGGA,170909,2544.9073,N,08005.6184,W,1,10,1.3,17,M,,M,,*6F
06/12/2014	17:09:09.786	$GPGGA,170910,2544.9057,N,08005.6161,W,1,10,1.3,17,M,,M,,*6A
06/12/2014	17:09:10.889	$GPGGA,170911,2544.9041,N,08005.6139,W,1,11,1.4,17,M,,M,,*67
06/12/2014	17:09:11.970	$GPGGA,170912,2544.9026,N,08005.6117,W,1,11,1.4,18,M,,M,,*66
06/12/2014	17:09:13.021	$GPGGA,170913,2544.9011,N,08005.6095,W,1,10,1.3,18,M,,M,,*6E
06/12/2014	17:09:14.114	$GPGGA,170914,2544.8997,N,08005.6072,W,1,10,1.3,18,M,,M,,*66
06/12/2014	17:09:15.310	$GPGGA,170915,2544.8982,N,08005.6051,W,1,11,1.3,18,M,,M,,*63
06/12/2014	17:09:16.294	$GPGGA,170916,2544.8967,N,08005.6030,W,1,11,1.3,18,M,,M,,*6C
06/12/2014	17:09:17.473	$GPGGA,170917,2544.8953,N,08005.6009,W,1,11,1.3,18,M,,M,,*60
06/12/2014	17:09:18.440	$GPGGA,170918,2544.8938,N,08005.5988,W,1,11,1.3,19,M,,M,,*60
06/12/2014	17:09:19.495	$GPGGA,170919,2544.8923,N,08005.5967,W,1,11,1.3,19,M,,M,,*6A
06/12/2014	17:09:20.717	$GPGGA,170920,2544.8909,N,08005.5946,W,1,11,1.3,19,M,,M,,*6B
06/12/2014	17:09:21.809	$GPGGA,170921,2544.8893,N,08005.5925,W,1,11,1.3,19,M,,M,,*6D
06/12/2014	17:09:22.750	$GPGGA,170922,2544.8877,N,08005.5904,W,1,11,1.3,19,M,,M,,*67
06/12/2014	17:09:23.928	$GPGGA,170923,2544.8862,N,08005.5883,W,1,11,1.3,19,M,,M,,*6C
06/12/2014	17:09:24.923	$GPGGA,170924,2544.8846,N,08005.5862,W,1,11,1.3,20,M,,M,,*68
06/12/2014	17:09:26.123	$GPGGA,170925,2544.8830,N,08005.5842,W,1,11,1.3,20,M,,M,,*6A
06/12/2014	17:09:27.080	$GPGGA,170926,2544.8815,N,08005.5821,W,1,11,1.3,20,M,,M,,*6B
06/12/2014	17:09:28.275	$GPGGA,170927,2544.8799,N,08005.5801,W,1,11,1.3,20,M,,M,,*63
06/12/2014	17:09:29.337	$GPGGA,170928,2544.8783,N,08005.5781,W,1,11,1.3,20,M,,M,,*60
06/12/2014	17:09:30.405	$GPGGA,170929,2544.8768,N,08005.5761,W,1,11,1.3,20,M,,M,,*6A
06/12/2014	17:09:31.477	$GPGGA,170930,2544.8751,N,08005.5741,W,1,11,1.3,20,M,,M,,*6A
06/12/2014	17:09:32.582	$GPGGA,170931,2544.8734,N,08005.5721,W,1,11,1.3,20,M,,M,,*6E
06/12/2014	17:09:33.648	$GPGGA,170932,2544.8718,N,08005.5701,W,1,11,1.3,20,M,,M,,*61
06/12/2014	17:09:34.740	$GPGGA,170933,2544.8701,N,08005.5681,W,1,11,1.3,20,M,,M,,*61
06/12/2014	17:09:35.800	$GPGGA,170934,2544.8685,N,08005.5662,W,1,11,1.3,20,M,,M,,*66
06/12/2014	17:09:36.881	$GPGGA,170935,2544.8668,N,08005.5643,W,1,11,1.3,20,M,,M,,*67
06/12/2014	17:09:37.962	$GPGGA,170936,2544.8651,N,08005.5623,W,1,11,1.3,20,M,,M,,*68
06/12/2014	17:09:39.033	$GPGGA,170937,2544.8634,N,08005.5604,W,1,11,1.3,20,M,,M,,*6F
06/12/2014	17:09:40.114	$GPGGA,170938,2544.8617,N,08005.5585,W,1,11,1.3,20,M,,M,,*6B
06/12/2014	17:09:41.196	$GPGGA,170939,2544.8600,N,08005.5566,W,1,11,1.4,20,M,,M,,*66
06/12/2014	17:09:42.288	$GPGGA,170940,2544.8585,N,08005.5545,W,1,11,1.4,20,M,,M,,*67
06/12/2014	17:09:43.337	$GPGGA,170941,2544.8567,N,08005.5525,W,1,11,1.3,20,M,,M,,*6B
06/12/2014	17:09:44.429	$GPGGA,170942,2544.8550,N,08005.5506,W,1,11,1.3,20,M,,M,,*6D
06/12/2014	17:09:45.499	$GPGGA,170943,2544.8533,N,08005.5487,W,1,11,1.3,20,M,,M,,*61
06/12/2014	17:09:46.602	$GPGGA,170944,2544.8516,N,08005.5468,W,1,11,1.3,20,M,,M,,*60
06/12/2014	17:09:47.694	$GPGGA,170945,2544.8498,N,08005.5450,W,1,11,1.3,20,M,,M,,*6D
06/12/2014	17:09:48.732	$GPGGA,170946,2544.8480,N,08005.5432,W,1,11,1.3,20,M,,M,,*63
06/12/2014	17:09:46.608	$GPGGA,170947,2544.8463,N,08005.5414,W,1,11,1.3,20,M,,M,,*6B
06/12/2014	17:09:47.711	$GPGGA,170948,2544.8445,N,08005.5396,W,1,11,1.3,20,M,,M,,*6D
06/12/2014	17:09:48.770	$GPGGA,170949,2544.8426,N,08005.5378,W,1,10,1.4,20,M,,M,,*6F
06/12/2014	17:09:49.852	$GPGGA,170950,2544.8408,N,08005.5361,W,1,10,1.3,20,M,,M,,*64
06/12/2014	17:09:50.965	$GPGGA,170951,2544.8390,N,08005.5343,W,1,11,1.3,20,M,,M,,*62
06/12/2014	17:09:52.024	$GPGGA,170952,2544.8371,N,08005.5326,W,1,11,1.3,20,M,,M,,*6D
06/12/2014	17:09:53.088	$GPGGA,170953,2544.8353,N,08005.5308,W,1,11,1.3,20,M,,M,,*60
06/12/2014	17:09:54.176	$GPGGA,170954,2544.8335,N,08005.5292,W,1,11,1.3,20,M,,M,,*65
06/12/2014	17:09:55.236	$GPGGA,170955,2544.8317,N,08005.5275,W,1,11,1.3,20,M,,M,,*6D
06/12/2014	17:09:56.349	$GPGGA,170956,2544.8298,N,08005.5259,W,1,11,1.3,20,M,,M,,*66
06/12/2014	17:09:57.420	$GPGGA,170957,2544.8279,N,08005.5242,W,1,11,1.3,20,M,,M,,*62
06/12/2014	17:09:58.490	$GPGGA,170958,2544.8261,N,08005.5226,W,1,11,1.3,20,M,,M,,*66
06/12/2014	17:09:59.561	$GPGGA,170959,2544.8242,N,08005.5210,W,1,11,1.3,20,M,,M,,*63
06/12/2014	17:10:00.794	$GPGGA,171000,2544.8223,N,08005.5194,W,1,11,1.3,20,M,,M,,*6F
06/12/2014	17:10:01.734	$GPGGA,171001,2544.8205,N,08005.5178,W,1,11,1.3,20,M,,M,,*68
06/12/2014	17:10:02.794	$GPGGA,171002,2544.8185,N,08005.5163,W,1,11,1.3,20,M,,M,,*6A
06/12/2014	17:10:03.978	$GPGGA,171003,2544.8166,N,08005.5148,W,1,11,1.3,19,M,,M,,*65
06/12/2014	17:10:04.957	$GPGGA,171004,2544.8147,N,08005.5132,W,1,11,1.3,19,M,,M,,*6C
06/12/2014	17:10:06.057	$GPGGA,171005,2544.8129,N,08005.5117,W,1,11,1.3,19,M,,M,,*62
06/12/2014	17:10:07.119	$GPGGA,171006,2544.8109,N,08005.5102,W,1,11,1.3,19,M,,M,,*67
06/12/2014	17:10:08.329	$GPGGA,171007,2544.8089,N,08005.5087,W,1,11,1.3,19,M,,M,,*63
06/12/2014	17:10:09.281	$GPGGA,171008,2544.8069,N,08005.5072,W,1,11,1.3,19,M,,M,,*68
06/12/2014	17:10:10.373	$GPGGA,171009,2544.8050,N,08005.5058,W,1,11,1.3,19,M,,M,,*6B
06/12/2014	17:10:11.433	$GPGGA,171010,2544.8031,N,08005.5043,W,1,11,1.3,19,M,,M,,*6E
06/12/2014	17:10:12.514	$GPGGA,171011,2544.8010,N,08005.5028,W,1,11,1.3,19,M,,M,,*61
06/12/2014	17:10:13.617	$GPGGA,171012,2544.7990,N,08005.5014,W,1,11,1.3,19,M,,M,,*63
06/12/2014	17:10:14.685	$GPGGA,171013,2544.7970,N,08005.5000,W,1,11,1.3,19,M,,M,,*69
06/12/2014	17:10:15.866	$GPGGA,171014,2544.7950,N,08005.4986,W,1,11,1.3,18,M,,M,,*6B
06/12/2014	17:10:16.949	$GPGGA,171015,2544.7930,N,08005.4971,W,1,11,1.3,18,M,,M,,*64
06/12/2014	17:10:17.926	$GPGGA,171016,2544.7910,N,08005.4958,W,1,11,1.3,18,M,,M,,*6E
06/12/2014	17:10:19.100	$GPGGA,171017,2544.7890,N,08005.4943,W,1,11,1.3,18,M,,M,,*6C
06/12/2014	17:10:20.169	$GPGGA,171018,2544.7870,N,08005.4929,W,1,11,1.3,18,M,,M,,*61
06/12/2014	17:10:21.241	$GPGGA,171019,2544.7849,N,08005.4916,W,1,11,1.3,18,M,,M,,*66
06/12/2014	17:10:22.343	$GPGGA,171020,2544.7829,N,08005.4903,W,1,11,1.3,18,M,,M,,*6E
06/12/2014	17:10:23.435	$GPGGA,171021,2544.7808,N,08005.4890,W,1,11,1.3,18,M,,M,,*67
06/12/2014	17:10:24.484	$GPGGA,171022,2544.7787,N,08005.4877,W,1,11,1.3,18,M,,M,,*65
06/12/2014	17:10:25.608	$GPGGA,171023,2544.7767,N,08005.4864,W,1,11,1.3,18,M,,M,,*68
06/12/2014	17:10:26.656	$GPGGA,171024,2544.7746,N,08005.4852,W,1,11,1.3,18,M,,M,,*69
06/12/2014	17:10:27.716	$GPGGA,171025,2544.7725,N,08005.4840,W,1,11,1.3,17,M,,M,,*61
06/12/2014	17:10:28.808	$GPGGA,171026,2544.7704,N,08005.4828,W,1,11,1.3,17,M,,M,,*6F
06/12/2014	17:10:29.900	$GPGGA,171027,2544.7683,N,08005.4816,W,1,11,1.3,17,M,,M,,*6D
06/12/2014	17:10:30.981	$GPGGA,171028,2544.7663,N,08005.4804,W,1,11,1.3,17,M,,M,,*6F
06/12/2014	17:10:32.063	$GPGGA,171029,2544.7641,N,08005.4795,W,1,10,1.9,17,M,,M,,*62
06/12/2014	17:10:33.122	$GPGGA,171030,2544.7619,N,08005.4784,W,1,10,1.3,17,M,,M,,*6D
06/12/2014	17:10:34.225	$GPGGA,171031,2544.7598,N,08005.4772,W,1,10,1.4,17,M,,M,,*68
06/12/2014	17:10:35.296	$GPGGA,171032,2544.7576,N,08005.4762,W,1,10,1.3,17,M,,M,,*6D
06/12/2014	17:10:36.345	$GPGGA,171033,2544.7554,N,08005.4753,W,1,10,1.9,17,M,,M,,*64
06/12/2014	17:10:37.437	$GPGGA,171034,2544.7533,N,08005.4743,W,1,10,1.9,17,M,,M,,*63
06/12/2014	17:10:38.529	$GPGGA,171035,2544.7511,N,08005.4734,W,1,10,1.9,17,M,,M,,*62
06/12/2014	17:10:39.610	$GPGGA,171036,2544.7488,N,08005.4729,W,1,10,1.9,17,M,,M,,*6C
06/12/2014	17:10:40.670	$GPGGA,171037,2544.7466,N,08005.4721,W,1,11,1.3,17,M,,M,,*6E
06/12/2014	17:10:41.751	$GPGGA,171038,2544.7444,N,08005.4713,W,1,11,1.3,17,M,,M,,*60
06/12/2014	17:10:42.822	$GPGGA,171039,2544.7424,N,08005.4705,W,1,10,1.9,17,M,,M,,*6B
06/12/2014	17:10:43.914	$GPGGA,171040,2544.7400,N,08005.4699,W,1,10,1.9,17,M,,M,,*67
06/12/2014	17:10:44.984	$GPGGA,171041,2544.7378,N,08005.4694,W,1,11,1.3,17,M,,M,,*68
06/12/2014	17:10:46.071	$GPGGA,171042,2544.7355,N,08005.4688,W,1,11,1.3,17,M,,M,,*69
06/12/2014	17:10:47.178	$GPGGA,171043,2544.7332,N,08005.4683,W,1,11,1.3,17,M,,M,,*62
06/12/2014	17:10:48.238	$GPGGA,171044,2544.7309,N,08005.4679,W,1,11,1.3,17,M,,M,,*68
06/12/2014	17:10:49.298	$GPGGA,171045,2544.7287,N,08005.4672,W,1,11,1.3,17,M,,M,,*65
06/12/2014	17:10:45.622	$GPGGA,171046,2544.7264,N,08005.4667,W,1,11,1.9,17,M,,M,,*65
06/12/2014	17:10:46.714	$GPGGA,171047,2544.7241,N,08005.4661,W,1,11,1.3,17,M,,M,,*6F
06/12/2014	17:10:47.687	$GPGGA,171048,2544.7219,N,08005.4655,W,1,11,1.3,17,M,,M,,*6A
06/12/2014	17:10:48.736	$GPGGA,171049,2544.7197,N,08005.4649,W,1,11,1.3,17,M,,M,,*63
06/12/2014	17:10:49.947	$GPGGA,171050,2544.7173,N,08005.4643,W,1,11,1.3,17,M,,M,,*6B
06/12/2014	17:10:50.920	$GPGGA,171051,2544.7150,N,08005.4637,W,1,11,1.3,17,M,,M,,*68
06/12/2014	17:10:52.123	$GPGGA,171052,2544.7128,N,08005.4632,W,1,11,1.3,17,M,,M,,*61
06/12/2014	17:10:53.091	$GPGGA,171053,2544.7104,N,08005.4626,W,1,10,1.4,17,M,,M,,*6D
06/12/2014	17:10:55.202	$GPGGA,171055,2544.7059,N,08005.4613,W,1,9,2.0,17,M,,M,,*5B
06/12/2014	17:10:56.294	$GPGGA,171056,2544.7036,N,08005.4609,W,1,9,2.0,18,M,,M,,*55
06/12/2014	17:10:57.397	$GPGGA,171057,2544.7012,N,08005.4606,W,1,10,1.4,18,M,,M,,*62
06/12/2014	17:10:58.468	$GPGGA,171058,2544.6991,N,08005.4599,W,1,10,1.4,18,M,,M,,*6B
06/12/2014	17:10:59.634	$GPGGA,171059,2544.6969,N,08005.4593,W,1,9,2.0,18,M,,M,,*58
06/12/2014	17:11:00.737	$GPGGA,171100,2544.6944,N,08005.4587,W,1,9,1.3,18,M,,M,,*5F
06/12/2014	17:11:01.840	$GPGGA,171101,2544.6922,N,08005.4581,W,1,11,1.3,18,M,,M,,*61
06/12/2014	17:11:02.770	$GPGGA,171102,2544.6898,N,08005.4576,W,1,11,1.3,18,M,,M,,*6A
06/12/2014	17:11:03.960	$GPGGA,171103,2544.6875,N,08005.4571,W,1,11,1.3,18,M,,M,,*6F
06/12/2014	17:11:04.949	$GPGGA,171104,2544.6854,N,08005.4566,W,1,11,1.4,18,M,,M,,*6A
06/12/2014	17:11:06.111	$GPGGA,171105,2544.6832,N,08005.4559,W,1,11,1.3,18,M,,M,,*60
06/12/2014	17:11:07.204	$GPGGA,171106,2544.6810,N,08005.4554,W,1,11,1.8,18,M,,M,,*65
06/12/2014	17:11:08.285	$GPGGA,171107,2544.6786,N,08005.4549,W,1,11,1.3,18,M,,M,,*63
06/12/2014	17:11:09.366	$GPGGA,171108,2544.6763,N,08005.4543,W,1,11,1.3,18,M,,M,,*6D
06/12/2014	17:11:10.447	$GPGGA,171109,2544.6741,N,08005.4537,W,1,11,1.3,18,M,,M,,*6F
06/12/2014	17:11:11.507	$GPGGA,171110,2544.6718,N,08005.4531,W,1,11,1.3,18,M,,M,,*6D
06/12/2014	17:11:12.610	$GPGGA,171111,2544.6695,N,08005.4525,W,1,11,1.3,18,M,,M,,*6D
06/12/2014	17:11:13.670	$GPGGA,171112,2544.6673,N,08005.4519,W,1,11,1.3,18,M,,M,,*69
06/12/2014	17:11:14.762	$GPGGA,171113,2544.6649,N,08005.4513,W,1,11,1.3,18,M,,M,,*6B
06/12/2014	17:11:15.811	$GPGGA,171114,2544.6626,N,08005.4509,W,1,11,1.3,18,M,,M,,*6E
06/12/2014	17:11:16.924	$GPGGA,171115,2544.6604,N,08005.4504,W,1,11,1.3,18,M,,M,,*62
06/12/2014	17:11:17.995	$GPGGA,171116,2544.6580,N,08005.4499,W,1,11,1.3,18,M,,M,,*6B
06/12/2014	17:11:19.075	$GPGGA,171117,2544.6557,N,08005.4494,W,1,11,1.3,18,M,,M,,*6D
06/12/2014	17:11:20.135	$GPGGA,171118,2544.6534,N,08005.4490,W,1,11,1.3,18,M,,M,,*63
06/12/2014	17:11:21.227	$GPGGA,171119,2544.6511,N,08005.4486,W,1,11,1.3,18,M,,M,,*62
06/12/2014	17:11:22.308	$GPGGA,171120,2544.6488,N,08005.4481,W,1,11,1.3,18,M,,M,,*6E
06/12/2014	17:11:23.368	$GPGGA,171121,2544.6465,N,08005.4478,W,1,11,1.3,18,M,,M,,*6A
06/12/2014	17:11:24.471	$GPGGA,171122,2544.6442,N,08005.4473,W,1,11,1.3,18,M,,M,,*67
06/12/2014	17:11:25.520	$GPGGA,171123,2544.6420,N,08005.4469,W,1,11,1.3,18,M,,M,,*69
06/12/2014	17:11:26.623	$GPGGA,171124,2544.6396,N,08005.4464,W,1,11,1.3,18,M,,M,,*69
06/12/2014	17:11:27.693	$GPGGA,171125,2544.6373,N,08005.4460,W,1,10,1.4,18,M,,M,,*61
06/12/2014	17:11:28.775	$GPGGA,171126,2544.6350,N,08005.4456,W,1,10,1.4,18,M,,M,,*66
06/12/2014	17:11:29.845	$GPGGA,171127,2544.6327,N,08005.4452,W,1,11,1.3,18,M,,M,,*65
06/12/2014	17:11:30.948	$GPGGA,171128,2544.6305,N,08005.4447,W,1,11,1.4,18,M,,M,,*69
06/12/2014	17:11:31.997	$GPGGA,171129,2544.6283,N,08005.4443,W,1,11,1.3,18,M,,M,,*64
06/12/2014	17:11:33.079	$GPGGA,171130,2544.6261,N,08005.4439,W,1,11,1.3,18,M,,M,,*6D
06/12/2014	17:11:34.159	$GPGGA,171131,2544.6237,N,08005.4435,W,1,11,1.3,18,M,,M,,*63
06/12/2014	17:11:35.284	$GPGGA,171132,2544.6214,N,08005.4431,W,1,11,1.3,19,M,,M,,*64
06/12/2014	17:11:36.322	$GPGGA,171133,2544.6190,N,08005.4428,W,1,11,1.3,19,M,,M,,*62
06/12/2014	17:11:37.394	$GPGGA,171134,2544.6167,N,08005.4424,W,1,11,1.3,19,M,,M,,*61
06/12/2014	17:11:38.494	$GPGGA,171135,2544.6144,N,08005.4420,W,1,11,1.3,19,M,,M,,*65
06/12/2014	17:11:39.575	$GPGGA,171136,2544.6121,N,08005.4416,W,1,11,1.3,19,M,,M,,*60
06/12/2014	17:11:40.657	$GPGGA,171137,2544.6098,N,08005.4412,W,1,11,1.3,19,M,,M,,*66
06/12/2014	17:11:41.819	$GPGGA,171138,2544.6075,N,08005.4408,W,1,11,1.3,19,M,,M,,*61
06/12/2014	17:11:42.819	$GPGGA,171139,2544.6052,N,08005.4404,W,1,11,1.3,19,M,,M,,*69
06/12/2014	17:11:43.901	$GPGGA,171140,2544.6028,N,08005.4400,W,1,11,1.3,19,M,,M,,*6E
06/12/2014	17:11:45.123	$GPGGA,171141,2544.6005,N,08005.4396,W,1,11,1.3,19,M,,M,,*68
06/12/2014	17:11:46.145	$GPGGA,171142,2544.5983,N,08005.4392,W,1,11,1.3,19,M,,M,,*6B
06/12/2014	17:11:47.274	$GPGGA,171143,2544.5959,N,08005.4388,W,1,11,1.3,19,M,,M,,*66
06/12/2014	17:11:48.388	$GPGGA,171144,2544.5936,N,08005.4384,W,1,11,1.3,19,M,,M,,*64
