Software Version Number: 1	Data File Format Number: 1	Build Version Number: 1	Error Count Since VI Started: 0	Manufacturer: Raytheon	 Model Number: RayMarine 120	 S/N: 	 Cal Date: 	 Wind Direction Offset: 0.00	 Slope (M)1: 0.00	 Offset (B)1: 0.00	 Slope (M)2: 0.00	 Offset (B)2: 0.00	 Slope (M)3: 0.00	 Offset (B)3: 0.00	 Slope (M)4: 0.00	 Offset (B)4: 0.00	 Slope (M)5: 0.00	 Offset (B)5: 0.00	 Slope (M)6: 0.00	 Offset (B)6: 0.00
Computer Date	Computer Time	GGA String
06/08/2014	01:00:00.684	$GPGGA,010001,2434.2459,N,08042.1651,W,1,8,1.9,25,M,,M,,*51
06/08/2014	01:00:01.707	$GPGGA,010002,2434.2460,N,08042.1654,W,1,8,1.9,25,M,,M,,*5D
06/08/2014	01:00:02.682	$GPGGA,010003,2434.2458,N,08042.1653,W,1,7,2.0,25,M,,M,,*55
06/08/2014	01:00:03.676	$GPGGA,010004,2434.2459,N,08042.1654,W,1,7,1.5,25,M,,M,,*52
06/08/2014	01:00:04.661	$GPGGA,010005,2434.2460,N,08042.1655,W,1,8,1.9,25,M,,M,,*5B
06/08/2014	01:00:05.685	$GPGGA,010006,2434.2462,N,08042.1656,W,1,8,1.9,25,M,,M,,*59
06/08/2014	01:00:06.670	$GPGGA,010007,2434.2459,N,08042.1656,W,1,8,1.5,25,M,,M,,*5C
06/08/2014	01:00:07.694	$GPGGA,010008,2434.2458,N,08042.1656,W,1,8,1.5,25,M,,M,,*52
06/08/2014	01:00:08.719	$GPGGA,010009,2434.2457,N,08042.1658,W,1,8,1.9,25,M,,M,,*5E
06/08/2014	01:00:09.693	$GPGGA,010010,2434.2457,N,08042.1658,W,1,8,2.0,26,M,,M,,*5F
06/08/2014	01:00:10.678	$GPGGA,010011,2434.2457,N,08042.1658,W,1,8,1.9,26,M,,M,,*54
06/08/2014	01:00:11.695	$GPGGA,010012,2434.2457,N,08042.1659,W,1,8,1.5,26,M,,M,,*5A
06/08/2014	01:00:12.727	$GPGGA,010013,2434.2460,N,08042.1662,W,1,8,1.9,26,M,,M,,*5B
06/08/2014	01:00:13.696	$GPGGA,010014,2434.2458,N,08042.1661,W,1,8,1.5,26,M,,M,,*58
06/08/2014	01:00:14.726	$GPGGA,010015,2434.2459,N,08042.1662,W,1,8,1.5,26,M,,M,,*5B
06/08/2014	01:00:15.710	$GPGGA,010016,2434.2458,N,08042.1663,W,1,8,1.9,26,M,,M,,*54
06/08/2014	01:00:16.735	$GPGGA,010017,2434.2459,N,08042.1663,W,1,8,1.9,26,M,,M,,*54
06/08/2014	01:00:17.699	$GPGGA,010018,2434.2458,N,08042.1663,W,1,8,1.5,26,M,,M,,*56
06/08/2014	01:00:18.826	$GPGGA,010019,2434.2457,N,08042.1663,W,1,6,1.6,26,M,,M,,*55
06/08/2014	01:00:19.721	$GPGGA,010020,2434.2457,N,08042.1663,W,1,6,1.5,26,M,,M,,*5C
06/08/2014	01:00:20.702	$GPGGA,010021,2434.2454,N,08042.1662,W,1,7,1.5,26,M,,M,,*5E
06/08/2014	01:00:21.706	$GPGGA,010022,2434.2455,N,08042.1663,W,1,7,1.9,26,M,,M,,*51
06/08/2014	01:00:22.735	$GPGGA,010023,2434.2453,N,08042.1662,W,1,8,1.9,26,M,,M,,*58
06/08/2014	01:00:23.742	$GPGGA,010024,2434.2449,N,08042.1661,W,1,8,2.0,26,M,,M,,*5D
06/08/2014	01:00:24.730	$GPGGA,010025,2434.2448,N,08042.1662,W,1,8,1.9,26,M,,M,,*54
06/08/2014	01:00:25.815	$GPGGA,010026,2434.2447,N,08042.1661,W,1,8,1.9,26,M,,M,,*5B
06/08/2014	01:00:26.739	$GPGGA,010027,2434.2446,N,08042.1660,W,1,8,1.9,26,M,,M,,*5A
06/08/2014	01:00:27.744	$GPGGA,010028,2434.2446,N,08042.1660,W,1,8,1.9,26,M,,M,,*55
06/08/2014	01:00:28.828	$GPGGA,010029,2434.2446,N,08042.1660,W,1,8,1.9,26,M,,M,,*54
06/08/2014	01:00:29.833	$GPGGA,010030,2434.2449,N,08042.1662,W,1,8,2.0,26,M,,M,,*5B
06/08/2014	01:00:30.869	$GPGGA,010031,2434.2448,N,08042.1662,W,1,8,1.9,26,M,,M,,*51
06/08/2014	01:00:31.751	$GPGGA,010032,2434.2449,N,08042.1662,W,1,8,1.9,26,M,,M,,*53
06/08/2014	01:00:32.836	$GPGGA,010033,2434.2448,N,08042.1663,W,1,8,1.9,26,M,,M,,*52
06/08/2014	01:00:33.750	$GPGGA,010034,2434.2447,N,08042.1662,W,1,8,1.9,26,M,,M,,*5B
06/08/2014	01:00:34.755	$GPGGA,010035,2434.2448,N,08042.1662,W,1,7,2.0,26,M,,M,,*50
06/08/2014	01:00:35.759	$GPGGA,010036,2434.2446,N,08042.1661,W,1,7,1.9,26,M,,M,,*54
06/08/2014	01:00:36.883	$GPGGA,010037,2434.2444,N,08042.1660,W,1,7,2.0,26,M,,M,,*5C
06/08/2014	01:00:37.847	$GPGGA,010038,2434.2442,N,08042.1660,W,1,7,1.9,26,M,,M,,*5F
06/08/2014	01:00:38.594	$GPGGA,010039,2434.2441,N,08042.1659,W,1,8,1.9,26,M,,M,,*58
06/08/2014	01:00:39.599	$GPGGA,010040,2434.2442,N,08042.1659,W,1,8,1.9,26,M,,M,,*55
06/08/2014	01:00:40.604	$GPGGA,010041,2434.2441,N,08042.1660,W,1,8,1.9,26,M,,M,,*5D
06/08/2014	01:00:41.598	$GPGGA,010042,2434.2442,N,08042.1660,W,1,8,1.9,26,M,,M,,*5D
06/08/2014	01:00:42.612	$GPGGA,010043,2434.2441,N,08042.1660,W,1,8,1.9,26,M,,M,,*5F
06/08/2014	01:00:43.607	$GPGGA,010044,2434.2442,N,08042.1660,W,1,8,1.9,26,M,,M,,*5B
06/08/2014	01:00:44.611	$GPGGA,010045,2434.2441,N,08042.1660,W,1,8,1.9,26,M,,M,,*59
06/08/2014	01:00:45.595	$GPGGA,010046,2434.2442,N,08042.1660,W,1,8,2.0,26,M,,M,,*53
06/08/2014	01:00:46.600	$GPGGA,010047,2434.2440,N,08042.1660,W,1,8,1.9,26,M,,M,,*5A
06/08/2014	01:00:47.626	$GPGGA,010048,2434.2441,N,08042.1660,W,1,8,1.9,26,M,,M,,*54
06/08/2014	01:00:48.599	$GPGGA,010049,2434.2439,N,08042.1659,W,1,8,1.9,25,M,,M,,*53
06/08/2014	01:00:49.613	$GPGGA,010050,2434.2439,N,08042.1659,W,1,8,2.0,25,M,,M,,*51
06/08/2014	01:00:50.608	$GPGGA,010051,2434.2437,N,08042.1658,W,1,7,2.0,25,M,,M,,*50
06/08/2014	01:00:51.622	$GPGGA,010052,2434.2439,N,08042.1659,W,1,7,2.0,25,M,,M,,*5C
06/08/2014	01:00:52.647	$GPGGA,010053,2434.2442,N,08042.1662,W,1,8,1.9,25,M,,M,,*5C
06/08/2014	01:00:53.631	$GPGGA,010054,2434.2442,N,08042.1661,W,1,8,1.5,25,M,,M,,*54
06/08/2014	01:00:54.645	$GPGGA,010055,2434.2441,N,08042.1660,W,1,9,1.5,25,M,,M,,*56
06/08/2014	01:00:55.649	$GPGGA,010056,2434.2442,N,08042.1660,W,1,9,2.0,25,M,,M,,*50
06/08/2014	01:00:56.625	$GPGGA,010057,2434.2442,N,08042.1659,W,1,9,1.5,25,M,,M,,*5D
06/08/2014	01:00:57.638	$GPGGA,010058,2434.2440,N,08042.1659,W,1,9,1.5,25,M,,M,,*50
06/08/2014	01:00:58.634	$GPGGA,010059,2434.2439,N,08042.1659,W,1,8,1.9,25,M,,M,,*52
06/08/2014	01:00:59.657	$GPGGA,010100,2434.2439,N,08042.1658,W,1,8,1.5,25,M,,M,,*52
06/08/2014	01:01:00.662	$GPGGA,010101,2434.2439,N,08042.1658,W,1,8,1.5,25,M,,M,,*53
06/08/2014	01:01:01.636	$GPGGA,010102,2434.2439,N,08042.1659,W,1,8,1.5,25,M,,M,,*51
06/08/2014	01:01:02.661	$GPGGA,010103,2434.2439,N,08042.1660,W,1,9,1.5,25,M,,M,,*5B
06/08/2014	01:01:03.645	$GPGGA,010104,2434.2439,N,08042.1660,W,1,9,1.5,25,M,,M,,*5C
06/08/2014	01:01:04.660	$GPGGA,010105,2434.2439,N,08042.1662,W,1,9,1.5,25,M,,M,,*5F
06/08/2014	01:01:05.644	$GPGGA,010106,2434.2437,N,08042.1660,W,1,9,1.5,25,M,,M,,*50
06/08/2014	01:01:06.659	$GPGGA,010107,2434.2438,N,08042.1660,W,1,8,1.5,25,M,,M,,*5F
06/08/2014	01:01:07.666	$GPGGA,010108,2434.2436,N,08042.1660,W,1,8,1.5,25,M,,M,,*5E
06/08/2014	01:01:08.678	$GPGGA,010109,2434.2437,N,08042.1659,W,1,8,1.5,25,M,,M,,*54
06/08/2014	01:01:09.672	$GPGGA,010110,2434.2438,N,08042.1660,W,1,8,1.5,25,M,,M,,*59
06/08/2014	01:01:10.849	$GPGGA,010111,2434.2436,N,08042.1660,W,1,9,1.5,25,M,,M,,*57
06/08/2014	01:01:11.670	$GPGGA,010112,2434.2435,N,08042.1659,W,1,9,1.5,25,M,,M,,*5D
06/08/2014	01:01:12.756	$GPGGA,010113,2434.2435,N,08042.1659,W,1,9,1.5,25,M,,M,,*5C
06/08/2014	01:01:13.760	$GPGGA,010114,2434.2435,N,08042.1659,W,1,9,1.5,25,M,,M,,*5B
06/08/2014	01:01:14.664	$GPGGA,010115,2434.2435,N,08042.1659,W,1,9,1.5,25,M,,M,,*5A
06/08/2014	01:01:15.819	$GPGGA,010116,2434.2433,N,08042.1658,W,1,9,1.5,24,M,,M,,*5F
06/08/2014	01:01:16.863	$GPGGA,010117,2434.2429,N,08042.1657,W,1,8,1.9,24,M,,M,,*57
06/08/2014	01:01:17.817	$GPGGA,010118,2434.2428,N,08042.1656,W,1,8,1.9,24,M,,M,,*58
06/08/2014	01:01:18.772	$GPGGA,010119,2434.2426,N,08042.1656,W,1,8,1.9,24,M,,M,,*57
06/08/2014	01:01:19.696	$GPGGA,010120,2434.2428,N,08042.1658,W,1,8,1.5,24,M,,M,,*51
06/08/2014	01:01:20.871	$GPGGA,010121,2434.2431,N,08042.1659,W,1,9,1.5,24,M,,M,,*58
06/08/2014	01:01:21.695	$GPGGA,010122,2434.2431,N,08042.1660,W,1,9,2.0,24,M,,M,,*57
06/08/2014	01:01:22.880	$GPGGA,010123,2434.2432,N,08042.1660,W,1,8,2.0,24,M,,M,,*54
06/08/2014	01:01:23.704	$GPGGA,010124,2434.2432,N,08042.1660,W,1,8,2.0,24,M,,M,,*53
06/08/2014	01:01:24.789	$GPGGA,010125,2434.2432,N,08042.1660,W,1,7,2.0,24,M,,M,,*5D
06/08/2014	01:01:25.793	$GPGGA,010126,2434.2432,N,08042.1660,W,1,7,1.9,24,M,,M,,*54
06/08/2014	01:01:26.908	$GPGGA,010127,2434.2434,N,08042.1660,W,1,8,2.0,24,M,,M,,*56
06/08/2014	01:01:27.813	$GPGGA,010128,2434.2435,N,08042.1662,W,1,8,2.0,24,M,,M,,*5A
06/08/2014	01:01:28.797	$GPGGA,010129,2434.2435,N,08042.1661,W,1,7,2.0,24,M,,M,,*57
06/08/2014	01:01:29.800	$GPGGA,010130,2434.2437,N,08042.1660,W,1,7,2.0,23,M,,M,,*5B
06/08/2014	01:01:30.895	$GPGGA,010131,2434.2436,N,08042.1660,W,1,9,1.9,23,M,,M,,*5F
06/08/2014	01:01:31.871	$GPGGA,010132,2434.2435,N,08042.1660,W,1,9,1.9,23,M,,M,,*5F
06/08/2014	01:01:32.804	$GPGGA,010133,2434.2437,N,08042.1662,W,1,8,1.5,23,M,,M,,*53
06/08/2014	01:01:33.839	$GPGGA,010134,2434.2436,N,08042.1661,W,1,8,1.5,23,M,,M,,*56
06/08/2014	01:01:34.923	$GPGGA,010135,2434.2437,N,08042.1662,W,1,7,2.0,23,M,,M,,*5C
06/08/2014	01:01:35.858	$GPGGA,010136,2434.2433,N,08042.1659,W,1,7,1.5,23,M,,M,,*55
06/08/2014	01:01:36.932	$GPGGA,010137,2434.2435,N,08042.1662,W,1,8,1.5,23,M,,M,,*55
06/08/2014	01:01:37.816	$GPGGA,010138,2434.2435,N,08042.1662,W,1,8,1.5,23,M,,M,,*5A
06/08/2014	01:01:38.653	$GPGGA,010139,2434.2438,N,08042.1665,W,1,9,1.5,23,M,,M,,*50
06/08/2014	01:01:39.657	$GPGGA,010140,2434.2439,N,08042.1666,W,1,9,1.5,23,M,,M,,*5C
06/08/2014	01:01:40.775	$GPGGA,010141,2434.2439,N,08042.1666,W,1,9,1.5,23,M,,M,,*5D
06/08/2014	01:01:41.715	$GPGGA,010142,2434.2439,N,08042.1666,W,1,9,1.5,23,M,,M,,*5E
06/08/2014	01:01:42.844	$GPGGA,010143,2434.2439,N,08042.1666,W,1,8,1.9,23,M,,M,,*52
06/08/2014	01:01:43.827	$GPGGA,010144,2434.2439,N,08042.1665,W,1,8,1.9,23,M,,M,,*56
06/08/2014	01:01:44.826	$GPGGA,010145,2434.2435,N,08042.1663,W,1,7,2.0,22,M,,M,,*59
06/08/2014	01:01:45.857	$GPGGA,010146,2434.2437,N,08042.1665,W,1,7,1.5,22,M,,M,,*58
06/08/2014	01:01:47.023	$GPGGA,010147,2434.2436,N,08042.1664,W,1,8,1.9,22,M,,M,,*5A
06/08/2014	01:01:47.964	$GPGGA,010148,2434.2435,N,08042.1663,W,1,8,1.5,22,M,,M,,*5D
06/08/2014	01:01:49.122	$GPGGA,010149,2434.2435,N,08042.1663,W,1,8,1.9,22,M,,M,,*50
06/08/2014	01:01:50.055	$GPGGA,010150,2434.2437,N,08042.1665,W,1,8,1.9,22,M,,M,,*5C
06/08/2014	01:01:51.202	$GPGGA,010151,2434.2436,N,08042.1664,W,1,8,1.9,22,M,,M,,*5D
06/08/2014	01:01:52.126	$GPGGA,010152,2434.2437,N,08042.1665,W,1,8,1.9,22,M,,M,,*5E
06/08/2014	01:01:53.252	$GPGGA,010153,2434.2438,N,08042.1665,W,1,8,1.9,22,M,,M,,*50
06/08/2014	01:01:54.237	$GPGGA,010154,2434.2439,N,08042.1665,W,1,8,1.9,22,M,,M,,*56
06/08/2014	01:01:55.248	$GPGGA,010155,2434.2439,N,08042.1665,W,1,8,1.9,22,M,,M,,*57
06/08/2014	01:01:56.346	$GPGGA,010156,2434.2441,N,08042.1666,W,1,8,1.9,22,M,,M,,*58
06/08/2014	01:01:57.433	$GPGGA,010157,2434.2442,N,08042.1667,W,1,8,1.9,22,M,,M,,*5B
06/08/2014	01:01:58.417	$GPGGA,010158,2434.2441,N,08042.1667,W,1,8,1.9,21,M,,M,,*54
06/08/2014	01:01:59.512	$GPGGA,010159,2434.2442,N,08042.1667,W,1,8,1.9,21,M,,M,,*56
06/08/2014	01:02:00.516	$GPGGA,010200,2434.2442,N,08042.1669,W,1,8,1.9,21,M,,M,,*57
06/08/2014	01:02:01.655	$GPGGA,010201,2434.2444,N,08042.1669,W,1,8,1.9,21,M,,M,,*50
06/08/2014	01:02:02.586	$GPGGA,010202,2434.2445,N,08042.1669,W,1,8,1.9,21,M,,M,,*52
06/08/2014	01:02:03.599	$GPGGA,010203,2434.2446,N,08042.1669,W,1,8,1.9,21,M,,M,,*50
06/08/2014	01:02:04.773	$GPGGA,010204,2434.2446,N,08042.1670,W,1,8,1.9,21,M,,M,,*5F
06/08/2014	01:02:05.772	$GPGGA,010205,2434.2446,N,08042.1671,W,1,8,1.9,21,M,,M,,*5F
06/08/2014	01:02:06.817	$GPGGA,010206,2434.2448,N,08042.1671,W,1,8,2.0,21,M,,M,,*58
06/08/2014	01:02:07.893	$GPGGA,010207,2434.2446,N,08042.1670,W,1,7,1.9,21,M,,M,,*53
06/08/2014	01:02:08.929	$GPGGA,010208,2434.2444,N,08042.1670,W,1,7,1.5,21,M,,M,,*52
06/08/2014	01:02:09.983	$GPGGA,010209,2434.2442,N,08042.1670,W,1,9,1.5,21,M,,M,,*5B
06/08/2014	01:02:11.007	$GPGGA,010210,2434.2441,N,08042.1670,W,1,9,1.5,21,M,,M,,*50
06/08/2014	01:02:12.053	$GPGGA,010211,2434.2442,N,08042.1669,W,1,9,1.9,21,M,,M,,*56
06/08/2014	01:02:13.098	$GPGGA,010212,2434.2442,N,08042.1670,W,1,9,2.0,21,M,,M,,*57
06/08/2014	01:02:14.132	$GPGGA,010213,2434.2444,N,08042.1671,W,1,7,1.9,21,M,,M,,*55
06/08/2014	01:02:15.167	$GPGGA,010214,2434.2440,N,08042.1670,W,1,7,1.5,21,M,,M,,*5B
06/08/2014	01:02:16.274	$GPGGA,010215,2434.2442,N,08042.1671,W,1,8,2.0,21,M,,M,,*50
06/08/2014	01:02:17.268	$GPGGA,010216,2434.2441,N,08042.1671,W,1,8,1.5,21,M,,M,,*56
06/08/2014	01:02:18.313	$GPGGA,010217,2434.2440,N,08042.1670,W,1,9,1.5,21,M,,M,,*56
06/08/2014	01:02:19.337	$GPGGA,010218,2434.2441,N,08042.1670,W,1,9,1.5,21,M,,M,,*58
06/08/2014	01:02:20.456	$GPGGA,010219,2434.2440,N,08042.1671,W,1,9,2.0,21,M,,M,,*5F
06/08/2014	01:02:21.438	$GPGGA,010220,2434.2442,N,08042.1673,W,1,9,1.9,21,M,,M,,*5F
06/08/2014	01:02:22.504	$GPGGA,010221,2434.2444,N,08042.1673,W,1,8,1.5,21,M,,M,,*55
06/08/2014	01:02:23.516	$GPGGA,010222,2434.2443,N,08042.1674,W,1,8,1.5,21,M,,M,,*56
06/08/2014	01:02:24.582	$GPGGA,010223,2434.2444,N,08042.1674,W,1,9,1.5,21,M,,M,,*51
06/08/2014	01:02:25.617	$GPGGA,010224,2434.2443,N,08042.1676,W,1,9,1.5,21,M,,M,,*53
06/08/2014	01:02:26.673	$GPGGA,010225,2434.2445,N,08042.1675,W,1,8,1.5,21,M,,M,,*56
06/08/2014	01:02:27.680	$GPGGA,010226,2434.2446,N,08042.1676,W,1,8,1.5,21,M,,M,,*55
06/08/2014	01:02:28.752	$GPGGA,010227,2434.2446,N,08042.1676,W,1,9,1.5,21,M,,M,,*55
06/08/2014	01:02:29.787	$GPGGA,010228,2434.2449,N,08042.1678,W,1,9,1.5,21,M,,M,,*5B
06/08/2014	01:02:30.822	$GPGGA,010229,2434.2449,N,08042.1678,W,1,9,1.5,21,M,,M,,*5A
06/08/2014	01:02:31.867	$GPGGA,010230,2434.2450,N,08042.1680,W,1,9,1.5,21,M,,M,,*5D
06/08/2014	01:02:32.943	$GPGGA,010231,2434.2452,N,08042.1680,W,1,9,1.5,21,M,,M,,*5E
06/08/2014	01:02:33.957	$GPGGA,010232,2434.2453,N,08042.1681,W,1,9,1.5,21,M,,M,,*5D
06/08/2014	01:02:35.110	$GPGGA,010233,2434.2455,N,08042.1683,W,1,9,1.5,21,M,,M,,*58
06/08/2014	01:02:36.042	$GPGGA,010234,2434.2455,N,08042.1683,W,1,9,1.5,21,M,,M,,*5F
06/08/2014	01:02:37.103	$GPGGA,010235,2434.2453,N,08042.1682,W,1,8,1.5,21,M,,M,,*58
06/08/2014	01:02:38.139	$GPGGA,010236,2434.2453,N,08042.1682,W,1,8,1.5,21,M,,M,,*5B
06/08/2014	01:02:39.276	$GPGGA,010237,2434.2455,N,08042.1684,W,1,8,1.5,21,M,,M,,*5A
06/08/2014	01:02:40.220	$GPGGA,010238,2434.2454,N,08042.1683,W,1,8,1.5,21,M,,M,,*53
06/08/2014	01:02:38.590	$GPGGA,010239,2434.2454,N,08042.1683,W,1,8,1.5,21,M,,M,,*52
06/08/2014	01:02:39.635	$GPGGA,010240,2434.2457,N,08042.1685,W,1,8,1.5,21,M,,M,,*59
06/08/2014	01:02:40.680	$GPGGA,010241,2434.2457,N,08042.1685,W,1,9,1.5,21,M,,M,,*59
06/08/2014	01:02:41.705	$GPGGA,010242,2434.2457,N,08042.1684,W,1,9,1.5,21,M,,M,,*5B
06/08/2014	01:02:42.770	$GPGGA,010243,2434.2457,N,08042.1684,W,1,9,1.5,21,M,,M,,*5A
06/08/2014	01:02:43.815	$GPGGA,010244,2434.2462,N,08042.1687,W,1,9,1.9,22,M,,M,,*57
06/08/2014	01:02:44.829	$GPGGA,010245,2434.2462,N,08042.1687,W,1,8,1.9,22,M,,M,,*57
06/08/2014	01:02:45.874	$GPGGA,010246,2434.2461,N,08042.1687,W,1,8,1.9,22,M,,M,,*57
06/08/2014	01:02:46.982	$GPGGA,010247,2434.2461,N,08042.1687,W,1,7,2.0,22,M,,M,,*53
06/08/2014	01:02:47.966	$GPGGA,010248,2434.2460,N,08042.1686,W,1,7,2.0,22,M,,M,,*5C
06/08/2014	01:02:49.024	$GPGGA,010249,2434.2460,N,08042.1686,W,1,8,1.9,22,M,,M,,*58
06/08/2014	01:02:50.044	$GPGGA,010250,2434.2458,N,08042.1686,W,1,8,2.0,22,M,,M,,*51
06/08/2014	01:02:51.100	$GPGGA,010251,2434.2458,N,08042.1686,W,1,8,1.9,22,M,,M,,*5A
06/08/2014	01:02:52.156	$GPGGA,010252,2434.2457,N,08042.1685,W,1,8,1.5,22,M,,M,,*59
06/08/2014	01:02:53.274	$GPGGA,010253,2434.2454,N,08042.1685,W,1,8,1.9,22,M,,M,,*57
06/08/2014	01:02:54.214	$GPGGA,010254,2434.2456,N,08042.1685,W,1,8,1.5,22,M,,M,,*5E
06/08/2014	01:02:55.353	$GPGGA,010255,2434.2455,N,08042.1685,W,1,9,1.5,22,M,,M,,*5D
06/08/2014	01:02:56.419	$GPGGA,010256,2434.2454,N,08042.1685,W,1,9,1.5,22,M,,M,,*5F
06/08/2014	01:02:57.475	$GPGGA,010257,2434.2453,N,08042.1685,W,1,9,1.5,22,M,,M,,*59
06/08/2014	01:02:58.477	$GPGGA,010258,2434.2453,N,08042.1685,W,1,9,1.5,22,M,,M,,*56
06/08/2014	01:02:59.564	$GPGGA,010259,2434.2453,N,08042.1685,W,1,9,1.5,22,M,,M,,*57
06/08/2014	01:03:00.599	$GPGGA,010300,2434.2450,N,08042.1685,W,1,9,1.5,22,M,,M,,*59
06/08/2014	01:03:01.644	$GPGGA,010301,2434.2449,N,08042.1685,W,1,9,1.5,22,M,,M,,*50
06/08/2014	01:03:02.658	$GPGGA,010302,2434.2448,N,08042.1685,W,1,9,1.5,21,M,,M,,*51
06/08/2014	01:03:03.744	$GPGGA,010303,2434.2447,N,08042.1685,W,1,9,1.5,21,M,,M,,*5F
06/08/2014	01:03:04.758	$GPGGA,010304,2434.2448,N,08042.1684,W,1,9,1.5,21,M,,M,,*56
06/08/2014	01:03:05.814	$GPGGA,010305,2434.2446,N,08042.1684,W,1,9,1.5,21,M,,M,,*59
06/08/2014	01:03:06.828	$GPGGA,010306,2434.2444,N,08042.1683,W,1,9,1.5,21,M,,M,,*5F
06/08/2014	01:03:07.883	$GPGGA,010307,2434.2445,N,08042.1684,W,1,9,1.5,21,M,,M,,*58
06/08/2014	01:03:08.928	$GPGGA,010308,2434.2443,N,08042.1683,W,1,9,1.5,21,M,,M,,*56
06/08/2014	01:03:09.984	$GPGGA,010309,2434.2444,N,08042.1682,W,1,9,1.5,21,M,,M,,*51
06/08/2014	01:03:10.997	$GPGGA,010310,2434.2443,N,08042.1684,W,1,9,1.5,21,M,,M,,*58
06/08/2014	01:03:12.074	$GPGGA,010311,2434.2444,N,08042.1683,W,1,9,1.5,21,M,,M,,*59
06/08/2014	01:03:13.119	$GPGGA,010312,2434.2442,N,08042.1684,W,1,9,1.5,21,M,,M,,*5B
06/08/2014	01:03:14.154	$GPGGA,010313,2434.2442,N,08042.1683,W,1,9,1.5,21,M,,M,,*5D
06/08/2014	01:03:15.187	$GPGGA,010314,2434.2442,N,08042.1684,W,1,9,1.5,21,M,,M,,*5D
06/08/2014	01:03:16.213	$GPGGA,010315,2434.2442,N,08042.1684,W,1,9,1.5,21,M,,M,,*5C
06/08/2014	01:03:17.277	$GPGGA,010316,2434.2442,N,08042.1684,W,1,9,1.9,21,M,,M,,*53
06/08/2014	01:03:18.302	$GPGGA,010317,2434.2441,N,08042.1684,W,1,8,1.9,21,M,,M,,*50
06/08/2014	01:03:19.349	$GPGGA,010318,2434.2442,N,08042.1684,W,1,8,1.9,21,M,,M,,*5C
06/08/2014	01:03:20.413	$GPGGA,010319,2434.2440,N,08042.1684,W,1,8,1.9,21,M,,M,,*5F
06/08/2014	01:03:21.447	$GPGGA,010320,2434.2439,N,08042.1683,W,1,8,1.9,21,M,,M,,*5C
06/08/2014	01:03:22.493	$GPGGA,010321,2434.2439,N,08042.1684,W,1,8,1.9,21,M,,M,,*5A
06/08/2014	01:03:23.506	$GPGGA,010322,2434.2439,N,08042.1684,W,1,8,1.9,21,M,,M,,*59
06/08/2014	01:03:24.572	$GPGGA,010323,2434.2439,N,08042.1683,W,1,8,1.9,21,M,,M,,*5F
06/08/2014	01:03:25.628	$GPGGA,010324,2434.2437,N,08042.1684,W,1,8,1.9,21,M,,M,,*51
06/08/2014	01:03:26.683	$GPGGA,010325,2434.2436,N,08042.1684,W,1,8,1.9,20,M,,M,,*50
06/08/2014	01:03:27.687	$GPGGA,010326,2434.2435,N,08042.1684,W,1,8,1.9,20,M,,M,,*50
06/08/2014	01:03:28.857	$GPGGA,010327,2434.2435,N,08042.1683,W,1,8,1.9,20,M,,M,,*56
06/08/2014	01:03:29.789	$GPGGA,010328,2434.2435,N,08042.1684,W,1,8,1.9,20,M,,M,,*5E
06/08/2014	01:03:30.938	$GPGGA,010329,2434.2433,N,08042.1684,W,1,8,1.9,20,M,,M,,*59
06/08/2014	01:03:31.859	$GPGGA,010330,2434.2434,N,08042.1684,W,1,8,1.9,20,M,,M,,*56
06/08/2014	01:03:32.933	$GPGGA,010331,2434.2432,N,08042.1684,W,1,8,1.9,20,M,,M,,*51
06/08/2014	01:03:33.967	$GPGGA,010332,2434.2432,N,08042.1684,W,1,8,1.9,20,M,,M,,*52
06/08/2014	01:03:35.012	$GPGGA,010333,2434.2431,N,08042.1684,W,1,8,1.9,20,M,,M,,*50
06/08/2014	01:03:36.049	$GPGGA,010334,2434.2431,N,08042.1684,W,1,8,1.9,20,M,,M,,*57
06/08/2014	01:03:37.108	$GPGGA,010335,2434.2431,N,08042.1684,W,1,9,1.5,20,M,,M,,*5B
06/08/2014	01:03:38.256	$GPGGA,010336,2434.2432,N,08042.1684,W,1,9,1.5,20,M,,M,,*5B
06/08/2014	01:03:39.192	$GPGGA,010337,2434.2432,N,08042.1683,W,1,9,1.5,20,M,,M,,*5D
06/08/2014	01:03:40.195	$GPGGA,010338,2434.2432,N,08042.1684,W,1,9,1.5,20,M,,M,,*55
06/08/2014	01:03:38.538	$GPGGA,010339,2434.2430,N,08042.1683,W,1,9,1.5,20,M,,M,,*51
06/08/2014	01:03:39.698	$GPGGA,010340,2434.2429,N,08042.1682,W,1,9,1.9,20,M,,M,,*5A
06/08/2014	01:03:40.773	$GPGGA,010341,2434.2428,N,08042.1683,W,1,8,1.9,20,M,,M,,*5A
06/08/2014	01:03:41.767	$GPGGA,010342,2434.2428,N,08042.1682,W,1,8,1.9,20,M,,M,,*58
06/08/2014	01:03:42.854	$GPGGA,010343,2434.2426,N,08042.1683,W,1,9,1.5,20,M,,M,,*5B
06/08/2014	01:03:43.878	$GPGGA,010344,2434.2425,N,08042.1682,W,1,9,1.5,20,M,,M,,*5E
06/08/2014	01:03:44.923	$GPGGA,010345,2434.2426,N,08042.1681,W,1,9,1.5,20,M,,M,,*5F
06/08/2014	01:03:45.947	$GPGGA,010346,2434.2427,N,08042.1681,W,1,9,1.5,20,M,,M,,*5D
06/08/2014	01:03:46.994	$GPGGA,010347,2434.2426,N,08042.1681,W,1,9,1.5,20,M,,M,,*5D
06/08/2014	01:03:48.048	$GPGGA,010348,2434.2425,N,08042.1680,W,1,9,1.5,20,M,,M,,*50
06/08/2014	01:03:49.093	$GPGGA,010349,2434.2426,N,08042.1680,W,1,9,1.5,20,M,,M,,*52
06/08/2014	01:03:50.116	$GPGGA,010350,2434.2425,N,08042.1680,W,1,9,1.5,20,M,,M,,*59
06/08/2014	01:03:51.193	$GPGGA,010351,2434.2426,N,08042.1679,W,1,9,1.5,20,M,,M,,*5D
06/08/2014	01:03:52.217	$GPGGA,010352,2434.2425,N,08042.1678,W,1,9,1.8,20,M,,M,,*51
06/08/2014	01:03:53.283	$GPGGA,010353,2434.2426,N,08042.1677,W,1,8,1.8,20,M,,M,,*5D
06/08/2014	01:03:54.286	$GPGGA,010354,2434.2425,N,08042.1677,W,1,8,1.8,20,M,,M,,*59
06/08/2014	01:03:55.363	$GPGGA,010355,2434.2426,N,08042.1675,W,1,8,1.8,20,M,,M,,*59
06/08/2014	01:03:56.397	$GPGGA,010356,2434.2425,N,08042.1674,W,1,8,1.8,20,M,,M,,*58
06/08/2014	01:03:57.432	$GPGGA,010357,2434.2426,N,08042.1676,W,1,8,1.8,20,M,,M,,*58
06/08/2014	01:03:58.467	$GPGGA,010358,2434.2424,N,08042.1677,W,1,8,1.5,20,M,,M,,*59
06/08/2014	01:03:59.522	$GPGGA,010359,2434.2424,N,08042.1676,W,1,9,1.5,20,M,,M,,*58
06/08/2014	01:04:00.567	$GPGGA,010400,2434.2424,N,08042.1675,W,1,9,1.5,20,M,,M,,*50
06/08/2014	01:04:01.623	$GPGGA,010401,2434.2424,N,08042.1677,W,1,8,1.8,20,M,,M,,*5F
06/08/2014	01:04:02.620	$GPGGA,010402,2434.2424,N,08042.1675,W,1,8,1.5,20,M,,M,,*53
06/08/2014	01:04:03.671	$GPGGA,010403,2434.2424,N,08042.1674,W,1,8,1.8,20,M,,M,,*5E
06/08/2014	01:04:04.738	$GPGGA,010404,2434.2424,N,08042.1673,W,1,8,1.8,20,M,,M,,*5E
06/08/2014	01:04:05.793	$GPGGA,010405,2434.2424,N,08042.1673,W,1,9,1.5,20,M,,M,,*53
06/08/2014	01:04:06.798	$GPGGA,010406,2434.2422,N,08042.1672,W,1,9,1.5,20,M,,M,,*57
06/08/2014	01:04:07.872	$GPGGA,010407,2434.2423,N,08042.1671,W,1,9,1.5,20,M,,M,,*54
06/08/2014	01:04:08.896	$GPGGA,010408,2434.2422,N,08042.1673,W,1,9,1.5,20,M,,M,,*58
06/08/2014	01:04:09.972	$GPGGA,010409,2434.2421,N,08042.1672,W,1,9,1.5,20,M,,M,,*5B
06/08/2014	01:04:10.975	$GPGGA,010410,2434.2421,N,08042.1670,W,1,9,1.5,20,M,,M,,*51
06/08/2014	01:04:12.134	$GPGGA,010411,2434.2421,N,08042.1671,W,1,8,1.8,20,M,,M,,*5D
06/08/2014	01:04:13.095	$GPGGA,010412,2434.2421,N,08042.1670,W,1,8,1.5,20,M,,M,,*52
06/08/2014	01:04:14.215	$GPGGA,010413,2434.2421,N,08042.1668,W,1,9,1.5,20,M,,M,,*5B
06/08/2014	01:04:15.145	$GPGGA,010414,2434.2419,N,08042.1669,W,1,9,1.5,20,M,,M,,*56
06/08/2014	01:04:16.204	$GPGGA,010415,2434.2420,N,08042.1668,W,1,9,1.5,20,M,,M,,*5C
06/08/2014	01:04:17.249	$GPGGA,010416,2434.2418,N,08042.1667,W,1,9,1.5,20,M,,M,,*5B
06/08/2014	01:04:18.376	$GPGGA,010417,2434.2419,N,08042.1667,W,1,9,1.5,20,M,,M,,*5B
06/08/2014	01:04:19.305	$GPGGA,010418,2434.2417,N,08042.1667,W,1,9,1.5,20,M,,M,,*5A
06/08/2014	01:04:20.350	$GPGGA,010419,2434.2417,N,08042.1667,W,1,9,1.5,20,M,,M,,*5B
06/08/2014	01:04:21.446	$GPGGA,010420,2434.2415,N,08042.1669,W,1,9,1.5,20,M,,M,,*5D
06/08/2014	01:04:22.461	$GPGGA,010421,2434.2416,N,08042.1667,W,1,9,1.5,20,M,,M,,*51
06/08/2014	01:04:23.485	$GPGGA,010422,2434.2414,N,08042.1667,W,1,9,1.5,20,M,,M,,*50
06/08/2014	01:04:24.530	$GPGGA,010423,2434.2413,N,08042.1667,W,1,9,1.5,20,M,,M,,*56
06/08/2014	01:04:25.689	$GPGGA,010424,2434.2413,N,08042.1667,W,1,9,1.5,20,M,,M,,*51
06/08/2014	01:04:26.631	$GPGGA,010425,2434.2412,N,08042.1667,W,1,9,1.5,20,M,,M,,*51
06/08/2014	01:04:27.769	$GPGGA,010426,2434.2411,N,08042.1667,W,1,9,1.5,20,M,,M,,*51
06/08/2014	01:04:28.710	$GPGGA,010427,2434.2410,N,08042.1667,W,1,9,1.5,20,M,,M,,*51
06/08/2014	01:04:29.755	$GPGGA,010428,2434.2410,N,08042.1667,W,1,9,1.9,20,M,,M,,*52
06/08/2014	01:04:30.800	$GPGGA,010429,2434.2408,N,08042.1666,W,1,8,1.9,20,M,,M,,*5A
06/08/2014	01:04:31.835	$GPGGA,010430,2434.2407,N,08042.1666,W,1,8,1.5,19,M,,M,,*5B
06/08/2014	01:04:32.880	$GPGGA,010431,2434.2406,N,08042.1666,W,1,8,1.9,19,M,,M,,*57
06/08/2014	01:04:34.029	$GPGGA,010432,2434.2406,N,08042.1665,W,1,8,1.9,19,M,,M,,*57
06/08/2014	01:04:35.074	$GPGGA,010433,2434.2403,N,08042.1665,W,1,9,1.5,19,M,,M,,*5E
06/08/2014	01:04:36.120	$GPGGA,010434,2434.2403,N,08042.1665,W,1,9,1.9,19,M,,M,,*55
06/08/2014	01:04:37.175	$GPGGA,010435,2434.2403,N,08042.1665,W,1,9,1.5,19,M,,M,,*58
06/08/2014	01:04:38.199	$GPGGA,010436,2434.2403,N,08042.1665,W,1,9,1.5,19,M,,M,,*5B
06/08/2014	01:04:39.265	$GPGGA,010437,2434.2402,N,08042.1664,W,1,9,1.5,19,M,,M,,*5A
06/08/2014	01:04:37.587	$GPGGA,010438,2434.2402,N,08042.1665,W,1,9,1.5,19,M,,M,,*54
06/08/2014	01:04:38.641	$GPGGA,010439,2434.2403,N,08042.1664,W,1,9,1.5,19,M,,M,,*55
06/08/2014	01:04:39.686	$GPGGA,010440,2434.2403,N,08042.1663,W,1,9,1.5,19,M,,M,,*5C
06/08/2014	01:04:40.742	$GPGGA,010441,2434.2402,N,08042.1663,W,1,9,1.5,19,M,,M,,*5C
06/08/2014	01:04:41.754	$GPGGA,010442,2434.2402,N,08042.1663,W,1,9,1.5,19,M,,M,,*5F
06/08/2014	01:04:42.810	$GPGGA,010443,2434.2401,N,08042.1662,W,1,9,1.5,19,M,,M,,*5C
06/08/2014	01:04:43.855	$GPGGA,010444,2434.2400,N,08042.1662,W,1,9,1.9,19,M,,M,,*56
06/08/2014	01:04:44.869	$GPGGA,010445,2434.2399,N,08042.1662,W,1,8,1.9,19,M,,M,,*51
06/08/2014	01:04:45.924	$GPGGA,010446,2434.2399,N,08042.1661,W,1,8,1.9,19,M,,M,,*51
06/08/2014	01:04:46.959	$GPGGA,010447,2434.2396,N,08042.1662,W,1,8,1.9,19,M,,M,,*5C
06/08/2014	01:04:48.015	$GPGGA,010448,2434.2397,N,08042.1661,W,1,8,1.9,19,M,,M,,*51
06/08/2014	01:04:49.070	$GPGGA,010449,2434.2396,N,08042.1662,W,1,8,1.9,19,M,,M,,*52
06/08/2014	01:04:50.105	$GPGGA,010450,2434.2394,N,08042.1660,W,1,8,1.9,19,M,,M,,*5A
06/08/2014	01:04:51.150	$GPGGA,010451,2434.2395,N,08042.1662,W,1,8,1.9,19,M,,M,,*58
06/08/2014	01:04:52.185	$GPGGA,010452,2434.2394,N,08042.1661,W,1,8,1.9,19,M,,M,,*59
06/08/2014	01:04:53.212	$GPGGA,010453,2434.2393,N,08042.1660,W,1,8,1.9,19,M,,M,,*5E
06/08/2014	01:04:54.275	$GPGGA,010454,2434.2394,N,08042.1660,W,1,8,1.9,19,M,,M,,*5E
06/08/2014	01:04:55.341	$GPGGA,010455,2434.2393,N,08042.1660,W,1,8,1.9,19,M,,M,,*58
06/08/2014	01:04:56.375	$GPGGA,010456,2434.2394,N,08042.1660,W,1,8,1.9,19,M,,M,,*5C
06/08/2014	01:04:57.431	$GPGGA,010457,2434.2392,N,08042.1659,W,1,8,1.9,19,M,,M,,*51
06/08/2014	01:04:58.428	$GPGGA,010458,2434.2392,N,08042.1659,W,1,8,1.9,19,M,,M,,*5E
06/08/2014	01:04:59.468	$GPGGA,010459,2434.2392,N,08042.1659,W,1,8,1.9,19,M,,M,,*5F
06/08/2014	01:05:00.544	$GPGGA,010500,2434.2392,N,08042.1659,W,1,8,1.9,19,M,,M,,*52
06/08/2014	01:05:01.558	$GPGGA,010501,2434.2392,N,08042.1659,W,1,8,1.9,19,M,,M,,*53
06/08/2014	01:05:02.729	$GPGGA,010502,2434.2394,N,08042.1659,W,1,8,1.9,19,M,,M,,*56
06/08/2014	01:05:03.763	$GPGGA,010503,2434.2395,N,08042.1658,W,1,9,1.5,19,M,,M,,*5A
06/08/2014	01:05:04.819	$GPGGA,010504,2434.2398,N,08042.1658,W,1,9,1.5,19,M,,M,,*50
06/08/2014	01:05:05.844	$GPGGA,010505,2434.2399,N,08042.1658,W,1,9,1.5,19,M,,M,,*50
06/08/2014	01:05:06.784	$GPGGA,010506,2434.2399,N,08042.1657,W,1,9,1.5,19,M,,M,,*5C
06/08/2014	01:05:07.829	$GPGGA,010507,2434.2401,N,08042.1658,W,1,9,1.5,19,M,,M,,*54
06/08/2014	01:05:08.978	$GPGGA,010508,2434.2402,N,08042.1657,W,1,9,1.5,19,M,,M,,*57
06/08/2014	01:05:09.898	$GPGGA,010509,2434.2402,N,08042.1658,W,1,9,1.5,20,M,,M,,*53
06/08/2014	01:05:11.072	$GPGGA,010510,2434.2402,N,08042.1656,W,1,9,1.5,20,M,,M,,*55
06/08/2014	01:05:12.093	$GPGGA,010511,2434.2403,N,08042.1656,W,1,9,1.5,20,M,,M,,*55
06/08/2014	01:05:13.055	$GPGGA,010512,2434.2403,N,08042.1656,W,1,9,1.5,20,M,,M,,*56
06/08/2014	01:05:14.089	$GPGGA,010513,2434.2403,N,08042.1655,W,1,9,1.5,20,M,,M,,*54
06/08/2014	01:05:15.217	$GPGGA,010514,2434.2403,N,08042.1655,W,1,9,1.5,20,M,,M,,*53
06/08/2014	01:05:16.179	$GPGGA,010515,2434.2405,N,08042.1655,W,1,9,1.5,20,M,,M,,*54
06/08/2014	01:05:17.225	$GPGGA,010516,2434.2404,N,08042.1655,W,1,9,1.5,20,M,,M,,*56
06/08/2014	01:05:18.258	$GPGGA,010517,2434.2405,N,08042.1654,W,1,9,1.5,20,M,,M,,*57
06/08/2014	01:05:19.397	$GPGGA,010518,2434.2406,N,08042.1655,W,1,9,1.5,21,M,,M,,*5B
06/08/2014	01:05:20.452	$GPGGA,010519,2434.2406,N,08042.1654,W,1,9,1.5,21,M,,M,,*5B
06/08/2014	01:05:21.497	$GPGGA,010520,2434.2406,N,08042.1653,W,1,9,1.5,21,M,,M,,*56
06/08/2014	01:05:22.543	$GPGGA,010521,2434.2406,N,08042.1654,W,1,9,1.5,21,M,,M,,*50
06/08/2014	01:05:23.556	$GPGGA,010522,2434.2408,N,08042.1653,W,1,9,1.5,21,M,,M,,*5A
06/08/2014	01:05:24.622	$GPGGA,010523,2434.2409,N,08042.1654,W,1,9,1.5,21,M,,M,,*5D
06/08/2014	01:05:25.667	$GPGGA,010524,2434.2408,N,08042.1652,W,1,9,1.5,21,M,,M,,*5D
06/08/2014	01:05:26.692	$GPGGA,010525,2434.2410,N,08042.1652,W,1,9,1.5,21,M,,M,,*55
06/08/2014	01:05:27.747	$GPGGA,010526,2434.2410,N,08042.1654,W,1,9,1.5,21,M,,M,,*50
06/08/2014	01:05:28.771	$GPGGA,010527,2434.2410,N,08042.1652,W,1,9,1.5,21,M,,M,,*57
06/08/2014	01:05:29.837	$GPGGA,010528,2434.2410,N,08042.1654,W,1,9,1.9,21,M,,M,,*52
06/08/2014	01:05:30.862	$GPGGA,010529,2434.2410,N,08042.1652,W,1,9,1.5,22,M,,M,,*5A
06/08/2014	01:05:31.907	$GPGGA,010530,2434.2410,N,08042.1652,W,1,9,1.9,22,M,,M,,*5E
06/08/2014	01:05:32.973	$GPGGA,010531,2434.2408,N,08042.1651,W,1,7,2.3,22,M,,M,,*52
06/08/2014	01:05:34.007	$GPGGA,010532,2434.2407,N,08042.1650,W,1,7,1.9,22,M,,M,,*56
06/08/2014	01:05:35.032	$GPGGA,010533,2434.2409,N,08042.1649,W,1,7,2.3,22,M,,M,,*58
06/08/2014	01:05:36.086	$GPGGA,010534,2434.2406,N,08042.1649,W,1,7,1.5,22,M,,M,,*55
06/08/2014	01:05:37.142	$GPGGA,010535,2434.2406,N,08042.1649,W,1,8,1.9,22,M,,M,,*57
06/08/2014	01:05:38.187	$GPGGA,010536,2434.2404,N,08042.1651,W,1,8,1.9,21,M,,M,,*5C
06/08/2014	01:05:39.211	$GPGGA,010537,2434.2403,N,08042.1652,W,1,8,1.9,21,M,,M,,*59
06/08/2014	01:05:40.256	$GPGGA,010538,2434.2402,N,08042.1651,W,1,8,1.9,21,M,,M,,*54
06/08/2014	01:05:38.587	$GPGGA,010539,2434.2402,N,08042.1652,W,1,7,2.3,21,M,,M,,*50
06/08/2014	01:05:39.663	$GPGGA,010540,2434.2402,N,08042.1650,W,1,7,1.9,21,M,,M,,*55
06/08/2014	01:05:40.666	$GPGGA,010541,2434.2402,N,08042.1649,W,1,8,1.9,21,M,,M,,*53
06/08/2014	01:05:41.722	$GPGGA,010542,2434.2402,N,08042.1649,W,1,8,1.9,21,M,,M,,*50
06/08/2014	01:05:42.798	$GPGGA,010543,2434.2402,N,08042.1651,W,1,7,2.3,21,M,,M,,*5E
06/08/2014	01:05:43.823	$GPGGA,010544,2434.2406,N,08042.1650,W,1,7,1.9,21,M,,M,,*55
06/08/2014	01:05:44.842	$GPGGA,010545,2434.2408,N,08042.1651,W,1,9,1.5,21,M,,M,,*59
06/08/2014	01:05:45.902	$GPGGA,010546,2434.2407,N,08042.1649,W,1,9,1.9,21,M,,M,,*50
06/08/2014	01:05:46.958	$GPGGA,010547,2434.2408,N,08042.1649,W,1,7,2.3,21,M,,M,,*59
06/08/2014	01:05:47.982	$GPGGA,010548,2434.2410,N,08042.1649,W,1,7,1.9,21,M,,M,,*56
06/08/2014	01:05:49.021	$GPGGA,010549,2434.2410,N,08042.1649,W,1,8,1.9,20,M,,M,,*59
06/08/2014	01:05:50.157	$GPGGA,010550,2434.2410,N,08042.1649,W,1,8,1.9,20,M,,M,,*51
06/08/2014	01:05:51.232	$GPGGA,010551,2434.2412,N,08042.1649,W,1,8,1.5,20,M,,M,,*5E
06/08/2014	01:05:52.172	$GPGGA,010552,2434.2411,N,08042.1654,W,1,8,1.5,20,M,,M,,*52
06/08/2014	01:05:53.196	$GPGGA,010553,2434.2412,N,08042.1655,W,1,9,1.5,20,M,,M,,*50
06/08/2014	01:05:54.231	$GPGGA,010554,2434.2413,N,08042.1655,W,1,9,1.5,20,M,,M,,*56
06/08/2014	01:05:55.380	$GPGGA,010555,2434.2413,N,08042.1656,W,1,9,1.5,20,M,,M,,*54
06/08/2014	01:05:56.352	$GPGGA,010556,2434.2415,N,08042.1658,W,1,9,1.5,20,M,,M,,*5F
06/08/2014	01:05:57.379	$GPGGA,010557,2434.2416,N,08042.1658,W,1,9,1.5,20,M,,M,,*5D
06/08/2014	01:05:58.401	$GPGGA,010558,2434.2415,N,08042.1658,W,1,9,1.5,20,M,,M,,*51
06/08/2014	01:05:59.456	$GPGGA,010559,2434.2417,N,08042.1659,W,1,9,1.5,20,M,,M,,*53
06/08/2014	01:06:00.543	$GPGGA,010600,2434.2417,N,08042.1659,W,1,9,1.5,20,M,,M,,*5C
06/08/2014	01:06:01.667	$GPGGA,010601,2434.2419,N,08042.1659,W,1,9,1.5,20,M,,M,,*53
06/08/2014	01:06:02.686	$GPGGA,010602,2434.2418,N,08042.1659,W,1,9,1.5,20,M,,M,,*51
06/08/2014	01:06:03.720	$GPGGA,010603,2434.2419,N,08042.1660,W,1,9,1.5,20,M,,M,,*5B
06/08/2014	01:06:04.786	$GPGGA,010604,2434.2420,N,08042.1662,W,1,9,1.5,20,M,,M,,*54
06/08/2014	01:06:05.832	$GPGGA,010605,2434.2419,N,08042.1660,W,1,9,1.5,20,M,,M,,*5D
06/08/2014	01:06:06.845	$GPGGA,010606,2434.2420,N,08042.1662,W,1,9,1.5,20,M,,M,,*56
06/08/2014	01:06:07.923	$GPGGA,010607,2434.2421,N,08042.1661,W,1,9,1.5,20,M,,M,,*55
06/08/2014	01:06:08.956	$GPGGA,010608,2434.2421,N,08042.1662,W,1,9,1.5,20,M,,M,,*59
06/08/2014	01:06:10.001	$GPGGA,010609,2434.2421,N,08042.1662,W,1,9,1.5,20,M,,M,,*58
06/08/2014	01:06:11.024	$GPGGA,010610,2434.2421,N,08042.1662,W,1,9,1.5,21,M,,M,,*51
06/08/2014	01:06:12.090	$GPGGA,010611,2434.2421,N,08042.1663,W,1,9,1.5,21,M,,M,,*51
06/08/2014	01:06:13.136	$GPGGA,010612,2434.2421,N,08042.1663,W,1,9,1.5,21,M,,M,,*52
06/08/2014	01:06:14.149	$GPGGA,010613,2434.2421,N,08042.1665,W,1,9,1.5,21,M,,M,,*55
06/08/2014	01:06:15.205	$GPGGA,010614,2434.2421,N,08042.1664,W,1,9,1.5,21,M,,M,,*53
06/08/2014	01:06:16.271	$GPGGA,010615,2434.2421,N,08042.1665,W,1,9,1.5,21,M,,M,,*53
06/08/2014	01:06:17.307	$GPGGA,010616,2434.2421,N,08042.1665,W,1,9,1.5,21,M,,M,,*50
06/08/2014	01:06:18.361	$GPGGA,010617,2434.2421,N,08042.1665,W,1,9,1.5,21,M,,M,,*51
06/08/2014	01:06:19.385	$GPGGA,010618,2434.2421,N,08042.1666,W,1,9,1.5,21,M,,M,,*5D
06/08/2014	01:06:20.430	$GPGGA,010619,2434.2421,N,08042.1666,W,1,9,1.5,21,M,,M,,*5C
06/08/2014	01:06:21.475	$GPGGA,010620,2434.2421,N,08042.1667,W,1,9,1.5,21,M,,M,,*57
06/08/2014	01:06:22.521	$GPGGA,010621,2434.2423,N,08042.1667,W,1,9,1.5,21,M,,M,,*54
06/08/2014	01:06:23.545	$GPGGA,010622,2434.2422,N,08042.1669,W,1,9,1.5,21,M,,M,,*58
06/08/2014	01:06:24.579	$GPGGA,010623,2434.2423,N,08042.1668,W,1,9,1.5,21,M,,M,,*59
06/08/2014	01:06:25.645	$GPGGA,010624,2434.2424,N,08042.1669,W,1,9,1.5,21,M,,M,,*58
06/08/2014	01:06:26.691	$GPGGA,010625,2434.2424,N,08042.1669,W,1,9,1.5,21,M,,M,,*59
06/08/2014	01:06:27.715	$GPGGA,010626,2434.2424,N,08042.1669,W,1,9,1.5,21,M,,M,,*5A
06/08/2014	01:06:28.780	$GPGGA,010627,2434.2424,N,08042.1669,W,1,9,1.5,21,M,,M,,*5B
06/08/2014	01:06:29.814	$GPGGA,010628,2434.2426,N,08042.1670,W,1,9,1.5,21,M,,M,,*5E
06/08/2014	01:06:30.870	$GPGGA,010629,2434.2427,N,08042.1671,W,1,9,1.5,21,M,,M,,*5F
06/08/2014	01:06:31.894	$GPGGA,010630,2434.2426,N,08042.1671,W,1,9,1.5,21,M,,M,,*56
06/08/2014	01:06:32.960	$GPGGA,010631,2434.2427,N,08042.1671,W,1,9,1.5,21,M,,M,,*56
06/08/2014	01:06:33.984	$GPGGA,010632,2434.2428,N,08042.1673,W,1,9,1.5,21,M,,M,,*58
06/08/2014	01:06:35.144	$GPGGA,010633,2434.2428,N,08042.1672,W,1,9,1.5,21,M,,M,,*58
06/08/2014	01:06:36.063	$GPGGA,010634,2434.2428,N,08042.1673,W,1,9,1.5,21,M,,M,,*5E
06/08/2014	01:06:37.130	$GPGGA,010635,2434.2428,N,08042.1673,W,1,9,1.5,21,M,,M,,*5F
06/08/2014	01:06:38.175	$GPGGA,010636,2434.2428,N,08042.1673,W,1,9,1.5,21,M,,M,,*5C
06/08/2014	01:06:39.220	$GPGGA,010637,2434.2428,N,08042.1674,W,1,9,1.5,21,M,,M,,*5A
06/08/2014	01:06:40.225	$GPGGA,010638,2434.2428,N,08042.1674,W,1,9,1.5,21,M,,M,,*55
06/08/2014	01:06:38.552	$GPGGA,010639,2434.2428,N,08042.1674,W,1,9,1.5,21,M,,M,,*54
06/08/2014	01:06:39.610	$GPGGA,010640,2434.2430,N,08042.1676,W,1,9,1.5,21,M,,M,,*51
06/08/2014	01:06:40.592	$GPGGA,010641,2434.2429,N,08042.1675,W,1,9,1.5,21,M,,M,,*5B
06/08/2014	01:06:41.697	$GPGGA,010642,2434.2430,N,08042.1676,W,1,9,1.5,21,M,,M,,*53
06/08/2014	01:06:42.636	$GPGGA,010643,2434.2431,N,08042.1676,W,1,9,1.5,21,M,,M,,*53
06/08/2014	01:06:43.769	$GPGGA,010644,2434.2430,N,08042.1677,W,1,9,1.5,21,M,,M,,*54
06/08/2014	01:06:44.782	$GPGGA,010645,2434.2431,N,08042.1677,W,1,9,1.5,21,M,,M,,*54
06/08/2014	01:06:45.794	$GPGGA,010646,2434.2431,N,08042.1677,W,1,9,1.5,21,M,,M,,*57
06/08/2014	01:06:46.810	$GPGGA,010647,2434.2432,N,08042.1677,W,1,9,1.5,21,M,,M,,*55
06/08/2014	01:06:47.813	$GPGGA,010648,2434.2432,N,08042.1678,W,1,9,1.5,21,M,,M,,*55
06/08/2014	01:06:48.820	$GPGGA,010649,2434.2432,N,08042.1678,W,1,9,1.5,21,M,,M,,*54
06/08/2014	01:06:49.748	$GPGGA,010650,2434.2434,N,08042.1678,W,1,9,1.5,21,M,,M,,*5A
06/08/2014	01:06:50.881	$GPGGA,010651,2434.2433,N,08042.1680,W,1,9,1.5,21,M,,M,,*5B
06/08/2014	01:06:53.313	$GPGGA,010653,2434.2435,N,08042.1680,W,1,9,1.5,21,M,,M,,*5F
06/08/2014	01:06:53.899	$GPGGA,010654,2434.2435,N,08042.1680,W,1,9,1.5,21,M,,M,,*58
06/08/2014	01:06:54.949	$GPGGA,010655,2434.2435,N,08042.1680,W,1,9,1.5,21,M,,M,,*59
06/08/2014	01:06:55.945	$GPGGA,010656,2434.2435,N,08042.1681,W,1,9,1.5,21,M,,M,,*5B
06/08/2014	01:06:56.963	$GPGGA,010657,2434.2435,N,08042.1681,W,1,9,1.5,21,M,,M,,*5A
06/08/2014	01:06:57.970	$GPGGA,010658,2434.2435,N,08042.1683,W,1,9,1.5,21,M,,M,,*57
06/08/2014	01:06:58.978	$GPGGA,010659,2434.2437,N,08042.1682,W,1,9,1.5,21,M,,M,,*55
06/08/2014	01:07:00.017	$GPGGA,010700,2434.2436,N,08042.1684,W,1,9,1.5,21,M,,M,,*5F
06/08/2014	01:07:01.024	$GPGGA,010701,2434.2435,N,08042.1683,W,1,9,1.5,21,M,,M,,*5A
06/08/2014	01:07:02.031	$GPGGA,010702,2434.2437,N,08042.1684,W,1,9,1.5,21,M,,M,,*5C
06/08/2014	01:07:03.028	$GPGGA,010703,2434.2436,N,08042.1685,W,1,9,1.5,21,M,,M,,*5D
06/08/2014	01:07:04.066	$GPGGA,010704,2434.2437,N,08042.1685,W,1,9,1.5,21,M,,M,,*5B
06/08/2014	01:07:05.094	$GPGGA,010705,2434.2438,N,08042.1687,W,1,9,1.5,21,M,,M,,*57
06/08/2014	01:07:06.081	$GPGGA,010706,2434.2437,N,08042.1686,W,1,9,1.5,21,M,,M,,*5A
06/08/2014	01:07:07.119	$GPGGA,010707,2434.2438,N,08042.1687,W,1,9,1.5,21,M,,M,,*55
06/08/2014	01:07:08.127	$GPGGA,010708,2434.2437,N,08042.1688,W,1,9,1.5,21,M,,M,,*5A
06/08/2014	01:07:09.135	$GPGGA,010709,2434.2439,N,08042.1689,W,1,9,1.5,21,M,,M,,*54
06/08/2014	01:07:10.152	$GPGGA,010710,2434.2442,N,08042.1691,W,1,9,1.9,20,M,,M,,*54
06/08/2014	01:07:11.180	$GPGGA,010711,2434.2444,N,08042.1690,W,1,9,1.5,20,M,,M,,*5E
06/08/2014	01:07:12.188	$GPGGA,010712,2434.2445,N,08042.1691,W,1,9,1.5,20,M,,M,,*5D
06/08/2014	01:07:13.196	$GPGGA,010713,2434.2446,N,08042.1692,W,1,9,1.5,20,M,,M,,*5C
06/08/2014	01:07:14.213	$GPGGA,010714,2434.2446,N,08042.1692,W,1,9,1.5,20,M,,M,,*5B
06/08/2014	01:07:15.221	$GPGGA,010715,2434.2448,N,08042.1694,W,1,9,1.5,21,M,,M,,*53
06/08/2014	01:07:16.259	$GPGGA,010716,2434.2449,N,08042.1693,W,1,9,1.5,21,M,,M,,*56
06/08/2014	01:07:17.277	$GPGGA,010717,2434.2449,N,08042.1694,W,1,9,1.5,21,M,,M,,*50
06/08/2014	01:07:18.265	$GPGGA,010718,2434.2449,N,08042.1695,W,1,9,1.5,21,M,,M,,*5E
06/08/2014	01:07:19.312	$GPGGA,010719,2434.2450,N,08042.1696,W,1,9,1.5,21,M,,M,,*54
06/08/2014	01:07:20.431	$GPGGA,010720,2434.2450,N,08042.1698,W,1,9,1.5,21,M,,M,,*50
06/08/2014	01:07:21.322	$GPGGA,010721,2434.2450,N,08042.1697,W,1,9,1.5,21,M,,M,,*5E
06/08/2014	01:07:22.446	$GPGGA,010722,2434.2450,N,08042.1698,W,1,9,1.5,21,M,,M,,*52
06/08/2014	01:07:23.383	$GPGGA,010723,2434.2452,N,08042.1699,W,1,9,1.5,21,M,,M,,*50
06/08/2014	01:07:24.370	$GPGGA,010724,2434.2451,N,08042.1699,W,1,9,1.5,21,M,,M,,*54
06/08/2014	01:07:26.721	$GPGGA,010726,2434.2453,N,08042.1702,W,1,9,1.5,21,M,,M,,*57
06/08/2014	01:07:27.531	$GPGGA,010727,2434.2453,N,08042.1701,W,1,9,1.5,21,M,,M,,*55
06/08/2014	01:07:28.450	$GPGGA,010728,2434.2451,N,08042.1702,W,1,9,1.5,21,M,,M,,*5B
06/08/2014	01:07:29.439	$GPGGA,010729,2434.2453,N,08042.1703,W,1,9,1.5,21,M,,M,,*59
06/08/2014	01:07:30.457	$GPGGA,010730,2434.2453,N,08042.1703,W,1,9,1.5,21,M,,M,,*51
06/08/2014	01:07:31.486	$GPGGA,010731,2434.2453,N,08042.1705,W,1,9,1.5,21,M,,M,,*56
06/08/2014	01:07:32.616	$GPGGA,010732,2434.2453,N,08042.1705,W,1,9,1.5,21,M,,M,,*55
06/08/2014	01:07:33.636	$GPGGA,010733,2434.2453,N,08042.1705,W,1,9,1.5,21,M,,M,,*54
06/08/2014	01:07:34.529	$GPGGA,010734,2434.2455,N,08042.1706,W,1,9,1.5,21,M,,M,,*56
06/08/2014	01:07:35.647	$GPGGA,010735,2434.2454,N,08042.1706,W,1,9,1.5,21,M,,M,,*56
06/08/2014	01:07:36.563	$GPGGA,010736,2434.2455,N,08042.1707,W,1,9,1.5,21,M,,M,,*55
06/08/2014	01:07:37.663	$GPGGA,010737,2434.2456,N,08042.1709,W,1,9,1.5,21,M,,M,,*59
06/08/2014	01:07:37.633	$GPGGA,010738,2434.2457,N,08042.1708,W,1,9,1.5,21,M,,M,,*56
06/08/2014	01:07:38.640	$GPGGA,010739,2434.2457,N,08042.1709,W,1,9,1.5,21,M,,M,,*56
06/08/2014	01:07:39.627	$GPGGA,010740,2434.2457,N,08042.1710,W,1,9,1.5,21,M,,M,,*50
06/08/2014	01:07:40.679	$GPGGA,010741,2434.2457,N,08042.1712,W,1,9,1.5,21,M,,M,,*53
06/08/2014	01:07:41.653	$GPGGA,010742,2434.2457,N,08042.1712,W,1,9,1.5,21,M,,M,,*50
06/08/2014	01:07:42.681	$GPGGA,010743,2434.2459,N,08042.1713,W,1,9,1.5,21,M,,M,,*5E
06/08/2014	01:07:43.698	$GPGGA,010744,2434.2460,N,08042.1713,W,1,9,1.5,21,M,,M,,*53
06/08/2014	01:07:44.726	$GPGGA,010745,2434.2459,N,08042.1714,W,1,9,1.5,21,M,,M,,*5F
06/08/2014	01:07:45.724	$GPGGA,010746,2434.2460,N,08042.1714,W,1,9,1.5,21,M,,M,,*56
06/08/2014	01:07:46.752	$GPGGA,010747,2434.2460,N,08042.1716,W,1,9,1.5,21,M,,M,,*55
06/08/2014	01:07:47.770	$GPGGA,010748,2434.2462,N,08042.1716,W,1,9,1.5,21,M,,M,,*58
06/08/2014	01:07:48.787	$GPGGA,010749,2434.2461,N,08042.1717,W,1,9,1.5,21,M,,M,,*5B
06/08/2014	01:07:49.785	$GPGGA,010750,2434.2462,N,08042.1719,W,1,9,1.5,21,M,,M,,*5E
06/08/2014	01:07:50.823	$GPGGA,010751,2434.2463,N,08042.1720,W,1,9,1.5,21,M,,M,,*54
06/08/2014	01:07:51.831	$GPGGA,010752,2434.2464,N,08042.1720,W,1,9,1.5,21,M,,M,,*50
06/08/2014	01:07:52.860	$GPGGA,010753,2434.2464,N,08042.1721,W,1,9,1.5,21,M,,M,,*50
06/08/2014	01:07:53.845	$GPGGA,010754,2434.2464,N,08042.1721,W,1,9,1.5,21,M,,M,,*57
06/08/2014	01:07:54.883	$GPGGA,010755,2434.2464,N,08042.1723,W,1,9,1.5,21,M,,M,,*54
06/08/2014	01:07:55.880	$GPGGA,010756,2434.2466,N,08042.1723,W,1,9,1.5,21,M,,M,,*55
06/08/2014	01:07:56.929	$GPGGA,010757,2434.2465,N,08042.1724,W,1,9,1.5,21,M,,M,,*50
06/08/2014	01:07:57.906	$GPGGA,010758,2434.2466,N,08042.1725,W,1,9,1.5,21,M,,M,,*5D
06/08/2014	01:07:58.924	$GPGGA,010759,2434.2467,N,08042.1727,W,1,9,1.5,21,M,,M,,*5F
06/08/2014	01:07:59.962	$GPGGA,010800,2434.2466,N,08042.1727,W,1,9,1.5,21,M,,M,,*5D
06/08/2014	01:08:00.990	$GPGGA,010801,2434.2467,N,08042.1728,W,1,9,1.5,21,M,,M,,*52
06/08/2014	01:08:01.967	$GPGGA,010802,2434.2467,N,08042.1730,W,1,9,1.5,21,M,,M,,*58
06/08/2014	01:08:02.995	$GPGGA,010803,2434.2467,N,08042.1731,W,1,9,1.5,21,M,,M,,*58
06/08/2014	01:08:04.013	$GPGGA,010804,2434.2467,N,08042.1732,W,1,9,1.5,21,M,,M,,*5C
06/08/2014	01:08:05.051	$GPGGA,010805,2434.2467,N,08042.1734,W,1,9,1.5,21,M,,M,,*5B
06/08/2014	01:08:06.053	$GPGGA,010806,2434.2468,N,08042.1734,W,1,9,1.5,21,M,,M,,*57
06/08/2014	01:08:07.076	$GPGGA,010807,2434.2468,N,08042.1734,W,1,9,1.5,22,M,,M,,*55
06/08/2014	01:08:08.101	$GPGGA,010808,2434.2470,N,08042.1735,W,1,9,1.9,22,M,,M,,*5E
06/08/2014	01:08:09.074	$GPGGA,010809,2434.2468,N,08042.1738,W,1,9,1.5,22,M,,M,,*57
06/08/2014	01:08:10.211	$GPGGA,010810,2434.2468,N,08042.1739,W,1,9,1.5,22,M,,M,,*5E
06/08/2014	01:08:11.123	$GPGGA,010811,2434.2468,N,08042.1741,W,1,9,1.5,22,M,,M,,*50
06/08/2014	01:08:12.149	$GPGGA,010812,2434.2467,N,08042.1742,W,1,9,1.5,22,M,,M,,*5F
06/08/2014	01:08:13.169	$GPGGA,010813,2434.2467,N,08042.1745,W,1,9,1.5,22,M,,M,,*59
06/08/2014	01:08:14.251	$GPGGA,010814,2434.2467,N,08042.1746,W,1,9,1.5,22,M,,M,,*5D
06/08/2014	01:08:15.177	$GPGGA,010815,2434.2467,N,08042.1748,W,1,9,1.5,22,M,,M,,*52
06/08/2014	01:08:16.195	$GPGGA,010816,2434.2467,N,08042.1749,W,1,9,1.5,22,M,,M,,*50
06/08/2014	01:08:17.213	$GPGGA,010817,2434.2468,N,08042.1750,W,1,9,1.5,22,M,,M,,*56
06/08/2014	01:08:18.322	$GPGGA,010818,2434.2467,N,08042.1750,W,1,9,1.5,22,M,,M,,*56
06/08/2014	01:08:19.238	$GPGGA,010819,2434.2468,N,08042.1749,W,1,9,1.5,22,M,,M,,*50
06/08/2014	01:08:20.378	$GPGGA,010820,2434.2470,N,08042.1752,W,1,9,1.9,22,M,,M,,*55
06/08/2014	01:08:21.365	$GPGGA,010821,2434.2471,N,08042.1750,W,1,9,1.5,22,M,,M,,*5B
06/08/2014	01:08:22.373	$GPGGA,010822,2434.2471,N,08042.1750,W,1,9,1.5,22,M,,M,,*58
06/08/2014	01:08:23.433	$GPGGA,010823,2434.2471,N,08042.1752,W,1,9,1.5,22,M,,M,,*5B
06/08/2014	01:08:24.449	$GPGGA,010824,2434.2471,N,08042.1751,W,1,9,1.5,22,M,,M,,*5F
06/08/2014	01:08:25.462	$GPGGA,010825,2434.2471,N,08042.1752,W,1,9,1.5,22,M,,M,,*5D
06/08/2014	01:08:26.455	$GPGGA,010826,2434.2471,N,08042.1752,W,1,9,1.5,22,M,,M,,*5E
06/08/2014	01:08:27.482	$GPGGA,010827,2434.2473,N,08042.1753,W,1,9,1.5,22,M,,M,,*5C
06/08/2014	01:08:28.491	$GPGGA,010828,2434.2472,N,08042.1753,W,1,9,1.5,22,M,,M,,*52
06/08/2014	01:08:29.517	$GPGGA,010829,2434.2473,N,08042.1754,W,1,9,1.5,22,M,,M,,*55
06/08/2014	01:08:30.514	$GPGGA,010830,2434.2472,N,08042.1756,W,1,9,1.5,22,M,,M,,*5E
06/08/2014	01:08:31.552	$GPGGA,010831,2434.2474,N,08042.1756,W,1,9,1.5,22,M,,M,,*59
06/08/2014	01:08:32.560	$GPGGA,010832,2434.2473,N,08042.1756,W,1,9,1.5,22,M,,M,,*5D
06/08/2014	01:08:33.578	$GPGGA,010833,2434.2474,N,08042.1757,W,1,9,1.5,22,M,,M,,*5A
06/08/2014	01:08:34.565	$GPGGA,010834,2434.2475,N,08042.1759,W,1,9,1.5,22,M,,M,,*52
06/08/2014	01:08:35.603	$GPGGA,010835,2434.2475,N,08042.1758,W,1,9,1.5,22,M,,M,,*52
06/08/2014	01:08:36.621	$GPGGA,010836,2434.2475,N,08042.1759,W,1,9,1.5,22,M,,M,,*50
06/08/2014	01:08:37.639	$GPGGA,010837,2434.2475,N,08042.1760,W,1,9,1.5,22,M,,M,,*5B
06/08/2014	01:08:38.626	$GPGGA,010838,2434.2475,N,08042.1761,W,1,9,1.5,22,M,,M,,*55
06/08/2014	01:08:38.608	$GPGGA,010839,2434.2475,N,08042.1763,W,1,9,1.5,22,M,,M,,*56
06/08/2014	01:08:39.606	$GPGGA,010840,2434.2475,N,08042.1762,W,1,9,1.5,22,M,,M,,*59
06/08/2014	01:08:40.624	$GPGGA,010841,2434.2477,N,08042.1763,W,1,9,1.5,22,M,,M,,*5B
06/08/2014	01:08:41.641	$GPGGA,010842,2434.2476,N,08042.1763,W,1,9,1.5,22,M,,M,,*59
06/08/2014	01:08:42.669	$GPGGA,010843,2434.2477,N,08042.1764,W,1,9,1.5,22,M,,M,,*5E
06/08/2014	01:08:43.677	$GPGGA,010844,2434.2476,N,08042.1766,W,1,9,1.5,22,M,,M,,*5A
06/08/2014	01:08:44.715	$GPGGA,010845,2434.2478,N,08042.1767,W,1,9,1.5,22,M,,M,,*54
06/08/2014	01:08:45.692	$GPGGA,010846,2434.2477,N,08042.1766,W,1,9,1.5,22,M,,M,,*59
06/08/2014	01:08:46.709	$GPGGA,010847,2434.2478,N,08042.1767,W,1,9,1.5,22,M,,M,,*56
06/08/2014	01:08:47.737	$GPGGA,010848,2434.2480,N,08042.1768,W,1,9,1.5,22,M,,M,,*51
06/08/2014	01:08:48.738	$GPGGA,010849,2434.2479,N,08042.1770,W,1,9,1.5,22,M,,M,,*5F
06/08/2014	01:08:49.762	$GPGGA,010850,2434.2480,N,08042.1769,W,1,9,1.5,22,M,,M,,*59
06/08/2014	01:08:50.769	$GPGGA,010851,2434.2481,N,08042.1770,W,1,9,1.5,22,M,,M,,*51
06/08/2014	01:08:51.808	$GPGGA,010852,2434.2482,N,08042.1770,W,1,9,1.5,22,M,,M,,*51
06/08/2014	01:08:52.826	$GPGGA,010853,2434.2480,N,08042.1771,W,1,9,1.5,22,M,,M,,*53
06/08/2014	01:08:53.817	$GPGGA,010854,2434.2482,N,08042.1771,W,1,9,1.5,22,M,,M,,*56
06/08/2014	01:08:54.995	$GPGGA,010855,2434.2482,N,08042.1771,W,1,9,1.5,22,M,,M,,*57
06/08/2014	01:08:55.869	$GPGGA,010856,2434.2482,N,08042.1772,W,1,9,1.5,22,M,,M,,*57
06/08/2014	01:08:56.857	$GPGGA,010857,2434.2482,N,08042.1772,W,1,9,1.5,22,M,,M,,*56
06/08/2014	01:08:57.893	$GPGGA,010858,2434.2484,N,08042.1774,W,1,9,1.5,22,M,,M,,*59
06/08/2014	01:08:58.912	$GPGGA,010859,2434.2485,N,08042.1773,W,1,9,1.5,21,M,,M,,*5D
06/08/2014	01:09:00.114	$GPGGA,010900,2434.2484,N,08042.1774,W,1,9,1.5,21,M,,M,,*56
06/08/2014	01:09:00.930	$GPGGA,010901,2434.2486,N,08042.1774,W,1,9,1.5,21,M,,M,,*55
06/08/2014	01:09:01.946	$GPGGA,010902,2434.2486,N,08042.1774,W,1,9,1.5,21,M,,M,,*56
06/08/2014	01:09:03.106	$GPGGA,010903,2434.2486,N,08042.1775,W,1,9,1.5,21,M,,M,,*56
06/08/2014	01:09:03.980	$GPGGA,010904,2434.2486,N,08042.1774,W,1,9,1.5,21,M,,M,,*50
06/08/2014	01:09:05.139	$GPGGA,010905,2434.2488,N,08042.1775,W,1,9,1.5,21,M,,M,,*5E
06/08/2014	01:09:06.016	$GPGGA,010906,2434.2489,N,08042.1775,W,1,9,1.5,21,M,,M,,*5C
06/08/2014	01:09:07.206	$GPGGA,010907,2434.2488,N,08042.1775,W,1,9,1.5,21,M,,M,,*5C
06/08/2014	01:09:08.058	$GPGGA,010908,2434.2489,N,08042.1777,W,1,9,1.5,21,M,,M,,*50
06/08/2014	01:09:09.150	$GPGGA,010909,2434.2489,N,08042.1776,W,1,9,1.5,21,M,,M,,*50
06/08/2014	01:09:10.239	$GPGGA,010910,2434.2491,N,08042.1777,W,1,9,1.5,21,M,,M,,*50
06/08/2014	01:09:11.207	$GPGGA,010911,2434.2489,N,08042.1777,W,1,9,1.9,21,M,,M,,*54
06/08/2014	01:09:12.151	$GPGGA,010912,2434.2493,N,08042.1778,W,1,9,1.9,21,M,,M,,*53
06/08/2014	01:09:13.211	$GPGGA,010913,2434.2496,N,08042.1778,W,1,9,1.5,21,M,,M,,*5B
06/08/2014	01:09:14.229	$GPGGA,010914,2434.2495,N,08042.1778,W,1,9,1.5,21,M,,M,,*5F
06/08/2014	01:09:15.298	$GPGGA,010915,2434.2496,N,08042.1778,W,1,9,1.5,21,M,,M,,*5D
06/08/2014	01:09:16.346	$GPGGA,010916,2434.2497,N,08042.1779,W,1,9,1.5,21,M,,M,,*5E
06/08/2014	01:09:17.344	$GPGGA,010917,2434.2499,N,08042.1781,W,1,9,1.5,21,M,,M,,*56
06/08/2014	01:09:18.362	$GPGGA,010918,2434.2498,N,08042.1780,W,1,9,1.5,21,M,,M,,*59
06/08/2014	01:09:19.368	$GPGGA,010919,2434.2500,N,08042.1781,W,1,9,1.5,21,M,,M,,*59
06/08/2014	01:09:20.407	$GPGGA,010920,2434.2500,N,08042.1782,W,1,9,1.5,21,M,,M,,*50
06/08/2014	01:09:21.334	$GPGGA,010921,2434.2500,N,08042.1782,W,1,9,1.5,21,M,,M,,*51
06/08/2014	01:09:22.422	$GPGGA,010922,2434.2500,N,08042.1783,W,1,9,1.5,21,M,,M,,*53
06/08/2014	01:09:23.419	$GPGGA,010923,2434.2500,N,08042.1785,W,1,9,1.5,21,M,,M,,*54
06/08/2014	01:09:24.396	$GPGGA,010924,2434.2500,N,08042.1785,W,1,9,1.5,21,M,,M,,*53
06/08/2014	01:09:25.467	$GPGGA,010925,2434.2500,N,08042.1785,W,1,9,1.5,21,M,,M,,*52
06/08/2014	01:09:26.493	$GPGGA,010926,2434.2502,N,08042.1786,W,1,9,1.5,21,M,,M,,*50
06/08/2014	01:09:27.480	$GPGGA,010927,2434.2501,N,08042.1788,W,1,9,1.5,21,M,,M,,*5C
06/08/2014	01:09:28.528	$GPGGA,010928,2434.2502,N,08042.1787,W,1,9,1.5,21,M,,M,,*5F
06/08/2014	01:09:29.495	$GPGGA,010929,2434.2501,N,08042.1788,W,1,9,1.5,21,M,,M,,*52
06/08/2014	01:09:30.545	$GPGGA,010930,2434.2503,N,08042.1789,W,1,9,1.5,21,M,,M,,*59
06/08/2014	01:09:31.521	$GPGGA,010931,2434.2501,N,08042.1790,W,1,9,1.5,21,M,,M,,*52
06/08/2014	01:09:32.600	$GPGGA,010932,2434.2503,N,08042.1792,W,1,9,1.5,21,M,,M,,*51
06/08/2014	01:09:33.577	$GPGGA,010933,2434.2502,N,08042.1792,W,1,9,1.5,20,M,,M,,*50
06/08/2014	01:09:34.544	$GPGGA,010934,2434.2504,N,08042.1793,W,1,9,1.5,20,M,,M,,*50
06/08/2014	01:09:35.649	$GPGGA,010935,2434.2504,N,08042.1795,W,1,9,1.5,20,M,,M,,*57
06/08/2014	01:09:36.640	$GPGGA,010936,2434.2504,N,08042.1794,W,1,9,1.5,20,M,,M,,*55
06/08/2014	01:09:37.589	$GPGGA,010937,2434.2504,N,08042.1796,W,1,9,1.5,20,M,,M,,*56
06/08/2014	01:09:38.607	$GPGGA,010938,2434.2504,N,08042.1796,W,1,9,1.5,20,M,,M,,*59
06/08/2014	01:09:38.617	$GPGGA,010939,2434.2504,N,08042.1796,W,1,9,1.5,20,M,,M,,*58
06/08/2014	01:09:39.645	$GPGGA,010940,2434.2506,N,08042.1797,W,1,9,1.5,20,M,,M,,*55
06/08/2014	01:09:40.633	$GPGGA,010941,2434.2505,N,08042.1799,W,1,9,1.5,20,M,,M,,*59
06/08/2014	01:09:41.610	$GPGGA,010942,2434.2506,N,08042.1798,W,1,9,1.5,20,M,,M,,*58
06/08/2014	01:09:42.648	$GPGGA,010943,2434.2507,N,08042.1799,W,1,9,1.5,20,M,,M,,*59
06/08/2014	01:09:43.717	$GPGGA,010944,2434.2507,N,08042.1800,W,1,9,1.5,20,M,,M,,*51
06/08/2014	01:09:44.643	$GPGGA,010945,2434.2507,N,08042.1800,W,1,9,1.5,20,M,,M,,*50
06/08/2014	01:09:45.722	$GPGGA,010946,2434.2507,N,08042.1801,W,1,9,1.5,20,M,,M,,*52
06/08/2014	01:09:46.739	$GPGGA,010947,2434.2509,N,08042.1803,W,1,9,1.5,20,M,,M,,*5F
06/08/2014	01:09:47.767	$GPGGA,010948,2434.2508,N,08042.1803,W,1,9,1.5,20,M,,M,,*51
06/08/2014	01:09:48.745	$GPGGA,010949,2434.2507,N,08042.1806,W,1,9,1.5,20,M,,M,,*5A
06/08/2014	01:09:49.823	$GPGGA,010950,2434.2507,N,08042.1807,W,1,9,1.5,20,M,,M,,*53
06/08/2014	01:09:50.841	$GPGGA,010951,2434.2509,N,08042.1807,W,1,9,1.9,20,M,,M,,*50
06/08/2014	01:09:51.881	$GPGGA,010952,2434.2508,N,08042.1808,W,1,9,1.5,20,M,,M,,*51
06/08/2014	01:09:52.846	$GPGGA,010953,2434.2509,N,08042.1810,W,1,9,1.5,20,M,,M,,*58
06/08/2014	01:09:53.895	$GPGGA,010954,2434.2508,N,08042.1811,W,1,9,1.5,20,M,,M,,*5F
06/08/2014	01:09:54.872	$GPGGA,010955,2434.2510,N,08042.1810,W,1,9,1.9,20,M,,M,,*5A
06/08/2014	01:09:55.929	$GPGGA,010956,2434.2508,N,08042.1811,W,1,9,1.5,20,M,,M,,*5D
06/08/2014	01:09:56.970	$GPGGA,010957,2434.2510,N,08042.1813,W,1,9,1.9,20,M,,M,,*5B
06/08/2014	01:09:57.955	$GPGGA,010958,2434.2511,N,08042.1812,W,1,9,1.5,20,M,,M,,*58
06/08/2014	01:09:58.942	$GPGGA,010959,2434.2509,N,08042.1813,W,1,9,1.9,20,M,,M,,*5D
06/08/2014	01:10:00.011	$GPGGA,011000,2434.2511,N,08042.1812,W,1,9,1.5,20,M,,M,,*5D
06/08/2014	01:10:01.032	$GPGGA,011001,2434.2513,N,08042.1814,W,1,9,1.5,20,M,,M,,*58
06/08/2014	01:10:02.026	$GPGGA,011002,2434.2512,N,08042.1815,W,1,9,1.5,20,M,,M,,*5B
06/08/2014	01:10:03.033	$GPGGA,011003,2434.2511,N,08042.1815,W,1,9,1.5,20,M,,M,,*59
06/08/2014	01:10:04.072	$GPGGA,011004,2434.2511,N,08042.1817,W,1,9,1.5,20,M,,M,,*5C
06/08/2014	01:10:05.079	$GPGGA,011005,2434.2511,N,08042.1819,W,1,9,1.5,20,M,,M,,*53
06/08/2014	01:10:06.097	$GPGGA,011006,2434.2511,N,08042.1819,W,1,9,1.5,20,M,,M,,*50
06/08/2014	01:10:07.135	$GPGGA,011007,2434.2509,N,08042.1821,W,1,9,1.5,20,M,,M,,*53
06/08/2014	01:10:08.157	$GPGGA,011008,2434.2510,N,08042.1822,W,1,9,1.5,20,M,,M,,*57
06/08/2014	01:10:09.161	$GPGGA,011009,2434.2511,N,08042.1824,W,1,9,1.5,20,M,,M,,*51
06/08/2014	01:10:10.138	$GPGGA,011010,2434.2511,N,08042.1823,W,1,9,1.9,20,M,,M,,*52
06/08/2014	01:10:11.176	$GPGGA,011011,2434.2511,N,08042.1824,W,1,8,1.5,20,M,,M,,*59
06/08/2014	01:10:12.204	$GPGGA,011012,2434.2511,N,08042.1824,W,1,8,1.9,20,M,,M,,*56
06/08/2014	01:10:13.201	$GPGGA,011013,2434.2513,N,08042.1824,W,1,8,1.5,20,M,,M,,*59
06/08/2014	01:10:14.218	$GPGGA,011014,2434.2512,N,08042.1824,W,1,8,1.5,20,M,,M,,*5F
06/08/2014	01:10:15.247	$GPGGA,011015,2434.2513,N,08042.1825,W,1,9,1.9,20,M,,M,,*53
06/08/2014	01:10:16.243	$GPGGA,011016,2434.2513,N,08042.1825,W,1,9,1.9,20,M,,M,,*50
06/08/2014	01:10:17.261	$GPGGA,011017,2434.2514,N,08042.1826,W,1,8,1.9,20,M,,M,,*54
06/08/2014	01:10:18.289	$GPGGA,011018,2434.2515,N,08042.1828,W,1,8,1.9,20,M,,M,,*54
06/08/2014	01:10:19.348	$GPGGA,011019,2434.2514,N,08042.1827,W,1,8,1.9,20,M,,M,,*5B
06/08/2014	01:10:20.325	$GPGGA,011020,2434.2515,N,08042.1828,W,1,8,1.9,20,M,,M,,*5F
06/08/2014	01:10:21.332	$GPGGA,011021,2434.2514,N,08042.1832,W,1,8,1.9,20,M,,M,,*54
06/08/2014	01:10:22.340	$GPGGA,011022,2434.2514,N,08042.1832,W,1,8,1.5,20,M,,M,,*5B
06/08/2014	01:10:23.399	$GPGGA,011023,2434.2515,N,08042.1832,W,1,8,1.9,20,M,,M,,*57
06/08/2014	01:10:24.376	$GPGGA,011024,2434.2515,N,08042.1832,W,1,8,1.9,20,M,,M,,*50
06/08/2014	01:10:25.414	$GPGGA,011025,2434.2515,N,08042.1835,W,1,9,1.9,20,M,,M,,*57
06/08/2014	01:10:26.421	$GPGGA,011026,2434.2515,N,08042.1835,W,1,9,1.9,20,M,,M,,*54
06/08/2014	01:10:27.419	$GPGGA,011027,2434.2517,N,08042.1836,W,1,8,1.9,20,M,,M,,*55
06/08/2014	01:10:28.457	$GPGGA,011028,2434.2516,N,08042.1837,W,1,8,1.9,20,M,,M,,*5A
06/08/2014	01:10:29.465	$GPGGA,011029,2434.2516,N,08042.1837,W,1,8,1.9,20,M,,M,,*5B
06/08/2014	01:10:30.472	$GPGGA,011030,2434.2518,N,08042.1839,W,1,8,1.9,20,M,,M,,*53
06/08/2014	01:10:31.500	$GPGGA,011031,2434.2518,N,08042.1839,W,1,8,1.9,20,M,,M,,*52
06/08/2014	01:10:32.497	$GPGGA,011032,2434.2518,N,08042.1839,W,1,8,1.9,20,M,,M,,*51
06/08/2014	01:10:33.545	$GPGGA,011033,2434.2520,N,08042.1840,W,1,8,1.5,20,M,,M,,*59
06/08/2014	01:10:34.532	$GPGGA,011034,2434.2521,N,08042.1840,W,1,8,1.5,20,M,,M,,*5F
06/08/2014	01:10:35.550	$GPGGA,011035,2434.2520,N,08042.1840,W,1,9,1.5,20,M,,M,,*5E
06/08/2014	01:10:36.578	$GPGGA,011036,2434.2521,N,08042.1842,W,1,9,1.5,20,M,,M,,*5E
06/08/2014	01:10:37.698	$GPGGA,011037,2434.2522,N,08042.1844,W,1,8,1.9,20,M,,M,,*57
06/08/2014	01:10:38.593	$GPGGA,011038,2434.2522,N,08042.1844,W,1,8,1.5,20,M,,M,,*54
06/08/2014	01:10:38.667	$GPGGA,011039,2434.2520,N,08042.1847,W,1,8,1.9,20,M,,M,,*58
06/08/2014	01:10:39.583	$GPGGA,011040,2434.2520,N,08042.1847,W,1,8,1.9,20,M,,M,,*56
06/08/2014	01:10:40.581	$GPGGA,011041,2434.2520,N,08042.1851,W,1,9,1.5,20,M,,M,,*5D
06/08/2014	01:10:41.680	$GPGGA,011042,2434.2519,N,08042.1853,W,1,9,1.5,20,M,,M,,*56
06/08/2014	01:10:42.718	$GPGGA,011043,2434.2522,N,08042.1854,W,1,9,1.5,20,M,,M,,*58
06/08/2014	01:10:43.746	$GPGGA,011044,2434.2522,N,08042.1857,W,1,9,1.5,20,M,,M,,*5C
06/08/2014	01:10:44.723	$GPGGA,011045,2434.2524,N,08042.1857,W,1,9,1.5,20,M,,M,,*5B
06/08/2014	01:10:45.731	$GPGGA,011046,2434.2523,N,08042.1858,W,1,9,1.5,20,M,,M,,*50
06/08/2014	01:10:46.789	$GPGGA,011047,2434.2525,N,08042.1861,W,1,9,1.5,20,M,,M,,*5D
06/08/2014	01:10:47.787	$GPGGA,011048,2434.2524,N,08042.1861,W,1,9,1.5,20,M,,M,,*53
06/08/2014	01:10:48.793	$GPGGA,011049,2434.2523,N,08042.1864,W,1,9,1.5,20,M,,M,,*50
06/08/2014	01:10:49.811	$GPGGA,011050,2434.2525,N,08042.1864,W,1,9,1.5,20,M,,M,,*5E
06/08/2014	01:10:50.839	$GPGGA,011051,2434.2524,N,08042.1865,W,1,9,1.5,21,M,,M,,*5E
06/08/2014	01:10:51.857	$GPGGA,011052,2434.2523,N,08042.1866,W,1,9,1.5,21,M,,M,,*59
06/08/2014	01:10:52.885	$GPGGA,011053,2434.2525,N,08042.1868,W,1,9,1.5,21,M,,M,,*50
06/08/2014	01:10:53.872	$GPGGA,011054,2434.2524,N,08042.1869,W,1,9,1.5,21,M,,M,,*57
06/08/2014	01:10:54.910	$GPGGA,011055,2434.2525,N,08042.1871,W,1,9,1.5,21,M,,M,,*5E
06/08/2014	01:10:55.908	$GPGGA,011056,2434.2524,N,08042.1871,W,1,9,1.5,21,M,,M,,*5C
06/08/2014	01:10:56.926	$GPGGA,011057,2434.2525,N,08042.1873,W,1,9,1.5,21,M,,M,,*5E
06/08/2014	01:10:57.933	$GPGGA,011058,2434.2525,N,08042.1875,W,1,9,1.5,21,M,,M,,*57
06/08/2014	01:10:58.961	$GPGGA,011059,2434.2525,N,08042.1875,W,1,9,1.5,21,M,,M,,*56
06/08/2014	01:10:59.989	$GPGGA,011100,2434.2523,N,08042.1876,W,1,9,1.5,21,M,,M,,*5E
06/08/2014	01:11:00.997	$GPGGA,011101,2434.2524,N,08042.1878,W,1,8,1.9,21,M,,M,,*5B
06/08/2014	01:11:01.994	$GPGGA,011102,2434.2525,N,08042.1879,W,1,8,1.9,21,M,,M,,*58
06/08/2014	01:11:03.032	$GPGGA,011103,2434.2524,N,08042.1880,W,1,9,1.5,21,M,,M,,*53
06/08/2014	01:11:04.051	$GPGGA,011104,2434.2525,N,08042.1882,W,1,9,1.5,22,M,,M,,*54
06/08/2014	01:11:05.058	$GPGGA,011105,2434.2524,N,08042.1883,W,1,9,1.5,22,M,,M,,*55
06/08/2014	01:11:06.054	$GPGGA,011106,2434.2523,N,08042.1884,W,1,9,1.5,22,M,,M,,*56
06/08/2014	01:11:07.092	$GPGGA,011107,2434.2522,N,08042.1886,W,1,9,1.5,22,M,,M,,*54
06/08/2014	01:11:08.110	$GPGGA,011108,2434.2522,N,08042.1886,W,1,9,1.9,22,M,,M,,*57
06/08/2014	01:11:09.093	$GPGGA,011109,2434.2522,N,08042.1887,W,1,9,1.5,22,M,,M,,*5B
06/08/2014	01:11:10.136	$GPGGA,011110,2434.2522,N,08042.1889,W,1,9,1.5,22,M,,M,,*5D
06/08/2014	01:11:11.164	$GPGGA,011111,2434.2520,N,08042.1890,W,1,9,1.5,22,M,,M,,*56
06/08/2014	01:11:12.171	$GPGGA,011112,2434.2521,N,08042.1891,W,1,9,1.5,22,M,,M,,*55
06/08/2014	01:11:13.163	$GPGGA,011113,2434.2519,N,08042.1893,W,1,9,1.5,22,M,,M,,*5D
06/08/2014	01:11:14.197	$GPGGA,011114,2434.2520,N,08042.1894,W,1,9,1.5,22,M,,M,,*57
06/08/2014	01:11:15.194	$GPGGA,011115,2434.2518,N,08042.1895,W,1,9,1.5,22,M,,M,,*5C
06/08/2014	01:11:16.344	$GPGGA,011116,2434.2518,N,08042.1897,W,1,9,1.5,21,M,,M,,*5E
06/08/2014	01:11:17.342	$GPGGA,011117,2434.2518,N,08042.1897,W,1,9,1.5,21,M,,M,,*5F
06/08/2014	01:11:18.237	$GPGGA,011118,2434.2518,N,08042.1898,W,1,9,1.5,21,M,,M,,*5F
06/08/2014	01:11:19.245	$GPGGA,011119,2434.2520,N,08042.1900,W,1,9,1.5,21,M,,M,,*55
06/08/2014	01:11:20.283	$GPGGA,011120,2434.2519,N,08042.1901,W,1,9,1.5,21,M,,M,,*54
06/08/2014	01:11:21.301	$GPGGA,011121,2434.2520,N,08042.1902,W,1,9,1.5,21,M,,M,,*5C
06/08/2014	01:11:22.300	$GPGGA,011122,2434.2521,N,08042.1904,W,1,9,1.5,21,M,,M,,*58
06/08/2014	01:11:23.428	$GPGGA,011123,2434.2520,N,08042.1904,W,1,9,1.5,21,M,,M,,*58
06/08/2014	01:11:24.363	$GPGGA,011124,2434.2521,N,08042.1907,W,1,9,1.5,21,M,,M,,*5D
06/08/2014	01:11:25.463	$GPGGA,011125,2434.2520,N,08042.1906,W,1,9,1.5,21,M,,M,,*5C
06/08/2014	01:11:26.379	$GPGGA,011126,2434.2522,N,08042.1908,W,1,9,1.5,21,M,,M,,*53
06/08/2014	01:11:27.376	$GPGGA,011127,2434.2522,N,08042.1909,W,1,9,1.5,21,M,,M,,*53
06/08/2014	01:11:28.506	$GPGGA,011128,2434.2522,N,08042.1911,W,1,9,1.5,21,M,,M,,*55
06/08/2014	01:11:29.564	$GPGGA,011129,2434.2522,N,08042.1911,W,1,9,1.5,21,M,,M,,*54
06/08/2014	01:11:30.531	$GPGGA,011130,2434.2522,N,08042.1913,W,1,9,1.5,21,M,,M,,*5E
06/08/2014	01:11:31.550	$GPGGA,011131,2434.2522,N,08042.1915,W,1,9,1.5,21,M,,M,,*59
06/08/2014	01:11:32.485	$GPGGA,011132,2434.2522,N,08042.1915,W,1,9,1.5,21,M,,M,,*5A
06/08/2014	01:11:33.575	$GPGGA,011133,2434.2524,N,08042.1916,W,1,9,1.5,21,M,,M,,*5E
06/08/2014	01:11:34.592	$GPGGA,011134,2434.2522,N,08042.1918,W,1,9,1.5,21,M,,M,,*51
06/08/2014	01:11:35.610	$GPGGA,011135,2434.2522,N,08042.1919,W,1,8,1.9,21,M,,M,,*5C
06/08/2014	01:11:36.638	$GPGGA,011136,2434.2524,N,08042.1920,W,1,8,1.5,21,M,,M,,*5F
06/08/2014	01:11:37.636	$GPGGA,011137,2434.2523,N,08042.1922,W,1,9,1.5,21,M,,M,,*5A
06/08/2014	01:11:38.653	$GPGGA,011138,2434.2524,N,08042.1923,W,1,9,1.9,21,M,,M,,*5F
06/08/2014	01:11:38.604	$GPGGA,011139,2434.2522,N,08042.1926,W,1,9,1.5,21,M,,M,,*51
06/08/2014	01:11:39.622	$GPGGA,011140,2434.2522,N,08042.1926,W,1,9,1.9,21,M,,M,,*53
06/08/2014	01:11:40.620	$GPGGA,011141,2434.2520,N,08042.1929,W,1,8,1.9,21,M,,M,,*5E
06/08/2014	01:11:41.627	$GPGGA,011142,2434.2519,N,08042.1929,W,1,8,1.5,21,M,,M,,*5B
06/08/2014	01:11:42.655	$GPGGA,011143,2434.2518,N,08042.1930,W,1,8,1.9,21,M,,M,,*5F
06/08/2014	01:11:43.643	$GPGGA,011144,2434.2521,N,08042.1931,W,1,8,1.9,21,M,,M,,*53
06/08/2014	01:11:44.674	$GPGGA,011145,2434.2520,N,08042.1933,W,1,9,1.5,21,M,,M,,*5C
06/08/2014	01:11:45.639	$GPGGA,011146,2434.2519,N,08042.1936,W,1,9,1.9,21,M,,M,,*5C
06/08/2014	01:11:46.667	$GPGGA,011147,2434.2520,N,08042.1936,W,1,8,1.9,20,M,,M,,*57
06/08/2014	01:11:47.665	$GPGGA,011148,2434.2518,N,08042.1938,W,1,8,1.5,20,M,,M,,*51
06/08/2014	01:11:48.673	$GPGGA,011149,2434.2515,N,08042.1940,W,1,9,1.5,20,M,,M,,*53
06/08/2014	01:11:49.671	$GPGGA,011150,2434.2514,N,08042.1941,W,1,9,1.5,20,M,,M,,*5B
