Software Version Number: 1	Data File Format Number: 1	Build Version Number: 1	Error Count Since VI Started: 0	Manufacturer: Raytheon	 Model Number: RayMarine 120	 S/N: 	 Cal Date: 	 Wind Direction Offset: 0.00	 Slope (M)1: 0.00	 Offset (B)1: 0.00	 Slope (M)2: 0.00	 Offset (B)2: 0.00	 Slope (M)3: 0.00	 Offset (B)3: 0.00	 Slope (M)4: 0.00	 Offset (B)4: 0.00	 Slope (M)5: 0.00	 Offset (B)5: 0.00	 Slope (M)6: 0.00	 Offset (B)6: 0.00
Computer Date	Computer Time	GGA String
06/03/2014	15:00:00.287	$GPGGA,150008,2543.8849,N,08009.7270,W,1,9,1.5,16,M,,M,,*58
06/03/2014	15:00:01.315	$GPGGA,150009,2543.8849,N,08009.7270,W,1,9,1.5,17,M,,M,,*58
06/03/2014	15:00:02.322	$GPGGA,150010,2543.8849,N,08009.7270,W,1,9,1.5,17,M,,M,,*50
06/03/2014	15:00:03.361	$GPGGA,150011,2543.8849,N,08009.7270,W,1,9,1.5,17,M,,M,,*51
06/03/2014	15:00:04.399	$GPGGA,150012,2543.8849,N,08009.7270,W,1,9,1.5,17,M,,M,,*52
06/03/2014	15:00:05.445	$GPGGA,150013,2543.8849,N,08009.7270,W,1,9,1.5,17,M,,M,,*53
06/03/2014	15:00:06.445	$GPGGA,150014,2543.8850,N,08009.7270,W,1,9,1.5,17,M,,M,,*5C
06/03/2014	15:00:07.463	$GPGGA,150015,2543.8850,N,08009.7272,W,1,9,1.5,17,M,,M,,*5F
06/03/2014	15:00:08.491	$GPGGA,150016,2543.8850,N,08009.7271,W,1,9,1.5,17,M,,M,,*5F
06/03/2014	15:00:09.529	$GPGGA,150017,2543.8850,N,08009.7272,W,1,9,1.5,17,M,,M,,*5D
06/03/2014	15:00:10.525	$GPGGA,150018,2543.8850,N,08009.7272,W,1,9,1.5,17,M,,M,,*52
06/03/2014	15:00:11.564	$GPGGA,150019,2543.8849,N,08009.7272,W,1,9,1.5,17,M,,M,,*5B
06/03/2014	15:00:12.602	$GPGGA,150020,2543.8849,N,08009.7271,W,1,9,1.5,17,M,,M,,*52
06/03/2014	15:00:13.630	$GPGGA,150021,2543.8849,N,08009.7272,W,1,9,1.5,17,M,,M,,*50
06/03/2014	15:00:14.751	$GPGGA,150022,2543.8848,N,08009.7272,W,1,9,1.5,17,M,,M,,*52
06/03/2014	15:00:15.697	$GPGGA,150023,2543.8849,N,08009.7272,W,1,9,1.5,17,M,,M,,*52
06/03/2014	15:00:16.704	$GPGGA,150024,2543.8848,N,08009.7272,W,1,9,1.5,17,M,,M,,*54
06/03/2014	15:00:17.743	$GPGGA,150025,2543.8849,N,08009.7272,W,1,9,1.5,17,M,,M,,*54
06/03/2014	15:00:18.740	$GPGGA,150026,2543.8848,N,08009.7272,W,1,9,1.5,17,M,,M,,*56
06/03/2014	15:00:19.789	$GPGGA,150027,2543.8849,N,08009.7272,W,1,9,1.5,17,M,,M,,*56
06/03/2014	15:00:20.919	$GPGGA,150028,2543.8848,N,08009.7272,W,1,9,1.5,17,M,,M,,*58
06/03/2014	15:00:21.865	$GPGGA,150029,2543.8849,N,08009.7272,W,1,9,1.5,17,M,,M,,*58
06/03/2014	15:00:22.863	$GPGGA,150030,2543.8848,N,08009.7272,W,1,9,1.5,17,M,,M,,*51
06/03/2014	15:00:22.535	$GPGGA,150031,2543.8849,N,08009.7272,W,1,9,1.5,16,M,,M,,*50
06/03/2014	15:00:24.488	$GPGGA,150033,2543.8849,N,08009.7272,W,1,9,1.5,16,M,,M,,*52
06/03/2014	15:00:25.630	$GPGGA,150034,2543.8848,N,08009.7272,W,1,9,1.5,16,M,,M,,*54
06/03/2014	15:00:26.637	$GPGGA,150035,2543.8849,N,08009.7272,W,1,9,1.5,16,M,,M,,*54
06/03/2014	15:00:27.695	$GPGGA,150036,2543.8848,N,08009.7271,W,1,9,1.5,16,M,,M,,*55
06/03/2014	15:00:28.682	$GPGGA,150037,2543.8849,N,08009.7272,W,1,9,1.5,16,M,,M,,*56
06/03/2014	15:00:29.628	$GPGGA,150038,2543.8848,N,08009.7271,W,1,9,1.5,16,M,,M,,*5B
06/03/2014	15:00:30.759	$GPGGA,150039,2543.8849,N,08009.7272,W,1,9,1.5,16,M,,M,,*58
06/03/2014	15:00:31.777	$GPGGA,150040,2543.8848,N,08009.7271,W,1,9,1.5,16,M,,M,,*54
06/03/2014	15:00:32.815	$GPGGA,150041,2543.8849,N,08009.7272,W,1,9,1.5,16,M,,M,,*57
06/03/2014	15:00:33.822	$GPGGA,150042,2543.8848,N,08009.7271,W,1,9,1.5,16,M,,M,,*56
06/03/2014	15:00:34.881	$GPGGA,150043,2543.8849,N,08009.7272,W,1,9,1.5,16,M,,M,,*55
06/03/2014	15:00:35.910	$GPGGA,150044,2543.8849,N,08009.7270,W,1,9,1.5,16,M,,M,,*50
06/03/2014	15:00:36.904	$GPGGA,150045,2543.8849,N,08009.7270,W,1,9,1.5,16,M,,M,,*51
06/03/2014	15:00:37.925	$GPGGA,150046,2543.8849,N,08009.7270,W,1,9,1.5,16,M,,M,,*52
06/03/2014	15:00:38.963	$GPGGA,150047,2543.8849,N,08009.7270,W,1,9,1.5,16,M,,M,,*53
06/03/2014	15:00:39.991	$GPGGA,150048,2543.8848,N,08009.7270,W,1,9,1.5,16,M,,M,,*5D
06/03/2014	15:00:41.060	$GPGGA,150049,2543.8849,N,08009.7270,W,1,9,1.5,16,M,,M,,*5D
06/03/2014	15:00:42.027	$GPGGA,150050,2543.8848,N,08009.7270,W,1,9,1.5,16,M,,M,,*54
06/03/2014	15:00:43.072	$GPGGA,150051,2543.8849,N,08009.7270,W,1,9,1.5,16,M,,M,,*54
06/03/2014	15:00:44.484	$GPGGA,150052,2543.8847,N,08009.7270,W,1,9,1.5,16,M,,M,,*59
06/03/2014	15:00:45.133	$GPGGA,150053,2543.8849,N,08009.7269,W,1,9,1.5,16,M,,M,,*5E
06/03/2014	15:00:46.128	$GPGGA,150054,2543.8847,N,08009.7269,W,1,9,1.5,16,M,,M,,*57
06/03/2014	15:00:47.187	$GPGGA,150055,2543.8848,N,08009.7269,W,1,9,1.5,16,M,,M,,*59
06/03/2014	15:00:48.184	$GPGGA,150056,2543.8847,N,08009.7269,W,1,9,1.5,16,M,,M,,*55
06/03/2014	15:00:49.247	$GPGGA,150057,2543.8848,N,08009.7269,W,1,9,1.5,16,M,,M,,*5B
06/03/2014	15:00:50.230	$GPGGA,150058,2543.8847,N,08009.7269,W,1,9,1.5,16,M,,M,,*5B
06/03/2014	15:00:51.302	$GPGGA,150059,2543.8848,N,08009.7269,W,1,9,1.5,16,M,,M,,*55
06/03/2014	15:00:52.307	$GPGGA,150100,2543.8847,N,08009.7269,W,1,9,1.5,16,M,,M,,*57
06/03/2014	15:00:53.335	$GPGGA,150101,2543.8848,N,08009.7269,W,1,8,1.7,16,M,,M,,*5A
06/03/2014	15:00:54.332	$GPGGA,150102,2543.8846,N,08009.7272,W,1,8,1.7,16,M,,M,,*5D
06/03/2014	15:00:55.350	$GPGGA,150103,2543.8846,N,08009.7271,W,1,9,1.5,16,M,,M,,*5C
06/03/2014	15:00:56.429	$GPGGA,150104,2543.8846,N,08009.7270,W,1,9,1.7,16,M,,M,,*58
06/03/2014	15:00:57.437	$GPGGA,150105,2543.8846,N,08009.7270,W,1,8,1.7,15,M,,M,,*5B
06/03/2014	15:00:58.434	$GPGGA,150106,2543.8846,N,08009.7270,W,1,8,1.5,15,M,,M,,*5A
06/03/2014	15:00:59.462	$GPGGA,150107,2543.8846,N,08009.7269,W,1,8,1.7,15,M,,M,,*51
06/03/2014	15:01:00.521	$GPGGA,150108,2543.8846,N,08009.7269,W,1,8,1.7,15,M,,M,,*5E
06/03/2014	15:01:01.529	$GPGGA,150109,2543.8846,N,08009.7269,W,1,8,1.7,15,M,,M,,*5F
06/03/2014	15:01:02.547	$GPGGA,150110,2543.8846,N,08009.7269,W,1,8,1.7,15,M,,M,,*57
06/03/2014	15:01:03.563	$GPGGA,150111,2543.8846,N,08009.7269,W,1,8,1.7,15,M,,M,,*56
06/03/2014	15:01:04.612	$GPGGA,150112,2543.8848,N,08009.7269,W,1,8,1.7,15,M,,M,,*5B
06/03/2014	15:01:05.640	$GPGGA,150113,2543.8847,N,08009.7268,W,1,8,1.7,15,M,,M,,*54
06/03/2014	15:01:06.648	$GPGGA,150114,2543.8848,N,08009.7269,W,1,8,1.7,15,M,,M,,*5D
06/03/2014	15:01:07.799	$GPGGA,150115,2543.8847,N,08009.7268,W,1,8,1.7,15,M,,M,,*52
06/03/2014	15:01:08.807	$GPGGA,150116,2543.8848,N,08009.7267,W,1,8,1.7,15,M,,M,,*51
06/03/2014	15:01:09.722	$GPGGA,150117,2543.8849,N,08009.7267,W,1,8,1.7,15,M,,M,,*51
06/03/2014	15:01:10.750	$GPGGA,150118,2543.8848,N,08009.7267,W,1,8,1.7,15,M,,M,,*5F
06/03/2014	15:01:11.778	$GPGGA,150119,2543.8849,N,08009.7267,W,1,8,1.7,15,M,,M,,*5F
06/03/2014	15:01:12.909	$GPGGA,150120,2543.8848,N,08009.7267,W,1,8,1.7,15,M,,M,,*54
06/03/2014	15:01:13.844	$GPGGA,150121,2543.8849,N,08009.7267,W,1,8,1.7,14,M,,M,,*55
06/03/2014	15:01:14.852	$GPGGA,150122,2543.8848,N,08009.7267,W,1,8,1.7,14,M,,M,,*57
06/03/2014	15:01:16.014	$GPGGA,150123,2543.8849,N,08009.7267,W,1,8,1.7,14,M,,M,,*57
06/03/2014	15:01:17.031	$GPGGA,150124,2543.8848,N,08009.7267,W,1,8,1.7,14,M,,M,,*51
06/03/2014	15:01:18.070	$GPGGA,150125,2543.8849,N,08009.7267,W,1,8,1.7,14,M,,M,,*51
06/03/2014	15:01:18.964	$GPGGA,150126,2543.8849,N,08009.7267,W,1,8,1.7,14,M,,M,,*52
06/03/2014	15:01:20.086	$GPGGA,150127,2543.8849,N,08009.7267,W,1,8,1.7,14,M,,M,,*53
06/03/2014	15:01:21.020	$GPGGA,150128,2543.8849,N,08009.7267,W,1,8,1.7,14,M,,M,,*5C
06/03/2014	15:01:22.150	$GPGGA,150129,2543.8849,N,08009.7267,W,1,8,1.7,14,M,,M,,*5D
06/03/2014	15:01:23.161	$GPGGA,150130,2543.8850,N,08009.7266,W,1,8,1.7,14,M,,M,,*5C
06/03/2014	15:01:22.503	$GPGGA,150131,2543.8850,N,08009.7266,W,1,8,1.7,14,M,,M,,*5D
06/03/2014	15:01:23.530	$GPGGA,150132,2543.8850,N,08009.7266,W,1,8,1.7,14,M,,M,,*5E
06/03/2014	15:01:24.550	$GPGGA,150133,2543.8852,N,08009.7266,W,1,8,1.7,14,M,,M,,*5D
06/03/2014	15:01:25.589	$GPGGA,150134,2543.8850,N,08009.7266,W,1,8,1.7,14,M,,M,,*58
06/03/2014	15:01:26.627	$GPGGA,150135,2543.8850,N,08009.7266,W,1,8,1.7,14,M,,M,,*59
06/03/2014	15:01:27.643	$GPGGA,150136,2543.8850,N,08009.7267,W,1,8,1.7,14,M,,M,,*5B
06/03/2014	15:01:28.682	$GPGGA,150137,2543.8852,N,08009.7267,W,1,8,1.7,14,M,,M,,*58
06/03/2014	15:01:29.688	$GPGGA,150138,2543.8851,N,08009.7267,W,1,8,1.7,14,M,,M,,*54
06/03/2014	15:01:30.727	$GPGGA,150139,2543.8852,N,08009.7269,W,1,8,1.7,14,M,,M,,*58
06/03/2014	15:01:31.755	$GPGGA,150140,2543.8851,N,08009.7268,W,1,8,1.7,14,M,,M,,*54
06/03/2014	15:01:32.793	$GPGGA,150141,2543.8852,N,08009.7269,W,1,8,1.7,14,M,,M,,*57
06/03/2014	15:01:33.791	$GPGGA,150142,2543.8853,N,08009.7268,W,1,8,1.7,14,M,,M,,*54
06/03/2014	15:01:34.808	$GPGGA,150143,2543.8853,N,08009.7269,W,1,8,1.7,14,M,,M,,*54
06/03/2014	15:01:35.898	$GPGGA,150144,2543.8853,N,08009.7268,W,1,8,1.7,14,M,,M,,*52
06/03/2014	15:01:36.905	$GPGGA,150145,2543.8853,N,08009.7269,W,1,8,1.7,14,M,,M,,*52
06/03/2014	15:01:37.892	$GPGGA,150146,2543.8853,N,08009.7269,W,1,8,1.7,14,M,,M,,*51
06/03/2014	15:01:38.909	$GPGGA,150147,2543.8853,N,08009.7269,W,1,8,1.7,14,M,,M,,*50
06/03/2014	15:01:39.968	$GPGGA,150148,2543.8855,N,08009.7269,W,1,8,1.7,13,M,,M,,*5E
06/03/2014	15:01:41.018	$GPGGA,150149,2543.8854,N,08009.7269,W,1,8,1.7,13,M,,M,,*5E
06/03/2014	15:01:41.994	$GPGGA,150150,2543.8855,N,08009.7269,W,1,8,1.7,13,M,,M,,*57
06/03/2014	15:01:43.053	$GPGGA,150151,2543.8854,N,08009.7269,W,1,8,1.7,13,M,,M,,*57
06/03/2014	15:01:44.060	$GPGGA,150152,2543.8856,N,08009.7269,W,1,8,1.7,13,M,,M,,*56
06/03/2014	15:01:45.109	$GPGGA,150153,2543.8855,N,08009.7269,W,1,8,1.7,13,M,,M,,*54
06/03/2014	15:01:46.106	$GPGGA,150154,2543.8856,N,08009.7269,W,1,8,1.7,13,M,,M,,*50
06/03/2014	15:01:47.165	$GPGGA,150155,2543.8857,N,08009.7269,W,1,8,1.7,13,M,,M,,*50
06/03/2014	15:01:48.162	$GPGGA,150156,2543.8857,N,08009.7269,W,1,8,1.7,13,M,,M,,*53
06/03/2014	15:01:49.293	$GPGGA,150157,2543.8857,N,08009.7269,W,1,8,1.7,13,M,,M,,*52
06/03/2014	15:01:50.219	$GPGGA,150158,2543.8857,N,08009.7269,W,1,8,1.7,13,M,,M,,*5D
06/03/2014	15:01:51.227	$GPGGA,150159,2543.8857,N,08009.7269,W,1,8,1.7,13,M,,M,,*5C
06/03/2014	15:01:52.275	$GPGGA,150200,2543.8857,N,08009.7269,W,1,8,1.7,13,M,,M,,*53
06/03/2014	15:01:53.272	$GPGGA,150201,2543.8857,N,08009.7268,W,1,8,1.7,13,M,,M,,*53
06/03/2014	15:01:54.300	$GPGGA,150202,2543.8857,N,08009.7269,W,1,8,1.7,13,M,,M,,*51
06/03/2014	15:01:55.348	$GPGGA,150203,2543.8857,N,08009.7268,W,1,8,1.7,13,M,,M,,*51
06/03/2014	15:01:56.489	$GPGGA,150204,2543.8857,N,08009.7267,W,1,8,1.7,13,M,,M,,*59
06/03/2014	15:01:57.383	$GPGGA,150205,2543.8859,N,08009.7267,W,1,8,1.7,13,M,,M,,*56
06/03/2014	15:01:58.401	$GPGGA,150206,2543.8858,N,08009.7267,W,1,8,1.7,13,M,,M,,*54
06/03/2014	15:01:59.563	$GPGGA,150207,2543.8859,N,08009.7267,W,1,8,1.7,13,M,,M,,*54
06/03/2014	15:02:00.488	$GPGGA,150208,2543.8858,N,08009.7267,W,1,8,1.7,13,M,,M,,*5A
06/03/2014	15:02:01.619	$GPGGA,150209,2543.8859,N,08009.7267,W,1,8,1.7,13,M,,M,,*5A
06/03/2014	15:02:02.524	$GPGGA,150210,2543.8858,N,08009.7267,W,1,8,1.7,13,M,,M,,*53
06/03/2014	15:02:03.655	$GPGGA,150211,2543.8859,N,08009.7267,W,1,8,1.7,13,M,,M,,*53
06/03/2014	15:02:04.703	$GPGGA,150212,2543.8858,N,08009.7269,W,1,8,1.7,13,M,,M,,*5F
06/03/2014	15:02:05.693	$GPGGA,150213,2543.8859,N,08009.7268,W,1,8,1.7,13,M,,M,,*5E
06/03/2014	15:02:06.626	$GPGGA,150214,2543.8858,N,08009.7269,W,1,8,1.7,13,M,,M,,*59
06/03/2014	15:02:07.654	$GPGGA,150215,2543.8859,N,08009.7269,W,1,8,1.7,13,M,,M,,*59
06/03/2014	15:02:08.785	$GPGGA,150216,2543.8858,N,08009.7269,W,1,8,1.7,13,M,,M,,*5B
06/03/2014	15:02:09.803	$GPGGA,150217,2543.8859,N,08009.7269,W,1,8,1.7,13,M,,M,,*5B
06/03/2014	15:02:10.821	$GPGGA,150218,2543.8858,N,08009.7269,W,1,8,1.7,13,M,,M,,*55
06/03/2014	15:02:11.880	$GPGGA,150219,2543.8859,N,08009.7269,W,1,8,1.7,13,M,,M,,*55
06/03/2014	15:02:12.897	$GPGGA,150220,2543.8860,N,08009.7269,W,1,8,1.7,13,M,,M,,*55
06/03/2014	15:02:13.925	$GPGGA,150221,2543.8858,N,08009.7269,W,1,8,1.7,13,M,,M,,*5F
06/03/2014	15:02:14.922	$GPGGA,150222,2543.8860,N,08009.7269,W,1,8,1.7,13,M,,M,,*57
06/03/2014	15:02:15.970	$GPGGA,150223,2543.8859,N,08009.7269,W,1,8,1.7,13,M,,M,,*5C
06/03/2014	15:02:17.000	$GPGGA,150224,2543.8860,N,08009.7270,W,1,8,1.7,13,M,,M,,*59
06/03/2014	15:02:18.045	$GPGGA,150225,2543.8859,N,08009.7269,W,1,8,1.7,13,M,,M,,*5A
06/03/2014	15:02:19.034	$GPGGA,150226,2543.8860,N,08009.7270,W,1,8,1.7,13,M,,M,,*5B
06/03/2014	15:02:20.052	$GPGGA,150227,2543.8859,N,08009.7269,W,1,8,1.7,13,M,,M,,*58
06/03/2014	15:02:21.105	$GPGGA,150228,2543.8860,N,08009.7269,W,1,8,1.7,13,M,,M,,*5D
06/03/2014	15:02:22.098	$GPGGA,150229,2543.8860,N,08009.7269,W,1,8,1.7,13,M,,M,,*5C
06/03/2014	15:02:23.147	$GPGGA,150230,2543.8860,N,08009.7269,W,1,8,1.7,13,M,,M,,*54
06/03/2014	15:02:22.491	$GPGGA,150231,2543.8859,N,08009.7268,W,1,8,1.7,13,M,,M,,*5E
06/03/2014	15:02:23.519	$GPGGA,150232,2543.8860,N,08009.7269,W,1,8,1.7,13,M,,M,,*56
06/03/2014	15:02:24.526	$GPGGA,150233,2543.8859,N,08009.7268,W,1,8,1.7,13,M,,M,,*5C
06/03/2014	15:02:25.565	$GPGGA,150234,2543.8858,N,08009.7269,W,1,8,1.7,13,M,,M,,*5B
06/03/2014	15:02:26.613	$GPGGA,150235,2543.8859,N,08009.7268,W,1,8,1.7,13,M,,M,,*5A
06/03/2014	15:02:27.621	$GPGGA,150236,2543.8858,N,08009.7269,W,1,8,1.7,13,M,,M,,*59
06/03/2014	15:02:28.670	$GPGGA,150237,2543.8859,N,08009.7268,W,1,8,1.7,13,M,,M,,*58
06/03/2014	15:02:29.666	$GPGGA,150238,2543.8857,N,08009.7269,W,1,8,1.7,13,M,,M,,*58
06/03/2014	15:02:30.694	$GPGGA,150239,2543.8857,N,08009.7268,W,1,8,1.7,13,M,,M,,*58
06/03/2014	15:02:31.732	$GPGGA,150240,2543.8857,N,08009.7269,W,1,8,1.7,13,M,,M,,*57
06/03/2014	15:02:32.771	$GPGGA,150241,2543.8857,N,08009.7268,W,1,8,1.7,13,M,,M,,*57
06/03/2014	15:02:33.778	$GPGGA,150242,2543.8857,N,08009.7269,W,1,8,1.7,13,M,,M,,*55
06/03/2014	15:02:34.786	$GPGGA,150243,2543.8857,N,08009.7269,W,1,8,1.7,13,M,,M,,*54
06/03/2014	15:02:36.009	$GPGGA,150244,2543.8857,N,08009.7269,W,1,8,1.7,13,M,,M,,*53
06/03/2014	15:02:36.852	$GPGGA,150245,2543.8857,N,08009.7270,W,1,8,1.7,13,M,,M,,*5A
06/03/2014	15:02:37.870	$GPGGA,150246,2543.8857,N,08009.7270,W,1,8,1.7,13,M,,M,,*59
06/03/2014	15:02:38.878	$GPGGA,150247,2543.8857,N,08009.7270,W,1,8,1.7,13,M,,M,,*58
06/03/2014	15:02:39.937	$GPGGA,150248,2543.8855,N,08009.7270,W,1,8,1.7,13,M,,M,,*55
06/03/2014	15:02:40.975	$GPGGA,150249,2543.8857,N,08009.7270,W,1,8,1.7,13,M,,M,,*56
06/03/2014	15:02:41.972	$GPGGA,150250,2543.8855,N,08009.7270,W,1,8,1.7,13,M,,M,,*5C
06/03/2014	15:02:43.088	$GPGGA,150251,2543.8856,N,08009.7270,W,1,8,1.7,13,M,,M,,*5E
06/03/2014	15:02:44.049	$GPGGA,150252,2543.8855,N,08009.7270,W,1,8,1.7,13,M,,M,,*5E
06/03/2014	15:02:45.056	$GPGGA,150253,2543.8856,N,08009.7270,W,1,8,1.7,13,M,,M,,*5C
06/03/2014	15:02:46.239	$GPGGA,150254,2543.8855,N,08009.7270,W,1,8,1.7,13,M,,M,,*58
06/03/2014	15:02:47.116	$GPGGA,150255,2543.8856,N,08009.7270,W,1,8,1.7,13,M,,M,,*5A
06/03/2014	15:02:48.530	$GPGGA,150256,2543.8855,N,08009.7272,W,1,8,1.7,13,M,,M,,*58
06/03/2014	15:02:49.271	$GPGGA,150257,2543.8856,N,08009.7270,W,1,8,1.7,13,M,,M,,*58
06/03/2014	15:02:50.350	$GPGGA,150258,2543.8855,N,08009.7272,W,1,8,1.7,13,M,,M,,*56
06/03/2014	15:02:51.392	$GPGGA,150259,2543.8856,N,08009.7270,W,1,8,1.7,13,M,,M,,*56
06/03/2014	15:02:52.252	$GPGGA,150300,2543.8855,N,08009.7270,W,1,8,1.7,13,M,,M,,*58
06/03/2014	15:02:53.260	$GPGGA,150301,2543.8856,N,08009.7270,W,1,8,1.7,13,M,,M,,*5A
06/03/2014	15:02:54.452	$GPGGA,150302,2543.8855,N,08009.7272,W,1,8,1.7,13,M,,M,,*58
06/03/2014	15:02:55.450	$GPGGA,150303,2543.8856,N,08009.7271,W,1,8,1.7,13,M,,M,,*59
06/03/2014	15:02:56.519	$GPGGA,150304,2543.8855,N,08009.7272,W,1,8,1.7,13,M,,M,,*5E
06/03/2014	15:02:57.456	$GPGGA,150305,2543.8856,N,08009.7271,W,1,8,1.7,13,M,,M,,*5F
06/03/2014	15:02:58.482	$GPGGA,150306,2543.8855,N,08009.7272,W,1,8,1.7,13,M,,M,,*5C
06/03/2014	15:02:59.562	$GPGGA,150307,2543.8857,N,08009.7271,W,1,8,1.7,13,M,,M,,*5C
06/03/2014	15:03:00.631	$GPGGA,150308,2543.8857,N,08009.7272,W,1,8,1.7,13,M,,M,,*50
06/03/2014	15:03:01.618	$GPGGA,150309,2543.8857,N,08009.7271,W,1,8,1.7,13,M,,M,,*52
06/03/2014	15:03:02.667	$GPGGA,150310,2543.8857,N,08009.7272,W,1,8,1.7,13,M,,M,,*59
06/03/2014	15:03:03.664	$GPGGA,150311,2543.8857,N,08009.7271,W,1,8,1.7,13,M,,M,,*5B
06/03/2014	15:03:04.723	$GPGGA,150312,2543.8855,N,08009.7272,W,1,8,1.7,13,M,,M,,*59
06/03/2014	15:03:05.668	$GPGGA,150313,2543.8856,N,08009.7271,W,1,8,1.7,13,M,,M,,*58
06/03/2014	15:03:06.747	$GPGGA,150314,2543.8855,N,08009.7272,W,1,8,1.7,13,M,,M,,*5F
06/03/2014	15:03:07.765	$GPGGA,150315,2543.8856,N,08009.7271,W,1,8,1.7,13,M,,M,,*5E
06/03/2014	15:03:08.834	$GPGGA,150316,2543.8857,N,08009.7272,W,1,8,1.7,13,M,,M,,*5F
06/03/2014	15:03:09.760	$GPGGA,150317,2543.8857,N,08009.7271,W,1,8,1.7,13,M,,M,,*5D
06/03/2014	15:03:10.870	$GPGGA,150318,2543.8857,N,08009.7272,W,1,8,1.7,13,M,,M,,*51
06/03/2014	15:03:11.919	$GPGGA,150319,2543.8857,N,08009.7271,W,1,8,1.7,13,M,,M,,*53
06/03/2014	15:03:12.854	$GPGGA,150320,2543.8857,N,08009.7272,W,1,8,1.7,13,M,,M,,*5A
06/03/2014	15:03:13.923	$GPGGA,150321,2543.8857,N,08009.7271,W,1,8,1.7,13,M,,M,,*58
06/03/2014	15:03:14.890	$GPGGA,150322,2543.8857,N,08009.7272,W,1,8,1.7,13,M,,M,,*58
06/03/2014	15:03:15.969	$GPGGA,150323,2543.8857,N,08009.7271,W,1,8,1.7,13,M,,M,,*5A
06/03/2014	15:03:17.049	$GPGGA,150324,2543.8857,N,08009.7270,W,1,8,1.7,13,M,,M,,*5C
06/03/2014	15:03:18.006	$GPGGA,150325,2543.8857,N,08009.7270,W,1,8,1.7,13,M,,M,,*5D
06/03/2014	15:03:18.992	$GPGGA,150326,2543.8857,N,08009.7270,W,1,8,1.7,13,M,,M,,*5E
06/03/2014	15:03:20.020	$GPGGA,150327,2543.8857,N,08009.7270,W,1,8,1.7,13,M,,M,,*5F
06/03/2014	15:03:21.058	$GPGGA,150328,2543.8859,N,08009.7270,W,1,8,1.7,13,M,,M,,*5E
06/03/2014	15:03:22.140	$GPGGA,150329,2543.8858,N,08009.7270,W,1,8,1.7,13,M,,M,,*5E
06/03/2014	15:03:23.104	$GPGGA,150330,2543.8859,N,08009.7270,W,1,8,1.7,13,M,,M,,*57
06/03/2014	15:03:22.477	$GPGGA,150331,2543.8858,N,08009.7270,W,1,8,1.7,13,M,,M,,*57
06/03/2014	15:03:23.475	$GPGGA,150332,2543.8859,N,08009.7269,W,1,8,1.7,13,M,,M,,*5D
06/03/2014	15:03:24.544	$GPGGA,150333,2543.8858,N,08009.7269,W,1,8,1.7,13,M,,M,,*5D
06/03/2014	15:03:25.592	$GPGGA,150334,2543.8859,N,08009.7269,W,1,8,1.7,13,M,,M,,*5B
06/03/2014	15:03:26.610	$GPGGA,150335,2543.8858,N,08009.7270,W,1,8,1.7,13,M,,M,,*53
06/03/2014	15:03:27.641	$GPGGA,150336,2543.8859,N,08009.7270,W,1,8,1.7,13,M,,M,,*51
06/03/2014	15:03:28.636	$GPGGA,150337,2543.8858,N,08009.7269,W,1,8,1.7,13,M,,M,,*59
06/03/2014	15:03:29.695	$GPGGA,150338,2543.8859,N,08009.7269,W,1,8,1.7,13,M,,M,,*57
06/03/2014	15:03:30.651	$GPGGA,150339,2543.8858,N,08009.7269,W,1,8,1.7,13,M,,M,,*57
06/03/2014	15:03:31.761	$GPGGA,150340,2543.8859,N,08009.7269,W,1,8,1.7,13,M,,M,,*58
06/03/2014	15:03:32.841	$GPGGA,150341,2543.8858,N,08009.7268,W,1,8,1.7,13,M,,M,,*59
06/03/2014	15:03:33.797	$GPGGA,150342,2543.8859,N,08009.7269,W,1,8,1.7,13,M,,M,,*5A
06/03/2014	15:03:34.866	$GPGGA,150343,2543.8858,N,08009.7268,W,1,8,1.7,13,M,,M,,*5B
06/03/2014	15:03:35.884	$GPGGA,150344,2543.8859,N,08009.7267,W,1,8,1.7,13,M,,M,,*52
06/03/2014	15:03:36.881	$GPGGA,150345,2543.8858,N,08009.7269,W,1,8,1.7,13,M,,M,,*5C
06/03/2014	15:03:37.950	$GPGGA,150346,2543.8857,N,08009.7267,W,1,8,1.7,13,M,,M,,*5E
06/03/2014	15:03:38.968	$GPGGA,150347,2543.8857,N,08009.7267,W,1,8,1.7,13,M,,M,,*5F
06/03/2014	15:03:40.016	$GPGGA,150348,2543.8857,N,08009.7267,W,1,8,1.7,13,M,,M,,*50
06/03/2014	15:03:41.013	$GPGGA,150349,2543.8857,N,08009.7267,W,1,8,1.7,13,M,,M,,*51
06/03/2014	15:03:42.050	$GPGGA,150350,2543.8857,N,08009.7267,W,1,8,1.7,13,M,,M,,*59
06/03/2014	15:03:43.094	$GPGGA,150351,2543.8857,N,08009.7266,W,1,8,1.7,13,M,,M,,*59
06/03/2014	15:03:44.129	$GPGGA,150352,2543.8857,N,08009.7266,W,1,8,1.7,13,M,,M,,*5A
06/03/2014	15:03:45.133	$GPGGA,150353,2543.8857,N,08009.7267,W,1,8,1.7,13,M,,M,,*5A
06/03/2014	15:03:46.164	$GPGGA,150354,2543.8857,N,08009.7267,W,1,8,1.7,13,M,,M,,*5D
06/03/2014	15:03:47.192	$GPGGA,150355,2543.8857,N,08009.7266,W,1,8,1.7,13,M,,M,,*5D
06/03/2014	15:03:48.210	$GPGGA,150356,2543.8857,N,08009.7267,W,1,8,1.7,13,M,,M,,*5F
06/03/2014	15:03:49.258	$GPGGA,150357,2543.8857,N,08009.7267,W,1,8,1.7,14,M,,M,,*59
06/03/2014	15:03:50.245	$GPGGA,150358,2543.8857,N,08009.7266,W,1,8,1.7,14,M,,M,,*57
06/03/2014	15:03:51.304	$GPGGA,150359,2543.8857,N,08009.7266,W,1,8,1.7,14,M,,M,,*56
06/03/2014	15:03:52.322	$GPGGA,150400,2543.8857,N,08009.7266,W,1,8,1.7,14,M,,M,,*5D
06/03/2014	15:03:53.349	$GPGGA,150401,2543.8855,N,08009.7266,W,1,8,1.7,14,M,,M,,*5E
06/03/2014	15:03:54.399	$GPGGA,150402,2543.8856,N,08009.7266,W,1,8,1.7,14,M,,M,,*5E
06/03/2014	15:03:55.410	$GPGGA,150403,2543.8855,N,08009.7266,W,1,8,1.7,14,M,,M,,*5C
06/03/2014	15:03:56.465	$GPGGA,150404,2543.8856,N,08009.7266,W,1,8,1.7,14,M,,M,,*58
06/03/2014	15:03:57.451	$GPGGA,150405,2543.8855,N,08009.7266,W,1,8,1.7,14,M,,M,,*5A
06/03/2014	15:03:58.459	$GPGGA,150406,2543.8856,N,08009.7265,W,1,8,1.7,14,M,,M,,*59
06/03/2014	15:03:59.518	$GPGGA,150407,2543.8855,N,08009.7265,W,1,8,1.7,14,M,,M,,*5B
06/03/2014	15:04:00.525	$GPGGA,150408,2543.8854,N,08009.7264,W,1,8,1.7,14,M,,M,,*54
06/03/2014	15:04:01.574	$GPGGA,150409,2543.8855,N,08009.7265,W,1,8,1.7,14,M,,M,,*55
06/03/2014	15:04:02.561	$GPGGA,150410,2543.8855,N,08009.7265,W,1,8,1.7,14,M,,M,,*5D
06/03/2014	15:04:03.599	$GPGGA,150411,2543.8855,N,08009.7265,W,1,8,1.7,14,M,,M,,*5C
06/03/2014	15:04:04.638	$GPGGA,150412,2543.8853,N,08009.7264,W,1,8,1.7,14,M,,M,,*58
06/03/2014	15:04:05.666	$GPGGA,150413,2543.8853,N,08009.7265,W,1,8,1.7,14,M,,M,,*58
06/03/2014	15:04:06.694	$GPGGA,150414,2543.8853,N,08009.7265,W,1,8,1.7,14,M,,M,,*5F
06/03/2014	15:04:07.712	$GPGGA,150415,2543.8853,N,08009.7265,W,1,8,1.7,14,M,,M,,*5E
06/03/2014	15:04:08.760	$GPGGA,150416,2543.8853,N,08009.7264,W,1,8,1.7,14,M,,M,,*5C
06/03/2014	15:04:09.747	$GPGGA,150417,2543.8853,N,08009.7265,W,1,8,1.7,14,M,,M,,*5C
06/03/2014	15:04:10.786	$GPGGA,150418,2543.8853,N,08009.7265,W,1,8,1.7,14,M,,M,,*53
06/03/2014	15:04:11.927	$GPGGA,150419,2543.8852,N,08009.7263,W,1,8,1.7,14,M,,M,,*55
06/03/2014	15:04:12.873	$GPGGA,150420,2543.8852,N,08009.7263,W,1,8,1.7,13,M,,M,,*58
06/03/2014	15:04:13.880	$GPGGA,150421,2543.8850,N,08009.7263,W,1,8,1.7,13,M,,M,,*5B
06/03/2014	15:04:14.919	$GPGGA,150422,2543.8850,N,08009.7263,W,1,8,1.7,13,M,,M,,*58
06/03/2014	15:04:16.007	$GPGGA,150423,2543.8850,N,08009.7263,W,1,8,1.7,13,M,,M,,*59
06/03/2014	15:04:16.964	$GPGGA,150424,2543.8850,N,08009.7263,W,1,8,1.7,13,M,,M,,*5E
06/03/2014	15:04:17.961	$GPGGA,150425,2543.8849,N,08009.7262,W,1,8,1.7,13,M,,M,,*56
06/03/2014	15:04:18.979	$GPGGA,150426,2543.8849,N,08009.7262,W,1,8,1.7,13,M,,M,,*55
06/03/2014	15:04:20.017	$GPGGA,150427,2543.8849,N,08009.7261,W,1,8,1.7,13,M,,M,,*57
06/03/2014	15:04:21.141	$GPGGA,150428,2543.8849,N,08009.7262,W,1,8,1.7,13,M,,M,,*5B
06/03/2014	15:04:22.083	$GPGGA,150429,2543.8848,N,08009.7262,W,1,8,1.7,13,M,,M,,*5B
06/03/2014	15:04:23.173	$GPGGA,150430,2543.8849,N,08009.7261,W,1,8,1.7,13,M,,M,,*51
06/03/2014	15:04:22.538	$GPGGA,150431,2543.8848,N,08009.7262,W,1,8,1.7,13,M,,M,,*52
06/03/2014	15:04:23.576	$GPGGA,150432,2543.8849,N,08009.7261,W,1,8,1.7,13,M,,M,,*53
06/03/2014	15:04:24.574	$GPGGA,150433,2543.8847,N,08009.7262,W,1,8,1.7,13,M,,M,,*5F
06/03/2014	15:04:25.602	$GPGGA,150434,2543.8848,N,08009.7261,W,1,8,1.7,13,M,,M,,*54
06/03/2014	15:04:26.527	$GPGGA,150435,2543.8847,N,08009.7262,W,1,8,1.7,13,M,,M,,*59
06/03/2014	15:04:27.668	$GPGGA,150436,2543.8848,N,08009.7261,W,1,8,1.7,13,M,,M,,*56
06/03/2014	15:04:28.676	$GPGGA,150437,2543.8847,N,08009.7262,W,1,8,1.7,13,M,,M,,*5B
06/03/2014	15:04:29.703	$GPGGA,150438,2543.8848,N,08009.7261,W,1,8,1.7,13,M,,M,,*58
06/03/2014	15:04:30.763	$GPGGA,150439,2543.8847,N,08009.7262,W,1,8,1.7,13,M,,M,,*55
06/03/2014	15:04:31.800	$GPGGA,150440,2543.8848,N,08009.7261,W,1,8,1.7,13,M,,M,,*57
06/03/2014	15:04:32.793	$GPGGA,150441,2543.8847,N,08009.7262,W,1,8,1.7,13,M,,M,,*5A
06/03/2014	15:04:33.777	$GPGGA,150442,2543.8848,N,08009.7262,W,1,8,1.7,13,M,,M,,*56
06/03/2014	15:04:34.826	$GPGGA,150443,2543.8849,N,08009.7262,W,1,8,1.7,13,M,,M,,*56
06/03/2014	15:04:35.808	$GPGGA,150444,2543.8848,N,08009.7263,W,1,8,1.7,13,M,,M,,*51
06/03/2014	15:04:36.819	$GPGGA,150445,2543.8849,N,08009.7263,W,1,8,1.7,13,M,,M,,*51
06/03/2014	15:04:37.811	$GPGGA,150446,2543.8848,N,08009.7263,W,1,8,1.7,13,M,,M,,*53
06/03/2014	15:04:38.843	$GPGGA,150447,2543.8849,N,08009.7263,W,1,8,1.7,13,M,,M,,*53
06/03/2014	15:04:39.844	$GPGGA,150448,2543.8849,N,08009.7265,W,1,8,1.7,13,M,,M,,*5A
06/03/2014	15:04:40.836	$GPGGA,150449,2543.8849,N,08009.7264,W,1,8,1.7,13,M,,M,,*5A
06/03/2014	15:04:41.848	$GPGGA,150450,2543.8850,N,08009.7265,W,1,8,1.7,13,M,,M,,*5B
06/03/2014	15:04:42.900	$GPGGA,150451,2543.8850,N,08009.7264,W,1,8,1.7,13,M,,M,,*5B
06/03/2014	15:04:43.893	$GPGGA,150452,2543.8850,N,08009.7265,W,1,8,1.7,13,M,,M,,*59
06/03/2014	15:04:44.873	$GPGGA,150453,2543.8850,N,08009.7265,W,1,8,1.7,13,M,,M,,*58
06/03/2014	15:04:45.904	$GPGGA,150454,2543.8850,N,08009.7265,W,1,8,1.7,13,M,,M,,*5F
06/03/2014	15:04:46.927	$GPGGA,150455,2543.8850,N,08009.7265,W,1,8,1.7,13,M,,M,,*5E
06/03/2014	15:04:47.928	$GPGGA,150456,2543.8850,N,08009.7265,W,1,8,1.7,13,M,,M,,*5D
06/03/2014	15:04:48.909	$GPGGA,150457,2543.8850,N,08009.7265,W,1,8,1.7,13,M,,M,,*5C
06/03/2014	15:04:49.940	$GPGGA,150458,2543.8850,N,08009.7266,W,1,8,1.7,13,M,,M,,*50
06/03/2014	15:04:50.982	$GPGGA,150459,2543.8852,N,08009.7266,W,1,8,1.7,13,M,,M,,*53
06/03/2014	15:04:51.974	$GPGGA,150500,2543.8851,N,08009.7266,W,1,8,1.7,13,M,,M,,*5D
06/03/2014	15:04:52.985	$GPGGA,150501,2543.8852,N,08009.7266,W,1,8,1.7,13,M,,M,,*5F
06/03/2014	15:04:53.967	$GPGGA,150502,2543.8851,N,08009.7267,W,1,8,1.5,13,M,,M,,*5C
06/03/2014	15:04:54.989	$GPGGA,150503,2543.8852,N,08009.7267,W,1,9,1.5,13,M,,M,,*5F
06/03/2014	15:04:56.020	$GPGGA,150504,2543.8851,N,08009.7269,W,1,9,1.5,13,M,,M,,*55
06/03/2014	15:04:57.113	$GPGGA,150505,2543.8852,N,08009.7269,W,1,9,1.5,13,M,,M,,*57
06/03/2014	15:04:58.096	$GPGGA,150506,2543.8851,N,08009.7270,W,1,9,1.5,13,M,,M,,*5F
06/03/2014	15:04:59.035	$GPGGA,150507,2543.8852,N,08009.7270,W,1,9,1.5,13,M,,M,,*5D
06/03/2014	15:05:00.027	$GPGGA,150508,2543.8851,N,08009.7270,W,1,9,1.5,13,M,,M,,*51
06/03/2014	15:05:01.059	$GPGGA,150509,2543.8852,N,08009.7272,W,1,9,1.5,13,M,,M,,*51
06/03/2014	15:05:02.060	$GPGGA,150510,2543.8851,N,08009.7271,W,1,9,1.5,13,M,,M,,*59
06/03/2014	15:05:03.173	$GPGGA,150511,2543.8850,N,08009.7272,W,1,9,1.5,13,M,,M,,*5A
06/03/2014	15:05:04.074	$GPGGA,150512,2543.8850,N,08009.7272,W,1,9,1.5,13,M,,M,,*59
06/03/2014	15:05:05.079	$GPGGA,150513,2543.8849,N,08009.7273,W,1,9,1.5,13,M,,M,,*51
06/03/2014	15:05:06.188	$GPGGA,150514,2543.8849,N,08009.7274,W,1,9,1.5,13,M,,M,,*51
06/03/2014	15:05:07.118	$GPGGA,150515,2543.8849,N,08009.7274,W,1,9,1.5,13,M,,M,,*50
06/03/2014	15:05:08.112	$GPGGA,150516,2543.8848,N,08009.7276,W,1,9,1.5,14,M,,M,,*57
06/03/2014	15:05:09.117	$GPGGA,150517,2543.8849,N,08009.7275,W,1,9,1.5,14,M,,M,,*54
06/03/2014	15:05:10.222	$GPGGA,150518,2543.8848,N,08009.7276,W,1,9,1.5,14,M,,M,,*59
06/03/2014	15:05:11.151	$GPGGA,150519,2543.8849,N,08009.7276,W,1,9,1.5,14,M,,M,,*59
06/03/2014	15:05:12.247	$GPGGA,150520,2543.8848,N,08009.7277,W,1,9,1.5,14,M,,M,,*53
06/03/2014	15:05:13.249	$GPGGA,150521,2543.8849,N,08009.7277,W,1,9,1.5,14,M,,M,,*53
06/03/2014	15:05:14.250	$GPGGA,150522,2543.8848,N,08009.7279,W,1,9,1.5,14,M,,M,,*5F
06/03/2014	15:05:15.272	$GPGGA,150523,2543.8849,N,08009.7278,W,1,9,1.5,14,M,,M,,*5E
06/03/2014	15:05:16.294	$GPGGA,150524,2543.8848,N,08009.7280,W,1,9,1.5,14,M,,M,,*5F
06/03/2014	15:05:17.316	$GPGGA,150525,2543.8849,N,08009.7279,W,1,9,1.5,14,M,,M,,*59
06/03/2014	15:05:18.287	$GPGGA,150526,2543.8849,N,08009.7280,W,1,9,1.5,14,M,,M,,*5C
06/03/2014	15:05:19.329	$GPGGA,150527,2543.8849,N,08009.7279,W,1,9,1.5,15,M,,M,,*5A
06/03/2014	15:05:20.331	$GPGGA,150528,2543.8849,N,08009.7280,W,1,9,1.5,15,M,,M,,*53
06/03/2014	15:05:21.312	$GPGGA,150529,2543.8849,N,08009.7280,W,1,9,1.5,15,M,,M,,*52
06/03/2014	15:05:22.364	$GPGGA,150530,2543.8849,N,08009.7280,W,1,9,1.5,15,M,,M,,*5A
06/03/2014	15:05:22.508	$GPGGA,150531,2543.8849,N,08009.7280,W,1,9,1.5,15,M,,M,,*5B
06/03/2014	15:05:23.510	$GPGGA,150532,2543.8849,N,08009.7280,W,1,9,1.5,15,M,,M,,*58
06/03/2014	15:05:24.522	$GPGGA,150533,2543.8849,N,08009.7280,W,1,8,1.7,15,M,,M,,*5A
06/03/2014	15:05:25.511	$GPGGA,150534,2543.8849,N,08009.7280,W,1,8,1.7,15,M,,M,,*5D
06/03/2014	15:05:26.574	$GPGGA,150535,2543.8849,N,08009.7280,W,1,8,1.7,15,M,,M,,*5C
06/03/2014	15:05:27.545	$GPGGA,150536,2543.8849,N,08009.7280,W,1,8,1.7,15,M,,M,,*5F
06/03/2014	15:05:28.567	$GPGGA,150537,2543.8849,N,08009.7281,W,1,8,1.7,15,M,,M,,*5F
06/03/2014	15:05:29.548	$GPGGA,150538,2543.8849,N,08009.7280,W,1,8,1.7,15,M,,M,,*51
06/03/2014	15:05:30.600	$GPGGA,150539,2543.8849,N,08009.7281,W,1,8,1.7,15,M,,M,,*51
06/03/2014	15:05:31.582	$GPGGA,150540,2543.8848,N,08009.7281,W,1,8,1.7,15,M,,M,,*5E
06/03/2014	15:05:32.603	$GPGGA,150541,2543.8849,N,08009.7281,W,1,8,1.7,15,M,,M,,*5E
06/03/2014	15:05:33.595	$GPGGA,150542,2543.8848,N,08009.7283,W,1,8,1.7,15,M,,M,,*5E
06/03/2014	15:05:34.637	$GPGGA,150543,2543.8849,N,08009.7282,W,1,8,1.7,15,M,,M,,*5F
06/03/2014	15:05:35.628	$GPGGA,150544,2543.8847,N,08009.7283,W,1,8,1.7,15,M,,M,,*57
06/03/2014	15:05:36.701	$GPGGA,150545,2543.8848,N,08009.7283,W,1,8,1.7,15,M,,M,,*59
06/03/2014	15:05:37.621	$GPGGA,150546,2543.8847,N,08009.7283,W,1,8,1.7,15,M,,M,,*55
06/03/2014	15:05:38.664	$GPGGA,150547,2543.8846,N,08009.7283,W,1,8,1.7,15,M,,M,,*55
06/03/2014	15:05:39.665	$GPGGA,150548,2543.8846,N,08009.7283,W,1,8,1.7,16,M,,M,,*59
06/03/2014	15:05:40.688	$GPGGA,150549,2543.8846,N,08009.7282,W,1,8,1.7,16,M,,M,,*59
06/03/2014	15:05:41.677	$GPGGA,150550,2543.8846,N,08009.7283,W,1,8,1.7,16,M,,M,,*50
06/03/2014	15:05:42.699	$GPGGA,150551,2543.8846,N,08009.7283,W,1,8,1.7,16,M,,M,,*51
06/03/2014	15:05:43.722	$GPGGA,150552,2543.8846,N,08009.7283,W,1,8,1.7,16,M,,M,,*52
06/03/2014	15:05:44.692	$GPGGA,150553,2543.8846,N,08009.7283,W,1,8,1.7,16,M,,M,,*53
06/03/2014	15:05:45.815	$GPGGA,150554,2543.8848,N,08009.7283,W,1,8,1.7,16,M,,M,,*5A
06/03/2014	15:05:46.716	$GPGGA,150555,2543.8847,N,08009.7283,W,1,8,1.7,16,M,,M,,*54
06/03/2014	15:05:47.849	$GPGGA,150556,2543.8848,N,08009.7283,W,1,8,1.7,16,M,,M,,*58
06/03/2014	15:05:48.850	$GPGGA,150557,2543.8849,N,08009.7283,W,1,8,1.7,16,M,,M,,*58
06/03/2014	15:05:49.741	$GPGGA,150558,2543.8848,N,08009.7283,W,1,8,1.7,16,M,,M,,*56
06/03/2014	15:05:50.752	$GPGGA,150559,2543.8847,N,08009.7284,W,1,8,1.7,16,M,,M,,*5F
06/03/2014	15:05:51.784	$GPGGA,150600,2543.8849,N,08009.7284,W,1,8,1.5,16,M,,M,,*5C
06/03/2014	15:05:52.877	$GPGGA,150601,2543.8848,N,08009.7284,W,1,9,1.5,16,M,,M,,*5D
06/03/2014	15:05:53.777	$GPGGA,150602,2543.8849,N,08009.7284,W,1,9,1.5,16,M,,M,,*5F
06/03/2014	15:05:54.780	$GPGGA,150603,2543.8848,N,08009.7284,W,1,9,1.5,16,M,,M,,*5F
06/03/2014	15:05:55.912	$GPGGA,150604,2543.8849,N,08009.7284,W,1,9,1.5,16,M,,M,,*59
06/03/2014	15:05:56.944	$GPGGA,150605,2543.8850,N,08009.7284,W,1,9,1.5,16,M,,M,,*50
06/03/2014	15:05:57.915	$GPGGA,150606,2543.8850,N,08009.7284,W,1,9,1.5,16,M,,M,,*53
06/03/2014	15:05:58.826	$GPGGA,150607,2543.8852,N,08009.7284,W,1,9,1.5,16,M,,M,,*50
06/03/2014	15:05:59.958	$GPGGA,150608,2543.8853,N,08009.7283,W,1,9,1.5,16,M,,M,,*59
06/03/2014	15:06:00.980	$GPGGA,150609,2543.8853,N,08009.7283,W,1,9,1.5,16,M,,M,,*58
06/03/2014	15:06:01.953	$GPGGA,150610,2543.8855,N,08009.7282,W,1,9,1.5,16,M,,M,,*57
06/03/2014	15:06:02.963	$GPGGA,150611,2543.8856,N,08009.7283,W,1,9,1.5,16,M,,M,,*54
06/03/2014	15:06:03.994	$GPGGA,150612,2543.8857,N,08009.7282,W,1,9,1.5,16,M,,M,,*57
06/03/2014	15:06:05.006	$GPGGA,150613,2543.8857,N,08009.7281,W,1,9,1.5,16,M,,M,,*55
06/03/2014	15:06:06.008	$GPGGA,150614,2543.8857,N,08009.7281,W,1,9,1.5,16,M,,M,,*52
06/03/2014	15:06:07.019	$GPGGA,150615,2543.8857,N,08009.7281,W,1,9,1.5,16,M,,M,,*53
06/03/2014	15:06:08.034	$GPGGA,150616,2543.8859,N,08009.7281,W,1,9,1.5,16,M,,M,,*5E
06/03/2014	15:06:09.043	$GPGGA,150617,2543.8858,N,08009.7280,W,1,9,1.5,16,M,,M,,*5F
06/03/2014	15:06:10.038	$GPGGA,150618,2543.8859,N,08009.7280,W,1,9,1.5,16,M,,M,,*51
06/03/2014	15:06:11.074	$GPGGA,150619,2543.8858,N,08009.7281,W,1,9,1.5,16,M,,M,,*50
06/03/2014	15:06:12.074	$GPGGA,150620,2543.8860,N,08009.7281,W,1,9,1.5,16,M,,M,,*51
06/03/2014	15:06:13.087	$GPGGA,150621,2543.8859,N,08009.7281,W,1,9,1.5,16,M,,M,,*5A
06/03/2014	15:06:14.061	$GPGGA,150622,2543.8860,N,08009.7281,W,1,9,1.5,16,M,,M,,*53
06/03/2014	15:06:15.103	$GPGGA,150623,2543.8859,N,08009.7281,W,1,9,1.5,16,M,,M,,*58
06/03/2014	15:06:16.094	$GPGGA,150624,2543.8860,N,08009.7281,W,1,9,1.5,17,M,,M,,*54
06/03/2014	15:06:17.116	$GPGGA,150625,2543.8859,N,08009.7281,W,1,9,1.5,17,M,,M,,*5F
06/03/2014	15:06:18.097	$GPGGA,150626,2543.8860,N,08009.7281,W,1,9,1.5,17,M,,M,,*56
06/03/2014	15:06:19.153	$GPGGA,150627,2543.8859,N,08009.7281,W,1,9,1.5,17,M,,M,,*5D
06/03/2014	15:06:20.130	$GPGGA,150628,2543.8860,N,08009.7281,W,1,9,1.5,17,M,,M,,*58
06/03/2014	15:06:21.142	$GPGGA,150629,2543.8859,N,08009.7281,W,1,9,1.5,17,M,,M,,*53
06/03/2014	15:06:22.153	$GPGGA,150630,2543.8860,N,08009.7281,W,1,9,1.5,17,M,,M,,*51
06/03/2014	15:06:22.464	$GPGGA,150631,2543.8860,N,08009.7281,W,1,9,1.5,17,M,,M,,*50
06/03/2014	15:06:23.476	$GPGGA,150632,2543.8860,N,08009.7281,W,1,9,1.5,17,M,,M,,*53
06/03/2014	15:06:24.467	$GPGGA,150633,2543.8859,N,08009.7281,W,1,9,1.5,17,M,,M,,*58
06/03/2014	15:06:25.499	$GPGGA,150634,2543.8860,N,08009.7281,W,1,9,1.5,17,M,,M,,*55
06/03/2014	15:06:26.531	$GPGGA,150635,2543.8859,N,08009.7280,W,1,9,1.5,17,M,,M,,*5F
06/03/2014	15:06:27.533	$GPGGA,150636,2543.8860,N,08009.7280,W,1,9,1.5,17,M,,M,,*56
06/03/2014	15:06:28.544	$GPGGA,150637,2543.8859,N,08009.7280,W,1,9,1.5,17,M,,M,,*5D
06/03/2014	15:06:29.516	$GPGGA,150638,2543.8858,N,08009.7280,W,1,9,1.5,17,M,,M,,*53
06/03/2014	15:06:30.538	$GPGGA,150639,2543.8859,N,08009.7280,W,1,9,1.5,17,M,,M,,*53
06/03/2014	15:06:31.559	$GPGGA,150640,2543.8858,N,08009.7281,W,1,9,1.5,17,M,,M,,*5D
06/03/2014	15:06:32.672	$GPGGA,150641,2543.8857,N,08009.7281,W,1,9,1.5,17,M,,M,,*53
06/03/2014	15:06:33.552	$GPGGA,150642,2543.8857,N,08009.7281,W,1,9,1.5,16,M,,M,,*51
06/03/2014	15:06:34.664	$GPGGA,150643,2543.8857,N,08009.7281,W,1,9,1.5,16,M,,M,,*50
06/03/2014	15:06:35.605	$GPGGA,150644,2543.8857,N,08009.7281,W,1,9,1.5,16,M,,M,,*57
06/03/2014	15:06:36.597	$GPGGA,150645,2543.8857,N,08009.7281,W,1,9,1.5,16,M,,M,,*56
06/03/2014	15:06:37.608	$GPGGA,150646,2543.8857,N,08009.7281,W,1,9,1.5,16,M,,M,,*55
06/03/2014	15:06:38.600	$GPGGA,150647,2543.8855,N,08009.7281,W,1,9,1.5,16,M,,M,,*56
06/03/2014	15:06:39.763	$GPGGA,150648,2543.8856,N,08009.7281,W,1,9,1.5,16,M,,M,,*5A
06/03/2014	15:06:40.765	$GPGGA,150649,2543.8855,N,08009.7280,W,1,9,1.5,16,M,,M,,*59
06/03/2014	15:06:41.645	$GPGGA,150650,2543.8856,N,08009.7280,W,1,9,1.5,16,M,,M,,*52
06/03/2014	15:06:42.738	$GPGGA,150651,2543.8855,N,08009.7280,W,1,9,1.5,16,M,,M,,*50
06/03/2014	15:06:43.800	$GPGGA,150652,2543.8854,N,08009.7280,W,1,9,1.5,16,M,,M,,*52
06/03/2014	15:06:44.771	$GPGGA,150653,2543.8856,N,08009.7280,W,1,9,1.5,16,M,,M,,*51
06/03/2014	15:06:45.773	$GPGGA,150654,2543.8854,N,08009.7279,W,1,9,1.5,16,M,,M,,*52
06/03/2014	15:06:46.784	$GPGGA,150655,2543.8855,N,08009.7280,W,1,9,1.5,16,M,,M,,*54
06/03/2014	15:06:47.806	$GPGGA,150656,2543.8853,N,08009.7279,W,1,9,1.5,16,M,,M,,*57
06/03/2014	15:06:48.858	$GPGGA,150657,2543.8853,N,08009.7280,W,1,9,1.5,15,M,,M,,*53
06/03/2014	15:06:49.820	$GPGGA,150658,2543.8853,N,08009.7279,W,1,9,1.5,15,M,,M,,*5A
06/03/2014	15:06:50.831	$GPGGA,150659,2543.8853,N,08009.7280,W,1,9,1.5,15,M,,M,,*5D
06/03/2014	15:06:51.862	$GPGGA,150700,2543.8853,N,08009.7278,W,1,9,1.5,15,M,,M,,*57
06/03/2014	15:06:52.864	$GPGGA,150701,2543.8853,N,08009.7279,W,1,9,1.5,15,M,,M,,*57
06/03/2014	15:06:53.855	$GPGGA,150702,2543.8853,N,08009.7278,W,1,9,1.5,15,M,,M,,*55
06/03/2014	15:06:54.869	$GPGGA,150703,2543.8853,N,08009.7279,W,1,9,1.5,15,M,,M,,*55
06/03/2014	15:06:55.889	$GPGGA,150704,2543.8853,N,08009.7278,W,1,9,1.5,15,M,,M,,*53
06/03/2014	15:06:56.870	$GPGGA,150705,2543.8853,N,08009.7279,W,1,9,1.5,15,M,,M,,*53
06/03/2014	15:06:57.893	$GPGGA,150706,2543.8853,N,08009.7278,W,1,9,1.5,15,M,,M,,*51
06/03/2014	15:06:58.924	$GPGGA,150707,2543.8853,N,08009.7279,W,1,9,1.5,15,M,,M,,*51
06/03/2014	15:06:59.925	$GPGGA,150708,2543.8853,N,08009.7278,W,1,9,1.5,15,M,,M,,*5F
06/03/2014	15:07:00.937	$GPGGA,150709,2543.8851,N,08009.7279,W,1,9,1.5,14,M,,M,,*5C
06/03/2014	15:07:01.918	$GPGGA,150710,2543.8852,N,08009.7278,W,1,9,1.5,14,M,,M,,*56
06/03/2014	15:07:02.960	$GPGGA,150711,2543.8851,N,08009.7279,W,1,9,1.5,14,M,,M,,*55
06/03/2014	15:07:03.962	$GPGGA,150712,2543.8852,N,08009.7278,W,1,9,1.5,14,M,,M,,*54
06/03/2014	15:07:04.979	$GPGGA,150713,2543.8851,N,08009.7279,W,1,9,1.5,14,M,,M,,*57
06/03/2014	15:07:05.965	$GPGGA,150714,2543.8852,N,08009.7280,W,1,9,1.5,14,M,,M,,*55
06/03/2014	15:07:06.997	$GPGGA,150715,2543.8850,N,08009.7279,W,1,9,1.5,14,M,,M,,*50
06/03/2014	15:07:07.999	$GPGGA,150716,2543.8850,N,08009.7280,W,1,9,1.5,14,M,,M,,*55
06/03/2014	15:07:09.000	$GPGGA,150717,2543.8850,N,08009.7279,W,1,9,1.5,14,M,,M,,*52
06/03/2014	15:07:10.001	$GPGGA,150718,2543.8850,N,08009.7280,W,1,9,1.5,14,M,,M,,*5B
06/03/2014	15:07:11.013	$GPGGA,150719,2543.8850,N,08009.7280,W,1,9,1.5,14,M,,M,,*5A
06/03/2014	15:07:12.045	$GPGGA,150720,2543.8850,N,08009.7280,W,1,9,1.5,14,M,,M,,*50
06/03/2014	15:07:13.026	$GPGGA,150721,2543.8850,N,08009.7280,W,1,9,1.5,13,M,,M,,*56
06/03/2014	15:07:14.048	$GPGGA,150722,2543.8849,N,08009.7280,W,1,9,1.5,13,M,,M,,*5D
06/03/2014	15:07:15.096	$GPGGA,150723,2543.8849,N,08009.7280,W,1,9,1.5,13,M,,M,,*5C
06/03/2014	15:07:16.081	$GPGGA,150724,2543.8849,N,08009.7280,W,1,9,1.5,13,M,,M,,*5B
06/03/2014	15:07:17.083	$GPGGA,150725,2543.8849,N,08009.7280,W,1,9,1.5,13,M,,M,,*5A
06/03/2014	15:07:18.074	$GPGGA,150726,2543.8849,N,08009.7280,W,1,9,1.5,13,M,,M,,*59
06/03/2014	15:07:19.081	$GPGGA,150727,2543.8849,N,08009.7280,W,1,9,1.5,13,M,,M,,*58
06/03/2014	15:07:20.118	$GPGGA,150728,2543.8849,N,08009.7280,W,1,9,1.5,13,M,,M,,*57
06/03/2014	15:07:21.103	$GPGGA,150729,2543.8849,N,08009.7280,W,1,9,1.5,13,M,,M,,*56
06/03/2014	15:07:22.131	$GPGGA,150730,2543.8849,N,08009.7280,W,1,9,1.5,13,M,,M,,*5E
06/03/2014	15:07:22.524	$GPGGA,150731,2543.8849,N,08009.7280,W,1,9,1.5,13,M,,M,,*5F
06/03/2014	15:07:23.586	$GPGGA,150732,2543.8849,N,08009.7280,W,1,9,1.5,13,M,,M,,*5C
06/03/2014	15:07:24.436	$GPGGA,150733,2543.8849,N,08009.7280,W,1,9,1.5,13,M,,M,,*5D
06/03/2014	15:07:25.549	$GPGGA,150734,2543.8849,N,08009.7280,W,1,9,1.5,13,M,,M,,*5A
06/03/2014	15:07:26.458	$GPGGA,150735,2543.8849,N,08009.7280,W,1,9,1.5,13,M,,M,,*5B
06/03/2014	15:07:27.591	$GPGGA,150736,2543.8850,N,08009.7280,W,1,9,1.7,12,M,,M,,*53
06/03/2014	15:07:28.613	$GPGGA,150737,2543.8850,N,08009.7280,W,1,8,1.7,12,M,,M,,*53
06/03/2014	15:07:29.483	$GPGGA,150738,2543.8852,N,08009.7279,W,1,8,1.7,12,M,,M,,*58
06/03/2014	15:07:30.515	$GPGGA,150739,2543.8851,N,08009.7280,W,1,9,1.5,12,M,,M,,*5F
06/03/2014	15:07:31.638	$GPGGA,150740,2543.8852,N,08009.7279,W,1,9,1.7,12,M,,M,,*56
06/03/2014	15:07:32.660	$GPGGA,150741,2543.8851,N,08009.7280,W,1,8,1.7,12,M,,M,,*53
06/03/2014	15:07:33.641	$GPGGA,150742,2543.8852,N,08009.7279,W,1,8,1.7,12,M,,M,,*55
06/03/2014	15:07:34.643	$GPGGA,150743,2543.8850,N,08009.7278,W,1,8,1.7,12,M,,M,,*57
06/03/2014	15:07:35.665	$GPGGA,150744,2543.8850,N,08009.7279,W,1,8,1.7,12,M,,M,,*51
06/03/2014	15:07:36.676	$GPGGA,150745,2543.8850,N,08009.7278,W,1,8,1.7,12,M,,M,,*51
06/03/2014	15:07:37.668	$GPGGA,150746,2543.8850,N,08009.7279,W,1,8,1.7,12,M,,M,,*53
06/03/2014	15:07:38.672	$GPGGA,150747,2543.8850,N,08009.7278,W,1,8,1.7,12,M,,M,,*53
06/03/2014	15:07:39.701	$GPGGA,150748,2543.8849,N,08009.7279,W,1,8,1.7,12,M,,M,,*55
06/03/2014	15:07:40.723	$GPGGA,150749,2543.8849,N,08009.7278,W,1,8,1.7,12,M,,M,,*55
06/03/2014	15:07:41.725	$GPGGA,150750,2543.8849,N,08009.7277,W,1,8,1.7,12,M,,M,,*52
06/03/2014	15:07:42.737	$GPGGA,150751,2543.8848,N,08009.7277,W,1,8,1.7,12,M,,M,,*52
06/03/2014	15:07:43.738	$GPGGA,150752,2543.8849,N,08009.7277,W,1,8,1.7,12,M,,M,,*50
06/03/2014	15:07:44.746	$GPGGA,150753,2543.8848,N,08009.7277,W,1,8,1.7,12,M,,M,,*50
06/03/2014	15:07:45.754	$GPGGA,150754,2543.8849,N,08009.7277,W,1,8,1.7,12,M,,M,,*56
06/03/2014	15:07:46.773	$GPGGA,150755,2543.8847,N,08009.7277,W,1,8,1.7,12,M,,M,,*59
06/03/2014	15:07:47.784	$GPGGA,150756,2543.8848,N,08009.7277,W,1,8,1.7,12,M,,M,,*55
06/03/2014	15:07:48.775	$GPGGA,150757,2543.8847,N,08009.7277,W,1,8,1.7,12,M,,M,,*5B
06/03/2014	15:07:49.800	$GPGGA,150758,2543.8846,N,08009.7277,W,1,8,1.7,12,M,,M,,*55
06/03/2014	15:07:50.809	$GPGGA,150759,2543.8846,N,08009.7277,W,1,8,1.7,12,M,,M,,*54
06/03/2014	15:07:51.841	$GPGGA,150800,2543.8846,N,08009.7277,W,1,8,1.7,12,M,,M,,*57
06/03/2014	15:07:52.836	$GPGGA,150801,2543.8848,N,08009.7276,W,1,8,1.5,12,M,,M,,*5B
06/03/2014	15:07:53.824	$GPGGA,150802,2543.8847,N,08009.7276,W,1,8,1.5,11,M,,M,,*54
06/03/2014	15:07:54.836	$GPGGA,150803,2543.8849,N,08009.7276,W,1,9,1.5,11,M,,M,,*5A
06/03/2014	15:07:55.857	$GPGGA,150804,2543.8848,N,08009.7276,W,1,9,1.7,11,M,,M,,*5E
06/03/2014	15:07:56.869	$GPGGA,150805,2543.8849,N,08009.7276,W,1,8,1.5,11,M,,M,,*5D
06/03/2014	15:07:57.871	$GPGGA,150806,2543.8848,N,08009.7276,W,1,8,1.5,11,M,,M,,*5F
06/03/2014	15:07:58.862	$GPGGA,150807,2543.8849,N,08009.7276,W,1,9,1.5,11,M,,M,,*5E
06/03/2014	15:07:59.884	$GPGGA,150808,2543.8847,N,08009.7276,W,1,9,1.5,11,M,,M,,*5F
06/03/2014	15:08:00.906	$GPGGA,150809,2543.8846,N,08009.7276,W,1,9,1.5,11,M,,M,,*5F
06/03/2014	15:08:01.896	$GPGGA,150810,2543.8846,N,08009.7276,W,1,9,1.7,11,M,,M,,*55
06/03/2014	15:08:02.908	$GPGGA,150811,2543.8846,N,08009.7276,W,1,8,1.7,11,M,,M,,*55
06/03/2014	15:08:03.960	$GPGGA,150812,2543.8844,N,08009.7277,W,1,8,1.5,11,M,,M,,*57
06/03/2014	15:08:04.941	$GPGGA,150813,2543.8846,N,08009.7276,W,1,9,1.5,11,M,,M,,*54
06/03/2014	15:08:05.963	$GPGGA,150814,2543.8848,N,08009.7276,W,1,9,1.5,11,M,,M,,*5D
06/03/2014	15:08:07.046	$GPGGA,150815,2543.8847,N,08009.7275,W,1,9,1.5,11,M,,M,,*50
06/03/2014	15:08:08.088	$GPGGA,150816,2543.8849,N,08009.7276,W,1,9,1.5,11,M,,M,,*5E
06/03/2014	15:08:09.079	$GPGGA,150817,2543.8848,N,08009.7275,W,1,9,1.5,11,M,,M,,*5D
06/03/2014	15:08:10.010	$GPGGA,150818,2543.8849,N,08009.7276,W,1,9,1.5,11,M,,M,,*50
06/03/2014	15:08:11.093	$GPGGA,150819,2543.8850,N,08009.7274,W,1,9,1.5,11,M,,M,,*5B
06/03/2014	15:08:12.023	$GPGGA,150820,2543.8852,N,08009.7273,W,1,9,1.5,11,M,,M,,*54
06/03/2014	15:08:13.146	$GPGGA,150821,2543.8853,N,08009.7273,W,1,9,1.5,11,M,,M,,*54
06/03/2014	15:08:14.105	$GPGGA,150822,2543.8853,N,08009.7273,W,1,9,1.5,11,M,,M,,*57
06/03/2014	15:08:15.149	$GPGGA,150823,2543.8855,N,08009.7272,W,1,9,1.5,11,M,,M,,*51
06/03/2014	15:08:16.171	$GPGGA,150824,2543.8854,N,08009.7272,W,1,9,1.5,11,M,,M,,*57
06/03/2014	15:08:17.142	$GPGGA,150825,2543.8855,N,08009.7272,W,1,9,1.5,11,M,,M,,*57
06/03/2014	15:08:18.064	$GPGGA,150826,2543.8856,N,08009.7272,W,1,9,1.5,11,M,,M,,*57
06/03/2014	15:08:19.166	$GPGGA,150827,2543.8855,N,08009.7272,W,1,9,1.5,11,M,,M,,*55
06/03/2014	15:08:20.197	$GPGGA,150828,2543.8856,N,08009.7272,W,1,9,1.5,11,M,,M,,*59
06/03/2014	15:08:21.188	$GPGGA,150829,2543.8855,N,08009.7272,W,1,9,1.5,11,M,,M,,*5B
06/03/2014	15:08:22.190	$GPGGA,150830,2543.8856,N,08009.7272,W,1,9,1.5,11,M,,M,,*50
06/03/2014	15:08:22.522	$GPGGA,150831,2543.8854,N,08009.7272,W,1,9,1.5,11,M,,M,,*53
06/03/2014	15:08:23.523	$GPGGA,150832,2543.8855,N,08009.7272,W,1,9,1.5,11,M,,M,,*51
06/03/2014	15:08:24.519	$GPGGA,150833,2543.8854,N,08009.7272,W,1,9,1.5,11,M,,M,,*51
06/03/2014	15:08:25.527	$GPGGA,150834,2543.8853,N,08009.7273,W,1,9,1.5,11,M,,M,,*50
06/03/2014	15:08:26.548	$GPGGA,150835,2543.8853,N,08009.7273,W,1,9,1.5,11,M,,M,,*51
06/03/2014	15:08:27.570	$GPGGA,150836,2543.8853,N,08009.7273,W,1,9,1.5,11,M,,M,,*52
06/03/2014	15:08:28.582	$GPGGA,150837,2543.8853,N,08009.7273,W,1,9,1.5,11,M,,M,,*53
06/03/2014	15:08:29.564	$GPGGA,150838,2543.8851,N,08009.7273,W,1,9,1.5,11,M,,M,,*5E
06/03/2014	15:08:30.605	$GPGGA,150839,2543.8852,N,08009.7273,W,1,9,1.5,11,M,,M,,*5C
06/03/2014	15:08:31.598	$GPGGA,150840,2543.8850,N,08009.7273,W,1,9,1.5,11,M,,M,,*50
06/03/2014	15:08:32.639	$GPGGA,150841,2543.8849,N,08009.7273,W,1,9,1.5,11,M,,M,,*59
06/03/2014	15:08:33.612	$GPGGA,150842,2543.8849,N,08009.7273,W,1,9,1.5,11,M,,M,,*5A
06/03/2014	15:08:34.642	$GPGGA,150843,2543.8848,N,08009.7273,W,1,9,1.5,11,M,,M,,*5A
06/03/2014	15:08:35.644	$GPGGA,150844,2543.8849,N,08009.7273,W,1,9,1.5,11,M,,M,,*5C
06/03/2014	15:08:36.624	$GPGGA,150845,2543.8848,N,08009.7273,W,1,9,1.5,11,M,,M,,*5C
06/03/2014	15:08:37.662	$GPGGA,150846,2543.8847,N,08009.7273,W,1,9,1.5,11,M,,M,,*50
06/03/2014	15:08:38.680	$GPGGA,150847,2543.8848,N,08009.7273,W,1,9,1.5,11,M,,M,,*5E
06/03/2014	15:08:39.679	$GPGGA,150848,2543.8846,N,08009.7273,W,1,9,1.5,11,M,,M,,*5F
06/03/2014	15:08:40.701	$GPGGA,150849,2543.8846,N,08009.7273,W,1,9,1.5,11,M,,M,,*5E
06/03/2014	15:08:41.682	$GPGGA,150850,2543.8846,N,08009.7273,W,1,9,1.5,11,M,,M,,*56
06/03/2014	15:08:42.684	$GPGGA,150851,2543.8846,N,08009.7274,W,1,9,1.5,11,M,,M,,*50
06/03/2014	15:08:43.716	$GPGGA,150852,2543.8844,N,08009.7274,W,1,9,1.5,11,M,,M,,*51
06/03/2014	15:08:44.707	$GPGGA,150853,2543.8845,N,08009.7274,W,1,9,1.5,11,M,,M,,*51
06/03/2014	15:08:45.729	$GPGGA,150854,2543.8845,N,08009.7274,W,1,9,1.5,11,M,,M,,*56
06/03/2014	15:08:46.751	$GPGGA,150855,2543.8845,N,08009.7274,W,1,9,1.5,11,M,,M,,*57
06/03/2014	15:08:47.753	$GPGGA,150856,2543.8844,N,08009.7276,W,1,9,1.5,11,M,,M,,*57
06/03/2014	15:08:48.774	$GPGGA,150857,2543.8845,N,08009.7275,W,1,9,1.5,11,M,,M,,*54
06/03/2014	15:08:49.746	$GPGGA,150858,2543.8844,N,08009.7276,W,1,9,1.5,11,M,,M,,*59
06/03/2014	15:08:50.767	$GPGGA,150859,2543.8845,N,08009.7275,W,1,9,1.5,11,M,,M,,*5A
06/03/2014	15:08:51.813	$GPGGA,150900,2543.8844,N,08009.7276,W,1,9,1.5,11,M,,M,,*55
06/03/2014	15:08:52.791	$GPGGA,150901,2543.8845,N,08009.7275,W,1,9,1.5,11,M,,M,,*56
06/03/2014	15:08:53.914	$GPGGA,150902,2543.8843,N,08009.7276,W,1,9,1.5,11,M,,M,,*50
06/03/2014	15:08:54.914	$GPGGA,150903,2543.8844,N,08009.7275,W,1,9,1.5,10,M,,M,,*54
06/03/2014	15:08:55.936	$GPGGA,150904,2543.8843,N,08009.7276,W,1,9,1.5,10,M,,M,,*57
06/03/2014	15:08:56.847	$GPGGA,150905,2543.8842,N,08009.7275,W,1,9,1.5,10,M,,M,,*54
06/03/2014	15:08:57.838	$GPGGA,150906,2543.8842,N,08009.7276,W,1,9,1.5,10,M,,M,,*54
06/03/2014	15:08:58.860	$GPGGA,150907,2543.8842,N,08009.7275,W,1,9,1.5,10,M,,M,,*56
06/03/2014	15:08:59.882	$GPGGA,150908,2543.8842,N,08009.7276,W,1,9,1.5,10,M,,M,,*5A
06/03/2014	15:09:00.974	$GPGGA,150909,2543.8842,N,08009.7275,W,1,9,1.5,10,M,,M,,*58
06/03/2014	15:09:01.885	$GPGGA,150910,2543.8840,N,08009.7276,W,1,9,1.5,10,M,,M,,*51
06/03/2014	15:09:02.887	$GPGGA,150911,2543.8841,N,08009.7275,W,1,9,1.5,10,M,,M,,*52
06/03/2014	15:09:04.010	$GPGGA,150912,2543.8840,N,08009.7276,W,1,9,1.5,10,M,,M,,*53
06/03/2014	15:09:05.011	$GPGGA,150913,2543.8839,N,08009.7275,W,1,9,1.5,10,M,,M,,*5F
06/03/2014	15:09:05.922	$GPGGA,150914,2543.8839,N,08009.7276,W,1,9,1.5,10,M,,M,,*5B
06/03/2014	15:09:07.014	$GPGGA,150915,2543.8839,N,08009.7276,W,1,9,1.5,10,M,,M,,*5A
06/03/2014	15:09:08.046	$GPGGA,150916,2543.8839,N,08009.7276,W,1,9,1.5,10,M,,M,,*59
06/03/2014	15:09:09.048	$GPGGA,150917,2543.8839,N,08009.7275,W,1,9,1.5,10,M,,M,,*5B
06/03/2014	15:09:10.058	$GPGGA,150918,2543.8837,N,08009.7276,W,1,9,1.5,10,M,,M,,*59
06/03/2014	15:09:11.081	$GPGGA,150919,2543.8838,N,08009.7275,W,1,9,1.5,10,M,,M,,*54
06/03/2014	15:09:12.081	$GPGGA,150920,2543.8837,N,08009.7276,W,1,9,1.5,10,M,,M,,*52
06/03/2014	15:09:13.102	$GPGGA,150921,2543.8838,N,08009.7275,W,1,9,1.5,10,M,,M,,*5F
06/03/2014	15:09:14.086	$GPGGA,150922,2543.8836,N,08009.7276,W,1,9,1.5,9,M,,M,,*69
06/03/2014	15:09:15.115	$GPGGA,150923,2543.8837,N,08009.7275,W,1,9,1.5,9,M,,M,,*6A
06/03/2014	15:09:16.128	$GPGGA,150924,2543.8836,N,08009.7274,W,1,9,1.5,9,M,,M,,*6D
06/03/2014	15:09:17.115	$GPGGA,150925,2543.8837,N,08009.7274,W,1,9,1.5,9,M,,M,,*6D
06/03/2014	15:09:18.138	$GPGGA,150926,2543.8836,N,08009.7274,W,1,9,1.5,9,M,,M,,*6F
06/03/2014	15:09:19.147	$GPGGA,150927,2543.8837,N,08009.7274,W,1,9,1.5,9,M,,M,,*6F
06/03/2014	15:09:20.157	$GPGGA,150928,2543.8836,N,08009.7276,W,1,9,1.5,9,M,,M,,*63
06/03/2014	15:09:21.171	$GPGGA,150929,2543.8837,N,08009.7275,W,1,9,1.5,9,M,,M,,*60
06/03/2014	15:09:22.158	$GPGGA,150930,2543.8836,N,08009.7276,W,1,9,1.5,9,M,,M,,*6A
06/03/2014	15:09:22.500	$GPGGA,150931,2543.8837,N,08009.7275,W,1,9,1.5,9,M,,M,,*69
06/03/2014	15:09:23.491	$GPGGA,150932,2543.8836,N,08009.7276,W,1,9,1.5,9,M,,M,,*68
06/03/2014	15:09:24.523	$GPGGA,150933,2543.8837,N,08009.7275,W,1,9,1.5,9,M,,M,,*6B
06/03/2014	15:09:25.494	$GPGGA,150934,2543.8836,N,08009.7276,W,1,9,1.5,9,M,,M,,*6E
06/03/2014	15:09:26.506	$GPGGA,150935,2543.8838,N,08009.7274,W,1,9,1.5,9,M,,M,,*63
06/03/2014	15:09:27.529	$GPGGA,150936,2543.8837,N,08009.7274,W,1,9,1.5,9,M,,M,,*6F
06/03/2014	15:09:28.557	$GPGGA,150937,2543.8838,N,08009.7274,W,1,9,1.5,9,M,,M,,*61
06/03/2014	15:09:29.530	$GPGGA,150938,2543.8839,N,08009.7274,W,1,9,1.5,9,M,,M,,*6F
06/03/2014	15:09:30.572	$GPGGA,150939,2543.8839,N,08009.7274,W,1,9,1.5,9,M,,M,,*6E
06/03/2014	15:09:31.563	$GPGGA,150940,2543.8839,N,08009.7274,W,1,9,1.5,9,M,,M,,*60
06/03/2014	15:09:32.570	$GPGGA,150941,2543.8839,N,08009.7273,W,1,9,1.5,9,M,,M,,*66
06/03/2014	15:09:33.576	$GPGGA,150942,2543.8841,N,08009.7273,W,1,9,1.7,9,M,,M,,*68
06/03/2014	15:09:34.572	$GPGGA,150943,2543.8839,N,08009.7276,W,1,8,1.7,9,M,,M,,*62
06/03/2014	15:09:35.597	$GPGGA,150944,2543.8839,N,08009.7277,W,1,8,1.5,9,M,,M,,*66
06/03/2014	15:09:36.623	$GPGGA,150945,2543.8837,N,08009.7280,W,1,9,1.5,9,M,,M,,*60
06/03/2014	15:09:37.579	$GPGGA,150946,2543.8838,N,08009.7279,W,1,9,1.5,9,M,,M,,*6A
06/03/2014	15:09:38.595	$GPGGA,150947,2543.8837,N,08009.7280,W,1,9,1.5,9,M,,M,,*62
06/03/2014	15:09:39.601	$GPGGA,150948,2543.8838,N,08009.7281,W,1,9,1.5,9,M,,M,,*63
06/03/2014	15:09:40.586	$GPGGA,150949,2543.8837,N,08009.7281,W,1,9,1.5,10,M,,M,,*55
06/03/2014	15:09:41.602	$GPGGA,150950,2543.8838,N,08009.7283,W,1,9,1.5,10,M,,M,,*50
06/03/2014	15:09:42.608	$GPGGA,150951,2543.8839,N,08009.7282,W,1,9,1.5,10,M,,M,,*51
06/03/2014	15:09:43.624	$GPGGA,150952,2543.8837,N,08009.7283,W,1,9,1.5,10,M,,M,,*5D
06/03/2014	15:09:44.599	$GPGGA,150953,2543.8838,N,08009.7283,W,1,9,1.5,10,M,,M,,*53
06/03/2014	15:09:45.726	$GPGGA,150954,2543.8837,N,08009.7283,W,1,9,1.5,10,M,,M,,*5B
06/03/2014	15:09:46.630	$GPGGA,150955,2543.8838,N,08009.7283,W,1,9,1.5,10,M,,M,,*55
06/03/2014	15:09:47.726	$GPGGA,150956,2543.8837,N,08009.7283,W,1,9,1.5,10,M,,M,,*59
06/03/2014	15:09:48.742	$GPGGA,150957,2543.8838,N,08009.7283,W,1,9,1.5,11,M,,M,,*56
06/03/2014	15:09:49.718	$GPGGA,150958,2543.8839,N,08009.7282,W,1,9,1.5,11,M,,M,,*59
06/03/2014	15:09:50.633	$GPGGA,150959,2543.8839,N,08009.7283,W,1,9,1.5,11,M,,M,,*59
06/03/2014	15:09:51.750	$GPGGA,151000,2543.8839,N,08009.7282,W,1,9,1.5,11,M,,M,,*5C
06/03/2014	15:09:52.776	$GPGGA,151001,2543.8839,N,08009.7281,W,1,9,1.5,11,M,,M,,*5E
06/03/2014	15:09:53.731	$GPGGA,151002,2543.8839,N,08009.7281,W,1,9,1.5,11,M,,M,,*5D
06/03/2014	15:09:54.737	$GPGGA,151003,2543.8841,N,08009.7281,W,1,9,1.5,11,M,,M,,*53
06/03/2014	15:09:55.763	$GPGGA,151004,2543.8840,N,08009.7281,W,1,9,1.5,11,M,,M,,*55
06/03/2014	15:09:56.748	$GPGGA,151005,2543.8842,N,08009.7280,W,1,9,1.5,12,M,,M,,*54
06/03/2014	15:09:57.744	$GPGGA,151006,2543.8842,N,08009.7280,W,1,9,1.5,12,M,,M,,*57
06/03/2014	15:09:58.780	$GPGGA,151007,2543.8842,N,08009.7280,W,1,9,1.5,12,M,,M,,*56
06/03/2014	15:09:59.766	$GPGGA,151008,2543.8842,N,08009.7280,W,1,9,1.5,12,M,,M,,*59
06/03/2014	15:10:00.802	$GPGGA,151009,2543.8842,N,08009.7280,W,1,9,1.5,12,M,,M,,*58
06/03/2014	15:10:01.768	$GPGGA,151010,2543.8842,N,08009.7280,W,1,9,1.5,12,M,,M,,*50
06/03/2014	15:10:02.793	$GPGGA,151011,2543.8842,N,08009.7280,W,1,9,1.5,12,M,,M,,*51
06/03/2014	15:10:03.789	$GPGGA,151012,2543.8842,N,08009.7280,W,1,9,1.5,12,M,,M,,*52
06/03/2014	15:10:04.804	$GPGGA,151013,2543.8842,N,08009.7280,W,1,9,1.5,12,M,,M,,*53
06/03/2014	15:10:05.781	$GPGGA,151014,2543.8842,N,08009.7280,W,1,9,1.5,12,M,,M,,*54
06/03/2014	15:10:06.805	$GPGGA,151015,2543.8842,N,08009.7279,W,1,9,1.5,13,M,,M,,*52
06/03/2014	15:10:07.801	$GPGGA,151016,2543.8842,N,08009.7280,W,1,9,1.5,13,M,,M,,*57
06/03/2014	15:10:08.817	$GPGGA,151017,2543.8842,N,08009.7278,W,1,9,1.5,13,M,,M,,*51
06/03/2014	15:10:09.803	$GPGGA,151018,2543.8842,N,08009.7277,W,1,9,1.5,13,M,,M,,*51
06/03/2014	15:10:10.829	$GPGGA,151019,2543.8842,N,08009.7277,W,1,9,1.5,13,M,,M,,*50
06/03/2014	15:10:11.814	$GPGGA,151020,2543.8844,N,08009.7277,W,1,9,1.5,13,M,,M,,*5C
06/03/2014	15:10:12.810	$GPGGA,151021,2543.8843,N,08009.7277,W,1,9,1.5,13,M,,M,,*5A
06/03/2014	15:10:13.816	$GPGGA,151022,2543.8844,N,08009.7276,W,1,9,1.5,13,M,,M,,*5F
06/03/2014	15:10:14.832	$GPGGA,151023,2543.8843,N,08009.7276,W,1,9,1.5,13,M,,M,,*59
06/03/2014	15:10:15.839	$GPGGA,151024,2543.8845,N,08009.7275,W,1,9,1.5,13,M,,M,,*5B
06/03/2014	15:10:16.813	$GPGGA,151025,2543.8844,N,08009.7276,W,1,9,1.5,13,M,,M,,*58
06/03/2014	15:10:17.829	$GPGGA,151026,2543.8845,N,08009.7274,W,1,9,1.5,13,M,,M,,*58
06/03/2014	15:10:18.865	$GPGGA,151027,2543.8846,N,08009.7274,W,1,9,1.5,13,M,,M,,*5A
06/03/2014	15:10:19.851	$GPGGA,151028,2543.8846,N,08009.7273,W,1,9,1.5,13,M,,M,,*52
06/03/2014	15:10:20.826	$GPGGA,151029,2543.8846,N,08009.7272,W,1,8,1.7,13,M,,M,,*51
06/03/2014	15:10:21.851	$GPGGA,151030,2543.8846,N,08009.7271,W,1,8,1.7,13,M,,M,,*5A
06/03/2014	15:10:22.454	$GPGGA,151031,2543.8848,N,08009.7270,W,1,8,1.7,13,M,,M,,*54
06/03/2014	15:10:23.450	$GPGGA,151032,2543.8847,N,08009.7269,W,1,8,1.7,13,M,,M,,*50
06/03/2014	15:10:24.456	$GPGGA,151033,2543.8849,N,08009.7269,W,1,8,1.7,13,M,,M,,*5F
06/03/2014	15:10:25.462	$GPGGA,151034,2543.8848,N,08009.7269,W,1,8,1.7,13,M,,M,,*59
06/03/2014	15:10:26.487	$GPGGA,151035,2543.8849,N,08009.7268,W,1,8,1.7,13,M,,M,,*58
06/03/2014	15:10:27.483	$GPGGA,151036,2543.8849,N,08009.7269,W,1,8,1.7,13,M,,M,,*5A
06/03/2014	15:10:28.489	$GPGGA,151037,2543.8849,N,08009.7267,W,1,8,1.7,13,M,,M,,*55
06/03/2014	15:10:29.475	$GPGGA,151038,2543.8849,N,08009.7267,W,1,8,1.7,13,M,,M,,*5A
06/03/2014	15:10:30.672	$GPGGA,151039,2543.8850,N,08009.7266,W,1,8,1.7,13,M,,M,,*52
06/03/2014	15:10:31.496	$GPGGA,151040,2543.8850,N,08009.7266,W,1,8,1.7,13,M,,M,,*5C
06/03/2014	15:10:32.482	$GPGGA,151041,2543.8850,N,08009.7266,W,1,8,1.7,13,M,,M,,*5D
06/03/2014	15:10:33.498	$GPGGA,151042,2543.8850,N,08009.7266,W,1,8,1.7,13,M,,M,,*5E
06/03/2014	15:10:34.484	$GPGGA,151043,2543.8852,N,08009.7266,W,1,8,1.7,13,M,,M,,*5D
06/03/2014	15:10:35.499	$GPGGA,151044,2543.8851,N,08009.7265,W,1,8,1.7,13,M,,M,,*5A
06/03/2014	15:10:36.505	$GPGGA,151045,2543.8852,N,08009.7265,W,1,8,1.7,13,M,,M,,*58
06/03/2014	15:10:37.592	$GPGGA,151046,2543.8851,N,08009.7265,W,1,8,1.7,13,M,,M,,*58
06/03/2014	15:10:38.687	$GPGGA,151047,2543.8852,N,08009.7265,W,1,8,1.7,13,M,,M,,*5A
06/03/2014	15:10:39.662	$GPGGA,151048,2543.8851,N,08009.7266,W,1,8,1.7,13,M,,M,,*55
06/03/2014	15:10:40.507	$GPGGA,151049,2543.8852,N,08009.7266,W,1,8,1.7,13,M,,M,,*57
06/03/2014	15:10:41.604	$GPGGA,151050,2543.8853,N,08009.7266,W,1,8,1.7,13,M,,M,,*5E
06/03/2014	15:10:42.720	$GPGGA,151051,2543.8853,N,08009.7266,W,1,8,1.7,13,M,,M,,*5F
06/03/2014	15:10:43.625	$GPGGA,151052,2543.8853,N,08009.7267,W,1,8,1.7,13,M,,M,,*5D
06/03/2014	15:10:44.611	$GPGGA,151053,2543.8853,N,08009.7267,W,1,8,1.7,13,M,,M,,*5C
06/03/2014	15:10:45.617	$GPGGA,151054,2543.8853,N,08009.7267,W,1,8,1.7,13,M,,M,,*5B
06/03/2014	15:10:46.623	$GPGGA,151055,2543.8853,N,08009.7267,W,1,8,1.7,13,M,,M,,*5A
06/03/2014	15:10:47.638	$GPGGA,151056,2543.8853,N,08009.7267,W,1,8,1.7,13,M,,M,,*59
06/03/2014	15:10:48.745	$GPGGA,151057,2543.8853,N,08009.7267,W,1,9,1.5,13,M,,M,,*5B
06/03/2014	15:10:49.640	$GPGGA,151058,2543.8853,N,08009.7267,W,1,9,1.5,13,M,,M,,*54
06/03/2014	15:10:50.746	$GPGGA,151059,2543.8853,N,08009.7267,W,1,9,1.5,14,M,,M,,*52
06/03/2014	15:10:51.712	$GPGGA,151100,2543.8853,N,08009.7267,W,1,9,1.5,14,M,,M,,*5F
06/03/2014	15:10:52.760	$GPGGA,151101,2543.8853,N,08009.7267,W,1,9,1.5,14,M,,M,,*5E
06/03/2014	15:10:53.653	$GPGGA,151102,2543.8853,N,08009.7269,W,1,9,1.5,14,M,,M,,*53
06/03/2014	15:10:54.770	$GPGGA,151103,2543.8853,N,08009.7267,W,1,9,1.5,14,M,,M,,*5C
06/03/2014	15:10:55.705	$GPGGA,151104,2543.8853,N,08009.7267,W,1,9,1.5,14,M,,M,,*5B
06/03/2014	15:10:56.720	$GPGGA,151105,2543.8853,N,08009.7267,W,1,8,1.7,14,M,,M,,*59
06/03/2014	15:10:57.685	$GPGGA,151106,2543.8853,N,08009.7269,W,1,8,1.7,14,M,,M,,*54
06/03/2014	15:10:58.782	$GPGGA,151107,2543.8851,N,08009.7269,W,1,8,1.7,14,M,,M,,*57
06/03/2014	15:10:59.717	$GPGGA,151108,2543.8852,N,08009.7269,W,1,8,1.7,14,M,,M,,*5B
06/03/2014	15:11:00.796	$GPGGA,151109,2543.8851,N,08009.7269,W,1,8,1.7,14,M,,M,,*59
06/03/2014	15:11:01.709	$GPGGA,151110,2543.8850,N,08009.7270,W,1,8,1.7,14,M,,M,,*58
06/03/2014	15:11:02.785	$GPGGA,151111,2543.8850,N,08009.7270,W,1,8,1.7,14,M,,M,,*59
06/03/2014	15:11:03.720	$GPGGA,151112,2543.8850,N,08009.7270,W,1,8,1.7,14,M,,M,,*5A
06/03/2014	15:11:04.786	$GPGGA,151113,2543.8849,N,08009.7272,W,1,8,1.7,14,M,,M,,*51
06/03/2014	15:11:05.702	$GPGGA,151114,2543.8849,N,08009.7271,W,1,8,1.7,14,M,,M,,*55
06/03/2014	15:11:06.697	$GPGGA,151115,2543.8848,N,08009.7272,W,1,8,1.7,14,M,,M,,*56
06/03/2014	15:11:07.753	$GPGGA,151116,2543.8849,N,08009.7272,W,1,8,1.7,14,M,,M,,*54
06/03/2014	15:11:08.830	$GPGGA,151117,2543.8848,N,08009.7272,W,1,8,1.7,14,M,,M,,*54
06/03/2014	15:11:09.705	$GPGGA,151118,2543.8849,N,08009.7273,W,1,8,1.7,15,M,,M,,*5A
06/03/2014	15:11:10.801	$GPGGA,151119,2543.8848,N,08009.7273,W,1,8,1.7,15,M,,M,,*5A
06/03/2014	15:11:11.757	$GPGGA,151120,2543.8849,N,08009.7272,W,1,8,1.7,15,M,,M,,*50
06/03/2014	15:11:12.843	$GPGGA,151121,2543.8849,N,08009.7271,W,1,7,1.8,15,M,,M,,*52
06/03/2014	15:11:13.718	$GPGGA,151122,2543.8850,N,08009.7272,W,1,7,1.8,15,M,,M,,*5A
06/03/2014	15:11:14.884	$GPGGA,151123,2543.8850,N,08009.7270,W,1,7,1.8,15,M,,M,,*59
06/03/2014	15:11:15.739	$GPGGA,151124,2543.8852,N,08009.7270,W,1,7,1.8,15,M,,M,,*5C
06/03/2014	15:11:16.815	$GPGGA,151125,2543.8853,N,08009.7269,W,1,7,1.8,15,M,,M,,*54
06/03/2014	15:11:17.730	$GPGGA,151126,2543.8853,N,08009.7269,W,1,7,1.8,15,M,,M,,*57
06/03/2014	15:11:18.887	$GPGGA,151127,2543.8853,N,08009.7269,W,1,7,1.8,15,M,,M,,*56
06/03/2014	15:11:19.802	$GPGGA,151128,2543.8855,N,08009.7268,W,1,7,1.8,15,M,,M,,*5E
06/03/2014	15:11:20.838	$GPGGA,151129,2543.8854,N,08009.7269,W,1,7,1.7,15,M,,M,,*50
06/03/2014	15:11:21.793	$GPGGA,151130,2543.8855,N,08009.7272,W,1,7,1.7,15,M,,M,,*53
06/03/2014	15:11:22.522	$GPGGA,151131,2543.8854,N,08009.7271,W,1,8,1.7,15,M,,M,,*5F
06/03/2014	15:11:23.484	$GPGGA,151132,2543.8855,N,08009.7273,W,1,8,1.7,15,M,,M,,*5F
06/03/2014	15:11:24.533	$GPGGA,151133,2543.8854,N,08009.7273,W,1,8,1.7,15,M,,M,,*5F
06/03/2014	15:11:25.459	$GPGGA,151134,2543.8856,N,08009.7274,W,1,8,1.7,16,M,,M,,*5E
06/03/2014	15:11:26.525	$GPGGA,151135,2543.8857,N,08009.7273,W,1,8,1.8,16,M,,M,,*56
06/03/2014	15:11:27.561	$GPGGA,151136,2543.8857,N,08009.7272,W,1,8,1.7,16,M,,M,,*5B
06/03/2014	15:11:28.536	$GPGGA,151137,2543.8857,N,08009.7272,W,1,8,1.7,16,M,,M,,*5A
06/03/2014	15:11:29.532	$GPGGA,151138,2543.8857,N,08009.7272,W,1,8,1.7,16,M,,M,,*55
06/03/2014	15:11:30.558	$GPGGA,151139,2543.8857,N,08009.7271,W,1,8,1.7,16,M,,M,,*57
06/03/2014	15:11:31.563	$GPGGA,151140,2543.8859,N,08009.7270,W,1,8,1.8,16,M,,M,,*59
06/03/2014	15:11:32.579	$GPGGA,151141,2543.8858,N,08009.7269,W,1,7,1.8,16,M,,M,,*5E
06/03/2014	15:11:33.554	$GPGGA,151142,2543.8859,N,08009.7269,W,1,7,1.8,16,M,,M,,*5C
06/03/2014	15:11:34.570	$GPGGA,151143,2543.8860,N,08009.7268,W,1,7,1.8,16,M,,M,,*56
06/03/2014	15:11:35.576	$GPGGA,151144,2543.8860,N,08009.7267,W,1,7,1.8,16,M,,M,,*5E
06/03/2014	15:11:36.582	$GPGGA,151145,2543.8860,N,08009.7267,W,1,7,1.7,16,M,,M,,*50
06/03/2014	15:11:37.561	$GPGGA,151146,2543.8860,N,08009.7267,W,1,7,1.7,16,M,,M,,*53
06/03/2014	15:11:38.613	$GPGGA,151147,2543.8860,N,08009.7266,W,1,8,1.7,16,M,,M,,*5C
06/03/2014	15:11:39.609	$GPGGA,151148,2543.8862,N,08009.7266,W,1,8,1.7,16,M,,M,,*51
06/03/2014	15:11:40.635	$GPGGA,151149,2543.8861,N,08009.7266,W,1,8,1.7,16,M,,M,,*53
06/03/2014	15:11:41.584	$GPGGA,151150,2543.8863,N,08009.7265,W,1,8,1.7,16,M,,M,,*5A
06/03/2014	15:11:42.617	$GPGGA,151151,2543.8862,N,08009.7264,W,1,8,1.7,16,M,,M,,*5B
06/03/2014	15:11:43.622	$GPGGA,151152,2543.8863,N,08009.7263,W,1,8,1.7,16,M,,M,,*5E
06/03/2014	15:11:44.628	$GPGGA,151153,2543.8863,N,08009.7263,W,1,8,1.7,16,M,,M,,*5F
06/03/2014	15:11:45.594	$GPGGA,151154,2543.8864,N,08009.7263,W,1,8,1.7,16,M,,M,,*5F
06/03/2014	15:11:46.620	$GPGGA,151155,2543.8864,N,08009.7263,W,1,7,1.8,16,M,,M,,*5E
06/03/2014	15:11:47.615	$GPGGA,151156,2543.8862,N,08009.7265,W,1,7,1.7,16,M,,M,,*52
06/03/2014	15:11:48.680	$GPGGA,151157,2543.8863,N,08009.7265,W,1,8,1.8,16,M,,M,,*52
