Software Version Number: 1	Data File Format Number: 1	Build Version Number: 1	Error Count Since VI Started: 0	Manufacturer: Raytheon	 Model Number: RayMarine 120	 S/N: 	 Cal Date: 	 Wind Direction Offset: 0.00	 Slope (M)1: 0.00	 Offset (B)1: 0.00	 Slope (M)2: 0.00	 Offset (B)2: 0.00	 Slope (M)3: 0.00	 Offset (B)3: 0.00	 Slope (M)4: 0.00	 Offset (B)4: 0.00	 Slope (M)5: 0.00	 Offset (B)5: 0.00	 Slope (M)6: 0.00	 Offset (B)6: 0.00
Computer Date	Computer Time	GGA String
06/05/2014	23:00:00.679	$GPGGA,230001,2426.2357,N,08121.4885,W,1,10,1.5,19,M,,M,,*67
06/05/2014	23:00:01.678	$GPGGA,230002,2426.2337,N,08121.4884,W,1,10,1.5,19,M,,M,,*63
06/05/2014	23:00:02.704	$GPGGA,230003,2426.2316,N,08121.4881,W,1,10,1.5,19,M,,M,,*64
06/05/2014	23:00:03.690	$GPGGA,230004,2426.2296,N,08121.4878,W,1,10,1.5,19,M,,M,,*6C
06/05/2014	23:00:04.676	$GPGGA,230005,2426.2276,N,08121.4876,W,1,10,1.5,19,M,,M,,*6D
06/05/2014	23:00:05.692	$GPGGA,230006,2426.2254,N,08121.4875,W,1,10,1.5,19,M,,M,,*6D
06/05/2014	23:00:06.698	$GPGGA,230007,2426.2234,N,08121.4873,W,1,10,1.5,19,M,,M,,*6C
06/05/2014	23:00:07.714	$GPGGA,230008,2426.2215,N,08121.4870,W,1,10,1.5,19,M,,M,,*63
06/05/2014	23:00:08.730	$GPGGA,230009,2426.2194,N,08121.4867,W,1,10,1.5,19,M,,M,,*6E
06/05/2014	23:00:09.716	$GPGGA,230010,2426.2175,N,08121.4866,W,1,10,1.5,19,M,,M,,*68
06/05/2014	23:00:10.712	$GPGGA,230011,2426.2154,N,08121.4864,W,1,10,1.5,19,M,,M,,*68
06/05/2014	23:00:11.738	$GPGGA,230012,2426.2133,N,08121.4861,W,1,10,1.5,19,M,,M,,*6F
06/05/2014	23:00:12.714	$GPGGA,230013,2426.2113,N,08121.4860,W,1,10,1.5,19,M,,M,,*6D
06/05/2014	23:00:13.720	$GPGGA,230014,2426.2093,N,08121.4858,W,1,10,1.5,19,M,,M,,*68
06/05/2014	23:00:14.715	$GPGGA,230015,2426.2074,N,08121.4856,W,1,10,1.5,19,M,,M,,*6E
06/05/2014	23:00:15.751	$GPGGA,230016,2426.2053,N,08121.4854,W,1,10,1.5,19,M,,M,,*6A
06/05/2014	23:00:16.747	$GPGGA,230017,2426.2032,N,08121.4852,W,1,9,1.5,19,M,,M,,*52
06/05/2014	23:00:17.733	$GPGGA,230018,2426.2011,N,08121.4851,W,1,9,1.5,19,M,,M,,*5F
06/05/2014	23:00:18.759	$GPGGA,230019,2426.1991,N,08121.4850,W,1,10,1.5,19,M,,M,,*65
06/05/2014	23:00:19.765	$GPGGA,230020,2426.1969,N,08121.4848,W,1,10,1.5,19,M,,M,,*61
06/05/2014	23:00:20.741	$GPGGA,230021,2426.1949,N,08121.4846,W,1,10,1.5,19,M,,M,,*6C
06/05/2014	23:00:21.767	$GPGGA,230022,2426.1929,N,08121.4846,W,1,10,1.5,19,M,,M,,*69
06/05/2014	23:00:22.793	$GPGGA,230023,2426.1909,N,08121.4845,W,1,10,1.5,19,M,,M,,*69
06/05/2014	23:00:23.789	$GPGGA,230024,2426.1889,N,08121.4842,W,1,10,1.5,19,M,,M,,*60
06/05/2014	23:00:24.755	$GPGGA,230025,2426.1868,N,08121.4840,W,1,10,1.5,19,M,,M,,*6C
06/05/2014	23:00:25.771	$GPGGA,230026,2426.1848,N,08121.4842,W,1,10,1.5,19,M,,M,,*6F
06/05/2014	23:00:26.868	$GPGGA,230027,2426.1828,N,08121.4841,W,1,10,1.5,19,M,,M,,*6B
06/05/2014	23:00:27.803	$GPGGA,230028,2426.1807,N,08121.4837,W,1,10,1.5,19,M,,M,,*68
06/05/2014	23:00:28.779	$GPGGA,230029,2426.1788,N,08121.4838,W,1,10,1.5,19,M,,M,,*6E
06/05/2014	23:00:29.886	$GPGGA,230030,2426.1767,N,08121.4838,W,1,10,1.5,19,M,,M,,*67
06/05/2014	23:00:30.801	$GPGGA,230031,2426.1747,N,08121.4836,W,1,10,1.5,20,M,,M,,*60
06/05/2014	23:00:31.927	$GPGGA,230032,2426.1727,N,08121.4835,W,1,10,1.5,20,M,,M,,*66
06/05/2014	23:00:32.792	$GPGGA,230033,2426.1707,N,08121.4835,W,1,10,1.5,20,M,,M,,*65
06/05/2014	23:00:33.808	$GPGGA,230034,2426.1687,N,08121.4835,W,1,10,1.5,20,M,,M,,*6B
06/05/2014	23:00:34.915	$GPGGA,230035,2426.1667,N,08121.4835,W,1,10,1.5,20,M,,M,,*64
06/05/2014	23:00:35.563	$GPGGA,230036,2426.1647,N,08121.4833,W,1,10,1.5,20,M,,M,,*63
06/05/2014	23:00:36.589	$GPGGA,230037,2426.1626,N,08121.4834,W,1,10,1.5,20,M,,M,,*62
06/05/2014	23:00:37.554	$GPGGA,230038,2426.1606,N,08121.4834,W,1,10,1.5,20,M,,M,,*6F
06/05/2014	23:00:38.560	$GPGGA,230039,2426.1586,N,08121.4835,W,1,10,1.5,20,M,,M,,*64
06/05/2014	23:00:40.603	$GPGGA,230041,2426.1546,N,08121.4834,W,1,10,1.5,20,M,,M,,*66
06/05/2014	23:00:41.578	$GPGGA,230042,2426.1526,N,08121.4833,W,1,10,1.5,20,M,,M,,*64
06/05/2014	23:00:42.605	$GPGGA,230043,2426.1507,N,08121.4832,W,1,10,1.5,20,M,,M,,*67
06/05/2014	23:00:43.590	$GPGGA,230044,2426.1486,N,08121.4834,W,1,10,1.5,20,M,,M,,*6E
06/05/2014	23:00:44.596	$GPGGA,230045,2426.1465,N,08121.4833,W,1,9,2.2,20,M,,M,,*59
06/05/2014	23:00:45.593	$GPGGA,230046,2426.1445,N,08121.4832,W,1,9,2.2,20,M,,M,,*59
06/05/2014	23:00:46.618	$GPGGA,230047,2426.1424,N,08121.4834,W,1,10,1.5,20,M,,M,,*65
06/05/2014	23:00:47.608	$GPGGA,230048,2426.1405,N,08121.4833,W,1,10,1.5,20,M,,M,,*6E
06/05/2014	23:00:48.600	$GPGGA,230049,2426.1385,N,08121.4834,W,1,10,1.5,21,M,,M,,*66
06/05/2014	23:00:49.595	$GPGGA,230050,2426.1366,N,08121.4837,W,1,10,1.5,21,M,,M,,*60
06/05/2014	23:00:50.631	$GPGGA,230051,2426.1345,N,08121.4837,W,1,10,1.5,21,M,,M,,*60
06/05/2014	23:00:51.627	$GPGGA,230052,2426.1324,N,08121.4837,W,1,10,1.5,21,M,,M,,*64
06/05/2014	23:00:52.653	$GPGGA,230053,2426.1304,N,08121.4838,W,1,10,1.5,21,M,,M,,*68
06/05/2014	23:00:53.629	$GPGGA,230054,2426.1283,N,08121.4841,W,1,10,1.5,21,M,,M,,*6F
06/05/2014	23:00:54.615	$GPGGA,230055,2426.1263,N,08121.4842,W,1,10,1.5,21,M,,M,,*63
06/05/2014	23:00:55.661	$GPGGA,230056,2426.1243,N,08121.4842,W,1,10,1.5,21,M,,M,,*62
06/05/2014	23:00:56.627	$GPGGA,230057,2426.1223,N,08121.4844,W,1,10,1.5,21,M,,M,,*63
06/05/2014	23:00:57.643	$GPGGA,230058,2426.1203,N,08121.4845,W,1,10,1.5,21,M,,M,,*6F
06/05/2014	23:00:58.639	$GPGGA,230059,2426.1183,N,08121.4848,W,1,10,1.5,21,M,,M,,*68
06/05/2014	23:00:59.675	$GPGGA,230100,2426.1162,N,08121.4847,W,1,10,1.5,21,M,,M,,*65
06/05/2014	23:01:00.681	$GPGGA,230101,2426.1142,N,08121.4849,W,1,10,1.5,21,M,,M,,*68
06/05/2014	23:01:01.647	$GPGGA,230102,2426.1121,N,08121.4852,W,1,10,2.2,21,M,,M,,*60
06/05/2014	23:01:02.653	$GPGGA,230103,2426.1102,N,08121.4855,W,1,9,2.2,21,M,,M,,*5F
06/05/2014	23:01:03.679	$GPGGA,230104,2426.1082,N,08121.4855,W,1,9,2.3,21,M,,M,,*50
06/05/2014	23:01:04.675	$GPGGA,230105,2426.1063,N,08121.4855,W,1,9,2.2,21,M,,M,,*5F
06/05/2014	23:01:05.681	$GPGGA,230106,2426.1042,N,08121.4856,W,1,9,1.5,21,M,,M,,*58
06/05/2014	23:01:06.706	$GPGGA,230107,2426.1022,N,08121.4856,W,1,10,1.5,21,M,,M,,*67
06/05/2014	23:01:07.692	$GPGGA,230108,2426.1001,N,08121.4856,W,1,10,1.5,21,M,,M,,*69
06/05/2014	23:01:08.718	$GPGGA,230109,2426.0980,N,08121.4859,W,1,10,1.5,21,M,,M,,*66
06/05/2014	23:01:09.674	$GPGGA,230110,2426.0961,N,08121.4860,W,1,10,2.2,21,M,,M,,*6F
06/05/2014	23:01:10.700	$GPGGA,230111,2426.0941,N,08121.4861,W,1,9,2.2,21,M,,M,,*55
06/05/2014	23:01:11.716	$GPGGA,230112,2426.0921,N,08121.4858,W,1,9,2.2,21,M,,M,,*5A
06/05/2014	23:01:12.803	$GPGGA,230113,2426.0902,N,08121.4859,W,1,10,1.5,21,M,,M,,*67
06/05/2014	23:01:13.708	$GPGGA,230114,2426.0882,N,08121.4860,W,1,10,1.5,21,M,,M,,*63
06/05/2014	23:01:14.714	$GPGGA,230115,2426.0862,N,08121.4860,W,1,9,2.2,21,M,,M,,*50
06/05/2014	23:01:15.730	$GPGGA,230116,2426.0842,N,08121.4863,W,1,9,2.2,21,M,,M,,*52
06/05/2014	23:01:16.827	$GPGGA,230117,2426.0820,N,08121.4864,W,1,9,2.2,21,M,,M,,*50
06/05/2014	23:01:17.722	$GPGGA,230118,2426.0800,N,08121.4867,W,1,9,2.2,21,M,,M,,*5E
06/05/2014	23:01:18.840	$GPGGA,230119,2426.0781,N,08121.4868,W,1,9,2.2,21,M,,M,,*56
06/05/2014	23:01:19.725	$GPGGA,230120,2426.0761,N,08121.4868,W,1,9,2.2,21,M,,M,,*52
06/05/2014	23:01:20.740	$GPGGA,230121,2426.0742,N,08121.4865,W,1,9,2.2,21,M,,M,,*5F
06/05/2014	23:01:21.826	$GPGGA,230122,2426.0723,N,08121.4866,W,1,9,1.5,21,M,,M,,*5C
06/05/2014	23:01:22.832	$GPGGA,230123,2426.0701,N,08121.4865,W,1,9,2.2,21,M,,M,,*5A
06/05/2014	23:01:23.849	$GPGGA,230124,2426.0681,N,08121.4866,W,1,9,1.5,21,M,,M,,*53
06/05/2014	23:01:24.874	$GPGGA,230125,2426.0661,N,08121.4867,W,1,10,1.5,21,M,,M,,*65
06/05/2014	23:01:25.849	$GPGGA,230126,2426.0640,N,08121.4867,W,1,10,1.5,21,M,,M,,*65
06/05/2014	23:01:26.845	$GPGGA,230127,2426.0620,N,08121.4868,W,1,10,1.5,21,M,,M,,*6D
06/05/2014	23:01:27.872	$GPGGA,230128,2426.0600,N,08121.4870,W,1,10,1.5,21,M,,M,,*69
06/05/2014	23:01:28.867	$GPGGA,230129,2426.0582,N,08121.4869,W,1,9,2.2,21,M,,M,,*55
06/05/2014	23:01:29.863	$GPGGA,230130,2426.0561,N,08121.4870,W,1,9,2.2,21,M,,M,,*58
06/05/2014	23:01:30.879	$GPGGA,230131,2426.0542,N,08121.4871,W,1,9,2.2,20,M,,M,,*58
06/05/2014	23:01:31.875	$GPGGA,230132,2426.0519,N,08121.4871,W,1,9,1.5,20,M,,M,,*51
06/05/2014	23:01:32.881	$GPGGA,230133,2426.0499,N,08121.4873,W,1,10,1.5,20,M,,M,,*63
06/05/2014	23:01:33.877	$GPGGA,230134,2426.0479,N,08121.4874,W,1,10,2.2,20,M,,M,,*69
06/05/2014	23:01:34.873	$GPGGA,230135,2426.0459,N,08121.4871,W,1,10,1.5,20,M,,M,,*6B
06/05/2014	23:01:35.540	$GPGGA,230136,2426.0441,N,08121.4873,W,1,10,1.5,20,M,,M,,*63
06/05/2014	23:01:36.546	$GPGGA,230137,2426.0420,N,08121.4872,W,1,9,2.2,20,M,,M,,*58
06/05/2014	23:01:37.532	$GPGGA,230138,2426.0401,N,08121.4871,W,1,9,2.2,20,M,,M,,*57
06/05/2014	23:01:39.806	$GPGGA,230140,2426.0358,N,08121.4869,W,1,10,1.5,20,M,,M,,*66
06/05/2014	23:01:40.580	$GPGGA,230141,2426.0337,N,08121.4867,W,1,10,1.5,20,M,,M,,*60
06/05/2014	23:01:41.546	$GPGGA,230142,2426.0318,N,08121.4868,W,1,10,1.5,20,M,,M,,*61
06/05/2014	23:01:42.551	$GPGGA,230143,2426.0300,N,08121.4867,W,1,10,1.5,20,M,,M,,*66
06/05/2014	23:01:43.567	$GPGGA,230144,2426.0280,N,08121.4865,W,1,10,1.5,20,M,,M,,*6A
06/05/2014	23:01:44.583	$GPGGA,230145,2426.0260,N,08121.4864,W,1,10,1.5,20,M,,M,,*64
06/05/2014	23:01:45.559	$GPGGA,230146,2426.0242,N,08121.4866,W,1,10,1.5,20,M,,M,,*65
06/05/2014	23:01:46.596	$GPGGA,230147,2426.0220,N,08121.4864,W,1,10,1.5,20,M,,M,,*62
06/05/2014	23:01:47.591	$GPGGA,230148,2426.0200,N,08121.4863,W,1,10,1.5,20,M,,M,,*68
06/05/2014	23:01:48.577	$GPGGA,230149,2426.0181,N,08121.4862,W,1,10,1.5,20,M,,M,,*62
06/05/2014	23:01:49.593	$GPGGA,230150,2426.0161,N,08121.4863,W,1,10,1.5,20,M,,M,,*65
06/05/2014	23:01:50.599	$GPGGA,230151,2426.0142,N,08121.4864,W,1,10,1.5,20,M,,M,,*62
06/05/2014	23:01:51.605	$GPGGA,230152,2426.0123,N,08121.4864,W,1,10,2.2,20,M,,M,,*62
06/05/2014	23:01:52.601	$GPGGA,230153,2426.0103,N,08121.4864,W,1,9,2.2,20,M,,M,,*59
06/05/2014	23:01:53.597	$GPGGA,230154,2426.0083,N,08121.4863,W,1,9,2.2,20,M,,M,,*50
06/05/2014	23:01:54.593	$GPGGA,230155,2426.0060,N,08121.4862,W,1,10,1.5,20,M,,M,,*61
06/05/2014	23:01:55.619	$GPGGA,230156,2426.0040,N,08121.4863,W,1,10,1.5,20,M,,M,,*61
06/05/2014	23:01:56.726	$GPGGA,230157,2426.0022,N,08121.4862,W,1,9,1.5,21,M,,M,,*5C
06/05/2014	23:01:57.601	$GPGGA,230158,2426.0001,N,08121.4863,W,1,9,1.5,21,M,,M,,*53
06/05/2014	23:01:58.727	$GPGGA,230159,2425.9983,N,08121.4863,W,1,9,1.5,21,M,,M,,*5B
06/05/2014	23:01:59.632	$GPGGA,230200,2425.9964,N,08121.4866,W,1,9,1.5,21,M,,M,,*58
06/05/2014	23:02:00.628	$GPGGA,230201,2425.9943,N,08121.4865,W,1,9,2.2,21,M,,M,,*5B
06/05/2014	23:02:01.624	$GPGGA,230202,2425.9922,N,08121.4862,W,1,9,2.2,20,M,,M,,*59
06/05/2014	23:02:02.630	$GPGGA,230203,2425.9902,N,08121.4863,W,1,10,1.5,21,M,,M,,*66
06/05/2014	23:02:03.656	$GPGGA,230204,2425.9882,N,08121.4866,W,1,10,1.5,21,M,,M,,*6D
06/05/2014	23:02:04.753	$GPGGA,230205,2425.9863,N,08121.4862,W,1,9,1.5,21,M,,M,,*5F
06/05/2014	23:02:05.638	$GPGGA,230206,2425.9843,N,08121.4860,W,1,9,1.5,21,M,,M,,*5C
06/05/2014	23:02:06.785	$GPGGA,230207,2425.9824,N,08121.4861,W,1,10,1.5,21,M,,M,,*65
06/05/2014	23:02:07.660	$GPGGA,230208,2425.9805,N,08121.4863,W,1,10,1.5,21,M,,M,,*6B
06/05/2014	23:02:08.666	$GPGGA,230209,2425.9784,N,08121.4863,W,1,10,1.5,21,M,,M,,*6C
06/05/2014	23:02:09.752	$GPGGA,230210,2425.9764,N,08121.4864,W,1,10,2.2,21,M,,M,,*69
06/05/2014	23:02:10.789	$GPGGA,230211,2425.9745,N,08121.4866,W,1,9,1.5,21,M,,M,,*55
06/05/2014	23:02:11.785	$GPGGA,230212,2425.9726,N,08121.4865,W,1,9,1.5,21,M,,M,,*50
06/05/2014	23:02:12.801	$GPGGA,230213,2425.9706,N,08121.4864,W,1,10,1.5,21,M,,M,,*6A
06/05/2014	23:02:13.676	$GPGGA,230214,2425.9686,N,08121.4866,W,1,10,1.5,21,M,,M,,*66
06/05/2014	23:02:14.813	$GPGGA,230215,2425.9666,N,08121.4867,W,1,10,1.5,21,M,,M,,*68
06/05/2014	23:02:15.820	$GPGGA,230216,2425.9646,N,08121.4866,W,1,10,1.5,21,M,,M,,*68
06/05/2014	23:02:16.814	$GPGGA,230217,2425.9626,N,08121.4870,W,1,10,2.2,21,M,,M,,*6C
06/05/2014	23:02:17.789	$GPGGA,230218,2425.9607,N,08121.4871,W,1,10,1.5,21,M,,M,,*65
06/05/2014	23:02:18.816	$GPGGA,230219,2425.9587,N,08121.4871,W,1,10,1.5,21,M,,M,,*6F
06/05/2014	23:02:19.811	$GPGGA,230220,2425.9567,N,08121.4871,W,1,10,1.5,21,M,,M,,*6B
06/05/2014	23:02:20.801	$GPGGA,230221,2425.9547,N,08121.4871,W,1,10,1.5,21,M,,M,,*68
06/05/2014	23:02:21.813	$GPGGA,230222,2425.9528,N,08121.4873,W,1,10,1.5,21,M,,M,,*60
06/05/2014	23:02:22.829	$GPGGA,230223,2425.9509,N,08121.4872,W,1,10,1.5,21,M,,M,,*63
06/05/2014	23:02:23.825	$GPGGA,230224,2425.9491,N,08121.4873,W,1,10,1.5,21,M,,M,,*65
06/05/2014	23:02:24.821	$GPGGA,230225,2425.9473,N,08121.4874,W,1,10,1.5,21,M,,M,,*6F
06/05/2014	23:02:25.817	$GPGGA,230226,2425.9454,N,08121.4872,W,1,10,1.5,21,M,,M,,*6F
06/05/2014	23:02:26.853	$GPGGA,230227,2425.9436,N,08121.4873,W,1,10,1.5,21,M,,M,,*6B
06/05/2014	23:02:27.859	$GPGGA,230228,2425.9419,N,08121.4874,W,1,10,1.5,21,M,,M,,*6E
06/05/2014	23:02:28.855	$GPGGA,230229,2425.9404,N,08121.4874,W,1,10,1.5,21,M,,M,,*63
06/05/2014	23:02:29.841	$GPGGA,230230,2425.9386,N,08121.4873,W,1,10,1.5,21,M,,M,,*61
06/05/2014	23:02:30.837	$GPGGA,230231,2425.9370,N,08121.4874,W,1,10,1.5,21,M,,M,,*6E
06/05/2014	23:02:31.873	$GPGGA,230232,2425.9354,N,08121.4877,W,1,10,1.5,21,M,,M,,*68
06/05/2014	23:02:32.839	$GPGGA,230233,2425.9339,N,08121.4877,W,1,10,1.5,21,M,,M,,*62
06/05/2014	23:02:33.855	$GPGGA,230234,2425.9322,N,08121.4877,W,1,10,1.5,21,M,,M,,*6F
06/05/2014	23:02:34.880	$GPGGA,230235,2425.9307,N,08121.4879,W,1,10,2.2,21,M,,M,,*63
06/05/2014	23:02:35.518	$GPGGA,230236,2425.9293,N,08121.4882,W,1,10,1.5,21,M,,M,,*6C
06/05/2014	23:02:36.504	$GPGGA,230237,2425.9278,N,08121.4882,W,1,10,1.5,21,M,,M,,*68
06/05/2014	23:02:37.520	$GPGGA,230238,2425.9263,N,08121.4882,W,1,10,1.5,22,M,,M,,*6E
06/05/2014	23:02:38.526	$GPGGA,230239,2425.9249,N,08121.4882,W,1,10,1.5,22,M,,M,,*67
06/05/2014	23:02:39.532	$GPGGA,230240,2425.9235,N,08121.4882,W,1,10,1.5,22,M,,M,,*62
06/05/2014	23:02:41.947	$GPGGA,230242,2425.9209,N,08121.4884,W,1,10,1.5,22,M,,M,,*69
06/05/2014	23:02:42.560	$GPGGA,230243,2425.9196,N,08121.4884,W,1,10,1.5,22,M,,M,,*6D
06/05/2014	23:02:43.546	$GPGGA,230244,2425.9184,N,08121.4883,W,1,10,1.5,22,M,,M,,*6E
06/05/2014	23:02:44.562	$GPGGA,230245,2425.9171,N,08121.4885,W,1,10,2.2,22,M,,M,,*67
06/05/2014	23:02:45.548	$GPGGA,230246,2425.9160,N,08121.4889,W,1,10,1.5,21,M,,M,,*6F
06/05/2014	23:02:46.534	$GPGGA,230247,2425.9149,N,08121.4891,W,1,10,2.2,21,M,,M,,*68
06/05/2014	23:02:47.580	$GPGGA,230248,2425.9138,N,08121.4890,W,1,10,2.2,21,M,,M,,*60
06/05/2014	23:02:48.657	$GPGGA,230249,2425.9126,N,08121.4888,W,1,9,1.5,21,M,,M,,*5B
06/05/2014	23:02:49.562	$GPGGA,230250,2425.9115,N,08121.4886,W,1,9,1.5,21,M,,M,,*5D
06/05/2014	23:02:50.588	$GPGGA,230251,2425.9104,N,08121.4884,W,1,10,1.5,21,M,,M,,*66
06/05/2014	23:02:51.694	$GPGGA,230252,2425.9094,N,08121.4882,W,1,10,1.5,21,M,,M,,*6B
06/05/2014	23:02:52.691	$GPGGA,230253,2425.9083,N,08121.4880,W,1,10,1.5,21,M,,M,,*6E
06/05/2014	23:02:53.585	$GPGGA,230254,2425.9073,N,08121.4881,W,1,10,1.5,21,M,,M,,*67
06/05/2014	23:02:54.703	$GPGGA,230255,2425.9073,N,08121.4881,W,1,10,1.5,21,M,,M,,*66
06/05/2014	23:02:55.698	$GPGGA,230256,2425.9054,N,08121.4877,W,1,10,1.5,21,M,,M,,*69
06/05/2014	23:02:56.724	$GPGGA,230257,2425.9044,N,08121.4876,W,1,10,1.5,21,M,,M,,*68
06/05/2014	23:02:57.599	$GPGGA,230258,2425.9036,N,08121.4875,W,1,10,1.5,21,M,,M,,*61
06/05/2014	23:02:58.716	$GPGGA,230259,2425.9026,N,08121.4874,W,1,10,1.5,21,M,,M,,*60
06/05/2014	23:02:59.641	$GPGGA,230300,2425.9017,N,08121.4874,W,1,10,1.5,21,M,,M,,*6F
06/05/2014	23:03:00.728	$GPGGA,230301,2425.9010,N,08121.4871,W,1,10,1.5,21,M,,M,,*6C
06/05/2014	23:03:01.693	$GPGGA,230302,2425.9000,N,08121.4870,W,1,10,1.5,21,M,,M,,*6F
06/05/2014	23:03:02.699	$GPGGA,230303,2425.8992,N,08121.4870,W,1,10,1.5,21,M,,M,,*6D
06/05/2014	23:03:03.715	$GPGGA,230304,2425.8985,N,08121.4867,W,1,10,1.5,21,M,,M,,*6A
06/05/2014	23:03:04.721	$GPGGA,230305,2425.8976,N,08121.4865,W,1,10,1.5,21,M,,M,,*65
06/05/2014	23:03:05.717	$GPGGA,230306,2425.8968,N,08121.4866,W,1,10,1.6,21,M,,M,,*69
06/05/2014	23:03:06.744	$GPGGA,230307,2425.8960,N,08121.4864,W,1,10,1.5,21,M,,M,,*61
06/05/2014	23:03:07.739	$GPGGA,230308,2425.8952,N,08121.4862,W,1,10,1.5,21,M,,M,,*69
06/05/2014	23:03:08.765	$GPGGA,230309,2425.8945,N,08121.4863,W,1,10,1.5,21,M,,M,,*6F
06/05/2014	23:03:09.730	$GPGGA,230310,2425.8936,N,08121.4862,W,1,10,1.5,21,M,,M,,*62
06/05/2014	23:03:10.756	$GPGGA,230311,2425.8929,N,08121.4858,W,1,10,1.5,21,M,,M,,*64
06/05/2014	23:03:11.762	$GPGGA,230312,2425.8922,N,08121.4854,W,1,10,1.6,21,M,,M,,*63
06/05/2014	23:03:12.768	$GPGGA,230313,2425.8914,N,08121.4852,W,1,10,1.5,21,M,,M,,*62
06/05/2014	23:03:13.774	$GPGGA,230314,2425.8907,N,08121.4850,W,1,10,1.5,21,M,,M,,*65
06/05/2014	23:03:14.750	$GPGGA,230315,2425.8900,N,08121.4846,W,1,10,1.5,21,M,,M,,*64
06/05/2014	23:03:15.776	$GPGGA,230316,2425.8893,N,08121.4845,W,1,10,1.5,21,M,,M,,*6F
06/05/2014	23:03:16.752	$GPGGA,230317,2425.8886,N,08121.4842,W,1,10,1.5,21,M,,M,,*6D
06/05/2014	23:03:17.768	$GPGGA,230318,2425.8880,N,08121.4838,W,1,10,1.5,21,M,,M,,*69
06/05/2014	23:03:18.764	$GPGGA,230319,2425.8873,N,08121.4836,W,1,10,1.5,21,M,,M,,*6A
06/05/2014	23:03:19.781	$GPGGA,230320,2425.8866,N,08121.4833,W,1,10,1.5,21,M,,M,,*61
06/05/2014	23:03:20.801	$GPGGA,230321,2425.8859,N,08121.4829,W,1,10,1.5,22,M,,M,,*64
06/05/2014	23:03:21.775	$GPGGA,230322,2425.8852,N,08121.4826,W,1,10,1.5,22,M,,M,,*63
06/05/2014	23:03:22.769	$GPGGA,230323,2425.8846,N,08121.4823,W,1,10,1.5,22,M,,M,,*62
06/05/2014	23:03:23.803	$GPGGA,230324,2425.8839,N,08121.4821,W,1,10,1.5,22,M,,M,,*6F
06/05/2014	23:03:24.766	$GPGGA,230325,2425.8833,N,08121.4817,W,1,10,1.5,22,M,,M,,*61
06/05/2014	23:03:25.790	$GPGGA,230326,2425.8827,N,08121.4814,W,1,10,1.5,21,M,,M,,*67
06/05/2014	23:03:26.813	$GPGGA,230327,2425.8820,N,08121.4811,W,1,10,1.5,21,M,,M,,*64
06/05/2014	23:03:27.787	$GPGGA,230328,2425.8815,N,08121.4807,W,1,10,1.5,21,M,,M,,*6A
06/05/2014	23:03:28.821	$GPGGA,230329,2425.8808,N,08121.4803,W,1,10,1.5,21,M,,M,,*63
06/05/2014	23:03:29.794	$GPGGA,230330,2425.8801,N,08121.4800,W,1,10,1.5,21,M,,M,,*61
06/05/2014	23:03:30.798	$GPGGA,230331,2425.8795,N,08121.4795,W,1,10,1.5,21,M,,M,,*61
06/05/2014	23:03:31.802	$GPGGA,230332,2425.8790,N,08121.4791,W,1,10,1.5,21,M,,M,,*63
06/05/2014	23:03:32.826	$GPGGA,230333,2425.8783,N,08121.4788,W,1,10,1.5,21,M,,M,,*68
06/05/2014	23:03:33.789	$GPGGA,230334,2425.8777,N,08121.4784,W,1,10,1.5,21,M,,M,,*68
06/05/2014	23:03:34.803	$GPGGA,230335,2425.8772,N,08121.4781,W,1,10,1.5,21,M,,M,,*69
06/05/2014	23:03:35.485	$GPGGA,230336,2425.8763,N,08121.4778,W,1,10,1.5,21,M,,M,,*6C
06/05/2014	23:03:36.599	$GPGGA,230337,2425.8758,N,08121.4773,W,1,10,1.5,21,M,,M,,*6E
06/05/2014	23:03:37.472	$GPGGA,230338,2425.8752,N,08121.4770,W,1,10,1.5,21,M,,M,,*68
06/05/2014	23:03:38.476	$GPGGA,230339,2425.8745,N,08121.4768,W,1,10,1.5,21,M,,M,,*66
06/05/2014	23:03:39.500	$GPGGA,230340,2425.8739,N,08121.4764,W,1,10,1.5,21,M,,M,,*6F
06/05/2014	23:03:40.475	$GPGGA,230341,2425.8733,N,08121.4761,W,1,10,1.5,21,M,,M,,*61
06/05/2014	23:03:41.618	$GPGGA,230342,2425.8727,N,08121.4760,W,1,10,1.5,21,M,,M,,*66
06/05/2014	23:03:42.491	$GPGGA,230343,2425.8721,N,08121.4758,W,1,10,1.5,20,M,,M,,*6B
06/05/2014	23:03:43.626	$GPGGA,230344,2425.8715,N,08121.4754,W,1,10,1.5,20,M,,M,,*67
06/05/2014	23:03:44.488	$GPGGA,230345,2425.8709,N,08121.4752,W,1,10,1.5,20,M,,M,,*6D
06/05/2014	23:03:45.502	$GPGGA,230346,2425.8703,N,08121.4750,W,1,10,1.5,20,M,,M,,*66
06/05/2014	23:03:46.485	$GPGGA,230347,2425.8696,N,08121.4746,W,1,10,1.5,20,M,,M,,*6D
06/05/2014	23:03:47.610	$GPGGA,230348,2425.8691,N,08121.4742,W,1,10,1.5,20,M,,M,,*61
06/05/2014	23:03:48.624	$GPGGA,230349,2425.8685,N,08121.4741,W,1,10,1.5,20,M,,M,,*66
06/05/2014	23:03:49.597	$GPGGA,230350,2425.8678,N,08121.4738,W,1,10,1.5,20,M,,M,,*62
06/05/2014	23:03:50.601	$GPGGA,230351,2425.8672,N,08121.4734,W,1,10,1.5,20,M,,M,,*65
06/05/2014	23:03:51.615	$GPGGA,230352,2425.8665,N,08121.4731,W,1,10,1.5,20,M,,M,,*65
06/05/2014	23:03:52.599	$GPGGA,230353,2425.8658,N,08121.4729,W,1,10,1.5,20,M,,M,,*63
06/05/2014	23:03:53.602	$GPGGA,230354,2425.8652,N,08121.4725,W,1,10,1.5,20,M,,M,,*62
06/05/2014	23:03:54.636	$GPGGA,230355,2425.8646,N,08121.4721,W,1,10,1.5,20,M,,M,,*62
06/05/2014	23:03:55.620	$GPGGA,230356,2425.8639,N,08121.4719,W,1,10,1.5,20,M,,M,,*62
06/05/2014	23:03:56.624	$GPGGA,230357,2425.8632,N,08121.4716,W,1,10,1.5,20,M,,M,,*67
06/05/2014	23:03:57.609	$GPGGA,230358,2425.8626,N,08121.4713,W,1,10,1.5,20,M,,M,,*68
06/05/2014	23:03:58.631	$GPGGA,230359,2425.8620,N,08121.4710,W,1,10,1.5,20,M,,M,,*6C
06/05/2014	23:03:59.635	$GPGGA,230400,2425.8613,N,08121.4707,W,1,10,1.5,20,M,,M,,*61
06/05/2014	23:04:00.629	$GPGGA,230401,2425.8607,N,08121.4704,W,1,10,1.5,20,M,,M,,*66
06/05/2014	23:04:01.622	$GPGGA,230402,2425.8602,N,08121.4702,W,1,10,1.5,20,M,,M,,*66
06/05/2014	23:04:02.636	$GPGGA,230403,2425.8595,N,08121.4699,W,1,10,1.5,20,M,,M,,*69
06/05/2014	23:04:03.639	$GPGGA,230404,2425.8588,N,08121.4696,W,1,10,1.5,20,M,,M,,*6D
06/05/2014	23:04:04.653	$GPGGA,230405,2425.8584,N,08121.4693,W,1,10,1.5,20,M,,M,,*65
06/05/2014	23:04:05.617	$GPGGA,230406,2425.8577,N,08121.4690,W,1,10,1.5,20,M,,M,,*69
06/05/2014	23:04:06.631	$GPGGA,230407,2425.8570,N,08121.4688,W,1,10,1.5,19,M,,M,,*6C
06/05/2014	23:04:07.645	$GPGGA,230408,2425.8563,N,08121.4684,W,1,10,1.5,19,M,,M,,*6D
06/05/2014	23:04:09.913	$GPGGA,230409,2425.8557,N,08121.4680,W,1,9,1.5,19,M,,M,,*57
06/05/2014	23:04:09.933	$GPGGA,230410,2425.8551,N,08121.4678,W,1,9,1.5,19,M,,M,,*5E
06/05/2014	23:04:10.626	$GPGGA,230411,2425.8545,N,08121.4676,W,1,10,1.5,19,M,,M,,*6C
06/05/2014	23:04:11.640	$GPGGA,230412,2425.8539,N,08121.4673,W,1,10,1.5,19,M,,M,,*61
06/05/2014	23:04:12.674	$GPGGA,230413,2425.8534,N,08121.4670,W,1,10,1.5,19,M,,M,,*6E
06/05/2014	23:04:13.647	$GPGGA,230414,2425.8528,N,08121.4669,W,1,10,1.5,19,M,,M,,*6C
06/05/2014	23:04:14.641	$GPGGA,230415,2425.8522,N,08121.4666,W,1,10,1.5,19,M,,M,,*68
06/05/2014	23:04:15.645	$GPGGA,230416,2425.8516,N,08121.4664,W,1,10,1.5,19,M,,M,,*6E
06/05/2014	23:04:16.649	$GPGGA,230417,2425.8510,N,08121.4662,W,1,10,1.5,19,M,,M,,*6F
06/05/2014	23:04:17.642	$GPGGA,230418,2425.8505,N,08121.4658,W,1,10,1.5,19,M,,M,,*6D
06/05/2014	23:04:18.645	$GPGGA,230419,2425.8499,N,08121.4656,W,1,10,1.5,19,M,,M,,*66
06/05/2014	23:04:19.669	$GPGGA,230420,2425.8493,N,08121.4653,W,1,10,1.5,19,M,,M,,*63
06/05/2014	23:04:20.663	$GPGGA,230421,2425.8487,N,08121.4650,W,1,10,1.5,19,M,,M,,*64
06/05/2014	23:04:21.657	$GPGGA,230422,2425.8483,N,08121.4647,W,1,10,1.5,19,M,,M,,*65
06/05/2014	23:04:22.660	$GPGGA,230423,2425.8475,N,08121.4643,W,1,10,1.5,19,M,,M,,*69
06/05/2014	23:04:23.674	$GPGGA,230424,2425.8468,N,08121.4640,W,1,10,1.5,19,M,,M,,*61
06/05/2014	23:04:24.688	$GPGGA,230425,2425.8463,N,08121.4636,W,1,10,1.5,19,M,,M,,*6A
06/05/2014	23:04:25.662	$GPGGA,230426,2425.8457,N,08121.4633,W,1,10,1.5,19,M,,M,,*6B
06/05/2014	23:04:26.776	$GPGGA,230427,2425.8451,N,08121.4630,W,1,10,1.5,18,M,,M,,*6E
06/05/2014	23:04:27.679	$GPGGA,230428,2425.8445,N,08121.4628,W,1,10,1.5,18,M,,M,,*6D
06/05/2014	23:04:28.663	$GPGGA,230429,2425.8440,N,08121.4625,W,1,10,1.5,18,M,,M,,*64
06/05/2014	23:04:29.787	$GPGGA,230430,2425.8434,N,08121.4621,W,1,10,1.5,18,M,,M,,*6B
06/05/2014	23:04:30.771	$GPGGA,230431,2425.8428,N,08121.4619,W,1,9,1.5,18,M,,M,,*54
06/05/2014	23:04:31.775	$GPGGA,230432,2425.8422,N,08121.4616,W,1,9,1.5,18,M,,M,,*52
06/05/2014	23:04:32.668	$GPGGA,230433,2425.8416,N,08121.4613,W,1,10,1.5,18,M,,M,,*69
06/05/2014	23:04:33.762	$GPGGA,230434,2425.8410,N,08121.4609,W,1,10,1.5,18,M,,M,,*63
06/05/2014	23:04:34.796	$GPGGA,230435,2425.8405,N,08121.4606,W,1,10,1.5,18,M,,M,,*69
06/05/2014	23:04:35.473	$GPGGA,230436,2425.8400,N,08121.4602,W,1,10,1.5,18,M,,M,,*6B
06/05/2014	23:04:36.455	$GPGGA,230437,2425.8393,N,08121.4598,W,1,10,1.5,18,M,,M,,*67
06/05/2014	23:04:37.550	$GPGGA,230438,2425.8387,N,08121.4596,W,1,10,1.5,18,M,,M,,*63
06/05/2014	23:04:38.553	$GPGGA,230439,2425.8382,N,08121.4593,W,1,10,1.5,18,M,,M,,*62
06/05/2014	23:04:39.567	$GPGGA,230440,2425.8376,N,08121.4589,W,1,10,1.5,18,M,,M,,*6C
06/05/2014	23:04:40.581	$GPGGA,230441,2425.8371,N,08121.4586,W,1,10,1.5,18,M,,M,,*65
06/05/2014	23:04:41.555	$GPGGA,230442,2425.8365,N,08121.4582,W,1,10,1.5,18,M,,M,,*67
06/05/2014	23:04:42.609	$GPGGA,230443,2425.8360,N,08121.4580,W,1,10,1.5,18,M,,M,,*61
06/05/2014	23:04:43.582	$GPGGA,230444,2425.8354,N,08121.4576,W,1,10,1.5,18,M,,M,,*68
06/05/2014	23:04:44.566	$GPGGA,230445,2425.8349,N,08121.4572,W,1,10,1.5,18,M,,M,,*61
06/05/2014	23:04:45.570	$GPGGA,230446,2425.8343,N,08121.4569,W,1,10,1.5,18,M,,M,,*62
06/05/2014	23:04:46.574	$GPGGA,230447,2425.8338,N,08121.4567,W,1,10,1.5,18,M,,M,,*61
06/05/2014	23:04:47.588	$GPGGA,230448,2425.8331,N,08121.4560,W,1,10,2.2,18,M,,M,,*64
06/05/2014	23:04:48.571	$GPGGA,230449,2425.8326,N,08121.4554,W,1,10,1.5,18,M,,M,,*60
06/05/2014	23:04:49.576	$GPGGA,230450,2425.8320,N,08121.4551,W,1,10,1.5,18,M,,M,,*6B
06/05/2014	23:04:50.589	$GPGGA,230451,2425.8315,N,08121.4548,W,1,10,1.5,18,M,,M,,*64
06/05/2014	23:04:51.593	$GPGGA,230452,2425.8309,N,08121.4543,W,1,10,1.5,18,M,,M,,*61
06/05/2014	23:04:52.597	$GPGGA,230453,2425.8304,N,08121.4540,W,1,10,1.5,18,M,,M,,*6E
06/05/2014	23:04:53.579	$GPGGA,230454,2425.8299,N,08121.4536,W,1,10,1.5,19,M,,M,,*6C
06/05/2014	23:04:54.613	$GPGGA,230455,2425.8293,N,08121.4532,W,1,10,1.5,19,M,,M,,*63
06/05/2014	23:04:55.597	$GPGGA,230456,2425.8288,N,08121.4529,W,1,10,1.5,19,M,,M,,*60
06/05/2014	23:04:56.611	$GPGGA,230457,2425.8282,N,08121.4524,W,1,10,1.5,19,M,,M,,*66
06/05/2014	23:04:57.594	$GPGGA,230458,2425.8278,N,08121.4523,W,1,10,1.5,19,M,,M,,*6B
06/05/2014	23:04:58.578	$GPGGA,230459,2425.8273,N,08121.4522,W,1,9,2.2,19,M,,M,,*5C
06/05/2014	23:04:59.622	$GPGGA,230500,2425.8266,N,08121.4514,W,1,9,2.2,19,M,,M,,*50
06/05/2014	23:05:00.616	$GPGGA,230501,2425.8261,N,08121.4510,W,1,10,1.5,19,M,,M,,*6E
06/05/2014	23:05:01.590	$GPGGA,230502,2425.8255,N,08121.4512,W,1,10,1.5,20,M,,M,,*62
06/05/2014	23:05:02.634	$GPGGA,230503,2425.8250,N,08121.4513,W,1,9,2.2,20,M,,M,,*5B
06/05/2014	23:05:03.607	$GPGGA,230504,2425.8246,N,08121.4507,W,1,9,1.5,20,M,,M,,*5A
06/05/2014	23:05:04.641	$GPGGA,230505,2425.8241,N,08121.4501,W,1,10,1.5,20,M,,M,,*62
06/05/2014	23:05:05.605	$GPGGA,230506,2425.8234,N,08121.4500,W,1,10,1.5,20,M,,M,,*62
06/05/2014	23:05:06.629	$GPGGA,230507,2425.8228,N,08121.4496,W,1,10,1.5,20,M,,M,,*60
06/05/2014	23:05:07.612	$GPGGA,230508,2425.8223,N,08121.4490,W,1,10,1.5,20,M,,M,,*62
06/05/2014	23:05:08.607	$GPGGA,230509,2425.8219,N,08121.4488,W,1,10,1.5,20,M,,M,,*63
06/05/2014	23:05:09.610	$GPGGA,230510,2425.8212,N,08121.4488,W,1,10,1.5,20,M,,M,,*60
06/05/2014	23:05:10.634	$GPGGA,230511,2425.8206,N,08121.4486,W,1,10,1.5,20,M,,M,,*6A
06/05/2014	23:05:11.627	$GPGGA,230512,2425.8201,N,08121.4482,W,1,10,1.5,20,M,,M,,*6A
06/05/2014	23:05:12.610	$GPGGA,230513,2425.8196,N,08121.4478,W,1,10,1.5,20,M,,M,,*63
06/05/2014	23:05:13.624	$GPGGA,230514,2425.8190,N,08121.4474,W,1,10,1.5,20,M,,M,,*6E
06/05/2014	23:05:14.608	$GPGGA,230515,2425.8184,N,08121.4472,W,1,9,1.6,20,M,,M,,*57
06/05/2014	23:05:15.792	$GPGGA,230516,2425.8178,N,08121.4469,W,1,9,1.5,20,M,,M,,*5E
06/05/2014	23:05:16.626	$GPGGA,230517,2425.8173,N,08121.4465,W,1,10,1.5,20,M,,M,,*60
06/05/2014	23:05:17.720	$GPGGA,230518,2425.8167,N,08121.4463,W,1,10,1.6,20,M,,M,,*6F
06/05/2014	23:05:18.784	$GPGGA,230519,2425.8161,N,08121.4461,W,1,10,1.5,20,M,,M,,*69
06/05/2014	23:05:19.647	$GPGGA,230520,2425.8156,N,08121.4458,W,1,10,1.5,20,M,,M,,*6D
06/05/2014	23:05:20.621	$GPGGA,230521,2425.8150,N,08121.4458,W,1,10,1.6,20,M,,M,,*69
06/05/2014	23:05:21.624	$GPGGA,230522,2425.8145,N,08121.4457,W,1,10,1.5,21,M,,M,,*63
06/05/2014	23:05:22.799	$GPGGA,230523,2425.8139,N,08121.4454,W,1,10,1.5,21,M,,M,,*6A
06/05/2014	23:05:23.684	$GPGGA,230524,2425.8134,N,08121.4450,W,1,10,1.5,21,M,,M,,*64
06/05/2014	23:05:24.794	$GPGGA,230525,2425.8129,N,08121.4448,W,1,10,1.6,21,M,,M,,*63
06/05/2014	23:05:25.813	$GPGGA,230526,2425.8123,N,08121.4445,W,1,10,1.6,21,M,,M,,*67
06/05/2014	23:05:26.924	$GPGGA,230527,2425.8118,N,08121.4440,W,1,10,1.5,21,M,,M,,*68
06/05/2014	23:05:27.962	$GPGGA,230528,2425.8113,N,08121.4438,W,1,10,1.5,21,M,,M,,*63
06/05/2014	23:05:28.918	$GPGGA,230529,2425.8107,N,08121.4436,W,1,10,1.5,21,M,,M,,*69
06/05/2014	23:05:29.926	$GPGGA,230530,2425.8102,N,08121.4433,W,1,10,1.5,21,M,,M,,*61
06/05/2014	23:05:30.995	$GPGGA,230531,2425.8097,N,08121.4430,W,1,10,1.6,21,M,,M,,*6D
06/05/2014	23:05:32.065	$GPGGA,230532,2425.8091,N,08121.4428,W,1,10,1.5,21,M,,M,,*62
06/05/2014	23:05:33.052	$GPGGA,230533,2425.8085,N,08121.4426,W,1,10,1.6,21,M,,M,,*6B
06/05/2014	23:05:34.101	$GPGGA,230534,2425.8079,N,08121.4423,W,1,10,1.6,21,M,,M,,*6A
06/05/2014	23:05:35.058	$GPGGA,230535,2425.8074,N,08121.4421,W,1,10,1.6,21,M,,M,,*64
06/05/2014	23:05:35.639	$GPGGA,230536,2425.8069,N,08121.4420,W,1,10,1.5,21,M,,M,,*69
06/05/2014	23:05:36.616	$GPGGA,230537,2425.8064,N,08121.4417,W,1,10,1.5,21,M,,M,,*61
06/05/2014	23:05:37.593	$GPGGA,230538,2425.8057,N,08121.4418,W,1,10,1.5,21,M,,M,,*61
06/05/2014	23:05:38.663	$GPGGA,230539,2425.8053,N,08121.4416,W,1,10,1.5,21,M,,M,,*6A
06/05/2014	23:05:39.650	$GPGGA,230540,2425.8046,N,08121.4414,W,1,10,1.6,21,M,,M,,*61
06/05/2014	23:05:40.720	$GPGGA,230541,2425.8040,N,08121.4411,W,1,10,1.5,21,M,,M,,*60
06/05/2014	23:05:41.697	$GPGGA,230542,2425.8035,N,08121.4410,W,1,10,1.5,21,M,,M,,*60
06/05/2014	23:05:42.767	$GPGGA,230543,2425.8029,N,08121.4408,W,1,10,1.6,21,M,,M,,*66
06/05/2014	23:05:43.826	$GPGGA,230544,2425.8022,N,08121.4403,W,1,10,1.6,21,M,,M,,*61
06/05/2014	23:05:44.803	$GPGGA,230545,2425.8017,N,08121.4402,W,1,10,1.5,22,M,,M,,*67
06/05/2014	23:05:45.852	$GPGGA,230546,2425.8011,N,08121.4400,W,1,10,1.5,22,M,,M,,*60
06/05/2014	23:05:46.890	$GPGGA,230547,2425.8006,N,08121.4397,W,1,10,1.6,22,M,,M,,*6D
06/05/2014	23:05:47.929	$GPGGA,230548,2425.7999,N,08121.4395,W,1,10,1.6,22,M,,M,,*60
06/05/2014	23:05:48.875	$GPGGA,230549,2425.7993,N,08121.4394,W,1,10,1.6,22,M,,M,,*6A
06/05/2014	23:05:49.955	$GPGGA,230550,2425.7988,N,08121.4390,W,1,10,1.5,22,M,,M,,*6F
06/05/2014	23:05:50.963	$GPGGA,230551,2425.7981,N,08121.4388,W,1,10,1.5,22,M,,M,,*6E
06/05/2014	23:05:52.033	$GPGGA,230552,2425.7975,N,08121.4387,W,1,10,1.5,22,M,,M,,*69
06/05/2014	23:05:53.022	$GPGGA,230553,2425.7970,N,08121.4385,W,1,10,1.5,22,M,,M,,*6F
06/05/2014	23:05:54.079	$GPGGA,230554,2425.7963,N,08121.4382,W,1,10,1.5,22,M,,M,,*6D
06/05/2014	23:05:55.067	$GPGGA,230555,2425.7959,N,08121.4381,W,1,10,1.5,22,M,,M,,*66
06/05/2014	23:05:56.136	$GPGGA,230556,2425.7952,N,08121.4378,W,1,10,1.5,22,M,,M,,*68
06/05/2014	23:05:57.135	$GPGGA,230557,2425.7946,N,08121.4375,W,1,10,1.5,22,M,,M,,*61
06/05/2014	23:05:58.111	$GPGGA,230558,2425.7941,N,08121.4371,W,1,10,1.5,22,M,,M,,*6D
06/05/2014	23:05:59.284	$GPGGA,230559,2425.7935,N,08121.4370,W,1,10,1.5,23,M,,M,,*6F
06/05/2014	23:06:00.291	$GPGGA,230600,2425.7930,N,08121.4369,W,1,10,1.5,23,M,,M,,*6D
06/05/2014	23:06:01.197	$GPGGA,230601,2425.7924,N,08121.4365,W,1,10,1.5,23,M,,M,,*65
06/05/2014	23:06:02.328	$GPGGA,230602,2425.7919,N,08121.4361,W,1,10,1.5,23,M,,M,,*6C
06/05/2014	23:06:03.284	$GPGGA,230603,2425.7912,N,08121.4359,W,1,10,1.5,23,M,,M,,*6D
06/05/2014	23:06:04.374	$GPGGA,230604,2425.7906,N,08121.4360,W,1,10,1.5,23,M,,M,,*65
06/05/2014	23:06:05.351	$GPGGA,230605,2425.7901,N,08121.4355,W,1,10,1.5,23,M,,M,,*65
06/05/2014	23:06:06.389	$GPGGA,230606,2425.7895,N,08121.4351,W,1,10,1.5,23,M,,M,,*6E
06/05/2014	23:06:07.356	$GPGGA,230607,2425.7889,N,08121.4350,W,1,10,1.5,23,M,,M,,*63
06/05/2014	23:06:08.508	$GPGGA,230608,2425.7883,N,08121.4349,W,1,10,1.5,23,M,,M,,*6E
06/05/2014	23:06:09.547	$GPGGA,230609,2425.7878,N,08121.4343,W,1,10,1.5,23,M,,M,,*61
06/05/2014	23:06:10.503	$GPGGA,230610,2425.7872,N,08121.4340,W,1,10,1.5,23,M,,M,,*60
06/05/2014	23:06:11.532	$GPGGA,230611,2425.7866,N,08121.4340,W,1,10,1.5,23,M,,M,,*64
06/05/2014	23:06:12.612	$GPGGA,230612,2425.7860,N,08121.4337,W,1,10,1.5,23,M,,M,,*61
06/05/2014	23:06:13.630	$GPGGA,230613,2425.7854,N,08121.4333,W,1,10,1.5,23,M,,M,,*63
06/05/2014	23:06:14.609	$GPGGA,230614,2425.7849,N,08121.4330,W,1,10,1.5,23,M,,M,,*6B
06/05/2014	23:06:15.677	$GPGGA,230615,2425.7844,N,08121.4327,W,1,10,1.5,23,M,,M,,*61
06/05/2014	23:06:16.726	$GPGGA,230616,2425.7837,N,08121.4325,W,1,10,1.5,23,M,,M,,*64
06/05/2014	23:06:17.765	$GPGGA,230617,2425.7832,N,08121.4322,W,1,10,1.5,23,M,,M,,*67
06/05/2014	23:06:18.752	$GPGGA,230618,2425.7826,N,08121.4318,W,1,10,1.5,23,M,,M,,*64
06/05/2014	23:06:19.791	$GPGGA,230619,2425.7820,N,08121.4315,W,1,10,1.5,23,M,,M,,*6E
06/05/2014	23:06:20.830	$GPGGA,230620,2425.7815,N,08121.4313,W,1,10,1.5,23,M,,M,,*64
06/05/2014	23:06:21.848	$GPGGA,230621,2425.7809,N,08121.4311,W,1,10,1.5,23,M,,M,,*6A
06/05/2014	23:06:22.865	$GPGGA,230622,2425.7803,N,08121.4308,W,1,10,1.5,23,M,,M,,*6B
06/05/2014	23:06:23.904	$GPGGA,230623,2425.7797,N,08121.4304,W,1,10,1.5,23,M,,M,,*64
06/05/2014	23:06:24.932	$GPGGA,230624,2425.7791,N,08121.4302,W,1,10,1.5,23,M,,M,,*63
06/05/2014	23:06:25.971	$GPGGA,230625,2425.7786,N,08121.4300,W,1,10,1.6,23,M,,M,,*65
06/05/2014	23:06:26.969	$GPGGA,230626,2425.7782,N,08121.4297,W,1,10,1.5,23,M,,M,,*6E
06/05/2014	23:06:28.007	$GPGGA,230627,2425.7776,N,08121.4293,W,1,10,1.5,23,M,,M,,*60
06/05/2014	23:06:29.036	$GPGGA,230628,2425.7771,N,08121.4291,W,1,10,1.5,23,M,,M,,*6A
06/05/2014	23:06:30.064	$GPGGA,230629,2425.7764,N,08121.4289,W,1,10,1.6,23,M,,M,,*65
06/05/2014	23:06:31.064	$GPGGA,230630,2425.7758,N,08121.4287,W,1,10,1.5,23,M,,M,,*6F
06/05/2014	23:06:32.142	$GPGGA,230631,2425.7753,N,08121.4284,W,1,10,1.5,23,M,,M,,*66
06/05/2014	23:06:33.140	$GPGGA,230632,2425.7748,N,08121.4282,W,1,10,1.5,23,M,,M,,*69
06/05/2014	23:06:34.168	$GPGGA,230633,2425.7742,N,08121.4279,W,1,10,1.6,23,M,,M,,*65
06/05/2014	23:06:35.186	$GPGGA,230634,2425.7736,N,08121.4276,W,1,10,1.6,23,M,,M,,*6E
06/05/2014	23:06:36.205	$GPGGA,230635,2425.7731,N,08121.4273,W,1,10,1.6,23,M,,M,,*6D
06/05/2014	23:06:35.545	$GPGGA,230636,2425.7726,N,08121.4270,W,1,10,1.6,23,M,,M,,*6B
06/05/2014	23:06:36.553	$GPGGA,230637,2425.7721,N,08121.4268,W,1,10,1.6,23,M,,M,,*64
06/05/2014	23:06:37.622	$GPGGA,230638,2425.7715,N,08121.4264,W,1,10,1.5,22,M,,M,,*62
06/05/2014	23:06:38.619	$GPGGA,230639,2425.7715,N,08121.4264,W,1,10,1.5,22,M,,M,,*63
06/05/2014	23:06:39.637	$GPGGA,230640,2425.7704,N,08121.4263,W,1,10,1.5,22,M,,M,,*6A
06/05/2014	23:06:40.676	$GPGGA,230641,2425.7699,N,08121.4259,W,1,10,1.5,22,M,,M,,*67
06/05/2014	23:06:41.684	$GPGGA,230642,2425.7693,N,08121.4256,W,1,10,1.5,22,M,,M,,*61
06/05/2014	23:06:42.733	$GPGGA,230643,2425.7688,N,08121.4256,W,1,10,1.5,22,M,,M,,*6A
06/05/2014	23:06:43.772	$GPGGA,230644,2425.7688,N,08121.4256,W,1,10,1.5,22,M,,M,,*6D
06/05/2014	23:06:44.780	$GPGGA,230645,2425.7678,N,08121.4252,W,1,10,1.5,22,M,,M,,*67
06/05/2014	23:06:45.798	$GPGGA,230646,2425.7678,N,08121.4252,W,1,10,1.5,22,M,,M,,*64
06/05/2014	23:06:46.816	$GPGGA,230647,2425.7667,N,08121.4248,W,1,10,1.5,22,M,,M,,*60
06/05/2014	23:06:47.896	$GPGGA,230648,2425.7663,N,08121.4247,W,1,10,1.5,22,M,,M,,*64
06/05/2014	23:06:48.863	$GPGGA,230649,2425.7657,N,08121.4245,W,1,10,1.5,22,M,,M,,*60
06/05/2014	23:06:49.922	$GPGGA,230650,2425.7652,N,08121.4242,W,1,10,1.5,22,M,,M,,*6A
06/05/2014	23:06:50.911	$GPGGA,230651,2425.7646,N,08121.4240,W,1,10,1.5,22,M,,M,,*6C
06/05/2014	23:06:51.959	$GPGGA,230652,2425.7646,N,08121.4240,W,1,10,1.5,22,M,,M,,*6F
06/05/2014	23:06:53.090	$GPGGA,230653,2425.7635,N,08121.4237,W,1,10,1.5,22,M,,M,,*6A
06/05/2014	23:06:54.005	$GPGGA,230654,2425.7635,N,08121.4237,W,1,10,1.5,22,M,,M,,*6D
06/05/2014	23:06:55.138	$GPGGA,230655,2425.7625,N,08121.4233,W,1,10,1.5,22,M,,M,,*69
06/05/2014	23:06:56.155	$GPGGA,230656,2425.7621,N,08121.4232,W,1,10,1.5,22,M,,M,,*6F
06/05/2014	23:06:57.091	$GPGGA,230657,2425.7616,N,08121.4231,W,1,10,1.5,22,M,,M,,*69
06/05/2014	23:06:58.190	$GPGGA,230658,2425.7612,N,08121.4228,W,1,10,1.5,21,M,,M,,*69
06/05/2014	23:06:59.116	$GPGGA,230659,2425.7606,N,08121.4226,W,1,10,1.5,21,M,,M,,*63
06/05/2014	23:07:00.288	$GPGGA,230700,2425.7601,N,08121.4225,W,1,10,1.5,21,M,,M,,*6A
06/05/2014	23:07:01.193	$GPGGA,230701,2425.7598,N,08121.4223,W,1,10,1.5,21,M,,M,,*6E
06/05/2014	23:07:02.304	$GPGGA,230702,2425.7592,N,08121.4220,W,1,10,1.5,21,M,,M,,*64
06/05/2014	23:07:03.230	$GPGGA,230703,2425.7592,N,08121.4220,W,1,10,1.6,21,M,,M,,*66
06/05/2014	23:07:04.392	$GPGGA,230704,2425.7583,N,08121.4215,W,1,10,1.6,21,M,,M,,*67
06/05/2014	23:07:05.390	$GPGGA,230705,2425.7578,N,08121.4213,W,1,10,1.6,21,M,,M,,*64
06/05/2014	23:07:06.408	$GPGGA,230706,2425.7573,N,08121.4212,W,1,10,1.5,21,M,,M,,*6E
06/05/2014	23:07:07.457	$GPGGA,230707,2425.7569,N,08121.4209,W,1,10,1.5,21,M,,M,,*6E
06/05/2014	23:07:08.475	$GPGGA,230708,2425.7565,N,08121.4208,W,1,10,1.6,21,M,,M,,*6F
06/05/2014	23:07:09.504	$GPGGA,230709,2425.7560,N,08121.4206,W,1,10,1.6,21,M,,M,,*65
06/05/2014	23:07:10.522	$GPGGA,230710,2425.7555,N,08121.4204,W,1,10,1.5,21,M,,M,,*6A
06/05/2014	23:07:11.550	$GPGGA,230711,2425.7551,N,08121.4202,W,1,10,1.5,21,M,,M,,*69
06/05/2014	23:07:12.589	$GPGGA,230712,2425.7545,N,08121.4200,W,1,10,1.6,21,M,,M,,*6E
06/05/2014	23:07:14.635	$GPGGA,230713,2425.7540,N,08121.4198,W,1,10,1.5,21,M,,M,,*6B
06/05/2014	23:07:14.655	$GPGGA,230714,2425.7536,N,08121.4196,W,1,10,1.6,21,M,,M,,*60
06/05/2014	23:07:15.663	$GPGGA,230715,2425.7531,N,08121.4193,W,1,10,1.5,21,M,,M,,*60
06/05/2014	23:07:16.692	$GPGGA,230716,2425.7526,N,08121.4192,W,1,10,1.6,21,M,,M,,*67
06/05/2014	23:07:17.731	$GPGGA,230717,2425.7522,N,08121.4190,W,1,10,1.5,21,M,,M,,*63
06/05/2014	23:07:18.718	$GPGGA,230718,2425.7518,N,08121.4188,W,1,10,1.6,21,M,,M,,*6F
06/05/2014	23:07:19.777	$GPGGA,230719,2425.7513,N,08121.4185,W,1,10,1.6,21,M,,M,,*68
06/05/2014	23:07:20.796	$GPGGA,230720,2425.7508,N,08121.4184,W,1,10,1.6,21,M,,M,,*69
06/05/2014	23:07:21.824	$GPGGA,230721,2425.7504,N,08121.4181,W,1,10,1.5,21,M,,M,,*62
06/05/2014	23:07:22.843	$GPGGA,230722,2425.7500,N,08121.4180,W,1,10,1.6,21,M,,M,,*67
06/05/2014	23:07:23.861	$GPGGA,230723,2425.7494,N,08121.4179,W,1,10,1.6,21,M,,M,,*6C
06/05/2014	23:07:24.910	$GPGGA,230724,2425.7489,N,08121.4176,W,1,10,1.5,21,M,,M,,*6B
06/05/2014	23:07:25.959	$GPGGA,230725,2425.7486,N,08121.4173,W,1,10,1.6,21,M,,M,,*63
06/05/2014	23:07:26.936	$GPGGA,230726,2425.7482,N,08121.4171,W,1,10,1.5,21,M,,M,,*65
06/05/2014	23:07:27.965	$GPGGA,230727,2425.7476,N,08121.4170,W,1,10,1.5,21,M,,M,,*6E
06/05/2014	23:07:29.003	$GPGGA,230728,2425.7471,N,08121.4169,W,1,10,1.6,21,M,,M,,*6D
06/05/2014	23:07:30.044	$GPGGA,230729,2425.7466,N,08121.4166,W,1,9,1.5,21,M,,M,,*5E
06/05/2014	23:07:31.050	$GPGGA,230730,2425.7461,N,08121.4163,W,1,9,1.5,21,M,,M,,*54
06/05/2014	23:07:32.099	$GPGGA,230731,2425.7455,N,08121.4162,W,1,10,1.5,21,M,,M,,*6B
06/05/2014	23:07:33.106	$GPGGA,230732,2425.7450,N,08121.4161,W,1,10,1.5,21,M,,M,,*6E
06/05/2014	23:07:34.114	$GPGGA,230733,2425.7446,N,08121.4159,W,1,10,1.5,21,M,,M,,*63
06/05/2014	23:07:35.142	$GPGGA,230734,2425.7441,N,08121.4155,W,1,10,1.5,21,M,,M,,*6F
06/05/2014	23:07:36.202	$GPGGA,230735,2425.7436,N,08121.4154,W,1,10,1.5,21,M,,M,,*6F
06/05/2014	23:07:35.511	$GPGGA,230736,2425.7431,N,08121.4152,W,1,10,1.5,21,M,,M,,*6D
06/05/2014	23:07:36.529	$GPGGA,230737,2425.7428,N,08121.4149,W,1,10,1.5,21,M,,M,,*6E
06/05/2014	23:07:37.537	$GPGGA,230738,2425.7422,N,08121.4147,W,1,10,1.5,21,M,,M,,*65
06/05/2014	23:07:38.565	$GPGGA,230739,2425.7417,N,08121.4146,W,1,10,1.5,21,M,,M,,*63
06/05/2014	23:07:39.614	$GPGGA,230740,2425.7412,N,08121.4143,W,1,10,1.5,21,M,,M,,*6D
06/05/2014	23:07:40.622	$GPGGA,230741,2425.7407,N,08121.4140,W,1,10,1.5,21,M,,M,,*6B
06/05/2014	23:07:41.764	$GPGGA,230742,2425.7403,N,08121.4139,W,1,10,1.5,21,M,,M,,*62
06/05/2014	23:07:42.690	$GPGGA,230743,2425.7399,N,08121.4137,W,1,10,1.5,21,M,,M,,*69
06/05/2014	23:07:43.842	$GPGGA,230744,2425.7394,N,08121.4134,W,1,10,1.6,21,M,,M,,*63
06/05/2014	23:07:44.829	$GPGGA,230745,2425.7389,N,08121.4132,W,1,10,1.6,21,M,,M,,*68
06/05/2014	23:07:45.775	$GPGGA,230746,2425.7385,N,08121.4130,W,1,10,1.5,21,M,,M,,*66
06/05/2014	23:07:46.876	$GPGGA,230747,2425.7381,N,08121.4128,W,1,10,1.5,21,M,,M,,*6A
06/05/2014	23:07:47.832	$GPGGA,230748,2425.7375,N,08121.4127,W,1,10,1.5,21,M,,M,,*61
06/05/2014	23:07:48.839	$GPGGA,230749,2425.7370,N,08121.4125,W,1,10,1.5,21,M,,M,,*67
06/05/2014	23:07:49.868	$GPGGA,230750,2425.7366,N,08121.4121,W,1,10,1.5,22,M,,M,,*6F
06/05/2014	23:07:50.989	$GPGGA,230751,2425.7363,N,08121.4119,W,1,10,1.6,22,M,,M,,*63
06/05/2014	23:07:51.935	$GPGGA,230752,2425.7357,N,08121.4117,W,1,10,1.5,22,M,,M,,*6A
06/05/2014	23:07:53.087	$GPGGA,230753,2425.7352,N,08121.4116,W,1,10,1.5,22,M,,M,,*6F
06/05/2014	23:07:54.074	$GPGGA,230754,2425.7348,N,08121.4114,W,1,10,1.5,22,M,,M,,*61
06/05/2014	23:07:55.134	$GPGGA,230755,2425.7343,N,08121.4111,W,1,10,1.5,22,M,,M,,*6E
06/05/2014	23:07:56.131	$GPGGA,230756,2425.7339,N,08121.4108,W,1,10,1.5,22,M,,M,,*68
06/05/2014	23:07:57.170	$GPGGA,230757,2425.7334,N,08121.4107,W,1,10,1.5,22,M,,M,,*6B
06/05/2014	23:07:58.178	$GPGGA,230758,2425.7329,N,08121.4105,W,1,10,1.5,22,M,,M,,*6A
06/05/2014	23:07:59.217	$GPGGA,230759,2425.7324,N,08121.4102,W,1,10,1.5,22,M,,M,,*61
06/05/2014	23:08:00.255	$GPGGA,230800,2425.7320,N,08121.4099,W,1,10,1.5,22,M,,M,,*65
06/05/2014	23:08:01.253	$GPGGA,230801,2425.7316,N,08121.4098,W,1,10,1.5,22,M,,M,,*60
06/05/2014	23:08:02.282	$GPGGA,230802,2425.7309,N,08121.4096,W,1,10,1.5,22,M,,M,,*63
06/05/2014	23:08:03.320	$GPGGA,230803,2425.7305,N,08121.4093,W,1,10,1.5,22,M,,M,,*6B
06/05/2014	23:08:04.349	$GPGGA,230804,2425.7300,N,08121.4091,W,1,10,1.5,22,M,,M,,*6B
06/05/2014	23:08:05.398	$GPGGA,230805,2425.7295,N,08121.4090,W,1,10,1.5,22,M,,M,,*66
06/05/2014	23:08:06.396	$GPGGA,230806,2425.7290,N,08121.4088,W,1,10,1.5,22,M,,M,,*69
06/05/2014	23:08:07.423	$GPGGA,230807,2425.7285,N,08121.4085,W,1,10,1.5,22,M,,M,,*61
06/05/2014	23:08:08.452	$GPGGA,230808,2425.7280,N,08121.4084,W,1,10,1.5,22,M,,M,,*6A
06/05/2014	23:08:09.461	$GPGGA,230809,2425.7276,N,08121.4082,W,1,10,1.5,22,M,,M,,*64
06/05/2014	23:08:10.488	$GPGGA,230810,2425.7270,N,08121.4079,W,1,10,1.5,22,M,,M,,*6E
06/05/2014	23:08:11.547	$GPGGA,230811,2425.7265,N,08121.4077,W,1,10,1.5,22,M,,M,,*65
06/05/2014	23:08:12.555	$GPGGA,230812,2425.7260,N,08121.4075,W,1,10,1.5,22,M,,M,,*61
06/05/2014	23:08:13.604	$GPGGA,230813,2425.7256,N,08121.4073,W,1,10,1.5,22,M,,M,,*63
06/05/2014	23:08:14.592	$GPGGA,230814,2425.7251,N,08121.4071,W,1,10,1.5,22,M,,M,,*61
06/05/2014	23:08:15.620	$GPGGA,230815,2425.7247,N,08121.4069,W,1,10,1.5,22,M,,M,,*6E
06/05/2014	23:08:16.669	$GPGGA,230816,2425.7240,N,08121.4067,W,1,10,1.5,22,M,,M,,*64
06/05/2014	23:08:17.667	$GPGGA,230817,2425.7236,N,08121.4064,W,1,10,1.4,22,M,,M,,*66
06/05/2014	23:08:18.695	$GPGGA,230818,2425.7231,N,08121.4061,W,1,10,1.4,22,M,,M,,*6B
06/05/2014	23:08:19.724	$GPGGA,230819,2425.7226,N,08121.4061,W,1,10,1.4,22,M,,M,,*6C
06/05/2014	23:08:20.773	$GPGGA,230820,2425.7222,N,08121.4059,W,1,10,1.4,22,M,,M,,*69
06/05/2014	23:08:21.812	$GPGGA,230821,2425.7216,N,08121.4054,W,1,10,1.4,22,M,,M,,*62
06/05/2014	23:08:22.809	$GPGGA,230822,2425.7211,N,08121.4053,W,1,10,1.4,22,M,,M,,*61
06/05/2014	23:08:23.952	$GPGGA,230823,2425.7206,N,08121.4052,W,1,10,1.4,22,M,,M,,*67
06/05/2014	23:08:24.876	$GPGGA,230824,2425.7201,N,08121.4050,W,1,10,1.4,22,M,,M,,*65
06/05/2014	23:08:26.007	$GPGGA,230825,2425.7197,N,08121.4047,W,1,10,1.4,22,M,,M,,*6E
06/05/2014	23:08:26.912	$GPGGA,230826,2425.7191,N,08121.4044,W,1,10,1.4,22,M,,M,,*68
06/05/2014	23:08:28.064	$GPGGA,230827,2425.7186,N,08121.4042,W,1,10,1.4,22,M,,M,,*69
06/05/2014	23:08:29.093	$GPGGA,230828,2425.7182,N,08121.4041,W,1,10,1.4,22,M,,M,,*61
06/05/2014	23:08:29.987	$GPGGA,230829,2425.7176,N,08121.4039,W,1,10,1.4,22,M,,M,,*64
06/05/2014	23:08:31.026	$GPGGA,230830,2425.7171,N,08121.4036,W,1,10,1.6,22,M,,M,,*66
06/05/2014	23:08:32.168	$GPGGA,230831,2425.7166,N,08121.4034,W,1,10,1.4,22,M,,M,,*61
06/05/2014	23:08:33.073	$GPGGA,230832,2425.7161,N,08121.4033,W,1,10,1.4,22,M,,M,,*62
06/05/2014	23:08:34.194	$GPGGA,230833,2425.7157,N,08121.4031,W,1,10,1.4,22,M,,M,,*64
06/05/2014	23:08:35.120	$GPGGA,230834,2425.7152,N,08121.4028,W,1,10,1.4,22,M,,M,,*6E
06/05/2014	23:08:36.251	$GPGGA,230835,2425.7147,N,08121.4026,W,1,10,1.4,22,M,,M,,*65
06/05/2014	23:08:35.489	$GPGGA,230836,2425.7142,N,08121.4024,W,1,10,1.4,22,M,,M,,*61
06/05/2014	23:08:36.600	$GPGGA,230837,2425.7139,N,08121.4022,W,1,10,1.6,22,M,,M,,*68
06/05/2014	23:08:37.526	$GPGGA,230838,2425.7133,N,08121.4020,W,1,10,1.4,22,M,,M,,*6D
06/05/2014	23:08:38.647	$GPGGA,230839,2425.7128,N,08121.4019,W,1,10,1.4,22,M,,M,,*6C
06/05/2014	23:08:39.696	$GPGGA,230840,2425.7123,N,08121.4018,W,1,10,1.4,22,M,,M,,*68
06/05/2014	23:08:40.725	$GPGGA,230841,2425.7118,N,08121.4014,W,1,10,1.4,22,M,,M,,*6D
06/05/2014	23:08:41.731	$GPGGA,230842,2425.7114,N,08121.4014,W,1,10,1.4,22,M,,M,,*62
06/05/2014	23:08:42.770	$GPGGA,230843,2425.7108,N,08121.4012,W,1,10,1.4,22,M,,M,,*68
06/05/2014	23:08:43.798	$GPGGA,230844,2425.7104,N,08121.4009,W,1,10,1.4,22,M,,M,,*69
06/05/2014	23:08:44.847	$GPGGA,230845,2425.7099,N,08121.4008,W,1,10,1.4,22,M,,M,,*6C
06/05/2014	23:08:45.835	$GPGGA,230846,2425.7094,N,08121.4007,W,1,10,1.4,22,M,,M,,*6D
06/05/2014	23:08:46.853	$GPGGA,230847,2425.7089,N,08121.4004,W,1,10,2.2,22,M,,M,,*66
06/05/2014	23:08:47.912	$GPGGA,230848,2425.7085,N,08121.4003,W,1,10,2.2,22,M,,M,,*62
06/05/2014	23:08:48.931	$GPGGA,230849,2425.7081,N,08121.4002,W,1,10,2.2,22,M,,M,,*66
06/05/2014	23:08:49.939	$GPGGA,230850,2425.7075,N,08121.4001,W,1,10,2.2,22,M,,M,,*66
06/05/2014	23:08:52.263	$GPGGA,230852,2425.7066,N,08121.3998,W,1,10,2.2,22,M,,M,,*68
06/05/2014	23:08:53.034	$GPGGA,230853,2425.7061,N,08121.3996,W,1,10,2.2,22,M,,M,,*60
06/05/2014	23:08:54.053	$GPGGA,230854,2425.7056,N,08121.3994,W,1,10,2.2,22,M,,M,,*61
06/05/2014	23:08:55.091	$GPGGA,230855,2425.7052,N,08121.3992,W,1,10,2.2,22,M,,M,,*62
06/05/2014	23:08:56.111	$GPGGA,230856,2425.7046,N,08121.3991,W,1,10,2.2,22,M,,M,,*67
06/05/2014	23:08:57.148	$GPGGA,230857,2425.7041,N,08121.3989,W,1,10,2.2,22,M,,M,,*68
06/05/2014	23:08:58.159	$GPGGA,230858,2425.7038,N,08121.3988,W,1,10,2.2,22,M,,M,,*68
06/05/2014	23:08:59.164	$GPGGA,230859,2425.7032,N,08121.3985,W,1,10,2.2,22,M,,M,,*6E
06/05/2014	23:09:00.222	$GPGGA,230900,2425.7027,N,08121.3984,W,1,10,2.2,22,M,,M,,*66
06/05/2014	23:09:01.220	$GPGGA,230901,2425.7023,N,08121.3983,W,1,10,2.2,22,M,,M,,*64
06/05/2014	23:09:02.259	$GPGGA,230902,2425.7017,N,08121.3981,W,1,10,2.2,22,M,,M,,*62
06/05/2014	23:09:03.277	$GPGGA,230903,2425.7013,N,08121.3978,W,1,10,2.2,22,M,,M,,*61
06/05/2014	23:09:04.326	$GPGGA,230904,2425.7009,N,08121.3978,W,1,10,2.2,22,M,,M,,*6D
06/05/2014	23:09:05.324	$GPGGA,230905,2425.7002,N,08121.3978,W,1,10,2.2,21,M,,M,,*64
06/05/2014	23:09:06.373	$GPGGA,230906,2425.6998,N,08121.3974,W,1,10,2.2,21,M,,M,,*60
06/05/2014	23:09:07.381	$GPGGA,230907,2425.6993,N,08121.3971,W,1,10,2.2,21,M,,M,,*6F
06/05/2014	23:09:08.430	$GPGGA,230908,2425.6988,N,08121.3971,W,1,10,2.2,21,M,,M,,*6A
06/05/2014	23:09:09.469	$GPGGA,230909,2425.6983,N,08121.3970,W,1,10,2.2,21,M,,M,,*61
06/05/2014	23:09:10.477	$GPGGA,230910,2425.6978,N,08121.3968,W,1,10,2.3,21,M,,M,,*65
06/05/2014	23:09:11.485	$GPGGA,230911,2425.6974,N,08121.3964,W,1,10,2.2,21,M,,M,,*65
06/05/2014	23:09:12.534	$GPGGA,230912,2425.6969,N,08121.3963,W,1,10,2.2,21,M,,M,,*6D
06/05/2014	23:09:13.552	$GPGGA,230913,2425.6964,N,08121.3962,W,1,10,2.2,21,M,,M,,*60
06/05/2014	23:09:14.560	$GPGGA,230914,2425.6959,N,08121.3960,W,1,10,2.2,21,M,,M,,*6B
06/05/2014	23:09:15.629	$GPGGA,230915,2425.6955,N,08121.3958,W,1,9,2.3,21,M,,M,,*54
06/05/2014	23:09:16.648	$GPGGA,230916,2425.6951,N,08121.3954,W,1,9,2.2,21,M,,M,,*5E
06/05/2014	23:09:17.686	$GPGGA,230917,2425.6946,N,08121.3954,W,1,10,2.2,20,M,,M,,*60
06/05/2014	23:09:18.673	$GPGGA,230918,2425.6941,N,08121.3952,W,1,10,2.2,20,M,,M,,*6E
06/05/2014	23:09:19.732	$GPGGA,230919,2425.6937,N,08121.3950,W,1,10,2.2,20,M,,M,,*6C
06/05/2014	23:09:20.730	$GPGGA,230920,2425.6933,N,08121.3948,W,1,10,2.3,20,M,,M,,*6A
06/05/2014	23:09:21.748	$GPGGA,230921,2425.6928,N,08121.3946,W,1,9,2.3,20,M,,M,,*57
06/05/2014	23:09:22.776	$GPGGA,230922,2425.6923,N,08121.3944,W,1,9,2.2,20,M,,M,,*5C
06/05/2014	23:09:23.928	$GPGGA,230923,2425.6917,N,08121.3943,W,1,10,2.2,20,M,,M,,*65
06/05/2014	23:09:24.864	$GPGGA,230924,2425.6913,N,08121.3940,W,1,10,2.2,19,M,,M,,*6F
06/05/2014	23:09:25.985	$GPGGA,230925,2425.6909,N,08121.3937,W,1,9,2.3,19,M,,M,,*5C
06/05/2014	23:09:26.890	$GPGGA,230926,2425.6904,N,08121.3936,W,1,9,2.3,19,M,,M,,*53
06/05/2014	23:09:28.042	$GPGGA,230927,2425.6899,N,08121.3935,W,1,10,2.2,19,M,,M,,*6D
06/05/2014	23:09:28.958	$GPGGA,230928,2425.6893,N,08121.3932,W,1,10,2.2,19,M,,M,,*6F
06/05/2014	23:09:30.079	$GPGGA,230929,2425.6889,N,08121.3930,W,1,10,2.2,19,M,,M,,*67
06/05/2014	23:09:31.107	$GPGGA,230930,2425.6884,N,08121.3931,W,1,10,2.2,19,M,,M,,*63
06/05/2014	23:09:33.545	$GPGGA,230932,2425.6875,N,08121.3924,W,1,10,2.2,19,M,,M,,*6B
06/05/2014	23:09:34.172	$GPGGA,230933,2425.6869,N,08121.3922,W,1,10,2.2,19,M,,M,,*61
06/05/2014	23:09:35.210	$GPGGA,230934,2425.6865,N,08121.3923,W,1,10,2.2,19,M,,M,,*6B
06/05/2014	23:09:36.249	$GPGGA,230935,2425.6861,N,08121.3919,W,1,10,2.2,19,M,,M,,*67
06/05/2014	23:09:35.558	$GPGGA,230936,2425.6855,N,08121.3916,W,1,10,2.2,19,M,,M,,*6C
06/05/2014	23:09:36.597	$GPGGA,230937,2425.6850,N,08121.3915,W,1,10,2.2,19,M,,M,,*6B
06/05/2014	23:09:37.594	$GPGGA,230938,2425.6846,N,08121.3914,W,1,10,2.2,19,M,,M,,*62
06/05/2014	23:09:38.614	$GPGGA,230939,2425.6841,N,08121.3910,W,1,10,2.2,19,M,,M,,*60
06/05/2014	23:09:39.662	$GPGGA,230940,2425.6836,N,08121.3908,W,1,10,2.2,19,M,,M,,*67
06/05/2014	23:09:40.690	$GPGGA,230941,2425.6832,N,08121.3907,W,1,10,2.2,19,M,,M,,*6D
06/05/2014	23:09:41.708	$GPGGA,230942,2425.6826,N,08121.3905,W,1,10,2.2,19,M,,M,,*69
06/05/2014	23:09:42.747	$GPGGA,230943,2425.6822,N,08121.3902,W,1,10,2.2,19,M,,M,,*6B
06/05/2014	23:09:43.762	$GPGGA,230944,2425.6816,N,08121.3900,W,1,10,2.2,19,M,,M,,*69
06/05/2014	23:09:44.804	$GPGGA,230945,2425.6812,N,08121.3899,W,1,10,2.2,19,M,,M,,*6D
06/05/2014	23:09:45.803	$GPGGA,230946,2425.6807,N,08121.3896,W,1,10,2.2,19,M,,M,,*65
06/05/2014	23:09:46.861	$GPGGA,230947,2425.6803,N,08121.3894,W,1,10,2.2,19,M,,M,,*62
06/05/2014	23:09:47.879	$GPGGA,230948,2425.6797,N,08121.3893,W,1,10,2.2,19,M,,M,,*68
06/05/2014	23:09:48.878	$GPGGA,230949,2425.6793,N,08121.3891,W,1,10,2.2,19,M,,M,,*6F
06/05/2014	23:09:49.917	$GPGGA,230950,2425.6788,N,08121.3888,W,1,10,2.2,19,M,,M,,*65
06/05/2014	23:09:50.975	$GPGGA,230951,2425.6783,N,08121.3887,W,1,10,2.2,19,M,,M,,*60
06/05/2014	23:09:51.972	$GPGGA,230952,2425.6778,N,08121.3885,W,1,10,2.2,19,M,,M,,*65
06/05/2014	23:09:52.990	$GPGGA,230953,2425.6774,N,08121.3883,W,1,10,2.2,19,M,,M,,*6E
06/05/2014	23:09:54.029	$GPGGA,230954,2425.6768,N,08121.3881,W,1,10,2.2,19,M,,M,,*66
06/05/2014	23:09:55.037	$GPGGA,230955,2425.6763,N,08121.3880,W,1,10,2.2,19,M,,M,,*6D
06/05/2014	23:09:56.086	$GPGGA,230956,2425.6759,N,08121.3878,W,1,10,2.2,19,M,,M,,*60
06/05/2014	23:09:57.114	$GPGGA,230957,2425.6753,N,08121.3875,W,1,10,2.2,19,M,,M,,*66
06/05/2014	23:09:58.143	$GPGGA,230958,2425.6749,N,08121.3873,W,1,10,2.2,19,M,,M,,*64
06/05/2014	23:09:59.141	$GPGGA,230959,2425.6745,N,08121.3873,W,1,10,2.2,19,M,,M,,*69
06/05/2014	23:10:00.200	$GPGGA,231000,2425.6739,N,08121.3871,W,1,10,2.2,19,M,,M,,*64
06/05/2014	23:10:01.208	$GPGGA,231001,2425.6735,N,08121.3867,W,1,10,2.2,19,M,,M,,*6E
06/05/2014	23:10:02.349	$GPGGA,231002,2425.6730,N,08121.3866,W,1,10,2.2,19,M,,M,,*69
06/05/2014	23:10:03.388	$GPGGA,231003,2425.6725,N,08121.3865,W,1,10,2.2,19,M,,M,,*6F
06/05/2014	23:10:04.293	$GPGGA,231004,2425.6720,N,08121.3863,W,1,10,2.2,19,M,,M,,*6B
06/05/2014	23:10:05.414	$GPGGA,231005,2425.6716,N,08121.3860,W,1,10,2.1,18,M,,M,,*6E
06/05/2014	23:10:06.350	$GPGGA,231006,2425.6712,N,08121.3858,W,1,10,2.1,18,M,,M,,*62
06/05/2014	23:10:07.492	$GPGGA,231007,2425.6706,N,08121.3857,W,1,10,2.1,18,M,,M,,*69
06/05/2014	23:10:08.407	$GPGGA,231008,2425.6702,N,08121.3855,W,1,10,2.1,18,M,,M,,*60
06/05/2014	23:10:09.414	$GPGGA,231009,2425.6698,N,08121.3852,W,1,10,2.1,18,M,,M,,*64
06/05/2014	23:10:10.432	$GPGGA,231010,2425.6693,N,08121.3851,W,1,10,2.1,18,M,,M,,*64
06/05/2014	23:10:11.471	$GPGGA,231011,2425.6688,N,08121.3849,W,1,10,2.1,18,M,,M,,*66
06/05/2014	23:10:12.633	$GPGGA,231012,2425.6684,N,08121.3846,W,1,10,2.1,18,M,,M,,*66
06/05/2014	23:10:13.652	$GPGGA,231013,2425.6678,N,08121.3844,W,1,10,2.1,18,M,,M,,*66
06/05/2014	23:10:14.557	$GPGGA,231014,2425.6674,N,08121.3844,W,1,10,2.1,18,M,,M,,*6D
06/05/2014	23:10:15.709	$GPGGA,231015,2425.6669,N,08121.3841,W,1,10,2.1,18,M,,M,,*65
06/05/2014	23:10:16.737	$GPGGA,231016,2425.6665,N,08121.3838,W,1,10,2.1,18,M,,M,,*64
06/05/2014	23:10:17.755	$GPGGA,231017,2425.6660,N,08121.3837,W,1,10,2.1,18,M,,M,,*6F
06/05/2014	23:10:19.812	$GPGGA,231018,2425.6655,N,08121.3836,W,1,10,2.1,18,M,,M,,*67
06/05/2014	23:10:19.833	$GPGGA,231019,2425.6651,N,08121.3832,W,1,10,2.1,18,M,,M,,*66
06/05/2014	23:10:20.820	$GPGGA,231020,2425.6646,N,08121.3830,W,1,10,2.1,18,M,,M,,*68
06/05/2014	23:10:21.859	$GPGGA,231021,2425.6641,N,08121.3830,W,1,10,2.1,18,M,,M,,*6E
06/05/2014	23:10:22.867	$GPGGA,231022,2425.6637,N,08121.3827,W,1,10,2.1,18,M,,M,,*6A
06/05/2014	23:10:23.910	$GPGGA,231023,2425.6631,N,08121.3823,W,1,10,2.1,18,M,,M,,*69
06/05/2014	23:10:24.912	$GPGGA,231024,2425.6626,N,08121.3822,W,1,10,2.1,18,M,,M,,*69
06/05/2014	23:10:25.923	$GPGGA,231025,2425.6622,N,08121.3821,W,1,10,2.1,18,M,,M,,*6F
06/05/2014	23:10:26.915	$GPGGA,231026,2425.6617,N,08121.3819,W,1,10,2.1,17,M,,M,,*6E
06/05/2014	23:10:27.947	$GPGGA,231027,2425.6612,N,08121.3816,W,1,10,2.1,17,M,,M,,*65
06/05/2014	23:10:28.958	$GPGGA,231028,2425.6608,N,08121.3815,W,1,10,2.1,17,M,,M,,*62
06/05/2014	23:10:29.960	$GPGGA,231029,2425.6604,N,08121.3813,W,1,10,2.1,17,M,,M,,*69
06/05/2014	23:10:30.941	$GPGGA,231030,2425.6598,N,08121.3811,W,1,10,2.1,17,M,,M,,*65
06/05/2014	23:10:31.974	$GPGGA,231031,2425.6594,N,08121.3809,W,1,10,2.1,17,M,,M,,*61
06/05/2014	23:10:32.986	$GPGGA,231032,2425.6590,N,08121.3807,W,1,10,2.1,17,M,,M,,*68
06/05/2014	23:10:33.987	$GPGGA,231033,2425.6584,N,08121.3806,W,1,10,2.1,17,M,,M,,*6D
06/05/2014	23:10:34.991	$GPGGA,231034,2425.6580,N,08121.3803,W,1,10,2.1,17,M,,M,,*6B
06/05/2014	23:10:36.021	$GPGGA,231035,2425.6575,N,08121.3801,W,1,10,2.1,17,M,,M,,*62
06/05/2014	23:10:35.515	$GPGGA,231036,2425.6570,N,08121.3800,W,1,10,2.1,17,M,,M,,*65
06/05/2014	23:10:36.517	$GPGGA,231037,2425.6565,N,08121.3799,W,1,10,2.1,17,M,,M,,*6F
06/05/2014	23:10:37.529	$GPGGA,231038,2425.6561,N,08121.3795,W,1,10,2.1,17,M,,M,,*68
06/05/2014	23:10:38.530	$GPGGA,231039,2425.6557,N,08121.3793,W,1,10,2.1,17,M,,M,,*6A
06/05/2014	23:10:39.562	$GPGGA,231040,2425.6551,N,08121.3793,W,1,10,2.1,17,M,,M,,*62
06/05/2014	23:10:40.564	$GPGGA,231041,2425.6546,N,08121.3789,W,1,10,2.1,17,M,,M,,*6E
06/05/2014	23:10:41.576	$GPGGA,231042,2425.6543,N,08121.3788,W,1,10,2.1,17,M,,M,,*69
06/05/2014	23:10:42.578	$GPGGA,231043,2425.6537,N,08121.3786,W,1,10,2.1,17,M,,M,,*65
06/05/2014	23:10:43.599	$GPGGA,231044,2425.6532,N,08121.3784,W,1,10,2.1,17,M,,M,,*65
06/05/2014	23:10:44.611	$GPGGA,231045,2425.6528,N,08121.3782,W,1,10,2.1,17,M,,M,,*69
06/05/2014	23:10:45.634	$GPGGA,231046,2425.6525,N,08121.3780,W,1,10,2.1,17,M,,M,,*65
06/05/2014	23:10:46.655	$GPGGA,231047,2425.6519,N,08121.3779,W,1,10,2.1,17,M,,M,,*6D
06/05/2014	23:10:47.647	$GPGGA,231048,2425.6514,N,08121.3778,W,1,10,2.1,17,M,,M,,*6E
06/05/2014	23:10:48.658	$GPGGA,231049,2425.6510,N,08121.3775,W,1,10,2.1,17,M,,M,,*66
06/05/2014	23:10:49.671	$GPGGA,231050,2425.6507,N,08121.3772,W,1,10,2.1,17,M,,M,,*6F
06/05/2014	23:10:50.652	$GPGGA,231051,2425.6501,N,08121.3770,W,1,10,2.1,16,M,,M,,*6B
06/05/2014	23:10:51.684	$GPGGA,231052,2425.6497,N,08121.3769,W,1,10,2.1,16,M,,M,,*6E
06/05/2014	23:10:52.706	$GPGGA,231053,2425.6492,N,08121.3768,W,1,10,2.1,16,M,,M,,*6B
06/05/2014	23:10:53.779	$GPGGA,231054,2425.6487,N,08121.3766,W,1,10,2.1,16,M,,M,,*66
06/05/2014	23:10:54.720	$GPGGA,231055,2425.6483,N,08121.3763,W,1,10,2.1,16,M,,M,,*66
06/05/2014	23:10:55.742	$GPGGA,231056,2425.6479,N,08121.3761,W,1,10,2.1,16,M,,M,,*62
06/05/2014	23:10:56.814	$GPGGA,231057,2425.6474,N,08121.3760,W,1,10,2.1,16,M,,M,,*6F
06/05/2014	23:10:57.746	$GPGGA,231058,2425.6469,N,08121.3758,W,1,10,2.1,16,M,,M,,*67
06/05/2014	23:10:58.858	$GPGGA,231059,2425.6464,N,08121.3756,W,1,10,2.1,16,M,,M,,*65
06/05/2014	23:10:59.800	$GPGGA,231100,2425.6460,N,08121.3753,W,1,10,2.1,16,M,,M,,*69
06/05/2014	23:11:00.881	$GPGGA,231101,2425.6456,N,08121.3751,W,1,10,2.1,16,M,,M,,*6F
06/05/2014	23:11:01.782	$GPGGA,231102,2425.6451,N,08121.3751,W,1,10,2.1,16,M,,M,,*6B
06/05/2014	23:11:02.794	$GPGGA,231103,2425.6447,N,08121.3749,W,1,10,2.1,16,M,,M,,*64
06/05/2014	23:11:03.917	$GPGGA,231104,2425.6442,N,08121.3746,W,1,10,2.1,16,M,,M,,*69
06/05/2014	23:11:04.807	$GPGGA,231105,2425.6438,N,08121.3745,W,1,10,2.1,16,M,,M,,*66
06/05/2014	23:11:05.900	$GPGGA,231106,2425.6434,N,08121.3744,W,1,10,2.1,16,M,,M,,*68
06/05/2014	23:11:06.942	$GPGGA,231107,2425.6429,N,08121.3742,W,1,10,2.1,16,M,,M,,*63
06/05/2014	23:11:07.944	$GPGGA,231108,2425.6425,N,08121.3740,W,1,10,2.1,16,M,,M,,*62
06/05/2014	23:11:08.936	$GPGGA,231109,2425.6420,N,08121.3738,W,1,10,2.1,16,M,,M,,*69
06/05/2014	23:11:09.948	$GPGGA,231110,2425.6416,N,08121.3736,W,1,10,2.1,16,M,,M,,*6A
06/05/2014	23:11:10.970	$GPGGA,231111,2425.6413,N,08121.3735,W,1,10,2.1,16,M,,M,,*6D
06/05/2014	23:11:11.982	$GPGGA,231112,2425.6407,N,08121.3733,W,1,10,2.1,16,M,,M,,*6D
06/05/2014	23:11:12.994	$GPGGA,231113,2425.6402,N,08121.3731,W,1,10,2.1,16,M,,M,,*6B
06/05/2014	23:11:13.985	$GPGGA,231114,2425.6398,N,08121.3729,W,1,10,2.1,16,M,,M,,*61
06/05/2014	23:11:15.007	$GPGGA,231115,2425.6395,N,08121.3727,W,1,10,2.1,16,M,,M,,*63
06/05/2014	23:11:16.019	$GPGGA,231116,2425.6391,N,08121.3725,W,1,10,2.1,16,M,,M,,*66
06/05/2014	23:11:17.021	$GPGGA,231117,2425.6385,N,08121.3724,W,1,10,2.1,16,M,,M,,*63
06/05/2014	23:11:18.033	$GPGGA,231118,2425.6380,N,08121.3722,W,1,10,2.1,16,M,,M,,*6F
06/05/2014	23:11:19.044	$GPGGA,231119,2425.6376,N,08121.3719,W,1,10,2.1,16,M,,M,,*6F
06/05/2014	23:11:20.056	$GPGGA,231120,2425.6373,N,08121.3718,W,1,10,2.1,16,M,,M,,*61
06/05/2014	23:11:21.047	$GPGGA,231121,2425.6367,N,08121.3716,W,1,10,2.1,15,M,,M,,*68
06/05/2014	23:11:22.049	$GPGGA,231122,2425.6363,N,08121.3714,W,1,10,2.1,15,M,,M,,*6D
06/05/2014	23:11:23.101	$GPGGA,231123,2425.6358,N,08121.3713,W,1,10,2.1,15,M,,M,,*63
06/05/2014	23:11:24.093	$GPGGA,231124,2425.6355,N,08121.3710,W,1,10,2.1,15,M,,M,,*6A
06/05/2014	23:11:25.096	$GPGGA,231125,2425.6350,N,08121.3707,W,1,10,2.1,15,M,,M,,*68
06/05/2014	23:11:26.107	$GPGGA,231126,2425.6345,N,08121.3706,W,1,10,2.1,15,M,,M,,*6E
06/05/2014	23:11:27.139	$GPGGA,231127,2425.6340,N,08121.3705,W,1,10,2.1,15,M,,M,,*69
06/05/2014	23:11:28.131	$GPGGA,231128,2425.6337,N,08121.3702,W,1,10,2.1,15,M,,M,,*61
06/05/2014	23:11:29.122	$GPGGA,231129,2425.6333,N,08121.3700,W,1,10,2.1,15,M,,M,,*66
06/05/2014	23:11:30.134	$GPGGA,231130,2425.6327,N,08121.3697,W,1,10,2.1,15,M,,M,,*64
06/05/2014	23:11:31.187	$GPGGA,231131,2425.6323,N,08121.3696,W,1,10,2.1,15,M,,M,,*60
06/05/2014	23:11:32.178	$GPGGA,231132,2425.6319,N,08121.3695,W,1,10,2.1,15,M,,M,,*69
06/05/2014	23:11:33.160	$GPGGA,231133,2425.6315,N,08121.3692,W,1,10,2.1,15,M,,M,,*63
06/05/2014	23:11:34.192	$GPGGA,231134,2425.6310,N,08121.3689,W,1,10,2.1,15,M,,M,,*6B
06/05/2014	23:11:35.184	$GPGGA,231135,2425.6305,N,08121.3687,W,1,10,2.1,15,M,,M,,*60
06/05/2014	23:11:35.503	$GPGGA,231136,2425.6301,N,08121.3685,W,1,10,2.1,15,M,,M,,*65
06/05/2014	23:11:36.494	$GPGGA,231137,2425.6297,N,08121.3683,W,1,10,2.1,15,M,,M,,*6C
06/05/2014	23:11:37.527	$GPGGA,231138,2425.6292,N,08121.3681,W,1,10,2.1,15,M,,M,,*64
06/05/2014	23:11:38.518	$GPGGA,231139,2425.6288,N,08121.3679,W,1,10,2.1,15,M,,M,,*69
06/05/2014	23:11:39.530	$GPGGA,231140,2425.6284,N,08121.3677,W,1,10,2.1,15,M,,M,,*65
06/05/2014	23:11:40.552	$GPGGA,231141,2425.6279,N,08121.3675,W,1,10,2.1,15,M,,M,,*64
06/05/2014	23:11:41.645	$GPGGA,231142,2425.6275,N,08121.3673,W,1,10,2.1,15,M,,M,,*6D
06/05/2014	23:11:42.556	$GPGGA,231143,2425.6272,N,08121.3670,W,1,10,2.1,15,M,,M,,*68
06/05/2014	23:11:43.588	$GPGGA,231144,2425.6266,N,08121.3669,W,1,10,2.1,15,M,,M,,*62
06/05/2014	23:11:44.569	$GPGGA,231145,2425.6262,N,08121.3670,W,1,10,2.1,15,M,,M,,*6F
06/05/2014	23:11:45.591	$GPGGA,231146,2425.6257,N,08121.3666,W,1,10,2.1,15,M,,M,,*6D
