Software Version Number: 1	Data File Format Number: 1	Build Version Number: 1	Error Count Since VI Started: 0	Manufacturer: Raytheon	 Model Number: RayMarine 120	 S/N: 	 Cal Date: 	 Wind Direction Offset: 0.00	 Slope (M)1: 0.00	 Offset (B)1: 0.00	 Slope (M)2: 0.00	 Offset (B)2: 0.00	 Slope (M)3: 0.00	 Offset (B)3: 0.00	 Slope (M)4: 0.00	 Offset (B)4: 0.00	 Slope (M)5: 0.00	 Offset (B)5: 0.00	 Slope (M)6: 0.00	 Offset (B)6: 0.00
Computer Date	Computer Time	GGA String
06/06/2014	22:00:01.004	$GPGGA,220008,2422.9436,N,08137.8225,W,1,10,1.5,16,M,,M,,*64
06/06/2014	22:00:02.027	$GPGGA,220009,2422.9451,N,08137.8224,W,1,10,1.5,16,M,,M,,*65
06/06/2014	22:00:02.987	$GPGGA,220010,2422.9465,N,08137.8223,W,1,10,1.5,16,M,,M,,*6D
06/06/2014	22:00:04.125	$GPGGA,220011,2422.9480,N,08137.8222,W,1,10,1.5,16,M,,M,,*66
06/06/2014	22:00:05.214	$GPGGA,220012,2422.9497,N,08137.8220,W,1,10,1.5,16,M,,M,,*61
06/06/2014	22:00:06.140	$GPGGA,220013,2422.9512,N,08137.8219,W,1,10,1.5,16,M,,M,,*66
06/06/2014	22:00:07.182	$GPGGA,220014,2422.9527,N,08137.8217,W,1,10,1.5,16,M,,M,,*69
06/06/2014	22:00:08.363	$GPGGA,220015,2422.9541,N,08137.8216,W,1,10,1.5,16,M,,M,,*69
06/06/2014	22:00:09.407	$GPGGA,220016,2422.9556,N,08137.8215,W,1,10,1.5,16,M,,M,,*6F
06/06/2014	22:00:10.451	$GPGGA,220017,2422.9572,N,08137.8213,W,1,10,1.5,16,M,,M,,*6E
06/06/2014	22:00:11.495	$GPGGA,220018,2422.9588,N,08137.8212,W,1,10,1.5,16,M,,M,,*65
06/06/2014	22:00:12.560	$GPGGA,220019,2422.9603,N,08137.8210,W,1,10,1.5,16,M,,M,,*66
06/06/2014	22:00:13.603	$GPGGA,220020,2422.9617,N,08137.8209,W,1,10,1.5,16,M,,M,,*61
06/06/2014	22:00:14.668	$GPGGA,220021,2422.9632,N,08137.8208,W,1,10,1.5,15,M,,M,,*65
06/06/2014	22:00:15.712	$GPGGA,220022,2422.9648,N,08137.8207,W,1,10,1.5,15,M,,M,,*64
06/06/2014	22:00:16.756	$GPGGA,220023,2422.9663,N,08137.8206,W,1,10,1.5,15,M,,M,,*6D
06/06/2014	22:00:17.832	$GPGGA,220024,2422.9678,N,08137.8205,W,1,10,1.5,15,M,,M,,*63
06/06/2014	22:00:18.886	$GPGGA,220025,2422.9693,N,08137.8203,W,1,10,1.5,15,M,,M,,*61
06/06/2014	22:00:19.909	$GPGGA,220026,2422.9707,N,08137.8202,W,1,10,1.5,15,M,,M,,*6F
06/06/2014	22:00:20.984	$GPGGA,220027,2422.9722,N,08137.8201,W,1,10,1.5,15,M,,M,,*6A
06/06/2014	22:00:22.039	$GPGGA,220028,2422.9738,N,08137.8199,W,1,10,1.5,15,M,,M,,*6C
06/06/2014	22:00:23.083	$GPGGA,220029,2422.9753,N,08137.8198,W,1,10,1.5,15,M,,M,,*61
06/06/2014	22:00:24.126	$GPGGA,220030,2422.9768,N,08137.8198,W,1,10,1.5,15,M,,M,,*61
06/06/2014	22:00:25.202	$GPGGA,220031,2422.9782,N,08137.8196,W,1,10,1.5,15,M,,M,,*6A
06/06/2014	22:00:26.235	$GPGGA,220032,2422.9798,N,08137.8194,W,1,10,1.5,15,M,,M,,*60
06/06/2014	22:00:27.310	$GPGGA,220033,2422.9812,N,08137.8193,W,1,10,1.5,15,M,,M,,*6B
06/06/2014	22:00:28.933	$GPGGA,220034,2422.9827,N,08137.8194,W,1,10,1.5,15,M,,M,,*6D
06/06/2014	22:00:29.418	$GPGGA,220035,2422.9843,N,08137.8191,W,1,10,1.5,15,M,,M,,*6B
06/06/2014	22:00:30.452	$GPGGA,220036,2422.9858,N,08137.8189,W,1,10,1.5,15,M,,M,,*6B
06/06/2014	22:00:28.246	$GPGGA,220037,2422.9872,N,08137.8188,W,1,10,1.5,14,M,,M,,*62
06/06/2014	22:00:29.290	$GPGGA,220038,2422.9887,N,08137.8187,W,1,10,1.5,14,M,,M,,*68
06/06/2014	22:00:30.344	$GPGGA,220039,2422.9902,N,08137.8185,W,1,10,1.5,14,M,,M,,*67
06/06/2014	22:00:31.399	$GPGGA,220040,2422.9917,N,08137.8184,W,1,10,1.5,14,M,,M,,*6C
06/06/2014	22:00:32.432	$GPGGA,220041,2422.9931,N,08137.8183,W,1,10,1.5,14,M,,M,,*6E
06/06/2014	22:00:33.497	$GPGGA,220042,2422.9946,N,08137.8181,W,1,10,1.5,14,M,,M,,*6F
06/06/2014	22:00:34.583	$GPGGA,220043,2422.9962,N,08137.8180,W,1,10,1.5,14,M,,M,,*69
06/06/2014	22:00:35.606	$GPGGA,220044,2422.9977,N,08137.8178,W,1,10,1.5,14,M,,M,,*6D
06/06/2014	22:00:36.630	$GPGGA,220045,2422.9992,N,08137.8177,W,1,10,1.5,14,M,,M,,*68
06/06/2014	22:00:37.632	$GPGGA,220046,2423.0006,N,08137.8175,W,1,10,1.5,14,M,,M,,*65
06/06/2014	22:00:38.764	$GPGGA,220047,2423.0021,N,08137.8174,W,1,10,1.5,14,M,,M,,*60
06/06/2014	22:00:39.683	$GPGGA,220048,2423.0036,N,08137.8172,W,1,10,1.5,14,M,,M,,*6F
06/06/2014	22:00:40.703	$GPGGA,220049,2423.0051,N,08137.8171,W,1,10,1.5,14,M,,M,,*6C
06/06/2014	22:00:41.717	$GPGGA,220050,2423.0065,N,08137.8170,W,1,10,1.5,14,M,,M,,*62
06/06/2014	22:00:42.746	$GPGGA,220051,2423.0080,N,08137.8168,W,1,10,1.5,14,M,,M,,*61
06/06/2014	22:00:43.859	$GPGGA,220052,2423.0096,N,08137.8167,W,1,10,1.5,14,M,,M,,*6A
06/06/2014	22:00:44.788	$GPGGA,220053,2423.0111,N,08137.8165,W,1,10,1.5,14,M,,M,,*67
06/06/2014	22:00:45.789	$GPGGA,220054,2423.0126,N,08137.8164,W,1,10,1.5,14,M,,M,,*65
06/06/2014	22:00:46.801	$GPGGA,220055,2423.0141,N,08137.8163,W,1,10,1.5,14,M,,M,,*62
06/06/2014	22:00:47.954	$GPGGA,220056,2423.0155,N,08137.8161,W,1,10,1.5,14,M,,M,,*66
06/06/2014	22:00:48.842	$GPGGA,220057,2423.0170,N,08137.8160,W,1,10,1.5,14,M,,M,,*61
06/06/2014	22:00:49.966	$GPGGA,220058,2423.0186,N,08137.8159,W,1,10,1.5,14,M,,M,,*6D
06/06/2014	22:00:50.997	$GPGGA,220059,2423.0201,N,08137.8157,W,1,10,1.5,14,M,,M,,*6E
06/06/2014	22:00:51.937	$GPGGA,220100,2423.0215,N,08137.8156,W,1,10,1.5,14,M,,M,,*67
06/06/2014	22:00:53.043	$GPGGA,220101,2423.0230,N,08137.8154,W,1,10,1.5,14,M,,M,,*63
06/06/2014	22:00:53.948	$GPGGA,220102,2423.0246,N,08137.8153,W,1,10,1.5,14,M,,M,,*66
06/06/2014	22:00:54.961	$GPGGA,220103,2423.0260,N,08137.8152,W,1,10,1.5,14,M,,M,,*62
06/06/2014	22:00:56.093	$GPGGA,220104,2423.0275,N,08137.8151,W,1,10,1.5,14,M,,M,,*62
06/06/2014	22:00:57.094	$GPGGA,220105,2423.0291,N,08137.8149,W,1,10,1.5,14,M,,M,,*60
06/06/2014	22:00:58.117	$GPGGA,220106,2423.0306,N,08137.8150,W,1,10,1.5,13,M,,M,,*63
06/06/2014	22:00:59.135	$GPGGA,220107,2423.0321,N,08137.8148,W,1,10,1.5,13,M,,M,,*6E
06/06/2014	22:01:00.166	$GPGGA,220108,2423.0335,N,08137.8146,W,1,10,1.5,13,M,,M,,*6A
06/06/2014	22:01:01.177	$GPGGA,220109,2423.0350,N,08137.8145,W,1,10,1.5,13,M,,M,,*6B
06/06/2014	22:01:02.188	$GPGGA,220110,2423.0365,N,08137.8144,W,1,10,1.5,13,M,,M,,*64
06/06/2014	22:01:03.240	$GPGGA,220111,2423.0380,N,08137.8143,W,1,10,1.5,13,M,,M,,*69
06/06/2014	22:01:04.251	$GPGGA,220112,2423.0396,N,08137.8142,W,1,10,1.5,13,M,,M,,*6C
06/06/2014	22:01:05.272	$GPGGA,220113,2423.0411,N,08137.8140,W,1,10,1.5,13,M,,M,,*67
06/06/2014	22:01:06.273	$GPGGA,220114,2423.0426,N,08137.8139,W,1,10,1.5,13,M,,M,,*6A
06/06/2014	22:01:07.315	$GPGGA,220115,2423.0441,N,08137.8139,W,1,10,1.5,13,M,,M,,*6A
06/06/2014	22:01:08.326	$GPGGA,220116,2423.0455,N,08137.8137,W,1,10,1.5,13,M,,M,,*62
06/06/2014	22:01:09.347	$GPGGA,220117,2423.0470,N,08137.8136,W,1,10,1.5,13,M,,M,,*65
06/06/2014	22:01:10.348	$GPGGA,220118,2423.0486,N,08137.8135,W,1,10,1.5,13,M,,M,,*60
06/06/2014	22:01:11.359	$GPGGA,220119,2423.0501,N,08137.8134,W,1,10,1.5,13,M,,M,,*6E
06/06/2014	22:01:12.400	$GPGGA,220120,2423.0516,N,08137.8133,W,1,10,1.5,13,M,,M,,*65
06/06/2014	22:01:13.401	$GPGGA,220121,2423.0531,N,08137.8131,W,1,10,1.5,13,M,,M,,*63
06/06/2014	22:01:14.434	$GPGGA,220122,2423.0546,N,08137.8130,W,1,10,1.5,13,M,,M,,*61
06/06/2014	22:01:15.464	$GPGGA,220123,2423.0560,N,08137.8129,W,1,10,1.5,13,M,,M,,*6C
06/06/2014	22:01:16.484	$GPGGA,220124,2423.0575,N,08137.8128,W,1,10,1.5,13,M,,M,,*6E
06/06/2014	22:01:17.495	$GPGGA,220125,2423.0591,N,08137.8127,W,1,10,1.5,13,M,,M,,*6A
06/06/2014	22:01:18.506	$GPGGA,220126,2423.0606,N,08137.8125,W,1,10,1.5,13,M,,M,,*66
06/06/2014	22:01:19.517	$GPGGA,220127,2423.0621,N,08137.8125,W,1,10,1.5,13,M,,M,,*62
06/06/2014	22:01:20.569	$GPGGA,220128,2423.0636,N,08137.8124,W,1,10,1.5,13,M,,M,,*6A
06/06/2014	22:01:21.570	$GPGGA,220129,2423.0650,N,08137.8122,W,1,10,1.5,13,M,,M,,*6D
06/06/2014	22:01:22.591	$GPGGA,220130,2423.0665,N,08137.8122,W,1,10,1.5,13,M,,M,,*63
06/06/2014	22:01:23.633	$GPGGA,220131,2423.0681,N,08137.8120,W,1,10,1.5,13,M,,M,,*6A
06/06/2014	22:01:24.623	$GPGGA,220132,2423.0696,N,08137.8119,W,1,10,1.5,13,M,,M,,*65
06/06/2014	22:01:25.675	$GPGGA,220133,2423.0711,N,08137.8118,W,1,10,1.5,13,M,,M,,*6B
06/06/2014	22:01:26.646	$GPGGA,220134,2423.0726,N,08137.8117,W,1,10,1.5,13,M,,M,,*67
06/06/2014	22:01:27.671	$GPGGA,220135,2423.0741,N,08137.8116,W,1,10,1.5,13,M,,M,,*66
06/06/2014	22:01:28.708	$GPGGA,220136,2423.0755,N,08137.8115,W,1,10,1.5,13,M,,M,,*63
06/06/2014	22:01:28.200	$GPGGA,220137,2423.0770,N,08137.8114,W,1,10,1.5,13,M,,M,,*64
06/06/2014	22:01:29.221	$GPGGA,220138,2423.0786,N,08137.8112,W,1,10,1.5,13,M,,M,,*64
06/06/2014	22:01:30.232	$GPGGA,220139,2423.0801,N,08137.8111,W,1,10,1.5,13,M,,M,,*66
06/06/2014	22:01:31.263	$GPGGA,220140,2423.0815,N,08137.8110,W,1,10,1.5,13,M,,M,,*6C
06/06/2014	22:01:32.265	$GPGGA,220141,2423.0830,N,08137.8109,W,1,10,1.5,13,M,,M,,*62
06/06/2014	22:01:33.284	$GPGGA,220142,2423.0845,N,08137.8107,W,1,10,1.5,13,M,,M,,*6D
06/06/2014	22:01:34.306	$GPGGA,220143,2423.0860,N,08137.8106,W,1,10,1.5,13,M,,M,,*6A
06/06/2014	22:01:35.339	$GPGGA,220144,2423.0874,N,08137.8105,W,1,10,1.5,13,M,,M,,*6B
06/06/2014	22:01:36.532	$GPGGA,220145,2423.0889,N,08137.8103,W,1,10,1.5,13,M,,M,,*6E
06/06/2014	22:01:37.461	$GPGGA,220146,2423.0903,N,08137.8101,W,1,10,1.5,13,M,,M,,*6C
06/06/2014	22:01:38.370	$GPGGA,220147,2423.0918,N,08137.8100,W,1,10,1.5,13,M,,M,,*66
06/06/2014	22:01:39.565	$GPGGA,220148,2423.0934,N,08137.8098,W,1,10,1.5,13,M,,M,,*67
06/06/2014	22:01:40.436	$GPGGA,220149,2423.0949,N,08137.8097,W,1,10,1.5,13,M,,M,,*63
06/06/2014	22:01:41.444	$GPGGA,220150,2423.0964,N,08137.8095,W,1,10,1.5,13,M,,M,,*66
06/06/2014	22:01:42.557	$GPGGA,220151,2423.0979,N,08137.8093,W,1,10,1.5,13,M,,M,,*6D
06/06/2014	22:01:43.506	$GPGGA,220152,2423.0993,N,08137.8092,W,1,10,1.5,13,M,,M,,*6B
06/06/2014	22:01:44.589	$GPGGA,220153,2423.1008,N,08137.8091,W,1,10,1.5,13,M,,M,,*63
06/06/2014	22:01:45.641	$GPGGA,220154,2423.1022,N,08137.8089,W,1,10,1.5,13,M,,M,,*65
06/06/2014	22:01:46.632	$GPGGA,220155,2423.1037,N,08137.8087,W,1,10,1.5,13,M,,M,,*6E
06/06/2014	22:01:47.714	$GPGGA,220156,2423.1054,N,08137.8086,W,1,10,1.5,13,M,,M,,*69
06/06/2014	22:01:48.787	$GPGGA,220157,2423.1068,N,08137.8084,W,1,10,1.5,13,M,,M,,*65
06/06/2014	22:01:49.695	$GPGGA,220158,2423.1084,N,08137.8083,W,1,10,1.5,13,M,,M,,*6F
06/06/2014	22:01:50.817	$GPGGA,220159,2423.1098,N,08137.8081,W,1,10,1.5,13,M,,M,,*61
06/06/2014	22:01:51.747	$GPGGA,220200,2423.1113,N,08137.8079,W,1,10,1.5,13,M,,M,,*6B
06/06/2014	22:01:52.861	$GPGGA,220201,2423.1129,N,08137.8077,W,1,10,1.5,13,M,,M,,*6D
06/06/2014	22:01:53.799	$GPGGA,220202,2423.1144,N,08137.8076,W,1,10,1.5,13,M,,M,,*64
06/06/2014	22:01:54.861	$GPGGA,220203,2423.1158,N,08137.8075,W,1,10,1.5,13,M,,M,,*6B
06/06/2014	22:01:55.852	$GPGGA,220204,2423.1174,N,08137.8073,W,1,10,1.5,13,M,,M,,*64
06/06/2014	22:01:56.934	$GPGGA,220205,2423.1189,N,08137.8071,W,1,10,1.5,13,M,,M,,*65
06/06/2014	22:01:57.843	$GPGGA,220206,2423.1203,N,08137.8071,W,1,10,1.5,13,M,,M,,*67
06/06/2014	22:01:58.946	$GPGGA,220207,2423.1218,N,08137.8069,W,1,10,1.5,13,M,,M,,*65
06/06/2014	22:01:59.926	$GPGGA,220208,2423.1234,N,08137.8066,W,1,10,1.5,13,M,,M,,*6B
06/06/2014	22:02:01.019	$GPGGA,220209,2423.1249,N,08137.8065,W,1,10,1.5,13,M,,M,,*63
06/06/2014	22:02:01.948	$GPGGA,220210,2423.1264,N,08137.8064,W,1,10,1.5,13,M,,M,,*65
06/06/2014	22:02:03.051	$GPGGA,220211,2423.1279,N,08137.8061,W,1,10,1.5,13,M,,M,,*6D
06/06/2014	22:02:04.001	$GPGGA,220212,2423.1293,N,08137.8060,W,1,10,1.5,13,M,,M,,*6B
06/06/2014	22:02:04.981	$GPGGA,220213,2423.1308,N,08137.8059,W,1,10,1.5,13,M,,M,,*63
06/06/2014	22:02:06.033	$GPGGA,220214,2423.1324,N,08137.8058,W,1,10,1.5,13,M,,M,,*6B
06/06/2014	22:02:07.136	$GPGGA,220215,2423.1337,N,08137.8057,W,1,10,1.5,13,M,,M,,*67
06/06/2014	22:02:08.075	$GPGGA,220216,2423.1354,N,08137.8055,W,1,10,1.5,13,M,,M,,*63
06/06/2014	22:02:09.167	$GPGGA,220217,2423.1369,N,08137.8054,W,1,10,1.5,13,M,,M,,*6D
06/06/2014	22:02:10.065	$GPGGA,220218,2423.1384,N,08137.8053,W,1,10,1.5,13,M,,M,,*66
06/06/2014	22:02:11.189	$GPGGA,220219,2423.1398,N,08137.8052,W,1,10,1.5,13,M,,M,,*6B
06/06/2014	22:02:12.159	$GPGGA,220220,2423.1413,N,08137.8051,W,1,10,1.5,13,M,,M,,*66
06/06/2014	22:02:13.242	$GPGGA,220221,2423.1427,N,08137.8050,W,1,10,1.5,13,M,,M,,*61
06/06/2014	22:02:14.181	$GPGGA,220222,2423.1442,N,08137.8049,W,1,10,1.5,13,M,,M,,*69
06/06/2014	22:02:15.284	$GPGGA,220223,2423.1458,N,08137.8048,W,1,10,1.5,13,M,,M,,*62
06/06/2014	22:02:16.234	$GPGGA,220224,2423.1473,N,08137.8047,W,1,10,1.5,13,M,,M,,*63
06/06/2014	22:02:17.210	$GPGGA,220225,2423.1488,N,08137.8046,W,1,10,1.5,13,M,,M,,*67
06/06/2014	22:02:18.246	$GPGGA,220226,2423.1502,N,08137.8044,W,1,10,1.5,13,M,,M,,*65
06/06/2014	22:02:19.369	$GPGGA,220227,2423.1517,N,08137.8043,W,1,10,1.5,13,M,,M,,*67
06/06/2014	22:02:20.309	$GPGGA,220228,2423.1532,N,08137.8042,W,1,10,1.5,13,M,,M,,*6E
06/06/2014	22:02:21.361	$GPGGA,220229,2423.1548,N,08137.8040,W,1,10,1.5,13,M,,M,,*60
06/06/2014	22:02:22.351	$GPGGA,220230,2423.1561,N,08137.8039,W,1,10,1.5,13,M,,M,,*6D
06/06/2014	22:02:23.323	$GPGGA,220231,2423.1577,N,08137.8038,W,1,10,1.5,13,M,,M,,*6A
06/06/2014	22:02:24.393	$GPGGA,220232,2423.1592,N,08137.8037,W,1,10,1.5,13,M,,M,,*6D
06/06/2014	22:02:25.445	$GPGGA,220233,2423.1607,N,08137.8035,W,1,10,1.5,13,M,,M,,*61
06/06/2014	22:02:26.374	$GPGGA,220234,2423.1622,N,08137.8035,W,1,10,1.5,13,M,,M,,*61
06/06/2014	22:02:27.538	$GPGGA,220235,2423.1637,N,08137.8034,W,1,10,1.5,13,M,,M,,*65
06/06/2014	22:02:28.467	$GPGGA,220236,2423.1651,N,08137.8033,W,1,10,1.5,13,M,,M,,*61
06/06/2014	22:02:28.250	$GPGGA,220237,2423.1666,N,08137.8031,W,1,10,1.5,13,M,,M,,*66
06/06/2014	22:02:29.281	$GPGGA,220238,2423.1680,N,08137.8030,W,1,10,1.5,13,M,,M,,*60
06/06/2014	22:02:30.292	$GPGGA,220239,2423.1695,N,08137.8029,W,1,10,1.5,13,M,,M,,*6D
06/06/2014	22:02:31.344	$GPGGA,220240,2423.1709,N,08137.8028,W,1,10,1.5,13,M,,M,,*66
06/06/2014	22:02:32.356	$GPGGA,220241,2423.1725,N,08137.8026,W,1,10,1.5,13,M,,M,,*67
06/06/2014	22:02:33.366	$GPGGA,220242,2423.1740,N,08137.8025,W,1,10,1.5,13,M,,M,,*64
06/06/2014	22:02:34.397	$GPGGA,220243,2423.1754,N,08137.8024,W,1,10,1.5,13,M,,M,,*61
06/06/2014	22:02:35.419	$GPGGA,220244,2423.1770,N,08137.8023,W,1,10,1.5,13,M,,M,,*67
06/06/2014	22:02:36.454	$GPGGA,220245,2423.1784,N,08137.8022,W,1,10,1.5,13,M,,M,,*6C
06/06/2014	22:02:37.441	$GPGGA,220246,2423.1799,N,08137.8020,W,1,10,1.5,13,M,,M,,*61
06/06/2014	22:02:38.513	$GPGGA,220247,2423.1814,N,08137.8019,W,1,10,1.5,13,M,,M,,*60
06/06/2014	22:02:39.493	$GPGGA,220248,2423.1828,N,08137.8017,W,1,10,1.5,13,M,,M,,*6E
06/06/2014	22:02:40.514	$GPGGA,220249,2423.1842,N,08137.8016,W,1,10,1.5,13,M,,M,,*62
06/06/2014	22:02:41.546	$GPGGA,220250,2423.1857,N,08137.8015,W,1,10,1.5,13,M,,M,,*6D
06/06/2014	22:02:42.577	$GPGGA,220251,2423.1872,N,08137.8013,W,1,10,1.5,13,M,,M,,*6D
06/06/2014	22:02:43.577	$GPGGA,220252,2423.1886,N,08137.8013,W,1,10,1.5,13,M,,M,,*65
06/06/2014	22:02:44.598	$GPGGA,220253,2423.1902,N,08137.8012,W,1,10,1.5,13,M,,M,,*68
06/06/2014	22:02:45.589	$GPGGA,220254,2423.1915,N,08137.8011,W,1,10,1.5,13,M,,M,,*6A
06/06/2014	22:02:46.681	$GPGGA,220255,2423.1931,N,08137.8009,W,1,10,1.5,13,M,,M,,*64
06/06/2014	22:02:47.641	$GPGGA,220256,2423.1946,N,08137.8008,W,1,10,1.5,13,M,,M,,*66
06/06/2014	22:02:48.683	$GPGGA,220257,2423.1961,N,08137.8007,W,1,10,1.5,13,M,,M,,*6D
06/06/2014	22:02:49.674	$GPGGA,220258,2423.1976,N,08137.8006,W,1,10,1.5,13,M,,M,,*65
06/06/2014	22:02:50.715	$GPGGA,220259,2423.1976,N,08137.8006,W,1,10,1.5,13,M,,M,,*64
06/06/2014	22:02:51.736	$GPGGA,220300,2423.2005,N,08137.8002,W,1,10,2.0,13,M,,M,,*65
06/06/2014	22:02:52.758	$GPGGA,220301,2423.2020,N,08137.8001,W,1,9,2.0,13,M,,M,,*58
06/06/2014	22:02:53.758	$GPGGA,220302,2423.2020,N,08137.8001,W,1,9,2.0,13,M,,M,,*5B
06/06/2014	22:02:54.790	$GPGGA,220303,2423.2034,N,08137.7999,W,1,9,2.0,13,M,,M,,*58
06/06/2014	22:02:55.801	$GPGGA,220304,2423.2065,N,08137.7996,W,1,9,2.1,13,M,,M,,*55
06/06/2014	22:02:56.842	$GPGGA,220305,2423.2080,N,08137.7993,W,1,9,1.5,13,M,,M,,*5D
06/06/2014	22:02:57.833	$GPGGA,220306,2423.2095,N,08137.7989,W,1,9,1.5,13,M,,M,,*51
06/06/2014	22:02:58.916	$GPGGA,220307,2423.2110,N,08137.7986,W,1,10,1.5,13,M,,M,,*6B
06/06/2014	22:02:59.906	$GPGGA,220308,2423.2124,N,08137.7984,W,1,10,1.5,13,M,,M,,*61
06/06/2014	22:03:00.885	$GPGGA,220309,2423.2124,N,08137.7984,W,1,10,1.5,13,M,,M,,*60
06/06/2014	22:03:01.896	$GPGGA,220310,2423.2155,N,08137.7979,W,1,10,1.5,13,M,,M,,*6C
06/06/2014	22:03:02.928	$GPGGA,220311,2423.2155,N,08137.7979,W,1,10,1.5,13,M,,M,,*6D
06/06/2014	22:03:04.071	$GPGGA,220312,2423.2185,N,08137.7975,W,1,10,1.5,13,M,,M,,*6F
06/06/2014	22:03:04.970	$GPGGA,220313,2423.2185,N,08137.7975,W,1,10,1.5,13,M,,M,,*6E
06/06/2014	22:03:05.991	$GPGGA,220314,2423.2200,N,08137.7973,W,1,10,1.5,13,M,,M,,*61
06/06/2014	22:03:07.053	$GPGGA,220315,2423.2229,N,08137.7973,W,1,9,1.5,14,M,,M,,*54
06/06/2014	22:03:08.034	$GPGGA,220316,2423.2244,N,08137.7970,W,1,9,1.5,14,M,,M,,*5F
06/06/2014	22:03:09.116	$GPGGA,220317,2423.2260,N,08137.7968,W,1,10,1.5,14,M,,M,,*69
06/06/2014	22:03:10.074	$GPGGA,220318,2423.2275,N,08137.7967,W,1,10,2.1,14,M,,M,,*6A
06/06/2014	22:03:11.220	$GPGGA,220319,2423.2290,N,08137.7964,W,1,9,2.1,14,M,,M,,*5B
06/06/2014	22:03:12.123	$GPGGA,220320,2423.2304,N,08137.7963,W,1,9,1.5,14,M,,M,,*5D
06/06/2014	22:03:13.099	$GPGGA,220321,2423.2304,N,08137.7963,W,1,9,2.1,14,M,,M,,*5B
06/06/2014	22:03:14.120	$GPGGA,220322,2423.2334,N,08137.7959,W,1,9,2.1,14,M,,M,,*52
06/06/2014	22:03:15.158	$GPGGA,220323,2423.2334,N,08137.7959,W,1,10,1.5,14,M,,M,,*6C
06/06/2014	22:03:16.275	$GPGGA,220324,2423.2365,N,08137.7950,W,1,10,1.5,14,M,,M,,*66
06/06/2014	22:03:17.286	$GPGGA,220325,2423.2380,N,08137.7951,W,1,10,1.5,14,M,,M,,*6D
06/06/2014	22:03:18.296	$GPGGA,220326,2423.2395,N,08137.7948,W,1,10,2.1,14,M,,M,,*65
06/06/2014	22:03:19.235	$GPGGA,220327,2423.2410,N,08137.7947,W,1,10,1.5,14,M,,M,,*66
06/06/2014	22:03:20.256	$GPGGA,220328,2423.2424,N,08137.7945,W,1,10,1.5,14,M,,M,,*6C
06/06/2014	22:03:21.370	$GPGGA,220329,2423.2439,N,08137.7944,W,1,10,1.5,15,M,,M,,*61
06/06/2014	22:03:22.381	$GPGGA,220330,2423.2453,N,08137.7943,W,1,10,1.5,15,M,,M,,*62
06/06/2014	22:03:23.437	$GPGGA,220331,2423.2470,N,08137.7942,W,1,10,1.5,15,M,,M,,*63
06/06/2014	22:03:24.433	$GPGGA,220332,2423.2485,N,08137.7941,W,1,10,1.5,15,M,,M,,*69
06/06/2014	22:03:25.468	$GPGGA,220333,2423.2500,N,08137.7939,W,1,10,1.5,15,M,,M,,*6B
06/06/2014	22:03:26.455	$GPGGA,220334,2423.2514,N,08137.7938,W,1,10,1.5,15,M,,M,,*68
06/06/2014	22:03:27.476	$GPGGA,220335,2423.2529,N,08137.7936,W,1,10,1.5,15,M,,M,,*69
06/06/2014	22:03:28.508	$GPGGA,220336,2423.2543,N,08137.7934,W,1,10,1.5,15,M,,M,,*64
06/06/2014	22:03:28.261	$GPGGA,220337,2423.2558,N,08137.7933,W,1,10,1.5,15,M,,M,,*68
06/06/2014	22:03:29.272	$GPGGA,220338,2423.2575,N,08137.7934,W,1,10,1.5,15,M,,M,,*6F
06/06/2014	22:03:30.283	$GPGGA,220339,2423.2590,N,08137.7930,W,1,10,1.5,15,M,,M,,*61
06/06/2014	22:03:31.325	$GPGGA,220340,2423.2605,N,08137.7928,W,1,10,1.5,15,M,,M,,*69
06/06/2014	22:03:32.356	$GPGGA,220341,2423.2619,N,08137.7926,W,1,10,1.5,15,M,,M,,*6B
06/06/2014	22:03:33.336	$GPGGA,220342,2423.2636,N,08137.7925,W,1,10,1.5,15,M,,M,,*66
06/06/2014	22:03:34.378	$GPGGA,220343,2423.2651,N,08137.7923,W,1,10,1.5,15,M,,M,,*60
06/06/2014	22:03:35.388	$GPGGA,220344,2423.2665,N,08137.7921,W,1,10,1.5,15,M,,M,,*62
06/06/2014	22:03:36.389	$GPGGA,220345,2423.2680,N,08137.7920,W,1,10,1.5,15,M,,M,,*69
06/06/2014	22:03:37.420	$GPGGA,220346,2423.2695,N,08137.7918,W,1,10,1.5,15,M,,M,,*65
06/06/2014	22:03:38.462	$GPGGA,220347,2423.2710,N,08137.7917,W,1,10,1.5,15,M,,M,,*67
06/06/2014	22:03:39.463	$GPGGA,220348,2423.2726,N,08137.7915,W,1,10,1.5,15,M,,M,,*6F
06/06/2014	22:03:40.504	$GPGGA,220349,2423.2739,N,08137.7913,W,1,10,1.5,15,M,,M,,*66
06/06/2014	22:03:41.485	$GPGGA,220350,2423.2755,N,08137.7913,W,1,10,1.5,15,M,,M,,*64
06/06/2014	22:03:42.516	$GPGGA,220351,2423.2770,N,08137.7911,W,1,10,1.5,15,M,,M,,*60
06/06/2014	22:03:43.547	$GPGGA,220352,2423.2785,N,08137.7909,W,1,10,1.5,15,M,,M,,*60
06/06/2014	22:03:44.589	$GPGGA,220353,2423.2800,N,08137.7908,W,1,10,1.5,15,M,,M,,*62
06/06/2014	22:03:45.569	$GPGGA,220354,2423.2814,N,08137.7906,W,1,10,1.5,15,M,,M,,*6E
06/06/2014	22:03:46.621	$GPGGA,220355,2423.2829,N,08137.7904,W,1,10,1.5,15,M,,M,,*63
06/06/2014	22:03:47.622	$GPGGA,220356,2423.2845,N,08137.7903,W,1,10,1.5,15,M,,M,,*6D
06/06/2014	22:03:48.643	$GPGGA,220357,2423.2858,N,08137.7901,W,1,10,1.5,15,M,,M,,*62
06/06/2014	22:03:49.664	$GPGGA,220358,2423.2874,N,08137.7901,W,1,10,1.5,15,M,,M,,*63
06/06/2014	22:03:50.808	$GPGGA,220359,2423.2889,N,08137.7899,W,1,10,1.5,15,M,,M,,*60
06/06/2014	22:03:51.717	$GPGGA,220400,2423.2904,N,08137.7898,W,1,10,1.5,15,M,,M,,*6E
06/06/2014	22:03:52.717	$GPGGA,220401,2423.2919,N,08137.7897,W,1,10,1.5,15,M,,M,,*6C
06/06/2014	22:03:53.738	$GPGGA,220402,2423.2934,N,08137.7895,W,1,10,1.5,15,M,,M,,*62
06/06/2014	22:03:54.759	$GPGGA,220403,2423.2948,N,08137.7893,W,1,10,1.5,15,M,,M,,*6E
06/06/2014	22:03:55.770	$GPGGA,220404,2423.2963,N,08137.7891,W,1,10,1.5,15,M,,M,,*62
06/06/2014	22:03:56.775	$GPGGA,220405,2423.2979,N,08137.7889,W,1,9,2.1,15,M,,M,,*5E
06/06/2014	22:03:57.915	$GPGGA,220406,2423.2995,N,08137.7887,W,1,9,2.1,15,M,,M,,*51
06/06/2014	22:03:58.946	$GPGGA,220407,2423.3009,N,08137.7883,W,1,9,2.1,15,M,,M,,*59
06/06/2014	22:03:59.855	$GPGGA,220408,2423.3024,N,08137.7879,W,1,9,1.5,15,M,,M,,*5B
06/06/2014	22:04:00.856	$GPGGA,220409,2423.3040,N,08137.7877,W,1,10,1.5,15,M,,M,,*6E
06/06/2014	22:04:01.867	$GPGGA,220410,2423.3055,N,08137.7875,W,1,10,1.5,15,M,,M,,*60
06/06/2014	22:04:03.021	$GPGGA,220411,2423.3070,N,08137.7872,W,1,9,2.1,15,M,,M,,*5E
06/06/2014	22:04:03.929	$GPGGA,220412,2423.3085,N,08137.7866,W,1,9,1.5,15,M,,M,,*55
06/06/2014	22:04:04.930	$GPGGA,220413,2423.3100,N,08137.7866,W,1,10,1.5,16,M,,M,,*63
06/06/2014	22:04:06.055	$GPGGA,220414,2423.3116,N,08137.7866,W,1,10,1.5,16,M,,M,,*63
06/06/2014	22:04:07.119	$GPGGA,220415,2423.3132,N,08137.7865,W,1,10,1.5,16,M,,M,,*67
06/06/2014	22:04:08.122	$GPGGA,220416,2423.3147,N,08137.7863,W,1,10,1.5,16,M,,M,,*60
06/06/2014	22:04:09.117	$GPGGA,220417,2423.3161,N,08137.7861,W,1,10,1.5,16,M,,M,,*67
06/06/2014	22:04:10.128	$GPGGA,220418,2423.3176,N,08137.7860,W,1,10,1.5,16,M,,M,,*6F
06/06/2014	22:04:11.148	$GPGGA,220419,2423.3192,N,08137.7858,W,1,10,1.5,16,M,,M,,*6F
06/06/2014	22:04:12.180	$GPGGA,220420,2423.3208,N,08137.7856,W,1,10,1.5,16,M,,M,,*6B
06/06/2014	22:04:13.181	$GPGGA,220421,2423.3223,N,08137.7855,W,1,10,1.5,16,M,,M,,*60
06/06/2014	22:04:14.212	$GPGGA,220422,2423.3239,N,08137.7853,W,1,10,2.1,16,M,,M,,*69
06/06/2014	22:04:15.243	$GPGGA,220423,2423.3254,N,08137.7852,W,1,9,2.1,16,M,,M,,*5A
06/06/2014	22:04:16.265	$GPGGA,220424,2423.3269,N,08137.7850,W,1,9,1.5,16,M,,M,,*56
06/06/2014	22:04:17.286	$GPGGA,220425,2423.3284,N,08137.7849,W,1,9,2.1,16,M,,M,,*5B
06/06/2014	22:04:18.287	$GPGGA,220426,2423.3298,N,08137.7848,W,1,9,1.5,16,M,,M,,*53
06/06/2014	22:04:19.298	$GPGGA,220427,2423.3313,N,08137.7846,W,1,9,2.1,16,M,,M,,*59
06/06/2014	22:04:20.339	$GPGGA,220428,2423.3329,N,08137.7845,W,1,9,2.1,16,M,,M,,*5C
06/06/2014	22:04:21.360	$GPGGA,220429,2423.3344,N,08137.7843,W,1,9,2.1,16,M,,M,,*50
06/06/2014	22:04:22.351	$GPGGA,220430,2423.3360,N,08137.7842,W,1,9,2.1,16,M,,M,,*5F
06/06/2014	22:04:23.393	$GPGGA,220431,2423.3374,N,08137.7841,W,1,9,2.1,17,M,,M,,*59
06/06/2014	22:04:24.414	$GPGGA,220432,2423.3391,N,08137.7839,W,1,9,1.5,17,M,,M,,*59
06/06/2014	22:04:25.445	$GPGGA,220433,2423.3406,N,08137.7837,W,1,9,2.1,17,M,,M,,*58
06/06/2014	22:04:26.437	$GPGGA,220434,2423.3421,N,08137.7836,W,1,9,2.1,17,M,,M,,*5B
06/06/2014	22:04:27.447	$GPGGA,220435,2423.3436,N,08137.7835,W,1,9,2.1,17,M,,M,,*5F
06/06/2014	22:04:28.487	$GPGGA,220436,2423.3450,N,08137.7828,W,1,9,2.1,17,M,,M,,*50
06/06/2014	22:04:28.243	$GPGGA,220437,2423.3465,N,08137.7827,W,1,10,1.5,17,M,,M,,*67
06/06/2014	22:04:29.244	$GPGGA,220438,2423.3481,N,08137.7823,W,1,10,2.1,17,M,,M,,*61
06/06/2014	22:04:30.275	$GPGGA,220439,2423.3496,N,08137.7825,W,1,10,1.5,17,M,,M,,*67
06/06/2014	22:04:31.296	$GPGGA,220440,2423.3511,N,08137.7824,W,1,10,1.5,17,M,,M,,*66
06/06/2014	22:04:32.317	$GPGGA,220441,2423.3526,N,08137.7823,W,1,10,1.5,17,M,,M,,*64
06/06/2014	22:04:33.318	$GPGGA,220442,2423.3540,N,08137.7821,W,1,10,1.5,17,M,,M,,*65
06/06/2014	22:04:34.370	$GPGGA,220443,2423.3555,N,08137.7820,W,1,10,1.5,17,M,,M,,*61
06/06/2014	22:04:35.350	$GPGGA,220444,2423.3572,N,08137.7819,W,1,10,1.5,17,M,,M,,*69
06/06/2014	22:04:36.402	$GPGGA,220445,2423.3587,N,08137.7818,W,1,10,1.5,17,M,,M,,*63
06/06/2014	22:04:37.382	$GPGGA,220446,2423.3602,N,08137.7816,W,1,10,1.5,17,M,,M,,*60
06/06/2014	22:04:38.404	$GPGGA,220447,2423.3617,N,08137.7815,W,1,10,1.5,17,M,,M,,*66
06/06/2014	22:04:39.558	$GPGGA,220448,2423.3633,N,08137.7814,W,1,10,1.5,17,M,,M,,*6E
06/06/2014	22:04:40.446	$GPGGA,220449,2423.3648,N,08137.7813,W,1,10,1.5,17,M,,M,,*64
06/06/2014	22:04:41.467	$GPGGA,220450,2423.3663,N,08137.7812,W,1,10,2.1,17,M,,M,,*63
06/06/2014	22:04:42.591	$GPGGA,220451,2423.3678,N,08137.7811,W,1,9,2.1,17,M,,M,,*53
06/06/2014	22:04:43.510	$GPGGA,220452,2423.3692,N,08137.7812,W,1,9,1.5,17,M,,M,,*50
06/06/2014	22:04:44.623	$GPGGA,220453,2423.3709,N,08137.7811,W,1,10,1.5,17,M,,M,,*69
06/06/2014	22:04:45.663	$GPGGA,220454,2423.3724,N,08137.7808,W,1,10,2.1,17,M,,M,,*6E
06/06/2014	22:04:46.665	$GPGGA,220455,2423.3741,N,08137.7808,W,1,10,1.6,17,M,,M,,*68
06/06/2014	22:04:47.593	$GPGGA,220456,2423.3756,N,08137.7805,W,1,10,1.3,17,M,,M,,*65
06/06/2014	22:04:48.697	$GPGGA,220457,2423.3772,N,08137.7803,W,1,11,1.3,17,M,,M,,*65
06/06/2014	22:04:49.618	$GPGGA,220458,2423.3786,N,08137.7801,W,1,11,1.3,17,M,,M,,*63
06/06/2014	22:04:50.740	$GPGGA,220459,2423.3803,N,08137.7798,W,1,10,1.6,17,M,,M,,*6B
06/06/2014	22:04:51.688	$GPGGA,220500,2423.3817,N,08137.7795,W,1,10,1.6,17,M,,M,,*6E
06/06/2014	22:04:52.682	$GPGGA,220501,2423.3832,N,08137.7792,W,1,9,1.7,17,M,,M,,*56
06/06/2014	22:04:53.792	$GPGGA,220502,2423.3847,N,08137.7788,W,1,9,1.3,17,M,,M,,*58
06/06/2014	22:04:54.827	$GPGGA,220503,2423.3862,N,08137.7785,W,1,11,1.3,17,M,,M,,*6A
06/06/2014	22:04:55.857	$GPGGA,220504,2423.3876,N,08137.7784,W,1,11,1.6,18,M,,M,,*63
06/06/2014	22:04:56.870	$GPGGA,220505,2423.3891,N,08137.7782,W,1,11,1.3,18,M,,M,,*68
06/06/2014	22:04:57.877	$GPGGA,220506,2423.3908,N,08137.7785,W,1,11,1.6,18,M,,M,,*68
06/06/2014	22:04:58.898	$GPGGA,220507,2423.3922,N,08137.7780,W,1,11,1.3,18,M,,M,,*61
06/06/2014	22:04:59.909	$GPGGA,220508,2423.3936,N,08137.7778,W,1,11,1.3,18,M,,M,,*6C
06/06/2014	22:05:00.941	$GPGGA,220509,2423.3951,N,08137.7776,W,1,10,1.6,18,M,,M,,*66
06/06/2014	22:05:01.952	$GPGGA,220510,2423.3966,N,08137.7775,W,1,10,1.7,18,M,,M,,*68
06/06/2014	22:05:02.972	$GPGGA,220511,2423.3981,N,08137.7775,W,1,10,1.6,18,M,,M,,*61
06/06/2014	22:05:04.003	$GPGGA,220512,2423.3996,N,08137.7774,W,1,10,1.6,18,M,,M,,*65
06/06/2014	22:05:05.024	$GPGGA,220513,2423.4012,N,08137.7773,W,1,10,1.6,18,M,,M,,*61
06/06/2014	22:05:06.026	$GPGGA,220514,2423.4027,N,08137.7771,W,1,10,1.3,18,M,,M,,*67
06/06/2014	22:05:07.067	$GPGGA,220515,2423.4042,N,08137.7770,W,1,10,1.6,18,M,,M,,*61
06/06/2014	22:05:08.078	$GPGGA,220516,2423.4057,N,08137.7769,W,1,10,1.6,18,M,,M,,*6E
06/06/2014	22:05:09.078	$GPGGA,220517,2423.4072,N,08137.7767,W,1,11,1.3,18,M,,M,,*62
06/06/2014	22:05:10.110	$GPGGA,220518,2423.4086,N,08137.7765,W,1,11,1.3,18,M,,M,,*64
06/06/2014	22:05:11.152	$GPGGA,220519,2423.4100,N,08137.7763,W,1,11,1.3,18,M,,M,,*6C
06/06/2014	22:05:12.152	$GPGGA,220520,2423.4115,N,08137.7764,W,1,11,1.3,19,M,,M,,*64
06/06/2014	22:05:13.184	$GPGGA,220521,2423.4130,N,08137.7763,W,1,10,1.6,19,M,,M,,*61
06/06/2014	22:05:14.164	$GPGGA,220522,2423.4146,N,08137.7761,W,1,10,1.3,19,M,,M,,*64
06/06/2014	22:05:15.206	$GPGGA,220523,2423.4161,N,08137.7760,W,1,11,1.3,19,M,,M,,*60
06/06/2014	22:05:16.227	$GPGGA,220524,2423.4176,N,08137.7759,W,1,11,1.3,19,M,,M,,*6B
06/06/2014	22:05:17.238	$GPGGA,220525,2423.4191,N,08137.7760,W,1,11,1.3,19,M,,M,,*69
06/06/2014	22:05:18.260	$GPGGA,220526,2423.4205,N,08137.7757,W,1,11,1.3,19,M,,M,,*60
06/06/2014	22:05:19.271	$GPGGA,220527,2423.4220,N,08137.7757,W,1,11,1.3,19,M,,M,,*66
06/06/2014	22:05:20.312	$GPGGA,220528,2423.4236,N,08137.7757,W,1,11,1.6,19,M,,M,,*6B
06/06/2014	22:05:21.342	$GPGGA,220529,2423.4249,N,08137.7756,W,1,11,1.3,19,M,,M,,*66
06/06/2014	22:05:22.343	$GPGGA,220530,2423.4265,N,08137.7755,W,1,11,1.3,19,M,,M,,*63
06/06/2014	22:05:23.344	$GPGGA,220531,2423.4280,N,08137.7753,W,1,11,1.3,19,M,,M,,*6F
06/06/2014	22:05:24.385	$GPGGA,220532,2423.4295,N,08137.7752,W,1,11,1.3,19,M,,M,,*69
06/06/2014	22:05:25.406	$GPGGA,220533,2423.4310,N,08137.7751,W,1,11,1.3,19,M,,M,,*67
06/06/2014	22:05:26.397	$GPGGA,220534,2423.4324,N,08137.7753,W,1,11,1.6,19,M,,M,,*60
06/06/2014	22:05:27.459	$GPGGA,220535,2423.4339,N,08137.7750,W,1,11,1.3,19,M,,M,,*6B
06/06/2014	22:05:28.460	$GPGGA,220536,2423.4355,N,08137.7749,W,1,11,1.6,19,M,,M,,*6F
06/06/2014	22:05:28.194	$GPGGA,220537,2423.4370,N,08137.7748,W,1,10,1.6,19,M,,M,,*69
06/06/2014	22:05:29.297	$GPGGA,220538,2423.4385,N,08137.7747,W,1,10,1.6,19,M,,M,,*63
06/06/2014	22:05:30.216	$GPGGA,220539,2423.4400,N,08137.7745,W,1,11,1.3,19,M,,M,,*6E
06/06/2014	22:05:31.268	$GPGGA,220540,2423.4415,N,08137.7743,W,1,11,1.3,19,M,,M,,*62
06/06/2014	22:05:32.381	$GPGGA,220541,2423.4429,N,08137.7742,W,1,10,1.6,19,M,,M,,*69
06/06/2014	22:05:33.279	$GPGGA,220542,2423.4446,N,08137.7743,W,1,10,1.6,19,M,,M,,*62
06/06/2014	22:05:34.403	$GPGGA,220543,2423.4461,N,08137.7742,W,1,10,1.3,19,M,,M,,*62
06/06/2014	22:05:35.342	$GPGGA,220544,2423.4476,N,08137.7741,W,1,10,1.3,19,M,,M,,*60
06/06/2014	22:05:36.433	$GPGGA,220545,2423.4491,N,08137.7740,W,1,11,1.3,19,M,,M,,*68
06/06/2014	22:05:37.351	$GPGGA,220546,2423.4505,N,08137.7738,W,1,11,1.3,19,M,,M,,*68
06/06/2014	22:05:38.471	$GPGGA,220547,2423.4520,N,08137.7736,W,1,11,1.3,19,M,,M,,*60
06/06/2014	22:05:39.462	$GPGGA,220548,2423.4536,N,08137.7735,W,1,11,1.3,19,M,,M,,*6B
06/06/2014	22:05:40.359	$GPGGA,220549,2423.4551,N,08137.7734,W,1,11,1.3,19,M,,M,,*6A
06/06/2014	22:05:41.468	$GPGGA,220550,2423.4566,N,08137.7732,W,1,11,1.6,19,M,,M,,*65
06/06/2014	22:05:42.490	$GPGGA,220551,2423.4581,N,08137.7729,W,1,10,1.6,18,M,,M,,*67
06/06/2014	22:05:43.490	$GPGGA,220552,2423.4595,N,08137.7727,W,1,10,1.7,18,M,,M,,*6E
06/06/2014	22:05:44.499	$GPGGA,220553,2423.4610,N,08137.7725,W,1,10,1.6,18,M,,M,,*62
06/06/2014	22:05:45.495	$GPGGA,220554,2423.4626,N,08137.7724,W,1,10,1.6,18,M,,M,,*61
06/06/2014	22:05:46.524	$GPGGA,220555,2423.4639,N,08137.7722,W,1,10,1.6,18,M,,M,,*68
06/06/2014	22:05:47.526	$GPGGA,220556,2423.4656,N,08137.7721,W,1,10,1.7,18,M,,M,,*60
06/06/2014	22:05:48.512	$GPGGA,220557,2423.4670,N,08137.7719,W,1,10,1.6,18,M,,M,,*6F
06/06/2014	22:05:49.521	$GPGGA,220558,2423.4684,N,08137.7718,W,1,10,1.6,19,M,,M,,*6B
06/06/2014	22:05:50.541	$GPGGA,220559,2423.4699,N,08137.7716,W,1,10,1.6,19,M,,M,,*68
06/06/2014	22:05:51.563	$GPGGA,220600,2423.4714,N,08137.7714,W,1,10,1.6,19,M,,M,,*61
06/06/2014	22:05:52.539	$GPGGA,220601,2423.4728,N,08137.7712,W,1,10,1.6,19,M,,M,,*69
06/06/2014	22:05:53.548	$GPGGA,220602,2423.4743,N,08137.7713,W,1,10,1.6,19,M,,M,,*66
06/06/2014	22:05:54.557	$GPGGA,220603,2423.4758,N,08137.7709,W,1,10,1.6,19,M,,M,,*66
06/06/2014	22:05:55.576	$GPGGA,220604,2423.4772,N,08137.7708,W,1,10,1.6,19,M,,M,,*68
06/06/2014	22:05:56.565	$GPGGA,220605,2423.4787,N,08137.7709,W,1,11,1.3,19,M,,M,,*66
06/06/2014	22:05:57.584	$GPGGA,220606,2423.4801,N,08137.7706,W,1,11,1.3,19,M,,M,,*6B
06/06/2014	22:05:58.583	$GPGGA,220607,2423.4816,N,08137.7705,W,1,10,1.6,19,M,,M,,*6B
06/06/2014	22:05:59.602	$GPGGA,220608,2423.4832,N,08137.7703,W,1,10,1.6,19,M,,M,,*64
06/06/2014	22:06:00.632	$GPGGA,220609,2423.4845,N,08137.7701,W,1,10,1.6,19,M,,M,,*67
06/06/2014	22:06:01.611	$GPGGA,220610,2423.4861,N,08137.7699,W,1,10,1.3,19,M,,M,,*6C
06/06/2014	22:06:02.630	$GPGGA,220611,2423.4876,N,08137.7698,W,1,11,1.3,19,M,,M,,*6B
06/06/2014	22:06:03.639	$GPGGA,220612,2423.4891,N,08137.7696,W,1,11,1.6,19,M,,M,,*6A
06/06/2014	22:06:04.658	$GPGGA,220613,2423.4905,N,08137.7694,W,1,10,1.6,19,M,,M,,*64
06/06/2014	22:06:05.647	$GPGGA,220614,2423.4919,N,08137.7693,W,1,10,1.3,19,M,,M,,*6C
06/06/2014	22:06:06.758	$GPGGA,220615,2423.4934,N,08137.7691,W,1,11,1.3,19,M,,M,,*61
06/06/2014	22:06:07.656	$GPGGA,220616,2423.4949,N,08137.7690,W,1,11,1.3,19,M,,M,,*69
06/06/2014	22:06:08.685	$GPGGA,220617,2423.4964,N,08137.7689,W,1,10,1.6,19,M,,M,,*6B
06/06/2014	22:06:09.664	$GPGGA,220618,2423.4978,N,08137.7689,W,1,10,1.6,19,M,,M,,*69
06/06/2014	22:06:10.663	$GPGGA,220619,2423.4993,N,08137.7688,W,1,10,1.6,19,M,,M,,*6C
06/06/2014	22:06:11.694	$GPGGA,220620,2423.5007,N,08137.7686,W,1,10,1.8,19,M,,M,,*63
06/06/2014	22:06:12.681	$GPGGA,220621,2423.5022,N,08137.7684,W,1,11,1.3,19,M,,M,,*6D
06/06/2014	22:06:13.690	$GPGGA,220622,2423.5036,N,08137.7683,W,1,11,1.3,19,M,,M,,*6C
06/06/2014	22:06:14.699	$GPGGA,220623,2423.5051,N,08137.7682,W,1,10,1.3,19,M,,M,,*6C
06/06/2014	22:06:15.839	$GPGGA,220624,2423.5067,N,08137.7680,W,1,10,1.3,19,M,,M,,*6C
06/06/2014	22:06:16.717	$GPGGA,220625,2423.5082,N,08137.7678,W,1,11,1.3,19,M,,M,,*60
06/06/2014	22:06:17.838	$GPGGA,220626,2423.5097,N,08137.7677,W,1,11,1.3,19,M,,M,,*68
06/06/2014	22:06:18.736	$GPGGA,220627,2423.5112,N,08137.7676,W,1,11,1.3,19,M,,M,,*64
06/06/2014	22:06:19.755	$GPGGA,220628,2423.5126,N,08137.7674,W,1,11,1.3,19,M,,M,,*6E
06/06/2014	22:06:20.875	$GPGGA,220629,2423.5141,N,08137.7673,W,1,11,1.3,19,M,,M,,*69
06/06/2014	22:06:21.735	$GPGGA,220630,2423.5156,N,08137.7673,W,1,11,1.3,19,M,,M,,*67
06/06/2014	22:06:22.884	$GPGGA,220631,2423.5172,N,08137.7672,W,1,11,1.3,19,M,,M,,*61
06/06/2014	22:06:23.903	$GPGGA,220632,2423.5187,N,08137.7671,W,1,11,1.3,19,M,,M,,*6B
06/06/2014	22:06:24.902	$GPGGA,220633,2423.5202,N,08137.7670,W,1,11,1.3,19,M,,M,,*65
06/06/2014	22:06:25.881	$GPGGA,220634,2423.5217,N,08137.7669,W,1,11,1.3,19,M,,M,,*6E
06/06/2014	22:06:26.920	$GPGGA,220635,2423.5231,N,08137.7668,W,1,11,1.3,19,M,,M,,*6A
06/06/2014	22:06:27.808	$GPGGA,220636,2423.5246,N,08137.7667,W,1,11,1.3,19,M,,M,,*66
06/06/2014	22:06:28.274	$GPGGA,220637,2423.5262,N,08137.7666,W,1,10,1.5,19,M,,M,,*67
06/06/2014	22:06:29.264	$GPGGA,220638,2423.5277,N,08137.7666,W,1,10,1.5,19,M,,M,,*6C
06/06/2014	22:06:30.272	$GPGGA,220639,2423.5292,N,08137.7665,W,1,10,1.5,19,M,,M,,*65
06/06/2014	22:06:31.301	$GPGGA,220640,2423.5307,N,08137.7664,W,1,10,1.5,19,M,,M,,*67
06/06/2014	22:06:32.303	$GPGGA,220641,2423.5322,N,08137.7663,W,1,10,1.3,19,M,,M,,*60
06/06/2014	22:06:33.289	$GPGGA,220642,2423.5338,N,08137.7661,W,1,10,1.3,19,M,,M,,*6A
06/06/2014	22:06:34.298	$GPGGA,220643,2423.5354,N,08137.7660,W,1,11,1.3,19,M,,M,,*61
06/06/2014	22:06:35.318	$GPGGA,220644,2423.5368,N,08137.7659,W,1,11,1.3,19,M,,M,,*63
06/06/2014	22:06:36.307	$GPGGA,220645,2423.5383,N,08137.7658,W,1,11,1.3,19,M,,M,,*66
06/06/2014	22:06:37.326	$GPGGA,220646,2423.5398,N,08137.7656,W,1,11,1.3,19,M,,M,,*61
06/06/2014	22:06:38.345	$GPGGA,220647,2423.5415,N,08137.7655,W,1,11,1.3,19,M,,M,,*61
06/06/2014	22:06:39.344	$GPGGA,220648,2423.5430,N,08137.7653,W,1,11,1.3,19,M,,M,,*6F
06/06/2014	22:06:40.353	$GPGGA,220649,2423.5445,N,08137.7651,W,1,11,1.3,18,M,,M,,*6F
06/06/2014	22:06:41.342	$GPGGA,220650,2423.5461,N,08137.7650,W,1,11,1.3,18,M,,M,,*60
06/06/2014	22:06:42.382	$GPGGA,220651,2423.5477,N,08137.7648,W,1,11,1.3,18,M,,M,,*6F
06/06/2014	22:06:43.371	$GPGGA,220652,2423.5491,N,08137.7646,W,1,11,1.3,18,M,,M,,*6A
06/06/2014	22:06:44.370	$GPGGA,220653,2423.5506,N,08137.7645,W,1,11,1.3,18,M,,M,,*67
06/06/2014	22:06:45.379	$GPGGA,220654,2423.5523,N,08137.7644,W,1,11,1.3,18,M,,M,,*66
06/06/2014	22:06:46.427	$GPGGA,220655,2423.5538,N,08137.7642,W,1,11,1.3,18,M,,M,,*6B
06/06/2014	22:06:47.397	$GPGGA,220656,2423.5553,N,08137.7640,W,1,11,1.3,18,M,,M,,*67
06/06/2014	22:06:48.426	$GPGGA,220657,2423.5567,N,08137.7639,W,1,11,1.3,18,M,,M,,*6F
06/06/2014	22:06:49.415	$GPGGA,220658,2423.5584,N,08137.7637,W,1,11,1.3,18,M,,M,,*63
06/06/2014	22:06:50.434	$GPGGA,220659,2423.5599,N,08137.7636,W,1,11,1.3,18,M,,M,,*6F
06/06/2014	22:06:51.444	$GPGGA,220700,2423.5614,N,08137.7634,W,1,11,1.3,18,M,,M,,*66
06/06/2014	22:06:52.422	$GPGGA,220701,2423.5629,N,08137.7633,W,1,11,1.3,18,M,,M,,*6E
06/06/2014	22:06:53.452	$GPGGA,220702,2423.5643,N,08137.7631,W,1,11,1.3,18,M,,M,,*63
06/06/2014	22:06:54.461	$GPGGA,220703,2423.5658,N,08137.7630,W,1,11,1.3,18,M,,M,,*69
06/06/2014	22:06:55.470	$GPGGA,220704,2423.5674,N,08137.7628,W,1,11,1.3,18,M,,M,,*69
06/06/2014	22:06:56.479	$GPGGA,220705,2423.5689,N,08137.7627,W,1,11,1.3,18,M,,M,,*65
06/06/2014	22:06:57.479	$GPGGA,220706,2423.5704,N,08137.7625,W,1,11,1.3,18,M,,M,,*60
06/06/2014	22:06:58.498	$GPGGA,220707,2423.5718,N,08137.7623,W,1,10,1.3,18,M,,M,,*6B
06/06/2014	22:06:59.487	$GPGGA,220708,2423.5733,N,08137.7621,W,1,10,1.3,18,M,,M,,*6F
06/06/2014	22:07:00.517	$GPGGA,220709,2423.5748,N,08137.7620,W,1,11,1.3,18,M,,M,,*62
06/06/2014	22:07:01.495	$GPGGA,220710,2423.5762,N,08137.7618,W,1,11,1.3,17,M,,M,,*66
06/06/2014	22:07:02.514	$GPGGA,220711,2423.5777,N,08137.7616,W,1,11,1.3,17,M,,M,,*6D
06/06/2014	22:07:03.636	$GPGGA,220712,2423.5791,N,08137.7614,W,1,11,1.3,17,M,,M,,*64
06/06/2014	22:07:04.533	$GPGGA,220713,2423.5808,N,08137.7613,W,1,11,1.3,17,M,,M,,*6D
06/06/2014	22:07:05.521	$GPGGA,220714,2423.5823,N,08137.7611,W,1,11,1.3,17,M,,M,,*61
06/06/2014	22:07:06.621	$GPGGA,220715,2423.5837,N,08137.7609,W,1,11,1.3,17,M,,M,,*6C
06/06/2014	22:07:07.559	$GPGGA,220716,2423.5852,N,08137.7607,W,1,11,1.3,17,M,,M,,*62
06/06/2014	22:07:08.560	$GPGGA,220717,2423.5867,N,08137.7606,W,1,11,1.3,17,M,,M,,*64
06/06/2014	22:07:09.659	$GPGGA,220718,2423.5882,N,08137.7605,W,1,11,1.3,17,M,,M,,*63
06/06/2014	22:07:10.547	$GPGGA,220719,2423.5898,N,08137.7603,W,1,11,1.3,17,M,,M,,*6F
06/06/2014	22:07:11.667	$GPGGA,220720,2423.5913,N,08137.7602,W,1,11,1.3,17,M,,M,,*66
06/06/2014	22:07:12.686	$GPGGA,220721,2423.5928,N,08137.7601,W,1,11,1.3,17,M,,M,,*6C
06/06/2014	22:07:13.584	$GPGGA,220722,2423.5943,N,08137.7599,W,1,11,1.3,17,M,,M,,*60
06/06/2014	22:07:14.677	$GPGGA,220723,2423.5957,N,08137.7598,W,1,11,1.3,17,M,,M,,*65
06/06/2014	22:07:15.704	$GPGGA,220724,2423.5972,N,08137.7596,W,1,11,1.3,17,M,,M,,*6B
06/06/2014	22:07:16.612	$GPGGA,220725,2423.5986,N,08137.7594,W,1,11,1.3,17,M,,M,,*63
06/06/2014	22:07:17.705	$GPGGA,220726,2423.6001,N,08137.7592,W,1,11,1.3,17,M,,M,,*63
06/06/2014	22:07:18.731	$GPGGA,220727,2423.6015,N,08137.7591,W,1,11,1.3,17,M,,M,,*64
06/06/2014	22:07:19.650	$GPGGA,220728,2423.6030,N,08137.7590,W,1,11,1.3,16,M,,M,,*6C
06/06/2014	22:07:20.750	$GPGGA,220729,2423.6046,N,08137.7587,W,1,11,1.3,16,M,,M,,*6A
06/06/2014	22:07:21.729	$GPGGA,220730,2423.6061,N,08137.7586,W,1,11,1.3,16,M,,M,,*66
06/06/2014	22:07:22.767	$GPGGA,220731,2423.6076,N,08137.7585,W,1,11,1.3,16,M,,M,,*62
06/06/2014	22:07:23.772	$GPGGA,220732,2423.6091,N,08137.7584,W,1,11,1.3,16,M,,M,,*69
06/06/2014	22:07:24.775	$GPGGA,220733,2423.6105,N,08137.7582,W,1,11,1.3,16,M,,M,,*62
06/06/2014	22:07:25.754	$GPGGA,220734,2423.6120,N,08137.7580,W,1,11,1.3,16,M,,M,,*60
06/06/2014	22:07:26.785	$GPGGA,220735,2423.6134,N,08137.7579,W,1,11,1.3,16,M,,M,,*62
06/06/2014	22:07:27.823	$GPGGA,220736,2423.6149,N,08137.7578,W,1,11,1.3,16,M,,M,,*6A
06/06/2014	22:07:28.239	$GPGGA,220737,2423.6165,N,08137.7576,W,1,11,1.3,16,M,,M,,*6B
06/06/2014	22:07:29.238	$GPGGA,220738,2423.6180,N,08137.7574,W,1,11,1.3,16,M,,M,,*6D
06/06/2014	22:07:30.270	$GPGGA,220739,2423.6194,N,08137.7573,W,1,11,1.3,16,M,,M,,*6E
06/06/2014	22:07:31.267	$GPGGA,220740,2423.6209,N,08137.7572,W,1,11,1.3,16,M,,M,,*66
06/06/2014	22:07:32.256	$GPGGA,220741,2423.6224,N,08137.7570,W,1,11,1.3,16,M,,M,,*6A
06/06/2014	22:07:33.265	$GPGGA,220742,2423.6239,N,08137.7569,W,1,11,1.3,16,M,,M,,*6D
06/06/2014	22:07:34.264	$GPGGA,220743,2423.6254,N,08137.7568,W,1,11,1.3,16,M,,M,,*66
06/06/2014	22:07:35.293	$GPGGA,220744,2423.6268,N,08137.7566,W,1,11,1.3,16,M,,M,,*60
06/06/2014	22:07:36.272	$GPGGA,220745,2423.6283,N,08137.7564,W,1,11,1.3,16,M,,M,,*66
06/06/2014	22:07:37.302	$GPGGA,220746,2423.6297,N,08137.7563,W,1,11,1.3,16,M,,M,,*67
06/06/2014	22:07:38.331	$GPGGA,220747,2423.6312,N,08137.7562,W,1,11,1.3,16,M,,M,,*6B
06/06/2014	22:07:39.320	$GPGGA,220748,2423.6328,N,08137.7560,W,1,11,1.3,16,M,,M,,*6F
06/06/2014	22:07:40.308	$GPGGA,220749,2423.6343,N,08137.7558,W,1,11,1.3,16,M,,M,,*68
06/06/2014	22:07:41.327	$GPGGA,220750,2423.6358,N,08137.7558,W,1,11,1.3,15,M,,M,,*69
06/06/2014	22:07:42.357	$GPGGA,220751,2423.6373,N,08137.7556,W,1,11,1.3,15,M,,M,,*6F
06/06/2014	22:07:43.356	$GPGGA,220752,2423.6389,N,08137.7554,W,1,11,1.3,15,M,,M,,*6B
06/06/2014	22:07:44.345	$GPGGA,220753,2423.6402,N,08137.7553,W,1,11,1.3,15,M,,M,,*69
06/06/2014	22:07:45.354	$GPGGA,220754,2423.6418,N,08137.7551,W,1,11,1.3,15,M,,M,,*67
06/06/2014	22:07:46.383	$GPGGA,220755,2423.6433,N,08137.7550,W,1,11,1.3,15,M,,M,,*6E
06/06/2014	22:07:47.383	$GPGGA,220756,2423.6448,N,08137.7548,W,1,11,1.3,15,M,,M,,*68
06/06/2014	22:07:48.493	$GPGGA,220757,2423.6463,N,08137.7547,W,1,11,1.3,15,M,,M,,*6F
06/06/2014	22:07:49.371	$GPGGA,220758,2423.6478,N,08137.7546,W,1,11,1.3,15,M,,M,,*6B
06/06/2014	22:07:50.420	$GPGGA,220759,2423.6492,N,08137.7544,W,1,10,1.5,15,M,,M,,*6B
06/06/2014	22:07:51.409	$GPGGA,220800,2423.6507,N,08137.7543,W,1,10,1.5,15,M,,M,,*62
06/06/2014	22:07:52.398	$GPGGA,220801,2423.6521,N,08137.7543,W,1,10,1.5,15,M,,M,,*67
06/06/2014	22:07:53.397	$GPGGA,220802,2423.6536,N,08137.7541,W,1,10,1.5,15,M,,M,,*60
06/06/2014	22:07:54.417	$GPGGA,220803,2423.6550,N,08137.7540,W,1,10,1.5,15,M,,M,,*60
06/06/2014	22:07:55.440	$GPGGA,220804,2423.6566,N,08137.7538,W,1,10,1.5,15,M,,M,,*6D
06/06/2014	22:07:56.556	$GPGGA,220805,2423.6581,N,08137.7538,W,1,10,1.5,15,M,,M,,*65
06/06/2014	22:07:57.443	$GPGGA,220806,2423.6596,N,08137.7536,W,1,10,1.5,15,M,,M,,*6E
06/06/2014	22:07:58.553	$GPGGA,220807,2423.6611,N,08137.7535,W,1,10,1.5,15,M,,M,,*60
06/06/2014	22:07:59.462	$GPGGA,220808,2423.6625,N,08137.7534,W,1,10,1.5,15,M,,M,,*69
06/06/2014	22:08:00.542	$GPGGA,220809,2423.6640,N,08137.7532,W,1,10,1.5,15,M,,M,,*6D
06/06/2014	22:08:01.453	$GPGGA,220810,2423.6655,N,08137.7530,W,1,10,1.3,15,M,,M,,*65
06/06/2014	22:08:02.460	$GPGGA,220811,2423.6671,N,08137.7529,W,1,11,1.3,15,M,,M,,*6B
06/06/2014	22:08:04.993	$GPGGA,220813,2423.6701,N,08137.7525,W,1,11,1.3,14,M,,M,,*62
06/06/2014	22:08:05.588	$GPGGA,220814,2423.6716,N,08137.7524,W,1,11,1.3,14,M,,M,,*62
06/06/2014	22:08:06.627	$GPGGA,220815,2423.6731,N,08137.7523,W,1,11,1.3,14,M,,M,,*61
06/06/2014	22:08:07.608	$GPGGA,220816,2423.6747,N,08137.7521,W,1,11,1.3,14,M,,M,,*61
06/06/2014	22:08:08.514	$GPGGA,220817,2423.6763,N,08137.7519,W,1,10,1.4,14,M,,M,,*6B
06/06/2014	22:08:09.624	$GPGGA,220818,2423.6777,N,08137.7519,W,1,10,1.3,14,M,,M,,*66
06/06/2014	22:08:10.644	$GPGGA,220819,2423.6792,N,08137.7518,W,1,9,1.5,14,M,,M,,*53
06/06/2014	22:08:11.646	$GPGGA,220820,2423.6806,N,08137.7516,W,1,9,1.4,14,M,,M,,*54
06/06/2014	22:08:12.642	$GPGGA,220821,2423.6821,N,08137.7514,W,1,11,1.3,14,M,,M,,*6C
06/06/2014	22:08:13.651	$GPGGA,220822,2423.6837,N,08137.7512,W,1,11,1.3,14,M,,M,,*6E
06/06/2014	22:08:14.650	$GPGGA,220823,2423.6852,N,08137.7510,W,1,11,1.3,14,M,,M,,*6E
06/06/2014	22:08:15.683	$GPGGA,220824,2423.6867,N,08137.7511,W,1,11,1.3,14,M,,M,,*6E
06/06/2014	22:08:16.688	$GPGGA,220825,2423.6882,N,08137.7507,W,1,11,1.3,14,M,,M,,*63
06/06/2014	22:08:17.667	$GPGGA,220826,2423.6897,N,08137.7506,W,1,11,1.3,14,M,,M,,*65
06/06/2014	22:08:18.696	$GPGGA,220827,2423.6913,N,08137.7505,W,1,11,1.3,14,M,,M,,*6A
06/06/2014	22:08:19.705	$GPGGA,220828,2423.6928,N,08137.7504,W,1,11,1.3,14,M,,M,,*6C
06/06/2014	22:08:20.684	$GPGGA,220829,2423.6944,N,08137.7501,W,1,11,1.3,14,M,,M,,*62
06/06/2014	22:08:21.714	$GPGGA,220830,2423.6958,N,08137.7500,W,1,11,1.3,14,M,,M,,*66
06/06/2014	22:08:22.704	$GPGGA,220831,2423.6973,N,08137.7498,W,1,10,1.4,14,M,,M,,*68
06/06/2014	22:08:23.732	$GPGGA,220832,2423.6990,N,08137.7496,W,1,10,1.3,14,M,,M,,*6F
06/06/2014	22:08:24.721	$GPGGA,220833,2423.7005,N,08137.7494,W,1,11,1.3,14,M,,M,,*69
06/06/2014	22:08:25.730	$GPGGA,220834,2423.7020,N,08137.7492,W,1,11,1.3,14,M,,M,,*6F
06/06/2014	22:08:26.770	$GPGGA,220835,2423.7034,N,08137.7489,W,1,11,1.3,14,M,,M,,*61
06/06/2014	22:08:27.759	$GPGGA,220836,2423.7051,N,08137.7488,W,1,11,1.3,14,M,,M,,*60
06/06/2014	22:08:28.720	$GPGGA,220837,2423.7065,N,08137.7486,W,1,11,1.3,14,M,,M,,*68
06/06/2014	22:08:29.204	$GPGGA,220838,2423.7080,N,08137.7484,W,1,11,1.3,14,M,,M,,*6E
06/06/2014	22:08:30.253	$GPGGA,220839,2423.7095,N,08137.7483,W,1,11,1.3,14,M,,M,,*6C
06/06/2014	22:08:31.242	$GPGGA,220840,2423.7110,N,08137.7481,W,1,11,1.4,14,M,,M,,*6B
06/06/2014	22:08:32.241	$GPGGA,220841,2423.7124,N,08137.7480,W,1,10,1.5,14,M,,M,,*6C
06/06/2014	22:08:33.240	$GPGGA,220842,2423.7139,N,08137.7478,W,1,10,1.3,14,M,,M,,*62
06/06/2014	22:08:34.270	$GPGGA,220843,2423.7153,N,08137.7477,W,1,11,1.3,14,M,,M,,*61
06/06/2014	22:08:35.258	$GPGGA,220844,2423.7170,N,08137.7475,W,1,11,1.5,14,M,,M,,*63
06/06/2014	22:08:36.258	$GPGGA,220845,2423.7185,N,08137.7473,W,1,11,1.3,14,M,,M,,*68
06/06/2014	22:08:37.276	$GPGGA,220846,2423.7200,N,08137.7471,W,1,11,1.4,14,M,,M,,*60
06/06/2014	22:08:38.265	$GPGGA,220847,2423.7215,N,08137.7470,W,1,10,1.3,14,M,,M,,*62
06/06/2014	22:08:39.406	$GPGGA,220848,2423.7231,N,08137.7469,W,1,10,1.3,14,M,,M,,*63
06/06/2014	22:08:40.294	$GPGGA,220849,2423.7246,N,08137.7467,W,1,10,1.3,14,M,,M,,*6C
06/06/2014	22:08:41.283	$GPGGA,220850,2423.7261,N,08137.7466,W,1,10,1.3,14,M,,M,,*60
06/06/2014	22:08:42.312	$GPGGA,220851,2423.7276,N,08137.7464,W,1,10,1.3,14,M,,M,,*65
06/06/2014	22:08:43.311	$GPGGA,220852,2423.7290,N,08137.7463,W,1,10,1.3,14,M,,M,,*69
06/06/2014	22:08:44.422	$GPGGA,220853,2423.7307,N,08137.7461,W,1,9,1.5,14,M,,M,,*5B
06/06/2014	22:08:45.320	$GPGGA,220854,2423.7322,N,08137.7460,W,1,9,1.3,14,M,,M,,*5C
06/06/2014	22:08:46.440	$GPGGA,220855,2423.7337,N,08137.7457,W,1,10,1.3,14,M,,M,,*65
06/06/2014	22:08:47.348	$GPGGA,220856,2423.7352,N,08137.7456,W,1,10,1.3,14,M,,M,,*64
06/06/2014	22:08:48.448	$GPGGA,220857,2423.7369,N,08137.7455,W,1,10,1.3,14,M,,M,,*6E
06/06/2014	22:08:49.441	$GPGGA,220858,2423.7384,N,08137.7453,W,1,10,1.3,15,M,,M,,*65
06/06/2014	22:08:50.365	$GPGGA,220859,2423.7399,N,08137.7452,W,1,10,1.3,15,M,,M,,*69
06/06/2014	22:08:51.505	$GPGGA,220900,2423.7413,N,08137.7451,W,1,10,1.3,15,M,,M,,*62
06/06/2014	22:08:52.465	$GPGGA,220901,2423.7428,N,08137.7449,W,1,10,1.3,15,M,,M,,*62
06/06/2014	22:08:53.383	$GPGGA,220902,2423.7442,N,08137.7447,W,1,10,1.3,15,M,,M,,*63
06/06/2014	22:08:54.513	$GPGGA,220903,2423.7456,N,08137.7446,W,1,10,1.3,15,M,,M,,*66
06/06/2014	22:08:55.491	$GPGGA,220904,2423.7471,N,08137.7444,W,1,10,1.3,15,M,,M,,*66
06/06/2014	22:08:56.400	$GPGGA,220905,2423.7486,N,08137.7443,W,1,10,1.3,15,M,,M,,*68
06/06/2014	22:08:57.510	$GPGGA,220906,2423.7500,N,08137.7441,W,1,10,1.4,15,M,,M,,*61
06/06/2014	22:08:58.539	$GPGGA,220907,2423.7514,N,08137.7439,W,1,10,1.3,15,M,,M,,*6D
06/06/2014	22:08:59.529	$GPGGA,220908,2423.7529,N,08137.7438,W,1,10,1.3,15,M,,M,,*6D
06/06/2014	22:09:00.548	$GPGGA,220909,2423.7543,N,08137.7437,W,1,10,1.3,15,M,,M,,*6F
06/06/2014	22:09:01.526	$GPGGA,220910,2423.7557,N,08137.7435,W,1,10,1.3,15,M,,M,,*60
06/06/2014	22:09:02.559	$GPGGA,220911,2423.7571,N,08137.7434,W,1,10,1.3,15,M,,M,,*64
06/06/2014	22:09:03.570	$GPGGA,220912,2423.7586,N,08137.7433,W,1,10,1.3,15,M,,M,,*68
06/06/2014	22:09:04.577	$GPGGA,220913,2423.7601,N,08137.7431,W,1,10,1.3,15,M,,M,,*67
06/06/2014	22:09:05.564	$GPGGA,220914,2423.7615,N,08137.7429,W,1,10,1.4,15,M,,M,,*6B
06/06/2014	22:09:06.583	$GPGGA,220915,2423.7630,N,08137.7428,W,1,10,1.3,15,M,,M,,*6B
06/06/2014	22:09:07.592	$GPGGA,220916,2423.7644,N,08137.7427,W,1,10,1.3,15,M,,M,,*64
06/06/2014	22:09:08.580	$GPGGA,220917,2423.7659,N,08137.7426,W,1,9,1.4,15,M,,M,,*57
06/06/2014	22:09:09.579	$GPGGA,220918,2423.7673,N,08137.7424,W,1,9,1.3,15,M,,M,,*55
06/06/2014	22:09:10.618	$GPGGA,220919,2423.7688,N,08137.7423,W,1,10,1.3,15,M,,M,,*6F
06/06/2014	22:09:11.617	$GPGGA,220920,2423.7702,N,08137.7421,W,1,10,1.3,15,M,,M,,*64
06/06/2014	22:09:12.627	$GPGGA,220921,2423.7717,N,08137.7420,W,1,10,1.3,15,M,,M,,*60
06/06/2014	22:09:13.617	$GPGGA,220922,2423.7731,N,08137.7417,W,1,10,1.4,15,M,,M,,*64
06/06/2014	22:09:14.655	$GPGGA,220923,2423.7746,N,08137.7416,W,1,10,1.3,15,M,,M,,*63
06/06/2014	22:09:15.654	$GPGGA,220924,2423.7760,N,08137.7414,W,1,10,1.3,15,M,,M,,*62
06/06/2014	22:09:16.674	$GPGGA,220925,2423.7774,N,08137.7412,W,1,10,1.3,15,M,,M,,*60
06/06/2014	22:09:17.642	$GPGGA,220926,2423.7789,N,08137.7411,W,1,10,1.3,15,M,,M,,*62
06/06/2014	22:09:18.662	$GPGGA,220927,2423.7803,N,08137.7409,W,1,10,1.3,15,M,,M,,*67
06/06/2014	22:09:19.681	$GPGGA,220928,2423.7817,N,08137.7408,W,1,10,1.3,15,M,,M,,*6C
06/06/2014	22:09:20.700	$GPGGA,220929,2423.7832,N,08137.7406,W,1,10,1.3,15,M,,M,,*64
06/06/2014	22:09:21.669	$GPGGA,220930,2423.7846,N,08137.7406,W,1,10,1.3,15,M,,M,,*6F
06/06/2014	22:09:22.678	$GPGGA,220931,2423.7861,N,08137.7404,W,1,9,1.4,15,M,,M,,*56
06/06/2014	22:09:23.708	$GPGGA,220932,2423.7876,N,08137.7402,W,1,9,1.3,15,M,,M,,*52
06/06/2014	22:09:24.727	$GPGGA,220933,2423.7890,N,08137.7402,W,1,10,1.3,15,M,,M,,*63
06/06/2014	22:09:25.706	$GPGGA,220934,2423.7905,N,08137.7401,W,1,10,1.3,15,M,,M,,*6A
06/06/2014	22:09:26.845	$GPGGA,220935,2423.7919,N,08137.7398,W,1,9,1.3,15,M,,M,,*59
06/06/2014	22:09:27.723	$GPGGA,220936,2423.7933,N,08137.7397,W,1,9,1.3,15,M,,M,,*5D
06/06/2014	22:09:28.201	$GPGGA,220937,2423.7948,N,08137.7396,W,1,10,1.3,15,M,,M,,*69
06/06/2014	22:09:29.180	$GPGGA,220938,2423.7962,N,08137.7395,W,1,10,1.4,15,M,,M,,*6A
06/06/2014	22:09:30.199	$GPGGA,220939,2423.7976,N,08137.7394,W,1,10,1.3,15,M,,M,,*68
06/06/2014	22:09:31.208	$GPGGA,220940,2423.7991,N,08137.7392,W,1,10,1.5,15,M,,M,,*6F
06/06/2014	22:09:32.369	$GPGGA,220941,2423.8008,N,08137.7391,W,1,10,1.3,14,M,,M,,*6C
06/06/2014	22:09:33.206	$GPGGA,220942,2423.8022,N,08137.7389,W,1,10,1.3,14,M,,M,,*6E
06/06/2014	22:09:34.218	$GPGGA,220943,2423.8035,N,08137.7388,W,1,10,1.3,14,M,,M,,*68
06/06/2014	22:09:35.412	$GPGGA,220944,2423.8049,N,08137.7387,W,1,10,1.3,14,M,,M,,*6B
06/06/2014	22:09:36.234	$GPGGA,220945,2423.8064,N,08137.7388,W,1,9,1.5,14,M,,M,,*54
06/06/2014	22:09:37.325	$GPGGA,220946,2423.8078,N,08137.7386,W,1,9,1.5,14,M,,M,,*54
06/06/2014	22:09:38.394	$GPGGA,220947,2423.8092,N,08137.7384,W,1,9,1.5,14,M,,M,,*53
06/06/2014	22:09:39.272	$GPGGA,220948,2423.8107,N,08137.7383,W,1,9,1.5,14,M,,M,,*56
06/06/2014	22:09:40.372	$GPGGA,220949,2423.8121,N,08137.7382,W,1,9,1.5,14,M,,M,,*52
06/06/2014	22:09:41.265	$GPGGA,220950,2423.8135,N,08137.7381,W,1,9,1.5,14,M,,M,,*5C
06/06/2014	22:09:42.409	$GPGGA,220951,2423.8150,N,08137.7380,W,1,9,1.5,14,M,,M,,*5F
06/06/2014	22:09:43.459	$GPGGA,220952,2423.8164,N,08137.7381,W,1,9,1.5,14,M,,M,,*5A
06/06/2014	22:09:44.276	$GPGGA,220953,2423.8179,N,08137.7379,W,1,8,1.5,14,M,,M,,*51
06/06/2014	22:09:45.386	$GPGGA,220954,2423.8193,N,08137.7377,W,1,8,1.5,14,M,,M,,*5C
06/06/2014	22:09:46.305	$GPGGA,220955,2423.8207,N,08137.7376,W,1,9,1.5,14,M,,M,,*53
06/06/2014	22:09:47.496	$GPGGA,220956,2423.8222,N,08137.7374,W,1,9,1.5,13,M,,M,,*52
06/06/2014	22:09:48.454	$GPGGA,220957,2423.8236,N,08137.7373,W,1,9,1.5,13,M,,M,,*51
06/06/2014	22:09:49.484	$GPGGA,220958,2423.8251,N,08137.7372,W,1,9,1.4,13,M,,M,,*5F
06/06/2014	22:09:50.463	$GPGGA,220959,2423.8266,N,08137.7373,W,1,9,1.4,13,M,,M,,*5B
06/06/2014	22:09:51.532	$GPGGA,221000,2423.8281,N,08137.7371,W,1,9,1.5,13,M,,M,,*55
06/06/2014	22:09:52.481	$GPGGA,221001,2423.8295,N,08137.7370,W,1,9,1.5,13,M,,M,,*50
06/06/2014	22:09:53.440	$GPGGA,221002,2423.8311,N,08137.7369,W,1,9,1.5,13,M,,M,,*56
06/06/2014	22:09:54.499	$GPGGA,221003,2423.8324,N,08137.7367,W,1,9,1.5,13,M,,M,,*5F
06/06/2014	22:09:55.549	$GPGGA,221004,2423.8340,N,08137.7365,W,1,9,1.5,13,M,,M,,*58
06/06/2014	22:09:56.518	$GPGGA,221005,2423.8353,N,08137.7364,W,1,9,1.5,13,M,,M,,*5A
06/06/2014	22:09:57.537	$GPGGA,221006,2423.8370,N,08137.7361,W,1,9,1.3,13,M,,M,,*5B
06/06/2014	22:09:58.487	$GPGGA,221007,2423.8385,N,08137.7359,W,1,10,1.3,13,M,,M,,*63
06/06/2014	22:09:59.555	$GPGGA,221008,2423.8402,N,08137.7357,W,1,10,1.3,13,M,,M,,*6A
06/06/2014	22:10:00.493	$GPGGA,221009,2423.8416,N,08137.7356,W,1,10,1.3,13,M,,M,,*6F
06/06/2014	22:10:01.554	$GPGGA,221010,2423.8432,N,08137.7353,W,1,10,1.3,13,M,,M,,*64
06/06/2014	22:10:02.553	$GPGGA,221011,2423.8447,N,08137.7352,W,1,10,1.3,13,M,,M,,*66
06/06/2014	22:10:03.581	$GPGGA,221012,2423.8463,N,08137.7350,W,1,10,1.3,13,M,,M,,*61
06/06/2014	22:10:04.520	$GPGGA,221013,2423.8478,N,08137.7348,W,1,10,1.3,13,M,,M,,*63
06/06/2014	22:10:05.590	$GPGGA,221014,2423.8493,N,08137.7346,W,1,10,1.3,13,M,,M,,*6F
06/06/2014	22:10:06.538	$GPGGA,221015,2423.8508,N,08137.7344,W,1,10,1.3,13,M,,M,,*6F
06/06/2014	22:10:07.628	$GPGGA,221016,2423.8522,N,08137.7342,W,1,10,1.3,13,M,,M,,*62
06/06/2014	22:10:08.577	$GPGGA,221017,2423.8537,N,08137.7340,W,1,10,1.3,13,M,,M,,*65
06/06/2014	22:10:09.627	$GPGGA,221018,2423.8553,N,08137.7339,W,1,10,1.3,13,M,,M,,*66
06/06/2014	22:10:10.565	$GPGGA,221019,2423.8568,N,08137.7338,W,1,9,1.4,13,M,,M,,*51
06/06/2014	22:10:11.645	$GPGGA,221020,2423.8582,N,08137.7336,W,1,9,1.3,13,M,,M,,*56
06/06/2014	22:10:12.645	$GPGGA,221021,2423.8597,N,08137.7334,W,1,10,1.3,13,M,,M,,*69
06/06/2014	22:10:13.592	$GPGGA,221022,2423.8611,N,08137.7332,W,1,10,1.4,13,M,,M,,*66
06/06/2014	22:10:14.652	$GPGGA,221023,2423.8624,N,08137.7330,W,1,10,1.3,13,M,,M,,*64
06/06/2014	22:10:15.611	$GPGGA,221024,2423.8640,N,08137.7328,W,1,10,1.3,13,M,,M,,*68
06/06/2014	22:10:16.731	$GPGGA,221025,2423.8655,N,08137.7326,W,1,10,1.3,13,M,,M,,*63
06/06/2014	22:10:17.689	$GPGGA,221026,2423.8669,N,08137.7324,W,1,10,1.3,13,M,,M,,*6D
06/06/2014	22:10:18.748	$GPGGA,221027,2423.8684,N,08137.7323,W,1,10,1.3,13,M,,M,,*68
06/06/2014	22:10:19.710	$GPGGA,221028,2423.8699,N,08137.7321,W,1,10,1.3,13,M,,M,,*69
06/06/2014	22:10:20.777	$GPGGA,221029,2423.8713,N,08137.7319,W,1,10,1.3,14,M,,M,,*67
06/06/2014	22:10:21.705	$GPGGA,221030,2423.8728,N,08137.7316,W,1,10,1.3,14,M,,M,,*68
06/06/2014	22:10:22.705	$GPGGA,221031,2423.8742,N,08137.7314,W,1,10,1.3,14,M,,M,,*67
06/06/2014	22:10:23.774	$GPGGA,221032,2423.8756,N,08137.7312,W,1,10,1.3,14,M,,M,,*67
06/06/2014	22:10:24.723	$GPGGA,221033,2423.8771,N,08137.7310,W,1,10,1.3,14,M,,M,,*61
06/06/2014	22:10:25.773	$GPGGA,221034,2423.8785,N,08137.7308,W,1,10,1.3,14,M,,M,,*64
06/06/2014	22:10:26.782	$GPGGA,221035,2423.8799,N,08137.7306,W,1,10,1.3,14,M,,M,,*66
06/06/2014	22:10:27.771	$GPGGA,221036,2423.8812,N,08137.7304,W,1,10,1.3,14,M,,M,,*6B
06/06/2014	22:10:28.250	$GPGGA,221037,2423.8828,N,08137.7302,W,1,10,1.3,14,M,,M,,*65
06/06/2014	22:10:29.219	$GPGGA,221038,2423.8843,N,08137.7300,W,1,10,1.3,14,M,,M,,*65
06/06/2014	22:10:30.262	$GPGGA,221039,2423.8857,N,08137.7298,W,1,10,1.3,14,M,,M,,*61
06/06/2014	22:10:31.278	$GPGGA,221040,2423.8872,N,08137.7297,W,1,10,1.3,14,M,,M,,*67
06/06/2014	22:10:32.277	$GPGGA,221041,2423.8887,N,08137.7294,W,1,10,1.3,14,M,,M,,*6F
06/06/2014	22:10:33.288	$GPGGA,221042,2423.8901,N,08137.7293,W,1,10,1.3,14,M,,M,,*64
06/06/2014	22:10:34.284	$GPGGA,221043,2423.8915,N,08137.7292,W,1,10,1.3,14,M,,M,,*61
06/06/2014	22:10:35.314	$GPGGA,221044,2423.8930,N,08137.7289,W,1,10,1.3,14,M,,M,,*6B
06/06/2014	22:10:36.300	$GPGGA,221045,2423.8945,N,08137.7288,W,1,10,1.4,14,M,,M,,*6E
06/06/2014	22:10:37.313	$GPGGA,221046,2423.8960,N,08137.7288,W,1,10,1.3,14,M,,M,,*6D
06/06/2014	22:10:38.348	$GPGGA,221047,2423.8974,N,08137.7285,W,1,10,1.3,14,M,,M,,*64
06/06/2014	22:10:39.334	$GPGGA,221048,2423.8989,N,08137.7284,W,1,10,1.4,14,M,,M,,*6F
06/06/2014	22:10:40.318	$GPGGA,221049,2423.9005,N,08137.7282,W,1,9,1.4,14,M,,M,,*5C
06/06/2014	22:10:41.323	$GPGGA,221050,2423.9020,N,08137.7281,W,1,9,1.4,14,M,,M,,*50
06/06/2014	22:10:42.328	$GPGGA,221051,2423.9035,N,08137.7280,W,1,9,1.3,14,M,,M,,*53
06/06/2014	22:10:43.333	$GPGGA,221052,2423.9050,N,08137.7278,W,1,9,1.4,14,M,,M,,*53
06/06/2014	22:10:44.352	$GPGGA,221053,2423.9064,N,08137.7276,W,1,9,1.3,14,M,,M,,*5C
06/06/2014	22:10:45.352	$GPGGA,221054,2423.9079,N,08137.7273,W,1,9,1.3,14,M,,M,,*52
06/06/2014	22:10:46.347	$GPGGA,221055,2423.9093,N,08137.7271,W,1,10,1.4,14,M,,M,,*6A
06/06/2014	22:10:47.363	$GPGGA,221056,2423.9108,N,08137.7270,W,1,10,1.4,14,M,,M,,*6B
06/06/2014	22:10:48.427	$GPGGA,221057,2423.9124,N,08137.7269,W,1,9,1.4,14,M,,M,,*54
06/06/2014	22:10:49.352	$GPGGA,221058,2423.9137,N,08137.7266,W,1,9,1.3,14,M,,M,,*51
06/06/2014	22:10:50.367	$GPGGA,221059,2423.9153,N,08137.7264,W,1,10,1.3,14,M,,M,,*68
06/06/2014	22:10:51.372	$GPGGA,221100,2423.9168,N,08137.7262,W,1,10,1.3,14,M,,M,,*6B
06/06/2014	22:10:52.409	$GPGGA,221101,2423.9182,N,08137.7262,W,1,10,1.4,14,M,,M,,*69
06/06/2014	22:10:53.361	$GPGGA,221102,2423.9198,N,08137.7261,W,1,10,1.3,14,M,,M,,*65
06/06/2014	22:10:54.365	$GPGGA,221103,2423.9212,N,08137.7259,W,1,10,1.3,14,M,,M,,*6E
06/06/2014	22:10:55.402	$GPGGA,221104,2423.9227,N,08137.7258,W,1,10,1.4,14,M,,M,,*69
06/06/2014	22:10:56.375	$GPGGA,221105,2423.9241,N,08137.7257,W,1,9,1.4,14,M,,M,,*5F
06/06/2014	22:10:57.380	$GPGGA,221106,2423.9256,N,08137.7255,W,1,9,1.4,14,M,,M,,*58
06/06/2014	22:10:58.385	$GPGGA,221107,2423.9270,N,08137.7254,W,1,9,1.3,14,M,,M,,*5B
06/06/2014	22:10:59.442	$GPGGA,221108,2423.9285,N,08137.7253,W,1,9,1.4,14,M,,M,,*5E
06/06/2014	22:11:00.385	$GPGGA,221109,2423.9301,N,08137.7252,W,1,9,1.4,14,M,,M,,*53
06/06/2014	22:11:01.410	$GPGGA,221110,2423.9316,N,08137.7251,W,1,9,1.3,14,M,,M,,*59
06/06/2014	22:11:02.395	$GPGGA,221111,2423.9330,N,08137.7249,W,1,10,1.3,14,M,,M,,*6D
06/06/2014	22:11:03.420	$GPGGA,221112,2423.9345,N,08137.7247,W,1,10,1.3,14,M,,M,,*62
06/06/2014	22:11:04.424	$GPGGA,221113,2423.9360,N,08137.7247,W,1,10,1.4,14,M,,M,,*63
06/06/2014	22:11:05.399	$GPGGA,221114,2423.9360,N,08137.7247,W,1,10,1.4,14,M,,M,,*64
06/06/2014	22:11:06.424	$GPGGA,221115,2423.9388,N,08137.7244,W,1,10,1.3,14,M,,M,,*67
06/06/2014	22:11:07.419	$GPGGA,221116,2423.9388,N,08137.7244,W,1,10,1.3,14,M,,M,,*64
06/06/2014	22:11:08.494	$GPGGA,221117,2423.9417,N,08137.7239,W,1,10,1.3,14,M,,M,,*6E
06/06/2014	22:11:09.488	$GPGGA,221118,2423.9432,N,08137.7237,W,1,10,1.3,14,M,,M,,*68
06/06/2014	22:11:10.523	$GPGGA,221119,2423.9447,N,08137.7235,W,1,10,1.5,14,M,,M,,*6F
06/06/2014	22:11:11.438	$GPGGA,221120,2423.9447,N,08137.7235,W,1,10,1.4,14,M,,M,,*64
06/06/2014	22:11:12.498	$GPGGA,221121,2423.9476,N,08137.7232,W,1,10,1.3,14,M,,M,,*67
06/06/2014	22:11:13.528	$GPGGA,221122,2423.9491,N,08137.7231,W,1,10,1.3,14,M,,M,,*6E
06/06/2014	22:11:14.553	$GPGGA,221123,2423.9505,N,08137.7228,W,1,10,1.5,14,M,,M,,*6D
06/06/2014	22:11:15.438	$GPGGA,221124,2423.9505,N,08137.7228,W,1,10,1.3,14,M,,M,,*6C
06/06/2014	22:11:16.422	$GPGGA,221125,2423.9534,N,08137.7223,W,1,10,1.3,14,M,,M,,*64
06/06/2014	22:11:17.509	$GPGGA,221126,2423.9548,N,08137.7221,W,1,10,1.3,14,M,,M,,*6E
06/06/2014	22:11:18.542	$GPGGA,221127,2423.9563,N,08137.7220,W,1,10,1.3,14,M,,M,,*67
06/06/2014	22:11:19.537	$GPGGA,221128,2423.9577,N,08137.7218,W,1,10,1.3,14,M,,M,,*66
06/06/2014	22:11:20.552	$GPGGA,221129,2423.9592,N,08137.7216,W,1,10,1.3,14,M,,M,,*62
06/06/2014	22:11:21.530	$GPGGA,221130,2423.9606,N,08137.7214,W,1,10,1.3,14,M,,M,,*66
06/06/2014	22:11:22.545	$GPGGA,221131,2423.9621,N,08137.7215,W,1,10,1.3,14,M,,M,,*63
06/06/2014	22:11:23.547	$GPGGA,221132,2423.9635,N,08137.7213,W,1,10,1.4,14,M,,M,,*64
06/06/2014	22:11:24.553	$GPGGA,221133,2423.9649,N,08137.7210,W,1,10,1.3,14,M,,M,,*6A
06/06/2014	22:11:25.536	$GPGGA,221134,2423.9664,N,08137.7209,W,1,10,1.3,14,M,,M,,*6A
06/06/2014	22:11:26.555	$GPGGA,221135,2423.9678,N,08137.7206,W,1,9,1.4,14,M,,M,,*56
06/06/2014	22:11:27.565	$GPGGA,221136,2423.9693,N,08137.7205,W,1,9,1.3,14,M,,M,,*54
06/06/2014	22:11:28.235	$GPGGA,221137,2423.9707,N,08137.7203,W,1,10,1.3,14,M,,M,,*67
06/06/2014	22:11:29.230	$GPGGA,221138,2423.9722,N,08137.7201,W,1,10,1.3,14,M,,M,,*6D
06/06/2014	22:11:31.712	$GPGGA,221139,2423.9738,N,08137.7201,W,1,10,1.3,14,M,,M,,*67
06/06/2014	22:11:31.732	$GPGGA,221140,2423.9753,N,08137.7198,W,1,10,1.4,14,M,,M,,*60
06/06/2014	22:11:32.265	$GPGGA,221141,2423.9768,N,08137.7196,W,1,10,1.5,14,M,,M,,*66
06/06/2014	22:11:33.239	$GPGGA,221142,2423.9783,N,08137.7194,W,1,10,1.5,14,M,,M,,*62
06/06/2014	22:11:34.264	$GPGGA,221143,2423.9797,N,08137.7194,W,1,10,1.3,14,M,,M,,*60
06/06/2014	22:11:35.259	$GPGGA,221144,2423.9812,N,08137.7192,W,1,10,1.3,14,M,,M,,*63
06/06/2014	22:11:36.264	$GPGGA,221145,2423.9827,N,08137.7190,W,1,10,1.5,14,M,,M,,*60
06/06/2014	22:11:37.249	$GPGGA,221146,2423.9841,N,08137.7189,W,1,10,1.3,14,M,,M,,*6D
06/06/2014	22:11:38.274	$GPGGA,221147,2423.9856,N,08137.7188,W,1,10,1.3,14,M,,M,,*6B
06/06/2014	22:11:39.269	$GPGGA,221148,2423.9872,N,08137.7186,W,1,10,1.4,14,M,,M,,*6B
06/06/2014	22:11:40.254	$GPGGA,221149,2423.9887,N,08137.7184,W,1,10,1.5,14,M,,M,,*63
