Software Version Number: 1	Data File Format Number: 1	Build Version Number: 1	Error Count Since VI Started: 0	Manufacturer: Raytheon	 Model Number: RayMarine 120	 S/N: 	 Cal Date: 	 Wind Direction Offset: 0.00	 Slope (M)1: 0.00	 Offset (B)1: 0.00	 Slope (M)2: 0.00	 Offset (B)2: 0.00	 Slope (M)3: 0.00	 Offset (B)3: 0.00	 Slope (M)4: 0.00	 Offset (B)4: 0.00	 Slope (M)5: 0.00	 Offset (B)5: 0.00	 Slope (M)6: 0.00	 Offset (B)6: 0.00
Computer Date	Computer Time	GGA String
06/06/2014	20:00:00.845	$GPGGA,200008,2420.0134,N,08140.2745,W,1,9,1.6,18,M,,M,,*56
06/06/2014	20:00:01.866	$GPGGA,200009,2420.0126,N,08140.2744,W,1,10,1.6,18,M,,M,,*6D
06/06/2014	20:00:03.031	$GPGGA,200010,2420.0118,N,08140.2743,W,1,10,1.6,18,M,,M,,*6F
06/06/2014	20:00:04.076	$GPGGA,200011,2420.0112,N,08140.2742,W,1,10,1.6,18,M,,M,,*65
06/06/2014	20:00:05.079	$GPGGA,200012,2420.0105,N,08140.2742,W,1,10,1.6,18,M,,M,,*60
06/06/2014	20:00:06.078	$GPGGA,200013,2420.0098,N,08140.2742,W,1,9,1.7,18,M,,M,,*5D
06/06/2014	20:00:07.130	$GPGGA,200014,2420.0090,N,08140.2741,W,1,9,1.6,18,M,,M,,*50
06/06/2014	20:00:08.183	$GPGGA,200015,2420.0083,N,08140.2742,W,1,10,1.6,18,M,,M,,*68
06/06/2014	20:00:09.352	$GPGGA,200016,2420.0076,N,08140.2742,W,1,10,1.6,18,M,,M,,*61
06/06/2014	20:00:10.415	$GPGGA,200017,2420.0069,N,08140.2742,W,1,10,1.6,18,M,,M,,*6E
06/06/2014	20:00:11.426	$GPGGA,200018,2420.0060,N,08140.2741,W,1,10,1.6,18,M,,M,,*6B
06/06/2014	20:00:12.478	$GPGGA,200019,2420.0052,N,08140.2740,W,1,10,1.6,18,M,,M,,*6A
06/06/2014	20:00:13.552	$GPGGA,200020,2420.0044,N,08140.2742,W,1,10,1.6,18,M,,M,,*65
06/06/2014	20:00:14.584	$GPGGA,200021,2420.0036,N,08140.2741,W,1,10,1.6,18,M,,M,,*62
06/06/2014	20:00:15.637	$GPGGA,200022,2420.0029,N,08140.2740,W,1,10,1.6,18,M,,M,,*6E
06/06/2014	20:00:16.701	$GPGGA,200023,2420.0020,N,08140.2740,W,1,10,1.6,18,M,,M,,*66
06/06/2014	20:00:17.753	$GPGGA,200024,2420.0012,N,08140.2740,W,1,10,1.6,18,M,,M,,*60
06/06/2014	20:00:18.785	$GPGGA,200025,2420.0005,N,08140.2740,W,1,10,1.6,18,M,,M,,*67
06/06/2014	20:00:19.850	$GPGGA,200026,2419.9997,N,08140.2740,W,1,10,1.6,18,M,,M,,*65
06/06/2014	20:00:20.902	$GPGGA,200027,2419.9988,N,08140.2740,W,1,10,1.6,18,M,,M,,*6A
06/06/2014	20:00:21.955	$GPGGA,200028,2419.9980,N,08140.2740,W,1,10,1.6,18,M,,M,,*6D
06/06/2014	20:00:23.006	$GPGGA,200029,2419.9972,N,08140.2742,W,1,10,1.6,17,M,,M,,*6C
06/06/2014	20:00:24.038	$GPGGA,200030,2419.9964,N,08140.2741,W,1,10,1.8,17,M,,M,,*6E
06/06/2014	20:00:25.112	$GPGGA,200031,2419.9957,N,08140.2742,W,1,10,1.6,17,M,,M,,*62
06/06/2014	20:00:26.155	$GPGGA,200032,2419.9948,N,08140.2745,W,1,10,2.1,17,M,,M,,*6C
06/06/2014	20:00:27.207	$GPGGA,200033,2419.9939,N,08140.2744,W,1,9,1.8,17,M,,M,,*58
06/06/2014	20:00:28.251	$GPGGA,200034,2419.9931,N,08140.2746,W,1,9,1.8,17,M,,M,,*55
06/06/2014	20:00:29.324	$GPGGA,200035,2419.9924,N,08140.2747,W,1,9,1.8,17,M,,M,,*51
06/06/2014	20:00:30.356	$GPGGA,200036,2419.9914,N,08140.2747,W,1,9,1.8,17,M,,M,,*51
06/06/2014	20:00:28.247	$GPGGA,200037,2419.9906,N,08140.2747,W,1,9,1.8,17,M,,M,,*53
06/06/2014	20:00:29.280	$GPGGA,200038,2419.9899,N,08140.2749,W,1,9,1.8,17,M,,M,,*55
06/06/2014	20:00:30.342	$GPGGA,200039,2419.9890,N,08140.2749,W,1,9,1.8,17,M,,M,,*5D
06/06/2014	20:00:31.374	$GPGGA,200040,2419.9882,N,08140.2749,W,1,9,1.8,17,M,,M,,*50
06/06/2014	20:00:32.469	$GPGGA,200041,2419.9874,N,08140.2749,W,1,8,2.0,17,M,,M,,*52
06/06/2014	20:00:33.470	$GPGGA,200042,2419.9867,N,08140.2750,W,1,8,1.8,16,M,,M,,*51
06/06/2014	20:00:34.543	$GPGGA,200043,2419.9861,N,08140.2750,W,1,9,1.8,16,M,,M,,*57
06/06/2014	20:00:35.586	$GPGGA,200044,2419.9854,N,08140.2751,W,1,9,1.8,16,M,,M,,*57
06/06/2014	20:00:36.639	$GPGGA,200045,2419.9847,N,08140.2753,W,1,9,1.8,16,M,,M,,*56
06/06/2014	20:00:37.691	$GPGGA,200046,2419.9841,N,08140.2752,W,1,9,1.8,16,M,,M,,*52
06/06/2014	20:00:38.733	$GPGGA,200047,2419.9832,N,08140.2753,W,1,9,1.8,16,M,,M,,*56
06/06/2014	20:00:39.796	$GPGGA,200048,2419.9825,N,08140.2753,W,1,9,1.8,16,M,,M,,*5F
06/06/2014	20:00:40.860	$GPGGA,200049,2419.9816,N,08140.2752,W,1,9,1.8,16,M,,M,,*5F
06/06/2014	20:00:41.892	$GPGGA,200050,2419.9809,N,08140.2753,W,1,9,2.0,16,M,,M,,*53
06/06/2014	20:00:42.925	$GPGGA,200051,2419.9802,N,08140.2754,W,1,9,1.8,16,M,,M,,*55
06/06/2014	20:00:44.008	$GPGGA,200052,2419.9795,N,08140.2754,W,1,9,1.8,16,M,,M,,*57
06/06/2014	20:00:45.067	$GPGGA,200053,2419.9787,N,08140.2754,W,1,9,1.8,16,M,,M,,*55
06/06/2014	20:00:46.072	$GPGGA,200054,2419.9781,N,08140.2754,W,1,9,1.8,16,M,,M,,*54
06/06/2014	20:00:47.135	$GPGGA,200055,2419.9774,N,08140.2754,W,1,9,1.8,16,M,,M,,*5F
06/06/2014	20:00:48.203	$GPGGA,200056,2419.9767,N,08140.2756,W,1,9,1.8,17,M,,M,,*5D
06/06/2014	20:00:49.251	$GPGGA,200057,2419.9759,N,08140.2755,W,1,9,1.8,17,M,,M,,*52
06/06/2014	20:00:50.283	$GPGGA,200058,2419.9751,N,08140.2754,W,1,9,1.8,17,M,,M,,*54
06/06/2014	20:00:51.336	$GPGGA,200059,2419.9744,N,08140.2757,W,1,9,1.8,17,M,,M,,*52
06/06/2014	20:00:52.536	$GPGGA,200100,2419.9737,N,08140.2756,W,1,9,1.8,17,M,,M,,*5A
06/06/2014	20:00:53.442	$GPGGA,200101,2419.9729,N,08140.2757,W,1,9,1.8,17,M,,M,,*55
06/06/2014	20:00:54.591	$GPGGA,200102,2419.9722,N,08140.2757,W,1,9,1.8,17,M,,M,,*5D
06/06/2014	20:00:55.663	$GPGGA,200103,2419.9713,N,08140.2757,W,1,9,1.8,17,M,,M,,*5E
06/06/2014	20:00:56.610	$GPGGA,200104,2419.9706,N,08140.2758,W,1,9,1.8,18,M,,M,,*5D
06/06/2014	20:00:57.747	$GPGGA,200105,2419.9698,N,08140.2757,W,1,9,1.8,18,M,,M,,*55
06/06/2014	20:00:58.695	$GPGGA,200106,2419.9690,N,08140.2757,W,1,9,1.8,18,M,,M,,*5E
06/06/2014	20:00:59.853	$GPGGA,200107,2419.9682,N,08140.2758,W,1,9,1.8,18,M,,M,,*53
06/06/2014	20:01:00.811	$GPGGA,200108,2419.9675,N,08140.2760,W,1,9,1.8,18,M,,M,,*5F
06/06/2014	20:01:01.948	$GPGGA,200109,2419.9668,N,08140.2758,W,1,9,1.8,18,M,,M,,*59
06/06/2014	20:01:03.001	$GPGGA,200110,2419.9659,N,08140.2756,W,1,9,1.8,18,M,,M,,*5D
06/06/2014	20:01:04.075	$GPGGA,200111,2419.9653,N,08140.2757,W,1,10,1.6,18,M,,M,,*61
06/06/2014	20:01:05.118	$GPGGA,200112,2419.9646,N,08140.2756,W,1,10,1.6,18,M,,M,,*67
06/06/2014	20:01:06.170	$GPGGA,200113,2419.9637,N,08140.2754,W,1,10,1.6,18,M,,M,,*62
06/06/2014	20:01:07.213	$GPGGA,200114,2419.9629,N,08140.2753,W,1,10,1.6,18,M,,M,,*6D
06/06/2014	20:01:08.245	$GPGGA,200115,2419.9622,N,08140.2753,W,1,10,1.6,18,M,,M,,*67
06/06/2014	20:01:09.319	$GPGGA,200116,2419.9615,N,08140.2754,W,1,10,1.6,18,M,,M,,*67
06/06/2014	20:01:10.372	$GPGGA,200117,2419.9607,N,08140.2752,W,1,10,1.6,19,M,,M,,*62
06/06/2014	20:01:11.403	$GPGGA,200118,2419.9599,N,08140.2753,W,1,10,1.6,19,M,,M,,*68
06/06/2014	20:01:12.446	$GPGGA,200119,2419.9592,N,08140.2753,W,1,10,1.6,19,M,,M,,*62
06/06/2014	20:01:13.520	$GPGGA,200120,2419.9585,N,08140.2752,W,1,10,1.6,19,M,,M,,*6F
06/06/2014	20:01:14.582	$GPGGA,200121,2419.9576,N,08140.2750,W,1,10,1.6,19,M,,M,,*60
06/06/2014	20:01:15.603	$GPGGA,200122,2419.9570,N,08140.2751,W,1,10,1.6,19,M,,M,,*64
06/06/2014	20:01:16.688	$GPGGA,200123,2419.9561,N,08140.2751,W,1,10,1.6,19,M,,M,,*65
06/06/2014	20:01:17.716	$GPGGA,200124,2419.9554,N,08140.2750,W,1,10,1.6,19,M,,M,,*65
06/06/2014	20:01:18.706	$GPGGA,200125,2419.9546,N,08140.2750,W,1,10,1.6,19,M,,M,,*67
06/06/2014	20:01:19.737	$GPGGA,200126,2419.9538,N,08140.2750,W,1,10,1.6,19,M,,M,,*6D
06/06/2014	20:01:20.778	$GPGGA,200127,2419.9531,N,08140.2749,W,1,10,1.6,19,M,,M,,*6D
06/06/2014	20:01:21.778	$GPGGA,200128,2419.9523,N,08140.2748,W,1,10,1.6,19,M,,M,,*60
06/06/2014	20:01:22.819	$GPGGA,200129,2419.9516,N,08140.2749,W,1,10,1.6,19,M,,M,,*66
06/06/2014	20:01:23.799	$GPGGA,200130,2419.9509,N,08140.2747,W,1,10,1.6,19,M,,M,,*6E
06/06/2014	20:01:24.840	$GPGGA,200131,2419.9501,N,08140.2747,W,1,10,1.6,19,M,,M,,*67
06/06/2014	20:01:25.860	$GPGGA,200132,2419.9493,N,08140.2746,W,1,10,1.6,19,M,,M,,*6F
06/06/2014	20:01:26.861	$GPGGA,200133,2419.9485,N,08140.2745,W,1,10,1.6,19,M,,M,,*6A
06/06/2014	20:01:27.891	$GPGGA,200134,2419.9478,N,08140.2744,W,1,10,1.6,19,M,,M,,*6E
06/06/2014	20:01:28.932	$GPGGA,200135,2419.9470,N,08140.2743,W,1,10,1.6,19,M,,M,,*60
06/06/2014	20:01:29.953	$GPGGA,200136,2419.9463,N,08140.2742,W,1,10,1.6,19,M,,M,,*60
06/06/2014	20:01:28.185	$GPGGA,200137,2419.9455,N,08140.2741,W,1,10,1.6,19,M,,M,,*67
06/06/2014	20:01:29.206	$GPGGA,200138,2419.9448,N,08140.2742,W,1,10,1.6,19,M,,M,,*67
06/06/2014	20:01:30.388	$GPGGA,200139,2419.9440,N,08140.2740,W,1,10,1.6,19,M,,M,,*6C
06/06/2014	20:01:31.256	$GPGGA,200140,2419.9433,N,08140.2738,W,1,10,1.6,19,M,,M,,*69
06/06/2014	20:01:32.409	$GPGGA,200141,2419.9426,N,08140.2737,W,1,10,1.6,19,M,,M,,*63
06/06/2014	20:01:33.273	$GPGGA,200142,2419.9418,N,08140.2738,W,1,10,1.6,19,M,,M,,*62
06/06/2014	20:01:34.287	$GPGGA,200143,2419.9411,N,08140.2736,W,1,10,1.6,19,M,,M,,*64
06/06/2014	20:01:35.491	$GPGGA,200144,2419.9404,N,08140.2734,W,1,10,1.6,19,M,,M,,*65
06/06/2014	20:01:36.359	$GPGGA,200145,2419.9395,N,08140.2733,W,1,10,1.6,19,M,,M,,*6C
06/06/2014	20:01:37.359	$GPGGA,200146,2419.9388,N,08140.2733,W,1,10,1.6,19,M,,M,,*63
06/06/2014	20:01:38.359	$GPGGA,200147,2419.9381,N,08140.2733,W,1,10,1.6,19,M,,M,,*6B
06/06/2014	20:01:39.574	$GPGGA,200148,2419.9373,N,08140.2731,W,1,10,1.6,19,M,,M,,*6B
06/06/2014	20:01:40.564	$GPGGA,200149,2419.9368,N,08140.2731,W,1,10,1.6,19,M,,M,,*60
06/06/2014	20:01:41.513	$GPGGA,200150,2419.9361,N,08140.2731,W,1,10,1.6,19,M,,M,,*61
06/06/2014	20:01:42.564	$GPGGA,200151,2419.9352,N,08140.2729,W,1,10,1.6,19,M,,M,,*69
06/06/2014	20:01:43.564	$GPGGA,200152,2419.9346,N,08140.2729,W,1,10,1.6,19,M,,M,,*6F
06/06/2014	20:01:44.483	$GPGGA,200153,2419.9339,N,08140.2728,W,1,10,1.6,19,M,,M,,*67
06/06/2014	20:01:45.585	$GPGGA,200154,2419.9332,N,08140.2727,W,1,10,1.6,19,M,,M,,*64
06/06/2014	20:01:46.524	$GPGGA,200155,2419.9324,N,08140.2726,W,1,10,1.6,18,M,,M,,*62
06/06/2014	20:01:47.636	$GPGGA,200156,2419.9316,N,08140.2727,W,1,10,1.7,18,M,,M,,*60
06/06/2014	20:01:48.687	$GPGGA,200157,2419.9310,N,08140.2726,W,1,8,1.7,18,M,,M,,*5F
06/06/2014	20:01:49.564	$GPGGA,200158,2419.9303,N,08140.2725,W,1,8,1.7,18,M,,M,,*51
06/06/2014	20:01:50.718	$GPGGA,200159,2419.9296,N,08140.2724,W,1,9,1.7,18,M,,M,,*5D
06/06/2014	20:01:51.800	$GPGGA,200200,2419.9288,N,08140.2724,W,1,9,1.7,18,M,,M,,*5D
06/06/2014	20:01:52.749	$GPGGA,200201,2419.9282,N,08140.2724,W,1,9,1.7,18,M,,M,,*56
06/06/2014	20:01:53.810	$GPGGA,200202,2419.9275,N,08140.2723,W,1,9,1.7,18,M,,M,,*5A
06/06/2014	20:01:54.800	$GPGGA,200203,2419.9268,N,08140.2721,W,1,9,1.7,18,M,,M,,*55
06/06/2014	20:01:55.862	$GPGGA,200204,2419.9261,N,08140.2721,W,1,9,1.7,18,M,,M,,*5B
06/06/2014	20:01:56.811	$GPGGA,200205,2419.9256,N,08140.2720,W,1,9,1.7,18,M,,M,,*5F
06/06/2014	20:01:57.882	$GPGGA,200206,2419.9249,N,08140.2719,W,1,9,1.7,18,M,,M,,*58
06/06/2014	20:01:58.872	$GPGGA,200207,2419.9241,N,08140.2717,W,1,9,1.7,18,M,,M,,*5F
06/06/2014	20:01:59.944	$GPGGA,200208,2419.9235,N,08140.2716,W,1,9,1.7,18,M,,M,,*52
06/06/2014	20:02:00.914	$GPGGA,200209,2419.9229,N,08140.2717,W,1,9,1.7,17,M,,M,,*50
06/06/2014	20:02:01.883	$GPGGA,200210,2419.9222,N,08140.2715,W,1,9,1.7,17,M,,M,,*51
06/06/2014	20:02:02.985	$GPGGA,200211,2419.9214,N,08140.2714,W,1,9,1.7,17,M,,M,,*54
06/06/2014	20:02:03.996	$GPGGA,200212,2419.9207,N,08140.2713,W,1,9,2.0,17,M,,M,,*56
06/06/2014	20:02:04.944	$GPGGA,200213,2419.9200,N,08140.2712,W,1,8,2.0,17,M,,M,,*50
06/06/2014	20:02:06.016	$GPGGA,200214,2419.9194,N,08140.2711,W,1,8,1.7,17,M,,M,,*5E
06/06/2014	20:02:07.026	$GPGGA,200215,2419.9187,N,08140.2710,W,1,9,1.7,17,M,,M,,*5D
06/06/2014	20:02:08.073	$GPGGA,200216,2419.9181,N,08140.2710,W,1,9,1.7,17,M,,M,,*58
06/06/2014	20:02:09.006	$GPGGA,200217,2419.9174,N,08140.2709,W,1,9,1.7,17,M,,M,,*5B
06/06/2014	20:02:10.099	$GPGGA,200218,2419.9169,N,08140.2710,W,1,9,1.7,17,M,,M,,*50
06/06/2014	20:02:11.108	$GPGGA,200219,2419.9162,N,08140.2708,W,1,9,1.7,17,M,,M,,*53
06/06/2014	20:02:12.149	$GPGGA,200220,2419.9155,N,08140.2706,W,1,9,1.7,17,M,,M,,*53
06/06/2014	20:02:13.095	$GPGGA,200221,2419.9149,N,08140.2705,W,1,10,1.6,17,M,,M,,*65
06/06/2014	20:02:14.160	$GPGGA,200222,2419.9144,N,08140.2703,W,1,10,1.6,17,M,,M,,*6D
06/06/2014	20:02:15.170	$GPGGA,200223,2419.9137,N,08140.2701,W,1,10,1.6,17,M,,M,,*6A
06/06/2014	20:02:16.211	$GPGGA,200224,2419.9130,N,08140.2700,W,1,10,1.6,17,M,,M,,*6B
06/06/2014	20:02:17.222	$GPGGA,200225,2419.9124,N,08140.2698,W,1,10,1.6,17,M,,M,,*6F
06/06/2014	20:02:18.232	$GPGGA,200226,2419.9118,N,08140.2697,W,1,10,1.6,17,M,,M,,*6C
06/06/2014	20:02:19.243	$GPGGA,200227,2419.9111,N,08140.2696,W,1,10,1.6,18,M,,M,,*6A
06/06/2014	20:02:20.232	$GPGGA,200228,2419.9104,N,08140.2694,W,1,10,1.6,18,M,,M,,*63
06/06/2014	20:02:21.284	$GPGGA,200229,2419.9097,N,08140.2693,W,1,10,1.6,18,M,,M,,*6E
06/06/2014	20:02:22.316	$GPGGA,200230,2419.9091,N,08140.2692,W,1,10,1.6,18,M,,M,,*61
06/06/2014	20:02:23.273	$GPGGA,200231,2419.9084,N,08140.2690,W,1,9,1.6,18,M,,M,,*5E
06/06/2014	20:02:24.365	$GPGGA,200232,2419.9077,N,08140.2688,W,1,9,1.6,18,M,,M,,*58
06/06/2014	20:02:25.304	$GPGGA,200233,2419.9070,N,08140.2687,W,1,10,1.6,18,M,,M,,*69
06/06/2014	20:02:26.387	$GPGGA,200234,2419.9064,N,08140.2686,W,1,10,1.6,19,M,,M,,*6B
06/06/2014	20:02:27.345	$GPGGA,200235,2419.9057,N,08140.2685,W,1,10,1.6,19,M,,M,,*69
06/06/2014	20:02:28.447	$GPGGA,200236,2419.9050,N,08140.2684,W,1,10,1.6,19,M,,M,,*6C
06/06/2014	20:02:28.183	$GPGGA,200237,2419.9043,N,08140.2685,W,1,10,1.6,19,M,,M,,*6E
06/06/2014	20:02:29.265	$GPGGA,200238,2419.9036,N,08140.2684,W,1,10,1.6,19,M,,M,,*62
06/06/2014	20:02:30.214	$GPGGA,200239,2419.9028,N,08140.2682,W,1,10,1.6,19,M,,M,,*6A
06/06/2014	20:02:31.275	$GPGGA,200240,2419.9022,N,08140.2681,W,1,10,1.6,19,M,,M,,*6D
06/06/2014	20:02:32.347	$GPGGA,200241,2419.9015,N,08140.2681,W,1,10,1.6,19,M,,M,,*68
06/06/2014	20:02:33.357	$GPGGA,200242,2419.9008,N,08140.2680,W,1,10,1.6,19,M,,M,,*66
06/06/2014	20:02:34.378	$GPGGA,200243,2419.9001,N,08140.2679,W,1,10,1.6,19,M,,M,,*68
06/06/2014	20:02:35.388	$GPGGA,200244,2419.8996,N,08140.2680,W,1,10,1.6,19,M,,M,,*6F
06/06/2014	20:02:36.442	$GPGGA,200245,2419.8988,N,08140.2678,W,1,10,1.6,20,M,,M,,*6C
06/06/2014	20:02:37.420	$GPGGA,200246,2419.8980,N,08140.2676,W,1,10,1.6,20,M,,M,,*69
06/06/2014	20:02:38.461	$GPGGA,200247,2419.8974,N,08140.2675,W,1,11,1.6,20,M,,M,,*61
06/06/2014	20:02:39.500	$GPGGA,200248,2419.8967,N,08140.2674,W,1,11,1.6,20,M,,M,,*6D
06/06/2014	20:02:40.501	$GPGGA,200249,2419.8958,N,08140.2673,W,1,11,1.6,20,M,,M,,*67
06/06/2014	20:02:41.501	$GPGGA,200250,2419.8951,N,08140.2672,W,1,11,1.6,20,M,,M,,*67
06/06/2014	20:02:42.542	$GPGGA,200251,2419.8943,N,08140.2670,W,1,11,1.6,20,M,,M,,*67
06/06/2014	20:02:43.542	$GPGGA,200252,2419.8936,N,08140.2670,W,1,11,1.6,20,M,,M,,*66
06/06/2014	20:02:44.573	$GPGGA,200253,2419.8929,N,08140.2669,W,1,11,1.6,20,M,,M,,*61
06/06/2014	20:02:45.614	$GPGGA,200254,2419.8922,N,08140.2667,W,1,11,1.6,20,M,,M,,*63
06/06/2014	20:02:46.604	$GPGGA,200255,2419.8915,N,08140.2666,W,1,11,1.6,20,M,,M,,*67
06/06/2014	20:02:47.624	$GPGGA,200256,2419.8909,N,08140.2666,W,1,11,1.6,20,M,,M,,*69
06/06/2014	20:02:48.645	$GPGGA,200257,2419.8902,N,08140.2665,W,1,11,1.6,20,M,,M,,*60
06/06/2014	20:02:49.645	$GPGGA,200258,2419.8895,N,08140.2663,W,1,11,1.6,20,M,,M,,*66
06/06/2014	20:02:50.686	$GPGGA,200259,2419.8887,N,08140.2662,W,1,11,1.6,20,M,,M,,*65
06/06/2014	20:02:51.717	$GPGGA,200300,2419.8880,N,08140.2663,W,1,11,1.6,20,M,,M,,*6E
06/06/2014	20:02:52.707	$GPGGA,200301,2419.8873,N,08140.2660,W,1,11,1.6,20,M,,M,,*60
06/06/2014	20:02:53.758	$GPGGA,200302,2419.8866,N,08140.2659,W,1,11,1.6,20,M,,M,,*6D
06/06/2014	20:02:54.758	$GPGGA,200303,2419.8858,N,08140.2659,W,1,11,1.6,20,M,,M,,*61
06/06/2014	20:02:55.799	$GPGGA,200304,2419.8852,N,08140.2659,W,1,11,1.6,20,M,,M,,*6C
06/06/2014	20:02:56.789	$GPGGA,200305,2419.8845,N,08140.2659,W,1,11,1.6,20,M,,M,,*6B
06/06/2014	20:02:57.839	$GPGGA,200306,2419.8837,N,08140.2658,W,1,11,1.6,20,M,,M,,*6C
06/06/2014	20:02:58.829	$GPGGA,200307,2419.8830,N,08140.2656,W,1,11,1.6,20,M,,M,,*64
06/06/2014	20:02:59.870	$GPGGA,200308,2419.8824,N,08140.2657,W,1,11,1.6,20,M,,M,,*6F
06/06/2014	20:03:00.860	$GPGGA,200309,2419.8817,N,08140.2657,W,1,11,1.6,20,M,,M,,*6E
06/06/2014	20:03:01.901	$GPGGA,200310,2419.8809,N,08140.2656,W,1,11,1.7,20,M,,M,,*69
06/06/2014	20:03:02.912	$GPGGA,200311,2419.8802,N,08140.2655,W,1,10,1.7,20,M,,M,,*61
06/06/2014	20:03:03.922	$GPGGA,200312,2419.8802,N,08140.2655,W,1,10,1.6,20,M,,M,,*63
06/06/2014	20:03:04.922	$GPGGA,200313,2419.8790,N,08140.2654,W,1,11,1.6,20,M,,M,,*66
06/06/2014	20:03:05.953	$GPGGA,200314,2419.8783,N,08140.2653,W,1,11,1.6,20,M,,M,,*64
06/06/2014	20:03:07.073	$GPGGA,200315,2419.8776,N,08140.2653,W,1,10,1.7,20,M,,M,,*6F
06/06/2014	20:03:07.984	$GPGGA,200316,2419.8776,N,08140.2653,W,1,10,1.7,20,M,,M,,*6C
06/06/2014	20:03:09.015	$GPGGA,200317,2419.8763,N,08140.2650,W,1,10,1.7,20,M,,M,,*6A
06/06/2014	20:03:10.110	$GPGGA,200318,2419.8756,N,08140.2649,W,1,10,1.7,20,M,,M,,*6B
06/06/2014	20:03:11.055	$GPGGA,200319,2419.8750,N,08140.2647,W,1,11,1.6,19,M,,M,,*68
06/06/2014	20:03:12.138	$GPGGA,200320,2419.8745,N,08140.2646,W,1,11,1.7,19,M,,M,,*66
06/06/2014	20:03:13.084	$GPGGA,200321,2419.8738,N,08140.2644,W,1,10,1.7,19,M,,M,,*6E
06/06/2014	20:03:14.128	$GPGGA,200322,2419.8738,N,08140.2644,W,1,10,2.0,19,M,,M,,*69
06/06/2014	20:03:15.240	$GPGGA,200323,2419.8732,N,08140.2637,W,1,10,1.6,19,M,,M,,*63
06/06/2014	20:03:16.179	$GPGGA,200324,2419.8726,N,08140.2636,W,1,10,1.7,19,M,,M,,*61
06/06/2014	20:03:17.139	$GPGGA,200325,2419.8721,N,08140.2634,W,1,10,1.7,19,M,,M,,*65
06/06/2014	20:03:18.250	$GPGGA,200326,2419.8716,N,08140.2632,W,1,10,1.7,19,M,,M,,*64
06/06/2014	20:03:19.312	$GPGGA,200327,2419.8712,N,08140.2631,W,1,10,1.7,19,M,,M,,*62
06/06/2014	20:03:20.312	$GPGGA,200328,2419.8707,N,08140.2628,W,1,10,1.6,19,M,,M,,*60
06/06/2014	20:03:21.353	$GPGGA,200329,2419.8703,N,08140.2626,W,1,11,1.6,19,M,,M,,*6A
06/06/2014	20:03:22.363	$GPGGA,200330,2419.8698,N,08140.2624,W,1,11,1.6,19,M,,M,,*63
06/06/2014	20:03:23.353	$GPGGA,200331,2419.8694,N,08140.2622,W,1,10,1.7,19,M,,M,,*68
06/06/2014	20:03:24.283	$GPGGA,200332,2419.8694,N,08140.2622,W,1,10,1.7,19,M,,M,,*6B
06/06/2014	20:03:25.405	$GPGGA,200333,2419.8687,N,08140.2616,W,1,10,1.6,19,M,,M,,*6E
06/06/2014	20:03:26.415	$GPGGA,200334,2419.8682,N,08140.2613,W,1,10,1.6,20,M,,M,,*63
06/06/2014	20:03:27.415	$GPGGA,200335,2419.8679,N,08140.2609,W,1,10,1.7,20,M,,M,,*6C
06/06/2014	20:03:28.456	$GPGGA,200336,2419.8675,N,08140.2606,W,1,10,1.6,20,M,,M,,*6D
06/06/2014	20:03:28.222	$GPGGA,200337,2419.8671,N,08140.2603,W,1,11,1.6,20,M,,M,,*6C
06/06/2014	20:03:29.252	$GPGGA,200338,2419.8668,N,08140.2600,W,1,11,1.6,20,M,,M,,*68
06/06/2014	20:03:30.283	$GPGGA,200339,2419.8663,N,08140.2595,W,1,11,1.6,20,M,,M,,*6D
06/06/2014	20:03:31.294	$GPGGA,200340,2419.8660,N,08140.2592,W,1,11,1.6,20,M,,M,,*67
06/06/2014	20:03:32.323	$GPGGA,200341,2419.8656,N,08140.2589,W,1,11,1.6,20,M,,M,,*69
06/06/2014	20:03:33.324	$GPGGA,200342,2419.8652,N,08140.2586,W,1,11,1.6,21,M,,M,,*60
06/06/2014	20:03:34.365	$GPGGA,200343,2419.8647,N,08140.2583,W,1,11,1.6,21,M,,M,,*60
06/06/2014	20:03:35.375	$GPGGA,200344,2419.8644,N,08140.2579,W,1,11,1.6,21,M,,M,,*61
06/06/2014	20:03:36.375	$GPGGA,200345,2419.8642,N,08140.2576,W,1,11,1.6,21,M,,M,,*69
06/06/2014	20:03:37.406	$GPGGA,200346,2419.8636,N,08140.2573,W,1,11,1.6,21,M,,M,,*6C
06/06/2014	20:03:38.406	$GPGGA,200347,2419.8633,N,08140.2570,W,1,11,1.5,21,M,,M,,*68
06/06/2014	20:03:39.447	$GPGGA,200348,2419.8631,N,08140.2567,W,1,11,1.5,21,M,,M,,*63
06/06/2014	20:03:40.447	$GPGGA,200349,2419.8626,N,08140.2563,W,1,11,1.5,22,M,,M,,*63
06/06/2014	20:03:41.458	$GPGGA,200350,2419.8622,N,08140.2560,W,1,11,1.5,22,M,,M,,*6C
06/06/2014	20:03:42.489	$GPGGA,200351,2419.8620,N,08140.2557,W,1,11,1.5,22,M,,M,,*6B
06/06/2014	20:03:43.519	$GPGGA,200352,2419.8615,N,08140.2553,W,1,11,1.5,22,M,,M,,*6A
06/06/2014	20:03:44.550	$GPGGA,200353,2419.8613,N,08140.2550,W,1,11,1.5,22,M,,M,,*6E
06/06/2014	20:03:45.550	$GPGGA,200354,2419.8609,N,08140.2546,W,1,11,1.5,22,M,,M,,*65
06/06/2014	20:03:46.602	$GPGGA,200355,2419.8604,N,08140.2542,W,1,11,1.5,22,M,,M,,*6D
06/06/2014	20:03:47.602	$GPGGA,200356,2419.8602,N,08140.2538,W,1,11,1.5,22,M,,M,,*65
06/06/2014	20:03:48.623	$GPGGA,200357,2419.8598,N,08140.2535,W,1,11,1.5,23,M,,M,,*68
06/06/2014	20:03:49.622	$GPGGA,200358,2419.8595,N,08140.2532,W,1,11,1.5,23,M,,M,,*6D
06/06/2014	20:03:50.744	$GPGGA,200359,2419.8591,N,08140.2528,W,1,11,1.5,23,M,,M,,*63
06/06/2014	20:03:51.683	$GPGGA,200400,2419.8588,N,08140.2523,W,1,11,1.5,23,M,,M,,*6B
06/06/2014	20:03:52.673	$GPGGA,200401,2419.8586,N,08140.2520,W,1,11,1.5,23,M,,M,,*67
06/06/2014	20:03:53.694	$GPGGA,200402,2419.8582,N,08140.2516,W,1,11,1.5,23,M,,M,,*65
06/06/2014	20:03:54.735	$GPGGA,200403,2419.8579,N,08140.2512,W,1,11,1.5,23,M,,M,,*64
06/06/2014	20:03:55.755	$GPGGA,200404,2419.8577,N,08140.2508,W,1,11,1.5,23,M,,M,,*66
06/06/2014	20:03:56.745	$GPGGA,200405,2419.8573,N,08140.2504,W,1,11,1.5,23,M,,M,,*6F
06/06/2014	20:03:57.858	$GPGGA,200406,2419.8570,N,08140.2499,W,1,11,1.5,23,M,,M,,*6A
06/06/2014	20:03:58.797	$GPGGA,200407,2419.8566,N,08140.2495,W,1,11,1.5,23,M,,M,,*60
06/06/2014	20:03:59.807	$GPGGA,200408,2419.8563,N,08140.2491,W,1,11,1.5,23,M,,M,,*6E
06/06/2014	20:04:00.838	$GPGGA,200409,2419.8560,N,08140.2487,W,1,11,1.5,23,M,,M,,*6B
06/06/2014	20:04:01.940	$GPGGA,200410,2419.8557,N,08140.2483,W,1,11,1.5,23,M,,M,,*63
06/06/2014	20:04:02.849	$GPGGA,200411,2419.8555,N,08140.2479,W,1,11,1.5,23,M,,M,,*65
06/06/2014	20:04:03.882	$GPGGA,200412,2419.8552,N,08140.2476,W,1,11,1.5,23,M,,M,,*6E
06/06/2014	20:04:04.890	$GPGGA,200413,2419.8548,N,08140.2471,W,1,11,1.5,23,M,,M,,*63
06/06/2014	20:04:06.012	$GPGGA,200414,2419.8545,N,08140.2468,W,1,11,1.5,23,M,,M,,*61
06/06/2014	20:04:07.062	$GPGGA,200415,2419.8541,N,08140.2465,W,1,11,1.5,23,M,,M,,*69
06/06/2014	20:04:08.068	$GPGGA,200416,2419.8537,N,08140.2462,W,1,11,1.5,23,M,,M,,*6C
06/06/2014	20:04:09.073	$GPGGA,200417,2419.8531,N,08140.2460,W,1,11,1.5,23,M,,M,,*69
06/06/2014	20:04:10.084	$GPGGA,200418,2419.8524,N,08140.2458,W,1,11,1.5,23,M,,M,,*69
06/06/2014	20:04:11.012	$GPGGA,200419,2419.8519,N,08140.2457,W,1,11,1.5,23,M,,M,,*69
06/06/2014	20:04:12.147	$GPGGA,200420,2419.8510,N,08140.2456,W,1,11,1.5,23,M,,M,,*6B
06/06/2014	20:04:13.135	$GPGGA,200421,2419.8501,N,08140.2455,W,1,11,1.5,23,M,,M,,*69
06/06/2014	20:04:14.156	$GPGGA,200422,2419.8492,N,08140.2457,W,1,11,1.5,23,M,,M,,*63
06/06/2014	20:04:15.197	$GPGGA,200423,2419.8483,N,08140.2458,W,1,11,1.5,23,M,,M,,*6D
06/06/2014	20:04:16.207	$GPGGA,200424,2419.8472,N,08140.2460,W,1,11,1.5,23,M,,M,,*6F
06/06/2014	20:04:17.207	$GPGGA,200425,2419.8459,N,08140.2464,W,1,11,1.5,23,M,,M,,*63
06/06/2014	20:04:18.238	$GPGGA,200426,2419.8447,N,08140.2467,W,1,11,1.5,23,M,,M,,*6C
06/06/2014	20:04:19.250	$GPGGA,200427,2419.8433,N,08140.2469,W,1,11,1.5,23,M,,M,,*60
06/06/2014	20:04:20.279	$GPGGA,200428,2419.8419,N,08140.2475,W,1,11,1.5,22,M,,M,,*6B
06/06/2014	20:04:21.280	$GPGGA,200429,2419.8404,N,08140.2480,W,1,11,1.5,22,M,,M,,*6C
06/06/2014	20:04:22.321	$GPGGA,200430,2419.8389,N,08140.2486,W,1,11,1.5,22,M,,M,,*60
06/06/2014	20:04:23.341	$GPGGA,200431,2419.8373,N,08140.2490,W,1,11,1.5,22,M,,M,,*63
06/06/2014	20:04:24.353	$GPGGA,200432,2419.8358,N,08140.2497,W,1,11,1.5,22,M,,M,,*6E
06/06/2014	20:04:25.381	$GPGGA,200433,2419.8342,N,08140.2504,W,1,11,1.5,22,M,,M,,*6F
06/06/2014	20:04:26.371	$GPGGA,200434,2419.8326,N,08140.2511,W,1,11,1.5,22,M,,M,,*6E
06/06/2014	20:04:27.423	$GPGGA,200435,2419.8309,N,08140.2518,W,1,10,1.7,22,M,,M,,*68
06/06/2014	20:04:28.433	$GPGGA,200436,2419.8292,N,08140.2526,W,1,10,1.5,22,M,,M,,*67
06/06/2014	20:04:28.230	$GPGGA,200437,2419.8275,N,08140.2534,W,1,11,1.5,22,M,,M,,*6D
06/06/2014	20:04:29.216	$GPGGA,200438,2419.8259,N,08140.2543,W,1,11,1.5,22,M,,M,,*6C
06/06/2014	20:04:30.271	$GPGGA,200439,2419.8241,N,08140.2551,W,1,11,1.5,22,M,,M,,*67
06/06/2014	20:04:31.271	$GPGGA,200440,2419.8224,N,08140.2558,W,1,11,1.5,22,M,,M,,*63
06/06/2014	20:04:32.312	$GPGGA,200441,2419.8206,N,08140.2566,W,1,11,1.5,22,M,,M,,*6F
06/06/2014	20:04:33.282	$GPGGA,200442,2419.8188,N,08140.2574,W,1,11,1.5,22,M,,M,,*6A
06/06/2014	20:04:34.333	$GPGGA,200443,2419.8170,N,08140.2583,W,1,11,1.5,22,M,,M,,*64
06/06/2014	20:04:35.343	$GPGGA,200444,2419.8151,N,08140.2590,W,1,11,2.0,22,M,,M,,*64
06/06/2014	20:04:37.772	$GPGGA,200446,2419.8114,N,08140.2603,W,1,9,1.5,21,M,,M,,*52
06/06/2014	20:04:38.385	$GPGGA,200447,2419.8096,N,08140.2608,W,1,10,1.6,21,M,,M,,*68
06/06/2014	20:04:39.426	$GPGGA,200448,2419.8078,N,08140.2615,W,1,10,1.6,21,M,,M,,*6B
06/06/2014	20:04:40.458	$GPGGA,200449,2419.8057,N,08140.2619,W,1,9,2.2,22,M,,M,,*57
06/06/2014	20:04:41.443	$GPGGA,200450,2419.8036,N,08140.2620,W,1,9,1.6,22,M,,M,,*55
06/06/2014	20:04:42.469	$GPGGA,200451,2419.8017,N,08140.2623,W,1,10,1.6,22,M,,M,,*6C
06/06/2014	20:04:43.507	$GPGGA,200452,2419.7999,N,08140.2626,W,1,10,1.5,22,M,,M,,*69
06/06/2014	20:04:44.620	$GPGGA,200453,2419.7978,N,08140.2625,W,1,10,1.6,22,M,,M,,*67
06/06/2014	20:04:45.508	$GPGGA,200454,2419.7959,N,08140.2624,W,1,10,1.5,22,M,,M,,*61
06/06/2014	20:04:46.651	$GPGGA,200455,2419.7939,N,08140.2624,W,1,11,1.5,22,M,,M,,*67
06/06/2014	20:04:47.569	$GPGGA,200456,2419.7919,N,08140.2622,W,1,11,1.6,22,M,,M,,*63
06/06/2014	20:04:48.589	$GPGGA,200457,2419.7898,N,08140.2618,W,1,11,1.5,22,M,,M,,*60
06/06/2014	20:04:49.682	$GPGGA,200458,2419.7879,N,08140.2615,W,1,11,1.5,22,M,,M,,*6D
06/06/2014	20:04:50.616	$GPGGA,200459,2419.7858,N,08140.2612,W,1,11,1.5,22,M,,M,,*68
06/06/2014	20:04:51.653	$GPGGA,200500,2419.7838,N,08140.2606,W,1,11,1.5,22,M,,M,,*66
06/06/2014	20:04:52.754	$GPGGA,200501,2419.7819,N,08140.2600,W,1,11,1.5,22,M,,M,,*62
06/06/2014	20:04:53.676	$GPGGA,200502,2419.7800,N,08140.2594,W,1,11,1.5,22,M,,M,,*67
06/06/2014	20:04:54.683	$GPGGA,200503,2419.7779,N,08140.2587,W,1,11,1.5,22,M,,M,,*65
06/06/2014	20:04:55.818	$GPGGA,200504,2419.7760,N,08140.2579,W,1,11,1.5,23,M,,M,,*6A
06/06/2014	20:04:56.829	$GPGGA,200505,2419.7740,N,08140.2570,W,1,11,1.5,23,M,,M,,*60
06/06/2014	20:04:57.836	$GPGGA,200506,2419.7721,N,08140.2561,W,1,11,1.5,23,M,,M,,*64
06/06/2014	20:04:58.889	$GPGGA,200507,2419.7701,N,08140.2551,W,1,11,1.5,23,M,,M,,*64
06/06/2014	20:04:59.887	$GPGGA,200508,2419.7683,N,08140.2539,W,1,11,1.5,23,M,,M,,*6E
06/06/2014	20:05:00.908	$GPGGA,200509,2419.7663,N,08140.2527,W,1,11,1.5,23,M,,M,,*6E
06/06/2014	20:05:01.816	$GPGGA,200510,2419.7645,N,08140.2516,W,1,11,1.5,23,M,,M,,*60
06/06/2014	20:05:02.928	$GPGGA,200511,2419.7626,N,08140.2503,W,1,11,1.5,23,M,,M,,*60
06/06/2014	20:05:03.959	$GPGGA,200512,2419.7609,N,08140.2488,W,1,11,1.5,23,M,,M,,*6C
06/06/2014	20:05:04.969	$GPGGA,200513,2419.7592,N,08140.2475,W,1,11,1.5,23,M,,M,,*6E
06/06/2014	20:05:05.990	$GPGGA,200514,2419.7574,N,08140.2461,W,1,11,1.5,23,M,,M,,*64
06/06/2014	20:05:07.021	$GPGGA,200515,2419.7558,N,08140.2445,W,1,11,1.5,23,M,,M,,*6D
06/06/2014	20:05:08.041	$GPGGA,200516,2419.7540,N,08140.2429,W,1,11,1.5,23,M,,M,,*6D
06/06/2014	20:05:09.042	$GPGGA,200517,2419.7522,N,08140.2413,W,1,10,2.0,23,M,,M,,*66
06/06/2014	20:05:10.062	$GPGGA,200518,2419.7506,N,08140.2396,W,1,10,1.5,23,M,,M,,*63
06/06/2014	20:05:11.073	$GPGGA,200519,2419.7490,N,08140.2378,W,1,11,1.5,23,M,,M,,*6D
06/06/2014	20:05:12.114	$GPGGA,200520,2419.7475,N,08140.2359,W,1,11,1.5,23,M,,M,,*6F
06/06/2014	20:05:13.144	$GPGGA,200521,2419.7459,N,08140.2340,W,1,11,1.5,23,M,,M,,*68
06/06/2014	20:05:14.134	$GPGGA,200522,2419.7446,N,08140.2320,W,1,11,1.5,22,M,,M,,*62
06/06/2014	20:05:15.176	$GPGGA,200523,2419.7431,N,08140.2299,W,1,11,1.5,22,M,,M,,*60
06/06/2014	20:05:16.196	$GPGGA,200524,2419.7417,N,08140.2278,W,1,11,1.5,22,M,,M,,*6C
06/06/2014	20:05:17.207	$GPGGA,200525,2419.7404,N,08140.2257,W,1,11,1.5,22,M,,M,,*62
06/06/2014	20:05:18.216	$GPGGA,200526,2419.7392,N,08140.2236,W,1,11,1.5,22,M,,M,,*6E
06/06/2014	20:05:19.216	$GPGGA,200527,2419.7381,N,08140.2214,W,1,11,1.5,22,M,,M,,*6D
06/06/2014	20:05:20.257	$GPGGA,200528,2419.7370,N,08140.2192,W,1,11,1.5,22,M,,M,,*61
06/06/2014	20:05:21.288	$GPGGA,200529,2419.7360,N,08140.2171,W,1,11,1.5,22,M,,M,,*6C
06/06/2014	20:05:22.288	$GPGGA,200530,2419.7350,N,08140.2150,W,1,11,1.5,22,M,,M,,*64
06/06/2014	20:05:23.319	$GPGGA,200531,2419.7341,N,08140.2129,W,1,10,2.0,22,M,,M,,*6C
06/06/2014	20:05:24.339	$GPGGA,200532,2419.7332,N,08140.2109,W,1,10,1.6,22,M,,M,,*6C
06/06/2014	20:05:25.371	$GPGGA,200533,2419.7324,N,08140.2088,W,1,11,1.5,22,M,,M,,*60
06/06/2014	20:05:26.346	$GPGGA,200534,2419.7317,N,08140.2067,W,1,11,1.5,22,M,,M,,*66
06/06/2014	20:05:27.364	$GPGGA,200535,2419.7309,N,08140.2047,W,1,10,2.0,22,M,,M,,*6D
06/06/2014	20:05:28.412	$GPGGA,200536,2419.7302,N,08140.2026,W,1,10,2.0,22,M,,M,,*62
06/06/2014	20:05:36.646	$GPGGA,200537,2419.7298,N,08140.2005,W,1,10,2.0,22,M,,M,,*60
06/06/2014	20:05:37.657	$GPGGA,200538,2419.7292,N,08140.1981,W,1,10,2.0,22,M,,M,,*63
06/06/2014	20:05:38.779	$GPGGA,200539,2419.7288,N,08140.1960,W,1,11,1.5,22,M,,M,,*61
06/06/2014	20:05:39.688	$GPGGA,200540,2419.7283,N,08140.1940,W,1,11,1.5,22,M,,M,,*66
06/06/2014	20:05:40.708	$GPGGA,200541,2419.7280,N,08140.1918,W,1,11,1.5,22,M,,M,,*69
06/06/2014	20:05:41.729	$GPGGA,200542,2419.7277,N,08140.1895,W,1,11,1.5,22,M,,M,,*66
06/06/2014	20:05:42.769	$GPGGA,200543,2419.7276,N,08140.1871,W,1,10,1.5,22,M,,M,,*6D
06/06/2014	20:05:43.759	$GPGGA,200544,2419.7274,N,08140.1848,W,1,10,1.5,22,M,,M,,*62
06/06/2014	20:05:44.886	$GPGGA,200545,2419.7272,N,08140.1826,W,1,10,1.6,22,M,,M,,*6E
06/06/2014	20:05:45.912	$GPGGA,200546,2419.7271,N,08140.1804,W,1,10,1.5,22,M,,M,,*6D
06/06/2014	20:05:46.933	$GPGGA,200547,2419.7270,N,08140.1782,W,1,11,1.5,22,M,,M,,*6D
06/06/2014	20:05:47.974	$GPGGA,200548,2419.7271,N,08140.1760,W,1,11,1.5,22,M,,M,,*6F
06/06/2014	20:05:48.842	$GPGGA,200549,2419.7272,N,08140.1738,W,1,11,1.5,22,M,,M,,*60
06/06/2014	20:05:49.872	$GPGGA,200550,2419.7272,N,08140.1717,W,1,11,1.5,22,M,,M,,*65
06/06/2014	20:05:50.974	$GPGGA,200551,2419.7273,N,08140.1695,W,1,11,1.5,22,M,,M,,*6E
06/06/2014	20:05:51.924	$GPGGA,200552,2419.7276,N,08140.1673,W,1,11,1.5,22,M,,M,,*60
06/06/2014	20:05:53.026	$GPGGA,200553,2419.7278,N,08140.1652,W,1,11,1.5,22,M,,M,,*6C
06/06/2014	20:05:53.934	$GPGGA,200554,2419.7282,N,08140.1630,W,1,11,1.5,22,M,,M,,*6A
06/06/2014	20:05:54.965	$GPGGA,200555,2419.7286,N,08140.1608,W,1,10,1.6,22,M,,M,,*66
06/06/2014	20:05:56.078	$GPGGA,200556,2419.7289,N,08140.1587,W,1,10,1.6,22,M,,M,,*6E
06/06/2014	20:05:57.006	$GPGGA,200557,2419.7294,N,08140.1566,W,1,11,1.5,22,M,,M,,*6E
06/06/2014	20:05:58.017	$GPGGA,200558,2419.7298,N,08140.1544,W,1,11,1.6,22,M,,M,,*6E
06/06/2014	20:05:59.129	$GPGGA,200559,2419.7303,N,08140.1522,W,1,11,1.5,22,M,,M,,*6F
06/06/2014	20:06:00.171	$GPGGA,200600,2419.7308,N,08140.1502,W,1,11,1.5,22,M,,M,,*69
06/06/2014	20:06:01.169	$GPGGA,200601,2419.7314,N,08140.1481,W,1,11,1.5,22,M,,M,,*6F
06/06/2014	20:06:02.191	$GPGGA,200602,2419.7319,N,08140.1461,W,1,11,1.5,21,M,,M,,*6C
06/06/2014	20:06:03.200	$GPGGA,200603,2419.7327,N,08140.1441,W,1,11,1.5,21,M,,M,,*62
06/06/2014	20:06:04.231	$GPGGA,200604,2419.7334,N,08140.1422,W,1,11,1.5,21,M,,M,,*62
06/06/2014	20:06:05.262	$GPGGA,200605,2419.7341,N,08140.1403,W,1,11,1.5,21,M,,M,,*62
06/06/2014	20:06:06.252	$GPGGA,200606,2419.7351,N,08140.1385,W,1,11,1.5,21,M,,M,,*69
06/06/2014	20:06:07.303	$GPGGA,200607,2419.7359,N,08140.1367,W,1,11,1.5,21,M,,M,,*6C
06/06/2014	20:06:08.313	$GPGGA,200608,2419.7369,N,08140.1349,W,1,11,1.5,21,M,,M,,*6C
06/06/2014	20:06:09.324	$GPGGA,200609,2419.7379,N,08140.1332,W,1,11,1.5,21,M,,M,,*60
06/06/2014	20:06:10.334	$GPGGA,200610,2419.7388,N,08140.1316,W,1,11,1.7,21,M,,M,,*62
06/06/2014	20:06:11.355	$GPGGA,200611,2419.7399,N,08140.1300,W,1,10,1.7,21,M,,M,,*65
06/06/2014	20:06:12.386	$GPGGA,200612,2419.7410,N,08140.1281,W,1,10,1.5,21,M,,M,,*6A
06/06/2014	20:06:13.386	$GPGGA,200613,2419.7421,N,08140.1265,W,1,11,1.5,21,M,,M,,*62
06/06/2014	20:06:14.417	$GPGGA,200614,2419.7432,N,08140.1249,W,1,11,1.5,21,M,,M,,*69
06/06/2014	20:06:15.427	$GPGGA,200615,2419.7445,N,08140.1233,W,1,10,1.6,21,M,,M,,*67
06/06/2014	20:06:16.448	$GPGGA,200616,2419.7456,N,08140.1219,W,1,10,1.5,21,M,,M,,*6D
06/06/2014	20:06:17.468	$GPGGA,200617,2419.7467,N,08140.1205,W,1,10,2.0,21,M,,M,,*65
06/06/2014	20:06:18.488	$GPGGA,200618,2419.7478,N,08140.1192,W,1,10,1.5,21,M,,M,,*6F
06/06/2014	20:06:19.498	$GPGGA,200619,2419.7492,N,08140.1180,W,1,11,1.5,21,M,,M,,*68
06/06/2014	20:06:20.529	$GPGGA,200620,2419.7504,N,08140.1167,W,1,11,1.5,21,M,,M,,*65
06/06/2014	20:06:21.529	$GPGGA,200621,2419.7517,N,08140.1156,W,1,11,1.5,21,M,,M,,*64
06/06/2014	20:06:22.570	$GPGGA,200622,2419.7529,N,08140.1145,W,1,11,1.6,21,M,,M,,*6B
06/06/2014	20:06:23.592	$GPGGA,200623,2419.7543,N,08140.1136,W,1,11,1.5,21,M,,M,,*61
06/06/2014	20:06:24.617	$GPGGA,200624,2419.7554,N,08140.1126,W,1,11,1.5,20,M,,M,,*60
06/06/2014	20:06:25.585	$GPGGA,200625,2419.7569,N,08140.1116,W,1,11,1.5,20,M,,M,,*6C
06/06/2014	20:06:26.715	$GPGGA,200626,2419.7582,N,08140.1108,W,1,11,1.5,20,M,,M,,*65
06/06/2014	20:06:27.623	$GPGGA,200627,2419.7594,N,08140.1100,W,1,11,1.5,20,M,,M,,*6B
06/06/2014	20:06:28.622	$GPGGA,200628,2419.7608,N,08140.1092,W,1,11,1.5,20,M,,M,,*68
06/06/2014	20:06:29.762	$GPGGA,200629,2419.7622,N,08140.1085,W,1,11,1.5,20,M,,M,,*67
06/06/2014	20:06:30.620	$GPGGA,200630,2419.7636,N,08140.1080,W,1,11,1.5,20,M,,M,,*6F
06/06/2014	20:06:31.650	$GPGGA,200631,2419.7648,N,08140.1074,W,1,11,1.5,20,M,,M,,*6C
06/06/2014	20:06:32.668	$GPGGA,200632,2419.7663,N,08140.1069,W,1,11,1.5,20,M,,M,,*6A
06/06/2014	20:06:33.768	$GPGGA,200633,2419.7677,N,08140.1065,W,1,11,1.5,20,M,,M,,*62
06/06/2014	20:06:34.748	$GPGGA,200634,2419.7690,N,08140.1060,W,1,11,1.5,20,M,,M,,*69
06/06/2014	20:06:35.806	$GPGGA,200635,2419.7704,N,08140.1056,W,1,11,1.5,20,M,,M,,*61
06/06/2014	20:06:36.693	$GPGGA,200636,2419.7717,N,08140.1054,W,1,11,1.5,20,M,,M,,*62
06/06/2014	20:06:36.689	$GPGGA,200637,2419.7730,N,08140.1052,W,1,11,1.5,20,M,,M,,*60
06/06/2014	20:06:37.587	$GPGGA,200638,2419.7742,N,08140.1049,W,1,11,1.5,20,M,,M,,*60
06/06/2014	20:06:38.700	$GPGGA,200639,2419.7756,N,08140.1048,W,1,11,1.5,20,M,,M,,*65
06/06/2014	20:06:39.615	$GPGGA,200640,2419.7767,N,08140.1047,W,1,11,1.5,20,M,,M,,*66
06/06/2014	20:06:40.705	$GPGGA,200641,2419.7781,N,08140.1046,W,1,11,1.5,20,M,,M,,*6E
06/06/2014	20:06:41.704	$GPGGA,200642,2419.7793,N,08140.1048,W,1,11,1.6,20,M,,M,,*63
06/06/2014	20:06:42.736	$GPGGA,200643,2419.7804,N,08140.1048,W,1,10,1.5,20,M,,M,,*61
06/06/2014	20:06:43.742	$GPGGA,200644,2419.7818,N,08140.1051,W,1,10,1.5,20,M,,M,,*63
06/06/2014	20:06:44.751	$GPGGA,200645,2419.7829,N,08140.1051,W,1,11,1.5,20,M,,M,,*61
06/06/2014	20:06:45.730	$GPGGA,200646,2419.7840,N,08140.1055,W,1,11,1.5,20,M,,M,,*69
06/06/2014	20:06:46.759	$GPGGA,200647,2419.7851,N,08140.1056,W,1,11,1.6,20,M,,M,,*68
06/06/2014	20:06:47.798	$GPGGA,200648,2419.7863,N,08140.1059,W,1,11,1.6,20,M,,M,,*69
06/06/2014	20:06:48.787	$GPGGA,200649,2419.7872,N,08140.1060,W,1,10,1.5,20,M,,M,,*60
06/06/2014	20:06:49.766	$GPGGA,200650,2419.7883,N,08140.1062,W,1,10,1.5,20,M,,M,,*64
06/06/2014	20:06:50.795	$GPGGA,200651,2419.7892,N,08140.1066,W,1,11,1.5,20,M,,M,,*60
06/06/2014	20:06:51.825	$GPGGA,200652,2419.7901,N,08140.1069,W,1,11,1.5,20,M,,M,,*67
06/06/2014	20:06:52.802	$GPGGA,200653,2419.7910,N,08140.1074,W,1,11,1.5,20,M,,M,,*6A
06/06/2014	20:06:53.781	$GPGGA,200654,2419.7919,N,08140.1078,W,1,11,1.5,20,M,,M,,*68
06/06/2014	20:06:54.820	$GPGGA,200655,2419.7926,N,08140.1084,W,1,11,1.5,20,M,,M,,*66
06/06/2014	20:06:55.819	$GPGGA,200656,2419.7934,N,08140.1091,W,1,11,1.5,20,M,,M,,*62
06/06/2014	20:06:56.838	$GPGGA,200657,2419.7941,N,08140.1098,W,1,11,1.5,20,M,,M,,*68
06/06/2014	20:06:57.817	$GPGGA,200658,2419.7948,N,08140.1105,W,1,11,1.5,20,M,,M,,*6B
06/06/2014	20:06:58.836	$GPGGA,200659,2419.7955,N,08140.1113,W,1,11,1.5,20,M,,M,,*61
06/06/2014	20:06:59.855	$GPGGA,200700,2419.7962,N,08140.1120,W,1,11,1.5,20,M,,M,,*68
06/06/2014	20:07:00.854	$GPGGA,200701,2419.7969,N,08140.1127,W,1,11,1.5,20,M,,M,,*65
06/06/2014	20:07:01.843	$GPGGA,200702,2419.7975,N,08140.1134,W,1,11,1.5,20,M,,M,,*69
06/06/2014	20:07:02.872	$GPGGA,200703,2419.7980,N,08140.1141,W,1,11,1.5,20,M,,M,,*60
06/06/2014	20:07:03.881	$GPGGA,200704,2419.7986,N,08140.1147,W,1,11,1.5,20,M,,M,,*67
06/06/2014	20:07:04.890	$GPGGA,200705,2419.7991,N,08140.1152,W,1,11,1.5,20,M,,M,,*64
06/06/2014	20:07:05.879	$GPGGA,200706,2419.7995,N,08140.1158,W,1,11,1.7,20,M,,M,,*6B
06/06/2014	20:07:06.877	$GPGGA,200707,2419.8001,N,08140.1163,W,1,10,1.5,20,M,,M,,*6A
06/06/2014	20:07:07.897	$GPGGA,200708,2419.8005,N,08140.1168,W,1,10,1.7,20,M,,M,,*68
06/06/2014	20:07:08.927	$GPGGA,200709,2419.8010,N,08140.1171,W,1,10,1.5,20,M,,M,,*67
06/06/2014	20:07:09.904	$GPGGA,200710,2419.8016,N,08140.1175,W,1,10,1.5,20,M,,M,,*6D
06/06/2014	20:07:10.912	$GPGGA,200711,2419.8020,N,08140.1178,W,1,11,1.5,20,M,,M,,*65
06/06/2014	20:07:11.952	$GPGGA,200712,2419.8024,N,08140.1181,W,1,11,1.5,20,M,,M,,*64
06/06/2014	20:07:12.910	$GPGGA,200713,2419.8030,N,08140.1183,W,1,11,1.5,20,M,,M,,*62
06/06/2014	20:07:13.950	$GPGGA,200714,2419.8034,N,08140.1186,W,1,11,1.5,20,M,,M,,*64
06/06/2014	20:07:14.969	$GPGGA,200715,2419.8037,N,08140.1190,W,1,11,1.7,20,M,,M,,*63
06/06/2014	20:07:15.978	$GPGGA,200716,2419.8041,N,08140.1194,W,1,11,1.7,20,M,,M,,*65
06/06/2014	20:07:17.073	$GPGGA,200717,2419.8045,N,08140.1196,W,1,10,1.5,20,M,,M,,*61
06/06/2014	20:07:17.965	$GPGGA,200718,2419.8049,N,08140.1199,W,1,10,1.5,20,M,,M,,*6D
06/06/2014	20:07:18.974	$GPGGA,200719,2419.8052,N,08140.1201,W,1,11,1.5,20,M,,M,,*65
06/06/2014	20:07:20.113	$GPGGA,200720,2419.8056,N,08140.1203,W,1,11,1.5,20,M,,M,,*69
06/06/2014	20:07:21.101	$GPGGA,200721,2419.8060,N,08140.1206,W,1,11,1.5,20,M,,M,,*68
06/06/2014	20:07:22.001	$GPGGA,200722,2419.8063,N,08140.1207,W,1,11,1.5,20,M,,M,,*69
06/06/2014	20:07:23.000	$GPGGA,200723,2419.8066,N,08140.1208,W,1,11,1.5,20,M,,M,,*62
06/06/2014	20:07:24.103	$GPGGA,200724,2419.8070,N,08140.1210,W,1,11,1.5,20,M,,M,,*6B
06/06/2014	20:07:25.101	$GPGGA,200725,2419.8071,N,08140.1210,W,1,11,1.5,20,M,,M,,*6B
06/06/2014	20:07:26.108	$GPGGA,200726,2419.8074,N,08140.1211,W,1,11,1.5,20,M,,M,,*6C
06/06/2014	20:07:27.039	$GPGGA,200727,2419.8078,N,08140.1212,W,1,11,1.5,20,M,,M,,*62
06/06/2014	20:07:28.145	$GPGGA,200728,2419.8081,N,08140.1214,W,1,11,1.5,20,M,,M,,*6D
06/06/2014	20:07:29.124	$GPGGA,200729,2419.8084,N,08140.1214,W,1,11,1.5,20,M,,M,,*69
06/06/2014	20:07:30.133	$GPGGA,200730,2419.8087,N,08140.1215,W,1,11,1.5,20,M,,M,,*63
06/06/2014	20:07:31.142	$GPGGA,200731,2419.8089,N,08140.1215,W,1,11,1.5,20,M,,M,,*6C
06/06/2014	20:07:32.161	$GPGGA,200732,2419.8092,N,08140.1217,W,1,11,1.5,20,M,,M,,*67
06/06/2014	20:07:33.184	$GPGGA,200733,2419.8095,N,08140.1216,W,1,11,1.5,19,M,,M,,*6A
06/06/2014	20:07:34.169	$GPGGA,200734,2419.8098,N,08140.1217,W,1,11,1.5,19,M,,M,,*61
06/06/2014	20:07:35.168	$GPGGA,200735,2419.8100,N,08140.1216,W,1,11,1.5,19,M,,M,,*61
06/06/2014	20:07:36.197	$GPGGA,200736,2419.8103,N,08140.1217,W,1,11,1.5,19,M,,M,,*60
06/06/2014	20:07:36.654	$GPGGA,200737,2419.8106,N,08140.1216,W,1,11,1.5,19,M,,M,,*65
06/06/2014	20:07:37.643	$GPGGA,200738,2419.8107,N,08140.1217,W,1,11,1.5,19,M,,M,,*6A
06/06/2014	20:07:38.642	$GPGGA,200739,2419.8111,N,08140.1216,W,1,11,1.5,19,M,,M,,*6D
06/06/2014	20:07:39.671	$GPGGA,200740,2419.8113,N,08140.1215,W,1,11,1.5,19,M,,M,,*62
06/06/2014	20:07:40.670	$GPGGA,200741,2419.8116,N,08140.1214,W,1,11,1.5,19,M,,M,,*67
06/06/2014	20:07:41.659	$GPGGA,200742,2419.8118,N,08140.1214,W,1,11,1.5,19,M,,M,,*6A
06/06/2014	20:07:42.699	$GPGGA,200743,2419.8120,N,08140.1213,W,1,11,1.5,19,M,,M,,*67
06/06/2014	20:07:43.697	$GPGGA,200744,2419.8121,N,08140.1212,W,1,11,1.5,19,M,,M,,*60
06/06/2014	20:07:44.696	$GPGGA,200745,2419.8124,N,08140.1211,W,1,11,1.5,19,M,,M,,*67
06/06/2014	20:07:45.704	$GPGGA,200746,2419.8125,N,08140.1211,W,1,11,1.5,19,M,,M,,*65
06/06/2014	20:07:46.734	$GPGGA,200747,2419.8129,N,08140.1210,W,1,11,1.5,19,M,,M,,*69
06/06/2014	20:07:47.712	$GPGGA,200748,2419.8131,N,08140.1208,W,1,11,1.5,19,M,,M,,*66
06/06/2014	20:07:48.711	$GPGGA,200749,2419.8132,N,08140.1207,W,1,11,1.5,19,M,,M,,*6B
06/06/2014	20:07:49.730	$GPGGA,200750,2419.8135,N,08140.1205,W,1,11,1.5,19,M,,M,,*66
06/06/2014	20:07:50.729	$GPGGA,200751,2419.8136,N,08140.1204,W,1,11,1.5,19,M,,M,,*65
06/06/2014	20:07:51.758	$GPGGA,200752,2419.8138,N,08140.1204,W,1,11,1.5,18,M,,M,,*69
06/06/2014	20:07:52.747	$GPGGA,200753,2419.8139,N,08140.1202,W,1,10,1.7,18,M,,M,,*6C
06/06/2014	20:07:53.756	$GPGGA,200754,2419.8143,N,08140.1199,W,1,10,1.5,18,M,,M,,*65
06/06/2014	20:07:54.754	$GPGGA,200755,2419.8143,N,08140.1197,W,1,11,1.5,18,M,,M,,*6B
06/06/2014	20:07:55.804	$GPGGA,200756,2419.8146,N,08140.1196,W,1,11,1.5,18,M,,M,,*6C
06/06/2014	20:07:56.772	$GPGGA,200757,2419.8147,N,08140.1194,W,1,11,1.5,18,M,,M,,*6E
06/06/2014	20:07:57.781	$GPGGA,200758,2419.8149,N,08140.1192,W,1,11,1.5,18,M,,M,,*69
06/06/2014	20:07:58.790	$GPGGA,200759,2419.8150,N,08140.1190,W,1,11,1.5,18,M,,M,,*62
06/06/2014	20:07:59.799	$GPGGA,200800,2419.8153,N,08140.1188,W,1,11,1.5,18,M,,M,,*6B
06/06/2014	20:08:00.909	$GPGGA,200801,2419.8154,N,08140.1185,W,1,11,1.5,18,M,,M,,*60
06/06/2014	20:08:01.798	$GPGGA,200802,2419.8157,N,08140.1183,W,1,11,1.5,18,M,,M,,*66
06/06/2014	20:08:02.815	$GPGGA,200803,2419.8158,N,08140.1181,W,1,11,1.5,18,M,,M,,*6A
06/06/2014	20:08:03.834	$GPGGA,200804,2419.8158,N,08140.1179,W,1,11,1.5,18,M,,M,,*6A
06/06/2014	20:08:04.823	$GPGGA,200805,2419.8161,N,08140.1176,W,1,11,1.5,18,M,,M,,*6E
06/06/2014	20:08:05.933	$GPGGA,200806,2419.8163,N,08140.1173,W,1,11,1.5,18,M,,M,,*6A
06/06/2014	20:08:06.861	$GPGGA,200807,2419.8164,N,08140.1171,W,1,11,1.5,18,M,,M,,*6E
06/06/2014	20:08:07.951	$GPGGA,200808,2419.8165,N,08140.1169,W,1,11,1.5,18,M,,M,,*69
06/06/2014	20:08:08.869	$GPGGA,200809,2419.8167,N,08140.1166,W,1,11,1.5,18,M,,M,,*65
06/06/2014	20:08:09.878	$GPGGA,200810,2419.8168,N,08140.1163,W,1,11,1.5,18,M,,M,,*67
06/06/2014	20:08:10.878	$GPGGA,200811,2419.8171,N,08140.1161,W,1,11,1.5,18,M,,M,,*6C
06/06/2014	20:08:11.987	$GPGGA,200812,2419.8172,N,08140.1159,W,1,11,1.5,18,M,,M,,*67
06/06/2014	20:08:13.006	$GPGGA,200813,2419.8174,N,08140.1156,W,1,11,1.5,18,M,,M,,*6F
06/06/2014	20:08:13.904	$GPGGA,200814,2419.8176,N,08140.1153,W,1,11,1.5,18,M,,M,,*6F
06/06/2014	20:08:14.893	$GPGGA,200815,2419.8176,N,08140.1151,W,1,11,1.5,18,M,,M,,*6C
06/06/2014	20:08:16.053	$GPGGA,200816,2419.8179,N,08140.1148,W,1,11,1.5,18,M,,M,,*68
06/06/2014	20:08:17.025	$GPGGA,200817,2419.8179,N,08140.1145,W,1,11,1.5,18,M,,M,,*64
06/06/2014	20:08:18.021	$GPGGA,200818,2419.8182,N,08140.1142,W,1,11,1.5,17,M,,M,,*67
06/06/2014	20:08:19.064	$GPGGA,200819,2419.8183,N,08140.1139,W,1,11,1.5,17,M,,M,,*6B
06/06/2014	20:08:20.039	$GPGGA,200820,2419.8185,N,08140.1137,W,1,11,1.5,17,M,,M,,*69
06/06/2014	20:08:21.094	$GPGGA,200821,2419.8186,N,08140.1133,W,1,11,1.5,17,M,,M,,*6F
06/06/2014	20:08:22.036	$GPGGA,200822,2419.8187,N,08140.1130,W,1,11,1.5,17,M,,M,,*6E
06/06/2014	20:08:23.045	$GPGGA,200823,2419.8190,N,08140.1128,W,1,11,1.5,17,M,,M,,*60
06/06/2014	20:08:24.087	$GPGGA,200824,2419.8190,N,08140.1125,W,1,11,1.5,17,M,,M,,*6A
06/06/2014	20:08:25.097	$GPGGA,200825,2419.8193,N,08140.1121,W,1,11,1.5,17,M,,M,,*6C
06/06/2014	20:08:26.062	$GPGGA,200826,2419.8194,N,08140.1118,W,1,11,1.5,17,M,,M,,*62
06/06/2014	20:08:27.113	$GPGGA,200827,2419.8196,N,08140.1115,W,1,11,1.5,17,M,,M,,*6C
06/06/2014	20:08:28.100	$GPGGA,200828,2419.8197,N,08140.1111,W,1,11,1.5,17,M,,M,,*66
06/06/2014	20:08:29.089	$GPGGA,200829,2419.8199,N,08140.1108,W,1,11,1.5,17,M,,M,,*61
06/06/2014	20:08:30.108	$GPGGA,200830,2419.8200,N,08140.1104,W,1,11,1.5,17,M,,M,,*66
06/06/2014	20:08:31.097	$GPGGA,200831,2419.8201,N,08140.1101,W,1,11,1.5,17,M,,M,,*63
06/06/2014	20:08:32.116	$GPGGA,200832,2419.8201,N,08140.1097,W,1,11,1.5,17,M,,M,,*6E
06/06/2014	20:08:33.115	$GPGGA,200833,2419.8204,N,08140.1094,W,1,11,1.5,17,M,,M,,*69
06/06/2014	20:08:34.124	$GPGGA,200834,2419.8204,N,08140.1091,W,1,11,1.5,17,M,,M,,*6B
06/06/2014	20:08:35.163	$GPGGA,200835,2419.8205,N,08140.1087,W,1,11,1.5,17,M,,M,,*6C
06/06/2014	20:08:36.153	$GPGGA,200836,2419.8207,N,08140.1084,W,1,11,1.5,16,M,,M,,*6F
06/06/2014	20:08:36.591	$GPGGA,200837,2419.8208,N,08140.1080,W,1,11,1.5,16,M,,M,,*65
06/06/2014	20:08:37.609	$GPGGA,200838,2419.8208,N,08140.1076,W,1,11,1.5,16,M,,M,,*63
06/06/2014	20:08:38.648	$GPGGA,200839,2419.8210,N,08140.1073,W,1,11,1.5,16,M,,M,,*6E
06/06/2014	20:08:39.627	$GPGGA,200840,2419.8212,N,08140.1069,W,1,11,1.5,16,M,,M,,*69
06/06/2014	20:08:40.627	$GPGGA,200841,2419.8212,N,08140.1065,W,1,11,1.5,16,M,,M,,*64
06/06/2014	20:08:41.624	$GPGGA,200842,2419.8212,N,08140.1062,W,1,11,1.5,16,M,,M,,*60
06/06/2014	20:08:42.633	$GPGGA,200843,2419.8215,N,08140.1058,W,1,11,1.5,16,M,,M,,*6F
06/06/2014	20:08:43.663	$GPGGA,200844,2419.8215,N,08140.1055,W,1,11,1.5,16,M,,M,,*65
06/06/2014	20:08:44.682	$GPGGA,200845,2419.8217,N,08140.1051,W,1,11,1.5,16,M,,M,,*62
06/06/2014	20:08:45.660	$GPGGA,200846,2419.8218,N,08140.1046,W,1,11,1.5,16,M,,M,,*68
06/06/2014	20:08:46.690	$GPGGA,200847,2419.8219,N,08140.1043,W,1,11,1.5,16,M,,M,,*6D
06/06/2014	20:08:47.699	$GPGGA,200848,2419.8219,N,08140.1040,W,1,11,1.6,16,M,,M,,*62
06/06/2014	20:08:48.687	$GPGGA,200849,2419.8221,N,08140.1035,W,1,11,1.5,16,M,,M,,*69
06/06/2014	20:08:49.797	$GPGGA,200850,2419.8222,N,08140.1031,W,1,11,1.5,16,M,,M,,*66
06/06/2014	20:08:50.696	$GPGGA,200851,2419.8223,N,08140.1027,W,1,11,1.5,15,M,,M,,*62
06/06/2014	20:08:51.725	$GPGGA,200852,2419.8223,N,08140.1023,W,1,11,1.5,15,M,,M,,*65
06/06/2014	20:08:52.713	$GPGGA,200853,2419.8225,N,08140.1018,W,1,11,1.5,15,M,,M,,*6A
06/06/2014	20:08:53.727	$GPGGA,200854,2419.8226,N,08140.1014,W,1,11,1.5,15,M,,M,,*62
06/06/2014	20:08:54.727	$GPGGA,200855,2419.8226,N,08140.1010,W,1,11,1.5,15,M,,M,,*67
06/06/2014	20:08:55.749	$GPGGA,200856,2419.8226,N,08140.1006,W,1,11,1.5,15,M,,M,,*63
06/06/2014	20:08:56.748	$GPGGA,200857,2419.8228,N,08140.1002,W,1,11,1.5,15,M,,M,,*68
06/06/2014	20:08:57.838	$GPGGA,200858,2419.8230,N,08140.0997,W,1,11,1.5,15,M,,M,,*6A
06/06/2014	20:08:58.847	$GPGGA,200859,2419.8230,N,08140.0993,W,1,11,1.5,15,M,,M,,*6F
06/06/2014	20:08:59.775	$GPGGA,200900,2419.8230,N,08140.0989,W,1,11,1.5,15,M,,M,,*69
06/06/2014	20:09:00.855	$GPGGA,200901,2419.8232,N,08140.0984,W,1,11,1.5,15,M,,M,,*67
06/06/2014	20:09:01.782	$GPGGA,200902,2419.8231,N,08140.0980,W,1,11,1.5,15,M,,M,,*63
06/06/2014	20:09:02.873	$GPGGA,200903,2419.8233,N,08140.0976,W,1,11,1.5,15,M,,M,,*69
06/06/2014	20:09:03.902	$GPGGA,200904,2419.8233,N,08140.0971,W,1,11,1.5,15,M,,M,,*69
06/06/2014	20:09:04.915	$GPGGA,200905,2419.8234,N,08140.0967,W,1,11,1.5,15,M,,M,,*68
06/06/2014	20:09:05.900	$GPGGA,200906,2419.8234,N,08140.0962,W,1,11,1.5,15,M,,M,,*6E
06/06/2014	20:09:06.929	$GPGGA,200907,2419.8236,N,08140.0958,W,1,11,1.5,15,M,,M,,*64
06/06/2014	20:09:07.918	$GPGGA,200908,2419.8237,N,08140.0953,W,1,11,1.5,15,M,,M,,*61
06/06/2014	20:09:08.917	$GPGGA,200909,2419.8237,N,08140.0948,W,1,11,1.5,15,M,,M,,*6A
06/06/2014	20:09:09.927	$GPGGA,200910,2419.8239,N,08140.0944,W,1,11,1.5,15,M,,M,,*60
06/06/2014	20:09:10.945	$GPGGA,200911,2419.8240,N,08140.0939,W,1,11,1.5,15,M,,M,,*65
06/06/2014	20:09:11.954	$GPGGA,200912,2419.8241,N,08140.0934,W,1,11,1.5,15,M,,M,,*6A
06/06/2014	20:09:12.952	$GPGGA,200913,2419.8241,N,08140.0930,W,1,11,1.5,15,M,,M,,*6F
06/06/2014	20:09:13.951	$GPGGA,200914,2419.8241,N,08140.0925,W,1,11,1.5,15,M,,M,,*6C
06/06/2014	20:09:14.980	$GPGGA,200915,2419.8243,N,08140.0920,W,1,11,1.5,15,M,,M,,*6A
06/06/2014	20:09:15.979	$GPGGA,200916,2419.8244,N,08140.0915,W,1,11,1.5,15,M,,M,,*68
06/06/2014	20:09:16.988	$GPGGA,200917,2419.8244,N,08140.0911,W,1,11,1.5,15,M,,M,,*6D
06/06/2014	20:09:17.977	$GPGGA,200918,2419.8246,N,08140.0906,W,1,11,1.5,15,M,,M,,*66
06/06/2014	20:09:19.016	$GPGGA,200919,2419.8245,N,08140.0901,W,1,11,1.5,15,M,,M,,*63
06/06/2014	20:09:20.005	$GPGGA,200920,2419.8247,N,08140.0896,W,1,11,1.5,15,M,,M,,*64
06/06/2014	20:09:21.024	$GPGGA,200921,2419.8248,N,08140.0892,W,1,11,1.5,15,M,,M,,*6E
06/06/2014	20:09:22.023	$GPGGA,200922,2419.8248,N,08140.0887,W,1,11,1.5,15,M,,M,,*69
06/06/2014	20:09:23.042	$GPGGA,200923,2419.8248,N,08140.0881,W,1,10,1.6,15,M,,M,,*6C
06/06/2014	20:09:24.041	$GPGGA,200924,2419.8248,N,08140.0875,W,1,10,1.5,15,M,,M,,*63
06/06/2014	20:09:25.050	$GPGGA,200925,2419.8248,N,08140.0871,W,1,11,1.5,15,M,,M,,*67
06/06/2014	20:09:26.029	$GPGGA,200926,2419.8250,N,08140.0865,W,1,11,1.5,15,M,,M,,*68
06/06/2014	20:09:27.068	$GPGGA,200927,2419.8249,N,08140.0860,W,1,11,1.5,15,M,,M,,*64
06/06/2014	20:09:28.067	$GPGGA,200928,2419.8251,N,08140.0854,W,1,11,1.5,15,M,,M,,*65
06/06/2014	20:09:29.066	$GPGGA,200929,2419.8250,N,08140.0850,W,1,11,1.5,15,M,,M,,*61
06/06/2014	20:09:30.072	$GPGGA,200930,2419.8251,N,08140.0845,W,1,11,1.5,15,M,,M,,*6C
06/06/2014	20:09:31.093	$GPGGA,200931,2419.8252,N,08140.0840,W,1,10,1.6,15,M,,M,,*69
06/06/2014	20:09:32.093	$GPGGA,200932,2419.8252,N,08140.0836,W,1,10,1.6,15,M,,M,,*6B
06/06/2014	20:09:33.111	$GPGGA,200933,2419.8254,N,08140.0832,W,1,11,1.5,15,M,,M,,*6A
06/06/2014	20:09:34.087	$GPGGA,200934,2419.8255,N,08140.0827,W,1,11,1.5,15,M,,M,,*68
06/06/2014	20:09:35.104	$GPGGA,200935,2419.8255,N,08140.0823,W,1,11,1.5,15,M,,M,,*6D
06/06/2014	20:09:36.107	$GPGGA,200936,2419.8255,N,08140.0818,W,1,11,1.5,15,M,,M,,*66
06/06/2014	20:09:36.568	$GPGGA,200937,2419.8257,N,08140.0813,W,1,11,1.5,15,M,,M,,*6E
06/06/2014	20:09:37.557	$GPGGA,200938,2419.8256,N,08140.0809,W,1,11,1.5,15,M,,M,,*6B
06/06/2014	20:09:38.597	$GPGGA,200939,2419.8257,N,08140.0805,W,1,9,2.0,15,M,,M,,*58
06/06/2014	20:09:39.595	$GPGGA,200940,2419.8256,N,08140.0802,W,1,9,2.0,15,M,,M,,*50
06/06/2014	20:09:40.766	$GPGGA,200941,2419.8259,N,08140.0795,W,1,9,1.5,15,M,,M,,*59
06/06/2014	20:09:41.603	$GPGGA,200942,2419.8259,N,08140.0792,W,1,9,1.5,15,M,,M,,*5D
06/06/2014	20:09:42.602	$GPGGA,200943,2419.8259,N,08140.0789,W,1,11,1.5,15,M,,M,,*6F
06/06/2014	20:09:43.742	$GPGGA,200944,2419.8257,N,08140.0785,W,1,11,1.5,15,M,,M,,*6A
06/06/2014	20:09:44.814	$GPGGA,200945,2419.8258,N,08140.0782,W,1,11,1.5,15,M,,M,,*63
06/06/2014	20:09:45.631	$GPGGA,200946,2419.8257,N,08140.0778,W,1,11,1.5,15,M,,M,,*6A
06/06/2014	20:09:46.831	$GPGGA,200947,2419.8258,N,08140.0773,W,1,10,1.5,15,M,,M,,*6E
06/06/2014	20:09:47.656	$GPGGA,200948,2419.8259,N,08140.0768,W,1,10,1.5,15,M,,M,,*6A
06/06/2014	20:09:48.847	$GPGGA,200949,2419.8259,N,08140.0763,W,1,11,1.5,15,M,,M,,*61
06/06/2014	20:09:49.776	$GPGGA,200950,2419.8259,N,08140.0758,W,1,11,1.5,15,M,,M,,*61
06/06/2014	20:09:50.876	$GPGGA,200951,2419.8259,N,08140.0753,W,1,11,1.5,15,M,,M,,*6B
06/06/2014	20:09:51.682	$GPGGA,200952,2419.8259,N,08140.0749,W,1,11,1.5,15,M,,M,,*63
06/06/2014	20:09:52.873	$GPGGA,200953,2419.8259,N,08140.0743,W,1,11,1.5,16,M,,M,,*6B
06/06/2014	20:09:53.771	$GPGGA,200954,2419.8261,N,08140.0738,W,1,11,1.5,16,M,,M,,*6B
06/06/2014	20:09:54.891	$GPGGA,200955,2419.8260,N,08140.0732,W,1,11,1.5,16,M,,M,,*61
06/06/2014	20:09:55.849	$GPGGA,200956,2419.8261,N,08140.0728,W,1,11,1.5,16,M,,M,,*68
06/06/2014	20:09:56.909	$GPGGA,200957,2419.8260,N,08140.0722,W,1,11,1.5,16,M,,M,,*62
06/06/2014	20:09:57.839	$GPGGA,200958,2419.8262,N,08140.0716,W,1,11,1.5,16,M,,M,,*68
06/06/2014	20:09:58.907	$GPGGA,200959,2419.8261,N,08140.0711,W,1,11,1.5,16,M,,M,,*6D
06/06/2014	20:09:59.875	$GPGGA,201000,2419.8262,N,08140.0706,W,1,11,1.5,16,M,,M,,*6C
06/06/2014	20:10:00.935	$GPGGA,201001,2419.8262,N,08140.0701,W,1,11,1.5,16,M,,M,,*6A
06/06/2014	20:10:01.866	$GPGGA,201002,2419.8264,N,08140.0695,W,1,11,1.5,16,M,,M,,*63
06/06/2014	20:10:02.933	$GPGGA,201003,2419.8263,N,08140.0690,W,1,11,1.5,16,M,,M,,*60
06/06/2014	20:10:03.891	$GPGGA,201004,2419.8264,N,08140.0685,W,1,11,1.5,16,M,,M,,*64
06/06/2014	20:10:04.851	$GPGGA,201005,2419.8265,N,08140.0680,W,1,11,1.5,16,M,,M,,*61
06/06/2014	20:10:05.888	$GPGGA,201006,2419.8266,N,08140.0675,W,1,11,1.5,16,M,,M,,*6B
06/06/2014	20:10:06.927	$GPGGA,201007,2419.8266,N,08140.0670,W,1,11,1.5,17,M,,M,,*6E
06/06/2014	20:10:07.876	$GPGGA,201008,2419.8266,N,08140.0665,W,1,11,1.5,17,M,,M,,*65
06/06/2014	20:10:08.875	$GPGGA,201009,2419.8266,N,08140.0660,W,1,11,1.5,17,M,,M,,*61
06/06/2014	20:10:09.884	$GPGGA,201010,2419.8268,N,08140.0655,W,1,11,1.5,17,M,,M,,*61
06/06/2014	20:10:11.014	$GPGGA,201011,2419.8267,N,08140.0649,W,1,11,1.5,17,M,,M,,*62
06/06/2014	20:10:11.943	$GPGGA,201012,2419.8269,N,08140.0644,W,1,11,1.5,17,M,,M,,*62
06/06/2014	20:10:13.002	$GPGGA,201013,2419.8268,N,08140.0639,W,1,11,1.5,17,M,,M,,*68
06/06/2014	20:10:13.940	$GPGGA,201014,2419.8270,N,08140.0633,W,1,11,1.5,17,M,,M,,*6C
06/06/2014	20:10:14.989	$GPGGA,201015,2419.8270,N,08140.0628,W,1,10,1.6,17,M,,M,,*65
06/06/2014	20:10:15.938	$GPGGA,201016,2419.8270,N,08140.0622,W,1,10,1.6,17,M,,M,,*6C
06/06/2014	20:10:17.037	$GPGGA,201017,2419.8270,N,08140.0615,W,1,11,1.5,17,M,,M,,*6B
06/06/2014	20:10:17.945	$GPGGA,201018,2419.8270,N,08140.0609,W,1,11,1.5,17,M,,M,,*69
06/06/2014	20:10:19.055	$GPGGA,201019,2419.8270,N,08140.0602,W,1,11,1.5,17,M,,M,,*63
06/06/2014	20:10:19.994	$GPGGA,201020,2419.8270,N,08140.0597,W,1,11,1.5,17,M,,M,,*66
06/06/2014	20:10:21.070	$GPGGA,201021,2419.8270,N,08140.0591,W,1,11,1.5,17,M,,M,,*61
06/06/2014	20:10:21.992	$GPGGA,201022,2419.8270,N,08140.0584,W,1,11,1.5,17,M,,M,,*66
06/06/2014	20:10:23.088	$GPGGA,201023,2419.8270,N,08140.0580,W,1,11,1.5,17,M,,M,,*63
06/06/2014	20:10:24.120	$GPGGA,201024,2419.8270,N,08140.0575,W,1,11,1.5,17,M,,M,,*6E
06/06/2014	20:10:25.071	$GPGGA,201025,2419.8272,N,08140.0569,W,1,11,1.5,17,M,,M,,*60
06/06/2014	20:10:26.016	$GPGGA,201026,2419.8271,N,08140.0564,W,1,11,1.5,17,M,,M,,*6D
06/06/2014	20:10:27.095	$GPGGA,201027,2419.8272,N,08140.0559,W,1,11,1.5,17,M,,M,,*61
06/06/2014	20:10:28.145	$GPGGA,201028,2419.8273,N,08140.0554,W,1,11,1.5,17,M,,M,,*62
06/06/2014	20:10:29.140	$GPGGA,201029,2419.8273,N,08140.0548,W,1,11,1.5,17,M,,M,,*6E
06/06/2014	20:10:30.030	$GPGGA,201030,2419.8273,N,08140.0543,W,1,11,1.5,17,M,,M,,*6D
06/06/2014	20:10:31.128	$GPGGA,201031,2419.8273,N,08140.0538,W,1,11,1.5,17,M,,M,,*60
06/06/2014	20:10:32.045	$GPGGA,201032,2419.8273,N,08140.0532,W,1,11,1.5,17,M,,M,,*69
06/06/2014	20:10:33.142	$GPGGA,201033,2419.8273,N,08140.0527,W,1,11,1.5,17,M,,M,,*6C
06/06/2014	20:10:34.060	$GPGGA,201034,2419.8273,N,08140.0522,W,1,11,1.5,17,M,,M,,*6E
06/06/2014	20:10:35.148	$GPGGA,201035,2419.8273,N,08140.0517,W,1,11,1.5,17,M,,M,,*69
06/06/2014	20:10:36.180	$GPGGA,201036,2419.8273,N,08140.0511,W,1,11,1.5,17,M,,M,,*6C
06/06/2014	20:10:36.670	$GPGGA,201037,2419.8275,N,08140.0506,W,1,11,1.5,17,M,,M,,*6D
06/06/2014	20:10:37.657	$GPGGA,201038,2419.8274,N,08140.0501,W,1,11,1.5,17,M,,M,,*64
06/06/2014	20:10:38.652	$GPGGA,201039,2419.8275,N,08140.0495,W,1,10,1.5,17,M,,M,,*69
06/06/2014	20:10:39.661	$GPGGA,201040,2419.8274,N,08140.0488,W,1,10,1.5,17,M,,M,,*6A
06/06/2014	20:10:40.673	$GPGGA,201041,2419.8273,N,08140.0482,W,1,11,1.5,17,M,,M,,*67
06/06/2014	20:10:41.603	$GPGGA,201042,2419.8273,N,08140.0477,W,1,11,1.5,17,M,,M,,*6E
06/06/2014	20:10:42.689	$GPGGA,201043,2419.8273,N,08140.0470,W,1,11,1.5,17,M,,M,,*68
06/06/2014	20:10:43.699	$GPGGA,201044,2419.8273,N,08140.0465,W,1,11,1.5,17,M,,M,,*6B
06/06/2014	20:10:44.706	$GPGGA,201045,2419.8273,N,08140.0460,W,1,11,1.5,17,M,,M,,*6F
06/06/2014	20:10:45.690	$GPGGA,201046,2419.8273,N,08140.0455,W,1,11,1.5,17,M,,M,,*6A
06/06/2014	20:10:46.723	$GPGGA,201047,2419.8273,N,08140.0449,W,1,11,1.5,17,M,,M,,*66
06/06/2014	20:10:47.718	$GPGGA,201048,2419.8273,N,08140.0444,W,1,11,1.5,16,M,,M,,*65
06/06/2014	20:10:48.757	$GPGGA,201049,2419.8273,N,08140.0438,W,1,11,1.5,16,M,,M,,*6F
06/06/2014	20:10:49.716	$GPGGA,201050,2419.8273,N,08140.0432,W,1,11,1.5,16,M,,M,,*6D
06/06/2014	20:10:50.756	$GPGGA,201051,2419.8273,N,08140.0426,W,1,11,1.5,16,M,,M,,*69
06/06/2014	20:10:51.744	$GPGGA,201052,2419.8273,N,08140.0421,W,1,11,1.5,16,M,,M,,*6D
06/06/2014	20:10:52.778	$GPGGA,201053,2419.8275,N,08140.0416,W,1,11,1.5,16,M,,M,,*6E
06/06/2014	20:10:53.742	$GPGGA,201054,2419.8273,N,08140.0410,W,1,11,1.5,16,M,,M,,*69
06/06/2014	20:10:54.809	$GPGGA,201055,2419.8273,N,08140.0404,W,1,11,1.5,16,M,,M,,*6D
06/06/2014	20:10:55.780	$GPGGA,201056,2419.8275,N,08140.0399,W,1,11,1.5,16,M,,M,,*6B
06/06/2014	20:10:56.804	$GPGGA,201057,2419.8274,N,08140.0393,W,1,11,1.6,16,M,,M,,*62
06/06/2014	20:10:57.777	$GPGGA,201058,2419.8273,N,08140.0388,W,1,11,1.6,16,M,,M,,*60
06/06/2014	20:10:58.816	$GPGGA,201059,2419.8273,N,08140.0382,W,1,10,1.5,16,M,,M,,*69
06/06/2014	20:10:59.795	$GPGGA,201100,2419.8273,N,08140.0376,W,1,10,1.5,16,M,,M,,*6F
06/06/2014	20:11:00.858	$GPGGA,201101,2419.8273,N,08140.0370,W,1,10,1.5,16,M,,M,,*68
06/06/2014	20:11:01.813	$GPGGA,201102,2419.8273,N,08140.0365,W,1,10,1.5,16,M,,M,,*6F
06/06/2014	20:11:02.892	$GPGGA,201103,2419.8273,N,08140.0359,W,1,11,1.6,16,M,,M,,*63
06/06/2014	20:11:03.821	$GPGGA,201104,2419.8273,N,08140.0353,W,1,11,1.6,16,M,,M,,*6E
06/06/2014	20:11:04.870	$GPGGA,201105,2419.8273,N,08140.0353,W,1,10,1.6,16,M,,M,,*6E
06/06/2014	20:11:05.828	$GPGGA,201106,2419.8273,N,08140.0342,W,1,10,1.6,16,M,,M,,*6D
06/06/2014	20:11:06.928	$GPGGA,201107,2419.8273,N,08140.0338,W,1,10,1.5,16,M,,M,,*62
06/06/2014	20:11:07.867	$GPGGA,201108,2419.8275,N,08140.0331,W,1,10,1.5,16,M,,M,,*62
06/06/2014	20:11:08.927	$GPGGA,201109,2419.8274,N,08140.0325,W,1,11,1.5,16,M,,M,,*66
06/06/2014	20:11:09.864	$GPGGA,201110,2419.8275,N,08140.0321,W,1,11,1.5,16,M,,M,,*6B
06/06/2014	20:11:10.995	$GPGGA,201111,2419.8274,N,08140.0316,W,1,10,1.6,16,M,,M,,*6D
06/06/2014	20:11:12.004	$GPGGA,201112,2419.8275,N,08140.0309,W,1,10,1.5,16,M,,M,,*62
06/06/2014	20:11:12.902	$GPGGA,201113,2419.8275,N,08140.0309,W,1,11,1.5,16,M,,M,,*62
06/06/2014	20:11:13.890	$GPGGA,201114,2419.8276,N,08140.0300,W,1,11,1.5,16,M,,M,,*6F
06/06/2014	20:11:14.919	$GPGGA,201115,2419.8276,N,08140.0300,W,1,11,1.5,16,M,,M,,*6E
06/06/2014	20:11:15.917	$GPGGA,201116,2419.8275,N,08140.0294,W,1,11,1.5,16,M,,M,,*62
06/06/2014	20:11:17.028	$GPGGA,201117,2419.8277,N,08140.0284,W,1,10,1.6,16,M,,M,,*62
06/06/2014	20:11:17.905	$GPGGA,201118,2419.8277,N,08140.0278,W,1,10,1.5,16,M,,M,,*6D
06/06/2014	20:11:18.965	$GPGGA,201119,2419.8277,N,08140.0278,W,1,11,1.5,16,M,,M,,*6D
06/06/2014	20:11:19.943	$GPGGA,201120,2419.8276,N,08140.0267,W,1,11,1.6,16,M,,M,,*6B
06/06/2014	20:11:20.942	$GPGGA,201121,2419.8276,N,08140.0267,W,1,10,1.6,16,M,,M,,*6B
06/06/2014	20:11:22.036	$GPGGA,201122,2419.8276,N,08140.0255,W,1,10,1.6,16,M,,M,,*69
06/06/2014	20:11:22.970	$GPGGA,201123,2419.8276,N,08140.0255,W,1,11,1.5,16,M,,M,,*6A
06/06/2014	20:11:24.070	$GPGGA,201124,2419.8274,N,08140.0243,W,1,11,1.6,16,M,,M,,*6B
06/06/2014	20:11:25.078	$GPGGA,201125,2419.8275,N,08140.0238,W,1,11,1.5,16,M,,M,,*64
06/06/2014	20:11:26.050	$GPGGA,201126,2419.8274,N,08140.0232,W,1,11,1.5,16,M,,M,,*6C
06/06/2014	20:11:27.108	$GPGGA,201127,2419.8273,N,08140.0227,W,1,11,1.5,16,M,,M,,*6E
06/06/2014	20:11:28.088	$GPGGA,201128,2419.8273,N,08140.0221,W,1,11,1.5,16,M,,M,,*67
06/06/2014	20:11:29.078	$GPGGA,201129,2419.8273,N,08140.0215,W,1,11,1.5,16,M,,M,,*61
06/06/2014	20:11:30.067	$GPGGA,201130,2419.8273,N,08140.0208,W,1,11,1.5,16,M,,M,,*65
06/06/2014	20:11:31.090	$GPGGA,201131,2419.8273,N,08140.0203,W,1,11,1.5,16,M,,M,,*6F
06/06/2014	20:11:32.077	$GPGGA,201132,2419.8273,N,08140.0199,W,1,11,1.5,16,M,,M,,*6C
06/06/2014	20:11:33.099	$GPGGA,201133,2419.8271,N,08140.0193,W,1,11,1.5,16,M,,M,,*65
06/06/2014	20:11:34.086	$GPGGA,201134,2419.8272,N,08140.0188,W,1,11,1.5,16,M,,M,,*6B
06/06/2014	20:11:35.091	$GPGGA,201135,2419.8271,N,08140.0182,W,1,11,1.5,16,M,,M,,*63
06/06/2014	20:11:36.097	$GPGGA,201136,2419.8272,N,08140.0177,W,1,11,1.6,16,M,,M,,*6A
06/06/2014	20:11:36.609	$GPGGA,201137,2419.8271,N,08140.0173,W,1,11,1.5,16,M,,M,,*6F
06/06/2014	20:11:37.604	$GPGGA,201138,2419.8272,N,08140.0168,W,1,11,1.5,16,M,,M,,*69
06/06/2014	20:11:38.629	$GPGGA,201139,2419.8271,N,08140.0162,W,1,11,1.5,16,M,,M,,*61
06/06/2014	20:11:39.614	$GPGGA,201140,2419.8272,N,08140.0157,W,1,11,1.5,16,M,,M,,*6A
06/06/2014	20:11:40.649	$GPGGA,201141,2419.8271,N,08140.0152,W,1,11,1.5,16,M,,M,,*6D
06/06/2014	20:11:41.604	$GPGGA,201142,2419.8272,N,08140.0145,W,1,11,1.5,16,M,,M,,*6B
06/06/2014	20:11:42.639	$GPGGA,201143,2419.8271,N,08140.0140,W,1,11,1.5,16,M,,M,,*6C
06/06/2014	20:11:43.634	$GPGGA,201144,2419.8272,N,08140.0135,W,1,11,1.5,16,M,,M,,*6A
06/06/2014	20:11:44.639	$GPGGA,201145,2419.8271,N,08140.0131,W,1,10,1.6,16,M,,M,,*6E
06/06/2014	20:11:45.613	$GPGGA,201146,2419.8270,N,08140.0126,W,1,10,1.6,16,M,,M,,*6A
06/06/2014	20:11:46.648	$GPGGA,201147,2419.8270,N,08140.0120,W,1,10,1.6,16,M,,M,,*6D
06/06/2014	20:11:47.633	$GPGGA,201148,2419.8270,N,08140.0117,W,1,10,1.6,16,M,,M,,*66
06/06/2014	20:11:48.648	$GPGGA,201149,2419.8272,N,08140.0110,W,1,10,1.6,16,M,,M,,*62
