Software Version Number: 1	Data File Format Number: 1	Build Version Number: 1	Error Count Since VI Started: 0	Manufacturer: Raytheon	 Model Number: RayMarine 120	 S/N: 	 Cal Date: 	 Wind Direction Offset: 0.00	 Slope (M)1: 0.00	 Offset (B)1: 0.00	 Slope (M)2: 0.00	 Offset (B)2: 0.00	 Slope (M)3: 0.00	 Offset (B)3: 0.00	 Slope (M)4: 0.00	 Offset (B)4: 0.00	 Slope (M)5: 0.00	 Offset (B)5: 0.00	 Slope (M)6: 0.00	 Offset (B)6: 0.00
Computer Date	Computer Time	GGA String
05/28/2014	12:00:00.922	$GPGGA,120001,2538.4218,N,08007.4749,W,1,8,2.0,7,M,,M,,*6D
05/28/2014	12:00:01.915	$GPGGA,120002,2538.4205,N,08007.4727,W,1,8,2.0,7,M,,M,,*6A
05/28/2014	12:00:02.949	$GPGGA,120003,2538.4193,N,08007.4705,W,1,7,2.1,7,M,,M,,*69
05/28/2014	12:00:03.953	$GPGGA,120004,2538.4179,N,08007.4683,W,1,7,2.0,7,M,,M,,*64
05/28/2014	12:00:04.847	$GPGGA,120005,2538.4165,N,08007.4662,W,1,7,2.1,7,M,,M,,*66
05/28/2014	12:00:05.939	$GPGGA,120006,2538.4153,N,08007.4642,W,1,7,2.1,7,M,,M,,*62
05/28/2014	12:00:06.962	$GPGGA,120007,2538.4138,N,08007.4620,W,1,8,2.0,7,M,,M,,*64
05/28/2014	12:00:07.874	$GPGGA,120008,2538.4125,N,08007.4599,W,1,8,2.1,7,M,,M,,*67
05/28/2014	12:00:09.009	$GPGGA,120009,2538.4113,N,08007.4578,W,1,7,2.1,7,M,,M,,*63
05/28/2014	12:00:09.891	$GPGGA,120010,2538.4099,N,08007.4557,W,1,7,2.1,7,M,,M,,*65
05/28/2014	12:00:10.995	$GPGGA,120011,2538.4084,N,08007.4542,W,1,7,2.1,7,M,,M,,*6C
05/28/2014	12:00:12.038	$GPGGA,120012,2538.4071,N,08007.4521,W,1,7,2.0,7,M,,M,,*61
05/28/2014	12:00:13.032	$GPGGA,120013,2538.4059,N,08007.4499,W,1,7,2.1,7,M,,M,,*69
05/28/2014	12:00:14.035	$GPGGA,120014,2538.4045,N,08007.4478,W,1,7,2.1,7,M,,M,,*6C
05/28/2014	12:00:15.078	$GPGGA,120015,2538.4031,N,08007.4457,W,1,7,2.1,7,M,,M,,*63
05/28/2014	12:00:16.072	$GPGGA,120016,2538.4018,N,08007.4437,W,1,7,2.1,7,M,,M,,*6D
05/28/2014	12:00:17.095	$GPGGA,120017,2538.4003,N,08007.4421,W,1,7,2.1,7,M,,M,,*61
05/28/2014	12:00:18.078	$GPGGA,120018,2538.3990,N,08007.4401,W,1,7,2.0,7,M,,M,,*69
05/28/2014	12:00:19.102	$GPGGA,120019,2538.3976,N,08007.4379,W,1,7,2.1,7,M,,M,,*69
05/28/2014	12:00:20.115	$GPGGA,120020,2538.3963,N,08007.4358,W,1,7,2.1,7,M,,M,,*64
05/28/2014	12:00:21.139	$GPGGA,120021,2538.3951,N,08007.4338,W,1,7,2.1,7,M,,M,,*62
05/28/2014	12:00:22.122	$GPGGA,120022,2538.3936,N,08007.4317,W,1,7,2.1,6,M,,M,,*6C
05/28/2014	12:00:23.155	$GPGGA,120023,2538.3922,N,08007.4296,W,1,7,2.1,6,M,,M,,*60
05/28/2014	12:00:24.159	$GPGGA,120024,2538.3909,N,08007.4276,W,1,7,2.1,6,M,,M,,*60
05/28/2014	12:00:25.182	$GPGGA,120025,2538.3895,N,08007.4257,W,1,7,2.1,6,M,,M,,*66
05/28/2014	12:00:26.185	$GPGGA,120026,2538.3882,N,08007.4236,W,1,7,2.1,6,M,,M,,*64
05/28/2014	12:00:27.178	$GPGGA,120027,2538.3867,N,08007.4217,W,1,7,2.1,6,M,,M,,*6D
05/28/2014	12:00:28.212	$GPGGA,120028,2538.3853,N,08007.4200,W,1,7,2.1,6,M,,M,,*63
05/28/2014	12:00:29.226	$GPGGA,120029,2538.3839,N,08007.4179,W,1,8,2.0,6,M,,M,,*6D
05/28/2014	12:00:30.218	$GPGGA,120030,2538.3825,N,08007.4161,W,1,8,2.1,6,M,,M,,*60
05/28/2014	12:00:31.251	$GPGGA,120031,2538.3811,N,08007.4141,W,1,8,2.0,6,M,,M,,*65
05/28/2014	12:00:32.244	$GPGGA,120032,2538.3795,N,08007.4124,W,1,8,2.1,6,M,,M,,*67
05/28/2014	12:00:33.278	$GPGGA,120033,2538.3782,N,08007.4104,W,1,8,2.0,6,M,,M,,*63
05/28/2014	12:00:34.271	$GPGGA,120034,2538.3767,N,08007.4085,W,1,8,2.1,6,M,,M,,*66
05/28/2014	12:00:35.305	$GPGGA,120035,2538.3752,N,08007.4067,W,1,8,2.0,6,M,,M,,*6C
05/28/2014	12:00:36.308	$GPGGA,120036,2538.3738,N,08007.4048,W,1,8,2.0,6,M,,M,,*6E
05/28/2014	12:00:37.332	$GPGGA,120037,2538.3723,N,08007.4029,W,1,8,2.0,6,M,,M,,*62
05/28/2014	12:00:38.315	$GPGGA,120038,2538.3708,N,08007.4011,W,1,8,2.0,6,M,,M,,*6F
05/28/2014	12:00:38.555	$GPGGA,120039,2538.3694,N,08007.3992,W,1,8,2.0,6,M,,M,,*6F
05/28/2014	12:00:39.548	$GPGGA,120040,2538.3680,N,08007.3973,W,1,8,2.0,6,M,,M,,*6B
05/28/2014	12:00:40.534	$GPGGA,120041,2538.3665,N,08007.3955,W,1,8,2.0,6,M,,M,,*65
05/28/2014	12:00:41.554	$GPGGA,120042,2538.3649,N,08007.3936,W,1,8,2.0,6,M,,M,,*6D
05/28/2014	12:00:42.569	$GPGGA,120043,2538.3635,N,08007.3917,W,1,8,2.0,6,M,,M,,*64
05/28/2014	12:00:43.584	$GPGGA,120044,2538.3620,N,08007.3899,W,1,8,2.0,6,M,,M,,*60
05/28/2014	12:00:44.567	$GPGGA,120045,2538.3605,N,08007.3880,W,1,8,2.0,6,M,,M,,*6E
05/28/2014	12:00:45.668	$GPGGA,120046,2538.3590,N,08007.3862,W,1,8,2.0,6,M,,M,,*6E
05/28/2014	12:00:46.673	$GPGGA,120047,2538.3576,N,08007.3844,W,1,8,2.0,6,M,,M,,*63
05/28/2014	12:00:47.710	$GPGGA,120048,2538.3561,N,08007.3825,W,1,8,2.0,6,M,,M,,*6D
05/28/2014	12:00:48.599	$GPGGA,120049,2538.3546,N,08007.3807,W,1,8,2.0,6,M,,M,,*69
05/28/2014	12:00:49.592	$GPGGA,120050,2538.3532,N,08007.3788,W,1,8,2.0,6,M,,M,,*6A
05/28/2014	12:00:50.611	$GPGGA,120051,2538.3517,N,08007.3769,W,1,8,2.0,6,M,,M,,*63
05/28/2014	12:00:51.615	$GPGGA,120052,2538.3503,N,08007.3750,W,1,8,2.0,6,M,,M,,*6F
05/28/2014	12:00:52.692	$GPGGA,120053,2538.3488,N,08007.3732,W,1,8,2.0,6,M,,M,,*68
05/28/2014	12:00:53.699	$GPGGA,120054,2538.3474,N,08007.3711,W,1,8,2.0,6,M,,M,,*6D
05/28/2014	12:00:54.715	$GPGGA,120055,2538.3460,N,08007.3691,W,1,7,2.1,6,M,,M,,*6E
05/28/2014	12:00:55.645	$GPGGA,120056,2538.3445,N,08007.3669,W,1,7,2.1,6,M,,M,,*6D
05/28/2014	12:00:56.629	$GPGGA,120057,2538.3431,N,08007.3649,W,1,7,2.1,6,M,,M,,*6D
05/28/2014	12:00:57.715	$GPGGA,120058,2538.3417,N,08007.3629,W,1,7,2.1,6,M,,M,,*60
05/28/2014	12:00:58.631	$GPGGA,120059,2538.3403,N,08007.3609,W,1,7,2.1,6,M,,M,,*66
05/28/2014	12:00:59.768	$GPGGA,120100,2538.3389,N,08007.3590,W,1,7,2.1,6,M,,M,,*6D
05/28/2014	12:01:00.744	$GPGGA,120101,2538.3376,N,08007.3569,W,1,8,2.0,6,M,,M,,*64
05/28/2014	12:01:01.751	$GPGGA,120102,2538.3362,N,08007.3550,W,1,8,2.1,6,M,,M,,*69
05/28/2014	12:01:02.747	$GPGGA,120103,2538.3347,N,08007.3530,W,1,7,2.1,6,M,,M,,*66
05/28/2014	12:01:03.774	$GPGGA,120104,2538.3334,N,08007.3510,W,1,7,2.1,6,M,,M,,*67
05/28/2014	12:01:04.779	$GPGGA,120105,2538.3319,N,08007.3490,W,1,7,2.1,6,M,,M,,*60
05/28/2014	12:01:05.766	$GPGGA,120106,2538.3306,N,08007.3470,W,1,7,2.1,6,M,,M,,*63
05/28/2014	12:01:06.772	$GPGGA,120107,2538.3293,N,08007.3452,W,1,7,2.1,6,M,,M,,*6F
05/28/2014	12:01:07.779	$GPGGA,120108,2538.3279,N,08007.3431,W,1,7,2.0,6,M,,M,,*60
05/28/2014	12:01:08.785	$GPGGA,120109,2538.3264,N,08007.3415,W,1,7,2.1,6,M,,M,,*6A
05/28/2014	12:01:09.782	$GPGGA,120110,2538.3250,N,08007.3396,W,1,7,2.0,6,M,,M,,*68
05/28/2014	12:01:10.778	$GPGGA,120111,2538.3236,N,08007.3377,W,1,8,2.0,6,M,,M,,*69
05/28/2014	12:01:11.795	$GPGGA,120112,2538.3222,N,08007.3358,W,1,8,2.0,6,M,,M,,*62
05/28/2014	12:01:12.811	$GPGGA,120113,2538.3208,N,08007.3340,W,1,8,2.0,6,M,,M,,*62
05/28/2014	12:01:13.787	$GPGGA,120114,2538.3195,N,08007.3319,W,1,8,2.0,6,M,,M,,*6E
05/28/2014	12:01:14.824	$GPGGA,120115,2538.3181,N,08007.3299,W,1,8,2.0,6,M,,M,,*63
05/28/2014	12:01:15.822	$GPGGA,120116,2538.3168,N,08007.3279,W,1,8,2.0,6,M,,M,,*69
05/28/2014	12:01:16.837	$GPGGA,120117,2538.3156,N,08007.3259,W,1,8,2.0,6,M,,M,,*67
05/28/2014	12:01:17.813	$GPGGA,120118,2538.3141,N,08007.3238,W,1,8,2.0,6,M,,M,,*69
05/28/2014	12:01:18.860	$GPGGA,120119,2538.3128,N,08007.3220,W,1,7,2.0,6,M,,M,,*61
05/28/2014	12:01:19.836	$GPGGA,120120,2538.3116,N,08007.3197,W,1,7,2.0,6,M,,M,,*69
05/28/2014	12:01:20.853	$GPGGA,120121,2538.3102,N,08007.3176,W,1,7,2.0,6,M,,M,,*62
05/28/2014	12:01:21.838	$GPGGA,120122,2538.3088,N,08007.3154,W,1,7,2.0,6,M,,M,,*62
05/28/2014	12:01:22.875	$GPGGA,120123,2538.3075,N,08007.3133,W,1,7,2.0,6,M,,M,,*60
05/28/2014	12:01:23.851	$GPGGA,120124,2538.3062,N,08007.3115,W,1,7,2.0,6,M,,M,,*65
05/28/2014	12:01:24.838	$GPGGA,120125,2538.3048,N,08007.3094,W,1,8,2.0,6,M,,M,,*6B
05/28/2014	12:01:25.864	$GPGGA,120126,2538.3035,N,08007.3073,W,1,8,2.0,6,M,,M,,*6B
05/28/2014	12:01:26.881	$GPGGA,120127,2538.3020,N,08007.3053,W,1,7,2.0,6,M,,M,,*63
05/28/2014	12:01:27.857	$GPGGA,120128,2538.3008,N,08007.3032,W,1,7,2.0,6,M,,M,,*61
05/28/2014	12:01:28.876	$GPGGA,120129,2538.2993,N,08007.3012,W,1,7,2.0,6,M,,M,,*68
05/28/2014	12:01:29.871	$GPGGA,120130,2538.2979,N,08007.2992,W,1,7,2.0,6,M,,M,,*64
05/28/2014	12:01:30.879	$GPGGA,120131,2538.2966,N,08007.2972,W,1,7,2.0,6,M,,M,,*65
05/28/2014	12:01:31.883	$GPGGA,120132,2538.2952,N,08007.2951,W,1,7,2.0,6,M,,M,,*60
05/28/2014	12:01:32.890	$GPGGA,120133,2538.2939,N,08007.2933,W,1,7,2.0,6,M,,M,,*68
05/28/2014	12:01:33.981	$GPGGA,120134,2538.2924,N,08007.2913,W,1,7,2.0,6,M,,M,,*61
05/28/2014	12:01:34.897	$GPGGA,120135,2538.2910,N,08007.2893,W,1,7,2.0,6,M,,M,,*6E
05/28/2014	12:01:36.020	$GPGGA,120136,2538.2896,N,08007.2874,W,1,7,2.0,6,M,,M,,*6B
05/28/2014	12:01:36.916	$GPGGA,120137,2538.2882,N,08007.2855,W,1,7,2.0,6,M,,M,,*6C
05/28/2014	12:01:37.913	$GPGGA,120138,2538.2868,N,08007.2836,W,1,7,2.0,6,M,,M,,*62
05/28/2014	12:01:38.480	$GPGGA,120139,2538.2853,N,08007.2816,W,1,7,2.0,6,M,,M,,*69
05/28/2014	12:01:39.616	$GPGGA,120140,2538.2839,N,08007.2796,W,1,7,2.0,6,M,,M,,*6C
05/28/2014	12:01:40.519	$GPGGA,120141,2538.2827,N,08007.2777,W,1,7,2.0,6,M,,M,,*6D
05/28/2014	12:01:41.619	$GPGGA,120142,2538.2811,N,08007.2757,W,1,7,2.0,6,M,,M,,*69
05/28/2014	12:01:42.515	$GPGGA,120143,2538.2798,N,08007.2737,W,1,7,2.0,6,M,,M,,*60
05/28/2014	12:01:43.526	$GPGGA,120144,2538.2784,N,08007.2717,W,1,7,2.0,6,M,,M,,*68
05/28/2014	12:01:44.509	$GPGGA,120145,2538.2769,N,08007.2698,W,1,8,2.0,6,M,,M,,*63
05/28/2014	12:01:45.615	$GPGGA,120146,2538.2755,N,08007.2679,W,1,8,2.0,6,M,,M,,*60
05/28/2014	12:01:46.632	$GPGGA,120147,2538.2740,N,08007.2660,W,1,8,2.0,6,M,,M,,*6D
05/28/2014	12:01:47.638	$GPGGA,120148,2538.2726,N,08007.2641,W,1,8,2.0,6,M,,M,,*61
05/28/2014	12:01:48.645	$GPGGA,120149,2538.2712,N,08007.2622,W,1,8,2.0,6,M,,M,,*62
05/28/2014	12:01:49.621	$GPGGA,120150,2538.2697,N,08007.2605,W,1,8,2.0,6,M,,M,,*63
05/28/2014	12:01:50.658	$GPGGA,120151,2538.2682,N,08007.2589,W,1,8,2.0,6,M,,M,,*61
05/28/2014	12:01:51.654	$GPGGA,120152,2538.2668,N,08007.2570,W,1,8,2.0,6,M,,M,,*60
05/28/2014	12:01:52.661	$GPGGA,120153,2538.2654,N,08007.2553,W,1,8,2.0,6,M,,M,,*6F
05/28/2014	12:01:53.648	$GPGGA,120154,2538.2639,N,08007.2534,W,1,8,2.0,6,M,,M,,*62
05/28/2014	12:01:54.664	$GPGGA,120155,2538.2625,N,08007.2516,W,1,8,2.0,6,M,,M,,*6E
05/28/2014	12:01:55.680	$GPGGA,120156,2538.2610,N,08007.2497,W,1,8,2.0,6,M,,M,,*63
05/28/2014	12:01:56.675	$GPGGA,120157,2538.2596,N,08007.2479,W,1,8,2.0,6,M,,M,,*6F
05/28/2014	12:01:57.673	$GPGGA,120158,2538.2581,N,08007.2460,W,1,8,2.0,6,M,,M,,*6E
05/28/2014	12:01:58.688	$GPGGA,120159,2538.2568,N,08007.2442,W,1,8,2.0,6,M,,M,,*68
05/28/2014	12:01:59.715	$GPGGA,120200,2538.2553,N,08007.2424,W,1,8,2.0,6,M,,M,,*6F
05/28/2014	12:02:00.701	$GPGGA,120201,2538.2538,N,08007.2405,W,1,8,2.0,6,M,,M,,*60
05/28/2014	12:02:01.678	$GPGGA,120202,2538.2524,N,08007.2387,W,1,8,2.0,6,M,,M,,*63
05/28/2014	12:02:02.684	$GPGGA,120203,2538.2510,N,08007.2368,W,1,8,2.0,6,M,,M,,*64
05/28/2014	12:02:03.701	$GPGGA,120204,2538.2495,N,08007.2348,W,1,8,2.0,6,M,,M,,*6D
05/28/2014	12:02:04.727	$GPGGA,120205,2538.2481,N,08007.2330,W,1,8,2.0,6,M,,M,,*66
05/28/2014	12:02:05.694	$GPGGA,120206,2538.2466,N,08007.2310,W,1,8,2.0,6,M,,M,,*6E
05/28/2014	12:02:06.710	$GPGGA,120207,2538.2452,N,08007.2292,W,1,8,2.0,6,M,,M,,*63
05/28/2014	12:02:07.727	$GPGGA,120208,2538.2438,N,08007.2273,W,1,8,2.0,6,M,,M,,*6F
05/28/2014	12:02:08.753	$GPGGA,120209,2538.2424,N,08007.2254,W,1,8,2.0,6,M,,M,,*66
05/28/2014	12:02:09.730	$GPGGA,120210,2538.2409,N,08007.2235,W,1,8,2.0,6,M,,M,,*66
05/28/2014	12:02:10.768	$GPGGA,120211,2538.2395,N,08007.2215,W,1,8,2.0,6,M,,M,,*67
05/28/2014	12:02:11.753	$GPGGA,120212,2538.2381,N,08007.2196,W,1,8,2.0,6,M,,M,,*69
05/28/2014	12:02:12.739	$GPGGA,120213,2538.2366,N,08007.2178,W,1,8,2.0,6,M,,M,,*61
05/28/2014	12:02:13.736	$GPGGA,120214,2538.2354,N,08007.2157,W,1,8,2.0,6,M,,M,,*6A
05/28/2014	12:02:14.771	$GPGGA,120215,2538.2338,N,08007.2136,W,1,7,2.0,6,M,,M,,*69
05/28/2014	12:02:15.768	$GPGGA,120216,2538.2325,N,08007.2116,W,1,7,2.0,6,M,,M,,*64
05/28/2014	12:02:16.754	$GPGGA,120217,2538.2311,N,08007.2095,W,1,7,2.0,6,M,,M,,*68
05/28/2014	12:02:17.871	$GPGGA,120218,2538.2296,N,08007.2075,W,1,7,2.0,6,M,,M,,*67
05/28/2014	12:02:18.757	$GPGGA,120219,2538.2283,N,08007.2053,W,1,8,2.0,6,M,,M,,*69
05/28/2014	12:02:19.794	$GPGGA,120220,2538.2269,N,08007.2032,W,1,8,2.0,6,M,,M,,*60
05/28/2014	12:02:20.766	$GPGGA,120221,2538.2256,N,08007.2011,W,1,7,2.0,6,M,,M,,*63
05/28/2014	12:02:21.787	$GPGGA,120222,2538.2242,N,08007.1989,W,1,7,2.0,6,M,,M,,*6E
05/28/2014	12:02:22.786	$GPGGA,120223,2538.2229,N,08007.1969,W,1,7,2.0,6,M,,M,,*6C
05/28/2014	12:02:23.910	$GPGGA,120224,2538.2215,N,08007.1948,W,1,7,2.0,6,M,,M,,*67
05/28/2014	12:02:24.806	$GPGGA,120225,2538.2202,N,08007.1928,W,1,7,2.0,6,M,,M,,*66
05/28/2014	12:02:25.782	$GPGGA,120226,2538.2188,N,08007.1908,W,1,7,2.0,6,M,,M,,*66
05/28/2014	12:02:26.930	$GPGGA,120227,2538.2173,N,08007.1887,W,1,7,2.0,6,M,,M,,*65
05/28/2014	12:02:27.820	$GPGGA,120228,2538.2160,N,08007.1867,W,1,7,2.0,6,M,,M,,*66
05/28/2014	12:02:28.904	$GPGGA,120229,2538.2146,N,08007.1852,W,1,7,2.0,6,M,,M,,*65
05/28/2014	12:02:29.909	$GPGGA,120230,2538.2132,N,08007.1831,W,1,7,2.0,6,M,,M,,*6B
05/28/2014	12:02:30.827	$GPGGA,120231,2538.2119,N,08007.1810,W,1,7,2.0,6,M,,M,,*60
05/28/2014	12:02:31.961	$GPGGA,120232,2538.2105,N,08007.1792,W,1,7,2.0,6,M,,M,,*6B
05/28/2014	12:02:32.918	$GPGGA,120233,2538.2091,N,08007.1771,W,1,8,2.0,6,M,,M,,*64
05/28/2014	12:02:33.934	$GPGGA,120234,2538.2079,N,08007.1754,W,1,8,2.0,6,M,,M,,*62
05/28/2014	12:02:34.971	$GPGGA,120235,2538.2065,N,08007.1733,W,1,8,2.0,6,M,,M,,*6F
05/28/2014	12:02:35.967	$GPGGA,120236,2538.2051,N,08007.1711,W,1,8,2.0,6,M,,M,,*6B
05/28/2014	12:02:36.954	$GPGGA,120237,2538.2038,N,08007.1690,W,1,7,2.0,6,M,,M,,*62
05/28/2014	12:02:37.940	$GPGGA,120238,2538.2025,N,08007.1668,W,1,7,2.0,6,M,,M,,*66
05/28/2014	12:02:38.579	$GPGGA,120239,2538.2011,N,08007.1647,W,1,7,2.0,6,M,,M,,*6D
05/28/2014	12:02:39.574	$GPGGA,120240,2538.1998,N,08007.1627,W,1,7,2.0,6,M,,M,,*6E
05/28/2014	12:02:40.591	$GPGGA,120241,2538.1985,N,08007.1606,W,1,7,2.0,6,M,,M,,*60
05/28/2014	12:02:41.577	$GPGGA,120242,2538.1972,N,08007.1586,W,1,7,2.0,6,M,,M,,*60
05/28/2014	12:02:42.604	$GPGGA,120243,2538.1958,N,08007.1565,W,1,7,2.0,6,M,,M,,*64
05/28/2014	12:02:43.580	$GPGGA,120244,2538.1945,N,08007.1547,W,1,7,2.0,6,M,,M,,*6F
05/28/2014	12:02:44.586	$GPGGA,120245,2538.1931,N,08007.1529,W,1,8,2.0,6,M,,M,,*6A
05/28/2014	12:02:45.583	$GPGGA,120246,2538.1917,N,08007.1509,W,1,8,2.0,6,M,,M,,*6F
05/28/2014	12:02:46.599	$GPGGA,120247,2538.1903,N,08007.1487,W,1,8,2.0,6,M,,M,,*6C
05/28/2014	12:02:47.615	$GPGGA,120248,2538.1890,N,08007.1467,W,1,8,2.0,6,M,,M,,*66
05/28/2014	12:02:48.620	$GPGGA,120249,2538.1877,N,08007.1447,W,1,7,2.0,6,M,,M,,*63
05/28/2014	12:02:49.615	$GPGGA,120250,2538.1862,N,08007.1429,W,1,7,2.0,6,M,,M,,*67
05/28/2014	12:02:50.640	$GPGGA,120251,2538.1848,N,08007.1410,W,1,8,2.0,6,M,,M,,*6B
05/28/2014	12:02:51.625	$GPGGA,120252,2538.1835,N,08007.1390,W,1,8,2.0,6,M,,M,,*6D
05/28/2014	12:02:52.641	$GPGGA,120253,2538.1821,N,08007.1371,W,1,8,2.0,6,M,,M,,*66
05/28/2014	12:02:53.616	$GPGGA,120254,2538.1807,N,08007.1353,W,1,8,2.0,6,M,,M,,*65
05/28/2014	12:02:54.611	$GPGGA,120255,2538.1794,N,08007.1335,W,1,8,2.0,6,M,,M,,*61
05/28/2014	12:02:55.637	$GPGGA,120256,2538.1779,N,08007.1316,W,1,8,2.0,6,M,,M,,*60
05/28/2014	12:02:56.663	$GPGGA,120257,2538.1765,N,08007.1298,W,1,8,2.0,6,M,,M,,*6B
05/28/2014	12:02:57.648	$GPGGA,120258,2538.1750,N,08007.1279,W,1,8,2.0,6,M,,M,,*6D
05/28/2014	12:02:58.663	$GPGGA,120259,2538.1736,N,08007.1260,W,1,8,2.0,6,M,,M,,*64
05/28/2014	12:02:59.679	$GPGGA,120300,2538.1722,N,08007.1240,W,1,8,2.0,6,M,,M,,*6E
05/28/2014	12:03:00.664	$GPGGA,120301,2538.1707,N,08007.1221,W,1,8,2.0,6,M,,M,,*6F
05/28/2014	12:03:01.649	$GPGGA,120302,2538.1693,N,08007.1203,W,1,8,2.0,6,M,,M,,*60
05/28/2014	12:03:02.761	$GPGGA,120303,2538.1678,N,08007.1184,W,1,8,2.0,6,M,,M,,*68
05/28/2014	12:03:03.735	$GPGGA,120304,2538.1664,N,08007.1165,W,1,8,2.0,6,M,,M,,*6D
05/28/2014	12:03:04.785	$GPGGA,120305,2538.1648,N,08007.1146,W,1,8,2.0,6,M,,M,,*63
05/28/2014	12:03:05.867	$GPGGA,120306,2538.1635,N,08007.1127,W,1,8,2.0,6,M,,M,,*6D
05/28/2014	12:03:06.926	$GPGGA,120307,2538.1619,N,08007.1109,W,1,8,2.0,6,M,,M,,*6E
05/28/2014	12:03:08.126	$GPGGA,120308,2538.1604,N,08007.1089,W,1,8,2.0,6,M,,M,,*64
05/28/2014	12:03:09.165	$GPGGA,120309,2538.1590,N,08007.1070,W,1,8,2.0,6,M,,M,,*6D
05/28/2014	12:03:10.246	$GPGGA,120310,2538.1575,N,08007.1051,W,1,8,2.0,6,M,,M,,*6D
05/28/2014	12:03:11.211	$GPGGA,120311,2538.1560,N,08007.1032,W,1,8,2.0,6,M,,M,,*6D
05/28/2014	12:03:12.282	$GPGGA,120312,2538.1546,N,08007.1013,W,1,8,2.0,6,M,,M,,*69
05/28/2014	12:03:13.449	$GPGGA,120313,2538.1531,N,08007.0994,W,1,8,2.0,6,M,,M,,*6F
05/28/2014	12:03:14.410	$GPGGA,120314,2538.1516,N,08007.0975,W,1,8,2.0,6,M,,M,,*62
05/28/2014	12:03:15.495	$GPGGA,120315,2538.1502,N,08007.0956,W,1,8,2.0,6,M,,M,,*67
05/28/2014	12:03:16.652	$GPGGA,120316,2538.1487,N,08007.0937,W,1,8,2.0,6,M,,M,,*6F
05/28/2014	12:03:17.637	$GPGGA,120317,2538.1473,N,08007.0918,W,1,8,2.0,6,M,,M,,*68
05/28/2014	12:03:18.772	$GPGGA,120318,2538.1458,N,08007.0899,W,1,8,2.0,6,M,,M,,*66
05/28/2014	12:03:19.843	$GPGGA,120319,2538.1444,N,08007.0880,W,1,8,2.0,6,M,,M,,*62
05/28/2014	12:03:20.861	$GPGGA,120320,2538.1430,N,08007.0861,W,1,8,2.0,6,M,,M,,*64
05/28/2014	12:03:22.007	$GPGGA,120321,2538.1415,N,08007.0842,W,1,8,2.0,6,M,,M,,*63
05/28/2014	12:03:23.057	$GPGGA,120322,2538.1401,N,08007.0823,W,1,8,2.0,7,M,,M,,*63
05/28/2014	12:03:24.128	$GPGGA,120323,2538.1387,N,08007.0802,W,1,8,2.0,7,M,,M,,*68
05/28/2014	12:03:25.209	$GPGGA,120324,2538.1373,N,08007.0783,W,1,8,2.0,7,M,,M,,*62
05/28/2014	12:03:26.301	$GPGGA,120325,2538.1358,N,08007.0763,W,1,8,2.0,7,M,,M,,*64
05/28/2014	12:03:27.329	$GPGGA,120326,2538.1346,N,08007.0743,W,1,8,2.0,7,M,,M,,*6A
05/28/2014	12:03:28.422	$GPGGA,120327,2538.1331,N,08007.0723,W,1,7,2.0,7,M,,M,,*62
05/28/2014	12:03:29.482	$GPGGA,120328,2538.1317,N,08007.0702,W,1,7,2.0,7,M,,M,,*6A
05/28/2014	12:03:30.553	$GPGGA,120329,2538.1303,N,08007.0682,W,1,7,2.0,7,M,,M,,*67
05/28/2014	12:03:31.615	$GPGGA,120330,2538.1290,N,08007.0662,W,1,7,2.0,7,M,,M,,*6A
05/28/2014	12:03:32.696	$GPGGA,120331,2538.1277,N,08007.0642,W,1,7,2.0,7,M,,M,,*60
05/28/2014	12:03:33.768	$GPGGA,120332,2538.1263,N,08007.0621,W,1,7,2.0,7,M,,M,,*63
05/28/2014	12:03:34.838	$GPGGA,120333,2538.1249,N,08007.0606,W,1,7,2.0,7,M,,M,,*6F
05/28/2014	12:03:35.887	$GPGGA,120334,2538.1235,N,08007.0585,W,1,7,2.0,7,M,,M,,*6B
05/28/2014	12:03:36.959	$GPGGA,120335,2538.1221,N,08007.0566,W,1,8,2.0,7,M,,M,,*6D
05/28/2014	12:03:38.040	$GPGGA,120336,2538.1208,N,08007.0545,W,1,8,2.0,7,M,,M,,*64
05/28/2014	12:03:39.122	$GPGGA,120337,2538.1195,N,08007.0525,W,1,8,2.0,7,M,,M,,*64
05/28/2014	12:03:40.150	$GPGGA,120338,2538.1181,N,08007.0506,W,1,8,2.0,7,M,,M,,*6F
05/28/2014	12:03:38.575	$GPGGA,120339,2538.1169,N,08007.0484,W,1,8,2.0,7,M,,M,,*63
05/28/2014	12:03:39.646	$GPGGA,120340,2538.1156,N,08007.0463,W,1,8,2.0,7,M,,M,,*68
05/28/2014	12:03:40.707	$GPGGA,120341,2538.1142,N,08007.0441,W,1,7,2.0,7,M,,M,,*63
05/28/2014	12:03:41.777	$GPGGA,120342,2538.1129,N,08007.0422,W,1,7,2.0,7,M,,M,,*68
05/28/2014	12:03:42.848	$GPGGA,120343,2538.1116,N,08007.0401,W,1,8,2.0,7,M,,M,,*6B
05/28/2014	12:03:43.897	$GPGGA,120344,2538.1102,N,08007.0382,W,1,8,2.0,7,M,,M,,*65
05/28/2014	12:03:44.958	$GPGGA,120345,2538.1089,N,08007.0361,W,1,8,2.0,7,M,,M,,*6B
05/28/2014	12:03:46.029	$GPGGA,120346,2538.1075,N,08007.0341,W,1,8,2.0,7,M,,M,,*69
05/28/2014	12:03:47.100	$GPGGA,120347,2538.1062,N,08007.0320,W,1,7,2.0,7,M,,M,,*66
05/28/2014	12:03:48.192	$GPGGA,120348,2538.1048,N,08007.0302,W,1,7,2.0,7,M,,M,,*61
05/28/2014	12:03:49.242	$GPGGA,120349,2538.1035,N,08007.0283,W,1,8,2.0,7,M,,M,,*6D
05/28/2014	12:03:50.292	$GPGGA,120350,2538.1021,N,08007.0262,W,1,8,2.0,7,M,,M,,*6F
05/28/2014	12:03:51.491	$GPGGA,120351,2538.1006,N,08007.0242,W,1,7,2.0,7,M,,M,,*66
05/28/2014	12:03:52.466	$GPGGA,120352,2538.0992,N,08007.0222,W,1,7,2.0,7,M,,M,,*66
05/28/2014	12:03:53.516	$GPGGA,120353,2538.0979,N,08007.0202,W,1,8,2.0,7,M,,M,,*6F
05/28/2014	12:03:54.576	$GPGGA,120354,2538.0964,N,08007.0182,W,1,8,2.0,7,M,,M,,*6F
05/28/2014	12:03:55.776	$GPGGA,120355,2538.0950,N,08007.0164,W,1,8,2.0,7,M,,M,,*61
05/28/2014	12:03:56.729	$GPGGA,120356,2538.0936,N,08007.0144,W,1,8,2.0,7,M,,M,,*60
05/28/2014	12:03:57.779	$GPGGA,120357,2538.0923,N,08007.0125,W,1,8,2.0,7,M,,M,,*62
05/28/2014	12:03:58.978	$GPGGA,120358,2538.0907,N,08007.0107,W,1,8,2.0,7,M,,M,,*6B
05/28/2014	12:03:59.942	$GPGGA,120359,2538.0893,N,08007.0088,W,1,8,2.0,7,M,,M,,*60
05/28/2014	12:04:01.002	$GPGGA,120400,2538.0880,N,08007.0069,W,1,8,2.0,7,M,,M,,*66
05/28/2014	12:04:02.051	$GPGGA,120401,2538.0864,N,08007.0051,W,1,8,2.0,7,M,,M,,*66
05/28/2014	12:04:03.230	$GPGGA,120402,2538.0849,N,08007.0032,W,1,8,2.0,7,M,,M,,*6F
05/28/2014	12:04:04.301	$GPGGA,120403,2538.0835,N,08007.0013,W,1,8,2.0,7,M,,M,,*66
05/28/2014	12:04:05.398	$GPGGA,120404,2538.0820,N,08006.9994,W,1,8,2.0,7,M,,M,,*6B
05/28/2014	12:04:06.347	$GPGGA,120405,2538.0805,N,08006.9975,W,1,8,2.0,7,M,,M,,*62
05/28/2014	12:04:07.514	$GPGGA,120406,2538.0790,N,08006.9957,W,1,8,2.0,7,M,,M,,*62
05/28/2014	12:04:08.478	$GPGGA,120407,2538.0775,N,08006.9938,W,1,8,2.0,7,M,,M,,*61
05/28/2014	12:04:09.669	$GPGGA,120408,2538.0760,N,08006.9919,W,1,8,2.0,7,M,,M,,*69
05/28/2014	12:04:10.717	$GPGGA,120409,2538.0746,N,08006.9901,W,1,8,2.0,7,M,,M,,*65
05/28/2014	12:04:11.788	$GPGGA,120410,2538.0730,N,08006.9882,W,1,8,2.0,7,M,,M,,*66
05/28/2014	12:04:12.880	$GPGGA,120411,2538.0715,N,08006.9864,W,1,8,2.0,7,M,,M,,*68
05/28/2014	12:04:13.941	$GPGGA,120412,2538.0699,N,08006.9845,W,1,8,2.0,7,M,,M,,*6D
05/28/2014	12:04:15.012	$GPGGA,120413,2538.0685,N,08006.9827,W,1,8,2.0,7,M,,M,,*65
05/28/2014	12:04:16.072	$GPGGA,120414,2538.0669,N,08006.9809,W,1,8,2.0,7,M,,M,,*6C
05/28/2014	12:04:17.154	$GPGGA,120415,2538.0653,N,08006.9791,W,1,8,2.0,7,M,,M,,*6A
05/28/2014	12:04:18.214	$GPGGA,120416,2538.0638,N,08006.9772,W,1,8,2.0,7,M,,M,,*69
05/28/2014	12:04:19.297	$GPGGA,120417,2538.0621,N,08006.9754,W,1,8,2.0,7,M,,M,,*64
05/28/2014	12:04:20.334	$GPGGA,120418,2538.0605,N,08006.9736,W,1,8,2.0,7,M,,M,,*69
05/28/2014	12:04:21.416	$GPGGA,120419,2538.0589,N,08006.9719,W,1,8,2.0,7,M,,M,,*62
05/28/2014	12:04:22.498	$GPGGA,120420,2538.0573,N,08006.9701,W,1,8,2.0,7,M,,M,,*64
05/28/2014	12:04:23.569	$GPGGA,120421,2538.0557,N,08006.9683,W,1,8,2.0,7,M,,M,,*68
05/28/2014	12:04:24.608	$GPGGA,120422,2538.0540,N,08006.9667,W,1,8,2.0,7,M,,M,,*67
05/28/2014	12:04:25.711	$GPGGA,120423,2538.0523,N,08006.9650,W,1,8,2.0,7,M,,M,,*67
05/28/2014	12:04:26.771	$GPGGA,120424,2538.0508,N,08006.9633,W,1,8,2.2,7,M,,M,,*6E
05/28/2014	12:04:27.810	$GPGGA,120425,2538.0491,N,08006.9616,W,1,7,2.2,7,M,,M,,*66
05/28/2014	12:04:28.914	$GPGGA,120426,2538.0476,N,08006.9598,W,1,7,2.0,7,M,,M,,*6B
05/28/2014	12:04:29.985	$GPGGA,120427,2538.0459,N,08006.9581,W,1,8,2.0,7,M,,M,,*60
05/28/2014	12:04:31.045	$GPGGA,120428,2538.0441,N,08006.9564,W,1,8,2.0,7,M,,M,,*6D
05/28/2014	12:04:32.095	$GPGGA,120429,2538.0424,N,08006.9548,W,1,7,2.2,7,M,,M,,*6C
05/28/2014	12:04:33.166	$GPGGA,120430,2538.0408,N,08006.9530,W,1,7,2.2,7,M,,M,,*65
05/28/2014	12:04:34.280	$GPGGA,120431,2538.0392,N,08006.9514,W,1,8,2.0,7,M,,M,,*6B
05/28/2014	12:04:35.319	$GPGGA,120432,2538.0374,N,08006.9498,W,1,8,2.0,7,M,,M,,*65
05/28/2014	12:04:36.368	$GPGGA,120433,2538.0356,N,08006.9481,W,1,7,2.2,7,M,,M,,*61
05/28/2014	12:04:37.449	$GPGGA,120434,2538.0338,N,08006.9464,W,1,7,2.2,7,M,,M,,*65
05/28/2014	12:04:38.499	$GPGGA,120435,2538.0322,N,08006.9448,W,1,7,2.2,7,M,,M,,*61
05/28/2014	12:04:39.709	$GPGGA,120436,2538.0306,N,08006.9430,W,1,7,2.0,7,M,,M,,*69
05/28/2014	12:04:40.791	$GPGGA,120437,2538.0289,N,08006.9413,W,1,8,2.0,7,M,,M,,*60
05/28/2014	12:04:41.712	$GPGGA,120438,2538.0271,N,08006.9397,W,1,8,2.0,7,M,,M,,*63
05/28/2014	12:04:38.508	$GPGGA,120439,2538.0256,N,08006.9379,W,1,7,2.2,7,M,,M,,*6A
05/28/2014	12:04:39.611	$GPGGA,120440,2538.0241,N,08006.9362,W,1,7,2.0,7,M,,M,,*6A
05/28/2014	12:04:40.660	$GPGGA,120441,2538.0226,N,08006.9345,W,1,8,2.0,8,M,,M,,*6F
05/28/2014	12:04:41.722	$GPGGA,120442,2538.0208,N,08006.9328,W,1,8,2.0,8,M,,M,,*6B
05/28/2014	12:04:42.813	$GPGGA,120443,2538.0192,N,08006.9311,W,1,8,2.0,8,M,,M,,*60
05/28/2014	12:04:43.874	$GPGGA,120444,2538.0176,N,08006.9295,W,1,8,2.0,8,M,,M,,*60
05/28/2014	12:04:44.944	$GPGGA,120445,2538.0159,N,08006.9277,W,1,8,2.0,8,M,,M,,*60
05/28/2014	12:04:45.996	$GPGGA,120446,2538.0143,N,08006.9260,W,1,8,2.0,8,M,,M,,*6E
05/28/2014	12:04:47.067	$GPGGA,120447,2538.0126,N,08006.9243,W,1,8,2.0,8,M,,M,,*6D
05/28/2014	12:04:48.276	$GPGGA,120448,2538.0109,N,08006.9226,W,1,8,2.0,8,M,,M,,*6C
05/28/2014	12:04:49.229	$GPGGA,120449,2538.0092,N,08006.9210,W,1,8,2.0,8,M,,M,,*6B
05/28/2014	12:04:50.268	$GPGGA,120450,2538.0074,N,08006.9193,W,1,8,2.2,8,M,,M,,*61
05/28/2014	12:04:51.351	$GPGGA,120451,2538.0058,N,08006.9175,W,1,7,2.2,8,M,,M,,*69
05/28/2014	12:04:52.527	$GPGGA,120452,2538.0042,N,08006.9159,W,1,7,2.0,8,M,,M,,*6D
05/28/2014	12:04:53.590	$GPGGA,120453,2538.0025,N,08006.9141,W,1,8,2.0,8,M,,M,,*6B
05/28/2014	12:04:54.669	$GPGGA,120454,2538.0009,N,08006.9123,W,1,8,2.0,8,M,,M,,*66
05/28/2014	12:04:55.719	$GPGGA,120455,2537.9993,N,08006.9106,W,1,8,2.0,8,M,,M,,*6C
05/28/2014	12:04:56.803	$GPGGA,120456,2537.9978,N,08006.9088,W,1,8,2.0,8,M,,M,,*6D
05/28/2014	12:04:57.861	$GPGGA,120457,2537.9962,N,08006.9070,W,1,8,2.0,8,M,,M,,*60
05/28/2014	12:04:58.932	$GPGGA,120458,2537.9946,N,08006.9052,W,1,8,2.0,8,M,,M,,*69
05/28/2014	12:04:59.993	$GPGGA,120459,2537.9930,N,08006.9035,W,1,8,2.0,8,M,,M,,*68
05/28/2014	12:05:01.096	$GPGGA,120500,2537.9915,N,08006.9017,W,1,8,2.0,8,M,,M,,*62
05/28/2014	12:05:02.157	$GPGGA,120501,2537.9899,N,08006.8998,W,1,8,2.0,8,M,,M,,*69
05/28/2014	12:05:03.217	$GPGGA,120502,2537.9883,N,08006.8981,W,1,8,2.0,8,M,,M,,*69
05/28/2014	12:05:04.299	$GPGGA,120503,2537.9867,N,08006.8963,W,1,8,2.0,8,M,,M,,*6E
05/28/2014	12:05:05.370	$GPGGA,120504,2537.9852,N,08006.8945,W,1,8,2.0,8,M,,M,,*6B
05/28/2014	12:05:06.430	$GPGGA,120505,2537.9837,N,08006.8928,W,1,8,2.0,8,M,,M,,*62
05/28/2014	12:05:07.490	$GPGGA,120506,2537.9821,N,08006.8909,W,1,8,2.0,8,M,,M,,*65
05/28/2014	12:05:08.572	$GPGGA,120507,2537.9807,N,08006.8891,W,1,8,2.0,8,M,,M,,*60
05/28/2014	12:05:09.643	$GPGGA,120508,2537.9791,N,08006.8873,W,1,8,2.0,8,M,,M,,*63
05/28/2014	12:05:10.713	$GPGGA,120509,2537.9776,N,08006.8854,W,1,8,2.0,8,M,,M,,*6E
05/28/2014	12:05:11.763	$GPGGA,120510,2537.9761,N,08006.8836,W,1,8,2.0,8,M,,M,,*64
05/28/2014	12:05:12.845	$GPGGA,120511,2537.9745,N,08006.8817,W,1,8,2.0,8,M,,M,,*60
05/28/2014	12:05:13.927	$GPGGA,120512,2537.9731,N,08006.8799,W,1,8,2.0,8,M,,M,,*69
05/28/2014	12:05:14.998	$GPGGA,120513,2537.9715,N,08006.8780,W,1,8,2.0,8,M,,M,,*66
05/28/2014	12:05:16.026	$GPGGA,120514,2537.9700,N,08006.8762,W,1,8,2.0,8,M,,M,,*69
05/28/2014	12:05:17.097	$GPGGA,120515,2537.9685,N,08006.8743,W,1,8,2.0,8,M,,M,,*67
05/28/2014	12:05:18.179	$GPGGA,120516,2537.9670,N,08006.8725,W,1,8,2.0,8,M,,M,,*6E
05/28/2014	12:05:19.261	$GPGGA,120517,2537.9655,N,08006.8706,W,1,8,2.0,8,M,,M,,*69
05/28/2014	12:05:20.310	$GPGGA,120518,2537.9639,N,08006.8687,W,1,8,2.0,8,M,,M,,*64
05/28/2014	12:05:21.403	$GPGGA,120519,2537.9624,N,08006.8669,W,1,8,2.0,8,M,,M,,*69
05/28/2014	12:05:22.464	$GPGGA,120520,2537.9609,N,08006.8650,W,1,8,2.0,8,M,,M,,*66
05/28/2014	12:05:23.545	$GPGGA,120521,2537.9594,N,08006.8633,W,1,8,2.0,8,M,,M,,*65
05/28/2014	12:05:24.584	$GPGGA,120522,2537.9579,N,08006.8614,W,1,8,2.0,8,M,,M,,*60
05/28/2014	12:05:25.666	$GPGGA,120523,2537.9563,N,08006.8597,W,1,8,1.9,8,M,,M,,*68
05/28/2014	12:05:26.919	$GPGGA,120524,2537.9547,N,08006.8579,W,1,8,1.9,8,M,,M,,*69
05/28/2014	12:05:27.787	$GPGGA,120525,2537.9531,N,08006.8561,W,1,8,1.9,8,M,,M,,*60
05/28/2014	12:05:28.965	$GPGGA,120526,2537.9515,N,08006.8543,W,1,8,1.9,8,M,,M,,*65
05/28/2014	12:05:29.939	$GPGGA,120527,2537.9498,N,08006.8525,W,1,8,1.9,8,M,,M,,*60
05/28/2014	12:05:30.999	$GPGGA,120528,2537.9482,N,08006.8508,W,1,8,1.9,8,M,,M,,*6B
05/28/2014	12:05:32.220	$GPGGA,120529,2537.9467,N,08006.8490,W,1,8,1.9,8,M,,M,,*61
05/28/2014	12:05:33.152	$GPGGA,120530,2537.9450,N,08006.8473,W,1,8,1.9,8,M,,M,,*60
05/28/2014	12:05:34.202	$GPGGA,120531,2537.9432,N,08006.8456,W,1,8,1.9,8,M,,M,,*62
05/28/2014	12:05:35.273	$GPGGA,120532,2537.9415,N,08006.8440,W,1,8,1.9,8,M,,M,,*63
05/28/2014	12:05:36.494	$GPGGA,120533,2537.9398,N,08006.8423,W,1,7,1.9,8,M,,M,,*6A
05/28/2014	12:05:37.426	$GPGGA,120534,2537.9382,N,08006.8407,W,1,7,1.9,8,M,,M,,*60
05/28/2014	12:05:38.497	$GPGGA,120535,2537.9366,N,08006.8391,W,1,8,1.9,8,M,,M,,*6C
05/28/2014	12:05:39.653	$GPGGA,120536,2537.9350,N,08006.8374,W,1,8,2.0,8,M,,M,,*6B
05/28/2014	12:05:40.629	$GPGGA,120537,2537.9333,N,08006.8358,W,1,8,1.9,8,M,,M,,*6B
05/28/2014	12:05:41.860	$GPGGA,120538,2537.9316,N,08006.8343,W,1,8,1.9,8,M,,M,,*69
05/28/2014	12:05:38.623	$GPGGA,120539,2537.9299,N,08006.8326,W,1,8,1.9,8,M,,M,,*6D
05/28/2014	12:05:39.675	$GPGGA,120540,2537.9283,N,08006.8310,W,1,8,1.9,8,M,,M,,*6D
05/28/2014	12:05:40.757	$GPGGA,120541,2537.9265,N,08006.8295,W,1,8,1.9,8,M,,M,,*68
05/28/2014	12:05:41.794	$GPGGA,120542,2537.9247,N,08006.8279,W,1,8,1.9,8,M,,M,,*69
05/28/2014	12:05:42.865	$GPGGA,120543,2537.9231,N,08006.8261,W,1,7,2.0,8,M,,M,,*65
05/28/2014	12:05:44.021	$GPGGA,120544,2537.9213,N,08006.8244,W,1,7,1.9,9,M,,M,,*6E
05/28/2014	12:05:45.071	$GPGGA,120545,2537.9196,N,08006.8230,W,1,8,1.9,9,M,,M,,*6D
05/28/2014	12:05:46.152	$GPGGA,120546,2537.9178,N,08006.8213,W,1,8,1.9,9,M,,M,,*6F
05/28/2014	12:05:47.170	$GPGGA,120547,2537.9160,N,08006.8197,W,1,8,1.9,9,M,,M,,*68
05/28/2014	12:05:48.305	$GPGGA,120548,2537.9143,N,08006.8182,W,1,8,1.9,9,M,,M,,*62
05/28/2014	12:05:49.333	$GPGGA,120549,2537.9125,N,08006.8166,W,1,8,1.9,9,M,,M,,*69
05/28/2014	12:05:50.426	$GPGGA,120550,2537.9108,N,08006.8151,W,1,8,1.9,9,M,,M,,*6A
05/28/2014	12:05:51.465	$GPGGA,120551,2537.9090,N,08006.8135,W,1,8,1.9,9,M,,M,,*69
05/28/2014	12:05:52.568	$GPGGA,120552,2537.9073,N,08006.8120,W,1,8,1.9,9,M,,M,,*63
05/28/2014	12:05:53.553	$GPGGA,120553,2537.9055,N,08006.8105,W,1,8,1.9,9,M,,M,,*61
05/28/2014	12:05:54.699	$GPGGA,120554,2537.9038,N,08006.8089,W,1,8,1.9,9,M,,M,,*68
05/28/2014	12:05:55.696	$GPGGA,120555,2537.9021,N,08006.8074,W,1,8,1.9,9,M,,M,,*63
05/28/2014	12:05:56.852	$GPGGA,120556,2537.9003,N,08006.8058,W,1,8,1.9,9,M,,M,,*6E
05/28/2014	12:05:57.827	$GPGGA,120557,2537.8987,N,08006.8043,W,1,8,1.9,9,M,,M,,*61
05/28/2014	12:05:58.962	$GPGGA,120558,2537.8969,N,08006.8027,W,1,8,1.9,9,M,,M,,*6C
05/28/2014	12:06:00.040	$GPGGA,120559,2537.8951,N,08006.8011,W,1,8,1.9,9,M,,M,,*63
05/28/2014	12:06:01.137	$GPGGA,120600,2537.8934,N,08006.7996,W,1,8,1.9,9,M,,M,,*66
05/28/2014	12:06:02.154	$GPGGA,120601,2537.8918,N,08006.7978,W,1,7,2.0,9,M,,M,,*6C
05/28/2014	12:06:03.171	$GPGGA,120602,2537.8901,N,08006.7962,W,1,7,2.0,9,M,,M,,*6C
05/28/2014	12:06:04.295	$GPGGA,120603,2537.8883,N,08006.7946,W,1,8,1.9,9,M,,M,,*65
05/28/2014	12:06:05.324	$GPGGA,120604,2537.8866,N,08006.7929,W,1,8,1.9,9,M,,M,,*60
05/28/2014	12:06:06.384	$GPGGA,120605,2537.8849,N,08006.7912,W,1,8,1.9,9,M,,M,,*64
05/28/2014	12:06:07.444	$GPGGA,120606,2537.8832,N,08006.7895,W,1,8,1.9,9,M,,M,,*65
05/28/2014	12:06:08.580	$GPGGA,120607,2537.8815,N,08006.7879,W,1,8,1.9,9,M,,M,,*63
05/28/2014	12:06:09.597	$GPGGA,120608,2537.8799,N,08006.7862,W,1,8,1.9,9,M,,M,,*6D
05/28/2014	12:06:10.658	$GPGGA,120609,2537.8782,N,08006.7845,W,1,8,1.9,9,M,,M,,*63
05/28/2014	12:06:11.793	$GPGGA,120610,2537.8765,N,08006.7828,W,1,8,1.9,9,M,,M,,*69
05/28/2014	12:06:12.821	$GPGGA,120611,2537.8749,N,08006.7811,W,1,8,1.9,9,M,,M,,*6C
05/28/2014	12:06:13.936	$GPGGA,120612,2537.8732,N,08006.7794,W,1,8,1.9,9,M,,M,,*61
05/28/2014	12:06:15.060	$GPGGA,120613,2537.8716,N,08006.7777,W,1,8,1.9,9,M,,M,,*6B
05/28/2014	12:06:16.056	$GPGGA,120614,2537.8699,N,08006.7760,W,1,8,1.9,9,M,,M,,*6C
05/28/2014	12:06:17.075	$GPGGA,120615,2537.8683,N,08006.7743,W,1,8,1.9,9,M,,M,,*67
05/28/2014	12:06:18.221	$GPGGA,120616,2537.8667,N,08006.7725,W,1,8,1.9,9,M,,M,,*6E
05/28/2014	12:06:19.248	$GPGGA,120617,2537.8651,N,08006.7708,W,1,8,1.9,9,M,,M,,*65
05/28/2014	12:06:20.276	$GPGGA,120618,2537.8635,N,08006.7691,W,1,8,1.9,9,M,,M,,*69
05/28/2014	12:06:21.389	$GPGGA,120619,2537.8619,N,08006.7674,W,1,8,1.9,10,M,,M,,*55
05/28/2014	12:06:22.503	$GPGGA,120620,2537.8604,N,08006.7656,W,1,8,1.9,10,M,,M,,*53
05/28/2014	12:06:23.564	$GPGGA,120621,2537.8587,N,08006.7638,W,1,8,1.9,10,M,,M,,*52
05/28/2014	12:06:24.662	$GPGGA,120622,2537.8571,N,08006.7621,W,1,8,1.9,10,M,,M,,*50
05/28/2014	12:06:25.695	$GPGGA,120623,2537.8555,N,08006.7603,W,1,8,1.9,10,M,,M,,*57
05/28/2014	12:06:26.777	$GPGGA,120624,2537.8540,N,08006.7585,W,1,8,1.9,10,M,,M,,*59
05/28/2014	12:06:27.837	$GPGGA,120625,2537.8524,N,08006.7567,W,1,8,1.9,10,M,,M,,*56
05/28/2014	12:06:28.908	$GPGGA,120626,2537.8508,N,08006.7549,W,1,8,1.9,10,M,,M,,*57
05/28/2014	12:06:29.936	$GPGGA,120627,2537.8493,N,08006.7531,W,1,8,1.9,10,M,,M,,*5A
05/28/2014	12:06:31.085	$GPGGA,120628,2537.8477,N,08006.7513,W,1,8,1.9,10,M,,M,,*5F
05/28/2014	12:06:32.156	$GPGGA,120629,2537.8463,N,08006.7495,W,1,8,1.9,10,M,,M,,*54
05/28/2014	12:06:33.216	$GPGGA,120630,2537.8447,N,08006.7478,W,1,8,1.9,10,M,,M,,*59
05/28/2014	12:06:34.328	$GPGGA,120631,2537.8431,N,08006.7460,W,1,8,1.9,10,M,,M,,*50
05/28/2014	12:06:35.358	$GPGGA,120632,2537.8416,N,08006.7443,W,1,8,1.9,10,M,,M,,*57
05/28/2014	12:06:36.438	$GPGGA,120633,2537.8400,N,08006.7425,W,1,8,1.9,10,M,,M,,*51
05/28/2014	12:06:37.498	$GPGGA,120634,2537.8385,N,08006.7408,W,1,8,1.9,10,M,,M,,*53
05/28/2014	12:06:38.591	$GPGGA,120635,2537.8369,N,08006.7391,W,1,8,1.9,10,M,,M,,*57
05/28/2014	12:06:39.641	$GPGGA,120636,2537.8353,N,08006.7373,W,1,8,1.9,10,M,,M,,*51
05/28/2014	12:06:40.743	$GPGGA,120637,2537.8337,N,08006.7356,W,1,8,1.9,10,M,,M,,*55
05/28/2014	12:06:41.760	$GPGGA,120638,2537.8322,N,08006.7338,W,1,8,1.9,10,M,,M,,*56
05/28/2014	12:06:38.588	$GPGGA,120639,2537.8305,N,08006.7321,W,1,8,1.9,10,M,,M,,*5A
05/28/2014	12:06:39.670	$GPGGA,120640,2537.8289,N,08006.7303,W,1,8,1.9,10,M,,M,,*51
05/28/2014	12:06:40.730	$GPGGA,120641,2537.8272,N,08006.7286,W,1,8,1.9,10,M,,M,,*58
05/28/2014	12:06:41.812	$GPGGA,120642,2537.8257,N,08006.7269,W,1,8,1.9,10,M,,M,,*5D
05/28/2014	12:06:42.862	$GPGGA,120643,2537.8239,N,08006.7251,W,1,8,1.9,10,M,,M,,*5F
05/28/2014	12:06:43.943	$GPGGA,120644,2537.8223,N,08006.7234,W,1,8,1.9,10,M,,M,,*50
05/28/2014	12:06:45.004	$GPGGA,120645,2537.8206,N,08006.7217,W,1,8,1.9,10,M,,M,,*57
05/28/2014	12:06:46.064	$GPGGA,120646,2537.8189,N,08006.7199,W,1,8,1.9,10,M,,M,,*55
05/28/2014	12:06:47.135	$GPGGA,120647,2537.8172,N,08006.7182,W,1,8,1.9,10,M,,M,,*5A
05/28/2014	12:06:48.206	$GPGGA,120648,2537.8156,N,08006.7165,W,1,8,1.9,10,M,,M,,*5A
05/28/2014	12:06:49.288	$GPGGA,120649,2537.8139,N,08006.7147,W,1,7,1.9,10,M,,M,,*5D
05/28/2014	12:06:50.316	$GPGGA,120650,2537.8139,N,08006.7147,W,1,7,1.9,10,M,,M,,*55
05/28/2014	12:06:51.387	$GPGGA,120651,2537.8105,N,08006.7113,W,1,8,1.9,10,M,,M,,*55
05/28/2014	12:06:52.491	$GPGGA,120652,2537.8087,N,08006.7097,W,1,8,1.9,10,M,,M,,*50
05/28/2014	12:06:53.562	$GPGGA,120653,2537.8070,N,08006.7080,W,1,8,1.9,9,M,,M,,*67
05/28/2014	12:06:54.621	$GPGGA,120654,2537.8070,N,08006.7080,W,1,8,1.9,9,M,,M,,*60
05/28/2014	12:06:55.692	$GPGGA,120655,2537.8053,N,08006.7065,W,1,8,1.9,9,M,,M,,*6B
05/28/2014	12:06:56.775	$GPGGA,120656,2537.8018,N,08006.7032,W,1,8,1.9,9,M,,M,,*65
05/28/2014	12:06:57.813	$GPGGA,120657,2537.8000,N,08006.7016,W,1,8,1.9,9,M,,M,,*6B
05/28/2014	12:06:58.884	$GPGGA,120658,2537.8000,N,08006.7016,W,1,8,1.9,9,M,,M,,*64
05/28/2014	12:06:59.955	$GPGGA,120659,2537.7965,N,08006.6984,W,1,8,1.9,9,M,,M,,*63
05/28/2014	12:07:01.080	$GPGGA,120700,2537.7950,N,08006.6967,W,1,8,1.9,9,M,,M,,*65
05/28/2014	12:07:02.108	$GPGGA,120701,2537.7932,N,08006.6951,W,1,8,1.9,9,M,,M,,*65
05/28/2014	12:07:03.158	$GPGGA,120702,2537.7932,N,08006.6951,W,1,8,1.9,9,M,,M,,*66
05/28/2014	12:07:04.207	$GPGGA,120703,2537.7897,N,08006.6920,W,1,8,1.9,9,M,,M,,*6F
05/28/2014	12:07:05.354	$GPGGA,120704,2537.7897,N,08006.6920,W,1,8,1.9,9,M,,M,,*68
05/28/2014	12:07:06.393	$GPGGA,120705,2537.7863,N,08006.6888,W,1,8,1.9,9,M,,M,,*61
05/28/2014	12:07:07.528	$GPGGA,120706,2537.7845,N,08006.6872,W,1,8,1.9,9,M,,M,,*63
05/28/2014	12:07:08.513	$GPGGA,120707,2537.7827,N,08006.6855,W,1,8,1.9,9,M,,M,,*63
05/28/2014	12:07:09.681	$GPGGA,120708,2537.7810,N,08006.6838,W,1,8,1.9,9,M,,M,,*63
05/28/2014	12:07:10.628	$GPGGA,120709,2537.7792,N,08006.6822,W,1,8,1.9,9,M,,M,,*6C
05/28/2014	12:07:11.803	$GPGGA,120710,2537.7776,N,08006.6805,W,1,8,2.2,9,M,,M,,*63
05/28/2014	12:07:12.862	$GPGGA,120711,2537.7760,N,08006.6789,W,1,8,1.9,9,M,,M,,*66
05/28/2014	12:07:13.911	$GPGGA,120712,2537.7742,N,08006.6773,W,1,8,1.9,9,M,,M,,*60
05/28/2014	12:07:14.928	$GPGGA,120713,2537.7742,N,08006.6773,W,1,8,1.9,9,M,,M,,*61
05/28/2014	12:07:16.087	$GPGGA,120714,2537.7709,N,08006.6740,W,1,8,1.9,9,M,,M,,*69
05/28/2014	12:07:17.145	$GPGGA,120715,2537.7693,N,08006.6724,W,1,8,1.9,9,M,,M,,*68
05/28/2014	12:07:18.249	$GPGGA,120716,2537.7676,N,08006.6707,W,1,8,1.9,9,M,,M,,*61
05/28/2014	12:07:19.300	$GPGGA,120717,2537.7659,N,08006.6690,W,1,8,1.9,9,M,,M,,*62
05/28/2014	12:07:20.359	$GPGGA,120718,2537.7643,N,08006.6673,W,1,8,1.9,9,M,,M,,*6B
05/28/2014	12:07:21.453	$GPGGA,120719,2537.7625,N,08006.6656,W,1,8,1.9,9,M,,M,,*6D
05/28/2014	12:07:22.503	$GPGGA,120720,2537.7609,N,08006.6640,W,1,8,1.9,9,M,,M,,*6E
05/28/2014	12:07:23.585	$GPGGA,120721,2537.7592,N,08006.6622,W,1,8,1.9,9,M,,M,,*6A
05/28/2014	12:07:24.622	$GPGGA,120722,2537.7575,N,08006.6605,W,1,8,1.9,9,M,,M,,*65
05/28/2014	12:07:25.714	$GPGGA,120723,2537.7560,N,08006.6589,W,1,8,1.9,9,M,,M,,*67
05/28/2014	12:07:26.785	$GPGGA,120724,2537.7543,N,08006.6571,W,1,8,1.9,9,M,,M,,*66
05/28/2014	12:07:27.856	$GPGGA,120725,2537.7527,N,08006.6554,W,1,8,1.9,9,M,,M,,*62
05/28/2014	12:07:28.907	$GPGGA,120726,2537.7511,N,08006.6537,W,1,8,1.9,9,M,,M,,*61
05/28/2014	12:07:29.988	$GPGGA,120727,2537.7495,N,08006.6520,W,1,8,1.9,9,M,,M,,*6B
05/28/2014	12:07:31.059	$GPGGA,120728,2537.7480,N,08006.6503,W,1,8,1.9,9,M,,M,,*61
05/28/2014	12:07:32.130	$GPGGA,120729,2537.7463,N,08006.6485,W,1,8,1.9,9,M,,M,,*62
05/28/2014	12:07:33.179	$GPGGA,120730,2537.7448,N,08006.6468,W,1,8,1.9,9,M,,M,,*60
05/28/2014	12:07:34.271	$GPGGA,120731,2537.7432,N,08006.6451,W,1,8,1.9,9,M,,M,,*66
05/28/2014	12:07:35.333	$GPGGA,120732,2537.7416,N,08006.6433,W,1,8,1.9,9,M,,M,,*67
05/28/2014	12:07:36.413	$GPGGA,120733,2537.7401,N,08006.6416,W,1,8,1.9,9,M,,M,,*67
05/28/2014	12:07:37.464	$GPGGA,120734,2537.7383,N,08006.6398,W,1,8,1.9,9,M,,M,,*6C
05/28/2014	12:07:38.556	$GPGGA,120735,2537.7368,N,08006.6381,W,1,8,1.9,9,M,,M,,*60
05/28/2014	12:07:39.616	$GPGGA,120736,2537.7352,N,08006.6363,W,1,8,1.9,9,M,,M,,*66
05/28/2014	12:07:40.698	$GPGGA,120737,2537.7336,N,08006.6346,W,1,8,1.9,9,M,,M,,*62
05/28/2014	12:07:41.738	$GPGGA,120738,2537.7321,N,08006.6329,W,1,8,1.9,9,M,,M,,*62
05/28/2014	12:07:38.555	$GPGGA,120739,2537.7305,N,08006.6311,W,1,8,1.9,9,M,,M,,*6E
05/28/2014	12:07:39.626	$GPGGA,120740,2537.7289,N,08006.6294,W,1,8,1.9,9,M,,M,,*69
05/28/2014	12:07:40.675	$GPGGA,120741,2537.7273,N,08006.6277,W,1,8,1.9,9,M,,M,,*60
05/28/2014	12:07:41.757	$GPGGA,120742,2537.7257,N,08006.6259,W,1,8,1.9,9,M,,M,,*69
05/28/2014	12:07:42.850	$GPGGA,120743,2537.7242,N,08006.6242,W,1,8,1.9,9,M,,M,,*66
05/28/2014	12:07:43.899	$GPGGA,120744,2537.7225,N,08006.6225,W,1,8,1.9,9,M,,M,,*61
05/28/2014	12:07:45.088	$GPGGA,120745,2537.7209,N,08006.6207,W,1,8,1.9,9,M,,M,,*6E
05/28/2014	12:07:46.138	$GPGGA,120746,2537.7195,N,08006.6189,W,1,8,1.9,9,M,,M,,*6E
05/28/2014	12:07:47.122	$GPGGA,120747,2537.7177,N,08006.6171,W,1,8,1.9,9,M,,M,,*64
05/28/2014	12:07:48.183	$GPGGA,120748,2537.7161,N,08006.6154,W,1,8,1.9,9,M,,M,,*6B
05/28/2014	12:07:49.212	$GPGGA,120749,2537.7145,N,08006.6136,W,1,8,1.9,9,M,,M,,*68
05/28/2014	12:07:50.421	$GPGGA,120750,2537.7130,N,08006.6118,W,1,8,1.9,9,M,,M,,*6E
05/28/2014	12:07:51.353	$GPGGA,120751,2537.7113,N,08006.6101,W,1,8,1.9,9,M,,M,,*66
05/28/2014	12:07:52.456	$GPGGA,120752,2537.7097,N,08006.6083,W,1,8,1.9,9,M,,M,,*63
05/28/2014	12:07:53.635	$GPGGA,120753,2537.7081,N,08006.6066,W,1,8,1.9,9,M,,M,,*6E
05/28/2014	12:07:54.577	$GPGGA,120754,2537.7065,N,08006.6049,W,1,8,1.9,9,M,,M,,*6E
05/28/2014	12:07:55.633	$GPGGA,120755,2537.7049,N,08006.6032,W,1,8,1.9,9,M,,M,,*6D
05/28/2014	12:07:56.741	$GPGGA,120756,2537.7031,N,08006.6014,W,1,8,1.9,9,M,,M,,*65
05/28/2014	12:07:57.801	$GPGGA,120757,2537.7015,N,08006.5997,W,1,8,1.9,9,M,,M,,*63
05/28/2014	12:07:58.948	$GPGGA,120758,2537.7000,N,08006.5980,W,1,8,1.9,9,M,,M,,*6E
05/28/2014	12:07:59.927	$GPGGA,120759,2537.6982,N,08006.5963,W,1,8,1.9,9,M,,M,,*60
05/28/2014	12:08:01.014	$GPGGA,120800,2537.6964,N,08006.5947,W,1,8,1.9,9,M,,M,,*6D
05/28/2014	12:08:02.168	$GPGGA,120801,2537.6947,N,08006.5929,W,1,8,1.9,9,M,,M,,*65
05/28/2014	12:08:03.133	$GPGGA,120802,2537.6931,N,08006.5912,W,1,8,1.9,9,M,,M,,*6F
05/28/2014	12:08:04.320	$GPGGA,120803,2537.6913,N,08006.5896,W,1,8,1.9,9,M,,M,,*63
05/28/2014	12:08:05.337	$GPGGA,120804,2537.6896,N,08006.5880,W,1,8,1.9,9,M,,M,,*6F
05/28/2014	12:08:06.343	$GPGGA,120805,2537.6880,N,08006.5864,W,1,7,2.0,9,M,,M,,*66
05/28/2014	12:08:07.360	$GPGGA,120806,2537.6863,N,08006.5848,W,1,7,1.9,9,M,,M,,*6C
05/28/2014	12:08:08.418	$GPGGA,120807,2537.6845,N,08006.5833,W,1,8,1.9,9,M,,M,,*6A
05/28/2014	12:08:09.445	$GPGGA,120808,2537.6830,N,08006.5816,W,1,8,1.9,9,M,,M,,*60
05/28/2014	12:08:10.452	$GPGGA,120809,2537.6812,N,08006.5800,W,1,8,1.9,9,M,,M,,*66
05/28/2014	12:08:11.479	$GPGGA,120810,2537.6795,N,08006.5785,W,1,8,1.9,9,M,,M,,*6C
05/28/2014	12:08:12.517	$GPGGA,120811,2537.6778,N,08006.5770,W,1,8,1.9,9,M,,M,,*64
05/28/2014	12:08:13.533	$GPGGA,120812,2537.6761,N,08006.5753,W,1,8,1.9,9,M,,M,,*6E
05/28/2014	12:08:14.551	$GPGGA,120813,2537.6744,N,08006.5737,W,1,8,1.9,9,M,,M,,*6A
05/28/2014	12:08:15.567	$GPGGA,120814,2537.6726,N,08006.5721,W,1,8,1.9,9,M,,M,,*6E
05/28/2014	12:08:16.605	$GPGGA,120815,2537.6709,N,08006.5705,W,1,8,1.9,9,M,,M,,*64
05/28/2014	12:08:17.631	$GPGGA,120816,2537.6693,N,08006.5688,W,1,8,1.9,9,M,,M,,*61
05/28/2014	12:08:18.658	$GPGGA,120817,2537.6675,N,08006.5672,W,1,8,1.9,9,M,,M,,*6D
05/28/2014	12:08:19.676	$GPGGA,120818,2537.6657,N,08006.5657,W,1,8,1.9,9,M,,M,,*65
05/28/2014	12:08:20.692	$GPGGA,120819,2537.6640,N,08006.5641,W,1,8,1.9,9,M,,M,,*65
05/28/2014	12:08:21.729	$GPGGA,120820,2537.6624,N,08006.5625,W,1,8,1.9,9,M,,M,,*6F
05/28/2014	12:08:22.768	$GPGGA,120821,2537.6606,N,08006.5609,W,1,8,1.9,9,M,,M,,*60
05/28/2014	12:08:23.762	$GPGGA,120822,2537.6589,N,08006.5592,W,1,8,1.9,9,M,,M,,*66
05/28/2014	12:08:24.810	$GPGGA,120823,2537.6572,N,08006.5576,W,1,8,1.9,9,M,,M,,*69
05/28/2014	12:08:25.826	$GPGGA,120824,2537.6554,N,08006.5561,W,1,8,1.9,9,M,,M,,*6C
05/28/2014	12:08:26.884	$GPGGA,120825,2537.6537,N,08006.5544,W,1,8,1.9,9,M,,M,,*6F
05/28/2014	12:08:27.870	$GPGGA,120826,2537.6520,N,08006.5528,W,1,8,1.9,9,M,,M,,*60
05/28/2014	12:08:30.460	$GPGGA,120828,2537.6485,N,08006.5495,W,1,8,1.9,9,M,,M,,*67
05/28/2014	12:08:30.941	$GPGGA,120829,2537.6469,N,08006.5479,W,1,7,2.2,9,M,,M,,*61
05/28/2014	12:08:31.979	$GPGGA,120830,2537.6451,N,08006.5463,W,1,7,1.9,9,M,,M,,*61
05/28/2014	12:08:33.027	$GPGGA,120831,2537.6436,N,08006.5446,W,1,8,1.9,9,M,,M,,*69
05/28/2014	12:08:34.033	$GPGGA,120832,2537.6420,N,08006.5429,W,1,8,1.9,9,M,,M,,*64
05/28/2014	12:08:35.070	$GPGGA,120833,2537.6404,N,08006.5412,W,1,8,1.9,9,M,,M,,*6B
05/28/2014	12:08:36.077	$GPGGA,120834,2537.6387,N,08006.5395,W,1,8,1.9,9,M,,M,,*68
05/28/2014	12:08:37.125	$GPGGA,120835,2537.6372,N,08006.5378,W,1,8,1.9,9,M,,M,,*60
05/28/2014	12:08:38.142	$GPGGA,120836,2537.6357,N,08006.5361,W,1,8,1.9,9,M,,M,,*6C
05/28/2014	12:08:39.138	$GPGGA,120837,2537.6340,N,08006.5344,W,1,8,1.9,9,M,,M,,*6C
05/28/2014	12:08:40.154	$GPGGA,120838,2537.6324,N,08006.5327,W,1,8,1.9,9,M,,M,,*64
05/28/2014	12:08:38.490	$GPGGA,120839,2537.6308,N,08006.5310,W,1,8,1.9,9,M,,M,,*6F
05/28/2014	12:08:39.659	$GPGGA,120840,2537.6292,N,08006.5292,W,1,8,1.9,9,M,,M,,*68
05/28/2014	12:08:40.552	$GPGGA,120841,2537.6277,N,08006.5275,W,1,8,1.9,9,M,,M,,*6B
05/28/2014	12:08:41.579	$GPGGA,120842,2537.6260,N,08006.5258,W,1,8,1.9,9,M,,M,,*61
05/28/2014	12:08:42.617	$GPGGA,120843,2537.6245,N,08006.5240,W,1,8,1.9,9,M,,M,,*6E
05/28/2014	12:08:43.644	$GPGGA,120844,2537.6230,N,08006.5223,W,1,8,1.9,9,M,,M,,*6E
05/28/2014	12:08:44.651	$GPGGA,120845,2537.6213,N,08006.5206,W,1,8,1.9,9,M,,M,,*69
05/28/2014	12:08:45.671	$GPGGA,120846,2537.6198,N,08006.5188,W,1,8,1.9,9,M,,M,,*6F
05/28/2014	12:08:46.828	$GPGGA,120847,2537.6182,N,08006.5171,W,1,8,1.9,9,M,,M,,*63
05/28/2014	12:08:47.836	$GPGGA,120848,2537.6166,N,08006.5154,W,1,8,1.9,9,M,,M,,*61
05/28/2014	12:08:48.761	$GPGGA,120849,2537.6151,N,08006.5136,W,1,8,1.9,9,M,,M,,*60
05/28/2014	12:08:49.868	$GPGGA,120850,2537.6135,N,08006.5118,W,1,8,1.9,9,M,,M,,*66
05/28/2014	12:08:50.895	$GPGGA,120851,2537.6120,N,08006.5101,W,1,8,1.9,9,M,,M,,*6B
05/28/2014	12:08:51.943	$GPGGA,120852,2537.6104,N,08006.5083,W,1,8,1.9,9,M,,M,,*65
05/28/2014	12:08:52.981	$GPGGA,120853,2537.6088,N,08006.5065,W,1,8,1.9,9,M,,M,,*69
05/28/2014	12:08:53.966	$GPGGA,120854,2537.6072,N,08006.5047,W,1,8,1.9,9,M,,M,,*6B
05/28/2014	12:08:54.993	$GPGGA,120855,2537.6057,N,08006.5030,W,1,8,1.9,9,M,,M,,*6D
05/28/2014	12:08:56.042	$GPGGA,120856,2537.6040,N,08006.5012,W,1,8,1.9,9,M,,M,,*68
05/28/2014	12:08:57.046	$GPGGA,120857,2537.6024,N,08006.4994,W,1,8,1.9,9,M,,M,,*6D
05/28/2014	12:08:58.073	$GPGGA,120858,2537.6010,N,08006.4977,W,1,8,1.9,9,M,,M,,*68
05/28/2014	12:08:59.113	$GPGGA,120859,2537.5993,N,08006.4959,W,1,8,1.9,9,M,,M,,*64
05/28/2014	12:09:00.153	$GPGGA,120900,2537.5977,N,08006.4942,W,1,8,1.9,9,M,,M,,*69
05/28/2014	12:09:01.165	$GPGGA,120901,2537.5961,N,08006.4925,W,1,8,1.9,9,M,,M,,*6E
05/28/2014	12:09:02.182	$GPGGA,120902,2537.5945,N,08006.4907,W,1,8,1.9,9,M,,M,,*6B
05/28/2014	12:09:03.239	$GPGGA,120903,2537.5929,N,08006.4890,W,1,8,1.9,9,M,,M,,*6F
05/28/2014	12:09:04.272	$GPGGA,120904,2537.5913,N,08006.4873,W,1,8,1.9,9,M,,M,,*6C
05/28/2014	12:09:05.243	$GPGGA,120905,2537.5896,N,08006.4856,W,1,8,1.9,9,M,,M,,*66
05/28/2014	12:09:06.281	$GPGGA,120906,2537.5881,N,08006.4838,W,1,8,1.9,9,M,,M,,*6B
05/28/2014	12:09:07.317	$GPGGA,120907,2537.5863,N,08006.4821,W,1,8,1.9,9,M,,M,,*6E
05/28/2014	12:09:08.334	$GPGGA,120908,2537.5847,N,08006.4804,W,1,8,1.9,9,M,,M,,*60
05/28/2014	12:09:09.372	$GPGGA,120909,2537.5830,N,08006.4786,W,1,8,1.9,9,M,,M,,*64
05/28/2014	12:09:10.368	$GPGGA,120910,2537.5815,N,08006.4770,W,1,8,1.9,9,M,,M,,*62
05/28/2014	12:09:11.426	$GPGGA,120911,2537.5797,N,08006.4754,W,1,8,1.9,9,M,,M,,*60
05/28/2014	12:09:12.444	$GPGGA,120912,2537.5780,N,08006.4738,W,1,8,1.9,9,M,,M,,*6F
05/28/2014	12:09:13.449	$GPGGA,120913,2537.5764,N,08006.4722,W,1,8,1.9,9,M,,M,,*6F
05/28/2014	12:09:14.475	$GPGGA,120914,2537.5747,N,08006.4707,W,1,8,1.9,9,M,,M,,*6E
05/28/2014	12:09:15.492	$GPGGA,120915,2537.5730,N,08006.4690,W,1,8,1.9,9,M,,M,,*60
05/28/2014	12:09:16.540	$GPGGA,120916,2537.5714,N,08006.4674,W,1,8,1.9,9,M,,M,,*6F
05/28/2014	12:09:17.536	$GPGGA,120917,2537.5696,N,08006.4658,W,1,8,1.9,9,M,,M,,*6B
05/28/2014	12:09:18.563	$GPGGA,120918,2537.5679,N,08006.4642,W,1,8,1.9,9,M,,M,,*6E
05/28/2014	12:09:19.590	$GPGGA,120919,2537.5663,N,08006.4625,W,1,8,1.9,9,M,,M,,*65
05/28/2014	12:09:20.751	$GPGGA,120920,2537.5645,N,08006.4608,W,1,8,1.9,9,M,,M,,*64
05/28/2014	12:09:21.675	$GPGGA,120921,2537.5628,N,08006.4592,W,1,8,1.9,9,M,,M,,*6E
05/28/2014	12:09:22.662	$GPGGA,120922,2537.5611,N,08006.4575,W,1,8,1.9,9,M,,M,,*6E
05/28/2014	12:09:23.696	$GPGGA,120923,2537.5594,N,08006.4558,W,1,8,1.9,9,M,,M,,*6E
05/28/2014	12:09:24.849	$GPGGA,120924,2537.5578,N,08006.4542,W,1,8,1.9,9,M,,M,,*60
05/28/2014	12:09:25.866	$GPGGA,120925,2537.5562,N,08006.4525,W,1,8,1.9,9,M,,M,,*6B
05/28/2014	12:09:26.773	$GPGGA,120926,2537.5544,N,08006.4508,W,1,8,1.9,9,M,,M,,*63
05/28/2014	12:09:27.920	$GPGGA,120927,2537.5527,N,08006.4492,W,1,8,1.9,9,M,,M,,*65
05/28/2014	12:09:28.827	$GPGGA,120928,2537.5511,N,08006.4476,W,1,8,1.9,9,M,,M,,*65
05/28/2014	12:09:29.851	$GPGGA,120929,2537.5494,N,08006.4459,W,1,8,1.9,9,M,,M,,*65
05/28/2014	12:09:30.882	$GPGGA,120930,2537.5477,N,08006.4443,W,1,8,1.9,9,M,,M,,*6B
05/28/2014	12:09:31.887	$GPGGA,120931,2537.5461,N,08006.4426,W,1,8,1.9,9,M,,M,,*6E
05/28/2014	12:09:33.055	$GPGGA,120932,2537.5443,N,08006.4410,W,1,8,1.9,9,M,,M,,*68
05/28/2014	12:09:34.082	$GPGGA,120933,2537.5424,N,08006.4394,W,1,8,1.9,9,M,,M,,*63
05/28/2014	12:09:34.985	$GPGGA,120934,2537.5408,N,08006.4377,W,1,8,2.2,9,M,,M,,*6F
05/28/2014	12:09:36.130	$GPGGA,120935,2537.5392,N,08006.4360,W,1,7,2.2,9,M,,M,,*63
05/28/2014	12:09:37.155	$GPGGA,120936,2537.5374,N,08006.4344,W,1,7,1.9,9,M,,M,,*66
05/28/2014	12:09:38.055	$GPGGA,120937,2537.5358,N,08006.4327,W,1,8,1.9,9,M,,M,,*63
05/28/2014	12:09:39.179	$GPGGA,120938,2537.5341,N,08006.4310,W,1,8,1.9,9,M,,M,,*60
05/28/2014	12:09:38.588	$GPGGA,120939,2537.5325,N,08006.4293,W,1,8,1.9,9,M,,M,,*69
05/28/2014	12:09:39.616	$GPGGA,120940,2537.5309,N,08006.4276,W,1,8,1.9,9,M,,M,,*62
05/28/2014	12:09:40.622	$GPGGA,120941,2537.5292,N,08006.4260,W,1,8,1.9,9,M,,M,,*67
05/28/2014	12:09:41.639	$GPGGA,120942,2537.5275,N,08006.4244,W,1,8,1.9,9,M,,M,,*6B
05/28/2014	12:09:42.686	$GPGGA,120943,2537.5259,N,08006.4226,W,1,8,1.9,9,M,,M,,*60
05/28/2014	12:09:43.715	$GPGGA,120944,2537.5244,N,08006.4210,W,1,8,1.9,9,M,,M,,*6E
05/28/2014	12:09:44.744	$GPGGA,120945,2537.5226,N,08006.4193,W,1,8,1.9,9,M,,M,,*63
05/28/2014	12:09:45.747	$GPGGA,120946,2537.5210,N,08006.4176,W,1,8,1.9,9,M,,M,,*6E
05/28/2014	12:09:46.785	$GPGGA,120947,2537.5194,N,08006.4159,W,1,8,1.9,9,M,,M,,*6D
05/28/2014	12:09:47.812	$GPGGA,120948,2537.5176,N,08006.4142,W,1,8,1.9,9,M,,M,,*64
05/28/2014	12:09:48.838	$GPGGA,120949,2537.5161,N,08006.4126,W,1,8,1.9,9,M,,M,,*61
05/28/2014	12:09:49.844	$GPGGA,120950,2537.5145,N,08006.4108,W,1,8,1.9,9,M,,M,,*63
05/28/2014	12:09:50.892	$GPGGA,120951,2537.5129,N,08006.4091,W,1,8,1.9,9,M,,M,,*69
05/28/2014	12:09:51.909	$GPGGA,120952,2537.5114,N,08006.4075,W,1,8,1.9,9,M,,M,,*6E
05/28/2014	12:09:52.946	$GPGGA,120953,2537.5097,N,08006.4057,W,1,8,1.9,9,M,,M,,*65
05/28/2014	12:09:53.942	$GPGGA,120954,2537.5082,N,08006.4040,W,1,8,1.9,9,M,,M,,*60
05/28/2014	12:09:55.000	$GPGGA,120955,2537.5065,N,08006.4023,W,1,8,1.9,9,M,,M,,*6D
05/28/2014	12:09:56.028	$GPGGA,120956,2537.5049,N,08006.4006,W,1,8,1.9,9,M,,M,,*67
05/28/2014	12:09:57.055	$GPGGA,120957,2537.5034,N,08006.3988,W,1,8,1.9,9,M,,M,,*64
05/28/2014	12:09:58.041	$GPGGA,120958,2537.5018,N,08006.3971,W,1,8,1.9,9,M,,M,,*63
05/28/2014	12:09:59.078	$GPGGA,120959,2537.5002,N,08006.3953,W,1,8,1.9,9,M,,M,,*69
05/28/2014	12:10:00.126	$GPGGA,121000,2537.4987,N,08006.3936,W,1,8,1.9,9,M,,M,,*6B
05/28/2014	12:10:01.112	$GPGGA,121001,2537.4970,N,08006.3917,W,1,8,1.9,9,M,,M,,*61
05/28/2014	12:10:02.159	$GPGGA,121002,2537.4956,N,08006.3901,W,1,8,1.9,9,M,,M,,*61
05/28/2014	12:10:03.197	$GPGGA,121003,2537.4940,N,08006.3883,W,1,8,1.9,9,M,,M,,*6C
05/28/2014	12:10:04.203	$GPGGA,121004,2537.4924,N,08006.3865,W,1,8,1.9,9,M,,M,,*61
05/28/2014	12:10:05.210	$GPGGA,121005,2537.4909,N,08006.3848,W,1,8,1.9,9,M,,M,,*60
05/28/2014	12:10:06.257	$GPGGA,121006,2537.4893,N,08006.3831,W,1,8,1.9,9,M,,M,,*6F
05/28/2014	12:10:07.294	$GPGGA,121007,2537.4877,N,08006.3814,W,1,8,1.9,9,M,,M,,*63
05/28/2014	12:10:08.321	$GPGGA,121008,2537.4861,N,08006.3795,W,1,8,1.9,9,M,,M,,*6D
05/28/2014	12:10:09.327	$GPGGA,121009,2537.4845,N,08006.3778,W,1,8,1.9,9,M,,M,,*69
05/28/2014	12:10:10.355	$GPGGA,121010,2537.4829,N,08006.3761,W,1,8,1.9,9,M,,M,,*63
05/28/2014	12:10:11.403	$GPGGA,121011,2537.4814,N,08006.3744,W,1,8,1.9,9,M,,M,,*6B
05/28/2014	12:10:12.522	$GPGGA,121012,2537.4797,N,08006.3727,W,1,8,1.9,9,M,,M,,*69
05/28/2014	12:10:13.415	$GPGGA,121013,2537.4780,N,08006.3709,W,1,8,1.9,9,M,,M,,*62
05/28/2014	12:10:14.555	$GPGGA,121014,2537.4764,N,08006.3693,W,1,8,1.9,9,M,,M,,*6D
05/28/2014	12:10:15.472	$GPGGA,121015,2537.4749,N,08006.3676,W,1,8,1.9,9,M,,M,,*68
05/28/2014	12:10:16.507	$GPGGA,121016,2537.4732,N,08006.3659,W,1,8,1.9,9,M,,M,,*6A
05/28/2014	12:10:17.513	$GPGGA,121017,2537.4715,N,08006.3642,W,1,8,1.9,9,M,,M,,*64
05/28/2014	12:10:18.644	$GPGGA,121018,2537.4699,N,08006.3626,W,1,8,1.9,9,M,,M,,*6C
05/28/2014	12:10:19.578	$GPGGA,121019,2537.4682,N,08006.3608,W,1,8,1.9,9,M,,M,,*6B
05/28/2014	12:10:20.615	$GPGGA,121020,2537.4666,N,08006.3592,W,1,8,1.9,9,M,,M,,*6B
05/28/2014	12:10:21.622	$GPGGA,121021,2537.4648,N,08006.3575,W,1,7,2.2,9,M,,M,,*68
05/28/2014	12:10:22.748	$GPGGA,121022,2537.4632,N,08006.3559,W,1,7,1.9,9,M,,M,,*60
05/28/2014	12:10:23.676	$GPGGA,121023,2537.4616,N,08006.3541,W,1,8,1.9,9,M,,M,,*61
05/28/2014	12:10:24.836	$GPGGA,121024,2537.4599,N,08006.3525,W,1,8,1.9,9,M,,M,,*60
05/28/2014	12:10:25.832	$GPGGA,121025,2537.4583,N,08006.3510,W,1,8,1.9,9,M,,M,,*6C
05/28/2014	12:10:26.853	$GPGGA,121026,2537.4567,N,08006.3492,W,1,8,1.9,9,M,,M,,*6E
05/28/2014	12:10:27.896	$GPGGA,121027,2537.4552,N,08006.3476,W,1,8,1.9,9,M,,M,,*63
05/28/2014	12:10:28.903	$GPGGA,121028,2537.4536,N,08006.3459,W,1,8,1.9,9,M,,M,,*63
05/28/2014	12:10:29.951	$GPGGA,121029,2537.4519,N,08006.3442,W,1,8,1.9,9,M,,M,,*65
05/28/2014	12:10:30.947	$GPGGA,121030,2537.4503,N,08006.3425,W,1,8,1.9,9,M,,M,,*67
05/28/2014	12:10:31.984	$GPGGA,121031,2537.4486,N,08006.3409,W,1,8,1.9,9,M,,M,,*64
05/28/2014	12:10:33.011	$GPGGA,121032,2537.4469,N,08006.3393,W,1,8,1.9,9,M,,M,,*62
05/28/2014	12:10:34.039	$GPGGA,121033,2537.4454,N,08006.3376,W,1,8,1.9,9,M,,M,,*66
05/28/2014	12:10:35.035	$GPGGA,121034,2537.4436,N,08006.3359,W,1,8,1.9,9,M,,M,,*68
05/28/2014	12:10:36.093	$GPGGA,121035,2537.4420,N,08006.3342,W,1,8,1.9,9,M,,M,,*64
05/28/2014	12:10:37.126	$GPGGA,121036,2537.4403,N,08006.3325,W,1,8,1.9,9,M,,M,,*67
05/28/2014	12:10:38.153	$GPGGA,121037,2537.4388,N,08006.3310,W,1,8,1.9,9,M,,M,,*64
05/28/2014	12:10:39.143	$GPGGA,121038,2537.4370,N,08006.3292,W,1,8,1.9,9,M,,M,,*67
05/28/2014	12:10:38.591	$GPGGA,121039,2537.4355,N,08006.3276,W,1,8,1.9,9,M,,M,,*6B
05/28/2014	12:10:39.584	$GPGGA,121040,2537.4337,N,08006.3259,W,1,8,1.9,9,M,,M,,*6C
05/28/2014	12:10:40.591	$GPGGA,121041,2537.4319,N,08006.3243,W,1,8,1.9,9,M,,M,,*6A
05/28/2014	12:10:41.616	$GPGGA,121042,2537.4303,N,08006.3227,W,1,8,1.9,9,M,,M,,*60
05/28/2014	12:10:42.674	$GPGGA,121043,2537.4286,N,08006.3210,W,1,8,1.9,9,M,,M,,*69
05/28/2014	12:10:43.681	$GPGGA,121044,2537.4270,N,08006.3194,W,1,8,1.9,9,M,,M,,*68
05/28/2014	12:10:44.687	$GPGGA,121045,2537.4254,N,08006.3178,W,1,8,1.9,9,M,,M,,*6D
05/28/2014	12:10:45.725	$GPGGA,121046,2537.4237,N,08006.3161,W,1,8,1.9,9,M,,M,,*63
05/28/2014	12:10:46.772	$GPGGA,121047,2537.4220,N,08006.3145,W,1,8,1.9,9,M,,M,,*62
05/28/2014	12:10:47.779	$GPGGA,121048,2537.4203,N,08006.3129,W,1,8,1.9,9,M,,M,,*66
05/28/2014	12:10:48.817	$GPGGA,121049,2537.4187,N,08006.3112,W,1,8,1.9,9,M,,M,,*60
05/28/2014	12:10:49.833	$GPGGA,121050,2537.4171,N,08006.3095,W,1,8,1.9,9,M,,M,,*6F
05/28/2014	12:10:50.860	$GPGGA,121051,2537.4153,N,08006.3079,W,1,8,1.9,9,M,,M,,*6C
05/28/2014	12:10:51.887	$GPGGA,121052,2537.4137,N,08006.3062,W,1,8,1.9,9,M,,M,,*67
05/28/2014	12:10:52.925	$GPGGA,121053,2537.4120,N,08006.3045,W,1,8,1.9,9,M,,M,,*65
05/28/2014	12:10:53.921	$GPGGA,121054,2537.4104,N,08006.3029,W,1,8,1.9,9,M,,M,,*6E
05/28/2014	12:10:54.948	$GPGGA,121055,2537.4088,N,08006.3011,W,1,8,1.9,9,M,,M,,*61
05/28/2014	12:10:55.985	$GPGGA,121056,2537.4072,N,08006.2994,W,1,8,1.9,9,M,,M,,*62
05/28/2014	12:10:57.023	$GPGGA,121057,2537.4055,N,08006.2977,W,1,8,1.9,9,M,,M,,*6B
05/28/2014	12:10:58.040	$GPGGA,121058,2537.4039,N,08006.2959,W,1,8,1.9,8,M,,M,,*63
05/28/2014	12:10:59.076	$GPGGA,121059,2537.4023,N,08006.2943,W,1,8,1.9,8,M,,M,,*62
05/28/2014	12:11:00.114	$GPGGA,121100,2537.4007,N,08006.2924,W,1,8,1.9,8,M,,M,,*68
05/28/2014	12:11:01.110	$GPGGA,121101,2537.3991,N,08006.2908,W,1,8,1.9,8,M,,M,,*66
05/28/2014	12:11:02.126	$GPGGA,121102,2537.3976,N,08006.2891,W,1,8,1.9,8,M,,M,,*6D
05/28/2014	12:11:03.164	$GPGGA,121103,2537.3959,N,08006.2873,W,1,8,1.9,8,M,,M,,*6D
05/28/2014	12:11:04.201	$GPGGA,121104,2537.3943,N,08006.2857,W,1,8,1.9,8,M,,M,,*67
05/28/2014	12:11:05.218	$GPGGA,121105,2537.3926,N,08006.2839,W,1,8,1.9,8,M,,M,,*6D
05/28/2014	12:11:06.309	$GPGGA,121106,2537.3911,N,08006.2822,W,1,8,1.9,8,M,,M,,*60
05/28/2014	12:11:07.336	$GPGGA,121107,2537.3893,N,08006.2805,W,1,8,1.9,8,M,,M,,*6F
05/28/2014	12:11:08.310	$GPGGA,121108,2537.3877,N,08006.2787,W,1,8,1.9,8,M,,M,,*6F
05/28/2014	12:11:09.388	$GPGGA,121109,2537.3861,N,08006.2770,W,1,8,1.9,8,M,,M,,*61
05/28/2014	12:11:10.425	$GPGGA,121110,2537.3844,N,08006.2753,W,1,8,1.9,8,M,,M,,*6F
05/28/2014	12:11:11.444	$GPGGA,121111,2537.3828,N,08006.2735,W,1,8,1.9,8,M,,M,,*64
05/28/2014	12:11:12.480	$GPGGA,121112,2537.3811,N,08006.2718,W,1,8,1.9,8,M,,M,,*62
05/28/2014	12:11:13.517	$GPGGA,121113,2537.3795,N,08006.2701,W,1,8,1.9,8,M,,M,,*68
05/28/2014	12:11:14.513	$GPGGA,121114,2537.3779,N,08006.2683,W,1,8,1.9,8,M,,M,,*66
05/28/2014	12:11:15.540	$GPGGA,121115,2537.3763,N,08006.2666,W,1,8,1.9,8,M,,M,,*67
05/28/2014	12:11:16.578	$GPGGA,121116,2537.3746,N,08006.2649,W,1,8,1.9,8,M,,M,,*6E
05/28/2014	12:11:17.595	$GPGGA,121117,2537.3730,N,08006.2631,W,1,8,1.9,8,M,,M,,*61
05/28/2014	12:11:18.610	$GPGGA,121118,2537.3714,N,08006.2614,W,1,8,1.9,8,M,,M,,*6F
05/28/2014	12:11:19.658	$GPGGA,121119,2537.3698,N,08006.2596,W,1,8,1.9,8,M,,M,,*62
05/28/2014	12:11:20.685	$GPGGA,121120,2537.3681,N,08006.2580,W,1,8,1.9,8,M,,M,,*67
05/28/2014	12:11:21.702	$GPGGA,121121,2537.3666,N,08006.2562,W,1,8,1.9,8,M,,M,,*63
05/28/2014	12:11:22.719	$GPGGA,121122,2537.3649,N,08006.2544,W,1,8,1.9,8,M,,M,,*69
05/28/2014	12:11:23.768	$GPGGA,121123,2537.3633,N,08006.2527,W,1,8,1.9,8,M,,M,,*60
05/28/2014	12:11:24.783	$GPGGA,121124,2537.3617,N,08006.2510,W,1,8,1.9,8,M,,M,,*65
05/28/2014	12:11:25.825	$GPGGA,121125,2537.3600,N,08006.2493,W,1,8,1.9,8,M,,M,,*68
05/28/2014	12:11:26.807	$GPGGA,121126,2537.3584,N,08006.2475,W,1,8,1.9,8,M,,M,,*6C
05/28/2014	12:11:27.855	$GPGGA,121127,2537.3568,N,08006.2458,W,1,8,1.9,8,M,,M,,*60
05/28/2014	12:11:28.881	$GPGGA,121128,2537.3551,N,08006.2441,W,1,8,1.9,8,M,,M,,*6D
05/28/2014	12:11:29.931	$GPGGA,121129,2537.3535,N,08006.2423,W,1,8,1.9,8,M,,M,,*6A
05/28/2014	12:11:30.905	$GPGGA,121130,2537.3518,N,08006.2407,W,1,8,1.9,8,M,,M,,*6B
05/28/2014	12:11:31.942	$GPGGA,121131,2537.3501,N,08006.2389,W,1,8,1.9,8,M,,M,,*63
05/28/2014	12:11:32.979	$GPGGA,121132,2537.3484,N,08006.2372,W,1,8,1.9,8,M,,M,,*68
05/28/2014	12:11:33.996	$GPGGA,121133,2537.3468,N,08006.2355,W,1,8,1.9,8,M,,M,,*6E
05/28/2014	12:11:35.033	$GPGGA,121134,2537.3452,N,08006.2338,W,1,8,1.9,8,M,,M,,*6B
05/28/2014	12:11:36.039	$GPGGA,121135,2537.3435,N,08006.2321,W,1,8,1.9,8,M,,M,,*63
05/28/2014	12:11:37.077	$GPGGA,121136,2537.3418,N,08006.2304,W,1,8,1.9,8,M,,M,,*68
05/28/2014	12:11:38.093	$GPGGA,121137,2537.3402,N,08006.2287,W,1,8,1.9,8,M,,M,,*68
05/28/2014	12:11:39.131	$GPGGA,121138,2537.3385,N,08006.2269,W,1,8,1.9,8,M,,M,,*6F
05/28/2014	12:11:38.502	$GPGGA,121139,2537.3369,N,08006.2252,W,1,8,1.9,8,M,,M,,*64
05/28/2014	12:11:39.550	$GPGGA,121140,2537.3353,N,08006.2235,W,1,8,1.9,8,M,,M,,*62
05/28/2014	12:11:40.556	$GPGGA,121141,2537.3336,N,08006.2218,W,1,8,1.9,8,M,,M,,*6F
05/28/2014	12:11:41.604	$GPGGA,121142,2537.3318,N,08006.2202,W,1,8,1.9,8,M,,M,,*6B
05/28/2014	12:11:42.734	$GPGGA,121143,2537.3301,N,08006.2184,W,1,8,1.9,8,M,,M,,*6F
05/28/2014	12:11:43.659	$GPGGA,121144,2537.3284,N,08006.2167,W,1,8,1.9,8,M,,M,,*69
05/28/2014	12:11:44.675	$GPGGA,121145,2537.3268,N,08006.2150,W,1,8,1.9,8,M,,M,,*6E
05/28/2014	12:11:45.692	$GPGGA,121146,2537.3250,N,08006.2133,W,1,8,1.9,8,M,,M,,*63
05/28/2014	12:11:46.832	$GPGGA,121147,2537.3233,N,08006.2116,W,1,8,1.9,8,M,,M,,*60
05/28/2014	12:11:47.746	$GPGGA,121148,2537.3217,N,08006.2098,W,1,8,1.9,8,M,,M,,*6E
05/28/2014	12:11:48.773	$GPGGA,121149,2537.3199,N,08006.2082,W,1,8,1.9,8,M,,M,,*61
05/28/2014	12:11:49.782	$GPGGA,121150,2537.3182,N,08006.2065,W,1,8,1.9,8,M,,M,,*6A
05/28/2014	12:11:50.838	$GPGGA,121151,2537.3165,N,08006.2048,W,1,8,1.9,8,M,,M,,*6D
05/28/2014	12:11:51.946	$GPGGA,121152,2537.3148,N,08006.2032,W,1,8,1.9,8,M,,M,,*6C
05/28/2014	12:11:52.963	$GPGGA,121153,2537.3130,N,08006.2014,W,1,8,1.9,8,M,,M,,*66
05/28/2014	12:11:53.897	$GPGGA,121154,2537.3114,N,08006.1997,W,1,8,1.9,8,M,,M,,*66
05/28/2014	12:11:55.018	$GPGGA,121155,2537.3098,N,08006.1981,W,1,8,1.9,8,M,,M,,*65
05/28/2014	12:11:55.962	$GPGGA,121156,2537.3080,N,08006.1964,W,1,8,1.9,8,M,,M,,*64
05/28/2014	12:11:57.064	$GPGGA,121157,2537.3063,N,08006.1947,W,1,8,1.9,8,M,,M,,*69
