Software Version Number: 1	Data File Format Number: 1	Build Version Number: 1	Error Count Since VI Started: 0	Manufacturer: Raytheon	 Model Number: RayMarine 120	 S/N: 	 Cal Date: 	 Wind Direction Offset: 0.00	 Slope (M)1: 0.00	 Offset (B)1: 0.00	 Slope (M)2: 0.00	 Offset (B)2: 0.00	 Slope (M)3: 0.00	 Offset (B)3: 0.00	 Slope (M)4: 0.00	 Offset (B)4: 0.00	 Slope (M)5: 0.00	 Offset (B)5: 0.00	 Slope (M)6: 0.00	 Offset (B)6: 0.00
Computer Date	Computer Time	GGA String
06/13/2014	11:00:00.739	$GPGGA,110001,2450.7443,N,08021.2323,W,1,8,2.0,17,M,,M,,*51
06/13/2014	11:00:01.771	$GPGGA,110002,2450.7439,N,08021.2331,W,1,8,2.0,17,M,,M,,*5C
06/13/2014	11:00:02.840	$GPGGA,110003,2450.7432,N,08021.2339,W,1,8,2.0,17,M,,M,,*5E
06/13/2014	11:00:03.751	$GPGGA,110004,2450.7426,N,08021.2346,W,1,8,2.0,17,M,,M,,*54
06/13/2014	11:00:04.810	$GPGGA,110005,2450.7421,N,08021.2353,W,1,8,2.0,17,M,,M,,*56
06/13/2014	11:00:05.759	$GPGGA,110006,2450.7414,N,08021.2359,W,1,8,2.0,17,M,,M,,*59
06/13/2014	11:00:06.817	$GPGGA,110007,2450.7410,N,08021.2367,W,1,8,2.0,17,M,,M,,*51
06/13/2014	11:00:07.796	$GPGGA,110008,2450.7404,N,08021.2375,W,1,8,2.0,17,M,,M,,*58
06/13/2014	11:00:08.854	$GPGGA,110009,2450.7399,N,08021.2381,W,1,8,2.0,17,M,,M,,*51
06/13/2014	11:00:09.867	$GPGGA,110010,2450.7392,N,08021.2388,W,1,8,2.0,17,M,,M,,*5B
06/13/2014	11:00:10.930	$GPGGA,110011,2450.7386,N,08021.2397,W,1,8,2.2,17,M,,M,,*53
06/13/2014	11:00:11.916	$GPGGA,110012,2450.7381,N,08021.2406,W,1,8,2.2,17,M,,M,,*58
06/13/2014	11:00:12.939	$GPGGA,110013,2450.7374,N,08021.2410,W,1,7,2.0,17,M,,M,,*59
06/13/2014	11:00:13.911	$GPGGA,110014,2450.7368,N,08021.2417,W,1,7,2.0,17,M,,M,,*54
06/13/2014	11:00:14.995	$GPGGA,110015,2450.7363,N,08021.2425,W,1,8,2.0,17,M,,M,,*50
06/13/2014	11:00:15.938	$GPGGA,110016,2450.7357,N,08021.2432,W,1,8,2.0,17,M,,M,,*52
06/13/2014	11:00:16.962	$GPGGA,110017,2450.7350,N,08021.2439,W,1,8,2.0,17,M,,M,,*5F
06/13/2014	11:00:17.955	$GPGGA,110018,2450.7345,N,08021.2446,W,1,8,2.0,17,M,,M,,*5C
06/13/2014	11:00:19.010	$GPGGA,110019,2450.7341,N,08021.2453,W,1,8,2.0,17,M,,M,,*5D
06/13/2014	11:00:19.982	$GPGGA,110020,2450.7334,N,08021.2460,W,1,8,2.0,17,M,,M,,*55
06/13/2014	11:00:21.016	$GPGGA,110021,2450.7328,N,08021.2467,W,1,8,2.0,17,M,,M,,*5E
06/13/2014	11:00:21.998	$GPGGA,110022,2450.7321,N,08021.2475,W,1,8,2.0,17,M,,M,,*57
06/13/2014	11:00:23.052	$GPGGA,110023,2450.7316,N,08021.2480,W,1,8,2.0,17,M,,M,,*58
06/13/2014	11:00:24.045	$GPGGA,110024,2450.7309,N,08021.2487,W,1,8,2.2,17,M,,M,,*54
06/13/2014	11:00:25.150	$GPGGA,110025,2450.7302,N,08021.2496,W,1,7,2.2,17,M,,M,,*51
06/13/2014	11:00:26.061	$GPGGA,110026,2450.7296,N,08021.2503,W,1,7,2.2,17,M,,M,,*53
06/13/2014	11:00:27.096	$GPGGA,110027,2450.7291,N,08021.2507,W,1,7,2.0,17,M,,M,,*53
06/13/2014	11:00:28.090	$GPGGA,110028,2450.7291,N,08021.2507,W,1,7,2.0,17,M,,M,,*5C
06/13/2014	11:00:29.092	$GPGGA,110029,2450.7285,N,08021.2515,W,1,8,2.0,17,M,,M,,*54
06/13/2014	11:00:30.102	$GPGGA,110030,2450.7273,N,08021.2529,W,1,8,2.2,17,M,,M,,*58
06/13/2014	11:00:31.150	$GPGGA,110031,2450.7267,N,08021.2534,W,1,7,2.0,17,M,,M,,*5D
06/13/2014	11:00:32.150	$GPGGA,110032,2450.7262,N,08021.2541,W,1,7,2.0,17,M,,M,,*59
06/13/2014	11:00:33.140	$GPGGA,110033,2450.7262,N,08021.2541,W,1,8,2.0,17,M,,M,,*57
06/13/2014	11:00:34.139	$GPGGA,110034,2450.7251,N,08021.2555,W,1,8,2.0,17,M,,M,,*55
06/13/2014	11:00:35.214	$GPGGA,110035,2450.7243,N,08021.2561,W,1,7,2.2,17,M,,M,,*5D
06/13/2014	11:00:36.187	$GPGGA,110036,2450.7236,N,08021.2569,W,1,7,2.2,17,M,,M,,*54
06/13/2014	11:00:37.221	$GPGGA,110037,2450.7231,N,08021.2576,W,1,7,2.8,17,M,,M,,*56
06/13/2014	11:00:38.192	$GPGGA,110038,2450.7224,N,08021.2581,W,1,7,2.8,17,M,,M,,*55
06/13/2014	11:00:39.267	$GPGGA,110039,2450.7216,N,08021.2588,W,1,7,2.2,17,M,,M,,*56
06/13/2014	11:00:40.210	$GPGGA,110040,2450.7209,N,08021.2597,W,1,7,2.2,17,M,,M,,*58
06/13/2014	11:00:41.284	$GPGGA,110041,2450.7201,N,08021.2602,W,1,7,2.2,17,M,,M,,*5E
06/13/2014	11:00:42.342	$GPGGA,110042,2450.7194,N,08021.2608,W,1,7,2.2,17,M,,M,,*58
06/13/2014	11:00:43.250	$GPGGA,110043,2450.7194,N,08021.2608,W,1,8,2.0,17,M,,M,,*54
06/13/2014	11:00:44.274	$GPGGA,110044,2450.7183,N,08021.2623,W,1,8,2.0,17,M,,M,,*5C
06/13/2014	11:00:45.328	$GPGGA,110045,2450.7176,N,08021.2627,W,1,7,2.0,17,M,,M,,*5C
06/13/2014	11:00:46.362	$GPGGA,110046,2450.7169,N,08021.2635,W,1,7,2.0,17,M,,M,,*52
06/13/2014	11:00:47.304	$GPGGA,110047,2450.7169,N,08021.2635,W,1,7,2.2,17,M,,M,,*51
06/13/2014	11:00:47.489	$GPGGA,110048,2450.7157,N,08021.2649,W,1,7,2.2,17,M,,M,,*58
06/13/2014	11:00:48.636	$GPGGA,110049,2450.7150,N,08021.2653,W,1,7,2.2,16,M,,M,,*54
06/13/2014	11:00:49.516	$GPGGA,110050,2450.7146,N,08021.2659,W,1,7,2.0,16,M,,M,,*53
06/13/2014	11:00:50.540	$GPGGA,110051,2450.7146,N,08021.2659,W,1,8,2.0,16,M,,M,,*5D
06/13/2014	11:00:51.635	$GPGGA,110052,2450.7135,N,08021.2674,W,1,8,3.0,16,M,,M,,*54
06/13/2014	11:00:52.648	$GPGGA,110053,2450.7129,N,08021.2678,W,1,6,3.0,16,M,,M,,*5A
06/13/2014	11:00:53.560	$GPGGA,110054,2450.7122,N,08021.2685,W,1,6,2.0,16,M,,M,,*55
06/13/2014	11:00:54.708	$GPGGA,110055,2450.7118,N,08021.2695,W,1,8,2.0,16,M,,M,,*52
06/13/2014	11:00:55.689	$GPGGA,110056,2450.7111,N,08021.2700,W,1,8,2.2,16,M,,M,,*57
06/13/2014	11:00:56.711	$GPGGA,110057,2450.7105,N,08021.2703,W,1,7,2.2,16,M,,M,,*5F
06/13/2014	11:00:57.694	$GPGGA,110058,2450.7099,N,08021.2710,W,1,7,2.0,16,M,,M,,*54
06/13/2014	11:00:58.738	$GPGGA,110059,2450.7097,N,08021.2717,W,1,7,2.2,16,M,,M,,*5E
06/13/2014	11:00:59.762	$GPGGA,110100,2450.7092,N,08021.2721,W,1,7,2.0,16,M,,M,,*51
06/13/2014	11:01:00.735	$GPGGA,110101,2450.7087,N,08021.2725,W,1,8,2.0,16,M,,M,,*5F
06/13/2014	11:01:01.748	$GPGGA,110102,2450.7081,N,08021.2735,W,1,8,2.0,16,M,,M,,*5B
06/13/2014	11:01:02.782	$GPGGA,110103,2450.7077,N,08021.2742,W,1,7,2.2,16,M,,M,,*5E
06/13/2014	11:01:03.785	$GPGGA,110104,2450.7070,N,08021.2746,W,1,7,2.0,16,M,,M,,*58
06/13/2014	11:01:04.809	$GPGGA,110105,2450.7063,N,08021.2753,W,1,8,2.0,16,M,,M,,*50
06/13/2014	11:01:05.782	$GPGGA,110106,2450.7058,N,08021.2760,W,1,8,2.0,16,M,,M,,*5B
06/13/2014	11:01:06.826	$GPGGA,110107,2450.7052,N,08021.2767,W,1,7,2.2,16,M,,M,,*5A
06/13/2014	11:01:07.829	$GPGGA,110108,2450.7045,N,08021.2772,W,1,7,2.2,16,M,,M,,*57
06/13/2014	11:01:08.853	$GPGGA,110109,2450.7040,N,08021.2780,W,1,8,2.0,16,M,,M,,*53
06/13/2014	11:01:09.836	$GPGGA,110110,2450.7035,N,08021.2787,W,1,8,2.0,16,M,,M,,*5E
06/13/2014	11:01:10.849	$GPGGA,110111,2450.7028,N,08021.2793,W,1,8,2.0,16,M,,M,,*56
06/13/2014	11:01:11.873	$GPGGA,110112,2450.7023,N,08021.2800,W,1,8,2.0,16,M,,M,,*5B
06/13/2014	11:01:12.897	$GPGGA,110113,2450.7017,N,08021.2807,W,1,8,2.0,16,M,,M,,*5A
06/13/2014	11:01:13.879	$GPGGA,110114,2450.7012,N,08021.2814,W,1,8,2.2,16,M,,M,,*58
06/13/2014	11:01:14.892	$GPGGA,110115,2450.7006,N,08021.2818,W,1,8,2.0,16,M,,M,,*52
06/13/2014	11:01:15.916	$GPGGA,110116,2450.7001,N,08021.2825,W,1,8,2.0,16,M,,M,,*58
06/13/2014	11:01:16.909	$GPGGA,110117,2450.6998,N,08021.2836,W,1,8,2.0,16,M,,M,,*53
06/13/2014	11:01:17.933	$GPGGA,110118,2450.6991,N,08021.2841,W,1,8,2.0,16,M,,M,,*55
06/13/2014	11:01:18.956	$GPGGA,110119,2450.6983,N,08021.2847,W,1,7,2.2,16,M,,M,,*5C
06/13/2014	11:01:19.950	$GPGGA,110120,2450.6980,N,08021.2854,W,1,7,2.0,16,M,,M,,*55
06/13/2014	11:01:20.995	$GPGGA,110121,2450.6973,N,08021.2862,W,1,8,2.0,17,M,,M,,*53
06/13/2014	11:01:21.977	$GPGGA,110122,2450.6966,N,08021.2870,W,1,8,2.2,17,M,,M,,*55
06/13/2014	11:01:22.981	$GPGGA,110123,2450.6960,N,08021.2876,W,1,7,2.2,17,M,,M,,*5B
06/13/2014	11:01:24.014	$GPGGA,110124,2450.6954,N,08021.2883,W,1,7,2.0,17,M,,M,,*53
06/13/2014	11:01:25.007	$GPGGA,110125,2450.6949,N,08021.2890,W,1,8,2.0,17,M,,M,,*53
06/13/2014	11:01:26.026	$GPGGA,110126,2450.6944,N,08021.2897,W,1,8,2.0,17,M,,M,,*5A
06/13/2014	11:01:27.040	$GPGGA,110127,2450.6936,N,08021.2902,W,1,8,2.0,17,M,,M,,*53
06/13/2014	11:01:28.169	$GPGGA,110128,2450.6930,N,08021.2909,W,1,8,2.0,17,M,,M,,*51
06/13/2014	11:01:29.051	$GPGGA,110129,2450.6926,N,08021.2916,W,1,7,2.2,17,M,,M,,*54
06/13/2014	11:01:30.080	$GPGGA,110130,2450.6919,N,08021.2923,W,1,7,2.2,17,M,,M,,*56
06/13/2014	11:01:31.179	$GPGGA,110131,2450.6915,N,08021.2928,W,1,8,2.0,17,M,,M,,*5D
06/13/2014	11:01:32.102	$GPGGA,110132,2450.6908,N,08021.2937,W,1,8,2.0,17,M,,M,,*5C
06/13/2014	11:01:33.215	$GPGGA,110133,2450.6904,N,08021.2944,W,1,7,2.2,17,M,,M,,*58
06/13/2014	11:01:34.107	$GPGGA,110134,2450.6897,N,08021.2951,W,1,7,2.0,17,M,,M,,*52
06/13/2014	11:01:35.121	$GPGGA,110135,2450.6891,N,08021.2955,W,1,7,2.2,17,M,,M,,*53
06/13/2014	11:01:36.236	$GPGGA,110136,2450.6886,N,08021.2963,W,1,7,2.0,17,M,,M,,*51
06/13/2014	11:01:37.148	$GPGGA,110137,2450.6884,N,08021.2971,W,1,7,2.2,17,M,,M,,*53
06/13/2014	11:01:38.252	$GPGGA,110138,2450.6876,N,08021.2977,W,1,7,2.0,17,M,,M,,*55
06/13/2014	11:01:39.175	$GPGGA,110139,2450.6873,N,08021.2980,W,1,7,2.2,17,M,,M,,*5B
06/13/2014	11:01:40.290	$GPGGA,110140,2450.6869,N,08021.2988,W,1,7,2.0,17,M,,M,,*54
06/13/2014	11:01:41.313	$GPGGA,110141,2450.6863,N,08021.2995,W,1,8,1.9,17,M,,M,,*56
06/13/2014	11:01:42.317	$GPGGA,110142,2450.6855,N,08021.3002,W,1,8,2.2,17,M,,M,,*5E
06/13/2014	11:01:43.340	$GPGGA,110143,2450.6850,N,08021.3006,W,1,7,2.2,17,M,,M,,*51
06/13/2014	11:01:44.333	$GPGGA,110144,2450.6846,N,08021.3013,W,1,7,2.8,17,M,,M,,*5F
06/13/2014	11:01:45.337	$GPGGA,110145,2450.6840,N,08021.3020,W,1,8,1.9,17,M,,M,,*55
06/13/2014	11:01:46.351	$GPGGA,110146,2450.6833,N,08021.3025,W,1,8,2.2,17,M,,M,,*5F
06/13/2014	11:01:47.374	$GPGGA,110147,2450.6825,N,08021.3031,W,1,8,1.9,17,M,,M,,*54
06/13/2014	11:01:47.559	$GPGGA,110148,2450.6819,N,08021.3038,W,1,8,1.9,17,M,,M,,*5D
06/13/2014	11:01:48.582	$GPGGA,110149,2450.6814,N,08021.3045,W,1,8,1.9,17,M,,M,,*5B
06/13/2014	11:01:49.585	$GPGGA,110150,2450.6807,N,08021.3049,W,1,8,2.2,17,M,,M,,*55
06/13/2014	11:01:50.619	$GPGGA,110151,2450.6799,N,08021.3053,W,1,7,2.8,17,M,,M,,*52
06/13/2014	11:01:51.622	$GPGGA,110152,2450.6794,N,08021.3061,W,1,7,1.9,17,M,,M,,*5F
06/13/2014	11:01:52.636	$GPGGA,110153,2450.6790,N,08021.3068,W,1,7,2.8,17,M,,M,,*51
06/13/2014	11:01:53.629	$GPGGA,110154,2450.6782,N,08021.3071,W,1,7,2.8,17,M,,M,,*5D
06/13/2014	11:01:54.653	$GPGGA,110155,2450.6777,N,08021.3076,W,1,8,1.9,17,M,,M,,*5C
06/13/2014	11:01:55.667	$GPGGA,110156,2450.6774,N,08021.3085,W,1,8,1.9,17,M,,M,,*50
06/13/2014	11:01:56.670	$GPGGA,110157,2450.6767,N,08021.3092,W,1,8,1.9,17,M,,M,,*55
06/13/2014	11:01:57.673	$GPGGA,110158,2450.6758,N,08021.3093,W,1,8,2.8,17,M,,M,,*55
06/13/2014	11:01:58.707	$GPGGA,110159,2450.6756,N,08021.3100,W,1,7,2.2,17,M,,M,,*54
06/13/2014	11:01:59.720	$GPGGA,110200,2450.6752,N,08021.3110,W,1,7,1.9,17,M,,M,,*56
06/13/2014	11:02:00.744	$GPGGA,110201,2450.6745,N,08021.3114,W,1,8,1.9,17,M,,M,,*5A
06/13/2014	11:02:01.727	$GPGGA,110202,2450.6736,N,08021.3118,W,1,8,1.9,17,M,,M,,*51
06/13/2014	11:02:02.771	$GPGGA,110203,2450.6731,N,08021.3125,W,1,7,2.2,17,M,,M,,*5E
06/13/2014	11:02:03.754	$GPGGA,110204,2450.6727,N,08021.3132,W,1,7,1.9,17,M,,M,,*50
06/13/2014	11:02:04.778	$GPGGA,110205,2450.6718,N,08021.3137,W,1,7,2.2,17,M,,M,,*50
06/13/2014	11:02:05.781	$GPGGA,110206,2450.6714,N,08021.3139,W,1,7,2.2,17,M,,M,,*51
06/13/2014	11:02:06.763	$GPGGA,110207,2450.6710,N,08021.3145,W,1,8,1.9,17,M,,M,,*58
06/13/2014	11:02:07.807	$GPGGA,110208,2450.6709,N,08021.3154,W,1,8,1.9,17,M,,M,,*5F
06/13/2014	11:02:08.800	$GPGGA,110209,2450.6700,N,08021.3159,W,1,8,1.9,17,M,,M,,*5A
06/13/2014	11:02:09.804	$GPGGA,110210,2450.6691,N,08021.3163,W,1,8,2.2,17,M,,M,,*5A
06/13/2014	11:02:10.837	$GPGGA,110211,2450.6686,N,08021.3169,W,1,8,1.9,17,M,,M,,*5F
06/13/2014	11:02:11.962	$GPGGA,110212,2450.6681,N,08021.3177,W,1,8,1.9,17,M,,M,,*54
06/13/2014	11:02:12.854	$GPGGA,110213,2450.6674,N,08021.3183,W,1,8,1.9,17,M,,M,,*54
06/13/2014	11:02:13.868	$GPGGA,110214,2450.6669,N,08021.3187,W,1,8,2.2,17,M,,M,,*53
06/13/2014	11:02:14.962	$GPGGA,110215,2450.6663,N,08021.3194,W,1,8,1.9,17,M,,M,,*52
06/13/2014	11:02:15.895	$GPGGA,110216,2450.6659,N,08021.3201,W,1,8,1.9,17,M,,M,,*57
06/13/2014	11:02:16.989	$GPGGA,110217,2450.6655,N,08021.3206,W,1,8,1.9,17,M,,M,,*5D
06/13/2014	11:02:17.891	$GPGGA,110218,2450.6651,N,08021.3212,W,1,8,1.9,17,M,,M,,*53
06/13/2014	11:02:18.915	$GPGGA,110219,2450.6646,N,08021.3219,W,1,8,1.9,17,M,,M,,*5F
06/13/2014	11:02:19.939	$GPGGA,110220,2450.6641,N,08021.3226,W,1,8,1.9,17,M,,M,,*5E
06/13/2014	11:02:20.932	$GPGGA,110221,2450.6635,N,08021.3233,W,1,8,1.9,17,M,,M,,*58
06/13/2014	11:02:21.955	$GPGGA,110222,2450.6630,N,08021.3238,W,1,8,1.9,17,M,,M,,*55
06/13/2014	11:02:23.110	$GPGGA,110223,2450.6626,N,08021.3246,W,1,8,1.9,17,M,,M,,*5A
06/13/2014	11:02:23.992	$GPGGA,110224,2450.6622,N,08021.3255,W,1,8,1.9,17,M,,M,,*5B
06/13/2014	11:02:24.985	$GPGGA,110225,2450.6615,N,08021.3259,W,1,8,1.9,17,M,,M,,*52
06/13/2014	11:02:26.079	$GPGGA,110226,2450.6610,N,08021.3266,W,1,8,1.9,18,M,,M,,*57
06/13/2014	11:02:27.113	$GPGGA,110227,2450.6606,N,08021.3275,W,1,8,1.9,18,M,,M,,*53
06/13/2014	11:02:28.025	$GPGGA,110228,2450.6600,N,08021.3282,W,1,8,1.9,18,M,,M,,*52
06/13/2014	11:02:29.130	$GPGGA,110229,2450.6594,N,08021.3288,W,1,8,1.9,18,M,,M,,*57
06/13/2014	11:02:30.143	$GPGGA,110230,2450.6590,N,08021.3296,W,1,8,1.9,18,M,,M,,*54
06/13/2014	11:02:31.157	$GPGGA,110231,2450.6584,N,08021.3306,W,1,8,1.9,18,M,,M,,*58
06/13/2014	11:02:32.170	$GPGGA,110232,2450.6579,N,08021.3311,W,1,8,1.9,18,M,,M,,*5F
06/13/2014	11:02:33.174	$GPGGA,110233,2450.6572,N,08021.3317,W,1,8,1.9,18,M,,M,,*53
06/13/2014	11:02:34.187	$GPGGA,110234,2450.6566,N,08021.3325,W,1,8,1.9,18,M,,M,,*50
06/13/2014	11:02:35.191	$GPGGA,110235,2450.6561,N,08021.3334,W,1,8,1.9,18,M,,M,,*56
06/13/2014	11:02:36.224	$GPGGA,110236,2450.6555,N,08021.3340,W,1,8,1.9,18,M,,M,,*51
06/13/2014	11:02:37.238	$GPGGA,110237,2450.6548,N,08021.3347,W,1,8,1.9,18,M,,M,,*5B
06/13/2014	11:02:38.221	$GPGGA,110238,2450.6543,N,08021.3353,W,1,8,1.9,18,M,,M,,*5A
06/13/2014	11:02:39.246	$GPGGA,110239,2450.6537,N,08021.3363,W,1,8,1.9,18,M,,M,,*5B
06/13/2014	11:02:40.270	$GPGGA,110240,2450.6532,N,08021.3370,W,1,8,1.9,18,M,,M,,*52
06/13/2014	11:02:41.272	$GPGGA,110241,2450.6525,N,08021.3374,W,1,8,1.9,18,M,,M,,*51
06/13/2014	11:02:42.274	$GPGGA,110242,2450.6517,N,08021.3382,W,1,8,1.9,18,M,,M,,*5A
06/13/2014	11:02:43.298	$GPGGA,110243,2450.6514,N,08021.3390,W,1,7,2.2,18,M,,M,,*5C
06/13/2014	11:02:44.321	$GPGGA,110244,2450.6507,N,08021.3396,W,1,7,1.9,18,M,,M,,*57
06/13/2014	11:02:45.325	$GPGGA,110245,2450.6501,N,08021.3401,W,1,8,1.9,18,M,,M,,*56
06/13/2014	11:02:46.308	$GPGGA,110246,2450.6496,N,08021.3408,W,1,8,1.9,18,M,,M,,*53
06/13/2014	11:02:47.321	$GPGGA,110247,2450.6490,N,08021.3417,W,1,8,1.9,18,M,,M,,*5A
06/13/2014	11:02:47.547	$GPGGA,110248,2450.6482,N,08021.3422,W,1,8,2.2,18,M,,M,,*58
06/13/2014	11:02:48.571	$GPGGA,110249,2450.6475,N,08021.3429,W,1,7,2.2,18,M,,M,,*55
06/13/2014	11:02:49.554	$GPGGA,110250,2450.6471,N,08021.3436,W,1,7,2.2,17,M,,M,,*58
06/13/2014	11:02:50.577	$GPGGA,110251,2450.6463,N,08021.3443,W,1,8,1.9,17,M,,M,,*5F
06/13/2014	11:02:51.601	$GPGGA,110252,2450.6457,N,08021.3450,W,1,8,2.2,17,M,,M,,*51
06/13/2014	11:02:52.585	$GPGGA,110253,2450.6450,N,08021.3457,W,1,7,2.2,17,M,,M,,*5F
06/13/2014	11:02:53.608	$GPGGA,110254,2450.6446,N,08021.3461,W,1,7,2.2,17,M,,M,,*5A
06/13/2014	11:02:54.642	$GPGGA,110255,2450.6438,N,08021.3466,W,1,8,1.9,17,M,,M,,*52
06/13/2014	11:02:55.645	$GPGGA,110256,2450.6431,N,08021.3475,W,1,8,2.2,17,M,,M,,*52
06/13/2014	11:02:56.630	$GPGGA,110257,2450.6425,N,08021.3483,W,1,8,1.9,17,M,,M,,*57
06/13/2014	11:02:57.652	$GPGGA,110258,2450.6418,N,08021.3487,W,1,8,2.2,17,M,,M,,*5A
06/13/2014	11:02:58.654	$GPGGA,110259,2450.6413,N,08021.3493,W,1,8,1.9,17,M,,M,,*5D
06/13/2014	11:02:59.708	$GPGGA,110300,2450.6409,N,08021.3501,W,1,8,1.9,17,M,,M,,*51
06/13/2014	11:03:00.690	$GPGGA,110301,2450.6403,N,08021.3508,W,1,8,1.9,17,M,,M,,*53
06/13/2014	11:03:01.686	$GPGGA,110302,2450.6395,N,08021.3513,W,1,8,3.0,17,M,,M,,*59
06/13/2014	11:03:02.693	$GPGGA,110303,2450.6387,N,08021.3519,W,1,7,2.2,17,M,,M,,*5D
06/13/2014	11:03:03.719	$GPGGA,110304,2450.6384,N,08021.3527,W,1,7,2.2,17,M,,M,,*54
06/13/2014	11:03:04.710	$GPGGA,110305,2450.6376,N,08021.3534,W,1,7,2.2,17,M,,M,,*5A
06/13/2014	11:03:05.692	$GPGGA,110306,2450.6369,N,08021.3538,W,1,7,2.2,16,M,,M,,*5A
06/13/2014	11:03:06.699	$GPGGA,110307,2450.6362,N,08021.3544,W,1,7,2.2,16,M,,M,,*5B
06/13/2014	11:03:07.735	$GPGGA,110308,2450.6357,N,08021.3552,W,1,7,2.2,16,M,,M,,*55
06/13/2014	11:03:08.843	$GPGGA,110309,2450.6352,N,08021.3559,W,1,7,2.2,16,M,,M,,*5A
06/13/2014	11:03:09.728	$GPGGA,110310,2450.6344,N,08021.3563,W,1,7,1.9,16,M,,M,,*54
06/13/2014	11:03:10.715	$GPGGA,110311,2450.6337,N,08021.3569,W,1,8,1.9,16,M,,M,,*54
06/13/2014	11:03:11.860	$GPGGA,110312,2450.6333,N,08021.3577,W,1,8,2.2,16,M,,M,,*54
06/13/2014	11:03:12.728	$GPGGA,110313,2450.6327,N,08021.3584,W,1,8,1.9,16,M,,M,,*54
06/13/2014	11:03:13.744	$GPGGA,110314,2450.6319,N,08021.3588,W,1,8,2.2,16,M,,M,,*5A
06/13/2014	11:03:14.841	$GPGGA,110315,2450.6313,N,08021.3595,W,1,7,2.2,16,M,,M,,*52
06/13/2014	11:03:15.768	$GPGGA,110316,2450.6308,N,08021.3602,W,1,7,2.2,16,M,,M,,*56
06/13/2014	11:03:16.753	$GPGGA,110317,2450.6301,N,08021.3607,W,1,7,2.2,16,M,,M,,*5B
06/13/2014	11:03:17.850	$GPGGA,110318,2450.6295,N,08021.3613,W,1,7,2.2,16,M,,M,,*5D
06/13/2014	11:03:18.856	$GPGGA,110319,2450.6290,N,08021.3618,W,1,8,1.9,16,M,,M,,*55
06/13/2014	11:03:19.863	$GPGGA,110320,2450.6283,N,08021.3624,W,1,8,2.2,16,M,,M,,*5A
06/13/2014	11:03:20.889	$GPGGA,110321,2450.6276,N,08021.3631,W,1,7,2.2,16,M,,M,,*5A
06/13/2014	11:03:21.866	$GPGGA,110322,2450.6270,N,08021.3638,W,1,7,2.2,16,M,,M,,*56
06/13/2014	11:03:22.892	$GPGGA,110323,2450.6264,N,08021.3643,W,1,7,2.2,16,M,,M,,*5E
06/13/2014	11:03:23.889	$GPGGA,110324,2450.6258,N,08021.3650,W,1,7,2.2,16,M,,M,,*54
06/13/2014	11:03:24.895	$GPGGA,110325,2450.6251,N,08021.3656,W,1,7,2.2,16,M,,M,,*5A
06/13/2014	11:03:25.882	$GPGGA,110326,2450.6245,N,08021.3663,W,1,7,2.2,16,M,,M,,*5A
06/13/2014	11:03:26.888	$GPGGA,110327,2450.6244,N,08021.3667,W,1,7,2.2,16,M,,M,,*5E
06/13/2014	11:03:27.915	$GPGGA,110328,2450.6237,N,08021.3674,W,1,7,1.9,16,M,,M,,*5F
06/13/2014	11:03:28.911	$GPGGA,110329,2450.6232,N,08021.3681,W,1,7,2.2,16,M,,M,,*59
06/13/2014	11:03:29.908	$GPGGA,110330,2450.6223,N,08021.3688,W,1,7,2.2,16,M,,M,,*58
06/13/2014	11:03:30.924	$GPGGA,110331,2450.6216,N,08021.3693,W,1,7,2.2,16,M,,M,,*55
06/13/2014	11:03:31.921	$GPGGA,110332,2450.6210,N,08021.3699,W,1,7,2.2,16,M,,M,,*5A
06/13/2014	11:03:32.937	$GPGGA,110333,2450.6205,N,08021.3707,W,1,7,2.2,16,M,,M,,*59
06/13/2014	11:03:33.933	$GPGGA,110334,2450.6198,N,08021.3714,W,1,7,2.2,16,M,,M,,*5B
06/13/2014	11:03:34.929	$GPGGA,110335,2450.6192,N,08021.3719,W,1,8,1.9,16,M,,M,,*5A
06/13/2014	11:03:35.956	$GPGGA,110336,2450.6187,N,08021.3725,W,1,8,1.9,16,M,,M,,*52
06/13/2014	11:03:36.932	$GPGGA,110337,2450.6185,N,08021.3732,W,1,8,1.9,16,M,,M,,*57
06/13/2014	11:03:37.949	$GPGGA,110338,2450.6179,N,08021.3737,W,1,8,1.9,16,M,,M,,*5E
06/13/2014	11:03:38.955	$GPGGA,110339,2450.6174,N,08021.3743,W,1,8,1.9,16,M,,M,,*51
06/13/2014	11:03:39.962	$GPGGA,110340,2450.6169,N,08021.3750,W,1,8,1.9,16,M,,M,,*51
06/13/2014	11:03:40.948	$GPGGA,110341,2450.6165,N,08021.3757,W,1,8,1.9,16,M,,M,,*5B
06/13/2014	11:03:41.964	$GPGGA,110342,2450.6158,N,08021.3764,W,1,8,1.9,16,M,,M,,*56
06/13/2014	11:03:42.991	$GPGGA,110343,2450.6152,N,08021.3768,W,1,7,2.2,16,M,,M,,*56
06/13/2014	11:03:43.977	$GPGGA,110344,2450.6147,N,08021.3776,W,1,7,1.9,17,M,,M,,*53
06/13/2014	11:03:44.994	$GPGGA,110345,2450.6142,N,08021.3786,W,1,8,1.9,17,M,,M,,*57
06/13/2014	11:03:45.971	$GPGGA,110346,2450.6136,N,08021.3793,W,1,8,1.9,17,M,,M,,*53
06/13/2014	11:03:46.997	$GPGGA,110347,2450.6128,N,08021.3798,W,1,8,1.9,17,M,,M,,*56
06/13/2014	11:03:47.519	$GPGGA,110348,2450.6122,N,08021.3804,W,1,8,2.2,17,M,,M,,*51
06/13/2014	11:03:48.498	$GPGGA,110349,2450.6118,N,08021.3812,W,1,8,1.9,17,M,,M,,*56
06/13/2014	11:03:49.623	$GPGGA,110350,2450.6113,N,08021.3820,W,1,8,1.9,17,M,,M,,*54
06/13/2014	11:03:50.534	$GPGGA,110351,2450.6106,N,08021.3826,W,1,8,1.9,17,M,,M,,*57
06/13/2014	11:03:51.537	$GPGGA,110352,2450.6099,N,08021.3833,W,1,8,1.9,17,M,,M,,*57
06/13/2014	11:03:52.549	$GPGGA,110353,2450.6095,N,08021.3841,W,1,8,1.9,17,M,,M,,*5F
06/13/2014	11:03:53.517	$GPGGA,110354,2450.6089,N,08021.3848,W,1,8,1.9,17,M,,M,,*5C
06/13/2014	11:03:54.524	$GPGGA,110355,2450.6084,N,08021.3855,W,1,8,1.9,17,M,,M,,*5C
06/13/2014	11:03:55.671	$GPGGA,110356,2450.6077,N,08021.3862,W,1,8,2.7,17,M,,M,,*5A
06/13/2014	11:03:56.659	$GPGGA,110357,2450.6073,N,08021.3869,W,1,7,1.9,17,M,,M,,*56
06/13/2014	11:03:57.634	$GPGGA,110358,2450.6069,N,08021.3876,W,1,7,1.9,17,M,,M,,*5C
06/13/2014	11:03:58.650	$GPGGA,110359,2450.6063,N,08021.3884,W,1,8,1.9,17,M,,M,,*55
06/13/2014	11:03:59.697	$GPGGA,110400,2450.6056,N,08021.3889,W,1,8,1.9,17,M,,M,,*55
06/13/2014	11:04:00.683	$GPGGA,110401,2450.6052,N,08021.3898,W,1,8,1.9,17,M,,M,,*50
06/13/2014	11:04:01.670	$GPGGA,110402,2450.6048,N,08021.3906,W,1,8,1.9,17,M,,M,,*5E
06/13/2014	11:04:02.686	$GPGGA,110403,2450.6040,N,08021.3912,W,1,8,1.9,17,M,,M,,*52
06/13/2014	11:04:03.683	$GPGGA,110404,2450.6035,N,08021.3917,W,1,8,1.9,17,M,,M,,*52
06/13/2014	11:04:04.699	$GPGGA,110405,2450.6031,N,08021.3927,W,1,8,1.9,17,M,,M,,*54
06/13/2014	11:04:05.676	$GPGGA,110406,2450.6026,N,08021.3934,W,1,8,1.9,17,M,,M,,*53
06/13/2014	11:04:06.702	$GPGGA,110407,2450.6017,N,08021.3941,W,1,8,2.2,17,M,,M,,*5A
06/13/2014	11:04:07.721	$GPGGA,110408,2450.6010,N,08021.3946,W,1,8,2.2,17,M,,M,,*55
06/13/2014	11:04:08.684	$GPGGA,110409,2450.6004,N,08021.3954,W,1,7,2.2,17,M,,M,,*5D
06/13/2014	11:04:09.702	$GPGGA,110410,2450.6001,N,08021.3961,W,1,7,1.9,17,M,,M,,*5E
06/13/2014	11:04:10.707	$GPGGA,110411,2450.5994,N,08021.3968,W,1,8,2.2,17,M,,M,,*57
06/13/2014	11:04:11.714	$GPGGA,110412,2450.5986,N,08021.3974,W,1,8,2.2,17,M,,M,,*5A
06/13/2014	11:04:12.740	$GPGGA,110413,2450.5980,N,08021.3981,W,1,7,2.2,17,M,,M,,*58
06/13/2014	11:04:13.707	$GPGGA,110414,2450.5974,N,08021.3988,W,1,7,3.0,17,M,,M,,*5E
06/13/2014	11:04:14.733	$GPGGA,110415,2450.5967,N,08021.3993,W,1,6,2.2,17,M,,M,,*55
06/13/2014	11:04:15.740	$GPGGA,110416,2450.5965,N,08021.3999,W,1,6,1.9,17,M,,M,,*56
06/13/2014	11:04:16.726	$GPGGA,110417,2450.5961,N,08021.4004,W,1,8,1.9,17,M,,M,,*57
06/13/2014	11:04:17.733	$GPGGA,110418,2450.5952,N,08021.4010,W,1,8,2.2,17,M,,M,,*55
06/13/2014	11:04:18.749	$GPGGA,110419,2450.5945,N,08021.4017,W,1,7,2.2,17,M,,M,,*5A
06/13/2014	11:04:19.756	$GPGGA,110420,2450.5941,N,08021.4024,W,1,7,1.9,17,M,,M,,*5C
06/13/2014	11:04:20.782	$GPGGA,110421,2450.5937,N,08021.4028,W,1,8,1.9,17,M,,M,,*5F
06/13/2014	11:04:21.748	$GPGGA,110422,2450.5930,N,08021.4032,W,1,8,1.9,17,M,,M,,*50
06/13/2014	11:04:22.785	$GPGGA,110423,2450.5925,N,08021.4039,W,1,8,2.7,17,M,,M,,*53
06/13/2014	11:04:23.792	$GPGGA,110424,2450.5918,N,08021.4046,W,1,8,2.2,17,M,,M,,*57
06/13/2014	11:04:24.750	$GPGGA,110425,2450.5910,N,08021.4051,W,1,7,2.2,17,M,,M,,*57
06/13/2014	11:04:25.785	$GPGGA,110426,2450.5902,N,08021.4055,W,1,7,1.9,17,M,,M,,*5B
06/13/2014	11:04:26.765	$GPGGA,110427,2450.5896,N,08021.4061,W,1,8,2.2,17,M,,M,,*56
06/13/2014	11:04:27.818	$GPGGA,110428,2450.5892,N,08021.4068,W,1,8,1.9,17,M,,M,,*5C
06/13/2014	11:04:28.813	$GPGGA,110429,2450.5889,N,08021.4075,W,1,8,1.9,17,M,,M,,*5B
06/13/2014	11:04:29.784	$GPGGA,110430,2450.5880,N,08021.4079,W,1,8,1.9,17,M,,M,,*56
06/13/2014	11:04:30.796	$GPGGA,110431,2450.5873,N,08021.4084,W,1,8,1.9,18,M,,M,,*56
06/13/2014	11:04:31.823	$GPGGA,110432,2450.5868,N,08021.4093,W,1,8,1.9,18,M,,M,,*59
06/13/2014	11:04:32.806	$GPGGA,110433,2450.5861,N,08021.4098,W,1,8,1.9,18,M,,M,,*5A
06/13/2014	11:04:33.815	$GPGGA,110434,2450.5853,N,08021.4102,W,1,8,1.9,18,M,,M,,*5E
06/13/2014	11:04:34.923	$GPGGA,110435,2450.5849,N,08021.4108,W,1,8,2.7,18,M,,M,,*53
06/13/2014	11:04:35.823	$GPGGA,110436,2450.5843,N,08021.4116,W,1,8,3.0,18,M,,M,,*53
06/13/2014	11:04:36.926	$GPGGA,110437,2450.5835,N,08021.4122,W,1,6,2.2,18,M,,M,,*59
06/13/2014	11:04:37.815	$GPGGA,110438,2450.5829,N,08021.4127,W,1,6,2.2,18,M,,M,,*5E
06/13/2014	11:04:38.808	$GPGGA,110439,2450.5822,N,08021.4136,W,1,7,1.9,18,M,,M,,*5D
06/13/2014	11:04:39.848	$GPGGA,110440,2450.5815,N,08021.4141,W,1,7,2.2,18,M,,M,,*5F
06/13/2014	11:04:40.822	$GPGGA,110441,2450.5808,N,08021.4147,W,1,7,2.2,18,M,,M,,*54
06/13/2014	11:04:41.953	$GPGGA,110442,2450.5802,N,08021.4152,W,1,7,2.2,18,M,,M,,*59
06/13/2014	11:04:42.975	$GPGGA,110443,2450.5795,N,08021.4159,W,1,7,1.9,18,M,,M,,*5A
06/13/2014	11:04:43.874	$GPGGA,110444,2450.5788,N,08021.4165,W,1,7,2.2,18,M,,M,,*56
06/13/2014	11:04:44.856	$GPGGA,110445,2450.5781,N,08021.4170,W,1,7,2.2,18,M,,M,,*5A
06/13/2014	11:04:45.964	$GPGGA,110446,2450.5777,N,08021.4177,W,1,7,2.2,18,M,,M,,*57
06/13/2014	11:04:46.949	$GPGGA,110447,2450.5771,N,08021.4184,W,1,7,1.9,18,M,,M,,*54
06/13/2014	11:04:47.509	$GPGGA,110448,2450.5764,N,08021.4189,W,1,7,1.9,18,M,,M,,*52
06/13/2014	11:04:48.484	$GPGGA,110449,2450.5757,N,08021.4195,W,1,8,1.9,18,M,,M,,*51
06/13/2014	11:04:49.571	$GPGGA,110450,2450.5753,N,08021.4202,W,1,8,1.9,17,M,,M,,*5F
06/13/2014	11:04:50.587	$GPGGA,110451,2450.5748,N,08021.4209,W,1,8,1.9,17,M,,M,,*5F
06/13/2014	11:04:51.594	$GPGGA,110452,2450.5742,N,08021.4214,W,1,8,1.9,17,M,,M,,*5A
06/13/2014	11:04:52.590	$GPGGA,110453,2450.5737,N,08021.4221,W,1,8,1.9,17,M,,M,,*5F
06/13/2014	11:04:53.597	$GPGGA,110454,2450.5732,N,08021.4228,W,1,8,1.9,17,M,,M,,*54
06/13/2014	11:04:54.613	$GPGGA,110455,2450.5728,N,08021.4236,W,1,7,2.2,17,M,,M,,*56
06/13/2014	11:04:55.620	$GPGGA,110456,2450.5723,N,08021.4243,W,1,7,2.2,17,M,,M,,*5C
06/13/2014	11:04:56.626	$GPGGA,110457,2450.5717,N,08021.4249,W,1,7,2.2,17,M,,M,,*50
06/13/2014	11:04:57.613	$GPGGA,110458,2450.5713,N,08021.4256,W,1,7,2.2,17,M,,M,,*55
06/13/2014	11:04:58.639	$GPGGA,110459,2450.5709,N,08021.4264,W,1,8,1.9,17,M,,M,,*59
06/13/2014	11:04:59.646	$GPGGA,110500,2450.5703,N,08021.4270,W,1,8,1.9,17,M,,M,,*5B
06/13/2014	11:05:00.642	$GPGGA,110501,2450.5697,N,08021.4274,W,1,8,1.9,17,M,,M,,*52
06/13/2014	11:05:01.638	$GPGGA,110502,2450.5691,N,08021.4281,W,1,8,1.9,17,M,,M,,*5D
06/13/2014	11:05:02.655	$GPGGA,110503,2450.5687,N,08021.4290,W,1,8,1.9,17,M,,M,,*5B
06/13/2014	11:05:03.651	$GPGGA,110504,2450.5681,N,08021.4297,W,1,8,1.9,17,M,,M,,*5D
06/13/2014	11:05:04.667	$GPGGA,110505,2450.5674,N,08021.4303,W,1,8,1.9,17,M,,M,,*5A
06/13/2014	11:05:05.643	$GPGGA,110506,2450.5668,N,08021.4308,W,1,8,1.9,17,M,,M,,*5F
06/13/2014	11:05:06.690	$GPGGA,110507,2450.5665,N,08021.4317,W,1,8,1.9,16,M,,M,,*5C
06/13/2014	11:05:07.677	$GPGGA,110508,2450.5658,N,08021.4324,W,1,8,1.9,16,M,,M,,*5D
06/13/2014	11:05:08.693	$GPGGA,110509,2450.5650,N,08021.4328,W,1,8,1.9,16,M,,M,,*58
06/13/2014	11:05:09.669	$GPGGA,110510,2450.5643,N,08021.4335,W,1,8,2.2,16,M,,M,,*56
06/13/2014	11:05:10.706	$GPGGA,110511,2450.5638,N,08021.4342,W,1,7,2.2,16,M,,M,,*54
06/13/2014	11:05:11.693	$GPGGA,110512,2450.5632,N,08021.4350,W,1,7,2.2,16,M,,M,,*5E
06/13/2014	11:05:12.689	$GPGGA,110513,2450.5625,N,08021.4355,W,1,7,2.2,16,M,,M,,*5C
06/13/2014	11:05:13.685	$GPGGA,110514,2450.5622,N,08021.4361,W,1,7,2.2,16,M,,M,,*5B
06/13/2014	11:05:14.722	$GPGGA,110515,2450.5616,N,08021.4366,W,1,8,1.9,16,M,,M,,*5D
06/13/2014	11:05:15.708	$GPGGA,110516,2450.5611,N,08021.4372,W,1,8,2.2,16,M,,M,,*54
06/13/2014	11:05:16.695	$GPGGA,110517,2450.5603,N,08021.4379,W,1,7,2.2,16,M,,M,,*52
06/13/2014	11:05:17.711	$GPGGA,110518,2450.5597,N,08021.4386,W,1,7,2.2,16,M,,M,,*53
06/13/2014	11:05:18.727	$GPGGA,110519,2450.5590,N,08021.4393,W,1,7,2.2,16,M,,M,,*51
06/13/2014	11:05:19.723	$GPGGA,110520,2450.5584,N,08021.4400,W,1,7,2.2,16,M,,M,,*53
06/13/2014	11:05:20.885	$GPGGA,110521,2450.5579,N,08021.4407,W,1,7,2.2,16,M,,M,,*57
06/13/2014	11:05:21.852	$GPGGA,110522,2450.5574,N,08021.4411,W,1,7,2.2,16,M,,M,,*5E
06/13/2014	11:05:22.952	$GPGGA,110523,2450.5571,N,08021.4416,W,1,8,1.9,16,M,,M,,*5A
06/13/2014	11:05:24.156	$GPGGA,110524,2450.5566,N,08021.4423,W,1,8,1.9,16,M,,M,,*5D
06/13/2014	11:05:25.235	$GPGGA,110525,2450.5562,N,08021.4430,W,1,8,1.9,16,M,,M,,*5A
06/13/2014	11:05:26.190	$GPGGA,110526,2450.5556,N,08021.4436,W,1,8,1.9,16,M,,M,,*58
06/13/2014	11:05:27.287	$GPGGA,110527,2450.5551,N,08021.4443,W,1,8,1.9,16,M,,M,,*5C
06/13/2014	11:05:28.504	$GPGGA,110528,2450.5547,N,08021.4448,W,1,8,2.7,16,M,,M,,*52
06/13/2014	11:05:29.450	$GPGGA,110529,2450.5543,N,08021.4454,W,1,8,1.9,16,M,,M,,*57
06/13/2014	11:05:30.635	$GPGGA,110530,2450.5537,N,08021.4460,W,1,8,1.9,16,M,,M,,*5B
06/13/2014	11:05:31.635	$GPGGA,110531,2450.5529,N,08021.4467,W,1,8,1.9,16,M,,M,,*52
06/13/2014	11:05:32.711	$GPGGA,110532,2450.5522,N,08021.4474,W,1,8,2.2,16,M,,M,,*50
06/13/2014	11:05:33.788	$GPGGA,110533,2450.5519,N,08021.4481,W,1,7,2.2,17,M,,M,,*5D
06/13/2014	11:05:34.972	$GPGGA,110534,2450.5509,N,08021.4490,W,1,7,1.9,17,M,,M,,*53
06/13/2014	11:05:36.059	$GPGGA,110535,2450.5502,N,08021.4496,W,1,8,1.9,17,M,,M,,*50
06/13/2014	11:05:37.059	$GPGGA,110536,2450.5496,N,08021.4503,W,1,8,2.2,17,M,,M,,*5A
06/13/2014	11:05:38.267	$GPGGA,110537,2450.5489,N,08021.4510,W,1,7,2.2,17,M,,M,,*58
06/13/2014	11:05:39.308	$GPGGA,110538,2450.5481,N,08021.4516,W,1,7,2.2,17,M,,M,,*59
06/13/2014	11:05:40.406	$GPGGA,110539,2450.5477,N,08021.4525,W,1,7,2.2,17,M,,M,,*51
06/13/2014	11:05:41.504	$GPGGA,110540,2450.5471,N,08021.4532,W,1,7,1.9,17,M,,M,,*57
06/13/2014	11:05:42.580	$GPGGA,110541,2450.5464,N,08021.4538,W,1,8,1.9,17,M,,M,,*57
06/13/2014	11:05:43.656	$GPGGA,110542,2450.5459,N,08021.4543,W,1,8,1.9,17,M,,M,,*56
06/13/2014	11:05:44.732	$GPGGA,110543,2450.5456,N,08021.4553,W,1,8,1.9,17,M,,M,,*59
06/13/2014	11:05:45.841	$GPGGA,110544,2450.5450,N,08021.4560,W,1,8,1.9,17,M,,M,,*58
06/13/2014	11:05:46.928	$GPGGA,110545,2450.5441,N,08021.4566,W,1,8,1.9,17,M,,M,,*5F
06/13/2014	11:05:47.993	$GPGGA,110546,2450.5437,N,08021.4571,W,1,8,2.2,17,M,,M,,*53
06/13/2014	11:05:49.080	$GPGGA,110547,2450.5435,N,08021.4579,W,1,8,1.9,17,M,,M,,*50
06/13/2014	11:05:47.631	$GPGGA,110548,2450.5430,N,08021.4585,W,1,8,1.9,17,M,,M,,*59
06/13/2014	11:05:48.729	$GPGGA,110549,2450.5421,N,08021.4590,W,1,8,1.9,17,M,,M,,*5C
06/13/2014	11:05:49.795	$GPGGA,110550,2450.5414,N,08021.4597,W,1,8,2.2,17,M,,M,,*5D
06/13/2014	11:05:50.904	$GPGGA,110551,2450.5408,N,08021.4604,W,1,7,2.2,17,M,,M,,*57
06/13/2014	11:05:51.979	$GPGGA,110552,2450.5403,N,08021.4611,W,1,7,2.2,17,M,,M,,*5B
06/13/2014	11:05:53.034	$GPGGA,110553,2450.5397,N,08021.4617,W,1,8,1.9,17,M,,M,,*51
06/13/2014	11:05:54.131	$GPGGA,110554,2450.5389,N,08021.4624,W,1,8,2.2,17,M,,M,,*51
06/13/2014	11:05:55.239	$GPGGA,110555,2450.5383,N,08021.4631,W,1,7,2.2,17,M,,M,,*51
06/13/2014	11:05:56.316	$GPGGA,110556,2450.5376,N,08021.4637,W,1,7,2.2,17,M,,M,,*5E
06/13/2014	11:05:57.370	$GPGGA,110557,2450.5372,N,08021.4643,W,1,7,2.2,17,M,,M,,*58
06/13/2014	11:05:58.468	$GPGGA,110558,2450.5365,N,08021.4650,W,1,7,1.9,17,M,,M,,*5B
06/13/2014	11:05:59.587	$GPGGA,110559,2450.5359,N,08021.4655,W,1,7,2.2,17,M,,M,,*58
06/13/2014	11:06:00.664	$GPGGA,110600,2450.5352,N,08021.4662,W,1,7,1.9,17,M,,M,,*50
06/13/2014	11:06:01.751	$GPGGA,110601,2450.5347,N,08021.4668,W,1,7,2.2,17,M,,M,,*57
06/13/2014	11:06:02.805	$GPGGA,110602,2450.5340,N,08021.4676,W,1,7,2.2,17,M,,M,,*5C
06/13/2014	11:06:03.881	$GPGGA,110603,2450.5334,N,08021.4682,W,1,8,1.9,17,M,,M,,*52
06/13/2014	11:06:04.990	$GPGGA,110604,2450.5327,N,08021.4689,W,1,8,1.9,17,M,,M,,*5C
06/13/2014	11:06:06.077	$GPGGA,110605,2450.5322,N,08021.4696,W,1,7,2.2,17,M,,M,,*51
06/13/2014	11:06:07.153	$GPGGA,110606,2450.5318,N,08021.4701,W,1,7,2.2,17,M,,M,,*54
06/13/2014	11:06:08.220	$GPGGA,110607,2450.5309,N,08021.4707,W,1,8,1.9,16,M,,M,,*55
06/13/2014	11:06:09.338	$GPGGA,110608,2450.5303,N,08021.4715,W,1,8,2.2,16,M,,M,,*5B
06/13/2014	11:06:10.436	$GPGGA,110609,2450.5297,N,08021.4722,W,1,7,2.2,16,M,,M,,*5D
06/13/2014	11:06:11.481	$GPGGA,110610,2450.5293,N,08021.4726,W,1,7,1.9,16,M,,M,,*5D
06/13/2014	11:06:12.588	$GPGGA,110611,2450.5285,N,08021.4733,W,1,8,1.9,16,M,,M,,*50
06/13/2014	11:06:13.663	$GPGGA,110612,2450.5282,N,08021.4741,W,1,8,2.2,16,M,,M,,*59
06/13/2014	11:06:14.748	$GPGGA,110613,2450.5276,N,08021.4747,W,1,8,1.9,16,M,,M,,*5D
06/13/2014	11:06:15.837	$GPGGA,110614,2450.5268,N,08021.4752,W,1,8,1.9,16,M,,M,,*51
06/13/2014	11:06:17.045	$GPGGA,110615,2450.5261,N,08021.4759,W,1,7,2.2,16,M,,M,,*55
06/13/2014	11:06:18.000	$GPGGA,110616,2450.5257,N,08021.4766,W,1,7,2.2,16,M,,M,,*5F
06/13/2014	11:06:19.065	$GPGGA,110617,2450.5251,N,08021.4772,W,1,8,1.9,16,M,,M,,*5A
06/13/2014	11:06:20.261	$GPGGA,110618,2450.5246,N,08021.4777,W,1,8,1.9,16,M,,M,,*56
06/13/2014	11:06:21.261	$GPGGA,110619,2450.5239,N,08021.4783,W,1,8,1.9,16,M,,M,,*54
06/13/2014	11:06:22.435	$GPGGA,110620,2450.5235,N,08021.4792,W,1,8,2.2,16,M,,M,,*5A
06/13/2014	11:06:23.522	$GPGGA,110621,2450.5228,N,08021.4798,W,1,8,1.9,16,M,,M,,*55
06/13/2014	11:06:24.500	$GPGGA,110622,2450.5221,N,08021.4802,W,1,8,1.9,16,M,,M,,*53
06/13/2014	11:06:25.587	$GPGGA,110623,2450.5217,N,08021.4810,W,1,8,1.9,16,M,,M,,*54
06/13/2014	11:06:26.805	$GPGGA,110624,2450.5213,N,08021.4816,W,1,8,2.7,16,M,,M,,*5C
06/13/2014	11:06:27.750	$GPGGA,110625,2450.5206,N,08021.4823,W,1,8,1.9,16,M,,M,,*52
06/13/2014	11:06:28.839	$GPGGA,110626,2450.5197,N,08021.4828,W,1,8,2.2,16,M,,M,,*59
06/13/2014	11:06:30.057	$GPGGA,110627,2450.5191,N,08021.4835,W,1,7,2.2,16,M,,M,,*5D
06/13/2014	11:06:31.131	$GPGGA,110628,2450.5186,N,08021.4841,W,1,7,2.2,16,M,,M,,*57
06/13/2014	11:06:32.217	$GPGGA,110629,2450.5181,N,08021.4848,W,1,8,1.9,16,M,,M,,*5F
06/13/2014	11:06:33.293	$GPGGA,110630,2450.5175,N,08021.4853,W,1,8,1.9,16,M,,M,,*56
06/13/2014	11:06:34.391	$GPGGA,110631,2450.5168,N,08021.4859,W,1,8,1.9,16,M,,M,,*51
06/13/2014	11:06:35.467	$GPGGA,110632,2450.5163,N,08021.4867,W,1,8,2.2,16,M,,M,,*5C
06/13/2014	11:06:36.554	$GPGGA,110633,2450.5157,N,08021.4874,W,1,8,1.9,16,M,,M,,*50
06/13/2014	11:06:37.619	$GPGGA,110634,2450.5150,N,08021.4878,W,1,8,1.9,16,M,,M,,*5C
06/13/2014	11:06:38.728	$GPGGA,110635,2450.5143,N,08021.4885,W,1,8,1.9,16,M,,M,,*5D
06/13/2014	11:06:39.793	$GPGGA,110636,2450.5141,N,08021.4892,W,1,8,2.2,16,M,,M,,*52
06/13/2014	11:06:40.891	$GPGGA,110637,2450.5134,N,08021.4899,W,1,8,1.9,16,M,,M,,*52
06/13/2014	11:06:41.968	$GPGGA,110638,2450.5127,N,08021.4904,W,1,8,1.9,16,M,,M,,*5A
06/13/2014	11:06:43.054	$GPGGA,110639,2450.5123,N,08021.4910,W,1,8,1.9,16,M,,M,,*5A
06/13/2014	11:06:44.141	$GPGGA,110640,2450.5117,N,08021.4918,W,1,8,1.9,17,M,,M,,*5A
06/13/2014	11:06:45.217	$GPGGA,110641,2450.5112,N,08021.4924,W,1,8,1.9,17,M,,M,,*51
06/13/2014	11:06:46.304	$GPGGA,110642,2450.5103,N,08021.4929,W,1,8,1.9,17,M,,M,,*5F
06/13/2014	11:06:47.381	$GPGGA,110643,2450.5098,N,08021.4938,W,1,7,2.2,17,M,,M,,*5A
06/13/2014	11:06:48.478	$GPGGA,110644,2450.5094,N,08021.4944,W,1,7,1.9,17,M,,M,,*52
06/13/2014	11:06:49.587	$GPGGA,110645,2450.5085,N,08021.4950,W,1,8,1.9,17,M,,M,,*59
06/13/2014	11:06:50.643	$GPGGA,110646,2450.5079,N,08021.4957,W,1,8,1.9,17,M,,M,,*5E
06/13/2014	11:06:51.717	$GPGGA,110647,2450.5074,N,08021.4965,W,1,8,1.9,17,M,,M,,*53
06/13/2014	11:06:47.608	$GPGGA,110648,2450.5069,N,08021.4971,W,1,8,1.9,17,M,,M,,*55
06/13/2014	11:06:48.663	$GPGGA,110649,2450.5060,N,08021.4976,W,1,8,1.9,17,M,,M,,*5A
06/13/2014	11:06:49.761	$GPGGA,110650,2450.5058,N,08021.4986,W,1,8,2.2,17,M,,M,,*5E
06/13/2014	11:06:50.848	$GPGGA,110651,2450.5051,N,08021.4993,W,1,7,2.7,17,M,,M,,*58
06/13/2014	11:06:51.946	$GPGGA,110652,2450.5042,N,08021.4996,W,1,7,1.9,18,M,,M,,*5E
06/13/2014	11:06:53.033	$GPGGA,110653,2450.5038,N,08021.5005,W,1,7,2.2,18,M,,M,,*58
06/13/2014	11:06:54.107	$GPGGA,110654,2450.5034,N,08021.5012,W,1,7,1.9,18,M,,M,,*5D
06/13/2014	11:06:55.186	$GPGGA,110655,2450.5029,N,08021.5018,W,1,8,1.9,18,M,,M,,*55
06/13/2014	11:06:56.468	$GPGGA,110656,2450.5023,N,08021.5023,W,1,8,1.9,18,M,,M,,*54
06/13/2014	11:06:57.361	$GPGGA,110657,2450.5018,N,08021.5032,W,1,8,1.9,18,M,,M,,*5D
06/13/2014	11:06:58.427	$GPGGA,110658,2450.5012,N,08021.5038,W,1,8,1.9,18,M,,M,,*52
06/13/2014	11:06:59.531	$GPGGA,110659,2450.5006,N,08021.5043,W,1,8,1.9,18,M,,M,,*5A
06/13/2014	11:07:00.805	$GPGGA,110700,2450.5002,N,08021.5051,W,1,8,1.9,19,M,,M,,*51
06/13/2014	11:07:01.685	$GPGGA,110701,2450.4995,N,08021.5058,W,1,8,1.9,19,M,,M,,*5F
06/13/2014	11:07:02.785	$GPGGA,110702,2450.4988,N,08021.5065,W,1,8,1.9,19,M,,M,,*5E
06/13/2014	11:07:04.022	$GPGGA,110703,2450.4986,N,08021.5072,W,1,7,1.9,19,M,,M,,*58
06/13/2014	11:07:04.967	$GPGGA,110704,2450.4979,N,08021.5077,W,1,7,1.9,19,M,,M,,*5A
06/13/2014	11:07:06.130	$GPGGA,110705,2450.4972,N,08021.5083,W,1,8,1.9,19,M,,M,,*54
06/13/2014	11:07:07.119	$GPGGA,110706,2450.4971,N,08021.5090,W,1,8,2.2,19,M,,M,,*5E
06/13/2014	11:07:08.206	$GPGGA,110707,2450.4964,N,08021.5099,W,1,8,1.9,19,M,,M,,*5A
06/13/2014	11:07:09.478	$GPGGA,110708,2450.4955,N,08021.5105,W,1,8,1.9,20,M,,M,,*59
06/13/2014	11:07:10.380	$GPGGA,110709,2450.4947,N,08021.5110,W,1,7,2.2,20,M,,M,,*58
06/13/2014	11:07:11.565	$GPGGA,110710,2450.4943,N,08021.5119,W,1,7,2.2,20,M,,M,,*5D
06/13/2014	11:07:12.641	$GPGGA,110711,2450.4937,N,08021.5126,W,1,8,1.9,20,M,,M,,*54
06/13/2014	11:07:13.740	$GPGGA,110712,2450.4929,N,08021.5130,W,1,8,1.9,20,M,,M,,*5F
06/13/2014	11:07:14.804	$GPGGA,110713,2450.4926,N,08021.5134,W,1,7,2.2,20,M,,M,,*52
06/13/2014	11:07:15.891	$GPGGA,110714,2450.4922,N,08021.5141,W,1,7,1.9,20,M,,M,,*5B
06/13/2014	11:07:17.011	$GPGGA,110715,2450.4917,N,08021.5149,W,1,8,1.9,20,M,,M,,*5B
06/13/2014	11:07:18.159	$GPGGA,110716,2450.4908,N,08021.5153,W,1,8,1.9,20,M,,M,,*5D
06/13/2014	11:07:19.185	$GPGGA,110717,2450.4902,N,08021.5159,W,1,8,1.9,20,M,,M,,*5C
06/13/2014	11:07:20.304	$GPGGA,110718,2450.4899,N,08021.5166,W,1,8,1.9,20,M,,M,,*5C
06/13/2014	11:07:21.361	$GPGGA,110719,2450.4892,N,08021.5173,W,1,8,1.9,20,M,,M,,*52
06/13/2014	11:07:22.413	$GPGGA,110720,2450.4882,N,08021.5177,W,1,8,1.9,20,M,,M,,*5D
06/13/2014	11:07:23.556	$GPGGA,110721,2450.4876,N,08021.5184,W,1,7,2.2,20,M,,M,,*5C
06/13/2014	11:07:24.575	$GPGGA,110722,2450.4874,N,08021.5191,W,1,7,2.2,20,M,,M,,*59
06/13/2014	11:07:25.706	$GPGGA,110723,2450.4865,N,08021.5196,W,1,8,2.2,20,M,,M,,*50
06/13/2014	11:07:26.847	$GPGGA,110724,2450.4857,N,08021.5200,W,1,8,2.2,20,M,,M,,*5A
06/13/2014	11:07:27.870	$GPGGA,110725,2450.4850,N,08021.5209,W,1,7,1.9,20,M,,M,,*52
06/13/2014	11:07:28.988	$GPGGA,110726,2450.4847,N,08021.5215,W,1,7,1.9,20,M,,M,,*5A
06/13/2014	11:07:30.043	$GPGGA,110727,2450.4838,N,08021.5220,W,1,8,1.9,20,M,,M,,*5A
06/13/2014	11:07:31.160	$GPGGA,110728,2450.4835,N,08021.5224,W,1,8,1.9,19,M,,M,,*56
06/13/2014	11:07:32.271	$GPGGA,110729,2450.4830,N,08021.5231,W,1,8,2.2,19,M,,M,,*5E
06/13/2014	11:07:33.326	$GPGGA,110730,2450.4827,N,08021.5236,W,1,8,2.2,19,M,,M,,*57
06/13/2014	11:07:34.391	$GPGGA,110731,2450.4820,N,08021.5242,W,1,8,1.9,19,M,,M,,*5A
06/13/2014	11:07:35.518	$GPGGA,110732,2450.4816,N,08021.5249,W,1,8,1.9,19,M,,M,,*57
06/13/2014	11:07:36.565	$GPGGA,110733,2450.4810,N,08021.5254,W,1,8,1.9,19,M,,M,,*5C
06/13/2014	11:07:37.641	$GPGGA,110734,2450.4805,N,08021.5260,W,1,8,1.9,19,M,,M,,*58
06/13/2014	11:07:38.706	$GPGGA,110735,2450.4799,N,08021.5267,W,1,8,1.9,19,M,,M,,*54
06/13/2014	11:07:39.848	$GPGGA,110736,2450.4794,N,08021.5274,W,1,8,1.9,19,M,,M,,*58
06/13/2014	11:07:40.902	$GPGGA,110737,2450.4788,N,08021.5279,W,1,8,1.9,19,M,,M,,*59
06/13/2014	11:07:41.990	$GPGGA,110738,2450.4783,N,08021.5286,W,1,8,1.9,19,M,,M,,*5D
06/13/2014	11:07:43.053	$GPGGA,110739,2450.4776,N,08021.5293,W,1,8,1.9,19,M,,M,,*52
06/13/2014	11:07:44.173	$GPGGA,110740,2450.4772,N,08021.5300,W,1,8,1.9,19,M,,M,,*53
06/13/2014	11:07:45.303	$GPGGA,110741,2450.4766,N,08021.5307,W,1,7,1.9,19,M,,M,,*5F
06/13/2014	11:07:46.347	$GPGGA,110742,2450.4758,N,08021.5314,W,1,7,1.9,19,M,,M,,*53
06/13/2014	11:07:47.401	$GPGGA,110743,2450.4751,N,08021.5321,W,1,8,1.9,19,M,,M,,*52
06/13/2014	11:07:48.521	$GPGGA,110744,2450.4744,N,08021.5327,W,1,8,1.9,19,M,,M,,*57
06/13/2014	11:07:49.553	$GPGGA,110745,2450.4737,N,08021.5333,W,1,8,1.9,20,M,,M,,*5D
06/13/2014	11:07:50.673	$GPGGA,110746,2450.4729,N,08021.5340,W,1,8,1.9,20,M,,M,,*55
06/13/2014	11:07:51.825	$GPGGA,110747,2450.4723,N,08021.5347,W,1,8,1.9,20,M,,M,,*59
06/13/2014	11:07:47.629	$GPGGA,110748,2450.4716,N,08021.5354,W,1,8,1.9,20,M,,M,,*52
06/13/2014	11:07:48.705	$GPGGA,110749,2450.4709,N,08021.5359,W,1,8,1.9,20,M,,M,,*50
06/13/2014	11:07:49.803	$GPGGA,110750,2450.4704,N,08021.5368,W,1,8,1.9,20,M,,M,,*57
06/13/2014	11:07:50.814	$GPGGA,110751,2450.4698,N,08021.5374,W,1,8,1.9,20,M,,M,,*5F
06/13/2014	11:07:52.040	$GPGGA,110752,2450.4690,N,08021.5379,W,1,8,1.9,21,M,,M,,*58
06/13/2014	11:07:53.021	$GPGGA,110753,2450.4684,N,08021.5387,W,1,8,2.2,21,M,,M,,*55
06/13/2014	11:07:54.197	$GPGGA,110754,2450.4679,N,08021.5395,W,1,8,1.9,21,M,,M,,*5B
06/13/2014	11:07:55.227	$GPGGA,110755,2450.4671,N,08021.5401,W,1,8,2.2,21,M,,M,,*50
06/13/2014	11:07:56.357	$GPGGA,110756,2450.4664,N,08021.5406,W,1,8,2.2,21,M,,M,,*50
06/13/2014	11:07:57.498	$GPGGA,110757,2450.4660,N,08021.5415,W,1,7,1.9,21,M,,M,,*50
06/13/2014	11:07:58.520	$GPGGA,110758,2450.4655,N,08021.5421,W,1,7,1.9,21,M,,M,,*5E
06/13/2014	11:07:59.596	$GPGGA,110759,2450.4646,N,08021.5426,W,1,8,2.2,21,M,,M,,*5D
06/13/2014	11:08:00.731	$GPGGA,110800,2450.4641,N,08021.5433,W,1,8,2.2,21,M,,M,,*5D
06/13/2014	11:08:01.781	$GPGGA,110801,2450.4636,N,08021.5439,W,1,7,1.9,22,M,,M,,*52
06/13/2014	11:08:02.868	$GPGGA,110802,2450.4628,N,08021.5445,W,1,7,2.2,22,M,,M,,*5D
06/13/2014	11:08:03.984	$GPGGA,110803,2450.4623,N,08021.5452,W,1,7,1.9,22,M,,M,,*59
06/13/2014	11:08:05.042	$GPGGA,110804,2450.4619,N,08021.5457,W,1,7,1.9,22,M,,M,,*52
06/13/2014	11:08:06.107	$GPGGA,110805,2450.4613,N,08021.5463,W,1,8,1.9,22,M,,M,,*51
06/13/2014	11:08:07.194	$GPGGA,110806,2450.4606,N,08021.5470,W,1,8,2.2,22,M,,M,,*5C
06/13/2014	11:08:08.270	$GPGGA,110807,2450.4606,N,08021.5470,W,1,7,2.2,22,M,,M,,*52
06/13/2014	11:08:09.368	$GPGGA,110808,2450.4596,N,08021.5481,W,1,7,1.9,22,M,,M,,*51
06/13/2014	11:08:10.466	$GPGGA,110809,2450.4588,N,08021.5488,W,1,8,2.2,22,M,,M,,*51
06/13/2014	11:08:11.521	$GPGGA,110810,2450.4581,N,08021.5495,W,1,8,2.2,22,M,,M,,*5C
06/13/2014	11:08:12.629	$GPGGA,110811,2450.4576,N,08021.5503,W,1,7,1.9,22,M,,M,,*5C
06/13/2014	11:08:13.716	$GPGGA,110812,2450.4570,N,08021.5509,W,1,7,1.9,22,M,,M,,*53
06/13/2014	11:08:14.792	$GPGGA,110813,2450.4563,N,08021.5514,W,1,8,2.2,22,M,,M,,*5B
06/13/2014	11:08:15.878	$GPGGA,110814,2450.4563,N,08021.5514,W,1,8,2.2,22,M,,M,,*5C
06/13/2014	11:08:16.987	$GPGGA,110815,2450.4553,N,08021.5529,W,1,8,1.9,22,M,,M,,*58
06/13/2014	11:08:18.052	$GPGGA,110816,2450.4553,N,08021.5529,W,1,8,1.9,22,M,,M,,*5B
06/13/2014	11:08:19.150	$GPGGA,110817,2450.4539,N,08021.5542,W,1,7,2.2,22,M,,M,,*5C
06/13/2014	11:08:20.248	$GPGGA,110818,2450.4535,N,08021.5550,W,1,7,1.9,22,M,,M,,*54
06/13/2014	11:08:21.302	$GPGGA,110819,2450.4528,N,08021.5556,W,1,8,1.9,22,M,,M,,*50
06/13/2014	11:08:22.411	$GPGGA,110820,2450.4521,N,08021.5561,W,1,8,2.2,22,M,,M,,*5F
06/13/2014	11:08:23.476	$GPGGA,110821,2450.4518,N,08021.5568,W,1,7,2.2,22,M,,M,,*52
06/13/2014	11:08:24.585	$GPGGA,110822,2450.4518,N,08021.5568,W,1,7,1.9,22,M,,M,,*59
06/13/2014	11:08:25.672	$GPGGA,110823,2450.4509,N,08021.5582,W,1,8,1.9,22,M,,M,,*53
06/13/2014	11:08:26.726	$GPGGA,110824,2450.4509,N,08021.5582,W,1,8,1.9,22,M,,M,,*54
06/13/2014	11:08:27.802	$GPGGA,110825,2450.4495,N,08021.5594,W,1,8,2.2,21,M,,M,,*5D
06/13/2014	11:08:28.944	$GPGGA,110826,2450.4495,N,08021.5594,W,1,8,2.2,21,M,,M,,*5E
06/13/2014	11:08:29.998	$GPGGA,110827,2450.4485,N,08021.5608,W,1,8,1.9,21,M,,M,,*50
06/13/2014	11:08:31.107	$GPGGA,110828,2450.4485,N,08021.5608,W,1,8,1.9,21,M,,M,,*5F
06/13/2014	11:08:32.161	$GPGGA,110829,2450.4473,N,08021.5621,W,1,8,1.9,21,M,,M,,*5C
06/13/2014	11:08:33.227	$GPGGA,110830,2450.4473,N,08021.5621,W,1,8,2.2,21,M,,M,,*5C
06/13/2014	11:08:34.443	$GPGGA,110831,2450.4462,N,08021.5636,W,1,8,1.9,21,M,,M,,*53
06/13/2014	11:08:35.454	$GPGGA,110832,2450.4462,N,08021.5636,W,1,8,1.9,21,M,,M,,*50
06/13/2014	11:08:36.476	$GPGGA,110833,2450.4451,N,08021.5647,W,1,8,1.9,21,M,,M,,*57
06/13/2014	11:08:37.575	$GPGGA,110834,2450.4445,N,08021.5654,W,1,8,1.9,21,M,,M,,*57
06/13/2014	11:08:38.651	$GPGGA,110835,2450.4440,N,08021.5661,W,1,8,1.9,21,M,,M,,*55
06/13/2014	11:08:39.867	$GPGGA,110836,2450.4434,N,08021.5668,W,1,8,1.9,21,M,,M,,*5C
06/13/2014	11:08:40.954	$GPGGA,110837,2450.4429,N,08021.5673,W,1,8,1.9,21,M,,M,,*5B
06/13/2014	11:08:42.009	$GPGGA,110838,2450.4423,N,08021.5680,W,1,8,1.9,21,M,,M,,*52
06/13/2014	11:08:43.095	$GPGGA,110839,2450.4417,N,08021.5687,W,1,8,1.9,21,M,,M,,*53
06/13/2014	11:08:44.107	$GPGGA,110840,2450.4417,N,08021.5687,W,1,8,1.9,21,M,,M,,*5D
06/13/2014	11:08:45.162	$GPGGA,110841,2450.4406,N,08021.5701,W,1,8,1.9,21,M,,M,,*53
06/13/2014	11:08:46.346	$GPGGA,110842,2450.4401,N,08021.5706,W,1,8,1.9,20,M,,M,,*51
06/13/2014	11:08:47.335	$GPGGA,110843,2450.4395,N,08021.5715,W,1,8,1.9,20,M,,M,,*58
06/13/2014	11:08:48.547	$GPGGA,110844,2450.4389,N,08021.5723,W,1,8,2.6,20,M,,M,,*5B
06/13/2014	11:08:49.629	$GPGGA,110845,2450.4383,N,08021.5728,W,1,8,1.9,20,M,,M,,*57
06/13/2014	11:08:50.684	$GPGGA,110846,2450.4375,N,08021.5733,W,1,8,1.9,20,M,,M,,*57
06/13/2014	11:08:51.770	$GPGGA,110847,2450.4371,N,08021.5741,W,1,7,2.2,20,M,,M,,*50
06/13/2014	11:08:47.682	$GPGGA,110848,2450.4366,N,08021.5748,W,1,7,1.9,20,M,,M,,*58
06/13/2014	11:08:48.714	$GPGGA,110849,2450.4361,N,08021.5753,W,1,8,1.9,21,M,,M,,*5A
06/13/2014	11:08:49.823	$GPGGA,110850,2450.4353,N,08021.5759,W,1,8,1.9,21,M,,M,,*59
06/13/2014	11:08:50.899	$GPGGA,110851,2450.4347,N,08021.5766,W,1,8,1.9,21,M,,M,,*51
06/13/2014	11:08:51.997	$GPGGA,110852,2450.4341,N,08021.5773,W,1,8,1.9,21,M,,M,,*50
06/13/2014	11:08:53.073	$GPGGA,110853,2450.4336,N,08021.5780,W,1,7,2.2,21,M,,M,,*5A
06/13/2014	11:08:54.149	$GPGGA,110854,2450.4328,N,08021.5785,W,1,7,1.9,21,M,,M,,*5F
06/13/2014	11:08:55.236	$GPGGA,110855,2450.4322,N,08021.5792,W,1,7,2.2,21,M,,M,,*5A
06/13/2014	11:08:56.334	$GPGGA,110856,2450.4318,N,08021.5799,W,1,7,2.2,21,M,,M,,*5B
06/13/2014	11:08:57.432	$GPGGA,110857,2450.4312,N,08021.5806,W,1,8,1.9,21,M,,M,,*5E
06/13/2014	11:08:58.475	$GPGGA,110858,2450.4305,N,08021.5813,W,1,8,1.9,21,M,,M,,*53
06/13/2014	11:08:59.584	$GPGGA,110859,2450.4300,N,08021.5818,W,1,8,1.9,21,M,,M,,*5C
06/13/2014	11:09:00.682	$GPGGA,110900,2450.4294,N,08021.5824,W,1,8,1.9,21,M,,M,,*52
06/13/2014	11:09:01.736	$GPGGA,110901,2450.4289,N,08021.5832,W,1,8,1.9,21,M,,M,,*58
06/13/2014	11:09:02.834	$GPGGA,110902,2450.4283,N,08021.5838,W,1,8,1.9,21,M,,M,,*5B
06/13/2014	11:09:03.944	$GPGGA,110903,2450.4277,N,08021.5845,W,1,8,1.9,21,M,,M,,*5B
06/13/2014	11:09:05.008	$GPGGA,110904,2450.4272,N,08021.5852,W,1,8,1.9,21,M,,M,,*5F
06/13/2014	11:09:06.106	$GPGGA,110905,2450.4265,N,08021.5857,W,1,8,1.9,21,M,,M,,*5D
06/13/2014	11:09:07.159	$GPGGA,110906,2450.4260,N,08021.5863,W,1,8,1.9,21,M,,M,,*5C
06/13/2014	11:09:08.279	$GPGGA,110907,2450.4254,N,08021.5871,W,1,8,1.9,21,M,,M,,*59
06/13/2014	11:09:09.344	$GPGGA,110908,2450.4249,N,08021.5876,W,1,8,1.9,21,M,,M,,*5D
06/13/2014	11:09:10.453	$GPGGA,110909,2450.4241,N,08021.5882,W,1,8,1.9,21,M,,M,,*5F
06/13/2014	11:09:11.499	$GPGGA,110910,2450.4236,N,08021.5890,W,1,8,1.9,21,M,,M,,*54
06/13/2014	11:09:12.583	$GPGGA,110911,2450.4229,N,08021.5896,W,1,8,1.9,21,M,,M,,*5D
06/13/2014	11:09:13.692	$GPGGA,110912,2450.4223,N,08021.5901,W,1,8,1.9,21,M,,M,,*5B
06/13/2014	11:09:14.757	$GPGGA,110913,2450.4218,N,08021.5910,W,1,8,1.9,20,M,,M,,*53
06/13/2014	11:09:15.836	$GPGGA,110914,2450.4212,N,08021.5917,W,1,8,1.9,20,M,,M,,*59
06/13/2014	11:09:16.931	$GPGGA,110915,2450.4205,N,08021.5921,W,1,8,1.9,20,M,,M,,*5B
06/13/2014	11:09:18.029	$GPGGA,110916,2450.4198,N,08021.5928,W,1,8,1.9,20,M,,M,,*56
06/13/2014	11:09:19.128	$GPGGA,110917,2450.4191,N,08021.5936,W,1,7,2.2,20,M,,M,,*56
06/13/2014	11:09:20.176	$GPGGA,110918,2450.4184,N,08021.5943,W,1,7,1.9,20,M,,M,,*57
06/13/2014	11:09:21.262	$GPGGA,110919,2450.4177,N,08021.5950,W,1,8,1.9,20,M,,M,,*57
06/13/2014	11:09:22.366	$GPGGA,110920,2450.4169,N,08021.5954,W,1,8,1.9,20,M,,M,,*56
06/13/2014	11:09:23.453	$GPGGA,110921,2450.4165,N,08021.5962,W,1,7,2.2,20,M,,M,,*59
06/13/2014	11:09:24.508	$GPGGA,110922,2450.4162,N,08021.5969,W,1,7,1.9,20,M,,M,,*5E
06/13/2014	11:09:25.616	$GPGGA,110923,2450.4155,N,08021.5975,W,1,8,1.9,20,M,,M,,*59
06/13/2014	11:09:26.713	$GPGGA,110924,2450.4147,N,08021.5982,W,1,8,1.9,20,M,,M,,*55
06/13/2014	11:09:27.899	$GPGGA,110925,2450.4142,N,08021.5988,W,1,7,2.2,20,M,,M,,*5C
06/13/2014	11:09:28.880	$GPGGA,110926,2450.4137,N,08021.5995,W,1,7,1.9,20,M,,M,,*59
06/13/2014	11:09:29.952	$GPGGA,110927,2450.4129,N,08021.6001,W,1,8,1.9,20,M,,M,,*5F
06/13/2014	11:09:31.137	$GPGGA,110928,2450.4123,N,08021.6008,W,1,8,1.9,19,M,,M,,*59
06/13/2014	11:09:32.213	$GPGGA,110929,2450.4118,N,08021.6015,W,1,8,1.9,19,M,,M,,*5C
06/13/2014	11:09:33.203	$GPGGA,110930,2450.4112,N,08021.6022,W,1,8,1.9,19,M,,M,,*5A
06/13/2014	11:09:34.420	$GPGGA,110931,2450.4106,N,08021.6029,W,1,8,1.9,19,M,,M,,*55
06/13/2014	11:09:35.485	$GPGGA,110932,2450.4101,N,08021.6035,W,1,8,1.9,19,M,,M,,*5C
06/13/2014	11:09:36.595	$GPGGA,110933,2450.4097,N,08021.6044,W,1,8,1.9,19,M,,M,,*55
06/13/2014	11:09:37.637	$GPGGA,110934,2450.4090,N,08021.6048,W,1,8,1.9,19,M,,M,,*59
06/13/2014	11:09:38.735	$GPGGA,110935,2450.4082,N,08021.6053,W,1,8,1.9,19,M,,M,,*51
06/13/2014	11:09:39.822	$GPGGA,110936,2450.4079,N,08021.6062,W,1,8,1.9,19,M,,M,,*54
06/13/2014	11:09:40.889	$GPGGA,110937,2450.4073,N,08021.6069,W,1,8,1.9,19,M,,M,,*54
06/13/2014	11:09:41.975	$GPGGA,110938,2450.4065,N,08021.6074,W,1,8,1.9,19,M,,M,,*50
06/13/2014	11:09:43.084	$GPGGA,110939,2450.4061,N,08021.6080,W,1,8,1.9,19,M,,M,,*5E
06/13/2014	11:09:44.159	$GPGGA,110940,2450.4057,N,08021.6088,W,1,8,1.9,19,M,,M,,*5D
06/13/2014	11:09:45.245	$GPGGA,110941,2450.4050,N,08021.6095,W,1,8,1.9,19,M,,M,,*57
06/13/2014	11:09:46.322	$GPGGA,110942,2450.4044,N,08021.6099,W,1,8,2.6,19,M,,M,,*51
06/13/2014	11:09:47.409	$GPGGA,110943,2450.4037,N,08021.6105,W,1,8,1.9,19,M,,M,,*5C
06/13/2014	11:09:48.506	$GPGGA,110944,2450.4030,N,08021.6113,W,1,8,1.9,19,M,,M,,*5B
06/13/2014	11:09:49.572	$GPGGA,110945,2450.4023,N,08021.6118,W,1,8,1.9,19,M,,M,,*53
06/13/2014	11:09:50.670	$GPGGA,110946,2450.4016,N,08021.6124,W,1,8,1.9,19,M,,M,,*59
06/13/2014	11:09:51.757	$GPGGA,110947,2450.4010,N,08021.6131,W,1,8,1.9,19,M,,M,,*5A
06/13/2014	11:09:47.626	$GPGGA,110948,2450.4004,N,08021.6138,W,1,8,1.9,19,M,,M,,*59
06/13/2014	11:09:48.723	$GPGGA,110949,2450.3997,N,08021.6142,W,1,8,1.9,19,M,,M,,*51
06/13/2014	11:09:49.767	$GPGGA,110950,2450.3990,N,08021.6149,W,1,8,1.9,19,M,,M,,*55
06/13/2014	11:09:50.854	$GPGGA,110951,2450.3985,N,08021.6156,W,1,8,1.9,19,M,,M,,*5E
06/13/2014	11:09:51.974	$GPGGA,110952,2450.3979,N,08021.6163,W,1,8,1.9,19,M,,M,,*58
06/13/2014	11:09:53.028	$GPGGA,110953,2450.3972,N,08021.6167,W,1,8,1.9,19,M,,M,,*56
06/13/2014	11:09:54.148	$GPGGA,110954,2450.3967,N,08021.6174,W,1,8,1.9,19,M,,M,,*57
06/13/2014	11:09:55.213	$GPGGA,110955,2450.3962,N,08021.6181,W,1,8,1.9,20,M,,M,,*53
06/13/2014	11:09:56.300	$GPGGA,110956,2450.3956,N,08021.6188,W,1,8,1.9,20,M,,M,,*5E
06/13/2014	11:09:57.365	$GPGGA,110957,2450.3949,N,08021.6192,W,1,8,1.9,20,M,,M,,*5A
06/13/2014	11:09:58.452	$GPGGA,110958,2450.3943,N,08021.6200,W,1,8,1.9,20,M,,M,,*57
06/13/2014	11:09:59.538	$GPGGA,110959,2450.3938,N,08021.6207,W,1,8,1.9,20,M,,M,,*5D
06/13/2014	11:10:00.658	$GPGGA,111000,2450.3932,N,08021.6212,W,1,8,1.9,20,M,,M,,*57
06/13/2014	11:10:01.712	$GPGGA,111001,2450.3925,N,08021.6217,W,1,8,1.9,20,M,,M,,*55
06/13/2014	11:10:02.788	$GPGGA,111002,2450.3920,N,08021.6225,W,1,8,1.9,20,M,,M,,*52
06/13/2014	11:10:03.984	$GPGGA,111003,2450.3914,N,08021.6232,W,1,8,1.9,20,M,,M,,*52
06/13/2014	11:10:04.984	$GPGGA,111004,2450.3907,N,08021.6237,W,1,8,1.9,20,M,,M,,*52
06/13/2014	11:10:06.081	$GPGGA,111005,2450.3900,N,08021.6243,W,1,8,1.9,20,M,,M,,*57
06/13/2014	11:10:07.127	$GPGGA,111006,2450.3895,N,08021.6251,W,1,8,2.2,20,M,,M,,*52
06/13/2014	11:10:08.234	$GPGGA,111007,2450.3888,N,08021.6257,W,1,8,1.9,20,M,,M,,*51
06/13/2014	11:10:09.441	$GPGGA,111008,2450.3881,N,08021.6264,W,1,8,1.9,20,M,,M,,*57
06/13/2014	11:10:10.397	$GPGGA,111009,2450.3875,N,08021.6270,W,1,8,1.9,20,M,,M,,*58
06/13/2014	11:10:11.571	$GPGGA,111010,2450.3869,N,08021.6277,W,1,8,1.9,20,M,,M,,*5A
06/13/2014	11:10:12.691	$GPGGA,111011,2450.3863,N,08021.6283,W,1,8,1.9,20,M,,M,,*5A
06/13/2014	11:10:13.778	$GPGGA,111012,2450.3858,N,08021.6291,W,1,8,1.9,20,M,,M,,*52
06/13/2014	11:10:14.745	$GPGGA,111013,2450.3852,N,08021.6298,W,1,8,1.9,20,M,,M,,*50
06/13/2014	11:10:15.812	$GPGGA,111014,2450.3845,N,08021.6302,W,1,8,1.9,20,M,,M,,*53
06/13/2014	11:10:16.908	$GPGGA,111015,2450.3838,N,08021.6309,W,1,8,1.9,20,M,,M,,*53
06/13/2014	11:10:18.112	$GPGGA,111016,2450.3834,N,08021.6319,W,1,8,3.0,20,M,,M,,*56
06/13/2014	11:10:19.070	$GPGGA,111017,2450.3827,N,08021.6326,W,1,8,1.9,20,M,,M,,*52
06/13/2014	11:10:20.255	$GPGGA,111018,2450.3820,N,08021.6329,W,1,8,1.9,20,M,,M,,*55
06/13/2014	11:10:21.342	$GPGGA,111019,2450.3813,N,08021.6335,W,1,8,1.9,20,M,,M,,*59
06/13/2014	11:10:22.429	$GPGGA,111020,2450.3810,N,08021.6344,W,1,8,2.2,20,M,,M,,*5E
06/13/2014	11:10:23.475	$GPGGA,111021,2450.3805,N,08021.6351,W,1,8,1.9,20,M,,M,,*57
06/13/2014	11:10:24.508	$GPGGA,111022,2450.3797,N,08021.6355,W,1,8,1.9,20,M,,M,,*54
06/13/2014	11:10:25.551	$GPGGA,111023,2450.3790,N,08021.6360,W,1,8,1.9,20,M,,M,,*54
06/13/2014	11:10:26.584	$GPGGA,111024,2450.3787,N,08021.6369,W,1,8,2.2,20,M,,M,,*54
06/13/2014	11:10:27.586	$GPGGA,111025,2450.3783,N,08021.6374,W,1,8,1.9,20,M,,M,,*55
06/13/2014	11:10:28.619	$GPGGA,111026,2450.3777,N,08021.6380,W,1,8,1.9,20,M,,M,,*56
06/13/2014	11:10:29.672	$GPGGA,111027,2450.3768,N,08021.6384,W,1,7,2.6,20,M,,M,,*5E
06/13/2014	11:10:30.695	$GPGGA,111028,2450.3766,N,08021.6389,W,1,7,2.2,20,M,,M,,*56
06/13/2014	11:10:31.728	$GPGGA,111029,2450.3763,N,08021.6398,W,1,8,1.9,20,M,,M,,*55
06/13/2014	11:10:32.750	$GPGGA,111030,2450.3756,N,08021.6403,W,1,8,1.9,20,M,,M,,*5E
06/13/2014	11:10:33.793	$GPGGA,111031,2450.3751,N,08021.6406,W,1,8,1.9,20,M,,M,,*5D
06/13/2014	11:10:34.826	$GPGGA,111032,2450.3750,N,08021.6413,W,1,8,2.6,20,M,,M,,*57
06/13/2014	11:10:35.859	$GPGGA,111033,2450.3746,N,08021.6420,W,1,8,1.9,20,M,,M,,*5D
06/13/2014	11:10:36.860	$GPGGA,111034,2450.3741,N,08021.6424,W,1,8,1.9,20,M,,M,,*59
06/13/2014	11:10:37.934	$GPGGA,111035,2450.3736,N,08021.6431,W,1,8,1.9,20,M,,M,,*5C
06/13/2014	11:10:38.947	$GPGGA,111036,2450.3730,N,08021.6436,W,1,8,1.9,20,M,,M,,*5E
06/13/2014	11:10:39.959	$GPGGA,111037,2450.3725,N,08021.6442,W,1,8,1.9,20,M,,M,,*58
06/13/2014	11:10:40.992	$GPGGA,111038,2450.3719,N,08021.6447,W,1,8,1.9,20,M,,M,,*5D
06/13/2014	11:10:42.056	$GPGGA,111039,2450.3714,N,08021.6453,W,1,8,1.9,20,M,,M,,*54
06/13/2014	11:10:43.057	$GPGGA,111040,2450.3707,N,08021.6460,W,1,8,1.9,20,M,,M,,*58
06/13/2014	11:10:44.121	$GPGGA,111041,2450.3701,N,08021.6465,W,1,8,1.9,20,M,,M,,*5A
06/13/2014	11:10:45.125	$GPGGA,111042,2450.3696,N,08021.6471,W,1,8,1.9,20,M,,M,,*53
06/13/2014	11:10:46.187	$GPGGA,111043,2450.3690,N,08021.6478,W,1,8,1.9,20,M,,M,,*5D
06/13/2014	11:10:47.189	$GPGGA,111044,2450.3685,N,08021.6485,W,1,8,1.9,20,M,,M,,*5C
06/13/2014	11:10:49.606	$GPGGA,111046,2450.3671,N,08021.6496,W,1,8,1.9,20,M,,M,,*57
06/13/2014	11:10:50.277	$GPGGA,111047,2450.3665,N,08021.6503,W,1,8,1.9,20,M,,M,,*5E
06/13/2014	11:10:48.948	$GPGGA,111049,2450.3653,N,08021.6515,W,1,8,1.9,20,M,,M,,*52
06/13/2014	11:10:49.599	$GPGGA,111050,2450.3649,N,08021.6522,W,1,8,1.9,20,M,,M,,*55
06/13/2014	11:10:50.641	$GPGGA,111051,2450.3642,N,08021.6529,W,1,8,1.9,20,M,,M,,*54
06/13/2014	11:10:51.674	$GPGGA,111052,2450.3634,N,08021.6535,W,1,8,1.9,20,M,,M,,*5B
06/13/2014	11:10:52.696	$GPGGA,111053,2450.3629,N,08021.6543,W,1,8,1.8,20,M,,M,,*56
06/13/2014	11:10:53.708	$GPGGA,111054,2450.3624,N,08021.6550,W,1,8,1.8,20,M,,M,,*5E
06/13/2014	11:10:54.855	$GPGGA,111055,2450.3617,N,08021.6557,W,1,7,2.6,20,M,,M,,*5A
06/13/2014	11:10:55.785	$GPGGA,111056,2450.3610,N,08021.6562,W,1,7,1.8,20,M,,M,,*55
06/13/2014	11:10:56.915	$GPGGA,111057,2450.3605,N,08021.6569,W,1,8,1.8,20,M,,M,,*54
06/13/2014	11:10:57.840	$GPGGA,111058,2450.3599,N,08021.6577,W,1,8,1.8,20,M,,M,,*52
06/13/2014	11:10:58.966	$GPGGA,111059,2450.3591,N,08021.6582,W,1,8,1.8,20,M,,M,,*51
06/13/2014	11:11:00.035	$GPGGA,111100,2450.3584,N,08021.6590,W,1,8,1.8,20,M,,M,,*5B
06/13/2014	11:11:00.939	$GPGGA,111101,2450.3580,N,08021.6597,W,1,8,1.8,21,M,,M,,*58
06/13/2014	11:11:02.054	$GPGGA,111102,2450.3573,N,08021.6604,W,1,8,1.8,21,M,,M,,*5E
06/13/2014	11:11:03.098	$GPGGA,111103,2450.3567,N,08021.6608,W,1,8,1.8,21,M,,M,,*56
06/13/2014	11:11:04.049	$GPGGA,111104,2450.3561,N,08021.6616,W,1,8,1.8,21,M,,M,,*58
06/13/2014	11:11:05.050	$GPGGA,111105,2450.3556,N,08021.6623,W,1,8,1.8,21,M,,M,,*5B
06/13/2014	11:11:06.186	$GPGGA,111106,2450.3549,N,08021.6629,W,1,8,1.8,21,M,,M,,*5C
06/13/2014	11:11:07.220	$GPGGA,111107,2450.3544,N,08021.6637,W,1,8,1.8,21,M,,M,,*5F
06/13/2014	11:11:08.262	$GPGGA,111108,2450.3538,N,08021.6644,W,1,8,1.8,21,M,,M,,*5F
06/13/2014	11:11:09.305	$GPGGA,111109,2450.3531,N,08021.6651,W,1,8,1.8,21,M,,M,,*53
06/13/2014	11:11:10.306	$GPGGA,111110,2450.3526,N,08021.6658,W,1,8,1.8,21,M,,M,,*54
06/13/2014	11:11:11.339	$GPGGA,111111,2450.3520,N,08021.6665,W,1,8,1.8,21,M,,M,,*5D
06/13/2014	11:11:12.382	$GPGGA,111112,2450.3514,N,08021.6673,W,1,8,1.8,21,M,,M,,*5E
06/13/2014	11:11:13.415	$GPGGA,111113,2450.3508,N,08021.6678,W,1,8,1.8,20,M,,M,,*58
06/13/2014	11:11:14.438	$GPGGA,111114,2450.3502,N,08021.6687,W,1,8,1.8,20,M,,M,,*55
06/13/2014	11:11:15.471	$GPGGA,111115,2450.3497,N,08021.6694,W,1,7,2.6,20,M,,M,,*59
06/13/2014	11:11:16.514	$GPGGA,111116,2450.3488,N,08021.6701,W,1,7,1.8,20,M,,M,,*54
06/13/2014	11:11:17.548	$GPGGA,111117,2450.3481,N,08021.6706,W,1,8,1.8,20,M,,M,,*54
06/13/2014	11:11:18.549	$GPGGA,111118,2450.3474,N,08021.6714,W,1,8,1.8,20,M,,M,,*52
06/13/2014	11:11:19.602	$GPGGA,111119,2450.3467,N,08021.6721,W,1,8,1.8,20,M,,M,,*57
06/13/2014	11:11:20.635	$GPGGA,111120,2450.3461,N,08021.6727,W,1,8,1.8,20,M,,M,,*5D
06/13/2014	11:11:21.647	$GPGGA,111121,2450.3454,N,08021.6734,W,1,8,1.8,20,M,,M,,*58
06/13/2014	11:11:22.680	$GPGGA,111122,2450.3449,N,08021.6741,W,1,8,1.8,20,M,,M,,*55
06/13/2014	11:11:23.734	$GPGGA,111123,2450.3443,N,08021.6748,W,1,8,1.8,20,M,,M,,*57
06/13/2014	11:11:24.756	$GPGGA,111124,2450.3436,N,08021.6753,W,1,8,1.8,20,M,,M,,*58
06/13/2014	11:11:25.800	$GPGGA,111125,2450.3429,N,08021.6760,W,1,8,1.8,20,M,,M,,*57
06/13/2014	11:11:26.790	$GPGGA,111126,2450.3423,N,08021.6768,W,1,8,1.8,20,M,,M,,*56
06/13/2014	11:11:27.854	$GPGGA,111127,2450.3416,N,08021.6774,W,1,8,1.8,20,M,,M,,*5C
06/13/2014	11:11:28.866	$GPGGA,111128,2450.3409,N,08021.6779,W,1,8,1.8,20,M,,M,,*50
06/13/2014	11:11:29.920	$GPGGA,111129,2450.3403,N,08021.6788,W,1,8,1.8,20,M,,M,,*55
06/13/2014	11:11:30.922	$GPGGA,111130,2450.3397,N,08021.6795,W,1,8,1.8,20,M,,M,,*5B
06/13/2014	11:11:31.996	$GPGGA,111131,2450.3390,N,08021.6800,W,1,8,1.8,20,M,,M,,*5E
06/13/2014	11:11:32.998	$GPGGA,111132,2450.3383,N,08021.6807,W,1,8,1.8,20,M,,M,,*58
06/13/2014	11:11:34.010	$GPGGA,111133,2450.3378,N,08021.6814,W,1,8,1.8,20,M,,M,,*5F
06/13/2014	11:11:35.065	$GPGGA,111134,2450.3372,N,08021.6821,W,1,8,1.8,20,M,,M,,*54
06/13/2014	11:11:36.078	$GPGGA,111135,2450.3364,N,08021.6828,W,1,8,1.8,20,M,,M,,*5B
06/13/2014	11:11:37.140	$GPGGA,111136,2450.3360,N,08021.6832,W,1,8,2.2,20,M,,M,,*5E
06/13/2014	11:11:38.162	$GPGGA,111137,2450.3354,N,08021.6840,W,1,8,1.8,20,M,,M,,*54
06/13/2014	11:11:39.164	$GPGGA,111138,2450.3349,N,08021.6848,W,1,8,1.8,20,M,,M,,*5F
06/13/2014	11:11:40.218	$GPGGA,111139,2450.3340,N,08021.6853,W,1,8,1.8,20,M,,M,,*5D
06/13/2014	11:11:41.251	$GPGGA,111140,2450.3335,N,08021.6860,W,1,8,1.8,20,M,,M,,*51
06/13/2014	11:11:42.397	$GPGGA,111141,2450.3331,N,08021.6868,W,1,8,1.8,20,M,,M,,*5C
06/13/2014	11:11:43.287	$GPGGA,111142,2450.3325,N,08021.6875,W,1,8,1.8,20,M,,M,,*56
06/13/2014	11:11:44.319	$GPGGA,111143,2450.3318,N,08021.6879,W,1,8,1.8,20,M,,M,,*55
06/13/2014	11:11:45.371	$GPGGA,111144,2450.3313,N,08021.6887,W,1,8,1.8,20,M,,M,,*58
06/13/2014	11:11:46.383	$GPGGA,111145,2450.3307,N,08021.6893,W,1,8,1.8,20,M,,M,,*59
06/13/2014	11:11:47.509	$GPGGA,111146,2450.3302,N,08021.6900,W,1,8,1.8,20,M,,M,,*54
06/13/2014	11:11:48.449	$GPGGA,111147,2450.3296,N,08021.6908,W,1,8,1.8,20,M,,M,,*51
06/13/2014	11:11:47.520	$GPGGA,111148,2450.3291,N,08021.6915,W,1,8,1.8,20,M,,M,,*55
06/13/2014	11:11:48.544	$GPGGA,111149,2450.3284,N,08021.6920,W,1,8,1.8,20,M,,M,,*56
06/13/2014	11:11:49.658	$GPGGA,111150,2450.3277,N,08021.6927,W,1,8,2.2,20,M,,M,,*5C
