Software Version Number: 1	Data File Format Number: 1	Build Version Number: 1	Error Count Since VI Started: 0	Manufacturer: Raytheon	 Model Number: RayMarine 120	 S/N: 	 Cal Date: 	 Wind Direction Offset: 0.00	 Slope (M)1: 0.00	 Offset (B)1: 0.00	 Slope (M)2: 0.00	 Offset (B)2: 0.00	 Slope (M)3: 0.00	 Offset (B)3: 0.00	 Slope (M)4: 0.00	 Offset (B)4: 0.00	 Slope (M)5: 0.00	 Offset (B)5: 0.00	 Slope (M)6: 0.00	 Offset (B)6: 0.00
Computer Date	Computer Time	GGA String
05/28/2014	03:00:00.013	$GPGGA,025959,2543.8828,N,08009.7280,W,1,9,1.6,18,M,,M,,*53
05/28/2014	03:00:01.105	$GPGGA,030000,2543.8828,N,08009.7281,W,1,9,1.6,18,M,,M,,*53
05/28/2014	03:00:02.180	$GPGGA,030001,2543.8826,N,08009.7283,W,1,9,1.6,18,M,,M,,*5E
05/28/2014	03:00:03.211	$GPGGA,030002,2543.8827,N,08009.7282,W,1,9,1.6,18,M,,M,,*5D
05/28/2014	03:00:04.302	$GPGGA,030003,2543.8826,N,08009.7283,W,1,9,1.6,18,M,,M,,*5C
05/28/2014	03:00:05.372	$GPGGA,030004,2543.8827,N,08009.7284,W,1,9,1.6,19,M,,M,,*5C
05/28/2014	03:00:06.409	$GPGGA,030005,2543.8826,N,08009.7284,W,1,9,1.6,19,M,,M,,*5C
05/28/2014	03:00:07.469	$GPGGA,030006,2543.8827,N,08009.7284,W,1,9,1.6,19,M,,M,,*5E
05/28/2014	03:00:08.548	$GPGGA,030007,2543.8826,N,08009.7284,W,1,9,1.6,19,M,,M,,*5E
05/28/2014	03:00:09.639	$GPGGA,030008,2543.8827,N,08009.7285,W,1,9,1.6,19,M,,M,,*51
05/28/2014	03:00:10.679	$GPGGA,030009,2543.8826,N,08009.7285,W,1,9,1.6,19,M,,M,,*51
05/28/2014	03:00:11.768	$GPGGA,030010,2543.8827,N,08009.7285,W,1,9,1.6,19,M,,M,,*58
05/28/2014	03:00:12.955	$GPGGA,030011,2543.8826,N,08009.7285,W,1,9,1.6,19,M,,M,,*58
05/28/2014	03:00:13.896	$GPGGA,030012,2543.8827,N,08009.7287,W,1,9,1.6,19,M,,M,,*58
05/28/2014	03:00:14.977	$GPGGA,030013,2543.8828,N,08009.7286,W,1,9,1.6,19,M,,M,,*57
05/28/2014	03:00:16.014	$GPGGA,030014,2543.8828,N,08009.7287,W,1,9,1.6,19,M,,M,,*51
05/28/2014	03:00:17.084	$GPGGA,030015,2543.8830,N,08009.7283,W,1,9,1.6,20,M,,M,,*57
05/28/2014	03:00:18.174	$GPGGA,030016,2543.8831,N,08009.7282,W,1,9,2.1,20,M,,M,,*50
05/28/2014	03:00:19.211	$GPGGA,030017,2543.8834,N,08009.7280,W,1,8,2.1,20,M,,M,,*57
05/28/2014	03:00:20.303	$GPGGA,030018,2543.8835,N,08009.7278,W,1,8,2.1,19,M,,M,,*54
05/28/2014	03:00:21.457	$GPGGA,030019,2543.8837,N,08009.7277,W,1,8,2.1,19,M,,M,,*58
05/28/2014	03:00:22.452	$GPGGA,030020,2543.8838,N,08009.7275,W,1,8,2.1,19,M,,M,,*5F
05/28/2014	03:00:23.490	$GPGGA,030021,2543.8839,N,08009.7274,W,1,8,2.1,19,M,,M,,*5E
05/28/2014	03:00:24.655	$GPGGA,030022,2543.8841,N,08009.7273,W,1,8,2.1,19,M,,M,,*55
05/28/2014	03:00:25.629	$GPGGA,030023,2543.8842,N,08009.7272,W,1,8,2.1,19,M,,M,,*56
05/28/2014	03:00:26.805	$GPGGA,030024,2543.8842,N,08009.7272,W,1,8,2.1,19,M,,M,,*51
05/28/2014	03:00:27.864	$GPGGA,030025,2543.8844,N,08009.7271,W,1,8,2.1,19,M,,M,,*55
05/28/2014	03:00:28.838	$GPGGA,030026,2543.8843,N,08009.7272,W,1,8,2.1,18,M,,M,,*53
05/28/2014	03:00:30.025	$GPGGA,030027,2543.8844,N,08009.7270,W,1,8,2.1,18,M,,M,,*57
05/28/2014	03:00:31.094	$GPGGA,030028,2543.8845,N,08009.7270,W,1,8,2.1,18,M,,M,,*59
05/28/2014	03:00:32.143	$GPGGA,030029,2543.8846,N,08009.7270,W,1,8,2.1,18,M,,M,,*5B
05/28/2014	03:00:33.201	$GPGGA,030030,2543.8846,N,08009.7270,W,1,8,2.1,18,M,,M,,*53
05/28/2014	03:00:34.260	$GPGGA,030031,2543.8846,N,08009.7270,W,1,8,2.1,18,M,,M,,*52
05/28/2014	03:00:35.351	$GPGGA,030032,2543.8846,N,08009.7270,W,1,8,2.1,17,M,,M,,*5E
05/28/2014	03:00:36.432	$GPGGA,030033,2543.8846,N,08009.7269,W,1,8,2.1,17,M,,M,,*57
05/28/2014	03:00:37.479	$GPGGA,030034,2543.8848,N,08009.7269,W,1,8,2.1,17,M,,M,,*5E
05/28/2014	03:00:38.559	$GPGGA,030035,2543.8847,N,08009.7269,W,1,8,2.1,17,M,,M,,*50
05/28/2014	03:00:39.618	$GPGGA,030036,2543.8846,N,08009.7269,W,1,8,2.1,17,M,,M,,*52
05/28/2014	03:00:40.698	$GPGGA,030037,2543.8848,N,08009.7269,W,1,8,2.1,17,M,,M,,*5D
05/28/2014	03:00:41.747	$GPGGA,030038,2543.8847,N,08009.7268,W,1,8,2.1,17,M,,M,,*5C
05/28/2014	03:00:38.653	$GPGGA,030039,2543.8848,N,08009.7269,W,1,8,2.1,16,M,,M,,*52
05/28/2014	03:00:39.712	$GPGGA,030040,2543.8847,N,08009.7268,W,1,8,2.1,16,M,,M,,*52
05/28/2014	03:00:40.760	$GPGGA,030041,2543.8849,N,08009.7267,W,1,8,2.1,16,M,,M,,*52
05/28/2014	03:00:41.840	$GPGGA,030042,2543.8848,N,08009.7267,W,1,8,2.1,16,M,,M,,*50
05/28/2014	03:00:42.899	$GPGGA,030043,2543.8849,N,08009.7267,W,1,8,2.1,16,M,,M,,*50
05/28/2014	03:00:43.981	$GPGGA,030044,2543.8848,N,08009.7267,W,1,8,2.1,16,M,,M,,*56
05/28/2014	03:00:45.028	$GPGGA,030045,2543.8849,N,08009.7267,W,1,8,2.1,16,M,,M,,*56
05/28/2014	03:00:46.108	$GPGGA,030046,2543.8848,N,08009.7267,W,1,8,2.1,16,M,,M,,*54
05/28/2014	03:00:47.210	$GPGGA,030047,2543.8849,N,08009.7267,W,1,8,2.1,16,M,,M,,*54
05/28/2014	03:00:48.236	$GPGGA,030048,2543.8849,N,08009.7266,W,1,8,2.1,16,M,,M,,*5A
05/28/2014	03:00:49.306	$GPGGA,030049,2543.8849,N,08009.7267,W,1,8,2.1,16,M,,M,,*5A
05/28/2014	03:00:50.376	$GPGGA,030050,2543.8849,N,08009.7267,W,1,8,2.1,15,M,,M,,*51
05/28/2014	03:00:51.476	$GPGGA,030051,2543.8849,N,08009.7267,W,1,8,2.1,15,M,,M,,*50
05/28/2014	03:00:52.525	$GPGGA,030052,2543.8849,N,08009.7267,W,1,8,2.1,15,M,,M,,*53
05/28/2014	03:00:53.583	$GPGGA,030053,2543.8849,N,08009.7267,W,1,8,2.1,15,M,,M,,*52
05/28/2014	03:00:54.642	$GPGGA,030054,2543.8849,N,08009.7267,W,1,8,2.1,15,M,,M,,*55
05/28/2014	03:00:55.723	$GPGGA,030055,2543.8849,N,08009.7267,W,1,8,2.1,15,M,,M,,*54
05/28/2014	03:00:56.792	$GPGGA,030056,2543.8848,N,08009.7267,W,1,8,2.1,15,M,,M,,*56
05/28/2014	03:00:57.840	$GPGGA,030057,2543.8849,N,08009.7267,W,1,8,2.1,15,M,,M,,*56
05/28/2014	03:00:58.931	$GPGGA,030058,2543.8848,N,08009.7267,W,1,8,2.1,15,M,,M,,*58
05/28/2014	03:00:59.991	$GPGGA,030059,2543.8847,N,08009.7269,W,1,8,2.1,15,M,,M,,*58
05/28/2014	03:01:01.071	$GPGGA,030100,2543.8848,N,08009.7269,W,1,8,1.6,15,M,,M,,*5E
05/28/2014	03:01:02.247	$GPGGA,030101,2543.8846,N,08009.7270,W,1,8,2.1,15,M,,M,,*5D
05/28/2014	03:01:03.188	$GPGGA,030102,2543.8844,N,08009.7272,W,1,8,1.6,15,M,,M,,*5A
05/28/2014	03:01:04.237	$GPGGA,030103,2543.8843,N,08009.7273,W,1,9,1.6,15,M,,M,,*5C
05/28/2014	03:01:05.445	$GPGGA,030104,2543.8842,N,08009.7274,W,1,9,1.6,15,M,,M,,*5D
05/28/2014	03:01:06.397	$GPGGA,030105,2543.8842,N,08009.7274,W,1,9,1.6,15,M,,M,,*5C
05/28/2014	03:01:07.445	$GPGGA,030106,2543.8840,N,08009.7276,W,1,9,1.6,16,M,,M,,*5C
05/28/2014	03:01:08.643	$GPGGA,030107,2543.8841,N,08009.7276,W,1,9,1.6,16,M,,M,,*5C
05/28/2014	03:01:09.692	$GPGGA,030108,2543.8839,N,08009.7277,W,1,9,1.6,16,M,,M,,*5D
05/28/2014	03:01:10.653	$GPGGA,030109,2543.8839,N,08009.7279,W,1,9,1.6,16,M,,M,,*52
05/28/2014	03:01:11.733	$GPGGA,030110,2543.8837,N,08009.7278,W,1,9,1.6,16,M,,M,,*55
05/28/2014	03:01:12.921	$GPGGA,030111,2543.8838,N,08009.7279,W,1,9,1.6,16,M,,M,,*5A
05/28/2014	03:01:13.990	$GPGGA,030112,2543.8837,N,08009.7280,W,1,9,1.6,17,M,,M,,*51
05/28/2014	03:01:15.060	$GPGGA,030113,2543.8836,N,08009.7279,W,1,9,1.6,17,M,,M,,*57
05/28/2014	03:01:16.088	$GPGGA,030114,2543.8835,N,08009.7280,W,1,9,1.6,17,M,,M,,*55
05/28/2014	03:01:17.105	$GPGGA,030115,2543.8835,N,08009.7280,W,1,9,1.6,17,M,,M,,*54
05/28/2014	03:01:18.152	$GPGGA,030116,2543.8835,N,08009.7281,W,1,9,1.6,17,M,,M,,*56
05/28/2014	03:01:19.199	$GPGGA,030117,2543.8835,N,08009.7281,W,1,9,1.6,17,M,,M,,*57
05/28/2014	03:01:20.177	$GPGGA,030118,2543.8833,N,08009.7281,W,1,9,1.6,18,M,,M,,*51
05/28/2014	03:01:21.211	$GPGGA,030119,2543.8834,N,08009.7283,W,1,9,1.6,18,M,,M,,*55
05/28/2014	03:01:22.238	$GPGGA,030120,2543.8832,N,08009.7283,W,1,9,1.6,18,M,,M,,*59
05/28/2014	03:01:23.276	$GPGGA,030121,2543.8833,N,08009.7284,W,1,9,1.6,18,M,,M,,*5E
05/28/2014	03:01:24.281	$GPGGA,030122,2543.8831,N,08009.7284,W,1,9,1.6,18,M,,M,,*5F
05/28/2014	03:01:25.338	$GPGGA,030123,2543.8831,N,08009.7284,W,1,9,1.6,19,M,,M,,*5F
05/28/2014	03:01:26.344	$GPGGA,030124,2543.8830,N,08009.7285,W,1,9,1.6,19,M,,M,,*58
05/28/2014	03:01:27.371	$GPGGA,030125,2543.8831,N,08009.7285,W,1,9,1.6,19,M,,M,,*58
05/28/2014	03:01:28.376	$GPGGA,030126,2543.8830,N,08009.7287,W,1,9,1.6,19,M,,M,,*58
05/28/2014	03:01:29.423	$GPGGA,030127,2543.8829,N,08009.7286,W,1,9,1.6,20,M,,M,,*5A
05/28/2014	03:01:30.439	$GPGGA,030128,2543.8830,N,08009.7287,W,1,9,1.6,20,M,,M,,*5C
05/28/2014	03:01:31.456	$GPGGA,030129,2543.8829,N,08009.7286,W,1,9,1.6,20,M,,M,,*54
05/28/2014	03:01:32.472	$GPGGA,030130,2543.8830,N,08009.7287,W,1,9,1.6,20,M,,M,,*55
05/28/2014	03:01:33.529	$GPGGA,030131,2543.8829,N,08009.7286,W,1,9,1.6,20,M,,M,,*5D
05/28/2014	03:01:34.525	$GPGGA,030132,2543.8830,N,08009.7287,W,1,9,1.6,20,M,,M,,*57
05/28/2014	03:01:35.572	$GPGGA,030133,2543.8829,N,08009.7285,W,1,9,1.6,21,M,,M,,*5D
05/28/2014	03:01:36.568	$GPGGA,030134,2543.8830,N,08009.7285,W,1,9,1.6,21,M,,M,,*52
05/28/2014	03:01:37.595	$GPGGA,030135,2543.8829,N,08009.7287,W,1,9,1.6,21,M,,M,,*59
05/28/2014	03:01:38.642	$GPGGA,030136,2543.8831,N,08009.7285,W,1,9,1.6,21,M,,M,,*51
05/28/2014	03:01:39.649	$GPGGA,030137,2543.8829,N,08009.7287,W,1,9,1.6,21,M,,M,,*5B
05/28/2014	03:01:40.685	$GPGGA,030138,2543.8830,N,08009.7286,W,1,9,1.6,21,M,,M,,*5D
05/28/2014	03:01:38.592	$GPGGA,030139,2543.8829,N,08009.7287,W,1,9,1.6,21,M,,M,,*55
05/28/2014	03:01:39.598	$GPGGA,030140,2543.8830,N,08009.7286,W,1,9,1.6,21,M,,M,,*52
05/28/2014	03:01:40.624	$GPGGA,030141,2543.8831,N,08009.7287,W,1,9,1.6,22,M,,M,,*50
05/28/2014	03:01:41.641	$GPGGA,030142,2543.8830,N,08009.7287,W,1,9,1.6,22,M,,M,,*52
05/28/2014	03:01:42.657	$GPGGA,030143,2543.8829,N,08009.7287,W,1,9,1.6,22,M,,M,,*5B
05/28/2014	03:01:43.713	$GPGGA,030144,2543.8830,N,08009.7288,W,1,9,1.6,22,M,,M,,*5B
05/28/2014	03:01:44.709	$GPGGA,030145,2543.8829,N,08009.7288,W,1,9,1.6,22,M,,M,,*52
05/28/2014	03:01:45.746	$GPGGA,030146,2543.8830,N,08009.7290,W,1,9,1.6,22,M,,M,,*50
05/28/2014	03:01:46.793	$GPGGA,030147,2543.8829,N,08009.7289,W,1,9,1.6,22,M,,M,,*51
05/28/2014	03:01:47.799	$GPGGA,030148,2543.8830,N,08009.7290,W,1,9,1.6,22,M,,M,,*5E
05/28/2014	03:01:48.805	$GPGGA,030149,2543.8829,N,08009.7289,W,1,9,1.6,22,M,,M,,*5F
05/28/2014	03:01:49.842	$GPGGA,030150,2543.8830,N,08009.7290,W,1,9,1.6,22,M,,M,,*57
05/28/2014	03:01:50.879	$GPGGA,030151,2543.8831,N,08009.7290,W,1,9,1.6,22,M,,M,,*57
05/28/2014	03:01:51.895	$GPGGA,030152,2543.8830,N,08009.7290,W,1,9,1.6,22,M,,M,,*55
05/28/2014	03:01:52.902	$GPGGA,030153,2543.8831,N,08009.7290,W,1,9,1.6,22,M,,M,,*55
05/28/2014	03:01:54.051	$GPGGA,030154,2543.8830,N,08009.7290,W,1,9,1.6,22,M,,M,,*53
05/28/2014	03:01:54.996	$GPGGA,030155,2543.8831,N,08009.7290,W,1,9,1.6,23,M,,M,,*52
05/28/2014	03:01:55.981	$GPGGA,030156,2543.8831,N,08009.7290,W,1,9,1.6,23,M,,M,,*51
05/28/2014	03:01:57.008	$GPGGA,030157,2543.8831,N,08009.7290,W,1,9,1.6,23,M,,M,,*50
05/28/2014	03:01:58.045	$GPGGA,030158,2543.8833,N,08009.7290,W,1,9,1.6,23,M,,M,,*5D
05/28/2014	03:01:59.154	$GPGGA,030159,2543.8832,N,08009.7290,W,1,9,1.6,23,M,,M,,*5D
05/28/2014	03:02:00.211	$GPGGA,030200,2543.8833,N,08009.7291,W,1,9,1.6,23,M,,M,,*52
05/28/2014	03:02:01.206	$GPGGA,030201,2543.8832,N,08009.7291,W,1,9,1.6,23,M,,M,,*52
05/28/2014	03:02:02.222	$GPGGA,030202,2543.8834,N,08009.7290,W,1,9,1.6,23,M,,M,,*56
05/28/2014	03:02:03.249	$GPGGA,030203,2543.8833,N,08009.7290,W,1,9,1.6,23,M,,M,,*50
05/28/2014	03:02:04.296	$GPGGA,030204,2543.8835,N,08009.7290,W,1,9,1.6,23,M,,M,,*51
05/28/2014	03:02:05.353	$GPGGA,030205,2543.8835,N,08009.7290,W,1,9,1.6,23,M,,M,,*50
05/28/2014	03:02:06.318	$GPGGA,030206,2543.8835,N,08009.7290,W,1,9,1.6,23,M,,M,,*53
05/28/2014	03:02:07.355	$GPGGA,030207,2543.8835,N,08009.7290,W,1,9,1.6,23,M,,M,,*52
05/28/2014	03:02:08.392	$GPGGA,030208,2543.8837,N,08009.7290,W,1,9,1.6,23,M,,M,,*5F
05/28/2014	03:02:09.429	$GPGGA,030209,2543.8835,N,08009.7290,W,1,9,1.6,23,M,,M,,*5C
05/28/2014	03:02:10.426	$GPGGA,030210,2543.8835,N,08009.7290,W,1,9,1.6,23,M,,M,,*54
05/28/2014	03:02:11.461	$GPGGA,030211,2543.8837,N,08009.7290,W,1,9,1.6,23,M,,M,,*57
05/28/2014	03:02:12.488	$GPGGA,030212,2543.8836,N,08009.7290,W,1,9,1.6,23,M,,M,,*55
05/28/2014	03:02:13.495	$GPGGA,030213,2543.8837,N,08009.7290,W,1,9,1.6,24,M,,M,,*52
05/28/2014	03:02:14.521	$GPGGA,030214,2543.8836,N,08009.7291,W,1,9,1.6,24,M,,M,,*55
05/28/2014	03:02:15.537	$GPGGA,030215,2543.8837,N,08009.7291,W,1,9,1.6,24,M,,M,,*55
05/28/2014	03:02:16.584	$GPGGA,030216,2543.8836,N,08009.7291,W,1,9,1.6,24,M,,M,,*57
05/28/2014	03:02:17.590	$GPGGA,030217,2543.8838,N,08009.7291,W,1,9,1.6,24,M,,M,,*58
05/28/2014	03:02:18.617	$GPGGA,030218,2543.8837,N,08009.7291,W,1,9,1.6,24,M,,M,,*58
05/28/2014	03:02:19.673	$GPGGA,030219,2543.8838,N,08009.7291,W,1,9,1.6,24,M,,M,,*56
05/28/2014	03:02:20.669	$GPGGA,030220,2543.8837,N,08009.7291,W,1,9,1.6,24,M,,M,,*53
05/28/2014	03:02:21.696	$GPGGA,030221,2543.8838,N,08009.7291,W,1,9,1.6,24,M,,M,,*5D
05/28/2014	03:02:22.722	$GPGGA,030222,2543.8837,N,08009.7290,W,1,9,1.6,24,M,,M,,*50
05/28/2014	03:02:23.780	$GPGGA,030223,2543.8838,N,08009.7290,W,1,9,1.6,24,M,,M,,*5E
05/28/2014	03:02:24.786	$GPGGA,030224,2543.8837,N,08009.7290,W,1,9,1.6,24,M,,M,,*56
05/28/2014	03:02:25.792	$GPGGA,030225,2543.8838,N,08009.7290,W,1,9,1.6,24,M,,M,,*58
05/28/2014	03:02:26.808	$GPGGA,030226,2543.8837,N,08009.7289,W,1,9,1.6,24,M,,M,,*5C
05/28/2014	03:02:27.877	$GPGGA,030227,2543.8839,N,08009.7290,W,1,9,1.6,24,M,,M,,*5B
05/28/2014	03:02:28.872	$GPGGA,030228,2543.8839,N,08009.7289,W,1,9,1.6,24,M,,M,,*5C
05/28/2014	03:02:29.908	$GPGGA,030229,2543.8839,N,08009.7290,W,1,9,1.6,24,M,,M,,*55
05/28/2014	03:02:30.904	$GPGGA,030230,2543.8839,N,08009.7289,W,1,9,1.6,24,M,,M,,*55
05/28/2014	03:02:31.941	$GPGGA,030231,2543.8839,N,08009.7290,W,1,9,1.6,24,M,,M,,*5C
05/28/2014	03:02:32.978	$GPGGA,030232,2543.8839,N,08009.7288,W,1,9,1.6,24,M,,M,,*56
05/28/2014	03:02:33.994	$GPGGA,030233,2543.8837,N,08009.7288,W,1,9,1.6,24,M,,M,,*59
05/28/2014	03:02:35.011	$GPGGA,030234,2543.8839,N,08009.7287,W,1,9,1.6,24,M,,M,,*5F
05/28/2014	03:02:36.058	$GPGGA,030235,2543.8839,N,08009.7287,W,1,9,1.6,24,M,,M,,*5E
05/28/2014	03:02:37.186	$GPGGA,030236,2543.8839,N,08009.7287,W,1,9,1.6,24,M,,M,,*5D
05/28/2014	03:02:38.089	$GPGGA,030237,2543.8837,N,08009.7287,W,1,9,1.6,24,M,,M,,*52
05/28/2014	03:02:39.106	$GPGGA,030238,2543.8839,N,08009.7287,W,1,9,1.6,24,M,,M,,*53
05/28/2014	03:02:38.528	$GPGGA,030239,2543.8839,N,08009.7287,W,1,9,1.6,25,M,,M,,*53
05/28/2014	03:02:39.698	$GPGGA,030240,2543.8839,N,08009.7287,W,1,9,1.9,25,M,,M,,*52
05/28/2014	03:02:40.612	$GPGGA,030241,2543.8839,N,08009.7287,W,1,8,1.9,25,M,,M,,*52
05/28/2014	03:02:41.608	$GPGGA,030242,2543.8839,N,08009.7286,W,1,8,1.9,24,M,,M,,*51
05/28/2014	03:02:42.634	$GPGGA,030243,2543.8839,N,08009.7287,W,1,8,1.9,24,M,,M,,*51
05/28/2014	03:02:43.795	$GPGGA,030244,2543.8839,N,08009.7286,W,1,8,1.9,24,M,,M,,*57
05/28/2014	03:02:44.821	$GPGGA,030245,2543.8839,N,08009.7287,W,1,8,1.9,24,M,,M,,*57
05/28/2014	03:02:45.817	$GPGGA,030246,2543.8839,N,08009.7281,W,1,8,1.6,25,M,,M,,*5C
05/28/2014	03:02:46.833	$GPGGA,030247,2543.8839,N,08009.7283,W,1,9,1.9,25,M,,M,,*51
05/28/2014	03:02:47.901	$GPGGA,030248,2543.8839,N,08009.7280,W,1,9,1.6,25,M,,M,,*52
05/28/2014	03:02:48.907	$GPGGA,030249,2543.8839,N,08009.7276,W,1,9,1.6,25,M,,M,,*5A
05/28/2014	03:02:49.913	$GPGGA,030250,2543.8839,N,08009.7274,W,1,9,1.6,25,M,,M,,*50
05/28/2014	03:02:50.940	$GPGGA,030251,2543.8839,N,08009.7273,W,1,9,1.6,25,M,,M,,*56
05/28/2014	03:02:51.966	$GPGGA,030252,2543.8839,N,08009.7272,W,1,9,1.6,25,M,,M,,*54
05/28/2014	03:02:52.993	$GPGGA,030253,2543.8839,N,08009.7272,W,1,9,1.6,25,M,,M,,*55
05/28/2014	03:02:54.008	$GPGGA,030254,2543.8839,N,08009.7273,W,1,9,1.7,25,M,,M,,*52
05/28/2014	03:02:55.055	$GPGGA,030255,2543.8835,N,08009.7276,W,1,8,1.6,25,M,,M,,*5A
05/28/2014	03:02:56.072	$GPGGA,030256,2543.8833,N,08009.7276,W,1,8,1.6,25,M,,M,,*5F
05/28/2014	03:02:57.067	$GPGGA,030257,2543.8832,N,08009.7277,W,1,9,1.6,26,M,,M,,*5C
05/28/2014	03:02:58.115	$GPGGA,030258,2543.8830,N,08009.7280,W,1,9,1.9,26,M,,M,,*56
05/28/2014	03:02:59.151	$GPGGA,030259,2543.8829,N,08009.7281,W,1,8,1.9,26,M,,M,,*5F
05/28/2014	03:03:00.188	$GPGGA,030300,2543.8828,N,08009.7283,W,1,8,1.9,26,M,,M,,*51
05/28/2014	03:03:01.194	$GPGGA,030301,2543.8828,N,08009.7284,W,1,8,1.9,26,M,,M,,*57
05/28/2014	03:03:02.191	$GPGGA,030302,2543.8826,N,08009.7285,W,1,8,1.9,26,M,,M,,*5B
05/28/2014	03:03:03.227	$GPGGA,030303,2543.8827,N,08009.7287,W,1,8,1.9,26,M,,M,,*59
05/28/2014	03:03:04.264	$GPGGA,030304,2543.8826,N,08009.7286,W,1,8,1.9,26,M,,M,,*5E
05/28/2014	03:03:05.301	$GPGGA,030305,2543.8827,N,08009.7287,W,1,8,1.9,26,M,,M,,*5F
05/28/2014	03:03:06.297	$GPGGA,030306,2543.8826,N,08009.7287,W,1,8,1.9,25,M,,M,,*5E
05/28/2014	03:03:07.354	$GPGGA,030307,2543.8827,N,08009.7287,W,1,8,2.0,25,M,,M,,*54
05/28/2014	03:03:08.371	$GPGGA,030308,2543.8830,N,08009.7285,W,1,8,1.9,25,M,,M,,*55
05/28/2014	03:03:09.407	$GPGGA,030309,2543.8831,N,08009.7285,W,1,8,1.9,25,M,,M,,*55
05/28/2014	03:03:10.393	$GPGGA,030310,2543.8830,N,08009.7285,W,1,8,1.9,25,M,,M,,*5C
05/28/2014	03:03:11.429	$GPGGA,030311,2543.8831,N,08009.7284,W,1,8,1.9,25,M,,M,,*5D
05/28/2014	03:03:12.455	$GPGGA,030312,2543.8831,N,08009.7285,W,1,8,1.9,25,M,,M,,*5F
05/28/2014	03:03:13.492	$GPGGA,030313,2543.8831,N,08009.7284,W,1,8,1.9,25,M,,M,,*5F
05/28/2014	03:03:14.498	$GPGGA,030314,2543.8833,N,08009.7284,W,1,8,1.9,24,M,,M,,*5B
05/28/2014	03:03:15.536	$GPGGA,030315,2543.8832,N,08009.7284,W,1,8,1.9,24,M,,M,,*5B
05/28/2014	03:03:16.562	$GPGGA,030316,2543.8834,N,08009.7283,W,1,8,1.9,24,M,,M,,*59
05/28/2014	03:03:17.598	$GPGGA,030317,2543.8833,N,08009.7284,W,1,8,1.9,24,M,,M,,*58
05/28/2014	03:03:18.595	$GPGGA,030318,2543.8834,N,08009.7283,W,1,8,1.9,24,M,,M,,*57
05/28/2014	03:03:19.621	$GPGGA,030319,2543.8833,N,08009.7284,W,1,8,1.9,24,M,,M,,*56
05/28/2014	03:03:20.678	$GPGGA,030320,2543.8834,N,08009.7284,W,1,8,1.9,23,M,,M,,*5C
05/28/2014	03:03:21.695	$GPGGA,030321,2543.8833,N,08009.7283,W,1,8,1.9,23,M,,M,,*5D
05/28/2014	03:03:22.701	$GPGGA,030322,2543.8834,N,08009.7283,W,1,8,1.9,23,M,,M,,*59
05/28/2014	03:03:23.748	$GPGGA,030323,2543.8833,N,08009.7283,W,1,8,1.9,23,M,,M,,*5F
05/28/2014	03:03:24.764	$GPGGA,030324,2543.8834,N,08009.7283,W,1,8,1.9,23,M,,M,,*5F
05/28/2014	03:03:25.780	$GPGGA,030325,2543.8832,N,08009.7283,W,1,8,1.9,23,M,,M,,*58
05/28/2014	03:03:26.817	$GPGGA,030326,2543.8833,N,08009.7284,W,1,8,1.9,22,M,,M,,*5C
05/28/2014	03:03:27.844	$GPGGA,030327,2543.8832,N,08009.7284,W,1,8,1.9,22,M,,M,,*5C
05/28/2014	03:03:28.870	$GPGGA,030328,2543.8833,N,08009.7283,W,1,8,1.9,22,M,,M,,*55
05/28/2014	03:03:29.865	$GPGGA,030329,2543.8832,N,08009.7283,W,1,8,1.9,22,M,,M,,*55
05/28/2014	03:03:31.005	$GPGGA,030330,2543.8833,N,08009.7283,W,1,8,1.9,22,M,,M,,*5C
05/28/2014	03:03:31.908	$GPGGA,030331,2543.8832,N,08009.7283,W,1,8,1.9,22,M,,M,,*5C
05/28/2014	03:03:33.048	$GPGGA,030332,2543.8833,N,08009.7283,W,1,8,1.9,22,M,,M,,*5E
05/28/2014	03:03:34.074	$GPGGA,030333,2543.8831,N,08009.7283,W,1,8,1.9,21,M,,M,,*5E
05/28/2014	03:03:34.998	$GPGGA,030334,2543.8831,N,08009.7283,W,1,8,1.9,21,M,,M,,*59
05/28/2014	03:03:36.107	$GPGGA,030335,2543.8831,N,08009.7283,W,1,8,1.9,21,M,,M,,*58
05/28/2014	03:03:37.164	$GPGGA,030336,2543.8831,N,08009.7283,W,1,8,1.9,21,M,,M,,*5B
05/28/2014	03:03:38.150	$GPGGA,030337,2543.8831,N,08009.7283,W,1,8,1.9,21,M,,M,,*5A
05/28/2014	03:03:39.187	$GPGGA,030338,2543.8831,N,08009.7283,W,1,8,1.9,21,M,,M,,*55
05/28/2014	03:03:38.640	$GPGGA,030339,2543.8830,N,08009.7283,W,1,8,1.9,21,M,,M,,*55
05/28/2014	03:03:39.656	$GPGGA,030340,2543.8831,N,08009.7283,W,1,8,1.9,21,M,,M,,*5A
05/28/2014	03:03:40.673	$GPGGA,030341,2543.8830,N,08009.7283,W,1,8,1.9,20,M,,M,,*5B
05/28/2014	03:03:41.689	$GPGGA,030342,2543.8829,N,08009.7283,W,1,8,1.9,20,M,,M,,*50
05/28/2014	03:03:42.726	$GPGGA,030343,2543.8830,N,08009.7283,W,1,8,1.9,20,M,,M,,*59
05/28/2014	03:03:43.742	$GPGGA,030344,2543.8828,N,08009.7283,W,1,8,1.9,20,M,,M,,*57
05/28/2014	03:03:44.789	$GPGGA,030345,2543.8831,N,08009.7281,W,1,7,2.0,20,M,,M,,*59
05/28/2014	03:03:45.774	$GPGGA,030346,2543.8831,N,08009.7280,W,1,7,1.9,20,M,,M,,*51
05/28/2014	03:03:46.821	$GPGGA,030347,2543.8834,N,08009.7279,W,1,8,1.9,20,M,,M,,*5C
05/28/2014	03:03:47.837	$GPGGA,030348,2543.8837,N,08009.7277,W,1,8,1.9,20,M,,M,,*5E
05/28/2014	03:03:48.874	$GPGGA,030349,2543.8838,N,08009.7277,W,1,8,1.9,20,M,,M,,*50
05/28/2014	03:03:49.890	$GPGGA,030350,2543.8837,N,08009.7276,W,1,8,1.9,20,M,,M,,*56
05/28/2014	03:03:50.927	$GPGGA,030351,2543.8838,N,08009.7276,W,1,8,1.9,19,M,,M,,*52
05/28/2014	03:03:51.945	$GPGGA,030352,2543.8839,N,08009.7276,W,1,8,1.9,19,M,,M,,*50
05/28/2014	03:03:52.982	$GPGGA,030353,2543.8839,N,08009.7275,W,1,8,1.9,19,M,,M,,*52
05/28/2014	03:03:53.976	$GPGGA,030354,2543.8839,N,08009.7276,W,1,8,1.9,19,M,,M,,*56
05/28/2014	03:03:55.023	$GPGGA,030355,2543.8836,N,08009.7277,W,1,7,2.0,19,M,,M,,*5C
05/28/2014	03:03:56.040	$GPGGA,030356,2543.8837,N,08009.7277,W,1,7,1.9,19,M,,M,,*54
05/28/2014	03:03:57.047	$GPGGA,030357,2543.8836,N,08009.7277,W,1,8,1.9,19,M,,M,,*5B
05/28/2014	03:03:58.083	$GPGGA,030358,2543.8837,N,08009.7277,W,1,8,1.9,19,M,,M,,*55
05/28/2014	03:03:59.099	$GPGGA,030359,2543.8835,N,08009.7279,W,1,8,1.9,19,M,,M,,*58
05/28/2014	03:04:00.146	$GPGGA,030400,2543.8835,N,08009.7278,W,1,8,1.9,19,M,,M,,*52
05/28/2014	03:04:01.142	$GPGGA,030401,2543.8833,N,08009.7280,W,1,8,1.9,19,M,,M,,*52
05/28/2014	03:04:02.179	$GPGGA,030402,2543.8834,N,08009.7280,W,1,8,1.9,19,M,,M,,*56
05/28/2014	03:04:03.216	$GPGGA,030403,2543.8832,N,08009.7280,W,1,8,1.9,19,M,,M,,*51
05/28/2014	03:04:04.241	$GPGGA,030404,2543.8833,N,08009.7280,W,1,8,1.9,19,M,,M,,*57
05/28/2014	03:04:05.247	$GPGGA,030405,2543.8832,N,08009.7280,W,1,8,1.9,19,M,,M,,*57
05/28/2014	03:04:06.274	$GPGGA,030406,2543.8833,N,08009.7279,W,1,8,1.9,19,M,,M,,*53
05/28/2014	03:04:07.312	$GPGGA,030407,2543.8834,N,08009.7280,W,1,8,1.9,19,M,,M,,*53
05/28/2014	03:04:08.338	$GPGGA,030408,2543.8833,N,08009.7279,W,1,8,1.9,19,M,,M,,*5D
05/28/2014	03:04:09.354	$GPGGA,030409,2543.8835,N,08009.7278,W,1,8,1.9,19,M,,M,,*5B
05/28/2014	03:04:10.360	$GPGGA,030410,2543.8835,N,08009.7279,W,1,8,1.9,19,M,,M,,*52
05/28/2014	03:04:11.407	$GPGGA,030411,2543.8835,N,08009.7277,W,1,8,1.9,19,M,,M,,*5D
05/28/2014	03:04:12.444	$GPGGA,030412,2543.8835,N,08009.7277,W,1,8,1.9,19,M,,M,,*5E
05/28/2014	03:04:13.460	$GPGGA,030413,2543.8835,N,08009.7277,W,1,8,1.9,19,M,,M,,*5F
05/28/2014	03:04:14.476	$GPGGA,030414,2543.8835,N,08009.7277,W,1,8,1.9,19,M,,M,,*58
05/28/2014	03:04:15.585	$GPGGA,030415,2543.8835,N,08009.7277,W,1,8,1.9,19,M,,M,,*59
05/28/2014	03:04:16.520	$GPGGA,030416,2543.8837,N,08009.7277,W,1,8,1.9,19,M,,M,,*58
05/28/2014	03:04:17.638	$GPGGA,030417,2543.8836,N,08009.7277,W,1,8,1.9,19,M,,M,,*58
05/28/2014	03:04:18.552	$GPGGA,030418,2543.8837,N,08009.7277,W,1,8,1.9,19,M,,M,,*56
05/28/2014	03:04:19.723	$GPGGA,030419,2543.8836,N,08009.7276,W,1,8,1.9,20,M,,M,,*5D
05/28/2014	03:04:20.636	$GPGGA,030420,2543.8838,N,08009.7276,W,1,8,1.9,20,M,,M,,*59
05/28/2014	03:04:21.641	$GPGGA,030421,2543.8837,N,08009.7276,W,1,8,1.9,20,M,,M,,*57
05/28/2014	03:04:22.770	$GPGGA,030422,2543.8838,N,08009.7276,W,1,8,1.9,20,M,,M,,*5B
05/28/2014	03:04:23.807	$GPGGA,030423,2543.8837,N,08009.7276,W,1,8,1.9,20,M,,M,,*55
05/28/2014	03:04:24.824	$GPGGA,030424,2543.8838,N,08009.7275,W,1,8,1.9,20,M,,M,,*5E
05/28/2014	03:04:25.860	$GPGGA,030425,2543.8837,N,08009.7276,W,1,8,1.9,20,M,,M,,*53
05/28/2014	03:04:26.856	$GPGGA,030426,2543.8838,N,08009.7275,W,1,8,1.9,20,M,,M,,*5C
05/28/2014	03:04:27.893	$GPGGA,030427,2543.8837,N,08009.7276,W,1,8,1.9,20,M,,M,,*51
05/28/2014	03:04:28.930	$GPGGA,030428,2543.8838,N,08009.7275,W,1,8,1.9,20,M,,M,,*52
05/28/2014	03:04:29.946	$GPGGA,030429,2543.8837,N,08009.7276,W,1,8,1.9,20,M,,M,,*5F
05/28/2014	03:04:30.964	$GPGGA,030430,2543.8838,N,08009.7275,W,1,8,1.9,20,M,,M,,*5B
05/28/2014	03:04:32.000	$GPGGA,030431,2543.8836,N,08009.7276,W,1,8,1.9,20,M,,M,,*57
05/28/2014	03:04:33.026	$GPGGA,030432,2543.8837,N,08009.7275,W,1,8,1.9,21,M,,M,,*57
05/28/2014	03:04:34.053	$GPGGA,030433,2543.8836,N,08009.7276,W,1,8,1.9,21,M,,M,,*54
05/28/2014	03:04:35.049	$GPGGA,030434,2543.8837,N,08009.7276,W,1,8,1.9,21,M,,M,,*52
05/28/2014	03:04:36.096	$GPGGA,030435,2543.8835,N,08009.7275,W,1,8,1.9,21,M,,M,,*52
05/28/2014	03:04:37.133	$GPGGA,030436,2543.8835,N,08009.7276,W,1,8,1.9,21,M,,M,,*52
05/28/2014	03:04:38.149	$GPGGA,030437,2543.8835,N,08009.7276,W,1,8,1.9,21,M,,M,,*53
05/28/2014	03:04:39.144	$GPGGA,030438,2543.8835,N,08009.7276,W,1,8,1.9,21,M,,M,,*5C
05/28/2014	03:04:38.616	$GPGGA,030439,2543.8835,N,08009.7276,W,1,8,1.9,21,M,,M,,*5D
05/28/2014	03:04:39.612	$GPGGA,030440,2543.8835,N,08009.7276,W,1,8,1.9,21,M,,M,,*53
05/28/2014	03:04:40.659	$GPGGA,030441,2543.8835,N,08009.7276,W,1,8,1.9,21,M,,M,,*52
05/28/2014	03:04:41.645	$GPGGA,030442,2543.8835,N,08009.7276,W,1,8,1.9,22,M,,M,,*52
05/28/2014	03:04:42.671	$GPGGA,030443,2543.8837,N,08009.7276,W,1,8,1.9,22,M,,M,,*51
05/28/2014	03:04:43.719	$GPGGA,030444,2543.8836,N,08009.7276,W,1,8,1.9,22,M,,M,,*57
05/28/2014	03:04:44.725	$GPGGA,030445,2543.8838,N,08009.7275,W,1,8,1.9,22,M,,M,,*5B
05/28/2014	03:04:45.751	$GPGGA,030446,2543.8837,N,08009.7276,W,1,8,1.9,22,M,,M,,*54
05/28/2014	03:04:46.778	$GPGGA,030447,2543.8838,N,08009.7275,W,1,8,1.9,22,M,,M,,*59
05/28/2014	03:04:47.815	$GPGGA,030448,2543.8839,N,08009.7276,W,1,8,1.9,22,M,,M,,*54
05/28/2014	03:04:48.863	$GPGGA,030449,2543.8839,N,08009.7274,W,1,8,1.9,22,M,,M,,*57
05/28/2014	03:04:49.858	$GPGGA,030450,2543.8839,N,08009.7274,W,1,8,1.9,22,M,,M,,*5F
05/28/2014	03:04:50.905	$GPGGA,030451,2543.8839,N,08009.7274,W,1,8,1.9,22,M,,M,,*5E
05/28/2014	03:04:51.921	$GPGGA,030452,2543.8839,N,08009.7274,W,1,8,1.9,22,M,,M,,*5D
05/28/2014	03:04:53.040	$GPGGA,030453,2543.8839,N,08009.7273,W,1,8,1.9,22,M,,M,,*5B
05/28/2014	03:04:53.964	$GPGGA,030454,2543.8839,N,08009.7273,W,1,8,1.9,22,M,,M,,*5C
05/28/2014	03:04:55.001	$GPGGA,030455,2543.8841,N,08009.7273,W,1,8,1.9,22,M,,M,,*52
05/28/2014	03:04:56.006	$GPGGA,030456,2543.8840,N,08009.7273,W,1,8,1.9,22,M,,M,,*50
05/28/2014	03:04:57.135	$GPGGA,030457,2543.8841,N,08009.7273,W,1,8,1.9,22,M,,M,,*50
05/28/2014	03:04:58.039	$GPGGA,030458,2543.8840,N,08009.7273,W,1,8,1.9,22,M,,M,,*5E
05/28/2014	03:04:59.086	$GPGGA,030459,2543.8841,N,08009.7273,W,1,8,1.9,22,M,,M,,*5E
05/28/2014	03:05:00.123	$GPGGA,030500,2543.8840,N,08009.7273,W,1,8,1.9,22,M,,M,,*52
05/28/2014	03:05:01.118	$GPGGA,030501,2543.8842,N,08009.7273,W,1,8,1.9,22,M,,M,,*51
05/28/2014	03:05:02.237	$GPGGA,030502,2543.8840,N,08009.7273,W,1,8,1.9,22,M,,M,,*50
05/28/2014	03:05:03.305	$GPGGA,030503,2543.8841,N,08009.7273,W,1,8,1.9,22,M,,M,,*50
05/28/2014	03:05:04.208	$GPGGA,030504,2543.8840,N,08009.7273,W,1,8,1.9,22,M,,M,,*56
05/28/2014	03:05:05.245	$GPGGA,030505,2543.8842,N,08009.7273,W,1,8,1.9,22,M,,M,,*55
05/28/2014	03:05:06.333	$GPGGA,030506,2543.8840,N,08009.7273,W,1,8,1.9,22,M,,M,,*54
05/28/2014	03:05:07.381	$GPGGA,030507,2543.8841,N,08009.7273,W,1,8,1.9,22,M,,M,,*54
05/28/2014	03:05:08.315	$GPGGA,030508,2543.8840,N,08009.7273,W,1,8,1.9,22,M,,M,,*5A
05/28/2014	03:05:09.424	$GPGGA,030509,2543.8842,N,08009.7273,W,1,8,1.9,22,M,,M,,*59
05/28/2014	03:05:10.450	$GPGGA,030510,2543.8840,N,08009.7273,W,1,8,1.9,22,M,,M,,*53
05/28/2014	03:05:11.508	$GPGGA,030511,2543.8841,N,08009.7272,W,1,8,1.9,22,M,,M,,*52
05/28/2014	03:05:12.514	$GPGGA,030512,2543.8840,N,08009.7273,W,1,8,1.9,22,M,,M,,*51
05/28/2014	03:05:13.508	$GPGGA,030513,2543.8841,N,08009.7272,W,1,8,1.9,22,M,,M,,*50
05/28/2014	03:05:14.535	$GPGGA,030514,2543.8840,N,08009.7273,W,1,8,1.9,22,M,,M,,*57
05/28/2014	03:05:15.592	$GPGGA,030515,2543.8841,N,08009.7273,W,1,8,1.9,22,M,,M,,*57
05/28/2014	03:05:16.598	$GPGGA,030516,2543.8840,N,08009.7273,W,1,8,1.9,22,M,,M,,*55
05/28/2014	03:05:17.625	$GPGGA,030517,2543.8841,N,08009.7273,W,1,8,1.9,22,M,,M,,*55
05/28/2014	03:05:18.634	$GPGGA,030518,2543.8840,N,08009.7273,W,1,8,1.9,22,M,,M,,*5B
05/28/2014	03:05:19.678	$GPGGA,030519,2543.8841,N,08009.7273,W,1,8,1.9,22,M,,M,,*5B
05/28/2014	03:05:20.705	$GPGGA,030520,2543.8840,N,08009.7273,W,1,8,1.9,22,M,,M,,*50
05/28/2014	03:05:21.731	$GPGGA,030521,2543.8841,N,08009.7273,W,1,8,1.9,22,M,,M,,*50
05/28/2014	03:05:22.727	$GPGGA,030522,2543.8839,N,08009.7273,W,1,8,1.9,22,M,,M,,*5C
05/28/2014	03:05:23.754	$GPGGA,030523,2543.8841,N,08009.7273,W,1,8,1.9,22,M,,M,,*52
05/28/2014	03:05:24.801	$GPGGA,030524,2543.8840,N,08009.7273,W,1,8,1.9,22,M,,M,,*54
05/28/2014	03:05:25.828	$GPGGA,030525,2543.8839,N,08009.7273,W,1,8,1.9,22,M,,M,,*5B
05/28/2014	03:05:26.835	$GPGGA,030526,2543.8839,N,08009.7273,W,1,8,1.9,22,M,,M,,*58
05/28/2014	03:05:27.881	$GPGGA,030527,2543.8839,N,08009.7273,W,1,8,1.9,22,M,,M,,*59
05/28/2014	03:05:28.887	$GPGGA,030528,2543.8839,N,08009.7274,W,1,8,1.9,22,M,,M,,*51
05/28/2014	03:05:29.893	$GPGGA,030529,2543.8839,N,08009.7274,W,1,8,1.9,22,M,,M,,*50
05/28/2014	03:05:30.930	$GPGGA,030530,2543.8839,N,08009.7274,W,1,8,1.9,22,M,,M,,*58
05/28/2014	03:05:31.945	$GPGGA,030531,2543.8839,N,08009.7274,W,1,8,1.9,22,M,,M,,*59
05/28/2014	03:05:32.992	$GPGGA,030532,2543.8839,N,08009.7274,W,1,8,1.9,22,M,,M,,*5A
05/28/2014	03:05:33.998	$GPGGA,030533,2543.8839,N,08009.7274,W,1,8,1.9,22,M,,M,,*5B
05/28/2014	03:05:35.035	$GPGGA,030534,2543.8839,N,08009.7273,W,1,8,1.9,22,M,,M,,*5B
05/28/2014	03:05:36.041	$GPGGA,030535,2543.8839,N,08009.7273,W,1,8,1.9,22,M,,M,,*5A
05/28/2014	03:05:37.088	$GPGGA,030536,2543.8839,N,08009.7273,W,1,8,1.9,22,M,,M,,*59
05/28/2014	03:05:38.115	$GPGGA,030537,2543.8839,N,08009.7274,W,1,8,1.9,22,M,,M,,*5F
05/28/2014	03:05:39.121	$GPGGA,030538,2543.8839,N,08009.7273,W,1,8,1.9,21,M,,M,,*54
05/28/2014	03:05:38.554	$GPGGA,030539,2543.8839,N,08009.7274,W,1,8,1.9,21,M,,M,,*52
05/28/2014	03:05:39.734	$GPGGA,030540,2543.8839,N,08009.7274,W,1,8,1.9,21,M,,M,,*5C
05/28/2014	03:05:40.597	$GPGGA,030541,2543.8839,N,08009.7274,W,1,8,1.9,21,M,,M,,*5D
05/28/2014	03:05:41.767	$GPGGA,030542,2543.8839,N,08009.7274,W,1,8,1.9,21,M,,M,,*5E
05/28/2014	03:05:42.660	$GPGGA,030543,2543.8839,N,08009.7274,W,1,8,1.9,21,M,,M,,*5F
05/28/2014	03:05:43.676	$GPGGA,030544,2543.8839,N,08009.7274,W,1,8,1.9,21,M,,M,,*58
05/28/2014	03:05:44.724	$GPGGA,030545,2543.8839,N,08009.7274,W,1,8,1.9,21,M,,M,,*59
05/28/2014	03:05:45.719	$GPGGA,030546,2543.8839,N,08009.7273,W,1,8,1.9,21,M,,M,,*5D
05/28/2014	03:05:46.767	$GPGGA,030547,2543.8839,N,08009.7273,W,1,8,1.9,21,M,,M,,*5C
05/28/2014	03:05:47.792	$GPGGA,030548,2543.8839,N,08009.7273,W,1,8,1.9,21,M,,M,,*53
05/28/2014	03:05:48.788	$GPGGA,030549,2543.8839,N,08009.7273,W,1,8,1.9,21,M,,M,,*52
05/28/2014	03:05:51.898	$GPGGA,030552,2543.8839,N,08009.7273,W,1,8,1.9,21,M,,M,,*58
05/28/2014	03:05:52.987	$GPGGA,030553,2543.8839,N,08009.7273,W,1,8,1.9,21,M,,M,,*59
05/28/2014	03:05:53.921	$GPGGA,030554,2543.8839,N,08009.7273,W,1,8,1.9,21,M,,M,,*5E
05/28/2014	03:05:55.040	$GPGGA,030555,2543.8841,N,08009.7273,W,1,8,1.9,21,M,,M,,*50
05/28/2014	03:05:55.995	$GPGGA,030556,2543.8840,N,08009.7273,W,1,8,1.9,21,M,,M,,*52
05/28/2014	03:05:57.185	$GPGGA,030557,2543.8841,N,08009.7272,W,1,8,1.9,21,M,,M,,*53
05/28/2014	03:05:58.017	$GPGGA,030558,2543.8840,N,08009.7272,W,1,8,1.9,21,M,,M,,*5D
05/28/2014	03:05:59.218	$GPGGA,030559,2543.8841,N,08009.7272,W,1,8,1.9,20,M,,M,,*5C
05/28/2014	03:06:00.224	$GPGGA,030600,2543.8840,N,08009.7272,W,1,8,1.9,20,M,,M,,*52
05/28/2014	03:06:01.199	$GPGGA,030601,2543.8841,N,08009.7272,W,1,8,1.9,20,M,,M,,*52
05/28/2014	03:06:02.236	$GPGGA,030602,2543.8840,N,08009.7272,W,1,8,1.9,20,M,,M,,*50
05/28/2014	03:06:03.304	$GPGGA,030603,2543.8842,N,08009.7272,W,1,8,1.9,20,M,,M,,*53
05/28/2014	03:06:04.331	$GPGGA,030604,2543.8842,N,08009.7273,W,1,8,1.9,20,M,,M,,*55
05/28/2014	03:06:05.398	$GPGGA,030605,2543.8842,N,08009.7272,W,1,8,1.9,20,M,,M,,*55
05/28/2014	03:06:06.362	$GPGGA,030606,2543.8842,N,08009.7272,W,1,8,1.9,20,M,,M,,*56
05/28/2014	03:06:07.399	$GPGGA,030607,2543.8842,N,08009.7272,W,1,8,1.9,20,M,,M,,*57
05/28/2014	03:06:08.415	$GPGGA,030608,2543.8842,N,08009.7272,W,1,8,1.9,20,M,,M,,*58
05/28/2014	03:06:09.494	$GPGGA,030609,2543.8842,N,08009.7272,W,1,8,1.9,20,M,,M,,*59
05/28/2014	03:06:10.438	$GPGGA,030610,2543.8842,N,08009.7272,W,1,8,1.9,20,M,,M,,*51
05/28/2014	03:06:11.505	$GPGGA,030611,2543.8842,N,08009.7272,W,1,8,1.9,20,M,,M,,*50
05/28/2014	03:06:12.501	$GPGGA,030612,2543.8842,N,08009.7272,W,1,8,1.9,20,M,,M,,*53
05/28/2014	03:06:13.589	$GPGGA,030613,2543.8842,N,08009.7272,W,1,8,1.9,20,M,,M,,*52
05/28/2014	03:06:14.501	$GPGGA,030614,2543.8842,N,08009.7272,W,1,8,1.9,20,M,,M,,*55
05/28/2014	03:06:15.603	$GPGGA,030615,2543.8844,N,08009.7272,W,1,8,1.9,20,M,,M,,*52
05/28/2014	03:06:16.563	$GPGGA,030616,2543.8843,N,08009.7272,W,1,8,1.9,20,M,,M,,*56
05/28/2014	03:06:17.595	$GPGGA,030617,2543.8844,N,08009.7272,W,1,8,1.9,20,M,,M,,*50
05/28/2014	03:06:18.576	$GPGGA,030618,2543.8843,N,08009.7273,W,1,8,1.9,20,M,,M,,*59
05/28/2014	03:06:19.668	$GPGGA,030619,2543.8844,N,08009.7273,W,1,8,1.9,20,M,,M,,*5F
05/28/2014	03:06:20.598	$GPGGA,030620,2543.8845,N,08009.7273,W,1,8,1.9,20,M,,M,,*54
05/28/2014	03:06:21.700	$GPGGA,030621,2543.8844,N,08009.7272,W,1,8,1.9,21,M,,M,,*54
05/28/2014	03:06:22.570	$GPGGA,030622,2543.8845,N,08009.7272,W,1,8,1.9,21,M,,M,,*56
05/28/2014	03:06:23.681	$GPGGA,030623,2543.8846,N,08009.7272,W,1,8,1.9,21,M,,M,,*54
05/28/2014	03:06:24.642	$GPGGA,030624,2543.8846,N,08009.7272,W,1,8,1.9,21,M,,M,,*53
05/28/2014	03:06:25.673	$GPGGA,030625,2543.8846,N,08009.7272,W,1,8,1.9,21,M,,M,,*52
05/28/2014	03:06:26.644	$GPGGA,030626,2543.8846,N,08009.7272,W,1,8,1.9,21,M,,M,,*51
05/28/2014	03:06:27.736	$GPGGA,030627,2543.8846,N,08009.7273,W,1,8,1.9,21,M,,M,,*51
05/28/2014	03:06:28.636	$GPGGA,030628,2543.8848,N,08009.7272,W,1,8,1.9,21,M,,M,,*51
05/28/2014	03:06:29.637	$GPGGA,030629,2543.8847,N,08009.7273,W,1,8,1.9,21,M,,M,,*5E
05/28/2014	03:06:30.648	$GPGGA,030630,2543.8848,N,08009.7273,W,1,8,1.9,21,M,,M,,*59
05/28/2014	03:06:31.772	$GPGGA,030631,2543.8849,N,08009.7273,W,1,8,1.9,21,M,,M,,*59
05/28/2014	03:06:32.682	$GPGGA,030632,2543.8849,N,08009.7273,W,1,8,1.9,21,M,,M,,*5A
05/28/2014	03:06:33.672	$GPGGA,030633,2543.8849,N,08009.7273,W,1,8,1.9,21,M,,M,,*5B
05/28/2014	03:06:34.714	$GPGGA,030634,2543.8849,N,08009.7273,W,1,8,1.9,21,M,,M,,*5C
05/28/2014	03:06:35.826	$GPGGA,030635,2543.8850,N,08009.7273,W,1,8,1.9,21,M,,M,,*55
05/28/2014	03:06:36.756	$GPGGA,030636,2543.8850,N,08009.7273,W,1,8,1.9,21,M,,M,,*56
05/28/2014	03:06:37.808	$GPGGA,030637,2543.8850,N,08009.7272,W,1,8,1.9,22,M,,M,,*55
05/28/2014	03:06:38.718	$GPGGA,030638,2543.8850,N,08009.7273,W,1,8,1.9,22,M,,M,,*5B
05/28/2014	03:06:38.600	$GPGGA,030639,2543.8850,N,08009.7273,W,1,8,1.9,22,M,,M,,*5A
05/28/2014	03:06:39.531	$GPGGA,030640,2543.8850,N,08009.7273,W,1,8,1.9,22,M,,M,,*54
05/28/2014	03:06:40.622	$GPGGA,030641,2543.8850,N,08009.7273,W,1,8,1.9,22,M,,M,,*55
05/28/2014	03:06:41.643	$GPGGA,030642,2543.8850,N,08009.7273,W,1,8,1.9,22,M,,M,,*56
05/28/2014	03:06:42.634	$GPGGA,030643,2543.8850,N,08009.7273,W,1,8,1.9,22,M,,M,,*57
05/28/2014	03:06:43.666	$GPGGA,030644,2543.8850,N,08009.7274,W,1,8,1.9,22,M,,M,,*57
05/28/2014	03:06:44.677	$GPGGA,030645,2543.8850,N,08009.7274,W,1,8,1.9,22,M,,M,,*56
05/28/2014	03:06:45.678	$GPGGA,030646,2543.8850,N,08009.7274,W,1,8,1.9,22,M,,M,,*55
05/28/2014	03:06:46.750	$GPGGA,030647,2543.8850,N,08009.7274,W,1,8,1.9,22,M,,M,,*54
05/28/2014	03:06:47.700	$GPGGA,030648,2543.8850,N,08009.7274,W,1,8,1.9,22,M,,M,,*5B
05/28/2014	03:06:48.711	$GPGGA,030649,2543.8850,N,08009.7274,W,1,8,1.9,22,M,,M,,*5A
05/28/2014	03:06:49.713	$GPGGA,030650,2543.8849,N,08009.7274,W,1,8,1.9,22,M,,M,,*5A
05/28/2014	03:06:50.734	$GPGGA,030651,2543.8849,N,08009.7274,W,1,8,1.9,22,M,,M,,*5B
05/28/2014	03:06:51.745	$GPGGA,030652,2543.8849,N,08009.7274,W,1,8,1.9,22,M,,M,,*58
05/28/2014	03:06:52.776	$GPGGA,030653,2543.8848,N,08009.7274,W,1,8,1.9,22,M,,M,,*58
05/28/2014	03:06:53.747	$GPGGA,030654,2543.8849,N,08009.7276,W,1,8,1.9,22,M,,M,,*5C
05/28/2014	03:06:54.789	$GPGGA,030655,2543.8847,N,08009.7275,W,1,8,1.9,22,M,,M,,*50
05/28/2014	03:06:55.780	$GPGGA,030656,2543.8848,N,08009.7276,W,1,8,1.9,22,M,,M,,*5F
05/28/2014	03:06:56.811	$GPGGA,030657,2543.8846,N,08009.7276,W,1,8,1.9,22,M,,M,,*50
05/28/2014	03:06:57.791	$GPGGA,030658,2543.8846,N,08009.7276,W,1,8,1.9,22,M,,M,,*5F
05/28/2014	03:06:58.883	$GPGGA,030659,2543.8846,N,08009.7276,W,1,8,1.9,22,M,,M,,*5E
05/28/2014	03:06:59.824	$GPGGA,030700,2543.8844,N,08009.7276,W,1,8,1.9,22,M,,M,,*51
05/28/2014	03:07:00.906	$GPGGA,030701,2543.8843,N,08009.7277,W,1,8,1.9,21,M,,M,,*55
05/28/2014	03:07:01.836	$GPGGA,030702,2543.8842,N,08009.7277,W,1,8,1.9,21,M,,M,,*57
05/28/2014	03:07:02.898	$GPGGA,030703,2543.8842,N,08009.7277,W,1,8,1.9,21,M,,M,,*56
05/28/2014	03:07:03.868	$GPGGA,030704,2543.8842,N,08009.7277,W,1,8,1.9,21,M,,M,,*51
05/28/2014	03:07:04.859	$GPGGA,030705,2543.8842,N,08009.7277,W,1,8,1.9,21,M,,M,,*50
05/28/2014	03:07:05.882	$GPGGA,030706,2543.8840,N,08009.7279,W,1,8,1.9,21,M,,M,,*5F
05/28/2014	03:07:06.922	$GPGGA,030707,2543.8839,N,08009.7279,W,1,8,1.9,21,M,,M,,*50
05/28/2014	03:07:07.894	$GPGGA,030708,2543.8839,N,08009.7278,W,1,8,1.9,21,M,,M,,*5E
05/28/2014	03:07:08.934	$GPGGA,030709,2543.8839,N,08009.7279,W,1,8,1.9,21,M,,M,,*5E
05/28/2014	03:07:09.905	$GPGGA,030710,2543.8837,N,08009.7280,W,1,8,1.9,20,M,,M,,*5F
05/28/2014	03:07:10.937	$GPGGA,030711,2543.8837,N,08009.7280,W,1,8,1.9,20,M,,M,,*5E
05/28/2014	03:07:11.929	$GPGGA,030712,2543.8835,N,08009.7280,W,1,8,1.9,20,M,,M,,*5F
05/28/2014	03:07:12.931	$GPGGA,030713,2543.8835,N,08009.7280,W,1,8,1.9,20,M,,M,,*5E
05/28/2014	03:07:13.931	$GPGGA,030714,2543.8833,N,08009.7280,W,1,8,1.9,20,M,,M,,*5F
05/28/2014	03:07:15.012	$GPGGA,030715,2543.8834,N,08009.7280,W,1,8,1.9,20,M,,M,,*59
05/28/2014	03:07:15.972	$GPGGA,030716,2543.8832,N,08009.7280,W,1,8,1.9,19,M,,M,,*56
05/28/2014	03:07:17.013	$GPGGA,030717,2543.8831,N,08009.7280,W,1,8,1.9,19,M,,M,,*54
05/28/2014	03:07:17.964	$GPGGA,030718,2543.8830,N,08009.7280,W,1,8,1.9,19,M,,M,,*5A
05/28/2014	03:07:19.116	$GPGGA,030719,2543.8830,N,08009.7280,W,1,8,1.9,19,M,,M,,*5B
05/28/2014	03:07:20.006	$GPGGA,030720,2543.8828,N,08009.7280,W,1,8,1.9,19,M,,M,,*58
05/28/2014	03:07:21.068	$GPGGA,030721,2543.8828,N,08009.7281,W,1,8,1.9,19,M,,M,,*58
05/28/2014	03:07:22.119	$GPGGA,030722,2543.8828,N,08009.7281,W,1,8,1.9,19,M,,M,,*5B
05/28/2014	03:07:23.030	$GPGGA,030723,2543.8828,N,08009.7281,W,1,8,1.9,18,M,,M,,*5B
05/28/2014	03:07:24.051	$GPGGA,030724,2543.8828,N,08009.7281,W,1,8,1.9,18,M,,M,,*5C
05/28/2014	03:07:25.164	$GPGGA,030725,2543.8825,N,08009.7282,W,1,8,1.9,18,M,,M,,*53
05/28/2014	03:07:26.134	$GPGGA,030726,2543.8826,N,08009.7283,W,1,8,1.9,18,M,,M,,*52
05/28/2014	03:07:27.165	$GPGGA,030727,2543.8825,N,08009.7283,W,1,8,1.9,18,M,,M,,*50
05/28/2014	03:07:28.087	$GPGGA,030728,2543.8824,N,08009.7283,W,1,8,1.9,17,M,,M,,*51
05/28/2014	03:07:29.178	$GPGGA,030729,2543.8824,N,08009.7284,W,1,8,1.9,17,M,,M,,*57
05/28/2014	03:07:30.179	$GPGGA,030730,2543.8824,N,08009.7284,W,1,8,1.9,17,M,,M,,*5F
05/28/2014	03:07:31.190	$GPGGA,030731,2543.8824,N,08009.7283,W,1,8,1.9,17,M,,M,,*59
05/28/2014	03:07:32.201	$GPGGA,030732,2543.8822,N,08009.7284,W,1,8,1.9,17,M,,M,,*5B
05/28/2014	03:07:33.221	$GPGGA,030733,2543.8823,N,08009.7285,W,1,8,1.9,16,M,,M,,*5B
05/28/2014	03:07:34.212	$GPGGA,030734,2543.8822,N,08009.7285,W,1,8,1.9,16,M,,M,,*5D
05/28/2014	03:07:35.234	$GPGGA,030735,2543.8821,N,08009.7285,W,1,8,1.9,16,M,,M,,*5F
05/28/2014	03:07:36.245	$GPGGA,030736,2543.8821,N,08009.7285,W,1,8,1.9,16,M,,M,,*5C
05/28/2014	03:07:37.266	$GPGGA,030737,2543.8821,N,08009.7285,W,1,8,1.9,16,M,,M,,*5D
05/28/2014	03:07:38.247	$GPGGA,030738,2543.8821,N,08009.7285,W,1,8,1.9,15,M,,M,,*51
05/28/2014	03:07:38.609	$GPGGA,030739,2543.8820,N,08009.7287,W,1,8,1.9,15,M,,M,,*53
05/28/2014	03:07:39.610	$GPGGA,030740,2543.8821,N,08009.7286,W,1,8,1.9,15,M,,M,,*5D
05/28/2014	03:07:40.641	$GPGGA,030741,2543.8821,N,08009.7286,W,1,8,1.9,15,M,,M,,*5C
05/28/2014	03:07:41.622	$GPGGA,030742,2543.8820,N,08009.7286,W,1,8,1.9,15,M,,M,,*5E
05/28/2014	03:07:42.633	$GPGGA,030743,2543.8820,N,08009.7287,W,1,8,1.9,15,M,,M,,*5E
05/28/2014	03:07:43.654	$GPGGA,030744,2543.8820,N,08009.7286,W,1,8,1.9,15,M,,M,,*58
05/28/2014	03:07:44.666	$GPGGA,030745,2543.8820,N,08009.7286,W,1,8,1.9,15,M,,M,,*59
05/28/2014	03:07:45.647	$GPGGA,030746,2543.8820,N,08009.7286,W,1,8,1.9,14,M,,M,,*5B
05/28/2014	03:07:46.678	$GPGGA,030747,2543.8820,N,08009.7287,W,1,8,1.9,14,M,,M,,*5B
05/28/2014	03:07:47.689	$GPGGA,030748,2543.8821,N,08009.7286,W,1,8,1.9,14,M,,M,,*54
05/28/2014	03:07:48.680	$GPGGA,030749,2543.8821,N,08009.7287,W,1,8,1.9,14,M,,M,,*54
05/28/2014	03:07:49.692	$GPGGA,030750,2543.8821,N,08009.7286,W,1,8,1.9,14,M,,M,,*5D
05/28/2014	03:07:50.733	$GPGGA,030751,2543.8823,N,08009.7287,W,1,8,1.9,14,M,,M,,*5F
05/28/2014	03:07:51.713	$GPGGA,030752,2543.8822,N,08009.7286,W,1,8,1.9,14,M,,M,,*5C
05/28/2014	03:07:52.744	$GPGGA,030753,2543.8823,N,08009.7287,W,1,8,1.9,14,M,,M,,*5D
05/28/2014	03:07:53.735	$GPGGA,030754,2543.8824,N,08009.7286,W,1,8,1.9,14,M,,M,,*5C
05/28/2014	03:07:54.767	$GPGGA,030755,2543.8824,N,08009.7287,W,1,8,1.9,14,M,,M,,*5C
05/28/2014	03:07:55.757	$GPGGA,030756,2543.8824,N,08009.7286,W,1,8,1.9,14,M,,M,,*5E
05/28/2014	03:07:56.738	$GPGGA,030757,2543.8824,N,08009.7287,W,1,8,1.9,14,M,,M,,*5E
05/28/2014	03:07:57.770	$GPGGA,030758,2543.8824,N,08009.7287,W,1,8,1.9,14,M,,M,,*51
05/28/2014	03:07:58.771	$GPGGA,030759,2543.8824,N,08009.7286,W,1,8,1.9,14,M,,M,,*51
05/28/2014	03:07:59.792	$GPGGA,030800,2543.8826,N,08009.7287,W,1,8,1.9,14,M,,M,,*51
05/28/2014	03:08:00.803	$GPGGA,030801,2543.8825,N,08009.7286,W,1,8,1.9,14,M,,M,,*52
05/28/2014	03:08:01.794	$GPGGA,030802,2543.8826,N,08009.7287,W,1,8,1.9,14,M,,M,,*53
05/28/2014	03:08:02.826	$GPGGA,030803,2543.8825,N,08009.7286,W,1,8,1.9,14,M,,M,,*50
05/28/2014	03:08:03.827	$GPGGA,030804,2543.8826,N,08009.7287,W,1,8,1.9,14,M,,M,,*55
05/28/2014	03:08:04.819	$GPGGA,030805,2543.8825,N,08009.7286,W,1,8,1.9,14,M,,M,,*56
05/28/2014	03:08:05.950	$GPGGA,030806,2543.8826,N,08009.7287,W,1,8,1.9,14,M,,M,,*57
05/28/2014	03:08:06.972	$GPGGA,030807,2543.8825,N,08009.7286,W,1,8,1.9,14,M,,M,,*54
05/28/2014	03:08:07.871	$GPGGA,030808,2543.8826,N,08009.7287,W,1,8,1.9,14,M,,M,,*59
05/28/2014	03:08:08.882	$GPGGA,030809,2543.8827,N,08009.7286,W,1,8,1.9,14,M,,M,,*58
05/28/2014	03:08:09.873	$GPGGA,030810,2543.8826,N,08009.7285,W,1,8,1.9,14,M,,M,,*52
05/28/2014	03:08:10.894	$GPGGA,030811,2543.8827,N,08009.7285,W,1,8,1.9,14,M,,M,,*52
05/28/2014	03:08:11.986	$GPGGA,030812,2543.8826,N,08009.7285,W,1,8,1.9,14,M,,M,,*50
05/28/2014	03:08:13.018	$GPGGA,030813,2543.8828,N,08009.7285,W,1,8,1.9,14,M,,M,,*5F
05/28/2014	03:08:13.908	$GPGGA,030814,2543.8828,N,08009.7285,W,1,8,1.9,14,M,,M,,*58
05/28/2014	03:08:15.030	$GPGGA,030815,2543.8828,N,08009.7285,W,1,8,1.9,14,M,,M,,*59
05/28/2014	03:08:16.051	$GPGGA,030816,2543.8828,N,08009.7287,W,1,8,1.9,14,M,,M,,*58
05/28/2014	03:08:17.032	$GPGGA,030817,2543.8828,N,08009.7286,W,1,8,1.9,14,M,,M,,*58
05/28/2014	03:08:18.043	$GPGGA,030818,2543.8828,N,08009.7285,W,1,8,1.9,14,M,,M,,*54
05/28/2014	03:08:19.044	$GPGGA,030819,2543.8828,N,08009.7285,W,1,8,1.9,14,M,,M,,*55
05/28/2014	03:08:20.076	$GPGGA,030820,2543.8828,N,08009.7285,W,1,8,1.9,14,M,,M,,*5F
05/28/2014	03:08:21.067	$GPGGA,030821,2543.8828,N,08009.7287,W,1,8,1.9,14,M,,M,,*5C
05/28/2014	03:08:23.524	$GPGGA,030823,2543.8828,N,08009.7287,W,1,8,1.9,14,M,,M,,*5E
05/28/2014	03:08:24.111	$GPGGA,030824,2543.8826,N,08009.7287,W,1,8,1.9,14,M,,M,,*57
05/28/2014	03:08:25.122	$GPGGA,030825,2543.8827,N,08009.7287,W,1,8,1.9,14,M,,M,,*57
05/28/2014	03:08:26.112	$GPGGA,030826,2543.8826,N,08009.7287,W,1,8,1.9,14,M,,M,,*55
05/28/2014	03:08:27.153	$GPGGA,030827,2543.8825,N,08009.7287,W,1,8,1.9,14,M,,M,,*57
05/28/2014	03:08:28.134	$GPGGA,030828,2543.8826,N,08009.7287,W,1,8,1.9,14,M,,M,,*5B
05/28/2014	03:08:29.155	$GPGGA,030829,2543.8825,N,08009.7288,W,1,8,1.9,14,M,,M,,*56
05/28/2014	03:08:30.156	$GPGGA,030830,2543.8826,N,08009.7288,W,1,8,1.9,14,M,,M,,*5D
05/28/2014	03:08:32.725	$GPGGA,030832,2543.8826,N,08009.7288,W,1,8,1.9,14,M,,M,,*5F
05/28/2014	03:08:33.190	$GPGGA,030833,2543.8825,N,08009.7288,W,1,8,1.9,14,M,,M,,*5D
05/28/2014	03:08:34.181	$GPGGA,030834,2543.8826,N,08009.7288,W,1,8,1.9,14,M,,M,,*59
05/28/2014	03:08:35.182	$GPGGA,030835,2543.8825,N,08009.7288,W,1,8,1.9,14,M,,M,,*5B
05/28/2014	03:08:36.224	$GPGGA,030836,2543.8826,N,08009.7288,W,1,8,1.9,14,M,,M,,*5B
05/28/2014	03:08:37.235	$GPGGA,030837,2543.8824,N,08009.7288,W,1,8,1.9,14,M,,M,,*58
05/28/2014	03:08:38.226	$GPGGA,030838,2543.8824,N,08009.7288,W,1,8,1.9,14,M,,M,,*57
05/28/2014	03:08:38.556	$GPGGA,030839,2543.8824,N,08009.7288,W,1,8,1.9,14,M,,M,,*56
05/28/2014	03:08:39.577	$GPGGA,030840,2543.8824,N,08009.7288,W,1,8,1.9,14,M,,M,,*58
05/28/2014	03:08:40.609	$GPGGA,030841,2543.8822,N,08009.7288,W,1,8,1.9,14,M,,M,,*5F
05/28/2014	03:08:41.600	$GPGGA,030842,2543.8823,N,08009.7290,W,1,8,1.9,14,M,,M,,*54
05/28/2014	03:08:42.620	$GPGGA,030843,2543.8822,N,08009.7288,W,1,8,1.9,14,M,,M,,*5D
05/28/2014	03:08:43.621	$GPGGA,030844,2543.8823,N,08009.7288,W,1,8,1.9,14,M,,M,,*5B
05/28/2014	03:08:44.623	$GPGGA,030845,2543.8822,N,08009.7290,W,1,8,1.9,14,M,,M,,*52
05/28/2014	03:08:45.613	$GPGGA,030846,2543.8821,N,08009.7288,W,1,8,1.9,14,M,,M,,*5B
05/28/2014	03:08:46.635	$GPGGA,030847,2543.8821,N,08009.7290,W,1,8,1.9,14,M,,M,,*53
05/28/2014	03:08:47.767	$GPGGA,030848,2543.8821,N,08009.7289,W,1,8,1.9,14,M,,M,,*54
05/28/2014	03:08:48.647	$GPGGA,030849,2543.8820,N,08009.7290,W,1,8,1.9,14,M,,M,,*5C
05/28/2014	03:08:49.678	$GPGGA,030850,2543.8820,N,08009.7289,W,1,8,1.9,14,M,,M,,*5C
05/28/2014	03:08:50.699	$GPGGA,030851,2543.8819,N,08009.7290,W,1,8,1.9,14,M,,M,,*5F
05/28/2014	03:08:51.690	$GPGGA,030852,2543.8820,N,08009.7289,W,1,8,1.9,14,M,,M,,*5E
05/28/2014	03:08:52.681	$GPGGA,030853,2543.8819,N,08009.7288,W,1,8,1.9,14,M,,M,,*54
05/28/2014	03:08:53.703	$GPGGA,030854,2543.8820,N,08009.7288,W,1,8,1.9,14,M,,M,,*59
05/28/2014	03:08:54.694	$GPGGA,030855,2543.8819,N,08009.7288,W,1,8,1.9,14,M,,M,,*52
05/28/2014	03:08:55.715	$GPGGA,030856,2543.8818,N,08009.7288,W,1,8,1.9,14,M,,M,,*50
05/28/2014	03:08:56.736	$GPGGA,030857,2543.8819,N,08009.7288,W,1,8,1.9,14,M,,M,,*50
05/28/2014	03:08:57.818	$GPGGA,030858,2543.8818,N,08009.7288,W,1,8,1.9,14,M,,M,,*5E
05/28/2014	03:08:58.739	$GPGGA,030859,2543.8819,N,08009.7288,W,1,8,1.9,14,M,,M,,*5E
05/28/2014	03:08:59.891	$GPGGA,030900,2543.8818,N,08009.7288,W,1,8,1.9,14,M,,M,,*52
05/28/2014	03:09:00.780	$GPGGA,030901,2543.8819,N,08009.7288,W,1,8,1.9,14,M,,M,,*52
05/28/2014	03:09:01.761	$GPGGA,030902,2543.8818,N,08009.7288,W,1,8,1.9,14,M,,M,,*50
05/28/2014	03:09:02.904	$GPGGA,030903,2543.8819,N,08009.7288,W,1,8,1.9,14,M,,M,,*50
05/28/2014	03:09:03.915	$GPGGA,030904,2543.8818,N,08009.7288,W,1,8,1.9,14,M,,M,,*56
05/28/2014	03:09:04.926	$GPGGA,030905,2543.8819,N,08009.7288,W,1,8,1.9,14,M,,M,,*56
05/28/2014	03:09:05.907	$GPGGA,030906,2543.8818,N,08009.7288,W,1,8,1.9,14,M,,M,,*54
05/28/2014	03:09:06.918	$GPGGA,030907,2543.8820,N,08009.7288,W,1,8,1.9,14,M,,M,,*5E
05/28/2014	03:09:07.939	$GPGGA,030908,2543.8819,N,08009.7288,W,1,8,1.9,14,M,,M,,*5B
05/28/2014	03:09:08.951	$GPGGA,030909,2543.8820,N,08009.7288,W,1,8,1.9,14,M,,M,,*50
05/28/2014	03:09:09.952	$GPGGA,030910,2543.8820,N,08009.7288,W,1,8,1.9,14,M,,M,,*58
05/28/2014	03:09:10.953	$GPGGA,030911,2543.8821,N,08009.7288,W,1,8,1.9,14,M,,M,,*58
05/28/2014	03:09:11.964	$GPGGA,030912,2543.8823,N,08009.7287,W,1,8,1.9,14,M,,M,,*56
05/28/2014	03:09:12.985	$GPGGA,030913,2543.8822,N,08009.7287,W,1,8,1.9,14,M,,M,,*56
05/28/2014	03:09:13.976	$GPGGA,030914,2543.8824,N,08009.7287,W,1,8,1.9,14,M,,M,,*57
05/28/2014	03:09:15.008	$GPGGA,030915,2543.8824,N,08009.7287,W,1,8,1.9,14,M,,M,,*56
05/28/2014	03:09:15.999	$GPGGA,030916,2543.8824,N,08009.7287,W,1,8,1.9,14,M,,M,,*55
05/28/2014	03:09:17.010	$GPGGA,030917,2543.8826,N,08009.7287,W,1,8,1.9,14,M,,M,,*56
05/28/2014	03:09:18.020	$GPGGA,030918,2543.8825,N,08009.7287,W,1,8,1.9,14,M,,M,,*5A
05/28/2014	03:09:19.027	$GPGGA,030919,2543.8827,N,08009.7286,W,1,8,1.9,14,M,,M,,*58
05/28/2014	03:09:20.042	$GPGGA,030920,2543.8826,N,08009.7287,W,1,8,1.9,14,M,,M,,*52
05/28/2014	03:09:21.033	$GPGGA,030921,2543.8828,N,08009.7286,W,1,8,1.9,14,M,,M,,*5C
05/28/2014	03:09:22.045	$GPGGA,030922,2543.8828,N,08009.7285,W,1,8,1.9,14,M,,M,,*5C
05/28/2014	03:09:23.076	$GPGGA,030923,2543.8828,N,08009.7285,W,1,8,1.9,14,M,,M,,*5D
05/28/2014	03:09:24.079	$GPGGA,030924,2543.8830,N,08009.7285,W,1,8,1.9,14,M,,M,,*53
05/28/2014	03:09:25.098	$GPGGA,030925,2543.8829,N,08009.7287,W,1,8,1.9,14,M,,M,,*58
05/28/2014	03:09:26.079	$GPGGA,030926,2543.8831,N,08009.7286,W,1,8,1.9,14,M,,M,,*53
05/28/2014	03:09:27.121	$GPGGA,030927,2543.8830,N,08009.7285,W,1,8,1.9,14,M,,M,,*50
05/28/2014	03:09:28.112	$GPGGA,030928,2543.8831,N,08009.7285,W,1,8,1.9,14,M,,M,,*5E
05/28/2014	03:09:29.138	$GPGGA,030929,2543.8830,N,08009.7285,W,1,8,1.9,15,M,,M,,*5F
05/28/2014	03:09:30.114	$GPGGA,030930,2543.8831,N,08009.7285,W,1,8,1.9,15,M,,M,,*56
05/28/2014	03:09:31.156	$GPGGA,030931,2543.8831,N,08009.7285,W,1,8,1.9,15,M,,M,,*57
05/28/2014	03:09:32.147	$GPGGA,030932,2543.8831,N,08009.7285,W,1,8,1.9,15,M,,M,,*54
05/28/2014	03:09:33.148	$GPGGA,030933,2543.8831,N,08009.7285,W,1,8,1.9,15,M,,M,,*55
05/28/2014	03:09:34.149	$GPGGA,030934,2543.8831,N,08009.7285,W,1,8,1.9,15,M,,M,,*52
05/28/2014	03:09:35.180	$GPGGA,030935,2543.8833,N,08009.7285,W,1,8,1.9,15,M,,M,,*51
05/28/2014	03:09:36.190	$GPGGA,030936,2543.8832,N,08009.7285,W,1,8,1.9,15,M,,M,,*53
05/28/2014	03:09:37.191	$GPGGA,030937,2543.8833,N,08009.7285,W,1,8,1.9,15,M,,M,,*53
05/28/2014	03:09:38.284	$GPGGA,030938,2543.8832,N,08009.7285,W,1,8,1.9,15,M,,M,,*5D
05/28/2014	03:09:38.646	$GPGGA,030939,2543.8833,N,08009.7285,W,1,8,1.9,16,M,,M,,*5E
05/28/2014	03:09:39.556	$GPGGA,030940,2543.8834,N,08009.7285,W,1,8,1.9,16,M,,M,,*57
05/28/2014	03:09:40.566	$GPGGA,030941,2543.8833,N,08009.7285,W,1,8,1.9,16,M,,M,,*51
05/28/2014	03:09:41.658	$GPGGA,030942,2543.8834,N,08009.7285,W,1,8,1.9,16,M,,M,,*55
05/28/2014	03:09:42.589	$GPGGA,030943,2543.8835,N,08009.7285,W,1,8,1.9,16,M,,M,,*55
05/28/2014	03:09:43.600	$GPGGA,030944,2543.8835,N,08009.7285,W,1,8,1.9,16,M,,M,,*52
05/28/2014	03:09:44.702	$GPGGA,030945,2543.8835,N,08009.7284,W,1,8,1.9,16,M,,M,,*52
05/28/2014	03:09:45.612	$GPGGA,030946,2543.8835,N,08009.7284,W,1,8,1.9,16,M,,M,,*51
05/28/2014	03:09:46.603	$GPGGA,030947,2543.8835,N,08009.7284,W,1,8,1.9,16,M,,M,,*50
05/28/2014	03:09:47.756	$GPGGA,030948,2543.8835,N,08009.7284,W,1,8,1.9,17,M,,M,,*5E
05/28/2014	03:09:48.727	$GPGGA,030949,2543.8837,N,08009.7284,W,1,8,1.9,17,M,,M,,*5D
05/28/2014	03:09:49.637	$GPGGA,030950,2543.8836,N,08009.7284,W,1,8,1.9,17,M,,M,,*54
05/28/2014	03:09:50.638	$GPGGA,030951,2543.8838,N,08009.7284,W,1,8,1.9,17,M,,M,,*5B
05/28/2014	03:09:51.669	$GPGGA,030952,2543.8837,N,08009.7284,W,1,8,1.9,17,M,,M,,*57
05/28/2014	03:09:52.750	$GPGGA,030953,2543.8839,N,08009.7284,W,1,8,1.9,17,M,,M,,*58
05/28/2014	03:09:53.771	$GPGGA,030954,2543.8839,N,08009.7284,W,1,8,1.9,17,M,,M,,*5F
05/28/2014	03:09:54.773	$GPGGA,030955,2543.8839,N,08009.7284,W,1,8,1.9,17,M,,M,,*5E
05/28/2014	03:09:55.804	$GPGGA,030956,2543.8839,N,08009.7284,W,1,8,1.9,17,M,,M,,*5D
05/28/2014	03:09:56.795	$GPGGA,030957,2543.8839,N,08009.7284,W,1,8,1.9,17,M,,M,,*5C
05/28/2014	03:09:57.806	$GPGGA,030958,2543.8841,N,08009.7284,W,1,8,1.9,18,M,,M,,*53
05/28/2014	03:09:58.838	$GPGGA,030959,2543.8840,N,08009.7284,W,1,8,1.9,18,M,,M,,*53
05/28/2014	03:09:59.849	$GPGGA,031000,2543.8842,N,08009.7284,W,1,8,1.9,18,M,,M,,*55
05/28/2014	03:10:00.850	$GPGGA,031001,2543.8842,N,08009.7284,W,1,8,1.9,18,M,,M,,*54
05/28/2014	03:10:01.851	$GPGGA,031002,2543.8842,N,08009.7283,W,1,8,1.9,18,M,,M,,*50
05/28/2014	03:10:02.862	$GPGGA,031003,2543.8842,N,08009.7283,W,1,8,1.9,18,M,,M,,*51
05/28/2014	03:10:03.873	$GPGGA,031004,2543.8842,N,08009.7283,W,1,8,1.9,18,M,,M,,*56
05/28/2014	03:10:04.885	$GPGGA,031005,2543.8842,N,08009.7283,W,1,8,1.9,18,M,,M,,*57
05/28/2014	03:10:05.886	$GPGGA,031006,2543.8842,N,08009.7282,W,1,8,1.9,18,M,,M,,*55
05/28/2014	03:10:06.907	$GPGGA,031007,2543.8842,N,08009.7283,W,1,8,1.9,18,M,,M,,*55
05/28/2014	03:10:07.918	$GPGGA,031008,2543.8842,N,08009.7282,W,1,8,1.9,18,M,,M,,*5B
05/28/2014	03:10:08.929	$GPGGA,031009,2543.8842,N,08009.7283,W,1,8,1.9,19,M,,M,,*5A
05/28/2014	03:10:09.920	$GPGGA,031010,2543.8842,N,08009.7282,W,1,8,1.9,19,M,,M,,*53
05/28/2014	03:10:10.951	$GPGGA,031011,2543.8842,N,08009.7283,W,1,8,1.9,19,M,,M,,*53
05/28/2014	03:10:11.942	$GPGGA,031012,2543.8842,N,08009.7282,W,1,8,1.9,19,M,,M,,*51
05/28/2014	03:10:12.963	$GPGGA,031013,2543.8844,N,08009.7283,W,1,8,1.9,19,M,,M,,*57
05/28/2014	03:10:13.944	$GPGGA,031014,2543.8843,N,08009.7282,W,1,8,1.9,19,M,,M,,*56
05/28/2014	03:10:14.996	$GPGGA,031015,2543.8844,N,08009.7283,W,1,8,1.9,19,M,,M,,*51
05/28/2014	03:10:15.976	$GPGGA,031016,2543.8843,N,08009.7282,W,1,8,1.9,19,M,,M,,*54
05/28/2014	03:10:17.000	$GPGGA,031017,2543.8844,N,08009.7283,W,1,8,1.9,19,M,,M,,*53
05/28/2014	03:10:17.989	$GPGGA,031018,2543.8845,N,08009.7282,W,1,8,1.9,19,M,,M,,*5C
05/28/2014	03:10:19.020	$GPGGA,031019,2543.8844,N,08009.7283,W,1,8,1.9,19,M,,M,,*5D
05/28/2014	03:10:20.011	$GPGGA,031020,2543.8846,N,08009.7282,W,1,8,1.9,19,M,,M,,*54
05/28/2014	03:10:21.012	$GPGGA,031021,2543.8846,N,08009.7283,W,1,8,1.9,20,M,,M,,*5E
05/28/2014	03:10:22.034	$GPGGA,031022,2543.8846,N,08009.7282,W,1,8,1.9,20,M,,M,,*5C
05/28/2014	03:10:23.075	$GPGGA,031023,2543.8846,N,08009.7283,W,1,8,1.9,20,M,,M,,*5C
05/28/2014	03:10:24.056	$GPGGA,031024,2543.8846,N,08009.7282,W,1,8,1.9,20,M,,M,,*5A
05/28/2014	03:10:25.088	$GPGGA,031025,2543.8846,N,08009.7283,W,1,8,1.9,20,M,,M,,*5A
05/28/2014	03:10:26.068	$GPGGA,031026,2543.8846,N,08009.7281,W,1,8,1.9,20,M,,M,,*5B
05/28/2014	03:10:27.100	$GPGGA,031027,2543.8846,N,08009.7281,W,1,8,1.9,20,M,,M,,*5A
05/28/2014	03:10:28.079	$GPGGA,031028,2543.8846,N,08009.7283,W,1,8,1.9,20,M,,M,,*57
05/28/2014	03:10:29.091	$GPGGA,031029,2543.8846,N,08009.7282,W,1,8,1.9,20,M,,M,,*57
05/28/2014	03:10:30.102	$GPGGA,031030,2543.8848,N,08009.7281,W,1,8,1.9,20,M,,M,,*52
05/28/2014	03:10:31.093	$GPGGA,031031,2543.8847,N,08009.7281,W,1,8,1.9,20,M,,M,,*5C
05/28/2014	03:10:32.114	$GPGGA,031032,2543.8848,N,08009.7281,W,1,8,1.9,20,M,,M,,*50
05/28/2014	03:10:33.247	$GPGGA,031033,2543.8847,N,08009.7281,W,1,8,1.9,21,M,,M,,*5F
05/28/2014	03:10:34.248	$GPGGA,031034,2543.8848,N,08009.7281,W,1,8,1.9,21,M,,M,,*57
05/28/2014	03:10:35.249	$GPGGA,031035,2543.8847,N,08009.7280,W,1,8,1.9,21,M,,M,,*58
05/28/2014	03:10:36.169	$GPGGA,031036,2543.8848,N,08009.7280,W,1,8,1.9,21,M,,M,,*54
05/28/2014	03:10:37.170	$GPGGA,031037,2543.8847,N,08009.7280,W,1,8,1.9,21,M,,M,,*5A
05/28/2014	03:10:38.272	$GPGGA,031038,2543.8848,N,08009.7280,W,1,8,1.9,21,M,,M,,*5A
05/28/2014	03:10:38.614	$GPGGA,031039,2543.8849,N,08009.7280,W,1,8,1.9,21,M,,M,,*5A
05/28/2014	03:10:39.635	$GPGGA,031040,2543.8848,N,08009.7280,W,1,8,1.9,21,M,,M,,*55
05/28/2014	03:10:40.646	$GPGGA,031041,2543.8849,N,08009.7279,W,1,8,1.9,21,M,,M,,*53
05/28/2014	03:10:41.627	$GPGGA,031042,2543.8848,N,08009.7280,W,1,8,1.9,22,M,,M,,*54
05/28/2014	03:10:42.649	$GPGGA,031043,2543.8849,N,08009.7279,W,1,8,1.9,22,M,,M,,*52
05/28/2014	03:10:43.659	$GPGGA,031044,2543.8848,N,08009.7280,W,1,8,1.9,22,M,,M,,*52
05/28/2014	03:10:44.671	$GPGGA,031045,2543.8849,N,08009.7279,W,1,8,1.9,22,M,,M,,*54
05/28/2014	03:10:45.671	$GPGGA,031046,2543.8849,N,08009.7280,W,1,8,1.9,22,M,,M,,*51
05/28/2014	03:10:46.702	$GPGGA,031047,2543.8849,N,08009.7279,W,1,8,1.9,22,M,,M,,*56
05/28/2014	03:10:47.703	$GPGGA,031048,2543.8849,N,08009.7280,W,1,8,1.9,22,M,,M,,*5F
05/28/2014	03:10:48.684	$GPGGA,031049,2543.8849,N,08009.7279,W,1,8,1.9,22,M,,M,,*58
05/28/2014	03:10:49.716	$GPGGA,031050,2543.8849,N,08009.7280,W,1,8,1.9,22,M,,M,,*56
05/28/2014	03:10:50.738	$GPGGA,031051,2543.8849,N,08009.7279,W,1,8,1.9,22,M,,M,,*51
05/28/2014	03:10:51.768	$GPGGA,031052,2543.8850,N,08009.7280,W,1,8,1.9,22,M,,M,,*5C
05/28/2014	03:10:52.749	$GPGGA,031053,2543.8849,N,08009.7279,W,1,8,1.9,22,M,,M,,*53
05/28/2014	03:10:53.740	$GPGGA,031054,2543.8849,N,08009.7280,W,1,8,1.9,22,M,,M,,*52
05/28/2014	03:10:54.782	$GPGGA,031055,2543.8849,N,08009.7279,W,1,8,1.9,22,M,,M,,*55
05/28/2014	03:10:55.773	$GPGGA,031056,2543.8849,N,08009.7280,W,1,8,1.9,22,M,,M,,*50
05/28/2014	03:10:56.784	$GPGGA,031057,2543.8849,N,08009.7279,W,1,8,1.9,22,M,,M,,*57
05/28/2014	03:10:57.785	$GPGGA,031058,2543.8848,N,08009.7280,W,1,8,1.9,22,M,,M,,*5F
05/28/2014	03:10:58.816	$GPGGA,031059,2543.8849,N,08009.7280,W,1,8,1.9,23,M,,M,,*5E
05/28/2014	03:10:59.828	$GPGGA,031100,2543.8848,N,08009.7280,W,1,8,1.9,23,M,,M,,*52
05/28/2014	03:11:00.798	$GPGGA,031101,2543.8849,N,08009.7280,W,1,8,1.9,23,M,,M,,*52
05/28/2014	03:11:01.820	$GPGGA,031102,2543.8847,N,08009.7280,W,1,8,1.9,23,M,,M,,*5F
05/28/2014	03:11:02.840	$GPGGA,031103,2543.8848,N,08009.7280,W,1,8,1.9,23,M,,M,,*51
05/28/2014	03:11:03.841	$GPGGA,031104,2543.8847,N,08009.7280,W,1,8,1.9,23,M,,M,,*59
05/28/2014	03:11:04.832	$GPGGA,031105,2543.8846,N,08009.7280,W,1,8,1.9,23,M,,M,,*59
05/28/2014	03:11:05.864	$GPGGA,031106,2543.8846,N,08009.7280,W,1,8,1.9,23,M,,M,,*5A
05/28/2014	03:11:06.864	$GPGGA,031107,2543.8846,N,08009.7280,W,1,8,1.9,23,M,,M,,*5B
05/28/2014	03:11:07.886	$GPGGA,031108,2543.8846,N,08009.7280,W,1,8,1.9,22,M,,M,,*55
05/28/2014	03:11:08.988	$GPGGA,031109,2543.8846,N,08009.7280,W,1,8,1.9,22,M,,M,,*54
05/28/2014	03:11:09.908	$GPGGA,031110,2543.8846,N,08009.7280,W,1,8,1.9,22,M,,M,,*5C
05/28/2014	03:11:10.919	$GPGGA,031111,2543.8846,N,08009.7280,W,1,8,1.9,22,M,,M,,*5D
05/28/2014	03:11:11.910	$GPGGA,031112,2543.8844,N,08009.7280,W,1,8,1.9,22,M,,M,,*5C
05/28/2014	03:11:12.942	$GPGGA,031113,2543.8845,N,08009.7280,W,1,8,1.9,22,M,,M,,*5C
05/28/2014	03:11:13.912	$GPGGA,031114,2543.8844,N,08009.7280,W,1,8,1.9,22,M,,M,,*5A
05/28/2014	03:11:14.929	$GPGGA,031115,2543.8843,N,08009.7281,W,1,8,1.9,22,M,,M,,*5D
05/28/2014	03:11:15.973	$GPGGA,031116,2543.8844,N,08009.7280,W,1,8,1.9,22,M,,M,,*58
05/28/2014	03:11:17.050	$GPGGA,031117,2543.8842,N,08009.7281,W,1,8,1.9,22,M,,M,,*5E
05/28/2014	03:11:18.025	$GPGGA,031118,2543.8842,N,08009.7281,W,1,8,1.9,22,M,,M,,*51
05/28/2014	03:11:19.041	$GPGGA,031119,2543.8842,N,08009.7281,W,1,8,1.9,22,M,,M,,*50
05/28/2014	03:11:19.976	$GPGGA,031120,2543.8842,N,08009.7281,W,1,8,1.9,22,M,,M,,*5A
05/28/2014	03:11:20.981	$GPGGA,031121,2543.8842,N,08009.7281,W,1,8,1.9,22,M,,M,,*5B
05/28/2014	03:11:22.047	$GPGGA,031122,2543.8842,N,08009.7281,W,1,8,1.9,22,M,,M,,*58
05/28/2014	03:11:22.972	$GPGGA,031123,2543.8842,N,08009.7281,W,1,8,1.9,22,M,,M,,*59
05/28/2014	03:11:24.078	$GPGGA,031124,2543.8840,N,08009.7281,W,1,8,1.9,22,M,,M,,*5C
05/28/2014	03:11:25.064	$GPGGA,031125,2543.8841,N,08009.7281,W,1,8,1.9,22,M,,M,,*5C
05/28/2014	03:11:25.979	$GPGGA,031126,2543.8840,N,08009.7281,W,1,8,1.9,22,M,,M,,*5E
05/28/2014	03:11:27.065	$GPGGA,031127,2543.8841,N,08009.7281,W,1,8,1.9,22,M,,M,,*5E
05/28/2014	03:11:28.091	$GPGGA,031128,2543.8840,N,08009.7281,W,1,8,1.9,22,M,,M,,*50
05/28/2014	03:11:29.067	$GPGGA,031129,2543.8841,N,08009.7281,W,1,8,1.9,21,M,,M,,*53
05/28/2014	03:11:31.390	$GPGGA,031131,2543.8839,N,08009.7281,W,1,8,1.9,21,M,,M,,*55
05/28/2014	03:11:32.094	$GPGGA,031132,2543.8839,N,08009.7281,W,1,8,1.9,21,M,,M,,*56
05/28/2014	03:11:33.089	$GPGGA,031133,2543.8839,N,08009.7283,W,1,8,1.9,21,M,,M,,*55
05/28/2014	03:11:34.095	$GPGGA,031134,2543.8839,N,08009.7281,W,1,8,1.9,21,M,,M,,*50
05/28/2014	03:11:35.111	$GPGGA,031135,2543.8839,N,08009.7281,W,1,8,1.9,21,M,,M,,*51
05/28/2014	03:11:36.117	$GPGGA,031136,2543.8839,N,08009.7281,W,1,8,1.9,21,M,,M,,*52
05/28/2014	03:11:37.132	$GPGGA,031137,2543.8839,N,08009.7281,W,1,8,1.9,21,M,,M,,*53
05/28/2014	03:11:38.112	$GPGGA,031138,2543.8839,N,08009.7281,W,1,8,1.9,21,M,,M,,*5C
05/28/2014	03:11:38.587	$GPGGA,031139,2543.8839,N,08009.7280,W,1,8,1.9,21,M,,M,,*5C
05/28/2014	03:11:39.592	$GPGGA,031140,2543.8839,N,08009.7280,W,1,8,1.9,21,M,,M,,*52
05/28/2014	03:11:40.598	$GPGGA,031141,2543.8839,N,08009.7280,W,1,8,1.9,21,M,,M,,*53
05/28/2014	03:11:41.594	$GPGGA,031142,2543.8839,N,08009.7280,W,1,8,1.9,21,M,,M,,*50
05/28/2014	03:11:42.579	$GPGGA,031143,2543.8839,N,08009.7280,W,1,8,1.9,20,M,,M,,*50
05/28/2014	03:11:43.596	$GPGGA,031144,2543.8839,N,08009.7280,W,1,8,1.9,20,M,,M,,*57
05/28/2014	03:11:44.591	$GPGGA,031145,2543.8839,N,08009.7280,W,1,8,1.9,20,M,,M,,*56
05/28/2014	03:11:45.607	$GPGGA,031146,2543.8839,N,08009.7280,W,1,8,1.9,20,M,,M,,*55
05/28/2014	03:11:46.602	$GPGGA,031147,2543.8839,N,08009.7279,W,1,8,1.9,20,M,,M,,*52
05/28/2014	03:11:47.628	$GPGGA,031148,2543.8839,N,08009.7280,W,1,8,1.9,20,M,,M,,*5B
05/28/2014	03:11:48.654	$GPGGA,031149,2543.8841,N,08009.7279,W,1,8,1.9,20,M,,M,,*53
05/28/2014	03:11:49.630	$GPGGA,031150,2543.8840,N,08009.7280,W,1,8,1.9,20,M,,M,,*5C
05/28/2014	03:11:50.615	$GPGGA,031151,2543.8841,N,08009.7279,W,1,8,1.9,20,M,,M,,*5A
