Software Version Number: 1	Data File Format Number: 1	Build Version Number: 1	Error Count Since VI Started: 0	Manufacturer: Raytheon	 Model Number: RayMarine 120	 S/N: 	 Cal Date: 	 Wind Direction Offset: 0.00	 Slope (M)1: 0.00	 Offset (B)1: 0.00	 Slope (M)2: 0.00	 Offset (B)2: 0.00	 Slope (M)3: 0.00	 Offset (B)3: 0.00	 Slope (M)4: 0.00	 Offset (B)4: 0.00	 Slope (M)5: 0.00	 Offset (B)5: 0.00	 Slope (M)6: 0.00	 Offset (B)6: 0.00
Computer Date	Computer Time	GGA String
06/13/2014	03:00:01.053	$GPGGA,030001,2513.0846,N,08005.7646,W,1,9,1.6,18,M,,M,,*54
06/13/2014	03:00:02.032	$GPGGA,030002,2513.0838,N,08005.7648,W,1,9,1.6,18,M,,M,,*50
06/13/2014	03:00:03.089	$GPGGA,030003,2513.0831,N,08005.7649,W,1,9,1.6,18,M,,M,,*59
06/13/2014	03:00:04.118	$GPGGA,030004,2513.0831,N,08005.7649,W,1,9,1.6,18,M,,M,,*5E
06/13/2014	03:00:05.155	$GPGGA,030005,2513.0816,N,08005.7655,W,1,9,1.6,18,M,,M,,*57
06/13/2014	03:00:06.140	$GPGGA,030006,2513.0808,N,08005.7655,W,1,9,1.6,18,M,,M,,*5B
06/13/2014	03:00:07.183	$GPGGA,030007,2513.0808,N,08005.7655,W,1,9,1.6,18,M,,M,,*5A
06/13/2014	03:00:08.187	$GPGGA,030008,2513.0793,N,08005.7662,W,1,9,1.6,18,M,,M,,*5C
06/13/2014	03:00:09.230	$GPGGA,030009,2513.0785,N,08005.7663,W,1,9,1.6,18,M,,M,,*5B
06/13/2014	03:00:10.201	$GPGGA,030010,2513.0777,N,08005.7664,W,1,9,1.6,18,M,,M,,*59
06/13/2014	03:00:11.259	$GPGGA,030011,2513.0770,N,08005.7667,W,1,9,1.6,18,M,,M,,*5C
06/13/2014	03:00:12.237	$GPGGA,030012,2513.0763,N,08005.7670,W,1,9,1.6,18,M,,M,,*5B
06/13/2014	03:00:13.285	$GPGGA,030013,2513.0755,N,08005.7670,W,1,9,1.6,18,M,,M,,*5F
06/13/2014	03:00:14.275	$GPGGA,030014,2513.0748,N,08005.7673,W,1,9,1.6,18,M,,M,,*57
06/13/2014	03:00:15.310	$GPGGA,030015,2513.0738,N,08005.7675,W,1,9,1.9,18,M,,M,,*58
06/13/2014	03:00:16.300	$GPGGA,030016,2513.0738,N,08005.7675,W,1,9,1.9,18,M,,M,,*5B
06/13/2014	03:00:17.303	$GPGGA,030017,2513.0730,N,08005.7677,W,1,9,1.6,18,M,,M,,*5F
06/13/2014	03:00:18.296	$GPGGA,030018,2513.0723,N,08005.7680,W,1,9,1.6,18,M,,M,,*5A
06/13/2014	03:00:19.310	$GPGGA,030019,2513.0706,N,08005.7684,W,1,9,1.6,18,M,,M,,*58
06/13/2014	03:00:20.343	$GPGGA,030020,2513.0698,N,08005.7686,W,1,9,1.6,18,M,,M,,*56
06/13/2014	03:00:21.389	$GPGGA,030021,2513.0691,N,08005.7689,W,1,9,1.6,18,M,,M,,*51
06/13/2014	03:00:22.339	$GPGGA,030022,2513.0684,N,08005.7691,W,1,9,1.6,18,M,,M,,*5F
06/13/2014	03:00:23.405	$GPGGA,030023,2513.0676,N,08005.7695,W,1,9,1.6,18,M,,M,,*57
06/13/2014	03:00:24.488	$GPGGA,030024,2513.0668,N,08005.7696,W,1,9,1.6,18,M,,M,,*5C
06/13/2014	03:00:25.399	$GPGGA,030025,2513.0668,N,08005.7696,W,1,9,1.6,18,M,,M,,*5D
06/13/2014	03:00:26.372	$GPGGA,030026,2513.0652,N,08005.7702,W,1,9,1.6,18,M,,M,,*5B
06/13/2014	03:00:27.505	$GPGGA,030027,2513.0645,N,08005.7704,W,1,9,1.6,18,M,,M,,*5A
06/13/2014	03:00:28.407	$GPGGA,030028,2513.0638,N,08005.7709,W,1,9,1.6,18,M,,M,,*52
06/13/2014	03:00:29.522	$GPGGA,030029,2513.0630,N,08005.7710,W,1,9,1.6,18,M,,M,,*53
06/13/2014	03:00:30.413	$GPGGA,030030,2513.0623,N,08005.7713,W,1,9,1.6,18,M,,M,,*5A
06/13/2014	03:00:31.426	$GPGGA,030031,2513.0623,N,08005.7713,W,1,9,1.6,18,M,,M,,*5B
06/13/2014	03:00:32.450	$GPGGA,030032,2513.0609,N,08005.7720,W,1,9,1.6,18,M,,M,,*50
06/13/2014	03:00:33.483	$GPGGA,030033,2513.0609,N,08005.7720,W,1,9,1.6,18,M,,M,,*51
06/13/2014	03:00:34.476	$GPGGA,030034,2513.0596,N,08005.7727,W,1,9,1.6,18,M,,M,,*54
06/13/2014	03:00:35.611	$GPGGA,030035,2513.0589,N,08005.7731,W,1,9,1.6,18,M,,M,,*5C
06/13/2014	03:00:36.604	$GPGGA,030036,2513.0582,N,08005.7733,W,1,9,1.6,18,M,,M,,*56
06/13/2014	03:00:37.607	$GPGGA,030037,2513.0573,N,08005.7736,W,1,9,1.6,18,M,,M,,*5C
06/13/2014	03:00:38.519	$GPGGA,030038,2513.0567,N,08005.7740,W,1,9,1.6,18,M,,M,,*57
06/13/2014	03:00:39.633	$GPGGA,030039,2513.0560,N,08005.7745,W,1,9,1.6,18,M,,M,,*54
06/13/2014	03:00:40.647	$GPGGA,030040,2513.0553,N,08005.7747,W,1,9,1.6,18,M,,M,,*58
06/13/2014	03:00:41.655	$GPGGA,030041,2513.0546,N,08005.7751,W,1,9,1.6,18,M,,M,,*5A
06/13/2014	03:00:42.664	$GPGGA,030042,2513.0538,N,08005.7756,W,1,9,1.6,18,M,,M,,*57
06/13/2014	03:00:43.683	$GPGGA,030043,2513.0531,N,08005.7758,W,1,9,1.6,18,M,,M,,*51
06/13/2014	03:00:44.691	$GPGGA,030044,2513.0526,N,08005.7761,W,1,9,1.6,18,M,,M,,*5A
06/13/2014	03:00:45.694	$GPGGA,030045,2513.0518,N,08005.7767,W,1,9,1.6,18,M,,M,,*50
06/13/2014	03:00:46.707	$GPGGA,030046,2513.0511,N,08005.7769,W,1,9,1.6,18,M,,M,,*54
06/13/2014	03:00:46.580	$GPGGA,030047,2513.0506,N,08005.7772,W,1,9,1.6,18,M,,M,,*59
06/13/2014	03:00:47.563	$GPGGA,030048,2513.0497,N,08005.7778,W,1,9,1.6,18,M,,M,,*55
06/13/2014	03:00:48.578	$GPGGA,030049,2513.0490,N,08005.7780,W,1,9,1.6,18,M,,M,,*54
06/13/2014	03:00:49.569	$GPGGA,030050,2513.0482,N,08005.7782,W,1,9,1.6,18,M,,M,,*5D
06/13/2014	03:00:50.603	$GPGGA,030051,2513.0477,N,08005.7787,W,1,9,1.6,18,M,,M,,*53
06/13/2014	03:00:51.616	$GPGGA,030052,2513.0470,N,08005.7790,W,1,9,1.6,18,M,,M,,*51
06/13/2014	03:00:52.639	$GPGGA,030053,2513.0461,N,08005.7793,W,1,9,1.6,18,M,,M,,*53
06/13/2014	03:00:53.622	$GPGGA,030054,2513.0454,N,08005.7796,W,1,9,1.6,18,M,,M,,*57
06/13/2014	03:00:54.625	$GPGGA,030055,2513.0448,N,08005.7800,W,1,9,1.6,18,M,,M,,*5B
06/13/2014	03:00:55.648	$GPGGA,030056,2513.0441,N,08005.7803,W,1,9,1.9,18,M,,M,,*5D
06/13/2014	03:00:56.641	$GPGGA,030057,2513.0434,N,08005.7804,W,1,9,1.6,18,M,,M,,*56
06/13/2014	03:00:57.665	$GPGGA,030058,2513.0425,N,08005.7808,W,1,9,1.6,18,M,,M,,*55
06/13/2014	03:00:58.712	$GPGGA,030059,2513.0416,N,08005.7811,W,1,9,1.6,18,M,,M,,*5C
06/13/2014	03:00:59.721	$GPGGA,030100,2513.0409,N,08005.7814,W,1,9,1.6,18,M,,M,,*5A
06/13/2014	03:01:00.746	$GPGGA,030101,2513.0402,N,08005.7818,W,1,9,1.6,18,M,,M,,*5C
06/13/2014	03:01:01.716	$GPGGA,030102,2513.0394,N,08005.7821,W,1,9,1.6,18,M,,M,,*5D
06/13/2014	03:01:02.760	$GPGGA,030103,2513.0387,N,08005.7822,W,1,9,1.6,18,M,,M,,*5D
06/13/2014	03:01:03.743	$GPGGA,030104,2513.0379,N,08005.7825,W,1,9,1.6,18,M,,M,,*5C
06/13/2014	03:01:04.766	$GPGGA,030105,2513.0372,N,08005.7829,W,1,9,1.6,18,M,,M,,*5A
06/13/2014	03:01:05.759	$GPGGA,030106,2513.0365,N,08005.7830,W,1,9,1.6,18,M,,M,,*57
06/13/2014	03:01:06.762	$GPGGA,030107,2513.0356,N,08005.7834,W,1,9,1.6,18,M,,M,,*52
06/13/2014	03:01:07.785	$GPGGA,030108,2513.0349,N,08005.7837,W,1,9,1.6,18,M,,M,,*50
06/13/2014	03:01:08.819	$GPGGA,030109,2513.0340,N,08005.7839,W,1,9,1.6,18,M,,M,,*56
06/13/2014	03:01:09.792	$GPGGA,030110,2513.0333,N,08005.7841,W,1,9,1.6,18,M,,M,,*55
06/13/2014	03:01:10.826	$GPGGA,030111,2513.0325,N,08005.7844,W,1,9,1.6,18,M,,M,,*56
06/13/2014	03:01:11.828	$GPGGA,030112,2513.0318,N,08005.7847,W,1,9,1.6,19,M,,M,,*59
06/13/2014	03:01:12.943	$GPGGA,030113,2513.0309,N,08005.7848,W,1,9,1.6,19,M,,M,,*57
06/13/2014	03:01:13.936	$GPGGA,030114,2513.0303,N,08005.7851,W,1,9,1.6,19,M,,M,,*52
06/13/2014	03:01:14.959	$GPGGA,030115,2513.0294,N,08005.7854,W,1,9,1.6,19,M,,M,,*59
06/13/2014	03:01:15.871	$GPGGA,030116,2513.0287,N,08005.7857,W,1,9,1.6,19,M,,M,,*5B
06/13/2014	03:01:16.895	$GPGGA,030117,2513.0282,N,08005.7858,W,1,9,1.6,19,M,,M,,*50
06/13/2014	03:01:17.877	$GPGGA,030118,2513.0273,N,08005.7861,W,1,9,1.6,19,M,,M,,*5B
06/13/2014	03:01:18.900	$GPGGA,030119,2513.0266,N,08005.7863,W,1,9,1.6,19,M,,M,,*5C
06/13/2014	03:01:19.933	$GPGGA,030120,2513.0260,N,08005.7866,W,1,9,1.6,19,M,,M,,*55
06/13/2014	03:01:21.058	$GPGGA,030121,2513.0251,N,08005.7868,W,1,9,1.6,19,M,,M,,*58
06/13/2014	03:01:21.939	$GPGGA,030122,2513.0244,N,08005.7870,W,1,9,1.6,19,M,,M,,*56
06/13/2014	03:01:22.952	$GPGGA,030123,2513.0238,N,08005.7874,W,1,9,1.6,19,M,,M,,*58
06/13/2014	03:01:24.087	$GPGGA,030124,2513.0231,N,08005.7876,W,1,9,1.6,19,M,,M,,*54
06/13/2014	03:01:24.978	$GPGGA,030125,2513.0224,N,08005.7879,W,1,9,1.6,19,M,,M,,*5E
06/13/2014	03:01:25.971	$GPGGA,030126,2513.0217,N,08005.7883,W,1,9,1.6,19,M,,M,,*58
06/13/2014	03:01:27.126	$GPGGA,030127,2513.0211,N,08005.7886,W,1,9,1.6,19,M,,M,,*5A
06/13/2014	03:01:28.123	$GPGGA,030128,2513.0203,N,08005.7887,W,1,9,1.6,19,M,,M,,*57
06/13/2014	03:01:29.099	$GPGGA,030129,2513.0196,N,08005.7890,W,1,9,1.6,19,M,,M,,*5F
06/13/2014	03:01:30.120	$GPGGA,030130,2513.0190,N,08005.7892,W,1,9,1.6,19,M,,M,,*53
06/13/2014	03:01:31.141	$GPGGA,030131,2513.0183,N,08005.7894,W,1,9,1.6,19,M,,M,,*56
06/13/2014	03:01:32.152	$GPGGA,030132,2513.0177,N,08005.7895,W,1,9,1.6,19,M,,M,,*5F
06/13/2014	03:01:33.185	$GPGGA,030133,2513.0170,N,08005.7899,W,1,8,2.0,19,M,,M,,*51
06/13/2014	03:01:34.171	$GPGGA,030134,2513.0163,N,08005.7901,W,1,8,1.6,19,M,,M,,*51
06/13/2014	03:01:35.202	$GPGGA,030135,2513.0155,N,08005.7904,W,1,9,1.6,19,M,,M,,*51
06/13/2014	03:01:36.209	$GPGGA,030136,2513.0148,N,08005.7906,W,1,9,1.6,19,M,,M,,*5C
06/13/2014	03:01:37.207	$GPGGA,030137,2513.0142,N,08005.7909,W,1,9,1.6,19,M,,M,,*58
06/13/2014	03:01:38.210	$GPGGA,030138,2513.0134,N,08005.7912,W,1,9,1.6,19,M,,M,,*5C
06/13/2014	03:01:39.233	$GPGGA,030139,2513.0126,N,08005.7915,W,1,9,1.6,19,M,,M,,*59
06/13/2014	03:01:40.247	$GPGGA,030140,2513.0120,N,08005.7917,W,1,9,1.6,19,M,,M,,*53
06/13/2014	03:01:41.239	$GPGGA,030141,2513.0113,N,08005.7920,W,1,8,2.0,19,M,,M,,*52
06/13/2014	03:01:42.263	$GPGGA,030142,2513.0106,N,08005.7923,W,1,8,2.0,19,M,,M,,*56
06/13/2014	03:01:43.257	$GPGGA,030143,2513.0099,N,08005.7926,W,1,9,1.6,19,M,,M,,*51
06/13/2014	03:01:44.289	$GPGGA,030144,2513.0092,N,08005.7928,W,1,9,1.6,19,M,,M,,*53
06/13/2014	03:01:45.312	$GPGGA,030145,2513.0087,N,08005.7930,W,1,9,1.6,19,M,,M,,*5F
06/13/2014	03:01:46.295	$GPGGA,030146,2513.0079,N,08005.7934,W,1,9,1.6,19,M,,M,,*59
06/13/2014	03:01:46.559	$GPGGA,030147,2513.0072,N,08005.7937,W,1,9,1.6,19,M,,M,,*50
06/13/2014	03:01:47.542	$GPGGA,030148,2513.0065,N,08005.7941,W,1,9,1.6,18,M,,M,,*59
06/13/2014	03:01:48.575	$GPGGA,030149,2513.0058,N,08005.7944,W,1,9,1.6,18,M,,M,,*53
06/13/2014	03:01:49.558	$GPGGA,030150,2513.0051,N,08005.7948,W,1,9,1.6,18,M,,M,,*5E
06/13/2014	03:01:50.592	$GPGGA,030151,2513.0042,N,08005.7952,W,1,9,1.6,18,M,,M,,*56
06/13/2014	03:01:51.595	$GPGGA,030152,2513.0036,N,08005.7953,W,1,9,1.6,18,M,,M,,*57
06/13/2014	03:01:52.620	$GPGGA,030153,2513.0029,N,08005.7957,W,1,9,1.7,18,M,,M,,*5D
06/13/2014	03:01:53.591	$GPGGA,030154,2513.0022,N,08005.7960,W,1,9,1.7,18,M,,M,,*55
06/13/2014	03:01:54.643	$GPGGA,030155,2513.0013,N,08005.7962,W,1,9,1.7,18,M,,M,,*54
06/13/2014	03:01:55.636	$GPGGA,030156,2513.0005,N,08005.7966,W,1,9,1.7,18,M,,M,,*54
06/13/2014	03:01:56.649	$GPGGA,030157,2512.9998,N,08005.7970,W,1,9,1.7,18,M,,M,,*57
06/13/2014	03:01:57.632	$GPGGA,030158,2512.9991,N,08005.7971,W,1,9,1.7,18,M,,M,,*50
06/13/2014	03:01:58.666	$GPGGA,030159,2512.9982,N,08005.7973,W,1,9,1.7,18,M,,M,,*51
06/13/2014	03:01:59.670	$GPGGA,030200,2512.9975,N,08005.7977,W,1,9,1.7,18,M,,M,,*52
06/13/2014	03:02:00.682	$GPGGA,030201,2512.9967,N,08005.7981,W,1,9,1.7,18,M,,M,,*59
06/13/2014	03:02:01.776	$GPGGA,030202,2512.9959,N,08005.7982,W,1,9,1.7,18,M,,M,,*54
06/13/2014	03:02:02.688	$GPGGA,030203,2512.9953,N,08005.7986,W,1,9,1.7,18,M,,M,,*5B
06/13/2014	03:02:03.833	$GPGGA,030204,2512.9944,N,08005.7989,W,1,9,1.7,18,M,,M,,*55
06/13/2014	03:02:04.705	$GPGGA,030205,2512.9936,N,08005.7991,W,1,9,1.7,18,M,,M,,*58
06/13/2014	03:02:05.738	$GPGGA,030206,2512.9929,N,08005.7995,W,1,9,1.7,18,M,,M,,*51
06/13/2014	03:02:06.842	$GPGGA,030207,2512.9921,N,08005.7998,W,1,9,1.7,18,M,,M,,*55
06/13/2014	03:02:07.754	$GPGGA,030208,2512.9913,N,08005.7999,W,1,9,1.7,18,M,,M,,*5A
06/13/2014	03:02:08.767	$GPGGA,030209,2512.9906,N,08005.8002,W,1,9,1.7,18,M,,M,,*5B
06/13/2014	03:02:09.863	$GPGGA,030210,2512.9899,N,08005.8006,W,1,9,1.7,18,M,,M,,*50
06/13/2014	03:02:10.885	$GPGGA,030211,2512.9892,N,08005.8007,W,1,9,1.7,18,M,,M,,*5B
06/13/2014	03:02:11.806	$GPGGA,030212,2512.9883,N,08005.8010,W,1,9,1.7,18,M,,M,,*5E
06/13/2014	03:02:12.941	$GPGGA,030213,2512.9875,N,08005.8013,W,1,9,1.7,18,M,,M,,*55
06/13/2014	03:02:13.923	$GPGGA,030214,2512.9867,N,08005.8017,W,1,9,1.7,18,M,,M,,*55
06/13/2014	03:02:14.927	$GPGGA,030215,2512.9860,N,08005.8020,W,1,9,1.7,18,M,,M,,*57
06/13/2014	03:02:15.950	$GPGGA,030216,2512.9852,N,08005.8022,W,1,9,1.7,18,M,,M,,*57
06/13/2014	03:02:16.963	$GPGGA,030217,2512.9845,N,08005.8024,W,1,9,1.7,18,M,,M,,*56
06/13/2014	03:02:17.961	$GPGGA,030218,2512.9837,N,08005.8027,W,1,9,1.7,18,M,,M,,*5F
06/13/2014	03:02:18.978	$GPGGA,030219,2512.9829,N,08005.8031,W,1,9,1.7,18,M,,M,,*56
06/13/2014	03:02:19.993	$GPGGA,030220,2512.9821,N,08005.8033,W,1,9,1.7,18,M,,M,,*56
06/13/2014	03:02:20.985	$GPGGA,030221,2512.9814,N,08005.8035,W,1,9,1.7,18,M,,M,,*57
06/13/2014	03:02:21.999	$GPGGA,030222,2512.9806,N,08005.8038,W,1,9,1.7,18,M,,M,,*5A
06/13/2014	03:02:23.059	$GPGGA,030223,2512.9799,N,08005.8042,W,1,9,1.7,18,M,,M,,*5F
06/13/2014	03:02:24.042	$GPGGA,030224,2512.9791,N,08005.8046,W,1,9,1.7,18,M,,M,,*54
06/13/2014	03:02:25.067	$GPGGA,030225,2512.9784,N,08005.8046,W,1,9,1.7,18,M,,M,,*51
06/13/2014	03:02:26.065	$GPGGA,030226,2512.9776,N,08005.8050,W,1,9,1.7,18,M,,M,,*58
06/13/2014	03:02:27.079	$GPGGA,030227,2512.9769,N,08005.8054,W,1,9,1.7,18,M,,M,,*53
06/13/2014	03:02:28.105	$GPGGA,030228,2512.9762,N,08005.8056,W,1,9,1.7,18,M,,M,,*55
06/13/2014	03:02:29.082	$GPGGA,030229,2512.9754,N,08005.8056,W,1,9,1.7,18,M,,M,,*51
06/13/2014	03:02:30.093	$GPGGA,030230,2512.9747,N,08005.8063,W,1,9,2.0,18,M,,M,,*59
06/13/2014	03:02:31.130	$GPGGA,030231,2512.9738,N,08005.8065,W,1,9,1.7,18,M,,M,,*52
06/13/2014	03:02:32.130	$GPGGA,030232,2512.9729,N,08005.8067,W,1,9,1.7,18,M,,M,,*53
06/13/2014	03:02:33.179	$GPGGA,030233,2512.9722,N,08005.8072,W,1,9,1.7,18,M,,M,,*5D
06/13/2014	03:02:34.136	$GPGGA,030234,2512.9715,N,08005.8076,W,1,9,1.7,18,M,,M,,*5A
06/13/2014	03:02:35.159	$GPGGA,030235,2512.9706,N,08005.8078,W,1,9,1.7,18,M,,M,,*57
06/13/2014	03:02:36.182	$GPGGA,030236,2512.9699,N,08005.8082,W,1,9,1.7,18,M,,M,,*56
06/13/2014	03:02:37.207	$GPGGA,030237,2512.9693,N,08005.8085,W,1,9,1.7,18,M,,M,,*5A
06/13/2014	03:02:38.199	$GPGGA,030238,2512.9683,N,08005.8087,W,1,9,1.7,18,M,,M,,*56
06/13/2014	03:02:39.192	$GPGGA,030239,2512.9676,N,08005.8092,W,1,9,1.7,18,M,,M,,*59
06/13/2014	03:02:40.225	$GPGGA,030240,2512.9668,N,08005.8096,W,1,9,1.7,18,M,,M,,*5C
06/13/2014	03:02:41.228	$GPGGA,030241,2512.9661,N,08005.8097,W,1,9,1.7,19,M,,M,,*54
06/13/2014	03:02:42.221	$GPGGA,030242,2512.9652,N,08005.8100,W,1,9,1.7,19,M,,M,,*58
06/13/2014	03:02:43.244	$GPGGA,030243,2512.9646,N,08005.8103,W,1,9,1.7,19,M,,M,,*5F
06/13/2014	03:02:44.269	$GPGGA,030244,2512.9639,N,08005.8107,W,1,9,1.7,19,M,,M,,*54
06/13/2014	03:02:45.271	$GPGGA,030245,2512.9630,N,08005.8108,W,1,9,1.7,19,M,,M,,*53
06/13/2014	03:02:46.264	$GPGGA,030246,2512.9622,N,08005.8111,W,1,9,1.7,19,M,,M,,*5B
06/13/2014	03:02:46.515	$GPGGA,030247,2512.9617,N,08005.8114,W,1,9,1.7,19,M,,M,,*59
06/13/2014	03:02:47.610	$GPGGA,030248,2512.9608,N,08005.8118,W,1,9,1.7,19,M,,M,,*54
06/13/2014	03:02:48.532	$GPGGA,030249,2512.9600,N,08005.8118,W,1,9,1.7,19,M,,M,,*5D
06/13/2014	03:02:49.535	$GPGGA,030250,2512.9592,N,08005.8121,W,1,9,1.7,19,M,,M,,*57
06/13/2014	03:02:50.649	$GPGGA,030251,2512.9585,N,08005.8125,W,1,9,1.7,19,M,,M,,*54
06/13/2014	03:02:51.561	$GPGGA,030252,2512.9577,N,08005.8128,W,1,9,1.7,19,M,,M,,*57
06/13/2014	03:02:52.696	$GPGGA,030253,2512.9570,N,08005.8129,W,1,9,1.7,19,M,,M,,*50
06/13/2014	03:02:53.689	$GPGGA,030254,2512.9563,N,08005.8132,W,1,9,1.7,19,M,,M,,*5F
06/13/2014	03:02:54.682	$GPGGA,030255,2512.9554,N,08005.8136,W,1,9,1.7,19,M,,M,,*5E
06/13/2014	03:02:55.614	$GPGGA,030256,2512.9546,N,08005.8139,W,1,9,1.7,19,M,,M,,*51
06/13/2014	03:02:56.728	$GPGGA,030257,2512.9538,N,08005.8140,W,1,9,1.7,19,M,,M,,*57
06/13/2014	03:02:57.620	$GPGGA,030258,2512.9531,N,08005.8144,W,1,9,1.7,19,M,,M,,*55
06/13/2014	03:02:58.765	$GPGGA,030259,2512.9523,N,08005.8147,W,1,9,1.7,19,M,,M,,*54
06/13/2014	03:02:59.758	$GPGGA,030300,2512.9516,N,08005.8147,W,1,9,1.7,19,M,,M,,*5F
06/13/2014	03:03:00.741	$GPGGA,030301,2512.9509,N,08005.8151,W,1,9,1.7,19,M,,M,,*57
06/13/2014	03:03:01.663	$GPGGA,030302,2512.9501,N,08005.8154,W,1,9,1.7,19,M,,M,,*59
06/13/2014	03:03:02.767	$GPGGA,030303,2512.9493,N,08005.8155,W,1,9,1.7,19,M,,M,,*53
06/13/2014	03:03:03.780	$GPGGA,030304,2512.9487,N,08005.8158,W,1,9,1.7,19,M,,M,,*5C
06/13/2014	03:03:04.813	$GPGGA,030305,2512.9478,N,08005.8162,W,1,9,1.7,19,M,,M,,*54
06/13/2014	03:03:05.801	$GPGGA,030306,2512.9471,N,08005.8165,W,1,9,1.7,19,M,,M,,*59
06/13/2014	03:03:06.819	$GPGGA,030307,2512.9464,N,08005.8166,W,1,9,1.7,19,M,,M,,*5F
06/13/2014	03:03:07.842	$GPGGA,030308,2512.9458,N,08005.8169,W,1,9,1.7,19,M,,M,,*50
06/13/2014	03:03:08.886	$GPGGA,030309,2512.9451,N,08005.8172,W,1,8,2.0,19,M,,M,,*57
06/13/2014	03:03:09.838	$GPGGA,030310,2512.9442,N,08005.8176,W,1,8,2.0,19,M,,M,,*59
06/13/2014	03:03:10.872	$GPGGA,030311,2512.9434,N,08005.8179,W,1,9,1.7,19,M,,M,,*53
06/13/2014	03:03:11.875	$GPGGA,030312,2512.9426,N,08005.8180,W,1,9,1.7,19,M,,M,,*55
06/13/2014	03:03:12.918	$GPGGA,030313,2512.9419,N,08005.8184,W,1,9,1.7,19,M,,M,,*5C
06/13/2014	03:03:15.198	$GPGGA,030315,2512.9402,N,08005.8188,W,1,9,1.7,19,M,,M,,*5C
06/13/2014	03:03:15.917	$GPGGA,030316,2512.9395,N,08005.8194,W,1,9,1.7,19,M,,M,,*5B
06/13/2014	03:03:16.943	$GPGGA,030317,2512.9389,N,08005.8197,W,1,9,1.7,19,M,,M,,*54
06/13/2014	03:03:17.944	$GPGGA,030318,2512.9380,N,08005.8198,W,1,9,2.0,19,M,,M,,*59
06/13/2014	03:03:18.947	$GPGGA,030319,2512.9372,N,08005.8202,W,1,9,1.7,19,M,,M,,*51
06/13/2014	03:03:19.971	$GPGGA,030320,2512.9365,N,08005.8206,W,1,9,1.7,19,M,,M,,*59
06/13/2014	03:03:20.963	$GPGGA,030321,2512.9357,N,08005.8209,W,1,9,1.7,19,M,,M,,*56
06/13/2014	03:03:21.985	$GPGGA,030322,2512.9347,N,08005.8212,W,1,9,1.7,19,M,,M,,*5E
06/13/2014	03:03:22.989	$GPGGA,030323,2512.9341,N,08005.8215,W,1,9,1.7,19,M,,M,,*5E
06/13/2014	03:03:24.022	$GPGGA,030324,2512.9333,N,08005.8219,W,1,9,1.7,19,M,,M,,*50
06/13/2014	03:03:25.035	$GPGGA,030325,2512.9325,N,08005.8222,W,1,9,1.7,19,M,,M,,*5E
06/13/2014	03:03:26.018	$GPGGA,030326,2512.9317,N,08005.8223,W,1,9,1.7,19,M,,M,,*5D
06/13/2014	03:03:27.031	$GPGGA,030327,2512.9311,N,08005.8227,W,1,9,1.7,19,M,,M,,*5E
06/13/2014	03:03:28.075	$GPGGA,030328,2512.9304,N,08005.8230,W,1,9,2.0,19,M,,M,,*57
06/13/2014	03:03:29.048	$GPGGA,030329,2512.9297,N,08005.8230,W,1,8,2.0,19,M,,M,,*5C
06/13/2014	03:03:30.081	$GPGGA,030330,2512.9290,N,08005.8234,W,1,8,1.7,19,M,,M,,*53
06/13/2014	03:03:31.142	$GPGGA,030331,2512.9283,N,08005.8238,W,1,9,1.7,19,M,,M,,*5D
06/13/2014	03:03:32.117	$GPGGA,030332,2512.9275,N,08005.8240,W,1,9,2.0,19,M,,M,,*5C
06/13/2014	03:03:33.121	$GPGGA,030333,2512.9265,N,08005.8244,W,1,9,1.7,19,M,,M,,*5C
06/13/2014	03:03:34.103	$GPGGA,030334,2512.9257,N,08005.8248,W,1,9,1.7,18,M,,M,,*57
06/13/2014	03:03:35.248	$GPGGA,030335,2512.9249,N,08005.8251,W,1,9,1.7,18,M,,M,,*51
06/13/2014	03:03:36.150	$GPGGA,030336,2512.9240,N,08005.8255,W,1,9,1.7,18,M,,M,,*5F
06/13/2014	03:03:37.163	$GPGGA,030337,2512.9234,N,08005.8258,W,1,9,1.7,18,M,,M,,*50
06/13/2014	03:03:38.146	$GPGGA,030338,2512.9227,N,08005.8260,W,1,9,1.7,18,M,,M,,*56
06/13/2014	03:03:39.179	$GPGGA,030339,2512.9218,N,08005.8262,W,1,9,1.7,18,M,,M,,*59
06/13/2014	03:03:40.192	$GPGGA,030340,2512.9211,N,08005.8267,W,1,9,1.7,18,M,,M,,*5B
06/13/2014	03:03:41.185	$GPGGA,030341,2512.9203,N,08005.8270,W,1,9,1.7,18,M,,M,,*5F
06/13/2014	03:03:42.319	$GPGGA,030342,2512.9195,N,08005.8271,W,1,9,1.7,18,M,,M,,*51
06/13/2014	03:03:43.211	$GPGGA,030343,2512.9187,N,08005.8275,W,1,9,1.7,18,M,,M,,*57
06/13/2014	03:03:44.244	$GPGGA,030344,2512.9180,N,08005.8278,W,1,9,1.7,18,M,,M,,*5A
06/13/2014	03:03:45.237	$GPGGA,030345,2512.9173,N,08005.8280,W,1,9,1.7,18,M,,M,,*50
06/13/2014	03:03:46.352	$GPGGA,030346,2512.9164,N,08005.8284,W,1,9,1.7,18,M,,M,,*51
06/13/2014	03:03:46.575	$GPGGA,030347,2512.9158,N,08005.8287,W,1,9,2.0,18,M,,M,,*58
06/13/2014	03:03:47.497	$GPGGA,030348,2512.9149,N,08005.8288,W,1,9,2.0,18,M,,M,,*58
06/13/2014	03:03:48.601	$GPGGA,030349,2512.9142,N,08005.8291,W,1,9,1.7,18,M,,M,,*5E
06/13/2014	03:03:49.524	$GPGGA,030350,2512.9135,N,08005.8295,W,1,9,1.7,18,M,,M,,*52
06/13/2014	03:03:50.648	$GPGGA,030351,2512.9126,N,08005.8298,W,1,9,1.7,18,M,,M,,*5C
06/13/2014	03:03:51.641	$GPGGA,030352,2512.9118,N,08005.8299,W,1,9,1.7,18,M,,M,,*53
06/13/2014	03:03:52.675	$GPGGA,030353,2512.9111,N,08005.8303,W,1,9,1.7,18,M,,M,,*59
06/13/2014	03:03:53.651	$GPGGA,030354,2512.9104,N,08005.8307,W,1,9,1.7,18,M,,M,,*5E
06/13/2014	03:03:54.660	$GPGGA,030355,2512.9094,N,08005.8309,W,1,9,1.7,18,M,,M,,*59
06/13/2014	03:03:55.694	$GPGGA,030356,2512.9087,N,08005.8311,W,1,9,1.7,18,M,,M,,*51
06/13/2014	03:03:56.666	$GPGGA,030357,2512.9080,N,08005.8316,W,1,9,1.7,18,M,,M,,*50
06/13/2014	03:03:57.704	$GPGGA,030358,2512.9072,N,08005.8318,W,1,9,1.7,18,M,,M,,*5C
06/13/2014	03:03:58.717	$GPGGA,030359,2512.9064,N,08005.8320,W,1,9,1.7,18,M,,M,,*51
06/13/2014	03:03:59.756	$GPGGA,030400,2512.9057,N,08005.8322,W,1,9,1.7,18,M,,M,,*58
06/13/2014	03:04:00.743	$GPGGA,030401,2512.9048,N,08005.8327,W,1,9,1.7,18,M,,M,,*52
06/13/2014	03:04:01.742	$GPGGA,030402,2512.9040,N,08005.8328,W,1,9,1.7,18,M,,M,,*56
06/13/2014	03:04:02.785	$GPGGA,030403,2512.9033,N,08005.8331,W,1,9,1.7,18,M,,M,,*5B
06/13/2014	03:04:03.768	$GPGGA,030404,2512.9025,N,08005.8334,W,1,9,1.7,18,M,,M,,*5E
06/13/2014	03:04:04.795	$GPGGA,030405,2512.9017,N,08005.8335,W,1,9,1.7,18,M,,M,,*5F
06/13/2014	03:04:05.784	$GPGGA,030406,2512.9010,N,08005.8338,W,1,9,1.7,18,M,,M,,*56
06/13/2014	03:04:06.787	$GPGGA,030407,2512.9001,N,08005.8340,W,1,9,1.7,18,M,,M,,*58
06/13/2014	03:04:07.841	$GPGGA,030408,2512.8993,N,08005.8342,W,1,9,1.7,18,M,,M,,*56
06/13/2014	03:04:08.804	$GPGGA,030409,2512.8986,N,08005.8345,W,1,9,1.7,18,M,,M,,*54
06/13/2014	03:04:09.837	$GPGGA,030410,2512.8978,N,08005.8347,W,1,9,1.7,18,M,,M,,*5F
06/13/2014	03:04:10.851	$GPGGA,030411,2512.8971,N,08005.8349,W,1,9,1.7,18,M,,M,,*59
06/13/2014	03:04:11.864	$GPGGA,030412,2512.8963,N,08005.8353,W,1,9,1.7,18,M,,M,,*52
06/13/2014	03:04:12.904	$GPGGA,030413,2512.8956,N,08005.8356,W,1,9,1.7,18,M,,M,,*50
06/13/2014	03:04:13.870	$GPGGA,030414,2512.8949,N,08005.8357,W,1,9,1.7,18,M,,M,,*58
06/13/2014	03:04:14.922	$GPGGA,030415,2512.8940,N,08005.8361,W,1,9,1.7,18,M,,M,,*55
06/13/2014	03:04:15.905	$GPGGA,030416,2512.8932,N,08005.8364,W,1,9,1.7,18,M,,M,,*56
06/13/2014	03:04:16.929	$GPGGA,030417,2512.8925,N,08005.8367,W,1,9,1.7,18,M,,M,,*52
06/13/2014	03:04:17.911	$GPGGA,030418,2512.8917,N,08005.8371,W,1,9,1.7,18,M,,M,,*5B
06/13/2014	03:04:18.935	$GPGGA,030419,2512.8909,N,08005.8374,W,1,9,1.7,18,M,,M,,*50
06/13/2014	03:04:19.958	$GPGGA,030420,2512.8902,N,08005.8375,W,1,9,1.7,18,M,,M,,*50
06/13/2014	03:04:20.961	$GPGGA,030421,2512.8893,N,08005.8378,W,1,9,1.7,18,M,,M,,*55
06/13/2014	03:04:21.964	$GPGGA,030422,2512.8885,N,08005.8382,W,1,9,1.7,18,M,,M,,*54
06/13/2014	03:04:22.957	$GPGGA,030423,2512.8877,N,08005.8383,W,1,9,1.7,18,M,,M,,*59
06/13/2014	03:04:24.112	$GPGGA,030424,2512.8869,N,08005.8386,W,1,9,1.7,18,M,,M,,*54
06/13/2014	03:04:25.115	$GPGGA,030425,2512.8862,N,08005.8390,W,1,9,1.7,18,M,,M,,*59
06/13/2014	03:04:26.118	$GPGGA,030426,2512.8855,N,08005.8392,W,1,9,1.7,18,M,,M,,*5C
06/13/2014	03:04:27.010	$GPGGA,030427,2512.8845,N,08005.8394,W,1,9,1.7,18,M,,M,,*5A
06/13/2014	03:04:28.155	$GPGGA,030428,2512.8838,N,08005.8399,W,1,9,1.7,18,M,,M,,*52
06/13/2014	03:04:29.138	$GPGGA,030429,2512.8830,N,08005.8401,W,1,9,1.7,18,M,,M,,*5D
06/13/2014	03:04:30.049	$GPGGA,030430,2512.8822,N,08005.8403,W,1,9,1.7,18,M,,M,,*54
06/13/2014	03:04:31.194	$GPGGA,030431,2512.8815,N,08005.8407,W,1,9,1.7,18,M,,M,,*55
06/13/2014	03:04:32.105	$GPGGA,030432,2512.8808,N,08005.8410,W,1,9,1.7,18,M,,M,,*5C
06/13/2014	03:04:33.200	$GPGGA,030433,2512.8801,N,08005.8412,W,1,9,1.7,18,M,,M,,*56
06/13/2014	03:04:34.111	$GPGGA,030434,2512.8792,N,08005.8415,W,1,9,1.7,18,M,,M,,*53
06/13/2014	03:04:35.216	$GPGGA,030435,2512.8786,N,08005.8418,W,1,9,1.7,18,M,,M,,*5A
06/13/2014	03:04:36.158	$GPGGA,030436,2512.8777,N,08005.8421,W,1,9,1.7,18,M,,M,,*5D
06/13/2014	03:04:37.235	$GPGGA,030437,2512.8769,N,08005.8423,W,1,9,1.7,18,M,,M,,*51
06/13/2014	03:04:38.144	$GPGGA,030438,2512.8762,N,08005.8426,W,1,9,1.7,18,M,,M,,*50
06/13/2014	03:04:39.241	$GPGGA,030439,2512.8755,N,08005.8428,W,1,9,1.7,18,M,,M,,*5B
06/13/2014	03:04:40.272	$GPGGA,030440,2512.8747,N,08005.8432,W,1,9,1.7,18,M,,M,,*5D
06/13/2014	03:04:41.275	$GPGGA,030441,2512.8740,N,08005.8434,W,1,9,1.7,18,M,,M,,*5D
06/13/2014	03:04:42.280	$GPGGA,030442,2512.8732,N,08005.8436,W,1,9,1.7,18,M,,M,,*59
06/13/2014	03:04:43.295	$GPGGA,030443,2512.8725,N,08005.8439,W,1,9,1.7,18,M,,M,,*51
06/13/2014	03:04:44.307	$GPGGA,030444,2512.8716,N,08005.8443,W,1,9,1.7,18,M,,M,,*5B
06/13/2014	03:04:45.323	$GPGGA,030445,2512.8708,N,08005.8446,W,1,9,1.7,18,M,,M,,*50
06/13/2014	03:04:46.333	$GPGGA,030446,2512.8700,N,08005.8447,W,1,9,1.7,18,M,,M,,*5A
06/13/2014	03:04:46.563	$GPGGA,030447,2512.8692,N,08005.8451,W,1,9,1.7,18,M,,M,,*56
06/13/2014	03:04:47.566	$GPGGA,030448,2512.8685,N,08005.8455,W,1,9,1.7,18,M,,M,,*5B
06/13/2014	03:04:48.559	$GPGGA,030449,2512.8676,N,08005.8457,W,1,9,1.7,18,M,,M,,*54
06/13/2014	03:04:49.581	$GPGGA,030450,2512.8669,N,08005.8458,W,1,9,1.7,18,M,,M,,*5D
06/13/2014	03:04:50.615	$GPGGA,030451,2512.8662,N,08005.8462,W,1,9,1.7,18,M,,M,,*5E
06/13/2014	03:04:51.618	$GPGGA,030452,2512.8654,N,08005.8465,W,1,9,1.7,18,M,,M,,*5F
06/13/2014	03:04:52.631	$GPGGA,030453,2512.8646,N,08005.8466,W,1,9,1.7,18,M,,M,,*5E
06/13/2014	03:04:53.615	$GPGGA,030454,2512.8639,N,08005.8469,W,1,9,1.7,18,M,,M,,*5E
06/13/2014	03:04:54.657	$GPGGA,030455,2512.8631,N,08005.8473,W,1,9,1.7,18,M,,M,,*5C
06/13/2014	03:04:55.650	$GPGGA,030456,2512.8622,N,08005.8475,W,1,9,1.7,18,M,,M,,*5B
06/13/2014	03:04:56.684	$GPGGA,030457,2512.8615,N,08005.8476,W,1,9,1.7,18,M,,M,,*5D
06/13/2014	03:04:57.656	$GPGGA,030458,2512.8607,N,08005.8479,W,1,9,1.7,18,M,,M,,*5E
06/13/2014	03:04:58.711	$GPGGA,030459,2512.8599,N,08005.8483,W,1,9,1.7,18,M,,M,,*5E
06/13/2014	03:04:59.734	$GPGGA,030500,2512.8591,N,08005.8484,W,1,9,1.7,18,M,,M,,*5C
06/13/2014	03:05:00.716	$GPGGA,030501,2512.8584,N,08005.8486,W,1,9,1.7,18,M,,M,,*5B
06/13/2014	03:05:01.709	$GPGGA,030502,2512.8577,N,08005.8490,W,1,9,1.7,18,M,,M,,*53
06/13/2014	03:05:02.743	$GPGGA,030503,2512.8568,N,08005.8493,W,1,9,1.7,18,M,,M,,*5F
06/13/2014	03:05:03.747	$GPGGA,030504,2512.8560,N,08005.8493,W,1,9,1.7,18,M,,M,,*50
06/13/2014	03:05:04.749	$GPGGA,030505,2512.8553,N,08005.8497,W,1,9,1.7,18,M,,M,,*55
06/13/2014	03:05:05.762	$GPGGA,030506,2512.8545,N,08005.8501,W,1,9,1.7,18,M,,M,,*5F
06/13/2014	03:05:06.761	$GPGGA,030507,2512.8537,N,08005.8502,W,1,9,1.7,18,M,,M,,*58
06/13/2014	03:05:07.788	$GPGGA,030508,2512.8530,N,08005.8504,W,1,9,1.7,18,M,,M,,*56
06/13/2014	03:05:08.783	$GPGGA,030509,2512.8522,N,08005.8508,W,1,9,1.7,18,M,,M,,*58
06/13/2014	03:05:09.780	$GPGGA,030510,2512.8514,N,08005.8511,W,1,9,1.7,18,M,,M,,*5D
06/13/2014	03:05:10.786	$GPGGA,030511,2512.8506,N,08005.8510,W,1,9,1.7,18,M,,M,,*5E
06/13/2014	03:05:11.923	$GPGGA,030512,2512.8498,N,08005.8512,W,1,9,1.7,18,M,,M,,*59
06/13/2014	03:05:12.809	$GPGGA,030513,2512.8491,N,08005.8516,W,1,9,1.7,18,M,,M,,*55
06/13/2014	03:05:13.785	$GPGGA,030514,2512.8483,N,08005.8520,W,1,9,1.7,18,M,,M,,*54
06/13/2014	03:05:14.782	$GPGGA,030515,2512.8475,N,08005.8522,W,1,9,1.7,18,M,,M,,*5E
06/13/2014	03:05:15.929	$GPGGA,030516,2512.8467,N,08005.8524,W,1,9,1.7,18,M,,M,,*58
06/13/2014	03:05:16.794	$GPGGA,030517,2512.8461,N,08005.8529,W,1,9,1.7,18,M,,M,,*52
06/13/2014	03:05:17.933	$GPGGA,030518,2512.8452,N,08005.8530,W,1,9,1.7,18,M,,M,,*55
06/13/2014	03:05:18.827	$GPGGA,030519,2512.8445,N,08005.8531,W,1,9,1.7,18,M,,M,,*53
06/13/2014	03:05:19.824	$GPGGA,030520,2512.8438,N,08005.8537,W,1,9,1.7,18,M,,M,,*55
06/13/2014	03:05:20.830	$GPGGA,030521,2512.8430,N,08005.8538,W,1,9,1.7,18,M,,M,,*53
06/13/2014	03:05:21.917	$GPGGA,030522,2512.8422,N,08005.8540,W,1,9,1.7,18,M,,M,,*5C
06/13/2014	03:05:22.964	$GPGGA,030523,2512.8415,N,08005.8544,W,1,9,1.7,18,M,,M,,*5D
06/13/2014	03:05:23.839	$GPGGA,030524,2512.8408,N,08005.8548,W,1,9,1.7,18,M,,M,,*5A
06/13/2014	03:05:24.935	$GPGGA,030525,2512.8400,N,08005.8549,W,1,9,1.7,18,M,,M,,*52
06/13/2014	03:05:25.851	$GPGGA,030526,2512.8393,N,08005.8552,W,1,9,1.7,18,M,,M,,*56
06/13/2014	03:05:26.938	$GPGGA,030527,2512.8386,N,08005.8556,W,1,9,1.7,18,M,,M,,*57
06/13/2014	03:05:27.974	$GPGGA,030528,2512.8378,N,08005.8559,W,1,9,1.7,18,M,,M,,*56
06/13/2014	03:05:28.991	$GPGGA,030529,2512.8371,N,08005.8560,W,1,9,1.7,18,M,,M,,*54
06/13/2014	03:05:29.957	$GPGGA,030530,2512.8363,N,08005.8563,W,1,9,1.7,18,M,,M,,*5C
06/13/2014	03:05:30.974	$GPGGA,030531,2512.8355,N,08005.8567,W,1,9,1.7,18,M,,M,,*5C
06/13/2014	03:05:31.980	$GPGGA,030532,2512.8349,N,08005.8569,W,1,9,1.7,18,M,,M,,*5C
06/13/2014	03:05:33.006	$GPGGA,030533,2512.8342,N,08005.8573,W,1,9,1.7,18,M,,M,,*5D
06/13/2014	03:05:33.973	$GPGGA,030534,2512.8333,N,08005.8576,W,1,9,1.7,18,M,,M,,*59
06/13/2014	03:05:34.981	$GPGGA,030535,2512.8326,N,08005.8578,W,1,9,1.7,18,M,,M,,*52
06/13/2014	03:05:35.995	$GPGGA,030536,2512.8318,N,08005.8581,W,1,9,1.7,18,M,,M,,*5A
06/13/2014	03:05:37.012	$GPGGA,030537,2512.8311,N,08005.8584,W,1,9,1.7,18,M,,M,,*57
06/13/2014	03:05:37.988	$GPGGA,030538,2512.8303,N,08005.8587,W,1,9,1.7,18,M,,M,,*58
06/13/2014	03:05:39.015	$GPGGA,030539,2512.8296,N,08005.8589,W,1,9,1.7,18,M,,M,,*5A
06/13/2014	03:05:40.029	$GPGGA,030540,2512.8288,N,08005.8592,W,1,9,1.7,18,M,,M,,*51
06/13/2014	03:05:41.034	$GPGGA,030541,2512.8280,N,08005.8595,W,1,9,1.7,18,M,,M,,*5F
06/13/2014	03:05:42.004	$GPGGA,030542,2512.8273,N,08005.8598,W,1,9,1.7,18,M,,M,,*5D
06/13/2014	03:05:43.019	$GPGGA,030543,2512.8266,N,08005.8602,W,1,9,1.7,18,M,,M,,*58
06/13/2014	03:05:44.037	$GPGGA,030544,2512.8257,N,08005.8603,W,1,9,1.7,18,M,,M,,*5C
06/13/2014	03:05:45.022	$GPGGA,030545,2512.8250,N,08005.8606,W,1,9,1.7,18,M,,M,,*5F
06/13/2014	03:05:46.028	$GPGGA,030546,2512.8243,N,08005.8610,W,1,9,1.7,18,M,,M,,*59
06/13/2014	03:05:46.548	$GPGGA,030547,2512.8235,N,08005.8613,W,1,9,1.7,18,M,,M,,*5A
06/13/2014	03:05:47.534	$GPGGA,030548,2512.8227,N,08005.8614,W,1,9,1.7,17,M,,M,,*5E
06/13/2014	03:05:48.531	$GPGGA,030549,2512.8220,N,08005.8618,W,1,9,1.7,17,M,,M,,*54
06/13/2014	03:05:49.527	$GPGGA,030550,2512.8212,N,08005.8620,W,1,9,1.7,17,M,,M,,*56
06/13/2014	03:05:50.523	$GPGGA,030551,2512.8204,N,08005.8623,W,1,9,1.7,17,M,,M,,*53
06/13/2014	03:05:51.540	$GPGGA,030552,2512.8196,N,08005.8625,W,1,9,1.7,17,M,,M,,*5E
06/13/2014	03:05:52.566	$GPGGA,030553,2512.8190,N,08005.8628,W,1,9,1.7,17,M,,M,,*54
06/13/2014	03:05:53.543	$GPGGA,030554,2512.8179,N,08005.8631,W,1,9,2.0,17,M,,M,,*58
06/13/2014	03:05:54.579	$GPGGA,030555,2512.8172,N,08005.8634,W,1,9,1.7,17,M,,M,,*53
06/13/2014	03:05:55.565	$GPGGA,030556,2512.8162,N,08005.8636,W,1,9,1.7,17,M,,M,,*53
06/13/2014	03:05:56.572	$GPGGA,030557,2512.8154,N,08005.8641,W,1,9,1.7,17,M,,M,,*57
06/13/2014	03:05:57.568	$GPGGA,030558,2512.8145,N,08005.8642,W,1,9,1.7,17,M,,M,,*5B
06/13/2014	03:05:58.595	$GPGGA,030559,2512.8136,N,08005.8645,W,1,9,1.7,17,M,,M,,*59
06/13/2014	03:05:59.600	$GPGGA,030600,2512.8129,N,08005.8647,W,1,9,1.7,17,M,,M,,*5A
06/13/2014	03:06:00.667	$GPGGA,030601,2512.8121,N,08005.8652,W,1,9,1.7,17,M,,M,,*57
06/13/2014	03:06:01.573	$GPGGA,030602,2512.8113,N,08005.8652,W,1,9,1.7,17,M,,M,,*55
06/13/2014	03:06:02.599	$GPGGA,030603,2512.8105,N,08005.8654,W,1,9,1.7,17,M,,M,,*55
06/13/2014	03:06:03.616	$GPGGA,030604,2512.8098,N,08005.8658,W,1,9,1.7,17,M,,M,,*5B
06/13/2014	03:06:04.592	$GPGGA,030605,2512.8090,N,08005.8660,W,1,9,1.7,17,M,,M,,*59
06/13/2014	03:06:05.689	$GPGGA,030606,2512.8082,N,08005.8663,W,1,9,1.7,17,M,,M,,*5A
06/13/2014	03:06:06.735	$GPGGA,030607,2512.8074,N,08005.8665,W,1,9,1.7,17,M,,M,,*54
06/13/2014	03:06:07.621	$GPGGA,030608,2512.8068,N,08005.8667,W,1,9,1.7,17,M,,M,,*54
06/13/2014	03:06:08.617	$GPGGA,030609,2512.8060,N,08005.8671,W,1,8,2.0,17,M,,M,,*5F
06/13/2014	03:06:09.614	$GPGGA,030610,2512.8050,N,08005.8672,W,1,8,1.7,17,M,,M,,*53
06/13/2014	03:06:10.721	$GPGGA,030611,2512.8043,N,08005.8675,W,1,9,1.7,17,M,,M,,*56
06/13/2014	03:06:11.637	$GPGGA,030612,2512.8035,N,08005.8678,W,1,9,1.7,17,M,,M,,*59
06/13/2014	03:06:12.633	$GPGGA,030613,2512.8027,N,08005.8681,W,1,9,1.7,17,M,,M,,*5D
06/13/2014	03:06:13.720	$GPGGA,030614,2512.8018,N,08005.8682,W,1,9,1.7,17,M,,M,,*55
06/13/2014	03:06:14.756	$GPGGA,030615,2512.8011,N,08005.8686,W,1,9,1.7,17,M,,M,,*59
06/13/2014	03:06:15.743	$GPGGA,030616,2512.8003,N,08005.8689,W,1,9,1.7,18,M,,M,,*59
06/13/2014	03:06:16.748	$GPGGA,030617,2512.7995,N,08005.8690,W,1,9,1.7,18,M,,M,,*59
06/13/2014	03:06:17.744	$GPGGA,030618,2512.7988,N,08005.8693,W,1,9,1.7,18,M,,M,,*59
06/13/2014	03:06:18.771	$GPGGA,030619,2512.7979,N,08005.8696,W,1,9,1.7,18,M,,M,,*53
06/13/2014	03:06:19.767	$GPGGA,030620,2512.7971,N,08005.8699,W,1,9,1.7,18,M,,M,,*5E
06/13/2014	03:06:20.774	$GPGGA,030621,2512.7963,N,08005.8701,W,1,9,1.7,18,M,,M,,*5C
06/13/2014	03:06:21.770	$GPGGA,030622,2512.7955,N,08005.8704,W,1,9,1.7,18,M,,M,,*5F
06/13/2014	03:06:22.777	$GPGGA,030623,2512.7948,N,08005.8707,W,1,9,1.7,18,M,,M,,*51
06/13/2014	03:06:23.786	$GPGGA,030624,2512.7941,N,08005.8710,W,1,9,1.7,18,M,,M,,*59
06/13/2014	03:06:24.799	$GPGGA,030625,2512.7932,N,08005.8712,W,1,9,1.7,18,M,,M,,*5E
06/13/2014	03:06:25.776	$GPGGA,030626,2512.7924,N,08005.8714,W,1,9,1.7,18,M,,M,,*5C
06/13/2014	03:06:26.812	$GPGGA,030627,2512.7916,N,08005.8717,W,1,9,1.7,18,M,,M,,*5F
06/13/2014	03:06:27.798	$GPGGA,030628,2512.7908,N,08005.8721,W,1,9,1.7,18,M,,M,,*5A
06/13/2014	03:06:28.818	$GPGGA,030629,2512.7901,N,08005.8723,W,1,9,1.7,18,M,,M,,*50
06/13/2014	03:06:29.801	$GPGGA,030630,2512.7894,N,08005.8726,W,1,9,1.7,18,M,,M,,*50
06/13/2014	03:06:30.798	$GPGGA,030631,2512.7885,N,08005.8728,W,1,9,1.7,18,M,,M,,*5F
06/13/2014	03:06:31.834	$GPGGA,030632,2512.7878,N,08005.8732,W,1,9,1.7,18,M,,M,,*55
06/13/2014	03:06:32.810	$GPGGA,030633,2512.7870,N,08005.8735,W,1,9,1.7,18,M,,M,,*5B
06/13/2014	03:06:33.827	$GPGGA,030634,2512.7862,N,08005.8736,W,1,9,1.7,18,M,,M,,*5C
06/13/2014	03:06:34.852	$GPGGA,030635,2512.7855,N,08005.8739,W,1,9,1.7,18,M,,M,,*56
06/13/2014	03:06:35.839	$GPGGA,030636,2512.7848,N,08005.8743,W,1,9,1.7,18,M,,M,,*54
06/13/2014	03:06:36.856	$GPGGA,030637,2512.7840,N,08005.8744,W,1,9,1.7,18,M,,M,,*5A
06/13/2014	03:06:37.841	$GPGGA,030638,2512.7832,N,08005.8746,W,1,9,1.7,18,M,,M,,*52
06/13/2014	03:06:38.868	$GPGGA,030639,2512.7824,N,08005.8750,W,1,9,1.7,18,M,,M,,*53
06/13/2014	03:06:39.844	$GPGGA,030640,2512.7816,N,08005.8754,W,1,9,1.7,18,M,,M,,*58
06/13/2014	03:06:40.871	$GPGGA,030641,2512.7808,N,08005.8755,W,1,9,1.7,18,M,,M,,*57
06/13/2014	03:06:41.847	$GPGGA,030642,2512.7801,N,08005.8758,W,1,9,1.7,18,M,,M,,*50
06/13/2014	03:06:42.894	$GPGGA,030643,2512.7793,N,08005.8761,W,1,9,1.7,18,M,,M,,*5F
06/13/2014	03:06:43.870	$GPGGA,030644,2512.7785,N,08005.8764,W,1,9,1.7,18,M,,M,,*5A
06/13/2014	03:06:44.866	$GPGGA,030645,2512.7777,N,08005.8766,W,1,9,1.7,18,M,,M,,*54
06/13/2014	03:06:45.872	$GPGGA,030646,2512.7771,N,08005.8769,W,1,9,1.7,18,M,,M,,*5E
06/13/2014	03:06:46.506	$GPGGA,030647,2512.7761,N,08005.8772,W,1,9,1.7,18,M,,M,,*54
06/13/2014	03:06:47.502	$GPGGA,030648,2512.7754,N,08005.8775,W,1,9,1.7,18,M,,M,,*5A
06/13/2014	03:06:48.641	$GPGGA,030649,2512.7746,N,08005.8779,W,1,9,1.7,18,M,,M,,*54
06/13/2014	03:06:49.506	$GPGGA,030650,2512.7738,N,08005.8780,W,1,9,1.7,18,M,,M,,*53
06/13/2014	03:06:50.642	$GPGGA,030651,2512.7730,N,08005.8783,W,1,9,1.7,18,M,,M,,*59
06/13/2014	03:06:51.517	$GPGGA,030652,2512.7724,N,08005.8786,W,1,9,1.7,18,M,,M,,*5A
06/13/2014	03:06:52.513	$GPGGA,030653,2512.7717,N,08005.8787,W,1,9,1.7,18,M,,M,,*5A
06/13/2014	03:06:53.519	$GPGGA,030654,2512.7708,N,08005.8790,W,1,9,1.7,18,M,,M,,*55
06/13/2014	03:06:54.546	$GPGGA,030655,2512.7700,N,08005.8793,W,1,9,1.7,18,M,,M,,*5F
06/13/2014	03:06:55.804	$GPGGA,030656,2512.7693,N,08005.8797,W,1,9,1.7,18,M,,M,,*53
06/13/2014	03:06:56.845	$GPGGA,030657,2512.7685,N,08005.8797,W,1,9,1.7,18,M,,M,,*55
06/13/2014	03:06:57.788	$GPGGA,030658,2512.7677,N,08005.8801,W,1,9,1.7,18,M,,M,,*57
06/13/2014	03:06:59.035	$GPGGA,030659,2512.7670,N,08005.8804,W,1,9,1.7,18,M,,M,,*54
06/13/2014	03:06:59.968	$GPGGA,030700,2512.7663,N,08005.8806,W,1,9,1.7,18,M,,M,,*59
06/13/2014	03:07:01.182	$GPGGA,030701,2512.7654,N,08005.8809,W,1,9,1.7,18,M,,M,,*53
06/13/2014	03:07:02.212	$GPGGA,030702,2512.7648,N,08005.8812,W,1,9,1.7,18,M,,M,,*57
06/13/2014	03:07:03.297	$GPGGA,030703,2512.7639,N,08005.8815,W,1,9,1.7,18,M,,M,,*57
06/13/2014	03:07:04.479	$GPGGA,030704,2512.7631,N,08005.8819,W,1,9,1.7,18,M,,M,,*54
06/13/2014	03:07:05.498	$GPGGA,030705,2512.7624,N,08005.8822,W,1,9,1.7,18,M,,M,,*59
06/13/2014	03:07:06.539	$GPGGA,030706,2512.7616,N,08005.8823,W,1,9,1.7,18,M,,M,,*5A
06/13/2014	03:07:07.699	$GPGGA,030707,2512.7609,N,08005.8827,W,1,9,1.7,18,M,,M,,*51
06/13/2014	03:07:08.807	$GPGGA,030708,2512.7601,N,08005.8830,W,1,9,1.7,18,M,,M,,*50
06/13/2014	03:07:09.856	$GPGGA,030709,2512.7594,N,08005.8833,W,1,9,1.7,18,M,,M,,*5D
06/13/2014	03:07:10.865	$GPGGA,030710,2512.7585,N,08005.8835,W,1,9,1.7,18,M,,M,,*53
06/13/2014	03:07:12.003	$GPGGA,030711,2512.7578,N,08005.8838,W,1,9,1.7,18,M,,M,,*5D
06/13/2014	03:07:13.057	$GPGGA,030712,2512.7570,N,08005.8841,W,1,9,1.7,18,M,,M,,*58
06/13/2014	03:07:14.173	$GPGGA,030713,2512.7562,N,08005.8844,W,1,9,1.7,18,M,,M,,*5F
06/13/2014	03:07:15.193	$GPGGA,030714,2512.7554,N,08005.8845,W,1,9,1.7,18,M,,M,,*5C
06/13/2014	03:07:16.288	$GPGGA,030715,2512.7547,N,08005.8849,W,1,9,1.7,18,M,,M,,*53
06/13/2014	03:07:17.436	$GPGGA,030716,2512.7538,N,08005.8852,W,1,9,1.7,18,M,,M,,*52
06/13/2014	03:07:18.532	$GPGGA,030717,2512.7531,N,08005.8855,W,1,9,1.7,18,M,,M,,*5D
06/13/2014	03:07:19.605	$GPGGA,030718,2512.7523,N,08005.8858,W,1,9,1.7,18,M,,M,,*5C
06/13/2014	03:07:22.316	$GPGGA,030720,2512.7508,N,08005.8862,W,1,9,1.7,18,M,,M,,*57
06/13/2014	03:07:22.837	$GPGGA,030721,2512.7500,N,08005.8866,W,1,9,1.7,18,M,,M,,*5A
06/13/2014	03:07:23.921	$GPGGA,030722,2512.7493,N,08005.8869,W,1,9,1.7,18,M,,M,,*5D
06/13/2014	03:07:25.005	$GPGGA,030723,2512.7484,N,08005.8869,W,1,9,1.7,18,M,,M,,*5A
06/13/2014	03:07:26.111	$GPGGA,030724,2512.7477,N,08005.8873,W,1,9,1.7,18,M,,M,,*5A
06/13/2014	03:07:27.137	$GPGGA,030725,2512.7471,N,08005.8876,W,1,9,1.7,18,M,,M,,*58
06/13/2014	03:07:28.183	$GPGGA,030726,2512.7462,N,08005.8877,W,1,9,1.7,18,M,,M,,*58
06/13/2014	03:07:29.266	$GPGGA,030727,2512.7454,N,08005.8880,W,1,9,1.7,18,M,,M,,*54
06/13/2014	03:07:30.426	$GPGGA,030728,2512.7447,N,08005.8884,W,1,9,1.7,18,M,,M,,*5D
06/13/2014	03:07:31.481	$GPGGA,030729,2512.7439,N,08005.8885,W,1,9,1.7,18,M,,M,,*54
06/13/2014	03:07:32.520	$GPGGA,030730,2512.7431,N,08005.8887,W,1,9,1.7,18,M,,M,,*56
06/13/2014	03:07:33.636	$GPGGA,030731,2512.7424,N,08005.8891,W,1,9,1.7,18,M,,M,,*54
06/13/2014	03:07:34.753	$GPGGA,030732,2512.7417,N,08005.8895,W,1,9,1.7,17,M,,M,,*5C
06/13/2014	03:07:35.816	$GPGGA,030733,2512.7408,N,08005.8895,W,1,9,1.7,17,M,,M,,*53
06/13/2014	03:07:36.835	$GPGGA,030734,2512.7401,N,08005.8898,W,1,9,1.7,17,M,,M,,*50
06/13/2014	03:07:37.921	$GPGGA,030735,2512.7395,N,08005.8900,W,1,9,1.7,17,M,,M,,*5B
06/13/2014	03:07:39.106	$GPGGA,030736,2512.7388,N,08005.8902,W,1,9,2.0,17,M,,M,,*52
06/13/2014	03:07:40.132	$GPGGA,030737,2512.7379,N,08005.8903,W,1,8,1.7,17,M,,M,,*59
06/13/2014	03:07:41.229	$GPGGA,030738,2512.7372,N,08005.8907,W,1,8,1.7,17,M,,M,,*59
06/13/2014	03:07:42.387	$GPGGA,030739,2512.7364,N,08005.8910,W,1,9,1.7,17,M,,M,,*58
06/13/2014	03:07:43.407	$GPGGA,030740,2512.7356,N,08005.8912,W,1,9,2.0,17,M,,M,,*51
06/13/2014	03:07:44.534	$GPGGA,030741,2512.7348,N,08005.8914,W,1,8,1.7,17,M,,M,,*5C
06/13/2014	03:07:45.575	$GPGGA,030742,2512.7341,N,08005.8917,W,1,8,1.7,17,M,,M,,*55
06/13/2014	03:07:46.584	$GPGGA,030743,2512.7334,N,08005.8920,W,1,9,1.7,17,M,,M,,*53
06/13/2014	03:07:47.744	$GPGGA,030744,2512.7327,N,08005.8920,W,1,9,2.0,17,M,,M,,*52
06/13/2014	03:07:48.849	$GPGGA,030745,2512.7318,N,08005.8923,W,1,8,1.7,17,M,,M,,*59
06/13/2014	03:07:49.902	$GPGGA,030746,2512.7311,N,08005.8927,W,1,8,1.7,17,M,,M,,*57
06/13/2014	03:07:46.618	$GPGGA,030747,2512.7302,N,08005.8927,W,1,9,1.7,17,M,,M,,*55
06/13/2014	03:07:47.659	$GPGGA,030748,2512.7295,N,08005.8931,W,1,9,1.7,17,M,,M,,*52
06/13/2014	03:07:48.787	$GPGGA,030749,2512.7287,N,08005.8934,W,1,9,1.7,17,M,,M,,*55
06/13/2014	03:07:49.806	$GPGGA,030750,2512.7280,N,08005.8935,W,1,9,1.7,17,M,,M,,*5B
06/13/2014	03:07:50.956	$GPGGA,030751,2512.7271,N,08005.8938,W,1,9,1.7,17,M,,M,,*59
06/13/2014	03:07:52.040	$GPGGA,030752,2512.7264,N,08005.8941,W,1,9,1.7,17,M,,M,,*50
06/13/2014	03:07:53.124	$GPGGA,030753,2512.7256,N,08005.8943,W,1,9,1.7,17,M,,M,,*52
06/13/2014	03:07:54.169	$GPGGA,030754,2512.7248,N,08005.8945,W,1,9,1.7,17,M,,M,,*5C
06/13/2014	03:07:55.271	$GPGGA,030755,2512.7240,N,08005.8949,W,1,9,1.7,17,M,,M,,*59
06/13/2014	03:07:56.367	$GPGGA,030756,2512.7233,N,08005.8952,W,1,9,1.7,17,M,,M,,*54
06/13/2014	03:07:57.440	$GPGGA,030757,2512.7225,N,08005.8954,W,1,9,1.7,17,M,,M,,*54
06/13/2014	03:07:58.495	$GPGGA,030758,2512.7217,N,08005.8956,W,1,9,1.7,17,M,,M,,*58
06/13/2014	03:07:59.584	$GPGGA,030759,2512.7209,N,08005.8960,W,1,9,1.7,17,M,,M,,*53
06/13/2014	03:08:00.693	$GPGGA,030800,2512.7204,N,08005.8963,W,1,9,1.7,17,M,,M,,*5E
06/13/2014	03:08:01.778	$GPGGA,030801,2512.7195,N,08005.8964,W,1,9,1.7,17,M,,M,,*53
06/13/2014	03:08:02.861	$GPGGA,030802,2512.7187,N,08005.8967,W,1,9,1.7,17,M,,M,,*50
06/13/2014	03:08:03.946	$GPGGA,030803,2512.7182,N,08005.8972,W,1,9,1.7,18,M,,M,,*5F
06/13/2014	03:08:05.041	$GPGGA,030804,2512.7173,N,08005.8974,W,1,9,1.7,18,M,,M,,*50
06/13/2014	03:08:06.101	$GPGGA,030805,2512.7165,N,08005.8975,W,1,9,2.0,18,M,,M,,*53
06/13/2014	03:08:07.173	$GPGGA,030806,2512.7165,N,08005.8975,W,1,9,2.0,18,M,,M,,*50
06/13/2014	03:08:08.265	$GPGGA,030807,2512.7152,N,08005.8982,W,1,9,2.0,18,M,,M,,*5D
06/13/2014	03:08:09.357	$GPGGA,030808,2512.7146,N,08005.8985,W,1,9,2.0,18,M,,M,,*50
06/13/2014	03:08:10.463	$GPGGA,030809,2512.7139,N,08005.8988,W,1,8,1.7,18,M,,M,,*51
06/13/2014	03:08:11.507	$GPGGA,030810,2512.7132,N,08005.8992,W,1,8,2.0,18,M,,M,,*5D
06/13/2014	03:08:12.592	$GPGGA,030811,2512.7124,N,08005.8992,W,1,8,2.0,17,M,,M,,*54
06/13/2014	03:08:13.667	$GPGGA,030812,2512.7117,N,08005.8995,W,1,8,2.0,17,M,,M,,*50
06/13/2014	03:08:14.747	$GPGGA,030813,2512.7111,N,08005.8999,W,1,9,1.7,17,M,,M,,*5E
06/13/2014	03:08:15.809	$GPGGA,030814,2512.7111,N,08005.8999,W,1,9,1.7,17,M,,M,,*59
06/13/2014	03:08:16.926	$GPGGA,030815,2512.7097,N,08005.9003,W,1,8,2.0,17,M,,M,,*59
06/13/2014	03:08:17.999	$GPGGA,030816,2512.7097,N,08005.9003,W,1,8,2.0,17,M,,M,,*5A
06/13/2014	03:08:19.112	$GPGGA,030817,2512.7082,N,08005.9010,W,1,9,1.7,17,M,,M,,*58
06/13/2014	03:08:20.197	$GPGGA,030818,2512.7075,N,08005.9012,W,1,9,1.7,17,M,,M,,*5D
06/13/2014	03:08:21.231	$GPGGA,030819,2512.7068,N,08005.9012,W,1,9,1.7,17,M,,M,,*50
06/13/2014	03:08:22.368	$GPGGA,030820,2512.7059,N,08005.9015,W,1,9,1.7,17,M,,M,,*5F
06/13/2014	03:08:23.399	$GPGGA,030821,2512.7052,N,08005.9019,W,1,9,1.7,17,M,,M,,*59
06/13/2014	03:08:24.505	$GPGGA,030822,2512.7046,N,08005.9022,W,1,9,2.0,16,M,,M,,*52
06/13/2014	03:08:25.567	$GPGGA,030823,2512.7039,N,08005.9025,W,1,8,2.0,16,M,,M,,*5D
06/13/2014	03:08:26.690	$GPGGA,030824,2512.7039,N,08005.9025,W,1,8,2.0,16,M,,M,,*5A
06/13/2014	03:08:27.736	$GPGGA,030825,2512.7021,N,08005.9032,W,1,9,1.7,16,M,,M,,*51
06/13/2014	03:08:28.831	$GPGGA,030826,2512.7014,N,08005.9035,W,1,9,2.0,16,M,,M,,*57
06/13/2014	03:08:29.894	$GPGGA,030827,2512.7007,N,08005.9035,W,1,8,2.0,16,M,,M,,*55
06/13/2014	03:08:31.109	$GPGGA,030828,2512.6999,N,08005.9039,W,1,8,2.0,16,M,,M,,*59
06/13/2014	03:08:32.063	$GPGGA,030829,2512.6993,N,08005.9043,W,1,9,2.0,16,M,,M,,*5E
06/13/2014	03:08:33.267	$GPGGA,030830,2512.6984,N,08005.9046,W,1,9,2.0,16,M,,M,,*55
06/13/2014	03:08:34.319	$GPGGA,030831,2512.6976,N,08005.9047,W,1,9,1.7,16,M,,M,,*5C
06/13/2014	03:08:35.316	$GPGGA,030832,2512.6976,N,08005.9047,W,1,9,1.7,16,M,,M,,*5F
06/13/2014	03:08:36.498	$GPGGA,030833,2512.6960,N,08005.9054,W,1,9,1.7,16,M,,M,,*5B
06/13/2014	03:08:37.463	$GPGGA,030834,2512.6960,N,08005.9054,W,1,9,1.7,16,M,,M,,*5C
06/13/2014	03:08:38.548	$GPGGA,030835,2512.6945,N,08005.9059,W,1,9,1.7,16,M,,M,,*57
06/13/2014	03:08:39.741	$GPGGA,030836,2512.6937,N,08005.9064,W,1,9,1.7,16,M,,M,,*5F
06/13/2014	03:08:40.835	$GPGGA,030837,2512.6929,N,08005.9065,W,1,9,1.7,16,M,,M,,*50
06/13/2014	03:08:41.789	$GPGGA,030838,2512.6929,N,08005.9065,W,1,9,1.7,16,M,,M,,*5F
06/13/2014	03:08:42.982	$GPGGA,030839,2512.6913,N,08005.9072,W,1,9,1.7,16,M,,M,,*51
06/13/2014	03:08:44.072	$GPGGA,030840,2512.6905,N,08005.9072,W,1,9,1.7,17,M,,M,,*59
06/13/2014	03:08:45.139	$GPGGA,030841,2512.6898,N,08005.9075,W,1,9,1.7,17,M,,M,,*5A
06/13/2014	03:08:46.229	$GPGGA,030842,2512.6890,N,08005.9079,W,1,9,1.7,17,M,,M,,*5D
06/13/2014	03:08:47.330	$GPGGA,030843,2512.6882,N,08005.9080,W,1,9,1.7,17,M,,M,,*59
06/13/2014	03:08:48.404	$GPGGA,030844,2512.6876,N,08005.9082,W,1,9,1.7,17,M,,M,,*57
06/13/2014	03:08:49.499	$GPGGA,030845,2512.6869,N,08005.9084,W,1,8,2.0,17,M,,M,,*5B
06/13/2014	03:08:50.553	$GPGGA,030846,2512.6861,N,08005.9087,W,1,8,1.7,17,M,,M,,*57
06/13/2014	03:08:46.594	$GPGGA,030847,2512.6853,N,08005.9090,W,1,9,1.7,17,M,,M,,*50
06/13/2014	03:08:47.689	$GPGGA,030848,2512.6846,N,08005.9091,W,1,9,1.7,17,M,,M,,*5A
06/13/2014	03:08:48.752	$GPGGA,030849,2512.6837,N,08005.9095,W,1,9,1.7,17,M,,M,,*59
06/13/2014	03:08:49.816	$GPGGA,030850,2512.6829,N,08005.9097,W,1,9,1.7,17,M,,M,,*5C
06/13/2014	03:08:50.932	$GPGGA,030851,2512.6821,N,08005.9098,W,1,9,1.7,17,M,,M,,*5A
06/13/2014	03:08:51.994	$GPGGA,030852,2512.6814,N,08005.9102,W,1,9,1.7,17,M,,M,,*5D
06/13/2014	03:08:53.064	$GPGGA,030853,2512.6806,N,08005.9105,W,1,9,1.7,17,M,,M,,*58
06/13/2014	03:08:54.152	$GPGGA,030854,2512.6799,N,08005.9107,W,1,9,1.7,17,M,,M,,*54
06/13/2014	03:08:55.260	$GPGGA,030855,2512.6790,N,08005.9109,W,1,9,1.7,17,M,,M,,*52
06/13/2014	03:08:56.342	$GPGGA,030856,2512.6783,N,08005.9113,W,1,9,1.7,17,M,,M,,*58
06/13/2014	03:08:57.426	$GPGGA,030857,2512.6775,N,08005.9115,W,1,9,1.7,17,M,,M,,*56
06/13/2014	03:08:58.467	$GPGGA,030858,2512.6767,N,08005.9116,W,1,9,1.7,17,M,,M,,*59
06/13/2014	03:08:59.552	$GPGGA,030859,2512.6760,N,08005.9120,W,1,9,1.7,17,M,,M,,*5A
06/13/2014	03:09:00.669	$GPGGA,030900,2512.6753,N,08005.9123,W,1,9,1.7,17,M,,M,,*54
06/13/2014	03:09:01.775	$GPGGA,030901,2512.6745,N,08005.9124,W,1,9,1.7,18,M,,M,,*5A
06/13/2014	03:09:02.794	$GPGGA,030902,2512.6738,N,08005.9127,W,1,9,1.7,18,M,,M,,*50
06/13/2014	03:09:03.933	$GPGGA,030903,2512.6731,N,08005.9130,W,1,9,1.7,18,M,,M,,*5E
06/13/2014	03:09:04.995	$GPGGA,030904,2512.6723,N,08005.9133,W,1,9,1.7,18,M,,M,,*59
06/13/2014	03:09:06.093	$GPGGA,030905,2512.6716,N,08005.9133,W,1,9,1.7,18,M,,M,,*5E
06/13/2014	03:09:07.132	$GPGGA,030906,2512.6709,N,08005.9137,W,1,9,1.7,18,M,,M,,*57
06/13/2014	03:09:08.227	$GPGGA,030907,2512.6702,N,08005.9140,W,1,9,1.7,18,M,,M,,*5D
06/13/2014	03:09:09.430	$GPGGA,030908,2512.6694,N,08005.9139,W,1,9,1.7,18,M,,M,,*52
06/13/2014	03:09:10.396	$GPGGA,030909,2512.6686,N,08005.9142,W,1,9,1.7,18,M,,M,,*5C
06/13/2014	03:09:11.447	$GPGGA,030910,2512.6680,N,08005.9147,W,1,9,1.7,18,M,,M,,*57
06/13/2014	03:09:12.543	$GPGGA,030911,2512.6671,N,08005.9147,W,1,9,1.7,18,M,,M,,*58
06/13/2014	03:09:13.767	$GPGGA,030912,2512.6664,N,08005.9148,W,1,9,1.7,18,M,,M,,*50
06/13/2014	03:09:14.830	$GPGGA,030913,2512.6657,N,08005.9152,W,1,9,1.7,18,M,,M,,*5A
06/13/2014	03:09:15.914	$GPGGA,030914,2512.6651,N,08005.9155,W,1,9,1.7,18,M,,M,,*5C
06/13/2014	03:09:16.890	$GPGGA,030915,2512.6642,N,08005.9155,W,1,9,1.7,18,M,,M,,*5F
06/13/2014	03:09:17.974	$GPGGA,030916,2512.6634,N,08005.9158,W,1,9,1.7,18,M,,M,,*50
06/13/2014	03:09:19.048	$GPGGA,030917,2512.6627,N,08005.9162,W,1,9,1.7,18,M,,M,,*5A
06/13/2014	03:09:20.132	$GPGGA,030918,2512.6620,N,08005.9163,W,1,9,1.7,18,M,,M,,*53
06/13/2014	03:09:21.336	$GPGGA,030919,2512.6612,N,08005.9165,W,1,9,1.7,18,M,,M,,*55
06/13/2014	03:09:22.290	$GPGGA,030920,2512.6605,N,08005.9169,W,1,9,1.7,18,M,,M,,*55
06/13/2014	03:09:23.353	$GPGGA,030921,2512.6598,N,08005.9171,W,1,9,1.7,18,M,,M,,*5A
06/13/2014	03:09:24.459	$GPGGA,030922,2512.6590,N,08005.9173,W,1,9,1.7,18,M,,M,,*53
06/13/2014	03:09:25.522	$GPGGA,030923,2512.6582,N,08005.9176,W,1,8,2.0,18,M,,M,,*51
06/13/2014	03:09:26.726	$GPGGA,030924,2512.6575,N,08005.9180,W,1,8,1.7,18,M,,M,,*53
06/13/2014	03:09:27.821	$GPGGA,030925,2512.6568,N,08005.9183,W,1,9,1.7,18,M,,M,,*5C
06/13/2014	03:09:28.884	$GPGGA,030926,2512.6561,N,08005.9184,W,1,9,2.0,18,M,,M,,*55
06/13/2014	03:09:29.860	$GPGGA,030927,2512.6554,N,08005.9187,W,1,8,2.0,18,M,,M,,*50
06/13/2014	03:09:31.086	$GPGGA,030928,2512.6547,N,08005.9191,W,1,8,2.0,18,M,,M,,*5A
06/13/2014	03:09:32.138	$GPGGA,030929,2512.6540,N,08005.9192,W,1,8,2.0,17,M,,M,,*50
06/13/2014	03:09:33.216	$GPGGA,030930,2512.6532,N,08005.9194,W,1,8,2.0,17,M,,M,,*5B
06/13/2014	03:09:34.294	$GPGGA,030931,2512.6525,N,08005.9198,W,1,9,1.7,17,M,,M,,*55
06/13/2014	03:09:35.400	$GPGGA,030932,2512.6518,N,08005.9202,W,1,9,2.0,17,M,,M,,*5C
06/13/2014	03:09:36.506	$GPGGA,030933,2512.6510,N,08005.9203,W,1,9,1.7,17,M,,M,,*50
06/13/2014	03:09:37.536	$GPGGA,030934,2512.6503,N,08005.9205,W,1,9,2.0,17,M,,M,,*57
06/13/2014	03:09:38.642	$GPGGA,030935,2512.6496,N,08005.9209,W,1,8,2.0,17,M,,M,,*56
06/13/2014	03:09:39.705	$GPGGA,030936,2512.6486,N,08005.9213,W,1,8,2.0,17,M,,M,,*5F
06/13/2014	03:09:40.800	$GPGGA,030937,2512.6476,N,08005.9216,W,1,9,1.7,17,M,,M,,*51
06/13/2014	03:09:41.884	$GPGGA,030938,2512.6470,N,08005.9219,W,1,9,1.7,17,M,,M,,*57
06/13/2014	03:09:42.969	$GPGGA,030939,2512.6463,N,08005.9221,W,1,8,2.0,17,M,,M,,*5A
06/13/2014	03:09:44.052	$GPGGA,030940,2512.6454,N,08005.9224,W,1,8,2.0,17,M,,M,,*55
06/13/2014	03:09:45.105	$GPGGA,030941,2512.6447,N,08005.9227,W,1,9,1.7,17,M,,M,,*50
06/13/2014	03:09:46.201	$GPGGA,030942,2512.6440,N,08005.9230,W,1,9,2.0,17,M,,M,,*56
06/13/2014	03:09:47.306	$GPGGA,030943,2512.6432,N,08005.9234,W,1,8,2.0,17,M,,M,,*57
06/13/2014	03:09:48.369	$GPGGA,030944,2512.6424,N,08005.9235,W,1,8,2.0,17,M,,M,,*56
06/13/2014	03:09:49.432	$GPGGA,030945,2512.6418,N,08005.9238,W,1,8,2.0,17,M,,M,,*55
06/13/2014	03:09:50.528	$GPGGA,030946,2512.6410,N,08005.9241,W,1,8,1.7,17,M,,M,,*54
06/13/2014	03:09:46.570	$GPGGA,030947,2512.6404,N,08005.9243,W,1,9,1.7,16,M,,M,,*52
06/13/2014	03:09:47.644	$GPGGA,030948,2512.6396,N,08005.9245,W,1,9,2.0,16,M,,M,,*53
06/13/2014	03:09:48.706	$GPGGA,030949,2512.6388,N,08005.9248,W,1,8,2.0,16,M,,M,,*51
06/13/2014	03:09:49.791	$GPGGA,030950,2512.6380,N,08005.9250,W,1,8,2.0,16,M,,M,,*58
06/13/2014	03:09:50.910	$GPGGA,030951,2512.6371,N,08005.9254,W,1,9,1.7,16,M,,M,,*56
06/13/2014	03:09:51.960	$GPGGA,030952,2512.6362,N,08005.9257,W,1,9,1.7,16,M,,M,,*54
06/13/2014	03:09:53.044	$GPGGA,030953,2512.6352,N,08005.9260,W,1,9,1.7,16,M,,M,,*52
06/13/2014	03:09:54.118	$GPGGA,030954,2512.6345,N,08005.9263,W,1,9,1.7,16,M,,M,,*50
06/13/2014	03:09:55.191	$GPGGA,030955,2512.6337,N,08005.9266,W,1,9,1.7,16,M,,M,,*51
06/13/2014	03:09:56.309	$GPGGA,030956,2512.6328,N,08005.9268,W,1,9,1.7,16,M,,M,,*52
06/13/2014	03:09:57.490	$GPGGA,030957,2512.6320,N,08005.9270,W,1,9,1.7,16,M,,M,,*52
06/13/2014	03:09:58.445	$GPGGA,030958,2512.6312,N,08005.9274,W,1,9,1.7,17,M,,M,,*59
06/13/2014	03:09:59.648	$GPGGA,030959,2512.6304,N,08005.9275,W,1,9,1.7,17,M,,M,,*5E
06/13/2014	03:10:00.635	$GPGGA,031000,2512.6297,N,08005.9278,W,1,9,1.7,17,M,,M,,*5C
06/13/2014	03:10:01.708	$GPGGA,031001,2512.6288,N,08005.9281,W,1,9,1.7,17,M,,M,,*55
06/13/2014	03:10:02.901	$GPGGA,031002,2512.6279,N,08005.9283,W,1,9,1.7,17,M,,M,,*5A
06/13/2014	03:10:03.996	$GPGGA,031003,2512.6272,N,08005.9286,W,1,9,1.7,17,M,,M,,*55
06/13/2014	03:10:04.961	$GPGGA,031004,2512.6264,N,08005.9290,W,1,9,1.7,17,M,,M,,*52
06/13/2014	03:10:06.023	$GPGGA,031005,2512.6256,N,08005.9292,W,1,9,1.7,17,M,,M,,*50
06/13/2014	03:10:07.205	$GPGGA,031006,2512.6248,N,08005.9293,W,1,9,1.7,18,M,,M,,*52
06/13/2014	03:10:08.181	$GPGGA,031007,2512.6241,N,08005.9296,W,1,9,1.7,18,M,,M,,*5F
06/13/2014	03:10:09.287	$GPGGA,031008,2512.6233,N,08005.9299,W,1,9,1.7,18,M,,M,,*5A
06/13/2014	03:10:10.361	$GPGGA,031009,2512.6225,N,08005.9300,W,1,9,1.7,18,M,,M,,*5D
06/13/2014	03:10:11.424	$GPGGA,031010,2512.6218,N,08005.9303,W,1,9,1.7,18,M,,M,,*58
06/13/2014	03:10:12.660	$GPGGA,031011,2512.6210,N,08005.9306,W,1,9,1.7,18,M,,M,,*54
06/13/2014	03:10:13.614	$GPGGA,031012,2512.6201,N,08005.9308,W,1,9,1.7,18,M,,M,,*59
06/13/2014	03:10:14.688	$GPGGA,031013,2512.6194,N,08005.9310,W,1,9,1.7,18,M,,M,,*5E
06/13/2014	03:10:15.859	$GPGGA,031014,2512.6186,N,08005.9314,W,1,9,1.7,18,M,,M,,*5E
06/13/2014	03:10:16.987	$GPGGA,031015,2512.6178,N,08005.9315,W,1,9,1.7,18,M,,M,,*5F
06/13/2014	03:10:18.049	$GPGGA,031016,2512.6171,N,08005.9317,W,1,9,1.7,19,M,,M,,*56
06/13/2014	03:10:19.144	$GPGGA,031017,2512.6163,N,08005.9321,W,1,9,1.7,19,M,,M,,*51
06/13/2014	03:10:20.196	$GPGGA,031018,2512.6156,N,08005.9322,W,1,9,1.7,19,M,,M,,*5B
06/13/2014	03:10:21.302	$GPGGA,031019,2512.6149,N,08005.9324,W,1,9,1.7,19,M,,M,,*52
06/13/2014	03:10:22.377	$GPGGA,031020,2512.6140,N,08005.9328,W,1,9,1.7,19,M,,M,,*5D
06/13/2014	03:10:23.440	$GPGGA,031021,2512.6133,N,08005.9329,W,1,9,1.7,19,M,,M,,*59
06/13/2014	03:10:24.535	$GPGGA,031022,2512.6125,N,08005.9331,W,1,9,1.7,19,M,,M,,*54
06/13/2014	03:10:25.617	$GPGGA,031023,2512.6117,N,08005.9333,W,1,9,1.7,19,M,,M,,*56
06/13/2014	03:10:26.712	$GPGGA,031024,2512.6109,N,08005.9336,W,1,9,1.7,19,M,,M,,*5B
06/13/2014	03:10:27.797	$GPGGA,031025,2512.6102,N,08005.9339,W,1,9,1.7,19,M,,M,,*5E
06/13/2014	03:10:28.861	$GPGGA,031026,2512.6095,N,08005.9340,W,1,9,1.7,19,M,,M,,*5C
06/13/2014	03:10:29.955	$GPGGA,031027,2512.6087,N,08005.9344,W,1,9,1.7,19,M,,M,,*5A
06/13/2014	03:10:31.045	$GPGGA,031028,2512.6079,N,08005.9346,W,1,9,1.7,19,M,,M,,*56
06/13/2014	03:10:32.144	$GPGGA,031029,2512.6071,N,08005.9348,W,1,9,1.7,19,M,,M,,*51
06/13/2014	03:10:33.190	$GPGGA,031030,2512.6064,N,08005.9351,W,1,9,1.7,19,M,,M,,*55
06/13/2014	03:10:34.276	$GPGGA,031031,2512.6056,N,08005.9353,W,1,9,1.7,19,M,,M,,*57
06/13/2014	03:10:35.366	$GPGGA,031032,2512.6048,N,08005.9355,W,1,9,1.7,19,M,,M,,*5D
06/13/2014	03:10:36.429	$GPGGA,031033,2512.6041,N,08005.9358,W,1,9,1.7,19,M,,M,,*58
06/13/2014	03:10:37.528	$GPGGA,031034,2512.6034,N,08005.9361,W,1,9,1.7,18,M,,M,,*56
06/13/2014	03:10:38.600	$GPGGA,031035,2512.6027,N,08005.9364,W,1,9,1.7,18,M,,M,,*50
06/13/2014	03:10:39.695	$GPGGA,031036,2512.6019,N,08005.9366,W,1,9,1.7,18,M,,M,,*5C
06/13/2014	03:10:40.768	$GPGGA,031037,2512.6012,N,08005.9368,W,1,9,1.7,18,M,,M,,*58
06/13/2014	03:10:41.852	$GPGGA,031038,2512.6004,N,08005.9371,W,1,9,1.7,18,M,,M,,*58
06/13/2014	03:10:42.912	$GPGGA,031039,2512.5998,N,08005.9375,W,1,9,1.7,18,M,,M,,*52
06/13/2014	03:10:44.018	$GPGGA,031040,2512.5991,N,08005.9376,W,1,9,2.0,18,M,,M,,*52
06/13/2014	03:10:45.092	$GPGGA,031041,2512.5984,N,08005.9378,W,1,8,2.0,18,M,,M,,*58
06/13/2014	03:10:46.167	$GPGGA,031042,2512.5976,N,08005.9382,W,1,8,2.0,18,M,,M,,*53
06/13/2014	03:10:47.299	$GPGGA,031043,2512.5967,N,08005.9386,W,1,9,1.7,18,M,,M,,*53
06/13/2014	03:10:48.345	$GPGGA,031044,2512.5958,N,08005.9387,W,1,9,1.7,18,M,,M,,*59
06/13/2014	03:10:49.419	$GPGGA,031045,2512.5950,N,08005.9391,W,1,9,1.7,18,M,,M,,*57
06/13/2014	03:10:50.492	$GPGGA,031046,2512.5943,N,08005.9394,W,1,9,1.7,18,M,,M,,*53
06/13/2014	03:10:46.534	$GPGGA,031047,2512.5936,N,08005.9397,W,1,8,2.0,18,M,,M,,*56
06/13/2014	03:10:47.608	$GPGGA,031048,2512.5928,N,08005.9400,W,1,8,1.7,18,M,,M,,*5B
06/13/2014	03:10:48.671	$GPGGA,031049,2512.5920,N,08005.9401,W,1,8,2.0,18,M,,M,,*57
06/13/2014	03:10:49.777	$GPGGA,031050,2512.5911,N,08005.9407,W,1,8,1.7,18,M,,M,,*5F
06/13/2014	03:10:50.948	$GPGGA,031051,2512.5903,N,08005.9409,W,1,9,1.7,18,M,,M,,*52
06/13/2014	03:10:51.935	$GPGGA,031052,2512.5896,N,08005.9411,W,1,9,1.7,18,M,,M,,*55
06/13/2014	03:10:53.149	$GPGGA,031053,2512.5889,N,08005.9415,W,1,9,1.7,18,M,,M,,*5E
06/13/2014	03:10:54.093	$GPGGA,031054,2512.5882,N,08005.9418,W,1,9,2.0,18,M,,M,,*5B
06/13/2014	03:10:55.275	$GPGGA,031055,2512.5871,N,08005.9419,W,1,8,2.0,18,M,,M,,*56
06/13/2014	03:10:56.272	$GPGGA,031056,2512.5864,N,08005.9422,W,1,8,1.7,18,M,,M,,*5D
06/13/2014	03:10:57.442	$GPGGA,031057,2512.5858,N,08005.9426,W,1,8,2.0,18,M,,M,,*53
06/13/2014	03:10:58.429	$GPGGA,031058,2512.5850,N,08005.9429,W,1,8,2.0,18,M,,M,,*5B
06/13/2014	03:10:59.600	$GPGGA,031059,2512.5842,N,08005.9430,W,1,9,1.7,18,M,,M,,*54
06/13/2014	03:11:00.717	$GPGGA,031100,2512.5835,N,08005.9434,W,1,9,1.7,18,M,,M,,*5D
06/13/2014	03:11:01.769	$GPGGA,031101,2512.5826,N,08005.9437,W,1,9,1.7,18,M,,M,,*5D
06/13/2014	03:11:02.854	$GPGGA,031102,2512.5818,N,08005.9440,W,1,9,1.7,18,M,,M,,*53
06/13/2014	03:11:03.970	$GPGGA,031103,2512.5810,N,08005.9444,W,1,9,1.7,18,M,,M,,*5E
06/13/2014	03:11:05.044	$GPGGA,031104,2512.5803,N,08005.9447,W,1,9,1.7,18,M,,M,,*58
06/13/2014	03:11:06.128	$GPGGA,031105,2512.5795,N,08005.9448,W,1,9,1.7,18,M,,M,,*56
06/13/2014	03:11:07.191	$GPGGA,031106,2512.5788,N,08005.9451,W,1,9,1.7,18,M,,M,,*51
06/13/2014	03:11:08.265	$GPGGA,031107,2512.5781,N,08005.9454,W,1,9,1.7,18,M,,M,,*5C
06/13/2014	03:11:09.371	$GPGGA,031108,2512.5773,N,08005.9458,W,1,9,1.7,18,M,,M,,*52
06/13/2014	03:11:10.455	$GPGGA,031109,2512.5766,N,08005.9460,W,1,9,1.7,18,M,,M,,*5C
06/13/2014	03:11:11.518	$GPGGA,031110,2512.5759,N,08005.9463,W,1,9,1.7,18,M,,M,,*5B
06/13/2014	03:11:12.602	$GPGGA,031111,2512.5750,N,08005.9466,W,1,9,1.7,18,M,,M,,*56
06/13/2014	03:11:13.698	$GPGGA,031112,2512.5744,N,08005.9469,W,1,9,1.7,18,M,,M,,*5F
06/13/2014	03:11:14.760	$GPGGA,031113,2512.5737,N,08005.9472,W,1,8,2.0,18,M,,M,,*55
06/13/2014	03:11:15.846	$GPGGA,031114,2512.5730,N,08005.9473,W,1,8,1.7,18,M,,M,,*50
06/13/2014	03:11:16.939	$GPGGA,031115,2512.5723,N,08005.9477,W,1,8,2.0,18,M,,M,,*53
06/13/2014	03:11:18.023	$GPGGA,031116,2512.5715,N,08005.9480,W,1,8,2.0,18,M,,M,,*5D
06/13/2014	03:11:19.105	$GPGGA,031117,2512.5708,N,08005.9481,W,1,8,2.0,18,M,,M,,*51
06/13/2014	03:11:20.159	$GPGGA,031118,2512.5699,N,08005.9485,W,1,8,2.0,17,M,,M,,*5C
06/13/2014	03:11:21.276	$GPGGA,031119,2512.5691,N,08005.9490,W,1,8,2.0,17,M,,M,,*51
06/13/2014	03:11:22.350	$GPGGA,031120,2512.5683,N,08005.9491,W,1,8,1.7,17,M,,M,,*5D
06/13/2014	03:11:23.445	$GPGGA,031121,2512.5674,N,08005.9494,W,1,9,1.7,17,M,,M,,*50
06/13/2014	03:11:24.508	$GPGGA,031122,2512.5666,N,08005.9498,W,1,9,1.7,17,M,,M,,*5C
06/13/2014	03:11:25.625	$GPGGA,031123,2512.5661,N,08005.9501,W,1,9,1.7,17,M,,M,,*5B
06/13/2014	03:11:26.680	$GPGGA,031124,2512.5652,N,08005.9502,W,1,9,1.7,17,M,,M,,*5F
06/13/2014	03:11:27.739	$GPGGA,031125,2512.5644,N,08005.9505,W,1,9,1.7,17,M,,M,,*5E
06/13/2014	03:11:30.494	$GPGGA,031127,2512.5629,N,08005.9512,W,1,9,1.7,17,M,,M,,*51
06/13/2014	03:11:31.025	$GPGGA,031128,2512.5621,N,08005.9512,W,1,9,1.7,17,M,,M,,*56
06/13/2014	03:11:32.066	$GPGGA,031129,2512.5613,N,08005.9516,W,1,8,2.1,17,M,,M,,*56
06/13/2014	03:11:33.172	$GPGGA,031130,2512.5604,N,08005.9520,W,1,8,1.7,17,M,,M,,*58
06/13/2014	03:11:34.257	$GPGGA,031131,2512.5596,N,08005.9521,W,1,9,1.7,17,M,,M,,*51
06/13/2014	03:11:35.329	$GPGGA,031132,2512.5587,N,08005.9524,W,1,9,1.7,17,M,,M,,*57
06/13/2014	03:11:36.437	$GPGGA,031133,2512.5579,N,08005.9527,W,1,9,1.7,17,M,,M,,*54
06/13/2014	03:11:37.476	$GPGGA,031134,2512.5571,N,08005.9530,W,1,9,1.7,17,M,,M,,*5D
06/13/2014	03:11:38.702	$GPGGA,031135,2512.5562,N,08005.9532,W,1,9,1.7,17,M,,M,,*5C
06/13/2014	03:11:39.786	$GPGGA,031136,2512.5554,N,08005.9534,W,1,9,1.7,18,M,,M,,*53
06/13/2014	03:11:40.740	$GPGGA,031137,2512.5546,N,08005.9538,W,1,9,1.7,18,M,,M,,*5D
06/13/2014	03:11:41.825	$GPGGA,031138,2512.5538,N,08005.9539,W,1,9,1.7,18,M,,M,,*5A
06/13/2014	03:11:42.898	$GPGGA,031139,2512.5531,N,08005.9542,W,1,9,1.7,18,M,,M,,*5E
06/13/2014	03:11:43.983	$GPGGA,031140,2512.5522,N,08005.9545,W,1,9,1.7,18,M,,M,,*55
06/13/2014	03:11:45.175	$GPGGA,031141,2512.5515,N,08005.9548,W,1,9,1.7,18,M,,M,,*5D
06/13/2014	03:11:46.141	$GPGGA,031142,2512.5507,N,08005.9548,W,1,9,1.7,18,M,,M,,*5D
06/13/2014	03:11:47.225	$GPGGA,031143,2512.5499,N,08005.9552,W,1,9,1.7,18,M,,M,,*51
06/13/2014	03:11:48.331	$GPGGA,031144,2512.5491,N,08005.9556,W,1,9,1.7,18,M,,M,,*5A
06/13/2014	03:11:49.502	$GPGGA,031145,2512.5484,N,08005.9556,W,1,9,1.7,18,M,,M,,*5F
06/13/2014	03:11:50.467	$GPGGA,031146,2512.5477,N,08005.9559,W,1,9,1.7,18,M,,M,,*5F
06/13/2014	03:11:46.502	$GPGGA,031147,2512.5468,N,08005.9560,W,1,9,1.7,19,M,,M,,*5B
06/13/2014	03:11:47.695	$GPGGA,031148,2512.5460,N,08005.9563,W,1,9,1.7,19,M,,M,,*5F
06/13/2014	03:11:48.767	$GPGGA,031149,2512.5452,N,08005.9566,W,1,9,1.7,19,M,,M,,*5A
06/13/2014	03:11:49.743	$GPGGA,031150,2512.5444,N,08005.9567,W,1,9,1.7,19,M,,M,,*54
06/13/2014	03:11:50.947	$GPGGA,031151,2512.5436,N,08005.9570,W,1,9,1.7,19,M,,M,,*56
