Software Version Number: 1	Data File Format Number: 1	Build Version Number: 1	Error Count Since VI Started: 0	Manufacturer: Raytheon	 Model Number: RayMarine 120	 S/N: 	 Cal Date: 	 Wind Direction Offset: 0.00	 Slope (M)1: 0.00	 Offset (B)1: 0.00	 Slope (M)2: 0.00	 Offset (B)2: 0.00	 Slope (M)3: 0.00	 Offset (B)3: 0.00	 Slope (M)4: 0.00	 Offset (B)4: 0.00	 Slope (M)5: 0.00	 Offset (B)5: 0.00	 Slope (M)6: 0.00	 Offset (B)6: 0.00
Computer Date	Computer Time	GGA String
05/28/2014	18:00:00.703	$GPGGA,180001,2545.3555,N,08000.9573,W,1,10,1.4,18,M,,M,,*65
05/28/2014	18:00:01.669	$GPGGA,180002,2545.3578,N,08000.9552,W,1,10,1.4,18,M,,M,,*6A
05/28/2014	18:00:02.665	$GPGGA,180003,2545.3602,N,08000.9532,W,1,10,1.4,18,M,,M,,*63
05/28/2014	18:00:03.690	$GPGGA,180004,2545.3625,N,08000.9513,W,1,10,1.4,18,M,,M,,*62
05/28/2014	18:00:04.705	$GPGGA,180005,2545.3649,N,08000.9492,W,1,10,1.4,18,M,,M,,*61
05/28/2014	18:00:05.721	$GPGGA,180006,2545.3672,N,08000.9471,W,1,10,1.4,18,M,,M,,*67
05/28/2014	18:00:06.687	$GPGGA,180007,2545.3696,N,08000.9452,W,1,10,1.4,18,M,,M,,*6D
05/28/2014	18:00:07.703	$GPGGA,180008,2545.3719,N,08000.9431,W,1,10,1.4,18,M,,M,,*61
05/28/2014	18:00:08.689	$GPGGA,180009,2545.3741,N,08000.9410,W,1,10,1.4,18,M,,M,,*6E
05/28/2014	18:00:09.785	$GPGGA,180010,2545.3765,N,08000.9390,W,1,10,1.4,19,M,,M,,*6E
05/28/2014	18:00:10.690	$GPGGA,180011,2545.3788,N,08000.9369,W,1,10,1.4,19,M,,M,,*6A
05/28/2014	18:00:11.807	$GPGGA,180012,2545.3812,N,08000.9348,W,1,10,1.4,19,M,,M,,*66
05/28/2014	18:00:12.812	$GPGGA,180013,2545.3835,N,08000.9328,W,1,10,1.4,19,M,,M,,*64
05/28/2014	18:00:13.798	$GPGGA,180014,2545.3859,N,08000.9307,W,1,10,1.4,19,M,,M,,*64
05/28/2014	18:00:14.703	$GPGGA,180015,2545.3882,N,08000.9286,W,1,10,1.4,19,M,,M,,*6B
05/28/2014	18:00:15.720	$GPGGA,180016,2545.3904,N,08000.9266,W,1,10,1.4,19,M,,M,,*69
05/28/2014	18:00:16.735	$GPGGA,180017,2545.3928,N,08000.9246,W,1,10,1.4,19,M,,M,,*64
05/28/2014	18:00:17.811	$GPGGA,180018,2545.3951,N,08000.9225,W,1,10,1.4,19,M,,M,,*60
05/28/2014	18:00:18.727	$GPGGA,180019,2545.3972,N,08000.9203,W,1,10,1.4,19,M,,M,,*64
05/28/2014	18:00:19.843	$GPGGA,180020,2545.3997,N,08000.9183,W,1,10,1.4,19,M,,M,,*6E
05/28/2014	18:00:20.904	$GPGGA,180021,2545.4019,N,08000.9163,W,1,10,1.4,19,M,,M,,*69
05/28/2014	18:00:21.823	$GPGGA,180022,2545.4041,N,08000.9141,W,1,10,1.4,19,M,,M,,*67
05/28/2014	18:00:22.849	$GPGGA,180023,2545.4066,N,08000.9121,W,1,10,1.4,19,M,,M,,*65
05/28/2014	18:00:23.855	$GPGGA,180024,2545.4088,N,08000.9101,W,1,10,1.4,19,M,,M,,*60
05/28/2014	18:00:24.851	$GPGGA,180025,2545.4109,N,08000.9079,W,1,10,1.4,19,M,,M,,*67
05/28/2014	18:00:25.846	$GPGGA,180026,2545.4134,N,08000.9058,W,1,10,1.5,19,M,,M,,*68
05/28/2014	18:00:26.862	$GPGGA,180027,2545.4156,N,08000.9038,W,1,10,1.4,19,M,,M,,*6A
05/28/2014	18:00:27.868	$GPGGA,180028,2545.4178,N,08000.9017,W,1,10,1.4,19,M,,M,,*64
05/28/2014	18:00:28.874	$GPGGA,180029,2545.4202,N,08000.8995,W,1,10,1.4,19,M,,M,,*69
05/28/2014	18:00:29.861	$GPGGA,180030,2545.4225,N,08000.8975,W,1,10,1.4,19,M,,M,,*6A
05/28/2014	18:00:30.866	$GPGGA,180031,2545.4249,N,08000.8954,W,1,10,1.4,19,M,,M,,*62
05/28/2014	18:00:31.881	$GPGGA,180032,2545.4271,N,08000.8933,W,1,10,1.4,19,M,,M,,*6B
05/28/2014	18:00:32.897	$GPGGA,180033,2545.4294,N,08000.8911,W,1,10,1.4,18,M,,M,,*60
05/28/2014	18:00:33.883	$GPGGA,180034,2545.4318,N,08000.8892,W,1,10,1.4,18,M,,M,,*68
05/28/2014	18:00:34.878	$GPGGA,180035,2545.4341,N,08000.8871,W,1,9,1.6,18,M,,M,,*52
05/28/2014	18:00:35.904	$GPGGA,180036,2545.4363,N,08000.8850,W,1,9,1.6,18,M,,M,,*52
05/28/2014	18:00:36.910	$GPGGA,180037,2545.4388,N,08000.8829,W,1,10,1.4,18,M,,M,,*62
05/28/2014	18:00:37.891	$GPGGA,180038,2545.4412,N,08000.8809,W,1,10,1.4,18,M,,M,,*6B
05/28/2014	18:00:38.598	$GPGGA,180039,2545.4435,N,08000.8789,W,1,10,1.4,18,M,,M,,*68
05/28/2014	18:00:39.570	$GPGGA,180040,2545.4459,N,08000.8767,W,1,10,1.4,18,M,,M,,*6C
05/28/2014	18:00:40.586	$GPGGA,180041,2545.4482,N,08000.8747,W,1,10,1.4,18,M,,M,,*69
05/28/2014	18:00:41.565	$GPGGA,180042,2545.4506,N,08000.8727,W,1,10,1.4,18,M,,M,,*61
05/28/2014	18:00:42.568	$GPGGA,180043,2545.4529,N,08000.8706,W,1,10,1.4,18,M,,M,,*6E
05/28/2014	18:00:43.587	$GPGGA,180044,2545.4553,N,08000.8686,W,1,10,1.4,18,M,,M,,*6D
05/28/2014	18:00:44.589	$GPGGA,180045,2545.4576,N,08000.8665,W,1,10,1.4,18,M,,M,,*66
05/28/2014	18:00:45.575	$GPGGA,180046,2545.4600,N,08000.8644,W,1,10,1.4,18,M,,M,,*64
05/28/2014	18:00:46.581	$GPGGA,180047,2545.4622,N,08000.8624,W,1,10,1.4,18,M,,M,,*63
05/28/2014	18:00:47.587	$GPGGA,180048,2545.4647,N,08000.8603,W,1,10,1.4,18,M,,M,,*6A
05/28/2014	18:00:48.626	$GPGGA,180049,2545.4669,N,08000.8582,W,1,10,1.4,18,M,,M,,*6D
05/28/2014	18:00:49.589	$GPGGA,180050,2545.4693,N,08000.8561,W,1,10,1.4,18,M,,M,,*6D
05/28/2014	18:00:50.716	$GPGGA,180051,2545.4716,N,08000.8542,W,1,10,1.4,18,M,,M,,*61
05/28/2014	18:00:51.610	$GPGGA,180052,2545.4740,N,08000.8521,W,1,10,1.4,18,M,,M,,*64
05/28/2014	18:00:52.616	$GPGGA,180053,2545.4763,N,08000.8500,W,1,10,1.4,18,M,,M,,*67
05/28/2014	18:00:53.591	$GPGGA,180054,2545.4788,N,08000.8481,W,1,10,1.4,18,M,,M,,*6D
05/28/2014	18:00:54.627	$GPGGA,180055,2545.4810,N,08000.8460,W,1,10,1.4,18,M,,M,,*6D
05/28/2014	18:00:55.644	$GPGGA,180056,2545.4832,N,08000.8439,W,1,10,1.4,18,M,,M,,*62
05/28/2014	18:00:56.628	$GPGGA,180057,2545.4857,N,08000.8420,W,1,10,1.4,18,M,,M,,*68
05/28/2014	18:00:57.624	$GPGGA,180058,2545.4882,N,08000.8400,W,1,10,1.4,18,M,,M,,*6D
05/28/2014	18:00:58.640	$GPGGA,180059,2545.4904,N,08000.8380,W,1,10,1.4,18,M,,M,,*6C
05/28/2014	18:00:59.655	$GPGGA,180100,2545.4928,N,08000.8359,W,1,10,1.4,18,M,,M,,*6B
05/28/2014	18:01:00.651	$GPGGA,180101,2545.4951,N,08000.8339,W,1,9,1.7,18,M,,M,,*59
05/28/2014	18:01:01.717	$GPGGA,180102,2545.4975,N,08000.8319,W,1,9,1.7,18,M,,M,,*5E
05/28/2014	18:01:02.733	$GPGGA,180103,2545.4998,N,08000.8299,W,1,10,1.4,18,M,,M,,*6E
05/28/2014	18:01:03.658	$GPGGA,180104,2545.5023,N,08000.8280,W,1,10,1.4,18,M,,M,,*69
05/28/2014	18:01:04.735	$GPGGA,180105,2545.5047,N,08000.8260,W,1,10,1.4,18,M,,M,,*64
05/28/2014	18:01:05.650	$GPGGA,180106,2545.5070,N,08000.8239,W,1,10,1.4,18,M,,M,,*6F
05/28/2014	18:01:06.657	$GPGGA,180107,2545.5095,N,08000.8221,W,1,9,1.7,18,M,,M,,*57
05/28/2014	18:01:07.752	$GPGGA,180108,2545.5118,N,08000.8201,W,1,9,1.4,18,M,,M,,*5D
05/28/2014	18:01:08.748	$GPGGA,180109,2545.5141,N,08000.8181,W,1,10,1.4,18,M,,M,,*63
05/28/2014	18:01:09.764	$GPGGA,180110,2545.5164,N,08000.8161,W,1,10,1.4,18,M,,M,,*62
05/28/2014	18:01:10.769	$GPGGA,180111,2545.5189,N,08000.8142,W,1,10,1.4,18,M,,M,,*61
05/28/2014	18:01:11.785	$GPGGA,180112,2545.5211,N,08000.8121,W,1,10,1.4,18,M,,M,,*65
05/28/2014	18:01:12.792	$GPGGA,180113,2545.5236,N,08000.8105,W,1,10,1.4,18,M,,M,,*67
05/28/2014	18:01:13.786	$GPGGA,180114,2545.5258,N,08000.8087,W,1,10,2.3,18,M,,M,,*67
05/28/2014	18:01:14.812	$GPGGA,180115,2545.5282,N,08000.8068,W,1,10,1.4,18,M,,M,,*64
05/28/2014	18:01:15.797	$GPGGA,180116,2545.5305,N,08000.8048,W,1,10,1.7,18,M,,M,,*68
05/28/2014	18:01:16.793	$GPGGA,180117,2545.5330,N,08000.8030,W,1,10,1.4,18,M,,M,,*63
05/28/2014	18:01:17.789	$GPGGA,180118,2545.5352,N,08000.8010,W,1,10,1.4,18,M,,M,,*6A
05/28/2014	18:01:18.805	$GPGGA,180119,2545.5376,N,08000.7990,W,1,10,1.4,18,M,,M,,*63
05/28/2014	18:01:19.810	$GPGGA,180120,2545.5401,N,08000.7972,W,1,10,1.7,18,M,,M,,*61
05/28/2014	18:01:20.826	$GPGGA,180121,2545.5424,N,08000.7953,W,1,10,1.4,18,M,,M,,*67
05/28/2014	18:01:21.802	$GPGGA,180122,2545.5448,N,08000.7932,W,1,10,1.4,19,M,,M,,*68
05/28/2014	18:01:22.828	$GPGGA,180123,2545.5471,N,08000.7912,W,1,10,1.4,19,M,,M,,*61
05/28/2014	18:01:23.821	$GPGGA,180124,2545.5495,N,08000.7893,W,1,10,1.4,19,M,,M,,*64
05/28/2014	18:01:24.839	$GPGGA,180125,2545.5518,N,08000.7872,W,1,10,1.4,19,M,,M,,*6E
05/28/2014	18:01:25.815	$GPGGA,180126,2545.5540,N,08000.7852,W,1,10,1.4,19,M,,M,,*62
05/28/2014	18:01:26.855	$GPGGA,180127,2545.5564,N,08000.7832,W,1,10,1.4,19,M,,M,,*63
05/28/2014	18:01:27.906	$GPGGA,180128,2545.5587,N,08000.7812,W,1,10,1.4,19,M,,M,,*63
05/28/2014	18:01:29.011	$GPGGA,180129,2545.5609,N,08000.7791,W,1,10,1.4,19,M,,M,,*63
05/28/2014	18:01:30.041	$GPGGA,180130,2545.5633,N,08000.7771,W,1,10,1.4,19,M,,M,,*6C
05/28/2014	18:01:31.148	$GPGGA,180131,2545.5656,N,08000.7750,W,1,9,1.6,19,M,,M,,*57
05/28/2014	18:01:32.186	$GPGGA,180132,2545.5680,N,08000.7730,W,1,9,1.4,19,M,,M,,*5B
05/28/2014	18:01:33.259	$GPGGA,180133,2545.5703,N,08000.7709,W,1,10,1.4,19,M,,M,,*62
05/28/2014	18:01:34.321	$GPGGA,180134,2545.5724,N,08000.7689,W,1,10,1.4,19,M,,M,,*69
05/28/2014	18:01:35.426	$GPGGA,180135,2545.5749,N,08000.7669,W,1,9,1.6,19,M,,M,,*57
05/28/2014	18:01:36.660	$GPGGA,180136,2545.5771,N,08000.7648,W,1,9,1.4,19,M,,M,,*5E
05/28/2014	18:01:37.529	$GPGGA,180137,2545.5793,N,08000.7627,W,1,10,1.4,19,M,,M,,*62
05/28/2014	18:01:38.613	$GPGGA,180138,2545.5817,N,08000.7607,W,1,10,1.4,19,M,,M,,*6C
05/28/2014	18:01:38.654	$GPGGA,180139,2545.5840,N,08000.7586,W,1,10,1.4,19,M,,M,,*65
05/28/2014	18:01:39.605	$GPGGA,180140,2545.5861,N,08000.7564,W,1,10,1.4,19,M,,M,,*64
05/28/2014	18:01:40.812	$GPGGA,180141,2545.5883,N,08000.7544,W,1,10,1.4,19,M,,M,,*6B
05/28/2014	18:01:41.729	$GPGGA,180142,2545.5909,N,08000.7524,W,1,10,1.4,19,M,,M,,*6D
05/28/2014	18:01:42.963	$GPGGA,180143,2545.5930,N,08000.7502,W,1,10,1.4,19,M,,M,,*62
05/28/2014	18:01:43.886	$GPGGA,180144,2545.5952,N,08000.7481,W,1,10,1.4,19,M,,M,,*6B
05/28/2014	18:01:45.126	$GPGGA,180145,2545.5976,N,08000.7460,W,1,10,1.4,19,M,,M,,*63
05/28/2014	18:01:46.031	$GPGGA,180146,2545.5999,N,08000.7439,W,1,10,1.4,19,M,,M,,*6D
05/28/2014	18:01:47.222	$GPGGA,180147,2545.6021,N,08000.7419,W,1,10,1.4,19,M,,M,,*67
05/28/2014	18:01:48.337	$GPGGA,180148,2545.6045,N,08000.7398,W,1,10,1.4,19,M,,M,,*64
05/28/2014	18:01:49.410	$GPGGA,180149,2545.6067,N,08000.7376,W,1,10,1.4,19,M,,M,,*65
05/28/2014	18:01:50.300	$GPGGA,180150,2545.6089,N,08000.7355,W,1,10,1.4,19,M,,M,,*6C
05/28/2014	18:01:51.502	$GPGGA,180151,2545.6113,N,08000.7335,W,1,10,1.4,19,M,,M,,*69
05/28/2014	18:01:52.447	$GPGGA,180152,2545.6136,N,08000.7314,W,1,10,1.4,19,M,,M,,*6E
05/28/2014	18:01:53.605	$GPGGA,180153,2545.6158,N,08000.7291,W,1,10,1.4,19,M,,M,,*6B
05/28/2014	18:01:54.678	$GPGGA,180154,2545.6180,N,08000.7271,W,1,10,1.4,19,M,,M,,*67
05/28/2014	18:01:55.740	$GPGGA,180155,2545.6203,N,08000.7250,W,1,10,1.4,19,M,,M,,*6D
05/28/2014	18:01:56.824	$GPGGA,180156,2545.6226,N,08000.7228,W,1,10,1.4,19,M,,M,,*66
05/28/2014	18:01:57.981	$GPGGA,180157,2545.6248,N,08000.7207,W,1,10,1.4,19,M,,M,,*62
05/28/2014	18:01:59.037	$GPGGA,180158,2545.6270,N,08000.7186,W,1,10,1.4,19,M,,M,,*6C
05/28/2014	18:02:00.085	$GPGGA,180159,2545.6292,N,08000.7165,W,1,10,1.4,19,M,,M,,*6C
05/28/2014	18:02:01.115	$GPGGA,180200,2545.6313,N,08000.7142,W,1,10,1.4,19,M,,M,,*6E
05/28/2014	18:02:02.242	$GPGGA,180201,2545.6335,N,08000.7120,W,1,9,1.4,19,M,,M,,*57
05/28/2014	18:02:03.315	$GPGGA,180202,2545.6357,N,08000.7098,W,1,9,1.4,19,M,,M,,*52
05/28/2014	18:02:04.334	$GPGGA,180203,2545.6378,N,08000.7076,W,1,10,1.4,19,M,,M,,*66
05/28/2014	18:02:05.474	$GPGGA,180204,2545.6400,N,08000.7054,W,1,10,1.4,19,M,,M,,*69
05/28/2014	18:02:06.501	$GPGGA,180205,2545.6421,N,08000.7032,W,1,10,1.4,19,M,,M,,*6B
05/28/2014	18:02:07.585	$GPGGA,180206,2545.6443,N,08000.7009,W,1,10,1.4,19,M,,M,,*64
05/28/2014	18:02:08.646	$GPGGA,180207,2545.6465,N,08000.6987,W,1,10,1.4,19,M,,M,,*6F
05/28/2014	18:02:09.665	$GPGGA,180208,2545.6485,N,08000.6965,W,1,10,1.4,19,M,,M,,*62
05/28/2014	18:02:10.760	$GPGGA,180209,2545.6505,N,08000.6944,W,1,10,1.4,19,M,,M,,*69
05/28/2014	18:02:11.876	$GPGGA,180210,2545.6526,N,08000.6924,W,1,10,1.4,19,M,,M,,*66
05/28/2014	18:02:12.873	$GPGGA,180211,2545.6547,N,08000.6903,W,1,10,1.4,19,M,,M,,*65
05/28/2014	18:02:14.021	$GPGGA,180212,2545.6566,N,08000.6883,W,1,10,1.4,19,M,,M,,*6C
05/28/2014	18:02:15.008	$GPGGA,180213,2545.6587,N,08000.6865,W,1,10,1.4,19,M,,M,,*6A
05/28/2014	18:02:16.156	$GPGGA,180214,2545.6606,N,08000.6847,W,1,10,1.4,18,M,,M,,*66
05/28/2014	18:02:17.154	$GPGGA,180215,2545.6624,N,08000.6828,W,1,10,1.4,18,M,,M,,*6E
05/28/2014	18:02:18.370	$GPGGA,180216,2545.6642,N,08000.6811,W,1,10,1.4,18,M,,M,,*67
05/28/2014	18:02:19.321	$GPGGA,180217,2545.6660,N,08000.6795,W,1,10,1.4,18,M,,M,,*65
05/28/2014	18:02:20.374	$GPGGA,180218,2545.6678,N,08000.6779,W,1,10,1.4,18,M,,M,,*61
05/28/2014	18:02:21.510	$GPGGA,180219,2545.6695,N,08000.6763,W,1,10,1.4,18,M,,M,,*68
05/28/2014	18:02:22.656	$GPGGA,180220,2545.6713,N,08000.6749,W,1,10,1.4,18,M,,M,,*65
05/28/2014	18:02:23.699	$GPGGA,180221,2545.6729,N,08000.6736,W,1,10,1.4,18,M,,M,,*65
05/28/2014	18:02:24.718	$GPGGA,180222,2545.6746,N,08000.6721,W,1,10,1.4,18,M,,M,,*69
05/28/2014	18:02:25.761	$GPGGA,180223,2545.6761,N,08000.6708,W,1,10,1.4,18,M,,M,,*66
05/28/2014	18:02:26.863	$GPGGA,180224,2545.6779,N,08000.6696,W,1,10,1.4,18,M,,M,,*6E
05/28/2014	18:02:27.903	$GPGGA,180225,2545.6794,N,08000.6684,W,1,10,1.4,18,M,,M,,*6F
05/28/2014	18:02:29.042	$GPGGA,180226,2545.6810,N,08000.6672,W,1,10,1.4,18,M,,M,,*66
05/28/2014	18:02:30.114	$GPGGA,180227,2545.6823,N,08000.6660,W,1,10,1.4,18,M,,M,,*64
05/28/2014	18:02:31.220	$GPGGA,180228,2545.6840,N,08000.6649,W,1,10,1.4,18,M,,M,,*65
05/28/2014	18:02:32.141	$GPGGA,180229,2545.6855,N,08000.6639,W,1,10,1.4,18,M,,M,,*67
05/28/2014	18:02:33.214	$GPGGA,180230,2545.6870,N,08000.6628,W,1,10,1.4,18,M,,M,,*68
05/28/2014	18:02:34.405	$GPGGA,180231,2545.6884,N,08000.6617,W,1,10,1.4,18,M,,M,,*6E
05/28/2014	18:02:35.446	$GPGGA,180232,2545.6898,N,08000.6609,W,1,10,1.4,18,M,,M,,*6F
05/28/2014	18:02:36.572	$GPGGA,180233,2545.6913,N,08000.6600,W,1,10,1.4,18,M,,M,,*65
05/28/2014	18:02:37.602	$GPGGA,180234,2545.6927,N,08000.6590,W,1,10,1.4,18,M,,M,,*6F
05/28/2014	18:02:38.718	$GPGGA,180235,2545.6941,N,08000.6581,W,1,10,1.4,18,M,,M,,*6E
05/28/2014	18:02:39.770	$GPGGA,180236,2545.6956,N,08000.6573,W,1,10,1.4,18,M,,M,,*66
05/28/2014	18:02:40.844	$GPGGA,180237,2545.6971,N,08000.6564,W,1,10,1.4,18,M,,M,,*64
05/28/2014	18:02:41.894	$GPGGA,180238,2545.6982,N,08000.6556,W,1,10,1.4,18,M,,M,,*66
05/28/2014	18:02:38.590	$GPGGA,180239,2545.6996,N,08000.6547,W,1,10,1.4,18,M,,M,,*62
05/28/2014	18:02:39.679	$GPGGA,180240,2545.7011,N,08000.6540,W,1,10,1.4,18,M,,M,,*6C
05/28/2014	18:02:40.772	$GPGGA,180241,2545.7025,N,08000.6533,W,1,10,1.4,18,M,,M,,*6E
05/28/2014	18:02:41.802	$GPGGA,180242,2545.7038,N,08000.6525,W,1,10,1.4,18,M,,M,,*66
05/28/2014	18:02:42.885	$GPGGA,180243,2545.7050,N,08000.6518,W,1,10,1.5,18,M,,M,,*66
05/28/2014	18:02:43.958	$GPGGA,180244,2545.7064,N,08000.6510,W,1,10,1.4,18,M,,M,,*6F
05/28/2014	18:02:45.031	$GPGGA,180245,2545.7076,N,08000.6503,W,1,10,1.4,18,M,,M,,*6F
05/28/2014	18:02:46.075	$GPGGA,180246,2545.7089,N,08000.6497,W,1,10,1.4,18,M,,M,,*60
05/28/2014	18:02:47.166	$GPGGA,180247,2545.7101,N,08000.6490,W,1,10,1.4,18,M,,M,,*67
05/28/2014	18:02:48.239	$GPGGA,180248,2545.7114,N,08000.6483,W,1,10,1.4,17,M,,M,,*61
05/28/2014	18:02:49.301	$GPGGA,180249,2545.7126,N,08000.6477,W,1,10,1.4,17,M,,M,,*6A
05/28/2014	18:02:50.353	$GPGGA,180250,2545.7140,N,08000.6472,W,1,10,1.4,17,M,,M,,*67
05/28/2014	18:02:51.447	$GPGGA,180251,2545.7151,N,08000.6465,W,1,10,1.4,17,M,,M,,*60
05/28/2014	18:02:52.531	$GPGGA,180252,2545.7162,N,08000.6458,W,1,10,1.4,17,M,,M,,*6D
05/28/2014	18:02:53.593	$GPGGA,180253,2545.7177,N,08000.6454,W,1,10,1.4,17,M,,M,,*64
05/28/2014	18:02:54.677	$GPGGA,180254,2545.7190,N,08000.6449,W,1,10,1.4,17,M,,M,,*66
05/28/2014	18:02:55.739	$GPGGA,180255,2545.7201,N,08000.6443,W,1,10,1.4,17,M,,M,,*66
05/28/2014	18:02:56.833	$GPGGA,180256,2545.7211,N,08000.6437,W,1,10,1.4,17,M,,M,,*67
05/28/2014	18:02:57.863	$GPGGA,180257,2545.7226,N,08000.6433,W,1,10,1.4,17,M,,M,,*66
05/28/2014	18:02:58.947	$GPGGA,180258,2545.7238,N,08000.6429,W,1,10,1.4,17,M,,M,,*6D
05/28/2014	18:03:00.029	$GPGGA,180259,2545.7249,N,08000.6423,W,1,10,1.4,17,M,,M,,*60
05/28/2014	18:03:01.124	$GPGGA,180300,2545.7262,N,08000.6419,W,1,10,1.5,17,M,,M,,*6C
05/28/2014	18:03:02.175	$GPGGA,180301,2545.7276,N,08000.6415,W,1,9,1.4,17,M,,M,,*5D
05/28/2014	18:03:03.259	$GPGGA,180302,2545.7276,N,08000.6415,W,1,9,1.4,17,M,,M,,*5E
05/28/2014	18:03:04.291	$GPGGA,180303,2545.7296,N,08000.6406,W,1,10,1.4,17,M,,M,,*6B
05/28/2014	18:03:05.372	$GPGGA,180304,2545.7296,N,08000.6406,W,1,10,1.4,17,M,,M,,*6C
05/28/2014	18:03:06.445	$GPGGA,180305,2545.7323,N,08000.6399,W,1,10,1.4,17,M,,M,,*63
05/28/2014	18:03:07.540	$GPGGA,180306,2545.7334,N,08000.6395,W,1,10,1.4,17,M,,M,,*6A
05/28/2014	18:03:08.582	$GPGGA,180307,2545.7346,N,08000.6392,W,1,10,1.5,17,M,,M,,*68
05/28/2014	18:03:09.707	$GPGGA,180308,2545.7357,N,08000.6389,W,1,10,1.4,16,M,,M,,*6D
05/28/2014	18:03:10.737	$GPGGA,180309,2545.7370,N,08000.6386,W,1,10,1.4,16,M,,M,,*66
05/28/2014	18:03:11.778	$GPGGA,180310,2545.7370,N,08000.6386,W,1,10,1.4,16,M,,M,,*6E
05/28/2014	18:03:12.904	$GPGGA,180311,2545.7392,N,08000.6379,W,1,10,1.4,16,M,,M,,*63
05/28/2014	18:03:14.052	$GPGGA,180312,2545.7404,N,08000.6376,W,1,10,1.4,16,M,,M,,*67
05/28/2014	18:03:15.082	$GPGGA,180313,2545.7415,N,08000.6372,W,1,10,1.4,16,M,,M,,*62
05/28/2014	18:03:16.058	$GPGGA,180314,2545.7415,N,08000.6372,W,1,10,1.4,16,M,,M,,*65
05/28/2014	18:03:17.121	$GPGGA,180315,2545.7439,N,08000.6367,W,1,10,1.4,16,M,,M,,*6E
05/28/2014	18:03:18.238	$GPGGA,180316,2545.7451,N,08000.6364,W,1,10,1.4,16,M,,M,,*60
05/28/2014	18:03:19.287	$GPGGA,180317,2545.7462,N,08000.6362,W,1,10,1.4,16,M,,M,,*67
05/28/2014	18:03:20.349	$GPGGA,180318,2545.7462,N,08000.6362,W,1,10,1.4,16,M,,M,,*68
05/28/2014	18:03:21.551	$GPGGA,180319,2545.7484,N,08000.6356,W,1,10,1.4,16,M,,M,,*66
05/28/2014	18:03:22.496	$GPGGA,180320,2545.7484,N,08000.6356,W,1,10,1.4,16,M,,M,,*6C
05/28/2014	18:03:23.676	$GPGGA,180321,2545.7506,N,08000.6351,W,1,10,1.4,16,M,,M,,*61
05/28/2014	18:03:24.630	$GPGGA,180322,2545.7506,N,08000.6351,W,1,10,1.4,16,M,,M,,*62
05/28/2014	18:03:25.694	$GPGGA,180323,2545.7527,N,08000.6345,W,1,10,1.4,16,M,,M,,*65
05/28/2014	18:03:26.883	$GPGGA,180324,2545.7538,N,08000.6344,W,1,10,1.4,16,M,,M,,*6D
05/28/2014	18:03:27.945	$GPGGA,180325,2545.7549,N,08000.6341,W,1,10,1.4,16,M,,M,,*6F
05/28/2014	18:03:29.007	$GPGGA,180326,2545.7560,N,08000.6338,W,1,10,1.4,16,M,,M,,*69
05/28/2014	18:03:30.069	$GPGGA,180327,2545.7571,N,08000.6336,W,1,10,1.4,16,M,,M,,*66
05/28/2014	18:03:31.164	$GPGGA,180328,2545.7584,N,08000.6334,W,1,10,1.4,16,M,,M,,*61
05/28/2014	18:03:32.217	$GPGGA,180329,2545.7592,N,08000.6331,W,1,10,1.4,16,M,,M,,*62
05/28/2014	18:03:33.300	$GPGGA,180330,2545.7602,N,08000.6328,W,1,10,1.4,16,M,,M,,*68
05/28/2014	18:03:34.383	$GPGGA,180331,2545.7614,N,08000.6326,W,1,10,1.4,16,M,,M,,*60
05/28/2014	18:03:35.445	$GPGGA,180332,2545.7627,N,08000.6325,W,1,10,1.4,16,M,,M,,*60
05/28/2014	18:03:36.527	$GPGGA,180333,2545.7635,N,08000.6322,W,1,10,1.4,16,M,,M,,*65
05/28/2014	18:03:37.571	$GPGGA,180334,2545.7646,N,08000.6319,W,1,10,1.4,16,M,,M,,*6E
05/28/2014	18:03:38.673	$GPGGA,180335,2545.7657,N,08000.6318,W,1,10,1.4,16,M,,M,,*6E
05/28/2014	18:03:39.735	$GPGGA,180336,2545.7668,N,08000.6316,W,1,10,1.4,16,M,,M,,*6F
05/28/2014	18:03:40.808	$GPGGA,180337,2545.7678,N,08000.6313,W,1,10,1.4,16,M,,M,,*6A
05/28/2014	18:03:41.860	$GPGGA,180338,2545.7689,N,08000.6312,W,1,10,1.4,16,M,,M,,*6A
05/28/2014	18:03:38.582	$GPGGA,180339,2545.7699,N,08000.6310,W,1,10,1.4,16,M,,M,,*68
05/28/2014	18:03:39.644	$GPGGA,180340,2545.7708,N,08000.6308,W,1,10,1.4,16,M,,M,,*66
05/28/2014	18:03:40.688	$GPGGA,180341,2545.7719,N,08000.6307,W,1,10,1.4,16,M,,M,,*68
05/28/2014	18:03:41.790	$GPGGA,180342,2545.7730,N,08000.6306,W,1,10,1.4,16,M,,M,,*61
05/28/2014	18:03:42.831	$GPGGA,180343,2545.7740,N,08000.6304,W,1,9,1.5,16,M,,M,,*5C
05/28/2014	18:03:43.925	$GPGGA,180344,2545.7751,N,08000.6302,W,1,9,1.4,16,M,,M,,*5C
05/28/2014	18:03:44.976	$GPGGA,180345,2545.7764,N,08000.6301,W,1,9,1.5,16,M,,M,,*59
05/28/2014	18:03:46.050	$GPGGA,180346,2545.7773,N,08000.6299,W,1,9,1.4,16,M,,M,,*5D
05/28/2014	18:03:47.111	$GPGGA,180347,2545.7783,N,08000.6296,W,1,10,1.4,16,M,,M,,*64
05/28/2014	18:03:48.206	$GPGGA,180348,2545.7794,N,08000.6294,W,1,10,1.4,16,M,,M,,*6F
05/28/2014	18:03:49.279	$GPGGA,180349,2545.7805,N,08000.6294,W,1,10,1.4,16,M,,M,,*69
05/28/2014	18:03:50.427	$GPGGA,180350,2545.7815,N,08000.6291,W,1,10,1.4,15,M,,M,,*66
05/28/2014	18:03:51.413	$GPGGA,180351,2545.7824,N,08000.6289,W,1,10,1.4,15,M,,M,,*6C
05/28/2014	18:03:52.486	$GPGGA,180352,2545.7837,N,08000.6288,W,1,10,1.4,15,M,,M,,*6C
05/28/2014	18:03:53.569	$GPGGA,180353,2545.7847,N,08000.6287,W,1,10,1.4,15,M,,M,,*65
05/28/2014	18:03:54.611	$GPGGA,180354,2545.7856,N,08000.6284,W,1,10,1.5,15,M,,M,,*60
05/28/2014	18:03:55.695	$GPGGA,180355,2545.7867,N,08000.6284,W,1,10,1.4,15,M,,M,,*62
05/28/2014	18:03:56.777	$GPGGA,180356,2545.7877,N,08000.6284,W,1,10,1.4,15,M,,M,,*60
05/28/2014	18:03:57.925	$GPGGA,180357,2545.7885,N,08000.6282,W,1,10,1.4,15,M,,M,,*6A
05/28/2014	18:03:58.891	$GPGGA,180358,2545.7896,N,08000.6280,W,1,10,1.5,15,M,,M,,*64
05/28/2014	18:03:59.975	$GPGGA,180359,2545.7909,N,08000.6278,W,1,10,1.4,15,M,,M,,*64
05/28/2014	18:04:01.176	$GPGGA,180400,2545.7920,N,08000.6277,W,1,10,1.4,15,M,,M,,*6B
05/28/2014	18:04:02.142	$GPGGA,180401,2545.7928,N,08000.6274,W,1,10,1.4,15,M,,M,,*61
05/28/2014	18:04:03.173	$GPGGA,180402,2545.7939,N,08000.6273,W,1,10,1.4,15,M,,M,,*65
05/28/2014	18:04:04.352	$GPGGA,180403,2545.7952,N,08000.6273,W,1,10,1.4,15,M,,M,,*69
05/28/2014	18:04:05.435	$GPGGA,180404,2545.7961,N,08000.6271,W,1,10,1.5,15,M,,M,,*6D
05/28/2014	18:04:06.401	$GPGGA,180405,2545.7972,N,08000.6268,W,1,10,1.4,15,M,,M,,*67
05/28/2014	18:04:07.572	$GPGGA,180406,2545.7985,N,08000.6267,W,1,10,1.4,15,M,,M,,*63
05/28/2014	18:04:08.537	$GPGGA,180407,2545.7997,N,08000.6265,W,1,10,1.4,15,M,,M,,*63
05/28/2014	18:04:09.715	$GPGGA,180408,2545.8008,N,08000.6262,W,1,10,1.4,15,M,,M,,*6B
05/28/2014	18:04:10.767	$GPGGA,180409,2545.8018,N,08000.6258,W,1,10,1.4,15,M,,M,,*62
05/28/2014	18:04:11.861	$GPGGA,180410,2545.8029,N,08000.6256,W,1,10,1.4,15,M,,M,,*66
05/28/2014	18:04:12.923	$GPGGA,180411,2545.8042,N,08000.6254,W,1,10,1.4,15,M,,M,,*68
05/28/2014	18:04:14.007	$GPGGA,180412,2545.8053,N,08000.6250,W,1,10,1.4,15,M,,M,,*6F
05/28/2014	18:04:15.058	$GPGGA,180413,2545.8064,N,08000.6246,W,1,10,1.4,15,M,,M,,*6D
05/28/2014	18:04:16.131	$GPGGA,180414,2545.8076,N,08000.6243,W,1,10,1.4,15,M,,M,,*6C
05/28/2014	18:04:17.227	$GPGGA,180415,2545.8090,N,08000.6240,W,1,10,1.4,15,M,,M,,*66
05/28/2014	18:04:18.298	$GPGGA,180416,2545.8102,N,08000.6236,W,1,10,1.4,15,M,,M,,*6E
05/28/2014	18:04:19.361	$GPGGA,180417,2545.8112,N,08000.6231,W,1,10,1.4,15,M,,M,,*69
05/28/2014	18:04:20.412	$GPGGA,180418,2545.8125,N,08000.6228,W,1,10,1.4,15,M,,M,,*6A
05/28/2014	18:04:21.496	$GPGGA,180419,2545.8138,N,08000.6225,W,1,10,1.4,15,M,,M,,*6A
05/28/2014	18:04:22.558	$GPGGA,180420,2545.8151,N,08000.6220,W,1,10,1.4,15,M,,M,,*6A
05/28/2014	18:04:23.631	$GPGGA,180421,2545.8162,N,08000.6216,W,1,10,1.4,15,M,,M,,*6E
05/28/2014	18:04:24.704	$GPGGA,180422,2545.8174,N,08000.6212,W,1,10,1.4,15,M,,M,,*6E
05/28/2014	18:04:25.798	$GPGGA,180423,2545.8188,N,08000.6209,W,1,10,1.4,15,M,,M,,*66
05/28/2014	18:04:26.849	$GPGGA,180424,2545.8202,N,08000.6205,W,1,10,1.4,15,M,,M,,*6C
05/28/2014	18:04:27.922	$GPGGA,180425,2545.8213,N,08000.6199,W,1,10,1.4,15,M,,M,,*6B
05/28/2014	18:04:28.974	$GPGGA,180426,2545.8227,N,08000.6195,W,1,10,1.4,15,M,,M,,*63
05/28/2014	18:04:30.078	$GPGGA,180427,2545.8241,N,08000.6192,W,1,10,1.4,15,M,,M,,*65
05/28/2014	18:04:31.119	$GPGGA,180428,2545.8253,N,08000.6188,W,1,10,1.4,15,M,,M,,*62
05/28/2014	18:04:32.213	$GPGGA,180429,2545.8264,N,08000.6182,W,1,10,1.4,15,M,,M,,*6D
05/28/2014	18:04:33.265	$GPGGA,180430,2545.8278,N,08000.6178,W,1,10,1.4,15,M,,M,,*6D
05/28/2014	18:04:34.348	$GPGGA,180431,2545.8293,N,08000.6176,W,1,10,1.4,15,M,,M,,*67
05/28/2014	18:04:35.422	$GPGGA,180432,2545.8304,N,08000.6171,W,1,10,1.4,15,M,,M,,*6C
05/28/2014	18:04:36.472	$GPGGA,180433,2545.8315,N,08000.6166,W,1,10,1.4,15,M,,M,,*6B
05/28/2014	18:04:37.546	$GPGGA,180434,2545.8329,N,08000.6162,W,1,10,1.4,15,M,,M,,*67
05/28/2014	18:04:38.640	$GPGGA,180435,2545.8344,N,08000.6158,W,1,10,1.4,15,M,,M,,*64
05/28/2014	18:04:39.712	$GPGGA,180436,2545.8357,N,08000.6153,W,1,10,1.4,15,M,,M,,*6E
05/28/2014	18:04:40.796	$GPGGA,180437,2545.8369,N,08000.6148,W,1,10,1.4,15,M,,M,,*68
05/28/2014	18:04:41.838	$GPGGA,180438,2545.8382,N,08000.6143,W,1,10,1.4,15,M,,M,,*69
05/28/2014	18:04:38.591	$GPGGA,180439,2545.8397,N,08000.6139,W,1,10,1.4,15,M,,M,,*61
05/28/2014	18:04:39.599	$GPGGA,180440,2545.8409,N,08000.6135,W,1,10,1.4,15,M,,M,,*63
05/28/2014	18:04:40.672	$GPGGA,180441,2545.8420,N,08000.6129,W,1,10,1.4,15,M,,M,,*64
05/28/2014	18:04:41.788	$GPGGA,180442,2545.8433,N,08000.6124,W,1,10,1.4,15,M,,M,,*68
05/28/2014	18:04:42.830	$GPGGA,180443,2545.8447,N,08000.6120,W,1,10,1.4,15,M,,M,,*6E
05/28/2014	18:04:43.907	$GPGGA,180444,2545.8459,N,08000.6115,W,1,10,1.4,15,M,,M,,*60
05/28/2014	18:04:44.962	$GPGGA,180445,2545.8472,N,08000.6109,W,1,10,1.4,15,M,,M,,*65
05/28/2014	18:04:46.024	$GPGGA,180446,2545.8484,N,08000.6104,W,1,10,1.4,15,M,,M,,*62
05/28/2014	18:04:47.132	$GPGGA,180447,2545.8497,N,08000.6098,W,1,10,1.4,15,M,,M,,*65
05/28/2014	18:04:48.300	$GPGGA,180448,2545.8509,N,08000.6093,W,1,10,1.4,15,M,,M,,*67
05/28/2014	18:04:49.234	$GPGGA,180449,2545.8521,N,08000.6089,W,1,10,1.4,15,M,,M,,*67
05/28/2014	18:04:50.391	$GPGGA,180450,2545.8535,N,08000.6083,W,1,10,1.4,15,M,,M,,*60
05/28/2014	18:04:51.379	$GPGGA,180451,2545.8546,N,08000.6078,W,1,10,1.4,15,M,,M,,*61
05/28/2014	18:04:52.558	$GPGGA,180452,2545.8559,N,08000.6072,W,1,10,1.4,15,M,,M,,*66
05/28/2014	18:04:53.610	$GPGGA,180453,2545.8571,N,08000.6067,W,1,10,1.4,15,M,,M,,*69
05/28/2014	18:04:54.694	$GPGGA,180454,2545.8584,N,08000.6062,W,1,10,1.4,15,M,,M,,*61
05/28/2014	18:04:55.766	$GPGGA,180455,2545.8596,N,08000.6057,W,1,10,1.4,15,M,,M,,*65
05/28/2014	18:04:56.829	$GPGGA,180456,2545.8607,N,08000.6052,W,1,10,1.4,15,M,,M,,*68
05/28/2014	18:04:57.912	$GPGGA,180457,2545.8617,N,08000.6050,W,1,9,2.0,16,M,,M,,*56
05/28/2014	18:04:58.974	$GPGGA,180458,2545.8629,N,08000.6048,W,1,9,1.4,16,M,,M,,*5A
05/28/2014	18:05:00.047	$GPGGA,180459,2545.8640,N,08000.6043,W,1,10,1.4,16,M,,M,,*67
05/28/2014	18:05:01.131	$GPGGA,180500,2545.8651,N,08000.6039,W,1,10,1.4,16,M,,M,,*67
05/28/2014	18:05:02.204	$GPGGA,180501,2545.8661,N,08000.6034,W,1,10,1.4,16,M,,M,,*68
05/28/2014	18:05:03.265	$GPGGA,180502,2545.8672,N,08000.6030,W,1,10,1.4,16,M,,M,,*6D
05/28/2014	18:05:04.327	$GPGGA,180503,2545.8685,N,08000.6025,W,1,10,1.4,16,M,,M,,*60
05/28/2014	18:05:05.389	$GPGGA,180504,2545.8696,N,08000.6021,W,1,10,1.4,16,M,,M,,*61
05/28/2014	18:05:06.473	$GPGGA,180505,2545.8708,N,08000.6015,W,1,10,1.4,16,M,,M,,*61
05/28/2014	18:05:07.535	$GPGGA,180506,2545.8719,N,08000.6010,W,1,10,1.4,17,M,,M,,*66
05/28/2014	18:05:08.672	$GPGGA,180507,2545.8730,N,08000.6005,W,1,10,1.4,17,M,,M,,*68
05/28/2014	18:05:09.692	$GPGGA,180508,2545.8740,N,08000.6000,W,1,10,1.4,17,M,,M,,*65
05/28/2014	18:05:10.764	$GPGGA,180509,2545.8751,N,08000.5994,W,1,10,1.4,17,M,,M,,*63
05/28/2014	18:05:11.816	$GPGGA,180510,2545.8762,N,08000.5989,W,1,10,1.4,17,M,,M,,*67
05/28/2014	18:05:12.900	$GPGGA,180511,2545.8773,N,08000.5983,W,1,10,1.4,17,M,,M,,*6C
05/28/2014	18:05:13.972	$GPGGA,180512,2545.8783,N,08000.5978,W,1,10,1.4,18,M,,M,,*6B
05/28/2014	18:05:15.056	$GPGGA,180513,2545.8794,N,08000.5973,W,1,10,1.4,18,M,,M,,*67
05/28/2014	18:05:16.086	$GPGGA,180514,2545.8806,N,08000.5967,W,1,10,1.4,18,M,,M,,*61
05/28/2014	18:05:17.202	$GPGGA,180515,2545.8816,N,08000.5961,W,1,9,1.4,18,M,,M,,*5F
05/28/2014	18:05:18.244	$GPGGA,180516,2545.8826,N,08000.5956,W,1,9,1.4,18,M,,M,,*5B
05/28/2014	18:05:19.308	$GPGGA,180517,2545.8837,N,08000.5951,W,1,10,1.4,18,M,,M,,*65
05/28/2014	18:05:20.366	$GPGGA,180518,2545.8848,N,08000.5946,W,1,10,1.4,18,M,,M,,*64
05/28/2014	18:05:21.439	$GPGGA,180519,2545.8857,N,08000.5940,W,1,10,1.4,19,M,,M,,*6C
05/28/2014	18:05:22.544	$GPGGA,180520,2545.8866,N,08000.5934,W,1,10,1.4,19,M,,M,,*67
05/28/2014	18:05:23.612	$GPGGA,180521,2545.8877,N,08000.5928,W,1,10,1.4,19,M,,M,,*6B
05/28/2014	18:05:24.668	$GPGGA,180522,2545.8889,N,08000.5923,W,1,10,1.4,19,M,,M,,*62
05/28/2014	18:05:25.862	$GPGGA,180523,2545.8899,N,08000.5917,W,1,10,1.4,19,M,,M,,*65
05/28/2014	18:05:26.817	$GPGGA,180524,2545.8907,N,08000.5911,W,1,10,1.4,19,M,,M,,*62
05/28/2014	18:05:27.995	$GPGGA,180525,2545.8918,N,08000.5905,W,1,10,1.4,20,M,,M,,*62
05/28/2014	18:05:28.963	$GPGGA,180526,2545.8929,N,08000.5899,W,1,10,1.4,20,M,,M,,*67
05/28/2014	18:05:30.022	$GPGGA,180527,2545.8940,N,08000.5893,W,1,10,1.4,20,M,,M,,*63
05/28/2014	18:05:31.106	$GPGGA,180528,2545.8947,N,08000.5887,W,1,10,1.4,20,M,,M,,*6E
05/28/2014	18:05:32.178	$GPGGA,180529,2545.8958,N,08000.5881,W,1,10,1.4,20,M,,M,,*67
05/28/2014	18:05:33.328	$GPGGA,180530,2545.8969,N,08000.5875,W,1,10,1.4,20,M,,M,,*66
05/28/2014	18:05:34.410	$GPGGA,180531,2545.8979,N,08000.5869,W,1,10,1.4,20,M,,M,,*6B
05/28/2014	18:05:35.388	$GPGGA,180532,2545.8989,N,08000.5862,W,1,10,1.4,20,M,,M,,*6C
05/28/2014	18:05:36.568	$GPGGA,180533,2545.8998,N,08000.5855,W,1,10,1.4,20,M,,M,,*69
05/28/2014	18:05:37.522	$GPGGA,180534,2545.9008,N,08000.5850,W,1,10,1.4,21,M,,M,,*6B
05/28/2014	18:05:38.703	$GPGGA,180535,2545.9019,N,08000.5844,W,1,10,1.4,21,M,,M,,*6F
05/28/2014	18:05:39.774	$GPGGA,180536,2545.9029,N,08000.5838,W,1,10,1.4,21,M,,M,,*64
05/28/2014	18:05:40.718	$GPGGA,180537,2545.9037,N,08000.5831,W,1,10,1.4,21,M,,M,,*63
05/28/2014	18:05:41.898	$GPGGA,180538,2545.9044,N,08000.5826,W,1,10,1.4,21,M,,M,,*6E
05/28/2014	18:05:38.581	$GPGGA,180539,2545.9055,N,08000.5820,W,1,9,2.0,21,M,,M,,*56
05/28/2014	18:05:39.672	$GPGGA,180540,2545.9066,N,08000.5813,W,1,9,1.4,21,M,,M,,*5F
05/28/2014	18:05:40.745	$GPGGA,180541,2545.9073,N,08000.5807,W,1,10,1.4,21,M,,M,,*67
05/28/2014	18:05:41.807	$GPGGA,180542,2545.9083,N,08000.5803,W,1,10,1.4,21,M,,M,,*6F
05/28/2014	18:05:42.901	$GPGGA,180543,2545.9094,N,08000.5792,W,1,9,2.0,21,M,,M,,*50
05/28/2014	18:05:43.964	$GPGGA,180544,2545.9105,N,08000.5784,W,1,9,1.4,21,M,,M,,*5E
05/28/2014	18:05:45.015	$GPGGA,180545,2545.9113,N,08000.5779,W,1,10,1.4,21,M,,M,,*62
05/28/2014	18:05:46.098	$GPGGA,180546,2545.9122,N,08000.5775,W,1,10,1.4,21,M,,M,,*6F
05/28/2014	18:05:47.150	$GPGGA,180547,2545.9130,N,08000.5771,W,1,11,1.4,21,M,,M,,*68
05/28/2014	18:05:48.244	$GPGGA,180548,2545.9138,N,08000.5767,W,1,11,2.0,21,M,,M,,*6F
05/28/2014	18:05:49.285	$GPGGA,180549,2545.9148,N,08000.5764,W,1,10,2.0,21,M,,M,,*6B
05/28/2014	18:05:50.369	$GPGGA,180550,2545.9156,N,08000.5760,W,1,10,1.4,21,M,,M,,*6F
05/28/2014	18:05:51.463	$GPGGA,180551,2545.9164,N,08000.5756,W,1,10,2.0,21,M,,M,,*6D
05/28/2014	18:05:52.525	$GPGGA,180552,2545.9174,N,08000.5751,W,1,10,1.4,21,M,,M,,*6F
05/28/2014	18:05:53.597	$GPGGA,180553,2545.9182,N,08000.5746,W,1,11,1.4,21,M,,M,,*60
05/28/2014	18:05:54.648	$GPGGA,180554,2545.9192,N,08000.5740,W,1,11,1.4,21,M,,M,,*60
05/28/2014	18:05:55.753	$GPGGA,180555,2545.9200,N,08000.5735,W,1,11,1.4,21,M,,M,,*6B
05/28/2014	18:05:56.805	$GPGGA,180556,2545.9210,N,08000.5730,W,1,11,1.4,21,M,,M,,*6C
05/28/2014	18:05:57.878	$GPGGA,180557,2545.9218,N,08000.5726,W,1,11,1.4,21,M,,M,,*62
05/28/2014	18:05:58.929	$GPGGA,180558,2545.9225,N,08000.5721,W,1,11,1.4,21,M,,M,,*64
05/28/2014	18:06:00.024	$GPGGA,180559,2545.9234,N,08000.5716,W,1,11,1.4,21,M,,M,,*61
05/28/2014	18:06:01.139	$GPGGA,180600,2545.9243,N,08000.5711,W,1,11,1.4,21,M,,M,,*69
05/28/2014	18:06:02.180	$GPGGA,180601,2545.9251,N,08000.5705,W,1,11,1.4,21,M,,M,,*6E
05/28/2014	18:06:03.210	$GPGGA,180602,2545.9258,N,08000.5700,W,1,11,1.4,21,M,,M,,*61
05/28/2014	18:06:04.326	$GPGGA,180603,2545.9267,N,08000.5695,W,1,11,1.4,21,M,,M,,*61
05/28/2014	18:06:05.388	$GPGGA,180604,2545.9275,N,08000.5690,W,1,11,1.4,21,M,,M,,*60
05/28/2014	18:06:06.461	$GPGGA,180605,2545.9283,N,08000.5687,W,1,11,1.4,21,M,,M,,*6E
05/28/2014	18:06:07.512	$GPGGA,180606,2545.9289,N,08000.5683,W,1,11,2.0,21,M,,M,,*64
05/28/2014	18:06:08.575	$GPGGA,180607,2545.9296,N,08000.5681,W,1,10,2.0,21,M,,M,,*68
05/28/2014	18:06:09.659	$GPGGA,180608,2545.9304,N,08000.5679,W,1,10,2.0,21,M,,M,,*6A
05/28/2014	18:06:10.710	$GPGGA,180609,2545.9310,N,08000.5678,W,1,10,1.4,21,M,,M,,*68
05/28/2014	18:06:11.795	$GPGGA,180610,2545.9315,N,08000.5676,W,1,10,1.4,21,M,,M,,*6B
05/28/2014	18:06:12.983	$GPGGA,180611,2545.9323,N,08000.5672,W,1,11,1.4,21,M,,M,,*6A
05/28/2014	18:06:13.940	$GPGGA,180612,2545.9332,N,08000.5669,W,1,11,1.4,21,M,,M,,*63
05/28/2014	18:06:14.989	$GPGGA,180613,2545.9339,N,08000.5666,W,1,11,1.4,21,M,,M,,*66
05/28/2014	18:06:16.073	$GPGGA,180614,2545.9346,N,08000.5663,W,1,11,1.4,21,M,,M,,*6C
05/28/2014	18:06:17.157	$GPGGA,180615,2545.9354,N,08000.5660,W,1,11,1.4,21,M,,M,,*6D
05/28/2014	18:06:18.208	$GPGGA,180616,2545.9362,N,08000.5657,W,1,11,1.4,21,M,,M,,*6F
05/28/2014	18:06:19.380	$GPGGA,180617,2545.9370,N,08000.5653,W,1,10,1.7,21,M,,M,,*6B
05/28/2014	18:06:20.343	$GPGGA,180618,2545.9377,N,08000.5649,W,1,10,1.7,21,M,,M,,*68
05/28/2014	18:06:21.556	$GPGGA,180619,2545.9384,N,08000.5647,W,1,10,1.4,21,M,,M,,*68
05/28/2014	18:06:22.500	$GPGGA,180620,2545.9391,N,08000.5645,W,1,10,1.4,21,M,,M,,*64
05/28/2014	18:06:23.712	$GPGGA,180621,2545.9398,N,08000.5644,W,1,10,1.6,21,M,,M,,*6F
05/28/2014	18:06:24.721	$GPGGA,180622,2545.9406,N,08000.5640,W,1,10,2.1,21,M,,M,,*6C
05/28/2014	18:06:25.827	$GPGGA,180623,2545.9413,N,08000.5635,W,1,9,1.6,21,M,,M,,*57
05/28/2014	18:06:26.888	$GPGGA,180624,2545.9422,N,08000.5631,W,1,9,1.4,21,M,,M,,*54
05/28/2014	18:06:27.973	$GPGGA,180625,2545.9430,N,08000.5627,W,1,11,1.4,21,M,,M,,*68
05/28/2014	18:06:29.023	$GPGGA,180626,2545.9438,N,08000.5624,W,1,11,1.4,21,M,,M,,*60
05/28/2014	18:06:30.095	$GPGGA,180627,2545.9445,N,08000.5620,W,1,11,1.4,21,M,,M,,*6F
05/28/2014	18:06:31.112	$GPGGA,180628,2545.9453,N,08000.5617,W,1,11,1.4,22,M,,M,,*60
05/28/2014	18:06:32.150	$GPGGA,180629,2545.9462,N,08000.5614,W,1,11,1.4,22,M,,M,,*60
05/28/2014	18:06:33.157	$GPGGA,180630,2545.9470,N,08000.5612,W,1,11,1.6,22,M,,M,,*6F
05/28/2014	18:06:34.205	$GPGGA,180631,2545.9477,N,08000.5609,W,1,10,1.6,22,M,,M,,*62
05/28/2014	18:06:35.223	$GPGGA,180632,2545.9484,N,08000.5607,W,1,10,1.4,22,M,,M,,*61
05/28/2014	18:06:36.251	$GPGGA,180633,2545.9493,N,08000.5605,W,1,11,1.4,22,M,,M,,*65
05/28/2014	18:06:37.258	$GPGGA,180634,2545.9503,N,08000.5602,W,1,11,1.4,22,M,,M,,*6D
05/28/2014	18:06:38.307	$GPGGA,180635,2545.9510,N,08000.5601,W,1,11,1.9,22,M,,M,,*60
05/28/2014	18:06:39.324	$GPGGA,180636,2545.9517,N,08000.5599,W,1,11,1.6,22,M,,M,,*69
05/28/2014	18:06:40.773	$GPGGA,180637,2545.9525,N,08000.5594,W,1,10,1.4,22,M,,M,,*67
05/28/2014	18:06:41.359	$GPGGA,180638,2545.9532,N,08000.5590,W,1,10,1.4,22,M,,M,,*6A
05/28/2014	18:06:38.581	$GPGGA,180639,2545.9539,N,08000.5587,W,1,11,1.4,22,M,,M,,*67
05/28/2014	18:06:39.602	$GPGGA,180640,2545.9547,N,08000.5583,W,1,11,1.4,22,M,,M,,*64
05/28/2014	18:06:40.630	$GPGGA,180641,2545.9556,N,08000.5579,W,1,11,1.4,22,M,,M,,*60
05/28/2014	18:06:41.647	$GPGGA,180642,2545.9563,N,08000.5576,W,1,11,1.4,22,M,,M,,*6A
05/28/2014	18:06:42.686	$GPGGA,180643,2545.9571,N,08000.5573,W,1,11,1.4,22,M,,M,,*6D
05/28/2014	18:06:43.713	$GPGGA,180644,2545.9579,N,08000.5569,W,1,11,1.4,22,M,,M,,*69
05/28/2014	18:06:44.741	$GPGGA,180645,2545.9586,N,08000.5566,W,1,11,1.4,22,M,,M,,*67
05/28/2014	18:06:45.737	$GPGGA,180646,2545.9594,N,08000.5565,W,1,11,1.3,22,M,,M,,*63
05/28/2014	18:06:46.785	$GPGGA,180647,2545.9601,N,08000.5563,W,1,11,1.3,22,M,,M,,*6B
05/28/2014	18:06:47.813	$GPGGA,180648,2545.9610,N,08000.5561,W,1,11,1.3,22,M,,M,,*66
05/28/2014	18:06:48.814	$GPGGA,180649,2545.9617,N,08000.5558,W,1,11,1.3,22,M,,M,,*6A
05/28/2014	18:06:49.848	$GPGGA,180650,2545.9623,N,08000.5558,W,1,11,1.3,22,M,,M,,*65
05/28/2014	18:06:50.886	$GPGGA,180651,2545.9630,N,08000.5556,W,1,11,1.6,22,M,,M,,*6D
05/28/2014	18:06:51.904	$GPGGA,180652,2545.9639,N,08000.5553,W,1,11,1.3,22,M,,M,,*67
05/28/2014	18:06:52.942	$GPGGA,180653,2545.9647,N,08000.5552,W,1,11,1.3,22,M,,M,,*6E
05/28/2014	18:06:53.959	$GPGGA,180654,2545.9654,N,08000.5551,W,1,11,1.3,22,M,,M,,*68
05/28/2014	18:06:54.960	$GPGGA,180655,2545.9662,N,08000.5551,W,1,11,1.9,22,M,,M,,*66
05/28/2014	18:06:56.025	$GPGGA,180656,2545.9669,N,08000.5551,W,1,11,1.9,22,M,,M,,*6E
05/28/2014	18:06:57.032	$GPGGA,180657,2545.9677,N,08000.5551,W,1,10,1.9,22,M,,M,,*61
05/28/2014	18:06:58.051	$GPGGA,180658,2545.9684,N,08000.5550,W,1,10,1.9,22,M,,M,,*63
05/28/2014	18:06:59.067	$GPGGA,180659,2545.9691,N,08000.5549,W,1,10,1.9,22,M,,M,,*6E
05/28/2014	18:07:00.208	$GPGGA,180700,2545.9698,N,08000.5546,W,1,10,1.3,22,M,,M,,*6F
05/28/2014	18:07:01.236	$GPGGA,180701,2545.9706,N,08000.5544,W,1,11,1.3,22,M,,M,,*6B
05/28/2014	18:07:02.161	$GPGGA,180702,2545.9713,N,08000.5543,W,1,11,1.9,22,M,,M,,*61
05/28/2014	18:07:03.270	$GPGGA,180703,2545.9720,N,08000.5540,W,1,10,1.3,22,M,,M,,*68
05/28/2014	18:07:04.226	$GPGGA,180704,2545.9727,N,08000.5538,W,1,10,1.3,22,M,,M,,*67
05/28/2014	18:07:05.315	$GPGGA,180705,2545.9734,N,08000.5536,W,1,11,1.3,21,M,,M,,*68
05/28/2014	18:07:06.343	$GPGGA,180706,2545.9742,N,08000.5534,W,1,11,1.3,21,M,,M,,*68
05/28/2014	18:07:07.834	$GPGGA,180707,2545.9749,N,08000.5533,W,1,11,1.3,21,M,,M,,*65
05/28/2014	18:07:08.419	$GPGGA,180708,2545.9756,N,08000.5531,W,1,11,1.3,21,M,,M,,*66
05/28/2014	18:07:09.458	$GPGGA,180709,2545.9763,N,08000.5530,W,1,11,1.3,21,M,,M,,*60
05/28/2014	18:07:10.454	$GPGGA,180710,2545.9769,N,08000.5529,W,1,11,1.4,21,M,,M,,*6D
05/28/2014	18:07:11.493	$GPGGA,180711,2545.9776,N,08000.5528,W,1,10,1.3,21,M,,M,,*65
05/28/2014	18:07:12.531	$GPGGA,180712,2545.9784,N,08000.5528,W,1,10,1.3,21,M,,M,,*6B
05/28/2014	18:07:13.558	$GPGGA,180713,2545.9792,N,08000.5526,W,1,10,1.4,21,M,,M,,*64
05/28/2014	18:07:14.555	$GPGGA,180714,2545.9799,N,08000.5527,W,1,10,1.3,21,M,,M,,*6E
05/28/2014	18:07:15.573	$GPGGA,180715,2545.9807,N,08000.5525,W,1,11,1.3,21,M,,M,,*64
05/28/2014	18:07:16.632	$GPGGA,180716,2545.9814,N,08000.5524,W,1,11,1.3,21,M,,M,,*64
05/28/2014	18:07:17.639	$GPGGA,180717,2545.9821,N,08000.5523,W,1,11,1.4,21,M,,M,,*63
05/28/2014	18:07:18.656	$GPGGA,180718,2545.9827,N,08000.5522,W,1,11,1.3,21,M,,M,,*6C
05/28/2014	18:07:19.694	$GPGGA,180719,2545.9834,N,08000.5521,W,1,11,1.3,21,M,,M,,*6C
05/28/2014	18:07:20.713	$GPGGA,180720,2545.9842,N,08000.5521,W,1,11,1.3,21,M,,M,,*67
05/28/2014	18:07:21.749	$GPGGA,180721,2545.9849,N,08000.5521,W,1,11,1.3,21,M,,M,,*6D
05/28/2014	18:07:22.756	$GPGGA,180722,2545.9856,N,08000.5519,W,1,11,1.3,21,M,,M,,*6B
05/28/2014	18:07:23.805	$GPGGA,180723,2545.9863,N,08000.5518,W,1,11,1.3,21,M,,M,,*6D
05/28/2014	18:07:24.822	$GPGGA,180724,2545.9870,N,08000.5518,W,1,11,1.3,21,M,,M,,*68
05/28/2014	18:07:25.860	$GPGGA,180725,2545.9876,N,08000.5518,W,1,11,1.3,21,M,,M,,*6F
05/28/2014	18:07:26.857	$GPGGA,180726,2545.9883,N,08000.5518,W,1,11,1.3,21,M,,M,,*66
05/28/2014	18:07:27.905	$GPGGA,180727,2545.9889,N,08000.5520,W,1,10,1.9,21,M,,M,,*6D
05/28/2014	18:07:28.923	$GPGGA,180728,2545.9897,N,08000.5520,W,1,10,1.9,21,M,,M,,*6D
05/28/2014	18:07:29.971	$GPGGA,180729,2545.9903,N,08000.5521,W,1,11,1.3,21,M,,M,,*6A
05/28/2014	18:07:30.979	$GPGGA,180730,2545.9910,N,08000.5521,W,1,11,1.4,21,M,,M,,*67
05/28/2014	18:07:32.006	$GPGGA,180731,2545.9918,N,08000.5521,W,1,11,1.3,21,M,,M,,*69
05/28/2014	18:07:33.034	$GPGGA,180732,2545.9924,N,08000.5521,W,1,11,1.3,21,M,,M,,*65
05/28/2014	18:07:34.033	$GPGGA,180733,2545.9930,N,08000.5520,W,1,11,1.3,21,M,,M,,*60
05/28/2014	18:07:35.060	$GPGGA,180734,2545.9937,N,08000.5520,W,1,11,1.3,21,M,,M,,*60
05/28/2014	18:07:36.101	$GPGGA,180735,2545.9944,N,08000.5521,W,1,11,1.3,21,M,,M,,*64
05/28/2014	18:07:37.145	$GPGGA,180736,2545.9951,N,08000.5521,W,1,11,1.3,21,M,,M,,*63
05/28/2014	18:07:38.145	$GPGGA,180737,2545.9958,N,08000.5520,W,1,11,1.3,21,M,,M,,*6A
05/28/2014	18:07:39.193	$GPGGA,180738,2545.9964,N,08000.5521,W,1,11,1.3,21,M,,M,,*6B
05/28/2014	18:07:38.656	$GPGGA,180739,2545.9969,N,08000.5521,W,1,11,1.3,21,M,,M,,*67
05/28/2014	18:07:39.570	$GPGGA,180740,2545.9976,N,08000.5521,W,1,11,1.3,21,M,,M,,*67
05/28/2014	18:07:40.610	$GPGGA,180741,2545.9982,N,08000.5520,W,1,11,1.3,21,M,,M,,*6C
05/28/2014	18:07:41.594	$GPGGA,180742,2545.9987,N,08000.5520,W,1,11,1.3,21,M,,M,,*6A
05/28/2014	18:07:42.735	$GPGGA,180743,2545.9993,N,08000.5520,W,1,11,1.3,21,M,,M,,*6E
05/28/2014	18:07:43.681	$GPGGA,180744,2545.9998,N,08000.5518,W,1,11,1.3,21,M,,M,,*69
05/28/2014	18:07:44.699	$GPGGA,180745,2546.0002,N,08000.5517,W,1,10,1.4,21,M,,M,,*61
05/28/2014	18:07:45.705	$GPGGA,180746,2546.0008,N,08000.5516,W,1,10,1.3,21,M,,M,,*6E
05/28/2014	18:07:46.763	$GPGGA,180747,2546.0013,N,08000.5514,W,1,11,1.3,21,M,,M,,*66
05/28/2014	18:07:47.761	$GPGGA,180748,2546.0020,N,08000.5513,W,1,11,1.3,21,M,,M,,*6E
05/28/2014	18:07:48.881	$GPGGA,180749,2546.0024,N,08000.5512,W,1,11,1.3,22,M,,M,,*69
05/28/2014	18:07:49.816	$GPGGA,180750,2546.0030,N,08000.5510,W,1,11,1.3,22,M,,M,,*66
05/28/2014	18:07:50.844	$GPGGA,180751,2546.0036,N,08000.5508,W,1,11,1.3,22,M,,M,,*68
05/28/2014	18:07:51.964	$GPGGA,180752,2546.0041,N,08000.5506,W,1,11,1.3,22,M,,M,,*65
05/28/2014	18:07:52.900	$GPGGA,180753,2546.0045,N,08000.5504,W,1,10,1.4,22,M,,M,,*64
05/28/2014	18:07:54.020	$GPGGA,180754,2546.0049,N,08000.5502,W,1,10,1.4,22,M,,M,,*69
05/28/2014	18:07:55.069	$GPGGA,180755,2546.0053,N,08000.5500,W,1,11,1.3,22,M,,M,,*67
05/28/2014	18:07:56.107	$GPGGA,180756,2546.0060,N,08000.5497,W,1,11,1.3,22,M,,M,,*6B
05/28/2014	18:07:56.989	$GPGGA,180757,2546.0063,N,08000.5495,W,1,11,1.3,22,M,,M,,*6B
05/28/2014	18:07:58.110	$GPGGA,180758,2546.0070,N,08000.5493,W,1,11,1.4,21,M,,M,,*64
05/28/2014	18:07:59.127	$GPGGA,180759,2546.0076,N,08000.5491,W,1,11,1.3,21,M,,M,,*66
05/28/2014	18:08:00.186	$GPGGA,180800,2546.0081,N,08000.5489,W,1,11,1.9,21,M,,M,,*6E
05/28/2014	18:08:01.234	$GPGGA,180801,2546.0085,N,08000.5487,W,1,10,1.9,21,M,,M,,*64
05/28/2014	18:08:02.222	$GPGGA,180802,2546.0091,N,08000.5485,W,1,10,1.4,21,M,,M,,*6D
05/28/2014	18:08:03.259	$GPGGA,180803,2546.0096,N,08000.5482,W,1,11,1.3,21,M,,M,,*6A
05/28/2014	18:08:04.287	$GPGGA,180804,2546.0100,N,08000.5480,W,1,11,1.3,21,M,,M,,*61
05/28/2014	18:08:05.314	$GPGGA,180805,2546.0106,N,08000.5477,W,1,11,1.3,21,M,,M,,*6E
05/28/2014	18:08:06.332	$GPGGA,180806,2546.0112,N,08000.5474,W,1,11,1.3,21,M,,M,,*6B
05/28/2014	18:08:07.380	$GPGGA,180807,2546.0118,N,08000.5471,W,1,11,1.3,21,M,,M,,*65
05/28/2014	18:08:08.388	$GPGGA,180808,2546.0124,N,08000.5467,W,1,11,1.3,21,M,,M,,*62
05/28/2014	18:08:09.427	$GPGGA,180809,2546.0128,N,08000.5463,W,1,10,1.6,21,M,,M,,*6F
05/28/2014	18:08:10.412	$GPGGA,180810,2546.0132,N,08000.5459,W,1,10,1.3,21,M,,M,,*60
05/28/2014	18:08:11.471	$GPGGA,180811,2546.0139,N,08000.5454,W,1,11,1.3,21,M,,M,,*66
05/28/2014	18:08:12.488	$GPGGA,180812,2546.0143,N,08000.5450,W,1,11,1.3,21,M,,M,,*6C
05/28/2014	18:08:13.515	$GPGGA,180813,2546.0150,N,08000.5447,W,1,10,1.9,22,M,,M,,*61
05/28/2014	18:08:14.512	$GPGGA,180814,2546.0156,N,08000.5443,W,1,10,1.9,22,M,,M,,*64
05/28/2014	18:08:15.581	$GPGGA,180815,2546.0164,N,08000.5439,W,1,11,1.3,22,M,,M,,*62
05/28/2014	18:08:16.588	$GPGGA,180816,2546.0171,N,08000.5435,W,1,11,1.6,22,M,,M,,*6C
05/28/2014	18:08:17.598	$GPGGA,180817,2546.0178,N,08000.5432,W,1,10,1.6,22,M,,M,,*62
05/28/2014	18:08:18.634	$GPGGA,180818,2546.0185,N,08000.5428,W,1,10,1.3,22,M,,M,,*61
05/28/2014	18:08:19.661	$GPGGA,180819,2546.0193,N,08000.5425,W,1,11,1.3,22,M,,M,,*6B
05/28/2014	18:08:20.700	$GPGGA,180820,2546.0200,N,08000.5421,W,1,11,1.4,22,M,,M,,*6B
05/28/2014	18:08:21.696	$GPGGA,180821,2546.0207,N,08000.5418,W,1,10,1.4,22,M,,M,,*66
05/28/2014	18:08:22.725	$GPGGA,180822,2546.0212,N,08000.5413,W,1,10,1.9,22,M,,M,,*67
05/28/2014	18:08:25.317	$GPGGA,180824,2546.0226,N,08000.5405,W,1,10,1.3,22,M,,M,,*6B
05/28/2014	18:08:25.820	$GPGGA,180825,2546.0233,N,08000.5400,W,1,11,1.3,22,M,,M,,*6A
05/28/2014	18:08:26.839	$GPGGA,180826,2546.0240,N,08000.5396,W,1,11,1.3,22,M,,M,,*65
05/28/2014	18:08:27.867	$GPGGA,180827,2546.0247,N,08000.5393,W,1,11,1.3,22,M,,M,,*66
05/28/2014	18:08:28.902	$GPGGA,180828,2546.0255,N,08000.5390,W,1,11,1.3,22,M,,M,,*69
05/28/2014	18:08:30.001	$GPGGA,180829,2546.0262,N,08000.5387,W,1,11,1.3,22,M,,M,,*6A
05/28/2014	18:08:30.926	$GPGGA,180830,2546.0269,N,08000.5383,W,1,11,1.3,22,M,,M,,*6D
05/28/2014	18:08:31.973	$GPGGA,180831,2546.0279,N,08000.5380,W,1,11,1.3,22,M,,M,,*6E
05/28/2014	18:08:33.001	$GPGGA,180832,2546.0286,N,08000.5376,W,1,11,1.3,22,M,,M,,*64
05/28/2014	18:08:34.029	$GPGGA,180833,2546.0294,N,08000.5372,W,1,11,1.3,22,M,,M,,*62
05/28/2014	18:08:35.036	$GPGGA,180834,2546.0302,N,08000.5369,W,1,11,1.3,22,M,,M,,*61
05/28/2014	18:08:36.210	$GPGGA,180835,2546.0309,N,08000.5365,W,1,11,1.3,22,M,,M,,*67
05/28/2014	18:08:37.227	$GPGGA,180836,2546.0319,N,08000.5362,W,1,11,1.3,22,M,,M,,*62
05/28/2014	18:08:38.254	$GPGGA,180837,2546.0327,N,08000.5358,W,1,11,1.3,22,M,,M,,*67
05/28/2014	18:08:39.148	$GPGGA,180838,2546.0334,N,08000.5355,W,1,11,1.3,22,M,,M,,*67
05/28/2014	18:08:40.165	$GPGGA,180839,2546.0342,N,08000.5353,W,1,11,1.3,22,M,,M,,*61
05/28/2014	18:08:39.630	$GPGGA,180840,2546.0352,N,08000.5349,W,1,11,1.3,22,M,,M,,*65
05/28/2014	18:08:40.678	$GPGGA,180841,2546.0359,N,08000.5346,W,1,11,1.3,22,M,,M,,*60
05/28/2014	18:08:41.675	$GPGGA,180842,2546.0369,N,08000.5344,W,1,11,1.3,22,M,,M,,*62
05/28/2014	18:08:42.692	$GPGGA,180843,2546.0377,N,08000.5341,W,1,11,1.3,22,M,,M,,*69
05/28/2014	18:08:43.742	$GPGGA,180844,2546.0385,N,08000.5338,W,1,11,1.3,22,M,,M,,*6D
05/28/2014	18:08:44.780	$GPGGA,180845,2546.0395,N,08000.5336,W,1,11,1.3,22,M,,M,,*63
05/28/2014	18:08:45.766	$GPGGA,180846,2546.0402,N,08000.5333,W,1,11,1.3,22,M,,M,,*6C
05/28/2014	18:08:46.804	$GPGGA,180847,2546.0409,N,08000.5328,W,1,10,1.6,22,M,,M,,*68
05/28/2014	18:08:47.841	$GPGGA,180848,2546.0420,N,08000.5327,W,1,10,1.3,22,M,,M,,*66
05/28/2014	18:08:48.869	$GPGGA,180849,2546.0428,N,08000.5325,W,1,11,1.3,22,M,,M,,*6C
05/28/2014	18:08:49.876	$GPGGA,180850,2546.0435,N,08000.5323,W,1,11,1.3,22,M,,M,,*6E
05/28/2014	18:08:50.924	$GPGGA,180851,2546.0445,N,08000.5322,W,1,10,1.9,22,M,,M,,*62
05/28/2014	18:08:51.942	$GPGGA,180852,2546.0453,N,08000.5319,W,1,10,1.9,22,M,,M,,*6E
05/28/2014	18:08:52.980	$GPGGA,180853,2546.0461,N,08000.5315,W,1,10,1.4,22,M,,M,,*6F
05/28/2014	18:08:53.977	$GPGGA,180854,2546.0470,N,08000.5313,W,1,10,1.3,22,M,,M,,*69
05/28/2014	18:08:55.035	$GPGGA,180855,2546.0479,N,08000.5311,W,1,10,1.9,22,M,,M,,*69
05/28/2014	18:08:56.053	$GPGGA,180856,2546.0489,N,08000.5308,W,1,10,1.3,22,M,,M,,*67
05/28/2014	18:08:57.056	$GPGGA,180857,2546.0496,N,08000.5306,W,1,11,1.3,22,M,,M,,*67
05/28/2014	18:08:58.081	$GPGGA,180858,2546.0506,N,08000.5303,W,1,11,1.6,22,M,,M,,*60
05/28/2014	18:08:59.136	$GPGGA,180859,2546.0515,N,08000.5301,W,1,10,1.6,22,M,,M,,*60
05/28/2014	18:09:00.154	$GPGGA,180900,2546.0524,N,08000.5298,W,1,10,1.6,22,M,,M,,*6E
05/28/2014	18:09:01.161	$GPGGA,180901,2546.0532,N,08000.5295,W,1,11,1.3,22,M,,M,,*61
05/28/2014	18:09:02.189	$GPGGA,180902,2546.0540,N,08000.5294,W,1,11,1.3,22,M,,M,,*66
05/28/2014	18:09:03.237	$GPGGA,180903,2546.0549,N,08000.5292,W,1,11,1.3,22,M,,M,,*68
05/28/2014	18:09:04.255	$GPGGA,180904,2546.0557,N,08000.5293,W,1,11,1.9,22,M,,M,,*6B
05/28/2014	18:09:05.294	$GPGGA,180905,2546.0565,N,08000.5290,W,1,11,1.3,22,M,,M,,*62
05/28/2014	18:09:06.299	$GPGGA,180906,2546.0575,N,08000.5289,W,1,11,1.3,22,M,,M,,*68
05/28/2014	18:09:07.306	$GPGGA,180907,2546.0582,N,08000.5293,W,1,10,1.9,22,M,,M,,*61
05/28/2014	18:09:08.355	$GPGGA,180908,2546.0591,N,08000.5291,W,1,10,1.3,22,M,,M,,*64
05/28/2014	18:09:09.362	$GPGGA,180909,2546.0601,N,08000.5290,W,1,11,1.3,22,M,,M,,*6F
05/28/2014	18:09:10.400	$GPGGA,180910,2546.0609,N,08000.5288,W,1,11,1.3,22,M,,M,,*66
05/28/2014	18:09:11.407	$GPGGA,180911,2546.0619,N,08000.5287,W,1,11,1.3,23,M,,M,,*68
05/28/2014	18:09:12.467	$GPGGA,180912,2546.0627,N,08000.5287,W,1,11,1.3,23,M,,M,,*66
05/28/2014	18:09:13.463	$GPGGA,180913,2546.0634,N,08000.5284,W,1,11,1.3,23,M,,M,,*66
05/28/2014	18:09:14.645	$GPGGA,180914,2546.0645,N,08000.5282,W,1,11,1.3,23,M,,M,,*61
05/28/2014	18:09:15.611	$GPGGA,180915,2546.0654,N,08000.5281,W,1,11,1.3,23,M,,M,,*63
05/28/2014	18:09:16.546	$GPGGA,180916,2546.0663,N,08000.5278,W,1,11,1.3,23,M,,M,,*62
05/28/2014	18:09:17.589	$GPGGA,180917,2546.0672,N,08000.5276,W,1,11,1.3,23,M,,M,,*6D
05/28/2014	18:09:18.602	$GPGGA,180918,2546.0681,N,08000.5275,W,1,11,1.3,23,M,,M,,*6D
05/28/2014	18:09:19.641	$GPGGA,180919,2546.0691,N,08000.5273,W,1,11,1.3,23,M,,M,,*6B
05/28/2014	18:09:20.647	$GPGGA,180920,2546.0701,N,08000.5270,W,1,11,1.6,23,M,,M,,*6F
05/28/2014	18:09:21.665	$GPGGA,180921,2546.0710,N,08000.5269,W,1,10,1.6,23,M,,M,,*67
05/28/2014	18:09:22.795	$GPGGA,180922,2546.0717,N,08000.5266,W,1,10,1.6,23,M,,M,,*6C
05/28/2014	18:09:23.904	$GPGGA,180923,2546.0727,N,08000.5263,W,1,11,1.3,24,M,,M,,*68
05/28/2014	18:09:24.892	$GPGGA,180924,2546.0737,N,08000.5261,W,1,11,1.3,24,M,,M,,*6C
05/28/2014	18:09:25.980	$GPGGA,180925,2546.0745,N,08000.5259,W,1,11,1.3,24,M,,M,,*63
05/28/2014	18:09:26.905	$GPGGA,180926,2546.0753,N,08000.5257,W,1,11,1.3,24,M,,M,,*69
05/28/2014	18:09:27.974	$GPGGA,180927,2546.0764,N,08000.5255,W,1,11,1.3,24,M,,M,,*6E
05/28/2014	18:09:29.012	$GPGGA,180928,2546.0775,N,08000.5254,W,1,11,1.3,24,M,,M,,*60
05/28/2014	18:09:30.071	$GPGGA,180929,2546.0782,N,08000.5251,W,1,11,1.3,24,M,,M,,*6C
05/28/2014	18:09:31.027	$GPGGA,180930,2546.0790,N,08000.5249,W,1,11,1.3,24,M,,M,,*6E
05/28/2014	18:09:32.137	$GPGGA,180931,2546.0802,N,08000.5247,W,1,11,1.3,24,M,,M,,*65
05/28/2014	18:09:33.093	$GPGGA,180932,2546.0813,N,08000.5245,W,1,11,1.3,24,M,,M,,*64
05/28/2014	18:09:34.079	$GPGGA,180933,2546.0820,N,08000.5243,W,1,11,1.3,24,M,,M,,*63
05/28/2014	18:09:35.097	$GPGGA,180934,2546.0829,N,08000.5241,W,1,11,1.3,24,M,,M,,*6F
05/28/2014	18:09:36.248	$GPGGA,180935,2546.0839,N,08000.5238,W,1,11,1.3,24,M,,M,,*61
05/28/2014	18:09:37.204	$GPGGA,180936,2546.0849,N,08000.5237,W,1,11,1.3,24,M,,M,,*6A
05/28/2014	18:09:38.294	$GPGGA,180937,2546.0858,N,08000.5235,W,1,11,1.3,24,M,,M,,*69
05/28/2014	18:09:39.240	$GPGGA,180938,2546.0867,N,08000.5233,W,1,11,1.3,24,M,,M,,*6C
05/28/2014	18:09:38.632	$GPGGA,180939,2546.0876,N,08000.5231,W,1,11,1.3,24,M,,M,,*6F
05/28/2014	18:09:39.628	$GPGGA,180940,2546.0886,N,08000.5230,W,1,11,1.3,24,M,,M,,*6F
05/28/2014	18:09:40.737	$GPGGA,180941,2546.0894,N,08000.5228,W,1,11,1.3,24,M,,M,,*64
05/28/2014	18:09:41.641	$GPGGA,180942,2546.0904,N,08000.5226,W,1,11,1.3,24,M,,M,,*61
05/28/2014	18:09:42.752	$GPGGA,180943,2546.0914,N,08000.5224,W,1,11,1.3,24,M,,M,,*63
05/28/2014	18:09:43.698	$GPGGA,180944,2546.0923,N,08000.5223,W,1,11,1.3,24,M,,M,,*67
05/28/2014	18:09:44.838	$GPGGA,180945,2546.0933,N,08000.5221,W,1,11,1.3,24,M,,M,,*65
05/28/2014	18:09:45.742	$GPGGA,180946,2546.0941,N,08000.5219,W,1,11,1.3,23,M,,M,,*6F
05/28/2014	18:09:46.759	$GPGGA,180947,2546.0952,N,08000.5218,W,1,11,1.3,24,M,,M,,*6A
05/28/2014	18:09:47.869	$GPGGA,180948,2546.0962,N,08000.5216,W,1,11,1.3,24,M,,M,,*68
05/28/2014	18:09:48.816	$GPGGA,180949,2546.0972,N,08000.5214,W,1,11,1.3,24,M,,M,,*6A
05/28/2014	18:09:49.843	$GPGGA,180950,2546.0981,N,08000.5213,W,1,11,1.3,24,M,,M,,*69
05/28/2014	18:09:51.015	$GPGGA,180951,2546.0991,N,08000.5212,W,1,11,1.3,24,M,,M,,*68
05/28/2014	18:09:51.940	$GPGGA,180952,2546.1001,N,08000.5210,W,1,11,1.3,24,M,,M,,*68
05/28/2014	18:09:53.048	$GPGGA,180953,2546.1010,N,08000.5208,W,1,11,1.3,24,M,,M,,*60
05/28/2014	18:09:53.985	$GPGGA,180954,2546.1020,N,08000.5207,W,1,11,1.3,23,M,,M,,*6C
05/28/2014	18:09:55.091	$GPGGA,180955,2546.1030,N,08000.5206,W,1,11,1.3,23,M,,M,,*6D
05/28/2014	18:09:56.051	$GPGGA,180956,2546.1039,N,08000.5205,W,1,11,1.3,23,M,,M,,*64
05/28/2014	18:09:57.017	$GPGGA,180957,2546.1049,N,08000.5203,W,1,11,1.3,23,M,,M,,*64
05/28/2014	18:09:58.085	$GPGGA,180958,2546.1059,N,08000.5202,W,1,11,1.4,23,M,,M,,*6C
05/28/2014	18:09:59.154	$GPGGA,180959,2546.1068,N,08000.5201,W,1,10,1.3,23,M,,M,,*6A
05/28/2014	18:10:00.151	$GPGGA,181000,2546.1078,N,08000.5200,W,1,10,1.3,23,M,,M,,*6E
05/28/2014	18:10:01.259	$GPGGA,181001,2546.1089,N,08000.5198,W,1,11,1.3,23,M,,M,,*62
05/28/2014	18:10:02.247	$GPGGA,181002,2546.1099,N,08000.5197,W,1,11,1.3,23,M,,M,,*6F
05/28/2014	18:10:03.265	$GPGGA,181003,2546.1107,N,08000.5196,W,1,11,1.3,23,M,,M,,*69
05/28/2014	18:10:04.252	$GPGGA,181004,2546.1118,N,08000.5195,W,1,11,1.4,23,M,,M,,*64
05/28/2014	18:10:05.341	$GPGGA,181005,2546.1128,N,08000.5193,W,1,10,1.3,23,M,,M,,*66
05/28/2014	18:10:06.307	$GPGGA,181006,2546.1138,N,08000.5192,W,1,10,1.3,23,M,,M,,*65
05/28/2014	18:10:07.274	$GPGGA,181007,2546.1146,N,08000.5191,W,1,11,1.3,23,M,,M,,*6F
05/28/2014	18:10:08.425	$GPGGA,181008,2546.1156,N,08000.5190,W,1,11,1.3,23,M,,M,,*60
05/28/2014	18:10:09.483	$GPGGA,181009,2546.1165,N,08000.5188,W,1,11,1.3,23,M,,M,,*68
05/28/2014	18:10:10.461	$GPGGA,181010,2546.1175,N,08000.5187,W,1,11,1.3,23,M,,M,,*6E
05/28/2014	18:10:11.539	$GPGGA,181011,2546.1183,N,08000.5186,W,1,11,1.3,23,M,,M,,*67
05/28/2014	18:10:12.455	$GPGGA,181012,2546.1193,N,08000.5184,W,1,11,1.3,23,M,,M,,*67
05/28/2014	18:10:13.543	$GPGGA,181013,2546.1203,N,08000.5182,W,1,11,1.3,23,M,,M,,*6A
05/28/2014	18:10:14.561	$GPGGA,181014,2546.1212,N,08000.5181,W,1,11,1.3,23,M,,M,,*6E
05/28/2014	18:10:15.620	$GPGGA,181015,2546.1219,N,08000.5179,W,1,11,1.3,23,M,,M,,*63
05/28/2014	18:10:16.647	$GPGGA,181016,2546.1230,N,08000.5177,W,1,11,1.3,23,M,,M,,*65
05/28/2014	18:10:17.694	$GPGGA,181017,2546.1241,N,08000.5175,W,1,11,1.3,23,M,,M,,*60
05/28/2014	18:10:18.660	$GPGGA,181018,2546.1250,N,08000.5173,W,1,11,1.3,23,M,,M,,*69
05/28/2014	18:10:19.719	$GPGGA,181019,2546.1259,N,08000.5171,W,1,11,1.3,22,M,,M,,*62
05/28/2014	18:10:20.726	$GPGGA,181020,2546.1269,N,08000.5169,W,1,11,1.3,22,M,,M,,*62
05/28/2014	18:10:21.776	$GPGGA,181021,2546.1279,N,08000.5166,W,1,11,1.3,22,M,,M,,*6D
05/28/2014	18:10:22.761	$GPGGA,181022,2546.1288,N,08000.5163,W,1,11,1.3,22,M,,M,,*65
05/28/2014	18:10:23.821	$GPGGA,181023,2546.1295,N,08000.5161,W,1,11,1.4,22,M,,M,,*6D
05/28/2014	18:10:24.837	$GPGGA,181024,2546.1306,N,08000.5159,W,1,11,1.3,22,M,,M,,*6D
05/28/2014	18:10:25.875	$GPGGA,181025,2546.1315,N,08000.5155,W,1,11,1.3,22,M,,M,,*62
05/28/2014	18:10:26.893	$GPGGA,181026,2546.1324,N,08000.5152,W,1,11,1.3,22,M,,M,,*64
05/28/2014	18:10:27.931	$GPGGA,181027,2546.1334,N,08000.5149,W,1,11,1.6,22,M,,M,,*6B
05/28/2014	18:10:28.950	$GPGGA,181028,2546.1342,N,08000.5145,W,1,11,1.3,22,M,,M,,*6C
05/28/2014	18:10:29.987	$GPGGA,181029,2546.1352,N,08000.5141,W,1,11,1.3,22,M,,M,,*68
05/28/2014	18:10:30.963	$GPGGA,181030,2546.1360,N,08000.5137,W,1,11,1.3,22,M,,M,,*60
05/28/2014	18:10:32.054	$GPGGA,181031,2546.1370,N,08000.5133,W,1,11,1.3,22,M,,M,,*64
05/28/2014	18:10:33.039	$GPGGA,181032,2546.1378,N,08000.5129,W,1,11,1.3,22,M,,M,,*64
05/28/2014	18:10:34.153	$GPGGA,181033,2546.1378,N,08000.5129,W,1,11,1.3,22,M,,M,,*65
05/28/2014	18:10:35.077	$GPGGA,181034,2546.1389,N,08000.5125,W,1,11,1.4,22,M,,M,,*67
05/28/2014	18:10:36.152	$GPGGA,181035,2546.1410,N,08000.5116,W,1,11,1.3,22,M,,M,,*66
05/28/2014	18:10:37.149	$GPGGA,181036,2546.1418,N,08000.5115,W,1,11,1.9,22,M,,M,,*64
05/28/2014	18:10:38.198	$GPGGA,181037,2546.1418,N,08000.5115,W,1,10,1.9,22,M,,M,,*64
05/28/2014	18:10:39.175	$GPGGA,181038,2546.1438,N,08000.5109,W,1,10,1.3,22,M,,M,,*6E
05/28/2014	18:10:40.216	$GPGGA,181039,2546.1438,N,08000.5109,W,1,11,1.3,22,M,,M,,*6E
05/28/2014	18:10:39.574	$GPGGA,181040,2546.1454,N,08000.5101,W,1,11,1.3,22,M,,M,,*62
05/28/2014	18:10:40.653	$GPGGA,181041,2546.1465,N,08000.5098,W,1,11,1.3,22,M,,M,,*60
05/28/2014	18:10:41.612	$GPGGA,181042,2546.1474,N,08000.5094,W,1,11,1.3,22,M,,M,,*6F
05/28/2014	18:10:42.651	$GPGGA,181043,2546.1474,N,08000.5094,W,1,11,1.3,22,M,,M,,*6E
05/28/2014	18:10:43.685	$GPGGA,181044,2546.1492,N,08000.5086,W,1,11,1.3,22,M,,M,,*62
05/28/2014	18:10:44.713	$GPGGA,181045,2546.1501,N,08000.5082,W,1,11,1.3,22,M,,M,,*6C
05/28/2014	18:10:45.710	$GPGGA,181046,2546.1510,N,08000.5078,W,1,11,1.4,22,M,,M,,*6D
05/28/2014	18:10:46.861	$GPGGA,181047,2546.1518,N,08000.5074,W,1,11,1.3,22,M,,M,,*6F
05/28/2014	18:10:47.786	$GPGGA,181048,2546.1525,N,08000.5070,W,1,11,1.4,22,M,,M,,*6D
05/28/2014	18:10:48.818	$GPGGA,181049,2546.1534,N,08000.5065,W,1,10,1.4,22,M,,M,,*69
05/28/2014	18:10:49.811	$GPGGA,181050,2546.1541,N,08000.5061,W,1,10,1.3,22,M,,M,,*60
05/28/2014	18:10:50.869	$GPGGA,181051,2546.1541,N,08000.5061,W,1,10,1.4,22,M,,M,,*66
05/28/2014	18:10:51.990	$GPGGA,181052,2546.1557,N,08000.5054,W,1,10,1.9,22,M,,M,,*69
05/28/2014	18:10:53.031	$GPGGA,181053,2546.1557,N,08000.5054,W,1,11,1.3,22,M,,M,,*63
05/28/2014	18:10:54.014	$GPGGA,181054,2546.1572,N,08000.5046,W,1,11,1.6,22,M,,M,,*65
05/28/2014	18:10:55.072	$GPGGA,181055,2546.1580,N,08000.5042,W,1,11,1.3,22,M,,M,,*68
05/28/2014	18:10:55.988	$GPGGA,181056,2546.1587,N,08000.5037,W,1,11,1.3,23,M,,M,,*6F
05/28/2014	18:10:57.119	$GPGGA,181057,2546.1594,N,08000.5033,W,1,10,1.6,23,M,,M,,*6C
05/28/2014	18:10:58.023	$GPGGA,181058,2546.1601,N,08000.5028,W,1,10,1.3,23,M,,M,,*63
05/28/2014	18:10:59.194	$GPGGA,181059,2546.1608,N,08000.5024,W,1,11,1.3,23,M,,M,,*66
05/28/2014	18:11:00.191	$GPGGA,181100,2546.1615,N,08000.5019,W,1,11,1.3,23,M,,M,,*69
05/28/2014	18:11:01.239	$GPGGA,181101,2546.1622,N,08000.5015,W,1,11,1.3,23,M,,M,,*60
05/28/2014	18:11:02.226	$GPGGA,181102,2546.1628,N,08000.5010,W,1,11,1.6,23,M,,M,,*69
05/28/2014	18:11:03.243	$GPGGA,181103,2546.1635,N,08000.5006,W,1,10,1.6,23,M,,M,,*62
05/28/2014	18:11:04.292	$GPGGA,181104,2546.1642,N,08000.5001,W,1,10,1.3,23,M,,M,,*67
05/28/2014	18:11:05.319	$GPGGA,181105,2546.1649,N,08000.4996,W,1,11,1.3,23,M,,M,,*6A
05/28/2014	18:11:06.327	$GPGGA,181106,2546.1653,N,08000.4989,W,1,11,1.6,23,M,,M,,*69
05/28/2014	18:11:07.376	$GPGGA,181107,2546.1660,N,08000.4983,W,1,11,1.3,23,M,,M,,*67
05/28/2014	18:11:08.381	$GPGGA,181108,2546.1666,N,08000.4978,W,1,11,1.3,23,M,,M,,*6A
05/28/2014	18:11:09.430	$GPGGA,181109,2546.1671,N,08000.4971,W,1,11,1.3,23,M,,M,,*64
05/28/2014	18:11:10.427	$GPGGA,181110,2546.1678,N,08000.4965,W,1,11,1.3,24,M,,M,,*67
05/28/2014	18:11:11.485	$GPGGA,181111,2546.1685,N,08000.4959,W,1,10,1.4,24,M,,M,,*6D
05/28/2014	18:11:12.482	$GPGGA,181112,2546.1692,N,08000.4953,W,1,10,1.4,24,M,,M,,*62
05/28/2014	18:11:13.531	$GPGGA,181113,2546.1696,N,08000.4947,W,1,11,1.3,24,M,,M,,*64
05/28/2014	18:11:14.527	$GPGGA,181114,2546.1703,N,08000.4941,W,1,11,1.3,24,M,,M,,*68
05/28/2014	18:11:15.576	$GPGGA,181115,2546.1711,N,08000.4936,W,1,11,1.3,24,M,,M,,*6A
05/28/2014	18:11:16.593	$GPGGA,181116,2546.1716,N,08000.4930,W,1,11,1.3,24,M,,M,,*68
05/28/2014	18:11:17.601	$GPGGA,181117,2546.1721,N,08000.4924,W,1,11,1.3,24,M,,M,,*68
05/28/2014	18:11:18.619	$GPGGA,181118,2546.1729,N,08000.4919,W,1,11,1.3,24,M,,M,,*61
05/28/2014	18:11:19.687	$GPGGA,181119,2546.1735,N,08000.4914,W,1,10,1.4,24,M,,M,,*66
05/28/2014	18:11:20.694	$GPGGA,181120,2546.1740,N,08000.4908,W,1,10,1.3,24,M,,M,,*64
05/28/2014	18:11:21.709	$GPGGA,181121,2546.1747,N,08000.4904,W,1,11,1.3,24,M,,M,,*6F
05/28/2014	18:11:22.740	$GPGGA,181122,2546.1751,N,08000.4898,W,1,11,1.3,24,M,,M,,*6F
05/28/2014	18:11:23.757	$GPGGA,181123,2546.1758,N,08000.4893,W,1,11,1.3,24,M,,M,,*6C
05/28/2014	18:11:24.805	$GPGGA,181124,2546.1763,N,08000.4889,W,1,11,1.3,24,M,,M,,*68
05/28/2014	18:11:25.802	$GPGGA,181125,2546.1768,N,08000.4884,W,1,11,1.3,24,M,,M,,*6F
05/28/2014	18:11:26.839	$GPGGA,181126,2546.1774,N,08000.4879,W,1,11,1.3,24,M,,M,,*63
05/28/2014	18:11:27.864	$GPGGA,181127,2546.1779,N,08000.4876,W,1,11,1.3,24,M,,M,,*60
05/28/2014	18:11:28.885	$GPGGA,181128,2546.1783,N,08000.4871,W,1,11,1.9,24,M,,M,,*67
05/28/2014	18:11:29.889	$GPGGA,181129,2546.1787,N,08000.4867,W,1,10,1.9,24,M,,M,,*64
05/28/2014	18:11:30.902	$GPGGA,181130,2546.1793,N,08000.4863,W,1,10,1.9,24,M,,M,,*6D
05/28/2014	18:11:31.908	$GPGGA,181131,2546.1797,N,08000.4858,W,1,10,1.9,24,M,,M,,*60
05/28/2014	18:11:32.923	$GPGGA,181132,2546.1801,N,08000.4854,W,1,10,1.3,24,M,,M,,*65
05/28/2014	18:11:33.953	$GPGGA,181133,2546.1805,N,08000.4850,W,1,10,1.9,24,M,,M,,*6E
05/28/2014	18:11:34.916	$GPGGA,181134,2546.1810,N,08000.4846,W,1,10,1.9,24,M,,M,,*6A
05/28/2014	18:11:35.958	$GPGGA,181135,2546.1812,N,08000.4844,W,1,10,1.9,24,M,,M,,*6B
05/28/2014	18:11:36.958	$GPGGA,181136,2546.1818,N,08000.4841,W,1,10,1.3,24,M,,M,,*6D
05/28/2014	18:11:38.083	$GPGGA,181137,2546.1821,N,08000.4837,W,1,11,1.3,24,M,,M,,*66
05/28/2014	18:11:39.064	$GPGGA,181138,2546.1826,N,08000.4834,W,1,11,1.3,24,M,,M,,*6D
05/28/2014	18:11:39.983	$GPGGA,181139,2546.1830,N,08000.4829,W,1,11,1.3,24,M,,M,,*67
05/28/2014	18:11:39.647	$GPGGA,181140,2546.1833,N,08000.4824,W,1,11,1.3,24,M,,M,,*67
05/28/2014	18:11:40.618	$GPGGA,181141,2546.1837,N,08000.4820,W,1,11,1.3,24,M,,M,,*66
