Software Version Number: 1	Data File Format Number: 1	Build Version Number: 1	Error Count Since VI Started: 0	Manufacturer: Raytheon	 Model Number: RayMarine 120	 S/N: 	 Cal Date: 	 Wind Direction Offset: 0.00	 Slope (M)1: 0.00	 Offset (B)1: 0.00	 Slope (M)2: 0.00	 Offset (B)2: 0.00	 Slope (M)3: 0.00	 Offset (B)3: 0.00	 Slope (M)4: 0.00	 Offset (B)4: 0.00	 Slope (M)5: 0.00	 Offset (B)5: 0.00	 Slope (M)6: 0.00	 Offset (B)6: 0.00
Computer Date	Computer Time	GGA String
05/31/2014	01:00:00.484	$GPGGA,010001,2530.9019,N,07937.6019,W,1,7,2.0,16,M,,M,,*53
05/31/2014	01:00:01.464	$GPGGA,010002,2530.9051,N,07937.6022,W,1,7,2.0,16,M,,M,,*54
05/31/2014	01:00:02.464	$GPGGA,010003,2530.9081,N,07937.6026,W,1,7,2.0,16,M,,M,,*5C
05/31/2014	01:00:03.584	$GPGGA,010004,2530.9113,N,07937.6030,W,1,7,2.0,16,M,,M,,*56
05/31/2014	01:00:04.444	$GPGGA,010005,2530.9144,N,07937.6033,W,1,7,2.0,16,M,,M,,*56
05/31/2014	01:00:05.454	$GPGGA,010006,2530.9174,N,07937.6035,W,1,7,2.0,16,M,,M,,*50
05/31/2014	01:00:06.444	$GPGGA,010007,2530.9206,N,07937.6040,W,1,7,2.0,16,M,,M,,*55
05/31/2014	01:00:07.474	$GPGGA,010008,2530.9236,N,07937.6044,W,1,7,2.0,15,M,,M,,*5E
05/31/2014	01:00:08.454	$GPGGA,010009,2530.9268,N,07937.6048,W,1,7,2.0,15,M,,M,,*58
05/31/2014	01:00:09.429	$GPGGA,010010,2530.9299,N,07937.6052,W,1,7,2.0,15,M,,M,,*55
05/31/2014	01:00:10.595	$GPGGA,010011,2530.9330,N,07937.6056,W,1,7,2.0,15,M,,M,,*52
05/31/2014	01:00:11.444	$GPGGA,010012,2530.9362,N,07937.6062,W,1,7,2.0,15,M,,M,,*51
05/31/2014	01:00:12.454	$GPGGA,010013,2530.9393,N,07937.6066,W,1,7,2.0,15,M,,M,,*5A
05/31/2014	01:00:13.434	$GPGGA,010014,2530.9424,N,07937.6069,W,1,7,2.0,15,M,,M,,*59
05/31/2014	01:00:14.524	$GPGGA,010015,2530.9455,N,07937.6073,W,1,7,2.0,14,M,,M,,*54
05/31/2014	01:00:15.544	$GPGGA,010016,2530.9485,N,07937.6077,W,1,7,2.0,14,M,,M,,*5E
05/31/2014	01:00:16.524	$GPGGA,010017,2530.9518,N,07937.6081,W,1,7,2.0,14,M,,M,,*53
05/31/2014	01:00:17.534	$GPGGA,010018,2530.9549,N,07937.6085,W,1,7,2.0,14,M,,M,,*5C
05/31/2014	01:00:18.544	$GPGGA,010019,2530.9579,N,07937.6091,W,1,7,2.0,14,M,,M,,*5B
05/31/2014	01:00:19.534	$GPGGA,010020,2530.9611,N,07937.6095,W,1,7,2.0,14,M,,M,,*58
05/31/2014	01:00:20.514	$GPGGA,010021,2530.9643,N,07937.6098,W,1,7,2.0,14,M,,M,,*53
05/31/2014	01:00:21.524	$GPGGA,010022,2530.9673,N,07937.6103,W,1,7,2.0,14,M,,M,,*50
05/31/2014	01:00:22.514	$GPGGA,010023,2530.9705,N,07937.6107,W,1,7,2.0,14,M,,M,,*55
05/31/2014	01:00:23.514	$GPGGA,010024,2530.9737,N,07937.6113,W,1,7,2.0,14,M,,M,,*56
05/31/2014	01:00:24.507	$GPGGA,010025,2530.9767,N,07937.6116,W,1,7,2.0,14,M,,M,,*57
05/31/2014	01:00:25.505	$GPGGA,010026,2530.9799,N,07937.6120,W,1,7,2.0,14,M,,M,,*50
05/31/2014	01:00:26.524	$GPGGA,010027,2530.9831,N,07937.6125,W,1,7,2.0,14,M,,M,,*59
05/31/2014	01:00:27.525	$GPGGA,010028,2530.9861,N,07937.6131,W,1,7,2.6,14,M,,M,,*50
05/31/2014	01:00:28.504	$GPGGA,010029,2530.9892,N,07937.6138,W,1,7,2.0,14,M,,M,,*52
05/31/2014	01:00:29.504	$GPGGA,010030,2530.9922,N,07937.6142,W,1,7,2.0,14,M,,M,,*5D
05/31/2014	01:00:30.514	$GPGGA,010031,2530.9954,N,07937.6146,W,1,7,2.0,14,M,,M,,*59
05/31/2014	01:00:31.504	$GPGGA,010032,2530.9984,N,07937.6152,W,1,7,2.0,14,M,,M,,*52
05/31/2014	01:00:32.506	$GPGGA,010033,2531.0016,N,07937.6156,W,1,7,2.0,14,M,,M,,*5D
05/31/2014	01:00:33.494	$GPGGA,010034,2531.0047,N,07937.6160,W,1,7,2.0,14,M,,M,,*5B
05/31/2014	01:00:34.484	$GPGGA,010035,2531.0078,N,07937.6164,W,1,7,2.0,14,M,,M,,*52
05/31/2014	01:00:35.504	$GPGGA,010036,2531.0110,N,07937.6168,W,1,7,2.0,14,M,,M,,*52
05/31/2014	01:00:36.514	$GPGGA,010037,2531.0141,N,07937.6172,W,1,7,2.0,14,M,,M,,*5C
05/31/2014	01:00:37.504	$GPGGA,010038,2531.0172,N,07937.6176,W,1,7,2.0,14,M,,M,,*57
05/31/2014	01:00:38.494	$GPGGA,010039,2531.0204,N,07937.6179,W,1,7,2.0,14,M,,M,,*5B
05/31/2014	01:00:39.494	$GPGGA,010040,2531.0235,N,07937.6183,W,1,7,2.0,15,M,,M,,*53
05/31/2014	01:00:40.474	$GPGGA,010041,2531.0266,N,07937.6188,W,1,7,2.0,15,M,,M,,*5F
05/31/2014	01:00:41.484	$GPGGA,010042,2531.0297,N,07937.6192,W,1,7,2.0,15,M,,M,,*59
05/31/2014	01:00:42.474	$GPGGA,010043,2531.0329,N,07937.6196,W,1,7,2.0,15,M,,M,,*58
05/31/2014	01:00:43.484	$GPGGA,010044,2531.0359,N,07937.6199,W,1,7,2.0,15,M,,M,,*57
05/31/2014	01:00:44.475	$GPGGA,010045,2531.0392,N,07937.6203,W,1,7,2.0,15,M,,M,,*51
05/31/2014	01:00:45.455	$GPGGA,010046,2531.0424,N,07937.6207,W,1,7,2.0,15,M,,M,,*5C
05/31/2014	01:00:46.474	$GPGGA,010047,2531.0454,N,07937.6211,W,1,7,2.0,15,M,,M,,*5D
05/31/2014	01:00:47.474	$GPGGA,010048,2531.0486,N,07937.6214,W,1,7,2.0,15,M,,M,,*58
05/31/2014	01:00:48.494	$GPGGA,010049,2531.0517,N,07937.6218,W,1,7,2.0,15,M,,M,,*5C
05/31/2014	01:00:49.574	$GPGGA,010050,2531.0549,N,07937.6222,W,1,7,2.0,15,M,,M,,*56
05/31/2014	01:00:50.604	$GPGGA,010051,2531.0580,N,07937.6225,W,1,7,2.0,15,M,,M,,*55
05/31/2014	01:00:51.474	$GPGGA,010052,2531.0609,N,07937.6228,W,1,7,2.0,15,M,,M,,*59
05/31/2014	01:00:52.564	$GPGGA,010053,2531.0641,N,07937.6232,W,1,7,2.6,15,M,,M,,*59
05/31/2014	01:00:53.444	$GPGGA,010054,2531.0674,N,07937.6236,W,1,7,2.6,15,M,,M,,*5C
05/31/2014	01:00:54.454	$GPGGA,010055,2531.0705,N,07937.6239,W,1,7,2.0,15,M,,M,,*53
05/31/2014	01:00:55.454	$GPGGA,010056,2531.0737,N,07937.6244,W,1,7,2.0,15,M,,M,,*5B
05/31/2014	01:00:56.544	$GPGGA,010057,2531.0768,N,07937.6250,W,1,7,2.0,16,M,,M,,*56
05/31/2014	01:00:57.554	$GPGGA,010058,2531.0800,N,07937.6254,W,1,7,2.0,16,M,,M,,*5C
05/31/2014	01:00:58.564	$GPGGA,010059,2531.0832,N,07937.6257,W,1,7,2.0,16,M,,M,,*5F
05/31/2014	01:00:59.574	$GPGGA,010100,2531.0862,N,07937.6261,W,1,7,2.0,16,M,,M,,*52
05/31/2014	01:01:00.574	$GPGGA,010101,2531.0894,N,07937.6265,W,1,7,2.0,16,M,,M,,*5E
05/31/2014	01:01:01.524	$GPGGA,010102,2531.0925,N,07937.6269,W,1,7,2.0,16,M,,M,,*5A
05/31/2014	01:01:02.435	$GPGGA,010103,2531.0956,N,07937.6275,W,1,7,2.0,16,M,,M,,*52
05/31/2014	01:01:03.444	$GPGGA,010104,2531.0987,N,07937.6279,W,1,7,2.0,16,M,,M,,*55
05/31/2014	01:01:04.534	$GPGGA,010105,2531.1019,N,07937.6282,W,1,7,2.0,16,M,,M,,*5F
05/31/2014	01:01:05.424	$GPGGA,010106,2531.1049,N,07937.6286,W,1,7,2.0,16,M,,M,,*5D
05/31/2014	01:01:06.554	$GPGGA,010107,2531.1082,N,07937.6290,W,1,7,2.0,16,M,,M,,*5C
05/31/2014	01:01:07.554	$GPGGA,010108,2531.1113,N,07937.6295,W,1,7,2.0,16,M,,M,,*5F
05/31/2014	01:01:08.534	$GPGGA,010109,2531.1144,N,07937.6300,W,1,7,2.0,16,M,,M,,*51
05/31/2014	01:01:09.534	$GPGGA,010110,2531.1176,N,07937.6304,W,1,7,2.0,17,M,,M,,*5D
05/31/2014	01:01:10.594	$GPGGA,010111,2531.1208,N,07937.6308,W,1,7,2.0,17,M,,M,,*5A
05/31/2014	01:01:11.524	$GPGGA,010112,2531.1238,N,07937.6312,W,1,7,2.0,17,M,,M,,*51
05/31/2014	01:01:12.534	$GPGGA,010113,2531.1270,N,07937.6316,W,1,7,2.0,17,M,,M,,*58
05/31/2014	01:01:13.514	$GPGGA,010114,2531.1302,N,07937.6320,W,1,7,2.0,17,M,,M,,*5E
05/31/2014	01:01:14.524	$GPGGA,010115,2531.1334,N,07937.6326,W,1,7,2.0,17,M,,M,,*5C
05/31/2014	01:01:15.524	$GPGGA,010116,2531.1364,N,07937.6330,W,1,7,2.0,17,M,,M,,*5D
05/31/2014	01:01:16.494	$GPGGA,010117,2531.1396,N,07937.6334,W,1,7,2.0,17,M,,M,,*55
05/31/2014	01:01:17.504	$GPGGA,010118,2531.1428,N,07937.6338,W,1,7,2.0,17,M,,M,,*54
05/31/2014	01:01:18.524	$GPGGA,010119,2531.1458,N,07937.6344,W,1,7,2.0,17,M,,M,,*59
05/31/2014	01:01:19.514	$GPGGA,010120,2531.1490,N,07937.6348,W,1,7,2.0,17,M,,M,,*5B
05/31/2014	01:01:20.585	$GPGGA,010121,2531.1522,N,07937.6352,W,1,7,2.0,17,M,,M,,*59
05/31/2014	01:01:21.494	$GPGGA,010122,2531.1552,N,07937.6358,W,1,7,2.0,17,M,,M,,*57
05/31/2014	01:01:22.494	$GPGGA,010123,2531.1584,N,07937.6362,W,1,7,2.0,17,M,,M,,*54
05/31/2014	01:01:23.504	$GPGGA,010124,2531.1616,N,07937.6366,W,1,7,2.0,17,M,,M,,*5F
05/31/2014	01:01:24.484	$GPGGA,010125,2531.1648,N,07937.6371,W,1,7,2.0,17,M,,M,,*53
05/31/2014	01:01:25.480	$GPGGA,010126,2531.1680,N,07937.6376,W,1,7,2.0,17,M,,M,,*53
05/31/2014	01:01:26.500	$GPGGA,010127,2531.1710,N,07937.6380,W,1,7,2.0,17,M,,M,,*53
05/31/2014	01:01:27.480	$GPGGA,010128,2531.1742,N,07937.6384,W,1,7,2.0,17,M,,M,,*5F
05/31/2014	01:01:28.460	$GPGGA,010129,2531.1772,N,07937.6388,W,1,7,2.0,17,M,,M,,*51
05/31/2014	01:01:29.470	$GPGGA,010130,2531.1804,N,07937.6392,W,1,7,2.0,17,M,,M,,*5C
05/31/2014	01:01:30.500	$GPGGA,010131,2531.1834,N,07937.6396,W,1,7,2.0,17,M,,M,,*5A
05/31/2014	01:01:31.480	$GPGGA,010132,2531.1866,N,07937.6400,W,1,7,2.0,17,M,,M,,*56
05/31/2014	01:01:32.490	$GPGGA,010133,2531.1898,N,07937.6405,W,1,7,2.0,17,M,,M,,*53
05/31/2014	01:01:33.460	$GPGGA,010134,2531.1930,N,07937.6409,W,1,7,2.0,17,M,,M,,*5B
05/31/2014	01:01:34.471	$GPGGA,010135,2531.1962,N,07937.6412,W,1,7,2.0,17,M,,M,,*57
05/31/2014	01:01:35.470	$GPGGA,010136,2531.1993,N,07937.6416,W,1,7,2.0,17,M,,M,,*5E
05/31/2014	01:01:36.440	$GPGGA,010137,2531.2025,N,07937.6420,W,1,7,2.0,17,M,,M,,*5D
05/31/2014	01:01:37.460	$GPGGA,010138,2531.2057,N,07937.6423,W,1,7,2.0,17,M,,M,,*54
05/31/2014	01:01:38.499	$GPGGA,010139,2531.2087,N,07937.6425,W,1,7,2.0,17,M,,M,,*5E
05/31/2014	01:01:39.449	$GPGGA,010140,2531.2119,N,07937.6430,W,1,7,2.0,17,M,,M,,*52
05/31/2014	01:01:40.469	$GPGGA,010141,2531.2151,N,07937.6432,W,1,7,2.0,17,M,,M,,*5D
05/31/2014	01:01:41.529	$GPGGA,010142,2531.2183,N,07937.6436,W,1,7,2.0,17,M,,M,,*55
05/31/2014	01:01:42.450	$GPGGA,010143,2531.2215,N,07937.6441,W,1,7,2.0,17,M,,M,,*58
05/31/2014	01:01:43.450	$GPGGA,010144,2531.2245,N,07937.6445,W,1,7,2.0,17,M,,M,,*5E
05/31/2014	01:01:44.460	$GPGGA,010145,2531.2278,N,07937.6447,W,1,7,2.0,17,M,,M,,*53
05/31/2014	01:01:45.520	$GPGGA,010146,2531.2310,N,07937.6450,W,1,7,2.0,17,M,,M,,*59
05/31/2014	01:01:46.520	$GPGGA,010147,2531.2342,N,07937.6454,W,1,7,2.0,17,M,,M,,*5B
05/31/2014	01:01:47.530	$GPGGA,010148,2531.2372,N,07937.6459,W,1,7,2.0,17,M,,M,,*5A
05/31/2014	01:01:48.450	$GPGGA,010149,2531.2404,N,07937.6461,W,1,7,2.0,17,M,,M,,*56
05/31/2014	01:01:49.420	$GPGGA,010150,2531.2436,N,07937.6465,W,1,7,2.0,17,M,,M,,*5B
05/31/2014	01:01:50.430	$GPGGA,010151,2531.2468,N,07937.6468,W,1,7,2.0,17,M,,M,,*5C
05/31/2014	01:01:51.451	$GPGGA,010152,2531.2498,N,07937.6471,W,1,7,2.0,17,M,,M,,*58
05/31/2014	01:01:52.520	$GPGGA,010153,2531.2531,N,07937.6474,W,1,7,2.0,17,M,,M,,*5E
05/31/2014	01:01:53.420	$GPGGA,010154,2531.2563,N,07937.6478,W,1,7,2.0,17,M,,M,,*52
05/31/2014	01:01:54.541	$GPGGA,010155,2531.2594,N,07937.6481,W,1,7,2.0,17,M,,M,,*5D
05/31/2014	01:01:55.530	$GPGGA,010156,2531.2625,N,07937.6485,W,1,7,2.0,17,M,,M,,*53
05/31/2014	01:01:56.519	$GPGGA,010157,2531.2657,N,07937.6488,W,1,7,2.0,17,M,,M,,*5A
05/31/2014	01:01:57.499	$GPGGA,010158,2531.2689,N,07937.6492,W,1,7,2.0,17,M,,M,,*5D
05/31/2014	01:01:58.529	$GPGGA,010159,2531.2719,N,07937.6496,W,1,7,2.0,16,M,,M,,*51
05/31/2014	01:01:59.529	$GPGGA,010200,2531.2751,N,07937.6499,W,1,7,2.0,16,M,,M,,*5D
05/31/2014	01:02:00.530	$GPGGA,010201,2531.2783,N,07937.6504,W,1,7,2.0,16,M,,M,,*56
05/31/2014	01:02:01.500	$GPGGA,010202,2531.2813,N,07937.6507,W,1,7,2.0,16,M,,M,,*50
05/31/2014	01:02:02.510	$GPGGA,010203,2531.2845,N,07937.6510,W,1,7,2.0,16,M,,M,,*54
05/31/2014	01:02:03.500	$GPGGA,010204,2531.2877,N,07937.6514,W,1,7,2.0,16,M,,M,,*56
05/31/2014	01:02:04.480	$GPGGA,010205,2531.2907,N,07937.6517,W,1,7,2.0,16,M,,M,,*52
05/31/2014	01:02:05.500	$GPGGA,010206,2531.2939,N,07937.6521,W,1,7,2.0,16,M,,M,,*59
05/31/2014	01:02:06.500	$GPGGA,010207,2531.2971,N,07937.6525,W,1,7,2.0,16,M,,M,,*50
05/31/2014	01:02:07.500	$GPGGA,010208,2531.3001,N,07937.6529,W,1,7,2.0,16,M,,M,,*5C
05/31/2014	01:02:08.500	$GPGGA,010209,2531.3033,N,07937.6533,W,1,7,2.0,16,M,,M,,*57
05/31/2014	01:02:09.480	$GPGGA,010210,2531.3065,N,07937.6537,W,1,7,2.0,16,M,,M,,*58
05/31/2014	01:02:10.500	$GPGGA,010211,2531.3097,N,07937.6542,W,1,7,2.0,16,M,,M,,*56
05/31/2014	01:02:11.490	$GPGGA,010212,2531.3127,N,07937.6546,W,1,7,2.0,15,M,,M,,*58
05/31/2014	01:02:12.470	$GPGGA,010213,2531.3159,N,07937.6550,W,1,7,2.0,15,M,,M,,*57
05/31/2014	01:02:13.479	$GPGGA,010214,2531.3191,N,07937.6553,W,1,7,2.0,15,M,,M,,*57
05/31/2014	01:02:14.489	$GPGGA,010215,2531.3221,N,07937.6557,W,1,7,2.0,15,M,,M,,*5A
05/31/2014	01:02:15.489	$GPGGA,010216,2531.3255,N,07937.6561,W,1,7,2.0,15,M,,M,,*5F
05/31/2014	01:02:16.459	$GPGGA,010217,2531.3286,N,07937.6566,W,1,6,2.6,15,M,,M,,*50
05/31/2014	01:02:17.460	$GPGGA,010218,2531.3318,N,07937.6572,W,1,6,2.0,15,M,,M,,*5A
05/31/2014	01:02:18.470	$GPGGA,010219,2531.3349,N,07937.6576,W,1,7,2.0,15,M,,M,,*5A
05/31/2014	01:02:19.480	$GPGGA,010220,2531.3380,N,07937.6582,W,1,7,2.0,15,M,,M,,*5E
05/31/2014	01:02:20.450	$GPGGA,010221,2531.3411,N,07937.6587,W,1,7,2.0,15,M,,M,,*55
05/31/2014	01:02:21.460	$GPGGA,010222,2531.3441,N,07937.6593,W,1,7,2.0,15,M,,M,,*56
05/31/2014	01:02:22.450	$GPGGA,010223,2531.3472,N,07937.6597,W,1,7,2.0,15,M,,M,,*53
05/31/2014	01:02:23.470	$GPGGA,010224,2531.3503,N,07937.6601,W,1,7,2.0,15,M,,M,,*5F
05/31/2014	01:02:24.470	$GPGGA,010225,2531.3535,N,07937.6607,W,1,7,2.0,15,M,,M,,*5D
05/31/2014	01:02:25.440	$GPGGA,010226,2531.3567,N,07937.6611,W,1,7,2.0,15,M,,M,,*5E
05/31/2014	01:02:26.440	$GPGGA,010227,2531.3597,N,07937.6615,W,1,7,2.0,15,M,,M,,*54
05/31/2014	01:02:27.460	$GPGGA,010228,2531.3629,N,07937.6620,W,1,7,2.0,15,M,,M,,*5B
05/31/2014	01:02:28.550	$GPGGA,010229,2531.3661,N,07937.6624,W,1,7,2.0,15,M,,M,,*52
05/31/2014	01:02:29.450	$GPGGA,010230,2531.3691,N,07937.6629,W,1,7,2.0,16,M,,M,,*5B
05/31/2014	01:02:30.571	$GPGGA,010231,2531.3723,N,07937.6633,W,1,7,2.0,16,M,,M,,*59
05/31/2014	01:02:31.559	$GPGGA,010232,2531.3754,N,07937.6638,W,1,7,2.0,16,M,,M,,*51
05/31/2014	01:02:32.549	$GPGGA,010233,2531.3784,N,07937.6644,W,1,7,2.0,16,M,,M,,*56
05/31/2014	01:02:33.539	$GPGGA,010234,2531.3816,N,07937.6647,W,1,7,2.0,16,M,,M,,*56
05/31/2014	01:02:34.440	$GPGGA,010235,2531.3846,N,07937.6651,W,1,7,2.0,16,M,,M,,*55
05/31/2014	01:02:35.450	$GPGGA,010236,2531.3878,N,07937.6656,W,1,7,2.0,16,M,,M,,*5C
05/31/2014	01:02:36.520	$GPGGA,010237,2531.3911,N,07937.6662,W,1,7,2.0,16,M,,M,,*54
05/31/2014	01:02:37.410	$GPGGA,010238,2531.3943,N,07937.6665,W,1,7,2.0,16,M,,M,,*5B
05/31/2014	01:02:38.550	$GPGGA,010239,2531.3974,N,07937.6669,W,1,7,2.0,17,M,,M,,*53
05/31/2014	01:02:39.530	$GPGGA,010240,2531.4005,N,07937.6673,W,1,7,2.0,17,M,,M,,*5E
05/31/2014	01:02:40.420	$GPGGA,010241,2531.4036,N,07937.6676,W,1,7,2.0,17,M,,M,,*5A
05/31/2014	01:02:41.520	$GPGGA,010242,2531.4068,N,07937.6680,W,1,7,2.0,17,M,,M,,*5B
05/31/2014	01:02:42.510	$GPGGA,010243,2531.4099,N,07937.6684,W,1,7,2.0,17,M,,M,,*50
05/31/2014	01:02:43.520	$GPGGA,010244,2531.4130,N,07937.6687,W,1,7,2.0,17,M,,M,,*56
05/31/2014	01:02:44.540	$GPGGA,010245,2531.4160,N,07937.6691,W,1,7,2.0,17,M,,M,,*55
05/31/2014	01:02:45.500	$GPGGA,010246,2531.4193,N,07937.6694,W,1,7,2.0,17,M,,M,,*5F
05/31/2014	01:02:46.500	$GPGGA,010247,2531.4224,N,07937.6698,W,1,7,2.0,17,M,,M,,*5D
05/31/2014	01:02:47.510	$GPGGA,010248,2531.4256,N,07937.6702,W,1,7,2.0,17,M,,M,,*55
05/31/2014	01:02:48.509	$GPGGA,010249,2531.4287,N,07937.6705,W,1,7,2.0,17,M,,M,,*5F
05/31/2014	01:02:49.499	$GPGGA,010250,2531.4319,N,07937.6709,W,1,7,2.0,17,M,,M,,*5D
05/31/2014	01:02:50.539	$GPGGA,010251,2531.4351,N,07937.6713,W,1,7,2.0,17,M,,M,,*5B
05/31/2014	01:02:51.499	$GPGGA,010252,2531.4381,N,07937.6716,W,1,7,2.0,17,M,,M,,*50
05/31/2014	01:02:52.480	$GPGGA,010253,2531.4413,N,07937.6720,W,1,7,2.0,17,M,,M,,*58
05/31/2014	01:02:53.490	$GPGGA,010254,2531.4444,N,07937.6724,W,1,7,2.0,17,M,,M,,*59
05/31/2014	01:02:54.500	$GPGGA,010255,2531.4474,N,07937.6727,W,1,7,2.0,17,M,,M,,*58
05/31/2014	01:02:55.500	$GPGGA,010256,2531.4507,N,07937.6730,W,1,7,2.0,17,M,,M,,*58
05/31/2014	01:02:56.480	$GPGGA,010257,2531.4539,N,07937.6734,W,1,7,2.0,17,M,,M,,*50
05/31/2014	01:02:57.490	$GPGGA,010258,2531.4570,N,07937.6738,W,1,7,2.0,17,M,,M,,*5E
05/31/2014	01:02:58.480	$GPGGA,010259,2531.4601,N,07937.6741,W,1,7,2.0,17,M,,M,,*54
05/31/2014	01:02:59.490	$GPGGA,010300,2531.4635,N,07937.6743,W,1,7,2.0,17,M,,M,,*5C
05/31/2014	01:03:00.480	$GPGGA,010301,2531.4666,N,07937.6748,W,1,7,2.0,17,M,,M,,*50
05/31/2014	01:03:01.460	$GPGGA,010302,2531.4698,N,07937.6750,W,1,7,2.0,17,M,,M,,*5B
05/31/2014	01:03:02.500	$GPGGA,010303,2531.4731,N,07937.6753,W,1,7,2.0,17,M,,M,,*5B
05/31/2014	01:03:03.480	$GPGGA,010304,2531.4763,N,07937.6759,W,1,7,2.0,17,M,,M,,*51
05/31/2014	01:03:04.490	$GPGGA,010305,2531.4792,N,07937.6759,W,1,7,2.0,17,M,,M,,*5E
05/31/2014	01:03:05.451	$GPGGA,010306,2531.4821,N,07937.6759,W,1,7,2.5,17,M,,M,,*5F
05/31/2014	01:03:06.469	$GPGGA,010307,2531.4852,N,07937.6763,W,1,7,2.0,17,M,,M,,*56
05/31/2014	01:03:07.469	$GPGGA,010308,2531.4883,N,07937.6767,W,1,7,2.0,17,M,,M,,*51
05/31/2014	01:03:08.490	$GPGGA,010309,2531.4915,N,07937.6770,W,1,7,2.0,17,M,,M,,*58
05/31/2014	01:03:09.449	$GPGGA,010310,2531.4947,N,07937.6772,W,1,7,2.0,17,M,,M,,*55
05/31/2014	01:03:10.480	$GPGGA,010311,2531.4979,N,07937.6777,W,1,7,2.0,17,M,,M,,*5C
05/31/2014	01:03:11.470	$GPGGA,010312,2531.5011,N,07937.6779,W,1,7,2.0,18,M,,M,,*58
05/31/2014	01:03:12.460	$GPGGA,010313,2531.5042,N,07937.6783,W,1,7,2.0,18,M,,M,,*5A
05/31/2014	01:03:13.460	$GPGGA,010314,2531.5074,N,07937.6786,W,1,7,2.0,18,M,,M,,*5D
05/31/2014	01:03:14.460	$GPGGA,010315,2531.5106,N,07937.6789,W,1,7,2.0,18,M,,M,,*57
05/31/2014	01:03:15.480	$GPGGA,010316,2531.5138,N,07937.6792,W,1,7,2.0,18,M,,M,,*53
05/31/2014	01:03:16.460	$GPGGA,010317,2531.5168,N,07937.6796,W,1,7,2.0,18,M,,M,,*53
05/31/2014	01:03:17.450	$GPGGA,010318,2531.5200,N,07937.6800,W,1,7,2.0,18,M,,M,,*51
05/31/2014	01:03:18.430	$GPGGA,010319,2531.5232,N,07937.6803,W,1,7,2.0,18,M,,M,,*52
05/31/2014	01:03:19.460	$GPGGA,010320,2531.5264,N,07937.6807,W,1,7,2.0,18,M,,M,,*5F
05/31/2014	01:03:20.460	$GPGGA,010321,2531.5294,N,07937.6810,W,1,7,2.0,18,M,,M,,*57
05/31/2014	01:03:21.420	$GPGGA,010322,2531.5327,N,07937.6814,W,1,7,2.0,18,M,,M,,*59
05/31/2014	01:03:22.520	$GPGGA,010323,2531.5358,N,07937.6817,W,1,7,2.0,18,M,,M,,*53
05/31/2014	01:03:23.429	$GPGGA,010324,2531.5389,N,07937.6821,W,1,7,2.0,18,M,,M,,*5D
05/31/2014	01:03:24.419	$GPGGA,010325,2531.5420,N,07937.6825,W,1,7,2.0,18,M,,M,,*5C
05/31/2014	01:03:25.519	$GPGGA,010326,2531.5452,N,07937.6828,W,1,7,2.0,18,M,,M,,*57
05/31/2014	01:03:26.519	$GPGGA,010327,2531.5482,N,07937.6832,W,1,7,2.0,18,M,,M,,*50
05/31/2014	01:03:27.430	$GPGGA,010328,2531.5514,N,07937.6835,W,1,7,2.0,18,M,,M,,*56
05/31/2014	01:03:28.550	$GPGGA,010329,2531.5544,N,07937.6839,W,1,7,2.0,18,M,,M,,*5E
05/31/2014	01:03:29.410	$GPGGA,010330,2531.5576,N,07937.6844,W,1,7,2.0,18,M,,M,,*5D
05/31/2014	01:03:30.510	$GPGGA,010331,2531.5608,N,07937.6848,W,1,7,2.0,18,M,,M,,*5A
05/31/2014	01:03:31.510	$GPGGA,010332,2531.5638,N,07937.6853,W,1,7,2.0,18,M,,M,,*50
05/31/2014	01:03:32.520	$GPGGA,010333,2531.5670,N,07937.6857,W,1,7,2.0,18,M,,M,,*59
05/31/2014	01:03:33.510	$GPGGA,010334,2531.5702,N,07937.6861,W,1,7,2.0,18,M,,M,,*5F
05/31/2014	01:03:34.500	$GPGGA,010335,2531.5732,N,07937.6866,W,1,7,2.0,18,M,,M,,*5A
05/31/2014	01:03:35.520	$GPGGA,010336,2531.5764,N,07937.6871,W,1,7,2.0,18,M,,M,,*5C
05/31/2014	01:03:36.530	$GPGGA,010337,2531.5795,N,07937.6875,W,1,7,2.0,18,M,,M,,*57
05/31/2014	01:03:37.490	$GPGGA,010338,2531.5826,N,07937.6879,W,1,7,2.0,18,M,,M,,*53
05/31/2014	01:03:38.491	$GPGGA,010339,2531.5858,N,07937.6883,W,1,7,2.0,18,M,,M,,*5E
05/31/2014	01:03:39.510	$GPGGA,010340,2531.5889,N,07937.6889,W,1,7,2.0,18,M,,M,,*56
05/31/2014	01:03:40.510	$GPGGA,010341,2531.5920,N,07937.6893,W,1,7,2.0,18,M,,M,,*5E
05/31/2014	01:03:41.499	$GPGGA,010342,2531.5952,N,07937.6897,W,1,7,2.0,18,M,,M,,*5C
05/31/2014	01:03:42.499	$GPGGA,010343,2531.5983,N,07937.6902,W,1,7,2.0,18,M,,M,,*5C
05/31/2014	01:03:43.499	$GPGGA,010344,2531.6013,N,07937.6907,W,1,7,2.0,18,M,,M,,*5D
05/31/2014	01:03:44.499	$GPGGA,010345,2531.6046,N,07937.6911,W,1,7,2.0,18,M,,M,,*5B
05/31/2014	01:03:45.490	$GPGGA,010346,2531.6075,N,07937.6916,W,1,7,2.0,18,M,,M,,*5F
05/31/2014	01:03:46.500	$GPGGA,010347,2531.6107,N,07937.6920,W,1,7,2.0,18,M,,M,,*5F
05/31/2014	01:03:47.490	$GPGGA,010348,2531.6138,N,07937.6926,W,1,7,2.0,18,M,,M,,*5A
05/31/2014	01:03:48.470	$GPGGA,010349,2531.6169,N,07937.6930,W,1,7,2.0,18,M,,M,,*58
05/31/2014	01:03:49.470	$GPGGA,010350,2531.6200,N,07937.6936,W,1,7,2.0,18,M,,M,,*5A
05/31/2014	01:03:50.500	$GPGGA,010351,2531.6230,N,07937.6940,W,1,7,2.0,17,M,,M,,*56
05/31/2014	01:03:51.470	$GPGGA,010352,2531.6262,N,07937.6945,W,1,7,2.0,17,M,,M,,*57
05/31/2014	01:03:52.460	$GPGGA,010353,2531.6292,N,07937.6951,W,1,7,2.0,17,M,,M,,*5C
05/31/2014	01:03:53.470	$GPGGA,010354,2531.6324,N,07937.6955,W,1,7,2.0,17,M,,M,,*53
05/31/2014	01:03:54.490	$GPGGA,010355,2531.6355,N,07937.6960,W,1,7,2.0,17,M,,M,,*52
05/31/2014	01:03:55.460	$GPGGA,010356,2531.6385,N,07937.6965,W,1,7,2.0,17,M,,M,,*59
05/31/2014	01:03:56.490	$GPGGA,010357,2531.6417,N,07937.6969,W,1,7,2.0,17,M,,M,,*58
05/31/2014	01:03:57.460	$GPGGA,010358,2531.6447,N,07937.6973,W,1,7,2.0,17,M,,M,,*59
05/31/2014	01:03:58.469	$GPGGA,010359,2531.6479,N,07937.6978,W,1,7,2.0,17,M,,M,,*5E
05/31/2014	01:03:59.479	$GPGGA,010400,2531.6511,N,07937.6983,W,1,7,2.0,17,M,,M,,*5E
05/31/2014	01:04:00.619	$GPGGA,010401,2531.6541,N,07937.6987,W,1,7,2.0,17,M,,M,,*5E
05/31/2014	01:04:01.449	$GPGGA,010402,2531.6573,N,07937.6991,W,1,7,2.0,17,M,,M,,*5B
05/31/2014	01:04:02.450	$GPGGA,010403,2531.6604,N,07937.6995,W,1,7,2.0,17,M,,M,,*5D
05/31/2014	01:04:03.460	$GPGGA,010404,2531.6635,N,07937.6999,W,1,7,2.0,17,M,,M,,*54
05/31/2014	01:04:04.450	$GPGGA,010405,2531.6667,N,07937.7003,W,1,7,2.0,16,M,,M,,*58
05/31/2014	01:04:05.430	$GPGGA,010406,2531.6699,N,07937.7009,W,1,7,2.0,16,M,,M,,*50
05/31/2014	01:04:06.430	$GPGGA,010407,2531.6729,N,07937.7012,W,1,7,2.0,16,M,,M,,*51
05/31/2014	01:04:07.480	$GPGGA,010408,2531.6761,N,07937.7016,W,1,7,2.0,16,M,,M,,*56
05/31/2014	01:04:08.450	$GPGGA,010409,2531.6793,N,07937.7020,W,1,7,2.0,16,M,,M,,*5F
05/31/2014	01:04:09.420	$GPGGA,010410,2531.6823,N,07937.7023,W,1,7,2.0,16,M,,M,,*50
05/31/2014	01:04:10.420	$GPGGA,010411,2531.6855,N,07937.7027,W,1,7,2.0,16,M,,M,,*54
05/31/2014	01:04:11.530	$GPGGA,010412,2531.6887,N,07937.7031,W,1,7,2.0,16,M,,M,,*5F
05/31/2014	01:04:12.610	$GPGGA,010413,2531.6919,N,07937.7035,W,1,7,2.0,16,M,,M,,*5C
05/31/2014	01:04:13.430	$GPGGA,010414,2531.6951,N,07937.7038,W,1,7,2.0,16,M,,M,,*5A
05/31/2014	01:04:14.610	$GPGGA,010415,2531.6982,N,07937.7042,W,1,7,2.0,16,M,,M,,*58
05/31/2014	01:04:15.430	$GPGGA,010416,2531.7014,N,07937.7045,W,1,7,2.0,16,M,,M,,*5B
05/31/2014	01:04:16.589	$GPGGA,010417,2531.7047,N,07937.7049,W,1,7,2.0,16,M,,M,,*50
05/31/2014	01:04:17.519	$GPGGA,010418,2531.7078,N,07937.7053,W,1,7,2.0,16,M,,M,,*58
05/31/2014	01:04:18.609	$GPGGA,010419,2531.7110,N,07937.7056,W,1,7,2.0,16,M,,M,,*53
05/31/2014	01:04:19.539	$GPGGA,010420,2531.7141,N,07937.7060,W,1,7,2.0,16,M,,M,,*58
05/31/2014	01:04:20.600	$GPGGA,010421,2531.7173,N,07937.7063,W,1,7,2.0,16,M,,M,,*5B
05/31/2014	01:04:21.510	$GPGGA,010422,2531.7205,N,07937.7067,W,1,7,2.0,16,M,,M,,*5E
05/31/2014	01:04:22.600	$GPGGA,010423,2531.7237,N,07937.7071,W,1,7,2.0,16,M,,M,,*59
05/31/2014	01:04:23.540	$GPGGA,010424,2531.7267,N,07937.7074,W,1,7,2.0,16,M,,M,,*5E
05/31/2014	01:04:24.600	$GPGGA,010425,2531.7299,N,07937.7078,W,1,7,2.0,16,M,,M,,*52
05/31/2014	01:04:25.502	$GPGGA,010426,2531.7332,N,07937.7082,W,1,7,2.0,16,M,,M,,*54
05/31/2014	01:04:26.582	$GPGGA,010427,2531.7363,N,07937.7086,W,1,7,2.0,16,M,,M,,*55
05/31/2014	01:04:27.522	$GPGGA,010428,2531.7394,N,07937.7090,W,1,7,2.0,16,M,,M,,*55
05/31/2014	01:04:28.607	$GPGGA,010429,2531.7426,N,07937.7093,W,1,7,2.0,16,M,,M,,*59
05/31/2014	01:04:29.492	$GPGGA,010430,2531.7457,N,07937.7099,W,1,7,2.0,16,M,,M,,*5D
05/31/2014	01:04:30.492	$GPGGA,010431,2531.7488,N,07937.7103,W,1,7,2.0,15,M,,M,,*5F
05/31/2014	01:04:31.532	$GPGGA,010432,2531.7520,N,07937.7106,W,1,7,2.0,15,M,,M,,*5A
05/31/2014	01:04:32.483	$GPGGA,010433,2531.7552,N,07937.7110,W,1,7,2.0,15,M,,M,,*59
05/31/2014	01:04:33.521	$GPGGA,010434,2531.7583,N,07937.7114,W,1,7,2.0,15,M,,M,,*56
05/31/2014	01:04:34.541	$GPGGA,010435,2531.7614,N,07937.7118,W,1,7,2.0,15,M,,M,,*56
05/31/2014	01:04:35.531	$GPGGA,010436,2531.7646,N,07937.7122,W,1,7,2.0,15,M,,M,,*5B
05/31/2014	01:04:36.581	$GPGGA,010437,2531.7677,N,07937.7128,W,1,7,2.0,15,M,,M,,*52
05/31/2014	01:04:37.511	$GPGGA,010438,2531.7708,N,07937.7132,W,1,7,2.0,15,M,,M,,*5F
05/31/2014	01:04:38.591	$GPGGA,010439,2531.7740,N,07937.7135,W,1,7,2.0,15,M,,M,,*55
05/31/2014	01:04:39.511	$GPGGA,010440,2531.7772,N,07937.7139,W,1,7,2.0,15,M,,M,,*56
05/31/2014	01:04:40.581	$GPGGA,010441,2531.7802,N,07937.7144,W,1,7,2.0,15,M,,M,,*55
05/31/2014	01:04:41.491	$GPGGA,010442,2531.7834,N,07937.7149,W,1,7,2.0,15,M,,M,,*5E
05/31/2014	01:04:42.602	$GPGGA,010443,2531.7866,N,07937.7153,W,1,7,2.0,15,M,,M,,*53
05/31/2014	01:04:43.472	$GPGGA,010444,2531.7896,N,07937.7157,W,1,7,2.0,15,M,,M,,*5F
05/31/2014	01:04:44.532	$GPGGA,010445,2531.7928,N,07937.7161,W,1,7,2.0,15,M,,M,,*5F
05/31/2014	01:04:45.522	$GPGGA,010446,2531.7959,N,07937.7167,W,1,7,2.0,15,M,,M,,*5C
05/31/2014	01:04:46.572	$GPGGA,010447,2531.7990,N,07937.7171,W,1,7,2.0,15,M,,M,,*5F
05/31/2014	01:04:47.503	$GPGGA,010448,2531.8022,N,07937.7176,W,1,7,2.0,15,M,,M,,*58
05/31/2014	01:04:48.572	$GPGGA,010449,2531.8053,N,07937.7182,W,1,7,2.0,15,M,,M,,*54
05/31/2014	01:04:49.493	$GPGGA,010450,2531.8084,N,07937.7186,W,1,7,2.0,15,M,,M,,*52
05/31/2014	01:04:50.571	$GPGGA,010451,2531.8116,N,07937.7189,W,1,7,2.0,15,M,,M,,*56
05/31/2014	01:04:51.501	$GPGGA,010452,2531.8147,N,07937.7194,W,1,7,2.0,15,M,,M,,*5D
05/31/2014	01:04:52.551	$GPGGA,010453,2531.8177,N,07937.7200,W,1,7,2.0,15,M,,M,,*51
05/31/2014	01:04:53.441	$GPGGA,010454,2531.8209,N,07937.7204,W,1,7,2.0,15,M,,M,,*58
05/31/2014	01:04:54.551	$GPGGA,010455,2531.8241,N,07937.7208,W,1,7,2.0,15,M,,M,,*59
05/31/2014	01:04:55.501	$GPGGA,010456,2531.8271,N,07937.7214,W,1,7,2.0,15,M,,M,,*54
05/31/2014	01:04:56.521	$GPGGA,010457,2531.8303,N,07937.7218,W,1,7,2.0,15,M,,M,,*5D
05/31/2014	01:04:57.471	$GPGGA,010458,2531.8335,N,07937.7223,W,1,7,2.0,15,M,,M,,*5F
05/31/2014	01:04:58.551	$GPGGA,010459,2531.8365,N,07937.7229,W,1,7,2.0,15,M,,M,,*51
05/31/2014	01:04:59.501	$GPGGA,010500,2531.8398,N,07937.7233,W,1,7,2.0,15,M,,M,,*55
05/31/2014	01:05:00.532	$GPGGA,010501,2531.8429,N,07937.7238,W,1,7,2.0,15,M,,M,,*52
05/31/2014	01:05:01.542	$GPGGA,010502,2531.8459,N,07937.7243,W,1,7,2.0,15,M,,M,,*5A
05/31/2014	01:05:02.532	$GPGGA,010503,2531.8491,N,07937.7248,W,1,7,2.0,15,M,,M,,*54
05/31/2014	01:05:03.542	$GPGGA,010504,2531.8523,N,07937.7254,W,1,7,2.0,15,M,,M,,*56
05/31/2014	01:05:04.522	$GPGGA,010505,2531.8555,N,07937.7258,W,1,7,2.0,15,M,,M,,*5A
05/31/2014	01:05:05.523	$GPGGA,010506,2531.8586,N,07937.7263,W,1,7,2.0,15,M,,M,,*5F
05/31/2014	01:05:06.582	$GPGGA,010507,2531.8618,N,07937.7267,W,1,7,2.0,15,M,,M,,*5E
05/31/2014	01:05:07.552	$GPGGA,010508,2531.8650,N,07937.7272,W,1,7,2.0,15,M,,M,,*59
05/31/2014	01:05:08.521	$GPGGA,010509,2531.8680,N,07937.7276,W,1,7,2.0,15,M,,M,,*51
05/31/2014	01:05:09.521	$GPGGA,010510,2531.8712,N,07937.7281,W,1,7,2.0,15,M,,M,,*5B
05/31/2014	01:05:10.601	$GPGGA,010511,2531.8743,N,07937.7285,W,1,7,2.0,15,M,,M,,*5A
05/31/2014	01:05:11.521	$GPGGA,010512,2531.8774,N,07937.7290,W,1,7,2.0,15,M,,M,,*59
05/31/2014	01:05:12.571	$GPGGA,010513,2531.8806,N,07937.7294,W,1,7,2.0,15,M,,M,,*56
05/31/2014	01:05:13.501	$GPGGA,010514,2531.8837,N,07937.7299,W,1,7,2.0,15,M,,M,,*5E
05/31/2014	01:05:14.581	$GPGGA,010515,2531.8868,N,07937.7303,W,1,7,2.0,15,M,,M,,*57
05/31/2014	01:05:15.541	$GPGGA,010516,2531.8900,N,07937.7308,W,1,7,2.0,15,M,,M,,*50
05/31/2014	01:05:16.541	$GPGGA,010517,2531.8932,N,07937.7312,W,1,7,2.0,15,M,,M,,*5B
05/31/2014	01:05:17.502	$GPGGA,010518,2531.8964,N,07937.7316,W,1,7,2.0,15,M,,M,,*53
05/31/2014	01:05:18.532	$GPGGA,010519,2531.8996,N,07937.7320,W,1,7,2.0,15,M,,M,,*5A
05/31/2014	01:05:19.512	$GPGGA,010520,2531.9026,N,07937.7324,W,1,7,2.0,15,M,,M,,*57
05/31/2014	01:05:20.542	$GPGGA,010521,2531.9058,N,07937.7328,W,1,7,2.0,15,M,,M,,*53
05/31/2014	01:05:21.482	$GPGGA,010522,2531.9088,N,07937.7332,W,1,7,2.0,15,M,,M,,*56
05/31/2014	01:05:22.542	$GPGGA,010523,2531.9120,N,07937.7337,W,1,7,2.0,15,M,,M,,*51
05/31/2014	01:05:23.505	$GPGGA,010524,2531.9151,N,07937.7341,W,1,7,2.0,15,M,,M,,*51
05/31/2014	01:05:24.522	$GPGGA,010525,2531.9182,N,07937.7345,W,1,7,2.0,15,M,,M,,*5A
05/31/2014	01:05:25.501	$GPGGA,010526,2531.9213,N,07937.7348,W,1,7,2.0,15,M,,M,,*5F
05/31/2014	01:05:26.561	$GPGGA,010527,2531.9246,N,07937.7352,W,1,7,2.0,15,M,,M,,*55
05/31/2014	01:05:27.501	$GPGGA,010528,2531.9276,N,07937.7355,W,1,7,2.0,15,M,,M,,*5E
05/31/2014	01:05:28.511	$GPGGA,010529,2531.9308,N,07937.7359,W,1,7,2.0,15,M,,M,,*5B
05/31/2014	01:05:29.471	$GPGGA,010530,2531.9340,N,07937.7363,W,1,7,2.0,15,M,,M,,*56
05/31/2014	01:05:30.521	$GPGGA,010531,2531.9372,N,07937.7367,W,1,7,2.0,15,M,,M,,*52
05/31/2014	01:05:31.471	$GPGGA,010532,2531.9402,N,07937.7371,W,1,7,2.0,15,M,,M,,*56
05/31/2014	01:05:32.521	$GPGGA,010533,2531.9434,N,07937.7375,W,1,7,2.0,15,M,,M,,*56
05/31/2014	01:05:33.481	$GPGGA,010534,2531.9464,N,07937.7379,W,1,7,2.0,15,M,,M,,*58
05/31/2014	01:05:34.531	$GPGGA,010535,2531.9496,N,07937.7384,W,1,7,2.0,15,M,,M,,*56
05/31/2014	01:05:35.582	$GPGGA,010536,2531.9528,N,07937.7388,W,1,7,2.0,15,M,,M,,*5D
05/31/2014	01:05:36.482	$GPGGA,010537,2531.9528,N,07937.7388,W,1,7,2.0,15,M,,M,,*5C
05/31/2014	01:05:37.472	$GPGGA,010538,2531.9590,N,07937.7395,W,1,7,2.0,15,M,,M,,*5C
05/31/2014	01:05:38.482	$GPGGA,010539,2531.9590,N,07937.7395,W,1,7,2.0,15,M,,M,,*5D
05/31/2014	01:05:39.463	$GPGGA,010540,2531.9655,N,07937.7403,W,1,7,2.0,15,M,,M,,*51
05/31/2014	01:05:40.582	$GPGGA,010541,2531.9687,N,07937.7407,W,1,7,2.0,15,M,,M,,*5B
05/31/2014	01:05:41.462	$GPGGA,010542,2531.9719,N,07937.7411,W,1,7,2.0,15,M,,M,,*59
05/31/2014	01:05:42.572	$GPGGA,010543,2531.9749,N,07937.7417,W,1,7,2.0,15,M,,M,,*5B
05/31/2014	01:05:43.461	$GPGGA,010544,2531.9781,N,07937.7420,W,1,7,2.0,15,M,,M,,*5C
05/31/2014	01:05:44.441	$GPGGA,010545,2531.9781,N,07937.7420,W,1,7,2.0,15,M,,M,,*5D
05/31/2014	01:05:45.531	$GPGGA,010546,2531.9843,N,07937.7428,W,1,7,2.0,15,M,,M,,*57
05/31/2014	01:05:46.541	$GPGGA,010547,2531.9875,N,07937.7432,W,1,7,2.0,15,M,,M,,*58
05/31/2014	01:05:47.441	$GPGGA,010548,2531.9907,N,07937.7436,W,1,7,2.0,15,M,,M,,*57
05/31/2014	01:05:48.431	$GPGGA,010549,2531.9907,N,07937.7436,W,1,7,2.0,15,M,,M,,*56
05/31/2014	01:05:49.521	$GPGGA,010550,2531.9971,N,07937.7444,W,1,7,2.0,15,M,,M,,*5A
05/31/2014	01:05:50.531	$GPGGA,010551,2532.0002,N,07937.7449,W,1,7,2.0,15,M,,M,,*51
05/31/2014	01:05:51.531	$GPGGA,010552,2532.0034,N,07937.7453,W,1,7,2.0,15,M,,M,,*5C
05/31/2014	01:05:52.522	$GPGGA,010553,2532.0066,N,07937.7457,W,1,7,2.0,15,M,,M,,*5E
05/31/2014	01:05:53.532	$GPGGA,010554,2532.0096,N,07937.7461,W,1,7,2.0,15,M,,M,,*53
05/31/2014	01:05:54.532	$GPGGA,010555,2532.0128,N,07937.7467,W,1,7,2.0,15,M,,M,,*50
05/31/2014	01:05:55.532	$GPGGA,010556,2532.0160,N,07937.7471,W,1,7,2.0,15,M,,M,,*58
05/31/2014	01:05:56.562	$GPGGA,010557,2532.0160,N,07937.7471,W,1,7,2.0,15,M,,M,,*59
05/31/2014	01:05:57.522	$GPGGA,010558,2532.0222,N,07937.7479,W,1,7,2.0,15,M,,M,,*5B
05/31/2014	01:05:58.543	$GPGGA,010559,2532.0254,N,07937.7485,W,1,7,2.0,15,M,,M,,*58
05/31/2014	01:05:59.532	$GPGGA,010600,2532.0286,N,07937.7489,W,1,7,2.0,15,M,,M,,*54
05/31/2014	01:06:00.541	$GPGGA,010601,2532.0316,N,07937.7493,W,1,7,2.0,15,M,,M,,*56
05/31/2014	01:06:01.511	$GPGGA,010602,2532.0349,N,07937.7498,W,1,7,2.0,15,M,,M,,*54
05/31/2014	01:06:02.531	$GPGGA,010603,2532.0380,N,07937.7503,W,1,7,2.0,15,M,,M,,*53
05/31/2014	01:06:03.531	$GPGGA,010604,2532.0412,N,07937.7507,W,1,7,2.0,15,M,,M,,*5C
05/31/2014	01:06:04.501	$GPGGA,010605,2532.0443,N,07937.7511,W,1,7,2.0,15,M,,M,,*5E
05/31/2014	01:06:05.501	$GPGGA,010606,2532.0475,N,07937.7515,W,1,7,2.0,15,M,,M,,*5C
05/31/2014	01:06:06.521	$GPGGA,010607,2532.0506,N,07937.7520,W,1,7,2.0,15,M,,M,,*5E
05/31/2014	01:06:07.511	$GPGGA,010608,2532.0537,N,07937.7525,W,1,7,2.0,15,M,,M,,*56
05/31/2014	01:06:08.511	$GPGGA,010609,2532.0569,N,07937.7529,W,1,7,2.0,15,M,,M,,*50
05/31/2014	01:06:09.481	$GPGGA,010610,2532.0601,N,07937.7534,W,1,7,2.0,15,M,,M,,*59
05/31/2014	01:06:10.522	$GPGGA,010611,2532.0630,N,07937.7540,W,1,7,2.0,15,M,,M,,*59
05/31/2014	01:06:11.502	$GPGGA,010612,2532.0663,N,07937.7544,W,1,7,2.0,15,M,,M,,*58
05/31/2014	01:06:12.512	$GPGGA,010613,2532.0694,N,07937.7550,W,1,7,2.0,15,M,,M,,*54
05/31/2014	01:06:13.472	$GPGGA,010614,2532.0725,N,07937.7554,W,1,7,2.0,15,M,,M,,*5C
05/31/2014	01:06:14.512	$GPGGA,010615,2532.0757,N,07937.7559,W,1,7,2.0,15,M,,M,,*55
05/31/2014	01:06:15.493	$GPGGA,010616,2532.0789,N,07937.7565,W,1,7,2.0,15,M,,M,,*5A
05/31/2014	01:06:16.482	$GPGGA,010617,2532.0820,N,07937.7569,W,1,7,2.0,15,M,,M,,*5B
05/31/2014	01:06:17.483	$GPGGA,010618,2532.0851,N,07937.7573,W,1,7,2.0,15,M,,M,,*59
05/31/2014	01:06:18.471	$GPGGA,010619,2532.0883,N,07937.7577,W,1,7,2.0,15,M,,M,,*53
05/31/2014	01:06:19.491	$GPGGA,010620,2532.0914,N,07937.7581,W,1,7,2.0,15,M,,M,,*5F
05/31/2014	01:06:20.471	$GPGGA,010621,2532.0945,N,07937.7587,W,1,7,2.0,15,M,,M,,*5C
05/31/2014	01:06:21.461	$GPGGA,010622,2532.0976,N,07937.7590,W,1,7,2.0,15,M,,M,,*59
05/31/2014	01:06:22.481	$GPGGA,010623,2532.1008,N,07937.7594,W,1,7,2.0,14,M,,M,,*5C
05/31/2014	01:06:23.491	$GPGGA,010624,2532.1039,N,07937.7599,W,1,7,2.0,14,M,,M,,*54
05/31/2014	01:06:24.571	$GPGGA,010625,2532.1071,N,07937.7603,W,1,7,2.0,14,M,,M,,*59
05/31/2014	01:06:25.481	$GPGGA,010626,2532.1103,N,07937.7608,W,1,7,2.0,14,M,,M,,*55
05/31/2014	01:06:26.571	$GPGGA,010627,2532.1135,N,07937.7612,W,1,7,2.0,14,M,,M,,*5A
05/31/2014	01:06:27.462	$GPGGA,010628,2532.1167,N,07937.7616,W,1,7,2.0,14,M,,M,,*56
05/31/2014	01:06:28.572	$GPGGA,010629,2532.1198,N,07937.7620,W,1,7,2.0,14,M,,M,,*52
05/31/2014	01:06:29.452	$GPGGA,010630,2532.1229,N,07937.7624,W,1,7,2.0,14,M,,M,,*57
05/31/2014	01:06:30.552	$GPGGA,010631,2532.1261,N,07937.7628,W,1,7,2.0,14,M,,M,,*56
05/31/2014	01:06:31.472	$GPGGA,010632,2532.1292,N,07937.7633,W,1,7,2.0,14,M,,M,,*53
05/31/2014	01:06:32.472	$GPGGA,010633,2532.1324,N,07937.7637,W,1,7,2.0,14,M,,M,,*5A
05/31/2014	01:06:33.532	$GPGGA,010634,2532.1355,N,07937.7641,W,1,7,2.0,14,M,,M,,*5A
05/31/2014	01:06:34.433	$GPGGA,010635,2532.1385,N,07937.7645,W,1,7,2.0,14,M,,M,,*52
05/31/2014	01:06:35.451	$GPGGA,010636,2532.1417,N,07937.7648,W,1,7,2.0,14,M,,M,,*50
05/31/2014	01:06:36.531	$GPGGA,010637,2532.1447,N,07937.7652,W,1,7,2.0,14,M,,M,,*5F
05/31/2014	01:06:37.441	$GPGGA,010638,2532.1479,N,07937.7655,W,1,7,2.0,14,M,,M,,*5A
05/31/2014	01:06:38.531	$GPGGA,010639,2532.1511,N,07937.7659,W,1,7,2.0,14,M,,M,,*58
05/31/2014	01:06:39.541	$GPGGA,010640,2532.1543,N,07937.7662,W,1,7,2.0,14,M,,M,,*59
05/31/2014	01:06:40.531	$GPGGA,010641,2532.1573,N,07937.7666,W,1,7,2.0,14,M,,M,,*5F
05/31/2014	01:06:41.521	$GPGGA,010642,2532.1606,N,07937.7668,W,1,7,2.0,14,M,,M,,*53
05/31/2014	01:06:42.531	$GPGGA,010643,2532.1638,N,07937.7673,W,1,7,2.0,14,M,,M,,*55
05/31/2014	01:06:43.541	$GPGGA,010644,2532.1669,N,07937.7675,W,1,7,2.0,14,M,,M,,*50
05/31/2014	01:06:44.511	$GPGGA,010645,2532.1700,N,07937.7680,W,1,7,2.0,14,M,,M,,*55
05/31/2014	01:06:45.522	$GPGGA,010646,2532.1732,N,07937.7684,W,1,7,2.0,14,M,,M,,*53
05/31/2014	01:06:46.512	$GPGGA,010647,2532.1763,N,07937.7688,W,1,7,2.0,14,M,,M,,*5A
05/31/2014	01:06:47.532	$GPGGA,010648,2532.1794,N,07937.7691,W,1,7,2.0,14,M,,M,,*55
05/31/2014	01:06:48.532	$GPGGA,010649,2532.1826,N,07937.7695,W,1,7,2.0,14,M,,M,,*56
05/31/2014	01:06:49.512	$GPGGA,010650,2532.1857,N,07937.7700,W,1,7,2.0,14,M,,M,,*55
05/31/2014	01:06:50.512	$GPGGA,010651,2532.1888,N,07937.7704,W,1,7,2.0,14,M,,M,,*52
05/31/2014	01:06:51.522	$GPGGA,010652,2532.1920,N,07937.7710,W,1,7,2.0,14,M,,M,,*57
05/31/2014	01:06:52.494	$GPGGA,010653,2532.1952,N,07937.7713,W,1,7,2.0,14,M,,M,,*50
05/31/2014	01:06:53.501	$GPGGA,010654,2532.1982,N,07937.7717,W,1,7,2.0,14,M,,M,,*5E
05/31/2014	01:06:54.511	$GPGGA,010655,2532.2014,N,07937.7721,W,1,7,2.0,14,M,,M,,*5F
05/31/2014	01:06:55.511	$GPGGA,010656,2532.2046,N,07937.7727,W,1,7,2.0,14,M,,M,,*5D
05/31/2014	01:06:56.511	$GPGGA,010657,2532.2076,N,07937.7731,W,1,7,2.0,14,M,,M,,*58
05/31/2014	01:06:57.481	$GPGGA,010658,2532.2108,N,07937.7735,W,1,7,2.0,14,M,,M,,*5B
05/31/2014	01:06:58.521	$GPGGA,010659,2532.2139,N,07937.7739,W,1,7,2.0,14,M,,M,,*54
05/31/2014	01:06:59.511	$GPGGA,010700,2532.2170,N,07937.7745,W,1,7,2.0,13,M,,M,,*58
05/31/2014	01:07:00.521	$GPGGA,010701,2532.2202,N,07937.7749,W,1,7,2.0,13,M,,M,,*53
05/31/2014	01:07:01.481	$GPGGA,010702,2532.2234,N,07937.7753,W,1,7,2.0,13,M,,M,,*5E
05/31/2014	01:07:02.482	$GPGGA,010703,2532.2266,N,07937.7757,W,1,7,2.0,13,M,,M,,*5C
05/31/2014	01:07:03.492	$GPGGA,010704,2532.2296,N,07937.7762,W,1,7,2.0,13,M,,M,,*52
05/31/2014	01:07:04.512	$GPGGA,010705,2532.2328,N,07937.7767,W,1,7,2.0,13,M,,M,,*52
05/31/2014	01:07:05.492	$GPGGA,010706,2532.2360,N,07937.7771,W,1,7,2.0,13,M,,M,,*5A
05/31/2014	01:07:06.482	$GPGGA,010707,2532.2390,N,07937.7775,W,1,7,2.0,13,M,,M,,*50
05/31/2014	01:07:07.472	$GPGGA,010708,2532.2422,N,07937.7779,W,1,7,2.0,13,M,,M,,*5D
05/31/2014	01:07:08.502	$GPGGA,010709,2532.2454,N,07937.7783,W,1,7,2.0,13,M,,M,,*58
05/31/2014	01:07:09.472	$GPGGA,010710,2532.2484,N,07937.7787,W,1,7,2.0,13,M,,M,,*59
05/31/2014	01:07:10.491	$GPGGA,010711,2532.2516,N,07937.7793,W,1,7,2.0,13,M,,M,,*57
05/31/2014	01:07:11.591	$GPGGA,010712,2532.2547,N,07937.7797,W,1,7,2.0,13,M,,M,,*54
05/31/2014	01:07:12.481	$GPGGA,010713,2532.2578,N,07937.7803,W,1,7,2.0,13,M,,M,,*5B
05/31/2014	01:07:13.461	$GPGGA,010714,2532.2609,N,07937.7807,W,1,7,2.0,13,M,,M,,*5D
05/31/2014	01:07:14.571	$GPGGA,010715,2532.2641,N,07937.7811,W,1,7,2.0,13,M,,M,,*57
05/31/2014	01:07:15.481	$GPGGA,010716,2532.2672,N,07937.7816,W,1,7,2.0,13,M,,M,,*53
05/31/2014	01:07:16.471	$GPGGA,010717,2532.2701,N,07937.7819,W,1,7,2.0,13,M,,M,,*58
05/31/2014	01:07:17.441	$GPGGA,010718,2532.2733,N,07937.7825,W,1,7,2.0,13,M,,M,,*59
05/31/2014	01:07:18.471	$GPGGA,010719,2532.2765,N,07937.7829,W,1,7,2.0,13,M,,M,,*57
05/31/2014	01:07:19.471	$GPGGA,010720,2532.2795,N,07937.7833,W,1,7,2.5,13,M,,M,,*5C
05/31/2014	01:07:20.452	$GPGGA,010721,2532.2827,N,07937.7837,W,1,7,2.0,13,M,,M,,*5A
05/31/2014	01:07:21.542	$GPGGA,010722,2532.2859,N,07937.7841,W,1,7,2.0,13,M,,M,,*51
05/31/2014	01:07:22.452	$GPGGA,010723,2532.2891,N,07937.7847,W,1,7,2.0,13,M,,M,,*52
05/31/2014	01:07:23.552	$GPGGA,010724,2532.2921,N,07937.7851,W,1,7,2.0,13,M,,M,,*58
05/31/2014	01:07:24.582	$GPGGA,010725,2532.2953,N,07937.7855,W,1,7,2.0,13,M,,M,,*58
05/31/2014	01:07:25.562	$GPGGA,010726,2532.2985,N,07937.7859,W,1,7,2.0,13,M,,M,,*5C
05/31/2014	01:07:27.961	$GPGGA,010728,2532.3047,N,07937.7868,W,1,7,2.0,13,M,,M,,*56
05/31/2014	01:07:28.531	$GPGGA,010729,2532.3078,N,07937.7872,W,1,7,2.0,13,M,,M,,*50
05/31/2014	01:07:29.531	$GPGGA,010730,2532.3109,N,07937.7876,W,1,7,2.0,13,M,,M,,*5B
05/31/2014	01:07:30.521	$GPGGA,010731,2532.3141,N,07937.7879,W,1,7,2.0,13,M,,M,,*59
05/31/2014	01:07:31.561	$GPGGA,010732,2532.3172,N,07937.7883,W,1,7,2.0,13,M,,M,,*5F
05/31/2014	01:07:32.511	$GPGGA,010733,2532.3203,N,07937.7887,W,1,7,2.0,13,M,,M,,*5F
05/31/2014	01:07:33.511	$GPGGA,010734,2532.3235,N,07937.7890,W,1,7,2.0,13,M,,M,,*5B
05/31/2014	01:07:34.541	$GPGGA,010735,2532.3267,N,07937.7894,W,1,7,2.0,13,M,,M,,*59
05/31/2014	01:07:35.541	$GPGGA,010736,2532.3299,N,07937.7898,W,1,7,2.0,13,M,,M,,*57
05/31/2014	01:07:36.501	$GPGGA,010737,2532.3331,N,07937.7901,W,1,7,2.0,13,M,,M,,*54
05/31/2014	01:07:37.512	$GPGGA,010738,2532.3362,N,07937.7905,W,1,7,2.0,13,M,,M,,*59
05/31/2014	01:07:38.522	$GPGGA,010739,2532.3394,N,07937.7909,W,1,7,2.0,13,M,,M,,*5D
05/31/2014	01:07:39.512	$GPGGA,010740,2532.3425,N,07937.7913,W,1,7,2.0,13,M,,M,,*55
05/31/2014	01:07:40.532	$GPGGA,010741,2532.3456,N,07937.7916,W,1,7,2.0,13,M,,M,,*55
05/31/2014	01:07:41.492	$GPGGA,010742,2532.3488,N,07937.7920,W,1,7,2.0,13,M,,M,,*50
05/31/2014	01:07:42.522	$GPGGA,010743,2532.3520,N,07937.7924,W,1,7,2.0,13,M,,M,,*56
05/31/2014	01:07:43.512	$GPGGA,010744,2532.3550,N,07937.7927,W,1,7,2.0,13,M,,M,,*55
05/31/2014	01:07:44.532	$GPGGA,010745,2532.3582,N,07937.7931,W,1,7,2.0,13,M,,M,,*5C
05/31/2014	01:07:45.491	$GPGGA,010746,2532.3614,N,07937.7934,W,1,7,2.0,13,M,,M,,*56
05/31/2014	01:07:46.521	$GPGGA,010747,2532.3646,N,07937.7938,W,1,7,2.0,13,M,,M,,*5C
05/31/2014	01:07:47.491	$GPGGA,010748,2532.3678,N,07937.7941,W,1,7,2.0,13,M,,M,,*50
05/31/2014	01:07:48.521	$GPGGA,010749,2532.3708,N,07937.7945,W,1,7,2.0,13,M,,M,,*53
05/31/2014	01:07:49.492	$GPGGA,010750,2532.3741,N,07937.7951,W,1,7,2.0,13,M,,M,,*53
05/31/2014	01:07:50.501	$GPGGA,010751,2532.3772,N,07937.7953,W,1,7,2.0,13,M,,M,,*50
05/31/2014	01:07:51.501	$GPGGA,010752,2532.3803,N,07937.7957,W,1,7,2.0,13,M,,M,,*5E
05/31/2014	01:07:52.501	$GPGGA,010753,2532.3834,N,07937.7962,W,1,7,2.0,13,M,,M,,*5D
05/31/2014	01:07:53.471	$GPGGA,010754,2532.3866,N,07937.7964,W,1,7,2.0,13,M,,M,,*5B
05/31/2014	01:07:54.461	$GPGGA,010755,2532.3896,N,07937.7970,W,1,7,2.0,13,M,,M,,*50
05/31/2014	01:07:55.502	$GPGGA,010756,2532.3928,N,07937.7973,W,1,7,2.0,13,M,,M,,*54
05/31/2014	01:07:56.582	$GPGGA,010757,2532.3960,N,07937.7977,W,1,7,2.0,13,M,,M,,*5D
05/31/2014	01:07:57.492	$GPGGA,010758,2532.3992,N,07937.7980,W,1,7,2.0,13,M,,M,,*57
05/31/2014	01:07:58.462	$GPGGA,010759,2532.4023,N,07937.7984,W,1,7,2.0,13,M,,M,,*56
05/31/2014	01:07:59.472	$GPGGA,010800,2532.4055,N,07937.7988,W,1,7,2.0,13,M,,M,,*58
05/31/2014	01:08:00.482	$GPGGA,010801,2532.4086,N,07937.7992,W,1,7,2.0,13,M,,M,,*5C
05/31/2014	01:08:01.472	$GPGGA,010802,2532.4117,N,07937.7996,W,1,7,2.0,13,M,,M,,*52
05/31/2014	01:08:02.572	$GPGGA,010803,2532.4148,N,07937.8000,W,1,7,2.0,13,M,,M,,*50
05/31/2014	01:08:03.571	$GPGGA,010804,2532.4178,N,07937.8004,W,1,7,2.0,13,M,,M,,*50
05/31/2014	01:08:04.441	$GPGGA,010805,2532.4210,N,07937.8009,W,1,7,2.0,13,M,,M,,*51
05/31/2014	01:08:05.551	$GPGGA,010806,2532.4242,N,07937.8013,W,1,7,2.0,13,M,,M,,*5E
05/31/2014	01:08:06.471	$GPGGA,010807,2532.4272,N,07937.8017,W,1,7,2.0,13,M,,M,,*58
05/31/2014	01:08:07.471	$GPGGA,010808,2532.4305,N,07937.8020,W,1,7,2.0,13,M,,M,,*52
05/31/2014	01:08:08.441	$GPGGA,010809,2532.4336,N,07937.8024,W,1,7,2.0,13,M,,M,,*57
05/31/2014	01:08:09.531	$GPGGA,010810,2532.4366,N,07937.8028,W,1,7,2.0,13,M,,M,,*56
05/31/2014	01:08:10.441	$GPGGA,010811,2532.4398,N,07937.8033,W,1,7,2.0,13,M,,M,,*5C
05/31/2014	01:08:11.581	$GPGGA,010812,2532.4428,N,07937.8036,W,1,7,2.0,13,M,,M,,*56
05/31/2014	01:08:12.552	$GPGGA,010813,2532.4459,N,07937.8042,W,1,7,2.0,13,M,,M,,*52
05/31/2014	01:08:13.442	$GPGGA,010814,2532.4489,N,07937.8046,W,1,7,2.0,13,M,,M,,*5C
05/31/2014	01:08:14.532	$GPGGA,010815,2532.4518,N,07937.8050,W,1,7,2.0,13,M,,M,,*53
05/31/2014	01:08:15.542	$GPGGA,010816,2532.4550,N,07937.8056,W,1,7,2.0,13,M,,M,,*5A
05/31/2014	01:08:16.522	$GPGGA,010817,2532.4579,N,07937.8060,W,1,7,2.0,13,M,,M,,*55
05/31/2014	01:08:17.522	$GPGGA,010818,2532.4611,N,07937.8065,W,1,7,2.0,13,M,,M,,*52
05/31/2014	01:08:18.522	$GPGGA,010819,2532.4641,N,07937.8071,W,1,7,2.0,12,M,,M,,*52
05/31/2014	01:08:19.532	$GPGGA,010820,2532.4670,N,07937.8075,W,1,7,2.0,12,M,,M,,*5E
05/31/2014	01:08:20.511	$GPGGA,010821,2532.4702,N,07937.8081,W,1,7,2.0,12,M,,M,,*50
05/31/2014	01:08:21.511	$GPGGA,010822,2532.4731,N,07937.8085,W,1,7,2.0,12,M,,M,,*57
05/31/2014	01:08:22.531	$GPGGA,010823,2532.4760,N,07937.8089,W,1,7,2.0,12,M,,M,,*5E
05/31/2014	01:08:23.531	$GPGGA,010824,2532.4791,N,07937.8094,W,1,7,2.0,12,M,,M,,*5B
05/31/2014	01:08:24.551	$GPGGA,010825,2532.4820,N,07937.8100,W,1,7,2.0,12,M,,M,,*53
05/31/2014	01:08:25.523	$GPGGA,010826,2532.4850,N,07937.8104,W,1,7,2.0,12,M,,M,,*53
05/31/2014	01:08:26.533	$GPGGA,010827,2532.4879,N,07937.8110,W,1,7,2.0,12,M,,M,,*5C
05/31/2014	01:08:27.533	$GPGGA,010828,2532.4910,N,07937.8114,W,1,7,2.0,12,M,,M,,*59
05/31/2014	01:08:28.533	$GPGGA,010829,2532.4940,N,07937.8119,W,1,7,2.0,12,M,,M,,*50
05/31/2014	01:08:29.523	$GPGGA,010830,2532.4969,N,07937.8125,W,1,7,2.0,12,M,,M,,*5C
05/31/2014	01:08:30.506	$GPGGA,010831,2532.5000,N,07937.8129,W,1,7,2.0,12,M,,M,,*56
05/31/2014	01:08:31.523	$GPGGA,010832,2532.5029,N,07937.8136,W,1,7,2.0,12,M,,M,,*50
05/31/2014	01:08:32.523	$GPGGA,010833,2532.5059,N,07937.8140,W,1,7,2.0,12,M,,M,,*57
05/31/2014	01:08:33.503	$GPGGA,010834,2532.5088,N,07937.8144,W,1,7,2.0,12,M,,M,,*58
05/31/2014	01:08:34.503	$GPGGA,010835,2532.5117,N,07937.8150,W,1,7,2.0,12,M,,M,,*5B
05/31/2014	01:08:35.514	$GPGGA,010836,2532.5146,N,07937.8155,W,1,7,2.0,12,M,,M,,*59
05/31/2014	01:08:36.493	$GPGGA,010837,2532.5177,N,07937.8159,W,1,7,2.0,12,M,,M,,*56
05/31/2014	01:08:37.504	$GPGGA,010838,2532.5207,N,07937.8165,W,1,7,2.0,12,M,,M,,*52
05/31/2014	01:08:38.493	$GPGGA,010839,2532.5237,N,07937.8169,W,1,7,2.0,12,M,,M,,*5C
05/31/2014	01:08:39.512	$GPGGA,010840,2532.5266,N,07937.8175,W,1,7,2.0,12,M,,M,,*5B
05/31/2014	01:08:40.532	$GPGGA,010841,2532.5297,N,07937.8179,W,1,7,2.0,12,M,,M,,*58
05/31/2014	01:08:41.492	$GPGGA,010842,2532.5327,N,07937.8183,W,1,7,2.0,12,M,,M,,*54
05/31/2014	01:08:42.483	$GPGGA,010843,2532.5356,N,07937.8188,W,1,7,2.0,12,M,,M,,*58
05/31/2014	01:08:43.513	$GPGGA,010844,2532.5387,N,07937.8193,W,1,7,2.0,12,M,,M,,*59
05/31/2014	01:08:44.493	$GPGGA,010845,2532.5416,N,07937.8197,W,1,7,2.0,12,M,,M,,*53
05/31/2014	01:08:45.493	$GPGGA,010846,2532.5446,N,07937.8201,W,1,7,2.0,12,M,,M,,*59
05/31/2014	01:08:46.483	$GPGGA,010847,2532.5475,N,07937.8204,W,1,7,2.0,12,M,,M,,*5D
05/31/2014	01:08:47.483	$GPGGA,010848,2532.5504,N,07937.8208,W,1,7,2.0,12,M,,M,,*59
05/31/2014	01:08:48.573	$GPGGA,010849,2532.5535,N,07937.8212,W,1,7,2.0,12,M,,M,,*51
05/31/2014	01:08:49.463	$GPGGA,010850,2532.5565,N,07937.8216,W,1,7,2.0,12,M,,M,,*58
05/31/2014	01:08:50.483	$GPGGA,010851,2532.5596,N,07937.8220,W,1,7,2.0,12,M,,M,,*50
05/31/2014	01:08:51.483	$GPGGA,010852,2532.5625,N,07937.8224,W,1,7,2.0,12,M,,M,,*5C
05/31/2014	01:08:52.594	$GPGGA,010853,2532.5655,N,07937.8227,W,1,7,2.0,12,M,,M,,*59
05/31/2014	01:08:53.493	$GPGGA,010854,2532.5684,N,07937.8230,W,1,7,2.0,12,M,,M,,*54
05/31/2014	01:08:54.564	$GPGGA,010855,2532.5713,N,07937.8234,W,1,7,2.0,12,M,,M,,*5E
05/31/2014	01:08:55.602	$GPGGA,010856,2532.5741,N,07937.8237,W,1,7,2.0,12,M,,M,,*59
05/31/2014	01:08:56.462	$GPGGA,010857,2532.5770,N,07937.8240,W,1,7,2.0,12,M,,M,,*5A
05/31/2014	01:08:57.572	$GPGGA,010858,2532.5797,N,07937.8242,W,1,7,2.0,12,M,,M,,*5E
05/31/2014	01:08:58.582	$GPGGA,010859,2532.5826,N,07937.8245,W,1,7,2.0,12,M,,M,,*5D
05/31/2014	01:08:59.592	$GPGGA,010900,2532.5854,N,07937.8248,W,1,7,2.0,12,M,,M,,*58
05/31/2014	01:09:00.583	$GPGGA,010901,2532.5882,N,07937.8251,W,1,7,2.0,12,M,,M,,*5A
05/31/2014	01:09:01.543	$GPGGA,010902,2532.5909,N,07937.8255,W,1,7,2.0,12,M,,M,,*5F
05/31/2014	01:09:02.553	$GPGGA,010903,2532.5937,N,07937.8258,W,1,7,2.0,12,M,,M,,*5E
05/31/2014	01:09:03.563	$GPGGA,010904,2532.5963,N,07937.8260,W,1,7,2.0,12,M,,M,,*53
05/31/2014	01:09:04.563	$GPGGA,010905,2532.5990,N,07937.8263,W,1,7,2.0,12,M,,M,,*5D
05/31/2014	01:09:05.543	$GPGGA,010906,2532.6016,N,07937.8266,W,1,7,2.0,12,M,,M,,*5F
05/31/2014	01:09:06.553	$GPGGA,010907,2532.6042,N,07937.8270,W,1,7,2.0,12,M,,M,,*58
05/31/2014	01:09:07.553	$GPGGA,010908,2532.6068,N,07937.8271,W,1,7,2.0,12,M,,M,,*5E
05/31/2014	01:09:08.583	$GPGGA,010909,2532.6093,N,07937.8274,W,1,7,2.0,12,M,,M,,*5E
05/31/2014	01:09:09.533	$GPGGA,010910,2532.6118,N,07937.8277,W,1,7,2.0,12,M,,M,,*57
05/31/2014	01:09:10.543	$GPGGA,010911,2532.6143,N,07937.8280,W,1,7,2.0,12,M,,M,,*50
05/31/2014	01:09:11.544	$GPGGA,010912,2532.6167,N,07937.8284,W,1,7,2.0,12,M,,M,,*51
05/31/2014	01:09:12.543	$GPGGA,010913,2532.6190,N,07937.8287,W,1,7,2.0,12,M,,M,,*5B
05/31/2014	01:09:13.522	$GPGGA,010914,2532.6215,N,07937.8289,W,1,7,2.0,12,M,,M,,*5C
05/31/2014	01:09:14.542	$GPGGA,010915,2532.6238,N,07937.8292,W,1,7,2.0,12,M,,M,,*58
05/31/2014	01:09:15.563	$GPGGA,010916,2532.6263,N,07937.8295,W,1,7,2.0,12,M,,M,,*52
05/31/2014	01:09:16.542	$GPGGA,010917,2532.6287,N,07937.8298,W,1,7,2.0,12,M,,M,,*54
05/31/2014	01:09:17.523	$GPGGA,010918,2532.6310,N,07937.8302,W,1,7,2.0,12,M,,M,,*56
05/31/2014	01:09:18.553	$GPGGA,010919,2532.6333,N,07937.8305,W,1,7,2.0,12,M,,M,,*51
05/31/2014	01:09:19.523	$GPGGA,010920,2532.6355,N,07937.8307,W,1,7,2.0,12,M,,M,,*59
05/31/2014	01:09:20.503	$GPGGA,010921,2532.6378,N,07937.8310,W,1,7,2.0,12,M,,M,,*51
05/31/2014	01:09:21.513	$GPGGA,010922,2532.6400,N,07937.8313,W,1,7,2.0,12,M,,M,,*59
05/31/2014	01:09:22.533	$GPGGA,010923,2532.6422,N,07937.8317,W,1,7,2.0,12,M,,M,,*5C
05/31/2014	01:09:23.533	$GPGGA,010924,2532.6445,N,07937.8320,W,1,7,2.0,12,M,,M,,*5E
05/31/2014	01:09:24.533	$GPGGA,010925,2532.6465,N,07937.8322,W,1,7,2.0,12,M,,M,,*5F
05/31/2014	01:09:25.493	$GPGGA,010926,2532.6487,N,07937.8327,W,1,7,2.0,12,M,,M,,*55
05/31/2014	01:09:26.533	$GPGGA,010927,2532.6510,N,07937.8329,W,1,7,2.0,12,M,,M,,*55
05/31/2014	01:09:27.494	$GPGGA,010928,2532.6530,N,07937.8332,W,1,7,2.1,12,M,,M,,*53
05/31/2014	01:09:28.523	$GPGGA,010929,2532.6552,N,07937.8335,W,1,7,2.1,12,M,,M,,*51
05/31/2014	01:09:29.514	$GPGGA,010930,2532.6573,N,07937.8339,W,1,7,2.1,12,M,,M,,*56
05/31/2014	01:09:30.512	$GPGGA,010931,2532.6595,N,07937.8342,W,1,7,2.1,12,M,,M,,*53
05/31/2014	01:09:31.512	$GPGGA,010932,2532.6616,N,07937.8345,W,1,7,2.1,12,M,,M,,*5F
05/31/2014	01:09:32.492	$GPGGA,010933,2532.6637,N,07937.8349,W,1,7,2.1,12,M,,M,,*51
05/31/2014	01:09:33.472	$GPGGA,010934,2532.6656,N,07937.8352,W,1,7,2.1,12,M,,M,,*5B
05/31/2014	01:09:34.592	$GPGGA,010935,2532.6678,N,07937.8356,W,1,7,2.1,12,M,,M,,*52
05/31/2014	01:09:35.483	$GPGGA,010936,2532.6699,N,07937.8358,W,1,7,2.1,12,M,,M,,*50
05/31/2014	01:09:36.583	$GPGGA,010937,2532.6720,N,07937.8361,W,1,7,2.1,12,M,,M,,*58
05/31/2014	01:09:37.493	$GPGGA,010938,2532.6740,N,07937.8364,W,1,7,2.1,12,M,,M,,*54
05/31/2014	01:09:38.463	$GPGGA,010939,2532.6761,N,07937.8368,W,1,7,2.1,12,M,,M,,*5A
05/31/2014	01:09:39.493	$GPGGA,010940,2532.6782,N,07937.8371,W,1,7,2.1,12,M,,M,,*51
05/31/2014	01:09:40.463	$GPGGA,010941,2532.6801,N,07937.8374,W,1,7,2.1,12,M,,M,,*51
05/31/2014	01:09:41.563	$GPGGA,010942,2532.6822,N,07937.8378,W,1,7,2.1,12,M,,M,,*5F
05/31/2014	01:09:42.493	$GPGGA,010943,2532.6841,N,07937.8381,W,1,7,2.1,12,M,,M,,*5D
05/31/2014	01:09:43.593	$GPGGA,010944,2532.6861,N,07937.8383,W,1,7,2.1,12,M,,M,,*5A
05/31/2014	01:09:44.593	$GPGGA,010945,2532.6881,N,07937.8386,W,1,7,2.1,11,M,,M,,*53
05/31/2014	01:09:45.553	$GPGGA,010946,2532.6902,N,07937.8390,W,1,7,2.1,11,M,,M,,*5D
05/31/2014	01:09:46.583	$GPGGA,010947,2532.6922,N,07937.8393,W,1,7,2.1,11,M,,M,,*5D
05/31/2014	01:09:47.563	$GPGGA,010948,2532.6942,N,07937.8396,W,1,7,2.1,11,M,,M,,*51
05/31/2014	01:09:48.582	$GPGGA,010949,2532.6960,N,07937.8400,W,1,7,2.1,11,M,,M,,*58
05/31/2014	01:09:49.453	$GPGGA,010950,2532.6981,N,07937.8403,W,1,7,2.1,11,M,,M,,*5C
05/31/2014	01:09:50.562	$GPGGA,010951,2532.7000,N,07937.8404,W,1,7,2.1,11,M,,M,,*5B
05/31/2014	01:09:51.562	$GPGGA,010952,2532.7021,N,07937.8407,W,1,7,2.1,11,M,,M,,*58
05/31/2014	01:09:52.533	$GPGGA,010953,2532.7040,N,07937.8410,W,1,7,2.1,11,M,,M,,*58
05/31/2014	01:09:53.543	$GPGGA,010954,2532.7060,N,07937.8412,W,1,7,2.1,11,M,,M,,*5F
05/31/2014	01:09:54.543	$GPGGA,010955,2532.7079,N,07937.8415,W,1,7,2.1,11,M,,M,,*51
05/31/2014	01:09:55.553	$GPGGA,010956,2532.7100,N,07937.8418,W,1,7,2.1,11,M,,M,,*50
05/31/2014	01:09:56.553	$GPGGA,010957,2532.7119,N,07937.8421,W,1,7,2.1,11,M,,M,,*53
05/31/2014	01:09:57.523	$GPGGA,010958,2532.7137,N,07937.8422,W,1,7,2.1,11,M,,M,,*53
05/31/2014	01:09:58.543	$GPGGA,010959,2532.7158,N,07937.8425,W,1,7,2.1,11,M,,M,,*5C
05/31/2014	01:09:59.543	$GPGGA,011000,2532.7177,N,07937.8426,W,1,7,2.1,11,M,,M,,*56
05/31/2014	01:10:00.543	$GPGGA,011001,2532.7197,N,07937.8429,W,1,7,2.1,11,M,,M,,*56
05/31/2014	01:10:01.523	$GPGGA,011002,2532.7216,N,07937.8432,W,1,7,2.1,11,M,,M,,*55
05/31/2014	01:10:02.543	$GPGGA,011003,2532.7235,N,07937.8433,W,1,7,2.1,11,M,,M,,*54
05/31/2014	01:10:03.523	$GPGGA,011004,2532.7256,N,07937.8436,W,1,7,2.1,11,M,,M,,*53
05/31/2014	01:10:04.543	$GPGGA,011005,2532.7274,N,07937.8439,W,1,7,2.1,11,M,,M,,*5D
05/31/2014	01:10:05.522	$GPGGA,011006,2532.7295,N,07937.8440,W,1,7,2.1,11,M,,M,,*5F
05/31/2014	01:10:06.532	$GPGGA,011007,2532.7314,N,07937.8443,W,1,7,2.1,11,M,,M,,*55
05/31/2014	01:10:07.542	$GPGGA,011008,2532.7334,N,07937.8446,W,1,7,2.1,11,M,,M,,*5D
05/31/2014	01:10:08.502	$GPGGA,011009,2532.7354,N,07937.8447,W,1,7,2.1,11,M,,M,,*5B
05/31/2014	01:10:09.502	$GPGGA,011010,2532.7374,N,07937.8450,W,1,7,2.1,11,M,,M,,*57
05/31/2014	01:10:10.533	$GPGGA,011011,2532.7393,N,07937.8451,W,1,7,2.1,11,M,,M,,*5E
05/31/2014	01:10:11.523	$GPGGA,011012,2532.7412,N,07937.8454,W,1,7,2.1,11,M,,M,,*56
05/31/2014	01:10:12.493	$GPGGA,011013,2532.7433,N,07937.8455,W,1,7,2.1,11,M,,M,,*55
05/31/2014	01:10:13.504	$GPGGA,011014,2532.7453,N,07937.8458,W,1,7,2.1,11,M,,M,,*59
05/31/2014	01:10:14.493	$GPGGA,011015,2532.7472,N,07937.8459,W,1,7,2.1,11,M,,M,,*5A
05/31/2014	01:10:15.503	$GPGGA,011016,2532.7491,N,07937.8462,W,1,7,2.1,11,M,,M,,*5C
05/31/2014	01:10:16.523	$GPGGA,011017,2532.7512,N,07937.8465,W,1,7,2.1,11,M,,M,,*50
05/31/2014	01:10:17.503	$GPGGA,011018,2532.7531,N,07937.8468,W,1,7,2.1,11,M,,M,,*53
05/31/2014	01:10:18.493	$GPGGA,011019,2532.7552,N,07937.8469,W,1,7,2.1,11,M,,M,,*56
05/31/2014	01:10:19.503	$GPGGA,011020,2532.7570,N,07937.8472,W,1,7,2.1,11,M,,M,,*56
05/31/2014	01:10:20.505	$GPGGA,011021,2532.7591,N,07937.8473,W,1,7,2.1,11,M,,M,,*59
05/31/2014	01:10:21.483	$GPGGA,011022,2532.7610,N,07937.8475,W,1,7,2.1,11,M,,M,,*56
05/31/2014	01:10:22.493	$GPGGA,011023,2532.7630,N,07937.8479,W,1,7,2.1,11,M,,M,,*59
05/31/2014	01:10:23.482	$GPGGA,011024,2532.7649,N,07937.8480,W,1,7,2.1,11,M,,M,,*56
05/31/2014	01:10:24.492	$GPGGA,011025,2532.7668,N,07937.8483,W,1,7,2.1,11,M,,M,,*57
05/31/2014	01:10:25.462	$GPGGA,011026,2532.7688,N,07937.8484,W,1,7,2.1,11,M,,M,,*5D
05/31/2014	01:10:26.462	$GPGGA,011027,2532.7707,N,07937.8487,W,1,7,2.1,11,M,,M,,*59
05/31/2014	01:10:27.493	$GPGGA,011028,2532.7726,N,07937.8490,W,1,7,2.1,11,M,,M,,*53
05/31/2014	01:10:28.483	$GPGGA,011029,2532.7744,N,07937.8491,W,1,7,2.1,11,M,,M,,*57
05/31/2014	01:10:29.463	$GPGGA,011030,2532.7764,N,07937.8493,W,1,7,2.1,11,M,,M,,*5F
05/31/2014	01:10:30.473	$GPGGA,011031,2532.7783,N,07937.8495,W,1,7,2.1,11,M,,M,,*51
05/31/2014	01:10:31.563	$GPGGA,011032,2532.7802,N,07937.8497,W,1,7,2.1,11,M,,M,,*56
05/31/2014	01:10:32.553	$GPGGA,011033,2532.7820,N,07937.8498,W,1,7,2.1,11,M,,M,,*58
05/31/2014	01:10:33.463	$GPGGA,011034,2532.7838,N,07937.8498,W,1,7,2.1,11,M,,M,,*56
05/31/2014	01:10:34.453	$GPGGA,011035,2532.7858,N,07937.8501,W,1,7,2.1,11,M,,M,,*50
05/31/2014	01:10:35.583	$GPGGA,011036,2532.7876,N,07937.8500,W,1,7,2.1,11,M,,M,,*5E
05/31/2014	01:10:36.583	$GPGGA,011037,2532.7894,N,07937.8501,W,1,6,2.5,11,M,,M,,*57
05/31/2014	01:10:37.563	$GPGGA,011038,2532.7913,N,07937.8501,W,1,6,2.5,11,M,,M,,*56
05/31/2014	01:10:38.543	$GPGGA,011039,2532.7931,N,07937.8501,W,1,6,2.5,11,M,,M,,*57
05/31/2014	01:10:39.563	$GPGGA,011040,2532.7949,N,07937.8501,W,1,6,2.5,12,M,,M,,*55
05/31/2014	01:10:40.532	$GPGGA,011041,2532.7968,N,07937.8501,W,1,6,2.5,12,M,,M,,*57
05/31/2014	01:10:41.542	$GPGGA,011042,2532.7984,N,07937.8497,W,1,6,2.5,12,M,,M,,*58
05/31/2014	01:10:42.542	$GPGGA,011043,2532.8003,N,07937.8498,W,1,7,2.1,12,M,,M,,*5A
05/31/2014	01:10:43.552	$GPGGA,011044,2532.8022,N,07937.8497,W,1,7,2.5,12,M,,M,,*55
05/31/2014	01:10:44.552	$GPGGA,011045,2532.8040,N,07937.8497,W,1,6,2.5,12,M,,M,,*51
05/31/2014	01:10:45.533	$GPGGA,011046,2532.8060,N,07937.8497,W,1,6,2.5,12,M,,M,,*50
05/31/2014	01:10:46.523	$GPGGA,011047,2532.8079,N,07937.8496,W,1,6,2.5,12,M,,M,,*58
05/31/2014	01:10:47.543	$GPGGA,011048,2532.8097,N,07937.8497,W,1,6,2.5,12,M,,M,,*56
05/31/2014	01:10:48.553	$GPGGA,011049,2532.8116,N,07937.8496,W,1,6,2.5,12,M,,M,,*5E
05/31/2014	01:10:49.523	$GPGGA,011050,2532.8134,N,07937.8495,W,1,6,2.5,12,M,,M,,*55
05/31/2014	01:10:50.533	$GPGGA,011051,2532.8151,N,07937.8492,W,1,6,2.5,13,M,,M,,*51
05/31/2014	01:10:51.523	$GPGGA,011052,2532.8167,N,07937.8490,W,1,6,2.1,13,M,,M,,*51
05/31/2014	01:10:52.533	$GPGGA,011053,2532.8187,N,07937.8489,W,1,7,2.1,13,M,,M,,*57
05/31/2014	01:10:53.523	$GPGGA,011054,2532.8203,N,07937.8486,W,1,7,2.1,13,M,,M,,*50
05/31/2014	01:10:54.503	$GPGGA,011055,2532.8221,N,07937.8485,W,1,7,2.1,13,M,,M,,*52
05/31/2014	01:10:55.523	$GPGGA,011056,2532.8239,N,07937.8482,W,1,7,2.1,13,M,,M,,*5F
05/31/2014	01:10:56.504	$GPGGA,011057,2532.8257,N,07937.8480,W,1,7,2.1,14,M,,M,,*53
05/31/2014	01:10:57.513	$GPGGA,011058,2532.8275,N,07937.8480,W,1,7,2.1,14,M,,M,,*5C
05/31/2014	01:10:58.522	$GPGGA,011059,2532.8293,N,07937.8478,W,1,6,2.5,14,M,,M,,*57
05/31/2014	01:10:59.532	$GPGGA,011100,2532.8311,N,07937.8476,W,1,6,2.1,14,M,,M,,*5B
05/31/2014	01:11:00.522	$GPGGA,011101,2532.8331,N,07937.8475,W,1,7,2.1,14,M,,M,,*5A
05/31/2014	01:11:01.492	$GPGGA,011102,2532.8349,N,07937.8474,W,1,7,2.5,15,M,,M,,*52
05/31/2014	01:11:02.493	$GPGGA,011103,2532.8368,N,07937.8473,W,1,6,2.5,15,M,,M,,*56
05/31/2014	01:11:03.513	$GPGGA,011104,2532.8386,N,07937.8470,W,1,6,2.5,15,M,,M,,*52
05/31/2014	01:11:04.503	$GPGGA,011105,2532.8402,N,07937.8467,W,1,7,2.1,15,M,,M,,*5B
05/31/2014	01:11:05.493	$GPGGA,011106,2532.8420,N,07937.8464,W,1,7,2.1,15,M,,M,,*5B
05/31/2014	01:11:06.513	$GPGGA,011107,2532.8438,N,07937.8460,W,1,7,2.1,15,M,,M,,*57
05/31/2014	01:11:07.493	$GPGGA,011108,2532.8456,N,07937.8457,W,1,7,2.1,15,M,,M,,*54
05/31/2014	01:11:08.503	$GPGGA,011109,2532.8473,N,07937.8454,W,1,7,2.1,15,M,,M,,*51
05/31/2014	01:11:09.483	$GPGGA,011110,2532.8491,N,07937.8451,W,1,7,2.1,15,M,,M,,*50
05/31/2014	01:11:10.493	$GPGGA,011111,2532.8508,N,07937.8447,W,1,7,2.1,16,M,,M,,*54
05/31/2014	01:11:11.493	$GPGGA,011112,2532.8526,N,07937.8444,W,1,7,2.1,16,M,,M,,*58
05/31/2014	01:11:12.463	$GPGGA,011113,2532.8542,N,07937.8439,W,1,7,2.1,16,M,,M,,*51
05/31/2014	01:11:13.563	$GPGGA,011114,2532.8560,N,07937.8435,W,1,7,2.1,16,M,,M,,*5A
05/31/2014	01:11:14.473	$GPGGA,011115,2532.8578,N,07937.8431,W,1,7,2.1,16,M,,M,,*56
05/31/2014	01:11:15.482	$GPGGA,011116,2532.8595,N,07937.8426,W,1,7,2.1,16,M,,M,,*50
05/31/2014	01:11:16.582	$GPGGA,011117,2532.8611,N,07937.8421,W,1,7,2.1,16,M,,M,,*59
05/31/2014	01:11:17.462	$GPGGA,011118,2532.8629,N,07937.8416,W,1,7,2.1,16,M,,M,,*59
05/31/2014	01:11:18.562	$GPGGA,011119,2532.8647,N,07937.8412,W,1,7,2.1,16,M,,M,,*54
05/31/2014	01:11:19.482	$GPGGA,011120,2532.8662,N,07937.8407,W,1,7,2.5,16,M,,M,,*59
05/31/2014	01:11:20.593	$GPGGA,011121,2532.8680,N,07937.8402,W,1,7,2.1,16,M,,M,,*55
05/31/2014	01:11:21.553	$GPGGA,011122,2532.8698,N,07937.8397,W,1,7,2.1,16,M,,M,,*54
05/31/2014	01:11:22.554	$GPGGA,011123,2532.8715,N,07937.8392,W,1,7,2.1,16,M,,M,,*54
05/31/2014	01:11:23.463	$GPGGA,011124,2532.8732,N,07937.8387,W,1,7,2.1,16,M,,M,,*52
05/31/2014	01:11:24.453	$GPGGA,011125,2532.8748,N,07937.8381,W,1,7,2.1,16,M,,M,,*58
05/31/2014	01:11:25.543	$GPGGA,011126,2532.8766,N,07937.8375,W,1,7,2.1,16,M,,M,,*5C
05/31/2014	01:11:26.553	$GPGGA,011127,2532.8783,N,07937.8369,W,1,7,2.1,16,M,,M,,*5B
05/31/2014	01:11:27.563	$GPGGA,011128,2532.8799,N,07937.8363,W,1,7,2.1,16,M,,M,,*55
05/31/2014	01:11:28.553	$GPGGA,011129,2532.8817,N,07937.8357,W,1,7,2.1,16,M,,M,,*5A
05/31/2014	01:11:29.533	$GPGGA,011130,2532.8835,N,07937.8351,W,1,7,2.1,16,M,,M,,*54
05/31/2014	01:11:30.553	$GPGGA,011131,2532.8852,N,07937.8345,W,1,7,2.1,16,M,,M,,*51
05/31/2014	01:11:31.553	$GPGGA,011132,2532.8870,N,07937.8339,W,1,7,2.1,16,M,,M,,*59
05/31/2014	01:11:32.544	$GPGGA,011133,2532.8886,N,07937.8333,W,1,7,2.1,15,M,,M,,*58
05/31/2014	01:11:33.542	$GPGGA,011134,2532.8904,N,07937.8327,W,1,7,2.1,15,M,,M,,*51
05/31/2014	01:11:34.532	$GPGGA,011135,2532.8922,N,07937.8320,W,1,7,2.1,15,M,,M,,*53
05/31/2014	01:11:35.542	$GPGGA,011136,2532.8940,N,07937.8314,W,1,7,2.1,15,M,,M,,*53
05/31/2014	01:11:36.542	$GPGGA,011137,2532.8958,N,07937.8307,W,1,7,2.1,15,M,,M,,*59
05/31/2014	01:11:37.523	$GPGGA,011138,2532.8976,N,07937.8302,W,1,7,2.1,15,M,,M,,*5F
05/31/2014	01:11:38.533	$GPGGA,011139,2532.8994,N,07937.8295,W,1,7,2.1,15,M,,M,,*5D
05/31/2014	01:11:39.523	$GPGGA,011140,2532.9012,N,07937.8289,W,1,7,2.1,15,M,,M,,*58
05/31/2014	01:11:40.553	$GPGGA,011141,2532.9032,N,07937.8284,W,1,7,2.1,15,M,,M,,*56
05/31/2014	01:11:41.523	$GPGGA,011142,2532.9051,N,07937.8278,W,1,7,2.1,15,M,,M,,*53
05/31/2014	01:11:42.513	$GPGGA,011143,2532.9069,N,07937.8273,W,1,7,2.1,15,M,,M,,*52
05/31/2014	01:11:43.523	$GPGGA,011144,2532.9088,N,07937.8267,W,1,7,2.1,15,M,,M,,*5F
05/31/2014	01:11:44.503	$GPGGA,011145,2532.9106,N,07937.8262,W,1,7,2.1,15,M,,M,,*5C
05/31/2014	01:11:45.503	$GPGGA,011146,2532.9126,N,07937.8258,W,1,7,2.1,15,M,,M,,*54
05/31/2014	01:11:46.543	$GPGGA,011147,2532.9145,N,07937.8253,W,1,7,2.1,15,M,,M,,*5B
05/31/2014	01:11:47.513	$GPGGA,011148,2532.9163,N,07937.8248,W,1,7,2.1,15,M,,M,,*5A
05/31/2014	01:11:48.533	$GPGGA,011149,2532.9182,N,07937.8243,W,1,7,2.1,15,M,,M,,*5F
