Software Version Number: 1	Data File Format Number: 1	Build Version Number: 1	Error Count Since VI Started: 0	Manufacturer: Raytheon	 Model Number: RayMarine 120	 S/N: 	 Cal Date: 	 Wind Direction Offset: 0.00	 Slope (M)1: 0.00	 Offset (B)1: 0.00	 Slope (M)2: 0.00	 Offset (B)2: 0.00	 Slope (M)3: 0.00	 Offset (B)3: 0.00	 Slope (M)4: 0.00	 Offset (B)4: 0.00	 Slope (M)5: 0.00	 Offset (B)5: 0.00	 Slope (M)6: 0.00	 Offset (B)6: 0.00
Computer Date	Computer Time	GGA String
06/07/2014	15:00:00.434	$GPGGA,150009,2426.7296,N,08105.6985,W,1,8,1.7,12,M,,M,,*56
06/07/2014	15:00:01.424	$GPGGA,150010,2426.7315,N,08105.6963,W,1,8,1.7,12,M,,M,,*5C
06/07/2014	15:00:02.444	$GPGGA,150011,2426.7334,N,08105.6941,W,1,8,1.7,12,M,,M,,*5E
06/07/2014	15:00:03.454	$GPGGA,150012,2426.7352,N,08105.6919,W,1,8,1.7,12,M,,M,,*50
06/07/2014	15:00:04.474	$GPGGA,150013,2426.7372,N,08105.6896,W,1,7,1.9,12,M,,M,,*54
06/07/2014	15:00:05.453	$GPGGA,150014,2426.7392,N,08105.6873,W,1,7,1.9,12,M,,M,,*56
06/07/2014	15:00:06.453	$GPGGA,150015,2426.7412,N,08105.6850,W,1,7,1.9,12,M,,M,,*59
06/07/2014	15:00:07.473	$GPGGA,150016,2426.7431,N,08105.6827,W,1,7,1.7,12,M,,M,,*55
06/07/2014	15:00:08.473	$GPGGA,150017,2426.7449,N,08105.6806,W,1,8,1.7,12,M,,M,,*57
06/07/2014	15:00:09.493	$GPGGA,150018,2426.7467,N,08105.6785,W,1,8,1.7,12,M,,M,,*50
06/07/2014	15:00:10.523	$GPGGA,150019,2426.7486,N,08105.6763,W,1,8,1.7,12,M,,M,,*56
06/07/2014	15:00:11.524	$GPGGA,150020,2426.7504,N,08105.6741,W,1,8,1.9,12,M,,M,,*59
06/07/2014	15:00:12.523	$GPGGA,150021,2426.7524,N,08105.6719,W,1,8,1.7,12,M,,M,,*59
06/07/2014	15:00:13.511	$GPGGA,150022,2426.7542,N,08105.6698,W,1,8,1.9,12,M,,M,,*5C
06/07/2014	15:00:14.643	$GPGGA,150023,2426.7561,N,08105.6673,W,1,8,1.7,12,M,,M,,*57
06/07/2014	15:00:15.652	$GPGGA,150024,2426.7580,N,08105.6652,W,1,8,1.7,12,M,,M,,*5C
06/07/2014	15:00:16.532	$GPGGA,150025,2426.7601,N,08105.6630,W,1,8,1.7,12,M,,M,,*53
06/07/2014	15:00:17.662	$GPGGA,150026,2426.7619,N,08105.6608,W,1,8,1.7,11,M,,M,,*51
06/07/2014	15:00:18.682	$GPGGA,150027,2426.7639,N,08105.6587,W,1,8,1.7,11,M,,M,,*56
06/07/2014	15:00:19.692	$GPGGA,150028,2426.7658,N,08105.6566,W,1,8,1.7,11,M,,M,,*51
06/07/2014	15:00:20.581	$GPGGA,150029,2426.7677,N,08105.6545,W,1,8,1.7,11,M,,M,,*5C
06/07/2014	15:00:21.671	$GPGGA,150030,2426.7695,N,08105.6525,W,1,8,1.7,11,M,,M,,*5E
06/07/2014	15:00:22.572	$GPGGA,150031,2426.7716,N,08105.6505,W,1,8,1.7,11,M,,M,,*57
06/07/2014	15:00:23.722	$GPGGA,150032,2426.7735,N,08105.6484,W,1,8,1.7,11,M,,M,,*5D
06/07/2014	15:00:24.721	$GPGGA,150033,2426.7755,N,08105.6464,W,1,8,1.7,11,M,,M,,*54
06/07/2014	15:00:25.721	$GPGGA,150034,2426.7775,N,08105.6444,W,1,8,1.7,11,M,,M,,*53
06/07/2014	15:00:26.721	$GPGGA,150035,2426.7795,N,08105.6424,W,1,8,1.7,11,M,,M,,*5A
06/07/2014	15:00:27.731	$GPGGA,150036,2426.7814,N,08105.6404,W,1,8,1.7,11,M,,M,,*5D
06/07/2014	15:00:28.741	$GPGGA,150037,2426.7836,N,08105.6385,W,1,8,1.7,11,M,,M,,*52
06/07/2014	15:00:29.162	$GPGGA,150038,2426.7856,N,08105.6366,W,1,8,1.7,11,M,,M,,*56
06/07/2014	15:00:30.171	$GPGGA,150039,2426.7878,N,08105.6346,W,1,8,1.9,11,M,,M,,*57
06/07/2014	15:00:31.166	$GPGGA,150040,2426.7897,N,08105.6328,W,1,8,2.1,11,M,,M,,*5B
06/07/2014	15:00:32.198	$GPGGA,150041,2426.7918,N,08105.6310,W,1,7,2.1,11,M,,M,,*58
06/07/2014	15:00:33.176	$GPGGA,150042,2426.7939,N,08105.6291,W,1,7,2.1,11,M,,M,,*50
06/07/2014	15:00:34.217	$GPGGA,150043,2426.7959,N,08105.6272,W,1,7,1.7,11,M,,M,,*5F
06/07/2014	15:00:35.236	$GPGGA,150044,2426.7980,N,08105.6255,W,1,7,1.7,11,M,,M,,*59
06/07/2014	15:00:36.216	$GPGGA,150045,2426.8001,N,08105.6236,W,1,8,1.7,11,M,,M,,*5D
06/07/2014	15:00:37.216	$GPGGA,150046,2426.8022,N,08105.6217,W,1,8,1.7,11,M,,M,,*5C
06/07/2014	15:00:38.247	$GPGGA,150047,2426.8044,N,08105.6200,W,1,8,1.7,11,M,,M,,*5B
06/07/2014	15:00:39.266	$GPGGA,150048,2426.8066,N,08105.6182,W,1,8,1.7,12,M,,M,,*5E
06/07/2014	15:00:40.245	$GPGGA,150049,2426.8088,N,08105.6165,W,1,8,1.7,12,M,,M,,*56
06/07/2014	15:00:41.245	$GPGGA,150050,2426.8110,N,08105.6148,W,1,8,1.7,12,M,,M,,*51
06/07/2014	15:00:42.265	$GPGGA,150051,2426.8132,N,08105.6131,W,1,8,1.7,12,M,,M,,*5E
06/07/2014	15:00:43.285	$GPGGA,150052,2426.8154,N,08105.6115,W,1,8,1.7,12,M,,M,,*5B
06/07/2014	15:00:44.295	$GPGGA,150053,2426.8178,N,08105.6099,W,1,8,1.7,12,M,,M,,*51
06/07/2014	15:00:45.265	$GPGGA,150054,2426.8200,N,08105.6083,W,1,8,1.7,12,M,,M,,*51
06/07/2014	15:00:46.305	$GPGGA,150055,2426.8223,N,08105.6067,W,1,8,1.7,13,M,,M,,*5A
06/07/2014	15:00:47.295	$GPGGA,150056,2426.8246,N,08105.6051,W,1,8,1.7,13,M,,M,,*5F
06/07/2014	15:00:48.324	$GPGGA,150057,2426.8269,N,08105.6034,W,1,8,1.7,13,M,,M,,*50
06/07/2014	15:00:49.303	$GPGGA,150058,2426.8291,N,08105.6019,W,1,8,1.7,13,M,,M,,*57
06/07/2014	15:00:50.313	$GPGGA,150059,2426.8315,N,08105.6003,W,1,8,1.7,13,M,,M,,*50
06/07/2014	15:00:51.343	$GPGGA,150100,2426.8338,N,08105.5987,W,1,8,1.7,13,M,,M,,*54
06/07/2014	15:00:52.344	$GPGGA,150101,2426.8360,N,08105.5971,W,1,8,1.7,13,M,,M,,*51
06/07/2014	15:00:53.333	$GPGGA,150102,2426.8384,N,08105.5956,W,1,8,1.7,13,M,,M,,*5D
06/07/2014	15:00:54.363	$GPGGA,150103,2426.8407,N,08105.5940,W,1,8,1.7,14,M,,M,,*50
06/07/2014	15:00:55.373	$GPGGA,150104,2426.8429,N,08105.5924,W,1,8,1.7,14,M,,M,,*59
06/07/2014	15:00:56.342	$GPGGA,150105,2426.8453,N,08105.5909,W,1,8,1.7,14,M,,M,,*5A
06/07/2014	15:00:57.368	$GPGGA,150106,2426.8475,N,08105.5893,W,1,8,1.7,14,M,,M,,*5F
06/07/2014	15:00:58.383	$GPGGA,150107,2426.8497,N,08105.5877,W,1,8,1.7,14,M,,M,,*58
06/07/2014	15:00:59.368	$GPGGA,150108,2426.8521,N,08105.5861,W,1,8,1.7,14,M,,M,,*5C
06/07/2014	15:01:00.364	$GPGGA,150109,2426.8544,N,08105.5846,W,1,8,1.7,14,M,,M,,*5B
06/07/2014	15:01:01.389	$GPGGA,150110,2426.8568,N,08105.5829,W,1,8,1.7,14,M,,M,,*54
06/07/2014	15:01:02.394	$GPGGA,150111,2426.8590,N,08105.5813,W,1,8,1.7,14,M,,M,,*5B
06/07/2014	15:01:03.500	$GPGGA,150112,2426.8613,N,08105.5797,W,1,8,1.7,14,M,,M,,*53
06/07/2014	15:01:04.394	$GPGGA,150113,2426.8635,N,08105.5781,W,1,8,1.7,14,M,,M,,*51
06/07/2014	15:01:05.499	$GPGGA,150114,2426.8658,N,08105.5766,W,1,8,1.7,14,M,,M,,*54
06/07/2014	15:01:06.386	$GPGGA,150115,2426.8680,N,08105.5750,W,1,7,1.7,14,M,,M,,*5A
06/07/2014	15:01:07.419	$GPGGA,150116,2426.8702,N,08105.5735,W,1,7,1.7,14,M,,M,,*51
06/07/2014	15:01:08.505	$GPGGA,150117,2426.8724,N,08105.5719,W,1,8,1.7,14,M,,M,,*55
06/07/2014	15:01:09.409	$GPGGA,150118,2426.8746,N,08105.5704,W,1,8,2.1,14,M,,M,,*57
06/07/2014	15:01:10.409	$GPGGA,150119,2426.8768,N,08105.5688,W,1,7,1.7,14,M,,M,,*55
06/07/2014	15:01:11.511	$GPGGA,150120,2426.8789,N,08105.5670,W,1,7,1.7,14,M,,M,,*57
06/07/2014	15:01:12.516	$GPGGA,150121,2426.8811,N,08105.5655,W,1,8,2.1,14,M,,M,,*55
06/07/2014	15:01:13.531	$GPGGA,150122,2426.8833,N,08105.5638,W,1,8,2.1,14,M,,M,,*5D
06/07/2014	15:01:14.506	$GPGGA,150123,2426.8855,N,08105.5622,W,1,7,1.7,14,M,,M,,*5D
06/07/2014	15:01:15.521	$GPGGA,150124,2426.8877,N,08105.5607,W,1,7,1.7,14,M,,M,,*5D
06/07/2014	15:01:16.516	$GPGGA,150125,2426.8898,N,08105.5590,W,1,8,1.7,14,M,,M,,*5F
06/07/2014	15:01:17.511	$GPGGA,150126,2426.8919,N,08105.5570,W,1,8,2.1,14,M,,M,,*5F
06/07/2014	15:01:18.549	$GPGGA,150127,2426.8940,N,08105.5552,W,1,8,1.7,14,M,,M,,*57
06/07/2014	15:01:19.522	$GPGGA,150128,2426.8960,N,08105.5535,W,1,8,1.9,13,M,,M,,*52
06/07/2014	15:01:20.549	$GPGGA,150129,2426.8983,N,08105.5518,W,1,7,1.9,13,M,,M,,*5E
06/07/2014	15:01:21.542	$GPGGA,150130,2426.9003,N,08105.5499,W,1,7,1.9,13,M,,M,,*5E
06/07/2014	15:01:22.538	$GPGGA,150131,2426.9025,N,08105.5482,W,1,7,2.4,13,M,,M,,*5F
06/07/2014	15:01:23.541	$GPGGA,150132,2426.9046,N,08105.5465,W,1,7,2.4,13,M,,M,,*50
06/07/2014	15:01:24.557	$GPGGA,150133,2426.9067,N,08105.5445,W,1,6,2.4,13,M,,M,,*51
06/07/2014	15:01:25.542	$GPGGA,150134,2426.9089,N,08105.5427,W,1,6,1.9,13,M,,M,,*5C
06/07/2014	15:01:26.537	$GPGGA,150135,2426.9111,N,08105.5408,W,1,6,2.4,13,M,,M,,*5E
06/07/2014	15:01:27.552	$GPGGA,150136,2426.9130,N,08105.5389,W,1,6,1.9,13,M,,M,,*5E
06/07/2014	15:01:28.557	$GPGGA,150137,2426.9151,N,08105.5370,W,1,7,1.9,13,M,,M,,*5F
06/07/2014	15:01:29.123	$GPGGA,150138,2426.9173,N,08105.5353,W,1,7,1.9,13,M,,M,,*51
06/07/2014	15:01:30.138	$GPGGA,150139,2426.9195,N,08105.5334,W,1,7,1.9,13,M,,M,,*59
06/07/2014	15:01:31.133	$GPGGA,150140,2426.9218,N,08105.5316,W,1,7,1.9,13,M,,M,,*51
06/07/2014	15:01:32.149	$GPGGA,150141,2426.9240,N,08105.5299,W,1,6,2.4,13,M,,M,,*54
06/07/2014	15:01:33.114	$GPGGA,150142,2426.9259,N,08105.5281,W,1,6,2.4,13,M,,M,,*56
06/07/2014	15:01:34.129	$GPGGA,150143,2426.9281,N,08105.5263,W,1,8,1.7,13,M,,M,,*50
06/07/2014	15:01:35.154	$GPGGA,150144,2426.9303,N,08105.5245,W,1,8,2.1,13,M,,M,,*5D
06/07/2014	15:01:36.160	$GPGGA,150145,2426.9325,N,08105.5228,W,1,8,1.7,13,M,,M,,*56
06/07/2014	15:01:37.134	$GPGGA,150146,2426.9348,N,08105.5210,W,1,8,1.7,13,M,,M,,*55
06/07/2014	15:01:38.141	$GPGGA,150147,2426.9370,N,08105.5192,W,1,8,1.7,12,M,,M,,*57
06/07/2014	15:01:39.145	$GPGGA,150148,2426.9392,N,08105.5175,W,1,8,2.1,12,M,,M,,*58
06/07/2014	15:01:40.150	$GPGGA,150149,2426.9414,N,08105.5158,W,1,7,2.1,12,M,,M,,*50
06/07/2014	15:01:41.134	$GPGGA,150150,2426.9431,N,08105.5130,W,1,7,2.1,12,M,,M,,*51
06/07/2014	15:01:42.180	$GPGGA,150151,2426.9451,N,08105.5111,W,1,8,1.7,12,M,,M,,*5F
06/07/2014	15:01:43.275	$GPGGA,150152,2426.9473,N,08105.5093,W,1,8,1.7,13,M,,M,,*56
06/07/2014	15:01:44.150	$GPGGA,150153,2426.9494,N,08105.5075,W,1,8,1.7,13,M,,M,,*56
06/07/2014	15:01:45.165	$GPGGA,150154,2426.9516,N,08105.5057,W,1,8,1.7,13,M,,M,,*5A
06/07/2014	15:01:46.150	$GPGGA,150155,2426.9538,N,08105.5040,W,1,8,1.7,13,M,,M,,*51
06/07/2014	15:01:47.185	$GPGGA,150156,2426.9561,N,08105.5023,W,1,8,1.7,13,M,,M,,*5B
06/07/2014	15:01:48.181	$GPGGA,150157,2426.9584,N,08105.5007,W,1,8,1.7,13,M,,M,,*57
06/07/2014	15:01:49.166	$GPGGA,150158,2426.9606,N,08105.4990,W,1,8,1.7,13,M,,M,,*57
06/07/2014	15:01:50.162	$GPGGA,150159,2426.9628,N,08105.4973,W,1,8,1.7,13,M,,M,,*57
06/07/2014	15:01:51.307	$GPGGA,150200,2426.9650,N,08105.4957,W,1,8,1.7,14,M,,M,,*56
06/07/2014	15:01:52.191	$GPGGA,150201,2426.9674,N,08105.4941,W,1,7,2.1,14,M,,M,,*5C
06/07/2014	15:01:53.277	$GPGGA,150202,2426.9696,N,08105.4925,W,1,7,1.7,14,M,,M,,*54
06/07/2014	15:01:54.183	$GPGGA,150203,2426.9718,N,08105.4908,W,1,8,1.7,14,M,,M,,*52
06/07/2014	15:01:55.296	$GPGGA,150204,2426.9740,N,08105.4892,W,1,8,1.7,14,M,,M,,*5A
06/07/2014	15:01:56.305	$GPGGA,150205,2426.9762,N,08105.4875,W,1,8,1.7,14,M,,M,,*52
06/07/2014	15:01:57.188	$GPGGA,150206,2426.9786,N,08105.4858,W,1,8,1.7,14,M,,M,,*54
06/07/2014	15:01:58.302	$GPGGA,150207,2426.9808,N,08105.4842,W,1,8,1.7,14,M,,M,,*57
06/07/2014	15:02:00.734	$GPGGA,150209,2426.9852,N,08105.4808,W,1,8,1.7,14,M,,M,,*58
06/07/2014	15:02:01.308	$GPGGA,150210,2426.9876,N,08105.4792,W,1,8,1.7,14,M,,M,,*5A
06/07/2014	15:02:02.313	$GPGGA,150211,2426.9899,N,08105.4776,W,1,8,1.7,14,M,,M,,*50
06/07/2014	15:02:03.328	$GPGGA,150212,2426.9921,N,08105.4760,W,1,8,1.7,14,M,,M,,*56
06/07/2014	15:02:04.323	$GPGGA,150213,2426.9944,N,08105.4744,W,1,8,1.7,14,M,,M,,*52
06/07/2014	15:02:05.318	$GPGGA,150214,2426.9967,N,08105.4728,W,1,8,1.7,14,M,,M,,*5E
06/07/2014	15:02:06.323	$GPGGA,150215,2426.9989,N,08105.4712,W,1,8,1.7,14,M,,M,,*56
06/07/2014	15:02:07.339	$GPGGA,150216,2427.0011,N,08105.4695,W,1,8,1.7,14,M,,M,,*5B
06/07/2014	15:02:08.334	$GPGGA,150217,2427.0035,N,08105.4680,W,1,8,1.7,14,M,,M,,*58
06/07/2014	15:02:09.329	$GPGGA,150218,2427.0058,N,08105.4664,W,1,8,1.7,14,M,,M,,*56
06/07/2014	15:02:10.344	$GPGGA,150219,2427.0082,N,08105.4648,W,1,7,2.1,14,M,,M,,*54
06/07/2014	15:02:11.349	$GPGGA,150220,2427.0105,N,08105.4633,W,1,7,1.7,14,M,,M,,*59
06/07/2014	15:02:12.355	$GPGGA,150221,2427.0129,N,08105.4618,W,1,8,1.7,14,M,,M,,*50
06/07/2014	15:02:13.330	$GPGGA,150222,2427.0152,N,08105.4601,W,1,8,2.1,14,M,,M,,*52
06/07/2014	15:02:14.335	$GPGGA,150223,2427.0173,N,08105.4583,W,1,8,1.7,14,M,,M,,*5C
06/07/2014	15:02:15.369	$GPGGA,150224,2427.0197,N,08105.4567,W,1,8,1.7,14,M,,M,,*5B
06/07/2014	15:02:16.374	$GPGGA,150225,2427.0219,N,08105.4550,W,1,8,1.7,14,M,,M,,*5B
06/07/2014	15:02:17.339	$GPGGA,150226,2427.0242,N,08105.4533,W,1,8,1.7,14,M,,M,,*53
06/07/2014	15:02:18.345	$GPGGA,150227,2427.0264,N,08105.4516,W,1,8,1.7,14,M,,M,,*51
06/07/2014	15:02:19.370	$GPGGA,150228,2427.0286,N,08105.4499,W,1,8,1.7,14,M,,M,,*54
06/07/2014	15:02:20.385	$GPGGA,150229,2427.0310,N,08105.4482,W,1,8,1.7,13,M,,M,,*56
06/07/2014	15:02:21.350	$GPGGA,150230,2427.0332,N,08105.4464,W,1,8,1.7,13,M,,M,,*56
06/07/2014	15:02:22.365	$GPGGA,150231,2427.0354,N,08105.4447,W,1,8,1.7,13,M,,M,,*56
06/07/2014	15:02:23.381	$GPGGA,150232,2427.0376,N,08105.4427,W,1,8,2.1,13,M,,M,,*56
06/07/2014	15:02:24.396	$GPGGA,150233,2427.0398,N,08105.4409,W,1,8,1.7,13,M,,M,,*5E
06/07/2014	15:02:25.381	$GPGGA,150234,2427.0421,N,08105.4392,W,1,8,1.7,13,M,,M,,*59
06/07/2014	15:02:26.376	$GPGGA,150235,2427.0441,N,08105.4371,W,1,7,2.1,13,M,,M,,*59
06/07/2014	15:02:27.502	$GPGGA,150236,2427.0462,N,08105.4352,W,1,7,1.8,13,M,,M,,*50
06/07/2014	15:02:28.397	$GPGGA,150237,2427.0484,N,08105.4334,W,1,8,1.8,13,M,,M,,*56
06/07/2014	15:02:29.088	$GPGGA,150238,2427.0506,N,08105.4316,W,1,8,1.8,13,M,,M,,*52
06/07/2014	15:02:30.088	$GPGGA,150239,2427.0527,N,08105.4298,W,1,8,1.8,13,M,,M,,*57
06/07/2014	15:02:31.092	$GPGGA,150240,2427.0549,N,08105.4281,W,1,8,1.8,13,M,,M,,*59
06/07/2014	15:02:32.082	$GPGGA,150241,2427.0571,N,08105.4264,W,1,8,1.8,14,M,,M,,*5F
06/07/2014	15:02:33.199	$GPGGA,150242,2427.0589,N,08105.4239,W,1,8,2.1,14,M,,M,,*59
06/07/2014	15:02:34.115	$GPGGA,150243,2427.0611,N,08105.4223,W,1,8,1.8,14,M,,M,,*5B
06/07/2014	15:02:35.222	$GPGGA,150244,2427.0634,N,08105.4205,W,1,8,1.8,14,M,,M,,*5F
06/07/2014	15:02:36.209	$GPGGA,150245,2427.0656,N,08105.4187,W,1,8,1.8,14,M,,M,,*53
06/07/2014	15:02:37.100	$GPGGA,150246,2427.0678,N,08105.4170,W,1,8,1.8,14,M,,M,,*54
06/07/2014	15:02:38.198	$GPGGA,150247,2427.0700,N,08105.4154,W,1,8,1.8,14,M,,M,,*5D
06/07/2014	15:02:39.212	$GPGGA,150248,2427.0722,N,08105.4137,W,1,8,1.8,14,M,,M,,*57
06/07/2014	15:02:40.217	$GPGGA,150249,2427.0744,N,08105.4120,W,1,8,1.8,14,M,,M,,*50
06/07/2014	15:02:41.223	$GPGGA,150250,2427.0766,N,08105.4102,W,1,8,1.8,14,M,,M,,*58
06/07/2014	15:02:42.238	$GPGGA,150251,2427.0788,N,08105.4085,W,1,8,1.8,14,M,,M,,*57
06/07/2014	15:02:43.224	$GPGGA,150252,2427.0812,N,08105.4067,W,1,8,1.8,14,M,,M,,*54
06/07/2014	15:02:44.230	$GPGGA,150253,2427.0833,N,08105.4049,W,1,8,1.8,14,M,,M,,*5A
06/07/2014	15:02:45.223	$GPGGA,150254,2427.0856,N,08105.4033,W,1,8,1.8,15,M,,M,,*52
06/07/2014	15:02:46.229	$GPGGA,150255,2427.0878,N,08105.4016,W,1,7,2.1,15,M,,M,,*5D
06/07/2014	15:02:47.244	$GPGGA,150256,2427.0902,N,08105.4000,W,1,7,1.8,15,M,,M,,*5F
06/07/2014	15:02:48.249	$GPGGA,150257,2427.0925,N,08105.3984,W,1,7,2.1,15,M,,M,,*53
06/07/2014	15:02:49.234	$GPGGA,150258,2427.0946,N,08105.3966,W,1,7,2.1,15,M,,M,,*55
06/07/2014	15:02:50.248	$GPGGA,150259,2427.0968,N,08105.3947,W,1,8,1.8,15,M,,M,,*5E
06/07/2014	15:02:51.264	$GPGGA,150300,2427.0990,N,08105.3932,W,1,8,1.8,15,M,,M,,*56
06/07/2014	15:02:52.249	$GPGGA,150301,2427.1012,N,08105.3915,W,1,8,1.8,15,M,,M,,*50
06/07/2014	15:02:53.254	$GPGGA,150302,2427.1033,N,08105.3898,W,1,8,1.8,15,M,,M,,*54
06/07/2014	15:02:54.249	$GPGGA,150303,2427.1055,N,08105.3880,W,1,8,1.8,15,M,,M,,*5C
06/07/2014	15:02:55.264	$GPGGA,150304,2427.1079,N,08105.3862,W,1,8,1.8,15,M,,M,,*59
06/07/2014	15:02:56.280	$GPGGA,150305,2427.1101,N,08105.3846,W,1,8,1.8,15,M,,M,,*50
06/07/2014	15:02:57.255	$GPGGA,150306,2427.1123,N,08105.3829,W,1,8,1.8,15,M,,M,,*5A
06/07/2014	15:02:58.270	$GPGGA,150307,2427.1145,N,08105.3812,W,1,8,1.8,15,M,,M,,*53
06/07/2014	15:02:59.285	$GPGGA,150308,2427.1167,N,08105.3795,W,1,8,1.8,15,M,,M,,*5C
06/07/2014	15:03:00.290	$GPGGA,150309,2427.1191,N,08105.3778,W,1,8,1.8,15,M,,M,,*57
06/07/2014	15:03:01.265	$GPGGA,150310,2427.1213,N,08105.3761,W,1,8,1.8,15,M,,M,,*5E
06/07/2014	15:03:02.301	$GPGGA,150311,2427.1235,N,08105.3744,W,1,8,1.8,15,M,,M,,*5C
06/07/2014	15:03:03.296	$GPGGA,150312,2427.1257,N,08105.3726,W,1,8,1.8,15,M,,M,,*5F
06/07/2014	15:03:04.301	$GPGGA,150313,2427.1279,N,08105.3710,W,1,8,1.8,15,M,,M,,*57
06/07/2014	15:03:05.277	$GPGGA,150314,2427.1301,N,08105.3692,W,1,8,1.8,15,M,,M,,*55
06/07/2014	15:03:06.312	$GPGGA,150315,2427.1324,N,08105.3675,W,1,8,1.8,15,M,,M,,*5A
06/07/2014	15:03:07.307	$GPGGA,150316,2427.1347,N,08105.3658,W,1,8,1.8,15,M,,M,,*53
06/07/2014	15:03:08.297	$GPGGA,150317,2427.1369,N,08105.3642,W,1,8,1.8,15,M,,M,,*55
06/07/2014	15:03:09.367	$GPGGA,150318,2427.1391,N,08105.3625,W,1,8,1.8,15,M,,M,,*5C
06/07/2014	15:03:10.426	$GPGGA,150319,2427.1413,N,08105.3608,W,1,8,1.8,15,M,,M,,*5F
06/07/2014	15:03:11.497	$GPGGA,150320,2427.1437,N,08105.3591,W,1,8,1.8,15,M,,M,,*50
06/07/2014	15:03:12.716	$GPGGA,150321,2427.1460,N,08105.3576,W,1,7,1.8,15,M,,M,,*55
06/07/2014	15:03:13.594	$GPGGA,150322,2427.1481,N,08105.3559,W,1,7,1.8,15,M,,M,,*54
06/07/2014	15:03:14.664	$GPGGA,150323,2427.1505,N,08105.3544,W,1,8,1.8,15,M,,M,,*5B
06/07/2014	15:03:15.862	$GPGGA,150324,2427.1527,N,08105.3527,W,1,8,2.1,15,M,,M,,*53
06/07/2014	15:03:16.782	$GPGGA,150325,2427.1550,N,08105.3510,W,1,8,1.8,15,M,,M,,*5C
06/07/2014	15:03:17.831	$GPGGA,150326,2427.1572,N,08105.3494,W,1,8,1.8,15,M,,M,,*52
06/07/2014	15:03:18.880	$GPGGA,150327,2427.1596,N,08105.3478,W,1,8,1.8,15,M,,M,,*5B
06/07/2014	15:03:20.087	$GPGGA,150328,2427.1618,N,08105.3461,W,1,8,1.8,15,M,,M,,*59
06/07/2014	15:03:20.988	$GPGGA,150329,2427.1640,N,08105.3445,W,1,8,1.8,15,M,,M,,*53
06/07/2014	15:03:22.053	$GPGGA,150330,2427.1664,N,08105.3429,W,1,8,1.8,15,M,,M,,*57
06/07/2014	15:03:23.104	$GPGGA,150331,2427.1686,N,08105.3412,W,1,8,1.8,15,M,,M,,*52
06/07/2014	15:03:24.272	$GPGGA,150332,2427.1709,N,08105.3396,W,1,8,1.8,15,M,,M,,*5C
06/07/2014	15:03:25.428	$GPGGA,150333,2427.1730,N,08105.3379,W,1,8,1.8,15,M,,M,,*56
06/07/2014	15:03:26.285	$GPGGA,150334,2427.1754,N,08105.3364,W,1,8,1.8,15,M,,M,,*5F
06/07/2014	15:03:27.332	$GPGGA,150335,2427.1777,N,08105.3347,W,1,8,1.8,15,M,,M,,*5E
06/07/2014	15:03:28.404	$GPGGA,150336,2427.1799,N,08105.3330,W,1,8,1.8,15,M,,M,,*5D
06/07/2014	15:03:29.652	$GPGGA,150337,2427.1821,N,08105.3314,W,1,8,1.8,15,M,,M,,*56
06/07/2014	15:03:29.198	$GPGGA,150338,2427.1845,N,08105.3297,W,1,8,1.8,15,M,,M,,*51
06/07/2014	15:03:30.332	$GPGGA,150339,2427.1868,N,08105.3280,W,1,8,1.8,15,M,,M,,*59
06/07/2014	15:03:31.338	$GPGGA,150340,2427.1889,N,08105.3263,W,1,8,1.8,15,M,,M,,*55
06/07/2014	15:03:32.429	$GPGGA,150341,2427.1913,N,08105.3246,W,1,8,1.8,15,M,,M,,*51
06/07/2014	15:03:33.426	$GPGGA,150342,2427.1935,N,08105.3229,W,1,8,1.8,15,M,,M,,*5F
06/07/2014	15:03:34.558	$GPGGA,150343,2427.1957,N,08105.3212,W,1,8,1.8,15,M,,M,,*52
06/07/2014	15:03:35.543	$GPGGA,150344,2427.1978,N,08105.3195,W,1,8,1.8,15,M,,M,,*54
06/07/2014	15:03:36.677	$GPGGA,150345,2427.2000,N,08105.3179,W,1,8,1.8,15,M,,M,,*52
06/07/2014	15:03:37.662	$GPGGA,150346,2427.2020,N,08105.3163,W,1,8,2.1,15,M,,M,,*52
06/07/2014	15:03:38.795	$GPGGA,150347,2427.2041,N,08105.3146,W,1,8,1.8,15,M,,M,,*59
06/07/2014	15:03:39.750	$GPGGA,150348,2427.2061,N,08105.3128,W,1,8,1.8,15,M,,M,,*5C
06/07/2014	15:03:40.903	$GPGGA,150349,2427.2080,N,08105.3110,W,1,8,1.8,15,M,,M,,*59
06/07/2014	15:03:41.846	$GPGGA,150350,2427.2099,N,08105.3090,W,1,8,1.8,15,M,,M,,*50
06/07/2014	15:03:43.022	$GPGGA,150351,2427.2117,N,08105.3071,W,1,8,1.8,15,M,,M,,*59
06/07/2014	15:03:43.974	$GPGGA,150352,2427.2135,N,08105.3051,W,1,8,1.8,15,M,,M,,*58
06/07/2014	15:03:45.140	$GPGGA,150353,2427.2153,N,08105.3031,W,1,8,1.8,15,M,,M,,*5F
06/07/2014	15:03:46.104	$GPGGA,150354,2427.2171,N,08105.3011,W,1,8,1.8,15,M,,M,,*5A
06/07/2014	15:03:47.207	$GPGGA,150355,2427.2189,N,08105.2991,W,1,8,1.8,15,M,,M,,*5C
06/07/2014	15:03:48.233	$GPGGA,150356,2427.2206,N,08105.2970,W,1,8,1.8,15,M,,M,,*54
06/07/2014	15:03:49.356	$GPGGA,150357,2427.2222,N,08105.2950,W,1,8,1.8,14,M,,M,,*50
06/07/2014	15:03:50.298	$GPGGA,150358,2427.2238,N,08105.2929,W,1,8,1.8,14,M,,M,,*5A
06/07/2014	15:03:51.358	$GPGGA,150359,2427.2253,N,08105.2907,W,1,8,1.8,14,M,,M,,*5A
06/07/2014	15:03:52.474	$GPGGA,150400,2427.2268,N,08105.2886,W,1,8,1.9,14,M,,M,,*50
06/07/2014	15:03:53.603	$GPGGA,150401,2427.2280,N,08105.2866,W,1,7,1.9,14,M,,M,,*56
06/07/2014	15:03:54.567	$GPGGA,150402,2427.2294,N,08105.2845,W,1,7,1.8,14,M,,M,,*50
06/07/2014	15:03:55.669	$GPGGA,150403,2427.2307,N,08105.2824,W,1,8,1.8,14,M,,M,,*52
06/07/2014	15:03:56.697	$GPGGA,150404,2427.2319,N,08105.2803,W,1,8,1.8,14,M,,M,,*5F
06/07/2014	15:03:57.703	$GPGGA,150405,2427.2330,N,08105.2781,W,1,8,1.8,14,M,,M,,*50
06/07/2014	15:03:58.752	$GPGGA,150406,2427.2341,N,08105.2761,W,1,8,1.8,14,M,,M,,*5B
06/07/2014	15:03:59.906	$GPGGA,150407,2427.2352,N,08105.2739,W,1,8,1.9,14,M,,M,,*54
06/07/2014	15:04:01.018	$GPGGA,150408,2427.2363,N,08105.2718,W,1,8,1.8,14,M,,M,,*5B
06/07/2014	15:04:02.015	$GPGGA,150409,2427.2373,N,08105.2698,W,1,8,1.8,14,M,,M,,*52
06/07/2014	15:04:03.105	$GPGGA,150410,2427.2381,N,08105.2678,W,1,8,1.8,14,M,,M,,*59
06/07/2014	15:04:04.134	$GPGGA,150411,2427.2388,N,08105.2659,W,1,8,1.8,14,M,,M,,*52
06/07/2014	15:04:05.149	$GPGGA,150412,2427.2398,N,08105.2640,W,1,8,1.8,14,M,,M,,*58
06/07/2014	15:04:06.240	$GPGGA,150413,2427.2406,N,08105.2621,W,1,8,1.8,14,M,,M,,*5E
06/07/2014	15:04:07.321	$GPGGA,150414,2427.2413,N,08105.2603,W,1,8,1.8,14,M,,M,,*5D
06/07/2014	15:04:08.358	$GPGGA,150415,2427.2421,N,08105.2584,W,1,8,1.9,14,M,,M,,*50
06/07/2014	15:04:09.471	$GPGGA,150416,2427.2428,N,08105.2566,W,1,8,1.9,14,M,,M,,*56
06/07/2014	15:04:10.478	$GPGGA,150417,2427.2434,N,08105.2549,W,1,7,1.8,14,M,,M,,*59
06/07/2014	15:04:11.557	$GPGGA,150418,2427.2439,N,08105.2532,W,1,7,1.8,14,M,,M,,*57
06/07/2014	15:04:12.607	$GPGGA,150419,2427.2446,N,08105.2514,W,1,8,1.9,14,M,,M,,*54
06/07/2014	15:04:13.676	$GPGGA,150420,2427.2450,N,08105.2497,W,1,8,1.8,14,M,,M,,*52
06/07/2014	15:04:14.742	$GPGGA,150421,2427.2456,N,08105.2482,W,1,8,1.8,14,M,,M,,*51
06/07/2014	15:04:15.786	$GPGGA,150422,2427.2459,N,08105.2465,W,1,8,1.8,13,M,,M,,*53
06/07/2014	15:04:16.834	$GPGGA,150423,2427.2464,N,08105.2449,W,1,8,1.8,13,M,,M,,*52
06/07/2014	15:04:17.914	$GPGGA,150424,2427.2467,N,08105.2433,W,1,8,1.8,13,M,,M,,*5B
06/07/2014	15:04:18.994	$GPGGA,150425,2427.2471,N,08105.2417,W,1,8,1.8,13,M,,M,,*5B
06/07/2014	15:04:20.000	$GPGGA,150426,2427.2475,N,08105.2400,W,1,8,1.8,13,M,,M,,*5A
06/07/2014	15:04:21.069	$GPGGA,150427,2427.2477,N,08105.2385,W,1,8,2.0,13,M,,M,,*58
06/07/2014	15:04:22.140	$GPGGA,150428,2427.2478,N,08105.2371,W,1,8,1.8,13,M,,M,,*58
06/07/2014	15:04:23.200	$GPGGA,150429,2427.2478,N,08105.2356,W,1,8,1.8,13,M,,M,,*5C
06/07/2014	15:04:24.226	$GPGGA,150430,2427.2480,N,08105.2341,W,1,8,1.8,13,M,,M,,*55
06/07/2014	15:04:25.296	$GPGGA,150431,2427.2481,N,08105.2326,W,1,8,1.8,13,M,,M,,*54
06/07/2014	15:04:26.365	$GPGGA,150432,2427.2482,N,08105.2311,W,1,8,1.8,13,M,,M,,*50
06/07/2014	15:04:27.425	$GPGGA,150433,2427.2482,N,08105.2296,W,1,8,1.8,13,M,,M,,*5F
06/07/2014	15:04:28.473	$GPGGA,150434,2427.2484,N,08105.2281,W,1,8,1.8,13,M,,M,,*58
06/07/2014	15:04:29.533	$GPGGA,150435,2427.2484,N,08105.2281,W,1,8,1.8,13,M,,M,,*59
06/07/2014	15:04:30.592	$GPGGA,150436,2427.2486,N,08105.2250,W,1,8,1.9,12,M,,M,,*54
06/07/2014	15:04:31.662	$GPGGA,150437,2427.2486,N,08105.2234,W,1,7,1.8,12,M,,M,,*59
06/07/2014	15:04:29.144	$GPGGA,150438,2427.2486,N,08105.2217,W,1,7,1.8,12,M,,M,,*57
06/07/2014	15:04:30.225	$GPGGA,150439,2427.2486,N,08105.2217,W,1,8,1.8,12,M,,M,,*59
06/07/2014	15:04:31.263	$GPGGA,150440,2427.2486,N,08105.2182,W,1,8,1.8,12,M,,M,,*58
06/07/2014	15:04:32.343	$GPGGA,150441,2427.2486,N,08105.2164,W,1,8,1.8,12,M,,M,,*51
06/07/2014	15:04:33.360	$GPGGA,150442,2427.2486,N,08105.2146,W,1,8,1.8,12,M,,M,,*52
06/07/2014	15:04:34.486	$GPGGA,150443,2427.2484,N,08105.2127,W,1,8,1.8,12,M,,M,,*56
06/07/2014	15:04:35.488	$GPGGA,150444,2427.2482,N,08105.2109,W,1,8,1.8,12,M,,M,,*5B
06/07/2014	15:04:36.579	$GPGGA,150445,2427.2480,N,08105.2090,W,1,7,1.8,12,M,,M,,*56
06/07/2014	15:04:37.596	$GPGGA,150446,2427.2479,N,08105.2071,W,1,7,1.8,12,M,,M,,*5C
06/07/2014	15:04:38.708	$GPGGA,150447,2427.2477,N,08105.2052,W,1,8,1.5,11,M,,M,,*53
06/07/2014	15:04:39.747	$GPGGA,150448,2427.2473,N,08105.2034,W,1,8,1.8,11,M,,M,,*55
06/07/2014	15:04:40.848	$GPGGA,150449,2427.2471,N,08105.2015,W,1,8,1.5,11,M,,M,,*58
06/07/2014	15:04:41.823	$GPGGA,150450,2427.2466,N,08105.1996,W,1,8,1.5,11,M,,M,,*57
06/07/2014	15:04:42.947	$GPGGA,150451,2427.2462,N,08105.1977,W,1,8,1.5,11,M,,M,,*5D
06/07/2014	15:04:43.952	$GPGGA,150452,2427.2458,N,08105.1960,W,1,8,1.5,11,M,,M,,*51
06/07/2014	15:04:45.032	$GPGGA,150453,2427.2458,N,08105.1960,W,1,8,1.5,11,M,,M,,*50
06/07/2014	15:04:46.049	$GPGGA,150454,2427.2451,N,08105.1927,W,1,8,1.5,11,M,,M,,*5D
06/07/2014	15:04:47.119	$GPGGA,150455,2427.2447,N,08105.1912,W,1,8,1.5,11,M,,M,,*5D
06/07/2014	15:04:48.295	$GPGGA,150456,2427.2443,N,08105.1897,W,1,8,1.5,11,M,,M,,*56
06/07/2014	15:04:49.238	$GPGGA,150457,2427.2443,N,08105.1897,W,1,8,1.5,11,M,,M,,*57
06/07/2014	15:04:50.276	$GPGGA,150458,2427.2440,N,08105.1884,W,1,8,1.5,11,M,,M,,*59
06/07/2014	15:04:51.356	$GPGGA,150459,2427.2437,N,08105.1870,W,1,8,1.5,11,M,,M,,*53
06/07/2014	15:04:52.405	$GPGGA,150500,2427.2431,N,08105.1845,W,1,8,1.5,11,M,,M,,*5E
06/07/2014	15:04:53.581	$GPGGA,150501,2427.2429,N,08105.1833,W,1,8,1.5,11,M,,M,,*57
06/07/2014	15:04:54.512	$GPGGA,150502,2427.2425,N,08105.1820,W,1,8,1.5,11,M,,M,,*5A
06/07/2014	15:04:55.571	$GPGGA,150503,2427.2425,N,08105.1820,W,1,7,1.8,11,M,,M,,*59
06/07/2014	15:04:56.737	$GPGGA,150504,2427.2418,N,08105.1796,W,1,7,1.5,12,M,,M,,*5C
06/07/2014	15:04:57.817	$GPGGA,150505,2427.2414,N,08105.1784,W,1,8,1.5,12,M,,M,,*5D
06/07/2014	15:04:58.826	$GPGGA,150506,2427.2410,N,08105.1773,W,1,8,1.5,12,M,,M,,*52
06/07/2014	15:04:59.799	$GPGGA,150507,2427.2410,N,08105.1773,W,1,8,1.5,12,M,,M,,*53
06/07/2014	15:05:00.968	$GPGGA,150508,2427.2404,N,08105.1750,W,1,8,1.6,12,M,,M,,*5B
06/07/2014	15:05:02.047	$GPGGA,150509,2427.2401,N,08105.1741,W,1,7,1.6,12,M,,M,,*50
06/07/2014	15:05:03.050	$GPGGA,150510,2427.2397,N,08105.1731,W,1,7,1.5,12,M,,M,,*54
06/07/2014	15:05:04.146	$GPGGA,150511,2427.2394,N,08105.1722,W,1,8,1.5,12,M,,M,,*5B
06/07/2014	15:05:05.179	$GPGGA,150512,2427.2392,N,08105.1713,W,1,8,1.5,12,M,,M,,*5C
06/07/2014	15:05:06.263	$GPGGA,150513,2427.2389,N,08105.1705,W,1,8,1.5,12,M,,M,,*50
06/07/2014	15:05:07.287	$GPGGA,150514,2427.2386,N,08105.1696,W,1,8,1.5,13,M,,M,,*52
06/07/2014	15:05:08.357	$GPGGA,150515,2427.2383,N,08105.1686,W,1,8,1.5,13,M,,M,,*57
06/07/2014	15:05:09.416	$GPGGA,150516,2427.2379,N,08105.1675,W,1,8,1.6,13,M,,M,,*5E
06/07/2014	15:05:10.487	$GPGGA,150517,2427.2376,N,08105.1664,W,1,7,1.6,13,M,,M,,*5F
06/07/2014	15:05:11.525	$GPGGA,150518,2427.2374,N,08105.1655,W,1,7,1.6,13,M,,M,,*50
06/07/2014	15:05:12.593	$GPGGA,150519,2427.2368,N,08105.1642,W,1,6,2.0,13,M,,M,,*5E
06/07/2014	15:05:13.631	$GPGGA,150520,2427.2363,N,08105.1629,W,1,6,1.6,13,M,,M,,*57
06/07/2014	15:05:14.712	$GPGGA,150521,2427.2359,N,08105.1616,W,1,8,1.5,13,M,,M,,*5E
06/07/2014	15:05:15.739	$GPGGA,150522,2427.2355,N,08105.1608,W,1,8,1.6,14,M,,M,,*5A
06/07/2014	15:05:16.799	$GPGGA,150523,2427.2353,N,08105.1599,W,1,8,1.5,14,M,,M,,*55
06/07/2014	15:05:17.879	$GPGGA,150524,2427.2350,N,08105.1592,W,1,8,1.5,14,M,,M,,*5A
06/07/2014	15:05:18.917	$GPGGA,150525,2427.2347,N,08105.1585,W,1,8,1.5,14,M,,M,,*5B
06/07/2014	15:05:19.977	$GPGGA,150526,2427.2345,N,08105.1577,W,1,8,1.5,14,M,,M,,*57
06/07/2014	15:05:21.068	$GPGGA,150527,2427.2342,N,08105.1570,W,1,8,1.5,14,M,,M,,*56
06/07/2014	15:05:22.095	$GPGGA,150528,2427.2341,N,08105.1563,W,1,8,1.5,15,M,,M,,*59
06/07/2014	15:05:23.176	$GPGGA,150529,2427.2337,N,08105.1554,W,1,8,1.5,15,M,,M,,*5D
06/07/2014	15:05:24.203	$GPGGA,150530,2427.2334,N,08105.1546,W,1,8,1.5,15,M,,M,,*55
06/07/2014	15:05:25.263	$GPGGA,150531,2427.2331,N,08105.1538,W,1,8,1.5,15,M,,M,,*58
06/07/2014	15:05:26.332	$GPGGA,150532,2427.2329,N,08105.1530,W,1,8,1.5,15,M,,M,,*5A
06/07/2014	15:05:27.381	$GPGGA,150533,2427.2327,N,08105.1522,W,1,8,1.5,15,M,,M,,*56
06/07/2014	15:05:28.525	$GPGGA,150534,2427.2325,N,08105.1514,W,1,8,1.5,15,M,,M,,*56
06/07/2014	15:05:29.510	$GPGGA,150535,2427.2323,N,08105.1506,W,1,8,1.5,15,M,,M,,*52
06/07/2014	15:05:30.548	$GPGGA,150536,2427.2321,N,08105.1498,W,1,8,1.5,15,M,,M,,*55
06/07/2014	15:05:31.607	$GPGGA,150537,2427.2320,N,08105.1491,W,1,8,1.5,15,M,,M,,*5C
06/07/2014	15:05:29.102	$GPGGA,150538,2427.2318,N,08105.1483,W,1,8,1.6,15,M,,M,,*58
06/07/2014	15:05:30.178	$GPGGA,150539,2427.2317,N,08105.1475,W,1,8,1.5,15,M,,M,,*5C
06/07/2014	15:05:31.237	$GPGGA,150540,2427.2316,N,08105.1467,W,1,8,1.5,16,M,,M,,*53
06/07/2014	15:05:32.371	$GPGGA,150541,2427.2313,N,08105.1458,W,1,8,1.5,16,M,,M,,*5B
06/07/2014	15:05:33.324	$GPGGA,150542,2427.2312,N,08105.1452,W,1,8,1.6,16,M,,M,,*50
06/07/2014	15:05:34.383	$GPGGA,150543,2427.2310,N,08105.1443,W,1,8,1.5,16,M,,M,,*50
06/07/2014	15:05:35.559	$GPGGA,150544,2427.2309,N,08105.1435,W,1,8,1.6,16,M,,M,,*5D
06/07/2014	15:05:36.523	$GPGGA,150545,2427.2307,N,08105.1427,W,1,7,1.6,16,M,,M,,*5E
06/07/2014	15:05:37.652	$GPGGA,150546,2427.2305,N,08105.1419,W,1,7,1.6,16,M,,M,,*52
06/07/2014	15:05:38.726	$GPGGA,150547,2427.2305,N,08105.1411,W,1,8,1.6,16,M,,M,,*54
06/07/2014	15:05:39.690	$GPGGA,150548,2427.2303,N,08105.1403,W,1,8,1.6,16,M,,M,,*5E
06/07/2014	15:05:40.739	$GPGGA,150549,2427.2302,N,08105.1396,W,1,8,1.6,16,M,,M,,*55
06/07/2014	15:05:41.883	$GPGGA,150550,2427.2300,N,08105.1388,W,1,8,1.6,16,M,,M,,*50
06/07/2014	15:05:42.847	$GPGGA,150551,2427.2301,N,08105.1381,W,1,8,1.6,16,M,,M,,*59
06/07/2014	15:05:44.008	$GPGGA,150552,2427.2299,N,08105.1375,W,1,8,1.6,16,M,,M,,*51
06/07/2014	15:05:45.111	$GPGGA,150553,2427.2298,N,08105.1368,W,1,9,1.5,16,M,,M,,*5F
06/07/2014	15:05:46.126	$GPGGA,150554,2427.2298,N,08105.1362,W,1,9,1.5,16,M,,M,,*52
06/07/2014	15:05:47.210	$GPGGA,150555,2427.2296,N,08105.1355,W,1,8,1.8,16,M,,M,,*55
06/07/2014	15:05:48.252	$GPGGA,150556,2427.2295,N,08105.1348,W,1,8,1.8,16,M,,M,,*59
06/07/2014	15:05:49.314	$GPGGA,150557,2427.2292,N,08105.1338,W,1,8,1.6,16,M,,M,,*56
06/07/2014	15:05:50.346	$GPGGA,150558,2427.2289,N,08105.1328,W,1,8,1.6,16,M,,M,,*52
06/07/2014	15:05:51.437	$GPGGA,150559,2427.2285,N,08105.1317,W,1,8,1.6,16,M,,M,,*53
06/07/2014	15:05:52.478	$GPGGA,150600,2427.2282,N,08105.1307,W,1,8,1.5,16,M,,M,,*59
06/07/2014	15:05:53.552	$GPGGA,150601,2427.2278,N,08105.1298,W,1,9,1.5,16,M,,M,,*5B
06/07/2014	15:05:54.562	$GPGGA,150602,2427.2274,N,08105.1287,W,1,9,1.5,16,M,,M,,*5A
06/07/2014	15:05:55.642	$GPGGA,150603,2427.2271,N,08105.1277,W,1,9,1.5,16,M,,M,,*51
06/07/2014	15:05:56.702	$GPGGA,150604,2427.2269,N,08105.1265,W,1,9,1.5,16,M,,M,,*5C
06/07/2014	15:05:57.761	$GPGGA,150605,2427.2264,N,08105.1254,W,1,9,1.5,16,M,,M,,*52
06/07/2014	15:05:58.799	$GPGGA,150606,2427.2259,N,08105.1243,W,1,9,1.7,16,M,,M,,*5B
06/07/2014	15:05:59.881	$GPGGA,150607,2427.2255,N,08105.1232,W,1,9,1.5,16,M,,M,,*52
06/07/2014	15:06:00.928	$GPGGA,150608,2427.2251,N,08105.1221,W,1,9,1.5,16,M,,M,,*5B
06/07/2014	15:06:02.000	$GPGGA,150609,2427.2247,N,08105.1212,W,1,8,1.6,16,M,,M,,*5F
06/07/2014	15:06:03.026	$GPGGA,150610,2427.2241,N,08105.1202,W,1,8,1.5,16,M,,M,,*53
06/07/2014	15:06:04.085	$GPGGA,150611,2427.2236,N,08105.1191,W,1,9,1.5,16,M,,M,,*5A
06/07/2014	15:06:05.155	$GPGGA,150612,2427.2231,N,08105.1181,W,1,9,1.5,16,M,,M,,*5F
06/07/2014	15:06:06.234	$GPGGA,150613,2427.2226,N,08105.1170,W,1,9,1.5,16,M,,M,,*56
06/07/2014	15:06:07.251	$GPGGA,150614,2427.2222,N,08105.1158,W,1,9,1.5,16,M,,M,,*5F
06/07/2014	15:06:08.311	$GPGGA,150615,2427.2215,N,08105.1145,W,1,9,1.5,16,M,,M,,*56
06/07/2014	15:06:09.380	$GPGGA,150616,2427.2211,N,08105.1132,W,1,9,1.5,16,M,,M,,*51
06/07/2014	15:06:10.419	$GPGGA,150617,2427.2204,N,08105.1119,W,1,9,1.5,16,M,,M,,*5D
06/07/2014	15:06:11.499	$GPGGA,150618,2427.2198,N,08105.1106,W,1,9,1.5,16,M,,M,,*5A
06/07/2014	15:06:12.537	$GPGGA,150619,2427.2193,N,08105.1093,W,1,9,1.5,16,M,,M,,*5D
06/07/2014	15:06:13.618	$GPGGA,150620,2427.2186,N,08105.1080,W,1,9,1.5,16,M,,M,,*51
06/07/2014	15:06:14.677	$GPGGA,150621,2427.2179,N,08105.1068,W,1,9,1.5,16,M,,M,,*56
06/07/2014	15:06:15.705	$GPGGA,150622,2427.2172,N,08105.1056,W,1,9,1.5,16,M,,M,,*53
06/07/2014	15:06:16.891	$GPGGA,150623,2427.2164,N,08105.1044,W,1,9,1.5,16,M,,M,,*56
06/07/2014	15:06:17.961	$GPGGA,150624,2427.2157,N,08105.1032,W,1,9,1.5,16,M,,M,,*50
06/07/2014	15:06:19.010	$GPGGA,150625,2427.2150,N,08105.1019,W,1,9,1.5,16,M,,M,,*5F
06/07/2014	15:06:19.952	$GPGGA,150626,2427.2142,N,08105.1007,W,1,9,1.5,16,M,,M,,*50
06/07/2014	15:06:21.001	$GPGGA,150627,2427.2135,N,08105.0995,W,1,9,1.5,16,M,,M,,*52
06/07/2014	15:06:22.187	$GPGGA,150628,2427.2126,N,08105.0983,W,1,9,1.5,15,M,,M,,*5B
06/07/2014	15:06:23.114	$GPGGA,150629,2427.2118,N,08105.0971,W,1,9,1.5,15,M,,M,,*5A
06/07/2014	15:06:24.273	$GPGGA,150630,2427.2110,N,08105.0959,W,1,9,1.5,15,M,,M,,*50
06/07/2014	15:06:25.224	$GPGGA,150631,2427.2101,N,08105.0947,W,1,9,1.5,15,M,,M,,*5E
06/07/2014	15:06:26.392	$GPGGA,150632,2427.2092,N,08105.0936,W,1,9,1.5,15,M,,M,,*50
06/07/2014	15:06:27.451	$GPGGA,150633,2427.2083,N,08105.0924,W,1,9,1.5,15,M,,M,,*52
06/07/2014	15:06:28.510	$GPGGA,150634,2427.2074,N,08105.0912,W,1,9,1.5,15,M,,M,,*58
06/07/2014	15:06:29.453	$GPGGA,150635,2427.2065,N,08105.0901,W,1,9,1.5,15,M,,M,,*5B
06/07/2014	15:06:30.629	$GPGGA,150636,2427.2056,N,08105.0890,W,1,9,1.5,15,M,,M,,*51
06/07/2014	15:06:31.699	$GPGGA,150637,2427.2048,N,08105.0878,W,1,8,1.8,15,M,,M,,*55
06/07/2014	15:06:29.171	$GPGGA,150638,2427.2039,N,08105.0866,W,1,8,1.5,15,M,,M,,*5E
06/07/2014	15:06:30.220	$GPGGA,150639,2427.2030,N,08105.0854,W,1,8,1.6,15,M,,M,,*54
06/07/2014	15:06:31.301	$GPGGA,150640,2427.2020,N,08105.0843,W,1,8,1.5,15,M,,M,,*5E
06/07/2014	15:06:32.339	$GPGGA,150641,2427.2010,N,08105.0834,W,1,8,1.6,15,M,,M,,*5F
06/07/2014	15:06:33.411	$GPGGA,150642,2427.2001,N,08105.0825,W,1,8,1.5,15,M,,M,,*5F
06/07/2014	15:06:34.457	$GPGGA,150643,2427.1991,N,08105.0815,W,1,9,1.5,15,M,,M,,*5F
06/07/2014	15:06:35.534	$GPGGA,150644,2427.1981,N,08105.0806,W,1,9,1.5,15,M,,M,,*5B
06/07/2014	15:06:36.597	$GPGGA,150645,2427.1971,N,08105.0796,W,1,9,1.5,15,M,,M,,*53
06/07/2014	15:06:37.625	$GPGGA,150646,2427.1962,N,08105.0786,W,1,9,1.5,15,M,,M,,*53
06/07/2014	15:06:38.672	$GPGGA,150647,2427.1951,N,08105.0776,W,1,9,1.5,15,M,,M,,*5D
06/07/2014	15:06:39.742	$GPGGA,150648,2427.1940,N,08105.0767,W,1,9,1.5,15,M,,M,,*52
06/07/2014	15:06:40.823	$GPGGA,150649,2427.1930,N,08105.0757,W,1,9,1.5,15,M,,M,,*57
06/07/2014	15:06:41.861	$GPGGA,150650,2427.1920,N,08105.0747,W,1,9,1.5,15,M,,M,,*5F
06/07/2014	15:06:42.931	$GPGGA,150651,2427.1908,N,08105.0738,W,1,9,1.5,15,M,,M,,*5C
06/07/2014	15:06:43.990	$GPGGA,150652,2427.1898,N,08105.0728,W,1,9,1.5,15,M,,M,,*56
06/07/2014	15:06:45.106	$GPGGA,150653,2427.1888,N,08105.0718,W,1,9,1.5,15,M,,M,,*55
06/07/2014	15:06:46.087	$GPGGA,150654,2427.1877,N,08105.0708,W,1,9,1.5,15,M,,M,,*53
06/07/2014	15:06:47.168	$GPGGA,150655,2427.1866,N,08105.0699,W,1,9,1.5,15,M,,M,,*5B
06/07/2014	15:06:48.217	$GPGGA,150656,2427.1855,N,08105.0688,W,1,9,1.5,15,M,,M,,*58
06/07/2014	15:06:49.286	$GPGGA,150657,2427.1846,N,08105.0679,W,1,9,1.5,15,M,,M,,*55
06/07/2014	15:06:50.314	$GPGGA,150658,2427.1834,N,08105.0669,W,1,9,1.5,15,M,,M,,*5E
06/07/2014	15:06:51.373	$GPGGA,150659,2427.1823,N,08105.0659,W,1,9,1.5,15,M,,M,,*5A
06/07/2014	15:06:52.456	$GPGGA,150700,2427.1812,N,08105.0649,W,1,9,1.5,15,M,,M,,*54
06/07/2014	15:06:53.513	$GPGGA,150701,2427.1801,N,08105.0640,W,1,9,1.5,15,M,,M,,*5E
06/07/2014	15:06:54.657	$GPGGA,150702,2427.1790,N,08105.0631,W,1,9,1.5,15,M,,M,,*5C
06/07/2014	15:06:55.589	$GPGGA,150703,2427.1778,N,08105.0621,W,1,9,1.5,15,M,,M,,*5A
06/07/2014	15:06:56.658	$GPGGA,150704,2427.1768,N,08105.0615,W,1,9,1.6,15,M,,M,,*58
06/07/2014	15:06:57.707	$GPGGA,150705,2427.1757,N,08105.0604,W,1,9,1.5,15,M,,M,,*56
06/07/2014	15:06:58.777	$GPGGA,150706,2427.1746,N,08105.0596,W,1,9,1.6,14,M,,M,,*5F
06/07/2014	15:06:59.825	$GPGGA,150707,2427.1734,N,08105.0587,W,1,9,1.5,14,M,,M,,*58
06/07/2014	15:07:00.895	$GPGGA,150708,2427.1723,N,08105.0578,W,1,9,1.5,14,M,,M,,*51
06/07/2014	15:07:02.061	$GPGGA,150709,2427.1711,N,08105.0569,W,1,8,1.6,14,M,,M,,*53
06/07/2014	15:07:03.003	$GPGGA,150710,2427.1700,N,08105.0561,W,1,8,1.5,14,M,,M,,*50
06/07/2014	15:07:04.200	$GPGGA,150711,2427.1688,N,08105.0553,W,1,9,1.5,14,M,,M,,*50
06/07/2014	15:07:05.122	$GPGGA,150712,2427.1677,N,08105.0546,W,1,9,1.5,14,M,,M,,*57
06/07/2014	15:07:06.298	$GPGGA,150713,2427.1667,N,08105.0538,W,1,8,1.8,14,M,,M,,*52
06/07/2014	15:07:07.321	$GPGGA,150714,2427.1655,N,08105.0531,W,1,8,1.5,14,M,,M,,*50
06/07/2014	15:07:08.268	$GPGGA,150715,2427.1644,N,08105.0524,W,1,9,1.5,14,M,,M,,*54
06/07/2014	15:07:09.465	$GPGGA,150716,2427.1633,N,08105.0517,W,1,9,1.8,14,M,,M,,*5A
06/07/2014	15:07:10.408	$GPGGA,150717,2427.1622,N,08105.0510,W,1,9,1.5,14,M,,M,,*51
06/07/2014	15:07:11.552	$GPGGA,150718,2427.1610,N,08105.0504,W,1,9,1.5,14,M,,M,,*5A
06/07/2014	15:07:12.632	$GPGGA,150719,2427.1599,N,08105.0497,W,1,9,1.5,14,M,,M,,*52
06/07/2014	15:07:13.681	$GPGGA,150720,2427.1587,N,08105.0491,W,1,9,1.5,14,M,,M,,*51
06/07/2014	15:07:14.736	$GPGGA,150721,2427.1575,N,08105.0485,W,1,9,1.5,14,M,,M,,*58
06/07/2014	15:07:15.671	$GPGGA,150722,2427.1563,N,08105.0478,W,1,9,1.5,14,M,,M,,*5E
06/07/2014	15:07:16.868	$GPGGA,150723,2427.1551,N,08105.0473,W,1,9,1.5,14,M,,M,,*55
06/07/2014	15:07:17.938	$GPGGA,150724,2427.1539,N,08105.0467,W,1,9,1.6,14,M,,M,,*5A
06/07/2014	15:07:18.945	$GPGGA,150725,2427.1527,N,08105.0461,W,1,8,1.6,14,M,,M,,*53
06/07/2014	15:07:20.004	$GPGGA,150726,2427.1515,N,08105.0456,W,1,8,1.6,14,M,,M,,*55
06/07/2014	15:07:21.063	$GPGGA,150727,2427.1503,N,08105.0453,W,1,8,1.6,14,M,,M,,*56
06/07/2014	15:07:22.123	$GPGGA,150728,2427.1492,N,08105.0449,W,1,8,1.5,14,M,,M,,*58
06/07/2014	15:07:23.204	$GPGGA,150729,2427.1480,N,08105.0444,W,1,9,1.5,14,M,,M,,*56
06/07/2014	15:07:24.231	$GPGGA,150730,2427.1468,N,08105.0438,W,1,9,1.6,14,M,,M,,*50
06/07/2014	15:07:25.311	$GPGGA,150731,2427.1456,N,08105.0433,W,1,9,1.5,14,M,,M,,*54
06/07/2014	15:07:26.360	$GPGGA,150732,2427.1445,N,08105.0430,W,1,9,1.6,14,M,,M,,*55
06/07/2014	15:07:27.451	$GPGGA,150733,2427.1434,N,08105.0427,W,1,9,1.5,14,M,,M,,*57
06/07/2014	15:07:28.457	$GPGGA,150734,2427.1422,N,08105.0423,W,1,9,1.5,14,M,,M,,*53
06/07/2014	15:07:29.527	$GPGGA,150735,2427.1411,N,08105.0418,W,1,9,1.5,14,M,,M,,*5A
06/07/2014	15:07:30.597	$GPGGA,150736,2427.1399,N,08105.0413,W,1,9,1.6,14,M,,M,,*56
06/07/2014	15:07:31.656	$GPGGA,150737,2427.1387,N,08105.0407,W,1,9,1.5,14,M,,M,,*5E
06/07/2014	15:07:29.127	$GPGGA,150738,2427.1376,N,08105.0403,W,1,9,1.5,14,M,,M,,*5B
06/07/2014	15:07:30.217	$GPGGA,150739,2427.1366,N,08105.0398,W,1,9,1.5,14,M,,M,,*5E
06/07/2014	15:07:31.266	$GPGGA,150740,2427.1355,N,08105.0394,W,1,9,1.5,14,M,,M,,*5C
06/07/2014	15:07:32.325	$GPGGA,150741,2427.1344,N,08105.0389,W,1,9,1.5,14,M,,M,,*51
06/07/2014	15:07:33.375	$GPGGA,150742,2427.1333,N,08105.0386,W,1,9,1.5,14,M,,M,,*5D
06/07/2014	15:07:34.454	$GPGGA,150743,2427.1322,N,08105.0381,W,1,9,1.5,14,M,,M,,*5B
06/07/2014	15:07:35.482	$GPGGA,150744,2427.1311,N,08105.0377,W,1,9,1.5,14,M,,M,,*55
06/07/2014	15:07:36.541	$GPGGA,150745,2427.1301,N,08105.0372,W,1,9,1.5,14,M,,M,,*50
06/07/2014	15:07:37.600	$GPGGA,150746,2427.1291,N,08105.0368,W,1,9,1.5,14,M,,M,,*50
06/07/2014	15:07:38.691	$GPGGA,150747,2427.1280,N,08105.0364,W,1,9,1.5,14,M,,M,,*5D
06/07/2014	15:07:39.719	$GPGGA,150748,2427.1270,N,08105.0360,W,1,9,1.5,13,M,,M,,*5E
06/07/2014	15:07:40.757	$GPGGA,150749,2427.1261,N,08105.0356,W,1,9,1.5,13,M,,M,,*5A
06/07/2014	15:07:41.827	$GPGGA,150750,2427.1250,N,08105.0352,W,1,9,1.5,13,M,,M,,*54
06/07/2014	15:07:43.003	$GPGGA,150751,2427.1239,N,08105.0347,W,1,9,1.5,13,M,,M,,*5E
06/07/2014	15:07:43.945	$GPGGA,150752,2427.1229,N,08105.0343,W,1,9,1.5,13,M,,M,,*58
06/07/2014	15:07:45.005	$GPGGA,150753,2427.1219,N,08105.0340,W,1,9,1.5,13,M,,M,,*59
06/07/2014	15:07:46.043	$GPGGA,150754,2427.1209,N,08105.0335,W,1,9,1.5,13,M,,M,,*5D
06/07/2014	15:07:47.099	$GPGGA,150755,2427.1199,N,08105.0331,W,1,9,1.5,13,M,,M,,*52
06/07/2014	15:07:48.289	$GPGGA,150756,2427.1189,N,08105.0328,W,1,9,1.5,13,M,,M,,*58
06/07/2014	15:07:49.347	$GPGGA,150757,2427.1178,N,08105.0323,W,1,9,1.6,13,M,,M,,*5F
06/07/2014	15:07:50.396	$GPGGA,150758,2427.1168,N,08105.0319,W,1,9,1.5,13,M,,M,,*5B
06/07/2014	15:07:51.338	$GPGGA,150759,2427.1158,N,08105.0314,W,1,9,1.5,13,M,,M,,*54
06/07/2014	15:07:52.546	$GPGGA,150800,2427.1149,N,08105.0312,W,1,9,1.5,13,M,,M,,*51
06/07/2014	15:07:53.584	$GPGGA,150801,2427.1138,N,08105.0307,W,1,9,1.6,13,M,,M,,*51
06/07/2014	15:07:54.506	$GPGGA,150802,2427.1128,N,08105.0303,W,1,9,1.6,13,M,,M,,*57
06/07/2014	15:07:55.565	$GPGGA,150803,2427.1118,N,08105.0298,W,1,8,1.6,13,M,,M,,*57
06/07/2014	15:07:56.751	$GPGGA,150804,2427.1109,N,08105.0294,W,1,8,1.5,13,M,,M,,*5F
06/07/2014	15:07:57.821	$GPGGA,150805,2427.1098,N,08105.0290,W,1,9,1.6,13,M,,M,,*51
06/07/2014	15:07:58.838	$GPGGA,150806,2427.1088,N,08105.0285,W,1,9,1.6,13,M,,M,,*57
06/07/2014	15:07:59.897	$GPGGA,150807,2427.1078,N,08105.0281,W,1,8,1.6,13,M,,M,,*5C
06/07/2014	15:08:00.861	$GPGGA,150808,2427.1068,N,08105.0276,W,1,8,1.6,13,M,,M,,*5A
06/07/2014	15:08:02.027	$GPGGA,150809,2427.1059,N,08105.0272,W,1,8,1.6,13,M,,M,,*5D
06/07/2014	15:08:03.087	$GPGGA,150810,2427.1048,N,08105.0268,W,1,8,1.6,13,M,,M,,*5E
06/07/2014	15:08:04.148	$GPGGA,150811,2427.1038,N,08105.0264,W,1,8,1.6,13,M,,M,,*54
06/07/2014	15:08:05.215	$GPGGA,150812,2427.1028,N,08105.0259,W,1,8,1.6,13,M,,M,,*58
06/07/2014	15:08:06.257	$GPGGA,150813,2427.1020,N,08105.0261,W,1,8,1.5,13,M,,M,,*59
06/07/2014	15:08:07.301	$GPGGA,150814,2427.1012,N,08105.0261,W,1,8,1.5,13,M,,M,,*5F
06/07/2014	15:08:08.339	$GPGGA,150815,2427.1002,N,08105.0257,W,1,9,1.5,13,M,,M,,*5B
06/07/2014	15:08:09.433	$GPGGA,150816,2427.0992,N,08105.0252,W,1,9,1.6,13,M,,M,,*5F
06/07/2014	15:08:10.467	$GPGGA,150817,2427.0983,N,08105.0246,W,1,8,1.5,13,M,,M,,*59
06/07/2014	15:08:11.467	$GPGGA,150818,2427.0972,N,08105.0241,W,1,8,1.5,13,M,,M,,*5F
06/07/2014	15:08:12.480	$GPGGA,150819,2427.0963,N,08105.0239,W,1,9,1.5,13,M,,M,,*50
06/07/2014	15:08:13.524	$GPGGA,150820,2427.0954,N,08105.0233,W,1,9,1.6,13,M,,M,,*57
06/07/2014	15:08:14.558	$GPGGA,150821,2427.0943,N,08105.0228,W,1,8,1.6,13,M,,M,,*5B
06/07/2014	15:08:15.549	$GPGGA,150822,2427.0933,N,08105.0223,W,1,8,1.5,13,M,,M,,*57
06/07/2014	15:08:16.582	$GPGGA,150823,2427.0925,N,08105.0218,W,1,9,1.5,13,M,,M,,*58
06/07/2014	15:08:17.605	$GPGGA,150824,2427.0914,N,08105.0214,W,1,9,1.5,12,M,,M,,*50
06/07/2014	15:08:18.638	$GPGGA,150825,2427.0905,N,08105.0209,W,1,9,1.6,12,M,,M,,*5E
06/07/2014	15:08:19.651	$GPGGA,150826,2427.0896,N,08105.0205,W,1,9,1.5,12,M,,M,,*59
06/07/2014	15:08:20.663	$GPGGA,150827,2427.0886,N,08105.0200,W,1,9,1.5,12,M,,M,,*5C
06/07/2014	15:08:21.720	$GPGGA,150828,2427.0876,N,08105.0195,W,1,9,1.5,12,M,,M,,*53
06/07/2014	15:08:22.720	$GPGGA,150829,2427.0867,N,08105.0191,W,1,9,1.5,12,M,,M,,*56
06/07/2014	15:08:23.845	$GPGGA,150830,2427.0858,N,08105.0186,W,1,9,1.5,12,M,,M,,*54
06/07/2014	15:08:24.755	$GPGGA,150831,2427.0849,N,08105.0182,W,1,9,1.5,12,M,,M,,*51
06/07/2014	15:08:25.767	$GPGGA,150832,2427.0840,N,08105.0178,W,1,9,1.5,12,M,,M,,*5E
06/07/2014	15:08:26.800	$GPGGA,150833,2427.0831,N,08105.0173,W,1,9,1.5,12,M,,M,,*52
06/07/2014	15:08:27.894	$GPGGA,150834,2427.0821,N,08105.0168,W,1,9,1.6,12,M,,M,,*5D
06/07/2014	15:08:28.938	$GPGGA,150835,2427.0813,N,08105.0163,W,1,9,1.6,12,M,,M,,*56
06/07/2014	15:08:29.879	$GPGGA,150836,2427.0803,N,08105.0159,W,1,9,1.6,12,M,,M,,*5D
06/07/2014	15:08:30.891	$GPGGA,150837,2427.0795,N,08105.0154,W,1,9,1.6,12,M,,M,,*51
06/07/2014	15:08:29.180	$GPGGA,150838,2427.0784,N,08105.0148,W,1,9,1.6,12,M,,M,,*53
06/07/2014	15:08:30.233	$GPGGA,150839,2427.0775,N,08105.0144,W,1,9,1.6,12,M,,M,,*50
06/07/2014	15:08:31.174	$GPGGA,150840,2427.0766,N,08105.0138,W,1,9,1.6,12,M,,M,,*57
06/07/2014	15:08:32.177	$GPGGA,150841,2427.0757,N,08105.0134,W,1,8,1.6,12,M,,M,,*59
06/07/2014	15:08:33.169	$GPGGA,150842,2427.0748,N,08105.0130,W,1,8,1.6,12,M,,M,,*50
06/07/2014	15:08:34.212	$GPGGA,150843,2427.0739,N,08105.0125,W,1,9,1.6,11,M,,M,,*51
06/07/2014	15:08:35.327	$GPGGA,150844,2427.0730,N,08105.0119,W,1,9,1.6,11,M,,M,,*50
06/07/2014	15:08:36.238	$GPGGA,150845,2427.0721,N,08105.0113,W,1,9,1.6,11,M,,M,,*5B
06/07/2014	15:08:37.342	$GPGGA,150846,2427.0712,N,08105.0109,W,1,9,1.6,11,M,,M,,*53
06/07/2014	15:08:38.396	$GPGGA,150847,2427.0703,N,08105.0104,W,1,9,1.6,11,M,,M,,*5F
06/07/2014	15:08:39.327	$GPGGA,150848,2427.0694,N,08105.0098,W,1,9,1.6,11,M,,M,,*5B
06/07/2014	15:08:40.420	$GPGGA,150849,2427.0685,N,08105.0093,W,1,9,1.6,11,M,,M,,*51
06/07/2014	15:08:41.343	$GPGGA,150850,2427.0676,N,08105.0088,W,1,9,1.6,11,M,,M,,*5F
06/07/2014	15:08:42.364	$GPGGA,150851,2427.0667,N,08105.0082,W,1,9,1.6,11,M,,M,,*54
06/07/2014	15:08:43.417	$GPGGA,150852,2427.0658,N,08105.0077,W,1,9,1.6,11,M,,M,,*51
06/07/2014	15:08:44.502	$GPGGA,150853,2427.0649,N,08105.0072,W,1,9,1.6,11,M,,M,,*55
06/07/2014	15:08:45.514	$GPGGA,150854,2427.0640,N,08105.0066,W,1,9,1.6,11,M,,M,,*5E
06/07/2014	15:08:46.547	$GPGGA,150855,2427.0631,N,08105.0060,W,1,9,1.6,11,M,,M,,*5F
06/07/2014	15:08:47.591	$GPGGA,150856,2427.0622,N,08105.0053,W,1,9,1.7,11,M,,M,,*5F
06/07/2014	15:08:48.614	$GPGGA,150857,2427.0613,N,08105.0046,W,1,7,1.6,11,M,,M,,*57
06/07/2014	15:08:49.586	$GPGGA,150858,2427.0604,N,08105.0039,W,1,7,1.6,11,M,,M,,*56
06/07/2014	15:08:50.639	$GPGGA,150859,2427.0596,N,08105.0033,W,1,8,1.6,12,M,,M,,*59
06/07/2014	15:08:51.662	$GPGGA,150900,2427.0587,N,08105.0028,W,1,8,1.6,12,M,,M,,*5E
06/07/2014	15:08:52.685	$GPGGA,150901,2427.0579,N,08105.0022,W,1,9,1.6,12,M,,M,,*55
06/07/2014	15:08:53.667	$GPGGA,150902,2427.0571,N,08105.0015,W,1,9,1.8,12,M,,M,,*54
06/07/2014	15:08:54.710	$GPGGA,150903,2427.0564,N,08105.0009,W,1,8,1.8,12,M,,M,,*5D
06/07/2014	15:08:55.733	$GPGGA,150904,2427.0555,N,08105.0003,W,1,8,1.8,12,M,,M,,*52
06/07/2014	15:08:56.756	$GPGGA,150905,2427.0546,N,08104.9997,W,1,8,1.8,12,M,,M,,*5D
06/07/2014	15:08:57.769	$GPGGA,150906,2427.0537,N,08104.9991,W,1,8,1.8,12,M,,M,,*5E
06/07/2014	15:08:58.801	$GPGGA,150907,2427.0529,N,08104.9985,W,1,8,1.8,12,M,,M,,*55
06/07/2014	15:08:59.813	$GPGGA,150908,2427.0520,N,08104.9979,W,1,8,1.8,12,M,,M,,*50
06/07/2014	15:09:00.847	$GPGGA,150909,2427.0513,N,08104.9973,W,1,9,1.6,12,M,,M,,*54
06/07/2014	15:09:01.849	$GPGGA,150910,2427.0506,N,08104.9967,W,1,9,1.6,12,M,,M,,*5D
06/07/2014	15:09:02.905	$GPGGA,150911,2427.0496,N,08104.9961,W,1,9,1.6,12,M,,M,,*52
06/07/2014	15:09:03.905	$GPGGA,150912,2427.0488,N,08104.9955,W,1,9,1.6,12,M,,M,,*59
06/07/2014	15:09:04.908	$GPGGA,150913,2427.0479,N,08104.9950,W,1,9,1.6,13,M,,M,,*52
06/07/2014	15:09:05.941	$GPGGA,150914,2427.0471,N,08104.9944,W,1,9,1.6,13,M,,M,,*58
06/07/2014	15:09:06.964	$GPGGA,150915,2427.0462,N,08104.9938,W,1,9,1.6,13,M,,M,,*50
06/07/2014	15:09:07.986	$GPGGA,150916,2427.0453,N,08104.9932,W,1,9,1.6,13,M,,M,,*5B
06/07/2014	15:09:08.999	$GPGGA,150917,2427.0445,N,08104.9927,W,1,9,1.6,13,M,,M,,*59
06/07/2014	15:09:10.002	$GPGGA,150918,2427.0436,N,08104.9920,W,1,9,1.6,13,M,,M,,*55
06/07/2014	15:09:11.035	$GPGGA,150919,2427.0427,N,08104.9915,W,1,9,1.6,13,M,,M,,*52
06/07/2014	15:09:12.068	$GPGGA,150920,2427.0419,N,08104.9908,W,1,9,1.6,13,M,,M,,*59
06/07/2014	15:09:13.102	$GPGGA,150921,2427.0410,N,08104.9902,W,1,9,1.6,13,M,,M,,*5B
06/07/2014	15:09:14.103	$GPGGA,150922,2427.0401,N,08104.9896,W,1,9,1.6,13,M,,M,,*54
06/07/2014	15:09:15.136	$GPGGA,150923,2427.0392,N,08104.9889,W,1,9,1.6,13,M,,M,,*56
06/07/2014	15:09:16.158	$GPGGA,150924,2427.0384,N,08104.9883,W,1,9,1.6,13,M,,M,,*5C
06/07/2014	15:09:17.161	$GPGGA,150925,2427.0376,N,08104.9876,W,1,9,1.6,13,M,,M,,*5A
06/07/2014	15:09:18.173	$GPGGA,150926,2427.0367,N,08104.9870,W,1,9,1.6,13,M,,M,,*5F
06/07/2014	15:09:19.217	$GPGGA,150927,2427.0358,N,08104.9864,W,1,9,1.6,13,M,,M,,*57
06/07/2014	15:09:20.229	$GPGGA,150928,2427.0349,N,08104.9857,W,1,9,1.6,14,M,,M,,*5F
06/07/2014	15:09:21.252	$GPGGA,150929,2427.0341,N,08104.9850,W,1,9,1.6,14,M,,M,,*51
06/07/2014	15:09:22.265	$GPGGA,150930,2427.0332,N,08104.9844,W,1,9,1.6,14,M,,M,,*58
06/07/2014	15:09:23.278	$GPGGA,150931,2427.0323,N,08104.9838,W,1,9,1.6,14,M,,M,,*52
06/07/2014	15:09:24.301	$GPGGA,150932,2427.0315,N,08104.9831,W,1,9,1.6,14,M,,M,,*5D
06/07/2014	15:09:25.416	$GPGGA,150933,2427.0305,N,08104.9824,W,1,9,1.6,14,M,,M,,*59
06/07/2014	15:09:26.336	$GPGGA,150934,2427.0297,N,08104.9818,W,1,9,1.6,14,M,,M,,*5B
06/07/2014	15:09:27.451	$GPGGA,150935,2427.0289,N,08104.9811,W,1,9,1.6,14,M,,M,,*5C
06/07/2014	15:09:28.515	$GPGGA,150936,2427.0279,N,08104.9804,W,1,9,1.6,14,M,,M,,*54
06/07/2014	15:09:29.528	$GPGGA,150937,2427.0271,N,08104.9798,W,1,9,1.6,14,M,,M,,*57
06/07/2014	15:09:29.160	$GPGGA,150938,2427.0262,N,08104.9791,W,1,9,1.6,14,M,,M,,*53
06/07/2014	15:09:30.191	$GPGGA,150939,2427.0253,N,08104.9784,W,1,9,1.6,14,M,,M,,*54
06/07/2014	15:09:31.208	$GPGGA,150940,2427.0244,N,08104.9777,W,1,9,1.6,14,M,,M,,*50
06/07/2014	15:09:32.236	$GPGGA,150941,2427.0235,N,08104.9771,W,1,9,1.6,14,M,,M,,*51
06/07/2014	15:09:33.243	$GPGGA,150942,2427.0228,N,08104.9764,W,1,9,1.6,14,M,,M,,*5A
06/07/2014	15:09:34.277	$GPGGA,150943,2427.0218,N,08104.9757,W,1,9,1.6,14,M,,M,,*58
06/07/2014	15:09:35.297	$GPGGA,150944,2427.0210,N,08104.9750,W,1,9,1.6,14,M,,M,,*50
06/07/2014	15:09:36.313	$GPGGA,150945,2427.0200,N,08104.9743,W,1,9,1.6,14,M,,M,,*52
06/07/2014	15:09:37.310	$GPGGA,150946,2427.0192,N,08104.9736,W,1,9,1.6,14,M,,M,,*5B
06/07/2014	15:09:38.353	$GPGGA,150947,2427.0183,N,08104.9729,W,1,9,1.6,14,M,,M,,*54
06/07/2014	15:09:39.383	$GPGGA,150948,2427.0175,N,08104.9722,W,1,9,1.6,14,M,,M,,*59
06/07/2014	15:09:40.368	$GPGGA,150949,2427.0166,N,08104.9714,W,1,9,1.6,14,M,,M,,*5F
06/07/2014	15:09:41.401	$GPGGA,150950,2427.0157,N,08104.9707,W,1,9,1.6,14,M,,M,,*57
06/07/2014	15:09:42.449	$GPGGA,150951,2427.0149,N,08104.9700,W,1,9,1.6,14,M,,M,,*5E
06/07/2014	15:09:43.457	$GPGGA,150952,2427.0141,N,08104.9692,W,1,9,1.6,14,M,,M,,*5F
06/07/2014	15:09:44.480	$GPGGA,150953,2427.0132,N,08104.9685,W,1,9,1.6,14,M,,M,,*5C
06/07/2014	15:09:45.472	$GPGGA,150954,2427.0123,N,08104.9678,W,1,9,1.6,14,M,,M,,*59
06/07/2014	15:09:46.526	$GPGGA,150955,2427.0116,N,08104.9671,W,1,9,1.6,13,M,,M,,*50
06/07/2014	15:09:47.539	$GPGGA,150956,2427.0106,N,08104.9663,W,1,9,1.6,13,M,,M,,*51
06/07/2014	15:09:48.561	$GPGGA,150957,2427.0098,N,08104.9655,W,1,9,1.6,13,M,,M,,*53
06/07/2014	15:09:49.554	$GPGGA,150958,2427.0089,N,08104.9648,W,1,9,1.6,13,M,,M,,*50
06/07/2014	15:09:50.586	$GPGGA,150959,2427.0081,N,08104.9640,W,1,9,1.6,13,M,,M,,*51
06/07/2014	15:09:51.629	$GPGGA,151000,2427.0073,N,08104.9632,W,1,9,1.6,13,M,,M,,*5D
06/07/2014	15:09:52.734	$GPGGA,151001,2427.0065,N,08104.9625,W,1,9,1.6,13,M,,M,,*5D
06/07/2014	15:09:53.655	$GPGGA,151002,2427.0056,N,08104.9617,W,1,9,1.6,13,M,,M,,*5F
06/07/2014	15:09:54.657	$GPGGA,151003,2427.0047,N,08104.9609,W,1,9,1.6,13,M,,M,,*51
06/07/2014	15:09:55.711	$GPGGA,151004,2427.0040,N,08104.9602,W,1,9,1.6,13,M,,M,,*5A
06/07/2014	15:09:56.805	$GPGGA,151005,2427.0031,N,08104.9594,W,1,9,1.6,13,M,,M,,*51
06/07/2014	15:09:57.726	$GPGGA,151006,2427.0023,N,08104.9586,W,1,9,1.6,13,M,,M,,*52
06/07/2014	15:09:58.738	$GPGGA,151007,2427.0014,N,08104.9579,W,1,9,1.6,13,M,,M,,*57
06/07/2014	15:09:59.792	$GPGGA,151008,2427.0006,N,08104.9571,W,1,9,1.6,13,M,,M,,*53
06/07/2014	15:10:00.815	$GPGGA,151009,2426.9998,N,08104.9563,W,1,9,1.6,13,M,,M,,*57
06/07/2014	15:10:01.909	$GPGGA,151010,2426.9990,N,08104.9555,W,1,9,1.6,13,M,,M,,*52
06/07/2014	15:10:02.850	$GPGGA,151011,2426.9982,N,08104.9547,W,1,9,1.6,13,M,,M,,*53
06/07/2014	15:10:03.873	$GPGGA,151012,2426.9975,N,08104.9539,W,1,9,1.6,13,M,,M,,*51
06/07/2014	15:10:04.876	$GPGGA,151013,2426.9966,N,08104.9531,W,1,9,1.6,13,M,,M,,*5A
06/07/2014	15:10:06.001	$GPGGA,151014,2426.9958,N,08104.9523,W,1,9,1.6,13,M,,M,,*53
06/07/2014	15:10:06.911	$GPGGA,151015,2426.9949,N,08104.9515,W,1,9,1.6,12,M,,M,,*56
06/07/2014	15:10:07.944	$GPGGA,151016,2426.9941,N,08104.9506,W,1,9,1.6,12,M,,M,,*5F
06/07/2014	15:10:09.069	$GPGGA,151017,2426.9933,N,08104.9498,W,1,9,1.6,12,M,,M,,*5D
06/07/2014	15:10:10.108	$GPGGA,151018,2426.9925,N,08104.9489,W,1,9,1.6,12,M,,M,,*55
06/07/2014	15:10:11.002	$GPGGA,151019,2426.9917,N,08104.9481,W,1,9,1.6,12,M,,M,,*5D
06/07/2014	15:10:12.138	$GPGGA,151020,2426.9910,N,08104.9473,W,1,9,1.6,12,M,,M,,*5D
06/07/2014	15:10:13.142	$GPGGA,151021,2426.9901,N,08104.9464,W,1,9,1.6,12,M,,M,,*5A
06/07/2014	15:10:14.066	$GPGGA,151022,2426.9893,N,08104.9456,W,1,9,1.6,12,M,,M,,*52
06/07/2014	15:10:15.200	$GPGGA,151023,2426.9885,N,08104.9449,W,1,8,1.6,12,M,,M,,*5B
06/07/2014	15:10:16.226	$GPGGA,151024,2426.9877,N,08104.9442,W,1,8,1.6,12,M,,M,,*5A
06/07/2014	15:10:17.246	$GPGGA,151025,2426.9870,N,08104.9433,W,1,9,1.6,12,M,,M,,*5B
06/07/2014	15:10:18.244	$GPGGA,151026,2426.9860,N,08104.9424,W,1,9,1.6,12,M,,M,,*5F
06/07/2014	15:10:19.287	$GPGGA,151027,2426.9852,N,08104.9416,W,1,8,1.6,12,M,,M,,*5F
06/07/2014	15:10:20.302	$GPGGA,151028,2426.9845,N,08104.9407,W,1,8,1.6,12,M,,M,,*56
06/07/2014	15:10:21.325	$GPGGA,151029,2426.9836,N,08104.9398,W,1,8,1.6,12,M,,M,,*52
06/07/2014	15:10:22.340	$GPGGA,151030,2426.9828,N,08104.9390,W,1,8,1.6,12,M,,M,,*5D
06/07/2014	15:10:23.379	$GPGGA,151031,2426.9820,N,08104.9381,W,1,8,1.6,12,M,,M,,*54
06/07/2014	15:10:24.371	$GPGGA,151032,2426.9813,N,08104.9373,W,1,8,1.6,12,M,,M,,*5A
06/07/2014	15:10:25.406	$GPGGA,151033,2426.9805,N,08104.9366,W,1,9,1.6,12,M,,M,,*59
06/07/2014	15:10:26.395	$GPGGA,151034,2426.9798,N,08104.9357,W,1,9,1.6,12,M,,M,,*57
06/07/2014	15:10:27.439	$GPGGA,151035,2426.9789,N,08104.9349,W,1,9,1.6,12,M,,M,,*59
06/07/2014	15:10:28.472	$GPGGA,151036,2426.9782,N,08104.9341,W,1,9,1.6,12,M,,M,,*59
06/07/2014	15:10:29.512	$GPGGA,151037,2426.9774,N,08104.9333,W,1,9,1.6,12,M,,M,,*54
06/07/2014	15:10:29.114	$GPGGA,151038,2426.9766,N,08104.9325,W,1,9,1.6,12,M,,M,,*5F
06/07/2014	15:10:30.147	$GPGGA,151039,2426.9758,N,08104.9317,W,1,9,1.6,12,M,,M,,*52
06/07/2014	15:10:31.191	$GPGGA,151040,2426.9751,N,08104.9308,W,1,9,1.6,12,M,,M,,*5B
06/07/2014	15:10:32.215	$GPGGA,151041,2426.9744,N,08104.9301,W,1,9,1.6,12,M,,M,,*57
06/07/2014	15:10:33.195	$GPGGA,151042,2426.9736,N,08104.9292,W,1,9,1.6,12,M,,M,,*5A
06/07/2014	15:10:34.218	$GPGGA,151043,2426.9729,N,08104.9284,W,1,9,1.6,12,M,,M,,*52
06/07/2014	15:10:35.262	$GPGGA,151044,2426.9722,N,08104.9276,W,1,9,1.6,12,M,,M,,*53
06/07/2014	15:10:36.315	$GPGGA,151045,2426.9715,N,08104.9267,W,1,9,1.6,12,M,,M,,*56
06/07/2014	15:10:37.287	$GPGGA,151046,2426.9706,N,08104.9259,W,1,9,1.6,12,M,,M,,*5A
06/07/2014	15:10:38.310	$GPGGA,151047,2426.9699,N,08104.9250,W,1,9,1.6,12,M,,M,,*55
06/07/2014	15:10:39.333	$GPGGA,151048,2426.9693,N,08104.9241,W,1,9,1.6,12,M,,M,,*50
06/07/2014	15:10:40.376	$GPGGA,151049,2426.9686,N,08104.9233,W,1,9,1.6,12,M,,M,,*50
06/07/2014	15:10:41.368	$GPGGA,151050,2426.9679,N,08104.9224,W,1,9,1.9,12,M,,M,,*51
06/07/2014	15:10:42.391	$GPGGA,151051,2426.9672,N,08104.9214,W,1,8,1.9,12,M,,M,,*59
06/07/2014	15:10:43.434	$GPGGA,151052,2426.9665,N,08104.9205,W,1,8,1.6,12,M,,M,,*53
06/07/2014	15:10:44.446	$GPGGA,151053,2426.9659,N,08104.9196,W,1,8,1.6,12,M,,M,,*54
06/07/2014	15:10:45.449	$GPGGA,151054,2426.9651,N,08104.9187,W,1,8,1.6,12,M,,M,,*5B
06/07/2014	15:10:46.461	$GPGGA,151055,2426.9646,N,08104.9178,W,1,9,1.6,12,M,,M,,*5D
06/07/2014	15:10:47.495	$GPGGA,151056,2426.9639,N,08104.9168,W,1,9,1.6,12,M,,M,,*57
06/07/2014	15:10:48.507	$GPGGA,151057,2426.9630,N,08104.9160,W,1,9,1.6,12,M,,M,,*57
06/07/2014	15:10:49.551	$GPGGA,151058,2426.9623,N,08104.9152,W,1,9,1.6,12,M,,M,,*5B
06/07/2014	15:10:50.676	$GPGGA,151059,2426.9617,N,08104.9142,W,1,9,1.6,12,M,,M,,*5C
06/07/2014	15:10:51.587	$GPGGA,151100,2426.9610,N,08104.9134,W,1,9,1.6,12,M,,M,,*57
06/07/2014	15:10:52.691	$GPGGA,151101,2426.9601,N,08104.9125,W,1,9,1.6,12,M,,M,,*56
06/07/2014	15:10:53.622	$GPGGA,151102,2426.9594,N,08104.9116,W,1,9,1.6,12,M,,M,,*5A
06/07/2014	15:10:54.757	$GPGGA,151103,2426.9586,N,08104.9107,W,1,9,1.6,12,M,,M,,*58
06/07/2014	15:10:55.841	$GPGGA,151104,2426.9579,N,08104.9098,W,1,9,1.6,12,M,,M,,*58
06/07/2014	15:10:56.875	$GPGGA,151105,2426.9572,N,08104.9089,W,1,9,1.6,12,M,,M,,*52
06/07/2014	15:10:57.867	$GPGGA,151106,2426.9565,N,08104.9079,W,1,9,1.6,12,M,,M,,*58
06/07/2014	15:10:58.879	$GPGGA,151107,2426.9558,N,08104.9070,W,1,9,1.6,12,M,,M,,*5E
06/07/2014	15:10:59.923	$GPGGA,151108,2426.9552,N,08104.9061,W,1,9,1.6,12,M,,M,,*5B
06/07/2014	15:11:00.914	$GPGGA,151109,2426.9543,N,08104.9051,W,1,9,1.6,12,M,,M,,*59
06/07/2014	15:11:01.978	$GPGGA,151110,2426.9536,N,08104.9042,W,1,9,1.6,12,M,,M,,*51
06/07/2014	15:11:02.898	$GPGGA,151111,2426.9529,N,08104.9032,W,1,9,1.6,12,M,,M,,*59
06/07/2014	15:11:04.003	$GPGGA,151112,2426.9523,N,08104.9022,W,1,9,1.6,12,M,,M,,*51
06/07/2014	15:11:04.995	$GPGGA,151113,2426.9516,N,08104.9013,W,1,9,1.6,12,M,,M,,*54
06/07/2014	15:11:06.039	$GPGGA,151114,2426.9507,N,08104.9003,W,1,9,1.6,12,M,,M,,*52
06/07/2014	15:11:07.114	$GPGGA,151115,2426.9501,N,08104.8992,W,1,9,1.6,12,M,,M,,*55
06/07/2014	15:11:08.095	$GPGGA,151116,2426.9493,N,08104.8982,W,1,9,1.6,12,M,,M,,*5D
06/07/2014	15:11:09.015	$GPGGA,151117,2426.9487,N,08104.8972,W,1,9,1.6,12,M,,M,,*56
06/07/2014	15:11:10.110	$GPGGA,151118,2426.9480,N,08104.8962,W,1,9,1.6,12,M,,M,,*5F
06/07/2014	15:11:11.128	$GPGGA,151119,2426.9473,N,08104.8952,W,1,9,1.6,12,M,,M,,*51
06/07/2014	15:11:12.094	$GPGGA,151120,2426.9465,N,08104.8941,W,1,9,1.6,12,M,,M,,*5E
06/07/2014	15:11:13.151	$GPGGA,151121,2426.9458,N,08104.8931,W,1,9,1.6,12,M,,M,,*56
06/07/2014	15:11:14.120	$GPGGA,151122,2426.9452,N,08104.8920,W,1,9,1.6,12,M,,M,,*5F
06/07/2014	15:11:15.204	$GPGGA,151123,2426.9445,N,08104.8909,W,1,8,1.9,12,M,,M,,*5D
06/07/2014	15:11:16.176	$GPGGA,151124,2426.9440,N,08104.8899,W,1,8,1.9,12,M,,M,,*57
06/07/2014	15:11:17.291	$GPGGA,151125,2426.9433,N,08104.8888,W,1,8,1.9,12,M,,M,,*52
06/07/2014	15:11:18.261	$GPGGA,151126,2426.9426,N,08104.8878,W,1,8,1.6,12,M,,M,,*55
06/07/2014	15:11:19.223	$GPGGA,151127,2426.9419,N,08104.8867,W,1,9,1.6,12,M,,M,,*57
06/07/2014	15:11:20.328	$GPGGA,151128,2426.9412,N,08104.8857,W,1,9,1.6,12,M,,M,,*50
06/07/2014	15:11:21.320	$GPGGA,151129,2426.9406,N,08104.8846,W,1,8,1.6,12,M,,M,,*55
06/07/2014	15:11:22.292	$GPGGA,151130,2426.9398,N,08104.8836,W,1,8,1.6,12,M,,M,,*5A
06/07/2014	15:11:23.345	$GPGGA,151131,2426.9391,N,08104.8825,W,1,8,1.6,12,M,,M,,*50
06/07/2014	15:11:24.337	$GPGGA,151132,2426.9384,N,08104.8815,W,1,8,1.6,12,M,,M,,*54
06/07/2014	15:11:25.416	$GPGGA,151133,2426.9379,N,08104.8805,W,1,8,1.6,12,M,,M,,*56
06/07/2014	15:11:26.363	$GPGGA,151134,2426.9370,N,08104.8794,W,1,8,1.6,12,M,,M,,*5F
06/07/2014	15:11:27.448	$GPGGA,151135,2426.9364,N,08104.8785,W,1,8,1.6,12,M,,M,,*5B
06/07/2014	15:11:28.552	$GPGGA,151136,2426.9358,N,08104.8776,W,1,8,1.6,12,M,,M,,*5B
06/07/2014	15:11:29.483	$GPGGA,151137,2426.9351,N,08104.8766,W,1,9,1.6,11,M,,M,,*50
06/07/2014	15:11:29.145	$GPGGA,151138,2426.9346,N,08104.8756,W,1,9,1.6,11,M,,M,,*5A
06/07/2014	15:11:30.098	$GPGGA,151139,2426.9339,N,08104.8746,W,1,9,1.6,11,M,,M,,*52
06/07/2014	15:11:31.282	$GPGGA,151140,2426.9332,N,08104.8736,W,1,9,1.6,11,M,,M,,*50
06/07/2014	15:11:32.141	$GPGGA,151141,2426.9325,N,08104.8725,W,1,9,1.6,11,M,,M,,*55
06/07/2014	15:11:33.276	$GPGGA,151142,2426.9319,N,08104.8715,W,1,9,1.6,11,M,,M,,*5A
06/07/2014	15:11:34.228	$GPGGA,151143,2426.9312,N,08104.8705,W,1,9,1.6,11,M,,M,,*51
06/07/2014	15:11:35.293	$GPGGA,151144,2426.9305,N,08104.8693,W,1,9,1.6,11,M,,M,,*5E
06/07/2014	15:11:36.364	$GPGGA,151145,2426.9299,N,08104.8682,W,1,9,1.6,11,M,,M,,*5B
06/07/2014	15:11:37.316	$GPGGA,151146,2426.9293,N,08104.8671,W,1,9,1.6,11,M,,M,,*5E
06/07/2014	15:11:38.318	$GPGGA,151147,2426.9286,N,08104.8659,W,1,9,1.9,11,M,,M,,*5E
06/07/2014	15:11:39.423	$GPGGA,151148,2426.9279,N,08104.8649,W,1,9,1.6,11,M,,M,,*5F
06/07/2014	15:11:40.415	$GPGGA,151149,2426.9274,N,08104.8637,W,1,9,1.6,11,M,,M,,*5A
06/07/2014	15:11:41.479	$GPGGA,151150,2426.9268,N,08104.8625,W,1,9,1.6,11,M,,M,,*5C
06/07/2014	15:11:42.471	$GPGGA,151151,2426.9263,N,08104.8613,W,1,9,1.6,11,M,,M,,*53
06/07/2014	15:11:43.504	$GPGGA,151152,2426.9257,N,08104.8602,W,1,9,1.6,11,M,,M,,*57
06/07/2014	15:11:44.497	$GPGGA,151153,2426.9251,N,08104.8590,W,1,9,1.6,11,M,,M,,*58
06/07/2014	15:11:45.524	$GPGGA,151154,2426.9245,N,08104.8578,W,1,9,1.6,11,M,,M,,*5C
06/07/2014	15:11:46.536	$GPGGA,151155,2426.9240,N,08104.8565,W,1,9,1.6,11,M,,M,,*54
06/07/2014	15:11:47.566	$GPGGA,151156,2426.9234,N,08104.8552,W,1,9,1.6,11,M,,M,,*50
06/07/2014	15:11:48.598	$GPGGA,151157,2426.9227,N,08104.8539,W,1,9,1.6,11,M,,M,,*5E
