Software Version Number: 1	Data File Format Number: 1	Build Version Number: 1	Error Count Since VI Started: 0	Manufacturer: Raytheon	 Model Number: RayMarine 120	 S/N: 	 Cal Date: 	 Wind Direction Offset: 0.00	 Slope (M)1: 0.00	 Offset (B)1: 0.00	 Slope (M)2: 0.00	 Offset (B)2: 0.00	 Slope (M)3: 0.00	 Offset (B)3: 0.00	 Slope (M)4: 0.00	 Offset (B)4: 0.00	 Slope (M)5: 0.00	 Offset (B)5: 0.00	 Slope (M)6: 0.00	 Offset (B)6: 0.00
Computer Date	Computer Time	GGA String
06/04/2014	12:00:00.757	$GPGGA,120001,2457.0867,N,08013.6015,W,1,7,1.6,10,M,,M,,*56
06/04/2014	12:00:01.755	$GPGGA,120002,2457.0880,N,08013.6022,W,1,7,1.6,10,M,,M,,*58
06/04/2014	12:00:02.813	$GPGGA,120003,2457.0905,N,08013.6038,W,1,7,1.6,11,M,,M,,*5F
06/04/2014	12:00:03.780	$GPGGA,120004,2457.0916,N,08013.6048,W,1,7,1.6,11,M,,M,,*5D
06/04/2014	12:00:04.828	$GPGGA,120005,2457.0925,N,08013.6058,W,1,7,1.6,11,M,,M,,*5D
06/04/2014	12:00:05.786	$GPGGA,120006,2457.0925,N,08013.6058,W,1,7,1.6,11,M,,M,,*5E
06/04/2014	12:00:06.783	$GPGGA,120007,2457.0939,N,08013.6066,W,1,7,1.6,11,M,,M,,*5F
06/04/2014	12:00:07.801	$GPGGA,120008,2457.0964,N,08013.6084,W,1,7,1.6,11,M,,M,,*54
06/04/2014	12:00:08.930	$GPGGA,120009,2457.0975,N,08013.6092,W,1,8,1.6,11,M,,M,,*5D
06/04/2014	12:00:09.796	$GPGGA,120010,2457.0988,N,08013.6100,W,1,8,1.6,12,M,,M,,*5E
06/04/2014	12:00:10.874	$GPGGA,120011,2457.1001,N,08013.6109,W,1,8,1.6,12,M,,M,,*5F
06/04/2014	12:00:11.822	$GPGGA,120012,2457.1012,N,08013.6118,W,1,8,1.6,12,M,,M,,*5E
06/04/2014	12:00:12.930	$GPGGA,120013,2457.1023,N,08013.6127,W,1,8,1.6,12,M,,M,,*51
06/04/2014	12:00:13.837	$GPGGA,120014,2457.1036,N,08013.6138,W,1,8,1.6,12,M,,M,,*5C
06/04/2014	12:00:14.965	$GPGGA,120015,2457.1048,N,08013.6145,W,1,8,1.6,12,M,,M,,*5E
06/04/2014	12:00:15.852	$GPGGA,120016,2457.1059,N,08013.6156,W,1,8,1.6,12,M,,M,,*5F
06/04/2014	12:00:16.859	$GPGGA,120017,2457.1059,N,08013.6156,W,1,8,1.6,13,M,,M,,*5F
06/04/2014	12:00:17.837	$GPGGA,120018,2457.1084,N,08013.6174,W,1,8,1.6,13,M,,M,,*50
06/04/2014	12:00:18.975	$GPGGA,120019,2457.1095,N,08013.6183,W,1,8,1.6,13,M,,M,,*59
06/04/2014	12:00:19.882	$GPGGA,120020,2457.1106,N,08013.6192,W,1,8,1.6,13,M,,M,,*58
06/04/2014	12:00:20.971	$GPGGA,120021,2457.1119,N,08013.6203,W,1,8,1.6,13,M,,M,,*5C
06/04/2014	12:00:21.878	$GPGGA,120022,2457.1130,N,08013.6211,W,1,8,1.6,13,M,,M,,*57
06/04/2014	12:00:22.885	$GPGGA,120023,2457.1130,N,08013.6211,W,1,8,1.6,13,M,,M,,*56
06/04/2014	12:00:23.973	$GPGGA,120024,2457.1153,N,08013.6230,W,1,8,1.6,13,M,,M,,*57
06/04/2014	12:00:24.901	$GPGGA,120025,2457.1153,N,08013.6230,W,1,8,1.6,13,M,,M,,*56
06/04/2014	12:00:25.979	$GPGGA,120026,2457.1178,N,08013.6247,W,1,8,1.6,14,M,,M,,*5B
06/04/2014	12:00:27.017	$GPGGA,120027,2457.1191,N,08013.6257,W,1,8,1.6,14,M,,M,,*5C
06/04/2014	12:00:28.004	$GPGGA,120028,2457.1200,N,08013.6268,W,1,8,1.6,14,M,,M,,*54
06/04/2014	12:00:29.002	$GPGGA,120029,2457.1213,N,08013.6276,W,1,8,1.6,14,M,,M,,*58
06/04/2014	12:00:30.010	$GPGGA,120030,2457.1225,N,08013.6284,W,1,8,1.6,14,M,,M,,*58
06/04/2014	12:00:31.027	$GPGGA,120031,2457.1236,N,08013.6294,W,1,8,1.6,14,M,,M,,*5A
06/04/2014	12:00:31.574	$GPGGA,120032,2457.1247,N,08013.6304,W,1,8,1.6,14,M,,M,,*57
06/04/2014	12:00:32.582	$GPGGA,120033,2457.1247,N,08013.6304,W,1,8,1.6,14,M,,M,,*56
06/04/2014	12:00:33.559	$GPGGA,120034,2457.1275,N,08013.6322,W,1,8,1.6,14,M,,M,,*54
06/04/2014	12:00:34.597	$GPGGA,120035,2457.1286,N,08013.6331,W,1,8,1.6,14,M,,M,,*5B
06/04/2014	12:00:35.595	$GPGGA,120036,2457.1299,N,08013.6340,W,1,8,1.6,14,M,,M,,*50
06/04/2014	12:00:36.613	$GPGGA,120037,2457.1312,N,08013.6349,W,1,8,1.6,14,M,,M,,*5A
06/04/2014	12:00:37.590	$GPGGA,120038,2457.1324,N,08013.6359,W,1,8,1.6,14,M,,M,,*51
06/04/2014	12:00:38.608	$GPGGA,120039,2457.1335,N,08013.6369,W,1,8,1.6,14,M,,M,,*53
06/04/2014	12:00:39.616	$GPGGA,120040,2457.1347,N,08013.6378,W,1,8,1.6,14,M,,M,,*58
06/04/2014	12:00:40.633	$GPGGA,120041,2457.1359,N,08013.6388,W,1,8,1.6,14,M,,M,,*59
06/04/2014	12:00:41.611	$GPGGA,120042,2457.1371,N,08013.6398,W,1,8,1.6,14,M,,M,,*51
06/04/2014	12:00:42.608	$GPGGA,120043,2457.1384,N,08013.6407,W,1,8,1.6,14,M,,M,,*5B
06/04/2014	12:00:43.646	$GPGGA,120044,2457.1397,N,08013.6416,W,1,8,1.6,14,M,,M,,*5E
06/04/2014	12:00:44.634	$GPGGA,120045,2457.1409,N,08013.6427,W,1,8,1.6,14,M,,M,,*5D
06/04/2014	12:00:45.647	$GPGGA,120046,2457.1422,N,08013.6435,W,1,8,1.6,14,M,,M,,*54
06/04/2014	12:00:46.669	$GPGGA,120047,2457.1434,N,08013.6445,W,1,8,1.6,14,M,,M,,*55
06/04/2014	12:00:47.657	$GPGGA,120048,2457.1447,N,08013.6453,W,1,8,1.6,14,M,,M,,*59
06/04/2014	12:00:48.685	$GPGGA,120049,2457.1460,N,08013.6463,W,1,8,1.6,14,M,,M,,*5E
06/04/2014	12:00:49.651	$GPGGA,120050,2457.1471,N,08013.6471,W,1,8,1.6,14,M,,M,,*55
06/04/2014	12:00:50.659	$GPGGA,120051,2457.1483,N,08013.6482,W,1,8,1.6,14,M,,M,,*55
06/04/2014	12:00:51.697	$GPGGA,120052,2457.1495,N,08013.6492,W,1,8,1.6,14,M,,M,,*50
06/04/2014	12:00:52.705	$GPGGA,120053,2457.1509,N,08013.6501,W,1,8,1.6,14,M,,M,,*5E
06/04/2014	12:00:53.693	$GPGGA,120054,2457.1520,N,08013.6510,W,1,8,1.6,14,M,,M,,*52
06/04/2014	12:00:54.680	$GPGGA,120055,2457.1531,N,08013.6521,W,1,8,1.6,14,M,,M,,*51
06/04/2014	12:00:55.707	$GPGGA,120056,2457.1543,N,08013.6530,W,1,8,1.6,14,M,,M,,*57
06/04/2014	12:00:56.725	$GPGGA,120057,2457.1557,N,08013.6539,W,1,8,1.6,14,M,,M,,*5A
06/04/2014	12:00:57.723	$GPGGA,120058,2457.1570,N,08013.6547,W,1,8,1.6,14,M,,M,,*59
06/04/2014	12:00:58.710	$GPGGA,120059,2457.1581,N,08013.6557,W,1,8,1.6,14,M,,M,,*57
06/04/2014	12:00:59.849	$GPGGA,120100,2457.1592,N,08013.6568,W,1,8,1.6,14,M,,M,,*54
06/04/2014	12:01:00.726	$GPGGA,120101,2457.1604,N,08013.6576,W,1,8,1.6,14,M,,M,,*56
06/04/2014	12:01:01.713	$GPGGA,120102,2457.1618,N,08013.6584,W,1,8,1.6,14,M,,M,,*55
06/04/2014	12:01:02.721	$GPGGA,120103,2457.1629,N,08013.6595,W,1,8,1.6,14,M,,M,,*56
06/04/2014	12:01:03.860	$GPGGA,120104,2457.1640,N,08013.6604,W,1,8,1.6,14,M,,M,,*55
06/04/2014	12:01:04.857	$GPGGA,120105,2457.1654,N,08013.6613,W,1,8,1.6,14,M,,M,,*57
06/04/2014	12:01:05.744	$GPGGA,120106,2457.1666,N,08013.6622,W,1,8,1.6,14,M,,M,,*57
06/04/2014	12:01:06.771	$GPGGA,120107,2457.1679,N,08013.6631,W,1,8,1.6,14,M,,M,,*5A
06/04/2014	12:01:07.859	$GPGGA,120108,2457.1691,N,08013.6640,W,1,8,1.6,14,M,,M,,*55
06/04/2014	12:01:08.857	$GPGGA,120109,2457.1704,N,08013.6649,W,1,8,1.6,14,M,,M,,*50
06/04/2014	12:01:09.855	$GPGGA,120110,2457.1716,N,08013.6658,W,1,8,1.6,14,M,,M,,*5B
06/04/2014	12:01:10.903	$GPGGA,120111,2457.1729,N,08013.6669,W,1,8,1.6,14,M,,M,,*54
06/04/2014	12:01:11.900	$GPGGA,120112,2457.1741,N,08013.6678,W,1,8,1.6,14,M,,M,,*59
06/04/2014	12:01:12.898	$GPGGA,120113,2457.1752,N,08013.6687,W,1,8,1.6,14,M,,M,,*5A
06/04/2014	12:01:13.885	$GPGGA,120114,2457.1766,N,08013.6696,W,1,8,1.6,14,M,,M,,*5A
06/04/2014	12:01:14.924	$GPGGA,120115,2457.1778,N,08013.6705,W,1,8,1.6,14,M,,M,,*5F
06/04/2014	12:01:15.921	$GPGGA,120116,2457.1791,N,08013.6716,W,1,8,1.6,14,M,,M,,*59
06/04/2014	12:01:16.929	$GPGGA,120117,2457.1803,N,08013.6724,W,1,8,1.6,14,M,,M,,*5D
06/04/2014	12:01:17.906	$GPGGA,120118,2457.1814,N,08013.6734,W,1,8,1.6,14,M,,M,,*55
06/04/2014	12:01:18.924	$GPGGA,120119,2457.1828,N,08013.6745,W,1,8,1.6,13,M,,M,,*5A
06/04/2014	12:01:19.942	$GPGGA,120120,2457.1841,N,08013.6753,W,1,8,1.6,13,M,,M,,*58
06/04/2014	12:01:20.929	$GPGGA,120121,2457.1853,N,08013.6763,W,1,8,1.6,13,M,,M,,*59
06/04/2014	12:01:21.937	$GPGGA,120122,2457.1866,N,08013.6772,W,1,8,1.6,13,M,,M,,*5C
06/04/2014	12:01:22.955	$GPGGA,120123,2457.1879,N,08013.6781,W,1,8,1.6,13,M,,M,,*5F
06/04/2014	12:01:23.962	$GPGGA,120124,2457.1893,N,08013.6790,W,1,8,1.6,13,M,,M,,*5C
06/04/2014	12:01:24.969	$GPGGA,120125,2457.1904,N,08013.6800,W,1,8,1.6,13,M,,M,,*54
06/04/2014	12:01:25.957	$GPGGA,120126,2457.1917,N,08013.6810,W,1,8,1.6,13,M,,M,,*54
06/04/2014	12:01:26.995	$GPGGA,120127,2457.1929,N,08013.6819,W,1,8,1.6,13,M,,M,,*51
06/04/2014	12:01:27.982	$GPGGA,120128,2457.1942,N,08013.6828,W,1,8,1.6,13,M,,M,,*51
06/04/2014	12:01:29.000	$GPGGA,120129,2457.1953,N,08013.6839,W,1,8,1.6,13,M,,M,,*50
06/04/2014	12:01:29.967	$GPGGA,120130,2457.1965,N,08013.6848,W,1,8,1.6,13,M,,M,,*5B
06/04/2014	12:01:30.975	$GPGGA,120131,2457.1979,N,08013.6857,W,1,8,1.6,13,M,,M,,*59
06/04/2014	12:01:31.543	$GPGGA,120132,2457.1991,N,08013.6868,W,1,8,1.6,13,M,,M,,*50
06/04/2014	12:01:32.561	$GPGGA,120133,2457.2004,N,08013.6876,W,1,8,1.6,13,M,,M,,*58
06/04/2014	12:01:33.528	$GPGGA,120134,2457.2016,N,08013.6886,W,1,8,1.6,13,M,,M,,*53
06/04/2014	12:01:34.576	$GPGGA,120135,2457.2030,N,08013.6894,W,1,8,1.6,13,M,,M,,*55
06/04/2014	12:01:35.564	$GPGGA,120136,2457.2041,N,08013.6905,W,1,8,1.6,13,M,,M,,*59
06/04/2014	12:01:36.581	$GPGGA,120137,2457.2052,N,08013.6915,W,1,8,1.6,13,M,,M,,*5B
06/04/2014	12:01:37.559	$GPGGA,120138,2457.2066,N,08013.6925,W,1,8,1.6,13,M,,M,,*50
06/04/2014	12:01:38.591	$GPGGA,120139,2457.2077,N,08013.6934,W,1,8,1.6,13,M,,M,,*51
06/04/2014	12:01:39.584	$GPGGA,120140,2457.2090,N,08013.6944,W,1,8,1.6,13,M,,M,,*51
06/04/2014	12:01:40.594	$GPGGA,120141,2457.2102,N,08013.6954,W,1,8,1.6,13,M,,M,,*5B
06/04/2014	12:01:41.579	$GPGGA,120142,2457.2114,N,08013.6963,W,1,8,1.6,13,M,,M,,*5B
06/04/2014	12:01:42.606	$GPGGA,120143,2457.2128,N,08013.6973,W,1,8,1.6,13,M,,M,,*54
06/04/2014	12:01:43.624	$GPGGA,120144,2457.2139,N,08013.6983,W,1,8,1.6,13,M,,M,,*5C
06/04/2014	12:01:44.592	$GPGGA,120145,2457.2150,N,08013.6992,W,1,8,1.6,13,M,,M,,*52
06/04/2014	12:01:45.619	$GPGGA,120146,2457.2164,N,08013.7001,W,1,8,1.6,13,M,,M,,*54
06/04/2014	12:01:46.617	$GPGGA,120147,2457.2177,N,08013.7010,W,1,8,1.6,13,M,,M,,*57
06/04/2014	12:01:47.625	$GPGGA,120148,2457.2188,N,08013.7021,W,1,8,1.6,13,M,,M,,*5A
06/04/2014	12:01:48.612	$GPGGA,120149,2457.2200,N,08013.7030,W,1,8,1.6,13,M,,M,,*58
06/04/2014	12:01:49.721	$GPGGA,120150,2457.2214,N,08013.7039,W,1,8,1.6,13,M,,M,,*5C
06/04/2014	12:01:50.628	$GPGGA,120151,2457.2225,N,08013.7049,W,1,8,1.6,13,M,,M,,*58
06/04/2014	12:01:51.766	$GPGGA,120152,2457.2238,N,08013.7059,W,1,8,1.6,13,M,,M,,*56
06/04/2014	12:01:52.653	$GPGGA,120153,2457.2250,N,08013.7068,W,1,8,1.6,13,M,,M,,*5B
06/04/2014	12:01:53.661	$GPGGA,120154,2457.2262,N,08013.7078,W,1,8,1.6,13,M,,M,,*5C
06/04/2014	12:01:54.669	$GPGGA,120155,2457.2276,N,08013.7088,W,1,8,1.6,13,M,,M,,*57
06/04/2014	12:01:55.775	$GPGGA,120156,2457.2289,N,08013.7096,W,1,8,1.6,13,M,,M,,*5B
06/04/2014	12:01:56.669	$GPGGA,120157,2457.2300,N,08013.7107,W,1,8,1.6,13,M,,M,,*53
06/04/2014	12:01:57.683	$GPGGA,120158,2457.2312,N,08013.7117,W,1,8,1.6,13,M,,M,,*5E
06/04/2014	12:01:58.798	$GPGGA,120159,2457.2326,N,08013.7124,W,1,8,1.6,13,M,,M,,*58
06/04/2014	12:01:59.792	$GPGGA,120200,2457.2337,N,08013.7135,W,1,8,1.6,13,M,,M,,*57
06/04/2014	12:02:00.766	$GPGGA,120201,2457.2348,N,08013.7144,W,1,8,1.6,13,M,,M,,*58
06/04/2014	12:02:01.770	$GPGGA,120202,2457.2361,N,08013.7153,W,1,8,1.6,13,M,,M,,*56
06/04/2014	12:02:02.785	$GPGGA,120203,2457.2374,N,08013.7164,W,1,8,1.6,12,M,,M,,*56
06/04/2014	12:02:03.789	$GPGGA,120204,2457.2385,N,08013.7172,W,1,8,1.6,12,M,,M,,*58
06/04/2014	12:02:04.804	$GPGGA,120205,2457.2398,N,08013.7182,W,1,8,1.6,12,M,,M,,*5A
06/04/2014	12:02:05.778	$GPGGA,120206,2457.2412,N,08013.7190,W,1,8,1.6,12,M,,M,,*5F
06/04/2014	12:02:06.802	$GPGGA,120207,2457.2424,N,08013.7200,W,1,8,1.6,12,M,,M,,*51
06/04/2014	12:02:07.807	$GPGGA,120208,2457.2435,N,08013.7209,W,1,8,1.6,12,M,,M,,*57
06/04/2014	12:02:08.811	$GPGGA,120209,2457.2448,N,08013.7218,W,1,8,1.6,12,M,,M,,*5C
06/04/2014	12:02:09.796	$GPGGA,120210,2457.2460,N,08013.7227,W,1,8,1.6,12,M,,M,,*52
06/04/2014	12:02:10.810	$GPGGA,120211,2457.2470,N,08013.7238,W,1,8,1.6,12,M,,M,,*5C
06/04/2014	12:02:11.814	$GPGGA,120212,2457.2482,N,08013.7247,W,1,8,1.6,12,M,,M,,*5A
06/04/2014	12:02:12.829	$GPGGA,120213,2457.2496,N,08013.7255,W,1,8,1.6,12,M,,M,,*5D
06/04/2014	12:02:13.793	$GPGGA,120214,2457.2510,N,08013.7265,W,1,8,1.6,12,M,,M,,*56
06/04/2014	12:02:14.828	$GPGGA,120215,2457.2520,N,08013.7274,W,1,8,1.6,12,M,,M,,*54
06/04/2014	12:02:15.812	$GPGGA,120216,2457.2532,N,08013.7283,W,1,8,1.6,12,M,,M,,*5C
06/04/2014	12:02:16.845	$GPGGA,120217,2457.2546,N,08013.7291,W,1,8,1.6,12,M,,M,,*5D
06/04/2014	12:02:17.820	$GPGGA,120218,2457.2558,N,08013.7301,W,1,8,1.6,12,M,,M,,*55
06/04/2014	12:02:18.844	$GPGGA,120219,2457.2569,N,08013.7312,W,1,8,1.6,12,M,,M,,*54
06/04/2014	12:02:19.828	$GPGGA,120220,2457.2582,N,08013.7321,W,1,8,1.6,12,M,,M,,*5B
06/04/2014	12:02:20.813	$GPGGA,120221,2457.2594,N,08013.7330,W,1,8,1.6,12,M,,M,,*5D
06/04/2014	12:02:21.827	$GPGGA,120222,2457.2605,N,08013.7338,W,1,8,1.6,12,M,,M,,*5D
06/04/2014	12:02:22.862	$GPGGA,120223,2457.2618,N,08013.7348,W,1,8,1.6,12,M,,M,,*57
06/04/2014	12:02:23.826	$GPGGA,120224,2457.2630,N,08013.7356,W,1,8,1.6,12,M,,M,,*55
06/04/2014	12:02:24.830	$GPGGA,120225,2457.2643,N,08013.7366,W,1,8,1.6,12,M,,M,,*53
06/04/2014	12:02:25.835	$GPGGA,120226,2457.2655,N,08013.7375,W,1,8,1.6,12,M,,M,,*55
06/04/2014	12:02:26.849	$GPGGA,120227,2457.2668,N,08013.7384,W,1,8,1.6,12,M,,M,,*54
06/04/2014	12:02:27.854	$GPGGA,120228,2457.2680,N,08013.7393,W,1,8,1.6,12,M,,M,,*5B
06/04/2014	12:02:28.948	$GPGGA,120229,2457.2691,N,08013.7403,W,1,8,1.6,12,M,,M,,*54
06/04/2014	12:02:29.953	$GPGGA,120230,2457.2704,N,08013.7413,W,1,8,1.6,12,M,,M,,*50
06/04/2014	12:02:30.837	$GPGGA,120231,2457.2716,N,08013.7422,W,1,8,1.6,12,M,,M,,*50
06/04/2014	12:02:31.530	$GPGGA,120232,2457.2727,N,08013.7431,W,1,8,1.6,12,M,,M,,*53
06/04/2014	12:02:32.494	$GPGGA,120233,2457.2739,N,08013.7442,W,1,8,1.6,12,M,,M,,*59
06/04/2014	12:02:33.598	$GPGGA,120234,2457.2753,N,08013.7449,W,1,8,1.6,12,M,,M,,*59
06/04/2014	12:02:34.622	$GPGGA,120235,2457.2764,N,08013.7458,W,1,8,1.6,12,M,,M,,*5C
06/04/2014	12:02:35.636	$GPGGA,120236,2457.2775,N,08013.7468,W,1,8,1.6,12,M,,M,,*5C
06/04/2014	12:02:36.530	$GPGGA,120237,2457.2788,N,08013.7478,W,1,8,1.6,12,M,,M,,*5E
06/04/2014	12:02:37.605	$GPGGA,120238,2457.2800,N,08013.7487,W,1,8,1.6,12,M,,M,,*5E
06/04/2014	12:02:38.640	$GPGGA,120239,2457.2811,N,08013.7496,W,1,8,1.6,12,M,,M,,*5F
06/04/2014	12:02:39.644	$GPGGA,120240,2457.2824,N,08013.7505,W,1,8,1.6,12,M,,M,,*5C
06/04/2014	12:02:40.538	$GPGGA,120241,2457.2836,N,08013.7514,W,1,8,1.6,12,M,,M,,*5E
06/04/2014	12:02:41.522	$GPGGA,120242,2457.2847,N,08013.7523,W,1,8,1.6,12,M,,M,,*5F
06/04/2014	12:02:42.657	$GPGGA,120243,2457.2860,N,08013.7533,W,1,8,1.6,12,M,,M,,*5A
06/04/2014	12:02:43.642	$GPGGA,120244,2457.2871,N,08013.7541,W,1,8,1.6,12,M,,M,,*58
06/04/2014	12:02:44.535	$GPGGA,120245,2457.2883,N,08013.7551,W,1,8,1.6,12,M,,M,,*55
06/04/2014	12:02:45.530	$GPGGA,120246,2457.2894,N,08013.7559,W,1,8,1.6,12,M,,M,,*58
06/04/2014	12:02:46.645	$GPGGA,120247,2457.2905,N,08013.7569,W,1,8,1.6,12,M,,M,,*53
06/04/2014	12:02:47.649	$GPGGA,120248,2457.2918,N,08013.7579,W,1,8,1.6,12,M,,M,,*51
06/04/2014	12:02:48.654	$GPGGA,120249,2457.2930,N,08013.7587,W,1,8,1.6,12,M,,M,,*5B
06/04/2014	12:02:49.638	$GPGGA,120250,2457.2940,N,08013.7598,W,1,8,1.6,12,M,,M,,*5A
06/04/2014	12:02:50.642	$GPGGA,120251,2457.2952,N,08013.7606,W,1,8,1.6,12,M,,M,,*5C
06/04/2014	12:02:51.656	$GPGGA,120252,2457.2966,N,08013.7616,W,1,8,1.6,12,M,,M,,*59
06/04/2014	12:02:52.660	$GPGGA,120253,2457.2977,N,08013.7624,W,1,8,1.6,12,M,,M,,*59
06/04/2014	12:02:53.664	$GPGGA,120254,2457.2988,N,08013.7634,W,1,8,1.6,12,M,,M,,*5F
06/04/2014	12:02:54.639	$GPGGA,120255,2457.3001,N,08013.7644,W,1,8,1.6,12,M,,M,,*50
06/04/2014	12:02:55.673	$GPGGA,120256,2457.3013,N,08013.7652,W,1,8,1.6,12,M,,M,,*57
06/04/2014	12:02:56.678	$GPGGA,120257,2457.3026,N,08013.7660,W,1,8,1.6,12,M,,M,,*51
06/04/2014	12:02:57.652	$GPGGA,120258,2457.3037,N,08013.7670,W,1,8,1.6,12,M,,M,,*5F
06/04/2014	12:02:58.676	$GPGGA,120259,2457.3049,N,08013.7680,W,1,8,1.6,12,M,,M,,*58
06/04/2014	12:02:59.681	$GPGGA,120300,2457.3060,N,08013.7688,W,1,8,1.6,12,M,,M,,*56
06/04/2014	12:03:00.665	$GPGGA,120301,2457.3074,N,08013.7697,W,1,8,1.6,12,M,,M,,*5C
06/04/2014	12:03:01.669	$GPGGA,120302,2457.3085,N,08013.7706,W,1,8,1.6,12,M,,M,,*58
06/04/2014	12:03:02.704	$GPGGA,120303,2457.3098,N,08013.7715,W,1,8,1.6,12,M,,M,,*57
06/04/2014	12:03:03.678	$GPGGA,120304,2457.3111,N,08013.7724,W,1,8,1.6,12,M,,M,,*52
06/04/2014	12:03:04.678	$GPGGA,120305,2457.3124,N,08013.7732,W,1,8,1.6,12,M,,M,,*52
06/04/2014	12:03:05.677	$GPGGA,120306,2457.3136,N,08013.7742,W,1,8,1.6,12,M,,M,,*55
06/04/2014	12:03:06.711	$GPGGA,120307,2457.3147,N,08013.7750,W,1,8,1.6,12,M,,M,,*51
06/04/2014	12:03:07.696	$GPGGA,120308,2457.3161,N,08013.7760,W,1,8,1.6,13,M,,M,,*58
06/04/2014	12:03:08.681	$GPGGA,120309,2457.3172,N,08013.7769,W,1,8,1.6,13,M,,M,,*52
06/04/2014	12:03:09.694	$GPGGA,120310,2457.3183,N,08013.7778,W,1,8,1.6,13,M,,M,,*54
06/04/2014	12:03:10.718	$GPGGA,120311,2457.3197,N,08013.7789,W,1,8,1.6,13,M,,M,,*5E
06/04/2014	12:03:11.693	$GPGGA,120312,2457.3208,N,08013.7797,W,1,8,1.6,13,M,,M,,*57
06/04/2014	12:03:12.737	$GPGGA,120313,2457.3221,N,08013.7807,W,1,8,1.6,13,M,,M,,*5B
06/04/2014	12:03:13.691	$GPGGA,120314,2457.3233,N,08013.7816,W,1,8,1.6,13,M,,M,,*5F
06/04/2014	12:03:14.685	$GPGGA,120315,2457.3248,N,08013.7825,W,1,8,1.6,13,M,,M,,*52
06/04/2014	12:03:15.720	$GPGGA,120316,2457.3258,N,08013.7836,W,1,8,1.6,13,M,,M,,*52
06/04/2014	12:03:16.694	$GPGGA,120317,2457.3270,N,08013.7845,W,1,8,1.6,13,M,,M,,*5D
06/04/2014	12:03:17.819	$GPGGA,120318,2457.3286,N,08013.7854,W,1,8,1.6,13,M,,M,,*5B
06/04/2014	12:03:18.693	$GPGGA,120319,2457.3297,N,08013.7862,W,1,8,1.6,13,M,,M,,*5F
06/04/2014	12:03:19.828	$GPGGA,120320,2457.3306,N,08013.7873,W,1,8,1.6,13,M,,M,,*5C
06/04/2014	12:03:20.832	$GPGGA,120321,2457.3320,N,08013.7881,W,1,8,1.6,13,M,,M,,*54
06/04/2014	12:03:21.716	$GPGGA,120322,2457.3333,N,08013.7890,W,1,8,1.6,13,M,,M,,*55
06/04/2014	12:03:22.711	$GPGGA,120323,2457.3344,N,08013.7901,W,1,8,1.6,13,M,,M,,*5D
06/04/2014	12:03:23.725	$GPGGA,120324,2457.3355,N,08013.7910,W,1,8,1.6,13,M,,M,,*5A
06/04/2014	12:03:24.729	$GPGGA,120325,2457.3367,N,08013.7919,W,1,8,1.6,13,M,,M,,*53
06/04/2014	12:03:25.835	$GPGGA,120326,2457.3380,N,08013.7928,W,1,8,1.6,13,M,,M,,*5B
06/04/2014	12:03:26.737	$GPGGA,120327,2457.3392,N,08013.7938,W,1,8,1.6,13,M,,M,,*58
06/04/2014	12:03:27.842	$GPGGA,120328,2457.3403,N,08013.7948,W,1,8,1.6,13,M,,M,,*5F
06/04/2014	12:03:28.746	$GPGGA,120329,2457.3414,N,08013.7956,W,1,8,1.6,13,M,,M,,*57
06/04/2014	12:03:29.831	$GPGGA,120330,2457.3428,N,08013.7966,W,1,8,1.6,13,M,,M,,*53
06/04/2014	12:03:30.865	$GPGGA,120331,2457.3439,N,08013.7975,W,1,8,1.6,13,M,,M,,*50
06/04/2014	12:03:31.487	$GPGGA,120332,2457.3450,N,08013.7985,W,1,8,1.6,13,M,,M,,*53
06/04/2014	12:03:32.582	$GPGGA,120333,2457.3463,N,08013.7995,W,1,8,1.6,13,M,,M,,*53
06/04/2014	12:03:33.576	$GPGGA,120334,2457.3475,N,08013.8003,W,1,8,1.6,13,M,,M,,*5A
06/04/2014	12:03:34.621	$GPGGA,120335,2457.3486,N,08013.8013,W,1,8,1.6,13,M,,M,,*56
06/04/2014	12:03:35.595	$GPGGA,120336,2457.3497,N,08013.8022,W,1,8,1.6,13,M,,M,,*57
06/04/2014	12:03:36.610	$GPGGA,120337,2457.3511,N,08013.8031,W,1,8,1.6,13,M,,M,,*5B
06/04/2014	12:03:37.584	$GPGGA,120338,2457.3522,N,08013.8042,W,1,8,1.6,12,M,,M,,*51
06/04/2014	12:03:38.619	$GPGGA,120339,2457.3533,N,08013.8050,W,1,8,1.6,12,M,,M,,*53
06/04/2014	12:03:39.613	$GPGGA,120340,2457.3548,N,08013.8060,W,1,8,1.6,12,M,,M,,*52
06/04/2014	12:03:40.607	$GPGGA,120341,2457.3561,N,08013.8067,W,1,8,1.6,12,M,,M,,*5F
06/04/2014	12:03:41.601	$GPGGA,120342,2457.3569,N,08013.8078,W,1,8,1.6,12,M,,M,,*5A
06/04/2014	12:03:42.616	$GPGGA,120343,2457.3582,N,08013.8089,W,1,8,1.6,12,M,,M,,*50
06/04/2014	12:03:43.609	$GPGGA,120344,2457.3595,N,08013.8097,W,1,8,1.6,12,M,,M,,*5E
06/04/2014	12:03:44.634	$GPGGA,120345,2457.3606,N,08013.8107,W,1,8,1.6,12,M,,M,,*5E
06/04/2014	12:03:45.608	$GPGGA,120346,2457.3617,N,08013.8116,W,1,8,1.6,12,M,,M,,*5D
06/04/2014	12:03:46.633	$GPGGA,120347,2457.3629,N,08013.8126,W,1,8,1.6,12,M,,M,,*52
06/04/2014	12:03:47.627	$GPGGA,120348,2457.3642,N,08013.8134,W,1,8,1.6,12,M,,M,,*53
06/04/2014	12:03:48.631	$GPGGA,120349,2457.3656,N,08013.8143,W,1,8,1.6,12,M,,M,,*57
06/04/2014	12:03:49.616	$GPGGA,120350,2457.3667,N,08013.8154,W,1,8,1.6,12,M,,M,,*5B
06/04/2014	12:03:50.610	$GPGGA,120351,2457.3678,N,08013.8162,W,1,8,1.6,12,M,,M,,*51
06/04/2014	12:03:51.634	$GPGGA,120352,2457.3692,N,08013.8172,W,1,8,1.6,12,M,,M,,*57
06/04/2014	12:03:52.649	$GPGGA,120353,2457.3703,N,08013.8180,W,1,8,1.6,12,M,,M,,*52
06/04/2014	12:03:53.613	$GPGGA,120354,2457.3714,N,08013.8190,W,1,8,1.6,12,M,,M,,*52
06/04/2014	12:03:54.628	$GPGGA,120355,2457.3725,N,08013.8201,W,1,8,1.6,12,M,,M,,*5A
06/04/2014	12:03:55.642	$GPGGA,120356,2457.3738,N,08013.8208,W,1,8,1.6,12,M,,M,,*5C
06/04/2014	12:03:56.626	$GPGGA,120357,2457.3750,N,08013.8217,W,1,8,1.6,12,M,,M,,*5D
06/04/2014	12:03:57.651	$GPGGA,120358,2457.3761,N,08013.8227,W,1,8,1.6,12,M,,M,,*53
06/04/2014	12:03:58.665	$GPGGA,120359,2457.3774,N,08013.8237,W,1,8,1.6,12,M,,M,,*57
06/04/2014	12:03:59.660	$GPGGA,120400,2457.3788,N,08013.8244,W,1,8,1.6,12,M,,M,,*5B
06/04/2014	12:04:00.644	$GPGGA,120401,2457.3801,N,08013.8253,W,1,8,1.6,12,M,,M,,*52
06/04/2014	12:04:01.647	$GPGGA,120402,2457.3811,N,08013.8263,W,1,8,1.6,12,M,,M,,*53
06/04/2014	12:04:02.668	$GPGGA,120403,2457.3822,N,08013.8273,W,1,8,1.6,12,M,,M,,*53
06/04/2014	12:04:03.656	$GPGGA,120404,2457.3836,N,08013.8281,W,1,8,1.6,12,M,,M,,*5C
06/04/2014	12:04:04.681	$GPGGA,120405,2457.3847,N,08013.8291,W,1,8,1.6,12,M,,M,,*5A
06/04/2014	12:04:05.665	$GPGGA,120406,2457.3858,N,08013.8300,W,1,8,1.6,12,M,,M,,*5E
06/04/2014	12:04:06.679	$GPGGA,120407,2457.3871,N,08013.8309,W,1,8,1.6,12,M,,M,,*5D
06/04/2014	12:04:07.674	$GPGGA,120408,2457.3884,N,08013.8318,W,1,8,1.6,12,M,,M,,*58
06/04/2014	12:04:08.768	$GPGGA,120409,2457.3895,N,08013.8327,W,1,8,1.6,12,M,,M,,*55
06/04/2014	12:04:09.753	$GPGGA,120410,2457.3908,N,08013.8338,W,1,8,1.6,12,M,,M,,*56
06/04/2014	12:04:10.667	$GPGGA,120411,2457.3920,N,08013.8346,W,1,8,1.6,12,M,,M,,*54
06/04/2014	12:04:11.681	$GPGGA,120412,2457.3933,N,08013.8356,W,1,8,1.6,12,M,,M,,*54
06/04/2014	12:04:12.666	$GPGGA,120413,2457.3945,N,08013.8364,W,1,8,1.6,12,M,,M,,*55
06/04/2014	12:04:13.760	$GPGGA,120414,2457.3956,N,08013.8374,W,1,8,1.6,12,M,,M,,*51
06/04/2014	12:04:14.765	$GPGGA,120415,2457.3969,N,08013.8383,W,1,8,1.6,12,M,,M,,*54
06/04/2014	12:04:15.779	$GPGGA,120416,2457.3981,N,08013.8393,W,1,8,1.6,12,M,,M,,*50
06/04/2014	12:04:16.774	$GPGGA,120417,2457.3992,N,08013.8403,W,1,8,1.6,12,M,,M,,*5D
06/04/2014	12:04:17.688	$GPGGA,120418,2457.4005,N,08013.8414,W,1,8,1.6,12,M,,M,,*54
06/04/2014	12:04:18.771	$GPGGA,120419,2457.4017,N,08013.8422,W,1,8,1.6,12,M,,M,,*53
06/04/2014	12:04:19.725	$GPGGA,120420,2457.4028,N,08013.8432,W,1,8,1.6,12,M,,M,,*54
06/04/2014	12:04:20.800	$GPGGA,120421,2457.4041,N,08013.8441,W,1,8,1.6,12,M,,M,,*5E
06/04/2014	12:04:21.785	$GPGGA,120422,2457.4053,N,08013.8451,W,1,8,1.6,12,M,,M,,*5F
06/04/2014	12:04:22.799	$GPGGA,120423,2457.4066,N,08013.8461,W,1,8,1.6,12,M,,M,,*5B
06/04/2014	12:04:23.803	$GPGGA,120424,2457.4078,N,08013.8470,W,1,8,1.6,12,M,,M,,*53
06/04/2014	12:04:24.798	$GPGGA,120425,2457.4090,N,08013.8479,W,1,8,1.6,12,M,,M,,*5D
06/04/2014	12:04:25.802	$GPGGA,120426,2457.4100,N,08013.8490,W,1,8,1.6,12,M,,M,,*51
06/04/2014	12:04:26.817	$GPGGA,120427,2457.4114,N,08013.8498,W,1,8,1.6,12,M,,M,,*5D
06/04/2014	12:04:27.811	$GPGGA,120428,2457.4125,N,08013.8508,W,1,8,1.6,12,M,,M,,*58
06/04/2014	12:04:28.795	$GPGGA,120429,2457.4137,N,08013.8517,W,1,8,1.6,12,M,,M,,*54
06/04/2014	12:04:29.810	$GPGGA,120430,2457.4147,N,08013.8527,W,1,8,1.6,12,M,,M,,*58
06/04/2014	12:04:30.824	$GPGGA,120431,2457.4160,N,08013.8537,W,1,8,1.6,12,M,,M,,*5D
06/04/2014	12:04:31.556	$GPGGA,120432,2457.4173,N,08013.8546,W,1,8,1.6,12,M,,M,,*5A
06/04/2014	12:04:32.561	$GPGGA,120433,2457.4186,N,08013.8555,W,1,8,1.6,12,M,,M,,*53
06/04/2014	12:04:33.555	$GPGGA,120434,2457.4198,N,08013.8564,W,1,8,1.6,12,M,,M,,*59
06/04/2014	12:04:34.570	$GPGGA,120435,2457.4209,N,08013.8573,W,1,8,1.6,12,M,,M,,*55
06/04/2014	12:04:35.554	$GPGGA,120436,2457.4222,N,08013.8582,W,1,8,1.6,12,M,,M,,*51
06/04/2014	12:04:36.577	$GPGGA,120437,2457.4234,N,08013.8591,W,1,8,1.6,12,M,,M,,*55
06/04/2014	12:04:37.560	$GPGGA,120438,2457.4245,N,08013.8602,W,1,8,1.6,12,M,,M,,*55
06/04/2014	12:04:38.596	$GPGGA,120439,2457.4256,N,08013.8611,W,1,8,1.6,12,M,,M,,*54
06/04/2014	12:04:39.571	$GPGGA,120440,2457.4270,N,08013.8620,W,1,8,1.6,12,M,,M,,*5C
06/04/2014	12:04:40.585	$GPGGA,120441,2457.4283,N,08013.8629,W,1,8,1.6,12,M,,M,,*58
06/04/2014	12:04:41.569	$GPGGA,120442,2457.4295,N,08013.8638,W,1,8,1.6,12,M,,M,,*5C
06/04/2014	12:04:42.604	$GPGGA,120443,2457.4307,N,08013.8649,W,1,8,1.6,12,M,,M,,*51
06/04/2014	12:04:43.578	$GPGGA,120444,2457.4321,N,08013.8657,W,1,8,1.6,12,M,,M,,*5D
06/04/2014	12:04:44.562	$GPGGA,120445,2457.4332,N,08013.8667,W,1,8,1.6,12,M,,M,,*5D
06/04/2014	12:04:45.587	$GPGGA,120446,2457.4346,N,08013.8675,W,1,8,1.6,12,M,,M,,*5E
06/04/2014	12:04:46.582	$GPGGA,120447,2457.4357,N,08013.8685,W,1,8,1.6,12,M,,M,,*50
06/04/2014	12:04:47.596	$GPGGA,120448,2457.4368,N,08013.8694,W,1,8,1.6,12,M,,M,,*53
06/04/2014	12:04:48.580	$GPGGA,120449,2457.4382,N,08013.8703,W,1,8,1.6,12,M,,M,,*59
06/04/2014	12:04:49.574	$GPGGA,120450,2457.4395,N,08013.8711,W,1,8,1.6,12,M,,M,,*54
06/04/2014	12:04:50.599	$GPGGA,120451,2457.4406,N,08013.8721,W,1,8,1.6,12,M,,M,,*5B
06/04/2014	12:04:51.603	$GPGGA,120452,2457.4418,N,08013.8730,W,1,8,1.6,11,M,,M,,*54
06/04/2014	12:04:52.589	$GPGGA,120453,2457.4432,N,08013.8737,W,1,8,1.6,11,M,,M,,*5A
06/04/2014	12:04:53.601	$GPGGA,120454,2457.4444,N,08013.8746,W,1,8,1.6,11,M,,M,,*5A
06/04/2014	12:04:54.605	$GPGGA,120455,2457.4455,N,08013.8757,W,1,8,1.6,11,M,,M,,*5B
06/04/2014	12:04:55.610	$GPGGA,120456,2457.4468,N,08013.8765,W,1,8,1.6,11,M,,M,,*57
06/04/2014	12:04:56.705	$GPGGA,120457,2457.4482,N,08013.8775,W,1,8,1.6,11,M,,M,,*53
06/04/2014	12:04:57.599	$GPGGA,120458,2457.4493,N,08013.8784,W,1,8,1.6,11,M,,M,,*52
06/04/2014	12:04:58.623	$GPGGA,120459,2457.4504,N,08013.8793,W,1,8,1.6,11,M,,M,,*5A
06/04/2014	12:04:59.627	$GPGGA,120500,2457.4518,N,08013.8802,W,1,8,1.6,11,M,,M,,*5D
06/04/2014	12:05:00.632	$GPGGA,120501,2457.4530,N,08013.8811,W,1,8,1.6,11,M,,M,,*54
06/04/2014	12:05:01.607	$GPGGA,120502,2457.4541,N,08013.8822,W,1,8,1.6,11,M,,M,,*51
06/04/2014	12:05:02.621	$GPGGA,120503,2457.4552,N,08013.8831,W,1,8,1.6,11,M,,M,,*50
06/04/2014	12:05:03.745	$GPGGA,120504,2457.4566,N,08013.8840,W,1,8,1.6,11,M,,M,,*56
06/04/2014	12:05:04.629	$GPGGA,120505,2457.4577,N,08013.8849,W,1,8,1.6,11,M,,M,,*5E
06/04/2014	12:05:05.624	$GPGGA,120506,2457.4590,N,08013.8858,W,1,8,1.6,11,M,,M,,*54
06/04/2014	12:05:06.729	$GPGGA,120507,2457.4601,N,08013.8867,W,1,8,1.6,11,M,,M,,*52
06/04/2014	12:05:07.733	$GPGGA,120508,2457.4613,N,08013.8877,W,1,8,1.6,11,M,,M,,*5F
06/04/2014	12:05:08.757	$GPGGA,120509,2457.4626,N,08013.8887,W,1,8,1.6,11,M,,M,,*57
06/04/2014	12:05:09.732	$GPGGA,120510,2457.4638,N,08013.8895,W,1,8,1.6,11,M,,M,,*53
06/04/2014	12:05:10.726	$GPGGA,120511,2457.4649,N,08013.8905,W,1,8,1.6,11,M,,M,,*5C
06/04/2014	12:05:11.750	$GPGGA,120512,2457.4660,N,08013.8914,W,1,8,1.6,11,M,,M,,*54
06/04/2014	12:05:12.754	$GPGGA,120513,2457.4673,N,08013.8923,W,1,8,1.6,11,M,,M,,*53
06/04/2014	12:05:13.738	$GPGGA,120514,2457.4685,N,08013.8932,W,1,8,1.6,11,M,,M,,*5D
06/04/2014	12:05:14.753	$GPGGA,120515,2457.4696,N,08013.8942,W,1,8,1.6,11,M,,M,,*59
06/04/2014	12:05:15.757	$GPGGA,120516,2457.4707,N,08013.8952,W,1,8,1.6,11,M,,M,,*52
06/04/2014	12:05:16.761	$GPGGA,120517,2457.4721,N,08013.8961,W,1,8,1.6,11,M,,M,,*57
06/04/2014	12:05:17.736	$GPGGA,120518,2457.4733,N,08013.8970,W,1,8,1.6,11,M,,M,,*5B
06/04/2014	12:05:18.780	$GPGGA,120519,2457.4744,N,08013.8979,W,1,8,1.6,11,M,,M,,*53
06/04/2014	12:05:19.765	$GPGGA,120520,2457.4758,N,08013.8988,W,1,8,1.6,11,M,,M,,*5A
06/04/2014	12:05:20.769	$GPGGA,120521,2457.4768,N,08013.8997,W,1,8,1.6,10,M,,M,,*57
06/04/2014	12:05:21.754	$GPGGA,120522,2457.4779,N,08013.9007,W,1,8,1.6,10,M,,M,,*55
06/04/2014	12:05:22.778	$GPGGA,120523,2457.4790,N,08013.9017,W,1,8,1.6,10,M,,M,,*52
06/04/2014	12:05:23.772	$GPGGA,120524,2457.4804,N,08013.9025,W,1,8,1.6,10,M,,M,,*56
06/04/2014	12:05:24.757	$GPGGA,120525,2457.4815,N,08013.9035,W,1,8,1.6,10,M,,M,,*56
06/04/2014	12:05:25.771	$GPGGA,120526,2457.4827,N,08013.9044,W,1,8,1.6,10,M,,M,,*52
06/04/2014	12:05:26.795	$GPGGA,120527,2457.4840,N,08013.9053,W,1,8,1.6,10,M,,M,,*54
06/04/2014	12:05:27.772	$GPGGA,120528,2457.4852,N,08013.9061,W,1,8,1.6,10,M,,M,,*59
06/04/2014	12:05:28.783	$GPGGA,120529,2457.4863,N,08013.9069,W,1,8,1.6,10,M,,M,,*52
06/04/2014	12:05:29.788	$GPGGA,120530,2457.4874,N,08013.9079,W,1,8,1.6,10,M,,M,,*5D
06/04/2014	12:05:30.812	$GPGGA,120531,2457.4887,N,08013.9087,W,1,8,1.6,10,M,,M,,*51
06/04/2014	12:05:31.534	$GPGGA,120532,2457.4899,N,08013.9097,W,1,8,1.6,10,M,,M,,*5C
06/04/2014	12:05:32.559	$GPGGA,120533,2457.4910,N,08013.9107,W,1,8,1.6,10,M,,M,,*55
06/04/2014	12:05:33.533	$GPGGA,120534,2457.4921,N,08013.9115,W,1,8,1.6,10,M,,M,,*53
06/04/2014	12:05:34.517	$GPGGA,120535,2457.4934,N,08013.9124,W,1,8,1.6,10,M,,M,,*54
06/04/2014	12:05:35.562	$GPGGA,120536,2457.4946,N,08013.9133,W,1,8,1.6,10,M,,M,,*54
06/04/2014	12:05:36.551	$GPGGA,120537,2457.4959,N,08013.9142,W,1,8,1.6,11,M,,M,,*5C
06/04/2014	12:05:37.531	$GPGGA,120538,2457.4971,N,08013.9151,W,1,8,1.6,11,M,,M,,*5B
06/04/2014	12:05:38.545	$GPGGA,120539,2457.4982,N,08013.9160,W,1,8,1.6,11,M,,M,,*54
06/04/2014	12:05:39.560	$GPGGA,120540,2457.4993,N,08013.9169,W,1,8,1.6,11,M,,M,,*53
06/04/2014	12:05:40.554	$GPGGA,120541,2457.5007,N,08013.9178,W,1,8,1.6,11,M,,M,,*57
06/04/2014	12:05:41.528	$GPGGA,120542,2457.5018,N,08013.9187,W,1,8,1.6,11,M,,M,,*5A
06/04/2014	12:05:42.533	$GPGGA,120543,2457.5029,N,08013.9198,W,1,8,1.6,11,M,,M,,*57
06/04/2014	12:05:43.668	$GPGGA,120544,2457.5042,N,08013.9205,W,1,8,1.6,11,M,,M,,*5A
06/04/2014	12:05:44.561	$GPGGA,120545,2457.5056,N,08013.9214,W,1,8,1.6,11,M,,M,,*5E
06/04/2014	12:05:45.646	$GPGGA,120546,2457.5069,N,08013.9223,W,1,8,2.1,11,M,,M,,*51
06/04/2014	12:05:46.670	$GPGGA,120547,2457.5082,N,08013.9232,W,1,8,1.6,11,M,,M,,*51
06/04/2014	12:05:47.574	$GPGGA,120548,2457.5097,N,08013.9241,W,1,8,1.6,11,M,,M,,*5E
06/04/2014	12:05:48.578	$GPGGA,120549,2457.5108,N,08013.9249,W,1,8,1.6,11,M,,M,,*50
06/04/2014	12:05:49.663	$GPGGA,120550,2457.5119,N,08013.9260,W,1,8,1.8,11,M,,M,,*5D
06/04/2014	12:05:50.567	$GPGGA,120551,2457.5133,N,08013.9270,W,1,8,1.6,12,M,,M,,*58
06/04/2014	12:05:51.571	$GPGGA,120552,2457.5145,N,08013.9278,W,1,8,1.6,12,M,,M,,*52
06/04/2014	12:05:52.656	$GPGGA,120553,2457.5158,N,08013.9289,W,1,7,2.3,12,M,,M,,*58
06/04/2014	12:05:53.670	$GPGGA,120554,2457.5169,N,08013.9297,W,1,7,1.6,12,M,,M,,*54
06/04/2014	12:05:54.665	$GPGGA,120555,2457.5181,N,08013.9306,W,1,8,1.6,12,M,,M,,*55
06/04/2014	12:05:55.689	$GPGGA,120556,2457.5191,N,08013.9314,W,1,8,1.6,12,M,,M,,*54
06/04/2014	12:05:56.694	$GPGGA,120557,2457.5202,N,08013.9322,W,1,8,1.6,13,M,,M,,*58
06/04/2014	12:05:57.678	$GPGGA,120558,2457.5215,N,08013.9331,W,1,8,1.6,13,M,,M,,*53
06/04/2014	12:05:58.672	$GPGGA,120559,2457.5226,N,08013.9339,W,1,8,1.6,13,M,,M,,*5A
06/04/2014	12:05:59.707	$GPGGA,120600,2457.5237,N,08013.9348,W,1,8,1.6,13,M,,M,,*53
06/04/2014	12:06:00.691	$GPGGA,120601,2457.5251,N,08013.9357,W,1,8,1.6,14,M,,M,,*5B
06/04/2014	12:06:01.685	$GPGGA,120602,2457.5263,N,08013.9366,W,1,8,1.6,14,M,,M,,*5B
06/04/2014	12:06:02.690	$GPGGA,120603,2457.5274,N,08013.9376,W,1,8,1.6,14,M,,M,,*5D
06/04/2014	12:06:03.703	$GPGGA,120604,2457.5285,N,08013.9386,W,1,8,1.6,15,M,,M,,*5A
06/04/2014	12:06:04.698	$GPGGA,120605,2457.5300,N,08013.9393,W,1,8,1.6,15,M,,M,,*53
06/04/2014	12:06:05.692	$GPGGA,120606,2457.5311,N,08013.9404,W,1,8,1.6,15,M,,M,,*59
06/04/2014	12:06:06.706	$GPGGA,120607,2457.5322,N,08013.9412,W,1,8,1.6,15,M,,M,,*5F
06/04/2014	12:06:07.701	$GPGGA,120608,2457.5336,N,08013.9422,W,1,8,1.6,16,M,,M,,*55
06/04/2014	12:06:08.725	$GPGGA,120609,2457.5347,N,08013.9431,W,1,8,1.6,16,M,,M,,*50
06/04/2014	12:06:09.690	$GPGGA,120610,2457.5358,N,08013.9441,W,1,8,1.6,16,M,,M,,*51
06/04/2014	12:06:10.724	$GPGGA,120611,2457.5371,N,08013.9451,W,1,8,1.6,16,M,,M,,*5A
06/04/2014	12:06:11.708	$GPGGA,120612,2457.5382,N,08013.9459,W,1,8,1.6,16,M,,M,,*5D
06/04/2014	12:06:12.723	$GPGGA,120613,2457.5394,N,08013.9469,W,1,8,1.6,17,M,,M,,*59
06/04/2014	12:06:13.707	$GPGGA,120614,2457.5407,N,08013.9478,W,1,8,1.6,17,M,,M,,*53
06/04/2014	12:06:14.752	$GPGGA,120615,2457.5419,N,08013.9488,W,1,8,1.6,17,M,,M,,*52
06/04/2014	12:06:15.736	$GPGGA,120616,2457.5430,N,08013.9498,W,1,8,1.6,17,M,,M,,*5B
06/04/2014	12:06:16.750	$GPGGA,120617,2457.5444,N,08013.9508,W,1,8,1.6,17,M,,M,,*51
06/04/2014	12:06:17.715	$GPGGA,120618,2457.5455,N,08013.9516,W,1,8,1.6,17,M,,M,,*51
06/04/2014	12:06:18.730	$GPGGA,120619,2457.5468,N,08013.9527,W,1,8,1.6,17,M,,M,,*5C
06/04/2014	12:06:19.744	$GPGGA,120620,2457.5480,N,08013.9537,W,1,8,1.6,17,M,,M,,*51
06/04/2014	12:06:20.738	$GPGGA,120621,2457.5491,N,08013.9545,W,1,8,1.6,18,M,,M,,*5A
06/04/2014	12:06:21.731	$GPGGA,120622,2457.5502,N,08013.9556,W,1,8,1.6,18,M,,M,,*50
06/04/2014	12:06:22.736	$GPGGA,120623,2457.5515,N,08013.9564,W,1,8,1.6,18,M,,M,,*56
06/04/2014	12:06:23.750	$GPGGA,120624,2457.5527,N,08013.9574,W,1,8,1.6,18,M,,M,,*51
06/04/2014	12:06:24.765	$GPGGA,120625,2457.5538,N,08013.9584,W,1,8,1.6,18,M,,M,,*51
06/04/2014	12:06:25.749	$GPGGA,120626,2457.5549,N,08013.9593,W,1,8,1.6,18,M,,M,,*52
06/04/2014	12:06:26.894	$GPGGA,120627,2457.5563,N,08013.9603,W,1,8,1.6,18,M,,M,,*51
06/04/2014	12:06:27.758	$GPGGA,120628,2457.5574,N,08013.9611,W,1,8,1.6,18,M,,M,,*5B
06/04/2014	12:06:28.752	$GPGGA,120629,2457.5585,N,08013.9621,W,1,8,1.6,18,M,,M,,*57
06/04/2014	12:06:29.927	$GPGGA,120630,2457.5598,N,08013.9631,W,1,8,1.6,18,M,,M,,*52
06/04/2014	12:06:30.741	$GPGGA,120631,2457.5610,N,08013.9640,W,1,8,1.6,18,M,,M,,*56
06/04/2014	12:06:31.595	$GPGGA,120632,2457.5621,N,08013.9650,W,1,8,1.6,18,M,,M,,*56
06/04/2014	12:06:32.498	$GPGGA,120633,2457.5632,N,08013.9660,W,1,8,1.6,18,M,,M,,*56
06/04/2014	12:06:33.582	$GPGGA,120634,2457.5643,N,08013.9669,W,1,8,1.6,18,M,,M,,*5E
06/04/2014	12:06:34.667	$GPGGA,120635,2457.5654,N,08013.9678,W,1,8,1.6,18,M,,M,,*59
06/04/2014	12:06:35.522	$GPGGA,120636,2457.5667,N,08013.9689,W,1,8,1.6,18,M,,M,,*54
06/04/2014	12:06:36.505	$GPGGA,120637,2457.5679,N,08013.9697,W,1,8,1.6,18,M,,M,,*55
06/04/2014	12:06:37.590	$GPGGA,120638,2457.5690,N,08013.9707,W,1,8,1.6,18,M,,M,,*55
06/04/2014	12:06:38.503	$GPGGA,120639,2457.5703,N,08013.9716,W,1,8,1.6,18,M,,M,,*5F
06/04/2014	12:06:39.517	$GPGGA,120640,2457.5715,N,08013.9725,W,1,8,1.6,18,M,,M,,*56
06/04/2014	12:06:40.692	$GPGGA,120641,2457.5726,N,08013.9734,W,1,8,1.6,18,M,,M,,*57
06/04/2014	12:06:41.677	$GPGGA,120642,2457.5737,N,08013.9744,W,1,8,1.6,18,M,,M,,*53
06/04/2014	12:06:42.611	$GPGGA,120643,2457.5748,N,08013.9754,W,1,8,1.6,18,M,,M,,*5B
06/04/2014	12:06:43.696	$GPGGA,120644,2457.5759,N,08013.9763,W,1,8,1.6,18,M,,M,,*58
06/04/2014	12:06:44.710	$GPGGA,120645,2457.5772,N,08013.9772,W,1,8,1.6,18,M,,M,,*50
06/04/2014	12:06:45.614	$GPGGA,120646,2457.5783,N,08013.9783,W,1,8,1.6,18,M,,M,,*53
06/04/2014	12:06:46.669	$GPGGA,120647,2457.5794,N,08013.9791,W,1,8,1.6,18,M,,M,,*57
06/04/2014	12:06:47.713	$GPGGA,120648,2457.5806,N,08013.9801,W,1,8,1.6,18,M,,M,,*5A
06/04/2014	12:06:48.677	$GPGGA,120649,2457.5819,N,08013.9809,W,1,8,1.6,18,M,,M,,*5D
06/04/2014	12:06:49.722	$GPGGA,120650,2457.5829,N,08013.9820,W,1,8,1.6,18,M,,M,,*5D
06/04/2014	12:06:50.676	$GPGGA,120651,2457.5841,N,08013.9830,W,1,8,1.6,18,M,,M,,*53
06/04/2014	12:06:51.711	$GPGGA,120652,2457.5853,N,08013.9838,W,1,8,1.6,18,M,,M,,*5B
06/04/2014	12:06:52.635	$GPGGA,120653,2457.5866,N,08013.9848,W,1,8,1.6,18,M,,M,,*5B
06/04/2014	12:06:53.709	$GPGGA,120654,2457.5874,N,08013.9859,W,1,8,1.6,18,M,,M,,*5F
06/04/2014	12:06:54.734	$GPGGA,120655,2457.5887,N,08013.9868,W,1,8,1.6,18,M,,M,,*50
06/04/2014	12:06:55.728	$GPGGA,120656,2457.5899,N,08013.9877,W,1,8,1.6,18,M,,M,,*52
06/04/2014	12:06:56.680	$GPGGA,120657,2457.5911,N,08013.9886,W,1,8,1.6,18,M,,M,,*5C
06/04/2014	12:06:57.633	$GPGGA,120658,2457.5921,N,08013.9896,W,1,8,1.6,18,M,,M,,*51
06/04/2014	12:06:58.636	$GPGGA,120659,2457.5932,N,08013.9906,W,1,8,1.6,18,M,,M,,*5A
06/04/2014	12:06:59.780	$GPGGA,120700,2457.5945,N,08013.9915,W,1,8,1.6,18,M,,M,,*55
06/04/2014	12:07:00.642	$GPGGA,120701,2457.5957,N,08013.9924,W,1,8,1.6,18,M,,M,,*55
06/04/2014	12:07:01.706	$GPGGA,120702,2457.5968,N,08013.9933,W,1,8,1.6,18,M,,M,,*5C
06/04/2014	12:07:02.699	$GPGGA,120703,2457.5979,N,08013.9942,W,1,8,1.6,17,M,,M,,*54
06/04/2014	12:07:03.732	$GPGGA,120704,2457.5990,N,08013.9951,W,1,8,1.6,17,M,,M,,*56
06/04/2014	12:07:04.755	$GPGGA,120705,2457.6001,N,08013.9960,W,1,8,1.6,17,M,,M,,*57
06/04/2014	12:07:05.698	$GPGGA,120706,2457.6014,N,08013.9971,W,1,8,1.6,17,M,,M,,*50
06/04/2014	12:07:06.682	$GPGGA,120707,2457.6025,N,08013.9980,W,1,8,2.2,17,M,,M,,*5A
06/04/2014	12:07:07.745	$GPGGA,120708,2457.6033,N,08013.9989,W,1,8,2.2,17,M,,M,,*5B
06/04/2014	12:07:08.708	$GPGGA,120709,2457.6046,N,08013.9997,W,1,8,1.6,17,M,,M,,*50
06/04/2014	12:07:09.721	$GPGGA,120710,2457.6058,N,08014.0007,W,1,8,1.6,17,M,,M,,*59
06/04/2014	12:07:10.785	$GPGGA,120711,2457.6066,N,08014.0016,W,1,8,1.6,17,M,,M,,*55
06/04/2014	12:07:11.668	$GPGGA,120712,2457.6077,N,08014.0025,W,1,8,1.6,17,M,,M,,*56
06/04/2014	12:07:12.712	$GPGGA,120713,2457.6091,N,08014.0033,W,1,8,1.6,17,M,,M,,*58
06/04/2014	12:07:13.653	$GPGGA,120714,2457.6104,N,08014.0043,W,1,8,1.6,17,M,,M,,*55
06/04/2014	12:07:14.656	$GPGGA,120715,2457.6113,N,08014.0051,W,1,7,2.2,17,M,,M,,*59
06/04/2014	12:07:15.729	$GPGGA,120716,2457.6124,N,08014.0061,W,1,7,1.6,17,M,,M,,*5A
06/04/2014	12:07:16.793	$GPGGA,120717,2457.6138,N,08014.0069,W,1,8,1.6,17,M,,M,,*51
06/04/2014	12:07:17.726	$GPGGA,120718,2457.6148,N,08014.0077,W,1,8,1.6,17,M,,M,,*56
06/04/2014	12:07:18.699	$GPGGA,120719,2457.6156,N,08014.0087,W,1,8,1.6,17,M,,M,,*57
06/04/2014	12:07:19.672	$GPGGA,120720,2457.6167,N,08014.0095,W,1,8,1.6,17,M,,M,,*5C
06/04/2014	12:07:20.665	$GPGGA,120721,2457.6181,N,08014.0105,W,1,8,1.6,17,M,,M,,*5D
06/04/2014	12:07:21.769	$GPGGA,120722,2457.6192,N,08014.0115,W,1,8,1.6,17,M,,M,,*5D
06/04/2014	12:07:22.673	$GPGGA,120723,2457.6202,N,08014.0123,W,1,8,1.6,17,M,,M,,*53
06/04/2014	12:07:23.735	$GPGGA,120724,2457.6214,N,08014.0133,W,1,8,1.6,17,M,,M,,*52
06/04/2014	12:07:24.708	$GPGGA,120725,2457.6227,N,08014.0141,W,1,8,1.6,17,M,,M,,*56
06/04/2014	12:07:25.781	$GPGGA,120726,2457.6238,N,08014.0148,W,1,8,1.6,17,M,,M,,*52
06/04/2014	12:07:26.745	$GPGGA,120727,2457.6247,N,08014.0159,W,1,8,1.6,17,M,,M,,*5B
06/04/2014	12:07:27.808	$GPGGA,120728,2457.6260,N,08014.0167,W,1,8,1.6,17,M,,M,,*5C
06/04/2014	12:07:28.801	$GPGGA,120729,2457.6272,N,08014.0177,W,1,8,1.6,17,M,,M,,*5F
06/04/2014	12:07:29.794	$GPGGA,120730,2457.6283,N,08014.0185,W,1,8,1.6,17,M,,M,,*54
06/04/2014	12:07:30.808	$GPGGA,120731,2457.6293,N,08014.0195,W,1,8,1.6,17,M,,M,,*55
06/04/2014	12:07:31.580	$GPGGA,120732,2457.6306,N,08014.0203,W,1,8,1.6,17,M,,M,,*57
06/04/2014	12:07:32.573	$GPGGA,120733,2457.6318,N,08014.0213,W,1,8,1.6,17,M,,M,,*58
06/04/2014	12:07:33.566	$GPGGA,120734,2457.6329,N,08014.0222,W,1,8,1.6,17,M,,M,,*5F
06/04/2014	12:07:34.570	$GPGGA,120735,2457.6342,N,08014.0233,W,1,8,2.2,17,M,,M,,*54
06/04/2014	12:07:35.593	$GPGGA,120736,2457.6353,N,08014.0242,W,1,8,1.6,17,M,,M,,*56
06/04/2014	12:07:36.586	$GPGGA,120737,2457.6365,N,08014.0250,W,1,8,1.6,17,M,,M,,*51
06/04/2014	12:07:37.559	$GPGGA,120738,2457.6375,N,08014.0260,W,1,8,1.6,17,M,,M,,*5C
06/04/2014	12:07:38.592	$GPGGA,120739,2457.6387,N,08014.0269,W,1,8,1.6,17,M,,M,,*59
06/04/2014	12:07:39.576	$GPGGA,120740,2457.6398,N,08014.0278,W,1,8,1.6,17,M,,M,,*59
06/04/2014	12:07:40.619	$GPGGA,120741,2457.6409,N,08014.0289,W,1,8,1.6,17,M,,M,,*59
06/04/2014	12:07:41.592	$GPGGA,120742,2457.6420,N,08014.0298,W,1,8,1.6,17,M,,M,,*51
06/04/2014	12:07:42.595	$GPGGA,120743,2457.6434,N,08014.0307,W,1,8,1.6,17,M,,M,,*52
06/04/2014	12:07:43.598	$GPGGA,120744,2457.6445,N,08014.0316,W,1,8,1.6,17,M,,M,,*53
06/04/2014	12:07:44.592	$GPGGA,120745,2457.6456,N,08014.0326,W,1,8,1.6,17,M,,M,,*53
06/04/2014	12:07:45.585	$GPGGA,120746,2457.6467,N,08014.0336,W,1,8,1.6,17,M,,M,,*53
06/04/2014	12:07:46.578	$GPGGA,120747,2457.6481,N,08014.0344,W,1,8,1.6,17,M,,M,,*5F
06/04/2014	12:07:47.601	$GPGGA,120748,2457.6492,N,08014.0354,W,1,8,1.6,17,M,,M,,*53
06/04/2014	12:07:48.593	$GPGGA,120749,2457.6503,N,08014.0365,W,1,8,1.6,17,M,,M,,*59
06/04/2014	12:07:49.617	$GPGGA,120750,2457.6514,N,08014.0374,W,1,8,1.6,17,M,,M,,*57
06/04/2014	12:07:50.610	$GPGGA,120751,2457.6527,N,08014.0383,W,1,8,1.6,17,M,,M,,*5E
06/04/2014	12:07:51.603	$GPGGA,120752,2457.6527,N,08014.0383,W,1,8,1.6,17,M,,M,,*5D
06/04/2014	12:07:52.596	$GPGGA,120753,2457.6549,N,08014.0402,W,1,8,1.6,17,M,,M,,*5A
06/04/2014	12:07:53.639	$GPGGA,120754,2457.6561,N,08014.0412,W,1,8,1.6,17,M,,M,,*56
06/04/2014	12:07:54.598	$GPGGA,120755,2457.6574,N,08014.0421,W,1,8,1.6,17,M,,M,,*53
06/04/2014	12:07:55.636	$GPGGA,120756,2457.6585,N,08014.0431,W,1,8,1.6,17,M,,M,,*5F
06/04/2014	12:07:56.619	$GPGGA,120757,2457.6596,N,08014.0441,W,1,8,1.6,17,M,,M,,*5B
06/04/2014	12:07:57.593	$GPGGA,120758,2457.6596,N,08014.0441,W,1,8,1.6,17,M,,M,,*54
06/04/2014	12:07:58.635	$GPGGA,120759,2457.6619,N,08014.0460,W,1,8,1.6,17,M,,M,,*52
06/04/2014	12:07:59.729	$GPGGA,120800,2457.6629,N,08014.0470,W,1,8,1.6,17,M,,M,,*53
06/04/2014	12:08:00.662	$GPGGA,120801,2457.6642,N,08014.0480,W,1,8,1.6,17,M,,M,,*50
06/04/2014	12:08:01.606	$GPGGA,120802,2457.6642,N,08014.0480,W,1,8,1.6,17,M,,M,,*53
06/04/2014	12:08:02.698	$GPGGA,120803,2457.6668,N,08014.0498,W,1,8,1.6,17,M,,M,,*53
06/04/2014	12:08:03.725	$GPGGA,120804,2457.6678,N,08014.0507,W,1,8,1.6,17,M,,M,,*52
06/04/2014	12:08:04.685	$GPGGA,120805,2457.6690,N,08014.0517,W,1,8,1.6,17,M,,M,,*54
06/04/2014	12:08:05.709	$GPGGA,120806,2457.6702,N,08014.0527,W,1,8,1.6,17,M,,M,,*5E
06/04/2014	12:08:06.730	$GPGGA,120807,2457.6713,N,08014.0535,W,1,8,1.6,17,M,,M,,*5C
06/04/2014	12:08:07.623	$GPGGA,120808,2457.6713,N,08014.0535,W,1,8,1.6,17,M,,M,,*53
06/04/2014	12:08:08.726	$GPGGA,120809,2457.6737,N,08014.0556,W,1,8,1.6,17,M,,M,,*51
06/04/2014	12:08:09.659	$GPGGA,120810,2457.6749,N,08014.0564,W,1,8,1.6,17,M,,M,,*51
06/04/2014	12:08:10.613	$GPGGA,120811,2457.6762,N,08014.0574,W,1,8,1.6,17,M,,M,,*58
06/04/2014	12:08:11.706	$GPGGA,120812,2457.6774,N,08014.0582,W,1,8,1.6,17,M,,M,,*55
06/04/2014	12:08:12.709	$GPGGA,120813,2457.6785,N,08014.0592,W,1,8,1.6,17,M,,M,,*5B
06/04/2014	12:08:13.712	$GPGGA,120814,2457.6798,N,08014.0600,W,1,8,1.6,17,M,,M,,*58
06/04/2014	12:08:14.706	$GPGGA,120815,2457.6810,N,08014.0611,W,1,8,1.6,17,M,,M,,*56
06/04/2014	12:08:15.739	$GPGGA,120816,2457.6821,N,08014.0621,W,1,8,1.6,17,M,,M,,*54
06/04/2014	12:08:16.712	$GPGGA,120817,2457.6834,N,08014.0629,W,1,8,1.6,17,M,,M,,*59
06/04/2014	12:08:17.705	$GPGGA,120818,2457.6845,N,08014.0639,W,1,8,1.6,17,M,,M,,*51
06/04/2014	12:08:18.728	$GPGGA,120819,2457.6857,N,08014.0648,W,1,8,1.6,17,M,,M,,*55
06/04/2014	12:08:19.722	$GPGGA,120820,2457.6868,N,08014.0658,W,1,8,1.6,17,M,,M,,*52
06/04/2014	12:08:20.745	$GPGGA,120821,2457.6881,N,08014.0668,W,1,8,1.6,17,M,,M,,*57
06/04/2014	12:08:21.718	$GPGGA,120822,2457.6892,N,08014.0676,W,1,8,1.6,17,M,,M,,*59
06/04/2014	12:08:22.721	$GPGGA,120823,2457.6904,N,08014.0686,W,1,8,1.6,17,M,,M,,*59
06/04/2014	12:08:23.733	$GPGGA,120824,2457.6915,N,08014.0695,W,1,8,1.6,17,M,,M,,*5C
06/04/2014	12:08:24.737	$GPGGA,120825,2457.6926,N,08014.0704,W,1,8,1.6,17,M,,M,,*54
06/04/2014	12:08:25.710	$GPGGA,120826,2457.6937,N,08014.0715,W,1,8,1.6,17,M,,M,,*57
06/04/2014	12:08:26.743	$GPGGA,120827,2457.6950,N,08014.0723,W,1,8,1.6,17,M,,M,,*52
06/04/2014	12:08:27.736	$GPGGA,120828,2457.6962,N,08014.0733,W,1,8,1.6,16,M,,M,,*5C
06/04/2014	12:08:28.739	$GPGGA,120829,2457.6972,N,08014.0744,W,1,8,1.6,16,M,,M,,*5C
06/04/2014	12:08:29.712	$GPGGA,120830,2457.6983,N,08014.0753,W,1,8,1.6,16,M,,M,,*5C
06/04/2014	12:08:30.716	$GPGGA,120831,2457.6994,N,08014.0762,W,1,8,1.6,16,M,,M,,*59
06/04/2014	12:08:31.559	$GPGGA,120832,2457.7005,N,08014.0771,W,1,8,1.6,16,M,,M,,*58
06/04/2014	12:08:32.523	$GPGGA,120833,2457.7016,N,08014.0780,W,1,8,1.6,16,M,,M,,*55
06/04/2014	12:08:33.535	$GPGGA,120834,2457.7029,N,08014.0791,W,1,8,1.6,16,M,,M,,*5E
06/04/2014	12:08:34.558	$GPGGA,120835,2457.7041,N,08014.0800,W,1,8,1.6,16,M,,M,,*56
06/04/2014	12:08:35.552	$GPGGA,120836,2457.7052,N,08014.0809,W,1,8,1.6,16,M,,M,,*5E
06/04/2014	12:08:36.565	$GPGGA,120837,2457.7065,N,08014.0820,W,1,8,1.6,16,M,,M,,*50
06/04/2014	12:08:37.541	$GPGGA,120838,2457.7076,N,08014.0828,W,1,8,1.6,16,M,,M,,*55
06/04/2014	12:08:38.572	$GPGGA,120839,2457.7085,N,08014.0839,W,1,8,1.6,16,M,,M,,*58
06/04/2014	12:08:39.551	$GPGGA,120840,2457.7096,N,08014.0849,W,1,8,1.6,17,M,,M,,*52
06/04/2014	12:08:40.539	$GPGGA,120841,2457.7110,N,08014.0857,W,1,8,1.6,17,M,,M,,*53
06/04/2014	12:08:41.562	$GPGGA,120842,2457.7123,N,08014.0867,W,1,8,1.6,17,M,,M,,*53
06/04/2014	12:08:42.583	$GPGGA,120843,2457.7134,N,08014.0878,W,1,8,1.6,17,M,,M,,*5A
06/04/2014	12:08:43.566	$GPGGA,120844,2457.7146,N,08014.0886,W,1,8,1.6,17,M,,M,,*59
06/04/2014	12:08:44.549	$GPGGA,120845,2457.7157,N,08014.0896,W,1,8,1.6,17,M,,M,,*59
06/04/2014	12:08:45.553	$GPGGA,120846,2457.7168,N,08014.0905,W,1,8,1.6,17,M,,M,,*5D
06/04/2014	12:08:46.646	$GPGGA,120847,2457.7179,N,08014.0915,W,1,8,1.6,17,M,,M,,*5D
06/04/2014	12:08:47.570	$GPGGA,120848,2457.7191,N,08014.0925,W,1,8,1.6,17,M,,M,,*57
06/04/2014	12:08:48.674	$GPGGA,120849,2457.7203,N,08014.0934,W,1,8,1.6,17,M,,M,,*5E
06/04/2014	12:08:49.545	$GPGGA,120850,2457.7215,N,08014.0943,W,1,8,1.6,17,M,,M,,*51
06/04/2014	12:08:50.559	$GPGGA,120851,2457.7225,N,08014.0954,W,1,8,1.6,17,M,,M,,*55
06/04/2014	12:08:53.036	$GPGGA,120852,2457.7238,N,08014.0962,W,1,8,1.6,17,M,,M,,*5F
06/04/2014	12:08:53.057	$GPGGA,120853,2457.7250,N,08014.0972,W,1,8,1.6,17,M,,M,,*51
06/04/2014	12:08:53.568	$GPGGA,120854,2457.7261,N,08014.0983,W,1,8,1.6,17,M,,M,,*5A
06/04/2014	12:08:54.571	$GPGGA,120855,2457.7272,N,08014.0990,W,1,8,1.6,17,M,,M,,*5B
06/04/2014	12:08:55.666	$GPGGA,120856,2457.7285,N,08014.0999,W,1,8,1.6,17,M,,M,,*59
06/04/2014	12:08:56.658	$GPGGA,120857,2457.7296,N,08014.1009,W,1,8,1.6,17,M,,M,,*5B
06/04/2014	12:08:57.681	$GPGGA,120858,2457.7308,N,08014.1019,W,1,8,1.6,17,M,,M,,*53
06/04/2014	12:08:58.683	$GPGGA,120859,2457.7319,N,08014.1029,W,1,8,1.6,17,M,,M,,*51
06/04/2014	12:08:59.602	$GPGGA,120900,2457.7330,N,08014.1037,W,1,8,1.6,17,M,,M,,*58
06/04/2014	12:09:00.690	$GPGGA,120901,2457.7345,N,08014.1049,W,1,7,2.2,17,M,,M,,*5A
06/04/2014	12:09:01.605	$GPGGA,120902,2457.7359,N,08014.1060,W,1,7,1.6,17,M,,M,,*58
06/04/2014	12:09:02.714	$GPGGA,120903,2457.7370,N,08014.1071,W,1,8,1.6,16,M,,M,,*5C
06/04/2014	12:09:03.731	$GPGGA,120904,2457.7384,N,08014.1080,W,1,8,1.6,16,M,,M,,*5E
06/04/2014	12:09:04.768	$GPGGA,120905,2457.7397,N,08014.1091,W,1,8,1.6,16,M,,M,,*5D
06/04/2014	12:09:05.744	$GPGGA,120906,2457.7410,N,08014.1102,W,1,8,1.6,16,M,,M,,*5D
06/04/2014	12:09:06.791	$GPGGA,120907,2457.7421,N,08014.1110,W,1,8,1.6,16,M,,M,,*5D
06/04/2014	12:09:07.798	$GPGGA,120908,2457.7432,N,08014.1120,W,1,8,1.6,16,M,,M,,*53
06/04/2014	12:09:08.815	$GPGGA,120909,2457.7445,N,08014.1129,W,1,8,1.6,16,M,,M,,*5B
06/04/2014	12:09:10.655	$GPGGA,120910,2457.7457,N,08014.1139,W,1,8,1.6,15,M,,M,,*52
06/04/2014	12:09:10.828	$GPGGA,120911,2457.7467,N,08014.1149,W,1,8,1.6,15,M,,M,,*57
06/04/2014	12:09:11.855	$GPGGA,120912,2457.7478,N,08014.1158,W,1,8,1.6,15,M,,M,,*5A
06/04/2014	12:09:12.872	$GPGGA,120913,2457.7489,N,08014.1168,W,1,8,1.6,15,M,,M,,*56
06/04/2014	12:09:13.878	$GPGGA,120914,2457.7503,N,08014.1176,W,1,8,1.6,15,M,,M,,*5D
06/04/2014	12:09:14.905	$GPGGA,120915,2457.7514,N,08014.1185,W,1,8,1.6,15,M,,M,,*56
06/04/2014	12:09:15.912	$GPGGA,120916,2457.7525,N,08014.1196,W,1,8,1.6,15,M,,M,,*55
06/04/2014	12:09:16.917	$GPGGA,120917,2457.7538,N,08014.1204,W,1,8,1.6,15,M,,M,,*50
06/04/2014	12:09:17.934	$GPGGA,120918,2457.7550,N,08014.1214,W,1,8,1.6,14,M,,M,,*51
06/04/2014	12:09:18.971	$GPGGA,120919,2457.7561,N,08014.1222,W,1,8,1.6,14,M,,M,,*57
06/04/2014	12:09:19.978	$GPGGA,120920,2457.7571,N,08014.1232,W,1,8,1.6,14,M,,M,,*5D
06/04/2014	12:09:20.972	$GPGGA,120921,2457.7583,N,08014.1240,W,1,8,1.6,14,M,,M,,*54
06/04/2014	12:09:21.991	$GPGGA,120922,2457.7596,N,08014.1250,W,1,8,1.6,14,M,,M,,*52
06/04/2014	12:09:23.008	$GPGGA,120923,2457.7607,N,08014.1258,W,1,8,1.6,14,M,,M,,*50
06/04/2014	12:09:24.035	$GPGGA,120924,2457.7618,N,08014.1268,W,1,8,1.6,14,M,,M,,*5A
06/04/2014	12:09:25.021	$GPGGA,120925,2457.7629,N,08014.1276,W,1,8,1.6,14,M,,M,,*56
06/04/2014	12:09:26.049	$GPGGA,120926,2457.7641,N,08014.1286,W,1,8,1.6,14,M,,M,,*54
06/04/2014	12:09:27.055	$GPGGA,120927,2457.7652,N,08014.1295,W,1,8,1.6,14,M,,M,,*55
06/04/2014	12:09:28.102	$GPGGA,120928,2457.7663,N,08014.1304,W,1,8,1.6,14,M,,M,,*51
06/04/2014	12:09:29.119	$GPGGA,120929,2457.7674,N,08014.1313,W,1,8,1.6,14,M,,M,,*50
06/04/2014	12:09:30.553	$GPGGA,120930,2457.7688,N,08014.1322,W,1,8,1.6,14,M,,M,,*59
06/04/2014	12:09:31.132	$GPGGA,120931,2457.7698,N,08014.1330,W,1,8,1.6,14,M,,M,,*5A
06/04/2014	12:09:31.513	$GPGGA,120932,2457.7709,N,08014.1340,W,1,8,1.6,14,M,,M,,*57
06/04/2014	12:09:32.541	$GPGGA,120933,2457.7720,N,08014.1348,W,1,8,1.6,14,M,,M,,*55
06/04/2014	12:09:33.546	$GPGGA,120934,2457.7733,N,08014.1358,W,1,8,1.6,14,M,,M,,*51
06/04/2014	12:09:34.562	$GPGGA,120935,2457.7742,N,08014.1367,W,1,8,1.6,14,M,,M,,*5A
06/04/2014	12:09:35.671	$GPGGA,120936,2457.7753,N,08014.1377,W,1,8,1.6,14,M,,M,,*58
06/04/2014	12:09:36.576	$GPGGA,120937,2457.7764,N,08014.1387,W,1,8,1.6,14,M,,M,,*52
06/04/2014	12:09:37.694	$GPGGA,120938,2457.7778,N,08014.1395,W,1,8,1.6,14,M,,M,,*53
06/04/2014	12:09:38.711	$GPGGA,120939,2457.7789,N,08014.1405,W,1,8,1.6,14,M,,M,,*52
06/04/2014	12:09:39.646	$GPGGA,120940,2457.7800,N,08014.1414,W,1,8,1.6,14,M,,M,,*52
06/04/2014	12:09:40.653	$GPGGA,120941,2457.7813,N,08014.1423,W,1,8,1.6,14,M,,M,,*55
06/04/2014	12:09:41.650	$GPGGA,120942,2457.7825,N,08014.1432,W,1,8,1.6,14,M,,M,,*53
06/04/2014	12:09:42.768	$GPGGA,120943,2457.7836,N,08014.1442,W,1,8,1.6,14,M,,M,,*57
06/04/2014	12:09:44.293	$GPGGA,120944,2457.7847,N,08014.1452,W,1,8,1.6,14,M,,M,,*57
06/04/2014	12:09:44.802	$GPGGA,120945,2457.7860,N,08014.1461,W,1,8,1.6,14,M,,M,,*53
06/04/2014	12:09:45.829	$GPGGA,120946,2457.7871,N,08014.1470,W,1,8,1.6,14,M,,M,,*50
06/04/2014	12:09:46.825	$GPGGA,120947,2457.7880,N,08014.1481,W,1,8,1.6,14,M,,M,,*51
06/04/2014	12:09:47.862	$GPGGA,120948,2457.7893,N,08014.1492,W,1,8,1.6,14,M,,M,,*5E
06/04/2014	12:09:48.859	$GPGGA,120949,2457.7905,N,08014.1499,W,1,8,1.6,14,M,,M,,*5A
06/04/2014	12:09:49.875	$GPGGA,120950,2457.7915,N,08014.1510,W,1,8,1.6,14,M,,M,,*53
06/04/2014	12:09:50.923	$GPGGA,120951,2457.7928,N,08014.1519,W,1,8,1.6,14,M,,M,,*55
06/04/2014	12:09:51.918	$GPGGA,120952,2457.7941,N,08014.1528,W,1,8,1.6,14,M,,M,,*5B
06/04/2014	12:09:52.935	$GPGGA,120953,2457.7952,N,08014.1537,W,1,8,1.6,14,M,,M,,*56
06/04/2014	12:09:53.921	$GPGGA,120954,2457.7962,N,08014.1547,W,1,8,1.6,14,M,,M,,*55
06/04/2014	12:09:54.958	$GPGGA,120955,2457.7973,N,08014.1557,W,1,8,1.6,14,M,,M,,*55
06/04/2014	12:09:55.975	$GPGGA,120956,2457.7986,N,08014.1568,W,1,8,1.6,14,M,,M,,*50
06/04/2014	12:09:56.992	$GPGGA,120957,2457.7997,N,08014.1577,W,1,8,1.6,14,M,,M,,*5F
06/04/2014	12:09:57.989	$GPGGA,120958,2457.8006,N,08014.1589,W,1,8,1.6,14,M,,M,,*5F
06/04/2014	12:09:59.005	$GPGGA,120959,2457.8017,N,08014.1598,W,1,8,1.6,14,M,,M,,*5E
06/04/2014	12:10:00.042	$GPGGA,121000,2457.8027,N,08014.1608,W,1,8,1.6,14,M,,M,,*53
06/04/2014	12:10:01.029	$GPGGA,121001,2457.8040,N,08014.1616,W,1,8,1.6,15,M,,M,,*5D
06/04/2014	12:10:02.056	$GPGGA,121002,2457.8051,N,08014.1627,W,1,8,1.6,15,M,,M,,*5C
06/04/2014	12:10:03.054	$GPGGA,121003,2457.8063,N,08014.1637,W,1,8,1.6,15,M,,M,,*5D
06/04/2014	12:10:04.110	$GPGGA,121004,2457.8074,N,08014.1647,W,1,8,1.6,15,M,,M,,*5B
06/04/2014	12:10:05.106	$GPGGA,121005,2457.8085,N,08014.1658,W,1,8,1.6,15,M,,M,,*5A
06/04/2014	12:10:06.113	$GPGGA,121006,2457.8096,N,08014.1667,W,1,8,1.6,15,M,,M,,*57
06/04/2014	12:10:07.160	$GPGGA,121007,2457.8109,N,08014.1677,W,1,8,1.6,15,M,,M,,*50
06/04/2014	12:10:08.146	$GPGGA,121008,2457.8120,N,08014.1687,W,1,8,1.6,15,M,,M,,*5B
06/04/2014	12:10:09.142	$GPGGA,121009,2457.8129,N,08014.1698,W,1,8,1.6,15,M,,M,,*5D
06/04/2014	12:10:10.169	$GPGGA,121010,2457.8142,N,08014.1707,W,1,8,1.6,15,M,,M,,*5F
06/04/2014	12:10:11.175	$GPGGA,121011,2457.8154,N,08014.1716,W,1,8,1.6,15,M,,M,,*59
06/04/2014	12:10:12.213	$GPGGA,121012,2457.8165,N,08014.1727,W,1,8,1.6,15,M,,M,,*5A
06/04/2014	12:10:13.219	$GPGGA,121013,2457.8176,N,08014.1736,W,1,8,1.6,15,M,,M,,*59
06/04/2014	12:10:14.216	$GPGGA,121014,2457.8189,N,08014.1745,W,1,8,1.6,15,M,,M,,*5A
06/04/2014	12:10:15.263	$GPGGA,121015,2457.8201,N,08014.1756,W,1,8,1.6,15,M,,M,,*5A
06/04/2014	12:10:16.280	$GPGGA,121016,2457.8212,N,08014.1766,W,1,8,1.6,15,M,,M,,*58
06/04/2014	12:10:17.307	$GPGGA,121017,2457.8226,N,08014.1777,W,1,8,1.6,15,M,,M,,*5E
06/04/2014	12:10:18.293	$GPGGA,121018,2457.8237,N,08014.1786,W,1,8,2.2,15,M,,M,,*58
06/04/2014	12:10:19.330	$GPGGA,121019,2457.8250,N,08014.1797,W,1,7,2.2,15,M,,M,,*57
06/04/2014	12:10:20.337	$GPGGA,121020,2457.8262,N,08014.1807,W,1,7,1.6,15,M,,M,,*5D
06/04/2014	12:10:21.343	$GPGGA,121021,2457.8272,N,08014.1814,W,1,7,2.2,15,M,,M,,*58
06/04/2014	12:10:22.442	$GPGGA,121022,2457.8283,N,08014.1822,W,1,7,1.6,15,M,,M,,*57
06/04/2014	12:10:23.479	$GPGGA,121023,2457.8294,N,08014.1832,W,1,8,1.6,15,M,,M,,*5E
06/04/2014	12:10:24.385	$GPGGA,121024,2457.8306,N,08014.1840,W,1,8,1.6,15,M,,M,,*56
06/04/2014	12:10:25.502	$GPGGA,121025,2457.8319,N,08014.1850,W,1,8,1.6,15,M,,M,,*58
06/04/2014	12:10:26.397	$GPGGA,121026,2457.8331,N,08014.1857,W,1,8,2.2,15,M,,M,,*51
06/04/2014	12:10:27.423	$GPGGA,121027,2457.8344,N,08014.1866,W,1,7,2.2,15,M,,M,,*5F
06/04/2014	12:10:28.541	$GPGGA,121028,2457.8358,N,08014.1875,W,1,7,2.2,15,M,,M,,*5F
06/04/2014	12:10:29.589	$GPGGA,121029,2457.8371,N,08014.1884,W,1,8,1.6,15,M,,M,,*53
06/04/2014	12:10:30.575	$GPGGA,121030,2457.8385,N,08014.1894,W,1,8,1.6,15,M,,M,,*51
06/04/2014	12:10:31.592	$GPGGA,121031,2457.8398,N,08014.1904,W,1,8,1.6,15,M,,M,,*54
06/04/2014	12:10:31.500	$GPGGA,121032,2457.8410,N,08014.1912,W,1,8,1.6,15,M,,M,,*57
06/04/2014	12:10:32.496	$GPGGA,121033,2457.8423,N,08014.1922,W,1,8,1.6,16,M,,M,,*56
06/04/2014	12:10:33.513	$GPGGA,121034,2457.8435,N,08014.1931,W,1,8,1.6,16,M,,M,,*54
06/04/2014	12:10:34.632	$GPGGA,121035,2457.8447,N,08014.1940,W,1,8,1.6,16,M,,M,,*56
06/04/2014	12:10:35.659	$GPGGA,121036,2457.8461,N,08014.1948,W,1,8,1.6,16,M,,M,,*59
06/04/2014	12:10:36.696	$GPGGA,121037,2457.8472,N,08014.1958,W,1,8,1.6,16,M,,M,,*5B
06/04/2014	12:10:37.672	$GPGGA,121038,2457.8486,N,08014.1969,W,1,8,1.6,16,M,,M,,*5D
06/04/2014	12:10:38.689	$GPGGA,121039,2457.8499,N,08014.1976,W,1,8,1.6,17,M,,M,,*5D
06/04/2014	12:10:39.716	$GPGGA,121040,2457.8511,N,08014.1987,W,1,8,1.6,17,M,,M,,*5C
06/04/2014	12:10:40.754	$GPGGA,121041,2457.8522,N,08014.1995,W,1,8,1.6,17,M,,M,,*5E
06/04/2014	12:10:41.729	$GPGGA,121042,2457.8533,N,08014.2005,W,1,8,1.6,17,M,,M,,*5E
06/04/2014	12:10:42.756	$GPGGA,121043,2457.8546,N,08014.2014,W,1,8,1.6,17,M,,M,,*5D
06/04/2014	12:10:43.761	$GPGGA,121044,2457.8555,N,08014.2024,W,1,8,1.6,17,M,,M,,*5B
06/04/2014	12:10:44.799	$GPGGA,121045,2457.8568,N,08014.2034,W,1,8,1.6,17,M,,M,,*55
06/04/2014	12:10:45.785	$GPGGA,121046,2457.8582,N,08014.2041,W,1,8,1.6,17,M,,M,,*50
06/04/2014	12:10:46.822	$GPGGA,121047,2457.8591,N,08014.2052,W,1,8,1.6,17,M,,M,,*51
06/04/2014	12:10:47.818	$GPGGA,121048,2457.8602,N,08014.2063,W,1,8,1.6,17,M,,M,,*55
06/04/2014	12:10:48.845	$GPGGA,121049,2457.8616,N,08014.2071,W,1,8,1.6,17,M,,M,,*52
06/04/2014	12:10:49.842	$GPGGA,121050,2457.8627,N,08014.2081,W,1,8,1.6,18,M,,M,,*58
06/04/2014	12:10:50.879	$GPGGA,121051,2457.8638,N,08014.2090,W,1,8,1.6,18,M,,M,,*57
06/04/2014	12:10:51.886	$GPGGA,121052,2457.8649,N,08014.2100,W,1,8,1.6,18,M,,M,,*5A
06/04/2014	12:10:52.913	$GPGGA,121053,2457.8662,N,08014.2110,W,1,8,1.6,18,M,,M,,*53
06/04/2014	12:10:53.919	$GPGGA,121054,2457.8674,N,08014.2120,W,1,8,1.6,18,M,,M,,*50
06/04/2014	12:10:54.916	$GPGGA,121055,2457.8684,N,08014.2128,W,1,8,1.6,18,M,,M,,*56
06/04/2014	12:10:56.665	$GPGGA,121056,2457.8696,N,08014.2139,W,1,8,1.6,18,M,,M,,*56
06/04/2014	12:10:56.980	$GPGGA,121057,2457.8709,N,08014.2147,W,1,8,1.6,18,M,,M,,*59
06/04/2014	12:10:57.966	$GPGGA,121058,2457.8720,N,08014.2157,W,1,8,1.6,18,M,,M,,*5C
06/04/2014	12:10:58.993	$GPGGA,121059,2457.8731,N,08014.2168,W,1,8,1.6,18,M,,M,,*51
06/04/2014	12:11:00.020	$GPGGA,121100,2457.8742,N,08014.2178,W,1,8,1.6,18,M,,M,,*59
06/04/2014	12:11:01.007	$GPGGA,121101,2457.8754,N,08014.2187,W,1,8,1.6,18,M,,M,,*5F
06/04/2014	12:11:02.022	$GPGGA,121102,2457.8765,N,08014.2197,W,1,8,1.6,18,M,,M,,*5F
06/04/2014	12:11:03.080	$GPGGA,121103,2457.8775,N,08014.2207,W,1,8,1.6,18,M,,M,,*55
06/04/2014	12:11:04.066	$GPGGA,121104,2457.8788,N,08014.2218,W,1,8,1.6,18,M,,M,,*5E
06/04/2014	12:11:05.084	$GPGGA,121105,2457.8799,N,08014.2227,W,1,8,1.6,18,M,,M,,*53
06/04/2014	12:11:06.192	$GPGGA,121106,2457.8810,N,08014.2237,W,1,8,1.6,18,M,,M,,*5F
06/04/2014	12:11:07.096	$GPGGA,121107,2457.8822,N,08014.2247,W,1,8,1.6,18,M,,M,,*58
06/04/2014	12:11:08.235	$GPGGA,121108,2457.8835,N,08014.2256,W,1,8,1.6,18,M,,M,,*51
06/04/2014	12:11:09.130	$GPGGA,121109,2457.8846,N,08014.2266,W,1,8,1.6,18,M,,M,,*57
06/04/2014	12:11:10.146	$GPGGA,121110,2457.8857,N,08014.2276,W,1,8,1.6,18,M,,M,,*5E
06/04/2014	12:11:11.256	$GPGGA,121111,2457.8869,N,08014.2285,W,1,8,1.6,18,M,,M,,*5E
06/04/2014	12:11:12.193	$GPGGA,121112,2457.8880,N,08014.2295,W,1,8,1.6,18,M,,M,,*5B
06/04/2014	12:11:13.298	$GPGGA,121113,2457.8890,N,08014.2305,W,1,8,1.6,18,M,,M,,*53
06/04/2014	12:11:14.193	$GPGGA,121114,2457.8902,N,08014.2316,W,1,8,1.6,18,M,,M,,*5C
06/04/2014	12:11:15.312	$GPGGA,121115,2457.8915,N,08014.2324,W,1,8,1.6,18,M,,M,,*5A
06/04/2014	12:11:16.363	$GPGGA,121116,2457.8927,N,08014.2334,W,1,8,1.6,17,M,,M,,*56
06/04/2014	12:11:17.233	$GPGGA,121117,2457.8937,N,08014.2344,W,1,8,1.6,17,M,,M,,*51
06/04/2014	12:11:18.363	$GPGGA,121118,2457.8948,N,08014.2352,W,1,8,1.6,17,M,,M,,*51
06/04/2014	12:11:19.388	$GPGGA,121119,2457.8960,N,08014.2361,W,1,8,1.6,17,M,,M,,*5A
06/04/2014	12:11:20.293	$GPGGA,121120,2457.8973,N,08014.2370,W,1,8,1.6,17,M,,M,,*52
06/04/2014	12:11:21.432	$GPGGA,121121,2457.8983,N,08014.2381,W,1,8,1.6,17,M,,M,,*52
06/04/2014	12:11:22.418	$GPGGA,121122,2457.8994,N,08014.2391,W,1,8,1.6,17,M,,M,,*56
06/04/2014	12:11:23.455	$GPGGA,121123,2457.9006,N,08014.2399,W,1,8,1.6,17,M,,M,,*5C
06/04/2014	12:11:24.492	$GPGGA,121124,2457.9017,N,08014.2408,W,1,8,1.6,17,M,,M,,*54
06/04/2014	12:11:25.489	$GPGGA,121125,2457.9028,N,08014.2417,W,1,8,1.6,17,M,,M,,*57
06/04/2014	12:11:26.496	$GPGGA,121126,2457.9039,N,08014.2428,W,1,8,1.6,17,M,,M,,*58
06/04/2014	12:11:27.512	$GPGGA,121127,2457.9052,N,08014.2436,W,1,8,1.6,17,M,,M,,*5B
06/04/2014	12:11:28.529	$GPGGA,121128,2457.9064,N,08014.2446,W,1,8,1.6,17,M,,M,,*56
06/04/2014	12:11:29.536	$GPGGA,121129,2457.9077,N,08014.2454,W,1,8,1.6,17,M,,M,,*56
06/04/2014	12:11:30.522	$GPGGA,121130,2457.9088,N,08014.2464,W,1,8,1.6,17,M,,M,,*5D
06/04/2014	12:11:31.559	$GPGGA,121131,2457.9099,N,08014.2475,W,1,8,1.6,17,M,,M,,*5C
06/04/2014	12:11:31.570	$GPGGA,121132,2457.9110,N,08014.2483,W,1,8,1.6,17,M,,M,,*56
06/04/2014	12:11:32.587	$GPGGA,121133,2457.9122,N,08014.2493,W,1,8,1.6,17,M,,M,,*57
06/04/2014	12:11:33.583	$GPGGA,121134,2457.9133,N,08014.2503,W,1,8,1.6,17,M,,M,,*58
06/04/2014	12:11:34.631	$GPGGA,121135,2457.9144,N,08014.2512,W,1,8,1.6,17,M,,M,,*59
06/04/2014	12:11:35.627	$GPGGA,121136,2457.9157,N,08014.2522,W,1,8,1.6,17,M,,M,,*5B
06/04/2014	12:11:36.643	$GPGGA,121137,2457.9171,N,08014.2529,W,1,8,1.6,17,M,,M,,*55
06/04/2014	12:11:37.649	$GPGGA,121138,2457.9182,N,08014.2540,W,1,8,1.6,17,M,,M,,*59
06/04/2014	12:11:38.687	$GPGGA,121139,2457.9194,N,08014.2550,W,1,8,1.6,17,M,,M,,*5E
06/04/2014	12:11:39.683	$GPGGA,121140,2457.9205,N,08014.2558,W,1,8,1.6,17,M,,M,,*53
06/04/2014	12:11:40.720	$GPGGA,121141,2457.9216,N,08014.2569,W,1,8,1.6,17,M,,M,,*52
06/04/2014	12:11:41.706	$GPGGA,121142,2457.9227,N,08014.2579,W,1,8,1.6,17,M,,M,,*52
06/04/2014	12:11:42.744	$GPGGA,121143,2457.9238,N,08014.2587,W,1,8,1.6,17,M,,M,,*5C
06/04/2014	12:11:43.750	$GPGGA,121144,2457.9251,N,08014.2598,W,1,8,1.6,17,M,,M,,*5A
06/04/2014	12:11:44.777	$GPGGA,121145,2457.9263,N,08014.2606,W,1,8,1.6,17,M,,M,,*5E
06/04/2014	12:11:45.763	$GPGGA,121146,2457.9274,N,08014.2616,W,1,8,1.6,17,M,,M,,*5A
06/04/2014	12:11:46.780	$GPGGA,121147,2457.9287,N,08014.2626,W,1,8,1.6,17,M,,M,,*54
06/04/2014	12:11:47.807	$GPGGA,121148,2457.9299,N,08014.2634,W,1,8,1.6,17,M,,M,,*57
