Software Version Number: 1	Data File Format Number: 1	Build Version Number: 1	Error Count Since VI Started: 0	Manufacturer: Raytheon	 Model Number: RayMarine 120	 S/N: 	 Cal Date: 	 Wind Direction Offset: 0.00	 Slope (M)1: 0.00	 Offset (B)1: 0.00	 Slope (M)2: 0.00	 Offset (B)2: 0.00	 Slope (M)3: 0.00	 Offset (B)3: 0.00	 Slope (M)4: 0.00	 Offset (B)4: 0.00	 Slope (M)5: 0.00	 Offset (B)5: 0.00	 Slope (M)6: 0.00	 Offset (B)6: 0.00
Computer Date	Computer Time	GGA String
06/08/2014	18:00:00.770	$GPGGA,180001,2452.8971,N,08026.0189,W,1,10,1.4,13,M,,M,,*64
06/08/2014	18:00:01.757	$GPGGA,180002,2452.8954,N,08026.0170,W,1,10,1.4,13,M,,M,,*66
06/08/2014	18:00:02.827	$GPGGA,180003,2452.8939,N,08026.0151,W,1,10,1.5,13,M,,M,,*6E
06/08/2014	18:00:03.765	$GPGGA,180004,2452.8922,N,08026.0132,W,1,10,1.5,13,M,,M,,*66
06/08/2014	18:00:04.815	$GPGGA,180005,2452.8907,N,08026.0112,W,1,9,1.5,13,M,,M,,*5A
06/08/2014	18:00:05.763	$GPGGA,180006,2452.8891,N,08026.0093,W,1,9,1.5,13,M,,M,,*5F
06/08/2014	18:00:06.747	$GPGGA,180007,2452.8874,N,08026.0074,W,1,10,1.4,13,M,,M,,*65
06/08/2014	18:00:07.891	$GPGGA,180008,2452.8858,N,08026.0055,W,1,10,1.5,13,M,,M,,*66
06/08/2014	18:00:08.842	$GPGGA,180009,2452.8842,N,08026.0035,W,1,9,1.5,13,M,,M,,*52
06/08/2014	18:00:09.787	$GPGGA,180010,2452.8823,N,08026.0018,W,1,9,1.4,13,M,,M,,*53
06/08/2014	18:00:10.866	$GPGGA,180011,2452.8805,N,08026.0000,W,1,10,1.4,13,M,,M,,*67
06/08/2014	18:00:11.825	$GPGGA,180012,2452.8790,N,08025.9980,W,1,10,1.5,13,M,,M,,*6D
06/08/2014	18:00:12.874	$GPGGA,180013,2452.8770,N,08025.9966,W,1,9,1.4,13,M,,M,,*53
06/08/2014	18:00:13.822	$GPGGA,180014,2452.8755,N,08025.9946,W,1,9,1.4,13,M,,M,,*51
06/08/2014	18:00:14.791	$GPGGA,180015,2452.8740,N,08025.9926,W,1,10,1.4,13,M,,M,,*6A
06/08/2014	18:00:15.910	$GPGGA,180016,2452.8725,N,08025.9907,W,1,10,1.4,13,M,,M,,*69
06/08/2014	18:00:16.919	$GPGGA,180017,2452.8708,N,08025.9888,W,1,10,1.4,13,M,,M,,*61
06/08/2014	18:00:17.867	$GPGGA,180018,2452.8692,N,08025.9869,W,1,10,1.4,13,M,,M,,*63
06/08/2014	18:00:18.907	$GPGGA,180019,2452.8678,N,08025.9850,W,1,10,1.4,13,M,,M,,*6C
06/08/2014	18:00:19.956	$GPGGA,180020,2452.8661,N,08025.9830,W,1,10,1.4,13,M,,M,,*68
06/08/2014	18:00:20.995	$GPGGA,180021,2452.8645,N,08025.9811,W,1,10,1.4,13,M,,M,,*6C
06/08/2014	18:00:21.953	$GPGGA,180022,2452.8629,N,08025.9792,W,1,10,1.4,13,M,,M,,*61
06/08/2014	18:00:23.012	$GPGGA,180023,2452.8614,N,08025.9773,W,1,10,1.4,13,M,,M,,*61
06/08/2014	18:00:23.971	$GPGGA,180024,2452.8598,N,08025.9753,W,1,10,1.4,13,M,,M,,*63
06/08/2014	18:00:25.041	$GPGGA,180025,2452.8582,N,08025.9733,W,1,10,1.4,13,M,,M,,*6F
06/08/2014	18:00:25.979	$GPGGA,180026,2452.8566,N,08025.9714,W,1,10,1.4,13,M,,M,,*63
06/08/2014	18:00:27.016	$GPGGA,180027,2452.8551,N,08025.9694,W,1,10,1.4,13,M,,M,,*6F
06/08/2014	18:00:27.995	$GPGGA,180028,2452.8537,N,08025.9673,W,1,10,1.4,13,M,,M,,*69
06/08/2014	18:00:29.014	$GPGGA,180029,2452.8520,N,08025.9653,W,1,10,1.4,13,M,,M,,*6C
06/08/2014	18:00:30.002	$GPGGA,180030,2452.8505,N,08025.9632,W,1,10,1.7,13,M,,M,,*67
06/08/2014	18:00:31.056	$GPGGA,180031,2452.8490,N,08025.9614,W,1,9,1.4,13,M,,M,,*54
06/08/2014	18:00:32.028	$GPGGA,180032,2452.8475,N,08025.9593,W,1,9,1.7,13,M,,M,,*53
06/08/2014	18:00:33.043	$GPGGA,180033,2452.8461,N,08025.9572,W,1,9,1.7,13,M,,M,,*58
06/08/2014	18:00:34.018	$GPGGA,180034,2452.8445,N,08025.9551,W,1,9,1.7,13,M,,M,,*58
06/08/2014	18:00:35.042	$GPGGA,180035,2452.8430,N,08025.9529,W,1,9,1.7,13,M,,M,,*54
06/08/2014	18:00:36.037	$GPGGA,180036,2452.8415,N,08025.9508,W,1,9,1.7,13,M,,M,,*53
06/08/2014	18:00:38.338	$GPGGA,180038,2452.8386,N,08025.9464,W,1,9,1.7,13,M,,M,,*5B
06/08/2014	18:00:38.565	$GPGGA,180039,2452.8371,N,08025.9443,W,1,9,1.7,13,M,,M,,*57
06/08/2014	18:00:39.550	$GPGGA,180040,2452.8356,N,08025.9421,W,1,9,1.7,13,M,,M,,*58
06/08/2014	18:00:40.585	$GPGGA,180041,2452.8342,N,08025.9400,W,1,9,1.7,13,M,,M,,*5F
06/08/2014	18:00:41.539	$GPGGA,180042,2452.8327,N,08025.9379,W,1,9,1.7,13,M,,M,,*56
06/08/2014	18:00:42.574	$GPGGA,180043,2452.8313,N,08025.9357,W,1,9,1.7,13,M,,M,,*5C
06/08/2014	18:00:43.559	$GPGGA,180044,2452.8298,N,08025.9336,W,1,9,1.7,13,M,,M,,*5E
06/08/2014	18:00:44.613	$GPGGA,180045,2452.8284,N,08025.9315,W,1,9,1.7,13,M,,M,,*53
06/08/2014	18:00:45.558	$GPGGA,180046,2452.8268,N,08025.9294,W,1,9,1.7,13,M,,M,,*5A
06/08/2014	18:00:46.623	$GPGGA,180047,2452.8253,N,08025.9273,W,1,9,1.7,13,M,,M,,*5A
06/08/2014	18:00:47.578	$GPGGA,180048,2452.8238,N,08025.9251,W,1,9,1.4,12,M,,M,,*5A
06/08/2014	18:00:48.612	$GPGGA,180049,2452.8223,N,08025.9231,W,1,10,1.4,12,M,,M,,*6F
06/08/2014	18:00:49.567	$GPGGA,180050,2452.8208,N,08025.9211,W,1,10,1.4,12,M,,M,,*6C
06/08/2014	18:00:50.692	$GPGGA,180051,2452.8194,N,08025.9191,W,1,10,1.4,12,M,,M,,*60
06/08/2014	18:00:51.566	$GPGGA,180052,2452.8178,N,08025.9170,W,1,10,1.4,12,M,,M,,*6E
06/08/2014	18:00:52.631	$GPGGA,180053,2452.8178,N,08025.9170,W,1,10,1.4,12,M,,M,,*6F
06/08/2014	18:00:53.686	$GPGGA,180054,2452.8147,N,08025.9132,W,1,10,1.4,12,M,,M,,*62
06/08/2014	18:00:54.701	$GPGGA,180055,2452.8132,N,08025.9111,W,1,10,1.4,12,M,,M,,*60
06/08/2014	18:00:55.595	$GPGGA,180056,2452.8118,N,08025.9091,W,1,10,1.4,12,M,,M,,*62
06/08/2014	18:00:56.661	$GPGGA,180057,2452.8102,N,08025.9071,W,1,10,1.4,12,M,,M,,*66
06/08/2014	18:00:57.598	$GPGGA,180058,2452.8102,N,08025.9071,W,1,10,1.4,12,M,,M,,*69
06/08/2014	18:00:58.580	$GPGGA,180059,2452.8086,N,08025.9051,W,1,10,1.4,12,M,,M,,*67
06/08/2014	18:00:59.725	$GPGGA,180100,2452.8055,N,08025.9012,W,1,10,1.4,12,M,,M,,*63
06/08/2014	18:01:00.730	$GPGGA,180101,2452.8040,N,08025.8993,W,1,10,1.4,12,M,,M,,*67
06/08/2014	18:01:01.604	$GPGGA,180102,2452.8024,N,08025.8974,W,1,10,1.4,12,M,,M,,*6F
06/08/2014	18:01:02.718	$GPGGA,180103,2452.8008,N,08025.8954,W,1,10,1.4,12,M,,M,,*62
06/08/2014	18:01:03.723	$GPGGA,180104,2452.7992,N,08025.8934,W,1,10,1.4,12,M,,M,,*66
06/08/2014	18:01:04.738	$GPGGA,180105,2452.7977,N,08025.8915,W,1,10,1.4,12,M,,M,,*6F
06/08/2014	18:01:05.703	$GPGGA,180106,2452.7960,N,08025.8896,W,1,10,1.4,12,M,,M,,*60
06/08/2014	18:01:06.709	$GPGGA,180107,2452.7944,N,08025.8877,W,1,10,1.4,12,M,,M,,*68
06/08/2014	18:01:07.634	$GPGGA,180108,2452.7928,N,08025.8857,W,1,10,1.4,12,M,,M,,*6F
06/08/2014	18:01:08.707	$GPGGA,180109,2452.7912,N,08025.8837,W,1,10,1.4,12,M,,M,,*61
06/08/2014	18:01:09.722	$GPGGA,180110,2452.7896,N,08025.8818,W,1,10,1.7,11,M,,M,,*69
06/08/2014	18:01:10.727	$GPGGA,180111,2452.7880,N,08025.8798,W,1,9,1.7,11,M,,M,,*50
06/08/2014	18:01:11.733	$GPGGA,180112,2452.7865,N,08025.8778,W,1,9,1.7,11,M,,M,,*56
06/08/2014	18:01:12.736	$GPGGA,180113,2452.7848,N,08025.8759,W,1,9,1.7,11,M,,M,,*5B
06/08/2014	18:01:13.721	$GPGGA,180114,2452.7832,N,08025.8739,W,1,9,1.7,11,M,,M,,*57
06/08/2014	18:01:14.726	$GPGGA,180115,2452.7816,N,08025.8718,W,1,9,1.7,11,M,,M,,*53
06/08/2014	18:01:15.741	$GPGGA,180116,2452.7800,N,08025.8698,W,1,9,2.2,11,M,,M,,*58
06/08/2014	18:01:16.756	$GPGGA,180117,2452.7784,N,08025.8678,W,1,9,1.7,11,M,,M,,*52
06/08/2014	18:01:17.730	$GPGGA,180118,2452.7767,N,08025.8659,W,1,9,1.7,11,M,,M,,*53
06/08/2014	18:01:18.756	$GPGGA,180119,2452.7751,N,08025.8640,W,1,9,1.7,11,M,,M,,*5F
06/08/2014	18:01:19.749	$GPGGA,180120,2452.7735,N,08025.8621,W,1,9,1.7,11,M,,M,,*50
06/08/2014	18:01:20.774	$GPGGA,180121,2452.7718,N,08025.8603,W,1,10,1.4,11,M,,M,,*65
06/08/2014	18:01:21.738	$GPGGA,180122,2452.7702,N,08025.8583,W,1,10,1.4,11,M,,M,,*66
06/08/2014	18:01:22.773	$GPGGA,180123,2452.7686,N,08025.8564,W,1,10,1.4,10,M,,M,,*62
06/08/2014	18:01:23.768	$GPGGA,180124,2452.7670,N,08025.8545,W,1,10,1.4,10,M,,M,,*6F
06/08/2014	18:01:24.773	$GPGGA,180125,2452.7653,N,08025.8526,W,1,10,1.4,10,M,,M,,*6A
06/08/2014	18:01:25.778	$GPGGA,180126,2452.7637,N,08025.8507,W,1,10,1.4,10,M,,M,,*68
06/08/2014	18:01:26.793	$GPGGA,180127,2452.7621,N,08025.8488,W,1,10,1.4,10,M,,M,,*68
06/08/2014	18:01:27.777	$GPGGA,180128,2452.7605,N,08025.8469,W,1,10,1.4,10,M,,M,,*6E
06/08/2014	18:01:28.772	$GPGGA,180129,2452.7588,N,08025.8450,W,1,10,1.4,10,M,,M,,*63
06/08/2014	18:01:29.757	$GPGGA,180130,2452.7572,N,08025.8430,W,1,10,1.4,10,M,,M,,*68
06/08/2014	18:01:30.792	$GPGGA,180131,2452.7558,N,08025.8411,W,1,10,1.4,10,M,,M,,*62
06/08/2014	18:01:31.786	$GPGGA,180132,2452.7541,N,08025.8391,W,1,10,1.4,10,M,,M,,*66
06/08/2014	18:01:32.791	$GPGGA,180133,2452.7525,N,08025.8372,W,1,10,1.4,10,M,,M,,*68
06/08/2014	18:01:33.776	$GPGGA,180134,2452.7509,N,08025.8352,W,1,10,1.4,10,M,,M,,*63
06/08/2014	18:01:34.811	$GPGGA,180135,2452.7494,N,08025.8333,W,1,9,1.7,10,M,,M,,*5B
06/08/2014	18:01:35.796	$GPGGA,180136,2452.7478,N,08025.8315,W,1,9,1.4,10,M,,M,,*5D
06/08/2014	18:01:36.790	$GPGGA,180137,2452.7462,N,08025.8297,W,1,10,1.4,10,M,,M,,*64
06/08/2014	18:01:37.784	$GPGGA,180138,2452.7447,N,08025.8276,W,1,10,1.4,10,M,,M,,*63
06/08/2014	18:01:38.532	$GPGGA,180139,2452.7432,N,08025.8255,W,1,9,1.7,10,M,,M,,*5A
06/08/2014	18:01:39.527	$GPGGA,180140,2452.7417,N,08025.8235,W,1,9,1.7,11,M,,M,,*54
06/08/2014	18:01:40.532	$GPGGA,180141,2452.7401,N,08025.8213,W,1,8,1.9,11,M,,M,,*59
06/08/2014	18:01:41.507	$GPGGA,180142,2452.7386,N,08025.8193,W,1,8,1.7,11,M,,M,,*57
06/08/2014	18:01:42.642	$GPGGA,180143,2452.7370,N,08025.8172,W,1,9,1.7,11,M,,M,,*51
06/08/2014	18:01:43.526	$GPGGA,180144,2452.7355,N,08025.8152,W,1,9,1.7,10,M,,M,,*52
06/08/2014	18:01:44.641	$GPGGA,180145,2452.7341,N,08025.8131,W,1,9,1.7,10,M,,M,,*53
06/08/2014	18:01:45.528	$GPGGA,180146,2452.7325,N,08025.8109,W,1,9,1.7,10,M,,M,,*59
06/08/2014	18:01:46.520	$GPGGA,180147,2452.7311,N,08025.8088,W,1,9,1.7,10,M,,M,,*57
06/08/2014	18:01:47.645	$GPGGA,180148,2452.7296,N,08025.8066,W,1,9,1.7,10,M,,M,,*56
06/08/2014	18:01:48.649	$GPGGA,180149,2452.7282,N,08025.8045,W,1,9,1.7,10,M,,M,,*53
06/08/2014	18:01:49.538	$GPGGA,180150,2452.7267,N,08025.8023,W,1,9,1.7,10,M,,M,,*50
06/08/2014	18:01:50.680	$GPGGA,180151,2452.7253,N,08025.8002,W,1,9,1.7,10,M,,M,,*55
06/08/2014	18:01:51.665	$GPGGA,180152,2452.7240,N,08025.7980,W,1,9,1.7,10,M,,M,,*58
06/08/2014	18:01:52.559	$GPGGA,180153,2452.7224,N,08025.7959,W,1,9,1.7,10,M,,M,,*5F
06/08/2014	18:01:53.544	$GPGGA,180154,2452.7211,N,08025.7937,W,1,9,1.7,10,M,,M,,*56
06/08/2014	18:01:54.557	$GPGGA,180155,2452.7195,N,08025.7916,W,1,9,1.7,10,M,,M,,*5B
06/08/2014	18:01:55.653	$GPGGA,180156,2452.7182,N,08025.7895,W,1,9,1.7,10,M,,M,,*54
06/08/2014	18:01:56.647	$GPGGA,180157,2452.7166,N,08025.7874,W,1,9,1.7,10,M,,M,,*50
06/08/2014	18:01:57.652	$GPGGA,180158,2452.7151,N,08025.7853,W,1,9,1.7,10,M,,M,,*5E
06/08/2014	18:01:58.679	$GPGGA,180159,2452.7136,N,08025.7832,W,1,9,1.7,10,M,,M,,*59
06/08/2014	18:01:59.688	$GPGGA,180200,2452.7121,N,08025.7811,W,1,9,1.7,10,M,,M,,*51
06/08/2014	18:02:00.691	$GPGGA,180201,2452.7107,N,08025.7789,W,1,8,1.9,10,M,,M,,*55
06/08/2014	18:02:01.662	$GPGGA,180202,2452.7092,N,08025.7769,W,1,8,1.7,10,M,,M,,*5B
06/08/2014	18:02:02.686	$GPGGA,180203,2452.7078,N,08025.7748,W,1,8,1.9,10,M,,M,,*53
06/08/2014	18:02:03.671	$GPGGA,180204,2452.7063,N,08025.7727,W,1,8,1.7,10,M,,M,,*59
06/08/2014	18:02:04.666	$GPGGA,180205,2452.7049,N,08025.7705,W,1,9,1.7,10,M,,M,,*51
06/08/2014	18:02:05.681	$GPGGA,180206,2452.7034,N,08025.7685,W,1,9,1.7,10,M,,M,,*51
06/08/2014	18:02:06.665	$GPGGA,180207,2452.7020,N,08025.7665,W,1,9,1.7,10,M,,M,,*5B
06/08/2014	18:02:07.690	$GPGGA,180208,2452.7005,N,08025.7644,W,1,9,1.7,10,M,,M,,*50
06/08/2014	18:02:08.715	$GPGGA,180209,2452.6991,N,08025.7623,W,1,9,1.7,10,M,,M,,*55
06/08/2014	18:02:09.680	$GPGGA,180210,2452.6974,N,08025.7603,W,1,9,1.4,10,M,,M,,*57
06/08/2014	18:02:10.715	$GPGGA,180211,2452.6960,N,08025.7583,W,1,10,1.4,10,M,,M,,*60
06/08/2014	18:02:11.698	$GPGGA,180212,2452.6944,N,08025.7563,W,1,10,1.4,10,M,,M,,*6B
06/08/2014	18:02:12.733	$GPGGA,180213,2452.6929,N,08025.7543,W,1,10,1.4,10,M,,M,,*63
06/08/2014	18:02:13.688	$GPGGA,180214,2452.6913,N,08025.7523,W,1,10,1.4,10,M,,M,,*6B
06/08/2014	18:02:14.733	$GPGGA,180215,2452.6897,N,08025.7504,W,1,10,1.4,10,M,,M,,*62
06/08/2014	18:02:15.718	$GPGGA,180216,2452.6882,N,08025.7485,W,1,10,1.4,10,M,,M,,*6D
06/08/2014	18:02:16.732	$GPGGA,180217,2452.6866,N,08025.7466,W,1,10,1.4,10,M,,M,,*6B
06/08/2014	18:02:17.707	$GPGGA,180218,2452.6850,N,08025.7447,W,1,10,1.4,10,M,,M,,*62
06/08/2014	18:02:18.742	$GPGGA,180219,2452.6833,N,08025.7429,W,1,10,1.4,10,M,,M,,*6E
06/08/2014	18:02:19.737	$GPGGA,180220,2452.6817,N,08025.7410,W,1,10,1.4,10,M,,M,,*68
06/08/2014	18:02:20.711	$GPGGA,180221,2452.6801,N,08025.7392,W,1,10,1.4,11,M,,M,,*62
06/08/2014	18:02:21.726	$GPGGA,180222,2452.6785,N,08025.7373,W,1,10,1.4,11,M,,M,,*6D
06/08/2014	18:02:22.731	$GPGGA,180223,2452.6768,N,08025.7355,W,1,10,1.4,11,M,,M,,*6B
06/08/2014	18:02:23.746	$GPGGA,180224,2452.6752,N,08025.7336,W,1,10,1.4,11,M,,M,,*60
06/08/2014	18:02:24.731	$GPGGA,180225,2452.6736,N,08025.7318,W,1,10,1.4,11,M,,M,,*6F
06/08/2014	18:02:25.725	$GPGGA,180226,2452.6720,N,08025.7298,W,1,10,1.4,11,M,,M,,*62
06/08/2014	18:02:26.851	$GPGGA,180227,2452.6704,N,08025.7279,W,1,10,1.4,11,M,,M,,*6A
06/08/2014	18:02:27.745	$GPGGA,180228,2452.6688,N,08025.7261,W,1,10,1.4,11,M,,M,,*69
06/08/2014	18:02:28.835	$GPGGA,180229,2452.6671,N,08025.7241,W,1,10,1.4,11,M,,M,,*6C
06/08/2014	18:02:29.745	$GPGGA,180230,2452.6655,N,08025.7223,W,1,10,1.4,11,M,,M,,*66
06/08/2014	18:02:30.740	$GPGGA,180231,2452.6638,N,08025.7203,W,1,10,1.4,11,M,,M,,*6E
06/08/2014	18:02:31.763	$GPGGA,180232,2452.6622,N,08025.7184,W,1,10,1.4,11,M,,M,,*6A
06/08/2014	18:02:32.838	$GPGGA,180233,2452.6605,N,08025.7165,W,1,10,1.4,11,M,,M,,*61
06/08/2014	18:02:33.753	$GPGGA,180234,2452.6590,N,08025.7146,W,1,10,1.4,11,M,,M,,*68
06/08/2014	18:02:34.838	$GPGGA,180235,2452.6573,N,08025.7127,W,1,10,1.4,11,M,,M,,*63
06/08/2014	18:02:35.894	$GPGGA,180236,2452.6557,N,08025.7107,W,1,10,1.4,11,M,,M,,*64
06/08/2014	18:02:36.929	$GPGGA,180237,2452.6541,N,08025.7088,W,1,10,1.4,11,M,,M,,*64
06/08/2014	18:02:37.983	$GPGGA,180238,2452.6525,N,08025.7068,W,1,10,1.4,11,M,,M,,*67
06/08/2014	18:02:38.589	$GPGGA,180239,2452.6510,N,08025.7048,W,1,10,1.4,11,M,,M,,*62
06/08/2014	18:02:39.544	$GPGGA,180240,2452.6493,N,08025.7029,W,1,10,1.4,11,M,,M,,*61
06/08/2014	18:02:40.678	$GPGGA,180241,2452.6478,N,08025.7008,W,1,10,1.4,11,M,,M,,*66
06/08/2014	18:02:41.728	$GPGGA,180242,2452.6461,N,08025.6988,W,1,10,1.4,11,M,,M,,*6D
06/08/2014	18:02:42.779	$GPGGA,180243,2452.6446,N,08025.6968,W,1,10,1.4,11,M,,M,,*67
06/08/2014	18:02:43.840	$GPGGA,180244,2452.6431,N,08025.6947,W,1,10,1.4,11,M,,M,,*6D
06/08/2014	18:02:44.890	$GPGGA,180245,2452.6414,N,08025.6927,W,1,10,1.4,11,M,,M,,*6D
06/08/2014	18:02:45.910	$GPGGA,180246,2452.6398,N,08025.6907,W,1,10,1.4,11,M,,M,,*6F
06/08/2014	18:02:47.736	$GPGGA,180247,2452.6384,N,08025.6886,W,1,10,1.4,11,M,,M,,*6B
06/08/2014	18:02:48.030	$GPGGA,180248,2452.6367,N,08025.6864,W,1,10,1.4,11,M,,M,,*65
06/08/2014	18:02:49.080	$GPGGA,180249,2452.6352,N,08025.6842,W,1,8,1.9,11,M,,M,,*52
06/08/2014	18:02:50.099	$GPGGA,180250,2452.6337,N,08025.6821,W,1,8,1.7,11,M,,M,,*52
06/08/2014	18:02:51.160	$GPGGA,180251,2452.6322,N,08025.6799,W,1,8,1.9,11,M,,M,,*55
06/08/2014	18:02:52.221	$GPGGA,180252,2452.6306,N,08025.6778,W,1,8,1.7,11,M,,M,,*51
06/08/2014	18:02:53.271	$GPGGA,180253,2452.6291,N,08025.6757,W,1,9,1.7,11,M,,M,,*53
06/08/2014	18:02:54.301	$GPGGA,180254,2452.6276,N,08025.6740,W,1,9,1.9,11,M,,M,,*55
06/08/2014	18:02:55.351	$GPGGA,180255,2452.6261,N,08025.6718,W,1,10,1.4,11,M,,M,,*6A
06/08/2014	18:02:56.412	$GPGGA,180256,2452.6246,N,08025.6698,W,1,10,1.7,11,M,,M,,*66
06/08/2014	18:02:57.473	$GPGGA,180257,2452.6232,N,08025.6678,W,1,10,1.4,11,M,,M,,*69
06/08/2014	18:02:58.502	$GPGGA,180258,2452.6217,N,08025.6658,W,1,10,1.4,11,M,,M,,*63
06/08/2014	18:02:59.563	$GPGGA,180259,2452.6203,N,08025.6639,W,1,10,1.4,11,M,,M,,*60
06/08/2014	18:03:00.624	$GPGGA,180300,2452.6187,N,08025.6620,W,1,10,1.4,11,M,,M,,*6A
06/08/2014	18:03:01.653	$GPGGA,180301,2452.6172,N,08025.6600,W,1,10,1.4,11,M,,M,,*63
06/08/2014	18:03:02.683	$GPGGA,180302,2452.6156,N,08025.6580,W,1,10,1.4,11,M,,M,,*6D
06/08/2014	18:03:03.775	$GPGGA,180303,2452.6140,N,08025.6560,W,1,10,1.4,12,M,,M,,*66
06/08/2014	18:03:04.794	$GPGGA,180304,2452.6124,N,08025.6541,W,1,10,1.4,12,M,,M,,*60
06/08/2014	18:03:05.864	$GPGGA,180305,2452.6109,N,08025.6521,W,1,10,1.4,12,M,,M,,*68
06/08/2014	18:03:06.894	$GPGGA,180306,2452.6093,N,08025.6501,W,1,10,1.4,12,M,,M,,*6B
06/08/2014	18:03:07.923	$GPGGA,180307,2452.6077,N,08025.6483,W,1,10,1.4,12,M,,M,,*6B
06/08/2014	18:03:09.026	$GPGGA,180308,2452.6061,N,08025.6463,W,1,10,1.4,12,M,,M,,*6D
06/08/2014	18:03:10.171	$GPGGA,180309,2452.6045,N,08025.6449,W,1,9,1.7,12,M,,M,,*59
06/08/2014	18:03:11.088	$GPGGA,180310,2452.6028,N,08025.6431,W,1,9,1.4,12,M,,M,,*56
06/08/2014	18:03:12.133	$GPGGA,180311,2452.6012,N,08025.6411,W,1,10,1.4,12,M,,M,,*64
06/08/2014	18:03:13.312	$GPGGA,180312,2452.5994,N,08025.6400,W,1,10,1.7,12,M,,M,,*60
06/08/2014	18:03:14.268	$GPGGA,180313,2452.5976,N,08025.6382,W,1,10,1.4,12,M,,M,,*63
06/08/2014	18:03:15.266	$GPGGA,180314,2452.5959,N,08025.6363,W,1,10,1.4,12,M,,M,,*66
06/08/2014	18:03:16.337	$GPGGA,180315,2452.5943,N,08025.6345,W,1,10,1.4,12,M,,M,,*68
06/08/2014	18:03:17.513	$GPGGA,180316,2452.5925,N,08025.6327,W,1,10,1.4,12,M,,M,,*6F
06/08/2014	18:03:18.543	$GPGGA,180317,2452.5907,N,08025.6309,W,1,10,1.4,12,M,,M,,*62
06/08/2014	18:03:19.562	$GPGGA,180318,2452.5889,N,08025.6293,W,1,10,1.7,12,M,,M,,*6B
06/08/2014	18:03:20.528	$GPGGA,180319,2452.5871,N,08025.6277,W,1,10,1.4,12,M,,M,,*64
06/08/2014	18:03:21.673	$GPGGA,180320,2452.5853,N,08025.6262,W,1,10,1.4,12,M,,M,,*6A
06/08/2014	18:03:22.618	$GPGGA,180321,2452.5835,N,08025.6246,W,1,10,1.4,12,M,,M,,*6D
06/08/2014	18:03:23.752	$GPGGA,180322,2452.5816,N,08025.6231,W,1,10,1.4,12,M,,M,,*6F
06/08/2014	18:03:24.708	$GPGGA,180323,2452.5797,N,08025.6217,W,1,10,1.4,12,M,,M,,*6C
06/08/2014	18:03:25.863	$GPGGA,180324,2452.5779,N,08025.6202,W,1,10,1.4,12,M,,M,,*6F
06/08/2014	18:03:26.914	$GPGGA,180325,2452.5760,N,08025.6188,W,1,10,1.4,12,M,,M,,*67
06/08/2014	18:03:27.850	$GPGGA,180326,2452.5741,N,08025.6173,W,1,10,1.4,12,M,,M,,*63
06/08/2014	18:03:28.899	$GPGGA,180327,2452.5723,N,08025.6158,W,1,10,1.4,12,M,,M,,*6F
06/08/2014	18:03:30.075	$GPGGA,180328,2452.5702,N,08025.6144,W,1,10,1.4,12,M,,M,,*6E
06/08/2014	18:03:31.084	$GPGGA,180329,2452.5683,N,08025.6130,W,1,10,1.4,12,M,,M,,*64
06/08/2014	18:03:32.144	$GPGGA,180330,2452.5665,N,08025.6116,W,1,10,1.4,12,M,,M,,*60
06/08/2014	18:03:33.195	$GPGGA,180331,2452.5645,N,08025.6101,W,1,10,1.4,12,M,,M,,*65
06/08/2014	18:03:34.256	$GPGGA,180332,2452.5625,N,08025.6087,W,1,10,1.4,12,M,,M,,*6F
06/08/2014	18:03:35.306	$GPGGA,180333,2452.5607,N,08025.6073,W,1,10,1.4,12,M,,M,,*65
06/08/2014	18:03:36.336	$GPGGA,180334,2452.5587,N,08025.6058,W,1,10,1.4,12,M,,M,,*60
06/08/2014	18:03:37.386	$GPGGA,180335,2452.5567,N,08025.6044,W,1,10,1.4,12,M,,M,,*62
06/08/2014	18:03:38.437	$GPGGA,180336,2452.5549,N,08025.6030,W,1,10,1.4,12,M,,M,,*6E
06/08/2014	18:03:39.497	$GPGGA,180337,2452.5529,N,08025.6015,W,1,10,1.4,12,M,,M,,*6E
06/08/2014	18:03:40.516	$GPGGA,180338,2452.5509,N,08025.6000,W,1,10,1.4,12,M,,M,,*67
06/08/2014	18:03:38.576	$GPGGA,180339,2452.5490,N,08025.5985,W,1,10,1.4,12,M,,M,,*60
06/08/2014	18:03:39.615	$GPGGA,180340,2452.5470,N,08025.5970,W,1,10,1.4,12,M,,M,,*6A
06/08/2014	18:03:40.644	$GPGGA,180341,2452.5452,N,08025.5955,W,1,10,1.4,12,M,,M,,*6C
06/08/2014	18:03:41.705	$GPGGA,180342,2452.5432,N,08025.5941,W,1,10,1.4,12,M,,M,,*6C
06/08/2014	18:03:42.745	$GPGGA,180343,2452.5413,N,08025.5926,W,1,10,1.4,12,M,,M,,*6F
06/08/2014	18:03:43.806	$GPGGA,180344,2452.5395,N,08025.5911,W,1,10,1.4,12,M,,M,,*65
06/08/2014	18:03:44.846	$GPGGA,180345,2452.5376,N,08025.5895,W,1,10,1.4,12,M,,M,,*64
06/08/2014	18:03:45.886	$GPGGA,180346,2452.5358,N,08025.5880,W,1,10,1.4,12,M,,M,,*6F
06/08/2014	18:03:46.968	$GPGGA,180347,2452.5338,N,08025.5864,W,1,10,1.4,12,M,,M,,*62
06/08/2014	18:03:48.008	$GPGGA,180348,2452.5319,N,08025.5848,W,1,10,1.4,12,M,,M,,*60
06/08/2014	18:03:49.059	$GPGGA,180349,2452.5300,N,08025.5832,W,1,10,1.4,12,M,,M,,*64
06/08/2014	18:03:50.077	$GPGGA,180350,2452.5282,N,08025.5817,W,1,10,1.4,12,M,,M,,*60
06/08/2014	18:03:51.127	$GPGGA,180351,2452.5264,N,08025.5801,W,1,10,1.4,12,M,,M,,*6E
06/08/2014	18:03:52.209	$GPGGA,180352,2452.5246,N,08025.5784,W,1,10,1.4,12,M,,M,,*6F
06/08/2014	18:03:53.271	$GPGGA,180353,2452.5228,N,08025.5768,W,1,10,1.4,12,M,,M,,*64
06/08/2014	18:03:54.268	$GPGGA,180354,2452.5208,N,08025.5751,W,1,10,1.4,12,M,,M,,*6B
06/08/2014	18:03:55.318	$GPGGA,180355,2452.5190,N,08025.5734,W,1,10,1.4,12,M,,M,,*6B
06/08/2014	18:03:56.401	$GPGGA,180356,2452.5171,N,08025.5717,W,1,10,1.4,12,M,,M,,*66
06/08/2014	18:03:57.418	$GPGGA,180357,2452.5153,N,08025.5700,W,1,10,1.4,11,M,,M,,*62
06/08/2014	18:03:58.479	$GPGGA,180358,2452.5135,N,08025.5682,W,1,10,1.4,11,M,,M,,*66
06/08/2014	18:03:59.508	$GPGGA,180359,2452.5118,N,08025.5664,W,1,9,1.7,11,M,,M,,*5B
06/08/2014	18:04:00.590	$GPGGA,180400,2452.5100,N,08025.5646,W,1,9,1.7,11,M,,M,,*59
06/08/2014	18:04:01.746	$GPGGA,180401,2452.5083,N,08025.5628,W,1,9,1.7,11,M,,M,,*5A
06/08/2014	18:04:02.654	$GPGGA,180402,2452.5065,N,08025.5610,W,1,9,1.7,11,M,,M,,*5A
06/08/2014	18:04:03.731	$GPGGA,180403,2452.5048,N,08025.5593,W,1,9,1.7,11,M,,M,,*5C
06/08/2014	18:04:04.781	$GPGGA,180404,2452.5030,N,08025.5576,W,1,9,1.4,11,M,,M,,*5C
06/08/2014	18:04:05.811	$GPGGA,180405,2452.5013,N,08025.5558,W,1,10,1.4,11,M,,M,,*68
06/08/2014	18:04:06.966	$GPGGA,180406,2452.4995,N,08025.5541,W,1,10,1.4,11,M,,M,,*65
06/08/2014	18:04:07.905	$GPGGA,180407,2452.4977,N,08025.5524,W,1,10,1.4,11,M,,M,,*6B
06/08/2014	18:04:09.099	$GPGGA,180408,2452.4960,N,08025.5507,W,1,10,1.4,11,M,,M,,*63
06/08/2014	18:04:10.149	$GPGGA,180409,2452.4943,N,08025.5489,W,1,10,1.4,11,M,,M,,*64
06/08/2014	18:04:11.063	$GPGGA,180410,2452.4925,N,08025.5472,W,1,10,1.4,11,M,,M,,*68
06/08/2014	18:04:12.230	$GPGGA,180411,2452.4910,N,08025.5455,W,1,10,1.4,11,M,,M,,*6A
06/08/2014	18:04:13.258	$GPGGA,180412,2452.4892,N,08025.5437,W,1,10,1.4,11,M,,M,,*66
06/08/2014	18:04:14.330	$GPGGA,180413,2452.4874,N,08025.5420,W,1,10,1.4,11,M,,M,,*69
06/08/2014	18:04:15.338	$GPGGA,180414,2452.4857,N,08025.5403,W,1,10,1.4,11,M,,M,,*6E
06/08/2014	18:04:16.419	$GPGGA,180415,2452.4839,N,08025.5386,W,1,10,1.4,11,M,,M,,*6D
06/08/2014	18:04:17.450	$GPGGA,180416,2452.4823,N,08025.5368,W,1,10,1.4,11,M,,M,,*65
06/08/2014	18:04:18.499	$GPGGA,180417,2452.4805,N,08025.5350,W,1,10,1.7,11,M,,M,,*68
06/08/2014	18:04:19.528	$GPGGA,180418,2452.4787,N,08025.5331,W,1,10,1.4,10,M,,M,,*67
06/08/2014	18:04:20.589	$GPGGA,180419,2452.4769,N,08025.5320,W,1,10,1.4,11,M,,M,,*67
06/08/2014	18:04:21.651	$GPGGA,180420,2452.4751,N,08025.5304,W,1,10,1.4,11,M,,M,,*60
06/08/2014	18:04:22.669	$GPGGA,180421,2452.4733,N,08025.5289,W,1,10,1.4,11,M,,M,,*61
06/08/2014	18:04:23.730	$GPGGA,180422,2452.4715,N,08025.5274,W,1,10,1.4,11,M,,M,,*64
06/08/2014	18:04:24.804	$GPGGA,180423,2452.4698,N,08025.5257,W,1,10,1.4,11,M,,M,,*60
06/08/2014	18:04:25.841	$GPGGA,180424,2452.4679,N,08025.5241,W,1,10,1.4,11,M,,M,,*6F
06/08/2014	18:04:26.891	$GPGGA,180425,2452.4662,N,08025.5224,W,1,10,1.4,11,M,,M,,*67
06/08/2014	18:04:27.931	$GPGGA,180426,2452.4644,N,08025.5208,W,1,10,1.4,11,M,,M,,*6E
06/08/2014	18:04:28.982	$GPGGA,180427,2452.4625,N,08025.5191,W,1,10,1.4,11,M,,M,,*6B
06/08/2014	18:04:30.032	$GPGGA,180428,2452.4607,N,08025.5175,W,1,10,1.4,11,M,,M,,*6E
06/08/2014	18:04:31.082	$GPGGA,180429,2452.4589,N,08025.5159,W,1,10,1.4,11,M,,M,,*64
06/08/2014	18:04:32.122	$GPGGA,180430,2452.4570,N,08025.5142,W,1,10,1.4,11,M,,M,,*60
06/08/2014	18:04:33.184	$GPGGA,180431,2452.4552,N,08025.5126,W,1,10,1.4,11,M,,M,,*63
06/08/2014	18:04:34.223	$GPGGA,180432,2452.4534,N,08025.5110,W,1,10,1.4,11,M,,M,,*65
06/08/2014	18:04:35.284	$GPGGA,180433,2452.4516,N,08025.5094,W,1,10,1.4,11,M,,M,,*69
06/08/2014	18:04:36.302	$GPGGA,180434,2452.4498,N,08025.5076,W,1,10,1.7,11,M,,M,,*66
06/08/2014	18:04:37.384	$GPGGA,180435,2452.4478,N,08025.5058,W,1,9,1.7,11,M,,M,,*5D
06/08/2014	18:04:38.424	$GPGGA,180436,2452.4459,N,08025.5040,W,1,9,1.7,11,M,,M,,*54
06/08/2014	18:04:39.443	$GPGGA,180437,2452.4441,N,08025.5023,W,1,9,1.7,11,M,,M,,*59
06/08/2014	18:04:40.503	$GPGGA,180438,2452.4422,N,08025.5006,W,1,9,1.7,11,M,,M,,*54
06/08/2014	18:04:38.541	$GPGGA,180439,2452.4404,N,08025.4989,W,1,9,1.7,11,M,,M,,*5E
06/08/2014	18:04:39.581	$GPGGA,180440,2452.4386,N,08025.4972,W,1,9,1.7,11,M,,M,,*59
06/08/2014	18:04:40.642	$GPGGA,180441,2452.4366,N,08025.4956,W,1,9,1.7,11,M,,M,,*50
06/08/2014	18:04:41.682	$GPGGA,180442,2452.4347,N,08025.4940,W,1,9,1.7,11,M,,M,,*57
06/08/2014	18:04:42.838	$GPGGA,180443,2452.4328,N,08025.4924,W,1,9,1.7,11,M,,M,,*5D
06/08/2014	18:04:43.783	$GPGGA,180444,2452.4310,N,08025.4908,W,1,9,1.7,11,M,,M,,*5F
06/08/2014	18:04:44.823	$GPGGA,180445,2452.4292,N,08025.4892,W,1,9,1.7,11,M,,M,,*57
06/08/2014	18:04:45.863	$GPGGA,180446,2452.4272,N,08025.4876,W,1,9,1.7,11,M,,M,,*50
06/08/2014	18:04:47.018	$GPGGA,180447,2452.4253,N,08025.4860,W,1,9,1.7,11,M,,M,,*55
06/08/2014	18:04:48.007	$GPGGA,180448,2452.4235,N,08025.4844,W,1,9,1.7,10,M,,M,,*5D
06/08/2014	18:04:49.035	$GPGGA,180449,2452.4216,N,08025.4829,W,1,9,1.7,10,M,,M,,*56
06/08/2014	18:04:50.074	$GPGGA,180450,2452.4198,N,08025.4813,W,1,9,1.7,10,M,,M,,*52
06/08/2014	18:04:51.096	$GPGGA,180451,2452.4178,N,08025.4797,W,1,9,1.7,10,M,,M,,*5E
06/08/2014	18:04:52.164	$GPGGA,180452,2452.4159,N,08025.4782,W,1,9,1.7,10,M,,M,,*5A
06/08/2014	18:04:53.256	$GPGGA,180453,2452.4141,N,08025.4766,W,1,9,1.7,10,M,,M,,*58
06/08/2014	18:04:54.339	$GPGGA,180454,2452.4122,N,08025.4750,W,1,9,1.7,10,M,,M,,*5F
06/08/2014	18:04:55.326	$GPGGA,180455,2452.4104,N,08025.4734,W,1,9,1.7,10,M,,M,,*58
06/08/2014	18:04:56.366	$GPGGA,180456,2452.4086,N,08025.4719,W,1,9,1.7,10,M,,M,,*5F
06/08/2014	18:04:57.395	$GPGGA,180457,2452.4068,N,08025.4703,W,1,9,1.7,10,M,,M,,*55
06/08/2014	18:04:58.529	$GPGGA,180458,2452.4048,N,08025.4687,W,1,9,1.7,10,M,,M,,*55
06/08/2014	18:04:59.601	$GPGGA,180459,2452.4030,N,08025.4671,W,1,9,1.7,10,M,,M,,*52
06/08/2014	18:05:00.578	$GPGGA,180500,2452.4012,N,08025.4655,W,1,9,1.7,9,M,,M,,*61
06/08/2014	18:05:01.597	$GPGGA,180501,2452.3994,N,08025.4638,W,1,9,1.7,9,M,,M,,*6B
06/08/2014	18:05:02.721	$GPGGA,180502,2452.3975,N,08025.4622,W,1,9,1.7,9,M,,M,,*6C
06/08/2014	18:05:03.813	$GPGGA,180503,2452.3957,N,08025.4606,W,1,9,1.7,9,M,,M,,*6B
06/08/2014	18:05:04.843	$GPGGA,180504,2452.3939,N,08025.4590,W,1,9,1.7,9,M,,M,,*68
06/08/2014	18:05:05.882	$GPGGA,180505,2452.3922,N,08025.4573,W,1,9,1.7,9,M,,M,,*6E
06/08/2014	18:05:06.912	$GPGGA,180506,2452.3903,N,08025.4556,W,1,9,1.7,9,M,,M,,*69
06/08/2014	18:05:08.003	$GPGGA,180507,2452.3903,N,08025.4556,W,1,9,1.7,9,M,,M,,*68
06/08/2014	18:05:09.033	$GPGGA,180508,2452.3868,N,08025.4522,W,1,9,1.7,9,M,,M,,*68
06/08/2014	18:05:10.083	$GPGGA,180509,2452.3851,N,08025.4505,W,1,9,1.7,9,M,,M,,*66
06/08/2014	18:05:11.123	$GPGGA,180510,2452.3833,N,08025.4489,W,1,9,1.7,9,M,,M,,*6F
06/08/2014	18:05:12.196	$GPGGA,180511,2452.3816,N,08025.4472,W,1,9,1.7,9,M,,M,,*6D
06/08/2014	18:05:13.224	$GPGGA,180512,2452.3799,N,08025.4454,W,1,9,1.7,9,M,,M,,*62
06/08/2014	18:05:14.284	$GPGGA,180513,2452.3783,N,08025.4436,W,1,9,1.7,9,M,,M,,*6C
06/08/2014	18:05:15.303	$GPGGA,180514,2452.3764,N,08025.4419,W,1,9,1.7,9,M,,M,,*6F
06/08/2014	18:05:16.364	$GPGGA,180515,2452.3747,N,08025.4402,W,1,9,1.7,9,M,,M,,*65
06/08/2014	18:05:17.415	$GPGGA,180516,2452.3747,N,08025.4402,W,1,9,1.7,9,M,,M,,*66
06/08/2014	18:05:18.476	$GPGGA,180517,2452.3712,N,08025.4367,W,1,9,1.7,9,M,,M,,*63
06/08/2014	18:05:19.505	$GPGGA,180518,2452.3696,N,08025.4349,W,1,9,1.7,9,M,,M,,*6D
06/08/2014	18:05:20.545	$GPGGA,180519,2452.3678,N,08025.4332,W,1,9,1.7,8,M,,M,,*61
06/08/2014	18:05:21.606	$GPGGA,180520,2452.3660,N,08025.4315,W,1,9,1.7,8,M,,M,,*67
06/08/2014	18:05:22.646	$GPGGA,180521,2452.3643,N,08025.4297,W,1,9,1.7,8,M,,M,,*6C
06/08/2014	18:05:23.696	$GPGGA,180522,2452.3626,N,08025.4280,W,1,9,1.7,8,M,,M,,*6A
06/08/2014	18:05:24.746	$GPGGA,180523,2452.3609,N,08025.4262,W,1,9,1.7,8,M,,M,,*6A
06/08/2014	18:05:25.807	$GPGGA,180524,2452.3591,N,08025.4245,W,1,9,1.7,8,M,,M,,*6A
06/08/2014	18:05:26.867	$GPGGA,180525,2452.3574,N,08025.4227,W,1,9,1.7,8,M,,M,,*64
06/08/2014	18:05:27.897	$GPGGA,180526,2452.3557,N,08025.4211,W,1,9,1.7,8,M,,M,,*63
06/08/2014	18:05:28.968	$GPGGA,180527,2452.3540,N,08025.4193,W,1,9,1.7,8,M,,M,,*6D
06/08/2014	18:05:29.997	$GPGGA,180528,2452.3522,N,08025.4176,W,1,9,1.7,8,M,,M,,*6D
06/08/2014	18:05:31.069	$GPGGA,180529,2452.3505,N,08025.4159,W,1,9,1.7,8,M,,M,,*64
06/08/2014	18:05:32.088	$GPGGA,180530,2452.3488,N,08025.4143,W,1,9,1.7,8,M,,M,,*63
06/08/2014	18:05:33.125	$GPGGA,180531,2452.3472,N,08025.4126,W,1,9,1.7,8,M,,M,,*64
06/08/2014	18:05:34.199	$GPGGA,180532,2452.3454,N,08025.4110,W,1,9,1.7,8,M,,M,,*66
06/08/2014	18:05:35.239	$GPGGA,180533,2452.3436,N,08025.4094,W,1,9,1.7,8,M,,M,,*6E
06/08/2014	18:05:36.268	$GPGGA,180534,2452.3419,N,08025.4078,W,1,9,1.7,8,M,,M,,*66
06/08/2014	18:05:37.329	$GPGGA,180535,2452.3402,N,08025.4063,W,1,9,1.7,8,M,,M,,*67
06/08/2014	18:05:38.401	$GPGGA,180536,2452.3385,N,08025.4048,W,1,9,1.7,8,M,,M,,*65
06/08/2014	18:05:39.514	$GPGGA,180537,2452.3367,N,08025.4035,W,1,9,1.7,8,M,,M,,*62
06/08/2014	18:05:40.470	$GPGGA,180538,2452.3349,N,08025.4022,W,1,9,1.7,8,M,,M,,*67
06/08/2014	18:05:38.624	$GPGGA,180539,2452.3329,N,08025.4008,W,1,9,1.7,8,M,,M,,*68
06/08/2014	18:05:39.549	$GPGGA,180540,2452.3310,N,08025.3995,W,1,9,1.7,8,M,,M,,*66
06/08/2014	18:05:40.715	$GPGGA,180541,2452.3291,N,08025.3983,W,1,9,1.7,8,M,,M,,*68
06/08/2014	18:05:41.638	$GPGGA,180542,2452.3273,N,08025.3971,W,1,9,1.7,8,M,,M,,*6A
06/08/2014	18:05:42.709	$GPGGA,180543,2452.3253,N,08025.3959,W,1,9,1.7,8,M,,M,,*63
06/08/2014	18:05:43.739	$GPGGA,180544,2452.3234,N,08025.3947,W,1,9,1.7,8,M,,M,,*6A
06/08/2014	18:05:44.779	$GPGGA,180545,2452.3214,N,08025.3935,W,1,9,1.7,7,M,,M,,*63
06/08/2014	18:05:45.819	$GPGGA,180546,2452.3195,N,08025.3923,W,1,9,1.7,7,M,,M,,*6D
06/08/2014	18:05:47.016	$GPGGA,180547,2452.3176,N,08025.3912,W,1,9,1.7,7,M,,M,,*63
06/08/2014	18:05:48.071	$GPGGA,180548,2452.3155,N,08025.3900,W,1,9,1.7,7,M,,M,,*6E
06/08/2014	18:05:49.112	$GPGGA,180549,2452.3136,N,08025.3888,W,1,9,1.7,7,M,,M,,*6B
06/08/2014	18:05:50.115	$GPGGA,180550,2452.3116,N,08025.3877,W,1,9,1.7,7,M,,M,,*61
06/08/2014	18:05:51.176	$GPGGA,180551,2452.3096,N,08025.3865,W,1,9,1.7,7,M,,M,,*6A
06/08/2014	18:05:52.230	$GPGGA,180552,2452.3076,N,08025.3854,W,1,9,1.7,7,M,,M,,*65
06/08/2014	18:05:53.289	$GPGGA,180553,2452.3056,N,08025.3842,W,1,9,1.7,7,M,,M,,*61
06/08/2014	18:05:54.316	$GPGGA,180554,2452.3036,N,08025.3832,W,1,9,1.7,7,M,,M,,*67
06/08/2014	18:05:55.367	$GPGGA,180555,2452.3015,N,08025.3821,W,1,9,1.7,7,M,,M,,*65
06/08/2014	18:05:56.417	$GPGGA,180556,2452.2996,N,08025.3811,W,1,9,1.7,7,M,,M,,*66
06/08/2014	18:05:57.478	$GPGGA,180557,2452.2977,N,08025.3801,W,1,8,1.9,7,M,,M,,*66
06/08/2014	18:05:58.518	$GPGGA,180558,2452.2956,N,08025.3791,W,1,8,1.7,7,M,,M,,*62
06/08/2014	18:05:59.582	$GPGGA,180559,2452.2936,N,08025.3781,W,1,9,1.7,7,M,,M,,*65
06/08/2014	18:06:00.640	$GPGGA,180600,2452.2919,N,08025.3770,W,1,9,1.7,7,M,,M,,*69
06/08/2014	18:06:01.668	$GPGGA,180601,2452.2901,N,08025.3761,W,1,9,1.7,7,M,,M,,*61
06/08/2014	18:06:02.697	$GPGGA,180602,2452.2883,N,08025.3751,W,1,9,1.7,7,M,,M,,*6A
06/08/2014	18:06:03.749	$GPGGA,180603,2452.2865,N,08025.3741,W,1,9,1.7,7,M,,M,,*62
06/08/2014	18:06:04.809	$GPGGA,180604,2452.2849,N,08025.3732,W,1,9,1.7,7,M,,M,,*6F
06/08/2014	18:06:05.838	$GPGGA,180605,2452.2833,N,08025.3722,W,1,9,1.7,7,M,,M,,*62
06/08/2014	18:06:06.899	$GPGGA,180606,2452.2818,N,08025.3714,W,1,9,1.7,7,M,,M,,*6D
06/08/2014	18:06:07.960	$GPGGA,180607,2452.2802,N,08025.3705,W,1,9,1.7,7,M,,M,,*67
06/08/2014	18:06:09.010	$GPGGA,180608,2452.2789,N,08025.3696,W,1,9,1.7,7,M,,M,,*6F
06/08/2014	18:06:10.061	$GPGGA,180609,2452.2775,N,08025.3688,W,1,9,1.7,7,M,,M,,*62
06/08/2014	18:06:11.080	$GPGGA,180610,2452.2761,N,08025.3680,W,1,9,1.7,7,M,,M,,*67
06/08/2014	18:06:12.130	$GPGGA,180611,2452.2748,N,08025.3672,W,1,9,1.7,8,M,,M,,*6F
06/08/2014	18:06:13.201	$GPGGA,180612,2452.2736,N,08025.3665,W,1,9,1.7,8,M,,M,,*63
06/08/2014	18:06:14.220	$GPGGA,180613,2452.2725,N,08025.3657,W,1,9,1.7,8,M,,M,,*61
06/08/2014	18:06:15.292	$GPGGA,180614,2452.2714,N,08025.3651,W,1,9,1.7,8,M,,M,,*62
06/08/2014	18:06:16.353	$GPGGA,180615,2452.2703,N,08025.3644,W,1,9,1.7,8,M,,M,,*61
06/08/2014	18:06:17.403	$GPGGA,180616,2452.2693,N,08025.3637,W,1,9,1.7,8,M,,M,,*6E
06/08/2014	18:06:18.464	$GPGGA,180617,2452.2683,N,08025.3632,W,1,9,1.7,8,M,,M,,*6B
06/08/2014	18:06:19.471	$GPGGA,180618,2452.2674,N,08025.3625,W,1,9,1.7,8,M,,M,,*6A
06/08/2014	18:06:20.533	$GPGGA,180619,2452.2664,N,08025.3619,W,1,9,1.7,8,M,,M,,*65
06/08/2014	18:06:21.593	$GPGGA,180620,2452.2655,N,08025.3614,W,1,9,1.7,8,M,,M,,*60
06/08/2014	18:06:22.654	$GPGGA,180621,2452.2646,N,08025.3609,W,1,8,1.9,8,M,,M,,*60
06/08/2014	18:06:23.673	$GPGGA,180622,2452.2637,N,08025.3603,W,1,8,1.9,8,M,,M,,*6F
06/08/2014	18:06:24.744	$GPGGA,180623,2452.2630,N,08025.3598,W,1,8,1.9,8,M,,M,,*68
06/08/2014	18:06:25.774	$GPGGA,180624,2452.2623,N,08025.3593,W,1,8,1.9,8,M,,M,,*66
06/08/2014	18:06:26.814	$GPGGA,180625,2452.2614,N,08025.3588,W,1,8,1.9,8,M,,M,,*69
06/08/2014	18:06:27.960	$GPGGA,180626,2452.2607,N,08025.3583,W,1,8,1.9,8,M,,M,,*63
06/08/2014	18:06:29.324	$GPGGA,180627,2452.2600,N,08025.3578,W,1,8,1.9,8,M,,M,,*61
06/08/2014	18:06:29.975	$GPGGA,180628,2452.2594,N,08025.3572,W,1,8,1.9,8,M,,M,,*6A
06/08/2014	18:06:31.131	$GPGGA,180629,2452.2587,N,08025.3567,W,1,8,1.7,8,M,,M,,*63
06/08/2014	18:06:32.062	$GPGGA,180630,2452.2579,N,08025.3561,W,1,8,1.7,8,M,,M,,*6C
06/08/2014	18:06:33.242	$GPGGA,180631,2452.2572,N,08025.3555,W,1,8,1.7,8,M,,M,,*61
06/08/2014	18:06:34.282	$GPGGA,180632,2452.2565,N,08025.3550,W,1,8,1.7,8,M,,M,,*61
06/08/2014	18:06:35.319	$GPGGA,180633,2452.2558,N,08025.3544,W,1,9,1.5,8,M,,M,,*68
06/08/2014	18:06:36.248	$GPGGA,180634,2452.2552,N,08025.3537,W,1,9,1.5,8,M,,M,,*61
06/08/2014	18:06:37.432	$GPGGA,180635,2452.2547,N,08025.3530,W,1,9,1.5,8,M,,M,,*63
06/08/2014	18:06:38.452	$GPGGA,180636,2452.2540,N,08025.3524,W,1,9,1.5,8,M,,M,,*62
06/08/2014	18:06:39.522	$GPGGA,180637,2452.2533,N,08025.3517,W,1,9,1.5,8,M,,M,,*67
06/08/2014	18:06:40.542	$GPGGA,180638,2452.2524,N,08025.3511,W,1,9,1.5,8,M,,M,,*68
06/08/2014	18:06:38.563	$GPGGA,180639,2452.2518,N,08025.3503,W,1,8,1.7,8,M,,M,,*66
06/08/2014	18:06:39.630	$GPGGA,180640,2452.2512,N,08025.3497,W,1,8,1.5,8,M,,M,,*6C
06/08/2014	18:06:40.680	$GPGGA,180641,2452.2504,N,08025.3490,W,1,9,1.5,9,M,,M,,*6D
06/08/2014	18:06:41.709	$GPGGA,180642,2452.2498,N,08025.3483,W,1,9,1.7,9,M,,M,,*6A
06/08/2014	18:06:42.781	$GPGGA,180643,2452.2490,N,08025.3476,W,1,9,1.5,9,M,,M,,*6B
06/08/2014	18:06:43.821	$GPGGA,180644,2452.2483,N,08025.3468,W,1,9,1.7,9,M,,M,,*63
06/08/2014	18:06:44.888	$GPGGA,180645,2452.2476,N,08025.3461,W,1,9,1.5,9,M,,M,,*63
06/08/2014	18:06:45.900	$GPGGA,180646,2452.2468,N,08025.3454,W,1,9,1.5,9,M,,M,,*69
06/08/2014	18:06:46.972	$GPGGA,180647,2452.2461,N,08025.3446,W,1,10,1.5,9,M,,M,,*5A
06/08/2014	18:06:48.022	$GPGGA,180648,2452.2453,N,08025.3439,W,1,10,1.5,9,M,,M,,*5C
06/08/2014	18:06:49.062	$GPGGA,180649,2452.2446,N,08025.3431,W,1,10,1.5,9,M,,M,,*51
06/08/2014	18:06:50.092	$GPGGA,180650,2452.2439,N,08025.3424,W,1,10,1.7,9,M,,M,,*57
06/08/2014	18:06:51.163	$GPGGA,180651,2452.2433,N,08025.3415,W,1,9,1.7,9,M,,M,,*66
06/08/2014	18:06:52.203	$GPGGA,180652,2452.2428,N,08025.3407,W,1,9,1.5,9,M,,M,,*6E
06/08/2014	18:06:53.263	$GPGGA,180653,2452.2419,N,08025.3399,W,1,10,1.5,9,M,,M,,*55
06/08/2014	18:06:54.292	$GPGGA,180654,2452.2413,N,08025.3391,W,1,10,1.5,10,M,,M,,*68
06/08/2014	18:06:55.374	$GPGGA,180655,2452.2406,N,08025.3382,W,1,10,1.5,10,M,,M,,*6F
06/08/2014	18:06:56.403	$GPGGA,180656,2452.2399,N,08025.3374,W,1,10,1.5,10,M,,M,,*64
06/08/2014	18:06:57.464	$GPGGA,180657,2452.2392,N,08025.3366,W,1,10,1.5,10,M,,M,,*6D
06/08/2014	18:06:58.483	$GPGGA,180658,2452.2385,N,08025.3357,W,1,10,1.5,10,M,,M,,*66
06/08/2014	18:06:59.576	$GPGGA,180659,2452.2377,N,08025.3349,W,1,10,1.5,10,M,,M,,*65
06/08/2014	18:07:00.594	$GPGGA,180700,2452.2370,N,08025.3341,W,1,10,1.5,10,M,,M,,*67
06/08/2014	18:07:01.624	$GPGGA,180701,2452.2363,N,08025.3332,W,1,10,1.5,10,M,,M,,*60
06/08/2014	18:07:02.695	$GPGGA,180702,2452.2354,N,08025.3324,W,1,10,1.7,10,M,,M,,*62
06/08/2014	18:07:03.725	$GPGGA,180703,2452.2349,N,08025.3316,W,1,9,1.7,10,M,,M,,*56
06/08/2014	18:07:04.796	$GPGGA,180704,2452.2341,N,08025.3307,W,1,9,1.5,10,M,,M,,*5B
06/08/2014	18:07:05.857	$GPGGA,180705,2452.2334,N,08025.3299,W,1,10,1.5,10,M,,M,,*66
06/08/2014	18:07:06.865	$GPGGA,180706,2452.2327,N,08025.3290,W,1,10,1.5,10,M,,M,,*6E
06/08/2014	18:07:07.947	$GPGGA,180707,2452.2318,N,08025.3282,W,1,10,1.5,10,M,,M,,*60
06/08/2014	18:07:08.977	$GPGGA,180708,2452.2310,N,08025.3273,W,1,10,1.5,10,M,,M,,*69
06/08/2014	18:07:10.116	$GPGGA,180709,2452.2302,N,08025.3265,W,1,10,1.5,10,M,,M,,*6C
06/08/2014	18:07:11.065	$GPGGA,180710,2452.2294,N,08025.3257,W,1,10,1.5,10,M,,M,,*6B
06/08/2014	18:07:12.116	$GPGGA,180711,2452.2287,N,08025.3248,W,1,10,1.5,10,M,,M,,*66
06/08/2014	18:07:13.167	$GPGGA,180712,2452.2280,N,08025.3239,W,1,10,1.5,10,M,,M,,*64
06/08/2014	18:07:14.217	$GPGGA,180713,2452.2272,N,08025.3231,W,1,10,1.5,10,M,,M,,*60
06/08/2014	18:07:15.251	$GPGGA,180714,2452.2264,N,08025.3223,W,1,10,1.5,10,M,,M,,*63
06/08/2014	18:07:16.297	$GPGGA,180715,2452.2258,N,08025.3215,W,1,10,1.5,10,M,,M,,*68
06/08/2014	18:07:17.536	$GPGGA,180716,2452.2251,N,08025.3206,W,1,10,1.5,10,M,,M,,*60
06/08/2014	18:07:18.419	$GPGGA,180717,2452.2242,N,08025.3198,W,1,10,1.5,10,M,,M,,*67
06/08/2014	18:07:19.546	$GPGGA,180718,2452.2235,N,08025.3190,W,1,10,1.5,10,M,,M,,*60
06/08/2014	18:07:20.501	$GPGGA,180719,2452.2227,N,08025.3181,W,1,10,1.5,10,M,,M,,*62
06/08/2014	18:07:21.658	$GPGGA,180720,2452.2220,N,08025.3173,W,1,10,1.5,10,M,,M,,*62
06/08/2014	18:07:22.605	$GPGGA,180721,2452.2213,N,08025.3165,W,1,10,1.5,10,M,,M,,*64
06/08/2014	18:07:23.642	$GPGGA,180722,2452.2205,N,08025.3158,W,1,10,1.5,10,M,,M,,*6E
06/08/2014	18:07:24.807	$GPGGA,180723,2452.2198,N,08025.3150,W,1,10,1.5,10,M,,M,,*60
06/08/2014	18:07:25.940	$GPGGA,180724,2452.2190,N,08025.3142,W,1,10,1.5,10,M,,M,,*6C
06/08/2014	18:07:26.960	$GPGGA,180725,2452.2183,N,08025.3135,W,1,10,1.5,10,M,,M,,*6F
06/08/2014	18:07:28.019	$GPGGA,180726,2452.2175,N,08025.3127,W,1,10,1.5,10,M,,M,,*66
06/08/2014	18:07:29.037	$GPGGA,180727,2452.2168,N,08025.3119,W,1,10,1.5,10,M,,M,,*66
06/08/2014	18:07:30.035	$GPGGA,180728,2452.2160,N,08025.3112,W,1,10,1.5,10,M,,M,,*6A
06/08/2014	18:07:31.131	$GPGGA,180729,2452.2152,N,08025.3104,W,1,10,1.5,10,M,,M,,*6D
06/08/2014	18:07:32.125	$GPGGA,180730,2452.2146,N,08025.3096,W,1,10,1.5,10,M,,M,,*6A
06/08/2014	18:07:33.239	$GPGGA,180731,2452.2137,N,08025.3088,W,1,10,1.5,10,M,,M,,*62
06/08/2014	18:07:34.310	$GPGGA,180732,2452.2130,N,08025.3081,W,1,10,1.5,10,M,,M,,*6F
06/08/2014	18:07:35.310	$GPGGA,180733,2452.2123,N,08025.3073,W,1,10,1.5,10,M,,M,,*61
06/08/2014	18:07:36.373	$GPGGA,180734,2452.2117,N,08025.3065,W,1,10,1.5,10,M,,M,,*66
06/08/2014	18:07:37.419	$GPGGA,180735,2452.2108,N,08025.3058,W,1,10,1.5,10,M,,M,,*67
06/08/2014	18:07:38.473	$GPGGA,180736,2452.2101,N,08025.3051,W,1,10,1.5,10,M,,M,,*64
06/08/2014	18:07:39.465	$GPGGA,180737,2452.2094,N,08025.3043,W,1,10,1.5,10,M,,M,,*6B
06/08/2014	18:07:40.502	$GPGGA,180738,2452.2087,N,08025.3035,W,1,10,1.5,10,M,,M,,*67
06/08/2014	18:07:38.615	$GPGGA,180739,2452.2081,N,08025.3028,W,1,10,1.5,10,M,,M,,*6C
06/08/2014	18:07:39.645	$GPGGA,180740,2452.2074,N,08025.3021,W,1,10,1.5,10,M,,M,,*61
06/08/2014	18:07:40.613	$GPGGA,180741,2452.2066,N,08025.3013,W,1,10,1.5,10,M,,M,,*62
06/08/2014	18:07:41.643	$GPGGA,180742,2452.2059,N,08025.3006,W,1,10,1.5,10,M,,M,,*69
06/08/2014	18:07:42.695	$GPGGA,180743,2452.2053,N,08025.2998,W,1,10,1.5,10,M,,M,,*6D
06/08/2014	18:07:43.713	$GPGGA,180744,2452.2045,N,08025.2991,W,1,10,1.5,10,M,,M,,*64
06/08/2014	18:07:44.661	$GPGGA,180745,2452.2038,N,08025.2984,W,1,10,1.5,9,M,,M,,*53
06/08/2014	18:07:45.721	$GPGGA,180746,2452.2032,N,08025.2977,W,1,10,1.5,9,M,,M,,*56
06/08/2014	18:07:46.669	$GPGGA,180747,2452.2025,N,08025.2969,W,1,10,1.5,9,M,,M,,*5E
06/08/2014	18:07:47.699	$GPGGA,180748,2452.2018,N,08025.2962,W,1,10,1.5,9,M,,M,,*54
06/08/2014	18:07:48.762	$GPGGA,180749,2452.2012,N,08025.2955,W,1,10,1.5,9,M,,M,,*5B
06/08/2014	18:07:49.780	$GPGGA,180750,2452.2005,N,08025.2947,W,1,10,1.5,9,M,,M,,*56
06/08/2014	18:07:50.789	$GPGGA,180751,2452.1999,N,08025.2940,W,1,10,1.5,9,M,,M,,*5F
06/08/2014	18:07:51.768	$GPGGA,180752,2452.1991,N,08025.2933,W,1,10,1.5,9,M,,M,,*50
06/08/2014	18:07:52.777	$GPGGA,180753,2452.1985,N,08025.2926,W,1,10,1.5,9,M,,M,,*50
06/08/2014	18:07:53.848	$GPGGA,180754,2452.1978,N,08025.2919,W,1,10,1.5,9,M,,M,,*59
06/08/2014	18:07:54.858	$GPGGA,180755,2452.1971,N,08025.2912,W,1,10,1.5,9,M,,M,,*5A
06/08/2014	18:07:55.837	$GPGGA,180756,2452.1965,N,08025.2904,W,1,10,1.5,9,M,,M,,*5B
06/08/2014	18:07:56.897	$GPGGA,180757,2452.1958,N,08025.2897,W,1,10,1.5,9,M,,M,,*5F
06/08/2014	18:07:57.927	$GPGGA,180758,2452.1951,N,08025.2890,W,1,10,1.5,9,M,,M,,*5E
06/08/2014	18:07:59.008	$GPGGA,180759,2452.1945,N,08025.2883,W,1,10,1.5,9,M,,M,,*58
06/08/2014	18:07:59.997	$GPGGA,180800,2452.1938,N,08025.2875,W,1,10,1.5,9,M,,M,,*58
06/08/2014	18:08:00.966	$GPGGA,180801,2452.1931,N,08025.2868,W,1,10,1.5,9,M,,M,,*5C
06/08/2014	18:08:01.995	$GPGGA,180802,2452.1926,N,08025.2861,W,1,10,1.5,9,M,,M,,*50
06/08/2014	18:08:03.082	$GPGGA,180803,2452.1918,N,08025.2853,W,1,10,1.5,9,M,,M,,*5D
06/08/2014	18:08:04.054	$GPGGA,180804,2452.1912,N,08025.2846,W,1,10,1.5,9,M,,M,,*54
06/08/2014	18:08:05.023	$GPGGA,180805,2452.1905,N,08025.2838,W,1,10,1.5,9,M,,M,,*5A
06/08/2014	18:08:06.073	$GPGGA,180806,2452.1898,N,08025.2831,W,1,10,1.5,9,M,,M,,*55
06/08/2014	18:08:07.093	$GPGGA,180807,2452.1891,N,08025.2823,W,1,10,1.5,9,M,,M,,*5E
06/08/2014	18:08:08.164	$GPGGA,180808,2452.1886,N,08025.2816,W,1,10,1.5,9,M,,M,,*51
06/08/2014	18:08:09.194	$GPGGA,180809,2452.1879,N,08025.2808,W,1,10,1.5,9,M,,M,,*5F
06/08/2014	18:08:10.198	$GPGGA,180810,2452.1871,N,08025.2801,W,1,10,1.5,9,M,,M,,*56
06/08/2014	18:08:11.192	$GPGGA,180811,2452.1864,N,08025.2794,W,1,10,1.5,9,M,,M,,*50
06/08/2014	18:08:12.222	$GPGGA,180812,2452.1857,N,08025.2786,W,1,10,1.5,9,M,,M,,*50
06/08/2014	18:08:13.232	$GPGGA,180813,2452.1850,N,08025.2779,W,1,10,1.5,9,M,,M,,*56
06/08/2014	18:08:14.264	$GPGGA,180814,2452.1843,N,08025.2771,W,1,10,1.5,9,M,,M,,*5B
06/08/2014	18:08:15.302	$GPGGA,180815,2452.1837,N,08025.2764,W,1,10,1.5,9,M,,M,,*5D
06/08/2014	18:08:16.301	$GPGGA,180816,2452.1830,N,08025.2757,W,1,10,1.5,9,M,,M,,*59
06/08/2014	18:08:17.300	$GPGGA,180817,2452.1824,N,08025.2749,W,1,10,1.5,9,M,,M,,*52
06/08/2014	18:08:18.320	$GPGGA,180818,2452.1817,N,08025.2742,W,1,10,1.5,9,M,,M,,*56
06/08/2014	18:08:19.340	$GPGGA,180819,2452.1810,N,08025.2735,W,1,10,1.5,9,M,,M,,*50
06/08/2014	18:08:20.369	$GPGGA,180820,2452.1803,N,08025.2728,W,1,10,1.5,9,M,,M,,*54
06/08/2014	18:08:21.400	$GPGGA,180821,2452.1797,N,08025.2720,W,1,10,1.5,9,M,,M,,*5F
06/08/2014	18:08:22.424	$GPGGA,180822,2452.1790,N,08025.2713,W,1,10,1.5,9,M,,M,,*5B
06/08/2014	18:08:23.428	$GPGGA,180823,2452.1783,N,08025.2705,W,1,10,1.5,9,M,,M,,*5F
06/08/2014	18:08:24.468	$GPGGA,180824,2452.1776,N,08025.2699,W,1,10,1.5,9,M,,M,,*56
06/08/2014	18:08:25.479	$GPGGA,180825,2452.1770,N,08025.2691,W,1,10,1.5,8,M,,M,,*58
06/08/2014	18:08:26.456	$GPGGA,180826,2452.1763,N,08025.2684,W,1,10,1.5,8,M,,M,,*5D
06/08/2014	18:08:27.519	$GPGGA,180827,2452.1756,N,08025.2676,W,1,10,1.5,8,M,,M,,*57
06/08/2014	18:08:28.547	$GPGGA,180828,2452.1749,N,08025.2669,W,1,10,1.5,8,M,,M,,*58
06/08/2014	18:08:29.561	$GPGGA,180829,2452.1742,N,08025.2662,W,1,10,1.5,8,M,,M,,*59
06/08/2014	18:08:30.545	$GPGGA,180830,2452.1736,N,08025.2655,W,1,10,1.5,8,M,,M,,*56
06/08/2014	18:08:31.575	$GPGGA,180831,2452.1729,N,08025.2647,W,1,10,1.5,8,M,,M,,*5A
06/08/2014	18:08:32.617	$GPGGA,180832,2452.1723,N,08025.2641,W,1,10,1.5,8,M,,M,,*55
06/08/2014	18:08:33.614	$GPGGA,180833,2452.1716,N,08025.2633,W,1,10,1.5,8,M,,M,,*57
06/08/2014	18:08:34.634	$GPGGA,180834,2452.1709,N,08025.2626,W,1,10,1.5,8,M,,M,,*5A
06/08/2014	18:08:35.654	$GPGGA,180835,2452.1703,N,08025.2619,W,1,10,1.5,8,M,,M,,*5D
06/08/2014	18:08:36.653	$GPGGA,180836,2452.1703,N,08025.2619,W,1,10,1.5,8,M,,M,,*5E
06/08/2014	18:08:37.662	$GPGGA,180837,2452.1689,N,08025.2604,W,1,10,1.5,8,M,,M,,*50
06/08/2014	18:08:38.692	$GPGGA,180838,2452.1682,N,08025.2597,W,1,10,1.6,8,M,,M,,*5E
06/08/2014	18:08:38.541	$GPGGA,180839,2452.1676,N,08025.2589,W,1,9,1.6,8,M,,M,,*63
06/08/2014	18:08:39.541	$GPGGA,180840,2452.1669,N,08025.2582,W,1,9,1.6,8,M,,M,,*68
06/08/2014	18:08:40.560	$GPGGA,180841,2452.1662,N,08025.2574,W,1,9,1.6,8,M,,M,,*6B
06/08/2014	18:08:41.550	$GPGGA,180842,2452.1662,N,08025.2574,W,1,9,1.6,8,M,,M,,*68
06/08/2014	18:08:42.590	$GPGGA,180843,2452.1648,N,08025.2559,W,1,9,1.5,8,M,,M,,*6D
06/08/2014	18:08:43.660	$GPGGA,180844,2452.1641,N,08025.2551,W,1,9,1.5,8,M,,M,,*6B
06/08/2014	18:08:44.629	$GPGGA,180845,2452.1634,N,08025.2544,W,1,10,1.5,8,M,,M,,*54
06/08/2014	18:08:45.669	$GPGGA,180846,2452.1634,N,08025.2544,W,1,10,1.6,8,M,,M,,*54
06/08/2014	18:08:46.648	$GPGGA,180847,2452.1622,N,08025.2529,W,1,10,1.5,8,M,,M,,*5A
06/08/2014	18:08:47.780	$GPGGA,180848,2452.1615,N,08025.2522,W,1,10,1.5,8,M,,M,,*5A
06/08/2014	18:08:48.708	$GPGGA,180849,2452.1609,N,08025.2515,W,1,10,1.5,8,M,,M,,*52
06/08/2014	18:08:49.819	$GPGGA,180850,2452.1602,N,08025.2508,W,1,10,1.5,8,M,,M,,*5D
06/08/2014	18:08:50.821	$GPGGA,180851,2452.1595,N,08025.2500,W,1,10,1.5,8,M,,M,,*59
06/08/2014	18:08:51.767	$GPGGA,180852,2452.1595,N,08025.2500,W,1,10,1.5,8,M,,M,,*5A
06/08/2014	18:08:52.849	$GPGGA,180853,2452.1581,N,08025.2485,W,1,10,1.5,8,M,,M,,*52
06/08/2014	18:08:53.884	$GPGGA,180854,2452.1575,N,08025.2478,W,1,10,1.5,8,M,,M,,*5C
06/08/2014	18:08:54.794	$GPGGA,180855,2452.1568,N,08025.2471,W,1,10,1.5,8,M,,M,,*58
06/08/2014	18:08:55.926	$GPGGA,180856,2452.1561,N,08025.2463,W,1,10,1.5,8,M,,M,,*51
06/08/2014	18:08:56.935	$GPGGA,180857,2452.1554,N,08025.2456,W,1,10,1.5,8,M,,M,,*50
06/08/2014	18:08:57.958	$GPGGA,180858,2452.1547,N,08025.2449,W,1,10,1.5,7,M,,M,,*5C
06/08/2014	18:08:58.956	$GPGGA,180859,2452.1541,N,08025.2442,W,1,10,1.5,7,M,,M,,*50
06/08/2014	18:09:00.005	$GPGGA,180900,2452.1534,N,08025.2435,W,1,10,1.5,7,M,,M,,*5F
06/08/2014	18:09:01.054	$GPGGA,180901,2452.1527,N,08025.2428,W,1,10,1.5,7,M,,M,,*50
06/08/2014	18:09:02.025	$GPGGA,180902,2452.1521,N,08025.2421,W,1,10,1.5,7,M,,M,,*5C
06/08/2014	18:09:03.064	$GPGGA,180903,2452.1514,N,08025.2414,W,1,10,1.5,7,M,,M,,*5D
06/08/2014	18:09:04.104	$GPGGA,180904,2452.1507,N,08025.2408,W,1,10,1.5,7,M,,M,,*55
06/08/2014	18:09:05.106	$GPGGA,180905,2452.1500,N,08025.2401,W,1,10,1.5,7,M,,M,,*5A
06/08/2014	18:09:06.093	$GPGGA,180906,2452.1493,N,08025.2394,W,1,10,1.5,7,M,,M,,*59
06/08/2014	18:09:07.142	$GPGGA,180907,2452.1486,N,08025.2388,W,1,10,1.5,7,M,,M,,*51
06/08/2014	18:09:08.144	$GPGGA,180908,2452.1479,N,08025.2381,W,1,10,1.5,7,M,,M,,*57
06/08/2014	18:09:09.161	$GPGGA,180909,2452.1474,N,08025.2375,W,1,10,1.5,7,M,,M,,*50
06/08/2014	18:09:10.151	$GPGGA,180910,2452.1467,N,08025.2368,W,1,10,1.5,7,M,,M,,*56
06/08/2014	18:09:11.194	$GPGGA,180911,2452.1460,N,08025.2362,W,1,10,1.5,7,M,,M,,*5A
06/08/2014	18:09:12.210	$GPGGA,180912,2452.1452,N,08025.2355,W,1,10,1.5,7,M,,M,,*5C
06/08/2014	18:09:13.199	$GPGGA,180913,2452.1445,N,08025.2349,W,1,10,1.5,7,M,,M,,*56
06/08/2014	18:09:14.220	$GPGGA,180914,2452.1438,N,08025.2343,W,1,10,1.5,7,M,,M,,*51
06/08/2014	18:09:15.269	$GPGGA,180915,2452.1431,N,08025.2336,W,1,10,1.5,7,M,,M,,*5B
06/08/2014	18:09:16.268	$GPGGA,180916,2452.1424,N,08025.2330,W,1,10,1.5,7,M,,M,,*5A
06/08/2014	18:09:17.308	$GPGGA,180917,2452.1417,N,08025.2324,W,1,10,1.5,7,M,,M,,*5E
06/08/2014	18:09:18.297	$GPGGA,180918,2452.1411,N,08025.2317,W,1,10,1.5,7,M,,M,,*57
06/08/2014	18:09:19.317	$GPGGA,180919,2452.1404,N,08025.2311,W,1,10,1.5,7,M,,M,,*54
06/08/2014	18:09:20.347	$GPGGA,180920,2452.1396,N,08025.2304,W,1,10,1.5,7,M,,M,,*56
06/08/2014	18:09:21.377	$GPGGA,180921,2452.1389,N,08025.2298,W,1,10,1.5,7,M,,M,,*5D
06/08/2014	18:09:22.356	$GPGGA,180922,2452.1384,N,08025.2291,W,1,10,1.5,7,M,,M,,*5A
06/08/2014	18:09:23.396	$GPGGA,180923,2452.1376,N,08025.2284,W,1,10,1.5,7,M,,M,,*52
06/08/2014	18:09:24.405	$GPGGA,180924,2452.1368,N,08025.2278,W,1,10,1.5,7,M,,M,,*59
06/08/2014	18:09:25.426	$GPGGA,180925,2452.1362,N,08025.2271,W,1,10,1.5,7,M,,M,,*5B
06/08/2014	18:09:26.537	$GPGGA,180926,2452.1355,N,08025.2264,W,1,10,1.5,7,M,,M,,*58
06/08/2014	18:09:27.567	$GPGGA,180927,2452.1348,N,08025.2258,W,1,10,1.5,7,M,,M,,*5A
06/08/2014	18:09:28.505	$GPGGA,180928,2452.1340,N,08025.2251,W,1,10,1.5,7,M,,M,,*54
06/08/2014	18:09:29.585	$GPGGA,180929,2452.1333,N,08025.2245,W,1,10,1.5,7,M,,M,,*54
06/08/2014	18:09:30.502	$GPGGA,180930,2452.1326,N,08025.2238,W,1,10,1.5,7,M,,M,,*52
06/08/2014	18:09:31.522	$GPGGA,180931,2452.1319,N,08025.2231,W,1,10,1.5,7,M,,M,,*56
06/08/2014	18:09:32.674	$GPGGA,180932,2452.1312,N,08025.2225,W,1,10,1.5,7,M,,M,,*5B
06/08/2014	18:09:33.684	$GPGGA,180933,2452.1305,N,08025.2218,W,1,10,1.5,7,M,,M,,*52
06/08/2014	18:09:34.591	$GPGGA,180934,2452.1298,N,08025.2212,W,1,10,1.5,7,M,,M,,*5A
06/08/2014	18:09:35.723	$GPGGA,180935,2452.1291,N,08025.2205,W,1,10,1.5,7,M,,M,,*54
06/08/2014	18:09:36.641	$GPGGA,180936,2452.1284,N,08025.2198,W,1,10,1.5,7,M,,M,,*54
06/08/2014	18:09:37.641	$GPGGA,180937,2452.1277,N,08025.2192,W,1,10,1.5,7,M,,M,,*53
06/08/2014	18:09:38.639	$GPGGA,180938,2452.1270,N,08025.2186,W,1,10,1.5,7,M,,M,,*5E
06/08/2014	18:09:38.609	$GPGGA,180939,2452.1263,N,08025.2179,W,1,10,1.5,7,M,,M,,*5D
06/08/2014	18:09:39.610	$GPGGA,180940,2452.1256,N,08025.2172,W,1,10,1.5,7,M,,M,,*5E
06/08/2014	18:09:40.620	$GPGGA,180941,2452.1250,N,08025.2165,W,1,10,1.5,7,M,,M,,*5F
06/08/2014	18:09:41.537	$GPGGA,180942,2452.1243,N,08025.2159,W,1,10,1.5,7,M,,M,,*51
06/08/2014	18:09:42.679	$GPGGA,180943,2452.1236,N,08025.2152,W,1,10,1.5,7,M,,M,,*59
06/08/2014	18:09:43.587	$GPGGA,180944,2452.1228,N,08025.2145,W,1,10,1.5,7,M,,M,,*57
06/08/2014	18:09:44.679	$GPGGA,180945,2452.1221,N,08025.2138,W,1,10,1.5,7,M,,M,,*55
06/08/2014	18:09:45.708	$GPGGA,180946,2452.1214,N,08025.2131,W,1,10,1.5,7,M,,M,,*59
06/08/2014	18:09:46.717	$GPGGA,180947,2452.1207,N,08025.2124,W,1,10,1.5,7,M,,M,,*5E
06/08/2014	18:09:47.756	$GPGGA,180948,2452.1200,N,08025.2117,W,1,10,1.5,7,M,,M,,*56
06/08/2014	18:09:48.786	$GPGGA,180949,2452.1193,N,08025.2110,W,1,10,1.5,7,M,,M,,*59
06/08/2014	18:09:49.775	$GPGGA,180950,2452.1187,N,08025.2104,W,1,10,1.5,7,M,,M,,*51
06/08/2014	18:09:50.785	$GPGGA,180951,2452.1180,N,08025.2097,W,1,10,1.5,7,M,,M,,*5C
06/08/2014	18:09:51.815	$GPGGA,180952,2452.1174,N,08025.2090,W,1,10,1.5,7,M,,M,,*53
06/08/2014	18:09:52.835	$GPGGA,180953,2452.1167,N,08025.2083,W,1,10,1.5,7,M,,M,,*52
06/08/2014	18:09:53.854	$GPGGA,180954,2452.1160,N,08025.2076,W,1,10,1.5,7,M,,M,,*58
06/08/2014	18:09:54.864	$GPGGA,180955,2452.1152,N,08025.2070,W,1,10,1.5,7,M,,M,,*5E
06/08/2014	18:09:57.158	$GPGGA,180957,2452.1138,N,08025.2056,W,1,10,1.5,7,M,,M,,*54
06/08/2014	18:09:57.913	$GPGGA,180958,2452.1131,N,08025.2049,W,1,10,1.5,7,M,,M,,*5C
06/08/2014	18:09:58.953	$GPGGA,180959,2452.1124,N,08025.2042,W,1,10,1.5,7,M,,M,,*52
06/08/2014	18:09:59.972	$GPGGA,181000,2452.1117,N,08025.2036,W,1,10,1.5,7,M,,M,,*55
06/08/2014	18:10:00.982	$GPGGA,181001,2452.1111,N,08025.2029,W,1,10,1.5,7,M,,M,,*5C
06/08/2014	18:10:01.981	$GPGGA,181002,2452.1104,N,08025.2022,W,1,10,1.5,7,M,,M,,*50
06/08/2014	18:10:03.001	$GPGGA,181003,2452.1097,N,08025.2015,W,1,10,1.5,7,M,,M,,*5E
06/08/2014	18:10:04.040	$GPGGA,181004,2452.1091,N,08025.2009,W,1,10,1.5,7,M,,M,,*52
06/08/2014	18:10:05.060	$GPGGA,181005,2452.1084,N,08025.2002,W,1,10,1.5,7,M,,M,,*5C
06/08/2014	18:10:06.059	$GPGGA,181006,2452.1077,N,08025.1995,W,1,10,1.5,7,M,,M,,*57
06/08/2014	18:10:07.090	$GPGGA,181007,2452.1070,N,08025.1988,W,1,10,1.5,7,M,,M,,*5D
06/08/2014	18:10:08.109	$GPGGA,181008,2452.1063,N,08025.1981,W,1,10,1.5,7,M,,M,,*59
06/08/2014	18:10:09.108	$GPGGA,181009,2452.1056,N,08025.1974,W,1,10,1.5,7,M,,M,,*54
06/08/2014	18:10:10.138	$GPGGA,181010,2452.1049,N,08025.1967,W,1,10,1.5,7,M,,M,,*50
06/08/2014	18:10:11.134	$GPGGA,181011,2452.1042,N,08025.1961,W,1,10,1.5,7,M,,M,,*5C
06/08/2014	18:10:12.178	$GPGGA,181012,2452.1035,N,08025.1953,W,1,10,1.5,7,M,,M,,*5E
06/08/2014	18:10:13.217	$GPGGA,181013,2452.1028,N,08025.1946,W,1,10,1.5,7,M,,M,,*57
06/08/2014	18:10:14.217	$GPGGA,181014,2452.1021,N,08025.1940,W,1,10,1.5,7,M,,M,,*5F
06/08/2014	18:10:15.206	$GPGGA,181015,2452.1015,N,08025.1933,W,1,10,1.5,7,M,,M,,*5D
06/08/2014	18:10:16.236	$GPGGA,181016,2452.1008,N,08025.1925,W,1,10,1.5,7,M,,M,,*55
06/08/2014	18:10:17.368	$GPGGA,181017,2452.1001,N,08025.1918,W,1,10,1.5,7,M,,M,,*53
06/08/2014	18:10:18.265	$GPGGA,181018,2452.0994,N,08025.1911,W,1,10,1.5,7,M,,M,,*51
06/08/2014	18:10:19.295	$GPGGA,181019,2452.0988,N,08025.1904,W,1,9,1.7,7,M,,M,,*63
06/08/2014	18:10:20.314	$GPGGA,181020,2452.0983,N,08025.1896,W,1,9,1.5,7,M,,M,,*6A
06/08/2014	18:10:21.314	$GPGGA,181021,2452.0975,N,08025.1889,W,1,10,1.5,7,M,,M,,*54
06/08/2014	18:10:22.332	$GPGGA,181022,2452.0967,N,08025.1881,W,1,10,1.7,7,M,,M,,*5E
06/08/2014	18:10:23.373	$GPGGA,181023,2452.0961,N,08025.1873,W,1,9,1.7,7,M,,M,,*6C
06/08/2014	18:10:24.372	$GPGGA,181024,2452.0957,N,08025.1865,W,1,9,1.7,7,M,,M,,*69
06/08/2014	18:10:25.494	$GPGGA,181025,2452.0952,N,08025.1856,W,1,10,1.5,7,M,,M,,*57
06/08/2014	18:10:26.411	$GPGGA,181026,2452.0947,N,08025.1847,W,1,10,1.5,7,M,,M,,*50
06/08/2014	18:10:27.543	$GPGGA,181027,2452.0941,N,08025.1839,W,1,10,1.5,8,M,,M,,*51
06/08/2014	18:10:28.461	$GPGGA,181028,2452.0936,N,08025.1830,W,1,10,1.7,8,M,,M,,*55
06/08/2014	18:10:29.562	$GPGGA,181029,2452.0932,N,08025.1822,W,1,10,1.5,8,M,,M,,*51
06/08/2014	18:10:30.602	$GPGGA,181030,2452.0927,N,08025.1813,W,1,10,1.5,8,M,,M,,*5F
06/08/2014	18:10:31.602	$GPGGA,181031,2452.0923,N,08025.1803,W,1,10,1.5,8,M,,M,,*5B
06/08/2014	18:10:32.631	$GPGGA,181032,2452.0918,N,08025.1794,W,1,10,1.5,8,M,,M,,*51
06/08/2014	18:10:33.631	$GPGGA,181033,2452.0914,N,08025.1785,W,1,10,1.5,8,M,,M,,*5C
06/08/2014	18:10:34.650	$GPGGA,181034,2452.0908,N,08025.1776,W,1,10,1.5,8,M,,M,,*5A
06/08/2014	18:10:35.701	$GPGGA,181035,2452.0904,N,08025.1767,W,1,9,1.6,8,M,,M,,*6C
06/08/2014	18:10:36.700	$GPGGA,181036,2452.0898,N,08025.1756,W,1,9,1.5,8,M,,M,,*6A
06/08/2014	18:10:37.720	$GPGGA,181037,2452.0894,N,08025.1745,W,1,10,1.5,8,M,,M,,*5D
06/08/2014	18:10:38.720	$GPGGA,181038,2452.0889,N,08025.1735,W,1,10,1.5,8,M,,M,,*59
06/08/2014	18:10:38.572	$GPGGA,181039,2452.0885,N,08025.1725,W,1,10,1.5,9,M,,M,,*54
06/08/2014	18:10:39.588	$GPGGA,181040,2452.0879,N,08025.1715,W,1,10,1.5,9,M,,M,,*5A
06/08/2014	18:10:40.625	$GPGGA,181041,2452.0874,N,08025.1705,W,1,10,1.5,9,M,,M,,*57
06/08/2014	18:10:41.607	$GPGGA,181042,2452.0871,N,08025.1696,W,1,10,1.5,9,M,,M,,*5A
06/08/2014	18:10:42.647	$GPGGA,181043,2452.0865,N,08025.1686,W,1,10,1.5,9,M,,M,,*5F
06/08/2014	18:10:43.656	$GPGGA,181044,2452.0860,N,08025.1677,W,1,10,1.5,9,M,,M,,*53
06/08/2014	18:10:44.689	$GPGGA,181045,2452.0856,N,08025.1667,W,1,10,1.5,9,M,,M,,*56
06/08/2014	18:10:45.665	$GPGGA,181046,2452.0853,N,08025.1658,W,1,10,1.5,9,M,,M,,*5C
06/08/2014	18:10:46.715	$GPGGA,181047,2452.0849,N,08025.1650,W,1,9,1.6,10,M,,M,,*5D
06/08/2014	18:10:47.725	$GPGGA,181048,2452.0843,N,08025.1640,W,1,9,1.5,10,M,,M,,*5A
06/08/2014	18:10:48.755	$GPGGA,181049,2452.0838,N,08025.1630,W,1,10,1.5,10,M,,M,,*68
06/08/2014	18:10:49.754	$GPGGA,181050,2452.0833,N,08025.1621,W,1,10,1.5,10,M,,M,,*6B
06/08/2014	18:10:50.794	$GPGGA,181051,2452.0829,N,08025.1612,W,1,9,1.6,10,M,,M,,*5A
06/08/2014	18:10:51.804	$GPGGA,181052,2452.0824,N,08025.1603,W,1,9,1.6,10,M,,M,,*54
06/08/2014	18:10:52.813	$GPGGA,181053,2452.0820,N,08025.1595,W,1,10,1.5,10,M,,M,,*66
06/08/2014	18:10:53.823	$GPGGA,181054,2452.0815,N,08025.1586,W,1,10,1.5,10,M,,M,,*65
06/08/2014	18:10:54.873	$GPGGA,181055,2452.0810,N,08025.1576,W,1,10,1.5,10,M,,M,,*6E
06/08/2014	18:10:55.872	$GPGGA,181056,2452.0806,N,08025.1566,W,1,10,1.5,10,M,,M,,*6B
06/08/2014	18:10:56.871	$GPGGA,181057,2452.0800,N,08025.1559,W,1,10,1.5,10,M,,M,,*60
06/08/2014	18:10:57.911	$GPGGA,181058,2452.0795,N,08025.1551,W,1,10,1.9,10,M,,M,,*68
06/08/2014	18:10:58.930	$GPGGA,181059,2452.0790,N,08025.1542,W,1,8,1.9,10,M,,M,,*57
06/08/2014	18:10:59.951	$GPGGA,181100,2452.0785,N,08025.1533,W,1,8,1.6,10,M,,M,,*57
06/08/2014	18:11:00.970	$GPGGA,181101,2452.0781,N,08025.1525,W,1,9,1.6,10,M,,M,,*54
06/08/2014	18:11:01.979	$GPGGA,181102,2452.0777,N,08025.1517,W,1,9,1.6,10,M,,M,,*5F
06/08/2014	18:11:03.101	$GPGGA,181103,2452.0770,N,08025.1507,W,1,9,1.6,10,M,,M,,*58
06/08/2014	18:11:04.008	$GPGGA,181104,2452.0766,N,08025.1499,W,1,9,1.5,10,M,,M,,*5D
06/08/2014	18:11:05.008	$GPGGA,181105,2452.0760,N,08025.1491,W,1,10,1.5,10,M,,M,,*6A
06/08/2014	18:11:06.160	$GPGGA,181106,2452.0755,N,08025.1482,W,1,10,1.5,10,M,,M,,*6D
06/08/2014	18:11:07.068	$GPGGA,181107,2452.0749,N,08025.1474,W,1,10,1.5,10,M,,M,,*68
06/08/2014	18:11:08.087	$GPGGA,181108,2452.0743,N,08025.1465,W,1,10,1.5,10,M,,M,,*6D
06/08/2014	18:11:09.074	$GPGGA,181109,2452.0738,N,08025.1456,W,1,10,1.5,10,M,,M,,*60
06/08/2014	18:11:10.199	$GPGGA,181110,2452.0732,N,08025.1448,W,1,10,1.5,10,M,,M,,*6D
06/08/2014	18:11:11.146	$GPGGA,181111,2452.0726,N,08025.1440,W,1,10,1.5,10,M,,M,,*61
06/08/2014	18:11:12.248	$GPGGA,181112,2452.0721,N,08025.1432,W,1,10,1.5,10,M,,M,,*60
06/08/2014	18:11:13.165	$GPGGA,181113,2452.0715,N,08025.1425,W,1,10,1.5,10,M,,M,,*60
06/08/2014	18:11:14.178	$GPGGA,181114,2452.0710,N,08025.1417,W,1,10,1.5,10,M,,M,,*63
06/08/2014	18:11:15.317	$GPGGA,181115,2452.0704,N,08025.1410,W,1,10,1.5,10,M,,M,,*60
06/08/2014	18:11:16.234	$GPGGA,181116,2452.0698,N,08025.1402,W,1,10,1.5,10,M,,M,,*64
06/08/2014	18:11:17.355	$GPGGA,181117,2452.0691,N,08025.1396,W,1,9,1.7,10,M,,M,,*5C
06/08/2014	18:11:18.245	$GPGGA,181118,2452.0686,N,08025.1388,W,1,9,1.5,10,M,,M,,*58
06/08/2014	18:11:19.354	$GPGGA,181119,2452.0680,N,08025.1382,W,1,10,1.5,10,M,,M,,*6D
06/08/2014	18:11:20.394	$GPGGA,181120,2452.0674,N,08025.1376,W,1,10,1.5,10,M,,M,,*67
06/08/2014	18:11:21.383	$GPGGA,181121,2452.0669,N,08025.1369,W,1,9,1.7,10,M,,M,,*5E
06/08/2014	18:11:22.413	$GPGGA,181122,2452.0665,N,08025.1363,W,1,9,1.5,10,M,,M,,*59
06/08/2014	18:11:23.422	$GPGGA,181123,2452.0658,N,08025.1356,W,1,10,1.5,10,M,,M,,*68
06/08/2014	18:11:24.463	$GPGGA,181124,2452.0652,N,08025.1350,W,1,10,1.5,10,M,,M,,*63
06/08/2014	18:11:25.472	$GPGGA,181125,2452.0647,N,08025.1344,W,1,10,1.5,10,M,,M,,*63
06/08/2014	18:11:26.492	$GPGGA,181126,2452.0640,N,08025.1338,W,1,10,1.5,10,M,,M,,*6C
06/08/2014	18:11:27.522	$GPGGA,181127,2452.0634,N,08025.1332,W,1,10,1.5,10,M,,M,,*64
06/08/2014	18:11:28.535	$GPGGA,181128,2452.0629,N,08025.1326,W,1,10,1.5,10,M,,M,,*62
06/08/2014	18:11:29.541	$GPGGA,181129,2452.0622,N,08025.1320,W,1,10,1.5,10,M,,M,,*6E
06/08/2014	18:11:30.561	$GPGGA,181130,2452.0616,N,08025.1315,W,1,10,1.5,10,M,,M,,*67
06/08/2014	18:11:31.595	$GPGGA,181131,2452.0611,N,08025.1309,W,1,10,1.5,10,M,,M,,*6C
06/08/2014	18:11:32.609	$GPGGA,181132,2452.0604,N,08025.1304,W,1,10,1.5,10,M,,M,,*66
06/08/2014	18:11:33.598	$GPGGA,181133,2452.0598,N,08025.1297,W,1,10,1.5,10,M,,M,,*6A
06/08/2014	18:11:34.628	$GPGGA,181134,2452.0591,N,08025.1291,W,1,10,1.5,10,M,,M,,*62
06/08/2014	18:11:35.637	$GPGGA,181135,2452.0585,N,08025.1285,W,1,10,1.5,10,M,,M,,*63
06/08/2014	18:11:36.678	$GPGGA,181136,2452.0579,N,08025.1279,W,1,10,1.5,10,M,,M,,*60
06/08/2014	18:11:37.726	$GPGGA,181137,2452.0573,N,08025.1273,W,1,10,1.5,10,M,,M,,*61
06/08/2014	18:11:38.697	$GPGGA,181138,2452.0567,N,08025.1267,W,1,10,1.5,10,M,,M,,*6E
06/08/2014	18:11:38.526	$GPGGA,181139,2452.0560,N,08025.1261,W,1,10,1.5,10,M,,M,,*6E
06/08/2014	18:11:39.566	$GPGGA,181140,2452.0554,N,08025.1254,W,1,10,1.5,11,M,,M,,*60
06/08/2014	18:11:40.596	$GPGGA,181141,2452.0549,N,08025.1247,W,1,10,1.5,11,M,,M,,*6F
06/08/2014	18:11:41.585	$GPGGA,181142,2452.0542,N,08025.1241,W,1,10,1.5,11,M,,M,,*61
06/08/2014	18:11:42.647	$GPGGA,181143,2452.0535,N,08025.1235,W,1,10,1.5,11,M,,M,,*63
06/08/2014	18:11:43.635	$GPGGA,181144,2452.0529,N,08025.1228,W,1,10,1.5,11,M,,M,,*65
06/08/2014	18:11:44.634	$GPGGA,181145,2452.0524,N,08025.1222,W,1,10,1.5,11,M,,M,,*63
06/08/2014	18:11:45.664	$GPGGA,181146,2452.0517,N,08025.1215,W,1,10,1.5,11,M,,M,,*64
06/08/2014	18:11:46.684	$GPGGA,181147,2452.0510,N,08025.1208,W,1,10,1.5,11,M,,M,,*6E
06/08/2014	18:11:47.703	$GPGGA,181148,2452.0503,N,08025.1201,W,1,10,1.5,11,M,,M,,*6A
