Software Version Number: 1	Data File Format Number: 1	Build Version Number: 1	Error Count Since VI Started: 0	Manufacturer: Raytheon	 Model Number: RayMarine 120	 S/N: 	 Cal Date: 	 Wind Direction Offset: 0.00	 Slope (M)1: 0.00	 Offset (B)1: 0.00	 Slope (M)2: 0.00	 Offset (B)2: 0.00	 Slope (M)3: 0.00	 Offset (B)3: 0.00	 Slope (M)4: 0.00	 Offset (B)4: 0.00	 Slope (M)5: 0.00	 Offset (B)5: 0.00	 Slope (M)6: 0.00	 Offset (B)6: 0.00
Computer Date	Computer Time	GGA String
06/04/2014	10:00:00.765	$GPGGA,100001,2455.8522,N,08019.0102,W,1,9,1.5,17,M,,M,,*53
06/04/2014	10:00:01.752	$GPGGA,100002,2455.8530,N,08019.0094,W,1,9,1.5,17,M,,M,,*5D
06/04/2014	10:00:02.850	$GPGGA,100003,2455.8540,N,08019.0088,W,1,8,1.7,17,M,,M,,*55
06/04/2014	10:00:03.777	$GPGGA,100004,2455.8546,N,08019.0083,W,1,8,1.5,17,M,,M,,*5D
06/04/2014	10:00:04.774	$GPGGA,100005,2455.8553,N,08019.0078,W,1,9,1.5,18,M,,M,,*52
06/04/2014	10:00:05.872	$GPGGA,100006,2455.8559,N,08019.0071,W,1,9,1.5,18,M,,M,,*52
06/04/2014	10:00:06.789	$GPGGA,100007,2455.8566,N,08019.0066,W,1,9,1.5,18,M,,M,,*59
06/04/2014	10:00:07.807	$GPGGA,100008,2455.8573,N,08019.0061,W,1,9,1.5,18,M,,M,,*55
06/04/2014	10:00:08.885	$GPGGA,100009,2455.8580,N,08019.0056,W,1,9,1.5,18,M,,M,,*5C
06/04/2014	10:00:09.892	$GPGGA,100010,2455.8587,N,08019.0049,W,1,9,1.5,18,M,,M,,*5D
06/04/2014	10:00:10.930	$GPGGA,100011,2455.8595,N,08019.0044,W,1,9,1.5,18,M,,M,,*52
06/04/2014	10:00:11.916	$GPGGA,100012,2455.8604,N,08019.0040,W,1,9,1.5,18,M,,M,,*5E
06/04/2014	10:00:12.943	$GPGGA,100013,2455.8612,N,08019.0034,W,1,9,1.5,18,M,,M,,*5B
06/04/2014	10:00:13.921	$GPGGA,100014,2455.8619,N,08019.0028,W,1,9,1.5,18,M,,M,,*5A
06/04/2014	10:00:14.918	$GPGGA,100015,2455.8627,N,08019.0023,W,1,9,1.5,18,M,,M,,*5D
06/04/2014	10:00:15.945	$GPGGA,100016,2455.8635,N,08019.0019,W,1,9,1.5,18,M,,M,,*54
06/04/2014	10:00:16.923	$GPGGA,100017,2455.8642,N,08019.0013,W,1,9,1.5,18,M,,M,,*5F
06/04/2014	10:00:17.940	$GPGGA,100018,2455.8649,N,08019.0007,W,1,9,1.5,18,M,,M,,*5E
06/04/2014	10:00:18.937	$GPGGA,100019,2455.8659,N,08019.0003,W,1,9,1.5,18,M,,M,,*5A
06/04/2014	10:00:19.965	$GPGGA,100020,2455.8666,N,08018.9997,W,1,9,1.5,18,M,,M,,*50
06/04/2014	10:00:20.942	$GPGGA,100021,2455.8674,N,08018.9993,W,1,9,1.5,18,M,,M,,*56
06/04/2014	10:00:23.320	$GPGGA,100022,2455.8681,N,08018.9988,W,1,9,1.5,18,M,,M,,*55
06/04/2014	10:00:23.340	$GPGGA,100023,2455.8689,N,08018.9983,W,1,9,1.5,18,M,,M,,*57
06/04/2014	10:00:23.984	$GPGGA,100024,2455.8696,N,08018.9978,W,1,9,1.5,18,M,,M,,*5A
06/04/2014	10:00:24.992	$GPGGA,100025,2455.8706,N,08018.9974,W,1,9,1.5,18,M,,M,,*5F
06/04/2014	10:00:25.971	$GPGGA,100026,2455.8714,N,08018.9971,W,1,9,1.5,18,M,,M,,*5A
06/04/2014	10:00:26.997	$GPGGA,100027,2455.8721,N,08018.9965,W,1,9,1.5,18,M,,M,,*58
06/04/2014	10:00:28.004	$GPGGA,100028,2455.8730,N,08018.9961,W,1,9,1.5,18,M,,M,,*53
06/04/2014	10:00:29.010	$GPGGA,100029,2455.8738,N,08018.9959,W,1,9,1.5,18,M,,M,,*51
06/04/2014	10:00:30.008	$GPGGA,100030,2455.8746,N,08018.9956,W,1,9,1.5,18,M,,M,,*5F
06/04/2014	10:00:31.025	$GPGGA,100031,2455.8754,N,08018.9951,W,1,9,1.5,18,M,,M,,*5A
06/04/2014	10:00:31.580	$GPGGA,100032,2455.8763,N,08018.9946,W,1,9,1.5,18,M,,M,,*5B
06/04/2014	10:00:32.598	$GPGGA,100033,2455.8771,N,08018.9942,W,1,8,1.5,18,M,,M,,*5C
06/04/2014	10:00:33.575	$GPGGA,100034,2455.8779,N,08018.9936,W,1,8,1.5,18,M,,M,,*50
06/04/2014	10:00:34.613	$GPGGA,100035,2455.8786,N,08018.9931,W,1,9,1.5,18,M,,M,,*57
06/04/2014	10:00:35.600	$GPGGA,100036,2455.8793,N,08018.9926,W,1,9,1.5,18,M,,M,,*56
06/04/2014	10:00:36.616	$GPGGA,100037,2455.8801,N,08018.9923,W,1,9,1.5,18,M,,M,,*56
06/04/2014	10:00:37.605	$GPGGA,100038,2455.8811,N,08018.9920,W,1,9,1.5,18,M,,M,,*5B
06/04/2014	10:00:38.592	$GPGGA,100039,2455.8819,N,08018.9917,W,1,8,1.5,18,M,,M,,*57
06/04/2014	10:00:39.630	$GPGGA,100040,2455.8826,N,08018.9913,W,1,8,1.5,18,M,,M,,*51
06/04/2014	10:00:40.647	$GPGGA,100041,2455.8835,N,08018.9909,W,1,9,1.5,18,M,,M,,*58
06/04/2014	10:00:41.624	$GPGGA,100042,2455.8843,N,08018.9906,W,1,9,1.5,18,M,,M,,*55
06/04/2014	10:00:42.642	$GPGGA,100043,2455.8851,N,08018.9905,W,1,9,1.5,17,M,,M,,*5B
06/04/2014	10:00:43.649	$GPGGA,100044,2455.8859,N,08018.9903,W,1,9,1.5,17,M,,M,,*52
06/04/2014	10:00:44.769	$GPGGA,100045,2455.8869,N,08018.9900,W,1,9,1.5,17,M,,M,,*53
06/04/2014	10:00:45.644	$GPGGA,100046,2455.8877,N,08018.9898,W,1,9,1.5,17,M,,M,,*5F
06/04/2014	10:00:46.660	$GPGGA,100047,2455.8887,N,08018.9896,W,1,9,1.5,17,M,,M,,*5F
06/04/2014	10:00:47.658	$GPGGA,100048,2455.8895,N,08018.9895,W,1,9,1.5,17,M,,M,,*50
06/04/2014	10:00:48.756	$GPGGA,100049,2455.8904,N,08018.9893,W,1,9,1.5,17,M,,M,,*5E
06/04/2014	10:00:49.662	$GPGGA,100050,2455.8913,N,08018.9892,W,1,9,1.5,17,M,,M,,*51
06/04/2014	10:00:50.801	$GPGGA,100051,2455.8922,N,08018.9890,W,1,9,1.5,17,M,,M,,*50
06/04/2014	10:00:51.687	$GPGGA,100052,2455.8930,N,08018.9889,W,1,9,1.5,17,M,,M,,*58
06/04/2014	10:00:52.705	$GPGGA,100053,2455.8938,N,08018.9889,W,1,9,1.5,17,M,,M,,*51
06/04/2014	10:00:53.783	$GPGGA,100054,2455.8948,N,08018.9887,W,1,9,1.5,17,M,,M,,*5F
06/04/2014	10:00:54.679	$GPGGA,100055,2455.8956,N,08018.9885,W,1,9,1.5,17,M,,M,,*53
06/04/2014	10:00:55.697	$GPGGA,100056,2455.8965,N,08018.9885,W,1,9,1.5,17,M,,M,,*50
06/04/2014	10:00:56.855	$GPGGA,100057,2455.8974,N,08018.9885,W,1,9,1.5,17,M,,M,,*51
06/04/2014	10:00:57.711	$GPGGA,100058,2455.8983,N,08018.9883,W,1,9,1.5,17,M,,M,,*50
06/04/2014	10:00:58.719	$GPGGA,100059,2455.8992,N,08018.9882,W,1,9,1.5,17,M,,M,,*50
06/04/2014	10:00:59.736	$GPGGA,100100,2455.8999,N,08018.9884,W,1,9,1.5,17,M,,M,,*50
06/04/2014	10:01:00.724	$GPGGA,100101,2455.9009,N,08018.9882,W,1,9,1.5,17,M,,M,,*56
06/04/2014	10:01:01.893	$GPGGA,100102,2455.9017,N,08018.9879,W,1,9,1.5,16,M,,M,,*5F
06/04/2014	10:01:02.829	$GPGGA,100103,2455.9025,N,08018.9879,W,1,9,1.5,16,M,,M,,*5F
06/04/2014	10:01:03.936	$GPGGA,100104,2455.9035,N,08018.9879,W,1,9,1.5,16,M,,M,,*59
06/04/2014	10:01:04.893	$GPGGA,100105,2455.9045,N,08018.9878,W,1,9,1.5,16,M,,M,,*5E
06/04/2014	10:01:05.911	$GPGGA,100106,2455.9053,N,08018.9876,W,1,9,1.5,16,M,,M,,*54
06/04/2014	10:01:06.888	$GPGGA,100107,2455.9061,N,08018.9877,W,1,9,1.5,16,M,,M,,*55
06/04/2014	10:01:07.865	$GPGGA,100108,2455.9070,N,08018.9877,W,1,9,1.5,16,M,,M,,*5A
06/04/2014	10:01:08.923	$GPGGA,100109,2455.9079,N,08018.9875,W,1,9,1.5,16,M,,M,,*50
06/04/2014	10:01:09.860	$GPGGA,100110,2455.9088,N,08018.9873,W,1,9,1.5,16,M,,M,,*50
06/04/2014	10:01:10.917	$GPGGA,100111,2455.9097,N,08018.9874,W,1,9,1.5,16,M,,M,,*58
06/04/2014	10:01:11.965	$GPGGA,100112,2455.9106,N,08018.9874,W,1,9,1.5,16,M,,M,,*52
06/04/2014	10:01:12.932	$GPGGA,100113,2455.9115,N,08018.9871,W,1,8,1.6,16,M,,M,,*56
06/04/2014	10:01:13.889	$GPGGA,100114,2455.9125,N,08018.9870,W,1,8,1.6,16,M,,M,,*53
06/04/2014	10:01:14.937	$GPGGA,100115,2455.9133,N,08018.9871,W,1,9,1.5,16,M,,M,,*56
06/04/2014	10:01:15.914	$GPGGA,100116,2455.9144,N,08018.9870,W,1,9,1.5,16,M,,M,,*54
06/04/2014	10:01:16.903	$GPGGA,100117,2455.9155,N,08018.9868,W,1,9,1.5,16,M,,M,,*5C
06/04/2014	10:01:17.899	$GPGGA,100118,2455.9165,N,08018.9867,W,1,9,1.5,16,M,,M,,*5F
06/04/2014	10:01:18.906	$GPGGA,100119,2455.9175,N,08018.9867,W,1,9,1.5,16,M,,M,,*5F
06/04/2014	10:01:19.995	$GPGGA,100120,2455.9184,N,08018.9866,W,1,9,1.5,16,M,,M,,*5A
06/04/2014	10:01:20.971	$GPGGA,100121,2455.9194,N,08018.9865,W,1,9,1.5,16,M,,M,,*59
06/04/2014	10:01:21.988	$GPGGA,100122,2455.9205,N,08018.9864,W,1,9,1.5,16,M,,M,,*50
06/04/2014	10:01:22.985	$GPGGA,100123,2455.9213,N,08018.9864,W,1,9,1.5,16,M,,M,,*56
06/04/2014	10:01:24.043	$GPGGA,100124,2455.9223,N,08018.9863,W,1,9,1.5,16,M,,M,,*55
06/04/2014	10:01:25.010	$GPGGA,100125,2455.9234,N,08018.9861,W,1,9,1.5,16,M,,M,,*50
06/04/2014	10:01:25.947	$GPGGA,100126,2455.9244,N,08018.9860,W,1,9,1.5,16,M,,M,,*55
06/04/2014	10:01:26.954	$GPGGA,100127,2455.9255,N,08018.9860,W,1,9,1.5,16,M,,M,,*54
06/04/2014	10:01:27.962	$GPGGA,100128,2455.9263,N,08018.9858,W,1,9,1.5,16,M,,M,,*55
06/04/2014	10:01:29.009	$GPGGA,100129,2455.9274,N,08018.9856,W,1,9,1.5,16,M,,M,,*5C
06/04/2014	10:01:29.966	$GPGGA,100130,2455.9285,N,08018.9856,W,1,9,1.5,16,M,,M,,*5A
06/04/2014	10:01:31.004	$GPGGA,100131,2455.9296,N,08018.9856,W,1,9,1.5,16,M,,M,,*59
06/04/2014	10:01:31.549	$GPGGA,100132,2455.9306,N,08018.9854,W,1,9,1.5,16,M,,M,,*50
06/04/2014	10:01:32.627	$GPGGA,100133,2455.9317,N,08018.9855,W,1,9,1.5,16,M,,M,,*50
06/04/2014	10:01:33.544	$GPGGA,100134,2455.9328,N,08018.9854,W,1,9,1.5,16,M,,M,,*5A
06/04/2014	10:01:34.602	$GPGGA,100135,2455.9339,N,08018.9855,W,1,9,1.6,16,M,,M,,*59
06/04/2014	10:01:35.639	$GPGGA,100136,2455.9353,N,08018.9852,W,1,9,1.5,16,M,,M,,*52
06/04/2014	10:01:36.677	$GPGGA,100137,2455.9364,N,08018.9852,W,1,9,1.5,16,M,,M,,*57
06/04/2014	10:01:37.574	$GPGGA,100138,2455.9377,N,08018.9855,W,1,9,1.5,16,M,,M,,*5D
06/04/2014	10:01:38.570	$GPGGA,100139,2455.9389,N,08018.9854,W,1,9,1.5,16,M,,M,,*5C
06/04/2014	10:01:39.718	$GPGGA,100140,2455.9403,N,08018.9852,W,1,9,1.5,16,M,,M,,*51
06/04/2014	10:01:40.716	$GPGGA,100141,2455.9415,N,08018.9853,W,1,9,1.5,16,M,,M,,*56
06/04/2014	10:01:41.663	$GPGGA,100142,2455.9429,N,08018.9855,W,1,9,1.5,16,M,,M,,*5C
06/04/2014	10:01:42.720	$GPGGA,100143,2455.9443,N,08018.9853,W,1,9,1.5,16,M,,M,,*57
06/04/2014	10:01:43.617	$GPGGA,100144,2455.9455,N,08018.9853,W,1,9,1.5,16,M,,M,,*57
06/04/2014	10:01:44.675	$GPGGA,100145,2455.9469,N,08018.9853,W,1,9,1.5,16,M,,M,,*59
06/04/2014	10:01:45.712	$GPGGA,100146,2455.9483,N,08018.9853,W,1,9,1.5,16,M,,M,,*5E
06/04/2014	10:01:46.740	$GPGGA,100147,2455.9497,N,08018.9852,W,1,9,1.5,16,M,,M,,*5B
06/04/2014	10:01:47.697	$GPGGA,100148,2455.9511,N,08018.9853,W,1,9,1.5,16,M,,M,,*5A
06/04/2014	10:01:48.724	$GPGGA,100149,2455.9525,N,08018.9853,W,1,9,1.5,16,M,,M,,*5C
06/04/2014	10:01:49.732	$GPGGA,100150,2455.9540,N,08018.9852,W,1,9,1.5,16,M,,M,,*56
06/04/2014	10:01:50.770	$GPGGA,100151,2455.9554,N,08018.9852,W,1,9,1.5,16,M,,M,,*52
06/04/2014	10:01:51.767	$GPGGA,100152,2455.9567,N,08018.9852,W,1,9,1.5,16,M,,M,,*51
06/04/2014	10:01:52.764	$GPGGA,100153,2455.9581,N,08018.9852,W,1,9,1.5,16,M,,M,,*58
06/04/2014	10:01:53.761	$GPGGA,100154,2455.9595,N,08018.9852,W,1,9,1.5,16,M,,M,,*5A
06/04/2014	10:01:54.769	$GPGGA,100155,2455.9610,N,08018.9851,W,1,9,1.5,16,M,,M,,*56
06/04/2014	10:01:55.796	$GPGGA,100156,2455.9624,N,08018.9852,W,1,9,1.5,16,M,,M,,*51
06/04/2014	10:01:56.773	$GPGGA,100157,2455.9639,N,08018.9851,W,1,9,1.6,16,M,,M,,*5C
06/04/2014	10:01:57.770	$GPGGA,100158,2455.9653,N,08018.9852,W,1,9,1.6,16,M,,M,,*5C
06/04/2014	10:01:58.787	$GPGGA,100159,2455.9668,N,08018.9851,W,1,8,1.5,16,M,,M,,*54
06/04/2014	10:01:59.815	$GPGGA,100200,2455.9686,N,08018.9850,W,1,8,1.5,16,M,,M,,*5A
06/04/2014	10:02:00.812	$GPGGA,100201,2455.9700,N,08018.9852,W,1,9,1.5,16,M,,M,,*57
06/04/2014	10:02:01.790	$GPGGA,100202,2455.9715,N,08018.9850,W,1,9,1.5,16,M,,M,,*52
06/04/2014	10:02:02.817	$GPGGA,100203,2455.9731,N,08018.9849,W,1,9,1.5,16,M,,M,,*5D
06/04/2014	10:02:03.824	$GPGGA,100204,2455.9746,N,08018.9850,W,1,9,1.5,16,M,,M,,*52
06/04/2014	10:02:04.832	$GPGGA,100205,2455.9761,N,08018.9852,W,1,9,1.5,16,M,,M,,*54
06/04/2014	10:02:05.859	$GPGGA,100206,2455.9776,N,08018.9851,W,1,9,1.5,16,M,,M,,*52
06/04/2014	10:02:06.826	$GPGGA,100207,2455.9791,N,08018.9850,W,1,9,1.5,16,M,,M,,*5B
06/04/2014	10:02:07.854	$GPGGA,100208,2455.9807,N,08018.9852,W,1,9,1.5,16,M,,M,,*56
06/04/2014	10:02:08.871	$GPGGA,100209,2455.9822,N,08018.9852,W,1,9,1.5,16,M,,M,,*50
06/04/2014	10:02:09.839	$GPGGA,100210,2455.9822,N,08018.9852,W,1,9,1.5,16,M,,M,,*58
06/04/2014	10:02:10.866	$GPGGA,100211,2455.9852,N,08018.9852,W,1,9,1.5,16,M,,M,,*5E
06/04/2014	10:02:11.894	$GPGGA,100212,2455.9867,N,08018.9853,W,1,9,1.5,16,M,,M,,*5A
06/04/2014	10:02:12.863	$GPGGA,100213,2455.9883,N,08018.9853,W,1,9,1.5,16,M,,M,,*51
06/04/2014	10:02:13.917	$GPGGA,100214,2455.9883,N,08018.9853,W,1,9,1.5,16,M,,M,,*56
06/04/2014	10:02:14.895	$GPGGA,100215,2455.9915,N,08018.9853,W,1,9,1.5,16,M,,M,,*59
06/04/2014	10:02:15.902	$GPGGA,100216,2455.9915,N,08018.9853,W,1,9,1.5,16,M,,M,,*5A
06/04/2014	10:02:16.889	$GPGGA,100217,2455.9944,N,08018.9855,W,1,9,1.6,16,M,,M,,*5A
06/04/2014	10:02:17.907	$GPGGA,100218,2455.9959,N,08018.9854,W,1,9,1.6,16,M,,M,,*58
06/04/2014	10:02:18.915	$GPGGA,100219,2455.9959,N,08018.9854,W,1,8,1.6,16,M,,M,,*58
06/04/2014	10:02:20.022	$GPGGA,100220,2455.9992,N,08018.9856,W,1,8,1.5,16,M,,M,,*54
06/04/2014	10:02:22.359	$GPGGA,100222,2456.0024,N,08018.9857,W,1,9,1.5,16,M,,M,,*58
06/04/2014	10:02:22.945	$GPGGA,100223,2456.0039,N,08018.9857,W,1,9,1.5,16,M,,M,,*55
06/04/2014	10:02:23.943	$GPGGA,100224,2456.0054,N,08018.9859,W,1,9,1.5,16,M,,M,,*57
06/04/2014	10:02:25.039	$GPGGA,100225,2456.0071,N,08018.9859,W,1,9,1.5,16,M,,M,,*51
06/04/2014	10:02:25.966	$GPGGA,100226,2456.0087,N,08018.9860,W,1,9,1.5,16,M,,M,,*51
06/04/2014	10:02:27.054	$GPGGA,100227,2456.0103,N,08018.9861,W,1,9,1.5,16,M,,M,,*5C
06/04/2014	10:02:27.960	$GPGGA,100228,2456.0119,N,08018.9863,W,1,9,1.5,16,M,,M,,*5A
06/04/2014	10:02:29.035	$GPGGA,100229,2456.0137,N,08018.9863,W,1,9,1.5,16,M,,M,,*57
06/04/2014	10:02:30.040	$GPGGA,100230,2456.0155,N,08018.9864,W,1,9,1.5,16,M,,M,,*5C
06/04/2014	10:02:31.063	$GPGGA,100231,2456.0172,N,08018.9867,W,1,9,1.5,16,M,,M,,*5B
06/04/2014	10:02:31.575	$GPGGA,100232,2456.0172,N,08018.9867,W,1,9,1.5,16,M,,M,,*58
06/04/2014	10:02:32.519	$GPGGA,100233,2456.0208,N,08018.9869,W,1,9,1.5,16,M,,M,,*59
06/04/2014	10:02:33.614	$GPGGA,100234,2456.0224,N,08018.9871,W,1,9,1.5,16,M,,M,,*59
06/04/2014	10:02:34.628	$GPGGA,100235,2456.0242,N,08018.9875,W,1,9,1.5,16,M,,M,,*5C
06/04/2014	10:02:35.642	$GPGGA,100236,2456.0262,N,08018.9877,W,1,9,1.5,16,M,,M,,*5F
06/04/2014	10:02:36.626	$GPGGA,100237,2456.0281,N,08018.9877,W,1,9,1.5,16,M,,M,,*53
06/04/2014	10:02:37.631	$GPGGA,100238,2456.0299,N,08018.9881,W,1,9,1.5,16,M,,M,,*5C
06/04/2014	10:02:38.665	$GPGGA,100239,2456.0318,N,08018.9885,W,1,9,1.5,16,M,,M,,*51
06/04/2014	10:02:39.639	$GPGGA,100240,2456.0338,N,08018.9888,W,1,9,1.5,16,M,,M,,*50
06/04/2014	10:02:40.654	$GPGGA,100241,2456.0358,N,08018.9889,W,1,9,1.5,16,M,,M,,*56
06/04/2014	10:02:41.628	$GPGGA,100242,2456.0376,N,08018.9893,W,1,9,1.5,16,M,,M,,*52
06/04/2014	10:02:42.642	$GPGGA,100243,2456.0396,N,08018.9897,W,1,9,1.5,16,M,,M,,*59
06/04/2014	10:02:43.657	$GPGGA,100244,2456.0416,N,08018.9899,W,1,9,1.5,16,M,,M,,*5F
06/04/2014	10:02:44.651	$GPGGA,100245,2456.0436,N,08018.9903,W,1,9,1.5,16,M,,M,,*5E
06/04/2014	10:02:45.645	$GPGGA,100246,2456.0455,N,08018.9907,W,1,9,1.5,16,M,,M,,*5C
06/04/2014	10:02:46.659	$GPGGA,100247,2456.0476,N,08018.9911,W,1,9,1.5,16,M,,M,,*5B
06/04/2014	10:02:47.664	$GPGGA,100248,2456.0495,N,08018.9914,W,1,9,1.5,16,M,,M,,*5C
06/04/2014	10:02:48.667	$GPGGA,100249,2456.0515,N,08018.9920,W,1,9,1.5,16,M,,M,,*53
06/04/2014	10:02:49.651	$GPGGA,100250,2456.0535,N,08018.9924,W,1,9,1.5,16,M,,M,,*5D
06/04/2014	10:02:50.645	$GPGGA,100251,2456.0555,N,08018.9928,W,1,9,1.5,16,M,,M,,*56
06/04/2014	10:02:51.660	$GPGGA,100252,2456.0574,N,08018.9931,W,1,9,1.5,16,M,,M,,*5E
06/04/2014	10:02:52.674	$GPGGA,100253,2456.0593,N,08018.9939,W,1,9,1.5,16,M,,M,,*5E
06/04/2014	10:02:53.648	$GPGGA,100254,2456.0613,N,08018.9942,W,1,9,1.5,16,M,,M,,*5E
06/04/2014	10:02:54.664	$GPGGA,100255,2456.0632,N,08018.9947,W,1,9,1.5,16,M,,M,,*59
06/04/2014	10:02:55.677	$GPGGA,100256,2456.0650,N,08018.9953,W,1,9,1.5,15,M,,M,,*58
06/04/2014	10:02:56.691	$GPGGA,100257,2456.0667,N,08018.9960,W,1,8,1.6,15,M,,M,,*5F
06/04/2014	10:02:57.666	$GPGGA,100258,2456.0683,N,08018.9965,W,1,8,1.6,15,M,,M,,*5F
06/04/2014	10:02:58.670	$GPGGA,100259,2456.0700,N,08018.9971,W,1,8,1.6,15,M,,M,,*51
06/04/2014	10:02:59.694	$GPGGA,100300,2456.0715,N,08018.9975,W,1,8,1.6,15,M,,M,,*5C
06/04/2014	10:03:00.668	$GPGGA,100301,2456.0728,N,08018.9982,W,1,8,1.6,15,M,,M,,*5B
06/04/2014	10:03:01.673	$GPGGA,100302,2456.0741,N,08018.9986,W,1,8,1.6,15,M,,M,,*53
06/04/2014	10:03:02.688	$GPGGA,100303,2456.0757,N,08018.9990,W,1,9,1.5,15,M,,M,,*50
06/04/2014	10:03:03.701	$GPGGA,100304,2456.0770,N,08018.9996,W,1,9,1.5,15,M,,M,,*54
06/04/2014	10:03:04.716	$GPGGA,100305,2456.0783,N,08019.0000,W,1,9,1.5,15,M,,M,,*57
06/04/2014	10:03:05.691	$GPGGA,100306,2456.0795,N,08019.0004,W,1,9,1.5,15,M,,M,,*57
06/04/2014	10:03:06.683	$GPGGA,100307,2456.0809,N,08019.0007,W,1,9,1.5,15,M,,M,,*5F
06/04/2014	10:03:07.697	$GPGGA,100308,2456.0820,N,08019.0011,W,1,9,1.5,15,M,,M,,*5C
06/04/2014	10:03:08.702	$GPGGA,100309,2456.0830,N,08019.0015,W,1,9,1.5,15,M,,M,,*58
06/04/2014	10:03:09.706	$GPGGA,100310,2456.0842,N,08019.0018,W,1,9,1.5,15,M,,M,,*58
06/04/2014	10:03:10.700	$GPGGA,100311,2456.0852,N,08019.0020,W,1,9,1.5,15,M,,M,,*53
06/04/2014	10:03:11.725	$GPGGA,100312,2456.0860,N,08019.0025,W,1,9,1.9,15,M,,M,,*58
06/04/2014	10:03:12.719	$GPGGA,100313,2456.0869,N,08019.0027,W,1,9,1.5,15,M,,M,,*5E
06/04/2014	10:03:13.713	$GPGGA,100314,2456.0878,N,08019.0029,W,1,9,1.5,15,M,,M,,*57
06/04/2014	10:03:14.808	$GPGGA,100315,2456.0887,N,08019.0029,W,1,9,1.5,15,M,,M,,*56
06/04/2014	10:03:15.732	$GPGGA,100316,2456.0893,N,08019.0032,W,1,9,1.9,15,M,,M,,*56
06/04/2014	10:03:16.716	$GPGGA,100317,2456.0900,N,08019.0033,W,1,9,1.5,15,M,,M,,*51
06/04/2014	10:03:17.710	$GPGGA,100318,2456.0907,N,08019.0032,W,1,9,1.5,15,M,,M,,*58
06/04/2014	10:03:18.805	$GPGGA,100319,2456.0913,N,08019.0033,W,1,8,1.6,15,M,,M,,*5F
06/04/2014	10:03:19.819	$GPGGA,100320,2456.0918,N,08019.0034,W,1,8,2.4,15,M,,M,,*58
06/04/2014	10:03:20.855	$GPGGA,100321,2456.0921,N,08019.0034,W,1,8,1.6,15,M,,M,,*52
06/04/2014	10:03:21.838	$GPGGA,100322,2456.0928,N,08019.0034,W,1,8,1.5,15,M,,M,,*5B
06/04/2014	10:03:22.822	$GPGGA,100323,2456.0935,N,08019.0033,W,1,8,1.6,15,M,,M,,*52
06/04/2014	10:03:23.836	$GPGGA,100324,2456.0938,N,08019.0034,W,1,8,1.6,15,M,,M,,*5F
06/04/2014	10:03:24.860	$GPGGA,100325,2456.0943,N,08019.0034,W,1,8,1.6,15,M,,M,,*52
06/04/2014	10:03:25.834	$GPGGA,100326,2456.0950,N,08019.0032,W,1,8,1.5,15,M,,M,,*56
06/04/2014	10:03:26.848	$GPGGA,100327,2456.0956,N,08019.0030,W,1,8,1.9,15,M,,M,,*5F
06/04/2014	10:03:27.843	$GPGGA,100328,2456.0958,N,08019.0030,W,1,8,1.9,15,M,,M,,*5E
06/04/2014	10:03:28.857	$GPGGA,100329,2456.0963,N,08019.0029,W,1,9,1.5,15,M,,M,,*52
06/04/2014	10:03:29.841	$GPGGA,100330,2456.0967,N,08019.0027,W,1,9,1.9,15,M,,M,,*5C
06/04/2014	10:03:30.856	$GPGGA,100331,2456.0972,N,08019.0025,W,1,8,1.9,15,M,,M,,*5A
06/04/2014	10:03:31.604	$GPGGA,100332,2456.0975,N,08019.0023,W,1,8,1.9,15,M,,M,,*58
06/04/2014	10:03:32.588	$GPGGA,100333,2456.0978,N,08019.0023,W,1,9,1.5,15,M,,M,,*59
06/04/2014	10:03:33.592	$GPGGA,100334,2456.0982,N,08019.0021,W,1,9,1.9,15,M,,M,,*55
06/04/2014	10:03:34.607	$GPGGA,100335,2456.0986,N,08019.0019,W,1,8,1.5,16,M,,M,,*55
06/04/2014	10:03:35.611	$GPGGA,100336,2456.0990,N,08019.0016,W,1,8,1.5,16,M,,M,,*5E
06/04/2014	10:03:36.585	$GPGGA,100337,2456.0993,N,08019.0016,W,1,8,1.5,16,M,,M,,*5C
06/04/2014	10:03:37.600	$GPGGA,100338,2456.0997,N,08019.0016,W,1,8,2.2,16,M,,M,,*53
06/04/2014	10:03:38.594	$GPGGA,100339,2456.1001,N,08019.0015,W,1,9,1.5,16,M,,M,,*53
06/04/2014	10:03:39.608	$GPGGA,100340,2456.1005,N,08019.0018,W,1,9,1.5,16,M,,M,,*54
06/04/2014	10:03:40.622	$GPGGA,100341,2456.1010,N,08019.0019,W,1,9,1.5,16,M,,M,,*50
06/04/2014	10:03:41.606	$GPGGA,100342,2456.1015,N,08019.0020,W,1,9,1.5,17,M,,M,,*5D
06/04/2014	10:03:42.640	$GPGGA,100343,2456.1018,N,08019.0025,W,1,9,1.5,17,M,,M,,*54
06/04/2014	10:03:43.624	$GPGGA,100344,2456.1022,N,08019.0027,W,1,9,1.5,17,M,,M,,*58
06/04/2014	10:03:44.629	$GPGGA,100345,2456.1028,N,08019.0030,W,1,8,1.9,17,M,,M,,*58
06/04/2014	10:03:45.613	$GPGGA,100346,2456.1032,N,08019.0034,W,1,8,1.9,17,M,,M,,*54
06/04/2014	10:03:46.657	$GPGGA,100347,2456.1033,N,08019.0037,W,1,8,1.9,17,M,,M,,*57
06/04/2014	10:03:47.642	$GPGGA,100348,2456.1037,N,08019.0041,W,1,8,1.5,18,M,,M,,*5E
06/04/2014	10:03:48.616	$GPGGA,100349,2456.1041,N,08019.0043,W,1,9,1.5,18,M,,M,,*5D
06/04/2014	10:03:49.620	$GPGGA,100350,2456.1044,N,08019.0045,W,1,9,1.5,18,M,,M,,*56
06/04/2014	10:03:50.624	$GPGGA,100351,2456.1048,N,08019.0051,W,1,8,1.9,18,M,,M,,*53
06/04/2014	10:03:51.659	$GPGGA,100352,2456.1051,N,08019.0054,W,1,8,1.5,18,M,,M,,*51
06/04/2014	10:03:52.643	$GPGGA,100353,2456.1055,N,08019.0055,W,1,9,1.5,18,M,,M,,*54
06/04/2014	10:03:53.637	$GPGGA,100354,2456.1059,N,08019.0058,W,1,9,1.5,18,M,,M,,*52
06/04/2014	10:03:54.642	$GPGGA,100355,2456.1064,N,08019.0059,W,1,7,2.1,18,M,,M,,*55
06/04/2014	10:03:55.656	$GPGGA,100356,2456.1066,N,08019.0062,W,1,7,1.5,18,M,,M,,*5B
06/04/2014	10:03:56.662	$GPGGA,100357,2456.1070,N,08019.0065,W,1,9,1.5,18,M,,M,,*54
06/04/2014	10:03:57.634	$GPGGA,100358,2456.1073,N,08019.0068,W,1,9,1.5,18,M,,M,,*55
06/04/2014	10:03:58.648	$GPGGA,100359,2456.1077,N,08019.0069,W,1,9,1.5,18,M,,M,,*51
06/04/2014	10:03:59.783	$GPGGA,100400,2456.1080,N,08019.0072,W,1,9,1.5,18,M,,M,,*58
06/04/2014	10:04:00.747	$GPGGA,100401,2456.1082,N,08019.0076,W,1,9,1.5,18,M,,M,,*5F
06/04/2014	10:04:01.651	$GPGGA,100402,2456.1084,N,08019.0077,W,1,9,1.5,18,M,,M,,*5B
06/04/2014	10:04:02.785	$GPGGA,100403,2456.1088,N,08019.0079,W,1,9,1.5,18,M,,M,,*58
06/04/2014	10:04:03.780	$GPGGA,100404,2456.1091,N,08019.0081,W,1,9,1.5,18,M,,M,,*50
06/04/2014	10:04:04.754	$GPGGA,100405,2456.1093,N,08019.0083,W,1,9,1.5,18,M,,M,,*51
06/04/2014	10:04:05.668	$GPGGA,100406,2456.1097,N,08019.0085,W,1,9,1.5,18,M,,M,,*50
06/04/2014	10:04:06.662	$GPGGA,100407,2456.1098,N,08019.0087,W,1,9,1.5,18,M,,M,,*5C
06/04/2014	10:04:07.787	$GPGGA,100408,2456.1101,N,08019.0090,W,1,9,1.5,18,M,,M,,*54
06/04/2014	10:04:08.771	$GPGGA,100409,2456.1104,N,08019.0091,W,1,9,1.5,18,M,,M,,*51
06/04/2014	10:04:09.665	$GPGGA,100410,2456.1105,N,08019.0094,W,1,9,1.5,18,M,,M,,*5D
06/04/2014	10:04:10.790	$GPGGA,100411,2456.1108,N,08019.0095,W,1,9,1.5,18,M,,M,,*50
06/04/2014	10:04:11.794	$GPGGA,100412,2456.1111,N,08019.0098,W,1,9,1.5,18,M,,M,,*56
06/04/2014	10:04:12.768	$GPGGA,100413,2456.1113,N,08019.0099,W,1,9,1.5,18,M,,M,,*54
06/04/2014	10:04:13.762	$GPGGA,100414,2456.1116,N,08019.0101,W,1,9,1.5,18,M,,M,,*56
06/04/2014	10:04:14.799	$GPGGA,100415,2456.1117,N,08019.0102,W,1,9,1.5,18,M,,M,,*55
06/04/2014	10:04:15.790	$GPGGA,100416,2456.1120,N,08019.0103,W,1,9,1.5,18,M,,M,,*53
06/04/2014	10:04:16.804	$GPGGA,100417,2456.1123,N,08019.0105,W,1,9,1.5,18,M,,M,,*57
06/04/2014	10:04:17.789	$GPGGA,100418,2456.1124,N,08019.0108,W,1,9,1.5,18,M,,M,,*52
06/04/2014	10:04:18.813	$GPGGA,100419,2456.1127,N,08019.0108,W,1,9,1.5,18,M,,M,,*50
06/04/2014	10:04:19.847	$GPGGA,100420,2456.1129,N,08019.0110,W,1,9,1.5,18,M,,M,,*5D
06/04/2014	10:04:20.812	$GPGGA,100421,2456.1131,N,08019.0112,W,1,9,1.5,18,M,,M,,*57
06/04/2014	10:04:21.796	$GPGGA,100422,2456.1133,N,08019.0112,W,1,9,1.5,18,M,,M,,*56
06/04/2014	10:04:22.790	$GPGGA,100423,2456.1135,N,08019.0113,W,1,9,1.5,18,M,,M,,*50
06/04/2014	10:04:23.814	$GPGGA,100424,2456.1138,N,08019.0115,W,1,9,1.9,18,M,,M,,*50
06/04/2014	10:04:24.859	$GPGGA,100425,2456.1141,N,08019.0116,W,1,9,1.5,18,M,,M,,*50
06/04/2014	10:04:25.813	$GPGGA,100426,2456.1142,N,08019.0117,W,1,9,1.5,18,M,,M,,*51
06/04/2014	10:04:26.797	$GPGGA,100427,2456.1144,N,08019.0119,W,1,9,1.5,18,M,,M,,*58
06/04/2014	10:04:27.822	$GPGGA,100428,2456.1145,N,08019.0119,W,1,9,1.5,18,M,,M,,*56
06/04/2014	10:04:28.816	$GPGGA,100429,2456.1149,N,08019.0120,W,1,9,1.5,18,M,,M,,*51
06/04/2014	10:04:29.814	$GPGGA,100430,2456.1152,N,08019.0121,W,1,9,1.5,17,M,,M,,*5D
06/04/2014	10:04:30.804	$GPGGA,100431,2456.1152,N,08019.0123,W,1,9,1.5,17,M,,M,,*5E
06/04/2014	10:04:31.573	$GPGGA,100432,2456.1155,N,08019.0121,W,1,9,1.5,17,M,,M,,*58
06/04/2014	10:04:32.569	$GPGGA,100433,2456.1156,N,08019.0123,W,1,9,1.5,17,M,,M,,*58
06/04/2014	10:04:33.571	$GPGGA,100434,2456.1159,N,08019.0122,W,1,9,1.5,17,M,,M,,*51
06/04/2014	10:04:34.595	$GPGGA,100435,2456.1160,N,08019.0123,W,1,9,1.5,17,M,,M,,*5B
06/04/2014	10:04:35.579	$GPGGA,100436,2456.1163,N,08019.0123,W,1,9,1.5,17,M,,M,,*5B
06/04/2014	10:04:36.563	$GPGGA,100437,2456.1165,N,08019.0123,W,1,9,1.5,17,M,,M,,*5C
06/04/2014	10:04:37.588	$GPGGA,100438,2456.1167,N,08019.0124,W,1,9,1.5,17,M,,M,,*56
06/04/2014	10:04:38.602	$GPGGA,100439,2456.1169,N,08019.0124,W,1,9,1.5,17,M,,M,,*59
06/04/2014	10:04:39.597	$GPGGA,100440,2456.1171,N,08019.0124,W,1,9,1.5,17,M,,M,,*5E
06/04/2014	10:04:40.691	$GPGGA,100441,2456.1171,N,08019.0124,W,1,9,1.5,17,M,,M,,*5F
06/04/2014	10:04:41.586	$GPGGA,100442,2456.1174,N,08019.0123,W,1,9,1.5,17,M,,M,,*5E
06/04/2014	10:04:42.589	$GPGGA,100443,2456.1178,N,08019.0124,W,1,9,1.5,17,M,,M,,*54
06/04/2014	10:04:43.603	$GPGGA,100444,2456.1180,N,08019.0123,W,1,9,1.5,17,M,,M,,*53
06/04/2014	10:04:44.678	$GPGGA,100445,2456.1181,N,08019.0121,W,1,9,1.5,17,M,,M,,*51
06/04/2014	10:04:45.582	$GPGGA,100446,2456.1185,N,08019.0120,W,1,9,1.5,17,M,,M,,*57
06/04/2014	10:04:46.606	$GPGGA,100447,2456.1187,N,08019.0119,W,1,8,2.0,17,M,,M,,*59
06/04/2014	10:04:47.610	$GPGGA,100448,2456.1191,N,08019.0117,W,1,8,2.0,17,M,,M,,*5F
06/04/2014	10:04:48.605	$GPGGA,100449,2456.1195,N,08019.0115,W,1,9,1.5,17,M,,M,,*5F
06/04/2014	10:04:49.689	$GPGGA,100450,2456.1196,N,08019.0112,W,1,9,1.5,17,M,,M,,*53
06/04/2014	10:04:50.733	$GPGGA,100451,2456.1199,N,08019.0111,W,1,9,1.5,17,M,,M,,*5E
06/04/2014	10:04:51.627	$GPGGA,100452,2456.1203,N,08019.0110,W,1,9,1.5,17,M,,M,,*5C
06/04/2014	10:04:52.691	$GPGGA,100453,2456.1207,N,08019.0108,W,1,9,1.5,17,M,,M,,*50
06/04/2014	10:04:53.706	$GPGGA,100454,2456.1210,N,08019.0106,W,1,9,1.5,17,M,,M,,*5F
06/04/2014	10:04:54.610	$GPGGA,100455,2456.1214,N,08019.0104,W,1,9,1.5,17,M,,M,,*58
06/04/2014	10:04:55.714	$GPGGA,100456,2456.1217,N,08019.0101,W,1,9,1.5,17,M,,M,,*5D
06/04/2014	10:04:56.708	$GPGGA,100457,2456.1221,N,08019.0099,W,1,9,1.5,17,M,,M,,*59
06/04/2014	10:04:57.713	$GPGGA,100458,2456.1224,N,08019.0096,W,1,9,1.7,17,M,,M,,*5E
06/04/2014	10:04:58.717	$GPGGA,100459,2456.1225,N,08019.0094,W,1,9,1.5,17,M,,M,,*5E
06/04/2014	10:04:59.751	$GPGGA,100500,2456.1228,N,08019.0093,W,1,9,1.5,17,M,,M,,*59
06/04/2014	10:05:00.766	$GPGGA,100501,2456.1231,N,08019.0091,W,1,9,1.5,16,M,,M,,*53
06/04/2014	10:05:01.720	$GPGGA,100502,2456.1232,N,08019.0088,W,1,9,1.5,16,M,,M,,*5B
06/04/2014	10:05:02.724	$GPGGA,100503,2456.1236,N,08019.0085,W,1,9,1.5,16,M,,M,,*53
06/04/2014	10:05:03.739	$GPGGA,100504,2456.1242,N,08019.0082,W,1,9,1.5,16,M,,M,,*50
06/04/2014	10:05:04.743	$GPGGA,100505,2456.1246,N,08019.0078,W,1,9,1.5,16,M,,M,,*50
06/04/2014	10:05:05.727	$GPGGA,100506,2456.1250,N,08019.0075,W,1,9,1.5,16,M,,M,,*59
06/04/2014	10:05:06.731	$GPGGA,100507,2456.1254,N,08019.0072,W,1,9,1.5,16,M,,M,,*5B
06/04/2014	10:05:07.746	$GPGGA,100508,2456.1257,N,08019.0068,W,1,9,1.5,16,M,,M,,*5C
06/04/2014	10:05:08.759	$GPGGA,100509,2456.1261,N,08019.0064,W,1,9,1.5,16,M,,M,,*54
06/04/2014	10:05:09.743	$GPGGA,100510,2456.1267,N,08019.0061,W,1,9,1.5,16,M,,M,,*5F
06/04/2014	10:05:10.737	$GPGGA,100511,2456.1272,N,08019.0057,W,1,8,1.6,16,M,,M,,*5D
06/04/2014	10:05:11.752	$GPGGA,100512,2456.1279,N,08019.0053,W,1,8,1.5,16,M,,M,,*52
06/04/2014	10:05:12.776	$GPGGA,100513,2456.1283,N,08019.0049,W,1,9,1.5,16,M,,M,,*5C
06/04/2014	10:05:13.753	$GPGGA,100514,2456.1289,N,08019.0046,W,1,9,1.5,16,M,,M,,*5E
06/04/2014	10:05:14.745	$GPGGA,100515,2456.1293,N,08019.0042,W,1,9,1.5,16,M,,M,,*50
06/04/2014	10:05:15.769	$GPGGA,100516,2456.1297,N,08019.0037,W,1,9,1.5,17,M,,M,,*54
06/04/2014	10:05:16.783	$GPGGA,100517,2456.1303,N,08019.0033,W,1,9,1.5,17,M,,M,,*5D
06/04/2014	10:05:17.758	$GPGGA,100518,2456.1308,N,08019.0029,W,1,9,1.5,17,M,,M,,*52
06/04/2014	10:05:18.752	$GPGGA,100519,2456.1314,N,08019.0025,W,1,9,1.5,17,M,,M,,*52
06/04/2014	10:05:19.766	$GPGGA,100520,2456.1319,N,08019.0020,W,1,9,1.5,17,M,,M,,*50
06/04/2014	10:05:20.764	$GPGGA,100521,2456.1325,N,08019.0015,W,1,9,1.5,17,M,,M,,*58
06/04/2014	10:05:21.766	$GPGGA,100522,2456.1330,N,08019.0012,W,1,9,1.5,17,M,,M,,*58
06/04/2014	10:05:22.799	$GPGGA,100523,2456.1336,N,08019.0008,W,1,9,1.5,17,M,,M,,*54
06/04/2014	10:05:23.773	$GPGGA,100524,2456.1340,N,08019.0003,W,1,9,1.5,17,M,,M,,*59
06/04/2014	10:05:24.778	$GPGGA,100525,2456.1346,N,08018.9999,W,1,9,1.5,17,M,,M,,*5C
06/04/2014	10:05:25.761	$GPGGA,100526,2456.1353,N,08018.9996,W,1,9,1.5,17,M,,M,,*54
06/04/2014	10:05:27.247	$GPGGA,100527,2456.1358,N,08018.9990,W,1,9,1.5,17,M,,M,,*58
06/04/2014	10:05:27.789	$GPGGA,100528,2456.1364,N,08018.9985,W,1,9,1.5,17,M,,M,,*5C
06/04/2014	10:05:28.824	$GPGGA,100529,2456.1371,N,08018.9981,W,1,9,1.5,17,M,,M,,*5D
06/04/2014	10:05:29.788	$GPGGA,100530,2456.1377,N,08018.9977,W,1,9,1.5,17,M,,M,,*5A
06/04/2014	10:05:30.792	$GPGGA,100531,2456.1382,N,08018.9971,W,1,9,1.5,17,M,,M,,*57
06/04/2014	10:05:31.541	$GPGGA,100532,2456.1387,N,08018.9966,W,1,9,1.5,17,M,,M,,*57
06/04/2014	10:05:32.535	$GPGGA,100533,2456.1394,N,08018.9964,W,1,7,1.8,17,M,,M,,*55
06/04/2014	10:05:33.630	$GPGGA,100534,2456.1398,N,08018.9960,W,1,7,1.6,17,M,,M,,*54
06/04/2014	10:05:34.674	$GPGGA,100535,2456.1404,N,08018.9955,W,1,8,1.5,17,M,,M,,*5D
06/04/2014	10:05:35.558	$GPGGA,100536,2456.1409,N,08018.9950,W,1,8,1.5,17,M,,M,,*56
06/04/2014	10:05:36.562	$GPGGA,100537,2456.1416,N,08018.9947,W,1,9,1.5,17,M,,M,,*5E
06/04/2014	10:05:37.637	$GPGGA,100538,2456.1422,N,08018.9942,W,1,9,1.5,17,M,,M,,*53
06/04/2014	10:05:38.671	$GPGGA,100539,2456.1429,N,08018.9937,W,1,9,1.5,17,M,,M,,*5B
06/04/2014	10:05:39.686	$GPGGA,100540,2456.1436,N,08018.9932,W,1,9,1.5,17,M,,M,,*5E
06/04/2014	10:05:40.660	$GPGGA,100541,2456.1441,N,08018.9927,W,1,9,1.5,17,M,,M,,*5B
06/04/2014	10:05:41.654	$GPGGA,100542,2456.1449,N,08018.9921,W,1,9,1.5,17,M,,M,,*56
06/04/2014	10:05:42.668	$GPGGA,100543,2456.1458,N,08018.9917,W,1,9,1.5,18,M,,M,,*5D
06/04/2014	10:05:43.571	$GPGGA,100544,2456.1463,N,08018.9912,W,1,9,1.5,18,M,,M,,*57
06/04/2014	10:05:44.676	$GPGGA,100545,2456.1471,N,08018.9906,W,1,9,1.5,18,M,,M,,*50
06/04/2014	10:05:45.660	$GPGGA,100546,2456.1478,N,08018.9902,W,1,9,1.5,18,M,,M,,*5E
06/04/2014	10:05:46.684	$GPGGA,100547,2456.1487,N,08018.9897,W,1,9,1.5,18,M,,M,,*52
06/04/2014	10:05:47.689	$GPGGA,100548,2456.1495,N,08018.9891,W,1,9,1.5,18,M,,M,,*58
06/04/2014	10:05:48.683	$GPGGA,100549,2456.1501,N,08018.9886,W,1,9,1.5,18,M,,M,,*53
06/04/2014	10:05:49.667	$GPGGA,100550,2456.1509,N,08018.9880,W,1,9,1.5,18,M,,M,,*55
06/04/2014	10:05:50.692	$GPGGA,100551,2456.1518,N,08018.9875,W,1,9,1.5,18,M,,M,,*5E
06/04/2014	10:05:51.696	$GPGGA,100552,2456.1525,N,08018.9869,W,1,9,1.5,18,M,,M,,*5E
06/04/2014	10:05:52.700	$GPGGA,100553,2456.1534,N,08018.9863,W,1,9,1.5,18,M,,M,,*55
06/04/2014	10:05:53.674	$GPGGA,100554,2456.1541,N,08018.9857,W,1,9,1.5,18,M,,M,,*57
06/04/2014	10:05:54.699	$GPGGA,100555,2456.1550,N,08018.9852,W,1,9,1.5,18,M,,M,,*53
06/04/2014	10:05:55.693	$GPGGA,100556,2456.1557,N,08018.9846,W,1,9,1.5,18,M,,M,,*52
06/04/2014	10:05:56.697	$GPGGA,100557,2456.1567,N,08018.9839,W,1,9,1.5,18,M,,M,,*58
06/04/2014	10:05:57.682	$GPGGA,100558,2456.1575,N,08018.9834,W,1,9,1.5,18,M,,M,,*59
06/04/2014	10:05:58.706	$GPGGA,100559,2456.1582,N,08018.9828,W,1,9,1.5,18,M,,M,,*5D
06/04/2014	10:05:59.720	$GPGGA,100600,2456.1590,N,08018.9822,W,1,9,1.5,18,M,,M,,*5B
06/04/2014	10:06:00.693	$GPGGA,100601,2456.1600,N,08018.9816,W,1,9,1.5,18,M,,M,,*57
06/04/2014	10:06:01.708	$GPGGA,100602,2456.1608,N,08018.9811,W,1,9,1.5,18,M,,M,,*5B
06/04/2014	10:06:02.712	$GPGGA,100603,2456.1615,N,08018.9805,W,1,9,1.5,18,M,,M,,*53
06/04/2014	10:06:03.716	$GPGGA,100604,2456.1622,N,08018.9799,W,1,9,1.5,17,M,,M,,*55
06/04/2014	10:06:04.731	$GPGGA,100605,2456.1630,N,08018.9794,W,1,9,1.5,17,M,,M,,*5A
06/04/2014	10:06:05.695	$GPGGA,100606,2456.1639,N,08018.9789,W,1,9,1.5,17,M,,M,,*5C
06/04/2014	10:06:06.739	$GPGGA,100607,2456.1646,N,08018.9783,W,1,9,1.5,17,M,,M,,*5F
06/04/2014	10:06:07.744	$GPGGA,100608,2456.1653,N,08018.9778,W,1,9,1.5,17,M,,M,,*50
06/04/2014	10:06:08.738	$GPGGA,100609,2456.1661,N,08018.9773,W,1,9,1.5,17,M,,M,,*5B
06/04/2014	10:06:09.722	$GPGGA,100610,2456.1668,N,08018.9769,W,1,9,1.5,17,M,,M,,*51
06/04/2014	10:06:10.757	$GPGGA,100611,2456.1675,N,08018.9763,W,1,9,1.5,17,M,,M,,*56
06/04/2014	10:06:11.741	$GPGGA,100612,2456.1680,N,08018.9759,W,1,9,1.5,17,M,,M,,*56
06/04/2014	10:06:12.726	$GPGGA,100613,2456.1687,N,08018.9754,W,1,9,1.5,17,M,,M,,*5D
06/04/2014	10:06:13.740	$GPGGA,100614,2456.1694,N,08018.9749,W,1,9,1.5,17,M,,M,,*54
06/04/2014	10:06:14.754	$GPGGA,100615,2456.1701,N,08018.9744,W,1,9,1.5,17,M,,M,,*55
06/04/2014	10:06:15.748	$GPGGA,100616,2456.1709,N,08018.9740,W,1,9,1.5,17,M,,M,,*5A
06/04/2014	10:06:16.844	$GPGGA,100617,2456.1716,N,08018.9736,W,1,9,1.5,17,M,,M,,*54
06/04/2014	10:06:17.746	$GPGGA,100618,2456.1720,N,08018.9730,W,1,9,1.5,17,M,,M,,*58
06/04/2014	10:06:18.850	$GPGGA,100619,2456.1727,N,08018.9726,W,1,9,1.5,17,M,,M,,*59
06/04/2014	10:06:19.775	$GPGGA,100620,2456.1734,N,08018.9722,W,1,9,1.5,17,M,,M,,*55
06/04/2014	10:06:20.748	$GPGGA,100621,2456.1740,N,08018.9718,W,1,9,1.6,17,M,,M,,*5D
06/04/2014	10:06:21.843	$GPGGA,100622,2456.1745,N,08018.9712,W,1,9,1.5,17,M,,M,,*52
06/04/2014	10:06:22.767	$GPGGA,100623,2456.1751,N,08018.9708,W,1,9,1.5,17,M,,M,,*5D
06/04/2014	10:06:23.842	$GPGGA,100624,2456.1759,N,08018.9705,W,1,9,1.5,17,M,,M,,*5F
06/04/2014	10:06:24.755	$GPGGA,100625,2456.1763,N,08018.9700,W,1,9,1.5,17,M,,M,,*52
06/04/2014	10:06:25.840	$GPGGA,100626,2456.1770,N,08018.9695,W,1,9,1.5,17,M,,M,,*5E
06/04/2014	10:06:26.785	$GPGGA,100627,2456.1776,N,08018.9692,W,1,9,1.5,17,M,,M,,*5E
06/04/2014	10:06:27.768	$GPGGA,100628,2456.1781,N,08018.9687,W,1,9,1.6,17,M,,M,,*5E
06/04/2014	10:06:28.773	$GPGGA,100629,2456.1788,N,08018.9683,W,1,8,1.5,17,M,,M,,*50
06/04/2014	10:06:29.768	$GPGGA,100630,2456.1796,N,08018.9679,W,1,8,1.5,17,M,,M,,*52
06/04/2014	10:06:30.862	$GPGGA,100631,2456.1802,N,08018.9676,W,1,9,1.5,16,M,,M,,*5E
06/04/2014	10:06:31.549	$GPGGA,100632,2456.1809,N,08018.9673,W,1,9,1.5,16,M,,M,,*53
06/04/2014	10:06:32.613	$GPGGA,100633,2456.1814,N,08018.9668,W,1,9,1.5,16,M,,M,,*54
06/04/2014	10:06:33.607	$GPGGA,100634,2456.1820,N,08018.9664,W,1,9,1.5,16,M,,M,,*58
06/04/2014	10:06:34.652	$GPGGA,100635,2456.1825,N,08018.9662,W,1,9,1.5,16,M,,M,,*5A
06/04/2014	10:06:35.625	$GPGGA,100636,2456.1832,N,08018.9658,W,1,9,1.5,16,M,,M,,*56
06/04/2014	10:06:36.629	$GPGGA,100637,2456.1838,N,08018.9653,W,1,9,1.5,16,M,,M,,*56
06/04/2014	10:06:37.624	$GPGGA,100638,2456.1843,N,08018.9650,W,1,9,1.5,16,M,,M,,*56
06/04/2014	10:06:38.618	$GPGGA,100639,2456.1850,N,08018.9647,W,1,9,1.5,16,M,,M,,*53
06/04/2014	10:06:39.632	$GPGGA,100640,2456.1855,N,08018.9643,W,1,9,1.5,16,M,,M,,*5C
06/04/2014	10:06:40.637	$GPGGA,100641,2456.1861,N,08018.9639,W,1,9,1.5,16,M,,M,,*57
06/04/2014	10:06:41.621	$GPGGA,100642,2456.1866,N,08018.9637,W,1,9,1.5,16,M,,M,,*5D
06/04/2014	10:06:42.655	$GPGGA,100643,2456.1871,N,08018.9633,W,1,9,1.5,16,M,,M,,*5E
06/04/2014	10:06:43.629	$GPGGA,100644,2456.1875,N,08018.9629,W,1,9,1.5,16,M,,M,,*56
06/04/2014	10:06:44.654	$GPGGA,100645,2456.1882,N,08018.9626,W,1,9,1.5,16,M,,M,,*50
06/04/2014	10:06:45.638	$GPGGA,100646,2456.1886,N,08018.9623,W,1,9,1.5,16,M,,M,,*52
06/04/2014	10:06:46.662	$GPGGA,100647,2456.1890,N,08018.9619,W,1,9,1.5,16,M,,M,,*5D
06/04/2014	10:06:47.657	$GPGGA,100648,2456.1896,N,08018.9615,W,1,9,1.6,16,M,,M,,*5B
06/04/2014	10:06:48.661	$GPGGA,100649,2456.1900,N,08018.9612,W,1,9,1.5,16,M,,M,,*50
06/04/2014	10:06:49.635	$GPGGA,100650,2456.1906,N,08018.9609,W,1,9,1.5,16,M,,M,,*54
06/04/2014	10:06:50.639	$GPGGA,100651,2456.1910,N,08018.9606,W,1,9,1.5,16,M,,M,,*5D
06/04/2014	10:06:51.654	$GPGGA,100652,2456.1913,N,08018.9602,W,1,9,1.5,16,M,,M,,*59
06/04/2014	10:06:52.651	$GPGGA,100653,2456.1917,N,08018.9600,W,1,9,1.5,16,M,,M,,*5E
06/04/2014	10:06:53.651	$GPGGA,100654,2456.1922,N,08018.9598,W,1,9,1.5,16,M,,M,,*5D
06/04/2014	10:06:54.666	$GPGGA,100655,2456.1924,N,08018.9595,W,1,9,1.5,16,M,,M,,*57
06/04/2014	10:06:55.670	$GPGGA,100656,2456.1928,N,08018.9594,W,1,9,1.6,16,M,,M,,*5A
06/04/2014	10:06:56.684	$GPGGA,100657,2456.1931,N,08018.9592,W,1,9,1.5,16,M,,M,,*56
06/04/2014	10:06:57.658	$GPGGA,100658,2456.1933,N,08018.9591,W,1,9,1.5,16,M,,M,,*58
06/04/2014	10:06:58.673	$GPGGA,100659,2456.1937,N,08018.9590,W,1,9,1.5,16,M,,M,,*5C
06/04/2014	10:06:59.687	$GPGGA,100700,2456.1939,N,08018.9590,W,1,9,1.5,16,M,,M,,*5F
06/04/2014	10:07:00.661	$GPGGA,100701,2456.1940,N,08018.9592,W,1,9,1.5,16,M,,M,,*52
06/04/2014	10:07:01.656	$GPGGA,100702,2456.1942,N,08018.9591,W,1,9,1.5,16,M,,M,,*50
06/04/2014	10:07:02.660	$GPGGA,100703,2456.1943,N,08018.9592,W,1,9,1.5,16,M,,M,,*53
06/04/2014	10:07:03.684	$GPGGA,100704,2456.1942,N,08018.9593,W,1,9,1.5,16,M,,M,,*54
06/04/2014	10:07:04.789	$GPGGA,100705,2456.1943,N,08018.9596,W,1,9,1.5,16,M,,M,,*51
06/04/2014	10:07:05.683	$GPGGA,100706,2456.1942,N,08018.9599,W,1,9,1.5,16,M,,M,,*5C
06/04/2014	10:07:06.798	$GPGGA,100707,2456.1941,N,08018.9603,W,1,9,1.5,16,M,,M,,*5E
06/04/2014	10:07:07.701	$GPGGA,100708,2456.1940,N,08018.9607,W,1,9,1.5,16,M,,M,,*54
06/04/2014	10:07:08.696	$GPGGA,100709,2456.1938,N,08018.9611,W,1,9,1.5,16,M,,M,,*5D
06/04/2014	10:07:09.680	$GPGGA,100710,2456.1937,N,08018.9617,W,1,9,1.5,16,M,,M,,*5C
06/04/2014	10:07:10.703	$GPGGA,100711,2456.1936,N,08018.9622,W,1,9,1.5,16,M,,M,,*5A
06/04/2014	10:07:11.798	$GPGGA,100712,2456.1934,N,08018.9628,W,1,9,1.5,16,M,,M,,*51
06/04/2014	10:07:12.692	$GPGGA,100713,2456.1931,N,08018.9635,W,1,9,1.5,16,M,,M,,*59
06/04/2014	10:07:13.787	$GPGGA,100714,2456.1929,N,08018.9643,W,1,9,1.5,16,M,,M,,*56
06/04/2014	10:07:14.811	$GPGGA,100715,2456.1926,N,08018.9653,W,1,9,1.5,16,M,,M,,*59
06/04/2014	10:07:15.815	$GPGGA,100716,2456.1922,N,08018.9661,W,1,9,1.5,16,M,,M,,*5F
06/04/2014	10:07:16.799	$GPGGA,100717,2456.1919,N,08018.9671,W,1,9,1.5,16,M,,M,,*57
06/04/2014	10:07:17.703	$GPGGA,100718,2456.1915,N,08018.9679,W,1,9,1.5,16,M,,M,,*5C
06/04/2014	10:07:18.798	$GPGGA,100719,2456.1912,N,08018.9689,W,1,9,1.5,16,M,,M,,*55
06/04/2014	10:07:19.832	$GPGGA,100720,2456.1908,N,08018.9698,W,1,9,1.5,15,M,,M,,*57
06/04/2014	10:07:20.807	$GPGGA,100721,2456.1904,N,08018.9707,W,1,8,2.0,15,M,,M,,*5A
06/04/2014	10:07:21.821	$GPGGA,100722,2456.1901,N,08018.9718,W,1,8,1.5,15,M,,M,,*54
06/04/2014	10:07:22.805	$GPGGA,100723,2456.1897,N,08018.9727,W,1,9,1.5,15,M,,M,,*56
06/04/2014	10:07:23.819	$GPGGA,100724,2456.1893,N,08018.9738,W,1,9,1.5,15,M,,M,,*5B
06/04/2014	10:07:24.844	$GPGGA,100725,2456.1889,N,08018.9749,W,1,9,1.5,16,M,,M,,*54
06/04/2014	10:07:25.828	$GPGGA,100726,2456.1886,N,08018.9762,W,1,9,1.5,16,M,,M,,*51
06/04/2014	10:07:26.852	$GPGGA,100727,2456.1883,N,08018.9773,W,1,9,1.5,16,M,,M,,*55
06/04/2014	10:07:27.836	$GPGGA,100728,2456.1881,N,08018.9785,W,1,9,1.5,16,M,,M,,*51
06/04/2014	10:07:28.839	$GPGGA,100729,2456.1879,N,08018.9798,W,1,9,1.5,16,M,,M,,*5B
06/04/2014	10:07:29.822	$GPGGA,100730,2456.1875,N,08018.9812,W,1,9,1.5,16,M,,M,,*52
06/04/2014	10:07:30.825	$GPGGA,100731,2456.1875,N,08018.9824,W,1,9,1.5,16,M,,M,,*56
06/04/2014	10:07:31.576	$GPGGA,100732,2456.1872,N,08018.9838,W,1,9,1.5,16,M,,M,,*5F
06/04/2014	10:07:32.599	$GPGGA,100733,2456.1870,N,08018.9853,W,1,9,1.5,16,M,,M,,*51
06/04/2014	10:07:33.583	$GPGGA,100734,2456.1869,N,08018.9867,W,1,9,1.5,16,M,,M,,*59
06/04/2014	10:07:34.596	$GPGGA,100735,2456.1868,N,08018.9882,W,1,9,1.5,16,M,,M,,*52
06/04/2014	10:07:35.589	$GPGGA,100736,2456.1868,N,08018.9897,W,1,9,1.5,16,M,,M,,*55
06/04/2014	10:07:36.573	$GPGGA,100737,2456.1868,N,08018.9913,W,1,9,1.5,16,M,,M,,*59
06/04/2014	10:07:37.585	$GPGGA,100738,2456.1868,N,08018.9928,W,1,9,1.5,16,M,,M,,*5E
06/04/2014	10:07:38.579	$GPGGA,100739,2456.1870,N,08018.9944,W,1,9,1.5,16,M,,M,,*5C
06/04/2014	10:07:39.592	$GPGGA,100740,2456.1871,N,08018.9961,W,1,9,1.5,16,M,,M,,*54
06/04/2014	10:07:40.605	$GPGGA,100741,2456.1872,N,08018.9978,W,1,9,1.5,16,M,,M,,*5E
06/04/2014	10:07:41.589	$GPGGA,100742,2456.1874,N,08018.9996,W,1,9,2.0,16,M,,M,,*5D
06/04/2014	10:07:44.056	$GPGGA,100744,2456.1879,N,08019.0029,W,1,9,1.5,17,M,,M,,*54
06/04/2014	10:07:44.608	$GPGGA,100745,2456.1882,N,08019.0047,W,1,9,1.5,17,M,,M,,*59
06/04/2014	10:07:45.600	$GPGGA,100746,2456.1888,N,08019.0066,W,1,9,2.0,17,M,,M,,*55
06/04/2014	10:07:46.603	$GPGGA,100747,2456.1893,N,08019.0084,W,1,8,2.0,17,M,,M,,*53
06/04/2014	10:07:47.607	$GPGGA,100748,2456.1899,N,08019.0103,W,1,8,2.0,17,M,,M,,*58
06/04/2014	10:07:48.589	$GPGGA,100749,2456.1904,N,08019.0123,W,1,9,1.5,17,M,,M,,*59
06/04/2014	10:07:49.603	$GPGGA,100750,2456.1911,N,08019.0139,W,1,9,2.0,17,M,,M,,*58
06/04/2014	10:07:50.617	$GPGGA,100751,2456.1917,N,08019.0157,W,1,9,1.5,17,M,,M,,*51
06/04/2014	10:07:51.620	$GPGGA,100752,2456.1924,N,08019.0175,W,1,9,1.5,17,M,,M,,*52
06/04/2014	10:07:52.592	$GPGGA,100753,2456.1933,N,08019.0193,W,1,9,1.5,17,M,,M,,*5D
06/04/2014	10:07:53.605	$GPGGA,100754,2456.1940,N,08019.0210,W,1,9,1.5,17,M,,M,,*56
06/04/2014	10:07:54.619	$GPGGA,100755,2456.1947,N,08019.0228,W,1,9,1.5,17,M,,M,,*5B
06/04/2014	10:07:55.722	$GPGGA,100756,2456.1957,N,08019.0246,W,1,9,1.5,17,M,,M,,*51
06/04/2014	10:07:56.695	$GPGGA,100757,2456.1969,N,08019.0264,W,1,8,1.5,17,M,,M,,*5C
06/04/2014	10:07:57.598	$GPGGA,100758,2456.1980,N,08019.0283,W,1,8,1.5,17,M,,M,,*5D
06/04/2014	10:07:58.601	$GPGGA,100759,2456.1991,N,08019.0300,W,1,8,2.0,17,M,,M,,*50
06/04/2014	10:07:59.615	$GPGGA,100800,2456.2004,N,08019.0316,W,1,8,1.5,17,M,,M,,*54
06/04/2014	10:08:00.628	$GPGGA,100801,2456.2016,N,08019.0332,W,1,8,2.0,17,M,,M,,*56
06/04/2014	10:08:01.701	$GPGGA,100802,2456.2029,N,08019.0350,W,1,8,2.0,17,M,,M,,*5D
06/04/2014	10:08:02.749	$GPGGA,100803,2456.2041,N,08019.0365,W,1,9,1.5,17,M,,M,,*53
06/04/2014	10:08:03.717	$GPGGA,100804,2456.2055,N,08019.0380,W,1,9,1.5,18,M,,M,,*55
06/04/2014	10:08:04.710	$GPGGA,100805,2456.2069,N,08019.0394,W,1,9,1.5,18,M,,M,,*5E
06/04/2014	10:08:05.703	$GPGGA,100806,2456.2083,N,08019.0408,W,1,9,1.5,18,M,,M,,*5B
06/04/2014	10:08:06.616	$GPGGA,100807,2456.2098,N,08019.0421,W,1,9,1.5,18,M,,M,,*5B
06/04/2014	10:08:07.719	$GPGGA,100808,2456.2112,N,08019.0435,W,1,9,2.0,18,M,,M,,*54
06/04/2014	10:08:08.713	$GPGGA,100809,2456.2128,N,08019.0448,W,1,9,1.5,18,M,,M,,*50
06/04/2014	10:08:09.706	$GPGGA,100810,2456.2145,N,08019.0457,W,1,9,1.5,18,M,,M,,*5D
06/04/2014	10:08:10.729	$GPGGA,100811,2456.2160,N,08019.0470,W,1,9,1.5,18,M,,M,,*5E
06/04/2014	10:08:11.722	$GPGGA,100812,2456.2178,N,08019.0482,W,1,9,1.5,18,M,,M,,*59
06/04/2014	10:08:12.735	$GPGGA,100813,2456.2197,N,08019.0493,W,1,9,1.5,18,M,,M,,*59
06/04/2014	10:08:13.729	$GPGGA,100814,2456.2215,N,08019.0504,W,1,9,1.5,18,M,,M,,*58
06/04/2014	10:08:14.742	$GPGGA,100815,2456.2235,N,08019.0516,W,1,9,1.5,18,M,,M,,*58
06/04/2014	10:08:15.735	$GPGGA,100816,2456.2254,N,08019.0528,W,1,9,1.5,18,M,,M,,*51
06/04/2014	10:08:16.718	$GPGGA,100817,2456.2272,N,08019.0540,W,1,9,1.5,18,M,,M,,*5A
06/04/2014	10:08:17.721	$GPGGA,100818,2456.2293,N,08019.0550,W,1,9,1.5,18,M,,M,,*5B
06/04/2014	10:08:18.725	$GPGGA,100819,2456.2312,N,08019.0561,W,1,9,1.5,18,M,,M,,*50
06/04/2014	10:08:19.739	$GPGGA,100820,2456.2330,N,08019.0574,W,1,9,1.5,18,M,,M,,*5E
06/04/2014	10:08:20.750	$GPGGA,100821,2456.2352,N,08019.0585,W,1,8,1.6,18,M,,M,,*57
06/04/2014	10:08:21.723	$GPGGA,100822,2456.2373,N,08019.0596,W,1,8,1.5,18,M,,M,,*56
06/04/2014	10:08:22.756	$GPGGA,100823,2456.2392,N,08019.0607,W,1,9,1.5,18,M,,M,,*52
06/04/2014	10:08:23.740	$GPGGA,100824,2456.2413,N,08019.0621,W,1,9,1.5,18,M,,M,,*5F
06/04/2014	10:08:24.753	$GPGGA,100825,2456.2435,N,08019.0632,W,1,9,1.5,18,M,,M,,*58
06/04/2014	10:08:25.727	$GPGGA,100826,2456.2456,N,08019.0641,W,1,9,1.5,18,M,,M,,*5A
06/04/2014	10:08:26.759	$GPGGA,100827,2456.2477,N,08019.0654,W,1,9,1.5,18,M,,M,,*5C
06/04/2014	10:08:27.752	$GPGGA,100828,2456.2496,N,08019.0665,W,1,9,1.5,19,M,,M,,*5F
06/04/2014	10:08:28.726	$GPGGA,100829,2456.2517,N,08019.0676,W,1,9,1.5,19,M,,M,,*54
06/04/2014	10:08:29.749	$GPGGA,100830,2456.2538,N,08019.0686,W,1,9,1.5,19,M,,M,,*5E
06/04/2014	10:08:30.742	$GPGGA,100831,2456.2558,N,08019.0698,W,1,9,1.5,19,M,,M,,*56
06/04/2014	10:08:31.574	$GPGGA,100832,2456.2579,N,08019.0710,W,1,9,1.6,19,M,,M,,*54
06/04/2014	10:08:32.567	$GPGGA,100833,2456.2600,N,08019.0722,W,1,9,1.5,19,M,,M,,*5A
06/04/2014	10:08:33.550	$GPGGA,100834,2456.2621,N,08019.0731,W,1,9,1.5,19,M,,M,,*5C
06/04/2014	10:08:34.584	$GPGGA,100835,2456.2641,N,08019.0744,W,1,9,1.5,18,M,,M,,*58
06/04/2014	10:08:35.567	$GPGGA,100836,2456.2661,N,08019.0756,W,1,9,1.5,18,M,,M,,*5A
06/04/2014	10:08:36.731	$GPGGA,100837,2456.2681,N,08019.0767,W,1,8,1.6,18,M,,M,,*55
06/04/2014	10:08:37.553	$GPGGA,100838,2456.2702,N,08019.0778,W,1,8,1.6,18,M,,M,,*5E
06/04/2014	10:08:38.736	$GPGGA,100839,2456.2723,N,08019.0791,W,1,9,1.6,18,M,,M,,*5A
06/04/2014	10:08:39.569	$GPGGA,100840,2456.2742,N,08019.0802,W,1,9,1.6,18,M,,M,,*56
06/04/2014	10:08:40.732	$GPGGA,100841,2456.2766,N,08019.0814,W,1,8,1.5,18,M,,M,,*54
06/04/2014	10:08:41.555	$GPGGA,100842,2456.2788,N,08019.0827,W,1,8,1.5,18,M,,M,,*57
06/04/2014	10:08:42.739	$GPGGA,100843,2456.2809,N,08019.0838,W,1,9,1.5,18,M,,M,,*5F
06/04/2014	10:08:43.571	$GPGGA,100844,2456.2829,N,08019.0852,W,1,9,1.5,18,M,,M,,*56
06/04/2014	10:08:44.745	$GPGGA,100845,2456.2850,N,08019.0863,W,1,9,1.6,18,M,,M,,*58
06/04/2014	10:08:45.668	$GPGGA,100846,2456.2871,N,08019.0875,W,1,9,1.6,18,M,,M,,*5F
06/04/2014	10:08:46.762	$GPGGA,100847,2456.2892,N,08019.0887,W,1,9,1.5,18,M,,M,,*5D
06/04/2014	10:08:47.584	$GPGGA,100848,2456.2912,N,08019.0900,W,1,9,1.5,18,M,,M,,*55
06/04/2014	10:08:48.567	$GPGGA,100849,2456.2932,N,08019.0911,W,1,9,1.5,18,M,,M,,*56
06/04/2014	10:08:49.571	$GPGGA,100850,2456.2952,N,08019.0923,W,1,9,1.5,18,M,,M,,*59
06/04/2014	10:08:50.764	$GPGGA,100851,2456.2972,N,08019.0936,W,1,9,1.5,18,M,,M,,*5E
06/04/2014	10:08:51.717	$GPGGA,100852,2456.2992,N,08019.0950,W,1,9,1.5,18,M,,M,,*53
06/04/2014	10:08:52.772	$GPGGA,100853,2456.3013,N,08019.0961,W,1,9,1.5,18,M,,M,,*51
06/04/2014	10:08:53.694	$GPGGA,100854,2456.3035,N,08019.0973,W,1,9,1.5,18,M,,M,,*51
06/04/2014	10:08:54.757	$GPGGA,100855,2456.3056,N,08019.0986,W,1,9,1.5,18,M,,M,,*5F
06/04/2014	10:08:55.679	$GPGGA,100856,2456.3077,N,08019.0999,W,1,9,1.5,18,M,,M,,*51
06/04/2014	10:08:56.773	$GPGGA,100857,2456.3098,N,08019.1011,W,1,8,1.6,18,M,,M,,*5B
06/04/2014	10:08:57.696	$GPGGA,100858,2456.3120,N,08019.1022,W,1,8,1.6,18,M,,M,,*56
06/04/2014	10:08:58.779	$GPGGA,100859,2456.3139,N,08019.1033,W,1,9,1.5,18,M,,M,,*5D
06/04/2014	10:08:59.722	$GPGGA,100900,2456.3161,N,08019.1046,W,1,9,1.5,18,M,,M,,*5F
06/04/2014	10:09:00.745	$GPGGA,100901,2456.3182,N,08019.1056,W,1,8,1.6,18,M,,M,,*50
06/04/2014	10:09:01.668	$GPGGA,100902,2456.3203,N,08019.1069,W,1,8,1.6,17,M,,M,,*5A
06/04/2014	10:09:02.752	$GPGGA,100903,2456.3223,N,08019.1080,W,1,8,1.6,17,M,,M,,*5E
06/04/2014	10:09:03.685	$GPGGA,100904,2456.3244,N,08019.1091,W,1,8,1.6,17,M,,M,,*58
06/04/2014	10:09:04.778	$GPGGA,100905,2456.3266,N,08019.1102,W,1,8,1.6,17,M,,M,,*52
06/04/2014	10:09:05.751	$GPGGA,100906,2456.3288,N,08019.1114,W,1,8,1.6,17,M,,M,,*56
06/04/2014	10:09:06.795	$GPGGA,100907,2456.3309,N,08019.1124,W,1,8,1.6,17,M,,M,,*5C
06/04/2014	10:09:07.717	$GPGGA,100908,2456.3338,N,08019.1138,W,1,8,1.6,17,M,,M,,*5C
06/04/2014	10:09:08.791	$GPGGA,100909,2456.3360,N,08019.1149,W,1,9,1.5,17,M,,M,,*54
06/04/2014	10:09:09.714	$GPGGA,100910,2456.3382,N,08019.1158,W,1,9,1.5,17,M,,M,,*50
06/04/2014	10:09:10.817	$GPGGA,100911,2456.3406,N,08019.1170,W,1,9,1.5,17,M,,M,,*50
06/04/2014	10:09:11.700	$GPGGA,100912,2456.3428,N,08019.1181,W,1,9,1.5,17,M,,M,,*51
06/04/2014	10:09:12.685	$GPGGA,100913,2456.3452,N,08019.1190,W,1,9,1.5,17,M,,M,,*5D
06/04/2014	10:09:13.706	$GPGGA,100914,2456.3472,N,08019.1199,W,1,9,1.7,17,M,,M,,*53
06/04/2014	10:09:14.789	$GPGGA,100915,2456.3496,N,08019.1207,W,1,7,1.5,17,M,,M,,*50
06/04/2014	10:09:15.735	$GPGGA,100916,2456.3519,N,08019.1217,W,1,7,1.5,17,M,,M,,*54
06/04/2014	10:09:16.822	$GPGGA,100917,2456.3540,N,08019.1226,W,1,9,1.5,17,M,,M,,*55
06/04/2014	10:09:17.756	$GPGGA,100918,2456.3562,N,08019.1235,W,1,9,1.6,17,M,,M,,*5B
06/04/2014	10:09:18.864	$GPGGA,100919,2456.3584,N,08019.1243,W,1,8,1.6,17,M,,M,,*52
06/04/2014	10:09:19.799	$GPGGA,100920,2456.3605,N,08019.1253,W,1,8,1.5,17,M,,M,,*50
06/04/2014	10:09:20.754	$GPGGA,100921,2456.3629,N,08019.1261,W,1,8,1.5,17,M,,M,,*5E
06/04/2014	10:09:21.810	$GPGGA,100922,2456.3651,N,08019.1268,W,1,8,1.5,17,M,,M,,*5B
06/04/2014	10:09:22.786	$GPGGA,100923,2456.3674,N,08019.1276,W,1,9,1.5,17,M,,M,,*53
06/04/2014	10:09:23.812	$GPGGA,100924,2456.3696,N,08019.1284,W,1,9,1.5,17,M,,M,,*55
06/04/2014	10:09:24.818	$GPGGA,100925,2456.3720,N,08019.1291,W,1,9,1.5,17,M,,M,,*5C
06/04/2014	10:09:25.864	$GPGGA,100926,2456.3742,N,08019.1298,W,1,9,1.5,16,M,,M,,*53
06/04/2014	10:09:26.931	$GPGGA,100927,2456.3764,N,08019.1305,W,1,9,1.5,16,M,,M,,*53
06/04/2014	10:09:27.916	$GPGGA,100928,2456.3788,N,08019.1313,W,1,9,1.5,16,M,,M,,*59
06/04/2014	10:09:28.963	$GPGGA,100929,2456.3811,N,08019.1320,W,1,8,1.5,16,M,,M,,*56
06/04/2014	10:09:29.989	$GPGGA,100930,2456.3835,N,08019.1329,W,1,8,1.5,16,M,,M,,*51
06/04/2014	10:09:30.984	$GPGGA,100931,2456.3858,N,08019.1335,W,1,9,1.5,16,M,,M,,*57
06/04/2014	10:09:31.579	$GPGGA,100932,2456.3882,N,08019.1342,W,1,9,1.5,16,M,,M,,*53
06/04/2014	10:09:32.635	$GPGGA,100933,2456.3905,N,08019.1349,W,1,9,1.5,16,M,,M,,*57
06/04/2014	10:09:33.651	$GPGGA,100934,2456.3927,N,08019.1355,W,1,9,1.5,16,M,,M,,*5D
06/04/2014	10:09:34.666	$GPGGA,100935,2456.3952,N,08019.1362,W,1,9,1.5,16,M,,M,,*5A
06/04/2014	10:09:35.631	$GPGGA,100936,2456.3976,N,08019.1367,W,1,9,1.5,16,M,,M,,*5A
06/04/2014	10:09:36.677	$GPGGA,100937,2456.3999,N,08019.1373,W,1,9,1.5,16,M,,M,,*5F
06/04/2014	10:09:37.703	$GPGGA,100938,2456.4023,N,08019.1380,W,1,9,1.5,16,M,,M,,*53
06/04/2014	10:09:38.739	$GPGGA,100939,2456.4048,N,08019.1385,W,1,9,1.5,16,M,,M,,*5A
06/04/2014	10:09:39.684	$GPGGA,100940,2456.4071,N,08019.1391,W,1,9,1.5,16,M,,M,,*5B
06/04/2014	10:09:40.790	$GPGGA,100941,2456.4093,N,08019.1398,W,1,9,1.5,16,M,,M,,*5F
06/04/2014	10:09:41.765	$GPGGA,100942,2456.4118,N,08019.1402,W,1,9,1.5,16,M,,M,,*5A
06/04/2014	10:09:42.781	$GPGGA,100943,2456.4142,N,08019.1405,W,1,9,1.5,16,M,,M,,*53
06/04/2014	10:09:43.807	$GPGGA,100944,2456.4165,N,08019.1410,W,1,9,1.5,16,M,,M,,*55
06/04/2014	10:09:44.843	$GPGGA,100945,2456.4190,N,08019.1416,W,1,9,1.5,16,M,,M,,*58
06/04/2014	10:09:45.807	$GPGGA,100946,2456.4215,N,08019.1420,W,1,9,1.5,16,M,,M,,*50
06/04/2014	10:09:46.853	$GPGGA,100947,2456.4238,N,08019.1423,W,1,9,1.5,16,M,,M,,*5D
06/04/2014	10:09:47.860	$GPGGA,100948,2456.4263,N,08019.1427,W,1,9,2.0,16,M,,M,,*5E
06/04/2014	10:09:48.894	$GPGGA,100949,2456.4287,N,08019.1430,W,1,8,1.5,16,M,,M,,*54
06/04/2014	10:09:49.869	$GPGGA,100950,2456.4310,N,08019.1432,W,1,8,1.5,16,M,,M,,*51
06/04/2014	10:09:50.915	$GPGGA,100951,2456.4335,N,08019.1434,W,1,9,1.5,16,M,,M,,*50
06/04/2014	10:09:51.900	$GPGGA,100952,2456.4359,N,08019.1435,W,1,9,1.5,16,M,,M,,*58
06/04/2014	10:09:52.946	$GPGGA,100953,2456.4382,N,08019.1438,W,1,9,1.5,16,M,,M,,*52
06/04/2014	10:09:53.921	$GPGGA,100954,2456.4407,N,08019.1441,W,1,9,1.5,16,M,,M,,*51
06/04/2014	10:09:55.008	$GPGGA,100955,2456.4431,N,08019.1442,W,1,9,1.5,16,M,,M,,*56
06/04/2014	10:09:55.962	$GPGGA,100956,2456.4454,N,08019.1445,W,1,9,1.5,16,M,,M,,*51
06/04/2014	10:09:56.978	$GPGGA,100957,2456.4454,N,08019.1445,W,1,9,1.5,16,M,,M,,*50
06/04/2014	10:09:57.973	$GPGGA,100958,2456.4505,N,08019.1449,W,1,9,1.5,16,M,,M,,*56
06/04/2014	10:09:59.050	$GPGGA,100959,2456.4530,N,08019.1452,W,1,9,1.5,17,M,,M,,*5A
06/04/2014	10:10:00.035	$GPGGA,101000,2456.4555,N,08019.1456,W,1,9,1.5,17,M,,M,,*59
06/04/2014	10:10:01.051	$GPGGA,101001,2456.4580,N,08019.1456,W,1,9,1.5,17,M,,M,,*50
06/04/2014	10:10:02.025	$GPGGA,101002,2456.4603,N,08019.1457,W,1,9,1.5,17,M,,M,,*5A
06/04/2014	10:10:03.112	$GPGGA,101003,2456.4630,N,08019.1460,W,1,9,1.5,17,M,,M,,*5F
06/04/2014	10:10:04.077	$GPGGA,101004,2456.4653,N,08019.1463,W,1,9,1.5,17,M,,M,,*5E
06/04/2014	10:10:05.103	$GPGGA,101005,2456.4678,N,08019.1464,W,1,9,1.5,17,M,,M,,*51
06/04/2014	10:10:06.087	$GPGGA,101006,2456.4704,N,08019.1465,W,1,9,1.5,17,M,,M,,*59
06/04/2014	10:10:07.163	$GPGGA,101007,2456.4729,N,08019.1467,W,1,9,1.5,17,M,,M,,*55
06/04/2014	10:10:08.128	$GPGGA,101008,2456.4753,N,08019.1470,W,1,9,1.5,17,M,,M,,*51
06/04/2014	10:10:09.184	$GPGGA,101009,2456.4778,N,08019.1472,W,1,9,1.5,17,M,,M,,*5B
06/04/2014	10:10:10.139	$GPGGA,101010,2456.4803,N,08019.1474,W,1,9,1.5,17,M,,M,,*56
06/04/2014	10:10:11.205	$GPGGA,101011,2456.4827,N,08019.1477,W,1,9,1.5,17,M,,M,,*52
06/04/2014	10:10:12.170	$GPGGA,101012,2456.4852,N,08019.1479,W,1,9,1.5,17,M,,M,,*5D
06/04/2014	10:10:13.237	$GPGGA,101013,2456.4852,N,08019.1479,W,1,9,1.5,17,M,,M,,*5C
06/04/2014	10:10:14.203	$GPGGA,101014,2456.4877,N,08019.1481,W,1,9,1.5,17,M,,M,,*5B
06/04/2014	10:10:15.329	$GPGGA,101015,2456.4924,N,08019.1486,W,1,9,1.5,17,M,,M,,*5A
06/04/2014	10:10:16.233	$GPGGA,101016,2456.4950,N,08019.1488,W,1,9,1.5,17,M,,M,,*54
06/04/2014	10:10:17.248	$GPGGA,101017,2456.4950,N,08019.1488,W,1,9,1.5,17,M,,M,,*55
06/04/2014	10:10:18.345	$GPGGA,101018,2456.5000,N,08019.1495,W,1,9,1.5,17,M,,M,,*5B
06/04/2014	10:10:19.280	$GPGGA,101019,2456.5025,N,08019.1497,W,1,9,1.5,17,M,,M,,*5F
06/04/2014	10:10:20.376	$GPGGA,101020,2456.5049,N,08019.1500,W,1,9,1.5,17,M,,M,,*50
06/04/2014	10:10:21.434	$GPGGA,101021,2456.5074,N,08019.1503,W,1,9,1.5,17,M,,M,,*5C
06/04/2014	10:10:22.307	$GPGGA,101022,2456.5098,N,08019.1506,W,1,9,1.5,17,M,,M,,*58
06/04/2014	10:10:23.413	$GPGGA,101023,2456.5123,N,08019.1510,W,1,9,1.5,17,M,,M,,*5F
06/04/2014	10:10:24.438	$GPGGA,101024,2456.5148,N,08019.1514,W,1,9,1.5,17,M,,M,,*51
06/04/2014	10:10:25.474	$GPGGA,101025,2456.5172,N,08019.1515,W,1,9,1.5,17,M,,M,,*58
06/04/2014	10:10:26.357	$GPGGA,101026,2456.5195,N,08019.1519,W,1,9,1.5,17,M,,M,,*5E
06/04/2014	10:10:27.505	$GPGGA,101027,2456.5220,N,08019.1525,W,1,9,1.5,17,M,,M,,*5D
06/04/2014	10:10:28.500	$GPGGA,101028,2456.5245,N,08019.1528,W,1,9,1.5,17,M,,M,,*5C
06/04/2014	10:10:29.506	$GPGGA,101029,2456.5268,N,08019.1532,W,1,9,1.5,17,M,,M,,*59
06/04/2014	10:10:30.511	$GPGGA,101030,2456.5293,N,08019.1536,W,1,9,1.5,17,M,,M,,*51
06/04/2014	10:10:31.537	$GPGGA,101031,2456.5318,N,08019.1542,W,1,9,1.5,17,M,,M,,*51
06/04/2014	10:10:31.618	$GPGGA,101032,2456.5342,N,08019.1544,W,1,9,1.5,17,M,,M,,*5B
06/04/2014	10:10:32.614	$GPGGA,101033,2456.5367,N,08019.1548,W,1,9,1.5,17,M,,M,,*51
06/04/2014	10:10:33.629	$GPGGA,101034,2456.5392,N,08019.1553,W,1,9,1.5,17,M,,M,,*56
06/04/2014	10:10:34.665	$GPGGA,101035,2456.5416,N,08019.1558,W,1,9,1.5,17,M,,M,,*57
06/04/2014	10:10:35.671	$GPGGA,101036,2456.5441,N,08019.1562,W,1,9,1.5,17,M,,M,,*5F
06/04/2014	10:10:36.666	$GPGGA,101037,2456.5465,N,08019.1566,W,1,9,1.5,17,M,,M,,*5C
06/04/2014	10:10:37.692	$GPGGA,101038,2456.5488,N,08019.1572,W,1,9,1.5,17,M,,M,,*55
06/04/2014	10:10:38.687	$GPGGA,101039,2456.5512,N,08019.1576,W,1,9,1.5,17,M,,M,,*52
06/04/2014	10:10:39.713	$GPGGA,101040,2456.5535,N,08019.1580,W,1,9,1.5,17,M,,M,,*50
06/04/2014	10:10:40.747	$GPGGA,101041,2456.5560,N,08019.1586,W,1,9,1.5,17,M,,M,,*57
06/04/2014	10:10:41.733	$GPGGA,101042,2456.5584,N,08019.1591,W,1,9,1.5,17,M,,M,,*58
06/04/2014	10:10:42.769	$GPGGA,101043,2456.5609,N,08019.1597,W,1,9,1.5,17,M,,M,,*59
06/04/2014	10:10:43.774	$GPGGA,101044,2456.5632,N,08019.1601,W,1,9,1.5,17,M,,M,,*5A
06/04/2014	10:10:44.800	$GPGGA,101045,2456.5657,N,08019.1608,W,1,9,1.5,17,M,,M,,*51
06/04/2014	10:10:45.795	$GPGGA,101046,2456.5679,N,08019.1612,W,1,9,1.6,16,M,,M,,*57
06/04/2014	10:10:46.790	$GPGGA,101047,2456.5704,N,08019.1618,W,1,9,1.5,16,M,,M,,*54
06/04/2014	10:10:47.847	$GPGGA,101048,2456.5728,N,08019.1622,W,1,9,1.5,16,M,,M,,*5C
06/04/2014	10:10:48.822	$GPGGA,101049,2456.5751,N,08019.1627,W,1,9,1.5,16,M,,M,,*56
06/04/2014	10:10:49.837	$GPGGA,101050,2456.5777,N,08019.1633,W,1,9,1.6,16,M,,M,,*5C
06/04/2014	10:10:50.893	$GPGGA,101051,2456.5802,N,08019.1640,W,1,9,1.5,16,M,,M,,*57
06/04/2014	10:10:51.889	$GPGGA,101052,2456.5827,N,08019.1644,W,1,9,1.5,16,M,,M,,*57
06/04/2014	10:10:52.925	$GPGGA,101053,2456.5852,N,08019.1649,W,1,9,1.5,16,M,,M,,*59
06/04/2014	10:10:53.900	$GPGGA,101054,2456.5877,N,08019.1655,W,1,9,1.5,16,M,,M,,*54
06/04/2014	10:10:54.935	$GPGGA,101055,2456.5902,N,08019.1659,W,1,9,1.5,16,M,,M,,*5A
06/04/2014	10:10:55.941	$GPGGA,101056,2456.5927,N,08019.1665,W,1,9,1.5,16,M,,M,,*51
06/04/2014	10:10:56.926	$GPGGA,101057,2456.5950,N,08019.1670,W,1,9,1.5,16,M,,M,,*54
06/04/2014	10:10:57.954	$GPGGA,101058,2456.5975,N,08019.1676,W,1,9,1.5,16,M,,M,,*5A
06/04/2014	10:10:58.966	$GPGGA,101059,2456.6000,N,08019.1680,W,1,9,1.5,16,M,,M,,*5A
06/04/2014	10:11:00.012	$GPGGA,101100,2456.6025,N,08019.1684,W,1,9,1.5,16,M,,M,,*54
06/04/2014	10:11:00.977	$GPGGA,101101,2456.6048,N,08019.1691,W,1,9,1.5,16,M,,M,,*5A
06/04/2014	10:11:02.115	$GPGGA,101102,2456.6073,N,08019.1695,W,1,9,1.5,16,M,,M,,*55
06/04/2014	10:11:03.029	$GPGGA,101103,2456.6098,N,08019.1699,W,1,9,1.5,16,M,,M,,*5D
06/04/2014	10:11:04.146	$GPGGA,101104,2456.6122,N,08019.1705,W,1,9,1.5,16,M,,M,,*5E
06/04/2014	10:11:05.060	$GPGGA,101105,2456.6145,N,08019.1710,W,1,9,1.5,16,M,,M,,*5A
06/04/2014	10:11:06.157	$GPGGA,101106,2456.6171,N,08019.1713,W,1,9,1.5,16,M,,M,,*5D
06/04/2014	10:11:07.071	$GPGGA,101107,2456.6194,N,08019.1719,W,1,9,1.5,16,M,,M,,*5D
06/04/2014	10:11:08.188	$GPGGA,101108,2456.6218,N,08019.1724,W,1,9,1.5,16,M,,M,,*5B
06/04/2014	10:11:09.224	$GPGGA,101109,2456.6243,N,08019.1727,W,1,9,1.5,16,M,,M,,*57
06/04/2014	10:11:10.209	$GPGGA,101110,2456.6267,N,08019.1732,W,1,9,1.5,16,M,,M,,*5D
06/04/2014	10:11:11.133	$GPGGA,101111,2456.6290,N,08019.1738,W,1,9,1.5,16,M,,M,,*5E
06/04/2014	10:11:12.250	$GPGGA,101112,2456.6315,N,08019.1741,W,1,9,1.5,16,M,,M,,*5F
06/04/2014	10:11:13.276	$GPGGA,101113,2456.6339,N,08019.1745,W,1,9,1.5,16,M,,M,,*54
06/04/2014	10:11:14.271	$GPGGA,101114,2456.6362,N,08019.1750,W,1,9,1.5,16,M,,M,,*59
06/04/2014	10:11:15.308	$GPGGA,101115,2456.6387,N,08019.1754,W,1,9,1.5,16,M,,M,,*57
06/04/2014	10:11:16.800	$GPGGA,101116,2456.6413,N,08019.1756,W,1,9,1.5,16,M,,M,,*5C
06/04/2014	10:11:17.317	$GPGGA,101117,2456.6437,N,08019.1763,W,1,9,1.5,16,M,,M,,*5D
06/04/2014	10:11:18.323	$GPGGA,101118,2456.6460,N,08019.1767,W,1,9,1.5,16,M,,M,,*54
06/04/2014	10:11:19.328	$GPGGA,101119,2456.6485,N,08019.1770,W,1,9,1.5,16,M,,M,,*58
06/04/2014	10:11:20.354	$GPGGA,101120,2456.6510,N,08019.1772,W,1,9,1.5,16,M,,M,,*5D
06/04/2014	10:11:21.390	$GPGGA,101121,2456.6534,N,08019.1777,W,1,9,1.5,16,M,,M,,*5F
06/04/2014	10:11:22.365	$GPGGA,101122,2456.6560,N,08019.1781,W,1,9,1.5,16,M,,M,,*54
06/04/2014	10:11:23.401	$GPGGA,101123,2456.6583,N,08019.1783,W,1,9,1.5,16,M,,M,,*5A
06/04/2014	10:11:24.416	$GPGGA,101124,2456.6608,N,08019.1788,W,1,9,1.5,16,M,,M,,*56
06/04/2014	10:11:25.432	$GPGGA,101125,2456.6633,N,08019.1792,W,1,9,1.5,16,M,,M,,*54
06/04/2014	10:11:26.427	$GPGGA,101126,2456.6657,N,08019.1795,W,1,9,1.5,16,M,,M,,*52
06/04/2014	10:11:27.453	$GPGGA,101127,2456.6682,N,08019.1799,W,1,9,1.5,16,M,,M,,*57
06/04/2014	10:11:28.458	$GPGGA,101128,2456.6705,N,08019.1801,W,1,9,1.5,16,M,,M,,*58
06/04/2014	10:11:29.494	$GPGGA,101129,2456.6730,N,08019.1804,W,1,9,1.5,16,M,,M,,*5A
06/04/2014	10:11:30.479	$GPGGA,101130,2456.6754,N,08019.1808,W,1,9,1.5,16,M,,M,,*5C
06/04/2014	10:11:31.516	$GPGGA,101131,2456.6778,N,08019.1810,W,1,8,2.0,16,M,,M,,*5D
06/04/2014	10:11:31.587	$GPGGA,101132,2456.6803,N,08019.1814,W,1,8,1.5,16,M,,M,,*5F
06/04/2014	10:11:32.613	$GPGGA,101133,2456.6827,N,08019.1815,W,1,9,1.5,16,M,,M,,*58
06/04/2014	10:11:33.607	$GPGGA,101134,2456.6852,N,08019.1818,W,1,9,1.5,16,M,,M,,*50
06/04/2014	10:11:34.612	$GPGGA,101135,2456.6875,N,08019.1821,W,1,9,1.5,16,M,,M,,*5E
06/04/2014	10:11:35.648	$GPGGA,101136,2456.6900,N,08019.1824,W,1,9,1.5,16,M,,M,,*5B
06/04/2014	10:11:36.674	$GPGGA,101137,2456.6925,N,08019.1825,W,1,9,1.5,16,M,,M,,*5C
06/04/2014	10:11:37.669	$GPGGA,101138,2456.6949,N,08019.1832,W,1,9,1.5,17,M,,M,,*5E
06/04/2014	10:11:38.664	$GPGGA,101139,2456.6973,N,08019.1835,W,1,9,1.5,17,M,,M,,*51
06/04/2014	10:11:39.700	$GPGGA,101140,2456.6998,N,08019.1837,W,1,9,1.5,17,M,,M,,*58
06/04/2014	10:11:40.726	$GPGGA,101141,2456.7022,N,08019.1842,W,1,9,1.5,17,M,,M,,*52
06/04/2014	10:11:41.701	$GPGGA,101142,2456.7045,N,08019.1846,W,1,9,1.5,17,M,,M,,*54
06/04/2014	10:11:42.737	$GPGGA,101143,2456.7070,N,08019.1850,W,1,9,1.5,17,M,,M,,*54
06/04/2014	10:11:43.753	$GPGGA,101144,2456.7095,N,08019.1853,W,1,9,1.5,17,M,,M,,*5B
06/04/2014	10:11:44.748	$GPGGA,101145,2456.7119,N,08019.1857,W,1,9,1.5,17,M,,M,,*5B
06/04/2014	10:11:45.774	$GPGGA,101146,2456.7142,N,08019.1861,W,1,9,1.5,17,M,,M,,*53
06/04/2014	10:11:46.769	$GPGGA,101147,2456.7167,N,08019.1864,W,1,9,1.5,17,M,,M,,*50
06/04/2014	10:11:47.806	$GPGGA,101148,2456.7192,N,08019.1868,W,1,9,1.5,17,M,,M,,*59
06/04/2014	10:11:48.932	$GPGGA,101149,2456.7215,N,08019.1871,W,1,9,1.5,17,M,,M,,*5C
06/04/2014	10:11:49.826	$GPGGA,101150,2456.7240,N,08019.1875,W,1,9,1.5,17,M,,M,,*50
