Software Version Number: 1	Data File Format Number: 1	Build Version Number: 1	Error Count Since VI Started: 0	Manufacturer: Raytheon	 Model Number: RayMarine 120	 S/N: 	 Cal Date: 	 Wind Direction Offset: 0.00	 Slope (M)1: 0.00	 Offset (B)1: 0.00	 Slope (M)2: 0.00	 Offset (B)2: 0.00	 Slope (M)3: 0.00	 Offset (B)3: 0.00	 Slope (M)4: 0.00	 Offset (B)4: 0.00	 Slope (M)5: 0.00	 Offset (B)5: 0.00	 Slope (M)6: 0.00	 Offset (B)6: 0.00
Computer Date	Computer Time	GGA String
05/28/2014	00:00:00.841	$GPGGA,000001,2543.8835,N,08009.7280,W,1,9,2.1,19,M,,M,,*59
05/28/2014	00:00:01.819	$GPGGA,000002,2543.8835,N,08009.7280,W,1,9,2.1,19,M,,M,,*5A
05/28/2014	00:00:02.860	$GPGGA,000003,2543.8837,N,08009.7280,W,1,9,2.1,19,M,,M,,*59
05/28/2014	00:00:03.861	$GPGGA,000004,2543.8838,N,08009.7280,W,1,9,2.3,19,M,,M,,*53
05/28/2014	00:00:04.872	$GPGGA,000005,2543.8839,N,08009.7280,W,1,7,2.8,19,M,,M,,*56
05/28/2014	00:00:05.853	$GPGGA,000006,2543.8839,N,08009.7280,W,1,7,2.8,19,M,,M,,*55
05/28/2014	00:00:06.884	$GPGGA,000007,2543.8841,N,08009.7280,W,1,7,2.8,18,M,,M,,*5A
05/28/2014	00:00:07.905	$GPGGA,000008,2543.8842,N,08009.7280,W,1,7,2.8,18,M,,M,,*56
05/28/2014	00:00:08.906	$GPGGA,000009,2543.8842,N,08009.7280,W,1,7,2.8,18,M,,M,,*57
05/28/2014	00:00:09.886	$GPGGA,000010,2543.8842,N,08009.7281,W,1,7,2.8,18,M,,M,,*5E
05/28/2014	00:00:10.917	$GPGGA,000011,2543.8844,N,08009.7281,W,1,7,2.8,18,M,,M,,*59
05/28/2014	00:00:11.927	$GPGGA,000012,2543.8845,N,08009.7281,W,1,7,2.8,18,M,,M,,*5B
05/28/2014	00:00:12.948	$GPGGA,000013,2543.8844,N,08009.7281,W,1,7,2.8,17,M,,M,,*54
05/28/2014	00:00:13.939	$GPGGA,000014,2543.8846,N,08009.7281,W,1,7,2.8,17,M,,M,,*51
05/28/2014	00:00:14.930	$GPGGA,000015,2543.8846,N,08009.7283,W,1,7,2.8,17,M,,M,,*52
05/28/2014	00:00:15.961	$GPGGA,000016,2543.8846,N,08009.7282,W,1,7,2.8,17,M,,M,,*50
05/28/2014	00:00:16.983	$GPGGA,000017,2543.8846,N,08009.7283,W,1,7,2.8,17,M,,M,,*50
05/28/2014	00:00:17.962	$GPGGA,000018,2543.8842,N,08009.7282,W,1,7,2.8,16,M,,M,,*5B
05/28/2014	00:00:18.963	$GPGGA,000019,2543.8844,N,08009.7283,W,1,8,2.2,16,M,,M,,*58
05/28/2014	00:00:19.984	$GPGGA,000020,2543.8843,N,08009.7283,W,1,8,2.8,16,M,,M,,*5F
05/28/2014	00:00:21.005	$GPGGA,000021,2543.8845,N,08009.7283,W,1,7,2.8,16,M,,M,,*57
05/28/2014	00:00:21.996	$GPGGA,000022,2543.8843,N,08009.7283,W,1,7,2.2,16,M,,M,,*58
05/28/2014	00:00:23.007	$GPGGA,000023,2543.8844,N,08009.7283,W,1,8,2.2,16,M,,M,,*51
05/28/2014	00:00:24.139	$GPGGA,000024,2543.8845,N,08009.7283,W,1,8,2.2,16,M,,M,,*57
05/28/2014	00:00:25.140	$GPGGA,000025,2543.8844,N,08009.7283,W,1,8,2.2,16,M,,M,,*57
05/28/2014	00:00:26.039	$GPGGA,000026,2543.8846,N,08009.7284,W,1,8,2.2,15,M,,M,,*52
05/28/2014	00:00:27.050	$GPGGA,000027,2543.8846,N,08009.7284,W,1,8,2.2,15,M,,M,,*53
05/28/2014	00:00:28.061	$GPGGA,000028,2543.8846,N,08009.7285,W,1,8,2.2,15,M,,M,,*5D
05/28/2014	00:00:29.081	$GPGGA,000029,2543.8844,N,08009.7285,W,1,8,2.2,15,M,,M,,*5E
05/28/2014	00:00:30.062	$GPGGA,000030,2543.8845,N,08009.7285,W,1,8,2.2,15,M,,M,,*57
05/28/2014	00:00:31.073	$GPGGA,000031,2543.8844,N,08009.7285,W,1,8,2.2,15,M,,M,,*57
05/28/2014	00:00:32.215	$GPGGA,000032,2543.8845,N,08009.7285,W,1,8,2.2,15,M,,M,,*55
05/28/2014	00:00:33.197	$GPGGA,000033,2543.8846,N,08009.7285,W,1,8,2.2,15,M,,M,,*57
05/28/2014	00:00:34.218	$GPGGA,000034,2543.8846,N,08009.7285,W,1,8,2.8,15,M,,M,,*5A
05/28/2014	00:00:35.217	$GPGGA,000035,2543.8846,N,08009.7284,W,1,7,2.8,15,M,,M,,*55
05/28/2014	00:00:36.248	$GPGGA,000036,2543.8846,N,08009.7284,W,1,7,2.8,15,M,,M,,*56
05/28/2014	00:00:38.058	$GPGGA,000037,2543.8848,N,08009.7283,W,1,7,2.8,15,M,,M,,*5E
05/28/2014	00:00:37.588	$GPGGA,000038,2543.8847,N,08009.7283,W,1,7,2.8,15,M,,M,,*5E
05/28/2014	00:00:38.599	$GPGGA,000039,2543.8849,N,08009.7283,W,1,7,2.8,15,M,,M,,*51
05/28/2014	00:00:39.640	$GPGGA,000040,2543.8848,N,08009.7282,W,1,7,2.8,14,M,,M,,*5E
05/28/2014	00:00:40.522	$GPGGA,000041,2543.8849,N,08009.7283,W,1,7,2.8,14,M,,M,,*5F
05/28/2014	00:00:41.621	$GPGGA,000042,2543.8849,N,08009.7282,W,1,7,2.8,14,M,,M,,*5D
05/28/2014	00:00:42.642	$GPGGA,000043,2543.8849,N,08009.7283,W,1,7,2.8,14,M,,M,,*5D
05/28/2014	00:00:43.653	$GPGGA,000044,2543.8849,N,08009.7281,W,1,7,2.8,14,M,,M,,*58
05/28/2014	00:00:44.664	$GPGGA,000045,2543.8849,N,08009.7281,W,1,7,2.8,14,M,,M,,*59
05/28/2014	00:00:45.655	$GPGGA,000046,2543.8850,N,08009.7281,W,1,7,2.8,14,M,,M,,*52
05/28/2014	00:00:46.675	$GPGGA,000047,2543.8850,N,08009.7281,W,1,7,2.8,14,M,,M,,*53
05/28/2014	00:00:47.697	$GPGGA,000048,2543.8848,N,08009.7280,W,1,7,2.8,14,M,,M,,*54
05/28/2014	00:00:48.677	$GPGGA,000049,2543.8847,N,08009.7280,W,1,8,2.2,14,M,,M,,*5F
05/28/2014	00:00:49.687	$GPGGA,000050,2543.8846,N,08009.7280,W,1,8,2.2,14,M,,M,,*56
05/28/2014	00:00:50.709	$GPGGA,000051,2543.8846,N,08009.7280,W,1,8,2.2,14,M,,M,,*57
05/28/2014	00:00:51.729	$GPGGA,000052,2543.8846,N,08009.7280,W,1,8,2.2,14,M,,M,,*54
05/28/2014	00:00:52.720	$GPGGA,000053,2543.8844,N,08009.7280,W,1,8,2.2,14,M,,M,,*57
05/28/2014	00:00:53.722	$GPGGA,000054,2543.8843,N,08009.7280,W,1,8,2.2,14,M,,M,,*57
05/28/2014	00:00:54.742	$GPGGA,000055,2543.8844,N,08009.7280,W,1,8,2.2,14,M,,M,,*51
05/28/2014	00:00:55.763	$GPGGA,000056,2543.8843,N,08009.7279,W,1,8,2.2,14,M,,M,,*53
05/28/2014	00:00:56.744	$GPGGA,000057,2543.8842,N,08009.7280,W,1,8,2.2,14,M,,M,,*55
05/28/2014	00:00:57.775	$GPGGA,000058,2543.8842,N,08009.7280,W,1,8,2.2,14,M,,M,,*5A
05/28/2014	00:00:58.787	$GPGGA,000059,2543.8842,N,08009.7279,W,1,8,2.2,14,M,,M,,*5D
05/28/2014	00:00:59.807	$GPGGA,000100,2543.8842,N,08009.7280,W,1,8,2.2,14,M,,M,,*56
05/28/2014	00:01:00.817	$GPGGA,000101,2543.8842,N,08009.7280,W,1,8,2.2,14,M,,M,,*57
05/28/2014	00:01:01.788	$GPGGA,000102,2543.8842,N,08009.7280,W,1,8,2.2,15,M,,M,,*55
05/28/2014	00:01:02.809	$GPGGA,000103,2543.8842,N,08009.7280,W,1,8,2.2,15,M,,M,,*54
05/28/2014	00:01:03.829	$GPGGA,000104,2543.8842,N,08009.7280,W,1,8,2.2,15,M,,M,,*53
05/28/2014	00:01:04.820	$GPGGA,000105,2543.8842,N,08009.7280,W,1,8,2.2,15,M,,M,,*52
05/28/2014	00:01:05.841	$GPGGA,000106,2543.8842,N,08009.7281,W,1,8,2.2,15,M,,M,,*50
05/28/2014	00:01:06.872	$GPGGA,000107,2543.8842,N,08009.7281,W,1,8,2.2,15,M,,M,,*51
05/28/2014	00:01:07.862	$GPGGA,000108,2543.8842,N,08009.7281,W,1,8,2.2,16,M,,M,,*5D
05/28/2014	00:01:08.873	$GPGGA,000109,2543.8842,N,08009.7283,W,1,8,2.2,16,M,,M,,*5E
05/28/2014	00:01:09.874	$GPGGA,000110,2543.8842,N,08009.7282,W,1,8,2.2,16,M,,M,,*57
05/28/2014	00:01:10.885	$GPGGA,000111,2543.8844,N,08009.7281,W,1,8,2.2,16,M,,M,,*53
05/28/2014	00:01:11.906	$GPGGA,000112,2543.8843,N,08009.7283,W,1,8,2.2,16,M,,M,,*55
05/28/2014	00:01:12.897	$GPGGA,000113,2543.8844,N,08009.7282,W,1,8,2.2,16,M,,M,,*52
05/28/2014	00:01:13.897	$GPGGA,000114,2543.8843,N,08009.7283,W,1,8,2.2,16,M,,M,,*53
05/28/2014	00:01:15.020	$GPGGA,000115,2543.8845,N,08009.7283,W,1,8,2.2,16,M,,M,,*54
05/28/2014	00:01:16.051	$GPGGA,000116,2543.8843,N,08009.7282,W,1,8,2.2,17,M,,M,,*51
05/28/2014	00:01:16.950	$GPGGA,000117,2543.8844,N,08009.7283,W,1,8,2.2,17,M,,M,,*56
05/28/2014	00:01:17.941	$GPGGA,000118,2543.8843,N,08009.7283,W,1,8,2.2,17,M,,M,,*5E
05/28/2014	00:01:19.036	$GPGGA,000119,2543.8844,N,08009.7283,W,1,8,2.2,17,M,,M,,*58
05/28/2014	00:01:19.963	$GPGGA,000120,2543.8843,N,08009.7283,W,1,8,2.2,17,M,,M,,*55
05/28/2014	00:01:21.066	$GPGGA,000121,2543.8842,N,08009.7283,W,1,8,2.2,17,M,,M,,*55
05/28/2014	00:01:21.974	$GPGGA,000122,2543.8842,N,08009.7283,W,1,8,2.2,17,M,,M,,*56
05/28/2014	00:01:23.077	$GPGGA,000123,2543.8842,N,08009.7283,W,1,8,2.2,18,M,,M,,*58
05/28/2014	00:01:24.005	$GPGGA,000124,2543.8842,N,08009.7283,W,1,8,2.2,18,M,,M,,*5F
05/28/2014	00:01:25.109	$GPGGA,000125,2543.8842,N,08009.7283,W,1,8,2.2,18,M,,M,,*5E
05/28/2014	00:01:26.108	$GPGGA,000126,2543.8842,N,08009.7282,W,1,8,2.2,18,M,,M,,*5C
05/28/2014	00:01:27.139	$GPGGA,000127,2543.8842,N,08009.7283,W,1,8,2.2,18,M,,M,,*5C
05/28/2014	00:01:28.130	$GPGGA,000128,2543.8842,N,08009.7283,W,1,8,2.2,18,M,,M,,*53
05/28/2014	00:01:29.131	$GPGGA,000129,2543.8842,N,08009.7283,W,1,8,2.2,18,M,,M,,*52
05/28/2014	00:01:30.142	$GPGGA,000130,2543.8840,N,08009.7283,W,1,8,2.2,19,M,,M,,*59
05/28/2014	00:01:31.183	$GPGGA,000131,2543.8841,N,08009.7284,W,1,8,2.2,19,M,,M,,*5E
05/28/2014	00:01:32.163	$GPGGA,000132,2543.8840,N,08009.7284,W,1,8,2.2,19,M,,M,,*5C
05/28/2014	00:01:33.197	$GPGGA,000133,2543.8841,N,08009.7284,W,1,8,2.2,19,M,,M,,*5C
05/28/2014	00:01:34.175	$GPGGA,000134,2543.8839,N,08009.7285,W,1,8,2.2,19,M,,M,,*55
05/28/2014	00:01:35.196	$GPGGA,000135,2543.8839,N,08009.7285,W,1,8,2.2,19,M,,M,,*54
05/28/2014	00:01:36.207	$GPGGA,000136,2543.8839,N,08009.7285,W,1,8,2.2,19,M,,M,,*57
05/28/2014	00:01:37.198	$GPGGA,000137,2543.8839,N,08009.7287,W,1,8,2.2,19,M,,M,,*54
05/28/2014	00:01:37.586	$GPGGA,000138,2543.8839,N,08009.7286,W,1,8,2.2,19,M,,M,,*5A
05/28/2014	00:01:38.566	$GPGGA,000139,2543.8839,N,08009.7287,W,1,8,2.2,19,M,,M,,*5A
05/28/2014	00:01:39.587	$GPGGA,000140,2543.8839,N,08009.7287,W,1,8,2.2,20,M,,M,,*5E
05/28/2014	00:01:40.608	$GPGGA,000141,2543.8839,N,08009.7287,W,1,8,2.2,20,M,,M,,*5F
05/28/2014	00:01:41.598	$GPGGA,000142,2543.8839,N,08009.7287,W,1,8,2.2,20,M,,M,,*5C
05/28/2014	00:01:42.599	$GPGGA,000143,2543.8839,N,08009.7287,W,1,8,2.2,20,M,,M,,*5D
05/28/2014	00:01:43.620	$GPGGA,000144,2543.8839,N,08009.7288,W,1,8,2.2,20,M,,M,,*55
05/28/2014	00:01:44.611	$GPGGA,000145,2543.8839,N,08009.7288,W,1,8,2.2,20,M,,M,,*54
05/28/2014	00:01:45.632	$GPGGA,000146,2543.8839,N,08009.7288,W,1,8,2.2,20,M,,M,,*57
05/28/2014	00:01:46.663	$GPGGA,000147,2543.8839,N,08009.7288,W,1,7,2.2,20,M,,M,,*59
05/28/2014	00:01:47.664	$GPGGA,000148,2543.8839,N,08009.7288,W,1,7,2.2,20,M,,M,,*56
05/28/2014	00:01:48.644	$GPGGA,000149,2543.8839,N,08009.7288,W,1,7,2.2,20,M,,M,,*57
05/28/2014	00:01:49.665	$GPGGA,000150,2543.8839,N,08009.7288,W,1,7,2.2,20,M,,M,,*5F
05/28/2014	00:01:50.706	$GPGGA,000151,2543.8839,N,08009.7290,W,1,7,2.2,20,M,,M,,*57
05/28/2014	00:01:51.697	$GPGGA,000152,2543.8839,N,08009.7289,W,1,7,2.2,20,M,,M,,*5C
05/28/2014	00:01:52.688	$GPGGA,000153,2543.8839,N,08009.7290,W,1,7,2.2,20,M,,M,,*55
05/28/2014	00:01:53.689	$GPGGA,000154,2543.8839,N,08009.7290,W,1,7,2.2,20,M,,M,,*52
05/28/2014	00:01:54.730	$GPGGA,000155,2543.8839,N,08009.7290,W,1,7,2.2,20,M,,M,,*53
05/28/2014	00:01:55.731	$GPGGA,000156,2543.8839,N,08009.7290,W,1,7,2.2,20,M,,M,,*50
05/28/2014	00:01:56.751	$GPGGA,000157,2543.8839,N,08009.7290,W,1,7,2.2,20,M,,M,,*51
05/28/2014	00:01:57.741	$GPGGA,000158,2543.8839,N,08009.7291,W,1,7,2.2,20,M,,M,,*5F
05/28/2014	00:01:58.853	$GPGGA,000159,2543.8839,N,08009.7291,W,1,7,2.2,20,M,,M,,*5E
05/28/2014	00:01:59.783	$GPGGA,000200,2543.8839,N,08009.7291,W,1,7,2.2,19,M,,M,,*5B
05/28/2014	00:02:00.754	$GPGGA,000201,2543.8839,N,08009.7292,W,1,7,2.2,19,M,,M,,*59
05/28/2014	00:02:01.775	$GPGGA,000202,2543.8839,N,08009.7292,W,1,7,2.2,19,M,,M,,*5A
05/28/2014	00:02:02.796	$GPGGA,000203,2543.8839,N,08009.7292,W,1,7,2.2,19,M,,M,,*5B
05/28/2014	00:02:03.807	$GPGGA,000204,2543.8841,N,08009.7294,W,1,7,2.2,19,M,,M,,*55
05/28/2014	00:02:04.909	$GPGGA,000205,2543.8840,N,08009.7293,W,1,7,2.2,19,M,,M,,*52
05/28/2014	00:02:05.808	$GPGGA,000206,2543.8841,N,08009.7294,W,1,7,2.2,19,M,,M,,*57
05/28/2014	00:02:06.930	$GPGGA,000207,2543.8842,N,08009.7293,W,1,7,2.2,19,M,,M,,*52
05/28/2014	00:02:07.830	$GPGGA,000208,2543.8842,N,08009.7294,W,1,7,2.2,19,M,,M,,*5A
05/28/2014	00:02:08.952	$GPGGA,000209,2543.8842,N,08009.7294,W,1,7,2.2,19,M,,M,,*5B
05/28/2014	00:02:09.933	$GPGGA,000210,2543.8842,N,08009.7294,W,1,7,2.2,19,M,,M,,*53
05/28/2014	00:02:10.974	$GPGGA,000211,2543.8842,N,08009.7295,W,1,7,2.2,19,M,,M,,*53
05/28/2014	00:02:11.985	$GPGGA,000212,2543.8842,N,08009.7294,W,1,7,2.2,19,M,,M,,*51
05/28/2014	00:02:12.976	$GPGGA,000213,2543.8842,N,08009.7294,W,1,7,2.2,19,M,,M,,*50
05/28/2014	00:02:13.885	$GPGGA,000214,2543.8842,N,08009.7294,W,1,7,2.2,19,M,,M,,*57
05/28/2014	00:02:14.988	$GPGGA,000215,2543.8842,N,08009.7294,W,1,7,2.2,19,M,,M,,*56
05/28/2014	00:02:15.997	$GPGGA,000216,2543.8842,N,08009.7294,W,1,7,2.2,19,M,,M,,*55
05/28/2014	00:02:16.999	$GPGGA,000217,2543.8842,N,08009.7294,W,1,7,2.2,19,M,,M,,*54
05/28/2014	00:02:17.999	$GPGGA,000218,2543.8842,N,08009.7294,W,1,7,2.2,19,M,,M,,*5B
05/28/2014	00:02:19.041	$GPGGA,000219,2543.8842,N,08009.7294,W,1,7,2.2,19,M,,M,,*5A
05/28/2014	00:02:20.031	$GPGGA,000220,2543.8842,N,08009.7294,W,1,7,2.2,19,M,,M,,*50
05/28/2014	00:02:21.066	$GPGGA,000221,2543.8842,N,08009.7294,W,1,7,2.2,19,M,,M,,*51
05/28/2014	00:02:22.052	$GPGGA,000222,2543.8844,N,08009.7294,W,1,7,2.2,19,M,,M,,*54
05/28/2014	00:02:23.074	$GPGGA,000223,2543.8843,N,08009.7294,W,1,7,2.2,19,M,,M,,*52
05/28/2014	00:02:24.074	$GPGGA,000224,2543.8844,N,08009.7295,W,1,7,2.2,19,M,,M,,*53
05/28/2014	00:02:25.075	$GPGGA,000225,2543.8843,N,08009.7295,W,1,7,2.2,19,M,,M,,*55
05/28/2014	00:02:26.086	$GPGGA,000226,2543.8844,N,08009.7296,W,1,7,2.2,19,M,,M,,*52
05/28/2014	00:02:27.107	$GPGGA,000227,2543.8843,N,08009.7296,W,1,7,2.2,19,M,,M,,*54
05/28/2014	00:02:28.118	$GPGGA,000228,2543.8844,N,08009.7296,W,1,7,2.2,19,M,,M,,*5C
05/28/2014	00:02:29.108	$GPGGA,000229,2543.8843,N,08009.7296,W,1,7,2.2,19,M,,M,,*5A
05/28/2014	00:02:30.119	$GPGGA,000230,2543.8844,N,08009.7298,W,1,7,2.2,19,M,,M,,*5B
05/28/2014	00:02:31.130	$GPGGA,000231,2543.8843,N,08009.7297,W,1,7,2.2,19,M,,M,,*52
05/28/2014	00:02:32.150	$GPGGA,000232,2543.8842,N,08009.7296,W,1,7,2.2,19,M,,M,,*51
05/28/2014	00:02:33.131	$GPGGA,000233,2543.8842,N,08009.7298,W,1,7,2.2,19,M,,M,,*5E
05/28/2014	00:02:34.152	$GPGGA,000234,2543.8842,N,08009.7296,W,1,7,2.2,19,M,,M,,*57
05/28/2014	00:02:35.193	$GPGGA,000235,2543.8842,N,08009.7298,W,1,7,2.2,19,M,,M,,*58
05/28/2014	00:02:36.174	$GPGGA,000236,2543.8842,N,08009.7296,W,1,7,2.2,19,M,,M,,*55
05/28/2014	00:02:37.174	$GPGGA,000237,2543.8842,N,08009.7296,W,1,7,2.2,19,M,,M,,*54
05/28/2014	00:02:38.175	$GPGGA,000238,2543.8842,N,08009.7296,W,1,7,2.2,18,M,,M,,*5A
05/28/2014	00:02:38.575	$GPGGA,000239,2543.8842,N,08009.7296,W,1,7,2.2,18,M,,M,,*5B
05/28/2014	00:02:39.566	$GPGGA,000240,2543.8842,N,08009.7296,W,1,7,2.2,18,M,,M,,*55
05/28/2014	00:02:40.596	$GPGGA,000241,2543.8842,N,08009.7298,W,1,7,2.2,18,M,,M,,*5A
05/28/2014	00:02:41.557	$GPGGA,000242,2543.8842,N,08009.7297,W,1,7,2.2,18,M,,M,,*56
05/28/2014	00:02:42.578	$GPGGA,000243,2543.8840,N,08009.7298,W,1,7,2.2,18,M,,M,,*5A
05/28/2014	00:02:43.599	$GPGGA,000244,2543.8841,N,08009.7297,W,1,7,2.2,18,M,,M,,*53
05/28/2014	00:02:44.640	$GPGGA,000245,2543.8840,N,08009.7298,W,1,7,2.2,18,M,,M,,*5C
05/28/2014	00:02:45.610	$GPGGA,000246,2543.8841,N,08009.7297,W,1,7,2.2,18,M,,M,,*51
05/28/2014	00:02:46.611	$GPGGA,000247,2543.8839,N,08009.7298,W,1,7,2.2,18,M,,M,,*50
05/28/2014	00:02:47.632	$GPGGA,000248,2543.8839,N,08009.7297,W,1,7,2.2,18,M,,M,,*50
05/28/2014	00:02:48.723	$GPGGA,000249,2543.8839,N,08009.7298,W,1,7,2.2,18,M,,M,,*5E
05/28/2014	00:02:49.643	$GPGGA,000250,2543.8839,N,08009.7297,W,1,7,2.2,18,M,,M,,*59
05/28/2014	00:02:50.664	$GPGGA,000251,2543.8839,N,08009.7296,W,1,7,2.2,18,M,,M,,*59
05/28/2014	00:02:51.675	$GPGGA,000252,2543.8839,N,08009.7296,W,1,7,2.2,18,M,,M,,*5A
05/28/2014	00:02:52.666	$GPGGA,000253,2543.8839,N,08009.7295,W,1,7,2.2,18,M,,M,,*58
05/28/2014	00:02:53.778	$GPGGA,000254,2543.8839,N,08009.7295,W,1,7,2.2,18,M,,M,,*5F
05/28/2014	00:02:54.687	$GPGGA,000255,2543.8839,N,08009.7295,W,1,7,2.2,18,M,,M,,*5E
05/28/2014	00:02:55.708	$GPGGA,000256,2543.8839,N,08009.7295,W,1,7,2.2,18,M,,M,,*5D
05/28/2014	00:02:56.810	$GPGGA,000257,2543.8839,N,08009.7295,W,1,7,2.2,18,M,,M,,*5C
05/28/2014	00:02:57.720	$GPGGA,000258,2543.8839,N,08009.7294,W,1,7,2.2,18,M,,M,,*52
05/28/2014	00:02:58.832	$GPGGA,000259,2543.8839,N,08009.7295,W,1,7,2.2,18,M,,M,,*52
05/28/2014	00:02:59.873	$GPGGA,000300,2543.8839,N,08009.7294,W,1,7,2.2,18,M,,M,,*5E
05/28/2014	00:03:00.835	$GPGGA,000301,2543.8841,N,08009.7294,W,1,7,2.2,18,M,,M,,*50
05/28/2014	00:03:01.845	$GPGGA,000302,2543.8840,N,08009.7294,W,1,7,2.2,18,M,,M,,*52
05/28/2014	00:03:02.876	$GPGGA,000303,2543.8841,N,08009.7294,W,1,7,2.2,18,M,,M,,*52
05/28/2014	00:03:03.876	$GPGGA,000304,2543.8840,N,08009.7294,W,1,7,2.2,18,M,,M,,*54
05/28/2014	00:03:04.877	$GPGGA,000305,2543.8841,N,08009.7293,W,1,7,2.2,18,M,,M,,*53
05/28/2014	00:03:05.878	$GPGGA,000306,2543.8840,N,08009.7294,W,1,7,2.2,18,M,,M,,*56
05/28/2014	00:03:06.908	$GPGGA,000307,2543.8841,N,08009.7293,W,1,7,2.2,18,M,,M,,*51
05/28/2014	00:03:07.909	$GPGGA,000308,2543.8842,N,08009.7294,W,1,7,2.2,18,M,,M,,*5A
05/28/2014	00:03:08.920	$GPGGA,000309,2543.8842,N,08009.7293,W,1,7,2.2,18,M,,M,,*5C
05/28/2014	00:03:09.910	$GPGGA,000310,2543.8840,N,08009.7294,W,1,7,2.2,18,M,,M,,*51
05/28/2014	00:03:10.942	$GPGGA,000311,2543.8841,N,08009.7293,W,1,7,2.2,18,M,,M,,*56
05/28/2014	00:03:11.942	$GPGGA,000312,2543.8840,N,08009.7294,W,1,7,2.2,18,M,,M,,*53
05/28/2014	00:03:12.953	$GPGGA,000313,2543.8841,N,08009.7293,W,1,7,2.2,18,M,,M,,*54
05/28/2014	00:03:13.944	$GPGGA,000314,2543.8840,N,08009.7294,W,1,7,2.2,18,M,,M,,*55
05/28/2014	00:03:14.965	$GPGGA,000315,2543.8841,N,08009.7293,W,1,7,2.2,18,M,,M,,*52
05/28/2014	00:03:15.986	$GPGGA,000316,2543.8840,N,08009.7292,W,1,7,2.2,18,M,,M,,*51
05/28/2014	00:03:16.967	$GPGGA,000317,2543.8841,N,08009.7292,W,1,7,2.2,18,M,,M,,*51
05/28/2014	00:03:17.988	$GPGGA,000318,2543.8839,N,08009.7291,W,1,7,2.2,18,M,,M,,*52
05/28/2014	00:03:18.988	$GPGGA,000319,2543.8839,N,08009.7291,W,1,7,2.2,18,M,,M,,*53
05/28/2014	00:03:20.019	$GPGGA,000320,2543.8839,N,08009.7291,W,1,7,2.2,18,M,,M,,*59
05/28/2014	00:03:21.040	$GPGGA,000321,2543.8839,N,08009.7291,W,1,7,2.2,18,M,,M,,*58
05/28/2014	00:03:22.031	$GPGGA,000322,2543.8839,N,08009.7290,W,1,7,2.2,18,M,,M,,*5A
05/28/2014	00:03:23.062	$GPGGA,000323,2543.8839,N,08009.7290,W,1,7,2.2,18,M,,M,,*5B
05/28/2014	00:03:24.052	$GPGGA,000324,2543.8839,N,08009.7290,W,1,7,2.2,18,M,,M,,*5C
05/28/2014	00:03:25.073	$GPGGA,000325,2543.8839,N,08009.7290,W,1,7,2.2,18,M,,M,,*5D
05/28/2014	00:03:26.054	$GPGGA,000326,2543.8837,N,08009.7289,W,1,7,2.2,18,M,,M,,*58
05/28/2014	00:03:27.095	$GPGGA,000327,2543.8838,N,08009.7290,W,1,7,2.2,18,M,,M,,*5E
05/28/2014	00:03:28.085	$GPGGA,000328,2543.8837,N,08009.7289,W,1,7,2.2,18,M,,M,,*56
05/28/2014	00:03:29.106	$GPGGA,000329,2543.8838,N,08009.7290,W,1,7,2.2,18,M,,M,,*50
05/28/2014	00:03:30.095	$GPGGA,000330,2543.8837,N,08009.7289,W,1,7,2.2,18,M,,M,,*5F
05/28/2014	00:03:31.110	$GPGGA,000331,2543.8838,N,08009.7290,W,1,7,2.2,18,M,,M,,*59
05/28/2014	00:03:32.167	$GPGGA,000332,2543.8837,N,08009.7289,W,1,7,2.2,18,M,,M,,*5D
05/28/2014	00:03:33.121	$GPGGA,000333,2543.8838,N,08009.7290,W,1,7,2.2,18,M,,M,,*5B
05/28/2014	00:03:34.097	$GPGGA,000334,2543.8836,N,08009.7289,W,1,7,2.2,18,M,,M,,*5A
05/28/2014	00:03:35.132	$GPGGA,000335,2543.8837,N,08009.7290,W,1,7,2.2,18,M,,M,,*52
05/28/2014	00:03:36.129	$GPGGA,000336,2543.8838,N,08009.7290,W,1,7,2.2,18,M,,M,,*5E
05/28/2014	00:03:37.185	$GPGGA,000337,2543.8837,N,08009.7290,W,1,7,2.2,18,M,,M,,*50
05/28/2014	00:03:38.149	$GPGGA,000338,2543.8836,N,08009.7290,W,1,7,2.2,18,M,,M,,*5E
05/28/2014	00:03:38.608	$GPGGA,000339,2543.8838,N,08009.7290,W,1,7,2.2,18,M,,M,,*51
05/28/2014	00:03:39.543	$GPGGA,000340,2543.8837,N,08009.7290,W,1,7,2.2,18,M,,M,,*50
05/28/2014	00:03:40.608	$GPGGA,000341,2543.8838,N,08009.7290,W,1,7,2.2,18,M,,M,,*5E
05/28/2014	00:03:41.533	$GPGGA,000342,2543.8836,N,08009.7290,W,1,7,2.2,18,M,,M,,*53
05/28/2014	00:03:42.529	$GPGGA,000343,2543.8837,N,08009.7291,W,1,7,2.2,18,M,,M,,*52
05/28/2014	00:03:43.655	$GPGGA,000344,2543.8838,N,08009.7291,W,1,7,2.2,18,M,,M,,*5A
05/28/2014	00:03:44.640	$GPGGA,000345,2543.8837,N,08009.7291,W,1,7,2.2,18,M,,M,,*54
05/28/2014	00:03:45.636	$GPGGA,000346,2543.8838,N,08009.7291,W,1,7,2.2,18,M,,M,,*58
05/28/2014	00:03:46.671	$GPGGA,000347,2543.8837,N,08009.7291,W,1,7,2.2,18,M,,M,,*56
05/28/2014	00:03:47.576	$GPGGA,000348,2543.8838,N,08009.7291,W,1,7,2.2,18,M,,M,,*56
05/28/2014	00:03:48.552	$GPGGA,000349,2543.8837,N,08009.7291,W,1,7,2.2,18,M,,M,,*58
05/28/2014	00:03:49.648	$GPGGA,000350,2543.8839,N,08009.7290,W,1,7,2.2,18,M,,M,,*5F
05/28/2014	00:03:50.653	$GPGGA,000351,2543.8839,N,08009.7291,W,1,7,2.2,18,M,,M,,*5F
05/28/2014	00:03:51.659	$GPGGA,000352,2543.8839,N,08009.7291,W,1,7,2.2,18,M,,M,,*5C
05/28/2014	00:03:52.704	$GPGGA,000353,2543.8839,N,08009.7291,W,1,7,2.2,18,M,,M,,*5D
05/28/2014	00:03:53.661	$GPGGA,000354,2543.8839,N,08009.7291,W,1,7,2.0,18,M,,M,,*58
05/28/2014	00:03:54.685	$GPGGA,000355,2543.8839,N,08009.7290,W,1,8,2.0,18,M,,M,,*57
05/28/2014	00:03:55.681	$GPGGA,000356,2543.8837,N,08009.7290,W,1,8,2.0,18,M,,M,,*5A
05/28/2014	00:03:56.687	$GPGGA,000357,2543.8838,N,08009.7290,W,1,8,2.0,18,M,,M,,*54
05/28/2014	00:03:57.682	$GPGGA,000358,2543.8836,N,08009.7289,W,1,8,2.0,17,M,,M,,*52
05/28/2014	00:03:58.666	$GPGGA,000359,2543.8837,N,08009.7290,W,1,8,2.0,17,M,,M,,*5A
05/28/2014	00:03:59.722	$GPGGA,000400,2543.8836,N,08009.7289,W,1,8,2.0,17,M,,M,,*58
05/28/2014	00:04:00.707	$GPGGA,000401,2543.8835,N,08009.7290,W,1,8,2.0,17,M,,M,,*52
05/28/2014	00:04:01.693	$GPGGA,000402,2543.8835,N,08009.7289,W,1,8,2.0,18,M,,M,,*56
05/28/2014	00:04:02.708	$GPGGA,000403,2543.8835,N,08009.7290,W,1,8,2.0,18,M,,M,,*5F
05/28/2014	00:04:03.714	$GPGGA,000404,2543.8835,N,08009.7290,W,1,8,2.0,18,M,,M,,*58
05/28/2014	00:04:04.699	$GPGGA,000405,2543.8835,N,08009.7290,W,1,8,2.0,18,M,,M,,*59
05/28/2014	00:04:05.694	$GPGGA,000406,2543.8833,N,08009.7290,W,1,8,2.0,18,M,,M,,*5C
05/28/2014	00:04:06.700	$GPGGA,000407,2543.8834,N,08009.7290,W,1,8,2.0,18,M,,M,,*5A
05/28/2014	00:04:07.726	$GPGGA,000408,2543.8833,N,08009.7290,W,1,8,2.0,18,M,,M,,*52
05/28/2014	00:04:08.751	$GPGGA,000409,2543.8834,N,08009.7290,W,1,8,2.0,18,M,,M,,*54
05/28/2014	00:04:09.706	$GPGGA,000410,2543.8833,N,08009.7290,W,1,8,2.0,18,M,,M,,*5B
05/28/2014	00:04:10.742	$GPGGA,000411,2543.8834,N,08009.7290,W,1,8,2.0,18,M,,M,,*5D
05/28/2014	00:04:11.727	$GPGGA,000412,2543.8833,N,08009.7290,W,1,8,2.0,18,M,,M,,*59
05/28/2014	00:04:12.713	$GPGGA,000413,2543.8834,N,08009.7291,W,1,8,2.0,18,M,,M,,*5E
05/28/2014	00:04:13.738	$GPGGA,000414,2543.8833,N,08009.7290,W,1,8,2.0,18,M,,M,,*5F
05/28/2014	00:04:14.754	$GPGGA,000415,2543.8832,N,08009.7290,W,1,8,2.0,18,M,,M,,*5F
05/28/2014	00:04:15.749	$GPGGA,000416,2543.8833,N,08009.7290,W,1,8,2.0,18,M,,M,,*5D
05/28/2014	00:04:16.744	$GPGGA,000417,2543.8832,N,08009.7290,W,1,8,2.0,18,M,,M,,*5D
05/28/2014	00:04:17.860	$GPGGA,000418,2543.8833,N,08009.7289,W,1,8,2.0,18,M,,M,,*5B
05/28/2014	00:04:18.755	$GPGGA,000419,2543.8831,N,08009.7290,W,1,8,2.0,18,M,,M,,*50
05/28/2014	00:04:19.770	$GPGGA,000420,2543.8831,N,08009.7289,W,1,8,2.0,18,M,,M,,*52
05/28/2014	00:04:20.877	$GPGGA,000421,2543.8830,N,08009.7288,W,1,8,2.0,18,M,,M,,*53
05/28/2014	00:04:21.761	$GPGGA,000422,2543.8831,N,08009.7288,W,1,8,2.0,18,M,,M,,*51
05/28/2014	00:04:22.767	$GPGGA,000423,2543.8830,N,08009.7288,W,1,8,2.0,18,M,,M,,*51
05/28/2014	00:04:23.893	$GPGGA,000424,2543.8831,N,08009.7288,W,1,8,2.0,18,M,,M,,*57
05/28/2014	00:04:24.768	$GPGGA,000425,2543.8830,N,08009.7288,W,1,8,2.0,18,M,,M,,*57
05/28/2014	00:04:25.864	$GPGGA,000426,2543.8831,N,08009.7288,W,1,8,2.0,18,M,,M,,*55
05/28/2014	00:04:26.769	$GPGGA,000427,2543.8830,N,08009.7288,W,1,8,2.0,18,M,,M,,*55
05/28/2014	00:04:27.905	$GPGGA,000428,2543.8831,N,08009.7288,W,1,8,2.0,18,M,,M,,*5B
05/28/2014	00:04:28.910	$GPGGA,000429,2543.8831,N,08009.7288,W,1,8,2.0,18,M,,M,,*5A
05/28/2014	00:04:29.876	$GPGGA,000430,2543.8833,N,08009.7290,W,1,8,2.0,18,M,,M,,*59
05/28/2014	00:04:30.791	$GPGGA,000431,2543.8832,N,08009.7289,W,1,8,2.0,18,M,,M,,*51
05/28/2014	00:04:31.917	$GPGGA,000432,2543.8834,N,08009.7290,W,1,8,2.0,18,M,,M,,*5C
05/28/2014	00:04:32.803	$GPGGA,000433,2543.8833,N,08009.7288,W,1,8,2.0,18,M,,M,,*53
05/28/2014	00:04:33.898	$GPGGA,000434,2543.8835,N,08009.7290,W,1,8,2.0,18,M,,M,,*5B
05/28/2014	00:04:34.893	$GPGGA,000435,2543.8835,N,08009.7289,W,1,8,2.0,18,M,,M,,*52
05/28/2014	00:04:35.918	$GPGGA,000436,2543.8835,N,08009.7290,W,1,8,2.0,18,M,,M,,*59
05/28/2014	00:04:36.943	$GPGGA,000437,2543.8835,N,08009.7289,W,1,8,2.0,18,M,,M,,*50
05/28/2014	00:04:37.591	$GPGGA,000438,2543.8837,N,08009.7290,W,1,8,2.0,18,M,,M,,*55
05/28/2014	00:04:38.596	$GPGGA,000439,2543.8836,N,08009.7289,W,1,8,2.0,18,M,,M,,*5D
05/28/2014	00:04:39.603	$GPGGA,000440,2543.8837,N,08009.7290,W,1,8,2.0,18,M,,M,,*5A
05/28/2014	00:04:40.607	$GPGGA,000441,2543.8838,N,08009.7289,W,1,8,2.0,18,M,,M,,*5C
05/28/2014	00:04:41.593	$GPGGA,000442,2543.8837,N,08009.7290,W,1,8,2.0,18,M,,M,,*58
05/28/2014	00:04:42.598	$GPGGA,000443,2543.8838,N,08009.7290,W,1,8,2.0,18,M,,M,,*56
05/28/2014	00:04:43.614	$GPGGA,000444,2543.8839,N,08009.7290,W,1,8,2.2,18,M,,M,,*52
05/28/2014	00:04:44.600	$GPGGA,000445,2543.8839,N,08009.7290,W,1,7,2.2,18,M,,M,,*5C
05/28/2014	00:04:45.626	$GPGGA,000446,2543.8841,N,08009.7290,W,1,7,2.7,18,M,,M,,*55
05/28/2014	00:04:46.610	$GPGGA,000447,2543.8840,N,08009.7290,W,1,7,2.7,17,M,,M,,*5A
05/28/2014	00:04:47.616	$GPGGA,000448,2543.8842,N,08009.7290,W,1,7,2.7,17,M,,M,,*57
05/28/2014	00:04:48.611	$GPGGA,000449,2543.8842,N,08009.7290,W,1,7,2.7,17,M,,M,,*56
05/28/2014	00:04:49.627	$GPGGA,000450,2543.8839,N,08009.7289,W,1,7,2.7,17,M,,M,,*5A
05/28/2014	00:04:50.621	$GPGGA,000451,2543.8839,N,08009.7290,W,1,7,2.2,17,M,,M,,*56
05/28/2014	00:04:51.637	$GPGGA,000452,2543.8839,N,08009.7289,W,1,7,2.7,17,M,,M,,*58
05/28/2014	00:04:52.652	$GPGGA,000453,2543.8835,N,08009.7290,W,1,7,2.2,17,M,,M,,*58
05/28/2014	00:04:53.648	$GPGGA,000454,2543.8837,N,08009.7289,W,1,7,2.2,17,M,,M,,*55
05/28/2014	00:04:54.653	$GPGGA,000455,2543.8836,N,08009.7288,W,1,7,2.2,17,M,,M,,*54
05/28/2014	00:04:55.649	$GPGGA,000456,2543.8838,N,08009.7288,W,1,7,2.2,17,M,,M,,*59
05/28/2014	00:04:56.634	$GPGGA,000457,2543.8839,N,08009.7288,W,1,7,2.6,17,M,,M,,*5D
05/28/2014	00:04:57.661	$GPGGA,000458,2543.8839,N,08009.7288,W,1,7,2.6,17,M,,M,,*52
05/28/2014	00:04:58.685	$GPGGA,000459,2543.8841,N,08009.7288,W,1,7,2.6,17,M,,M,,*5C
05/28/2014	00:04:59.691	$GPGGA,000500,2543.8842,N,08009.7288,W,1,7,2.6,17,M,,M,,*52
05/28/2014	00:05:00.686	$GPGGA,000501,2543.8839,N,08009.7288,W,1,7,2.6,17,M,,M,,*5F
05/28/2014	00:05:01.661	$GPGGA,000502,2543.8841,N,08009.7288,W,1,7,2.2,16,M,,M,,*56
05/28/2014	00:05:02.667	$GPGGA,000503,2543.8842,N,08009.7288,W,1,7,2.6,16,M,,M,,*50
05/28/2014	00:05:03.682	$GPGGA,000504,2543.8842,N,08009.7288,W,1,7,2.6,16,M,,M,,*57
05/28/2014	00:05:04.668	$GPGGA,000505,2543.8842,N,08009.7288,W,1,7,2.2,16,M,,M,,*52
05/28/2014	00:05:05.693	$GPGGA,000506,2543.8844,N,08009.7287,W,1,7,2.6,16,M,,M,,*5C
05/28/2014	00:05:06.689	$GPGGA,000507,2543.8843,N,08009.7287,W,1,7,2.6,16,M,,M,,*5A
05/28/2014	00:05:07.694	$GPGGA,000508,2543.8844,N,08009.7287,W,1,7,2.6,16,M,,M,,*52
05/28/2014	00:05:08.709	$GPGGA,000509,2543.8845,N,08009.7287,W,1,7,2.6,15,M,,M,,*51
05/28/2014	00:05:09.694	$GPGGA,000510,2543.8844,N,08009.7287,W,1,7,2.6,15,M,,M,,*58
05/28/2014	00:05:10.800	$GPGGA,000511,2543.8845,N,08009.7287,W,1,7,2.6,15,M,,M,,*58
05/28/2014	00:05:11.715	$GPGGA,000512,2543.8844,N,08009.7287,W,1,7,2.6,15,M,,M,,*5A
05/28/2014	00:05:12.701	$GPGGA,000513,2543.8845,N,08009.7286,W,1,7,2.6,15,M,,M,,*5B
05/28/2014	00:05:13.797	$GPGGA,000514,2543.8844,N,08009.7287,W,1,7,2.6,14,M,,M,,*5D
05/28/2014	00:05:14.712	$GPGGA,000515,2543.8845,N,08009.7286,W,1,7,2.6,14,M,,M,,*5C
05/28/2014	00:05:15.838	$GPGGA,000516,2543.8844,N,08009.7287,W,1,7,2.6,14,M,,M,,*5F
05/28/2014	00:05:16.703	$GPGGA,000517,2543.8845,N,08009.7286,W,1,7,2.6,14,M,,M,,*5E
05/28/2014	00:05:17.809	$GPGGA,000518,2543.8844,N,08009.7285,W,1,7,2.6,14,M,,M,,*53
05/28/2014	00:05:18.844	$GPGGA,000519,2543.8845,N,08009.7285,W,1,7,2.6,14,M,,M,,*53
05/28/2014	00:05:19.739	$GPGGA,000520,2543.8844,N,08009.7285,W,1,7,2.6,13,M,,M,,*5F
05/28/2014	00:05:20.825	$GPGGA,000521,2543.8845,N,08009.7285,W,1,7,2.6,13,M,,M,,*5F
05/28/2014	00:05:21.831	$GPGGA,000522,2543.8844,N,08009.7285,W,1,7,2.6,13,M,,M,,*5D
05/28/2014	00:05:22.746	$GPGGA,000523,2543.8845,N,08009.7285,W,1,7,2.6,13,M,,M,,*5D
05/28/2014	00:05:23.842	$GPGGA,000524,2543.8843,N,08009.7285,W,1,7,2.6,13,M,,M,,*5C
05/28/2014	00:05:24.747	$GPGGA,000525,2543.8844,N,08009.7287,W,1,7,2.6,13,M,,M,,*58
05/28/2014	00:05:25.842	$GPGGA,000526,2543.8843,N,08009.7286,W,1,7,2.6,12,M,,M,,*5C
05/28/2014	00:05:26.867	$GPGGA,000527,2543.8844,N,08009.7287,W,1,7,2.6,12,M,,M,,*5B
05/28/2014	00:05:27.883	$GPGGA,000528,2543.8845,N,08009.7285,W,1,7,2.6,12,M,,M,,*57
05/28/2014	00:05:28.868	$GPGGA,000529,2543.8844,N,08009.7287,W,1,7,2.6,12,M,,M,,*55
05/28/2014	00:05:29.854	$GPGGA,000530,2543.8845,N,08009.7285,W,1,7,2.6,12,M,,M,,*5E
05/28/2014	00:05:30.869	$GPGGA,000531,2543.8844,N,08009.7285,W,1,7,2.6,12,M,,M,,*5E
05/28/2014	00:05:31.875	$GPGGA,000532,2543.8845,N,08009.7285,W,1,7,2.6,12,M,,M,,*5C
05/28/2014	00:05:32.900	$GPGGA,000533,2543.8844,N,08009.7285,W,1,7,2.6,12,M,,M,,*5C
05/28/2014	00:05:33.865	$GPGGA,000534,2543.8845,N,08009.7285,W,1,7,2.6,12,M,,M,,*5A
05/28/2014	00:05:34.890	$GPGGA,000535,2543.8844,N,08009.7285,W,1,7,2.6,12,M,,M,,*5A
05/28/2014	00:05:35.885	$GPGGA,000536,2543.8846,N,08009.7285,W,1,7,2.6,12,M,,M,,*5B
05/28/2014	00:05:36.892	$GPGGA,000537,2543.8846,N,08009.7285,W,1,7,2.6,11,M,,M,,*59
05/28/2014	00:05:37.597	$GPGGA,000538,2543.8846,N,08009.7285,W,1,7,2.6,11,M,,M,,*56
05/28/2014	00:05:38.573	$GPGGA,000539,2543.8846,N,08009.7287,W,1,7,2.6,11,M,,M,,*55
05/28/2014	00:05:39.568	$GPGGA,000540,2543.8846,N,08009.7285,W,1,7,2.6,11,M,,M,,*59
05/28/2014	00:05:40.553	$GPGGA,000541,2543.8846,N,08009.7285,W,1,7,2.6,11,M,,M,,*58
05/28/2014	00:05:41.558	$GPGGA,000542,2543.8846,N,08009.7285,W,1,7,2.6,11,M,,M,,*5B
05/28/2014	00:05:42.593	$GPGGA,000543,2543.8846,N,08009.7287,W,1,7,2.6,11,M,,M,,*58
05/28/2014	00:05:43.576	$GPGGA,000544,2543.8848,N,08009.7286,W,1,7,2.6,11,M,,M,,*50
05/28/2014	00:05:44.571	$GPGGA,000545,2543.8847,N,08009.7287,W,1,7,2.6,11,M,,M,,*5F
05/28/2014	00:05:45.576	$GPGGA,000546,2543.8848,N,08009.7287,W,1,7,2.6,11,M,,M,,*53
05/28/2014	00:05:46.581	$GPGGA,000547,2543.8847,N,08009.7288,W,1,7,2.6,11,M,,M,,*52
05/28/2014	00:05:47.595	$GPGGA,000548,2543.8848,N,08009.7288,W,1,7,2.6,11,M,,M,,*52
05/28/2014	00:05:48.610	$GPGGA,000549,2543.8849,N,08009.7290,W,1,7,2.6,11,M,,M,,*5B
05/28/2014	00:05:49.585	$GPGGA,000550,2543.8848,N,08009.7289,W,1,7,2.6,11,M,,M,,*5A
05/28/2014	00:05:50.621	$GPGGA,000551,2543.8849,N,08009.7290,W,1,7,2.6,11,M,,M,,*52
05/28/2014	00:05:51.605	$GPGGA,000552,2543.8848,N,08009.7289,W,1,7,2.6,11,M,,M,,*58
05/28/2014	00:05:52.589	$GPGGA,000553,2543.8849,N,08009.7290,W,1,7,2.6,11,M,,M,,*50
05/28/2014	00:05:53.594	$GPGGA,000554,2543.8848,N,08009.7289,W,1,7,2.6,11,M,,M,,*5E
05/28/2014	00:05:54.599	$GPGGA,000555,2543.8849,N,08009.7290,W,1,7,2.6,10,M,,M,,*57
05/28/2014	00:05:55.625	$GPGGA,000556,2543.8849,N,08009.7290,W,1,7,2.6,10,M,,M,,*54
05/28/2014	00:05:56.639	$GPGGA,000557,2543.8849,N,08009.7290,W,1,7,2.6,10,M,,M,,*55
05/28/2014	00:05:57.603	$GPGGA,000558,2543.8849,N,08009.7289,W,1,7,2.6,10,M,,M,,*52
05/28/2014	00:05:58.618	$GPGGA,000559,2543.8849,N,08009.7290,W,1,7,2.6,10,M,,M,,*5B
05/28/2014	00:05:59.794	$GPGGA,000600,2543.8849,N,08009.7290,W,1,7,2.6,10,M,,M,,*54
05/28/2014	00:06:00.757	$GPGGA,000601,2543.8849,N,08009.7290,W,1,7,2.6,10,M,,M,,*55
05/28/2014	00:06:01.782	$GPGGA,000602,2543.8849,N,08009.7290,W,1,7,2.6,10,M,,M,,*56
05/28/2014	00:06:02.777	$GPGGA,000603,2543.8850,N,08009.7290,W,1,7,2.6,10,M,,M,,*5F
05/28/2014	00:06:03.631	$GPGGA,000604,2543.8850,N,08009.7290,W,1,7,2.6,10,M,,M,,*58
05/28/2014	00:06:04.798	$GPGGA,000605,2543.8850,N,08009.7289,W,1,7,2.6,10,M,,M,,*51
05/28/2014	00:06:05.621	$GPGGA,000606,2543.8850,N,08009.7290,W,1,7,2.6,10,M,,M,,*5A
05/28/2014	00:06:06.796	$GPGGA,000607,2543.8850,N,08009.7290,W,1,7,2.6,10,M,,M,,*5B
05/28/2014	00:06:07.741	$GPGGA,000608,2543.8850,N,08009.7290,W,1,7,2.6,10,M,,M,,*54
05/28/2014	00:06:08.806	$GPGGA,000609,2543.8850,N,08009.7290,W,1,7,2.6,10,M,,M,,*55
05/28/2014	00:06:09.650	$GPGGA,000610,2543.8850,N,08009.7290,W,1,7,2.6,10,M,,M,,*5D
05/28/2014	00:06:10.775	$GPGGA,000611,2543.8850,N,08009.7290,W,1,7,2.6,10,M,,M,,*5C
05/28/2014	00:06:11.830	$GPGGA,000612,2543.8850,N,08009.7291,W,1,7,2.6,10,M,,M,,*5E
05/28/2014	00:06:12.775	$GPGGA,000613,2543.8850,N,08009.7291,W,1,7,2.6,10,M,,M,,*5F
05/28/2014	00:06:13.750	$GPGGA,000614,2543.8850,N,08009.7292,W,1,7,2.6,10,M,,M,,*5B
05/28/2014	00:06:14.804	$GPGGA,000615,2543.8850,N,08009.7292,W,1,7,2.6,10,M,,M,,*5A
05/28/2014	00:06:15.760	$GPGGA,000616,2543.8850,N,08009.7294,W,1,7,2.6,10,M,,M,,*5F
05/28/2014	00:06:16.804	$GPGGA,000617,2543.8850,N,08009.7293,W,1,7,2.6,10,M,,M,,*59
05/28/2014	00:06:17.759	$GPGGA,000618,2543.8850,N,08009.7294,W,1,7,2.6,10,M,,M,,*51
05/28/2014	00:06:18.813	$GPGGA,000619,2543.8850,N,08009.7295,W,1,7,2.6,9,M,,M,,*69
05/28/2014	00:06:19.838	$GPGGA,000620,2543.8850,N,08009.7295,W,1,7,2.6,9,M,,M,,*63
05/28/2014	00:06:20.822	$GPGGA,000621,2543.8850,N,08009.7295,W,1,7,2.6,9,M,,M,,*62
05/28/2014	00:06:21.817	$GPGGA,000622,2543.8850,N,08009.7295,W,1,7,2.6,9,M,,M,,*61
05/28/2014	00:06:22.812	$GPGGA,000623,2543.8850,N,08009.7296,W,1,7,2.6,9,M,,M,,*63
05/28/2014	00:06:23.786	$GPGGA,000624,2543.8849,N,08009.7293,W,1,7,2.6,9,M,,M,,*69
05/28/2014	00:06:24.811	$GPGGA,000625,2543.8848,N,08009.7292,W,1,8,1.7,9,M,,M,,*65
05/28/2014	00:06:25.826	$GPGGA,000626,2543.8849,N,08009.7290,W,1,8,1.7,9,M,,M,,*65
05/28/2014	00:06:26.832	$GPGGA,000627,2543.8848,N,08009.7289,W,1,9,1.7,10,M,,M,,*54
05/28/2014	00:06:27.886	$GPGGA,000628,2543.8847,N,08009.7288,W,1,9,1.7,10,M,,M,,*55
05/28/2014	00:06:28.810	$GPGGA,000629,2543.8848,N,08009.7287,W,1,9,1.7,10,M,,M,,*54
05/28/2014	00:06:29.845	$GPGGA,000630,2543.8846,N,08009.7287,W,1,9,1.7,10,M,,M,,*52
05/28/2014	00:06:30.850	$GPGGA,000631,2543.8846,N,08009.7286,W,1,9,1.7,10,M,,M,,*52
05/28/2014	00:06:31.805	$GPGGA,000632,2543.8846,N,08009.7284,W,1,9,1.7,10,M,,M,,*53
05/28/2014	00:06:32.790	$GPGGA,000633,2543.8844,N,08009.7283,W,1,9,1.7,10,M,,M,,*57
05/28/2014	00:06:33.865	$GPGGA,000634,2543.8843,N,08009.7280,W,1,9,1.7,11,M,,M,,*55
05/28/2014	00:06:34.851	$GPGGA,000635,2543.8842,N,08009.7278,W,1,9,1.7,11,M,,M,,*52
05/28/2014	00:06:35.873	$GPGGA,000636,2543.8842,N,08009.7277,W,1,9,1.7,11,M,,M,,*5E
05/28/2014	00:06:36.798	$GPGGA,000637,2543.8842,N,08009.7275,W,1,9,1.7,11,M,,M,,*5D
05/28/2014	00:06:37.594	$GPGGA,000638,2543.8842,N,08009.7273,W,1,9,1.7,12,M,,M,,*57
05/28/2014	00:06:38.571	$GPGGA,000639,2543.8840,N,08009.7272,W,1,9,1.7,12,M,,M,,*55
05/28/2014	00:06:39.536	$GPGGA,000640,2543.8841,N,08009.7270,W,1,9,1.7,12,M,,M,,*58
05/28/2014	00:06:40.661	$GPGGA,000641,2543.8839,N,08009.7269,W,1,9,1.7,12,M,,M,,*5E
05/28/2014	00:06:41.596	$GPGGA,000642,2543.8839,N,08009.7268,W,1,9,1.7,13,M,,M,,*5D
05/28/2014	00:06:42.570	$GPGGA,000643,2543.8839,N,08009.7267,W,1,9,1.7,13,M,,M,,*53
05/28/2014	00:06:43.606	$GPGGA,000644,2543.8839,N,08009.7264,W,1,9,1.7,13,M,,M,,*57
05/28/2014	00:06:44.660	$GPGGA,000645,2543.8839,N,08009.7263,W,1,9,1.7,14,M,,M,,*56
05/28/2014	00:06:45.545	$GPGGA,000646,2543.8839,N,08009.7263,W,1,9,1.7,14,M,,M,,*55
05/28/2014	00:06:46.670	$GPGGA,000647,2543.8837,N,08009.7262,W,1,9,1.7,14,M,,M,,*5B
05/28/2014	00:06:47.564	$GPGGA,000648,2543.8838,N,08009.7262,W,1,9,1.7,14,M,,M,,*5B
05/28/2014	00:06:48.559	$GPGGA,000649,2543.8837,N,08009.7261,W,1,9,1.7,15,M,,M,,*57
05/28/2014	00:06:49.654	$GPGGA,000650,2543.8836,N,08009.7265,W,1,9,2.1,15,M,,M,,*5F
05/28/2014	00:06:50.679	$GPGGA,000651,2543.8839,N,08009.7267,W,1,8,2.6,16,M,,M,,*56
05/28/2014	00:06:51.573	$GPGGA,000652,2543.8839,N,08009.7270,W,1,8,2.6,16,M,,M,,*53
05/28/2014	00:06:52.598	$GPGGA,000653,2543.8841,N,08009.7273,W,1,8,2.1,16,M,,M,,*59
05/28/2014	00:06:53.662	$GPGGA,000654,2543.8840,N,08009.7276,W,1,8,2.1,16,M,,M,,*5A
05/28/2014	00:06:56.144	$GPGGA,000656,2543.8842,N,08009.7280,W,1,8,2.6,16,M,,M,,*54
05/28/2014	00:06:56.697	$GPGGA,000657,2543.8844,N,08009.7281,W,1,7,2.6,16,M,,M,,*5D
05/28/2014	00:06:57.702	$GPGGA,000658,2543.8845,N,08009.7283,W,1,7,2.6,16,M,,M,,*51
05/28/2014	00:06:58.686	$GPGGA,000659,2543.8844,N,08009.7284,W,1,7,2.6,16,M,,M,,*56
05/28/2014	00:06:59.682	$GPGGA,000700,2543.8846,N,08009.7285,W,1,7,2.6,16,M,,M,,*58
05/28/2014	00:07:00.686	$GPGGA,000701,2543.8842,N,08009.7285,W,1,7,2.1,16,M,,M,,*5A
05/28/2014	00:07:01.691	$GPGGA,000702,2543.8844,N,08009.7287,W,1,7,2.6,16,M,,M,,*5A
05/28/2014	00:07:02.696	$GPGGA,000703,2543.8843,N,08009.7288,W,1,7,2.6,16,M,,M,,*53
05/28/2014	00:07:03.710	$GPGGA,000704,2543.8845,N,08009.7290,W,1,7,2.6,16,M,,M,,*5B
05/28/2014	00:07:04.725	$GPGGA,000705,2543.8846,N,08009.7290,W,1,7,2.6,15,M,,M,,*5A
05/28/2014	00:07:05.700	$GPGGA,000706,2543.8846,N,08009.7291,W,1,7,2.6,15,M,,M,,*58
05/28/2014	00:07:06.727	$GPGGA,000707,2543.8846,N,08009.7291,W,1,7,2.6,15,M,,M,,*59
05/28/2014	00:07:07.720	$GPGGA,000708,2543.8846,N,08009.7292,W,1,7,2.6,15,M,,M,,*55
05/28/2014	00:07:08.735	$GPGGA,000709,2543.8846,N,08009.7294,W,1,7,2.6,15,M,,M,,*52
05/28/2014	00:07:09.709	$GPGGA,000710,2543.8846,N,08009.7293,W,1,7,2.6,15,M,,M,,*5D
05/28/2014	00:07:10.763	$GPGGA,000711,2543.8848,N,08009.7294,W,1,7,2.6,14,M,,M,,*54
05/28/2014	00:07:11.738	$GPGGA,000712,2543.8847,N,08009.7295,W,1,7,2.6,14,M,,M,,*59
05/28/2014	00:07:12.713	$GPGGA,000713,2543.8848,N,08009.7295,W,1,7,2.6,14,M,,M,,*57
05/28/2014	00:07:13.728	$GPGGA,000714,2543.8847,N,08009.7296,W,1,7,2.6,14,M,,M,,*5C
05/28/2014	00:07:14.742	$GPGGA,000715,2543.8848,N,08009.7296,W,1,7,2.6,13,M,,M,,*55
05/28/2014	00:07:15.737	$GPGGA,000716,2543.8848,N,08009.7296,W,1,7,2.6,13,M,,M,,*56
05/28/2014	00:07:16.752	$GPGGA,000717,2543.8849,N,08009.7297,W,1,7,2.6,13,M,,M,,*57
05/28/2014	00:07:17.757	$GPGGA,000718,2543.8848,N,08009.7298,W,1,7,2.6,13,M,,M,,*56
05/28/2014	00:07:18.741	$GPGGA,000719,2543.8849,N,08009.7297,W,1,7,2.6,13,M,,M,,*59
05/28/2014	00:07:19.756	$GPGGA,000720,2543.8848,N,08009.7298,W,1,7,2.6,12,M,,M,,*5C
05/28/2014	00:07:20.751	$GPGGA,000721,2543.8849,N,08009.7297,W,1,7,2.6,12,M,,M,,*53
05/28/2014	00:07:21.756	$GPGGA,000722,2543.8846,N,08009.7287,W,1,7,2.0,12,M,,M,,*58
05/28/2014	00:07:22.750	$GPGGA,000723,2543.8846,N,08009.7288,W,1,8,2.6,12,M,,M,,*5F
05/28/2014	00:07:23.765	$GPGGA,000724,2543.8843,N,08009.7283,W,1,8,2.6,12,M,,M,,*56
05/28/2014	00:07:24.771	$GPGGA,000725,2543.8842,N,08009.7277,W,1,8,2.0,12,M,,M,,*5B
05/28/2014	00:07:25.785	$GPGGA,000726,2543.8840,N,08009.7272,W,1,8,2.0,13,M,,M,,*5E
05/28/2014	00:07:26.780	$GPGGA,000727,2543.8839,N,08009.7267,W,1,8,2.0,13,M,,M,,*55
05/28/2014	00:07:27.895	$GPGGA,000728,2543.8837,N,08009.7263,W,1,8,2.0,13,M,,M,,*50
05/28/2014	00:07:28.768	$GPGGA,000729,2543.8836,N,08009.7259,W,1,8,2.0,13,M,,M,,*59
05/28/2014	00:07:29.894	$GPGGA,000730,2543.8835,N,08009.7256,W,1,8,2.0,14,M,,M,,*5A
05/28/2014	00:07:30.778	$GPGGA,000731,2543.8835,N,08009.7253,W,1,8,2.0,14,M,,M,,*5E
05/28/2014	00:07:31.813	$GPGGA,000732,2543.8835,N,08009.7253,W,1,8,2.0,15,M,,M,,*5C
05/28/2014	00:07:32.777	$GPGGA,000733,2543.8834,N,08009.7248,W,1,8,2.0,16,M,,M,,*55
05/28/2014	00:07:33.873	$GPGGA,000734,2543.8833,N,08009.7246,W,1,8,2.0,16,M,,M,,*5B
05/28/2014	00:07:34.777	$GPGGA,000735,2543.8832,N,08009.7244,W,1,8,2.0,16,M,,M,,*59
05/28/2014	00:07:35.912	$GPGGA,000736,2543.8833,N,08009.7242,W,1,8,2.0,17,M,,M,,*5C
05/28/2014	00:07:36.797	$GPGGA,000737,2543.8832,N,08009.7240,W,1,8,2.0,17,M,,M,,*5E
05/28/2014	00:07:37.831	$GPGGA,000738,2543.8833,N,08009.7239,W,1,8,2.0,18,M,,M,,*51
05/28/2014	00:07:38.631	$GPGGA,000739,2543.8831,N,08009.7238,W,1,8,2.0,18,M,,M,,*53
05/28/2014	00:07:39.535	$GPGGA,000740,2543.8831,N,08009.7238,W,1,8,2.0,19,M,,M,,*5C
05/28/2014	00:07:40.610	$GPGGA,000741,2543.8831,N,08009.7234,W,1,8,2.0,19,M,,M,,*51
05/28/2014	00:07:41.615	$GPGGA,000742,2543.8830,N,08009.7234,W,1,8,1.7,20,M,,M,,*5D
05/28/2014	00:07:42.641	$GPGGA,000743,2543.8829,N,08009.7236,W,1,8,1.7,20,M,,M,,*56
05/28/2014	00:07:43.565	$GPGGA,000744,2543.8829,N,08009.7236,W,1,8,1.7,21,M,,M,,*50
05/28/2014	00:07:44.609	$GPGGA,000745,2543.8828,N,08009.7236,W,1,8,1.7,21,M,,M,,*50
05/28/2014	00:07:45.613	$GPGGA,000746,2543.8826,N,08009.7236,W,1,8,1.7,22,M,,M,,*5E
05/28/2014	00:07:46.638	$GPGGA,000747,2543.8827,N,08009.7235,W,1,8,1.7,22,M,,M,,*5D
05/28/2014	00:07:47.643	$GPGGA,000748,2543.8825,N,08009.7236,W,1,8,1.7,23,M,,M,,*52
05/28/2014	00:07:48.648	$GPGGA,000749,2543.8826,N,08009.7237,W,1,8,1.7,24,M,,M,,*56
05/28/2014	00:07:49.642	$GPGGA,000750,2543.8825,N,08009.7236,W,1,8,1.7,24,M,,M,,*5C
05/28/2014	00:07:50.651	$GPGGA,000751,2543.8826,N,08009.7237,W,1,8,1.7,25,M,,M,,*5E
05/28/2014	00:07:51.652	$GPGGA,000752,2543.8827,N,08009.7237,W,1,8,1.7,25,M,,M,,*5C
05/28/2014	00:07:52.647	$GPGGA,000753,2543.8826,N,08009.7236,W,1,8,1.7,26,M,,M,,*5E
05/28/2014	00:07:53.641	$GPGGA,000754,2543.8827,N,08009.7236,W,1,8,1.7,26,M,,M,,*58
05/28/2014	00:07:54.666	$GPGGA,000755,2543.8826,N,08009.7237,W,1,9,1.6,26,M,,M,,*59
05/28/2014	00:07:55.671	$GPGGA,000756,2543.8828,N,08009.7238,W,1,9,1.6,27,M,,M,,*5A
05/28/2014	00:07:56.666	$GPGGA,000757,2543.8828,N,08009.7240,W,1,9,1.6,27,M,,M,,*54
05/28/2014	00:07:57.661	$GPGGA,000758,2543.8828,N,08009.7238,W,1,9,1.6,27,M,,M,,*54
05/28/2014	00:07:58.676	$GPGGA,000759,2543.8830,N,08009.7240,W,1,9,1.6,28,M,,M,,*5C
05/28/2014	00:07:59.690	$GPGGA,000800,2543.8829,N,08009.7241,W,1,9,1.6,28,M,,M,,*56
05/28/2014	00:08:00.655	$GPGGA,000801,2543.8831,N,08009.7241,W,1,9,1.6,28,M,,M,,*5E
05/28/2014	00:08:01.670	$GPGGA,000802,2543.8830,N,08009.7243,W,1,9,1.6,28,M,,M,,*5E
05/28/2014	00:08:02.695	$GPGGA,000803,2543.8831,N,08009.7243,W,1,9,1.6,28,M,,M,,*5E
05/28/2014	00:08:03.688	$GPGGA,000804,2543.8831,N,08009.7244,W,1,9,1.7,29,M,,M,,*5E
05/28/2014	00:08:04.673	$GPGGA,000805,2543.8831,N,08009.7247,W,1,8,1.7,29,M,,M,,*5D
05/28/2014	00:08:05.678	$GPGGA,000806,2543.8831,N,08009.7247,W,1,8,1.6,29,M,,M,,*5F
05/28/2014	00:08:06.694	$GPGGA,000807,2543.8831,N,08009.7248,W,1,9,1.6,29,M,,M,,*50
05/28/2014	00:08:07.708	$GPGGA,000808,2543.8833,N,08009.7249,W,1,9,1.6,29,M,,M,,*5C
05/28/2014	00:08:08.712	$GPGGA,000809,2543.8832,N,08009.7251,W,1,9,1.6,29,M,,M,,*55
05/28/2014	00:08:09.697	$GPGGA,000810,2543.8834,N,08009.7252,W,1,9,1.6,29,M,,M,,*58
05/28/2014	00:08:10.722	$GPGGA,000811,2543.8833,N,08009.7254,W,1,9,1.6,29,M,,M,,*58
05/28/2014	00:08:11.707	$GPGGA,000812,2543.8834,N,08009.7255,W,1,9,1.6,29,M,,M,,*5D
05/28/2014	00:08:12.722	$GPGGA,000813,2543.8833,N,08009.7256,W,1,9,1.6,29,M,,M,,*58
05/28/2014	00:08:13.707	$GPGGA,000814,2543.8835,N,08009.7258,W,1,9,1.6,29,M,,M,,*57
05/28/2014	00:08:14.812	$GPGGA,000815,2543.8835,N,08009.7259,W,1,9,1.6,29,M,,M,,*57
05/28/2014	00:08:15.727	$GPGGA,000816,2543.8835,N,08009.7259,W,1,9,1.6,29,M,,M,,*54
05/28/2014	00:08:16.831	$GPGGA,000817,2543.8835,N,08009.7261,W,1,9,1.6,29,M,,M,,*5E
05/28/2014	00:08:17.746	$GPGGA,000818,2543.8835,N,08009.7262,W,1,9,1.6,29,M,,M,,*52
05/28/2014	00:08:18.730	$GPGGA,000819,2543.8835,N,08009.7262,W,1,9,1.6,29,M,,M,,*53
05/28/2014	00:08:19.836	$GPGGA,000820,2543.8835,N,08009.7263,W,1,9,1.6,29,M,,M,,*58
05/28/2014	00:08:20.829	$GPGGA,000821,2543.8835,N,08009.7263,W,1,9,1.6,29,M,,M,,*59
05/28/2014	00:08:21.713	$GPGGA,000822,2543.8835,N,08009.7265,W,1,9,1.6,28,M,,M,,*5D
05/28/2014	00:08:22.819	$GPGGA,000823,2543.8835,N,08009.7264,W,1,9,1.6,28,M,,M,,*5D
05/28/2014	00:08:23.834	$GPGGA,000824,2543.8835,N,08009.7265,W,1,9,1.6,28,M,,M,,*5B
05/28/2014	00:08:24.738	$GPGGA,000825,2543.8835,N,08009.7266,W,1,9,1.6,28,M,,M,,*59
05/28/2014	00:08:25.823	$GPGGA,000826,2543.8835,N,08009.7267,W,1,9,1.6,28,M,,M,,*5B
05/28/2014	00:08:26.737	$GPGGA,000827,2543.8835,N,08009.7269,W,1,9,1.6,28,M,,M,,*54
05/28/2014	00:08:27.843	$GPGGA,000828,2543.8835,N,08009.7268,W,1,9,1.6,28,M,,M,,*5A
05/28/2014	00:08:28.747	$GPGGA,000829,2543.8835,N,08009.7269,W,1,9,1.6,28,M,,M,,*5A
05/28/2014	00:08:29.832	$GPGGA,000830,2543.8835,N,08009.7269,W,1,9,1.6,28,M,,M,,*52
05/28/2014	00:08:30.877	$GPGGA,000831,2543.8835,N,08009.7270,W,1,9,1.6,28,M,,M,,*5B
05/28/2014	00:08:31.852	$GPGGA,000832,2543.8835,N,08009.7270,W,1,9,1.6,28,M,,M,,*58
05/28/2014	00:08:32.857	$GPGGA,000833,2543.8835,N,08009.7272,W,1,9,1.6,27,M,,M,,*54
05/28/2014	00:08:33.841	$GPGGA,000834,2543.8835,N,08009.7271,W,1,9,1.6,27,M,,M,,*50
05/28/2014	00:08:34.866	$GPGGA,000835,2543.8835,N,08009.7272,W,1,9,1.6,27,M,,M,,*52
05/28/2014	00:08:35.871	$GPGGA,000836,2543.8835,N,08009.7272,W,1,9,1.6,27,M,,M,,*51
05/28/2014	00:08:36.866	$GPGGA,000837,2543.8835,N,08009.7271,W,1,9,1.6,27,M,,M,,*53
05/28/2014	00:08:37.595	$GPGGA,000838,2543.8835,N,08009.7272,W,1,9,1.6,27,M,,M,,*5F
05/28/2014	00:08:38.567	$GPGGA,000839,2543.8835,N,08009.7271,W,1,9,1.6,27,M,,M,,*5D
05/28/2014	00:08:39.602	$GPGGA,000840,2543.8835,N,08009.7272,W,1,9,1.6,27,M,,M,,*50
05/28/2014	00:08:40.588	$GPGGA,000841,2543.8835,N,08009.7272,W,1,9,1.6,27,M,,M,,*51
05/28/2014	00:08:41.582	$GPGGA,000842,2543.8835,N,08009.7272,W,1,9,1.6,27,M,,M,,*52
05/28/2014	00:08:42.597	$GPGGA,000843,2543.8835,N,08009.7271,W,1,9,1.6,27,M,,M,,*50
05/28/2014	00:08:43.601	$GPGGA,000844,2543.8835,N,08009.7272,W,1,9,1.6,27,M,,M,,*54
05/28/2014	00:08:45.621	$GPGGA,000846,2543.8835,N,08009.7272,W,1,9,1.6,26,M,,M,,*57
05/28/2014	00:08:46.626	$GPGGA,000847,2543.8835,N,08009.7272,W,1,9,1.6,26,M,,M,,*56
05/28/2014	00:08:47.601	$GPGGA,000848,2543.8835,N,08009.7272,W,1,9,1.6,26,M,,M,,*59
05/28/2014	00:08:48.615	$GPGGA,000849,2543.8835,N,08009.7273,W,1,9,1.6,26,M,,M,,*59
05/28/2014	00:08:49.600	$GPGGA,000850,2543.8835,N,08009.7273,W,1,9,1.6,26,M,,M,,*51
05/28/2014	00:08:50.645	$GPGGA,000851,2543.8833,N,08009.7273,W,1,9,1.6,26,M,,M,,*56
05/28/2014	00:08:51.620	$GPGGA,000852,2543.8835,N,08009.7272,W,1,9,1.6,26,M,,M,,*52
05/28/2014	00:08:52.614	$GPGGA,000853,2543.8835,N,08009.7272,W,1,9,1.6,26,M,,M,,*53
05/28/2014	00:08:53.629	$GPGGA,000854,2543.8835,N,08009.7272,W,1,9,1.6,26,M,,M,,*54
05/28/2014	00:08:54.614	$GPGGA,000855,2543.8835,N,08009.7271,W,1,9,1.6,26,M,,M,,*56
05/28/2014	00:08:55.628	$GPGGA,000856,2543.8835,N,08009.7272,W,1,9,1.6,26,M,,M,,*56
05/28/2014	00:08:56.633	$GPGGA,000857,2543.8835,N,08009.7272,W,1,9,1.6,26,M,,M,,*57
05/28/2014	00:08:57.617	$GPGGA,000858,2543.8835,N,08009.7272,W,1,9,1.6,26,M,,M,,*58
05/28/2014	00:08:58.662	$GPGGA,000859,2543.8835,N,08009.7271,W,1,9,1.6,26,M,,M,,*5A
05/28/2014	00:08:59.647	$GPGGA,000900,2543.8835,N,08009.7272,W,1,9,1.6,26,M,,M,,*54
05/28/2014	00:09:00.752	$GPGGA,000901,2543.8835,N,08009.7271,W,1,9,1.6,26,M,,M,,*56
05/28/2014	00:09:01.647	$GPGGA,000902,2543.8837,N,08009.7272,W,1,9,1.6,26,M,,M,,*54
05/28/2014	00:09:02.762	$GPGGA,000903,2543.8836,N,08009.7272,W,1,9,1.6,25,M,,M,,*57
05/28/2014	00:09:03.656	$GPGGA,000904,2543.8837,N,08009.7272,W,1,9,1.6,25,M,,M,,*51
05/28/2014	00:09:04.641	$GPGGA,000905,2543.8838,N,08009.7272,W,1,9,1.6,25,M,,M,,*5F
05/28/2014	00:09:05.656	$GPGGA,000906,2543.8836,N,08009.7272,W,1,9,1.6,25,M,,M,,*52
05/28/2014	00:09:06.652	$GPGGA,000907,2543.8837,N,08009.7271,W,1,9,1.6,25,M,,M,,*51
05/28/2014	00:09:07.776	$GPGGA,000908,2543.8836,N,08009.7272,W,1,9,1.6,25,M,,M,,*5C
05/28/2014	00:09:08.781	$GPGGA,000909,2543.8837,N,08009.7271,W,1,9,1.6,25,M,,M,,*5F
05/28/2014	00:09:09.655	$GPGGA,000910,2543.8836,N,08009.7270,W,1,9,1.7,25,M,,M,,*56
05/28/2014	00:09:10.680	$GPGGA,000911,2543.8838,N,08009.7270,W,1,8,1.7,25,M,,M,,*58
05/28/2014	00:09:11.775	$GPGGA,000912,2543.8837,N,08009.7270,W,1,8,1.7,25,M,,M,,*54
05/28/2014	00:09:12.659	$GPGGA,000913,2543.8838,N,08009.7270,W,1,8,1.7,25,M,,M,,*5A
05/28/2014	00:09:13.763	$GPGGA,000914,2543.8837,N,08009.7270,W,1,8,1.7,25,M,,M,,*52
05/28/2014	00:09:14.808	$GPGGA,000915,2543.8838,N,08009.7270,W,1,8,1.7,25,M,,M,,*5C
05/28/2014	00:09:15.693	$GPGGA,000916,2543.8837,N,08009.7272,W,1,8,1.7,25,M,,M,,*52
05/28/2014	00:09:16.677	$GPGGA,000917,2543.8838,N,08009.7270,W,1,8,1.7,25,M,,M,,*5E
05/28/2014	00:09:17.773	$GPGGA,000918,2543.8837,N,08009.7270,W,1,8,1.7,25,M,,M,,*5E
05/28/2014	00:09:18.777	$GPGGA,000919,2543.8836,N,08009.7270,W,1,8,1.7,25,M,,M,,*5E
05/28/2014	00:09:19.792	$GPGGA,000920,2543.8837,N,08009.7270,W,1,8,1.6,25,M,,M,,*54
05/28/2014	00:09:20.807	$GPGGA,000921,2543.8836,N,08009.7272,W,1,7,1.8,25,M,,M,,*57
05/28/2014	00:09:21.792	$GPGGA,000922,2543.8838,N,08009.7270,W,1,7,1.8,25,M,,M,,*58
05/28/2014	00:09:22.807	$GPGGA,000923,2543.8836,N,08009.7270,W,1,7,1.8,25,M,,M,,*57
05/28/2014	00:09:23.811	$GPGGA,000924,2543.8835,N,08009.7270,W,1,7,1.8,25,M,,M,,*53
05/28/2014	00:09:24.816	$GPGGA,000925,2543.8837,N,08009.7269,W,1,8,1.7,25,M,,M,,*58
05/28/2014	00:09:25.801	$GPGGA,000926,2543.8836,N,08009.7269,W,1,8,1.7,25,M,,M,,*5A
05/28/2014	00:09:26.796	$GPGGA,000927,2543.8835,N,08009.7269,W,1,8,1.7,25,M,,M,,*58
05/28/2014	00:09:27.821	$GPGGA,000928,2543.8835,N,08009.7269,W,1,8,1.7,25,M,,M,,*57
05/28/2014	00:09:28.805	$GPGGA,000929,2543.8835,N,08009.7269,W,1,8,1.7,25,M,,M,,*56
05/28/2014	00:09:29.820	$GPGGA,000930,2543.8835,N,08009.7269,W,1,8,1.7,24,M,,M,,*5F
05/28/2014	00:09:30.834	$GPGGA,000931,2543.8837,N,08009.7269,W,1,8,1.7,24,M,,M,,*5C
05/28/2014	00:09:31.830	$GPGGA,000932,2543.8836,N,08009.7269,W,1,8,1.7,24,M,,M,,*5E
05/28/2014	00:09:34.181	$GPGGA,000933,2543.8837,N,08009.7269,W,1,8,1.7,24,M,,M,,*5E
05/28/2014	00:09:34.200	$GPGGA,000934,2543.8836,N,08009.7269,W,1,8,1.7,24,M,,M,,*58
05/28/2014	00:09:34.843	$GPGGA,000935,2543.8837,N,08009.7269,W,1,8,1.7,24,M,,M,,*58
05/28/2014	00:09:35.838	$GPGGA,000936,2543.8838,N,08009.7269,W,1,8,1.7,24,M,,M,,*54
05/28/2014	00:09:36.853	$GPGGA,000937,2543.8837,N,08009.7269,W,1,8,1.7,24,M,,M,,*5A
05/28/2014	00:09:37.827	$GPGGA,000938,2543.8838,N,08009.7269,W,1,8,1.7,24,M,,M,,*5A
05/28/2014	00:09:38.566	$GPGGA,000939,2543.8839,N,08009.7270,W,1,8,1.7,24,M,,M,,*52
05/28/2014	00:09:39.571	$GPGGA,000940,2543.8839,N,08009.7269,W,1,8,1.7,24,M,,M,,*54
05/28/2014	00:09:40.556	$GPGGA,000941,2543.8839,N,08009.7269,W,1,8,1.7,24,M,,M,,*55
05/28/2014	00:09:41.571	$GPGGA,000942,2543.8839,N,08009.7270,W,1,8,1.7,24,M,,M,,*5E
05/28/2014	00:09:42.597	$GPGGA,000943,2543.8839,N,08009.7269,W,1,8,1.7,24,M,,M,,*57
05/28/2014	00:09:43.580	$GPGGA,000944,2543.8839,N,08009.7269,W,1,8,1.7,24,M,,M,,*50
05/28/2014	00:09:44.575	$GPGGA,000945,2543.8839,N,08009.7269,W,1,8,1.7,24,M,,M,,*51
05/28/2014	00:09:45.560	$GPGGA,000946,2543.8839,N,08009.7269,W,1,8,1.7,24,M,,M,,*52
05/28/2014	00:09:46.565	$GPGGA,000947,2543.8839,N,08009.7268,W,1,8,1.7,24,M,,M,,*52
05/28/2014	00:09:47.589	$GPGGA,000948,2543.8839,N,08009.7269,W,1,8,1.7,24,M,,M,,*5C
05/28/2014	00:09:48.573	$GPGGA,000949,2543.8841,N,08009.7268,W,1,8,1.7,24,M,,M,,*53
05/28/2014	00:09:49.598	$GPGGA,000950,2543.8840,N,08009.7269,W,1,8,1.7,24,M,,M,,*5B
05/28/2014	00:09:50.693	$GPGGA,000951,2543.8841,N,08009.7268,W,1,8,1.7,23,M,,M,,*5D
05/28/2014	00:09:51.608	$GPGGA,000952,2543.8840,N,08009.7269,W,1,8,1.7,23,M,,M,,*5E
05/28/2014	00:09:52.713	$GPGGA,000953,2543.8841,N,08009.7268,W,1,8,1.7,23,M,,M,,*5F
05/28/2014	00:09:53.597	$GPGGA,000954,2543.8842,N,08009.7269,W,1,8,1.7,23,M,,M,,*5A
05/28/2014	00:09:54.692	$GPGGA,000955,2543.8842,N,08009.7268,W,1,8,1.7,23,M,,M,,*5A
05/28/2014	00:09:55.617	$GPGGA,000956,2543.8842,N,08009.7269,W,1,8,1.7,23,M,,M,,*58
05/28/2014	00:09:56.712	$GPGGA,000957,2543.8842,N,08009.7267,W,1,8,1.7,23,M,,M,,*57
05/28/2014	00:09:57.697	$GPGGA,000958,2543.8842,N,08009.7267,W,1,8,1.7,23,M,,M,,*58
05/28/2014	00:09:58.702	$GPGGA,000959,2543.8842,N,08009.7267,W,1,8,1.7,23,M,,M,,*59
05/28/2014	00:09:59.726	$GPGGA,001000,2543.8842,N,08009.7266,W,1,8,1.7,23,M,,M,,*5C
05/28/2014	00:10:00.601	$GPGGA,001001,2543.8842,N,08009.7267,W,1,8,1.7,23,M,,M,,*5C
05/28/2014	00:10:01.626	$GPGGA,001002,2543.8842,N,08009.7267,W,1,8,1.7,23,M,,M,,*5F
05/28/2014	00:10:02.711	$GPGGA,001003,2543.8842,N,08009.7266,W,1,8,1.7,23,M,,M,,*5F
05/28/2014	00:10:03.625	$GPGGA,001004,2543.8842,N,08009.7267,W,1,8,1.7,23,M,,M,,*59
05/28/2014	00:10:04.730	$GPGGA,001005,2543.8842,N,08009.7267,W,1,8,1.7,23,M,,M,,*58
05/28/2014	00:10:05.724	$GPGGA,001006,2543.8842,N,08009.7267,W,1,8,1.7,23,M,,M,,*5B
05/28/2014	00:10:06.720	$GPGGA,001007,2543.8842,N,08009.7266,W,1,8,1.7,23,M,,M,,*5B
05/28/2014	00:10:07.744	$GPGGA,001008,2543.8842,N,08009.7266,W,1,8,1.7,23,M,,M,,*54
05/28/2014	00:10:08.718	$GPGGA,001009,2543.8842,N,08009.7265,W,1,8,1.7,23,M,,M,,*56
05/28/2014	00:10:09.733	$GPGGA,001010,2543.8842,N,08009.7265,W,1,8,1.7,22,M,,M,,*5F
05/28/2014	00:10:10.748	$GPGGA,001011,2543.8842,N,08009.7265,W,1,8,1.7,22,M,,M,,*5E
05/28/2014	00:10:11.753	$GPGGA,001012,2543.8840,N,08009.7265,W,1,8,1.7,22,M,,M,,*5F
05/28/2014	00:10:12.728	$GPGGA,001013,2543.8841,N,08009.7265,W,1,8,1.7,22,M,,M,,*5F
05/28/2014	00:10:13.732	$GPGGA,001014,2543.8840,N,08009.7265,W,1,8,1.7,22,M,,M,,*59
05/28/2014	00:10:14.767	$GPGGA,001015,2543.8839,N,08009.7265,W,1,8,1.7,22,M,,M,,*56
05/28/2014	00:10:15.762	$GPGGA,001016,2543.8839,N,08009.7264,W,1,8,1.7,22,M,,M,,*54
05/28/2014	00:10:16.747	$GPGGA,001017,2543.8839,N,08009.7265,W,1,8,1.7,22,M,,M,,*54
05/28/2014	00:10:17.752	$GPGGA,001018,2543.8839,N,08009.7264,W,1,8,1.7,22,M,,M,,*5A
05/28/2014	00:10:18.776	$GPGGA,001019,2543.8839,N,08009.7265,W,1,8,1.7,22,M,,M,,*5A
05/28/2014	00:10:19.773	$GPGGA,001020,2543.8839,N,08009.7264,W,1,8,1.7,22,M,,M,,*51
05/28/2014	00:10:20.786	$GPGGA,001021,2543.8839,N,08009.7265,W,1,8,1.7,22,M,,M,,*51
05/28/2014	00:10:21.772	$GPGGA,001022,2543.8837,N,08009.7264,W,1,8,1.7,22,M,,M,,*5D
05/28/2014	00:10:22.796	$GPGGA,001023,2543.8838,N,08009.7265,W,1,8,1.7,22,M,,M,,*52
05/28/2014	00:10:23.779	$GPGGA,001024,2543.8837,N,08009.7264,W,1,8,1.7,22,M,,M,,*5B
05/28/2014	00:10:24.774	$GPGGA,001025,2543.8838,N,08009.7265,W,1,8,1.7,22,M,,M,,*54
05/28/2014	00:10:25.789	$GPGGA,001026,2543.8837,N,08009.7264,W,1,8,1.7,22,M,,M,,*59
05/28/2014	00:10:26.794	$GPGGA,001027,2543.8838,N,08009.7265,W,1,8,1.7,22,M,,M,,*56
05/28/2014	00:10:27.789	$GPGGA,001028,2543.8837,N,08009.7265,W,1,8,1.7,22,M,,M,,*56
05/28/2014	00:10:28.783	$GPGGA,001029,2543.8838,N,08009.7264,W,1,8,1.7,22,M,,M,,*59
05/28/2014	00:10:29.798	$GPGGA,001030,2543.8837,N,08009.7265,W,1,8,1.7,22,M,,M,,*5F
05/28/2014	00:10:30.783	$GPGGA,001031,2543.8838,N,08009.7265,W,1,8,1.7,22,M,,M,,*51
05/28/2014	00:10:31.818	$GPGGA,001032,2543.8837,N,08009.7265,W,1,8,1.7,22,M,,M,,*5D
05/28/2014	00:10:32.813	$GPGGA,001033,2543.8838,N,08009.7265,W,1,8,1.7,22,M,,M,,*53
05/28/2014	00:10:33.797	$GPGGA,001034,2543.8837,N,08009.7265,W,1,8,1.7,22,M,,M,,*5B
05/28/2014	00:10:34.821	$GPGGA,001035,2543.8838,N,08009.7266,W,1,8,1.7,22,M,,M,,*56
05/28/2014	00:10:35.813	$GPGGA,001036,2543.8837,N,08009.7266,W,1,8,1.7,22,M,,M,,*5A
05/28/2014	00:10:36.918	$GPGGA,001037,2543.8838,N,08009.7266,W,1,8,1.7,22,M,,M,,*54
05/28/2014	00:10:37.811	$GPGGA,001038,2543.8837,N,08009.7266,W,1,8,1.7,22,M,,M,,*54
05/28/2014	00:10:38.514	$GPGGA,001039,2543.8839,N,08009.7266,W,1,8,1.7,22,M,,M,,*5B
05/28/2014	00:10:39.547	$GPGGA,001040,2543.8839,N,08009.7266,W,1,8,2.0,22,M,,M,,*51
05/28/2014	00:10:40.630	$GPGGA,001041,2543.8839,N,08009.7266,W,1,8,2.0,21,M,,M,,*53
05/28/2014	00:10:41.623	$GPGGA,001042,2543.8841,N,08009.7266,W,1,8,2.0,21,M,,M,,*5F
05/28/2014	00:10:42.546	$GPGGA,001043,2543.8840,N,08009.7266,W,1,8,2.0,21,M,,M,,*5F
05/28/2014	00:10:43.529	$GPGGA,001044,2543.8841,N,08009.7266,W,1,8,2.0,21,M,,M,,*59
05/28/2014	00:10:44.532	$GPGGA,001045,2543.8842,N,08009.7266,W,1,8,2.0,21,M,,M,,*5B
05/28/2014	00:10:45.646	$GPGGA,001046,2543.8842,N,08009.7266,W,1,8,2.0,21,M,,M,,*58
05/28/2014	00:10:46.659	$GPGGA,001047,2543.8842,N,08009.7266,W,1,8,2.0,21,M,,M,,*59
05/28/2014	00:10:47.673	$GPGGA,001048,2543.8842,N,08009.7266,W,1,8,2.0,21,M,,M,,*56
05/28/2014	00:10:48.536	$GPGGA,001049,2543.8842,N,08009.7266,W,1,8,2.0,21,M,,M,,*57
05/28/2014	00:10:49.629	$GPGGA,001050,2543.8842,N,08009.7266,W,1,8,2.0,21,M,,M,,*5F
05/28/2014	00:10:50.643	$GPGGA,001051,2543.8839,N,08009.7267,W,1,8,1.7,20,M,,M,,*56
05/28/2014	00:10:51.546	$GPGGA,001052,2543.8841,N,08009.7267,W,1,8,1.7,20,M,,M,,*5A
05/28/2014	00:10:52.669	$GPGGA,001053,2543.8840,N,08009.7266,W,1,8,2.0,20,M,,M,,*5F
05/28/2014	00:10:53.642	$GPGGA,001054,2543.8841,N,08009.7266,W,1,8,2.0,20,M,,M,,*59
05/28/2014	00:10:54.666	$GPGGA,001055,2543.8840,N,08009.7266,W,1,8,2.0,20,M,,M,,*59
05/28/2014	00:10:55.679	$GPGGA,001056,2543.8841,N,08009.7266,W,1,8,2.0,20,M,,M,,*5B
05/28/2014	00:10:56.662	$GPGGA,001057,2543.8842,N,08009.7266,W,1,8,2.0,20,M,,M,,*59
05/28/2014	00:10:57.646	$GPGGA,001058,2543.8842,N,08009.7266,W,1,8,2.0,20,M,,M,,*56
05/28/2014	00:10:58.648	$GPGGA,001059,2543.8842,N,08009.7266,W,1,8,2.0,20,M,,M,,*57
05/28/2014	00:10:59.671	$GPGGA,001100,2543.8842,N,08009.7266,W,1,8,2.0,20,M,,M,,*5A
05/28/2014	00:11:00.665	$GPGGA,001101,2543.8842,N,08009.7267,W,1,8,2.0,19,M,,M,,*50
05/28/2014	00:11:01.648	$GPGGA,001102,2543.8842,N,08009.7267,W,1,8,2.0,19,M,,M,,*53
05/28/2014	00:11:02.671	$GPGGA,001103,2543.8842,N,08009.7269,W,1,8,2.0,19,M,,M,,*5C
05/28/2014	00:11:03.664	$GPGGA,001104,2543.8842,N,08009.7268,W,1,8,2.0,19,M,,M,,*5A
05/28/2014	00:11:04.688	$GPGGA,001105,2543.8842,N,08009.7269,W,1,8,2.0,19,M,,M,,*5A
05/28/2014	00:11:05.651	$GPGGA,001106,2543.8842,N,08009.7269,W,1,8,2.0,19,M,,M,,*59
05/28/2014	00:11:06.684	$GPGGA,001107,2543.8842,N,08009.7269,W,1,8,2.0,19,M,,M,,*58
05/28/2014	00:11:07.668	$GPGGA,001108,2543.8844,N,08009.7269,W,1,8,2.0,18,M,,M,,*50
05/28/2014	00:11:08.681	$GPGGA,001109,2543.8843,N,08009.7269,W,1,8,2.0,18,M,,M,,*56
05/28/2014	00:11:09.664	$GPGGA,001110,2543.8844,N,08009.7270,W,1,8,2.0,18,M,,M,,*51
05/28/2014	00:11:10.677	$GPGGA,001111,2543.8846,N,08009.7272,W,1,8,1.9,18,M,,M,,*5A
05/28/2014	00:11:11.683	$GPGGA,001112,2543.8848,N,08009.7271,W,1,8,1.9,18,M,,M,,*54
05/28/2014	00:11:12.694	$GPGGA,001113,2543.8849,N,08009.7272,W,1,9,1.9,18,M,,M,,*56
05/28/2014	00:11:13.667	$GPGGA,001114,2543.8848,N,08009.7272,W,1,9,1.9,17,M,,M,,*5F
05/28/2014	00:11:14.691	$GPGGA,001115,2543.8849,N,08009.7273,W,1,9,1.9,17,M,,M,,*5E
05/28/2014	00:11:15.673	$GPGGA,001116,2543.8850,N,08009.7273,W,1,9,1.9,17,M,,M,,*55
05/28/2014	00:11:16.697	$GPGGA,001117,2543.8852,N,08009.7273,W,1,9,1.9,17,M,,M,,*56
05/28/2014	00:11:17.679	$GPGGA,001118,2543.8851,N,08009.7274,W,1,9,1.9,17,M,,M,,*5D
05/28/2014	00:11:18.673	$GPGGA,001119,2543.8853,N,08009.7273,W,1,9,1.9,16,M,,M,,*58
05/28/2014	00:11:19.716	$GPGGA,001120,2543.8853,N,08009.7273,W,1,9,1.9,16,M,,M,,*52
05/28/2014	00:11:20.699	$GPGGA,001121,2543.8853,N,08009.7273,W,1,9,1.9,16,M,,M,,*53
05/28/2014	00:11:21.684	$GPGGA,001122,2543.8853,N,08009.7273,W,1,9,1.9,16,M,,M,,*50
05/28/2014	00:11:22.706	$GPGGA,001123,2543.8855,N,08009.7274,W,1,9,1.9,16,M,,M,,*50
05/28/2014	00:11:23.690	$GPGGA,001124,2543.8856,N,08009.7276,W,1,9,1.9,16,M,,M,,*56
05/28/2014	00:11:24.703	$GPGGA,001125,2543.8857,N,08009.7275,W,1,9,1.9,15,M,,M,,*56
05/28/2014	00:11:25.676	$GPGGA,001126,2543.8857,N,08009.7276,W,1,9,1.9,15,M,,M,,*56
05/28/2014	00:11:26.679	$GPGGA,001127,2543.8857,N,08009.7275,W,1,9,1.9,15,M,,M,,*54
05/28/2014	00:11:27.813	$GPGGA,001128,2543.8857,N,08009.7276,W,1,9,1.9,15,M,,M,,*58
05/28/2014	00:11:28.806	$GPGGA,001129,2543.8857,N,08009.7277,W,1,9,1.9,15,M,,M,,*58
05/28/2014	00:11:29.689	$GPGGA,001130,2543.8857,N,08009.7277,W,1,9,1.9,15,M,,M,,*50
05/28/2014	00:11:30.813	$GPGGA,001131,2543.8857,N,08009.7279,W,1,9,1.9,15,M,,M,,*5F
05/28/2014	00:11:31.806	$GPGGA,001132,2543.8857,N,08009.7278,W,1,9,1.9,14,M,,M,,*5C
05/28/2014	00:11:32.699	$GPGGA,001133,2543.8857,N,08009.7279,W,1,9,1.9,14,M,,M,,*5C
05/28/2014	00:11:33.781	$GPGGA,001134,2543.8857,N,08009.7278,W,1,9,1.9,14,M,,M,,*5A
05/28/2014	00:11:34.694	$GPGGA,001135,2543.8857,N,08009.7280,W,1,9,1.9,14,M,,M,,*5C
05/28/2014	00:11:35.818	$GPGGA,001136,2543.8857,N,08009.7279,W,1,9,1.9,14,M,,M,,*59
05/28/2014	00:11:36.821	$GPGGA,001137,2543.8857,N,08009.7280,W,1,9,1.9,14,M,,M,,*5E
05/28/2014	00:11:37.600	$GPGGA,001138,2543.8857,N,08009.7280,W,1,9,1.9,14,M,,M,,*51
05/28/2014	00:11:38.601	$GPGGA,001139,2543.8857,N,08009.7280,W,1,9,1.9,14,M,,M,,*50
05/28/2014	00:11:39.614	$GPGGA,001140,2543.8857,N,08009.7280,W,1,9,1.9,14,M,,M,,*5E
05/28/2014	00:11:40.628	$GPGGA,001141,2543.8857,N,08009.7280,W,1,9,1.9,14,M,,M,,*5F
05/28/2014	00:11:41.601	$GPGGA,001142,2543.8857,N,08009.7279,W,1,9,1.9,14,M,,M,,*5A
05/28/2014	00:11:42.594	$GPGGA,001143,2543.8857,N,08009.7280,W,1,9,1.9,14,M,,M,,*5D
05/28/2014	00:11:43.617	$GPGGA,001144,2543.8857,N,08009.7280,W,1,9,1.9,14,M,,M,,*5A
05/28/2014	00:11:44.611	$GPGGA,001145,2543.8857,N,08009.7280,W,1,9,1.9,14,M,,M,,*5B
05/28/2014	00:11:45.595	$GPGGA,001146,2543.8857,N,08009.7280,W,1,9,1.9,14,M,,M,,*58
05/28/2014	00:11:46.617	$GPGGA,001147,2543.8857,N,08009.7280,W,1,9,1.9,13,M,,M,,*5E
05/28/2014	00:11:47.621	$GPGGA,001148,2543.8857,N,08009.7280,W,1,9,1.9,13,M,,M,,*51
05/28/2014	00:11:48.615	$GPGGA,001149,2543.8857,N,08009.7280,W,1,9,1.9,13,M,,M,,*50
05/28/2014	00:11:49.597	$GPGGA,001150,2543.8857,N,08009.7280,W,1,9,1.9,13,M,,M,,*58
