Software Version Number: 1	Data File Format Number: 1	Build Version Number: 1	Error Count Since VI Started: 0	Manufacturer: Raytheon	 Model Number: RayMarine 120	 S/N: 	 Cal Date: 	 Wind Direction Offset: 0.00	 Slope (M)1: 0.00	 Offset (B)1: 0.00	 Slope (M)2: 0.00	 Offset (B)2: 0.00	 Slope (M)3: 0.00	 Offset (B)3: 0.00	 Slope (M)4: 0.00	 Offset (B)4: 0.00	 Slope (M)5: 0.00	 Offset (B)5: 0.00	 Slope (M)6: 0.00	 Offset (B)6: 0.00
Computer Date	Computer Time	GGA String
06/01/2014	09:00:00.264	$GPGGA,090001,2432.5764,N,07948.2825,W,1,8,1.7,10,M,,M,,*5F
06/01/2014	09:00:01.212	$GPGGA,090002,2432.5758,N,07948.2825,W,1,8,1.7,10,M,,M,,*53
06/01/2014	09:00:02.209	$GPGGA,090003,2432.5758,N,07948.2825,W,1,8,1.7,10,M,,M,,*52
06/01/2014	09:00:03.295	$GPGGA,090004,2432.5746,N,07948.2824,W,1,8,1.7,10,M,,M,,*5B
06/01/2014	09:00:04.273	$GPGGA,090005,2432.5740,N,07948.2826,W,1,8,1.7,10,M,,M,,*5E
06/01/2014	09:00:05.163	$GPGGA,090006,2432.5734,N,07948.2827,W,1,8,1.7,10,M,,M,,*5F
06/01/2014	09:00:06.286	$GPGGA,090007,2432.5728,N,07948.2825,W,1,8,1.7,10,M,,M,,*51
06/01/2014	09:00:07.274	$GPGGA,090008,2432.5722,N,07948.2826,W,1,8,1.7,10,M,,M,,*57
06/01/2014	09:00:08.231	$GPGGA,090009,2432.5717,N,07948.2827,W,1,8,1.7,10,M,,M,,*51
06/01/2014	09:00:09.199	$GPGGA,090010,2432.5710,N,07948.2827,W,1,8,1.7,10,M,,M,,*5E
06/01/2014	09:00:10.217	$GPGGA,090011,2432.5705,N,07948.2827,W,1,8,1.7,10,M,,M,,*5B
06/01/2014	09:00:11.184	$GPGGA,090012,2432.5699,N,07948.2827,W,1,8,1.7,10,M,,M,,*5C
06/01/2014	09:00:12.191	$GPGGA,090013,2432.5699,N,07948.2827,W,1,8,1.7,10,M,,M,,*5D
06/01/2014	09:00:13.139	$GPGGA,090014,2432.5687,N,07948.2828,W,1,8,1.7,10,M,,M,,*5A
06/01/2014	09:00:14.146	$GPGGA,090015,2432.5681,N,07948.2827,W,1,8,1.7,10,M,,M,,*52
06/01/2014	09:00:15.124	$GPGGA,090016,2432.5675,N,07948.2829,W,1,8,1.7,10,M,,M,,*54
06/01/2014	09:00:16.121	$GPGGA,090017,2432.5669,N,07948.2828,W,1,8,1.7,10,M,,M,,*59
06/01/2014	09:00:17.088	$GPGGA,090018,2432.5663,N,07948.2829,W,1,8,1.7,10,M,,M,,*5D
06/01/2014	09:00:18.105	$GPGGA,090019,2432.5657,N,07948.2829,W,1,8,1.7,10,M,,M,,*5B
06/01/2014	09:00:19.063	$GPGGA,090020,2432.5652,N,07948.2828,W,1,8,1.7,10,M,,M,,*55
06/01/2014	09:00:20.061	$GPGGA,090021,2432.5646,N,07948.2829,W,1,7,1.9,10,M,,M,,*51
06/01/2014	09:00:21.028	$GPGGA,090022,2432.5639,N,07948.2830,W,1,7,1.7,10,M,,M,,*5C
06/01/2014	09:00:22.006	$GPGGA,090023,2432.5634,N,07948.2832,W,1,8,1.7,10,M,,M,,*5D
06/01/2014	09:00:23.003	$GPGGA,090024,2432.5628,N,07948.2831,W,1,8,1.7,10,M,,M,,*54
06/01/2014	09:00:23.999	$GPGGA,090025,2432.5623,N,07948.2833,W,1,8,1.7,10,M,,M,,*5C
06/01/2014	09:00:24.977	$GPGGA,090026,2432.5617,N,07948.2836,W,1,8,1.7,10,M,,M,,*5D
06/01/2014	09:00:25.974	$GPGGA,090027,2432.5612,N,07948.2836,W,1,8,1.7,10,M,,M,,*59
06/01/2014	09:00:26.952	$GPGGA,090028,2432.5606,N,07948.2836,W,1,8,1.7,10,M,,M,,*53
06/01/2014	09:00:28.674	$GPGGA,090029,2432.5600,N,07948.2837,W,1,8,1.7,10,M,,M,,*55
06/01/2014	09:00:29.672	$GPGGA,090030,2432.5594,N,07948.2840,W,1,8,1.7,10,M,,M,,*53
06/01/2014	09:00:30.639	$GPGGA,090031,2432.5588,N,07948.2840,W,1,8,1.7,10,M,,M,,*5F
06/01/2014	09:00:31.646	$GPGGA,090032,2432.5583,N,07948.2840,W,1,8,1.7,10,M,,M,,*57
06/01/2014	09:00:32.624	$GPGGA,090033,2432.5577,N,07948.2841,W,1,8,1.7,10,M,,M,,*5C
06/01/2014	09:00:33.592	$GPGGA,090034,2432.5570,N,07948.2843,W,1,8,1.9,10,M,,M,,*50
06/01/2014	09:00:34.609	$GPGGA,090035,2432.5564,N,07948.2841,W,1,8,1.7,10,M,,M,,*58
06/01/2014	09:00:35.586	$GPGGA,090036,2432.5559,N,07948.2843,W,1,8,1.7,10,M,,M,,*57
06/01/2014	09:00:36.554	$GPGGA,090037,2432.5552,N,07948.2845,W,1,8,1.7,10,M,,M,,*5B
06/01/2014	09:00:37.551	$GPGGA,090038,2432.5546,N,07948.2844,W,1,8,1.7,10,M,,M,,*50
06/01/2014	09:00:38.548	$GPGGA,090039,2432.5541,N,07948.2845,W,1,7,1.9,10,M,,M,,*56
06/01/2014	09:00:39.536	$GPGGA,090040,2432.5534,N,07948.2847,W,1,7,1.7,10,M,,M,,*56
06/01/2014	09:00:40.518	$GPGGA,090041,2432.5529,N,07948.2847,W,1,8,1.7,10,M,,M,,*54
06/01/2014	09:00:41.480	$GPGGA,090042,2432.5523,N,07948.2847,W,1,8,1.7,10,M,,M,,*5D
06/01/2014	09:00:42.586	$GPGGA,090043,2432.5517,N,07948.2850,W,1,8,1.7,10,M,,M,,*5D
06/01/2014	09:00:43.465	$GPGGA,090044,2432.5511,N,07948.2850,W,1,8,1.7,10,M,,M,,*5C
06/01/2014	09:00:44.452	$GPGGA,090045,2432.5505,N,07948.2851,W,1,8,1.7,10,M,,M,,*59
06/01/2014	09:00:45.518	$GPGGA,090046,2432.5500,N,07948.2854,W,1,8,1.7,10,M,,M,,*5A
06/01/2014	09:00:46.437	$GPGGA,090047,2432.5494,N,07948.2855,W,1,8,1.7,10,M,,M,,*56
06/01/2014	09:00:47.414	$GPGGA,090048,2432.5490,N,07948.2855,W,1,8,1.7,10,M,,M,,*5D
06/01/2014	09:00:48.490	$GPGGA,090049,2432.5484,N,07948.2858,W,1,8,1.7,10,M,,M,,*54
06/01/2014	09:00:49.369	$GPGGA,090050,2432.5476,N,07948.2858,W,1,8,1.7,10,M,,M,,*51
06/01/2014	09:00:50.357	$GPGGA,090051,2432.5470,N,07948.2858,W,1,7,1.9,10,M,,M,,*57
06/01/2014	09:00:51.443	$GPGGA,090052,2432.5465,N,07948.2859,W,1,7,1.9,10,M,,M,,*51
06/01/2014	09:00:52.420	$GPGGA,090053,2432.5459,N,07948.2861,W,1,8,1.7,10,M,,M,,*55
06/01/2014	09:00:53.398	$GPGGA,090054,2432.5453,N,07948.2863,W,1,8,1.7,10,M,,M,,*5A
06/01/2014	09:00:54.386	$GPGGA,090055,2432.5447,N,07948.2865,W,1,8,1.7,10,M,,M,,*58
06/01/2014	09:00:55.392	$GPGGA,090056,2432.5443,N,07948.2866,W,1,8,1.7,10,M,,M,,*5C
06/01/2014	09:00:56.399	$GPGGA,090057,2432.5437,N,07948.2868,W,1,8,1.7,10,M,,M,,*50
06/01/2014	09:00:57.357	$GPGGA,090058,2432.5432,N,07948.2869,W,1,8,1.7,10,M,,M,,*5B
06/01/2014	09:00:58.335	$GPGGA,090059,2432.5426,N,07948.2872,W,1,8,1.7,10,M,,M,,*55
06/01/2014	09:00:59.351	$GPGGA,090100,2432.5419,N,07948.2872,W,1,8,1.7,10,M,,M,,*54
06/01/2014	09:01:00.338	$GPGGA,090101,2432.5415,N,07948.2872,W,1,8,1.7,10,M,,M,,*59
06/01/2014	09:01:01.296	$GPGGA,090102,2432.5410,N,07948.2874,W,1,8,1.7,10,M,,M,,*59
06/01/2014	09:01:02.274	$GPGGA,090103,2432.5403,N,07948.2876,W,1,8,1.7,10,M,,M,,*58
06/01/2014	09:01:03.271	$GPGGA,090104,2432.5397,N,07948.2876,W,1,8,1.7,10,M,,M,,*55
06/01/2014	09:01:04.269	$GPGGA,090105,2432.5392,N,07948.2879,W,1,8,1.7,10,M,,M,,*5E
06/01/2014	09:01:05.226	$GPGGA,090106,2432.5386,N,07948.2879,W,1,8,1.7,10,M,,M,,*58
06/01/2014	09:01:06.233	$GPGGA,090107,2432.5380,N,07948.2880,W,1,8,1.7,10,M,,M,,*59
06/01/2014	09:01:07.220	$GPGGA,090108,2432.5374,N,07948.2880,W,1,8,1.7,10,M,,M,,*5D
06/01/2014	09:01:08.208	$GPGGA,090109,2432.5368,N,07948.2883,W,1,8,1.7,10,M,,M,,*52
06/01/2014	09:01:09.175	$GPGGA,090110,2432.5363,N,07948.2882,W,1,8,1.7,10,M,,M,,*50
06/01/2014	09:01:10.183	$GPGGA,090111,2432.5356,N,07948.2883,W,1,8,1.7,10,M,,M,,*56
06/01/2014	09:01:11.150	$GPGGA,090112,2432.5350,N,07948.2884,W,1,8,1.7,10,M,,M,,*54
06/01/2014	09:01:12.158	$GPGGA,090113,2432.5345,N,07948.2884,W,1,8,1.7,10,M,,M,,*51
06/01/2014	09:01:13.115	$GPGGA,090114,2432.5338,N,07948.2884,W,1,8,1.7,10,M,,M,,*5C
06/01/2014	09:01:14.122	$GPGGA,090115,2432.5332,N,07948.2886,W,1,8,1.7,10,M,,M,,*55
06/01/2014	09:01:15.100	$GPGGA,090116,2432.5327,N,07948.2887,W,1,8,1.7,10,M,,M,,*53
06/01/2014	09:01:16.106	$GPGGA,090117,2432.5320,N,07948.2887,W,1,8,1.7,10,M,,M,,*55
06/01/2014	09:01:17.054	$GPGGA,090118,2432.5314,N,07948.2887,W,1,8,1.7,10,M,,M,,*5D
06/01/2014	09:01:18.061	$GPGGA,090119,2432.5309,N,07948.2888,W,1,8,1.7,10,M,,M,,*5F
06/01/2014	09:01:19.039	$GPGGA,090120,2432.5302,N,07948.2890,W,1,8,1.7,10,M,,M,,*57
06/01/2014	09:01:20.016	$GPGGA,090121,2432.5296,N,07948.2889,W,1,8,1.7,10,M,,M,,*52
06/01/2014	09:01:21.004	$GPGGA,090122,2432.5291,N,07948.2890,W,1,8,1.7,10,M,,M,,*5E
06/01/2014	09:01:22.021	$GPGGA,090123,2432.5284,N,07948.2891,W,1,8,1.7,10,M,,M,,*5A
06/01/2014	09:01:22.978	$GPGGA,090124,2432.5278,N,07948.2891,W,1,8,1.7,10,M,,M,,*5E
06/01/2014	09:01:23.946	$GPGGA,090125,2432.5273,N,07948.2891,W,1,8,1.7,10,M,,M,,*54
06/01/2014	09:01:24.933	$GPGGA,090126,2432.5267,N,07948.2892,W,1,8,1.7,10,M,,M,,*51
06/01/2014	09:01:25.960	$GPGGA,090127,2432.5260,N,07948.2894,W,1,8,1.7,10,M,,M,,*51
06/01/2014	09:01:26.938	$GPGGA,090128,2432.5255,N,07948.2894,W,1,8,1.7,10,M,,M,,*58
06/01/2014	09:01:28.659	$GPGGA,090129,2432.5249,N,07948.2894,W,1,8,1.7,10,M,,M,,*54
06/01/2014	09:01:29.627	$GPGGA,090130,2432.5244,N,07948.2895,W,1,8,1.7,10,M,,M,,*50
06/01/2014	09:01:30.723	$GPGGA,090131,2432.5237,N,07948.2897,W,1,8,1.7,10,M,,M,,*57
06/01/2014	09:01:31.631	$GPGGA,090132,2432.5231,N,07948.2897,W,1,8,1.7,10,M,,M,,*52
06/01/2014	09:01:32.679	$GPGGA,090133,2432.5226,N,07948.2898,W,1,8,1.7,10,M,,M,,*5A
06/01/2014	09:01:33.588	$GPGGA,090134,2432.5219,N,07948.2899,W,1,8,1.7,10,M,,M,,*50
06/01/2014	09:01:34.652	$GPGGA,090135,2432.5213,N,07948.2901,W,1,8,1.7,10,M,,M,,*5B
06/01/2014	09:01:35.570	$GPGGA,090136,2432.5208,N,07948.2900,W,1,8,1.7,10,M,,M,,*53
06/01/2014	09:01:36.548	$GPGGA,090137,2432.5201,N,07948.2901,W,1,8,1.7,10,M,,M,,*5A
06/01/2014	09:01:37.525	$GPGGA,090138,2432.5195,N,07948.2901,W,1,8,1.7,10,M,,M,,*5B
06/01/2014	09:01:38.494	$GPGGA,090139,2432.5190,N,07948.2902,W,1,8,1.7,10,M,,M,,*5C
06/01/2014	09:01:39.540	$GPGGA,090140,2432.5183,N,07948.2902,W,1,8,1.9,10,M,,M,,*5E
06/01/2014	09:01:40.576	$GPGGA,090141,2432.5179,N,07948.2902,W,1,8,1.7,10,M,,M,,*54
06/01/2014	09:01:41.465	$GPGGA,090142,2432.5172,N,07948.2905,W,1,8,1.7,10,M,,M,,*5B
06/01/2014	09:01:42.452	$GPGGA,090143,2432.5166,N,07948.2906,W,1,8,1.7,10,M,,M,,*5C
06/01/2014	09:01:43.539	$GPGGA,090144,2432.5161,N,07948.2906,W,1,8,1.7,10,M,,M,,*5C
06/01/2014	09:01:44.536	$GPGGA,090145,2432.5155,N,07948.2908,W,1,8,1.7,10,M,,M,,*54
06/01/2014	09:01:45.494	$GPGGA,090146,2432.5150,N,07948.2908,W,1,8,1.7,10,M,,M,,*52
06/01/2014	09:01:46.491	$GPGGA,090147,2432.5143,N,07948.2910,W,1,8,1.7,10,M,,M,,*58
06/01/2014	09:01:47.481	$GPGGA,090148,2432.5137,N,07948.2910,W,1,8,1.7,10,M,,M,,*54
06/01/2014	09:01:48.506	$GPGGA,090149,2432.5132,N,07948.2912,W,1,8,1.7,10,M,,M,,*52
06/01/2014	09:01:49.459	$GPGGA,090150,2432.5125,N,07948.2912,W,1,8,1.7,10,M,,M,,*5C
06/01/2014	09:01:50.463	$GPGGA,090151,2432.5118,N,07948.2912,W,1,7,1.9,10,M,,M,,*52
06/01/2014	09:01:51.456	$GPGGA,090152,2432.5112,N,07948.2911,W,1,7,1.7,10,M,,M,,*56
06/01/2014	09:01:52.450	$GPGGA,090153,2432.5107,N,07948.2913,W,1,8,1.7,10,M,,M,,*5E
06/01/2014	09:01:53.414	$GPGGA,090154,2432.5100,N,07948.2915,W,1,8,1.7,10,M,,M,,*58
06/01/2014	09:01:54.457	$GPGGA,090155,2432.5094,N,07948.2915,W,1,8,1.7,10,M,,M,,*55
06/01/2014	09:01:55.421	$GPGGA,090156,2432.5089,N,07948.2916,W,1,8,1.7,10,M,,M,,*59
06/01/2014	09:01:56.425	$GPGGA,090157,2432.5082,N,07948.2916,W,1,8,1.7,10,M,,M,,*53
06/01/2014	09:01:57.399	$GPGGA,090158,2432.5076,N,07948.2916,W,1,8,1.9,10,M,,M,,*59
06/01/2014	09:01:58.403	$GPGGA,090159,2432.5070,N,07948.2916,W,1,8,1.7,10,M,,M,,*50
06/01/2014	09:01:59.427	$GPGGA,090200,2432.5063,N,07948.2917,W,1,8,1.7,10,M,,M,,*5C
06/01/2014	09:02:00.381	$GPGGA,090201,2432.5056,N,07948.2919,W,1,7,1.9,10,M,,M,,*54
06/01/2014	09:02:01.375	$GPGGA,090202,2432.5051,N,07948.2918,W,1,7,1.7,10,M,,M,,*5F
06/01/2014	09:02:02.349	$GPGGA,090203,2432.5045,N,07948.2919,W,1,8,1.7,10,M,,M,,*55
06/01/2014	09:02:03.343	$GPGGA,090204,2432.5039,N,07948.2923,W,1,8,1.7,10,M,,M,,*50
06/01/2014	09:02:04.327	$GPGGA,090205,2432.5033,N,07948.2922,W,1,8,1.7,11,M,,M,,*5B
06/01/2014	09:02:05.331	$GPGGA,090206,2432.5028,N,07948.2923,W,1,8,1.7,11,M,,M,,*53
06/01/2014	09:02:06.354	$GPGGA,090207,2432.5022,N,07948.2926,W,1,8,1.7,11,M,,M,,*5D
06/01/2014	09:02:07.328	$GPGGA,090208,2432.5015,N,07948.2925,W,1,8,1.7,11,M,,M,,*55
06/01/2014	09:02:08.342	$GPGGA,090209,2432.5013,N,07948.2930,W,1,7,1.9,11,M,,M,,*57
06/01/2014	09:02:09.285	$GPGGA,090210,2432.5006,N,07948.2931,W,1,7,1.7,11,M,,M,,*54
06/01/2014	09:02:10.279	$GPGGA,090211,2432.5002,N,07948.2933,W,1,8,1.7,11,M,,M,,*5C
06/01/2014	09:02:11.293	$GPGGA,090212,2432.4995,N,07948.2934,W,1,8,1.7,11,M,,M,,*5E
06/01/2014	09:02:12.297	$GPGGA,090213,2432.4988,N,07948.2934,W,1,8,1.7,11,M,,M,,*53
06/01/2014	09:02:13.271	$GPGGA,090214,2432.4982,N,07948.2934,W,1,8,1.7,11,M,,M,,*5E
06/01/2014	09:02:14.257	$GPGGA,090215,2432.4977,N,07948.2937,W,1,8,1.7,11,M,,M,,*56
06/01/2014	09:02:15.259	$GPGGA,090216,2432.4970,N,07948.2936,W,1,8,1.7,11,M,,M,,*53
06/01/2014	09:02:16.252	$GPGGA,090217,2432.4963,N,07948.2937,W,1,8,1.7,11,M,,M,,*51
06/01/2014	09:02:17.236	$GPGGA,090218,2432.4957,N,07948.2938,W,1,8,1.7,11,M,,M,,*56
06/01/2014	09:02:18.210	$GPGGA,090219,2432.4951,N,07948.2939,W,1,8,1.7,11,M,,M,,*50
06/01/2014	09:02:19.224	$GPGGA,090220,2432.4945,N,07948.2941,W,1,8,1.7,11,M,,M,,*50
06/01/2014	09:02:20.188	$GPGGA,090221,2432.4939,N,07948.2941,W,1,8,1.7,11,M,,M,,*5A
06/01/2014	09:02:21.182	$GPGGA,090222,2432.4933,N,07948.2941,W,1,8,1.7,11,M,,M,,*53
06/01/2014	09:02:22.315	$GPGGA,090223,2432.4927,N,07948.2942,W,1,8,1.7,11,M,,M,,*54
06/01/2014	09:02:23.190	$GPGGA,090224,2432.4921,N,07948.2944,W,1,8,1.7,11,M,,M,,*53
06/01/2014	09:02:24.164	$GPGGA,090225,2432.4915,N,07948.2944,W,1,8,1.7,11,M,,M,,*55
06/01/2014	09:02:25.168	$GPGGA,090226,2432.4909,N,07948.2944,W,1,8,1.7,11,M,,M,,*5B
06/01/2014	09:02:26.172	$GPGGA,090227,2432.4903,N,07948.2944,W,1,8,1.7,11,M,,M,,*50
06/01/2014	09:02:27.244	$GPGGA,090228,2432.4897,N,07948.2945,W,1,8,1.7,11,M,,M,,*52
06/01/2014	09:02:28.739	$GPGGA,090229,2432.4890,N,07948.2948,W,1,8,1.7,11,M,,M,,*59
06/01/2014	09:02:29.713	$GPGGA,090230,2432.4884,N,07948.2947,W,1,8,1.7,11,M,,M,,*5B
06/01/2014	09:02:30.618	$GPGGA,090231,2432.4879,N,07948.2948,W,1,8,1.7,11,M,,M,,*57
06/01/2014	09:02:31.621	$GPGGA,090232,2432.4872,N,07948.2949,W,1,8,1.7,11,M,,M,,*5E
06/01/2014	09:02:32.725	$GPGGA,090233,2432.4866,N,07948.2951,W,1,8,1.7,11,M,,M,,*53
06/01/2014	09:02:33.689	$GPGGA,090234,2432.4861,N,07948.2949,W,1,8,1.7,11,M,,M,,*5A
06/01/2014	09:02:34.683	$GPGGA,090235,2432.4855,N,07948.2951,W,1,8,1.7,11,M,,M,,*55
06/01/2014	09:02:35.677	$GPGGA,090236,2432.4850,N,07948.2952,W,1,8,1.7,11,M,,M,,*50
06/01/2014	09:02:36.680	$GPGGA,090237,2432.4843,N,07948.2953,W,1,8,1.7,11,M,,M,,*52
06/01/2014	09:02:37.644	$GPGGA,090238,2432.4836,N,07948.2953,W,1,8,1.7,11,M,,M,,*5F
06/01/2014	09:02:38.658	$GPGGA,090239,2432.4832,N,07948.2955,W,1,8,1.7,11,M,,M,,*5C
06/01/2014	09:02:39.642	$GPGGA,090240,2432.4825,N,07948.2955,W,1,8,1.7,11,M,,M,,*54
06/01/2014	09:02:40.646	$GPGGA,090241,2432.4818,N,07948.2956,W,1,8,1.7,11,M,,M,,*58
06/01/2014	09:02:41.610	$GPGGA,090242,2432.4814,N,07948.2957,W,1,8,1.7,11,M,,M,,*56
06/01/2014	09:02:42.614	$GPGGA,090243,2432.4807,N,07948.2959,W,1,8,1.7,11,M,,M,,*5B
06/01/2014	09:02:43.618	$GPGGA,090244,2432.4801,N,07948.2960,W,1,8,1.7,11,M,,M,,*50
06/01/2014	09:02:44.601	$GPGGA,090245,2432.4796,N,07948.2959,W,1,8,1.7,11,M,,M,,*5A
06/01/2014	09:02:45.585	$GPGGA,090246,2432.4789,N,07948.2962,W,1,8,2.8,11,M,,M,,*53
06/01/2014	09:02:46.609	$GPGGA,090247,2432.4783,N,07948.2966,W,1,8,1.7,11,M,,M,,*50
06/01/2014	09:02:47.573	$GPGGA,090248,2432.4778,N,07948.2969,W,1,8,1.7,11,M,,M,,*54
06/01/2014	09:02:48.586	$GPGGA,090249,2432.4771,N,07948.2970,W,1,8,1.7,11,M,,M,,*54
06/01/2014	09:02:49.550	$GPGGA,090250,2432.4764,N,07948.2973,W,1,8,1.7,11,M,,M,,*5B
06/01/2014	09:02:50.574	$GPGGA,090251,2432.4758,N,07948.2975,W,1,8,1.7,11,M,,M,,*53
06/01/2014	09:02:51.548	$GPGGA,090252,2432.4753,N,07948.2978,W,1,8,1.7,11,M,,M,,*56
06/01/2014	09:02:52.562	$GPGGA,090253,2432.4746,N,07948.2980,W,1,8,1.7,11,M,,M,,*54
06/01/2014	09:02:53.516	$GPGGA,090254,2432.4740,N,07948.2981,W,1,8,1.7,11,M,,M,,*54
06/01/2014	09:02:54.550	$GPGGA,090255,2432.4734,N,07948.2984,W,1,8,1.7,11,M,,M,,*53
06/01/2014	09:02:55.504	$GPGGA,090256,2432.4727,N,07948.2985,W,1,8,1.7,12,M,,M,,*50
06/01/2014	09:02:56.502	$GPGGA,090257,2432.4721,N,07948.2988,W,1,8,1.7,12,M,,M,,*5A
06/01/2014	09:02:57.483	$GPGGA,090258,2432.4716,N,07948.2987,W,1,8,1.7,12,M,,M,,*5E
06/01/2014	09:02:58.496	$GPGGA,090259,2432.4710,N,07948.2989,W,1,8,1.7,12,M,,M,,*57
06/01/2014	09:02:59.489	$GPGGA,090300,2432.4704,N,07948.2991,W,1,8,1.7,12,M,,M,,*56
06/01/2014	09:03:00.493	$GPGGA,090301,2432.4698,N,07948.2990,W,1,8,1.7,12,M,,M,,*52
06/01/2014	09:03:01.456	$GPGGA,090302,2432.4692,N,07948.2991,W,1,8,1.7,12,M,,M,,*5A
06/01/2014	09:03:02.440	$GPGGA,090303,2432.4686,N,07948.2993,W,1,8,1.7,12,M,,M,,*5C
06/01/2014	09:03:03.464	$GPGGA,090304,2432.4681,N,07948.2992,W,1,8,1.7,12,M,,M,,*5D
06/01/2014	09:03:05.810	$GPGGA,090306,2432.4669,N,07948.2995,W,1,8,1.6,13,M,,M,,*5E
06/01/2014	09:03:06.406	$GPGGA,090307,2432.4664,N,07948.2994,W,1,8,1.6,13,M,,M,,*53
06/01/2014	09:03:07.420	$GPGGA,090308,2432.4659,N,07948.2993,W,1,8,1.6,13,M,,M,,*55
06/01/2014	09:03:08.414	$GPGGA,090309,2432.4652,N,07948.2996,W,1,8,1.6,13,M,,M,,*5A
06/01/2014	09:03:09.388	$GPGGA,090310,2432.4646,N,07948.2996,W,1,8,1.6,13,M,,M,,*57
06/01/2014	09:03:10.521	$GPGGA,090311,2432.4641,N,07948.2995,W,1,8,1.6,13,M,,M,,*52
06/01/2014	09:03:11.515	$GPGGA,090312,2432.4635,N,07948.2995,W,1,8,1.6,13,M,,M,,*52
06/01/2014	09:03:12.489	$GPGGA,090313,2432.4630,N,07948.2998,W,1,8,1.6,13,M,,M,,*5B
06/01/2014	09:03:13.353	$GPGGA,090314,2432.4623,N,07948.2997,W,1,8,1.6,13,M,,M,,*51
06/01/2014	09:03:14.457	$GPGGA,090315,2432.4619,N,07948.2996,W,1,8,1.6,13,M,,M,,*58
06/01/2014	09:03:15.352	$GPGGA,090316,2432.4612,N,07948.2998,W,1,8,1.6,13,M,,M,,*5E
06/01/2014	09:03:16.335	$GPGGA,090317,2432.4606,N,07948.2999,W,1,8,1.6,13,M,,M,,*5B
06/01/2014	09:03:17.329	$GPGGA,090318,2432.4601,N,07948.2998,W,1,8,1.6,13,M,,M,,*52
06/01/2014	09:03:18.323	$GPGGA,090319,2432.4594,N,07948.2997,W,1,8,1.6,13,M,,M,,*53
06/01/2014	09:03:19.435	$GPGGA,090320,2432.4588,N,07948.2999,W,1,8,1.6,13,M,,M,,*5A
06/01/2014	09:03:20.409	$GPGGA,090321,2432.4583,N,07948.2999,W,1,8,1.6,13,M,,M,,*50
06/01/2014	09:03:21.393	$GPGGA,090322,2432.4577,N,07948.3000,W,1,8,1.6,13,M,,M,,*50
06/01/2014	09:03:22.417	$GPGGA,090323,2432.4572,N,07948.3000,W,1,8,1.6,13,M,,M,,*54
06/01/2014	09:03:23.391	$GPGGA,090324,2432.4565,N,07948.3002,W,1,8,1.6,13,M,,M,,*57
06/01/2014	09:03:24.385	$GPGGA,090325,2432.4561,N,07948.3002,W,1,8,1.6,13,M,,M,,*52
06/01/2014	09:03:25.359	$GPGGA,090326,2432.4554,N,07948.3002,W,1,8,1.6,13,M,,M,,*57
06/01/2014	09:03:26.382	$GPGGA,090327,2432.4548,N,07948.3003,W,1,8,1.6,12,M,,M,,*5B
06/01/2014	09:03:27.356	$GPGGA,090328,2432.4543,N,07948.3003,W,1,8,1.6,12,M,,M,,*5F
06/01/2014	09:03:28.715	$GPGGA,090329,2432.4537,N,07948.3004,W,1,8,1.6,12,M,,M,,*5A
06/01/2014	09:03:29.689	$GPGGA,090330,2432.4531,N,07948.3004,W,1,8,1.6,12,M,,M,,*54
06/01/2014	09:03:30.703	$GPGGA,090331,2432.4525,N,07948.3006,W,1,8,1.6,12,M,,M,,*52
06/01/2014	09:03:31.697	$GPGGA,090332,2432.4519,N,07948.3006,W,1,8,1.6,12,M,,M,,*5E
06/01/2014	09:03:32.691	$GPGGA,090333,2432.4514,N,07948.3006,W,1,8,1.6,12,M,,M,,*52
06/01/2014	09:03:33.675	$GPGGA,090334,2432.4508,N,07948.3007,W,1,8,1.6,12,M,,M,,*59
06/01/2014	09:03:34.680	$GPGGA,090335,2432.4502,N,07948.3009,W,1,8,1.6,12,M,,M,,*5C
06/01/2014	09:03:35.643	$GPGGA,090336,2432.4496,N,07948.3008,W,1,8,1.6,12,M,,M,,*52
06/01/2014	09:03:36.665	$GPGGA,090337,2432.4490,N,07948.3009,W,1,8,1.6,12,M,,M,,*54
06/01/2014	09:03:37.640	$GPGGA,090338,2432.4484,N,07948.3010,W,1,8,1.6,12,M,,M,,*56
06/01/2014	09:03:38.623	$GPGGA,090339,2432.4478,N,07948.3010,W,1,8,1.6,12,M,,M,,*54
06/01/2014	09:03:39.627	$GPGGA,090340,2432.4472,N,07948.3010,W,1,8,1.6,12,M,,M,,*50
06/01/2014	09:03:40.621	$GPGGA,090341,2432.4467,N,07948.3013,W,1,8,1.6,12,M,,M,,*56
06/01/2014	09:03:41.595	$GPGGA,090342,2432.4460,N,07948.3012,W,1,8,1.6,12,M,,M,,*53
06/01/2014	09:03:42.609	$GPGGA,090343,2432.4454,N,07948.3013,W,1,8,1.6,12,M,,M,,*54
06/01/2014	09:03:43.593	$GPGGA,090344,2432.4449,N,07948.3014,W,1,8,1.6,12,M,,M,,*58
06/01/2014	09:03:44.597	$GPGGA,090345,2432.4443,N,07948.3016,W,1,8,1.6,12,M,,M,,*51
06/01/2014	09:03:45.571	$GPGGA,090346,2432.4437,N,07948.3015,W,1,8,1.6,12,M,,M,,*52
06/01/2014	09:03:46.545	$GPGGA,090347,2432.4431,N,07948.3017,W,1,8,1.6,12,M,,M,,*57
06/01/2014	09:03:47.569	$GPGGA,090348,2432.4425,N,07948.3018,W,1,8,1.6,12,M,,M,,*52
06/01/2014	09:03:48.553	$GPGGA,090349,2432.4419,N,07948.3018,W,1,8,1.6,12,M,,M,,*5C
06/01/2014	09:03:49.517	$GPGGA,090350,2432.4413,N,07948.3020,W,1,8,1.6,12,M,,M,,*55
06/01/2014	09:03:50.530	$GPGGA,090351,2432.4407,N,07948.3021,W,1,8,1.6,12,M,,M,,*50
06/01/2014	09:03:51.554	$GPGGA,090352,2432.4402,N,07948.3021,W,1,8,1.6,12,M,,M,,*56
06/01/2014	09:03:52.518	$GPGGA,090353,2432.4395,N,07948.3021,W,1,8,1.6,12,M,,M,,*5E
06/01/2014	09:03:53.512	$GPGGA,090354,2432.4389,N,07948.3024,W,1,8,1.6,12,M,,M,,*51
06/01/2014	09:03:54.485	$GPGGA,090355,2432.4384,N,07948.3023,W,1,8,1.6,12,M,,M,,*5A
06/01/2014	09:03:55.509	$GPGGA,090356,2432.4377,N,07948.3024,W,1,8,1.6,12,M,,M,,*52
06/01/2014	09:03:56.483	$GPGGA,090357,2432.4371,N,07948.3025,W,1,8,1.6,12,M,,M,,*54
06/01/2014	09:03:57.477	$GPGGA,090358,2432.4366,N,07948.3027,W,1,8,1.6,12,M,,M,,*5F
06/01/2014	09:03:58.461	$GPGGA,090359,2432.4359,N,07948.3026,W,1,8,1.6,12,M,,M,,*53
06/01/2014	09:03:59.484	$GPGGA,090400,2432.4353,N,07948.3027,W,1,8,1.6,12,M,,M,,*53
06/01/2014	09:04:00.538	$GPGGA,090401,2432.4348,N,07948.3029,W,1,8,1.6,12,M,,M,,*56
06/01/2014	09:04:01.432	$GPGGA,090402,2432.4341,N,07948.3029,W,1,8,1.6,12,M,,M,,*5C
06/01/2014	09:04:02.516	$GPGGA,090403,2432.4335,N,07948.3029,W,1,8,1.6,12,M,,M,,*5E
06/01/2014	09:04:03.450	$GPGGA,090404,2432.4330,N,07948.3031,W,1,8,1.6,12,M,,M,,*55
06/01/2014	09:04:04.444	$GPGGA,090405,2432.4323,N,07948.3032,W,1,8,1.6,12,M,,M,,*55
06/01/2014	09:04:05.488	$GPGGA,090406,2432.4317,N,07948.3031,W,1,8,1.6,12,M,,M,,*52
06/01/2014	09:04:06.521	$GPGGA,090407,2432.4312,N,07948.3033,W,1,8,1.6,12,M,,M,,*54
06/01/2014	09:04:07.506	$GPGGA,090408,2432.4305,N,07948.3035,W,1,8,1.6,12,M,,M,,*5B
06/01/2014	09:04:08.469	$GPGGA,090409,2432.4299,N,07948.3035,W,1,8,1.6,12,M,,M,,*5E
06/01/2014	09:04:09.463	$GPGGA,090410,2432.4294,N,07948.3035,W,1,8,1.6,12,M,,M,,*5B
06/01/2014	09:04:10.457	$GPGGA,090411,2432.4288,N,07948.3038,W,1,8,1.6,12,M,,M,,*5A
06/01/2014	09:04:11.470	$GPGGA,090412,2432.4283,N,07948.3038,W,1,8,1.6,12,M,,M,,*52
06/01/2014	09:04:12.454	$GPGGA,090413,2432.4277,N,07948.3038,W,1,8,1.6,12,M,,M,,*58
06/01/2014	09:04:13.438	$GPGGA,090414,2432.4272,N,07948.3039,W,1,8,1.6,12,M,,M,,*5B
06/01/2014	09:04:14.432	$GPGGA,090415,2432.4265,N,07948.3042,W,1,8,1.6,12,M,,M,,*50
06/01/2014	09:04:15.426	$GPGGA,090416,2432.4259,N,07948.3041,W,1,8,1.6,12,M,,M,,*5F
06/01/2014	09:04:16.420	$GPGGA,090417,2432.4254,N,07948.3042,W,1,8,1.6,12,M,,M,,*50
06/01/2014	09:04:17.394	$GPGGA,090418,2432.4248,N,07948.3045,W,1,8,1.6,12,M,,M,,*55
06/01/2014	09:04:18.407	$GPGGA,090419,2432.4242,N,07948.3044,W,1,8,1.6,12,M,,M,,*5F
06/01/2014	09:04:19.391	$GPGGA,090420,2432.4237,N,07948.3046,W,1,8,1.9,12,M,,M,,*5A
06/01/2014	09:04:20.395	$GPGGA,090421,2432.4231,N,07948.3046,W,1,8,1.6,12,M,,M,,*52
06/01/2014	09:04:21.359	$GPGGA,090422,2432.4227,N,07948.3050,W,1,8,1.6,12,M,,M,,*51
06/01/2014	09:04:22.373	$GPGGA,090423,2432.4222,N,07948.3051,W,1,8,1.6,12,M,,M,,*54
06/01/2014	09:04:23.367	$GPGGA,090424,2432.4216,N,07948.3053,W,1,8,1.6,12,M,,M,,*56
06/01/2014	09:04:24.361	$GPGGA,090425,2432.4212,N,07948.3054,W,1,8,1.6,12,M,,M,,*54
06/01/2014	09:04:25.335	$GPGGA,090426,2432.4205,N,07948.3056,W,1,8,1.6,12,M,,M,,*53
06/01/2014	09:04:26.349	$GPGGA,090427,2432.4200,N,07948.3056,W,1,8,1.6,12,M,,M,,*57
06/01/2014	09:04:27.333	$GPGGA,090428,2432.4195,N,07948.3058,W,1,8,1.6,12,M,,M,,*59
06/01/2014	09:04:28.700	$GPGGA,090429,2432.4189,N,07948.3060,W,1,8,1.6,12,M,,M,,*5E
06/01/2014	09:04:29.674	$GPGGA,090430,2432.4183,N,07948.3060,W,1,8,1.6,12,M,,M,,*5C
06/01/2014	09:04:30.648	$GPGGA,090431,2432.4178,N,07948.3061,W,1,8,1.6,12,M,,M,,*58
06/01/2014	09:04:31.672	$GPGGA,090432,2432.4173,N,07948.3063,W,1,8,1.6,12,M,,M,,*52
06/01/2014	09:04:32.677	$GPGGA,090433,2432.4166,N,07948.3064,W,1,8,1.6,12,M,,M,,*50
06/01/2014	09:04:33.640	$GPGGA,090434,2432.4161,N,07948.3064,W,1,8,1.6,12,M,,M,,*50
06/01/2014	09:04:34.634	$GPGGA,090435,2432.4156,N,07948.3065,W,1,8,1.6,11,M,,M,,*57
06/01/2014	09:04:35.638	$GPGGA,090436,2432.4150,N,07948.3067,W,1,8,1.6,11,M,,M,,*50
06/01/2014	09:04:36.603	$GPGGA,090437,2432.4144,N,07948.3067,W,1,8,1.6,11,M,,M,,*54
06/01/2014	09:04:37.596	$GPGGA,090438,2432.4139,N,07948.3067,W,1,8,1.6,11,M,,M,,*51
06/01/2014	09:04:38.600	$GPGGA,090439,2432.4133,N,07948.3069,W,1,8,1.6,11,M,,M,,*54
06/01/2014	09:04:39.594	$GPGGA,090440,2432.4128,N,07948.3069,W,1,8,1.6,11,M,,M,,*50
06/01/2014	09:04:40.577	$GPGGA,090441,2432.4121,N,07948.3069,W,1,8,1.6,11,M,,M,,*58
06/01/2014	09:04:41.671	$GPGGA,090442,2432.4115,N,07948.3071,W,1,8,1.6,11,M,,M,,*55
06/01/2014	09:04:42.565	$GPGGA,090443,2432.4110,N,07948.3071,W,1,8,1.6,11,M,,M,,*51
06/01/2014	09:04:43.565	$GPGGA,090444,2432.4104,N,07948.3072,W,1,8,1.6,11,M,,M,,*50
06/01/2014	09:04:44.533	$GPGGA,090445,2432.4099,N,07948.3074,W,1,8,1.6,11,M,,M,,*52
06/01/2014	09:04:45.557	$GPGGA,090446,2432.4092,N,07948.3073,W,1,8,1.6,11,M,,M,,*5D
06/01/2014	09:04:46.659	$GPGGA,090447,2432.4088,N,07948.3074,W,1,8,1.6,11,M,,M,,*50
06/01/2014	09:04:47.544	$GPGGA,090448,2432.4081,N,07948.3075,W,1,8,1.6,11,M,,M,,*57
06/01/2014	09:04:48.528	$GPGGA,090449,2432.4074,N,07948.3075,W,1,8,1.6,11,M,,M,,*5C
06/01/2014	09:04:49.591	$GPGGA,090450,2432.4070,N,07948.3075,W,1,8,1.6,11,M,,M,,*50
06/01/2014	09:04:50.585	$GPGGA,090451,2432.4063,N,07948.3078,W,1,8,1.6,11,M,,M,,*5E
06/01/2014	09:04:51.499	$GPGGA,090452,2432.4057,N,07948.3077,W,1,8,1.6,11,M,,M,,*55
06/01/2014	09:04:52.483	$GPGGA,090453,2432.4052,N,07948.3078,W,1,8,1.6,11,M,,M,,*5E
06/01/2014	09:04:53.557	$GPGGA,090454,2432.4046,N,07948.3078,W,1,8,1.6,11,M,,M,,*5C
06/01/2014	09:04:54.590	$GPGGA,090455,2432.4041,N,07948.3079,W,1,8,1.6,11,M,,M,,*5B
06/01/2014	09:04:55.465	$GPGGA,090456,2432.4034,N,07948.3081,W,1,8,1.6,11,M,,M,,*5D
06/01/2014	09:04:56.558	$GPGGA,090457,2432.4030,N,07948.3080,W,1,8,1.6,11,M,,M,,*59
06/01/2014	09:04:57.532	$GPGGA,090458,2432.4023,N,07948.3082,W,1,8,1.6,11,M,,M,,*56
06/01/2014	09:04:58.526	$GPGGA,090459,2432.4016,N,07948.3083,W,1,8,1.6,11,M,,M,,*50
06/01/2014	09:04:59.550	$GPGGA,090500,2432.4010,N,07948.3083,W,1,8,1.6,11,M,,M,,*5B
06/01/2014	09:05:00.504	$GPGGA,090501,2432.4005,N,07948.3083,W,1,8,1.6,11,M,,M,,*5E
06/01/2014	09:05:01.498	$GPGGA,090502,2432.3999,N,07948.3085,W,1,8,1.6,11,M,,M,,*50
06/01/2014	09:05:02.512	$GPGGA,090503,2432.3994,N,07948.3086,W,1,8,1.6,11,M,,M,,*5F
06/01/2014	09:05:03.505	$GPGGA,090504,2432.3985,N,07948.3085,W,1,8,1.6,11,M,,M,,*5B
06/01/2014	09:05:04.499	$GPGGA,090505,2432.3979,N,07948.3085,W,1,8,1.5,11,M,,M,,*5A
06/01/2014	09:05:05.463	$GPGGA,090506,2432.3973,N,07948.3086,W,1,8,1.5,11,M,,M,,*50
06/01/2014	09:05:06.496	$GPGGA,090507,2432.3966,N,07948.3089,W,1,8,1.5,11,M,,M,,*5A
06/01/2014	09:05:07.460	$GPGGA,090508,2432.3960,N,07948.3087,W,1,8,1.5,11,M,,M,,*5D
06/01/2014	09:05:08.454	$GPGGA,090509,2432.3954,N,07948.3089,W,1,8,1.5,11,M,,M,,*55
06/01/2014	09:05:09.438	$GPGGA,090510,2432.3947,N,07948.3089,W,1,8,1.5,11,M,,M,,*5F
06/01/2014	09:05:10.442	$GPGGA,090511,2432.3941,N,07948.3090,W,1,8,1.5,11,M,,M,,*50
06/01/2014	09:05:11.446	$GPGGA,090512,2432.3936,N,07948.3090,W,1,8,1.5,11,M,,M,,*53
06/01/2014	09:05:12.430	$GPGGA,090513,2432.3929,N,07948.3090,W,1,8,1.5,12,M,,M,,*5F
06/01/2014	09:05:13.414	$GPGGA,090514,2432.3923,N,07948.3093,W,1,8,1.5,12,M,,M,,*51
06/01/2014	09:05:14.388	$GPGGA,090515,2432.3918,N,07948.3093,W,1,8,1.5,12,M,,M,,*58
06/01/2014	09:05:15.402	$GPGGA,090516,2432.3911,N,07948.3093,W,1,8,1.5,12,M,,M,,*52
06/01/2014	09:05:16.425	$GPGGA,090517,2432.3905,N,07948.3094,W,1,8,1.5,12,M,,M,,*51
06/01/2014	09:05:17.370	$GPGGA,090518,2432.3900,N,07948.3096,W,1,8,1.5,12,M,,M,,*59
06/01/2014	09:05:18.373	$GPGGA,090519,2432.3893,N,07948.3097,W,1,8,1.5,12,M,,M,,*52
06/01/2014	09:05:19.367	$GPGGA,090520,2432.3886,N,07948.3097,W,1,8,1.5,12,M,,M,,*5C
06/01/2014	09:05:20.351	$GPGGA,090521,2432.3882,N,07948.3097,W,1,8,1.5,12,M,,M,,*59
06/01/2014	09:05:21.334	$GPGGA,090522,2432.3875,N,07948.3100,W,1,8,1.5,12,M,,M,,*5D
06/01/2014	09:05:22.328	$GPGGA,090523,2432.3869,N,07948.3100,W,1,8,1.5,12,M,,M,,*51
06/01/2014	09:05:23.451	$GPGGA,090524,2432.3864,N,07948.3100,W,1,8,1.5,12,M,,M,,*5B
06/01/2014	09:05:24.346	$GPGGA,090525,2432.3857,N,07948.3100,W,1,8,1.5,12,M,,M,,*5A
06/01/2014	09:05:25.301	$GPGGA,090526,2432.3851,N,07948.3101,W,1,8,1.5,12,M,,M,,*5E
06/01/2014	09:05:26.314	$GPGGA,090527,2432.3846,N,07948.3103,W,1,8,1.5,12,M,,M,,*5B
06/01/2014	09:05:27.290	$GPGGA,090528,2432.3839,N,07948.3103,W,1,8,1.5,13,M,,M,,*5D
06/01/2014	09:05:28.667	$GPGGA,090529,2432.3835,N,07948.3104,W,1,8,1.5,13,M,,M,,*57
06/01/2014	09:05:29.631	$GPGGA,090530,2432.3828,N,07948.3104,W,1,8,1.5,13,M,,M,,*53
06/01/2014	09:05:30.744	$GPGGA,090531,2432.3822,N,07948.3107,W,1,8,1.5,13,M,,M,,*5B
06/01/2014	09:05:31.648	$GPGGA,090532,2432.3817,N,07948.3107,W,1,8,1.5,13,M,,M,,*5E
06/01/2014	09:05:32.632	$GPGGA,090533,2432.3811,N,07948.3108,W,1,8,1.5,13,M,,M,,*56
06/01/2014	09:05:34.620	$GPGGA,090535,2432.3800,N,07948.3109,W,1,8,1.5,13,M,,M,,*51
06/01/2014	09:05:35.605	$GPGGA,090536,2432.3794,N,07948.3110,W,1,8,1.5,13,M,,M,,*58
06/01/2014	09:05:36.600	$GPGGA,090537,2432.3788,N,07948.3111,W,1,8,1.5,13,M,,M,,*55
06/01/2014	09:05:37.562	$GPGGA,090538,2432.3782,N,07948.3112,W,1,8,1.5,13,M,,M,,*53
06/01/2014	09:05:38.685	$GPGGA,090539,2432.3777,N,07948.3111,W,1,8,1.5,13,M,,M,,*5B
06/01/2014	09:05:39.688	$GPGGA,090540,2432.3770,N,07948.3114,W,1,8,1.5,13,M,,M,,*57
06/01/2014	09:05:40.682	$GPGGA,090541,2432.3764,N,07948.3114,W,1,7,2.1,13,M,,M,,*5B
06/01/2014	09:05:41.656	$GPGGA,090542,2432.3759,N,07948.3113,W,1,7,2.1,13,M,,M,,*51
06/01/2014	09:05:42.640	$GPGGA,090543,2432.3753,N,07948.3114,W,1,7,2.1,13,M,,M,,*5D
06/01/2014	09:05:43.624	$GPGGA,090544,2432.3748,N,07948.3116,W,1,7,2.1,13,M,,M,,*52
06/01/2014	09:05:44.647	$GPGGA,090545,2432.3742,N,07948.3115,W,1,7,2.1,13,M,,M,,*5A
06/01/2014	09:05:45.612	$GPGGA,090546,2432.3736,N,07948.3116,W,1,7,2.1,13,M,,M,,*59
06/01/2014	09:05:46.605	$GPGGA,090547,2432.3731,N,07948.3118,W,1,8,2.1,13,M,,M,,*5E
06/01/2014	09:05:47.599	$GPGGA,090548,2432.3725,N,07948.3117,W,1,8,2.1,13,M,,M,,*5B
06/01/2014	09:05:48.583	$GPGGA,090549,2432.3719,N,07948.3118,W,1,8,2.1,13,M,,M,,*5A
06/01/2014	09:05:49.577	$GPGGA,090550,2432.3714,N,07948.3119,W,1,8,2.1,13,M,,M,,*5E
06/01/2014	09:05:50.571	$GPGGA,090551,2432.3708,N,07948.3119,W,1,8,2.1,13,M,,M,,*52
06/01/2014	09:05:51.585	$GPGGA,090552,2432.3702,N,07948.3119,W,1,8,2.1,13,M,,M,,*5B
06/01/2014	09:05:52.549	$GPGGA,090553,2432.3698,N,07948.3121,W,1,8,2.1,13,M,,M,,*53
06/01/2014	09:05:53.544	$GPGGA,090554,2432.3691,N,07948.3122,W,1,8,2.1,13,M,,M,,*5E
06/01/2014	09:05:54.547	$GPGGA,090555,2432.3685,N,07948.3122,W,1,8,2.1,13,M,,M,,*5A
06/01/2014	09:05:55.542	$GPGGA,090556,2432.3680,N,07948.3121,W,1,8,2.1,13,M,,M,,*5F
06/01/2014	09:05:56.543	$GPGGA,090557,2432.3674,N,07948.3123,W,1,8,2.1,13,M,,M,,*57
06/01/2014	09:05:57.508	$GPGGA,090558,2432.3669,N,07948.3125,W,1,8,2.1,13,M,,M,,*52
06/01/2014	09:05:58.511	$GPGGA,090559,2432.3663,N,07948.3124,W,1,8,2.1,13,M,,M,,*58
06/01/2014	09:05:59.515	$GPGGA,090600,2432.3658,N,07948.3123,W,1,8,2.1,13,M,,M,,*58
06/01/2014	09:06:00.499	$GPGGA,090601,2432.3652,N,07948.3126,W,1,8,2.1,13,M,,M,,*56
06/01/2014	09:06:01.483	$GPGGA,090602,2432.3647,N,07948.3128,W,1,8,2.1,13,M,,M,,*5F
06/01/2014	09:06:02.487	$GPGGA,090603,2432.3640,N,07948.3126,W,1,8,2.1,13,M,,M,,*57
06/01/2014	09:06:03.471	$GPGGA,090604,2432.3634,N,07948.3128,W,1,8,2.1,13,M,,M,,*5D
06/01/2014	09:06:04.475	$GPGGA,090605,2432.3629,N,07948.3129,W,1,8,2.1,13,M,,M,,*51
06/01/2014	09:06:05.429	$GPGGA,090606,2432.3623,N,07948.3129,W,1,8,2.1,13,M,,M,,*58
06/01/2014	09:06:06.473	$GPGGA,090607,2432.3617,N,07948.3130,W,1,8,2.1,13,M,,M,,*56
06/01/2014	09:06:07.456	$GPGGA,090608,2432.3611,N,07948.3130,W,1,8,2.1,13,M,,M,,*5F
06/01/2014	09:06:08.450	$GPGGA,090609,2432.3606,N,07948.3132,W,1,8,2.1,13,M,,M,,*5A
06/01/2014	09:06:09.405	$GPGGA,090610,2432.3600,N,07948.3132,W,1,8,2.1,13,M,,M,,*54
06/01/2014	09:06:10.418	$GPGGA,090611,2432.3595,N,07948.3133,W,1,8,2.1,13,M,,M,,*5B
06/01/2014	09:06:11.412	$GPGGA,090612,2432.3589,N,07948.3133,W,1,8,2.1,13,M,,M,,*55
06/01/2014	09:06:12.396	$GPGGA,090613,2432.3583,N,07948.3133,W,1,8,2.1,13,M,,M,,*5E
06/01/2014	09:06:13.372	$GPGGA,090614,2432.3578,N,07948.3136,W,1,8,2.1,13,M,,M,,*58
06/01/2014	09:06:14.393	$GPGGA,090615,2432.3572,N,07948.3136,W,1,8,2.1,13,M,,M,,*53
06/01/2014	09:06:15.369	$GPGGA,090616,2432.3566,N,07948.3137,W,1,8,2.1,13,M,,M,,*54
06/01/2014	09:06:16.341	$GPGGA,090617,2432.3561,N,07948.3137,W,1,8,2.1,13,M,,M,,*52
06/01/2014	09:06:17.335	$GPGGA,090618,2432.3554,N,07948.3139,W,1,8,2.1,13,M,,M,,*55
06/01/2014	09:06:18.329	$GPGGA,090619,2432.3549,N,07948.3140,W,1,8,2.1,13,M,,M,,*56
06/01/2014	09:06:19.502	$GPGGA,090620,2432.3543,N,07948.3140,W,1,8,2.1,13,M,,M,,*56
06/01/2014	09:06:20.346	$GPGGA,090621,2432.3537,N,07948.3140,W,1,8,2.1,13,M,,M,,*54
06/01/2014	09:06:21.320	$GPGGA,090622,2432.3531,N,07948.3143,W,1,8,2.1,13,M,,M,,*52
06/01/2014	09:06:23.855	$GPGGA,090623,2432.3525,N,07948.3143,W,1,8,2.1,12,M,,M,,*57
06/01/2014	09:06:23.875	$GPGGA,090624,2432.3519,N,07948.3143,W,1,8,2.1,12,M,,M,,*5F
06/01/2014	09:06:24.292	$GPGGA,090625,2432.3514,N,07948.3144,W,1,8,2.1,12,M,,M,,*54
06/01/2014	09:06:25.276	$GPGGA,090626,2432.3508,N,07948.3147,W,1,8,2.1,12,M,,M,,*59
06/01/2014	09:06:26.260	$GPGGA,090627,2432.3503,N,07948.3147,W,1,8,2.1,12,M,,M,,*53
06/01/2014	09:06:27.274	$GPGGA,090628,2432.3496,N,07948.3146,W,1,8,2.1,12,M,,M,,*50
06/01/2014	09:06:28.624	$GPGGA,090629,2432.3490,N,07948.3148,W,1,8,2.1,12,M,,M,,*59
06/01/2014	09:06:29.707	$GPGGA,090630,2432.3484,N,07948.3151,W,1,8,2.1,12,M,,M,,*5C
06/01/2014	09:06:30.612	$GPGGA,090631,2432.3478,N,07948.3151,W,1,8,2.1,12,M,,M,,*5E
06/01/2014	09:06:31.773	$GPGGA,090632,2432.3472,N,07948.3151,W,1,8,2.1,12,M,,M,,*57
06/01/2014	09:06:32.757	$GPGGA,090633,2432.3467,N,07948.3154,W,1,8,2.1,12,M,,M,,*57
06/01/2014	09:06:33.741	$GPGGA,090634,2432.3461,N,07948.3154,W,1,8,2.1,12,M,,M,,*56
06/01/2014	09:06:34.715	$GPGGA,090635,2432.3456,N,07948.3154,W,1,8,2.1,12,M,,M,,*53
06/01/2014	09:06:35.740	$GPGGA,090636,2432.3449,N,07948.3157,W,1,8,2.1,12,M,,M,,*5D
06/01/2014	09:06:36.693	$GPGGA,090637,2432.3443,N,07948.3158,W,1,8,2.1,12,M,,M,,*59
06/01/2014	09:06:37.697	$GPGGA,090638,2432.3438,N,07948.3158,W,1,8,2.1,12,M,,M,,*5A
06/01/2014	09:06:38.651	$GPGGA,090639,2432.3432,N,07948.3158,W,1,8,2.1,12,M,,M,,*51
06/01/2014	09:06:39.715	$GPGGA,090640,2432.3427,N,07948.3161,W,1,8,2.1,12,M,,M,,*51
06/01/2014	09:06:40.649	$GPGGA,090641,2432.3420,N,07948.3161,W,1,8,2.1,12,M,,M,,*57
06/01/2014	09:06:41.683	$GPGGA,090642,2432.3414,N,07948.3161,W,1,8,2.1,12,M,,M,,*53
06/01/2014	09:06:42.597	$GPGGA,090643,2432.3409,N,07948.3162,W,1,8,2.1,12,M,,M,,*5D
06/01/2014	09:06:43.680	$GPGGA,090644,2432.3403,N,07948.3165,W,1,8,2.1,12,M,,M,,*57
06/01/2014	09:06:44.575	$GPGGA,090645,2432.3396,N,07948.3165,W,1,8,2.1,12,M,,M,,*5D
06/01/2014	09:06:45.658	$GPGGA,090646,2432.3391,N,07948.3165,W,1,8,2.1,12,M,,M,,*59
06/01/2014	09:06:46.662	$GPGGA,090647,2432.3384,N,07948.3166,W,1,8,2.1,12,M,,M,,*5F
06/01/2014	09:06:47.617	$GPGGA,090648,2432.3378,N,07948.3168,W,1,8,2.1,12,M,,M,,*5D
06/01/2014	09:06:48.632	$GPGGA,090649,2432.3372,N,07948.3168,W,1,8,2.1,12,M,,M,,*56
06/01/2014	09:06:49.549	$GPGGA,090650,2432.3366,N,07948.3168,W,1,8,2.1,12,M,,M,,*5B
06/01/2014	09:06:50.535	$GPGGA,090651,2432.3360,N,07948.3169,W,1,8,2.1,12,M,,M,,*5D
06/01/2014	09:06:51.641	$GPGGA,090652,2432.3354,N,07948.3172,W,1,8,2.1,12,M,,M,,*53
06/01/2014	09:06:52.528	$GPGGA,090653,2432.3348,N,07948.3170,W,1,8,2.1,12,M,,M,,*5D
06/01/2014	09:06:53.585	$GPGGA,090654,2432.3344,N,07948.3172,W,1,8,2.1,12,M,,M,,*54
06/01/2014	09:06:54.540	$GPGGA,090655,2432.3337,N,07948.3173,W,1,8,2.1,12,M,,M,,*50
06/01/2014	09:06:55.626	$GPGGA,090656,2432.3331,N,07948.3172,W,1,8,2.1,12,M,,M,,*54
06/01/2014	09:06:56.572	$GPGGA,090657,2432.3326,N,07948.3175,W,1,8,2.1,12,M,,M,,*54
06/01/2014	09:06:57.568	$GPGGA,090658,2432.3319,N,07948.3176,W,1,8,2.1,12,M,,M,,*54
06/01/2014	09:06:58.525	$GPGGA,090659,2432.3312,N,07948.3175,W,1,8,2.1,11,M,,M,,*5E
06/01/2014	09:06:59.571	$GPGGA,090700,2432.3306,N,07948.3176,W,1,8,2.1,11,M,,M,,*55
06/01/2014	09:07:00.477	$GPGGA,090701,2432.3300,N,07948.3179,W,1,8,2.1,11,M,,M,,*5D
06/01/2014	09:07:01.593	$GPGGA,090702,2432.3294,N,07948.3178,W,1,8,2.1,11,M,,M,,*53
06/01/2014	09:07:02.529	$GPGGA,090703,2432.3288,N,07948.3179,W,1,8,2.1,11,M,,M,,*5E
06/01/2014	09:07:03.536	$GPGGA,090704,2432.3282,N,07948.3180,W,1,8,2.1,11,M,,M,,*55
06/01/2014	09:07:04.492	$GPGGA,090705,2432.3276,N,07948.3181,W,1,8,2.1,11,M,,M,,*5E
06/01/2014	09:07:05.518	$GPGGA,090706,2432.3270,N,07948.3180,W,1,8,2.1,11,M,,M,,*5A
06/01/2014	09:07:06.444	$GPGGA,090707,2432.3264,N,07948.3183,W,1,8,2.1,11,M,,M,,*5D
06/01/2014	09:07:07.519	$GPGGA,090708,2432.3259,N,07948.3184,W,1,8,2.1,11,M,,M,,*5B
06/01/2014	09:07:08.565	$GPGGA,090709,2432.3252,N,07948.3183,W,1,8,2.1,11,M,,M,,*56
06/01/2014	09:07:09.492	$GPGGA,090710,2432.3246,N,07948.3183,W,1,8,2.1,11,M,,M,,*5B
06/01/2014	09:07:10.488	$GPGGA,090711,2432.3241,N,07948.3186,W,1,8,2.1,11,M,,M,,*58
06/01/2014	09:07:11.504	$GPGGA,090712,2432.3234,N,07948.3186,W,1,8,2.1,11,M,,M,,*59
06/01/2014	09:07:12.471	$GPGGA,090713,2432.3228,N,07948.3186,W,1,8,2.1,11,M,,M,,*55
06/01/2014	09:07:13.497	$GPGGA,090714,2432.3222,N,07948.3188,W,1,8,2.1,11,M,,M,,*56
06/01/2014	09:07:14.493	$GPGGA,090715,2432.3217,N,07948.3190,W,1,8,2.1,11,M,,M,,*58
06/01/2014	09:07:15.499	$GPGGA,090716,2432.3210,N,07948.3189,W,1,8,2.1,11,M,,M,,*54
06/01/2014	09:07:16.505	$GPGGA,090717,2432.3204,N,07948.3190,W,1,8,2.1,11,M,,M,,*58
06/01/2014	09:07:17.491	$GPGGA,090718,2432.3199,N,07948.3191,W,1,8,2.1,11,M,,M,,*51
06/01/2014	09:07:18.507	$GPGGA,090719,2432.3192,N,07948.3193,W,1,8,2.1,11,M,,M,,*59
06/01/2014	09:07:19.494	$GPGGA,090720,2432.3186,N,07948.3192,W,1,8,2.1,11,M,,M,,*57
06/01/2014	09:07:20.460	$GPGGA,090721,2432.3181,N,07948.3194,W,1,8,2.1,11,M,,M,,*57
06/01/2014	09:07:21.486	$GPGGA,090722,2432.3174,N,07948.3194,W,1,8,2.1,11,M,,M,,*5E
06/01/2014	09:07:22.452	$GPGGA,090723,2432.3168,N,07948.3194,W,1,8,2.1,11,M,,M,,*52
06/01/2014	09:07:23.468	$GPGGA,090724,2432.3163,N,07948.3195,W,1,8,2.1,11,M,,M,,*5F
06/01/2014	09:07:24.474	$GPGGA,090725,2432.3156,N,07948.3197,W,1,8,2.1,11,M,,M,,*5A
06/01/2014	09:07:25.430	$GPGGA,090726,2432.3150,N,07948.3197,W,1,8,2.1,11,M,,M,,*5F
06/01/2014	09:07:26.466	$GPGGA,090727,2432.3145,N,07948.3198,W,1,8,2.1,11,M,,M,,*55
06/01/2014	09:07:27.432	$GPGGA,090728,2432.3138,N,07948.3198,W,1,8,2.1,11,M,,M,,*50
06/01/2014	09:07:28.701	$GPGGA,090729,2432.3132,N,07948.3199,W,1,8,2.1,11,M,,M,,*5A
06/01/2014	09:07:29.707	$GPGGA,090730,2432.3127,N,07948.3201,W,1,8,2.1,11,M,,M,,*54
06/01/2014	09:07:30.704	$GPGGA,090731,2432.3120,N,07948.3200,W,1,8,2.1,11,M,,M,,*53
06/01/2014	09:07:31.710	$GPGGA,090732,2432.3120,N,07948.3200,W,1,8,2.1,11,M,,M,,*50
06/01/2014	09:07:32.686	$GPGGA,090733,2432.3109,N,07948.3204,W,1,8,2.1,11,M,,M,,*5E
06/01/2014	09:07:33.682	$GPGGA,090734,2432.3102,N,07948.3203,W,1,8,2.1,11,M,,M,,*55
06/01/2014	09:07:34.669	$GPGGA,090735,2432.3095,N,07948.3204,W,1,8,2.1,11,M,,M,,*5C
06/01/2014	09:07:35.675	$GPGGA,090736,2432.3089,N,07948.3205,W,1,8,2.1,11,M,,M,,*53
06/01/2014	09:07:36.711	$GPGGA,090737,2432.3083,N,07948.3206,W,1,8,2.1,11,M,,M,,*5B
06/01/2014	09:07:37.637	$GPGGA,090738,2432.3083,N,07948.3206,W,1,8,2.1,11,M,,M,,*54
06/01/2014	09:07:38.663	$GPGGA,090739,2432.3071,N,07948.3208,W,1,8,2.1,11,M,,M,,*56
06/01/2014	09:07:39.659	$GPGGA,090740,2432.3065,N,07948.3208,W,1,8,2.1,11,M,,M,,*5D
06/01/2014	09:07:40.656	$GPGGA,090741,2432.3059,N,07948.3210,W,1,8,2.1,11,M,,M,,*5A
06/01/2014	09:07:41.631	$GPGGA,090742,2432.3059,N,07948.3210,W,1,8,2.1,11,M,,M,,*59
06/01/2014	09:07:42.627	$GPGGA,090743,2432.3055,N,07948.3212,W,1,8,2.1,11,M,,M,,*56
06/01/2014	09:07:43.643	$GPGGA,090744,2432.3041,N,07948.3212,W,1,8,2.1,11,M,,M,,*54
06/01/2014	09:07:44.630	$GPGGA,090745,2432.3035,N,07948.3215,W,1,8,2.1,11,M,,M,,*51
06/01/2014	09:07:45.606	$GPGGA,090746,2432.3035,N,07948.3215,W,1,8,2.1,11,M,,M,,*52
06/01/2014	09:07:46.642	$GPGGA,090747,2432.3029,N,07948.3214,W,1,8,2.1,11,M,,M,,*5F
06/01/2014	09:07:47.608	$GPGGA,090748,2432.3023,N,07948.3215,W,1,8,2.1,11,M,,M,,*5B
06/01/2014	09:07:48.614	$GPGGA,090749,2432.3010,N,07948.3216,W,1,8,2.1,11,M,,M,,*59
06/01/2014	09:07:49.581	$GPGGA,090750,2432.3010,N,07948.3216,W,1,8,2.1,11,M,,M,,*51
06/01/2014	09:07:50.569	$GPGGA,090751,2432.2999,N,07948.3219,W,1,8,2.1,11,M,,M,,*56
06/01/2014	09:07:51.603	$GPGGA,090752,2432.2999,N,07948.3219,W,1,8,2.1,11,M,,M,,*55
06/01/2014	09:07:52.659	$GPGGA,090753,2432.2987,N,07948.3220,W,1,8,2.1,11,M,,M,,*51
06/01/2014	09:07:53.555	$GPGGA,090754,2432.2987,N,07948.3220,W,1,8,2.1,11,M,,M,,*56
06/01/2014	09:07:54.651	$GPGGA,090755,2432.2975,N,07948.3224,W,1,8,2.1,11,M,,M,,*5E
06/01/2014	09:07:55.540	$GPGGA,090756,2432.2975,N,07948.3224,W,1,8,2.1,11,M,,M,,*5D
06/01/2014	09:07:56.544	$GPGGA,090757,2432.2963,N,07948.3226,W,1,8,2.1,11,M,,M,,*59
06/01/2014	09:07:57.570	$GPGGA,090758,2432.2963,N,07948.3226,W,1,8,2.1,11,M,,M,,*56
06/01/2014	09:07:58.527	$GPGGA,090759,2432.2951,N,07948.3227,W,1,8,2.1,11,M,,M,,*57
06/01/2014	09:07:59.562	$GPGGA,090800,2432.2951,N,07948.3227,W,1,8,2.1,11,M,,M,,*54
06/01/2014	09:08:00.608	$GPGGA,090801,2432.2939,N,07948.3231,W,1,8,2.1,11,M,,M,,*5C
06/01/2014	09:08:01.526	$GPGGA,090802,2432.2939,N,07948.3231,W,1,8,2.1,11,M,,M,,*5F
06/01/2014	09:08:02.520	$GPGGA,090803,2432.2933,N,07948.3231,W,1,8,2.1,11,M,,M,,*54
06/01/2014	09:08:03.596	$GPGGA,090804,2432.2921,N,07948.3233,W,1,8,2.1,11,M,,M,,*52
06/01/2014	09:08:04.622	$GPGGA,090805,2432.2915,N,07948.3235,W,1,8,2.1,11,M,,M,,*52
06/01/2014	09:08:05.529	$GPGGA,090806,2432.2910,N,07948.3237,W,1,8,2.1,11,M,,M,,*56
06/01/2014	09:08:06.565	$GPGGA,090807,2432.2904,N,07948.3236,W,1,8,2.1,11,M,,M,,*53
06/01/2014	09:08:07.581	$GPGGA,090808,2432.2899,N,07948.3238,W,1,8,2.1,11,M,,M,,*57
06/01/2014	09:08:08.547	$GPGGA,090809,2432.2894,N,07948.3241,W,1,8,2.1,11,M,,M,,*55
06/01/2014	09:08:09.553	$GPGGA,090810,2432.2888,N,07948.3240,W,1,8,2.1,11,M,,M,,*51
06/01/2014	09:08:10.580	$GPGGA,090811,2432.2882,N,07948.3238,W,1,8,2.1,12,M,,M,,*56
06/01/2014	09:08:11.556	$GPGGA,090812,2432.2878,N,07948.3240,W,1,8,2.1,12,M,,M,,*5F
06/01/2014	09:08:12.532	$GPGGA,090813,2432.2871,N,07948.3241,W,1,8,2.1,12,M,,M,,*56
06/01/2014	09:08:13.528	$GPGGA,090814,2432.2867,N,07948.3241,W,1,8,2.1,12,M,,M,,*56
06/01/2014	09:08:14.544	$GPGGA,090815,2432.2860,N,07948.3239,W,1,8,2.1,12,M,,M,,*5F
06/01/2014	09:08:15.531	$GPGGA,090816,2432.2856,N,07948.3241,W,1,8,2.1,12,M,,M,,*56
06/01/2014	09:08:16.526	$GPGGA,090817,2432.2849,N,07948.3244,W,1,8,2.1,12,M,,M,,*5C
06/01/2014	09:08:17.512	$GPGGA,090818,2432.2845,N,07948.3242,W,1,8,2.1,12,M,,M,,*59
06/01/2014	09:08:18.518	$GPGGA,090819,2432.2838,N,07948.3242,W,1,8,2.1,12,M,,M,,*52
06/01/2014	09:08:19.514	$GPGGA,090820,2432.2833,N,07948.3244,W,1,8,2.1,12,M,,M,,*55
06/01/2014	09:08:20.501	$GPGGA,090821,2432.2828,N,07948.3245,W,1,8,2.1,12,M,,M,,*5F
06/01/2014	09:08:21.497	$GPGGA,090822,2432.2823,N,07948.3244,W,1,8,2.1,12,M,,M,,*56
06/01/2014	09:08:22.493	$GPGGA,090823,2432.2818,N,07948.3245,W,1,8,2.1,12,M,,M,,*5E
06/01/2014	09:08:23.479	$GPGGA,090824,2432.2813,N,07948.3248,W,1,8,2.1,12,M,,M,,*5F
06/01/2014	09:08:24.495	$GPGGA,090825,2432.2809,N,07948.3247,W,1,8,2.1,12,M,,M,,*5A
06/01/2014	09:08:25.452	$GPGGA,090826,2432.2803,N,07948.3248,W,1,8,2.1,12,M,,M,,*5C
06/01/2014	09:08:26.438	$GPGGA,090827,2432.2798,N,07948.3248,W,1,8,2.1,12,M,,M,,*50
06/01/2014	09:08:27.464	$GPGGA,090828,2432.2793,N,07948.3251,W,1,8,2.1,12,M,,M,,*5C
06/01/2014	09:08:28.697	$GPGGA,090829,2432.2788,N,07948.3251,W,1,8,2.1,12,M,,M,,*57
06/01/2014	09:08:29.664	$GPGGA,090830,2432.2784,N,07948.3251,W,1,8,2.1,12,M,,M,,*53
06/01/2014	09:08:30.690	$GPGGA,090831,2432.2778,N,07948.3251,W,1,8,2.1,12,M,,M,,*51
06/01/2014	09:08:31.686	$GPGGA,090832,2432.2774,N,07948.3253,W,1,8,2.1,12,M,,M,,*5C
06/01/2014	09:08:32.642	$GPGGA,090833,2432.2769,N,07948.3255,W,1,8,2.1,12,M,,M,,*57
06/01/2014	09:08:33.647	$GPGGA,090834,2432.2764,N,07948.3255,W,1,8,2.1,12,M,,M,,*5D
06/01/2014	09:08:34.644	$GPGGA,090835,2432.2760,N,07948.3255,W,1,8,2.1,12,M,,M,,*58
06/01/2014	09:08:35.640	$GPGGA,090836,2432.2755,N,07948.3258,W,1,8,2.1,12,M,,M,,*50
06/01/2014	09:08:37.642	$GPGGA,090838,2432.2745,N,07948.3259,W,1,8,2.1,12,M,,M,,*5E
06/01/2014	09:08:38.608	$GPGGA,090839,2432.2740,N,07948.3260,W,1,8,2.1,12,M,,M,,*50
06/01/2014	09:08:39.625	$GPGGA,090840,2432.2737,N,07948.3262,W,1,8,2.1,12,M,,M,,*5C
06/01/2014	09:08:40.591	$GPGGA,090841,2432.2731,N,07948.3263,W,1,8,2.1,12,M,,M,,*5A
06/01/2014	09:08:41.617	$GPGGA,090842,2432.2727,N,07948.3264,W,1,8,2.1,12,M,,M,,*59
06/01/2014	09:08:42.573	$GPGGA,090843,2432.2722,N,07948.3264,W,1,8,2.1,12,M,,M,,*5D
06/01/2014	09:08:43.709	$GPGGA,090844,2432.2719,N,07948.3266,W,1,8,2.1,12,M,,M,,*50
06/01/2014	09:08:44.569	$GPGGA,090845,2432.2715,N,07948.3267,W,1,8,2.1,12,M,,M,,*5C
06/01/2014	09:08:45.682	$GPGGA,090846,2432.2709,N,07948.3267,W,1,8,2.1,12,M,,M,,*52
06/01/2014	09:08:46.568	$GPGGA,090847,2432.2704,N,07948.3270,W,1,8,2.1,12,M,,M,,*58
06/01/2014	09:08:47.564	$GPGGA,090848,2432.2701,N,07948.3271,W,1,8,2.1,12,M,,M,,*53
06/01/2014	09:08:48.640	$GPGGA,090849,2432.2695,N,07948.3273,W,1,8,2.1,12,M,,M,,*5C
06/01/2014	09:08:49.548	$GPGGA,090850,2432.2690,N,07948.3272,W,1,8,2.1,12,M,,M,,*50
06/01/2014	09:08:50.545	$GPGGA,090851,2432.2686,N,07948.3274,W,1,8,2.1,12,M,,M,,*50
06/01/2014	09:08:51.558	$GPGGA,090852,2432.2681,N,07948.3277,W,1,8,2.1,12,M,,M,,*57
06/01/2014	09:08:52.634	$GPGGA,090853,2432.2676,N,07948.3276,W,1,8,2.1,12,M,,M,,*5F
06/01/2014	09:08:53.610	$GPGGA,090854,2432.2672,N,07948.3277,W,1,8,2.1,12,M,,M,,*5D
06/01/2014	09:08:54.606	$GPGGA,090855,2432.2668,N,07948.3280,W,1,8,2.1,12,M,,M,,*5F
06/01/2014	09:08:55.523	$GPGGA,090856,2432.2663,N,07948.3280,W,1,8,2.1,12,M,,M,,*57
06/01/2014	09:08:56.631	$GPGGA,090857,2432.2659,N,07948.3281,W,1,8,2.1,12,M,,M,,*5E
06/01/2014	09:08:57.595	$GPGGA,090858,2432.2654,N,07948.3284,W,1,8,2.1,12,M,,M,,*59
06/01/2014	09:08:58.581	$GPGGA,090859,2432.2650,N,07948.3284,W,1,8,2.1,12,M,,M,,*5C
06/01/2014	09:08:59.627	$GPGGA,090900,2432.2646,N,07948.3287,W,1,8,2.1,12,M,,M,,*55
06/01/2014	09:09:00.584	$GPGGA,090901,2432.2641,N,07948.3288,W,1,8,2.1,11,M,,M,,*5F
06/01/2014	09:09:01.570	$GPGGA,090902,2432.2636,N,07948.3288,W,1,8,2.1,11,M,,M,,*5C
06/01/2014	09:09:02.586	$GPGGA,090903,2432.2633,N,07948.3291,W,1,8,2.1,11,M,,M,,*50
06/01/2014	09:09:03.572	$GPGGA,090904,2432.2628,N,07948.3293,W,1,8,2.1,11,M,,M,,*5F
06/01/2014	09:09:04.568	$GPGGA,090905,2432.2625,N,07948.3292,W,1,8,2.1,11,M,,M,,*52
06/01/2014	09:09:05.535	$GPGGA,090906,2432.2621,N,07948.3295,W,1,8,2.1,11,M,,M,,*52
06/01/2014	09:09:06.571	$GPGGA,090907,2432.2616,N,07948.3298,W,1,8,2.1,11,M,,M,,*5A
06/01/2014	09:09:07.547	$GPGGA,090908,2432.2611,N,07948.3298,W,1,8,2.1,11,M,,M,,*52
06/01/2014	09:09:08.552	$GPGGA,090909,2432.2607,N,07948.3298,W,1,8,2.1,11,M,,M,,*54
06/01/2014	09:09:09.519	$GPGGA,090910,2432.2603,N,07948.3300,W,1,8,2.1,11,M,,M,,*58
06/01/2014	09:09:10.535	$GPGGA,090911,2432.2598,N,07948.3303,W,1,8,2.1,11,M,,M,,*5B
06/01/2014	09:09:11.531	$GPGGA,090912,2432.2594,N,07948.3303,W,1,8,2.1,11,M,,M,,*54
06/01/2014	09:09:12.517	$GPGGA,090913,2432.2589,N,07948.3305,W,1,8,2.1,11,M,,M,,*5F
06/01/2014	09:09:13.503	$GPGGA,090914,2432.2586,N,07948.3306,W,1,8,2.1,11,M,,M,,*54
06/01/2014	09:09:14.520	$GPGGA,090915,2432.2582,N,07948.3309,W,1,8,2.1,11,M,,M,,*5E
06/01/2014	09:09:15.496	$GPGGA,090916,2432.2578,N,07948.3309,W,1,8,2.1,11,M,,M,,*58
06/01/2014	09:09:16.522	$GPGGA,090917,2432.2574,N,07948.3309,W,1,8,2.1,11,M,,M,,*55
06/01/2014	09:09:17.488	$GPGGA,090918,2432.2569,N,07948.3311,W,1,8,2.1,11,M,,M,,*5F
06/01/2014	09:09:18.494	$GPGGA,090919,2432.2564,N,07948.3313,W,1,8,2.1,11,M,,M,,*51
06/01/2014	09:09:19.471	$GPGGA,090920,2432.2560,N,07948.3314,W,1,8,2.1,11,M,,M,,*58
06/01/2014	09:09:20.457	$GPGGA,090921,2432.2556,N,07948.3316,W,1,8,2.1,11,M,,M,,*5E
06/01/2014	09:09:21.453	$GPGGA,090922,2432.2551,N,07948.3320,W,1,8,2.1,11,M,,M,,*5F
06/01/2014	09:09:22.479	$GPGGA,090923,2432.2547,N,07948.3320,W,1,8,2.1,11,M,,M,,*59
06/01/2014	09:09:23.445	$GPGGA,090924,2432.2542,N,07948.3321,W,1,8,2.1,11,M,,M,,*5A
06/01/2014	09:09:24.442	$GPGGA,090925,2432.2538,N,07948.3324,W,1,8,2.1,11,M,,M,,*53
06/01/2014	09:09:25.419	$GPGGA,090926,2432.2533,N,07948.3324,W,1,8,2.1,11,M,,M,,*5B
06/01/2014	09:09:26.453	$GPGGA,090927,2432.2529,N,07948.3327,W,1,8,2.1,11,M,,M,,*52
06/01/2014	09:09:27.429	$GPGGA,090928,2432.2525,N,07948.3328,W,1,8,2.1,11,M,,M,,*5E
06/01/2014	09:09:28.644	$GPGGA,090929,2432.2520,N,07948.3329,W,1,8,2.1,11,M,,M,,*5B
06/01/2014	09:09:29.640	$GPGGA,090930,2432.2516,N,07948.3331,W,1,8,2.1,11,M,,M,,*5F
06/01/2014	09:09:30.626	$GPGGA,090931,2432.2513,N,07948.3332,W,1,8,2.1,11,M,,M,,*58
06/01/2014	09:09:31.732	$GPGGA,090932,2432.2507,N,07948.3335,W,1,8,2.1,11,M,,M,,*59
06/01/2014	09:09:32.638	$GPGGA,090933,2432.2502,N,07948.3336,W,1,8,2.1,11,M,,M,,*5E
06/01/2014	09:09:33.704	$GPGGA,090934,2432.2498,N,07948.3338,W,1,8,2.1,11,M,,M,,*55
06/01/2014	09:09:34.710	$GPGGA,090935,2432.2493,N,07948.3339,W,1,8,2.1,11,M,,M,,*5E
06/01/2014	09:09:35.707	$GPGGA,090936,2432.2489,N,07948.3342,W,1,8,2.1,11,M,,M,,*5A
06/01/2014	09:09:36.623	$GPGGA,090937,2432.2484,N,07948.3342,W,1,8,2.1,11,M,,M,,*56
06/01/2014	09:09:37.679	$GPGGA,090938,2432.2480,N,07948.3345,W,1,8,2.1,11,M,,M,,*5A
06/01/2014	09:09:38.576	$GPGGA,090939,2432.2475,N,07948.3346,W,1,8,2.1,11,M,,M,,*52
06/01/2014	09:09:39.701	$GPGGA,090940,2432.2470,N,07948.3349,W,1,8,2.1,11,M,,M,,*56
06/01/2014	09:09:40.578	$GPGGA,090941,2432.2466,N,07948.3349,W,1,8,2.1,11,M,,M,,*50
06/01/2014	09:09:41.664	$GPGGA,090942,2432.2462,N,07948.3350,W,1,8,2.1,11,M,,M,,*5F
06/01/2014	09:09:42.560	$GPGGA,090943,2432.2457,N,07948.3353,W,1,8,2.1,11,M,,M,,*5B
06/01/2014	09:09:43.666	$GPGGA,090944,2432.2453,N,07948.3356,W,1,8,2.1,11,M,,M,,*5D
06/01/2014	09:09:44.651	$GPGGA,090945,2432.2448,N,07948.3355,W,1,8,2.1,11,M,,M,,*55
06/01/2014	09:09:45.648	$GPGGA,090946,2432.2444,N,07948.3357,W,1,8,2.1,11,M,,M,,*58
06/01/2014	09:09:46.674	$GPGGA,090947,2432.2439,N,07948.3360,W,1,8,2.1,11,M,,M,,*57
06/01/2014	09:09:47.640	$GPGGA,090948,2432.2435,N,07948.3363,W,1,8,2.1,11,M,,M,,*57
06/01/2014	09:09:48.646	$GPGGA,090949,2432.2430,N,07948.3362,W,1,8,2.1,11,M,,M,,*52
06/01/2014	09:09:49.622	$GPGGA,090950,2432.2426,N,07948.3365,W,1,8,2.1,11,M,,M,,*5A
06/01/2014	09:09:50.619	$GPGGA,090951,2432.2421,N,07948.3368,W,1,8,2.1,11,M,,M,,*51
06/01/2014	09:09:51.615	$GPGGA,090952,2432.2417,N,07948.3370,W,1,8,2.1,11,M,,M,,*5E
06/01/2014	09:09:52.631	$GPGGA,090953,2432.2412,N,07948.3369,W,1,8,2.1,11,M,,M,,*52
06/01/2014	09:09:53.587	$GPGGA,090954,2432.2408,N,07948.3374,W,1,8,2.1,11,M,,M,,*52
06/01/2014	09:09:54.606	$GPGGA,090955,2432.2404,N,07948.3378,W,1,8,2.1,11,M,,M,,*53
06/01/2014	09:09:55.600	$GPGGA,090956,2432.2398,N,07948.3375,W,1,8,2.1,11,M,,M,,*5F
06/01/2014	09:09:56.586	$GPGGA,090957,2432.2394,N,07948.3378,W,1,8,2.1,11,M,,M,,*5F
06/01/2014	09:09:57.562	$GPGGA,090958,2432.2391,N,07948.3382,W,1,8,2.1,11,M,,M,,*50
06/01/2014	09:09:58.578	$GPGGA,090959,2432.2386,N,07948.3383,W,1,8,2.1,11,M,,M,,*56
06/01/2014	09:09:59.584	$GPGGA,091000,2432.2381,N,07948.3382,W,1,8,2.1,11,M,,M,,*54
06/01/2014	09:10:00.571	$GPGGA,091001,2432.2377,N,07948.3386,W,1,8,2.1,11,M,,M,,*58
06/01/2014	09:10:01.546	$GPGGA,091002,2432.2374,N,07948.3392,W,1,8,2.1,11,M,,M,,*5D
06/01/2014	09:10:02.532	$GPGGA,091003,2432.2368,N,07948.3389,W,1,8,2.1,11,M,,M,,*5B
06/01/2014	09:10:03.548	$GPGGA,091004,2432.2365,N,07948.3392,W,1,8,2.1,11,M,,M,,*5B
06/01/2014	09:10:04.535	$GPGGA,091005,2432.2361,N,07948.3397,W,1,8,2.1,11,M,,M,,*5B
06/01/2014	09:10:05.531	$GPGGA,091006,2432.2357,N,07948.3399,W,1,8,2.1,11,M,,M,,*53
06/01/2014	09:10:06.517	$GPGGA,091007,2432.2352,N,07948.3397,W,1,8,2.1,11,M,,M,,*59
06/01/2014	09:10:07.533	$GPGGA,091008,2432.2348,N,07948.3401,W,1,8,2.1,11,M,,M,,*55
06/01/2014	09:10:08.499	$GPGGA,091009,2432.2345,N,07948.3407,W,1,8,2.1,11,M,,M,,*5F
06/01/2014	09:10:09.506	$GPGGA,091010,2432.2340,N,07948.3406,W,1,8,2.1,10,M,,M,,*52
06/01/2014	09:10:10.502	$GPGGA,091011,2432.2336,N,07948.3407,W,1,8,2.1,10,M,,M,,*53
06/01/2014	09:10:11.518	$GPGGA,091012,2432.2332,N,07948.3411,W,1,8,2.1,10,M,,M,,*53
06/01/2014	09:10:12.504	$GPGGA,091013,2432.2328,N,07948.3414,W,1,8,2.1,10,M,,M,,*5C
06/01/2014	09:10:13.471	$GPGGA,091014,2432.2323,N,07948.3414,W,1,8,2.1,10,M,,M,,*50
06/01/2014	09:10:14.467	$GPGGA,091015,2432.2319,N,07948.3418,W,1,8,2.1,10,M,,M,,*54
06/01/2014	09:10:15.483	$GPGGA,091016,2432.2315,N,07948.3421,W,1,8,2.1,10,M,,M,,*51
06/01/2014	09:10:16.465	$GPGGA,091017,2432.2311,N,07948.3423,W,1,8,2.1,10,M,,M,,*56
06/01/2014	09:10:17.565	$GPGGA,091018,2432.2307,N,07948.3425,W,1,8,2.1,10,M,,M,,*58
06/01/2014	09:10:18.460	$GPGGA,091019,2432.2303,N,07948.3426,W,1,8,2.1,10,M,,M,,*5E
06/01/2014	09:10:19.467	$GPGGA,091020,2432.2298,N,07948.3432,W,1,8,2.1,10,M,,M,,*52
06/01/2014	09:10:20.443	$GPGGA,091021,2432.2294,N,07948.3432,W,1,8,2.1,10,M,,M,,*5F
06/01/2014	09:10:21.519	$GPGGA,091022,2432.2289,N,07948.3432,W,1,8,2.1,10,M,,M,,*50
06/01/2014	09:10:22.425	$GPGGA,091023,2432.2286,N,07948.3437,W,1,8,2.0,10,M,,M,,*5A
06/01/2014	09:10:23.432	$GPGGA,091024,2432.2282,N,07948.3441,W,1,8,2.0,10,M,,M,,*58
06/01/2014	09:10:24.497	$GPGGA,091025,2432.2278,N,07948.3440,W,1,8,2.0,10,M,,M,,*5D
06/01/2014	09:10:25.524	$GPGGA,091026,2432.2273,N,07948.3441,W,1,8,2.0,10,M,,M,,*54
06/01/2014	09:10:26.430	$GPGGA,091027,2432.2269,N,07948.3447,W,1,8,2.0,10,M,,M,,*58
06/01/2014	09:10:27.411	$GPGGA,091028,2432.2264,N,07948.3448,W,1,8,2.0,10,M,,M,,*55
06/01/2014	09:10:28.638	$GPGGA,091029,2432.2260,N,07948.3448,W,1,8,2.0,10,M,,M,,*50
06/01/2014	09:10:29.617	$GPGGA,091030,2432.2256,N,07948.3452,W,1,8,2.0,10,M,,M,,*56
06/01/2014	09:10:30.693	$GPGGA,091031,2432.2253,N,07948.3455,W,1,8,2.0,10,M,,M,,*55
06/01/2014	09:10:31.649	$GPGGA,091032,2432.2247,N,07948.3457,W,1,8,2.0,10,M,,M,,*51
06/01/2014	09:10:32.724	$GPGGA,091033,2432.2243,N,07948.3458,W,1,8,2.0,10,M,,M,,*5B
06/01/2014	09:10:33.691	$GPGGA,091034,2432.2239,N,07948.3461,W,1,8,2.0,10,M,,M,,*5B
06/01/2014	09:10:34.698	$GPGGA,091035,2432.2235,N,07948.3465,W,1,8,2.0,10,M,,M,,*52
06/01/2014	09:10:35.685	$GPGGA,091036,2432.2231,N,07948.3466,W,1,8,2.0,10,M,,M,,*56
06/01/2014	09:10:36.689	$GPGGA,091037,2432.2227,N,07948.3468,W,1,8,2.0,10,M,,M,,*5E
06/01/2014	09:10:37.665	$GPGGA,091038,2432.2224,N,07948.3472,W,1,8,2.0,9,M,,M,,*61
06/01/2014	09:10:38.671	$GPGGA,091039,2432.2218,N,07948.3473,W,1,8,2.0,9,M,,M,,*6E
06/01/2014	09:10:39.667	$GPGGA,091040,2432.2214,N,07948.3475,W,1,8,2.0,9,M,,M,,*6A
06/01/2014	09:10:40.674	$GPGGA,091041,2432.2210,N,07948.3479,W,1,8,2.0,9,M,,M,,*63
06/01/2014	09:10:41.630	$GPGGA,091042,2432.2206,N,07948.3480,W,1,8,2.0,9,M,,M,,*61
06/01/2014	09:10:42.646	$GPGGA,091043,2432.2202,N,07948.3482,W,1,8,2.0,9,M,,M,,*66
06/01/2014	09:10:43.632	$GPGGA,091044,2432.2197,N,07948.3486,W,1,8,2.0,9,M,,M,,*6A
06/01/2014	09:10:44.638	$GPGGA,091045,2432.2193,N,07948.3487,W,1,8,2.0,9,M,,M,,*6E
06/01/2014	09:10:45.605	$GPGGA,091046,2432.2189,N,07948.3488,W,1,8,2.0,9,M,,M,,*69
06/01/2014	09:10:46.621	$GPGGA,091047,2432.2185,N,07948.3493,W,1,8,2.0,9,M,,M,,*6E
06/01/2014	09:10:47.607	$GPGGA,091048,2432.2181,N,07948.3495,W,1,8,2.0,9,M,,M,,*63
06/01/2014	09:10:48.583	$GPGGA,091049,2432.2177,N,07948.3497,W,1,8,2.0,9,M,,M,,*69
06/01/2014	09:10:49.590	$GPGGA,091050,2432.2173,N,07948.3498,W,1,8,2.0,9,M,,M,,*6A
06/01/2014	09:10:50.576	$GPGGA,091051,2432.2169,N,07948.3502,W,1,8,2.0,9,M,,M,,*62
06/01/2014	09:10:51.592	$GPGGA,091052,2432.2166,N,07948.3504,W,1,8,2.0,9,M,,M,,*68
06/01/2014	09:10:52.568	$GPGGA,091053,2432.2160,N,07948.3505,W,1,8,2.0,9,M,,M,,*6E
06/01/2014	09:10:53.563	$GPGGA,091054,2432.2157,N,07948.3509,W,1,8,2.0,9,M,,M,,*61
06/01/2014	09:10:54.560	$GPGGA,091055,2432.2152,N,07948.3512,W,1,8,2.0,9,M,,M,,*6F
06/01/2014	09:10:55.576	$GPGGA,091056,2432.2148,N,07948.3513,W,1,8,2.0,9,M,,M,,*66
06/01/2014	09:10:56.552	$GPGGA,091057,2432.2144,N,07948.3515,W,1,8,2.0,9,M,,M,,*6D
06/01/2014	09:10:57.538	$GPGGA,091058,2432.2141,N,07948.3520,W,1,8,2.0,9,M,,M,,*61
06/01/2014	09:10:58.574	$GPGGA,091059,2432.2137,N,07948.3522,W,1,8,2.0,9,M,,M,,*63
06/01/2014	09:10:59.562	$GPGGA,091100,2432.2132,N,07948.3523,W,1,8,2.0,9,M,,M,,*6A
06/01/2014	09:11:00.517	$GPGGA,091101,2432.2128,N,07948.3527,W,1,8,2.0,9,M,,M,,*64
06/01/2014	09:11:01.513	$GPGGA,091102,2432.2124,N,07948.3531,W,1,8,2.0,9,M,,M,,*6C
06/01/2014	09:11:02.509	$GPGGA,091103,2432.2120,N,07948.3531,W,1,8,2.0,9,M,,M,,*69
06/01/2014	09:11:03.525	$GPGGA,091104,2432.2116,N,07948.3533,W,1,8,2.0,9,M,,M,,*69
06/01/2014	09:11:04.502	$GPGGA,091105,2432.2113,N,07948.3538,W,1,8,2.0,9,M,,M,,*66
06/01/2014	09:11:05.488	$GPGGA,091106,2432.2109,N,07948.3541,W,1,8,2.0,9,M,,M,,*60
06/01/2014	09:11:06.504	$GPGGA,091107,2432.2104,N,07948.3542,W,1,8,2.0,9,M,,M,,*6F
06/01/2014	09:11:07.610	$GPGGA,091108,2432.2099,N,07948.3545,W,1,8,2.0,9,M,,M,,*62
06/01/2014	09:11:08.487	$GPGGA,091109,2432.2094,N,07948.3549,W,1,8,2.0,9,M,,M,,*62
06/01/2014	09:11:09.473	$GPGGA,091110,2432.2090,N,07948.3551,W,1,8,2.0,9,M,,M,,*67
06/01/2014	09:11:10.459	$GPGGA,091111,2432.2085,N,07948.3552,W,1,8,2.0,9,M,,M,,*61
06/01/2014	09:11:11.504	$GPGGA,091112,2432.2081,N,07948.3555,W,1,8,2.0,9,M,,M,,*61
06/01/2014	09:11:12.450	$GPGGA,091113,2432.2077,N,07948.3559,W,1,8,2.0,10,M,,M,,*5D
06/01/2014	09:11:13.546	$GPGGA,091114,2432.2073,N,07948.3559,W,1,8,2.0,10,M,,M,,*5E
06/01/2014	09:11:14.460	$GPGGA,091115,2432.2069,N,07948.3560,W,1,8,2.0,10,M,,M,,*5E
06/01/2014	09:11:15.439	$GPGGA,091116,2432.2065,N,07948.3564,W,1,8,2.0,10,M,,M,,*55
06/01/2014	09:11:16.505	$GPGGA,091117,2432.2061,N,07948.3567,W,1,8,2.0,10,M,,M,,*53
06/01/2014	09:11:17.431	$GPGGA,091118,2432.2055,N,07948.3567,W,1,8,2.0,10,M,,M,,*5B
06/01/2014	09:11:18.537	$GPGGA,091119,2432.2051,N,07948.3570,W,1,8,2.0,10,M,,M,,*58
06/01/2014	09:11:19.523	$GPGGA,091120,2432.2047,N,07948.3574,W,1,8,2.0,10,M,,M,,*51
06/01/2014	09:11:20.520	$GPGGA,091121,2432.2043,N,07948.3576,W,1,8,2.0,10,M,,M,,*56
06/01/2014	09:11:21.496	$GPGGA,091122,2432.2038,N,07948.3577,W,1,8,2.0,10,M,,M,,*58
06/01/2014	09:11:22.522	$GPGGA,091123,2432.2034,N,07948.3580,W,1,8,2.0,10,M,,M,,*5D
06/01/2014	09:11:23.508	$GPGGA,091124,2432.2030,N,07948.3584,W,1,8,2.0,10,M,,M,,*5A
06/01/2014	09:11:24.519	$GPGGA,091125,2432.2025,N,07948.3583,W,1,8,2.0,10,M,,M,,*58
06/01/2014	09:11:25.471	$GPGGA,091126,2432.2021,N,07948.3587,W,1,8,2.0,10,M,,M,,*5B
06/01/2014	09:11:26.512	$GPGGA,091127,2432.2018,N,07948.3591,W,1,8,2.0,10,M,,M,,*57
06/01/2014	09:11:27.513	$GPGGA,091128,2432.2014,N,07948.3590,W,1,8,2.0,10,M,,M,,*55
06/01/2014	09:11:28.697	$GPGGA,091129,2432.2008,N,07948.3591,W,1,8,2.0,11,M,,M,,*59
06/01/2014	09:11:29.684	$GPGGA,091130,2432.2005,N,07948.3595,W,1,8,2.0,11,M,,M,,*58
06/01/2014	09:11:30.670	$GPGGA,091131,2432.2000,N,07948.3598,W,1,8,2.0,11,M,,M,,*51
06/01/2014	09:11:31.706	$GPGGA,091132,2432.1996,N,07948.3597,W,1,8,2.0,11,M,,M,,*58
06/01/2014	09:11:32.692	$GPGGA,091133,2432.1992,N,07948.3602,W,1,8,2.0,11,M,,M,,*52
06/01/2014	09:11:33.658	$GPGGA,091134,2432.1989,N,07948.3603,W,1,8,2.0,11,M,,M,,*5E
06/01/2014	09:11:34.674	$GPGGA,091135,2432.1983,N,07948.3605,W,1,8,2.0,11,M,,M,,*53
06/01/2014	09:11:35.671	$GPGGA,091136,2432.1979,N,07948.3607,W,1,8,2.0,11,M,,M,,*57
06/01/2014	09:11:36.657	$GPGGA,091137,2432.1974,N,07948.3609,W,1,8,2.0,11,M,,M,,*55
06/01/2014	09:11:37.643	$GPGGA,091138,2432.1969,N,07948.3611,W,1,8,2.0,11,M,,M,,*5F
06/01/2014	09:11:38.669	$GPGGA,091139,2432.1965,N,07948.3613,W,1,8,2.0,11,M,,M,,*50
06/01/2014	09:11:39.646	$GPGGA,091140,2432.1961,N,07948.3616,W,1,8,2.0,11,M,,M,,*5F
06/01/2014	09:11:40.622	$GPGGA,091141,2432.1957,N,07948.3616,W,1,8,2.0,11,M,,M,,*5B
06/01/2014	09:11:41.618	$GPGGA,091142,2432.1953,N,07948.3620,W,1,8,2.0,11,M,,M,,*59
06/01/2014	09:11:42.634	$GPGGA,091143,2432.1949,N,07948.3621,W,1,8,2.0,11,M,,M,,*52
06/01/2014	09:11:43.620	$GPGGA,091144,2432.1943,N,07948.3624,W,1,8,2.0,11,M,,M,,*5A
06/01/2014	09:11:44.597	$GPGGA,091145,2432.1939,N,07948.3625,W,1,8,2.0,11,M,,M,,*57
06/01/2014	09:11:45.583	$GPGGA,091146,2432.1935,N,07948.3627,W,1,8,2.0,11,M,,M,,*5A
06/01/2014	09:11:46.618	$GPGGA,091147,2432.1931,N,07948.3629,W,1,8,2.0,11,M,,M,,*51
06/01/2014	09:11:47.624	$GPGGA,091148,2432.1925,N,07948.3631,W,1,8,2.0,11,M,,M,,*52
06/01/2014	09:11:48.592	$GPGGA,091149,2432.1921,N,07948.3634,W,1,8,2.0,12,M,,M,,*51
06/01/2014	09:11:49.589	$GPGGA,091150,2432.1917,N,07948.3636,W,1,8,2.0,12,M,,M,,*5E
06/01/2014	09:11:50.566	$GPGGA,091151,2432.1913,N,07948.3638,W,1,8,2.0,12,M,,M,,*55
06/01/2014	09:11:51.723	$GPGGA,091152,2432.1908,N,07948.3642,W,1,8,2.0,12,M,,M,,*51
