Software Version Number: 1	Data File Format Number: 1	Build Version Number: 1	Error Count Since VI Started: 0	Manufacturer: Raytheon	 Model Number: RayMarine 120	 S/N: 	 Cal Date: 	 Wind Direction Offset: 0.00	 Slope (M)1: 0.00	 Offset (B)1: 0.00	 Slope (M)2: 0.00	 Offset (B)2: 0.00	 Slope (M)3: 0.00	 Offset (B)3: 0.00	 Slope (M)4: 0.00	 Offset (B)4: 0.00	 Slope (M)5: 0.00	 Offset (B)5: 0.00	 Slope (M)6: 0.00	 Offset (B)6: 0.00
Computer Date	Computer Time	GGA String
06/13/2014	07:00:00.910	$GPGGA,070001,2501.2988,N,08012.4754,W,1,8,2.1,17,M,,M,,*5F
06/13/2014	07:00:01.802	$GPGGA,070002,2501.2981,N,08012.4758,W,1,8,2.1,17,M,,M,,*59
06/13/2014	07:00:02.946	$GPGGA,070003,2501.2975,N,08012.4766,W,1,8,2.1,17,M,,M,,*5E
06/13/2014	07:00:03.868	$GPGGA,070004,2501.2970,N,08012.4773,W,1,8,2.1,17,M,,M,,*58
06/13/2014	07:00:04.955	$GPGGA,070005,2501.2961,N,08012.4779,W,1,8,2.1,17,M,,M,,*53
06/13/2014	07:00:05.875	$GPGGA,070006,2501.2955,N,08012.4785,W,1,8,2.1,17,M,,M,,*54
06/13/2014	07:00:06.981	$GPGGA,070007,2501.2949,N,08012.4792,W,1,8,2.1,17,M,,M,,*5E
06/13/2014	07:00:07.911	$GPGGA,070008,2501.2942,N,08012.4798,W,1,8,2.1,17,M,,M,,*50
06/13/2014	07:00:08.874	$GPGGA,070009,2501.2934,N,08012.4805,W,1,8,2.1,17,M,,M,,*5B
06/13/2014	07:00:09.897	$GPGGA,070010,2501.2927,N,08012.4812,W,1,8,2.1,17,M,,M,,*57
06/13/2014	07:00:11.026	$GPGGA,070011,2501.2921,N,08012.4817,W,1,8,2.1,17,M,,M,,*55
06/13/2014	07:00:11.924	$GPGGA,070012,2501.2914,N,08012.4823,W,1,8,2.1,17,M,,M,,*57
06/13/2014	07:00:13.039	$GPGGA,070013,2501.2906,N,08012.4831,W,1,7,2.2,17,M,,M,,*5A
06/13/2014	07:00:13.930	$GPGGA,070014,2501.2898,N,08012.4838,W,1,7,2.1,17,M,,M,,*51
06/13/2014	07:00:14.944	$GPGGA,070015,2501.2890,N,08012.4845,W,1,7,2.2,17,M,,M,,*51
06/13/2014	07:00:16.017	$GPGGA,070016,2501.2883,N,08012.4853,W,1,7,2.1,17,M,,M,,*54
06/13/2014	07:00:17.040	$GPGGA,070017,2501.2874,N,08012.4859,W,1,8,2.1,17,M,,M,,*58
06/13/2014	07:00:18.021	$GPGGA,070018,2501.2866,N,08012.4864,W,1,8,2.2,17,M,,M,,*59
06/13/2014	07:00:19.070	$GPGGA,070019,2501.2858,N,08012.4873,W,1,7,2.1,17,M,,M,,*5F
06/13/2014	07:00:20.143	$GPGGA,070020,2501.2852,N,08012.4879,W,1,7,2.1,17,M,,M,,*55
06/13/2014	07:00:21.124	$GPGGA,070021,2501.2843,N,08012.4884,W,1,8,2.1,17,M,,M,,*59
06/13/2014	07:00:22.056	$GPGGA,070022,2501.2836,N,08012.4888,W,1,8,2.2,17,M,,M,,*57
06/13/2014	07:00:23.029	$GPGGA,070023,2501.2830,N,08012.4895,W,1,7,2.2,17,M,,M,,*53
06/13/2014	07:00:24.174	$GPGGA,070024,2501.2824,N,08012.4902,W,1,7,2.1,17,M,,M,,*5D
06/13/2014	07:00:25.157	$GPGGA,070025,2501.2815,N,08012.4904,W,1,8,2.1,17,M,,M,,*57
06/13/2014	07:00:26.089	$GPGGA,070026,2501.2809,N,08012.4910,W,1,8,2.1,17,M,,M,,*5C
06/13/2014	07:00:27.163	$GPGGA,070027,2501.2804,N,08012.4917,W,1,8,2.1,17,M,,M,,*57
06/13/2014	07:00:28.136	$GPGGA,070028,2501.2796,N,08012.4921,W,1,8,2.1,17,M,,M,,*59
06/13/2014	07:00:29.200	$GPGGA,070029,2501.2789,N,08012.4926,W,1,8,2.2,17,M,,M,,*52
06/13/2014	07:00:30.224	$GPGGA,070030,2501.2786,N,08012.4935,W,1,8,2.1,17,M,,M,,*54
06/13/2014	07:00:31.216	$GPGGA,070031,2501.2778,N,08012.4939,W,1,8,2.1,17,M,,M,,*58
06/13/2014	07:00:32.260	$GPGGA,070032,2501.2769,N,08012.4942,W,1,8,2.2,17,M,,M,,*54
06/13/2014	07:00:33.242	$GPGGA,070033,2501.2764,N,08012.4949,W,1,7,2.1,17,M,,M,,*5F
06/13/2014	07:00:34.265	$GPGGA,070034,2501.2758,N,08012.4954,W,1,7,2.1,17,M,,M,,*5B
06/13/2014	07:00:35.289	$GPGGA,070035,2501.2749,N,08012.4958,W,1,8,2.1,17,M,,M,,*59
06/13/2014	07:00:36.322	$GPGGA,070036,2501.2742,N,08012.4962,W,1,8,2.2,17,M,,M,,*5B
06/13/2014	07:00:37.305	$GPGGA,070037,2501.2736,N,08012.4969,W,1,7,2.1,17,M,,M,,*5E
06/13/2014	07:00:38.308	$GPGGA,070038,2501.2730,N,08012.4975,W,1,7,2.1,17,M,,M,,*5A
06/13/2014	07:00:39.342	$GPGGA,070039,2501.2722,N,08012.4979,W,1,8,2.1,17,M,,M,,*5B
06/13/2014	07:00:40.345	$GPGGA,070040,2501.2714,N,08012.4983,W,1,8,2.2,17,M,,M,,*56
06/13/2014	07:00:41.379	$GPGGA,070041,2501.2708,N,08012.4989,W,1,7,2.1,17,M,,M,,*5C
06/13/2014	07:00:42.351	$GPGGA,070042,2501.2702,N,08012.4994,W,1,7,2.1,17,M,,M,,*59
06/13/2014	07:00:43.375	$GPGGA,070043,2501.2695,N,08012.5000,W,1,8,2.1,17,M,,M,,*5D
06/13/2014	07:00:44.408	$GPGGA,070044,2501.2688,N,08012.5004,W,1,8,2.1,17,M,,M,,*52
06/13/2014	07:00:45.412	$GPGGA,070045,2501.2681,N,08012.5011,W,1,8,2.1,17,M,,M,,*5E
06/13/2014	07:00:46.394	$GPGGA,070046,2501.2673,N,08012.5015,W,1,8,2.1,17,M,,M,,*54
06/13/2014	07:00:46.562	$GPGGA,070047,2501.2665,N,08012.5020,W,1,8,2.1,17,M,,M,,*54
06/13/2014	07:00:47.565	$GPGGA,070048,2501.2659,N,08012.5026,W,1,8,2.1,17,M,,M,,*52
06/13/2014	07:00:48.600	$GPGGA,070049,2501.2652,N,08012.5033,W,1,8,2.1,17,M,,M,,*5C
06/13/2014	07:00:49.571	$GPGGA,070050,2501.2642,N,08012.5036,W,1,8,2.1,17,M,,M,,*50
06/13/2014	07:00:50.614	$GPGGA,070051,2501.2642,N,08012.5036,W,1,8,2.1,17,M,,M,,*51
06/13/2014	07:00:51.648	$GPGGA,070052,2501.2628,N,08012.5048,W,1,8,2.1,17,M,,M,,*57
06/13/2014	07:00:52.641	$GPGGA,070053,2501.2628,N,08012.5048,W,1,8,2.1,17,M,,M,,*56
06/13/2014	07:00:53.627	$GPGGA,070054,2501.2609,N,08012.5056,W,1,8,2.2,17,M,,M,,*5E
06/13/2014	07:00:54.698	$GPGGA,070055,2501.2603,N,08012.5063,W,1,7,2.1,17,M,,M,,*5F
06/13/2014	07:00:55.653	$GPGGA,070056,2501.2598,N,08012.5070,W,1,7,2.1,17,M,,M,,*5F
06/13/2014	07:00:56.694	$GPGGA,070057,2501.2587,N,08012.5072,W,1,8,2.1,17,M,,M,,*5D
06/13/2014	07:00:57.667	$GPGGA,070058,2501.2580,N,08012.5079,W,1,8,2.1,17,M,,M,,*5E
06/13/2014	07:00:58.781	$GPGGA,070059,2501.2576,N,08012.5087,W,1,8,2.1,17,M,,M,,*57
06/13/2014	07:00:59.714	$GPGGA,070100,2501.2567,N,08012.5090,W,1,8,2.1,17,M,,M,,*5C
06/13/2014	07:01:00.707	$GPGGA,070101,2501.2567,N,08012.5090,W,1,8,2.1,17,M,,M,,*5D
06/13/2014	07:01:01.710	$GPGGA,070102,2501.2551,N,08012.5101,W,1,8,2.2,17,M,,M,,*51
06/13/2014	07:01:02.824	$GPGGA,070103,2501.2545,N,08012.5108,W,1,8,2.1,17,M,,M,,*5F
06/13/2014	07:01:03.757	$GPGGA,070104,2501.2536,N,08012.5112,W,1,8,2.1,17,M,,M,,*57
06/13/2014	07:01:04.800	$GPGGA,070105,2501.2529,N,08012.5116,W,1,8,2.2,17,M,,M,,*5F
06/13/2014	07:01:05.773	$GPGGA,070106,2501.2529,N,08012.5116,W,1,8,2.2,17,M,,M,,*5C
06/13/2014	07:01:06.776	$GPGGA,070107,2501.2522,N,08012.5123,W,1,8,2.1,17,M,,M,,*53
06/13/2014	07:01:07.799	$GPGGA,070108,2501.2507,N,08012.5133,W,1,8,2.1,17,M,,M,,*5A
06/13/2014	07:01:08.913	$GPGGA,070109,2501.2500,N,08012.5137,W,1,8,2.1,17,M,,M,,*58
06/13/2014	07:01:09.795	$GPGGA,070110,2501.2493,N,08012.5144,W,1,8,2.1,17,M,,M,,*5F
06/13/2014	07:01:10.839	$GPGGA,070111,2501.2486,N,08012.5148,W,1,8,2.1,17,M,,M,,*56
06/13/2014	07:01:11.852	$GPGGA,070112,2501.2478,N,08012.5155,W,1,8,2.1,17,M,,M,,*58
06/13/2014	07:01:12.979	$GPGGA,070113,2501.2478,N,08012.5155,W,1,8,2.1,17,M,,M,,*59
06/13/2014	07:01:13.960	$GPGGA,070114,2501.2462,N,08012.5166,W,1,8,2.1,17,M,,M,,*55
06/13/2014	07:01:14.932	$GPGGA,070115,2501.2454,N,08012.5171,W,1,8,2.1,17,M,,M,,*57
06/13/2014	07:01:15.986	$GPGGA,070116,2501.2447,N,08012.5178,W,1,8,2.1,17,M,,M,,*5F
06/13/2014	07:01:16.898	$GPGGA,070117,2501.2447,N,08012.5178,W,1,8,2.1,17,M,,M,,*5E
06/13/2014	07:01:17.993	$GPGGA,070118,2501.2430,N,08012.5188,W,1,8,2.1,17,M,,M,,*5E
06/13/2014	07:01:18.925	$GPGGA,070119,2501.2424,N,08012.5195,W,1,8,2.1,17,M,,M,,*56
06/13/2014	07:01:19.918	$GPGGA,070120,2501.2417,N,08012.5200,W,1,8,2.1,17,M,,M,,*53
06/13/2014	07:01:21.063	$GPGGA,070121,2501.2407,N,08012.5206,W,1,8,2.1,17,M,,M,,*55
06/13/2014	07:01:22.046	$GPGGA,070122,2501.2400,N,08012.5213,W,1,8,2.1,17,M,,M,,*55
06/13/2014	07:01:22.958	$GPGGA,070123,2501.2400,N,08012.5213,W,1,8,2.1,17,M,,M,,*54
06/13/2014	07:01:24.082	$GPGGA,070124,2501.2386,N,08012.5224,W,1,8,2.1,17,M,,M,,*5E
06/13/2014	07:01:25.116	$GPGGA,070125,2501.2378,N,08012.5231,W,1,8,2.1,17,M,,M,,*5A
06/13/2014	07:01:26.078	$GPGGA,070126,2501.2371,N,08012.5235,W,1,8,2.2,17,M,,M,,*57
06/13/2014	07:01:27.101	$GPGGA,070127,2501.2363,N,08012.5242,W,1,7,2.2,17,M,,M,,*5A
06/13/2014	07:01:28.124	$GPGGA,070128,2501.2357,N,08012.5249,W,1,7,2.2,17,M,,M,,*59
06/13/2014	07:01:29.148	$GPGGA,070129,2501.2348,N,08012.5254,W,1,7,2.2,17,M,,M,,*5A
06/13/2014	07:01:30.130	$GPGGA,070130,2501.2341,N,08012.5260,W,1,7,2.1,17,M,,M,,*5F
06/13/2014	07:01:31.175	$GPGGA,070131,2501.2334,N,08012.5268,W,1,8,2.1,17,M,,M,,*5B
06/13/2014	07:01:32.147	$GPGGA,070132,2501.2327,N,08012.5275,W,1,8,2.1,17,M,,M,,*56
06/13/2014	07:01:33.171	$GPGGA,070133,2501.2317,N,08012.5279,W,1,8,2.1,17,M,,M,,*58
06/13/2014	07:01:34.174	$GPGGA,070134,2501.2310,N,08012.5285,W,1,8,2.1,17,M,,M,,*5B
06/13/2014	07:01:35.187	$GPGGA,070135,2501.2305,N,08012.5293,W,1,7,2.2,17,M,,M,,*55
06/13/2014	07:01:36.211	$GPGGA,070136,2501.2295,N,08012.5300,W,1,7,2.2,17,M,,M,,*55
06/13/2014	07:01:37.234	$GPGGA,070137,2501.2287,N,08012.5307,W,1,8,2.1,17,M,,M,,*5C
06/13/2014	07:01:38.209	$GPGGA,070138,2501.2277,N,08012.5312,W,1,8,2.1,17,M,,M,,*58
06/13/2014	07:01:39.251	$GPGGA,070139,2501.2272,N,08012.5321,W,1,8,2.1,17,M,,M,,*5C
06/13/2014	07:01:40.254	$GPGGA,070140,2501.2265,N,08012.5326,W,1,8,2.2,17,M,,M,,*50
06/13/2014	07:01:41.277	$GPGGA,070141,2501.2255,N,08012.5332,W,1,7,2.2,17,M,,M,,*58
06/13/2014	07:01:42.263	$GPGGA,070142,2501.2248,N,08012.5337,W,1,7,2.1,17,M,,M,,*51
06/13/2014	07:01:43.303	$GPGGA,070143,2501.2244,N,08012.5347,W,1,8,2.1,17,M,,M,,*54
06/13/2014	07:01:44.294	$GPGGA,070144,2501.2236,N,08012.5351,W,1,8,2.1,17,M,,M,,*51
06/13/2014	07:01:45.289	$GPGGA,070145,2501.2227,N,08012.5358,W,1,8,2.1,17,M,,M,,*59
06/13/2014	07:01:46.303	$GPGGA,070146,2501.2222,N,08012.5363,W,1,8,2.1,17,M,,M,,*57
06/13/2014	07:01:46.560	$GPGGA,070147,2501.2215,N,08012.5372,W,1,7,2.2,17,M,,M,,*5E
06/13/2014	07:01:47.543	$GPGGA,070148,2501.2208,N,08012.5379,W,1,7,2.1,17,M,,M,,*55
06/13/2014	07:01:48.576	$GPGGA,070149,2501.2200,N,08012.5381,W,1,8,2.1,17,M,,M,,*54
06/13/2014	07:01:49.549	$GPGGA,070150,2501.2193,N,08012.5387,W,1,8,2.2,17,M,,M,,*50
06/13/2014	07:01:50.562	$GPGGA,070151,2501.2189,N,08012.5394,W,1,8,2.1,17,M,,M,,*5B
06/13/2014	07:01:51.596	$GPGGA,070152,2501.2182,N,08012.5401,W,1,8,2.1,17,M,,M,,*58
06/13/2014	07:01:52.605	$GPGGA,070153,2501.2172,N,08012.5405,W,1,8,2.1,17,M,,M,,*52
06/13/2014	07:01:53.592	$GPGGA,070154,2501.2166,N,08012.5409,W,1,8,2.1,17,M,,M,,*5C
06/13/2014	07:01:54.717	$GPGGA,070155,2501.2161,N,08012.5417,W,1,8,2.1,17,M,,M,,*55
06/13/2014	07:01:55.629	$GPGGA,070156,2501.2153,N,08012.5423,W,1,8,2.1,17,M,,M,,*50
06/13/2014	07:01:56.663	$GPGGA,070157,2501.2146,N,08012.5426,W,1,8,2.1,17,M,,M,,*50
06/13/2014	07:01:57.646	$GPGGA,070158,2501.2140,N,08012.5433,W,1,8,2.2,17,M,,M,,*5E
06/13/2014	07:01:58.669	$GPGGA,070159,2501.2132,N,08012.5437,W,1,8,2.1,17,M,,M,,*5D
06/13/2014	07:01:59.694	$GPGGA,070200,2501.2123,N,08012.5441,W,1,8,2.1,17,M,,M,,*53
06/13/2014	07:02:00.796	$GPGGA,070201,2501.2117,N,08012.5445,W,1,7,2.2,17,M,,M,,*5D
06/13/2014	07:02:01.677	$GPGGA,070202,2501.2112,N,08012.5452,W,1,7,2.2,17,M,,M,,*5D
06/13/2014	07:02:02.822	$GPGGA,070203,2501.2105,N,08012.5457,W,1,8,2.1,17,M,,M,,*53
06/13/2014	07:02:03.714	$GPGGA,070204,2501.2099,N,08012.5462,W,1,8,2.1,17,M,,M,,*56
06/13/2014	07:02:04.717	$GPGGA,070205,2501.2090,N,08012.5466,W,1,8,2.1,17,M,,M,,*5A
06/13/2014	07:02:05.741	$GPGGA,070206,2501.2083,N,08012.5473,W,1,8,2.2,17,M,,M,,*5C
06/13/2014	07:02:06.886	$GPGGA,070207,2501.2076,N,08012.5478,W,1,8,2.1,17,M,,M,,*5F
06/13/2014	07:02:07.879	$GPGGA,070208,2501.2067,N,08012.5482,W,1,8,2.1,17,M,,M,,*55
06/13/2014	07:02:08.781	$GPGGA,070209,2501.2063,N,08012.5489,W,1,7,2.2,17,M,,M,,*57
06/13/2014	07:02:09.875	$GPGGA,070210,2501.2054,N,08012.5495,W,1,7,2.1,17,M,,M,,*55
06/13/2014	07:02:10.888	$GPGGA,070211,2501.2045,N,08012.5499,W,1,8,2.1,17,M,,M,,*57
06/13/2014	07:02:11.932	$GPGGA,070212,2501.2038,N,08012.5504,W,1,8,2.1,17,M,,M,,*5B
06/13/2014	07:02:12.945	$GPGGA,070213,2501.2028,N,08012.5510,W,1,7,2.2,17,M,,M,,*52
06/13/2014	07:02:13.918	$GPGGA,070214,2501.2020,N,08012.5516,W,1,7,2.1,17,M,,M,,*58
06/13/2014	07:02:14.931	$GPGGA,070215,2501.2011,N,08012.5520,W,1,8,2.1,17,M,,M,,*51
06/13/2014	07:02:15.955	$GPGGA,070216,2501.2005,N,08012.5525,W,1,8,2.1,17,M,,M,,*52
06/13/2014	07:02:16.968	$GPGGA,070217,2501.1996,N,08012.5531,W,1,8,2.1,17,M,,M,,*56
06/13/2014	07:02:17.970	$GPGGA,070218,2501.1988,N,08012.5536,W,1,8,2.1,17,M,,M,,*51
06/13/2014	07:02:19.004	$GPGGA,070219,2501.1981,N,08012.5542,W,1,8,2.1,17,M,,M,,*5A
06/13/2014	07:02:20.007	$GPGGA,070220,2501.1973,N,08012.5547,W,1,8,2.1,17,M,,M,,*58
06/13/2014	07:02:21.020	$GPGGA,070221,2501.1964,N,08012.5553,W,1,8,2.1,17,M,,M,,*5A
06/13/2014	07:02:22.013	$GPGGA,070222,2501.1958,N,08012.5560,W,1,8,2.1,17,M,,M,,*56
06/13/2014	07:02:23.047	$GPGGA,070223,2501.1949,N,08012.5564,W,1,8,2.1,17,M,,M,,*53
06/13/2014	07:02:24.050	$GPGGA,070224,2501.1940,N,08012.5569,W,1,8,2.1,17,M,,M,,*50
06/13/2014	07:02:25.063	$GPGGA,070225,2501.1933,N,08012.5575,W,1,8,2.1,17,M,,M,,*58
06/13/2014	07:02:26.060	$GPGGA,070226,2501.1927,N,08012.5582,W,1,8,2.1,17,M,,M,,*56
06/13/2014	07:02:27.090	$GPGGA,070227,2501.1918,N,08012.5586,W,1,8,2.1,17,M,,M,,*5F
06/13/2014	07:02:28.099	$GPGGA,070228,2501.1911,N,08012.5592,W,1,8,2.1,17,M,,M,,*5C
06/13/2014	07:02:29.106	$GPGGA,070229,2501.1904,N,08012.5598,W,1,8,2.1,17,M,,M,,*53
06/13/2014	07:02:30.102	$GPGGA,070230,2501.1897,N,08012.5605,W,1,8,2.1,17,M,,M,,*57
06/13/2014	07:02:31.123	$GPGGA,070231,2501.1888,N,08012.5611,W,1,8,2.1,17,M,,M,,*5D
06/13/2014	07:02:32.156	$GPGGA,070232,2501.1881,N,08012.5616,W,1,8,2.1,17,M,,M,,*50
06/13/2014	07:02:33.160	$GPGGA,070233,2501.1875,N,08012.5621,W,1,8,2.1,17,M,,M,,*5E
06/13/2014	07:02:34.143	$GPGGA,070234,2501.1868,N,08012.5629,W,1,8,2.1,17,M,,M,,*5D
06/13/2014	07:02:35.186	$GPGGA,070235,2501.1858,N,08012.5633,W,1,8,2.1,17,M,,M,,*54
06/13/2014	07:02:36.178	$GPGGA,070236,2501.1851,N,08012.5639,W,1,8,2.2,17,M,,M,,*57
06/13/2014	07:02:37.171	$GPGGA,070237,2501.1844,N,08012.5647,W,1,8,2.1,17,M,,M,,*58
06/13/2014	07:02:38.206	$GPGGA,070238,2501.1836,N,08012.5652,W,1,8,2.1,17,M,,M,,*56
06/13/2014	07:02:39.198	$GPGGA,070239,2501.1828,N,08012.5658,W,1,8,2.1,17,M,,M,,*52
06/13/2014	07:02:40.233	$GPGGA,070240,2501.1822,N,08012.5663,W,1,8,2.1,17,M,,M,,*5E
06/13/2014	07:02:41.214	$GPGGA,070241,2501.1815,N,08012.5670,W,1,8,2.1,18,M,,M,,*56
06/13/2014	07:02:42.238	$GPGGA,070242,2501.1807,N,08012.5676,W,1,8,2.2,18,M,,M,,*53
06/13/2014	07:02:43.251	$GPGGA,070243,2501.1801,N,08012.5680,W,1,8,2.1,18,M,,M,,*5E
06/13/2014	07:02:44.285	$GPGGA,070244,2501.1794,N,08012.5687,W,1,8,2.1,18,M,,M,,*5D
06/13/2014	07:02:45.278	$GPGGA,070245,2501.1785,N,08012.5694,W,1,8,2.1,18,M,,M,,*5E
06/13/2014	07:02:46.271	$GPGGA,070246,2501.1778,N,08012.5699,W,1,8,2.1,18,M,,M,,*52
06/13/2014	07:02:46.497	$GPGGA,070247,2501.1770,N,08012.5706,W,1,8,2.1,18,M,,M,,*5C
06/13/2014	07:02:47.521	$GPGGA,070248,2501.1763,N,08012.5712,W,1,8,2.1,18,M,,M,,*54
06/13/2014	07:02:48.625	$GPGGA,070249,2501.1756,N,08012.5719,W,1,7,2.2,18,M,,M,,*54
06/13/2014	07:02:49.638	$GPGGA,070250,2501.1746,N,08012.5727,W,1,7,2.2,18,M,,M,,*50
06/13/2014	07:02:50.550	$GPGGA,070251,2501.1738,N,08012.5733,W,1,8,2.1,18,M,,M,,*51
06/13/2014	07:02:51.688	$GPGGA,070252,2501.1731,N,08012.5740,W,1,8,2.2,18,M,,M,,*5C
06/13/2014	07:02:52.668	$GPGGA,070253,2501.1723,N,08012.5746,W,1,7,2.2,18,M,,M,,*57
06/13/2014	07:02:53.691	$GPGGA,070254,2501.1716,N,08012.5752,W,1,7,2.1,18,M,,M,,*50
06/13/2014	07:02:54.582	$GPGGA,070255,2501.1709,N,08012.5759,W,1,7,2.2,18,M,,M,,*57
06/13/2014	07:02:55.717	$GPGGA,070256,2501.1702,N,08012.5767,W,1,7,2.2,18,M,,M,,*52
06/13/2014	07:02:56.730	$GPGGA,070257,2501.1692,N,08012.5773,W,1,8,2.1,18,M,,M,,*52
06/13/2014	07:02:57.632	$GPGGA,070258,2501.1685,N,08012.5780,W,1,8,2.1,18,M,,M,,*57
06/13/2014	07:02:58.747	$GPGGA,070259,2501.1678,N,08012.5788,W,1,8,2.1,18,M,,M,,*5C
06/13/2014	07:02:59.780	$GPGGA,070300,2501.1671,N,08012.5793,W,1,8,2.2,18,M,,M,,*51
06/13/2014	07:03:00.743	$GPGGA,070301,2501.1662,N,08012.5798,W,1,8,2.1,18,M,,M,,*5A
06/13/2014	07:03:01.767	$GPGGA,070302,2501.1655,N,08012.5805,W,1,8,2.1,18,M,,M,,*56
06/13/2014	07:03:02.770	$GPGGA,070303,2501.1648,N,08012.5813,W,1,8,2.1,18,M,,M,,*5C
06/13/2014	07:03:03.793	$GPGGA,070304,2501.1641,N,08012.5818,W,1,8,2.1,18,M,,M,,*59
06/13/2014	07:03:04.796	$GPGGA,070305,2501.1631,N,08012.5824,W,1,8,2.1,18,M,,M,,*50
06/13/2014	07:03:05.820	$GPGGA,070306,2501.1626,N,08012.5831,W,1,8,2.1,18,M,,M,,*51
06/13/2014	07:03:06.823	$GPGGA,070307,2501.1618,N,08012.5838,W,1,8,2.1,18,M,,M,,*54
06/13/2014	07:03:07.846	$GPGGA,070308,2501.1609,N,08012.5843,W,1,8,2.1,19,M,,M,,*56
06/13/2014	07:03:08.860	$GPGGA,070309,2501.1601,N,08012.5849,W,1,8,2.1,19,M,,M,,*55
06/13/2014	07:03:09.863	$GPGGA,070310,2501.1594,N,08012.5856,W,1,8,2.1,19,M,,M,,*5C
06/13/2014	07:03:10.875	$GPGGA,070311,2501.1587,N,08012.5861,W,1,8,2.1,19,M,,M,,*5B
06/13/2014	07:03:11.899	$GPGGA,070312,2501.1579,N,08012.5867,W,1,8,2.1,19,M,,M,,*5F
06/13/2014	07:03:12.902	$GPGGA,070313,2501.1572,N,08012.5872,W,1,8,2.1,19,M,,M,,*51
06/13/2014	07:03:13.905	$GPGGA,070314,2501.1565,N,08012.5878,W,1,8,2.1,19,M,,M,,*5A
06/13/2014	07:03:14.928	$GPGGA,070315,2501.1557,N,08012.5885,W,1,8,2.1,19,M,,M,,*58
06/13/2014	07:03:15.942	$GPGGA,070316,2501.1550,N,08012.5889,W,1,8,2.1,19,M,,M,,*50
06/13/2014	07:03:16.955	$GPGGA,070317,2501.1543,N,08012.5894,W,1,8,2.1,19,M,,M,,*5F
06/13/2014	07:03:17.942	$GPGGA,070318,2501.1536,N,08012.5901,W,1,8,2.1,19,M,,M,,*5F
06/13/2014	07:03:18.981	$GPGGA,070319,2501.1529,N,08012.5907,W,1,8,2.1,19,M,,M,,*56
06/13/2014	07:03:19.979	$GPGGA,070320,2501.1521,N,08012.5911,W,1,8,2.1,19,M,,M,,*53
06/13/2014	07:03:21.008	$GPGGA,070321,2501.1514,N,08012.5918,W,1,8,2.1,19,M,,M,,*5D
06/13/2014	07:03:21.981	$GPGGA,070322,2501.1507,N,08012.5925,W,1,8,2.1,19,M,,M,,*52
06/13/2014	07:03:22.995	$GPGGA,070323,2501.1499,N,08012.5929,W,1,8,2.1,19,M,,M,,*59
06/13/2014	07:03:24.029	$GPGGA,070324,2501.1492,N,08012.5934,W,1,8,2.1,19,M,,M,,*59
06/13/2014	07:03:25.011	$GPGGA,070325,2501.1485,N,08012.5941,W,1,8,2.1,19,M,,M,,*5C
06/13/2014	07:03:26.035	$GPGGA,070326,2501.1478,N,08012.5947,W,1,8,2.1,19,M,,M,,*5B
06/13/2014	07:03:27.037	$GPGGA,070327,2501.1470,N,08012.5951,W,1,8,2.1,19,M,,M,,*55
06/13/2014	07:03:28.084	$GPGGA,070328,2501.1463,N,08012.5958,W,1,8,2.1,19,M,,M,,*51
06/13/2014	07:03:29.073	$GPGGA,070329,2501.1456,N,08012.5964,W,1,8,2.1,19,M,,M,,*59
06/13/2014	07:03:30.076	$GPGGA,070330,2501.1447,N,08012.5968,W,1,8,2.1,19,M,,M,,*5D
06/13/2014	07:03:31.201	$GPGGA,070331,2501.1441,N,08012.5975,W,1,8,2.1,19,M,,M,,*56
06/13/2014	07:03:32.224	$GPGGA,070332,2501.1433,N,08012.5980,W,1,8,2.1,19,M,,M,,*5A
06/13/2014	07:03:33.106	$GPGGA,070333,2501.1425,N,08012.5984,W,1,8,2.1,19,M,,M,,*58
06/13/2014	07:03:34.129	$GPGGA,070334,2501.1420,N,08012.5993,W,1,8,2.1,19,M,,M,,*5C
06/13/2014	07:03:35.143	$GPGGA,070335,2501.1413,N,08012.5998,W,1,8,2.1,19,M,,M,,*56
06/13/2014	07:03:36.277	$GPGGA,070336,2501.1403,N,08012.6002,W,1,8,2.1,19,M,,M,,*5D
06/13/2014	07:03:37.169	$GPGGA,070337,2501.1396,N,08012.6008,W,1,8,2.1,19,M,,M,,*5D
06/13/2014	07:03:38.162	$GPGGA,070338,2501.1391,N,08012.6016,W,1,8,2.1,19,M,,M,,*5A
06/13/2014	07:03:39.267	$GPGGA,070339,2501.1381,N,08012.6022,W,1,8,2.1,19,M,,M,,*5D
06/13/2014	07:03:40.300	$GPGGA,070340,2501.1373,N,08012.6026,W,1,8,2.1,19,M,,M,,*5A
06/13/2014	07:03:41.293	$GPGGA,070341,2501.1367,N,08012.6033,W,1,8,2.1,19,M,,M,,*5A
06/13/2014	07:03:42.215	$GPGGA,070342,2501.1360,N,08012.6040,W,1,8,2.1,19,M,,M,,*5A
06/13/2014	07:03:43.220	$GPGGA,070343,2501.1351,N,08012.6044,W,1,8,2.1,19,M,,M,,*5D
06/13/2014	07:03:44.252	$GPGGA,070344,2501.1344,N,08012.6048,W,1,8,2.1,19,M,,M,,*52
06/13/2014	07:03:45.245	$GPGGA,070345,2501.1337,N,08012.6055,W,1,8,2.1,19,M,,M,,*5B
06/13/2014	07:03:46.349	$GPGGA,070346,2501.1330,N,08012.6060,W,1,8,2.1,19,M,,M,,*59
06/13/2014	07:03:46.586	$GPGGA,070347,2501.1321,N,08012.6064,W,1,8,2.1,19,M,,M,,*5C
06/13/2014	07:03:47.488	$GPGGA,070348,2501.1315,N,08012.6069,W,1,8,2.2,19,M,,M,,*5A
06/13/2014	07:03:48.593	$GPGGA,070349,2501.1308,N,08012.6076,W,1,8,2.1,19,M,,M,,*5A
06/13/2014	07:03:49.616	$GPGGA,070350,2501.1301,N,08012.6080,W,1,8,2.1,19,M,,M,,*52
06/13/2014	07:03:50.639	$GPGGA,070351,2501.1292,N,08012.6085,W,1,8,2.1,19,M,,M,,*5D
06/13/2014	07:03:51.643	$GPGGA,070352,2501.1286,N,08012.6091,W,1,8,2.1,19,M,,M,,*5E
06/13/2014	07:03:52.656	$GPGGA,070353,2501.1279,N,08012.6098,W,1,8,2.1,19,M,,M,,*56
06/13/2014	07:03:53.639	$GPGGA,070354,2501.1272,N,08012.6102,W,1,8,2.1,19,M,,M,,*58
06/13/2014	07:03:56.334	$GPGGA,070356,2501.1256,N,08012.6114,W,1,8,2.1,19,M,,M,,*5B
06/13/2014	07:03:56.689	$GPGGA,070357,2501.1250,N,08012.6120,W,1,8,2.1,19,M,,M,,*5B
06/13/2014	07:03:57.702	$GPGGA,070358,2501.1240,N,08012.6124,W,1,8,2.1,19,M,,M,,*51
06/13/2014	07:03:58.726	$GPGGA,070359,2501.1233,N,08012.6131,W,1,8,2.1,19,M,,M,,*50
06/13/2014	07:03:59.739	$GPGGA,070400,2501.1227,N,08012.6136,W,1,8,2.1,19,M,,M,,*59
06/13/2014	07:04:00.752	$GPGGA,070401,2501.1218,N,08012.6142,W,1,8,2.1,19,M,,M,,*57
06/13/2014	07:04:01.745	$GPGGA,070402,2501.1211,N,08012.6147,W,1,8,2.1,18,M,,M,,*59
06/13/2014	07:04:02.778	$GPGGA,070403,2501.1205,N,08012.6154,W,1,8,2.1,18,M,,M,,*5F
06/13/2014	07:04:03.771	$GPGGA,070404,2501.1197,N,08012.6160,W,1,8,2.1,18,M,,M,,*57
06/13/2014	07:04:04.794	$GPGGA,070405,2501.1190,N,08012.6164,W,1,7,2.2,18,M,,M,,*59
06/13/2014	07:04:05.787	$GPGGA,070406,2501.1185,N,08012.6171,W,1,7,2.1,18,M,,M,,*59
06/13/2014	07:04:06.811	$GPGGA,070407,2501.1176,N,08012.6175,W,1,8,2.1,18,M,,M,,*5F
06/13/2014	07:04:07.814	$GPGGA,070408,2501.1169,N,08012.6182,W,1,8,2.1,18,M,,M,,*56
06/13/2014	07:04:08.827	$GPGGA,070409,2501.1164,N,08012.6189,W,1,8,2.1,18,M,,M,,*51
06/13/2014	07:04:09.830	$GPGGA,070410,2501.1156,N,08012.6194,W,1,8,2.1,18,M,,M,,*54
06/13/2014	07:04:10.854	$GPGGA,070411,2501.1149,N,08012.6199,W,1,8,2.1,18,M,,M,,*56
06/13/2014	07:04:11.867	$GPGGA,070412,2501.1142,N,08012.6207,W,1,8,2.1,18,M,,M,,*5A
06/13/2014	07:04:12.860	$GPGGA,070413,2501.1136,N,08012.6212,W,1,8,2.1,18,M,,M,,*5C
06/13/2014	07:04:13.884	$GPGGA,070414,2501.1128,N,08012.6217,W,1,8,2.1,18,M,,M,,*51
06/13/2014	07:04:14.927	$GPGGA,070415,2501.1120,N,08012.6223,W,1,8,2.1,18,M,,M,,*5F
06/13/2014	07:04:15.913	$GPGGA,070416,2501.1113,N,08012.6229,W,1,8,2.1,18,M,,M,,*56
06/13/2014	07:04:16.954	$GPGGA,070417,2501.1107,N,08012.6236,W,1,8,2.1,18,M,,M,,*5C
06/13/2014	07:04:17.927	$GPGGA,070418,2501.1099,N,08012.6243,W,1,8,2.1,18,M,,M,,*57
06/13/2014	07:04:19.041	$GPGGA,070419,2501.1091,N,08012.6247,W,1,8,2.1,18,M,,M,,*5A
06/13/2014	07:04:19.956	$GPGGA,070420,2501.1085,N,08012.6254,W,1,8,2.1,18,M,,M,,*57
06/13/2014	07:04:21.079	$GPGGA,070421,2501.1079,N,08012.6261,W,1,7,2.1,17,M,,M,,*53
06/13/2014	07:04:21.959	$GPGGA,070422,2501.1070,N,08012.6266,W,1,7,2.1,17,M,,M,,*5E
06/13/2014	07:04:23.023	$GPGGA,070423,2501.1063,N,08012.6272,W,1,8,2.1,17,M,,M,,*57
06/13/2014	07:04:23.995	$GPGGA,070424,2501.1057,N,08012.6279,W,1,8,2.2,17,M,,M,,*5F
06/13/2014	07:04:25.010	$GPGGA,070425,2501.1050,N,08012.6286,W,1,8,2.1,17,M,,M,,*5A
06/13/2014	07:04:26.002	$GPGGA,070426,2501.1041,N,08012.6293,W,1,8,2.1,17,M,,M,,*5D
06/13/2014	07:04:27.025	$GPGGA,070427,2501.1032,N,08012.6297,W,1,8,2.1,17,M,,M,,*5C
06/13/2014	07:04:28.059	$GPGGA,070428,2501.1026,N,08012.6305,W,1,8,2.1,17,M,,M,,*5C
06/13/2014	07:04:29.062	$GPGGA,070429,2501.1020,N,08012.6313,W,1,8,2.1,17,M,,M,,*5C
06/13/2014	07:04:30.045	$GPGGA,070430,2501.1010,N,08012.6318,W,1,8,2.1,17,M,,M,,*5C
06/13/2014	07:04:31.159	$GPGGA,070431,2501.1003,N,08012.6323,W,1,8,2.1,17,M,,M,,*57
06/13/2014	07:04:32.223	$GPGGA,070432,2501.0998,N,08012.6333,W,1,8,2.1,17,M,,M,,*5F
06/13/2014	07:04:33.196	$GPGGA,070433,2501.0990,N,08012.6337,W,1,8,2.1,17,M,,M,,*52
06/13/2014	07:04:34.101	$GPGGA,070434,2501.0981,N,08012.6340,W,1,8,2.1,17,M,,M,,*55
06/13/2014	07:04:35.213	$GPGGA,070435,2501.0976,N,08012.6348,W,1,8,2.1,17,M,,M,,*54
06/13/2014	07:04:36.135	$GPGGA,070436,2501.0970,N,08012.6355,W,1,8,2.1,17,M,,M,,*5D
06/13/2014	07:04:37.239	$GPGGA,070437,2501.0961,N,08012.6358,W,1,8,2.1,18,M,,M,,*5E
06/13/2014	07:04:38.241	$GPGGA,070438,2501.0954,N,08012.6362,W,1,8,2.1,18,M,,M,,*5E
06/13/2014	07:04:39.265	$GPGGA,070439,2501.0948,N,08012.6370,W,1,8,2.1,18,M,,M,,*51
06/13/2014	07:04:40.298	$GPGGA,070440,2501.0940,N,08012.6376,W,1,8,2.1,18,M,,M,,*51
06/13/2014	07:04:41.291	$GPGGA,070441,2501.0932,N,08012.6380,W,1,8,2.1,18,M,,M,,*5C
06/13/2014	07:04:42.294	$GPGGA,070442,2501.0926,N,08012.6385,W,1,8,2.1,18,M,,M,,*5F
06/13/2014	07:04:43.308	$GPGGA,070443,2501.0919,N,08012.6391,W,1,8,2.1,18,M,,M,,*57
06/13/2014	07:04:44.331	$GPGGA,070444,2501.0911,N,08012.6395,W,1,8,2.1,18,M,,M,,*5C
06/13/2014	07:04:45.344	$GPGGA,070445,2501.0905,N,08012.6402,W,1,8,2.1,18,M,,M,,*51
06/13/2014	07:04:46.338	$GPGGA,070446,2501.0898,N,08012.6406,W,1,8,2.1,18,M,,M,,*53
06/13/2014	07:04:46.564	$GPGGA,070447,2501.0890,N,08012.6410,W,1,8,2.1,18,M,,M,,*5D
06/13/2014	07:04:47.567	$GPGGA,070448,2501.0885,N,08012.6416,W,1,8,2.2,18,M,,M,,*53
06/13/2014	07:04:48.580	$GPGGA,070449,2501.0878,N,08012.6423,W,1,7,2.1,18,M,,M,,*5A
06/13/2014	07:04:49.585	$GPGGA,070450,2501.0871,N,08012.6427,W,1,7,2.1,18,M,,M,,*5F
06/13/2014	07:04:50.583	$GPGGA,070451,2501.0865,N,08012.6432,W,1,8,2.1,18,M,,M,,*50
06/13/2014	07:04:51.599	$GPGGA,070452,2501.0860,N,08012.6439,W,1,8,2.1,18,M,,M,,*5D
06/13/2014	07:04:52.616	$GPGGA,070453,2501.0850,N,08012.6443,W,1,8,2.2,18,M,,M,,*51
06/13/2014	07:04:53.594	$GPGGA,070454,2501.0843,N,08012.6449,W,1,8,2.2,18,M,,M,,*5E
06/13/2014	07:04:54.629	$GPGGA,070455,2501.0836,N,08012.6452,W,1,7,2.2,18,M,,M,,*58
06/13/2014	07:04:55.624	$GPGGA,070456,2501.0828,N,08012.6457,W,1,7,2.1,17,M,,M,,*5D
06/13/2014	07:04:56.640	$GPGGA,070457,2501.0820,N,08012.6463,W,1,8,2.1,17,M,,M,,*5C
06/13/2014	07:04:57.607	$GPGGA,070458,2501.0813,N,08012.6467,W,1,8,2.1,17,M,,M,,*57
06/13/2014	07:04:58.653	$GPGGA,070459,2501.0804,N,08012.6472,W,1,8,2.1,17,M,,M,,*54
06/13/2014	07:04:59.650	$GPGGA,070500,2501.0796,N,08012.6477,W,1,8,2.1,17,M,,M,,*58
06/13/2014	07:05:00.626	$GPGGA,070501,2501.0789,N,08012.6482,W,1,8,2.1,17,M,,M,,*5D
06/13/2014	07:05:01.642	$GPGGA,070502,2501.0784,N,08012.6488,W,1,8,2.1,17,M,,M,,*59
06/13/2014	07:05:02.669	$GPGGA,070503,2501.0775,N,08012.6492,W,1,8,2.1,17,M,,M,,*5D
06/13/2014	07:05:03.658	$GPGGA,070504,2501.0767,N,08012.6497,W,1,8,2.1,17,M,,M,,*5C
06/13/2014	07:05:04.641	$GPGGA,070505,2501.0760,N,08012.6503,W,1,8,2.1,17,M,,M,,*56
06/13/2014	07:05:05.662	$GPGGA,070506,2501.0755,N,08012.6510,W,1,8,2.1,17,M,,M,,*51
06/13/2014	07:05:06.694	$GPGGA,070507,2501.0746,N,08012.6514,W,1,8,2.1,17,M,,M,,*56
06/13/2014	07:05:07.681	$GPGGA,070508,2501.0738,N,08012.6519,W,1,8,2.1,17,M,,M,,*5D
06/13/2014	07:05:08.778	$GPGGA,070509,2501.0731,N,08012.6525,W,1,8,2.1,17,M,,M,,*5A
06/13/2014	07:05:09.696	$GPGGA,070510,2501.0724,N,08012.6532,W,1,8,2.1,17,M,,M,,*50
06/13/2014	07:05:10.692	$GPGGA,070511,2501.0717,N,08012.6537,W,1,8,2.1,17,M,,M,,*54
06/13/2014	07:05:11.708	$GPGGA,070512,2501.0708,N,08012.6543,W,1,8,2.1,17,M,,M,,*5A
06/13/2014	07:05:12.772	$GPGGA,070513,2501.0701,N,08012.6547,W,1,8,2.1,17,M,,M,,*56
06/13/2014	07:05:13.698	$GPGGA,070514,2501.0694,N,08012.6554,W,1,8,2.1,17,M,,M,,*5E
06/13/2014	07:05:14.704	$GPGGA,070515,2501.0687,N,08012.6561,W,1,8,2.1,17,M,,M,,*5B
06/13/2014	07:05:15.731	$GPGGA,070516,2501.0679,N,08012.6565,W,1,8,2.1,17,M,,M,,*5D
06/13/2014	07:05:16.707	$GPGGA,070517,2501.0672,N,08012.6572,W,1,8,2.1,17,M,,M,,*51
06/13/2014	07:05:17.814	$GPGGA,070518,2501.0665,N,08012.6579,W,1,8,2.1,17,M,,M,,*53
06/13/2014	07:05:18.841	$GPGGA,070519,2501.0658,N,08012.6584,W,1,8,2.1,17,M,,M,,*5E
06/13/2014	07:05:19.736	$GPGGA,070520,2501.0649,N,08012.6590,W,1,8,2.1,17,M,,M,,*51
06/13/2014	07:05:20.763	$GPGGA,070521,2501.0643,N,08012.6595,W,1,8,2.1,17,M,,M,,*5F
06/13/2014	07:05:21.810	$GPGGA,070522,2501.0636,N,08012.6602,W,1,8,2.1,17,M,,M,,*53
06/13/2014	07:05:22.856	$GPGGA,070523,2501.0629,N,08012.6608,W,1,8,2.1,17,M,,M,,*56
06/13/2014	07:05:23.762	$GPGGA,070524,2501.0621,N,08012.6615,W,1,8,2.1,17,M,,M,,*55
06/13/2014	07:05:24.859	$GPGGA,070525,2501.0612,N,08012.6619,W,1,8,2.1,17,M,,M,,*58
06/13/2014	07:05:25.845	$GPGGA,070526,2501.0605,N,08012.6626,W,1,8,2.1,17,M,,M,,*51
06/13/2014	07:05:26.842	$GPGGA,070527,2501.0600,N,08012.6634,W,1,8,2.1,17,M,,M,,*56
06/13/2014	07:05:27.858	$GPGGA,070528,2501.0592,N,08012.6640,W,1,8,2.1,17,M,,M,,*52
06/13/2014	07:05:28.844	$GPGGA,070529,2501.0583,N,08012.6644,W,1,8,2.1,17,M,,M,,*57
06/13/2014	07:05:29.851	$GPGGA,070530,2501.0579,N,08012.6652,W,1,8,2.1,17,M,,M,,*5D
06/13/2014	07:05:30.876	$GPGGA,070531,2501.0572,N,08012.6659,W,1,8,2.1,17,M,,M,,*5C
06/13/2014	07:05:31.873	$GPGGA,070532,2501.0562,N,08012.6663,W,1,8,2.1,17,M,,M,,*57
06/13/2014	07:05:32.879	$GPGGA,070533,2501.0555,N,08012.6669,W,1,8,2.1,17,M,,M,,*58
06/13/2014	07:05:33.875	$GPGGA,070534,2501.0551,N,08012.6677,W,1,8,2.1,17,M,,M,,*54
06/13/2014	07:05:34.892	$GPGGA,070535,2501.0542,N,08012.6683,W,1,8,2.1,17,M,,M,,*5C
06/13/2014	07:05:35.898	$GPGGA,070536,2501.0533,N,08012.6687,W,1,8,2.1,17,M,,M,,*5D
06/13/2014	07:05:36.905	$GPGGA,070537,2501.0528,N,08012.6694,W,1,8,2.1,17,M,,M,,*54
06/13/2014	07:05:37.891	$GPGGA,070538,2501.0521,N,08012.6701,W,1,8,2.1,17,M,,M,,*5F
06/13/2014	07:05:38.907	$GPGGA,070539,2501.0513,N,08012.6705,W,1,8,2.1,17,M,,M,,*5B
06/13/2014	07:05:39.904	$GPGGA,070540,2501.0506,N,08012.6712,W,1,8,2.1,17,M,,M,,*57
06/13/2014	07:05:40.920	$GPGGA,070541,2501.0499,N,08012.6716,W,1,8,2.1,17,M,,M,,*55
06/13/2014	07:05:41.906	$GPGGA,070542,2501.0490,N,08012.6723,W,1,8,2.1,17,M,,M,,*59
06/13/2014	07:05:42.933	$GPGGA,070543,2501.0484,N,08012.6728,W,1,8,2.1,17,M,,M,,*56
06/13/2014	07:05:43.929	$GPGGA,070544,2501.0477,N,08012.6734,W,1,8,2.1,17,M,,M,,*50
06/13/2014	07:05:44.946	$GPGGA,070545,2501.0467,N,08012.6738,W,1,8,2.1,17,M,,M,,*5C
06/13/2014	07:05:45.923	$GPGGA,070546,2501.0461,N,08012.6745,W,1,8,2.1,17,M,,M,,*53
06/13/2014	07:05:46.552	$GPGGA,070547,2501.0454,N,08012.6752,W,1,8,2.1,17,M,,M,,*52
06/13/2014	07:05:47.539	$GPGGA,070548,2501.0445,N,08012.6756,W,1,8,2.1,17,M,,M,,*59
06/13/2014	07:05:48.563	$GPGGA,070549,2501.0437,N,08012.6761,W,1,8,2.1,17,M,,M,,*59
06/13/2014	07:05:49.531	$GPGGA,070550,2501.0431,N,08012.6768,W,1,8,2.1,17,M,,M,,*5E
06/13/2014	07:05:50.558	$GPGGA,070551,2501.0423,N,08012.6774,W,1,8,2.1,17,M,,M,,*51
06/13/2014	07:05:51.568	$GPGGA,070552,2501.0415,N,08012.6778,W,1,8,2.1,17,M,,M,,*5B
06/13/2014	07:05:52.573	$GPGGA,070553,2501.0407,N,08012.6783,W,1,8,2.1,17,M,,M,,*5D
06/13/2014	07:05:53.585	$GPGGA,070554,2501.0401,N,08012.6790,W,1,8,2.1,17,M,,M,,*5E
06/13/2014	07:05:54.592	$GPGGA,070555,2501.0392,N,08012.6796,W,1,8,2.1,17,M,,M,,*54
06/13/2014	07:05:55.592	$GPGGA,070556,2501.0384,N,08012.6800,W,1,8,2.2,17,M,,M,,*53
06/13/2014	07:05:56.574	$GPGGA,070557,2501.0378,N,08012.6807,W,1,8,2.1,16,M,,M,,*54
06/13/2014	07:05:57.581	$GPGGA,070558,2501.0372,N,08012.6814,W,1,8,2.1,16,M,,M,,*53
06/13/2014	07:05:58.567	$GPGGA,070559,2501.0365,N,08012.6818,W,1,8,2.1,16,M,,M,,*58
06/13/2014	07:05:59.720	$GPGGA,070600,2501.0358,N,08012.6825,W,1,8,2.1,16,M,,M,,*57
06/13/2014	07:06:00.702	$GPGGA,070601,2501.0349,N,08012.6831,W,1,7,2.2,16,M,,M,,*5F
06/13/2014	07:06:01.596	$GPGGA,070602,2501.0341,N,08012.6835,W,1,7,2.1,16,M,,M,,*53
06/13/2014	07:06:02.603	$GPGGA,070603,2501.0333,N,08012.6842,W,1,8,2.1,16,M,,M,,*58
06/13/2014	07:06:03.610	$GPGGA,070604,2501.0325,N,08012.6847,W,1,8,2.1,16,M,,M,,*5D
06/13/2014	07:06:04.616	$GPGGA,070605,2501.0318,N,08012.6853,W,1,8,2.1,16,M,,M,,*57
06/13/2014	07:06:05.591	$GPGGA,070606,2501.0311,N,08012.6857,W,1,8,2.1,16,M,,M,,*59
06/13/2014	07:06:06.698	$GPGGA,070607,2501.0302,N,08012.6864,W,1,8,2.1,16,M,,M,,*5A
06/13/2014	07:06:07.734	$GPGGA,070608,2501.0296,N,08012.6871,W,1,8,2.1,16,M,,M,,*5D
06/13/2014	07:06:08.630	$GPGGA,070609,2501.0287,N,08012.6876,W,1,8,2.1,16,M,,M,,*5B
06/13/2014	07:06:09.707	$GPGGA,070610,2501.0278,N,08012.6880,W,1,8,2.1,16,M,,M,,*5A
06/13/2014	07:06:10.633	$GPGGA,070611,2501.0271,N,08012.6889,W,1,8,2.1,16,M,,M,,*5B
06/13/2014	07:06:11.750	$GPGGA,070612,2501.0264,N,08012.6894,W,1,8,2.1,16,M,,M,,*50
06/13/2014	07:06:12.726	$GPGGA,070613,2501.0254,N,08012.6897,W,1,8,2.1,16,M,,M,,*51
06/13/2014	07:06:13.732	$GPGGA,070614,2501.0246,N,08012.6904,W,1,8,2.1,16,M,,M,,*5E
06/13/2014	07:06:14.759	$GPGGA,070615,2501.0242,N,08012.6912,W,1,8,2.1,16,M,,M,,*5C
06/13/2014	07:06:15.765	$GPGGA,070616,2501.0231,N,08012.6916,W,1,8,2.1,16,M,,M,,*5F
06/13/2014	07:06:16.782	$GPGGA,070617,2501.0224,N,08012.6922,W,1,7,2.5,16,M,,M,,*56
06/13/2014	07:06:17.748	$GPGGA,070618,2501.0218,N,08012.6929,W,1,7,2.1,16,M,,M,,*59
06/13/2014	07:06:18.764	$GPGGA,070619,2501.0211,N,08012.6934,W,1,8,2.1,16,M,,M,,*52
06/13/2014	07:06:19.771	$GPGGA,070620,2501.0202,N,08012.6940,W,1,8,2.1,16,M,,M,,*59
06/13/2014	07:06:20.777	$GPGGA,070621,2501.0196,N,08012.6947,W,1,8,2.1,16,M,,M,,*51
06/13/2014	07:06:21.774	$GPGGA,070622,2501.0190,N,08012.6954,W,1,8,2.1,16,M,,M,,*56
06/13/2014	07:06:22.789	$GPGGA,070623,2501.0181,N,08012.6958,W,1,8,2.1,16,M,,M,,*5B
06/13/2014	07:06:23.795	$GPGGA,070624,2501.0174,N,08012.6963,W,1,8,2.1,16,M,,M,,*5E
06/13/2014	07:06:24.802	$GPGGA,070625,2501.0168,N,08012.6972,W,1,8,2.1,16,M,,M,,*52
06/13/2014	07:06:25.788	$GPGGA,070626,2501.0160,N,08012.6976,W,1,8,2.1,17,M,,M,,*5C
06/13/2014	07:06:26.788	$GPGGA,070627,2501.0152,N,08012.6981,W,1,8,2.1,17,M,,M,,*54
06/13/2014	07:06:27.811	$GPGGA,070628,2501.0145,N,08012.6987,W,1,8,2.1,17,M,,M,,*5B
06/13/2014	07:06:28.817	$GPGGA,070629,2501.0139,N,08012.6994,W,1,8,2.1,17,M,,M,,*53
06/13/2014	07:06:29.804	$GPGGA,070630,2501.0131,N,08012.7001,W,1,8,2.1,17,M,,M,,*57
06/13/2014	07:06:30.830	$GPGGA,070631,2501.0123,N,08012.7005,W,1,8,2.1,17,M,,M,,*51
06/13/2014	07:06:31.828	$GPGGA,070632,2501.0116,N,08012.7012,W,1,8,2.1,17,M,,M,,*52
06/13/2014	07:06:32.815	$GPGGA,070633,2501.0109,N,08012.7020,W,1,8,2.1,17,M,,M,,*5C
06/13/2014	07:06:33.831	$GPGGA,070634,2501.0101,N,08012.7025,W,1,8,2.1,17,M,,M,,*56
06/13/2014	07:06:34.816	$GPGGA,070635,2501.0092,N,08012.7030,W,1,8,2.1,18,M,,M,,*57
06/13/2014	07:06:35.843	$GPGGA,070636,2501.0087,N,08012.7038,W,1,8,2.3,18,M,,M,,*5A
06/13/2014	07:06:36.859	$GPGGA,070637,2501.0078,N,08012.7045,W,1,8,2.1,18,M,,M,,*53
06/13/2014	07:06:37.850	$GPGGA,070638,2501.0069,N,08012.7052,W,1,8,2.1,18,M,,M,,*5A
06/13/2014	07:06:38.842	$GPGGA,070639,2501.0061,N,08012.7057,W,1,8,2.1,18,M,,M,,*56
06/13/2014	07:06:39.867	$GPGGA,070640,2501.0052,N,08012.7064,W,1,8,2.1,18,M,,M,,*58
06/13/2014	07:06:40.855	$GPGGA,070641,2501.0045,N,08012.7074,W,1,8,2.1,18,M,,M,,*5E
06/13/2014	07:06:41.849	$GPGGA,070642,2501.0036,N,08012.7079,W,1,8,2.1,18,M,,M,,*54
06/13/2014	07:06:42.856	$GPGGA,070643,2501.0027,N,08012.7085,W,1,8,2.1,19,M,,M,,*57
06/13/2014	07:06:44.002	$GPGGA,070644,2501.0020,N,08012.7092,W,1,8,2.1,19,M,,M,,*51
06/13/2014	07:06:44.888	$GPGGA,070645,2501.0013,N,08012.7099,W,1,8,2.1,19,M,,M,,*5B
06/13/2014	07:06:45.875	$GPGGA,070646,2501.0004,N,08012.7106,W,1,8,2.1,19,M,,M,,*59
06/13/2014	07:06:46.489	$GPGGA,070647,2500.9995,N,08012.7110,W,1,8,2.1,19,M,,M,,*56
06/13/2014	07:06:47.630	$GPGGA,070648,2500.9988,N,08012.7117,W,1,8,2.1,19,M,,M,,*52
06/13/2014	07:06:48.512	$GPGGA,070649,2500.9982,N,08012.7124,W,1,8,2.1,19,M,,M,,*59
06/13/2014	07:06:49.498	$GPGGA,070650,2500.9972,N,08012.7129,W,1,8,2.1,20,M,,M,,*59
06/13/2014	07:06:50.636	$GPGGA,070651,2500.9964,N,08012.7133,W,1,8,2.1,20,M,,M,,*54
06/13/2014	07:06:51.642	$GPGGA,070652,2500.9957,N,08012.7142,W,1,8,2.1,20,M,,M,,*51
06/13/2014	07:06:52.528	$GPGGA,070653,2500.9950,N,08012.7147,W,1,7,2.2,20,M,,M,,*5E
06/13/2014	07:06:53.625	$GPGGA,070654,2500.9942,N,08012.7151,W,1,7,2.2,20,M,,M,,*5D
06/13/2014	07:06:54.631	$GPGGA,070655,2500.9935,N,08012.7157,W,1,8,2.1,20,M,,M,,*56
06/13/2014	07:06:55.557	$GPGGA,070656,2500.9928,N,08012.7164,W,1,8,2.1,20,M,,M,,*59
06/13/2014	07:06:56.654	$GPGGA,070657,2500.9919,N,08012.7168,W,1,8,2.1,20,M,,M,,*56
06/13/2014	07:06:57.649	$GPGGA,070658,2500.9911,N,08012.7172,W,1,8,2.1,20,M,,M,,*5A
06/13/2014	07:06:58.656	$GPGGA,070659,2500.9906,N,08012.7179,W,1,8,2.1,20,M,,M,,*56
06/13/2014	07:06:59.571	$GPGGA,070700,2500.9896,N,08012.7184,W,1,8,2.1,20,M,,M,,*51
06/13/2014	07:07:00.558	$GPGGA,070701,2500.9888,N,08012.7189,W,1,8,2.1,20,M,,M,,*52
06/13/2014	07:07:01.655	$GPGGA,070702,2500.9881,N,08012.7194,W,1,8,2.1,20,M,,M,,*54
06/13/2014	07:07:02.661	$GPGGA,070703,2500.9874,N,08012.7200,W,1,8,2.1,20,M,,M,,*51
06/13/2014	07:07:03.678	$GPGGA,070704,2500.9865,N,08012.7204,W,1,8,2.1,20,M,,M,,*52
06/13/2014	07:07:04.674	$GPGGA,070705,2500.9859,N,08012.7209,W,1,8,2.1,20,M,,M,,*51
06/13/2014	07:07:05.670	$GPGGA,070706,2500.9850,N,08012.7215,W,1,8,2.1,20,M,,M,,*56
06/13/2014	07:07:06.677	$GPGGA,070707,2500.9841,N,08012.7219,W,1,7,2.2,20,M,,M,,*57
06/13/2014	07:07:07.703	$GPGGA,070708,2500.9834,N,08012.7225,W,1,7,2.1,20,M,,M,,*56
06/13/2014	07:07:08.699	$GPGGA,070709,2500.9827,N,08012.7230,W,1,8,2.1,20,M,,M,,*5E
06/13/2014	07:07:09.696	$GPGGA,070710,2500.9818,N,08012.7234,W,1,8,2.1,20,M,,M,,*5E
06/13/2014	07:07:10.711	$GPGGA,070711,2500.9811,N,08012.7241,W,1,8,2.1,20,M,,M,,*54
06/13/2014	07:07:11.716	$GPGGA,070712,2500.9805,N,08012.7247,W,1,8,2.1,20,M,,M,,*54
06/13/2014	07:07:12.733	$GPGGA,070713,2500.9796,N,08012.7251,W,1,8,2.1,20,M,,M,,*57
06/13/2014	07:07:13.717	$GPGGA,070714,2500.9788,N,08012.7258,W,1,8,2.1,20,M,,M,,*56
06/13/2014	07:07:14.732	$GPGGA,070715,2500.9783,N,08012.7265,W,1,8,2.1,20,M,,M,,*52
06/13/2014	07:07:15.726	$GPGGA,070716,2500.9776,N,08012.7269,W,1,8,2.1,20,M,,M,,*57
06/13/2014	07:07:16.732	$GPGGA,070717,2500.9766,N,08012.7273,W,1,8,2.1,20,M,,M,,*5C
06/13/2014	07:07:17.717	$GPGGA,070718,2500.9759,N,08012.7280,W,1,8,2.1,20,M,,M,,*53
06/13/2014	07:07:18.752	$GPGGA,070719,2500.9753,N,08012.7287,W,1,8,2.1,20,M,,M,,*5F
06/13/2014	07:07:19.727	$GPGGA,070720,2500.9744,N,08012.7291,W,1,8,2.1,20,M,,M,,*54
06/13/2014	07:07:20.724	$GPGGA,070721,2500.9736,N,08012.7296,W,1,8,2.1,20,M,,M,,*57
06/13/2014	07:07:21.729	$GPGGA,070722,2500.9729,N,08012.7303,W,1,8,2.1,19,M,,M,,*5D
06/13/2014	07:07:22.763	$GPGGA,070723,2500.9722,N,08012.7309,W,1,8,2.1,19,M,,M,,*5D
06/13/2014	07:07:23.750	$GPGGA,070724,2500.9713,N,08012.7314,W,1,8,2.1,19,M,,M,,*54
06/13/2014	07:07:24.734	$GPGGA,070725,2500.9706,N,08012.7320,W,1,8,2.1,19,M,,M,,*56
06/13/2014	07:07:25.759	$GPGGA,070726,2500.9699,N,08012.7327,W,1,8,2.1,19,M,,M,,*55
06/13/2014	07:07:26.758	$GPGGA,070727,2500.9691,N,08012.7331,W,1,8,2.1,19,M,,M,,*5B
06/13/2014	07:07:27.761	$GPGGA,070728,2500.9682,N,08012.7337,W,1,8,2.1,19,M,,M,,*50
06/13/2014	07:07:28.745	$GPGGA,070729,2500.9675,N,08012.7344,W,1,8,2.1,19,M,,M,,*5D
06/13/2014	07:07:29.760	$GPGGA,070730,2500.9668,N,08012.7350,W,1,8,2.1,19,M,,M,,*5C
06/13/2014	07:07:30.766	$GPGGA,070731,2500.9659,N,08012.7355,W,1,8,2.1,19,M,,M,,*5A
06/13/2014	07:07:31.782	$GPGGA,070732,2500.9651,N,08012.7361,W,1,8,2.1,19,M,,M,,*56
06/13/2014	07:07:32.795	$GPGGA,070733,2500.9644,N,08012.7368,W,1,8,2.1,19,M,,M,,*5A
06/13/2014	07:07:33.942	$GPGGA,070734,2500.9636,N,08012.7374,W,1,8,2.1,19,M,,M,,*55
06/13/2014	07:07:34.796	$GPGGA,070735,2500.9628,N,08012.7378,W,1,8,2.1,19,M,,M,,*57
06/13/2014	07:07:35.781	$GPGGA,070736,2500.9621,N,08012.7386,W,1,8,2.1,19,M,,M,,*5C
06/13/2014	07:07:36.776	$GPGGA,070737,2500.9613,N,08012.7392,W,1,8,2.1,19,M,,M,,*59
06/13/2014	07:07:37.792	$GPGGA,070738,2500.9604,N,08012.7396,W,1,8,2.1,19,M,,M,,*54
06/13/2014	07:07:38.797	$GPGGA,070739,2500.9599,N,08012.7403,W,1,8,2.1,19,M,,M,,*59
06/13/2014	07:07:39.802	$GPGGA,070740,2500.9590,N,08012.7410,W,1,8,2.1,19,M,,M,,*5C
06/13/2014	07:07:40.818	$GPGGA,070741,2500.9581,N,08012.7414,W,1,8,2.1,19,M,,M,,*59
06/13/2014	07:07:41.803	$GPGGA,070742,2500.9574,N,08012.7421,W,1,8,2.1,19,M,,M,,*56
06/13/2014	07:07:42.799	$GPGGA,070743,2500.9566,N,08012.7428,W,1,8,2.1,19,M,,M,,*5D
06/13/2014	07:07:43.984	$GPGGA,070744,2500.9559,N,08012.7435,W,1,8,2.1,19,M,,M,,*5A
06/13/2014	07:07:44.819	$GPGGA,070745,2500.9550,N,08012.7439,W,1,8,2.1,19,M,,M,,*5E
06/13/2014	07:07:45.815	$GPGGA,070746,2500.9542,N,08012.7444,W,1,8,2.1,19,M,,M,,*54
06/13/2014	07:07:46.588	$GPGGA,070747,2500.9534,N,08012.7451,W,1,8,2.1,19,M,,M,,*50
06/13/2014	07:07:47.653	$GPGGA,070748,2500.9527,N,08012.7457,W,1,8,2.1,19,M,,M,,*5B
06/13/2014	07:07:48.598	$GPGGA,070749,2500.9518,N,08012.7461,W,1,8,2.1,19,M,,M,,*53
06/13/2014	07:07:49.653	$GPGGA,070750,2500.9510,N,08012.7467,W,1,8,2.1,19,M,,M,,*55
06/13/2014	07:07:50.668	$GPGGA,070751,2500.9502,N,08012.7473,W,1,8,2.1,19,M,,M,,*52
06/13/2014	07:07:51.663	$GPGGA,070752,2500.9495,N,08012.7480,W,1,8,2.1,19,M,,M,,*52
06/13/2014	07:07:52.618	$GPGGA,070753,2500.9487,N,08012.7485,W,1,8,2.1,19,M,,M,,*55
06/13/2014	07:07:53.604	$GPGGA,070754,2500.9478,N,08012.7490,W,1,8,2.1,19,M,,M,,*56
06/13/2014	07:07:54.639	$GPGGA,070755,2500.9473,N,08012.7497,W,1,8,2.1,19,M,,M,,*5B
06/13/2014	07:07:55.685	$GPGGA,070756,2500.9463,N,08012.7504,W,1,8,2.1,19,M,,M,,*52
06/13/2014	07:07:56.640	$GPGGA,070757,2500.9454,N,08012.7507,W,1,8,2.1,19,M,,M,,*54
06/13/2014	07:07:57.676	$GPGGA,070758,2500.9447,N,08012.7514,W,1,8,2.1,19,M,,M,,*5B
06/13/2014	07:07:58.650	$GPGGA,070759,2500.9440,N,08012.7520,W,1,8,2.1,19,M,,M,,*5A
06/13/2014	07:07:59.716	$GPGGA,070800,2500.9431,N,08012.7525,W,1,8,2.1,19,M,,M,,*5A
06/13/2014	07:08:00.661	$GPGGA,070801,2500.9423,N,08012.7530,W,1,8,2.1,19,M,,M,,*5C
06/13/2014	07:08:01.616	$GPGGA,070802,2500.9416,N,08012.7536,W,1,8,2.1,19,M,,M,,*5F
06/13/2014	07:08:02.661	$GPGGA,070803,2500.9408,N,08012.7543,W,1,8,2.1,19,M,,M,,*53
06/13/2014	07:08:03.727	$GPGGA,070804,2500.9400,N,08012.7548,W,1,8,2.1,19,M,,M,,*57
06/13/2014	07:08:04.624	$GPGGA,070805,2500.9393,N,08012.7554,W,1,8,2.1,19,M,,M,,*56
06/13/2014	07:08:05.677	$GPGGA,070806,2500.9384,N,08012.7559,W,1,8,2.1,19,M,,M,,*5E
06/13/2014	07:08:06.733	$GPGGA,070807,2500.9375,N,08012.7565,W,1,8,2.1,19,M,,M,,*5E
06/13/2014	07:08:07.637	$GPGGA,070808,2500.9368,N,08012.7572,W,1,8,2.1,19,M,,M,,*5B
06/13/2014	07:08:08.692	$GPGGA,070809,2500.9361,N,08012.7577,W,1,8,2.1,19,M,,M,,*56
06/13/2014	07:08:09.707	$GPGGA,070810,2500.9351,N,08012.7581,W,1,8,2.1,19,M,,M,,*54
06/13/2014	07:08:10.733	$GPGGA,070811,2500.9344,N,08012.7588,W,1,8,2.1,19,M,,M,,*58
06/13/2014	07:08:11.718	$GPGGA,070812,2500.9337,N,08012.7594,W,1,8,2.1,19,M,,M,,*52
06/13/2014	07:08:12.703	$GPGGA,070813,2500.9328,N,08012.7599,W,1,8,2.1,19,M,,M,,*50
06/13/2014	07:08:13.719	$GPGGA,070814,2500.9321,N,08012.7603,W,1,8,2.1,19,M,,M,,*5E
06/13/2014	07:08:14.654	$GPGGA,070815,2500.9314,N,08012.7612,W,1,8,2.1,19,M,,M,,*59
06/13/2014	07:08:15.739	$GPGGA,070816,2500.9306,N,08012.7616,W,1,8,2.2,19,M,,M,,*5E
06/13/2014	07:08:16.724	$GPGGA,070817,2500.9297,N,08012.7621,W,1,8,2.2,19,M,,M,,*52
06/13/2014	07:08:17.730	$GPGGA,070818,2500.9290,N,08012.7627,W,1,8,2.2,19,M,,M,,*5C
06/13/2014	07:08:18.695	$GPGGA,070819,2500.9283,N,08012.7634,W,1,8,2.2,19,M,,M,,*5D
06/13/2014	07:08:19.740	$GPGGA,070820,2500.9274,N,08012.7638,W,1,8,2.2,19,M,,M,,*53
06/13/2014	07:08:20.675	$GPGGA,070821,2500.9267,N,08012.7644,W,1,8,2.2,19,M,,M,,*5B
06/13/2014	07:08:21.781	$GPGGA,070822,2500.9258,N,08012.7650,W,1,8,2.1,19,M,,M,,*52
06/13/2014	07:08:22.746	$GPGGA,070823,2500.9251,N,08012.7656,W,1,8,2.1,19,M,,M,,*5C
06/13/2014	07:08:23.762	$GPGGA,070824,2500.9242,N,08012.7663,W,1,8,2.1,19,M,,M,,*5F
06/13/2014	07:08:24.807	$GPGGA,070825,2500.9234,N,08012.7668,W,1,8,2.1,19,M,,M,,*54
06/13/2014	07:08:25.761	$GPGGA,070826,2500.9227,N,08012.7673,W,1,8,2.1,19,M,,M,,*5F
06/13/2014	07:08:26.696	$GPGGA,070827,2500.9218,N,08012.7680,W,1,8,2.1,19,M,,M,,*5E
06/13/2014	07:08:27.762	$GPGGA,070828,2500.9210,N,08012.7685,W,1,8,2.2,18,M,,M,,*5E
06/13/2014	07:08:28.827	$GPGGA,070829,2500.9202,N,08012.7691,W,1,8,2.2,18,M,,M,,*59
06/13/2014	07:08:29.772	$GPGGA,070830,2500.9194,N,08012.7697,W,1,8,2.2,18,M,,M,,*5B
06/13/2014	07:08:30.828	$GPGGA,070831,2500.9185,N,08012.7703,W,1,8,2.2,18,M,,M,,*56
06/13/2014	07:08:31.724	$GPGGA,070832,2500.9177,N,08012.7709,W,1,8,2.2,18,M,,M,,*52
06/13/2014	07:08:32.848	$GPGGA,070833,2500.9169,N,08012.7714,W,1,8,2.2,18,M,,M,,*50
06/13/2014	07:08:33.783	$GPGGA,070834,2500.9162,N,08012.7720,W,1,8,2.2,18,M,,M,,*5B
06/13/2014	07:08:34.859	$GPGGA,070835,2500.9152,N,08012.7725,W,1,8,2.2,18,M,,M,,*5C
06/13/2014	07:08:35.804	$GPGGA,070836,2500.9144,N,08012.7731,W,1,8,2.2,18,M,,M,,*5D
06/13/2014	07:08:36.759	$GPGGA,070837,2500.9137,N,08012.7738,W,1,8,2.2,18,M,,M,,*51
06/13/2014	07:08:37.825	$GPGGA,070838,2500.9128,N,08012.7742,W,1,8,2.2,18,M,,M,,*5D
06/13/2014	07:08:38.840	$GPGGA,070839,2500.9120,N,08012.7749,W,1,8,2.2,18,M,,M,,*5F
06/13/2014	07:08:39.865	$GPGGA,070840,2500.9113,N,08012.7754,W,1,8,2.2,18,M,,M,,*5D
06/13/2014	07:08:40.851	$GPGGA,070841,2500.9105,N,08012.7760,W,1,8,2.2,18,M,,M,,*5C
06/13/2014	07:08:41.846	$GPGGA,070842,2500.9097,N,08012.7765,W,1,8,2.2,18,M,,M,,*50
06/13/2014	07:08:42.870	$GPGGA,070843,2500.9088,N,08012.7771,W,1,8,2.2,18,M,,M,,*5A
06/13/2014	07:08:43.876	$GPGGA,070844,2500.9081,N,08012.7778,W,1,8,2.2,18,M,,M,,*5D
06/13/2014	07:08:44.871	$GPGGA,070845,2500.9073,N,08012.7782,W,1,8,2.2,18,M,,M,,*54
06/13/2014	07:08:45.866	$GPGGA,070846,2500.9064,N,08012.7789,W,1,8,2.2,18,M,,M,,*5A
06/13/2014	07:08:46.565	$GPGGA,070847,2500.9057,N,08012.7794,W,1,8,2.2,18,M,,M,,*57
06/13/2014	07:08:47.591	$GPGGA,070848,2500.9048,N,08012.7800,W,1,8,2.2,18,M,,M,,*54
06/13/2014	07:08:48.576	$GPGGA,070849,2500.9040,N,08012.7805,W,1,8,2.2,18,M,,M,,*58
06/13/2014	07:08:49.591	$GPGGA,070850,2500.9032,N,08012.7811,W,1,8,2.2,18,M,,M,,*50
06/13/2014	07:08:50.607	$GPGGA,070851,2500.9025,N,08012.7818,W,1,8,2.2,18,M,,M,,*5E
06/13/2014	07:08:51.582	$GPGGA,070852,2500.9016,N,08012.7823,W,1,8,2.2,18,M,,M,,*55
06/13/2014	07:08:52.607	$GPGGA,070853,2500.9008,N,08012.7829,W,1,8,2.2,18,M,,M,,*51
06/13/2014	07:08:53.582	$GPGGA,070854,2500.9001,N,08012.7836,W,1,8,2.2,18,M,,M,,*51
06/13/2014	07:08:54.598	$GPGGA,070855,2500.8992,N,08012.7841,W,1,8,2.2,18,M,,M,,*52
06/13/2014	07:08:55.623	$GPGGA,070856,2500.8985,N,08012.7847,W,1,8,2.2,18,M,,M,,*51
06/13/2014	07:08:56.578	$GPGGA,070857,2500.8978,N,08012.7852,W,1,8,2.2,18,M,,M,,*56
06/13/2014	07:08:57.595	$GPGGA,070858,2500.8969,N,08012.7858,W,1,8,2.2,18,M,,M,,*53
06/13/2014	07:08:58.619	$GPGGA,070859,2500.8960,N,08012.7863,W,1,8,2.2,18,M,,M,,*53
06/13/2014	07:08:59.623	$GPGGA,070900,2500.8960,N,08012.7863,W,1,8,2.2,18,M,,M,,*5E
06/13/2014	07:09:00.629	$GPGGA,070901,2500.8945,N,08012.7876,W,1,8,2.2,18,M,,M,,*5C
06/13/2014	07:09:01.614	$GPGGA,070902,2500.8938,N,08012.7883,W,1,8,2.2,18,M,,M,,*5F
06/13/2014	07:09:02.629	$GPGGA,070903,2500.8928,N,08012.7886,W,1,8,2.2,18,M,,M,,*5A
06/13/2014	07:09:03.614	$GPGGA,070904,2500.8928,N,08012.7886,W,1,8,2.2,18,M,,M,,*5D
06/13/2014	07:09:04.610	$GPGGA,070905,2500.8916,N,08012.7901,W,1,8,2.2,18,M,,M,,*5F
06/13/2014	07:09:05.625	$GPGGA,070906,2500.8916,N,08012.7901,W,1,8,2.2,18,M,,M,,*5C
06/13/2014	07:09:06.622	$GPGGA,070907,2500.8898,N,08012.7909,W,1,8,2.2,18,M,,M,,*52
06/13/2014	07:09:07.627	$GPGGA,070908,2500.8898,N,08012.7909,W,1,8,2.2,18,M,,M,,*5D
06/13/2014	07:09:08.642	$GPGGA,070909,2500.8893,N,08012.7919,W,1,8,2.2,18,M,,M,,*56
06/13/2014	07:09:09.616	$GPGGA,070910,2500.8885,N,08012.7923,W,1,8,2.2,18,M,,M,,*50
06/13/2014	07:09:10.662	$GPGGA,070911,2500.8870,N,08012.7934,W,1,8,2.2,18,M,,M,,*5D
06/13/2014	07:09:11.647	$GPGGA,070912,2500.8862,N,08012.7941,W,1,8,2.2,18,M,,M,,*5F
06/13/2014	07:09:12.672	$GPGGA,070913,2500.8855,N,08012.7945,W,1,8,2.2,18,M,,M,,*5E
06/13/2014	07:09:13.650	$GPGGA,070914,2500.8855,N,08012.7945,W,1,8,2.2,18,M,,M,,*59
06/13/2014	07:09:14.643	$GPGGA,070915,2500.8839,N,08012.7957,W,1,8,2.2,18,M,,M,,*51
06/13/2014	07:09:15.779	$GPGGA,070916,2500.8830,N,08012.7962,W,1,8,2.2,18,M,,M,,*5D
06/13/2014	07:09:16.663	$GPGGA,070917,2500.8824,N,08012.7969,W,1,8,2.2,18,M,,M,,*52
06/13/2014	07:09:17.688	$GPGGA,070918,2500.8824,N,08012.7969,W,1,8,2.2,18,M,,M,,*5D
06/13/2014	07:09:18.743	$GPGGA,070919,2500.8808,N,08012.7977,W,1,8,2.2,18,M,,M,,*5D
06/13/2014	07:09:19.758	$GPGGA,070920,2500.8801,N,08012.7984,W,1,8,2.2,18,M,,M,,*52
06/13/2014	07:09:20.754	$GPGGA,070921,2500.8794,N,08012.7989,W,1,8,2.2,18,M,,M,,*5D
06/13/2014	07:09:21.779	$GPGGA,070922,2500.8786,N,08012.7995,W,1,8,2.2,18,M,,M,,*50
06/13/2014	07:09:22.774	$GPGGA,070923,2500.8776,N,08012.7999,W,1,8,2.2,18,M,,M,,*52
06/13/2014	07:09:23.800	$GPGGA,070924,2500.8769,N,08012.8006,W,1,8,2.2,18,M,,M,,*5B
06/13/2014	07:09:24.674	$GPGGA,070925,2500.8762,N,08012.8013,W,1,8,2.2,18,M,,M,,*55
06/13/2014	07:09:25.720	$GPGGA,070926,2500.8762,N,08012.8013,W,1,8,2.2,18,M,,M,,*56
06/13/2014	07:09:26.796	$GPGGA,070927,2500.8745,N,08012.8020,W,1,8,2.2,18,M,,M,,*52
06/13/2014	07:09:27.791	$GPGGA,070928,2500.8738,N,08012.8027,W,1,8,2.2,18,M,,M,,*50
06/13/2014	07:09:28.816	$GPGGA,070929,2500.8730,N,08012.8031,W,1,8,2.2,18,M,,M,,*5E
06/13/2014	07:09:29.781	$GPGGA,070930,2500.8721,N,08012.8035,W,1,8,2.2,18,M,,M,,*52
06/13/2014	07:09:30.807	$GPGGA,070931,2500.8714,N,08012.8042,W,1,8,2.2,18,M,,M,,*55
06/13/2014	07:09:31.812	$GPGGA,070932,2500.8707,N,08012.8047,W,1,8,2.2,18,M,,M,,*51
06/13/2014	07:09:32.817	$GPGGA,070933,2500.8697,N,08012.8051,W,1,8,2.2,18,M,,M,,*5F
06/13/2014	07:09:33.792	$GPGGA,070934,2500.8689,N,08012.8056,W,1,8,2.2,18,M,,M,,*50
06/13/2014	07:09:34.797	$GPGGA,070935,2500.8681,N,08012.8063,W,1,8,2.2,18,M,,M,,*5F
06/13/2014	07:09:35.812	$GPGGA,070936,2500.8672,N,08012.8065,W,1,8,2.2,18,M,,M,,*56
06/13/2014	07:09:36.817	$GPGGA,070937,2500.8664,N,08012.8071,W,1,8,2.2,18,M,,M,,*55
06/13/2014	07:09:37.813	$GPGGA,070938,2500.8656,N,08012.8078,W,1,8,2.3,18,M,,M,,*53
06/13/2014	07:09:38.828	$GPGGA,070939,2500.8645,N,08012.8083,W,1,8,2.2,18,M,,M,,*55
06/13/2014	07:09:39.833	$GPGGA,070940,2500.8638,N,08012.8089,W,1,8,2.2,18,M,,M,,*5B
06/13/2014	07:09:40.849	$GPGGA,070941,2500.8629,N,08012.8096,W,1,8,2.2,18,M,,M,,*54
06/13/2014	07:09:41.824	$GPGGA,070942,2500.8620,N,08012.8101,W,1,8,2.2,18,M,,M,,*51
06/13/2014	07:09:42.849	$GPGGA,070943,2500.8611,N,08012.8107,W,1,8,2.2,18,M,,M,,*54
06/13/2014	07:09:43.844	$GPGGA,070944,2500.8604,N,08012.8114,W,1,8,2.2,18,M,,M,,*55
06/13/2014	07:09:44.860	$GPGGA,070945,2500.8596,N,08012.8119,W,1,8,2.2,18,M,,M,,*51
06/13/2014	07:09:45.845	$GPGGA,070946,2500.8586,N,08012.8123,W,1,8,2.2,18,M,,M,,*5A
06/13/2014	07:09:46.554	$GPGGA,070947,2500.8579,N,08012.8129,W,1,8,2.2,18,M,,M,,*51
06/13/2014	07:09:47.540	$GPGGA,070948,2500.8573,N,08012.8136,W,1,8,2.2,18,M,,M,,*5A
06/13/2014	07:09:48.527	$GPGGA,070949,2500.8563,N,08012.8141,W,1,8,2.2,18,M,,M,,*5A
06/13/2014	07:09:49.540	$GPGGA,070950,2500.8555,N,08012.8144,W,1,8,2.2,19,M,,M,,*53
06/13/2014	07:09:50.526	$GPGGA,070951,2500.8548,N,08012.8151,W,1,8,2.2,19,M,,M,,*5A
06/13/2014	07:09:51.571	$GPGGA,070952,2500.8540,N,08012.8158,W,1,8,2.2,19,M,,M,,*58
06/13/2014	07:09:52.545	$GPGGA,070953,2500.8531,N,08012.8162,W,1,8,2.2,19,M,,M,,*56
06/13/2014	07:09:53.560	$GPGGA,070954,2500.8522,N,08012.8166,W,1,8,2.2,19,M,,M,,*57
06/13/2014	07:09:54.586	$GPGGA,070955,2500.8516,N,08012.8175,W,1,8,2.2,19,M,,M,,*53
06/13/2014	07:09:55.564	$GPGGA,070956,2500.8509,N,08012.8180,W,1,8,2.2,19,M,,M,,*54
06/13/2014	07:09:56.576	$GPGGA,070957,2500.8499,N,08012.8183,W,1,8,2.2,19,M,,M,,*5E
06/13/2014	07:09:57.551	$GPGGA,070958,2500.8491,N,08012.8190,W,1,8,2.2,19,M,,M,,*5B
06/13/2014	07:09:58.557	$GPGGA,070959,2500.8485,N,08012.8197,W,1,8,2.2,19,M,,M,,*58
06/13/2014	07:09:59.612	$GPGGA,071000,2500.8476,N,08012.8201,W,1,8,2.2,19,M,,M,,*5C
06/13/2014	07:10:00.587	$GPGGA,071001,2500.8468,N,08012.8208,W,1,8,2.2,19,M,,M,,*5B
06/13/2014	07:10:01.663	$GPGGA,071002,2500.8461,N,08012.8215,W,1,8,2.2,20,M,,M,,*57
06/13/2014	07:10:02.568	$GPGGA,071003,2500.8454,N,08012.8220,W,1,8,2.2,20,M,,M,,*56
06/13/2014	07:10:03.593	$GPGGA,071004,2500.8444,N,08012.8224,W,1,8,2.2,20,M,,M,,*54
06/13/2014	07:10:04.679	$GPGGA,071005,2500.8437,N,08012.8230,W,1,8,2.2,20,M,,M,,*54
06/13/2014	07:10:05.674	$GPGGA,071006,2500.8430,N,08012.8238,W,1,8,2.2,20,M,,M,,*58
06/13/2014	07:10:06.609	$GPGGA,071007,2500.8423,N,08012.8244,W,1,8,2.2,20,M,,M,,*50
06/13/2014	07:10:07.614	$GPGGA,071008,2500.8414,N,08012.8248,W,1,8,2.2,20,M,,M,,*57
06/13/2014	07:10:08.600	$GPGGA,071009,2500.8407,N,08012.8255,W,1,8,2.2,20,M,,M,,*58
06/13/2014	07:10:09.684	$GPGGA,071010,2500.8400,N,08012.8262,W,1,8,2.2,20,M,,M,,*53
06/13/2014	07:10:10.599	$GPGGA,071011,2500.8391,N,08012.8267,W,1,8,2.2,20,M,,M,,*58
06/13/2014	07:10:11.735	$GPGGA,071012,2500.8383,N,08012.8271,W,1,8,2.2,20,M,,M,,*5F
06/13/2014	07:10:12.720	$GPGGA,071013,2500.8378,N,08012.8280,W,1,8,2.2,20,M,,M,,*54
06/13/2014	07:10:13.716	$GPGGA,071014,2500.8369,N,08012.8285,W,1,8,2.2,20,M,,M,,*56
06/13/2014	07:10:14.620	$GPGGA,071015,2500.8360,N,08012.8289,W,1,8,2.2,19,M,,M,,*58
06/13/2014	07:10:15.736	$GPGGA,071016,2500.8354,N,08012.8295,W,1,8,2.5,19,M,,M,,*56
06/13/2014	07:10:16.742	$GPGGA,071017,2500.8346,N,08012.8302,W,1,8,2.2,19,M,,M,,*5C
06/13/2014	07:10:17.728	$GPGGA,071018,2500.8339,N,08012.8309,W,1,8,2.2,19,M,,M,,*50
06/13/2014	07:10:18.752	$GPGGA,071019,2500.8332,N,08012.8314,W,1,8,2.2,19,M,,M,,*56
06/13/2014	07:10:19.778	$GPGGA,071020,2500.8324,N,08012.8320,W,1,8,2.2,19,M,,M,,*5C
06/13/2014	07:10:20.753	$GPGGA,071021,2500.8317,N,08012.8327,W,1,8,2.2,19,M,,M,,*5A
06/13/2014	07:10:21.748	$GPGGA,071022,2500.8310,N,08012.8334,W,1,8,2.2,19,M,,M,,*5C
06/13/2014	07:10:22.753	$GPGGA,071023,2500.8302,N,08012.8338,W,1,8,2.2,19,M,,M,,*52
06/13/2014	07:10:23.759	$GPGGA,071024,2500.8295,N,08012.8345,W,1,8,2.2,19,M,,M,,*50
06/13/2014	07:10:24.754	$GPGGA,071025,2500.8288,N,08012.8352,W,1,8,2.2,19,M,,M,,*5B
06/13/2014	07:10:25.749	$GPGGA,071026,2500.8281,N,08012.8357,W,1,8,2.2,19,M,,M,,*54
06/13/2014	07:10:26.774	$GPGGA,071027,2500.8273,N,08012.8363,W,1,8,2.2,19,M,,M,,*5F
06/13/2014	07:10:27.780	$GPGGA,071028,2500.8266,N,08012.8370,W,1,8,2.2,19,M,,M,,*56
06/13/2014	07:10:28.774	$GPGGA,071029,2500.8259,N,08012.8375,W,1,8,2.2,19,M,,M,,*5E
06/13/2014	07:10:29.749	$GPGGA,071030,2500.8250,N,08012.8381,W,1,8,2.2,19,M,,M,,*54
06/13/2014	07:10:30.765	$GPGGA,071031,2500.8243,N,08012.8386,W,1,8,2.2,20,M,,M,,*5A
06/13/2014	07:10:31.780	$GPGGA,071032,2500.8235,N,08012.8392,W,1,8,2.2,20,M,,M,,*5D
06/13/2014	07:10:32.795	$GPGGA,071033,2500.8228,N,08012.8399,W,1,8,2.2,20,M,,M,,*5B
06/13/2014	07:10:33.763	$GPGGA,071034,2500.8219,N,08012.8403,W,1,8,2.2,20,M,,M,,*5A
06/13/2014	07:10:34.796	$GPGGA,071035,2500.8212,N,08012.8410,W,1,8,2.2,20,M,,M,,*52
06/13/2014	07:10:35.801	$GPGGA,071036,2500.8204,N,08012.8417,W,1,8,2.2,20,M,,M,,*51
06/13/2014	07:10:36.776	$GPGGA,071037,2500.8196,N,08012.8421,W,1,8,2.2,20,M,,M,,*5D
06/13/2014	07:10:37.802	$GPGGA,071038,2500.8186,N,08012.8425,W,1,8,2.2,20,M,,M,,*57
06/13/2014	07:10:38.817	$GPGGA,071039,2500.8179,N,08012.8432,W,1,8,2.2,20,M,,M,,*50
06/13/2014	07:10:39.812	$GPGGA,071040,2500.8172,N,08012.8439,W,1,8,2.3,20,M,,M,,*5F
06/13/2014	07:10:40.807	$GPGGA,071041,2500.8161,N,08012.8443,W,1,8,2.2,20,M,,M,,*50
06/13/2014	07:10:41.813	$GPGGA,071042,2500.8151,N,08012.8448,W,1,8,2.2,20,M,,M,,*5B
06/13/2014	07:10:44.332	$GPGGA,071044,2500.8136,N,08012.8462,W,1,8,2.2,20,M,,M,,*54
06/13/2014	07:10:44.928	$GPGGA,071045,2500.8126,N,08012.8465,W,1,8,2.2,20,M,,M,,*53
06/13/2014	07:10:45.813	$GPGGA,071046,2500.8118,N,08012.8472,W,1,8,2.2,20,M,,M,,*5B
06/13/2014	07:10:46.513	$GPGGA,071047,2500.8111,N,08012.8479,W,1,8,2.2,20,M,,M,,*58
06/13/2014	07:10:47.520	$GPGGA,071048,2500.8102,N,08012.8483,W,1,8,2.2,20,M,,M,,*50
06/13/2014	07:10:48.520	$GPGGA,071049,2500.8094,N,08012.8488,W,1,8,2.2,20,M,,M,,*54
06/13/2014	07:10:49.508	$GPGGA,071050,2500.8085,N,08012.8494,W,1,8,2.2,20,M,,M,,*51
06/13/2014	07:10:50.642	$GPGGA,071051,2500.8076,N,08012.8499,W,1,8,2.2,20,M,,M,,*51
06/13/2014	07:10:51.531	$GPGGA,071052,2500.8068,N,08012.8505,W,1,8,2.2,21,M,,M,,*58
06/13/2014	07:10:52.514	$GPGGA,071053,2500.8060,N,08012.8512,W,1,8,2.2,21,M,,M,,*57
06/13/2014	07:10:53.529	$GPGGA,071054,2500.8051,N,08012.8515,W,1,8,2.2,21,M,,M,,*55
06/13/2014	07:10:54.548	$GPGGA,071055,2500.8043,N,08012.8522,W,1,8,2.2,21,M,,M,,*53
06/13/2014	07:10:55.530	$GPGGA,071056,2500.8035,N,08012.8527,W,1,8,2.2,21,M,,M,,*54
06/13/2014	07:10:56.666	$GPGGA,071057,2500.8026,N,08012.8533,W,1,8,2.2,21,M,,M,,*52
06/13/2014	07:10:57.540	$GPGGA,071058,2500.8018,N,08012.8537,W,1,8,2.2,21,M,,M,,*54
06/13/2014	07:10:58.536	$GPGGA,071059,2500.8010,N,08012.8544,W,1,8,2.2,21,M,,M,,*59
06/13/2014	07:10:59.585	$GPGGA,071100,2500.8002,N,08012.8548,W,1,8,2.2,21,M,,M,,*5B
06/13/2014	07:11:00.637	$GPGGA,071101,2500.7993,N,08012.8553,W,1,8,2.2,21,M,,M,,*5E
06/13/2014	07:11:01.551	$GPGGA,071102,2500.7985,N,08012.8559,W,1,8,2.2,21,M,,M,,*50
06/13/2014	07:11:02.656	$GPGGA,071103,2500.7977,N,08012.8566,W,1,7,2.3,21,M,,M,,*5E
06/13/2014	07:11:03.673	$GPGGA,071104,2500.7968,N,08012.8571,W,1,7,2.2,21,M,,M,,*50
06/13/2014	07:11:04.647	$GPGGA,071105,2500.7960,N,08012.8577,W,1,8,2.2,21,M,,M,,*50
06/13/2014	07:11:05.663	$GPGGA,071106,2500.7952,N,08012.8582,W,1,8,2.2,21,M,,M,,*58
06/13/2014	07:11:06.657	$GPGGA,071107,2500.7943,N,08012.8589,W,1,8,2.2,21,M,,M,,*52
06/13/2014	07:11:07.683	$GPGGA,071108,2500.7934,N,08012.8595,W,1,8,2.2,21,M,,M,,*50
06/13/2014	07:11:08.668	$GPGGA,071109,2500.7925,N,08012.8600,W,1,8,2.2,21,M,,M,,*5E
06/13/2014	07:11:09.673	$GPGGA,071110,2500.7917,N,08012.8606,W,1,8,2.2,21,M,,M,,*51
06/13/2014	07:11:10.669	$GPGGA,071111,2500.7909,N,08012.8613,W,1,8,2.2,21,M,,M,,*5B
06/13/2014	07:11:11.694	$GPGGA,071112,2500.7901,N,08012.8618,W,1,8,2.2,21,M,,M,,*5B
06/13/2014	07:11:12.689	$GPGGA,071113,2500.7891,N,08012.8624,W,1,8,2.2,21,M,,M,,*5D
06/13/2014	07:11:13.684	$GPGGA,071114,2500.7884,N,08012.8631,W,1,8,2.2,21,M,,M,,*5A
06/13/2014	07:11:14.680	$GPGGA,071115,2500.7876,N,08012.8636,W,1,8,2.2,21,M,,M,,*51
06/13/2014	07:11:15.705	$GPGGA,071116,2500.7866,N,08012.8642,W,1,8,2.2,21,M,,M,,*50
06/13/2014	07:11:16.710	$GPGGA,071117,2500.7860,N,08012.8649,W,1,8,2.2,21,M,,M,,*5C
06/13/2014	07:11:17.706	$GPGGA,071118,2500.7852,N,08012.8654,W,1,8,2.2,21,M,,M,,*5E
06/13/2014	07:11:18.721	$GPGGA,071119,2500.7842,N,08012.8660,W,1,8,2.2,21,M,,M,,*59
06/13/2014	07:11:19.725	$GPGGA,071120,2500.7836,N,08012.8667,W,1,8,2.2,21,M,,M,,*57
06/13/2014	07:11:20.701	$GPGGA,071121,2500.7829,N,08012.8674,W,1,8,2.2,21,M,,M,,*5A
06/13/2014	07:11:21.716	$GPGGA,071122,2500.7819,N,08012.8679,W,1,8,2.2,21,M,,M,,*57
06/13/2014	07:11:22.751	$GPGGA,071123,2500.7811,N,08012.8685,W,1,8,2.2,22,M,,M,,*5E
06/13/2014	07:11:23.736	$GPGGA,071124,2500.7803,N,08012.8692,W,1,8,2.2,22,M,,M,,*5C
06/13/2014	07:11:24.762	$GPGGA,071125,2500.7796,N,08012.8699,W,1,8,2.2,22,M,,M,,*55
06/13/2014	07:11:25.727	$GPGGA,071126,2500.7789,N,08012.8704,W,1,8,2.2,22,M,,M,,*5D
06/13/2014	07:11:26.723	$GPGGA,071127,2500.7780,N,08012.8710,W,1,8,2.2,22,M,,M,,*50
06/13/2014	07:11:27.748	$GPGGA,071128,2500.7773,N,08012.8717,W,1,8,2.2,22,M,,M,,*54
06/13/2014	07:11:28.753	$GPGGA,071129,2500.7767,N,08012.8723,W,1,8,2.2,22,M,,M,,*57
06/13/2014	07:11:29.729	$GPGGA,071130,2500.7760,N,08012.8729,W,1,8,2.2,22,M,,M,,*52
06/13/2014	07:11:30.736	$GPGGA,071131,2500.7751,N,08012.8735,W,1,8,2.2,22,M,,M,,*5C
06/13/2014	07:11:31.761	$GPGGA,071132,2500.7744,N,08012.8740,W,1,8,2.2,22,M,,M,,*59
06/13/2014	07:11:32.747	$GPGGA,071133,2500.7737,N,08012.8747,W,1,8,2.2,22,M,,M,,*5B
06/13/2014	07:11:33.761	$GPGGA,071134,2500.7730,N,08012.8754,W,1,8,2.2,22,M,,M,,*59
06/13/2014	07:11:34.759	$GPGGA,071135,2500.7722,N,08012.8759,W,1,8,2.2,22,M,,M,,*56
06/13/2014	07:11:35.780	$GPGGA,071136,2500.7714,N,08012.8765,W,1,8,2.2,22,M,,M,,*5F
06/13/2014	07:11:36.756	$GPGGA,071137,2500.7707,N,08012.8772,W,1,8,2.2,22,M,,M,,*5A
06/13/2014	07:11:37.769	$GPGGA,071138,2500.7700,N,08012.8779,W,1,8,2.2,22,M,,M,,*59
06/13/2014	07:11:38.755	$GPGGA,071139,2500.7693,N,08012.8784,W,1,8,2.2,22,M,,M,,*51
06/13/2014	07:11:39.794	$GPGGA,071140,2500.7685,N,08012.8790,W,1,8,2.2,22,M,,M,,*5D
06/13/2014	07:11:40.785	$GPGGA,071141,2500.7677,N,08012.8795,W,1,8,2.2,22,M,,M,,*54
06/13/2014	07:11:41.871	$GPGGA,071142,2500.7670,N,08012.8802,W,1,8,2.2,22,M,,M,,*51
06/13/2014	07:11:42.886	$GPGGA,071143,2500.7663,N,08012.8808,W,1,8,2.2,22,M,,M,,*58
06/13/2014	07:11:43.802	$GPGGA,071144,2500.7656,N,08012.8813,W,1,8,2.2,22,M,,M,,*53
06/13/2014	07:11:44.796	$GPGGA,071145,2500.7648,N,08012.8819,W,1,8,2.2,22,M,,M,,*57
06/13/2014	07:11:45.792	$GPGGA,071146,2500.7641,N,08012.8826,W,1,8,2.2,22,M,,M,,*51
06/13/2014	07:11:46.480	$GPGGA,071147,2500.7635,N,08012.8833,W,1,8,2.2,22,M,,M,,*57
06/13/2014	07:11:47.596	$GPGGA,071148,2500.7626,N,08012.8837,W,1,8,2.2,22,M,,M,,*5E
06/13/2014	07:11:48.501	$GPGGA,071149,2500.7617,N,08012.8841,W,1,8,2.2,22,M,,M,,*5C
06/13/2014	07:11:49.596	$GPGGA,071150,2500.7612,N,08012.8849,W,1,8,2.2,22,M,,M,,*59
