Software Version Number: 1	Data File Format Number: 1	Build Version Number: 1	Error Count Since VI Started: 0	Manufacturer: Raytheon	 Model Number: RayMarine 120	 S/N: 	 Cal Date: 	 Wind Direction Offset: 0.00	 Slope (M)1: 0.00	 Offset (B)1: 0.00	 Slope (M)2: 0.00	 Offset (B)2: 0.00	 Slope (M)3: 0.00	 Offset (B)3: 0.00	 Slope (M)4: 0.00	 Offset (B)4: 0.00	 Slope (M)5: 0.00	 Offset (B)5: 0.00	 Slope (M)6: 0.00	 Offset (B)6: 0.00
Computer Date	Computer Time	GGA String
06/13/2014	05:00:00.800	$GPGGA,050007,2507.6696,N,08008.7570,W,1,8,2.0,25,M,,M,,*55
06/13/2014	05:00:01.860	$GPGGA,050008,2507.6689,N,08008.7577,W,1,8,2.0,25,M,,M,,*53
06/13/2014	05:00:02.888	$GPGGA,050009,2507.6681,N,08008.7583,W,1,8,2.0,25,M,,M,,*51
06/13/2014	05:00:03.891	$GPGGA,050010,2507.6671,N,08008.7587,W,1,8,2.0,25,M,,M,,*52
06/13/2014	05:00:04.967	$GPGGA,050011,2507.6663,N,08008.7592,W,1,8,1.8,25,M,,M,,*5F
06/13/2014	05:00:05.985	$GPGGA,050012,2507.6655,N,08008.7599,W,1,8,2.0,25,M,,M,,*59
06/13/2014	05:00:07.034	$GPGGA,050013,2507.6646,N,08008.7605,W,1,8,2.0,25,M,,M,,*5C
06/13/2014	05:00:08.050	$GPGGA,050014,2507.6637,N,08008.7606,W,1,8,1.5,25,M,,M,,*58
06/13/2014	05:00:09.101	$GPGGA,050015,2507.6629,N,08008.7615,W,1,10,2.0,25,M,,M,,*6B
06/13/2014	05:00:10.146	$GPGGA,050016,2507.6622,N,08008.7620,W,1,10,1.8,25,M,,M,,*6E
06/13/2014	05:00:11.180	$GPGGA,050017,2507.6611,N,08008.7623,W,1,9,1.5,25,M,,M,,*59
06/13/2014	05:00:12.199	$GPGGA,050018,2507.6601,N,08008.7628,W,1,9,1.5,25,M,,M,,*5C
06/13/2014	05:00:13.248	$GPGGA,050019,2507.6593,N,08008.7634,W,1,10,1.5,25,M,,M,,*60
06/13/2014	05:00:14.290	$GPGGA,050020,2507.6584,N,08008.7638,W,1,10,1.5,25,M,,M,,*60
06/13/2014	05:00:15.327	$GPGGA,050021,2507.6576,N,08008.7642,W,1,10,1.5,25,M,,M,,*61
06/13/2014	05:00:16.355	$GPGGA,050022,2507.6568,N,08008.7648,W,1,10,1.5,25,M,,M,,*67
06/13/2014	05:00:17.436	$GPGGA,050023,2507.6558,N,08008.7652,W,1,10,1.8,25,M,,M,,*63
06/13/2014	05:00:18.444	$GPGGA,050024,2507.6550,N,08008.7657,W,1,10,1.8,25,M,,M,,*69
06/13/2014	05:00:19.463	$GPGGA,050025,2507.6541,N,08008.7663,W,1,9,1.8,25,M,,M,,*57
06/13/2014	05:00:20.533	$GPGGA,050026,2507.6532,N,08008.7667,W,1,9,1.8,25,M,,M,,*54
06/13/2014	05:00:21.572	$GPGGA,050027,2507.6523,N,08008.7673,W,1,9,1.8,25,M,,M,,*50
06/13/2014	05:00:22.611	$GPGGA,050028,2507.6523,N,08008.7673,W,1,9,1.8,25,M,,M,,*5F
06/13/2014	05:00:23.599	$GPGGA,050029,2507.6508,N,08008.7684,W,1,8,2.0,25,M,,M,,*55
06/13/2014	05:00:24.649	$GPGGA,050030,2507.6497,N,08008.7689,W,1,8,2.0,25,M,,M,,*57
06/13/2014	05:00:25.697	$GPGGA,050031,2507.6497,N,08008.7689,W,1,8,2.0,25,M,,M,,*56
06/13/2014	05:00:26.757	$GPGGA,050032,2507.6482,N,08008.7704,W,1,8,2.0,25,M,,M,,*55
06/13/2014	05:00:27.786	$GPGGA,050033,2507.6472,N,08008.7707,W,1,8,2.0,24,M,,M,,*59
06/13/2014	05:00:28.783	$GPGGA,050034,2507.6472,N,08008.7707,W,1,8,2.0,24,M,,M,,*5E
06/13/2014	05:00:29.822	$GPGGA,050035,2507.6456,N,08008.7720,W,1,8,2.0,24,M,,M,,*5C
06/13/2014	05:00:30.893	$GPGGA,050036,2507.6456,N,08008.7720,W,1,8,2.0,24,M,,M,,*5F
06/13/2014	05:00:31.945	$GPGGA,050037,2507.6438,N,08008.7728,W,1,8,1.8,24,M,,M,,*55
06/13/2014	05:00:32.982	$GPGGA,050038,2507.6431,N,08008.7732,W,1,8,1.5,24,M,,M,,*55
06/13/2014	05:00:33.990	$GPGGA,050039,2507.6422,N,08008.7738,W,1,10,1.5,24,M,,M,,*65
06/13/2014	05:00:35.041	$GPGGA,050040,2507.6422,N,08008.7738,W,1,10,1.8,24,M,,M,,*66
06/13/2014	05:00:36.162	$GPGGA,050041,2507.6404,N,08008.7746,W,1,9,1.8,24,M,,M,,*52
06/13/2014	05:00:37.086	$GPGGA,050042,2507.6395,N,08008.7750,W,1,9,1.8,24,M,,M,,*59
06/13/2014	05:00:38.136	$GPGGA,050043,2507.6385,N,08008.7757,W,1,9,1.8,24,M,,M,,*5E
06/13/2014	05:00:39.175	$GPGGA,050044,2507.6385,N,08008.7757,W,1,9,1.8,24,M,,M,,*59
06/13/2014	05:00:40.339	$GPGGA,050045,2507.6368,N,08008.7764,W,1,10,1.5,24,M,,M,,*6E
06/13/2014	05:00:41.368	$GPGGA,050046,2507.6359,N,08008.7771,W,1,10,1.5,24,M,,M,,*6B
06/13/2014	05:00:46.606	$GPGGA,050047,2507.6350,N,08008.7774,W,1,9,1.8,24,M,,M,,*53
06/13/2014	05:00:47.551	$GPGGA,050048,2507.6350,N,08008.7774,W,1,9,1.8,24,M,,M,,*5C
06/13/2014	05:00:48.611	$GPGGA,050049,2507.6333,N,08008.7785,W,1,9,1.8,24,M,,M,,*56
06/13/2014	05:00:49.660	$GPGGA,050050,2507.6333,N,08008.7785,W,1,9,1.8,24,M,,M,,*5E
06/13/2014	05:00:50.751	$GPGGA,050051,2507.6313,N,08008.7794,W,1,9,1.8,24,M,,M,,*5D
06/13/2014	05:00:51.801	$GPGGA,050052,2507.6304,N,08008.7800,W,1,9,1.8,24,M,,M,,*5A
06/13/2014	05:00:52.726	$GPGGA,050053,2507.6295,N,08008.7804,W,1,9,1.8,24,M,,M,,*56
06/13/2014	05:00:53.859	$GPGGA,050054,2507.6286,N,08008.7809,W,1,9,1.8,24,M,,M,,*5E
06/13/2014	05:00:54.804	$GPGGA,050055,2507.6277,N,08008.7814,W,1,9,1.8,25,M,,M,,*5C
06/13/2014	05:00:55.958	$GPGGA,050056,2507.6268,N,08008.7819,W,1,9,1.8,25,M,,M,,*5C
06/13/2014	05:00:56.997	$GPGGA,050057,2507.6259,N,08008.7825,W,1,9,1.8,25,M,,M,,*50
06/13/2014	05:00:58.015	$GPGGA,050058,2507.6252,N,08008.7829,W,1,9,1.8,25,M,,M,,*58
06/13/2014	05:00:59.070	$GPGGA,050059,2507.6243,N,08008.7834,W,1,10,1.5,25,M,,M,,*60
06/13/2014	05:01:00.115	$GPGGA,050100,2507.6232,N,08008.7839,W,1,10,1.8,25,M,,M,,*6B
06/13/2014	05:01:01.149	$GPGGA,050101,2507.6223,N,08008.7843,W,1,9,1.8,25,M,,M,,*5F
06/13/2014	05:01:02.173	$GPGGA,050102,2507.6214,N,08008.7850,W,1,9,1.8,25,M,,M,,*5A
06/13/2014	05:01:03.214	$GPGGA,050103,2507.6205,N,08008.7854,W,1,9,1.8,25,M,,M,,*5F
06/13/2014	05:01:04.250	$GPGGA,050104,2507.6196,N,08008.7858,W,1,9,1.8,25,M,,M,,*5D
06/13/2014	05:01:05.263	$GPGGA,050105,2507.6187,N,08008.7863,W,1,9,1.8,25,M,,M,,*54
06/13/2014	05:01:06.319	$GPGGA,050106,2507.6178,N,08008.7869,W,1,9,1.8,25,M,,M,,*5D
06/13/2014	05:01:07.367	$GPGGA,050107,2507.6169,N,08008.7874,W,1,9,1.8,25,M,,M,,*50
06/13/2014	05:01:08.402	$GPGGA,050108,2507.6160,N,08008.7879,W,1,9,1.8,25,M,,M,,*5B
06/13/2014	05:01:09.441	$GPGGA,050109,2507.6150,N,08008.7884,W,1,9,1.8,25,M,,M,,*5B
06/13/2014	05:01:10.460	$GPGGA,050110,2507.6142,N,08008.7890,W,1,9,1.8,25,M,,M,,*55
06/13/2014	05:01:11.519	$GPGGA,050111,2507.6131,N,08008.7894,W,1,9,1.8,25,M,,M,,*54
06/13/2014	05:01:12.554	$GPGGA,050112,2507.6124,N,08008.7899,W,1,9,1.8,25,M,,M,,*5E
06/13/2014	05:01:13.571	$GPGGA,050113,2507.6114,N,08008.7905,W,1,9,1.8,25,M,,M,,*58
06/13/2014	05:01:14.600	$GPGGA,050114,2507.6105,N,08008.7909,W,1,9,1.8,25,M,,M,,*53
06/13/2014	05:01:15.639	$GPGGA,050115,2507.6096,N,08008.7915,W,1,9,1.8,25,M,,M,,*54
06/13/2014	05:01:16.712	$GPGGA,050116,2507.6087,N,08008.7921,W,1,9,1.8,25,M,,M,,*50
06/13/2014	05:01:17.707	$GPGGA,050117,2507.6079,N,08008.7926,W,1,8,1.8,25,M,,M,,*56
06/13/2014	05:01:18.787	$GPGGA,050118,2507.6071,N,08008.7930,W,1,8,1.8,25,M,,M,,*56
06/13/2014	05:01:19.799	$GPGGA,050119,2507.6063,N,08008.7935,W,1,9,1.8,25,M,,M,,*50
06/13/2014	05:01:20.853	$GPGGA,050120,2507.6055,N,08008.7941,W,1,9,1.8,25,M,,M,,*5C
06/13/2014	05:01:21.865	$GPGGA,050121,2507.6046,N,08008.7945,W,1,9,1.8,25,M,,M,,*5B
06/13/2014	05:01:22.914	$GPGGA,050122,2507.6037,N,08008.7952,W,1,9,1.8,25,M,,M,,*58
06/13/2014	05:01:23.941	$GPGGA,050123,2507.6028,N,08008.7957,W,1,8,1.8,25,M,,M,,*53
06/13/2014	05:01:25.016	$GPGGA,050124,2507.6019,N,08008.7963,W,1,8,1.8,25,M,,M,,*51
06/13/2014	05:01:26.148	$GPGGA,050125,2507.6009,N,08008.7970,W,1,8,1.8,25,M,,M,,*53
06/13/2014	05:01:27.069	$GPGGA,050126,2507.5999,N,08008.7974,W,1,8,1.5,25,M,,M,,*5A
06/13/2014	05:01:28.077	$GPGGA,050127,2507.5991,N,08008.7980,W,1,9,1.8,25,M,,M,,*54
06/13/2014	05:01:29.264	$GPGGA,050128,2507.5983,N,08008.7988,W,1,9,1.8,25,M,,M,,*50
06/13/2014	05:01:30.281	$GPGGA,050129,2507.5972,N,08008.7991,W,1,9,1.8,25,M,,M,,*57
06/13/2014	05:01:31.205	$GPGGA,050130,2507.5963,N,08008.7995,W,1,9,1.8,25,M,,M,,*5B
06/13/2014	05:01:32.245	$GPGGA,050131,2507.5956,N,08008.8002,W,1,9,1.8,25,M,,M,,*54
06/13/2014	05:01:33.377	$GPGGA,050132,2507.5947,N,08008.8007,W,1,9,1.8,25,M,,M,,*52
06/13/2014	05:01:34.437	$GPGGA,050133,2507.5938,N,08008.8010,W,1,10,1.5,25,M,,M,,*68
06/13/2014	05:01:35.466	$GPGGA,050134,2507.5930,N,08008.8017,W,1,10,1.8,25,M,,M,,*6D
06/13/2014	05:01:36.401	$GPGGA,050135,2507.5922,N,08008.8024,W,1,9,1.8,25,M,,M,,*57
06/13/2014	05:01:37.524	$GPGGA,050136,2507.5912,N,08008.8027,W,1,9,1.5,25,M,,M,,*59
06/13/2014	05:01:38.469	$GPGGA,050137,2507.5903,N,08008.8032,W,1,9,1.8,25,M,,M,,*51
06/13/2014	05:01:39.592	$GPGGA,050138,2507.5896,N,08008.8039,W,1,9,1.8,25,M,,M,,*58
06/13/2014	05:01:40.631	$GPGGA,050139,2507.5885,N,08008.8046,W,1,8,1.8,25,M,,M,,*52
06/13/2014	05:01:41.669	$GPGGA,050140,2507.5876,N,08008.8049,W,1,8,1.5,25,M,,M,,*52
06/13/2014	05:01:42.750	$GPGGA,050141,2507.5868,N,08008.8053,W,1,9,1.8,25,M,,M,,*5B
06/13/2014	05:01:43.737	$GPGGA,050142,2507.5857,N,08008.8064,W,1,9,1.8,25,M,,M,,*50
06/13/2014	05:01:44.807	$GPGGA,050143,2507.5849,N,08008.8069,W,1,8,1.7,25,M,,M,,*5D
06/13/2014	05:01:45.836	$GPGGA,050144,2507.5842,N,08008.8071,W,1,8,1.7,25,M,,M,,*58
06/13/2014	05:01:46.875	$GPGGA,050145,2507.5833,N,08008.8078,W,1,9,1.6,25,M,,M,,*56
06/13/2014	05:01:47.889	$GPGGA,050146,2507.5826,N,08008.8085,W,1,9,1.5,25,M,,M,,*50
06/13/2014	05:01:46.587	$GPGGA,050147,2507.5816,N,08008.8087,W,1,9,1.8,25,M,,M,,*5D
06/13/2014	05:01:47.668	$GPGGA,050148,2507.5807,N,08008.8092,W,1,9,1.8,25,M,,M,,*56
06/13/2014	05:01:48.655	$GPGGA,050149,2507.5800,N,08008.8098,W,1,9,1.6,25,M,,M,,*54
06/13/2014	05:01:49.705	$GPGGA,050150,2507.5791,N,08008.8103,W,1,9,1.8,25,M,,M,,*56
06/13/2014	05:01:50.754	$GPGGA,050151,2507.5781,N,08008.8107,W,1,9,1.8,25,M,,M,,*52
06/13/2014	05:01:51.783	$GPGGA,050152,2507.5773,N,08008.8111,W,1,9,1.8,25,M,,M,,*5B
06/13/2014	05:01:52.822	$GPGGA,050153,2507.5766,N,08008.8116,W,1,9,1.8,25,M,,M,,*59
06/13/2014	05:01:53.851	$GPGGA,050154,2507.5757,N,08008.8121,W,1,9,1.8,25,M,,M,,*58
06/13/2014	05:01:54.901	$GPGGA,050155,2507.5748,N,08008.8123,W,1,9,1.8,25,M,,M,,*55
06/13/2014	05:01:55.919	$GPGGA,050156,2507.5738,N,08008.8130,W,1,9,1.5,25,M,,M,,*5E
06/13/2014	05:01:56.979	$GPGGA,050157,2507.5730,N,08008.8136,W,1,10,1.5,25,M,,M,,*69
06/13/2014	05:01:57.994	$GPGGA,050158,2507.5720,N,08008.8139,W,1,10,1.8,25,M,,M,,*65
06/13/2014	05:01:59.015	$GPGGA,050159,2507.5712,N,08008.8143,W,1,9,1.8,25,M,,M,,*50
06/13/2014	05:02:00.111	$GPGGA,050200,2507.5702,N,08008.8150,W,1,9,1.5,25,M,,M,,*51
06/13/2014	05:02:01.131	$GPGGA,050201,2507.5694,N,08008.8154,W,1,9,1.8,25,M,,M,,*57
06/13/2014	05:02:02.133	$GPGGA,050202,2507.5684,N,08008.8158,W,1,9,1.8,25,M,,M,,*59
06/13/2014	05:02:03.213	$GPGGA,050203,2507.5676,N,08008.8162,W,1,9,1.8,25,M,,M,,*5C
06/13/2014	05:02:04.221	$GPGGA,050204,2507.5666,N,08008.8168,W,1,9,1.5,25,M,,M,,*5D
06/13/2014	05:02:05.262	$GPGGA,050205,2507.5658,N,08008.8172,W,1,9,1.8,25,M,,M,,*57
06/13/2014	05:02:06.300	$GPGGA,050206,2507.5647,N,08008.8176,W,1,9,1.8,25,M,,M,,*5E
06/13/2014	05:02:07.318	$GPGGA,050207,2507.5639,N,08008.8181,W,1,9,1.8,25,M,,M,,*5E
06/13/2014	05:02:08.378	$GPGGA,050208,2507.5630,N,08008.8187,W,1,9,1.8,25,M,,M,,*5E
06/13/2014	05:02:09.417	$GPGGA,050209,2507.5621,N,08008.8191,W,1,9,1.8,25,M,,M,,*58
06/13/2014	05:02:10.425	$GPGGA,050210,2507.5611,N,08008.8195,W,1,9,1.8,25,M,,M,,*57
06/13/2014	05:02:11.496	$GPGGA,050211,2507.5602,N,08008.8201,W,1,9,1.8,25,M,,M,,*5A
06/13/2014	05:02:12.525	$GPGGA,050212,2507.5594,N,08008.8208,W,1,9,1.8,25,M,,M,,*5C
06/13/2014	05:02:13.554	$GPGGA,050213,2507.5584,N,08008.8212,W,1,9,1.8,25,M,,M,,*57
06/13/2014	05:02:14.572	$GPGGA,050214,2507.5574,N,08008.8216,W,1,9,1.8,25,M,,M,,*5B
06/13/2014	05:02:15.620	$GPGGA,050215,2507.5566,N,08008.8224,W,1,9,1.8,25,M,,M,,*58
06/13/2014	05:02:16.784	$GPGGA,050216,2507.5556,N,08008.8228,W,1,9,2.1,25,M,,M,,*5E
06/13/2014	05:02:17.688	$GPGGA,050217,2507.5546,N,08008.8233,W,1,9,1.8,25,M,,M,,*5E
06/13/2014	05:02:18.728	$GPGGA,050218,2507.5536,N,08008.8238,W,1,9,2.0,24,M,,M,,*57
06/13/2014	05:02:19.756	$GPGGA,050219,2507.5528,N,08008.8245,W,1,8,1.7,24,M,,M,,*56
06/13/2014	05:02:20.806	$GPGGA,050220,2507.5517,N,08008.8251,W,1,8,2.1,24,M,,M,,*50
06/13/2014	05:02:21.949	$GPGGA,050221,2507.5509,N,08008.8256,W,1,9,1.6,24,M,,M,,*5C
06/13/2014	05:02:22.874	$GPGGA,050222,2507.5500,N,08008.8262,W,1,9,2.1,24,M,,M,,*55
06/13/2014	05:02:24.007	$GPGGA,050223,2507.5492,N,08008.8269,W,1,7,2.1,24,M,,M,,*5B
06/13/2014	05:02:25.056	$GPGGA,050224,2507.5484,N,08008.8273,W,1,7,2.0,24,M,,M,,*51
06/13/2014	05:02:25.992	$GPGGA,050225,2507.5474,N,08008.8277,W,1,7,2.1,24,M,,M,,*5A
06/13/2014	05:02:27.116	$GPGGA,050226,2507.5466,N,08008.8285,W,1,7,2.1,24,M,,M,,*57
06/13/2014	05:02:28.033	$GPGGA,050227,2507.5455,N,08008.8291,W,1,8,2.0,24,M,,M,,*5D
06/13/2014	05:02:29.069	$GPGGA,050228,2507.5446,N,08008.8295,W,1,8,2.0,24,M,,M,,*54
06/13/2014	05:02:30.166	$GPGGA,050229,2507.5438,N,08008.8302,W,1,7,2.1,24,M,,M,,*5D
06/13/2014	05:02:31.080	$GPGGA,050230,2507.5431,N,08008.8306,W,1,7,2.1,24,M,,M,,*58
06/13/2014	05:02:32.098	$GPGGA,050231,2507.5423,N,08008.8311,W,1,8,2.0,23,M,,M,,*55
06/13/2014	05:02:33.233	$GPGGA,050232,2507.5414,N,08008.8316,W,1,8,2.1,23,M,,M,,*54
06/13/2014	05:02:34.228	$GPGGA,050233,2507.5405,N,08008.8322,W,1,8,2.0,23,M,,M,,*53
06/13/2014	05:02:35.233	$GPGGA,050234,2507.5395,N,08008.8327,W,1,8,2.1,23,M,,M,,*5E
06/13/2014	05:02:36.239	$GPGGA,050235,2507.5387,N,08008.8334,W,1,7,2.1,23,M,,M,,*51
06/13/2014	05:02:37.275	$GPGGA,050236,2507.5381,N,08008.8338,W,1,7,2.1,23,M,,M,,*58
06/13/2014	05:02:38.280	$GPGGA,050237,2507.5372,N,08008.8343,W,1,9,1.6,23,M,,M,,*53
06/13/2014	05:02:39.286	$GPGGA,050238,2507.5362,N,08008.8349,W,1,9,2.1,23,M,,M,,*53
06/13/2014	05:02:40.322	$GPGGA,050239,2507.5354,N,08008.8356,W,1,8,1.8,23,M,,M,,*52
06/13/2014	05:02:41.327	$GPGGA,050240,2507.5342,N,08008.8363,W,1,8,2.1,23,M,,M,,*57
06/13/2014	05:02:42.343	$GPGGA,050241,2507.5333,N,08008.8367,W,1,8,2.0,22,M,,M,,*54
06/13/2014	05:02:43.349	$GPGGA,050242,2507.5323,N,08008.8371,W,1,8,2.1,22,M,,M,,*50
06/13/2014	05:02:44.344	$GPGGA,050243,2507.5314,N,08008.8378,W,1,8,1.8,22,M,,M,,*56
06/13/2014	05:02:45.380	$GPGGA,050244,2507.5307,N,08008.8385,W,1,8,2.1,22,M,,M,,*5B
06/13/2014	05:02:46.381	$GPGGA,050245,2507.5296,N,08008.8389,W,1,7,2.1,22,M,,M,,*50
06/13/2014	05:02:47.391	$GPGGA,050246,2507.5286,N,08008.8392,W,1,7,2.1,22,M,,M,,*58
06/13/2014	05:02:46.571	$GPGGA,050247,2507.5277,N,08008.8399,W,1,8,1.8,22,M,,M,,*59
06/13/2014	05:02:47.577	$GPGGA,050248,2507.5268,N,08008.8404,W,1,8,1.8,22,M,,M,,*5B
06/13/2014	05:02:48.613	$GPGGA,050249,2507.5258,N,08008.8407,W,1,8,1.8,22,M,,M,,*5A
06/13/2014	05:02:49.597	$GPGGA,050250,2507.5249,N,08008.8414,W,1,8,1.8,22,M,,M,,*50
06/13/2014	05:02:50.633	$GPGGA,050251,2507.5240,N,08008.8421,W,1,9,1.8,22,M,,M,,*5F
06/13/2014	05:02:51.648	$GPGGA,050252,2507.5231,N,08008.8425,W,1,9,1.8,22,M,,M,,*5E
06/13/2014	05:02:52.664	$GPGGA,050253,2507.5222,N,08008.8430,W,1,9,1.8,22,M,,M,,*59
06/13/2014	05:02:53.639	$GPGGA,050254,2507.5213,N,08008.8436,W,1,9,1.8,22,M,,M,,*5A
06/13/2014	05:02:54.655	$GPGGA,050255,2507.5203,N,08008.8441,W,1,8,1.8,22,M,,M,,*5B
06/13/2014	05:02:55.691	$GPGGA,050256,2507.5195,N,08008.8448,W,1,8,1.8,22,M,,M,,*5D
06/13/2014	05:02:56.717	$GPGGA,050257,2507.5185,N,08008.8451,W,1,8,2.0,22,M,,M,,*5E
06/13/2014	05:02:57.712	$GPGGA,050258,2507.5175,N,08008.8455,W,1,8,1.8,22,M,,M,,*51
06/13/2014	05:02:58.708	$GPGGA,050259,2507.5168,N,08008.8464,W,1,9,1.8,22,M,,M,,*5F
06/13/2014	05:02:59.744	$GPGGA,050300,2507.5159,N,08008.8468,W,1,9,2.1,22,M,,M,,*56
06/13/2014	05:03:00.759	$GPGGA,050301,2507.5149,N,08008.8470,W,1,9,1.8,22,M,,M,,*55
06/13/2014	05:03:01.765	$GPGGA,050302,2507.5141,N,08008.8475,W,1,9,1.8,22,M,,M,,*5B
06/13/2014	05:03:02.781	$GPGGA,050303,2507.5132,N,08008.8480,W,1,8,1.8,23,M,,M,,*54
06/13/2014	05:03:03.796	$GPGGA,050304,2507.5123,N,08008.8484,W,1,8,1.8,23,M,,M,,*57
06/13/2014	05:03:04.903	$GPGGA,050305,2507.5113,N,08008.8490,W,1,8,1.8,23,M,,M,,*50
06/13/2014	05:03:05.807	$GPGGA,050306,2507.5105,N,08008.8494,W,1,8,1.8,23,M,,M,,*50
06/13/2014	05:03:06.843	$GPGGA,050307,2507.5094,N,08008.8499,W,1,9,1.8,23,M,,M,,*54
06/13/2014	05:03:07.858	$GPGGA,050308,2507.5085,N,08008.8504,W,1,9,1.8,23,M,,M,,*5E
06/13/2014	05:03:08.945	$GPGGA,050309,2507.5076,N,08008.8511,W,1,8,1.8,23,M,,M,,*56
06/13/2014	05:03:09.889	$GPGGA,050310,2507.5067,N,08008.8515,W,1,8,1.8,24,M,,M,,*5D
06/13/2014	05:03:10.976	$GPGGA,050311,2507.5058,N,08008.8520,W,1,9,1.8,24,M,,M,,*57
06/13/2014	05:03:11.911	$GPGGA,050312,2507.5048,N,08008.8526,W,1,9,1.8,24,M,,M,,*53
06/13/2014	05:03:13.008	$GPGGA,050313,2507.5040,N,08008.8531,W,1,9,1.8,24,M,,M,,*5C
06/13/2014	05:03:13.922	$GPGGA,050314,2507.5030,N,08008.8535,W,1,9,1.8,24,M,,M,,*58
06/13/2014	05:03:14.937	$GPGGA,050315,2507.5022,N,08008.8540,W,1,9,1.8,24,M,,M,,*58
06/13/2014	05:03:16.055	$GPGGA,050316,2507.5013,N,08008.8546,W,1,9,1.8,24,M,,M,,*5F
06/13/2014	05:03:16.969	$GPGGA,050317,2507.5004,N,08008.8551,W,1,9,1.8,24,M,,M,,*5E
06/13/2014	05:03:18.076	$GPGGA,050318,2507.4994,N,08008.8555,W,1,9,1.8,25,M,,M,,*55
06/13/2014	05:03:19.122	$GPGGA,050319,2507.4986,N,08008.8562,W,1,9,1.8,25,M,,M,,*53
06/13/2014	05:03:20.118	$GPGGA,050320,2507.4976,N,08008.8566,W,1,9,1.8,25,M,,M,,*52
06/13/2014	05:03:21.133	$GPGGA,050321,2507.4966,N,08008.8570,W,1,9,1.8,25,M,,M,,*55
06/13/2014	05:03:22.138	$GPGGA,050322,2507.4958,N,08008.8577,W,1,9,1.8,25,M,,M,,*5C
06/13/2014	05:03:23.165	$GPGGA,050323,2507.4948,N,08008.8582,W,1,9,1.8,25,M,,M,,*56
06/13/2014	05:03:24.170	$GPGGA,050324,2507.4939,N,08008.8585,W,1,9,1.8,25,M,,M,,*50
06/13/2014	05:03:25.205	$GPGGA,050325,2507.4931,N,08008.8591,W,1,9,1.8,25,M,,M,,*5C
06/13/2014	05:03:26.180	$GPGGA,050326,2507.4922,N,08008.8596,W,1,9,1.8,25,M,,M,,*5A
06/13/2014	05:03:27.216	$GPGGA,050327,2507.4912,N,08008.8602,W,1,9,1.8,25,M,,M,,*56
06/13/2014	05:03:28.222	$GPGGA,050328,2507.4902,N,08008.8607,W,1,9,1.8,25,M,,M,,*5D
06/13/2014	05:03:29.237	$GPGGA,050329,2507.4892,N,08008.8613,W,1,8,1.8,25,M,,M,,*50
06/13/2014	05:03:30.233	$GPGGA,050330,2507.4881,N,08008.8617,W,1,8,1.8,25,M,,M,,*5E
06/13/2014	05:03:31.279	$GPGGA,050331,2507.4872,N,08008.8624,W,1,9,1.8,26,M,,M,,*51
06/13/2014	05:03:32.274	$GPGGA,050332,2507.4863,N,08008.8629,W,1,9,1.8,26,M,,M,,*5F
06/13/2014	05:03:33.290	$GPGGA,050333,2507.4852,N,08008.8634,W,1,8,1.8,26,M,,M,,*51
06/13/2014	05:03:34.287	$GPGGA,050334,2507.4845,N,08008.8638,W,1,8,1.8,26,M,,M,,*5C
06/13/2014	05:03:35.322	$GPGGA,050335,2507.4834,N,08008.8645,W,1,9,1.8,26,M,,M,,*50
06/13/2014	05:03:36.337	$GPGGA,050336,2507.4824,N,08008.8650,W,1,9,1.8,26,M,,M,,*56
06/13/2014	05:03:37.322	$GPGGA,050337,2507.4816,N,08008.8654,W,1,9,1.8,26,M,,M,,*52
06/13/2014	05:03:38.348	$GPGGA,050338,2507.4805,N,08008.8660,W,1,9,1.8,26,M,,M,,*58
06/13/2014	05:03:39.375	$GPGGA,050339,2507.4796,N,08008.8665,W,1,9,1.8,26,M,,M,,*59
06/13/2014	05:03:40.390	$GPGGA,050340,2507.4787,N,08008.8671,W,1,9,1.8,26,M,,M,,*52
06/13/2014	05:03:41.385	$GPGGA,050341,2507.4776,N,08008.8674,W,1,9,1.8,26,M,,M,,*58
06/13/2014	05:03:42.401	$GPGGA,050342,2507.4767,N,08008.8681,W,1,9,1.8,26,M,,M,,*51
06/13/2014	05:03:43.405	$GPGGA,050343,2507.4756,N,08008.8688,W,1,8,1.8,26,M,,M,,*5A
06/13/2014	05:03:44.441	$GPGGA,050344,2507.4745,N,08008.8692,W,1,8,1.8,26,M,,M,,*54
06/13/2014	05:03:45.447	$GPGGA,050345,2507.4736,N,08008.8696,W,1,9,1.8,26,M,,M,,*54
06/13/2014	05:03:46.453	$GPGGA,050346,2507.4726,N,08008.8703,W,1,9,1.8,26,M,,M,,*5B
06/13/2014	05:03:46.654	$GPGGA,050347,2507.4716,N,08008.8708,W,1,8,1.8,26,M,,M,,*53
06/13/2014	05:03:47.569	$GPGGA,050348,2507.4707,N,08008.8714,W,1,8,1.8,26,M,,M,,*51
06/13/2014	05:03:48.554	$GPGGA,050349,2507.4697,N,08008.8718,W,1,9,1.8,26,M,,M,,*55
06/13/2014	05:03:49.579	$GPGGA,050350,2507.4687,N,08008.8725,W,1,9,1.8,26,M,,M,,*52
06/13/2014	05:03:50.605	$GPGGA,050351,2507.4677,N,08008.8730,W,1,8,1.8,26,M,,M,,*59
06/13/2014	05:03:51.631	$GPGGA,050352,2507.4668,N,08008.8736,W,1,8,1.8,26,M,,M,,*52
06/13/2014	05:03:52.637	$GPGGA,050353,2507.4658,N,08008.8741,W,1,9,1.8,26,M,,M,,*51
06/13/2014	05:03:53.632	$GPGGA,050354,2507.4648,N,08008.8746,W,1,9,1.8,26,M,,M,,*50
06/13/2014	05:03:54.648	$GPGGA,050355,2507.4639,N,08008.8753,W,1,8,1.8,26,M,,M,,*52
06/13/2014	05:03:55.674	$GPGGA,050356,2507.4629,N,08008.8758,W,1,8,1.8,25,M,,M,,*58
06/13/2014	05:03:56.659	$GPGGA,050357,2507.4619,N,08008.8764,W,1,8,1.8,25,M,,M,,*55
06/13/2014	05:03:57.695	$GPGGA,050358,2507.4610,N,08008.8769,W,1,8,1.8,25,M,,M,,*5E
06/13/2014	05:03:58.711	$GPGGA,050359,2507.4600,N,08008.8775,W,1,8,1.8,25,M,,M,,*53
06/13/2014	05:03:59.861	$GPGGA,050400,2507.4589,N,08008.8780,W,1,8,1.8,25,M,,M,,*50
06/13/2014	05:04:00.741	$GPGGA,050401,2507.4581,N,08008.8787,W,1,9,1.8,25,M,,M,,*5F
06/13/2014	05:04:01.848	$GPGGA,050402,2507.4570,N,08008.8793,W,1,9,1.8,25,M,,M,,*57
06/13/2014	05:04:02.864	$GPGGA,050403,2507.4561,N,08008.8798,W,1,8,1.8,25,M,,M,,*5C
06/13/2014	05:04:03.778	$GPGGA,050404,2507.4552,N,08008.8804,W,1,8,1.8,25,M,,M,,*51
06/13/2014	05:04:04.885	$GPGGA,050405,2507.4542,N,08008.8811,W,1,9,1.8,25,M,,M,,*54
06/13/2014	05:04:05.789	$GPGGA,050406,2507.4534,N,08008.8816,W,1,9,1.8,25,M,,M,,*51
06/13/2014	05:04:06.937	$GPGGA,050407,2507.4523,N,08008.8822,W,1,8,1.8,25,M,,M,,*50
06/13/2014	05:04:07.932	$GPGGA,050408,2507.4514,N,08008.8829,W,1,8,1.8,25,M,,M,,*50
06/13/2014	05:04:08.958	$GPGGA,050409,2507.4505,N,08008.8835,W,1,9,1.8,25,M,,M,,*5D
06/13/2014	05:04:09.943	$GPGGA,050410,2507.4494,N,08008.8840,W,1,9,1.8,25,M,,M,,*5E
06/13/2014	05:04:10.979	$GPGGA,050411,2507.4487,N,08008.8847,W,1,9,1.8,25,M,,M,,*5A
06/13/2014	05:04:11.995	$GPGGA,050412,2507.4477,N,08008.8853,W,1,9,2.0,25,M,,M,,*58
06/13/2014	05:04:13.000	$GPGGA,050413,2507.4467,N,08008.8858,W,1,8,1.8,25,M,,M,,*59
06/13/2014	05:04:13.996	$GPGGA,050414,2507.4458,N,08008.8862,W,1,8,1.8,25,M,,M,,*5B
06/13/2014	05:04:15.042	$GPGGA,050415,2507.4448,N,08008.8867,W,1,9,1.8,25,M,,M,,*5F
06/13/2014	05:04:16.037	$GPGGA,050416,2507.4440,N,08008.8874,W,1,9,1.8,25,M,,M,,*56
06/13/2014	05:04:17.063	$GPGGA,050417,2507.4430,N,08008.8880,W,1,9,1.8,25,M,,M,,*5B
06/13/2014	05:04:18.077	$GPGGA,050418,2507.4420,N,08008.8884,W,1,9,1.8,25,M,,M,,*51
06/13/2014	05:04:19.093	$GPGGA,050419,2507.4412,N,08008.8891,W,1,8,2.0,25,M,,M,,*5F
06/13/2014	05:04:20.107	$GPGGA,050420,2507.4404,N,08008.8899,W,1,8,1.8,25,M,,M,,*51
06/13/2014	05:04:21.116	$GPGGA,050421,2507.4394,N,08008.8903,W,1,9,1.8,25,M,,M,,*5D
06/13/2014	05:04:22.106	$GPGGA,050422,2507.4384,N,08008.8907,W,1,9,1.8,25,M,,M,,*5B
06/13/2014	05:04:23.131	$GPGGA,050423,2507.4375,N,08008.8916,W,1,9,1.8,25,M,,M,,*54
06/13/2014	05:04:24.152	$GPGGA,050424,2507.4368,N,08008.8921,W,1,9,1.8,25,M,,M,,*5B
06/13/2014	05:04:25.163	$GPGGA,050425,2507.4357,N,08008.8925,W,1,9,1.8,25,M,,M,,*52
06/13/2014	05:04:26.163	$GPGGA,050426,2507.4346,N,08008.8930,W,1,9,1.8,25,M,,M,,*55
06/13/2014	05:04:27.179	$GPGGA,050427,2507.4339,N,08008.8938,W,1,8,1.8,25,M,,M,,*55
06/13/2014	05:04:28.215	$GPGGA,050428,2507.4330,N,08008.8943,W,1,8,1.8,25,M,,M,,*5F
06/13/2014	05:04:29.200	$GPGGA,050429,2507.4321,N,08008.8946,W,1,9,1.8,25,M,,M,,*5A
06/13/2014	05:04:30.228	$GPGGA,050430,2507.4310,N,08008.8952,W,1,9,1.8,25,M,,M,,*55
06/13/2014	05:04:31.231	$GPGGA,050431,2507.4303,N,08008.8959,W,1,9,1.8,25,M,,M,,*5D
06/13/2014	05:04:32.260	$GPGGA,050432,2507.4292,N,08008.8964,W,1,9,1.8,25,M,,M,,*59
06/13/2014	05:04:33.293	$GPGGA,050433,2507.4282,N,08008.8967,W,1,8,1.8,25,M,,M,,*5B
06/13/2014	05:04:34.268	$GPGGA,050434,2507.4274,N,08008.8972,W,1,8,1.8,25,M,,M,,*51
06/13/2014	05:04:35.293	$GPGGA,050435,2507.4264,N,08008.8981,W,1,9,1.8,25,M,,M,,*5C
06/13/2014	05:04:36.319	$GPGGA,050436,2507.4256,N,08008.8985,W,1,9,1.8,25,M,,M,,*5A
06/13/2014	05:04:37.337	$GPGGA,050437,2507.4245,N,08008.8988,W,1,8,1.8,25,M,,M,,*55
06/13/2014	05:04:38.330	$GPGGA,050438,2507.4235,N,08008.8993,W,1,8,1.8,25,M,,M,,*57
06/13/2014	05:04:39.346	$GPGGA,050439,2507.4227,N,08008.9001,W,1,9,1.8,25,M,,M,,*57
06/13/2014	05:04:40.361	$GPGGA,050440,2507.4217,N,08008.9007,W,1,9,1.8,25,M,,M,,*5C
06/13/2014	05:04:41.397	$GPGGA,050441,2507.4209,N,08008.9010,W,1,8,1.8,25,M,,M,,*55
06/13/2014	05:04:42.372	$GPGGA,050442,2507.4200,N,08008.9015,W,1,8,1.8,25,M,,M,,*5A
06/13/2014	05:04:43.408	$GPGGA,050443,2507.4193,N,08008.9022,W,1,9,1.8,25,M,,M,,*57
06/13/2014	05:04:44.536	$GPGGA,050444,2507.4182,N,08008.9025,W,1,9,1.8,25,M,,M,,*57
06/13/2014	05:04:45.531	$GPGGA,050445,2507.4173,N,08008.9030,W,1,9,1.8,25,M,,M,,*5C
06/13/2014	05:04:46.445	$GPGGA,050446,2507.4166,N,08008.9037,W,1,9,1.8,25,M,,M,,*5C
06/13/2014	05:04:46.513	$GPGGA,050447,2507.4156,N,08008.9042,W,1,9,1.8,25,M,,M,,*5C
06/13/2014	05:04:47.651	$GPGGA,050448,2507.4146,N,08008.9046,W,1,9,1.8,25,M,,M,,*56
06/13/2014	05:04:48.565	$GPGGA,050449,2507.4138,N,08008.9051,W,1,9,1.8,25,M,,M,,*58
06/13/2014	05:04:49.641	$GPGGA,050450,2507.4130,N,08008.9057,W,1,9,1.8,25,M,,M,,*5E
06/13/2014	05:04:50.699	$GPGGA,050451,2507.4119,N,08008.9061,W,1,9,1.8,25,M,,M,,*51
06/13/2014	05:04:51.622	$GPGGA,050452,2507.4109,N,08008.9066,W,1,9,1.8,25,M,,M,,*54
06/13/2014	05:04:52.708	$GPGGA,050453,2507.4101,N,08008.9072,W,1,8,1.8,25,M,,M,,*59
06/13/2014	05:04:53.713	$GPGGA,050454,2507.4092,N,08008.9077,W,1,8,1.8,25,M,,M,,*50
06/13/2014	05:04:54.739	$GPGGA,050455,2507.4082,N,08008.9082,W,1,9,1.8,25,M,,M,,*5B
06/13/2014	05:04:55.745	$GPGGA,050456,2507.4073,N,08008.9089,W,1,9,1.8,25,M,,M,,*5D
06/13/2014	05:04:56.750	$GPGGA,050457,2507.4065,N,08008.9094,W,1,8,1.8,25,M,,M,,*56
06/13/2014	05:04:57.766	$GPGGA,050458,2507.4057,N,08008.9098,W,1,8,1.8,25,M,,M,,*54
06/13/2014	05:04:58.802	$GPGGA,050459,2507.4046,N,08008.9104,W,1,9,1.8,25,M,,M,,*50
06/13/2014	05:04:59.798	$GPGGA,050500,2507.4037,N,08008.9111,W,1,9,1.8,25,M,,M,,*5F
06/13/2014	05:05:00.823	$GPGGA,050501,2507.4028,N,08008.9115,W,1,8,1.8,25,M,,M,,*55
06/13/2014	05:05:01.808	$GPGGA,050502,2507.4019,N,08008.9122,W,1,8,1.8,25,M,,M,,*50
06/13/2014	05:05:02.824	$GPGGA,050503,2507.4010,N,08008.9126,W,1,8,2.0,25,M,,M,,*57
06/13/2014	05:05:03.850	$GPGGA,050504,2507.4000,N,08008.9130,W,1,8,1.8,25,M,,M,,*5D
06/13/2014	05:05:04.876	$GPGGA,050505,2507.3992,N,08008.9136,W,1,8,1.8,25,M,,M,,*5F
06/13/2014	05:05:05.871	$GPGGA,050506,2507.3981,N,08008.9141,W,1,8,1.8,25,M,,M,,*5E
06/13/2014	05:05:06.897	$GPGGA,050507,2507.3972,N,08008.9147,W,1,7,2.1,25,M,,M,,*50
06/13/2014	05:05:07.913	$GPGGA,050508,2507.3963,N,08008.9154,W,1,7,1.8,25,M,,M,,*57
06/13/2014	05:05:08.928	$GPGGA,050509,2507.3954,N,08008.9159,W,1,8,2.0,25,M,,M,,*5B
06/13/2014	05:05:09.933	$GPGGA,050510,2507.3945,N,08008.9165,W,1,8,2.0,25,M,,M,,*5C
06/13/2014	05:05:10.959	$GPGGA,050511,2507.3935,N,08008.9169,W,1,9,1.8,25,M,,M,,*5C
06/13/2014	05:05:11.964	$GPGGA,050512,2507.3927,N,08008.9174,W,1,9,1.8,25,M,,M,,*50
06/13/2014	05:05:12.980	$GPGGA,050513,2507.3916,N,08008.9181,W,1,9,1.8,25,M,,M,,*59
06/13/2014	05:05:13.986	$GPGGA,050514,2507.3907,N,08008.9187,W,1,9,2.0,25,M,,M,,*53
06/13/2014	05:05:14.991	$GPGGA,050515,2507.3898,N,08008.9191,W,1,8,2.0,25,M,,M,,*53
06/13/2014	05:05:16.027	$GPGGA,050516,2507.3888,N,08008.9198,W,1,8,1.8,25,M,,M,,*53
06/13/2014	05:05:17.014	$GPGGA,050517,2507.3880,N,08008.9205,W,1,9,1.8,25,M,,M,,*5C
06/13/2014	05:05:18.045	$GPGGA,050518,2507.3869,N,08008.9209,W,1,9,1.8,25,M,,M,,*58
06/13/2014	05:05:19.034	$GPGGA,050519,2507.3860,N,08008.9212,W,1,9,1.8,25,M,,M,,*5A
06/13/2014	05:05:20.092	$GPGGA,050520,2507.3851,N,08008.9220,W,1,9,1.8,25,M,,M,,*53
06/13/2014	05:05:21.065	$GPGGA,050521,2507.3841,N,08008.9225,W,1,9,1.8,25,M,,M,,*56
06/13/2014	05:05:22.109	$GPGGA,050522,2507.3830,N,08008.9228,W,1,9,1.8,25,M,,M,,*5E
06/13/2014	05:05:23.086	$GPGGA,050523,2507.3821,N,08008.9234,W,1,8,1.8,25,M,,M,,*53
06/13/2014	05:05:24.132	$GPGGA,050524,2507.3812,N,08008.9241,W,1,8,1.8,25,M,,M,,*56
06/13/2014	05:05:25.118	$GPGGA,050525,2507.3802,N,08008.9245,W,1,8,1.8,25,M,,M,,*52
06/13/2014	05:05:26.144	$GPGGA,050526,2507.3794,N,08008.9249,W,1,8,1.8,25,M,,M,,*5D
06/13/2014	05:05:27.149	$GPGGA,050527,2507.3784,N,08008.9254,W,1,9,1.8,25,M,,M,,*50
06/13/2014	05:05:28.299	$GPGGA,050528,2507.3775,N,08008.9260,W,1,9,1.8,25,M,,M,,*56
06/13/2014	05:05:29.291	$GPGGA,050529,2507.3765,N,08008.9264,W,1,9,1.8,25,M,,M,,*52
06/13/2014	05:05:30.185	$GPGGA,050530,2507.3757,N,08008.9268,W,1,9,1.8,25,M,,M,,*57
06/13/2014	05:05:31.231	$GPGGA,050531,2507.3748,N,08008.9274,W,1,9,1.8,25,M,,M,,*55
06/13/2014	05:05:32.237	$GPGGA,050532,2507.3738,N,08008.9279,W,1,9,1.8,25,M,,M,,*5C
06/13/2014	05:05:33.252	$GPGGA,050533,2507.3729,N,08008.9283,W,1,8,1.8,25,M,,M,,*59
06/13/2014	05:05:34.349	$GPGGA,050534,2507.3721,N,08008.9288,W,1,8,1.8,25,M,,M,,*5D
06/13/2014	05:05:35.365	$GPGGA,050535,2507.3711,N,08008.9292,W,1,9,1.8,25,M,,M,,*55
06/13/2014	05:05:36.279	$GPGGA,050536,2507.3703,N,08008.9297,W,1,9,1.8,25,M,,M,,*50
06/13/2014	05:05:37.295	$GPGGA,050537,2507.3692,N,08008.9300,W,1,9,1.8,25,M,,M,,*57
06/13/2014	05:05:38.402	$GPGGA,050538,2507.3683,N,08008.9304,W,1,9,1.8,25,M,,M,,*5C
06/13/2014	05:05:39.316	$GPGGA,050539,2507.3674,N,08008.9310,W,1,9,1.8,25,M,,M,,*50
06/13/2014	05:05:40.433	$GPGGA,050540,2507.3664,N,08008.9315,W,1,9,1.8,25,M,,M,,*5A
06/13/2014	05:05:41.469	$GPGGA,050541,2507.3654,N,08008.9318,W,1,9,1.8,25,M,,M,,*55
06/13/2014	05:05:42.465	$GPGGA,050542,2507.3644,N,08008.9324,W,1,9,1.8,25,M,,M,,*58
06/13/2014	05:05:43.470	$GPGGA,050543,2507.3634,N,08008.9328,W,1,9,1.8,25,M,,M,,*52
06/13/2014	05:05:45.390	$GPGGA,050544,2507.3624,N,08008.9332,W,1,9,1.8,25,M,,M,,*5F
06/13/2014	05:05:45.501	$GPGGA,050545,2507.3614,N,08008.9336,W,1,9,1.8,25,M,,M,,*59
06/13/2014	05:05:46.527	$GPGGA,050546,2507.3604,N,08008.9340,W,1,9,1.8,25,M,,M,,*5A
06/13/2014	05:05:46.603	$GPGGA,050547,2507.3596,N,08008.9346,W,1,9,1.8,25,M,,M,,*55
06/13/2014	05:05:47.619	$GPGGA,050548,2507.3586,N,08008.9350,W,1,9,1.8,25,M,,M,,*5C
06/13/2014	05:05:48.614	$GPGGA,050549,2507.3577,N,08008.9353,W,1,9,1.8,25,M,,M,,*50
06/13/2014	05:05:49.630	$GPGGA,050550,2507.3567,N,08008.9357,W,1,9,1.8,25,M,,M,,*5D
06/13/2014	05:05:50.646	$GPGGA,050551,2507.3559,N,08008.9364,W,1,9,1.8,25,M,,M,,*51
06/13/2014	05:05:51.661	$GPGGA,050552,2507.3548,N,08008.9368,W,1,9,1.8,25,M,,M,,*5E
06/13/2014	05:05:52.687	$GPGGA,050553,2507.3538,N,08008.9371,W,1,9,1.8,25,M,,M,,*50
06/13/2014	05:05:53.683	$GPGGA,050554,2507.3528,N,08008.9376,W,1,9,1.8,25,M,,M,,*51
06/13/2014	05:05:54.719	$GPGGA,050555,2507.3519,N,08008.9382,W,1,8,1.8,25,M,,M,,*58
06/13/2014	05:05:55.724	$GPGGA,050556,2507.3508,N,08008.9384,W,1,8,1.8,25,M,,M,,*5D
06/13/2014	05:05:56.740	$GPGGA,050557,2507.3499,N,08008.9389,W,1,9,1.8,25,M,,M,,*59
06/13/2014	05:05:57.735	$GPGGA,050558,2507.3490,N,08008.9394,W,1,9,1.8,25,M,,M,,*53
06/13/2014	05:05:58.742	$GPGGA,050559,2507.3481,N,08008.9398,W,1,9,1.8,25,M,,M,,*5E
06/13/2014	05:05:59.778	$GPGGA,050600,2507.3472,N,08008.9404,W,1,9,1.8,25,M,,M,,*5F
06/13/2014	05:06:00.793	$GPGGA,050601,2507.3462,N,08008.9408,W,1,9,1.8,25,M,,M,,*53
06/13/2014	05:06:01.788	$GPGGA,050602,2507.3454,N,08008.9413,W,1,9,1.8,25,M,,M,,*5F
06/13/2014	05:06:02.833	$GPGGA,050603,2507.3444,N,08008.9418,W,1,9,1.8,25,M,,M,,*54
06/13/2014	05:06:03.829	$GPGGA,050604,2507.3434,N,08008.9422,W,1,9,1.8,25,M,,M,,*5D
06/13/2014	05:06:04.854	$GPGGA,050605,2507.3425,N,08008.9429,W,1,9,1.8,25,M,,M,,*57
06/13/2014	05:06:05.840	$GPGGA,050606,2507.3416,N,08008.9433,W,1,9,1.8,25,M,,M,,*5F
06/13/2014	05:06:06.886	$GPGGA,050607,2507.3407,N,08008.9437,W,1,9,1.8,25,M,,M,,*5A
06/13/2014	05:06:07.871	$GPGGA,050608,2507.3397,N,08008.9444,W,1,9,1.8,25,M,,M,,*5F
06/13/2014	05:06:08.917	$GPGGA,050609,2507.3387,N,08008.9449,W,1,9,1.8,25,M,,M,,*52
06/13/2014	05:06:09.902	$GPGGA,050610,2507.3378,N,08008.9454,W,1,9,1.8,25,M,,M,,*56
06/13/2014	05:06:10.908	$GPGGA,050611,2507.3367,N,08008.9459,W,1,9,1.8,25,M,,M,,*54
06/13/2014	05:06:11.944	$GPGGA,050612,2507.3356,N,08008.9465,W,1,9,1.8,25,M,,M,,*5A
06/13/2014	05:06:12.950	$GPGGA,050613,2507.3347,N,08008.9472,W,1,9,1.8,25,M,,M,,*5D
06/13/2014	05:06:13.965	$GPGGA,050614,2507.3337,N,08008.9476,W,1,9,1.8,25,M,,M,,*59
06/13/2014	05:06:14.991	$GPGGA,050615,2507.3328,N,08008.9481,W,1,9,1.8,25,M,,M,,*5E
06/13/2014	05:06:16.007	$GPGGA,050616,2507.3320,N,08008.9487,W,1,9,1.8,25,M,,M,,*53
06/13/2014	05:06:17.104	$GPGGA,050617,2507.3309,N,08008.9492,W,1,9,1.8,25,M,,M,,*5D
06/13/2014	05:06:17.998	$GPGGA,050618,2507.3299,N,08008.9498,W,1,9,1.8,25,M,,M,,*50
06/13/2014	05:06:19.014	$GPGGA,050619,2507.3289,N,08008.9503,W,1,8,1.8,25,M,,M,,*52
06/13/2014	05:06:20.058	$GPGGA,050620,2507.3280,N,08008.9509,W,1,8,1.8,25,M,,M,,*5B
06/13/2014	05:06:21.064	$GPGGA,050621,2507.3271,N,08008.9514,W,1,9,1.8,25,M,,M,,*59
06/13/2014	05:06:22.070	$GPGGA,050622,2507.3263,N,08008.9520,W,1,9,1.5,25,M,,M,,*53
06/13/2014	05:06:23.095	$GPGGA,050623,2507.3255,N,08008.9524,W,1,10,1.4,25,M,,M,,*6A
06/13/2014	05:06:24.192	$GPGGA,050624,2507.3245,N,08008.9530,W,1,10,1.6,25,M,,M,,*6B
06/13/2014	05:06:25.117	$GPGGA,050625,2507.3237,N,08008.9534,W,1,10,1.4,25,M,,M,,*69
06/13/2014	05:06:26.224	$GPGGA,050626,2507.3226,N,08008.9541,W,1,10,1.4,25,M,,M,,*68
06/13/2014	05:06:27.229	$GPGGA,050627,2507.3219,N,08008.9543,W,1,9,1.5,25,M,,M,,*5E
06/13/2014	05:06:28.255	$GPGGA,050628,2507.3210,N,08008.9549,W,1,9,1.4,25,M,,M,,*53
06/13/2014	05:06:29.271	$GPGGA,050629,2507.3201,N,08008.9556,W,1,10,1.5,25,M,,M,,*65
06/13/2014	05:06:30.266	$GPGGA,050630,2507.3191,N,08008.9560,W,1,10,1.5,25,M,,M,,*62
06/13/2014	05:06:31.303	$GPGGA,050631,2507.3181,N,08008.9566,W,1,10,1.5,25,M,,M,,*64
06/13/2014	05:06:32.318	$GPGGA,050632,2507.3172,N,08008.9571,W,1,10,1.5,25,M,,M,,*6D
06/13/2014	05:06:33.334	$GPGGA,050633,2507.3163,N,08008.9577,W,1,9,1.8,25,M,,M,,*5F
06/13/2014	05:06:34.319	$GPGGA,050634,2507.3152,N,08008.9581,W,1,9,1.8,25,M,,M,,*53
06/13/2014	05:06:35.365	$GPGGA,050635,2507.3141,N,08008.9586,W,1,9,1.8,25,M,,M,,*57
06/13/2014	05:06:37.376	$GPGGA,050636,2507.3132,N,08008.9593,W,1,9,1.8,25,M,,M,,*54
06/13/2014	05:06:37.396	$GPGGA,050637,2507.3120,N,08008.9599,W,1,9,1.8,25,M,,M,,*5C
06/13/2014	05:06:38.381	$GPGGA,050638,2507.3111,N,08008.9603,W,1,9,1.4,25,M,,M,,*5D
06/13/2014	05:06:39.408	$GPGGA,050639,2507.3102,N,08008.9608,W,1,9,1.8,25,M,,M,,*59
06/13/2014	05:06:40.422	$GPGGA,050640,2507.3091,N,08008.9614,W,1,9,1.8,26,M,,M,,*52
06/13/2014	05:06:41.438	$GPGGA,050641,2507.3082,N,08008.9620,W,1,9,1.8,26,M,,M,,*56
06/13/2014	05:06:42.423	$GPGGA,050642,2507.3071,N,08008.9624,W,1,9,1.4,26,M,,M,,*51
06/13/2014	05:06:43.469	$GPGGA,050643,2507.3061,N,08008.9631,W,1,9,1.8,26,M,,M,,*59
06/13/2014	05:06:44.475	$GPGGA,050644,2507.3050,N,08008.9636,W,1,9,1.4,26,M,,M,,*57
06/13/2014	05:06:45.501	$GPGGA,050645,2507.3040,N,08008.9642,W,1,10,1.4,26,M,,M,,*6C
06/13/2014	05:06:46.486	$GPGGA,050646,2507.3031,N,08008.9646,W,1,10,1.8,26,M,,M,,*61
06/13/2014	05:06:46.573	$GPGGA,050647,2507.3021,N,08008.9650,W,1,9,1.8,26,M,,M,,*5E
06/13/2014	05:06:47.588	$GPGGA,050648,2507.3013,N,08008.9655,W,1,9,1.8,27,M,,M,,*54
06/13/2014	05:06:48.584	$GPGGA,050649,2507.3002,N,08008.9660,W,1,9,1.8,27,M,,M,,*53
06/13/2014	05:06:49.610	$GPGGA,050650,2507.2992,N,08008.9664,W,1,9,1.8,27,M,,M,,*5E
06/13/2014	05:06:50.615	$GPGGA,050651,2507.2982,N,08008.9671,W,1,9,1.8,27,M,,M,,*5A
06/13/2014	05:06:51.651	$GPGGA,050652,2507.2973,N,08008.9675,W,1,9,1.8,27,M,,M,,*53
06/13/2014	05:06:52.657	$GPGGA,050653,2507.2963,N,08008.9678,W,1,9,1.8,27,M,,M,,*5E
06/13/2014	05:06:53.662	$GPGGA,050654,2507.2954,N,08008.9682,W,1,9,1.8,27,M,,M,,*58
06/13/2014	05:06:54.697	$GPGGA,050655,2507.2945,N,08008.9687,W,1,9,1.8,27,M,,M,,*5C
06/13/2014	05:06:55.703	$GPGGA,050656,2507.2934,N,08008.9691,W,1,9,1.8,27,M,,M,,*5E
06/13/2014	05:06:56.708	$GPGGA,050657,2507.2925,N,08008.9696,W,1,9,1.8,27,M,,M,,*58
06/13/2014	05:06:57.714	$GPGGA,050658,2507.2916,N,08008.9701,W,1,9,1.8,27,M,,M,,*58
06/13/2014	05:06:58.760	$GPGGA,050659,2507.2906,N,08008.9704,W,1,9,1.8,27,M,,M,,*5D
06/13/2014	05:06:59.756	$GPGGA,050700,2507.2896,N,08008.9709,W,1,9,1.8,27,M,,M,,*55
06/13/2014	05:07:00.779	$GPGGA,050701,2507.2887,N,08008.9715,W,1,9,1.8,27,M,,M,,*59
06/13/2014	05:07:01.767	$GPGGA,050702,2507.2877,N,08008.9719,W,1,9,1.8,27,M,,M,,*59
06/13/2014	05:07:02.793	$GPGGA,050703,2507.2866,N,08008.9723,W,1,9,1.8,27,M,,M,,*51
06/13/2014	05:07:03.798	$GPGGA,050704,2507.2856,N,08008.9727,W,1,9,1.8,27,M,,M,,*51
06/13/2014	05:07:04.814	$GPGGA,050705,2507.2847,N,08008.9733,W,1,9,1.8,27,M,,M,,*55
06/13/2014	05:07:05.970	$GPGGA,050706,2507.2838,N,08008.9737,W,1,9,1.8,27,M,,M,,*5A
06/13/2014	05:07:06.855	$GPGGA,050707,2507.2826,N,08008.9740,W,1,9,1.8,27,M,,M,,*54
06/13/2014	05:07:07.861	$GPGGA,050708,2507.2818,N,08008.9747,W,1,9,1.8,27,M,,M,,*51
06/13/2014	05:07:08.866	$GPGGA,050709,2507.2808,N,08008.9752,W,1,9,1.8,27,M,,M,,*55
06/13/2014	05:07:09.974	$GPGGA,050710,2507.2798,N,08008.9756,W,1,9,1.9,27,M,,M,,*5E
06/13/2014	05:07:11.081	$GPGGA,050711,2507.2789,N,08008.9762,W,1,9,1.8,27,M,,M,,*59
06/13/2014	05:07:11.924	$GPGGA,050712,2507.2779,N,08008.9767,W,1,9,1.8,27,M,,M,,*50
06/13/2014	05:07:12.928	$GPGGA,050713,2507.2769,N,08008.9772,W,1,9,1.8,27,M,,M,,*54
06/13/2014	05:07:14.067	$GPGGA,050714,2507.2760,N,08008.9776,W,1,9,1.8,27,M,,M,,*5E
06/13/2014	05:07:15.125	$GPGGA,050715,2507.2749,N,08008.9780,W,1,9,1.8,27,M,,M,,*5D
06/13/2014	05:07:15.985	$GPGGA,050716,2507.2740,N,08008.9787,W,1,9,1.8,27,M,,M,,*50
06/13/2014	05:07:17.174	$GPGGA,050717,2507.2729,N,08008.9790,W,1,8,1.8,27,M,,M,,*59
06/13/2014	05:07:17.986	$GPGGA,050718,2507.2720,N,08008.9794,W,1,8,1.8,27,M,,M,,*5B
06/13/2014	05:07:19.149	$GPGGA,050719,2507.2711,N,08008.9798,W,1,9,1.8,27,M,,M,,*55
06/13/2014	05:07:20.150	$GPGGA,050720,2507.2701,N,08008.9802,W,1,9,1.8,27,M,,M,,*52
06/13/2014	05:07:21.237	$GPGGA,050721,2507.2691,N,08008.9806,W,1,9,1.4,27,M,,M,,*53
06/13/2014	05:07:22.181	$GPGGA,050722,2507.2681,N,08008.9810,W,1,9,1.8,27,M,,M,,*5A
06/13/2014	05:07:23.258	$GPGGA,050723,2507.2671,N,08008.9814,W,1,9,1.8,27,M,,M,,*50
06/13/2014	05:07:24.202	$GPGGA,050724,2507.2663,N,08008.9820,W,1,9,1.8,27,M,,M,,*53
06/13/2014	05:07:25.289	$GPGGA,050725,2507.2652,N,08008.9826,W,1,9,1.8,27,M,,M,,*56
06/13/2014	05:07:26.181	$GPGGA,050726,2507.2641,N,08008.9828,W,1,9,1.8,27,M,,M,,*59
06/13/2014	05:07:27.309	$GPGGA,050727,2507.2630,N,08008.9834,W,1,9,1.8,28,M,,M,,*5C
06/13/2014	05:07:28.266	$GPGGA,050728,2507.2621,N,08008.9839,W,1,9,1.8,28,M,,M,,*5E
06/13/2014	05:07:29.203	$GPGGA,050729,2507.2610,N,08008.9845,W,1,9,1.8,28,M,,M,,*56
06/13/2014	05:07:30.199	$GPGGA,050730,2507.2601,N,08008.9848,W,1,9,1.9,28,M,,M,,*52
06/13/2014	05:07:31.277	$GPGGA,050731,2507.2591,N,08008.9855,W,1,9,1.8,28,M,,M,,*54
06/13/2014	05:07:32.274	$GPGGA,050732,2507.2581,N,08008.9859,W,1,9,1.8,28,M,,M,,*5A
06/13/2014	05:07:33.221	$GPGGA,050733,2507.2571,N,08008.9863,W,1,9,1.8,28,M,,M,,*5D
06/13/2014	05:07:34.269	$GPGGA,050734,2507.2561,N,08008.9868,W,1,9,1.8,28,M,,M,,*50
06/13/2014	05:07:35.306	$GPGGA,050735,2507.2551,N,08008.9874,W,1,9,1.8,28,M,,M,,*5F
06/13/2014	05:07:36.283	$GPGGA,050736,2507.2542,N,08008.9878,W,1,9,1.8,28,M,,M,,*52
06/13/2014	05:07:37.361	$GPGGA,050737,2507.2531,N,08008.9884,W,1,9,1.8,28,M,,M,,*54
06/13/2014	05:07:38.248	$GPGGA,050738,2507.2522,N,08008.9889,W,1,9,1.8,28,M,,M,,*54
06/13/2014	05:07:39.256	$GPGGA,050739,2507.2512,N,08008.9895,W,1,9,1.8,28,M,,M,,*5B
06/13/2014	05:07:40.303	$GPGGA,050740,2507.2502,N,08008.9899,W,1,9,1.8,28,M,,M,,*58
06/13/2014	05:07:41.260	$GPGGA,050741,2507.2493,N,08008.9904,W,1,9,1.8,28,M,,M,,*55
06/13/2014	05:07:42.267	$GPGGA,050742,2507.2482,N,08008.9910,W,1,9,1.8,28,M,,M,,*53
06/13/2014	05:07:43.355	$GPGGA,050743,2507.2473,N,08008.9915,W,1,9,1.8,28,M,,M,,*59
06/13/2014	05:07:44.296	$GPGGA,050744,2507.2464,N,08008.9921,W,1,9,1.8,28,M,,M,,*5F
06/13/2014	05:07:45.359	$GPGGA,050745,2507.2453,N,08008.9924,W,1,9,1.8,28,M,,M,,*5F
06/13/2014	05:07:46.336	$GPGGA,050746,2507.2444,N,08008.9931,W,1,9,1.8,28,M,,M,,*5E
06/13/2014	05:07:46.650	$GPGGA,050747,2507.2435,N,08008.9936,W,1,9,1.8,28,M,,M,,*5E
06/13/2014	05:07:47.548	$GPGGA,050748,2507.2424,N,08008.9940,W,1,9,1.8,28,M,,M,,*50
06/13/2014	05:07:48.614	$GPGGA,050749,2507.2413,N,08008.9946,W,1,8,1.8,28,M,,M,,*52
06/13/2014	05:07:49.672	$GPGGA,050750,2507.2403,N,08008.9953,W,1,8,1.8,28,M,,M,,*5F
06/13/2014	05:07:50.659	$GPGGA,050751,2507.2393,N,08008.9958,W,1,9,1.8,28,M,,M,,*5A
06/13/2014	05:07:51.607	$GPGGA,050752,2507.2383,N,08008.9961,W,1,9,1.8,27,M,,M,,*5D
06/13/2014	05:07:52.643	$GPGGA,050753,2507.2374,N,08008.9967,W,1,9,1.8,27,M,,M,,*52
06/13/2014	05:07:53.618	$GPGGA,050754,2507.2365,N,08008.9975,W,1,9,1.8,27,M,,M,,*56
06/13/2014	05:07:54.658	$GPGGA,050755,2507.2355,N,08008.9978,W,1,9,1.8,27,M,,M,,*59
06/13/2014	05:07:55.620	$GPGGA,050756,2507.2346,N,08008.9983,W,1,9,1.8,27,M,,M,,*5C
06/13/2014	05:07:56.743	$GPGGA,050757,2507.2337,N,08008.9989,W,1,9,1.8,27,M,,M,,*51
06/13/2014	05:07:57.648	$GPGGA,050758,2507.2327,N,08008.9994,W,1,9,1.8,27,M,,M,,*53
06/13/2014	05:07:58.697	$GPGGA,050759,2507.2318,N,08009.0000,W,1,9,1.8,27,M,,M,,*52
06/13/2014	05:07:59.671	$GPGGA,050800,2507.2309,N,08009.0007,W,1,9,1.8,27,M,,M,,*56
06/13/2014	05:08:00.722	$GPGGA,050801,2507.2299,N,08009.0011,W,1,9,1.8,27,M,,M,,*58
06/13/2014	05:08:01.649	$GPGGA,050802,2507.2290,N,08009.0016,W,1,9,1.8,27,M,,M,,*55
06/13/2014	05:08:02.778	$GPGGA,050803,2507.2280,N,08009.0022,W,1,9,1.8,27,M,,M,,*52
06/13/2014	05:08:03.734	$GPGGA,050804,2507.2270,N,08009.0027,W,1,9,1.8,27,M,,M,,*5F
06/13/2014	05:08:04.730	$GPGGA,050805,2507.2262,N,08009.0034,W,1,9,1.8,27,M,,M,,*5F
06/13/2014	05:08:05.737	$GPGGA,050806,2507.2253,N,08009.0038,W,1,9,1.8,27,M,,M,,*52
06/13/2014	05:08:06.799	$GPGGA,050807,2507.2242,N,08009.0043,W,1,9,1.8,27,M,,M,,*5F
06/13/2014	05:08:07.762	$GPGGA,050808,2507.2234,N,08009.0050,W,1,9,1.8,27,M,,M,,*53
06/13/2014	05:08:08.759	$GPGGA,050809,2507.2225,N,08009.0055,W,1,9,1.8,27,M,,M,,*57
06/13/2014	05:08:09.757	$GPGGA,050810,2507.2215,N,08009.0061,W,1,9,1.8,27,M,,M,,*5B
06/13/2014	05:08:10.774	$GPGGA,050811,2507.2205,N,08009.0065,W,1,9,1.8,27,M,,M,,*5F
06/13/2014	05:08:11.781	$GPGGA,050812,2507.2197,N,08009.0070,W,1,9,1.8,27,M,,M,,*50
06/13/2014	05:08:12.788	$GPGGA,050813,2507.2187,N,08009.0076,W,1,9,1.8,27,M,,M,,*56
06/13/2014	05:08:13.778	$GPGGA,050814,2507.2177,N,08009.0081,W,1,9,1.8,27,M,,M,,*56
06/13/2014	05:08:14.813	$GPGGA,050815,2507.2168,N,08009.0087,W,1,9,1.8,27,M,,M,,*5F
06/13/2014	05:08:15.810	$GPGGA,050816,2507.2158,N,08009.0091,W,1,9,1.8,27,M,,M,,*58
06/13/2014	05:08:16.868	$GPGGA,050817,2507.2150,N,08009.0098,W,1,9,1.8,27,M,,M,,*58
06/13/2014	05:08:17.796	$GPGGA,050818,2507.2139,N,08009.0103,W,1,9,1.8,27,M,,M,,*5B
06/13/2014	05:08:18.832	$GPGGA,050819,2507.2128,N,08009.0106,W,1,9,1.8,27,M,,M,,*5F
06/13/2014	05:08:19.819	$GPGGA,050820,2507.2118,N,08009.0112,W,1,9,1.8,27,M,,M,,*53
06/13/2014	05:08:20.847	$GPGGA,050821,2507.2110,N,08009.0119,W,1,9,1.8,27,M,,M,,*51
06/13/2014	05:08:21.826	$GPGGA,050822,2507.2101,N,08009.0124,W,1,9,1.8,27,M,,M,,*5C
06/13/2014	05:08:22.860	$GPGGA,050823,2507.2089,N,08009.0126,W,1,9,1.8,27,M,,M,,*5E
06/13/2014	05:08:23.858	$GPGGA,050824,2507.2079,N,08009.0134,W,1,9,1.8,27,M,,M,,*55
06/13/2014	05:08:24.875	$GPGGA,050825,2507.2071,N,08009.0141,W,1,9,1.8,27,M,,M,,*5E
06/13/2014	05:08:25.856	$GPGGA,050826,2507.2060,N,08009.0145,W,1,9,1.8,27,M,,M,,*59
06/13/2014	05:08:26.863	$GPGGA,050827,2507.2060,N,08009.0145,W,1,9,1.8,27,M,,M,,*58
06/13/2014	05:08:27.871	$GPGGA,050828,2507.2041,N,08009.0155,W,1,9,1.8,26,M,,M,,*54
06/13/2014	05:08:28.904	$GPGGA,050829,2507.2032,N,08009.0163,W,1,9,1.9,26,M,,M,,*55
06/13/2014	05:08:29.877	$GPGGA,050830,2507.2023,N,08009.0166,W,1,9,1.8,26,M,,M,,*59
06/13/2014	05:08:30.929	$GPGGA,050831,2507.2010,N,08009.0168,W,1,9,1.8,26,M,,M,,*56
06/13/2014	05:08:31.897	$GPGGA,050832,2507.2001,N,08009.0174,W,1,9,1.8,26,M,,M,,*58
06/13/2014	05:08:32.933	$GPGGA,050833,2507.1992,N,08009.0181,W,1,9,1.8,26,M,,M,,*53
06/13/2014	05:08:33.893	$GPGGA,050834,2507.1981,N,08009.0184,W,1,9,1.8,26,M,,M,,*53
06/13/2014	05:08:34.948	$GPGGA,050835,2507.1971,N,08009.0185,W,1,9,1.8,26,M,,M,,*5C
06/13/2014	05:08:35.996	$GPGGA,050836,2507.1963,N,08009.0191,W,1,9,1.8,26,M,,M,,*59
06/13/2014	05:08:36.919	$GPGGA,050837,2507.1963,N,08009.0191,W,1,9,1.8,26,M,,M,,*58
06/13/2014	05:08:37.910	$GPGGA,050838,2507.1953,N,08009.0197,W,1,9,1.9,26,M,,M,,*53
06/13/2014	05:08:38.917	$GPGGA,050839,2507.1942,N,08009.0199,W,1,9,1.8,26,M,,M,,*5D
06/13/2014	05:08:40.038	$GPGGA,050840,2507.1924,N,08009.0210,W,1,9,1.8,26,M,,M,,*51
06/13/2014	05:08:41.001	$GPGGA,050841,2507.1915,N,08009.0214,W,1,9,1.8,26,M,,M,,*56
06/13/2014	05:08:42.038	$GPGGA,050842,2507.1904,N,08009.0217,W,1,9,1.8,26,M,,M,,*56
06/13/2014	05:08:42.945	$GPGGA,050843,2507.1894,N,08009.0222,W,1,9,1.8,26,M,,M,,*59
06/13/2014	05:08:43.952	$GPGGA,050844,2507.1886,N,08009.0228,W,1,9,1.8,26,M,,M,,*57
06/13/2014	05:08:44.939	$GPGGA,050845,2507.1886,N,08009.0228,W,1,9,1.8,26,M,,M,,*56
06/13/2014	05:08:46.048	$GPGGA,050846,2507.1864,N,08009.0235,W,1,9,1.8,26,M,,M,,*55
06/13/2014	05:08:46.619	$GPGGA,050847,2507.1855,N,08009.0240,W,1,9,1.8,26,M,,M,,*54
06/13/2014	05:08:47.525	$GPGGA,050848,2507.1846,N,08009.0246,W,1,9,1.8,26,M,,M,,*5F
06/13/2014	05:08:48.513	$GPGGA,050849,2507.1846,N,08009.0246,W,1,9,1.8,26,M,,M,,*5E
06/13/2014	05:08:49.621	$GPGGA,050850,2507.1826,N,08009.0253,W,1,9,1.8,26,M,,M,,*54
06/13/2014	05:08:50.638	$GPGGA,050851,2507.1816,N,08009.0260,W,1,9,1.8,26,M,,M,,*56
06/13/2014	05:08:51.555	$GPGGA,050852,2507.1806,N,08009.0264,W,1,9,1.8,26,M,,M,,*50
06/13/2014	05:08:52.552	$GPGGA,050853,2507.1806,N,08009.0264,W,1,9,1.8,26,M,,M,,*51
06/13/2014	05:08:53.641	$GPGGA,050854,2507.1786,N,08009.0272,W,1,9,1.8,26,M,,M,,*56
06/13/2014	05:08:54.677	$GPGGA,050855,2507.1776,N,08009.0278,W,1,9,1.8,26,M,,M,,*52
06/13/2014	05:08:55.674	$GPGGA,050856,2507.1767,N,08009.0282,W,1,9,1.8,25,M,,M,,*57
06/13/2014	05:08:56.671	$GPGGA,050857,2507.1756,N,08009.0286,W,1,9,1.8,25,M,,M,,*50
06/13/2014	05:08:57.658	$GPGGA,050858,2507.1747,N,08009.0293,W,1,9,1.8,25,M,,M,,*5B
06/13/2014	05:08:58.695	$GPGGA,050859,2507.1738,N,08009.0297,W,1,9,1.8,25,M,,M,,*56
06/13/2014	05:08:59.694	$GPGGA,050900,2507.1727,N,08009.0301,W,1,9,1.8,25,M,,M,,*5B
06/13/2014	05:09:00.710	$GPGGA,050901,2507.1716,N,08009.0307,W,1,9,1.8,25,M,,M,,*5E
06/13/2014	05:09:01.697	$GPGGA,050902,2507.1707,N,08009.0312,W,1,9,1.8,25,M,,M,,*59
06/13/2014	05:09:02.704	$GPGGA,050903,2507.1698,N,08009.0316,W,1,9,1.8,25,M,,M,,*5B
06/13/2014	05:09:03.712	$GPGGA,050904,2507.1687,N,08009.0322,W,1,9,1.8,25,M,,M,,*55
06/13/2014	05:09:04.709	$GPGGA,050905,2507.1678,N,08009.0329,W,1,9,1.8,25,M,,M,,*5F
06/13/2014	05:09:05.706	$GPGGA,050906,2507.1669,N,08009.0332,W,1,9,1.8,25,M,,M,,*56
06/13/2014	05:09:06.734	$GPGGA,050907,2507.1658,N,08009.0336,W,1,9,1.8,25,M,,M,,*51
06/13/2014	05:09:07.731	$GPGGA,050908,2507.1649,N,08009.0343,W,1,9,1.8,25,M,,M,,*5C
06/13/2014	05:09:08.748	$GPGGA,050909,2507.1639,N,08009.0350,W,1,9,1.8,25,M,,M,,*58
06/13/2014	05:09:09.735	$GPGGA,050910,2507.1629,N,08009.0352,W,1,9,1.8,25,M,,M,,*53
06/13/2014	05:09:10.733	$GPGGA,050911,2507.1620,N,08009.0358,W,1,9,1.8,25,M,,M,,*51
06/13/2014	05:09:11.760	$GPGGA,050912,2507.1611,N,08009.0365,W,1,9,1.8,25,M,,M,,*5E
06/13/2014	05:09:12.757	$GPGGA,050913,2507.1602,N,08009.0369,W,1,9,1.8,25,M,,M,,*51
06/13/2014	05:09:13.758	$GPGGA,050914,2507.1592,N,08009.0374,W,1,9,1.8,25,M,,M,,*50
06/13/2014	05:09:14.849	$GPGGA,050915,2507.1583,N,08009.0379,W,1,9,1.8,25,M,,M,,*5C
06/13/2014	05:09:15.944	$GPGGA,050916,2507.1572,N,08009.0386,W,1,9,1.8,24,M,,M,,*50
06/13/2014	05:09:17.040	$GPGGA,050917,2507.1563,N,08009.0390,W,1,8,1.8,24,M,,M,,*57
06/13/2014	05:09:18.100	$GPGGA,050918,2507.1553,N,08009.0395,W,1,8,1.8,24,M,,M,,*5E
06/13/2014	05:09:19.219	$GPGGA,050919,2507.1543,N,08009.0401,W,1,9,1.8,24,M,,M,,*55
06/13/2014	05:09:20.282	$GPGGA,050920,2507.1534,N,08009.0405,W,1,9,1.8,24,M,,M,,*5B
06/13/2014	05:09:21.378	$GPGGA,050921,2507.1525,N,08009.0412,W,1,9,1.8,24,M,,M,,*5C
06/13/2014	05:09:22.440	$GPGGA,050922,2507.1514,N,08009.0416,W,1,9,1.8,24,M,,M,,*59
06/13/2014	05:09:23.492	$GPGGA,050923,2507.1505,N,08009.0420,W,1,9,1.8,24,M,,M,,*5D
06/13/2014	05:09:24.604	$GPGGA,050924,2507.1496,N,08009.0427,W,1,9,1.8,24,M,,M,,*56
06/13/2014	05:09:25.672	$GPGGA,050925,2507.1486,N,08009.0434,W,1,9,1.8,24,M,,M,,*54
06/13/2014	05:09:26.879	$GPGGA,050926,2507.1476,N,08009.0437,W,1,9,1.8,24,M,,M,,*5B
06/13/2014	05:09:27.830	$GPGGA,050927,2507.1465,N,08009.0441,W,1,9,1.8,24,M,,M,,*59
06/13/2014	05:09:29.065	$GPGGA,050928,2507.1458,N,08009.0449,W,1,9,1.8,24,M,,M,,*50
06/13/2014	05:09:30.032	$GPGGA,050929,2507.1449,N,08009.0453,W,1,9,1.8,24,M,,M,,*5A
06/13/2014	05:09:31.074	$GPGGA,050930,2507.1439,N,08009.0457,W,1,9,1.8,24,M,,M,,*51
06/13/2014	05:09:32.289	$GPGGA,050931,2507.1429,N,08009.0463,W,1,9,1.8,24,M,,M,,*56
06/13/2014	05:09:33.252	$GPGGA,050932,2507.1420,N,08009.0470,W,1,9,1.8,24,M,,M,,*5E
06/13/2014	05:09:34.337	$GPGGA,050933,2507.1409,N,08009.0473,W,1,9,1.8,24,M,,M,,*57
06/13/2014	05:09:35.410	$GPGGA,050934,2507.1399,N,08009.0477,W,1,9,1.8,24,M,,M,,*5A
06/13/2014	05:09:36.516	$GPGGA,050935,2507.1389,N,08009.0484,W,1,9,1.8,24,M,,M,,*56
06/13/2014	05:09:37.687	$GPGGA,050936,2507.1380,N,08009.0488,W,1,9,1.8,24,M,,M,,*50
06/13/2014	05:09:38.761	$GPGGA,050937,2507.1369,N,08009.0492,W,1,9,1.8,24,M,,M,,*5D
06/13/2014	05:09:39.748	$GPGGA,050938,2507.1359,N,08009.0498,W,1,9,1.8,24,M,,M,,*5B
06/13/2014	05:09:40.952	$GPGGA,050939,2507.1349,N,08009.0503,W,1,9,1.8,24,M,,M,,*58
06/13/2014	05:09:42.025	$GPGGA,050940,2507.1338,N,08009.0507,W,1,9,1.8,24,M,,M,,*54
06/13/2014	05:09:43.099	$GPGGA,050941,2507.1329,N,08009.0513,W,1,9,1.8,24,M,,M,,*50
06/13/2014	05:09:44.173	$GPGGA,050942,2507.1319,N,08009.0518,W,1,9,1.8,24,M,,M,,*5B
06/13/2014	05:09:45.257	$GPGGA,050943,2507.1309,N,08009.0522,W,1,9,1.8,24,M,,M,,*52
06/13/2014	05:09:46.353	$GPGGA,050944,2507.1297,N,08009.0527,W,1,9,1.8,24,M,,M,,*56
06/13/2014	05:09:47.437	$GPGGA,050945,2507.1288,N,08009.0532,W,1,9,1.8,24,M,,M,,*5D
06/13/2014	05:09:48.511	$GPGGA,050946,2507.1279,N,08009.0538,W,1,9,1.8,24,M,,M,,*5A
06/13/2014	05:09:46.622	$GPGGA,050947,2507.1268,N,08009.0542,W,1,9,1.8,24,M,,M,,*56
06/13/2014	05:09:47.706	$GPGGA,050948,2507.1257,N,08009.0546,W,1,9,1.8,24,M,,M,,*51
06/13/2014	05:09:48.791	$GPGGA,050949,2507.1250,N,08009.0553,W,1,9,1.8,24,M,,M,,*53
06/13/2014	05:09:49.852	$GPGGA,050950,2507.1238,N,08009.0558,W,1,9,1.8,24,M,,M,,*5E
06/13/2014	05:09:50.969	$GPGGA,050951,2507.1227,N,08009.0560,W,1,9,1.8,24,M,,M,,*5A
06/13/2014	05:09:52.043	$GPGGA,050952,2507.1218,N,08009.0568,W,1,9,1.8,24,M,,M,,*5D
06/13/2014	05:09:53.127	$GPGGA,050953,2507.1209,N,08009.0574,W,1,9,1.8,24,M,,M,,*51
06/13/2014	05:09:54.179	$GPGGA,050954,2507.1197,N,08009.0576,W,1,9,1.8,24,M,,M,,*50
06/13/2014	05:09:55.286	$GPGGA,050955,2507.1189,N,08009.0582,W,1,9,1.8,24,M,,M,,*55
06/13/2014	05:09:56.359	$GPGGA,050956,2507.1179,N,08009.0589,W,1,9,1.8,23,M,,M,,*55
06/13/2014	05:09:57.455	$GPGGA,050957,2507.1168,N,08009.0592,W,1,8,1.9,23,M,,M,,*5E
06/13/2014	05:09:58.507	$GPGGA,050958,2507.1157,N,08009.0596,W,1,8,1.8,23,M,,M,,*58
06/13/2014	05:09:59.624	$GPGGA,050959,2507.1147,N,08009.0601,W,1,9,1.8,23,M,,M,,*54
06/13/2014	05:10:00.741	$GPGGA,051000,2507.1138,N,08009.0607,W,1,9,1.8,23,M,,M,,*5E
06/13/2014	05:10:01.793	$GPGGA,051001,2507.1128,N,08009.0611,W,1,9,1.8,23,M,,M,,*59
06/13/2014	05:10:02.834	$GPGGA,051002,2507.1117,N,08009.0614,W,1,9,1.8,23,M,,M,,*53
06/13/2014	05:10:03.962	$GPGGA,051003,2507.1107,N,08009.0619,W,1,9,1.8,23,M,,M,,*5E
06/13/2014	05:10:05.035	$GPGGA,051004,2507.1098,N,08009.0625,W,1,9,1.8,23,M,,M,,*51
06/13/2014	05:10:06.130	$GPGGA,051005,2507.1088,N,08009.0629,W,1,9,1.8,23,M,,M,,*5D
06/13/2014	05:10:07.176	$GPGGA,051006,2507.1077,N,08009.0632,W,1,9,1.8,23,M,,M,,*54
06/13/2014	05:10:08.266	$GPGGA,051007,2507.1068,N,08009.0637,W,1,9,1.8,23,M,,M,,*5E
06/13/2014	05:10:09.361	$GPGGA,051008,2507.1059,N,08009.0644,W,1,9,1.8,23,M,,M,,*57
06/13/2014	05:10:10.425	$GPGGA,051009,2507.1048,N,08009.0647,W,1,9,1.8,23,M,,M,,*55
06/13/2014	05:10:11.511	$GPGGA,051010,2507.1037,N,08009.0650,W,1,9,1.8,23,M,,M,,*53
06/13/2014	05:10:12.571	$GPGGA,051011,2507.1030,N,08009.0658,W,1,9,1.7,23,M,,M,,*52
06/13/2014	05:10:13.688	$GPGGA,051012,2507.1019,N,08009.0662,W,1,9,1.7,23,M,,M,,*53
06/13/2014	05:10:14.762	$GPGGA,051013,2507.1008,N,08009.0665,W,1,9,1.7,23,M,,M,,*55
06/13/2014	05:10:15.825	$GPGGA,051014,2507.0999,N,08009.0670,W,1,9,1.7,23,M,,M,,*56
06/13/2014	05:10:16.909	$GPGGA,051015,2507.0990,N,08009.0676,W,1,9,1.7,23,M,,M,,*58
06/13/2014	05:10:18.134	$GPGGA,051016,2507.0979,N,08009.0679,W,1,9,1.7,23,M,,M,,*53
06/13/2014	05:10:19.112	$GPGGA,051017,2507.0969,N,08009.0683,W,1,9,1.8,23,M,,M,,*59
06/13/2014	05:10:20.174	$GPGGA,051018,2507.0959,N,08009.0690,W,1,9,1.8,23,M,,M,,*57
06/13/2014	05:10:21.247	$GPGGA,051019,2507.0949,N,08009.0694,W,1,9,1.8,23,M,,M,,*53
06/13/2014	05:10:22.343	$GPGGA,051020,2507.0939,N,08009.0698,W,1,9,1.8,23,M,,M,,*52
06/13/2014	05:10:23.525	$GPGGA,051021,2507.0929,N,08009.0704,W,1,9,1.8,23,M,,M,,*56
06/13/2014	05:10:24.501	$GPGGA,051022,2507.0920,N,08009.0709,W,1,9,1.8,23,M,,M,,*51
06/13/2014	05:10:25.596	$GPGGA,051023,2507.0910,N,08009.0715,W,1,9,1.7,23,M,,M,,*51
06/13/2014	05:10:26.681	$GPGGA,051024,2507.0900,N,08009.0719,W,1,9,1.7,23,M,,M,,*5B
06/13/2014	05:10:27.753	$GPGGA,051025,2507.0890,N,08009.0723,W,1,9,1.7,23,M,,M,,*5B
06/13/2014	05:10:28.816	$GPGGA,051026,2507.0880,N,08009.0730,W,1,9,1.7,23,M,,M,,*5B
06/13/2014	05:10:30.042	$GPGGA,051027,2507.0869,N,08009.0734,W,1,9,1.7,23,M,,M,,*59
06/13/2014	05:10:31.104	$GPGGA,051028,2507.0860,N,08009.0737,W,1,9,1.7,23,M,,M,,*5C
06/13/2014	05:10:32.167	$GPGGA,051029,2507.0850,N,08009.0744,W,1,9,1.7,23,M,,M,,*5A
06/13/2014	05:10:33.263	$GPGGA,051030,2507.0840,N,08009.0749,W,1,9,1.7,23,M,,M,,*5E
06/13/2014	05:10:34.336	$GPGGA,051031,2507.0831,N,08009.0755,W,1,9,1.7,23,M,,M,,*54
06/13/2014	05:10:35.432	$GPGGA,051032,2507.0820,N,08009.0759,W,1,9,1.7,23,M,,M,,*5B
06/13/2014	05:10:36.527	$GPGGA,051033,2507.0809,N,08009.0764,W,1,9,1.7,23,M,,M,,*5F
06/13/2014	05:10:37.579	$GPGGA,051034,2507.0799,N,08009.0770,W,1,9,1.7,23,M,,M,,*5B
06/13/2014	05:10:38.674	$GPGGA,051035,2507.0789,N,08009.0774,W,1,8,1.9,23,M,,M,,*50
06/13/2014	05:10:39.759	$GPGGA,051036,2507.0779,N,08009.0780,W,1,8,1.7,23,M,,M,,*59
06/13/2014	05:10:40.854	$GPGGA,051037,2507.0770,N,08009.0785,W,1,9,1.7,23,M,,M,,*55
06/13/2014	05:10:41.906	$GPGGA,051038,2507.0760,N,08009.0791,W,1,9,1.7,23,M,,M,,*5E
06/13/2014	05:10:43.012	$GPGGA,051039,2507.0749,N,08009.0795,W,1,8,1.9,23,M,,M,,*5F
06/13/2014	05:10:44.087	$GPGGA,051040,2507.0741,N,08009.0802,W,1,8,1.7,23,M,,M,,*56
06/13/2014	05:10:45.170	$GPGGA,051041,2507.0730,N,08009.0807,W,1,8,1.9,23,M,,M,,*5A
06/13/2014	05:10:46.243	$GPGGA,051042,2507.0719,N,08009.0811,W,1,8,1.9,23,M,,M,,*55
06/13/2014	05:10:47.338	$GPGGA,051043,2507.0708,N,08009.0816,W,1,9,1.7,23,M,,M,,*5C
06/13/2014	05:10:48.423	$GPGGA,051044,2507.0699,N,08009.0824,W,1,9,1.7,23,M,,M,,*53
06/13/2014	05:10:49.486	$GPGGA,051045,2507.0690,N,08009.0827,W,1,8,1.9,23,M,,M,,*57
06/13/2014	05:10:50.570	$GPGGA,051046,2507.0679,N,08009.0832,W,1,8,1.7,23,M,,M,,*59
06/13/2014	05:10:46.608	$GPGGA,051047,2507.0669,N,08009.0838,W,1,9,1.7,23,M,,M,,*52
06/13/2014	05:10:47.671	$GPGGA,051048,2507.0659,N,08009.0842,W,1,9,1.7,23,M,,M,,*53
06/13/2014	05:10:48.767	$GPGGA,051049,2507.0648,N,08009.0847,W,1,9,1.7,23,M,,M,,*57
06/13/2014	05:10:49.819	$GPGGA,051050,2507.0638,N,08009.0853,W,1,9,1.7,22,M,,M,,*5C
06/13/2014	05:10:50.914	$GPGGA,051051,2507.0629,N,08009.0858,W,1,9,1.7,22,M,,M,,*56
06/13/2014	05:10:52.020	$GPGGA,051052,2507.0619,N,08009.0863,W,1,9,1.7,22,M,,M,,*5E
06/13/2014	05:10:53.072	$GPGGA,051053,2507.0608,N,08009.0868,W,1,9,1.7,22,M,,M,,*54
06/13/2014	05:10:54.168	$GPGGA,051054,2507.0598,N,08009.0874,W,1,9,1.7,22,M,,M,,*54
06/13/2014	05:10:55.274	$GPGGA,051055,2507.0589,N,08009.0879,W,1,9,1.7,22,M,,M,,*58
06/13/2014	05:10:56.347	$GPGGA,051056,2507.0578,N,08009.0885,W,1,9,1.7,22,M,,M,,*56
06/13/2014	05:10:57.443	$GPGGA,051057,2507.0568,N,08009.0889,W,1,7,2.0,22,M,,M,,*50
06/13/2014	05:10:58.485	$GPGGA,051058,2507.0560,N,08009.0896,W,1,7,1.7,22,M,,M,,*5D
06/13/2014	05:10:59.558	$GPGGA,051059,2507.0549,N,08009.0900,W,1,8,1.9,22,M,,M,,*58
06/13/2014	05:11:00.673	$GPGGA,051100,2507.0539,N,08009.0903,W,1,8,1.9,22,M,,M,,*51
06/13/2014	05:11:01.747	$GPGGA,051101,2507.0529,N,08009.0910,W,1,9,1.7,22,M,,M,,*5C
06/13/2014	05:11:02.940	$GPGGA,051102,2507.0520,N,08009.0917,W,1,9,1.8,22,M,,M,,*5E
06/13/2014	05:11:04.030	$GPGGA,051103,2507.0510,N,08009.0919,W,1,9,1.7,22,M,,M,,*5D
06/13/2014	05:11:05.008	$GPGGA,051104,2507.0499,N,08009.0925,W,1,9,1.7,22,M,,M,,*55
06/13/2014	05:11:06.108	$GPGGA,051105,2507.0490,N,08009.0932,W,1,9,1.7,22,M,,M,,*5B
06/13/2014	05:11:07.148	$GPGGA,051106,2507.0481,N,08009.0936,W,1,9,1.9,22,M,,M,,*52
06/13/2014	05:11:08.254	$GPGGA,051107,2507.0470,N,08009.0939,W,1,9,1.7,22,M,,M,,*5C
06/13/2014	05:11:09.317	$GPGGA,051108,2507.0461,N,08009.0946,W,1,9,1.7,22,M,,M,,*5B
06/13/2014	05:11:10.412	$GPGGA,051109,2507.0452,N,08009.0952,W,1,8,1.9,22,M,,M,,*50
06/13/2014	05:11:11.475	$GPGGA,051110,2507.0441,N,08009.0954,W,1,8,1.7,22,M,,M,,*52
06/13/2014	05:11:12.559	$GPGGA,051111,2507.0430,N,08009.0959,W,1,9,1.7,22,M,,M,,*59
06/13/2014	05:11:13.785	$GPGGA,051112,2507.0421,N,08009.0968,W,1,9,1.7,22,M,,M,,*58
06/13/2014	05:11:14.826	$GPGGA,051113,2507.0412,N,08009.0972,W,1,9,1.7,22,M,,M,,*52
06/13/2014	05:11:15.911	$GPGGA,051114,2507.0401,N,08009.0976,W,1,9,1.7,22,M,,M,,*53
06/13/2014	05:11:17.018	$GPGGA,051115,2507.0392,N,08009.0983,W,1,9,1.7,22,M,,M,,*55
06/13/2014	05:11:18.090	$GPGGA,051116,2507.0383,N,08009.0990,W,1,9,1.7,22,M,,M,,*54
06/13/2014	05:11:19.152	$GPGGA,051117,2507.0373,N,08009.0994,W,1,9,1.7,23,M,,M,,*5F
06/13/2014	05:11:20.247	$GPGGA,051118,2507.0363,N,08009.0999,W,1,9,1.7,23,M,,M,,*5C
06/13/2014	05:11:21.354	$GPGGA,051119,2507.0354,N,08009.1006,W,1,9,1.7,23,M,,M,,*57
06/13/2014	05:11:22.427	$GPGGA,051120,2507.0343,N,08009.1012,W,1,9,1.7,23,M,,M,,*5E
06/13/2014	05:11:23.501	$GPGGA,051121,2507.0333,N,08009.1015,W,1,9,1.7,23,M,,M,,*5F
06/13/2014	05:11:24.596	$GPGGA,051122,2507.0323,N,08009.1022,W,1,9,1.7,23,M,,M,,*59
06/13/2014	05:11:25.681	$GPGGA,051123,2507.0314,N,08009.1029,W,1,9,1.7,23,M,,M,,*57
06/13/2014	05:11:26.754	$GPGGA,051124,2507.0303,N,08009.1031,W,1,9,1.7,23,M,,M,,*5F
06/13/2014	05:11:27.806	$GPGGA,051125,2507.0293,N,08009.1035,W,1,9,1.7,23,M,,M,,*52
06/13/2014	05:11:28.891	$GPGGA,051126,2507.0284,N,08009.1044,W,1,9,1.7,23,M,,M,,*51
06/13/2014	05:11:30.008	$GPGGA,051127,2507.0273,N,08009.1048,W,1,9,1.7,23,M,,M,,*54
06/13/2014	05:11:31.082	$GPGGA,051128,2507.0264,N,08009.1051,W,1,9,1.7,23,M,,M,,*55
06/13/2014	05:11:32.166	$GPGGA,051129,2507.0253,N,08009.1055,W,1,9,1.7,23,M,,M,,*54
06/13/2014	05:11:33.218	$GPGGA,051130,2507.0243,N,08009.1062,W,1,9,1.7,23,M,,M,,*59
06/13/2014	05:11:34.324	$GPGGA,051131,2507.0233,N,08009.1066,W,1,9,1.7,23,M,,M,,*5B
06/13/2014	05:11:35.398	$GPGGA,051132,2507.0224,N,08009.1069,W,1,9,1.7,23,M,,M,,*51
06/13/2014	05:11:36.515	$GPGGA,051133,2507.0213,N,08009.1074,W,1,9,1.7,23,M,,M,,*58
06/13/2014	05:11:37.556	$GPGGA,051134,2507.0203,N,08009.1080,W,1,9,1.7,23,M,,M,,*55
06/13/2014	05:11:38.661	$GPGGA,051135,2507.0192,N,08009.1084,W,1,9,1.7,23,M,,M,,*5B
06/13/2014	05:11:39.735	$GPGGA,051136,2507.0182,N,08009.1088,W,1,9,1.7,23,M,,M,,*55
06/13/2014	05:11:40.798	$GPGGA,051137,2507.0172,N,08009.1095,W,1,9,1.7,23,M,,M,,*57
06/13/2014	05:11:41.893	$GPGGA,051138,2507.0163,N,08009.1098,W,1,9,1.7,23,M,,M,,*55
06/13/2014	05:11:42.967	$GPGGA,051139,2507.0152,N,08009.1102,W,1,9,1.7,23,M,,M,,*54
06/13/2014	05:11:44.075	$GPGGA,051140,2507.0141,N,08009.1107,W,1,9,1.7,23,M,,M,,*5D
06/13/2014	05:11:45.168	$GPGGA,051141,2507.0132,N,08009.1113,W,1,9,1.7,22,M,,M,,*5C
06/13/2014	05:11:46.223	$GPGGA,051142,2507.0121,N,08009.1116,W,1,9,1.7,22,M,,M,,*58
06/13/2014	05:11:47.305	$GPGGA,051143,2507.0112,N,08009.1120,W,1,9,1.7,22,M,,M,,*5C
06/13/2014	05:11:48.401	$GPGGA,051144,2507.0102,N,08009.1127,W,1,9,1.7,22,M,,M,,*5D
06/13/2014	05:11:49.484	$GPGGA,051145,2507.0091,N,08009.1131,W,1,9,1.7,22,M,,M,,*50
06/13/2014	05:11:50.536	$GPGGA,051146,2507.0081,N,08009.1134,W,1,9,1.7,22,M,,M,,*57
06/13/2014	05:11:46.565	$GPGGA,051147,2507.0072,N,08009.1139,W,1,9,1.7,22,M,,M,,*57
06/13/2014	05:11:47.648	$GPGGA,051148,2507.0061,N,08009.1145,W,1,9,1.7,22,M,,M,,*51
06/13/2014	05:11:48.863	$GPGGA,051149,2507.0051,N,08009.1149,W,1,9,1.7,22,M,,M,,*5F
06/13/2014	05:11:49.796	$GPGGA,051150,2507.0042,N,08009.1152,W,1,9,1.7,22,M,,M,,*5F
06/13/2014	05:11:50.880	$GPGGA,051151,2507.0033,N,08009.1158,W,1,9,1.7,22,M,,M,,*52
06/13/2014	05:11:51.985	$GPGGA,051152,2507.0022,N,08009.1164,W,1,9,1.7,22,M,,M,,*5E
06/13/2014	05:11:53.059	$GPGGA,051153,2507.0011,N,08009.1168,W,1,9,1.7,22,M,,M,,*53
06/13/2014	05:11:54.230	$GPGGA,051154,2507.0001,N,08009.1172,W,1,9,1.7,22,M,,M,,*5E
