Software Version Number: 1	Data File Format Number: 1	Build Version Number: 1	Error Count Since VI Started: 0	Manufacturer: Raytheon	 Model Number: RayMarine 120	 S/N: 	 Cal Date: 	 Wind Direction Offset: 0.00	 Slope (M)1: 0.00	 Offset (B)1: 0.00	 Slope (M)2: 0.00	 Offset (B)2: 0.00	 Slope (M)3: 0.00	 Offset (B)3: 0.00	 Slope (M)4: 0.00	 Offset (B)4: 0.00	 Slope (M)5: 0.00	 Offset (B)5: 0.00	 Slope (M)6: 0.00	 Offset (B)6: 0.00
Computer Date	Computer Time	GGA String
05/31/2014	04:00:00.657	$GPGGA,040001,2534.0606,N,07934.5241,W,1,9,1.7,10,M,,M,,*50
05/31/2014	04:00:01.617	$GPGGA,040002,2534.0591,N,07934.5229,W,1,9,1.7,10,M,,M,,*50
05/31/2014	04:00:02.687	$GPGGA,040003,2534.0576,N,07934.5216,W,1,9,1.7,10,M,,M,,*54
05/31/2014	04:00:03.627	$GPGGA,040004,2534.0563,N,07934.5202,W,1,9,1.7,10,M,,M,,*52
05/31/2014	04:00:04.637	$GPGGA,040005,2534.0548,N,07934.5189,W,1,9,1.7,10,M,,M,,*5A
05/31/2014	04:00:05.597	$GPGGA,040006,2534.0533,N,07934.5176,W,1,9,1.7,10,M,,M,,*55
05/31/2014	04:00:06.657	$GPGGA,040007,2534.0518,N,07934.5163,W,1,9,1.7,10,M,,M,,*59
05/31/2014	04:00:07.728	$GPGGA,040008,2534.0505,N,07934.5148,W,1,9,1.7,10,M,,M,,*53
05/31/2014	04:00:08.658	$GPGGA,040009,2534.0490,N,07934.5136,W,1,9,1.7,10,M,,M,,*56
05/31/2014	04:00:09.608	$GPGGA,040010,2534.0475,N,07934.5122,W,1,9,1.7,10,M,,M,,*50
05/31/2014	04:00:10.609	$GPGGA,040011,2534.0461,N,07934.5109,W,1,9,1.7,10,M,,M,,*5D
05/31/2014	04:00:11.608	$GPGGA,040012,2534.0446,N,07934.5095,W,1,9,1.7,10,M,,M,,*5F
05/31/2014	04:00:12.658	$GPGGA,040013,2534.0432,N,07934.5082,W,1,9,1.7,10,M,,M,,*5B
05/31/2014	04:00:13.598	$GPGGA,040014,2534.0417,N,07934.5069,W,1,9,1.7,10,M,,M,,*5E
05/31/2014	04:00:14.689	$GPGGA,040015,2534.0417,N,07934.5069,W,1,9,1.7,10,M,,M,,*5F
05/31/2014	04:00:15.618	$GPGGA,040016,2534.0388,N,07934.5041,W,1,9,1.7,10,M,,M,,*57
05/31/2014	04:00:16.707	$GPGGA,040017,2534.0388,N,07934.5041,W,1,9,1.7,10,M,,M,,*56
05/31/2014	04:00:17.587	$GPGGA,040018,2534.0359,N,07934.5014,W,1,9,1.7,10,M,,M,,*55
05/31/2014	04:00:18.707	$GPGGA,040019,2534.0345,N,07934.5000,W,1,9,1.7,10,M,,M,,*5C
05/31/2014	04:00:19.597	$GPGGA,040020,2534.0331,N,07934.4986,W,1,9,1.7,10,M,,M,,*53
05/31/2014	04:00:20.587	$GPGGA,040021,2534.0331,N,07934.4986,W,1,9,1.7,10,M,,M,,*52
05/31/2014	04:00:21.667	$GPGGA,040022,2534.0300,N,07934.4959,W,1,9,1.7,10,M,,M,,*51
05/31/2014	04:00:22.687	$GPGGA,040023,2534.0286,N,07934.4945,W,1,9,1.7,10,M,,M,,*52
05/31/2014	04:00:23.687	$GPGGA,040024,2534.0273,N,07934.4931,W,1,9,1.7,10,M,,M,,*5C
05/31/2014	04:00:24.658	$GPGGA,040025,2534.0257,N,07934.4917,W,1,9,1.7,10,M,,M,,*5F
05/31/2014	04:00:25.657	$GPGGA,040026,2534.0244,N,07934.4903,W,1,9,1.7,10,M,,M,,*5B
05/31/2014	04:00:26.647	$GPGGA,040027,2534.0229,N,07934.4889,W,1,9,1.7,10,M,,M,,*52
05/31/2014	04:00:27.657	$GPGGA,040028,2534.0215,N,07934.4876,W,1,9,1.7,10,M,,M,,*52
05/31/2014	04:00:28.647	$GPGGA,040029,2534.0201,N,07934.4861,W,1,9,1.7,10,M,,M,,*50
05/31/2014	04:00:29.647	$GPGGA,040030,2534.0186,N,07934.4848,W,1,9,1.7,10,M,,M,,*5F
05/31/2014	04:00:30.677	$GPGGA,040031,2534.0172,N,07934.4835,W,1,9,1.7,10,M,,M,,*5F
05/31/2014	04:00:31.657	$GPGGA,040032,2534.0157,N,07934.4820,W,1,9,1.7,10,M,,M,,*5F
05/31/2014	04:00:32.687	$GPGGA,040033,2534.0143,N,07934.4808,W,1,9,1.7,10,M,,M,,*51
05/31/2014	04:00:33.626	$GPGGA,040034,2534.0128,N,07934.4795,W,1,9,1.7,10,M,,M,,*50
05/31/2014	04:00:34.657	$GPGGA,040035,2534.0114,N,07934.4781,W,1,9,1.7,10,M,,M,,*5B
05/31/2014	04:00:35.646	$GPGGA,040036,2534.0099,N,07934.4766,W,1,9,1.7,10,M,,M,,*55
05/31/2014	04:00:36.656	$GPGGA,040037,2534.0085,N,07934.4754,W,1,9,1.7,10,M,,M,,*58
05/31/2014	04:00:37.616	$GPGGA,040038,2534.0070,N,07934.4741,W,1,9,1.7,10,M,,M,,*59
05/31/2014	04:00:38.626	$GPGGA,040039,2534.0056,N,07934.4726,W,1,9,1.7,10,M,,M,,*5D
05/31/2014	04:00:39.636	$GPGGA,040040,2534.0040,N,07934.4714,W,1,9,1.7,10,M,,M,,*55
05/31/2014	04:00:40.646	$GPGGA,040041,2534.0027,N,07934.4702,W,1,9,1.7,10,M,,M,,*52
05/31/2014	04:00:41.626	$GPGGA,040042,2534.0011,N,07934.4687,W,1,9,1.7,10,M,,M,,*58
05/31/2014	04:00:42.607	$GPGGA,040043,2533.9996,N,07934.4675,W,1,9,1.7,10,M,,M,,*5C
05/31/2014	04:00:43.627	$GPGGA,040044,2533.9981,N,07934.4663,W,1,9,1.7,10,M,,M,,*5A
05/31/2014	04:00:44.637	$GPGGA,040045,2533.9967,N,07934.4650,W,1,9,1.7,10,M,,M,,*53
05/31/2014	04:00:45.617	$GPGGA,040046,2533.9952,N,07934.4636,W,1,9,1.7,10,M,,M,,*56
05/31/2014	04:00:46.627	$GPGGA,040047,2533.9937,N,07934.4624,W,1,9,1.7,10,M,,M,,*57
05/31/2014	04:00:47.627	$GPGGA,040048,2533.9922,N,07934.4611,W,1,9,1.7,10,M,,M,,*5A
05/31/2014	04:00:48.607	$GPGGA,040049,2533.9908,N,07934.4599,W,1,9,1.7,10,M,,M,,*50
05/31/2014	04:00:49.637	$GPGGA,040050,2533.9892,N,07934.4586,W,1,9,1.7,10,M,,M,,*54
05/31/2014	04:00:50.596	$GPGGA,040051,2533.9879,N,07934.4573,W,1,9,1.7,10,M,,M,,*5A
05/31/2014	04:00:51.616	$GPGGA,040052,2533.9862,N,07934.4561,W,1,9,1.7,10,M,,M,,*50
05/31/2014	04:00:52.597	$GPGGA,040053,2533.9848,N,07934.4548,W,1,9,1.7,10,M,,M,,*52
05/31/2014	04:00:53.606	$GPGGA,040054,2533.9833,N,07934.4535,W,1,9,1.7,10,M,,M,,*53
05/31/2014	04:00:54.626	$GPGGA,040055,2533.9818,N,07934.4523,W,1,9,1.7,10,M,,M,,*5C
05/31/2014	04:00:55.606	$GPGGA,040056,2533.9803,N,07934.4510,W,1,9,1.7,10,M,,M,,*55
05/31/2014	04:00:56.586	$GPGGA,040057,2533.9789,N,07934.4496,W,1,9,1.7,10,M,,M,,*56
05/31/2014	04:00:57.586	$GPGGA,040058,2533.9773,N,07934.4484,W,1,9,1.7,10,M,,M,,*5F
05/31/2014	04:00:58.706	$GPGGA,040059,2533.9758,N,07934.4473,W,1,9,1.7,10,M,,M,,*5F
05/31/2014	04:00:59.716	$GPGGA,040100,2533.9744,N,07934.4458,W,1,9,1.7,10,M,,M,,*56
05/31/2014	04:01:00.587	$GPGGA,040101,2533.9729,N,07934.4445,W,1,9,1.7,10,M,,M,,*50
05/31/2014	04:01:01.577	$GPGGA,040102,2533.9714,N,07934.4434,W,1,9,1.7,10,M,,M,,*5B
05/31/2014	04:01:02.567	$GPGGA,040103,2533.9700,N,07934.4419,W,1,9,1.7,10,M,,M,,*50
05/31/2014	04:01:03.597	$GPGGA,040104,2533.9686,N,07934.4406,W,1,9,1.7,10,M,,M,,*56
05/31/2014	04:01:04.648	$GPGGA,040105,2533.9670,N,07934.4394,W,1,9,1.7,10,M,,M,,*52
05/31/2014	04:01:05.577	$GPGGA,040106,2533.9656,N,07934.4380,W,1,9,1.7,10,M,,M,,*50
05/31/2014	04:01:06.688	$GPGGA,040107,2533.9642,N,07934.4366,W,1,9,1.7,10,M,,M,,*5C
05/31/2014	04:01:07.697	$GPGGA,040108,2533.9627,N,07934.4354,W,1,9,1.7,10,M,,M,,*51
05/31/2014	04:01:08.666	$GPGGA,040109,2533.9613,N,07934.4342,W,1,9,1.7,10,M,,M,,*50
05/31/2014	04:01:09.556	$GPGGA,040110,2533.9598,N,07934.4327,W,1,9,1.7,10,M,,M,,*5B
05/31/2014	04:01:10.556	$GPGGA,040111,2533.9584,N,07934.4314,W,1,9,1.7,10,M,,M,,*57
05/31/2014	04:01:11.656	$GPGGA,040112,2533.9569,N,07934.4301,W,1,9,1.7,10,M,,M,,*53
05/31/2014	04:01:12.666	$GPGGA,040113,2533.9554,N,07934.4288,W,1,9,1.7,10,M,,M,,*5C
05/31/2014	04:01:13.656	$GPGGA,040114,2533.9540,N,07934.4274,W,1,9,1.7,10,M,,M,,*5D
05/31/2014	04:01:14.556	$GPGGA,040115,2533.9525,N,07934.4261,W,1,9,1.7,10,M,,M,,*5B
05/31/2014	04:01:15.656	$GPGGA,040116,2533.9510,N,07934.4249,W,1,9,1.7,10,M,,M,,*54
05/31/2014	04:01:16.676	$GPGGA,040117,2533.9496,N,07934.4235,W,1,9,1.7,10,M,,M,,*51
05/31/2014	04:01:17.647	$GPGGA,040118,2533.9480,N,07934.4222,W,1,9,1.7,10,M,,M,,*5F
05/31/2014	04:01:18.637	$GPGGA,040119,2533.9465,N,07934.4209,W,1,9,1.7,10,M,,M,,*5C
05/31/2014	04:01:19.657	$GPGGA,040120,2533.9453,N,07934.4196,W,1,9,1.7,10,M,,M,,*56
05/31/2014	04:01:20.667	$GPGGA,040121,2533.9437,N,07934.4183,W,1,9,1.7,10,M,,M,,*51
05/31/2014	04:01:21.627	$GPGGA,040122,2533.9424,N,07934.4169,W,1,9,1.7,10,M,,M,,*54
05/31/2014	04:01:22.648	$GPGGA,040123,2533.9408,N,07934.4156,W,1,9,1.7,10,M,,M,,*57
05/31/2014	04:01:23.637	$GPGGA,040124,2533.9393,N,07934.4143,W,1,9,1.7,10,M,,M,,*51
05/31/2014	04:01:24.647	$GPGGA,040125,2533.9379,N,07934.4129,W,1,9,1.7,10,M,,M,,*58
05/31/2014	04:01:25.626	$GPGGA,040126,2533.9366,N,07934.4115,W,1,9,1.7,10,M,,M,,*5A
05/31/2014	04:01:26.646	$GPGGA,040127,2533.9349,N,07934.4102,W,1,9,1.7,10,M,,M,,*50
05/31/2014	04:01:27.636	$GPGGA,040128,2533.9335,N,07934.4088,W,1,9,1.7,10,M,,M,,*57
05/31/2014	04:01:28.616	$GPGGA,040129,2533.9323,N,07934.4074,W,1,9,1.7,10,M,,M,,*52
05/31/2014	04:01:29.616	$GPGGA,040130,2533.9306,N,07934.4061,W,1,9,1.7,10,M,,M,,*59
05/31/2014	04:01:30.626	$GPGGA,040131,2533.9292,N,07934.4048,W,1,9,1.7,10,M,,M,,*5F
05/31/2014	04:01:31.626	$GPGGA,040132,2533.9279,N,07934.4034,W,1,9,1.7,10,M,,M,,*52
05/31/2014	04:01:32.636	$GPGGA,040133,2533.9265,N,07934.4019,W,1,9,1.7,10,M,,M,,*51
05/31/2014	04:01:33.626	$GPGGA,040134,2533.9250,N,07934.4006,W,1,9,1.7,10,M,,M,,*5E
05/31/2014	04:01:34.636	$GPGGA,040135,2533.9236,N,07934.3992,W,1,9,1.7,10,M,,M,,*5C
05/31/2014	04:01:35.627	$GPGGA,040136,2533.9220,N,07934.3978,W,1,9,1.7,10,M,,M,,*5C
05/31/2014	04:01:36.627	$GPGGA,040137,2533.9207,N,07934.3963,W,1,9,1.7,10,M,,M,,*52
05/31/2014	04:01:37.597	$GPGGA,040138,2533.9193,N,07934.3950,W,1,9,1.7,10,M,,M,,*53
05/31/2014	04:01:38.597	$GPGGA,040139,2533.9178,N,07934.3936,W,1,9,1.7,10,M,,M,,*57
05/31/2014	04:01:39.617	$GPGGA,040140,2533.9164,N,07934.3922,W,1,9,1.7,10,M,,M,,*51
05/31/2014	04:01:40.597	$GPGGA,040141,2533.9149,N,07934.3908,W,1,9,1.7,10,M,,M,,*57
05/31/2014	04:01:41.597	$GPGGA,040142,2533.9135,N,07934.3894,W,1,9,1.7,10,M,,M,,*5B
05/31/2014	04:01:42.627	$GPGGA,040143,2533.9121,N,07934.3880,W,1,9,1.7,10,M,,M,,*5A
05/31/2014	04:01:43.596	$GPGGA,040144,2533.9106,N,07934.3867,W,1,9,1.7,10,M,,M,,*51
05/31/2014	04:01:44.576	$GPGGA,040145,2533.9091,N,07934.3854,W,1,9,1.7,10,M,,M,,*5F
05/31/2014	04:01:45.596	$GPGGA,040146,2533.9078,N,07934.3838,W,1,9,1.7,10,M,,M,,*51
05/31/2014	04:01:46.696	$GPGGA,040147,2533.9063,N,07934.3824,W,1,9,1.7,10,M,,M,,*57
05/31/2014	04:01:47.606	$GPGGA,040148,2533.9049,N,07934.3812,W,1,9,1.7,10,M,,M,,*55
05/31/2014	04:01:48.686	$GPGGA,040149,2533.9034,N,07934.3797,W,1,9,1.7,10,M,,M,,*5C
05/31/2014	04:01:49.586	$GPGGA,040150,2533.9020,N,07934.3783,W,1,9,1.7,10,M,,M,,*54
05/31/2014	04:01:50.667	$GPGGA,040151,2533.9006,N,07934.3770,W,1,9,1.7,10,M,,M,,*5D
05/31/2014	04:01:51.597	$GPGGA,040152,2533.8992,N,07934.3757,W,1,9,1.7,10,M,,M,,*5E
05/31/2014	04:01:52.577	$GPGGA,040153,2533.8977,N,07934.3743,W,1,9,1.7,10,M,,M,,*51
05/31/2014	04:01:53.657	$GPGGA,040154,2533.8962,N,07934.3730,W,1,9,1.7,10,M,,M,,*56
05/31/2014	04:01:54.657	$GPGGA,040155,2533.8948,N,07934.3717,W,1,9,1.7,10,M,,M,,*5A
05/31/2014	04:01:55.587	$GPGGA,040156,2533.8933,N,07934.3703,W,1,9,1.7,10,M,,M,,*50
05/31/2014	04:01:56.657	$GPGGA,040157,2533.8918,N,07934.3690,W,1,9,1.7,10,M,,M,,*53
05/31/2014	04:01:57.577	$GPGGA,040158,2533.8904,N,07934.3677,W,1,9,1.7,10,M,,M,,*58
05/31/2014	04:01:58.557	$GPGGA,040159,2533.8889,N,07934.3663,W,1,9,1.7,10,M,,M,,*58
05/31/2014	04:01:59.677	$GPGGA,040200,2533.8873,N,07934.3650,W,1,9,1.7,10,M,,M,,*52
05/31/2014	04:02:00.666	$GPGGA,040201,2533.8858,N,07934.3638,W,1,9,1.7,10,M,,M,,*54
05/31/2014	04:02:01.657	$GPGGA,040202,2533.8843,N,07934.3624,W,1,9,1.7,10,M,,M,,*50
05/31/2014	04:02:02.656	$GPGGA,040203,2533.8829,N,07934.3613,W,1,9,1.7,10,M,,M,,*59
05/31/2014	04:02:03.656	$GPGGA,040204,2533.8813,N,07934.3599,W,1,9,1.7,10,M,,M,,*56
05/31/2014	04:02:04.676	$GPGGA,040205,2533.8799,N,07934.3587,W,1,9,1.7,10,M,,M,,*55
05/31/2014	04:02:05.646	$GPGGA,040206,2533.8784,N,07934.3575,W,1,9,1.7,10,M,,M,,*57
05/31/2014	04:02:06.646	$GPGGA,040207,2533.8768,N,07934.3562,W,1,9,1.7,10,M,,M,,*52
05/31/2014	04:02:07.656	$GPGGA,040208,2533.8753,N,07934.3549,W,1,9,1.7,10,M,,M,,*5C
05/31/2014	04:02:08.646	$GPGGA,040209,2533.8738,N,07934.3537,W,1,9,1.7,10,M,,M,,*59
05/31/2014	04:02:09.636	$GPGGA,040210,2533.8723,N,07934.3524,W,1,9,1.7,10,M,,M,,*59
05/31/2014	04:02:10.637	$GPGGA,040211,2533.8708,N,07934.3512,W,1,9,1.7,10,M,,M,,*54
05/31/2014	04:02:11.647	$GPGGA,040212,2533.8694,N,07934.3500,W,1,9,1.7,10,M,,M,,*50
05/31/2014	04:02:12.617	$GPGGA,040213,2533.8680,N,07934.3487,W,1,9,1.7,10,M,,M,,*5A
05/31/2014	04:02:13.627	$GPGGA,040214,2533.8665,N,07934.3474,W,1,9,1.7,10,M,,M,,*5A
05/31/2014	04:02:14.647	$GPGGA,040215,2533.8649,N,07934.3462,W,1,9,1.7,10,M,,M,,*52
05/31/2014	04:02:15.637	$GPGGA,040216,2533.8633,N,07934.3449,W,1,9,1.7,10,M,,M,,*55
05/31/2014	04:02:16.637	$GPGGA,040217,2533.8619,N,07934.3436,W,1,9,1.7,10,M,,M,,*54
05/31/2014	04:02:17.627	$GPGGA,040218,2533.8604,N,07934.3424,W,1,9,1.7,10,M,,M,,*54
05/31/2014	04:02:18.646	$GPGGA,040219,2533.8587,N,07934.3410,W,1,9,1.7,10,M,,M,,*5A
05/31/2014	04:02:19.626	$GPGGA,040220,2533.8573,N,07934.3398,W,1,9,1.7,10,M,,M,,*5C
05/31/2014	04:02:20.606	$GPGGA,040221,2533.8558,N,07934.3384,W,1,9,1.7,10,M,,M,,*59
05/31/2014	04:02:21.606	$GPGGA,040222,2533.8543,N,07934.3372,W,1,9,1.7,10,M,,M,,*59
05/31/2014	04:02:22.636	$GPGGA,040223,2533.8528,N,07934.3359,W,1,9,1.7,10,M,,M,,*5C
05/31/2014	04:02:23.626	$GPGGA,040224,2533.8512,N,07934.3346,W,1,9,1.7,10,M,,M,,*5C
05/31/2014	04:02:25.006	$GPGGA,040225,2533.8499,N,07934.3333,W,1,9,1.7,10,M,,M,,*5D
05/31/2014	04:02:25.596	$GPGGA,040226,2533.8483,N,07934.3320,W,1,9,1.7,10,M,,M,,*57
05/31/2014	04:02:26.596	$GPGGA,040227,2533.8467,N,07934.3308,W,1,9,1.7,10,M,,M,,*56
05/31/2014	04:02:27.597	$GPGGA,040228,2533.8452,N,07934.3295,W,1,9,1.7,10,M,,M,,*5A
05/31/2014	04:02:28.617	$GPGGA,040229,2533.8438,N,07934.3282,W,1,9,1.7,10,M,,M,,*51
05/31/2014	04:02:29.587	$GPGGA,040230,2533.8423,N,07934.3269,W,1,9,1.7,10,M,,M,,*56
05/31/2014	04:02:30.587	$GPGGA,040231,2533.8409,N,07934.3257,W,1,9,1.7,10,M,,M,,*52
05/31/2014	04:02:31.607	$GPGGA,040232,2533.8393,N,07934.3243,W,1,9,1.7,10,M,,M,,*50
05/31/2014	04:02:32.599	$GPGGA,040233,2533.8380,N,07934.3229,W,1,9,1.7,10,M,,M,,*5F
05/31/2014	04:02:33.577	$GPGGA,040234,2533.8364,N,07934.3216,W,1,9,1.7,10,M,,M,,*5E
05/31/2014	04:02:34.597	$GPGGA,040235,2533.8349,N,07934.3203,W,1,9,1.7,10,M,,M,,*54
05/31/2014	04:02:35.616	$GPGGA,040236,2533.8335,N,07934.3188,W,1,9,1.7,10,M,,M,,*5C
05/31/2014	04:02:36.596	$GPGGA,040237,2533.8320,N,07934.3174,W,1,9,1.7,10,M,,M,,*5A
05/31/2014	04:02:37.586	$GPGGA,040238,2533.8306,N,07934.3161,W,1,9,1.7,10,M,,M,,*55
05/31/2014	04:02:38.696	$GPGGA,040239,2533.8291,N,07934.3147,W,1,9,1.7,10,M,,M,,*5F
05/31/2014	04:02:39.586	$GPGGA,040240,2533.8276,N,07934.3132,W,1,9,1.7,10,M,,M,,*5A
05/31/2014	04:02:40.686	$GPGGA,040241,2533.8264,N,07934.3119,W,1,9,1.7,10,M,,M,,*51
05/31/2014	04:02:41.576	$GPGGA,040242,2533.8248,N,07934.3104,W,1,9,1.7,10,M,,M,,*50
05/31/2014	04:02:42.686	$GPGGA,040243,2533.8234,N,07934.3090,W,1,9,1.7,10,M,,M,,*56
05/31/2014	04:02:43.576	$GPGGA,040244,2533.8221,N,07934.3076,W,1,9,1.7,10,M,,M,,*5D
05/31/2014	04:02:44.566	$GPGGA,040245,2533.8206,N,07934.3061,W,1,9,1.7,10,M,,M,,*5F
05/31/2014	04:02:45.647	$GPGGA,040246,2533.8190,N,07934.3047,W,1,9,1.7,10,M,,M,,*54
05/31/2014	04:02:46.677	$GPGGA,040247,2533.8176,N,07934.3034,W,1,9,1.7,10,M,,M,,*59
05/31/2014	04:02:47.677	$GPGGA,040248,2533.8163,N,07934.3019,W,1,9,1.7,10,M,,M,,*5D
05/31/2014	04:02:48.667	$GPGGA,040249,2533.8147,N,07934.3005,W,1,9,1.7,10,M,,M,,*57
05/31/2014	04:02:49.657	$GPGGA,040250,2533.8134,N,07934.2992,W,1,9,1.7,10,M,,M,,*5D
05/31/2014	04:02:52.088	$GPGGA,040252,2533.8105,N,07934.2963,W,1,9,1.7,10,M,,M,,*53
05/31/2014	04:02:52.637	$GPGGA,040253,2533.8089,N,07934.2951,W,1,9,1.7,10,M,,M,,*56
05/31/2014	04:02:53.636	$GPGGA,040254,2533.8075,N,07934.2936,W,1,9,1.7,10,M,,M,,*53
05/31/2014	04:02:54.676	$GPGGA,040255,2533.8062,N,07934.2922,W,1,9,1.7,10,M,,M,,*51
05/31/2014	04:02:55.656	$GPGGA,040256,2533.8046,N,07934.2910,W,1,9,1.7,10,M,,M,,*55
05/31/2014	04:02:56.646	$GPGGA,040257,2533.8033,N,07934.2895,W,1,9,1.7,10,M,,M,,*5A
05/31/2014	04:02:57.626	$GPGGA,040258,2533.8018,N,07934.2881,W,1,9,1.7,10,M,,M,,*59
05/31/2014	04:02:58.646	$GPGGA,040259,2533.8004,N,07934.2868,W,1,9,1.7,10,M,,M,,*52
05/31/2014	04:02:59.656	$GPGGA,040300,2533.7990,N,07934.2854,W,1,9,1.7,10,M,,M,,*5B
05/31/2014	04:03:00.646	$GPGGA,040301,2533.7975,N,07934.2839,W,1,9,1.7,10,M,,M,,*5A
05/31/2014	04:03:01.626	$GPGGA,040302,2533.7961,N,07934.2826,W,1,9,1.7,10,M,,M,,*52
05/31/2014	04:03:02.637	$GPGGA,040303,2533.7946,N,07934.2813,W,1,9,1.7,10,M,,M,,*50
05/31/2014	04:03:03.627	$GPGGA,040304,2533.7932,N,07934.2798,W,1,9,1.7,10,M,,M,,*58
05/31/2014	04:03:04.637	$GPGGA,040305,2533.7916,N,07934.2785,W,1,9,1.7,10,M,,M,,*53
05/31/2014	04:03:05.627	$GPGGA,040306,2533.7903,N,07934.2771,W,1,9,1.7,10,M,,M,,*5F
05/31/2014	04:03:06.637	$GPGGA,040307,2533.7887,N,07934.2757,W,1,9,1.7,10,M,,M,,*57
05/31/2014	04:03:07.627	$GPGGA,040308,2533.7874,N,07934.2744,W,1,9,1.7,10,M,,M,,*56
05/31/2014	04:03:08.627	$GPGGA,040309,2533.7857,N,07934.2731,W,1,9,1.7,10,M,,M,,*54
05/31/2014	04:03:09.617	$GPGGA,040310,2533.7843,N,07934.2718,W,1,9,1.7,10,M,,M,,*52
05/31/2014	04:03:10.636	$GPGGA,040311,2533.7829,N,07934.2704,W,1,9,1.7,10,M,,M,,*52
05/31/2014	04:03:11.616	$GPGGA,040312,2533.7813,N,07934.2691,W,1,9,1.7,10,M,,M,,*55
05/31/2014	04:03:12.596	$GPGGA,040313,2533.7798,N,07934.2678,W,1,9,1.7,10,M,,M,,*5F
05/31/2014	04:03:13.596	$GPGGA,040314,2533.7784,N,07934.2664,W,1,9,1.7,10,M,,M,,*58
05/31/2014	04:03:14.596	$GPGGA,040315,2533.7768,N,07934.2650,W,1,9,1.7,10,M,,M,,*5C
05/31/2014	04:03:15.606	$GPGGA,040316,2533.7752,N,07934.2638,W,1,9,1.7,10,M,,M,,*58
05/31/2014	04:03:16.596	$GPGGA,040317,2533.7738,N,07934.2626,W,1,9,1.7,10,M,,M,,*5A
05/31/2014	04:03:17.606	$GPGGA,040318,2533.7723,N,07934.2612,W,1,9,1.7,10,M,,M,,*58
05/31/2014	04:03:18.624	$GPGGA,040319,2533.7708,N,07934.2600,W,1,9,1.7,10,M,,M,,*53
05/31/2014	04:03:19.596	$GPGGA,040320,2533.7692,N,07934.2587,W,1,9,1.7,10,M,,M,,*57
05/31/2014	04:03:20.598	$GPGGA,040321,2533.7679,N,07934.2574,W,1,9,1.7,10,M,,M,,*5F
05/31/2014	04:03:21.697	$GPGGA,040322,2533.7662,N,07934.2562,W,1,9,1.7,10,M,,M,,*51
05/31/2014	04:03:22.707	$GPGGA,040323,2533.7646,N,07934.2549,W,1,9,1.7,10,M,,M,,*5F
05/31/2014	04:03:23.707	$GPGGA,040324,2533.7632,N,07934.2537,W,1,9,1.7,10,M,,M,,*52
05/31/2014	04:03:24.617	$GPGGA,040325,2533.7616,N,07934.2524,W,1,9,1.7,10,M,,M,,*57
05/31/2014	04:03:25.567	$GPGGA,040326,2533.7601,N,07934.2511,W,1,9,1.7,10,M,,M,,*54
05/31/2014	04:03:26.577	$GPGGA,040327,2533.7585,N,07934.2499,W,1,9,1.7,10,M,,M,,*5B
05/31/2014	04:03:27.698	$GPGGA,040328,2533.7570,N,07934.2486,W,1,9,1.7,10,M,,M,,*50
05/31/2014	04:03:28.566	$GPGGA,040329,2533.7556,N,07934.2472,W,1,9,1.7,10,M,,M,,*5E
05/31/2014	04:03:29.686	$GPGGA,040330,2533.7540,N,07934.2459,W,1,9,1.7,10,M,,M,,*58
05/31/2014	04:03:30.586	$GPGGA,040331,2533.7525,N,07934.2447,W,1,9,1.7,10,M,,M,,*55
05/31/2014	04:03:31.586	$GPGGA,040332,2533.7510,N,07934.2433,W,1,9,1.7,10,M,,M,,*53
05/31/2014	04:03:32.666	$GPGGA,040333,2533.7495,N,07934.2420,W,1,9,1.7,10,M,,M,,*5C
05/31/2014	04:03:33.576	$GPGGA,040334,2533.7480,N,07934.2407,W,1,9,1.7,10,M,,M,,*5A
05/31/2014	04:03:34.556	$GPGGA,040335,2533.7466,N,07934.2393,W,1,9,1.7,10,M,,M,,*59
05/31/2014	04:03:35.706	$GPGGA,040336,2533.7450,N,07934.2380,W,1,9,1.7,10,M,,M,,*5D
05/31/2014	04:03:36.666	$GPGGA,040337,2533.7434,N,07934.2366,W,1,9,1.7,10,M,,M,,*56
05/31/2014	04:03:37.567	$GPGGA,040338,2533.7420,N,07934.2352,W,1,9,1.7,10,M,,M,,*5B
05/31/2014	04:03:38.657	$GPGGA,040339,2533.7404,N,07934.2339,W,1,9,1.7,10,M,,M,,*51
05/31/2014	04:03:39.678	$GPGGA,040340,2533.7390,N,07934.2326,W,1,9,1.7,10,M,,M,,*5B
05/31/2014	04:03:40.647	$GPGGA,040341,2533.7375,N,07934.2312,W,1,9,1.7,10,M,,M,,*56
05/31/2014	04:03:41.657	$GPGGA,040342,2533.7361,N,07934.2298,W,1,9,1.7,10,M,,M,,*53
05/31/2014	04:03:42.667	$GPGGA,040343,2533.7346,N,07934.2285,W,1,9,1.7,10,M,,M,,*5B
05/31/2014	04:03:43.657	$GPGGA,040344,2533.7332,N,07934.2271,W,1,9,1.7,10,M,,M,,*54
05/31/2014	04:03:44.657	$GPGGA,040345,2533.7316,N,07934.2256,W,1,9,1.7,10,M,,M,,*56
05/31/2014	04:03:45.636	$GPGGA,040346,2533.7303,N,07934.2243,W,1,9,1.7,10,M,,M,,*55
05/31/2014	04:03:46.636	$GPGGA,040347,2533.7289,N,07934.2229,W,1,9,1.7,10,M,,M,,*5B
05/31/2014	04:03:47.646	$GPGGA,040348,2533.7273,N,07934.2215,W,1,9,1.7,10,M,,M,,*5E
05/31/2014	04:03:48.636	$GPGGA,040349,2533.7260,N,07934.2201,W,1,9,1.7,10,M,,M,,*58
05/31/2014	04:03:49.626	$GPGGA,040350,2533.7245,N,07934.2186,W,1,9,1.7,10,M,,M,,*5B
05/31/2014	04:03:50.616	$GPGGA,040351,2533.7231,N,07934.2172,W,1,9,1.7,10,M,,M,,*52
05/31/2014	04:03:51.636	$GPGGA,040352,2533.7216,N,07934.2158,W,1,9,1.7,10,M,,M,,*5C
05/31/2014	04:03:52.616	$GPGGA,040353,2533.7202,N,07934.2144,W,1,9,1.7,10,M,,M,,*55
05/31/2014	04:03:53.626	$GPGGA,040354,2533.7188,N,07934.2129,W,1,9,1.7,10,M,,M,,*58
05/31/2014	04:03:54.636	$GPGGA,040355,2533.7173,N,07934.2116,W,1,9,1.7,10,M,,M,,*51
05/31/2014	04:03:55.657	$GPGGA,040356,2533.7157,N,07934.2101,W,1,9,1.7,10,M,,M,,*52
05/31/2014	04:03:56.637	$GPGGA,040357,2533.7142,N,07934.2087,W,1,9,1.7,10,M,,M,,*58
05/31/2014	04:03:57.617	$GPGGA,040358,2533.7127,N,07934.2073,W,1,9,1.7,10,M,,M,,*5F
05/31/2014	04:03:58.642	$GPGGA,040359,2533.7113,N,07934.2058,W,1,9,1.7,10,M,,M,,*50
05/31/2014	04:03:59.627	$GPGGA,040400,2533.7098,N,07934.2044,W,1,9,1.7,10,M,,M,,*54
05/31/2014	04:04:00.637	$GPGGA,040401,2533.7083,N,07934.2031,W,1,9,1.7,10,M,,M,,*5D
05/31/2014	04:04:01.627	$GPGGA,040402,2533.7070,N,07934.2016,W,1,9,1.7,10,M,,M,,*57
05/31/2014	04:04:02.597	$GPGGA,040403,2533.7055,N,07934.2002,W,1,9,1.7,10,M,,M,,*54
05/31/2014	04:04:03.636	$GPGGA,040404,2533.7040,N,07934.1989,W,1,9,1.7,10,M,,M,,*5E
05/31/2014	04:04:04.626	$GPGGA,040405,2533.7026,N,07934.1974,W,1,9,1.7,10,M,,M,,*5D
05/31/2014	04:04:05.610	$GPGGA,040406,2533.7010,N,07934.1960,W,1,9,1.7,10,M,,M,,*5E
05/31/2014	04:04:06.596	$GPGGA,040407,2533.6996,N,07934.1947,W,1,9,1.7,10,M,,M,,*5C
05/31/2014	04:04:07.636	$GPGGA,040408,2533.6982,N,07934.1933,W,1,9,1.7,10,M,,M,,*55
05/31/2014	04:04:08.606	$GPGGA,040409,2533.6967,N,07934.1920,W,1,9,1.7,10,M,,M,,*5D
05/31/2014	04:04:09.676	$GPGGA,040410,2533.6951,N,07934.1907,W,1,9,1.7,10,M,,M,,*55
05/31/2014	04:04:10.696	$GPGGA,040411,2533.6936,N,07934.1893,W,1,9,1.7,10,M,,M,,*59
05/31/2014	04:04:11.606	$GPGGA,040412,2533.6921,N,07934.1880,W,1,9,1.7,10,M,,M,,*5E
05/31/2014	04:04:12.697	$GPGGA,040413,2533.6906,N,07934.1867,W,1,9,1.7,10,M,,M,,*53
05/31/2014	04:04:13.597	$GPGGA,040414,2533.6892,N,07934.1854,W,1,9,1.7,10,M,,M,,*58
05/31/2014	04:04:14.697	$GPGGA,040415,2533.6877,N,07934.1841,W,1,9,1.7,10,M,,M,,*56
05/31/2014	04:04:15.607	$GPGGA,040416,2533.6861,N,07934.1828,W,1,9,1.7,11,M,,M,,*5C
05/31/2014	04:04:16.607	$GPGGA,040417,2533.6846,N,07934.1815,W,1,9,1.7,11,M,,M,,*56
05/31/2014	04:04:17.577	$GPGGA,040418,2533.6831,N,07934.1801,W,1,9,1.7,11,M,,M,,*5C
05/31/2014	04:04:18.697	$GPGGA,040419,2533.6816,N,07934.1789,W,1,9,1.7,11,M,,M,,*57
05/31/2014	04:04:19.612	$GPGGA,040420,2533.6801,N,07934.1776,W,1,9,1.7,11,M,,M,,*5B
05/31/2014	04:04:20.676	$GPGGA,040421,2533.6787,N,07934.1763,W,1,9,1.7,11,M,,M,,*5F
05/31/2014	04:04:21.586	$GPGGA,040422,2533.6772,N,07934.1751,W,1,9,1.7,11,M,,M,,*57
05/31/2014	04:04:22.666	$GPGGA,040423,2533.6756,N,07934.1738,W,1,9,1.7,11,M,,M,,*5F
05/31/2014	04:04:23.607	$GPGGA,040424,2533.6741,N,07934.1725,W,1,9,1.7,11,M,,M,,*52
05/31/2014	04:04:24.656	$GPGGA,040425,2533.6726,N,07934.1712,W,1,9,1.7,11,M,,M,,*56
05/31/2014	04:04:25.646	$GPGGA,040426,2533.6711,N,07934.1698,W,1,9,1.7,11,M,,M,,*52
05/31/2014	04:04:26.646	$GPGGA,040427,2533.6696,N,07934.1685,W,1,9,1.7,11,M,,M,,*51
05/31/2014	04:04:27.656	$GPGGA,040428,2533.6682,N,07934.1672,W,1,9,1.7,11,M,,M,,*53
05/31/2014	04:04:28.636	$GPGGA,040429,2533.6666,N,07934.1659,W,1,9,1.7,11,M,,M,,*51
05/31/2014	04:04:29.646	$GPGGA,040430,2533.6653,N,07934.1646,W,1,9,1.7,11,M,,M,,*51
05/31/2014	04:04:30.647	$GPGGA,040431,2533.6636,N,07934.1633,W,1,9,1.7,11,M,,M,,*51
05/31/2014	04:04:31.657	$GPGGA,040432,2533.6621,N,07934.1620,W,1,9,1.7,11,M,,M,,*56
05/31/2014	04:04:32.627	$GPGGA,040433,2533.6607,N,07934.1607,W,1,9,1.7,11,M,,M,,*56
05/31/2014	04:04:33.637	$GPGGA,040434,2533.6591,N,07934.1594,W,1,9,1.7,11,M,,M,,*54
05/31/2014	04:04:34.657	$GPGGA,040435,2533.6575,N,07934.1581,W,1,9,1.7,11,M,,M,,*5B
05/31/2014	04:04:35.647	$GPGGA,040436,2533.6561,N,07934.1567,W,1,9,1.7,11,M,,M,,*55
05/31/2014	04:04:36.647	$GPGGA,040437,2533.6546,N,07934.1554,W,1,9,1.7,11,M,,M,,*51
05/31/2014	04:04:37.617	$GPGGA,040438,2533.6531,N,07934.1542,W,1,9,1.7,11,M,,M,,*59
05/31/2014	04:04:38.646	$GPGGA,040439,2533.6517,N,07934.1528,W,1,9,1.7,11,M,,M,,*50
05/31/2014	04:04:39.626	$GPGGA,040440,2533.6501,N,07934.1515,W,1,9,1.7,11,M,,M,,*57
05/31/2014	04:04:40.636	$GPGGA,040441,2533.6487,N,07934.1502,W,1,9,1.7,11,M,,M,,*5F
05/31/2014	04:04:41.616	$GPGGA,040442,2533.6472,N,07934.1488,W,1,9,1.7,11,M,,M,,*55
05/31/2014	04:04:42.636	$GPGGA,040443,2533.6458,N,07934.1475,W,1,9,1.7,11,M,,M,,*5E
05/31/2014	04:04:43.616	$GPGGA,040444,2533.6441,N,07934.1463,W,1,9,1.7,11,M,,M,,*56
05/31/2014	04:04:44.646	$GPGGA,040445,2533.6427,N,07934.1448,W,1,9,1.7,11,M,,M,,*5E
05/31/2014	04:04:45.616	$GPGGA,040446,2533.6412,N,07934.1435,W,1,9,1.7,11,M,,M,,*51
05/31/2014	04:04:46.596	$GPGGA,040447,2533.6397,N,07934.1422,W,1,9,1.7,11,M,,M,,*5C
05/31/2014	04:04:47.617	$GPGGA,040448,2533.6382,N,07934.1408,W,1,9,1.7,11,M,,M,,*5F
05/31/2014	04:04:48.607	$GPGGA,040449,2533.6367,N,07934.1395,W,1,9,1.7,11,M,,M,,*56
05/31/2014	04:04:49.617	$GPGGA,040450,2533.6351,N,07934.1381,W,1,9,1.7,11,M,,M,,*5E
05/31/2014	04:04:50.617	$GPGGA,040451,2533.6337,N,07934.1368,W,1,9,1.7,11,M,,M,,*58
05/31/2014	04:04:51.617	$GPGGA,040452,2533.6322,N,07934.1354,W,1,9,1.7,11,M,,M,,*50
05/31/2014	04:04:52.627	$GPGGA,040453,2533.6307,N,07934.1341,W,1,9,1.7,11,M,,M,,*52
05/31/2014	04:04:53.607	$GPGGA,040454,2533.6292,N,07934.1327,W,1,9,1.7,11,M,,M,,*58
05/31/2014	04:04:54.588	$GPGGA,040455,2533.6277,N,07934.1313,W,1,9,1.7,11,M,,M,,*55
05/31/2014	04:04:55.616	$GPGGA,040456,2533.6263,N,07934.1300,W,1,9,1.7,11,M,,M,,*51
05/31/2014	04:04:56.596	$GPGGA,040457,2533.6248,N,07934.1285,W,1,9,1.7,11,M,,M,,*55
05/31/2014	04:04:57.586	$GPGGA,040458,2533.6232,N,07934.1272,W,1,9,1.7,11,M,,M,,*5F
05/31/2014	04:04:58.576	$GPGGA,040459,2533.6217,N,07934.1258,W,1,9,1.7,11,M,,M,,*51
05/31/2014	04:04:59.606	$GPGGA,040500,2533.6203,N,07934.1244,W,1,9,1.7,11,M,,M,,*54
05/31/2014	04:05:00.696	$GPGGA,040501,2533.6188,N,07934.1229,W,1,9,1.7,11,M,,M,,*5E
05/31/2014	04:05:01.576	$GPGGA,040502,2533.6173,N,07934.1216,W,1,9,1.7,11,M,,M,,*55
05/31/2014	04:05:02.566	$GPGGA,040503,2533.6158,N,07934.1202,W,1,9,1.7,11,M,,M,,*58
05/31/2014	04:05:03.586	$GPGGA,040504,2533.6144,N,07934.1187,W,1,9,1.7,11,M,,M,,*5C
05/31/2014	04:05:04.666	$GPGGA,040505,2533.6130,N,07934.1172,W,1,9,1.7,11,M,,M,,*54
05/31/2014	04:05:05.557	$GPGGA,040506,2533.6115,N,07934.1159,W,1,9,1.7,11,M,,M,,*59
05/31/2014	04:05:06.697	$GPGGA,040507,2533.6100,N,07934.1145,W,1,9,1.7,11,M,,M,,*51
05/31/2014	04:05:07.697	$GPGGA,040508,2533.6086,N,07934.1130,W,1,9,1.7,11,M,,M,,*53
05/31/2014	04:05:08.557	$GPGGA,040509,2533.6072,N,07934.1117,W,1,9,1.7,11,M,,M,,*5C
05/31/2014	04:05:09.657	$GPGGA,040510,2533.6057,N,07934.1104,W,1,9,1.7,11,M,,M,,*51
05/31/2014	04:05:10.677	$GPGGA,040511,2533.6043,N,07934.1089,W,1,9,1.7,11,M,,M,,*51
05/31/2014	04:05:11.578	$GPGGA,040512,2533.6028,N,07934.1075,W,1,9,1.7,11,M,,M,,*5C
05/31/2014	04:05:12.676	$GPGGA,040513,2533.6015,N,07934.1062,W,1,9,1.7,11,M,,M,,*55
05/31/2014	04:05:13.556	$GPGGA,040514,2533.5999,N,07934.1047,W,1,9,1.7,11,M,,M,,*5B
05/31/2014	04:05:14.646	$GPGGA,040515,2533.5985,N,07934.1034,W,1,9,1.7,11,M,,M,,*53
05/31/2014	04:05:15.666	$GPGGA,040516,2533.5970,N,07934.1020,W,1,9,1.7,11,M,,M,,*5F
05/31/2014	04:05:16.666	$GPGGA,040517,2533.5956,N,07934.1006,W,1,9,1.7,11,M,,M,,*5E
05/31/2014	04:05:17.646	$GPGGA,040518,2533.5941,N,07934.0992,W,1,9,1.7,11,M,,M,,*52
05/31/2014	04:05:18.636	$GPGGA,040519,2533.5927,N,07934.0979,W,1,9,1.7,11,M,,M,,*56
05/31/2014	04:05:19.656	$GPGGA,040520,2533.5912,N,07934.0964,W,1,9,1.7,11,M,,M,,*56
05/31/2014	04:05:20.646	$GPGGA,040521,2533.5896,N,07934.0951,W,1,9,1.7,11,M,,M,,*5C
05/31/2014	04:05:21.636	$GPGGA,040522,2533.5882,N,07934.0938,W,1,9,1.7,11,M,,M,,*55
05/31/2014	04:05:22.657	$GPGGA,040523,2533.5867,N,07934.0923,W,1,9,1.7,11,M,,M,,*55
05/31/2014	04:05:23.647	$GPGGA,040524,2533.5851,N,07934.0910,W,1,9,1.7,11,M,,M,,*57
05/31/2014	04:05:24.647	$GPGGA,040525,2533.5837,N,07934.0898,W,1,9,1.7,11,M,,M,,*57
05/31/2014	04:05:25.627	$GPGGA,040526,2533.5823,N,07934.0884,W,1,9,1.7,11,M,,M,,*5C
05/31/2014	04:05:26.647	$GPGGA,040527,2533.5807,N,07934.0872,W,1,9,1.7,11,M,,M,,*52
05/31/2014	04:05:27.647	$GPGGA,040528,2533.5793,N,07934.0859,W,1,9,1.7,11,M,,M,,*56
05/31/2014	04:05:28.637	$GPGGA,040529,2533.5779,N,07934.0845,W,1,9,1.7,11,M,,M,,*5E
05/31/2014	04:05:29.628	$GPGGA,040530,2533.5761,N,07934.0833,W,1,9,1.7,11,M,,M,,*5E
05/31/2014	04:05:30.606	$GPGGA,040531,2533.5747,N,07934.0820,W,1,9,1.7,11,M,,M,,*59
05/31/2014	04:05:31.636	$GPGGA,040532,2533.5732,N,07934.0807,W,1,9,1.7,11,M,,M,,*5D
05/31/2014	04:05:32.609	$GPGGA,040533,2533.5717,N,07934.0794,W,1,9,1.7,11,M,,M,,*5E
05/31/2014	04:05:33.616	$GPGGA,040534,2533.5703,N,07934.0781,W,1,9,1.7,11,M,,M,,*58
05/31/2014	04:05:34.606	$GPGGA,040535,2533.5687,N,07934.0767,W,1,9,1.7,11,M,,M,,*5C
05/31/2014	04:05:35.626	$GPGGA,040536,2533.5672,N,07934.0755,W,1,9,1.7,11,M,,M,,*54
05/31/2014	04:05:36.596	$GPGGA,040537,2533.5656,N,07934.0742,W,1,9,1.7,11,M,,M,,*55
05/31/2014	04:05:37.616	$GPGGA,040538,2533.5642,N,07934.0728,W,1,9,1.7,11,M,,M,,*53
05/31/2014	04:05:38.606	$GPGGA,040539,2533.5627,N,07934.0715,W,1,9,1.7,11,M,,M,,*5F
05/31/2014	04:05:39.616	$GPGGA,040540,2533.5612,N,07934.0703,W,1,9,1.7,11,M,,M,,*50
05/31/2014	04:05:40.647	$GPGGA,040541,2533.5598,N,07934.0689,W,1,9,1.7,11,M,,M,,*53
05/31/2014	04:05:41.597	$GPGGA,040542,2533.5582,N,07934.0677,W,1,9,1.7,11,M,,M,,*5A
05/31/2014	04:05:42.587	$GPGGA,040543,2533.5567,N,07934.0663,W,1,9,1.7,11,M,,M,,*55
05/31/2014	04:05:43.607	$GPGGA,040544,2533.5551,N,07934.0649,W,1,9,1.7,11,M,,M,,*5F
05/31/2014	04:05:44.588	$GPGGA,040545,2533.5536,N,07934.0637,W,1,9,1.7,11,M,,M,,*56
05/31/2014	04:05:45.627	$GPGGA,040546,2533.5522,N,07934.0622,W,1,9,1.7,11,M,,M,,*54
05/31/2014	04:05:46.577	$GPGGA,040547,2533.5508,N,07934.0608,W,1,9,1.7,11,M,,M,,*55
05/31/2014	04:05:47.596	$GPGGA,040548,2533.5492,N,07934.0595,W,1,9,1.7,11,M,,M,,*5F
05/31/2014	04:05:48.596	$GPGGA,040549,2533.5477,N,07934.0582,W,1,9,1.7,11,M,,M,,*53
05/31/2014	04:05:49.566	$GPGGA,040550,2533.5462,N,07934.0568,W,1,9,1.7,11,M,,M,,*5B
05/31/2014	04:05:50.686	$GPGGA,040551,2533.5447,N,07934.0554,W,1,9,1.7,11,M,,M,,*52
05/31/2014	04:05:51.596	$GPGGA,040552,2533.5432,N,07934.0541,W,1,9,1.7,11,M,,M,,*57
05/31/2014	04:05:52.686	$GPGGA,040553,2533.5417,N,07934.0527,W,1,9,1.7,11,M,,M,,*51
05/31/2014	04:05:53.576	$GPGGA,040554,2533.5403,N,07934.0513,W,1,9,1.7,11,M,,M,,*54
05/31/2014	04:05:54.696	$GPGGA,040555,2533.5387,N,07934.0499,W,1,9,1.7,12,M,,M,,*5E
05/31/2014	04:05:55.586	$GPGGA,040556,2533.5372,N,07934.0485,W,1,9,1.7,12,M,,M,,*5A
05/31/2014	04:05:56.666	$GPGGA,040557,2533.5358,N,07934.0471,W,1,9,1.7,12,M,,M,,*58
05/31/2014	04:05:57.667	$GPGGA,040558,2533.5342,N,07934.0457,W,1,9,1.7,12,M,,M,,*58
05/31/2014	04:05:58.687	$GPGGA,040559,2533.5327,N,07934.0444,W,1,9,1.7,12,M,,M,,*58
05/31/2014	04:05:59.697	$GPGGA,040600,2533.5313,N,07934.0429,W,1,9,1.7,12,M,,M,,*5B
05/31/2014	04:06:00.707	$GPGGA,040601,2533.5299,N,07934.0415,W,1,9,1.7,12,M,,M,,*56
05/31/2014	04:06:01.657	$GPGGA,040602,2533.5284,N,07934.0402,W,1,9,1.7,12,M,,M,,*5F
05/31/2014	04:06:02.657	$GPGGA,040603,2533.5269,N,07934.0388,W,1,9,1.7,12,M,,M,,*58
05/31/2014	04:06:03.667	$GPGGA,040604,2533.5255,N,07934.0373,W,1,9,1.7,12,M,,M,,*54
05/31/2014	04:06:04.657	$GPGGA,040605,2533.5239,N,07934.0359,W,1,9,1.7,12,M,,M,,*57
05/31/2014	04:06:05.636	$GPGGA,040606,2533.5224,N,07934.0345,W,1,9,1.7,12,M,,M,,*55
05/31/2014	04:06:06.656	$GPGGA,040607,2533.5209,N,07934.0331,W,1,9,1.7,12,M,,M,,*58
05/31/2014	04:06:07.656	$GPGGA,040608,2533.5194,N,07934.0317,W,1,9,1.7,12,M,,M,,*54
05/31/2014	04:06:08.656	$GPGGA,040609,2533.5179,N,07934.0304,W,1,9,1.7,12,M,,M,,*54
05/31/2014	04:06:09.636	$GPGGA,040610,2533.5165,N,07934.0289,W,1,9,1.7,12,M,,M,,*55
05/31/2014	04:06:10.656	$GPGGA,040611,2533.5150,N,07934.0276,W,1,9,1.7,12,M,,M,,*52
05/31/2014	04:06:11.646	$GPGGA,040612,2533.5135,N,07934.0263,W,1,9,1.7,12,M,,M,,*56
05/31/2014	04:06:12.646	$GPGGA,040613,2533.5121,N,07934.0250,W,1,9,1.7,12,M,,M,,*52
05/31/2014	04:06:13.636	$GPGGA,040614,2533.5107,N,07934.0236,W,1,9,1.7,12,M,,M,,*51
05/31/2014	04:06:14.616	$GPGGA,040615,2533.5092,N,07934.0223,W,1,9,1.7,12,M,,M,,*59
05/31/2014	04:06:15.637	$GPGGA,040616,2533.5076,N,07934.0210,W,1,9,1.7,12,M,,M,,*50
05/31/2014	04:06:16.617	$GPGGA,040617,2533.5061,N,07934.0197,W,1,9,1.7,12,M,,M,,*5B
05/31/2014	04:06:17.637	$GPGGA,040618,2533.5047,N,07934.0184,W,1,9,1.7,12,M,,M,,*52
05/31/2014	04:06:18.647	$GPGGA,040619,2533.5032,N,07934.0171,W,1,9,1.7,12,M,,M,,*5B
05/31/2014	04:06:19.627	$GPGGA,040620,2533.5017,N,07934.0157,W,1,9,1.7,12,M,,M,,*52
05/31/2014	04:06:20.607	$GPGGA,040621,2533.5003,N,07934.0145,W,1,9,1.7,12,M,,M,,*55
05/31/2014	04:06:21.610	$GPGGA,040622,2533.4987,N,07934.0132,W,1,9,1.7,12,M,,M,,*52
05/31/2014	04:06:22.616	$GPGGA,040623,2533.4973,N,07934.0119,W,1,9,1.7,12,M,,M,,*51
05/31/2014	04:06:23.626	$GPGGA,040624,2533.4959,N,07934.0105,W,1,9,1.7,12,M,,M,,*53
05/31/2014	04:06:24.636	$GPGGA,040625,2533.4944,N,07934.0093,W,1,9,1.7,12,M,,M,,*50
05/31/2014	04:06:25.606	$GPGGA,040626,2533.4930,N,07934.0080,W,1,9,1.7,12,M,,M,,*52
05/31/2014	04:06:26.606	$GPGGA,040627,2533.4915,N,07934.0066,W,1,9,1.7,12,M,,M,,*5C
05/31/2014	04:06:27.616	$GPGGA,040628,2533.4901,N,07934.0055,W,1,9,1.7,12,M,,M,,*56
05/31/2014	04:06:28.608	$GPGGA,040629,2533.4886,N,07934.0041,W,1,9,1.7,12,M,,M,,*5C
05/31/2014	04:06:29.587	$GPGGA,040630,2533.4870,N,07934.0028,W,1,9,1.7,12,M,,M,,*52
05/31/2014	04:06:30.616	$GPGGA,040631,2533.4856,N,07934.0016,W,1,9,1.7,12,M,,M,,*5A
05/31/2014	04:06:31.596	$GPGGA,040632,2533.4841,N,07934.0002,W,1,9,1.7,12,M,,M,,*5A
05/31/2014	04:06:32.608	$GPGGA,040633,2533.4826,N,07933.9989,W,1,9,1.7,12,M,,M,,*5E
05/31/2014	04:06:33.577	$GPGGA,040634,2533.4811,N,07933.9977,W,1,9,1.7,12,M,,M,,*5C
05/31/2014	04:06:34.597	$GPGGA,040635,2533.4796,N,07933.9964,W,1,9,1.7,12,M,,M,,*5F
05/31/2014	04:06:35.607	$GPGGA,040636,2533.4781,N,07933.9950,W,1,9,1.7,12,M,,M,,*5D
05/31/2014	04:06:36.577	$GPGGA,040637,2533.4767,N,07933.9937,W,1,9,1.7,12,M,,M,,*55
05/31/2014	04:06:37.607	$GPGGA,040638,2533.4751,N,07933.9924,W,1,9,1.7,12,M,,M,,*5D
05/31/2014	04:06:38.723	$GPGGA,040639,2533.4736,N,07933.9910,W,1,9,1.7,12,M,,M,,*5A
05/31/2014	04:06:39.757	$GPGGA,040640,2533.4720,N,07933.9897,W,1,9,1.7,12,M,,M,,*5D
05/31/2014	04:06:40.716	$GPGGA,040641,2533.4706,N,07933.9883,W,1,9,1.7,12,M,,M,,*5D
05/31/2014	04:06:41.666	$GPGGA,040642,2533.4691,N,07933.9870,W,1,9,1.7,12,M,,M,,*5D
05/31/2014	04:06:42.586	$GPGGA,040643,2533.4675,N,07933.9856,W,1,9,1.7,12,M,,M,,*52
05/31/2014	04:06:43.666	$GPGGA,040644,2533.4660,N,07933.9843,W,1,9,1.7,12,M,,M,,*55
05/31/2014	04:06:44.576	$GPGGA,040645,2533.4645,N,07933.9829,W,1,9,1.7,12,M,,M,,*5F
05/31/2014	04:06:45.566	$GPGGA,040646,2533.4630,N,07933.9816,W,1,9,1.7,12,M,,M,,*52
05/31/2014	04:06:46.736	$GPGGA,040647,2533.4614,N,07933.9803,W,1,9,1.7,12,M,,M,,*51
05/31/2014	04:06:47.746	$GPGGA,040648,2533.4601,N,07933.9789,W,1,9,1.7,12,M,,M,,*57
05/31/2014	04:06:48.686	$GPGGA,040649,2533.4584,N,07933.9777,W,1,9,1.7,12,M,,M,,*59
05/31/2014	04:06:49.647	$GPGGA,040650,2533.4570,N,07933.9763,W,1,9,1.7,12,M,,M,,*5F
05/31/2014	04:06:50.687	$GPGGA,040651,2533.4555,N,07933.9750,W,1,9,1.7,12,M,,M,,*59
05/31/2014	04:06:51.737	$GPGGA,040652,2533.4539,N,07933.9737,W,1,9,1.7,12,M,,M,,*51
05/31/2014	04:06:52.637	$GPGGA,040653,2533.4525,N,07933.9724,W,1,9,1.7,12,M,,M,,*5F
05/31/2014	04:06:53.708	$GPGGA,040654,2533.4508,N,07933.9710,W,1,9,1.7,12,M,,M,,*50
05/31/2014	04:06:54.677	$GPGGA,040655,2533.4494,N,07933.9697,W,1,9,1.7,12,M,,M,,*5B
05/31/2014	04:06:55.737	$GPGGA,040656,2533.4478,N,07933.9683,W,1,9,1.7,12,M,,M,,*5F
05/31/2014	04:06:56.667	$GPGGA,040657,2533.4464,N,07933.9670,W,1,9,1.7,12,M,,M,,*5F
05/31/2014	04:06:57.706	$GPGGA,040658,2533.4449,N,07933.9656,W,1,9,1.7,12,M,,M,,*5B
05/31/2014	04:06:58.636	$GPGGA,040659,2533.4435,N,07933.9643,W,1,9,1.7,12,M,,M,,*55
05/31/2014	04:06:59.726	$GPGGA,040700,2533.4419,N,07933.9629,W,1,9,1.7,12,M,,M,,*5A
05/31/2014	04:07:00.666	$GPGGA,040701,2533.4404,N,07933.9616,W,1,9,1.7,12,M,,M,,*5B
05/31/2014	04:07:01.696	$GPGGA,040702,2533.4389,N,07933.9602,W,1,9,1.7,12,M,,M,,*5F
05/31/2014	04:07:02.676	$GPGGA,040703,2533.4374,N,07933.9588,W,1,9,1.7,12,M,,M,,*5D
05/31/2014	04:07:03.686	$GPGGA,040704,2533.4359,N,07933.9574,W,1,9,1.7,12,M,,M,,*56
05/31/2014	04:07:04.666	$GPGGA,040705,2533.4343,N,07933.9561,W,1,9,1.7,12,M,,M,,*58
05/31/2014	04:07:05.676	$GPGGA,040706,2533.4330,N,07933.9546,W,1,9,1.7,12,M,,M,,*5A
05/31/2014	04:07:06.616	$GPGGA,040707,2533.4315,N,07933.9532,W,1,9,1.7,12,M,,M,,*5F
05/31/2014	04:07:07.687	$GPGGA,040708,2533.4299,N,07933.9519,W,1,9,1.7,12,M,,M,,*5C
05/31/2014	04:07:08.667	$GPGGA,040709,2533.4285,N,07933.9504,W,1,9,1.7,12,M,,M,,*5C
05/31/2014	04:07:09.607	$GPGGA,040710,2533.4272,N,07933.9490,W,1,9,1.7,12,M,,M,,*50
05/31/2014	04:07:10.697	$GPGGA,040711,2533.4256,N,07933.9476,W,1,9,1.7,12,M,,M,,*5F
05/31/2014	04:07:11.677	$GPGGA,040712,2533.4242,N,07933.9462,W,1,9,1.7,12,M,,M,,*5C
05/31/2014	04:07:12.597	$GPGGA,040713,2533.4229,N,07933.9448,W,1,9,1.7,12,M,,M,,*58
05/31/2014	04:07:13.597	$GPGGA,040714,2533.4213,N,07933.9433,W,1,9,1.7,12,M,,M,,*5A
05/31/2014	04:07:14.677	$GPGGA,040715,2533.4200,N,07933.9419,W,1,9,1.7,12,M,,M,,*51
05/31/2014	04:07:15.676	$GPGGA,040716,2533.4185,N,07933.9404,W,1,9,1.7,12,M,,M,,*50
05/31/2014	04:07:16.596	$GPGGA,040717,2533.4169,N,07933.9390,W,1,9,1.7,12,M,,M,,*59
05/31/2014	04:07:17.656	$GPGGA,040718,2533.4154,N,07933.9376,W,1,9,1.7,12,M,,M,,*50
05/31/2014	04:07:18.716	$GPGGA,040719,2533.4140,N,07933.9361,W,1,9,1.7,12,M,,M,,*52
05/31/2014	04:07:19.656	$GPGGA,040720,2533.4126,N,07933.9348,W,1,9,1.7,12,M,,M,,*53
05/31/2014	04:07:20.696	$GPGGA,040721,2533.4110,N,07933.9334,W,1,9,1.7,12,M,,M,,*5C
05/31/2014	04:07:21.646	$GPGGA,040722,2533.4097,N,07933.9320,W,1,9,1.7,12,M,,M,,*54
05/31/2014	04:07:22.706	$GPGGA,040723,2533.4081,N,07933.9306,W,1,9,1.7,12,M,,M,,*56
05/31/2014	04:07:23.666	$GPGGA,040724,2533.4066,N,07933.9293,W,1,9,1.7,12,M,,M,,*55
05/31/2014	04:07:24.608	$GPGGA,040725,2533.4052,N,07933.9278,W,1,9,1.7,12,M,,M,,*56
05/31/2014	04:07:25.566	$GPGGA,040726,2533.4037,N,07933.9265,W,1,9,1.7,12,M,,M,,*5A
05/31/2014	04:07:26.626	$GPGGA,040727,2533.4023,N,07933.9251,W,1,9,1.7,12,M,,M,,*59
05/31/2014	04:07:27.696	$GPGGA,040728,2533.4007,N,07933.9239,W,1,9,1.7,12,M,,M,,*5E
05/31/2014	04:07:28.586	$GPGGA,040729,2533.3994,N,07933.9225,W,1,9,1.7,12,M,,M,,*56
05/31/2014	04:07:29.656	$GPGGA,040730,2533.3977,N,07933.9212,W,1,9,1.7,12,M,,M,,*57
05/31/2014	04:07:30.696	$GPGGA,040731,2533.3962,N,07933.9199,W,1,9,1.7,12,M,,M,,*52
05/31/2014	04:07:31.686	$GPGGA,040732,2533.3947,N,07933.9186,W,1,9,1.7,12,M,,M,,*58
05/31/2014	04:07:32.665	$GPGGA,040733,2533.3931,N,07933.9173,W,1,9,1.7,12,M,,M,,*52
05/31/2014	04:07:33.655	$GPGGA,040734,2533.3918,N,07933.9160,W,1,9,1.7,12,M,,M,,*5C
05/31/2014	04:07:34.685	$GPGGA,040735,2533.3902,N,07933.9147,W,1,9,1.7,12,M,,M,,*53
05/31/2014	04:07:35.665	$GPGGA,040736,2533.3886,N,07933.9134,W,1,9,1.7,13,M,,M,,*58
05/31/2014	04:07:36.655	$GPGGA,040737,2533.3871,N,07933.9121,W,1,9,1.7,13,M,,M,,*55
05/31/2014	04:07:37.635	$GPGGA,040738,2533.3857,N,07933.9108,W,1,9,1.7,13,M,,M,,*55
05/31/2014	04:07:38.675	$GPGGA,040739,2533.3842,N,07933.9095,W,1,9,1.7,13,M,,M,,*55
05/31/2014	04:07:39.655	$GPGGA,040740,2533.3826,N,07933.9082,W,1,9,1.7,13,M,,M,,*5F
05/31/2014	04:07:40.665	$GPGGA,040741,2533.3811,N,07933.9069,W,1,9,1.7,13,M,,M,,*5F
05/31/2014	04:07:41.635	$GPGGA,040742,2533.3796,N,07933.9055,W,1,9,1.7,13,M,,M,,*53
05/31/2014	04:07:42.646	$GPGGA,040743,2533.3781,N,07933.9043,W,1,9,1.7,13,M,,M,,*53
05/31/2014	04:07:43.656	$GPGGA,040744,2533.3766,N,07933.9029,W,1,9,1.7,13,M,,M,,*51
05/31/2014	04:07:44.626	$GPGGA,040745,2533.3752,N,07933.9015,W,1,9,1.7,13,M,,M,,*58
05/31/2014	04:07:45.636	$GPGGA,040746,2533.3735,N,07933.9002,W,1,9,1.7,13,M,,M,,*5C
05/31/2014	04:07:46.646	$GPGGA,040747,2533.3735,N,07933.9002,W,1,9,1.7,13,M,,M,,*5D
05/31/2014	04:07:47.626	$GPGGA,040748,2533.3706,N,07933.8975,W,1,9,1.7,13,M,,M,,*5A
05/31/2014	04:07:48.647	$GPGGA,040749,2533.3690,N,07933.8961,W,1,9,1.7,13,M,,M,,*50
05/31/2014	04:07:49.626	$GPGGA,040750,2533.3674,N,07933.8949,W,1,9,1.7,13,M,,M,,*58
05/31/2014	04:07:50.625	$GPGGA,040751,2533.3660,N,07933.8934,W,1,9,1.7,13,M,,M,,*56
05/31/2014	04:07:51.665	$GPGGA,040752,2533.3645,N,07933.8921,W,1,9,1.7,13,M,,M,,*56
05/31/2014	04:07:52.635	$GPGGA,040753,2533.3629,N,07933.8908,W,1,9,1.7,13,M,,M,,*56
05/31/2014	04:07:53.615	$GPGGA,040754,2533.3615,N,07933.8894,W,1,9,1.7,13,M,,M,,*5A
05/31/2014	04:07:54.625	$GPGGA,040755,2533.3600,N,07933.8881,W,1,9,1.7,13,M,,M,,*5B
05/31/2014	04:07:55.635	$GPGGA,040756,2533.3583,N,07933.8867,W,1,9,1.7,13,M,,M,,*58
05/31/2014	04:07:56.595	$GPGGA,040757,2533.3568,N,07933.8853,W,1,9,1.7,13,M,,M,,*5B
05/31/2014	04:07:57.635	$GPGGA,040758,2533.3568,N,07933.8853,W,1,9,1.7,13,M,,M,,*54
05/31/2014	04:07:58.635	$GPGGA,040759,2533.3537,N,07933.8826,W,1,9,1.7,13,M,,M,,*5D
05/31/2014	04:07:59.645	$GPGGA,040800,2533.3522,N,07933.8812,W,1,9,1.7,13,M,,M,,*5D
05/31/2014	04:08:00.596	$GPGGA,040801,2533.3507,N,07933.8798,W,1,9,1.7,13,M,,M,,*56
05/31/2014	04:08:01.596	$GPGGA,040802,2533.3492,N,07933.8784,W,1,9,1.7,13,M,,M,,*55
05/31/2014	04:08:02.626	$GPGGA,040803,2533.3477,N,07933.8771,W,1,9,1.7,13,M,,M,,*55
05/31/2014	04:08:03.606	$GPGGA,040804,2533.3463,N,07933.8757,W,1,9,1.7,13,M,,M,,*53
05/31/2014	04:08:04.606	$GPGGA,040805,2533.3447,N,07933.8743,W,1,9,1.7,13,M,,M,,*51
05/31/2014	04:08:05.706	$GPGGA,040806,2533.3432,N,07933.8731,W,1,9,1.7,13,M,,M,,*55
05/31/2014	04:08:06.606	$GPGGA,040807,2533.3432,N,07933.8731,W,1,9,1.7,13,M,,M,,*54
05/31/2014	04:08:07.635	$GPGGA,040808,2533.3402,N,07933.8703,W,1,9,1.7,13,M,,M,,*59
05/31/2014	04:08:08.685	$GPGGA,040809,2533.3387,N,07933.8689,W,1,9,1.7,13,M,,M,,*51
05/31/2014	04:08:09.575	$GPGGA,040810,2533.3387,N,07933.8689,W,1,9,1.7,13,M,,M,,*59
05/31/2014	04:08:10.695	$GPGGA,040811,2533.3356,N,07933.8662,W,1,9,1.7,13,M,,M,,*51
05/31/2014	04:08:11.625	$GPGGA,040812,2533.3342,N,07933.8648,W,1,9,1.7,13,M,,M,,*5F
05/31/2014	04:08:12.575	$GPGGA,040813,2533.3327,N,07933.8634,W,1,9,1.7,13,M,,M,,*56
05/31/2014	04:08:13.665	$GPGGA,040814,2533.3313,N,07933.8622,W,1,9,1.8,13,M,,M,,*5E
05/31/2014	04:08:14.585	$GPGGA,040815,2533.3299,N,07933.8609,W,1,9,1.7,13,M,,M,,*5A
05/31/2014	04:08:15.695	$GPGGA,040816,2533.3286,N,07933.8595,W,1,9,1.7,13,M,,M,,*51
05/31/2014	04:08:16.705	$GPGGA,040817,2533.3271,N,07933.8582,W,1,9,1.7,13,M,,M,,*5E
05/31/2014	04:08:17.576	$GPGGA,040818,2533.3271,N,07933.8582,W,1,9,1.7,13,M,,M,,*51
05/31/2014	04:08:18.656	$GPGGA,040819,2533.3242,N,07933.8554,W,1,9,1.7,13,M,,M,,*5B
05/31/2014	04:08:19.576	$GPGGA,040820,2533.3242,N,07933.8554,W,1,9,1.7,13,M,,M,,*51
05/31/2014	04:08:20.646	$GPGGA,040821,2533.3214,N,07933.8528,W,1,9,1.7,13,M,,M,,*58
05/31/2014	04:08:21.656	$GPGGA,040822,2533.3199,N,07933.8514,W,1,9,1.7,13,M,,M,,*52
05/31/2014	04:08:22.646	$GPGGA,040823,2533.3185,N,07933.8500,W,1,9,1.7,13,M,,M,,*5B
05/31/2014	04:08:23.657	$GPGGA,040824,2533.3170,N,07933.8488,W,1,9,1.7,13,M,,M,,*57
05/31/2014	04:08:24.676	$GPGGA,040825,2533.3156,N,07933.8474,W,1,9,1.7,13,M,,M,,*51
05/31/2014	04:08:25.635	$GPGGA,040826,2533.3141,N,07933.8462,W,1,9,1.7,13,M,,M,,*53
05/31/2014	04:08:26.635	$GPGGA,040827,2533.3127,N,07933.8448,W,1,9,1.7,13,M,,M,,*5A
05/31/2014	04:08:27.655	$GPGGA,040828,2533.3112,N,07933.8435,W,1,9,1.7,13,M,,M,,*59
05/31/2014	04:08:28.655	$GPGGA,040829,2533.3096,N,07933.8422,W,1,9,1.7,13,M,,M,,*53
05/31/2014	04:08:29.635	$GPGGA,040830,2533.3082,N,07933.8409,W,1,9,1.7,13,M,,M,,*57
05/31/2014	04:08:30.655	$GPGGA,040831,2533.3069,N,07933.8395,W,1,9,1.7,13,M,,M,,*51
05/31/2014	04:08:31.635	$GPGGA,040832,2533.3051,N,07933.8382,W,1,9,1.7,13,M,,M,,*5F
05/31/2014	04:08:32.645	$GPGGA,040833,2533.3037,N,07933.8369,W,1,9,1.7,13,M,,M,,*5B
05/31/2014	04:08:33.625	$GPGGA,040834,2533.3023,N,07933.8354,W,1,9,1.7,13,M,,M,,*57
05/31/2014	04:08:34.645	$GPGGA,040835,2533.3008,N,07933.8342,W,1,9,1.7,13,M,,M,,*58
05/31/2014	04:08:35.636	$GPGGA,040836,2533.2993,N,07933.8330,W,1,9,1.7,13,M,,M,,*54
05/31/2014	04:08:36.646	$GPGGA,040837,2533.2979,N,07933.8316,W,1,9,1.7,13,M,,M,,*55
05/31/2014	04:08:37.606	$GPGGA,040838,2533.2964,N,07933.8303,W,1,9,1.7,13,M,,M,,*52
05/31/2014	04:08:38.626	$GPGGA,040839,2533.2948,N,07933.8291,W,1,9,1.7,13,M,,M,,*57
05/31/2014	04:08:39.626	$GPGGA,040840,2533.2934,N,07933.8279,W,1,9,1.7,13,M,,M,,*54
05/31/2014	04:08:40.616	$GPGGA,040841,2533.2921,N,07933.8265,W,1,9,1.7,13,M,,M,,*5C
05/31/2014	04:08:41.616	$GPGGA,040842,2533.2904,N,07933.8251,W,1,9,1.7,13,M,,M,,*5F
05/31/2014	04:08:42.605	$GPGGA,040843,2533.2890,N,07933.8239,W,1,9,1.7,13,M,,M,,*5C
05/31/2014	04:08:43.625	$GPGGA,040844,2533.2874,N,07933.8226,W,1,9,1.7,13,M,,M,,*5F
05/31/2014	04:08:44.605	$GPGGA,040845,2533.2860,N,07933.8213,W,1,9,1.7,13,M,,M,,*5D
05/31/2014	04:08:45.605	$GPGGA,040846,2533.2845,N,07933.8200,W,1,9,1.7,13,M,,M,,*5B
05/31/2014	04:08:46.605	$GPGGA,040847,2533.2831,N,07933.8187,W,1,9,1.7,13,M,,M,,*55
05/31/2014	04:08:47.615	$GPGGA,040848,2533.2816,N,07933.8174,W,1,9,1.7,13,M,,M,,*53
05/31/2014	04:08:48.595	$GPGGA,040849,2533.2800,N,07933.8161,W,1,9,1.7,13,M,,M,,*51
05/31/2014	04:08:49.605	$GPGGA,040850,2533.2785,N,07933.8148,W,1,9,1.7,13,M,,M,,*50
05/31/2014	04:08:50.625	$GPGGA,040851,2533.2770,N,07933.8135,W,1,9,1.7,13,M,,M,,*51
05/31/2014	04:08:51.595	$GPGGA,040852,2533.2755,N,07933.8121,W,1,9,1.7,13,M,,M,,*50
05/31/2014	04:08:52.596	$GPGGA,040853,2533.2740,N,07933.8108,W,1,9,1.7,13,M,,M,,*5E
05/31/2014	04:08:53.596	$GPGGA,040854,2533.2726,N,07933.8094,W,1,9,1.7,13,M,,M,,*5D
05/31/2014	04:08:54.576	$GPGGA,040855,2533.2710,N,07933.8081,W,1,9,1.7,13,M,,M,,*5D
05/31/2014	04:08:55.706	$GPGGA,040856,2533.2694,N,07933.8067,W,1,9,1.7,13,M,,M,,*5B
05/31/2014	04:08:56.576	$GPGGA,040857,2533.2680,N,07933.8054,W,1,9,1.7,12,M,,M,,*5E
05/31/2014	04:08:57.686	$GPGGA,040858,2533.2666,N,07933.8041,W,1,9,1.7,12,M,,M,,*5D
05/31/2014	04:08:58.686	$GPGGA,040859,2533.2650,N,07933.8026,W,1,9,1.7,12,M,,M,,*58
05/31/2014	04:08:59.716	$GPGGA,040900,2533.2636,N,07933.8014,W,1,9,1.7,12,M,,M,,*54
05/31/2014	04:09:00.565	$GPGGA,040901,2533.2621,N,07933.8000,W,1,9,1.7,12,M,,M,,*56
05/31/2014	04:09:01.585	$GPGGA,040902,2533.2607,N,07933.7985,W,1,9,1.7,12,M,,M,,*5A
05/31/2014	04:09:02.675	$GPGGA,040903,2533.2592,N,07933.7972,W,1,9,1.7,12,M,,M,,*5C
05/31/2014	04:09:03.585	$GPGGA,040904,2533.2576,N,07933.7958,W,1,9,1.7,12,M,,M,,*59
05/31/2014	04:09:04.555	$GPGGA,040905,2533.2562,N,07933.7944,W,1,9,1.7,12,M,,M,,*50
05/31/2014	04:09:05.555	$GPGGA,040906,2533.2547,N,07933.7930,W,1,9,1.7,12,M,,M,,*57
05/31/2014	04:09:06.685	$GPGGA,040907,2533.2532,N,07933.7916,W,1,9,1.7,12,M,,M,,*50
05/31/2014	04:09:07.675	$GPGGA,040908,2533.2518,N,07933.7903,W,1,9,1.7,12,M,,M,,*53
05/31/2014	04:09:08.675	$GPGGA,040909,2533.2503,N,07933.7889,W,1,9,1.7,12,M,,M,,*5B
05/31/2014	04:09:09.655	$GPGGA,040910,2533.2488,N,07933.7874,W,1,9,1.7,12,M,,M,,*53
05/31/2014	04:09:10.646	$GPGGA,040911,2533.2474,N,07933.7860,W,1,9,1.7,12,M,,M,,*54
05/31/2014	04:09:11.666	$GPGGA,040912,2533.2458,N,07933.7847,W,1,9,1.7,12,M,,M,,*5C
05/31/2014	04:09:12.676	$GPGGA,040913,2533.2444,N,07933.7832,W,1,9,1.7,12,M,,M,,*52
05/31/2014	04:09:13.636	$GPGGA,040914,2533.2430,N,07933.7818,W,1,9,1.7,12,M,,M,,*5E
05/31/2014	04:09:14.656	$GPGGA,040915,2533.2415,N,07933.7805,W,1,9,1.7,12,M,,M,,*54
05/31/2014	04:09:15.657	$GPGGA,040916,2533.2399,N,07933.7790,W,1,9,1.7,12,M,,M,,*57
05/31/2014	04:09:16.646	$GPGGA,040917,2533.2384,N,07933.7778,W,1,9,1.7,12,M,,M,,*5C
05/31/2014	04:09:17.635	$GPGGA,040918,2533.2370,N,07933.7764,W,1,9,1.7,12,M,,M,,*55
05/31/2014	04:09:18.635	$GPGGA,040919,2533.2355,N,07933.7750,W,1,9,1.7,12,M,,M,,*54
05/31/2014	04:09:19.645	$GPGGA,040920,2533.2340,N,07933.7738,W,1,9,1.7,12,M,,M,,*54
05/31/2014	04:09:20.655	$GPGGA,040921,2533.2325,N,07933.7724,W,1,9,1.7,12,M,,M,,*5B
05/31/2014	04:09:21.615	$GPGGA,040922,2533.2310,N,07933.7710,W,1,9,1.7,12,M,,M,,*59
05/31/2014	04:09:22.645	$GPGGA,040923,2533.2296,N,07933.7697,W,1,9,1.7,12,M,,M,,*59
05/31/2014	04:09:23.625	$GPGGA,040924,2533.2280,N,07933.7684,W,1,9,1.7,12,M,,M,,*5B
05/31/2014	04:09:24.645	$GPGGA,040925,2533.2264,N,07933.7670,W,1,9,1.7,12,M,,M,,*5B
05/31/2014	04:09:25.625	$GPGGA,040926,2533.2249,N,07933.7657,W,1,9,1.7,12,M,,M,,*52
05/31/2014	04:09:26.635	$GPGGA,040927,2533.2233,N,07933.7643,W,1,9,1.7,12,M,,M,,*5B
05/31/2014	04:09:27.626	$GPGGA,040928,2533.2218,N,07933.7630,W,1,9,1.7,12,M,,M,,*59
05/31/2014	04:09:28.646	$GPGGA,040929,2533.2203,N,07933.7617,W,1,9,1.7,12,M,,M,,*57
05/31/2014	04:09:29.626	$GPGGA,040930,2533.2188,N,07933.7604,W,1,9,1.7,12,M,,M,,*5D
05/31/2014	04:09:30.636	$GPGGA,040931,2533.2173,N,07933.7591,W,1,9,1.7,12,M,,M,,*57
05/31/2014	04:09:31.616	$GPGGA,040932,2533.2159,N,07933.7578,W,1,9,1.7,12,M,,M,,*5B
05/31/2014	04:09:32.596	$GPGGA,040933,2533.2143,N,07933.7565,W,1,9,1.7,12,M,,M,,*5D
05/31/2014	04:09:33.606	$GPGGA,040934,2533.2127,N,07933.7552,W,1,9,1.7,12,M,,M,,*5C
05/31/2014	04:09:34.616	$GPGGA,040935,2533.2112,N,07933.7538,W,1,9,1.7,12,M,,M,,*57
05/31/2014	04:09:35.615	$GPGGA,040936,2533.2095,N,07933.7525,W,1,9,1.7,12,M,,M,,*56
05/31/2014	04:09:36.586	$GPGGA,040937,2533.2080,N,07933.7512,W,1,9,1.7,12,M,,M,,*57
05/31/2014	04:09:37.595	$GPGGA,040938,2533.2065,N,07933.7499,W,1,9,1.7,12,M,,M,,*51
05/31/2014	04:09:38.705	$GPGGA,040939,2533.2050,N,07933.7485,W,1,9,1.7,12,M,,M,,*5B
05/31/2014	04:09:39.725	$GPGGA,040940,2533.2036,N,07933.7472,W,1,9,1.7,12,M,,M,,*5D
05/31/2014	04:09:40.695	$GPGGA,040941,2533.2019,N,07933.7459,W,1,9,1.7,12,M,,M,,*58
05/31/2014	04:09:41.598	$GPGGA,040942,2533.2004,N,07933.7446,W,1,9,1.7,12,M,,M,,*59
05/31/2014	04:09:42.575	$GPGGA,040943,2533.1990,N,07933.7431,W,1,9,1.7,12,M,,M,,*5F
05/31/2014	04:09:43.715	$GPGGA,040944,2533.1974,N,07933.7419,W,1,9,1.7,12,M,,M,,*58
05/31/2014	04:09:44.675	$GPGGA,040945,2533.1958,N,07933.7406,W,1,9,1.7,12,M,,M,,*59
05/31/2014	04:09:45.586	$GPGGA,040946,2533.1943,N,07933.7392,W,1,9,1.7,12,M,,M,,*5A
05/31/2014	04:09:46.566	$GPGGA,040947,2533.1928,N,07933.7379,W,1,9,1.7,12,M,,M,,*53
05/31/2014	04:09:47.596	$GPGGA,040948,2533.1913,N,07933.7365,W,1,9,1.7,12,M,,M,,*59
05/31/2014	04:09:48.677	$GPGGA,040949,2533.1897,N,07933.7353,W,1,9,1.7,12,M,,M,,*50
05/31/2014	04:09:49.566	$GPGGA,040950,2533.1882,N,07933.7339,W,1,9,1.7,12,M,,M,,*50
05/31/2014	04:09:50.556	$GPGGA,040951,2533.1867,N,07933.7325,W,1,9,1.7,12,M,,M,,*57
05/31/2014	04:09:51.586	$GPGGA,040952,2533.1852,N,07933.7312,W,1,9,1.7,12,M,,M,,*56
05/31/2014	04:09:52.675	$GPGGA,040953,2533.1835,N,07933.7299,W,1,9,1.7,12,M,,M,,*54
05/31/2014	04:09:53.565	$GPGGA,040954,2533.1821,N,07933.7285,W,1,9,1.7,12,M,,M,,*5B
05/31/2014	04:09:54.655	$GPGGA,040955,2533.1806,N,07933.7271,W,1,9,1.7,12,M,,M,,*54
05/31/2014	04:09:55.575	$GPGGA,040956,2533.1790,N,07933.7259,W,1,9,1.7,12,M,,M,,*5D
05/31/2014	04:09:56.665	$GPGGA,040957,2533.1776,N,07933.7245,W,1,9,1.7,12,M,,M,,*59
05/31/2014	04:09:57.655	$GPGGA,040958,2533.1761,N,07933.7231,W,1,9,1.7,12,M,,M,,*53
05/31/2014	04:09:58.675	$GPGGA,040959,2533.1745,N,07933.7217,W,1,9,1.7,12,M,,M,,*50
05/31/2014	04:09:59.686	$GPGGA,041000,2533.1730,N,07933.7204,W,1,9,1.7,12,M,,M,,*54
05/31/2014	04:10:00.675	$GPGGA,041001,2533.1714,N,07933.7190,W,1,9,1.7,12,M,,M,,*5D
05/31/2014	04:10:01.635	$GPGGA,041002,2533.1700,N,07933.7176,W,1,9,1.7,12,M,,M,,*53
05/31/2014	04:10:02.636	$GPGGA,041003,2533.1684,N,07933.7162,W,1,9,1.7,12,M,,M,,*5A
05/31/2014	04:10:03.646	$GPGGA,041004,2533.1669,N,07933.7148,W,1,9,1.7,12,M,,M,,*56
05/31/2014	04:10:04.656	$GPGGA,041005,2533.1654,N,07933.7134,W,1,9,1.7,12,M,,M,,*52
05/31/2014	04:10:05.636	$GPGGA,041006,2533.1639,N,07933.7121,W,1,9,1.7,12,M,,M,,*5E
05/31/2014	04:10:06.656	$GPGGA,041007,2533.1625,N,07933.7107,W,1,9,1.7,12,M,,M,,*56
05/31/2014	04:10:07.637	$GPGGA,041008,2533.1610,N,07933.7093,W,1,9,1.7,12,M,,M,,*53
05/31/2014	04:10:08.646	$GPGGA,041009,2533.1595,N,07933.7080,W,1,9,1.7,12,M,,M,,*5E
05/31/2014	04:10:09.626	$GPGGA,041010,2533.1581,N,07933.7066,W,1,9,1.7,12,M,,M,,*5B
05/31/2014	04:10:10.615	$GPGGA,041011,2533.1566,N,07933.7052,W,1,9,1.7,12,M,,M,,*54
05/31/2014	04:10:11.635	$GPGGA,041012,2533.1549,N,07933.7039,W,1,9,1.7,12,M,,M,,*57
05/31/2014	04:10:12.615	$GPGGA,041013,2533.1535,N,07933.7025,W,1,9,1.7,12,M,,M,,*50
05/31/2014	04:10:13.615	$GPGGA,041014,2533.1520,N,07933.7011,W,1,9,1.7,12,M,,M,,*54
05/31/2014	04:10:14.605	$GPGGA,041015,2533.1505,N,07933.6998,W,1,9,1.7,12,M,,M,,*5B
05/31/2014	04:10:15.625	$GPGGA,041016,2533.1490,N,07933.6985,W,1,9,1.7,12,M,,M,,*59
05/31/2014	04:10:16.635	$GPGGA,041017,2533.1476,N,07933.6970,W,1,9,1.7,12,M,,M,,*5A
05/31/2014	04:10:17.615	$GPGGA,041018,2533.1461,N,07933.6956,W,1,9,1.7,12,M,,M,,*57
05/31/2014	04:10:18.646	$GPGGA,041019,2533.1447,N,07933.6943,W,1,9,1.7,12,M,,M,,*56
05/31/2014	04:10:19.625	$GPGGA,041020,2533.1431,N,07933.6930,W,1,9,1.7,12,M,,M,,*59
05/31/2014	04:10:20.646	$GPGGA,041021,2533.1416,N,07933.6917,W,1,9,1.7,12,M,,M,,*58
05/31/2014	04:10:21.626	$GPGGA,041022,2533.1401,N,07933.6902,W,1,9,1.7,12,M,,M,,*59
05/31/2014	04:10:22.616	$GPGGA,041023,2533.1386,N,07933.6889,W,1,9,1.7,12,M,,M,,*52
05/31/2014	04:10:23.616	$GPGGA,041024,2533.1371,N,07933.6876,W,1,9,1.7,12,M,,M,,*5D
05/31/2014	04:10:24.597	$GPGGA,041025,2533.1357,N,07933.6862,W,1,9,1.7,12,M,,M,,*5D
05/31/2014	04:10:25.606	$GPGGA,041026,2533.1340,N,07933.6848,W,1,9,1.7,12,M,,M,,*50
05/31/2014	04:10:26.626	$GPGGA,041027,2533.1325,N,07933.6835,W,1,9,1.7,12,M,,M,,*58
05/31/2014	04:10:27.595	$GPGGA,041028,2533.1311,N,07933.6821,W,1,9,1.7,12,M,,M,,*55
05/31/2014	04:10:28.615	$GPGGA,041029,2533.1295,N,07933.6807,W,1,9,1.7,12,M,,M,,*5D
05/31/2014	04:10:29.595	$GPGGA,041030,2533.1281,N,07933.6793,W,1,9,1.7,12,M,,M,,*52
05/31/2014	04:10:30.695	$GPGGA,041031,2533.1265,N,07933.6780,W,1,9,1.7,12,M,,M,,*5B
05/31/2014	04:10:31.615	$GPGGA,041032,2533.1250,N,07933.6765,W,1,9,1.7,12,M,,M,,*55
05/31/2014	04:10:32.595	$GPGGA,041033,2533.1235,N,07933.6751,W,1,9,1.7,12,M,,M,,*50
05/31/2014	04:10:33.565	$GPGGA,041034,2533.1219,N,07933.6738,W,1,9,1.7,12,M,,M,,*56
05/31/2014	04:10:34.575	$GPGGA,041035,2533.1205,N,07933.6724,W,1,9,1.7,12,M,,M,,*57
05/31/2014	04:10:35.705	$GPGGA,041036,2533.1190,N,07933.6710,W,1,9,1.7,12,M,,M,,*5C
05/31/2014	04:10:36.705	$GPGGA,041037,2533.1176,N,07933.6696,W,1,9,1.7,12,M,,M,,*5A
05/31/2014	04:10:37.587	$GPGGA,041038,2533.1160,N,07933.6682,W,1,9,1.7,12,M,,M,,*57
05/31/2014	04:10:38.696	$GPGGA,041039,2533.1145,N,07933.6668,W,1,9,1.7,12,M,,M,,*55
05/31/2014	04:10:39.576	$GPGGA,041040,2533.1130,N,07933.6654,W,1,9,1.7,12,M,,M,,*56
05/31/2014	04:10:40.696	$GPGGA,041041,2533.1115,N,07933.6640,W,1,9,1.7,12,M,,M,,*55
05/31/2014	04:10:41.566	$GPGGA,041042,2533.1100,N,07933.6625,W,1,9,1.7,12,M,,M,,*51
05/31/2014	04:10:42.666	$GPGGA,041043,2533.1086,N,07933.6613,W,1,9,1.7,12,M,,M,,*5A
05/31/2014	04:10:43.666	$GPGGA,041044,2533.1070,N,07933.6599,W,1,9,1.7,12,M,,M,,*55
05/31/2014	04:10:44.646	$GPGGA,041045,2533.1055,N,07933.6585,W,1,9,1.7,12,M,,M,,*5E
05/31/2014	04:10:45.645	$GPGGA,041046,2533.1040,N,07933.6572,W,1,9,1.7,12,M,,M,,*51
05/31/2014	04:10:46.695	$GPGGA,041047,2533.1024,N,07933.6558,W,1,9,1.7,12,M,,M,,*5A
05/31/2014	04:10:47.655	$GPGGA,041048,2533.1010,N,07933.6544,W,1,9,1.7,12,M,,M,,*5F
05/31/2014	04:10:48.665	$GPGGA,041049,2533.0994,N,07933.6531,W,1,9,1.7,12,M,,M,,*58
05/31/2014	04:10:49.645	$GPGGA,041050,2533.0979,N,07933.6517,W,1,9,1.7,12,M,,M,,*57
05/31/2014	04:10:50.655	$GPGGA,041051,2533.0964,N,07933.6504,W,1,9,1.7,12,M,,M,,*58
05/31/2014	04:10:51.655	$GPGGA,041052,2533.0949,N,07933.6490,W,1,9,1.7,12,M,,M,,*58
05/31/2014	04:10:52.675	$GPGGA,041053,2533.0934,N,07933.6476,W,1,9,1.7,12,M,,M,,*5B
05/31/2014	04:10:53.635	$GPGGA,041054,2533.0919,N,07933.6463,W,1,9,1.7,12,M,,M,,*57
05/31/2014	04:10:54.655	$GPGGA,041055,2533.0905,N,07933.6449,W,1,9,1.7,12,M,,M,,*53
05/31/2014	04:10:55.676	$GPGGA,041056,2533.0889,N,07933.6436,W,1,9,1.7,12,M,,M,,*5D
05/31/2014	04:10:56.646	$GPGGA,041057,2533.0874,N,07933.6422,W,1,9,1.7,12,M,,M,,*5B
05/31/2014	04:10:57.636	$GPGGA,041058,2533.0858,N,07933.6409,W,1,9,1.7,12,M,,M,,*53
05/31/2014	04:10:58.616	$GPGGA,041059,2533.0844,N,07933.6396,W,1,9,1.7,12,M,,M,,*5E
05/31/2014	04:10:59.646	$GPGGA,041100,2533.0829,N,07933.6382,W,1,9,1.7,12,M,,M,,*5D
05/31/2014	04:11:00.636	$GPGGA,041101,2533.0813,N,07933.6369,W,1,9,1.7,12,M,,M,,*50
05/31/2014	04:11:01.626	$GPGGA,041102,2533.0798,N,07933.6356,W,1,9,1.7,12,M,,M,,*53
05/31/2014	04:11:02.635	$GPGGA,041103,2533.0783,N,07933.6342,W,1,9,1.7,12,M,,M,,*5D
05/31/2014	04:11:03.635	$GPGGA,041104,2533.0768,N,07933.6329,W,1,9,1.7,12,M,,M,,*52
05/31/2014	04:11:04.605	$GPGGA,041105,2533.0752,N,07933.6316,W,1,9,1.7,12,M,,M,,*56
05/31/2014	04:11:05.615	$GPGGA,041106,2533.0737,N,07933.6302,W,1,9,1.7,12,M,,M,,*53
05/31/2014	04:11:06.625	$GPGGA,041107,2533.0722,N,07933.6288,W,1,9,1.7,12,M,,M,,*55
05/31/2014	04:11:07.625	$GPGGA,041108,2533.0706,N,07933.6275,W,1,9,1.7,12,M,,M,,*5E
05/31/2014	04:11:08.595	$GPGGA,041109,2533.0690,N,07933.6262,W,1,9,1.7,12,M,,M,,*57
05/31/2014	04:11:09.615	$GPGGA,041110,2533.0676,N,07933.6249,W,1,9,1.7,12,M,,M,,*5E
05/31/2014	04:11:10.605	$GPGGA,041111,2533.0661,N,07933.6234,W,1,9,1.7,12,M,,M,,*53
05/31/2014	04:11:11.615	$GPGGA,041112,2533.0645,N,07933.6222,W,1,9,1.7,12,M,,M,,*51
05/31/2014	04:11:12.736	$GPGGA,041113,2533.0630,N,07933.6209,W,1,9,1.7,12,M,,M,,*5B
05/31/2014	04:11:13.596	$GPGGA,041114,2533.0616,N,07933.6194,W,1,9,1.7,12,M,,M,,*5F
05/31/2014	04:11:14.606	$GPGGA,041115,2533.0600,N,07933.6182,W,1,9,1.7,12,M,,M,,*5E
05/31/2014	04:11:15.596	$GPGGA,041116,2533.0584,N,07933.6169,W,1,9,1.7,12,M,,M,,*57
05/31/2014	04:11:16.606	$GPGGA,041117,2533.0570,N,07933.6155,W,1,9,1.7,12,M,,M,,*52
05/31/2014	04:11:17.588	$GPGGA,041118,2533.0555,N,07933.6141,W,1,9,1.7,12,M,,M,,*5F
05/31/2014	04:11:18.716	$GPGGA,041119,2533.0540,N,07933.6129,W,1,9,1.7,12,M,,M,,*54
05/31/2014	04:11:19.597	$GPGGA,041120,2533.0524,N,07933.6115,W,1,9,1.7,12,M,,M,,*53
05/31/2014	04:11:20.595	$GPGGA,041121,2533.0509,N,07933.6101,W,1,9,1.7,12,M,,M,,*58
05/31/2014	04:11:21.675	$GPGGA,041122,2533.0494,N,07933.6088,W,1,9,1.7,12,M,,M,,*5E
05/31/2014	04:11:22.595	$GPGGA,041123,2533.0479,N,07933.6074,W,1,9,1.7,12,M,,M,,*5F
05/31/2014	04:11:23.705	$GPGGA,041124,2533.0463,N,07933.6061,W,1,9,1.7,12,M,,M,,*57
05/31/2014	04:11:24.665	$GPGGA,041125,2533.0448,N,07933.6047,W,1,9,1.7,12,M,,M,,*5B
05/31/2014	04:11:25.675	$GPGGA,041126,2533.0434,N,07933.6033,W,1,9,1.7,12,M,,M,,*50
05/31/2014	04:11:26.575	$GPGGA,041127,2533.0418,N,07933.6020,W,1,9,1.7,12,M,,M,,*5D
05/31/2014	04:11:27.675	$GPGGA,041128,2533.0403,N,07933.6006,W,1,9,1.7,12,M,,M,,*5C
05/31/2014	04:11:28.675	$GPGGA,041129,2533.0388,N,07933.5993,W,1,9,1.8,12,M,,M,,*50
05/31/2014	04:11:29.655	$GPGGA,041130,2533.0374,N,07933.5978,W,1,9,1.7,12,M,,M,,*51
05/31/2014	04:11:30.666	$GPGGA,041131,2533.0359,N,07933.5965,W,1,9,1.7,12,M,,M,,*53
05/31/2014	04:11:31.676	$GPGGA,041132,2533.0343,N,07933.5954,W,1,9,1.7,12,M,,M,,*59
05/31/2014	04:11:32.666	$GPGGA,041133,2533.0328,N,07933.5940,W,1,9,1.7,12,M,,M,,*50
05/31/2014	04:11:33.656	$GPGGA,041134,2533.0316,N,07933.5927,W,1,9,1.7,12,M,,M,,*5B
05/31/2014	04:11:34.666	$GPGGA,041135,2533.0302,N,07933.5915,W,1,9,1.7,12,M,,M,,*5E
05/31/2014	04:11:35.666	$GPGGA,041136,2533.0286,N,07933.5902,W,1,9,1.7,12,M,,M,,*56
05/31/2014	04:11:36.666	$GPGGA,041137,2533.0273,N,07933.5889,W,1,9,1.7,12,M,,M,,*5F
05/31/2014	04:11:37.646	$GPGGA,041138,2533.0258,N,07933.5875,W,1,9,1.7,12,M,,M,,*5A
05/31/2014	04:11:38.645	$GPGGA,041139,2533.0244,N,07933.5863,W,1,9,1.7,12,M,,M,,*51
05/31/2014	04:11:39.685	$GPGGA,041140,2533.0229,N,07933.5849,W,1,9,1.7,12,M,,M,,*5C
05/31/2014	04:11:40.635	$GPGGA,041141,2533.0215,N,07933.5835,W,1,9,1.7,12,M,,M,,*59
05/31/2014	04:11:41.645	$GPGGA,041142,2533.0201,N,07933.5822,W,1,9,1.7,12,M,,M,,*59
05/31/2014	04:11:42.625	$GPGGA,041143,2533.0186,N,07933.5809,W,1,9,1.7,12,M,,M,,*5D
05/31/2014	04:11:43.645	$GPGGA,041144,2533.0172,N,07933.5796,W,1,9,1.7,12,M,,M,,*58
05/31/2014	04:11:44.665	$GPGGA,041145,2533.0156,N,07933.5781,W,1,9,1.7,12,M,,M,,*59
05/31/2014	04:11:45.615	$GPGGA,041146,2533.0141,N,07933.5768,W,1,9,1.7,12,M,,M,,*5B
05/31/2014	04:11:46.645	$GPGGA,041147,2533.0126,N,07933.5755,W,1,9,1.7,12,M,,M,,*55
05/31/2014	04:11:47.656	$GPGGA,041148,2533.0111,N,07933.5741,W,1,9,1.7,12,M,,M,,*5B
05/31/2014	04:11:48.626	$GPGGA,041149,2533.0097,N,07933.5727,W,1,9,1.7,12,M,,M,,*55
