Software Version Number: 1	Data File Format Number: 1	Build Version Number: 1	Error Count Since VI Started: 0	Manufacturer: Raytheon	 Model Number: RayMarine 120	 S/N: 	 Cal Date: 	 Wind Direction Offset: 0.00	 Slope (M)1: 0.00	 Offset (B)1: 0.00	 Slope (M)2: 0.00	 Offset (B)2: 0.00	 Slope (M)3: 0.00	 Offset (B)3: 0.00	 Slope (M)4: 0.00	 Offset (B)4: 0.00	 Slope (M)5: 0.00	 Offset (B)5: 0.00	 Slope (M)6: 0.00	 Offset (B)6: 0.00
Computer Date	Computer Time	GGA String
05/30/2014	13:00:00.638	$GPGGA,130000,2505.9778,N,07946.4499,W,1,8,1.8,19,M,,M,,*54
05/30/2014	13:00:02.517	$GPGGA,130001,2505.9782,N,07946.4482,W,1,8,1.8,19,M,,M,,*5A
05/30/2014	13:00:02.887	$GPGGA,130002,2505.9785,N,07946.4465,W,1,8,1.8,19,M,,M,,*57
05/30/2014	13:00:03.863	$GPGGA,130003,2505.9785,N,07946.4449,W,1,8,1.8,19,M,,M,,*58
05/30/2014	13:00:04.983	$GPGGA,130004,2505.9788,N,07946.4431,W,1,8,1.8,19,M,,M,,*5D
05/30/2014	13:00:06.155	$GPGGA,130005,2505.9792,N,07946.4415,W,1,8,1.8,19,M,,M,,*51
05/30/2014	13:00:07.111	$GPGGA,130006,2505.9795,N,07946.4398,W,1,8,1.8,19,M,,M,,*57
05/30/2014	13:00:08.337	$GPGGA,130007,2505.9794,N,07946.4381,W,1,8,1.8,19,M,,M,,*5F
05/30/2014	13:00:09.305	$GPGGA,130008,2505.9798,N,07946.4365,W,1,8,1.8,19,M,,M,,*56
05/30/2014	13:00:10.487	$GPGGA,130009,2505.9802,N,07946.4348,W,1,8,1.8,20,M,,M,,*5E
05/30/2014	13:00:11.562	$GPGGA,130010,2505.9803,N,07946.4331,W,1,8,1.8,20,M,,M,,*59
05/30/2014	13:00:12.681	$GPGGA,130011,2505.9805,N,07946.4315,W,1,8,1.8,20,M,,M,,*58
05/30/2014	13:00:13.767	$GPGGA,130012,2505.9806,N,07946.4302,W,1,8,2.3,20,M,,M,,*56
05/30/2014	13:00:14.809	$GPGGA,130013,2505.9810,N,07946.4284,W,1,7,1.8,20,M,,M,,*58
05/30/2014	13:00:15.906	$GPGGA,130014,2505.9811,N,07946.4268,W,1,7,1.8,20,M,,M,,*5C
05/30/2014	13:00:16.993	$GPGGA,130015,2505.9814,N,07946.4254,W,1,8,1.8,20,M,,M,,*58
05/30/2014	13:00:18.078	$GPGGA,130016,2505.9817,N,07946.4238,W,1,8,1.8,20,M,,M,,*52
05/30/2014	13:00:19.162	$GPGGA,130017,2505.9818,N,07946.4222,W,1,8,1.8,20,M,,M,,*57
05/30/2014	13:00:20.227	$GPGGA,130018,2505.9821,N,07946.4207,W,1,8,1.8,19,M,,M,,*5F
05/30/2014	13:00:21.356	$GPGGA,130019,2505.9823,N,07946.4190,W,1,8,1.8,19,M,,M,,*51
05/30/2014	13:00:22.420	$GPGGA,130020,2505.9825,N,07946.4174,W,1,8,1.8,19,M,,M,,*57
05/30/2014	13:00:23.506	$GPGGA,130021,2505.9828,N,07946.4158,W,1,8,1.8,19,M,,M,,*55
05/30/2014	13:00:24.570	$GPGGA,130022,2505.9829,N,07946.4141,W,1,8,1.8,19,M,,M,,*5F
05/30/2014	13:00:25.667	$GPGGA,130023,2505.9832,N,07946.4125,W,1,8,1.8,19,M,,M,,*56
05/30/2014	13:00:26.775	$GPGGA,130024,2505.9835,N,07946.4109,W,1,8,1.8,19,M,,M,,*58
05/30/2014	13:00:27.839	$GPGGA,130025,2505.9836,N,07946.4093,W,1,8,1.8,19,M,,M,,*58
05/30/2014	13:00:28.903	$GPGGA,130026,2505.9839,N,07946.4079,W,1,8,2.3,19,M,,M,,*58
05/30/2014	13:00:30.000	$GPGGA,130027,2505.9841,N,07946.4063,W,1,7,1.8,19,M,,M,,*5A
05/30/2014	13:00:31.096	$GPGGA,130028,2505.9843,N,07946.4045,W,1,7,1.8,19,M,,M,,*53
05/30/2014	13:00:32.171	$GPGGA,130029,2505.9846,N,07946.4029,W,1,8,1.8,19,M,,M,,*52
05/30/2014	13:00:33.225	$GPGGA,130030,2505.9850,N,07946.4012,W,1,8,1.8,19,M,,M,,*55
05/30/2014	13:00:34.332	$GPGGA,130031,2505.9852,N,07946.3994,W,1,8,1.8,19,M,,M,,*56
05/30/2014	13:00:35.418	$GPGGA,130032,2505.9854,N,07946.3978,W,1,8,1.8,19,M,,M,,*51
05/30/2014	13:00:36.492	$GPGGA,130033,2505.9857,N,07946.3962,W,1,8,1.8,19,M,,M,,*58
05/30/2014	13:00:37.567	$GPGGA,130034,2505.9860,N,07946.3945,W,1,8,1.8,19,M,,M,,*5E
05/30/2014	13:00:38.664	$GPGGA,130035,2505.9861,N,07946.3929,W,1,8,1.8,19,M,,M,,*54
05/30/2014	13:00:39.750	$GPGGA,130036,2505.9865,N,07946.3912,W,1,8,1.8,19,M,,M,,*5B
05/30/2014	13:00:40.858	$GPGGA,130037,2505.9868,N,07946.3895,W,1,8,1.8,19,M,,M,,*59
05/30/2014	13:00:41.900	$GPGGA,130038,2505.9871,N,07946.3879,W,1,8,1.8,19,M,,M,,*5C
05/30/2014	13:00:42.986	$GPGGA,130039,2505.9872,N,07946.3862,W,1,8,1.8,19,M,,M,,*54
05/30/2014	13:00:44.116	$GPGGA,130040,2505.9875,N,07946.3846,W,1,8,1.8,19,M,,M,,*5B
05/30/2014	13:00:45.169	$GPGGA,130041,2505.9879,N,07946.3830,W,1,8,1.8,19,M,,M,,*57
05/30/2014	13:00:41.592	$GPGGA,130042,2505.9882,N,07946.3816,W,1,8,2.3,19,M,,M,,*5C
05/30/2014	13:00:42.678	$GPGGA,130043,2505.9883,N,07946.3799,W,1,7,1.8,19,M,,M,,*53
05/30/2014	13:00:43.753	$GPGGA,130044,2505.9886,N,07946.3782,W,1,7,1.8,19,M,,M,,*5B
05/30/2014	13:00:44.861	$GPGGA,130045,2505.9889,N,07946.3766,W,1,8,1.8,19,M,,M,,*50
05/30/2014	13:00:46.033	$GPGGA,130046,2505.9892,N,07946.3749,W,1,8,1.8,19,M,,M,,*54
05/30/2014	13:00:47.021	$GPGGA,130047,2505.9894,N,07946.3733,W,1,8,1.8,19,M,,M,,*5E
05/30/2014	13:00:48.087	$GPGGA,130048,2505.9897,N,07946.3717,W,1,8,1.8,19,M,,M,,*54
05/30/2014	13:00:49.193	$GPGGA,130049,2505.9899,N,07946.3700,W,1,8,1.8,19,M,,M,,*5D
05/30/2014	13:00:50.366	$GPGGA,130050,2505.9901,N,07946.3684,W,1,8,1.8,19,M,,M,,*58
05/30/2014	13:00:51.429	$GPGGA,130051,2505.9904,N,07946.3670,W,1,8,2.3,19,M,,M,,*5F
05/30/2014	13:00:52.482	$GPGGA,130052,2505.9904,N,07946.3653,W,1,8,1.8,19,M,,M,,*55
05/30/2014	13:00:53.503	$GPGGA,130053,2505.9908,N,07946.3636,W,1,8,1.8,19,M,,M,,*5B
05/30/2014	13:00:54.578	$GPGGA,130054,2505.9911,N,07946.3620,W,1,8,1.8,19,M,,M,,*53
05/30/2014	13:00:55.763	$GPGGA,130055,2505.9911,N,07946.3605,W,1,8,2.3,19,M,,M,,*5D
05/30/2014	13:00:56.880	$GPGGA,130056,2505.9912,N,07946.3590,W,1,8,2.3,19,M,,M,,*52
05/30/2014	13:00:57.955	$GPGGA,130057,2505.9915,N,07946.3574,W,1,7,2.3,19,M,,M,,*51
05/30/2014	13:00:59.009	$GPGGA,130058,2505.9915,N,07946.3560,W,1,7,2.3,18,M,,M,,*5A
05/30/2014	13:01:00.105	$GPGGA,130059,2505.9919,N,07946.3542,W,1,7,1.8,18,M,,M,,*5F
05/30/2014	13:01:01.137	$GPGGA,130100,2505.9921,N,07946.3527,W,1,7,2.3,18,M,,M,,*52
05/30/2014	13:01:02.277	$GPGGA,130101,2505.9924,N,07946.3509,W,1,7,1.8,18,M,,M,,*52
05/30/2014	13:01:03.386	$GPGGA,130102,2505.9926,N,07946.3491,W,1,7,1.8,18,M,,M,,*53
05/30/2014	13:01:04.449	$GPGGA,130103,2505.9929,N,07946.3474,W,1,8,1.8,18,M,,M,,*59
05/30/2014	13:01:05.524	$GPGGA,130104,2505.9930,N,07946.3458,W,1,8,1.8,18,M,,M,,*58
05/30/2014	13:01:06.621	$GPGGA,130105,2505.9933,N,07946.3441,W,1,8,1.8,18,M,,M,,*52
05/30/2014	13:01:07.685	$GPGGA,130106,2505.9935,N,07946.3425,W,1,8,1.8,18,M,,M,,*55
05/30/2014	13:01:08.793	$GPGGA,130107,2505.9937,N,07946.3408,W,1,7,2.3,18,M,,M,,*5E
05/30/2014	13:01:09.877	$GPGGA,130108,2505.9940,N,07946.3391,W,1,7,1.8,18,M,,M,,*5E
05/30/2014	13:01:10.985	$GPGGA,130109,2505.9943,N,07946.3376,W,1,8,1.8,18,M,,M,,*5A
05/30/2014	13:01:12.027	$GPGGA,130110,2505.9944,N,07946.3360,W,1,8,2.3,18,M,,M,,*5A
05/30/2014	13:01:13.136	$GPGGA,130111,2505.9946,N,07946.3345,W,1,7,2.3,17,M,,M,,*5E
05/30/2014	13:01:14.210	$GPGGA,130112,2505.9947,N,07946.3330,W,1,7,2.3,17,M,,M,,*5E
05/30/2014	13:01:15.274	$GPGGA,130113,2505.9950,N,07946.3313,W,1,7,2.3,17,M,,M,,*58
05/30/2014	13:01:16.360	$GPGGA,130114,2505.9953,N,07946.3298,W,1,7,2.3,17,M,,M,,*5E
05/30/2014	13:01:17.457	$GPGGA,130115,2505.9954,N,07946.3282,W,1,7,2.3,17,M,,M,,*53
05/30/2014	13:01:18.543	$GPGGA,130116,2505.9957,N,07946.3266,W,1,7,2.3,17,M,,M,,*59
05/30/2014	13:01:19.629	$GPGGA,130117,2505.9959,N,07946.3250,W,1,7,2.2,17,M,,M,,*52
05/30/2014	13:01:20.682	$GPGGA,130118,2505.9962,N,07946.3231,W,1,7,2.2,16,M,,M,,*53
05/30/2014	13:01:21.800	$GPGGA,130119,2505.9966,N,07946.3213,W,1,8,1.8,16,M,,M,,*50
05/30/2014	13:01:22.876	$GPGGA,130120,2505.9969,N,07946.3198,W,1,8,1.8,16,M,,M,,*55
05/30/2014	13:01:23.983	$GPGGA,130121,2505.9973,N,07946.3180,W,1,7,2.2,16,M,,M,,*50
05/30/2014	13:01:25.026	$GPGGA,130122,2505.9975,N,07946.3163,W,1,7,1.8,16,M,,M,,*51
05/30/2014	13:01:26.133	$GPGGA,130123,2505.9980,N,07946.3146,W,1,8,1.8,16,M,,M,,*52
05/30/2014	13:01:27.208	$GPGGA,130124,2505.9984,N,07946.3127,W,1,8,1.8,16,M,,M,,*56
05/30/2014	13:01:28.294	$GPGGA,130125,2505.9987,N,07946.3108,W,1,8,1.8,16,M,,M,,*59
05/30/2014	13:01:29.346	$GPGGA,130126,2505.9990,N,07946.3092,W,1,8,1.8,16,M,,M,,*5E
05/30/2014	13:01:30.445	$GPGGA,130127,2505.9994,N,07946.3077,W,1,8,1.8,16,M,,M,,*50
05/30/2014	13:01:31.551	$GPGGA,130128,2505.9998,N,07946.3057,W,1,8,2.3,16,M,,M,,*59
05/30/2014	13:01:32.604	$GPGGA,130129,2506.0002,N,07946.3038,W,1,8,1.8,16,M,,M,,*59
05/30/2014	13:01:33.701	$GPGGA,130130,2506.0005,N,07946.3020,W,1,8,1.8,16,M,,M,,*5F
05/30/2014	13:01:34.787	$GPGGA,130131,2506.0012,N,07946.3000,W,1,8,1.8,16,M,,M,,*5A
05/30/2014	13:01:35.884	$GPGGA,130132,2506.0015,N,07946.2983,W,1,8,1.8,16,M,,M,,*5D
05/30/2014	13:01:36.959	$GPGGA,130133,2506.0016,N,07946.2969,W,1,8,1.8,16,M,,M,,*5B
05/30/2014	13:01:38.034	$GPGGA,130134,2506.0020,N,07946.2951,W,1,8,2.2,16,M,,M,,*5B
05/30/2014	13:01:39.120	$GPGGA,130135,2506.0024,N,07946.2934,W,1,8,1.8,16,M,,M,,*54
05/30/2014	13:01:40.205	$GPGGA,130136,2506.0027,N,07946.2917,W,1,8,1.8,16,M,,M,,*55
05/30/2014	13:01:41.379	$GPGGA,130137,2506.0031,N,07946.2899,W,1,8,1.8,16,M,,M,,*54
05/30/2014	13:01:42.377	$GPGGA,130138,2506.0034,N,07946.2884,W,1,8,1.8,17,M,,M,,*53
05/30/2014	13:01:43.463	$GPGGA,130139,2506.0037,N,07946.2868,W,1,7,2.3,17,M,,M,,*54
05/30/2014	13:01:44.560	$GPGGA,130140,2506.0038,N,07946.2854,W,1,7,2.3,17,M,,M,,*5A
05/30/2014	13:01:45.624	$GPGGA,130141,2506.0042,N,07946.2838,W,1,7,2.2,17,M,,M,,*5D
05/30/2014	13:01:41.646	$GPGGA,130142,2506.0045,N,07946.2822,W,1,7,2.2,17,M,,M,,*52
05/30/2014	13:01:42.762	$GPGGA,130143,2506.0048,N,07946.2805,W,1,7,2.2,16,M,,M,,*5A
05/30/2014	13:01:43.826	$GPGGA,130144,2506.0049,N,07946.2790,W,1,7,1.8,16,M,,M,,*56
05/30/2014	13:01:44.903	$GPGGA,130145,2506.0052,N,07946.2773,W,1,7,2.2,16,M,,M,,*59
05/30/2014	13:01:45.977	$GPGGA,130146,2506.0058,N,07946.2753,W,1,7,2.2,16,M,,M,,*52
05/30/2014	13:01:47.106	$GPGGA,130147,2506.0060,N,07946.2734,W,1,8,1.8,16,M,,M,,*5F
05/30/2014	13:01:48.192	$GPGGA,130148,2506.0063,N,07946.2718,W,1,8,1.8,16,M,,M,,*5D
05/30/2014	13:01:49.245	$GPGGA,130149,2506.0066,N,07946.2701,W,1,7,2.3,16,M,,M,,*56
05/30/2014	13:01:50.320	$GPGGA,130150,2506.0067,N,07946.2685,W,1,7,2.3,16,M,,M,,*52
05/30/2014	13:01:51.428	$GPGGA,130151,2506.0070,N,07946.2668,W,1,8,1.8,16,M,,M,,*51
05/30/2014	13:01:52.492	$GPGGA,130152,2506.0073,N,07946.2652,W,1,8,1.8,16,M,,M,,*58
05/30/2014	13:01:53.578	$GPGGA,130153,2506.0077,N,07946.2633,W,1,7,2.2,16,M,,M,,*5C
05/30/2014	13:01:54.664	$GPGGA,130154,2506.0080,N,07946.2615,W,1,7,1.8,16,M,,M,,*5E
05/30/2014	13:01:55.750	$GPGGA,130155,2506.0081,N,07946.2599,W,1,8,1.8,16,M,,M,,*56
05/30/2014	13:01:56.846	$GPGGA,130156,2506.0084,N,07946.2582,W,1,8,2.2,15,M,,M,,*50
05/30/2014	13:01:57.911	$GPGGA,130157,2506.0087,N,07946.2566,W,1,7,2.2,15,M,,M,,*57
05/30/2014	13:01:58.998	$GPGGA,130158,2506.0088,N,07946.2549,W,1,7,2.2,15,M,,M,,*5A
05/30/2014	13:02:00.082	$GPGGA,130159,2506.0091,N,07946.2532,W,1,7,2.2,15,M,,M,,*5F
05/30/2014	13:02:01.189	$GPGGA,130200,2506.0095,N,07946.2515,W,1,7,2.2,15,M,,M,,*51
05/30/2014	13:02:02.242	$GPGGA,130201,2506.0096,N,07946.2498,W,1,8,1.8,15,M,,M,,*51
05/30/2014	13:02:03.339	$GPGGA,130202,2506.0099,N,07946.2482,W,1,8,2.2,15,M,,M,,*5F
05/30/2014	13:02:04.425	$GPGGA,130203,2506.0102,N,07946.2463,W,1,7,2.2,15,M,,M,,*5D
05/30/2014	13:02:05.500	$GPGGA,130204,2506.0103,N,07946.2447,W,1,7,1.8,15,M,,M,,*54
05/30/2014	13:02:06.597	$GPGGA,130205,2506.0106,N,07946.2431,W,1,7,2.2,14,M,,M,,*59
05/30/2014	13:02:07.661	$GPGGA,130206,2506.0110,N,07946.2411,W,1,7,2.2,14,M,,M,,*5F
05/30/2014	13:02:08.736	$GPGGA,130207,2506.0112,N,07946.2394,W,1,8,1.8,14,M,,M,,*50
05/30/2014	13:02:09.844	$GPGGA,130208,2506.0114,N,07946.2378,W,1,8,2.2,14,M,,M,,*52
05/30/2014	13:02:10.951	$GPGGA,130209,2506.0117,N,07946.2361,W,1,7,2.2,14,M,,M,,*57
05/30/2014	13:02:11.994	$GPGGA,130210,2506.0120,N,07946.2344,W,1,7,2.2,14,M,,M,,*5C
05/30/2014	13:02:13.080	$GPGGA,130211,2506.0121,N,07946.2328,W,1,7,2.2,14,M,,M,,*56
05/30/2014	13:02:14.187	$GPGGA,130212,2506.0124,N,07946.2311,W,1,7,2.2,14,M,,M,,*5A
05/30/2014	13:02:15.251	$GPGGA,130213,2506.0127,N,07946.2294,W,1,7,2.2,14,M,,M,,*54
05/30/2014	13:02:16.337	$GPGGA,130214,2506.0128,N,07946.2277,W,1,7,2.2,14,M,,M,,*51
05/30/2014	13:02:17.401	$GPGGA,130215,2506.0131,N,07946.2260,W,1,7,2.2,13,M,,M,,*59
05/30/2014	13:02:18.509	$GPGGA,130216,2506.0132,N,07946.2243,W,1,7,2.2,13,M,,M,,*58
05/30/2014	13:02:19.595	$GPGGA,130217,2506.0135,N,07946.2226,W,1,7,2.2,13,M,,M,,*5D
05/30/2014	13:02:20.658	$GPGGA,130218,2506.0138,N,07946.2209,W,1,7,2.2,13,M,,M,,*52
05/30/2014	13:02:23.351	$GPGGA,130220,2506.0143,N,07946.2174,W,1,7,2.2,13,M,,M,,*5C
05/30/2014	13:02:23.937	$GPGGA,130221,2506.0146,N,07946.2157,W,1,7,2.2,13,M,,M,,*59
05/30/2014	13:02:25.013	$GPGGA,130222,2506.0148,N,07946.2139,W,1,7,2.2,13,M,,M,,*5C
05/30/2014	13:02:26.109	$GPGGA,130223,2506.0150,N,07946.2122,W,1,7,2.2,12,M,,M,,*5F
05/30/2014	13:02:27.184	$GPGGA,130224,2506.0153,N,07946.2104,W,1,7,2.2,12,M,,M,,*5F
05/30/2014	13:02:28.380	$GPGGA,130225,2506.0154,N,07946.2087,W,1,7,2.2,12,M,,M,,*53
05/30/2014	13:02:29.335	$GPGGA,130226,2506.0157,N,07946.2069,W,1,7,2.2,12,M,,M,,*53
05/30/2014	13:02:30.529	$GPGGA,130227,2506.0161,N,07946.2052,W,1,7,2.2,12,M,,M,,*5F
05/30/2014	13:02:31.507	$GPGGA,130228,2506.0163,N,07946.2034,W,1,7,2.2,12,M,,M,,*52
05/30/2014	13:02:32.581	$GPGGA,130229,2506.0164,N,07946.2016,W,1,7,2.2,12,M,,M,,*54
05/30/2014	13:02:33.765	$GPGGA,130230,2506.0168,N,07946.1998,W,1,7,2.2,12,M,,M,,*5C
05/30/2014	13:02:34.894	$GPGGA,130231,2506.0172,N,07946.1981,W,1,7,2.2,12,M,,M,,*5E
05/30/2014	13:02:35.981	$GPGGA,130232,2506.0174,N,07946.1963,W,1,7,2.2,12,M,,M,,*57
05/30/2014	13:02:37.066	$GPGGA,130233,2506.0175,N,07946.1946,W,1,7,2.2,12,M,,M,,*50
05/30/2014	13:02:38.130	$GPGGA,130234,2506.0179,N,07946.1928,W,1,7,2.2,12,M,,M,,*53
05/30/2014	13:02:39.237	$GPGGA,130235,2506.0183,N,07946.1910,W,1,7,2.2,12,M,,M,,*5C
05/30/2014	13:02:40.312	$GPGGA,130236,2506.0185,N,07946.1893,W,1,7,2.2,11,M,,M,,*50
05/30/2014	13:02:41.388	$GPGGA,130237,2506.0189,N,07946.1874,W,1,7,2.2,11,M,,M,,*54
05/30/2014	13:02:42.441	$GPGGA,130238,2506.0193,N,07946.1855,W,1,7,1.8,11,M,,M,,*5A
05/30/2014	13:02:43.537	$GPGGA,130239,2506.0197,N,07946.1837,W,1,8,1.8,11,M,,M,,*54
05/30/2014	13:02:44.634	$GPGGA,130240,2506.0199,N,07946.1819,W,1,8,2.2,11,M,,M,,*51
05/30/2014	13:02:45.720	$GPGGA,130241,2506.0204,N,07946.1800,W,1,8,1.8,12,M,,M,,*55
05/30/2014	13:02:41.632	$GPGGA,130242,2506.0208,N,07946.1781,W,1,8,1.8,12,M,,M,,*5C
05/30/2014	13:02:42.718	$GPGGA,130243,2506.0211,N,07946.1763,W,1,8,1.8,12,M,,M,,*59
05/30/2014	13:02:43.804	$GPGGA,130244,2506.0215,N,07946.1744,W,1,8,1.8,12,M,,M,,*5F
05/30/2014	13:02:44.891	$GPGGA,130245,2506.0219,N,07946.1726,W,1,8,1.8,12,M,,M,,*56
05/30/2014	13:02:45.966	$GPGGA,130246,2506.0224,N,07946.1708,W,1,8,1.8,12,M,,M,,*57
05/30/2014	13:02:47.050	$GPGGA,130247,2506.0226,N,07946.1689,W,1,8,1.8,12,M,,M,,*5C
05/30/2014	13:02:48.147	$GPGGA,130248,2506.0229,N,07946.1671,W,1,8,1.8,12,M,,M,,*5B
05/30/2014	13:02:49.233	$GPGGA,130249,2506.0235,N,07946.1653,W,1,8,1.8,13,M,,M,,*56
05/30/2014	13:02:50.286	$GPGGA,130250,2506.0239,N,07946.1635,W,1,8,1.8,13,M,,M,,*52
05/30/2014	13:02:51.372	$GPGGA,130251,2506.0243,N,07946.1617,W,1,8,1.8,13,M,,M,,*5E
05/30/2014	13:02:52.481	$GPGGA,130252,2506.0247,N,07946.1599,W,1,8,1.8,13,M,,M,,*5C
05/30/2014	13:02:53.576	$GPGGA,130253,2506.0251,N,07946.1581,W,1,8,1.8,13,M,,M,,*53
05/30/2014	13:02:54.618	$GPGGA,130254,2506.0255,N,07946.1562,W,1,8,1.8,13,M,,M,,*5D
05/30/2014	13:02:55.704	$GPGGA,130255,2506.0258,N,07946.1544,W,1,8,1.8,14,M,,M,,*52
05/30/2014	13:02:56.812	$GPGGA,130256,2506.0262,N,07946.1526,W,1,8,1.8,14,M,,M,,*5C
05/30/2014	13:02:57.887	$GPGGA,130257,2506.0266,N,07946.1508,W,1,8,1.8,14,M,,M,,*55
05/30/2014	13:02:58.973	$GPGGA,130258,2506.0269,N,07946.1490,W,1,8,1.8,14,M,,M,,*55
05/30/2014	13:03:00.091	$GPGGA,130259,2506.0273,N,07946.1473,W,1,8,1.8,14,M,,M,,*52
05/30/2014	13:03:01.155	$GPGGA,130300,2506.0277,N,07946.1454,W,1,8,1.8,14,M,,M,,*5E
05/30/2014	13:03:02.210	$GPGGA,130301,2506.0280,N,07946.1436,W,1,8,1.8,15,M,,M,,*52
05/30/2014	13:03:03.305	$GPGGA,130302,2506.0284,N,07946.1419,W,1,8,1.8,15,M,,M,,*58
05/30/2014	13:03:04.413	$GPGGA,130303,2506.0290,N,07946.1401,W,1,8,1.8,15,M,,M,,*55
05/30/2014	13:03:05.499	$GPGGA,130304,2506.0293,N,07946.1384,W,1,8,1.8,15,M,,M,,*5B
05/30/2014	13:03:06.563	$GPGGA,130305,2506.0295,N,07946.1366,W,1,8,1.8,15,M,,M,,*50
05/30/2014	13:03:07.639	$GPGGA,130306,2506.0301,N,07946.1348,W,1,8,1.8,15,M,,M,,*53
05/30/2014	13:03:08.703	$GPGGA,130307,2506.0304,N,07946.1330,W,1,9,1.7,15,M,,M,,*56
05/30/2014	13:03:09.919	$GPGGA,130308,2506.0307,N,07946.1312,W,1,9,1.7,16,M,,M,,*59
05/30/2014	13:03:10.897	$GPGGA,130309,2506.0309,N,07946.1295,W,1,9,1.7,16,M,,M,,*58
05/30/2014	13:03:11.961	$GPGGA,130310,2506.0313,N,07946.1277,W,1,9,1.7,16,M,,M,,*57
05/30/2014	13:03:13.066	$GPGGA,130311,2506.0316,N,07946.1261,W,1,8,1.8,16,M,,M,,*5A
05/30/2014	13:03:14.326	$GPGGA,130312,2506.0320,N,07946.1244,W,1,8,1.7,16,M,,M,,*54
05/30/2014	13:03:15.239	$GPGGA,130313,2506.0323,N,07946.1225,W,1,9,1.7,16,M,,M,,*50
05/30/2014	13:03:16.303	$GPGGA,130314,2506.0327,N,07946.1207,W,1,9,1.9,16,M,,M,,*5D
05/30/2014	13:03:17.508	$GPGGA,130315,2506.0330,N,07946.1191,W,1,9,1.8,16,M,,M,,*57
05/30/2014	13:03:18.474	$GPGGA,130316,2506.0334,N,07946.1174,W,1,9,1.8,16,M,,M,,*5B
05/30/2014	13:03:19.680	$GPGGA,130317,2506.0336,N,07946.1156,W,1,9,1.9,16,M,,M,,*59
05/30/2014	13:03:20.646	$GPGGA,130318,2506.0338,N,07946.1141,W,1,9,1.9,16,M,,M,,*5E
05/30/2014	13:03:21.917	$GPGGA,130319,2506.0341,N,07946.1126,W,1,7,2.2,17,M,,M,,*57
05/30/2014	13:03:22.917	$GPGGA,130320,2506.0345,N,07946.1109,W,1,7,2.2,17,M,,M,,*54
05/30/2014	13:03:23.893	$GPGGA,130321,2506.0348,N,07946.1091,W,1,7,2.2,16,M,,M,,*59
05/30/2014	13:03:25.076	$GPGGA,130322,2506.0351,N,07946.1077,W,1,7,1.8,16,M,,M,,*53
05/30/2014	13:03:26.195	$GPGGA,130323,2506.0354,N,07946.1060,W,1,8,2.2,16,M,,M,,*57
05/30/2014	13:03:27.248	$GPGGA,130324,2506.0356,N,07946.1044,W,1,8,2.2,16,M,,M,,*54
05/30/2014	13:03:28.388	$GPGGA,130325,2506.0359,N,07946.1028,W,1,7,2.2,16,M,,M,,*5F
05/30/2014	13:03:29.485	$GPGGA,130326,2506.0362,N,07946.1011,W,1,7,2.2,16,M,,M,,*5E
05/30/2014	13:03:30.549	$GPGGA,130327,2506.0366,N,07946.0995,W,1,7,2.2,16,M,,M,,*5F
05/30/2014	13:03:31.591	$GPGGA,130328,2506.0367,N,07946.0975,W,1,7,2.2,16,M,,M,,*5F
05/30/2014	13:03:32.698	$GPGGA,130329,2506.0370,N,07946.0959,W,1,8,2.2,16,M,,M,,*59
05/30/2014	13:03:33.741	$GPGGA,130330,2506.0374,N,07946.0940,W,1,8,2.2,16,M,,M,,*5D
05/30/2014	13:03:34.848	$GPGGA,130331,2506.0377,N,07946.0923,W,1,8,2.2,15,M,,M,,*59
05/30/2014	13:03:36.001	$GPGGA,130332,2506.0378,N,07946.0907,W,1,8,2.2,15,M,,M,,*53
05/30/2014	13:03:37.031	$GPGGA,130333,2506.0383,N,07946.0888,W,1,7,1.9,15,M,,M,,*57
05/30/2014	13:03:38.074	$GPGGA,130334,2506.0385,N,07946.0870,W,1,7,1.9,15,M,,M,,*51
05/30/2014	13:03:39.215	$GPGGA,130335,2506.0388,N,07946.0854,W,1,8,2.2,15,M,,M,,*5C
05/30/2014	13:03:40.332	$GPGGA,130336,2506.0391,N,07946.0837,W,1,8,2.2,15,M,,M,,*52
05/30/2014	13:03:41.320	$GPGGA,130337,2506.0395,N,07946.0820,W,1,7,2.2,15,M,,M,,*5E
05/30/2014	13:03:42.482	$GPGGA,130338,2506.0398,N,07946.0801,W,1,7,1.8,15,M,,M,,*56
05/30/2014	13:03:43.536	$GPGGA,130339,2506.0399,N,07946.0784,W,1,8,1.9,15,M,,M,,*5A
05/30/2014	13:03:44.676	$GPGGA,130340,2506.0403,N,07946.0768,W,1,8,2.2,15,M,,M,,*5A
05/30/2014	13:03:45.707	$GPGGA,130341,2506.0406,N,07946.0750,W,1,7,2.2,15,M,,M,,*5A
05/30/2014	13:03:41.586	$GPGGA,130342,2506.0410,N,07946.0731,W,1,7,1.9,15,M,,M,,*51
05/30/2014	13:03:42.737	$GPGGA,130343,2506.0412,N,07946.0714,W,1,8,1.9,15,M,,M,,*5A
05/30/2014	13:03:43.769	$GPGGA,130344,2506.0414,N,07946.0698,W,1,8,2.2,15,M,,M,,*56
05/30/2014	13:03:44.897	$GPGGA,130345,2506.0417,N,07946.0680,W,1,8,1.9,14,M,,M,,*54
05/30/2014	13:03:45.994	$GPGGA,130346,2506.0423,N,07946.0661,W,1,8,1.8,14,M,,M,,*5E
05/30/2014	13:03:47.004	$GPGGA,130347,2506.0424,N,07946.0645,W,1,8,1.8,14,M,,M,,*5E
05/30/2014	13:03:48.198	$GPGGA,130348,2506.0428,N,07946.0629,W,1,8,2.2,14,M,,M,,*5E
05/30/2014	13:03:49.231	$GPGGA,130349,2506.0431,N,07946.0613,W,1,7,2.2,14,M,,M,,*51
05/30/2014	13:03:50.251	$GPGGA,130350,2506.0434,N,07946.0595,W,1,7,2.2,14,M,,M,,*51
05/30/2014	13:03:51.402	$GPGGA,130351,2506.0436,N,07946.0579,W,1,7,2.2,14,M,,M,,*50
05/30/2014	13:03:52.520	$GPGGA,130352,2506.0439,N,07946.0562,W,1,7,2.2,14,M,,M,,*56
05/30/2014	13:03:53.573	$GPGGA,130353,2506.0443,N,07946.0546,W,1,7,2.2,14,M,,M,,*5C
05/30/2014	13:03:54.659	$GPGGA,130354,2506.0446,N,07946.0526,W,1,7,1.8,14,M,,M,,*51
05/30/2014	13:03:55.734	$GPGGA,130355,2506.0450,N,07946.0510,W,1,8,1.8,14,M,,M,,*5D
05/30/2014	13:03:56.831	$GPGGA,130356,2506.0453,N,07946.0493,W,1,8,2.2,13,M,,M,,*59
05/30/2014	13:03:57.906	$GPGGA,130357,2506.0454,N,07946.0476,W,1,7,2.2,13,M,,M,,*5B
05/30/2014	13:03:58.927	$GPGGA,130358,2506.0457,N,07946.0458,W,1,7,2.2,13,M,,M,,*5B
05/30/2014	13:04:00.154	$GPGGA,130359,2506.0461,N,07946.0442,W,1,7,2.2,13,M,,M,,*54
05/30/2014	13:04:01.207	$GPGGA,130400,2506.0466,N,07946.0425,W,1,7,2.2,13,M,,M,,*59
05/30/2014	13:04:02.293	$GPGGA,130401,2506.0468,N,07946.0404,W,1,7,1.7,13,M,,M,,*53
05/30/2014	13:04:03.325	$GPGGA,130402,2506.0472,N,07946.0385,W,1,7,1.8,13,M,,M,,*5A
05/30/2014	13:04:04.410	$GPGGA,130403,2506.0477,N,07946.0369,W,1,8,2.2,13,M,,M,,*5A
05/30/2014	13:04:05.550	$GPGGA,130404,2506.0481,N,07946.0350,W,1,8,1.9,13,M,,M,,*56
05/30/2014	13:04:06.593	$GPGGA,130405,2506.0482,N,07946.0333,W,1,8,2.2,13,M,,M,,*59
05/30/2014	13:04:07.711	$GPGGA,130406,2506.0488,N,07946.0313,W,1,8,1.8,13,M,,M,,*5B
05/30/2014	13:04:08.753	$GPGGA,130407,2506.0493,N,07946.0293,W,1,8,1.8,13,M,,M,,*59
05/30/2014	13:04:09.915	$GPGGA,130408,2506.0497,N,07946.0273,W,1,8,1.8,13,M,,M,,*5C
05/30/2014	13:04:11.002	$GPGGA,130409,2506.0501,N,07946.0254,W,1,8,1.8,13,M,,M,,*56
05/30/2014	13:04:12.065	$GPGGA,130410,2506.0504,N,07946.0238,W,1,8,2.2,14,M,,M,,*5F
05/30/2014	13:04:13.119	$GPGGA,130411,2506.0508,N,07946.0218,W,1,7,1.8,14,M,,M,,*56
05/30/2014	13:04:14.237	$GPGGA,130412,2506.0511,N,07946.0202,W,1,7,1.8,14,M,,M,,*56
05/30/2014	13:04:15.290	$GPGGA,130413,2506.0515,N,07946.0186,W,1,8,1.9,14,M,,M,,*52
05/30/2014	13:04:16.376	$GPGGA,130414,2506.0518,N,07946.0165,W,1,8,1.7,14,M,,M,,*5B
05/30/2014	13:04:17.451	$GPGGA,130415,2506.0522,N,07946.0149,W,1,9,1.8,14,M,,M,,*53
05/30/2014	13:04:18.559	$GPGGA,130416,2506.0528,N,07946.0132,W,1,9,1.7,14,M,,M,,*59
05/30/2014	13:04:19.645	$GPGGA,130417,2506.0532,N,07946.0113,W,1,9,1.8,15,M,,M,,*5E
05/30/2014	13:04:20.742	$GPGGA,130418,2506.0535,N,07946.0096,W,1,9,1.7,15,M,,M,,*55
05/30/2014	13:04:21.807	$GPGGA,130419,2506.0537,N,07946.0079,W,1,9,1.8,15,M,,M,,*58
05/30/2014	13:04:22.901	$GPGGA,130420,2506.0542,N,07946.0062,W,1,9,1.8,15,M,,M,,*5A
05/30/2014	13:04:23.987	$GPGGA,130421,2506.0546,N,07946.0045,W,1,8,1.8,15,M,,M,,*5B
05/30/2014	13:04:25.074	$GPGGA,130422,2506.0546,N,07946.0045,W,1,8,1.8,15,M,,M,,*58
05/30/2014	13:04:26.159	$GPGGA,130423,2506.0551,N,07946.0011,W,1,8,2.2,15,M,,M,,*57
05/30/2014	13:04:27.234	$GPGGA,130424,2506.0555,N,07945.9996,W,1,8,2.2,15,M,,M,,*58
05/30/2014	13:04:28.321	$GPGGA,130425,2506.0558,N,07945.9981,W,1,7,2.2,15,M,,M,,*5D
05/30/2014	13:04:29.384	$GPGGA,130426,2506.0561,N,07945.9964,W,1,7,2.2,15,M,,M,,*5F
05/30/2014	13:04:30.470	$GPGGA,130427,2506.0562,N,07945.9949,W,1,7,2.2,15,M,,M,,*52
05/30/2014	13:04:31.578	$GPGGA,130428,2506.0565,N,07945.9933,W,1,7,2.2,15,M,,M,,*57
05/30/2014	13:04:32.707	$GPGGA,130429,2506.0569,N,07945.9913,W,1,7,1.9,15,M,,M,,*50
05/30/2014	13:04:33.750	$GPGGA,130430,2506.0571,N,07945.9898,W,1,7,2.2,15,M,,M,,*5B
05/30/2014	13:04:34.825	$GPGGA,130431,2506.0573,N,07945.9882,W,1,7,2.2,15,M,,M,,*53
05/30/2014	13:04:35.921	$GPGGA,130432,2506.0576,N,07945.9865,W,1,7,2.2,15,M,,M,,*5C
05/30/2014	13:04:37.018	$GPGGA,130433,2506.0579,N,07945.9846,W,1,7,1.9,15,M,,M,,*5B
05/30/2014	13:04:38.115	$GPGGA,130434,2506.0582,N,07945.9828,W,1,7,1.9,15,M,,M,,*50
05/30/2014	13:04:39.136	$GPGGA,130435,2506.0584,N,07945.9811,W,1,8,1.9,15,M,,M,,*52
05/30/2014	13:04:40.254	$GPGGA,130436,2506.0587,N,07945.9795,W,1,8,2.2,15,M,,M,,*59
05/30/2014	13:04:41.340	$GPGGA,130437,2506.0591,N,07945.9778,W,1,7,1.7,14,M,,M,,*54
05/30/2014	13:04:42.392	$GPGGA,130438,2506.0591,N,07945.9778,W,1,7,1.7,14,M,,M,,*5B
05/30/2014	13:04:43.500	$GPGGA,130439,2506.0597,N,07945.9744,W,1,9,2.2,14,M,,M,,*5B
05/30/2014	13:04:44.618	$GPGGA,130440,2506.0597,N,07945.9744,W,1,9,2.2,14,M,,M,,*55
05/30/2014	13:04:45.650	$GPGGA,130441,2506.0605,N,07945.9705,W,1,8,1.8,14,M,,M,,*51
05/30/2014	13:04:41.617	$GPGGA,130442,2506.0609,N,07945.9686,W,1,8,1.7,14,M,,M,,*5B
05/30/2014	13:04:42.693	$GPGGA,130443,2506.0611,N,07945.9669,W,1,9,1.9,14,M,,M,,*5D
05/30/2014	13:04:43.811	$GPGGA,130444,2506.0611,N,07945.9669,W,1,9,1.9,14,M,,M,,*5A
05/30/2014	13:04:44.842	$GPGGA,130445,2506.0612,N,07945.9653,W,1,7,2.2,14,M,,M,,*57
05/30/2014	13:04:46.005	$GPGGA,130446,2506.0619,N,07945.9620,W,1,7,2.2,14,M,,M,,*5B
05/30/2014	13:04:47.124	$GPGGA,130447,2506.0620,N,07945.9603,W,1,8,1.9,14,M,,M,,*56
05/30/2014	13:04:48.083	$GPGGA,130448,2506.0623,N,07945.9585,W,1,8,1.8,14,M,,M,,*56
05/30/2014	13:04:49.044	$GPGGA,130449,2506.0629,N,07945.9565,W,1,8,1.8,14,M,,M,,*53
05/30/2014	13:04:50.108	$GPGGA,130450,2506.0629,N,07945.9565,W,1,8,1.7,14,M,,M,,*54
05/30/2014	13:04:51.254	$GPGGA,130451,2506.0634,N,07945.9529,W,1,8,1.9,14,M,,M,,*5F
05/30/2014	13:04:52.275	$GPGGA,130452,2506.0638,N,07945.9513,W,1,8,1.7,14,M,,M,,*57
05/30/2014	13:04:53.277	$GPGGA,130453,2506.0641,N,07945.9496,W,1,7,2.2,14,M,,M,,*5D
05/30/2014	13:04:54.217	$GPGGA,130454,2506.0641,N,07945.9496,W,1,7,1.9,14,M,,M,,*52
05/30/2014	13:04:55.341	$GPGGA,130455,2506.0648,N,07945.9459,W,1,7,2.2,14,M,,M,,*51
05/30/2014	13:04:56.385	$GPGGA,130456,2506.0652,N,07945.9440,W,1,7,1.7,14,M,,M,,*57
05/30/2014	13:04:57.428	$GPGGA,130457,2506.0656,N,07945.9423,W,1,8,1.8,14,M,,M,,*57
05/30/2014	13:04:58.428	$GPGGA,130458,2506.0659,N,07945.9408,W,1,8,1.8,14,M,,M,,*5E
05/30/2014	13:04:59.450	$GPGGA,130459,2506.0663,N,07945.9388,W,1,7,2.2,14,M,,M,,*5F
05/30/2014	13:05:00.514	$GPGGA,130500,2506.0666,N,07945.9371,W,1,7,1.7,15,M,,M,,*56
05/30/2014	13:05:01.557	$GPGGA,130501,2506.0670,N,07945.9352,W,1,8,1.8,15,M,,M,,*51
05/30/2014	13:05:02.548	$GPGGA,130502,2506.0674,N,07945.9334,W,1,8,1.8,15,M,,M,,*56
05/30/2014	13:05:03.622	$GPGGA,130503,2506.0677,N,07945.9318,W,1,8,1.9,15,M,,M,,*5B
05/30/2014	13:05:04.613	$GPGGA,130504,2506.0680,N,07945.9300,W,1,8,2.2,15,M,,M,,*55
05/30/2014	13:05:05.666	$GPGGA,130505,2506.0685,N,07945.9282,W,1,8,1.9,15,M,,M,,*52
05/30/2014	13:05:06.678	$GPGGA,130506,2506.0688,N,07945.9265,W,1,8,1.7,15,M,,M,,*5B
05/30/2014	13:05:07.721	$GPGGA,130507,2506.0691,N,07945.9248,W,1,8,1.9,15,M,,M,,*53
05/30/2014	13:05:08.754	$GPGGA,130508,2506.0695,N,07945.9232,W,1,8,1.8,15,M,,M,,*54
05/30/2014	13:05:09.756	$GPGGA,130509,2506.0699,N,07945.9216,W,1,8,1.8,15,M,,M,,*5F
05/30/2014	13:05:10.797	$GPGGA,130510,2506.0701,N,07945.9200,W,1,8,2.2,15,M,,M,,*59
05/30/2014	13:05:11.840	$GPGGA,130511,2506.0703,N,07945.9184,W,1,7,2.2,15,M,,M,,*5A
05/30/2014	13:05:12.874	$GPGGA,130512,2506.0706,N,07945.9168,W,1,7,2.2,15,M,,M,,*5E
05/30/2014	13:05:13.873	$GPGGA,130513,2506.0710,N,07945.9152,W,1,7,2.2,15,M,,M,,*51
05/30/2014	13:05:14.916	$GPGGA,130514,2506.0713,N,07945.9136,W,1,7,2.2,15,M,,M,,*57
05/30/2014	13:05:15.980	$GPGGA,130515,2506.0716,N,07945.9120,W,1,7,2.2,15,M,,M,,*54
05/30/2014	13:05:16.991	$GPGGA,130516,2506.0719,N,07945.9103,W,1,7,2.2,15,M,,M,,*59
05/30/2014	13:05:18.003	$GPGGA,130517,2506.0721,N,07945.9084,W,1,7,2.2,15,M,,M,,*5D
05/30/2014	13:05:19.046	$GPGGA,130518,2506.0725,N,07945.9069,W,1,7,1.8,15,M,,M,,*5C
05/30/2014	13:05:20.099	$GPGGA,130519,2506.0728,N,07945.9052,W,1,8,1.9,15,M,,M,,*56
05/30/2014	13:05:21.111	$GPGGA,130520,2506.0731,N,07945.9035,W,1,8,2.2,14,M,,M,,*5C
05/30/2014	13:05:22.155	$GPGGA,130521,2506.0734,N,07945.9018,W,1,7,2.2,14,M,,M,,*58
05/30/2014	13:05:23.166	$GPGGA,130522,2506.0737,N,07945.9000,W,1,7,1.9,14,M,,M,,*59
05/30/2014	13:05:24.198	$GPGGA,130523,2506.0739,N,07945.8983,W,1,8,1.9,14,M,,M,,*5A
05/30/2014	13:05:25.231	$GPGGA,130524,2506.0742,N,07945.8967,W,1,8,2.2,14,M,,M,,*53
05/30/2014	13:05:26.274	$GPGGA,130525,2506.0746,N,07945.8951,W,1,7,2.2,14,M,,M,,*5C
05/30/2014	13:05:27.265	$GPGGA,130526,2506.0750,N,07945.8928,W,1,7,2.2,14,M,,M,,*56
05/30/2014	13:05:28.349	$GPGGA,130527,2506.0753,N,07945.8913,W,1,8,1.8,14,M,,M,,*5A
05/30/2014	13:05:29.372	$GPGGA,130528,2506.0755,N,07945.8897,W,1,8,2.2,14,M,,M,,*57
05/30/2014	13:05:30.404	$GPGGA,130529,2506.0759,N,07945.8880,W,1,7,2.2,14,M,,M,,*53
05/30/2014	13:05:31.518	$GPGGA,130530,2506.0761,N,07945.8863,W,1,7,2.2,14,M,,M,,*5D
05/30/2014	13:05:32.447	$GPGGA,130531,2506.0764,N,07945.8847,W,1,7,2.2,14,M,,M,,*5F
05/30/2014	13:05:33.469	$GPGGA,130532,2506.0766,N,07945.8830,W,1,7,2.2,14,M,,M,,*5E
05/30/2014	13:05:34.533	$GPGGA,130533,2506.0770,N,07945.8813,W,1,7,2.2,13,M,,M,,*5E
05/30/2014	13:05:35.524	$GPGGA,130534,2506.0773,N,07945.8795,W,1,7,2.2,13,M,,M,,*5B
05/30/2014	13:05:36.546	$GPGGA,130535,2506.0775,N,07945.8779,W,1,7,2.2,13,M,,M,,*5E
05/30/2014	13:05:37.609	$GPGGA,130536,2506.0777,N,07945.8761,W,1,7,2.2,13,M,,M,,*56
05/30/2014	13:05:38.601	$GPGGA,130537,2506.0781,N,07945.8744,W,1,7,2.2,13,M,,M,,*59
05/30/2014	13:05:39.654	$GPGGA,130538,2506.0784,N,07945.8727,W,1,7,2.2,13,M,,M,,*56
05/30/2014	13:05:40.769	$GPGGA,130539,2506.0786,N,07945.8710,W,1,7,2.2,13,M,,M,,*51
05/30/2014	13:05:41.833	$GPGGA,130540,2506.0792,N,07945.8687,W,1,7,2.2,13,M,,M,,*55
05/30/2014	13:05:42.855	$GPGGA,130541,2506.0797,N,07945.8669,W,1,8,1.8,13,M,,M,,*57
05/30/2014	13:05:41.595	$GPGGA,130542,2506.0800,N,07945.8650,W,1,8,1.7,13,M,,M,,*50
05/30/2014	13:05:42.638	$GPGGA,130543,2506.0802,N,07945.8632,W,1,8,1.9,13,M,,M,,*59
05/30/2014	13:05:43.681	$GPGGA,130544,2506.0804,N,07945.8613,W,1,8,1.9,13,M,,M,,*5B
05/30/2014	13:05:44.733	$GPGGA,130545,2506.0808,N,07945.8596,W,1,9,1.7,13,M,,M,,*57
05/30/2014	13:05:45.724	$GPGGA,130546,2506.0811,N,07945.8579,W,1,9,1.9,13,M,,M,,*53
05/30/2014	13:05:46.778	$GPGGA,130547,2506.0813,N,07945.8562,W,1,7,2.2,13,M,,M,,*5C
05/30/2014	13:05:47.830	$GPGGA,130548,2506.0818,N,07945.8543,W,1,7,2.2,13,M,,M,,*5B
05/30/2014	13:05:48.831	$GPGGA,130549,2506.0822,N,07945.8526,W,1,9,1.7,13,M,,M,,*58
05/30/2014	13:05:49.853	$GPGGA,130550,2506.0825,N,07945.8507,W,1,9,2.2,13,M,,M,,*52
05/30/2014	13:05:50.897	$GPGGA,130551,2506.0829,N,07945.8487,W,1,8,1.8,13,M,,M,,*5E
05/30/2014	13:05:51.918	$GPGGA,130552,2506.0836,N,07945.8467,W,1,8,1.8,13,M,,M,,*5D
05/30/2014	13:05:52.941	$GPGGA,130553,2506.0839,N,07945.8451,W,1,9,1.7,14,M,,M,,*5F
05/30/2014	13:05:53.973	$GPGGA,130554,2506.0840,N,07945.8435,W,1,9,2.2,14,M,,M,,*52
05/30/2014	13:05:54.985	$GPGGA,130555,2506.0846,N,07945.8418,W,1,7,2.2,14,M,,M,,*54
05/30/2014	13:05:56.038	$GPGGA,130556,2506.0849,N,07945.8401,W,1,7,1.7,14,M,,M,,*56
05/30/2014	13:05:57.081	$GPGGA,130557,2506.0851,N,07945.8385,W,1,7,2.2,14,M,,M,,*53
05/30/2014	13:05:58.103	$GPGGA,130558,2506.0855,N,07945.8366,W,1,7,2.2,14,M,,M,,*55
05/30/2014	13:05:59.146	$GPGGA,130559,2506.0858,N,07945.8350,W,1,8,1.8,14,M,,M,,*5A
05/30/2014	13:06:00.178	$GPGGA,130600,2506.0862,N,07945.8333,W,1,8,2.2,14,M,,M,,*50
05/30/2014	13:06:01.170	$GPGGA,130601,2506.0865,N,07945.8318,W,1,7,2.2,14,M,,M,,*50
05/30/2014	13:06:02.213	$GPGGA,130602,2506.0868,N,07945.8302,W,1,7,2.2,14,M,,M,,*55
05/30/2014	13:06:03.256	$GPGGA,130603,2506.0871,N,07945.8286,W,1,7,2.2,14,M,,M,,*51
05/30/2014	13:06:04.288	$GPGGA,130604,2506.0872,N,07945.8270,W,1,7,2.2,14,M,,M,,*5C
05/30/2014	13:06:05.319	$GPGGA,130605,2506.0876,N,07945.8254,W,1,7,2.2,14,M,,M,,*5F
05/30/2014	13:06:06.331	$GPGGA,130606,2506.0880,N,07945.8237,W,1,7,2.2,14,M,,M,,*50
05/30/2014	13:06:07.374	$GPGGA,130607,2506.0882,N,07945.8220,W,1,8,1.9,14,M,,M,,*52
05/30/2014	13:06:08.406	$GPGGA,130608,2506.0885,N,07945.8205,W,1,8,2.2,14,M,,M,,*55
05/30/2014	13:06:09.418	$GPGGA,130609,2506.0890,N,07945.8189,W,1,7,2.2,14,M,,M,,*58
05/30/2014	13:06:10.451	$GPGGA,130610,2506.0894,N,07945.8172,W,1,7,2.2,14,M,,M,,*50
05/30/2014	13:06:11.525	$GPGGA,130611,2506.0894,N,07945.8155,W,1,8,1.9,14,M,,M,,*53
05/30/2014	13:06:12.526	$GPGGA,130612,2506.0898,N,07945.8139,W,1,8,2.2,14,M,,M,,*5E
05/30/2014	13:06:13.541	$GPGGA,130613,2506.0904,N,07945.8122,W,1,7,2.2,13,M,,M,,*59
05/30/2014	13:06:14.581	$GPGGA,130614,2506.0907,N,07945.8104,W,1,7,1.9,13,M,,M,,*51
05/30/2014	13:06:15.593	$GPGGA,130615,2506.0909,N,07945.8088,W,1,8,1.9,13,M,,M,,*54
05/30/2014	13:06:16.759	$GPGGA,130616,2506.0912,N,07945.8072,W,1,8,2.2,13,M,,M,,*50
05/30/2014	13:06:17.699	$GPGGA,130617,2506.0916,N,07945.8056,W,1,7,2.1,13,M,,M,,*5F
05/30/2014	13:06:18.701	$GPGGA,130618,2506.0919,N,07945.8037,W,1,7,1.9,13,M,,M,,*53
05/30/2014	13:06:19.816	$GPGGA,130619,2506.0923,N,07945.8021,W,1,9,1.7,13,M,,M,,*5C
05/30/2014	13:06:20.767	$GPGGA,130620,2506.0927,N,07945.8004,W,1,9,1.8,13,M,,M,,*5A
05/30/2014	13:06:21.881	$GPGGA,130621,2506.0930,N,07945.7987,W,1,8,1.8,13,M,,M,,*51
05/30/2014	13:06:22.810	$GPGGA,130622,2506.0934,N,07945.7970,W,1,8,1.8,14,M,,M,,*59
05/30/2014	13:06:23.944	$GPGGA,130623,2506.0937,N,07945.7953,W,1,8,1.8,14,M,,M,,*5A
05/30/2014	13:06:24.884	$GPGGA,130624,2506.0940,N,07945.7938,W,1,8,1.8,14,M,,M,,*50
05/30/2014	13:06:25.896	$GPGGA,130625,2506.0941,N,07945.7923,W,1,7,2.2,14,M,,M,,*5C
05/30/2014	13:06:27.042	$GPGGA,130626,2506.0945,N,07945.7907,W,1,7,2.2,14,M,,M,,*5D
05/30/2014	13:06:27.982	$GPGGA,130627,2506.0948,N,07945.7891,W,1,7,2.2,14,M,,M,,*5F
05/30/2014	13:06:29.014	$GPGGA,130628,2506.0951,N,07945.7876,W,1,7,2.2,14,M,,M,,*51
05/30/2014	13:06:30.036	$GPGGA,130629,2506.0952,N,07945.7860,W,1,7,2.2,14,M,,M,,*54
05/30/2014	13:06:31.151	$GPGGA,130630,2506.0956,N,07945.7843,W,1,7,2.2,14,M,,M,,*59
05/30/2014	13:06:32.112	$GPGGA,130631,2506.0958,N,07945.7827,W,1,8,1.9,14,M,,M,,*53
05/30/2014	13:06:33.237	$GPGGA,130632,2506.0961,N,07945.7810,W,1,8,2.2,14,M,,M,,*56
05/30/2014	13:06:34.249	$GPGGA,130633,2506.0963,N,07945.7792,W,1,8,1.8,14,M,,M,,*59
05/30/2014	13:06:35.281	$GPGGA,130634,2506.0966,N,07945.7775,W,1,8,1.9,14,M,,M,,*53
05/30/2014	13:06:36.355	$GPGGA,130635,2506.0970,N,07945.7756,W,1,8,1.9,14,M,,M,,*54
05/30/2014	13:06:37.357	$GPGGA,130636,2506.0973,N,07945.7739,W,1,8,1.8,15,M,,M,,*5D
05/30/2014	13:06:38.389	$GPGGA,130637,2506.0977,N,07945.7720,W,1,8,1.9,15,M,,M,,*51
05/30/2014	13:06:39.401	$GPGGA,130638,2506.0981,N,07945.7703,W,1,8,1.7,15,M,,M,,*58
05/30/2014	13:06:40.454	$GPGGA,130639,2506.0981,N,07945.7686,W,1,9,1.7,15,M,,M,,*54
05/30/2014	13:06:41.475	$GPGGA,130640,2506.0984,N,07945.7670,W,1,9,2.2,15,M,,M,,*50
05/30/2014	13:06:42.508	$GPGGA,130641,2506.0988,N,07945.7651,W,1,7,2.2,15,M,,M,,*50
05/30/2014	13:06:43.530	$GPGGA,130642,2506.0990,N,07945.7635,W,1,7,1.9,15,M,,M,,*50
05/30/2014	13:06:44.542	$GPGGA,130643,2506.0992,N,07945.7618,W,1,7,2.2,15,M,,M,,*54
05/30/2014	13:06:45.595	$GPGGA,130644,2506.0999,N,07945.7599,W,1,7,1.8,15,M,,M,,*5B
05/30/2014	13:06:46.638	$GPGGA,130645,2506.1003,N,07945.7579,W,1,9,1.7,15,M,,M,,*5E
05/30/2014	13:06:47.639	$GPGGA,130646,2506.1006,N,07945.7561,W,1,9,1.7,15,M,,M,,*51
05/30/2014	13:06:48.692	$GPGGA,130647,2506.1010,N,07945.7545,W,1,9,1.7,15,M,,M,,*51
05/30/2014	13:06:49.715	$GPGGA,130648,2506.1013,N,07945.7527,W,1,9,1.9,16,M,,M,,*54
05/30/2014	13:06:50.768	$GPGGA,130649,2506.1016,N,07945.7511,W,1,8,1.9,16,M,,M,,*54
05/30/2014	13:06:51.769	$GPGGA,130650,2506.1020,N,07945.7493,W,1,8,1.7,16,M,,M,,*5C
05/30/2014	13:06:52.822	$GPGGA,130651,2506.1023,N,07945.7477,W,1,8,1.8,16,M,,M,,*5B
05/30/2014	13:06:53.845	$GPGGA,130652,2506.1026,N,07945.7458,W,1,8,2.2,16,M,,M,,*59
05/30/2014	13:06:54.867	$GPGGA,130653,2506.1030,N,07945.7441,W,1,8,1.8,16,M,,M,,*5E
05/30/2014	13:06:55.889	$GPGGA,130654,2506.1034,N,07945.7424,W,1,8,1.8,16,M,,M,,*5E
05/30/2014	13:06:56.942	$GPGGA,130655,2506.1037,N,07945.7408,W,1,7,2.2,16,M,,M,,*54
05/30/2014	13:06:57.964	$GPGGA,130656,2506.1039,N,07945.7391,W,1,7,2.2,16,M,,M,,*5E
05/30/2014	13:06:58.967	$GPGGA,130657,2506.1045,N,07945.7372,W,1,8,1.8,16,M,,M,,*5F
05/30/2014	13:07:00.018	$GPGGA,130658,2506.1049,N,07945.7356,W,1,8,1.8,16,M,,M,,*5A
05/30/2014	13:07:01.030	$GPGGA,130659,2506.1053,N,07945.7337,W,1,7,2.2,16,M,,M,,*51
05/30/2014	13:07:02.104	$GPGGA,130700,2506.1056,N,07945.7319,W,1,7,1.8,16,M,,M,,*5C
05/30/2014	13:07:03.105	$GPGGA,130701,2506.1060,N,07945.7301,W,1,8,1.8,16,M,,M,,*5E
05/30/2014	13:07:04.138	$GPGGA,130702,2506.1063,N,07945.7284,W,1,8,1.8,16,M,,M,,*52
05/30/2014	13:07:05.150	$GPGGA,130703,2506.1066,N,07945.7267,W,1,7,2.2,16,M,,M,,*5D
05/30/2014	13:07:06.213	$GPGGA,130704,2506.1070,N,07945.7249,W,1,7,1.8,17,M,,M,,*59
05/30/2014	13:07:07.245	$GPGGA,130705,2506.1073,N,07945.7232,W,1,8,1.8,17,M,,M,,*58
05/30/2014	13:07:08.350	$GPGGA,130706,2506.1077,N,07945.7213,W,1,8,1.9,17,M,,M,,*5D
05/30/2014	13:07:09.300	$GPGGA,130707,2506.1079,N,07945.7197,W,1,8,1.8,17,M,,M,,*5C
05/30/2014	13:07:10.446	$GPGGA,130708,2506.1084,N,07945.7178,W,1,8,2.2,17,M,,M,,*59
05/30/2014	13:07:11.459	$GPGGA,130709,2506.1086,N,07945.7160,W,1,9,1.7,17,M,,M,,*54
05/30/2014	13:07:12.367	$GPGGA,130710,2506.1091,N,07945.7142,W,1,9,1.8,17,M,,M,,*55
05/30/2014	13:07:13.513	$GPGGA,130711,2506.1093,N,07945.7125,W,1,9,1.7,17,M,,M,,*58
05/30/2014	13:07:14.566	$GPGGA,130712,2506.1096,N,07945.7108,W,1,9,1.7,17,M,,M,,*51
05/30/2014	13:07:15.475	$GPGGA,130713,2506.1100,N,07945.7092,W,1,9,1.7,17,M,,M,,*5C
05/30/2014	13:07:16.600	$GPGGA,130714,2506.1103,N,07945.7074,W,1,9,1.9,17,M,,M,,*5E
05/30/2014	13:07:17.621	$GPGGA,130715,2506.1106,N,07945.7057,W,1,9,1.7,17,M,,M,,*55
05/30/2014	13:07:18.582	$GPGGA,130716,2506.1109,N,07945.7041,W,1,9,1.8,17,M,,M,,*51
05/30/2014	13:07:19.594	$GPGGA,130717,2506.1111,N,07945.7025,W,1,7,2.2,18,M,,M,,*53
05/30/2014	13:07:20.719	$GPGGA,130718,2506.1113,N,07945.7009,W,1,7,2.2,18,M,,M,,*50
05/30/2014	13:07:21.648	$GPGGA,130719,2506.1115,N,07945.6992,W,1,7,2.2,18,M,,M,,*5D
05/30/2014	13:07:22.795	$GPGGA,130720,2506.1118,N,07945.6974,W,1,7,2.2,17,M,,M,,*5D
05/30/2014	13:07:23.807	$GPGGA,130721,2506.1121,N,07945.6958,W,1,8,1.9,17,M,,M,,*5F
05/30/2014	13:07:24.838	$GPGGA,130722,2506.1124,N,07945.6941,W,1,8,2.2,17,M,,M,,*59
05/30/2014	13:07:25.912	$GPGGA,130723,2506.1126,N,07945.6925,W,1,7,2.2,17,M,,M,,*57
05/30/2014	13:07:26.945	$GPGGA,130724,2506.1129,N,07945.6907,W,1,7,1.9,17,M,,M,,*57
05/30/2014	13:07:27.936	$GPGGA,130725,2506.1132,N,07945.6890,W,1,8,1.9,17,M,,M,,*5C
05/30/2014	13:07:28.968	$GPGGA,130726,2506.1135,N,07945.6873,W,1,8,2.2,17,M,,M,,*5D
05/30/2014	13:07:29.990	$GPGGA,130727,2506.1138,N,07945.6856,W,1,7,2.2,17,M,,M,,*59
05/30/2014	13:07:31.034	$GPGGA,130728,2506.1140,N,07945.6838,W,1,7,2.2,17,M,,M,,*51
05/30/2014	13:07:32.097	$GPGGA,130729,2506.1143,N,07945.6820,W,1,8,1.9,17,M,,M,,*5D
05/30/2014	13:07:33.067	$GPGGA,130730,2506.1146,N,07945.6803,W,1,8,2.2,17,M,,M,,*59
05/30/2014	13:07:34.141	$GPGGA,130731,2506.1149,N,07945.6784,W,1,7,2.2,17,M,,M,,*58
05/30/2014	13:07:35.143	$GPGGA,130732,2506.1151,N,07945.6768,W,1,7,1.9,17,M,,M,,*58
05/30/2014	13:07:36.184	$GPGGA,130733,2506.1154,N,07945.6752,W,1,7,2.2,17,M,,M,,*5D
05/30/2014	13:07:37.196	$GPGGA,130734,2506.1157,N,07945.6734,W,1,7,2.2,16,M,,M,,*58
05/30/2014	13:07:38.218	$GPGGA,130735,2506.1160,N,07945.6716,W,1,7,2.2,16,M,,M,,*5D
05/30/2014	13:07:39.282	$GPGGA,130736,2506.1162,N,07945.6700,W,1,7,2.2,16,M,,M,,*5B
05/30/2014	13:07:40.326	$GPGGA,130737,2506.1165,N,07945.6680,W,1,8,1.9,16,M,,M,,*53
05/30/2014	13:07:41.326	$GPGGA,130738,2506.1168,N,07945.6664,W,1,8,1.9,16,M,,M,,*5B
05/30/2014	13:07:42.348	$GPGGA,130739,2506.1171,N,07945.6647,W,1,7,2.2,16,M,,M,,*54
05/30/2014	13:07:43.381	$GPGGA,130740,2506.1175,N,07945.6629,W,1,7,2.2,16,M,,M,,*56
05/30/2014	13:07:44.434	$GPGGA,130741,2506.1178,N,07945.6612,W,1,7,2.2,16,M,,M,,*52
05/30/2014	13:07:34.463	$GPGGA,130742,2506.1180,N,07945.6595,W,1,7,1.9,16,M,,M,,*52
05/30/2014	13:07:35.485	$GPGGA,130743,2506.1183,N,07945.6578,W,1,7,2.2,15,M,,M,,*58
05/30/2014	13:07:36.538	$GPGGA,130744,2506.1187,N,07945.6561,W,1,7,2.2,15,M,,M,,*53
05/30/2014	13:07:37.541	$GPGGA,130745,2506.1190,N,07945.6541,W,1,7,2.2,15,M,,M,,*56
05/30/2014	13:07:38.572	$GPGGA,130746,2506.1193,N,07945.6524,W,1,7,1.9,15,M,,M,,*5D
05/30/2014	13:07:39.646	$GPGGA,130747,2506.1196,N,07945.6506,W,1,8,1.9,15,M,,M,,*56
05/30/2014	13:07:40.648	$GPGGA,130748,2506.1200,N,07945.6489,W,1,8,1.9,15,M,,M,,*53
05/30/2014	13:07:41.680	$GPGGA,130749,2506.1203,N,07945.6472,W,1,7,2.2,15,M,,M,,*52
05/30/2014	13:07:42.701	$GPGGA,130750,2506.1207,N,07945.6455,W,1,7,1.9,15,M,,M,,*53
05/30/2014	13:07:43.785	$GPGGA,130751,2506.1208,N,07945.6436,W,1,8,1.9,15,M,,M,,*57
05/30/2014	13:07:44.767	$GPGGA,130752,2506.1212,N,07945.6420,W,1,8,1.9,15,M,,M,,*58
05/30/2014	13:07:45.809	$GPGGA,130753,2506.1216,N,07945.6403,W,1,7,2.2,15,M,,M,,*5B
05/30/2014	13:07:46.936	$GPGGA,130754,2506.1219,N,07945.6385,W,1,7,1.9,15,M,,M,,*52
05/30/2014	13:07:47.853	$GPGGA,130755,2506.1222,N,07945.6367,W,1,8,1.9,15,M,,M,,*58
05/30/2014	13:07:49.000	$GPGGA,130756,2506.1227,N,07945.6348,W,1,8,1.7,15,M,,M,,*5D
05/30/2014	13:07:50.042	$GPGGA,130757,2506.1232,N,07945.6330,W,1,9,1.7,15,M,,M,,*56
05/30/2014	13:07:50.941	$GPGGA,130758,2506.1236,N,07945.6311,W,1,9,1.7,15,M,,M,,*5E
05/30/2014	13:07:52.004	$GPGGA,130759,2506.1241,N,07945.6293,W,1,9,1.7,15,M,,M,,*54
05/30/2014	13:07:53.057	$GPGGA,130800,2506.1245,N,07945.6275,W,1,9,1.9,15,M,,M,,*55
05/30/2014	13:07:54.059	$GPGGA,130801,2506.1248,N,07945.6258,W,1,8,1.9,15,M,,M,,*57
05/30/2014	13:07:55.174	$GPGGA,130802,2506.1254,N,07945.6237,W,1,8,1.7,16,M,,M,,*5D
05/30/2014	13:07:56.206	$GPGGA,130803,2506.1258,N,07945.6220,W,1,9,1.7,16,M,,M,,*57
05/30/2014	13:07:57.146	$GPGGA,130804,2506.1261,N,07945.6202,W,1,9,1.7,16,M,,M,,*5A
05/30/2014	13:07:58.271	$GPGGA,130805,2506.1265,N,07945.6186,W,1,9,1.7,16,M,,M,,*50
05/30/2014	13:07:59.190	$GPGGA,130806,2506.1266,N,07945.6170,W,1,9,1.7,16,M,,M,,*59
05/30/2014	13:08:00.347	$GPGGA,130807,2506.1270,N,07945.6155,W,1,8,1.7,17,M,,M,,*58
05/30/2014	13:08:01.378	$GPGGA,130808,2506.1273,N,07945.6138,W,1,8,1.9,17,M,,M,,*51
05/30/2014	13:08:02.411	$GPGGA,130809,2506.1277,N,07945.6119,W,1,8,1.7,17,M,,M,,*59
05/30/2014	13:08:03.433	$GPGGA,130810,2506.1279,N,07945.6104,W,1,8,1.7,17,M,,M,,*53
05/30/2014	13:08:04.455	$GPGGA,130811,2506.1281,N,07945.6089,W,1,9,2.2,17,M,,M,,*56
05/30/2014	13:08:05.488	$GPGGA,130812,2506.1284,N,07945.6073,W,1,9,1.9,17,M,,M,,*5D
05/30/2014	13:08:06.520	$GPGGA,130813,2506.1288,N,07945.6056,W,1,8,1.9,17,M,,M,,*56
05/30/2014	13:08:07.543	$GPGGA,130814,2506.1290,N,07945.6040,W,1,8,2.2,17,M,,M,,*57
05/30/2014	13:08:08.564	$GPGGA,130815,2506.1294,N,07945.6025,W,1,7,2.2,17,M,,M,,*5E
05/30/2014	13:08:09.607	$GPGGA,130816,2506.1297,N,07945.6006,W,1,7,1.9,18,M,,M,,*58
05/30/2014	13:08:10.650	$GPGGA,130817,2506.1299,N,07945.5987,W,1,7,1.9,18,M,,M,,*54
05/30/2014	13:08:11.662	$GPGGA,130818,2506.1302,N,07945.5972,W,1,7,2.2,18,M,,M,,*5A
05/30/2014	13:08:12.715	$GPGGA,130819,2506.1306,N,07945.5955,W,1,7,1.9,18,M,,M,,*52
05/30/2014	13:08:13.727	$GPGGA,130820,2506.1309,N,07945.5938,W,1,7,1.9,18,M,,M,,*5C
05/30/2014	13:08:14.770	$GPGGA,130821,2506.1313,N,07945.5919,W,1,8,1.7,18,M,,M,,*54
05/30/2014	13:08:15.771	$GPGGA,130822,2506.1316,N,07945.5903,W,1,8,2.2,18,M,,M,,*5F
05/30/2014	13:08:16.824	$GPGGA,130823,2506.1319,N,07945.5886,W,1,7,1.9,18,M,,M,,*5A
05/30/2014	13:08:17.857	$GPGGA,130824,2506.1323,N,07945.5867,W,1,7,1.7,18,M,,M,,*55
05/30/2014	13:08:18.868	$GPGGA,130825,2506.1324,N,07945.5851,W,1,9,2.2,18,M,,M,,*5E
05/30/2014	13:08:19.911	$GPGGA,130826,2506.1328,N,07945.5835,W,1,9,1.9,18,M,,M,,*5B
05/30/2014	13:08:20.922	$GPGGA,130827,2506.1331,N,07945.5819,W,1,8,1.9,18,M,,M,,*5D
05/30/2014	13:08:21.976	$GPGGA,130828,2506.1334,N,07945.5802,W,1,8,2.2,18,M,,M,,*55
05/30/2014	13:08:22.987	$GPGGA,130829,2506.1338,N,07945.5786,W,1,7,1.9,18,M,,M,,*5C
05/30/2014	13:08:24.020	$GPGGA,130830,2506.1342,N,07945.5769,W,1,7,1.9,18,M,,M,,*58
05/30/2014	13:08:25.052	$GPGGA,130831,2506.1345,N,07945.5751,W,1,8,2.2,18,M,,M,,*52
05/30/2014	13:08:26.105	$GPGGA,130832,2506.1346,N,07945.5735,W,1,8,1.7,18,M,,M,,*56
05/30/2014	13:08:27.117	$GPGGA,130833,2506.1350,N,07945.5716,W,1,8,1.7,19,M,,M,,*50
05/30/2014	13:08:28.181	$GPGGA,130834,2506.1356,N,07945.5699,W,1,8,1.7,19,M,,M,,*57
05/30/2014	13:08:29.193	$GPGGA,130835,2506.1357,N,07945.5682,W,1,9,1.7,19,M,,M,,*5C
05/30/2014	13:08:30.216	$GPGGA,130836,2506.1360,N,07945.5665,W,1,9,1.7,19,M,,M,,*52
05/30/2014	13:08:31.268	$GPGGA,130837,2506.1364,N,07945.5647,W,1,8,1.7,19,M,,M,,*56
05/30/2014	13:08:32.280	$GPGGA,130838,2506.1368,N,07945.5630,W,1,8,1.7,19,M,,M,,*55
05/30/2014	13:08:33.312	$GPGGA,130839,2506.1371,N,07945.5613,W,1,8,1.7,19,M,,M,,*5D
05/30/2014	13:08:34.448	$GPGGA,130840,2506.1375,N,07945.5595,W,1,8,1.7,19,M,,M,,*5A
05/30/2014	13:08:35.346	$GPGGA,130841,2506.1378,N,07945.5577,W,1,9,1.7,19,M,,M,,*5B
05/30/2014	13:08:34.441	$GPGGA,130842,2506.1381,N,07945.5561,W,1,9,1.7,19,M,,M,,*59
05/30/2014	13:08:35.586	$GPGGA,130843,2506.1385,N,07945.5543,W,1,8,1.7,19,M,,M,,*5D
05/30/2014	13:08:36.526	$GPGGA,130844,2506.1388,N,07945.5526,W,1,8,1.7,19,M,,M,,*54
05/30/2014	13:08:37.663	$GPGGA,130845,2506.1389,N,07945.5509,W,1,8,1.7,19,M,,M,,*59
05/30/2014	13:08:38.653	$GPGGA,130846,2506.1393,N,07945.5491,W,1,8,1.7,19,M,,M,,*51
05/30/2014	13:08:39.685	$GPGGA,130847,2506.1396,N,07945.5475,W,1,8,1.7,19,M,,M,,*5F
05/30/2014	13:08:40.656	$GPGGA,130848,2506.1399,N,07945.5457,W,1,8,1.9,20,M,,M,,*5B
05/30/2014	13:08:41.750	$GPGGA,130849,2506.1402,N,07945.5440,W,1,8,2.2,20,M,,M,,*51
05/30/2014	13:08:42.702	$GPGGA,130850,2506.1406,N,07945.5425,W,1,8,1.9,20,M,,M,,*56
05/30/2014	13:08:43.826	$GPGGA,130851,2506.1407,N,07945.5408,W,1,8,1.9,20,M,,M,,*59
05/30/2014	13:08:44.776	$GPGGA,130852,2506.1411,N,07945.5392,W,1,8,2.2,20,M,,M,,*51
05/30/2014	13:08:45.777	$GPGGA,130853,2506.1414,N,07945.5377,W,1,7,2.2,20,M,,M,,*51
05/30/2014	13:08:46.892	$GPGGA,130854,2506.1418,N,07945.5361,W,1,7,2.2,20,M,,M,,*5D
05/30/2014	13:08:47.935	$GPGGA,130855,2506.1421,N,07945.5344,W,1,8,1.7,19,M,,M,,*52
05/30/2014	13:08:48.978	$GPGGA,130856,2506.1425,N,07945.5327,W,1,8,1.7,19,M,,M,,*50
05/30/2014	13:08:49.979	$GPGGA,130857,2506.1429,N,07945.5307,W,1,8,1.9,19,M,,M,,*51
05/30/2014	13:08:51.023	$GPGGA,130858,2506.1433,N,07945.5290,W,1,8,1.7,19,M,,M,,*54
05/30/2014	13:08:52.086	$GPGGA,130859,2506.1438,N,07945.5274,W,1,8,1.9,19,M,,M,,*5A
05/30/2014	13:08:53.107	$GPGGA,130900,2506.1440,N,07945.5259,W,1,8,1.9,19,M,,M,,*57
05/30/2014	13:08:54.139	$GPGGA,130901,2506.1443,N,07945.5241,W,1,8,1.9,19,M,,M,,*5C
05/30/2014	13:08:55.151	$GPGGA,130902,2506.1447,N,07945.5223,W,1,8,1.7,19,M,,M,,*51
05/30/2014	13:08:56.194	$GPGGA,130903,2506.1451,N,07945.5206,W,1,9,1.7,20,M,,M,,*5B
05/30/2014	13:08:57.216	$GPGGA,130904,2506.1454,N,07945.5190,W,1,9,1.7,20,M,,M,,*55
05/30/2014	13:08:58.250	$GPGGA,130905,2506.1458,N,07945.5172,W,1,7,2.2,20,M,,M,,*5C
05/30/2014	13:08:59.260	$GPGGA,130906,2506.1462,N,07945.5153,W,1,7,1.7,20,M,,M,,*53
05/30/2014	13:09:00.314	$GPGGA,130907,2506.1465,N,07945.5137,W,1,9,1.7,20,M,,M,,*59
05/30/2014	13:09:01.336	$GPGGA,130908,2506.1469,N,07945.5120,W,1,9,1.9,20,M,,M,,*52
05/30/2014	13:09:02.358	$GPGGA,130909,2506.1475,N,07945.5101,W,1,7,2.2,20,M,,M,,*5B
05/30/2014	13:09:03.380	$GPGGA,130910,2506.1479,N,07945.5086,W,1,7,1.7,20,M,,M,,*57
05/30/2014	13:09:04.433	$GPGGA,130911,2506.1482,N,07945.5068,W,1,8,1.9,20,M,,M,,*53
05/30/2014	13:09:05.455	$GPGGA,130912,2506.1483,N,07945.5053,W,1,8,1.9,20,M,,M,,*59
05/30/2014	13:09:06.510	$GPGGA,130913,2506.1487,N,07945.5035,W,1,7,2.2,20,M,,M,,*5B
05/30/2014	13:09:07.510	$GPGGA,130914,2506.1492,N,07945.5017,W,1,7,1.9,20,M,,M,,*50
05/30/2014	13:09:08.543	$GPGGA,130915,2506.1494,N,07945.5001,W,1,8,1.9,20,M,,M,,*5F
05/30/2014	13:09:09.585	$GPGGA,130916,2506.1497,N,07945.4987,W,1,8,2.2,20,M,,M,,*51
05/30/2014	13:09:10.628	$GPGGA,130917,2506.1501,N,07945.4970,W,1,7,2.2,20,M,,M,,*59
05/30/2014	13:09:11.618	$GPGGA,130918,2506.1505,N,07945.4954,W,1,7,2.2,20,M,,M,,*54
05/30/2014	13:09:12.682	$GPGGA,130919,2506.1508,N,07945.4939,W,1,7,2.2,20,M,,M,,*53
05/30/2014	13:09:13.694	$GPGGA,130920,2506.1512,N,07945.4923,W,1,7,2.2,20,M,,M,,*59
05/30/2014	13:09:14.747	$GPGGA,130921,2506.1515,N,07945.4905,W,1,7,2.2,20,M,,M,,*5B
05/30/2014	13:09:15.738	$GPGGA,130922,2506.1518,N,07945.4889,W,1,7,1.9,20,M,,M,,*58
05/30/2014	13:09:16.782	$GPGGA,130923,2506.1523,N,07945.4872,W,1,7,2.2,20,M,,M,,*5D
05/30/2014	13:09:17.813	$GPGGA,130924,2506.1526,N,07945.4854,W,1,7,1.9,20,M,,M,,*53
05/30/2014	13:09:18.856	$GPGGA,130925,2506.1527,N,07945.4838,W,1,8,1.9,20,M,,M,,*56
05/30/2014	13:09:19.869	$GPGGA,130926,2506.1532,N,07945.4823,W,1,8,2.2,20,M,,M,,*53
05/30/2014	13:09:20.890	$GPGGA,130927,2506.1537,N,07945.4804,W,1,8,1.9,20,M,,M,,*5A
05/30/2014	13:09:22.057	$GPGGA,130928,2506.1541,N,07945.4786,W,1,8,1.7,20,M,,M,,*5F
05/30/2014	13:09:23.090	$GPGGA,130929,2506.1544,N,07945.4769,W,1,8,1.7,20,M,,M,,*5A
05/30/2014	13:09:23.988	$GPGGA,130930,2506.1548,N,07945.4752,W,1,8,1.7,20,M,,M,,*56
05/30/2014	13:09:25.011	$GPGGA,130931,2506.1552,N,07945.4735,W,1,9,1.7,20,M,,M,,*5C
05/30/2014	13:09:26.187	$GPGGA,130932,2506.1555,N,07945.4719,W,1,9,1.7,20,M,,M,,*56
05/30/2014	13:09:27.209	$GPGGA,130933,2506.1559,N,07945.4703,W,1,8,1.7,20,M,,M,,*51
05/30/2014	13:09:28.118	$GPGGA,130934,2506.1563,N,07945.4686,W,1,8,1.7,20,M,,M,,*53
05/30/2014	13:09:29.139	$GPGGA,130935,2506.1566,N,07945.4669,W,1,8,1.7,20,M,,M,,*56
05/30/2014	13:09:30.306	$GPGGA,130936,2506.1570,N,07945.4653,W,1,8,1.7,20,M,,M,,*5B
05/30/2014	13:09:31.297	$GPGGA,130937,2506.1573,N,07945.4636,W,1,8,1.7,20,M,,M,,*5A
05/30/2014	13:09:32.329	$GPGGA,130938,2506.1574,N,07945.4620,W,1,8,1.7,20,M,,M,,*55
05/30/2014	13:09:33.259	$GPGGA,130939,2506.1579,N,07945.4603,W,1,8,1.7,20,M,,M,,*58
05/30/2014	13:09:34.405	$GPGGA,130940,2506.1581,N,07945.4587,W,1,8,1.7,20,M,,M,,*5E
05/30/2014	13:09:35.427	$GPGGA,130941,2506.1584,N,07945.4570,W,1,8,1.9,20,M,,M,,*5C
05/30/2014	13:09:34.511	$GPGGA,130942,2506.1587,N,07945.4551,W,1,8,1.7,20,M,,M,,*51
05/30/2014	13:09:35.543	$GPGGA,130943,2506.1591,N,07945.4534,W,1,8,1.7,20,M,,M,,*54
05/30/2014	13:09:36.587	$GPGGA,130944,2506.1594,N,07945.4518,W,1,8,1.7,20,M,,M,,*58
05/30/2014	13:09:37.629	$GPGGA,130945,2506.1597,N,07945.4500,W,1,8,1.7,20,M,,M,,*53
05/30/2014	13:09:38.630	$GPGGA,130946,2506.1599,N,07945.4483,W,1,8,1.7,20,M,,M,,*54
05/30/2014	13:09:39.673	$GPGGA,130947,2506.1602,N,07945.4466,W,1,9,1.7,20,M,,M,,*5E
05/30/2014	13:09:40.677	$GPGGA,130948,2506.1604,N,07945.4447,W,1,9,1.7,20,M,,M,,*54
05/30/2014	13:09:41.701	$GPGGA,130949,2506.1608,N,07945.4429,W,1,9,1.7,20,M,,M,,*51
05/30/2014	13:09:42.694	$GPGGA,130950,2506.1610,N,07945.4412,W,1,9,1.7,20,M,,M,,*58
05/30/2014	13:09:43.707	$GPGGA,130951,2506.1613,N,07945.4395,W,1,9,1.7,20,M,,M,,*52
05/30/2014	13:09:44.730	$GPGGA,130952,2506.1617,N,07945.4379,W,1,9,1.7,20,M,,M,,*57
05/30/2014	13:09:45.743	$GPGGA,130953,2506.1619,N,07945.4362,W,1,8,1.8,20,M,,M,,*5C
05/30/2014	13:09:46.736	$GPGGA,130954,2506.1622,N,07945.4343,W,1,8,2.2,20,M,,M,,*59
05/30/2014	13:09:47.769	$GPGGA,130955,2506.1627,N,07945.4323,W,1,8,1.8,20,M,,M,,*52
05/30/2014	13:09:48.773	$GPGGA,130956,2506.1628,N,07945.4308,W,1,8,1.7,20,M,,M,,*58
05/30/2014	13:09:49.796	$GPGGA,130957,2506.1631,N,07945.4293,W,1,7,2.2,20,M,,M,,*5B
05/30/2014	13:09:50.779	$GPGGA,130958,2506.1635,N,07945.4277,W,1,7,1.8,20,M,,M,,*53
05/30/2014	13:09:51.823	$GPGGA,130959,2506.1637,N,07945.4259,W,1,7,2.2,20,M,,M,,*55
05/30/2014	13:09:52.836	$GPGGA,131000,2506.1641,N,07945.4245,W,1,7,1.8,20,M,,M,,*54
05/30/2014	13:09:53.809	$GPGGA,131001,2506.1642,N,07945.4225,W,1,6,3.0,20,M,,M,,*5B
05/30/2014	13:09:54.822	$GPGGA,131002,2506.1646,N,07945.4205,W,1,6,1.8,20,M,,M,,*54
05/30/2014	13:09:55.835	$GPGGA,131003,2506.1649,N,07945.4185,W,1,8,1.8,20,M,,M,,*5F
05/30/2014	13:09:56.859	$GPGGA,131004,2506.1655,N,07945.4164,W,1,8,1.8,20,M,,M,,*5A
05/30/2014	13:09:57.902	$GPGGA,131005,2506.1656,N,07945.4147,W,1,9,1.7,20,M,,M,,*57
05/30/2014	13:09:58.875	$GPGGA,131006,2506.1660,N,07945.4131,W,1,9,1.7,20,M,,M,,*50
05/30/2014	13:09:59.878	$GPGGA,131007,2506.1666,N,07945.4112,W,1,8,1.7,20,M,,M,,*57
05/30/2014	13:10:00.912	$GPGGA,131008,2506.1670,N,07945.4095,W,1,8,1.7,20,M,,M,,*51
05/30/2014	13:10:01.946	$GPGGA,131009,2506.1671,N,07945.4079,W,1,9,1.7,20,M,,M,,*52
05/30/2014	13:10:02.927	$GPGGA,131010,2506.1677,N,07945.4061,W,1,9,1.7,20,M,,M,,*55
05/30/2014	13:10:03.941	$GPGGA,131011,2506.1682,N,07945.4044,W,1,9,1.7,20,M,,M,,*59
05/30/2014	13:10:04.954	$GPGGA,131012,2506.1685,N,07945.4026,W,1,9,1.7,20,M,,M,,*59
05/30/2014	13:10:06.069	$GPGGA,131013,2506.1688,N,07945.4009,W,1,9,1.7,20,M,,M,,*58
05/30/2014	13:10:07.051	$GPGGA,131014,2506.1693,N,07945.3991,W,1,9,1.7,20,M,,M,,*5A
05/30/2014	13:10:07.976	$GPGGA,131015,2506.1698,N,07945.3975,W,1,9,1.7,20,M,,M,,*5A
05/30/2014	13:10:08.989	$GPGGA,131016,2506.1700,N,07945.3957,W,1,9,1.8,20,M,,M,,*56
05/30/2014	13:10:10.000	$GPGGA,131017,2506.1704,N,07945.3941,W,1,8,1.7,20,M,,M,,*5A
05/30/2014	13:10:11.004	$GPGGA,131018,2506.1710,N,07945.3924,W,1,8,1.7,20,M,,M,,*53
05/30/2014	13:10:12.017	$GPGGA,131019,2506.1714,N,07945.3906,W,1,8,1.8,20,M,,M,,*59
05/30/2014	13:10:13.152	$GPGGA,131020,2506.1718,N,07945.3889,W,1,8,1.7,20,M,,M,,*56
05/30/2014	13:10:14.145	$GPGGA,131021,2506.1722,N,07945.3872,W,1,9,1.7,20,M,,M,,*5B
05/30/2014	13:10:15.057	$GPGGA,131022,2506.1729,N,07945.3854,W,1,9,1.7,20,M,,M,,*57
05/30/2014	13:10:16.191	$GPGGA,131023,2506.1732,N,07945.3836,W,1,9,1.7,20,M,,M,,*58
05/30/2014	13:10:17.093	$GPGGA,131024,2506.1736,N,07945.3819,W,1,9,1.7,20,M,,M,,*56
05/30/2014	13:10:18.208	$GPGGA,131025,2506.1742,N,07945.3801,W,1,9,1.7,20,M,,M,,*5D
05/30/2014	13:10:19.201	$GPGGA,131026,2506.1747,N,07945.3784,W,1,9,1.7,20,M,,M,,*59
05/30/2014	13:10:20.213	$GPGGA,131027,2506.1750,N,07945.3767,W,1,9,1.7,20,M,,M,,*53
05/30/2014	13:10:21.237	$GPGGA,131028,2506.1754,N,07945.3750,W,1,9,1.7,20,M,,M,,*5C
05/30/2014	13:10:22.260	$GPGGA,131029,2506.1758,N,07945.3733,W,1,9,1.7,20,M,,M,,*54
05/30/2014	13:10:23.233	$GPGGA,131030,2506.1761,N,07945.3717,W,1,9,1.7,20,M,,M,,*50
05/30/2014	13:10:24.257	$GPGGA,131031,2506.1765,N,07945.3701,W,1,8,1.9,20,M,,M,,*5D
05/30/2014	13:10:25.280	$GPGGA,131032,2506.1768,N,07945.3685,W,1,8,2.5,20,M,,M,,*51
05/30/2014	13:10:26.293	$GPGGA,131033,2506.1772,N,07945.3668,W,1,7,2.2,20,M,,M,,*50
05/30/2014	13:10:27.316	$GPGGA,131034,2506.1776,N,07945.3651,W,1,7,1.7,20,M,,M,,*5F
05/30/2014	13:10:28.321	$GPGGA,131035,2506.1779,N,07945.3633,W,1,8,1.7,20,M,,M,,*5A
05/30/2014	13:10:29.323	$GPGGA,131036,2506.1782,N,07945.3617,W,1,8,1.7,20,M,,M,,*5B
05/30/2014	13:10:30.337	$GPGGA,131037,2506.1786,N,07945.3602,W,1,7,2.2,20,M,,M,,*53
05/30/2014	13:10:31.329	$GPGGA,131038,2506.1789,N,07945.3584,W,1,7,2.2,20,M,,M,,*5E
05/30/2014	13:10:32.363	$GPGGA,131039,2506.1792,N,07945.3566,W,1,8,1.8,20,M,,M,,*5F
05/30/2014	13:10:33.376	$GPGGA,131040,2506.1794,N,07945.3549,W,1,8,1.7,20,M,,M,,*55
05/30/2014	13:10:34.359	$GPGGA,131041,2506.1799,N,07945.3532,W,1,9,1.7,20,M,,M,,*54
05/30/2014	13:10:34.474	$GPGGA,131042,2506.1801,N,07945.3516,W,1,9,1.9,20,M,,M,,*51
05/30/2014	13:10:35.477	$GPGGA,131043,2506.1805,N,07945.3499,W,1,8,1.8,20,M,,M,,*52
05/30/2014	13:10:36.500	$GPGGA,131044,2506.1810,N,07945.3480,W,1,8,1.8,20,M,,M,,*59
05/30/2014	13:10:37.523	$GPGGA,131045,2506.1814,N,07945.3462,W,1,9,1.7,20,M,,M,,*5E
05/30/2014	13:10:38.506	$GPGGA,131046,2506.1818,N,07945.3445,W,1,9,1.8,20,M,,M,,*5B
05/30/2014	13:10:39.529	$GPGGA,131047,2506.1822,N,07945.3428,W,1,8,1.8,20,M,,M,,*59
05/30/2014	13:10:40.553	$GPGGA,131048,2506.1825,N,07945.3412,W,1,8,1.8,20,M,,M,,*58
05/30/2014	13:10:41.536	$GPGGA,131049,2506.1828,N,07945.3394,W,1,8,1.8,20,M,,M,,*5D
05/30/2014	13:10:42.559	$GPGGA,131050,2506.1830,N,07945.3378,W,1,8,1.7,20,M,,M,,*51
05/30/2014	13:10:43.562	$GPGGA,131051,2506.1834,N,07945.3362,W,1,7,2.2,20,M,,M,,*56
05/30/2014	13:10:44.596	$GPGGA,131052,2506.1837,N,07945.3346,W,1,7,2.1,20,M,,M,,*53
05/30/2014	13:10:45.620	$GPGGA,131053,2506.1840,N,07945.3330,W,1,8,1.8,20,M,,M,,*56
05/30/2014	13:10:46.613	$GPGGA,131054,2506.1843,N,07945.3315,W,1,8,2.2,20,M,,M,,*5C
05/30/2014	13:10:47.636	$GPGGA,131055,2506.1846,N,07945.3298,W,1,7,2.2,20,M,,M,,*53
05/30/2014	13:10:48.649	$GPGGA,131056,2506.1848,N,07945.3282,W,1,7,2.2,20,M,,M,,*55
05/30/2014	13:10:49.632	$GPGGA,131057,2506.1851,N,07945.3265,W,1,6,2.9,20,M,,M,,*5F
05/30/2014	13:10:50.655	$GPGGA,131058,2506.1854,N,07945.3248,W,1,6,1.8,20,M,,M,,*58
05/30/2014	13:10:51.651	$GPGGA,131059,2506.1858,N,07945.3231,W,1,7,2.2,20,M,,M,,*53
05/30/2014	13:10:52.845	$GPGGA,131100,2506.1861,N,07945.3216,W,1,7,2.2,20,M,,M,,*51
05/30/2014	13:10:53.705	$GPGGA,131101,2506.1862,N,07945.3199,W,1,8,1.8,20,M,,M,,*51
05/30/2014	13:10:54.678	$GPGGA,131102,2506.1868,N,07945.3180,W,1,8,2.2,20,M,,M,,*59
05/30/2014	13:10:55.711	$GPGGA,131103,2506.1872,N,07945.3161,W,1,8,1.8,20,M,,M,,*55
05/30/2014	13:10:56.866	$GPGGA,131104,2506.1873,N,07945.3143,W,1,8,1.8,20,M,,M,,*53
05/30/2014	13:10:57.909	$GPGGA,131105,2506.1876,N,07945.3126,W,1,8,1.7,20,M,,M,,*5B
05/30/2014	13:10:58.821	$GPGGA,131106,2506.1880,N,07945.3108,W,1,8,1.7,20,M,,M,,*5D
05/30/2014	13:10:59.926	$GPGGA,131107,2506.1884,N,07945.3091,W,1,9,1.8,20,M,,M,,*57
05/30/2014	13:11:00.858	$GPGGA,131108,2506.1886,N,07945.3074,W,1,9,1.8,20,M,,M,,*51
05/30/2014	13:11:01.952	$GPGGA,131109,2506.1891,N,07945.3056,W,1,9,1.7,20,M,,M,,*59
05/30/2014	13:11:02.795	$GPGGA,131110,2506.1894,N,07945.3039,W,1,9,1.7,20,M,,M,,*5D
05/30/2014	13:11:03.979	$GPGGA,131111,2506.1898,N,07945.3023,W,1,8,1.8,21,M,,M,,*54
05/30/2014	13:11:04.821	$GPGGA,131112,2506.1902,N,07945.3007,W,1,8,1.8,21,M,,M,,*53
05/30/2014	13:11:05.975	$GPGGA,131113,2506.1905,N,07945.2987,W,1,8,1.7,21,M,,M,,*5A
05/30/2014	13:11:06.968	$GPGGA,131114,2506.1908,N,07945.2970,W,1,8,2.2,21,M,,M,,*5E
05/30/2014	13:11:08.043	$GPGGA,131115,2506.1913,N,07945.2954,W,1,7,2.1,21,M,,M,,*5F
05/30/2014	13:11:08.985	$GPGGA,131116,2506.1917,N,07945.2937,W,1,7,2.1,21,M,,M,,*5D
05/30/2014	13:11:10.059	$GPGGA,131117,2506.1920,N,07945.2919,W,1,9,2.2,21,M,,M,,*59
05/30/2014	13:11:10.961	$GPGGA,131118,2506.1924,N,07945.2904,W,1,9,2.2,21,M,,M,,*5E
05/30/2014	13:11:12.075	$GPGGA,131119,2506.1930,N,07945.2884,W,1,7,1.7,20,M,,M,,*5A
05/30/2014	13:11:13.047	$GPGGA,131120,2506.1934,N,07945.2866,W,1,7,1.7,20,M,,M,,*58
05/30/2014	13:11:14.111	$GPGGA,131121,2506.1938,N,07945.2848,W,1,9,1.7,20,M,,M,,*57
05/30/2014	13:11:15.003	$GPGGA,131122,2506.1942,N,07945.2832,W,1,9,1.7,20,M,,M,,*54
05/30/2014	13:11:16.117	$GPGGA,131123,2506.1946,N,07945.2815,W,1,6,1.8,20,M,,M,,*54
05/30/2014	13:11:17.090	$GPGGA,131124,2506.1949,N,07945.2798,W,1,6,1.8,20,M,,M,,*56
05/30/2014	13:11:18.114	$GPGGA,131125,2506.1953,N,07945.2781,W,1,8,1.8,20,M,,M,,*5A
05/30/2014	13:11:19.076	$GPGGA,131126,2506.1956,N,07945.2764,W,1,8,1.7,20,M,,M,,*58
05/30/2014	13:11:20.181	$GPGGA,131127,2506.1962,N,07945.2746,W,1,8,1.8,20,M,,M,,*51
05/30/2014	13:11:21.093	$GPGGA,131128,2506.1964,N,07945.2728,W,1,8,1.8,20,M,,M,,*50
05/30/2014	13:11:22.198	$GPGGA,131129,2506.1969,N,07945.2710,W,1,8,1.7,20,M,,M,,*58
05/30/2014	13:11:23.129	$GPGGA,131130,2506.1974,N,07945.2692,W,1,8,1.7,20,M,,M,,*57
05/30/2014	13:11:24.224	$GPGGA,131131,2506.1978,N,07945.2674,W,1,8,1.9,20,M,,M,,*5C
05/30/2014	13:11:25.156	$GPGGA,131132,2506.1982,N,07945.2659,W,1,8,1.9,20,M,,M,,*55
05/30/2014	13:11:26.251	$GPGGA,131133,2506.1985,N,07945.2641,W,1,8,1.9,20,M,,M,,*5A
05/30/2014	13:11:27.142	$GPGGA,131134,2506.1989,N,07945.2622,W,1,8,1.9,20,M,,M,,*54
05/30/2014	13:11:28.145	$GPGGA,131135,2506.1995,N,07945.2604,W,1,9,1.7,20,M,,M,,*53
05/30/2014	13:11:29.209	$GPGGA,131136,2506.1999,N,07945.2587,W,1,9,1.9,20,M,,M,,*5A
05/30/2014	13:11:30.282	$GPGGA,131137,2506.2002,N,07945.2570,W,1,8,1.8,20,M,,M,,*5B
05/30/2014	13:11:31.215	$GPGGA,131138,2506.2007,N,07945.2554,W,1,8,2.1,20,M,,M,,*5D
05/30/2014	13:11:32.289	$GPGGA,131139,2506.2010,N,07945.2536,W,1,7,1.7,21,M,,M,,*55
05/30/2014	13:11:33.251	$GPGGA,131140,2506.2014,N,07945.2518,W,1,7,1.7,21,M,,M,,*53
05/30/2014	13:11:34.305	$GPGGA,131141,2506.2020,N,07945.2500,W,1,9,1.7,21,M,,M,,*52
05/30/2014	13:11:34.430	$GPGGA,131142,2506.2025,N,07945.2483,W,1,9,1.7,21,M,,M,,*5E
05/30/2014	13:11:35.575	$GPGGA,131143,2506.2028,N,07945.2468,W,1,8,1.8,21,M,,M,,*59
05/30/2014	13:11:36.467	$GPGGA,131144,2506.2032,N,07945.2452,W,1,8,2.1,21,M,,M,,*56
05/30/2014	13:11:37.612	$GPGGA,131145,2506.2036,N,07945.2435,W,1,8,1.8,21,M,,M,,*58
05/30/2014	13:11:38.504	$GPGGA,131146,2506.2039,N,07945.2419,W,1,8,1.8,21,M,,M,,*5A
05/30/2014	13:11:39.608	$GPGGA,131147,2506.2043,N,07945.2402,W,1,8,1.8,20,M,,M,,*5D
05/30/2014	13:11:40.551	$GPGGA,131148,2506.2047,N,07945.2385,W,1,8,2.2,20,M,,M,,*57
