Software Version Number: 1	Data File Format Number: 1	Build Version Number: 1	Error Count Since VI Started: 0	Manufacturer: Raytheon	 Model Number: RayMarine 120	 S/N: 	 Cal Date: 	 Wind Direction Offset: 0.00	 Slope (M)1: 0.00	 Offset (B)1: 0.00	 Slope (M)2: 0.00	 Offset (B)2: 0.00	 Slope (M)3: 0.00	 Offset (B)3: 0.00	 Slope (M)4: 0.00	 Offset (B)4: 0.00	 Slope (M)5: 0.00	 Offset (B)5: 0.00	 Slope (M)6: 0.00	 Offset (B)6: 0.00
Computer Date	Computer Time	GGA String
05/31/2014	10:00:00.723	$GPGGA,100001,2504.3008,N,07917.4114,W,1,8,1.6,9,M,,M,,*66
05/31/2014	10:00:01.713	$GPGGA,100002,2504.3002,N,07917.4110,W,1,8,1.6,9,M,,M,,*6B
05/31/2014	10:00:02.713	$GPGGA,100003,2504.2997,N,07917.4104,W,1,8,1.6,9,M,,M,,*6B
05/31/2014	10:00:03.713	$GPGGA,100004,2504.2990,N,07917.4099,W,1,8,1.6,9,M,,M,,*6E
05/31/2014	10:00:04.734	$GPGGA,100005,2504.2986,N,07917.4094,W,1,8,1.6,9,M,,M,,*65
05/31/2014	10:00:05.693	$GPGGA,100006,2504.2979,N,07917.4089,W,1,8,1.6,9,M,,M,,*6A
05/31/2014	10:00:06.715	$GPGGA,100007,2504.2973,N,07917.4083,W,1,8,1.6,9,M,,M,,*6B
05/31/2014	10:00:07.713	$GPGGA,100008,2504.2968,N,07917.4078,W,1,8,1.6,9,M,,M,,*6A
05/31/2014	10:00:08.713	$GPGGA,100009,2504.2962,N,07917.4073,W,1,8,1.6,9,M,,M,,*6A
05/31/2014	10:00:09.683	$GPGGA,100010,2504.2957,N,07917.4068,W,1,8,1.6,9,M,,M,,*6E
05/31/2014	10:00:10.713	$GPGGA,100011,2504.2951,N,07917.4063,W,1,8,1.6,9,M,,M,,*62
05/31/2014	10:00:11.703	$GPGGA,100012,2504.2945,N,07917.4058,W,1,8,1.6,9,M,,M,,*6C
05/31/2014	10:00:12.673	$GPGGA,100013,2504.2940,N,07917.4052,W,1,8,1.6,9,M,,M,,*62
05/31/2014	10:00:13.683	$GPGGA,100014,2504.2934,N,07917.4047,W,1,8,1.6,9,M,,M,,*62
05/31/2014	10:00:14.713	$GPGGA,100015,2504.2928,N,07917.4042,W,1,8,1.6,9,M,,M,,*6B
05/31/2014	10:00:15.693	$GPGGA,100016,2504.2923,N,07917.4036,W,1,8,1.6,9,M,,M,,*60
05/31/2014	10:00:16.703	$GPGGA,100017,2504.2917,N,07917.4031,W,1,8,1.6,9,M,,M,,*61
05/31/2014	10:00:17.683	$GPGGA,100018,2504.2911,N,07917.4026,W,1,8,1.6,9,M,,M,,*6E
05/31/2014	10:00:18.663	$GPGGA,100019,2504.2906,N,07917.4020,W,1,8,1.6,9,M,,M,,*6F
05/31/2014	10:00:19.683	$GPGGA,100020,2504.2900,N,07917.4015,W,1,8,1.6,9,M,,M,,*65
05/31/2014	10:00:20.693	$GPGGA,100021,2504.2894,N,07917.4009,W,1,8,1.6,9,M,,M,,*65
05/31/2014	10:00:21.664	$GPGGA,100022,2504.2889,N,07917.4003,W,1,8,1.6,9,M,,M,,*60
05/31/2014	10:00:22.664	$GPGGA,100023,2504.2883,N,07917.3999,W,1,8,1.6,9,M,,M,,*66
05/31/2014	10:00:23.663	$GPGGA,100024,2504.2878,N,07917.3993,W,1,8,1.6,9,M,,M,,*6F
05/31/2014	10:00:24.663	$GPGGA,100025,2504.2872,N,07917.3987,W,1,8,1.6,9,M,,M,,*61
05/31/2014	10:00:25.653	$GPGGA,100026,2504.2867,N,07917.3982,W,1,8,1.6,9,M,,M,,*63
05/31/2014	10:00:26.783	$GPGGA,100027,2504.2860,N,07917.3977,W,1,8,1.6,9,M,,M,,*6F
05/31/2014	10:00:27.663	$GPGGA,100028,2504.2856,N,07917.3971,W,1,8,1.6,9,M,,M,,*63
05/31/2014	10:00:28.663	$GPGGA,100029,2504.2849,N,07917.3966,W,1,8,1.6,9,M,,M,,*6A
05/31/2014	10:00:29.743	$GPGGA,100030,2504.2843,N,07917.3961,W,1,8,1.6,9,M,,M,,*6F
05/31/2014	10:00:30.643	$GPGGA,100031,2504.2838,N,07917.3955,W,1,8,1.6,9,M,,M,,*65
05/31/2014	10:00:31.773	$GPGGA,100032,2504.2831,N,07917.3949,W,1,8,1.6,9,M,,M,,*62
05/31/2014	10:00:32.773	$GPGGA,100033,2504.2827,N,07917.3943,W,1,8,1.6,9,M,,M,,*6E
05/31/2014	10:00:33.753	$GPGGA,100034,2504.2820,N,07917.3938,W,1,8,1.6,9,M,,M,,*62
05/31/2014	10:00:34.653	$GPGGA,100035,2504.2813,N,07917.3933,W,1,8,1.6,9,M,,M,,*68
05/31/2014	10:00:35.773	$GPGGA,100036,2504.2809,N,07917.3927,W,1,8,1.6,9,M,,M,,*65
05/31/2014	10:00:36.633	$GPGGA,100037,2504.2802,N,07917.3921,W,1,8,1.6,9,M,,M,,*69
05/31/2014	10:00:37.643	$GPGGA,100038,2504.2796,N,07917.3917,W,1,8,1.6,9,M,,M,,*61
05/31/2014	10:00:38.743	$GPGGA,100039,2504.2791,N,07917.3912,W,1,8,1.6,9,M,,M,,*62
05/31/2014	10:00:39.653	$GPGGA,100040,2504.2785,N,07917.3906,W,1,8,1.6,9,M,,M,,*6C
05/31/2014	10:00:40.743	$GPGGA,100041,2504.2780,N,07917.3902,W,1,8,1.6,9,M,,M,,*6C
05/31/2014	10:00:41.627	$GPGGA,100042,2504.2773,N,07917.3897,W,1,8,1.6,9,M,,M,,*6E
05/31/2014	10:00:42.743	$GPGGA,100043,2504.2767,N,07917.3892,W,1,8,1.6,9,M,,M,,*6F
05/31/2014	10:00:43.733	$GPGGA,100044,2504.2762,N,07917.3886,W,1,8,1.6,9,M,,M,,*68
05/31/2014	10:00:44.743	$GPGGA,100045,2504.2755,N,07917.3883,W,1,8,1.6,9,M,,M,,*68
05/31/2014	10:00:45.713	$GPGGA,100046,2504.2749,N,07917.3878,W,1,8,1.6,9,M,,M,,*62
05/31/2014	10:00:46.743	$GPGGA,100047,2504.2744,N,07917.3872,W,1,8,1.6,9,M,,M,,*64
05/31/2014	10:00:47.733	$GPGGA,100048,2504.2737,N,07917.3868,W,1,8,1.6,9,M,,M,,*64
05/31/2014	10:00:48.733	$GPGGA,100049,2504.2731,N,07917.3863,W,1,8,1.6,9,M,,M,,*68
05/31/2014	10:00:49.703	$GPGGA,100050,2504.2726,N,07917.3858,W,1,8,1.6,9,M,,M,,*6E
05/31/2014	10:00:50.693	$GPGGA,100051,2504.2719,N,07917.3853,W,1,8,1.6,9,M,,M,,*68
05/31/2014	10:00:51.753	$GPGGA,100052,2504.2713,N,07917.3850,W,1,8,1.6,9,M,,M,,*62
05/31/2014	10:00:52.724	$GPGGA,100053,2504.2708,N,07917.3844,W,1,8,1.6,9,M,,M,,*6C
05/31/2014	10:00:53.693	$GPGGA,100054,2504.2702,N,07917.3839,W,1,8,1.6,10,M,,M,,*53
05/31/2014	10:00:54.723	$GPGGA,100055,2504.2697,N,07917.3835,W,1,8,1.6,10,M,,M,,*53
05/31/2014	10:00:55.713	$GPGGA,100056,2504.2690,N,07917.3830,W,1,8,1.6,10,M,,M,,*52
05/31/2014	10:00:56.713	$GPGGA,100057,2504.2683,N,07917.3826,W,1,8,1.6,10,M,,M,,*56
05/31/2014	10:00:57.693	$GPGGA,100058,2504.2677,N,07917.3821,W,1,8,1.6,10,M,,M,,*55
05/31/2014	10:00:58.713	$GPGGA,100059,2504.2672,N,07917.3816,W,1,8,1.6,10,M,,M,,*55
05/31/2014	10:00:59.713	$GPGGA,100100,2504.2665,N,07917.3812,W,1,8,1.6,10,M,,M,,*5A
05/31/2014	10:01:00.713	$GPGGA,100101,2504.2659,N,07917.3808,W,1,8,1.6,10,M,,M,,*5F
05/31/2014	10:01:01.683	$GPGGA,100102,2504.2652,N,07917.3803,W,1,8,1.6,10,M,,M,,*5C
05/31/2014	10:01:02.703	$GPGGA,100103,2504.2646,N,07917.3799,W,1,8,1.6,10,M,,M,,*54
05/31/2014	10:01:03.703	$GPGGA,100104,2504.2641,N,07917.3794,W,1,8,1.6,10,M,,M,,*59
05/31/2014	10:01:04.673	$GPGGA,100105,2504.2634,N,07917.3790,W,1,8,1.6,10,M,,M,,*5E
05/31/2014	10:01:05.693	$GPGGA,100106,2504.2629,N,07917.3786,W,1,8,1.6,10,M,,M,,*56
05/31/2014	10:01:06.713	$GPGGA,100107,2504.2623,N,07917.3781,W,1,8,1.6,10,M,,M,,*5A
05/31/2014	10:01:07.693	$GPGGA,100108,2504.2616,N,07917.3777,W,1,8,1.6,10,M,,M,,*5A
05/31/2014	10:01:08.663	$GPGGA,100109,2504.2610,N,07917.3772,W,1,8,1.6,10,M,,M,,*58
05/31/2014	10:01:09.683	$GPGGA,100110,2504.2604,N,07917.3768,W,1,8,1.6,10,M,,M,,*5E
05/31/2014	10:01:10.663	$GPGGA,100111,2504.2598,N,07917.3764,W,1,8,1.6,10,M,,M,,*55
05/31/2014	10:01:11.683	$GPGGA,100112,2504.2592,N,07917.3760,W,1,8,1.6,10,M,,M,,*58
05/31/2014	10:01:12.673	$GPGGA,100113,2504.2585,N,07917.3756,W,1,8,1.6,10,M,,M,,*5A
05/31/2014	10:01:13.663	$GPGGA,100114,2504.2579,N,07917.3752,W,1,8,1.6,10,M,,M,,*5A
05/31/2014	10:01:14.653	$GPGGA,100115,2504.2574,N,07917.3748,W,1,8,1.6,10,M,,M,,*5D
05/31/2014	10:01:15.783	$GPGGA,100116,2504.2567,N,07917.3744,W,1,8,1.6,10,M,,M,,*50
05/31/2014	10:01:16.774	$GPGGA,100117,2504.2561,N,07917.3740,W,1,8,1.6,10,M,,M,,*53
05/31/2014	10:01:17.673	$GPGGA,100118,2504.2556,N,07917.3735,W,1,8,1.6,10,M,,M,,*5A
05/31/2014	10:01:18.683	$GPGGA,100119,2504.2549,N,07917.3731,W,1,8,1.6,10,M,,M,,*51
05/31/2014	10:01:19.673	$GPGGA,100120,2504.2542,N,07917.3727,W,1,8,1.6,10,M,,M,,*57
05/31/2014	10:01:20.773	$GPGGA,100121,2504.2536,N,07917.3723,W,1,8,1.6,10,M,,M,,*51
05/31/2014	10:01:21.663	$GPGGA,100122,2504.2529,N,07917.3719,W,1,8,1.6,10,M,,M,,*55
05/31/2014	10:01:22.653	$GPGGA,100123,2504.2523,N,07917.3715,W,1,8,1.6,10,M,,M,,*52
05/31/2014	10:01:23.763	$GPGGA,100124,2504.2516,N,07917.3711,W,1,8,1.6,10,M,,M,,*57
05/31/2014	10:01:24.773	$GPGGA,100125,2504.2510,N,07917.3706,W,1,8,1.6,10,M,,M,,*56
05/31/2014	10:01:25.733	$GPGGA,100126,2504.2504,N,07917.3702,W,1,8,1.6,10,M,,M,,*54
05/31/2014	10:01:26.633	$GPGGA,100127,2504.2497,N,07917.3699,W,1,8,1.6,10,M,,M,,*5D
05/31/2014	10:01:27.763	$GPGGA,100128,2504.2491,N,07917.3693,W,1,8,1.6,10,M,,M,,*5E
05/31/2014	10:01:28.723	$GPGGA,100129,2504.2484,N,07917.3688,W,1,7,2.6,10,M,,M,,*5D
05/31/2014	10:01:29.643	$GPGGA,100130,2504.2477,N,07917.3685,W,1,7,2.6,10,M,,M,,*54
05/31/2014	10:01:30.723	$GPGGA,100131,2504.2470,N,07917.3680,W,1,7,2.6,10,M,,M,,*57
05/31/2014	10:01:31.663	$GPGGA,100132,2504.2464,N,07917.3675,W,1,7,2.6,10,M,,M,,*5B
05/31/2014	10:01:32.714	$GPGGA,100133,2504.2456,N,07917.3671,W,1,7,2.6,10,M,,M,,*5F
05/31/2014	10:01:33.636	$GPGGA,100134,2504.2449,N,07917.3667,W,1,7,2.6,10,M,,M,,*51
05/31/2014	10:01:34.723	$GPGGA,100135,2504.2444,N,07917.3662,W,1,7,2.6,10,M,,M,,*58
05/31/2014	10:01:35.733	$GPGGA,100136,2504.2437,N,07917.3657,W,1,7,2.6,10,M,,M,,*59
05/31/2014	10:01:36.723	$GPGGA,100137,2504.2431,N,07917.3653,W,1,7,2.6,10,M,,M,,*5A
05/31/2014	10:01:37.713	$GPGGA,100138,2504.2426,N,07917.3649,W,1,7,2.6,10,M,,M,,*58
05/31/2014	10:01:39.943	$GPGGA,100140,2504.2413,N,07917.3639,W,1,7,2.6,10,M,,M,,*56
05/31/2014	10:01:40.723	$GPGGA,100141,2504.2406,N,07917.3635,W,1,7,2.6,9,M,,M,,*67
05/31/2014	10:01:41.703	$GPGGA,100142,2504.2401,N,07917.3630,W,1,7,2.6,9,M,,M,,*66
05/31/2014	10:01:42.723	$GPGGA,100143,2504.2394,N,07917.3624,W,1,7,2.6,9,M,,M,,*69
05/31/2014	10:01:43.713	$GPGGA,100144,2504.2388,N,07917.3620,W,1,7,2.6,9,M,,M,,*67
05/31/2014	10:01:44.723	$GPGGA,100145,2504.2383,N,07917.3616,W,1,7,2.6,9,M,,M,,*68
05/31/2014	10:01:45.693	$GPGGA,100146,2504.2377,N,07917.3610,W,1,7,2.6,9,M,,M,,*66
05/31/2014	10:01:46.703	$GPGGA,100147,2504.2370,N,07917.3605,W,1,7,2.6,9,M,,M,,*64
05/31/2014	10:01:47.703	$GPGGA,100148,2504.2365,N,07917.3600,W,1,7,2.6,9,M,,M,,*6A
05/31/2014	10:01:48.703	$GPGGA,100149,2504.2359,N,07917.3595,W,1,7,2.6,9,M,,M,,*6B
05/31/2014	10:01:49.683	$GPGGA,100150,2504.2354,N,07917.3590,W,1,7,2.6,9,M,,M,,*6B
05/31/2014	10:01:50.683	$GPGGA,100151,2504.2348,N,07917.3585,W,1,7,2.6,9,M,,M,,*63
05/31/2014	10:01:51.694	$GPGGA,100152,2504.2343,N,07917.3580,W,1,7,2.6,9,M,,M,,*6E
05/31/2014	10:01:52.673	$GPGGA,100153,2504.2336,N,07917.3575,W,1,7,2.6,9,M,,M,,*67
05/31/2014	10:01:53.683	$GPGGA,100154,2504.2332,N,07917.3570,W,1,7,2.6,9,M,,M,,*61
05/31/2014	10:01:54.703	$GPGGA,100155,2504.2326,N,07917.3565,W,1,7,2.6,9,M,,M,,*61
05/31/2014	10:01:55.683	$GPGGA,100156,2504.2320,N,07917.3559,W,1,7,2.6,9,M,,M,,*6B
05/31/2014	10:01:56.703	$GPGGA,100157,2504.2315,N,07917.3554,W,1,7,2.6,9,M,,M,,*61
05/31/2014	10:01:57.663	$GPGGA,100158,2504.2309,N,07917.3548,W,1,7,2.6,9,M,,M,,*6E
05/31/2014	10:01:58.703	$GPGGA,100159,2504.2303,N,07917.3543,W,1,7,2.6,9,M,,M,,*6E
05/31/2014	10:01:59.673	$GPGGA,100200,2504.2297,N,07917.3538,W,1,7,2.6,9,M,,M,,*61
05/31/2014	10:02:00.653	$GPGGA,100201,2504.2292,N,07917.3532,W,1,7,2.6,9,M,,M,,*6F
05/31/2014	10:02:01.673	$GPGGA,100202,2504.2286,N,07917.3526,W,1,7,2.6,9,M,,M,,*6C
05/31/2014	10:02:02.673	$GPGGA,100203,2504.2281,N,07917.3522,W,1,7,2.6,9,M,,M,,*6E
05/31/2014	10:02:03.673	$GPGGA,100204,2504.2275,N,07917.3517,W,1,7,2.6,9,M,,M,,*64
05/31/2014	10:02:04.673	$GPGGA,100205,2504.2271,N,07917.3511,W,1,7,2.6,9,M,,M,,*67
05/31/2014	10:02:05.663	$GPGGA,100206,2504.2265,N,07917.3505,W,1,7,2.6,9,M,,M,,*64
05/31/2014	10:02:06.653	$GPGGA,100207,2504.2260,N,07917.3500,W,1,7,2.6,9,M,,M,,*65
05/31/2014	10:02:07.663	$GPGGA,100208,2504.2254,N,07917.3495,W,1,7,2.6,9,M,,M,,*60
05/31/2014	10:02:08.653	$GPGGA,100209,2504.2249,N,07917.3489,W,1,7,2.6,9,M,,M,,*60
05/31/2014	10:02:09.753	$GPGGA,100210,2504.2243,N,07917.3483,W,1,7,2.6,9,M,,M,,*68
05/31/2014	10:02:10.633	$GPGGA,100211,2504.2238,N,07917.3478,W,1,7,2.6,9,M,,M,,*61
05/31/2014	10:02:11.743	$GPGGA,100212,2504.2233,N,07917.3472,W,1,7,2.6,9,M,,M,,*63
05/31/2014	10:02:12.763	$GPGGA,100213,2504.2227,N,07917.3467,W,1,7,2.6,9,M,,M,,*63
05/31/2014	10:02:13.643	$GPGGA,100214,2504.2221,N,07917.3461,W,1,7,2.6,9,M,,M,,*64
05/31/2014	10:02:14.723	$GPGGA,100215,2504.2216,N,07917.3456,W,1,7,2.6,9,M,,M,,*65
05/31/2014	10:02:15.653	$GPGGA,100216,2504.2210,N,07917.3450,W,1,7,2.6,9,M,,M,,*66
05/31/2014	10:02:16.633	$GPGGA,100217,2504.2204,N,07917.3444,W,1,7,2.6,9,M,,M,,*67
05/31/2014	10:02:17.723	$GPGGA,100218,2504.2199,N,07917.3438,W,1,7,2.6,9,M,,M,,*64
05/31/2014	10:02:18.623	$GPGGA,100219,2504.2193,N,07917.3433,W,1,7,2.6,9,M,,M,,*64
05/31/2014	10:02:19.723	$GPGGA,100220,2504.2188,N,07917.3427,W,1,7,2.6,9,M,,M,,*61
05/31/2014	10:02:20.713	$GPGGA,100221,2504.2181,N,07917.3421,W,1,7,2.6,9,M,,M,,*6F
05/31/2014	10:02:21.723	$GPGGA,100222,2504.2175,N,07917.3416,W,1,7,2.6,9,M,,M,,*63
05/31/2014	10:02:22.713	$GPGGA,100223,2504.2169,N,07917.3411,W,1,7,2.6,9,M,,M,,*68
05/31/2014	10:02:23.723	$GPGGA,100224,2504.2163,N,07917.3405,W,1,7,2.6,9,M,,M,,*60
05/31/2014	10:02:24.743	$GPGGA,100225,2504.2157,N,07917.3399,W,1,7,2.6,9,M,,M,,*64
05/31/2014	10:02:25.703	$GPGGA,100226,2504.2151,N,07917.3394,W,1,7,2.6,9,M,,M,,*6C
05/31/2014	10:02:26.725	$GPGGA,100227,2504.2144,N,07917.3389,W,1,7,2.6,9,M,,M,,*65
05/31/2014	10:02:27.712	$GPGGA,100228,2504.2139,N,07917.3382,W,1,7,2.6,9,M,,M,,*6B
05/31/2014	10:02:28.712	$GPGGA,100229,2504.2133,N,07917.3376,W,1,7,2.6,9,M,,M,,*6B
05/31/2014	10:02:29.692	$GPGGA,100230,2504.2127,N,07917.3372,W,1,7,2.6,9,M,,M,,*62
05/31/2014	10:02:30.682	$GPGGA,100231,2504.2121,N,07917.3366,W,1,7,2.6,9,M,,M,,*60
05/31/2014	10:02:31.702	$GPGGA,100232,2504.2116,N,07917.3360,W,1,7,2.6,9,M,,M,,*61
05/31/2014	10:02:32.692	$GPGGA,100233,2504.2110,N,07917.3355,W,1,7,2.6,9,M,,M,,*60
05/31/2014	10:02:33.682	$GPGGA,100234,2504.2103,N,07917.3350,W,1,7,2.6,9,M,,M,,*60
05/31/2014	10:02:34.692	$GPGGA,100235,2504.2098,N,07917.3345,W,1,7,2.6,9,M,,M,,*66
05/31/2014	10:02:35.692	$GPGGA,100236,2504.2092,N,07917.3339,W,1,7,2.6,9,M,,M,,*64
05/31/2014	10:02:36.692	$GPGGA,100237,2504.2086,N,07917.3334,W,1,7,2.6,9,M,,M,,*6D
05/31/2014	10:02:37.672	$GPGGA,100238,2504.2080,N,07917.3329,W,1,7,2.6,9,M,,M,,*68
05/31/2014	10:02:38.672	$GPGGA,100239,2504.2076,N,07917.3323,W,1,7,2.6,9,M,,M,,*6A
05/31/2014	10:02:39.673	$GPGGA,100240,2504.2069,N,07917.3318,W,1,7,2.6,9,M,,M,,*62
05/31/2014	10:02:40.662	$GPGGA,100241,2504.2063,N,07917.3313,W,1,7,2.6,9,M,,M,,*62
05/31/2014	10:02:41.672	$GPGGA,100242,2504.2057,N,07917.3308,W,1,7,2.6,9,M,,M,,*6C
05/31/2014	10:02:42.652	$GPGGA,100243,2504.2052,N,07917.3303,W,1,7,2.6,9,M,,M,,*63
05/31/2014	10:02:43.672	$GPGGA,100244,2504.2045,N,07917.3298,W,1,7,2.6,9,M,,M,,*61
05/31/2014	10:02:44.692	$GPGGA,100245,2504.2040,N,07917.3293,W,1,7,2.6,9,M,,M,,*6E
05/31/2014	10:02:45.662	$GPGGA,100246,2504.2033,N,07917.3288,W,1,7,2.6,9,M,,M,,*63
05/31/2014	10:02:46.682	$GPGGA,100247,2504.2027,N,07917.3283,W,1,7,2.6,9,M,,M,,*6C
05/31/2014	10:02:47.782	$GPGGA,100248,2504.2021,N,07917.3279,W,1,7,2.6,9,M,,M,,*60
05/31/2014	10:02:48.662	$GPGGA,100249,2504.2015,N,07917.3274,W,1,7,2.6,9,M,,M,,*6B
05/31/2014	10:02:49.642	$GPGGA,100250,2504.2008,N,07917.3268,W,1,7,2.6,9,M,,M,,*62
05/31/2014	10:02:50.642	$GPGGA,100251,2504.2002,N,07917.3264,W,1,7,2.6,9,M,,M,,*65
05/31/2014	10:02:51.662	$GPGGA,100252,2504.1996,N,07917.3259,W,1,7,2.6,9,M,,M,,*6F
05/31/2014	10:02:52.682	$GPGGA,100253,2504.1990,N,07917.3255,W,1,7,2.6,9,M,,M,,*64
05/31/2014	10:02:53.652	$GPGGA,100254,2504.1984,N,07917.3250,W,1,7,2.6,9,M,,M,,*63
05/31/2014	10:02:54.632	$GPGGA,100255,2504.1978,N,07917.3245,W,1,7,2.6,9,M,,M,,*65
05/31/2014	10:02:55.762	$GPGGA,100256,2504.1971,N,07917.3241,W,1,7,2.6,9,M,,M,,*6B
05/31/2014	10:02:56.642	$GPGGA,100257,2504.1967,N,07917.3236,W,1,7,2.6,9,M,,M,,*6D
05/31/2014	10:02:57.722	$GPGGA,100258,2504.1960,N,07917.3232,W,1,7,2.6,9,M,,M,,*61
05/31/2014	10:02:58.632	$GPGGA,100259,2504.1953,N,07917.3227,W,1,7,2.6,9,M,,M,,*64
05/31/2014	10:02:59.663	$GPGGA,100300,2504.1947,N,07917.3221,W,1,7,2.6,9,M,,M,,*6A
05/31/2014	10:03:00.742	$GPGGA,100301,2504.1940,N,07917.3217,W,1,7,2.6,9,M,,M,,*69
05/31/2014	10:03:01.723	$GPGGA,100302,2504.1935,N,07917.3213,W,1,7,2.6,9,M,,M,,*6C
05/31/2014	10:03:02.632	$GPGGA,100303,2504.1927,N,07917.3208,W,1,7,2.6,9,M,,M,,*64
05/31/2014	10:03:03.642	$GPGGA,100304,2504.1921,N,07917.3203,W,1,7,2.6,9,M,,M,,*6E
05/31/2014	10:03:04.732	$GPGGA,100305,2504.1915,N,07917.3199,W,1,7,2.6,9,M,,M,,*68
05/31/2014	10:03:05.732	$GPGGA,100306,2504.1908,N,07917.3195,W,1,7,2.6,9,M,,M,,*6B
05/31/2014	10:03:06.712	$GPGGA,100307,2504.1902,N,07917.3189,W,1,7,2.6,9,M,,M,,*6D
05/31/2014	10:03:07.732	$GPGGA,100308,2504.1897,N,07917.3185,W,1,7,2.6,9,M,,M,,*63
05/31/2014	10:03:08.712	$GPGGA,100309,2504.1890,N,07917.3182,W,1,7,2.6,9,M,,M,,*62
05/31/2014	10:03:09.722	$GPGGA,100310,2504.1884,N,07917.3177,W,1,7,2.6,9,M,,M,,*65
05/31/2014	10:03:10.712	$GPGGA,100311,2504.1878,N,07917.3172,W,1,7,2.6,9,M,,M,,*62
05/31/2014	10:03:11.742	$GPGGA,100312,2504.1871,N,07917.3168,W,1,7,2.6,9,M,,M,,*63
05/31/2014	10:03:12.702	$GPGGA,100313,2504.1864,N,07917.3164,W,1,7,2.6,9,M,,M,,*6A
05/31/2014	10:03:13.702	$GPGGA,100314,2504.1859,N,07917.3159,W,1,7,2.6,9,M,,M,,*6D
05/31/2014	10:03:14.712	$GPGGA,100315,2504.1852,N,07917.3154,W,1,7,2.6,9,M,,M,,*6A
05/31/2014	10:03:15.712	$GPGGA,100316,2504.1846,N,07917.3150,W,1,7,2.6,9,M,,M,,*68
05/31/2014	10:03:16.682	$GPGGA,100317,2504.1841,N,07917.3145,W,1,7,2.6,9,M,,M,,*6A
05/31/2014	10:03:17.683	$GPGGA,100318,2504.1834,N,07917.3140,W,1,7,2.6,9,M,,M,,*62
05/31/2014	10:03:18.713	$GPGGA,100319,2504.1828,N,07917.3136,W,1,7,2.6,9,M,,M,,*6F
05/31/2014	10:03:19.702	$GPGGA,100320,2504.1823,N,07917.3131,W,1,7,2.6,10,M,,M,,*51
05/31/2014	10:03:20.682	$GPGGA,100321,2504.1816,N,07917.3127,W,1,7,2.6,10,M,,M,,*51
05/31/2014	10:03:21.692	$GPGGA,100322,2504.1810,N,07917.3122,W,1,7,2.6,10,M,,M,,*51
05/31/2014	10:03:22.702	$GPGGA,100323,2504.1805,N,07917.3117,W,1,7,2.6,10,M,,M,,*52
05/31/2014	10:03:23.702	$GPGGA,100324,2504.1797,N,07917.3113,W,1,7,2.6,10,M,,M,,*55
05/31/2014	10:03:24.702	$GPGGA,100325,2504.1791,N,07917.3108,W,1,7,2.6,10,M,,M,,*58
05/31/2014	10:03:25.672	$GPGGA,100326,2504.1785,N,07917.3102,W,1,7,2.6,10,M,,M,,*54
05/31/2014	10:03:26.672	$GPGGA,100327,2504.1778,N,07917.3098,W,1,7,2.6,10,M,,M,,*55
05/31/2014	10:03:27.692	$GPGGA,100328,2504.1772,N,07917.3094,W,1,7,2.6,10,M,,M,,*5C
05/31/2014	10:03:28.702	$GPGGA,100329,2504.1767,N,07917.3088,W,1,7,2.6,10,M,,M,,*54
05/31/2014	10:03:29.682	$GPGGA,100330,2504.1761,N,07917.3083,W,1,7,2.6,10,M,,M,,*51
05/31/2014	10:03:30.692	$GPGGA,100331,2504.1754,N,07917.3079,W,1,7,2.6,10,M,,M,,*53
05/31/2014	10:03:31.672	$GPGGA,100332,2504.1748,N,07917.3073,W,1,7,2.6,10,M,,M,,*57
05/31/2014	10:03:32.662	$GPGGA,100333,2504.1742,N,07917.3067,W,1,7,2.6,10,M,,M,,*59
05/31/2014	10:03:33.672	$GPGGA,100334,2504.1736,N,07917.3064,W,1,7,2.6,10,M,,M,,*5E
05/31/2014	10:03:34.682	$GPGGA,100335,2504.1729,N,07917.3058,W,1,7,2.6,10,M,,M,,*5E
05/31/2014	10:03:35.693	$GPGGA,100336,2504.1725,N,07917.3052,W,1,7,2.6,10,M,,M,,*5B
05/31/2014	10:03:36.653	$GPGGA,100337,2504.1718,N,07917.3047,W,1,7,2.6,10,M,,M,,*50
05/31/2014	10:03:37.662	$GPGGA,100338,2504.1711,N,07917.3042,W,1,7,2.6,10,M,,M,,*53
05/31/2014	10:03:38.672	$GPGGA,100339,2504.1705,N,07917.3036,W,1,7,2.6,10,M,,M,,*54
05/31/2014	10:03:39.662	$GPGGA,100340,2504.1700,N,07917.3030,W,1,7,2.6,10,M,,M,,*59
05/31/2014	10:03:40.682	$GPGGA,100341,2504.1693,N,07917.3026,W,1,7,2.6,10,M,,M,,*54
05/31/2014	10:03:41.782	$GPGGA,100342,2504.1687,N,07917.3021,W,1,7,2.6,10,M,,M,,*55
05/31/2014	10:03:42.652	$GPGGA,100343,2504.1682,N,07917.3015,W,1,7,2.6,10,M,,M,,*56
05/31/2014	10:03:43.652	$GPGGA,100344,2504.1676,N,07917.3010,W,1,7,2.6,10,M,,M,,*5F
05/31/2014	10:03:44.632	$GPGGA,100345,2504.1671,N,07917.3004,W,1,7,2.6,10,M,,M,,*5C
05/31/2014	10:03:45.662	$GPGGA,100346,2504.1665,N,07917.2999,W,1,7,2.6,10,M,,M,,*56
05/31/2014	10:03:46.642	$GPGGA,100347,2504.1660,N,07917.2992,W,1,7,2.6,10,M,,M,,*59
05/31/2014	10:03:47.782	$GPGGA,100348,2504.1653,N,07917.2987,W,1,7,2.6,10,M,,M,,*52
05/31/2014	10:03:48.632	$GPGGA,100349,2504.1647,N,07917.2981,W,1,7,2.6,10,M,,M,,*50
05/31/2014	10:03:49.722	$GPGGA,100350,2504.1642,N,07917.2976,W,1,7,2.6,10,M,,M,,*55
05/31/2014	10:03:50.612	$GPGGA,100351,2504.1636,N,07917.2970,W,1,7,2.6,10,M,,M,,*51
05/31/2014	10:03:51.622	$GPGGA,100352,2504.1630,N,07917.2964,W,1,7,2.6,10,M,,M,,*51
05/31/2014	10:03:52.812	$GPGGA,100353,2504.1625,N,07917.2959,W,1,7,2.6,10,M,,M,,*5A
05/31/2014	10:03:53.622	$GPGGA,100354,2504.1619,N,07917.2953,W,1,7,2.6,10,M,,M,,*58
05/31/2014	10:03:54.812	$GPGGA,100355,2504.1613,N,07917.2947,W,1,7,2.6,10,M,,M,,*56
05/31/2014	10:03:55.772	$GPGGA,100356,2504.1608,N,07917.2941,W,1,7,2.6,10,M,,M,,*59
05/31/2014	10:03:56.812	$GPGGA,100357,2504.1602,N,07917.2935,W,1,7,2.6,10,M,,M,,*51
05/31/2014	10:03:57.732	$GPGGA,100358,2504.1596,N,07917.2929,W,1,7,2.6,10,M,,M,,*5D
05/31/2014	10:03:58.712	$GPGGA,100359,2504.1591,N,07917.2923,W,1,7,2.6,10,M,,M,,*51
05/31/2014	10:03:59.772	$GPGGA,100400,2504.1585,N,07917.2916,W,1,7,2.6,10,M,,M,,*59
05/31/2014	10:04:00.812	$GPGGA,100401,2504.1578,N,07917.2911,W,1,7,2.6,10,M,,M,,*5D
05/31/2014	10:04:01.722	$GPGGA,100402,2504.1573,N,07917.2906,W,1,7,2.6,10,M,,M,,*53
05/31/2014	10:04:02.802	$GPGGA,100403,2504.1567,N,07917.2899,W,1,7,2.6,10,M,,M,,*50
05/31/2014	10:04:03.702	$GPGGA,100404,2504.1561,N,07917.2893,W,1,7,2.6,10,M,,M,,*5B
05/31/2014	10:04:04.802	$GPGGA,100405,2504.1555,N,07917.2888,W,1,7,2.6,10,M,,M,,*57
05/31/2014	10:04:05.682	$GPGGA,100406,2504.1550,N,07917.2882,W,1,7,2.6,10,M,,M,,*5B
05/31/2014	10:04:06.802	$GPGGA,100407,2504.1544,N,07917.2876,W,1,7,2.6,10,M,,M,,*54
05/31/2014	10:04:07.722	$GPGGA,100408,2504.1539,N,07917.2871,W,1,7,2.6,10,M,,M,,*56
05/31/2014	10:04:08.802	$GPGGA,100409,2504.1534,N,07917.2865,W,1,7,2.6,10,M,,M,,*5F
05/31/2014	10:04:09.712	$GPGGA,100410,2504.1527,N,07917.2859,W,1,7,2.6,10,M,,M,,*5A
05/31/2014	10:04:10.802	$GPGGA,100411,2504.1521,N,07917.2854,W,1,7,2.6,10,M,,M,,*50
05/31/2014	10:04:11.682	$GPGGA,100412,2504.1516,N,07917.2848,W,1,7,2.6,10,M,,M,,*5A
05/31/2014	10:04:12.772	$GPGGA,100413,2504.1510,N,07917.2842,W,1,7,2.6,10,M,,M,,*57
05/31/2014	10:04:13.702	$GPGGA,100414,2504.1505,N,07917.2837,W,1,7,2.6,10,M,,M,,*56
05/31/2014	10:04:14.782	$GPGGA,100415,2504.1498,N,07917.2831,W,1,7,2.6,10,M,,M,,*54
05/31/2014	10:04:15.732	$GPGGA,100416,2504.1491,N,07917.2825,W,1,7,2.5,10,M,,M,,*58
05/31/2014	10:04:16.742	$GPGGA,100417,2504.1487,N,07917.2820,W,1,7,2.5,10,M,,M,,*5B
05/31/2014	10:04:17.692	$GPGGA,100418,2504.1480,N,07917.2815,W,1,7,2.5,10,M,,M,,*55
05/31/2014	10:04:18.782	$GPGGA,100419,2504.1474,N,07917.2809,W,1,7,2.5,10,M,,M,,*52
05/31/2014	10:04:19.702	$GPGGA,100420,2504.1469,N,07917.2804,W,1,7,2.5,10,M,,M,,*59
05/31/2014	10:04:20.742	$GPGGA,100421,2504.1462,N,07917.2799,W,1,7,2.5,10,M,,M,,*58
05/31/2014	10:04:21.652	$GPGGA,100422,2504.1456,N,07917.2794,W,1,7,2.5,10,M,,M,,*51
05/31/2014	10:04:22.752	$GPGGA,100423,2504.1451,N,07917.2789,W,1,7,2.6,10,M,,M,,*58
05/31/2014	10:04:23.702	$GPGGA,100424,2504.1444,N,07917.2783,W,1,7,2.6,10,M,,M,,*51
05/31/2014	10:04:24.722	$GPGGA,100425,2504.1440,N,07917.2779,W,1,7,2.6,10,M,,M,,*51
05/31/2014	10:04:25.692	$GPGGA,100426,2504.1433,N,07917.2774,W,1,7,2.6,10,M,,M,,*5B
05/31/2014	10:04:26.772	$GPGGA,100427,2504.1427,N,07917.2768,W,1,7,2.6,10,M,,M,,*52
05/31/2014	10:04:27.702	$GPGGA,100428,2504.1422,N,07917.2763,W,1,7,2.5,10,M,,M,,*50
05/31/2014	10:04:28.713	$GPGGA,100429,2504.1415,N,07917.2759,W,1,7,2.5,10,M,,M,,*5C
05/31/2014	10:04:29.642	$GPGGA,100430,2504.1409,N,07917.2753,W,1,7,2.5,10,M,,M,,*53
05/31/2014	10:04:30.752	$GPGGA,100431,2504.1404,N,07917.2747,W,1,7,2.5,10,M,,M,,*5A
05/31/2014	10:04:31.692	$GPGGA,100432,2504.1397,N,07917.2743,W,1,7,2.5,10,M,,M,,*50
05/31/2014	10:04:32.732	$GPGGA,100433,2504.1391,N,07917.2738,W,1,7,2.5,10,M,,M,,*5B
05/31/2014	10:04:33.632	$GPGGA,100434,2504.1386,N,07917.2733,W,1,7,2.5,10,M,,M,,*51
05/31/2014	10:04:34.632	$GPGGA,100435,2504.1380,N,07917.2727,W,1,7,2.5,10,M,,M,,*53
05/31/2014	10:04:35.682	$GPGGA,100436,2504.1373,N,07917.2723,W,1,7,2.5,10,M,,M,,*58
05/31/2014	10:04:36.722	$GPGGA,100437,2504.1368,N,07917.2718,W,1,7,2.5,10,M,,M,,*5B
05/31/2014	10:04:37.622	$GPGGA,100438,2504.1362,N,07917.2712,W,1,7,2.5,10,M,,M,,*54
05/31/2014	10:04:38.722	$GPGGA,100439,2504.1357,N,07917.2707,W,1,7,2.5,10,M,,M,,*57
05/31/2014	10:04:39.632	$GPGGA,100440,2504.1350,N,07917.2703,W,1,7,2.5,10,M,,M,,*5A
05/31/2014	10:04:40.712	$GPGGA,100441,2504.1344,N,07917.2697,W,1,7,2.5,10,M,,M,,*52
05/31/2014	10:04:41.652	$GPGGA,100442,2504.1339,N,07917.2692,W,1,7,2.5,10,M,,M,,*5E
05/31/2014	10:04:42.742	$GPGGA,100443,2504.1331,N,07917.2688,W,1,7,2.5,10,M,,M,,*5C
05/31/2014	10:04:43.742	$GPGGA,100444,2504.1325,N,07917.2682,W,1,7,2.5,10,M,,M,,*54
05/31/2014	10:04:44.662	$GPGGA,100445,2504.1319,N,07917.2678,W,1,7,2.5,10,M,,M,,*5F
05/31/2014	10:04:45.702	$GPGGA,100446,2504.1313,N,07917.2673,W,1,7,2.5,10,M,,M,,*5D
05/31/2014	10:04:46.751	$GPGGA,100447,2504.1306,N,07917.2668,W,1,7,2.5,10,M,,M,,*52
05/31/2014	10:04:47.725	$GPGGA,100448,2504.1300,N,07917.2663,W,1,7,2.5,10,M,,M,,*50
05/31/2014	10:04:48.722	$GPGGA,100449,2504.1294,N,07917.2659,W,1,7,2.5,10,M,,M,,*54
05/31/2014	10:04:49.702	$GPGGA,100450,2504.1288,N,07917.2654,W,1,7,2.5,10,M,,M,,*5C
05/31/2014	10:04:50.722	$GPGGA,100451,2504.1282,N,07917.2649,W,1,7,2.5,10,M,,M,,*5B
05/31/2014	10:04:51.712	$GPGGA,100452,2504.1277,N,07917.2645,W,1,7,2.5,10,M,,M,,*5E
05/31/2014	10:04:52.702	$GPGGA,100453,2504.1270,N,07917.2639,W,1,7,2.5,10,M,,M,,*53
05/31/2014	10:04:53.702	$GPGGA,100454,2504.1264,N,07917.2635,W,1,7,2.5,10,M,,M,,*5D
05/31/2014	10:04:54.722	$GPGGA,100455,2504.1257,N,07917.2630,W,1,7,2.5,10,M,,M,,*59
05/31/2014	10:04:55.712	$GPGGA,100456,2504.1252,N,07917.2626,W,1,7,2.5,10,M,,M,,*58
05/31/2014	10:04:56.732	$GPGGA,100457,2504.1245,N,07917.2620,W,1,7,2.5,10,M,,M,,*59
05/31/2014	10:04:57.692	$GPGGA,100458,2504.1238,N,07917.2616,W,1,7,2.5,10,M,,M,,*59
05/31/2014	10:04:58.712	$GPGGA,100459,2504.1232,N,07917.2612,W,1,7,2.5,10,M,,M,,*56
05/31/2014	10:04:59.702	$GPGGA,100500,2504.1227,N,07917.2607,W,1,7,2.5,10,M,,M,,*5B
05/31/2014	10:05:00.772	$GPGGA,100501,2504.1220,N,07917.2602,W,1,7,2.5,10,M,,M,,*58
05/31/2014	10:05:01.672	$GPGGA,100502,2504.1213,N,07917.2598,W,1,7,2.5,10,M,,M,,*5B
05/31/2014	10:05:02.702	$GPGGA,100503,2504.1206,N,07917.2593,W,1,7,2.5,10,M,,M,,*55
05/31/2014	10:05:03.693	$GPGGA,100504,2504.1200,N,07917.2587,W,1,7,2.5,10,M,,M,,*51
05/31/2014	10:05:04.727	$GPGGA,100505,2504.1194,N,07917.2583,W,1,7,2.5,10,M,,M,,*5A
05/31/2014	10:05:05.682	$GPGGA,100506,2504.1187,N,07917.2579,W,1,7,2.5,10,M,,M,,*5E
05/31/2014	10:05:06.713	$GPGGA,100507,2504.1180,N,07917.2573,W,1,7,2.5,10,M,,M,,*52
05/31/2014	10:05:07.692	$GPGGA,100508,2504.1174,N,07917.2568,W,1,7,2.5,10,M,,M,,*5C
05/31/2014	10:05:08.712	$GPGGA,100509,2504.1169,N,07917.2564,W,1,7,2.5,10,M,,M,,*5D
05/31/2014	10:05:09.662	$GPGGA,100510,2504.1161,N,07917.2558,W,1,7,2.5,10,M,,M,,*52
05/31/2014	10:05:10.662	$GPGGA,100511,2504.1161,N,07917.2558,W,1,7,2.5,10,M,,M,,*53
05/31/2014	10:05:11.682	$GPGGA,100512,2504.1155,N,07917.2553,W,1,7,2.5,10,M,,M,,*5C
05/31/2014	10:05:12.713	$GPGGA,100513,2504.1142,N,07917.2542,W,1,7,2.5,10,M,,M,,*5B
05/31/2014	10:05:13.663	$GPGGA,100514,2504.1135,N,07917.2537,W,1,7,2.5,10,M,,M,,*5E
05/31/2014	10:05:14.683	$GPGGA,100515,2504.1129,N,07917.2532,W,1,7,2.5,10,M,,M,,*57
05/31/2014	10:05:15.692	$GPGGA,100516,2504.1122,N,07917.2526,W,1,7,2.5,9,M,,M,,*62
05/31/2014	10:05:16.702	$GPGGA,100517,2504.1115,N,07917.2521,W,1,7,2.5,9,M,,M,,*60
05/31/2014	10:05:17.642	$GPGGA,100518,2504.1109,N,07917.2516,W,1,7,2.5,9,M,,M,,*66
05/31/2014	10:05:18.702	$GPGGA,100519,2504.1104,N,07917.2510,W,1,7,2.5,9,M,,M,,*6C
05/31/2014	10:05:19.782	$GPGGA,100520,2504.1097,N,07917.2504,W,1,7,2.5,9,M,,M,,*68
05/31/2014	10:05:20.723	$GPGGA,100521,2504.1091,N,07917.2499,W,1,7,2.5,9,M,,M,,*6A
05/31/2014	10:05:21.652	$GPGGA,100522,2504.1084,N,07917.2495,W,1,7,2.5,9,M,,M,,*61
05/31/2014	10:05:22.702	$GPGGA,100523,2504.1084,N,07917.2495,W,1,7,2.5,9,M,,M,,*60
05/31/2014	10:05:23.762	$GPGGA,100524,2504.1073,N,07917.2482,W,1,7,2.5,9,M,,M,,*69
05/31/2014	10:05:24.652	$GPGGA,100525,2504.1073,N,07917.2482,W,1,7,2.5,9,M,,M,,*68
05/31/2014	10:05:25.624	$GPGGA,100526,2504.1060,N,07917.2472,W,1,7,2.5,9,M,,M,,*66
05/31/2014	10:05:26.623	$GPGGA,100527,2504.1055,N,07917.2466,W,1,7,2.5,9,M,,M,,*64
05/31/2014	10:05:27.642	$GPGGA,100528,2504.1048,N,07917.2462,W,1,7,2.5,9,M,,M,,*63
05/31/2014	10:05:28.722	$GPGGA,100529,2504.1043,N,07917.2456,W,1,7,2.5,9,M,,M,,*6E
05/31/2014	10:05:29.712	$GPGGA,100530,2504.1037,N,07917.2450,W,1,7,2.5,9,M,,M,,*63
05/31/2014	10:05:30.632	$GPGGA,100531,2504.1037,N,07917.2450,W,1,7,2.5,9,M,,M,,*62
05/31/2014	10:05:31.742	$GPGGA,100532,2504.1028,N,07917.2439,W,1,7,2.5,9,M,,M,,*60
05/31/2014	10:05:32.752	$GPGGA,100533,2504.1021,N,07917.2433,W,1,7,2.5,9,M,,M,,*62
05/31/2014	10:05:33.712	$GPGGA,100534,2504.1017,N,07917.2427,W,1,7,2.5,9,M,,M,,*65
05/31/2014	10:05:34.742	$GPGGA,100535,2504.1010,N,07917.2421,W,1,7,2.5,9,M,,M,,*65
05/31/2014	10:05:35.722	$GPGGA,100536,2504.1004,N,07917.2416,W,1,7,2.5,9,M,,M,,*67
05/31/2014	10:05:36.742	$GPGGA,100537,2504.0999,N,07917.2409,W,1,7,2.5,9,M,,M,,*64
05/31/2014	10:05:37.703	$GPGGA,100538,2504.0994,N,07917.2403,W,1,7,2.5,9,M,,M,,*6C
05/31/2014	10:05:38.723	$GPGGA,100539,2504.0988,N,07917.2398,W,1,7,2.5,9,M,,M,,*65
05/31/2014	10:05:39.722	$GPGGA,100540,2504.0982,N,07917.2392,W,1,7,2.5,9,M,,M,,*6B
05/31/2014	10:05:40.722	$GPGGA,100541,2504.0977,N,07917.2385,W,1,7,2.5,9,M,,M,,*66
05/31/2014	10:05:41.692	$GPGGA,100542,2504.0971,N,07917.2381,W,1,7,2.5,9,M,,M,,*67
05/31/2014	10:05:42.722	$GPGGA,100543,2504.0965,N,07917.2375,W,1,7,2.5,9,M,,M,,*68
05/31/2014	10:05:43.702	$GPGGA,100544,2504.0960,N,07917.2368,W,1,7,2.5,9,M,,M,,*66
05/31/2014	10:05:44.712	$GPGGA,100545,2504.0956,N,07917.2362,W,1,7,2.5,9,M,,M,,*68
05/31/2014	10:05:45.682	$GPGGA,100546,2504.0949,N,07917.2357,W,1,7,2.5,9,M,,M,,*63
05/31/2014	10:05:46.712	$GPGGA,100547,2504.0943,N,07917.2350,W,1,7,2.5,9,M,,M,,*6F
05/31/2014	10:05:47.692	$GPGGA,100548,2504.0938,N,07917.2345,W,1,7,2.5,9,M,,M,,*68
05/31/2014	10:05:48.732	$GPGGA,100549,2504.0932,N,07917.2339,W,1,7,2.5,9,M,,M,,*68
05/31/2014	10:05:49.672	$GPGGA,100550,2504.0927,N,07917.2333,W,1,7,2.5,9,M,,M,,*6E
05/31/2014	10:05:50.672	$GPGGA,100551,2504.0923,N,07917.2328,W,1,7,2.5,9,M,,M,,*61
05/31/2014	10:05:51.692	$GPGGA,100552,2504.0918,N,07917.2322,W,1,7,1.5,9,M,,M,,*63
05/31/2014	10:05:52.662	$GPGGA,100553,2504.0912,N,07917.2316,W,1,7,2.5,9,M,,M,,*6C
05/31/2014	10:05:53.672	$GPGGA,100554,2504.0909,N,07917.2312,W,1,7,1.5,9,M,,M,,*66
05/31/2014	10:05:54.672	$GPGGA,100555,2504.0907,N,07917.2307,W,1,7,1.5,9,M,,M,,*6D
05/31/2014	10:05:55.672	$GPGGA,100556,2504.0903,N,07917.2301,W,1,7,1.5,9,M,,M,,*6C
05/31/2014	10:05:56.691	$GPGGA,100557,2504.0899,N,07917.2297,W,1,7,1.5,9,M,,M,,*61
05/31/2014	10:05:57.652	$GPGGA,100558,2504.0896,N,07917.2293,W,1,7,1.5,9,M,,M,,*65
05/31/2014	10:05:58.702	$GPGGA,100559,2504.0893,N,07917.2287,W,1,7,1.5,9,M,,M,,*64
05/31/2014	10:05:59.692	$GPGGA,100600,2504.0887,N,07917.2282,W,1,7,1.5,10,M,,M,,*53
05/31/2014	10:06:00.652	$GPGGA,100601,2504.0883,N,07917.2278,W,1,7,1.5,10,M,,M,,*53
05/31/2014	10:06:01.672	$GPGGA,100602,2504.0880,N,07917.2272,W,1,7,1.5,10,M,,M,,*59
05/31/2014	10:06:02.672	$GPGGA,100603,2504.0876,N,07917.2267,W,1,7,1.5,10,M,,M,,*55
05/31/2014	10:06:03.782	$GPGGA,100604,2504.0870,N,07917.2262,W,1,7,1.5,10,M,,M,,*51
05/31/2014	10:06:04.672	$GPGGA,100605,2504.0867,N,07917.2256,W,1,7,1.5,10,M,,M,,*51
05/31/2014	10:06:05.652	$GPGGA,100606,2504.0862,N,07917.2250,W,1,7,1.5,11,M,,M,,*50
05/31/2014	10:06:06.673	$GPGGA,100607,2504.0856,N,07917.2246,W,1,7,1.5,11,M,,M,,*51
05/31/2014	10:06:07.662	$GPGGA,100608,2504.0851,N,07917.2241,W,1,7,1.5,11,M,,M,,*5E
05/31/2014	10:06:08.642	$GPGGA,100609,2504.0846,N,07917.2235,W,1,7,1.5,11,M,,M,,*5A
05/31/2014	10:06:09.652	$GPGGA,100610,2504.0840,N,07917.2229,W,1,7,1.5,11,M,,M,,*59
05/31/2014	10:06:10.632	$GPGGA,100611,2504.0835,N,07917.2224,W,1,7,1.5,11,M,,M,,*57
05/31/2014	10:06:11.742	$GPGGA,100612,2504.0829,N,07917.2218,W,1,7,1.5,11,M,,M,,*56
05/31/2014	10:06:12.732	$GPGGA,100613,2504.0824,N,07917.2213,W,1,7,1.5,12,M,,M,,*52
05/31/2014	10:06:13.742	$GPGGA,100614,2504.0818,N,07917.2207,W,1,7,1.5,12,M,,M,,*5F
05/31/2014	10:06:14.642	$GPGGA,100615,2504.0812,N,07917.2203,W,1,7,1.5,12,M,,M,,*50
05/31/2014	10:06:15.652	$GPGGA,100616,2504.0806,N,07917.2197,W,1,7,1.5,12,M,,M,,*58
05/31/2014	10:06:16.632	$GPGGA,100617,2504.0800,N,07917.2192,W,1,7,1.5,12,M,,M,,*5A
05/31/2014	10:06:17.722	$GPGGA,100618,2504.0793,N,07917.2188,W,1,7,1.5,12,M,,M,,*5B
05/31/2014	10:06:18.712	$GPGGA,100619,2504.0787,N,07917.2182,W,1,7,1.5,12,M,,M,,*55
05/31/2014	10:06:19.732	$GPGGA,100620,2504.0781,N,07917.2177,W,1,7,1.5,12,M,,M,,*53
05/31/2014	10:06:20.722	$GPGGA,100621,2504.0775,N,07917.2172,W,1,7,1.5,13,M,,M,,*5D
05/31/2014	10:06:21.722	$GPGGA,100622,2504.0768,N,07917.2167,W,1,7,1.5,13,M,,M,,*56
05/31/2014	10:06:22.722	$GPGGA,100623,2504.0762,N,07917.2162,W,1,7,1.5,13,M,,M,,*58
05/31/2014	10:06:23.722	$GPGGA,100624,2504.0757,N,07917.2156,W,1,7,1.5,13,M,,M,,*5E
05/31/2014	10:06:24.724	$GPGGA,100625,2504.0747,N,07917.2151,W,1,7,1.5,13,M,,M,,*59
05/31/2014	10:06:25.712	$GPGGA,100626,2504.0742,N,07917.2146,W,1,7,2.5,13,M,,M,,*5A
05/31/2014	10:06:26.732	$GPGGA,100627,2504.0736,N,07917.2141,W,1,7,1.5,13,M,,M,,*5C
05/31/2014	10:06:27.712	$GPGGA,100628,2504.0730,N,07917.2136,W,1,7,1.5,13,M,,M,,*55
05/31/2014	10:06:28.723	$GPGGA,100629,2504.0726,N,07917.2131,W,1,7,1.5,13,M,,M,,*54
05/31/2014	10:06:29.702	$GPGGA,100630,2504.0717,N,07917.2125,W,1,7,1.5,13,M,,M,,*5B
05/31/2014	10:06:30.712	$GPGGA,100631,2504.0710,N,07917.2121,W,1,7,2.5,13,M,,M,,*5A
05/31/2014	10:06:31.731	$GPGGA,100632,2504.0705,N,07917.2116,W,1,7,1.5,13,M,,M,,*5A
05/31/2014	10:06:32.712	$GPGGA,100633,2504.0701,N,07917.2111,W,1,7,1.5,13,M,,M,,*58
05/31/2014	10:06:33.692	$GPGGA,100634,2504.0692,N,07917.2106,W,1,7,1.5,13,M,,M,,*52
05/31/2014	10:06:34.722	$GPGGA,100635,2504.0688,N,07917.2102,W,1,7,2.5,13,M,,M,,*5F
05/31/2014	10:06:35.702	$GPGGA,100636,2504.0682,N,07917.2097,W,1,7,1.5,13,M,,M,,*58
05/31/2014	10:06:36.702	$GPGGA,100637,2504.0676,N,07917.2092,W,1,7,1.5,13,M,,M,,*57
05/31/2014	10:06:37.692	$GPGGA,100638,2504.0667,N,07917.2087,W,1,7,1.5,13,M,,M,,*5C
05/31/2014	10:06:38.712	$GPGGA,100639,2504.0663,N,07917.2083,W,1,7,2.5,13,M,,M,,*5E
05/31/2014	10:06:39.682	$GPGGA,100640,2504.0656,N,07917.2077,W,1,7,1.5,13,M,,M,,*5E
05/31/2014	10:06:40.702	$GPGGA,100641,2504.0650,N,07917.2073,W,1,7,1.5,13,M,,M,,*5D
05/31/2014	10:06:41.662	$GPGGA,100642,2504.0645,N,07917.2069,W,1,7,1.5,13,M,,M,,*51
05/31/2014	10:06:42.672	$GPGGA,100643,2504.0639,N,07917.2064,W,1,7,1.5,13,M,,M,,*56
05/31/2014	10:06:43.682	$GPGGA,100644,2504.0634,N,07917.2059,W,1,7,1.5,13,M,,M,,*52
05/31/2014	10:06:44.662	$GPGGA,100645,2504.0627,N,07917.2054,W,1,7,1.5,13,M,,M,,*5C
05/31/2014	10:06:45.672	$GPGGA,100646,2504.0620,N,07917.2050,W,1,7,1.5,13,M,,M,,*5C
05/31/2014	10:06:46.652	$GPGGA,100647,2504.0614,N,07917.2045,W,1,8,1.5,14,M,,M,,*56
05/31/2014	10:06:47.682	$GPGGA,100648,2504.0609,N,07917.2039,W,1,8,1.5,14,M,,M,,*5E
05/31/2014	10:06:48.693	$GPGGA,100649,2504.0602,N,07917.2034,W,1,8,1.5,14,M,,M,,*59
05/31/2014	10:06:49.652	$GPGGA,100650,2504.0594,N,07917.2030,W,1,8,1.5,14,M,,M,,*59
05/31/2014	10:06:50.662	$GPGGA,100651,2504.0588,N,07917.2024,W,1,8,1.5,14,M,,M,,*50
05/31/2014	10:06:51.762	$GPGGA,100652,2504.0582,N,07917.2019,W,1,8,1.5,14,M,,M,,*57
05/31/2014	10:06:52.642	$GPGGA,100653,2504.0574,N,07917.2015,W,1,8,1.5,14,M,,M,,*53
05/31/2014	10:06:53.652	$GPGGA,100654,2504.0569,N,07917.2010,W,1,8,1.5,14,M,,M,,*5D
05/31/2014	10:06:54.652	$GPGGA,100655,2504.0562,N,07917.2004,W,1,8,1.5,14,M,,M,,*52
05/31/2014	10:06:55.662	$GPGGA,100656,2504.0555,N,07917.2000,W,1,8,1.5,14,M,,M,,*51
05/31/2014	10:06:56.662	$GPGGA,100657,2504.0549,N,07917.1995,W,1,8,1.5,14,M,,M,,*5B
05/31/2014	10:06:57.742	$GPGGA,100658,2504.0544,N,07917.1989,W,1,8,1.5,14,M,,M,,*54
05/31/2014	10:06:58.642	$GPGGA,100659,2504.0537,N,07917.1984,W,1,8,1.5,14,M,,M,,*5C
05/31/2014	10:06:59.762	$GPGGA,100700,2504.0530,N,07917.1979,W,1,8,1.5,14,M,,M,,*54
05/31/2014	10:07:00.732	$GPGGA,100701,2504.0523,N,07917.1973,W,1,8,1.5,14,M,,M,,*5D
05/31/2014	10:07:01.652	$GPGGA,100702,2504.0517,N,07917.1968,W,1,8,1.5,14,M,,M,,*53
05/31/2014	10:07:02.742	$GPGGA,100703,2504.0510,N,07917.1963,W,1,8,1.5,14,M,,M,,*5E
05/31/2014	10:07:03.762	$GPGGA,100704,2504.0504,N,07917.1957,W,1,8,1.5,14,M,,M,,*5B
05/31/2014	10:07:04.642	$GPGGA,100705,2504.0498,N,07917.1952,W,1,8,1.5,14,M,,M,,*5B
05/31/2014	10:07:05.722	$GPGGA,100706,2504.0490,N,07917.1946,W,1,8,1.5,14,M,,M,,*55
05/31/2014	10:07:06.631	$GPGGA,100707,2504.0486,N,07917.1940,W,1,8,1.5,14,M,,M,,*55
05/31/2014	10:07:07.732	$GPGGA,100708,2504.0479,N,07917.1935,W,1,8,1.5,13,M,,M,,*5F
05/31/2014	10:07:08.722	$GPGGA,100709,2504.0471,N,07917.1929,W,1,8,1.5,13,M,,M,,*5B
05/31/2014	10:07:09.722	$GPGGA,100710,2504.0465,N,07917.1924,W,1,8,1.5,13,M,,M,,*5B
05/31/2014	10:07:10.722	$GPGGA,100711,2504.0459,N,07917.1918,W,1,8,1.5,13,M,,M,,*5A
05/31/2014	10:07:11.732	$GPGGA,100712,2504.0452,N,07917.1912,W,1,8,1.5,13,M,,M,,*58
05/31/2014	10:07:12.722	$GPGGA,100713,2504.0446,N,07917.1906,W,1,8,1.5,13,M,,M,,*59
05/31/2014	10:07:13.712	$GPGGA,100714,2504.0439,N,07917.1900,W,1,8,1.5,13,M,,M,,*50
05/31/2014	10:07:14.723	$GPGGA,100715,2504.0433,N,07917.1895,W,1,8,1.5,13,M,,M,,*56
05/31/2014	10:07:15.712	$GPGGA,100716,2504.0428,N,07917.1889,W,1,8,1.5,13,M,,M,,*52
05/31/2014	10:07:16.702	$GPGGA,100717,2504.0421,N,07917.1883,W,1,8,1.5,13,M,,M,,*50
05/31/2014	10:07:17.712	$GPGGA,100718,2504.0414,N,07917.1878,W,1,8,1.5,13,M,,M,,*5D
05/31/2014	10:07:18.712	$GPGGA,100719,2504.0407,N,07917.1872,W,1,8,1.5,13,M,,M,,*54
05/31/2014	10:07:19.712	$GPGGA,100720,2504.0401,N,07917.1866,W,1,8,1.5,13,M,,M,,*5D
05/31/2014	10:07:20.712	$GPGGA,100721,2504.0394,N,07917.1861,W,1,8,1.5,13,M,,M,,*50
05/31/2014	10:07:21.692	$GPGGA,100722,2504.0388,N,07917.1855,W,1,8,1.5,13,M,,M,,*59
05/31/2014	10:07:22.682	$GPGGA,100723,2504.0382,N,07917.1849,W,1,8,1.5,13,M,,M,,*5F
05/31/2014	10:07:23.702	$GPGGA,100724,2504.0375,N,07917.1843,W,1,8,1.5,13,M,,M,,*5A
05/31/2014	10:07:24.672	$GPGGA,100725,2504.0369,N,07917.1837,W,1,8,1.5,13,M,,M,,*55
05/31/2014	10:07:25.682	$GPGGA,100726,2504.0363,N,07917.1832,W,1,8,1.5,13,M,,M,,*59
05/31/2014	10:07:26.682	$GPGGA,100727,2504.0356,N,07917.1825,W,1,8,1.5,13,M,,M,,*58
05/31/2014	10:07:27.692	$GPGGA,100728,2504.0349,N,07917.1820,W,1,8,1.5,13,M,,M,,*5C
05/31/2014	10:07:28.672	$GPGGA,100729,2504.0342,N,07917.1814,W,1,8,1.5,13,M,,M,,*51
05/31/2014	10:07:29.672	$GPGGA,100730,2504.0336,N,07917.1808,W,1,8,1.5,13,M,,M,,*57
05/31/2014	10:07:30.692	$GPGGA,100731,2504.0329,N,07917.1801,W,1,8,1.5,12,M,,M,,*50
05/31/2014	10:07:31.692	$GPGGA,100732,2504.0323,N,07917.1796,W,1,8,1.5,12,M,,M,,*58
05/31/2014	10:07:32.702	$GPGGA,100733,2504.0316,N,07917.1790,W,1,8,1.5,12,M,,M,,*59
05/31/2014	10:07:33.672	$GPGGA,100734,2504.0310,N,07917.1784,W,1,8,1.5,12,M,,M,,*5D
05/31/2014	10:07:34.702	$GPGGA,100735,2504.0304,N,07917.1778,W,1,8,1.5,12,M,,M,,*5A
05/31/2014	10:07:35.682	$GPGGA,100736,2504.0298,N,07917.1772,W,1,8,1.5,12,M,,M,,*57
05/31/2014	10:07:36.662	$GPGGA,100737,2504.0291,N,07917.1766,W,1,8,1.5,12,M,,M,,*5A
05/31/2014	10:07:37.652	$GPGGA,100738,2504.0285,N,07917.1761,W,1,8,1.5,12,M,,M,,*57
05/31/2014	10:07:38.662	$GPGGA,100739,2504.0280,N,07917.1754,W,1,8,1.5,12,M,,M,,*55
05/31/2014	10:07:39.672	$GPGGA,100740,2504.0273,N,07917.1749,W,1,8,1.5,12,M,,M,,*5B
05/31/2014	10:07:40.643	$GPGGA,100741,2504.0266,N,07917.1743,W,1,8,1.5,12,M,,M,,*54
05/31/2014	10:07:41.661	$GPGGA,100742,2504.0260,N,07917.1736,W,1,8,1.5,12,M,,M,,*53
05/31/2014	10:07:42.652	$GPGGA,100743,2504.0255,N,07917.1730,W,1,8,1.5,12,M,,M,,*52
05/31/2014	10:07:43.662	$GPGGA,100744,2504.0248,N,07917.1725,W,1,8,1.5,12,M,,M,,*5D
05/31/2014	10:07:44.642	$GPGGA,100745,2504.0241,N,07917.1719,W,1,8,1.5,12,M,,M,,*5A
05/31/2014	10:07:45.732	$GPGGA,100746,2504.0237,N,07917.1713,W,1,8,1.5,12,M,,M,,*52
05/31/2014	10:07:46.742	$GPGGA,100747,2504.0230,N,07917.1707,W,1,8,1.5,12,M,,M,,*51
05/31/2014	10:07:47.642	$GPGGA,100748,2504.0223,N,07917.1701,W,1,8,1.5,12,M,,M,,*5A
05/31/2014	10:07:48.652	$GPGGA,100749,2504.0219,N,07917.1695,W,1,8,1.5,12,M,,M,,*5E
05/31/2014	10:07:49.652	$GPGGA,100750,2504.0213,N,07917.1689,W,1,8,1.5,12,M,,M,,*51
05/31/2014	10:07:50.732	$GPGGA,100751,2504.0208,N,07917.1683,W,1,8,1.5,12,M,,M,,*50
05/31/2014	10:07:51.652	$GPGGA,100752,2504.0201,N,07917.1678,W,1,8,1.5,12,M,,M,,*5E
05/31/2014	10:07:52.732	$GPGGA,100753,2504.0195,N,07917.1672,W,1,8,1.5,12,M,,M,,*5B
05/31/2014	10:07:53.632	$GPGGA,100754,2504.0190,N,07917.1666,W,1,8,1.5,12,M,,M,,*5C
05/31/2014	10:07:54.752	$GPGGA,100755,2504.0186,N,07917.1660,W,1,8,1.5,12,M,,M,,*5C
05/31/2014	10:07:55.742	$GPGGA,100756,2504.0179,N,07917.1655,W,1,8,1.5,12,M,,M,,*59
05/31/2014	10:07:56.732	$GPGGA,100757,2504.0173,N,07917.1649,W,1,8,1.5,12,M,,M,,*5F
05/31/2014	10:07:57.712	$GPGGA,100758,2504.0168,N,07917.1642,W,1,8,1.5,12,M,,M,,*51
05/31/2014	10:07:58.732	$GPGGA,100759,2504.0162,N,07917.1637,W,1,8,1.5,12,M,,M,,*58
05/31/2014	10:07:59.722	$GPGGA,100800,2504.0156,N,07917.1632,W,1,8,1.5,12,M,,M,,*59
05/31/2014	10:08:00.722	$GPGGA,100801,2504.0150,N,07917.1625,W,1,8,1.5,12,M,,M,,*58
05/31/2014	10:08:01.712	$GPGGA,100802,2504.0145,N,07917.1619,W,1,8,1.5,12,M,,M,,*50
05/31/2014	10:08:02.722	$GPGGA,100803,2504.0139,N,07917.1613,W,1,8,1.5,12,M,,M,,*50
05/31/2014	10:08:03.722	$GPGGA,100804,2504.0135,N,07917.1609,W,1,8,2.5,12,M,,M,,*53
05/31/2014	10:08:04.726	$GPGGA,100805,2504.0130,N,07917.1602,W,1,8,1.5,12,M,,M,,*5F
05/31/2014	10:08:05.702	$GPGGA,100806,2504.0125,N,07917.1597,W,1,8,1.5,12,M,,M,,*57
05/31/2014	10:08:06.692	$GPGGA,100807,2504.0119,N,07917.1591,W,1,8,1.5,12,M,,M,,*5F
05/31/2014	10:08:07.712	$GPGGA,100808,2504.0114,N,07917.1586,W,1,8,1.5,12,M,,M,,*5B
05/31/2014	10:08:08.712	$GPGGA,100809,2504.0108,N,07917.1580,W,1,8,1.5,12,M,,M,,*51
05/31/2014	10:08:09.708	$GPGGA,100810,2504.0103,N,07917.1575,W,1,8,1.5,12,M,,M,,*58
05/31/2014	10:08:10.682	$GPGGA,100811,2504.0097,N,07917.1569,W,1,8,1.5,12,M,,M,,*58
05/31/2014	10:08:11.702	$GPGGA,100812,2504.0092,N,07917.1563,W,1,8,1.5,12,M,,M,,*54
05/31/2014	10:08:13.102	$GPGGA,100813,2504.0087,N,07917.1558,W,1,8,1.5,12,M,,M,,*59
05/31/2014	10:08:13.692	$GPGGA,100814,2504.0081,N,07917.1552,W,1,8,1.5,12,M,,M,,*52
05/31/2014	10:08:14.712	$GPGGA,100815,2504.0076,N,07917.1547,W,1,8,1.5,12,M,,M,,*5F
05/31/2014	10:08:15.692	$GPGGA,100816,2504.0070,N,07917.1542,W,1,8,1.5,12,M,,M,,*5F
05/31/2014	10:08:16.682	$GPGGA,100817,2504.0064,N,07917.1537,W,1,8,1.5,12,M,,M,,*59
05/31/2014	10:08:17.682	$GPGGA,100818,2504.0060,N,07917.1531,W,1,8,1.5,12,M,,M,,*54
05/31/2014	10:08:18.702	$GPGGA,100819,2504.0053,N,07917.1527,W,1,8,1.5,12,M,,M,,*52
05/31/2014	10:08:19.692	$GPGGA,100820,2504.0047,N,07917.1522,W,1,8,1.5,12,M,,M,,*58
05/31/2014	10:08:20.712	$GPGGA,100821,2504.0042,N,07917.1516,W,1,8,1.5,12,M,,M,,*5B
05/31/2014	10:08:21.682	$GPGGA,100822,2504.0036,N,07917.1511,W,1,8,1.5,12,M,,M,,*5C
05/31/2014	10:08:22.702	$GPGGA,100823,2504.0029,N,07917.1506,W,1,8,1.5,12,M,,M,,*55
05/31/2014	10:08:23.672	$GPGGA,100824,2504.0024,N,07917.1501,W,1,8,1.5,12,M,,M,,*58
05/31/2014	10:08:24.662	$GPGGA,100825,2504.0018,N,07917.1495,W,1,8,1.5,12,M,,M,,*5A
05/31/2014	10:08:25.772	$GPGGA,100826,2504.0011,N,07917.1489,W,1,8,1.5,12,M,,M,,*5D
05/31/2014	10:08:26.792	$GPGGA,100827,2504.0005,N,07917.1484,W,1,8,1.5,12,M,,M,,*54
05/31/2014	10:08:27.672	$GPGGA,100828,2503.9999,N,07917.1479,W,1,8,1.5,12,M,,M,,*5B
05/31/2014	10:08:28.672	$GPGGA,100829,2503.9992,N,07917.1473,W,1,8,1.5,12,M,,M,,*5B
05/31/2014	10:08:29.752	$GPGGA,100830,2503.9986,N,07917.1468,W,1,8,1.5,12,M,,M,,*5C
05/31/2014	10:08:30.642	$GPGGA,100831,2503.9980,N,07917.1463,W,1,8,1.5,12,M,,M,,*50
05/31/2014	10:08:31.782	$GPGGA,100832,2503.9973,N,07917.1457,W,1,8,1.5,12,M,,M,,*58
05/31/2014	10:08:32.652	$GPGGA,100833,2503.9967,N,07917.1452,W,1,8,1.5,12,M,,M,,*59
05/31/2014	10:08:33.742	$GPGGA,100834,2503.9962,N,07917.1447,W,1,8,1.5,12,M,,M,,*5F
05/31/2014	10:08:34.742	$GPGGA,100835,2503.9955,N,07917.1442,W,1,8,1.5,12,M,,M,,*5F
05/31/2014	10:08:35.642	$GPGGA,100836,2503.9948,N,07917.1437,W,1,8,1.5,12,M,,M,,*52
05/31/2014	10:08:36.652	$GPGGA,100837,2503.9941,N,07917.1431,W,1,8,1.5,12,M,,M,,*5C
05/31/2014	10:08:37.642	$GPGGA,100838,2503.9935,N,07917.1426,W,1,8,1.5,12,M,,M,,*56
05/31/2014	10:08:38.642	$GPGGA,100839,2503.9928,N,07917.1421,W,1,8,1.5,12,M,,M,,*5C
05/31/2014	10:08:39.762	$GPGGA,100840,2503.9922,N,07917.1417,W,1,8,1.5,12,M,,M,,*5D
05/31/2014	10:08:40.752	$GPGGA,100841,2503.9916,N,07917.1411,W,1,8,1.5,12,M,,M,,*5D
05/31/2014	10:08:41.632	$GPGGA,100842,2503.9909,N,07917.1406,W,1,8,1.5,12,M,,M,,*56
05/31/2014	10:08:42.732	$GPGGA,100843,2503.9902,N,07917.1402,W,1,8,1.5,12,M,,M,,*58
05/31/2014	10:08:43.742	$GPGGA,100844,2503.9897,N,07917.1397,W,1,8,1.5,12,M,,M,,*59
05/31/2014	10:08:44.752	$GPGGA,100845,2503.9890,N,07917.1391,W,1,8,1.5,12,M,,M,,*59
05/31/2014	10:08:45.722	$GPGGA,100846,2503.9883,N,07917.1388,W,1,8,1.5,12,M,,M,,*50
05/31/2014	10:08:46.752	$GPGGA,100847,2503.9877,N,07917.1384,W,1,8,1.5,12,M,,M,,*56
05/31/2014	10:08:47.732	$GPGGA,100848,2503.9872,N,07917.1379,W,1,8,1.5,12,M,,M,,*5E
05/31/2014	10:08:48.732	$GPGGA,100849,2503.9865,N,07917.1374,W,1,8,1.5,12,M,,M,,*54
05/31/2014	10:08:49.712	$GPGGA,100850,2503.9857,N,07917.1371,W,1,8,1.5,12,M,,M,,*58
05/31/2014	10:08:50.732	$GPGGA,100851,2503.9852,N,07917.1367,W,1,8,1.5,12,M,,M,,*5B
05/31/2014	10:08:51.722	$GPGGA,100852,2503.9846,N,07917.1362,W,1,8,1.5,12,M,,M,,*58
05/31/2014	10:08:52.726	$GPGGA,100853,2503.9839,N,07917.1358,W,1,9,1.5,12,M,,M,,*59
05/31/2014	10:08:53.702	$GPGGA,100854,2503.9833,N,07917.1354,W,1,9,1.5,12,M,,M,,*58
05/31/2014	10:08:54.732	$GPGGA,100855,2503.9827,N,07917.1350,W,1,9,1.5,12,M,,M,,*58
05/31/2014	10:08:55.712	$GPGGA,100856,2503.9820,N,07917.1344,W,1,9,1.5,12,M,,M,,*59
05/31/2014	10:08:56.722	$GPGGA,100857,2503.9814,N,07917.1340,W,1,9,1.5,12,M,,M,,*5B
05/31/2014	10:08:57.702	$GPGGA,100858,2503.9807,N,07917.1336,W,1,9,1.5,12,M,,M,,*57
05/31/2014	10:08:58.712	$GPGGA,100859,2503.9800,N,07917.1330,W,1,9,1.5,12,M,,M,,*57
05/31/2014	10:08:59.724	$GPGGA,100900,2503.9794,N,07917.1326,W,1,9,1.5,12,M,,M,,*5F
05/31/2014	10:09:00.722	$GPGGA,100901,2503.9789,N,07917.1322,W,1,9,1.5,12,M,,M,,*56
05/31/2014	10:09:01.682	$GPGGA,100902,2503.9781,N,07917.1317,W,1,9,1.5,12,M,,M,,*5B
05/31/2014	10:09:02.722	$GPGGA,100903,2503.9774,N,07917.1312,W,1,8,1.5,12,M,,M,,*54
05/31/2014	10:09:03.702	$GPGGA,100904,2503.9767,N,07917.1308,W,1,8,1.5,12,M,,M,,*5A
05/31/2014	10:09:04.712	$GPGGA,100905,2503.9761,N,07917.1303,W,1,8,1.5,12,M,,M,,*56
05/31/2014	10:09:05.672	$GPGGA,100906,2503.9755,N,07917.1297,W,1,8,1.5,12,M,,M,,*5E
05/31/2014	10:09:06.703	$GPGGA,100907,2503.9747,N,07917.1293,W,1,8,1.5,12,M,,M,,*58
05/31/2014	10:09:07.682	$GPGGA,100908,2503.9742,N,07917.1288,W,1,8,1.5,12,M,,M,,*58
05/31/2014	10:09:08.692	$GPGGA,100909,2503.9735,N,07917.1282,W,1,8,1.5,12,M,,M,,*53
05/31/2014	10:09:09.692	$GPGGA,100910,2503.9729,N,07917.1277,W,1,8,1.5,12,M,,M,,*5C
05/31/2014	10:09:10.662	$GPGGA,100911,2503.9722,N,07917.1272,W,1,8,1.5,12,M,,M,,*53
05/31/2014	10:09:11.722	$GPGGA,100912,2503.9715,N,07917.1267,W,1,8,1.5,12,M,,M,,*50
05/31/2014	10:09:12.702	$GPGGA,100913,2503.9710,N,07917.1261,W,1,8,1.5,12,M,,M,,*52
05/31/2014	10:09:13.692	$GPGGA,100914,2503.9704,N,07917.1255,W,1,8,1.5,12,M,,M,,*57
05/31/2014	10:09:14.672	$GPGGA,100915,2503.9697,N,07917.1250,W,1,8,1.5,12,M,,M,,*58
05/31/2014	10:09:15.682	$GPGGA,100916,2503.9691,N,07917.1245,W,1,8,1.5,12,M,,M,,*59
05/31/2014	10:09:16.692	$GPGGA,100917,2503.9685,N,07917.1239,W,1,8,1.5,12,M,,M,,*56
05/31/2014	10:09:17.742	$GPGGA,100918,2503.9679,N,07917.1234,W,1,8,1.5,12,M,,M,,*57
05/31/2014	10:09:18.762	$GPGGA,100919,2503.9673,N,07917.1229,W,1,8,1.5,12,M,,M,,*50
05/31/2014	10:09:19.682	$GPGGA,100920,2503.9666,N,07917.1223,W,1,8,1.5,12,M,,M,,*54
05/31/2014	10:09:20.752	$GPGGA,100921,2503.9661,N,07917.1217,W,1,8,1.5,12,M,,M,,*55
05/31/2014	10:09:21.642	$GPGGA,100922,2503.9655,N,07917.1212,W,1,8,1.5,12,M,,M,,*54
05/31/2014	10:09:22.672	$GPGGA,100923,2503.9648,N,07917.1206,W,1,8,1.5,12,M,,M,,*5C
05/31/2014	10:09:23.662	$GPGGA,100924,2503.9642,N,07917.1200,W,1,8,1.5,12,M,,M,,*57
05/31/2014	10:09:24.672	$GPGGA,100925,2503.9635,N,07917.1195,W,1,8,1.5,12,M,,M,,*59
05/31/2014	10:09:25.652	$GPGGA,100926,2503.9630,N,07917.1190,W,1,8,1.5,12,M,,M,,*5A
05/31/2014	10:09:26.732	$GPGGA,100927,2503.9624,N,07917.1184,W,1,8,1.5,12,M,,M,,*5B
05/31/2014	10:09:27.660	$GPGGA,100928,2503.9619,N,07917.1178,W,1,8,1.5,12,M,,M,,*59
05/31/2014	10:09:28.720	$GPGGA,100929,2503.9612,N,07917.1173,W,1,8,1.5,12,M,,M,,*58
05/31/2014	10:09:29.720	$GPGGA,100930,2503.9606,N,07917.1167,W,1,8,1.5,12,M,,M,,*50
05/31/2014	10:09:30.710	$GPGGA,100931,2503.9601,N,07917.1162,W,1,8,1.5,12,M,,M,,*53
05/31/2014	10:09:31.730	$GPGGA,100932,2503.9594,N,07917.1157,W,1,8,1.5,12,M,,M,,*59
05/31/2014	10:09:32.720	$GPGGA,100933,2503.9587,N,07917.1152,W,1,8,1.5,12,M,,M,,*5F
05/31/2014	10:09:33.710	$GPGGA,100934,2503.9586,N,07917.1148,W,1,8,1.5,12,M,,M,,*52
05/31/2014	10:09:34.740	$GPGGA,100935,2503.9579,N,07917.1142,W,1,9,1.5,12,M,,M,,*58
05/31/2014	10:09:35.720	$GPGGA,100936,2503.9572,N,07917.1137,W,1,9,1.5,12,M,,M,,*52
05/31/2014	10:09:36.720	$GPGGA,100937,2503.9566,N,07917.1131,W,1,8,1.5,12,M,,M,,*51
05/31/2014	10:09:37.700	$GPGGA,100938,2503.9561,N,07917.1124,W,1,8,1.5,12,M,,M,,*5D
05/31/2014	10:09:38.730	$GPGGA,100939,2503.9554,N,07917.1119,W,1,8,1.5,12,M,,M,,*54
05/31/2014	10:09:39.711	$GPGGA,100940,2503.9547,N,07917.1114,W,1,8,1.5,12,M,,M,,*55
05/31/2014	10:09:40.710	$GPGGA,100941,2503.9543,N,07917.1107,W,1,8,1.5,12,M,,M,,*52
05/31/2014	10:09:41.680	$GPGGA,100942,2503.9536,N,07917.1101,W,1,8,1.5,12,M,,M,,*55
05/31/2014	10:09:42.681	$GPGGA,100943,2503.9529,N,07917.1096,W,1,8,1.5,12,M,,M,,*55
05/31/2014	10:09:43.710	$GPGGA,100944,2503.9523,N,07917.1089,W,1,8,1.5,12,M,,M,,*56
05/31/2014	10:09:44.720	$GPGGA,100945,2503.9518,N,07917.1083,W,1,8,1.5,12,M,,M,,*55
05/31/2014	10:09:45.680	$GPGGA,100946,2503.9511,N,07917.1078,W,1,8,1.5,12,M,,M,,*5B
05/31/2014	10:09:46.680	$GPGGA,100947,2503.9504,N,07917.1072,W,1,8,1.5,12,M,,M,,*54
05/31/2014	10:09:47.690	$GPGGA,100948,2503.9500,N,07917.1066,W,1,8,1.5,12,M,,M,,*5A
05/31/2014	10:09:48.701	$GPGGA,100949,2503.9492,N,07917.1060,W,1,8,1.5,12,M,,M,,*57
05/31/2014	10:09:49.680	$GPGGA,100950,2503.9486,N,07917.1055,W,1,8,1.5,12,M,,M,,*5C
05/31/2014	10:09:50.670	$GPGGA,100951,2503.9480,N,07917.1049,W,1,8,1.5,12,M,,M,,*56
05/31/2014	10:09:51.690	$GPGGA,100952,2503.9474,N,07917.1043,W,1,8,1.5,12,M,,M,,*54
05/31/2014	10:09:52.700	$GPGGA,100953,2503.9468,N,07917.1037,W,1,8,1.5,12,M,,M,,*5B
05/31/2014	10:09:53.660	$GPGGA,100954,2503.9464,N,07917.1031,W,1,8,1.5,12,M,,M,,*56
05/31/2014	10:09:54.710	$GPGGA,100955,2503.9456,N,07917.1025,W,1,8,1.5,12,M,,M,,*53
05/31/2014	10:09:55.680	$GPGGA,100956,2503.9450,N,07917.1020,W,1,8,1.5,12,M,,M,,*53
05/31/2014	10:09:56.690	$GPGGA,100957,2503.9446,N,07917.1014,W,1,8,1.5,12,M,,M,,*52
05/31/2014	10:09:57.660	$GPGGA,100958,2503.9442,N,07917.1008,W,1,8,1.5,12,M,,M,,*54
05/31/2014	10:09:58.681	$GPGGA,100959,2503.9435,N,07917.1003,W,1,9,1.5,12,M,,M,,*5F
05/31/2014	10:09:59.670	$GPGGA,101000,2503.9431,N,07917.0997,W,1,9,1.5,12,M,,M,,*5A
05/31/2014	10:10:00.780	$GPGGA,101001,2503.9425,N,07917.0990,W,1,8,1.5,12,M,,M,,*58
05/31/2014	10:10:01.649	$GPGGA,101002,2503.9421,N,07917.0984,W,1,8,1.5,12,M,,M,,*5A
05/31/2014	10:10:02.670	$GPGGA,101003,2503.9415,N,07917.0979,W,1,8,1.5,12,M,,M,,*5E
05/31/2014	10:10:03.660	$GPGGA,101004,2503.9409,N,07917.0973,W,1,8,1.5,12,M,,M,,*5E
05/31/2014	10:10:04.660	$GPGGA,101005,2503.9406,N,07917.0966,W,1,8,1.5,12,M,,M,,*54
05/31/2014	10:10:05.740	$GPGGA,101006,2503.9399,N,07917.0960,W,1,8,1.5,12,M,,M,,*50
05/31/2014	10:10:06.650	$GPGGA,101007,2503.9393,N,07917.0955,W,1,8,1.5,12,M,,M,,*5D
05/31/2014	10:10:07.660	$GPGGA,101008,2503.9389,N,07917.0948,W,1,8,1.5,12,M,,M,,*55
05/31/2014	10:10:08.630	$GPGGA,101009,2503.9384,N,07917.0942,W,1,8,1.5,12,M,,M,,*53
05/31/2014	10:10:09.750	$GPGGA,101010,2503.9378,N,07917.0937,W,1,8,1.5,12,M,,M,,*5A
05/31/2014	10:10:10.650	$GPGGA,101011,2503.9373,N,07917.0931,W,1,8,1.5,12,M,,M,,*56
05/31/2014	10:10:11.650	$GPGGA,101012,2503.9367,N,07917.0924,W,1,8,1.5,12,M,,M,,*54
05/31/2014	10:10:12.760	$GPGGA,101013,2503.9362,N,07917.0919,W,1,8,1.5,12,M,,M,,*5E
05/31/2014	10:10:13.720	$GPGGA,101014,2503.9356,N,07917.0913,W,1,8,1.5,12,M,,M,,*54
05/31/2014	10:10:14.750	$GPGGA,101015,2503.9352,N,07917.0907,W,1,8,1.5,12,M,,M,,*54
05/31/2014	10:10:15.750	$GPGGA,101016,2503.9346,N,07917.0902,W,1,8,1.5,12,M,,M,,*57
05/31/2014	10:10:16.730	$GPGGA,101017,2503.9341,N,07917.0896,W,1,8,1.5,12,M,,M,,*5D
05/31/2014	10:10:17.720	$GPGGA,101018,2503.9335,N,07917.0890,W,1,8,1.5,12,M,,M,,*57
05/31/2014	10:10:18.711	$GPGGA,101019,2503.9330,N,07917.0885,W,1,8,1.5,12,M,,M,,*57
05/31/2014	10:10:19.720	$GPGGA,101020,2503.9324,N,07917.0879,W,1,8,1.5,12,M,,M,,*5B
05/31/2014	10:10:20.750	$GPGGA,101021,2503.9319,N,07917.0874,W,1,8,1.5,12,M,,M,,*59
05/31/2014	10:10:21.710	$GPGGA,101022,2503.9312,N,07917.0869,W,1,8,1.5,12,M,,M,,*5D
05/31/2014	10:10:22.700	$GPGGA,101023,2503.9306,N,07917.0863,W,1,8,1.5,12,M,,M,,*53
05/31/2014	10:10:23.720	$GPGGA,101024,2503.9302,N,07917.0858,W,1,8,1.5,12,M,,M,,*58
05/31/2014	10:10:24.720	$GPGGA,101025,2503.9296,N,07917.0852,W,1,8,1.5,12,M,,M,,*5F
05/31/2014	10:10:25.700	$GPGGA,101026,2503.9290,N,07917.0848,W,1,8,1.5,12,M,,M,,*51
05/31/2014	10:10:26.720	$GPGGA,101027,2503.9284,N,07917.0843,W,1,8,1.5,12,M,,M,,*5E
05/31/2014	10:10:27.710	$GPGGA,101028,2503.9278,N,07917.0837,W,1,8,1.5,12,M,,M,,*51
05/31/2014	10:10:28.690	$GPGGA,101029,2503.9272,N,07917.0832,W,1,8,1.5,12,M,,M,,*5F
05/31/2014	10:10:29.690	$GPGGA,101030,2503.9266,N,07917.0828,W,1,8,1.5,12,M,,M,,*59
05/31/2014	10:10:30.710	$GPGGA,101031,2503.9260,N,07917.0822,W,1,8,1.5,12,M,,M,,*54
05/31/2014	10:10:31.700	$GPGGA,101032,2503.9254,N,07917.0817,W,1,8,1.5,12,M,,M,,*56
05/31/2014	10:10:32.700	$GPGGA,101033,2503.9248,N,07917.0812,W,1,8,1.5,12,M,,M,,*5F
05/31/2014	10:10:33.680	$GPGGA,101034,2503.9241,N,07917.0808,W,1,8,1.5,12,M,,M,,*5A
05/31/2014	10:10:34.670	$GPGGA,101035,2503.9236,N,07917.0803,W,1,8,1.5,12,M,,M,,*50
05/31/2014	10:10:35.701	$GPGGA,101036,2503.9231,N,07917.0800,W,1,8,1.5,12,M,,M,,*57
05/31/2014	10:10:36.669	$GPGGA,101037,2503.9225,N,07917.0795,W,1,9,1.5,12,M,,M,,*51
05/31/2014	10:10:37.670	$GPGGA,101038,2503.9218,N,07917.0792,W,1,9,1.5,12,M,,M,,*57
05/31/2014	10:10:38.700	$GPGGA,101039,2503.9212,N,07917.0787,W,1,9,1.5,12,M,,M,,*58
05/31/2014	10:10:39.690	$GPGGA,101040,2503.9207,N,07917.0781,W,1,9,1.5,12,M,,M,,*54
05/31/2014	10:10:40.670	$GPGGA,101041,2503.9200,N,07917.0778,W,1,9,1.5,12,M,,M,,*54
05/31/2014	10:10:41.680	$GPGGA,101042,2503.9194,N,07917.0773,W,1,9,1.5,12,M,,M,,*52
05/31/2014	10:10:42.700	$GPGGA,101043,2503.9187,N,07917.0768,W,1,9,1.5,12,M,,M,,*5B
05/31/2014	10:10:43.670	$GPGGA,101044,2503.9182,N,07917.0764,W,1,9,1.5,12,M,,M,,*55
05/31/2014	10:10:44.660	$GPGGA,101045,2503.9175,N,07917.0760,W,1,9,1.5,12,M,,M,,*58
05/31/2014	10:10:45.650	$GPGGA,101046,2503.9168,N,07917.0755,W,1,9,1.5,12,M,,M,,*51
05/31/2014	10:10:46.680	$GPGGA,101047,2503.9162,N,07917.0750,W,1,9,1.5,12,M,,M,,*5F
05/31/2014	10:10:47.680	$GPGGA,101048,2503.9155,N,07917.0746,W,1,9,1.5,12,M,,M,,*53
05/31/2014	10:10:48.650	$GPGGA,101049,2503.9148,N,07917.0742,W,1,9,1.5,12,M,,M,,*5A
05/31/2014	10:10:49.660	$GPGGA,101050,2503.9142,N,07917.0737,W,1,9,1.5,12,M,,M,,*5A
05/31/2014	10:10:50.770	$GPGGA,101051,2503.9136,N,07917.0732,W,1,9,1.5,12,M,,M,,*5D
05/31/2014	10:10:51.670	$GPGGA,101052,2503.9129,N,07917.0728,W,1,9,1.5,12,M,,M,,*5B
05/31/2014	10:10:52.740	$GPGGA,101053,2503.9122,N,07917.0723,W,1,9,1.5,12,M,,M,,*5A
05/31/2014	10:10:53.640	$GPGGA,101054,2503.9117,N,07917.0718,W,1,9,1.5,12,M,,M,,*53
05/31/2014	10:10:54.750	$GPGGA,101055,2503.9109,N,07917.0714,W,1,9,1.5,12,M,,M,,*51
05/31/2014	10:10:55.651	$GPGGA,101056,2503.9102,N,07917.0710,W,1,9,1.5,12,M,,M,,*5D
05/31/2014	10:10:56.650	$GPGGA,101057,2503.9096,N,07917.0704,W,1,9,1.5,12,M,,M,,*55
05/31/2014	10:10:57.730	$GPGGA,101058,2503.9088,N,07917.0700,W,1,9,1.5,12,M,,M,,*51
05/31/2014	10:10:58.730	$GPGGA,101059,2503.9081,N,07917.0695,W,1,9,1.5,12,M,,M,,*54
05/31/2014	10:10:59.750	$GPGGA,101100,2503.9075,N,07917.0690,W,1,9,1.5,12,M,,M,,*57
05/31/2014	10:11:00.630	$GPGGA,101101,2503.9067,N,07917.0686,W,1,9,1.5,12,M,,M,,*52
05/31/2014	10:11:01.730	$GPGGA,101102,2503.9060,N,07917.0682,W,1,9,1.5,12,M,,M,,*52
05/31/2014	10:11:02.720	$GPGGA,101103,2503.9053,N,07917.0677,W,1,9,1.5,12,M,,M,,*59
05/31/2014	10:11:03.640	$GPGGA,101104,2503.9048,N,07917.0672,W,1,9,1.5,12,M,,M,,*51
05/31/2014	10:11:04.620	$GPGGA,101105,2503.9041,N,07917.0667,W,1,9,1.5,12,M,,M,,*5D
05/31/2014	10:11:05.720	$GPGGA,101106,2503.9034,N,07917.0662,W,1,9,1.5,12,M,,M,,*59
05/31/2014	10:11:06.720	$GPGGA,101107,2503.9026,N,07917.0657,W,1,9,1.5,12,M,,M,,*5D
05/31/2014	10:11:07.730	$GPGGA,101108,2503.9019,N,07917.0652,W,1,9,1.5,12,M,,M,,*5B
05/31/2014	10:11:08.720	$GPGGA,101109,2503.9012,N,07917.0647,W,1,9,1.5,13,M,,M,,*54
05/31/2014	10:11:09.720	$GPGGA,101110,2503.9006,N,07917.0643,W,1,9,1.5,13,M,,M,,*5D
05/31/2014	10:11:10.730	$GPGGA,101111,2503.8999,N,07917.0637,W,1,9,1.5,13,M,,M,,*51
05/31/2014	10:11:11.719	$GPGGA,101112,2503.8992,N,07917.0632,W,1,9,1.5,13,M,,M,,*5C
05/31/2014	10:11:12.710	$GPGGA,101113,2503.8985,N,07917.0628,W,1,8,1.5,13,M,,M,,*51
05/31/2014	10:11:13.700	$GPGGA,101114,2503.8978,N,07917.0622,W,1,8,1.5,13,M,,M,,*5E
05/31/2014	10:11:14.720	$GPGGA,101115,2503.8972,N,07917.0616,W,1,8,1.5,13,M,,M,,*52
05/31/2014	10:11:15.710	$GPGGA,101116,2503.8965,N,07917.0612,W,1,8,1.5,13,M,,M,,*53
05/31/2014	10:11:16.740	$GPGGA,101117,2503.8958,N,07917.0607,W,1,8,1.5,13,M,,M,,*58
05/31/2014	10:11:17.690	$GPGGA,101118,2503.8954,N,07917.0601,W,1,8,1.5,13,M,,M,,*5D
05/31/2014	10:11:18.710	$GPGGA,101119,2503.8947,N,07917.0595,W,1,8,1.5,13,M,,M,,*50
05/31/2014	10:11:19.710	$GPGGA,101120,2503.8938,N,07917.0591,W,1,8,1.5,13,M,,M,,*56
05/31/2014	10:11:20.710	$GPGGA,101121,2503.8932,N,07917.0585,W,1,7,2.4,13,M,,M,,*55
05/31/2014	10:11:21.680	$GPGGA,101122,2503.8927,N,07917.0580,W,1,7,2.4,13,M,,M,,*57
05/31/2014	10:11:22.690	$GPGGA,101123,2503.8922,N,07917.0575,W,1,8,1.5,13,M,,M,,*54
05/31/2014	10:11:23.700	$GPGGA,101124,2503.8914,N,07917.0570,W,1,8,1.5,13,M,,M,,*53
05/31/2014	10:11:24.701	$GPGGA,101125,2503.8908,N,07917.0564,W,1,7,2.4,13,M,,M,,*57
05/31/2014	10:11:25.680	$GPGGA,101126,2503.8901,N,07917.0559,W,1,7,1.5,13,M,,M,,*51
05/31/2014	10:11:26.700	$GPGGA,101127,2503.8894,N,07917.0553,W,1,8,1.5,13,M,,M,,*58
05/31/2014	10:11:27.691	$GPGGA,101128,2503.8887,N,07917.0548,W,1,8,1.5,13,M,,M,,*5F
05/31/2014	10:11:28.700	$GPGGA,101129,2503.8882,N,07917.0542,W,1,8,1.5,13,M,,M,,*51
05/31/2014	10:11:29.670	$GPGGA,101130,2503.8875,N,07917.0537,W,1,8,1.5,13,M,,M,,*53
05/31/2014	10:11:30.680	$GPGGA,101131,2503.8868,N,07917.0532,W,1,8,1.5,13,M,,M,,*5B
05/31/2014	10:11:31.690	$GPGGA,101132,2503.8862,N,07917.0526,W,1,8,1.5,13,M,,M,,*57
05/31/2014	10:11:32.700	$GPGGA,101133,2503.8857,N,07917.0521,W,1,8,1.5,13,M,,M,,*57
05/31/2014	10:11:33.650	$GPGGA,101134,2503.8850,N,07917.0516,W,1,8,1.5,13,M,,M,,*53
05/31/2014	10:11:34.660	$GPGGA,101135,2503.8844,N,07917.0510,W,1,8,1.5,13,M,,M,,*51
05/31/2014	10:11:35.680	$GPGGA,101136,2503.8839,N,07917.0505,W,1,8,1.5,13,M,,M,,*5C
05/31/2014	10:11:36.650	$GPGGA,101137,2503.8831,N,07917.0500,W,1,8,1.5,13,M,,M,,*50
05/31/2014	10:11:37.820	$GPGGA,101138,2503.8825,N,07917.0494,W,1,8,1.5,13,M,,M,,*56
05/31/2014	10:11:38.670	$GPGGA,101139,2503.8820,N,07917.0488,W,1,8,1.5,13,M,,M,,*5F
05/31/2014	10:11:39.660	$GPGGA,101140,2503.8813,N,07917.0483,W,1,8,1.5,13,M,,M,,*5A
05/31/2014	10:11:40.670	$GPGGA,101141,2503.8807,N,07917.0478,W,1,8,1.5,13,M,,M,,*5A
05/31/2014	10:11:41.650	$GPGGA,101142,2503.8802,N,07917.0471,W,1,8,1.5,13,M,,M,,*55
05/31/2014	10:11:42.650	$GPGGA,101143,2503.8795,N,07917.0466,W,1,8,1.5,13,M,,M,,*53
05/31/2014	10:11:43.660	$GPGGA,101144,2503.8788,N,07917.0461,W,1,8,1.5,13,M,,M,,*5F
05/31/2014	10:11:44.630	$GPGGA,101145,2503.8783,N,07917.0454,W,1,8,1.5,13,M,,M,,*53
05/31/2014	10:11:45.730	$GPGGA,101146,2503.8777,N,07917.0448,W,1,8,1.5,13,M,,M,,*56
05/31/2014	10:11:46.789	$GPGGA,101147,2503.8770,N,07917.0443,W,1,8,1.5,13,M,,M,,*5B
05/31/2014	10:11:47.810	$GPGGA,101148,2503.8764,N,07917.0437,W,1,8,1.5,13,M,,M,,*52
05/31/2014	10:11:48.790	$GPGGA,101149,2503.8759,N,07917.0430,W,1,8,1.5,13,M,,M,,*5A
05/31/2014	10:11:49.720	$GPGGA,101150,2503.8752,N,07917.0424,W,1,8,1.5,13,M,,M,,*5C
05/31/2014	10:11:50.770	$GPGGA,101151,2503.8745,N,07917.0419,W,1,7,2.4,13,M,,M,,*58
05/31/2014	10:11:51.730	$GPGGA,101152,2503.8738,N,07917.0411,W,1,7,2.4,13,M,,M,,*59
