Software Version Number: 1	Data File Format Number: 1	Build Version Number: 1	Error Count Since VI Started: 0	Manufacturer: Raytheon	 Model Number: RayMarine 120	 S/N: 	 Cal Date: 	 Wind Direction Offset: 0.00	 Slope (M)1: 0.00	 Offset (B)1: 0.00	 Slope (M)2: 0.00	 Offset (B)2: 0.00	 Slope (M)3: 0.00	 Offset (B)3: 0.00	 Slope (M)4: 0.00	 Offset (B)4: 0.00	 Slope (M)5: 0.00	 Offset (B)5: 0.00	 Slope (M)6: 0.00	 Offset (B)6: 0.00
Computer Date	Computer Time	GGA String
06/05/2014	12:00:00.657	$GPGGA,120001,2427.5789,N,08125.6609,W,1,9,1.5,16,M,,M,,*5F
06/05/2014	12:00:01.650	$GPGGA,120002,2427.5773,N,08125.6626,W,1,9,1.5,16,M,,M,,*54
06/05/2014	12:00:02.663	$GPGGA,120003,2427.5755,N,08125.6644,W,1,9,1.5,16,M,,M,,*55
06/05/2014	12:00:03.687	$GPGGA,120004,2427.5737,N,08125.6662,W,1,9,1.5,16,M,,M,,*52
06/05/2014	12:00:04.680	$GPGGA,120005,2427.5720,N,08125.6678,W,1,9,1.5,16,M,,M,,*5E
06/05/2014	12:00:05.653	$GPGGA,120006,2427.5703,N,08125.6696,W,1,9,1.5,16,M,,M,,*5C
06/05/2014	12:00:06.657	$GPGGA,120007,2427.5686,N,08125.6712,W,1,9,1.5,16,M,,M,,*5C
06/05/2014	12:00:07.660	$GPGGA,120008,2427.5669,N,08125.6730,W,1,9,1.5,16,M,,M,,*52
06/05/2014	12:00:08.673	$GPGGA,120009,2427.5651,N,08125.6745,W,1,9,1.5,16,M,,M,,*5A
06/05/2014	12:00:09.656	$GPGGA,120010,2427.5636,N,08125.6763,W,1,9,1.5,16,M,,M,,*57
06/05/2014	12:00:10.670	$GPGGA,120011,2427.5618,N,08125.6778,W,1,9,1.5,16,M,,M,,*50
06/05/2014	12:00:11.673	$GPGGA,120012,2427.5600,N,08125.6795,W,1,9,1.5,16,M,,M,,*59
06/05/2014	12:00:12.676	$GPGGA,120013,2427.5582,N,08125.6811,W,1,9,1.6,16,M,,M,,*51
06/05/2014	12:00:13.660	$GPGGA,120014,2427.5564,N,08125.6828,W,1,9,1.5,16,M,,M,,*57
06/05/2014	12:00:14.693	$GPGGA,120015,2427.5546,N,08125.6846,W,1,9,1.5,16,M,,M,,*5E
06/05/2014	12:00:15.675	$GPGGA,120016,2427.5528,N,08125.6861,W,1,9,1.5,16,M,,M,,*50
06/05/2014	12:00:16.678	$GPGGA,120017,2427.5511,N,08125.6879,W,1,9,1.5,16,M,,M,,*52
06/05/2014	12:00:17.662	$GPGGA,120018,2427.5495,N,08125.6895,W,1,9,1.5,16,M,,M,,*52
06/05/2014	12:00:18.685	$GPGGA,120019,2427.5477,N,08125.6912,W,1,9,1.5,16,M,,M,,*51
06/05/2014	12:00:19.678	$GPGGA,120020,2427.5459,N,08125.6929,W,1,9,1.5,16,M,,M,,*5F
06/05/2014	12:00:20.692	$GPGGA,120021,2427.5443,N,08125.6947,W,1,9,1.5,16,M,,M,,*5D
06/05/2014	12:00:21.665	$GPGGA,120022,2427.5425,N,08125.6963,W,1,9,1.5,16,M,,M,,*58
06/05/2014	12:00:22.698	$GPGGA,120023,2427.5409,N,08125.6981,W,1,9,1.5,16,M,,M,,*5B
06/05/2014	12:00:23.682	$GPGGA,120024,2427.5392,N,08125.6999,W,1,9,1.5,16,M,,M,,*50
06/05/2014	12:00:24.695	$GPGGA,120025,2427.5374,N,08125.7016,W,1,9,1.5,17,M,,M,,*57
06/05/2014	12:00:25.668	$GPGGA,120026,2427.5356,N,08125.7034,W,1,9,1.5,17,M,,M,,*54
06/05/2014	12:00:26.671	$GPGGA,120027,2427.5340,N,08125.7052,W,1,9,1.5,17,M,,M,,*52
06/05/2014	12:00:27.695	$GPGGA,120028,2427.5322,N,08125.7070,W,1,9,1.5,17,M,,M,,*59
06/05/2014	12:00:28.708	$GPGGA,120029,2427.5304,N,08125.7088,W,1,9,1.5,17,M,,M,,*5B
06/05/2014	12:00:29.671	$GPGGA,120030,2427.5289,N,08125.7104,W,1,9,1.5,17,M,,M,,*52
06/05/2014	12:00:30.715	$GPGGA,120031,2427.5271,N,08125.7121,W,1,9,1.5,17,M,,M,,*53
06/05/2014	12:00:31.711	$GPGGA,120032,2427.5254,N,08125.7139,W,1,9,1.5,17,M,,M,,*5E
06/05/2014	12:00:32.702	$GPGGA,120033,2427.5237,N,08125.7157,W,1,9,1.5,17,M,,M,,*52
06/05/2014	12:00:33.683	$GPGGA,120034,2427.5220,N,08125.7173,W,1,9,1.5,17,M,,M,,*55
06/05/2014	12:00:34.493	$GPGGA,120035,2427.5202,N,08125.7191,W,1,9,1.5,17,M,,M,,*58
06/05/2014	12:00:35.526	$GPGGA,120036,2427.5184,N,08125.7209,W,1,9,1.5,17,M,,M,,*54
06/05/2014	12:00:36.510	$GPGGA,120037,2427.5167,N,08125.7227,W,1,9,1.5,17,M,,M,,*54
06/05/2014	12:00:37.493	$GPGGA,120038,2427.5150,N,08125.7245,W,1,9,1.5,17,M,,M,,*5B
06/05/2014	12:00:38.507	$GPGGA,120039,2427.5132,N,08125.7262,W,1,9,1.5,17,M,,M,,*5B
06/05/2014	12:00:39.499	$GPGGA,120040,2427.5116,N,08125.7280,W,1,9,1.5,17,M,,M,,*5F
06/05/2014	12:00:40.493	$GPGGA,120041,2427.5098,N,08125.7296,W,1,9,1.5,17,M,,M,,*5E
06/05/2014	12:00:41.606	$GPGGA,120042,2427.5081,N,08125.7314,W,1,9,1.5,17,M,,M,,*5E
06/05/2014	12:00:42.580	$GPGGA,120043,2427.5065,N,08125.7331,W,1,9,1.5,17,M,,M,,*52
06/05/2014	12:00:43.523	$GPGGA,120044,2427.5047,N,08125.7348,W,1,9,1.5,17,M,,M,,*5B
06/05/2014	12:00:44.516	$GPGGA,120045,2427.5029,N,08125.7366,W,1,9,1.5,17,M,,M,,*5E
06/05/2014	12:00:45.590	$GPGGA,120046,2427.5012,N,08125.7384,W,1,9,1.5,17,M,,M,,*59
06/05/2014	12:00:46.583	$GPGGA,120047,2427.4994,N,08125.7402,W,1,9,1.5,17,M,,M,,*57
06/05/2014	12:00:47.606	$GPGGA,120048,2427.4976,N,08125.7421,W,1,9,1.5,17,M,,M,,*55
06/05/2014	12:00:48.619	$GPGGA,120049,2427.4958,N,08125.7439,W,1,9,1.5,17,M,,M,,*51
06/05/2014	12:00:49.603	$GPGGA,120050,2427.4941,N,08125.7457,W,1,9,1.5,17,M,,M,,*59
06/05/2014	12:00:50.625	$GPGGA,120051,2427.4925,N,08125.7475,W,1,9,1.5,17,M,,M,,*5A
06/05/2014	12:00:51.608	$GPGGA,120052,2427.4907,N,08125.7491,W,1,9,1.5,17,M,,M,,*53
06/05/2014	12:00:52.592	$GPGGA,120053,2427.4890,N,08125.7509,W,1,9,1.5,17,M,,M,,*5D
06/05/2014	12:00:53.595	$GPGGA,120054,2427.4874,N,08125.7527,W,1,9,1.5,17,M,,M,,*5C
06/05/2014	12:00:54.608	$GPGGA,120055,2427.4856,N,08125.7544,W,1,9,1.5,17,M,,M,,*58
06/05/2014	12:00:55.611	$GPGGA,120056,2427.4839,N,08125.7562,W,1,9,1.5,17,M,,M,,*56
06/05/2014	12:00:56.595	$GPGGA,120057,2427.4823,N,08125.7580,W,1,9,1.5,17,M,,M,,*50
06/05/2014	12:00:57.608	$GPGGA,120058,2427.4805,N,08125.7598,W,1,9,1.5,17,M,,M,,*52
06/05/2014	12:00:58.601	$GPGGA,120059,2427.4787,N,08125.7616,W,1,9,1.5,17,M,,M,,*53
06/05/2014	12:00:59.615	$GPGGA,120100,2427.4770,N,08125.7633,W,1,9,1.5,17,M,,M,,*51
06/05/2014	12:01:00.628	$GPGGA,120101,2427.4753,N,08125.7652,W,1,9,1.5,17,M,,M,,*56
06/05/2014	12:01:01.601	$GPGGA,120102,2427.4735,N,08125.7668,W,1,9,1.5,17,M,,M,,*5C
06/05/2014	12:01:02.604	$GPGGA,120103,2427.4718,N,08125.7685,W,1,9,1.5,17,M,,M,,*51
06/05/2014	12:01:03.618	$GPGGA,120104,2427.4701,N,08125.7703,W,1,9,1.5,17,M,,M,,*51
06/05/2014	12:01:04.641	$GPGGA,120105,2427.4684,N,08125.7721,W,1,9,1.5,17,M,,M,,*5C
06/05/2014	12:01:05.624	$GPGGA,120106,2427.4668,N,08125.7738,W,1,9,1.5,17,M,,M,,*55
06/05/2014	12:01:06.618	$GPGGA,120107,2427.4650,N,08125.7756,W,1,9,1.5,17,M,,M,,*57
06/05/2014	12:01:07.630	$GPGGA,120108,2427.4633,N,08125.7772,W,1,9,1.5,17,M,,M,,*5B
06/05/2014	12:01:08.653	$GPGGA,120109,2427.4617,N,08125.7790,W,1,9,1.5,17,M,,M,,*50
06/05/2014	12:01:09.607	$GPGGA,120110,2427.4599,N,08125.7808,W,1,9,1.5,17,M,,M,,*53
06/05/2014	12:01:10.660	$GPGGA,120111,2427.4581,N,08125.7825,W,1,9,1.5,17,M,,M,,*54
06/05/2014	12:01:11.643	$GPGGA,120112,2427.4561,N,08125.7841,W,1,9,1.6,17,M,,M,,*58
06/05/2014	12:01:12.616	$GPGGA,120113,2427.4542,N,08125.7858,W,1,9,1.5,17,M,,M,,*53
06/05/2014	12:01:13.630	$GPGGA,120114,2427.4524,N,08125.7874,W,1,9,1.5,17,M,,M,,*5A
06/05/2014	12:01:14.653	$GPGGA,120115,2427.4509,N,08125.7891,W,1,9,1.5,17,M,,M,,*5F
06/05/2014	12:01:15.626	$GPGGA,120116,2427.4491,N,08125.7908,W,1,9,1.5,17,M,,M,,*5D
06/05/2014	12:01:16.650	$GPGGA,120117,2427.4473,N,08125.7924,W,1,9,1.5,17,M,,M,,*5E
06/05/2014	12:01:17.633	$GPGGA,120118,2427.4455,N,08125.7941,W,1,9,1.5,17,M,,M,,*56
06/05/2014	12:01:18.626	$GPGGA,120119,2427.4440,N,08125.7959,W,1,9,1.5,17,M,,M,,*5A
06/05/2014	12:01:19.640	$GPGGA,120120,2427.4422,N,08125.7977,W,1,9,1.5,17,M,,M,,*58
06/05/2014	12:01:20.643	$GPGGA,120121,2427.4402,N,08125.7993,W,1,9,1.5,18,M,,M,,*5E
06/05/2014	12:01:21.636	$GPGGA,120122,2427.4386,N,08125.8010,W,1,9,1.5,18,M,,M,,*5B
06/05/2014	12:01:22.629	$GPGGA,120123,2427.4368,N,08125.8029,W,1,9,1.5,18,M,,M,,*50
06/05/2014	12:01:23.633	$GPGGA,120124,2427.4350,N,08125.8046,W,1,9,1.5,18,M,,M,,*55
06/05/2014	12:01:24.756	$GPGGA,120125,2427.4333,N,08125.8063,W,1,9,1.5,18,M,,M,,*56
06/05/2014	12:01:25.648	$GPGGA,120126,2427.4315,N,08125.8079,W,1,9,1.6,18,M,,M,,*59
06/05/2014	12:01:26.652	$GPGGA,120127,2427.4299,N,08125.8096,W,1,9,1.5,18,M,,M,,*5F
06/05/2014	12:01:27.665	$GPGGA,120128,2427.4281,N,08125.8114,W,1,9,1.5,18,M,,M,,*52
06/05/2014	12:01:28.658	$GPGGA,120129,2427.4263,N,08125.8130,W,1,9,1.5,18,M,,M,,*59
06/05/2014	12:01:29.732	$GPGGA,120130,2427.4246,N,08125.8150,W,1,9,1.5,18,M,,M,,*50
06/05/2014	12:01:30.735	$GPGGA,120131,2427.4228,N,08125.8168,W,1,9,1.5,18,M,,M,,*52
06/05/2014	12:01:31.648	$GPGGA,120132,2427.4210,N,08125.8186,W,1,9,1.5,18,M,,M,,*5A
06/05/2014	12:01:32.651	$GPGGA,120133,2427.4193,N,08125.8204,W,1,9,1.5,18,M,,M,,*5A
06/05/2014	12:01:33.745	$GPGGA,120134,2427.4177,N,08125.8220,W,1,9,1.5,18,M,,M,,*51
06/05/2014	12:01:34.582	$GPGGA,120135,2427.4159,N,08125.8237,W,1,9,1.5,18,M,,M,,*5A
06/05/2014	12:01:35.556	$GPGGA,120136,2427.4142,N,08125.8255,W,1,9,1.5,18,M,,M,,*57
06/05/2014	12:01:36.579	$GPGGA,120137,2427.4126,N,08125.8273,W,1,9,1.5,18,M,,M,,*50
06/05/2014	12:01:37.562	$GPGGA,120138,2427.4108,N,08125.8289,W,1,9,1.5,18,M,,M,,*56
06/05/2014	12:01:38.595	$GPGGA,120139,2427.4091,N,08125.8307,W,1,9,1.5,18,M,,M,,*51
06/05/2014	12:01:39.570	$GPGGA,120140,2427.4073,N,08125.8325,W,1,9,1.5,18,M,,M,,*53
06/05/2014	12:01:40.582	$GPGGA,120141,2427.4057,N,08125.8343,W,1,9,1.5,18,M,,M,,*54
06/05/2014	12:01:41.555	$GPGGA,120142,2427.4039,N,08125.8361,W,1,9,1.5,18,M,,M,,*5F
06/05/2014	12:01:42.588	$GPGGA,120143,2427.4021,N,08125.8381,W,1,9,1.5,18,M,,M,,*59
06/05/2014	12:01:43.581	$GPGGA,120144,2427.4004,N,08125.8397,W,1,9,1.5,18,M,,M,,*5E
06/05/2014	12:01:44.574	$GPGGA,120145,2427.3987,N,08125.8415,W,1,9,1.5,18,M,,M,,*57
06/05/2014	12:01:45.567	$GPGGA,120146,2427.3969,N,08125.8432,W,1,9,1.5,18,M,,M,,*51
06/05/2014	12:01:46.581	$GPGGA,120147,2427.3952,N,08125.8450,W,1,9,1.5,18,M,,M,,*5C
06/05/2014	12:01:47.574	$GPGGA,120148,2427.3936,N,08125.8468,W,1,9,1.5,18,M,,M,,*5A
06/05/2014	12:01:48.587	$GPGGA,120149,2427.3918,N,08125.8486,W,1,9,1.5,18,M,,M,,*57
06/05/2014	12:01:49.561	$GPGGA,120150,2427.3902,N,08125.8502,W,1,9,1.5,18,M,,M,,*59
06/05/2014	12:01:50.594	$GPGGA,120151,2427.3884,N,08125.8520,W,1,9,1.5,18,M,,M,,*57
06/05/2014	12:01:51.587	$GPGGA,120152,2427.3866,N,08125.8540,W,1,9,1.5,18,M,,M,,*5E
06/05/2014	12:01:52.591	$GPGGA,120153,2427.3849,N,08125.8556,W,1,9,1.5,18,M,,M,,*55
06/05/2014	12:01:53.574	$GPGGA,120154,2427.3831,N,08125.8574,W,1,9,1.5,18,M,,M,,*5D
06/05/2014	12:01:54.568	$GPGGA,120155,2427.3815,N,08125.8592,W,1,9,1.5,18,M,,M,,*52
06/05/2014	12:01:55.590	$GPGGA,120156,2427.3797,N,08125.8610,W,1,9,1.5,18,M,,M,,*5D
06/05/2014	12:01:56.565	$GPGGA,120157,2427.3780,N,08125.8628,W,1,9,1.5,18,M,,M,,*51
06/05/2014	12:01:57.587	$GPGGA,120158,2427.3763,N,08125.8645,W,1,9,1.5,18,M,,M,,*58
06/05/2014	12:01:58.590	$GPGGA,120159,2427.3746,N,08125.8663,W,1,9,1.5,18,M,,M,,*5A
06/05/2014	12:01:59.604	$GPGGA,120200,2427.3729,N,08125.8681,W,1,9,1.5,17,M,,M,,*5F
06/05/2014	12:02:00.576	$GPGGA,120201,2427.3711,N,08125.8697,W,1,9,1.5,17,M,,M,,*52
06/05/2014	12:02:01.579	$GPGGA,120202,2427.3694,N,08125.8715,W,1,9,1.5,17,M,,M,,*56
06/05/2014	12:02:02.593	$GPGGA,120203,2427.3678,N,08125.8732,W,1,9,1.5,17,M,,M,,*50
06/05/2014	12:02:03.586	$GPGGA,120204,2427.3660,N,08125.8750,W,1,9,1.5,17,M,,M,,*5A
06/05/2014	12:02:04.589	$GPGGA,120205,2427.3642,N,08125.8768,W,1,9,1.5,17,M,,M,,*50
06/05/2014	12:02:05.592	$GPGGA,120206,2427.3624,N,08125.8786,W,1,9,1.5,17,M,,M,,*53
06/05/2014	12:02:07.609	$GPGGA,120208,2427.3588,N,08125.8820,W,1,9,1.5,17,M,,M,,*5B
06/05/2014	12:02:08.612	$GPGGA,120209,2427.3571,N,08125.8838,W,1,9,1.5,17,M,,M,,*55
06/05/2014	12:02:09.595	$GPGGA,120210,2427.3555,N,08125.8855,W,1,9,1.5,17,M,,M,,*50
06/05/2014	12:02:10.609	$GPGGA,120211,2427.3537,N,08125.8871,W,1,9,1.5,17,M,,M,,*53
06/05/2014	12:02:11.612	$GPGGA,120212,2427.3519,N,08125.8889,W,1,9,1.6,17,M,,M,,*58
06/05/2014	12:02:12.605	$GPGGA,120213,2427.3501,N,08125.8906,W,1,8,1.6,17,M,,M,,*57
06/05/2014	12:02:13.689	$GPGGA,120214,2427.3484,N,08125.8923,W,1,8,1.5,17,M,,M,,*58
06/05/2014	12:02:14.722	$GPGGA,120215,2427.3465,N,08125.8941,W,1,9,1.5,17,M,,M,,*53
06/05/2014	12:02:15.605	$GPGGA,120216,2427.3447,N,08125.8959,W,1,9,1.5,17,M,,M,,*59
06/05/2014	12:02:16.619	$GPGGA,120217,2427.3428,N,08125.8975,W,1,8,1.6,17,M,,M,,*5D
06/05/2014	12:02:17.691	$GPGGA,120218,2427.3410,N,08125.8993,W,1,8,1.6,17,M,,M,,*51
06/05/2014	12:02:18.624	$GPGGA,120219,2427.3391,N,08125.9010,W,1,9,1.5,17,M,,M,,*5F
06/05/2014	12:02:19.617	$GPGGA,120220,2427.3374,N,08125.9028,W,1,9,1.5,17,M,,M,,*55
06/05/2014	12:02:20.611	$GPGGA,120221,2427.3356,N,08125.9044,W,1,9,1.5,17,M,,M,,*5E
06/05/2014	12:02:21.694	$GPGGA,120222,2427.3339,N,08125.9061,W,1,9,1.5,17,M,,M,,*53
06/05/2014	12:02:22.698	$GPGGA,120223,2427.3322,N,08125.9079,W,1,9,1.5,17,M,,M,,*51
06/05/2014	12:02:23.721	$GPGGA,120224,2427.3304,N,08125.9094,W,1,9,1.5,17,M,,M,,*51
06/05/2014	12:02:24.704	$GPGGA,120225,2427.3288,N,08125.9112,W,1,9,1.5,17,M,,M,,*5A
06/05/2014	12:02:25.697	$GPGGA,120226,2427.3270,N,08125.9130,W,1,9,1.5,17,M,,M,,*5E
06/05/2014	12:02:26.731	$GPGGA,120227,2427.3251,N,08125.9147,W,1,9,1.5,17,M,,M,,*5C
06/05/2014	12:02:27.714	$GPGGA,120228,2427.3232,N,08125.9165,W,1,9,1.5,17,M,,M,,*56
06/05/2014	12:02:28.707	$GPGGA,120229,2427.3214,N,08125.9183,W,1,9,1.5,17,M,,M,,*5B
06/05/2014	12:02:29.721	$GPGGA,120230,2427.3196,N,08125.9201,W,1,9,1.5,17,M,,M,,*53
06/05/2014	12:02:30.734	$GPGGA,120231,2427.3177,N,08125.9219,W,1,9,1.5,17,M,,M,,*54
06/05/2014	12:02:31.727	$GPGGA,120232,2427.3161,N,08125.9235,W,1,9,1.5,17,M,,M,,*5E
06/05/2014	12:02:32.741	$GPGGA,120233,2427.3143,N,08125.9252,W,1,9,1.5,17,M,,M,,*5E
06/05/2014	12:02:33.706	$GPGGA,120234,2427.3126,N,08125.9270,W,1,9,1.5,17,M,,M,,*5A
06/05/2014	12:02:34.539	$GPGGA,120235,2427.3111,N,08125.9286,W,1,9,1.5,17,M,,M,,*56
06/05/2014	12:02:35.542	$GPGGA,120236,2427.3093,N,08125.9304,W,1,9,1.5,17,M,,M,,*55
06/05/2014	12:02:36.546	$GPGGA,120237,2427.3075,N,08125.9321,W,1,9,1.5,17,M,,M,,*5B
06/05/2014	12:02:37.519	$GPGGA,120238,2427.3058,N,08125.9340,W,1,9,1.5,17,M,,M,,*5C
06/05/2014	12:02:38.542	$GPGGA,120239,2427.3040,N,08125.9360,W,1,9,1.5,17,M,,M,,*56
06/05/2014	12:02:39.546	$GPGGA,120240,2427.3022,N,08125.9378,W,1,9,1.5,17,M,,M,,*55
06/05/2014	12:02:40.549	$GPGGA,120241,2427.3003,N,08125.9394,W,1,9,1.5,17,M,,M,,*55
06/05/2014	12:02:41.532	$GPGGA,120242,2427.2986,N,08125.9412,W,1,9,1.5,17,M,,M,,*5A
06/05/2014	12:02:42.556	$GPGGA,120243,2427.2970,N,08125.9430,W,1,8,1.6,17,M,,M,,*50
06/05/2014	12:02:43.559	$GPGGA,120244,2427.2953,N,08125.9447,W,1,8,1.5,17,M,,M,,*55
06/05/2014	12:02:44.522	$GPGGA,120245,2427.2936,N,08125.9462,W,1,9,1.5,17,M,,M,,*51
06/05/2014	12:02:45.526	$GPGGA,120246,2427.2920,N,08125.9480,W,1,9,1.5,17,M,,M,,*59
06/05/2014	12:02:46.569	$GPGGA,120247,2427.2903,N,08125.9498,W,1,8,1.6,17,M,,M,,*52
06/05/2014	12:02:47.562	$GPGGA,120248,2427.2887,N,08125.9516,W,1,8,1.6,17,M,,M,,*57
06/05/2014	12:02:48.545	$GPGGA,120249,2427.2867,N,08125.9532,W,1,8,1.6,17,M,,M,,*5E
06/05/2014	12:02:49.539	$GPGGA,120250,2427.2849,N,08125.9552,W,1,8,1.5,17,M,,M,,*5F
06/05/2014	12:02:50.543	$GPGGA,120251,2427.2831,N,08125.9570,W,1,9,1.5,17,M,,M,,*50
06/05/2014	12:02:51.569	$GPGGA,120252,2427.2812,N,08125.9588,W,1,9,1.5,17,M,,M,,*55
06/05/2014	12:02:52.547	$GPGGA,120253,2427.2794,N,08125.9606,W,1,9,1.5,17,M,,M,,*50
06/05/2014	12:02:53.551	$GPGGA,120254,2427.2778,N,08125.9624,W,1,9,1.5,17,M,,M,,*55
06/05/2014	12:02:54.555	$GPGGA,120255,2427.2760,N,08125.9642,W,1,9,1.5,17,M,,M,,*5D
06/05/2014	12:02:55.557	$GPGGA,120256,2427.2743,N,08125.9657,W,1,9,1.5,17,M,,M,,*5B
06/05/2014	12:02:56.541	$GPGGA,120257,2427.2728,N,08125.9675,W,1,9,1.5,17,M,,M,,*57
06/05/2014	12:02:57.544	$GPGGA,120258,2427.2710,N,08125.9693,W,1,9,1.5,17,M,,M,,*5B
06/05/2014	12:02:58.547	$GPGGA,120259,2427.2693,N,08125.9709,W,1,9,1.5,17,M,,M,,*52
06/05/2014	12:02:59.661	$GPGGA,120300,2427.2675,N,08125.9727,W,1,9,1.5,17,M,,M,,*5B
06/05/2014	12:03:00.574	$GPGGA,120301,2427.2657,N,08125.9745,W,1,9,1.5,17,M,,M,,*5E
06/05/2014	12:03:01.647	$GPGGA,120302,2427.2639,N,08125.9763,W,1,9,1.5,17,M,,M,,*51
06/05/2014	12:03:02.550	$GPGGA,120303,2427.2620,N,08125.9781,W,1,9,1.5,17,M,,M,,*54
06/05/2014	12:03:03.734	$GPGGA,120304,2427.2603,N,08125.9799,W,1,9,1.5,17,M,,M,,*5B
06/05/2014	12:03:04.577	$GPGGA,120305,2427.2585,N,08125.9819,W,1,8,1.6,17,M,,M,,*52
06/05/2014	12:03:05.731	$GPGGA,120306,2427.2569,N,08125.9835,W,1,8,1.5,17,M,,M,,*5E
06/05/2014	12:03:06.774	$GPGGA,120307,2427.2551,N,08125.9852,W,1,9,1.5,17,M,,M,,*54
06/05/2014	12:03:07.737	$GPGGA,120308,2427.2534,N,08125.9870,W,1,9,1.5,17,M,,M,,*58
06/05/2014	12:03:08.571	$GPGGA,120309,2427.2518,N,08125.9886,W,1,9,1.5,17,M,,M,,*5E
06/05/2014	12:03:09.733	$GPGGA,120310,2427.2500,N,08125.9902,W,1,9,1.5,17,M,,M,,*52
06/05/2014	12:03:10.746	$GPGGA,120311,2427.2482,N,08125.9920,W,1,9,1.5,17,M,,M,,*58
06/05/2014	12:03:11.760	$GPGGA,120312,2427.2465,N,08125.9939,W,1,9,1.5,17,M,,M,,*5A
06/05/2014	12:03:12.693	$GPGGA,120313,2427.2446,N,08125.9957,W,1,9,1.5,17,M,,M,,*52
06/05/2014	12:03:13.736	$GPGGA,120314,2427.2428,N,08125.9975,W,1,9,1.5,17,M,,M,,*5D
06/05/2014	12:03:14.709	$GPGGA,120315,2427.2410,N,08125.9993,W,1,9,1.5,17,M,,M,,*5F
06/05/2014	12:03:15.753	$GPGGA,120316,2427.2392,N,08126.0011,W,1,9,1.5,17,M,,M,,*58
06/05/2014	12:03:16.747	$GPGGA,120317,2427.2375,N,08126.0027,W,1,9,1.5,17,M,,M,,*55
06/05/2014	12:03:17.739	$GPGGA,120318,2427.2359,N,08126.0044,W,1,9,1.5,17,M,,M,,*51
06/05/2014	12:03:18.712	$GPGGA,120319,2427.2341,N,08126.0061,W,1,9,1.5,17,M,,M,,*5E
06/05/2014	12:03:19.676	$GPGGA,120320,2427.2325,N,08126.0079,W,1,9,1.5,17,M,,M,,*5F
06/05/2014	12:03:20.739	$GPGGA,120321,2427.2309,N,08126.0095,W,1,9,1.5,17,M,,M,,*52
06/05/2014	12:03:21.752	$GPGGA,120322,2427.2290,N,08126.0112,W,1,9,1.5,17,M,,M,,*5E
06/05/2014	12:03:22.716	$GPGGA,120323,2427.2272,N,08126.0130,W,1,9,1.5,17,M,,M,,*53
06/05/2014	12:03:23.769	$GPGGA,120324,2427.2254,N,08126.0148,W,1,9,1.5,17,M,,M,,*5F
06/05/2014	12:03:24.732	$GPGGA,120325,2427.2237,N,08126.0166,W,1,9,1.5,17,M,,M,,*57
06/05/2014	12:03:25.677	$GPGGA,120326,2427.2219,N,08126.0184,W,1,9,1.5,17,M,,M,,*54
06/05/2014	12:03:26.749	$GPGGA,120327,2427.2201,N,08126.0202,W,1,9,1.5,17,M,,M,,*51
06/05/2014	12:03:27.691	$GPGGA,120328,2427.2184,N,08126.0218,W,1,9,1.5,17,M,,M,,*5B
06/05/2014	12:03:28.744	$GPGGA,120329,2427.2166,N,08126.0235,W,1,9,1.5,17,M,,M,,*59
06/05/2014	12:03:29.678	$GPGGA,120330,2427.2150,N,08126.0253,W,1,9,1.5,17,M,,M,,*54
06/05/2014	12:03:30.681	$GPGGA,120331,2427.2133,N,08126.0271,W,1,9,1.5,17,M,,M,,*50
06/05/2014	12:03:31.764	$GPGGA,120332,2427.2115,N,08126.0286,W,1,9,1.5,17,M,,M,,*5F
06/05/2014	12:03:32.738	$GPGGA,120333,2427.2099,N,08126.0304,W,1,9,1.5,17,M,,M,,*50
06/05/2014	12:03:33.751	$GPGGA,120334,2427.2081,N,08126.0323,W,1,9,1.5,18,M,,M,,*54
06/05/2014	12:03:34.548	$GPGGA,120335,2427.2063,N,08126.0340,W,1,9,1.5,18,M,,M,,*5C
06/05/2014	12:03:35.501	$GPGGA,120336,2427.2045,N,08126.0358,W,1,9,1.5,18,M,,M,,*52
06/05/2014	12:03:36.525	$GPGGA,120337,2427.2027,N,08126.0376,W,1,9,1.5,18,M,,M,,*5B
06/05/2014	12:03:37.488	$GPGGA,120338,2427.2011,N,08126.0394,W,1,9,1.5,18,M,,M,,*5D
06/05/2014	12:03:38.521	$GPGGA,120339,2427.1994,N,08126.0412,W,1,9,1.5,18,M,,M,,*52
06/05/2014	12:03:39.575	$GPGGA,120340,2427.1977,N,08126.0428,W,1,9,1.5,18,M,,M,,*58
06/05/2014	12:03:40.548	$GPGGA,120341,2427.1960,N,08126.0445,W,1,8,1.5,18,M,,M,,*55
06/05/2014	12:03:41.561	$GPGGA,120342,2427.1944,N,08126.0462,W,1,8,1.5,18,M,,M,,*55
06/05/2014	12:03:42.505	$GPGGA,120343,2427.1926,N,08126.0478,W,1,9,1.5,18,M,,M,,*5A
06/05/2014	12:03:43.578	$GPGGA,120344,2427.1908,N,08126.0498,W,1,9,1.5,18,M,,M,,*5F
06/05/2014	12:03:44.540	$GPGGA,120345,2427.1890,N,08126.0514,W,1,9,1.5,18,M,,M,,*5B
06/05/2014	12:03:45.503	$GPGGA,120346,2427.1872,N,08126.0531,W,1,9,1.5,18,M,,M,,*53
06/05/2014	12:03:46.637	$GPGGA,120347,2427.1857,N,08126.0549,W,1,9,1.5,18,M,,M,,*5A
06/05/2014	12:03:47.580	$GPGGA,120348,2427.1839,N,08126.0567,W,1,9,1.5,18,M,,M,,*51
06/05/2014	12:03:48.561	$GPGGA,120349,2427.1822,N,08126.0582,W,1,9,1.5,18,M,,M,,*51
06/05/2014	12:03:49.607	$GPGGA,120350,2427.1805,N,08126.0600,W,1,9,1.5,18,M,,M,,*55
06/05/2014	12:03:50.550	$GPGGA,120351,2427.1787,N,08126.0615,W,1,9,1.5,18,M,,M,,*55
06/05/2014	12:03:51.593	$GPGGA,120352,2427.1770,N,08126.0633,W,1,9,1.5,18,M,,M,,*5A
06/05/2014	12:03:52.647	$GPGGA,120353,2427.1752,N,08126.0650,W,1,9,1.5,18,M,,M,,*5E
06/05/2014	12:03:53.580	$GPGGA,120354,2427.1734,N,08126.0666,W,1,9,1.5,18,M,,M,,*5C
06/05/2014	12:03:54.623	$GPGGA,120355,2427.1716,N,08126.0683,W,1,9,1.5,18,M,,M,,*56
06/05/2014	12:03:55.586	$GPGGA,120356,2427.1698,N,08126.0701,W,1,9,1.5,18,M,,M,,*59
06/05/2014	12:03:56.630	$GPGGA,120357,2427.1680,N,08126.0716,W,1,9,1.5,18,M,,M,,*57
06/05/2014	12:03:57.583	$GPGGA,120358,2427.1663,N,08126.0733,W,1,9,1.5,18,M,,M,,*52
06/05/2014	12:03:58.656	$GPGGA,120359,2427.1646,N,08126.0751,W,1,9,1.5,18,M,,M,,*50
06/05/2014	12:03:59.650	$GPGGA,120400,2427.1629,N,08126.0766,W,1,9,1.5,18,M,,M,,*56
06/05/2014	12:04:00.654	$GPGGA,120401,2427.1611,N,08126.0782,W,1,9,1.5,18,M,,M,,*56
06/05/2014	12:04:01.616	$GPGGA,120402,2427.1595,N,08126.0799,W,1,9,1.5,18,M,,M,,*50
06/05/2014	12:04:02.669	$GPGGA,120403,2427.1577,N,08126.0816,W,1,9,1.5,19,M,,M,,*54
06/05/2014	12:04:03.642	$GPGGA,120404,2427.1559,N,08126.0834,W,1,9,1.5,19,M,,M,,*5F
06/05/2014	12:04:04.645	$GPGGA,120405,2427.1543,N,08126.0850,W,1,9,1.5,19,M,,M,,*57
06/05/2014	12:04:05.638	$GPGGA,120406,2427.1525,N,08126.0868,W,1,9,1.5,19,M,,M,,*5F
06/05/2014	12:04:06.692	$GPGGA,120407,2427.1507,N,08126.0885,W,1,9,1.5,19,M,,M,,*5D
06/05/2014	12:04:07.655	$GPGGA,120408,2427.1489,N,08126.0901,W,1,9,1.5,19,M,,M,,*58
06/05/2014	12:04:08.648	$GPGGA,120409,2427.1472,N,08126.0918,W,1,9,1.6,19,M,,M,,*56
06/05/2014	12:04:09.632	$GPGGA,120410,2427.1456,N,08126.0934,W,1,9,1.5,19,M,,M,,*55
06/05/2014	12:04:10.685	$GPGGA,120411,2427.1438,N,08126.0951,W,1,9,1.5,19,M,,M,,*5F
06/05/2014	12:04:11.668	$GPGGA,120412,2427.1420,N,08126.0969,W,1,9,1.5,19,M,,M,,*5E
06/05/2014	12:04:12.652	$GPGGA,120413,2427.1402,N,08126.0987,W,1,9,1.5,19,M,,M,,*5F
06/05/2014	12:04:13.655	$GPGGA,120414,2427.1384,N,08126.1005,W,1,9,1.5,19,M,,M,,*53
06/05/2014	12:04:14.668	$GPGGA,120415,2427.1366,N,08126.1023,W,1,9,1.5,19,M,,M,,*5A
06/05/2014	12:04:15.661	$GPGGA,120416,2427.1348,N,08126.1040,W,1,9,1.5,19,M,,M,,*50
06/05/2014	12:04:16.675	$GPGGA,120417,2427.1330,N,08126.1059,W,1,9,1.5,19,M,,M,,*56
06/05/2014	12:04:17.651	$GPGGA,120418,2427.1330,N,08126.1059,W,1,9,1.5,19,M,,M,,*59
06/05/2014	12:04:18.661	$GPGGA,120419,2427.1295,N,08126.1091,W,1,9,1.5,19,M,,M,,*52
06/05/2014	12:04:19.664	$GPGGA,120420,2427.1279,N,08126.1106,W,1,9,1.5,19,M,,M,,*55
06/05/2014	12:04:20.687	$GPGGA,120421,2427.1261,N,08126.1124,W,1,9,1.5,19,M,,M,,*5D
06/05/2014	12:04:21.680	$GPGGA,120422,2427.1244,N,08126.1141,W,1,9,1.5,19,M,,M,,*5A
06/05/2014	12:04:22.684	$GPGGA,120423,2427.1225,N,08126.1157,W,1,9,1.5,19,M,,M,,*5B
06/05/2014	12:04:23.677	$GPGGA,120424,2427.1225,N,08126.1157,W,1,9,1.5,19,M,,M,,*5C
06/05/2014	12:04:24.690	$GPGGA,120425,2427.1190,N,08126.1193,W,1,9,1.5,19,M,,M,,*58
06/05/2014	12:04:25.673	$GPGGA,120426,2427.1172,N,08126.1210,W,1,9,1.5,19,M,,M,,*5F
06/05/2014	12:04:26.667	$GPGGA,120427,2427.1156,N,08126.1228,W,1,9,1.5,19,M,,M,,*53
06/05/2014	12:04:27.681	$GPGGA,120428,2427.1156,N,08126.1228,W,1,9,1.5,19,M,,M,,*5C
06/05/2014	12:04:28.653	$GPGGA,120429,2427.1122,N,08126.1261,W,1,9,1.5,19,M,,M,,*53
06/05/2014	12:04:29.687	$GPGGA,120430,2427.1106,N,08126.1279,W,1,9,1.5,19,M,,M,,*54
06/05/2014	12:04:30.698	$GPGGA,120431,2427.1089,N,08126.1297,W,1,9,1.5,19,M,,M,,*53
06/05/2014	12:04:31.713	$GPGGA,120432,2427.1089,N,08126.1297,W,1,9,1.5,19,M,,M,,*50
06/05/2014	12:04:32.677	$GPGGA,120433,2427.1055,N,08126.1330,W,1,9,1.5,19,M,,M,,*5C
06/05/2014	12:04:33.670	$GPGGA,120434,2427.1037,N,08126.1348,W,1,9,1.5,19,M,,M,,*50
06/05/2014	12:04:34.486	$GPGGA,120435,2427.1037,N,08126.1348,W,1,9,1.5,19,M,,M,,*51
06/05/2014	12:04:35.590	$GPGGA,120436,2427.1002,N,08126.1384,W,1,9,1.5,18,M,,M,,*55
06/05/2014	12:04:36.473	$GPGGA,120437,2427.0985,N,08126.1402,W,1,9,1.5,18,M,,M,,*5A
06/05/2014	12:04:37.475	$GPGGA,120438,2427.0985,N,08126.1402,W,1,9,1.5,18,M,,M,,*55
06/05/2014	12:04:38.478	$GPGGA,120439,2427.0951,N,08126.1436,W,1,9,1.5,18,M,,M,,*5A
06/05/2014	12:04:39.481	$GPGGA,120440,2427.0951,N,08126.1436,W,1,9,1.5,18,M,,M,,*54
06/05/2014	12:04:40.525	$GPGGA,120441,2427.0918,N,08126.1471,W,1,9,1.5,18,M,,M,,*5B
06/05/2014	12:04:41.588	$GPGGA,120442,2427.0901,N,08126.1489,W,1,9,1.5,18,M,,M,,*57
06/05/2014	12:04:42.471	$GPGGA,120443,2427.0885,N,08126.1507,W,1,9,1.5,18,M,,M,,*5C
06/05/2014	12:04:43.585	$GPGGA,120444,2427.0867,N,08126.1525,W,1,9,1.5,18,M,,M,,*57
06/05/2014	12:04:44.608	$GPGGA,120445,2427.0849,N,08126.1543,W,1,9,1.5,18,M,,M,,*5A
06/05/2014	12:04:45.581	$GPGGA,120446,2427.0831,N,08126.1562,W,1,9,1.5,18,M,,M,,*55
06/05/2014	12:04:46.585	$GPGGA,120447,2427.0813,N,08126.1580,W,1,9,1.5,18,M,,M,,*58
06/05/2014	12:04:47.608	$GPGGA,120448,2427.0796,N,08126.1598,W,1,9,1.5,18,M,,M,,*5C
06/05/2014	12:04:48.601	$GPGGA,120449,2427.0779,N,08126.1615,W,1,9,1.5,18,M,,M,,*5A
06/05/2014	12:04:49.575	$GPGGA,120450,2427.0762,N,08126.1633,W,1,9,1.5,18,M,,M,,*5C
06/05/2014	12:04:50.588	$GPGGA,120451,2427.0746,N,08126.1651,W,1,9,1.5,18,M,,M,,*5F
06/05/2014	12:04:51.601	$GPGGA,120452,2427.0730,N,08126.1666,W,1,9,1.6,18,M,,M,,*5A
06/05/2014	12:04:52.595	$GPGGA,120453,2427.0713,N,08126.1683,W,1,9,1.5,18,M,,M,,*52
06/05/2014	12:04:53.588	$GPGGA,120454,2427.0696,N,08126.1699,W,1,9,1.5,18,M,,M,,*52
06/05/2014	12:04:54.610	$GPGGA,120455,2427.0680,N,08126.1717,W,1,9,1.5,18,M,,M,,*53
06/05/2014	12:04:55.603	$GPGGA,120456,2427.0662,N,08126.1735,W,1,9,1.6,18,M,,M,,*5F
06/05/2014	12:04:56.617	$GPGGA,120457,2427.0644,N,08126.1753,W,1,8,1.6,18,M,,M,,*5B
06/05/2014	12:04:57.600	$GPGGA,120458,2427.0626,N,08126.1771,W,1,8,1.5,18,M,,M,,*53
06/05/2014	12:04:58.612	$GPGGA,120459,2427.0609,N,08126.1790,W,1,9,1.5,18,M,,M,,*51
06/05/2014	12:04:59.625	$GPGGA,120500,2427.0592,N,08126.1808,W,1,9,1.5,18,M,,M,,*53
06/05/2014	12:05:00.618	$GPGGA,120501,2427.0574,N,08126.1826,W,1,9,1.5,18,M,,M,,*56
06/05/2014	12:05:01.601	$GPGGA,120502,2427.0557,N,08126.1842,W,1,9,1.5,18,M,,M,,*56
06/05/2014	12:05:02.584	$GPGGA,120503,2427.0542,N,08126.1860,W,1,9,1.5,18,M,,M,,*53
06/05/2014	12:05:03.616	$GPGGA,120504,2427.0524,N,08126.1876,W,1,9,1.5,18,M,,M,,*53
06/05/2014	12:05:04.629	$GPGGA,120505,2427.0507,N,08126.1893,W,1,9,1.5,18,M,,M,,*58
06/05/2014	12:05:05.593	$GPGGA,120506,2427.0489,N,08126.1911,W,1,9,1.5,18,M,,M,,*57
06/05/2014	12:05:06.595	$GPGGA,120507,2427.0472,N,08126.1927,W,1,9,1.5,18,M,,M,,*57
06/05/2014	12:05:07.618	$GPGGA,120508,2427.0453,N,08126.1945,W,1,9,1.5,18,M,,M,,*5F
06/05/2014	12:05:08.600	$GPGGA,120509,2427.0436,N,08126.1963,W,1,9,1.5,18,M,,M,,*59
06/05/2014	12:05:09.593	$GPGGA,120510,2427.0419,N,08126.1980,W,1,9,1.5,18,M,,M,,*51
06/05/2014	12:05:10.618	$GPGGA,120511,2427.0401,N,08126.1998,W,1,9,1.5,18,M,,M,,*50
06/05/2014	12:05:11.609	$GPGGA,120512,2427.0383,N,08126.2013,W,1,9,1.5,18,M,,M,,*57
06/05/2014	12:05:12.629	$GPGGA,120513,2427.0367,N,08126.2030,W,1,9,1.5,18,M,,M,,*5D
06/05/2014	12:05:13.613	$GPGGA,120514,2427.0350,N,08126.2046,W,1,9,1.5,18,M,,M,,*5F
06/05/2014	12:05:14.596	$GPGGA,120515,2427.0333,N,08126.2063,W,1,9,1.5,18,M,,M,,*5C
06/05/2014	12:05:15.629	$GPGGA,120516,2427.0315,N,08126.2079,W,1,9,1.5,18,M,,M,,*50
06/05/2014	12:05:16.622	$GPGGA,120517,2427.0298,N,08126.2097,W,1,9,1.5,18,M,,M,,*55
06/05/2014	12:05:17.605	$GPGGA,120518,2427.0280,N,08126.2115,W,1,9,1.5,18,M,,M,,*58
06/05/2014	12:05:18.617	$GPGGA,120519,2427.0261,N,08126.2133,W,1,9,1.5,18,M,,M,,*52
06/05/2014	12:05:19.730	$GPGGA,120520,2427.0243,N,08126.2151,W,1,9,1.5,18,M,,M,,*5C
06/05/2014	12:05:20.603	$GPGGA,120521,2427.0226,N,08126.2168,W,1,9,1.5,18,M,,M,,*54
06/05/2014	12:05:21.616	$GPGGA,120522,2427.0210,N,08126.2184,W,1,9,1.5,18,M,,M,,*50
06/05/2014	12:05:22.699	$GPGGA,120523,2427.0192,N,08126.2200,W,1,9,1.5,18,M,,M,,*57
06/05/2014	12:05:23.712	$GPGGA,120524,2427.0175,N,08126.2216,W,1,9,1.5,18,M,,M,,*5E
06/05/2014	12:05:24.704	$GPGGA,120525,2427.0159,N,08126.2234,W,1,9,1.5,18,M,,M,,*51
06/05/2014	12:05:25.627	$GPGGA,120526,2427.0142,N,08126.2251,W,1,9,1.5,18,M,,M,,*5B
06/05/2014	12:05:26.610	$GPGGA,120527,2427.0123,N,08126.2269,W,1,9,1.5,18,M,,M,,*56
06/05/2014	12:05:27.743	$GPGGA,120528,2427.0105,N,08126.2287,W,1,9,1.5,18,M,,M,,*5D
06/05/2014	12:05:28.716	$GPGGA,120529,2427.0087,N,08126.2305,W,1,9,1.5,18,M,,M,,*5C
06/05/2014	12:05:29.617	$GPGGA,120530,2427.0069,N,08126.2321,W,1,9,1.5,18,M,,M,,*52
06/05/2014	12:05:30.620	$GPGGA,120531,2427.0049,N,08126.2338,W,1,9,1.5,18,M,,M,,*59
06/05/2014	12:05:31.633	$GPGGA,120532,2427.0033,N,08126.2355,W,1,9,1.5,18,M,,M,,*5C
06/05/2014	12:05:32.756	$GPGGA,120533,2427.0016,N,08126.2371,W,1,9,1.5,18,M,,M,,*5C
06/05/2014	12:05:33.708	$GPGGA,120534,2427.0000,N,08126.2388,W,1,9,1.5,18,M,,M,,*5A
06/05/2014	12:05:34.563	$GPGGA,120535,2426.9982,N,08126.2403,W,1,9,1.5,18,M,,M,,*54
06/05/2014	12:05:35.546	$GPGGA,120536,2426.9966,N,08126.2421,W,1,9,1.5,18,M,,M,,*5D
06/05/2014	12:05:36.559	$GPGGA,120537,2426.9949,N,08126.2439,W,1,9,1.5,18,M,,M,,*58
06/05/2014	12:05:37.541	$GPGGA,120538,2426.9930,N,08126.2456,W,1,9,1.5,18,M,,M,,*50
06/05/2014	12:05:38.544	$GPGGA,120539,2426.9913,N,08126.2472,W,1,9,1.5,18,M,,M,,*56
06/05/2014	12:05:39.557	$GPGGA,120540,2426.9895,N,08126.2491,W,1,9,1.5,18,M,,M,,*5A
06/05/2014	12:05:40.570	$GPGGA,120541,2426.9877,N,08126.2509,W,1,9,1.5,18,M,,M,,*57
06/05/2014	12:05:41.543	$GPGGA,120542,2426.9860,N,08126.2526,W,1,9,1.5,18,M,,M,,*5F
06/05/2014	12:05:42.565	$GPGGA,120543,2426.9843,N,08126.2544,W,1,9,1.5,18,M,,M,,*5B
06/05/2014	12:05:43.558	$GPGGA,120544,2426.9827,N,08126.2561,W,1,9,1.5,18,M,,M,,*59
06/05/2014	12:05:44.571	$GPGGA,120545,2426.9809,N,08126.2576,W,1,9,1.5,18,M,,M,,*52
06/05/2014	12:05:45.554	$GPGGA,120546,2426.9792,N,08126.2594,W,1,9,1.5,18,M,,M,,*50
06/05/2014	12:05:46.567	$GPGGA,120547,2426.9776,N,08126.2610,W,1,9,1.5,17,M,,M,,*5B
06/05/2014	12:05:47.558	$GPGGA,120548,2426.9758,N,08126.2628,W,1,9,1.5,17,M,,M,,*53
06/05/2014	12:05:48.561	$GPGGA,120549,2426.9741,N,08126.2646,W,1,9,1.5,17,M,,M,,*52
06/05/2014	12:05:49.554	$GPGGA,120550,2426.9724,N,08126.2664,W,1,9,1.5,17,M,,M,,*59
06/05/2014	12:05:50.577	$GPGGA,120551,2426.9706,N,08126.2681,W,1,9,1.5,17,M,,M,,*53
06/05/2014	12:05:51.550	$GPGGA,120552,2426.9689,N,08126.2699,W,1,9,1.5,17,M,,M,,*5F
06/05/2014	12:05:52.582	$GPGGA,120553,2426.9673,N,08126.2717,W,1,9,1.5,17,M,,M,,*5C
06/05/2014	12:05:53.545	$GPGGA,120554,2426.9657,N,08126.2735,W,1,9,1.5,17,M,,M,,*5D
06/05/2014	12:05:54.538	$GPGGA,120555,2426.9640,N,08126.2751,W,1,9,1.5,17,M,,M,,*58
06/05/2014	12:05:55.571	$GPGGA,120556,2426.9624,N,08126.2768,W,1,9,1.5,17,M,,M,,*53
06/05/2014	12:05:56.543	$GPGGA,120557,2426.9607,N,08126.2786,W,1,9,1.5,17,M,,M,,*53
06/05/2014	12:05:57.556	$GPGGA,120558,2426.9592,N,08126.2804,W,1,9,1.5,17,M,,M,,*56
06/05/2014	12:05:58.589	$GPGGA,120559,2426.9574,N,08126.2823,W,1,9,1.5,17,M,,M,,*5A
06/05/2014	12:05:59.562	$GPGGA,120600,2426.9556,N,08126.2841,W,1,9,1.5,17,M,,M,,*51
06/05/2014	12:06:00.665	$GPGGA,120601,2426.9539,N,08126.2861,W,1,9,1.5,17,M,,M,,*5B
06/05/2014	12:06:01.547	$GPGGA,120602,2426.9523,N,08126.2879,W,1,9,1.5,17,M,,M,,*5A
06/05/2014	12:06:02.671	$GPGGA,120603,2426.9505,N,08126.2895,W,1,9,1.5,17,M,,M,,*5D
06/05/2014	12:06:03.583	$GPGGA,120604,2426.9488,N,08126.2913,W,1,9,1.5,17,M,,M,,*51
06/05/2014	12:06:04.555	$GPGGA,120605,2426.9473,N,08126.2930,W,1,9,1.5,17,M,,M,,*55
06/05/2014	12:06:05.568	$GPGGA,120606,2426.9455,N,08126.2948,W,1,9,1.5,17,M,,M,,*5D
06/05/2014	12:06:06.701	$GPGGA,120607,2426.9438,N,08126.2964,W,1,9,1.5,16,M,,M,,*58
06/05/2014	12:06:07.573	$GPGGA,120608,2426.9422,N,08126.2982,W,1,9,1.5,16,M,,M,,*54
06/05/2014	12:06:08.576	$GPGGA,120609,2426.9404,N,08126.3000,W,1,9,1.5,16,M,,M,,*53
06/05/2014	12:06:09.660	$GPGGA,120610,2426.9386,N,08126.3018,W,1,9,1.5,16,M,,M,,*5F
06/05/2014	12:06:10.572	$GPGGA,120611,2426.9368,N,08126.3035,W,1,9,1.5,16,M,,M,,*51
06/05/2014	12:06:11.564	$GPGGA,120612,2426.9350,N,08126.3053,W,1,9,1.5,16,M,,M,,*59
06/05/2014	12:06:12.557	$GPGGA,120613,2426.9334,N,08126.3071,W,1,9,1.5,16,M,,M,,*5A
06/05/2014	12:06:13.560	$GPGGA,120614,2426.9317,N,08126.3086,W,1,9,1.5,16,M,,M,,*54
06/05/2014	12:06:14.663	$GPGGA,120615,2426.9299,N,08126.3103,W,1,9,1.5,16,M,,M,,*5E
06/05/2014	12:06:15.676	$GPGGA,120616,2426.9283,N,08126.3121,W,1,9,1.5,16,M,,M,,*56
06/05/2014	12:06:16.669	$GPGGA,120617,2426.9267,N,08126.3137,W,1,9,1.5,16,M,,M,,*5A
06/05/2014	12:06:17.571	$GPGGA,120618,2426.9249,N,08126.3154,W,1,9,1.5,16,M,,M,,*5C
06/05/2014	12:06:18.704	$GPGGA,120619,2426.9230,N,08126.3172,W,1,9,1.5,16,M,,M,,*57
06/05/2014	12:06:19.677	$GPGGA,120620,2426.9212,N,08126.3190,W,1,9,1.5,16,M,,M,,*51
06/05/2014	12:06:20.680	$GPGGA,120621,2426.9193,N,08126.3206,W,1,9,1.5,16,M,,M,,*56
06/05/2014	12:06:21.673	$GPGGA,120622,2426.9176,N,08126.3223,W,1,9,1.5,16,M,,M,,*59
06/05/2014	12:06:22.684	$GPGGA,120623,2426.9158,N,08126.3241,W,1,9,1.5,16,M,,M,,*50
06/05/2014	12:06:23.678	$GPGGA,120624,2426.9141,N,08126.3258,W,1,9,1.5,16,M,,M,,*57
06/05/2014	12:06:24.670	$GPGGA,120625,2426.9124,N,08126.3273,W,1,9,1.5,16,M,,M,,*5C
06/05/2014	12:06:25.673	$GPGGA,120626,2426.9108,N,08126.3289,W,1,9,1.5,16,M,,M,,*54
06/05/2014	12:06:26.696	$GPGGA,120627,2426.9090,N,08126.3306,W,1,9,1.5,16,M,,M,,*53
06/05/2014	12:06:27.678	$GPGGA,120628,2426.9072,N,08126.3322,W,1,9,1.5,16,M,,M,,*56
06/05/2014	12:06:28.681	$GPGGA,120629,2426.9053,N,08126.3340,W,1,9,1.5,16,M,,M,,*50
06/05/2014	12:06:29.665	$GPGGA,120630,2426.9034,N,08126.3357,W,1,9,1.5,16,M,,M,,*5F
06/05/2014	12:06:30.687	$GPGGA,120631,2426.9016,N,08126.3374,W,1,9,1.5,16,M,,M,,*5F
06/05/2014	12:06:31.700	$GPGGA,120632,2426.8998,N,08126.3392,W,1,9,1.5,16,M,,M,,*5A
06/05/2014	12:06:32.662	$GPGGA,120633,2426.8980,N,08126.3408,W,1,9,1.5,16,M,,M,,*56
06/05/2014	12:06:33.675	$GPGGA,120634,2426.8963,N,08126.3425,W,1,9,1.5,16,M,,M,,*53
06/05/2014	12:06:34.532	$GPGGA,120635,2426.8945,N,08126.3441,W,1,9,1.5,16,M,,M,,*54
06/05/2014	12:06:35.525	$GPGGA,120636,2426.8928,N,08126.3458,W,1,9,1.5,16,M,,M,,*54
06/05/2014	12:06:36.514	$GPGGA,120637,2426.8911,N,08126.3475,W,1,9,1.5,16,M,,M,,*50
06/05/2014	12:06:37.520	$GPGGA,120638,2426.8895,N,08126.3491,W,1,9,1.5,16,M,,M,,*58
06/05/2014	12:06:38.553	$GPGGA,120639,2426.8876,N,08126.3508,W,1,9,1.5,16,M,,M,,*55
06/05/2014	12:06:39.525	$GPGGA,120640,2426.8858,N,08126.3526,W,1,9,1.5,16,M,,M,,*5B
06/05/2014	12:06:40.508	$GPGGA,120641,2426.8841,N,08126.3544,W,1,9,1.5,16,M,,M,,*56
06/05/2014	12:06:41.531	$GPGGA,120642,2426.8823,N,08126.3562,W,1,9,1.5,16,M,,M,,*55
06/05/2014	12:06:42.543	$GPGGA,120643,2426.8805,N,08126.3580,W,1,9,1.5,16,M,,M,,*5C
06/05/2014	12:06:43.531	$GPGGA,120644,2426.8788,N,08126.3598,W,1,9,1.5,16,M,,M,,*58
06/05/2014	12:06:44.519	$GPGGA,120645,2426.8770,N,08126.3614,W,1,9,1.5,16,M,,M,,*59
06/05/2014	12:06:45.532	$GPGGA,120646,2426.8754,N,08126.3631,W,1,9,1.5,16,M,,M,,*5B
06/05/2014	12:06:46.565	$GPGGA,120647,2426.8737,N,08126.3649,W,1,9,1.5,16,M,,M,,*50
06/05/2014	12:06:47.527	$GPGGA,120648,2426.8721,N,08126.3664,W,1,9,1.6,16,M,,M,,*54
06/05/2014	12:06:48.530	$GPGGA,120649,2426.8703,N,08126.3681,W,1,9,1.5,16,M,,M,,*5D
06/05/2014	12:06:49.523	$GPGGA,120650,2426.8686,N,08126.3697,W,1,9,1.5,16,M,,M,,*5E
06/05/2014	12:06:50.516	$GPGGA,120651,2426.8669,N,08126.3714,W,1,9,1.5,16,M,,M,,*54
06/05/2014	12:06:51.669	$GPGGA,120652,2426.8650,N,08126.3732,W,1,9,1.5,16,M,,M,,*59
06/05/2014	12:06:52.622	$GPGGA,120653,2426.8633,N,08126.3748,W,1,9,1.5,16,M,,M,,*50
06/05/2014	12:06:53.524	$GPGGA,120654,2426.8615,N,08126.3768,W,1,9,1.5,16,M,,M,,*51
06/05/2014	12:06:54.537	$GPGGA,120655,2426.8597,N,08126.3784,W,1,9,1.5,16,M,,M,,*5B
06/05/2014	12:06:55.540	$GPGGA,120656,2426.8580,N,08126.3801,W,1,9,1.5,16,M,,M,,*5C
06/05/2014	12:06:56.522	$GPGGA,120657,2426.8564,N,08126.3819,W,1,9,1.5,16,M,,M,,*5E
06/05/2014	12:06:57.614	$GPGGA,120658,2426.8548,N,08126.3835,W,1,9,1.5,16,M,,M,,*51
06/05/2014	12:06:58.517	$GPGGA,120659,2426.8531,N,08126.3853,W,1,9,1.5,16,M,,M,,*5E
06/05/2014	12:06:59.540	$GPGGA,120700,2426.8514,N,08126.3870,W,1,9,1.5,16,M,,M,,*55
06/05/2014	12:07:00.533	$GPGGA,120701,2426.8497,N,08126.3887,W,1,8,1.6,16,M,,M,,*54
06/05/2014	12:07:01.626	$GPGGA,120702,2426.8480,N,08126.3905,W,1,8,1.5,16,M,,M,,*59
06/05/2014	12:07:02.669	$GPGGA,120703,2426.8462,N,08126.3923,W,1,9,1.5,16,M,,M,,*51
06/05/2014	12:07:03.641	$GPGGA,120704,2426.8445,N,08126.3941,W,1,9,1.5,16,M,,M,,*57
06/05/2014	12:07:04.654	$GPGGA,120705,2426.8428,N,08126.3957,W,1,9,1.5,16,M,,M,,*5A
06/05/2014	12:07:05.627	$GPGGA,120706,2426.8411,N,08126.3975,W,1,9,1.5,16,M,,M,,*53
06/05/2014	12:07:06.680	$GPGGA,120707,2426.8394,N,08126.3992,W,1,9,1.5,16,M,,M,,*51
06/05/2014	12:07:08.666	$GPGGA,120708,2426.8378,N,08126.4010,W,1,9,1.5,16,M,,M,,*58
06/05/2014	12:07:08.685	$GPGGA,120709,2426.8361,N,08126.4026,W,1,9,1.5,16,M,,M,,*54
06/05/2014	12:07:09.648	$GPGGA,120710,2426.8344,N,08126.4043,W,1,9,1.5,16,M,,M,,*58
06/05/2014	12:07:10.651	$GPGGA,120711,2426.8328,N,08126.4059,W,1,9,1.5,16,M,,M,,*58
06/05/2014	12:07:11.654	$GPGGA,120712,2426.8313,N,08126.4077,W,1,9,1.5,16,M,,M,,*5F
06/05/2014	12:07:14.070	$GPGGA,120713,2426.8295,N,08126.4094,W,1,9,1.5,16,M,,M,,*5C
06/05/2014	12:07:14.090	$GPGGA,120714,2426.8279,N,08126.4111,W,1,9,1.6,16,M,,M,,*56
06/05/2014	12:07:14.651	$GPGGA,120715,2426.8261,N,08126.4129,W,1,9,1.5,16,M,,M,,*56
06/05/2014	12:07:15.654	$GPGGA,120716,2426.8244,N,08126.4147,W,1,9,1.5,16,M,,M,,*5A
06/05/2014	12:07:16.667	$GPGGA,120717,2426.8226,N,08126.4165,W,1,9,1.5,16,M,,M,,*5F
06/05/2014	12:07:17.629	$GPGGA,120718,2426.8209,N,08126.4183,W,1,9,1.5,16,M,,M,,*55
06/05/2014	12:07:18.632	$GPGGA,120719,2426.8192,N,08126.4199,W,1,9,1.5,16,M,,M,,*5E
06/05/2014	12:07:19.655	$GPGGA,120720,2426.8176,N,08126.4217,W,1,9,1.5,16,M,,M,,*5B
06/05/2014	12:07:20.658	$GPGGA,120721,2426.8159,N,08126.4234,W,1,9,1.5,16,M,,M,,*56
06/05/2014	12:07:21.641	$GPGGA,120722,2426.8143,N,08126.4252,W,1,9,1.5,16,M,,M,,*5E
06/05/2014	12:07:22.653	$GPGGA,120723,2426.8125,N,08126.4267,W,1,9,1.5,16,M,,M,,*59
06/05/2014	12:07:23.646	$GPGGA,120724,2426.8108,N,08126.4285,W,1,9,1.5,16,M,,M,,*5D
06/05/2014	12:07:24.645	$GPGGA,120725,2426.8090,N,08126.4303,W,1,9,1.5,16,M,,M,,*53
06/05/2014	12:07:25.642	$GPGGA,120726,2426.8072,N,08126.4321,W,1,9,1.5,16,M,,M,,*5C
06/05/2014	12:07:26.675	$GPGGA,120727,2426.8053,N,08126.4337,W,1,9,1.5,16,M,,M,,*59
06/05/2014	12:07:27.647	$GPGGA,120728,2426.8035,N,08126.4354,W,1,9,1.5,16,M,,M,,*53
06/05/2014	12:07:28.680	$GPGGA,120729,2426.8018,N,08126.4372,W,1,9,1.5,16,M,,M,,*59
06/05/2014	12:07:29.643	$GPGGA,120730,2426.8001,N,08126.4387,W,1,9,1.5,16,M,,M,,*53
06/05/2014	12:07:30.656	$GPGGA,120731,2426.7984,N,08126.4404,W,1,9,1.5,16,M,,M,,*55
06/05/2014	12:07:31.669	$GPGGA,120732,2426.7967,N,08126.4419,W,1,9,1.5,16,M,,M,,*57
06/05/2014	12:07:32.640	$GPGGA,120733,2426.7950,N,08126.4436,W,1,9,1.5,16,M,,M,,*5F
06/05/2014	12:07:33.653	$GPGGA,120734,2426.7932,N,08126.4451,W,1,9,1.5,16,M,,M,,*5D
06/05/2014	12:07:34.509	$GPGGA,120735,2426.7914,N,08126.4469,W,1,9,1.5,16,M,,M,,*53
06/05/2014	12:07:35.504	$GPGGA,120736,2426.7896,N,08126.4485,W,1,9,1.5,16,M,,M,,*59
06/05/2014	12:07:36.615	$GPGGA,120737,2426.7879,N,08126.4502,W,1,9,1.5,16,M,,M,,*57
06/05/2014	12:07:37.477	$GPGGA,120738,2426.7861,N,08126.4520,W,1,9,1.5,16,M,,M,,*51
06/05/2014	12:07:38.490	$GPGGA,120739,2426.7842,N,08126.4537,W,1,9,1.5,16,M,,M,,*57
06/05/2014	12:07:39.613	$GPGGA,120740,2426.7825,N,08126.4553,W,1,9,1.5,16,M,,M,,*5A
06/05/2014	12:07:40.606	$GPGGA,120741,2426.7808,N,08126.4570,W,1,9,1.5,16,M,,M,,*55
06/05/2014	12:07:41.488	$GPGGA,120742,2426.7791,N,08126.4586,W,1,9,1.5,16,M,,M,,*50
06/05/2014	12:07:42.491	$GPGGA,120743,2426.7775,N,08126.4603,W,1,9,1.5,16,M,,M,,*55
06/05/2014	12:07:43.514	$GPGGA,120744,2426.7758,N,08126.4617,W,1,9,1.6,16,M,,M,,*5B
06/05/2014	12:07:44.507	$GPGGA,120745,2426.7742,N,08126.4635,W,1,9,1.5,16,M,,M,,*52
06/05/2014	12:07:45.480	$GPGGA,120746,2426.7725,N,08126.4653,W,1,9,1.5,16,M,,M,,*50
06/05/2014	12:07:46.502	$GPGGA,120747,2426.7708,N,08126.4669,W,1,9,1.5,16,M,,M,,*57
06/05/2014	12:07:47.617	$GPGGA,120748,2426.7690,N,08126.4686,W,1,9,1.6,16,M,,M,,*5A
06/05/2014	12:07:48.508	$GPGGA,120749,2426.7672,N,08126.4704,W,1,8,1.6,16,M,,M,,*5D
06/05/2014	12:07:49.490	$GPGGA,120750,2426.7655,N,08126.4722,W,1,8,1.5,16,M,,M,,*57
06/05/2014	12:07:50.603	$GPGGA,120751,2426.7638,N,08126.4738,W,1,9,1.5,16,M,,M,,*57
06/05/2014	12:07:51.646	$GPGGA,120752,2426.7623,N,08126.4754,W,1,9,1.6,16,M,,M,,*57
06/05/2014	12:07:52.619	$GPGGA,120753,2426.7605,N,08126.4772,W,1,8,1.5,16,M,,M,,*54
06/05/2014	12:07:53.591	$GPGGA,120754,2426.7589,N,08126.4787,W,1,8,1.5,16,M,,M,,*5E
06/05/2014	12:07:54.604	$GPGGA,120755,2426.7572,N,08126.4803,W,1,9,1.5,16,M,,M,,*59
06/05/2014	12:07:55.607	$GPGGA,120756,2426.7554,N,08126.4820,W,1,9,1.5,16,M,,M,,*5F
06/05/2014	12:07:56.630	$GPGGA,120757,2426.7537,N,08126.4838,W,1,9,1.5,16,M,,M,,*52
06/05/2014	12:07:57.592	$GPGGA,120758,2426.7520,N,08126.4856,W,1,9,1.6,16,M,,M,,*50
06/05/2014	12:07:58.605	$GPGGA,120759,2426.7502,N,08126.4873,W,1,8,1.5,16,M,,M,,*54
06/05/2014	12:07:59.648	$GPGGA,120800,2426.7486,N,08126.4892,W,1,8,1.6,16,M,,M,,*56
06/05/2014	12:08:00.591	$GPGGA,120801,2426.7469,N,08126.4910,W,1,8,1.6,16,M,,M,,*5D
06/05/2014	12:08:01.604	$GPGGA,120802,2426.7453,N,08126.4928,W,1,8,1.8,16,M,,M,,*52
06/05/2014	12:08:02.617	$GPGGA,120803,2426.7435,N,08126.4946,W,1,7,1.6,16,M,,M,,*5A
06/05/2014	12:08:03.619	$GPGGA,120804,2426.7418,N,08126.4964,W,1,7,1.6,16,M,,M,,*52
06/05/2014	12:08:04.622	$GPGGA,120805,2426.7402,N,08126.4982,W,1,8,1.8,16,M,,M,,*51
06/05/2014	12:08:05.595	$GPGGA,120806,2426.7385,N,08126.5000,W,1,8,1.8,15,M,,M,,*5B
06/05/2014	12:08:06.628	$GPGGA,120807,2426.7368,N,08126.5016,W,1,7,1.8,15,M,,M,,*51
06/05/2014	12:08:07.619	$GPGGA,120808,2426.7352,N,08126.5034,W,1,7,1.8,15,M,,M,,*57
06/05/2014	12:08:08.592	$GPGGA,120809,2426.7334,N,08126.5051,W,1,7,1.8,15,M,,M,,*55
06/05/2014	12:08:09.605	$GPGGA,120810,2426.7317,N,08126.5070,W,1,7,1.6,15,M,,M,,*51
06/05/2014	12:08:10.648	$GPGGA,120811,2426.7301,N,08126.5087,W,1,8,1.6,15,M,,M,,*50
06/05/2014	12:08:11.671	$GPGGA,120812,2426.7285,N,08126.5105,W,1,8,1.6,15,M,,M,,*55
06/05/2014	12:08:12.633	$GPGGA,120813,2426.7269,N,08126.5121,W,1,8,1.6,15,M,,M,,*50
06/05/2014	12:08:13.626	$GPGGA,120814,2426.7252,N,08126.5138,W,1,8,1.6,15,M,,M,,*57
06/05/2014	12:08:14.619	$GPGGA,120815,2426.7236,N,08126.5155,W,1,8,1.6,15,M,,M,,*5F
06/05/2014	12:08:15.622	$GPGGA,120816,2426.7220,N,08126.5173,W,1,8,1.6,15,M,,M,,*5F
06/05/2014	12:08:16.635	$GPGGA,120817,2426.7204,N,08126.5191,W,1,8,1.6,15,M,,M,,*54
06/05/2014	12:08:17.618	$GPGGA,120818,2426.7186,N,08126.5209,W,1,8,1.5,15,M,,M,,*53
06/05/2014	12:08:18.640	$GPGGA,120819,2426.7168,N,08126.5224,W,1,9,1.5,15,M,,M,,*5C
06/05/2014	12:08:19.643	$GPGGA,120820,2426.7151,N,08126.5240,W,1,9,1.7,15,M,,M,,*5C
06/05/2014	12:08:20.627	$GPGGA,120821,2426.7133,N,08126.5260,W,1,8,1.6,15,M,,M,,*5B
06/05/2014	12:08:21.639	$GPGGA,120822,2426.7117,N,08126.5278,W,1,8,2.2,15,M,,M,,*50
06/05/2014	12:08:22.632	$GPGGA,120823,2426.7099,N,08126.5293,W,1,7,1.6,15,M,,M,,*5B
06/05/2014	12:08:23.744	$GPGGA,120824,2426.7082,N,08126.5309,W,1,7,1.5,15,M,,M,,*57
06/05/2014	12:08:24.637	$GPGGA,120825,2426.7064,N,08126.5326,W,1,9,1.6,15,M,,M,,*5E
06/05/2014	12:08:25.619	$GPGGA,120826,2426.7047,N,08126.5343,W,1,9,1.6,15,M,,M,,*5F
06/05/2014	12:08:26.611	$GPGGA,120827,2426.7028,N,08126.5358,W,1,8,1.6,15,M,,M,,*5C
06/05/2014	12:08:27.745	$GPGGA,120828,2426.7010,N,08126.5373,W,1,8,1.6,15,M,,M,,*51
06/05/2014	12:08:28.737	$GPGGA,120829,2426.6992,N,08126.5391,W,1,8,1.5,16,M,,M,,*5E
06/05/2014	12:08:29.730	$GPGGA,120830,2426.6974,N,08126.5408,W,1,8,1.5,16,M,,M,,*59
06/05/2014	12:08:30.713	$GPGGA,120831,2426.6955,N,08126.5426,W,1,9,1.5,16,M,,M,,*56
06/05/2014	12:08:31.666	$GPGGA,120832,2426.6937,N,08126.5444,W,1,9,1.5,16,M,,M,,*55
06/05/2014	12:08:32.739	$GPGGA,120833,2426.6919,N,08126.5459,W,1,9,1.5,16,M,,M,,*54
06/05/2014	12:08:33.711	$GPGGA,120834,2426.6901,N,08126.5475,W,1,9,1.5,16,M,,M,,*54
06/05/2014	12:08:34.467	$GPGGA,120835,2426.6884,N,08126.5491,W,1,9,1.5,16,M,,M,,*53
06/05/2014	12:08:35.570	$GPGGA,120836,2426.6868,N,08126.5509,W,1,9,1.5,16,M,,M,,*52
06/05/2014	12:08:36.633	$GPGGA,120837,2426.6850,N,08126.5525,W,1,9,1.5,17,M,,M,,*57
06/05/2014	12:08:37.555	$GPGGA,120838,2426.6832,N,08126.5542,W,1,9,1.5,17,M,,M,,*5D
06/05/2014	12:08:38.548	$GPGGA,120839,2426.6814,N,08126.5558,W,1,9,1.5,17,M,,M,,*53
06/05/2014	12:08:39.571	$GPGGA,120840,2426.6794,N,08126.5576,W,1,9,1.5,17,M,,M,,*56
06/05/2014	12:08:40.584	$GPGGA,120841,2426.6776,N,08126.5593,W,1,9,1.5,17,M,,M,,*50
06/05/2014	12:08:41.557	$GPGGA,120842,2426.6758,N,08126.5611,W,1,9,1.5,17,M,,M,,*56
06/05/2014	12:08:42.568	$GPGGA,120843,2426.6740,N,08126.5628,W,1,9,1.5,17,M,,M,,*54
06/05/2014	12:08:43.571	$GPGGA,120844,2426.6723,N,08126.5643,W,1,9,1.5,17,M,,M,,*5B
06/05/2014	12:08:44.554	$GPGGA,120845,2426.6705,N,08126.5661,W,1,9,1.5,17,M,,M,,*5E
06/05/2014	12:08:45.557	$GPGGA,120846,2426.6688,N,08126.5676,W,1,9,1.5,17,M,,M,,*5F
06/05/2014	12:08:46.580	$GPGGA,120847,2426.6671,N,08126.5694,W,1,9,1.6,18,M,,M,,*58
06/05/2014	12:08:47.572	$GPGGA,120848,2426.6655,N,08126.5708,W,1,9,1.6,18,M,,M,,*55
06/05/2014	12:08:48.575	$GPGGA,120849,2426.6637,N,08126.5726,W,1,9,1.5,18,M,,M,,*5F
06/05/2014	12:08:49.578	$GPGGA,120850,2426.6618,N,08126.5742,W,1,9,1.5,18,M,,M,,*58
06/05/2014	12:08:50.571	$GPGGA,120851,2426.6600,N,08126.5759,W,1,9,1.5,18,M,,M,,*5A
06/05/2014	12:08:51.594	$GPGGA,120852,2426.6581,N,08126.5774,W,1,9,1.5,18,M,,M,,*5C
06/05/2014	12:08:52.576	$GPGGA,120853,2426.6564,N,08126.5791,W,1,9,1.5,18,M,,M,,*5D
06/05/2014	12:08:53.559	$GPGGA,120854,2426.6547,N,08126.5807,W,1,9,1.6,18,M,,M,,*58
06/05/2014	12:08:54.572	$GPGGA,120855,2426.6529,N,08126.5824,W,1,8,1.6,18,M,,M,,*51
06/05/2014	12:08:55.585	$GPGGA,120856,2426.6512,N,08126.5838,W,1,8,1.6,18,M,,M,,*57
06/05/2014	12:08:56.598	$GPGGA,120857,2426.6496,N,08126.5854,W,1,8,1.7,18,M,,M,,*50
06/05/2014	12:08:57.570	$GPGGA,120858,2426.6478,N,08126.5872,W,1,8,1.8,18,M,,M,,*54
06/05/2014	12:08:58.593	$GPGGA,120859,2426.6461,N,08126.5889,W,1,8,1.6,18,M,,M,,*57
06/05/2014	12:08:59.605	$GPGGA,120900,2426.6445,N,08126.5907,W,1,8,1.8,18,M,,M,,*55
06/05/2014	12:09:00.558	$GPGGA,120901,2426.6427,N,08126.5923,W,1,7,1.8,18,M,,M,,*59
06/05/2014	12:09:01.581	$GPGGA,120902,2426.6409,N,08126.5943,W,1,7,1.5,18,M,,M,,*5D
06/05/2014	12:09:02.583	$GPGGA,120903,2426.6392,N,08126.5959,W,1,9,1.5,18,M,,M,,*5C
06/05/2014	12:09:03.577	$GPGGA,120904,2426.6375,N,08126.5976,W,1,9,1.8,18,M,,M,,*52
06/05/2014	12:09:04.609	$GPGGA,120905,2426.6359,N,08126.5993,W,1,7,1.8,18,M,,M,,*58
06/05/2014	12:09:05.573	$GPGGA,120906,2426.6342,N,08126.6009,W,1,7,1.8,18,M,,M,,*58
06/05/2014	12:09:06.625	$GPGGA,120907,2426.6326,N,08126.6026,W,1,7,1.8,18,M,,M,,*56
06/05/2014	12:09:07.577	$GPGGA,120908,2426.6308,N,08126.6046,W,1,7,1.8,18,M,,M,,*53
06/05/2014	12:09:08.570	$GPGGA,120909,2426.6290,N,08126.6062,W,1,8,1.6,18,M,,M,,*55
06/05/2014	12:09:09.583	$GPGGA,120910,2426.6274,N,08126.6080,W,1,8,1.6,18,M,,M,,*5B
06/05/2014	12:09:10.587	$GPGGA,120911,2426.6257,N,08126.6098,W,1,8,1.6,18,M,,M,,*52
06/05/2014	12:09:11.609	$GPGGA,120912,2426.6240,N,08126.6114,W,1,8,1.6,18,M,,M,,*52
06/05/2014	12:09:12.581	$GPGGA,120913,2426.6225,N,08126.6131,W,1,7,1.8,18,M,,M,,*56
06/05/2014	12:09:13.694	$GPGGA,120914,2426.6207,N,08126.6147,W,1,7,1.8,18,M,,M,,*50
06/05/2014	12:09:14.697	$GPGGA,120915,2426.6191,N,08126.6164,W,1,7,1.8,18,M,,M,,*5C
06/05/2014	12:09:15.600	$GPGGA,120916,2426.6174,N,08126.6182,W,1,7,1.8,18,M,,M,,*5C
06/05/2014	12:09:16.713	$GPGGA,120917,2426.6157,N,08126.6200,W,1,7,1.8,18,M,,M,,*55
06/05/2014	12:09:17.584	$GPGGA,120918,2426.6140,N,08126.6217,W,1,7,1.8,18,M,,M,,*5A
06/05/2014	12:09:18.707	$GPGGA,120919,2426.6124,N,08126.6236,W,1,7,1.8,18,M,,M,,*5A
06/05/2014	12:09:19.600	$GPGGA,120920,2426.6107,N,08126.6251,W,1,7,1.8,18,M,,M,,*50
06/05/2014	12:09:20.583	$GPGGA,120921,2426.6091,N,08126.6268,W,1,8,1.6,18,M,,M,,*54
06/05/2014	12:09:21.676	$GPGGA,120922,2426.6074,N,08126.6286,W,1,8,1.6,18,M,,M,,*5C
06/05/2014	12:09:22.578	$GPGGA,120923,2426.6059,N,08126.6300,W,1,7,1.8,18,M,,M,,*5C
06/05/2014	12:09:23.711	$GPGGA,120924,2426.6044,N,08126.6316,W,1,7,1.6,18,M,,M,,*5E
06/05/2014	12:09:24.604	$GPGGA,120925,2426.6026,N,08126.6333,W,1,7,1.8,18,M,,M,,*52
06/05/2014	12:09:25.677	$GPGGA,120926,2426.6008,N,08126.6351,W,1,7,1.8,18,M,,M,,*59
06/05/2014	12:09:26.710	$GPGGA,120927,2426.5992,N,08126.6367,W,1,7,1.8,18,M,,M,,*54
06/05/2014	12:09:27.713	$GPGGA,120928,2426.5975,N,08126.6385,W,1,7,1.6,18,M,,M,,*50
06/05/2014	12:09:28.725	$GPGGA,120929,2426.5958,N,08126.6405,W,1,7,1.8,18,M,,M,,*5F
06/05/2014	12:09:29.688	$GPGGA,120930,2426.5940,N,08126.6423,W,1,7,1.6,18,M,,M,,*54
06/05/2014	12:09:30.681	$GPGGA,120931,2426.5922,N,08126.6441,W,1,8,1.6,18,M,,M,,*5A
06/05/2014	12:09:31.714	$GPGGA,120932,2426.5905,N,08126.6459,W,1,8,1.6,17,M,,M,,*5A
06/05/2014	12:09:32.706	$GPGGA,120933,2426.5889,N,08126.6475,W,1,8,1.6,17,M,,M,,*50
06/05/2014	12:09:33.699	$GPGGA,120934,2426.5872,N,08126.6493,W,1,8,1.6,17,M,,M,,*5B
06/05/2014	12:09:34.525	$GPGGA,120935,2426.5854,N,08126.6510,W,1,8,1.6,17,M,,M,,*54
06/05/2014	12:09:35.538	$GPGGA,120936,2426.5837,N,08126.6528,W,1,8,1.6,17,M,,M,,*59
06/05/2014	12:09:36.551	$GPGGA,120937,2426.5818,N,08126.6546,W,1,8,1.6,17,M,,M,,*5D
06/05/2014	12:09:37.533	$GPGGA,120938,2426.5800,N,08126.6565,W,1,8,1.6,17,M,,M,,*5A
06/05/2014	12:09:38.546	$GPGGA,120939,2426.5782,N,08126.6584,W,1,8,1.6,17,M,,M,,*51
06/05/2014	12:09:39.539	$GPGGA,120940,2426.5762,N,08126.6600,W,1,8,1.6,17,M,,M,,*5E
06/05/2014	12:09:40.552	$GPGGA,120941,2426.5743,N,08126.6615,W,1,9,1.5,17,M,,M,,*5A
06/05/2014	12:09:41.535	$GPGGA,120942,2426.5726,N,08126.6631,W,1,9,1.5,17,M,,M,,*5C
06/05/2014	12:09:42.557	$GPGGA,120943,2426.5708,N,08126.6647,W,1,9,1.5,17,M,,M,,*50
06/05/2014	12:09:43.550	$GPGGA,120944,2426.5691,N,08126.6663,W,1,9,1.5,17,M,,M,,*50
06/05/2014	12:09:44.553	$GPGGA,120945,2426.5674,N,08126.6680,W,1,8,1.6,17,M,,M,,*55
06/05/2014	12:09:45.536	$GPGGA,120946,2426.5656,N,08126.6696,W,1,8,1.6,17,M,,M,,*51
06/05/2014	12:09:46.529	$GPGGA,120947,2426.5638,N,08126.6713,W,1,8,1.6,17,M,,M,,*54
06/05/2014	12:09:47.551	$GPGGA,120948,2426.5620,N,08126.6731,W,1,8,1.6,17,M,,M,,*52
06/05/2014	12:09:48.564	$GPGGA,120949,2426.5602,N,08126.6749,W,1,8,1.6,17,M,,M,,*5C
06/05/2014	12:09:49.547	$GPGGA,120950,2426.5584,N,08126.6764,W,1,8,1.6,17,M,,M,,*56
06/05/2014	12:09:50.560	$GPGGA,120951,2426.5567,N,08126.6781,W,1,8,1.6,17,M,,M,,*51
06/05/2014	12:09:51.563	$GPGGA,120952,2426.5550,N,08126.6799,W,1,8,1.6,17,M,,M,,*5F
06/05/2014	12:09:52.534	$GPGGA,120953,2426.5532,N,08126.6814,W,1,8,1.6,17,M,,M,,*50
06/05/2014	12:09:53.527	$GPGGA,120954,2426.5515,N,08126.6831,W,1,8,1.6,17,M,,M,,*55
06/05/2014	12:09:54.550	$GPGGA,120955,2426.5499,N,08126.6846,W,1,8,1.6,17,M,,M,,*51
06/05/2014	12:09:55.553	$GPGGA,120956,2426.5480,N,08126.6864,W,1,8,1.6,17,M,,M,,*5A
06/05/2014	12:09:56.545	$GPGGA,120957,2426.5462,N,08126.6879,W,1,8,1.6,17,M,,M,,*5B
06/05/2014	12:09:57.658	$GPGGA,120958,2426.5444,N,08126.6897,W,1,8,1.6,17,M,,M,,*50
06/05/2014	12:09:58.551	$GPGGA,120959,2426.5426,N,08126.6915,W,1,8,1.6,17,M,,M,,*5E
06/05/2014	12:09:59.573	$GPGGA,121000,2426.5408,N,08126.6931,W,1,8,1.6,17,M,,M,,*50
06/05/2014	12:10:00.536	$GPGGA,121001,2426.5389,N,08126.6948,W,1,8,1.6,17,M,,M,,*51
06/05/2014	12:10:01.559	$GPGGA,121002,2426.5372,N,08126.6966,W,1,8,1.6,17,M,,M,,*5A
06/05/2014	12:10:02.561	$GPGGA,121003,2426.5355,N,08126.6983,W,1,8,1.6,17,M,,M,,*55
06/05/2014	12:10:03.554	$GPGGA,121004,2426.5337,N,08126.6998,W,1,8,1.6,17,M,,M,,*5C
06/05/2014	12:10:04.637	$GPGGA,121005,2426.5322,N,08126.7016,W,1,8,1.6,17,M,,M,,*57
06/05/2014	12:10:05.549	$GPGGA,121006,2426.5305,N,08126.7030,W,1,8,1.8,17,M,,M,,*5B
06/05/2014	12:10:06.572	$GPGGA,121007,2426.5289,N,08126.7045,W,1,8,1.6,17,M,,M,,*53
06/05/2014	12:10:07.564	$GPGGA,121008,2426.5271,N,08126.7063,W,1,8,1.8,17,M,,M,,*51
06/05/2014	12:10:08.557	$GPGGA,121009,2426.5253,N,08126.7081,W,1,8,1.6,17,M,,M,,*52
06/05/2014	12:10:09.640	$GPGGA,121010,2426.5235,N,08126.7097,W,1,8,1.6,17,M,,M,,*5D
06/05/2014	12:10:10.661	$GPGGA,121011,2426.5217,N,08126.7114,W,1,8,1.6,17,M,,M,,*56
06/05/2014	12:10:11.695	$GPGGA,121012,2426.5199,N,08126.7132,W,1,8,1.6,17,M,,M,,*54
06/05/2014	12:10:12.646	$GPGGA,121013,2426.5182,N,08126.7147,W,1,8,1.6,17,M,,M,,*5D
06/05/2014	12:10:13.649	$GPGGA,121014,2426.5165,N,08126.7162,W,1,8,1.6,17,M,,M,,*54
06/05/2014	12:10:14.652	$GPGGA,121015,2426.5150,N,08126.7178,W,1,8,1.6,17,M,,M,,*58
06/05/2014	12:10:15.665	$GPGGA,121016,2426.5135,N,08126.7191,W,1,8,1.8,17,M,,M,,*51
06/05/2014	12:10:16.677	$GPGGA,121017,2426.5119,N,08126.7207,W,1,8,1.6,17,M,,M,,*5C
06/05/2014	12:10:17.649	$GPGGA,121018,2426.5102,N,08126.7222,W,1,8,1.6,17,M,,M,,*5E
06/05/2014	12:10:18.642	$GPGGA,121019,2426.5085,N,08126.7240,W,1,8,1.6,17,M,,M,,*55
06/05/2014	12:10:19.654	$GPGGA,121020,2426.5069,N,08126.7258,W,1,8,1.8,16,M,,M,,*5B
06/05/2014	12:10:20.667	$GPGGA,121021,2426.5049,N,08126.7276,W,1,7,1.8,16,M,,M,,*5B
06/05/2014	12:10:21.650	$GPGGA,121022,2426.5033,N,08126.7292,W,1,7,1.6,16,M,,M,,*51
06/05/2014	12:10:22.652	$GPGGA,121023,2426.5015,N,08126.7309,W,1,8,1.6,16,M,,M,,*58
06/05/2014	12:10:23.665	$GPGGA,121024,2426.4998,N,08126.7327,W,1,8,1.6,16,M,,M,,*5E
06/05/2014	12:10:24.667	$GPGGA,121025,2426.4982,N,08126.7342,W,1,8,1.6,16,M,,M,,*57
06/05/2014	12:10:25.650	$GPGGA,121026,2426.4964,N,08126.7359,W,1,8,1.6,16,M,,M,,*56
06/05/2014	12:10:26.683	$GPGGA,121027,2426.4948,N,08126.7375,W,1,9,1.5,16,M,,M,,*55
06/05/2014	12:10:27.664	$GPGGA,121028,2426.4931,N,08126.7392,W,1,9,1.5,16,M,,M,,*5D
06/05/2014	12:10:28.677	$GPGGA,121029,2426.4913,N,08126.7410,W,1,9,1.5,16,M,,M,,*51
06/05/2014	12:10:29.649	$GPGGA,121030,2426.4895,N,08126.7426,W,1,9,1.5,16,M,,M,,*53
06/05/2014	12:10:30.682	$GPGGA,121031,2426.4878,N,08126.7443,W,1,9,1.5,16,M,,M,,*52
06/05/2014	12:10:31.675	$GPGGA,121032,2426.4860,N,08126.7460,W,1,9,1.5,16,M,,M,,*59
06/05/2014	12:10:32.667	$GPGGA,121033,2426.4843,N,08126.7478,W,1,9,1.5,16,M,,M,,*50
06/05/2014	12:10:33.660	$GPGGA,121034,2426.4827,N,08126.7496,W,1,9,1.5,16,M,,M,,*55
06/05/2014	12:10:34.523	$GPGGA,121035,2426.4809,N,08126.7512,W,1,9,1.5,16,M,,M,,*55
06/05/2014	12:10:35.516	$GPGGA,121036,2426.4792,N,08126.7530,W,1,9,1.5,16,M,,M,,*5B
06/05/2014	12:10:36.518	$GPGGA,121037,2426.4776,N,08126.7547,W,1,9,1.5,16,M,,M,,*50
06/05/2014	12:10:37.501	$GPGGA,121038,2426.4758,N,08126.7565,W,1,9,1.5,17,M,,M,,*52
06/05/2014	12:10:38.533	$GPGGA,121039,2426.4741,N,08126.7581,W,1,9,1.5,17,M,,M,,*51
06/05/2014	12:10:39.516	$GPGGA,121040,2426.4724,N,08126.7598,W,1,9,1.5,17,M,,M,,*54
06/05/2014	12:10:40.508	$GPGGA,121041,2426.4708,N,08126.7616,W,1,9,1.5,17,M,,M,,*5E
06/05/2014	12:10:41.491	$GPGGA,121042,2426.4691,N,08126.7633,W,1,9,1.6,17,M,,M,,*58
06/05/2014	12:10:42.494	$GPGGA,121043,2426.4675,N,08126.7650,W,1,8,1.6,17,M,,M,,*57
06/05/2014	12:10:43.526	$GPGGA,121044,2426.4658,N,08126.7667,W,1,8,1.6,17,M,,M,,*5B
06/05/2014	12:10:44.528	$GPGGA,121045,2426.4641,N,08126.7684,W,1,7,1.8,17,M,,M,,*5E
06/05/2014	12:10:45.500	$GPGGA,121046,2426.4625,N,08126.7700,W,1,7,1.8,17,M,,M,,*52
06/05/2014	12:10:46.523	$GPGGA,121047,2426.4608,N,08126.7718,W,1,8,1.6,17,M,,M,,*54
06/05/2014	12:10:47.506	$GPGGA,121048,2426.4590,N,08126.7735,W,1,8,1.6,17,M,,M,,*56
06/05/2014	12:10:48.508	$GPGGA,121049,2426.4574,N,08126.7753,W,1,8,1.6,17,M,,M,,*5D
06/05/2014	12:10:49.501	$GPGGA,121050,2426.4556,N,08126.7771,W,1,8,1.6,17,M,,M,,*55
06/05/2014	12:10:50.523	$GPGGA,121051,2426.4538,N,08126.7789,W,1,8,1.6,17,M,,M,,*5B
06/05/2014	12:10:51.536	$GPGGA,121052,2426.4520,N,08126.7805,W,1,8,1.6,17,M,,M,,*5A
06/05/2014	12:10:52.529	$GPGGA,121053,2426.4501,N,08126.7822,W,1,8,1.6,17,M,,M,,*5D
06/05/2014	12:10:53.511	$GPGGA,121054,2426.4482,N,08126.7840,W,1,8,1.5,17,M,,M,,*57
06/05/2014	12:10:54.694	$GPGGA,121055,2426.4463,N,08126.7854,W,1,9,1.5,17,M,,M,,*5D
06/05/2014	12:10:55.526	$GPGGA,121056,2426.4445,N,08126.7869,W,1,9,1.5,17,M,,M,,*54
06/05/2014	12:10:56.519	$GPGGA,121057,2426.4426,N,08126.7884,W,1,9,1.5,17,M,,M,,*53
06/05/2014	12:10:57.512	$GPGGA,121058,2426.4408,N,08126.7897,W,1,9,1.5,17,M,,M,,*52
06/05/2014	12:10:58.715	$GPGGA,121059,2426.4390,N,08126.7912,W,1,8,1.5,17,M,,M,,*58
06/05/2014	12:10:59.657	$GPGGA,121100,2426.4371,N,08126.7926,W,1,8,1.5,17,M,,M,,*5D
06/05/2014	12:11:00.600	$GPGGA,121101,2426.4352,N,08126.7939,W,1,9,1.5,17,M,,M,,*52
06/05/2014	12:11:01.602	$GPGGA,121102,2426.4333,N,08126.7955,W,1,9,1.5,17,M,,M,,*5C
06/05/2014	12:11:02.704	$GPGGA,121103,2426.4312,N,08126.7969,W,1,9,1.5,17,M,,M,,*51
06/05/2014	12:11:03.667	$GPGGA,121104,2426.4292,N,08126.7982,W,1,9,1.5,17,M,,M,,*5A
06/05/2014	12:11:04.719	$GPGGA,121105,2426.4272,N,08126.7998,W,1,9,1.5,17,M,,M,,*5E
06/05/2014	12:11:05.612	$GPGGA,121106,2426.4252,N,08126.8011,W,1,9,1.5,17,M,,M,,*58
06/05/2014	12:11:06.714	$GPGGA,121107,2426.4231,N,08126.8025,W,1,9,1.5,18,M,,M,,*54
06/05/2014	12:11:07.667	$GPGGA,121108,2426.4212,N,08126.8038,W,1,9,1.5,18,M,,M,,*56
06/05/2014	12:11:08.681	$GPGGA,121109,2426.4193,N,08126.8051,W,1,9,1.5,18,M,,M,,*52
06/05/2014	12:11:09.602	$GPGGA,121110,2426.4174,N,08126.8065,W,1,9,1.5,18,M,,M,,*54
06/05/2014	12:11:10.675	$GPGGA,121111,2426.4155,N,08126.8078,W,1,9,1.5,18,M,,M,,*5A
06/05/2014	12:11:11.647	$GPGGA,121112,2426.4135,N,08126.8089,W,1,9,1.5,18,M,,M,,*51
06/05/2014	12:11:12.720	$GPGGA,121113,2426.4115,N,08126.8103,W,1,9,1.5,18,M,,M,,*51
06/05/2014	12:11:13.642	$GPGGA,121114,2426.4094,N,08126.8118,W,1,9,1.5,18,M,,M,,*54
06/05/2014	12:11:14.725	$GPGGA,121115,2426.4074,N,08126.8130,W,1,9,2.0,18,M,,M,,*57
06/05/2014	12:11:15.658	$GPGGA,121116,2426.4054,N,08126.8143,W,1,9,2.0,18,M,,M,,*52
06/05/2014	12:11:16.700	$GPGGA,121117,2426.4035,N,08126.8157,W,1,8,2.0,19,M,,M,,*51
06/05/2014	12:11:17.643	$GPGGA,121118,2426.4016,N,08126.8169,W,1,8,2.0,19,M,,M,,*52
06/05/2014	12:11:18.736	$GPGGA,121119,2426.4000,N,08126.8181,W,1,8,1.5,19,M,,M,,*54
06/05/2014	12:11:19.658	$GPGGA,121120,2426.3982,N,08126.8194,W,1,8,1.5,19,M,,M,,*5E
06/05/2014	12:11:20.710	$GPGGA,121121,2426.3967,N,08126.8205,W,1,9,1.5,19,M,,M,,*5E
06/05/2014	12:11:21.652	$GPGGA,121122,2426.3949,N,08126.8219,W,1,9,1.5,19,M,,M,,*5C
06/05/2014	12:11:22.725	$GPGGA,121123,2426.3931,N,08126.8231,W,1,9,1.5,19,M,,M,,*58
06/05/2014	12:11:23.657	$GPGGA,121124,2426.3910,N,08126.8244,W,1,9,1.5,19,M,,M,,*5E
06/05/2014	12:11:24.730	$GPGGA,121125,2426.3891,N,08126.8259,W,1,9,1.5,20,M,,M,,*51
06/05/2014	12:11:25.614	$GPGGA,121126,2426.3873,N,08126.8274,W,1,9,1.5,20,M,,M,,*51
06/05/2014	12:11:26.615	$GPGGA,121127,2426.3851,N,08126.8288,W,1,9,1.5,20,M,,M,,*53
06/05/2014	12:11:27.668	$GPGGA,121128,2426.3833,N,08126.8302,W,1,9,1.5,20,M,,M,,*5B
06/05/2014	12:11:28.690	$GPGGA,121129,2426.3815,N,08126.8316,W,1,9,1.5,20,M,,M,,*5B
06/05/2014	12:11:29.653	$GPGGA,121130,2426.3795,N,08126.8331,W,1,9,1.5,20,M,,M,,*51
06/05/2014	12:11:30.716	$GPGGA,121131,2426.3777,N,08126.8343,W,1,9,1.5,20,M,,M,,*59
06/05/2014	12:11:31.668	$GPGGA,121132,2426.3759,N,08126.8356,W,1,9,1.5,21,M,,M,,*53
06/05/2014	12:11:32.721	$GPGGA,121133,2426.3741,N,08126.8371,W,1,9,1.5,21,M,,M,,*5E
06/05/2014	12:11:33.653	$GPGGA,121134,2426.3723,N,08126.8385,W,1,9,1.5,21,M,,M,,*56
06/05/2014	12:11:34.562	$GPGGA,121135,2426.3703,N,08126.8399,W,1,9,1.5,21,M,,M,,*58
06/05/2014	12:11:35.515	$GPGGA,121136,2426.3685,N,08126.8414,W,1,9,1.5,21,M,,M,,*56
06/05/2014	12:11:36.566	$GPGGA,121137,2426.3664,N,08126.8429,W,1,9,1.5,21,M,,M,,*56
06/05/2014	12:11:37.501	$GPGGA,121138,2426.3646,N,08126.8446,W,1,9,1.5,21,M,,M,,*50
06/05/2014	12:11:38.551	$GPGGA,121139,2426.3626,N,08126.8461,W,1,9,1.5,21,M,,M,,*52
06/05/2014	12:11:39.524	$GPGGA,121140,2426.3609,N,08126.8476,W,1,9,1.5,21,M,,M,,*57
06/05/2014	12:11:40.557	$GPGGA,121141,2426.3591,N,08126.8491,W,1,9,1.5,21,M,,M,,*5D
06/05/2014	12:11:41.569	$GPGGA,121142,2426.3573,N,08126.8506,W,1,9,1.6,21,M,,M,,*5E
06/05/2014	12:11:42.562	$GPGGA,121143,2426.3555,N,08126.8522,W,1,8,1.6,21,M,,M,,*5C
06/05/2014	12:11:43.474	$GPGGA,121144,2426.3537,N,08126.8535,W,1,8,1.6,21,M,,M,,*59
06/05/2014	12:11:44.607	$GPGGA,121145,2426.3519,N,08126.8552,W,1,8,1.6,21,M,,M,,*55
06/05/2014	12:11:45.590	$GPGGA,121146,2426.3501,N,08126.8569,W,1,8,1.6,21,M,,M,,*57
06/05/2014	12:11:46.592	$GPGGA,121147,2426.3483,N,08126.8584,W,1,8,1.6,21,M,,M,,*5E
06/05/2014	12:11:47.585	$GPGGA,121148,2426.3465,N,08126.8600,W,1,8,1.5,21,M,,M,,*55
06/05/2014	12:11:48.618	$GPGGA,121149,2426.3447,N,08126.8616,W,1,9,1.5,21,M,,M,,*52
