Software Version Number: 1	Data File Format Number: 1	Build Version Number: 1	Error Count Since VI Started: 0	Manufacturer: Raytheon	 Model Number: RayMarine 120	 S/N: 	 Cal Date: 	 Wind Direction Offset: 0.00	 Slope (M)1: 0.00	 Offset (B)1: 0.00	 Slope (M)2: 0.00	 Offset (B)2: 0.00	 Slope (M)3: 0.00	 Offset (B)3: 0.00	 Slope (M)4: 0.00	 Offset (B)4: 0.00	 Slope (M)5: 0.00	 Offset (B)5: 0.00	 Slope (M)6: 0.00	 Offset (B)6: 0.00
Computer Date	Computer Time	GGA String
06/14/2014	01:00:00.687	$GPGGA,010001,2432.0678,N,08054.7301,W,1,10,1.9,17,M,,M,,*6D
06/14/2014	01:00:01.527	$GPGGA,010002,2432.0676,N,08054.7305,W,1,10,1.4,17,M,,M,,*69
06/14/2014	01:00:02.532	$GPGGA,010003,2432.0672,N,08054.7309,W,1,10,1.4,17,M,,M,,*60
06/14/2014	01:00:03.646	$GPGGA,010004,2432.0668,N,08054.7314,W,1,10,1.4,17,M,,M,,*60
06/14/2014	01:00:04.537	$GPGGA,010005,2432.0665,N,08054.7319,W,1,10,1.4,17,M,,M,,*61
06/14/2014	01:00:05.540	$GPGGA,010006,2432.0661,N,08054.7323,W,1,10,1.4,17,M,,M,,*6F
06/14/2014	01:00:06.572	$GPGGA,010007,2432.0658,N,08054.7327,W,1,10,1.4,17,M,,M,,*60
06/14/2014	01:00:07.564	$GPGGA,010008,2432.0656,N,08054.7331,W,1,10,1.4,17,M,,M,,*66
06/14/2014	01:00:08.657	$GPGGA,010009,2432.0651,N,08054.7335,W,1,10,1.4,17,M,,M,,*64
06/14/2014	01:00:09.541	$GPGGA,010010,2432.0648,N,08054.7339,W,1,10,1.4,17,M,,M,,*68
06/14/2014	01:00:10.542	$GPGGA,010011,2432.0645,N,08054.7345,W,1,10,1.4,17,M,,M,,*6F
06/14/2014	01:00:11.565	$GPGGA,010012,2432.0643,N,08054.7349,W,1,10,1.4,18,M,,M,,*69
06/14/2014	01:00:12.577	$GPGGA,010013,2432.0641,N,08054.7352,W,1,10,1.4,18,M,,M,,*60
06/14/2014	01:00:13.550	$GPGGA,010014,2432.0637,N,08054.7355,W,1,10,1.4,18,M,,M,,*61
06/14/2014	01:00:14.673	$GPGGA,010015,2432.0636,N,08054.7359,W,1,10,1.4,18,M,,M,,*6D
06/14/2014	01:00:15.656	$GPGGA,010016,2432.0633,N,08054.7364,W,1,10,1.4,18,M,,M,,*65
06/14/2014	01:00:16.689	$GPGGA,010017,2432.0630,N,08054.7368,W,1,10,1.4,18,M,,M,,*6B
06/14/2014	01:00:17.561	$GPGGA,010018,2432.0629,N,08054.7371,W,1,10,1.4,18,M,,M,,*64
06/14/2014	01:00:18.664	$GPGGA,010019,2432.0626,N,08054.7375,W,1,10,1.4,18,M,,M,,*6E
06/14/2014	01:00:19.576	$GPGGA,010020,2432.0625,N,08054.7379,W,1,10,1.4,18,M,,M,,*6B
06/14/2014	01:00:20.559	$GPGGA,010021,2432.0622,N,08054.7384,W,1,10,1.4,18,M,,M,,*6F
06/14/2014	01:00:21.642	$GPGGA,010022,2432.0620,N,08054.7386,W,1,10,1.4,18,M,,M,,*6C
06/14/2014	01:00:22.655	$GPGGA,010023,2432.0618,N,08054.7391,W,1,10,1.4,18,M,,M,,*60
06/14/2014	01:00:23.657	$GPGGA,010024,2432.0615,N,08054.7395,W,1,10,1.4,18,M,,M,,*6E
06/14/2014	01:00:24.679	$GPGGA,010025,2432.0612,N,08054.7399,W,1,10,1.4,18,M,,M,,*64
06/14/2014	01:00:25.643	$GPGGA,010026,2432.0611,N,08054.7402,W,1,10,1.4,18,M,,M,,*61
06/14/2014	01:00:26.654	$GPGGA,010027,2432.0609,N,08054.7406,W,1,10,1.4,18,M,,M,,*6D
06/14/2014	01:00:27.668	$GPGGA,010028,2432.0607,N,08054.7408,W,1,10,1.4,18,M,,M,,*62
06/14/2014	01:00:28.650	$GPGGA,010029,2432.0607,N,08054.7413,W,1,10,1.4,18,M,,M,,*69
06/14/2014	01:00:29.652	$GPGGA,010030,2432.0602,N,08054.7415,W,1,10,1.4,18,M,,M,,*62
06/14/2014	01:00:30.655	$GPGGA,010031,2432.0600,N,08054.7420,W,1,10,1.4,18,M,,M,,*67
06/14/2014	01:00:31.668	$GPGGA,010032,2432.0597,N,08054.7424,W,1,10,1.4,18,M,,M,,*6D
06/14/2014	01:00:32.651	$GPGGA,010033,2432.0596,N,08054.7426,W,1,10,1.4,18,M,,M,,*6F
06/14/2014	01:00:33.643	$GPGGA,010034,2432.0591,N,08054.7433,W,1,10,1.9,18,M,,M,,*66
06/14/2014	01:00:34.676	$GPGGA,010035,2432.0589,N,08054.7436,W,1,10,1.4,18,M,,M,,*66
06/14/2014	01:00:35.669	$GPGGA,010036,2432.0585,N,08054.7440,W,1,10,1.4,18,M,,M,,*68
06/14/2014	01:00:36.671	$GPGGA,010037,2432.0583,N,08054.7444,W,1,10,1.4,18,M,,M,,*6B
06/14/2014	01:00:37.654	$GPGGA,010038,2432.0580,N,08054.7449,W,1,10,1.4,18,M,,M,,*6A
06/14/2014	01:00:38.657	$GPGGA,010039,2432.0578,N,08054.7451,W,1,10,1.4,18,M,,M,,*65
06/14/2014	01:00:39.659	$GPGGA,010040,2432.0575,N,08054.7456,W,1,10,1.4,18,M,,M,,*61
06/14/2014	01:00:40.682	$GPGGA,010041,2432.0573,N,08054.7460,W,1,10,1.4,18,M,,M,,*63
06/14/2014	01:00:41.655	$GPGGA,010042,2432.0571,N,08054.7462,W,1,10,1.4,18,M,,M,,*60
06/14/2014	01:00:42.677	$GPGGA,010043,2432.0568,N,08054.7467,W,1,10,1.4,18,M,,M,,*6C
06/14/2014	01:00:43.669	$GPGGA,010044,2432.0566,N,08054.7471,W,1,10,1.4,18,M,,M,,*62
06/14/2014	01:00:44.672	$GPGGA,010045,2432.0564,N,08054.7475,W,1,10,1.4,18,M,,M,,*65
06/14/2014	01:00:45.665	$GPGGA,010046,2432.0560,N,08054.7478,W,1,10,1.4,18,M,,M,,*6F
06/14/2014	01:00:46.657	$GPGGA,010047,2432.0558,N,08054.7482,W,1,10,1.4,18,M,,M,,*60
06/14/2014	01:00:47.520	$GPGGA,010048,2432.0557,N,08054.7486,W,1,10,1.5,18,M,,M,,*65
06/14/2014	01:00:48.493	$GPGGA,010049,2432.0555,N,08054.7490,W,1,10,1.4,18,M,,M,,*60
06/14/2014	01:00:49.500	$GPGGA,010050,2432.0553,N,08054.7494,W,1,10,1.4,18,M,,M,,*6A
06/14/2014	01:00:50.518	$GPGGA,010051,2432.0549,N,08054.7498,W,1,10,1.4,18,M,,M,,*6C
06/14/2014	01:00:51.503	$GPGGA,010052,2432.0546,N,08054.7503,W,1,10,1.4,18,M,,M,,*63
06/14/2014	01:00:52.523	$GPGGA,010053,2432.0544,N,08054.7507,W,1,10,1.4,18,M,,M,,*64
06/14/2014	01:00:53.508	$GPGGA,010054,2432.0542,N,08054.7511,W,1,10,1.4,18,M,,M,,*62
06/14/2014	01:00:54.609	$GPGGA,010055,2432.0537,N,08054.7515,W,1,10,1.4,18,M,,M,,*65
06/14/2014	01:00:55.522	$GPGGA,010056,2432.0536,N,08054.7522,W,1,10,1.4,18,M,,M,,*63
06/14/2014	01:00:56.534	$GPGGA,010057,2432.0535,N,08054.7523,W,1,10,1.4,18,M,,M,,*60
06/14/2014	01:00:57.597	$GPGGA,010058,2432.0531,N,08054.7526,W,1,10,1.9,18,M,,M,,*63
06/14/2014	01:00:58.524	$GPGGA,010059,2432.0531,N,08054.7529,W,1,9,1.9,18,M,,M,,*55
06/14/2014	01:00:59.531	$GPGGA,010100,2432.0527,N,08054.7533,W,1,9,1.9,18,M,,M,,*54
06/14/2014	01:01:00.516	$GPGGA,010101,2432.0524,N,08054.7540,W,1,10,1.4,18,M,,M,,*67
06/14/2014	01:01:01.508	$GPGGA,010102,2432.0520,N,08054.7544,W,1,10,1.4,18,M,,M,,*64
06/14/2014	01:01:02.533	$GPGGA,010103,2432.0517,N,08054.7550,W,1,10,1.4,18,M,,M,,*64
06/14/2014	01:01:03.642	$GPGGA,010104,2432.0513,N,08054.7552,W,1,10,1.4,18,M,,M,,*65
06/14/2014	01:01:04.636	$GPGGA,010105,2432.0513,N,08054.7555,W,1,9,1.9,18,M,,M,,*56
06/14/2014	01:01:05.497	$GPGGA,010106,2432.0511,N,08054.7558,W,1,9,1.9,17,M,,M,,*55
06/14/2014	01:01:06.640	$GPGGA,010107,2432.0506,N,08054.7562,W,1,9,1.9,17,M,,M,,*5B
06/14/2014	01:01:07.613	$GPGGA,010108,2432.0502,N,08054.7566,W,1,9,1.4,17,M,,M,,*59
06/14/2014	01:01:08.606	$GPGGA,010109,2432.0500,N,08054.7572,W,1,10,1.4,17,M,,M,,*67
06/14/2014	01:01:09.608	$GPGGA,010110,2432.0499,N,08054.7579,W,1,10,1.4,17,M,,M,,*65
06/14/2014	01:01:10.611	$GPGGA,010111,2432.0493,N,08054.7583,W,1,10,1.4,17,M,,M,,*6B
06/14/2014	01:01:11.615	$GPGGA,010112,2432.0489,N,08054.7587,W,1,10,1.4,17,M,,M,,*67
06/14/2014	01:01:12.617	$GPGGA,010113,2432.0488,N,08054.7594,W,1,10,1.4,17,M,,M,,*65
06/14/2014	01:01:13.619	$GPGGA,010114,2432.0485,N,08054.7598,W,1,10,1.4,17,M,,M,,*63
06/14/2014	01:01:14.612	$GPGGA,010115,2432.0481,N,08054.7601,W,1,10,1.4,17,M,,M,,*65
06/14/2014	01:01:15.625	$GPGGA,010116,2432.0477,N,08054.7605,W,1,10,1.4,17,M,,M,,*6B
06/14/2014	01:01:16.627	$GPGGA,010117,2432.0475,N,08054.7610,W,1,10,1.4,17,M,,M,,*6C
06/14/2014	01:01:17.659	$GPGGA,010118,2432.0473,N,08054.7616,W,1,10,1.4,17,M,,M,,*63
06/14/2014	01:01:18.612	$GPGGA,010119,2432.0470,N,08054.7620,W,1,10,1.4,17,M,,M,,*64
06/14/2014	01:01:19.634	$GPGGA,010120,2432.0466,N,08054.7626,W,1,10,1.4,17,M,,M,,*6F
06/14/2014	01:01:20.637	$GPGGA,010121,2432.0464,N,08054.7630,W,1,10,1.4,17,M,,M,,*6B
06/14/2014	01:01:21.610	$GPGGA,010122,2432.0462,N,08054.7631,W,1,10,1.4,17,M,,M,,*6F
06/14/2014	01:01:22.633	$GPGGA,010123,2432.0459,N,08054.7635,W,1,9,1.9,17,M,,M,,*57
06/14/2014	01:01:23.625	$GPGGA,010124,2432.0459,N,08054.7638,W,1,9,1.4,17,M,,M,,*50
06/14/2014	01:01:24.608	$GPGGA,010125,2432.0456,N,08054.7642,W,1,9,1.9,17,M,,M,,*5E
06/14/2014	01:01:25.621	$GPGGA,010126,2432.0452,N,08054.7648,W,1,9,1.9,17,M,,M,,*53
06/14/2014	01:01:26.643	$GPGGA,010127,2432.0448,N,08054.7653,W,1,10,1.4,17,M,,M,,*66
06/14/2014	01:01:27.636	$GPGGA,010128,2432.0445,N,08054.7659,W,1,10,1.4,17,M,,M,,*6E
06/14/2014	01:01:28.639	$GPGGA,010129,2432.0444,N,08054.7663,W,1,10,1.4,16,M,,M,,*66
06/14/2014	01:01:29.631	$GPGGA,010130,2432.0441,N,08054.7667,W,1,10,1.9,16,M,,M,,*62
06/14/2014	01:01:30.654	$GPGGA,010131,2432.0436,N,08054.7673,W,1,10,1.4,16,M,,M,,*6B
06/14/2014	01:01:31.627	$GPGGA,010132,2432.0434,N,08054.7678,W,1,10,1.4,16,M,,M,,*61
06/14/2014	01:01:32.650	$GPGGA,010133,2432.0430,N,08054.7684,W,1,10,1.4,16,M,,M,,*67
06/14/2014	01:01:33.632	$GPGGA,010134,2432.0427,N,08054.7688,W,1,10,1.4,16,M,,M,,*6A
06/14/2014	01:01:34.624	$GPGGA,010135,2432.0423,N,08054.7692,W,1,10,1.4,16,M,,M,,*64
06/14/2014	01:01:35.647	$GPGGA,010136,2432.0420,N,08054.7697,W,1,10,1.4,16,M,,M,,*61
06/14/2014	01:01:36.659	$GPGGA,010137,2432.0419,N,08054.7703,W,1,10,1.4,16,M,,M,,*66
06/14/2014	01:01:37.642	$GPGGA,010138,2432.0415,N,08054.7707,W,1,10,1.4,16,M,,M,,*61
06/14/2014	01:01:38.656	$GPGGA,010139,2432.0412,N,08054.7711,W,1,10,1.4,17,M,,M,,*61
06/14/2014	01:01:39.637	$GPGGA,010140,2432.0408,N,08054.7717,W,1,10,1.4,17,M,,M,,*62
06/14/2014	01:01:40.740	$GPGGA,010141,2432.0406,N,08054.7722,W,1,10,1.4,17,M,,M,,*6B
06/14/2014	01:01:41.633	$GPGGA,010142,2432.0403,N,08054.7728,W,1,10,1.4,17,M,,M,,*67
06/14/2014	01:01:42.746	$GPGGA,010143,2432.0398,N,08054.7732,W,1,10,1.4,17,M,,M,,*68
06/14/2014	01:01:43.648	$GPGGA,010144,2432.0396,N,08054.7738,W,1,10,1.4,17,M,,M,,*6B
06/14/2014	01:01:44.651	$GPGGA,010145,2432.0395,N,08054.7742,W,1,10,1.4,17,M,,M,,*64
06/14/2014	01:01:45.640	$GPGGA,010146,2432.0391,N,08054.7747,W,1,10,1.4,17,M,,M,,*66
06/14/2014	01:01:46.647	$GPGGA,010147,2432.0387,N,08054.7751,W,1,10,1.4,17,M,,M,,*67
06/14/2014	01:01:47.479	$GPGGA,010148,2432.0385,N,08054.7757,W,1,10,1.4,17,M,,M,,*6C
06/14/2014	01:01:48.492	$GPGGA,010149,2432.0383,N,08054.7761,W,1,10,1.4,17,M,,M,,*6E
06/14/2014	01:01:49.600	$GPGGA,010150,2432.0378,N,08054.7765,W,1,10,1.4,17,M,,M,,*66
06/14/2014	01:01:50.467	$GPGGA,010151,2432.0376,N,08054.7771,W,1,10,1.4,17,M,,M,,*6C
06/14/2014	01:01:51.584	$GPGGA,010152,2432.0372,N,08054.7775,W,1,10,1.4,17,M,,M,,*6F
06/14/2014	01:01:52.491	$GPGGA,010153,2432.0369,N,08054.7780,W,1,10,1.4,17,M,,M,,*6E
06/14/2014	01:01:53.584	$GPGGA,010154,2432.0367,N,08054.7785,W,1,10,1.4,17,M,,M,,*62
06/14/2014	01:01:54.577	$GPGGA,010155,2432.0363,N,08054.7789,W,1,10,1.4,17,M,,M,,*6B
06/14/2014	01:01:55.490	$GPGGA,010156,2432.0360,N,08054.7793,W,1,10,1.4,17,M,,M,,*60
06/14/2014	01:01:56.583	$GPGGA,010157,2432.0356,N,08054.7798,W,1,10,1.4,17,M,,M,,*6F
06/14/2014	01:01:57.595	$GPGGA,010158,2432.0352,N,08054.7803,W,1,10,1.4,17,M,,M,,*69
06/14/2014	01:01:58.588	$GPGGA,010159,2432.0349,N,08054.7808,W,1,10,1.4,17,M,,M,,*69
06/14/2014	01:01:59.591	$GPGGA,010200,2432.0347,N,08054.7814,W,1,10,1.4,17,M,,M,,*65
06/14/2014	01:02:00.583	$GPGGA,010201,2432.0343,N,08054.7816,W,1,10,1.4,17,M,,M,,*62
06/14/2014	01:02:01.586	$GPGGA,010202,2432.0340,N,08054.7821,W,1,10,1.4,17,M,,M,,*66
06/14/2014	01:02:02.599	$GPGGA,010203,2432.0337,N,08054.7825,W,1,10,1.4,17,M,,M,,*63
06/14/2014	01:02:03.591	$GPGGA,010204,2432.0333,N,08054.7829,W,1,10,1.4,17,M,,M,,*6C
06/14/2014	01:02:04.594	$GPGGA,010205,2432.0330,N,08054.7834,W,1,10,1.4,17,M,,M,,*62
06/14/2014	01:02:05.577	$GPGGA,010206,2432.0326,N,08054.7840,W,1,10,1.4,18,M,,M,,*6A
06/14/2014	01:02:06.599	$GPGGA,010207,2432.0324,N,08054.7845,W,1,10,1.4,18,M,,M,,*6C
06/14/2014	01:02:07.603	$GPGGA,010208,2432.0322,N,08054.7850,W,1,10,1.4,18,M,,M,,*61
06/14/2014	01:02:08.605	$GPGGA,010209,2432.0318,N,08054.7854,W,1,10,1.4,18,M,,M,,*6D
06/14/2014	01:02:09.586	$GPGGA,010210,2432.0315,N,08054.7857,W,1,10,1.4,17,M,,M,,*64
06/14/2014	01:02:10.579	$GPGGA,010211,2432.0316,N,08054.7858,W,1,9,1.9,17,M,,M,,*5C
06/14/2014	01:02:11.602	$GPGGA,010212,2432.0314,N,08054.7862,W,1,9,1.9,17,M,,M,,*54
06/14/2014	01:02:12.595	$GPGGA,010213,2432.0311,N,08054.7865,W,1,9,1.9,17,M,,M,,*57
06/14/2014	01:02:13.587	$GPGGA,010214,2432.0308,N,08054.7870,W,1,9,1.9,17,M,,M,,*5C
06/14/2014	01:02:14.600	$GPGGA,010215,2432.0305,N,08054.7876,W,1,9,1.9,17,M,,M,,*56
06/14/2014	01:02:15.593	$GPGGA,010216,2432.0302,N,08054.7881,W,1,9,1.9,17,M,,M,,*5A
06/14/2014	01:02:16.615	$GPGGA,010217,2432.0300,N,08054.7886,W,1,9,1.9,17,M,,M,,*5E
06/14/2014	01:02:17.588	$GPGGA,010218,2432.0297,N,08054.7888,W,1,9,1.9,17,M,,M,,*50
06/14/2014	01:02:18.601	$GPGGA,010219,2432.0295,N,08054.7891,W,1,9,1.9,17,M,,M,,*5B
06/14/2014	01:02:19.603	$GPGGA,010220,2432.0293,N,08054.7895,W,1,9,1.9,16,M,,M,,*52
06/14/2014	01:02:20.616	$GPGGA,010221,2432.0290,N,08054.7899,W,1,9,1.9,16,M,,M,,*5C
06/14/2014	01:02:21.584	$GPGGA,010222,2432.0286,N,08054.7904,W,1,9,1.9,16,M,,M,,*5D
06/14/2014	01:02:22.622	$GPGGA,010223,2432.0283,N,08054.7910,W,1,9,1.9,16,M,,M,,*5C
06/14/2014	01:02:23.604	$GPGGA,010224,2432.0279,N,08054.7916,W,1,9,1.9,16,M,,M,,*58
06/14/2014	01:02:24.597	$GPGGA,010225,2432.0276,N,08054.7923,W,1,9,1.9,16,M,,M,,*50
06/14/2014	01:02:25.592	$GPGGA,010226,2432.0273,N,08054.7926,W,1,9,1.9,15,M,,M,,*50
06/14/2014	01:02:26.595	$GPGGA,010227,2432.0272,N,08054.7928,W,1,9,1.9,15,M,,M,,*5E
06/14/2014	01:02:27.614	$GPGGA,010228,2432.0271,N,08054.7931,W,1,9,1.9,15,M,,M,,*5A
06/14/2014	01:02:28.727	$GPGGA,010229,2432.0268,N,08054.7935,W,1,9,1.9,15,M,,M,,*57
06/14/2014	01:02:29.750	$GPGGA,010230,2432.0264,N,08054.7941,W,1,9,1.9,15,M,,M,,*50
06/14/2014	01:02:30.592	$GPGGA,010231,2432.0261,N,08054.7948,W,1,9,1.9,15,M,,M,,*5D
06/14/2014	01:02:31.775	$GPGGA,010232,2432.0258,N,08054.7955,W,1,9,1.9,15,M,,M,,*58
06/14/2014	01:02:32.617	$GPGGA,010233,2432.0255,N,08054.7962,W,1,9,1.9,14,M,,M,,*51
06/14/2014	01:02:33.610	$GPGGA,010234,2432.0253,N,08054.7966,W,1,9,1.9,14,M,,M,,*54
06/14/2014	01:02:34.594	$GPGGA,010235,2432.0251,N,08054.7970,W,1,9,1.9,14,M,,M,,*50
06/14/2014	01:02:35.618	$GPGGA,010236,2432.0249,N,08054.7973,W,1,9,1.9,14,M,,M,,*59
06/14/2014	01:02:36.588	$GPGGA,010237,2432.0247,N,08054.7977,W,1,9,1.9,14,M,,M,,*52
06/14/2014	01:02:37.771	$GPGGA,010238,2432.0246,N,08054.7982,W,1,9,1.9,14,M,,M,,*56
06/14/2014	01:02:38.604	$GPGGA,010239,2432.0242,N,08054.7988,W,1,9,1.9,14,M,,M,,*59
06/14/2014	01:02:39.607	$GPGGA,010240,2432.0239,N,08054.7995,W,1,9,1.9,14,M,,M,,*57
06/14/2014	01:02:40.613	$GPGGA,010241,2432.0237,N,08054.8000,W,1,9,1.9,13,M,,M,,*55
06/14/2014	01:02:41.772	$GPGGA,010242,2432.0235,N,08054.8006,W,1,9,1.9,13,M,,M,,*52
06/14/2014	01:02:42.615	$GPGGA,010243,2432.0232,N,08054.8009,W,1,9,1.9,13,M,,M,,*5B
06/14/2014	01:02:43.618	$GPGGA,010244,2432.0230,N,08054.8013,W,1,9,1.9,13,M,,M,,*55
06/14/2014	01:02:44.731	$GPGGA,010245,2432.0229,N,08054.8017,W,1,9,1.9,13,M,,M,,*58
06/14/2014	01:02:45.702	$GPGGA,010246,2432.0225,N,08054.8022,W,1,9,1.9,13,M,,M,,*51
06/14/2014	01:02:46.765	$GPGGA,010247,2432.0221,N,08054.8027,W,1,9,1.9,13,M,,M,,*51
06/14/2014	01:02:47.637	$GPGGA,010248,2432.0219,N,08054.8033,W,1,9,1.9,13,M,,M,,*50
06/14/2014	01:02:48.588	$GPGGA,010249,2432.0217,N,08054.8038,W,1,9,1.9,13,M,,M,,*54
06/14/2014	01:02:49.613	$GPGGA,010250,2432.0214,N,08054.8043,W,1,9,1.9,13,M,,M,,*53
06/14/2014	01:02:50.598	$GPGGA,010251,2432.0211,N,08054.8046,W,1,9,1.9,13,M,,M,,*52
06/14/2014	01:02:51.618	$GPGGA,010252,2432.0210,N,08054.8051,W,1,9,1.9,13,M,,M,,*56
06/14/2014	01:02:52.651	$GPGGA,010253,2432.0206,N,08054.8056,W,1,9,1.9,13,M,,M,,*57
06/14/2014	01:02:53.543	$GPGGA,010254,2432.0202,N,08054.8061,W,1,9,1.9,13,M,,M,,*50
06/14/2014	01:02:54.576	$GPGGA,010255,2432.0199,N,08054.8067,W,1,9,1.9,12,M,,M,,*57
06/14/2014	01:02:55.629	$GPGGA,010256,2432.0196,N,08054.8071,W,1,9,1.9,12,M,,M,,*5C
06/14/2014	01:02:56.581	$GPGGA,010257,2432.0193,N,08054.8076,W,1,9,1.9,12,M,,M,,*5F
06/14/2014	01:02:57.624	$GPGGA,010258,2432.0189,N,08054.8082,W,1,9,1.9,12,M,,M,,*50
06/14/2014	01:02:58.598	$GPGGA,010259,2432.0188,N,08054.8085,W,1,9,1.9,12,M,,M,,*57
06/14/2014	01:02:59.622	$GPGGA,010300,2432.0184,N,08054.8090,W,1,9,1.9,12,M,,M,,*52
06/14/2014	01:03:00.583	$GPGGA,010301,2432.0181,N,08054.8096,W,1,9,1.9,12,M,,M,,*50
06/14/2014	01:03:01.555	$GPGGA,010302,2432.0177,N,08054.8100,W,1,9,1.9,12,M,,M,,*54
06/14/2014	01:03:02.597	$GPGGA,010303,2432.0173,N,08054.8104,W,1,9,1.9,12,M,,M,,*55
06/14/2014	01:03:03.632	$GPGGA,010304,2432.0171,N,08054.8108,W,1,9,1.9,12,M,,M,,*5C
06/14/2014	01:03:04.592	$GPGGA,010305,2432.0167,N,08054.8112,W,1,9,1.9,12,M,,M,,*51
06/14/2014	01:03:05.543	$GPGGA,010306,2432.0163,N,08054.8116,W,1,9,1.9,12,M,,M,,*52
06/14/2014	01:03:06.597	$GPGGA,010307,2432.0160,N,08054.8121,W,1,9,1.9,12,M,,M,,*54
06/14/2014	01:03:07.650	$GPGGA,010308,2432.0156,N,08054.8128,W,1,9,1.9,12,M,,M,,*57
06/14/2014	01:03:08.593	$GPGGA,010309,2432.0152,N,08054.8132,W,1,9,1.9,12,M,,M,,*59
06/14/2014	01:03:09.554	$GPGGA,010310,2432.0149,N,08054.8136,W,1,9,1.9,12,M,,M,,*5F
06/14/2014	01:03:10.554	$GPGGA,010311,2432.0146,N,08054.8140,W,1,9,1.9,12,M,,M,,*50
06/14/2014	01:03:11.621	$GPGGA,010312,2432.0143,N,08054.8144,W,1,9,1.9,12,M,,M,,*52
06/14/2014	01:03:12.573	$GPGGA,010313,2432.0139,N,08054.8150,W,1,9,1.9,12,M,,M,,*5B
06/14/2014	01:03:13.626	$GPGGA,010314,2432.0135,N,08054.8154,W,1,9,1.9,12,M,,M,,*54
06/14/2014	01:03:14.679	$GPGGA,010315,2432.0131,N,08054.8158,W,1,9,1.9,12,M,,M,,*5D
06/14/2014	01:03:15.632	$GPGGA,010316,2432.0128,N,08054.8163,W,1,9,1.9,12,M,,M,,*5E
06/14/2014	01:03:16.584	$GPGGA,010317,2432.0124,N,08054.8168,W,1,9,1.9,12,M,,M,,*58
06/14/2014	01:03:17.576	$GPGGA,010318,2432.0120,N,08054.8172,W,1,9,1.9,12,M,,M,,*58
06/14/2014	01:03:18.550	$GPGGA,010319,2432.0117,N,08054.8176,W,1,9,1.9,12,M,,M,,*59
06/14/2014	01:03:19.652	$GPGGA,010320,2432.0114,N,08054.8181,W,1,9,1.9,12,M,,M,,*58
06/14/2014	01:03:20.664	$GPGGA,010321,2432.0110,N,08054.8186,W,1,9,1.9,12,M,,M,,*5A
06/14/2014	01:03:21.607	$GPGGA,010322,2432.0105,N,08054.8190,W,1,9,1.9,12,M,,M,,*5A
06/14/2014	01:03:22.560	$GPGGA,010323,2432.0102,N,08054.8197,W,1,9,1.9,12,M,,M,,*5B
06/14/2014	01:03:23.692	$GPGGA,010324,2432.0100,N,08054.8201,W,1,9,1.9,12,M,,M,,*52
06/14/2014	01:03:24.593	$GPGGA,010325,2432.0095,N,08054.8205,W,1,9,1.9,12,M,,M,,*5A
06/14/2014	01:03:25.618	$GPGGA,010326,2432.0094,N,08054.8209,W,1,9,1.9,12,M,,M,,*54
06/14/2014	01:03:26.620	$GPGGA,010327,2432.0090,N,08054.8215,W,1,9,1.9,12,M,,M,,*5C
06/14/2014	01:03:27.703	$GPGGA,010328,2432.0087,N,08054.8219,W,1,9,1.9,12,M,,M,,*59
06/14/2014	01:03:28.696	$GPGGA,010329,2432.0083,N,08054.8223,W,1,9,1.9,12,M,,M,,*55
06/14/2014	01:03:29.618	$GPGGA,010330,2432.0079,N,08054.8228,W,1,9,1.9,12,M,,M,,*53
06/14/2014	01:03:30.700	$GPGGA,010331,2432.0076,N,08054.8233,W,1,9,1.9,12,M,,M,,*57
06/14/2014	01:03:31.634	$GPGGA,010332,2432.0074,N,08054.8238,W,1,9,1.9,12,M,,M,,*5D
06/14/2014	01:03:32.710	$GPGGA,010333,2432.0071,N,08054.8242,W,1,9,1.9,13,M,,M,,*55
06/14/2014	01:03:33.669	$GPGGA,010334,2432.0069,N,08054.8248,W,1,9,1.9,12,M,,M,,*50
06/14/2014	01:03:34.682	$GPGGA,010335,2432.0065,N,08054.8251,W,1,9,1.9,13,M,,M,,*54
06/14/2014	01:03:35.675	$GPGGA,010336,2432.0062,N,08054.8255,W,1,9,1.9,13,M,,M,,*54
06/14/2014	01:03:36.677	$GPGGA,010337,2432.0059,N,08054.8262,W,1,9,1.9,13,M,,M,,*59
06/14/2014	01:03:37.699	$GPGGA,010338,2432.0056,N,08054.8267,W,1,9,1.9,13,M,,M,,*5C
06/14/2014	01:03:38.702	$GPGGA,010339,2432.0052,N,08054.8271,W,1,9,1.9,13,M,,M,,*5E
06/14/2014	01:03:39.684	$GPGGA,010340,2432.0049,N,08054.8277,W,1,9,1.9,13,M,,M,,*5C
06/14/2014	01:03:40.697	$GPGGA,010341,2432.0047,N,08054.8281,W,1,9,1.9,13,M,,M,,*5A
06/14/2014	01:03:41.700	$GPGGA,010342,2432.0045,N,08054.8285,W,1,9,1.9,13,M,,M,,*5F
06/14/2014	01:03:42.723	$GPGGA,010343,2432.0042,N,08054.8289,W,1,9,1.9,13,M,,M,,*55
06/14/2014	01:03:43.695	$GPGGA,010344,2432.0038,N,08054.8295,W,1,9,1.9,13,M,,M,,*52
06/14/2014	01:03:44.688	$GPGGA,010345,2432.0036,N,08054.8300,W,1,9,1.9,13,M,,M,,*50
06/14/2014	01:03:45.711	$GPGGA,010346,2432.0033,N,08054.8306,W,1,9,1.9,13,M,,M,,*50
06/14/2014	01:03:46.703	$GPGGA,010347,2432.0029,N,08054.8313,W,1,9,1.9,13,M,,M,,*5E
06/14/2014	01:03:47.536	$GPGGA,010348,2432.0029,N,08054.8313,W,1,9,1.9,13,M,,M,,*51
06/14/2014	01:03:48.529	$GPGGA,010349,2432.0023,N,08054.8324,W,1,9,1.9,13,M,,M,,*5E
06/14/2014	01:03:49.531	$GPGGA,010350,2432.0020,N,08054.8327,W,1,9,1.9,13,M,,M,,*56
06/14/2014	01:03:50.544	$GPGGA,010351,2432.0016,N,08054.8331,W,1,9,1.9,13,M,,M,,*55
06/14/2014	01:03:53.533	$GPGGA,010354,2432.0011,N,08054.8342,W,1,9,1.9,13,M,,M,,*53
06/14/2014	01:03:54.524	$GPGGA,010355,2432.0004,N,08054.8353,W,1,9,1.9,13,M,,M,,*56
06/14/2014	01:03:55.547	$GPGGA,010356,2432.0000,N,08054.8358,W,1,9,1.9,13,M,,M,,*5A
06/14/2014	01:03:56.549	$GPGGA,010357,2431.9996,N,08054.8363,W,1,9,1.9,13,M,,M,,*5F
06/14/2014	01:03:57.562	$GPGGA,010358,2431.9996,N,08054.8363,W,1,9,1.9,13,M,,M,,*50
06/14/2014	01:03:58.535	$GPGGA,010359,2431.9990,N,08054.8371,W,1,9,1.9,13,M,,M,,*54
06/14/2014	01:03:59.567	$GPGGA,010400,2431.9990,N,08054.8371,W,1,9,1.9,13,M,,M,,*5F
06/14/2014	01:04:00.550	$GPGGA,010401,2431.9983,N,08054.8379,W,1,9,1.9,13,M,,M,,*54
06/14/2014	01:04:01.573	$GPGGA,010402,2431.9982,N,08054.8385,W,1,9,1.9,13,M,,M,,*55
06/14/2014	01:04:02.535	$GPGGA,010403,2431.9976,N,08054.8390,W,1,9,1.9,13,M,,M,,*5B
06/14/2014	01:04:03.578	$GPGGA,010404,2431.9972,N,08054.8396,W,1,9,2.0,13,M,,M,,*54
06/14/2014	01:04:04.641	$GPGGA,010405,2431.9971,N,08054.8401,W,1,9,2.0,13,M,,M,,*5F
06/14/2014	01:04:05.523	$GPGGA,010406,2431.9971,N,08054.8401,W,1,9,2.0,13,M,,M,,*5C
06/14/2014	01:04:06.546	$GPGGA,010407,2431.9964,N,08054.8408,W,1,9,2.0,13,M,,M,,*50
06/14/2014	01:04:07.539	$GPGGA,010408,2431.9964,N,08054.8408,W,1,9,2.0,13,M,,M,,*5F
06/14/2014	01:04:08.662	$GPGGA,010409,2431.9957,N,08054.8418,W,1,9,2.0,13,M,,M,,*5F
06/14/2014	01:04:09.529	$GPGGA,010410,2431.9957,N,08054.8418,W,1,9,2.0,13,M,,M,,*57
06/14/2014	01:04:10.517	$GPGGA,010411,2431.9950,N,08054.8426,W,1,9,2.0,13,M,,M,,*5C
06/14/2014	01:04:11.660	$GPGGA,010412,2431.9946,N,08054.8432,W,1,9,2.0,13,M,,M,,*5D
06/14/2014	01:04:12.632	$GPGGA,010413,2431.9943,N,08054.8436,W,1,9,2.0,13,M,,M,,*5D
06/14/2014	01:04:13.554	$GPGGA,010414,2431.9943,N,08054.8436,W,1,9,2.0,13,M,,M,,*5A
06/14/2014	01:04:14.657	$GPGGA,010415,2431.9936,N,08054.8444,W,1,9,2.0,13,M,,M,,*5C
06/14/2014	01:04:15.640	$GPGGA,010416,2431.9935,N,08054.8448,W,1,9,2.0,13,M,,M,,*50
06/14/2014	01:04:16.632	$GPGGA,010417,2431.9932,N,08054.8454,W,1,9,2.0,13,M,,M,,*5B
06/14/2014	01:04:17.635	$GPGGA,010418,2431.9928,N,08054.8457,W,1,9,2.0,13,M,,M,,*5C
06/14/2014	01:04:18.667	$GPGGA,010419,2431.9924,N,08054.8461,W,1,9,2.0,13,M,,M,,*54
06/14/2014	01:04:19.651	$GPGGA,010420,2431.9921,N,08054.8466,W,1,9,2.0,13,M,,M,,*5C
06/14/2014	01:04:20.663	$GPGGA,010421,2431.9919,N,08054.8472,W,1,9,2.0,13,M,,M,,*53
06/14/2014	01:04:21.626	$GPGGA,010422,2431.9915,N,08054.8476,W,1,9,2.0,13,M,,M,,*58
06/14/2014	01:04:22.639	$GPGGA,010423,2431.9912,N,08054.8480,W,1,9,2.0,13,M,,M,,*57
06/14/2014	01:04:23.641	$GPGGA,010424,2431.9910,N,08054.8486,W,1,9,2.0,13,M,,M,,*54
06/14/2014	01:04:24.664	$GPGGA,010425,2431.9907,N,08054.8490,W,1,9,2.0,13,M,,M,,*54
06/14/2014	01:04:25.627	$GPGGA,010426,2431.9904,N,08054.8493,W,1,9,2.0,13,M,,M,,*57
06/14/2014	01:04:26.649	$GPGGA,010427,2431.9900,N,08054.8497,W,1,9,2.0,13,M,,M,,*56
06/14/2014	01:04:27.652	$GPGGA,010428,2431.9897,N,08054.8502,W,1,9,2.0,13,M,,M,,*5B
06/14/2014	01:04:28.655	$GPGGA,010429,2431.9895,N,08054.8506,W,1,9,2.0,13,M,,M,,*5C
06/14/2014	01:04:29.636	$GPGGA,010430,2431.9892,N,08054.8512,W,1,9,2.0,13,M,,M,,*56
06/14/2014	01:04:30.659	$GPGGA,010431,2431.9889,N,08054.8516,W,1,9,2.0,13,M,,M,,*59
06/14/2014	01:04:31.652	$GPGGA,010432,2431.9889,N,08054.8516,W,1,9,2.0,13,M,,M,,*5A
06/14/2014	01:04:32.634	$GPGGA,010433,2431.9881,N,08054.8526,W,1,9,2.0,13,M,,M,,*50
06/14/2014	01:04:33.637	$GPGGA,010434,2431.9878,N,08054.8530,W,1,9,2.0,13,M,,M,,*56
06/14/2014	01:04:34.640	$GPGGA,010435,2431.9875,N,08054.8534,W,1,9,2.0,13,M,,M,,*5E
06/14/2014	01:04:35.653	$GPGGA,010436,2431.9872,N,08054.8538,W,1,9,2.0,13,M,,M,,*56
06/14/2014	01:04:36.635	$GPGGA,010437,2431.9870,N,08054.8542,W,1,9,2.0,13,M,,M,,*58
06/14/2014	01:04:37.648	$GPGGA,010438,2431.9866,N,08054.8548,W,1,9,2.0,12,M,,M,,*5B
06/14/2014	01:04:38.631	$GPGGA,010439,2431.9861,N,08054.8552,W,1,9,2.0,12,M,,M,,*56
06/14/2014	01:04:39.643	$GPGGA,010440,2431.9859,N,08054.8559,W,1,9,2.0,12,M,,M,,*58
06/14/2014	01:04:40.676	$GPGGA,010441,2431.9855,N,08054.8563,W,1,9,2.0,12,M,,M,,*5C
06/14/2014	01:04:41.649	$GPGGA,010442,2431.9852,N,08054.8567,W,1,9,2.0,12,M,,M,,*5C
06/14/2014	01:04:42.683	$GPGGA,010443,2431.9849,N,08054.8571,W,1,9,2.0,12,M,,M,,*50
06/14/2014	01:04:43.664	$GPGGA,010444,2431.9846,N,08054.8576,W,1,9,2.0,12,M,,M,,*5F
06/14/2014	01:04:44.637	$GPGGA,010445,2431.9843,N,08054.8580,W,1,9,2.0,12,M,,M,,*52
06/14/2014	01:04:45.639	$GPGGA,010446,2431.9841,N,08054.8585,W,1,9,2.0,12,M,,M,,*56
06/14/2014	01:04:46.633	$GPGGA,010447,2431.9837,N,08054.8591,W,1,9,2.0,12,M,,M,,*53
06/14/2014	01:04:47.513	$GPGGA,010448,2431.9834,N,08054.8595,W,1,9,2.0,12,M,,M,,*5B
06/14/2014	01:04:48.476	$GPGGA,010449,2431.9830,N,08054.8600,W,1,9,2.0,12,M,,M,,*51
06/14/2014	01:04:49.488	$GPGGA,010450,2431.9827,N,08054.8605,W,1,9,2.0,12,M,,M,,*5A
06/14/2014	01:04:50.481	$GPGGA,010451,2431.9825,N,08054.8609,W,1,9,2.0,12,M,,M,,*55
06/14/2014	01:04:51.514	$GPGGA,010452,2431.9823,N,08054.8614,W,1,9,2.0,12,M,,M,,*5C
06/14/2014	01:04:52.627	$GPGGA,010453,2431.9818,N,08054.8618,W,1,9,2.0,12,M,,M,,*59
06/14/2014	01:04:53.489	$GPGGA,010454,2431.9816,N,08054.8624,W,1,9,2.0,12,M,,M,,*5F
06/14/2014	01:04:54.494	$GPGGA,010455,2431.9812,N,08054.8628,W,1,9,2.0,12,M,,M,,*56
06/14/2014	01:04:55.515	$GPGGA,010456,2431.9809,N,08054.8634,W,1,9,2.0,12,M,,M,,*52
06/14/2014	01:04:56.488	$GPGGA,010457,2431.9807,N,08054.8639,W,1,9,2.0,12,M,,M,,*50
06/14/2014	01:04:57.510	$GPGGA,010458,2431.9803,N,08054.8645,W,1,9,2.0,12,M,,M,,*50
06/14/2014	01:04:58.483	$GPGGA,010459,2431.9800,N,08054.8649,W,1,9,2.0,12,M,,M,,*5E
06/14/2014	01:04:59.626	$GPGGA,010500,2431.9798,N,08054.8654,W,1,9,2.0,12,M,,M,,*51
06/14/2014	01:05:00.622	$GPGGA,010501,2431.9794,N,08054.8658,W,1,9,2.0,12,M,,M,,*50
06/14/2014	01:05:01.591	$GPGGA,010502,2431.9791,N,08054.8663,W,1,9,2.0,12,M,,M,,*5E
06/14/2014	01:05:02.604	$GPGGA,010503,2431.9788,N,08054.8667,W,1,9,2.0,12,M,,M,,*53
06/14/2014	01:05:03.516	$GPGGA,010504,2431.9785,N,08054.8674,W,1,9,2.0,12,M,,M,,*5B
06/14/2014	01:05:04.618	$GPGGA,010505,2431.9782,N,08054.8679,W,1,9,2.0,12,M,,M,,*50
06/14/2014	01:05:05.591	$GPGGA,010506,2431.9778,N,08054.8683,W,1,9,2.0,12,M,,M,,*53
06/14/2014	01:05:06.593	$GPGGA,010507,2431.9774,N,08054.8689,W,1,9,2.0,13,M,,M,,*55
06/14/2014	01:05:07.606	$GPGGA,010508,2431.9772,N,08054.8694,W,1,9,2.0,13,M,,M,,*50
06/14/2014	01:05:08.619	$GPGGA,010509,2431.9769,N,08054.8699,W,1,9,2.0,13,M,,M,,*56
06/14/2014	01:05:09.591	$GPGGA,010510,2431.9765,N,08054.8703,W,1,9,2.0,12,M,,M,,*51
06/14/2014	01:05:10.594	$GPGGA,010511,2431.9762,N,08054.8707,W,1,9,2.0,12,M,,M,,*53
06/14/2014	01:05:11.617	$GPGGA,010512,2431.9758,N,08054.8712,W,1,9,2.0,12,M,,M,,*5D
06/14/2014	01:05:12.630	$GPGGA,010513,2431.9754,N,08054.8718,W,1,9,2.0,12,M,,M,,*5A
06/14/2014	01:05:13.592	$GPGGA,010514,2431.9751,N,08054.8723,W,1,9,2.0,12,M,,M,,*50
06/14/2014	01:05:14.615	$GPGGA,010515,2431.9748,N,08054.8728,W,1,9,2.0,12,M,,M,,*52
06/14/2014	01:05:15.608	$GPGGA,010516,2431.9744,N,08054.8732,W,1,9,2.0,12,M,,M,,*56
06/14/2014	01:05:16.620	$GPGGA,010517,2431.9741,N,08054.8737,W,1,9,2.0,12,M,,M,,*57
06/14/2014	01:05:17.613	$GPGGA,010518,2431.9740,N,08054.8743,W,1,9,2.0,12,M,,M,,*5A
06/14/2014	01:05:18.596	$GPGGA,010519,2431.9735,N,08054.8747,W,1,9,2.0,12,M,,M,,*5D
06/14/2014	01:05:19.618	$GPGGA,010520,2431.9730,N,08054.8753,W,1,9,2.0,12,M,,M,,*57
06/14/2014	01:05:20.621	$GPGGA,010521,2431.9727,N,08054.8757,W,1,9,2.0,12,M,,M,,*54
06/14/2014	01:05:21.594	$GPGGA,010522,2431.9724,N,08054.8762,W,1,9,2.0,12,M,,M,,*52
06/14/2014	01:05:22.646	$GPGGA,010523,2431.9722,N,08054.8766,W,1,9,2.0,12,M,,M,,*51
06/14/2014	01:05:23.619	$GPGGA,010524,2431.9718,N,08054.8770,W,1,9,2.0,12,M,,M,,*58
06/14/2014	01:05:24.601	$GPGGA,010525,2431.9715,N,08054.8776,W,1,9,2.0,12,M,,M,,*52
06/14/2014	01:05:25.614	$GPGGA,010526,2431.9711,N,08054.8783,W,1,9,2.0,12,M,,M,,*5F
06/14/2014	01:05:26.616	$GPGGA,010527,2431.9706,N,08054.8787,W,1,9,2.0,12,M,,M,,*5C
06/14/2014	01:05:27.629	$GPGGA,010528,2431.9702,N,08054.8793,W,1,9,2.0,12,M,,M,,*52
06/14/2014	01:05:28.632	$GPGGA,010529,2431.9699,N,08054.8797,W,1,9,2.0,12,M,,M,,*54
06/14/2014	01:05:29.614	$GPGGA,010530,2431.9697,N,08054.8800,W,1,9,2.0,12,M,,M,,*53
06/14/2014	01:05:30.617	$GPGGA,010531,2431.9693,N,08054.8804,W,1,9,2.0,12,M,,M,,*52
06/14/2014	01:05:31.620	$GPGGA,010532,2431.9690,N,08054.8808,W,1,9,2.0,12,M,,M,,*5E
06/14/2014	01:05:32.733	$GPGGA,010533,2431.9686,N,08054.8815,W,1,9,2.0,12,M,,M,,*54
06/14/2014	01:05:33.605	$GPGGA,010534,2431.9682,N,08054.8820,W,1,9,2.0,12,M,,M,,*51
06/14/2014	01:05:34.608	$GPGGA,010535,2431.9677,N,08054.8826,W,1,9,2.0,12,M,,M,,*5C
06/14/2014	01:05:35.631	$GPGGA,010536,2431.9675,N,08054.8833,W,1,9,2.0,12,M,,M,,*59
06/14/2014	01:05:36.705	$GPGGA,010537,2431.9671,N,08054.8835,W,1,9,2.0,12,M,,M,,*5A
06/14/2014	01:05:37.717	$GPGGA,010538,2431.9668,N,08054.8838,W,1,9,2.0,12,M,,M,,*50
06/14/2014	01:05:38.721	$GPGGA,010539,2431.9665,N,08054.8841,W,1,9,2.0,12,M,,M,,*52
06/14/2014	01:05:39.620	$GPGGA,010540,2431.9662,N,08054.8847,W,1,9,2.0,12,M,,M,,*5D
06/14/2014	01:05:40.633	$GPGGA,010541,2431.9658,N,08054.8852,W,1,9,2.0,12,M,,M,,*51
06/14/2014	01:05:41.620	$GPGGA,010542,2431.9654,N,08054.8858,W,1,9,2.0,12,M,,M,,*54
06/14/2014	01:05:42.608	$GPGGA,010543,2431.9650,N,08054.8863,W,1,9,2.0,12,M,,M,,*59
06/14/2014	01:05:43.741	$GPGGA,010544,2431.9647,N,08054.8869,W,1,9,2.0,12,M,,M,,*52
06/14/2014	01:05:44.634	$GPGGA,010545,2431.9644,N,08054.8873,W,1,9,2.0,12,M,,M,,*5B
06/14/2014	01:05:45.606	$GPGGA,010546,2431.9641,N,08054.8876,W,1,9,2.0,12,M,,M,,*58
06/14/2014	01:05:46.729	$GPGGA,010547,2431.9639,N,08054.8880,W,1,9,2.0,12,M,,M,,*5F
06/14/2014	01:05:47.592	$GPGGA,010548,2431.9635,N,08054.8884,W,1,9,2.0,12,M,,M,,*58
06/14/2014	01:05:48.555	$GPGGA,010549,2431.9632,N,08054.8891,W,1,9,2.0,12,M,,M,,*5A
06/14/2014	01:05:49.457	$GPGGA,010550,2431.9628,N,08054.8895,W,1,9,2.0,12,M,,M,,*5D
06/14/2014	01:05:50.460	$GPGGA,010551,2431.9624,N,08054.8900,W,1,9,2.0,12,M,,M,,*5D
06/14/2014	01:05:51.573	$GPGGA,010552,2431.9621,N,08054.8907,W,1,9,2.0,12,M,,M,,*5C
06/14/2014	01:05:52.566	$GPGGA,010553,2431.9619,N,08054.8913,W,1,9,2.0,12,M,,M,,*53
06/14/2014	01:05:53.558	$GPGGA,010554,2431.9614,N,08054.8916,W,1,9,2.0,12,M,,M,,*5C
06/14/2014	01:05:54.561	$GPGGA,010555,2431.9610,N,08054.8920,W,1,9,2.0,12,M,,M,,*5C
06/14/2014	01:05:55.574	$GPGGA,010556,2431.9608,N,08054.8923,W,1,9,2.0,12,M,,M,,*55
06/14/2014	01:05:56.587	$GPGGA,010557,2431.9605,N,08054.8927,W,1,9,2.0,12,M,,M,,*5D
06/14/2014	01:05:57.568	$GPGGA,010558,2431.9603,N,08054.8931,W,1,9,2.0,12,M,,M,,*53
06/14/2014	01:05:58.581	$GPGGA,010559,2431.9599,N,08054.8938,W,1,9,2.0,12,M,,M,,*5B
06/14/2014	01:05:59.583	$GPGGA,010600,2431.9594,N,08054.8942,W,1,9,2.0,12,M,,M,,*54
06/14/2014	01:06:00.586	$GPGGA,010601,2431.9592,N,08054.8947,W,1,9,2.0,12,M,,M,,*56
06/14/2014	01:06:01.569	$GPGGA,010602,2431.9589,N,08054.8953,W,1,9,2.0,12,M,,M,,*5A
06/14/2014	01:06:02.602	$GPGGA,010603,2431.9585,N,08054.8957,W,1,9,2.0,12,M,,M,,*53
06/14/2014	01:06:03.617	$GPGGA,010604,2431.9581,N,08054.8961,W,1,9,2.0,12,M,,M,,*55
06/14/2014	01:06:04.577	$GPGGA,010605,2431.9579,N,08054.8965,W,1,9,2.0,12,M,,M,,*57
06/14/2014	01:06:05.571	$GPGGA,010606,2431.9578,N,08054.8970,W,1,9,2.0,12,M,,M,,*51
06/14/2014	01:06:06.582	$GPGGA,010607,2431.9574,N,08054.8974,W,1,9,2.0,12,M,,M,,*58
06/14/2014	01:06:07.575	$GPGGA,010608,2431.9570,N,08054.8981,W,1,9,2.0,12,M,,M,,*59
06/14/2014	01:06:08.588	$GPGGA,010609,2431.9566,N,08054.8986,W,1,9,2.0,12,M,,M,,*58
06/14/2014	01:06:09.570	$GPGGA,010610,2431.9563,N,08054.8993,W,1,9,2.0,12,M,,M,,*51
06/14/2014	01:06:10.563	$GPGGA,010611,2431.9558,N,08054.8999,W,1,9,2.0,12,M,,M,,*52
06/14/2014	01:06:11.586	$GPGGA,010612,2431.9556,N,08054.9001,W,1,9,2.0,12,M,,M,,*56
06/14/2014	01:06:12.568	$GPGGA,010613,2431.9552,N,08054.9006,W,1,9,2.0,12,M,,M,,*54
06/14/2014	01:06:13.581	$GPGGA,010614,2431.9549,N,08054.9010,W,1,9,2.0,12,M,,M,,*5E
06/14/2014	01:06:14.603	$GPGGA,010615,2431.9546,N,08054.9014,W,1,9,2.0,12,M,,M,,*54
06/14/2014	01:06:15.586	$GPGGA,010616,2431.9543,N,08054.9019,W,1,9,2.0,12,M,,M,,*5F
06/14/2014	01:06:16.578	$GPGGA,010617,2431.9539,N,08054.9025,W,1,9,2.0,12,M,,M,,*5C
06/14/2014	01:06:17.581	$GPGGA,010618,2431.9535,N,08054.9030,W,1,9,2.0,12,M,,M,,*5B
06/14/2014	01:06:18.584	$GPGGA,010619,2431.9532,N,08054.9035,W,1,9,2.0,12,M,,M,,*58
06/14/2014	01:06:19.586	$GPGGA,010620,2431.9530,N,08054.9040,W,1,9,2.0,12,M,,M,,*52
06/14/2014	01:06:20.679	$GPGGA,010621,2431.9527,N,08054.9043,W,1,9,2.0,12,M,,M,,*56
06/14/2014	01:06:21.576	$GPGGA,010622,2431.9523,N,08054.9047,W,1,9,2.0,12,M,,M,,*55
06/14/2014	01:06:22.564	$GPGGA,010623,2431.9520,N,08054.9053,W,1,9,2.0,12,M,,M,,*52
06/14/2014	01:06:23.597	$GPGGA,010624,2431.9517,N,08054.9057,W,1,9,2.0,12,M,,M,,*55
06/14/2014	01:06:24.577	$GPGGA,010625,2431.9514,N,08054.9062,W,1,9,2.0,12,M,,M,,*51
06/14/2014	01:06:25.582	$GPGGA,010626,2431.9509,N,08054.9068,W,1,9,2.0,12,M,,M,,*54
06/14/2014	01:06:26.574	$GPGGA,010627,2431.9509,N,08054.9073,W,1,9,2.0,12,M,,M,,*5F
06/14/2014	01:06:27.597	$GPGGA,010628,2431.9505,N,08054.9079,W,1,9,2.0,12,M,,M,,*56
06/14/2014	01:06:28.582	$GPGGA,010629,2431.9500,N,08054.9083,W,1,9,2.0,12,M,,M,,*57
06/14/2014	01:06:29.672	$GPGGA,010630,2431.9496,N,08054.9087,W,1,9,2.0,12,M,,M,,*55
06/14/2014	01:06:30.695	$GPGGA,010631,2431.9494,N,08054.9091,W,1,9,2.0,12,M,,M,,*51
06/14/2014	01:06:31.577	$GPGGA,010632,2431.9492,N,08054.9097,W,1,9,2.0,12,M,,M,,*52
06/14/2014	01:06:32.719	$GPGGA,010633,2431.9488,N,08054.9100,W,1,9,2.0,12,M,,M,,*57
06/14/2014	01:06:33.590	$GPGGA,010634,2431.9483,N,08054.9105,W,1,9,2.0,12,M,,M,,*5E
06/14/2014	01:06:34.700	$GPGGA,010635,2431.9480,N,08054.9111,W,1,9,2.0,12,M,,M,,*59
06/14/2014	01:06:35.597	$GPGGA,010636,2431.9477,N,08054.9118,W,1,9,2.0,13,M,,M,,*5A
06/14/2014	01:06:36.710	$GPGGA,010637,2431.9473,N,08054.9122,W,1,9,2.0,13,M,,M,,*56
06/14/2014	01:06:37.592	$GPGGA,010638,2431.9469,N,08054.9124,W,1,9,2.0,13,M,,M,,*54
06/14/2014	01:06:38.708	$GPGGA,010639,2431.9466,N,08054.9127,W,1,9,2.0,13,M,,M,,*59
06/14/2014	01:06:39.687	$GPGGA,010640,2431.9462,N,08054.9133,W,1,9,2.0,13,M,,M,,*56
06/14/2014	01:06:40.700	$GPGGA,010641,2431.9460,N,08054.9137,W,1,9,2.0,13,M,,M,,*51
06/14/2014	01:06:41.683	$GPGGA,010642,2431.9456,N,08054.9142,W,1,9,2.0,12,M,,M,,*54
06/14/2014	01:06:42.719	$GPGGA,010643,2431.9451,N,08054.9147,W,1,9,2.0,13,M,,M,,*56
06/14/2014	01:06:43.698	$GPGGA,010644,2431.9448,N,08054.9152,W,1,9,2.0,13,M,,M,,*5D
06/14/2014	01:06:44.710	$GPGGA,010645,2431.9446,N,08054.9158,W,1,9,2.0,13,M,,M,,*58
06/14/2014	01:06:45.693	$GPGGA,010646,2431.9442,N,08054.9160,W,1,9,2.0,12,M,,M,,*55
06/14/2014	01:06:46.707	$GPGGA,010647,2431.9440,N,08054.9163,W,1,9,2.0,12,M,,M,,*55
06/14/2014	01:06:47.553	$GPGGA,010648,2431.9436,N,08054.9169,W,1,9,2.0,12,M,,M,,*51
06/14/2014	01:06:48.554	$GPGGA,010649,2431.9433,N,08054.9173,W,1,9,2.0,12,M,,M,,*5E
06/14/2014	01:06:49.535	$GPGGA,010650,2431.9430,N,08054.9178,W,1,9,2.0,12,M,,M,,*5E
06/14/2014	01:06:50.548	$GPGGA,010651,2431.9426,N,08054.9181,W,1,9,2.0,12,M,,M,,*5E
06/14/2014	01:06:51.550	$GPGGA,010652,2431.9422,N,08054.9185,W,1,9,2.0,12,M,,M,,*5D
06/14/2014	01:06:52.573	$GPGGA,010653,2431.9420,N,08054.9189,W,1,9,2.0,12,M,,M,,*52
06/14/2014	01:06:53.536	$GPGGA,010654,2431.9417,N,08054.9194,W,1,9,2.0,12,M,,M,,*5D
06/14/2014	01:06:54.538	$GPGGA,010655,2431.9413,N,08054.9198,W,1,9,2.0,12,M,,M,,*54
06/14/2014	01:06:55.551	$GPGGA,010656,2431.9409,N,08054.9202,W,1,9,2.0,12,M,,M,,*5C
06/14/2014	01:06:57.355	$GPGGA,010657,2431.9408,N,08054.9209,W,1,9,2.0,12,M,,M,,*57
06/14/2014	01:06:57.546	$GPGGA,010658,2431.9404,N,08054.9212,W,1,9,2.0,12,M,,M,,*5E
06/14/2014	01:06:58.529	$GPGGA,010659,2431.9401,N,08054.9216,W,1,9,2.0,12,M,,M,,*5E
06/14/2014	01:06:59.571	$GPGGA,010700,2431.9399,N,08054.9220,W,1,9,2.0,12,M,,M,,*50
06/14/2014	01:07:00.534	$GPGGA,010701,2431.9397,N,08054.9223,W,1,9,2.0,12,M,,M,,*5C
06/14/2014	01:07:01.546	$GPGGA,010702,2431.9393,N,08054.9228,W,1,9,2.0,12,M,,M,,*50
06/14/2014	01:07:02.579	$GPGGA,010703,2431.9391,N,08054.9234,W,1,9,2.0,12,M,,M,,*5E
06/14/2014	01:07:03.552	$GPGGA,010704,2431.9388,N,08054.9239,W,1,9,2.0,12,M,,M,,*5C
06/14/2014	01:07:04.564	$GPGGA,010705,2431.9386,N,08054.9243,W,1,9,2.0,12,M,,M,,*5E
06/14/2014	01:07:05.537	$GPGGA,010706,2431.9382,N,08054.9248,W,1,9,2.0,12,M,,M,,*52
06/14/2014	01:07:06.539	$GPGGA,010707,2431.9381,N,08054.9252,W,1,9,2.0,12,M,,M,,*5B
06/14/2014	01:07:07.561	$GPGGA,010708,2431.9380,N,08054.9256,W,1,9,2.0,12,M,,M,,*51
06/14/2014	01:07:08.584	$GPGGA,010709,2431.9375,N,08054.9260,W,1,9,2.0,12,M,,M,,*5F
06/14/2014	01:07:09.526	$GPGGA,010710,2431.9372,N,08054.9264,W,1,9,2.0,12,M,,M,,*54
06/14/2014	01:07:10.549	$GPGGA,010711,2431.9371,N,08054.9271,W,1,9,2.0,12,M,,M,,*52
06/14/2014	01:07:11.561	$GPGGA,010712,2431.9368,N,08054.9277,W,1,9,2.0,12,M,,M,,*5F
06/14/2014	01:07:12.544	$GPGGA,010713,2431.9364,N,08054.9279,W,1,9,2.0,12,M,,M,,*5C
06/14/2014	01:07:13.546	$GPGGA,010714,2431.9361,N,08054.9282,W,1,9,2.0,12,M,,M,,*5A
06/14/2014	01:07:14.559	$GPGGA,010715,2431.9361,N,08054.9286,W,1,9,2.0,12,M,,M,,*5F
06/14/2014	01:07:15.552	$GPGGA,010716,2431.9357,N,08054.9290,W,1,9,2.0,12,M,,M,,*5E
06/14/2014	01:07:16.554	$GPGGA,010717,2431.9352,N,08054.9296,W,1,9,2.0,12,M,,M,,*5C
06/14/2014	01:07:17.647	$GPGGA,010718,2431.9350,N,08054.9301,W,1,9,2.0,12,M,,M,,*5E
06/14/2014	01:07:18.670	$GPGGA,010719,2431.9347,N,08054.9306,W,1,9,2.0,12,M,,M,,*5E
06/14/2014	01:07:19.562	$GPGGA,010720,2431.9343,N,08054.9310,W,1,9,2.0,12,M,,M,,*57
06/14/2014	01:07:20.665	$GPGGA,010721,2431.9340,N,08054.9314,W,1,9,2.0,12,M,,M,,*51
06/14/2014	01:07:21.549	$GPGGA,010722,2431.9339,N,08054.9317,W,1,9,2.0,12,M,,M,,*5F
06/14/2014	01:07:22.551	$GPGGA,010723,2431.9334,N,08054.9321,W,1,9,2.0,12,M,,M,,*56
06/14/2014	01:07:23.563	$GPGGA,010724,2431.9332,N,08054.9326,W,1,9,2.0,12,M,,M,,*50
06/14/2014	01:07:24.555	$GPGGA,010725,2431.9328,N,08054.9332,W,1,9,2.0,12,M,,M,,*5F
06/14/2014	01:07:25.647	$GPGGA,010726,2431.9324,N,08054.9336,W,1,9,2.0,12,M,,M,,*54
06/14/2014	01:07:26.649	$GPGGA,010727,2431.9321,N,08054.9342,W,1,9,2.0,12,M,,M,,*53
06/14/2014	01:07:27.675	$GPGGA,010728,2431.9317,N,08054.9346,W,1,9,2.0,12,M,,M,,*5D
06/14/2014	01:07:28.690	$GPGGA,010729,2431.9315,N,08054.9350,W,1,9,2.0,12,M,,M,,*59
06/14/2014	01:07:29.647	$GPGGA,010730,2431.9311,N,08054.9354,W,1,9,2.0,12,M,,M,,*51
06/14/2014	01:07:30.674	$GPGGA,010731,2431.9307,N,08054.9358,W,1,9,2.0,11,M,,M,,*58
06/14/2014	01:07:31.662	$GPGGA,010732,2431.9304,N,08054.9364,W,1,9,2.0,11,M,,M,,*57
06/14/2014	01:07:32.676	$GPGGA,010733,2431.9301,N,08054.9369,W,1,9,2.0,11,M,,M,,*5E
06/14/2014	01:07:33.658	$GPGGA,010734,2431.9296,N,08054.9375,W,1,9,2.0,11,M,,M,,*5B
06/14/2014	01:07:34.670	$GPGGA,010735,2431.9292,N,08054.9379,W,1,9,2.0,11,M,,M,,*52
06/14/2014	01:07:35.673	$GPGGA,010736,2431.9290,N,08054.9384,W,1,9,2.0,11,M,,M,,*51
06/14/2014	01:07:36.665	$GPGGA,010737,2431.9286,N,08054.9389,W,1,9,2.0,11,M,,M,,*5A
06/14/2014	01:07:37.668	$GPGGA,010738,2431.9282,N,08054.9393,W,1,9,2.0,11,M,,M,,*5A
06/14/2014	01:07:38.672	$GPGGA,010739,2431.9279,N,08054.9397,W,1,9,2.0,11,M,,M,,*5B
06/14/2014	01:07:39.653	$GPGGA,010740,2431.9275,N,08054.9401,W,1,9,2.0,11,M,,M,,*51
06/14/2014	01:07:40.676	$GPGGA,010741,2431.9271,N,08054.9407,W,1,9,2.0,11,M,,M,,*52
06/14/2014	01:07:41.659	$GPGGA,010742,2431.9267,N,08054.9411,W,1,9,2.0,11,M,,M,,*51
06/14/2014	01:07:42.700	$GPGGA,010743,2431.9263,N,08054.9416,W,1,9,2.0,11,M,,M,,*53
06/14/2014	01:07:43.663	$GPGGA,010744,2431.9259,N,08054.9422,W,1,9,2.0,11,M,,M,,*5A
06/14/2014	01:07:44.665	$GPGGA,010745,2431.9256,N,08054.9426,W,1,9,2.0,11,M,,M,,*50
06/14/2014	01:07:45.658	$GPGGA,010746,2431.9252,N,08054.9431,W,1,9,2.0,11,M,,M,,*51
06/14/2014	01:07:46.650	$GPGGA,010747,2431.9249,N,08054.9436,W,1,9,2.0,11,M,,M,,*5D
06/14/2014	01:07:47.529	$GPGGA,010748,2431.9245,N,08054.9440,W,1,9,2.0,11,M,,M,,*5F
06/14/2014	01:07:48.923	$GPGGA,010749,2431.9239,N,08054.9444,W,1,9,2.0,11,M,,M,,*51
06/14/2014	01:07:49.494	$GPGGA,010750,2431.9236,N,08054.9449,W,1,9,2.0,11,M,,M,,*5B
06/14/2014	01:07:50.500	$GPGGA,010751,2431.9234,N,08054.9454,W,1,9,2.0,11,M,,M,,*54
06/14/2014	01:07:51.529	$GPGGA,010752,2431.9227,N,08054.9459,W,1,9,2.0,11,M,,M,,*58
06/14/2014	01:07:52.552	$GPGGA,010753,2431.9222,N,08054.9465,W,1,9,2.0,11,M,,M,,*53
06/14/2014	01:07:53.525	$GPGGA,010754,2431.9220,N,08054.9470,W,1,9,2.0,11,M,,M,,*52
06/14/2014	01:07:54.517	$GPGGA,010755,2431.9216,N,08054.9476,W,1,9,2.0,11,M,,M,,*50
06/14/2014	01:07:55.520	$GPGGA,010756,2431.9210,N,08054.9480,W,1,9,2.0,11,M,,M,,*5C
06/14/2014	01:07:56.503	$GPGGA,010757,2431.9206,N,08054.9483,W,1,9,2.0,11,M,,M,,*59
06/14/2014	01:07:57.525	$GPGGA,010758,2431.9203,N,08054.9488,W,1,9,2.0,11,M,,M,,*58
06/14/2014	01:07:58.628	$GPGGA,010759,2431.9200,N,08054.9494,W,1,9,2.0,11,M,,M,,*57
06/14/2014	01:07:59.549	$GPGGA,010800,2431.9195,N,08054.9498,W,1,9,2.0,11,M,,M,,*57
06/14/2014	01:08:00.516	$GPGGA,010801,2431.9191,N,08054.9505,W,1,9,2.0,11,M,,M,,*57
06/14/2014	01:08:01.522	$GPGGA,010802,2431.9187,N,08054.9509,W,1,9,2.0,11,M,,M,,*5F
06/14/2014	01:08:02.509	$GPGGA,010803,2431.9184,N,08054.9514,W,1,9,2.0,11,M,,M,,*51
06/14/2014	01:08:03.614	$GPGGA,010804,2431.9180,N,08054.9519,W,1,9,2.0,11,M,,M,,*5F
06/14/2014	01:08:04.523	$GPGGA,010805,2431.9176,N,08054.9523,W,1,9,2.0,11,M,,M,,*5E
06/14/2014	01:08:05.617	$GPGGA,010806,2431.9173,N,08054.9528,W,1,9,2.0,11,M,,M,,*53
06/14/2014	01:08:06.629	$GPGGA,010807,2431.9169,N,08054.9532,W,1,9,2.0,11,M,,M,,*52
06/14/2014	01:08:07.550	$GPGGA,010808,2431.9166,N,08054.9538,W,1,9,2.0,11,M,,M,,*58
06/14/2014	01:08:08.524	$GPGGA,010809,2431.9163,N,08054.9543,W,1,9,2.0,11,M,,M,,*50
06/14/2014	01:08:09.615	$GPGGA,010810,2431.9158,N,08054.9548,W,1,9,2.0,11,M,,M,,*5B
06/14/2014	01:08:10.648	$GPGGA,010811,2431.9155,N,08054.9555,W,1,9,2.0,11,M,,M,,*5B
06/14/2014	01:08:11.620	$GPGGA,010812,2431.9152,N,08054.9559,W,1,9,2.0,11,M,,M,,*53
06/14/2014	01:08:12.623	$GPGGA,010813,2431.9148,N,08054.9564,W,1,9,2.0,11,M,,M,,*57
06/14/2014	01:08:13.617	$GPGGA,010814,2431.9144,N,08054.9568,W,1,9,2.0,11,M,,M,,*50
06/14/2014	01:08:14.642	$GPGGA,010815,2431.9141,N,08054.9574,W,1,9,2.0,11,M,,M,,*59
06/14/2014	01:08:15.631	$GPGGA,010816,2431.9138,N,08054.9579,W,1,9,2.0,11,M,,M,,*59
06/14/2014	01:08:16.602	$GPGGA,010817,2431.9134,N,08054.9584,W,1,9,2.0,11,M,,M,,*56
06/14/2014	01:08:17.626	$GPGGA,010818,2431.9130,N,08054.9589,W,1,9,2.0,11,M,,M,,*50
06/14/2014	01:08:18.638	$GPGGA,010819,2431.9127,N,08054.9595,W,1,9,2.0,11,M,,M,,*5A
06/14/2014	01:08:19.630	$GPGGA,010820,2431.9123,N,08054.9602,W,1,9,2.0,11,M,,M,,*59
06/14/2014	01:08:20.633	$GPGGA,010821,2431.9120,N,08054.9606,W,1,9,2.0,11,M,,M,,*5F
06/14/2014	01:08:21.615	$GPGGA,010822,2431.9117,N,08054.9613,W,1,9,2.0,11,M,,M,,*5C
06/14/2014	01:08:22.648	$GPGGA,010823,2431.9113,N,08054.9617,W,1,9,2.0,11,M,,M,,*5D
06/14/2014	01:08:23.631	$GPGGA,010824,2431.9109,N,08054.9621,W,1,9,2.0,11,M,,M,,*54
06/14/2014	01:08:24.633	$GPGGA,010825,2431.9108,N,08054.9626,W,1,9,2.0,11,M,,M,,*53
06/14/2014	01:08:25.616	$GPGGA,010826,2431.9104,N,08054.9632,W,1,9,2.0,11,M,,M,,*59
06/14/2014	01:08:26.648	$GPGGA,010827,2431.9100,N,08054.9637,W,1,9,2.0,11,M,,M,,*59
06/14/2014	01:08:27.641	$GPGGA,010828,2431.9097,N,08054.9643,W,1,9,2.0,11,M,,M,,*5A
06/14/2014	01:08:28.654	$GPGGA,010829,2431.9092,N,08054.9650,W,1,9,2.0,11,M,,M,,*5C
06/14/2014	01:08:29.626	$GPGGA,010830,2431.9090,N,08054.9655,W,1,9,2.0,11,M,,M,,*53
06/14/2014	01:08:30.649	$GPGGA,010831,2431.9086,N,08054.9661,W,1,9,2.0,11,M,,M,,*52
06/14/2014	01:08:31.641	$GPGGA,010832,2431.9082,N,08054.9665,W,1,9,2.0,11,M,,M,,*51
06/14/2014	01:08:32.614	$GPGGA,010833,2431.9079,N,08054.9669,W,1,9,2.0,11,M,,M,,*58
06/14/2014	01:08:33.627	$GPGGA,010834,2431.9076,N,08054.9675,W,1,9,2.0,11,M,,M,,*5D
06/14/2014	01:08:34.648	$GPGGA,010835,2431.9073,N,08054.9682,W,1,9,2.0,11,M,,M,,*51
06/14/2014	01:08:35.641	$GPGGA,010836,2431.9068,N,08054.9686,W,1,9,2.0,11,M,,M,,*5C
06/14/2014	01:08:36.633	$GPGGA,010837,2431.9064,N,08054.9693,W,1,9,2.0,11,M,,M,,*55
06/14/2014	01:08:37.616	$GPGGA,010838,2431.9061,N,08054.9698,W,1,9,2.0,11,M,,M,,*54
06/14/2014	01:08:38.629	$GPGGA,010839,2431.9058,N,08054.9704,W,1,9,2.0,11,M,,M,,*5B
06/14/2014	01:08:39.641	$GPGGA,010840,2431.9054,N,08054.9708,W,1,9,2.0,11,M,,M,,*55
06/14/2014	01:08:40.621	$GPGGA,010841,2431.9050,N,08054.9712,W,1,9,2.0,11,M,,M,,*5B
06/14/2014	01:08:41.620	$GPGGA,010842,2431.9045,N,08054.9718,W,1,9,2.0,11,M,,M,,*56
06/14/2014	01:08:42.649	$GPGGA,010843,2431.9043,N,08054.9723,W,1,9,2.0,11,M,,M,,*59
06/14/2014	01:08:43.631	$GPGGA,010844,2431.9039,N,08054.9729,W,1,9,2.0,11,M,,M,,*59
06/14/2014	01:08:44.722	$GPGGA,010845,2431.9033,N,08054.9733,W,1,9,2.0,11,M,,M,,*59
06/14/2014	01:08:45.627	$GPGGA,010846,2431.9030,N,08054.9740,W,1,9,2.0,11,M,,M,,*5D
06/14/2014	01:08:46.649	$GPGGA,010847,2431.9026,N,08054.9744,W,1,9,2.0,11,M,,M,,*5F
06/14/2014	01:08:47.498	$GPGGA,010848,2431.9022,N,08054.9749,W,1,9,2.0,11,M,,M,,*59
06/14/2014	01:08:48.490	$GPGGA,010849,2431.9018,N,08054.9754,W,1,9,2.0,11,M,,M,,*5D
06/14/2014	01:08:49.579	$GPGGA,010850,2431.9014,N,08054.9759,W,1,9,2.0,11,M,,M,,*54
06/14/2014	01:08:50.468	$GPGGA,010851,2431.9010,N,08054.9765,W,1,9,2.0,11,M,,M,,*5E
06/14/2014	01:08:51.577	$GPGGA,010852,2431.9007,N,08054.9770,W,1,9,2.0,11,M,,M,,*5F
06/14/2014	01:08:52.600	$GPGGA,010853,2431.9003,N,08054.9774,W,1,9,2.0,11,M,,M,,*5E
06/14/2014	01:08:53.573	$GPGGA,010854,2431.8998,N,08054.9780,W,1,9,2.0,11,M,,M,,*58
06/14/2014	01:08:54.478	$GPGGA,010855,2431.8996,N,08054.9785,W,1,9,2.0,11,M,,M,,*52
06/14/2014	01:08:55.592	$GPGGA,010856,2431.8990,N,08054.9790,W,1,9,2.0,11,M,,M,,*53
06/14/2014	01:08:56.480	$GPGGA,010857,2431.8986,N,08054.9794,W,1,9,2.0,11,M,,M,,*51
06/14/2014	01:08:57.593	$GPGGA,010858,2431.8982,N,08054.9801,W,1,9,2.0,11,M,,M,,*59
06/14/2014	01:08:58.591	$GPGGA,010859,2431.8979,N,08054.9806,W,1,9,2.0,11,M,,M,,*5B
06/14/2014	01:08:59.600	$GPGGA,010900,2431.8974,N,08054.9812,W,1,9,2.0,11,M,,M,,*5E
06/14/2014	01:09:00.611	$GPGGA,010901,2431.8969,N,08054.9816,W,1,9,2.0,11,M,,M,,*57
06/14/2014	01:09:01.573	$GPGGA,010902,2431.8967,N,08054.9820,W,1,9,2.0,11,M,,M,,*5F
06/14/2014	01:09:02.616	$GPGGA,010903,2431.8963,N,08054.9827,W,1,9,2.0,11,M,,M,,*5D
06/14/2014	01:09:03.599	$GPGGA,010904,2431.8960,N,08054.9830,W,1,9,2.0,11,M,,M,,*5F
06/14/2014	01:09:04.591	$GPGGA,010905,2431.8954,N,08054.9835,W,1,9,2.0,11,M,,M,,*5C
06/14/2014	01:09:05.584	$GPGGA,010906,2431.8951,N,08054.9841,W,1,9,2.0,11,M,,M,,*59
06/14/2014	01:09:06.610	$GPGGA,010907,2431.8949,N,08054.9848,W,1,9,2.0,11,M,,M,,*58
06/14/2014	01:09:07.611	$GPGGA,010908,2431.8943,N,08054.9852,W,1,9,2.0,11,M,,M,,*56
06/14/2014	01:09:08.572	$GPGGA,010909,2431.8938,N,08054.9857,W,1,9,2.0,11,M,,M,,*5E
06/14/2014	01:09:09.583	$GPGGA,010910,2431.8936,N,08054.9863,W,1,9,2.0,11,M,,M,,*5F
06/14/2014	01:09:10.606	$GPGGA,010911,2431.8933,N,08054.9867,W,1,9,2.0,11,M,,M,,*5F
06/14/2014	01:09:11.588	$GPGGA,010912,2431.8928,N,08054.9870,W,1,9,2.0,11,M,,M,,*50
06/14/2014	01:09:12.611	$GPGGA,010913,2431.8924,N,08054.9875,W,1,9,2.0,11,M,,M,,*58
06/14/2014	01:09:13.584	$GPGGA,010914,2431.8922,N,08054.9882,W,1,9,2.0,11,M,,M,,*51
06/14/2014	01:09:14.606	$GPGGA,010915,2431.8918,N,08054.9888,W,1,9,2.0,11,M,,M,,*53
06/14/2014	01:09:15.589	$GPGGA,010916,2431.8913,N,08054.9893,W,1,9,2.0,11,M,,M,,*51
06/14/2014	01:09:16.611	$GPGGA,010917,2431.8909,N,08054.9899,W,1,9,2.0,11,M,,M,,*51
06/14/2014	01:09:17.594	$GPGGA,010918,2431.8907,N,08054.9903,W,1,9,2.0,11,M,,M,,*52
06/14/2014	01:09:18.577	$GPGGA,010919,2431.8903,N,08054.9908,W,1,9,2.0,11,M,,M,,*5C
06/14/2014	01:09:19.609	$GPGGA,010920,2431.8898,N,08054.9913,W,1,9,2.0,11,M,,M,,*5F
06/14/2014	01:09:20.602	$GPGGA,010921,2431.8895,N,08054.9917,W,1,9,2.0,11,M,,M,,*57
06/14/2014	01:09:21.594	$GPGGA,010922,2431.8892,N,08054.9922,W,1,9,2.0,11,M,,M,,*55
06/14/2014	01:09:22.627	$GPGGA,010923,2431.8887,N,08054.9928,W,1,9,2.0,11,M,,M,,*5A
06/14/2014	01:09:23.611	$GPGGA,010924,2431.8884,N,08054.9933,W,1,9,2.0,11,M,,M,,*54
06/14/2014	01:09:24.592	$GPGGA,010925,2431.8882,N,08054.9939,W,1,9,2.0,11,M,,M,,*59
06/14/2014	01:09:25.605	$GPGGA,010926,2431.8878,N,08054.9944,W,1,9,2.0,11,M,,M,,*55
06/14/2014	01:09:26.707	$GPGGA,010927,2431.8875,N,08054.9949,W,1,9,2.0,11,M,,M,,*54
06/14/2014	01:09:27.619	$GPGGA,010928,2431.8873,N,08054.9953,W,1,9,2.0,11,M,,M,,*56
06/14/2014	01:09:28.722	$GPGGA,010929,2431.8871,N,08054.9958,W,1,9,2.0,11,M,,M,,*5E
06/14/2014	01:09:29.594	$GPGGA,010930,2431.8868,N,08054.9964,W,1,9,2.0,11,M,,M,,*51
06/14/2014	01:09:30.627	$GPGGA,010931,2431.8864,N,08054.9969,W,1,9,2.0,11,M,,M,,*51
06/14/2014	01:09:31.609	$GPGGA,010932,2431.8862,N,08054.9975,W,1,9,2.0,11,M,,M,,*59
06/14/2014	01:09:32.732	$GPGGA,010933,2431.8858,N,08054.9980,W,1,9,2.0,11,M,,M,,*5B
06/14/2014	01:09:33.604	$GPGGA,010934,2431.8855,N,08054.9986,W,1,9,2.0,11,M,,M,,*57
06/14/2014	01:09:34.607	$GPGGA,010935,2431.8852,N,08054.9990,W,1,9,2.0,11,M,,M,,*56
06/14/2014	01:09:35.620	$GPGGA,010936,2431.8850,N,08054.9996,W,1,9,2.0,11,M,,M,,*51
06/14/2014	01:09:36.607	$GPGGA,010937,2431.8846,N,08055.0000,W,1,9,2.0,11,M,,M,,*59
06/14/2014	01:09:37.599	$GPGGA,010938,2431.8842,N,08055.0007,W,1,9,2.0,11,M,,M,,*55
06/14/2014	01:09:38.597	$GPGGA,010939,2431.8839,N,08055.0011,W,1,9,2.0,11,M,,M,,*5F
06/14/2014	01:09:39.600	$GPGGA,010940,2431.8837,N,08055.0016,W,1,9,2.0,11,M,,M,,*58
06/14/2014	01:09:40.593	$GPGGA,010941,2431.8833,N,08055.0022,W,1,9,2.0,11,M,,M,,*5A
06/14/2014	01:09:41.686	$GPGGA,010942,2431.8827,N,08055.0027,W,1,9,2.0,11,M,,M,,*59
06/14/2014	01:09:42.699	$GPGGA,010943,2431.8824,N,08055.0033,W,1,9,2.0,11,M,,M,,*5E
06/14/2014	01:09:43.627	$GPGGA,010944,2431.8821,N,08055.0038,W,1,9,2.0,11,M,,M,,*57
06/14/2014	01:09:44.722	$GPGGA,010945,2431.8817,N,08055.0043,W,1,9,2.0,11,M,,M,,*5F
06/14/2014	01:09:45.595	$GPGGA,010946,2431.8815,N,08055.0047,W,1,9,2.0,11,M,,M,,*5A
06/14/2014	01:09:46.717	$GPGGA,010947,2431.8810,N,08055.0052,W,1,9,2.0,11,M,,M,,*5A
06/14/2014	01:09:47.556	$GPGGA,010948,2431.8808,N,08055.0058,W,1,9,2.0,11,M,,M,,*56
06/14/2014	01:09:48.579	$GPGGA,010949,2431.8802,N,08055.0062,W,1,9,2.0,11,M,,M,,*54
06/14/2014	01:09:49.551	$GPGGA,010950,2431.8798,N,08055.0066,W,1,9,2.0,11,M,,M,,*54
06/14/2014	01:09:50.544	$GPGGA,010951,2431.8794,N,08055.0072,W,1,9,2.0,11,M,,M,,*5C
06/14/2014	01:09:51.556	$GPGGA,010952,2431.8791,N,08055.0077,W,1,9,2.0,11,M,,M,,*5F
06/14/2014	01:09:52.539	$GPGGA,010953,2431.8787,N,08055.0083,W,1,9,2.0,11,M,,M,,*52
06/14/2014	01:09:53.542	$GPGGA,010954,2431.8783,N,08055.0087,W,1,9,2.0,11,M,,M,,*55
06/14/2014	01:09:54.564	$GPGGA,010955,2431.8779,N,08055.0092,W,1,9,2.0,11,M,,M,,*55
06/14/2014	01:09:55.567	$GPGGA,010956,2431.8774,N,08055.0098,W,1,9,2.0,11,M,,M,,*51
06/14/2014	01:09:56.559	$GPGGA,010957,2431.8769,N,08055.0101,W,1,9,2.0,11,M,,M,,*5D
06/14/2014	01:09:57.562	$GPGGA,010958,2431.8764,N,08055.0106,W,1,9,2.0,11,M,,M,,*58
06/14/2014	01:09:58.575	$GPGGA,010959,2431.8762,N,08055.0112,W,1,8,2.1,11,M,,M,,*5A
06/14/2014	01:09:59.577	$GPGGA,011000,2431.8761,N,08055.0117,W,1,8,2.0,11,M,,M,,*59
06/14/2014	01:10:01.952	$GPGGA,011002,2431.8748,N,08055.0127,W,1,9,2.0,11,M,,M,,*52
06/14/2014	01:10:02.594	$GPGGA,011003,2431.8746,N,08055.0133,W,1,8,2.1,11,M,,M,,*58
06/14/2014	01:10:03.567	$GPGGA,011004,2431.8743,N,08055.0137,W,1,8,2.0,11,M,,M,,*5F
06/14/2014	01:10:04.579	$GPGGA,011005,2431.8736,N,08055.0141,W,1,9,2.0,11,M,,M,,*5C
06/14/2014	01:10:05.552	$GPGGA,011006,2431.8734,N,08055.0144,W,1,9,2.1,11,M,,M,,*59
06/14/2014	01:10:06.544	$GPGGA,011007,2431.8733,N,08055.0149,W,1,9,2.0,11,M,,M,,*53
06/14/2014	01:10:07.577	$GPGGA,011008,2431.8729,N,08055.0155,W,1,9,2.0,11,M,,M,,*5A
06/14/2014	01:10:08.580	$GPGGA,011009,2431.8725,N,08055.0159,W,1,9,2.0,11,M,,M,,*5B
06/14/2014	01:10:09.552	$GPGGA,011010,2431.8721,N,08055.0163,W,1,9,2.0,11,M,,M,,*5E
06/14/2014	01:10:10.565	$GPGGA,011011,2431.8718,N,08055.0168,W,1,9,2.0,11,M,,M,,*5E
06/14/2014	01:10:11.577	$GPGGA,011012,2431.8714,N,08055.0173,W,1,9,2.0,11,M,,M,,*5B
06/14/2014	01:10:12.600	$GPGGA,011013,2431.8709,N,08055.0177,W,1,9,2.0,11,M,,M,,*52
06/14/2014	01:10:13.552	$GPGGA,011014,2431.8707,N,08055.0182,W,1,9,2.0,11,M,,M,,*51
06/14/2014	01:10:14.565	$GPGGA,011015,2431.8703,N,08055.0188,W,1,9,2.0,11,M,,M,,*5E
06/14/2014	01:10:15.578	$GPGGA,011016,2431.8697,N,08055.0191,W,1,9,2.0,11,M,,M,,*59
06/14/2014	01:10:16.552	$GPGGA,011017,2431.8694,N,08055.0196,W,1,9,2.0,11,M,,M,,*5C
06/14/2014	01:10:17.584	$GPGGA,011018,2431.8691,N,08055.0202,W,1,9,2.0,11,M,,M,,*58
06/14/2014	01:10:18.748	$GPGGA,011019,2431.8687,N,08055.0207,W,1,9,2.0,11,M,,M,,*5B
06/14/2014	01:10:19.587	$GPGGA,011020,2431.8682,N,08055.0213,W,1,9,2.0,11,M,,M,,*51
06/14/2014	01:10:20.751	$GPGGA,011021,2431.8680,N,08055.0218,W,1,9,2.0,11,M,,M,,*59
06/14/2014	01:10:21.572	$GPGGA,011022,2431.8678,N,08055.0224,W,1,9,2.0,11,M,,M,,*52
06/14/2014	01:10:22.745	$GPGGA,011023,2431.8674,N,08055.0227,W,1,9,2.0,11,M,,M,,*5C
06/14/2014	01:10:23.669	$GPGGA,011024,2431.8669,N,08055.0231,W,1,9,2.0,11,M,,M,,*50
06/14/2014	01:10:24.573	$GPGGA,011025,2431.8667,N,08055.0235,W,1,9,2.0,11,M,,M,,*5B
06/14/2014	01:10:25.553	$GPGGA,011026,2431.8664,N,08055.0242,W,1,9,2.0,11,M,,M,,*5B
06/14/2014	01:10:26.555	$GPGGA,011027,2431.8660,N,08055.0247,W,1,9,2.0,11,M,,M,,*5B
06/14/2014	01:10:27.719	$GPGGA,011028,2431.8653,N,08055.0253,W,1,9,2.0,11,M,,M,,*51
06/14/2014	01:10:28.751	$GPGGA,011029,2431.8650,N,08055.0260,W,1,9,2.0,11,M,,M,,*53
06/14/2014	01:10:29.693	$GPGGA,011030,2431.8649,N,08055.0264,W,1,9,2.0,11,M,,M,,*57
06/14/2014	01:10:30.746	$GPGGA,011031,2431.8643,N,08055.0268,W,1,9,2.0,11,M,,M,,*50
06/14/2014	01:10:31.668	$GPGGA,011032,2431.8640,N,08055.0272,W,1,9,2.0,11,M,,M,,*5B
06/14/2014	01:10:32.761	$GPGGA,011033,2431.8638,N,08055.0278,W,1,9,2.0,11,M,,M,,*5F
06/14/2014	01:10:33.684	$GPGGA,011034,2431.8632,N,08055.0282,W,1,9,2.0,11,M,,M,,*57
06/14/2014	01:10:34.766	$GPGGA,011035,2431.8628,N,08055.0289,W,1,9,2.0,11,M,,M,,*56
06/14/2014	01:10:35.669	$GPGGA,011036,2431.8625,N,08055.0294,W,1,9,2.0,11,M,,M,,*54
06/14/2014	01:10:36.751	$GPGGA,011037,2431.8621,N,08055.0300,W,1,9,2.0,11,M,,M,,*5D
06/14/2014	01:10:37.693	$GPGGA,011038,2431.8616,N,08055.0305,W,1,9,2.0,11,M,,M,,*53
06/14/2014	01:10:38.766	$GPGGA,011039,2431.8613,N,08055.0311,W,1,9,2.0,11,M,,M,,*52
06/14/2014	01:10:39.718	$GPGGA,011040,2431.8610,N,08055.0314,W,1,9,2.0,11,M,,M,,*5A
06/14/2014	01:10:40.731	$GPGGA,011041,2431.8606,N,08055.0318,W,1,9,2.0,11,M,,M,,*50
06/14/2014	01:10:41.663	$GPGGA,011042,2431.8602,N,08055.0322,W,1,9,2.0,11,M,,M,,*5E
06/14/2014	01:10:42.726	$GPGGA,011043,2431.8598,N,08055.0329,W,1,9,2.0,11,M,,M,,*54
06/14/2014	01:10:45.193	$GPGGA,011044,2431.8595,N,08055.0334,W,1,9,2.0,12,M,,M,,*51
06/14/2014	01:10:45.227	$GPGGA,011045,2431.8589,N,08055.0340,W,1,9,2.0,12,M,,M,,*5E
06/14/2014	01:10:45.706	$GPGGA,011046,2431.8584,N,08055.0344,W,1,9,2.0,12,M,,M,,*54
06/14/2014	01:10:46.666	$GPGGA,011047,2431.8582,N,08055.0350,W,1,9,2.0,12,M,,M,,*56
06/14/2014	01:10:47.565	$GPGGA,011048,2431.8579,N,08055.0354,W,1,9,2.0,12,M,,M,,*59
06/14/2014	01:10:48.638	$GPGGA,011049,2431.8574,N,08055.0358,W,1,9,2.0,12,M,,M,,*59
06/14/2014	01:10:49.510	$GPGGA,011050,2431.8571,N,08055.0362,W,1,9,2.0,12,M,,M,,*5D
06/14/2014	01:10:50.573	$GPGGA,011051,2431.8567,N,08055.0368,W,1,9,2.0,12,M,,M,,*51
06/14/2014	01:10:51.525	$GPGGA,011052,2431.8563,N,08055.0374,W,1,9,2.0,12,M,,M,,*5B
06/14/2014	01:10:52.608	$GPGGA,011053,2431.8559,N,08055.0380,W,1,9,2.0,12,M,,M,,*58
06/14/2014	01:10:53.542	$GPGGA,011054,2431.8553,N,08055.0387,W,1,9,2.0,12,M,,M,,*52
06/14/2014	01:10:54.632	$GPGGA,011055,2431.8549,N,08055.0392,W,1,9,2.0,12,M,,M,,*5C
06/14/2014	01:10:55.525	$GPGGA,011056,2431.8548,N,08055.0397,W,1,9,2.0,12,M,,M,,*5B
06/14/2014	01:10:56.596	$GPGGA,011057,2431.8544,N,08055.0401,W,1,9,2.0,12,M,,M,,*5E
06/14/2014	01:10:57.570	$GPGGA,011058,2431.8538,N,08055.0405,W,1,9,2.0,12,M,,M,,*5E
06/14/2014	01:10:58.623	$GPGGA,011059,2431.8534,N,08055.0409,W,1,9,2.0,12,M,,M,,*5F
06/14/2014	01:10:59.575	$GPGGA,011100,2431.8531,N,08055.0416,W,1,9,2.0,12,M,,M,,*59
06/14/2014	01:11:00.588	$GPGGA,011101,2431.8527,N,08055.0423,W,1,9,2.0,12,M,,M,,*59
06/14/2014	01:11:01.550	$GPGGA,011102,2431.8521,N,08055.0428,W,1,9,2.0,12,M,,M,,*57
06/14/2014	01:11:02.603	$GPGGA,011103,2431.8516,N,08055.0434,W,1,9,2.1,12,M,,M,,*5E
06/14/2014	01:11:03.528	$GPGGA,011104,2431.8514,N,08055.0441,W,1,9,2.1,12,M,,M,,*59
06/14/2014	01:11:04.599	$GPGGA,011105,2431.8510,N,08055.0444,W,1,9,2.0,12,M,,M,,*58
06/14/2014	01:11:05.621	$GPGGA,011106,2431.8506,N,08055.0448,W,1,9,2.0,12,M,,M,,*50
06/14/2014	01:11:06.614	$GPGGA,011107,2431.8501,N,08055.0452,W,1,9,2.1,12,M,,M,,*5C
06/14/2014	01:11:07.626	$GPGGA,011108,2431.8498,N,08055.0459,W,1,9,2.0,12,M,,M,,*58
06/14/2014	01:11:08.609	$GPGGA,011109,2431.8495,N,08055.0464,W,1,9,2.0,12,M,,M,,*5A
06/14/2014	01:11:09.525	$GPGGA,011110,2431.8491,N,08055.0469,W,1,9,2.0,12,M,,M,,*5B
06/14/2014	01:11:10.525	$GPGGA,011111,2431.8486,N,08055.0473,W,1,9,2.0,12,M,,M,,*57
06/14/2014	01:11:11.626	$GPGGA,011112,2431.8483,N,08055.0478,W,1,9,2.0,12,M,,M,,*5A
06/14/2014	01:11:12.658	$GPGGA,011113,2431.8481,N,08055.0484,W,1,9,2.0,12,M,,M,,*5A
06/14/2014	01:11:13.560	$GPGGA,011114,2431.8477,N,08055.0486,W,1,9,2.0,12,M,,M,,*56
06/14/2014	01:11:14.623	$GPGGA,011115,2431.8473,N,08055.0491,W,1,9,2.0,12,M,,M,,*55
06/14/2014	01:11:15.646	$GPGGA,011116,2431.8470,N,08055.0495,W,1,9,2.0,12,M,,M,,*51
06/14/2014	01:11:16.669	$GPGGA,011117,2431.8469,N,08055.0502,W,1,9,2.0,12,M,,M,,*57
06/14/2014	01:11:17.621	$GPGGA,011118,2431.8465,N,08055.0506,W,1,9,2.0,12,M,,M,,*50
06/14/2014	01:11:18.624	$GPGGA,011119,2431.8461,N,08055.0511,W,1,9,2.0,12,M,,M,,*53
06/14/2014	01:11:19.636	$GPGGA,011120,2431.8456,N,08055.0517,W,1,9,2.0,12,M,,M,,*5B
06/14/2014	01:11:20.651	$GPGGA,011121,2431.8454,N,08055.0521,W,1,9,2.0,13,M,,M,,*5C
06/14/2014	01:11:21.621	$GPGGA,011122,2431.8450,N,08055.0525,W,1,9,2.0,13,M,,M,,*5F
06/14/2014	01:11:22.654	$GPGGA,011123,2431.8447,N,08055.0529,W,1,9,2.0,13,M,,M,,*54
06/14/2014	01:11:23.647	$GPGGA,011124,2431.8443,N,08055.0535,W,1,9,2.0,13,M,,M,,*5A
06/14/2014	01:11:24.667	$GPGGA,011125,2431.8439,N,08055.0539,W,1,9,2.0,13,M,,M,,*5A
06/14/2014	01:11:25.633	$GPGGA,011126,2431.8436,N,08055.0545,W,1,9,2.0,13,M,,M,,*5D
06/14/2014	01:11:26.654	$GPGGA,011127,2431.8432,N,08055.0551,W,1,9,2.0,13,M,,M,,*5D
06/14/2014	01:11:27.647	$GPGGA,011128,2431.8426,N,08055.0556,W,1,9,2.0,13,M,,M,,*50
06/14/2014	01:11:28.661	$GPGGA,011129,2431.8423,N,08055.0561,W,1,9,2.0,13,M,,M,,*50
06/14/2014	01:11:29.631	$GPGGA,011130,2431.8420,N,08055.0565,W,1,9,2.0,13,M,,M,,*5F
06/14/2014	01:11:30.664	$GPGGA,011131,2431.8416,N,08055.0569,W,1,9,2.0,13,M,,M,,*57
06/14/2014	01:11:31.646	$GPGGA,011132,2431.8412,N,08055.0574,W,1,9,2.0,13,M,,M,,*5C
06/14/2014	01:11:32.679	$GPGGA,011133,2431.8408,N,08055.0578,W,1,9,2.0,13,M,,M,,*5A
06/14/2014	01:11:33.632	$GPGGA,011134,2431.8405,N,08055.0585,W,1,9,2.0,13,M,,M,,*52
06/14/2014	01:11:34.674	$GPGGA,011135,2431.8401,N,08055.0592,W,1,9,2.0,13,M,,M,,*51
06/14/2014	01:11:35.657	$GPGGA,011136,2431.8396,N,08055.0596,W,1,9,2.0,13,M,,M,,*5F
06/14/2014	01:11:36.679	$GPGGA,011137,2431.8393,N,08055.0600,W,1,9,2.0,13,M,,M,,*57
06/14/2014	01:11:37.643	$GPGGA,011138,2431.8390,N,08055.0604,W,1,9,2.0,13,M,,M,,*5F
06/14/2014	01:11:38.675	$GPGGA,011139,2431.8390,N,08055.0604,W,1,9,2.0,13,M,,M,,*5E
06/14/2014	01:11:39.657	$GPGGA,011140,2431.8385,N,08055.0612,W,1,9,2.0,13,M,,M,,*53
06/14/2014	01:11:40.712	$GPGGA,011141,2431.8380,N,08055.0618,W,1,9,2.0,13,M,,M,,*5D
06/14/2014	01:11:41.662	$GPGGA,011142,2431.8378,N,08055.0623,W,1,9,2.0,13,M,,M,,*51
06/14/2014	01:11:42.725	$GPGGA,011143,2431.8374,N,08055.0629,W,1,9,2.0,13,M,,M,,*56
06/14/2014	01:11:43.658	$GPGGA,011144,2431.8371,N,08055.0633,W,1,9,2.0,13,M,,M,,*5F
06/14/2014	01:11:44.691	$GPGGA,011145,2431.8368,N,08055.0637,W,1,9,2.0,13,M,,M,,*52
06/14/2014	01:11:45.643	$GPGGA,011146,2431.8365,N,08055.0640,W,1,9,2.0,13,M,,M,,*5C
06/14/2014	01:11:46.775	$GPGGA,011147,2431.8363,N,08055.0645,W,1,9,2.0,13,M,,M,,*5E
06/14/2014	01:11:47.513	$GPGGA,011148,2431.8360,N,08055.0650,W,1,9,2.0,13,M,,M,,*56
06/14/2014	01:11:48.506	$GPGGA,011149,2431.8360,N,08055.0650,W,1,9,2.0,13,M,,M,,*57
06/14/2014	01:11:49.498	$GPGGA,011150,2431.8353,N,08055.0662,W,1,9,2.0,13,M,,M,,*5E
