Software Version Number: 1	Data File Format Number: 1	Build Version Number: 1	Error Count Since VI Started: 0	Manufacturer: Raytheon	 Model Number: RayMarine 120	 S/N: 	 Cal Date: 	 Wind Direction Offset: 0.00	 Slope (M)1: 0.00	 Offset (B)1: 0.00	 Slope (M)2: 0.00	 Offset (B)2: 0.00	 Slope (M)3: 0.00	 Offset (B)3: 0.00	 Slope (M)4: 0.00	 Offset (B)4: 0.00	 Slope (M)5: 0.00	 Offset (B)5: 0.00	 Slope (M)6: 0.00	 Offset (B)6: 0.00
Computer Date	Computer Time	GGA String
06/03/2014	02:00:00.629	$GPGGA,020001,2500.7704,N,08016.7086,W,1,8,2.1,16,M,,M,,*5A
06/03/2014	02:00:01.591	$GPGGA,020002,2500.7718,N,08016.7079,W,1,8,2.1,16,M,,M,,*54
06/03/2014	02:00:02.624	$GPGGA,020003,2500.7732,N,08016.7069,W,1,8,2.1,16,M,,M,,*5C
06/03/2014	02:00:03.606	$GPGGA,020004,2500.7747,N,08016.7060,W,1,8,2.1,16,M,,M,,*50
06/03/2014	02:00:04.639	$GPGGA,020005,2500.7760,N,08016.7052,W,1,8,2.1,16,M,,M,,*55
06/03/2014	02:00:05.661	$GPGGA,020006,2500.7773,N,08016.7043,W,1,8,2.1,16,M,,M,,*54
06/03/2014	02:00:06.644	$GPGGA,020007,2500.7787,N,08016.7034,W,1,8,2.1,16,M,,M,,*5E
06/03/2014	02:00:07.686	$GPGGA,020008,2500.7802,N,08016.7025,W,1,8,2.1,16,M,,M,,*53
06/03/2014	02:00:08.601	$GPGGA,020009,2500.7816,N,08016.7015,W,1,8,2.1,16,M,,M,,*54
06/03/2014	02:00:09.671	$GPGGA,020010,2500.7830,N,08016.7006,W,1,8,2.1,16,M,,M,,*5A
06/03/2014	02:00:10.654	$GPGGA,020011,2500.7844,N,08016.6998,W,1,8,2.1,16,M,,M,,*57
06/03/2014	02:00:11.666	$GPGGA,020012,2500.7859,N,08016.6990,W,1,8,2.1,16,M,,M,,*50
06/03/2014	02:00:12.649	$GPGGA,020013,2500.7873,N,08016.6979,W,1,8,2.1,16,M,,M,,*5E
06/03/2014	02:00:13.661	$GPGGA,020014,2500.7885,N,08016.6969,W,1,8,2.1,16,M,,M,,*51
06/03/2014	02:00:14.665	$GPGGA,020015,2500.7901,N,08016.6961,W,1,8,2.1,16,M,,M,,*55
06/03/2014	02:00:15.675	$GPGGA,020016,2500.7914,N,08016.6954,W,1,8,2.1,16,M,,M,,*54
06/03/2014	02:00:16.597	$GPGGA,020017,2500.7928,N,08016.6945,W,1,8,2.2,16,M,,M,,*59
06/03/2014	02:00:17.680	$GPGGA,020018,2500.7939,N,08016.6936,W,1,8,2.2,16,M,,M,,*52
06/03/2014	02:00:18.653	$GPGGA,020019,2500.7953,N,08016.6927,W,1,8,2.2,16,M,,M,,*5F
06/03/2014	02:00:19.615	$GPGGA,020020,2500.7970,N,08016.6919,W,1,8,2.2,16,M,,M,,*59
06/03/2014	02:00:20.678	$GPGGA,020021,2500.7985,N,08016.6910,W,1,8,2.2,16,M,,M,,*5B
06/03/2014	02:00:21.600	$GPGGA,020022,2500.7997,N,08016.6901,W,1,8,2.2,16,M,,M,,*5B
06/03/2014	02:00:22.663	$GPGGA,020023,2500.8013,N,08016.6893,W,1,8,2.2,16,M,,M,,*5A
06/03/2014	02:00:23.615	$GPGGA,020024,2500.8028,N,08016.6885,W,1,8,2.2,16,M,,M,,*52
06/03/2014	02:00:24.607	$GPGGA,020025,2500.8040,N,08016.6878,W,1,8,2.2,16,M,,M,,*5F
06/03/2014	02:00:25.660	$GPGGA,020026,2500.8055,N,08016.6870,W,1,8,2.2,16,M,,M,,*50
06/03/2014	02:00:26.642	$GPGGA,020027,2500.8071,N,08016.6862,W,1,8,2.2,16,M,,M,,*54
06/03/2014	02:00:27.685	$GPGGA,020028,2500.8083,N,08016.6855,W,1,8,2.2,16,M,,M,,*52
06/03/2014	02:00:28.607	$GPGGA,020029,2500.8098,N,08016.6849,W,1,8,2.2,16,M,,M,,*54
06/03/2014	02:00:29.521	$GPGGA,020030,2500.8112,N,08016.6841,W,1,8,2.2,16,M,,M,,*57
06/03/2014	02:00:30.513	$GPGGA,020031,2500.8127,N,08016.6832,W,1,8,2.2,16,M,,M,,*54
06/03/2014	02:00:31.466	$GPGGA,020032,2500.8141,N,08016.6824,W,1,8,2.2,16,M,,M,,*50
06/03/2014	02:00:34.462	$GPGGA,020035,2500.8181,N,08016.6803,W,1,8,2.2,16,M,,M,,*5E
06/03/2014	02:00:35.535	$GPGGA,020036,2500.8195,N,08016.6794,W,1,8,2.2,16,M,,M,,*59
06/03/2014	02:00:36.467	$GPGGA,020037,2500.8210,N,08016.6786,W,1,8,2.2,16,M,,M,,*55
06/03/2014	02:00:37.526	$GPGGA,020038,2500.8224,N,08016.6776,W,1,8,2.2,16,M,,M,,*52
06/03/2014	02:00:38.593	$GPGGA,020039,2500.8239,N,08016.6768,W,1,8,2.2,16,M,,M,,*50
06/03/2014	02:00:39.475	$GPGGA,020040,2500.8253,N,08016.6760,W,1,8,2.2,16,M,,M,,*5A
06/03/2014	02:00:40.568	$GPGGA,020041,2500.8264,N,08016.6751,W,1,8,2.2,16,M,,M,,*5D
06/03/2014	02:00:41.560	$GPGGA,020042,2500.8279,N,08016.6742,W,1,8,2.2,16,M,,M,,*50
06/03/2014	02:00:42.563	$GPGGA,020043,2500.8296,N,08016.6733,W,1,8,2.2,15,M,,M,,*55
06/03/2014	02:00:43.585	$GPGGA,020044,2500.8308,N,08016.6724,W,1,8,2.2,15,M,,M,,*52
06/03/2014	02:00:44.497	$GPGGA,020045,2500.8322,N,08016.6715,W,1,8,2.2,15,M,,M,,*59
06/03/2014	02:00:45.570	$GPGGA,020046,2500.8335,N,08016.6706,W,1,8,2.2,15,M,,M,,*5E
06/03/2014	02:00:46.613	$GPGGA,020047,2500.8351,N,08016.6699,W,1,8,2.2,15,M,,M,,*5A
06/03/2014	02:00:47.575	$GPGGA,020048,2500.8365,N,08016.6689,W,1,8,2.2,15,M,,M,,*53
06/03/2014	02:00:48.588	$GPGGA,020049,2500.8380,N,08016.6679,W,1,8,2.2,15,M,,M,,*56
06/03/2014	02:00:49.570	$GPGGA,020050,2500.8391,N,08016.6670,W,1,8,2.2,15,M,,M,,*57
06/03/2014	02:00:50.592	$GPGGA,020051,2500.8405,N,08016.6661,W,1,8,2.2,15,M,,M,,*5C
06/03/2014	02:00:51.584	$GPGGA,020052,2500.8422,N,08016.6653,W,1,8,2.2,15,M,,M,,*5B
06/03/2014	02:00:52.587	$GPGGA,020053,2500.8437,N,08016.6645,W,1,8,2.2,15,M,,M,,*59
06/03/2014	02:00:53.569	$GPGGA,020054,2500.8448,N,08016.6635,W,1,8,2.2,15,M,,M,,*51
06/03/2014	02:00:55.744	$GPGGA,020055,2500.8463,N,08016.6625,W,1,8,2.2,15,M,,M,,*58
06/03/2014	02:00:55.764	$GPGGA,020056,2500.8479,N,08016.6617,W,1,8,2.2,15,M,,M,,*51
06/03/2014	02:00:56.597	$GPGGA,020057,2500.8490,N,08016.6608,W,1,8,2.2,15,M,,M,,*59
06/03/2014	02:00:57.589	$GPGGA,020058,2500.8505,N,08016.6598,W,1,8,2.2,15,M,,M,,*51
06/03/2014	02:00:58.591	$GPGGA,020059,2500.8519,N,08016.6591,W,1,8,2.2,15,M,,M,,*54
06/03/2014	02:00:59.586	$GPGGA,020100,2500.8531,N,08016.6582,W,1,8,2.2,15,M,,M,,*51
06/03/2014	02:01:00.607	$GPGGA,020101,2500.8544,N,08016.6575,W,1,8,2.2,15,M,,M,,*5A
06/03/2014	02:01:01.599	$GPGGA,020102,2500.8559,N,08016.6567,W,1,8,2.2,15,M,,M,,*56
06/03/2014	02:01:02.601	$GPGGA,020103,2500.8571,N,08016.6557,W,1,8,2.2,15,M,,M,,*5E
06/03/2014	02:01:03.604	$GPGGA,020104,2500.8586,N,08016.6548,W,1,8,2.2,15,M,,M,,*5F
06/03/2014	02:01:04.586	$GPGGA,020105,2500.8597,N,08016.6542,W,1,8,2.2,15,M,,M,,*54
06/03/2014	02:01:05.595	$GPGGA,020106,2500.8611,N,08016.6535,W,1,8,2.2,15,M,,M,,*5A
06/03/2014	02:01:06.582	$GPGGA,020107,2500.8625,N,08016.6526,W,1,8,2.2,15,M,,M,,*5E
06/03/2014	02:01:07.596	$GPGGA,020108,2500.8639,N,08016.6518,W,1,8,2.2,15,M,,M,,*51
06/03/2014	02:01:08.575	$GPGGA,020109,2500.8654,N,08016.6511,W,1,8,2.2,15,M,,M,,*52
06/03/2014	02:01:09.612	$GPGGA,020110,2500.8654,N,08016.6511,W,1,8,2.2,15,M,,M,,*5A
06/03/2014	02:01:10.620	$GPGGA,020111,2500.8680,N,08016.6492,W,1,8,2.2,15,M,,M,,*58
06/03/2014	02:01:11.613	$GPGGA,020112,2500.8694,N,08016.6485,W,1,8,2.2,15,M,,M,,*58
06/03/2014	02:01:12.614	$GPGGA,020113,2500.8709,N,08016.6479,W,1,8,2.2,15,M,,M,,*5F
06/03/2014	02:01:13.608	$GPGGA,020114,2500.8723,N,08016.6471,W,1,8,2.2,15,M,,M,,*58
06/03/2014	02:01:14.610	$GPGGA,020115,2500.8737,N,08016.6461,W,1,8,2.2,15,M,,M,,*5D
06/03/2014	02:01:15.603	$GPGGA,020116,2500.8737,N,08016.6461,W,1,8,2.2,15,M,,M,,*5E
06/03/2014	02:01:16.615	$GPGGA,020117,2500.8765,N,08016.6449,W,1,8,2.2,15,M,,M,,*52
06/03/2014	02:01:17.588	$GPGGA,020118,2500.8765,N,08016.6449,W,1,8,2.2,15,M,,M,,*5D
06/03/2014	02:01:18.570	$GPGGA,020119,2500.8794,N,08016.6430,W,1,8,2.2,15,M,,M,,*5C
06/03/2014	02:01:19.593	$GPGGA,020120,2500.8794,N,08016.6430,W,1,8,2.2,15,M,,M,,*56
06/03/2014	02:01:20.706	$GPGGA,020121,2500.8820,N,08016.6414,W,1,8,2.2,15,M,,M,,*51
06/03/2014	02:01:21.588	$GPGGA,020122,2500.8820,N,08016.6414,W,1,8,2.2,15,M,,M,,*52
06/03/2014	02:01:22.580	$GPGGA,020123,2500.8849,N,08016.6398,W,1,8,2.2,15,M,,M,,*5F
06/03/2014	02:01:23.604	$GPGGA,020124,2500.8864,N,08016.6390,W,1,8,2.2,15,M,,M,,*5F
06/03/2014	02:01:24.575	$GPGGA,020125,2500.8878,N,08016.6380,W,1,8,2.2,15,M,,M,,*52
06/03/2014	02:01:25.642	$GPGGA,020126,2500.8893,N,08016.6369,W,1,8,2.2,15,M,,M,,*53
06/03/2014	02:01:26.690	$GPGGA,020127,2500.8906,N,08016.6360,W,1,8,2.2,15,M,,M,,*56
06/03/2014	02:01:27.592	$GPGGA,020128,2500.8906,N,08016.6360,W,1,8,2.2,15,M,,M,,*59
06/03/2014	02:01:28.584	$GPGGA,020129,2500.8936,N,08016.6343,W,1,8,2.2,15,M,,M,,*5A
06/03/2014	02:01:29.469	$GPGGA,020130,2500.8936,N,08016.6343,W,1,8,2.2,15,M,,M,,*52
06/03/2014	02:01:30.532	$GPGGA,020131,2500.8961,N,08016.6325,W,1,8,2.2,15,M,,M,,*51
06/03/2014	02:01:31.544	$GPGGA,020132,2500.8979,N,08016.6317,W,1,8,2.2,15,M,,M,,*5A
06/03/2014	02:01:32.567	$GPGGA,020133,2500.8993,N,08016.6308,W,1,8,2.2,15,M,,M,,*51
06/03/2014	02:01:33.539	$GPGGA,020134,2500.9007,N,08016.6298,W,1,8,2.2,15,M,,M,,*5B
06/03/2014	02:01:34.531	$GPGGA,020135,2500.9021,N,08016.6289,W,1,8,2.2,15,M,,M,,*5E
06/03/2014	02:01:35.554	$GPGGA,020136,2500.9036,N,08016.6280,W,1,8,2.2,15,M,,M,,*52
06/03/2014	02:01:36.557	$GPGGA,020137,2500.9050,N,08016.6271,W,1,8,2.2,15,M,,M,,*5D
06/03/2014	02:01:37.539	$GPGGA,020138,2500.9063,N,08016.6261,W,1,8,2.2,15,M,,M,,*53
06/03/2014	02:01:38.572	$GPGGA,020139,2500.9077,N,08016.6253,W,1,8,2.2,15,M,,M,,*56
06/03/2014	02:01:39.544	$GPGGA,020140,2500.9092,N,08016.6244,W,1,8,2.2,15,M,,M,,*55
06/03/2014	02:01:40.577	$GPGGA,020141,2500.9108,N,08016.6235,W,1,8,2.2,15,M,,M,,*50
06/03/2014	02:01:41.549	$GPGGA,020142,2500.9122,N,08016.6225,W,1,8,2.2,15,M,,M,,*5A
06/03/2014	02:01:42.562	$GPGGA,020143,2500.9137,N,08016.6217,W,1,8,2.2,15,M,,M,,*5E
06/03/2014	02:01:43.553	$GPGGA,020144,2500.9152,N,08016.6207,W,1,8,2.2,14,M,,M,,*5A
06/03/2014	02:01:44.555	$GPGGA,020145,2500.9164,N,08016.6198,W,1,8,2.2,14,M,,M,,*5B
06/03/2014	02:01:45.538	$GPGGA,020146,2500.9177,N,08016.6190,W,1,8,2.2,14,M,,M,,*52
06/03/2014	02:01:46.560	$GPGGA,020147,2500.9192,N,08016.6182,W,1,8,2.2,14,M,,M,,*5B
06/03/2014	02:01:47.563	$GPGGA,020148,2500.9207,N,08016.6173,W,1,8,2.2,14,M,,M,,*55
06/03/2014	02:01:48.565	$GPGGA,020149,2500.9218,N,08016.6165,W,1,8,2.2,14,M,,M,,*5D
06/03/2014	02:01:49.538	$GPGGA,020150,2500.9232,N,08016.6157,W,1,8,2.2,14,M,,M,,*5C
06/03/2014	02:01:50.540	$GPGGA,020151,2500.9247,N,08016.6149,W,1,8,2.2,14,M,,M,,*50
06/03/2014	02:01:51.563	$GPGGA,020152,2500.9258,N,08016.6139,W,1,8,2.2,14,M,,M,,*5A
06/03/2014	02:01:52.545	$GPGGA,020153,2500.9272,N,08016.6130,W,1,8,2.2,14,M,,M,,*5A
06/03/2014	02:01:53.548	$GPGGA,020154,2500.9286,N,08016.6124,W,1,8,2.2,14,M,,M,,*53
06/03/2014	02:01:54.560	$GPGGA,020155,2500.9299,N,08016.6117,W,1,8,2.2,14,M,,M,,*5C
06/03/2014	02:01:55.554	$GPGGA,020156,2500.9312,N,08016.6108,W,1,8,2.2,14,M,,M,,*53
06/03/2014	02:01:56.585	$GPGGA,020157,2500.9326,N,08016.6100,W,1,8,2.2,14,M,,M,,*5D
06/03/2014	02:01:57.548	$GPGGA,020158,2500.9340,N,08016.6092,W,1,8,2.2,14,M,,M,,*58
06/03/2014	02:01:58.580	$GPGGA,020159,2500.9352,N,08016.6084,W,1,8,2.2,14,M,,M,,*5D
06/03/2014	02:01:59.603	$GPGGA,020200,2500.9366,N,08016.6076,W,1,8,2.2,14,M,,M,,*58
06/03/2014	02:02:00.584	$GPGGA,020201,2500.9381,N,08016.6069,W,1,8,2.2,14,M,,M,,*5E
06/03/2014	02:02:01.569	$GPGGA,020202,2500.9394,N,08016.6061,W,1,8,2.2,14,M,,M,,*51
06/03/2014	02:02:02.579	$GPGGA,020203,2500.9404,N,08016.6052,W,1,8,2.2,14,M,,M,,*5E
06/03/2014	02:02:03.572	$GPGGA,020204,2500.9420,N,08016.6045,W,1,8,2.2,14,M,,M,,*59
06/03/2014	02:02:04.554	$GPGGA,020205,2500.9435,N,08016.6037,W,1,8,2.2,14,M,,M,,*59
06/03/2014	02:02:05.547	$GPGGA,020206,2500.9449,N,08016.6028,W,1,8,2.2,14,M,,M,,*5F
06/03/2014	02:02:06.539	$GPGGA,020207,2500.9463,N,08016.6020,W,1,8,2.2,14,M,,M,,*5E
06/03/2014	02:02:07.682	$GPGGA,020208,2500.9477,N,08016.6013,W,1,8,2.2,14,M,,M,,*54
06/03/2014	02:02:08.544	$GPGGA,020209,2500.9488,N,08016.6006,W,1,8,2.2,14,M,,M,,*51
06/03/2014	02:02:09.547	$GPGGA,020210,2500.9502,N,08016.5999,W,1,8,2.2,14,M,,M,,*56
06/03/2014	02:02:10.559	$GPGGA,020211,2500.9518,N,08016.5991,W,1,8,2.2,14,M,,M,,*54
06/03/2014	02:02:11.572	$GPGGA,020212,2500.9529,N,08016.5981,W,1,8,2.2,14,M,,M,,*54
06/03/2014	02:02:12.544	$GPGGA,020213,2500.9542,N,08016.5973,W,1,8,2.2,14,M,,M,,*55
06/03/2014	02:02:13.667	$GPGGA,020214,2500.9556,N,08016.5967,W,1,8,2.2,14,M,,M,,*52
06/03/2014	02:02:14.579	$GPGGA,020215,2500.9570,N,08016.5959,W,1,8,2.2,14,M,,M,,*5A
06/03/2014	02:02:15.572	$GPGGA,020216,2500.9582,N,08016.5949,W,1,8,2.2,14,M,,M,,*55
06/03/2014	02:02:16.564	$GPGGA,020217,2500.9594,N,08016.5941,W,1,8,2.2,14,M,,M,,*5B
06/03/2014	02:02:17.647	$GPGGA,020218,2500.9608,N,08016.5935,W,1,8,2.2,14,M,,M,,*51
06/03/2014	02:02:18.669	$GPGGA,020219,2500.9622,N,08016.5927,W,1,8,2.2,14,M,,M,,*5B
06/03/2014	02:02:19.681	$GPGGA,020220,2500.9636,N,08016.5917,W,1,8,2.2,14,M,,M,,*57
06/03/2014	02:02:20.563	$GPGGA,020221,2500.9648,N,08016.5909,W,1,8,2.2,14,M,,M,,*50
06/03/2014	02:02:21.566	$GPGGA,020222,2500.9662,N,08016.5902,W,1,8,2.2,14,M,,M,,*50
06/03/2014	02:02:22.648	$GPGGA,020223,2500.9677,N,08016.5894,W,1,8,2.2,14,M,,M,,*5B
06/03/2014	02:02:23.661	$GPGGA,020224,2500.9691,N,08016.5884,W,1,8,2.2,14,M,,M,,*55
06/03/2014	02:02:24.664	$GPGGA,020225,2500.9705,N,08016.5875,W,1,8,2.2,14,M,,M,,*56
06/03/2014	02:02:25.666	$GPGGA,020226,2500.9717,N,08016.5867,W,1,8,2.2,14,M,,M,,*55
06/03/2014	02:02:26.669	$GPGGA,020227,2500.9733,N,08016.5859,W,1,8,2.2,14,M,,M,,*5F
06/03/2014	02:02:27.671	$GPGGA,020228,2500.9747,N,08016.5851,W,1,8,2.2,14,M,,M,,*5B
06/03/2014	02:02:28.685	$GPGGA,020229,2500.9760,N,08016.5841,W,1,8,2.2,14,M,,M,,*5E
06/03/2014	02:02:29.509	$GPGGA,020230,2500.9774,N,08016.5833,W,1,8,2.2,14,M,,M,,*56
06/03/2014	02:02:30.519	$GPGGA,020231,2500.9789,N,08016.5825,W,1,8,2.2,14,M,,M,,*52
06/03/2014	02:02:31.532	$GPGGA,020232,2500.9803,N,08016.5815,W,1,8,2.2,14,M,,M,,*5F
06/03/2014	02:02:32.535	$GPGGA,020233,2500.9817,N,08016.5807,W,1,8,2.2,14,M,,M,,*58
06/03/2014	02:02:33.509	$GPGGA,020234,2500.9832,N,08016.5800,W,1,8,2.2,14,M,,M,,*5F
06/03/2014	02:02:34.529	$GPGGA,020235,2500.9846,N,08016.5791,W,1,8,2.2,14,M,,M,,*5A
06/03/2014	02:02:35.521	$GPGGA,020236,2500.9860,N,08016.5781,W,1,8,2.2,14,M,,M,,*5C
06/03/2014	02:02:36.544	$GPGGA,020237,2500.9875,N,08016.5774,W,1,8,2.2,14,M,,M,,*53
06/03/2014	02:02:37.517	$GPGGA,020238,2500.9890,N,08016.5766,W,1,8,2.2,14,M,,M,,*54
06/03/2014	02:02:38.549	$GPGGA,020239,2500.9903,N,08016.5758,W,1,8,2.2,14,M,,M,,*53
06/03/2014	02:02:39.531	$GPGGA,020240,2500.9918,N,08016.5750,W,1,8,2.2,14,M,,M,,*5F
06/03/2014	02:02:40.543	$GPGGA,020241,2500.9932,N,08016.5740,W,1,8,2.2,14,M,,M,,*57
06/03/2014	02:02:41.516	$GPGGA,020242,2500.9947,N,08016.5733,W,1,8,2.2,14,M,,M,,*52
06/03/2014	02:02:42.548	$GPGGA,020243,2500.9962,N,08016.5724,W,1,8,2.2,14,M,,M,,*52
06/03/2014	02:02:43.531	$GPGGA,020244,2500.9977,N,08016.5714,W,1,8,2.2,14,M,,M,,*52
06/03/2014	02:02:44.513	$GPGGA,020245,2500.9988,N,08016.5706,W,1,8,2.2,14,M,,M,,*50
06/03/2014	02:02:45.526	$GPGGA,020246,2501.0002,N,08016.5700,W,1,8,2.2,14,M,,M,,*56
06/03/2014	02:02:46.508	$GPGGA,020247,2501.0019,N,08016.5691,W,1,8,2.2,14,M,,M,,*54
06/03/2014	02:02:47.531	$GPGGA,020248,2501.0031,N,08016.5682,W,1,8,2.2,14,M,,M,,*53
06/03/2014	02:02:48.533	$GPGGA,020249,2501.0044,N,08016.5675,W,1,8,2.2,14,M,,M,,*58
06/03/2014	02:02:49.516	$GPGGA,020250,2501.0058,N,08016.5667,W,1,8,2.2,14,M,,M,,*5E
06/03/2014	02:02:50.549	$GPGGA,020251,2501.0073,N,08016.5658,W,1,8,2.2,14,M,,M,,*5A
06/03/2014	02:02:51.541	$GPGGA,020252,2501.0085,N,08016.5650,W,1,8,2.2,14,M,,M,,*58
06/03/2014	02:02:52.633	$GPGGA,020253,2501.0098,N,08016.5641,W,1,7,2.3,14,M,,M,,*5B
06/03/2014	02:02:53.515	$GPGGA,020254,2501.0112,N,08016.5631,W,1,7,2.2,14,M,,M,,*59
06/03/2014	02:02:54.527	$GPGGA,020255,2501.0125,N,08016.5620,W,1,8,2.2,14,M,,M,,*53
06/03/2014	02:02:55.541	$GPGGA,020256,2501.0139,N,08016.5610,W,1,8,2.2,14,M,,M,,*5E
06/03/2014	02:02:56.653	$GPGGA,020257,2501.0153,N,08016.5599,W,1,8,2.2,14,M,,M,,*51
06/03/2014	02:02:57.525	$GPGGA,020258,2501.0168,N,08016.5589,W,1,8,2.2,14,M,,M,,*57
06/03/2014	02:02:58.517	$GPGGA,020259,2501.0182,N,08016.5580,W,1,8,2.2,14,M,,M,,*5B
06/03/2014	02:02:59.660	$GPGGA,020300,2501.0193,N,08016.5571,W,1,8,2.2,14,M,,M,,*58
06/03/2014	02:03:00.643	$GPGGA,020301,2501.0208,N,08016.5561,W,1,8,2.2,15,M,,M,,*58
06/03/2014	02:03:01.545	$GPGGA,020302,2501.0224,N,08016.5552,W,1,8,2.2,15,M,,M,,*55
06/03/2014	02:03:02.618	$GPGGA,020303,2501.0237,N,08016.5543,W,1,7,2.3,15,M,,M,,*58
06/03/2014	02:03:03.630	$GPGGA,020304,2501.0250,N,08016.5535,W,1,7,2.2,15,M,,M,,*5E
06/03/2014	02:03:04.532	$GPGGA,020305,2501.0264,N,08016.5525,W,1,8,2.2,15,M,,M,,*56
06/03/2014	02:03:05.615	$GPGGA,020306,2501.0277,N,08016.5517,W,1,8,2.2,15,M,,M,,*56
06/03/2014	02:03:06.658	$GPGGA,020307,2501.0289,N,08016.5508,W,1,8,2.2,15,M,,M,,*58
06/03/2014	02:03:07.640	$GPGGA,020308,2501.0302,N,08016.5500,W,1,8,2.2,15,M,,M,,*5D
06/03/2014	02:03:08.532	$GPGGA,020309,2501.0318,N,08016.5490,W,1,8,2.2,15,M,,M,,*5F
06/03/2014	02:03:09.635	$GPGGA,020310,2501.0330,N,08016.5481,W,1,8,2.2,15,M,,M,,*5D
06/03/2014	02:03:10.657	$GPGGA,020311,2501.0344,N,08016.5472,W,1,8,2.2,15,M,,M,,*53
06/03/2014	02:03:11.649	$GPGGA,020312,2501.0358,N,08016.5463,W,1,8,2.2,15,M,,M,,*5D
06/03/2014	02:03:12.621	$GPGGA,020313,2501.0372,N,08016.5454,W,1,8,2.2,15,M,,M,,*50
06/03/2014	02:03:13.624	$GPGGA,020314,2501.0385,N,08016.5445,W,1,8,2.2,15,M,,M,,*5F
06/03/2014	02:03:14.637	$GPGGA,020315,2501.0399,N,08016.5436,W,1,8,2.2,15,M,,M,,*57
06/03/2014	02:03:15.639	$GPGGA,020316,2501.0412,N,08016.5426,W,1,8,2.2,15,M,,M,,*51
06/03/2014	02:03:16.631	$GPGGA,020317,2501.0427,N,08016.5418,W,1,8,2.2,15,M,,M,,*5B
06/03/2014	02:03:17.634	$GPGGA,020318,2501.0443,N,08016.5412,W,1,8,2.2,15,M,,M,,*5C
06/03/2014	02:03:18.636	$GPGGA,020319,2501.0456,N,08016.5402,W,1,8,2.2,15,M,,M,,*58
06/03/2014	02:03:19.639	$GPGGA,020320,2501.0468,N,08016.5392,W,1,8,2.2,15,M,,M,,*51
06/03/2014	02:03:20.652	$GPGGA,020321,2501.0482,N,08016.5384,W,1,8,2.2,15,M,,M,,*53
06/03/2014	02:03:21.624	$GPGGA,020322,2501.0497,N,08016.5375,W,1,8,2.2,15,M,,M,,*5A
06/03/2014	02:03:22.657	$GPGGA,020323,2501.0511,N,08016.5367,W,1,8,2.2,15,M,,M,,*57
06/03/2014	02:03:23.649	$GPGGA,020324,2501.0522,N,08016.5360,W,1,8,2.2,15,M,,M,,*57
06/03/2014	02:03:24.651	$GPGGA,020325,2501.0536,N,08016.5353,W,1,8,2.2,15,M,,M,,*53
06/03/2014	02:03:25.624	$GPGGA,020326,2501.0551,N,08016.5345,W,1,8,2.2,15,M,,M,,*56
06/03/2014	02:03:26.656	$GPGGA,020327,2501.0562,N,08016.5335,W,1,8,2.2,15,M,,M,,*50
06/03/2014	02:03:27.651	$GPGGA,020328,2501.0576,N,08016.5327,W,1,8,2.2,15,M,,M,,*59
06/03/2014	02:03:28.660	$GPGGA,020329,2501.0591,N,08016.5323,W,1,8,2.2,15,M,,M,,*55
06/03/2014	02:03:29.475	$GPGGA,020330,2501.0604,N,08016.5315,W,1,8,2.2,15,M,,M,,*57
06/03/2014	02:03:30.487	$GPGGA,020331,2501.0616,N,08016.5305,W,1,8,2.2,15,M,,M,,*54
06/03/2014	02:03:31.502	$GPGGA,020332,2501.0633,N,08016.5298,W,1,8,2.2,15,M,,M,,*55
06/03/2014	02:03:33.746	$GPGGA,020333,2501.0647,N,08016.5293,W,1,8,2.2,15,M,,M,,*5C
06/03/2014	02:03:33.766	$GPGGA,020334,2501.0659,N,08016.5286,W,1,8,2.2,15,M,,M,,*50
06/03/2014	02:03:34.477	$GPGGA,020335,2501.0673,N,08016.5277,W,1,8,2.2,15,M,,M,,*57
06/03/2014	02:03:35.500	$GPGGA,020336,2501.0687,N,08016.5270,W,1,8,2.2,15,M,,M,,*58
06/03/2014	02:03:36.482	$GPGGA,020337,2501.0703,N,08016.5266,W,1,8,2.2,15,M,,M,,*53
06/03/2014	02:03:37.495	$GPGGA,020338,2501.0716,N,08016.5258,W,1,8,2.2,15,M,,M,,*55
06/03/2014	02:03:38.598	$GPGGA,020339,2501.0728,N,08016.5249,W,1,8,2.2,15,M,,M,,*59
06/03/2014	02:03:39.500	$GPGGA,020340,2501.0743,N,08016.5243,W,1,8,2.2,15,M,,M,,*50
06/03/2014	02:03:40.492	$GPGGA,020341,2501.0760,N,08016.5237,W,1,8,2.2,15,M,,M,,*53
06/03/2014	02:03:41.485	$GPGGA,020342,2501.0771,N,08016.5229,W,1,8,2.2,15,M,,M,,*5F
06/03/2014	02:03:42.598	$GPGGA,020343,2501.0786,N,08016.5221,W,1,8,2.2,15,M,,M,,*5E
06/03/2014	02:03:43.511	$GPGGA,020344,2501.0800,N,08016.5215,W,1,8,2.2,15,M,,M,,*5F
06/03/2014	02:03:44.502	$GPGGA,020345,2501.0813,N,08016.5209,W,1,8,2.2,15,M,,M,,*51
06/03/2014	02:03:45.494	$GPGGA,020346,2501.0826,N,08016.5202,W,1,8,2.2,15,M,,M,,*5F
06/03/2014	02:03:46.496	$GPGGA,020347,2501.0840,N,08016.5194,W,1,8,2.2,15,M,,M,,*52
06/03/2014	02:03:47.519	$GPGGA,020348,2501.0854,N,08016.5186,W,1,8,2.2,15,M,,M,,*5B
06/03/2014	02:03:48.593	$GPGGA,020349,2501.0868,N,08016.5178,W,1,8,2.2,15,M,,M,,*54
06/03/2014	02:03:49.494	$GPGGA,020350,2501.0880,N,08016.5170,W,1,8,2.2,15,M,,M,,*52
06/03/2014	02:03:50.597	$GPGGA,020351,2501.0894,N,08016.5163,W,1,8,2.2,15,M,,M,,*54
06/03/2014	02:03:51.509	$GPGGA,020352,2501.0909,N,08016.5155,W,1,8,2.2,15,M,,M,,*57
06/03/2014	02:03:52.632	$GPGGA,020353,2501.0922,N,08016.5147,W,1,8,2.2,15,M,,M,,*5C
06/03/2014	02:03:53.614	$GPGGA,020354,2501.0934,N,08016.5139,W,1,8,2.2,15,M,,M,,*55
06/03/2014	02:03:54.506	$GPGGA,020355,2501.0948,N,08016.5130,W,1,8,2.2,15,M,,M,,*56
06/03/2014	02:03:55.599	$GPGGA,020356,2501.0963,N,08016.5121,W,1,8,2.2,15,M,,M,,*5C
06/03/2014	02:03:56.501	$GPGGA,020357,2501.0977,N,08016.5112,W,1,8,2.2,15,M,,M,,*58
06/03/2014	02:03:57.604	$GPGGA,020358,2501.0991,N,08016.5104,W,1,8,2.2,15,M,,M,,*58
06/03/2014	02:03:58.617	$GPGGA,020359,2501.1006,N,08016.5095,W,1,8,2.2,15,M,,M,,*56
06/03/2014	02:03:59.619	$GPGGA,020400,2501.1019,N,08016.5085,W,1,8,2.2,15,M,,M,,*52
06/03/2014	02:04:00.591	$GPGGA,020401,2501.1031,N,08016.5076,W,1,8,2.2,15,M,,M,,*55
06/03/2014	02:04:01.594	$GPGGA,020402,2501.1046,N,08016.5068,W,1,8,2.2,15,M,,M,,*59
06/03/2014	02:04:02.606	$GPGGA,020403,2501.1060,N,08016.5060,W,1,8,2.2,15,M,,M,,*54
06/03/2014	02:04:03.628	$GPGGA,020404,2501.1073,N,08016.5050,W,1,8,2.2,15,M,,M,,*52
06/03/2014	02:04:04.621	$GPGGA,020405,2501.1088,N,08016.5040,W,1,8,2.2,15,M,,M,,*56
06/03/2014	02:04:05.603	$GPGGA,020406,2501.1104,N,08016.5032,W,1,8,2.2,15,M,,M,,*55
06/03/2014	02:04:06.605	$GPGGA,020407,2501.1118,N,08016.5024,W,1,8,2.2,15,M,,M,,*5E
06/03/2014	02:04:07.618	$GPGGA,020408,2501.1129,N,08016.5015,W,1,8,2.2,15,M,,M,,*51
06/03/2014	02:04:08.621	$GPGGA,020409,2501.1143,N,08016.5005,W,1,8,2.2,15,M,,M,,*5D
06/03/2014	02:04:09.593	$GPGGA,020410,2501.1158,N,08016.4996,W,1,8,2.2,15,M,,M,,*5D
06/03/2014	02:04:10.626	$GPGGA,020411,2501.1172,N,08016.4988,W,1,8,2.2,15,M,,M,,*5B
06/03/2014	02:04:11.608	$GPGGA,020412,2501.1190,N,08016.4980,W,1,8,2.2,15,M,,M,,*5C
06/03/2014	02:04:12.610	$GPGGA,020413,2501.1203,N,08016.4970,W,1,8,2.2,15,M,,M,,*5B
06/03/2014	02:04:13.613	$GPGGA,020414,2501.1215,N,08016.4959,W,1,8,2.2,15,M,,M,,*50
06/03/2014	02:04:14.595	$GPGGA,020415,2501.1230,N,08016.4951,W,1,8,2.2,15,M,,M,,*5E
06/03/2014	02:04:15.628	$GPGGA,020416,2501.1247,N,08016.4945,W,1,8,2.2,15,M,,M,,*58
06/03/2014	02:04:16.630	$GPGGA,020417,2501.1261,N,08016.4935,W,1,8,2.2,15,M,,M,,*5A
06/03/2014	02:04:19.011	$GPGGA,020419,2501.1287,N,08016.4917,W,1,8,2.2,15,M,,M,,*5C
06/03/2014	02:04:19.628	$GPGGA,020420,2501.1302,N,08016.4909,W,1,8,2.2,15,M,,M,,*55
06/03/2014	02:04:20.639	$GPGGA,020421,2501.1317,N,08016.4899,W,1,8,2.2,15,M,,M,,*58
06/03/2014	02:04:21.602	$GPGGA,020422,2501.1331,N,08016.4890,W,1,8,2.2,15,M,,M,,*56
06/03/2014	02:04:22.634	$GPGGA,020423,2501.1344,N,08016.4881,W,1,8,2.2,15,M,,M,,*55
06/03/2014	02:04:23.627	$GPGGA,020424,2501.1357,N,08016.4872,W,1,8,2.2,15,M,,M,,*5C
06/03/2014	02:04:24.649	$GPGGA,020425,2501.1375,N,08016.4865,W,1,8,2.2,15,M,,M,,*5B
06/03/2014	02:04:25.602	$GPGGA,020426,2501.1389,N,08016.4858,W,1,8,2.2,15,M,,M,,*55
06/03/2014	02:04:26.614	$GPGGA,020427,2501.1403,N,08016.4846,W,1,8,2.2,15,M,,M,,*5E
06/03/2014	02:04:27.627	$GPGGA,020428,2501.1417,N,08016.4837,W,1,8,2.2,15,M,,M,,*52
06/03/2014	02:04:28.609	$GPGGA,020429,2501.1432,N,08016.4832,W,1,8,2.2,15,M,,M,,*51
06/03/2014	02:04:29.474	$GPGGA,020430,2501.1447,N,08016.4825,W,1,8,2.2,15,M,,M,,*5D
06/03/2014	02:04:30.607	$GPGGA,020431,2501.1461,N,08016.4815,W,1,8,2.2,15,M,,M,,*5B
06/03/2014	02:04:31.589	$GPGGA,020432,2501.1475,N,08016.4807,W,1,8,2.2,15,M,,M,,*5E
06/03/2014	02:04:32.471	$GPGGA,020433,2501.1490,N,08016.4799,W,1,8,2.2,15,M,,M,,*5C
06/03/2014	02:04:33.564	$GPGGA,020434,2501.1505,N,08016.4792,W,1,8,2.2,15,M,,M,,*5D
06/03/2014	02:04:34.597	$GPGGA,020435,2501.1519,N,08016.4784,W,1,8,2.2,15,M,,M,,*56
06/03/2014	02:04:35.479	$GPGGA,020436,2501.1533,N,08016.4776,W,1,8,2.2,15,M,,M,,*50
06/03/2014	02:04:36.481	$GPGGA,020437,2501.1547,N,08016.4766,W,1,8,2.2,15,M,,M,,*53
06/03/2014	02:04:37.563	$GPGGA,020438,2501.1559,N,08016.4758,W,1,8,2.2,15,M,,M,,*5E
06/03/2014	02:04:38.576	$GPGGA,020439,2501.1576,N,08016.4752,W,1,8,2.2,15,M,,M,,*58
06/03/2014	02:04:39.478	$GPGGA,020440,2501.1591,N,08016.4744,W,1,8,2.2,15,M,,M,,*58
06/03/2014	02:04:40.470	$GPGGA,020441,2501.1602,N,08016.4733,W,1,8,2.2,15,M,,M,,*50
06/03/2014	02:04:41.483	$GPGGA,020442,2501.1613,N,08016.4724,W,1,8,2.2,15,M,,M,,*55
06/03/2014	02:04:42.577	$GPGGA,020443,2501.1628,N,08016.4716,W,1,8,2.2,15,M,,M,,*5D
06/03/2014	02:04:43.478	$GPGGA,020444,2501.1646,N,08016.4711,W,1,8,2.2,15,M,,M,,*55
06/03/2014	02:04:44.500	$GPGGA,020445,2501.1659,N,08016.4702,W,1,8,2.2,15,M,,M,,*58
06/03/2014	02:04:45.573	$GPGGA,020446,2501.1671,N,08016.4690,W,1,8,2.2,15,M,,M,,*5B
06/03/2014	02:04:46.565	$GPGGA,020447,2501.1685,N,08016.4682,W,1,8,2.2,15,M,,M,,*52
06/03/2014	02:04:47.578	$GPGGA,020448,2501.1700,N,08016.4676,W,1,8,2.2,15,M,,M,,*5A
06/03/2014	02:04:48.591	$GPGGA,020449,2501.1714,N,08016.4668,W,1,8,2.2,15,M,,M,,*51
06/03/2014	02:04:49.573	$GPGGA,020450,2501.1727,N,08016.4659,W,1,8,2.2,15,M,,M,,*5B
06/03/2014	02:04:50.576	$GPGGA,020451,2501.1740,N,08016.4650,W,1,8,2.2,14,M,,M,,*53
06/03/2014	02:04:51.588	$GPGGA,020452,2501.1754,N,08016.4642,W,1,8,2.2,14,M,,M,,*56
06/03/2014	02:04:52.591	$GPGGA,020453,2501.1768,N,08016.4636,W,1,8,2.2,14,M,,M,,*5B
06/03/2014	02:04:53.563	$GPGGA,020454,2501.1781,N,08016.4628,W,1,8,2.2,14,M,,M,,*54
06/03/2014	02:04:54.596	$GPGGA,020455,2501.1796,N,08016.4619,W,1,8,2.2,14,M,,M,,*51
06/03/2014	02:04:55.587	$GPGGA,020456,2501.1808,N,08016.4609,W,1,8,2.2,14,M,,M,,*5B
06/03/2014	02:04:56.589	$GPGGA,020457,2501.1821,N,08016.4600,W,1,8,2.2,14,M,,M,,*58
06/03/2014	02:04:57.573	$GPGGA,020458,2501.1834,N,08016.4595,W,1,8,1.5,14,M,,M,,*58
06/03/2014	02:04:58.584	$GPGGA,020459,2501.1847,N,08016.4589,W,1,8,1.5,14,M,,M,,*50
06/03/2014	02:04:59.597	$GPGGA,020500,2501.1858,N,08016.4582,W,1,8,1.5,14,M,,M,,*58
06/03/2014	02:05:00.571	$GPGGA,020501,2501.1872,N,08016.4575,W,1,8,1.5,14,M,,M,,*59
06/03/2014	02:05:01.572	$GPGGA,020502,2501.1887,N,08016.4567,W,1,8,1.5,15,M,,M,,*52
06/03/2014	02:05:02.615	$GPGGA,020503,2501.1898,N,08016.4559,W,1,8,1.5,15,M,,M,,*50
06/03/2014	02:05:03.577	$GPGGA,020504,2501.1913,N,08016.4554,W,1,8,1.5,15,M,,M,,*58
06/03/2014	02:05:04.620	$GPGGA,020505,2501.1926,N,08016.4546,W,1,8,1.5,15,M,,M,,*5C
06/03/2014	02:05:05.602	$GPGGA,020506,2501.1938,N,08016.4539,W,1,8,1.5,15,M,,M,,*58
06/03/2014	02:05:06.594	$GPGGA,020507,2501.1953,N,08016.4532,W,1,8,1.5,16,M,,M,,*5C
06/03/2014	02:05:07.597	$GPGGA,020508,2501.1966,N,08016.4523,W,1,8,1.5,16,M,,M,,*55
06/03/2014	02:05:08.609	$GPGGA,020509,2501.1980,N,08016.4516,W,1,8,1.5,16,M,,M,,*5A
06/03/2014	02:05:09.622	$GPGGA,020510,2501.1996,N,08016.4510,W,1,8,1.5,16,M,,M,,*53
06/03/2014	02:05:10.597	$GPGGA,020511,2501.2010,N,08016.4500,W,1,8,1.5,16,M,,M,,*57
06/03/2014	02:05:11.617	$GPGGA,020512,2501.2023,N,08016.4492,W,1,8,1.5,17,M,,M,,*5F
06/03/2014	02:05:12.608	$GPGGA,020513,2501.2036,N,08016.4486,W,1,8,1.5,17,M,,M,,*5F
06/03/2014	02:05:13.572	$GPGGA,020514,2501.2052,N,08016.4478,W,1,8,1.5,17,M,,M,,*5B
06/03/2014	02:05:14.606	$GPGGA,020515,2501.2065,N,08016.4469,W,1,8,1.5,17,M,,M,,*5E
06/03/2014	02:05:15.596	$GPGGA,020516,2501.2079,N,08016.4460,W,1,8,1.5,17,M,,M,,*59
06/03/2014	02:05:16.600	$GPGGA,020517,2501.2094,N,08016.4454,W,1,8,1.5,18,M,,M,,*53
06/03/2014	02:05:17.581	$GPGGA,020518,2501.2110,N,08016.4447,W,1,8,1.5,18,M,,M,,*53
06/03/2014	02:05:18.603	$GPGGA,020519,2501.2122,N,08016.4437,W,1,8,1.5,18,M,,M,,*54
06/03/2014	02:05:19.706	$GPGGA,020520,2501.2135,N,08016.4427,W,1,8,1.5,18,M,,M,,*59
06/03/2014	02:05:20.699	$GPGGA,020521,2501.2150,N,08016.4419,W,1,8,1.5,18,M,,M,,*56
06/03/2014	02:05:21.601	$GPGGA,020522,2501.2165,N,08016.4412,W,1,8,1.5,18,M,,M,,*58
06/03/2014	02:05:22.613	$GPGGA,020523,2501.2179,N,08016.4402,W,1,8,1.5,19,M,,M,,*54
06/03/2014	02:05:23.686	$GPGGA,020524,2501.2193,N,08016.4393,W,1,8,1.5,19,M,,M,,*58
06/03/2014	02:05:24.589	$GPGGA,020525,2501.2208,N,08016.4387,W,1,8,1.5,19,M,,M,,*5D
06/03/2014	02:05:25.681	$GPGGA,020526,2501.2222,N,08016.4378,W,1,8,1.5,19,M,,M,,*56
06/03/2014	02:05:26.694	$GPGGA,020527,2501.2234,N,08016.4367,W,1,8,1.5,19,M,,M,,*5E
06/03/2014	02:05:27.696	$GPGGA,020528,2501.2248,N,08016.4362,W,1,8,1.5,19,M,,M,,*5F
06/03/2014	02:05:28.598	$GPGGA,020529,2501.2263,N,08016.4355,W,1,8,1.5,19,M,,M,,*53
06/03/2014	02:05:29.452	$GPGGA,020530,2501.2276,N,08016.4344,W,1,8,1.5,19,M,,M,,*5F
06/03/2014	02:05:30.564	$GPGGA,020531,2501.2289,N,08016.4336,W,1,8,1.5,19,M,,M,,*5B
06/03/2014	02:05:31.556	$GPGGA,020532,2501.2303,N,08016.4331,W,1,8,1.5,19,M,,M,,*5C
06/03/2014	02:05:32.528	$GPGGA,020533,2501.2317,N,08016.4322,W,1,8,1.5,20,M,,M,,*50
06/03/2014	02:05:33.531	$GPGGA,020534,2501.2329,N,08016.4312,W,1,8,1.5,20,M,,M,,*59
06/03/2014	02:05:34.564	$GPGGA,020535,2501.2343,N,08016.4305,W,1,8,1.5,20,M,,M,,*52
06/03/2014	02:05:35.556	$GPGGA,020536,2501.2359,N,08016.4296,W,1,8,1.5,20,M,,M,,*51
06/03/2014	02:05:36.538	$GPGGA,020537,2501.2372,N,08016.4286,W,1,8,1.5,20,M,,M,,*58
06/03/2014	02:05:37.531	$GPGGA,020538,2501.2386,N,08016.4279,W,1,8,1.5,20,M,,M,,*5C
06/03/2014	02:05:38.543	$GPGGA,020539,2501.2401,N,08016.4271,W,1,8,1.5,20,M,,M,,*5D
06/03/2014	02:05:39.556	$GPGGA,020540,2501.2415,N,08016.4258,W,1,8,1.5,20,M,,M,,*5D
06/03/2014	02:05:40.559	$GPGGA,020541,2501.2429,N,08016.4248,W,1,8,2.2,20,M,,M,,*56
06/03/2014	02:05:41.532	$GPGGA,020542,2501.2444,N,08016.4242,W,1,8,1.5,20,M,,M,,*50
06/03/2014	02:05:42.534	$GPGGA,020543,2501.2458,N,08016.4234,W,1,8,1.5,20,M,,M,,*5D
06/03/2014	02:05:43.556	$GPGGA,020544,2501.2472,N,08016.4226,W,1,8,1.5,20,M,,M,,*51
06/03/2014	02:05:44.558	$GPGGA,020545,2501.2484,N,08016.4215,W,1,8,1.5,20,M,,M,,*59
06/03/2014	02:05:45.541	$GPGGA,020546,2501.2498,N,08016.4205,W,1,8,1.5,20,M,,M,,*56
06/03/2014	02:05:46.563	$GPGGA,020547,2501.2518,N,08016.4196,W,1,9,1.5,20,M,,M,,*56
06/03/2014	02:05:47.555	$GPGGA,020548,2501.2531,N,08016.4185,W,1,9,2.2,20,M,,M,,*54
06/03/2014	02:05:48.578	$GPGGA,020549,2501.2544,N,08016.4174,W,1,9,1.5,20,M,,M,,*5D
06/03/2014	02:05:49.543	$GPGGA,020550,2501.2559,N,08016.4168,W,1,9,1.5,20,M,,M,,*54
06/03/2014	02:05:50.542	$GPGGA,020551,2501.2574,N,08016.4160,W,1,9,1.5,20,M,,M,,*52
06/03/2014	02:05:51.565	$GPGGA,020552,2501.2587,N,08016.4151,W,1,9,1.5,20,M,,M,,*5F
06/03/2014	02:05:52.577	$GPGGA,020553,2501.2600,N,08016.4142,W,1,9,1.5,20,M,,M,,*50
06/03/2014	02:05:53.550	$GPGGA,020554,2501.2617,N,08016.4134,W,1,9,1.5,20,M,,M,,*50
06/03/2014	02:05:54.542	$GPGGA,020555,2501.2631,N,08016.4127,W,1,9,1.5,21,M,,M,,*56
06/03/2014	02:05:55.560	$GPGGA,020556,2501.2645,N,08016.4118,W,1,9,1.5,21,M,,M,,*5A
06/03/2014	02:05:56.560	$GPGGA,020557,2501.2659,N,08016.4108,W,1,9,1.5,21,M,,M,,*57
06/03/2014	02:05:57.560	$GPGGA,020558,2501.2672,N,08016.4103,W,1,9,1.5,21,M,,M,,*5A
06/03/2014	02:05:58.542	$GPGGA,020559,2501.2686,N,08016.4097,W,1,9,1.5,21,M,,M,,*5C
06/03/2014	02:05:59.575	$GPGGA,020600,2501.2701,N,08016.4087,W,1,9,1.5,21,M,,M,,*5C
06/03/2014	02:06:00.578	$GPGGA,020601,2501.2714,N,08016.4077,W,1,9,1.5,21,M,,M,,*56
06/03/2014	02:06:01.560	$GPGGA,020602,2501.2729,N,08016.4070,W,1,9,1.5,21,M,,M,,*5C
06/03/2014	02:06:02.582	$GPGGA,020603,2501.2744,N,08016.4063,W,1,9,1.5,21,M,,M,,*54
06/03/2014	02:06:03.555	$GPGGA,020604,2501.2757,N,08016.4054,W,1,9,1.5,21,M,,M,,*55
06/03/2014	02:06:04.567	$GPGGA,020605,2501.2769,N,08016.4045,W,1,9,1.5,21,M,,M,,*59
06/03/2014	02:06:05.549	$GPGGA,020606,2501.2784,N,08016.4037,W,1,9,1.5,21,M,,M,,*5C
06/03/2014	02:06:06.571	$GPGGA,020607,2501.2798,N,08016.4028,W,1,9,1.5,21,M,,M,,*5E
06/03/2014	02:06:07.584	$GPGGA,020608,2501.2813,N,08016.4019,W,1,9,1.5,21,M,,M,,*5F
06/03/2014	02:06:08.566	$GPGGA,020609,2501.2827,N,08016.4011,W,1,9,1.5,21,M,,M,,*51
06/03/2014	02:06:09.539	$GPGGA,020610,2501.2842,N,08016.4001,W,1,9,1.5,21,M,,M,,*5B
06/03/2014	02:06:10.551	$GPGGA,020611,2501.2858,N,08016.3991,W,1,9,1.5,21,M,,M,,*56
06/03/2014	02:06:11.574	$GPGGA,020612,2501.2873,N,08016.3983,W,1,9,1.5,21,M,,M,,*5F
06/03/2014	02:06:12.566	$GPGGA,020613,2501.2885,N,08016.3976,W,1,9,1.5,21,M,,M,,*5D
06/03/2014	02:06:13.649	$GPGGA,020614,2501.2898,N,08016.3965,W,1,9,1.5,21,M,,M,,*54
06/03/2014	02:06:14.541	$GPGGA,020615,2501.2914,N,08016.3958,W,1,9,1.5,21,M,,M,,*5E
06/03/2014	02:06:15.664	$GPGGA,020616,2501.2928,N,08016.3951,W,1,9,1.5,21,M,,M,,*5B
06/03/2014	02:06:16.687	$GPGGA,020617,2501.2942,N,08016.3939,W,1,9,1.5,21,M,,M,,*58
06/03/2014	02:06:17.559	$GPGGA,020618,2501.2957,N,08016.3930,W,1,9,1.5,21,M,,M,,*5A
06/03/2014	02:06:18.652	$GPGGA,020619,2501.2972,N,08016.3923,W,1,9,1.5,21,M,,M,,*5E
06/03/2014	02:06:19.664	$GPGGA,020620,2501.2986,N,08016.3914,W,1,9,1.5,21,M,,M,,*5B
06/03/2014	02:06:20.657	$GPGGA,020621,2501.3000,N,08016.3905,W,1,9,1.5,21,M,,M,,*5C
06/03/2014	02:06:21.659	$GPGGA,020622,2501.3014,N,08016.3897,W,1,9,1.5,22,M,,M,,*53
06/03/2014	02:06:22.650	$GPGGA,020623,2501.3029,N,08016.3889,W,1,9,1.5,22,M,,M,,*53
06/03/2014	02:06:23.673	$GPGGA,020624,2501.3043,N,08016.3879,W,1,9,1.5,22,M,,M,,*57
06/03/2014	02:06:24.655	$GPGGA,020625,2501.3057,N,08016.3872,W,1,9,1.5,22,M,,M,,*58
06/03/2014	02:06:25.648	$GPGGA,020626,2501.3073,N,08016.3862,W,1,9,1.5,22,M,,M,,*5C
06/03/2014	02:06:26.671	$GPGGA,020627,2501.3087,N,08016.3852,W,1,9,1.5,22,M,,M,,*55
06/03/2014	02:06:27.663	$GPGGA,020628,2501.3101,N,08016.3842,W,1,9,1.5,22,M,,M,,*54
06/03/2014	02:06:28.696	$GPGGA,020629,2501.3112,N,08016.3838,W,1,8,2.2,22,M,,M,,*5F
06/03/2014	02:06:29.510	$GPGGA,020630,2501.3126,N,08016.3828,W,1,8,1.5,22,M,,M,,*55
06/03/2014	02:06:30.533	$GPGGA,020631,2501.3141,N,08016.3821,W,1,9,1.5,22,M,,M,,*5D
06/03/2014	02:06:31.525	$GPGGA,020632,2501.3152,N,08016.3813,W,1,9,1.5,22,M,,M,,*5D
06/03/2014	02:06:32.507	$GPGGA,020633,2501.3166,N,08016.3805,W,1,9,1.5,22,M,,M,,*5C
06/03/2014	02:06:33.520	$GPGGA,020634,2501.3180,N,08016.3798,W,1,9,1.5,22,M,,M,,*58
06/03/2014	02:06:34.543	$GPGGA,020635,2501.3192,N,08016.3790,W,1,9,1.5,22,M,,M,,*52
06/03/2014	02:06:35.525	$GPGGA,020636,2501.3206,N,08016.3779,W,1,9,1.5,22,M,,M,,*58
06/03/2014	02:06:36.517	$GPGGA,020637,2501.3221,N,08016.3774,W,1,8,2.2,22,M,,M,,*54
06/03/2014	02:06:37.522	$GPGGA,020638,2501.3235,N,08016.3766,W,1,8,1.5,22,M,,M,,*59
06/03/2014	02:06:38.502	$GPGGA,020639,2501.3248,N,08016.3758,W,1,9,1.5,22,M,,M,,*5E
06/03/2014	02:06:39.527	$GPGGA,020640,2501.3260,N,08016.3751,W,1,9,1.5,22,M,,M,,*53
06/03/2014	02:06:40.557	$GPGGA,020641,2501.3275,N,08016.3745,W,1,9,1.5,22,M,,M,,*53
06/03/2014	02:06:41.509	$GPGGA,020642,2501.3289,N,08016.3736,W,1,9,1.5,22,M,,M,,*57
06/03/2014	02:06:42.533	$GPGGA,020643,2501.3303,N,08016.3726,W,1,9,1.5,22,M,,M,,*54
06/03/2014	02:06:43.534	$GPGGA,020644,2501.3318,N,08016.3719,W,1,9,1.5,22,M,,M,,*55
06/03/2014	02:06:44.556	$GPGGA,020645,2501.3333,N,08016.3712,W,1,9,1.5,23,M,,M,,*57
06/03/2014	02:06:45.519	$GPGGA,020646,2501.3344,N,08016.3703,W,1,9,1.5,23,M,,M,,*54
06/03/2014	02:06:46.551	$GPGGA,020647,2501.3358,N,08016.3695,W,1,9,1.5,23,M,,M,,*56
06/03/2014	02:06:47.547	$GPGGA,020648,2501.3371,N,08016.3688,W,1,9,1.5,23,M,,M,,*5E
06/03/2014	02:06:48.516	$GPGGA,020649,2501.3387,N,08016.3679,W,1,9,1.5,23,M,,M,,*58
06/03/2014	02:06:49.529	$GPGGA,020650,2501.3401,N,08016.3670,W,1,9,1.5,23,M,,M,,*50
06/03/2014	02:06:50.634	$GPGGA,020651,2501.3416,N,08016.3662,W,1,9,1.5,23,M,,M,,*54
06/03/2014	02:06:51.534	$GPGGA,020652,2501.3430,N,08016.3654,W,1,9,1.5,23,M,,M,,*56
06/03/2014	02:06:52.536	$GPGGA,020653,2501.3444,N,08016.3647,W,1,9,1.5,23,M,,M,,*56
06/03/2014	02:06:53.529	$GPGGA,020654,2501.3456,N,08016.3637,W,1,9,1.5,23,M,,M,,*55
06/03/2014	02:06:54.541	$GPGGA,020655,2501.3469,N,08016.3629,W,1,8,1.7,23,M,,M,,*54
06/03/2014	02:06:55.544	$GPGGA,020656,2501.3484,N,08016.3622,W,1,8,1.5,23,M,,M,,*5D
06/03/2014	02:06:56.537	$GPGGA,020657,2501.3499,N,08016.3612,W,1,9,1.5,23,M,,M,,*52
06/03/2014	02:06:57.518	$GPGGA,020658,2501.3512,N,08016.3602,W,1,9,1.5,23,M,,M,,*5E
06/03/2014	02:06:58.530	$GPGGA,020659,2501.3524,N,08016.3595,W,1,9,1.5,23,M,,M,,*57
06/03/2014	02:06:59.553	$GPGGA,020700,2501.3539,N,08016.3586,W,1,9,1.5,23,M,,M,,*54
06/03/2014	02:07:00.535	$GPGGA,020701,2501.3552,N,08016.3577,W,1,9,1.5,23,M,,M,,*56
06/03/2014	02:07:01.519	$GPGGA,020702,2501.3564,N,08016.3569,W,1,9,1.5,23,M,,M,,*5F
06/03/2014	02:07:02.631	$GPGGA,020703,2501.3579,N,08016.3561,W,1,9,1.5,24,M,,M,,*5D
06/03/2014	02:07:03.543	$GPGGA,020704,2501.3595,N,08016.3551,W,1,9,1.5,24,M,,M,,*5B
06/03/2014	02:07:04.535	$GPGGA,020705,2501.3609,N,08016.3542,W,1,9,1.5,24,M,,M,,*5E
06/03/2014	02:07:05.528	$GPGGA,020706,2501.3624,N,08016.3532,W,1,9,1.5,24,M,,M,,*55
06/03/2014	02:07:06.530	$GPGGA,020707,2501.3638,N,08016.3525,W,1,9,1.5,24,M,,M,,*5F
06/03/2014	02:07:07.633	$GPGGA,020708,2501.3654,N,08016.3517,W,1,9,1.5,24,M,,M,,*5B
06/03/2014	02:07:08.525	$GPGGA,020709,2501.3668,N,08016.3506,W,1,9,1.5,24,M,,M,,*55
06/03/2014	02:07:09.628	$GPGGA,020710,2501.3680,N,08016.3496,W,1,9,1.7,24,M,,M,,*51
06/03/2014	02:07:10.651	$GPGGA,020711,2501.3696,N,08016.3489,W,1,9,1.5,24,M,,M,,*5B
06/03/2014	02:07:11.643	$GPGGA,020712,2501.3711,N,08016.3479,W,1,9,1.5,24,M,,M,,*59
06/03/2014	02:07:12.625	$GPGGA,020713,2501.3726,N,08016.3469,W,1,9,1.5,24,M,,M,,*5D
06/03/2014	02:07:13.618	$GPGGA,020714,2501.3740,N,08016.3461,W,1,9,1.5,24,M,,M,,*52
06/03/2014	02:07:14.641	$GPGGA,020715,2501.3754,N,08016.3453,W,1,9,1.5,24,M,,M,,*57
06/03/2014	02:07:15.642	$GPGGA,020716,2501.3769,N,08016.3443,W,1,9,1.5,24,M,,M,,*5B
06/03/2014	02:07:16.624	$GPGGA,020717,2501.3783,N,08016.3433,W,1,9,1.5,24,M,,M,,*59
06/03/2014	02:07:17.637	$GPGGA,020718,2501.3795,N,08016.3426,W,1,9,1.5,24,M,,M,,*55
06/03/2014	02:07:18.650	$GPGGA,020719,2501.3813,N,08016.3416,W,1,9,1.5,24,M,,M,,*56
06/03/2014	02:07:19.642	$GPGGA,020720,2501.3827,N,08016.3407,W,1,9,1.5,24,M,,M,,*5B
06/03/2014	02:07:20.624	$GPGGA,020721,2501.3839,N,08016.3399,W,1,9,1.5,24,M,,M,,*55
06/03/2014	02:07:21.637	$GPGGA,020722,2501.3853,N,08016.3392,W,1,9,1.5,24,M,,M,,*51
06/03/2014	02:07:22.670	$GPGGA,020723,2501.3870,N,08016.3385,W,1,9,1.5,24,M,,M,,*57
06/03/2014	02:07:23.634	$GPGGA,020724,2501.3884,N,08016.3375,W,1,9,1.5,24,M,,M,,*54
06/03/2014	02:07:24.634	$GPGGA,020725,2501.3895,N,08016.3367,W,1,9,1.5,24,M,,M,,*56
06/03/2014	02:07:25.638	$GPGGA,020726,2501.3909,N,08016.3359,W,1,9,1.5,24,M,,M,,*5C
06/03/2014	02:07:26.659	$GPGGA,020727,2501.3925,N,08016.3350,W,1,9,1.5,24,M,,M,,*5A
06/03/2014	02:07:27.641	$GPGGA,020728,2501.3938,N,08016.3344,W,1,9,1.5,24,M,,M,,*5C
06/03/2014	02:07:28.645	$GPGGA,020729,2501.3951,N,08016.3338,W,1,9,1.5,24,M,,M,,*59
06/03/2014	02:07:29.491	$GPGGA,020730,2501.3965,N,08016.3328,W,1,9,1.5,24,M,,M,,*57
06/03/2014	02:07:30.520	$GPGGA,020731,2501.3978,N,08016.3320,W,1,9,1.5,24,M,,M,,*52
06/03/2014	02:07:31.503	$GPGGA,020732,2501.3992,N,08016.3314,W,1,9,1.5,24,M,,M,,*52
06/03/2014	02:07:32.474	$GPGGA,020733,2501.4008,N,08016.3307,W,1,9,1.5,24,M,,M,,*5C
06/03/2014	02:07:33.497	$GPGGA,020734,2501.4022,N,08016.3297,W,1,9,1.5,24,M,,M,,*5B
06/03/2014	02:07:34.519	$GPGGA,020735,2501.4036,N,08016.3288,W,1,9,1.5,24,M,,M,,*51
06/03/2014	02:07:35.492	$GPGGA,020736,2501.4048,N,08016.3283,W,1,9,2.2,24,M,,M,,*54
06/03/2014	02:07:36.484	$GPGGA,020737,2501.4063,N,08016.3275,W,1,9,1.5,24,M,,M,,*51
06/03/2014	02:07:37.497	$GPGGA,020738,2501.4077,N,08016.3266,W,1,9,1.5,24,M,,M,,*59
06/03/2014	02:07:38.509	$GPGGA,020739,2501.4091,N,08016.3256,W,1,8,2.2,23,M,,M,,*51
06/03/2014	02:07:39.502	$GPGGA,020740,2501.4106,N,08016.3247,W,1,8,1.5,23,M,,M,,*54
06/03/2014	02:07:40.484	$GPGGA,020741,2501.4120,N,08016.3240,W,1,9,1.5,23,M,,M,,*57
06/03/2014	02:07:41.487	$GPGGA,020742,2501.4135,N,08016.3233,W,1,9,1.5,23,M,,M,,*54
06/03/2014	02:07:42.650	$GPGGA,020743,2501.4149,N,08016.3224,W,1,9,1.5,23,M,,M,,*58
06/03/2014	02:07:43.642	$GPGGA,020744,2501.4160,N,08016.3216,W,1,9,1.5,23,M,,M,,*55
06/03/2014	02:07:44.675	$GPGGA,020745,2501.4174,N,08016.3209,W,1,9,1.5,23,M,,M,,*5F
06/03/2014	02:07:45.488	$GPGGA,020746,2501.4188,N,08016.3202,W,1,9,1.5,23,M,,M,,*54
06/03/2014	02:07:46.680	$GPGGA,020747,2501.4203,N,08016.3194,W,1,9,1.5,23,M,,M,,*59
06/03/2014	02:07:47.512	$GPGGA,020748,2501.4216,N,08016.3186,W,1,9,1.5,23,M,,M,,*51
06/03/2014	02:07:48.504	$GPGGA,020749,2501.4228,N,08016.3178,W,1,9,1.5,23,M,,M,,*5C
06/03/2014	02:07:49.587	$GPGGA,020750,2501.4242,N,08016.3170,W,1,9,1.5,23,M,,M,,*50
06/03/2014	02:07:50.679	$GPGGA,020751,2501.4258,N,08016.3162,W,1,9,1.5,23,M,,M,,*59
06/03/2014	02:07:51.651	$GPGGA,020752,2501.4271,N,08016.3154,W,1,9,1.5,23,M,,M,,*54
06/03/2014	02:07:52.503	$GPGGA,020753,2501.4283,N,08016.3145,W,1,9,1.5,23,M,,M,,*58
06/03/2014	02:07:53.586	$GPGGA,020754,2501.4299,N,08016.3138,W,1,9,1.5,23,M,,M,,*5E
06/03/2014	02:07:54.699	$GPGGA,020755,2501.4312,N,08016.3133,W,1,9,1.5,23,M,,M,,*56
06/03/2014	02:07:55.641	$GPGGA,020756,2501.4325,N,08016.3124,W,1,9,1.5,23,M,,M,,*57
06/03/2014	02:07:56.694	$GPGGA,020757,2501.4339,N,08016.3114,W,1,9,1.5,23,M,,M,,*58
06/03/2014	02:07:57.586	$GPGGA,020758,2501.4354,N,08016.3109,W,1,9,1.5,23,M,,M,,*50
06/03/2014	02:07:58.689	$GPGGA,020759,2501.4368,N,08016.3101,W,1,9,1.5,23,M,,M,,*56
06/03/2014	02:07:59.641	$GPGGA,020800,2501.4381,N,08016.3091,W,1,9,1.5,23,M,,M,,*5A
06/03/2014	02:08:00.694	$GPGGA,020801,2501.4395,N,08016.3085,W,1,9,1.5,23,M,,M,,*5B
06/03/2014	02:08:01.616	$GPGGA,020802,2501.4409,N,08016.3079,W,1,9,1.5,23,M,,M,,*59
06/03/2014	02:08:02.699	$GPGGA,020803,2501.4424,N,08016.3069,W,1,9,1.5,23,M,,M,,*56
06/03/2014	02:08:03.631	$GPGGA,020804,2501.4438,N,08016.3060,W,1,9,1.5,23,M,,M,,*55
06/03/2014	02:08:04.684	$GPGGA,020805,2501.4452,N,08016.3055,W,1,9,1.5,23,M,,M,,*5E
06/03/2014	02:08:05.616	$GPGGA,020806,2501.4467,N,08016.3047,W,1,9,1.5,23,M,,M,,*58
06/03/2014	02:08:06.699	$GPGGA,020807,2501.4481,N,08016.3036,W,1,9,1.5,23,M,,M,,*57
06/03/2014	02:08:07.640	$GPGGA,020808,2501.4493,N,08016.3028,W,1,9,1.5,23,M,,M,,*54
06/03/2014	02:08:08.592	$GPGGA,020809,2501.4507,N,08016.3022,W,1,9,1.5,23,M,,M,,*53
06/03/2014	02:08:09.625	$GPGGA,020810,2501.4521,N,08016.3013,W,1,9,1.5,23,M,,M,,*5D
06/03/2014	02:08:10.708	$GPGGA,020811,2501.4534,N,08016.3005,W,1,9,1.5,23,M,,M,,*5F
06/03/2014	02:08:11.640	$GPGGA,020812,2501.4549,N,08016.2998,W,1,9,1.5,23,M,,M,,*5A
06/03/2014	02:08:12.693	$GPGGA,020813,2501.4563,N,08016.2988,W,1,9,1.5,23,M,,M,,*52
06/03/2014	02:08:13.625	$GPGGA,020814,2501.4575,N,08016.2978,W,1,9,1.5,23,M,,M,,*5D
06/03/2014	02:08:14.597	$GPGGA,020815,2501.4590,N,08016.2972,W,1,9,1.5,23,M,,M,,*5D
06/03/2014	02:08:15.650	$GPGGA,020816,2501.4608,N,08016.2965,W,1,9,1.5,23,M,,M,,*5A
06/03/2014	02:08:16.592	$GPGGA,020817,2501.4619,N,08016.2956,W,1,9,1.5,23,M,,M,,*5B
06/03/2014	02:08:17.635	$GPGGA,020818,2501.4629,N,08016.2945,W,1,9,1.5,23,M,,M,,*55
06/03/2014	02:08:18.710	$GPGGA,020819,2501.4641,N,08016.2939,W,1,9,1.5,23,M,,M,,*51
06/03/2014	02:08:19.640	$GPGGA,020820,2501.4659,N,08016.2936,W,1,9,1.5,23,M,,M,,*5D
06/03/2014	02:08:20.602	$GPGGA,020821,2501.4673,N,08016.2927,W,1,9,1.5,23,M,,M,,*54
06/03/2014	02:08:21.622	$GPGGA,020822,2501.4683,N,08016.2916,W,1,9,1.5,23,M,,M,,*5A
06/03/2014	02:08:22.719	$GPGGA,020823,2501.4695,N,08016.2910,W,1,9,1.5,23,M,,M,,*5A
06/03/2014	02:08:23.660	$GPGGA,020824,2501.4709,N,08016.2906,W,1,9,1.5,23,M,,M,,*5E
06/03/2014	02:08:24.602	$GPGGA,020825,2501.4723,N,08016.2898,W,1,9,1.5,23,M,,M,,*51
06/03/2014	02:08:25.624	$GPGGA,020826,2501.4734,N,08016.2889,W,1,9,1.5,23,M,,M,,*54
06/03/2014	02:08:26.727	$GPGGA,020827,2501.4747,N,08016.2883,W,1,9,1.5,23,M,,M,,*5B
06/03/2014	02:08:27.729	$GPGGA,020828,2501.4760,N,08016.2876,W,1,9,1.5,23,M,,M,,*5B
06/03/2014	02:08:28.611	$GPGGA,020829,2501.4774,N,08016.2868,W,1,9,1.5,23,M,,M,,*50
06/03/2014	02:08:29.486	$GPGGA,020830,2501.4789,N,08016.2861,W,1,9,1.5,23,M,,M,,*53
06/03/2014	02:08:30.591	$GPGGA,020831,2501.4802,N,08016.2853,W,1,9,1.5,23,M,,M,,*5F
06/03/2014	02:08:31.501	$GPGGA,020832,2501.4814,N,08016.2845,W,1,9,1.5,23,M,,M,,*5C
06/03/2014	02:08:32.554	$GPGGA,020833,2501.4828,N,08016.2838,W,1,9,1.5,23,M,,M,,*58
06/03/2014	02:08:33.556	$GPGGA,020834,2501.4843,N,08016.2831,W,1,9,1.5,23,M,,M,,*5B
06/03/2014	02:08:34.539	$GPGGA,020835,2501.4856,N,08016.2822,W,1,9,1.5,23,M,,M,,*5C
06/03/2014	02:08:35.471	$GPGGA,020836,2501.4868,N,08016.2814,W,1,9,1.5,23,M,,M,,*57
06/03/2014	02:08:36.453	$GPGGA,020837,2501.4883,N,08016.2807,W,1,9,1.5,23,M,,M,,*51
06/03/2014	02:08:37.576	$GPGGA,020838,2501.4897,N,08016.2798,W,1,9,1.5,23,M,,M,,*52
06/03/2014	02:08:38.569	$GPGGA,020839,2501.4910,N,08016.2790,W,1,9,1.5,23,M,,M,,*55
06/03/2014	02:08:39.513	$GPGGA,020840,2501.4925,N,08016.2782,W,1,9,1.7,23,M,,M,,*5C
06/03/2014	02:08:40.554	$GPGGA,020841,2501.4937,N,08016.2772,W,1,8,1.6,23,M,,M,,*51
06/03/2014	02:08:41.556	$GPGGA,020842,2501.4953,N,08016.2764,W,1,8,1.5,23,M,,M,,*54
06/03/2014	02:08:42.608	$GPGGA,020843,2501.4968,N,08016.2756,W,1,9,1.5,23,M,,M,,*5D
06/03/2014	02:08:43.580	$GPGGA,020844,2501.4982,N,08016.2747,W,1,9,1.5,23,M,,M,,*5E
06/03/2014	02:08:44.573	$GPGGA,020845,2501.4993,N,08016.2738,W,1,9,1.5,23,M,,M,,*57
06/03/2014	02:08:45.565	$GPGGA,020846,2501.5006,N,08016.2730,W,1,9,1.5,23,M,,M,,*58
06/03/2014	02:08:46.618	$GPGGA,020847,2501.5023,N,08016.2721,W,1,9,1.5,23,M,,M,,*5E
06/03/2014	02:08:47.580	$GPGGA,020848,2501.5036,N,08016.2710,W,1,9,1.5,23,M,,M,,*57
06/03/2014	02:08:48.623	$GPGGA,020849,2501.5048,N,08016.2701,W,1,9,1.5,23,M,,M,,*5F
06/03/2014	02:08:49.575	$GPGGA,020850,2501.5063,N,08016.2694,W,1,9,1.5,23,M,,M,,*53
06/03/2014	02:08:50.598	$GPGGA,020851,2501.5078,N,08016.2685,W,1,9,1.5,23,M,,M,,*58
06/03/2014	02:08:51.580	$GPGGA,020852,2501.5089,N,08016.2676,W,1,9,1.5,23,M,,M,,*59
06/03/2014	02:08:52.583	$GPGGA,020853,2501.5102,N,08016.2666,W,1,9,1.5,23,M,,M,,*5B
06/03/2014	02:08:53.585	$GPGGA,020854,2501.5118,N,08016.2659,W,1,9,1.7,23,M,,M,,*59
06/03/2014	02:08:54.598	$GPGGA,020855,2501.5132,N,08016.2650,W,1,8,1.5,23,M,,M,,*5A
06/03/2014	02:08:55.580	$GPGGA,020856,2501.5143,N,08016.2639,W,1,8,1.5,23,M,,M,,*50
06/03/2014	02:08:56.655	$GPGGA,020857,2501.5157,N,08016.2631,W,1,9,1.5,23,M,,M,,*5D
06/03/2014	02:08:57.605	$GPGGA,020858,2501.5174,N,08016.2623,W,1,9,1.5,23,M,,M,,*50
06/03/2014	02:08:58.673	$GPGGA,020859,2501.5174,N,08016.2623,W,1,9,1.5,23,M,,M,,*51
06/03/2014	02:08:59.610	$GPGGA,020900,2501.5200,N,08016.2605,W,1,9,1.5,23,M,,M,,*58
06/03/2014	02:09:00.601	$GPGGA,020901,2501.5215,N,08016.2596,W,1,9,1.5,23,M,,M,,*54
06/03/2014	02:09:01.575	$GPGGA,020902,2501.5229,N,08016.2588,W,1,9,1.5,23,M,,M,,*57
06/03/2014	02:09:02.606	$GPGGA,020903,2501.5243,N,08016.2579,W,1,9,1.7,23,M,,M,,*56
06/03/2014	02:09:03.579	$GPGGA,020904,2501.5255,N,08016.2569,W,1,9,1.7,23,M,,M,,*57
06/03/2014	02:09:04.611	$GPGGA,020905,2501.5269,N,08016.2563,W,1,9,1.7,23,M,,M,,*53
06/03/2014	02:09:05.594	$GPGGA,020906,2501.5284,N,08016.2558,W,1,9,1.5,23,M,,M,,*59
06/03/2014	02:09:06.586	$GPGGA,020907,2501.5300,N,08016.2548,W,1,9,1.5,23,M,,M,,*54
06/03/2014	02:09:07.599	$GPGGA,020908,2501.5313,N,08016.2538,W,1,9,1.5,23,M,,M,,*5E
06/03/2014	02:09:08.632	$GPGGA,020909,2501.5327,N,08016.2532,W,1,9,1.5,23,M,,M,,*52
06/03/2014	02:09:09.574	$GPGGA,020910,2501.5342,N,08016.2526,W,1,9,1.5,23,M,,M,,*5C
06/03/2014	02:09:10.616	$GPGGA,020911,2501.5342,N,08016.2526,W,1,9,1.5,23,M,,M,,*5D
06/03/2014	02:09:11.594	$GPGGA,020912,2501.5370,N,08016.2504,W,1,9,2.2,23,M,,M,,*5B
06/03/2014	02:09:12.652	$GPGGA,020913,2501.5370,N,08016.2504,W,1,8,2.2,23,M,,M,,*5B
06/03/2014	02:09:13.601	$GPGGA,020914,2501.5385,N,08016.2496,W,1,8,1.5,23,M,,M,,*58
06/03/2014	02:09:14.636	$GPGGA,020915,2501.5413,N,08016.2479,W,1,9,1.5,23,M,,M,,*51
06/03/2014	02:09:15.599	$GPGGA,020916,2501.5425,N,08016.2471,W,1,9,1.5,23,M,,M,,*5F
06/03/2014	02:09:16.652	$GPGGA,020917,2501.5441,N,08016.2464,W,1,9,1.5,23,M,,M,,*58
06/03/2014	02:09:17.693	$GPGGA,020918,2501.5453,N,08016.2454,W,1,9,1.5,23,M,,M,,*57
06/03/2014	02:09:18.696	$GPGGA,020919,2501.5467,N,08016.2448,W,1,8,2.2,23,M,,M,,*59
06/03/2014	02:09:19.588	$GPGGA,020920,2501.5481,N,08016.2440,W,1,8,1.5,23,M,,M,,*57
06/03/2014	02:09:20.600	$GPGGA,020921,2501.5481,N,08016.2440,W,1,9,1.5,23,M,,M,,*57
06/03/2014	02:09:21.593	$GPGGA,020922,2501.5504,N,08016.2427,W,1,9,1.5,23,M,,M,,*59
06/03/2014	02:09:22.645	$GPGGA,020923,2501.5518,N,08016.2418,W,1,9,1.5,23,M,,M,,*59
06/03/2014	02:09:23.698	$GPGGA,020924,2501.5532,N,08016.2409,W,1,9,1.5,23,M,,M,,*56
06/03/2014	02:09:24.681	$GPGGA,020925,2501.5544,N,08016.2401,W,1,9,1.5,23,M,,M,,*5E
06/03/2014	02:09:25.593	$GPGGA,020926,2501.5558,N,08016.2395,W,1,9,1.5,23,M,,M,,*5A
06/03/2014	02:09:26.676	$GPGGA,020927,2501.5571,N,08016.2386,W,1,9,1.5,23,M,,M,,*52
06/03/2014	02:09:27.698	$GPGGA,020928,2501.5582,N,08016.2376,W,1,9,1.5,23,M,,M,,*5E
06/03/2014	02:09:28.721	$GPGGA,020929,2501.5597,N,08016.2369,W,1,9,1.5,23,M,,M,,*55
06/03/2014	02:09:29.534	$GPGGA,020930,2501.5612,N,08016.2363,W,1,9,1.5,23,M,,M,,*59
06/03/2014	02:09:30.547	$GPGGA,020931,2501.5625,N,08016.2352,W,1,9,1.5,23,M,,M,,*5E
06/03/2014	02:09:31.549	$GPGGA,020932,2501.5636,N,08016.2341,W,1,9,1.5,24,M,,M,,*5A
06/03/2014	02:09:32.451	$GPGGA,020933,2501.5636,N,08016.2341,W,1,9,1.5,24,M,,M,,*5B
06/03/2014	02:09:33.545	$GPGGA,020934,2501.5667,N,08016.2324,W,1,9,2.2,24,M,,M,,*5F
06/03/2014	02:09:34.567	$GPGGA,020935,2501.5678,N,08016.2314,W,1,8,1.7,24,M,,M,,*54
06/03/2014	02:09:35.548	$GPGGA,020936,2501.5690,N,08016.2304,W,1,8,1.5,23,M,,M,,*55
06/03/2014	02:09:36.551	$GPGGA,020937,2501.5705,N,08016.2296,W,1,9,1.5,23,M,,M,,*52
06/03/2014	02:09:37.543	$GPGGA,020938,2501.5721,N,08016.2288,W,1,9,1.5,23,M,,M,,*54
06/03/2014	02:09:38.535	$GPGGA,020939,2501.5735,N,08016.2276,W,1,9,1.5,23,M,,M,,*51
06/03/2014	02:09:39.558	$GPGGA,020940,2501.5746,N,08016.2267,W,1,9,2.2,23,M,,M,,*5F
06/03/2014	02:09:40.561	$GPGGA,020941,2501.5760,N,08016.2260,W,1,8,2.2,23,M,,M,,*5C
06/03/2014	02:09:41.543	$GPGGA,020942,2501.5775,N,08016.2249,W,1,8,1.5,23,M,,M,,*54
06/03/2014	02:09:42.566	$GPGGA,020943,2501.5789,N,08016.2239,W,1,9,1.5,23,M,,M,,*50
06/03/2014	02:09:43.548	$GPGGA,020944,2501.5802,N,08016.2231,W,1,9,1.5,23,M,,M,,*53
06/03/2014	02:09:44.540	$GPGGA,020945,2501.5815,N,08016.2222,W,1,9,1.5,23,M,,M,,*56
06/03/2014	02:09:45.543	$GPGGA,020946,2501.5829,N,08016.2214,W,1,9,1.5,23,M,,M,,*5F
06/03/2014	02:09:46.535	$GPGGA,020947,2501.5842,N,08016.2205,W,1,9,1.5,23,M,,M,,*53
06/03/2014	02:09:47.558	$GPGGA,020948,2501.5855,N,08016.2197,W,1,9,1.5,23,M,,M,,*52
06/03/2014	02:09:48.560	$GPGGA,020949,2501.5868,N,08016.2189,W,1,9,1.5,23,M,,M,,*52
06/03/2014	02:09:49.543	$GPGGA,020950,2501.5880,N,08016.2182,W,1,9,1.5,23,M,,M,,*57
06/03/2014	02:09:50.575	$GPGGA,020951,2501.5896,N,08016.2174,W,1,9,1.5,23,M,,M,,*58
06/03/2014	02:09:51.548	$GPGGA,020952,2501.5909,N,08016.2167,W,1,9,1.5,23,M,,M,,*5E
06/03/2014	02:09:52.559	$GPGGA,020953,2501.5922,N,08016.2158,W,1,9,1.5,23,M,,M,,*5A
06/03/2014	02:09:53.544	$GPGGA,020954,2501.5934,N,08016.2149,W,1,9,1.5,23,M,,M,,*5A
06/03/2014	02:09:54.534	$GPGGA,020955,2501.5948,N,08016.2140,W,1,9,1.5,23,M,,M,,*59
06/03/2014	02:09:55.607	$GPGGA,020956,2501.5963,N,08016.2135,W,1,9,2.5,23,M,,M,,*52
06/03/2014	02:09:56.579	$GPGGA,020957,2501.5977,N,08016.2127,W,1,9,1.5,23,M,,M,,*56
06/03/2014	02:09:57.543	$GPGGA,020958,2501.5987,N,08016.2118,W,1,9,1.5,23,M,,M,,*5A
06/03/2014	02:09:58.574	$GPGGA,020959,2501.5998,N,08016.2112,W,1,9,1.5,23,M,,M,,*5F
06/03/2014	02:09:59.557	$GPGGA,021000,2501.6013,N,08016.2106,W,1,9,1.5,23,M,,M,,*57
06/03/2014	02:10:00.610	$GPGGA,021001,2501.6027,N,08016.2098,W,1,9,1.5,23,M,,M,,*57
06/03/2014	02:10:01.542	$GPGGA,021002,2501.6039,N,08016.2088,W,1,9,1.5,23,M,,M,,*5A
06/03/2014	02:10:02.574	$GPGGA,021003,2501.6053,N,08016.2080,W,1,8,1.7,23,M,,M,,*5C
06/03/2014	02:10:03.567	$GPGGA,021004,2501.6067,N,08016.2075,W,1,8,1.5,23,M,,M,,*54
06/03/2014	02:10:04.559	$GPGGA,021005,2501.6081,N,08016.2067,W,1,9,1.5,23,M,,M,,*5F
06/03/2014	02:10:05.542	$GPGGA,021006,2501.6093,N,08016.2056,W,1,9,1.5,23,M,,M,,*5D
06/03/2014	02:10:06.544	$GPGGA,021007,2501.6107,N,08016.2047,W,1,9,1.5,23,M,,M,,*50
06/03/2014	02:10:07.567	$GPGGA,021008,2501.6122,N,08016.2042,W,1,9,2.2,23,M,,M,,*59
06/03/2014	02:10:08.560	$GPGGA,021009,2501.6136,N,08016.2033,W,1,9,1.5,23,M,,M,,*5F
06/03/2014	02:10:09.642	$GPGGA,021010,2501.6147,N,08016.2022,W,1,9,1.5,23,M,,M,,*51
06/03/2014	02:10:10.687	$GPGGA,021011,2501.6160,N,08016.2016,W,1,9,1.5,23,M,,M,,*52
06/03/2014	02:10:11.656	$GPGGA,021012,2501.6176,N,08016.2010,W,1,9,1.5,23,M,,M,,*50
06/03/2014	02:10:12.568	$GPGGA,021013,2501.6190,N,08016.1999,W,1,9,1.5,23,M,,M,,*52
06/03/2014	02:10:13.671	$GPGGA,021014,2501.6201,N,08016.1989,W,1,9,1.5,23,M,,M,,*5F
06/03/2014	02:10:14.573	$GPGGA,021015,2501.6214,N,08016.1981,W,1,9,1.5,23,M,,M,,*52
06/03/2014	02:10:15.656	$GPGGA,021016,2501.6227,N,08016.1972,W,1,9,1.5,23,M,,M,,*5D
06/03/2014	02:10:16.649	$GPGGA,021017,2501.6241,N,08016.1963,W,1,9,1.5,23,M,,M,,*5C
06/03/2014	02:10:17.651	$GPGGA,021018,2501.6255,N,08016.1953,W,1,9,1.5,23,M,,M,,*55
06/03/2014	02:10:18.563	$GPGGA,021019,2501.6268,N,08016.1943,W,1,9,1.5,23,M,,M,,*5B
06/03/2014	02:10:19.666	$GPGGA,021020,2501.6283,N,08016.1933,W,1,9,1.5,23,M,,M,,*53
06/03/2014	02:10:20.648	$GPGGA,021021,2501.6298,N,08016.1924,W,1,9,1.5,23,M,,M,,*5E
06/03/2014	02:10:21.661	$GPGGA,021022,2501.6312,N,08016.1916,W,1,9,1.5,23,M,,M,,*5F
06/03/2014	02:10:22.653	$GPGGA,021023,2501.6326,N,08016.1906,W,1,9,1.5,23,M,,M,,*58
06/03/2014	02:10:23.666	$GPGGA,021024,2501.6339,N,08016.1895,W,1,9,1.5,23,M,,M,,*5A
06/03/2014	02:10:24.658	$GPGGA,021025,2501.6353,N,08016.1888,W,1,9,1.5,23,M,,M,,*5B
06/03/2014	02:10:25.651	$GPGGA,021026,2501.6367,N,08016.1880,W,1,9,1.7,23,M,,M,,*55
06/03/2014	02:10:26.674	$GPGGA,021027,2501.6382,N,08016.1868,W,1,9,1.5,23,M,,M,,*5B
06/03/2014	02:10:27.675	$GPGGA,021028,2501.6396,N,08016.1858,W,1,9,1.5,23,M,,M,,*52
06/03/2014	02:10:28.657	$GPGGA,021029,2501.6411,N,08016.1851,W,1,9,1.5,24,M,,M,,*55
06/03/2014	02:10:29.512	$GPGGA,021030,2501.6425,N,08016.1842,W,1,9,1.5,24,M,,M,,*58
06/03/2014	02:10:30.524	$GPGGA,021031,2501.6439,N,08016.1832,W,1,9,1.5,24,M,,M,,*53
06/03/2014	02:10:31.527	$GPGGA,021032,2501.6454,N,08016.1825,W,1,9,1.5,24,M,,M,,*5D
06/03/2014	02:10:32.529	$GPGGA,021033,2501.6468,N,08016.1816,W,1,9,1.5,24,M,,M,,*53
06/03/2014	02:10:33.512	$GPGGA,021034,2501.6482,N,08016.1805,W,1,9,1.5,24,M,,M,,*52
06/03/2014	02:10:34.545	$GPGGA,021035,2501.6497,N,08016.1798,W,1,9,1.5,24,M,,M,,*5C
06/03/2014	02:10:35.527	$GPGGA,021036,2501.6512,N,08016.1791,W,1,9,1.5,24,M,,M,,*5A
06/03/2014	02:10:36.529	$GPGGA,021037,2501.6526,N,08016.1781,W,1,9,1.5,24,M,,M,,*5D
06/03/2014	02:10:37.512	$GPGGA,021038,2501.6541,N,08016.1772,W,1,9,1.5,24,M,,M,,*5F
06/03/2014	02:10:38.544	$GPGGA,021039,2501.6555,N,08016.1763,W,1,9,1.5,24,M,,M,,*5B
06/03/2014	02:10:39.537	$GPGGA,021040,2501.6570,N,08016.1756,W,1,9,1.5,24,M,,M,,*54
06/03/2014	02:10:40.539	$GPGGA,021041,2501.6584,N,08016.1751,W,1,9,1.5,24,M,,M,,*59
06/03/2014	02:10:41.514	$GPGGA,021042,2501.6598,N,08016.1741,W,1,9,1.5,24,M,,M,,*56
06/03/2014	02:10:42.544	$GPGGA,021043,2501.6613,N,08016.1733,W,1,9,1.5,24,M,,M,,*52
06/03/2014	02:10:43.527	$GPGGA,021044,2501.6628,N,08016.1728,W,1,9,1.5,24,M,,M,,*57
06/03/2014	02:10:44.509	$GPGGA,021045,2501.6639,N,08016.1720,W,1,9,1.5,24,M,,M,,*5E
06/03/2014	02:10:45.523	$GPGGA,021046,2501.6653,N,08016.1711,W,1,9,1.5,24,M,,M,,*53
06/03/2014	02:10:46.533	$GPGGA,021047,2501.6667,N,08016.1706,W,1,9,1.5,24,M,,M,,*53
06/03/2014	02:10:47.536	$GPGGA,021048,2501.6682,N,08016.1699,W,1,9,1.5,24,M,,M,,*50
06/03/2014	02:10:48.518	$GPGGA,021049,2501.6695,N,08016.1690,W,1,9,1.5,24,M,,M,,*5E
06/03/2014	02:10:49.637	$GPGGA,021050,2501.6706,N,08016.1684,W,1,9,1.5,24,M,,M,,*58
06/03/2014	02:10:51.015	$GPGGA,021051,2501.6720,N,08016.1677,W,1,9,1.5,24,M,,M,,*51
06/03/2014	02:10:51.539	$GPGGA,021052,2501.6735,N,08016.1669,W,1,9,1.5,24,M,,M,,*59
06/03/2014	02:10:53.561	$GPGGA,021054,2501.6761,N,08016.1657,W,1,9,2.2,23,M,,M,,*50
06/03/2014	02:10:54.523	$GPGGA,021055,2501.6772,N,08016.1647,W,1,9,1.5,23,M,,M,,*56
06/03/2014	02:10:55.546	$GPGGA,021056,2501.6786,N,08016.1639,W,1,9,1.5,24,M,,M,,*50
06/03/2014	02:10:56.609	$GPGGA,021057,2501.6801,N,08016.1631,W,1,9,1.5,23,M,,M,,*5E
06/03/2014	02:10:57.531	$GPGGA,021058,2501.6815,N,08016.1621,W,1,9,1.5,23,M,,M,,*55
06/03/2014	02:10:58.667	$GPGGA,021059,2501.6828,N,08016.1615,W,1,9,1.5,23,M,,M,,*5D
06/03/2014	02:10:59.546	$GPGGA,021100,2501.6841,N,08016.1607,W,1,9,1.5,23,M,,M,,*5C
06/03/2014	02:11:00.528	$GPGGA,021101,2501.6855,N,08016.1597,W,1,9,1.5,23,M,,M,,*52
06/03/2014	02:11:01.521	$GPGGA,021102,2501.6868,N,08016.1589,W,1,9,1.5,23,M,,M,,*50
06/03/2014	02:11:02.532	$GPGGA,021103,2501.6881,N,08016.1582,W,1,9,1.5,23,M,,M,,*5D
06/03/2014	02:11:03.625	$GPGGA,021104,2501.6897,N,08016.1576,W,1,9,1.5,23,M,,M,,*56
06/03/2014	02:11:04.628	$GPGGA,021105,2501.6909,N,08016.1570,W,1,8,1.7,23,M,,M,,*54
06/03/2014	02:11:05.530	$GPGGA,021106,2501.6924,N,08016.1560,W,1,8,1.5,23,M,,M,,*5B
06/03/2014	02:11:06.612	$GPGGA,021107,2501.6938,N,08016.1551,W,1,9,1.5,23,M,,M,,*54
06/03/2014	02:11:07.645	$GPGGA,021108,2501.6951,N,08016.1545,W,1,9,1.7,23,M,,M,,*53
06/03/2014	02:11:08.638	$GPGGA,021109,2501.6967,N,08016.1541,W,1,9,1.5,23,M,,M,,*51
06/03/2014	02:11:09.630	$GPGGA,021110,2501.6982,N,08016.1534,W,1,9,1.5,23,M,,M,,*50
06/03/2014	02:11:10.622	$GPGGA,021111,2501.6995,N,08016.1524,W,1,9,1.5,23,M,,M,,*56
06/03/2014	02:11:11.635	$GPGGA,021112,2501.7007,N,08016.1517,W,1,9,1.5,23,M,,M,,*56
06/03/2014	02:11:12.639	$GPGGA,021113,2501.7023,N,08016.1514,W,1,9,1.5,23,M,,M,,*52
06/03/2014	02:11:13.630	$GPGGA,021114,2501.7038,N,08016.1507,W,1,9,1.5,23,M,,M,,*5D
06/03/2014	02:11:14.622	$GPGGA,021115,2501.7050,N,08016.1497,W,1,9,1.5,23,M,,M,,*5A
06/03/2014	02:11:15.645	$GPGGA,021116,2501.7063,N,08016.1489,W,1,9,1.7,23,M,,M,,*54
06/03/2014	02:11:16.627	$GPGGA,021117,2501.7076,N,08016.1482,W,1,9,1.5,23,M,,M,,*58
06/03/2014	02:11:17.630	$GPGGA,021118,2501.7087,N,08016.1473,W,1,9,1.5,23,M,,M,,*57
06/03/2014	02:11:18.642	$GPGGA,021119,2501.7101,N,08016.1466,W,1,9,1.5,23,M,,M,,*5D
06/03/2014	02:11:19.646	$GPGGA,021120,2501.7117,N,08016.1461,W,1,9,1.5,23,M,,M,,*57
06/03/2014	02:11:20.616	$GPGGA,021121,2501.7130,N,08016.1454,W,1,9,1.5,23,M,,M,,*55
06/03/2014	02:11:21.629	$GPGGA,021122,2501.7143,N,08016.1443,W,1,9,1.5,23,M,,M,,*54
06/03/2014	02:11:22.631	$GPGGA,021123,2501.7154,N,08016.1436,W,1,8,1.7,23,M,,M,,*52
06/03/2014	02:11:23.644	$GPGGA,021124,2501.7169,N,08016.1432,W,1,8,1.5,23,M,,M,,*5D
06/03/2014	02:11:24.656	$GPGGA,021125,2501.7184,N,08016.1424,W,1,9,1.5,23,M,,M,,*59
06/03/2014	02:11:25.639	$GPGGA,021126,2501.7195,N,08016.1415,W,1,9,1.5,23,M,,M,,*58
06/03/2014	02:11:26.632	$GPGGA,021127,2501.7205,N,08016.1407,W,1,9,1.5,23,M,,M,,*50
06/03/2014	02:11:27.644	$GPGGA,021128,2501.7216,N,08016.1400,W,1,9,1.5,24,M,,M,,*5D
06/03/2014	02:11:28.629	$GPGGA,021129,2501.7231,N,08016.1393,W,1,9,1.5,24,M,,M,,*54
06/03/2014	02:11:29.500	$GPGGA,021130,2501.7244,N,08016.1386,W,1,9,1.5,24,M,,M,,*5A
06/03/2014	02:11:30.522	$GPGGA,021131,2501.7258,N,08016.1377,W,1,9,1.5,24,M,,M,,*58
06/03/2014	02:11:31.499	$GPGGA,021132,2501.7273,N,08016.1368,W,1,9,1.5,24,M,,M,,*5C
06/03/2014	02:11:32.517	$GPGGA,021133,2501.7284,N,08016.1360,W,1,9,1.5,24,M,,M,,*5D
06/03/2014	02:11:33.490	$GPGGA,021134,2501.7295,N,08016.1353,W,1,9,1.5,24,M,,M,,*5A
06/03/2014	02:11:34.522	$GPGGA,021135,2501.7310,N,08016.1343,W,1,9,1.5,24,M,,M,,*56
06/03/2014	02:11:35.505	$GPGGA,021136,2501.7324,N,08016.1333,W,1,9,1.5,24,M,,M,,*55
06/03/2014	02:11:36.518	$GPGGA,021137,2501.7336,N,08016.1324,W,1,8,2.2,24,M,,M,,*54
06/03/2014	02:11:37.489	$GPGGA,021138,2501.7347,N,08016.1314,W,1,8,1.5,24,M,,M,,*5A
06/03/2014	02:11:38.521	$GPGGA,021139,2501.7361,N,08016.1306,W,1,9,1.5,24,M,,M,,*5D
06/03/2014	02:11:39.504	$GPGGA,021140,2501.7375,N,08016.1298,W,1,9,1.5,24,M,,M,,*50
06/03/2014	02:11:40.506	$GPGGA,021141,2501.7389,N,08016.1289,W,1,9,1.5,24,M,,M,,*52
06/03/2014	02:11:41.611	$GPGGA,021142,2501.7400,N,08016.1281,W,1,9,1.5,24,M,,M,,*5F
06/03/2014	02:11:42.501	$GPGGA,021143,2501.7411,N,08016.1272,W,1,9,1.5,24,M,,M,,*52
06/03/2014	02:11:43.615	$GPGGA,021144,2501.7426,N,08016.1265,W,1,9,1.5,24,M,,M,,*57
06/03/2014	02:11:44.607	$GPGGA,021145,2501.7440,N,08016.1257,W,1,9,1.5,24,M,,M,,*57
06/03/2014	02:11:45.479	$GPGGA,021146,2501.7451,N,08016.1250,W,1,9,1.5,24,M,,M,,*53
06/03/2014	02:11:46.502	$GPGGA,021147,2501.7464,N,08016.1241,W,1,9,1.5,24,M,,M,,*54
06/03/2014	02:11:47.594	$GPGGA,021148,2501.7477,N,08016.1235,W,1,9,1.5,24,M,,M,,*5A
06/03/2014	02:11:48.630	$GPGGA,021149,2501.7491,N,08016.1226,W,1,9,1.5,24,M,,M,,*51
06/03/2014	02:11:49.499	$GPGGA,021150,2501.7502,N,08016.1216,W,1,9,1.5,24,M,,M,,*51
06/03/2014	02:11:50.511	$GPGGA,021151,2501.7516,N,08016.1212,W,1,9,1.5,24,M,,M,,*51
06/03/2014	02:11:51.594	$GPGGA,021152,2501.7531,N,08016.1209,W,1,9,1.7,24,M,,M,,*5F
