Software Version Number: 1	Data File Format Number: 1	Build Version Number: 1	Error Count Since VI Started: 0	Manufacturer: Raytheon	 Model Number: RayMarine 120	 S/N: 	 Cal Date: 	 Wind Direction Offset: 0.00	 Slope (M)1: 0.00	 Offset (B)1: 0.00	 Slope (M)2: 0.00	 Offset (B)2: 0.00	 Slope (M)3: 0.00	 Offset (B)3: 0.00	 Slope (M)4: 0.00	 Offset (B)4: 0.00	 Slope (M)5: 0.00	 Offset (B)5: 0.00	 Slope (M)6: 0.00	 Offset (B)6: 0.00
Computer Date	Computer Time	GGA String
06/06/2014	21:00:00.875	$GPGGA,210001,2417.5978,N,08138.1786,W,1,11,1.2,11,M,,M,,*68
06/06/2014	21:00:01.780	$GPGGA,210002,2417.5983,N,08138.1789,W,1,11,1.2,11,M,,M,,*60
06/06/2014	21:00:02.856	$GPGGA,210003,2417.5988,N,08138.1792,W,1,11,1.2,11,M,,M,,*60
06/06/2014	21:00:03.773	$GPGGA,210004,2417.5992,N,08138.1796,W,1,11,1.2,12,M,,M,,*6B
06/06/2014	21:00:04.890	$GPGGA,210005,2417.5996,N,08138.1799,W,1,11,1.2,12,M,,M,,*61
06/06/2014	21:00:05.867	$GPGGA,210006,2417.6001,N,08138.1801,W,1,11,1.2,12,M,,M,,*68
06/06/2014	21:00:06.894	$GPGGA,210007,2417.6005,N,08138.1804,W,1,11,1.2,12,M,,M,,*68
06/06/2014	21:00:07.890	$GPGGA,210008,2417.6010,N,08138.1806,W,1,11,1.2,12,M,,M,,*61
06/06/2014	21:00:08.905	$GPGGA,210009,2417.6015,N,08138.1810,W,1,11,1.2,12,M,,M,,*62
06/06/2014	21:00:09.884	$GPGGA,210010,2417.6019,N,08138.1811,W,1,11,1.2,13,M,,M,,*66
06/06/2014	21:00:10.880	$GPGGA,210011,2417.6022,N,08138.1814,W,1,11,1.2,13,M,,M,,*6A
06/06/2014	21:00:11.897	$GPGGA,210012,2417.6026,N,08138.1817,W,1,11,1.2,13,M,,M,,*6E
06/06/2014	21:00:12.893	$GPGGA,210013,2417.6032,N,08138.1819,W,1,11,1.2,13,M,,M,,*64
06/06/2014	21:00:13.910	$GPGGA,210014,2417.6036,N,08138.1822,W,1,11,1.2,13,M,,M,,*6F
06/06/2014	21:00:14.907	$GPGGA,210015,2417.6040,N,08138.1824,W,1,11,1.2,13,M,,M,,*69
06/06/2014	21:00:15.913	$GPGGA,210016,2417.6044,N,08138.1828,W,1,11,1.2,13,M,,M,,*62
06/06/2014	21:00:16.910	$GPGGA,210017,2417.6048,N,08138.1831,W,1,11,1.2,13,M,,M,,*67
06/06/2014	21:00:17.927	$GPGGA,210018,2417.6053,N,08138.1833,W,1,11,1.2,13,M,,M,,*60
06/06/2014	21:00:18.914	$GPGGA,210019,2417.6058,N,08138.1836,W,1,11,1.2,14,M,,M,,*68
06/06/2014	21:00:19.941	$GPGGA,210020,2417.6061,N,08138.1839,W,1,11,1.2,14,M,,M,,*67
06/06/2014	21:00:20.958	$GPGGA,210021,2417.6065,N,08138.1842,W,1,11,1.2,14,M,,M,,*6E
06/06/2014	21:00:21.934	$GPGGA,210022,2417.6069,N,08138.1846,W,1,11,1.2,14,M,,M,,*65
06/06/2014	21:00:22.941	$GPGGA,210023,2417.6073,N,08138.1850,W,1,11,1.2,14,M,,M,,*68
06/06/2014	21:00:23.968	$GPGGA,210024,2417.6077,N,08138.1853,W,1,11,1.2,14,M,,M,,*68
06/06/2014	21:00:24.985	$GPGGA,210025,2417.6082,N,08138.1857,W,1,11,1.2,14,M,,M,,*67
06/06/2014	21:00:25.961	$GPGGA,210026,2417.6087,N,08138.1861,W,1,11,1.2,14,M,,M,,*64
06/06/2014	21:00:26.968	$GPGGA,210027,2417.6091,N,08138.1866,W,1,11,1.2,14,M,,M,,*65
06/06/2014	21:00:27.985	$GPGGA,210028,2417.6095,N,08138.1871,W,1,11,1.4,14,M,,M,,*6E
06/06/2014	21:00:28.972	$GPGGA,210029,2417.6100,N,08138.1875,W,1,11,1.2,14,M,,M,,*60
06/06/2014	21:00:29.987	$GPGGA,210030,2417.6105,N,08138.1879,W,1,11,1.2,14,M,,M,,*61
06/06/2014	21:00:31.004	$GPGGA,210031,2417.6109,N,08138.1883,W,1,10,1.2,14,M,,M,,*68
06/06/2014	21:00:32.011	$GPGGA,210032,2417.6113,N,08138.1887,W,1,10,1.2,14,M,,M,,*64
06/06/2014	21:00:33.008	$GPGGA,210033,2417.6119,N,08138.1891,W,1,11,1.2,14,M,,M,,*69
06/06/2014	21:00:34.005	$GPGGA,210034,2417.6123,N,08138.1895,W,1,11,1.2,14,M,,M,,*63
06/06/2014	21:00:35.001	$GPGGA,210035,2417.6127,N,08138.1900,W,1,11,1.2,14,M,,M,,*6B
06/06/2014	21:00:36.018	$GPGGA,210036,2417.6131,N,08138.1904,W,1,11,1.2,14,M,,M,,*6B
06/06/2014	21:00:36.661	$GPGGA,210037,2417.6135,N,08138.1908,W,1,10,1.2,14,M,,M,,*63
06/06/2014	21:00:37.608	$GPGGA,210038,2417.6142,N,08138.1908,W,1,10,1.2,14,M,,M,,*6C
06/06/2014	21:00:38.645	$GPGGA,210039,2417.6149,N,08138.1911,W,1,11,1.2,14,M,,M,,*6F
06/06/2014	21:00:39.641	$GPGGA,210040,2417.6152,N,08138.1915,W,1,11,1.2,14,M,,M,,*6F
06/06/2014	21:00:40.719	$GPGGA,210041,2417.6156,N,08138.1918,W,1,10,1.2,14,M,,M,,*66
06/06/2014	21:00:41.625	$GPGGA,210042,2417.6162,N,08138.1922,W,1,10,1.2,14,M,,M,,*6B
06/06/2014	21:00:42.752	$GPGGA,210043,2417.6166,N,08138.1927,W,1,11,1.2,14,M,,M,,*6A
06/06/2014	21:00:43.659	$GPGGA,210044,2417.6169,N,08138.1933,W,1,11,1.2,14,M,,M,,*67
06/06/2014	21:00:44.776	$GPGGA,210045,2417.6174,N,08138.1936,W,1,11,1.2,14,M,,M,,*6F
06/06/2014	21:00:45.662	$GPGGA,210046,2417.6177,N,08138.1941,W,1,11,1.2,14,M,,M,,*6F
06/06/2014	21:00:46.769	$GPGGA,210047,2417.6181,N,08138.1945,W,1,11,1.2,14,M,,M,,*63
06/06/2014	21:00:47.667	$GPGGA,210048,2417.6184,N,08138.1951,W,1,11,1.2,14,M,,M,,*6C
06/06/2014	21:00:48.765	$GPGGA,210049,2417.6187,N,08138.1958,W,1,10,1.2,14,M,,M,,*66
06/06/2014	21:00:49.759	$GPGGA,210050,2417.6192,N,08138.1962,W,1,10,1.5,14,M,,M,,*64
06/06/2014	21:00:50.786	$GPGGA,210051,2417.6196,N,08138.1963,W,1,11,1.2,14,M,,M,,*66
06/06/2014	21:00:51.694	$GPGGA,210052,2417.6199,N,08138.1966,W,1,11,1.2,14,M,,M,,*6F
06/06/2014	21:00:52.799	$GPGGA,210053,2417.6203,N,08138.1970,W,1,11,1.2,14,M,,M,,*69
06/06/2014	21:00:53.786	$GPGGA,210054,2417.6207,N,08138.1973,W,1,11,1.2,14,M,,M,,*69
06/06/2014	21:00:54.793	$GPGGA,210055,2417.6210,N,08138.1976,W,1,11,1.2,14,M,,M,,*6B
06/06/2014	21:00:55.722	$GPGGA,210056,2417.6214,N,08138.1981,W,1,11,1.2,14,M,,M,,*64
06/06/2014	21:00:56.796	$GPGGA,210057,2417.6218,N,08138.1985,W,1,10,1.2,14,M,,M,,*6C
06/06/2014	21:00:57.813	$GPGGA,210058,2417.6221,N,08138.1990,W,1,10,1.2,14,M,,M,,*6D
06/06/2014	21:00:58.832	$GPGGA,210059,2417.6225,N,08138.1994,W,1,11,1.2,14,M,,M,,*6D
06/06/2014	21:00:59.837	$GPGGA,210100,2417.6231,N,08138.1998,W,1,11,1.2,14,M,,M,,*69
06/06/2014	21:01:00.844	$GPGGA,210101,2417.6234,N,08138.2001,W,1,11,1.2,14,M,,M,,*67
06/06/2014	21:01:01.730	$GPGGA,210102,2417.6238,N,08138.2005,W,1,11,1.2,14,M,,M,,*6C
06/06/2014	21:01:02.817	$GPGGA,210103,2417.6242,N,08138.2009,W,1,10,1.3,14,M,,M,,*6C
06/06/2014	21:01:03.854	$GPGGA,210104,2417.6246,N,08138.2013,W,1,10,1.2,14,M,,M,,*65
06/06/2014	21:01:04.880	$GPGGA,210105,2417.6250,N,08138.2016,W,1,11,1.2,14,M,,M,,*67
06/06/2014	21:01:05.846	$GPGGA,210106,2417.6254,N,08138.2020,W,1,11,1.3,14,M,,M,,*64
06/06/2014	21:01:06.843	$GPGGA,210107,2417.6259,N,08138.2021,W,1,10,1.3,14,M,,M,,*68
06/06/2014	21:01:07.860	$GPGGA,210108,2417.6263,N,08138.2025,W,1,10,1.5,14,M,,M,,*6C
06/06/2014	21:01:08.867	$GPGGA,210109,2417.6265,N,08138.2027,W,1,10,1.3,14,M,,M,,*6F
06/06/2014	21:01:09.864	$GPGGA,210110,2417.6271,N,08138.2030,W,1,10,1.3,14,M,,M,,*64
06/06/2014	21:01:10.890	$GPGGA,210111,2417.6275,N,08138.2031,W,1,10,1.3,14,M,,M,,*60
06/06/2014	21:01:11.887	$GPGGA,210112,2417.6279,N,08138.2034,W,1,10,1.3,14,M,,M,,*6A
06/06/2014	21:01:12.874	$GPGGA,210113,2417.6286,N,08138.2035,W,1,10,1.3,14,M,,M,,*6A
06/06/2014	21:01:13.891	$GPGGA,210114,2417.6292,N,08138.2038,W,1,10,1.3,14,M,,M,,*65
06/06/2014	21:01:14.908	$GPGGA,210115,2417.6299,N,08138.2041,W,1,11,1.2,14,M,,M,,*61
06/06/2014	21:01:15.904	$GPGGA,210116,2417.6304,N,08138.2043,W,1,11,1.4,14,M,,M,,*63
06/06/2014	21:01:16.911	$GPGGA,210117,2417.6310,N,08138.2045,W,1,9,1.5,13,M,,M,,*5E
06/06/2014	21:01:17.898	$GPGGA,210118,2417.6315,N,08138.2048,W,1,9,1.5,13,M,,M,,*59
06/06/2014	21:01:18.905	$GPGGA,210119,2417.6322,N,08138.2052,W,1,9,1.5,13,M,,M,,*57
06/06/2014	21:01:19.921	$GPGGA,210120,2417.6330,N,08138.2055,W,1,9,1.4,13,M,,M,,*58
06/06/2014	21:01:20.938	$GPGGA,210121,2417.6337,N,08138.2056,W,1,10,1.4,13,M,,M,,*65
06/06/2014	21:01:21.915	$GPGGA,210122,2417.6346,N,08138.2059,W,1,10,1.4,13,M,,M,,*6F
06/06/2014	21:01:22.921	$GPGGA,210123,2417.6353,N,08138.2061,W,1,10,1.4,13,M,,M,,*61
06/06/2014	21:01:23.948	$GPGGA,210124,2417.6361,N,08138.2064,W,1,10,1.4,13,M,,M,,*62
06/06/2014	21:01:24.924	$GPGGA,210125,2417.6369,N,08138.2066,W,1,10,1.4,13,M,,M,,*69
06/06/2014	21:01:25.941	$GPGGA,210126,2417.6376,N,08138.2070,W,1,10,1.4,13,M,,M,,*63
06/06/2014	21:01:26.968	$GPGGA,210127,2417.6384,N,08138.2071,W,1,10,1.4,13,M,,M,,*6E
06/06/2014	21:01:27.965	$GPGGA,210128,2417.6391,N,08138.2074,W,1,10,1.4,13,M,,M,,*60
06/06/2014	21:01:28.946	$GPGGA,210129,2417.6400,N,08138.2077,W,1,10,1.4,13,M,,M,,*6D
06/06/2014	21:01:29.954	$GPGGA,210130,2417.6408,N,08138.2078,W,1,10,1.4,13,M,,M,,*62
06/06/2014	21:01:30.985	$GPGGA,210131,2417.6416,N,08138.2081,W,1,10,1.4,13,M,,M,,*6A
06/06/2014	21:01:31.972	$GPGGA,210132,2417.6424,N,08138.2084,W,1,10,1.4,13,M,,M,,*6D
06/06/2014	21:01:33.084	$GPGGA,210133,2417.6433,N,08138.2086,W,1,10,1.4,13,M,,M,,*68
06/06/2014	21:01:33.967	$GPGGA,210134,2417.6441,N,08138.2088,W,1,10,1.4,13,M,,M,,*64
06/06/2014	21:01:36.692	$GPGGA,210137,2417.6466,N,08138.2099,W,1,10,1.4,13,M,,M,,*62
06/06/2014	21:01:37.578	$GPGGA,210138,2417.6474,N,08138.2102,W,1,10,1.4,13,M,,M,,*6D
06/06/2014	21:01:38.686	$GPGGA,210139,2417.6484,N,08138.2103,W,1,10,1.4,13,M,,M,,*62
06/06/2014	21:01:39.613	$GPGGA,210140,2417.6492,N,08138.2107,W,1,10,1.4,13,M,,M,,*6F
06/06/2014	21:01:40.598	$GPGGA,210141,2417.6501,N,08138.2110,W,1,10,1.4,13,M,,M,,*63
06/06/2014	21:01:41.605	$GPGGA,210142,2417.6510,N,08138.2113,W,1,10,1.4,13,M,,M,,*63
06/06/2014	21:01:42.742	$GPGGA,210143,2417.6518,N,08138.2117,W,1,10,1.4,13,M,,M,,*6E
06/06/2014	21:01:43.640	$GPGGA,210144,2417.6527,N,08138.2121,W,1,10,1.4,13,M,,M,,*60
06/06/2014	21:01:44.638	$GPGGA,210145,2417.6535,N,08138.2124,W,1,10,1.4,14,M,,M,,*60
06/06/2014	21:01:45.734	$GPGGA,210146,2417.6545,N,08138.2128,W,1,10,1.4,14,M,,M,,*68
06/06/2014	21:01:46.757	$GPGGA,210147,2417.6553,N,08138.2132,W,1,10,1.4,14,M,,M,,*65
06/06/2014	21:01:47.746	$GPGGA,210148,2417.6563,N,08138.2135,W,1,10,1.4,14,M,,M,,*6E
06/06/2014	21:01:48.780	$GPGGA,210149,2417.6572,N,08138.2139,W,1,10,1.4,14,M,,M,,*63
06/06/2014	21:01:49.740	$GPGGA,210150,2417.6581,N,08138.2142,W,1,10,1.4,14,M,,M,,*6B
06/06/2014	21:01:50.767	$GPGGA,210151,2417.6590,N,08138.2146,W,1,10,1.4,14,M,,M,,*6E
06/06/2014	21:01:51.763	$GPGGA,210152,2417.6600,N,08138.2150,W,1,10,1.4,14,M,,M,,*60
06/06/2014	21:01:52.783	$GPGGA,210153,2417.6608,N,08138.2153,W,1,10,1.4,14,M,,M,,*6A
06/06/2014	21:01:53.767	$GPGGA,210154,2417.6618,N,08138.2157,W,1,10,1.4,14,M,,M,,*68
06/06/2014	21:01:54.774	$GPGGA,210155,2417.6628,N,08138.2160,W,1,10,1.4,14,M,,M,,*6E
06/06/2014	21:01:55.790	$GPGGA,210156,2417.6637,N,08138.2164,W,1,10,1.4,14,M,,M,,*67
06/06/2014	21:01:56.796	$GPGGA,210157,2417.6646,N,08138.2168,W,1,10,1.4,14,M,,M,,*6C
06/06/2014	21:01:57.783	$GPGGA,210158,2417.6655,N,08138.2171,W,1,10,1.4,14,M,,M,,*69
06/06/2014	21:01:58.800	$GPGGA,210159,2417.6665,N,08138.2175,W,1,10,1.4,14,M,,M,,*6F
06/06/2014	21:01:59.807	$GPGGA,210200,2417.6673,N,08138.2180,W,1,10,1.4,14,M,,M,,*6D
06/06/2014	21:02:00.813	$GPGGA,210201,2417.6683,N,08138.2183,W,1,10,1.4,14,M,,M,,*60
06/06/2014	21:02:01.790	$GPGGA,210202,2417.6693,N,08138.2187,W,1,10,1.4,14,M,,M,,*66
06/06/2014	21:02:02.797	$GPGGA,210203,2417.6701,N,08138.2193,W,1,10,1.4,14,M,,M,,*68
06/06/2014	21:02:03.814	$GPGGA,210204,2417.6711,N,08138.2196,W,1,10,1.4,14,M,,M,,*6B
06/06/2014	21:02:04.841	$GPGGA,210205,2417.6720,N,08138.2200,W,1,10,1.4,14,M,,M,,*64
06/06/2014	21:02:05.827	$GPGGA,210206,2417.6729,N,08138.2204,W,1,10,1.4,14,M,,M,,*6A
06/06/2014	21:02:06.844	$GPGGA,210207,2417.6738,N,08138.2208,W,1,10,1.4,14,M,,M,,*67
06/06/2014	21:02:07.831	$GPGGA,210208,2417.6747,N,08138.2212,W,1,10,1.4,14,M,,M,,*6B
06/06/2014	21:02:08.828	$GPGGA,210209,2417.6756,N,08138.2216,W,1,10,1.4,14,M,,M,,*6E
06/06/2014	21:02:09.834	$GPGGA,210210,2417.6765,N,08138.2220,W,1,10,1.4,14,M,,M,,*63
06/06/2014	21:02:10.871	$GPGGA,210211,2417.6774,N,08138.2225,W,1,10,1.4,14,M,,M,,*67
06/06/2014	21:02:11.858	$GPGGA,210212,2417.6781,N,08138.2229,W,1,10,1.4,14,M,,M,,*62
06/06/2014	21:02:12.875	$GPGGA,210213,2417.6791,N,08138.2232,W,1,10,1.4,14,M,,M,,*68
06/06/2014	21:02:13.851	$GPGGA,210214,2417.6801,N,08138.2236,W,1,10,1.4,14,M,,M,,*6D
06/06/2014	21:02:14.857	$GPGGA,210215,2417.6810,N,08138.2240,W,1,10,1.4,14,M,,M,,*6D
06/06/2014	21:02:15.884	$GPGGA,210216,2417.6819,N,08138.2244,W,1,10,1.4,14,M,,M,,*63
06/06/2014	21:02:16.891	$GPGGA,210217,2417.6828,N,08138.2248,W,1,10,1.4,14,M,,M,,*6C
06/06/2014	21:02:17.888	$GPGGA,210218,2417.6837,N,08138.2252,W,1,10,1.4,14,M,,M,,*66
06/06/2014	21:02:18.884	$GPGGA,210219,2417.6846,N,08138.2256,W,1,10,1.4,14,M,,M,,*65
06/06/2014	21:02:19.900	$GPGGA,210220,2417.6855,N,08138.2259,W,1,10,1.4,14,M,,M,,*62
06/06/2014	21:02:20.884	$GPGGA,210221,2417.6864,N,08138.2265,W,1,10,1.4,14,M,,M,,*6E
06/06/2014	21:02:21.878	$GPGGA,210222,2417.6872,N,08138.2269,W,1,10,1.4,14,M,,M,,*66
06/06/2014	21:02:22.902	$GPGGA,210223,2417.6882,N,08138.2273,W,1,10,1.4,14,M,,M,,*63
06/06/2014	21:02:23.916	$GPGGA,210224,2417.6890,N,08138.2276,W,1,10,1.4,14,M,,M,,*62
06/06/2014	21:02:24.891	$GPGGA,210225,2417.6900,N,08138.2280,W,1,10,1.4,14,M,,M,,*62
06/06/2014	21:02:25.905	$GPGGA,210226,2417.6908,N,08138.2285,W,1,10,1.4,14,M,,M,,*6C
06/06/2014	21:02:26.899	$GPGGA,210227,2417.6918,N,08138.2290,W,1,10,1.4,14,M,,M,,*68
06/06/2014	21:02:27.913	$GPGGA,210228,2417.6926,N,08138.2294,W,1,10,1.4,14,M,,M,,*6E
06/06/2014	21:02:28.899	$GPGGA,210229,2417.6936,N,08138.2298,W,1,10,1.4,14,M,,M,,*62
06/06/2014	21:02:29.901	$GPGGA,210230,2417.6946,N,08138.2301,W,1,10,1.4,14,M,,M,,*6C
06/06/2014	21:02:31.031	$GPGGA,210231,2417.6955,N,08138.2306,W,1,10,1.4,14,M,,M,,*68
06/06/2014	21:02:31.929	$GPGGA,210232,2417.6964,N,08138.2310,W,1,10,1.4,14,M,,M,,*6E
06/06/2014	21:02:32.903	$GPGGA,210233,2417.6973,N,08138.2314,W,1,10,1.4,14,M,,M,,*6D
06/06/2014	21:02:33.906	$GPGGA,210234,2417.6983,N,08138.2319,W,1,10,1.4,14,M,,M,,*68
06/06/2014	21:02:35.011	$GPGGA,210235,2417.6991,N,08138.2323,W,1,10,1.5,14,M,,M,,*62
06/06/2014	21:02:35.935	$GPGGA,210236,2417.6998,N,08138.2326,W,1,10,1.5,14,M,,M,,*6D
06/06/2014	21:02:36.661	$GPGGA,210237,2417.7007,N,08138.2330,W,1,9,1.4,14,M,,M,,*5C
06/06/2014	21:02:37.655	$GPGGA,210238,2417.7016,N,08138.2334,W,1,9,1.4,14,M,,M,,*57
06/06/2014	21:02:38.699	$GPGGA,210239,2417.7026,N,08138.2338,W,1,10,1.4,14,M,,M,,*61
06/06/2014	21:02:39.683	$GPGGA,210240,2417.7034,N,08138.2342,W,1,10,1.4,14,M,,M,,*61
06/06/2014	21:02:40.677	$GPGGA,210241,2417.7043,N,08138.2346,W,1,10,1.5,14,M,,M,,*65
06/06/2014	21:02:41.671	$GPGGA,210242,2417.7052,N,08138.2350,W,1,10,1.4,14,M,,M,,*60
06/06/2014	21:02:42.696	$GPGGA,210243,2417.7059,N,08138.2355,W,1,10,1.4,14,M,,M,,*6F
06/06/2014	21:02:43.700	$GPGGA,210244,2417.7069,N,08138.2359,W,1,10,1.4,14,M,,M,,*67
06/06/2014	21:02:44.694	$GPGGA,210245,2417.7077,N,08138.2363,W,1,10,1.4,14,M,,M,,*60
06/06/2014	21:02:45.668	$GPGGA,210246,2417.7085,N,08138.2366,W,1,10,1.5,14,M,,M,,*6A
06/06/2014	21:02:46.702	$GPGGA,210247,2417.7092,N,08138.2371,W,1,9,1.5,13,M,,M,,*54
06/06/2014	21:02:47.696	$GPGGA,210248,2417.7099,N,08138.2374,W,1,9,1.5,13,M,,M,,*55
06/06/2014	21:02:48.700	$GPGGA,210249,2417.7109,N,08138.2377,W,1,9,1.5,13,M,,M,,*5F
06/06/2014	21:02:49.693	$GPGGA,210250,2417.7117,N,08138.2381,W,1,9,1.5,13,M,,M,,*51
06/06/2014	21:02:50.697	$GPGGA,210251,2417.7124,N,08138.2386,W,1,9,1.5,13,M,,M,,*57
06/06/2014	21:02:51.711	$GPGGA,210252,2417.7132,N,08138.2391,W,1,9,1.5,13,M,,M,,*55
06/06/2014	21:02:52.705	$GPGGA,210253,2417.7141,N,08138.2395,W,1,9,1.5,13,M,,M,,*54
06/06/2014	21:02:53.679	$GPGGA,210254,2417.7150,N,08138.2399,W,1,9,1.4,13,M,,M,,*5E
06/06/2014	21:02:54.724	$GPGGA,210255,2417.7160,N,08138.2406,W,1,10,1.4,13,M,,M,,*65
06/06/2014	21:02:55.708	$GPGGA,210256,2417.7171,N,08138.2410,W,1,10,1.4,13,M,,M,,*61
06/06/2014	21:02:56.722	$GPGGA,210257,2417.7182,N,08138.2417,W,1,10,1.4,13,M,,M,,*6B
06/06/2014	21:02:57.696	$GPGGA,210258,2417.7192,N,08138.2421,W,1,10,1.4,13,M,,M,,*60
06/06/2014	21:02:58.720	$GPGGA,210259,2417.7200,N,08138.2428,W,1,10,1.4,13,M,,M,,*60
06/06/2014	21:02:59.744	$GPGGA,210300,2417.7208,N,08138.2432,W,1,10,1.4,13,M,,M,,*6E
06/06/2014	21:03:00.718	$GPGGA,210301,2417.7218,N,08138.2436,W,1,10,1.4,13,M,,M,,*6A
06/06/2014	21:03:01.722	$GPGGA,210302,2417.7228,N,08138.2442,W,1,10,1.4,13,M,,M,,*69
06/06/2014	21:03:02.736	$GPGGA,210303,2417.7236,N,08138.2447,W,1,10,1.4,13,M,,M,,*62
06/06/2014	21:03:03.740	$GPGGA,210304,2417.7246,N,08138.2453,W,1,10,1.4,13,M,,M,,*67
06/06/2014	21:03:04.724	$GPGGA,210305,2417.7254,N,08138.2457,W,1,10,1.4,13,M,,M,,*61
06/06/2014	21:03:05.728	$GPGGA,210306,2417.7262,N,08138.2462,W,1,10,1.4,13,M,,M,,*61
06/06/2014	21:03:06.732	$GPGGA,210307,2417.7271,N,08138.2467,W,1,10,1.4,13,M,,M,,*67
06/06/2014	21:03:07.826	$GPGGA,210308,2417.7280,N,08138.2471,W,1,10,1.4,13,M,,M,,*61
06/06/2014	21:03:08.760	$GPGGA,210309,2417.7287,N,08138.2476,W,1,10,1.4,13,M,,M,,*60
06/06/2014	21:03:09.734	$GPGGA,210310,2417.7294,N,08138.2479,W,1,10,1.5,13,M,,M,,*64
06/06/2014	21:03:10.758	$GPGGA,210311,2417.7301,N,08138.2483,W,1,9,1.5,13,M,,M,,*55
06/06/2014	21:03:11.752	$GPGGA,210312,2417.7312,N,08138.2489,W,1,9,1.4,13,M,,M,,*5F
06/06/2014	21:03:12.867	$GPGGA,210313,2417.7319,N,08138.2494,W,1,10,1.4,13,M,,M,,*61
06/06/2014	21:03:13.821	$GPGGA,210314,2417.7329,N,08138.2500,W,1,10,1.4,13,M,,M,,*69
06/06/2014	21:03:14.754	$GPGGA,210315,2417.7338,N,08138.2505,W,1,10,1.4,13,M,,M,,*6D
06/06/2014	21:03:15.780	$GPGGA,210316,2417.7348,N,08138.2511,W,1,10,1.4,13,M,,M,,*6C
06/06/2014	21:03:16.853	$GPGGA,210317,2417.7355,N,08138.2515,W,1,10,1.5,13,M,,M,,*64
06/06/2014	21:03:17.757	$GPGGA,210318,2417.7363,N,08138.2520,W,1,10,1.5,13,M,,M,,*68
06/06/2014	21:03:18.871	$GPGGA,210319,2417.7370,N,08138.2525,W,1,9,1.5,13,M,,M,,*56
06/06/2014	21:03:19.865	$GPGGA,210320,2417.7379,N,08138.2529,W,1,9,1.5,13,M,,M,,*59
06/06/2014	21:03:20.869	$GPGGA,210321,2417.7387,N,08138.2533,W,1,9,1.5,13,M,,M,,*52
06/06/2014	21:03:21.763	$GPGGA,210322,2417.7395,N,08138.2538,W,1,9,1.5,13,M,,M,,*59
06/06/2014	21:03:22.748	$GPGGA,210323,2417.7403,N,08138.2543,W,1,9,1.5,13,M,,M,,*5C
06/06/2014	21:03:23.882	$GPGGA,210324,2417.7413,N,08138.2547,W,1,9,1.5,13,M,,M,,*5E
06/06/2014	21:03:24.855	$GPGGA,210325,2417.7426,N,08138.2556,W,1,9,1.4,13,M,,M,,*58
06/06/2014	21:03:25.859	$GPGGA,210326,2417.7437,N,08138.2563,W,1,9,1.4,13,M,,M,,*5D
06/06/2014	21:03:26.863	$GPGGA,210327,2417.7446,N,08138.2569,W,1,10,1.4,13,M,,M,,*68
06/06/2014	21:03:27.877	$GPGGA,210328,2417.7455,N,08138.2574,W,1,10,1.4,12,M,,M,,*68
06/06/2014	21:03:28.861	$GPGGA,210329,2417.7464,N,08138.2579,W,1,10,1.4,12,M,,M,,*66
06/06/2014	21:03:29.865	$GPGGA,210330,2417.7475,N,08138.2584,W,1,10,1.4,12,M,,M,,*6C
06/06/2014	21:03:30.869	$GPGGA,210331,2417.7484,N,08138.2590,W,1,10,1.4,12,M,,M,,*66
06/06/2014	21:03:31.883	$GPGGA,210332,2417.7493,N,08138.2595,W,1,10,1.4,12,M,,M,,*66
06/06/2014	21:03:32.887	$GPGGA,210333,2417.7504,N,08138.2601,W,1,10,1.4,12,M,,M,,*66
06/06/2014	21:03:33.871	$GPGGA,210334,2417.7513,N,08138.2606,W,1,10,1.4,12,M,,M,,*60
06/06/2014	21:03:34.906	$GPGGA,210335,2417.7522,N,08138.2612,W,1,10,1.4,12,M,,M,,*66
06/06/2014	21:03:35.890	$GPGGA,210336,2417.7532,N,08138.2616,W,1,10,1.4,12,M,,M,,*60
06/06/2014	21:03:36.642	$GPGGA,210337,2417.7542,N,08138.2623,W,1,10,1.4,12,M,,M,,*60
06/06/2014	21:03:37.636	$GPGGA,210338,2417.7551,N,08138.2628,W,1,10,1.4,12,M,,M,,*66
06/06/2014	21:03:38.630	$GPGGA,210339,2417.7561,N,08138.2634,W,1,10,1.4,12,M,,M,,*69
06/06/2014	21:03:39.654	$GPGGA,210340,2417.7572,N,08138.2639,W,1,10,1.4,12,M,,M,,*68
06/06/2014	21:03:40.668	$GPGGA,210341,2417.7582,N,08138.2645,W,1,10,1.4,12,M,,M,,*6D
06/06/2014	21:03:41.651	$GPGGA,210342,2417.7592,N,08138.2652,W,1,10,1.4,12,M,,M,,*69
06/06/2014	21:03:42.675	$GPGGA,210343,2417.7601,N,08138.2657,W,1,10,1.4,12,M,,M,,*64
06/06/2014	21:03:43.669	$GPGGA,210344,2417.7612,N,08138.2663,W,1,10,1.4,12,M,,M,,*66
06/06/2014	21:03:44.673	$GPGGA,210345,2417.7623,N,08138.2670,W,1,10,1.4,12,M,,M,,*67
06/06/2014	21:03:45.647	$GPGGA,210346,2417.7633,N,08138.2677,W,1,10,1.4,12,M,,M,,*62
06/06/2014	21:03:46.672	$GPGGA,210347,2417.7644,N,08138.2682,W,1,10,1.4,12,M,,M,,*69
06/06/2014	21:03:47.676	$GPGGA,210348,2417.7655,N,08138.2688,W,1,10,1.4,12,M,,M,,*6C
06/06/2014	21:03:48.670	$GPGGA,210349,2417.7666,N,08138.2695,W,1,10,1.4,12,M,,M,,*61
06/06/2014	21:03:49.664	$GPGGA,210350,2417.7676,N,08138.2702,W,1,10,1.4,13,M,,M,,*66
06/06/2014	21:03:50.688	$GPGGA,210351,2417.7688,N,08138.2707,W,1,10,1.4,13,M,,M,,*63
06/06/2014	21:03:51.672	$GPGGA,210352,2417.7698,N,08138.2714,W,1,10,1.4,13,M,,M,,*63
06/06/2014	21:03:52.686	$GPGGA,210353,2417.7708,N,08138.2722,W,1,10,1.4,13,M,,M,,*6F
06/06/2014	21:03:53.662	$GPGGA,210354,2417.7719,N,08138.2728,W,1,10,1.4,13,M,,M,,*62
06/06/2014	21:03:54.694	$GPGGA,210355,2417.7730,N,08138.2735,W,1,10,1.4,13,M,,M,,*64
06/06/2014	21:03:55.678	$GPGGA,210356,2417.7739,N,08138.2742,W,1,10,1.4,13,M,,M,,*6E
06/06/2014	21:03:56.693	$GPGGA,210357,2417.7751,N,08138.2749,W,1,10,1.4,13,M,,M,,*6A
06/06/2014	21:03:57.683	$GPGGA,210358,2417.7760,N,08138.2754,W,1,10,1.4,13,M,,M,,*6B
06/06/2014	21:03:58.791	$GPGGA,210359,2417.7771,N,08138.2761,W,1,10,1.4,13,M,,M,,*6C
06/06/2014	21:03:59.704	$GPGGA,210400,2417.7781,N,08138.2767,W,1,10,1.4,13,M,,M,,*6E
06/06/2014	21:04:00.692	$GPGGA,210401,2417.7791,N,08138.2775,W,1,9,1.5,13,M,,M,,*54
06/06/2014	21:04:01.687	$GPGGA,210402,2417.7800,N,08138.2780,W,1,9,1.4,13,M,,M,,*5B
06/06/2014	21:04:02.776	$GPGGA,210403,2417.7811,N,08138.2787,W,1,9,1.5,13,M,,M,,*5C
06/06/2014	21:04:03.700	$GPGGA,210404,2417.7820,N,08138.2794,W,1,9,1.4,13,M,,M,,*5A
06/06/2014	21:04:04.684	$GPGGA,210405,2417.7829,N,08138.2800,W,1,9,1.5,13,M,,M,,*51
06/06/2014	21:04:05.809	$GPGGA,210406,2417.7839,N,08138.2807,W,1,9,1.5,13,M,,M,,*54
06/06/2014	21:04:06.793	$GPGGA,210407,2417.7849,N,08138.2812,W,1,9,1.5,13,M,,M,,*56
06/06/2014	21:04:07.827	$GPGGA,210408,2417.7858,N,08138.2819,W,1,9,1.5,13,M,,M,,*52
06/06/2014	21:04:08.716	$GPGGA,210409,2417.7868,N,08138.2825,W,1,9,1.5,12,M,,M,,*5E
06/06/2014	21:04:09.795	$GPGGA,210410,2417.7878,N,08138.2832,W,1,9,1.5,12,M,,M,,*51
06/06/2014	21:04:10.831	$GPGGA,210411,2417.7887,N,08138.2839,W,1,9,1.5,12,M,,M,,*5B
06/06/2014	21:04:11.745	$GPGGA,210412,2417.7897,N,08138.2844,W,1,9,1.5,12,M,,M,,*53
06/06/2014	21:04:12.817	$GPGGA,210413,2417.7908,N,08138.2851,W,1,9,1.5,12,M,,M,,*51
06/06/2014	21:04:13.721	$GPGGA,210414,2417.7919,N,08138.2858,W,1,9,1.5,12,M,,M,,*5F
06/06/2014	21:04:14.817	$GPGGA,210415,2417.7929,N,08138.2865,W,1,9,1.5,12,M,,M,,*53
06/06/2014	21:04:15.720	$GPGGA,210416,2417.7939,N,08138.2872,W,1,9,1.5,12,M,,M,,*57
06/06/2014	21:04:16.834	$GPGGA,210417,2417.7948,N,08138.2879,W,1,9,1.5,12,M,,M,,*5B
06/06/2014	21:04:17.827	$GPGGA,210418,2417.7959,N,08138.2886,W,1,9,1.5,12,M,,M,,*54
06/06/2014	21:04:18.811	$GPGGA,210419,2417.7969,N,08138.2892,W,1,9,1.5,11,M,,M,,*50
06/06/2014	21:04:19.835	$GPGGA,210420,2417.7980,N,08138.2899,W,1,9,1.5,11,M,,M,,*56
06/06/2014	21:04:20.839	$GPGGA,210421,2417.7990,N,08138.2906,W,1,9,1.5,11,M,,M,,*51
06/06/2014	21:04:21.823	$GPGGA,210422,2417.8001,N,08138.2913,W,1,9,1.5,11,M,,M,,*58
06/06/2014	21:04:22.827	$GPGGA,210423,2417.8010,N,08138.2919,W,1,9,1.5,11,M,,M,,*53
06/06/2014	21:04:23.831	$GPGGA,210424,2417.8022,N,08138.2927,W,1,9,1.5,11,M,,M,,*58
06/06/2014	21:04:24.856	$GPGGA,210425,2417.8031,N,08138.2934,W,1,9,1.5,11,M,,M,,*59
06/06/2014	21:04:25.830	$GPGGA,210426,2417.8042,N,08138.2941,W,1,9,1.5,11,M,,M,,*5C
06/06/2014	21:04:26.854	$GPGGA,210427,2417.8053,N,08138.2948,W,1,9,1.5,11,M,,M,,*54
06/06/2014	21:04:27.848	$GPGGA,210428,2417.8063,N,08138.2956,W,1,9,1.5,11,M,,M,,*57
06/06/2014	21:04:28.842	$GPGGA,210429,2417.8073,N,08138.2963,W,1,9,1.5,10,M,,M,,*50
06/06/2014	21:04:29.847	$GPGGA,210430,2417.8084,N,08138.2970,W,1,9,1.5,10,M,,M,,*52
06/06/2014	21:04:30.850	$GPGGA,210431,2417.8093,N,08138.2977,W,1,9,1.5,10,M,,M,,*52
06/06/2014	21:04:31.865	$GPGGA,210432,2417.8103,N,08138.2984,W,1,9,1.5,10,M,,M,,*55
06/06/2014	21:04:32.847	$GPGGA,210433,2417.8114,N,08138.2992,W,1,9,1.5,10,M,,M,,*55
06/06/2014	21:04:33.852	$GPGGA,210434,2417.8124,N,08138.2999,W,1,9,1.5,10,M,,M,,*5A
06/06/2014	21:04:34.843	$GPGGA,210435,2417.8136,N,08138.3009,W,1,9,1.5,10,M,,M,,*59
06/06/2014	21:04:35.867	$GPGGA,210436,2417.8147,N,08138.3017,W,1,9,1.4,10,M,,M,,*52
06/06/2014	21:04:36.611	$GPGGA,210437,2417.8158,N,08138.3024,W,1,10,1.4,10,M,,M,,*65
06/06/2014	21:04:37.625	$GPGGA,210438,2417.8169,N,08138.3033,W,1,10,1.4,10,M,,M,,*6E
06/06/2014	21:04:38.619	$GPGGA,210439,2417.8182,N,08138.3042,W,1,10,1.4,10,M,,M,,*6C
06/06/2014	21:04:39.632	$GPGGA,210440,2417.8193,N,08138.3050,W,1,10,1.4,10,M,,M,,*61
06/06/2014	21:04:40.626	$GPGGA,210441,2417.8204,N,08138.3060,W,1,10,1.4,10,M,,M,,*6E
06/06/2014	21:04:41.629	$GPGGA,210442,2417.8215,N,08138.3067,W,1,10,1.4,10,M,,M,,*6A
06/06/2014	21:04:42.633	$GPGGA,210443,2417.8223,N,08138.3075,W,1,9,1.5,10,M,,M,,*54
06/06/2014	21:04:43.637	$GPGGA,210444,2417.8234,N,08138.3083,W,1,9,1.5,10,M,,M,,*5C
06/06/2014	21:04:44.630	$GPGGA,210445,2417.8248,N,08138.3093,W,1,9,1.5,10,M,,M,,*57
06/06/2014	21:04:45.634	$GPGGA,210446,2417.8259,N,08138.3103,W,1,9,1.4,10,M,,M,,*5D
06/06/2014	21:04:46.637	$GPGGA,210447,2417.8270,N,08138.3111,W,1,10,1.4,10,M,,M,,*6C
06/06/2014	21:04:47.641	$GPGGA,210448,2417.8280,N,08138.3118,W,1,10,1.5,10,M,,M,,*64
06/06/2014	21:04:48.735	$GPGGA,210449,2417.8291,N,08138.3126,W,1,9,1.5,10,M,,M,,*50
06/06/2014	21:04:49.628	$GPGGA,210450,2417.8302,N,08138.3134,W,1,9,1.5,10,M,,M,,*50
06/06/2014	21:04:50.742	$GPGGA,210451,2417.8313,N,08138.3143,W,1,9,1.5,10,M,,M,,*51
06/06/2014	21:04:51.644	$GPGGA,210452,2417.8323,N,08138.3150,W,1,9,1.5,10,M,,M,,*53
06/06/2014	21:04:52.728	$GPGGA,210453,2417.8333,N,08138.3158,W,1,9,1.5,10,M,,M,,*5B
06/06/2014	21:04:53.632	$GPGGA,210454,2417.8345,N,08138.3166,W,1,9,1.5,10,M,,M,,*50
06/06/2014	21:04:54.655	$GPGGA,210455,2417.8356,N,08138.3175,W,1,9,1.5,10,M,,M,,*51
06/06/2014	21:04:55.659	$GPGGA,210456,2417.8367,N,08138.3183,W,1,9,1.5,10,M,,M,,*59
06/06/2014	21:04:56.632	$GPGGA,210457,2417.8380,N,08138.3193,W,1,9,1.5,10,M,,M,,*50
06/06/2014	21:04:57.736	$GPGGA,210458,2417.8392,N,08138.3201,W,1,9,1.4,10,M,,M,,*55
06/06/2014	21:04:58.661	$GPGGA,210459,2417.8406,N,08138.3210,W,1,10,1.4,10,M,,M,,*66
06/06/2014	21:04:59.764	$GPGGA,210500,2417.8418,N,08138.3219,W,1,10,1.4,10,M,,M,,*6D
06/06/2014	21:05:00.777	$GPGGA,210501,2417.8431,N,08138.3227,W,1,10,1.4,10,M,,M,,*6A
06/06/2014	21:05:01.741	$GPGGA,210502,2417.8443,N,08138.3237,W,1,10,1.4,10,M,,M,,*6D
06/06/2014	21:05:02.754	$GPGGA,210503,2417.8456,N,08138.3245,W,1,10,1.4,10,M,,M,,*6D
06/06/2014	21:05:03.768	$GPGGA,210504,2417.8468,N,08138.3253,W,1,10,1.4,10,M,,M,,*60
06/06/2014	21:05:04.777	$GPGGA,210505,2417.8481,N,08138.3262,W,1,10,1.4,10,M,,M,,*64
06/06/2014	21:05:05.755	$GPGGA,210506,2417.8493,N,08138.3270,W,1,10,1.4,10,M,,M,,*67
06/06/2014	21:05:06.758	$GPGGA,210507,2417.8505,N,08138.3280,W,1,10,1.4,10,M,,M,,*67
06/06/2014	21:05:07.773	$GPGGA,210508,2417.8519,N,08138.3288,W,1,10,1.4,10,M,,M,,*6D
06/06/2014	21:05:08.756	$GPGGA,210509,2417.8532,N,08138.3296,W,1,10,1.4,11,M,,M,,*6B
06/06/2014	21:05:09.758	$GPGGA,210510,2417.8544,N,08138.3305,W,1,10,1.4,11,M,,M,,*69
06/06/2014	21:05:10.782	$GPGGA,210511,2417.8557,N,08138.3313,W,1,10,1.4,11,M,,M,,*6D
06/06/2014	21:05:11.785	$GPGGA,210512,2417.8569,N,08138.3320,W,1,10,1.4,11,M,,M,,*63
06/06/2014	21:05:12.770	$GPGGA,210513,2417.8582,N,08138.3328,W,1,10,1.4,11,M,,M,,*6F
06/06/2014	21:05:13.773	$GPGGA,210514,2417.8595,N,08138.3336,W,1,10,1.4,11,M,,M,,*61
06/06/2014	21:05:14.767	$GPGGA,210515,2417.8608,N,08138.3343,W,1,10,1.4,11,M,,M,,*65
06/06/2014	21:05:15.790	$GPGGA,210516,2417.8620,N,08138.3352,W,1,10,1.4,11,M,,M,,*6C
06/06/2014	21:05:16.803	$GPGGA,210517,2417.8634,N,08138.3360,W,1,10,1.4,11,M,,M,,*69
06/06/2014	21:05:17.797	$GPGGA,210518,2417.8647,N,08138.3367,W,1,10,1.4,11,M,,M,,*65
06/06/2014	21:05:18.781	$GPGGA,210519,2417.8658,N,08138.3371,W,1,10,1.4,11,M,,M,,*6D
06/06/2014	21:05:19.784	$GPGGA,210520,2417.8671,N,08138.3378,W,1,10,1.5,11,M,,M,,*64
06/06/2014	21:05:20.788	$GPGGA,210521,2417.8685,N,08138.3385,W,1,11,1.2,11,M,,M,,*6A
06/06/2014	21:05:21.771	$GPGGA,210522,2417.8696,N,08138.3392,W,1,11,1.2,11,M,,M,,*6D
06/06/2014	21:05:22.815	$GPGGA,210523,2417.8710,N,08138.3397,W,1,10,1.4,11,M,,M,,*61
06/06/2014	21:05:23.799	$GPGGA,210524,2417.8721,N,08138.3401,W,1,10,1.2,12,M,,M,,*69
06/06/2014	21:05:24.782	$GPGGA,210525,2417.8735,N,08138.3407,W,1,10,1.3,12,M,,M,,*6A
06/06/2014	21:05:25.786	$GPGGA,210526,2417.8747,N,08138.3412,W,1,10,1.3,12,M,,M,,*68
06/06/2014	21:05:26.949	$GPGGA,210527,2417.8761,N,08138.3418,W,1,11,1.2,12,M,,M,,*67
06/06/2014	21:05:27.822	$GPGGA,210528,2417.8777,N,08138.3423,W,1,11,1.2,12,M,,M,,*67
06/06/2014	21:05:28.785	$GPGGA,210529,2417.8789,N,08138.3426,W,1,11,1.2,12,M,,M,,*62
06/06/2014	21:05:29.799	$GPGGA,210530,2417.8804,N,08138.3432,W,1,11,1.3,12,M,,M,,*64
06/06/2014	21:05:30.953	$GPGGA,210531,2417.8818,N,08138.3437,W,1,11,1.2,12,M,,M,,*6C
06/06/2014	21:05:32.840	$GPGGA,210533,2417.8846,N,08138.3447,W,1,11,1.2,12,M,,M,,*62
06/06/2014	21:05:33.793	$GPGGA,210534,2417.8859,N,08138.3452,W,1,11,1.3,12,M,,M,,*6E
06/06/2014	21:05:34.788	$GPGGA,210535,2417.8875,N,08138.3457,W,1,9,1.5,12,M,,M,,*5B
06/06/2014	21:05:35.911	$GPGGA,210536,2417.8889,N,08138.3464,W,1,9,1.5,13,M,,M,,*5A
06/06/2014	21:05:36.602	$GPGGA,210537,2417.8902,N,08138.3468,W,1,9,1.5,13,M,,M,,*55
06/06/2014	21:05:37.606	$GPGGA,210538,2417.8916,N,08138.3472,W,1,9,1.3,13,M,,M,,*52
06/06/2014	21:05:38.730	$GPGGA,210539,2417.8931,N,08138.3475,W,1,10,1.3,12,M,,M,,*68
06/06/2014	21:05:39.623	$GPGGA,210540,2417.8945,N,08138.3480,W,1,10,1.3,12,M,,M,,*6F
06/06/2014	21:05:40.597	$GPGGA,210541,2417.8960,N,08138.3484,W,1,10,1.3,12,M,,M,,*6D
06/06/2014	21:05:41.771	$GPGGA,210542,2417.8976,N,08138.3488,W,1,10,1.3,12,M,,M,,*65
06/06/2014	21:05:42.754	$GPGGA,210543,2417.8992,N,08138.3493,W,1,10,1.5,12,M,,M,,*62
06/06/2014	21:05:43.607	$GPGGA,210544,2417.9007,N,08138.3497,W,1,10,1.5,12,M,,M,,*65
06/06/2014	21:05:44.740	$GPGGA,210545,2417.9021,N,08138.3501,W,1,10,1.3,12,M,,M,,*68
06/06/2014	21:05:45.775	$GPGGA,210546,2417.9036,N,08138.3505,W,1,10,1.3,12,M,,M,,*69
06/06/2014	21:05:46.728	$GPGGA,210547,2417.9052,N,08138.3509,W,1,10,1.8,12,M,,M,,*6D
06/06/2014	21:05:47.711	$GPGGA,210548,2417.9068,N,08138.3513,W,1,10,1.8,12,M,,M,,*60
06/06/2014	21:05:48.775	$GPGGA,210549,2417.9083,N,08138.3517,W,1,9,1.5,12,M,,M,,*55
06/06/2014	21:05:49.618	$GPGGA,210550,2417.9100,N,08138.3522,W,1,9,1.5,12,M,,M,,*51
06/06/2014	21:05:50.733	$GPGGA,210551,2417.9115,N,08138.3524,W,1,10,1.3,12,M,,M,,*6C
06/06/2014	21:05:51.776	$GPGGA,210552,2417.9135,N,08138.3529,W,1,10,1.2,12,M,,M,,*61
06/06/2014	21:05:52.709	$GPGGA,210553,2417.9151,N,08138.3533,W,1,11,1.2,12,M,,M,,*68
06/06/2014	21:05:53.793	$GPGGA,210554,2417.9169,N,08138.3537,W,1,11,1.5,12,M,,M,,*67
06/06/2014	21:05:54.736	$GPGGA,210555,2417.9186,N,08138.3540,W,1,9,1.5,12,M,,M,,*5E
06/06/2014	21:05:55.800	$GPGGA,210556,2417.9205,N,08138.3545,W,1,9,1.5,12,M,,M,,*50
06/06/2014	21:05:56.755	$GPGGA,210557,2417.9223,N,08138.3549,W,1,9,1.5,12,M,,M,,*59
06/06/2014	21:05:57.777	$GPGGA,210558,2417.9241,N,08138.3553,W,1,9,1.2,12,M,,M,,*5E
06/06/2014	21:05:58.721	$GPGGA,210559,2417.9259,N,08138.3556,W,1,11,1.2,12,M,,M,,*6A
06/06/2014	21:05:59.835	$GPGGA,210600,2417.9276,N,08138.3559,W,1,11,1.2,12,M,,M,,*67
06/06/2014	21:06:00.798	$GPGGA,210601,2417.9294,N,08138.3562,W,1,11,1.2,12,M,,M,,*62
06/06/2014	21:06:01.791	$GPGGA,210602,2417.9310,N,08138.3566,W,1,11,1.2,12,M,,M,,*68
06/06/2014	21:06:02.765	$GPGGA,210603,2417.9328,N,08138.3569,W,1,11,1.2,12,M,,M,,*6D
06/06/2014	21:06:03.738	$GPGGA,210604,2417.9345,N,08138.3570,W,1,11,1.2,13,M,,M,,*68
06/06/2014	21:06:04.721	$GPGGA,210605,2417.9364,N,08138.3573,W,1,11,1.2,13,M,,M,,*69
06/06/2014	21:06:05.795	$GPGGA,210606,2417.9382,N,08138.3574,W,1,11,1.2,13,M,,M,,*65
06/06/2014	21:06:06.758	$GPGGA,210607,2417.9400,N,08138.3577,W,1,10,1.2,13,M,,M,,*6B
06/06/2014	21:06:07.812	$GPGGA,210608,2417.9418,N,08138.3580,W,1,10,1.2,13,M,,M,,*65
06/06/2014	21:06:08.736	$GPGGA,210609,2417.9436,N,08138.3580,W,1,11,1.2,14,M,,M,,*6E
06/06/2014	21:06:09.789	$GPGGA,210610,2417.9454,N,08138.3580,W,1,11,1.4,14,M,,M,,*64
06/06/2014	21:06:10.813	$GPGGA,210611,2417.9473,N,08138.3584,W,1,10,1.4,14,M,,M,,*65
06/06/2014	21:06:11.817	$GPGGA,210612,2417.9490,N,08138.3584,W,1,10,1.4,14,M,,M,,*6B
06/06/2014	21:06:12.760	$GPGGA,210613,2417.9508,N,08138.3583,W,1,11,1.2,15,M,,M,,*6B
06/06/2014	21:06:13.814	$GPGGA,210614,2417.9526,N,08138.3585,W,1,11,1.2,15,M,,M,,*66
06/06/2014	21:06:14.787	$GPGGA,210615,2417.9544,N,08138.3587,W,1,11,1.2,15,M,,M,,*61
06/06/2014	21:06:15.761	$GPGGA,210616,2417.9562,N,08138.3586,W,1,11,1.2,15,M,,M,,*67
06/06/2014	21:06:16.774	$GPGGA,210617,2417.9580,N,08138.3587,W,1,11,1.2,15,M,,M,,*6B
06/06/2014	21:06:17.748	$GPGGA,210618,2417.9598,N,08138.3586,W,1,11,1.2,15,M,,M,,*6C
06/06/2014	21:06:18.793	$GPGGA,210619,2417.9616,N,08138.3587,W,1,11,1.3,16,M,,M,,*6B
06/06/2014	21:06:19.826	$GPGGA,210620,2417.9632,N,08138.3586,W,1,11,1.3,16,M,,M,,*66
06/06/2014	21:06:20.808	$GPGGA,210621,2417.9652,N,08138.3587,W,1,10,1.3,16,M,,M,,*61
06/06/2014	21:06:21.811	$GPGGA,210622,2417.9670,N,08138.3585,W,1,10,1.4,16,M,,M,,*67
06/06/2014	21:06:22.815	$GPGGA,210623,2417.9689,N,08138.3585,W,1,9,1.4,16,M,,M,,*58
06/06/2014	21:06:23.829	$GPGGA,210624,2417.9707,N,08138.3585,W,1,9,1.4,16,M,,M,,*58
06/06/2014	21:06:24.892	$GPGGA,210625,2417.9724,N,08138.3584,W,1,9,1.2,16,M,,M,,*5F
06/06/2014	21:06:25.856	$GPGGA,210626,2417.9742,N,08138.3581,W,1,9,1.2,17,M,,M,,*58
06/06/2014	21:06:26.860	$GPGGA,210627,2417.9760,N,08138.3579,W,1,11,1.3,17,M,,M,,*66
06/06/2014	21:06:27.883	$GPGGA,210628,2417.9780,N,08138.3580,W,1,11,1.2,17,M,,M,,*60
06/06/2014	21:06:28.766	$GPGGA,210629,2417.9797,N,08138.3577,W,1,11,1.2,17,M,,M,,*6F
06/06/2014	21:06:29.830	$GPGGA,210630,2417.9816,N,08138.3574,W,1,11,1.2,17,M,,M,,*62
06/06/2014	21:06:30.894	$GPGGA,210631,2417.9834,N,08138.3572,W,1,11,1.2,17,M,,M,,*65
06/06/2014	21:06:31.888	$GPGGA,210632,2417.9852,N,08138.3569,W,1,11,1.2,17,M,,M,,*6C
06/06/2014	21:06:32.891	$GPGGA,210633,2417.9870,N,08138.3566,W,1,11,1.4,17,M,,M,,*64
06/06/2014	21:06:33.835	$GPGGA,210634,2417.9888,N,08138.3563,W,1,11,1.4,17,M,,M,,*61
06/06/2014	21:06:34.892	$GPGGA,210635,2417.9906,N,08138.3561,W,1,10,1.2,17,M,,M,,*62
06/06/2014	21:06:35.892	$GPGGA,210636,2417.9926,N,08138.3557,W,1,10,1.4,17,M,,M,,*60
06/06/2014	21:06:36.662	$GPGGA,210637,2417.9945,N,08138.3553,W,1,10,1.4,17,M,,M,,*60
06/06/2014	21:06:37.667	$GPGGA,210638,2417.9962,N,08138.3548,W,1,10,1.2,17,M,,M,,*66
06/06/2014	21:06:38.680	$GPGGA,210639,2417.9980,N,08138.3543,W,1,11,1.2,17,M,,M,,*61
06/06/2014	21:06:39.693	$GPGGA,210640,2417.9996,N,08138.3538,W,1,11,1.2,17,M,,M,,*64
06/06/2014	21:06:40.677	$GPGGA,210641,2418.0014,N,08138.3532,W,1,11,1.2,18,M,,M,,*65
06/06/2014	21:06:41.705	$GPGGA,210642,2418.0032,N,08138.3528,W,1,11,1.2,18,M,,M,,*69
06/06/2014	21:06:42.704	$GPGGA,210643,2418.0049,N,08138.3521,W,1,11,1.2,18,M,,M,,*6D
06/06/2014	21:06:43.699	$GPGGA,210644,2418.0067,N,08138.3515,W,1,11,1.2,18,M,,M,,*61
06/06/2014	21:06:44.681	$GPGGA,210645,2418.0067,N,08138.3515,W,1,11,1.2,18,M,,M,,*60
06/06/2014	21:06:45.715	$GPGGA,210646,2418.0101,N,08138.3502,W,1,11,1.2,18,M,,M,,*64
06/06/2014	21:06:46.688	$GPGGA,210647,2418.0119,N,08138.3495,W,1,11,1.2,18,M,,M,,*63
06/06/2014	21:06:47.702	$GPGGA,210648,2418.0137,N,08138.3486,W,1,11,1.2,17,M,,M,,*6D
06/06/2014	21:06:48.686	$GPGGA,210649,2418.0155,N,08138.3478,W,1,11,1.3,17,M,,M,,*68
06/06/2014	21:06:49.690	$GPGGA,210650,2418.0173,N,08138.3471,W,1,11,1.2,17,M,,M,,*6C
06/06/2014	21:06:50.723	$GPGGA,210651,2418.0191,N,08138.3460,W,1,11,1.2,17,M,,M,,*61
06/06/2014	21:06:51.716	$GPGGA,210652,2418.0210,N,08138.3450,W,1,11,1.2,17,M,,M,,*6B
06/06/2014	21:06:52.710	$GPGGA,210653,2418.0228,N,08138.3440,W,1,11,1.2,17,M,,M,,*60
06/06/2014	21:06:53.735	$GPGGA,210654,2418.0246,N,08138.3430,W,1,11,1.2,17,M,,M,,*68
06/06/2014	21:06:54.726	$GPGGA,210655,2418.0264,N,08138.3418,W,1,11,1.2,17,M,,M,,*63
06/06/2014	21:06:55.754	$GPGGA,210656,2418.0281,N,08138.3407,W,1,11,1.3,17,M,,M,,*64
06/06/2014	21:06:56.723	$GPGGA,210657,2418.0296,N,08138.3397,W,1,10,1.3,17,M,,M,,*6C
06/06/2014	21:06:57.737	$GPGGA,210658,2418.0314,N,08138.3385,W,1,10,1.2,17,M,,M,,*6A
06/06/2014	21:06:58.721	$GPGGA,210659,2418.0331,N,08138.3372,W,1,11,1.2,17,M,,M,,*65
06/06/2014	21:06:59.764	$GPGGA,210700,2418.0331,N,08138.3372,W,1,11,1.2,17,M,,M,,*68
06/06/2014	21:07:00.728	$GPGGA,210701,2418.0364,N,08138.3346,W,1,11,1.2,17,M,,M,,*6E
06/06/2014	21:07:01.823	$GPGGA,210702,2418.0379,N,08138.3332,W,1,11,1.2,17,M,,M,,*62
06/06/2014	21:07:02.705	$GPGGA,210703,2418.0396,N,08138.3317,W,1,11,1.2,17,M,,M,,*65
06/06/2014	21:07:03.739	$GPGGA,210704,2418.0412,N,08138.3303,W,1,11,1.2,17,M,,M,,*6C
06/06/2014	21:07:04.722	$GPGGA,210705,2418.0429,N,08138.3289,W,1,10,1.3,17,M,,M,,*66
06/06/2014	21:07:05.757	$GPGGA,210706,2418.0429,N,08138.3289,W,1,10,1.3,17,M,,M,,*65
06/06/2014	21:07:06.719	$GPGGA,210707,2418.0459,N,08138.3257,W,1,11,1.2,17,M,,M,,*60
06/06/2014	21:07:07.743	$GPGGA,210708,2418.0475,N,08138.3242,W,1,11,1.2,17,M,,M,,*65
06/06/2014	21:07:08.807	$GPGGA,210709,2418.0491,N,08138.3224,W,1,11,1.2,17,M,,M,,*6E
06/06/2014	21:07:09.710	$GPGGA,210710,2418.0491,N,08138.3224,W,1,11,1.2,17,M,,M,,*66
06/06/2014	21:07:10.814	$GPGGA,210711,2418.0522,N,08138.3189,W,1,11,1.2,17,M,,M,,*6A
06/06/2014	21:07:11.756	$GPGGA,210712,2418.0522,N,08138.3189,W,1,11,1.2,17,M,,M,,*69
06/06/2014	21:07:12.820	$GPGGA,210713,2418.0553,N,08138.3153,W,1,11,1.2,17,M,,M,,*69
06/06/2014	21:07:13.723	$GPGGA,210714,2418.0553,N,08138.3153,W,1,11,1.2,17,M,,M,,*6E
06/06/2014	21:07:14.827	$GPGGA,210715,2418.0585,N,08138.3120,W,1,11,1.2,17,M,,M,,*60
06/06/2014	21:07:15.841	$GPGGA,210716,2418.0600,N,08138.3101,W,1,11,1.2,17,M,,M,,*6E
06/06/2014	21:07:16.832	$GPGGA,210717,2418.0618,N,08138.3084,W,1,11,1.2,17,M,,M,,*6A
06/06/2014	21:07:17.728	$GPGGA,210718,2418.0618,N,08138.3084,W,1,11,1.2,17,M,,M,,*65
06/06/2014	21:07:18.751	$GPGGA,210719,2418.0650,N,08138.3051,W,1,10,1.4,17,M,,M,,*67
06/06/2014	21:07:19.845	$GPGGA,210720,2418.0668,N,08138.3034,W,1,10,1.2,17,M,,M,,*63
06/06/2014	21:07:20.839	$GPGGA,210721,2418.0685,N,08138.3017,W,1,10,1.4,17,M,,M,,*66
06/06/2014	21:07:21.732	$GPGGA,210722,2418.0685,N,08138.3017,W,1,10,1.2,17,M,,M,,*63
06/06/2014	21:07:22.736	$GPGGA,210723,2418.0721,N,08138.2986,W,1,10,1.2,17,M,,M,,*6D
06/06/2014	21:07:23.851	$GPGGA,210724,2418.0737,N,08138.2971,W,1,10,1.2,17,M,,M,,*65
06/06/2014	21:07:24.853	$GPGGA,210725,2418.0755,N,08138.2956,W,1,11,1.2,17,M,,M,,*64
06/06/2014	21:07:25.838	$GPGGA,210726,2418.0773,N,08138.2942,W,1,11,1.2,17,M,,M,,*66
06/06/2014	21:07:26.864	$GPGGA,210727,2418.0791,N,08138.2926,W,1,11,1.2,17,M,,M,,*69
06/06/2014	21:07:27.855	$GPGGA,210728,2418.0809,N,08138.2912,W,1,11,1.2,17,M,,M,,*6F
06/06/2014	21:07:28.868	$GPGGA,210729,2418.0827,N,08138.2900,W,1,11,1.2,17,M,,M,,*61
06/06/2014	21:07:29.850	$GPGGA,210730,2418.0845,N,08138.2889,W,1,11,1.3,17,M,,M,,*6C
06/06/2014	21:07:30.875	$GPGGA,210731,2418.0862,N,08138.2876,W,1,11,1.2,17,M,,M,,*69
06/06/2014	21:07:31.867	$GPGGA,210732,2418.0881,N,08138.2865,W,1,11,1.2,17,M,,M,,*65
06/06/2014	21:07:32.841	$GPGGA,210733,2418.0899,N,08138.2855,W,1,9,1.3,17,M,,M,,*56
06/06/2014	21:07:33.855	$GPGGA,210734,2418.0916,N,08138.2845,W,1,9,1.3,17,M,,M,,*56
06/06/2014	21:07:34.868	$GPGGA,210735,2418.0934,N,08138.2834,W,1,10,1.3,17,M,,M,,*69
06/06/2014	21:07:35.882	$GPGGA,210736,2418.0952,N,08138.2824,W,1,10,1.3,17,M,,M,,*6B
06/06/2014	21:07:36.673	$GPGGA,210737,2418.0971,N,08138.2817,W,1,11,1.2,17,M,,M,,*6B
06/06/2014	21:07:37.657	$GPGGA,210738,2418.0989,N,08138.2808,W,1,11,1.2,17,M,,M,,*6D
06/06/2014	21:07:38.671	$GPGGA,210739,2418.1008,N,08138.2799,W,1,11,1.2,17,M,,M,,*6A
06/06/2014	21:07:39.664	$GPGGA,210740,2418.1026,N,08138.2791,W,1,11,1.2,17,M,,M,,*60
06/06/2014	21:07:40.648	$GPGGA,210741,2418.1044,N,08138.2783,W,1,11,1.2,17,M,,M,,*66
06/06/2014	21:07:41.671	$GPGGA,210742,2418.1062,N,08138.2775,W,1,11,1.2,17,M,,M,,*68
06/06/2014	21:07:42.685	$GPGGA,210743,2418.1080,N,08138.2769,W,1,11,1.2,17,M,,M,,*68
06/06/2014	21:07:43.669	$GPGGA,210744,2418.1100,N,08138.2764,W,1,11,1.2,17,M,,M,,*6B
06/06/2014	21:07:44.652	$GPGGA,210745,2418.1119,N,08138.2757,W,1,9,1.5,17,M,,M,,*5C
06/06/2014	21:07:45.666	$GPGGA,210746,2418.1138,N,08138.2752,W,1,9,1.2,17,M,,M,,*5E
06/06/2014	21:07:46.668	$GPGGA,210747,2418.1156,N,08138.2747,W,1,11,1.2,17,M,,M,,*6A
06/06/2014	21:07:47.672	$GPGGA,210748,2418.1173,N,08138.2742,W,1,11,1.2,17,M,,M,,*67
06/06/2014	21:07:48.676	$GPGGA,210749,2418.1191,N,08138.2737,W,1,11,1.2,17,M,,M,,*68
06/06/2014	21:07:49.669	$GPGGA,210750,2418.1207,N,08138.2735,W,1,11,1.2,17,M,,M,,*6E
06/06/2014	21:07:50.693	$GPGGA,210751,2418.1225,N,08138.2732,W,1,10,1.3,17,M,,M,,*68
06/06/2014	21:07:51.676	$GPGGA,210752,2418.1243,N,08138.2728,W,1,10,1.3,17,M,,M,,*60
06/06/2014	21:07:52.680	$GPGGA,210753,2418.1261,N,08138.2726,W,1,10,1.3,17,M,,M,,*6F
06/06/2014	21:07:53.673	$GPGGA,210754,2418.1278,N,08138.2724,W,1,10,1.2,17,M,,M,,*63
06/06/2014	21:07:54.697	$GPGGA,210755,2418.1296,N,08138.2721,W,1,10,1.3,17,M,,M,,*66
06/06/2014	21:07:55.801	$GPGGA,210756,2418.1314,N,08138.2719,W,1,10,1.3,17,M,,M,,*65
06/06/2014	21:07:56.805	$GPGGA,210757,2418.1330,N,08138.2718,W,1,11,1.2,17,M,,M,,*63
06/06/2014	21:07:57.798	$GPGGA,210758,2418.1348,N,08138.2717,W,1,11,1.2,17,M,,M,,*6C
06/06/2014	21:07:58.812	$GPGGA,210759,2418.1368,N,08138.2715,W,1,10,1.4,17,M,,M,,*6A
06/06/2014	21:07:59.715	$GPGGA,210800,2418.1386,N,08138.2715,W,1,10,1.2,17,M,,M,,*6F
06/06/2014	21:08:00.780	$GPGGA,210801,2418.1402,N,08138.2715,W,1,11,1.2,17,M,,M,,*64
06/06/2014	21:08:01.690	$GPGGA,210802,2418.1420,N,08138.2715,W,1,11,1.2,17,M,,M,,*67
06/06/2014	21:08:02.696	$GPGGA,210803,2418.1438,N,08138.2717,W,1,11,1.2,17,M,,M,,*6D
06/06/2014	21:08:03.794	$GPGGA,210804,2418.1455,N,08138.2717,W,1,11,1.2,17,M,,M,,*61
06/06/2014	21:08:04.712	$GPGGA,210805,2418.1471,N,08138.2720,W,1,11,1.2,17,M,,M,,*62
06/06/2014	21:08:05.696	$GPGGA,210806,2418.1488,N,08138.2721,W,1,11,1.4,17,M,,M,,*60
06/06/2014	21:08:06.699	$GPGGA,210807,2418.1503,N,08138.2722,W,1,11,1.2,17,M,,M,,*66
06/06/2014	21:08:07.708	$GPGGA,210808,2418.1521,N,08138.2724,W,1,11,1.2,17,M,,M,,*6F
06/06/2014	21:08:08.787	$GPGGA,210809,2418.1536,N,08138.2728,W,1,10,1.4,17,M,,M,,*63
06/06/2014	21:08:09.802	$GPGGA,210810,2418.1552,N,08138.2731,W,1,10,1.4,17,M,,M,,*61
06/06/2014	21:08:10.824	$GPGGA,210811,2418.1568,N,08138.2735,W,1,10,1.3,17,M,,M,,*6A
06/06/2014	21:08:11.823	$GPGGA,210812,2418.1585,N,08138.2738,W,1,10,1.3,17,M,,M,,*67
06/06/2014	21:08:12.791	$GPGGA,210813,2418.1600,N,08138.2740,W,1,11,1.2,17,M,,M,,*67
06/06/2014	21:08:13.795	$GPGGA,210814,2418.1615,N,08138.2745,W,1,11,1.3,17,M,,M,,*60
06/06/2014	21:08:14.823	$GPGGA,210815,2418.1632,N,08138.2749,W,1,9,1.5,17,M,,M,,*57
06/06/2014	21:08:15.830	$GPGGA,210816,2418.1647,N,08138.2753,W,1,9,1.2,17,M,,M,,*5A
06/06/2014	21:08:16.815	$GPGGA,210817,2418.1662,N,08138.2758,W,1,11,1.2,17,M,,M,,*6E
06/06/2014	21:08:17.809	$GPGGA,210818,2418.1678,N,08138.2764,W,1,11,1.2,17,M,,M,,*65
06/06/2014	21:08:18.836	$GPGGA,210819,2418.1693,N,08138.2768,W,1,11,1.2,17,M,,M,,*6D
06/06/2014	21:08:19.826	$GPGGA,210820,2418.1708,N,08138.2775,W,1,11,1.4,17,M,,M,,*6E
06/06/2014	21:08:20.810	$GPGGA,210821,2418.1722,N,08138.2778,W,1,10,1.4,17,M,,M,,*6B
06/06/2014	21:08:21.813	$GPGGA,210822,2418.1736,N,08138.2783,W,1,10,1.4,17,M,,M,,*69
06/06/2014	21:08:22.816	$GPGGA,210823,2418.1749,N,08138.2789,W,1,11,1.2,17,M,,M,,*6D
06/06/2014	21:08:23.830	$GPGGA,210824,2418.1765,N,08138.2794,W,1,11,1.2,17,M,,M,,*68
06/06/2014	21:08:24.833	$GPGGA,210825,2418.1780,N,08138.2801,W,1,10,1.4,17,M,,M,,*66
06/06/2014	21:08:25.817	$GPGGA,210826,2418.1794,N,08138.2807,W,1,10,1.4,18,M,,M,,*69
06/06/2014	21:08:26.840	$GPGGA,210827,2418.1807,N,08138.2814,W,1,10,1.4,18,M,,M,,*6F
06/06/2014	21:08:27.834	$GPGGA,210828,2418.1824,N,08138.2818,W,1,10,1.4,18,M,,M,,*6D
06/06/2014	21:08:28.848	$GPGGA,210829,2418.1838,N,08138.2822,W,1,9,1.5,18,M,,M,,*51
06/06/2014	21:08:29.831	$GPGGA,210830,2418.1853,N,08138.2827,W,1,9,1.4,18,M,,M,,*50
06/06/2014	21:08:30.825	$GPGGA,210831,2418.1870,N,08138.2832,W,1,11,1.2,18,M,,M,,*6B
06/06/2014	21:08:31.848	$GPGGA,210832,2418.1885,N,08138.2839,W,1,11,1.2,18,M,,M,,*69
06/06/2014	21:08:32.822	$GPGGA,210833,2418.1899,N,08138.2845,W,1,11,1.2,18,M,,M,,*6E
06/06/2014	21:08:33.836	$GPGGA,210834,2418.1913,N,08138.2850,W,1,11,1.4,18,M,,M,,*68
06/06/2014	21:08:34.829	$GPGGA,210835,2418.1926,N,08138.2854,W,1,10,1.3,18,M,,M,,*6D
06/06/2014	21:08:35.843	$GPGGA,210836,2418.1940,N,08138.2858,W,1,10,1.5,18,M,,M,,*64
06/06/2014	21:08:36.644	$GPGGA,210837,2418.1954,N,08138.2862,W,1,9,1.5,18,M,,M,,*51
06/06/2014	21:08:37.628	$GPGGA,210838,2418.1968,N,08138.2866,W,1,9,1.3,18,M,,M,,*53
06/06/2014	21:08:38.621	$GPGGA,210839,2418.1983,N,08138.2870,W,1,10,1.3,18,M,,M,,*68
06/06/2014	21:08:39.635	$GPGGA,210840,2418.2000,N,08138.2876,W,1,10,1.2,18,M,,M,,*60
06/06/2014	21:08:40.658	$GPGGA,210841,2418.2012,N,08138.2880,W,1,11,1.2,18,M,,M,,*6A
06/06/2014	21:08:41.631	$GPGGA,210842,2418.2030,N,08138.2886,W,1,11,1.9,18,M,,M,,*64
06/06/2014	21:08:42.665	$GPGGA,210843,2418.2047,N,08138.2890,W,1,11,1.2,18,M,,M,,*69
06/06/2014	21:08:43.649	$GPGGA,210844,2418.2063,N,08138.2894,W,1,11,1.3,18,M,,M,,*6D
06/06/2014	21:08:44.732	$GPGGA,210845,2418.2080,N,08138.2897,W,1,10,1.3,18,M,,M,,*63
06/06/2014	21:08:45.646	$GPGGA,210846,2418.2095,N,08138.2899,W,1,10,1.2,18,M,,M,,*6B
06/06/2014	21:08:46.750	$GPGGA,210847,2418.2113,N,08138.2902,W,1,11,1.2,18,M,,M,,*67
06/06/2014	21:08:47.753	$GPGGA,210848,2418.2128,N,08138.2905,W,1,11,1.2,18,M,,M,,*67
06/06/2014	21:08:48.667	$GPGGA,210849,2418.2146,N,08138.2908,W,1,11,1.2,18,M,,M,,*63
06/06/2014	21:08:49.650	$GPGGA,210850,2418.2163,N,08138.2908,W,1,11,1.2,18,M,,M,,*6C
06/06/2014	21:08:50.635	$GPGGA,210851,2418.2179,N,08138.2910,W,1,11,1.2,18,M,,M,,*6F
06/06/2014	21:08:51.667	$GPGGA,210852,2418.2197,N,08138.2912,W,1,11,1.4,18,M,,M,,*68
06/06/2014	21:08:52.651	$GPGGA,210853,2418.2214,N,08138.2912,W,1,11,1.2,18,M,,M,,*67
06/06/2014	21:08:53.745	$GPGGA,210854,2418.2231,N,08138.2913,W,1,11,1.3,18,M,,M,,*67
06/06/2014	21:08:54.778	$GPGGA,210855,2418.2249,N,08138.2915,W,1,10,1.3,18,M,,M,,*6E
06/06/2014	21:08:55.762	$GPGGA,210856,2418.2267,N,08138.2916,W,1,10,1.2,18,M,,M,,*63
06/06/2014	21:08:56.744	$GPGGA,210857,2418.2285,N,08138.2919,W,1,11,1.2,18,M,,M,,*60
06/06/2014	21:08:57.748	$GPGGA,210858,2418.2304,N,08138.2920,W,1,11,1.2,18,M,,M,,*6D
06/06/2014	21:08:58.792	$GPGGA,210859,2418.2320,N,08138.2923,W,1,11,1.2,18,M,,M,,*69
06/06/2014	21:08:59.785	$GPGGA,210900,2418.2338,N,08138.2924,W,1,11,1.2,18,M,,M,,*6A
06/06/2014	21:09:00.759	$GPGGA,210901,2418.2356,N,08138.2926,W,1,11,1.2,18,M,,M,,*61
06/06/2014	21:09:01.762	$GPGGA,210902,2418.2374,N,08138.2927,W,1,11,1.2,18,M,,M,,*63
06/06/2014	21:09:02.786	$GPGGA,210903,2418.2392,N,08138.2930,W,1,10,1.3,18,M,,M,,*6C
06/06/2014	21:09:03.780	$GPGGA,210904,2418.2410,N,08138.2933,W,1,10,1.2,18,M,,M,,*64
06/06/2014	21:09:04.763	$GPGGA,210905,2418.2427,N,08138.2934,W,1,11,1.2,18,M,,M,,*67
06/06/2014	21:09:05.757	$GPGGA,210906,2418.2445,N,08138.2937,W,1,11,1.2,18,M,,M,,*63
06/06/2014	21:09:06.780	$GPGGA,210907,2418.2463,N,08138.2941,W,1,9,1.4,18,M,,M,,*58
06/06/2014	21:09:07.774	$GPGGA,210908,2418.2478,N,08138.2946,W,1,9,1.2,18,M,,M,,*5C
06/06/2014	21:09:08.788	$GPGGA,210909,2418.2493,N,08138.2948,W,1,11,1.2,18,M,,M,,*6F
06/06/2014	21:09:09.771	$GPGGA,210910,2418.2510,N,08138.2951,W,1,11,1.3,18,M,,M,,*64
06/06/2014	21:09:10.765	$GPGGA,210911,2418.2525,N,08138.2953,W,1,10,1.3,18,M,,M,,*60
06/06/2014	21:09:11.798	$GPGGA,210912,2418.2540,N,08138.2955,W,1,10,1.2,18,M,,M,,*67
06/06/2014	21:09:12.792	$GPGGA,210913,2418.2558,N,08138.2959,W,1,9,1.8,18,M,,M,,*51
06/06/2014	21:09:13.786	$GPGGA,210914,2418.2572,N,08138.2963,W,1,9,1.3,18,M,,M,,*5C
06/06/2014	21:09:14.798	$GPGGA,210915,2418.2590,N,08138.2966,W,1,11,1.2,18,M,,M,,*6C
06/06/2014	21:09:15.793	$GPGGA,210916,2418.2605,N,08138.2970,W,1,11,1.3,18,M,,M,,*66
06/06/2014	21:09:16.805	$GPGGA,210917,2418.2619,N,08138.2973,W,1,10,1.3,18,M,,M,,*68
06/06/2014	21:09:17.780	$GPGGA,210918,2418.2634,N,08138.2975,W,1,10,1.3,18,M,,M,,*6E
06/06/2014	21:09:18.803	$GPGGA,210919,2418.2650,N,08138.2980,W,1,10,1.3,18,M,,M,,*67
06/06/2014	21:09:19.796	$GPGGA,210920,2418.2665,N,08138.2984,W,1,10,1.3,18,M,,M,,*6F
06/06/2014	21:09:20.810	$GPGGA,210921,2418.2680,N,08138.2989,W,1,9,1.5,18,M,,M,,*56
06/06/2014	21:09:21.783	$GPGGA,210922,2418.2694,N,08138.2991,W,1,9,1.5,18,M,,M,,*59
06/06/2014	21:09:22.817	$GPGGA,210923,2418.2710,N,08138.2995,W,1,10,1.3,18,M,,M,,*6F
06/06/2014	21:09:23.811	$GPGGA,210924,2418.2724,N,08138.3002,W,1,10,1.5,18,M,,M,,*6F
06/06/2014	21:09:24.804	$GPGGA,210925,2418.2738,N,08138.3006,W,1,10,1.3,18,M,,M,,*61
06/06/2014	21:09:25.808	$GPGGA,210926,2418.2755,N,08138.3011,W,1,10,1.3,18,M,,M,,*6F
06/06/2014	21:09:26.791	$GPGGA,210927,2418.2770,N,08138.3016,W,1,10,1.3,18,M,,M,,*6E
06/06/2014	21:09:27.825	$GPGGA,210928,2418.2784,N,08138.3020,W,1,10,1.3,18,M,,M,,*6F
06/06/2014	21:09:28.829	$GPGGA,210929,2418.2799,N,08138.3027,W,1,10,1.3,18,M,,M,,*65
06/06/2014	21:09:29.792	$GPGGA,210930,2418.2816,N,08138.3031,W,1,10,1.3,18,M,,M,,*62
06/06/2014	21:09:30.826	$GPGGA,210931,2418.2832,N,08138.3035,W,1,11,1.2,18,M,,M,,*61
06/06/2014	21:09:31.948	$GPGGA,210932,2418.2849,N,08138.3042,W,1,11,1.3,18,M,,M,,*6F
06/06/2014	21:09:32.801	$GPGGA,210933,2418.2861,N,08138.3045,W,1,11,1.2,18,M,,M,,*62
06/06/2014	21:09:33.904	$GPGGA,210934,2418.2876,N,08138.3047,W,1,11,1.8,18,M,,M,,*6B
06/06/2014	21:09:34.917	$GPGGA,210935,2418.2892,N,08138.3051,W,1,10,1.3,18,M,,M,,*6D
06/06/2014	21:09:35.920	$GPGGA,210936,2418.2908,N,08138.3056,W,1,10,1.3,18,M,,M,,*6B
06/06/2014	21:09:36.724	$GPGGA,210937,2418.2923,N,08138.3060,W,1,11,1.2,18,M,,M,,*66
06/06/2014	21:09:37.602	$GPGGA,210938,2418.2939,N,08138.3063,W,1,11,1.2,18,M,,M,,*61
06/06/2014	21:09:38.620	$GPGGA,210939,2418.2955,N,08138.3065,W,1,10,1.3,18,M,,M,,*6C
06/06/2014	21:09:39.623	$GPGGA,210940,2418.2970,N,08138.3067,W,1,10,1.3,18,M,,M,,*67
06/06/2014	21:09:40.736	$GPGGA,210941,2418.2986,N,08138.3071,W,1,10,1.3,18,M,,M,,*68
06/06/2014	21:09:41.706	$GPGGA,210942,2418.3002,N,08138.3076,W,1,10,1.2,18,M,,M,,*69
06/06/2014	21:09:42.702	$GPGGA,210943,2418.3020,N,08138.3078,W,1,11,1.2,18,M,,M,,*67
06/06/2014	21:09:43.714	$GPGGA,210944,2418.3038,N,08138.3081,W,1,11,1.2,18,M,,M,,*6F
06/06/2014	21:09:44.707	$GPGGA,210945,2418.3053,N,08138.3083,W,1,11,1.2,18,M,,M,,*61
06/06/2014	21:09:45.610	$GPGGA,210946,2418.3071,N,08138.3086,W,1,11,1.2,18,M,,M,,*67
06/06/2014	21:09:46.614	$GPGGA,210947,2418.3089,N,08138.3087,W,1,10,1.3,18,M,,M,,*60
06/06/2014	21:09:47.716	$GPGGA,210948,2418.3107,N,08138.3090,W,1,10,1.3,18,M,,M,,*6E
06/06/2014	21:09:48.728	$GPGGA,210949,2418.3125,N,08138.3092,W,1,11,1.2,18,M,,M,,*6D
06/06/2014	21:09:49.711	$GPGGA,210950,2418.3145,N,08138.3094,W,1,11,1.2,18,M,,M,,*65
06/06/2014	21:09:50.714	$GPGGA,210951,2418.3161,N,08138.3096,W,1,11,1.2,18,M,,M,,*60
06/06/2014	21:09:51.727	$GPGGA,210952,2418.3179,N,08138.3098,W,1,11,1.2,18,M,,M,,*64
06/06/2014	21:09:52.719	$GPGGA,210953,2418.3199,N,08138.3100,W,1,11,1.2,18,M,,M,,*6B
06/06/2014	21:09:53.712	$GPGGA,210954,2418.3217,N,08138.3100,W,1,11,1.3,18,M,,M,,*68
06/06/2014	21:09:54.735	$GPGGA,210955,2418.3234,N,08138.3101,W,1,11,1.2,18,M,,M,,*68
06/06/2014	21:09:55.728	$GPGGA,210956,2418.3252,N,08138.3103,W,1,11,1.2,18,M,,M,,*69
06/06/2014	21:09:56.701	$GPGGA,210957,2418.3275,N,08138.3102,W,1,9,1.4,18,M,,M,,*53
06/06/2014	21:09:57.724	$GPGGA,210958,2418.3294,N,08138.3101,W,1,9,1.2,18,M,,M,,*56
06/06/2014	21:09:58.717	$GPGGA,210959,2418.3312,N,08138.3103,W,1,11,1.2,18,M,,M,,*63
06/06/2014	21:09:59.740	$GPGGA,211000,2418.3329,N,08138.3102,W,1,11,1.3,18,M,,M,,*6F
06/06/2014	21:10:00.733	$GPGGA,211001,2418.3346,N,08138.3101,W,1,11,1.2,18,M,,M,,*65
06/06/2014	21:10:01.716	$GPGGA,211002,2418.3364,N,08138.3103,W,1,11,1.4,18,M,,M,,*62
06/06/2014	21:10:02.761	$GPGGA,211003,2418.3382,N,08138.3103,W,1,11,1.2,18,M,,M,,*6D
06/06/2014	21:10:03.741	$GPGGA,211004,2418.3400,N,08138.3102,W,1,11,1.2,18,M,,M,,*66
06/06/2014	21:10:04.725	$GPGGA,211005,2418.3418,N,08138.3099,W,1,11,1.2,18,M,,M,,*6D
06/06/2014	21:10:05.728	$GPGGA,211006,2418.3436,N,08138.3096,W,1,11,1.2,18,M,,M,,*6D
06/06/2014	21:10:06.719	$GPGGA,211007,2418.3454,N,08138.3095,W,1,10,1.3,18,M,,M,,*6B
06/06/2014	21:10:07.742	$GPGGA,211008,2418.3472,N,08138.3093,W,1,10,1.2,18,M,,M,,*67
06/06/2014	21:10:08.745	$GPGGA,211009,2418.3492,N,08138.3089,W,1,11,1.2,18,M,,M,,*62
06/06/2014	21:10:09.728	$GPGGA,211010,2418.3510,N,08138.3085,W,1,11,1.2,18,M,,M,,*6D
06/06/2014	21:10:10.721	$GPGGA,211011,2418.3529,N,08138.3083,W,1,11,1.2,18,M,,M,,*60
06/06/2014	21:10:11.743	$GPGGA,211012,2418.3548,N,08138.3080,W,1,11,1.2,18,M,,M,,*67
06/06/2014	21:10:12.766	$GPGGA,211013,2418.3566,N,08138.3074,W,1,11,1.2,17,M,,M,,*6E
06/06/2014	21:10:13.789	$GPGGA,211014,2418.3584,N,08138.3070,W,1,11,1.2,17,M,,M,,*61
06/06/2014	21:10:14.762	$GPGGA,211015,2418.3604,N,08138.3067,W,1,11,1.2,17,M,,M,,*6D
06/06/2014	21:10:15.745	$GPGGA,211016,2418.3623,N,08138.3063,W,1,11,1.2,17,M,,M,,*6F
06/06/2014	21:10:16.748	$GPGGA,211017,2418.3642,N,08138.3058,W,1,11,1.2,17,M,,M,,*61
06/06/2014	21:10:17.731	$GPGGA,211018,2418.3662,N,08138.3054,W,1,11,1.2,17,M,,M,,*60
06/06/2014	21:10:18.854	$GPGGA,211019,2418.3681,N,08138.3050,W,1,11,1.2,17,M,,M,,*68
06/06/2014	21:10:19.757	$GPGGA,211020,2418.3699,N,08138.3046,W,1,11,1.2,17,M,,M,,*6C
06/06/2014	21:10:20.729	$GPGGA,211021,2418.3720,N,08138.3042,W,1,11,1.2,17,M,,M,,*6A
06/06/2014	21:10:21.843	$GPGGA,211022,2418.3739,N,08138.3037,W,1,11,1.2,17,M,,M,,*63
06/06/2014	21:10:22.736	$GPGGA,211023,2418.3757,N,08138.3034,W,1,11,1.2,17,M,,M,,*69
06/06/2014	21:10:23.868	$GPGGA,211024,2418.3777,N,08138.3030,W,1,11,1.2,17,M,,M,,*68
06/06/2014	21:10:24.860	$GPGGA,211025,2418.3797,N,08138.3026,W,1,11,1.2,17,M,,M,,*60
06/06/2014	21:10:25.743	$GPGGA,211026,2418.3817,N,08138.3022,W,1,11,1.2,17,M,,M,,*60
06/06/2014	21:10:26.867	$GPGGA,211027,2418.3836,N,08138.3018,W,1,11,1.2,17,M,,M,,*6B
06/06/2014	21:10:27.759	$GPGGA,211028,2418.3855,N,08138.3014,W,1,11,1.2,17,M,,M,,*6D
06/06/2014	21:10:28.745	$GPGGA,211029,2418.3875,N,08138.3010,W,1,11,1.2,17,M,,M,,*6A
06/06/2014	21:10:29.835	$GPGGA,211030,2418.3895,N,08138.3006,W,1,11,1.2,17,M,,M,,*6B
06/06/2014	21:10:30.848	$GPGGA,211031,2418.3913,N,08138.3002,W,1,11,1.2,17,M,,M,,*61
06/06/2014	21:10:31.881	$GPGGA,211032,2418.3933,N,08138.2999,W,1,11,1.3,17,M,,M,,*6B
06/06/2014	21:10:32.884	$GPGGA,211033,2418.3952,N,08138.2994,W,1,10,1.2,17,M,,M,,*60
06/06/2014	21:10:33.856	$GPGGA,211034,2418.3971,N,08138.2990,W,1,10,1.2,17,M,,M,,*62
06/06/2014	21:10:34.869	$GPGGA,211035,2418.3991,N,08138.2987,W,1,11,1.2,17,M,,M,,*6A
06/06/2014	21:10:35.862	$GPGGA,211036,2418.4010,N,08138.2983,W,1,11,1.2,17,M,,M,,*6A
06/06/2014	21:10:36.859	$GPGGA,211037,2418.4030,N,08138.2978,W,1,11,1.2,17,M,,M,,*6D
06/06/2014	21:10:37.859	$GPGGA,211038,2418.4049,N,08138.2974,W,1,11,1.2,17,M,,M,,*60
06/06/2014	21:10:38.871	$GPGGA,211039,2418.4068,N,08138.2971,W,1,11,1.2,17,M,,M,,*67
06/06/2014	21:10:39.864	$GPGGA,211040,2418.4088,N,08138.2967,W,1,11,1.2,17,M,,M,,*60
06/06/2014	21:10:40.868	$GPGGA,211041,2418.4107,N,08138.2963,W,1,11,1.2,17,M,,M,,*63
06/06/2014	21:10:41.849	$GPGGA,211042,2418.4126,N,08138.2959,W,1,11,1.2,17,M,,M,,*6A
06/06/2014	21:10:42.882	$GPGGA,211043,2418.4144,N,08138.2957,W,1,11,1.2,17,M,,M,,*61
06/06/2014	21:10:43.874	$GPGGA,211044,2418.4165,N,08138.2952,W,1,11,1.2,17,M,,M,,*60
06/06/2014	21:10:44.887	$GPGGA,211045,2418.4184,N,08138.2948,W,1,11,1.2,17,M,,M,,*65
06/06/2014	21:10:45.860	$GPGGA,211046,2418.4204,N,08138.2945,W,1,11,1.2,17,M,,M,,*60
06/06/2014	21:10:46.893	$GPGGA,211047,2418.4223,N,08138.2942,W,1,11,1.3,17,M,,M,,*62
06/06/2014	21:10:47.866	$GPGGA,211048,2418.4241,N,08138.2938,W,1,11,1.2,17,M,,M,,*65
06/06/2014	21:10:48.899	$GPGGA,211049,2418.4260,N,08138.2936,W,1,11,1.2,17,M,,M,,*69
06/06/2014	21:10:49.862	$GPGGA,211050,2418.4281,N,08138.2932,W,1,11,1.2,17,M,,M,,*6A
06/06/2014	21:10:50.895	$GPGGA,211051,2418.4301,N,08138.2928,W,1,11,1.2,17,M,,M,,*69
06/06/2014	21:10:51.878	$GPGGA,211052,2418.4320,N,08138.2926,W,1,11,1.3,17,M,,M,,*66
06/06/2014	21:10:52.890	$GPGGA,211053,2418.4339,N,08138.2922,W,1,10,1.2,17,M,,M,,*6B
06/06/2014	21:10:53.863	$GPGGA,211054,2418.4357,N,08138.2917,W,1,10,1.3,17,M,,M,,*63
06/06/2014	21:10:54.866	$GPGGA,211055,2418.4377,N,08138.2913,W,1,10,1.2,17,M,,M,,*65
06/06/2014	21:10:55.879	$GPGGA,211056,2418.4395,N,08138.2911,W,1,10,1.2,17,M,,M,,*68
06/06/2014	21:10:56.892	$GPGGA,211057,2418.4413,N,08138.2907,W,1,11,1.2,17,M,,M,,*66
06/06/2014	21:10:57.856	$GPGGA,211058,2418.4433,N,08138.2903,W,1,11,1.2,17,M,,M,,*6F
06/06/2014	21:10:58.887	$GPGGA,211059,2418.4451,N,08138.2901,W,1,11,1.2,17,M,,M,,*68
06/06/2014	21:10:59.900	$GPGGA,211100,2418.4469,N,08138.2898,W,1,11,1.2,17,M,,M,,*6F
06/06/2014	21:11:00.983	$GPGGA,211101,2418.4489,N,08138.2893,W,1,11,1.2,17,M,,M,,*6B
06/06/2014	21:11:01.865	$GPGGA,211102,2418.4508,N,08138.2890,W,1,11,1.3,17,M,,M,,*62
06/06/2014	21:11:02.888	$GPGGA,211103,2418.4527,N,08138.2887,W,1,10,1.2,17,M,,M,,*68
06/06/2014	21:11:03.891	$GPGGA,211104,2418.4545,N,08138.2883,W,1,10,1.2,17,M,,M,,*6F
06/06/2014	21:11:04.894	$GPGGA,211105,2418.4563,N,08138.2879,W,1,11,1.2,17,M,,M,,*6E
06/06/2014	21:11:05.887	$GPGGA,211106,2418.4583,N,08138.2876,W,1,11,1.2,17,M,,M,,*6C
06/06/2014	21:11:06.970	$GPGGA,211107,2418.4602,N,08138.2874,W,1,11,1.2,17,M,,M,,*65
06/06/2014	21:11:07.893	$GPGGA,211108,2418.4621,N,08138.2871,W,1,11,1.2,17,M,,M,,*6E
06/06/2014	21:11:08.886	$GPGGA,211109,2418.4641,N,08138.2867,W,1,11,1.2,17,M,,M,,*6E
06/06/2014	21:11:09.969	$GPGGA,211110,2418.4660,N,08138.2864,W,1,11,1.2,17,M,,M,,*66
06/06/2014	21:11:10.892	$GPGGA,211111,2418.4679,N,08138.2861,W,1,11,1.3,17,M,,M,,*6B
06/06/2014	21:11:11.985	$GPGGA,211112,2418.4699,N,08138.2858,W,1,11,1.3,17,M,,M,,*6C
06/06/2014	21:11:12.907	$GPGGA,211113,2418.4717,N,08138.2852,W,1,11,1.2,18,M,,M,,*6E
06/06/2014	21:11:13.900	$GPGGA,211114,2418.4736,N,08138.2848,W,1,11,1.2,18,M,,M,,*61
06/06/2014	21:11:14.893	$GPGGA,211115,2418.4755,N,08138.2845,W,1,11,1.2,18,M,,M,,*68
06/06/2014	21:11:15.996	$GPGGA,211116,2418.4775,N,08138.2840,W,1,11,1.2,18,M,,M,,*6C
06/06/2014	21:11:17.008	$GPGGA,211117,2418.4794,N,08138.2837,W,1,11,1.2,18,M,,M,,*62
06/06/2014	21:11:17.981	$GPGGA,211118,2418.4814,N,08138.2834,W,1,11,1.2,18,M,,M,,*69
06/06/2014	21:11:19.004	$GPGGA,211119,2418.4834,N,08138.2830,W,1,11,1.2,18,M,,M,,*6E
06/06/2014	21:11:19.997	$GPGGA,211120,2418.4852,N,08138.2826,W,1,11,1.2,18,M,,M,,*63
06/06/2014	21:11:20.990	$GPGGA,211121,2418.4872,N,08138.2822,W,1,11,1.2,18,M,,M,,*64
06/06/2014	21:11:21.984	$GPGGA,211122,2418.4892,N,08138.2820,W,1,11,1.2,18,M,,M,,*6B
06/06/2014	21:11:22.987	$GPGGA,211123,2418.4910,N,08138.2815,W,1,11,1.2,18,M,,M,,*67
06/06/2014	21:11:23.998	$GPGGA,211124,2418.4931,N,08138.2811,W,1,11,1.2,18,M,,M,,*67
06/06/2014	21:11:24.983	$GPGGA,211125,2418.4950,N,08138.2808,W,1,11,1.2,17,M,,M,,*66
06/06/2014	21:11:25.994	$GPGGA,211126,2418.4970,N,08138.2806,W,1,11,1.2,17,M,,M,,*69
06/06/2014	21:11:26.997	$GPGGA,211127,2418.4989,N,08138.2801,W,1,11,1.2,17,M,,M,,*69
06/06/2014	21:11:28.000	$GPGGA,211128,2418.5009,N,08138.2797,W,1,11,1.2,17,M,,M,,*66
06/06/2014	21:11:28.993	$GPGGA,211129,2418.5029,N,08138.2794,W,1,11,1.2,17,M,,M,,*66
06/06/2014	21:11:29.996	$GPGGA,211130,2418.5047,N,08138.2790,W,1,11,1.2,17,M,,M,,*62
06/06/2014	21:11:30.980	$GPGGA,211131,2418.5067,N,08138.2787,W,1,11,1.2,17,M,,M,,*67
06/06/2014	21:11:32.002	$GPGGA,211132,2418.5087,N,08138.2783,W,1,11,1.2,17,M,,M,,*6E
06/06/2014	21:11:32.984	$GPGGA,211133,2418.5105,N,08138.2779,W,1,11,1.2,17,M,,M,,*61
06/06/2014	21:11:33.996	$GPGGA,211134,2418.5125,N,08138.2776,W,1,11,1.2,17,M,,M,,*6B
06/06/2014	21:11:35.009	$GPGGA,211135,2418.5145,N,08138.2771,W,1,11,1.2,17,M,,M,,*6B
06/06/2014	21:11:36.012	$GPGGA,211136,2418.5165,N,08138.2768,W,1,11,1.2,17,M,,M,,*62
06/06/2014	21:11:37.027	$GPGGA,211137,2418.5184,N,08138.2765,W,1,11,1.2,17,M,,M,,*61
06/06/2014	21:11:37.998	$GPGGA,211138,2418.5204,N,08138.2761,W,1,11,1.2,17,M,,M,,*61
06/06/2014	21:11:39.011	$GPGGA,211139,2418.5223,N,08138.2757,W,1,11,1.2,17,M,,M,,*60
06/06/2014	21:11:40.014	$GPGGA,211140,2418.5242,N,08138.2755,W,1,11,1.3,17,M,,M,,*6A
06/06/2014	21:11:41.040	$GPGGA,211141,2418.5260,N,08138.2751,W,1,11,1.2,17,M,,M,,*6E
06/06/2014	21:11:41.999	$GPGGA,211142,2418.5280,N,08138.2746,W,1,11,1.2,17,M,,M,,*65
06/06/2014	21:11:42.992	$GPGGA,211143,2418.5299,N,08138.2742,W,1,11,1.2,17,M,,M,,*68
06/06/2014	21:11:44.025	$GPGGA,211144,2418.5318,N,08138.2738,W,1,11,1.2,17,M,,M,,*6A
