Software Version Number: 1	Data File Format Number: 1	Build Version Number: 1	Error Count Since VI Started: 0	Manufacturer: Raytheon	 Model Number: RayMarine 120	 S/N: 	 Cal Date: 	 Wind Direction Offset: 0.00	 Slope (M)1: 0.00	 Offset (B)1: 0.00	 Slope (M)2: 0.00	 Offset (B)2: 0.00	 Slope (M)3: 0.00	 Offset (B)3: 0.00	 Slope (M)4: 0.00	 Offset (B)4: 0.00	 Slope (M)5: 0.00	 Offset (B)5: 0.00	 Slope (M)6: 0.00	 Offset (B)6: 0.00
Computer Date	Computer Time	GGA String
06/05/2014	13:00:00.794	$GPGGA,130001,2421.5820,N,08130.6214,W,1,9,1.5,20,M,,M,,*5D
06/05/2014	13:00:01.816	$GPGGA,130002,2421.5822,N,08130.6212,W,1,9,1.5,20,M,,M,,*5A
06/05/2014	13:00:02.856	$GPGGA,130003,2421.5824,N,08130.6210,W,1,9,1.5,20,M,,M,,*5F
06/05/2014	13:00:03.836	$GPGGA,130004,2421.5824,N,08130.6210,W,1,9,1.5,20,M,,M,,*58
06/05/2014	13:00:04.867	$GPGGA,130005,2421.5826,N,08130.6208,W,1,9,1.5,20,M,,M,,*52
06/05/2014	13:00:05.849	$GPGGA,130006,2421.5827,N,08130.6206,W,1,9,1.5,20,M,,M,,*5E
06/05/2014	13:00:06.888	$GPGGA,130007,2421.5827,N,08130.6207,W,1,9,1.5,20,M,,M,,*5E
06/05/2014	13:00:07.899	$GPGGA,130008,2421.5829,N,08130.6206,W,1,9,1.5,20,M,,M,,*5E
06/05/2014	13:00:08.890	$GPGGA,130009,2421.5828,N,08130.6204,W,1,9,1.5,19,M,,M,,*56
06/05/2014	13:00:09.890	$GPGGA,130010,2421.5829,N,08130.6202,W,1,9,1.5,19,M,,M,,*59
06/05/2014	13:00:10.913	$GPGGA,130011,2421.5827,N,08130.6203,W,1,8,1.7,19,M,,M,,*54
06/05/2014	13:00:11.922	$GPGGA,130012,2421.5826,N,08130.6202,W,1,8,1.5,19,M,,M,,*55
06/05/2014	13:00:12.912	$GPGGA,130013,2421.5825,N,08130.6201,W,1,9,1.5,19,M,,M,,*55
06/05/2014	13:00:13.903	$GPGGA,130014,2421.5824,N,08130.6200,W,1,9,1.5,19,M,,M,,*52
06/05/2014	13:00:14.934	$GPGGA,130015,2421.5822,N,08130.6199,W,1,9,1.5,19,M,,M,,*56
06/05/2014	13:00:15.944	$GPGGA,130016,2421.5821,N,08130.6199,W,1,9,1.5,19,M,,M,,*56
06/05/2014	13:00:16.934	$GPGGA,130017,2421.5820,N,08130.6199,W,1,8,1.7,19,M,,M,,*55
06/05/2014	13:00:18.056	$GPGGA,130018,2421.5815,N,08130.6201,W,1,8,2.0,19,M,,M,,*5A
06/05/2014	13:00:18.985	$GPGGA,130019,2421.5813,N,08130.6203,W,1,9,1.5,19,M,,M,,*58
06/05/2014	13:00:19.966	$GPGGA,130020,2421.5809,N,08130.6203,W,1,9,1.5,19,M,,M,,*59
06/05/2014	13:00:20.977	$GPGGA,130021,2421.5806,N,08130.6204,W,1,9,1.5,19,M,,M,,*50
06/05/2014	13:00:21.987	$GPGGA,130022,2421.5802,N,08130.6206,W,1,9,1.5,19,M,,M,,*55
06/05/2014	13:00:22.998	$GPGGA,130023,2421.5798,N,08130.6207,W,1,9,1.5,19,M,,M,,*59
06/05/2014	13:00:24.110	$GPGGA,130024,2421.5795,N,08130.6208,W,1,9,1.5,19,M,,M,,*5C
06/05/2014	13:00:25.131	$GPGGA,130025,2421.5790,N,08130.6210,W,1,9,1.5,19,M,,M,,*51
06/05/2014	13:00:26.121	$GPGGA,130026,2421.5788,N,08130.6212,W,1,9,1.5,19,M,,M,,*59
06/05/2014	13:00:27.122	$GPGGA,130027,2421.5784,N,08130.6215,W,1,9,1.5,19,M,,M,,*53
06/05/2014	13:00:28.163	$GPGGA,130028,2421.5779,N,08130.6218,W,1,9,1.5,19,M,,M,,*53
06/05/2014	13:00:29.173	$GPGGA,130029,2421.5775,N,08130.6221,W,1,9,1.5,19,M,,M,,*54
06/05/2014	13:00:30.154	$GPGGA,130030,2421.5771,N,08130.6225,W,1,9,1.5,19,M,,M,,*5C
06/05/2014	13:00:31.185	$GPGGA,130031,2421.5767,N,08130.6230,W,1,8,1.7,19,M,,M,,*5D
06/05/2014	13:00:32.186	$GPGGA,130032,2421.5764,N,08130.6233,W,1,8,1.5,19,M,,M,,*5C
06/05/2014	13:00:33.208	$GPGGA,130033,2421.5761,N,08130.6239,W,1,8,1.8,19,M,,M,,*5F
06/05/2014	13:00:34.176	$GPGGA,130034,2421.5757,N,08130.6244,W,1,8,1.5,19,M,,M,,*5A
06/05/2014	13:00:34.545	$GPGGA,130035,2421.5755,N,08130.6250,W,1,9,1.5,19,M,,M,,*5D
06/05/2014	13:00:35.576	$GPGGA,130036,2421.5750,N,08130.6257,W,1,9,1.5,19,M,,M,,*5C
06/05/2014	13:00:36.587	$GPGGA,130037,2421.5749,N,08130.6262,W,1,9,1.5,19,M,,M,,*53
06/05/2014	13:00:37.567	$GPGGA,130038,2421.5748,N,08130.6268,W,1,9,1.5,19,M,,M,,*57
06/05/2014	13:00:38.618	$GPGGA,130039,2421.5744,N,08130.6275,W,1,9,1.5,19,M,,M,,*56
06/05/2014	13:00:39.619	$GPGGA,130040,2421.5743,N,08130.6283,W,1,9,1.5,19,M,,M,,*56
06/05/2014	13:00:40.630	$GPGGA,130041,2421.5742,N,08130.6290,W,1,9,1.5,19,M,,M,,*54
06/05/2014	13:00:41.610	$GPGGA,130042,2421.5741,N,08130.6297,W,1,9,1.5,19,M,,M,,*53
06/05/2014	13:00:42.620	$GPGGA,130043,2421.5739,N,08130.6304,W,1,9,1.5,19,M,,M,,*56
06/05/2014	13:00:43.641	$GPGGA,130044,2421.5740,N,08130.6312,W,1,9,1.5,19,M,,M,,*58
06/05/2014	13:00:44.642	$GPGGA,130045,2421.5738,N,08130.6320,W,1,9,1.5,19,M,,M,,*57
06/05/2014	13:00:45.653	$GPGGA,130046,2421.5739,N,08130.6329,W,1,9,1.5,19,M,,M,,*5C
06/05/2014	13:00:46.653	$GPGGA,130047,2421.5738,N,08130.6340,W,1,9,1.5,19,M,,M,,*53
06/05/2014	13:00:47.684	$GPGGA,130048,2421.5739,N,08130.6351,W,1,9,1.5,19,M,,M,,*5D
06/05/2014	13:00:48.705	$GPGGA,130049,2421.5738,N,08130.6362,W,1,8,1.7,19,M,,M,,*5E
06/05/2014	13:00:49.685	$GPGGA,130050,2421.5740,N,08130.6371,W,1,8,1.7,19,M,,M,,*5B
06/05/2014	13:00:50.726	$GPGGA,130051,2421.5741,N,08130.6380,W,1,8,1.7,19,M,,M,,*55
06/05/2014	13:00:51.706	$GPGGA,130052,2421.5744,N,08130.6391,W,1,8,1.5,19,M,,M,,*51
06/05/2014	13:00:52.737	$GPGGA,130053,2421.5746,N,08130.6403,W,1,9,1.5,19,M,,M,,*5F
06/05/2014	13:00:53.727	$GPGGA,130054,2421.5748,N,08130.6416,W,1,9,1.5,19,M,,M,,*52
06/05/2014	13:00:54.728	$GPGGA,130055,2421.5751,N,08130.6428,W,1,9,1.5,19,M,,M,,*56
06/05/2014	13:00:55.748	$GPGGA,130056,2421.5755,N,08130.6441,W,1,9,1.5,19,M,,M,,*5E
06/05/2014	13:00:56.739	$GPGGA,130057,2421.5758,N,08130.6452,W,1,9,1.5,19,M,,M,,*50
06/05/2014	13:00:57.861	$GPGGA,130058,2421.5762,N,08130.6464,W,1,9,1.5,19,M,,M,,*53
06/05/2014	13:00:58.770	$GPGGA,130059,2421.5766,N,08130.6478,W,1,8,1.7,19,M,,M,,*58
06/05/2014	13:00:59.801	$GPGGA,130100,2421.5770,N,08130.6492,W,1,8,1.7,19,M,,M,,*56
06/05/2014	13:01:00.792	$GPGGA,130101,2421.5773,N,08130.6507,W,1,9,1.5,19,M,,M,,*5A
06/05/2014	13:01:01.792	$GPGGA,130102,2421.5780,N,08130.6517,W,1,9,1.7,19,M,,M,,*56
06/05/2014	13:01:02.803	$GPGGA,130103,2421.5788,N,08130.6528,W,1,9,1.5,19,M,,M,,*51
06/05/2014	13:01:03.804	$GPGGA,130104,2421.5795,N,08130.6540,W,1,9,1.5,19,M,,M,,*54
06/05/2014	13:01:04.916	$GPGGA,130105,2421.5801,N,08130.6553,W,1,8,1.7,19,M,,M,,*56
06/05/2014	13:01:05.835	$GPGGA,130106,2421.5809,N,08130.6565,W,1,8,1.5,19,M,,M,,*5A
06/05/2014	13:01:06.846	$GPGGA,130107,2421.5816,N,08130.6579,W,1,9,1.5,19,M,,M,,*59
06/05/2014	13:01:07.836	$GPGGA,130108,2421.5824,N,08130.6591,W,1,9,1.5,19,M,,M,,*51
06/05/2014	13:01:08.847	$GPGGA,130109,2421.5834,N,08130.6604,W,1,8,1.7,19,M,,M,,*5D
06/05/2014	13:01:09.964	$GPGGA,130110,2421.5844,N,08130.6615,W,1,8,1.5,19,M,,M,,*50
06/05/2014	13:01:10.859	$GPGGA,130111,2421.5853,N,08130.6626,W,1,9,1.5,19,M,,M,,*56
06/05/2014	13:01:11.965	$GPGGA,130112,2421.5866,N,08130.6638,W,1,9,1.5,19,M,,M,,*5C
06/05/2014	13:01:12.971	$GPGGA,130113,2421.5878,N,08130.6649,W,1,9,1.5,19,M,,M,,*54
06/05/2014	13:01:13.956	$GPGGA,130114,2421.5888,N,08130.6662,W,1,9,1.5,19,M,,M,,*55
06/05/2014	13:01:15.002	$GPGGA,130115,2421.5900,N,08130.6673,W,1,9,1.5,19,M,,M,,*55
06/05/2014	13:01:15.987	$GPGGA,130116,2421.5916,N,08130.6681,W,1,9,1.5,19,M,,M,,*5C
06/05/2014	13:01:16.963	$GPGGA,130117,2421.5928,N,08130.6692,W,1,9,1.5,19,M,,M,,*52
06/05/2014	13:01:17.978	$GPGGA,130118,2421.5943,N,08130.6703,W,1,9,1.6,19,M,,M,,*5A
06/05/2014	13:01:18.984	$GPGGA,130119,2421.5958,N,08130.6713,W,1,9,1.5,19,M,,M,,*53
06/05/2014	13:01:19.989	$GPGGA,130120,2421.5975,N,08130.6723,W,1,9,1.5,19,M,,M,,*55
06/05/2014	13:01:21.015	$GPGGA,130121,2421.5990,N,08130.6731,W,1,9,1.5,19,M,,M,,*5C
06/05/2014	13:01:22.000	$GPGGA,130122,2421.6005,N,08130.6741,W,1,9,1.6,19,M,,M,,*5D
06/05/2014	13:01:22.986	$GPGGA,130123,2421.6022,N,08130.6748,W,1,9,1.5,19,M,,M,,*53
06/05/2014	13:01:24.011	$GPGGA,130124,2421.6040,N,08130.6754,W,1,9,1.5,19,M,,M,,*5D
06/05/2014	13:01:24.987	$GPGGA,130125,2421.6058,N,08130.6763,W,1,9,1.5,19,M,,M,,*51
06/05/2014	13:01:26.002	$GPGGA,130126,2421.6076,N,08130.6770,W,1,9,1.5,19,M,,M,,*5C
06/05/2014	13:01:27.027	$GPGGA,130127,2421.6095,N,08130.6775,W,1,9,1.5,19,M,,M,,*55
06/05/2014	13:01:28.022	$GPGGA,130128,2421.6115,N,08130.6781,W,1,9,1.5,19,M,,M,,*58
06/05/2014	13:01:29.028	$GPGGA,130129,2421.6134,N,08130.6786,W,1,9,1.5,19,M,,M,,*5D
06/05/2014	13:01:30.013	$GPGGA,130130,2421.6152,N,08130.6792,W,1,9,1.5,19,M,,M,,*50
06/05/2014	13:01:31.049	$GPGGA,130131,2421.6173,N,08130.6796,W,1,9,1.5,19,M,,M,,*56
06/05/2014	13:01:32.024	$GPGGA,130132,2421.6195,N,08130.6800,W,1,9,1.5,19,M,,M,,*5D
06/05/2014	13:01:33.043	$GPGGA,130133,2421.6216,N,08130.6804,W,1,9,1.5,19,M,,M,,*50
06/05/2014	13:01:34.036	$GPGGA,130134,2421.6236,N,08130.6810,W,1,9,1.5,19,M,,M,,*50
06/05/2014	13:01:34.563	$GPGGA,130135,2421.6259,N,08130.6814,W,1,9,1.5,19,M,,M,,*5C
06/05/2014	13:01:35.549	$GPGGA,130136,2421.6282,N,08130.6815,W,1,9,1.5,19,M,,M,,*58
06/05/2014	13:01:36.534	$GPGGA,130137,2421.6303,N,08130.6819,W,1,9,1.5,19,M,,M,,*5D
06/05/2014	13:01:37.540	$GPGGA,130138,2421.6325,N,08130.6822,W,1,9,1.5,19,M,,M,,*5E
06/05/2014	13:01:38.565	$GPGGA,130139,2421.6347,N,08130.6825,W,1,9,1.5,19,M,,M,,*5C
06/05/2014	13:01:39.562	$GPGGA,130140,2421.6369,N,08130.6828,W,1,9,1.5,19,M,,M,,*53
06/05/2014	13:01:40.566	$GPGGA,130141,2421.6393,N,08130.6832,W,1,9,1.5,19,M,,M,,*5C
06/05/2014	13:01:41.552	$GPGGA,130142,2421.6416,N,08130.6835,W,1,9,1.5,19,M,,M,,*52
06/05/2014	13:01:42.557	$GPGGA,130143,2421.6438,N,08130.6839,W,1,9,1.5,19,M,,M,,*53
06/05/2014	13:01:43.583	$GPGGA,130144,2421.6462,N,08130.6842,W,1,9,1.5,19,M,,M,,*57
06/05/2014	13:01:44.567	$GPGGA,130145,2421.6485,N,08130.6843,W,1,9,1.5,19,M,,M,,*5E
06/05/2014	13:01:45.573	$GPGGA,130146,2421.6509,N,08130.6846,W,1,9,1.5,19,M,,M,,*5D
06/05/2014	13:01:46.659	$GPGGA,130147,2421.6532,N,08130.6850,W,1,9,1.5,19,M,,M,,*53
06/05/2014	13:01:47.585	$GPGGA,130148,2421.6556,N,08130.6853,W,1,9,1.5,19,M,,M,,*5D
06/05/2014	13:01:48.589	$GPGGA,130149,2421.6579,N,08130.6854,W,1,9,1.5,19,M,,M,,*56
06/05/2014	13:01:49.665	$GPGGA,130150,2421.6601,N,08130.6857,W,1,9,1.5,19,M,,M,,*51
06/05/2014	13:01:50.580	$GPGGA,130151,2421.6625,N,08130.6861,W,1,9,1.5,19,M,,M,,*53
06/05/2014	13:01:51.716	$GPGGA,130152,2421.6648,N,08130.6864,W,1,9,1.5,19,M,,M,,*5E
06/05/2014	13:01:52.712	$GPGGA,130153,2421.6673,N,08130.6866,W,1,9,1.5,18,M,,M,,*54
06/05/2014	13:01:53.596	$GPGGA,130154,2421.6695,N,08130.6869,W,1,9,1.5,18,M,,M,,*54
06/05/2014	13:01:54.602	$GPGGA,130155,2421.6720,N,08130.6872,W,1,9,1.5,18,M,,M,,*50
06/05/2014	13:01:55.698	$GPGGA,130156,2421.6744,N,08130.6876,W,1,9,1.5,18,M,,M,,*55
06/05/2014	13:01:56.703	$GPGGA,130157,2421.6767,N,08130.6878,W,1,9,1.5,18,M,,M,,*5B
06/05/2014	13:01:57.608	$GPGGA,130158,2421.6791,N,08130.6880,W,1,9,1.5,18,M,,M,,*5A
06/05/2014	13:01:58.605	$GPGGA,130159,2421.6813,N,08130.6886,W,1,9,1.5,18,M,,M,,*58
06/05/2014	13:01:59.730	$GPGGA,130200,2421.6837,N,08130.6887,W,1,9,1.5,18,M,,M,,*50
06/05/2014	13:02:00.716	$GPGGA,130201,2421.6861,N,08130.6889,W,1,9,1.5,18,M,,M,,*5C
06/05/2014	13:02:01.710	$GPGGA,130202,2421.6885,N,08130.6893,W,1,9,1.5,18,M,,M,,*5E
06/05/2014	13:02:02.725	$GPGGA,130203,2421.6908,N,08130.6897,W,1,9,1.5,18,M,,M,,*5F
06/05/2014	13:02:03.731	$GPGGA,130204,2421.6933,N,08130.6900,W,1,9,1.5,18,M,,M,,*5F
06/05/2014	13:02:04.757	$GPGGA,130205,2421.6955,N,08130.6902,W,1,9,1.5,18,M,,M,,*5C
06/05/2014	13:02:05.732	$GPGGA,130206,2421.6979,N,08130.6907,W,1,9,1.5,18,M,,M,,*54
06/05/2014	13:02:06.737	$GPGGA,130207,2421.7002,N,08130.6908,W,1,9,1.5,18,M,,M,,*5E
06/05/2014	13:02:07.753	$GPGGA,130208,2421.7026,N,08130.6911,W,1,9,1.5,18,M,,M,,*5F
06/05/2014	13:02:08.748	$GPGGA,130209,2421.7049,N,08130.6915,W,1,9,1.5,17,M,,M,,*5C
06/05/2014	13:02:09.744	$GPGGA,130210,2421.7073,N,08130.6918,W,1,9,1.5,17,M,,M,,*50
06/05/2014	13:02:10.739	$GPGGA,130211,2421.7098,N,08130.6920,W,1,9,1.5,17,M,,M,,*5F
06/05/2014	13:02:11.775	$GPGGA,130212,2421.7121,N,08130.6923,W,1,9,1.5,17,M,,M,,*5C
06/05/2014	13:02:12.770	$GPGGA,130213,2421.7146,N,08130.6926,W,1,8,1.7,17,M,,M,,*5A
06/05/2014	13:02:13.756	$GPGGA,130214,2421.7170,N,08130.6929,W,1,8,1.5,17,M,,M,,*55
06/05/2014	13:02:14.781	$GPGGA,130215,2421.7193,N,08130.6933,W,1,9,1.5,17,M,,M,,*53
06/05/2014	13:02:15.777	$GPGGA,130216,2421.7218,N,08130.6934,W,1,9,1.5,17,M,,M,,*57
06/05/2014	13:02:16.792	$GPGGA,130217,2421.7242,N,08130.6936,W,1,9,1.5,17,M,,M,,*5B
06/05/2014	13:02:17.768	$GPGGA,130218,2421.7265,N,08130.6940,W,1,9,1.5,17,M,,M,,*50
06/05/2014	13:02:18.793	$GPGGA,130219,2421.7289,N,08130.6944,W,1,9,1.5,17,M,,M,,*57
06/05/2014	13:02:19.788	$GPGGA,130220,2421.7312,N,08130.6947,W,1,9,1.5,17,M,,M,,*5D
06/05/2014	13:02:20.813	$GPGGA,130221,2421.7337,N,08130.6948,W,1,9,1.5,17,M,,M,,*54
06/05/2014	13:02:21.779	$GPGGA,130222,2421.7359,N,08130.6951,W,1,9,1.5,17,M,,M,,*57
06/05/2014	13:02:22.804	$GPGGA,130223,2421.7383,N,08130.6955,W,1,9,1.5,17,M,,M,,*55
06/05/2014	13:02:23.810	$GPGGA,130224,2421.7406,N,08130.6958,W,1,9,1.5,17,M,,M,,*55
06/05/2014	13:02:24.785	$GPGGA,130225,2421.7431,N,08130.6960,W,1,9,1.5,17,M,,M,,*5B
06/05/2014	13:02:25.801	$GPGGA,130226,2421.7455,N,08130.6965,W,1,9,1.5,17,M,,M,,*5F
06/05/2014	13:02:26.796	$GPGGA,130227,2421.7478,N,08130.6969,W,1,9,1.5,17,M,,M,,*5D
06/05/2014	13:02:27.822	$GPGGA,130228,2421.7503,N,08130.6970,W,1,9,1.5,17,M,,M,,*57
06/05/2014	13:02:28.830	$GPGGA,130229,2421.7525,N,08130.6973,W,1,9,1.5,17,M,,M,,*51
06/05/2014	13:02:29.823	$GPGGA,130230,2421.7549,N,08130.6977,W,1,9,1.5,17,M,,M,,*57
06/05/2014	13:02:30.828	$GPGGA,130231,2421.7572,N,08130.6980,W,1,9,1.5,17,M,,M,,*56
06/05/2014	13:02:31.944	$GPGGA,130232,2421.7597,N,08130.6981,W,1,9,1.5,17,M,,M,,*5F
06/05/2014	13:02:32.950	$GPGGA,130233,2421.7619,N,08130.6985,W,1,9,1.5,17,M,,M,,*5F
06/05/2014	13:02:33.836	$GPGGA,130234,2421.7643,N,08130.6990,W,1,9,1.5,17,M,,M,,*53
06/05/2014	13:02:34.511	$GPGGA,130235,2421.7666,N,08130.6991,W,1,9,1.5,17,M,,M,,*54
06/05/2014	13:02:35.527	$GPGGA,130236,2421.7691,N,08130.6994,W,1,9,1.5,17,M,,M,,*5A
06/05/2014	13:02:36.642	$GPGGA,130237,2421.7715,N,08130.6998,W,1,9,1.5,17,M,,M,,*5A
06/05/2014	13:02:37.517	$GPGGA,130238,2421.7738,N,08130.7003,W,1,9,1.5,17,M,,M,,*50
06/05/2014	13:02:38.532	$GPGGA,130239,2421.7763,N,08130.7005,W,1,9,1.5,17,M,,M,,*59
06/05/2014	13:02:39.638	$GPGGA,130240,2421.7785,N,08130.7008,W,1,9,1.5,17,M,,M,,*52
06/05/2014	13:02:40.664	$GPGGA,130241,2421.7807,N,08130.7013,W,1,9,1.5,17,M,,M,,*5C
06/05/2014	13:02:41.518	$GPGGA,130242,2421.7832,N,08130.7016,W,1,9,1.5,17,M,,M,,*5C
06/05/2014	13:02:42.524	$GPGGA,130243,2421.7857,N,08130.7019,W,1,9,1.5,17,M,,M,,*51
06/05/2014	13:02:43.660	$GPGGA,130244,2421.7879,N,08130.7023,W,1,9,1.5,17,M,,M,,*53
06/05/2014	13:02:44.535	$GPGGA,130245,2421.7903,N,08130.7027,W,1,9,1.5,17,M,,M,,*5A
06/05/2014	13:02:45.641	$GPGGA,130246,2421.7928,N,08130.7030,W,1,9,1.5,17,M,,M,,*56
06/05/2014	13:02:46.646	$GPGGA,130247,2421.7951,N,08130.7032,W,1,9,1.5,17,M,,M,,*5B
06/05/2014	13:02:47.672	$GPGGA,130248,2421.7973,N,08130.7038,W,1,9,1.5,17,M,,M,,*5E
06/05/2014	13:02:48.668	$GPGGA,130249,2421.7997,N,08130.7041,W,1,9,1.5,17,M,,M,,*5B
06/05/2014	13:02:49.663	$GPGGA,130250,2421.8020,N,08130.7043,W,1,9,1.5,17,M,,M,,*5B
06/05/2014	13:02:50.679	$GPGGA,130251,2421.8042,N,08130.7048,W,1,9,1.5,17,M,,M,,*55
06/05/2014	13:02:51.664	$GPGGA,130252,2421.8067,N,08130.7052,W,1,9,1.5,17,M,,M,,*5A
06/05/2014	13:02:52.691	$GPGGA,130253,2421.8091,N,08130.7055,W,1,9,1.5,17,M,,M,,*55
06/05/2014	13:02:53.654	$GPGGA,130254,2421.8113,N,08130.7059,W,1,9,1.5,17,M,,M,,*55
06/05/2014	13:02:54.689	$GPGGA,130255,2421.8138,N,08130.7063,W,1,9,1.5,17,M,,M,,*54
06/05/2014	13:02:55.685	$GPGGA,130256,2421.8161,N,08130.7066,W,1,9,1.5,17,M,,M,,*5E
06/05/2014	13:02:56.690	$GPGGA,130257,2421.8183,N,08130.7070,W,1,9,1.5,17,M,,M,,*54
06/05/2014	13:02:57.676	$GPGGA,130258,2421.8207,N,08130.7075,W,1,9,1.5,17,M,,M,,*51
06/05/2014	13:02:58.701	$GPGGA,130259,2421.8230,N,08130.7077,W,1,9,1.5,17,M,,M,,*56
06/05/2014	13:02:59.707	$GPGGA,130300,2421.8254,N,08130.7081,W,1,9,1.5,17,M,,M,,*50
06/05/2014	13:03:00.702	$GPGGA,130301,2421.8277,N,08130.7086,W,1,9,1.5,17,M,,M,,*57
06/05/2014	13:03:01.698	$GPGGA,130302,2421.8301,N,08130.7089,W,1,9,1.5,16,M,,M,,*5A
06/05/2014	13:03:02.723	$GPGGA,130303,2421.8324,N,08130.7092,W,1,9,1.5,16,M,,M,,*56
06/05/2014	13:03:03.719	$GPGGA,130304,2421.8349,N,08130.7095,W,1,9,1.5,16,M,,M,,*5D
06/05/2014	13:03:04.694	$GPGGA,130305,2421.8371,N,08130.7099,W,1,9,1.5,16,M,,M,,*5B
06/05/2014	13:03:05.710	$GPGGA,130306,2421.8395,N,08130.7103,W,1,9,1.5,16,M,,M,,*50
06/05/2014	13:03:06.735	$GPGGA,130307,2421.8418,N,08130.7106,W,1,9,1.5,16,M,,M,,*56
06/05/2014	13:03:07.721	$GPGGA,130308,2421.8442,N,08130.7108,W,1,9,1.5,16,M,,M,,*58
06/05/2014	13:03:08.716	$GPGGA,130309,2421.8465,N,08130.7113,W,1,9,1.5,16,M,,M,,*56
06/05/2014	13:03:09.722	$GPGGA,130310,2421.8489,N,08130.7115,W,1,9,1.5,16,M,,M,,*5A
06/05/2014	13:03:10.724	$GPGGA,130311,2421.8512,N,08130.7117,W,1,9,1.5,16,M,,M,,*5A
06/05/2014	13:03:11.752	$GPGGA,130312,2421.8536,N,08130.7121,W,1,9,1.5,16,M,,M,,*5A
06/05/2014	13:03:12.747	$GPGGA,130313,2421.8559,N,08130.7124,W,1,9,1.5,16,M,,M,,*57
06/05/2014	13:03:14.788	$GPGGA,130315,2421.8608,N,08130.7131,W,1,9,1.5,16,M,,M,,*52
06/05/2014	13:03:15.754	$GPGGA,130316,2421.8631,N,08130.7133,W,1,9,1.5,16,M,,M,,*59
06/05/2014	13:03:16.769	$GPGGA,130317,2421.8655,N,08130.7136,W,1,9,1.5,16,M,,M,,*5F
06/05/2014	13:03:17.745	$GPGGA,130318,2421.8678,N,08130.7139,W,1,9,1.5,16,M,,M,,*50
06/05/2014	13:03:18.770	$GPGGA,130319,2421.8702,N,08130.7143,W,1,9,1.5,16,M,,M,,*50
06/05/2014	13:03:19.766	$GPGGA,130320,2421.8725,N,08130.7146,W,1,9,1.5,16,M,,M,,*5A
06/05/2014	13:03:20.882	$GPGGA,130321,2421.8749,N,08130.7150,W,1,9,1.5,16,M,,M,,*56
06/05/2014	13:03:21.767	$GPGGA,130322,2421.8772,N,08130.7153,W,1,9,1.5,16,M,,M,,*5E
06/05/2014	13:03:22.873	$GPGGA,130323,2421.8797,N,08130.7155,W,1,9,1.5,16,M,,M,,*52
06/05/2014	13:03:23.768	$GPGGA,130324,2421.8821,N,08130.7158,W,1,9,1.5,16,M,,M,,*5A
06/05/2014	13:03:24.884	$GPGGA,130325,2421.8844,N,08130.7162,W,1,9,1.5,16,M,,M,,*51
06/05/2014	13:03:25.889	$GPGGA,130326,2421.8869,N,08130.7167,W,1,9,1.5,16,M,,M,,*58
06/05/2014	13:03:26.774	$GPGGA,130327,2421.8893,N,08130.7169,W,1,9,1.5,16,M,,M,,*52
06/05/2014	13:03:27.900	$GPGGA,130328,2421.8916,N,08130.7171,W,1,9,1.5,16,M,,M,,*58
06/05/2014	13:03:28.895	$GPGGA,130329,2421.8940,N,08130.7175,W,1,9,1.5,16,M,,M,,*5E
06/05/2014	13:03:29.900	$GPGGA,130330,2421.8963,N,08130.7178,W,1,9,1.5,16,M,,M,,*5A
06/05/2014	13:03:30.885	$GPGGA,130331,2421.8987,N,08130.7182,W,1,9,1.5,16,M,,M,,*54
06/05/2014	13:03:31.821	$GPGGA,130332,2421.9010,N,08130.7186,W,1,9,1.5,16,M,,M,,*55
06/05/2014	13:03:32.937	$GPGGA,130333,2421.9035,N,08130.7186,W,1,9,1.5,16,M,,M,,*53
06/05/2014	13:03:33.892	$GPGGA,130334,2421.9057,N,08130.7193,W,1,9,1.5,16,M,,M,,*54
06/05/2014	13:03:34.579	$GPGGA,130335,2421.9082,N,08130.7197,W,1,9,1.5,16,M,,M,,*59
06/05/2014	13:03:35.586	$GPGGA,130336,2421.9106,N,08130.7197,W,1,9,1.5,16,M,,M,,*57
06/05/2014	13:03:36.611	$GPGGA,130337,2421.9129,N,08130.7201,W,1,9,1.5,16,M,,M,,*57
06/05/2014	13:03:37.586	$GPGGA,130338,2421.9153,N,08130.7204,W,1,9,1.5,16,M,,M,,*50
06/05/2014	13:03:38.611	$GPGGA,130339,2421.9176,N,08130.7207,W,1,9,1.5,16,M,,M,,*55
06/05/2014	13:03:39.597	$GPGGA,130340,2421.9201,N,08130.7211,W,1,9,1.5,16,M,,M,,*5F
06/05/2014	13:03:40.612	$GPGGA,130341,2421.9223,N,08130.7214,W,1,9,1.5,16,M,,M,,*5B
06/05/2014	13:03:41.598	$GPGGA,130342,2421.9248,N,08130.7218,W,1,9,1.5,16,M,,M,,*59
06/05/2014	13:03:42.613	$GPGGA,130343,2421.9272,N,08130.7219,W,1,9,1.5,16,M,,M,,*50
06/05/2014	13:03:43.619	$GPGGA,130344,2421.9295,N,08130.7222,W,1,9,1.5,16,M,,M,,*56
06/05/2014	13:03:44.624	$GPGGA,130345,2421.9317,N,08130.7226,W,1,9,1.5,16,M,,M,,*58
06/05/2014	13:03:45.620	$GPGGA,130346,2421.9342,N,08130.7229,W,1,9,1.5,16,M,,M,,*54
06/05/2014	13:03:46.624	$GPGGA,130347,2421.9366,N,08130.7232,W,1,9,1.5,16,M,,M,,*59
06/05/2014	13:03:47.630	$GPGGA,130348,2421.9389,N,08130.7234,W,1,9,1.5,16,M,,M,,*51
06/05/2014	13:03:48.605	$GPGGA,130349,2421.9411,N,08130.7237,W,1,9,1.5,16,M,,M,,*55
06/05/2014	13:03:49.621	$GPGGA,130350,2421.9436,N,08130.7241,W,1,9,1.5,16,M,,M,,*59
06/05/2014	13:03:50.646	$GPGGA,130351,2421.9458,N,08130.7243,W,1,9,1.5,16,M,,M,,*52
06/05/2014	13:03:51.642	$GPGGA,130352,2421.9483,N,08130.7247,W,1,9,1.5,16,M,,M,,*53
06/05/2014	13:03:52.627	$GPGGA,130353,2421.9507,N,08130.7249,W,1,9,1.5,15,M,,M,,*52
06/05/2014	13:03:53.643	$GPGGA,130354,2421.9530,N,08130.7251,W,1,9,1.5,15,M,,M,,*58
06/05/2014	13:03:54.668	$GPGGA,130355,2421.9554,N,08130.7254,W,1,9,1.5,15,M,,M,,*5E
06/05/2014	13:03:55.654	$GPGGA,130356,2421.9577,N,08130.7256,W,1,9,1.5,15,M,,M,,*5E
06/05/2014	13:03:56.659	$GPGGA,130357,2421.9602,N,08130.7259,W,1,9,1.5,15,M,,M,,*51
06/05/2014	13:03:57.645	$GPGGA,130358,2421.9624,N,08130.7262,W,1,9,1.5,15,M,,M,,*52
06/05/2014	13:03:58.680	$GPGGA,130359,2421.9648,N,08130.7265,W,1,9,1.5,15,M,,M,,*5E
06/05/2014	13:03:59.676	$GPGGA,130400,2421.9671,N,08130.7267,W,1,9,1.5,15,M,,M,,*5D
06/05/2014	13:04:00.691	$GPGGA,130401,2421.9696,N,08130.7272,W,1,9,1.5,15,M,,M,,*51
06/05/2014	13:04:01.659	$GPGGA,130402,2421.9718,N,08130.7274,W,1,9,1.5,15,M,,M,,*53
06/05/2014	13:04:02.672	$GPGGA,130403,2421.9743,N,08130.7277,W,1,9,1.5,15,M,,M,,*5F
06/05/2014	13:04:03.697	$GPGGA,130404,2421.9768,N,08130.7280,W,1,9,1.5,15,M,,M,,*59
06/05/2014	13:04:04.692	$GPGGA,130405,2421.9790,N,08130.7283,W,1,9,1.5,15,M,,M,,*5C
06/05/2014	13:04:05.667	$GPGGA,130406,2421.9814,N,08130.7287,W,1,9,1.5,15,M,,M,,*58
06/05/2014	13:04:06.673	$GPGGA,130407,2421.9837,N,08130.7291,W,1,9,1.5,15,M,,M,,*5F
06/05/2014	13:04:07.699	$GPGGA,130408,2421.9861,N,08130.7294,W,1,9,1.5,15,M,,M,,*56
06/05/2014	13:04:08.706	$GPGGA,130409,2421.9884,N,08130.7296,W,1,9,1.5,15,M,,M,,*5E
06/05/2014	13:04:09.689	$GPGGA,130410,2421.9909,N,08130.7301,W,1,9,1.5,15,M,,M,,*5D
06/05/2014	13:04:10.685	$GPGGA,130411,2421.9931,N,08130.7305,W,1,9,1.5,15,M,,M,,*53
06/05/2014	13:04:11.821	$GPGGA,130412,2421.9955,N,08130.7309,W,1,9,1.5,15,M,,M,,*5E
06/05/2014	13:04:12.716	$GPGGA,130413,2421.9978,N,08130.7312,W,1,8,1.8,15,M,,M,,*56
06/05/2014	13:04:13.711	$GPGGA,130414,2422.0000,N,08130.7317,W,1,8,1.5,15,M,,M,,*55
06/05/2014	13:04:14.838	$GPGGA,130415,2422.0022,N,08130.7323,W,1,9,1.5,15,M,,M,,*52
06/05/2014	13:04:15.823	$GPGGA,130416,2422.0047,N,08130.7326,W,1,9,1.5,15,M,,M,,*57
06/05/2014	13:04:16.728	$GPGGA,130417,2422.0069,N,08130.7330,W,1,9,1.5,15,M,,M,,*5D
06/05/2014	13:04:17.814	$GPGGA,130418,2422.0093,N,08130.7334,W,1,9,1.5,15,M,,M,,*53
06/05/2014	13:04:18.820	$GPGGA,130419,2422.0116,N,08130.7338,W,1,9,1.5,15,M,,M,,*52
06/05/2014	13:04:19.744	$GPGGA,130420,2422.0137,N,08130.7345,W,1,9,1.5,15,M,,M,,*51
06/05/2014	13:04:20.731	$GPGGA,130421,2422.0162,N,08130.7348,W,1,9,1.5,15,M,,M,,*5D
06/05/2014	13:04:21.825	$GPGGA,130422,2422.0184,N,08130.7352,W,1,9,1.5,15,M,,M,,*5D
06/05/2014	13:04:22.840	$GPGGA,130423,2422.0208,N,08130.7357,W,1,9,1.5,15,M,,M,,*5E
06/05/2014	13:04:23.846	$GPGGA,130424,2422.0231,N,08130.7361,W,1,9,1.5,15,M,,M,,*56
06/05/2014	13:04:24.851	$GPGGA,130425,2422.0255,N,08130.7364,W,1,9,1.5,15,M,,M,,*50
06/05/2014	13:04:25.847	$GPGGA,130426,2422.0278,N,08130.7370,W,1,9,1.5,15,M,,M,,*59
06/05/2014	13:04:26.842	$GPGGA,130427,2422.0302,N,08130.7375,W,1,9,1.5,15,M,,M,,*51
06/05/2014	13:04:27.858	$GPGGA,130428,2422.0325,N,08130.7377,W,1,9,1.5,15,M,,M,,*59
06/05/2014	13:04:28.863	$GPGGA,130429,2422.0349,N,08130.7382,W,1,9,1.5,15,M,,M,,*58
06/05/2014	13:04:29.859	$GPGGA,130430,2422.0372,N,08130.7388,W,1,9,1.5,15,M,,M,,*52
06/05/2014	13:04:30.854	$GPGGA,130431,2422.0397,N,08130.7389,W,1,9,1.5,15,M,,M,,*59
06/05/2014	13:04:31.880	$GPGGA,130432,2422.0419,N,08130.7395,W,1,9,1.5,15,M,,M,,*56
06/05/2014	13:04:32.885	$GPGGA,130433,2422.0443,N,08130.7399,W,1,9,1.5,15,M,,M,,*54
06/05/2014	13:04:33.891	$GPGGA,130434,2422.0466,N,08130.7402,W,1,9,1.5,15,M,,M,,*51
06/05/2014	13:04:34.558	$GPGGA,130435,2422.0490,N,08130.7406,W,1,9,1.5,16,M,,M,,*5E
06/05/2014	13:04:35.564	$GPGGA,130436,2422.0513,N,08130.7410,W,1,9,1.5,16,M,,M,,*50
06/05/2014	13:04:36.569	$GPGGA,130437,2422.0537,N,08130.7413,W,1,9,1.5,16,M,,M,,*54
06/05/2014	13:04:37.555	$GPGGA,130438,2422.0560,N,08130.7415,W,1,9,1.5,16,M,,M,,*5F
06/05/2014	13:04:38.589	$GPGGA,130439,2422.0584,N,08130.7420,W,1,9,1.5,16,M,,M,,*52
06/05/2014	13:04:39.575	$GPGGA,130440,2422.0607,N,08130.7424,W,1,9,1.5,16,M,,M,,*50
06/05/2014	13:04:40.560	$GPGGA,130441,2422.0631,N,08130.7426,W,1,9,1.5,16,M,,M,,*56
06/05/2014	13:04:41.556	$GPGGA,130442,2422.0654,N,08130.7428,W,1,9,1.5,16,M,,M,,*58
06/05/2014	13:04:42.571	$GPGGA,130443,2422.0678,N,08130.7432,W,1,9,1.5,16,M,,M,,*5C
06/05/2014	13:04:44.612	$GPGGA,130445,2422.0726,N,08130.7438,W,1,9,1.5,16,M,,M,,*5A
06/05/2014	13:04:45.588	$GPGGA,130446,2422.0748,N,08130.7440,W,1,9,1.5,16,M,,M,,*5E
06/05/2014	13:04:46.623	$GPGGA,130447,2422.0772,N,08130.7443,W,1,9,1.5,16,M,,M,,*55
06/05/2014	13:04:47.599	$GPGGA,130448,2422.0795,N,08130.7447,W,1,9,1.5,16,M,,M,,*57
06/05/2014	13:04:48.604	$GPGGA,130449,2422.0819,N,08130.7450,W,1,9,1.5,16,M,,M,,*5B
06/05/2014	13:04:49.591	$GPGGA,130450,2422.0844,N,08130.7453,W,1,9,1.5,16,M,,M,,*58
06/05/2014	13:04:50.595	$GPGGA,130451,2422.0867,N,08130.7454,W,1,9,1.5,16,M,,M,,*5F
06/05/2014	13:04:51.631	$GPGGA,130452,2422.0891,N,08130.7458,W,1,9,1.5,16,M,,M,,*59
06/05/2014	13:04:52.626	$GPGGA,130453,2422.0914,N,08130.7460,W,1,9,1.5,16,M,,M,,*5F
06/05/2014	13:04:53.612	$GPGGA,130454,2422.0938,N,08130.7462,W,1,9,1.5,16,M,,M,,*54
06/05/2014	13:04:54.617	$GPGGA,130455,2422.0961,N,08130.7465,W,1,9,1.5,16,M,,M,,*5E
06/05/2014	13:04:55.633	$GPGGA,130456,2422.0985,N,08130.7469,W,1,9,1.6,16,M,,M,,*58
06/05/2014	13:04:56.607	$GPGGA,130457,2422.1010,N,08130.7471,W,1,9,1.5,16,M,,M,,*57
06/05/2014	13:04:57.633	$GPGGA,130458,2422.1033,N,08130.7472,W,1,9,1.5,16,M,,M,,*5A
06/05/2014	13:04:58.618	$GPGGA,130459,2422.1057,N,08130.7476,W,1,9,1.5,16,M,,M,,*5D
06/05/2014	13:04:59.654	$GPGGA,130500,2422.1080,N,08130.7479,W,1,9,1.5,16,M,,M,,*55
06/05/2014	13:05:00.649	$GPGGA,130501,2422.1104,N,08130.7482,W,1,9,1.5,16,M,,M,,*5D
06/05/2014	13:05:01.634	$GPGGA,130502,2422.1127,N,08130.7483,W,1,9,1.5,16,M,,M,,*5E
06/05/2014	13:05:02.650	$GPGGA,130503,2422.1152,N,08130.7486,W,1,9,1.5,16,M,,M,,*58
06/05/2014	13:05:03.645	$GPGGA,130504,2422.1176,N,08130.7489,W,1,9,1.5,16,M,,M,,*56
06/05/2014	13:05:04.661	$GPGGA,130505,2422.1199,N,08130.7491,W,1,9,1.5,16,M,,M,,*5F
06/05/2014	13:05:05.747	$GPGGA,130506,2422.1225,N,08130.7493,W,1,9,1.5,16,M,,M,,*5A
06/05/2014	13:05:06.662	$GPGGA,130507,2422.1249,N,08130.7496,W,1,9,1.5,16,M,,M,,*54
06/05/2014	13:05:07.758	$GPGGA,130508,2422.1272,N,08130.7501,W,1,9,1.5,16,M,,M,,*5C
06/05/2014	13:05:08.663	$GPGGA,130509,2422.1297,N,08130.7504,W,1,9,1.5,16,M,,M,,*53
06/05/2014	13:05:09.759	$GPGGA,130510,2422.1322,N,08130.7505,W,1,9,1.5,16,M,,M,,*55
06/05/2014	13:05:10.795	$GPGGA,130511,2422.1346,N,08130.7509,W,1,9,1.5,16,M,,M,,*5A
06/05/2014	13:05:11.780	$GPGGA,130512,2422.1369,N,08130.7514,W,1,9,1.5,16,M,,M,,*58
06/05/2014	13:05:12.775	$GPGGA,130513,2422.1394,N,08130.7518,W,1,9,1.5,16,M,,M,,*57
06/05/2014	13:05:13.780	$GPGGA,130514,2422.1418,N,08130.7519,W,1,9,1.5,16,M,,M,,*52
06/05/2014	13:05:14.816	$GPGGA,130515,2422.1441,N,08130.7525,W,1,9,1.5,16,M,,M,,*50
06/05/2014	13:05:15.801	$GPGGA,130516,2422.1465,N,08130.7529,W,1,9,1.5,16,M,,M,,*59
06/05/2014	13:05:16.827	$GPGGA,130517,2422.1488,N,08130.7533,W,1,9,1.5,16,M,,M,,*50
06/05/2014	13:05:17.792	$GPGGA,130518,2422.1513,N,08130.7537,W,1,9,1.5,16,M,,M,,*58
06/05/2014	13:05:18.807	$GPGGA,130519,2422.1536,N,08130.7543,W,1,9,1.5,16,M,,M,,*5D
06/05/2014	13:05:19.813	$GPGGA,130520,2422.1561,N,08130.7548,W,1,9,1.5,16,M,,M,,*5E
06/05/2014	13:05:20.828	$GPGGA,130521,2422.1583,N,08130.7555,W,1,9,1.5,16,M,,M,,*5F
06/05/2014	13:05:21.794	$GPGGA,130522,2422.1608,N,08130.7561,W,1,9,1.5,16,M,,M,,*5B
06/05/2014	13:05:22.819	$GPGGA,130523,2422.1630,N,08130.7566,W,1,9,1.5,16,M,,M,,*56
06/05/2014	13:05:23.836	$GPGGA,130524,2422.1655,N,08130.7572,W,1,9,1.5,16,M,,M,,*57
06/05/2014	13:05:24.830	$GPGGA,130525,2422.1678,N,08130.7580,W,1,9,1.5,16,M,,M,,*54
06/05/2014	13:05:25.806	$GPGGA,130526,2422.1702,N,08130.7587,W,1,9,1.5,16,M,,M,,*5C
06/05/2014	13:05:26.841	$GPGGA,130527,2422.1723,N,08130.7594,W,1,9,1.5,16,M,,M,,*5C
06/05/2014	13:05:27.827	$GPGGA,130528,2422.1747,N,08130.7601,W,1,9,1.5,16,M,,M,,*5E
06/05/2014	13:05:28.852	$GPGGA,130529,2422.1770,N,08130.7608,W,1,9,1.5,16,M,,M,,*52
06/05/2014	13:05:29.838	$GPGGA,130530,2422.1792,N,08130.7613,W,1,9,1.5,15,M,,M,,*5F
06/05/2014	13:05:30.873	$GPGGA,130531,2422.1816,N,08130.7620,W,1,9,1.5,15,M,,M,,*5D
06/05/2014	13:05:31.848	$GPGGA,130532,2422.1839,N,08130.7628,W,1,9,1.5,15,M,,M,,*5B
06/05/2014	13:05:32.833	$GPGGA,130533,2422.1861,N,08130.7637,W,1,8,1.8,15,M,,M,,*55
06/05/2014	13:05:33.859	$GPGGA,130534,2422.1885,N,08130.7642,W,1,8,1.5,15,M,,M,,*57
06/05/2014	13:05:34.555	$GPGGA,130535,2422.1908,N,08130.7648,W,1,9,1.5,15,M,,M,,*59
06/05/2014	13:05:35.521	$GPGGA,130536,2422.1929,N,08130.7657,W,1,9,1.5,15,M,,M,,*57
06/05/2014	13:05:36.566	$GPGGA,130537,2422.1953,N,08130.7664,W,1,9,1.5,15,M,,M,,*5B
06/05/2014	13:05:37.522	$GPGGA,130538,2422.1976,N,08130.7670,W,1,9,1.5,15,M,,M,,*56
06/05/2014	13:05:38.527	$GPGGA,130539,2422.2000,N,08130.7677,W,1,9,1.5,15,M,,M,,*5B
06/05/2014	13:05:39.714	$GPGGA,130540,2422.2022,N,08130.7686,W,1,9,1.5,15,M,,M,,*5B
06/05/2014	13:05:40.558	$GPGGA,130541,2422.2047,N,08130.7692,W,1,9,1.5,15,M,,M,,*5C
06/05/2014	13:05:41.554	$GPGGA,130542,2422.2070,N,08130.7699,W,1,9,1.5,15,M,,M,,*50
06/05/2014	13:05:42.579	$GPGGA,130543,2422.2092,N,08130.7707,W,1,9,1.5,15,M,,M,,*5B
06/05/2014	13:05:43.575	$GPGGA,130544,2422.2114,N,08130.7714,W,1,9,1.5,15,M,,M,,*51
06/05/2014	13:05:44.578	$GPGGA,130545,2422.2139,N,08130.7720,W,1,9,1.5,15,M,,M,,*58
06/05/2014	13:05:45.647	$GPGGA,130546,2422.2160,N,08130.7727,W,1,9,1.5,15,M,,M,,*50
06/05/2014	13:05:46.551	$GPGGA,130547,2422.2184,N,08130.7735,W,1,9,1.5,15,M,,M,,*58
06/05/2014	13:05:47.737	$GPGGA,130548,2422.2207,N,08130.7742,W,1,9,1.5,15,M,,M,,*5F
06/05/2014	13:05:48.712	$GPGGA,130549,2422.2232,N,08130.7746,W,1,9,1.5,15,M,,M,,*5C
06/05/2014	13:05:49.576	$GPGGA,130550,2422.2255,N,08130.7753,W,1,9,1.5,15,M,,M,,*51
06/05/2014	13:05:50.582	$GPGGA,130551,2422.2279,N,08130.7760,W,1,9,1.5,15,M,,M,,*5E
06/05/2014	13:05:51.577	$GPGGA,130552,2422.2303,N,08130.7765,W,1,9,1.5,15,M,,M,,*54
06/05/2014	13:05:52.583	$GPGGA,130553,2422.2327,N,08130.7768,W,1,9,1.5,15,M,,M,,*5E
06/05/2014	13:05:53.679	$GPGGA,130554,2422.2350,N,08130.7775,W,1,9,1.5,15,M,,M,,*55
06/05/2014	13:05:54.735	$GPGGA,130555,2422.2373,N,08130.7780,W,1,9,1.5,15,M,,M,,*5F
06/05/2014	13:05:55.599	$GPGGA,130556,2422.2397,N,08130.7785,W,1,9,1.5,16,M,,M,,*50
06/05/2014	13:05:56.736	$GPGGA,130557,2422.2421,N,08130.7789,W,1,9,1.5,16,M,,M,,*57
06/05/2014	13:05:57.761	$GPGGA,130558,2422.2445,N,08130.7794,W,1,9,1.5,16,M,,M,,*56
06/05/2014	13:05:58.777	$GPGGA,130559,2422.2468,N,08130.7800,W,1,9,1.5,16,M,,M,,*5A
06/05/2014	13:05:59.792	$GPGGA,130600,2422.2493,N,08130.7803,W,1,9,1.5,16,M,,M,,*52
06/05/2014	13:06:00.707	$GPGGA,130601,2422.2518,N,08130.7807,W,1,9,1.5,16,M,,M,,*55
06/05/2014	13:06:01.703	$GPGGA,130602,2422.2542,N,08130.7811,W,1,9,1.5,16,M,,M,,*5E
06/05/2014	13:06:02.749	$GPGGA,130603,2422.2567,N,08130.7814,W,1,9,1.5,16,M,,M,,*5D
06/05/2014	13:06:03.794	$GPGGA,130604,2422.2590,N,08130.7819,W,1,9,1.5,16,M,,M,,*5F
06/05/2014	13:06:04.709	$GPGGA,130605,2422.2615,N,08130.7825,W,1,9,1.5,16,M,,M,,*5F
06/05/2014	13:06:05.806	$GPGGA,130606,2422.2640,N,08130.7826,W,1,9,1.5,16,M,,M,,*5F
06/05/2014	13:06:06.759	$GPGGA,130607,2422.2663,N,08130.7832,W,1,9,1.5,16,M,,M,,*5A
06/05/2014	13:06:07.735	$GPGGA,130608,2422.2686,N,08130.7837,W,1,9,1.5,16,M,,M,,*5B
06/05/2014	13:06:08.770	$GPGGA,130609,2422.2710,N,08130.7840,W,1,9,1.5,16,M,,M,,*54
06/05/2014	13:06:09.808	$GPGGA,130610,2422.2735,N,08130.7844,W,1,9,1.5,16,M,,M,,*5F
06/05/2014	13:06:10.788	$GPGGA,130611,2422.2757,N,08130.7850,W,1,9,1.5,16,M,,M,,*5F
06/05/2014	13:06:11.802	$GPGGA,130612,2422.2782,N,08130.7854,W,1,9,1.5,16,M,,M,,*50
06/05/2014	13:06:12.785	$GPGGA,130613,2422.2807,N,08130.7858,W,1,9,1.5,16,M,,M,,*5F
06/05/2014	13:06:13.739	$GPGGA,130614,2422.2829,N,08130.7863,W,1,9,1.5,16,M,,M,,*5C
06/05/2014	13:06:14.732	$GPGGA,130615,2422.2854,N,08130.7868,W,1,9,1.5,16,M,,M,,*5C
06/05/2014	13:06:15.826	$GPGGA,130616,2422.2879,N,08130.7872,W,1,9,1.5,16,M,,M,,*5B
06/05/2014	13:06:16.740	$GPGGA,130617,2422.2903,N,08130.7876,W,1,9,1.5,16,M,,M,,*52
06/05/2014	13:06:17.803	$GPGGA,130618,2422.2925,N,08130.7883,W,1,9,1.5,16,M,,M,,*53
06/05/2014	13:06:18.827	$GPGGA,130619,2422.2950,N,08130.7887,W,1,9,1.5,16,M,,M,,*54
06/05/2014	13:06:19.811	$GPGGA,130620,2422.2973,N,08130.7890,W,1,9,1.5,16,M,,M,,*59
06/05/2014	13:06:20.834	$GPGGA,130621,2422.2997,N,08130.7897,W,1,9,1.5,16,M,,M,,*55
06/05/2014	13:06:21.808	$GPGGA,130622,2422.3020,N,08130.7901,W,1,9,1.5,16,M,,M,,*5C
06/05/2014	13:06:22.781	$GPGGA,130623,2422.3044,N,08130.7906,W,1,9,1.5,16,M,,M,,*58
06/05/2014	13:06:23.824	$GPGGA,130624,2422.3067,N,08130.7912,W,1,9,1.5,16,M,,M,,*5B
06/05/2014	13:06:24.787	$GPGGA,130625,2422.3092,N,08130.7917,W,1,9,1.5,16,M,,M,,*55
06/05/2014	13:06:25.751	$GPGGA,130626,2422.3116,N,08130.7921,W,1,9,1.5,16,M,,M,,*5E
06/05/2014	13:06:26.785	$GPGGA,130627,2422.3139,N,08130.7926,W,1,9,1.5,16,M,,M,,*55
06/05/2014	13:06:27.828	$GPGGA,130628,2422.3164,N,08130.7933,W,1,9,1.5,16,M,,M,,*56
06/05/2014	13:06:28.792	$GPGGA,130629,2422.3186,N,08130.7938,W,1,9,1.5,16,M,,M,,*50
06/05/2014	13:06:29.826	$GPGGA,130630,2422.3211,N,08130.7944,W,1,9,1.5,16,M,,M,,*5E
06/05/2014	13:06:30.899	$GPGGA,130631,2422.3236,N,08130.7948,W,1,9,1.5,16,M,,M,,*56
06/05/2014	13:06:31.833	$GPGGA,130632,2422.3258,N,08130.7955,W,1,9,1.7,16,M,,M,,*53
06/05/2014	13:06:32.766	$GPGGA,130633,2422.3280,N,08130.7962,W,1,8,1.7,16,M,,M,,*52
06/05/2014	13:06:33.840	$GPGGA,130634,2422.3306,N,08130.7966,W,1,8,1.5,17,M,,M,,*5D
06/05/2014	13:06:34.594	$GPGGA,130635,2422.3331,N,08130.7970,W,1,9,1.5,17,M,,M,,*5E
06/05/2014	13:06:35.568	$GPGGA,130636,2422.3355,N,08130.7977,W,1,9,1.5,17,M,,M,,*58
06/05/2014	13:06:36.591	$GPGGA,130637,2422.3377,N,08130.7984,W,1,9,1.5,17,M,,M,,*55
06/05/2014	13:06:37.485	$GPGGA,130638,2422.3400,N,08130.7991,W,1,9,1.5,17,M,,M,,*59
06/05/2014	13:06:38.599	$GPGGA,130639,2422.3425,N,08130.7995,W,1,9,1.5,17,M,,M,,*5B
06/05/2014	13:06:39.632	$GPGGA,130640,2422.3449,N,08130.7999,W,1,9,1.5,17,M,,M,,*53
06/05/2014	13:06:40.543	$GPGGA,130641,2422.3472,N,08130.8007,W,1,9,1.7,17,M,,M,,*59
06/05/2014	13:06:41.608	$GPGGA,130642,2422.3493,N,08130.8014,W,1,9,1.5,17,M,,M,,*55
06/05/2014	13:06:42.632	$GPGGA,130643,2422.3519,N,08130.8018,W,1,9,1.5,17,M,,M,,*5B
06/05/2014	13:06:43.575	$GPGGA,130644,2422.3543,N,08130.8024,W,1,9,1.5,17,M,,M,,*5C
06/05/2014	13:06:44.619	$GPGGA,130645,2422.3565,N,08130.8029,W,1,9,1.5,17,M,,M,,*54
06/05/2014	13:06:45.613	$GPGGA,130646,2422.3587,N,08130.8036,W,1,9,1.7,17,M,,M,,*57
06/05/2014	13:06:46.606	$GPGGA,130647,2422.3611,N,08130.8042,W,1,8,1.5,17,M,,M,,*5A
06/05/2014	13:06:47.620	$GPGGA,130648,2422.3634,N,08130.8049,W,1,8,1.7,17,M,,M,,*5B
06/05/2014	13:06:48.634	$GPGGA,130649,2422.3658,N,08130.8056,W,1,8,1.7,17,M,,M,,*5E
06/05/2014	13:06:49.617	$GPGGA,130650,2422.3681,N,08130.8063,W,1,8,1.5,17,M,,M,,*56
06/05/2014	13:06:50.641	$GPGGA,130651,2422.3706,N,08130.8069,W,1,9,1.7,17,M,,M,,*50
06/05/2014	13:06:51.644	$GPGGA,130652,2422.3730,N,08130.8074,W,1,9,1.7,17,M,,M,,*5A
06/05/2014	13:06:52.658	$GPGGA,130653,2422.3753,N,08130.8082,W,1,8,1.7,17,M,,M,,*56
06/05/2014	13:06:53.631	$GPGGA,130654,2422.3775,N,08130.8089,W,1,8,1.7,17,M,,M,,*5E
06/05/2014	13:06:54.635	$GPGGA,130655,2422.3800,N,08130.8093,W,1,8,1.5,17,M,,M,,*5B
06/05/2014	13:06:55.650	$GPGGA,130656,2422.3822,N,08130.8100,W,1,8,1.7,17,M,,M,,*51
06/05/2014	13:06:56.642	$GPGGA,130657,2422.3844,N,08130.8107,W,1,8,1.5,17,M,,M,,*55
06/05/2014	13:06:57.646	$GPGGA,130658,2422.3844,N,08130.8107,W,1,8,1.5,17,M,,M,,*5A
06/05/2014	13:06:58.658	$GPGGA,130659,2422.3894,N,08130.8118,W,1,8,1.7,17,M,,M,,*5A
06/05/2014	13:06:59.662	$GPGGA,130700,2422.3918,N,08130.8123,W,1,8,1.5,17,M,,M,,*58
06/05/2014	13:07:00.656	$GPGGA,130701,2422.3944,N,08130.8125,W,1,9,1.5,17,M,,M,,*57
06/05/2014	13:07:01.629	$GPGGA,130702,2422.3970,N,08130.8129,W,1,9,1.5,17,M,,M,,*5F
06/05/2014	13:07:02.653	$GPGGA,130703,2422.3992,N,08130.8136,W,1,9,1.7,17,M,,M,,*5E
06/05/2014	13:07:03.656	$GPGGA,130704,2422.4017,N,08130.8141,W,1,9,1.5,17,M,,M,,*58
06/05/2014	13:07:04.640	$GPGGA,130705,2422.4042,N,08130.8144,W,1,9,1.5,17,M,,M,,*5C
06/05/2014	13:07:05.644	$GPGGA,130706,2422.4066,N,08130.8148,W,1,9,1.5,17,M,,M,,*55
06/05/2014	13:07:06.677	$GPGGA,130707,2422.4089,N,08130.8154,W,1,9,1.5,17,M,,M,,*58
06/05/2014	13:07:07.671	$GPGGA,130708,2422.4113,N,08130.8158,W,1,9,1.5,17,M,,M,,*59
06/05/2014	13:07:08.674	$GPGGA,130709,2422.4137,N,08130.8163,W,1,9,1.5,17,M,,M,,*56
06/05/2014	13:07:09.648	$GPGGA,130710,2422.4137,N,08130.8163,W,1,9,1.5,17,M,,M,,*5E
06/05/2014	13:07:10.672	$GPGGA,130711,2422.4183,N,08130.8176,W,1,9,1.5,17,M,,M,,*54
06/05/2014	13:07:11.665	$GPGGA,130712,2422.4207,N,08130.8179,W,1,9,1.5,18,M,,M,,*58
06/05/2014	13:07:12.659	$GPGGA,130713,2422.4230,N,08130.8184,W,1,9,1.5,18,M,,M,,*5F
06/05/2014	13:07:13.693	$GPGGA,130714,2422.4252,N,08130.8190,W,1,9,1.5,18,M,,M,,*59
06/05/2014	13:07:14.676	$GPGGA,130715,2422.4277,N,08130.8194,W,1,9,1.8,18,M,,M,,*56
06/05/2014	13:07:15.669	$GPGGA,130716,2422.4277,N,08130.8194,W,1,9,1.8,18,M,,M,,*55
06/05/2014	13:07:16.672	$GPGGA,130717,2422.4324,N,08130.8204,W,1,9,1.5,18,M,,M,,*54
06/05/2014	13:07:17.666	$GPGGA,130718,2422.4349,N,08130.8209,W,1,9,1.5,18,M,,M,,*5D
06/05/2014	13:07:18.750	$GPGGA,130719,2422.4372,N,08130.8215,W,1,9,1.5,18,M,,M,,*59
06/05/2014	13:07:19.703	$GPGGA,130720,2422.4397,N,08130.8217,W,1,9,1.5,18,M,,M,,*5A
06/05/2014	13:07:20.677	$GPGGA,130721,2422.4418,N,08130.8226,W,1,9,1.5,18,M,,M,,*59
06/05/2014	13:07:21.700	$GPGGA,130722,2422.4442,N,08130.8230,W,1,9,1.5,18,M,,M,,*52
06/05/2014	13:07:22.654	$GPGGA,130723,2422.4468,N,08130.8233,W,1,9,1.5,18,M,,M,,*58
06/05/2014	13:07:23.677	$GPGGA,130724,2422.4468,N,08130.8233,W,1,9,1.5,18,M,,M,,*5F
06/05/2014	13:07:24.681	$GPGGA,130725,2422.4512,N,08130.8248,W,1,8,1.8,18,M,,M,,*52
06/05/2014	13:07:25.704	$GPGGA,130726,2422.4512,N,08130.8248,W,1,8,1.5,18,M,,M,,*5C
06/05/2014	13:07:26.668	$GPGGA,130727,2422.4562,N,08130.8256,W,1,9,1.5,18,M,,M,,*54
06/05/2014	13:07:27.692	$GPGGA,130728,2422.4585,N,08130.8262,W,1,9,1.5,18,M,,M,,*55
06/05/2014	13:07:28.675	$GPGGA,130729,2422.4609,N,08130.8267,W,1,9,1.5,18,M,,M,,*56
06/05/2014	13:07:29.769	$GPGGA,130730,2422.4632,N,08130.8271,W,1,9,1.5,18,M,,M,,*51
06/05/2014	13:07:30.673	$GPGGA,130731,2422.4657,N,08130.8275,W,1,9,1.5,18,M,,M,,*57
06/05/2014	13:07:31.786	$GPGGA,130732,2422.4678,N,08130.8280,W,1,9,1.8,18,M,,M,,*5E
06/05/2014	13:07:32.790	$GPGGA,130733,2422.4703,N,08130.8285,W,1,9,1.5,18,M,,M,,*5A
06/05/2014	13:07:33.772	$GPGGA,130734,2422.4728,N,08130.8291,W,1,9,1.5,19,M,,M,,*50
06/05/2014	13:07:34.591	$GPGGA,130735,2422.4751,N,08130.8295,W,1,9,1.5,19,M,,M,,*5B
06/05/2014	13:07:35.585	$GPGGA,130736,2422.4772,N,08130.8302,W,1,9,1.5,19,M,,M,,*56
06/05/2014	13:07:36.558	$GPGGA,130737,2422.4798,N,08130.8306,W,1,9,1.5,19,M,,M,,*57
06/05/2014	13:07:37.562	$GPGGA,130738,2422.4822,N,08130.8310,W,1,9,1.5,19,M,,M,,*51
06/05/2014	13:07:38.585	$GPGGA,130739,2422.4845,N,08130.8317,W,1,9,1.5,19,M,,M,,*56
06/05/2014	13:07:39.589	$GPGGA,130740,2422.4867,N,08130.8324,W,1,9,1.5,19,M,,M,,*58
06/05/2014	13:07:40.613	$GPGGA,130741,2422.4891,N,08130.8328,W,1,9,1.5,19,M,,M,,*5C
06/05/2014	13:07:41.566	$GPGGA,130742,2422.4915,N,08130.8332,W,1,9,1.5,19,M,,M,,*59
06/05/2014	13:07:42.590	$GPGGA,130743,2422.4938,N,08130.8338,W,1,9,1.5,19,M,,M,,*5D
06/05/2014	13:07:43.593	$GPGGA,130744,2422.4960,N,08130.8345,W,1,9,1.5,19,M,,M,,*5D
06/05/2014	13:07:44.607	$GPGGA,130745,2422.4985,N,08130.8349,W,1,9,1.5,19,M,,M,,*5B
06/05/2014	13:07:45.591	$GPGGA,130746,2422.5009,N,08130.8354,W,1,9,1.5,19,M,,M,,*58
06/05/2014	13:07:46.574	$GPGGA,130747,2422.5033,N,08130.8360,W,1,9,1.5,19,M,,M,,*57
06/05/2014	13:07:47.598	$GPGGA,130748,2422.5054,N,08130.8368,W,1,9,1.5,19,M,,M,,*51
06/05/2014	13:07:48.601	$GPGGA,130749,2422.5079,N,08130.8374,W,1,8,1.7,19,M,,M,,*51
06/05/2014	13:07:49.595	$GPGGA,130750,2422.5104,N,08130.8378,W,1,8,1.5,19,M,,M,,*5C
06/05/2014	13:07:50.590	$GPGGA,130751,2422.5126,N,08130.8385,W,1,8,1.7,19,M,,M,,*5D
06/05/2014	13:07:51.611	$GPGGA,130752,2422.5148,N,08130.8392,W,1,8,1.5,19,M,,M,,*52
06/05/2014	13:07:52.625	$GPGGA,130753,2422.5173,N,08130.8396,W,1,9,1.5,19,M,,M,,*5E
06/05/2014	13:07:53.588	$GPGGA,130754,2422.5197,N,08130.8401,W,1,9,1.5,19,M,,M,,*5A
06/05/2014	13:07:54.602	$GPGGA,130755,2422.5220,N,08130.8407,W,1,9,1.5,19,M,,M,,*52
06/05/2014	13:07:55.616	$GPGGA,130756,2422.5245,N,08130.8412,W,1,9,1.5,19,M,,M,,*56
06/05/2014	13:07:56.589	$GPGGA,130757,2422.5268,N,08130.8418,W,1,9,1.5,19,M,,M,,*52
06/05/2014	13:07:57.615	$GPGGA,130758,2422.5292,N,08130.8423,W,1,9,1.5,19,M,,M,,*50
06/05/2014	13:07:58.661	$GPGGA,130759,2422.5314,N,08130.8430,W,1,9,1.5,19,M,,M,,*5C
06/05/2014	13:07:59.676	$GPGGA,130800,2422.5339,N,08130.8436,W,1,9,1.5,19,M,,M,,*56
06/05/2014	13:08:00.681	$GPGGA,130801,2422.5364,N,08130.8439,W,1,9,1.5,19,M,,M,,*50
06/05/2014	13:08:01.686	$GPGGA,130802,2422.5386,N,08130.8448,W,1,9,1.5,19,M,,M,,*59
06/05/2014	13:08:02.711	$GPGGA,130803,2422.5408,N,08130.8455,W,1,8,1.7,19,M,,M,,*56
06/05/2014	13:08:03.757	$GPGGA,130804,2422.5433,N,08130.8461,W,1,8,1.7,19,M,,M,,*5E
06/05/2014	13:08:04.762	$GPGGA,130805,2422.5458,N,08130.8464,W,1,9,1.5,19,M,,M,,*54
06/05/2014	13:08:05.890	$GPGGA,130806,2422.5481,N,08130.8469,W,1,9,1.5,19,M,,M,,*5E
06/05/2014	13:08:06.813	$GPGGA,130807,2422.5505,N,08130.8475,W,1,9,1.5,19,M,,M,,*5F
06/05/2014	13:08:07.961	$GPGGA,130808,2422.5528,N,08130.8480,W,1,9,1.5,19,M,,M,,*55
06/05/2014	13:08:08.873	$GPGGA,130809,2422.5552,N,08130.8486,W,1,9,1.5,19,M,,M,,*5F
06/05/2014	13:08:11.417	$GPGGA,130810,2422.5575,N,08130.8491,W,1,9,1.5,19,M,,M,,*54
06/05/2014	13:08:11.436	$GPGGA,130811,2422.5600,N,08130.8497,W,1,8,1.7,19,M,,M,,*51
06/05/2014	13:08:11.958	$GPGGA,130812,2422.5625,N,08130.8501,W,1,8,1.5,19,M,,M,,*59
06/05/2014	13:08:12.964	$GPGGA,130813,2422.5649,N,08130.8508,W,1,9,1.5,19,M,,M,,*5A
06/05/2014	13:08:13.969	$GPGGA,130814,2422.5672,N,08130.8512,W,1,9,1.5,19,M,,M,,*5E
06/05/2014	13:08:14.984	$GPGGA,130815,2422.5697,N,08130.8517,W,1,9,1.5,19,M,,M,,*51
06/05/2014	13:08:16.040	$GPGGA,130816,2422.5719,N,08130.8524,W,1,9,1.5,19,M,,M,,*55
06/05/2014	13:08:17.045	$GPGGA,130817,2422.5744,N,08130.8527,W,1,8,1.7,19,M,,M,,*5C
06/05/2014	13:08:18.173	$GPGGA,130818,2422.5770,N,08130.8530,W,1,8,1.5,19,M,,M,,*50
06/05/2014	13:08:19.086	$GPGGA,130819,2422.5793,N,08130.8535,W,1,9,1.5,19,M,,M,,*58
06/05/2014	13:08:20.132	$GPGGA,130820,2422.5817,N,08130.8537,W,1,9,1.5,19,M,,M,,*53
06/05/2014	13:08:21.239	$GPGGA,130821,2422.5842,N,08130.8542,W,1,9,1.5,19,M,,M,,*50
06/05/2014	13:08:22.254	$GPGGA,130822,2422.5867,N,08130.8548,W,1,9,1.5,19,M,,M,,*5E
06/05/2014	13:08:23.300	$GPGGA,130823,2422.5889,N,08130.8555,W,1,9,1.5,19,M,,M,,*53
06/05/2014	13:08:24.315	$GPGGA,130824,2422.5914,N,08130.8559,W,1,9,1.5,19,M,,M,,*5D
06/05/2014	13:08:25.320	$GPGGA,130825,2422.5939,N,08130.8563,W,1,9,1.5,19,M,,M,,*5A
06/05/2014	13:08:26.366	$GPGGA,130826,2422.5961,N,08130.8569,W,1,9,1.5,19,M,,M,,*5E
06/05/2014	13:08:27.380	$GPGGA,130827,2422.5985,N,08130.8574,W,1,9,1.5,19,M,,M,,*59
06/05/2014	13:08:28.416	$GPGGA,130828,2422.6008,N,08130.8580,W,1,9,1.5,19,M,,M,,*52
06/05/2014	13:08:29.441	$GPGGA,130829,2422.6033,N,08130.8584,W,1,9,1.5,19,M,,M,,*5F
06/05/2014	13:08:30.436	$GPGGA,130830,2422.6055,N,08130.8591,W,1,9,1.5,19,M,,M,,*53
06/05/2014	13:08:31.492	$GPGGA,130831,2422.6079,N,08130.8598,W,1,9,1.5,19,M,,M,,*55
06/05/2014	13:08:32.497	$GPGGA,130832,2422.6104,N,08130.8602,W,1,9,1.5,19,M,,M,,*5D
06/05/2014	13:08:33.532	$GPGGA,130833,2422.6127,N,08130.8609,W,1,9,1.5,19,M,,M,,*56
06/05/2014	13:08:34.537	$GPGGA,130834,2422.6149,N,08130.8614,W,1,9,1.5,19,M,,M,,*55
06/05/2014	13:08:34.573	$GPGGA,130835,2422.6174,N,08130.8618,W,1,9,1.5,19,M,,M,,*56
06/05/2014	13:08:35.568	$GPGGA,130836,2422.6198,N,08130.8624,W,1,9,1.5,19,M,,M,,*58
06/05/2014	13:08:36.573	$GPGGA,130837,2422.6220,N,08130.8631,W,1,9,1.5,19,M,,M,,*5D
06/05/2014	13:08:37.609	$GPGGA,130838,2422.6243,N,08130.8634,W,1,9,1.5,19,M,,M,,*52
06/05/2014	13:08:38.624	$GPGGA,130839,2422.6268,N,08130.8639,W,1,9,1.5,19,M,,M,,*57
06/05/2014	13:08:39.670	$GPGGA,130840,2422.6292,N,08130.8645,W,1,9,1.5,19,M,,M,,*57
06/05/2014	13:08:40.675	$GPGGA,130841,2422.6315,N,08130.8652,W,1,9,1.5,19,M,,M,,*5E
06/05/2014	13:08:41.710	$GPGGA,130842,2422.6340,N,08130.8656,W,1,9,1.5,19,M,,M,,*59
06/05/2014	13:08:42.725	$GPGGA,130843,2422.6365,N,08130.8663,W,1,9,1.5,19,M,,M,,*59
06/05/2014	13:08:43.760	$GPGGA,130844,2422.6387,N,08130.8668,W,1,9,1.5,19,M,,M,,*59
06/05/2014	13:08:44.775	$GPGGA,130845,2422.6411,N,08130.8674,W,1,9,1.5,19,M,,M,,*5D
06/05/2014	13:08:45.799	$GPGGA,130846,2422.6434,N,08130.8678,W,1,9,1.5,19,M,,M,,*55
06/05/2014	13:08:46.836	$GPGGA,130847,2422.6456,N,08130.8683,W,1,9,1.5,19,M,,M,,*54
06/05/2014	13:08:47.862	$GPGGA,130848,2422.6481,N,08130.8689,W,1,9,1.5,19,M,,M,,*5B
06/05/2014	13:08:48.979	$GPGGA,130849,2422.6505,N,08130.8693,W,1,9,1.5,19,M,,M,,*5C
06/05/2014	13:08:49.882	$GPGGA,130850,2422.6528,N,08130.8699,W,1,9,1.5,19,M,,M,,*51
06/05/2014	13:08:50.938	$GPGGA,130851,2422.6552,N,08130.8704,W,1,9,1.5,19,M,,M,,*58
06/05/2014	13:08:51.953	$GPGGA,130852,2422.6575,N,08130.8710,W,1,9,1.5,19,M,,M,,*5B
06/05/2014	13:08:52.948	$GPGGA,130853,2422.6599,N,08130.8715,W,1,9,1.5,19,M,,M,,*5D
06/05/2014	13:08:53.994	$GPGGA,130854,2422.6622,N,08130.8722,W,1,9,1.5,19,M,,M,,*5D
06/05/2014	13:08:54.998	$GPGGA,130855,2422.6646,N,08130.8728,W,1,9,1.5,19,M,,M,,*54
06/05/2014	13:08:56.057	$GPGGA,130856,2422.6669,N,08130.8732,W,1,9,1.7,19,M,,M,,*53
06/05/2014	13:08:57.143	$GPGGA,130857,2422.6693,N,08130.8739,W,1,9,1.5,18,M,,M,,*5F
06/05/2014	13:08:58.064	$GPGGA,130858,2422.6716,N,08130.8744,W,1,9,1.5,18,M,,M,,*56
06/05/2014	13:08:59.192	$GPGGA,130859,2422.6740,N,08130.8750,W,1,9,1.5,18,M,,M,,*51
06/05/2014	13:09:00.158	$GPGGA,130900,2422.6763,N,08130.8754,W,1,9,1.5,18,M,,M,,*59
06/05/2014	13:09:01.131	$GPGGA,130901,2422.6787,N,08130.8759,W,1,9,1.5,18,M,,M,,*5F
06/05/2014	13:09:02.175	$GPGGA,130902,2422.6810,N,08130.8765,W,1,9,1.5,18,M,,M,,*52
06/05/2014	13:09:03.191	$GPGGA,130903,2422.6832,N,08130.8772,W,1,9,1.5,18,M,,M,,*55
06/05/2014	13:09:04.349	$GPGGA,130904,2422.6856,N,08130.8777,W,1,9,1.5,18,M,,M,,*55
06/05/2014	13:09:05.333	$GPGGA,130905,2422.6879,N,08130.8783,W,1,8,1.6,18,M,,M,,*50
06/05/2014	13:09:06.359	$GPGGA,130906,2422.6902,N,08130.8790,W,1,8,1.5,18,M,,M,,*5F
06/05/2014	13:09:07.394	$GPGGA,130907,2422.6926,N,08130.8795,W,1,9,1.5,18,M,,M,,*5C
06/05/2014	13:09:08.410	$GPGGA,130908,2422.6950,N,08130.8801,W,1,9,1.5,18,M,,M,,*50
06/05/2014	13:09:09.456	$GPGGA,130909,2422.6973,N,08130.8806,W,1,9,1.5,18,M,,M,,*57
06/05/2014	13:09:10.460	$GPGGA,130910,2422.6997,N,08130.8812,W,1,9,1.5,18,M,,M,,*50
06/05/2014	13:09:11.537	$GPGGA,130911,2422.7020,N,08130.8818,W,1,9,1.5,18,M,,M,,*5F
06/05/2014	13:09:12.521	$GPGGA,130912,2422.7044,N,08130.8823,W,1,9,1.5,18,M,,M,,*56
06/05/2014	13:09:13.547	$GPGGA,130913,2422.7066,N,08130.8829,W,1,9,1.5,17,M,,M,,*52
06/05/2014	13:09:14.552	$GPGGA,130914,2422.7091,N,08130.8833,W,1,9,1.5,17,M,,M,,*56
06/05/2014	13:09:15.588	$GPGGA,130915,2422.7113,N,08130.8840,W,1,9,1.5,17,M,,M,,*58
06/05/2014	13:09:16.623	$GPGGA,130916,2422.7137,N,08130.8847,W,1,9,1.5,17,M,,M,,*5A
06/05/2014	13:09:17.628	$GPGGA,130917,2422.7161,N,08130.8851,W,1,9,1.5,17,M,,M,,*5F
06/05/2014	13:09:18.645	$GPGGA,130918,2422.7186,N,08130.8856,W,1,9,1.5,17,M,,M,,*5E
06/05/2014	13:09:19.678	$GPGGA,130919,2422.7208,N,08130.8863,W,1,9,1.5,17,M,,M,,*5C
06/05/2014	13:09:20.713	$GPGGA,130920,2422.7233,N,08130.8867,W,1,9,1.5,17,M,,M,,*5A
06/05/2014	13:09:21.739	$GPGGA,130921,2422.7257,N,08130.8873,W,1,9,1.5,17,M,,M,,*5C
06/05/2014	13:09:22.733	$GPGGA,130922,2422.7279,N,08130.8878,W,1,9,1.5,17,M,,M,,*58
06/05/2014	13:09:23.779	$GPGGA,130923,2422.7301,N,08130.8884,W,1,9,1.5,17,M,,M,,*54
06/05/2014	13:09:24.805	$GPGGA,130924,2422.7327,N,08130.8888,W,1,9,1.5,17,M,,M,,*5B
06/05/2014	13:09:25.810	$GPGGA,130925,2422.7350,N,08130.8894,W,1,9,1.5,17,M,,M,,*57
06/05/2014	13:09:26.835	$GPGGA,130926,2422.7372,N,08130.8900,W,1,9,1.5,17,M,,M,,*58
06/05/2014	13:09:27.891	$GPGGA,130927,2422.7397,N,08130.8905,W,1,9,1.5,17,M,,M,,*57
06/05/2014	13:09:28.886	$GPGGA,130928,2422.7421,N,08130.8909,W,1,9,1.5,17,M,,M,,*5E
06/05/2014	13:09:29.891	$GPGGA,130929,2422.7444,N,08130.8916,W,1,9,1.5,17,M,,M,,*52
06/05/2014	13:09:30.926	$GPGGA,130930,2422.7467,N,08130.8921,W,1,9,1.5,17,M,,M,,*5F
06/05/2014	13:09:31.942	$GPGGA,130931,2422.7492,N,08130.8925,W,1,9,1.5,17,M,,M,,*50
06/05/2014	13:09:32.987	$GPGGA,130932,2422.7514,N,08130.8931,W,1,9,1.5,17,M,,M,,*59
06/05/2014	13:09:34.023	$GPGGA,130933,2422.7539,N,08130.8938,W,1,9,1.5,17,M,,M,,*5E
06/05/2014	13:09:35.018	$GPGGA,130934,2422.7561,N,08130.8941,W,1,9,1.5,17,M,,M,,*5A
06/05/2014	13:09:34.523	$GPGGA,130935,2422.7585,N,08130.8947,W,1,9,1.5,17,M,,M,,*57
06/05/2014	13:09:35.566	$GPGGA,130936,2422.7608,N,08130.8952,W,1,9,1.5,17,M,,M,,*56
06/05/2014	13:09:36.560	$GPGGA,130937,2422.7632,N,08130.8957,W,1,9,1.5,17,M,,M,,*5B
06/05/2014	13:09:37.587	$GPGGA,130938,2422.7655,N,08130.8963,W,1,9,1.5,17,M,,M,,*52
06/05/2014	13:09:38.713	$GPGGA,130939,2422.7679,N,08130.8968,W,1,9,1.5,17,M,,M,,*56
06/05/2014	13:09:39.646	$GPGGA,130940,2422.7702,N,08130.8974,W,1,9,1.5,17,M,,M,,*58
06/05/2014	13:09:40.764	$GPGGA,130941,2422.7727,N,08130.8978,W,1,9,1.5,17,M,,M,,*52
06/05/2014	13:09:41.666	$GPGGA,130942,2422.7751,N,08130.8985,W,1,9,1.5,17,M,,M,,*52
06/05/2014	13:09:42.692	$GPGGA,130943,2422.7775,N,08130.8989,W,1,9,1.5,17,M,,M,,*59
06/05/2014	13:09:43.737	$GPGGA,130944,2422.7798,N,08130.8995,W,1,9,1.5,17,M,,M,,*50
06/05/2014	13:09:44.742	$GPGGA,130945,2422.7821,N,08130.9000,W,1,9,1.5,17,M,,M,,*58
06/05/2014	13:09:45.881	$GPGGA,130946,2422.7843,N,08130.9006,W,1,9,1.5,17,M,,M,,*59
06/05/2014	13:09:46.793	$GPGGA,130947,2422.7868,N,08130.9010,W,1,9,1.5,17,M,,M,,*56
06/05/2014	13:09:47.942	$GPGGA,130948,2422.7892,N,08130.9017,W,1,9,1.5,17,M,,M,,*5B
06/05/2014	13:09:48.936	$GPGGA,130949,2422.7915,N,08130.9022,W,1,9,1.5,17,M,,M,,*52
06/05/2014	13:09:49.880	$GPGGA,130950,2422.7937,N,08130.9028,W,1,9,1.5,17,M,,M,,*50
06/05/2014	13:09:50.905	$GPGGA,130951,2422.7962,N,08130.9033,W,1,9,1.5,17,M,,M,,*5B
06/05/2014	13:09:52.023	$GPGGA,130952,2422.7986,N,08130.9039,W,1,9,1.5,17,M,,M,,*58
06/05/2014	13:09:53.028	$GPGGA,130953,2422.8008,N,08130.9046,W,1,9,1.5,17,M,,M,,*51
06/05/2014	13:09:54.052	$GPGGA,130954,2422.8031,N,08130.9050,W,1,9,1.5,17,M,,M,,*5B
06/05/2014	13:09:55.077	$GPGGA,130955,2422.8056,N,08130.9055,W,1,9,1.5,17,M,,M,,*5E
06/05/2014	13:09:56.123	$GPGGA,130956,2422.8080,N,08130.9062,W,1,9,1.5,17,M,,M,,*52
06/05/2014	13:09:57.170	$GPGGA,130957,2422.8103,N,08130.9068,W,1,9,1.5,17,M,,M,,*53
06/05/2014	13:09:58.143	$GPGGA,130958,2422.8125,N,08130.9073,W,1,9,1.5,17,M,,M,,*52
06/05/2014	13:09:59.179	$GPGGA,130959,2422.8150,N,08130.9079,W,1,9,1.5,17,M,,M,,*5B
06/05/2014	13:10:00.225	$GPGGA,131000,2422.8172,N,08130.9086,W,1,9,1.5,17,M,,M,,*5F
06/05/2014	13:10:01.250	$GPGGA,131001,2422.8197,N,08130.9090,W,1,9,1.5,17,M,,M,,*52
06/05/2014	13:10:02.245	$GPGGA,131002,2422.8219,N,08130.9097,W,1,9,1.5,17,M,,M,,*53
06/05/2014	13:10:03.291	$GPGGA,131003,2422.8243,N,08130.9102,W,1,9,1.5,17,M,,M,,*50
06/05/2014	13:10:04.306	$GPGGA,131004,2422.8266,N,08130.9108,W,1,9,1.5,17,M,,M,,*5A
06/05/2014	13:10:05.331	$GPGGA,131005,2422.8290,N,08130.9113,W,1,9,1.5,17,M,,M,,*58
06/05/2014	13:10:06.326	$GPGGA,131006,2422.8311,N,08130.9122,W,1,9,1.8,17,M,,M,,*5C
06/05/2014	13:10:07.351	$GPGGA,131007,2422.8334,N,08130.9129,W,1,9,1.5,17,M,,M,,*5C
06/05/2014	13:10:08.397	$GPGGA,131008,2422.8356,N,08130.9137,W,1,9,1.5,17,M,,M,,*58
06/05/2014	13:10:09.423	$GPGGA,131009,2422.8380,N,08130.9141,W,1,9,1.5,17,M,,M,,*53
06/05/2014	13:10:10.417	$GPGGA,131010,2422.8402,N,08130.9147,W,1,9,1.5,17,M,,M,,*50
06/05/2014	13:10:11.494	$GPGGA,131011,2422.8425,N,08130.9155,W,1,9,1.5,17,M,,M,,*57
06/05/2014	13:10:12.477	$GPGGA,131012,2422.8449,N,08130.9160,W,1,9,1.5,17,M,,M,,*58
06/05/2014	13:10:13.523	$GPGGA,131013,2422.8472,N,08130.9166,W,1,9,1.5,17,M,,M,,*57
06/05/2014	13:10:14.518	$GPGGA,131014,2422.8496,N,08130.9171,W,1,9,1.5,17,M,,M,,*5C
06/05/2014	13:10:15.564	$GPGGA,131015,2422.8519,N,08130.9176,W,1,9,1.5,18,M,,M,,*53
06/05/2014	13:10:16.610	$GPGGA,131016,2422.8541,N,08130.9183,W,1,9,1.5,18,M,,M,,*57
06/05/2014	13:10:17.625	$GPGGA,131017,2422.8565,N,08130.9188,W,1,9,1.5,18,M,,M,,*5B
06/05/2014	13:10:18.630	$GPGGA,131018,2422.8588,N,08130.9194,W,1,9,1.5,18,M,,M,,*5A
06/05/2014	13:10:19.645	$GPGGA,131019,2422.8612,N,08130.9199,W,1,9,1.5,18,M,,M,,*56
06/05/2014	13:10:20.670	$GPGGA,131020,2422.8635,N,08130.9205,W,1,9,1.5,18,M,,M,,*5F
06/05/2014	13:10:21.716	$GPGGA,131021,2422.8660,N,08130.9209,W,1,9,1.5,18,M,,M,,*52
06/05/2014	13:10:22.701	$GPGGA,131022,2422.8682,N,08130.9216,W,1,9,1.5,18,M,,M,,*53
06/05/2014	13:10:23.726	$GPGGA,131023,2422.8706,N,08130.9223,W,1,9,1.5,18,M,,M,,*59
06/05/2014	13:10:24.772	$GPGGA,131024,2422.8730,N,08130.9227,W,1,9,1.5,18,M,,M,,*5F
06/05/2014	13:10:25.777	$GPGGA,131025,2422.8754,N,08130.9232,W,1,9,1.5,18,M,,M,,*58
06/05/2014	13:10:26.823	$GPGGA,131026,2422.8778,N,08130.9238,W,1,9,1.5,18,M,,M,,*5F
06/05/2014	13:10:27.838	$GPGGA,131027,2422.8801,N,08130.9245,W,1,9,1.5,18,M,,M,,*55
06/05/2014	13:10:28.863	$GPGGA,131028,2422.8825,N,08130.9252,W,1,9,1.5,18,M,,M,,*5A
06/05/2014	13:10:29.877	$GPGGA,131029,2422.8850,N,08130.9256,W,1,9,1.5,18,M,,M,,*5D
06/05/2014	13:10:30.903	$GPGGA,131030,2422.8873,N,08130.9263,W,1,9,1.5,18,M,,M,,*52
06/05/2014	13:10:32.051	$GPGGA,131031,2422.8897,N,08130.9270,W,1,9,1.5,18,M,,M,,*5B
06/05/2014	13:10:32.954	$GPGGA,131032,2422.8920,N,08130.9275,W,1,9,1.5,18,M,,M,,*50
06/05/2014	13:10:34.061	$GPGGA,131033,2422.8944,N,08130.9281,W,1,9,1.5,18,M,,M,,*58
06/05/2014	13:10:35.086	$GPGGA,131034,2422.8967,N,08130.9288,W,1,9,1.5,18,M,,M,,*57
06/05/2014	13:10:34.621	$GPGGA,131035,2422.8991,N,08130.9293,W,1,9,1.5,18,M,,M,,*55
06/05/2014	13:10:35.533	$GPGGA,131036,2422.9014,N,08130.9299,W,1,9,1.5,18,M,,M,,*59
06/05/2014	13:10:36.661	$GPGGA,131037,2422.9038,N,08130.9304,W,1,9,1.5,18,M,,M,,*53
06/05/2014	13:10:37.564	$GPGGA,131038,2422.9061,N,08130.9310,W,1,9,1.5,18,M,,M,,*55
06/05/2014	13:10:38.580	$GPGGA,131039,2422.9086,N,08130.9317,W,1,9,1.5,18,M,,M,,*5A
06/05/2014	13:10:39.737	$GPGGA,131040,2422.9110,N,08130.9322,W,1,9,1.5,18,M,,M,,*5C
06/05/2014	13:10:40.742	$GPGGA,131041,2422.9133,N,08130.9328,W,1,9,1.5,18,M,,M,,*56
06/05/2014	13:10:41.747	$GPGGA,131042,2422.9157,N,08130.9333,W,1,9,1.5,18,M,,M,,*5D
06/05/2014	13:10:42.773	$GPGGA,131043,2422.9180,N,08130.9340,W,1,9,1.5,18,M,,M,,*52
06/05/2014	13:10:43.839	$GPGGA,131044,2422.9205,N,08130.9346,W,1,9,1.5,18,M,,M,,*5D
06/05/2014	13:10:44.834	$GPGGA,131045,2422.9227,N,08130.9351,W,1,9,1.5,18,M,,M,,*5A
06/05/2014	13:10:45.858	$GPGGA,131046,2422.9252,N,08130.9357,W,1,9,1.5,18,M,,M,,*5D
06/05/2014	13:10:46.873	$GPGGA,131047,2422.9274,N,08130.9362,W,1,9,1.5,18,M,,M,,*5E
06/05/2014	13:10:47.899	$GPGGA,131048,2422.9299,N,08130.9368,W,1,9,1.5,18,M,,M,,*58
06/05/2014	13:10:48.934	$GPGGA,131049,2422.9323,N,08130.9375,W,1,9,1.5,18,M,,M,,*55
06/05/2014	13:10:49.929	$GPGGA,131050,2422.9346,N,08130.9379,W,1,9,1.5,18,M,,M,,*52
06/05/2014	13:10:50.985	$GPGGA,131051,2422.9371,N,08130.9384,W,1,9,1.5,18,M,,M,,*55
06/05/2014	13:10:52.000	$GPGGA,131052,2422.9395,N,08130.9390,W,1,9,1.8,18,M,,M,,*54
06/05/2014	13:10:53.026	$GPGGA,131053,2422.9418,N,08130.9397,W,1,8,1.5,18,M,,M,,*5C
06/05/2014	13:10:54.020	$GPGGA,131054,2422.9442,N,08130.9402,W,1,8,1.5,18,M,,M,,*5F
06/05/2014	13:10:55.066	$GPGGA,131055,2422.9465,N,08130.9408,W,1,9,1.5,18,M,,M,,*50
06/05/2014	13:10:56.102	$GPGGA,131056,2422.9487,N,08130.9413,W,1,9,1.5,18,M,,M,,*55
06/05/2014	13:10:57.117	$GPGGA,131057,2422.9512,N,08130.9419,W,1,9,1.5,18,M,,M,,*53
06/05/2014	13:10:58.122	$GPGGA,131058,2422.9536,N,08130.9425,W,1,9,1.5,18,M,,M,,*55
06/05/2014	13:10:59.168	$GPGGA,131059,2422.9561,N,08130.9429,W,1,9,1.5,18,M,,M,,*5A
06/05/2014	13:11:00.214	$GPGGA,131100,2422.9585,N,08130.9434,W,1,9,1.8,18,M,,M,,*5C
06/05/2014	13:11:01.218	$GPGGA,131101,2422.9606,N,08130.9441,W,1,8,1.5,18,M,,M,,*5B
06/05/2014	13:11:02.223	$GPGGA,131102,2422.9630,N,08130.9447,W,1,8,1.5,18,M,,M,,*5B
06/05/2014	13:11:03.269	$GPGGA,131103,2422.9652,N,08130.9454,W,1,9,1.5,18,M,,M,,*5D
06/05/2014	13:11:04.274	$GPGGA,131104,2422.9675,N,08130.9460,W,1,9,1.5,18,M,,M,,*58
06/05/2014	13:11:05.309	$GPGGA,131105,2422.9697,N,08130.9466,W,1,9,1.5,18,M,,M,,*53
06/05/2014	13:11:06.334	$GPGGA,131106,2422.9721,N,08130.9472,W,1,9,1.5,18,M,,M,,*59
06/05/2014	13:11:07.339	$GPGGA,131107,2422.9744,N,08130.9476,W,1,9,1.5,18,M,,M,,*5F
06/05/2014	13:11:08.375	$GPGGA,131108,2422.9768,N,08130.9483,W,1,9,1.5,18,M,,M,,*54
06/05/2014	13:11:09.410	$GPGGA,131109,2422.9791,N,08130.9488,W,1,9,1.5,18,M,,M,,*58
06/05/2014	13:11:10.396	$GPGGA,131110,2422.9816,N,08130.9494,W,1,9,1.5,18,M,,M,,*5D
06/05/2014	13:11:11.482	$GPGGA,131111,2422.9840,N,08130.9501,W,1,9,1.5,18,M,,M,,*52
06/05/2014	13:11:12.466	$GPGGA,131112,2422.9863,N,08130.9505,W,1,9,1.5,18,M,,M,,*54
06/05/2014	13:11:13.461	$GPGGA,131113,2422.9887,N,08130.9510,W,1,9,1.5,18,M,,M,,*5B
06/05/2014	13:11:14.517	$GPGGA,131114,2422.9910,N,08130.9516,W,1,9,1.5,18,M,,M,,*55
06/05/2014	13:11:15.542	$GPGGA,131115,2422.9934,N,08130.9520,W,1,9,1.8,18,M,,M,,*5A
06/05/2014	13:11:16.578	$GPGGA,131116,2422.9957,N,08130.9525,W,1,9,1.5,18,M,,M,,*54
06/05/2014	13:11:17.574	$GPGGA,131117,2422.9982,N,08130.9530,W,1,9,1.5,18,M,,M,,*59
06/05/2014	13:11:18.681	$GPGGA,131118,2423.0006,N,08130.9538,W,1,9,1.5,18,M,,M,,*53
06/05/2014	13:11:19.603	$GPGGA,131119,2423.0029,N,08130.9543,W,1,9,1.5,18,M,,M,,*53
06/05/2014	13:11:20.669	$GPGGA,131120,2423.0054,N,08130.9548,W,1,9,1.5,18,M,,M,,*58
06/05/2014	13:11:21.695	$GPGGA,131121,2423.0078,N,08130.9552,W,1,9,1.5,18,M,,M,,*5C
06/05/2014	13:11:22.678	$GPGGA,131122,2423.0101,N,08130.9560,W,1,9,1.5,18,M,,M,,*51
06/05/2014	13:11:23.703	$GPGGA,131123,2423.0125,N,08130.9566,W,1,9,1.5,18,M,,M,,*50
06/05/2014	13:11:24.852	$GPGGA,131124,2423.0148,N,08130.9568,W,1,9,1.5,18,M,,M,,*52
06/05/2014	13:11:25.877	$GPGGA,131125,2423.0173,N,08130.9575,W,1,9,1.5,18,M,,M,,*57
06/05/2014	13:11:26.872	$GPGGA,131126,2423.0195,N,08130.9581,W,1,9,1.5,18,M,,M,,*57
06/05/2014	13:11:27.815	$GPGGA,131127,2423.0220,N,08130.9586,W,1,9,1.5,18,M,,M,,*5C
06/05/2014	13:11:28.953	$GPGGA,131128,2423.0244,N,08130.9590,W,1,9,1.5,18,M,,M,,*56
06/05/2014	13:11:29.948	$GPGGA,131129,2423.0267,N,08130.9597,W,1,9,1.5,18,M,,M,,*51
06/05/2014	13:11:30.953	$GPGGA,131130,2423.0292,N,08130.9603,W,1,9,1.5,18,M,,M,,*5D
06/05/2014	13:11:32.009	$GPGGA,131131,2423.0316,N,08130.9608,W,1,9,1.5,18,M,,M,,*5A
06/05/2014	13:11:33.024	$GPGGA,131132,2423.0340,N,08130.9613,W,1,9,1.5,18,M,,M,,*50
06/05/2014	13:11:34.071	$GPGGA,131133,2423.0364,N,08130.9621,W,1,9,1.5,18,M,,M,,*56
06/05/2014	13:11:35.055	$GPGGA,131134,2423.0387,N,08130.9626,W,1,9,1.5,18,M,,M,,*5B
06/05/2014	13:11:34.579	$GPGGA,131135,2423.0411,N,08130.9632,W,1,9,1.5,18,M,,M,,*57
06/05/2014	13:11:35.613	$GPGGA,131136,2423.0434,N,08130.9637,W,1,9,1.5,18,M,,M,,*56
06/05/2014	13:11:36.618	$GPGGA,131137,2423.0459,N,08130.9643,W,1,9,1.5,18,M,,M,,*5F
06/05/2014	13:11:37.633	$GPGGA,131138,2423.0480,N,08130.9650,W,1,9,1.5,18,M,,M,,*56
06/05/2014	13:11:38.678	$GPGGA,131139,2423.0505,N,08130.9657,W,1,9,1.5,17,M,,M,,*53
06/05/2014	13:11:39.693	$GPGGA,131140,2423.0528,N,08130.9661,W,1,9,1.5,17,M,,M,,*57
06/05/2014	13:11:40.719	$GPGGA,131141,2423.0553,N,08130.9667,W,1,9,1.5,17,M,,M,,*5C
06/05/2014	13:11:41.724	$GPGGA,131142,2423.0574,N,08130.9673,W,1,9,1.5,17,M,,M,,*5F
06/05/2014	13:11:42.759	$GPGGA,131143,2423.0598,N,08130.9680,W,1,9,1.5,17,M,,M,,*50
06/05/2014	13:11:43.774	$GPGGA,131144,2423.0622,N,08130.9686,W,1,9,1.5,17,M,,M,,*53
06/05/2014	13:11:44.800	$GPGGA,131145,2423.0646,N,08130.9691,W,1,9,1.5,17,M,,M,,*56
06/05/2014	13:11:45.815	$GPGGA,131146,2423.0668,N,08130.9700,W,1,9,1.5,17,M,,M,,*50
06/05/2014	13:11:46.840	$GPGGA,131147,2423.0690,N,08130.9705,W,1,9,1.5,17,M,,M,,*53
06/05/2014	13:11:47.896	$GPGGA,131148,2423.0715,N,08130.9709,W,1,9,1.5,17,M,,M,,*5C
06/05/2014	13:11:48.922	$GPGGA,131149,2423.0737,N,08130.9715,W,1,9,1.5,17,M,,M,,*50
06/05/2014	13:11:49.896	$GPGGA,131150,2423.0759,N,08130.9723,W,1,9,1.5,17,M,,M,,*55
