Software Version Number: 1	Data File Format Number: 1	Build Version Number: 1	Error Count Since VI Started: 0	Manufacturer: Raytheon	 Model Number: RayMarine 120	 S/N: 	 Cal Date: 	 Wind Direction Offset: 0.00	 Slope (M)1: 0.00	 Offset (B)1: 0.00	 Slope (M)2: 0.00	 Offset (B)2: 0.00	 Slope (M)3: 0.00	 Offset (B)3: 0.00	 Slope (M)4: 0.00	 Offset (B)4: 0.00	 Slope (M)5: 0.00	 Offset (B)5: 0.00	 Slope (M)6: 0.00	 Offset (B)6: 0.00
Computer Date	Computer Time	GGA String
06/04/2014	03:00:00.622	$GPGGA,030001,2513.3945,N,08018.1557,W,1,8,1.9,17,M,,M,,*5D
06/04/2014	03:00:01.595	$GPGGA,030002,2513.3927,N,08018.1572,W,1,8,1.9,17,M,,M,,*5D
06/04/2014	03:00:02.627	$GPGGA,030003,2513.3906,N,08018.1586,W,1,8,1.9,17,M,,M,,*54
06/04/2014	03:00:03.590	$GPGGA,030004,2513.3887,N,08018.1600,W,1,8,1.9,17,M,,M,,*56
06/04/2014	03:00:04.602	$GPGGA,030005,2513.3867,N,08018.1615,W,1,8,1.9,17,M,,M,,*5D
06/04/2014	03:00:05.715	$GPGGA,030006,2513.3848,N,08018.1629,W,1,8,1.9,17,M,,M,,*5C
06/04/2014	03:00:06.577	$GPGGA,030007,2513.3828,N,08018.1644,W,1,8,1.9,17,M,,M,,*50
06/04/2014	03:00:07.710	$GPGGA,030008,2513.3809,N,08018.1658,W,1,8,1.9,17,M,,M,,*51
06/04/2014	03:00:08.722	$GPGGA,030009,2513.3790,N,08018.1673,W,1,8,1.9,17,M,,M,,*56
06/04/2014	03:00:09.595	$GPGGA,030010,2513.3770,N,08018.1687,W,1,8,1.9,17,M,,M,,*5B
06/04/2014	03:00:10.731	$GPGGA,030011,2513.3751,N,08018.1702,W,1,8,1.9,17,M,,M,,*55
06/04/2014	03:00:11.613	$GPGGA,030012,2513.3732,N,08018.1716,W,1,8,1.9,17,M,,M,,*56
06/04/2014	03:00:12.637	$GPGGA,030013,2513.3712,N,08018.1730,W,1,8,1.9,17,M,,M,,*51
06/04/2014	03:00:13.631	$GPGGA,030014,2513.3693,N,08018.1745,W,1,8,1.9,17,M,,M,,*5C
06/04/2014	03:00:14.727	$GPGGA,030015,2513.3674,N,08018.1760,W,1,8,1.9,17,M,,M,,*53
06/04/2014	03:00:15.651	$GPGGA,030016,2513.3656,N,08018.1774,W,1,8,1.9,17,M,,M,,*55
06/04/2014	03:00:16.664	$GPGGA,030017,2513.3636,N,08018.1789,W,1,8,1.9,17,M,,M,,*50
06/04/2014	03:00:17.780	$GPGGA,030018,2513.3617,N,08018.1804,W,1,8,1.9,17,M,,M,,*56
06/04/2014	03:00:18.681	$GPGGA,030019,2513.3598,N,08018.1819,W,1,8,1.9,17,M,,M,,*5F
06/04/2014	03:00:19.706	$GPGGA,030020,2513.3578,N,08018.1835,W,1,8,1.9,17,M,,M,,*55
06/04/2014	03:00:20.709	$GPGGA,030021,2513.3560,N,08018.1850,W,1,8,1.9,17,M,,M,,*5E
06/04/2014	03:00:21.825	$GPGGA,030022,2513.3541,N,08018.1864,W,1,8,1.9,17,M,,M,,*59
06/04/2014	03:00:22.849	$GPGGA,030023,2513.3522,N,08018.1879,W,1,8,1.9,17,M,,M,,*51
06/04/2014	03:00:23.853	$GPGGA,030024,2513.3503,N,08018.1894,W,1,8,1.9,17,M,,M,,*56
06/04/2014	03:00:24.857	$GPGGA,030025,2513.3484,N,08018.1911,W,1,8,1.9,17,M,,M,,*55
06/04/2014	03:00:25.872	$GPGGA,030026,2513.3466,N,08018.1926,W,1,8,1.9,17,M,,M,,*5E
06/04/2014	03:00:26.896	$GPGGA,030027,2513.3447,N,08018.1940,W,1,8,1.9,17,M,,M,,*5C
06/04/2014	03:00:27.900	$GPGGA,030028,2513.3429,N,08018.1956,W,1,8,1.9,17,M,,M,,*5C
06/04/2014	03:00:28.924	$GPGGA,030029,2513.3410,N,08018.1972,W,1,8,1.9,17,M,,M,,*51
06/04/2014	03:00:29.908	$GPGGA,030030,2513.3391,N,08018.1987,W,1,8,1.9,17,M,,M,,*5D
06/04/2014	03:00:30.943	$GPGGA,030031,2513.3373,N,08018.2003,W,1,8,1.9,17,M,,M,,*56
06/04/2014	03:00:31.570	$GPGGA,030032,2513.3354,N,08018.2019,W,1,8,1.9,17,M,,M,,*5B
06/04/2014	03:00:32.595	$GPGGA,030033,2513.3336,N,08018.2034,W,1,8,1.9,17,M,,M,,*51
06/04/2014	03:00:33.579	$GPGGA,030034,2513.3317,N,08018.2050,W,1,8,1.9,17,M,,M,,*57
06/04/2014	03:00:34.604	$GPGGA,030035,2513.3299,N,08018.2066,W,1,8,1.9,17,M,,M,,*54
06/04/2014	03:00:35.616	$GPGGA,030036,2513.3280,N,08018.2082,W,1,8,1.9,17,M,,M,,*55
06/04/2014	03:00:36.620	$GPGGA,030037,2513.3262,N,08018.2097,W,1,8,1.9,17,M,,M,,*5C
06/04/2014	03:00:37.624	$GPGGA,030038,2513.3243,N,08018.2113,W,1,8,1.9,17,M,,M,,*5D
06/04/2014	03:00:38.638	$GPGGA,030039,2513.3224,N,08018.2129,W,1,8,1.9,17,M,,M,,*54
06/04/2014	03:00:39.662	$GPGGA,030040,2513.3206,N,08018.2146,W,1,8,1.9,17,M,,M,,*53
06/04/2014	03:00:40.656	$GPGGA,030041,2513.3187,N,08018.2160,W,1,8,1.9,17,M,,M,,*5C
06/04/2014	03:00:41.681	$GPGGA,030042,2513.3168,N,08018.2176,W,1,8,1.9,17,M,,M,,*59
06/04/2014	03:00:42.685	$GPGGA,030043,2513.3149,N,08018.2193,W,1,8,1.9,17,M,,M,,*50
06/04/2014	03:00:43.719	$GPGGA,030044,2513.3130,N,08018.2207,W,1,8,1.9,17,M,,M,,*57
06/04/2014	03:00:44.733	$GPGGA,030045,2513.3111,N,08018.2223,W,1,8,1.9,17,M,,M,,*53
06/04/2014	03:00:45.717	$GPGGA,030046,2513.3092,N,08018.2240,W,1,8,1.9,17,M,,M,,*5F
06/04/2014	03:00:46.762	$GPGGA,030047,2513.3073,N,08018.2254,W,1,8,1.9,17,M,,M,,*54
06/04/2014	03:00:47.766	$GPGGA,030048,2513.3054,N,08018.2269,W,1,8,1.9,17,M,,M,,*50
06/04/2014	03:00:48.790	$GPGGA,030049,2513.3035,N,08018.2285,W,1,8,1.9,17,M,,M,,*54
06/04/2014	03:00:49.774	$GPGGA,030050,2513.3017,N,08018.2301,W,1,8,1.9,17,M,,M,,*51
06/04/2014	03:00:50.788	$GPGGA,030051,2513.2997,N,08018.2316,W,1,8,1.9,17,M,,M,,*56
06/04/2014	03:00:51.813	$GPGGA,030052,2513.2978,N,08018.2330,W,1,8,1.9,17,M,,M,,*50
06/04/2014	03:00:52.837	$GPGGA,030053,2513.2959,N,08018.2345,W,1,8,1.9,17,M,,M,,*50
06/04/2014	03:00:53.830	$GPGGA,030054,2513.2941,N,08018.2360,W,1,8,1.9,17,M,,M,,*59
06/04/2014	03:00:54.854	$GPGGA,030055,2513.2921,N,08018.2375,W,1,8,1.9,17,M,,M,,*5A
06/04/2014	03:00:55.889	$GPGGA,030056,2513.2901,N,08018.2391,W,1,8,1.9,17,M,,M,,*51
06/04/2014	03:00:56.883	$GPGGA,030057,2513.2883,N,08018.2406,W,1,8,1.9,17,M,,M,,*52
06/04/2014	03:00:57.958	$GPGGA,030058,2513.2863,N,08018.2420,W,1,8,1.9,17,M,,M,,*57
06/04/2014	03:00:59.005	$GPGGA,030059,2513.2843,N,08018.2435,W,1,8,1.9,16,M,,M,,*51
06/04/2014	03:00:59.935	$GPGGA,030100,2513.2824,N,08018.2449,W,1,8,1.9,16,M,,M,,*56
06/04/2014	03:01:00.929	$GPGGA,030101,2513.2805,N,08018.2464,W,1,8,1.9,16,M,,M,,*5B
06/04/2014	03:01:02.014	$GPGGA,030102,2513.2786,N,08018.2478,W,1,8,1.9,16,M,,M,,*51
06/04/2014	03:01:03.069	$GPGGA,030103,2513.2766,N,08018.2493,W,1,8,1.9,16,M,,M,,*5B
06/04/2014	03:01:03.962	$GPGGA,030104,2513.2747,N,08018.2507,W,1,8,1.9,16,M,,M,,*53
06/04/2014	03:01:04.967	$GPGGA,030105,2513.2728,N,08018.2522,W,1,8,1.9,16,M,,M,,*5C
06/04/2014	03:01:05.990	$GPGGA,030106,2513.2708,N,08018.2536,W,1,8,1.9,16,M,,M,,*58
06/04/2014	03:01:07.075	$GPGGA,030107,2513.2688,N,08018.2551,W,1,8,1.9,16,M,,M,,*51
06/04/2014	03:01:08.100	$GPGGA,030108,2513.2670,N,08018.2565,W,1,8,1.9,16,M,,M,,*5E
06/04/2014	03:01:09.012	$GPGGA,030109,2513.2649,N,08018.2579,W,1,8,1.9,16,M,,M,,*58
06/04/2014	03:01:10.108	$GPGGA,030110,2513.2630,N,08018.2592,W,1,8,1.9,16,M,,M,,*5B
06/04/2014	03:01:11.152	$GPGGA,030111,2513.2610,N,08018.2606,W,1,8,1.9,16,M,,M,,*56
06/04/2014	03:01:12.146	$GPGGA,030112,2513.2590,N,08018.2620,W,1,8,1.9,16,M,,M,,*5A
06/04/2014	03:01:13.139	$GPGGA,030113,2513.2571,N,08018.2635,W,1,8,1.9,16,M,,M,,*50
06/04/2014	03:01:14.164	$GPGGA,030114,2513.2551,N,08018.2649,W,1,8,1.9,16,M,,M,,*5E
06/04/2014	03:01:15.188	$GPGGA,030115,2513.2533,N,08018.2663,W,1,8,1.9,16,M,,M,,*53
06/04/2014	03:01:16.202	$GPGGA,030116,2513.2512,N,08018.2677,W,1,8,1.9,16,M,,M,,*56
06/04/2014	03:01:17.186	$GPGGA,030117,2513.2493,N,08018.2691,W,1,8,1.9,16,M,,M,,*57
06/04/2014	03:01:18.211	$GPGGA,030118,2513.2473,N,08018.2706,W,1,8,1.9,16,M,,M,,*59
06/04/2014	03:01:19.245	$GPGGA,030119,2513.2453,N,08018.2720,W,1,8,1.9,16,M,,M,,*5E
06/04/2014	03:01:20.249	$GPGGA,030120,2513.2435,N,08018.2733,W,1,8,1.9,16,M,,M,,*56
06/04/2014	03:01:21.233	$GPGGA,030121,2513.2414,N,08018.2749,W,1,8,1.9,16,M,,M,,*59
06/04/2014	03:01:22.257	$GPGGA,030122,2513.2395,N,08018.2762,W,1,8,1.9,16,M,,M,,*5D
06/04/2014	03:01:23.281	$GPGGA,030123,2513.2375,N,08018.2776,W,1,8,1.9,16,M,,M,,*57
06/04/2014	03:01:24.306	$GPGGA,030124,2513.2356,N,08018.2790,W,1,8,1.9,16,M,,M,,*59
06/04/2014	03:01:25.310	$GPGGA,030125,2513.2337,N,08018.2805,W,1,8,1.9,16,M,,M,,*5C
06/04/2014	03:01:26.314	$GPGGA,030126,2513.2317,N,08018.2821,W,1,8,1.9,16,M,,M,,*5B
06/04/2014	03:01:27.338	$GPGGA,030127,2513.2298,N,08018.2834,W,1,8,1.9,16,M,,M,,*58
06/04/2014	03:01:28.342	$GPGGA,030128,2513.2280,N,08018.2850,W,1,8,1.9,16,M,,M,,*5C
06/04/2014	03:01:29.345	$GPGGA,030129,2513.2260,N,08018.2865,W,1,8,1.9,16,M,,M,,*55
06/04/2014	03:01:30.349	$GPGGA,030130,2513.2241,N,08018.2879,W,1,8,1.9,16,M,,M,,*53
06/04/2014	03:01:31.363	$GPGGA,030131,2513.2222,N,08018.2894,W,1,8,1.9,16,M,,M,,*54
06/04/2014	03:01:31.548	$GPGGA,030132,2513.2204,N,08018.2910,W,1,8,1.9,16,M,,M,,*5E
06/04/2014	03:01:32.532	$GPGGA,030133,2513.2184,N,08018.2926,W,1,8,1.9,16,M,,M,,*51
06/04/2014	03:01:33.556	$GPGGA,030134,2513.2165,N,08018.2941,W,1,8,1.9,16,M,,M,,*58
06/04/2014	03:01:34.590	$GPGGA,030135,2513.2146,N,08018.2956,W,1,8,1.9,16,M,,M,,*5E
06/04/2014	03:01:35.595	$GPGGA,030136,2513.2128,N,08018.2971,W,1,8,1.9,16,M,,M,,*50
06/04/2014	03:01:36.609	$GPGGA,030137,2513.2110,N,08018.2986,W,1,8,1.9,16,M,,M,,*52
06/04/2014	03:01:37.603	$GPGGA,030138,2513.2090,N,08018.3002,W,1,8,1.9,16,M,,M,,*50
06/04/2014	03:01:38.627	$GPGGA,030139,2513.2072,N,08018.3017,W,1,8,1.9,16,M,,M,,*59
06/04/2014	03:01:39.641	$GPGGA,030140,2513.2053,N,08018.3033,W,1,8,1.9,16,M,,M,,*52
06/04/2014	03:01:40.655	$GPGGA,030141,2513.2035,N,08018.3049,W,1,8,1.9,16,M,,M,,*5E
06/04/2014	03:01:41.660	$GPGGA,030142,2513.2016,N,08018.3065,W,1,8,1.9,16,M,,M,,*52
06/04/2014	03:01:42.669	$GPGGA,030143,2513.1998,N,08018.3082,W,1,8,1.9,16,M,,M,,*56
06/04/2014	03:01:43.679	$GPGGA,030144,2513.1980,N,08018.3097,W,1,8,1.9,16,M,,M,,*5C
06/04/2014	03:01:44.699	$GPGGA,030145,2513.1962,N,08018.3114,W,1,8,1.9,16,M,,M,,*5B
06/04/2014	03:01:45.705	$GPGGA,030146,2513.1942,N,08018.3129,W,1,8,1.9,16,M,,M,,*54
06/04/2014	03:01:46.699	$GPGGA,030147,2513.1924,N,08018.3145,W,1,8,1.9,16,M,,M,,*5F
06/04/2014	03:01:47.754	$GPGGA,030148,2513.1905,N,08018.3161,W,1,8,1.9,16,M,,M,,*55
06/04/2014	03:01:48.727	$GPGGA,030149,2513.1887,N,08018.3177,W,1,8,1.9,16,M,,M,,*58
06/04/2014	03:01:49.853	$GPGGA,030150,2513.1869,N,08018.3193,W,1,8,1.9,16,M,,M,,*5A
06/04/2014	03:01:50.766	$GPGGA,030151,2513.1850,N,08018.3209,W,1,8,1.9,16,M,,M,,*51
06/04/2014	03:01:51.780	$GPGGA,030152,2513.1832,N,08018.3226,W,1,8,1.9,16,M,,M,,*5B
06/04/2014	03:01:52.875	$GPGGA,030153,2513.1814,N,08018.3241,W,1,8,1.9,16,M,,M,,*5F
06/04/2014	03:01:53.890	$GPGGA,030154,2513.1796,N,08018.3258,W,1,8,1.9,16,M,,M,,*55
06/04/2014	03:01:54.914	$GPGGA,030155,2513.1776,N,08018.3273,W,1,8,1.9,16,M,,M,,*53
06/04/2014	03:01:55.827	$GPGGA,030156,2513.1757,N,08018.3289,W,1,8,1.9,16,M,,M,,*56
06/04/2014	03:01:56.953	$GPGGA,030157,2513.1739,N,08018.3305,W,1,8,1.9,16,M,,M,,*5A
06/04/2014	03:01:57.946	$GPGGA,030158,2513.1720,N,08018.3320,W,1,8,1.9,16,M,,M,,*5A
06/04/2014	03:01:58.971	$GPGGA,030159,2513.1702,N,08018.3336,W,1,8,1.9,16,M,,M,,*5C
06/04/2014	03:01:59.985	$GPGGA,030200,2513.1682,N,08018.3352,W,1,8,1.9,16,M,,M,,*58
06/04/2014	03:02:00.979	$GPGGA,030201,2513.1663,N,08018.3367,W,1,8,1.9,16,M,,M,,*50
06/04/2014	03:02:01.993	$GPGGA,030202,2513.1644,N,08018.3382,W,1,8,1.9,16,M,,M,,*5D
06/04/2014	03:02:03.028	$GPGGA,030203,2513.1626,N,08018.3396,W,1,8,1.9,16,M,,M,,*5D
06/04/2014	03:02:04.041	$GPGGA,030204,2513.1606,N,08018.3411,W,1,8,1.9,16,M,,M,,*50
06/04/2014	03:02:05.055	$GPGGA,030205,2513.1587,N,08018.3426,W,1,8,1.9,16,M,,M,,*5F
06/04/2014	03:02:06.029	$GPGGA,030206,2513.1568,N,08018.3440,W,1,8,1.9,16,M,,M,,*5D
06/04/2014	03:02:07.063	$GPGGA,030207,2513.1548,N,08018.3455,W,1,8,1.9,16,M,,M,,*5A
06/04/2014	03:02:08.077	$GPGGA,030208,2513.1528,N,08018.3469,W,1,8,1.9,16,M,,M,,*5C
06/04/2014	03:02:09.102	$GPGGA,030209,2513.1508,N,08018.3483,W,1,8,1.9,16,M,,M,,*5B
06/04/2014	03:02:10.075	$GPGGA,030210,2513.1488,N,08018.3497,W,1,8,1.9,16,M,,M,,*5F
06/04/2014	03:02:11.120	$GPGGA,030211,2513.1468,N,08018.3509,W,1,8,1.9,16,M,,M,,*56
06/04/2014	03:02:12.114	$GPGGA,030212,2513.1449,N,08018.3522,W,1,8,1.9,16,M,,M,,*5F
06/04/2014	03:02:13.138	$GPGGA,030213,2513.1428,N,08018.3535,W,1,8,1.9,16,M,,M,,*5F
06/04/2014	03:02:14.132	$GPGGA,030214,2513.1407,N,08018.3548,W,1,8,1.9,16,M,,M,,*5F
06/04/2014	03:02:15.136	$GPGGA,030215,2513.1386,N,08018.3560,W,1,8,1.9,16,M,,M,,*5A
06/04/2014	03:02:16.171	$GPGGA,030216,2513.1366,N,08018.3573,W,1,8,1.9,16,M,,M,,*55
06/04/2014	03:02:17.195	$GPGGA,030217,2513.1345,N,08018.3584,W,1,8,1.9,16,M,,M,,*5D
06/04/2014	03:02:18.179	$GPGGA,030218,2513.1326,N,08018.3595,W,1,8,1.9,16,M,,M,,*57
06/04/2014	03:02:19.186	$GPGGA,030219,2513.1304,N,08018.3607,W,1,8,1.9,16,M,,M,,*5E
06/04/2014	03:02:20.217	$GPGGA,030220,2513.1283,N,08018.3618,W,1,8,1.9,16,M,,M,,*54
06/04/2014	03:02:21.251	$GPGGA,030221,2513.1262,N,08018.3629,W,1,8,1.9,16,M,,M,,*58
06/04/2014	03:02:22.235	$GPGGA,030222,2513.1241,N,08018.3641,W,1,8,1.9,16,M,,M,,*54
06/04/2014	03:02:23.269	$GPGGA,030223,2513.1219,N,08018.3650,W,1,8,1.9,16,M,,M,,*58
06/04/2014	03:02:24.273	$GPGGA,030224,2513.1198,N,08018.3661,W,1,8,1.9,16,M,,M,,*57
06/04/2014	03:02:25.267	$GPGGA,030225,2513.1176,N,08018.3671,W,1,8,1.9,16,M,,M,,*57
06/04/2014	03:02:26.291	$GPGGA,030226,2513.1156,N,08018.3681,W,1,8,1.9,16,M,,M,,*59
06/04/2014	03:02:27.407	$GPGGA,030227,2513.1133,N,08018.3692,W,1,8,1.9,16,M,,M,,*59
06/04/2014	03:02:28.310	$GPGGA,030228,2513.1111,N,08018.3701,W,1,8,1.9,16,M,,M,,*5D
06/04/2014	03:02:29.334	$GPGGA,030229,2513.1089,N,08018.3711,W,1,8,1.9,16,M,,M,,*5D
06/04/2014	03:02:30.322	$GPGGA,030230,2513.1067,N,08018.3721,W,1,8,1.9,16,M,,M,,*56
06/04/2014	03:02:31.433	$GPGGA,030231,2513.1045,N,08018.3730,W,1,8,1.9,16,M,,M,,*57
06/04/2014	03:02:31.506	$GPGGA,030232,2513.1023,N,08018.3740,W,1,8,1.9,16,M,,M,,*53
06/04/2014	03:02:32.510	$GPGGA,030233,2513.1001,N,08018.3750,W,1,8,1.9,16,M,,M,,*53
06/04/2014	03:02:33.535	$GPGGA,030234,2513.0979,N,08018.3758,W,1,8,1.9,16,M,,M,,*5B
06/04/2014	03:02:34.671	$GPGGA,030235,2513.0957,N,08018.3768,W,1,8,1.9,16,M,,M,,*55
06/04/2014	03:02:35.685	$GPGGA,030236,2513.0936,N,08018.3777,W,1,8,1.9,16,M,,M,,*5F
06/04/2014	03:02:36.679	$GPGGA,030237,2513.0914,N,08018.3786,W,1,8,1.9,16,M,,M,,*50
06/04/2014	03:02:37.571	$GPGGA,030238,2513.0891,N,08018.3795,W,1,8,1.9,16,M,,M,,*51
06/04/2014	03:02:38.574	$GPGGA,030239,2513.0869,N,08018.3804,W,1,8,1.9,16,M,,M,,*50
06/04/2014	03:02:39.609	$GPGGA,030240,2513.0849,N,08018.3813,W,1,8,1.9,16,M,,M,,*5A
06/04/2014	03:02:40.623	$GPGGA,030241,2513.0826,N,08018.3822,W,1,8,1.9,16,M,,M,,*50
06/04/2014	03:02:41.718	$GPGGA,030242,2513.0804,N,08018.3831,W,1,8,1.9,16,M,,M,,*51
06/04/2014	03:02:42.763	$GPGGA,030243,2513.0784,N,08018.3840,W,1,8,1.9,16,M,,M,,*51
06/04/2014	03:02:43.757	$GPGGA,030244,2513.0761,N,08018.3849,W,1,8,1.9,16,M,,M,,*54
06/04/2014	03:02:44.751	$GPGGA,030245,2513.0741,N,08018.3859,W,1,8,1.9,16,M,,M,,*56
06/04/2014	03:02:45.765	$GPGGA,030246,2513.0719,N,08018.3869,W,1,8,1.9,16,M,,M,,*5B
06/04/2014	03:02:46.820	$GPGGA,030247,2513.0697,N,08018.3878,W,1,8,1.9,16,M,,M,,*5D
06/04/2014	03:02:47.803	$GPGGA,030248,2513.0676,N,08018.3887,W,1,8,1.9,16,M,,M,,*5D
06/04/2014	03:02:48.818	$GPGGA,030249,2513.0654,N,08018.3898,W,1,8,1.9,16,M,,M,,*52
06/04/2014	03:02:49.822	$GPGGA,030250,2513.0632,N,08018.3907,W,1,8,1.9,16,M,,M,,*5D
06/04/2014	03:02:50.846	$GPGGA,030251,2513.0611,N,08018.3917,W,1,8,1.9,16,M,,M,,*5C
06/04/2014	03:02:51.860	$GPGGA,030252,2513.0589,N,08018.3928,W,1,8,1.9,16,M,,M,,*51
06/04/2014	03:02:52.885	$GPGGA,030253,2513.0568,N,08018.3938,W,1,8,1.9,16,M,,M,,*5E
06/04/2014	03:02:53.868	$GPGGA,030254,2513.0547,N,08018.3949,W,1,8,1.9,16,M,,M,,*52
06/04/2014	03:02:54.872	$GPGGA,030255,2513.0525,N,08018.3960,W,1,8,1.9,16,M,,M,,*5C
06/04/2014	03:02:55.906	$GPGGA,030256,2513.0504,N,08018.3970,W,1,8,1.9,16,M,,M,,*5D
06/04/2014	03:02:56.920	$GPGGA,030257,2513.0484,N,08018.3981,W,1,8,1.9,16,M,,M,,*5B
06/04/2014	03:02:57.914	$GPGGA,030258,2513.0462,N,08018.3992,W,1,8,1.9,16,M,,M,,*5E
06/04/2014	03:02:58.948	$GPGGA,030259,2513.0441,N,08018.4003,W,1,8,1.9,16,M,,M,,*58
06/04/2014	03:02:59.973	$GPGGA,030300,2513.0419,N,08018.4014,W,1,8,2.3,16,M,,M,,*57
06/04/2014	03:03:00.957	$GPGGA,030301,2513.0398,N,08018.4025,W,1,7,2.3,16,M,,M,,*55
06/04/2014	03:03:01.961	$GPGGA,030302,2513.0377,N,08018.4039,W,1,7,1.9,16,M,,M,,*53
06/04/2014	03:03:03.005	$GPGGA,030303,2513.0356,N,08018.4050,W,1,8,1.9,16,M,,M,,*51
06/04/2014	03:03:04.009	$GPGGA,030304,2513.0336,N,08018.4064,W,1,8,1.9,16,M,,M,,*57
06/04/2014	03:03:05.034	$GPGGA,030305,2513.0314,N,08018.4075,W,1,8,1.9,16,M,,M,,*56
06/04/2014	03:03:06.007	$GPGGA,030306,2513.0294,N,08018.4089,W,1,8,1.9,16,M,,M,,*5F
06/04/2014	03:03:07.062	$GPGGA,030307,2513.0273,N,08018.4101,W,1,8,1.9,16,M,,M,,*56
06/04/2014	03:03:08.056	$GPGGA,030308,2513.0253,N,08018.4115,W,1,8,1.9,16,M,,M,,*5E
06/04/2014	03:03:09.090	$GPGGA,030309,2513.0232,N,08018.4127,W,1,8,1.9,16,M,,M,,*59
06/04/2014	03:03:10.054	$GPGGA,030310,2513.0211,N,08018.4140,W,1,8,1.9,16,M,,M,,*51
06/04/2014	03:03:11.088	$GPGGA,030311,2513.0190,N,08018.4152,W,1,8,1.9,16,M,,M,,*59
06/04/2014	03:03:12.103	$GPGGA,030312,2513.0170,N,08018.4165,W,1,8,1.9,17,M,,M,,*51
06/04/2014	03:03:13.107	$GPGGA,030313,2513.0150,N,08018.4177,W,1,8,1.9,17,M,,M,,*51
06/04/2014	03:03:14.110	$GPGGA,030314,2513.0130,N,08018.4191,W,1,8,1.9,17,M,,M,,*58
06/04/2014	03:03:15.144	$GPGGA,030315,2513.0109,N,08018.4203,W,1,8,1.9,17,M,,M,,*5B
06/04/2014	03:03:16.138	$GPGGA,030316,2513.0089,N,08018.4216,W,1,8,1.9,17,M,,M,,*55
06/04/2014	03:03:17.142	$GPGGA,030317,2513.0069,N,08018.4228,W,1,8,1.9,17,M,,M,,*57
06/04/2014	03:03:18.319	$GPGGA,030318,2513.0048,N,08018.4241,W,1,8,1.9,17,M,,M,,*54
06/04/2014	03:03:19.177	$GPGGA,030319,2513.0027,N,08018.4253,W,1,8,1.9,17,M,,M,,*5F
06/04/2014	03:03:20.186	$GPGGA,030320,2513.0007,N,08018.4267,W,1,8,1.9,17,M,,M,,*50
06/04/2014	03:03:21.351	$GPGGA,030321,2512.9986,N,08018.4278,W,1,8,1.9,17,M,,M,,*57
06/04/2014	03:03:22.203	$GPGGA,030322,2512.9966,N,08018.4292,W,1,8,1.9,17,M,,M,,*5E
06/04/2014	03:03:23.217	$GPGGA,030323,2512.9946,N,08018.4303,W,1,8,1.9,17,M,,M,,*54
06/04/2014	03:03:24.242	$GPGGA,030324,2512.9925,N,08018.4317,W,1,8,1.9,17,M,,M,,*53
06/04/2014	03:03:25.256	$GPGGA,030325,2512.9904,N,08018.4328,W,1,8,1.9,17,M,,M,,*5D
06/04/2014	03:03:26.250	$GPGGA,030326,2512.9884,N,08018.4340,W,1,8,1.9,17,M,,M,,*59
06/04/2014	03:03:27.254	$GPGGA,030327,2512.9864,N,08018.4353,W,1,8,1.9,17,M,,M,,*54
06/04/2014	03:03:28.298	$GPGGA,030328,2512.9843,N,08018.4364,W,1,8,1.9,17,M,,M,,*5A
06/04/2014	03:03:29.302	$GPGGA,030329,2512.9823,N,08018.4376,W,1,8,1.9,17,M,,M,,*5E
06/04/2014	03:03:30.398	$GPGGA,030330,2512.9802,N,08018.4387,W,1,8,1.9,17,M,,M,,*5B
06/04/2014	03:03:31.431	$GPGGA,030331,2512.9781,N,08018.4400,W,1,7,1.9,17,M,,M,,*59
06/04/2014	03:03:31.493	$GPGGA,030332,2512.9760,N,08018.4412,W,1,7,1.9,17,M,,M,,*56
06/04/2014	03:03:32.578	$GPGGA,030333,2512.9740,N,08018.4425,W,1,8,1.9,17,M,,M,,*5E
06/04/2014	03:03:33.592	$GPGGA,030334,2512.9718,N,08018.4436,W,1,8,1.9,17,M,,M,,*56
06/04/2014	03:03:34.668	$GPGGA,030335,2512.9697,N,08018.4447,W,1,8,1.9,17,M,,M,,*57
06/04/2014	03:03:35.712	$GPGGA,030336,2512.9675,N,08018.4458,W,1,8,1.9,18,M,,M,,*59
06/04/2014	03:03:36.716	$GPGGA,030337,2512.9654,N,08018.4469,W,1,8,1.9,18,M,,M,,*59
06/04/2014	03:03:37.649	$GPGGA,030338,2512.9632,N,08018.4478,W,1,8,1.9,18,M,,M,,*56
06/04/2014	03:03:38.653	$GPGGA,030339,2512.9610,N,08018.4488,W,1,8,1.9,18,M,,M,,*58
06/04/2014	03:03:39.678	$GPGGA,030340,2512.9588,N,08018.4498,W,1,8,1.9,18,M,,M,,*55
06/04/2014	03:03:40.743	$GPGGA,030341,2512.9567,N,08018.4509,W,1,8,1.9,18,M,,M,,*5C
06/04/2014	03:03:41.767	$GPGGA,030342,2512.9545,N,08018.4517,W,1,8,1.9,18,M,,M,,*50
06/04/2014	03:03:42.751	$GPGGA,030343,2512.9523,N,08018.4527,W,1,8,1.9,18,M,,M,,*52
06/04/2014	03:03:43.724	$GPGGA,030344,2512.9501,N,08018.4537,W,1,8,1.9,18,M,,M,,*54
06/04/2014	03:03:44.793	$GPGGA,030345,2512.9480,N,08018.4545,W,1,8,1.9,18,M,,M,,*58
06/04/2014	03:03:45.743	$GPGGA,030346,2512.9458,N,08018.4555,W,1,8,1.9,18,M,,M,,*5F
06/04/2014	03:03:46.848	$GPGGA,030347,2512.9436,N,08018.4563,W,1,8,1.9,18,M,,M,,*53
06/04/2014	03:03:47.851	$GPGGA,030348,2512.9415,N,08018.4571,W,1,8,1.9,18,M,,M,,*5E
06/04/2014	03:03:48.816	$GPGGA,030349,2512.9393,N,08018.4581,W,1,8,1.9,19,M,,M,,*58
06/04/2014	03:03:49.849	$GPGGA,030350,2512.9370,N,08018.4588,W,1,8,1.9,19,M,,M,,*54
06/04/2014	03:03:50.854	$GPGGA,030351,2512.9348,N,08018.4597,W,1,8,1.9,19,M,,M,,*50
06/04/2014	03:03:51.908	$GPGGA,030352,2512.9328,N,08018.4606,W,1,8,1.9,19,M,,M,,*5E
06/04/2014	03:03:52.871	$GPGGA,030353,2512.9305,N,08018.4614,W,1,8,1.9,19,M,,M,,*53
06/04/2014	03:03:53.896	$GPGGA,030354,2512.9283,N,08018.4622,W,1,8,1.9,19,M,,M,,*5E
06/04/2014	03:03:54.900	$GPGGA,030355,2512.9261,N,08018.4631,W,1,8,1.9,19,M,,M,,*51
06/04/2014	03:03:55.944	$GPGGA,030356,2512.9239,N,08018.4639,W,1,8,1.9,19,M,,M,,*57
06/04/2014	03:03:56.959	$GPGGA,030357,2512.9217,N,08018.4646,W,1,8,1.9,19,M,,M,,*52
06/04/2014	03:03:57.882	$GPGGA,030358,2512.9195,N,08018.4654,W,1,8,1.9,19,M,,M,,*57
06/04/2014	03:03:58.926	$GPGGA,030359,2512.9174,N,08018.4662,W,1,8,1.9,19,M,,M,,*5C
06/04/2014	03:03:59.991	$GPGGA,030400,2512.9152,N,08018.4671,W,1,8,1.9,19,M,,M,,*51
06/04/2014	03:04:00.924	$GPGGA,030401,2512.9130,N,08018.4678,W,1,8,1.9,19,M,,M,,*5D
06/04/2014	03:04:01.929	$GPGGA,030402,2512.9109,N,08018.4687,W,1,8,1.9,19,M,,M,,*54
06/04/2014	03:04:03.003	$GPGGA,030403,2512.9088,N,08018.4696,W,1,8,1.9,19,M,,M,,*5D
06/04/2014	03:04:04.038	$GPGGA,030404,2512.9068,N,08018.4704,W,1,8,1.9,19,M,,M,,*5E
06/04/2014	03:04:04.973	$GPGGA,030405,2512.9046,N,08018.4711,W,1,8,1.9,19,M,,M,,*57
06/04/2014	03:04:06.086	$GPGGA,030406,2512.9025,N,08018.4719,W,1,8,1.9,19,M,,M,,*59
06/04/2014	03:04:07.039	$GPGGA,030407,2512.9003,N,08018.4727,W,1,8,2.5,19,M,,M,,*5E
06/04/2014	03:04:08.073	$GPGGA,030408,2512.8982,N,08018.4736,W,1,8,1.9,19,M,,M,,*5F
06/04/2014	03:04:09.118	$GPGGA,030409,2512.8961,N,08018.4745,W,1,8,1.9,19,M,,M,,*57
06/04/2014	03:04:10.102	$GPGGA,030410,2512.8940,N,08018.4754,W,1,8,2.5,19,M,,M,,*53
06/04/2014	03:04:11.156	$GPGGA,030411,2512.8920,N,08018.4762,W,1,7,1.9,19,M,,M,,*51
06/04/2014	03:04:12.120	$GPGGA,030412,2512.8898,N,08018.4770,W,1,7,1.9,19,M,,M,,*53
06/04/2014	03:04:13.114	$GPGGA,030413,2512.8877,N,08018.4780,W,1,8,1.9,19,M,,M,,*53
06/04/2014	03:04:14.077	$GPGGA,030414,2512.8856,N,08018.4790,W,1,8,1.9,19,M,,M,,*56
06/04/2014	03:04:15.115	$GPGGA,030415,2512.8835,N,08018.4798,W,1,8,1.9,19,M,,M,,*5A
06/04/2014	03:04:16.187	$GPGGA,030416,2512.8815,N,08018.4809,W,1,8,1.9,19,M,,M,,*5C
06/04/2014	03:04:17.150	$GPGGA,030417,2512.8794,N,08018.4817,W,1,8,1.9,19,M,,M,,*54
06/04/2014	03:04:18.246	$GPGGA,030418,2512.8773,N,08018.4827,W,1,8,1.9,19,M,,M,,*51
06/04/2014	03:04:19.209	$GPGGA,030419,2512.8754,N,08018.4837,W,1,8,1.9,19,M,,M,,*54
06/04/2014	03:04:20.274	$GPGGA,030420,2512.8732,N,08018.4846,W,1,8,1.9,19,M,,M,,*58
06/04/2014	03:04:21.269	$GPGGA,030421,2512.8712,N,08018.4855,W,1,8,1.9,19,M,,M,,*59
06/04/2014	03:04:22.272	$GPGGA,030422,2512.8692,N,08018.4866,W,1,8,1.9,19,M,,M,,*53
06/04/2014	03:04:23.306	$GPGGA,030423,2512.8671,N,08018.4875,W,1,8,1.9,19,M,,M,,*5D
06/04/2014	03:04:24.330	$GPGGA,030424,2512.8652,N,08018.4885,W,1,8,2.3,19,M,,M,,*5D
06/04/2014	03:04:25.344	$GPGGA,030425,2512.8632,N,08018.4897,W,1,7,1.9,19,M,,M,,*5F
06/04/2014	03:04:26.328	$GPGGA,030426,2512.8613,N,08018.4908,W,1,7,1.9,20,M,,M,,*52
06/04/2014	03:04:27.362	$GPGGA,030427,2512.8592,N,08018.4920,W,1,8,1.9,20,M,,M,,*5C
06/04/2014	03:04:28.377	$GPGGA,030428,2512.8573,N,08018.4931,W,1,8,1.9,20,M,,M,,*5C
06/04/2014	03:04:29.391	$GPGGA,030429,2512.8552,N,08018.4942,W,1,8,1.9,20,M,,M,,*5A
06/04/2014	03:04:30.385	$GPGGA,030430,2512.8532,N,08018.4953,W,1,8,1.9,20,M,,M,,*54
06/04/2014	03:04:31.420	$GPGGA,030431,2512.8512,N,08018.4964,W,1,8,1.9,20,M,,M,,*53
06/04/2014	03:04:31.583	$GPGGA,030432,2512.8492,N,08018.4975,W,1,8,1.9,20,M,,M,,*59
06/04/2014	03:04:32.598	$GPGGA,030433,2512.8472,N,08018.4986,W,1,8,1.9,20,M,,M,,*5A
06/04/2014	03:04:33.571	$GPGGA,030434,2512.8452,N,08018.4996,W,1,8,1.9,20,M,,M,,*5E
06/04/2014	03:04:34.596	$GPGGA,030435,2512.8432,N,08018.5008,W,1,8,1.9,20,M,,M,,*56
06/04/2014	03:04:35.630	$GPGGA,030436,2512.8412,N,08018.5019,W,1,8,1.9,20,M,,M,,*57
06/04/2014	03:04:36.654	$GPGGA,030437,2512.8391,N,08018.5030,W,1,8,1.9,20,M,,M,,*51
06/04/2014	03:04:37.679	$GPGGA,030438,2512.8391,N,08018.5030,W,1,8,1.9,20,M,,M,,*5E
06/04/2014	03:04:38.673	$GPGGA,030439,2512.8351,N,08018.5052,W,1,8,1.9,21,M,,M,,*56
06/04/2014	03:04:39.677	$GPGGA,030440,2512.8331,N,08018.5063,W,1,8,1.9,21,M,,M,,*5C
06/04/2014	03:04:40.659	$GPGGA,030441,2512.8310,N,08018.5074,W,1,8,1.9,21,M,,M,,*58
06/04/2014	03:04:41.684	$GPGGA,030442,2512.8290,N,08018.5085,W,1,8,1.9,21,M,,M,,*5C
06/04/2014	03:04:42.718	$GPGGA,030443,2512.8270,N,08018.5097,W,1,8,1.9,21,M,,M,,*50
06/04/2014	03:04:43.712	$GPGGA,030444,2512.8250,N,08018.5106,W,1,8,2.3,21,M,,M,,*55
06/04/2014	03:04:44.736	$GPGGA,030445,2512.8230,N,08018.5116,W,1,7,2.3,21,M,,M,,*5C
06/04/2014	03:04:45.741	$GPGGA,030446,2512.8210,N,08018.5126,W,1,7,2.3,20,M,,M,,*5F
06/04/2014	03:04:46.745	$GPGGA,030447,2512.8190,N,08018.5138,W,1,7,2.3,20,M,,M,,*5A
06/04/2014	03:04:47.810	$GPGGA,030448,2512.8170,N,08018.5150,W,1,7,1.9,20,M,,M,,*5C
06/04/2014	03:04:48.793	$GPGGA,030449,2512.8170,N,08018.5150,W,1,8,1.9,20,M,,M,,*52
06/04/2014	03:04:49.818	$GPGGA,030450,2512.8129,N,08018.5173,W,1,8,1.9,20,M,,M,,*57
06/04/2014	03:04:50.791	$GPGGA,030451,2512.8109,N,08018.5184,W,1,8,1.9,20,M,,M,,*5C
06/04/2014	03:04:51.805	$GPGGA,030452,2512.8109,N,08018.5184,W,1,8,1.9,21,M,,M,,*5E
06/04/2014	03:04:52.820	$GPGGA,030453,2512.8068,N,08018.5202,W,1,8,1.9,21,M,,M,,*54
06/04/2014	03:04:53.824	$GPGGA,030454,2512.8068,N,08018.5202,W,1,8,1.9,21,M,,M,,*53
06/04/2014	03:04:54.838	$GPGGA,030455,2512.8027,N,08018.5224,W,1,8,1.9,21,M,,M,,*5D
06/04/2014	03:04:55.974	$GPGGA,030456,2512.8006,N,08018.5232,W,1,8,1.9,21,M,,M,,*5A
06/04/2014	03:04:56.887	$GPGGA,030457,2512.7985,N,08018.5242,W,1,8,1.9,21,M,,M,,*51
06/04/2014	03:04:57.910	$GPGGA,030458,2512.7985,N,08018.5242,W,1,8,1.9,21,M,,M,,*5E
06/04/2014	03:04:58.884	$GPGGA,030459,2512.7944,N,08018.5261,W,1,8,1.9,21,M,,M,,*53
06/04/2014	03:05:00.030	$GPGGA,030500,2512.7923,N,08018.5271,W,1,8,1.9,21,M,,M,,*5E
06/04/2014	03:05:01.034	$GPGGA,030501,2512.7902,N,08018.5280,W,1,8,1.9,21,M,,M,,*52
06/04/2014	03:05:02.028	$GPGGA,030502,2512.7881,N,08018.5289,W,1,8,1.9,21,M,,M,,*52
06/04/2014	03:05:03.022	$GPGGA,030503,2512.7861,N,08018.5300,W,1,8,1.9,21,M,,M,,*5D
06/04/2014	03:05:04.057	$GPGGA,030504,2512.7840,N,08018.5308,W,1,8,1.9,21,M,,M,,*51
06/04/2014	03:05:05.080	$GPGGA,030505,2512.7819,N,08018.5318,W,1,8,1.9,21,M,,M,,*5D
06/04/2014	03:05:05.983	$GPGGA,030506,2512.7819,N,08018.5318,W,1,8,1.9,21,M,,M,,*5E
06/04/2014	03:05:07.068	$GPGGA,030507,2512.7777,N,08018.5336,W,1,8,1.9,21,M,,M,,*54
06/04/2014	03:05:08.133	$GPGGA,030508,2512.7757,N,08018.5343,W,1,8,1.9,21,M,,M,,*5B
06/04/2014	03:05:09.005	$GPGGA,030509,2512.7735,N,08018.5352,W,1,8,1.9,21,M,,M,,*5E
06/04/2014	03:05:10.111	$GPGGA,030510,2512.7714,N,08018.5361,W,1,8,1.9,21,M,,M,,*55
06/04/2014	03:05:11.123	$GPGGA,030511,2512.7693,N,08018.5370,W,1,8,1.9,21,M,,M,,*5A
06/04/2014	03:05:12.141	$GPGGA,030512,2512.7672,N,08018.5379,W,1,8,1.9,21,M,,M,,*5F
06/04/2014	03:05:13.127	$GPGGA,030513,2512.7652,N,08018.5387,W,1,8,1.9,21,M,,M,,*5D
06/04/2014	03:05:14.153	$GPGGA,030514,2512.7630,N,08018.5397,W,1,8,1.9,21,M,,M,,*5F
06/04/2014	03:05:15.160	$GPGGA,030515,2512.7609,N,08018.5405,W,1,8,1.9,21,M,,M,,*58
06/04/2014	03:05:16.156	$GPGGA,030516,2512.7589,N,08018.5413,W,1,8,1.9,21,M,,M,,*57
06/04/2014	03:05:17.173	$GPGGA,030517,2512.7569,N,08018.5423,W,1,8,1.9,22,M,,M,,*58
06/04/2014	03:05:18.159	$GPGGA,030518,2512.7547,N,08018.5431,W,1,8,1.9,22,M,,M,,*58
06/04/2014	03:05:19.156	$GPGGA,030519,2512.7526,N,08018.5439,W,1,8,1.9,22,M,,M,,*56
06/04/2014	03:05:20.183	$GPGGA,030520,2512.7505,N,08018.5448,W,1,8,1.9,22,M,,M,,*5B
06/04/2014	03:05:21.189	$GPGGA,030521,2512.7486,N,08018.5457,W,1,8,1.9,22,M,,M,,*5E
06/04/2014	03:05:22.176	$GPGGA,030522,2512.7464,N,08018.5466,W,1,8,1.9,22,M,,M,,*53
06/04/2014	03:05:24.219	$GPGGA,030524,2512.7422,N,08018.5484,W,1,8,1.9,22,M,,M,,*5B
06/04/2014	03:05:25.206	$GPGGA,030525,2512.7401,N,08018.5495,W,1,8,1.9,22,M,,M,,*5B
06/04/2014	03:05:26.183	$GPGGA,030526,2512.7381,N,08018.5503,W,1,8,1.9,22,M,,M,,*59
06/04/2014	03:05:27.219	$GPGGA,030527,2512.7359,N,08018.5513,W,1,8,1.9,22,M,,M,,*5C
06/04/2014	03:05:28.216	$GPGGA,030528,2512.7338,N,08018.5522,W,1,8,1.9,22,M,,M,,*56
06/04/2014	03:05:29.233	$GPGGA,030529,2512.7318,N,08018.5531,W,1,8,1.9,22,M,,M,,*57
06/04/2014	03:05:30.199	$GPGGA,030530,2512.7298,N,08018.5542,W,1,8,1.9,22,M,,M,,*52
06/04/2014	03:05:31.247	$GPGGA,030531,2512.7276,N,08018.5550,W,1,8,1.9,22,M,,M,,*50
06/04/2014	03:05:31.535	$GPGGA,030532,2512.7255,N,08018.5560,W,1,8,1.9,22,M,,M,,*51
06/04/2014	03:05:32.551	$GPGGA,030533,2512.7235,N,08018.5571,W,1,8,1.9,22,M,,M,,*56
06/04/2014	03:05:33.528	$GPGGA,030534,2512.7215,N,08018.5581,W,1,8,1.9,22,M,,M,,*5C
06/04/2014	03:05:34.544	$GPGGA,030535,2512.7195,N,08018.5590,W,1,8,1.9,22,M,,M,,*56
06/04/2014	03:05:35.551	$GPGGA,030536,2512.7175,N,08018.5600,W,1,8,1.9,22,M,,M,,*51
06/04/2014	03:05:36.548	$GPGGA,030537,2512.7154,N,08018.5611,W,1,8,1.9,22,M,,M,,*53
06/04/2014	03:05:37.544	$GPGGA,030538,2512.7133,N,08018.5621,W,1,8,1.9,22,M,,M,,*5E
06/04/2014	03:05:38.571	$GPGGA,030539,2512.7113,N,08018.5632,W,1,8,1.9,22,M,,M,,*5F
06/04/2014	03:05:39.558	$GPGGA,030540,2512.7093,N,08018.5643,W,1,8,1.9,22,M,,M,,*5E
06/04/2014	03:05:40.595	$GPGGA,030541,2512.7074,N,08018.5654,W,1,8,1.9,22,M,,M,,*50
06/04/2014	03:05:41.581	$GPGGA,030542,2512.7053,N,08018.5665,W,1,8,1.9,22,M,,M,,*54
06/04/2014	03:05:42.588	$GPGGA,030543,2512.7032,N,08018.5676,W,1,8,1.9,22,M,,M,,*50
06/04/2014	03:05:43.585	$GPGGA,030544,2512.7012,N,08018.5687,W,1,8,1.9,22,M,,M,,*5B
06/04/2014	03:05:44.702	$GPGGA,030545,2512.6993,N,08018.5699,W,1,8,1.9,21,M,,M,,*57
06/04/2014	03:05:45.598	$GPGGA,030546,2512.6973,N,08018.5712,W,1,8,1.9,21,M,,M,,*58
06/04/2014	03:05:46.584	$GPGGA,030547,2512.6953,N,08018.5723,W,1,8,1.9,21,M,,M,,*59
06/04/2014	03:05:47.722	$GPGGA,030548,2512.6934,N,08018.5735,W,1,8,1.9,21,M,,M,,*50
06/04/2014	03:05:48.598	$GPGGA,030549,2512.6915,N,08018.5746,W,1,8,1.9,21,M,,M,,*56
06/04/2014	03:05:49.615	$GPGGA,030550,2512.6894,N,08018.5759,W,1,8,1.9,21,M,,M,,*58
06/04/2014	03:05:50.612	$GPGGA,030551,2512.6875,N,08018.5771,W,1,8,1.9,21,M,,M,,*5C
06/04/2014	03:05:51.637	$GPGGA,030552,2512.6854,N,08018.5784,W,1,8,1.9,21,M,,M,,*56
06/04/2014	03:05:52.714	$GPGGA,030553,2512.6835,N,08018.5796,W,1,8,1.9,21,M,,M,,*53
06/04/2014	03:05:53.630	$GPGGA,030554,2512.6815,N,08018.5809,W,1,8,1.9,21,M,,M,,*5F
06/04/2014	03:05:54.627	$GPGGA,030555,2512.6796,N,08018.5820,W,1,8,1.9,21,M,,M,,*51
06/04/2014	03:05:55.754	$GPGGA,030556,2512.6776,N,08018.5832,W,1,8,1.9,21,M,,M,,*5F
06/04/2014	03:05:56.741	$GPGGA,030557,2512.6757,N,08018.5845,W,1,8,1.9,21,M,,M,,*5D
06/04/2014	03:05:57.738	$GPGGA,030558,2512.6738,N,08018.5857,W,1,8,1.9,21,M,,M,,*58
06/04/2014	03:05:58.775	$GPGGA,030559,2512.6717,N,08018.5870,W,1,8,1.9,21,M,,M,,*51
06/04/2014	03:05:59.771	$GPGGA,030600,2512.6698,N,08018.5882,W,1,8,1.9,21,M,,M,,*55
06/04/2014	03:06:00.778	$GPGGA,030601,2512.6678,N,08018.5894,W,1,8,1.9,21,M,,M,,*5D
06/04/2014	03:06:01.764	$GPGGA,030602,2512.6658,N,08018.5907,W,1,8,1.9,21,M,,M,,*57
06/04/2014	03:06:02.781	$GPGGA,030603,2512.6638,N,08018.5919,W,1,8,1.9,21,M,,M,,*5F
06/04/2014	03:06:03.778	$GPGGA,030604,2512.6618,N,08018.5932,W,1,8,1.9,21,M,,M,,*53
06/04/2014	03:06:04.785	$GPGGA,030605,2512.6598,N,08018.5944,W,1,8,1.9,21,M,,M,,*58
06/04/2014	03:06:05.781	$GPGGA,030606,2512.6579,N,08018.5957,W,1,8,1.9,21,M,,M,,*56
06/04/2014	03:06:06.778	$GPGGA,030607,2512.6559,N,08018.5968,W,1,8,1.9,21,M,,M,,*59
06/04/2014	03:06:07.804	$GPGGA,030608,2512.6539,N,08018.5982,W,1,8,1.9,21,M,,M,,*54
06/04/2014	03:06:08.810	$GPGGA,030609,2512.6519,N,08018.5993,W,1,8,1.9,21,M,,M,,*57
06/04/2014	03:06:09.797	$GPGGA,030610,2512.6499,N,08018.6005,W,1,8,1.9,20,M,,M,,*52
06/04/2014	03:06:10.824	$GPGGA,030611,2512.6479,N,08018.6017,W,1,8,1.9,20,M,,M,,*5E
06/04/2014	03:06:11.820	$GPGGA,030612,2512.6460,N,08018.6030,W,1,8,1.9,20,M,,M,,*50
06/04/2014	03:06:12.827	$GPGGA,030613,2512.6439,N,08018.6040,W,1,8,1.9,20,M,,M,,*5A
06/04/2014	03:06:13.804	$GPGGA,030614,2512.6420,N,08018.6052,W,1,8,1.9,20,M,,M,,*56
06/04/2014	03:06:14.810	$GPGGA,030615,2512.6399,N,08018.6064,W,1,8,1.9,20,M,,M,,*57
06/04/2014	03:06:15.837	$GPGGA,030616,2512.6380,N,08018.6077,W,1,8,1.9,20,M,,M,,*5E
06/04/2014	03:06:16.824	$GPGGA,030617,2512.6360,N,08018.6087,W,1,8,1.9,20,M,,M,,*5E
06/04/2014	03:06:17.840	$GPGGA,030618,2512.6340,N,08018.6098,W,1,8,1.9,20,M,,M,,*5D
06/04/2014	03:06:18.877	$GPGGA,030619,2512.6319,N,08018.6110,W,1,8,1.9,20,M,,M,,*51
06/04/2014	03:06:19.854	$GPGGA,030620,2512.6299,N,08018.6121,W,1,8,1.9,20,M,,M,,*50
06/04/2014	03:06:20.850	$GPGGA,030621,2512.6279,N,08018.6134,W,1,8,1.9,20,M,,M,,*5B
06/04/2014	03:06:21.857	$GPGGA,030622,2512.6259,N,08018.6145,W,1,8,1.9,20,M,,M,,*5C
06/04/2014	03:06:22.854	$GPGGA,030623,2512.6238,N,08018.6156,W,1,8,1.9,20,M,,M,,*58
06/04/2014	03:06:23.882	$GPGGA,030624,2512.6218,N,08018.6167,W,1,8,1.9,20,M,,M,,*5F
06/04/2014	03:06:24.897	$GPGGA,030625,2512.6198,N,08018.6178,W,1,8,1.9,19,M,,M,,*51
06/04/2014	03:06:25.863	$GPGGA,030626,2512.6178,N,08018.6189,W,1,8,1.9,19,M,,M,,*52
06/04/2014	03:06:26.900	$GPGGA,030627,2512.6157,N,08018.6199,W,1,8,1.9,19,M,,M,,*5F
06/04/2014	03:06:28.007	$GPGGA,030628,2512.6138,N,08018.6210,W,1,8,1.9,19,M,,M,,*5B
06/04/2014	03:06:28.913	$GPGGA,030629,2512.6116,N,08018.6221,W,1,8,1.9,19,M,,M,,*54
06/04/2014	03:06:29.900	$GPGGA,030630,2512.6096,N,08018.6230,W,1,8,1.9,19,M,,M,,*55
06/04/2014	03:06:30.906	$GPGGA,030631,2512.6077,N,08018.6241,W,1,8,1.9,19,M,,M,,*5D
06/04/2014	03:06:31.522	$GPGGA,030632,2512.6055,N,08018.6251,W,1,8,1.9,19,M,,M,,*5F
06/04/2014	03:06:32.519	$GPGGA,030633,2512.6034,N,08018.6262,W,1,8,1.9,19,M,,M,,*59
06/04/2014	03:06:33.515	$GPGGA,030634,2512.6014,N,08018.6272,W,1,8,1.9,19,M,,M,,*5D
06/04/2014	03:06:34.512	$GPGGA,030635,2512.5993,N,08018.6283,W,1,8,1.9,19,M,,M,,*57
06/04/2014	03:06:35.539	$GPGGA,030636,2512.5973,N,08018.6293,W,1,8,1.9,19,M,,M,,*5B
06/04/2014	03:06:36.534	$GPGGA,030637,2512.5952,N,08018.6304,W,1,8,1.9,19,M,,M,,*56
06/04/2014	03:06:37.522	$GPGGA,030638,2512.5932,N,08018.6315,W,1,8,1.9,18,M,,M,,*5E
06/04/2014	03:06:38.540	$GPGGA,030639,2512.5911,N,08018.6324,W,1,8,1.9,18,M,,M,,*5C
06/04/2014	03:06:39.666	$GPGGA,030640,2512.5890,N,08018.6335,W,1,8,1.9,18,M,,M,,*5A
06/04/2014	03:06:40.644	$GPGGA,030641,2512.5869,N,08018.6345,W,1,8,1.9,18,M,,M,,*5A
06/04/2014	03:06:41.550	$GPGGA,030642,2512.5849,N,08018.6355,W,1,8,1.9,18,M,,M,,*5A
06/04/2014	03:06:42.645	$GPGGA,030643,2512.5827,N,08018.6366,W,1,8,1.9,18,M,,M,,*53
06/04/2014	03:06:43.662	$GPGGA,030644,2512.5807,N,08018.6376,W,1,8,1.9,18,M,,M,,*57
06/04/2014	03:06:44.659	$GPGGA,030645,2512.5786,N,08018.6387,W,1,8,1.9,18,M,,M,,*5E
06/04/2014	03:06:45.665	$GPGGA,030646,2512.5766,N,08018.6396,W,1,8,1.9,18,M,,M,,*53
06/04/2014	03:06:46.662	$GPGGA,030647,2512.5744,N,08018.6406,W,1,8,1.9,18,M,,M,,*5C
06/04/2014	03:06:47.689	$GPGGA,030648,2512.5724,N,08018.6416,W,1,8,1.9,18,M,,M,,*54
06/04/2014	03:06:48.685	$GPGGA,030649,2512.5703,N,08018.6427,W,1,8,1.9,18,M,,M,,*52
06/04/2014	03:06:49.682	$GPGGA,030650,2512.5683,N,08018.6436,W,1,8,2.3,18,M,,M,,*5A
06/04/2014	03:06:50.699	$GPGGA,030651,2512.5661,N,08018.6446,W,1,7,2.3,18,M,,M,,*5F
06/04/2014	03:06:51.716	$GPGGA,030652,2512.5641,N,08018.6456,W,1,7,2.3,18,M,,M,,*5F
06/04/2014	03:06:52.692	$GPGGA,030653,2512.5621,N,08018.6467,W,1,8,1.9,18,M,,M,,*5C
06/04/2014	03:06:53.699	$GPGGA,030654,2512.5600,N,08018.6478,W,1,8,1.9,18,M,,M,,*56
06/04/2014	03:06:54.695	$GPGGA,030655,2512.5579,N,08018.6489,W,1,8,1.9,18,M,,M,,*54
06/04/2014	03:06:55.722	$GPGGA,030656,2512.5560,N,08018.6500,W,1,8,1.9,18,M,,M,,*5F
06/04/2014	03:06:56.729	$GPGGA,030657,2512.5538,N,08018.6511,W,1,8,1.9,18,M,,M,,*53
06/04/2014	03:06:57.716	$GPGGA,030658,2512.5518,N,08018.6522,W,1,8,1.9,18,M,,M,,*5E
06/04/2014	03:06:58.712	$GPGGA,030659,2512.5497,N,08018.6533,W,1,8,1.9,17,M,,M,,*56
06/04/2014	03:06:59.739	$GPGGA,030700,2512.5477,N,08018.6544,W,1,8,1.9,17,M,,M,,*55
06/04/2014	03:07:00.745	$GPGGA,030701,2512.5457,N,08018.6557,W,1,8,1.9,17,M,,M,,*54
06/04/2014	03:07:01.731	$GPGGA,030702,2512.5436,N,08018.6568,W,1,8,1.9,17,M,,M,,*5C
06/04/2014	03:07:02.758	$GPGGA,030703,2512.5416,N,08018.6579,W,1,8,1.9,18,M,,M,,*50
06/04/2014	03:07:03.775	$GPGGA,030704,2512.5396,N,08018.6590,W,1,8,1.9,18,M,,M,,*5F
06/04/2014	03:07:04.751	$GPGGA,030705,2512.5376,N,08018.6601,W,1,8,1.9,18,M,,M,,*5B
06/04/2014	03:07:05.758	$GPGGA,030706,2512.5356,N,08018.6613,W,1,8,1.9,18,M,,M,,*59
06/04/2014	03:07:06.755	$GPGGA,030707,2512.5336,N,08018.6626,W,1,8,1.9,18,M,,M,,*58
06/04/2014	03:07:07.782	$GPGGA,030708,2512.5316,N,08018.6637,W,1,8,1.9,18,M,,M,,*55
06/04/2014	03:07:08.798	$GPGGA,030709,2512.5296,N,08018.6648,W,1,8,1.9,18,M,,M,,*55
06/04/2014	03:07:09.775	$GPGGA,030710,2512.5276,N,08018.6660,W,1,8,1.9,18,M,,M,,*59
06/04/2014	03:07:10.761	$GPGGA,030711,2512.5257,N,08018.6673,W,1,8,1.9,18,M,,M,,*59
06/04/2014	03:07:11.798	$GPGGA,030712,2512.5237,N,08018.6684,W,1,8,1.9,18,M,,M,,*54
06/04/2014	03:07:12.896	$GPGGA,030713,2512.5217,N,08018.6696,W,1,8,1.9,18,M,,M,,*54
06/04/2014	03:07:13.792	$GPGGA,030714,2512.5196,N,08018.6709,W,1,8,1.9,18,M,,M,,*5E
06/04/2014	03:07:14.798	$GPGGA,030715,2512.5177,N,08018.6720,W,1,8,1.9,18,M,,M,,*5B
06/04/2014	03:07:15.926	$GPGGA,030716,2512.5156,N,08018.6731,W,1,8,1.9,18,M,,M,,*5B
06/04/2014	03:07:16.932	$GPGGA,030717,2512.5136,N,08018.6743,W,1,8,1.9,18,M,,M,,*59
06/04/2014	03:07:17.807	$GPGGA,030718,2512.5116,N,08018.6756,W,1,8,1.9,18,M,,M,,*50
06/04/2014	03:07:18.925	$GPGGA,030719,2512.5096,N,08018.6767,W,1,8,1.9,18,M,,M,,*5A
06/04/2014	03:07:19.841	$GPGGA,030720,2512.5076,N,08018.6778,W,1,8,1.9,18,M,,M,,*50
06/04/2014	03:07:20.918	$GPGGA,030721,2512.5056,N,08018.6790,W,1,8,1.9,19,M,,M,,*54
06/04/2014	03:07:21.834	$GPGGA,030722,2512.5036,N,08018.6803,W,1,8,1.9,19,M,,M,,*54
06/04/2014	03:07:22.831	$GPGGA,030723,2512.5016,N,08018.6814,W,1,8,1.9,19,M,,M,,*51
06/04/2014	03:07:23.958	$GPGGA,030724,2512.4996,N,08018.6825,W,1,8,1.9,19,M,,M,,*54
06/04/2014	03:07:24.864	$GPGGA,030725,2512.4976,N,08018.6836,W,1,8,1.9,19,M,,M,,*59
06/04/2014	03:07:25.831	$GPGGA,030726,2512.4957,N,08018.6848,W,1,8,1.9,19,M,,M,,*50
06/04/2014	03:07:26.868	$GPGGA,030727,2512.4936,N,08018.6861,W,1,8,1.9,19,M,,M,,*5D
06/04/2014	03:07:27.854	$GPGGA,030728,2512.4915,N,08018.6871,W,1,8,1.9,19,M,,M,,*52
06/04/2014	03:07:28.992	$GPGGA,030729,2512.4895,N,08018.6883,W,1,8,1.9,19,M,,M,,*57
06/04/2014	03:07:29.968	$GPGGA,030730,2512.4875,N,08018.6895,W,1,8,1.9,19,M,,M,,*56
06/04/2014	03:07:30.975	$GPGGA,030731,2512.4855,N,08018.6907,W,1,8,1.9,19,M,,M,,*5F
06/04/2014	03:07:31.602	$GPGGA,030732,2512.4835,N,08018.6918,W,1,8,1.9,19,M,,M,,*54
06/04/2014	03:07:32.606	$GPGGA,030733,2512.4816,N,08018.6929,W,1,8,1.9,19,M,,M,,*56
06/04/2014	03:07:33.585	$GPGGA,030734,2512.4795,N,08018.6940,W,1,8,1.9,19,M,,M,,*5A
06/04/2014	03:07:34.603	$GPGGA,030735,2512.4774,N,08018.6951,W,1,8,1.9,19,M,,M,,*54
06/04/2014	03:07:35.607	$GPGGA,030736,2512.4754,N,08018.6963,W,1,8,1.9,19,M,,M,,*54
06/04/2014	03:07:36.614	$GPGGA,030737,2512.4734,N,08018.6974,W,1,8,1.9,19,M,,M,,*55
06/04/2014	03:07:37.602	$GPGGA,030738,2512.4715,N,08018.6985,W,1,8,1.9,19,M,,M,,*57
06/04/2014	03:07:38.597	$GPGGA,030739,2512.4694,N,08018.6996,W,1,8,1.9,19,M,,M,,*5C
06/04/2014	03:07:39.624	$GPGGA,030740,2512.4673,N,08018.7008,W,1,8,1.9,19,M,,M,,*54
06/04/2014	03:07:40.631	$GPGGA,030741,2512.4653,N,08018.7019,W,1,8,2.0,19,M,,M,,*5D
06/04/2014	03:07:41.617	$GPGGA,030742,2512.4633,N,08018.7030,W,1,8,2.0,19,M,,M,,*53
06/04/2014	03:07:42.634	$GPGGA,030743,2512.4612,N,08018.7041,W,1,8,2.0,19,M,,M,,*57
06/04/2014	03:07:43.641	$GPGGA,030744,2512.4592,N,08018.7052,W,1,8,2.0,19,M,,M,,*59
06/04/2014	03:07:44.648	$GPGGA,030745,2512.4572,N,08018.7063,W,1,8,2.0,19,M,,M,,*54
06/04/2014	03:07:45.624	$GPGGA,030746,2512.4552,N,08018.7072,W,1,8,2.0,19,M,,M,,*55
06/04/2014	03:07:46.631	$GPGGA,030747,2512.4532,N,08018.7084,W,1,8,2.0,19,M,,M,,*5B
06/04/2014	03:07:47.668	$GPGGA,030748,2512.4512,N,08018.7093,W,1,8,2.0,19,M,,M,,*50
06/04/2014	03:07:48.655	$GPGGA,030749,2512.4492,N,08018.7104,W,1,8,2.0,19,M,,M,,*57
06/04/2014	03:07:49.651	$GPGGA,030750,2512.4473,N,08018.7114,W,1,8,2.0,19,M,,M,,*51
06/04/2014	03:07:50.688	$GPGGA,030751,2512.4452,N,08018.7125,W,1,8,2.0,19,M,,M,,*51
06/04/2014	03:07:51.674	$GPGGA,030752,2512.4431,N,08018.7135,W,1,8,2.0,19,M,,M,,*56
06/04/2014	03:07:52.700	$GPGGA,030753,2512.4411,N,08018.7146,W,1,8,2.0,19,M,,M,,*51
06/04/2014	03:07:53.667	$GPGGA,030754,2512.4391,N,08018.7157,W,1,8,2.0,19,M,,M,,*59
06/04/2014	03:07:54.683	$GPGGA,030755,2512.4370,N,08018.7167,W,1,8,2.0,19,M,,M,,*54
06/04/2014	03:07:55.690	$GPGGA,030756,2512.4350,N,08018.7176,W,1,8,2.0,19,M,,M,,*55
06/04/2014	03:07:56.717	$GPGGA,030757,2512.4330,N,08018.7187,W,1,8,2.0,19,M,,M,,*5C
06/04/2014	03:07:57.693	$GPGGA,030758,2512.4310,N,08018.7197,W,1,8,2.0,19,M,,M,,*50
06/04/2014	03:07:58.730	$GPGGA,030759,2512.4289,N,08018.7207,W,1,7,2.3,19,M,,M,,*56
06/04/2014	03:07:59.727	$GPGGA,030800,2512.4269,N,08018.7218,W,1,7,2.3,19,M,,M,,*55
06/04/2014	03:08:00.713	$GPGGA,030801,2512.4249,N,08018.7229,W,1,7,2.3,19,M,,M,,*54
06/04/2014	03:08:01.720	$GPGGA,030802,2512.4228,N,08018.7241,W,1,7,2.0,19,M,,M,,*5D
06/04/2014	03:08:02.757	$GPGGA,030803,2512.4209,N,08018.7251,W,1,8,2.0,19,M,,M,,*51
06/04/2014	03:08:03.744	$GPGGA,030804,2512.4188,N,08018.7262,W,1,8,2.0,19,M,,M,,*5C
06/04/2014	03:08:04.730	$GPGGA,030805,2512.4167,N,08018.7274,W,1,8,2.0,19,M,,M,,*5B
06/04/2014	03:08:05.818	$GPGGA,030806,2512.4147,N,08018.7285,W,1,8,2.0,19,M,,M,,*54
06/04/2014	03:08:06.844	$GPGGA,030807,2512.4127,N,08018.7296,W,1,8,2.0,19,M,,M,,*51
06/04/2014	03:08:07.740	$GPGGA,030808,2512.4108,N,08018.7308,W,1,8,2.0,19,M,,M,,*55
06/04/2014	03:08:08.757	$GPGGA,030809,2512.4087,N,08018.7317,W,1,8,2.0,19,M,,M,,*5C
06/04/2014	03:08:09.864	$GPGGA,030810,2512.4066,N,08018.7328,W,1,8,2.0,20,M,,M,,*5D
06/04/2014	03:08:10.755	$GPGGA,030811,2512.4046,N,08018.7339,W,1,8,2.0,20,M,,M,,*5E
06/04/2014	03:08:11.887	$GPGGA,030812,2512.4026,N,08018.7350,W,1,8,2.0,20,M,,M,,*54
06/04/2014	03:08:12.793	$GPGGA,030813,2512.4005,N,08018.7360,W,1,8,2.0,20,M,,M,,*57
06/04/2014	03:08:13.759	$GPGGA,030814,2512.3985,N,08018.7371,W,1,8,2.0,20,M,,M,,*56
06/04/2014	03:08:14.756	$GPGGA,030815,2512.3965,N,08018.7382,W,1,8,2.0,20,M,,M,,*55
06/04/2014	03:08:15.904	$GPGGA,030816,2512.3945,N,08018.7393,W,1,8,2.0,20,M,,M,,*54
06/04/2014	03:08:16.910	$GPGGA,030817,2512.3927,N,08018.7404,W,1,8,2.0,20,M,,M,,*58
06/04/2014	03:08:17.786	$GPGGA,030818,2512.3905,N,08018.7415,W,1,8,2.0,20,M,,M,,*57
06/04/2014	03:08:18.914	$GPGGA,030819,2512.3886,N,08018.7426,W,1,8,2.0,20,M,,M,,*5C
06/04/2014	03:08:19.940	$GPGGA,030820,2512.3866,N,08018.7438,W,1,8,2.0,20,M,,M,,*57
06/04/2014	03:08:20.927	$GPGGA,030821,2512.3846,N,08018.7449,W,1,8,2.0,20,M,,M,,*52
06/04/2014	03:08:21.914	$GPGGA,030822,2512.3826,N,08018.7460,W,1,8,2.0,20,M,,M,,*5C
06/04/2014	03:08:22.910	$GPGGA,030823,2512.3808,N,08018.7471,W,1,8,2.0,20,M,,M,,*51
06/04/2014	03:08:23.957	$GPGGA,030824,2512.3787,N,08018.7482,W,1,8,2.0,20,M,,M,,*52
06/04/2014	03:08:24.936	$GPGGA,030825,2512.3768,N,08018.7493,W,1,8,2.0,20,M,,M,,*52
06/04/2014	03:08:25.920	$GPGGA,030826,2512.3747,N,08018.7505,W,1,8,2.0,21,M,,M,,*53
06/04/2014	03:08:26.948	$GPGGA,030827,2512.3728,N,08018.7516,W,1,8,2.0,21,M,,M,,*59
06/04/2014	03:08:27.943	$GPGGA,030828,2512.3708,N,08018.7529,W,1,8,2.0,21,M,,M,,*58
06/04/2014	03:08:28.939	$GPGGA,030829,2512.3689,N,08018.7540,W,1,8,2.0,21,M,,M,,*5E
06/04/2014	03:08:29.946	$GPGGA,030830,2512.3669,N,08018.7551,W,1,8,2.0,21,M,,M,,*58
06/04/2014	03:08:30.963	$GPGGA,030831,2512.3649,N,08018.7562,W,1,8,2.0,21,M,,M,,*5B
06/04/2014	03:08:31.559	$GPGGA,030832,2512.3629,N,08018.7574,W,1,8,2.0,21,M,,M,,*59
06/04/2014	03:08:32.546	$GPGGA,030833,2512.3609,N,08018.7585,W,1,8,2.0,21,M,,M,,*54
06/04/2014	03:08:33.573	$GPGGA,030834,2512.3591,N,08018.7598,W,1,8,2.0,21,M,,M,,*5D
06/04/2014	03:08:34.580	$GPGGA,030835,2512.3570,N,08018.7608,W,1,8,2.0,21,M,,M,,*59
06/04/2014	03:08:35.586	$GPGGA,030836,2512.3551,N,08018.7620,W,1,8,2.0,21,M,,M,,*53
06/04/2014	03:08:36.563	$GPGGA,030837,2512.3531,N,08018.7631,W,1,8,2.0,21,M,,M,,*54
06/04/2014	03:08:37.590	$GPGGA,030838,2512.3512,N,08018.7644,W,1,8,2.0,21,M,,M,,*58
06/04/2014	03:08:38.596	$GPGGA,030839,2512.3492,N,08018.7655,W,1,8,2.0,21,M,,M,,*50
06/04/2014	03:08:39.603	$GPGGA,030840,2512.3473,N,08018.7666,W,1,8,2.0,21,M,,M,,*51
06/04/2014	03:08:40.620	$GPGGA,030841,2512.3454,N,08018.7677,W,1,8,2.0,21,M,,M,,*55
06/04/2014	03:08:41.586	$GPGGA,030842,2512.3433,N,08018.7689,W,1,8,2.0,21,M,,M,,*56
06/04/2014	03:08:42.633	$GPGGA,030843,2512.3414,N,08018.7700,W,1,8,2.0,20,M,,M,,*53
06/04/2014	03:08:43.620	$GPGGA,030844,2512.3394,N,08018.7713,W,1,8,2.0,20,M,,M,,*59
06/04/2014	03:08:44.606	$GPGGA,030845,2512.3375,N,08018.7724,W,1,8,2.0,20,M,,M,,*53
06/04/2014	03:08:45.632	$GPGGA,030846,2512.3355,N,08018.7735,W,1,8,2.0,20,M,,M,,*52
06/04/2014	03:08:46.639	$GPGGA,030847,2512.3335,N,08018.7746,W,1,8,2.0,20,M,,M,,*51
06/04/2014	03:08:47.635	$GPGGA,030848,2512.3316,N,08018.7758,W,1,8,2.0,20,M,,M,,*50
06/04/2014	03:08:48.612	$GPGGA,030849,2512.3296,N,08018.7769,W,1,8,2.0,20,M,,M,,*5A
06/04/2014	03:08:49.649	$GPGGA,030850,2512.3277,N,08018.7780,W,1,8,2.0,20,M,,M,,*5A
06/04/2014	03:08:50.666	$GPGGA,030851,2512.3257,N,08018.7793,W,1,8,2.0,20,M,,M,,*5B
06/04/2014	03:08:51.652	$GPGGA,030852,2512.3237,N,08018.7803,W,1,8,2.0,20,M,,M,,*58
06/04/2014	03:08:52.669	$GPGGA,030853,2512.3219,N,08018.7815,W,1,8,2.0,20,M,,M,,*52
06/04/2014	03:08:53.655	$GPGGA,030854,2512.3198,N,08018.7826,W,1,8,2.0,20,M,,M,,*5F
06/04/2014	03:08:54.652	$GPGGA,030855,2512.3178,N,08018.7837,W,1,8,2.0,20,M,,M,,*50
06/04/2014	03:08:55.689	$GPGGA,030856,2512.3159,N,08018.7848,W,1,8,2.0,20,M,,M,,*58
06/04/2014	03:08:56.686	$GPGGA,030857,2512.3139,N,08018.7861,W,1,8,2.1,20,M,,M,,*55
06/04/2014	03:08:57.692	$GPGGA,030858,2512.3120,N,08018.7872,W,1,8,2.1,20,M,,M,,*50
06/04/2014	03:08:58.699	$GPGGA,030859,2512.3101,N,08018.7883,W,1,7,2.0,20,M,,M,,*52
06/04/2014	03:08:59.726	$GPGGA,030900,2512.3083,N,08018.7895,W,1,7,2.0,20,M,,M,,*53
06/04/2014	03:09:00.702	$GPGGA,030901,2512.3064,N,08018.7908,W,1,8,2.0,19,M,,M,,*5B
06/04/2014	03:09:01.689	$GPGGA,030902,2512.3046,N,08018.7919,W,1,8,2.0,19,M,,M,,*58
06/04/2014	03:09:02.785	$GPGGA,030903,2512.3026,N,08018.7930,W,1,8,2.0,19,M,,M,,*54
06/04/2014	03:09:03.721	$GPGGA,030904,2512.3007,N,08018.7941,W,1,8,2.0,19,M,,M,,*56
06/04/2014	03:09:04.810	$GPGGA,030905,2512.2988,N,08018.7952,W,1,8,2.0,19,M,,M,,*5A
06/04/2014	03:09:05.725	$GPGGA,030906,2512.2968,N,08018.7963,W,1,8,2.0,19,M,,M,,*55
06/04/2014	03:09:07.829	$GPGGA,030908,2512.2928,N,08018.7984,W,1,8,2.0,19,M,,M,,*56
06/04/2014	03:09:08.735	$GPGGA,030909,2512.2909,N,08018.7995,W,1,8,2.0,19,M,,M,,*54
06/04/2014	03:09:09.812	$GPGGA,030910,2512.2889,N,08018.8006,W,1,8,2.0,19,M,,M,,*59
06/04/2014	03:09:10.849	$GPGGA,030911,2512.2869,N,08018.8017,W,1,8,2.0,19,M,,M,,*56
06/04/2014	03:09:11.857	$GPGGA,030912,2512.2849,N,08018.8027,W,1,8,2.0,19,M,,M,,*54
06/04/2014	03:09:12.852	$GPGGA,030913,2512.2829,N,08018.8038,W,1,8,2.0,19,M,,M,,*5D
06/04/2014	03:09:13.849	$GPGGA,030914,2512.2808,N,08018.8047,W,1,8,2.0,19,M,,M,,*51
06/04/2014	03:09:14.866	$GPGGA,030915,2512.2789,N,08018.8057,W,1,8,2.0,19,M,,M,,*57
06/04/2014	03:09:15.862	$GPGGA,030916,2512.2768,N,08018.8067,W,1,8,2.0,19,M,,M,,*58
06/04/2014	03:09:16.869	$GPGGA,030917,2512.2748,N,08018.8076,W,1,7,2.3,19,M,,M,,*57
06/04/2014	03:09:17.866	$GPGGA,030918,2512.2728,N,08018.8087,W,1,7,2.3,19,M,,M,,*50
06/04/2014	03:09:18.882	$GPGGA,030919,2512.2706,N,08018.8097,W,1,8,2.0,19,M,,M,,*50
06/04/2014	03:09:19.869	$GPGGA,030920,2512.2686,N,08018.8107,W,1,8,2.0,19,M,,M,,*5B
06/04/2014	03:09:20.895	$GPGGA,030921,2512.2666,N,08018.8116,W,1,8,2.0,19,M,,M,,*54
06/04/2014	03:09:21.881	$GPGGA,030922,2512.2645,N,08018.8126,W,1,8,2.0,19,M,,M,,*55
06/04/2014	03:09:22.918	$GPGGA,030923,2512.2624,N,08018.8136,W,1,8,2.0,19,M,,M,,*52
06/04/2014	03:09:23.895	$GPGGA,030924,2512.2605,N,08018.8145,W,1,8,2.0,19,M,,M,,*52
06/04/2014	03:09:24.881	$GPGGA,030925,2512.2583,N,08018.8155,W,1,8,2.0,19,M,,M,,*5F
06/04/2014	03:09:25.888	$GPGGA,030926,2512.2563,N,08018.8165,W,1,8,2.0,19,M,,M,,*51
06/04/2014	03:09:26.925	$GPGGA,030927,2512.2542,N,08018.8173,W,1,8,2.0,19,M,,M,,*54
06/04/2014	03:09:27.942	$GPGGA,030928,2512.2522,N,08018.8183,W,1,8,2.0,19,M,,M,,*52
06/04/2014	03:09:28.938	$GPGGA,030929,2512.2501,N,08018.8193,W,1,8,2.0,19,M,,M,,*53
06/04/2014	03:09:29.915	$GPGGA,030930,2512.2482,N,08018.8201,W,1,8,2.0,19,M,,M,,*59
06/04/2014	03:09:30.911	$GPGGA,030931,2512.2460,N,08018.8210,W,1,8,2.0,19,M,,M,,*54
06/04/2014	03:09:31.528	$GPGGA,030932,2512.2460,N,08018.8210,W,1,8,2.0,19,M,,M,,*57
06/04/2014	03:09:32.525	$GPGGA,030933,2512.2419,N,08018.8230,W,1,8,2.0,19,M,,M,,*5A
06/04/2014	03:09:33.532	$GPGGA,030934,2512.2399,N,08018.8238,W,1,8,2.0,18,M,,M,,*5B
06/04/2014	03:09:34.538	$GPGGA,030935,2512.2378,N,08018.8248,W,1,8,2.0,18,M,,M,,*52
06/04/2014	03:09:35.565	$GPGGA,030936,2512.2359,N,08018.8258,W,1,8,2.3,18,M,,M,,*50
06/04/2014	03:09:36.572	$GPGGA,030937,2512.2337,N,08018.8267,W,1,7,2.3,18,M,,M,,*5A
06/04/2014	03:09:37.557	$GPGGA,030938,2512.2317,N,08018.8277,W,1,7,2.3,18,M,,M,,*56
06/04/2014	03:09:38.584	$GPGGA,030939,2512.2298,N,08018.8288,W,1,8,2.0,18,M,,M,,*5D
06/04/2014	03:09:39.581	$GPGGA,030940,2512.2276,N,08018.8296,W,1,8,2.0,18,M,,M,,*5C
06/04/2014	03:09:40.588	$GPGGA,030941,2512.2256,N,08018.8306,W,1,8,2.0,18,M,,M,,*57
06/04/2014	03:09:41.574	$GPGGA,030942,2512.2235,N,08018.8316,W,1,8,2.0,18,M,,M,,*50
06/04/2014	03:09:42.591	$GPGGA,030943,2512.2215,N,08018.8327,W,1,8,2.0,18,M,,M,,*51
06/04/2014	03:09:43.587	$GPGGA,030944,2512.2195,N,08018.8338,W,1,8,2.0,18,M,,M,,*53
06/04/2014	03:09:44.584	$GPGGA,030945,2512.2175,N,08018.8347,W,1,8,2.0,18,M,,M,,*54
06/04/2014	03:09:45.601	$GPGGA,030946,2512.2155,N,08018.8357,W,1,8,2.0,18,M,,M,,*54
06/04/2014	03:09:46.587	$GPGGA,030947,2512.2135,N,08018.8367,W,1,8,2.0,18,M,,M,,*50
06/04/2014	03:09:47.755	$GPGGA,030948,2512.2115,N,08018.8378,W,1,8,2.0,18,M,,M,,*53
06/04/2014	03:09:48.603	$GPGGA,030949,2512.2095,N,08018.8389,W,1,8,2.0,18,M,,M,,*55
06/04/2014	03:09:49.728	$GPGGA,030950,2512.2075,N,08018.8400,W,1,8,2.0,18,M,,M,,*55
06/04/2014	03:09:50.604	$GPGGA,030951,2512.2056,N,08018.8410,W,1,8,2.0,18,M,,M,,*54
06/04/2014	03:09:51.723	$GPGGA,030952,2512.2035,N,08018.8421,W,1,8,2.0,18,M,,M,,*50
06/04/2014	03:09:52.719	$GPGGA,030953,2512.2014,N,08018.8432,W,1,8,2.0,18,M,,M,,*50
06/04/2014	03:09:53.635	$GPGGA,030954,2512.1995,N,08018.8441,W,1,8,2.0,18,M,,M,,*50
06/04/2014	03:09:54.631	$GPGGA,030955,2512.1975,N,08018.8452,W,1,8,2.0,18,M,,M,,*5D
06/04/2014	03:09:55.747	$GPGGA,030956,2512.1955,N,08018.8464,W,1,8,2.0,18,M,,M,,*59
06/04/2014	03:09:56.643	$GPGGA,030957,2512.1935,N,08018.8473,W,1,8,2.0,18,M,,M,,*58
06/04/2014	03:09:57.751	$GPGGA,030958,2512.1915,N,08018.8484,W,1,8,2.0,18,M,,M,,*5D
06/04/2014	03:09:58.757	$GPGGA,030959,2512.1895,N,08018.8494,W,1,8,2.0,18,M,,M,,*54
06/04/2014	03:09:59.774	$GPGGA,031000,2512.1875,N,08018.8505,W,1,8,2.0,18,M,,M,,*57
06/04/2014	03:10:00.781	$GPGGA,031001,2512.1857,N,08018.8516,W,1,8,2.0,18,M,,M,,*54
06/04/2014	03:10:01.757	$GPGGA,031002,2512.1836,N,08018.8527,W,1,8,2.0,18,M,,M,,*52
06/04/2014	03:10:02.784	$GPGGA,031003,2512.1816,N,08018.8538,W,1,8,2.0,19,M,,M,,*5E
06/04/2014	03:10:03.781	$GPGGA,031004,2512.1797,N,08018.8549,W,1,8,2.0,19,M,,M,,*59
06/04/2014	03:10:04.788	$GPGGA,031005,2512.1777,N,08018.8560,W,1,8,2.0,19,M,,M,,*5D
06/04/2014	03:10:05.784	$GPGGA,031006,2512.1757,N,08018.8571,W,1,8,2.0,19,M,,M,,*5C
06/04/2014	03:10:06.791	$GPGGA,031007,2512.1738,N,08018.8582,W,1,8,2.0,19,M,,M,,*58
06/04/2014	03:10:07.808	$GPGGA,031008,2512.1718,N,08018.8595,W,1,8,2.0,19,M,,M,,*53
06/04/2014	03:10:08.814	$GPGGA,031009,2512.1699,N,08018.8606,W,1,7,2.1,19,M,,M,,*5D
06/04/2014	03:10:09.791	$GPGGA,031010,2512.1680,N,08018.8617,W,1,7,2.0,19,M,,M,,*5C
06/04/2014	03:10:10.827	$GPGGA,031011,2512.1660,N,08018.8628,W,1,8,2.0,19,M,,M,,*50
06/04/2014	03:10:11.812	$GPGGA,031012,2512.1641,N,08018.8641,W,1,8,2.0,19,M,,M,,*5F
06/04/2014	03:10:12.824	$GPGGA,031013,2512.1622,N,08018.8652,W,1,8,2.0,19,M,,M,,*59
06/04/2014	03:10:13.808	$GPGGA,031014,2512.1604,N,08018.8663,W,1,8,2.0,19,M,,M,,*58
06/04/2014	03:10:14.812	$GPGGA,031015,2512.1584,N,08018.8675,W,1,8,2.0,19,M,,M,,*55
06/04/2014	03:10:15.816	$GPGGA,031016,2512.1565,N,08018.8686,W,1,8,2.0,19,M,,M,,*55
06/04/2014	03:10:16.850	$GPGGA,031017,2512.1546,N,08018.8699,W,1,8,2.0,19,M,,M,,*5B
06/04/2014	03:10:17.804	$GPGGA,031018,2512.1527,N,08018.8710,W,1,8,2.0,19,M,,M,,*53
06/04/2014	03:10:18.828	$GPGGA,031019,2512.1508,N,08018.8721,W,1,8,2.0,19,M,,M,,*5D
06/04/2014	03:10:19.832	$GPGGA,031020,2512.1489,N,08018.8733,W,1,8,2.0,19,M,,M,,*5C
06/04/2014	03:10:20.856	$GPGGA,031021,2512.1469,N,08018.8744,W,1,8,2.0,19,M,,M,,*53
06/04/2014	03:10:21.820	$GPGGA,031022,2512.1450,N,08018.8755,W,1,8,2.0,19,M,,M,,*5A
06/04/2014	03:10:22.834	$GPGGA,031023,2512.1431,N,08018.8766,W,1,8,2.0,19,M,,M,,*5C
06/04/2014	03:10:23.828	$GPGGA,031024,2512.1411,N,08018.8777,W,1,8,2.0,19,M,,M,,*59
06/04/2014	03:10:24.852	$GPGGA,031025,2512.1391,N,08018.8788,W,1,8,2.0,19,M,,M,,*57
06/04/2014	03:10:25.826	$GPGGA,031026,2512.1371,N,08018.8800,W,1,8,2.0,19,M,,M,,*55
06/04/2014	03:10:26.840	$GPGGA,031027,2512.1351,N,08018.8809,W,1,8,2.0,19,M,,M,,*5F
06/04/2014	03:10:27.854	$GPGGA,031028,2512.1333,N,08018.8820,W,1,8,2.0,19,M,,M,,*5F
06/04/2014	03:10:28.858	$GPGGA,031029,2512.1312,N,08018.8831,W,1,8,2.0,19,M,,M,,*5D
06/04/2014	03:10:29.832	$GPGGA,031030,2512.1292,N,08018.8842,W,1,8,2.0,19,M,,M,,*58
06/04/2014	03:10:30.845	$GPGGA,031031,2512.1272,N,08018.8852,W,1,8,2.0,19,M,,M,,*56
06/04/2014	03:10:31.503	$GPGGA,031032,2512.1252,N,08018.8862,W,1,8,2.0,19,M,,M,,*54
06/04/2014	03:10:32.517	$GPGGA,031033,2512.1232,N,08018.8873,W,1,8,2.0,19,M,,M,,*53
06/04/2014	03:10:33.501	$GPGGA,031034,2512.1212,N,08018.8884,W,1,8,2.0,19,M,,M,,*5E
06/04/2014	03:10:34.525	$GPGGA,031035,2512.1192,N,08018.8895,W,1,8,2.0,19,M,,M,,*54
06/04/2014	03:10:35.519	$GPGGA,031036,2512.1172,N,08018.8905,W,1,8,2.0,19,M,,M,,*51
06/04/2014	03:10:36.503	$GPGGA,031037,2512.1152,N,08018.8914,W,1,8,2.0,19,M,,M,,*52
06/04/2014	03:10:37.607	$GPGGA,031038,2512.1131,N,08018.8924,W,1,8,2.0,19,M,,M,,*5B
06/04/2014	03:10:38.601	$GPGGA,031039,2512.1110,N,08018.8934,W,1,8,2.0,19,M,,M,,*58
06/04/2014	03:10:39.635	$GPGGA,031040,2512.1091,N,08018.8945,W,1,8,2.0,19,M,,M,,*58
06/04/2014	03:10:40.509	$GPGGA,031041,2512.1069,N,08018.8954,W,1,8,2.0,19,M,,M,,*5E
06/04/2014	03:10:41.613	$GPGGA,031042,2512.1049,N,08018.8964,W,1,8,2.0,19,M,,M,,*5C
06/04/2014	03:10:42.647	$GPGGA,031043,2512.1028,N,08018.8974,W,1,8,2.0,19,M,,M,,*5B
06/04/2014	03:10:43.631	$GPGGA,031044,2512.1008,N,08018.8985,W,1,8,2.0,19,M,,M,,*50
06/04/2014	03:10:44.655	$GPGGA,031045,2512.0987,N,08018.8995,W,1,8,2.0,19,M,,M,,*5F
06/04/2014	03:10:45.619	$GPGGA,031046,2512.0966,N,08018.9003,W,1,8,2.0,19,M,,M,,*54
06/04/2014	03:10:46.625	$GPGGA,031047,2512.0947,N,08018.9014,W,1,8,2.0,19,M,,M,,*50
06/04/2014	03:10:47.646	$GPGGA,031048,2512.0925,N,08018.9024,W,1,8,2.0,19,M,,M,,*58
06/04/2014	03:10:48.620	$GPGGA,031049,2512.0904,N,08018.9032,W,1,8,2.0,19,M,,M,,*5D
06/04/2014	03:10:49.624	$GPGGA,031050,2512.0885,N,08018.9043,W,1,8,2.0,19,M,,M,,*5B
06/04/2014	03:10:50.628	$GPGGA,031051,2512.0863,N,08018.9051,W,1,8,2.0,19,M,,M,,*51
06/04/2014	03:10:51.642	$GPGGA,031052,2512.0843,N,08018.9061,W,1,8,2.0,19,M,,M,,*53
06/04/2014	03:10:52.646	$GPGGA,031053,2512.0822,N,08018.9071,W,1,8,2.0,19,M,,M,,*54
06/04/2014	03:10:53.640	$GPGGA,031054,2512.0802,N,08018.9080,W,1,8,2.0,19,M,,M,,*5F
06/04/2014	03:10:54.654	$GPGGA,031055,2512.0781,N,08018.9090,W,1,8,2.0,19,M,,M,,*5B
06/04/2014	03:10:55.658	$GPGGA,031056,2512.0761,N,08018.9100,W,1,8,2.0,19,M,,M,,*5E
06/04/2014	03:10:56.652	$GPGGA,031057,2512.0741,N,08018.9109,W,1,8,2.0,19,M,,M,,*54
06/04/2014	03:10:57.646	$GPGGA,031058,2512.0720,N,08018.9119,W,1,8,2.0,19,M,,M,,*5D
06/04/2014	03:10:58.660	$GPGGA,031059,2512.0699,N,08018.9129,W,1,8,2.0,19,M,,M,,*5C
06/04/2014	03:10:59.664	$GPGGA,031100,2512.0679,N,08018.9138,W,1,8,2.0,19,M,,M,,*5F
06/04/2014	03:11:00.668	$GPGGA,031101,2512.0658,N,08018.9148,W,1,8,2.0,19,M,,M,,*5A
06/04/2014	03:11:01.652	$GPGGA,031102,2512.0638,N,08018.9158,W,1,8,2.0,19,M,,M,,*5E
06/04/2014	03:11:02.677	$GPGGA,031103,2512.0618,N,08018.9169,W,1,8,2.0,19,M,,M,,*5F
06/04/2014	03:11:03.660	$GPGGA,031104,2512.0597,N,08018.9178,W,1,8,2.0,19,M,,M,,*5C
06/04/2014	03:11:04.684	$GPGGA,031105,2512.0576,N,08018.9188,W,1,8,2.0,19,M,,M,,*5D
06/04/2014	03:11:05.657	$GPGGA,031106,2512.0556,N,08018.9198,W,1,8,2.0,19,M,,M,,*5D
06/04/2014	03:11:06.671	$GPGGA,031107,2512.0536,N,08018.9209,W,1,8,2.0,19,M,,M,,*51
06/04/2014	03:11:07.665	$GPGGA,031108,2512.0517,N,08018.9219,W,1,8,2.0,18,M,,M,,*5D
06/04/2014	03:11:08.689	$GPGGA,031109,2512.0496,N,08018.9230,W,1,8,2.0,18,M,,M,,*5F
06/04/2014	03:11:09.663	$GPGGA,031110,2512.0477,N,08018.9239,W,1,8,2.0,18,M,,M,,*51
06/04/2014	03:11:10.667	$GPGGA,031111,2512.0456,N,08018.9250,W,1,8,2.0,18,M,,M,,*5C
06/04/2014	03:11:11.681	$GPGGA,031112,2512.0435,N,08018.9260,W,1,8,2.0,18,M,,M,,*59
06/04/2014	03:11:12.685	$GPGGA,031113,2512.0416,N,08018.9271,W,1,8,2.0,18,M,,M,,*59
06/04/2014	03:11:13.669	$GPGGA,031114,2512.0395,N,08018.9281,W,1,8,2.0,18,M,,M,,*5D
06/04/2014	03:11:14.693	$GPGGA,031115,2512.0376,N,08018.9292,W,1,8,2.0,18,M,,M,,*53
06/04/2014	03:11:15.687	$GPGGA,031116,2512.0355,N,08018.9303,W,1,8,2.0,18,M,,M,,*58
06/04/2014	03:11:16.701	$GPGGA,031117,2512.0336,N,08018.9314,W,1,8,2.0,18,M,,M,,*5A
06/04/2014	03:11:17.675	$GPGGA,031118,2512.0315,N,08018.9324,W,1,8,2.0,18,M,,M,,*57
06/04/2014	03:11:18.699	$GPGGA,031119,2512.0295,N,08018.9335,W,1,8,2.0,18,M,,M,,*5F
06/04/2014	03:11:19.693	$GPGGA,031120,2512.0275,N,08018.9346,W,1,8,2.0,18,M,,M,,*5F
06/04/2014	03:11:20.697	$GPGGA,031121,2512.0255,N,08018.9357,W,1,8,2.0,18,M,,M,,*5C
06/04/2014	03:11:21.683	$GPGGA,031122,2512.0235,N,08018.9368,W,1,8,2.0,18,M,,M,,*55
06/04/2014	03:11:22.684	$GPGGA,031123,2512.0215,N,08018.9379,W,1,8,2.0,18,M,,M,,*56
06/04/2014	03:11:23.798	$GPGGA,031124,2512.0195,N,08018.9391,W,1,8,2.0,18,M,,M,,*5C
06/04/2014	03:11:24.872	$GPGGA,031125,2512.0175,N,08018.9402,W,1,8,2.0,18,M,,M,,*5E
06/04/2014	03:11:25.706	$GPGGA,031126,2512.0156,N,08018.9413,W,1,8,2.0,18,M,,M,,*5C
06/04/2014	03:11:26.710	$GPGGA,031127,2512.0136,N,08018.9426,W,1,8,2.0,18,M,,M,,*5D
06/04/2014	03:11:27.704	$GPGGA,031128,2512.0116,N,08018.9436,W,1,8,2.0,18,M,,M,,*51
06/04/2014	03:11:28.798	$GPGGA,031129,2512.0098,N,08018.9447,W,1,8,2.0,18,M,,M,,*51
06/04/2014	03:11:29.842	$GPGGA,031130,2512.0077,N,08018.9458,W,1,8,2.0,18,M,,M,,*56
06/04/2014	03:11:30.716	$GPGGA,031131,2512.0058,N,08018.9470,W,1,8,2.0,18,M,,M,,*50
06/04/2014	03:11:31.572	$GPGGA,031132,2512.0038,N,08018.9481,W,1,8,2.0,18,M,,M,,*5B
06/04/2014	03:11:32.476	$GPGGA,031133,2512.0019,N,08018.9492,W,1,8,2.0,17,M,,M,,*54
06/04/2014	03:11:33.570	$GPGGA,031134,2512.0000,N,08018.9505,W,1,8,2.0,17,M,,M,,*54
06/04/2014	03:11:34.674	$GPGGA,031135,2511.9979,N,08018.9516,W,1,8,2.0,17,M,,M,,*5A
06/04/2014	03:11:35.628	$GPGGA,031136,2511.9960,N,08018.9527,W,1,8,2.0,17,M,,M,,*53
06/04/2014	03:11:36.582	$GPGGA,031137,2511.9940,N,08018.9538,W,1,8,2.0,17,M,,M,,*5E
06/04/2014	03:11:37.576	$GPGGA,031138,2511.9921,N,08018.9549,W,1,8,2.0,17,M,,M,,*50
06/04/2014	03:11:38.580	$GPGGA,031139,2511.9901,N,08018.9560,W,1,8,2.0,17,M,,M,,*58
06/04/2014	03:11:39.633	$GPGGA,031140,2511.9881,N,08018.9571,W,1,8,2.0,17,M,,M,,*5F
06/04/2014	03:11:40.687	$GPGGA,031141,2511.9861,N,08018.9584,W,1,8,2.0,17,M,,M,,*5A
06/04/2014	03:11:41.581	$GPGGA,031142,2511.9841,N,08018.9595,W,1,8,2.0,17,M,,M,,*5B
06/04/2014	03:11:42.695	$GPGGA,031143,2511.9823,N,08018.9606,W,1,8,2.0,17,M,,M,,*57
06/04/2014	03:11:43.629	$GPGGA,031144,2511.9802,N,08018.9617,W,1,8,2.0,17,M,,M,,*53
06/04/2014	03:11:44.593	$GPGGA,031145,2511.9782,N,08018.9628,W,1,8,2.0,17,M,,M,,*59
06/04/2014	03:11:45.627	$GPGGA,031146,2511.9762,N,08018.9639,W,1,8,2.0,17,M,,M,,*54
06/04/2014	03:11:46.701	$GPGGA,031147,2511.9742,N,08018.9650,W,1,8,2.0,17,M,,M,,*58
06/04/2014	03:11:47.645	$GPGGA,031148,2511.9722,N,08018.9661,W,1,8,2.0,16,M,,M,,*52
06/04/2014	03:11:48.709	$GPGGA,031149,2511.9701,N,08018.9671,W,1,8,2.0,16,M,,M,,*53
06/04/2014	03:11:49.633	$GPGGA,031150,2511.9682,N,08018.9682,W,1,8,2.0,16,M,,M,,*5D
