Software Version Number: 1	Data File Format Number: 1	Build Version Number: 1	Error Count Since VI Started: 0	Manufacturer: Raytheon	 Model Number: RayMarine 120	 S/N: 	 Cal Date: 	 Wind Direction Offset: 0.00	 Slope (M)1: 0.00	 Offset (B)1: 0.00	 Slope (M)2: 0.00	 Offset (B)2: 0.00	 Slope (M)3: 0.00	 Offset (B)3: 0.00	 Slope (M)4: 0.00	 Offset (B)4: 0.00	 Slope (M)5: 0.00	 Offset (B)5: 0.00	 Slope (M)6: 0.00	 Offset (B)6: 0.00
Computer Date	Computer Time	GGA String
06/09/2014	07:00:00.945	$GPGGA,070001,2507.1008,N,08009.7954,W,1,8,1.9,16,M,,M,,*56
06/09/2014	07:00:01.988	$GPGGA,070002,2507.1012,N,08009.7950,W,1,8,1.9,16,M,,M,,*5A
06/09/2014	07:00:03.016	$GPGGA,070003,2507.1015,N,08009.7947,W,1,8,1.9,16,M,,M,,*5A
06/09/2014	07:00:04.032	$GPGGA,070004,2507.1019,N,08009.7944,W,1,8,1.9,16,M,,M,,*52
06/09/2014	07:00:05.034	$GPGGA,070005,2507.1025,N,08009.7941,W,1,8,1.9,16,M,,M,,*59
06/09/2014	07:00:06.052	$GPGGA,070006,2507.1029,N,08009.7937,W,1,8,1.9,16,M,,M,,*57
06/09/2014	07:00:07.060	$GPGGA,070007,2507.1032,N,08009.7934,W,1,8,1.9,16,M,,M,,*5F
06/09/2014	07:00:08.213	$GPGGA,070008,2507.1036,N,08009.7930,W,1,8,1.9,16,M,,M,,*50
06/09/2014	07:00:09.130	$GPGGA,070009,2507.1040,N,08009.7927,W,1,8,1.9,16,M,,M,,*56
06/09/2014	07:00:10.122	$GPGGA,070010,2507.1044,N,08009.7924,W,1,8,1.9,16,M,,M,,*59
06/09/2014	07:00:11.131	$GPGGA,070011,2507.1048,N,08009.7920,W,1,8,1.9,16,M,,M,,*50
06/09/2014	07:00:12.283	$GPGGA,070012,2507.1051,N,08009.7917,W,1,8,1.9,16,M,,M,,*5F
06/09/2014	07:00:13.181	$GPGGA,070013,2507.1055,N,08009.7914,W,1,8,1.9,16,M,,M,,*59
06/09/2014	07:00:14.201	$GPGGA,070014,2507.1059,N,08009.7910,W,1,8,1.9,16,M,,M,,*56
06/09/2014	07:00:15.212	$GPGGA,070015,2507.1062,N,08009.7907,W,1,8,1.9,16,M,,M,,*59
06/09/2014	07:00:16.334	$GPGGA,070016,2507.1066,N,08009.7903,W,1,8,1.9,16,M,,M,,*5A
06/09/2014	07:00:17.278	$GPGGA,070017,2507.1069,N,08009.7900,W,1,8,1.9,16,M,,M,,*57
06/09/2014	07:00:18.354	$GPGGA,070018,2507.1073,N,08009.7897,W,1,8,2.1,16,M,,M,,*57
06/09/2014	07:00:19.283	$GPGGA,070019,2507.1077,N,08009.7894,W,1,8,1.9,16,M,,M,,*5A
06/09/2014	07:00:20.405	$GPGGA,070020,2507.1080,N,08009.7891,W,1,8,1.9,16,M,,M,,*5D
06/09/2014	07:00:21.426	$GPGGA,070021,2507.1084,N,08009.7887,W,1,8,1.9,16,M,,M,,*5F
06/09/2014	07:00:22.436	$GPGGA,070022,2507.1087,N,08009.7884,W,1,8,1.9,16,M,,M,,*5C
06/09/2014	07:00:23.467	$GPGGA,070023,2507.1091,N,08009.7880,W,1,8,1.9,16,M,,M,,*5E
06/09/2014	07:00:24.477	$GPGGA,070024,2507.1095,N,08009.7877,W,1,8,1.9,16,M,,M,,*55
06/09/2014	07:00:25.487	$GPGGA,070025,2507.1100,N,08009.7874,W,1,8,1.9,16,M,,M,,*5A
06/09/2014	07:00:26.507	$GPGGA,070026,2507.1104,N,08009.7870,W,1,8,1.9,16,M,,M,,*59
06/09/2014	07:00:27.548	$GPGGA,070027,2507.1108,N,08009.7866,W,1,8,1.9,16,M,,M,,*53
06/09/2014	07:00:28.558	$GPGGA,070028,2507.1112,N,08009.7863,W,1,8,1.9,16,M,,M,,*52
06/09/2014	07:00:29.579	$GPGGA,070029,2507.1116,N,08009.7860,W,1,8,1.9,16,M,,M,,*54
06/09/2014	07:00:30.578	$GPGGA,070030,2507.1120,N,08009.7857,W,1,8,1.9,16,M,,M,,*5D
06/09/2014	07:00:31.608	$GPGGA,070031,2507.1124,N,08009.7853,W,1,8,1.9,16,M,,M,,*5C
06/09/2014	07:00:32.639	$GPGGA,070032,2507.1127,N,08009.7850,W,1,8,2.1,16,M,,M,,*54
06/09/2014	07:00:33.659	$GPGGA,070033,2507.1133,N,08009.7847,W,1,8,1.9,16,M,,M,,*5D
06/09/2014	07:00:34.649	$GPGGA,070034,2507.1137,N,08009.7843,W,1,8,1.9,16,M,,M,,*5A
06/09/2014	07:00:35.701	$GPGGA,070035,2507.1141,N,08009.7840,W,1,8,1.9,16,M,,M,,*59
06/09/2014	07:00:36.710	$GPGGA,070036,2507.1145,N,08009.7837,W,1,8,1.9,16,M,,M,,*5E
06/09/2014	07:00:37.700	$GPGGA,070037,2507.1149,N,08009.7833,W,1,8,1.9,16,M,,M,,*57
06/09/2014	07:00:38.721	$GPGGA,070038,2507.1153,N,08009.7830,W,1,8,1.9,16,M,,M,,*50
06/09/2014	07:00:39.741	$GPGGA,070039,2507.1158,N,08009.7827,W,1,8,1.9,16,M,,M,,*5C
06/09/2014	07:00:39.559	$GPGGA,070040,2507.1160,N,08009.7823,W,1,8,1.9,16,M,,M,,*5D
06/09/2014	07:00:40.600	$GPGGA,070041,2507.1163,N,08009.7820,W,1,8,1.9,16,M,,M,,*5C
06/09/2014	07:00:41.589	$GPGGA,070042,2507.1167,N,08009.7817,W,1,8,1.9,16,M,,M,,*5F
06/09/2014	07:00:42.630	$GPGGA,070043,2507.1171,N,08009.7813,W,1,8,1.9,16,M,,M,,*5D
06/09/2014	07:00:43.641	$GPGGA,070044,2507.1174,N,08009.7810,W,1,8,1.9,16,M,,M,,*5C
06/09/2014	07:00:44.661	$GPGGA,070045,2507.1178,N,08009.7807,W,1,8,1.9,16,M,,M,,*57
06/09/2014	07:00:45.651	$GPGGA,070046,2507.1181,N,08009.7804,W,1,8,1.9,16,M,,M,,*51
06/09/2014	07:00:46.660	$GPGGA,070047,2507.1185,N,08009.7801,W,1,8,1.9,16,M,,M,,*51
06/09/2014	07:00:47.711	$GPGGA,070048,2507.1189,N,08009.7798,W,1,8,1.9,16,M,,M,,*5D
06/09/2014	07:00:48.823	$GPGGA,070049,2507.1192,N,08009.7795,W,1,8,1.9,16,M,,M,,*5B
06/09/2014	07:00:49.722	$GPGGA,070050,2507.1196,N,08009.7791,W,1,8,1.9,16,M,,M,,*53
06/09/2014	07:00:50.782	$GPGGA,070051,2507.1199,N,08009.7788,W,1,8,1.9,16,M,,M,,*55
06/09/2014	07:00:51.773	$GPGGA,070052,2507.1202,N,08009.7785,W,1,8,1.9,16,M,,M,,*5A
06/09/2014	07:00:52.823	$GPGGA,070053,2507.1206,N,08009.7782,W,1,8,1.9,16,M,,M,,*58
06/09/2014	07:00:53.803	$GPGGA,070054,2507.1210,N,08009.7779,W,1,8,1.9,16,M,,M,,*5C
06/09/2014	07:00:54.813	$GPGGA,070055,2507.1214,N,08009.7775,W,1,8,1.9,16,M,,M,,*55
06/09/2014	07:00:55.966	$GPGGA,070056,2507.1216,N,08009.7772,W,1,8,1.9,16,M,,M,,*53
06/09/2014	07:00:56.866	$GPGGA,070057,2507.1220,N,08009.7769,W,1,8,1.9,16,M,,M,,*5D
06/09/2014	07:00:57.864	$GPGGA,070058,2507.1224,N,08009.7766,W,1,8,1.9,16,M,,M,,*59
06/09/2014	07:00:58.894	$GPGGA,070059,2507.1228,N,08009.7763,W,1,8,1.9,16,M,,M,,*51
06/09/2014	07:00:59.935	$GPGGA,070100,2507.1231,N,08009.7760,W,1,8,1.9,16,M,,M,,*57
06/09/2014	07:01:00.945	$GPGGA,070101,2507.1234,N,08009.7757,W,1,8,1.9,16,M,,M,,*57
06/09/2014	07:01:02.070	$GPGGA,070102,2507.1238,N,08009.7754,W,1,8,2.1,16,M,,M,,*50
06/09/2014	07:01:02.988	$GPGGA,070103,2507.1242,N,08009.7750,W,1,7,2.1,16,M,,M,,*57
06/09/2014	07:01:04.010	$GPGGA,070104,2507.1243,N,08009.7747,W,1,7,2.1,16,M,,M,,*57
06/09/2014	07:01:05.005	$GPGGA,070105,2507.1246,N,08009.7744,W,1,8,1.9,16,M,,M,,*54
06/09/2014	07:01:06.128	$GPGGA,070106,2507.1250,N,08009.7740,W,1,8,1.9,16,M,,M,,*54
06/09/2014	07:01:07.138	$GPGGA,070107,2507.1254,N,08009.7737,W,1,8,1.9,16,M,,M,,*51
06/09/2014	07:01:08.169	$GPGGA,070108,2507.1260,N,08009.7734,W,1,8,1.9,16,M,,M,,*5A
06/09/2014	07:01:09.199	$GPGGA,070109,2507.1264,N,08009.7730,W,1,8,1.9,16,M,,M,,*5B
06/09/2014	07:01:10.189	$GPGGA,070110,2507.1268,N,08009.7727,W,1,8,1.9,16,M,,M,,*59
06/09/2014	07:01:11.230	$GPGGA,070111,2507.1272,N,08009.7724,W,1,8,1.9,16,M,,M,,*50
06/09/2014	07:01:12.240	$GPGGA,070112,2507.1277,N,08009.7721,W,1,8,1.9,16,M,,M,,*53
06/09/2014	07:01:13.250	$GPGGA,070113,2507.1279,N,08009.7717,W,1,8,1.9,16,M,,M,,*59
06/09/2014	07:01:14.271	$GPGGA,070114,2507.1283,N,08009.7714,W,1,8,1.9,16,M,,M,,*58
06/09/2014	07:01:15.291	$GPGGA,070115,2507.1288,N,08009.7711,W,1,8,1.9,16,M,,M,,*57
06/09/2014	07:01:16.312	$GPGGA,070116,2507.1292,N,08009.7707,W,1,8,1.9,16,M,,M,,*58
06/09/2014	07:01:17.322	$GPGGA,070117,2507.1296,N,08009.7704,W,1,8,1.9,16,M,,M,,*5E
06/09/2014	07:01:18.342	$GPGGA,070118,2507.1300,N,08009.7701,W,1,8,1.9,16,M,,M,,*5A
06/09/2014	07:01:19.374	$GPGGA,070119,2507.1304,N,08009.7698,W,1,8,1.9,16,M,,M,,*5E
06/09/2014	07:01:20.393	$GPGGA,070120,2507.1307,N,08009.7695,W,1,8,1.9,16,M,,M,,*5A
06/09/2014	07:01:21.414	$GPGGA,070121,2507.1311,N,08009.7692,W,1,8,1.9,16,M,,M,,*5B
06/09/2014	07:01:22.412	$GPGGA,070122,2507.1315,N,08009.7688,W,1,8,1.9,16,M,,M,,*57
06/09/2014	07:01:23.433	$GPGGA,070123,2507.1318,N,08009.7685,W,1,8,1.9,16,M,,M,,*56
06/09/2014	07:01:24.453	$GPGGA,070124,2507.1321,N,08009.7682,W,1,8,1.9,16,M,,M,,*5C
06/09/2014	07:01:25.463	$GPGGA,070125,2507.1325,N,08009.7679,W,1,8,1.9,16,M,,M,,*5D
06/09/2014	07:01:26.494	$GPGGA,070126,2507.1329,N,08009.7676,W,1,8,1.9,16,M,,M,,*5D
06/09/2014	07:01:27.504	$GPGGA,070127,2507.1333,N,08009.7673,W,1,8,1.9,16,M,,M,,*52
06/09/2014	07:01:28.535	$GPGGA,070128,2507.1336,N,08009.7669,W,1,8,1.9,16,M,,M,,*53
06/09/2014	07:01:29.565	$GPGGA,070129,2507.1340,N,08009.7666,W,1,8,1.9,16,M,,M,,*5C
06/09/2014	07:01:30.565	$GPGGA,070130,2507.1343,N,08009.7663,W,1,8,2.1,16,M,,M,,*59
06/09/2014	07:01:31.576	$GPGGA,070131,2507.1347,N,08009.7659,W,1,8,1.9,16,M,,M,,*5E
06/09/2014	07:01:32.606	$GPGGA,070132,2507.1350,N,08009.7656,W,1,8,1.9,16,M,,M,,*54
06/09/2014	07:01:33.616	$GPGGA,070133,2507.1355,N,08009.7653,W,1,8,1.9,16,M,,M,,*55
06/09/2014	07:01:34.627	$GPGGA,070134,2507.1358,N,08009.7650,W,1,8,1.9,16,M,,M,,*5C
06/09/2014	07:01:35.688	$GPGGA,070135,2507.1362,N,08009.7647,W,1,8,1.9,16,M,,M,,*52
06/09/2014	07:01:36.667	$GPGGA,070136,2507.1366,N,08009.7644,W,1,8,1.9,16,M,,M,,*56
06/09/2014	07:01:37.678	$GPGGA,070137,2507.1371,N,08009.7641,W,1,8,1.9,16,M,,M,,*54
06/09/2014	07:01:38.708	$GPGGA,070138,2507.1373,N,08009.7638,W,1,8,1.9,16,M,,M,,*57
06/09/2014	07:01:39.709	$GPGGA,070139,2507.1377,N,08009.7635,W,1,8,1.9,16,M,,M,,*5F
06/09/2014	07:01:39.526	$GPGGA,070140,2507.1382,N,08009.7632,W,1,8,1.9,16,M,,M,,*5C
06/09/2014	07:01:40.537	$GPGGA,070141,2507.1386,N,08009.7628,W,1,8,1.9,16,M,,M,,*52
06/09/2014	07:01:41.558	$GPGGA,070142,2507.1390,N,08009.7625,W,1,8,1.9,16,M,,M,,*5B
06/09/2014	07:01:42.730	$GPGGA,070143,2507.1394,N,08009.7622,W,1,8,1.9,16,M,,M,,*59
06/09/2014	07:01:43.771	$GPGGA,070144,2507.1398,N,08009.7619,W,1,8,1.9,16,M,,M,,*5A
06/09/2014	07:01:44.608	$GPGGA,070145,2507.1401,N,08009.7616,W,1,8,1.9,16,M,,M,,*53
06/09/2014	07:01:45.791	$GPGGA,070146,2507.1405,N,08009.7613,W,1,8,1.9,16,M,,M,,*51
06/09/2014	07:01:46.763	$GPGGA,070147,2507.1409,N,08009.7609,W,1,8,1.9,16,M,,M,,*57
06/09/2014	07:01:47.699	$GPGGA,070148,2507.1412,N,08009.7606,W,1,8,1.9,16,M,,M,,*5D
06/09/2014	07:01:48.679	$GPGGA,070149,2507.1416,N,08009.7603,W,1,8,1.9,16,M,,M,,*5D
06/09/2014	07:01:49.710	$GPGGA,070150,2507.1420,N,08009.7600,W,1,8,1.9,16,M,,M,,*53
06/09/2014	07:01:50.812	$GPGGA,070151,2507.1423,N,08009.7597,W,1,8,1.9,16,M,,M,,*5C
06/09/2014	07:01:51.761	$GPGGA,070152,2507.1427,N,08009.7593,W,1,8,1.9,16,M,,M,,*5F
06/09/2014	07:01:52.904	$GPGGA,070153,2507.1431,N,08009.7590,W,1,8,1.9,16,M,,M,,*5A
06/09/2014	07:01:53.863	$GPGGA,070154,2507.1434,N,08009.7587,W,1,8,1.9,16,M,,M,,*5E
06/09/2014	07:01:54.883	$GPGGA,070155,2507.1438,N,08009.7584,W,1,8,1.9,16,M,,M,,*50
06/09/2014	07:01:55.995	$GPGGA,070156,2507.1442,N,08009.7581,W,1,8,1.9,16,M,,M,,*5B
06/09/2014	07:01:56.976	$GPGGA,070157,2507.1447,N,08009.7577,W,1,8,1.9,16,M,,M,,*56
06/09/2014	07:01:58.015	$GPGGA,070158,2507.1449,N,08009.7574,W,1,8,1.9,16,M,,M,,*54
06/09/2014	07:01:59.023	$GPGGA,070159,2507.1454,N,08009.7571,W,1,8,1.9,16,M,,M,,*5C
06/09/2014	07:02:00.076	$GPGGA,070200,2507.1456,N,08009.7568,W,1,8,1.9,16,M,,M,,*59
06/09/2014	07:02:01.035	$GPGGA,070201,2507.1460,N,08009.7564,W,1,8,1.9,16,M,,M,,*51
06/09/2014	07:02:02.093	$GPGGA,070202,2507.1465,N,08009.7561,W,1,8,1.9,16,M,,M,,*52
06/09/2014	07:02:03.076	$GPGGA,070203,2507.1467,N,08009.7558,W,1,8,1.9,16,M,,M,,*5B
06/09/2014	07:02:04.136	$GPGGA,070204,2507.1470,N,08009.7555,W,1,8,1.9,16,M,,M,,*57
06/09/2014	07:02:05.117	$GPGGA,070205,2507.1474,N,08009.7552,W,1,8,1.9,16,M,,M,,*55
06/09/2014	07:02:06.159	$GPGGA,070206,2507.1478,N,08009.7548,W,1,8,1.9,16,M,,M,,*51
06/09/2014	07:02:07.147	$GPGGA,070207,2507.1481,N,08009.7545,W,1,8,1.9,16,M,,M,,*5B
06/09/2014	07:02:08.211	$GPGGA,070208,2507.1485,N,08009.7542,W,1,8,1.9,16,M,,M,,*57
06/09/2014	07:02:09.188	$GPGGA,070209,2507.1488,N,08009.7538,W,1,8,1.9,16,M,,M,,*56
06/09/2014	07:02:10.249	$GPGGA,070210,2507.1491,N,08009.7534,W,1,8,2.1,16,M,,M,,*51
06/09/2014	07:02:11.290	$GPGGA,070211,2507.1495,N,08009.7531,W,1,7,1.9,16,M,,M,,*55
06/09/2014	07:02:12.290	$GPGGA,070212,2507.1499,N,08009.7528,W,1,7,1.9,16,M,,M,,*52
06/09/2014	07:02:13.259	$GPGGA,070213,2507.1502,N,08009.7524,W,1,7,2.1,16,M,,M,,*57
06/09/2014	07:02:14.238	$GPGGA,070214,2507.1505,N,08009.7521,W,1,7,2.1,16,M,,M,,*52
06/09/2014	07:02:15.310	$GPGGA,070215,2507.1509,N,08009.7517,W,1,7,2.1,16,M,,M,,*5A
06/09/2014	07:02:16.279	$GPGGA,070216,2507.1510,N,08009.7513,W,1,7,2.1,16,M,,M,,*55
06/09/2014	07:02:17.360	$GPGGA,070217,2507.1514,N,08009.7510,W,1,7,2.1,16,M,,M,,*53
06/09/2014	07:02:18.360	$GPGGA,070218,2507.1518,N,08009.7507,W,1,7,2.1,16,M,,M,,*56
06/09/2014	07:02:19.381	$GPGGA,070219,2507.1521,N,08009.7503,W,1,8,1.9,15,M,,M,,*5E
06/09/2014	07:02:20.350	$GPGGA,070220,2507.1525,N,08009.7499,W,1,8,1.9,15,M,,M,,*52
06/09/2014	07:02:21.422	$GPGGA,070221,2507.1530,N,08009.7497,W,1,8,1.9,15,M,,M,,*59
06/09/2014	07:02:22.388	$GPGGA,070222,2507.1534,N,08009.7494,W,1,8,1.9,15,M,,M,,*5D
06/09/2014	07:02:23.452	$GPGGA,070223,2507.1538,N,08009.7491,W,1,8,1.9,15,M,,M,,*55
06/09/2014	07:02:24.493	$GPGGA,070224,2507.1543,N,08009.7488,W,1,8,1.9,15,M,,M,,*56
06/09/2014	07:02:25.473	$GPGGA,070225,2507.1546,N,08009.7485,W,1,8,1.9,15,M,,M,,*5F
06/09/2014	07:02:26.452	$GPGGA,070226,2507.1550,N,08009.7482,W,1,8,1.9,15,M,,M,,*5C
06/09/2014	07:02:27.534	$GPGGA,070227,2507.1553,N,08009.7479,W,1,8,1.9,15,M,,M,,*5A
06/09/2014	07:02:28.554	$GPGGA,070228,2507.1557,N,08009.7475,W,1,8,2.1,15,M,,M,,*56
06/09/2014	07:02:29.504	$GPGGA,070229,2507.1560,N,08009.7471,W,1,7,2.1,15,M,,M,,*58
06/09/2014	07:02:30.525	$GPGGA,070230,2507.1563,N,08009.7468,W,1,7,2.1,15,M,,M,,*5B
06/09/2014	07:02:31.687	$GPGGA,070231,2507.1568,N,08009.7465,W,1,7,1.9,15,M,,M,,*57
06/09/2014	07:02:32.625	$GPGGA,070232,2507.1571,N,08009.7461,W,1,7,2.1,15,M,,M,,*53
06/09/2014	07:02:33.646	$GPGGA,070233,2507.1575,N,08009.7459,W,1,7,1.9,15,M,,M,,*56
06/09/2014	07:02:34.594	$GPGGA,070234,2507.1579,N,08009.7456,W,1,7,1.9,15,M,,M,,*52
06/09/2014	07:02:35.625	$GPGGA,070235,2507.1583,N,08009.7453,W,1,8,1.9,15,M,,M,,*5C
06/09/2014	07:02:36.716	$GPGGA,070236,2507.1586,N,08009.7449,W,1,8,1.9,15,M,,M,,*51
06/09/2014	07:02:37.688	$GPGGA,070237,2507.1590,N,08009.7446,W,1,8,1.9,15,M,,M,,*58
06/09/2014	07:02:38.778	$GPGGA,070238,2507.1595,N,08009.7442,W,1,8,1.9,15,M,,M,,*56
06/09/2014	07:02:39.799	$GPGGA,070239,2507.1597,N,08009.7439,W,1,8,1.9,15,M,,M,,*59
06/09/2014	07:02:39.607	$GPGGA,070240,2507.1600,N,08009.7436,W,1,8,1.9,15,M,,M,,*55
06/09/2014	07:02:40.535	$GPGGA,070241,2507.1607,N,08009.7433,W,1,8,1.9,15,M,,M,,*56
06/09/2014	07:02:41.627	$GPGGA,070242,2507.1610,N,08009.7430,W,1,8,1.9,16,M,,M,,*53
06/09/2014	07:02:42.658	$GPGGA,070243,2507.1613,N,08009.7426,W,1,8,1.9,16,M,,M,,*56
06/09/2014	07:02:43.678	$GPGGA,070244,2507.1617,N,08009.7423,W,1,8,1.9,16,M,,M,,*50
06/09/2014	07:02:44.688	$GPGGA,070245,2507.1622,N,08009.7419,W,1,8,1.9,16,M,,M,,*5E
06/09/2014	07:02:45.698	$GPGGA,070246,2507.1625,N,08009.7416,W,1,8,2.0,16,M,,M,,*5F
06/09/2014	07:02:46.750	$GPGGA,070247,2507.1628,N,08009.7413,W,1,8,2.0,16,M,,M,,*56
06/09/2014	07:02:47.749	$GPGGA,070248,2507.1632,N,08009.7409,W,1,8,2.0,16,M,,M,,*59
06/09/2014	07:02:48.769	$GPGGA,070249,2507.1635,N,08009.7406,W,1,8,2.0,16,M,,M,,*50
06/09/2014	07:02:49.779	$GPGGA,070250,2507.1639,N,08009.7403,W,1,8,2.0,16,M,,M,,*51
06/09/2014	07:02:50.810	$GPGGA,070251,2507.1642,N,08009.7399,W,1,8,2.1,16,M,,M,,*59
06/09/2014	07:02:51.840	$GPGGA,070252,2507.1644,N,08009.7395,W,1,8,2.1,16,M,,M,,*50
06/09/2014	07:02:52.850	$GPGGA,070253,2507.1647,N,08009.7391,W,1,7,2.0,16,M,,M,,*58
06/09/2014	07:02:53.840	$GPGGA,070254,2507.1653,N,08009.7389,W,1,7,2.0,16,M,,M,,*53
06/09/2014	07:02:54.881	$GPGGA,070255,2507.1658,N,08009.7386,W,1,8,2.0,16,M,,M,,*59
06/09/2014	07:02:55.901	$GPGGA,070256,2507.1661,N,08009.7383,W,1,8,2.0,16,M,,M,,*55
06/09/2014	07:02:56.932	$GPGGA,070257,2507.1665,N,08009.7379,W,1,8,2.0,16,M,,M,,*55
06/09/2014	07:02:57.952	$GPGGA,070258,2507.1669,N,08009.7376,W,1,8,2.0,16,M,,M,,*59
06/09/2014	07:02:58.942	$GPGGA,070259,2507.1672,N,08009.7373,W,1,8,2.0,16,M,,M,,*57
06/09/2014	07:02:59.993	$GPGGA,070300,2507.1676,N,08009.7370,W,1,8,2.0,16,M,,M,,*5D
06/09/2014	07:03:00.993	$GPGGA,070301,2507.1680,N,08009.7365,W,1,8,2.1,16,M,,M,,*50
06/09/2014	07:03:02.003	$GPGGA,070302,2507.1683,N,08009.7363,W,1,8,2.0,16,M,,M,,*57
06/09/2014	07:03:03.014	$GPGGA,070303,2507.1687,N,08009.7359,W,1,8,2.0,16,M,,M,,*5B
06/09/2014	07:03:04.044	$GPGGA,070304,2507.1687,N,08009.7359,W,1,8,2.0,16,M,,M,,*5C
06/09/2014	07:03:05.066	$GPGGA,070305,2507.1693,N,08009.7352,W,1,7,2.1,16,M,,M,,*5D
06/09/2014	07:03:06.105	$GPGGA,070306,2507.1693,N,08009.7352,W,1,7,2.1,16,M,,M,,*5E
06/09/2014	07:03:07.115	$GPGGA,070307,2507.1701,N,08009.7345,W,1,8,2.0,16,M,,M,,*5D
06/09/2014	07:03:08.119	$GPGGA,070308,2507.1705,N,08009.7342,W,1,8,2.0,16,M,,M,,*51
06/09/2014	07:03:09.155	$GPGGA,070309,2507.1708,N,08009.7339,W,1,8,2.0,16,M,,M,,*51
06/09/2014	07:03:10.176	$GPGGA,070310,2507.1711,N,08009.7336,W,1,8,2.0,16,M,,M,,*5E
06/09/2014	07:03:11.178	$GPGGA,070311,2507.1716,N,08009.7333,W,1,8,2.0,16,M,,M,,*5D
06/09/2014	07:03:12.206	$GPGGA,070312,2507.1716,N,08009.7333,W,1,8,2.0,16,M,,M,,*5E
06/09/2014	07:03:13.227	$GPGGA,070313,2507.1723,N,08009.7326,W,1,8,2.0,16,M,,M,,*5D
06/09/2014	07:03:14.331	$GPGGA,070314,2507.1726,N,08009.7323,W,1,8,2.0,16,M,,M,,*5A
06/09/2014	07:03:15.247	$GPGGA,070315,2507.1730,N,08009.7319,W,1,8,2.0,16,M,,M,,*55
06/09/2014	07:03:16.298	$GPGGA,070316,2507.1734,N,08009.7316,W,1,8,2.0,16,M,,M,,*5D
06/09/2014	07:03:17.283	$GPGGA,070317,2507.1738,N,08009.7312,W,1,8,2.1,16,M,,M,,*55
06/09/2014	07:03:18.380	$GPGGA,070318,2507.1740,N,08009.7308,W,1,8,2.1,16,M,,M,,*5E
06/09/2014	07:03:19.300	$GPGGA,070319,2507.1744,N,08009.7306,W,1,7,2.1,16,M,,M,,*5A
06/09/2014	07:03:20.343	$GPGGA,070320,2507.1744,N,08009.7306,W,1,7,2.0,16,M,,M,,*51
06/09/2014	07:03:21.329	$GPGGA,070321,2507.1752,N,08009.7299,W,1,8,2.0,16,M,,M,,*5F
06/09/2014	07:03:22.473	$GPGGA,070322,2507.1756,N,08009.7295,W,1,8,2.0,16,M,,M,,*54
06/09/2014	07:03:23.401	$GPGGA,070323,2507.1756,N,08009.7295,W,1,7,2.1,16,M,,M,,*5B
06/09/2014	07:03:24.515	$GPGGA,070324,2507.1762,N,08009.7287,W,1,7,2.0,16,M,,M,,*59
06/09/2014	07:03:25.430	$GPGGA,070325,2507.1766,N,08009.7283,W,1,8,2.0,16,M,,M,,*57
06/09/2014	07:03:26.452	$GPGGA,070326,2507.1766,N,08009.7283,W,1,8,2.1,16,M,,M,,*55
06/09/2014	07:03:27.542	$GPGGA,070327,2507.1770,N,08009.7276,W,1,7,2.1,16,M,,M,,*56
06/09/2014	07:03:28.573	$GPGGA,070328,2507.1774,N,08009.7272,W,1,7,2.0,16,M,,M,,*58
06/09/2014	07:03:29.583	$GPGGA,070329,2507.1778,N,08009.7269,W,1,7,2.1,16,M,,M,,*5E
06/09/2014	07:03:30.603	$GPGGA,070330,2507.1784,N,08009.7266,W,1,7,2.0,16,M,,M,,*5B
06/09/2014	07:03:31.685	$GPGGA,070331,2507.1788,N,08009.7263,W,1,8,2.0,16,M,,M,,*5C
06/09/2014	07:03:32.681	$GPGGA,070332,2507.1792,N,08009.7260,W,1,8,2.0,16,M,,M,,*57
06/09/2014	07:03:33.654	$GPGGA,070333,2507.1796,N,08009.7258,W,1,8,2.0,16,M,,M,,*59
06/09/2014	07:03:34.685	$GPGGA,070334,2507.1801,N,08009.7255,W,1,8,2.0,16,M,,M,,*52
06/09/2014	07:03:35.715	$GPGGA,070335,2507.1805,N,08009.7252,W,1,8,2.0,16,M,,M,,*50
06/09/2014	07:03:36.726	$GPGGA,070336,2507.1809,N,08009.7249,W,1,8,2.0,16,M,,M,,*55
06/09/2014	07:03:37.756	$GPGGA,070337,2507.1813,N,08009.7246,W,1,8,2.0,16,M,,M,,*50
06/09/2014	07:03:38.744	$GPGGA,070338,2507.1817,N,08009.7243,W,1,8,2.0,16,M,,M,,*5E
06/09/2014	07:03:39.774	$GPGGA,070339,2507.1821,N,08009.7239,W,1,8,2.0,16,M,,M,,*57
06/09/2014	07:03:39.581	$GPGGA,070340,2507.1824,N,08009.7236,W,1,8,2.0,16,M,,M,,*53
06/09/2014	07:03:40.560	$GPGGA,070341,2507.1827,N,08009.7232,W,1,8,2.0,16,M,,M,,*55
06/09/2014	07:03:41.578	$GPGGA,070342,2507.1830,N,08009.7228,W,1,8,2.1,16,M,,M,,*5A
06/09/2014	07:03:42.597	$GPGGA,070343,2507.1834,N,08009.7224,W,1,8,2.0,16,M,,M,,*52
06/09/2014	07:03:43.606	$GPGGA,070344,2507.1837,N,08009.7221,W,1,8,2.0,16,M,,M,,*53
06/09/2014	07:03:44.615	$GPGGA,070345,2507.1841,N,08009.7218,W,1,8,2.0,16,M,,M,,*59
06/09/2014	07:03:45.604	$GPGGA,070346,2507.1845,N,08009.7214,W,1,8,2.0,16,M,,M,,*52
06/09/2014	07:03:46.633	$GPGGA,070347,2507.1849,N,08009.7211,W,1,8,2.0,16,M,,M,,*5A
06/09/2014	07:03:47.642	$GPGGA,070348,2507.1852,N,08009.7207,W,1,8,2.0,16,M,,M,,*58
06/09/2014	07:03:48.621	$GPGGA,070349,2507.1857,N,08009.7204,W,1,7,2.1,16,M,,M,,*51
06/09/2014	07:03:49.630	$GPGGA,070350,2507.1861,N,08009.7201,W,1,7,2.0,16,M,,M,,*58
06/09/2014	07:03:50.669	$GPGGA,070351,2507.1864,N,08009.7198,W,1,8,2.0,16,M,,M,,*50
06/09/2014	07:03:51.658	$GPGGA,070352,2507.1870,N,08009.7196,W,1,8,2.0,16,M,,M,,*58
06/09/2014	07:03:52.687	$GPGGA,070353,2507.1875,N,08009.7192,W,1,8,2.0,16,M,,M,,*58
06/09/2014	07:03:53.666	$GPGGA,070354,2507.1879,N,08009.7190,W,1,8,2.0,17,M,,M,,*50
06/09/2014	07:03:54.705	$GPGGA,070355,2507.1882,N,08009.7187,W,1,8,2.0,17,M,,M,,*53
06/09/2014	07:03:55.684	$GPGGA,070356,2507.1886,N,08009.7182,W,1,8,2.0,17,M,,M,,*51
06/09/2014	07:03:56.714	$GPGGA,070357,2507.1889,N,08009.7179,W,1,7,2.1,17,M,,M,,*55
06/09/2014	07:03:57.671	$GPGGA,070358,2507.1893,N,08009.7176,W,1,7,2.0,17,M,,M,,*5F
06/09/2014	07:03:58.689	$GPGGA,070359,2507.1897,N,08009.7173,W,1,8,2.0,17,M,,M,,*50
06/09/2014	07:03:59.840	$GPGGA,070400,2507.1902,N,08009.7170,W,1,8,2.0,17,M,,M,,*55
06/09/2014	07:04:00.717	$GPGGA,070401,2507.1904,N,08009.7167,W,1,8,2.0,17,M,,M,,*54
06/09/2014	07:04:01.716	$GPGGA,070402,2507.1908,N,08009.7164,W,1,8,2.0,17,M,,M,,*58
06/09/2014	07:04:02.725	$GPGGA,070403,2507.1913,N,08009.7161,W,1,8,2.0,17,M,,M,,*56
06/09/2014	07:04:03.744	$GPGGA,070404,2507.1915,N,08009.7158,W,1,8,2.0,17,M,,M,,*5D
06/09/2014	07:04:04.743	$GPGGA,070405,2507.1918,N,08009.7154,W,1,8,2.0,17,M,,M,,*5D
06/09/2014	07:04:05.833	$GPGGA,070406,2507.1922,N,08009.7151,W,1,8,2.0,17,M,,M,,*52
06/09/2014	07:04:06.751	$GPGGA,070407,2507.1926,N,08009.7147,W,1,8,2.0,17,M,,M,,*50
06/09/2014	07:04:07.861	$GPGGA,070408,2507.1929,N,08009.7144,W,1,8,2.0,17,M,,M,,*53
06/09/2014	07:04:08.759	$GPGGA,070409,2507.1933,N,08009.7141,W,1,8,2.0,17,M,,M,,*5C
06/09/2014	07:04:09.768	$GPGGA,070410,2507.1937,N,08009.7137,W,1,8,2.0,17,M,,M,,*51
06/09/2014	07:04:10.868	$GPGGA,070411,2507.1940,N,08009.7134,W,1,8,2.0,17,M,,M,,*53
06/09/2014	07:04:11.786	$GPGGA,070412,2507.1944,N,08009.7131,W,1,8,2.0,17,M,,M,,*51
06/09/2014	07:04:12.795	$GPGGA,070413,2507.1949,N,08009.7128,W,1,8,2.0,17,M,,M,,*55
06/09/2014	07:04:13.905	$GPGGA,070414,2507.1951,N,08009.7124,W,1,8,2.0,17,M,,M,,*57
06/09/2014	07:04:14.904	$GPGGA,070415,2507.1955,N,08009.7121,W,1,8,2.0,17,M,,M,,*57
06/09/2014	07:04:15.833	$GPGGA,070416,2507.1960,N,08009.7118,W,1,8,2.0,17,M,,M,,*58
06/09/2014	07:04:16.856	$GPGGA,070417,2507.1962,N,08009.7114,W,1,8,2.0,17,M,,M,,*57
06/09/2014	07:04:17.930	$GPGGA,070418,2507.1967,N,08009.7111,W,1,8,2.0,17,M,,M,,*58
06/09/2014	07:04:18.949	$GPGGA,070419,2507.1971,N,08009.7108,W,1,8,2.0,17,M,,M,,*56
06/09/2014	07:04:19.978	$GPGGA,070420,2507.1975,N,08009.7104,W,1,8,2.0,18,M,,M,,*5B
06/09/2014	07:04:20.957	$GPGGA,070421,2507.1978,N,08009.7101,W,1,8,2.0,18,M,,M,,*52
06/09/2014	07:04:21.946	$GPGGA,070422,2507.1980,N,08009.7098,W,1,8,2.0,18,M,,M,,*57
06/09/2014	07:04:22.966	$GPGGA,070423,2507.1984,N,08009.7094,W,1,8,2.0,18,M,,M,,*5E
06/09/2014	07:04:23.974	$GPGGA,070424,2507.1989,N,08009.7090,W,1,8,2.0,18,M,,M,,*50
06/09/2014	07:04:24.983	$GPGGA,070425,2507.1993,N,08009.7087,W,1,8,2.0,18,M,,M,,*5C
06/09/2014	07:04:25.982	$GPGGA,070426,2507.1996,N,08009.7083,W,1,8,2.0,18,M,,M,,*5E
06/09/2014	07:04:26.991	$GPGGA,070427,2507.1998,N,08009.7080,W,1,8,2.0,18,M,,M,,*52
06/09/2014	07:04:28.000	$GPGGA,070428,2507.2004,N,08009.7077,W,1,8,2.0,18,M,,M,,*5A
06/09/2014	07:04:29.009	$GPGGA,070429,2507.2007,N,08009.7073,W,1,8,2.0,18,M,,M,,*5C
06/09/2014	07:04:30.008	$GPGGA,070430,2507.2009,N,08009.7070,W,1,8,2.0,18,M,,M,,*59
06/09/2014	07:04:31.027	$GPGGA,070431,2507.2014,N,08009.7066,W,1,8,2.0,18,M,,M,,*53
06/09/2014	07:04:32.036	$GPGGA,070432,2507.2018,N,08009.7063,W,1,8,2.0,18,M,,M,,*59
06/09/2014	07:04:33.046	$GPGGA,070433,2507.2022,N,08009.7059,W,1,8,2.0,18,M,,M,,*58
06/09/2014	07:04:34.023	$GPGGA,070434,2507.2026,N,08009.7056,W,1,8,2.0,18,M,,M,,*54
06/09/2014	07:04:35.052	$GPGGA,070435,2507.2030,N,08009.7053,W,1,8,2.0,18,M,,M,,*57
06/09/2014	07:04:36.051	$GPGGA,070436,2507.2033,N,08009.7050,W,1,8,2.0,18,M,,M,,*54
06/09/2014	07:04:37.047	$GPGGA,070437,2507.2037,N,08009.7047,W,1,8,2.0,18,M,,M,,*57
06/09/2014	07:04:38.066	$GPGGA,070438,2507.2041,N,08009.7044,W,1,8,2.0,18,M,,M,,*5A
06/09/2014	07:04:39.062	$GPGGA,070439,2507.2044,N,08009.7041,W,1,8,2.0,18,M,,M,,*5B
06/09/2014	07:04:39.548	$GPGGA,070440,2507.2048,N,08009.7037,W,1,8,2.0,18,M,,M,,*58
06/09/2014	07:04:40.567	$GPGGA,070441,2507.2052,N,08009.7034,W,1,8,2.0,18,M,,M,,*51
06/09/2014	07:04:41.596	$GPGGA,070442,2507.2055,N,08009.7031,W,1,8,2.0,17,M,,M,,*5F
06/09/2014	07:04:42.544	$GPGGA,070443,2507.2059,N,08009.7028,W,1,8,2.0,17,M,,M,,*5A
06/09/2014	07:04:43.584	$GPGGA,070444,2507.2063,N,08009.7024,W,1,8,2.0,17,M,,M,,*58
06/09/2014	07:04:44.603	$GPGGA,070445,2507.2066,N,08009.7021,W,1,8,2.0,17,M,,M,,*59
06/09/2014	07:04:45.581	$GPGGA,070446,2507.2070,N,08009.7018,W,1,8,2.0,17,M,,M,,*57
06/09/2014	07:04:46.590	$GPGGA,070447,2507.2074,N,08009.7015,W,1,8,2.0,17,M,,M,,*5F
06/09/2014	07:04:47.620	$GPGGA,070448,2507.2079,N,08009.7011,W,1,8,2.0,17,M,,M,,*59
06/09/2014	07:04:48.719	$GPGGA,070449,2507.2083,N,08009.7007,W,1,7,2.1,17,M,,M,,*54
06/09/2014	07:04:49.606	$GPGGA,070450,2507.2088,N,08009.7004,W,1,7,2.1,17,M,,M,,*54
06/09/2014	07:04:50.608	$GPGGA,070451,2507.2095,N,08009.7000,W,1,8,2.0,17,M,,M,,*53
06/09/2014	07:04:51.634	$GPGGA,070452,2507.2098,N,08009.6997,W,1,8,2.0,17,M,,M,,*5B
06/09/2014	07:04:52.643	$GPGGA,070453,2507.2102,N,08009.6994,W,1,7,2.1,17,M,,M,,*55
06/09/2014	07:04:53.622	$GPGGA,070454,2507.2108,N,08009.6991,W,1,7,2.0,17,M,,M,,*5C
06/09/2014	07:04:54.742	$GPGGA,070455,2507.2110,N,08009.6989,W,1,8,2.0,17,M,,M,,*52
06/09/2014	07:04:55.670	$GPGGA,070456,2507.2113,N,08009.6986,W,1,8,2.1,17,M,,M,,*5C
06/09/2014	07:04:56.672	$GPGGA,070457,2507.2119,N,08009.6984,W,1,7,2.1,17,M,,M,,*5A
06/09/2014	07:04:57.749	$GPGGA,070458,2507.2126,N,08009.6983,W,1,7,2.0,17,M,,M,,*5F
06/09/2014	07:04:58.657	$GPGGA,070459,2507.2131,N,08009.6981,W,1,8,2.0,17,M,,M,,*55
06/09/2014	07:04:59.696	$GPGGA,070500,2507.2132,N,08009.6980,W,1,8,2.0,17,M,,M,,*5A
06/09/2014	07:05:00.685	$GPGGA,070501,2507.2137,N,08009.6979,W,1,7,2.1,17,M,,M,,*56
06/09/2014	07:05:01.694	$GPGGA,070502,2507.2139,N,08009.6980,W,1,7,2.1,17,M,,M,,*5D
06/09/2014	07:05:02.794	$GPGGA,070503,2507.2142,N,08009.6979,W,1,7,2.1,17,M,,M,,*56
06/09/2014	07:05:03.813	$GPGGA,070504,2507.2146,N,08009.6980,W,1,7,2.0,18,M,,M,,*5D
06/09/2014	07:05:04.802	$GPGGA,070505,2507.2148,N,08009.6979,W,1,8,2.0,18,M,,M,,*5B
06/09/2014	07:05:05.801	$GPGGA,070506,2507.2152,N,08009.6980,W,1,8,2.0,18,M,,M,,*55
06/09/2014	07:05:06.830	$GPGGA,070507,2507.2153,N,08009.6981,W,1,8,2.0,18,M,,M,,*54
06/09/2014	07:05:07.839	$GPGGA,070508,2507.2157,N,08009.6983,W,1,8,2.1,18,M,,M,,*5C
06/09/2014	07:05:08.848	$GPGGA,070509,2507.2160,N,08009.6982,W,1,8,2.0,18,M,,M,,*59
06/09/2014	07:05:09.836	$GPGGA,070510,2507.2164,N,08009.6984,W,1,8,2.0,18,M,,M,,*53
06/09/2014	07:05:10.835	$GPGGA,070511,2507.2168,N,08009.6985,W,1,8,2.0,18,M,,M,,*5F
06/09/2014	07:05:11.864	$GPGGA,070512,2507.2171,N,08009.6987,W,1,8,2.0,18,M,,M,,*56
06/09/2014	07:05:12.863	$GPGGA,070513,2507.2174,N,08009.6988,W,1,8,2.0,18,M,,M,,*5D
06/09/2014	07:05:13.872	$GPGGA,070514,2507.2177,N,08009.6990,W,1,8,2.0,18,M,,M,,*50
06/09/2014	07:05:14.891	$GPGGA,070515,2507.2179,N,08009.6991,W,1,8,2.0,18,M,,M,,*5E
06/09/2014	07:05:15.890	$GPGGA,070516,2507.2182,N,08009.6994,W,1,8,2.0,18,M,,M,,*5C
06/09/2014	07:05:16.899	$GPGGA,070517,2507.2185,N,08009.6996,W,1,8,2.0,18,M,,M,,*58
06/09/2014	07:05:17.928	$GPGGA,070518,2507.2188,N,08009.6998,W,1,8,2.0,18,M,,M,,*54
06/09/2014	07:05:18.917	$GPGGA,070519,2507.2191,N,08009.7001,W,1,8,2.0,18,M,,M,,*55
06/09/2014	07:05:19.926	$GPGGA,070520,2507.2193,N,08009.7003,W,1,8,2.0,18,M,,M,,*5F
06/09/2014	07:05:20.945	$GPGGA,070521,2507.2197,N,08009.7005,W,1,8,2.0,18,M,,M,,*5C
06/09/2014	07:05:21.914	$GPGGA,070522,2507.2202,N,08009.7009,W,1,8,2.0,18,M,,M,,*5C
06/09/2014	07:05:22.953	$GPGGA,070523,2507.2206,N,08009.7010,W,1,7,2.1,18,M,,M,,*5F
06/09/2014	07:05:23.942	$GPGGA,070524,2507.2208,N,08009.7013,W,1,7,2.0,18,M,,M,,*54
06/09/2014	07:05:24.941	$GPGGA,070525,2507.2214,N,08009.7017,W,1,8,2.0,18,M,,M,,*53
06/09/2014	07:05:25.939	$GPGGA,070526,2507.2220,N,08009.7020,W,1,8,2.0,18,M,,M,,*53
06/09/2014	07:05:26.998	$GPGGA,070527,2507.2224,N,08009.7024,W,1,8,2.0,18,M,,M,,*52
06/09/2014	07:05:27.977	$GPGGA,070528,2507.2228,N,08009.7028,W,1,8,2.0,18,M,,M,,*5D
06/09/2014	07:05:28.996	$GPGGA,070529,2507.2233,N,08009.7031,W,1,8,2.0,18,M,,M,,*5E
06/09/2014	07:05:29.984	$GPGGA,070530,2507.2239,N,08009.7035,W,1,8,2.0,18,M,,M,,*58
06/09/2014	07:05:31.014	$GPGGA,070531,2507.2243,N,08009.7038,W,1,8,2.0,18,M,,M,,*59
06/09/2014	07:05:32.013	$GPGGA,070532,2507.2249,N,08009.7042,W,1,8,2.1,18,M,,M,,*5C
06/09/2014	07:05:33.022	$GPGGA,070533,2507.2254,N,08009.7048,W,1,8,2.0,18,M,,M,,*5A
06/09/2014	07:05:34.010	$GPGGA,070534,2507.2261,N,08009.7052,W,1,8,2.0,18,M,,M,,*50
06/09/2014	07:05:35.029	$GPGGA,070535,2507.2267,N,08009.7056,W,1,8,2.0,18,M,,M,,*53
06/09/2014	07:05:36.028	$GPGGA,070536,2507.2272,N,08009.7060,W,1,8,2.0,18,M,,M,,*51
06/09/2014	07:05:37.049	$GPGGA,070537,2507.2279,N,08009.7064,W,1,8,2.0,18,M,,M,,*5F
06/09/2014	07:05:38.147	$GPGGA,070538,2507.2285,N,08009.7070,W,1,8,2.0,18,M,,M,,*56
06/09/2014	07:05:39.076	$GPGGA,070539,2507.2291,N,08009.7074,W,1,8,2.0,18,M,,M,,*56
06/09/2014	07:05:39.526	$GPGGA,070540,2507.2298,N,08009.7078,W,1,8,2.0,18,M,,M,,*5D
06/09/2014	07:05:40.505	$GPGGA,070541,2507.2304,N,08009.7085,W,1,8,2.0,18,M,,M,,*5A
06/09/2014	07:05:41.534	$GPGGA,070542,2507.2309,N,08009.7089,W,1,8,2.0,18,M,,M,,*58
06/09/2014	07:05:42.524	$GPGGA,070543,2507.2318,N,08009.7095,W,1,8,2.0,18,M,,M,,*54
06/09/2014	07:05:43.662	$GPGGA,070544,2507.2325,N,08009.7099,W,1,8,2.0,18,M,,M,,*51
06/09/2014	07:05:44.653	$GPGGA,070545,2507.2330,N,08009.7106,W,1,8,2.0,18,M,,M,,*53
06/09/2014	07:05:45.549	$GPGGA,070546,2507.2337,N,08009.7110,W,1,8,2.0,18,M,,M,,*50
06/09/2014	07:05:46.659	$GPGGA,070547,2507.2345,N,08009.7115,W,1,8,2.0,18,M,,M,,*51
06/09/2014	07:05:47.688	$GPGGA,070548,2507.2351,N,08009.7121,W,1,8,2.0,18,M,,M,,*5C
06/09/2014	07:05:48.667	$GPGGA,070549,2507.2359,N,08009.7128,W,1,8,2.0,18,M,,M,,*5C
06/09/2014	07:05:49.676	$GPGGA,070550,2507.2366,N,08009.7132,W,1,8,2.0,18,M,,M,,*53
06/09/2014	07:05:50.584	$GPGGA,070551,2507.2373,N,08009.7139,W,1,8,2.0,18,M,,M,,*5D
06/09/2014	07:05:51.694	$GPGGA,070552,2507.2380,N,08009.7146,W,1,8,2.0,18,M,,M,,*5A
06/09/2014	07:05:52.703	$GPGGA,070553,2507.2387,N,08009.7150,W,1,8,2.0,18,M,,M,,*5B
06/09/2014	07:05:53.702	$GPGGA,070554,2507.2394,N,08009.7157,W,1,8,2.0,18,M,,M,,*59
06/09/2014	07:05:54.744	$GPGGA,070555,2507.2401,N,08009.7162,W,1,8,2.0,18,M,,M,,*55
06/09/2014	07:05:55.720	$GPGGA,070556,2507.2408,N,08009.7168,W,1,8,2.0,18,M,,M,,*55
06/09/2014	07:05:56.719	$GPGGA,070557,2507.2416,N,08009.7175,W,1,8,2.0,18,M,,M,,*57
06/09/2014	07:05:57.738	$GPGGA,070558,2507.2423,N,08009.7180,W,1,8,2.0,18,M,,M,,*54
06/09/2014	07:05:58.767	$GPGGA,070559,2507.2431,N,08009.7187,W,1,8,2.0,18,M,,M,,*51
06/09/2014	07:05:59.766	$GPGGA,070600,2507.2438,N,08009.7193,W,1,8,2.0,18,M,,M,,*52
06/09/2014	07:06:00.765	$GPGGA,070601,2507.2445,N,08009.7200,W,1,8,2.0,18,M,,M,,*50
06/09/2014	07:06:01.763	$GPGGA,070602,2507.2452,N,08009.7207,W,1,8,2.0,18,M,,M,,*52
06/09/2014	07:06:02.762	$GPGGA,070603,2507.2460,N,08009.7214,W,1,8,2.0,18,M,,M,,*50
06/09/2014	07:06:03.791	$GPGGA,070604,2507.2467,N,08009.7219,W,1,8,2.0,18,M,,M,,*5D
06/09/2014	07:06:04.790	$GPGGA,070605,2507.2474,N,08009.7226,W,1,8,2.0,18,M,,M,,*52
06/09/2014	07:06:05.789	$GPGGA,070606,2507.2482,N,08009.7233,W,1,8,2.0,18,M,,M,,*5C
06/09/2014	07:06:06.808	$GPGGA,070607,2507.2489,N,08009.7240,W,1,8,2.0,18,M,,M,,*52
06/09/2014	07:06:07.817	$GPGGA,070608,2507.2496,N,08009.7247,W,1,8,2.0,18,M,,M,,*54
06/09/2014	07:06:08.826	$GPGGA,070609,2507.2504,N,08009.7254,W,1,8,2.0,18,M,,M,,*5D
06/09/2014	07:06:09.815	$GPGGA,070610,2507.2511,N,08009.7259,W,1,8,2.0,17,M,,M,,*53
06/09/2014	07:06:10.844	$GPGGA,070611,2507.2518,N,08009.7266,W,1,8,2.0,17,M,,M,,*57
06/09/2014	07:06:11.833	$GPGGA,070612,2507.2525,N,08009.7273,W,1,8,2.0,17,M,,M,,*5E
06/09/2014	07:06:12.862	$GPGGA,070613,2507.2533,N,08009.7280,W,1,8,2.0,17,M,,M,,*54
06/09/2014	07:06:13.851	$GPGGA,070614,2507.2540,N,08009.7287,W,1,8,2.0,17,M,,M,,*50
06/09/2014	07:06:14.880	$GPGGA,070615,2507.2549,N,08009.7294,W,1,8,2.0,17,M,,M,,*5A
06/09/2014	07:06:15.858	$GPGGA,070616,2507.2556,N,08009.7301,W,1,8,2.0,17,M,,M,,*5A
06/09/2014	07:06:16.857	$GPGGA,070617,2507.2562,N,08009.7309,W,1,8,2.0,17,M,,M,,*54
06/09/2014	07:06:17.876	$GPGGA,070618,2507.2572,N,08009.7314,W,1,8,2.0,17,M,,M,,*56
06/09/2014	07:06:18.864	$GPGGA,070619,2507.2579,N,08009.7323,W,1,8,2.0,17,M,,M,,*58
06/09/2014	07:06:19.904	$GPGGA,070620,2507.2587,N,08009.7330,W,1,8,2.0,17,M,,M,,*51
06/09/2014	07:06:20.885	$GPGGA,070621,2507.2594,N,08009.7337,W,1,8,2.0,17,M,,M,,*55
06/09/2014	07:06:21.901	$GPGGA,070622,2507.2603,N,08009.7342,W,1,8,2.0,17,M,,M,,*59
06/09/2014	07:06:22.900	$GPGGA,070623,2507.2609,N,08009.7350,W,1,8,2.0,17,M,,M,,*51
06/09/2014	07:06:23.919	$GPGGA,070624,2507.2616,N,08009.7357,W,1,8,2.0,17,M,,M,,*5F
06/09/2014	07:06:24.938	$GPGGA,070625,2507.2625,N,08009.7364,W,1,8,2.0,17,M,,M,,*5E
06/09/2014	07:06:25.922	$GPGGA,070626,2507.2633,N,08009.7371,W,1,8,2.0,17,M,,M,,*5E
06/09/2014	07:06:27.070	$GPGGA,070627,2507.2640,N,08009.7378,W,1,8,2.0,17,M,,M,,*52
06/09/2014	07:06:27.945	$GPGGA,070628,2507.2648,N,08009.7385,W,1,8,2.0,17,M,,M,,*57
06/09/2014	07:06:28.945	$GPGGA,070629,2507.2655,N,08009.7392,W,1,8,2.0,17,M,,M,,*5C
06/09/2014	07:06:29.963	$GPGGA,070630,2507.2663,N,08009.7399,W,1,8,2.0,17,M,,M,,*5A
06/09/2014	07:06:30.972	$GPGGA,070631,2507.2670,N,08009.7406,W,1,8,2.0,17,M,,M,,*58
06/09/2014	07:06:31.972	$GPGGA,070632,2507.2679,N,08009.7413,W,1,8,2.0,17,M,,M,,*56
06/09/2014	07:06:32.980	$GPGGA,070633,2507.2686,N,08009.7421,W,1,8,2.0,17,M,,M,,*56
06/09/2014	07:06:33.980	$GPGGA,070634,2507.2694,N,08009.7428,W,1,8,2.0,17,M,,M,,*5B
06/09/2014	07:06:34.990	$GPGGA,070635,2507.2702,N,08009.7435,W,1,8,2.0,17,M,,M,,*58
06/09/2014	07:06:36.112	$GPGGA,070636,2507.2710,N,08009.7442,W,1,8,2.0,17,M,,M,,*58
06/09/2014	07:06:37.006	$GPGGA,070637,2507.2717,N,08009.7449,W,1,8,2.0,17,M,,M,,*55
06/09/2014	07:06:38.115	$GPGGA,070638,2507.2724,N,08009.7456,W,1,8,2.0,17,M,,M,,*54
06/09/2014	07:06:39.151	$GPGGA,070639,2507.2733,N,08009.7462,W,1,8,2.0,17,M,,M,,*54
06/09/2014	07:06:39.635	$GPGGA,070640,2507.2741,N,08009.7469,W,1,8,2.0,17,M,,M,,*54
06/09/2014	07:06:40.604	$GPGGA,070641,2507.2749,N,08009.7476,W,1,8,2.0,17,M,,M,,*53
06/09/2014	07:06:41.593	$GPGGA,070642,2507.2756,N,08009.7485,W,1,8,2.0,17,M,,M,,*52
06/09/2014	07:06:42.635	$GPGGA,070643,2507.2764,N,08009.7491,W,1,8,2.0,17,M,,M,,*57
06/09/2014	07:06:43.651	$GPGGA,070644,2507.2773,N,08009.7498,W,1,8,2.0,17,M,,M,,*5F
06/09/2014	07:06:44.630	$GPGGA,070645,2507.2780,N,08009.7505,W,1,8,2.0,17,M,,M,,*57
06/09/2014	07:06:45.629	$GPGGA,070646,2507.2788,N,08009.7514,W,1,8,2.0,17,M,,M,,*5C
06/09/2014	07:06:46.648	$GPGGA,070647,2507.2796,N,08009.7520,W,1,8,2.0,17,M,,M,,*55
06/09/2014	07:06:47.647	$GPGGA,070648,2507.2803,N,08009.7527,W,1,8,2.0,17,M,,M,,*5E
06/09/2014	07:06:48.666	$GPGGA,070649,2507.2811,N,08009.7534,W,1,8,2.0,17,M,,M,,*5E
06/09/2014	07:06:49.645	$GPGGA,070650,2507.2820,N,08009.7541,W,1,8,2.0,17,M,,M,,*56
06/09/2014	07:06:50.674	$GPGGA,070651,2507.2827,N,08009.7548,W,1,8,2.0,17,M,,M,,*59
06/09/2014	07:06:51.683	$GPGGA,070652,2507.2835,N,08009.7555,W,1,8,2.0,17,M,,M,,*55
06/09/2014	07:06:52.702	$GPGGA,070653,2507.2843,N,08009.7562,W,1,8,2.0,17,M,,M,,*51
06/09/2014	07:06:53.680	$GPGGA,070654,2507.2850,N,08009.7569,W,1,8,2.0,17,M,,M,,*5F
06/09/2014	07:06:54.699	$GPGGA,070655,2507.2858,N,08009.7577,W,1,8,2.0,17,M,,M,,*59
06/09/2014	07:06:55.718	$GPGGA,070656,2507.2865,N,08009.7584,W,1,8,2.0,17,M,,M,,*58
06/09/2014	07:06:56.737	$GPGGA,070657,2507.2875,N,08009.7591,W,1,8,2.0,17,M,,M,,*5C
06/09/2014	07:06:57.695	$GPGGA,070658,2507.2883,N,08009.7598,W,1,8,2.0,17,M,,M,,*53
06/09/2014	07:06:58.735	$GPGGA,070659,2507.2890,N,08009.7606,W,1,8,2.0,17,M,,M,,*54
06/09/2014	07:06:59.764	$GPGGA,070700,2507.2897,N,08009.7613,W,1,8,2.0,17,M,,M,,*5A
06/09/2014	07:07:00.763	$GPGGA,070701,2507.2907,N,08009.7620,W,1,8,2.0,17,M,,M,,*53
06/09/2014	07:07:01.721	$GPGGA,070702,2507.2915,N,08009.7627,W,1,8,2.0,17,M,,M,,*54
06/09/2014	07:07:02.761	$GPGGA,070703,2507.2923,N,08009.7634,W,1,8,2.0,17,M,,M,,*52
06/09/2014	07:07:03.760	$GPGGA,070704,2507.2930,N,08009.7642,W,1,8,2.0,17,M,,M,,*56
06/09/2014	07:07:04.769	$GPGGA,070705,2507.2939,N,08009.7649,W,1,8,2.0,17,M,,M,,*55
06/09/2014	07:07:05.767	$GPGGA,070706,2507.2947,N,08009.7656,W,1,8,2.0,17,M,,M,,*51
06/09/2014	07:07:06.797	$GPGGA,070707,2507.2955,N,08009.7664,W,1,8,2.0,17,M,,M,,*52
06/09/2014	07:07:07.797	$GPGGA,070708,2507.2963,N,08009.7671,W,1,8,2.0,17,M,,M,,*5C
06/09/2014	07:07:08.815	$GPGGA,070709,2507.2972,N,08009.7678,W,1,8,2.0,17,M,,M,,*54
06/09/2014	07:07:09.798	$GPGGA,070710,2507.2980,N,08009.7686,W,1,8,2.0,17,M,,M,,*50
06/09/2014	07:07:10.805	$GPGGA,070711,2507.2988,N,08009.7693,W,1,8,2.0,17,M,,M,,*5D
06/09/2014	07:07:11.931	$GPGGA,070712,2507.2995,N,08009.7700,W,1,8,2.0,17,M,,M,,*59
06/09/2014	07:07:12.829	$GPGGA,070713,2507.3004,N,08009.7709,W,1,8,2.0,17,M,,M,,*51
06/09/2014	07:07:13.910	$GPGGA,070714,2507.3012,N,08009.7715,W,1,8,2.0,17,M,,M,,*5C
06/09/2014	07:07:14.837	$GPGGA,070715,2507.3020,N,08009.7724,W,1,8,2.0,17,M,,M,,*5E
06/09/2014	07:07:15.848	$GPGGA,070716,2507.3027,N,08009.7731,W,1,8,2.0,17,M,,M,,*5E
06/09/2014	07:07:16.849	$GPGGA,070717,2507.3035,N,08009.7738,W,1,8,2.0,17,M,,M,,*55
06/09/2014	07:07:17.935	$GPGGA,070718,2507.3044,N,08009.7746,W,1,8,2.0,17,M,,M,,*55
06/09/2014	07:07:18.974	$GPGGA,070719,2507.3052,N,08009.7753,W,1,8,2.0,17,M,,M,,*57
06/09/2014	07:07:19.892	$GPGGA,070720,2507.3060,N,08009.7760,W,1,8,2.0,17,M,,M,,*5C
06/09/2014	07:07:21.000	$GPGGA,070721,2507.3069,N,08009.7767,W,1,8,2.0,17,M,,M,,*53
06/09/2014	07:07:21.870	$GPGGA,070722,2507.3077,N,08009.7774,W,1,8,2.0,17,M,,M,,*5D
06/09/2014	07:07:22.970	$GPGGA,070723,2507.3084,N,08009.7782,W,1,8,2.0,17,M,,M,,*59
06/09/2014	07:07:24.004	$GPGGA,070724,2507.3092,N,08009.7789,W,1,8,2.0,17,M,,M,,*52
06/09/2014	07:07:24.913	$GPGGA,070725,2507.3100,N,08009.7796,W,1,8,2.0,17,M,,M,,*57
06/09/2014	07:07:25.987	$GPGGA,070726,2507.3109,N,08009.7803,W,1,8,2.0,17,M,,M,,*5E
06/09/2014	07:07:27.006	$GPGGA,070727,2507.3116,N,08009.7811,W,1,8,2.0,17,M,,M,,*52
06/09/2014	07:07:28.026	$GPGGA,070728,2507.3124,N,08009.7818,W,1,8,2.0,17,M,,M,,*55
06/09/2014	07:07:29.047	$GPGGA,070729,2507.3132,N,08009.7825,W,1,8,2.0,17,M,,M,,*5D
06/09/2014	07:07:30.032	$GPGGA,070730,2507.3139,N,08009.7832,W,1,8,2.0,17,M,,M,,*58
06/09/2014	07:07:31.041	$GPGGA,070731,2507.3147,N,08009.7840,W,1,8,2.0,17,M,,M,,*55
06/09/2014	07:07:32.050	$GPGGA,070732,2507.3154,N,08009.7847,W,1,8,2.0,17,M,,M,,*53
06/09/2014	07:07:33.060	$GPGGA,070733,2507.3164,N,08009.7852,W,1,8,2.0,17,M,,M,,*55
06/09/2014	07:07:34.048	$GPGGA,070734,2507.3172,N,08009.7861,W,1,8,2.0,17,M,,M,,*55
06/09/2014	07:07:35.047	$GPGGA,070735,2507.3179,N,08009.7868,W,1,8,2.0,17,M,,M,,*56
06/09/2014	07:07:36.076	$GPGGA,070736,2507.3186,N,08009.7874,W,1,8,2.0,17,M,,M,,*58
06/09/2014	07:07:37.085	$GPGGA,070737,2507.3196,N,08009.7881,W,1,8,2.0,17,M,,M,,*52
06/09/2014	07:07:38.074	$GPGGA,070738,2507.3201,N,08009.7890,W,1,8,2.0,17,M,,M,,*50
06/09/2014	07:07:39.103	$GPGGA,070739,2507.3210,N,08009.7897,W,1,8,2.0,17,M,,M,,*56
06/09/2014	07:07:39.574	$GPGGA,070740,2507.3219,N,08009.7904,W,1,8,2.0,17,M,,M,,*5A
06/09/2014	07:07:40.593	$GPGGA,070741,2507.3226,N,08009.7910,W,1,8,2.0,17,M,,M,,*52
06/09/2014	07:07:41.562	$GPGGA,070742,2507.3233,N,08009.7919,W,1,8,2.0,17,M,,M,,*5C
06/09/2014	07:07:42.571	$GPGGA,070743,2507.3241,N,08009.7926,W,1,8,2.0,16,M,,M,,*55
06/09/2014	07:07:43.600	$GPGGA,070744,2507.3251,N,08009.7931,W,1,8,2.0,16,M,,M,,*55
06/09/2014	07:07:44.619	$GPGGA,070745,2507.3258,N,08009.7939,W,1,8,2.0,16,M,,M,,*55
06/09/2014	07:07:45.598	$GPGGA,070746,2507.3265,N,08009.7946,W,1,8,2.0,16,M,,M,,*50
06/09/2014	07:07:48.159	$GPGGA,070747,2507.3273,N,08009.7953,W,1,8,2.0,16,M,,M,,*52
06/09/2014	07:07:48.613	$GPGGA,070749,2507.3288,N,08009.7966,W,1,8,2.0,16,M,,M,,*5E
06/09/2014	07:07:49.633	$GPGGA,070750,2507.3298,N,08009.7974,W,1,8,2.0,16,M,,M,,*54
06/09/2014	07:07:50.621	$GPGGA,070751,2507.3305,N,08009.7981,W,1,8,2.0,16,M,,M,,*5A
06/09/2014	07:07:51.661	$GPGGA,070752,2507.3313,N,08009.7988,W,1,8,2.0,16,M,,M,,*57
06/09/2014	07:07:52.680	$GPGGA,070753,2507.3320,N,08009.7995,W,1,8,2.0,16,M,,M,,*5A
06/09/2014	07:07:53.658	$GPGGA,070754,2507.3329,N,08009.8002,W,1,8,2.0,16,M,,M,,*5C
06/09/2014	07:07:54.653	$GPGGA,070755,2507.3337,N,08009.8009,W,1,8,2.0,16,M,,M,,*59
06/09/2014	07:07:55.666	$GPGGA,070756,2507.3345,N,08009.8017,W,1,8,2.0,16,M,,M,,*50
06/09/2014	07:07:56.685	$GPGGA,070757,2507.3353,N,08009.8024,W,1,8,2.0,16,M,,M,,*56
06/09/2014	07:07:57.679	$GPGGA,070758,2507.3360,N,08009.8031,W,1,8,2.0,16,M,,M,,*5D
06/09/2014	07:07:58.685	$GPGGA,070759,2507.3367,N,08009.8039,W,1,8,2.0,16,M,,M,,*53
06/09/2014	07:07:59.823	$GPGGA,070800,2507.3376,N,08009.8046,W,1,8,2.0,16,M,,M,,*58
06/09/2014	07:08:00.706	$GPGGA,070801,2507.3385,N,08009.8053,W,1,8,2.0,16,M,,M,,*51
06/09/2014	07:08:01.804	$GPGGA,070802,2507.3392,N,08009.8060,W,1,8,2.0,16,M,,M,,*54
06/09/2014	07:08:02.729	$GPGGA,070803,2507.3399,N,08009.8068,W,1,8,2.0,16,M,,M,,*56
06/09/2014	07:08:03.848	$GPGGA,070804,2507.3407,N,08009.8075,W,1,8,2.0,16,M,,M,,*5D
06/09/2014	07:08:04.741	$GPGGA,070805,2507.3417,N,08009.8082,W,1,8,2.0,16,M,,M,,*55
06/09/2014	07:08:05.737	$GPGGA,070806,2507.3425,N,08009.8089,W,1,8,2.0,16,M,,M,,*5C
06/09/2014	07:08:06.734	$GPGGA,070807,2507.3429,N,08009.8097,W,1,8,2.0,16,M,,M,,*5E
06/09/2014	07:08:07.854	$GPGGA,070808,2507.3439,N,08009.8104,W,1,8,2.0,16,M,,M,,*5B
06/09/2014	07:08:08.853	$GPGGA,070809,2507.3447,N,08009.8111,W,1,8,2.0,16,M,,M,,*57
06/09/2014	07:08:09.862	$GPGGA,070810,2507.3454,N,08009.8118,W,1,8,2.0,16,M,,M,,*54
06/09/2014	07:08:10.770	$GPGGA,070811,2507.3461,N,08009.8125,W,1,8,2.0,16,M,,M,,*5D
06/09/2014	07:08:11.900	$GPGGA,070812,2507.3471,N,08009.8132,W,1,8,2.0,16,M,,M,,*59
06/09/2014	07:08:12.909	$GPGGA,070813,2507.3478,N,08009.8139,W,1,8,2.0,16,M,,M,,*5A
06/09/2014	07:08:13.888	$GPGGA,070814,2507.3483,N,08009.8147,W,1,8,2.0,16,M,,M,,*50
06/09/2014	07:08:14.897	$GPGGA,070815,2507.3493,N,08009.8154,W,1,8,2.0,16,M,,M,,*52
06/09/2014	07:08:15.906	$GPGGA,070816,2507.3501,N,08009.8159,W,1,8,2.0,16,M,,M,,*56
06/09/2014	07:08:16.905	$GPGGA,070817,2507.3508,N,08009.8168,W,1,8,2.0,16,M,,M,,*5C
06/09/2014	07:08:17.904	$GPGGA,070818,2507.3515,N,08009.8175,W,1,8,2.0,16,M,,M,,*53
06/09/2014	07:08:18.914	$GPGGA,070819,2507.3525,N,08009.8180,W,1,8,2.0,16,M,,M,,*5B
06/09/2014	07:08:19.942	$GPGGA,070820,2507.3532,N,08009.8188,W,1,8,2.0,16,M,,M,,*5F
06/09/2014	07:08:20.941	$GPGGA,070821,2507.3540,N,08009.8195,W,1,8,2.0,16,M,,M,,*57
06/09/2014	07:08:21.949	$GPGGA,070822,2507.3548,N,08009.8201,W,1,8,2.0,16,M,,M,,*52
06/09/2014	07:08:22.968	$GPGGA,070823,2507.3555,N,08009.8208,W,1,8,2.0,16,M,,M,,*56
06/09/2014	07:08:23.967	$GPGGA,070824,2507.3564,N,08009.8216,W,1,8,2.0,16,M,,M,,*5C
06/09/2014	07:08:24.976	$GPGGA,070825,2507.3572,N,08009.8223,W,1,8,2.0,16,M,,M,,*5C
06/09/2014	07:08:25.965	$GPGGA,070826,2507.3579,N,08009.8230,W,1,8,2.0,16,M,,M,,*56
06/09/2014	07:08:26.994	$GPGGA,070827,2507.3587,N,08009.8237,W,1,8,2.0,16,M,,M,,*51
06/09/2014	07:08:28.003	$GPGGA,070828,2507.3595,N,08009.8244,W,1,8,2.0,16,M,,M,,*59
06/09/2014	07:08:29.002	$GPGGA,070829,2507.3602,N,08009.8251,W,1,8,2.0,16,M,,M,,*51
06/09/2014	07:08:30.001	$GPGGA,070830,2507.3609,N,08009.8259,W,1,8,2.0,16,M,,M,,*5A
06/09/2014	07:08:31.030	$GPGGA,070831,2507.3619,N,08009.8266,W,1,8,2.0,16,M,,M,,*56
06/09/2014	07:08:32.029	$GPGGA,070832,2507.3626,N,08009.8273,W,1,8,2.0,16,M,,M,,*5D
06/09/2014	07:08:33.048	$GPGGA,070833,2507.3634,N,08009.8280,W,1,8,2.0,16,M,,M,,*53
06/09/2014	07:08:34.026	$GPGGA,070834,2507.3642,N,08009.8288,W,1,8,2.0,16,M,,M,,*5D
06/09/2014	07:08:35.025	$GPGGA,070835,2507.3649,N,08009.8295,W,1,8,2.0,16,M,,M,,*5B
06/09/2014	07:08:36.055	$GPGGA,070836,2507.3656,N,08009.8302,W,1,8,2.0,16,M,,M,,*59
06/09/2014	07:08:37.075	$GPGGA,070837,2507.3666,N,08009.8309,W,1,8,2.0,16,M,,M,,*50
06/09/2014	07:08:38.061	$GPGGA,070838,2507.3674,N,08009.8316,W,1,8,2.0,16,M,,M,,*52
06/09/2014	07:08:39.065	$GPGGA,070839,2507.3681,N,08009.8322,W,1,8,2.0,16,M,,M,,*5E
06/09/2014	07:08:39.539	$GPGGA,070840,2507.3689,N,08009.8329,W,1,8,2.0,16,M,,M,,*53
06/09/2014	07:08:40.564	$GPGGA,070841,2507.3696,N,08009.8336,W,1,8,2.0,16,M,,M,,*52
06/09/2014	07:08:41.529	$GPGGA,070842,2507.3705,N,08009.8343,W,1,8,2.0,16,M,,M,,*58
06/09/2014	07:08:42.554	$GPGGA,070843,2507.3713,N,08009.8352,W,1,8,2.0,16,M,,M,,*5E
06/09/2014	07:08:43.548	$GPGGA,070844,2507.3721,N,08009.8357,W,1,8,2.0,16,M,,M,,*5D
06/09/2014	07:08:44.533	$GPGGA,070845,2507.3728,N,08009.8364,W,1,8,2.0,16,M,,M,,*55
06/09/2014	07:08:45.548	$GPGGA,070846,2507.3736,N,08009.8371,W,1,8,2.0,16,M,,M,,*5D
06/09/2014	07:08:46.633	$GPGGA,070847,2507.3743,N,08009.8378,W,1,8,2.0,16,M,,M,,*57
06/09/2014	07:08:47.678	$GPGGA,070848,2507.3750,N,08009.8385,W,1,8,2.0,16,M,,M,,*58
06/09/2014	07:08:48.673	$GPGGA,070849,2507.3759,N,08009.8392,W,1,8,2.0,16,M,,M,,*56
06/09/2014	07:08:49.553	$GPGGA,070850,2507.3765,N,08009.8399,W,1,8,2.0,15,M,,M,,*59
06/09/2014	07:08:50.572	$GPGGA,070851,2507.3772,N,08009.8404,W,1,8,2.0,15,M,,M,,*5D
06/09/2014	07:08:51.667	$GPGGA,070852,2507.3779,N,08009.8410,W,1,8,2.0,15,M,,M,,*50
06/09/2014	07:08:52.581	$GPGGA,070853,2507.3788,N,08009.8417,W,1,8,2.0,15,M,,M,,*58
06/09/2014	07:08:53.556	$GPGGA,070854,2507.3793,N,08009.8423,W,1,8,2.0,15,M,,M,,*52
06/09/2014	07:08:54.661	$GPGGA,070855,2507.3801,N,08009.8429,W,1,8,2.0,15,M,,M,,*5D
06/09/2014	07:08:55.586	$GPGGA,070856,2507.3808,N,08009.8436,W,1,8,2.0,15,M,,M,,*59
06/09/2014	07:08:56.700	$GPGGA,070857,2507.3815,N,08009.8441,W,1,8,2.0,15,M,,M,,*54
06/09/2014	07:08:57.665	$GPGGA,070858,2507.3822,N,08009.8447,W,1,8,2.0,15,M,,M,,*59
06/09/2014	07:08:58.579	$GPGGA,070859,2507.3828,N,08009.8452,W,1,8,2.0,15,M,,M,,*56
06/09/2014	07:08:59.594	$GPGGA,070900,2507.3835,N,08009.8457,W,1,8,2.0,15,M,,M,,*52
06/09/2014	07:09:00.689	$GPGGA,070901,2507.3840,N,08009.8462,W,1,8,2.0,15,M,,M,,*57
06/09/2014	07:09:01.684	$GPGGA,070902,2507.3848,N,08009.8468,W,1,8,2.0,15,M,,M,,*56
06/09/2014	07:09:02.729	$GPGGA,070903,2507.3855,N,08009.8473,W,1,8,2.0,15,M,,M,,*51
06/09/2014	07:09:03.693	$GPGGA,070904,2507.3861,N,08009.8479,W,1,8,2.0,15,M,,M,,*5B
06/09/2014	07:09:04.688	$GPGGA,070905,2507.3868,N,08009.8484,W,1,8,2.0,15,M,,M,,*51
06/09/2014	07:09:05.693	$GPGGA,070906,2507.3875,N,08009.8490,W,1,8,2.0,15,M,,M,,*5B
06/09/2014	07:09:06.718	$GPGGA,070907,2507.3880,N,08009.8495,W,1,8,2.0,15,M,,M,,*55
06/09/2014	07:09:07.713	$GPGGA,070908,2507.3887,N,08009.8501,W,1,8,2.0,15,M,,M,,*51
06/09/2014	07:09:08.718	$GPGGA,070909,2507.3894,N,08009.8505,W,1,8,2.0,15,M,,M,,*56
06/09/2014	07:09:09.712	$GPGGA,070910,2507.3900,N,08009.8512,W,1,8,2.0,15,M,,M,,*54
06/09/2014	07:09:10.727	$GPGGA,070911,2507.3905,N,08009.8517,W,1,8,2.0,15,M,,M,,*55
06/09/2014	07:09:11.732	$GPGGA,070912,2507.3912,N,08009.8522,W,1,8,2.0,15,M,,M,,*56
06/09/2014	07:09:12.748	$GPGGA,070913,2507.3918,N,08009.8529,W,1,8,2.0,15,M,,M,,*56
06/09/2014	07:09:13.720	$GPGGA,070914,2507.3924,N,08009.8533,W,1,8,2.0,15,M,,M,,*55
06/09/2014	07:09:14.715	$GPGGA,070915,2507.3931,N,08009.8537,W,1,8,2.0,15,M,,M,,*54
06/09/2014	07:09:15.740	$GPGGA,070916,2507.3937,N,08009.8544,W,1,8,2.2,15,M,,M,,*57
06/09/2014	07:09:16.746	$GPGGA,070917,2507.3941,N,08009.8548,W,1,8,2.0,15,M,,M,,*59
06/09/2014	07:09:17.750	$GPGGA,070918,2507.3949,N,08009.8553,W,1,8,2.0,15,M,,M,,*54
06/09/2014	07:09:18.754	$GPGGA,070919,2507.3956,N,08009.8559,W,1,8,2.0,15,M,,M,,*51
06/09/2014	07:09:19.749	$GPGGA,070920,2507.3960,N,08009.8564,W,1,8,2.2,15,M,,M,,*52
06/09/2014	07:09:20.764	$GPGGA,070921,2507.3967,N,08009.8569,W,1,7,2.2,15,M,,M,,*56
06/09/2014	07:09:21.739	$GPGGA,070922,2507.3973,N,08009.8573,W,1,7,2.0,15,M,,M,,*59
06/09/2014	07:09:22.784	$GPGGA,070923,2507.3978,N,08009.8578,W,1,7,2.2,15,M,,M,,*5A
06/09/2014	07:09:23.758	$GPGGA,070924,2507.3984,N,08009.8584,W,1,7,2.2,15,M,,M,,*5D
06/09/2014	07:09:24.753	$GPGGA,070925,2507.3989,N,08009.8588,W,1,7,2.2,15,M,,M,,*5D
06/09/2014	07:09:25.758	$GPGGA,070926,2507.3998,N,08009.8595,W,1,7,2.0,15,M,,M,,*50
06/09/2014	07:09:26.743	$GPGGA,070927,2507.4005,N,08009.8600,W,1,8,2.0,15,M,,M,,*5B
06/09/2014	07:09:27.778	$GPGGA,070928,2507.4010,N,08009.8605,W,1,8,2.0,15,M,,M,,*55
06/09/2014	07:09:28.752	$GPGGA,070929,2507.4018,N,08009.8611,W,1,8,2.0,15,M,,M,,*59
06/09/2014	07:09:29.767	$GPGGA,070930,2507.4025,N,08009.8616,W,1,8,2.0,15,M,,M,,*58
06/09/2014	07:09:30.762	$GPGGA,070931,2507.4032,N,08009.8623,W,1,8,2.0,15,M,,M,,*59
06/09/2014	07:09:31.787	$GPGGA,070932,2507.4039,N,08009.8627,W,1,8,2.0,15,M,,M,,*55
06/09/2014	07:09:32.760	$GPGGA,070933,2507.4046,N,08009.8634,W,1,8,2.0,15,M,,M,,*5E
06/09/2014	07:09:33.775	$GPGGA,070934,2507.4053,N,08009.8638,W,1,8,2.0,15,M,,M,,*51
06/09/2014	07:09:34.951	$GPGGA,070935,2507.4060,N,08009.8643,W,1,8,2.0,15,M,,M,,*5C
06/09/2014	07:09:35.785	$GPGGA,070936,2507.4066,N,08009.8649,W,1,8,2.0,15,M,,M,,*53
06/09/2014	07:09:36.790	$GPGGA,070937,2507.4072,N,08009.8654,W,1,8,2.0,15,M,,M,,*5B
06/09/2014	07:09:37.915	$GPGGA,070938,2507.4079,N,08009.8660,W,1,8,2.0,16,M,,M,,*5B
06/09/2014	07:09:38.799	$GPGGA,070939,2507.4083,N,08009.8664,W,1,8,2.0,16,M,,M,,*5B
06/09/2014	07:09:39.659	$GPGGA,070940,2507.4090,N,08009.8670,W,1,8,2.0,16,M,,M,,*52
06/09/2014	07:09:40.503	$GPGGA,070941,2507.4097,N,08009.8674,W,1,8,2.0,16,M,,M,,*50
06/09/2014	07:09:41.638	$GPGGA,070942,2507.4103,N,08009.8678,W,1,8,2.0,16,M,,M,,*53
06/09/2014	07:09:42.693	$GPGGA,070943,2507.4107,N,08009.8683,W,1,8,2.0,16,M,,M,,*52
06/09/2014	07:09:43.528	$GPGGA,070944,2507.4113,N,08009.8689,W,1,8,2.0,16,M,,M,,*5A
06/09/2014	07:09:44.703	$GPGGA,070945,2507.4119,N,08009.8693,W,1,8,2.0,16,M,,M,,*5A
06/09/2014	07:09:45.618	$GPGGA,070946,2507.4126,N,08009.8697,W,1,8,2.0,16,M,,M,,*51
06/09/2014	07:09:46.612	$GPGGA,070947,2507.4132,N,08009.8703,W,1,8,2.0,16,M,,M,,*59
06/09/2014	07:09:47.627	$GPGGA,070948,2507.4136,N,08009.8707,W,1,8,2.0,16,M,,M,,*56
06/09/2014	07:09:48.711	$GPGGA,070949,2507.4142,N,08009.8712,W,1,8,2.0,17,M,,M,,*51
06/09/2014	07:09:49.662	$GPGGA,070950,2507.4148,N,08009.8717,W,1,8,2.0,17,M,,M,,*56
06/09/2014	07:09:50.720	$GPGGA,070951,2507.4154,N,08009.8721,W,1,8,2.0,17,M,,M,,*5F
06/09/2014	07:09:51.675	$GPGGA,070952,2507.4158,N,08009.8726,W,1,8,2.0,17,M,,M,,*57
06/09/2014	07:09:52.750	$GPGGA,070953,2507.4165,N,08009.8730,W,1,8,2.0,17,M,,M,,*5F
06/09/2014	07:09:53.655	$GPGGA,070954,2507.4171,N,08009.8736,W,1,8,2.0,17,M,,M,,*5B
06/09/2014	07:09:54.710	$GPGGA,070955,2507.4176,N,08009.8740,W,1,8,2.0,17,M,,M,,*5C
06/09/2014	07:09:55.644	$GPGGA,070956,2507.4182,N,08009.8744,W,1,8,2.0,17,M,,M,,*50
06/09/2014	07:09:56.749	$GPGGA,070957,2507.4187,N,08009.8750,W,1,8,2.0,17,M,,M,,*51
06/09/2014	07:09:57.676	$GPGGA,070958,2507.4193,N,08009.8754,W,1,8,2.0,17,M,,M,,*5F
06/09/2014	07:09:58.759	$GPGGA,070959,2507.4198,N,08009.8759,W,1,8,2.0,17,M,,M,,*58
06/09/2014	07:09:59.723	$GPGGA,071000,2507.4204,N,08009.8764,W,1,8,2.0,17,M,,M,,*54
06/09/2014	07:10:00.779	$GPGGA,071001,2507.4209,N,08009.8769,W,1,8,2.0,17,M,,M,,*55
06/09/2014	07:10:01.684	$GPGGA,071002,2507.4216,N,08009.8773,W,1,8,2.0,17,M,,M,,*53
06/09/2014	07:10:02.808	$GPGGA,071003,2507.4220,N,08009.8779,W,1,8,2.0,17,M,,M,,*5D
06/09/2014	07:10:03.662	$GPGGA,071004,2507.4226,N,08009.8783,W,1,8,2.0,17,M,,M,,*59
06/09/2014	07:10:04.798	$GPGGA,071005,2507.4231,N,08009.8787,W,1,8,2.0,17,M,,M,,*5A
06/09/2014	07:10:05.662	$GPGGA,071006,2507.4237,N,08009.8793,W,1,8,2.0,17,M,,M,,*5A
06/09/2014	07:10:06.786	$GPGGA,071007,2507.4242,N,08009.8797,W,1,8,2.0,17,M,,M,,*5D
06/09/2014	07:10:07.711	$GPGGA,071008,2507.4248,N,08009.8801,W,1,8,2.0,17,M,,M,,*58
06/09/2014	07:10:08.756	$GPGGA,071009,2507.4252,N,08009.8806,W,1,8,2.0,17,M,,M,,*55
06/09/2014	07:10:09.700	$GPGGA,071010,2507.4258,N,08009.8811,W,1,8,2.0,17,M,,M,,*51
06/09/2014	07:10:10.785	$GPGGA,071011,2507.4263,N,08009.8815,W,1,8,2.0,17,M,,M,,*5C
06/09/2014	07:10:11.690	$GPGGA,071012,2507.4269,N,08009.8820,W,1,8,2.0,17,M,,M,,*53
06/09/2014	07:10:12.756	$GPGGA,071013,2507.4274,N,08009.8826,W,1,8,2.0,17,M,,M,,*58
06/09/2014	07:10:13.719	$GPGGA,071014,2507.4280,N,08009.8829,W,1,8,2.0,17,M,,M,,*5B
06/09/2014	07:10:14.805	$GPGGA,071015,2507.4285,N,08009.8833,W,1,8,2.0,17,M,,M,,*54
06/09/2014	07:10:15.699	$GPGGA,071016,2507.4290,N,08009.8838,W,1,8,2.0,17,M,,M,,*58
06/09/2014	07:10:16.814	$GPGGA,071017,2507.4296,N,08009.8844,W,1,8,2.0,17,M,,M,,*54
06/09/2014	07:10:17.698	$GPGGA,071018,2507.4301,N,08009.8848,W,1,8,2.0,17,M,,M,,*58
06/09/2014	07:10:18.787	$GPGGA,071019,2507.4306,N,08009.8853,W,1,8,2.0,17,M,,M,,*54
06/09/2014	07:10:19.748	$GPGGA,071020,2507.4312,N,08009.8858,W,1,8,2.0,17,M,,M,,*50
06/09/2014	07:10:20.788	$GPGGA,071021,2507.4317,N,08009.8862,W,1,8,2.0,17,M,,M,,*5D
06/09/2014	07:10:21.728	$GPGGA,071022,2507.4323,N,08009.8866,W,1,8,2.0,17,M,,M,,*5D
06/09/2014	07:10:22.843	$GPGGA,071023,2507.4328,N,08009.8871,W,1,8,2.0,17,M,,M,,*51
06/09/2014	07:10:23.766	$GPGGA,071024,2507.4334,N,08009.8876,W,1,8,2.0,17,M,,M,,*5C
06/09/2014	07:10:24.811	$GPGGA,071025,2507.4339,N,08009.8881,W,1,8,2.0,17,M,,M,,*58
06/09/2014	07:10:25.756	$GPGGA,071026,2507.4343,N,08009.8885,W,1,8,2.0,17,M,,M,,*52
06/09/2014	07:10:26.871	$GPGGA,071027,2507.4350,N,08009.8891,W,1,8,2.0,17,M,,M,,*54
06/09/2014	07:10:27.784	$GPGGA,071028,2507.4356,N,08009.8895,W,1,8,2.0,17,M,,M,,*59
06/09/2014	07:10:28.819	$GPGGA,071029,2507.4361,N,08009.8899,W,1,8,2.0,17,M,,M,,*50
06/09/2014	07:10:29.723	$GPGGA,071030,2507.4367,N,08009.8905,W,1,8,2.0,17,M,,M,,*5A
06/09/2014	07:10:30.817	$GPGGA,071031,2507.4371,N,08009.8909,W,1,8,2.0,17,M,,M,,*50
06/09/2014	07:10:31.782	$GPGGA,071032,2507.4377,N,08009.8913,W,1,8,2.0,17,M,,M,,*5E
06/09/2014	07:10:32.837	$GPGGA,071033,2507.4382,N,08009.8918,W,1,8,2.0,17,M,,M,,*5E
06/09/2014	07:10:33.780	$GPGGA,071034,2507.4388,N,08009.8923,W,1,8,2.0,17,M,,M,,*5B
06/09/2014	07:10:34.845	$GPGGA,071035,2507.4393,N,08009.8928,W,1,8,2.0,17,M,,M,,*5B
06/09/2014	07:10:35.861	$GPGGA,071036,2507.4399,N,08009.8934,W,1,8,2.0,17,M,,M,,*5F
06/09/2014	07:10:36.843	$GPGGA,071037,2507.4404,N,08009.8938,W,1,8,2.0,17,M,,M,,*51
06/09/2014	07:10:37.858	$GPGGA,071038,2507.4410,N,08009.8942,W,1,8,2.0,17,M,,M,,*56
06/09/2014	07:10:38.862	$GPGGA,071039,2507.4415,N,08009.8947,W,1,8,2.0,17,M,,M,,*57
06/09/2014	07:10:39.587	$GPGGA,071040,2507.4421,N,08009.8952,W,1,8,2.0,17,M,,M,,*5A
06/09/2014	07:10:40.600	$GPGGA,071041,2507.4426,N,08009.8957,W,1,8,2.0,17,M,,M,,*59
06/09/2014	07:10:41.575	$GPGGA,071042,2507.4432,N,08009.8963,W,1,8,2.0,18,M,,M,,*57
06/09/2014	07:10:42.590	$GPGGA,071043,2507.4437,N,08009.8967,W,1,8,2.0,18,M,,M,,*57
06/09/2014	07:10:43.593	$GPGGA,071044,2507.4443,N,08009.8971,W,1,8,2.0,18,M,,M,,*54
06/09/2014	07:10:44.634	$GPGGA,071045,2507.4447,N,08009.8977,W,1,8,2.0,18,M,,M,,*57
06/09/2014	07:10:45.592	$GPGGA,071046,2507.4453,N,08009.8981,W,1,8,2.0,18,M,,M,,*58
06/09/2014	07:10:46.616	$GPGGA,071047,2507.4458,N,08009.8986,W,1,8,2.0,18,M,,M,,*55
06/09/2014	07:10:47.600	$GPGGA,071048,2507.4462,N,08009.8992,W,1,8,2.0,18,M,,M,,*56
06/09/2014	07:10:48.625	$GPGGA,071049,2507.4468,N,08009.8996,W,1,8,2.0,18,M,,M,,*59
06/09/2014	07:10:49.609	$GPGGA,071050,2507.4473,N,08009.9001,W,1,8,2.0,18,M,,M,,*5D
06/09/2014	07:10:50.633	$GPGGA,071051,2507.4478,N,08009.9007,W,1,8,2.0,18,M,,M,,*51
06/09/2014	07:10:51.598	$GPGGA,071052,2507.4483,N,08009.9011,W,1,8,2.0,18,M,,M,,*51
06/09/2014	07:10:52.622	$GPGGA,071053,2507.4483,N,08009.9011,W,1,8,2.0,18,M,,M,,*50
06/09/2014	07:10:53.606	$GPGGA,071054,2507.4493,N,08009.9021,W,1,8,2.0,18,M,,M,,*55
06/09/2014	07:10:54.691	$GPGGA,071055,2507.4497,N,08009.9026,W,1,8,2.2,18,M,,M,,*55
06/09/2014	07:10:55.625	$GPGGA,071056,2507.4501,N,08009.9032,W,1,8,2.0,18,M,,M,,*5F
06/09/2014	07:10:56.649	$GPGGA,071057,2507.4505,N,08009.9036,W,1,8,2.0,18,M,,M,,*5E
06/09/2014	07:10:57.603	$GPGGA,071058,2507.4511,N,08009.9042,W,1,8,2.0,18,M,,M,,*57
06/09/2014	07:10:58.657	$GPGGA,071059,2507.4516,N,08009.9046,W,1,7,2.0,17,M,,M,,*55
06/09/2014	07:10:59.641	$GPGGA,071100,2507.4520,N,08009.9051,W,1,7,2.0,17,M,,M,,*5B
06/09/2014	07:11:00.665	$GPGGA,071101,2507.4526,N,08009.9057,W,1,8,2.0,17,M,,M,,*55
06/09/2014	07:11:01.619	$GPGGA,071102,2507.4530,N,08009.9061,W,1,8,2.0,17,M,,M,,*54
06/09/2014	07:11:02.684	$GPGGA,071103,2507.4534,N,08009.9065,W,1,8,2.2,17,M,,M,,*57
06/09/2014	07:11:03.668	$GPGGA,071104,2507.4538,N,08009.9071,W,1,8,2.2,17,M,,M,,*59
06/09/2014	07:11:04.652	$GPGGA,071105,2507.4544,N,08009.9075,W,1,7,2.2,17,M,,M,,*58
06/09/2014	07:11:05.637	$GPGGA,071106,2507.4548,N,08009.9080,W,1,7,2.0,17,M,,M,,*5F
06/09/2014	07:11:06.651	$GPGGA,071107,2507.4552,N,08009.9086,W,1,8,2.0,17,M,,M,,*5C
06/09/2014	07:11:07.655	$GPGGA,071108,2507.4558,N,08009.9091,W,1,8,2.0,17,M,,M,,*5F
06/09/2014	07:11:08.700	$GPGGA,071109,2507.4563,N,08009.9097,W,1,8,2.0,17,M,,M,,*50
06/09/2014	07:11:09.644	$GPGGA,071110,2507.4569,N,08009.9101,W,1,8,2.0,17,M,,M,,*5C
06/09/2014	07:11:10.658	$GPGGA,071111,2507.4569,N,08009.9101,W,1,8,2.0,17,M,,M,,*5D
06/09/2014	07:11:11.662	$GPGGA,071112,2507.4577,N,08009.9112,W,1,8,2.0,17,M,,M,,*53
06/09/2014	07:11:12.657	$GPGGA,071113,2507.4577,N,08009.9112,W,1,8,2.0,17,M,,M,,*52
06/09/2014	07:11:13.741	$GPGGA,071114,2507.4588,N,08009.9122,W,1,8,2.0,17,M,,M,,*56
06/09/2014	07:11:14.761	$GPGGA,071115,2507.4592,N,08009.9126,W,1,8,2.0,17,M,,M,,*58
06/09/2014	07:11:15.662	$GPGGA,071116,2507.4595,N,08009.9131,W,1,8,2.0,17,M,,M,,*5A
06/09/2014	07:11:16.673	$GPGGA,071117,2507.4601,N,08009.9137,W,1,8,2.0,17,M,,M,,*53
06/09/2014	07:11:17.647	$GPGGA,071118,2507.4606,N,08009.9141,W,1,8,2.0,17,M,,M,,*5A
06/09/2014	07:11:18.762	$GPGGA,071119,2507.4610,N,08009.9147,W,1,8,2.0,17,M,,M,,*5A
06/09/2014	07:11:19.769	$GPGGA,071120,2507.4614,N,08009.9151,W,1,8,2.0,17,M,,M,,*53
06/09/2014	07:11:20.791	$GPGGA,071121,2507.4620,N,08009.9156,W,1,8,2.0,17,M,,M,,*52
06/09/2014	07:11:21.765	$GPGGA,071122,2507.4624,N,08009.9162,W,1,8,2.0,17,M,,M,,*52
06/09/2014	07:11:22.771	$GPGGA,071123,2507.4628,N,08009.9166,W,1,8,2.0,17,M,,M,,*5B
06/09/2014	07:11:23.773	$GPGGA,071124,2507.4632,N,08009.9171,W,1,8,2.0,17,M,,M,,*51
06/09/2014	07:11:24.778	$GPGGA,071125,2507.4638,N,08009.9176,W,1,8,2.0,17,M,,M,,*5D
06/09/2014	07:11:25.762	$GPGGA,071126,2507.4642,N,08009.9180,W,1,8,2.0,17,M,,M,,*5A
06/09/2014	07:11:26.816	$GPGGA,071127,2507.4646,N,08009.9185,W,1,8,2.0,17,M,,M,,*5A
06/09/2014	07:11:27.780	$GPGGA,071128,2507.4650,N,08009.9191,W,1,8,2.0,17,M,,M,,*57
06/09/2014	07:11:28.795	$GPGGA,071129,2507.4650,N,08009.9191,W,1,8,2.0,17,M,,M,,*56
06/09/2014	07:11:29.779	$GPGGA,071130,2507.4660,N,08009.9199,W,1,8,2.0,17,M,,M,,*55
06/09/2014	07:11:30.803	$GPGGA,071131,2507.4664,N,08009.9205,W,1,8,2.0,17,M,,M,,*56
06/09/2014	07:11:31.798	$GPGGA,071132,2507.4668,N,08009.9209,W,1,8,2.0,17,M,,M,,*55
06/09/2014	07:11:32.812	$GPGGA,071133,2507.4674,N,08009.9214,W,1,8,2.0,17,M,,M,,*55
06/09/2014	07:11:33.785	$GPGGA,071134,2507.4678,N,08009.9220,W,1,8,2.0,17,M,,M,,*59
06/09/2014	07:11:34.820	$GPGGA,071135,2507.4682,N,08009.9224,W,1,8,2.0,17,M,,M,,*59
06/09/2014	07:11:35.804	$GPGGA,071136,2507.4686,N,08009.9230,W,1,8,2.0,17,M,,M,,*5B
06/09/2014	07:11:36.829	$GPGGA,071137,2507.4691,N,08009.9234,W,1,8,2.0,17,M,,M,,*58
06/09/2014	07:11:37.802	$GPGGA,071138,2507.4696,N,08009.9239,W,1,8,2.0,17,M,,M,,*5D
06/09/2014	07:11:38.797	$GPGGA,071139,2507.4700,N,08009.9245,W,1,8,2.0,16,M,,M,,*58
06/09/2014	07:11:39.565	$GPGGA,071140,2507.4704,N,08009.9249,W,1,8,2.0,16,M,,M,,*5E
06/09/2014	07:11:40.569	$GPGGA,071141,2507.4710,N,08009.9253,W,1,8,2.0,16,M,,M,,*51
06/09/2014	07:11:41.554	$GPGGA,071142,2507.4713,N,08009.9259,W,1,8,2.0,16,M,,M,,*5B
06/09/2014	07:11:42.548	$GPGGA,071143,2507.4718,N,08009.9263,W,1,8,2.0,16,M,,M,,*58
06/09/2014	07:11:43.562	$GPGGA,071144,2507.4722,N,08009.9268,W,1,8,2.0,16,M,,M,,*5D
06/09/2014	07:11:44.556	$GPGGA,071145,2507.4728,N,08009.9274,W,1,8,2.0,16,M,,M,,*5B
06/09/2014	07:11:45.571	$GPGGA,071146,2507.4732,N,08009.9278,W,1,8,2.0,16,M,,M,,*5F
06/09/2014	07:11:46.575	$GPGGA,071147,2507.4736,N,08009.9282,W,1,8,2.1,16,M,,M,,*5E
06/09/2014	07:11:47.579	$GPGGA,071148,2507.4740,N,08009.9288,W,1,8,2.1,16,M,,M,,*5A
06/09/2014	07:11:48.574	$GPGGA,071149,2507.4743,N,08009.9292,W,1,8,2.1,16,M,,M,,*53
