Software Version Number: 1	Data File Format Number: 1	Build Version Number: 1	Error Count Since VI Started: 0	Manufacturer: Raytheon	 Model Number: RayMarine 120	 S/N: 	 Cal Date: 	 Wind Direction Offset: 0.00	 Slope (M)1: 0.00	 Offset (B)1: 0.00	 Slope (M)2: 0.00	 Offset (B)2: 0.00	 Slope (M)3: 0.00	 Offset (B)3: 0.00	 Slope (M)4: 0.00	 Offset (B)4: 0.00	 Slope (M)5: 0.00	 Offset (B)5: 0.00	 Slope (M)6: 0.00	 Offset (B)6: 0.00
Computer Date	Computer Time	GGA String
06/10/2014	01:00:00.375	$GPGGA,010009,2555.9881,N,08000.8613,W,1,9,1.5,16,M,,M,,*59
06/10/2014	01:00:01.341	$GPGGA,010010,2555.9890,N,08000.8632,W,1,9,1.5,16,M,,M,,*52
06/10/2014	01:00:02.302	$GPGGA,010011,2555.9898,N,08000.8650,W,1,9,1.5,16,M,,M,,*5F
06/10/2014	01:00:03.294	$GPGGA,010012,2555.9906,N,08000.8670,W,1,9,1.5,16,M,,M,,*58
06/10/2014	01:00:04.317	$GPGGA,010013,2555.9916,N,08000.8689,W,1,9,1.5,16,M,,M,,*5E
06/10/2014	01:00:05.309	$GPGGA,010014,2555.9924,N,08000.8707,W,1,9,1.5,16,M,,M,,*5F
06/10/2014	01:00:06.341	$GPGGA,010015,2555.9932,N,08000.8725,W,1,9,1.5,16,M,,M,,*59
06/10/2014	01:00:07.334	$GPGGA,010016,2555.9942,N,08000.8744,W,1,9,1.5,16,M,,M,,*5A
06/10/2014	01:00:08.326	$GPGGA,010017,2555.9949,N,08000.8764,W,1,9,1.5,16,M,,M,,*52
06/10/2014	01:00:09.348	$GPGGA,010018,2555.9959,N,08000.8783,W,1,9,1.5,16,M,,M,,*55
06/10/2014	01:00:10.371	$GPGGA,010019,2555.9967,N,08000.8801,W,1,9,1.5,16,M,,M,,*5C
06/10/2014	01:00:11.373	$GPGGA,010020,2555.9975,N,08000.8819,W,1,9,1.5,16,M,,M,,*5C
06/10/2014	01:00:12.365	$GPGGA,010021,2555.9984,N,08000.8838,W,1,9,1.5,16,M,,M,,*50
06/10/2014	01:00:13.388	$GPGGA,010022,2555.9993,N,08000.8858,W,1,9,1.5,16,M,,M,,*53
06/10/2014	01:00:14.511	$GPGGA,010023,2556.0000,N,08000.8876,W,1,9,1.5,16,M,,M,,*57
06/10/2014	01:00:15.422	$GPGGA,010024,2556.0009,N,08000.8895,W,1,9,1.5,16,M,,M,,*54
06/10/2014	01:00:16.414	$GPGGA,010025,2556.0018,N,08000.8913,W,1,9,1.5,16,M,,M,,*5A
06/10/2014	01:00:17.517	$GPGGA,010026,2556.0025,N,08000.8931,W,1,9,1.5,16,M,,M,,*57
06/10/2014	01:00:18.550	$GPGGA,010027,2556.0035,N,08000.8950,W,1,9,1.5,16,M,,M,,*50
06/10/2014	01:00:19.461	$GPGGA,010028,2556.0043,N,08000.8970,W,1,9,1.5,16,M,,M,,*5C
06/10/2014	01:00:20.585	$GPGGA,010029,2556.0051,N,08000.8988,W,1,9,1.5,16,M,,M,,*59
06/10/2014	01:00:21.466	$GPGGA,010030,2556.0060,N,08000.9007,W,1,9,1.5,16,M,,M,,*5C
06/10/2014	01:00:22.600	$GPGGA,010031,2556.0068,N,08000.9026,W,1,9,1.5,16,M,,M,,*56
06/10/2014	01:00:23.592	$GPGGA,010032,2556.0076,N,08000.9046,W,1,9,1.5,16,M,,M,,*5C
06/10/2014	01:00:24.493	$GPGGA,010033,2556.0083,N,08000.9064,W,1,9,1.5,16,M,,M,,*57
06/10/2014	01:00:25.610	$GPGGA,010034,2556.0093,N,08000.9082,W,1,9,1.5,16,M,,M,,*59
06/10/2014	01:00:26.629	$GPGGA,010035,2556.0101,N,08000.9101,W,1,9,1.5,16,M,,M,,*58
06/10/2014	01:00:27.540	$GPGGA,010036,2556.0108,N,08000.9120,W,1,9,1.5,16,M,,M,,*51
06/10/2014	01:00:28.654	$GPGGA,010037,2556.0118,N,08000.9140,W,1,9,1.5,16,M,,M,,*57
06/10/2014	01:00:29.555	$GPGGA,010038,2556.0126,N,08000.9158,W,1,9,1.5,16,M,,M,,*5C
06/10/2014	01:00:30.688	$GPGGA,010039,2556.0134,N,08000.9176,W,1,9,1.5,16,M,,M,,*52
06/10/2014	01:00:31.690	$GPGGA,010040,2556.0141,N,08000.9195,W,1,9,1.5,16,M,,M,,*53
06/10/2014	01:00:31.981	$GPGGA,010041,2556.0150,N,08000.9213,W,1,9,1.5,16,M,,M,,*5F
06/10/2014	01:00:32.942	$GPGGA,010042,2556.0159,N,08000.9232,W,1,9,1.5,16,M,,M,,*56
06/10/2014	01:00:33.955	$GPGGA,010043,2556.0166,N,08000.9252,W,1,9,1.5,16,M,,M,,*5D
06/10/2014	01:00:34.977	$GPGGA,010044,2556.0174,N,08000.9270,W,1,9,1.5,16,M,,M,,*59
06/10/2014	01:00:36.010	$GPGGA,010045,2556.0183,N,08000.9288,W,1,9,1.5,16,M,,M,,*57
06/10/2014	01:00:36.992	$GPGGA,010046,2556.0191,N,08000.9307,W,1,9,1.5,16,M,,M,,*51
06/10/2014	01:00:38.017	$GPGGA,010047,2556.0199,N,08000.9325,W,1,9,1.5,16,M,,M,,*58
06/10/2014	01:00:39.031	$GPGGA,010048,2556.0206,N,08000.9344,W,1,9,1.5,16,M,,M,,*55
06/10/2014	01:00:40.042	$GPGGA,010049,2556.0213,N,08000.9364,W,1,9,1.5,16,M,,M,,*52
06/10/2014	01:00:41.031	$GPGGA,010050,2556.0223,N,08000.9382,W,1,9,1.5,16,M,,M,,*51
06/10/2014	01:00:42.068	$GPGGA,010051,2556.0231,N,08000.9400,W,1,9,1.5,16,M,,M,,*5E
06/10/2014	01:00:43.066	$GPGGA,010052,2556.0238,N,08000.9419,W,1,9,1.5,16,M,,M,,*5C
06/10/2014	01:00:44.059	$GPGGA,010053,2556.0246,N,08000.9438,W,1,9,1.5,16,M,,M,,*57
06/10/2014	01:00:45.071	$GPGGA,010054,2556.0255,N,08000.9456,W,1,9,1.5,16,M,,M,,*5A
06/10/2014	01:00:46.073	$GPGGA,010055,2556.0262,N,08000.9476,W,1,9,1.5,16,M,,M,,*5D
06/10/2014	01:00:47.095	$GPGGA,010056,2556.0270,N,08000.9494,W,1,9,1.5,16,M,,M,,*51
06/10/2014	01:00:48.097	$GPGGA,010057,2556.0277,N,08000.9512,W,1,9,1.5,16,M,,M,,*58
06/10/2014	01:00:49.109	$GPGGA,010058,2556.0285,N,08000.9530,W,1,9,1.5,16,M,,M,,*5A
06/10/2014	01:00:50.152	$GPGGA,010059,2556.0293,N,08000.9549,W,1,9,1.5,16,M,,M,,*52
06/10/2014	01:00:51.165	$GPGGA,010100,2556.0300,N,08000.9567,W,1,9,1.5,16,M,,M,,*58
06/10/2014	01:00:53.564	$GPGGA,010102,2556.0316,N,08000.9604,W,1,9,1.5,16,M,,M,,*5B
06/10/2014	01:00:54.161	$GPGGA,010103,2556.0322,N,08000.9622,W,1,9,1.5,16,M,,M,,*59
06/10/2014	01:00:55.184	$GPGGA,010104,2556.0331,N,08000.9642,W,1,9,1.5,16,M,,M,,*5A
06/10/2014	01:00:56.216	$GPGGA,010105,2556.0338,N,08000.9660,W,1,9,1.5,16,M,,M,,*52
06/10/2014	01:00:57.199	$GPGGA,010106,2556.0346,N,08000.9678,W,1,9,1.5,16,M,,M,,*51
06/10/2014	01:00:58.231	$GPGGA,010107,2556.0353,N,08000.9697,W,1,9,1.5,16,M,,M,,*55
06/10/2014	01:00:59.233	$GPGGA,010108,2556.0361,N,08000.9715,W,1,9,1.5,16,M,,M,,*50
06/10/2014	01:01:00.215	$GPGGA,010109,2556.0368,N,08000.9734,W,1,9,1.5,16,M,,M,,*5B
06/10/2014	01:01:01.248	$GPGGA,010110,2556.0376,N,08000.9754,W,1,9,1.5,16,M,,M,,*5A
06/10/2014	01:01:02.363	$GPGGA,010111,2556.0383,N,08000.9772,W,1,9,1.5,16,M,,M,,*55
06/10/2014	01:01:03.273	$GPGGA,010112,2556.0390,N,08000.9791,W,1,9,1.5,16,M,,M,,*59
06/10/2014	01:01:04.295	$GPGGA,010113,2556.0397,N,08000.9810,W,1,9,1.5,16,M,,M,,*59
06/10/2014	01:01:05.277	$GPGGA,010114,2556.0405,N,08000.9828,W,1,9,1.5,16,M,,M,,*59
06/10/2014	01:01:06.309	$GPGGA,010115,2556.0414,N,08000.9846,W,1,9,1.5,16,M,,M,,*50
06/10/2014	01:01:07.321	$GPGGA,010116,2556.0422,N,08000.9864,W,1,9,1.5,16,M,,M,,*56
06/10/2014	01:01:08.314	$GPGGA,010117,2556.0429,N,08000.9881,W,1,9,1.5,16,M,,M,,*57
06/10/2014	01:01:09.316	$GPGGA,010118,2556.0436,N,08000.9899,W,1,9,1.5,16,M,,M,,*5F
06/10/2014	01:01:10.470	$GPGGA,010119,2556.0444,N,08000.9915,W,1,9,1.5,16,M,,M,,*5E
06/10/2014	01:01:11.361	$GPGGA,010120,2556.0451,N,08000.9931,W,1,9,1.5,16,M,,M,,*56
06/10/2014	01:01:12.373	$GPGGA,010121,2556.0459,N,08000.9947,W,1,9,1.5,16,M,,M,,*5E
06/10/2014	01:01:13.362	$GPGGA,010122,2556.0466,N,08000.9964,W,1,9,1.5,16,M,,M,,*50
06/10/2014	01:01:14.473	$GPGGA,010123,2556.0473,N,08000.9979,W,1,9,1.5,16,M,,M,,*59
06/10/2014	01:01:15.390	$GPGGA,010124,2556.0481,N,08000.9994,W,1,9,1.5,16,M,,M,,*50
06/10/2014	01:01:16.413	$GPGGA,010125,2556.0488,N,08001.0009,W,1,9,1.5,16,M,,M,,*5D
06/10/2014	01:01:17.512	$GPGGA,010126,2556.0495,N,08001.0025,W,1,9,1.5,16,M,,M,,*5C
06/10/2014	01:01:18.421	$GPGGA,010127,2556.0504,N,08001.0040,W,1,9,1.5,16,M,,M,,*57
06/10/2014	01:01:19.541	$GPGGA,010128,2556.0512,N,08001.0054,W,1,9,1.5,16,M,,M,,*5A
06/10/2014	01:01:20.543	$GPGGA,010129,2556.0519,N,08001.0069,W,1,9,1.5,16,M,,M,,*5E
06/10/2014	01:01:21.546	$GPGGA,010130,2556.0526,N,08001.0083,W,1,9,1.5,16,M,,M,,*5E
06/10/2014	01:01:22.577	$GPGGA,010131,2556.0534,N,08001.0098,W,1,9,1.5,16,M,,M,,*56
06/10/2014	01:01:23.580	$GPGGA,010132,2556.0542,N,08001.0110,W,1,9,1.5,16,M,,M,,*55
06/10/2014	01:01:24.585	$GPGGA,010133,2556.0549,N,08001.0124,W,1,9,1.5,16,M,,M,,*58
06/10/2014	01:01:25.584	$GPGGA,010134,2556.0556,N,08001.0138,W,1,9,1.5,16,M,,M,,*5C
06/10/2014	01:01:26.627	$GPGGA,010135,2556.0564,N,08001.0152,W,1,9,1.5,16,M,,M,,*50
06/10/2014	01:01:27.623	$GPGGA,010136,2556.0571,N,08001.0166,W,1,9,1.5,16,M,,M,,*50
06/10/2014	01:01:28.645	$GPGGA,010137,2556.0578,N,08001.0178,W,1,9,1.5,16,M,,M,,*57
06/10/2014	01:01:29.634	$GPGGA,010138,2556.0587,N,08001.0191,W,1,9,1.5,16,M,,M,,*5F
06/10/2014	01:01:30.659	$GPGGA,010139,2556.0595,N,08001.0206,W,1,9,1.5,16,M,,M,,*50
06/10/2014	01:01:31.669	$GPGGA,010140,2556.0603,N,08001.0218,W,1,9,1.5,16,M,,M,,*5D
06/10/2014	01:01:31.939	$GPGGA,010141,2556.0610,N,08001.0231,W,1,9,1.5,16,M,,M,,*55
06/10/2014	01:01:32.921	$GPGGA,010142,2556.0618,N,08001.0243,W,1,9,1.5,16,M,,M,,*5B
06/10/2014	01:01:33.954	$GPGGA,010143,2556.0625,N,08001.0257,W,1,9,1.5,16,M,,M,,*51
06/10/2014	01:01:34.956	$GPGGA,010144,2556.0632,N,08001.0269,W,1,9,1.5,16,M,,M,,*5D
06/10/2014	01:01:36.003	$GPGGA,010145,2556.0640,N,08001.0282,W,1,9,1.5,16,M,,M,,*5C
06/10/2014	01:01:36.991	$GPGGA,010146,2556.0649,N,08001.0294,W,1,9,1.5,16,M,,M,,*51
06/10/2014	01:01:38.028	$GPGGA,010147,2556.0657,N,08001.0307,W,1,9,1.5,16,M,,M,,*54
06/10/2014	01:01:39.006	$GPGGA,010148,2556.0665,N,08001.0319,W,1,9,1.5,16,M,,M,,*55
06/10/2014	01:01:40.028	$GPGGA,010149,2556.0672,N,08001.0332,W,1,9,1.5,16,M,,M,,*5B
06/10/2014	01:01:41.019	$GPGGA,010150,2556.0681,N,08001.0343,W,1,9,1.5,16,M,,M,,*59
06/10/2014	01:01:42.066	$GPGGA,010151,2556.0687,N,08001.0355,W,1,9,1.5,16,M,,M,,*59
06/10/2014	01:01:43.054	$GPGGA,010152,2556.0696,N,08001.0368,W,1,9,1.5,16,M,,M,,*54
06/10/2014	01:01:44.046	$GPGGA,010153,2556.0703,N,08001.0379,W,1,9,1.5,16,M,,M,,*58
06/10/2014	01:01:45.069	$GPGGA,010154,2556.0711,N,08001.0391,W,1,9,1.5,16,M,,M,,*5A
06/10/2014	01:01:46.091	$GPGGA,010155,2556.0719,N,08001.0404,W,1,9,1.5,16,M,,M,,*58
06/10/2014	01:01:47.084	$GPGGA,010156,2556.0726,N,08001.0415,W,1,9,1.5,16,M,,M,,*57
06/10/2014	01:01:48.106	$GPGGA,010157,2556.0734,N,08001.0427,W,1,9,1.5,16,M,,M,,*54
06/10/2014	01:01:49.098	$GPGGA,010158,2556.0741,N,08001.0439,W,1,9,1.5,16,M,,M,,*56
06/10/2014	01:01:50.111	$GPGGA,010159,2556.0750,N,08001.0452,W,1,9,1.5,16,M,,M,,*5A
06/10/2014	01:01:51.143	$GPGGA,010200,2556.0758,N,08001.0462,W,1,9,1.5,16,M,,M,,*5E
06/10/2014	01:01:52.156	$GPGGA,010201,2556.0766,N,08001.0474,W,1,9,1.5,16,M,,M,,*55
06/10/2014	01:01:53.148	$GPGGA,010202,2556.0773,N,08001.0485,W,1,9,1.5,16,M,,M,,*5C
06/10/2014	01:01:54.292	$GPGGA,010203,2556.0781,N,08001.0498,W,1,9,1.5,16,M,,M,,*5C
06/10/2014	01:01:55.183	$GPGGA,010204,2556.0788,N,08001.0509,W,1,9,1.5,16,M,,M,,*5B
06/10/2014	01:01:56.185	$GPGGA,010205,2556.0798,N,08001.0520,W,1,9,1.5,16,M,,M,,*50
06/10/2014	01:01:57.166	$GPGGA,010206,2556.0805,N,08001.0532,W,1,9,1.5,16,M,,M,,*5B
06/10/2014	01:01:58.189	$GPGGA,010207,2556.0812,N,08001.0545,W,1,9,1.5,16,M,,M,,*5C
06/10/2014	01:01:59.393	$GPGGA,010208,2556.0820,N,08001.0556,W,1,9,1.5,16,M,,M,,*50
06/10/2014	01:02:00.223	$GPGGA,010209,2556.0827,N,08001.0567,W,1,9,1.5,16,M,,M,,*54
06/10/2014	01:02:01.388	$GPGGA,010210,2556.0835,N,08001.0579,W,1,9,1.5,16,M,,M,,*50
06/10/2014	01:02:02.238	$GPGGA,010211,2556.0842,N,08001.0590,W,1,9,1.5,16,M,,M,,*56
06/10/2014	01:02:03.423	$GPGGA,010212,2556.0851,N,08001.0601,W,1,9,1.5,16,M,,M,,*5C
06/10/2014	01:02:04.395	$GPGGA,010213,2556.0860,N,08001.0614,W,1,9,1.5,16,M,,M,,*5B
06/10/2014	01:02:05.361	$GPGGA,010214,2556.0867,N,08001.0625,W,1,9,1.5,16,M,,M,,*59
06/10/2014	01:02:06.268	$GPGGA,010215,2556.0874,N,08001.0636,W,1,9,1.5,16,M,,M,,*58
06/10/2014	01:02:07.472	$GPGGA,010216,2556.0882,N,08001.0647,W,1,9,1.5,16,M,,M,,*54
06/10/2014	01:02:08.434	$GPGGA,010217,2556.0891,N,08001.0658,W,1,9,1.5,16,M,,M,,*59
06/10/2014	01:02:09.467	$GPGGA,010218,2556.0898,N,08001.0669,W,1,9,1.5,16,M,,M,,*5D
06/10/2014	01:02:10.469	$GPGGA,010219,2556.0906,N,08001.0681,W,1,9,1.5,16,M,,M,,*5C
06/10/2014	01:02:11.340	$GPGGA,010220,2556.0914,N,08001.0693,W,1,9,1.5,16,M,,M,,*56
06/10/2014	01:02:12.339	$GPGGA,010221,2556.0921,N,08001.0704,W,1,8,1.5,16,M,,M,,*5F
06/10/2014	01:02:13.516	$GPGGA,010222,2556.0928,N,08001.0715,W,1,8,1.5,16,M,,M,,*55
06/10/2014	01:02:14.509	$GPGGA,010223,2556.0936,N,08001.0726,W,1,9,1.5,16,M,,M,,*5A
06/10/2014	01:02:15.469	$GPGGA,010224,2556.0943,N,08001.0737,W,1,9,1.5,16,M,,M,,*5F
06/10/2014	01:02:16.494	$GPGGA,010225,2556.0952,N,08001.0748,W,1,9,1.5,16,M,,M,,*56
06/10/2014	01:02:17.484	$GPGGA,010226,2556.0958,N,08001.0759,W,1,9,1.5,16,M,,M,,*5F
06/10/2014	01:02:18.547	$GPGGA,010227,2556.0965,N,08001.0770,W,1,9,1.5,16,M,,M,,*5B
06/10/2014	01:02:19.591	$GPGGA,010228,2556.0974,N,08001.0781,W,1,9,1.5,16,M,,M,,*5A
06/10/2014	01:02:20.572	$GPGGA,010229,2556.0982,N,08001.0792,W,1,9,1.5,16,M,,M,,*50
06/10/2014	01:02:21.523	$GPGGA,010230,2556.0990,N,08001.0802,W,1,9,1.5,16,M,,M,,*5D
06/10/2014	01:02:22.576	$GPGGA,010231,2556.0997,N,08001.0813,W,1,9,1.5,16,M,,M,,*5B
06/10/2014	01:02:23.629	$GPGGA,010232,2556.1004,N,08001.0824,W,1,9,1.5,16,M,,M,,*5E
06/10/2014	01:02:24.594	$GPGGA,010233,2556.1012,N,08001.0835,W,1,9,1.5,16,M,,M,,*58
06/10/2014	01:02:25.624	$GPGGA,010234,2556.1021,N,08001.0845,W,1,9,1.5,16,M,,M,,*58
06/10/2014	01:02:26.646	$GPGGA,010235,2556.1028,N,08001.0857,W,1,9,1.5,16,M,,M,,*53
06/10/2014	01:02:27.598	$GPGGA,010236,2556.1036,N,08001.0868,W,1,9,1.5,16,M,,M,,*53
06/10/2014	01:02:28.590	$GPGGA,010237,2556.1044,N,08001.0878,W,1,9,1.5,16,M,,M,,*56
06/10/2014	01:02:29.673	$GPGGA,010238,2556.1051,N,08001.0890,W,1,9,1.5,16,M,,M,,*5B
06/10/2014	01:02:30.645	$GPGGA,010239,2556.1058,N,08001.0901,W,1,9,1.5,16,M,,M,,*5A
06/10/2014	01:02:31.698	$GPGGA,010240,2556.1066,N,08001.0912,W,1,9,1.5,16,M,,M,,*5B
06/10/2014	01:02:31.896	$GPGGA,010241,2556.1073,N,08001.0925,W,1,9,1.5,16,M,,M,,*5A
06/10/2014	01:02:32.969	$GPGGA,010242,2556.1080,N,08001.0936,W,1,9,1.5,16,M,,M,,*57
06/10/2014	01:02:33.910	$GPGGA,010243,2556.1087,N,08001.0947,W,1,9,1.5,16,M,,M,,*57
06/10/2014	01:02:35.004	$GPGGA,010244,2556.1095,N,08001.0961,W,1,9,1.5,16,M,,M,,*57
06/10/2014	01:02:35.988	$GPGGA,010245,2556.1102,N,08001.0975,W,1,8,1.5,16,M,,M,,*5D
06/10/2014	01:02:36.958	$GPGGA,010246,2556.1109,N,08001.0986,W,1,8,2.0,16,M,,M,,*5F
06/10/2014	01:02:37.960	$GPGGA,010247,2556.1120,N,08001.0998,W,1,9,1.5,16,M,,M,,*5D
06/10/2014	01:02:39.047	$GPGGA,010248,2556.1129,N,08001.1011,W,1,9,1.5,16,M,,M,,*52
06/10/2014	01:02:39.974	$GPGGA,010249,2556.1137,N,08001.1022,W,1,9,1.5,16,M,,M,,*5C
06/10/2014	01:02:41.050	$GPGGA,010250,2556.1144,N,08001.1034,W,1,9,1.5,16,M,,M,,*57
06/10/2014	01:02:42.141	$GPGGA,010251,2556.1151,N,08001.1048,W,1,9,1.5,16,M,,M,,*59
06/10/2014	01:02:43.090	$GPGGA,010252,2556.1156,N,08001.1060,W,1,9,1.5,16,M,,M,,*57
06/10/2014	01:02:44.024	$GPGGA,010253,2556.1163,N,08001.1073,W,1,8,1.5,16,M,,M,,*53
06/10/2014	01:02:45.099	$GPGGA,010254,2556.1167,N,08001.1084,W,1,8,1.5,17,M,,M,,*59
06/10/2014	01:02:46.069	$GPGGA,010255,2556.1173,N,08001.1096,W,1,9,1.5,17,M,,M,,*5F
06/10/2014	01:02:47.123	$GPGGA,010256,2556.1177,N,08001.1109,W,1,9,1.5,17,M,,M,,*5F
06/10/2014	01:02:48.195	$GPGGA,010257,2556.1181,N,08001.1121,W,1,9,1.5,17,M,,M,,*5D
06/10/2014	01:02:49.087	$GPGGA,010258,2556.1185,N,08001.1134,W,1,9,1.5,17,M,,M,,*52
06/10/2014	01:02:50.118	$GPGGA,010259,2556.1189,N,08001.1147,W,1,9,1.5,17,M,,M,,*5B
06/10/2014	01:02:51.181	$GPGGA,010300,2556.1192,N,08001.1160,W,1,9,1.5,17,M,,M,,*59
06/10/2014	01:02:52.103	$GPGGA,010301,2556.1196,N,08001.1174,W,1,9,1.5,17,M,,M,,*59
06/10/2014	01:02:53.165	$GPGGA,010302,2556.1200,N,08001.1189,W,1,9,1.6,18,M,,M,,*58
06/10/2014	01:02:54.228	$GPGGA,010303,2556.1203,N,08001.1201,W,1,8,1.5,18,M,,M,,*5B
06/10/2014	01:02:55.251	$GPGGA,010304,2556.1207,N,08001.1215,W,1,8,1.5,18,M,,M,,*5D
06/10/2014	01:02:56.172	$GPGGA,010305,2556.1209,N,08001.1228,W,1,9,1.5,18,M,,M,,*5D
06/10/2014	01:02:57.255	$GPGGA,010306,2556.1212,N,08001.1243,W,1,9,1.5,18,M,,M,,*59
06/10/2014	01:02:58.168	$GPGGA,010307,2556.1214,N,08001.1255,W,1,9,1.5,18,M,,M,,*59
06/10/2014	01:02:59.250	$GPGGA,010308,2556.1217,N,08001.1269,W,1,9,1.5,18,M,,M,,*5A
06/10/2014	01:03:00.285	$GPGGA,010309,2556.1220,N,08001.1283,W,1,9,1.5,18,M,,M,,*5B
06/10/2014	01:03:01.305	$GPGGA,010310,2556.1223,N,08001.1297,W,1,9,1.5,18,M,,M,,*55
06/10/2014	01:03:02.348	$GPGGA,010311,2556.1225,N,08001.1311,W,1,9,1.5,18,M,,M,,*5D
06/10/2014	01:03:03.360	$GPGGA,010312,2556.1225,N,08001.1323,W,1,9,1.5,18,M,,M,,*5F
06/10/2014	01:03:04.362	$GPGGA,010313,2556.1228,N,08001.1337,W,1,9,1.5,18,M,,M,,*56
06/10/2014	01:03:05.334	$GPGGA,010314,2556.1230,N,08001.1351,W,1,9,1.5,18,M,,M,,*58
06/10/2014	01:03:06.367	$GPGGA,010315,2556.1231,N,08001.1363,W,1,9,1.5,18,M,,M,,*59
06/10/2014	01:03:07.378	$GPGGA,010316,2556.1232,N,08001.1377,W,1,9,1.5,18,M,,M,,*5C
06/10/2014	01:03:08.392	$GPGGA,010317,2556.1234,N,08001.1391,W,1,9,1.5,18,M,,M,,*53
06/10/2014	01:03:09.383	$GPGGA,010318,2556.1235,N,08001.1405,W,1,9,1.6,18,M,,M,,*54
06/10/2014	01:03:10.425	$GPGGA,010319,2556.1234,N,08001.1417,W,1,8,1.5,18,M,,M,,*55
06/10/2014	01:03:11.438	$GPGGA,010320,2556.1236,N,08001.1431,W,1,8,1.5,18,M,,M,,*59
06/10/2014	01:03:12.432	$GPGGA,010321,2556.1238,N,08001.1445,W,1,9,1.5,18,M,,M,,*54
06/10/2014	01:03:13.422	$GPGGA,010322,2556.1237,N,08001.1456,W,1,9,1.5,18,M,,M,,*5A
06/10/2014	01:03:14.446	$GPGGA,010323,2556.1239,N,08001.1470,W,1,9,1.6,18,M,,M,,*52
06/10/2014	01:03:15.457	$GPGGA,010324,2556.1239,N,08001.1483,W,1,9,1.6,18,M,,M,,*59
06/10/2014	01:03:16.480	$GPGGA,010325,2556.1241,N,08001.1496,W,1,8,1.5,18,M,,M,,*51
06/10/2014	01:03:17.472	$GPGGA,010326,2556.1240,N,08001.1508,W,1,8,1.5,18,M,,M,,*55
06/10/2014	01:03:18.494	$GPGGA,010327,2556.1242,N,08001.1521,W,1,9,1.5,18,M,,M,,*5C
06/10/2014	01:03:19.507	$GPGGA,010328,2556.1241,N,08001.1535,W,1,9,1.5,18,M,,M,,*55
06/10/2014	01:03:20.529	$GPGGA,010329,2556.1243,N,08001.1550,W,1,9,1.6,18,M,,M,,*56
06/10/2014	01:03:21.511	$GPGGA,010330,2556.1243,N,08001.1550,W,1,9,1.6,18,M,,M,,*5E
06/10/2014	01:03:22.544	$GPGGA,010331,2556.1243,N,08001.1580,W,1,9,1.5,18,M,,M,,*51
06/10/2014	01:03:23.566	$GPGGA,010332,2556.1243,N,08001.1595,W,1,9,1.5,18,M,,M,,*56
06/10/2014	01:03:24.538	$GPGGA,010333,2556.1243,N,08001.1611,W,1,9,1.5,18,M,,M,,*58
06/10/2014	01:03:25.580	$GPGGA,010334,2556.1243,N,08001.1629,W,1,9,1.5,18,M,,M,,*54
06/10/2014	01:03:26.583	$GPGGA,010335,2556.1243,N,08001.1647,W,1,9,1.5,18,M,,M,,*5D
06/10/2014	01:03:27.615	$GPGGA,010336,2556.1241,N,08001.1665,W,1,9,1.5,18,M,,M,,*5C
06/10/2014	01:03:28.578	$GPGGA,010337,2556.1240,N,08001.1683,W,1,9,1.5,18,M,,M,,*54
06/10/2014	01:03:29.609	$GPGGA,010338,2556.1239,N,08001.1702,W,1,9,1.5,18,M,,M,,*5D
06/10/2014	01:03:30.612	$GPGGA,010339,2556.1237,N,08001.1720,W,1,9,1.5,18,M,,M,,*52
06/10/2014	01:03:31.644	$GPGGA,010340,2556.1236,N,08001.1739,W,1,9,1.5,18,M,,M,,*55
06/10/2014	01:03:31.905	$GPGGA,010341,2556.1234,N,08001.1759,W,1,9,1.5,18,M,,M,,*50
06/10/2014	01:03:32.938	$GPGGA,010342,2556.1233,N,08001.1779,W,1,9,1.5,18,M,,M,,*56
06/10/2014	01:03:33.909	$GPGGA,010343,2556.1232,N,08001.1799,W,1,9,1.5,18,M,,M,,*58
06/10/2014	01:03:34.932	$GPGGA,010344,2556.1232,N,08001.1799,W,1,9,1.5,18,M,,M,,*5F
06/10/2014	01:03:35.944	$GPGGA,010345,2556.1230,N,08001.1819,W,1,9,1.5,18,M,,M,,*5B
06/10/2014	01:03:36.967	$GPGGA,010346,2556.1226,N,08001.1861,W,1,9,1.5,18,M,,M,,*50
06/10/2014	01:03:37.979	$GPGGA,010347,2556.1225,N,08001.1882,W,1,9,1.6,18,M,,M,,*5C
06/10/2014	01:03:38.961	$GPGGA,010348,2556.1225,N,08001.1882,W,1,9,1.6,18,M,,M,,*53
06/10/2014	01:03:40.063	$GPGGA,010349,2556.1219,N,08001.1927,W,1,9,1.5,18,M,,M,,*50
06/10/2014	01:03:40.986	$GPGGA,010350,2556.1219,N,08001.1927,W,1,9,1.5,18,M,,M,,*58
06/10/2014	01:03:41.997	$GPGGA,010351,2556.1214,N,08001.1970,W,1,9,1.5,18,M,,M,,*56
06/10/2014	01:03:43.010	$GPGGA,010352,2556.1212,N,08001.1994,W,1,9,1.5,18,M,,M,,*59
06/10/2014	01:03:44.022	$GPGGA,010353,2556.1209,N,08001.2014,W,1,8,1.6,17,M,,M,,*5D
06/10/2014	01:03:45.120	$GPGGA,010354,2556.1207,N,08001.2035,W,1,8,1.5,17,M,,M,,*54
06/10/2014	01:03:46.023	$GPGGA,010355,2556.1203,N,08001.2057,W,1,9,1.5,17,M,,M,,*54
06/10/2014	01:03:47.169	$GPGGA,010356,2556.1199,N,08001.2079,W,1,9,1.5,17,M,,M,,*5B
06/10/2014	01:03:48.095	$GPGGA,010357,2556.1196,N,08001.2102,W,1,9,1.5,17,M,,M,,*58
06/10/2014	01:03:49.144	$GPGGA,010358,2556.1193,N,08001.2124,W,1,9,1.5,17,M,,M,,*56
06/10/2014	01:03:50.157	$GPGGA,010359,2556.1189,N,08001.2147,W,1,9,1.5,17,M,,M,,*59
06/10/2014	01:03:51.204	$GPGGA,010400,2556.1185,N,08001.2169,W,1,9,1.5,17,M,,M,,*52
06/10/2014	01:03:52.150	$GPGGA,010401,2556.1182,N,08001.2193,W,1,9,1.5,17,M,,M,,*51
06/10/2014	01:03:53.156	$GPGGA,010402,2556.1178,N,08001.2215,W,1,9,1.5,17,M,,M,,*5A
06/10/2014	01:03:54.202	$GPGGA,010403,2556.1174,N,08001.2240,W,1,9,1.5,17,M,,M,,*57
06/10/2014	01:03:55.218	$GPGGA,010404,2556.1171,N,08001.2262,W,1,9,1.5,17,M,,M,,*55
06/10/2014	01:03:56.167	$GPGGA,010405,2556.1167,N,08001.2284,W,1,8,1.6,17,M,,M,,*59
06/10/2014	01:03:57.181	$GPGGA,010406,2556.1162,N,08001.2306,W,1,8,1.5,17,M,,M,,*57
06/10/2014	01:03:58.216	$GPGGA,010407,2556.1157,N,08001.2330,W,1,9,1.5,17,M,,M,,*54
06/10/2014	01:03:59.193	$GPGGA,010408,2556.1154,N,08001.2355,W,1,9,1.6,17,M,,M,,*58
06/10/2014	01:04:00.208	$GPGGA,010409,2556.1150,N,08001.2377,W,1,9,1.5,17,M,,M,,*5E
06/10/2014	01:04:01.206	$GPGGA,010410,2556.1147,N,08001.2400,W,1,9,1.6,17,M,,M,,*54
06/10/2014	01:04:02.189	$GPGGA,010411,2556.1143,N,08001.2422,W,1,9,1.5,17,M,,M,,*52
06/10/2014	01:04:03.205	$GPGGA,010412,2556.1140,N,08001.2446,W,1,9,1.5,17,M,,M,,*50
06/10/2014	01:04:04.223	$GPGGA,010413,2556.1138,N,08001.2468,W,1,9,1.5,17,M,,M,,*52
06/10/2014	01:04:05.209	$GPGGA,010414,2556.1133,N,08001.2491,W,1,9,1.5,17,M,,M,,*58
06/10/2014	01:04:06.235	$GPGGA,010415,2556.1131,N,08001.2514,W,1,9,1.5,17,M,,M,,*57
06/10/2014	01:04:07.220	$GPGGA,010416,2556.1127,N,08001.2538,W,1,9,1.5,17,M,,M,,*5D
06/10/2014	01:04:08.236	$GPGGA,010417,2556.1125,N,08001.2562,W,1,9,1.5,17,M,,M,,*51
06/10/2014	01:04:09.232	$GPGGA,010418,2556.1122,N,08001.2587,W,1,9,1.5,17,M,,M,,*52
06/10/2014	01:04:10.228	$GPGGA,010419,2556.1121,N,08001.2609,W,1,9,1.5,17,M,,M,,*55
06/10/2014	01:04:11.255	$GPGGA,010420,2556.1118,N,08001.2634,W,1,9,1.5,17,M,,M,,*5B
06/10/2014	01:04:12.260	$GPGGA,010421,2556.1116,N,08001.2659,W,1,9,1.5,17,M,,M,,*5F
06/10/2014	01:04:13.236	$GPGGA,010422,2556.1114,N,08001.2684,W,1,9,1.5,17,M,,M,,*5E
06/10/2014	01:04:14.284	$GPGGA,010423,2556.1113,N,08001.2707,W,1,9,1.5,17,M,,M,,*52
06/10/2014	01:04:15.259	$GPGGA,010424,2556.1110,N,08001.2731,W,1,9,1.5,17,M,,M,,*53
06/10/2014	01:04:16.255	$GPGGA,010425,2556.1109,N,08001.2756,W,1,9,1.5,17,M,,M,,*5B
06/10/2014	01:04:17.260	$GPGGA,010426,2556.1107,N,08001.2780,W,1,9,1.5,17,M,,M,,*5D
06/10/2014	01:04:18.286	$GPGGA,010427,2556.1106,N,08001.2804,W,1,9,1.5,17,M,,M,,*5E
06/10/2014	01:04:19.272	$GPGGA,010428,2556.1106,N,08001.2829,W,1,9,1.5,17,M,,M,,*5E
06/10/2014	01:04:20.298	$GPGGA,010429,2556.1106,N,08001.2854,W,1,9,1.5,17,M,,M,,*55
06/10/2014	01:04:21.284	$GPGGA,010430,2556.1106,N,08001.2879,W,1,9,1.5,17,M,,M,,*52
06/10/2014	01:04:22.280	$GPGGA,010431,2556.1106,N,08001.2904,W,1,9,1.5,16,M,,M,,*59
06/10/2014	01:04:23.306	$GPGGA,010432,2556.1106,N,08001.2928,W,1,9,1.5,16,M,,M,,*54
06/10/2014	01:04:24.403	$GPGGA,010433,2556.1108,N,08001.2953,W,1,9,1.5,16,M,,M,,*57
06/10/2014	01:04:25.288	$GPGGA,010434,2556.1109,N,08001.2978,W,1,9,1.5,16,M,,M,,*58
06/10/2014	01:04:26.325	$GPGGA,010435,2556.1109,N,08001.3003,W,1,9,1.5,16,M,,M,,*5D
06/10/2014	01:04:27.301	$GPGGA,010436,2556.1112,N,08001.3029,W,1,9,1.5,16,M,,M,,*5C
06/10/2014	01:04:28.327	$GPGGA,010437,2556.1113,N,08001.3056,W,1,8,1.6,16,M,,M,,*56
06/10/2014	01:04:29.313	$GPGGA,010438,2556.1116,N,08001.3082,W,1,8,1.6,16,M,,M,,*55
06/10/2014	01:04:30.340	$GPGGA,010439,2556.1116,N,08001.3107,W,1,8,1.6,16,M,,M,,*58
06/10/2014	01:04:31.325	$GPGGA,010440,2556.1120,N,08001.3132,W,1,8,1.6,16,M,,M,,*55
06/10/2014	01:04:31.880	$GPGGA,010441,2556.1123,N,08001.3158,W,1,8,1.6,16,M,,M,,*5B
06/10/2014	01:04:32.957	$GPGGA,010442,2556.1124,N,08001.3181,W,1,8,1.5,16,M,,M,,*58
06/10/2014	01:04:33.973	$GPGGA,010443,2556.1127,N,08001.3206,W,1,9,1.5,16,M,,M,,*57
06/10/2014	01:04:34.998	$GPGGA,010444,2556.1131,N,08001.3231,W,1,9,1.5,16,M,,M,,*53
06/10/2014	01:04:35.974	$GPGGA,010445,2556.1134,N,08001.3258,W,1,9,1.5,16,M,,M,,*58
06/10/2014	01:04:36.880	$GPGGA,010446,2556.1137,N,08001.3282,W,1,9,1.5,16,M,,M,,*5F
06/10/2014	01:04:37.906	$GPGGA,010447,2556.1140,N,08001.3307,W,1,9,1.5,16,M,,M,,*52
06/10/2014	01:04:38.912	$GPGGA,010448,2556.1144,N,08001.3334,W,1,9,1.5,16,M,,M,,*59
06/10/2014	01:04:40.029	$GPGGA,010449,2556.1149,N,08001.3358,W,1,9,1.5,16,M,,M,,*5F
06/10/2014	01:04:40.924	$GPGGA,010450,2556.1152,N,08001.3385,W,1,9,1.5,16,M,,M,,*5D
06/10/2014	01:04:42.011	$GPGGA,010451,2556.1156,N,08001.3410,W,1,9,1.5,16,M,,M,,*53
06/10/2014	01:04:43.037	$GPGGA,010452,2556.1160,N,08001.3436,W,1,9,1.5,16,M,,M,,*51
06/10/2014	01:04:44.053	$GPGGA,010453,2556.1166,N,08001.3461,W,1,9,1.5,16,M,,M,,*54
06/10/2014	01:04:45.009	$GPGGA,010454,2556.1170,N,08001.3488,W,1,9,1.9,16,M,,M,,*5F
06/10/2014	01:04:46.045	$GPGGA,010455,2556.1174,N,08001.3515,W,1,9,1.5,16,M,,M,,*53
06/10/2014	01:04:47.040	$GPGGA,010456,2556.1180,N,08001.3544,W,1,9,1.5,16,M,,M,,*5F
06/10/2014	01:04:48.065	$GPGGA,010457,2556.1185,N,08001.3569,W,1,9,1.5,16,M,,M,,*54
06/10/2014	01:04:49.040	$GPGGA,010458,2556.1189,N,08001.3596,W,1,9,1.5,16,M,,M,,*57
06/10/2014	01:04:50.077	$GPGGA,010459,2556.1195,N,08001.3623,W,1,9,1.5,16,M,,M,,*56
06/10/2014	01:04:51.063	$GPGGA,010500,2556.1200,N,08001.3649,W,1,9,1.8,16,M,,M,,*55
06/10/2014	01:04:52.031	$GPGGA,010501,2556.1209,N,08001.3674,W,1,8,1.8,16,M,,M,,*52
06/10/2014	01:04:53.068	$GPGGA,010502,2556.1216,N,08001.3700,W,1,8,1.5,16,M,,M,,*50
06/10/2014	01:04:54.065	$GPGGA,010503,2556.1223,N,08001.3726,W,1,9,1.5,16,M,,M,,*52
06/10/2014	01:04:55.106	$GPGGA,010504,2556.1230,N,08001.3753,W,1,9,1.5,16,M,,M,,*55
06/10/2014	01:04:56.055	$GPGGA,010505,2556.1236,N,08001.3777,W,1,9,1.5,16,M,,M,,*54
06/10/2014	01:04:57.061	$GPGGA,010506,2556.1245,N,08001.3804,W,1,9,1.5,16,M,,M,,*58
06/10/2014	01:04:58.101	$GPGGA,010507,2556.1252,N,08001.3829,W,1,9,1.5,16,M,,M,,*50
06/10/2014	01:04:59.073	$GPGGA,010508,2556.1261,N,08001.3855,W,1,9,1.5,17,M,,M,,*55
06/10/2014	01:05:00.089	$GPGGA,010509,2556.1268,N,08001.3881,W,1,9,1.5,17,M,,M,,*54
06/10/2014	01:05:01.085	$GPGGA,010510,2556.1277,N,08001.3909,W,1,9,1.5,17,M,,M,,*53
06/10/2014	01:05:02.092	$GPGGA,010511,2556.1285,N,08001.3934,W,1,9,1.5,17,M,,M,,*51
06/10/2014	01:05:03.098	$GPGGA,010512,2556.1293,N,08001.3960,W,1,9,1.5,17,M,,M,,*54
06/10/2014	01:05:04.104	$GPGGA,010513,2556.1303,N,08001.3986,W,1,9,1.5,17,M,,M,,*55
06/10/2014	01:05:05.090	$GPGGA,010514,2556.1311,N,08001.4012,W,1,9,1.5,17,M,,M,,*52
06/10/2014	01:05:06.139	$GPGGA,010515,2556.1319,N,08001.4039,W,1,9,1.5,17,M,,M,,*52
06/10/2014	01:05:07.133	$GPGGA,010516,2556.1328,N,08001.4065,W,1,9,1.5,17,M,,M,,*5A
06/10/2014	01:05:08.098	$GPGGA,010517,2556.1336,N,08001.4091,W,1,9,1.5,18,M,,M,,*50
06/10/2014	01:05:10.552	$GPGGA,010519,2556.1354,N,08001.4144,W,1,9,1.5,18,M,,M,,*53
06/10/2014	01:05:11.135	$GPGGA,010520,2556.1362,N,08001.4166,W,1,9,1.6,18,M,,M,,*5F
06/10/2014	01:05:12.111	$GPGGA,010521,2556.1373,N,08001.4191,W,1,9,1.5,18,M,,M,,*55
06/10/2014	01:05:13.138	$GPGGA,010522,2556.1382,N,08001.4217,W,1,9,1.5,18,M,,M,,*55
06/10/2014	01:05:14.154	$GPGGA,010523,2556.1391,N,08001.4242,W,1,8,1.8,18,M,,M,,*5A
06/10/2014	01:05:15.140	$GPGGA,010524,2556.1402,N,08001.4267,W,1,8,1.5,18,M,,M,,*5A
06/10/2014	01:05:16.246	$GPGGA,010525,2556.1411,N,08001.4293,W,1,9,1.5,18,M,,M,,*53
06/10/2014	01:05:17.152	$GPGGA,010526,2556.1420,N,08001.4319,W,1,9,1.5,18,M,,M,,*51
06/10/2014	01:05:18.259	$GPGGA,010527,2556.1431,N,08001.4344,W,1,9,1.5,18,M,,M,,*58
06/10/2014	01:05:19.154	$GPGGA,010528,2556.1441,N,08001.4371,W,1,9,1.5,18,M,,M,,*56
06/10/2014	01:05:20.261	$GPGGA,010529,2556.1452,N,08001.4397,W,1,9,1.5,18,M,,M,,*5D
06/10/2014	01:05:21.176	$GPGGA,010530,2556.1462,N,08001.4422,W,1,9,1.5,18,M,,M,,*5F
06/10/2014	01:05:22.283	$GPGGA,010531,2556.1471,N,08001.4447,W,1,9,1.5,19,M,,M,,*5E
06/10/2014	01:05:23.178	$GPGGA,010532,2556.1481,N,08001.4473,W,1,9,1.5,19,M,,M,,*55
06/10/2014	01:05:24.195	$GPGGA,010533,2556.1492,N,08001.4499,W,1,9,1.5,19,M,,M,,*52
06/10/2014	01:05:25.191	$GPGGA,010534,2556.1501,N,08001.4525,W,1,9,1.5,19,M,,M,,*58
06/10/2014	01:05:26.177	$GPGGA,010535,2556.1510,N,08001.4552,W,1,8,1.8,19,M,,M,,*55
06/10/2014	01:05:27.312	$GPGGA,010536,2556.1518,N,08001.4578,W,1,8,1.5,19,M,,M,,*5B
06/10/2014	01:05:28.208	$GPGGA,010537,2556.1531,N,08001.4604,W,1,8,1.8,19,M,,M,,*54
06/10/2014	01:05:29.184	$GPGGA,010538,2556.1539,N,08001.4632,W,1,8,1.6,19,M,,M,,*58
06/10/2014	01:05:30.210	$GPGGA,010539,2556.1549,N,08001.4660,W,1,8,1.6,19,M,,M,,*59
06/10/2014	01:05:31.307	$GPGGA,010540,2556.1557,N,08001.4687,W,1,8,1.6,19,M,,M,,*51
06/10/2014	01:05:31.848	$GPGGA,010541,2556.1566,N,08001.4714,W,1,8,1.6,19,M,,M,,*59
06/10/2014	01:05:32.945	$GPGGA,010542,2556.1575,N,08001.4740,W,1,8,1.5,19,M,,M,,*5A
06/10/2014	01:05:33.981	$GPGGA,010543,2556.1583,N,08001.4766,W,1,9,1.5,19,M,,M,,*57
06/10/2014	01:05:34.967	$GPGGA,010544,2556.1593,N,08001.4794,W,1,9,1.5,19,M,,M,,*5C
06/10/2014	01:05:35.973	$GPGGA,010545,2556.1603,N,08001.4819,W,1,9,1.5,19,M,,M,,*5D
06/10/2014	01:05:36.960	$GPGGA,010546,2556.1611,N,08001.4845,W,1,9,1.5,18,M,,M,,*55
06/10/2014	01:05:37.995	$GPGGA,010547,2556.1619,N,08001.4873,W,1,9,1.5,18,M,,M,,*59
06/10/2014	01:05:38.981	$GPGGA,010548,2556.1629,N,08001.4899,W,1,9,1.5,18,M,,M,,*51
06/10/2014	01:05:39.990	$GPGGA,010549,2556.1637,N,08001.4925,W,1,9,1.5,18,M,,M,,*59
06/10/2014	01:05:40.977	$GPGGA,010550,2556.1646,N,08001.4951,W,1,9,1.5,18,M,,M,,*54
06/10/2014	01:05:42.003	$GPGGA,010551,2556.1654,N,08001.4978,W,1,9,1.5,18,M,,M,,*5D
06/10/2014	01:05:43.007	$GPGGA,010552,2556.1662,N,08001.5004,W,1,9,1.5,18,M,,M,,*58
06/10/2014	01:05:44.012	$GPGGA,010553,2556.1669,N,08001.5030,W,1,9,1.5,18,M,,M,,*55
06/10/2014	01:05:44.997	$GPGGA,010554,2556.1676,N,08001.5056,W,1,9,1.5,18,M,,M,,*5C
06/10/2014	01:05:46.003	$GPGGA,010555,2556.1684,N,08001.5080,W,1,8,1.6,18,M,,M,,*59
06/10/2014	01:05:47.023	$GPGGA,010556,2556.1693,N,08001.5105,W,1,8,1.5,18,M,,M,,*53
06/10/2014	01:05:48.005	$GPGGA,010557,2556.1700,N,08001.5130,W,1,9,1.5,18,M,,M,,*5E
06/10/2014	01:05:49.021	$GPGGA,010558,2556.1707,N,08001.5155,W,1,9,1.5,18,M,,M,,*55
06/10/2014	01:05:50.027	$GPGGA,010559,2556.1713,N,08001.5181,W,1,9,1.5,18,M,,M,,*58
06/10/2014	01:05:51.050	$GPGGA,010600,2556.1720,N,08001.5206,W,1,9,1.5,18,M,,M,,*5B
06/10/2014	01:05:52.030	$GPGGA,010601,2556.1727,N,08001.5231,W,1,9,1.5,17,M,,M,,*56
06/10/2014	01:05:53.036	$GPGGA,010602,2556.1734,N,08001.5257,W,1,9,1.5,17,M,,M,,*57
06/10/2014	01:05:54.042	$GPGGA,010603,2556.1741,N,08001.5285,W,1,9,1.5,17,M,,M,,*5B
06/10/2014	01:05:55.076	$GPGGA,010604,2556.1748,N,08001.5309,W,1,9,1.5,17,M,,M,,*50
06/10/2014	01:05:56.034	$GPGGA,010605,2556.1755,N,08001.5336,W,1,9,1.5,17,M,,M,,*51
06/10/2014	01:05:57.050	$GPGGA,010606,2556.1762,N,08001.5362,W,1,9,1.5,17,M,,M,,*57
06/10/2014	01:05:58.056	$GPGGA,010607,2556.1767,N,08001.5388,W,1,9,1.5,17,M,,M,,*57
06/10/2014	01:05:59.072	$GPGGA,010608,2556.1774,N,08001.5415,W,1,9,1.5,17,M,,M,,*59
06/10/2014	01:06:00.089	$GPGGA,010609,2556.1781,N,08001.5441,W,1,9,1.5,17,M,,M,,*53
06/10/2014	01:06:01.074	$GPGGA,010610,2556.1787,N,08001.5467,W,1,9,1.5,17,M,,M,,*59
06/10/2014	01:06:02.070	$GPGGA,010611,2556.1792,N,08001.5493,W,1,9,1.5,16,M,,M,,*56
06/10/2014	01:06:03.086	$GPGGA,010612,2556.1799,N,08001.5520,W,1,9,1.5,16,M,,M,,*57
06/10/2014	01:06:04.092	$GPGGA,010613,2556.1806,N,08001.5547,W,1,8,1.6,16,M,,M,,*5C
06/10/2014	01:06:05.078	$GPGGA,010614,2556.1813,N,08001.5572,W,1,8,1.5,16,M,,M,,*5A
06/10/2014	01:06:06.104	$GPGGA,010615,2556.1820,N,08001.5597,W,1,9,1.5,16,M,,M,,*51
06/10/2014	01:06:07.111	$GPGGA,010616,2556.1827,N,08001.5622,W,1,9,1.5,16,M,,M,,*58
06/10/2014	01:06:08.212	$GPGGA,010617,2556.1834,N,08001.5647,W,1,9,1.5,16,M,,M,,*58
06/10/2014	01:06:09.258	$GPGGA,010618,2556.1841,N,08001.5673,W,1,9,1.5,16,M,,M,,*52
06/10/2014	01:06:10.423	$GPGGA,010619,2556.1846,N,08001.5699,W,1,9,1.5,16,M,,M,,*50
06/10/2014	01:06:11.427	$GPGGA,010620,2556.1853,N,08001.5726,W,1,9,1.5,16,M,,M,,*5B
06/10/2014	01:06:12.484	$GPGGA,010621,2556.1861,N,08001.5751,W,1,9,1.5,16,M,,M,,*5B
06/10/2014	01:06:13.574	$GPGGA,010622,2556.1868,N,08001.5777,W,1,9,1.5,16,M,,M,,*55
06/10/2014	01:06:14.620	$GPGGA,010623,2556.1875,N,08001.5802,W,1,9,1.5,16,M,,M,,*55
06/10/2014	01:06:15.850	$GPGGA,010624,2556.1882,N,08001.5828,W,1,9,1.5,16,M,,M,,*52
06/10/2014	01:06:16.810	$GPGGA,010625,2556.1889,N,08001.5854,W,1,9,1.5,15,M,,M,,*50
06/10/2014	01:06:17.857	$GPGGA,010626,2556.1897,N,08001.5881,W,1,9,1.5,15,M,,M,,*54
06/10/2014	01:06:18.925	$GPGGA,010627,2556.1906,N,08001.5907,W,1,9,1.5,15,M,,M,,*53
06/10/2014	01:06:20.166	$GPGGA,010628,2556.1914,N,08001.5933,W,1,9,1.5,15,M,,M,,*58
06/10/2014	01:06:21.109	$GPGGA,010629,2556.1922,N,08001.5959,W,1,9,1.5,15,M,,M,,*50
06/10/2014	01:06:22.279	$GPGGA,010630,2556.1929,N,08001.5986,W,1,9,1.5,15,M,,M,,*51
06/10/2014	01:06:23.369	$GPGGA,010631,2556.1937,N,08001.6012,W,1,9,1.5,15,M,,M,,*58
06/10/2014	01:06:24.459	$GPGGA,010632,2556.1947,N,08001.6038,W,1,9,1.6,15,M,,M,,*57
06/10/2014	01:06:25.408	$GPGGA,010633,2556.1955,N,08001.6064,W,1,8,1.6,15,M,,M,,*5D
06/10/2014	01:06:26.586	$GPGGA,010634,2556.1964,N,08001.6091,W,1,8,1.6,15,M,,M,,*52
06/10/2014	01:06:27.706	$GPGGA,010635,2556.1972,N,08001.6117,W,1,9,1.5,15,M,,M,,*59
06/10/2014	01:06:28.753	$GPGGA,010636,2556.1980,N,08001.6145,W,1,9,1.5,15,M,,M,,*50
06/10/2014	01:06:29.853	$GPGGA,010637,2556.1990,N,08001.6171,W,1,8,1.6,15,M,,M,,*55
06/10/2014	01:06:30.889	$GPGGA,010638,2556.1998,N,08001.6197,W,1,8,1.5,15,M,,M,,*59
06/10/2014	01:06:31.957	$GPGGA,010639,2556.2007,N,08001.6225,W,1,9,1.5,15,M,,M,,*5F
06/10/2014	01:06:33.066	$GPGGA,010640,2556.2016,N,08001.6251,W,1,9,1.6,15,M,,M,,*51
06/10/2014	01:06:31.964	$GPGGA,010641,2556.2026,N,08001.6275,W,1,8,1.6,15,M,,M,,*54
06/10/2014	01:06:33.062	$GPGGA,010642,2556.2034,N,08001.6302,W,1,8,1.5,15,M,,M,,*56
06/10/2014	01:06:34.102	$GPGGA,010643,2556.2043,N,08001.6330,W,1,9,1.5,15,M,,M,,*57
06/10/2014	01:06:35.191	$GPGGA,010644,2556.2052,N,08001.6358,W,1,9,1.5,15,M,,M,,*5E
06/10/2014	01:06:36.291	$GPGGA,010645,2556.2061,N,08001.6384,W,1,9,1.5,15,M,,M,,*5E
06/10/2014	01:06:37.325	$GPGGA,010646,2556.2069,N,08001.6410,W,1,9,1.6,15,M,,M,,*5C
06/10/2014	01:06:38.404	$GPGGA,010647,2556.2077,N,08001.6435,W,1,9,1.5,15,M,,M,,*56
06/10/2014	01:06:39.505	$GPGGA,010648,2556.2085,N,08001.6463,W,1,9,1.5,15,M,,M,,*57
06/10/2014	01:06:40.585	$GPGGA,010649,2556.2094,N,08001.6489,W,1,9,1.5,15,M,,M,,*52
06/10/2014	01:06:41.630	$GPGGA,010650,2556.2102,N,08001.6515,W,1,9,1.5,15,M,,M,,*50
06/10/2014	01:06:42.720	$GPGGA,010651,2556.2110,N,08001.6542,W,1,9,1.5,15,M,,M,,*50
06/10/2014	01:06:43.821	$GPGGA,010652,2556.2117,N,08001.6568,W,1,9,1.5,15,M,,M,,*5C
06/10/2014	01:06:44.910	$GPGGA,010653,2556.2126,N,08001.6594,W,1,9,1.5,15,M,,M,,*5C
06/10/2014	01:06:45.935	$GPGGA,010654,2556.2132,N,08001.6620,W,1,9,1.5,15,M,,M,,*52
06/10/2014	01:06:47.014	$GPGGA,010655,2556.2141,N,08001.6647,W,1,9,1.5,15,M,,M,,*56
06/10/2014	01:06:48.114	$GPGGA,010656,2556.2149,N,08001.6673,W,1,9,1.5,15,M,,M,,*5A
06/10/2014	01:06:49.172	$GPGGA,010657,2556.2156,N,08001.6701,W,1,9,1.5,15,M,,M,,*51
06/10/2014	01:06:50.251	$GPGGA,010658,2556.2164,N,08001.6727,W,1,9,1.5,15,M,,M,,*5B
06/10/2014	01:06:51.351	$GPGGA,010659,2556.2171,N,08001.6753,W,1,9,1.5,15,M,,M,,*5D
06/10/2014	01:06:52.430	$GPGGA,010700,2556.2178,N,08001.6779,W,1,9,1.5,15,M,,M,,*51
06/10/2014	01:06:53.498	$GPGGA,010701,2556.2185,N,08001.6806,W,1,9,1.5,15,M,,M,,*55
06/10/2014	01:06:54.567	$GPGGA,010702,2556.2192,N,08001.6833,W,1,9,1.5,15,M,,M,,*56
06/10/2014	01:06:55.775	$GPGGA,010703,2556.2199,N,08001.6860,W,1,9,1.5,15,M,,M,,*5A
06/10/2014	01:06:56.723	$GPGGA,010704,2556.2206,N,08001.6886,W,1,9,1.5,15,M,,M,,*50
06/10/2014	01:06:57.802	$GPGGA,010705,2556.2211,N,08001.6912,W,1,9,1.5,15,M,,M,,*5B
06/10/2014	01:06:58.870	$GPGGA,010706,2556.2218,N,08001.6940,W,1,9,1.6,15,M,,M,,*55
06/10/2014	01:07:00.078	$GPGGA,010707,2556.2225,N,08001.6965,W,1,9,1.5,15,M,,M,,*5E
06/10/2014	01:07:01.028	$GPGGA,010708,2556.2232,N,08001.6992,W,1,9,1.5,15,M,,M,,*5F
06/10/2014	01:07:02.088	$GPGGA,010709,2556.2239,N,08001.7020,W,1,9,1.5,15,M,,M,,*54
06/10/2014	01:07:03.175	$GPGGA,010710,2556.2244,N,08001.7046,W,1,9,1.5,15,M,,M,,*56
06/10/2014	01:07:04.264	$GPGGA,010711,2556.2251,N,08001.7074,W,1,9,1.5,15,M,,M,,*52
06/10/2014	01:07:05.365	$GPGGA,010712,2556.2258,N,08001.7099,W,1,9,1.5,15,M,,M,,*5B
06/10/2014	01:07:06.552	$GPGGA,010713,2556.2265,N,08001.7125,W,1,9,1.5,15,M,,M,,*52
06/10/2014	01:07:07.480	$GPGGA,010714,2556.2271,N,08001.7151,W,1,9,1.5,15,M,,M,,*53
06/10/2014	01:07:08.688	$GPGGA,010715,2556.2276,N,08001.7178,W,1,9,1.5,15,M,,M,,*5E
06/10/2014	01:07:09.637	$GPGGA,010716,2556.2283,N,08001.7204,W,1,9,1.5,15,M,,M,,*5F
06/10/2014	01:07:10.856	$GPGGA,010717,2556.2290,N,08001.7230,W,1,9,1.5,15,M,,M,,*5B
06/10/2014	01:07:11.795	$GPGGA,010718,2556.2297,N,08001.7256,W,1,9,1.5,15,M,,M,,*53
06/10/2014	01:07:12.982	$GPGGA,010719,2556.2303,N,08001.7283,W,1,9,1.5,15,M,,M,,*56
06/10/2014	01:07:14.063	$GPGGA,010720,2556.2309,N,08001.7309,W,1,9,1.5,15,M,,M,,*55
06/10/2014	01:07:15.155	$GPGGA,010721,2556.2316,N,08001.7334,W,1,9,1.5,15,M,,M,,*54
06/10/2014	01:07:16.218	$GPGGA,010722,2556.2322,N,08001.7360,W,1,9,1.5,15,M,,M,,*51
06/10/2014	01:07:17.286	$GPGGA,010723,2556.2329,N,08001.7386,W,1,9,1.5,15,M,,M,,*53
06/10/2014	01:07:18.365	$GPGGA,010724,2556.2336,N,08001.7413,W,1,9,1.5,15,M,,M,,*51
06/10/2014	01:07:19.325	$GPGGA,010725,2556.2341,N,08001.7439,W,1,9,1.5,15,M,,M,,*58
06/10/2014	01:07:20.512	$GPGGA,010726,2556.2348,N,08001.7462,W,1,9,1.5,15,M,,M,,*5C
06/10/2014	01:07:21.612	$GPGGA,010727,2556.2355,N,08001.7489,W,1,9,1.5,15,M,,M,,*54
06/10/2014	01:07:22.702	$GPGGA,010728,2556.2362,N,08001.7514,W,1,9,1.5,15,M,,M,,*5A
06/10/2014	01:07:23.737	$GPGGA,010729,2556.2369,N,08001.7541,W,1,9,1.5,15,M,,M,,*50
06/10/2014	01:07:24.816	$GPGGA,010730,2556.2376,N,08001.7568,W,1,9,1.5,15,M,,M,,*5D
06/10/2014	01:07:25.917	$GPGGA,010731,2556.2384,N,08001.7594,W,1,9,1.5,15,M,,M,,*52
06/10/2014	01:07:27.007	$GPGGA,010732,2556.2391,N,08001.7619,W,1,9,1.5,15,M,,M,,*53
06/10/2014	01:07:28.089	$GPGGA,010733,2556.2398,N,08001.7645,W,1,9,1.5,15,M,,M,,*52
06/10/2014	01:07:29.121	$GPGGA,010734,2556.2405,N,08001.7671,W,1,9,1.5,15,M,,M,,*51
06/10/2014	01:07:30.222	$GPGGA,010735,2556.2413,N,08001.7697,W,1,9,1.5,15,M,,M,,*5F
06/10/2014	01:07:31.301	$GPGGA,010736,2556.2420,N,08001.7722,W,1,9,1.5,15,M,,M,,*53
06/10/2014	01:07:32.390	$GPGGA,010737,2556.2428,N,08001.7749,W,1,9,1.5,15,M,,M,,*57
06/10/2014	01:07:33.437	$GPGGA,010738,2556.2435,N,08001.7775,W,1,9,1.5,15,M,,M,,*5B
06/10/2014	01:07:34.525	$GPGGA,010739,2556.2444,N,08001.7801,W,1,9,1.6,15,M,,M,,*53
06/10/2014	01:07:35.594	$GPGGA,010740,2556.2452,N,08001.7829,W,1,9,1.6,15,M,,M,,*50
06/10/2014	01:07:31.950	$GPGGA,010741,2556.2459,N,08001.7854,W,1,8,1.6,15,M,,M,,*51
06/10/2014	01:07:33.008	$GPGGA,010742,2556.2467,N,08001.7881,W,1,8,1.6,15,M,,M,,*57
06/10/2014	01:07:34.123	$GPGGA,010743,2556.2475,N,08001.7908,W,1,8,1.6,15,M,,M,,*55
06/10/2014	01:07:35.177	$GPGGA,010744,2556.2482,N,08001.7934,W,1,8,1.6,15,M,,M,,*55
06/10/2014	01:07:36.267	$GPGGA,010745,2556.2491,N,08001.7960,W,1,8,1.6,15,M,,M,,*57
06/10/2014	01:07:37.312	$GPGGA,010746,2556.2499,N,08001.7986,W,1,8,1.6,15,M,,M,,*54
06/10/2014	01:07:38.424	$GPGGA,010747,2556.2507,N,08001.8013,W,1,8,1.6,15,M,,M,,*59
06/10/2014	01:07:39.481	$GPGGA,010748,2556.2514,N,08001.8039,W,1,8,1.6,15,M,,M,,*5C
06/10/2014	01:07:40.571	$GPGGA,010749,2556.2522,N,08001.8065,W,1,8,1.6,15,M,,M,,*51
06/10/2014	01:07:41.628	$GPGGA,010750,2556.2531,N,08001.8092,W,1,8,1.6,15,M,,M,,*53
06/10/2014	01:07:42.739	$GPGGA,010751,2556.2539,N,08001.8115,W,1,8,1.5,15,M,,M,,*57
06/10/2014	01:07:43.786	$GPGGA,010752,2556.2547,N,08001.8141,W,1,8,1.5,15,M,,M,,*5C
06/10/2014	01:07:44.877	$GPGGA,010753,2556.2554,N,08001.8168,W,1,9,1.6,15,M,,M,,*56
06/10/2014	01:07:45.933	$GPGGA,010754,2556.2564,N,08001.8194,W,1,9,1.6,15,M,,M,,*51
06/10/2014	01:07:47.033	$GPGGA,010755,2556.2572,N,08001.8222,W,1,8,1.6,15,M,,M,,*58
06/10/2014	01:07:48.100	$GPGGA,010756,2556.2579,N,08001.8248,W,1,8,1.5,14,M,,M,,*5E
06/10/2014	01:07:49.191	$GPGGA,010757,2556.2587,N,08001.8270,W,1,9,1.5,14,M,,M,,*54
06/10/2014	01:07:50.247	$GPGGA,010758,2556.2596,N,08001.8296,W,1,9,1.5,14,M,,M,,*53
06/10/2014	01:07:51.434	$GPGGA,010759,2556.2604,N,08001.8322,W,1,9,1.5,14,M,,M,,*54
06/10/2014	01:07:52.416	$GPGGA,010800,2556.2612,N,08001.8349,W,1,9,1.5,14,M,,M,,*5D
06/10/2014	01:07:53.592	$GPGGA,010801,2556.2619,N,08001.8375,W,1,9,1.5,14,M,,M,,*58
06/10/2014	01:07:54.552	$GPGGA,010802,2556.2626,N,08001.8401,W,1,9,1.5,14,M,,M,,*53
06/10/2014	01:07:55.642	$GPGGA,010803,2556.2634,N,08001.8428,W,1,9,1.5,14,M,,M,,*5A
06/10/2014	01:07:56.807	$GPGGA,010804,2556.2641,N,08001.8454,W,1,9,1.5,14,M,,M,,*54
06/10/2014	01:07:57.800	$GPGGA,010805,2556.2648,N,08001.8480,W,1,9,1.5,14,M,,M,,*55
06/10/2014	01:07:58.868	$GPGGA,010806,2556.2655,N,08001.8506,W,1,9,1.5,14,M,,M,,*55
06/10/2014	01:08:00.022	$GPGGA,010807,2556.2662,N,08001.8533,W,1,9,1.5,14,M,,M,,*56
06/10/2014	01:08:01.036	$GPGGA,010808,2556.2669,N,08001.8560,W,1,9,1.6,14,M,,M,,*57
06/10/2014	01:08:02.191	$GPGGA,010809,2556.2676,N,08001.8587,W,1,8,1.6,14,M,,M,,*50
06/10/2014	01:08:03.162	$GPGGA,010810,2556.2683,N,08001.8616,W,1,8,1.5,14,M,,M,,*5A
06/10/2014	01:08:04.251	$GPGGA,010811,2556.2688,N,08001.8642,W,1,9,1.5,14,M,,M,,*50
06/10/2014	01:08:05.352	$GPGGA,010812,2556.2695,N,08001.8668,W,1,9,1.5,14,M,,M,,*57
06/10/2014	01:08:06.506	$GPGGA,010813,2556.2701,N,08001.8694,W,1,9,1.5,14,M,,M,,*59
06/10/2014	01:08:07.564	$GPGGA,010814,2556.2708,N,08001.8721,W,1,9,1.5,14,M,,M,,*58
06/10/2014	01:08:08.663	$GPGGA,010815,2556.2713,N,08001.8748,W,1,9,1.5,14,M,,M,,*5C
06/10/2014	01:08:09.731	$GPGGA,010816,2556.2720,N,08001.8775,W,1,9,1.5,14,M,,M,,*51
06/10/2014	01:08:10.832	$GPGGA,010817,2556.2727,N,08001.8801,W,1,9,1.5,14,M,,M,,*5B
06/10/2014	01:08:11.867	$GPGGA,010818,2556.2733,N,08001.8829,W,1,9,1.5,14,M,,M,,*5B
06/10/2014	01:08:12.968	$GPGGA,010819,2556.2738,N,08001.8855,W,1,9,1.5,14,M,,M,,*5A
06/10/2014	01:08:14.049	$GPGGA,010820,2556.2745,N,08001.8881,W,1,9,1.5,14,M,,M,,*53
06/10/2014	01:08:15.093	$GPGGA,010821,2556.2751,N,08001.8909,W,1,9,1.5,14,M,,M,,*56
06/10/2014	01:08:16.194	$GPGGA,010822,2556.2757,N,08001.8934,W,1,9,1.5,14,M,,M,,*5D
06/10/2014	01:08:17.275	$GPGGA,010823,2556.2763,N,08001.8961,W,1,9,1.5,14,M,,M,,*5B
06/10/2014	01:08:18.352	$GPGGA,010824,2556.2770,N,08001.8988,W,1,9,1.5,14,M,,M,,*59
06/10/2014	01:08:19.409	$GPGGA,010825,2556.2775,N,08001.9014,W,1,9,1.5,14,M,,M,,*50
06/10/2014	01:08:20.499	$GPGGA,010826,2556.2782,N,08001.9042,W,1,9,1.5,14,M,,M,,*58
06/10/2014	01:08:21.588	$GPGGA,010827,2556.2788,N,08001.9068,W,1,9,1.5,14,M,,M,,*5B
06/10/2014	01:08:22.656	$GPGGA,010828,2556.2793,N,08001.9094,W,1,9,1.5,14,M,,M,,*5D
06/10/2014	01:08:23.714	$GPGGA,010829,2556.2800,N,08001.9120,W,1,9,1.5,14,M,,M,,*57
06/10/2014	01:08:24.803	$GPGGA,010830,2556.2806,N,08001.9147,W,1,9,1.5,14,M,,M,,*58
06/10/2014	01:08:25.892	$GPGGA,010831,2556.2811,N,08001.9173,W,1,9,1.5,14,M,,M,,*58
06/10/2014	01:08:26.960	$GPGGA,010832,2556.2818,N,08001.9199,W,1,9,1.5,15,M,,M,,*57
06/10/2014	01:08:28.054	$GPGGA,010833,2556.2824,N,08001.9227,W,1,9,1.5,15,M,,M,,*5F
06/10/2014	01:08:29.097	$GPGGA,010834,2556.2829,N,08001.9253,W,1,9,1.5,15,M,,M,,*56
06/10/2014	01:08:30.175	$GPGGA,010835,2556.2836,N,08001.9279,W,1,8,1.6,15,M,,M,,*53
06/10/2014	01:08:31.265	$GPGGA,010836,2556.2843,N,08001.9306,W,1,8,1.5,15,M,,M,,*58
06/10/2014	01:08:32.355	$GPGGA,010837,2556.2849,N,08001.9332,W,1,8,1.6,15,M,,M,,*57
06/10/2014	01:08:33.401	$GPGGA,010838,2556.2856,N,08001.9358,W,1,8,1.5,15,M,,M,,*59
06/10/2014	01:08:34.523	$GPGGA,010839,2556.2861,N,08001.9384,W,1,9,1.5,15,M,,M,,*5C
06/10/2014	01:08:35.581	$GPGGA,010840,2556.2869,N,08001.9411,W,1,9,1.5,15,M,,M,,*51
06/10/2014	01:08:31.917	$GPGGA,010841,2556.2876,N,08001.9438,W,1,9,1.5,15,M,,M,,*55
06/10/2014	01:08:32.974	$GPGGA,010842,2556.2883,N,08001.9465,W,1,9,1.5,15,M,,M,,*54
06/10/2014	01:08:34.075	$GPGGA,010843,2556.2890,N,08001.9490,W,1,9,1.5,15,M,,M,,*5D
06/10/2014	01:08:35.153	$GPGGA,010844,2556.2897,N,08001.9516,W,1,9,1.5,15,M,,M,,*52
06/10/2014	01:08:36.223	$GPGGA,010845,2556.2905,N,08001.9542,W,1,9,1.5,15,M,,M,,*58
06/10/2014	01:08:37.279	$GPGGA,010846,2556.2912,N,08001.9570,W,1,9,1.5,15,M,,M,,*5C
06/10/2014	01:08:38.487	$GPGGA,010847,2556.2919,N,08001.9595,W,1,9,1.5,15,M,,M,,*5D
06/10/2014	01:08:39.458	$GPGGA,010848,2556.2928,N,08001.9621,W,1,9,1.5,15,M,,M,,*5C
06/10/2014	01:08:40.536	$GPGGA,010849,2556.2936,N,08001.9647,W,1,9,1.5,15,M,,M,,*52
06/10/2014	01:08:41.604	$GPGGA,010850,2556.2944,N,08001.9675,W,1,9,1.5,15,M,,M,,*5E
06/10/2014	01:08:42.672	$GPGGA,010851,2556.2952,N,08001.9700,W,1,9,1.5,15,M,,M,,*5B
06/10/2014	01:08:43.891	$GPGGA,010852,2556.2959,N,08001.9726,W,1,9,1.5,15,M,,M,,*57
06/10/2014	01:08:44.819	$GPGGA,010853,2556.2968,N,08001.9754,W,1,9,1.5,15,M,,M,,*51
06/10/2014	01:08:45.898	$GPGGA,010854,2556.2976,N,08001.9780,W,1,9,1.5,15,M,,M,,*50
06/10/2014	01:08:46.999	$GPGGA,010855,2556.2984,N,08001.9806,W,1,9,1.5,15,M,,M,,*5D
06/10/2014	01:08:48.067	$GPGGA,010856,2556.2991,N,08001.9834,W,1,9,1.5,15,M,,M,,*5B
06/10/2014	01:08:49.132	$GPGGA,010857,2556.2999,N,08001.9860,W,1,9,1.5,15,M,,M,,*53
06/10/2014	01:08:50.204	$GPGGA,010858,2556.3006,N,08001.9888,W,1,9,1.5,15,M,,M,,*54
06/10/2014	01:08:51.393	$GPGGA,010859,2556.3013,N,08001.9913,W,1,9,1.5,15,M,,M,,*52
06/10/2014	01:08:52.404	$GPGGA,010900,2556.3022,N,08001.9942,W,1,9,1.5,14,M,,M,,*58
06/10/2014	01:08:53.548	$GPGGA,010901,2556.3030,N,08001.9967,W,1,9,1.5,14,M,,M,,*5D
06/10/2014	01:08:54.627	$GPGGA,010902,2556.3038,N,08001.9994,W,1,9,1.5,14,M,,M,,*5A
06/10/2014	01:08:55.598	$GPGGA,010903,2556.3046,N,08002.0022,W,1,9,1.5,14,M,,M,,*5C
06/10/2014	01:08:56.806	$GPGGA,010904,2556.3053,N,08002.0050,W,1,9,1.6,14,M,,M,,*59
06/10/2014	01:08:57.896	$GPGGA,010905,2556.3060,N,08002.0076,W,1,8,1.6,14,M,,M,,*5D
06/10/2014	01:08:58.933	$GPGGA,010906,2556.3067,N,08002.0103,W,1,8,1.6,14,M,,M,,*5A
06/10/2014	01:09:00.016	$GPGGA,010907,2556.3075,N,08002.0130,W,1,8,1.6,14,M,,M,,*58
06/10/2014	01:09:01.112	$GPGGA,010908,2556.3082,N,08002.0157,W,1,8,1.6,14,M,,M,,*5E
06/10/2014	01:09:02.179	$GPGGA,010909,2556.3089,N,08002.0181,W,1,8,1.6,14,M,,M,,*5F
06/10/2014	01:09:03.237	$GPGGA,010910,2556.3096,N,08002.0207,W,1,8,1.5,14,M,,M,,*57
06/10/2014	01:09:04.328	$GPGGA,010911,2556.3103,N,08002.0233,W,1,9,1.5,14,M,,M,,*5D
06/10/2014	01:09:05.407	$GPGGA,010912,2556.3111,N,08002.0260,W,1,9,1.5,14,M,,M,,*5B
06/10/2014	01:09:06.475	$GPGGA,010913,2556.3118,N,08002.0286,W,1,9,1.5,14,M,,M,,*5B
06/10/2014	01:09:07.573	$GPGGA,010914,2556.3124,N,08002.0314,W,1,9,1.5,14,M,,M,,*59
06/10/2014	01:09:08.644	$GPGGA,010915,2556.3131,N,08002.0340,W,1,8,1.6,14,M,,M,,*5F
06/10/2014	01:09:09.724	$GPGGA,010916,2556.3138,N,08002.0368,W,1,8,1.5,14,M,,M,,*5C
06/10/2014	01:09:10.798	$GPGGA,010917,2556.3145,N,08002.0394,W,1,9,1.5,14,M,,M,,*55
06/10/2014	01:09:11.855	$GPGGA,010918,2556.3150,N,08002.0421,W,1,9,1.5,14,M,,M,,*57
06/10/2014	01:09:12.949	$GPGGA,010919,2556.3158,N,08002.0448,W,1,9,1.5,14,M,,M,,*51
06/10/2014	01:09:14.017	$GPGGA,010920,2556.3164,N,08002.0475,W,1,9,1.5,14,M,,M,,*5A
06/10/2014	01:09:15.122	$GPGGA,010921,2556.3169,N,08002.0502,W,1,9,1.5,14,M,,M,,*57
06/10/2014	01:09:16.149	$GPGGA,010922,2556.3176,N,08002.0531,W,1,9,1.5,14,M,,M,,*5A
06/10/2014	01:09:17.267	$GPGGA,010923,2556.3182,N,08002.0557,W,1,9,1.5,14,M,,M,,*50
06/10/2014	01:09:18.328	$GPGGA,010924,2556.3187,N,08002.0585,W,1,9,1.6,14,M,,M,,*5E
06/10/2014	01:09:19.407	$GPGGA,010925,2556.3194,N,08002.0611,W,1,9,1.5,15,M,,M,,*51
06/10/2014	01:09:20.464	$GPGGA,010926,2556.3200,N,08002.0637,W,1,9,1.5,15,M,,M,,*58
06/10/2014	01:09:21.543	$GPGGA,010927,2556.3205,N,08002.0663,W,1,9,1.5,15,M,,M,,*5D
06/10/2014	01:09:22.643	$GPGGA,010928,2556.3212,N,08002.0690,W,1,9,1.5,15,M,,M,,*58
06/10/2014	01:09:23.735	$GPGGA,010929,2556.3217,N,08002.0717,W,1,9,1.5,15,M,,M,,*52
06/10/2014	01:09:24.769	$GPGGA,010930,2556.3223,N,08002.0744,W,1,9,1.5,15,M,,M,,*5B
06/10/2014	01:09:25.837	$GPGGA,010931,2556.3229,N,08002.0770,W,1,9,1.5,15,M,,M,,*57
06/10/2014	01:09:26.948	$GPGGA,010932,2556.3234,N,08002.0796,W,1,9,1.5,15,M,,M,,*50
06/10/2014	01:09:28.038	$GPGGA,010933,2556.3241,N,08002.0824,W,1,9,1.5,15,M,,M,,*55
06/10/2014	01:09:29.084	$GPGGA,010934,2556.3246,N,08002.0849,W,1,9,1.5,15,M,,M,,*5E
06/10/2014	01:09:30.163	$GPGGA,010935,2556.3251,N,08002.0876,W,1,9,1.5,15,M,,M,,*55
06/10/2014	01:09:31.242	$GPGGA,010936,2556.3258,N,08002.0903,W,1,9,1.5,15,M,,M,,*5C
06/10/2014	01:09:32.300	$GPGGA,010937,2556.3264,N,08002.0929,W,1,9,1.5,15,M,,M,,*5A
06/10/2014	01:09:33.400	$GPGGA,010938,2556.3270,N,08002.0957,W,1,9,1.5,15,M,,M,,*59
06/10/2014	01:09:34.587	$GPGGA,010939,2556.3275,N,08002.0982,W,1,7,1.7,15,M,,M,,*59
06/10/2014	01:09:35.547	$GPGGA,010940,2556.3280,N,08002.1008,W,1,7,1.5,15,M,,M,,*55
06/10/2014	01:09:31.903	$GPGGA,010941,2556.3287,N,08002.1037,W,1,8,1.6,15,M,,M,,*53
06/10/2014	01:09:32.971	$GPGGA,010942,2556.3293,N,08002.1064,W,1,8,1.5,15,M,,M,,*50
06/10/2014	01:09:34.158	$GPGGA,010943,2556.3298,N,08002.1091,W,1,9,1.5,15,M,,M,,*51
06/10/2014	01:09:35.139	$GPGGA,010944,2556.3306,N,08002.1120,W,1,9,1.5,15,M,,M,,*5B
06/10/2014	01:09:36.305	$GPGGA,010945,2556.3312,N,08002.1146,W,1,9,1.5,15,M,,M,,*5F
06/10/2014	01:09:37.265	$GPGGA,010946,2556.3317,N,08002.1172,W,1,9,1.5,15,M,,M,,*5E
06/10/2014	01:09:38.365	$GPGGA,010947,2556.3324,N,08002.1199,W,1,9,1.5,15,M,,M,,*5A
06/10/2014	01:09:39.541	$GPGGA,010948,2556.3330,N,08002.1225,W,1,9,1.5,15,M,,M,,*54
06/10/2014	01:09:40.502	$GPGGA,010949,2556.3335,N,08002.1251,W,1,9,1.5,15,M,,M,,*53
06/10/2014	01:09:41.678	$GPGGA,010950,2556.3342,N,08002.1279,W,1,9,1.5,15,M,,M,,*51
06/10/2014	01:09:42.756	$GPGGA,010951,2556.3349,N,08002.1304,W,1,9,1.5,15,M,,M,,*50
06/10/2014	01:09:43.879	$GPGGA,010952,2556.3356,N,08002.1331,W,1,9,1.5,15,M,,M,,*5B
06/10/2014	01:09:44.957	$GPGGA,010953,2556.3362,N,08002.1358,W,1,9,1.5,15,M,,M,,*52
06/10/2014	01:09:45.993	$GPGGA,010954,2556.3369,N,08002.1384,W,1,9,1.5,15,M,,M,,*5F
06/10/2014	01:09:47.096	$GPGGA,010955,2556.3376,N,08002.1412,W,1,9,1.5,15,M,,M,,*58
06/10/2014	01:09:48.162	$GPGGA,010956,2556.3382,N,08002.1438,W,1,9,1.5,15,M,,M,,*58
06/10/2014	01:09:49.209	$GPGGA,010957,2556.3389,N,08002.1465,W,1,8,1.6,15,M,,M,,*58
06/10/2014	01:09:50.287	$GPGGA,010958,2556.3396,N,08002.1492,W,1,8,1.6,15,M,,M,,*51
06/10/2014	01:09:51.408	$GPGGA,010959,2556.3403,N,08002.1517,W,1,8,1.6,15,M,,M,,*57
06/10/2014	01:09:52.476	$GPGGA,011000,2556.3410,N,08002.1546,W,1,8,1.5,15,M,,M,,*56
06/10/2014	01:09:53.544	$GPGGA,011001,2556.3418,N,08002.1572,W,1,9,1.5,15,M,,M,,*59
06/10/2014	01:09:54.602	$GPGGA,011002,2556.3425,N,08002.1600,W,1,9,1.5,15,M,,M,,*52
06/10/2014	01:09:55.702	$GPGGA,011003,2556.3434,N,08002.1626,W,1,9,1.5,15,M,,M,,*57
06/10/2014	01:09:56.770	$GPGGA,011004,2556.3441,N,08002.1654,W,1,9,1.5,15,M,,M,,*57
06/10/2014	01:09:57.849	$GPGGA,011005,2556.3447,N,08002.1680,W,1,9,1.5,15,M,,M,,*59
06/10/2014	01:09:58.917	$GPGGA,011006,2556.3456,N,08002.1706,W,1,9,1.5,15,M,,M,,*55
06/10/2014	01:10:00.007	$GPGGA,011007,2556.3464,N,08002.1734,W,1,9,1.5,15,M,,M,,*54
06/10/2014	01:10:01.064	$GPGGA,011008,2556.3471,N,08002.1759,W,1,9,1.5,15,M,,M,,*54
06/10/2014	01:10:02.165	$GPGGA,011009,2556.3478,N,08002.1785,W,1,9,1.5,15,M,,M,,*5D
06/10/2014	01:10:03.211	$GPGGA,011010,2556.3486,N,08002.1811,W,1,9,1.5,15,M,,M,,*56
06/10/2014	01:10:04.312	$GPGGA,011011,2556.3493,N,08002.1839,W,1,9,1.5,15,M,,M,,*59
06/10/2014	01:10:05.380	$GPGGA,011012,2556.3501,N,08002.1864,W,1,9,1.5,15,M,,M,,*58
06/10/2014	01:10:06.448	$GPGGA,011013,2556.3508,N,08002.1891,W,1,9,1.5,15,M,,M,,*5A
06/10/2014	01:10:07.527	$GPGGA,011014,2556.3515,N,08002.1918,W,1,9,1.5,15,M,,M,,*51
06/10/2014	01:10:08.617	$GPGGA,011015,2556.3522,N,08002.1945,W,1,9,1.5,14,M,,M,,*5D
06/10/2014	01:10:09.696	$GPGGA,011016,2556.3530,N,08002.1973,W,1,9,1.5,14,M,,M,,*58
06/10/2014	01:10:10.785	$GPGGA,011017,2556.3537,N,08002.1999,W,1,9,1.5,14,M,,M,,*5A
06/10/2014	01:10:11.831	$GPGGA,011018,2556.3546,N,08002.2025,W,1,9,1.5,14,M,,M,,*5E
06/10/2014	01:10:12.944	$GPGGA,011019,2556.3551,N,08002.2052,W,1,9,1.5,14,M,,M,,*59
06/10/2014	01:10:14.010	$GPGGA,011020,2556.3559,N,08002.2081,W,1,9,1.6,14,M,,M,,*56
06/10/2014	01:10:15.141	$GPGGA,011021,2556.3566,N,08002.2107,W,1,8,1.6,14,M,,M,,*55
06/10/2014	01:10:16.135	$GPGGA,011022,2556.3573,N,08002.2135,W,1,8,1.6,14,M,,M,,*53
06/10/2014	01:10:17.258	$GPGGA,011023,2556.3580,N,08002.2161,W,1,8,1.6,14,M,,M,,*5F
06/10/2014	01:10:18.293	$GPGGA,011024,2556.3587,N,08002.2186,W,1,8,1.5,14,M,,M,,*55
06/10/2014	01:10:19.405	$GPGGA,011025,2556.3594,N,08002.2211,W,1,9,1.5,14,M,,M,,*5A
06/10/2014	01:10:20.440	$GPGGA,011026,2556.3600,N,08002.2236,W,1,9,1.5,14,M,,M,,*52
06/10/2014	01:10:21.552	$GPGGA,011027,2556.3605,N,08002.2262,W,1,9,1.5,14,M,,M,,*57
06/10/2014	01:10:22.610	$GPGGA,011028,2556.3613,N,08002.2288,W,1,9,1.5,14,M,,M,,*5B
06/10/2014	01:10:23.688	$GPGGA,011029,2556.3619,N,08002.2316,W,1,9,1.5,14,M,,M,,*56
06/10/2014	01:10:24.767	$GPGGA,011030,2556.3624,N,08002.2341,W,1,9,1.5,14,M,,M,,*52
06/10/2014	01:10:26.018	$GPGGA,011031,2556.3631,N,08002.2368,W,1,9,1.5,14,M,,M,,*5C
06/10/2014	01:10:26.914	$GPGGA,011032,2556.3637,N,08002.2395,W,1,9,1.5,14,M,,M,,*5B
06/10/2014	01:10:28.002	$GPGGA,011033,2556.3642,N,08002.2422,W,1,9,1.5,15,M,,M,,*52
06/10/2014	01:10:29.070	$GPGGA,011034,2556.3649,N,08002.2450,W,1,9,1.5,15,M,,M,,*5B
06/10/2014	01:10:30.149	$GPGGA,011035,2556.3653,N,08002.2478,W,1,9,1.5,15,M,,M,,*5B
06/10/2014	01:10:31.368	$GPGGA,011036,2556.3660,N,08002.2505,W,1,9,1.5,15,M,,M,,*53
06/10/2014	01:10:32.501	$GPGGA,011037,2556.3665,N,08002.2533,W,1,8,1.5,15,M,,M,,*53
06/10/2014	01:10:33.364	$GPGGA,011038,2556.3671,N,08002.2561,W,1,8,1.5,15,M,,M,,*5E
06/10/2014	01:10:34.465	$GPGGA,011039,2556.3677,N,08002.2588,W,1,9,1.5,15,M,,M,,*5F
06/10/2014	01:10:35.544	$GPGGA,011040,2556.3681,N,08002.2616,W,1,9,1.6,15,M,,M,,*5F
06/10/2014	01:10:32.095	$GPGGA,011041,2556.3688,N,08002.2644,W,1,8,1.5,15,M,,M,,*52
06/10/2014	01:10:33.078	$GPGGA,011042,2556.3692,N,08002.2670,W,1,8,1.5,15,M,,M,,*5D
06/10/2014	01:10:34.016	$GPGGA,011043,2556.3699,N,08002.2695,W,1,9,1.5,15,M,,M,,*5D
06/10/2014	01:10:35.257	$GPGGA,011044,2556.3703,N,08002.2724,W,1,9,1.5,15,M,,M,,*53
06/10/2014	01:10:36.173	$GPGGA,011045,2556.3710,N,08002.2750,W,1,8,1.6,15,M,,M,,*51
06/10/2014	01:10:37.253	$GPGGA,011046,2556.3716,N,08002.2780,W,1,8,1.5,15,M,,M,,*5A
06/10/2014	01:10:38.332	$GPGGA,011047,2556.3721,N,08002.2807,W,1,9,1.5,15,M,,M,,*5E
06/10/2014	01:10:39.562	$GPGGA,011048,2556.3727,N,08002.2836,W,1,9,1.6,15,M,,M,,*56
06/10/2014	01:10:40.684	$GPGGA,011049,2556.3732,N,08002.2861,W,1,8,1.5,15,M,,M,,*53
06/10/2014	01:10:41.660	$GPGGA,011050,2556.3738,N,08002.2887,W,1,8,1.5,15,M,,M,,*59
06/10/2014	01:10:42.852	$GPGGA,011051,2556.3743,N,08002.2915,W,1,8,1.6,15,M,,M,,*5D
06/10/2014	01:10:43.822	$GPGGA,011052,2556.3749,N,08002.2941,W,1,8,1.5,15,M,,M,,*56
06/10/2014	01:10:44.890	$GPGGA,011053,2556.3754,N,08002.2966,W,1,9,1.5,15,M,,M,,*5F
06/10/2014	01:10:46.002	$GPGGA,011054,2556.3761,N,08002.2993,W,1,9,1.5,15,M,,M,,*54
06/10/2014	01:10:47.184	$GPGGA,011055,2556.3765,N,08002.3020,W,1,9,1.5,15,M,,M,,*51
06/10/2014	01:10:48.192	$GPGGA,011056,2556.3772,N,08002.3046,W,1,9,1.5,16,M,,M,,*57
06/10/2014	01:10:49.271	$GPGGA,011057,2556.3779,N,08002.3072,W,1,9,1.5,16,M,,M,,*5A
06/10/2014	01:10:50.307	$GPGGA,011058,2556.3785,N,08002.3100,W,1,9,1.5,16,M,,M,,*52
06/10/2014	01:10:51.472	$GPGGA,011059,2556.3790,N,08002.3125,W,1,9,1.5,16,M,,M,,*50
06/10/2014	01:10:52.507	$GPGGA,011100,2556.3797,N,08002.3152,W,1,9,1.5,16,M,,M,,*5A
06/10/2014	01:10:53.633	$GPGGA,011101,2556.3803,N,08002.3179,W,1,9,1.5,16,M,,M,,*50
06/10/2014	01:10:54.579	$GPGGA,011102,2556.3808,N,08002.3206,W,1,9,1.5,16,M,,M,,*53
06/10/2014	01:10:55.755	$GPGGA,011103,2556.3815,N,08002.3233,W,1,9,1.5,16,M,,M,,*58
06/10/2014	01:10:56.780	$GPGGA,011104,2556.3822,N,08002.3260,W,1,9,1.5,16,M,,M,,*5D
06/10/2014	01:10:57.880	$GPGGA,011105,2556.3829,N,08002.3288,W,1,9,1.5,16,M,,M,,*51
06/10/2014	01:10:58.905	$GPGGA,011106,2556.3836,N,08002.3316,W,1,9,1.6,16,M,,M,,*59
06/10/2014	01:11:00.092	$GPGGA,011107,2556.3842,N,08002.3343,W,1,8,1.6,16,M,,M,,*5A
06/10/2014	01:11:01.051	$GPGGA,011108,2556.3848,N,08002.3370,W,1,8,1.6,16,M,,M,,*5F
06/10/2014	01:11:02.206	$GPGGA,011109,2556.3855,N,08002.3399,W,1,9,1.5,16,M,,M,,*57
06/10/2014	01:11:03.188	$GPGGA,011110,2556.3862,N,08002.3425,W,1,9,1.5,16,M,,M,,*5B
06/10/2014	01:11:04.353	$GPGGA,011111,2556.3869,N,08002.3454,W,1,9,1.5,16,M,,M,,*57
06/10/2014	01:11:05.413	$GPGGA,011112,2556.3876,N,08002.3479,W,1,9,1.5,17,M,,M,,*54
06/10/2014	01:11:06.532	$GPGGA,011113,2556.3883,N,08002.3505,W,1,9,1.5,17,M,,M,,*55
06/10/2014	01:11:07.503	$GPGGA,011114,2556.3890,N,08002.3531,W,1,9,1.5,17,M,,M,,*57
06/10/2014	01:11:08.690	$GPGGA,011115,2556.3898,N,08002.3559,W,1,9,1.5,17,M,,M,,*50
06/10/2014	01:11:09.695	$GPGGA,011116,2556.3904,N,08002.3585,W,1,9,1.5,17,M,,M,,*56
06/10/2014	01:11:10.755	$GPGGA,011117,2556.3912,N,08002.3611,W,1,9,1.5,17,M,,M,,*5E
06/10/2014	01:11:11.756	$GPGGA,011118,2556.3919,N,08002.3638,W,1,9,1.5,17,M,,M,,*51
06/10/2014	01:11:12.805	$GPGGA,011119,2556.3926,N,08002.3664,W,1,9,1.5,17,M,,M,,*55
06/10/2014	01:11:13.804	$GPGGA,011120,2556.3933,N,08002.3690,W,1,9,1.5,17,M,,M,,*50
06/10/2014	01:11:14.783	$GPGGA,011121,2556.3940,N,08002.3717,W,1,9,1.5,17,M,,M,,*5B
06/10/2014	01:11:15.854	$GPGGA,011122,2556.3947,N,08002.3743,W,1,9,1.5,17,M,,M,,*5E
06/10/2014	01:11:16.946	$GPGGA,011123,2556.3955,N,08002.3770,W,1,9,1.5,17,M,,M,,*5C
06/10/2014	01:11:17.914	$GPGGA,011124,2556.3962,N,08002.3797,W,1,9,1.5,17,M,,M,,*56
06/10/2014	01:11:18.892	$GPGGA,011125,2556.3969,N,08002.3822,W,1,9,1.5,17,M,,M,,*5D
06/10/2014	01:11:19.963	$GPGGA,011126,2556.3976,N,08002.3849,W,1,9,1.5,17,M,,M,,*5D
06/10/2014	01:11:21.042	$GPGGA,011127,2556.3983,N,08002.3876,W,1,9,1.5,17,M,,M,,*5A
06/10/2014	01:11:21.992	$GPGGA,011128,2556.3988,N,08002.3903,W,1,9,1.5,17,M,,M,,*5D
06/10/2014	01:11:23.111	$GPGGA,011129,2556.3996,N,08002.3931,W,1,9,1.5,17,M,,M,,*52
06/10/2014	01:11:24.072	$GPGGA,011130,2556.4003,N,08002.3956,W,1,9,1.5,17,M,,M,,*59
06/10/2014	01:11:25.174	$GPGGA,011131,2556.4010,N,08002.3983,W,1,9,1.5,17,M,,M,,*52
06/10/2014	01:11:26.153	$GPGGA,011132,2556.4017,N,08002.4010,W,1,9,1.5,17,M,,M,,*52
06/10/2014	01:11:27.276	$GPGGA,011133,2556.4025,N,08002.4036,W,1,9,1.5,17,M,,M,,*56
06/10/2014	01:11:28.264	$GPGGA,011134,2556.4031,N,08002.4062,W,1,9,1.5,17,M,,M,,*55
06/10/2014	01:11:29.325	$GPGGA,011135,2556.4038,N,08002.4090,W,1,9,1.5,17,M,,M,,*50
06/10/2014	01:11:30.335	$GPGGA,011136,2556.4045,N,08002.4118,W,1,9,1.6,17,M,,M,,*5B
06/10/2014	01:11:31.344	$GPGGA,011137,2556.4052,N,08002.4145,W,1,8,1.6,17,M,,M,,*55
06/10/2014	01:11:32.366	$GPGGA,011138,2556.4057,N,08002.4170,W,1,8,1.5,17,M,,M,,*5A
06/10/2014	01:11:33.425	$GPGGA,011139,2556.4064,N,08002.4196,W,1,9,1.5,17,M,,M,,*52
06/10/2014	01:11:34.434	$GPGGA,011140,2556.4071,N,08002.4223,W,1,9,1.5,17,M,,M,,*55
06/10/2014	01:11:31.937	$GPGGA,011141,2556.4078,N,08002.4249,W,1,9,1.5,17,M,,M,,*51
06/10/2014	01:11:32.966	$GPGGA,011142,2556.4085,N,08002.4275,W,1,9,1.5,17,M,,M,,*5F
06/10/2014	01:11:34.005	$GPGGA,011143,2556.4090,N,08002.4301,W,1,9,1.5,17,M,,M,,*58
06/10/2014	01:11:35.028	$GPGGA,011144,2556.4097,N,08002.4328,W,1,9,1.5,17,M,,M,,*53
06/10/2014	01:11:36.096	$GPGGA,011145,2556.4103,N,08002.4357,W,1,9,1.5,17,M,,M,,*56
06/10/2014	01:11:37.081	$GPGGA,011146,2556.4108,N,08002.4383,W,1,9,1.5,17,M,,M,,*57
06/10/2014	01:11:38.187	$GPGGA,011147,2556.4115,N,08002.4409,W,1,9,1.5,17,M,,M,,*5F
06/10/2014	01:11:39.137	$GPGGA,011148,2556.4121,N,08002.4437,W,1,9,1.5,17,M,,M,,*5A
06/10/2014	01:11:40.185	$GPGGA,011149,2556.4126,N,08002.4465,W,1,9,1.5,17,M,,M,,*5B
06/10/2014	01:11:41.207	$GPGGA,011150,2556.4132,N,08002.4491,W,1,9,1.5,17,M,,M,,*5D
06/10/2014	01:11:42.245	$GPGGA,011151,2556.4137,N,08002.4519,W,1,9,1.5,17,M,,M,,*58
06/10/2014	01:11:43.275	$GPGGA,011152,2556.4143,N,08002.4545,W,1,9,1.5,17,M,,M,,*51
06/10/2014	01:11:44.316	$GPGGA,011153,2556.4147,N,08002.4574,W,1,9,1.5,17,M,,M,,*56
06/10/2014	01:11:45.304	$GPGGA,011154,2556.4154,N,08002.4599,W,1,9,1.5,17,M,,M,,*50
06/10/2014	01:11:46.365	$GPGGA,011155,2556.4160,N,08002.4628,W,1,9,1.5,17,M,,M,,*5F
06/10/2014	01:11:47.385	$GPGGA,011156,2556.4165,N,08002.4654,W,1,9,1.5,17,M,,M,,*52
06/10/2014	01:11:48.425	$GPGGA,011157,2556.4169,N,08002.4682,W,1,9,1.5,17,M,,M,,*54
06/10/2014	01:11:49.404	$GPGGA,011158,2556.4176,N,08002.4708,W,1,9,1.5,17,M,,M,,*56
