Software Version Number: 1	Data File Format Number: 1	Build Version Number: 1	Error Count Since VI Started: 0	Manufacturer: Raytheon	 Model Number: RayMarine 120	 S/N: 	 Cal Date: 	 Wind Direction Offset: 0.00	 Slope (M)1: 0.00	 Offset (B)1: 0.00	 Slope (M)2: 0.00	 Offset (B)2: 0.00	 Slope (M)3: 0.00	 Offset (B)3: 0.00	 Slope (M)4: 0.00	 Offset (B)4: 0.00	 Slope (M)5: 0.00	 Offset (B)5: 0.00	 Slope (M)6: 0.00	 Offset (B)6: 0.00
Computer Date	Computer Time	GGA String
06/13/2014	15:00:00.927	$GPGGA,150010,2443.4191,N,08031.9527,W,1,9,1.7,16,M,,M,,*52
06/13/2014	15:00:01.933	$GPGGA,150011,2443.4185,N,08031.9534,W,1,9,1.7,16,M,,M,,*54
06/13/2014	15:00:03.092	$GPGGA,150012,2443.4180,N,08031.9538,W,1,9,1.7,16,M,,M,,*5E
06/13/2014	15:00:03.976	$GPGGA,150013,2443.4175,N,08031.9545,W,1,9,1.7,16,M,,M,,*5F
06/13/2014	15:00:04.962	$GPGGA,150014,2443.4170,N,08031.9552,W,1,9,1.7,16,M,,M,,*5B
06/13/2014	15:00:05.968	$GPGGA,150015,2443.4164,N,08031.9559,W,1,9,1.7,16,M,,M,,*54
06/13/2014	15:00:07.126	$GPGGA,150016,2443.4158,N,08031.9563,W,1,9,1.7,16,M,,M,,*51
06/13/2014	15:00:08.031	$GPGGA,150017,2443.4155,N,08031.9571,W,1,9,1.7,16,M,,M,,*5E
06/13/2014	15:00:09.016	$GPGGA,150018,2443.4149,N,08031.9577,W,1,9,1.7,16,M,,M,,*5A
06/13/2014	15:00:10.033	$GPGGA,150019,2443.4144,N,08031.9584,W,1,9,1.7,16,M,,M,,*5A
06/13/2014	15:00:11.150	$GPGGA,150020,2443.4137,N,08031.9589,W,1,9,1.7,16,M,,M,,*59
06/13/2014	15:00:12.177	$GPGGA,150021,2443.4133,N,08031.9596,W,1,9,1.7,16,M,,M,,*52
06/13/2014	15:00:13.080	$GPGGA,150022,2443.4127,N,08031.9603,W,1,9,1.7,16,M,,M,,*5B
06/13/2014	15:00:14.219	$GPGGA,150023,2443.4122,N,08031.9608,W,1,9,1.7,16,M,,M,,*54
06/13/2014	15:00:15.225	$GPGGA,150024,2443.4115,N,08031.9614,W,1,9,1.7,16,M,,M,,*5A
06/13/2014	15:00:16.241	$GPGGA,150025,2443.4110,N,08031.9621,W,1,9,1.7,16,M,,M,,*58
06/13/2014	15:00:17.234	$GPGGA,150026,2443.4104,N,08031.9628,W,1,9,1.7,16,M,,M,,*57
06/13/2014	15:00:18.264	$GPGGA,150027,2443.4099,N,08031.9635,W,1,9,1.7,16,M,,M,,*5F
06/13/2014	15:00:19.279	$GPGGA,150028,2443.4093,N,08031.9640,W,1,9,1.7,16,M,,M,,*58
06/13/2014	15:00:20.285	$GPGGA,150029,2443.4088,N,08031.9646,W,1,9,1.7,16,M,,M,,*55
06/13/2014	15:00:21.296	$GPGGA,150030,2443.4083,N,08031.9653,W,1,9,1.7,16,M,,M,,*52
06/13/2014	15:00:22.317	$GPGGA,150031,2443.4079,N,08031.9660,W,1,9,1.7,16,M,,M,,*56
06/13/2014	15:00:23.333	$GPGGA,150032,2443.4072,N,08031.9665,W,1,9,1.7,16,M,,M,,*5B
06/13/2014	15:00:24.350	$GPGGA,150033,2443.4066,N,08031.9671,W,1,9,1.7,16,M,,M,,*5A
06/13/2014	15:00:25.335	$GPGGA,150034,2443.4061,N,08031.9678,W,1,9,1.7,16,M,,M,,*53
06/13/2014	15:00:26.352	$GPGGA,150035,2443.4057,N,08031.9683,W,1,9,1.7,16,M,,M,,*53
06/13/2014	15:00:27.378	$GPGGA,150036,2443.4051,N,08031.9689,W,1,9,1.9,16,M,,M,,*52
06/13/2014	15:00:28.411	$GPGGA,150037,2443.4045,N,08031.9694,W,1,9,1.7,16,M,,M,,*54
06/13/2014	15:00:29.410	$GPGGA,150038,2443.4039,N,08031.9701,W,1,9,1.7,16,M,,M,,*5D
06/13/2014	15:00:30.438	$GPGGA,150039,2443.4033,N,08031.9709,W,1,9,1.7,16,M,,M,,*5E
06/13/2014	15:00:31.458	$GPGGA,150040,2443.4027,N,08031.9718,W,1,9,1.7,16,M,,M,,*55
06/13/2014	15:00:32.479	$GPGGA,150041,2443.4022,N,08031.9723,W,1,9,1.7,16,M,,M,,*59
06/13/2014	15:00:33.446	$GPGGA,150042,2443.4016,N,08031.9729,W,1,9,1.7,16,M,,M,,*57
06/13/2014	15:00:34.472	$GPGGA,150043,2443.4012,N,08031.9736,W,1,9,1.7,16,M,,M,,*5C
06/13/2014	15:00:35.508	$GPGGA,150044,2443.4007,N,08031.9743,W,1,9,1.7,16,M,,M,,*5D
06/13/2014	15:00:36.492	$GPGGA,150045,2443.4003,N,08031.9749,W,1,9,1.7,16,M,,M,,*52
06/13/2014	15:00:37.508	$GPGGA,150046,2443.3996,N,08031.9755,W,1,9,1.7,16,M,,M,,*5E
06/13/2014	15:00:38.525	$GPGGA,150047,2443.3992,N,08031.9761,W,1,8,1.8,16,M,,M,,*52
06/13/2014	15:00:38.591	$GPGGA,150048,2443.3988,N,08031.9769,W,1,8,1.7,16,M,,M,,*51
06/13/2014	15:00:39.577	$GPGGA,150049,2443.3985,N,08031.9774,W,1,9,1.7,16,M,,M,,*50
06/13/2014	15:00:40.613	$GPGGA,150050,2443.3978,N,08031.9779,W,1,9,1.7,16,M,,M,,*57
06/13/2014	15:00:41.619	$GPGGA,150051,2443.3972,N,08031.9784,W,1,9,1.7,16,M,,M,,*5E
06/13/2014	15:00:42.646	$GPGGA,150052,2443.3969,N,08031.9791,W,1,9,1.7,16,M,,M,,*53
06/13/2014	15:00:43.784	$GPGGA,150053,2443.3964,N,08031.9798,W,1,9,1.7,16,M,,M,,*56
06/13/2014	15:00:44.822	$GPGGA,150054,2443.3957,N,08031.9801,W,1,9,1.7,16,M,,M,,*5E
06/13/2014	15:00:45.684	$GPGGA,150055,2443.3953,N,08031.9808,W,1,9,1.7,16,M,,M,,*52
06/13/2014	15:00:46.690	$GPGGA,150056,2443.3949,N,08031.9813,W,1,9,1.7,16,M,,M,,*50
06/13/2014	15:00:47.696	$GPGGA,150057,2443.3943,N,08031.9819,W,1,9,1.7,16,M,,M,,*51
06/13/2014	15:00:48.733	$GPGGA,150058,2443.3938,N,08031.9823,W,1,9,1.7,16,M,,M,,*5B
06/13/2014	15:00:49.861	$GPGGA,150059,2443.3934,N,08031.9830,W,1,9,1.9,16,M,,M,,*5A
06/13/2014	15:00:50.928	$GPGGA,150100,2443.3929,N,08031.9837,W,1,9,1.9,16,M,,M,,*5C
06/13/2014	15:00:51.853	$GPGGA,150101,2443.3922,N,08031.9842,W,1,9,1.7,16,M,,M,,*5A
06/13/2014	15:00:52.767	$GPGGA,150102,2443.3916,N,08031.9848,W,1,9,1.7,16,M,,M,,*54
06/13/2014	15:00:53.803	$GPGGA,150103,2443.3913,N,08031.9853,W,1,9,1.7,16,M,,M,,*5A
06/13/2014	15:00:54.900	$GPGGA,150104,2443.3907,N,08031.9859,W,1,9,1.7,16,M,,M,,*52
06/13/2014	15:00:55.967	$GPGGA,150105,2443.3902,N,08031.9864,W,1,9,1.7,16,M,,M,,*58
06/13/2014	15:00:56.994	$GPGGA,150106,2443.3895,N,08031.9870,W,1,9,1.7,16,M,,M,,*51
06/13/2014	15:00:57.969	$GPGGA,150107,2443.3891,N,08031.9877,W,1,9,1.7,16,M,,M,,*53
06/13/2014	15:00:59.039	$GPGGA,150108,2443.3885,N,08031.9882,W,1,9,1.7,16,M,,M,,*53
06/13/2014	15:01:00.012	$GPGGA,150109,2443.3880,N,08031.9888,W,1,9,1.7,16,M,,M,,*5D
06/13/2014	15:01:01.048	$GPGGA,150110,2443.3873,N,08031.9895,W,1,9,1.7,16,M,,M,,*55
06/13/2014	15:01:02.044	$GPGGA,150111,2443.3868,N,08031.9900,W,1,9,1.7,16,M,,M,,*53
06/13/2014	15:01:03.091	$GPGGA,150112,2443.3862,N,08031.9906,W,1,9,1.7,16,M,,M,,*5C
06/13/2014	15:01:04.066	$GPGGA,150113,2443.3857,N,08031.9911,W,1,9,1.7,16,M,,M,,*5D
06/13/2014	15:01:05.103	$GPGGA,150114,2443.3852,N,08031.9917,W,1,9,1.7,16,M,,M,,*59
06/13/2014	15:01:06.089	$GPGGA,150115,2443.3846,N,08031.9924,W,1,9,1.7,16,M,,M,,*5D
06/13/2014	15:01:07.145	$GPGGA,150116,2443.3840,N,08031.9929,W,1,9,1.7,16,M,,M,,*55
06/13/2014	15:01:08.116	$GPGGA,150117,2443.3834,N,08031.9935,W,1,9,1.7,16,M,,M,,*5A
06/13/2014	15:01:09.086	$GPGGA,150118,2443.3830,N,08031.9942,W,1,9,1.7,16,M,,M,,*51
06/13/2014	15:01:10.105	$GPGGA,150119,2443.3824,N,08031.9949,W,1,9,1.7,16,M,,M,,*5E
06/13/2014	15:01:11.179	$GPGGA,150120,2443.3819,N,08031.9953,W,1,9,1.7,16,M,,M,,*51
06/13/2014	15:01:12.175	$GPGGA,150121,2443.3813,N,08031.9960,W,1,9,1.7,16,M,,M,,*5A
06/13/2014	15:01:13.211	$GPGGA,150122,2443.3808,N,08031.9965,W,1,9,1.7,16,M,,M,,*56
06/13/2014	15:01:14.217	$GPGGA,150123,2443.3803,N,08031.9972,W,1,9,1.7,16,M,,M,,*5A
06/13/2014	15:01:15.254	$GPGGA,150124,2443.3797,N,08031.9978,W,1,9,1.7,16,M,,M,,*55
06/13/2014	15:01:16.178	$GPGGA,150125,2443.3792,N,08031.9985,W,1,9,1.7,16,M,,M,,*53
06/13/2014	15:01:17.195	$GPGGA,150126,2443.3788,N,08031.9991,W,1,9,1.7,16,M,,M,,*5E
06/13/2014	15:01:18.262	$GPGGA,150127,2443.3783,N,08031.9996,W,1,9,1.7,16,M,,M,,*53
06/13/2014	15:01:20.345	$GPGGA,150129,2443.3772,N,08032.0008,W,1,9,1.7,16,M,,M,,*57
06/13/2014	15:01:21.331	$GPGGA,150130,2443.3768,N,08032.0014,W,1,9,1.7,16,M,,M,,*59
06/13/2014	15:01:22.276	$GPGGA,150131,2443.3762,N,08032.0020,W,1,8,1.9,16,M,,M,,*5A
06/13/2014	15:01:23.363	$GPGGA,150132,2443.3757,N,08032.0025,W,1,8,1.9,16,M,,M,,*5A
06/13/2014	15:01:24.349	$GPGGA,150133,2443.3752,N,08032.0032,W,1,8,1.9,16,M,,M,,*58
06/13/2014	15:01:25.365	$GPGGA,150134,2443.3748,N,08032.0037,W,1,8,1.9,16,M,,M,,*51
06/13/2014	15:01:26.391	$GPGGA,150135,2443.3743,N,08032.0043,W,1,8,1.7,16,M,,M,,*56
06/13/2014	15:01:27.418	$GPGGA,150136,2443.3736,N,08032.0050,W,1,8,1.7,16,M,,M,,*55
06/13/2014	15:01:28.397	$GPGGA,150137,2443.3730,N,08032.0056,W,1,9,1.7,16,M,,M,,*55
06/13/2014	15:01:29.439	$GPGGA,150138,2443.3725,N,08032.0063,W,1,9,1.7,16,M,,M,,*58
06/13/2014	15:01:30.465	$GPGGA,150139,2443.3718,N,08032.0069,W,1,9,1.7,15,M,,M,,*5E
06/13/2014	15:01:31.471	$GPGGA,150140,2443.3714,N,08032.0074,W,1,9,1.7,15,M,,M,,*50
06/13/2014	15:01:32.470	$GPGGA,150141,2443.3708,N,08032.0081,W,1,9,1.7,15,M,,M,,*56
06/13/2014	15:01:33.499	$GPGGA,150142,2443.3703,N,08032.0087,W,1,9,1.7,15,M,,M,,*58
06/13/2014	15:01:34.479	$GPGGA,150143,2443.3696,N,08032.0094,W,1,9,1.7,15,M,,M,,*56
06/13/2014	15:01:35.465	$GPGGA,150144,2443.3691,N,08032.0099,W,1,9,1.7,15,M,,M,,*5B
06/13/2014	15:01:36.471	$GPGGA,150145,2443.3686,N,08032.0106,W,1,9,1.7,15,M,,M,,*5B
06/13/2014	15:01:37.477	$GPGGA,150146,2443.3680,N,08032.0112,W,1,9,1.7,15,M,,M,,*5B
06/13/2014	15:01:38.544	$GPGGA,150147,2443.3675,N,08032.0119,W,1,9,1.7,15,M,,M,,*5B
06/13/2014	15:01:38.550	$GPGGA,150148,2443.3671,N,08032.0126,W,1,9,1.7,15,M,,M,,*5C
06/13/2014	15:01:39.556	$GPGGA,150149,2443.3664,N,08032.0131,W,1,9,1.7,15,M,,M,,*5F
06/13/2014	15:01:40.633	$GPGGA,150150,2443.3660,N,08032.0137,W,1,9,1.7,15,M,,M,,*55
06/13/2014	15:01:41.578	$GPGGA,150151,2443.3654,N,08032.0145,W,1,9,1.7,15,M,,M,,*56
06/13/2014	15:01:42.681	$GPGGA,150152,2443.3649,N,08032.0150,W,1,9,1.7,15,M,,M,,*5D
06/13/2014	15:01:43.651	$GPGGA,150153,2443.3642,N,08032.0156,W,1,9,1.7,15,M,,M,,*51
06/13/2014	15:01:44.677	$GPGGA,150154,2443.3638,N,08032.0163,W,1,9,1.7,15,M,,M,,*5D
06/13/2014	15:01:45.692	$GPGGA,150155,2443.3632,N,08032.0170,W,1,9,1.7,15,M,,M,,*54
06/13/2014	15:01:46.790	$GPGGA,150156,2443.3626,N,08032.0175,W,1,9,1.7,15,M,,M,,*57
06/13/2014	15:01:47.725	$GPGGA,150157,2443.3621,N,08032.0181,W,1,9,1.7,15,M,,M,,*5A
06/13/2014	15:01:48.802	$GPGGA,150158,2443.3615,N,08032.0188,W,1,9,1.7,15,M,,M,,*5B
06/13/2014	15:01:49.717	$GPGGA,150159,2443.3610,N,08032.0193,W,1,9,1.9,15,M,,M,,*5B
06/13/2014	15:01:50.855	$GPGGA,150200,2443.3604,N,08032.0199,W,1,9,1.7,15,M,,M,,*55
06/13/2014	15:01:51.723	$GPGGA,150201,2443.3599,N,08032.0206,W,1,9,1.7,15,M,,M,,*56
06/13/2014	15:01:52.839	$GPGGA,150202,2443.3593,N,08032.0213,W,1,9,1.7,15,M,,M,,*5B
06/13/2014	15:01:53.883	$GPGGA,150203,2443.3586,N,08032.0220,W,1,9,1.7,15,M,,M,,*5E
06/13/2014	15:01:54.880	$GPGGA,150204,2443.3581,N,08032.0227,W,1,9,1.7,15,M,,M,,*59
06/13/2014	15:01:55.905	$GPGGA,150205,2443.3575,N,08032.0233,W,1,9,1.7,15,M,,M,,*56
06/13/2014	15:01:56.902	$GPGGA,150206,2443.3569,N,08032.0238,W,1,9,1.7,15,M,,M,,*53
06/13/2014	15:01:57.826	$GPGGA,150207,2443.3566,N,08032.0245,W,1,9,1.9,15,M,,M,,*59
06/13/2014	15:01:58.944	$GPGGA,150208,2443.3561,N,08032.0250,W,1,9,1.7,15,M,,M,,*5B
06/13/2014	15:01:59.960	$GPGGA,150209,2443.3555,N,08032.0257,W,1,9,1.7,15,M,,M,,*5A
06/13/2014	15:02:00.972	$GPGGA,150210,2443.3549,N,08032.0261,W,1,9,1.7,15,M,,M,,*5A
06/13/2014	15:02:01.972	$GPGGA,150211,2443.3545,N,08032.0268,W,1,9,1.7,15,M,,M,,*5E
06/13/2014	15:02:03.008	$GPGGA,150212,2443.3539,N,08032.0274,W,1,9,1.7,15,M,,M,,*5B
06/13/2014	15:02:04.045	$GPGGA,150213,2443.3533,N,08032.0279,W,1,9,1.7,15,M,,M,,*5D
06/13/2014	15:02:05.020	$GPGGA,150214,2443.3528,N,08032.0286,W,1,9,1.7,15,M,,M,,*50
06/13/2014	15:02:06.083	$GPGGA,150215,2443.3523,N,08032.0293,W,1,9,1.7,15,M,,M,,*5E
06/13/2014	15:02:07.052	$GPGGA,150216,2443.3517,N,08032.0298,W,1,9,1.7,15,M,,M,,*51
06/13/2014	15:02:08.068	$GPGGA,150217,2443.3512,N,08032.0304,W,1,9,1.7,15,M,,M,,*51
06/13/2014	15:02:09.064	$GPGGA,150218,2443.3512,N,08032.0304,W,1,9,1.7,15,M,,M,,*5E
06/13/2014	15:02:10.101	$GPGGA,150219,2443.3501,N,08032.0316,W,1,9,1.7,15,M,,M,,*5E
06/13/2014	15:02:11.139	$GPGGA,150220,2443.3495,N,08032.0322,W,1,9,1.7,15,M,,M,,*5F
06/13/2014	15:02:12.133	$GPGGA,150221,2443.3490,N,08032.0329,W,1,9,1.7,15,M,,M,,*50
06/13/2014	15:02:13.119	$GPGGA,150222,2443.3490,N,08032.0329,W,1,9,1.7,15,M,,M,,*53
06/13/2014	15:02:14.155	$GPGGA,150223,2443.3479,N,08032.0343,W,1,9,1.7,15,M,,M,,*59
06/13/2014	15:02:15.171	$GPGGA,150224,2443.3479,N,08032.0343,W,1,9,1.7,15,M,,M,,*5E
06/13/2014	15:02:16.188	$GPGGA,150225,2443.3467,N,08032.0354,W,1,9,1.7,15,M,,M,,*56
06/13/2014	15:02:17.204	$GPGGA,150226,2443.3462,N,08032.0359,W,1,9,1.7,15,M,,M,,*5D
06/13/2014	15:02:18.189	$GPGGA,150227,2443.3456,N,08032.0365,W,1,9,1.7,15,M,,M,,*54
06/13/2014	15:02:19.236	$GPGGA,150228,2443.3450,N,08032.0372,W,1,9,1.7,15,M,,M,,*5B
06/13/2014	15:02:20.232	$GPGGA,150229,2443.3447,N,08032.0379,W,1,9,1.7,15,M,,M,,*57
06/13/2014	15:02:21.257	$GPGGA,150230,2443.3440,N,08032.0384,W,1,9,1.7,15,M,,M,,*5A
06/13/2014	15:02:22.274	$GPGGA,150231,2443.3434,N,08032.0390,W,1,9,1.7,15,M,,M,,*5D
06/13/2014	15:02:23.280	$GPGGA,150232,2443.3434,N,08032.0390,W,1,9,1.7,15,M,,M,,*5E
06/13/2014	15:02:24.275	$GPGGA,150233,2443.3425,N,08032.0402,W,1,9,1.7,15,M,,M,,*53
06/13/2014	15:02:25.302	$GPGGA,150234,2443.3425,N,08032.0402,W,1,9,1.7,15,M,,M,,*54
06/13/2014	15:02:26.328	$GPGGA,150235,2443.3412,N,08032.0415,W,1,9,1.7,15,M,,M,,*57
06/13/2014	15:02:27.375	$GPGGA,150236,2443.3407,N,08032.0421,W,1,9,1.7,15,M,,M,,*57
06/13/2014	15:02:28.361	$GPGGA,150237,2443.3401,N,08032.0427,W,1,9,1.7,15,M,,M,,*56
06/13/2014	15:02:30.248	$GPGGA,150238,2443.3396,N,08032.0434,W,1,9,1.7,15,M,,M,,*52
06/13/2014	15:02:30.373	$GPGGA,150239,2443.3392,N,08032.0438,W,1,9,1.7,15,M,,M,,*5B
06/13/2014	15:02:31.389	$GPGGA,150240,2443.3386,N,08032.0445,W,1,9,1.9,15,M,,M,,*54
06/13/2014	15:02:32.497	$GPGGA,150241,2443.3382,N,08032.0452,W,1,9,1.7,15,M,,M,,*59
06/13/2014	15:02:33.411	$GPGGA,150242,2443.3376,N,08032.0459,W,1,9,1.7,15,M,,M,,*5A
06/13/2014	15:02:34.437	$GPGGA,150243,2443.3371,N,08032.0466,W,1,9,1.7,15,M,,M,,*50
06/13/2014	15:02:35.444	$GPGGA,150244,2443.3371,N,08032.0466,W,1,9,1.7,15,M,,M,,*57
06/13/2014	15:02:36.582	$GPGGA,150245,2443.3360,N,08032.0477,W,1,9,1.7,15,M,,M,,*56
06/13/2014	15:02:37.578	$GPGGA,150246,2443.3355,N,08032.0484,W,1,9,1.7,15,M,,M,,*5F
06/13/2014	15:02:38.565	$GPGGA,150247,2443.3349,N,08032.0488,W,1,9,1.7,15,M,,M,,*5F
06/13/2014	15:02:38.648	$GPGGA,150248,2443.3344,N,08032.0495,W,1,9,1.7,15,M,,M,,*51
06/13/2014	15:02:39.624	$GPGGA,150249,2443.3339,N,08032.0502,W,1,9,1.7,15,M,,M,,*55
06/13/2014	15:02:40.559	$GPGGA,150250,2443.3335,N,08032.0509,W,1,9,1.7,15,M,,M,,*5A
06/13/2014	15:02:41.687	$GPGGA,150251,2443.3327,N,08032.0514,W,1,9,1.7,15,M,,M,,*54
06/13/2014	15:02:42.684	$GPGGA,150252,2443.3322,N,08032.0520,W,1,9,1.7,15,M,,M,,*55
06/13/2014	15:02:43.703	$GPGGA,150253,2443.3318,N,08032.0527,W,1,9,1.7,15,M,,M,,*5A
06/13/2014	15:02:44.707	$GPGGA,150254,2443.3313,N,08032.0532,W,1,9,1.7,15,M,,M,,*52
06/13/2014	15:02:45.711	$GPGGA,150255,2443.3308,N,08032.0539,W,1,9,1.7,15,M,,M,,*52
06/13/2014	15:02:46.737	$GPGGA,150256,2443.3302,N,08032.0546,W,1,9,1.7,15,M,,M,,*53
06/13/2014	15:02:47.763	$GPGGA,150257,2443.3297,N,08032.0551,W,1,9,1.7,15,M,,M,,*59
06/13/2014	15:02:48.749	$GPGGA,150258,2443.3291,N,08032.0560,W,1,9,1.7,15,M,,M,,*52
06/13/2014	15:02:49.765	$GPGGA,150259,2443.3286,N,08032.0567,W,1,9,1.7,15,M,,M,,*52
06/13/2014	15:02:50.812	$GPGGA,150300,2443.3280,N,08032.0571,W,1,9,1.7,15,M,,M,,*5E
06/13/2014	15:02:51.828	$GPGGA,150301,2443.3275,N,08032.0576,W,1,9,1.7,15,M,,M,,*52
06/13/2014	15:02:52.814	$GPGGA,150302,2443.3271,N,08032.0585,W,1,9,1.7,15,M,,M,,*59
06/13/2014	15:02:53.860	$GPGGA,150303,2443.3266,N,08032.0592,W,1,9,1.7,15,M,,M,,*58
06/13/2014	15:02:54.846	$GPGGA,150304,2443.3260,N,08032.0596,W,1,9,1.7,15,M,,M,,*5D
06/13/2014	15:02:55.872	$GPGGA,150305,2443.3256,N,08032.0601,W,1,9,1.7,15,M,,M,,*54
06/13/2014	15:02:56.878	$GPGGA,150306,2443.3251,N,08032.0608,W,1,9,1.9,15,M,,M,,*57
06/13/2014	15:02:57.904	$GPGGA,150307,2443.3246,N,08032.0614,W,1,9,1.7,15,M,,M,,*53
06/13/2014	15:02:58.907	$GPGGA,150308,2443.3241,N,08032.0621,W,1,9,1.7,15,M,,M,,*5D
06/13/2014	15:02:59.925	$GPGGA,150309,2443.3235,N,08032.0628,W,1,9,1.7,15,M,,M,,*56
06/13/2014	15:03:00.902	$GPGGA,150310,2443.3230,N,08032.0632,W,1,9,1.7,15,M,,M,,*50
06/13/2014	15:03:01.955	$GPGGA,150311,2443.3225,N,08032.0637,W,1,9,1.7,15,M,,M,,*50
06/13/2014	15:03:02.937	$GPGGA,150312,2443.3220,N,08032.0643,W,1,9,1.7,15,M,,M,,*55
06/13/2014	15:03:03.934	$GPGGA,150313,2443.3215,N,08032.0651,W,1,9,1.7,15,M,,M,,*51
06/13/2014	15:03:04.921	$GPGGA,150314,2443.3210,N,08032.0658,W,1,9,1.7,15,M,,M,,*5A
06/13/2014	15:03:05.929	$GPGGA,150315,2443.3204,N,08032.0662,W,1,9,1.7,15,M,,M,,*57
06/13/2014	15:03:06.946	$GPGGA,150316,2443.3201,N,08032.0668,W,1,9,1.7,15,M,,M,,*5B
06/13/2014	15:03:07.974	$GPGGA,150317,2443.3197,N,08032.0675,W,1,9,1.7,15,M,,M,,*5A
06/13/2014	15:03:08.951	$GPGGA,150318,2443.3191,N,08032.0680,W,1,9,1.7,15,M,,M,,*59
06/13/2014	15:03:09.989	$GPGGA,150319,2443.3185,N,08032.0686,W,1,9,1.7,15,M,,M,,*5B
06/13/2014	15:03:10.976	$GPGGA,150320,2443.3180,N,08032.0691,W,1,9,1.7,15,M,,M,,*52
06/13/2014	15:03:11.983	$GPGGA,150321,2443.3176,N,08032.0698,W,1,9,1.7,15,M,,M,,*53
06/13/2014	15:03:12.971	$GPGGA,150322,2443.3172,N,08032.0704,W,1,9,1.7,15,M,,M,,*50
06/13/2014	15:03:14.088	$GPGGA,150323,2443.3165,N,08032.0708,W,1,9,1.7,15,M,,M,,*5B
06/13/2014	15:03:14.994	$GPGGA,150324,2443.3161,N,08032.0713,W,1,9,1.7,15,M,,M,,*52
06/13/2014	15:03:16.087	$GPGGA,150325,2443.3156,N,08032.0719,W,1,9,1.7,15,M,,M,,*5D
06/13/2014	15:03:16.989	$GPGGA,150326,2443.3151,N,08032.0726,W,1,9,1.7,15,M,,M,,*55
06/13/2014	15:03:18.007	$GPGGA,150327,2443.3145,N,08032.0731,W,1,9,1.7,15,M,,M,,*57
06/13/2014	15:03:19.014	$GPGGA,150328,2443.3140,N,08032.0735,W,1,9,1.7,15,M,,M,,*59
06/13/2014	15:03:20.011	$GPGGA,150329,2443.3134,N,08032.0741,W,1,9,1.7,15,M,,M,,*58
06/13/2014	15:03:21.109	$GPGGA,150330,2443.3130,N,08032.0748,W,1,9,1.7,15,M,,M,,*5D
06/13/2014	15:03:22.147	$GPGGA,150331,2443.3125,N,08032.0753,W,1,9,1.7,15,M,,M,,*52
06/13/2014	15:03:23.044	$GPGGA,150332,2443.3119,N,08032.0759,W,1,9,1.7,15,M,,M,,*54
06/13/2014	15:03:24.032	$GPGGA,150333,2443.3113,N,08032.0764,W,1,9,1.7,15,M,,M,,*51
06/13/2014	15:03:25.044	$GPGGA,150334,2443.3108,N,08032.0770,W,1,9,1.7,15,M,,M,,*59
06/13/2014	15:03:26.156	$GPGGA,150335,2443.3103,N,08032.0777,W,1,9,1.7,15,M,,M,,*54
06/13/2014	15:03:27.146	$GPGGA,150336,2443.3098,N,08032.0782,W,1,9,1.7,15,M,,M,,*5E
06/13/2014	15:03:28.161	$GPGGA,150337,2443.3092,N,08032.0788,W,1,9,1.7,15,M,,M,,*5F
06/13/2014	15:03:29.155	$GPGGA,150338,2443.3087,N,08032.0792,W,1,9,1.7,15,M,,M,,*5F
06/13/2014	15:03:30.147	$GPGGA,150339,2443.3082,N,08032.0799,W,1,9,1.7,15,M,,M,,*50
06/13/2014	15:03:31.164	$GPGGA,150340,2443.3076,N,08032.0806,W,1,9,1.7,15,M,,M,,*5C
06/13/2014	15:03:32.186	$GPGGA,150341,2443.3071,N,08032.0811,W,1,9,1.7,15,M,,M,,*5C
06/13/2014	15:03:33.179	$GPGGA,150342,2443.3065,N,08032.0817,W,1,9,1.7,15,M,,M,,*5C
06/13/2014	15:03:34.209	$GPGGA,150343,2443.3060,N,08032.0824,W,1,9,1.7,15,M,,M,,*58
06/13/2014	15:03:35.192	$GPGGA,150344,2443.3055,N,08032.0831,W,1,9,1.7,15,M,,M,,*5D
06/13/2014	15:03:36.189	$GPGGA,150345,2443.3049,N,08032.0836,W,1,9,1.7,15,M,,M,,*56
06/13/2014	15:03:37.196	$GPGGA,150346,2443.3046,N,08032.0843,W,1,9,1.7,15,M,,M,,*58
06/13/2014	15:03:38.224	$GPGGA,150347,2443.3038,N,08032.0849,W,1,9,1.7,15,M,,M,,*5A
06/13/2014	15:03:38.591	$GPGGA,150348,2443.3033,N,08032.0856,W,1,9,1.7,15,M,,M,,*50
06/13/2014	15:03:39.607	$GPGGA,150349,2443.3028,N,08032.0863,W,1,9,1.7,16,M,,M,,*5E
06/13/2014	15:03:40.605	$GPGGA,150350,2443.3024,N,08032.0868,W,1,9,1.7,16,M,,M,,*51
06/13/2014	15:03:41.622	$GPGGA,150351,2443.3017,N,08032.0874,W,1,9,1.7,16,M,,M,,*5D
06/13/2014	15:03:42.619	$GPGGA,150352,2443.3013,N,08032.0882,W,1,9,1.7,16,M,,M,,*53
06/13/2014	15:03:43.643	$GPGGA,150353,2443.3007,N,08032.0889,W,1,9,1.8,16,M,,M,,*53
06/13/2014	15:03:44.605	$GPGGA,150354,2443.3001,N,08032.0894,W,1,9,1.8,16,M,,M,,*5E
06/13/2014	15:03:45.652	$GPGGA,150355,2443.2996,N,08032.0901,W,1,9,1.8,16,M,,M,,*54
06/13/2014	15:03:46.639	$GPGGA,150356,2443.2990,N,08032.0908,W,1,9,1.8,16,M,,M,,*58
06/13/2014	15:03:47.668	$GPGGA,150357,2443.2984,N,08032.0914,W,1,9,1.8,16,M,,M,,*51
06/13/2014	15:03:48.643	$GPGGA,150358,2443.2979,N,08032.0921,W,1,9,1.8,16,M,,M,,*5A
06/13/2014	15:03:49.680	$GPGGA,150359,2443.2974,N,08032.0928,W,1,9,1.8,16,M,,M,,*5F
06/13/2014	15:03:50.658	$GPGGA,150400,2443.2970,N,08032.0934,W,1,9,1.8,16,M,,M,,*5D
06/13/2014	15:03:51.685	$GPGGA,150401,2443.2964,N,08032.0940,W,1,9,1.8,16,M,,M,,*5A
06/13/2014	15:03:52.682	$GPGGA,150402,2443.2959,N,08032.0947,W,1,9,1.9,16,M,,M,,*51
06/13/2014	15:03:53.660	$GPGGA,150403,2443.2953,N,08032.0954,W,1,9,1.8,16,M,,M,,*59
06/13/2014	15:03:54.687	$GPGGA,150404,2443.2948,N,08032.0961,W,1,9,1.8,16,M,,M,,*52
06/13/2014	15:03:55.674	$GPGGA,150405,2443.2941,N,08032.0966,W,1,9,1.8,16,M,,M,,*5D
06/13/2014	15:03:56.682	$GPGGA,150406,2443.2937,N,08032.0972,W,1,9,1.8,16,M,,M,,*5A
06/13/2014	15:03:57.744	$GPGGA,150407,2443.2932,N,08032.0979,W,1,9,1.8,16,M,,M,,*55
06/13/2014	15:03:58.697	$GPGGA,150408,2443.2926,N,08032.0986,W,1,9,1.8,16,M,,M,,*5F
06/13/2014	15:03:59.805	$GPGGA,150409,2443.2920,N,08032.0991,W,1,9,1.8,16,M,,M,,*5E
06/13/2014	15:04:00.691	$GPGGA,150410,2443.2916,N,08032.0998,W,1,9,1.8,16,M,,M,,*5A
06/13/2014	15:04:01.729	$GPGGA,150411,2443.2912,N,08032.1004,W,1,9,1.8,16,M,,M,,*52
06/13/2014	15:04:02.837	$GPGGA,150412,2443.2905,N,08032.1009,W,1,9,1.8,16,M,,M,,*5A
06/13/2014	15:04:03.723	$GPGGA,150413,2443.2901,N,08032.1015,W,1,9,1.8,16,M,,M,,*52
06/13/2014	15:04:04.811	$GPGGA,150414,2443.2896,N,08032.1022,W,1,9,1.8,16,M,,M,,*5E
06/13/2014	15:04:05.717	$GPGGA,150415,2443.2890,N,08032.1027,W,1,9,1.8,16,M,,M,,*5C
06/13/2014	15:04:06.745	$GPGGA,150416,2443.2885,N,08032.1033,W,1,9,1.8,16,M,,M,,*5E
06/13/2014	15:04:07.863	$GPGGA,150417,2443.2880,N,08032.1040,W,1,9,1.8,16,M,,M,,*5E
06/13/2014	15:04:08.739	$GPGGA,150418,2443.2876,N,08032.1045,W,1,9,1.8,16,M,,M,,*5D
06/13/2014	15:04:09.737	$GPGGA,150419,2443.2870,N,08032.1051,W,1,9,1.8,16,M,,M,,*5F
06/13/2014	15:04:10.855	$GPGGA,150420,2443.2865,N,08032.1059,W,1,9,1.8,16,M,,M,,*59
06/13/2014	15:04:11.862	$GPGGA,150421,2443.2860,N,08032.1064,W,1,9,1.8,16,M,,M,,*53
06/13/2014	15:04:12.890	$GPGGA,150422,2443.2854,N,08032.1070,W,1,9,1.8,16,M,,M,,*52
06/13/2014	15:04:13.786	$GPGGA,150423,2443.2850,N,08032.1077,W,1,9,1.8,16,M,,M,,*50
06/13/2014	15:04:14.884	$GPGGA,150424,2443.2845,N,08032.1082,W,1,9,1.8,16,M,,M,,*59
06/13/2014	15:04:15.872	$GPGGA,150425,2443.2840,N,08032.1089,W,1,9,1.8,16,M,,M,,*56
06/13/2014	15:04:16.869	$GPGGA,150426,2443.2833,N,08032.1095,W,1,9,1.8,16,M,,M,,*5C
06/13/2014	15:04:17.876	$GPGGA,150427,2443.2829,N,08032.1102,W,1,9,1.8,16,M,,M,,*59
06/13/2014	15:04:18.897	$GPGGA,150428,2443.2823,N,08032.1106,W,1,9,1.8,16,M,,M,,*58
06/13/2014	15:04:19.911	$GPGGA,150429,2443.2818,N,08032.1113,W,1,9,1.8,16,M,,M,,*55
06/13/2014	15:04:20.900	$GPGGA,150430,2443.2813,N,08032.1118,W,1,9,1.8,16,M,,M,,*5D
06/13/2014	15:04:21.926	$GPGGA,150431,2443.2807,N,08032.1124,W,1,9,1.8,16,M,,M,,*56
06/13/2014	15:04:22.934	$GPGGA,150432,2443.2801,N,08032.1131,W,1,9,1.8,16,M,,M,,*57
06/13/2014	15:04:23.930	$GPGGA,150433,2443.2796,N,08032.1136,W,1,9,1.8,16,M,,M,,*50
06/13/2014	15:04:24.917	$GPGGA,150434,2443.2791,N,08032.1143,W,1,9,1.8,16,M,,M,,*52
06/13/2014	15:04:25.946	$GPGGA,150435,2443.2786,N,08032.1149,W,1,9,1.8,16,M,,M,,*5F
06/13/2014	15:04:26.942	$GPGGA,150436,2443.2780,N,08032.1154,W,1,9,1.8,16,M,,M,,*56
06/13/2014	15:04:27.929	$GPGGA,150437,2443.2775,N,08032.1160,W,1,9,1.8,16,M,,M,,*5A
06/13/2014	15:04:28.937	$GPGGA,150438,2443.2771,N,08032.1167,W,1,9,1.8,16,M,,M,,*56
06/13/2014	15:04:29.964	$GPGGA,150439,2443.2764,N,08032.1172,W,1,9,1.8,16,M,,M,,*57
06/13/2014	15:04:30.962	$GPGGA,150440,2443.2758,N,08032.1178,W,1,9,1.8,16,M,,M,,*5C
06/13/2014	15:04:31.949	$GPGGA,150441,2443.2753,N,08032.1185,W,1,9,1.8,16,M,,M,,*54
06/13/2014	15:04:32.956	$GPGGA,150442,2443.2747,N,08032.1190,W,1,9,1.8,16,M,,M,,*56
06/13/2014	15:04:33.984	$GPGGA,150443,2443.2742,N,08032.1196,W,1,9,1.8,16,M,,M,,*54
06/13/2014	15:04:34.981	$GPGGA,150444,2443.2737,N,08032.1203,W,1,9,1.8,16,M,,M,,*5E
06/13/2014	15:04:36.009	$GPGGA,150445,2443.2731,N,08032.1207,W,1,8,1.9,16,M,,M,,*5D
06/13/2014	15:04:36.986	$GPGGA,150446,2443.2725,N,08032.1214,W,1,8,1.8,16,M,,M,,*58
06/13/2014	15:04:38.026	$GPGGA,150447,2443.2720,N,08032.1219,W,1,9,1.8,16,M,,M,,*50
06/13/2014	15:04:38.558	$GPGGA,150448,2443.2714,N,08032.1226,W,1,9,1.8,16,M,,M,,*54
06/13/2014	15:04:39.555	$GPGGA,150449,2443.2708,N,08032.1233,W,1,9,1.8,16,M,,M,,*5C
06/13/2014	15:04:40.561	$GPGGA,150450,2443.2703,N,08032.1240,W,1,9,1.8,16,M,,M,,*5B
06/13/2014	15:04:41.589	$GPGGA,150451,2443.2697,N,08032.1246,W,1,9,1.8,16,M,,M,,*50
06/13/2014	15:04:42.586	$GPGGA,150452,2443.2692,N,08032.1250,W,1,9,1.8,16,M,,M,,*51
06/13/2014	15:04:43.573	$GPGGA,150453,2443.2688,N,08032.1257,W,1,9,1.8,16,M,,M,,*5C
06/13/2014	15:04:44.591	$GPGGA,150454,2443.2683,N,08032.1262,W,1,9,1.8,16,M,,M,,*56
06/13/2014	15:04:45.598	$GPGGA,150455,2443.2677,N,08032.1268,W,1,9,1.8,16,M,,M,,*56
06/13/2014	15:04:46.616	$GPGGA,150456,2443.2671,N,08032.1275,W,1,9,1.8,16,M,,M,,*5F
06/13/2014	15:04:47.593	$GPGGA,150457,2443.2667,N,08032.1282,W,1,9,1.8,16,M,,M,,*51
06/13/2014	15:04:48.610	$GPGGA,150458,2443.2661,N,08032.1286,W,1,9,1.8,16,M,,M,,*5C
06/13/2014	15:04:49.628	$GPGGA,150459,2443.2656,N,08032.1291,W,1,9,1.8,16,M,,M,,*5F
06/13/2014	15:04:50.645	$GPGGA,150500,2443.2652,N,08032.1298,W,1,9,1.8,16,M,,M,,*5F
06/13/2014	15:04:51.733	$GPGGA,150501,2443.2648,N,08032.1305,W,1,9,1.8,16,M,,M,,*50
06/13/2014	15:04:52.630	$GPGGA,150502,2443.2641,N,08032.1311,W,1,9,1.8,16,M,,M,,*5F
06/13/2014	15:04:53.647	$GPGGA,150503,2443.2635,N,08032.1318,W,1,9,1.8,16,M,,M,,*54
06/13/2014	15:04:54.665	$GPGGA,150504,2443.2632,N,08032.1324,W,1,9,1.8,16,M,,M,,*5B
06/13/2014	15:04:55.670	$GPGGA,150505,2443.2627,N,08032.1329,W,1,9,1.8,16,M,,M,,*53
06/13/2014	15:04:56.877	$GPGGA,150506,2443.2621,N,08032.1335,W,1,9,1.8,16,M,,M,,*5B
06/13/2014	15:04:57.984	$GPGGA,150507,2443.2616,N,08032.1341,W,1,9,1.8,16,M,,M,,*5D
06/13/2014	15:04:59.001	$GPGGA,150508,2443.2610,N,08032.1348,W,1,9,1.8,16,M,,M,,*5D
06/13/2014	15:05:00.095	$GPGGA,150509,2443.2605,N,08032.1353,W,1,9,1.8,16,M,,M,,*52
06/13/2014	15:05:01.205	$GPGGA,150510,2443.2600,N,08032.1360,W,1,9,1.8,16,M,,M,,*5F
06/13/2014	15:05:02.301	$GPGGA,150511,2443.2595,N,08032.1366,W,1,9,1.8,16,M,,M,,*57
06/13/2014	15:05:03.541	$GPGGA,150512,2443.2589,N,08032.1373,W,1,9,1.8,16,M,,M,,*5D
06/13/2014	15:05:04.615	$GPGGA,150513,2443.2584,N,08032.1378,W,1,9,1.8,16,M,,M,,*5A
06/13/2014	15:05:05.722	$GPGGA,150514,2443.2579,N,08032.1385,W,1,9,1.8,16,M,,M,,*5D
06/13/2014	15:05:06.862	$GPGGA,150515,2443.2573,N,08032.1391,W,1,9,1.8,16,M,,M,,*53
06/13/2014	15:05:07.948	$GPGGA,150516,2443.2569,N,08032.1398,W,1,9,1.8,16,M,,M,,*52
06/13/2014	15:05:09.037	$GPGGA,150517,2443.2563,N,08032.1405,W,1,9,1.8,16,M,,M,,*5A
06/13/2014	15:05:10.151	$GPGGA,150518,2443.2558,N,08032.1410,W,1,9,1.8,16,M,,M,,*59
06/13/2014	15:05:11.269	$GPGGA,150519,2443.2552,N,08032.1416,W,1,9,1.8,16,M,,M,,*54
06/13/2014	15:05:12.365	$GPGGA,150520,2443.2547,N,08032.1423,W,1,9,1.8,16,M,,M,,*5C
06/13/2014	15:05:13.461	$GPGGA,150521,2443.2542,N,08032.1428,W,1,9,1.8,16,M,,M,,*53
06/13/2014	15:05:14.572	$GPGGA,150522,2443.2537,N,08032.1434,W,1,9,1.8,16,M,,M,,*5F
06/13/2014	15:05:15.688	$GPGGA,150523,2443.2533,N,08032.1441,W,1,9,1.8,16,M,,M,,*58
06/13/2014	15:05:16.783	$GPGGA,150524,2443.2526,N,08032.1447,W,1,9,1.8,16,M,,M,,*5D
06/13/2014	15:05:17.867	$GPGGA,150525,2443.2522,N,08032.1452,W,1,9,1.8,16,M,,M,,*5C
06/13/2014	15:05:18.974	$GPGGA,150526,2443.2516,N,08032.1460,W,1,9,1.8,16,M,,M,,*59
06/13/2014	15:05:20.123	$GPGGA,150527,2443.2511,N,08032.1465,W,1,9,1.8,16,M,,M,,*5A
06/13/2014	15:05:21.211	$GPGGA,150528,2443.2505,N,08032.1471,W,1,9,1.8,16,M,,M,,*55
06/13/2014	15:05:22.329	$GPGGA,150529,2443.2500,N,08032.1478,W,1,9,1.8,16,M,,M,,*58
06/13/2014	15:05:23.392	$GPGGA,150530,2443.2494,N,08032.1482,W,1,9,1.8,16,M,,M,,*59
06/13/2014	15:05:24.499	$GPGGA,150531,2443.2489,N,08032.1488,W,1,9,1.8,16,M,,M,,*5E
06/13/2014	15:05:25.606	$GPGGA,150532,2443.2484,N,08032.1495,W,1,9,1.8,16,M,,M,,*5C
06/13/2014	15:05:26.747	$GPGGA,150533,2443.2478,N,08032.1499,W,1,9,1.8,16,M,,M,,*52
06/13/2014	15:05:27.821	$GPGGA,150534,2443.2473,N,08032.1506,W,1,9,1.8,16,M,,M,,*59
06/13/2014	15:05:28.928	$GPGGA,150535,2443.2468,N,08032.1511,W,1,8,1.9,16,M,,M,,*54
06/13/2014	15:05:30.046	$GPGGA,150536,2443.2464,N,08032.1517,W,1,8,1.8,16,M,,M,,*5C
06/13/2014	15:05:31.275	$GPGGA,150537,2443.2458,N,08032.1524,W,1,9,1.8,16,M,,M,,*53
06/13/2014	15:05:32.227	$GPGGA,150538,2443.2453,N,08032.1528,W,1,9,1.8,16,M,,M,,*5B
06/13/2014	15:05:33.357	$GPGGA,150539,2443.2448,N,08032.1535,W,1,8,1.9,16,M,,M,,*5C
06/13/2014	15:05:34.464	$GPGGA,150540,2443.2443,N,08032.1540,W,1,8,1.9,16,M,,M,,*5B
06/13/2014	15:05:35.582	$GPGGA,150541,2443.2439,N,08032.1547,W,1,9,1.8,16,M,,M,,*50
06/13/2014	15:05:36.645	$GPGGA,150542,2443.2433,N,08032.1553,W,1,9,1.8,16,M,,M,,*5C
06/13/2014	15:05:37.773	$GPGGA,150543,2443.2428,N,08032.1558,W,1,9,1.8,16,M,,M,,*5C
06/13/2014	15:05:38.892	$GPGGA,150544,2443.2422,N,08032.1565,W,1,9,1.8,16,M,,M,,*5F
06/13/2014	15:05:40.034	$GPGGA,150545,2443.2418,N,08032.1572,W,1,9,1.8,16,M,,M,,*51
06/13/2014	15:05:41.084	$GPGGA,150546,2443.2412,N,08032.1579,W,1,9,1.9,16,M,,M,,*52
06/13/2014	15:05:42.302	$GPGGA,150547,2443.2406,N,08032.1584,W,1,9,1.8,16,M,,M,,*55
06/13/2014	15:05:38.602	$GPGGA,150548,2443.2400,N,08032.1591,W,1,9,1.8,16,M,,M,,*58
06/13/2014	15:05:39.698	$GPGGA,150549,2443.2396,N,08032.1598,W,1,9,1.8,16,M,,M,,*58
06/13/2014	15:05:40.817	$GPGGA,150550,2443.2392,N,08032.1604,W,1,9,1.8,16,M,,M,,*52
06/13/2014	15:05:41.902	$GPGGA,150551,2443.2385,N,08032.1611,W,1,8,1.9,16,M,,M,,*51
06/13/2014	15:05:43.153	$GPGGA,150552,2443.2379,N,08032.1618,W,1,8,1.8,16,M,,M,,*59
06/13/2014	15:05:44.125	$GPGGA,150553,2443.2374,N,08032.1626,W,1,9,1.8,16,M,,M,,*59
06/13/2014	15:05:45.334	$GPGGA,150554,2443.2370,N,08032.1633,W,1,9,1.8,16,M,,M,,*5E
06/13/2014	15:05:46.430	$GPGGA,150555,2443.2364,N,08032.1637,W,1,9,1.9,16,M,,M,,*5F
06/13/2014	15:05:47.582	$GPGGA,150556,2443.2359,N,08032.1642,W,1,9,1.8,16,M,,M,,*51
06/13/2014	15:05:48.656	$GPGGA,150557,2443.2355,N,08032.1651,W,1,9,1.8,16,M,,M,,*5E
06/13/2014	15:05:49.641	$GPGGA,150558,2443.2349,N,08032.1656,W,1,9,1.8,16,M,,M,,*5B
06/13/2014	15:05:50.739	$GPGGA,150559,2443.2343,N,08032.1663,W,1,9,1.8,16,M,,M,,*56
06/13/2014	15:05:52.009	$GPGGA,150600,2443.2337,N,08032.1669,W,1,9,1.8,16,M,,M,,*50
06/13/2014	15:05:53.099	$GPGGA,150601,2443.2334,N,08032.1676,W,1,9,1.8,16,M,,M,,*5C
06/13/2014	15:05:54.168	$GPGGA,150602,2443.2328,N,08032.1684,W,1,9,1.8,16,M,,M,,*5F
06/13/2014	15:05:55.287	$GPGGA,150603,2443.2323,N,08032.1689,W,1,9,1.8,16,M,,M,,*58
06/13/2014	15:05:56.394	$GPGGA,150604,2443.2316,N,08032.1696,W,1,9,1.8,16,M,,M,,*57
06/13/2014	15:05:57.501	$GPGGA,150605,2443.2311,N,08032.1703,W,1,9,1.8,16,M,,M,,*5C
06/13/2014	15:05:58.587	$GPGGA,150606,2443.2305,N,08032.1710,W,1,9,1.8,16,M,,M,,*58
06/13/2014	15:05:59.704	$GPGGA,150607,2443.2299,N,08032.1716,W,1,9,1.8,16,M,,M,,*5B
06/13/2014	15:06:00.816	$GPGGA,150608,2443.2295,N,08032.1723,W,1,9,1.8,16,M,,M,,*5E
06/13/2014	15:06:01.921	$GPGGA,150609,2443.2290,N,08032.1730,W,1,9,1.8,16,M,,M,,*58
06/13/2014	15:06:03.004	$GPGGA,150610,2443.2284,N,08032.1735,W,1,9,1.8,16,M,,M,,*50
06/13/2014	15:06:04.134	$GPGGA,150611,2443.2278,N,08032.1742,W,1,9,1.8,16,M,,M,,*52
06/13/2014	15:06:05.240	$GPGGA,150612,2443.2273,N,08032.1749,W,1,9,1.8,16,M,,M,,*51
06/13/2014	15:06:06.359	$GPGGA,150613,2443.2267,N,08032.1756,W,1,9,1.8,16,M,,M,,*5B
06/13/2014	15:06:07.422	$GPGGA,150614,2443.2262,N,08032.1763,W,1,9,1.8,16,M,,M,,*5F
06/13/2014	15:06:08.529	$GPGGA,150615,2443.2256,N,08032.1770,W,1,9,1.8,16,M,,M,,*5B
06/13/2014	15:06:09.647	$GPGGA,150616,2443.2251,N,08032.1775,W,1,9,1.8,16,M,,M,,*5A
06/13/2014	15:06:10.754	$GPGGA,150617,2443.2247,N,08032.1782,W,1,9,1.8,16,M,,M,,*54
06/13/2014	15:06:11.839	$GPGGA,150618,2443.2240,N,08032.1789,W,1,9,1.8,16,M,,M,,*57
06/13/2014	15:06:12.945	$GPGGA,150619,2443.2234,N,08032.1796,W,1,9,1.8,16,M,,M,,*5B
06/13/2014	15:06:14.075	$GPGGA,150620,2443.2230,N,08032.1803,W,1,9,1.8,16,M,,M,,*56
06/13/2014	15:06:15.193	$GPGGA,150621,2443.2224,N,08032.1810,W,1,9,1.8,16,M,,M,,*50
06/13/2014	15:06:16.278	$GPGGA,150622,2443.2218,N,08032.1815,W,1,9,1.8,16,M,,M,,*59
06/13/2014	15:06:17.396	$GPGGA,150623,2443.2215,N,08032.1821,W,1,9,1.8,16,M,,M,,*52
06/13/2014	15:06:18.493	$GPGGA,150624,2443.2211,N,08032.1828,W,1,9,1.8,16,M,,M,,*58
06/13/2014	15:06:19.589	$GPGGA,150625,2443.2204,N,08032.1835,W,1,8,1.8,16,M,,M,,*50
06/13/2014	15:06:20.707	$GPGGA,150626,2443.2198,N,08032.1842,W,1,8,1.8,16,M,,M,,*55
06/13/2014	15:06:21.792	$GPGGA,150627,2443.2194,N,08032.1850,W,1,9,1.8,16,M,,M,,*5A
06/13/2014	15:06:22.932	$GPGGA,150628,2443.2191,N,08032.1855,W,1,9,2.0,16,M,,M,,*5E
06/13/2014	15:06:24.040	$GPGGA,150629,2443.2186,N,08032.1861,W,1,8,2.0,16,M,,M,,*5F
06/13/2014	15:06:25.111	$GPGGA,150630,2443.2182,N,08032.1868,W,1,8,2.0,16,M,,M,,*5A
06/13/2014	15:06:26.232	$GPGGA,150631,2443.2176,N,08032.1875,W,1,8,1.8,16,M,,M,,*57
06/13/2014	15:06:27.428	$GPGGA,150632,2443.2170,N,08032.1882,W,1,8,1.8,16,M,,M,,*5A
06/13/2014	15:06:28.547	$GPGGA,150633,2443.2164,N,08032.1889,W,1,9,1.8,16,M,,M,,*54
06/13/2014	15:06:29.531	$GPGGA,150634,2443.2158,N,08032.1895,W,1,9,1.8,16,M,,M,,*51
06/13/2014	15:06:30.726	$GPGGA,150635,2443.2154,N,08032.1904,W,1,9,1.8,16,M,,M,,*55
06/13/2014	15:06:31.756	$GPGGA,150636,2443.2148,N,08032.1909,W,1,9,1.8,16,M,,M,,*56
06/13/2014	15:06:32.874	$GPGGA,150637,2443.2142,N,08032.1915,W,1,9,1.8,16,M,,M,,*50
06/13/2014	15:06:34.061	$GPGGA,150638,2443.2137,N,08032.1922,W,1,9,1.8,16,M,,M,,*59
06/13/2014	15:06:35.055	$GPGGA,150639,2443.2132,N,08032.1929,W,1,9,1.8,16,M,,M,,*56
06/13/2014	15:06:36.295	$GPGGA,150640,2443.2126,N,08032.1934,W,1,9,1.8,16,M,,M,,*51
06/13/2014	15:06:37.270	$GPGGA,150641,2443.2121,N,08032.1940,W,1,9,1.8,16,M,,M,,*54
06/13/2014	15:06:38.377	$GPGGA,150642,2443.2115,N,08032.1947,W,1,9,1.8,16,M,,M,,*57
06/13/2014	15:06:39.584	$GPGGA,150643,2443.2110,N,08032.1954,W,1,9,1.8,16,M,,M,,*51
06/13/2014	15:06:40.613	$GPGGA,150644,2443.2104,N,08032.1960,W,1,9,1.8,16,M,,M,,*54
06/13/2014	15:06:41.787	$GPGGA,150645,2443.2099,N,08032.1965,W,1,9,1.8,16,M,,M,,*55
06/13/2014	15:06:42.817	$GPGGA,150646,2443.2095,N,08032.1972,W,1,9,2.0,16,M,,M,,*57
06/13/2014	15:06:43.902	$GPGGA,150647,2443.2089,N,08032.1977,W,1,8,1.8,16,M,,M,,*54
06/13/2014	15:06:38.690	$GPGGA,150648,2443.2083,N,08032.1983,W,1,8,1.8,16,M,,M,,*5A
06/13/2014	15:06:39.808	$GPGGA,150649,2443.2077,N,08032.1991,W,1,9,1.8,16,M,,M,,*52
06/13/2014	15:06:40.874	$GPGGA,150650,2443.2072,N,08032.1996,W,1,9,1.8,16,M,,M,,*58
06/13/2014	15:06:42.022	$GPGGA,150651,2443.2066,N,08032.2002,W,1,9,1.8,15,M,,M,,*58
06/13/2014	15:06:43.099	$GPGGA,150652,2443.2061,N,08032.2009,W,1,9,1.8,15,M,,M,,*57
06/13/2014	15:06:44.216	$GPGGA,150653,2443.2056,N,08032.2014,W,1,9,1.8,15,M,,M,,*5E
06/13/2014	15:06:45.287	$GPGGA,150654,2443.2050,N,08032.2021,W,1,9,1.8,15,M,,M,,*59
06/13/2014	15:06:46.417	$GPGGA,150655,2443.2045,N,08032.2027,W,1,9,1.8,15,M,,M,,*5A
06/13/2014	15:06:47.513	$GPGGA,150656,2443.2039,N,08032.2034,W,1,9,1.8,15,M,,M,,*50
06/13/2014	15:06:48.620	$GPGGA,150657,2443.2032,N,08032.2041,W,1,9,1.8,15,M,,M,,*58
06/13/2014	15:06:49.716	$GPGGA,150658,2443.2027,N,08032.2045,W,1,9,1.8,15,M,,M,,*57
06/13/2014	15:06:50.846	$GPGGA,150659,2443.2023,N,08032.2052,W,1,9,1.8,15,M,,M,,*54
06/13/2014	15:06:51.953	$GPGGA,150700,2443.2017,N,08032.2059,W,1,9,1.8,15,M,,M,,*55
06/13/2014	15:06:53.049	$GPGGA,150701,2443.2011,N,08032.2066,W,1,9,1.8,15,M,,M,,*5E
06/13/2014	15:06:54.134	$GPGGA,150702,2443.2005,N,08032.2071,W,1,9,1.8,15,M,,M,,*5E
06/13/2014	15:06:55.274	$GPGGA,150703,2443.1999,N,08032.2077,W,1,9,1.8,15,M,,M,,*56
06/13/2014	15:06:56.359	$GPGGA,150704,2443.1993,N,08032.2085,W,1,9,1.8,15,M,,M,,*56
06/13/2014	15:06:57.467	$GPGGA,150705,2443.1987,N,08032.2092,W,1,9,1.8,15,M,,M,,*54
06/13/2014	15:06:58.552	$GPGGA,150706,2443.1981,N,08032.2099,W,1,9,1.8,15,M,,M,,*5A
06/13/2014	15:06:59.692	$GPGGA,150707,2443.1977,N,08032.2104,W,1,8,1.9,15,M,,M,,*57
06/13/2014	15:07:00.777	$GPGGA,150708,2443.1973,N,08032.2110,W,1,8,1.8,15,M,,M,,*58
06/13/2014	15:07:01.907	$GPGGA,150709,2443.1966,N,08032.2117,W,1,9,1.8,15,M,,M,,*5B
06/13/2014	15:07:02.968	$GPGGA,150710,2443.1962,N,08032.2124,W,1,9,1.8,15,M,,M,,*57
06/13/2014	15:07:04.109	$GPGGA,150711,2443.1956,N,08032.2131,W,1,9,1.8,15,M,,M,,*55
06/13/2014	15:07:05.206	$GPGGA,150712,2443.1951,N,08032.2135,W,1,9,1.8,15,M,,M,,*55
06/13/2014	15:07:06.279	$GPGGA,150713,2443.1945,N,08032.2142,W,1,9,1.8,15,M,,M,,*51
06/13/2014	15:07:07.397	$GPGGA,150714,2443.1942,N,08032.2150,W,1,9,1.8,15,M,,M,,*52
06/13/2014	15:07:08.493	$GPGGA,150715,2443.1936,N,08032.2157,W,1,8,1.8,15,M,,M,,*56
06/13/2014	15:07:09.612	$GPGGA,150716,2443.1930,N,08032.2161,W,1,8,1.8,15,M,,M,,*56
06/13/2014	15:07:10.697	$GPGGA,150717,2443.1926,N,08032.2169,W,1,9,1.8,15,M,,M,,*59
06/13/2014	15:07:11.815	$GPGGA,150718,2443.1922,N,08032.2176,W,1,9,1.8,15,M,,M,,*5C
06/13/2014	15:07:12.911	$GPGGA,150719,2443.1917,N,08032.2182,W,1,9,1.8,15,M,,M,,*50
06/13/2014	15:07:14.162	$GPGGA,150720,2443.1912,N,08032.2186,W,1,9,2.0,15,M,,M,,*50
06/13/2014	15:07:15.133	$GPGGA,150721,2443.1908,N,08032.2193,W,1,9,1.8,15,M,,M,,*55
06/13/2014	15:07:16.332	$GPGGA,150722,2443.1904,N,08032.2200,W,1,9,1.8,15,M,,M,,*53
06/13/2014	15:07:17.351	$GPGGA,150723,2443.1899,N,08032.2205,W,1,9,1.8,15,M,,M,,*52
06/13/2014	15:07:18.580	$GPGGA,150724,2443.1893,N,08032.2211,W,1,9,1.8,15,M,,M,,*5A
06/13/2014	15:07:19.565	$GPGGA,150725,2443.1887,N,08032.2218,W,1,9,1.8,15,M,,M,,*57
06/13/2014	15:07:20.661	$GPGGA,150726,2443.1881,N,08032.2225,W,1,9,1.8,15,M,,M,,*5C
06/13/2014	15:07:21.878	$GPGGA,150727,2443.1875,N,08032.2232,W,1,9,1.8,15,M,,M,,*50
06/13/2014	15:07:23.008	$GPGGA,150728,2443.1869,N,08032.2238,W,1,9,1.8,14,M,,M,,*59
06/13/2014	15:07:24.115	$GPGGA,150729,2443.1863,N,08032.2244,W,1,9,1.8,14,M,,M,,*59
06/13/2014	15:07:25.180	$GPGGA,150730,2443.1857,N,08032.2251,W,1,9,1.8,14,M,,M,,*52
06/13/2014	15:07:26.282	$GPGGA,150731,2443.1852,N,08032.2256,W,1,9,1.8,14,M,,M,,*51
06/13/2014	15:07:27.397	$GPGGA,150732,2443.1847,N,08032.2263,W,1,9,1.8,14,M,,M,,*50
06/13/2014	15:07:28.521	$GPGGA,150733,2443.1839,N,08032.2272,W,1,9,1.8,14,M,,M,,*58
06/13/2014	15:07:29.606	$GPGGA,150734,2443.1833,N,08032.2277,W,1,9,1.8,14,M,,M,,*50
06/13/2014	15:07:30.725	$GPGGA,150735,2443.1828,N,08032.2284,W,1,9,1.8,14,M,,M,,*57
06/13/2014	15:07:31.821	$GPGGA,150736,2443.1823,N,08032.2290,W,1,9,1.8,14,M,,M,,*5A
06/13/2014	15:07:32.939	$GPGGA,150737,2443.1817,N,08032.2295,W,1,9,1.8,14,M,,M,,*59
06/13/2014	15:07:34.013	$GPGGA,150738,2443.1812,N,08032.2301,W,1,9,1.8,14,M,,M,,*5F
06/13/2014	15:07:35.146	$GPGGA,150739,2443.1806,N,08032.2309,W,1,9,1.8,14,M,,M,,*53
06/13/2014	15:07:36.259	$GPGGA,150740,2443.1799,N,08032.2316,W,1,9,1.8,14,M,,M,,*5A
06/13/2014	15:07:37.324	$GPGGA,150741,2443.1794,N,08032.2321,W,1,9,1.8,15,M,,M,,*53
06/13/2014	15:07:38.431	$GPGGA,150742,2443.1788,N,08032.2327,W,1,9,1.8,15,M,,M,,*5B
06/13/2014	15:07:39.566	$GPGGA,150743,2443.1783,N,08032.2334,W,1,9,1.8,15,M,,M,,*53
06/13/2014	15:07:40.667	$GPGGA,150744,2443.1778,N,08032.2339,W,1,9,1.8,15,M,,M,,*5D
06/13/2014	15:07:41.782	$GPGGA,150745,2443.1772,N,08032.2345,W,1,9,1.8,15,M,,M,,*5D
06/13/2014	15:07:42.859	$GPGGA,150746,2443.1767,N,08032.2350,W,1,9,1.8,15,M,,M,,*5E
06/13/2014	15:07:43.977	$GPGGA,150747,2443.1761,N,08032.2356,W,1,9,1.8,15,M,,M,,*5F
06/13/2014	15:07:38.664	$GPGGA,150748,2443.1756,N,08032.2363,W,1,9,1.8,15,M,,M,,*52
06/13/2014	15:07:39.760	$GPGGA,150749,2443.1749,N,08032.2368,W,1,9,1.8,15,M,,M,,*56
06/13/2014	15:07:40.834	$GPGGA,150750,2443.1745,N,08032.2374,W,1,9,1.8,15,M,,M,,*5F
06/13/2014	15:07:41.942	$GPGGA,150751,2443.1739,N,08032.2379,W,1,9,1.8,15,M,,M,,*58
06/13/2014	15:07:43.071	$GPGGA,150752,2443.1734,N,08032.2384,W,1,9,1.8,15,M,,M,,*54
06/13/2014	15:07:44.189	$GPGGA,150753,2443.1728,N,08032.2389,W,1,9,1.8,15,M,,M,,*55
06/13/2014	15:07:45.263	$GPGGA,150754,2443.1723,N,08032.2396,W,1,9,1.8,15,M,,M,,*57
06/13/2014	15:07:46.404	$GPGGA,150755,2443.1717,N,08032.2402,W,1,9,1.8,15,M,,M,,*5B
06/13/2014	15:07:47.500	$GPGGA,150756,2443.1711,N,08032.2407,W,1,9,1.8,15,M,,M,,*5B
06/13/2014	15:07:48.607	$GPGGA,150757,2443.1706,N,08032.2414,W,1,9,1.8,15,M,,M,,*5E
06/13/2014	15:07:49.681	$GPGGA,150758,2443.1700,N,08032.2421,W,1,9,1.8,15,M,,M,,*51
06/13/2014	15:07:50.799	$GPGGA,150759,2443.1694,N,08032.2425,W,1,9,1.8,15,M,,M,,*58
06/13/2014	15:07:51.928	$GPGGA,150800,2443.1688,N,08032.2431,W,1,9,1.8,15,M,,M,,*53
06/13/2014	15:07:53.014	$GPGGA,150801,2443.1684,N,08032.2439,W,1,9,1.8,15,M,,M,,*56
06/13/2014	15:07:54.121	$GPGGA,150802,2443.1678,N,08032.2443,W,1,9,1.8,15,M,,M,,*5B
06/13/2014	15:07:55.216	$GPGGA,150803,2443.1673,N,08032.2449,W,1,9,1.8,15,M,,M,,*5B
06/13/2014	15:07:56.456	$GPGGA,150804,2443.1667,N,08032.2456,W,1,9,1.8,15,M,,M,,*57
06/13/2014	15:07:57.552	$GPGGA,150805,2443.1662,N,08032.2461,W,1,9,1.8,15,M,,M,,*57
06/13/2014	15:07:58.515	$GPGGA,150806,2443.1656,N,08032.2467,W,1,9,1.8,15,M,,M,,*55
06/13/2014	15:07:59.622	$GPGGA,150807,2443.1651,N,08032.2472,W,1,9,1.8,15,M,,M,,*57
06/13/2014	15:08:00.774	$GPGGA,150808,2443.1645,N,08032.2478,W,1,9,1.8,15,M,,M,,*57
06/13/2014	15:08:01.837	$GPGGA,150809,2443.1640,N,08032.2485,W,1,9,1.8,15,M,,M,,*51
06/13/2014	15:08:03.043	$GPGGA,150810,2443.1634,N,08032.2490,W,1,9,1.8,15,M,,M,,*5E
06/13/2014	15:08:04.152	$GPGGA,150811,2443.1628,N,08032.2496,W,1,9,1.8,15,M,,M,,*54
06/13/2014	15:08:05.158	$GPGGA,150812,2443.1622,N,08032.2503,W,1,9,1.8,15,M,,M,,*50
06/13/2014	15:08:06.255	$GPGGA,150813,2443.1616,N,08032.2507,W,1,9,1.8,15,M,,M,,*52
06/13/2014	15:08:07.461	$GPGGA,150814,2443.1611,N,08032.2512,W,1,9,1.8,15,M,,M,,*56
06/13/2014	15:08:08.576	$GPGGA,150815,2443.1606,N,08032.2518,W,1,9,1.8,15,M,,M,,*5B
06/13/2014	15:08:09.598	$GPGGA,150816,2443.1600,N,08032.2525,W,1,9,1.8,15,M,,M,,*50
06/13/2014	15:08:10.683	$GPGGA,150817,2443.1594,N,08032.2529,W,1,9,1.8,15,M,,M,,*53
06/13/2014	15:08:11.884	$GPGGA,150818,2443.1590,N,08032.2536,W,1,9,1.8,15,M,,M,,*56
06/13/2014	15:08:13.020	$GPGGA,150819,2443.1583,N,08032.2543,W,1,9,1.8,15,M,,M,,*57
06/13/2014	15:08:14.132	$GPGGA,150820,2443.1577,N,08032.2548,W,1,9,1.8,15,M,,M,,*5D
06/13/2014	15:08:15.222	$GPGGA,150821,2443.1572,N,08032.2554,W,1,9,1.8,15,M,,M,,*54
06/13/2014	15:08:16.307	$GPGGA,150822,2443.1568,N,08032.2561,W,1,9,1.8,15,M,,M,,*5A
06/13/2014	15:08:17.447	$GPGGA,150823,2443.1561,N,08032.2565,W,1,9,1.8,15,M,,M,,*56
06/13/2014	15:08:18.527	$GPGGA,150824,2443.1557,N,08032.2572,W,1,9,1.8,15,M,,M,,*52
06/13/2014	15:08:19.651	$GPGGA,150825,2443.1550,N,08032.2579,W,1,9,1.8,15,M,,M,,*5F
06/13/2014	15:08:20.736	$GPGGA,150826,2443.1544,N,08032.2584,W,1,9,1.8,15,M,,M,,*5B
06/13/2014	15:08:21.854	$GPGGA,150827,2443.1539,N,08032.2590,W,1,9,1.8,15,M,,M,,*55
06/13/2014	15:08:22.961	$GPGGA,150828,2443.1534,N,08032.2594,W,1,9,1.8,15,M,,M,,*53
06/13/2014	15:08:24.077	$GPGGA,150829,2443.1529,N,08032.2599,W,1,9,1.8,15,M,,M,,*53
06/13/2014	15:08:25.142	$GPGGA,150830,2443.1525,N,08032.2606,W,1,9,1.8,15,M,,M,,*52
06/13/2014	15:08:26.261	$GPGGA,150831,2443.1518,N,08032.2613,W,1,9,1.8,15,M,,M,,*59
06/13/2014	15:08:27.368	$GPGGA,150832,2443.1512,N,08032.2619,W,1,9,1.8,15,M,,M,,*5A
06/13/2014	15:08:28.487	$GPGGA,150833,2443.1507,N,08032.2624,W,1,9,1.8,15,M,,M,,*51
06/13/2014	15:08:29.560	$GPGGA,150834,2443.1503,N,08032.2630,W,1,9,1.8,15,M,,M,,*57
06/13/2014	15:08:30.680	$GPGGA,150835,2443.1498,N,08032.2635,W,1,9,1.8,15,M,,M,,*50
06/13/2014	15:08:31.797	$GPGGA,150836,2443.1492,N,08032.2641,W,1,9,1.8,15,M,,M,,*5A
06/13/2014	15:08:32.927	$GPGGA,150837,2443.1486,N,08032.2646,W,1,9,1.8,15,M,,M,,*59
06/13/2014	15:08:33.988	$GPGGA,150838,2443.1481,N,08032.2655,W,1,9,1.8,15,M,,M,,*53
06/13/2014	15:08:35.084	$GPGGA,150839,2443.1476,N,08032.2662,W,1,9,1.8,15,M,,M,,*5E
06/13/2014	15:08:36.202	$GPGGA,150840,2443.1470,N,08032.2666,W,1,9,1.8,15,M,,M,,*52
06/13/2014	15:08:37.331	$GPGGA,150841,2443.1467,N,08032.2671,W,1,9,1.8,15,M,,M,,*53
06/13/2014	15:08:38.405	$GPGGA,150842,2443.1461,N,08032.2677,W,1,9,1.8,15,M,,M,,*50
06/13/2014	15:08:39.524	$GPGGA,150843,2443.1456,N,08032.2682,W,1,9,1.8,15,M,,M,,*5F
06/13/2014	15:08:40.631	$GPGGA,150844,2443.1452,N,08032.2688,W,1,9,1.8,15,M,,M,,*56
06/13/2014	15:08:41.716	$GPGGA,150845,2443.1446,N,08032.2695,W,1,9,1.8,15,M,,M,,*5E
06/13/2014	15:08:42.834	$GPGGA,150846,2443.1440,N,08032.2700,W,1,9,1.8,15,M,,M,,*56
06/13/2014	15:08:43.975	$GPGGA,150847,2443.1436,N,08032.2706,W,1,9,1.8,15,M,,M,,*50
06/13/2014	15:08:38.641	$GPGGA,150848,2443.1432,N,08032.2713,W,1,9,1.8,15,M,,M,,*5F
06/13/2014	15:08:39.715	$GPGGA,150849,2443.1427,N,08032.2717,W,1,9,1.8,15,M,,M,,*5E
06/13/2014	15:08:40.822	$GPGGA,150850,2443.1421,N,08032.2722,W,1,9,1.8,15,M,,M,,*56
06/13/2014	15:08:41.929	$GPGGA,150851,2443.1415,N,08032.2728,W,1,9,1.8,15,M,,M,,*5A
06/13/2014	15:08:43.048	$GPGGA,150852,2443.1411,N,08032.2735,W,1,9,1.8,15,M,,M,,*51
06/13/2014	15:08:44.166	$GPGGA,150853,2443.1406,N,08032.2742,W,1,9,1.8,15,M,,M,,*56
06/13/2014	15:08:45.240	$GPGGA,150854,2443.1400,N,08032.2746,W,1,9,1.8,15,M,,M,,*53
06/13/2014	15:08:46.346	$GPGGA,150855,2443.1395,N,08032.2751,W,1,9,1.8,15,M,,M,,*5F
06/13/2014	15:08:47.465	$GPGGA,150856,2443.1391,N,08032.2757,W,1,9,1.8,15,M,,M,,*5E
06/13/2014	15:08:48.760	$GPGGA,150857,2443.1386,N,08032.2764,W,1,9,2.0,15,M,,M,,*52
06/13/2014	15:08:49.667	$GPGGA,150858,2443.1380,N,08032.2769,W,1,9,2.0,15,M,,M,,*56
06/13/2014	15:08:50.968	$GPGGA,150859,2443.1374,N,08032.2775,W,1,9,1.8,15,M,,M,,*5A
06/13/2014	15:08:52.037	$GPGGA,150900,2443.1368,N,08032.2782,W,1,9,1.8,15,M,,M,,*52
06/13/2014	15:08:53.185	$GPGGA,150901,2443.1362,N,08032.2787,W,1,9,1.8,15,M,,M,,*5C
06/13/2014	15:08:54.081	$GPGGA,150902,2443.1357,N,08032.2794,W,1,9,1.8,15,M,,M,,*5B
06/13/2014	15:08:55.292	$GPGGA,150903,2443.1351,N,08032.2800,W,1,9,1.8,15,M,,M,,*5E
06/13/2014	15:08:56.300	$GPGGA,150904,2443.1345,N,08032.2805,W,1,9,1.8,15,M,,M,,*59
06/13/2014	15:08:57.611	$GPGGA,150905,2443.1339,N,08032.2812,W,1,9,1.8,15,M,,M,,*55
06/13/2014	15:08:58.603	$GPGGA,150906,2443.1333,N,08032.2818,W,1,9,1.8,15,M,,M,,*56
06/13/2014	15:08:59.822	$GPGGA,150907,2443.1327,N,08032.2825,W,1,9,1.8,15,M,,M,,*5C
06/13/2014	15:09:00.872	$GPGGA,150908,2443.1322,N,08032.2830,W,1,9,1.8,15,M,,M,,*52
06/13/2014	15:09:02.017	$GPGGA,150909,2443.1316,N,08032.2837,W,1,9,1.8,15,M,,M,,*53
06/13/2014	15:09:03.009	$GPGGA,150910,2443.1310,N,08032.2843,W,1,9,1.8,15,M,,M,,*5E
06/13/2014	15:09:04.194	$GPGGA,150911,2443.1304,N,08032.2848,W,1,9,1.8,15,M,,M,,*51
06/13/2014	15:09:05.263	$GPGGA,150912,2443.1298,N,08032.2854,W,1,9,1.8,15,M,,M,,*5B
06/13/2014	15:09:06.407	$GPGGA,150913,2443.1292,N,08032.2861,W,1,9,1.8,16,M,,M,,*55
06/13/2014	15:09:07.470	$GPGGA,150914,2443.1286,N,08032.2866,W,1,9,1.8,16,M,,M,,*50
06/13/2014	15:09:08.666	$GPGGA,150915,2443.1281,N,08032.2873,W,1,9,1.8,16,M,,M,,*52
06/13/2014	15:09:09.718	$GPGGA,150916,2443.1275,N,08032.2879,W,1,9,1.8,16,M,,M,,*50
06/13/2014	15:09:10.814	$GPGGA,150917,2443.1269,N,08032.2884,W,1,9,1.8,16,M,,M,,*5E
06/13/2014	15:09:11.891	$GPGGA,150918,2443.1263,N,08032.2890,W,1,9,1.8,16,M,,M,,*5E
06/13/2014	15:09:13.050	$GPGGA,150919,2443.1259,N,08032.2897,W,1,9,1.8,16,M,,M,,*51
06/13/2014	15:09:14.135	$GPGGA,150920,2443.1254,N,08032.2902,W,1,9,1.8,16,M,,M,,*5B
06/13/2014	15:09:15.298	$GPGGA,150921,2443.1246,N,08032.2908,W,1,9,1.8,16,M,,M,,*53
06/13/2014	15:09:16.272	$GPGGA,150922,2443.1241,N,08032.2915,W,1,9,1.8,16,M,,M,,*5B
06/13/2014	15:09:17.380	$GPGGA,150923,2443.1236,N,08032.2921,W,1,9,1.8,16,M,,M,,*5D
06/13/2014	15:09:18.534	$GPGGA,150924,2443.1230,N,08032.2927,W,1,9,1.8,16,M,,M,,*5A
06/13/2014	15:09:19.716	$GPGGA,150925,2443.1225,N,08032.2934,W,1,9,1.8,16,M,,M,,*5D
06/13/2014	15:09:20.731	$GPGGA,150926,2443.1219,N,08032.2939,W,1,9,1.8,16,M,,M,,*5C
06/13/2014	15:09:21.919	$GPGGA,150927,2443.1214,N,08032.2945,W,1,9,1.8,16,M,,M,,*5B
06/13/2014	15:09:22.916	$GPGGA,150928,2443.1207,N,08032.2952,W,1,9,1.8,16,M,,M,,*50
06/13/2014	15:09:24.134	$GPGGA,150929,2443.1203,N,08032.2957,W,1,9,1.8,16,M,,M,,*50
06/13/2014	15:09:25.151	$GPGGA,150930,2443.1197,N,08032.2963,W,1,9,1.8,16,M,,M,,*51
06/13/2014	15:09:26.358	$GPGGA,150931,2443.1192,N,08032.2970,W,1,9,2.0,16,M,,M,,*5C
06/13/2014	15:09:27.378	$GPGGA,150932,2443.1189,N,08032.2974,W,1,9,1.8,16,M,,M,,*5A
06/13/2014	15:09:28.550	$GPGGA,150933,2443.1181,N,08032.2980,W,1,9,1.8,16,M,,M,,*58
06/13/2014	15:09:29.569	$GPGGA,150934,2443.1176,N,08032.2986,W,1,9,1.8,16,M,,M,,*51
06/13/2014	15:09:30.753	$GPGGA,150935,2443.1171,N,08032.2992,W,1,9,1.8,16,M,,M,,*52
06/13/2014	15:09:31.750	$GPGGA,150936,2443.1163,N,08032.2999,W,1,9,1.8,16,M,,M,,*59
06/13/2014	15:09:32.935	$GPGGA,150937,2443.1158,N,08032.3006,W,1,9,1.8,16,M,,M,,*5E
06/13/2014	15:09:33.975	$GPGGA,150938,2443.1151,N,08032.3011,W,1,9,1.8,16,M,,M,,*5E
06/13/2014	15:09:35.149	$GPGGA,150939,2443.1145,N,08032.3017,W,1,9,1.8,16,M,,M,,*5C
06/13/2014	15:09:36.212	$GPGGA,150940,2443.1139,N,08032.3024,W,1,9,1.8,16,M,,M,,*59
06/13/2014	15:09:37.363	$GPGGA,150941,2443.1133,N,08032.3029,W,1,9,1.8,16,M,,M,,*5F
06/13/2014	15:09:38.371	$GPGGA,150942,2443.1127,N,08032.3035,W,1,9,1.8,16,M,,M,,*54
06/13/2014	15:09:39.567	$GPGGA,150943,2443.1122,N,08032.3040,W,1,9,1.8,16,M,,M,,*52
06/13/2014	15:09:40.630	$GPGGA,150944,2443.1116,N,08032.3046,W,1,9,1.8,16,M,,M,,*54
06/13/2014	15:09:41.837	$GPGGA,150945,2443.1111,N,08032.3053,W,1,9,1.8,16,M,,M,,*56
06/13/2014	15:09:42.922	$GPGGA,150946,2443.1105,N,08032.3060,W,1,9,1.8,16,M,,M,,*50
06/13/2014	15:09:44.006	$GPGGA,150947,2443.1099,N,08032.3064,W,1,9,1.8,16,M,,M,,*51
06/13/2014	15:09:38.582	$GPGGA,150948,2443.1095,N,08032.3071,W,1,9,1.8,16,M,,M,,*56
06/13/2014	15:09:39.778	$GPGGA,150949,2443.1088,N,08032.3076,W,1,9,1.8,16,M,,M,,*5C
06/13/2014	15:09:40.907	$GPGGA,150950,2443.1082,N,08032.3082,W,1,9,1.8,16,M,,M,,*55
06/13/2014	15:09:42.059	$GPGGA,150951,2443.1077,N,08032.3089,W,1,9,1.8,16,M,,M,,*55
06/13/2014	15:09:43.121	$GPGGA,150952,2443.1071,N,08032.3094,W,1,9,1.8,16,M,,M,,*5C
06/13/2014	15:09:44.202	$GPGGA,150953,2443.1066,N,08032.3100,W,1,9,1.8,16,M,,M,,*57
06/13/2014	15:09:45.316	$GPGGA,150954,2443.1059,N,08032.3107,W,1,9,1.8,16,M,,M,,*5B
06/13/2014	15:09:46.413	$GPGGA,150955,2443.1055,N,08032.3112,W,1,9,1.8,16,M,,M,,*52
06/13/2014	15:09:47.539	$GPGGA,150956,2443.1049,N,08032.3119,W,1,9,1.8,16,M,,M,,*57
06/13/2014	15:09:48.658	$GPGGA,150957,2443.1044,N,08032.3125,W,1,9,1.8,16,M,,M,,*54
06/13/2014	15:09:49.735	$GPGGA,150958,2443.1037,N,08032.3130,W,1,9,1.8,16,M,,M,,*5B
06/13/2014	15:09:50.872	$GPGGA,150959,2443.1032,N,08032.3136,W,1,9,1.8,16,M,,M,,*59
06/13/2014	15:09:51.968	$GPGGA,151000,2443.1027,N,08032.3143,W,1,9,1.8,16,M,,M,,*5B
06/13/2014	15:09:53.090	$GPGGA,151001,2443.1022,N,08032.3148,W,1,9,1.8,16,M,,M,,*54
06/13/2014	15:09:54.149	$GPGGA,151002,2443.1015,N,08032.3154,W,1,9,1.8,16,M,,M,,*5E
06/13/2014	15:09:55.334	$GPGGA,151003,2443.1010,N,08032.3161,W,1,9,1.8,16,M,,M,,*5C
06/13/2014	15:09:56.384	$GPGGA,151004,2443.1005,N,08032.3168,W,1,9,1.8,16,M,,M,,*56
06/13/2014	15:09:57.480	$GPGGA,151005,2443.1001,N,08032.3173,W,1,9,1.8,16,M,,M,,*59
06/13/2014	15:09:58.487	$GPGGA,151006,2443.0994,N,08032.3179,W,1,9,1.8,16,M,,M,,*54
06/13/2014	15:09:59.550	$GPGGA,151007,2443.0988,N,08032.3184,W,1,9,1.8,16,M,,M,,*5A
06/13/2014	15:10:00.589	$GPGGA,151008,2443.0983,N,08032.3191,W,1,9,1.8,16,M,,M,,*5A
06/13/2014	15:10:01.630	$GPGGA,151009,2443.0979,N,08032.3198,W,1,9,1.8,16,M,,M,,*57
06/13/2014	15:10:02.647	$GPGGA,151010,2443.0979,N,08032.3198,W,1,9,1.8,16,M,,M,,*5F
06/13/2014	15:10:03.729	$GPGGA,151011,2443.0966,N,08032.3209,W,1,9,1.8,16,M,,M,,*5B
06/13/2014	15:10:04.727	$GPGGA,151012,2443.0961,N,08032.3215,W,1,9,1.8,16,M,,M,,*52
06/13/2014	15:10:05.821	$GPGGA,151013,2443.0957,N,08032.3222,W,1,9,1.8,16,M,,M,,*52
06/13/2014	15:10:06.776	$GPGGA,151014,2443.0951,N,08032.3228,W,1,9,1.8,16,M,,M,,*59
06/13/2014	15:10:07.900	$GPGGA,151015,2443.0944,N,08032.3233,W,1,9,1.8,16,M,,M,,*56
06/13/2014	15:10:08.877	$GPGGA,151016,2443.0939,N,08032.3241,W,1,9,1.8,16,M,,M,,*5A
06/13/2014	15:10:09.954	$GPGGA,151017,2443.0934,N,08032.3248,W,1,9,1.8,16,M,,M,,*5F
06/13/2014	15:10:10.937	$GPGGA,151018,2443.0928,N,08032.3253,W,1,9,1.8,16,M,,M,,*57
06/13/2014	15:10:11.987	$GPGGA,151019,2443.0928,N,08032.3253,W,1,9,1.8,16,M,,M,,*56
06/13/2014	15:10:13.027	$GPGGA,151020,2443.0918,N,08032.3264,W,1,9,1.8,16,M,,M,,*5B
06/13/2014	15:10:14.067	$GPGGA,151021,2443.0918,N,08032.3264,W,1,9,1.8,16,M,,M,,*5A
06/13/2014	15:10:15.086	$GPGGA,151022,2443.0908,N,08032.3277,W,1,9,2.0,16,M,,M,,*51
06/13/2014	15:10:16.136	$GPGGA,151023,2443.0908,N,08032.3277,W,1,8,2.0,16,M,,M,,*51
06/13/2014	15:10:17.197	$GPGGA,151024,2443.0894,N,08032.3289,W,1,8,1.8,16,M,,M,,*58
06/13/2014	15:10:18.279	$GPGGA,151025,2443.0889,N,08032.3296,W,1,9,1.8,16,M,,M,,*5A
06/13/2014	15:10:19.246	$GPGGA,151026,2443.0883,N,08032.3303,W,1,9,1.8,16,M,,M,,*5E
06/13/2014	15:10:20.354	$GPGGA,151027,2443.0878,N,08032.3309,W,1,9,1.8,16,M,,M,,*51
06/13/2014	15:10:21.347	$GPGGA,151028,2443.0878,N,08032.3309,W,1,9,1.8,16,M,,M,,*5E
06/13/2014	15:10:22.366	$GPGGA,151029,2443.0867,N,08032.3320,W,1,9,1.8,16,M,,M,,*5A
06/13/2014	15:10:23.407	$GPGGA,151030,2443.0861,N,08032.3328,W,1,9,1.8,16,M,,M,,*5C
06/13/2014	15:10:24.561	$GPGGA,151031,2443.0861,N,08032.3328,W,1,9,1.8,16,M,,M,,*5D
06/13/2014	15:10:25.476	$GPGGA,151032,2443.0849,N,08032.3340,W,1,9,1.8,16,M,,M,,*5A
06/13/2014	15:10:26.527	$GPGGA,151033,2443.0849,N,08032.3340,W,1,9,1.8,16,M,,M,,*5B
06/13/2014	15:10:27.640	$GPGGA,151034,2443.0840,N,08032.3353,W,1,9,1.8,16,M,,M,,*57
06/13/2014	15:10:28.701	$GPGGA,151035,2443.0835,N,08032.3358,W,1,8,2.0,16,M,,M,,*55
06/13/2014	15:10:29.741	$GPGGA,151036,2443.0827,N,08032.3365,W,1,8,1.8,16,M,,M,,*50
06/13/2014	15:10:30.677	$GPGGA,151037,2443.0827,N,08032.3365,W,1,9,1.8,16,M,,M,,*50
06/13/2014	15:10:31.707	$GPGGA,151038,2443.0817,N,08032.3378,W,1,9,1.8,16,M,,M,,*50
06/13/2014	15:10:32.827	$GPGGA,151039,2443.0809,N,08032.3385,W,1,9,1.8,16,M,,M,,*5C
06/13/2014	15:10:33.890	$GPGGA,151040,2443.0804,N,08032.3390,W,1,9,1.8,16,M,,M,,*5B
06/13/2014	15:10:34.910	$GPGGA,151041,2443.0799,N,08032.3396,W,1,9,1.8,16,M,,M,,*57
06/13/2014	15:10:35.939	$GPGGA,151042,2443.0795,N,08032.3403,W,1,9,1.8,16,M,,M,,*53
06/13/2014	15:10:37.010	$GPGGA,151043,2443.0788,N,08032.3408,W,1,9,1.8,16,M,,M,,*55
06/13/2014	15:10:38.041	$GPGGA,151044,2443.0784,N,08032.3414,W,1,9,1.8,16,M,,M,,*53
06/13/2014	15:10:39.101	$GPGGA,151045,2443.0777,N,08032.3421,W,1,9,1.8,16,M,,M,,*58
06/13/2014	15:10:40.090	$GPGGA,151046,2443.0771,N,08032.3428,W,1,9,1.8,16,M,,M,,*54
06/13/2014	15:10:41.129	$GPGGA,151047,2443.0764,N,08032.3433,W,1,9,1.8,16,M,,M,,*5B
06/13/2014	15:10:38.621	$GPGGA,151048,2443.0759,N,08032.3439,W,1,9,1.8,16,M,,M,,*50
06/13/2014	15:10:39.640	$GPGGA,151049,2443.0755,N,08032.3444,W,1,9,1.8,16,M,,M,,*57
06/13/2014	15:10:40.680	$GPGGA,151050,2443.0749,N,08032.3450,W,1,9,1.8,16,M,,M,,*57
06/13/2014	15:10:41.741	$GPGGA,151051,2443.0743,N,08032.3457,W,1,9,1.8,16,M,,M,,*5B
06/13/2014	15:10:42.778	$GPGGA,151052,2443.0737,N,08032.3462,W,1,9,1.8,16,M,,M,,*5D
06/13/2014	15:10:43.790	$GPGGA,151053,2443.0730,N,08032.3468,W,1,9,1.8,16,M,,M,,*51
06/13/2014	15:10:44.840	$GPGGA,151054,2443.0726,N,08032.3475,W,1,9,1.8,16,M,,M,,*5D
06/13/2014	15:10:45.891	$GPGGA,151055,2443.0720,N,08032.3480,W,1,9,1.8,16,M,,M,,*50
06/13/2014	15:10:46.921	$GPGGA,151056,2443.0714,N,08032.3486,W,1,9,1.8,16,M,,M,,*52
06/13/2014	15:10:47.978	$GPGGA,151057,2443.0709,N,08032.3491,W,1,9,1.8,16,M,,M,,*59
06/13/2014	15:10:48.979	$GPGGA,151058,2443.0703,N,08032.3497,W,1,9,1.8,16,M,,M,,*5A
06/13/2014	15:10:50.019	$GPGGA,151059,2443.0697,N,08032.3502,W,1,9,1.8,16,M,,M,,*5A
06/13/2014	15:10:51.080	$GPGGA,151100,2443.0691,N,08032.3508,W,1,9,1.8,17,M,,M,,*5A
06/13/2014	15:10:52.133	$GPGGA,151101,2443.0685,N,08032.3515,W,1,9,1.8,17,M,,M,,*52
06/13/2014	15:10:53.150	$GPGGA,151102,2443.0679,N,08032.3520,W,1,9,1.8,17,M,,M,,*54
06/13/2014	15:10:54.200	$GPGGA,151103,2443.0676,N,08032.3526,W,1,9,1.8,17,M,,M,,*5C
06/13/2014	15:10:55.220	$GPGGA,151104,2443.0669,N,08032.3533,W,1,9,1.8,17,M,,M,,*51
06/13/2014	15:10:56.284	$GPGGA,151105,2443.0663,N,08032.3538,W,1,9,1.8,17,M,,M,,*51
06/13/2014	15:10:57.289	$GPGGA,151106,2443.0658,N,08032.3544,W,1,9,1.8,17,M,,M,,*51
06/13/2014	15:10:58.350	$GPGGA,151107,2443.0651,N,08032.3551,W,1,9,1.8,17,M,,M,,*5D
06/13/2014	15:11:01.095	$GPGGA,151108,2443.0647,N,08032.3558,W,1,9,1.8,17,M,,M,,*5C
06/13/2014	15:11:01.460	$GPGGA,151110,2443.0636,N,08032.3569,W,1,9,1.8,17,M,,M,,*51
06/13/2014	15:11:02.604	$GPGGA,151111,2443.0629,N,08032.3574,W,1,9,1.8,17,M,,M,,*52
06/13/2014	15:11:03.540	$GPGGA,151112,2443.0623,N,08032.3580,W,1,9,1.8,17,M,,M,,*50
06/13/2014	15:11:04.561	$GPGGA,151113,2443.0618,N,08032.3587,W,1,9,1.8,17,M,,M,,*5E
06/13/2014	15:11:05.600	$GPGGA,151114,2443.0613,N,08032.3595,W,1,9,1.8,17,M,,M,,*51
06/13/2014	15:11:06.639	$GPGGA,151115,2443.0607,N,08032.3600,W,1,9,1.8,17,M,,M,,*5A
06/13/2014	15:11:07.804	$GPGGA,151116,2443.0600,N,08032.3606,W,1,9,1.8,17,M,,M,,*58
06/13/2014	15:11:08.813	$GPGGA,151117,2443.0596,N,08032.3613,W,1,9,1.8,17,M,,M,,*51
06/13/2014	15:11:09.842	$GPGGA,151118,2443.0590,N,08032.3617,W,1,9,1.8,17,M,,M,,*5C
06/13/2014	15:11:10.903	$GPGGA,151119,2443.0584,N,08032.3623,W,1,9,1.8,17,M,,M,,*5F
06/13/2014	15:11:11.839	$GPGGA,151120,2443.0578,N,08032.3629,W,1,9,1.8,17,M,,M,,*5C
06/13/2014	15:11:12.869	$GPGGA,151121,2443.0573,N,08032.3636,W,1,9,1.8,17,M,,M,,*58
06/13/2014	15:11:13.899	$GPGGA,151122,2443.0567,N,08032.3642,W,1,9,1.8,17,M,,M,,*5D
06/13/2014	15:11:14.949	$GPGGA,151123,2443.0561,N,08032.3649,W,1,9,1.8,17,M,,M,,*51
06/13/2014	15:11:16.097	$GPGGA,151124,2443.0556,N,08032.3653,W,1,9,1.8,17,M,,M,,*59
06/13/2014	15:11:17.104	$GPGGA,151125,2443.0553,N,08032.3660,W,1,9,1.8,17,M,,M,,*5D
06/13/2014	15:11:18.142	$GPGGA,151126,2443.0546,N,08032.3664,W,1,9,1.8,17,M,,M,,*5E
06/13/2014	15:11:19.183	$GPGGA,151127,2443.0540,N,08032.3671,W,1,9,1.8,17,M,,M,,*5D
06/13/2014	15:11:20.233	$GPGGA,151128,2443.0536,N,08032.3676,W,1,9,1.8,17,M,,M,,*54
06/13/2014	15:11:21.284	$GPGGA,151129,2443.0531,N,08032.3683,W,1,9,1.8,17,M,,M,,*58
06/13/2014	15:11:22.293	$GPGGA,151130,2443.0525,N,08032.3689,W,1,9,1.8,17,M,,M,,*5F
06/13/2014	15:11:23.343	$GPGGA,151131,2443.0521,N,08032.3694,W,1,9,1.8,17,M,,M,,*56
06/13/2014	15:11:24.392	$GPGGA,151132,2443.0517,N,08032.3700,W,1,9,1.8,17,M,,M,,*5C
06/13/2014	15:11:25.415	$GPGGA,151133,2443.0513,N,08032.3707,W,1,9,1.8,17,M,,M,,*5E
06/13/2014	15:11:26.458	$GPGGA,151134,2443.0507,N,08032.3712,W,1,9,1.8,17,M,,M,,*58
06/13/2014	15:11:27.513	$GPGGA,151135,2443.0502,N,08032.3718,W,1,9,1.8,17,M,,M,,*56
06/13/2014	15:11:28.544	$GPGGA,151136,2443.0497,N,08032.3725,W,1,9,1.8,17,M,,M,,*56
06/13/2014	15:11:29.582	$GPGGA,151137,2443.0493,N,08032.3732,W,1,9,1.8,17,M,,M,,*55
06/13/2014	15:11:30.591	$GPGGA,151138,2443.0489,N,08032.3736,W,1,9,1.8,17,M,,M,,*55
06/13/2014	15:11:31.631	$GPGGA,151139,2443.0484,N,08032.3743,W,1,9,1.8,17,M,,M,,*5B
06/13/2014	15:11:32.692	$GPGGA,151140,2443.0479,N,08032.3750,W,1,9,1.8,17,M,,M,,*55
06/13/2014	15:11:33.738	$GPGGA,151141,2443.0477,N,08032.3757,W,1,9,1.8,17,M,,M,,*5D
06/13/2014	15:11:34.752	$GPGGA,151142,2443.0472,N,08032.3764,W,1,9,1.8,17,M,,M,,*5B
06/13/2014	15:11:35.822	$GPGGA,151143,2443.0466,N,08032.3770,W,1,8,1.9,17,M,,M,,*5A
06/13/2014	15:11:36.843	$GPGGA,151144,2443.0462,N,08032.3775,W,1,8,1.8,17,M,,M,,*5D
06/13/2014	15:11:37.894	$GPGGA,151145,2443.0459,N,08032.3783,W,1,8,2.0,17,M,,M,,*56
06/13/2014	15:11:38.902	$GPGGA,151146,2443.0455,N,08032.3791,W,1,8,1.8,17,M,,M,,*51
06/13/2014	15:11:39.942	$GPGGA,151147,2443.0449,N,08032.3798,W,1,9,1.8,17,M,,M,,*55
06/13/2014	15:11:38.600	$GPGGA,151148,2443.0444,N,08032.3805,W,1,9,1.8,17,M,,M,,*5C
06/13/2014	15:11:39.648	$GPGGA,151149,2443.0441,N,08032.3812,W,1,9,1.8,17,M,,M,,*5E
06/13/2014	15:11:40.646	$GPGGA,151150,2443.0438,N,08032.3820,W,1,9,1.8,17,M,,M,,*59
06/13/2014	15:11:41.696	$GPGGA,151151,2443.0432,N,08032.3826,W,1,9,1.8,17,M,,M,,*54
06/13/2014	15:11:42.747	$GPGGA,151152,2443.0430,N,08032.3833,W,1,9,1.8,17,M,,M,,*51
06/13/2014	15:11:43.756	$GPGGA,151153,2443.0426,N,08032.3842,W,1,9,1.8,17,M,,M,,*51
06/13/2014	15:11:44.817	$GPGGA,151154,2443.0423,N,08032.3848,W,1,9,1.8,17,M,,M,,*59
06/13/2014	15:11:45.877	$GPGGA,151155,2443.0417,N,08032.3855,W,1,9,1.8,17,M,,M,,*53
06/13/2014	15:11:46.886	$GPGGA,151156,2443.0414,N,08032.3863,W,1,9,1.8,16,M,,M,,*57
06/13/2014	15:11:47.906	$GPGGA,151157,2443.0410,N,08032.3870,W,1,9,1.8,16,M,,M,,*50
06/13/2014	15:11:48.956	$GPGGA,151158,2443.0406,N,08032.3878,W,1,9,1.8,16,M,,M,,*50
06/13/2014	15:11:50.007	$GPGGA,151159,2443.0401,N,08032.3885,W,1,9,1.8,16,M,,M,,*54
