Software Version Number: 1	Data File Format Number: 1	Build Version Number: 1	Error Count Since VI Started: 0	Manufacturer: Raytheon	 Model Number: RayMarine 120	 S/N: 	 Cal Date: 	 Wind Direction Offset: 0.00	 Slope (M)1: 0.00	 Offset (B)1: 0.00	 Slope (M)2: 0.00	 Offset (B)2: 0.00	 Slope (M)3: 0.00	 Offset (B)3: 0.00	 Slope (M)4: 0.00	 Offset (B)4: 0.00	 Slope (M)5: 0.00	 Offset (B)5: 0.00	 Slope (M)6: 0.00	 Offset (B)6: 0.00
Computer Date	Computer Time	GGA String
05/28/2014	17:00:00.681	$GPGGA,170001,2542.0435,N,07957.9711,W,1,9,1.9,12,M,,M,,*54
05/28/2014	17:00:01.652	$GPGGA,170002,2542.0442,N,07957.9727,W,1,9,1.9,12,M,,M,,*52
05/28/2014	17:00:02.685	$GPGGA,170003,2542.0450,N,07957.9743,W,1,8,1.9,12,M,,M,,*53
05/28/2014	17:00:03.649	$GPGGA,170004,2542.0457,N,07957.9761,W,1,8,1.9,12,M,,M,,*53
05/28/2014	17:00:04.672	$GPGGA,170005,2542.0464,N,07957.9776,W,1,9,1.9,12,M,,M,,*55
05/28/2014	17:00:05.656	$GPGGA,170006,2542.0474,N,07957.9792,W,1,9,1.9,12,M,,M,,*5D
05/28/2014	17:00:06.669	$GPGGA,170007,2542.0482,N,07957.9809,W,1,9,1.9,12,M,,M,,*58
05/28/2014	17:00:07.672	$GPGGA,170008,2542.0489,N,07957.9827,W,1,9,1.9,12,M,,M,,*50
05/28/2014	17:00:08.647	$GPGGA,170009,2542.0497,N,07957.9842,W,1,8,1.9,12,M,,M,,*5C
05/28/2014	17:00:09.660	$GPGGA,170010,2542.0504,N,07957.9859,W,1,8,1.9,12,M,,M,,*55
05/28/2014	17:00:10.683	$GPGGA,170011,2542.0513,N,07957.9874,W,1,8,1.9,12,M,,M,,*5D
05/28/2014	17:00:11.666	$GPGGA,170012,2542.0521,N,07957.9891,W,1,8,1.9,12,M,,M,,*54
05/28/2014	17:00:12.649	$GPGGA,170013,2542.0528,N,07957.9908,W,1,9,1.9,12,M,,M,,*5C
05/28/2014	17:00:13.663	$GPGGA,170014,2542.0536,N,07957.9924,W,1,9,1.9,12,M,,M,,*5A
05/28/2014	17:00:14.688	$GPGGA,170015,2542.0544,N,07957.9940,W,1,9,1.9,12,M,,M,,*5C
05/28/2014	17:00:15.680	$GPGGA,170016,2542.0553,N,07957.9957,W,1,9,1.9,12,M,,M,,*5F
05/28/2014	17:00:16.653	$GPGGA,170017,2542.0561,N,07957.9972,W,1,9,1.9,12,M,,M,,*58
05/28/2014	17:00:17.677	$GPGGA,170018,2542.0569,N,07957.9989,W,1,9,1.9,12,M,,M,,*5B
05/28/2014	17:00:18.690	$GPGGA,170019,2542.0578,N,07958.0005,W,1,9,1.9,12,M,,M,,*51
05/28/2014	17:00:19.692	$GPGGA,170020,2542.0584,N,07958.0022,W,1,9,1.9,12,M,,M,,*5D
05/28/2014	17:00:20.665	$GPGGA,170021,2542.0591,N,07958.0038,W,1,9,1.9,12,M,,M,,*53
05/28/2014	17:00:21.679	$GPGGA,170022,2542.0600,N,07958.0054,W,1,9,1.9,12,M,,M,,*51
05/28/2014	17:00:22.672	$GPGGA,170023,2542.0608,N,07958.0072,W,1,9,1.9,12,M,,M,,*5C
05/28/2014	17:00:23.686	$GPGGA,170024,2542.0615,N,07958.0088,W,1,9,1.9,12,M,,M,,*52
05/28/2014	17:00:24.690	$GPGGA,170025,2542.0622,N,07958.0105,W,1,9,1.9,11,M,,M,,*50
05/28/2014	17:00:25.662	$GPGGA,170026,2542.0630,N,07958.0121,W,1,9,1.9,11,M,,M,,*56
05/28/2014	17:00:26.687	$GPGGA,170027,2542.0638,N,07958.0138,W,1,9,1.9,11,M,,M,,*57
05/28/2014	17:00:27.700	$GPGGA,170028,2542.0647,N,07958.0153,W,1,9,1.9,11,M,,M,,*5D
05/28/2014	17:00:28.684	$GPGGA,170029,2542.0655,N,07958.0170,W,1,9,1.9,11,M,,M,,*5E
05/28/2014	17:00:29.847	$GPGGA,170030,2542.0663,N,07958.0186,W,1,9,1.9,11,M,,M,,*5A
05/28/2014	17:00:30.690	$GPGGA,170031,2542.0670,N,07958.0202,W,1,9,1.9,11,M,,M,,*56
05/28/2014	17:00:31.703	$GPGGA,170032,2542.0678,N,07958.0218,W,1,9,1.9,11,M,,M,,*56
05/28/2014	17:00:32.686	$GPGGA,170033,2542.0688,N,07958.0235,W,1,9,1.9,11,M,,M,,*57
05/28/2014	17:00:33.700	$GPGGA,170034,2542.0695,N,07958.0251,W,1,9,1.9,11,M,,M,,*5E
05/28/2014	17:00:34.853	$GPGGA,170035,2542.0703,N,07958.0267,W,1,9,1.9,11,M,,M,,*54
05/28/2014	17:00:35.877	$GPGGA,170036,2542.0710,N,07958.0283,W,1,9,1.9,11,M,,M,,*5F
05/28/2014	17:00:36.829	$GPGGA,170037,2542.0719,N,07958.0300,W,1,9,1.9,11,M,,M,,*5D
05/28/2014	17:00:37.702	$GPGGA,170038,2542.0727,N,07958.0315,W,1,9,1.9,11,M,,M,,*5B
05/28/2014	17:00:38.624	$GPGGA,170039,2542.0735,N,07958.0332,W,1,9,1.9,11,M,,M,,*5C
05/28/2014	17:00:39.497	$GPGGA,170040,2542.0742,N,07958.0348,W,1,9,1.9,11,M,,M,,*5F
05/28/2014	17:00:40.500	$GPGGA,170041,2542.0750,N,07958.0365,W,1,8,2.1,11,M,,M,,*58
05/28/2014	17:00:41.644	$GPGGA,170042,2542.0759,N,07958.0380,W,1,8,1.9,11,M,,M,,*52
05/28/2014	17:00:42.658	$GPGGA,170043,2542.0767,N,07958.0397,W,1,9,1.9,11,M,,M,,*59
05/28/2014	17:00:43.601	$GPGGA,170044,2542.0774,N,07958.0412,W,1,9,1.9,11,M,,M,,*56
05/28/2014	17:00:44.615	$GPGGA,170045,2542.0779,N,07958.0430,W,1,8,1.9,10,M,,M,,*5A
05/28/2014	17:00:45.592	$GPGGA,170046,2542.0786,N,07958.0448,W,1,8,1.9,10,M,,M,,*56
05/28/2014	17:00:46.641	$GPGGA,170047,2542.0793,N,07958.0463,W,1,8,2.1,10,M,,M,,*51
05/28/2014	17:00:47.675	$GPGGA,170048,2542.0802,N,07958.0480,W,1,8,2.1,10,M,,M,,*54
05/28/2014	17:00:48.618	$GPGGA,170049,2542.0810,N,07958.0496,W,1,8,1.9,10,M,,M,,*5A
05/28/2014	17:00:49.671	$GPGGA,170050,2542.0820,N,07958.0513,W,1,8,1.9,10,M,,M,,*5D
05/28/2014	17:00:50.645	$GPGGA,170051,2542.0828,N,07958.0528,W,1,9,1.9,10,M,,M,,*5D
05/28/2014	17:00:51.618	$GPGGA,170052,2542.0833,N,07958.0545,W,1,9,2.1,10,M,,M,,*54
05/28/2014	17:00:52.631	$GPGGA,170053,2542.0842,N,07958.0560,W,1,9,1.9,10,M,,M,,*5F
05/28/2014	17:00:53.685	$GPGGA,170054,2542.0850,N,07958.0578,W,1,9,1.9,10,M,,M,,*52
05/28/2014	17:00:54.647	$GPGGA,170055,2542.0858,N,07958.0592,W,1,8,1.9,10,M,,M,,*5E
05/28/2014	17:00:56.995	$GPGGA,170056,2542.0865,N,07958.0610,W,1,8,1.9,10,M,,M,,*5A
05/28/2014	17:00:57.062	$GPGGA,170057,2542.0872,N,07958.0625,W,1,8,1.9,10,M,,M,,*5B
05/28/2014	17:00:57.679	$GPGGA,170058,2542.0880,N,07958.0643,W,1,8,1.9,10,M,,M,,*59
05/28/2014	17:00:58.661	$GPGGA,170059,2542.0887,N,07958.0659,W,1,9,1.9,10,M,,M,,*55
05/28/2014	17:00:59.714	$GPGGA,170100,2542.0894,N,07958.0676,W,1,9,1.9,10,M,,M,,*57
05/28/2014	17:01:00.617	$GPGGA,170101,2542.0902,N,07958.0691,W,1,8,1.9,10,M,,M,,*50
05/28/2014	17:01:01.661	$GPGGA,170102,2542.0911,N,07958.0708,W,1,8,1.9,10,M,,M,,*50
05/28/2014	17:01:02.651	$GPGGA,170103,2542.0919,N,07958.0724,W,1,9,1.9,10,M,,M,,*56
05/28/2014	17:01:03.688	$GPGGA,170104,2542.0929,N,07958.0741,W,1,9,1.9,10,M,,M,,*51
05/28/2014	17:01:04.611	$GPGGA,170105,2542.0936,N,07958.0755,W,1,9,1.9,10,M,,M,,*5B
05/28/2014	17:01:05.614	$GPGGA,170106,2542.0944,N,07958.0773,W,1,9,1.9,10,M,,M,,*59
05/28/2014	17:01:06.698	$GPGGA,170107,2542.0952,N,07958.0788,W,1,8,1.9,10,M,,M,,*5A
05/28/2014	17:01:07.701	$GPGGA,170108,2542.0959,N,07958.0806,W,1,8,1.9,10,M,,M,,*57
05/28/2014	17:01:08.615	$GPGGA,170109,2542.0967,N,07958.0821,W,1,8,1.9,10,M,,M,,*5E
05/28/2014	17:01:09.618	$GPGGA,170110,2542.0976,N,07958.0838,W,1,8,1.9,10,M,,M,,*5E
05/28/2014	17:01:10.672	$GPGGA,170111,2542.0984,N,07958.0856,W,1,8,1.9,10,M,,M,,*5A
05/28/2014	17:01:11.634	$GPGGA,170112,2542.0991,N,07958.0872,W,1,8,1.9,10,M,,M,,*5B
05/28/2014	17:01:12.738	$GPGGA,170113,2542.1001,N,07958.0887,W,1,8,1.9,10,M,,M,,*51
05/28/2014	17:01:13.692	$GPGGA,170114,2542.1013,N,07958.0900,W,1,8,1.9,10,M,,M,,*5B
05/28/2014	17:01:14.724	$GPGGA,170115,2542.1021,N,07958.0918,W,1,9,1.9,10,M,,M,,*53
05/28/2014	17:01:15.708	$GPGGA,170116,2542.1027,N,07958.0934,W,1,9,1.9,10,M,,M,,*58
05/28/2014	17:01:16.695	$GPGGA,170117,2542.1034,N,07958.0951,W,1,8,1.9,10,M,,M,,*59
05/28/2014	17:01:17.694	$GPGGA,170118,2542.1042,N,07958.0968,W,1,8,1.9,10,M,,M,,*5D
05/28/2014	17:01:18.678	$GPGGA,170119,2542.1049,N,07958.0984,W,1,9,1.9,10,M,,M,,*54
05/28/2014	17:01:19.701	$GPGGA,170120,2542.1057,N,07958.1001,W,1,9,1.9,10,M,,M,,*54
05/28/2014	17:01:20.775	$GPGGA,170121,2542.1064,N,07958.1019,W,1,9,1.9,10,M,,M,,*5C
05/28/2014	17:01:21.638	$GPGGA,170122,2542.1073,N,07958.1034,W,1,9,1.9,10,M,,M,,*56
05/28/2014	17:01:22.732	$GPGGA,170123,2542.1079,N,07958.1052,W,1,9,1.9,10,M,,M,,*5D
05/28/2014	17:01:23.644	$GPGGA,170124,2542.1086,N,07958.1069,W,1,9,1.9,10,M,,M,,*52
05/28/2014	17:01:24.708	$GPGGA,170125,2542.1095,N,07958.1084,W,1,8,1.9,10,M,,M,,*53
05/28/2014	17:01:25.762	$GPGGA,170126,2542.1102,N,07958.1102,W,1,8,1.9,10,M,,M,,*50
05/28/2014	17:01:26.745	$GPGGA,170127,2542.1109,N,07958.1118,W,1,9,1.9,10,M,,M,,*50
05/28/2014	17:01:27.718	$GPGGA,170128,2542.1117,N,07958.1135,W,1,9,1.9,10,M,,M,,*5F
05/28/2014	17:01:28.742	$GPGGA,170129,2542.1125,N,07958.1152,W,1,8,1.9,10,M,,M,,*5F
05/28/2014	17:01:29.744	$GPGGA,170130,2542.1132,N,07958.1168,W,1,8,1.9,10,M,,M,,*58
05/28/2014	17:01:30.748	$GPGGA,170131,2542.1140,N,07958.1185,W,1,9,1.9,10,M,,M,,*5E
05/28/2014	17:01:31.771	$GPGGA,170132,2542.1147,N,07958.1201,W,1,9,1.9,10,M,,M,,*55
05/28/2014	17:01:32.785	$GPGGA,170133,2542.1154,N,07958.1217,W,1,9,1.9,10,M,,M,,*51
05/28/2014	17:01:33.758	$GPGGA,170134,2542.1161,N,07958.1235,W,1,9,1.9,10,M,,M,,*50
05/28/2014	17:01:34.781	$GPGGA,170135,2542.1169,N,07958.1251,W,1,8,1.9,10,M,,M,,*5A
05/28/2014	17:01:35.785	$GPGGA,170136,2542.1178,N,07958.1268,W,1,8,1.9,10,M,,M,,*53
05/28/2014	17:01:36.778	$GPGGA,170137,2542.1187,N,07958.1283,W,1,9,1.9,10,M,,M,,*56
05/28/2014	17:01:37.771	$GPGGA,170138,2542.1196,N,07958.1300,W,1,9,1.9,10,M,,M,,*53
05/28/2014	17:01:38.593	$GPGGA,170139,2542.1203,N,07958.1315,W,1,9,1.9,10,M,,M,,*59
05/28/2014	17:01:39.576	$GPGGA,170140,2542.1211,N,07958.1331,W,1,9,1.9,10,M,,M,,*52
05/28/2014	17:01:40.590	$GPGGA,170141,2542.1218,N,07958.1348,W,1,9,1.9,10,M,,M,,*54
05/28/2014	17:01:41.573	$GPGGA,170142,2542.1226,N,07958.1365,W,1,9,1.9,10,M,,M,,*55
05/28/2014	17:01:42.586	$GPGGA,170143,2542.1234,N,07958.1381,W,1,9,1.9,10,M,,M,,*5D
05/28/2014	17:01:43.630	$GPGGA,170144,2542.1241,N,07958.1398,W,1,9,1.9,10,M,,M,,*50
05/28/2014	17:01:44.586	$GPGGA,170145,2542.1248,N,07958.1416,W,1,9,1.9,10,M,,M,,*59
05/28/2014	17:01:45.567	$GPGGA,170146,2542.1255,N,07958.1431,W,1,9,1.9,10,M,,M,,*53
05/28/2014	17:01:46.591	$GPGGA,170147,2542.1265,N,07958.1449,W,1,8,1.9,10,M,,M,,*5F
05/28/2014	17:01:47.592	$GPGGA,170148,2542.1272,N,07958.1464,W,1,8,1.9,10,M,,M,,*59
05/28/2014	17:01:48.596	$GPGGA,170149,2542.1279,N,07958.1481,W,1,8,1.9,10,M,,M,,*58
05/28/2014	17:01:49.599	$GPGGA,170150,2542.1279,N,07958.1481,W,1,8,1.9,10,M,,M,,*50
05/28/2014	17:01:50.603	$GPGGA,170151,2542.1294,N,07958.1515,W,1,9,1.9,10,M,,M,,*5F
05/28/2014	17:01:51.596	$GPGGA,170152,2542.1294,N,07958.1515,W,1,9,1.9,10,M,,M,,*5C
05/28/2014	17:01:52.610	$GPGGA,170153,2542.1308,N,07958.1550,W,1,8,1.9,10,M,,M,,*59
05/28/2014	17:01:53.583	$GPGGA,170154,2542.1308,N,07958.1550,W,1,8,1.9,10,M,,M,,*5E
05/28/2014	17:01:54.617	$GPGGA,170155,2542.1324,N,07958.1582,W,1,9,1.9,10,M,,M,,*5F
05/28/2014	17:01:55.620	$GPGGA,170156,2542.1331,N,07958.1598,W,1,9,1.9,10,M,,M,,*53
05/28/2014	17:01:56.616	$GPGGA,170157,2542.1339,N,07958.1615,W,1,8,1.9,10,M,,M,,*5D
05/28/2014	17:01:57.606	$GPGGA,170158,2542.1348,N,07958.1630,W,1,8,1.9,10,M,,M,,*53
05/28/2014	17:01:58.590	$GPGGA,170159,2542.1357,N,07958.1647,W,1,8,1.9,10,M,,M,,*5C
05/28/2014	17:01:59.653	$GPGGA,170200,2542.1364,N,07958.1663,W,1,8,1.9,10,M,,M,,*55
05/28/2014	17:02:00.607	$GPGGA,170201,2542.1371,N,07958.1680,W,1,9,1.9,10,M,,M,,*5C
05/28/2014	17:02:01.700	$GPGGA,170202,2542.1381,N,07958.1695,W,1,9,1.9,10,M,,M,,*54
05/28/2014	17:02:02.683	$GPGGA,170203,2542.1389,N,07958.1712,W,1,9,1.9,10,M,,M,,*53
05/28/2014	17:02:03.607	$GPGGA,170204,2542.1389,N,07958.1712,W,1,9,1.9,10,M,,M,,*54
05/28/2014	17:02:04.609	$GPGGA,170205,2542.1404,N,07958.1745,W,1,9,1.9,10,M,,M,,*55
05/28/2014	17:02:05.683	$GPGGA,170206,2542.1411,N,07958.1761,W,1,9,1.9,10,M,,M,,*54
05/28/2014	17:02:06.586	$GPGGA,170207,2542.1420,N,07958.1778,W,1,8,1.9,10,M,,M,,*5E
05/28/2014	17:02:07.661	$GPGGA,170208,2542.1420,N,07958.1778,W,1,8,1.9,10,M,,M,,*51
05/28/2014	17:02:08.733	$GPGGA,170209,2542.1435,N,07958.1811,W,1,8,1.9,10,M,,M,,*54
05/28/2014	17:02:09.607	$GPGGA,170210,2542.1435,N,07958.1811,W,1,8,1.9,10,M,,M,,*5C
05/28/2014	17:02:10.730	$GPGGA,170211,2542.1449,N,07958.1846,W,1,8,1.9,10,M,,M,,*54
05/28/2014	17:02:11.714	$GPGGA,170212,2542.1457,N,07958.1862,W,1,8,1.9,10,M,,M,,*5E
05/28/2014	17:02:12.696	$GPGGA,170213,2542.1465,N,07958.1879,W,1,9,1.9,10,M,,M,,*55
05/28/2014	17:02:13.700	$GPGGA,170214,2542.1472,N,07958.1895,W,1,9,1.9,10,M,,M,,*56
05/28/2014	17:02:14.703	$GPGGA,170215,2542.1479,N,07958.1911,W,1,9,1.9,10,M,,M,,*51
05/28/2014	17:02:15.727	$GPGGA,170216,2542.1487,N,07958.1929,W,1,9,1.9,10,M,,M,,*58
05/28/2014	17:02:16.731	$GPGGA,170217,2542.1496,N,07958.1945,W,1,9,1.9,10,M,,M,,*53
05/28/2014	17:02:17.713	$GPGGA,170218,2542.1503,N,07958.1962,W,1,9,1.9,10,M,,M,,*54
05/28/2014	17:02:18.717	$GPGGA,170219,2542.1510,N,07958.1978,W,1,9,1.9,10,M,,M,,*5C
05/28/2014	17:02:19.730	$GPGGA,170220,2542.1518,N,07958.1995,W,1,9,1.9,10,M,,M,,*5D
05/28/2014	17:02:20.724	$GPGGA,170221,2542.1526,N,07958.2012,W,1,8,1.9,10,M,,M,,*55
05/28/2014	17:02:21.706	$GPGGA,170222,2542.1532,N,07958.2030,W,1,8,1.9,10,M,,M,,*53
05/28/2014	17:02:22.729	$GPGGA,170223,2542.1540,N,07958.2046,W,1,9,1.9,10,M,,M,,*57
05/28/2014	17:02:23.763	$GPGGA,170224,2542.1550,N,07958.2063,W,1,9,1.9,10,M,,M,,*56
05/28/2014	17:02:24.746	$GPGGA,170225,2542.1557,N,07958.2081,W,1,9,1.9,10,M,,M,,*5C
05/28/2014	17:02:26.745	$GPGGA,170227,2542.1570,N,07958.2113,W,1,8,1.9,10,M,,M,,*50
05/28/2014	17:02:27.736	$GPGGA,170228,2542.1577,N,07958.2131,W,1,8,1.9,10,M,,M,,*58
05/28/2014	17:02:28.734	$GPGGA,170229,2542.1584,N,07958.2147,W,1,9,1.9,10,M,,M,,*55
05/28/2014	17:02:29.713	$GPGGA,170230,2542.1591,N,07958.2164,W,1,9,1.9,10,M,,M,,*58
05/28/2014	17:02:30.747	$GPGGA,170231,2542.1598,N,07958.2182,W,1,8,1.9,10,M,,M,,*59
05/28/2014	17:02:31.740	$GPGGA,170232,2542.1606,N,07958.2200,W,1,8,1.9,10,M,,M,,*57
05/28/2014	17:02:32.743	$GPGGA,170233,2542.1613,N,07958.2215,W,1,9,1.9,10,M,,M,,*57
05/28/2014	17:02:33.727	$GPGGA,170234,2542.1622,N,07958.2232,W,1,9,1.9,10,M,,M,,*57
05/28/2014	17:02:34.720	$GPGGA,170235,2542.1630,N,07958.2247,W,1,9,1.9,10,M,,M,,*57
05/28/2014	17:02:35.743	$GPGGA,170236,2542.1637,N,07958.2265,W,1,9,1.9,10,M,,M,,*53
05/28/2014	17:02:36.727	$GPGGA,170237,2542.1645,N,07958.2281,W,1,8,1.9,10,M,,M,,*5C
05/28/2014	17:02:37.731	$GPGGA,170238,2542.1645,N,07958.2281,W,1,8,1.9,10,M,,M,,*53
05/28/2014	17:02:38.552	$GPGGA,170239,2542.1660,N,07958.2314,W,1,8,1.9,9,M,,M,,*60
05/28/2014	17:02:39.544	$GPGGA,170240,2542.1667,N,07958.2330,W,1,8,1.9,9,M,,M,,*6F
05/28/2014	17:02:40.526	$GPGGA,170241,2542.1675,N,07958.2348,W,1,9,1.9,9,M,,M,,*63
05/28/2014	17:02:41.540	$GPGGA,170242,2542.1682,N,07958.2364,W,1,9,1.9,9,M,,M,,*66
05/28/2014	17:02:42.565	$GPGGA,170243,2542.1691,N,07958.2381,W,1,8,1.9,9,M,,M,,*6F
05/28/2014	17:02:43.587	$GPGGA,170244,2542.1699,N,07958.2397,W,1,8,1.9,9,M,,M,,*67
05/28/2014	17:02:44.550	$GPGGA,170245,2542.1706,N,07958.2413,W,1,9,1.9,9,M,,M,,*6B
05/28/2014	17:02:45.533	$GPGGA,170246,2542.1714,N,07958.2429,W,1,9,1.9,9,M,,M,,*62
05/28/2014	17:02:46.547	$GPGGA,170247,2542.1721,N,07958.2446,W,1,9,1.9,9,M,,M,,*6C
05/28/2014	17:02:47.560	$GPGGA,170248,2542.1729,N,07958.2464,W,1,9,1.9,9,M,,M,,*6B
05/28/2014	17:02:48.534	$GPGGA,170249,2542.1736,N,07958.2480,W,1,9,1.9,9,M,,M,,*6E
05/28/2014	17:02:49.657	$GPGGA,170250,2542.1743,N,07958.2496,W,1,9,1.9,9,M,,M,,*63
05/28/2014	17:02:50.671	$GPGGA,170251,2542.1751,N,07958.2514,W,1,9,1.9,9,M,,M,,*6A
05/28/2014	17:02:51.554	$GPGGA,170252,2542.1760,N,07958.2530,W,1,9,1.9,9,M,,M,,*6D
05/28/2014	17:02:52.537	$GPGGA,170253,2542.1765,N,07958.2547,W,1,9,1.9,9,M,,M,,*69
05/28/2014	17:02:53.662	$GPGGA,170254,2542.1774,N,07958.2563,W,1,9,1.9,9,M,,M,,*68
05/28/2014	17:02:54.635	$GPGGA,170255,2542.1782,N,07958.2580,W,1,9,1.9,9,M,,M,,*6D
05/28/2014	17:02:55.557	$GPGGA,170256,2542.1787,N,07958.2597,W,1,9,1.9,9,M,,M,,*6D
05/28/2014	17:02:56.640	$GPGGA,170257,2542.1794,N,07958.2615,W,1,9,1.9,9,M,,M,,*67
05/28/2014	17:02:57.663	$GPGGA,170258,2542.1801,N,07958.2631,W,1,9,1.9,9,M,,M,,*6D
05/28/2014	17:02:58.556	$GPGGA,170259,2542.1808,N,07958.2648,W,1,9,1.9,9,M,,M,,*6B
05/28/2014	17:02:59.690	$GPGGA,170300,2542.1815,N,07958.2666,W,1,9,1.9,9,M,,M,,*66
05/28/2014	17:03:00.694	$GPGGA,170301,2542.1823,N,07958.2681,W,1,9,1.9,9,M,,M,,*6B
05/28/2014	17:03:01.647	$GPGGA,170302,2542.1832,N,07958.2699,W,1,9,1.9,9,M,,M,,*61
05/28/2014	17:03:02.670	$GPGGA,170303,2542.1840,N,07958.2715,W,1,9,1.9,9,M,,M,,*60
05/28/2014	17:03:03.704	$GPGGA,170304,2542.1846,N,07958.2732,W,1,9,1.9,9,M,,M,,*64
05/28/2014	17:03:04.657	$GPGGA,170305,2542.1852,N,07958.2749,W,1,9,1.9,9,M,,M,,*6C
05/28/2014	17:03:05.651	$GPGGA,170306,2542.1859,N,07958.2767,W,1,9,1.9,9,M,,M,,*68
05/28/2014	17:03:06.684	$GPGGA,170307,2542.1866,N,07958.2783,W,1,9,1.9,9,M,,M,,*6F
05/28/2014	17:03:07.677	$GPGGA,170308,2542.1875,N,07958.2800,W,1,9,1.9,9,M,,M,,*66
05/28/2014	17:03:08.661	$GPGGA,170309,2542.1881,N,07958.2816,W,1,9,1.9,9,M,,M,,*6B
05/28/2014	17:03:09.655	$GPGGA,170310,2542.1888,N,07958.2833,W,1,9,1.9,9,M,,M,,*6D
05/28/2014	17:03:10.677	$GPGGA,170311,2542.1895,N,07958.2850,W,1,9,1.9,9,M,,M,,*65
05/28/2014	17:03:11.680	$GPGGA,170312,2542.1904,N,07958.2866,W,1,9,1.9,9,M,,M,,*6A
05/28/2014	17:03:12.663	$GPGGA,170313,2542.1911,N,07958.2883,W,1,9,1.9,9,M,,M,,*64
05/28/2014	17:03:13.668	$GPGGA,170314,2542.1917,N,07958.2899,W,1,9,1.9,9,M,,M,,*6E
05/28/2014	17:03:14.688	$GPGGA,170315,2542.1924,N,07958.2916,W,1,9,1.9,9,M,,M,,*69
05/28/2014	17:03:15.681	$GPGGA,170316,2542.1933,N,07958.2933,W,1,9,1.9,9,M,,M,,*6B
05/28/2014	17:03:16.664	$GPGGA,170317,2542.1938,N,07958.2949,W,1,9,1.9,9,M,,M,,*6C
05/28/2014	17:03:17.667	$GPGGA,170318,2542.1945,N,07958.2966,W,1,9,1.9,9,M,,M,,*64
05/28/2014	17:03:18.670	$GPGGA,170319,2542.1952,N,07958.2984,W,1,9,1.9,9,M,,M,,*6F
05/28/2014	17:03:19.683	$GPGGA,170320,2542.1959,N,07958.2999,W,1,9,1.9,9,M,,M,,*62
05/28/2014	17:03:20.705	$GPGGA,170321,2542.1966,N,07958.3017,W,1,8,1.9,9,M,,M,,*60
05/28/2014	17:03:21.668	$GPGGA,170322,2542.1973,N,07958.3035,W,1,8,1.9,9,M,,M,,*67
05/28/2014	17:03:22.711	$GPGGA,170323,2542.1981,N,07958.3050,W,1,9,1.9,9,M,,M,,*69
05/28/2014	17:03:23.684	$GPGGA,170324,2542.1988,N,07958.3067,W,1,9,1.9,9,M,,M,,*63
05/28/2014	17:03:24.697	$GPGGA,170325,2542.1993,N,07958.3085,W,1,9,1.9,9,M,,M,,*64
05/28/2014	17:03:25.670	$GPGGA,170326,2542.2000,N,07958.3103,W,1,9,1.9,9,M,,M,,*68
05/28/2014	17:03:26.684	$GPGGA,170327,2542.2009,N,07958.3118,W,1,8,1.9,9,M,,M,,*6B
05/28/2014	17:03:27.686	$GPGGA,170328,2542.2016,N,07958.3136,W,1,8,1.9,9,M,,M,,*66
05/28/2014	17:03:28.689	$GPGGA,170329,2542.2023,N,07958.3152,W,1,9,1.9,9,M,,M,,*62
05/28/2014	17:03:29.681	$GPGGA,170330,2542.2031,N,07958.3168,W,1,9,1.9,9,M,,M,,*60
05/28/2014	17:03:30.684	$GPGGA,170331,2542.2039,N,07958.3186,W,1,9,1.9,9,M,,M,,*69
05/28/2014	17:03:31.696	$GPGGA,170332,2542.2045,N,07958.3202,W,1,9,1.9,9,M,,M,,*6E
05/28/2014	17:03:32.709	$GPGGA,170333,2542.2050,N,07958.3219,W,1,8,1.9,9,M,,M,,*60
05/28/2014	17:03:33.672	$GPGGA,170334,2542.2060,N,07958.3235,W,1,8,1.9,9,M,,M,,*6A
05/28/2014	17:03:34.705	$GPGGA,170335,2542.2068,N,07958.3252,W,1,9,1.9,9,M,,M,,*63
05/28/2014	17:03:35.788	$GPGGA,170336,2542.2074,N,07958.3269,W,1,9,1.9,9,M,,M,,*65
05/28/2014	17:03:36.701	$GPGGA,170337,2542.2079,N,07958.3285,W,1,9,1.9,9,M,,M,,*6B
05/28/2014	17:03:37.683	$GPGGA,170338,2542.2089,N,07958.3302,W,1,9,1.9,9,M,,M,,*65
05/28/2014	17:03:38.589	$GPGGA,170339,2542.2099,N,07958.3316,W,1,9,1.9,9,M,,M,,*60
05/28/2014	17:03:39.511	$GPGGA,170340,2542.2107,N,07958.3332,W,1,9,1.9,9,M,,M,,*6E
05/28/2014	17:03:40.586	$GPGGA,170341,2542.2112,N,07958.3350,W,1,9,1.9,9,M,,M,,*6F
05/28/2014	17:03:41.517	$GPGGA,170342,2542.2119,N,07958.3367,W,1,9,1.9,9,M,,M,,*63
05/28/2014	17:03:42.620	$GPGGA,170343,2542.2126,N,07958.3385,W,1,9,1.9,9,M,,M,,*62
05/28/2014	17:03:43.613	$GPGGA,170344,2542.2133,N,07958.3401,W,1,9,1.9,9,M,,M,,*6A
05/28/2014	17:03:44.496	$GPGGA,170345,2542.2140,N,07958.3418,W,1,9,1.9,9,M,,M,,*67
05/28/2014	17:03:45.599	$GPGGA,170346,2542.2147,N,07958.3436,W,1,9,1.9,9,M,,M,,*6F
05/28/2014	17:03:46.642	$GPGGA,170347,2542.2152,N,07958.3454,W,1,8,1.9,9,M,,M,,*6F
05/28/2014	17:03:47.615	$GPGGA,170348,2542.2161,N,07958.3469,W,1,8,1.9,9,M,,M,,*6E
05/28/2014	17:03:48.607	$GPGGA,170349,2542.2168,N,07958.3486,W,1,9,1.9,9,M,,M,,*66
05/28/2014	17:03:49.610	$GPGGA,170350,2542.2175,N,07958.3502,W,1,9,1.9,9,M,,M,,*6F
05/28/2014	17:03:50.604	$GPGGA,170351,2542.2182,N,07958.3519,W,1,9,1.9,9,M,,M,,*6C
05/28/2014	17:03:51.615	$GPGGA,170352,2542.2188,N,07958.3537,W,1,9,1.9,9,M,,M,,*69
05/28/2014	17:03:52.628	$GPGGA,170353,2542.2195,N,07958.3553,W,1,8,1.9,9,M,,M,,*67
05/28/2014	17:03:53.601	$GPGGA,170354,2542.2202,N,07958.3570,W,1,8,1.9,9,M,,M,,*6C
05/28/2014	17:03:54.616	$GPGGA,170355,2542.2209,N,07958.3587,W,1,9,1.9,9,M,,M,,*6F
05/28/2014	17:03:55.627	$GPGGA,170356,2542.2216,N,07958.3605,W,1,9,1.9,9,M,,M,,*6B
05/28/2014	17:03:56.612	$GPGGA,170357,2542.2224,N,07958.3620,W,1,9,1.9,9,M,,M,,*6C
05/28/2014	17:03:57.608	$GPGGA,170358,2542.2231,N,07958.3638,W,1,9,1.9,9,M,,M,,*6E
05/28/2014	17:03:58.615	$GPGGA,170359,2542.2238,N,07958.3653,W,1,9,1.9,9,M,,M,,*6B
05/28/2014	17:03:59.639	$GPGGA,170400,2542.2247,N,07958.3671,W,1,9,1.9,9,M,,M,,*68
05/28/2014	17:04:00.632	$GPGGA,170401,2542.2253,N,07958.3688,W,1,9,1.9,9,M,,M,,*6A
05/28/2014	17:04:01.604	$GPGGA,170402,2542.2262,N,07958.3706,W,1,9,1.9,9,M,,M,,*6C
05/28/2014	17:04:02.637	$GPGGA,170403,2542.2270,N,07958.3722,W,1,9,1.9,9,M,,M,,*68
05/28/2014	17:04:03.650	$GPGGA,170404,2542.2277,N,07958.3739,W,1,9,1.9,9,M,,M,,*62
05/28/2014	17:04:04.643	$GPGGA,170405,2542.2284,N,07958.3755,W,1,9,1.9,9,M,,M,,*65
05/28/2014	17:04:05.616	$GPGGA,170406,2542.2292,N,07958.3772,W,1,9,1.9,9,M,,M,,*64
05/28/2014	17:04:06.648	$GPGGA,170407,2542.2299,N,07958.3788,W,1,9,1.9,9,M,,M,,*6B
05/28/2014	17:04:07.635	$GPGGA,170408,2542.2307,N,07958.3805,W,1,9,1.9,9,M,,M,,*68
05/28/2014	17:04:08.615	$GPGGA,170409,2542.2316,N,07958.3822,W,1,9,1.9,9,M,,M,,*6C
05/28/2014	17:04:09.616	$GPGGA,170410,2542.2324,N,07958.3840,W,1,9,1.9,9,M,,M,,*61
05/28/2014	17:04:10.630	$GPGGA,170411,2542.2329,N,07958.3856,W,1,8,1.9,9,M,,M,,*6B
05/28/2014	17:04:11.633	$GPGGA,170412,2542.2336,N,07958.3874,W,1,8,1.9,9,M,,M,,*66
05/28/2014	17:04:12.616	$GPGGA,170413,2542.2346,N,07958.3891,W,1,8,1.9,9,M,,M,,*6B
05/28/2014	17:04:13.628	$GPGGA,170414,2542.2353,N,07958.3907,W,1,8,1.9,9,M,,M,,*66
05/28/2014	17:04:14.652	$GPGGA,170415,2542.2360,N,07958.3924,W,1,9,1.9,9,M,,M,,*67
05/28/2014	17:04:15.624	$GPGGA,170416,2542.2368,N,07958.3941,W,1,9,1.9,9,M,,M,,*6F
05/28/2014	17:04:16.638	$GPGGA,170417,2542.2375,N,07958.3959,W,1,9,1.9,9,M,,M,,*6B
05/28/2014	17:04:17.640	$GPGGA,170418,2542.2382,N,07958.3977,W,1,9,1.9,9,M,,M,,*60
05/28/2014	17:04:18.664	$GPGGA,170419,2542.2390,N,07958.3993,W,1,8,1.9,9,M,,M,,*69
05/28/2014	17:04:19.636	$GPGGA,170420,2542.2397,N,07958.4010,W,1,8,1.9,9,M,,M,,*61
05/28/2014	17:04:20.618	$GPGGA,170421,2542.2404,N,07958.4028,W,1,9,1.9,9,M,,M,,*67
05/28/2014	17:04:21.642	$GPGGA,170422,2542.2411,N,07958.4044,W,1,9,1.9,9,M,,M,,*6A
05/28/2014	17:04:22.754	$GPGGA,170423,2542.2418,N,07958.4061,W,1,9,1.9,9,M,,M,,*65
05/28/2014	17:04:23.636	$GPGGA,170424,2542.2426,N,07958.4079,W,1,9,1.9,9,M,,M,,*66
05/28/2014	17:04:24.729	$GPGGA,170425,2542.2433,N,07958.4094,W,1,9,1.9,9,M,,M,,*60
05/28/2014	17:04:25.622	$GPGGA,170426,2542.2440,N,07958.4111,W,1,9,1.9,9,M,,M,,*6B
05/28/2014	17:04:26.625	$GPGGA,170427,2542.2448,N,07958.4127,W,1,8,1.9,9,M,,M,,*66
05/28/2014	17:04:27.758	$GPGGA,170428,2542.2455,N,07958.4145,W,1,8,1.9,9,M,,M,,*61
05/28/2014	17:04:28.630	$GPGGA,170429,2542.2462,N,07958.4162,W,1,9,1.9,9,M,,M,,*60
05/28/2014	17:04:29.734	$GPGGA,170430,2542.2471,N,07958.4178,W,1,9,1.9,9,M,,M,,*61
05/28/2014	17:04:30.646	$GPGGA,170431,2542.2477,N,07958.4194,W,1,8,1.9,9,M,,M,,*65
05/28/2014	17:04:31.770	$GPGGA,170432,2542.2487,N,07958.4209,W,1,8,1.9,9,M,,M,,*6E
05/28/2014	17:04:32.772	$GPGGA,170433,2542.2498,N,07958.4224,W,1,9,1.9,9,M,,M,,*6F
05/28/2014	17:04:33.725	$GPGGA,170434,2542.2505,N,07958.4239,W,1,9,1.9,9,M,,M,,*61
05/28/2014	17:04:34.729	$GPGGA,170435,2542.2513,N,07958.4254,W,1,9,1.9,9,M,,M,,*6C
05/28/2014	17:04:35.741	$GPGGA,170436,2542.2520,N,07958.4270,W,1,9,1.9,9,M,,M,,*69
05/28/2014	17:04:36.754	$GPGGA,170437,2542.2530,N,07958.4286,W,1,9,1.9,9,M,,M,,*60
05/28/2014	17:04:37.737	$GPGGA,170438,2542.2536,N,07958.4303,W,1,9,1.9,9,M,,M,,*65
05/28/2014	17:04:38.557	$GPGGA,170439,2542.2541,N,07958.4321,W,1,9,1.9,9,M,,M,,*64
05/28/2014	17:04:39.580	$GPGGA,170440,2542.2548,N,07958.4339,W,1,9,1.9,9,M,,M,,*6A
05/28/2014	17:04:40.593	$GPGGA,170441,2542.2553,N,07958.4355,W,1,9,1.9,9,M,,M,,*6B
05/28/2014	17:04:41.564	$GPGGA,170442,2542.2560,N,07958.4371,W,1,9,1.9,9,M,,M,,*6E
05/28/2014	17:04:42.567	$GPGGA,170443,2542.2567,N,07958.4387,W,1,9,1.9,9,M,,M,,*61
05/28/2014	17:04:43.580	$GPGGA,170444,2542.2574,N,07958.4404,W,1,9,1.9,9,M,,M,,*68
05/28/2014	17:04:44.594	$GPGGA,170445,2542.2580,N,07958.4422,W,1,9,1.9,9,M,,M,,*66
05/28/2014	17:04:45.576	$GPGGA,170446,2542.2587,N,07958.4438,W,1,9,1.9,9,M,,M,,*69
05/28/2014	17:04:46.599	$GPGGA,170447,2542.2594,N,07958.4456,W,1,9,1.9,9,M,,M,,*62
05/28/2014	17:04:47.585	$GPGGA,170448,2542.2599,N,07958.4473,W,1,9,1.9,9,M,,M,,*67
05/28/2014	17:04:48.595	$GPGGA,170449,2542.2606,N,07958.4490,W,1,9,1.9,9,M,,M,,*6E
05/28/2014	17:04:49.568	$GPGGA,170450,2542.2614,N,07958.4506,W,1,9,1.9,9,M,,M,,*6B
05/28/2014	17:04:50.570	$GPGGA,170451,2542.2621,N,07958.4523,W,1,9,1.9,9,M,,M,,*6B
05/28/2014	17:04:51.593	$GPGGA,170452,2542.2627,N,07958.4539,W,1,9,1.9,9,M,,M,,*65
05/28/2014	17:04:52.606	$GPGGA,170453,2542.2634,N,07958.4556,W,1,9,1.9,9,M,,M,,*6F
05/28/2014	17:04:53.570	$GPGGA,170454,2542.2641,N,07958.4574,W,1,9,1.9,9,M,,M,,*6A
05/28/2014	17:04:54.583	$GPGGA,170455,2542.2649,N,07958.4589,W,1,9,1.9,9,M,,M,,*61
05/28/2014	17:04:55.595	$GPGGA,170456,2542.2656,N,07958.4606,W,1,9,1.9,9,M,,M,,*68
05/28/2014	17:04:56.578	$GPGGA,170457,2542.2661,N,07958.4622,W,1,9,1.9,9,M,,M,,*6B
05/28/2014	17:04:57.581	$GPGGA,170458,2542.2670,N,07958.4639,W,1,9,1.9,9,M,,M,,*6E
05/28/2014	17:04:58.623	$GPGGA,170459,2542.2678,N,07958.4655,W,1,9,1.9,9,M,,M,,*6D
05/28/2014	17:04:59.609	$GPGGA,170500,2542.2683,N,07958.4672,W,1,9,1.9,9,M,,M,,*61
05/28/2014	17:05:00.618	$GPGGA,170501,2542.2690,N,07958.4689,W,1,9,1.9,9,M,,M,,*66
05/28/2014	17:05:01.591	$GPGGA,170502,2542.2700,N,07958.4705,W,1,9,1.9,9,M,,M,,*68
05/28/2014	17:05:02.705	$GPGGA,170503,2542.2706,N,07958.4722,W,1,8,1.9,9,M,,M,,*6B
05/28/2014	17:05:03.607	$GPGGA,170504,2542.2712,N,07958.4738,W,1,8,1.9,9,M,,M,,*62
05/28/2014	17:05:04.710	$GPGGA,170505,2542.2721,N,07958.4756,W,1,8,1.9,9,M,,M,,*6B
05/28/2014	17:05:05.584	$GPGGA,170506,2542.2729,N,07958.4772,W,1,8,1.9,9,M,,M,,*66
05/28/2014	17:05:06.727	$GPGGA,170507,2542.2736,N,07958.4790,W,1,9,1.9,9,M,,M,,*64
05/28/2014	17:05:07.600	$GPGGA,170508,2542.2744,N,07958.4805,W,1,9,1.9,9,M,,M,,*6D
05/28/2014	17:05:08.582	$GPGGA,170509,2542.2751,N,07958.4823,W,1,9,1.9,9,M,,M,,*6C
05/28/2014	17:05:09.706	$GPGGA,170510,2542.2758,N,07958.4838,W,1,9,1.9,9,M,,M,,*67
05/28/2014	17:05:10.607	$GPGGA,170511,2542.2765,N,07958.4855,W,1,9,1.9,9,M,,M,,*63
05/28/2014	17:05:11.701	$GPGGA,170512,2542.2773,N,07958.4873,W,1,9,1.9,9,M,,M,,*63
05/28/2014	17:05:12.713	$GPGGA,170513,2542.2780,N,07958.4888,W,1,9,1.9,9,M,,M,,*6A
05/28/2014	17:05:13.596	$GPGGA,170514,2542.2787,N,07958.4906,W,1,9,1.9,9,M,,M,,*6D
05/28/2014	17:05:14.609	$GPGGA,170515,2542.2794,N,07958.4922,W,1,9,1.9,9,M,,M,,*68
05/28/2014	17:05:15.752	$GPGGA,170516,2542.2804,N,07958.4939,W,1,9,1.9,9,M,,M,,*67
05/28/2014	17:05:16.604	$GPGGA,170517,2542.2809,N,07958.4956,W,1,9,1.9,9,M,,M,,*62
05/28/2014	17:05:17.697	$GPGGA,170518,2542.2815,N,07958.4972,W,1,9,1.9,9,M,,M,,*66
05/28/2014	17:05:18.721	$GPGGA,170519,2542.2823,N,07958.4989,W,1,8,1.9,9,M,,M,,*67
05/28/2014	17:05:19.612	$GPGGA,170520,2542.2831,N,07958.5007,W,1,8,1.9,9,M,,M,,*60
05/28/2014	17:05:20.726	$GPGGA,170521,2542.2837,N,07958.5023,W,1,9,1.9,9,M,,M,,*60
05/28/2014	17:05:21.688	$GPGGA,170522,2542.2844,N,07958.5040,W,1,9,1.9,9,M,,M,,*62
05/28/2014	17:05:22.731	$GPGGA,170523,2542.2851,N,07958.5058,W,1,9,1.9,9,M,,M,,*6E
05/28/2014	17:05:23.714	$GPGGA,170524,2542.2858,N,07958.5073,W,1,9,1.9,9,M,,M,,*69
05/28/2014	17:05:24.707	$GPGGA,170525,2542.2865,N,07958.5090,W,1,9,1.9,9,M,,M,,*6B
05/28/2014	17:05:25.710	$GPGGA,170526,2542.2872,N,07958.5108,W,1,9,1.9,9,M,,M,,*6E
05/28/2014	17:05:26.723	$GPGGA,170527,2542.2878,N,07958.5123,W,1,9,1.9,9,M,,M,,*6C
05/28/2014	17:05:27.717	$GPGGA,170528,2542.2887,N,07958.5141,W,1,9,1.9,9,M,,M,,*67
05/28/2014	17:05:28.709	$GPGGA,170529,2542.2894,N,07958.5159,W,1,9,1.9,9,M,,M,,*6D
05/28/2014	17:05:29.712	$GPGGA,170530,2542.2901,N,07958.5174,W,1,9,1.9,9,M,,M,,*67
05/28/2014	17:05:30.725	$GPGGA,170531,2542.2906,N,07958.5191,W,1,9,1.9,9,M,,M,,*6A
05/28/2014	17:05:31.717	$GPGGA,170532,2542.2914,N,07958.5209,W,1,9,1.9,9,M,,M,,*68
05/28/2014	17:05:32.720	$GPGGA,170533,2542.2923,N,07958.5224,W,1,9,1.9,9,M,,M,,*62
05/28/2014	17:05:33.712	$GPGGA,170534,2542.2928,N,07958.5242,W,1,9,1.9,9,M,,M,,*6E
05/28/2014	17:05:34.725	$GPGGA,170535,2542.2935,N,07958.5258,W,1,9,1.9,9,M,,M,,*68
05/28/2014	17:05:35.728	$GPGGA,170536,2542.2943,N,07958.5275,W,1,9,1.9,9,M,,M,,*65
05/28/2014	17:05:36.721	$GPGGA,170537,2542.2950,N,07958.5293,W,1,9,1.9,9,M,,M,,*6E
05/28/2014	17:05:37.704	$GPGGA,170538,2542.2956,N,07958.5308,W,1,9,1.9,9,M,,M,,*64
05/28/2014	17:05:38.566	$GPGGA,170539,2542.2963,N,07958.5325,W,1,9,1.9,9,M,,M,,*6C
05/28/2014	17:05:39.549	$GPGGA,170540,2542.2970,N,07958.5343,W,1,9,1.9,9,M,,M,,*60
05/28/2014	17:05:40.541	$GPGGA,170541,2542.2977,N,07958.5359,W,1,8,1.9,9,M,,M,,*6C
05/28/2014	17:05:41.544	$GPGGA,170542,2542.2984,N,07958.5376,W,1,8,1.9,9,M,,M,,*6E
05/28/2014	17:05:42.537	$GPGGA,170543,2542.2990,N,07958.5394,W,1,9,1.9,9,M,,M,,*67
05/28/2014	17:05:43.560	$GPGGA,170544,2542.2997,N,07958.5409,W,1,9,1.9,9,M,,M,,*64
05/28/2014	17:05:44.572	$GPGGA,170545,2542.3004,N,07958.5426,W,1,9,1.9,9,M,,M,,*6A
05/28/2014	17:05:45.545	$GPGGA,170546,2542.3011,N,07958.5442,W,1,9,2.6,9,M,,M,,*63
05/28/2014	17:05:46.588	$GPGGA,170547,2542.3017,N,07958.5456,W,1,8,1.9,9,M,,M,,*6C
05/28/2014	17:05:47.562	$GPGGA,170548,2542.3022,N,07958.5471,W,1,8,1.9,9,M,,M,,*60
05/28/2014	17:05:48.574	$GPGGA,170549,2542.3029,N,07958.5486,W,1,9,1.9,9,M,,M,,*63
05/28/2014	17:05:49.567	$GPGGA,170550,2542.3035,N,07958.5502,W,1,9,1.9,9,M,,M,,*6B
05/28/2014	17:05:50.549	$GPGGA,170551,2542.3040,N,07958.5518,W,1,9,1.9,10,M,,M,,*5B
05/28/2014	17:05:51.572	$GPGGA,170552,2542.3047,N,07958.5535,W,1,9,1.9,10,M,,M,,*50
05/28/2014	17:05:52.544	$GPGGA,170553,2542.3054,N,07958.5550,W,1,9,1.9,10,M,,M,,*50
05/28/2014	17:05:53.668	$GPGGA,170554,2542.3060,N,07958.5567,W,1,9,1.9,10,M,,M,,*54
05/28/2014	17:05:54.660	$GPGGA,170555,2542.3066,N,07958.5583,W,1,9,1.9,10,M,,M,,*59
05/28/2014	17:05:55.573	$GPGGA,170556,2542.3073,N,07958.5600,W,1,9,1.9,11,M,,M,,*57
05/28/2014	17:05:56.566	$GPGGA,170557,2542.3080,N,07958.5616,W,1,9,1.9,11,M,,M,,*5D
05/28/2014	17:05:57.649	$GPGGA,170558,2542.3087,N,07958.5633,W,1,9,1.9,11,M,,M,,*52
05/28/2014	17:05:58.551	$GPGGA,170559,2542.3094,N,07958.5650,W,1,9,1.9,11,M,,M,,*54
05/28/2014	17:05:59.595	$GPGGA,170600,2542.3101,N,07958.5668,W,1,9,1.9,11,M,,M,,*5D
05/28/2014	17:06:00.577	$GPGGA,170601,2542.3108,N,07958.5683,W,1,9,1.9,11,M,,M,,*50
05/28/2014	17:06:01.570	$GPGGA,170602,2542.3108,N,07958.5683,W,1,9,1.9,11,M,,M,,*53
05/28/2014	17:06:02.674	$GPGGA,170603,2542.3122,N,07958.5716,W,1,9,1.9,12,M,,M,,*54
05/28/2014	17:06:03.596	$GPGGA,170604,2542.3127,N,07958.5733,W,1,9,1.9,12,M,,M,,*51
05/28/2014	17:06:04.659	$GPGGA,170605,2542.3134,N,07958.5751,W,1,9,1.9,12,M,,M,,*56
05/28/2014	17:06:05.573	$GPGGA,170606,2542.3141,N,07958.5767,W,1,9,1.9,12,M,,M,,*52
05/28/2014	17:06:06.655	$GPGGA,170607,2542.3148,N,07958.5784,W,1,9,1.9,12,M,,M,,*57
05/28/2014	17:06:07.678	$GPGGA,170608,2542.3156,N,07958.5800,W,1,9,1.9,12,M,,M,,*54
05/28/2014	17:06:08.700	$GPGGA,170609,2542.3163,N,07958.5817,W,1,9,1.9,13,M,,M,,*54
05/28/2014	17:06:09.653	$GPGGA,170610,2542.3170,N,07958.5835,W,1,9,1.9,13,M,,M,,*5E
05/28/2014	17:06:10.686	$GPGGA,170611,2542.3177,N,07958.5852,W,1,9,1.9,13,M,,M,,*59
05/28/2014	17:06:11.678	$GPGGA,170612,2542.3184,N,07958.5868,W,1,9,1.9,13,M,,M,,*5F
05/28/2014	17:06:12.681	$GPGGA,170613,2542.3191,N,07958.5885,W,1,9,1.9,13,M,,M,,*59
05/28/2014	17:06:13.664	$GPGGA,170614,2542.3198,N,07958.5903,W,1,9,1.9,13,M,,M,,*58
05/28/2014	17:06:14.687	$GPGGA,170615,2542.3205,N,07958.5918,W,1,9,1.9,13,M,,M,,*54
05/28/2014	17:06:15.680	$GPGGA,170616,2542.3210,N,07958.5936,W,1,9,1.9,13,M,,M,,*5F
05/28/2014	17:06:16.676	$GPGGA,170617,2542.3219,N,07958.5952,W,1,9,1.9,13,M,,M,,*55
05/28/2014	17:06:17.676	$GPGGA,170618,2542.3225,N,07958.5969,W,1,9,1.9,13,M,,M,,*5D
05/28/2014	17:06:18.689	$GPGGA,170619,2542.3232,N,07958.5986,W,1,9,1.9,13,M,,M,,*5B
05/28/2014	17:06:19.682	$GPGGA,170620,2542.3239,N,07958.6004,W,1,9,1.9,13,M,,M,,*5A
05/28/2014	17:06:20.666	$GPGGA,170621,2542.3246,N,07958.6020,W,1,9,1.9,14,M,,M,,*52
05/28/2014	17:06:21.677	$GPGGA,170622,2542.3253,N,07958.6037,W,1,9,1.9,14,M,,M,,*53
05/28/2014	17:06:22.690	$GPGGA,170623,2542.3260,N,07958.6055,W,1,9,1.9,14,M,,M,,*56
05/28/2014	17:06:23.683	$GPGGA,170624,2542.3268,N,07958.6073,W,1,9,1.9,14,M,,M,,*5D
05/28/2014	17:06:24.676	$GPGGA,170625,2542.3275,N,07958.6089,W,1,9,1.9,14,M,,M,,*55
05/28/2014	17:06:25.669	$GPGGA,170626,2542.3282,N,07958.6106,W,1,9,1.9,14,M,,M,,*58
05/28/2014	17:06:26.671	$GPGGA,170627,2542.3289,N,07958.6124,W,1,9,1.9,14,M,,M,,*52
05/28/2014	17:06:27.684	$GPGGA,170628,2542.3297,N,07958.6142,W,1,9,1.9,14,M,,M,,*52
05/28/2014	17:06:28.677	$GPGGA,170629,2542.3304,N,07958.6158,W,1,9,1.9,14,M,,M,,*53
05/28/2014	17:06:29.690	$GPGGA,170630,2542.3311,N,07958.6175,W,1,9,1.9,14,M,,M,,*50
05/28/2014	17:06:30.673	$GPGGA,170631,2542.3318,N,07958.6193,W,1,9,1.9,14,M,,M,,*50
05/28/2014	17:06:31.695	$GPGGA,170632,2542.3326,N,07958.6210,W,1,9,1.9,14,M,,M,,*56
05/28/2014	17:06:32.721	$GPGGA,170633,2542.3332,N,07958.6228,W,1,9,1.9,14,M,,M,,*59
05/28/2014	17:06:33.672	$GPGGA,170634,2542.3340,N,07958.6246,W,1,9,1.9,14,M,,M,,*53
05/28/2014	17:06:34.674	$GPGGA,170635,2542.3347,N,07958.6262,W,1,9,1.9,13,M,,M,,*54
05/28/2014	17:06:35.708	$GPGGA,170636,2542.3354,N,07958.6280,W,1,9,1.9,13,M,,M,,*59
05/28/2014	17:06:36.790	$GPGGA,170637,2542.3361,N,07958.6297,W,1,9,1.9,13,M,,M,,*58
05/28/2014	17:06:37.673	$GPGGA,170638,2542.3369,N,07958.6315,W,1,9,1.9,13,M,,M,,*54
05/28/2014	17:06:38.540	$GPGGA,170639,2542.3375,N,07958.6330,W,1,9,1.9,13,M,,M,,*5F
05/28/2014	17:06:39.517	$GPGGA,170640,2542.3382,N,07958.6348,W,1,9,2.0,13,M,,M,,*5C
05/28/2014	17:06:40.640	$GPGGA,170641,2542.3389,N,07958.6365,W,1,9,1.9,13,M,,M,,*53
05/28/2014	17:06:41.522	$GPGGA,170642,2542.3396,N,07958.6381,W,1,9,1.9,13,M,,M,,*54
05/28/2014	17:06:42.615	$GPGGA,170643,2542.3402,N,07958.6398,W,1,9,1.9,13,M,,M,,*57
05/28/2014	17:06:43.537	$GPGGA,170644,2542.3409,N,07958.6416,W,1,9,1.9,13,M,,M,,*5A
05/28/2014	17:06:44.620	$GPGGA,170645,2542.3416,N,07958.6432,W,1,8,2.0,13,M,,M,,*58
05/28/2014	17:06:45.523	$GPGGA,170646,2542.3423,N,07958.6449,W,1,8,1.9,13,M,,M,,*5B
05/28/2014	17:06:46.526	$GPGGA,170647,2542.3429,N,07958.6464,W,1,9,1.9,13,M,,M,,*5E
05/28/2014	17:06:47.640	$GPGGA,170648,2542.3434,N,07958.6481,W,1,9,1.9,13,M,,M,,*56
05/28/2014	17:06:48.642	$GPGGA,170649,2542.3443,N,07958.6499,W,1,9,1.9,13,M,,M,,*5E
05/28/2014	17:06:49.524	$GPGGA,170650,2542.3449,N,07958.6514,W,1,9,1.9,13,M,,M,,*58
05/28/2014	17:06:50.618	$GPGGA,170651,2542.3456,N,07958.6530,W,1,9,1.9,13,M,,M,,*51
05/28/2014	17:06:51.620	$GPGGA,170652,2542.3463,N,07958.6547,W,1,9,1.9,13,M,,M,,*54
05/28/2014	17:06:52.523	$GPGGA,170653,2542.3470,N,07958.6564,W,1,9,1.9,13,M,,M,,*56
05/28/2014	17:06:53.616	$GPGGA,170654,2542.3477,N,07958.6580,W,1,9,1.9,13,M,,M,,*5C
05/28/2014	17:06:54.619	$GPGGA,170655,2542.3483,N,07958.6597,W,1,9,1.9,13,M,,M,,*50
05/28/2014	17:06:55.642	$GPGGA,170656,2542.3491,N,07958.6613,W,1,9,1.9,13,M,,M,,*5F
05/28/2014	17:06:56.645	$GPGGA,170657,2542.3499,N,07958.6630,W,1,9,1.9,13,M,,M,,*57
05/28/2014	17:06:57.618	$GPGGA,170658,2542.3506,N,07958.6647,W,1,9,1.9,13,M,,M,,*5F
05/28/2014	17:06:58.621	$GPGGA,170659,2542.3512,N,07958.6662,W,1,9,1.9,13,M,,M,,*5C
05/28/2014	17:06:59.644	$GPGGA,170700,2542.3519,N,07958.6678,W,1,9,1.9,13,M,,M,,*51
05/28/2014	17:07:00.647	$GPGGA,170701,2542.3526,N,07958.6695,W,1,9,1.9,13,M,,M,,*5F
05/28/2014	17:07:01.638	$GPGGA,170702,2542.3534,N,07958.6712,W,1,9,1.9,13,M,,M,,*51
05/28/2014	17:07:02.641	$GPGGA,170703,2542.3539,N,07958.6728,W,1,9,1.9,13,M,,M,,*54
05/28/2014	17:07:03.644	$GPGGA,170704,2542.3546,N,07958.6745,W,1,9,1.9,13,M,,M,,*50
05/28/2014	17:07:04.647	$GPGGA,170705,2542.3553,N,07958.6760,W,1,9,1.9,13,M,,M,,*52
05/28/2014	17:07:05.630	$GPGGA,170706,2542.3560,N,07958.6777,W,1,9,1.9,13,M,,M,,*57
05/28/2014	17:07:06.653	$GPGGA,170707,2542.3567,N,07958.6792,W,1,9,1.9,13,M,,M,,*5A
05/28/2014	17:07:07.646	$GPGGA,170708,2542.3574,N,07958.6808,W,1,9,1.9,13,M,,M,,*5B
05/28/2014	17:07:08.649	$GPGGA,170709,2542.3581,N,07958.6825,W,1,9,1.9,13,M,,M,,*5F
05/28/2014	17:07:09.622	$GPGGA,170710,2542.3586,N,07958.6842,W,1,9,1.9,13,M,,M,,*51
05/28/2014	17:07:10.634	$GPGGA,170711,2542.3595,N,07958.6857,W,1,9,1.9,13,M,,M,,*56
05/28/2014	17:07:11.648	$GPGGA,170712,2542.3600,N,07958.6873,W,1,9,1.9,13,M,,M,,*5C
05/28/2014	17:07:12.660	$GPGGA,170713,2542.3607,N,07958.6889,W,1,9,1.9,13,M,,M,,*5F
05/28/2014	17:07:13.633	$GPGGA,170714,2542.3615,N,07958.6907,W,1,9,1.9,13,M,,M,,*5C
05/28/2014	17:07:14.656	$GPGGA,170715,2542.3622,N,07958.6922,W,1,9,1.9,13,M,,M,,*5E
05/28/2014	17:07:15.649	$GPGGA,170716,2542.3629,N,07958.6938,W,1,9,1.9,13,M,,M,,*5D
05/28/2014	17:07:16.672	$GPGGA,170717,2542.3636,N,07958.6955,W,1,9,1.9,13,M,,M,,*59
05/28/2014	17:07:17.635	$GPGGA,170718,2542.3643,N,07958.6972,W,1,9,1.9,13,M,,M,,*51
05/28/2014	17:07:18.637	$GPGGA,170719,2542.3650,N,07958.6988,W,1,9,1.9,13,M,,M,,*57
05/28/2014	17:07:19.670	$GPGGA,170720,2542.3656,N,07958.7005,W,1,9,1.9,13,M,,M,,*56
05/28/2014	17:07:20.643	$GPGGA,170721,2542.3664,N,07958.7021,W,1,9,1.9,13,M,,M,,*50
05/28/2014	17:07:21.655	$GPGGA,170722,2542.3669,N,07958.7038,W,1,9,1.9,13,M,,M,,*56
05/28/2014	17:07:22.649	$GPGGA,170723,2542.3676,N,07958.7055,W,1,9,1.9,13,M,,M,,*52
05/28/2014	17:07:23.651	$GPGGA,170724,2542.3683,N,07958.7071,W,1,9,1.9,13,M,,M,,*59
05/28/2014	17:07:24.745	$GPGGA,170725,2542.3690,N,07958.7088,W,1,9,1.9,13,M,,M,,*5C
05/28/2014	17:07:25.747	$GPGGA,170726,2542.3698,N,07958.7104,W,1,9,1.9,13,M,,M,,*52
05/28/2014	17:07:26.650	$GPGGA,170727,2542.3705,N,07958.7121,W,1,9,1.9,13,M,,M,,*51
05/28/2014	17:07:27.663	$GPGGA,170728,2542.3711,N,07958.7139,W,1,9,1.9,13,M,,M,,*52
05/28/2014	17:07:28.746	$GPGGA,170729,2542.3718,N,07958.7155,W,1,9,1.9,13,M,,M,,*50
05/28/2014	17:07:29.648	$GPGGA,170730,2542.3726,N,07958.7171,W,1,9,1.9,13,M,,M,,*53
05/28/2014	17:07:30.762	$GPGGA,170731,2542.3733,N,07958.7189,W,1,9,1.9,13,M,,M,,*51
05/28/2014	17:07:31.664	$GPGGA,170732,2542.3738,N,07958.7204,W,1,9,1.9,13,M,,M,,*5F
05/28/2014	17:07:32.638	$GPGGA,170733,2542.3745,N,07958.7222,W,1,9,1.9,13,M,,M,,*50
05/28/2014	17:07:33.740	$GPGGA,170734,2542.3754,N,07958.7240,W,1,9,1.9,13,M,,M,,*53
05/28/2014	17:07:34.653	$GPGGA,170735,2542.3761,N,07958.7256,W,1,9,1.9,13,M,,M,,*53
05/28/2014	17:07:35.776	$GPGGA,170736,2542.3768,N,07958.7272,W,1,9,1.9,13,M,,M,,*5F
05/28/2014	17:07:36.658	$GPGGA,170737,2542.3773,N,07958.7288,W,1,9,1.9,13,M,,M,,*51
05/28/2014	17:07:37.751	$GPGGA,170738,2542.3781,N,07958.7306,W,1,9,1.9,13,M,,M,,*54
05/28/2014	17:07:38.621	$GPGGA,170739,2542.3788,N,07958.7323,W,1,9,1.9,13,M,,M,,*5B
05/28/2014	17:07:39.634	$GPGGA,170740,2542.3794,N,07958.7339,W,1,9,1.9,13,M,,M,,*53
05/28/2014	17:07:40.577	$GPGGA,170741,2542.3801,N,07958.7356,W,1,9,1.9,13,M,,M,,*58
05/28/2014	17:07:41.589	$GPGGA,170742,2542.3809,N,07958.7373,W,1,9,1.9,13,M,,M,,*54
05/28/2014	17:07:42.572	$GPGGA,170743,2542.3817,N,07958.7389,W,1,9,1.9,13,M,,M,,*5F
05/28/2014	17:07:43.595	$GPGGA,170744,2542.3824,N,07958.7406,W,1,9,2.0,13,M,,M,,*52
05/28/2014	17:07:44.648	$GPGGA,170745,2542.3830,N,07958.7422,W,1,9,1.9,13,M,,M,,*5A
05/28/2014	17:07:45.591	$GPGGA,170746,2542.3838,N,07958.7439,W,1,9,1.9,13,M,,M,,*5B
05/28/2014	17:07:46.605	$GPGGA,170747,2542.3846,N,07958.7456,W,1,9,1.9,13,M,,M,,*5A
05/28/2014	17:07:47.597	$GPGGA,170748,2542.3852,N,07958.7471,W,1,9,1.9,13,M,,M,,*55
05/28/2014	17:07:48.600	$GPGGA,170749,2542.3859,N,07958.7489,W,1,9,1.9,13,M,,M,,*58
05/28/2014	17:07:49.576	$GPGGA,170750,2542.3867,N,07958.7505,W,1,9,1.9,13,M,,M,,*58
05/28/2014	17:07:50.606	$GPGGA,170751,2542.3875,N,07958.7522,W,1,9,1.9,13,M,,M,,*5F
05/28/2014	17:07:51.598	$GPGGA,170752,2542.3880,N,07958.7538,W,1,9,1.9,13,M,,M,,*5D
05/28/2014	17:07:52.582	$GPGGA,170753,2542.3888,N,07958.7554,W,1,9,1.9,13,M,,M,,*5E
05/28/2014	17:07:53.595	$GPGGA,170754,2542.3895,N,07958.7572,W,1,9,1.9,13,M,,M,,*51
05/28/2014	17:07:54.607	$GPGGA,170755,2542.3900,N,07958.7587,W,1,9,1.9,12,M,,M,,*56
05/28/2014	17:07:55.601	$GPGGA,170756,2542.3907,N,07958.7603,W,1,9,1.9,12,M,,M,,*5D
05/28/2014	17:07:56.623	$GPGGA,170757,2542.3914,N,07958.7620,W,1,9,1.9,12,M,,M,,*5F
05/28/2014	17:07:57.596	$GPGGA,170758,2542.3921,N,07958.7637,W,1,9,1.9,12,M,,M,,*50
05/28/2014	17:07:58.588	$GPGGA,170759,2542.3927,N,07958.7653,W,1,9,1.9,12,M,,M,,*55
05/28/2014	17:07:59.601	$GPGGA,170800,2542.3935,N,07958.7670,W,1,9,1.9,12,M,,M,,*54
05/28/2014	17:08:00.604	$GPGGA,170801,2542.3940,N,07958.7686,W,1,9,1.9,12,M,,M,,*5E
05/28/2014	17:08:01.596	$GPGGA,170802,2542.3947,N,07958.7703,W,1,9,1.9,12,M,,M,,*56
05/28/2014	17:08:02.599	$GPGGA,170803,2542.3954,N,07958.7720,W,1,9,1.9,12,M,,M,,*54
05/28/2014	17:08:03.622	$GPGGA,170804,2542.3960,N,07958.7738,W,1,9,1.9,12,M,,M,,*5D
05/28/2014	17:08:04.605	$GPGGA,170805,2542.3967,N,07958.7753,W,1,9,1.9,12,M,,M,,*56
05/28/2014	17:08:05.599	$GPGGA,170806,2542.3974,N,07958.7771,W,1,9,1.9,12,M,,M,,*57
05/28/2014	17:08:06.761	$GPGGA,170807,2542.3980,N,07958.7787,W,1,9,1.9,12,M,,M,,*54
05/28/2014	17:08:07.744	$GPGGA,170808,2542.3987,N,07958.7803,W,1,9,1.9,12,M,,M,,*5F
05/28/2014	17:08:08.597	$GPGGA,170809,2542.3994,N,07958.7821,W,1,9,1.9,12,M,,M,,*5C
05/28/2014	17:08:09.609	$GPGGA,170810,2542.4001,N,07958.7837,W,1,9,1.9,12,M,,M,,*51
05/28/2014	17:08:10.623	$GPGGA,170811,2542.4008,N,07958.7854,W,1,9,1.9,12,M,,M,,*5C
05/28/2014	17:08:11.624	$GPGGA,170812,2542.4014,N,07958.7870,W,1,9,1.9,12,M,,M,,*54
05/28/2014	17:08:12.597	$GPGGA,170813,2542.4022,N,07958.7887,W,1,9,1.9,12,M,,M,,*58
05/28/2014	17:08:13.609	$GPGGA,170814,2542.4029,N,07958.7905,W,1,9,1.9,12,M,,M,,*5F
05/28/2014	17:08:15.052	$GPGGA,170815,2542.4034,N,07958.7921,W,1,9,1.9,12,M,,M,,*54
05/28/2014	17:08:15.616	$GPGGA,170816,2542.4041,N,07958.7938,W,1,9,1.9,12,M,,M,,*5D
05/28/2014	17:08:16.788	$GPGGA,170817,2542.4048,N,07958.7955,W,1,9,1.9,12,M,,M,,*5E
05/28/2014	17:08:17.600	$GPGGA,170818,2542.4055,N,07958.7973,W,1,9,1.9,12,M,,M,,*59
05/28/2014	17:08:18.793	$GPGGA,170819,2542.4062,N,07958.7988,W,1,9,1.9,12,M,,M,,*58
05/28/2014	17:08:19.626	$GPGGA,170820,2542.4069,N,07958.8006,W,1,9,1.9,12,M,,M,,*59
05/28/2014	17:08:20.698	$GPGGA,170821,2542.4074,N,07958.8021,W,1,9,1.9,12,M,,M,,*51
05/28/2014	17:08:21.731	$GPGGA,170822,2542.4083,N,07958.8038,W,1,9,1.9,12,M,,M,,*52
05/28/2014	17:08:22.794	$GPGGA,170823,2542.4090,N,07958.8056,W,1,9,1.9,12,M,,M,,*59
05/28/2014	17:08:23.717	$GPGGA,170824,2542.4095,N,07958.8072,W,1,9,1.9,12,M,,M,,*5D
05/28/2014	17:08:24.810	$GPGGA,170825,2542.4102,N,07958.8089,W,1,9,1.9,12,M,,M,,*57
05/28/2014	17:08:25.612	$GPGGA,170826,2542.4109,N,07958.8105,W,1,9,1.9,12,M,,M,,*5A
05/28/2014	17:08:26.715	$GPGGA,170827,2542.4116,N,07958.8121,W,1,9,1.9,12,M,,M,,*53
05/28/2014	17:08:27.767	$GPGGA,170828,2542.4123,N,07958.8137,W,1,9,2.0,12,M,,M,,*57
05/28/2014	17:08:28.770	$GPGGA,170829,2542.4130,N,07958.8154,W,1,8,2.0,12,M,,M,,*50
05/28/2014	17:08:29.712	$GPGGA,170830,2542.4138,N,07958.8172,W,1,8,1.9,12,M,,M,,*5E
05/28/2014	17:08:30.825	$GPGGA,170831,2542.4145,N,07958.8187,W,1,9,1.9,12,M,,M,,*5E
05/28/2014	17:08:31.717	$GPGGA,170832,2542.4152,N,07958.8202,W,1,9,1.9,12,M,,M,,*55
05/28/2014	17:08:32.770	$GPGGA,170833,2542.4159,N,07958.8219,W,1,9,1.9,12,M,,M,,*55
05/28/2014	17:08:33.763	$GPGGA,170834,2542.4166,N,07958.8234,W,1,9,1.9,12,M,,M,,*51
05/28/2014	17:08:34.705	$GPGGA,170835,2542.4171,N,07958.8251,W,1,9,1.9,12,M,,M,,*55
05/28/2014	17:08:35.778	$GPGGA,170836,2542.4178,N,07958.8267,W,1,9,1.9,12,M,,M,,*5A
05/28/2014	17:08:36.782	$GPGGA,170837,2542.4185,N,07958.8284,W,1,9,1.9,12,M,,M,,*54
05/28/2014	17:08:37.713	$GPGGA,170838,2542.4192,N,07958.8299,W,1,9,1.9,12,M,,M,,*51
05/28/2014	17:08:38.620	$GPGGA,170839,2542.4198,N,07958.8316,W,1,9,1.9,12,M,,M,,*5C
05/28/2014	17:08:39.602	$GPGGA,170840,2542.4206,N,07958.8332,W,1,9,1.9,12,M,,M,,*50
05/28/2014	17:08:40.545	$GPGGA,170841,2542.4211,N,07958.8349,W,1,9,1.9,12,M,,M,,*5B
05/28/2014	17:08:41.588	$GPGGA,170842,2542.4218,N,07958.8365,W,1,9,1.9,12,M,,M,,*5F
05/28/2014	17:08:42.653	$GPGGA,170843,2542.4225,N,07958.8382,W,1,9,1.9,12,M,,M,,*59
05/28/2014	17:08:43.594	$GPGGA,170844,2542.4232,N,07958.8397,W,1,9,1.9,12,M,,M,,*5C
05/28/2014	17:08:44.657	$GPGGA,170845,2542.4240,N,07958.8414,W,1,9,1.9,12,M,,M,,*54
05/28/2014	17:08:45.548	$GPGGA,170846,2542.4247,N,07958.8430,W,1,9,1.9,12,M,,M,,*56
05/28/2014	17:08:46.640	$GPGGA,170847,2542.4254,N,07958.8447,W,1,9,1.9,12,M,,M,,*55
05/28/2014	17:08:47.563	$GPGGA,170848,2542.4261,N,07958.8462,W,1,9,1.9,12,M,,M,,*5B
05/28/2014	17:08:48.636	$GPGGA,170849,2542.4267,N,07958.8479,W,1,9,1.9,12,M,,M,,*56
05/28/2014	17:08:49.548	$GPGGA,170850,2542.4275,N,07958.8497,W,1,9,1.9,12,M,,M,,*5D
05/28/2014	17:08:50.671	$GPGGA,170851,2542.4282,N,07958.8512,W,1,9,1.9,12,M,,M,,*58
05/28/2014	17:08:51.594	$GPGGA,170852,2542.4290,N,07958.8530,W,1,9,1.9,12,M,,M,,*58
05/28/2014	17:08:52.688	$GPGGA,170853,2542.4296,N,07958.8545,W,1,9,1.9,12,M,,M,,*5D
05/28/2014	17:08:53.579	$GPGGA,170854,2542.4301,N,07958.8562,W,1,9,1.9,12,M,,M,,*50
05/28/2014	17:08:54.552	$GPGGA,170855,2542.4308,N,07958.8580,W,1,9,1.9,12,M,,M,,*54
05/28/2014	17:08:55.605	$GPGGA,170856,2542.4315,N,07958.8595,W,1,9,1.9,12,M,,M,,*5F
05/28/2014	17:08:56.567	$GPGGA,170857,2542.4322,N,07958.8611,W,1,9,1.9,12,M,,M,,*55
05/28/2014	17:08:57.660	$GPGGA,170858,2542.4328,N,07958.8627,W,1,9,1.9,12,M,,M,,*55
05/28/2014	17:08:58.694	$GPGGA,170859,2542.4336,N,07958.8645,W,1,9,1.9,12,M,,M,,*5F
05/28/2014	17:08:59.615	$GPGGA,170900,2542.4341,N,07958.8661,W,1,9,1.9,12,M,,M,,*54
05/28/2014	17:09:00.714	$GPGGA,170901,2542.4348,N,07958.8678,W,1,9,1.9,12,M,,M,,*54
05/28/2014	17:09:01.611	$GPGGA,170902,2542.4355,N,07958.8694,W,1,9,1.9,12,M,,M,,*59
05/28/2014	17:09:02.644	$GPGGA,170903,2542.4362,N,07958.8711,W,1,9,1.9,12,M,,M,,*50
05/28/2014	17:09:03.695	$GPGGA,170904,2542.4369,N,07958.8728,W,1,9,1.9,12,M,,M,,*56
05/28/2014	17:09:04.688	$GPGGA,170905,2542.4375,N,07958.8743,W,1,9,1.9,12,M,,M,,*57
05/28/2014	17:09:05.590	$GPGGA,170906,2542.4380,N,07958.8759,W,1,9,1.9,12,M,,M,,*55
05/28/2014	17:09:06.683	$GPGGA,170907,2542.4387,N,07958.8776,W,1,9,1.9,12,M,,M,,*5E
05/28/2014	17:09:07.616	$GPGGA,170908,2542.4394,N,07958.8793,W,1,9,1.9,12,M,,M,,*58
05/28/2014	17:09:08.649	$GPGGA,170909,2542.4401,N,07958.8809,W,1,9,1.9,12,M,,M,,*5E
05/28/2014	17:09:09.602	$GPGGA,170910,2542.4406,N,07958.8826,W,1,9,2.0,12,M,,M,,*56
05/28/2014	17:09:10.744	$GPGGA,170911,2542.4413,N,07958.8842,W,1,9,2.0,12,M,,M,,*51
05/28/2014	17:09:11.677	$GPGGA,170912,2542.4420,N,07958.8858,W,1,9,2.0,12,M,,M,,*59
05/28/2014	17:09:12.680	$GPGGA,170913,2542.4426,N,07958.8876,W,1,9,2.0,12,M,,M,,*52
05/28/2014	17:09:13.672	$GPGGA,170914,2542.4431,N,07958.8891,W,1,9,2.0,12,M,,M,,*5A
05/28/2014	17:09:14.705	$GPGGA,170915,2542.4438,N,07958.8909,W,1,9,2.0,12,M,,M,,*52
05/28/2014	17:09:15.689	$GPGGA,170916,2542.4445,N,07958.8924,W,1,9,1.9,12,M,,M,,*5E
05/28/2014	17:09:16.700	$GPGGA,170917,2542.4451,N,07958.8941,W,1,9,1.9,12,M,,M,,*59
05/28/2014	17:09:17.663	$GPGGA,170918,2542.4458,N,07958.8956,W,1,9,1.9,12,M,,M,,*59
05/28/2014	17:09:18.686	$GPGGA,170919,2542.4464,N,07958.8974,W,1,9,1.9,12,M,,M,,*57
05/28/2014	17:09:19.688	$GPGGA,170920,2542.4470,N,07958.8990,W,1,9,1.9,12,M,,M,,*52
05/28/2014	17:09:20.722	$GPGGA,170921,2542.4475,N,07958.9007,W,1,9,1.9,12,M,,M,,*50
05/28/2014	17:09:21.664	$GPGGA,170922,2542.4482,N,07958.9022,W,1,9,2.0,12,M,,M,,*56
05/28/2014	17:09:22.696	$GPGGA,170923,2542.4489,N,07958.9039,W,1,9,2.0,12,M,,M,,*56
05/28/2014	17:09:23.678	$GPGGA,170924,2542.4495,N,07958.9054,W,1,9,2.0,12,M,,M,,*57
05/28/2014	17:09:24.701	$GPGGA,170925,2542.4502,N,07958.9071,W,1,9,2.0,12,M,,M,,*5E
05/28/2014	17:09:25.674	$GPGGA,170926,2542.4507,N,07958.9087,W,1,9,2.0,12,M,,M,,*51
05/28/2014	17:09:26.707	$GPGGA,170927,2542.4514,N,07958.9104,W,1,9,2.0,12,M,,M,,*58
05/28/2014	17:09:27.699	$GPGGA,170928,2542.4521,N,07958.9120,W,1,9,2.0,12,M,,M,,*57
05/28/2014	17:09:28.712	$GPGGA,170929,2542.4528,N,07958.9137,W,1,9,2.0,12,M,,M,,*59
05/28/2014	17:09:29.664	$GPGGA,170930,2542.4532,N,07958.9154,W,1,9,2.0,12,M,,M,,*5F
05/28/2014	17:09:30.707	$GPGGA,170931,2542.4539,N,07958.9169,W,1,9,2.0,12,M,,M,,*5B
05/28/2014	17:09:31.680	$GPGGA,170932,2542.4547,N,07958.9187,W,1,9,2.0,12,M,,M,,*51
05/28/2014	17:09:32.733	$GPGGA,170933,2542.4554,N,07958.9203,W,1,9,2.0,12,M,,M,,*5D
05/28/2014	17:09:33.686	$GPGGA,170934,2542.4560,N,07958.9220,W,1,9,2.0,12,M,,M,,*5C
05/28/2014	17:09:34.738	$GPGGA,170935,2542.4567,N,07958.9235,W,1,9,2.0,12,M,,M,,*5E
05/28/2014	17:09:35.711	$GPGGA,170936,2542.4574,N,07958.9252,W,1,9,2.0,12,M,,M,,*5E
05/28/2014	17:09:36.733	$GPGGA,170937,2542.4579,N,07958.9268,W,1,9,2.0,12,M,,M,,*5B
05/28/2014	17:09:37.686	$GPGGA,170938,2542.4586,N,07958.9285,W,1,9,2.0,12,M,,M,,*57
05/28/2014	17:09:38.587	$GPGGA,170939,2542.4594,N,07958.9301,W,1,9,2.0,12,M,,M,,*58
05/28/2014	17:09:39.654	$GPGGA,170940,2542.4601,N,07958.9318,W,1,9,2.0,12,M,,M,,*51
05/28/2014	17:09:40.612	$GPGGA,170941,2542.4608,N,07958.9335,W,1,9,2.0,12,M,,M,,*56
05/28/2014	17:09:41.515	$GPGGA,170942,2542.4615,N,07958.9351,W,1,9,2.0,12,M,,M,,*5B
05/28/2014	17:09:42.648	$GPGGA,170943,2542.4622,N,07958.9368,W,1,9,2.0,12,M,,M,,*54
05/28/2014	17:09:43.530	$GPGGA,170944,2542.4629,N,07958.9384,W,1,9,2.0,12,M,,M,,*5A
05/28/2014	17:09:44.668	$GPGGA,170945,2542.4636,N,07958.9400,W,1,9,2.0,12,M,,M,,*5E
05/28/2014	17:09:45.535	$GPGGA,170946,2542.4643,N,07958.9418,W,1,9,2.0,12,M,,M,,*56
05/28/2014	17:09:46.648	$GPGGA,170947,2542.4651,N,07958.9433,W,1,9,2.0,12,M,,M,,*5D
05/28/2014	17:09:47.573	$GPGGA,170948,2542.4657,N,07958.9451,W,1,9,2.0,12,M,,M,,*50
05/28/2014	17:09:48.534	$GPGGA,170949,2542.4657,N,07958.9451,W,1,9,2.0,12,M,,M,,*51
05/28/2014	17:09:49.616	$GPGGA,170950,2542.4672,N,07958.9483,W,1,9,2.0,12,M,,M,,*51
05/28/2014	17:09:50.669	$GPGGA,170951,2542.4679,N,07958.9501,W,1,9,2.0,12,M,,M,,*50
05/28/2014	17:09:51.543	$GPGGA,170952,2542.4684,N,07958.9516,W,1,9,2.0,12,M,,M,,*57
05/28/2014	17:09:52.544	$GPGGA,170953,2542.4684,N,07958.9516,W,1,9,2.0,12,M,,M,,*56
05/28/2014	17:09:53.617	$GPGGA,170954,2542.4698,N,07958.9548,W,1,9,2.0,12,M,,M,,*57
05/28/2014	17:09:54.660	$GPGGA,170955,2542.4706,N,07958.9564,W,1,9,2.0,12,M,,M,,*5E
05/28/2014	17:09:55.542	$GPGGA,170956,2542.4712,N,07958.9579,W,1,9,2.0,12,M,,M,,*54
05/28/2014	17:09:56.664	$GPGGA,170957,2542.4719,N,07958.9595,W,1,9,2.0,12,M,,M,,*5C
05/28/2014	17:09:57.627	$GPGGA,170958,2542.4727,N,07958.9610,W,1,9,2.0,12,M,,M,,*50
05/28/2014	17:09:58.620	$GPGGA,170959,2542.4734,N,07958.9626,W,1,9,2.0,12,M,,M,,*56
05/28/2014	17:09:59.652	$GPGGA,171000,2542.4740,N,07958.9642,W,1,9,2.0,12,M,,M,,*53
05/28/2014	17:10:00.645	$GPGGA,171001,2542.4747,N,07958.9658,W,1,9,2.0,13,M,,M,,*5F
05/28/2014	17:10:01.628	$GPGGA,171002,2542.4755,N,07958.9675,W,1,9,2.0,13,M,,M,,*50
05/28/2014	17:10:02.651	$GPGGA,171003,2542.4760,N,07958.9691,W,1,9,2.0,13,M,,M,,*5D
05/28/2014	17:10:03.643	$GPGGA,171004,2542.4767,N,07958.9707,W,1,9,2.0,13,M,,M,,*53
05/28/2014	17:10:04.646	$GPGGA,171005,2542.4774,N,07958.9725,W,1,9,2.0,13,M,,M,,*50
05/28/2014	17:10:05.629	$GPGGA,171006,2542.4781,N,07958.9741,W,1,9,2.0,13,M,,M,,*5B
05/28/2014	17:10:06.651	$GPGGA,171007,2542.4788,N,07958.9758,W,1,9,2.0,13,M,,M,,*5B
05/28/2014	17:10:07.644	$GPGGA,171008,2542.4794,N,07958.9774,W,1,9,2.0,13,M,,M,,*57
05/28/2014	17:10:08.627	$GPGGA,171009,2542.4800,N,07958.9791,W,1,9,2.0,13,M,,M,,*5F
05/28/2014	17:10:09.633	$GPGGA,171010,2542.4807,N,07958.9809,W,1,9,2.0,13,M,,M,,*5E
05/28/2014	17:10:10.672	$GPGGA,171011,2542.4814,N,07958.9824,W,1,9,2.0,13,M,,M,,*52
05/28/2014	17:10:11.645	$GPGGA,171012,2542.4820,N,07958.9841,W,1,9,2.0,13,M,,M,,*55
05/28/2014	17:10:12.657	$GPGGA,171013,2542.4825,N,07958.9857,W,1,9,2.0,13,M,,M,,*56
05/28/2014	17:10:13.629	$GPGGA,171014,2542.4834,N,07958.9875,W,1,9,2.0,13,M,,M,,*51
05/28/2014	17:10:14.662	$GPGGA,171015,2542.4839,N,07958.9892,W,1,9,2.0,13,M,,M,,*54
05/28/2014	17:10:15.664	$GPGGA,171016,2542.4846,N,07958.9910,W,1,9,2.0,13,M,,M,,*54
05/28/2014	17:10:16.667	$GPGGA,171017,2542.4853,N,07958.9925,W,1,9,2.0,13,M,,M,,*57
05/28/2014	17:10:17.640	$GPGGA,171018,2542.4861,N,07958.9942,W,1,9,2.0,13,M,,M,,*58
05/28/2014	17:10:18.642	$GPGGA,171019,2542.4867,N,07958.9957,W,1,9,2.0,13,M,,M,,*5B
05/28/2014	17:10:19.655	$GPGGA,171020,2542.4872,N,07958.9975,W,1,9,2.0,13,M,,M,,*55
05/28/2014	17:10:20.678	$GPGGA,171021,2542.4879,N,07958.9991,W,1,9,2.0,13,M,,M,,*55
05/28/2014	17:10:21.630	$GPGGA,171022,2542.4885,N,07959.0007,W,1,9,2.0,13,M,,M,,*5B
05/28/2014	17:10:22.673	$GPGGA,171023,2542.4890,N,07959.0025,W,1,9,2.0,13,M,,M,,*5E
05/28/2014	17:10:23.665	$GPGGA,171024,2542.4899,N,07959.0040,W,1,9,2.0,13,M,,M,,*53
05/28/2014	17:10:24.649	$GPGGA,171025,2542.4906,N,07959.0058,W,1,9,2.0,13,M,,M,,*5C
05/28/2014	17:10:25.640	$GPGGA,171026,2542.4911,N,07959.0074,W,1,9,2.0,13,M,,M,,*57
05/28/2014	17:10:26.665	$GPGGA,171027,2542.4918,N,07959.0091,W,1,9,2.0,13,M,,M,,*54
05/28/2014	17:10:27.666	$GPGGA,171028,2542.4925,N,07959.0108,W,1,9,2.0,13,M,,M,,*54
05/28/2014	17:10:28.760	$GPGGA,171029,2542.4932,N,07959.0124,W,1,9,2.0,13,M,,M,,*5D
05/28/2014	17:10:29.631	$GPGGA,171030,2542.4937,N,07959.0141,W,1,9,2.0,13,M,,M,,*53
05/28/2014	17:10:30.633	$GPGGA,171031,2542.4944,N,07959.0156,W,1,9,2.0,13,M,,M,,*50
05/28/2014	17:10:31.655	$GPGGA,171032,2542.4951,N,07959.0173,W,1,9,2.0,13,M,,M,,*50
05/28/2014	17:10:32.778	$GPGGA,171033,2542.4957,N,07959.0188,W,1,9,2.0,13,M,,M,,*53
05/28/2014	17:10:33.650	$GPGGA,171034,2542.4964,N,07959.0206,W,1,9,2.0,13,M,,M,,*51
05/28/2014	17:10:34.643	$GPGGA,171035,2542.4971,N,07959.0221,W,1,9,2.0,13,M,,M,,*51
05/28/2014	17:10:35.756	$GPGGA,171036,2542.4977,N,07959.0238,W,1,9,2.0,13,M,,M,,*5C
05/28/2014	17:10:36.648	$GPGGA,171037,2542.4984,N,07959.0253,W,1,9,2.0,13,M,,M,,*5C
05/28/2014	17:10:37.640	$GPGGA,171038,2542.4991,N,07959.0271,W,1,9,2.0,13,M,,M,,*57
05/28/2014	17:10:38.532	$GPGGA,171039,2542.4998,N,07959.0286,W,1,9,2.0,13,M,,M,,*57
05/28/2014	17:10:39.618	$GPGGA,171040,2542.5004,N,07959.0303,W,1,9,2.0,13,M,,M,,*58
05/28/2014	17:10:40.521	$GPGGA,171041,2542.5011,N,07959.0318,W,1,9,2.0,13,M,,M,,*57
05/28/2014	17:10:41.494	$GPGGA,171042,2542.5018,N,07959.0334,W,1,9,2.0,13,M,,M,,*53
05/28/2014	17:10:42.496	$GPGGA,171043,2542.5023,N,07959.0350,W,1,9,2.0,13,M,,M,,*58
05/28/2014	17:10:43.508	$GPGGA,171044,2542.5030,N,07959.0366,W,1,9,2.0,13,M,,M,,*58
05/28/2014	17:10:44.621	$GPGGA,171045,2542.5037,N,07959.0383,W,1,9,2.0,13,M,,M,,*55
05/28/2014	17:10:45.594	$GPGGA,171046,2542.5044,N,07959.0398,W,1,9,2.0,13,M,,M,,*58
05/28/2014	17:10:46.607	$GPGGA,171047,2542.5051,N,07959.0415,W,1,9,2.0,13,M,,M,,*5F
05/28/2014	17:10:47.609	$GPGGA,171048,2542.5058,N,07959.0430,W,1,9,2.0,13,M,,M,,*5E
05/28/2014	17:10:48.621	$GPGGA,171049,2542.5065,N,07959.0445,W,1,9,2.0,13,M,,M,,*53
05/28/2014	17:10:49.593	$GPGGA,171050,2542.5070,N,07959.0462,W,1,9,2.0,13,M,,M,,*5A
05/28/2014	17:10:50.636	$GPGGA,171051,2542.5078,N,07959.0477,W,1,9,2.0,13,M,,M,,*57
05/28/2014	17:10:51.609	$GPGGA,171052,2542.5084,N,07959.0493,W,1,9,2.0,13,M,,M,,*5D
05/28/2014	17:10:52.611	$GPGGA,171053,2542.5091,N,07959.0509,W,1,9,2.0,13,M,,M,,*5A
05/28/2014	17:10:53.584	$GPGGA,171054,2542.5098,N,07959.0525,W,1,9,2.0,13,M,,M,,*5A
05/28/2014	17:10:54.594	$GPGGA,171055,2542.5105,N,07959.0542,W,1,9,2.0,13,M,,M,,*5F
05/28/2014	17:10:55.619	$GPGGA,171056,2542.5112,N,07959.0557,W,1,9,2.0,13,M,,M,,*5E
05/28/2014	17:10:56.611	$GPGGA,171057,2542.5120,N,07959.0574,W,1,9,2.0,13,M,,M,,*5F
05/28/2014	17:10:57.604	$GPGGA,171058,2542.5127,N,07959.0589,W,1,9,2.0,13,M,,M,,*55
05/28/2014	17:10:58.617	$GPGGA,171059,2542.5132,N,07959.0604,W,1,9,2.0,13,M,,M,,*56
05/28/2014	17:10:59.619	$GPGGA,171100,2542.5139,N,07959.0619,W,1,9,2.0,13,M,,M,,*5C
05/28/2014	17:11:00.632	$GPGGA,171101,2542.5148,N,07959.0636,W,1,9,2.0,13,M,,M,,*56
05/28/2014	17:11:01.596	$GPGGA,171102,2542.5154,N,07959.0651,W,1,9,2.0,13,M,,M,,*59
05/28/2014	17:11:02.628	$GPGGA,171103,2542.5161,N,07959.0668,W,1,9,2.0,13,M,,M,,*54
05/28/2014	17:11:03.610	$GPGGA,171104,2542.5168,N,07959.0684,W,1,9,2.0,13,M,,M,,*58
05/28/2014	17:11:04.592	$GPGGA,171105,2542.5175,N,07959.0701,W,1,9,2.0,13,M,,M,,*59
05/28/2014	17:11:05.606	$GPGGA,171106,2542.5182,N,07959.0717,W,1,9,2.0,13,M,,M,,*55
05/28/2014	17:11:06.636	$GPGGA,171107,2542.5189,N,07959.0733,W,1,9,2.0,13,M,,M,,*59
05/28/2014	17:11:07.619	$GPGGA,171108,2542.5196,N,07959.0749,W,1,9,2.0,13,M,,M,,*55
05/28/2014	17:11:08.602	$GPGGA,171109,2542.5203,N,07959.0766,W,1,9,2.0,13,M,,M,,*56
05/28/2014	17:11:09.605	$GPGGA,171110,2542.5208,N,07959.0781,W,1,9,2.0,13,M,,M,,*5C
05/28/2014	17:11:10.597	$GPGGA,171111,2542.5215,N,07959.0798,W,1,9,2.0,13,M,,M,,*59
05/28/2014	17:11:11.622	$GPGGA,171112,2542.5222,N,07959.0814,W,1,9,2.0,13,M,,M,,*55
05/28/2014	17:11:12.612	$GPGGA,171113,2542.5229,N,07959.0831,W,1,9,2.0,13,M,,M,,*58
05/28/2014	17:11:13.715	$GPGGA,171114,2542.5237,N,07959.0846,W,1,9,2.0,13,M,,M,,*50
05/28/2014	17:11:14.608	$GPGGA,171115,2542.5243,N,07959.0863,W,1,9,2.0,13,M,,M,,*55
05/28/2014	17:11:15.630	$GPGGA,171116,2542.5251,N,07959.0879,W,1,9,2.0,13,M,,M,,*5E
05/28/2014	17:11:16.723	$GPGGA,171117,2542.5257,N,07959.0896,W,1,9,2.0,13,M,,M,,*58
05/28/2014	17:11:17.616	$GPGGA,171118,2542.5264,N,07959.0911,W,1,9,2.0,13,M,,M,,*59
05/28/2014	17:11:18.699	$GPGGA,171119,2542.5271,N,07959.0928,W,1,9,2.0,13,M,,M,,*56
05/28/2014	17:11:19.630	$GPGGA,171120,2542.5276,N,07959.0944,W,1,9,2.0,13,M,,M,,*51
05/28/2014	17:11:20.603	$GPGGA,171121,2542.5284,N,07959.0961,W,1,9,2.0,13,M,,M,,*5A
05/28/2014	17:11:21.615	$GPGGA,171122,2542.5291,N,07959.0976,W,1,9,2.0,13,M,,M,,*5B
05/28/2014	17:11:22.708	$GPGGA,171123,2542.5298,N,07959.0993,W,1,9,2.0,13,M,,M,,*58
05/28/2014	17:11:23.609	$GPGGA,171124,2542.5304,N,07959.1008,W,1,9,2.0,13,M,,M,,*51
05/28/2014	17:11:24.612	$GPGGA,171125,2542.5309,N,07959.1024,W,1,9,2.0,13,M,,M,,*53
05/28/2014	17:11:25.705	$GPGGA,171126,2542.5318,N,07959.1040,W,1,9,2.0,13,M,,M,,*52
05/28/2014	17:11:26.748	$GPGGA,171127,2542.5323,N,07959.1056,W,1,9,2.0,13,M,,M,,*5C
05/28/2014	17:11:27.720	$GPGGA,171128,2542.5330,N,07959.1073,W,1,9,2.0,13,M,,M,,*56
05/28/2014	17:11:28.713	$GPGGA,171129,2542.5337,N,07959.1088,W,1,9,2.0,13,M,,M,,*54
05/28/2014	17:11:29.715	$GPGGA,171130,2542.5344,N,07959.1105,W,1,9,2.0,13,M,,M,,*5C
05/28/2014	17:11:30.708	$GPGGA,171131,2542.5349,N,07959.1120,W,1,9,2.0,13,M,,M,,*57
05/28/2014	17:11:31.731	$GPGGA,171132,2542.5356,N,07959.1136,W,1,9,2.0,13,M,,M,,*5D
05/28/2014	17:11:32.733	$GPGGA,171133,2542.5363,N,07959.1152,W,1,9,2.0,13,M,,M,,*58
05/28/2014	17:11:33.706	$GPGGA,171134,2542.5369,N,07959.1168,W,1,9,2.0,13,M,,M,,*5C
05/28/2014	17:11:34.718	$GPGGA,171135,2542.5376,N,07959.1185,W,1,9,2.0,13,M,,M,,*50
05/28/2014	17:11:35.731	$GPGGA,171136,2542.5381,N,07959.1200,W,1,9,2.0,13,M,,M,,*55
05/28/2014	17:11:36.723	$GPGGA,171137,2542.5388,N,07959.1217,W,1,9,2.0,13,M,,M,,*5B
05/28/2014	17:11:37.716	$GPGGA,171138,2542.5395,N,07959.1233,W,1,9,2.0,13,M,,M,,*5E
05/28/2014	17:11:38.575	$GPGGA,171139,2542.5401,N,07959.1250,W,1,9,2.0,13,M,,M,,*50
05/28/2014	17:11:39.578	$GPGGA,171140,2542.5406,N,07959.1266,W,1,9,2.0,13,M,,M,,*5C
05/28/2014	17:11:40.589	$GPGGA,171141,2542.5414,N,07959.1283,W,1,9,2.0,13,M,,M,,*55
05/28/2014	17:11:41.561	$GPGGA,171142,2542.5421,N,07959.1300,W,1,9,2.0,13,M,,M,,*5A
05/28/2014	17:11:42.574	$GPGGA,171143,2542.5427,N,07959.1315,W,1,9,2.0,13,M,,M,,*59
05/28/2014	17:11:43.578	$GPGGA,171144,2542.5435,N,07959.1333,W,1,9,2.0,13,M,,M,,*59
05/28/2014	17:11:44.589	$GPGGA,171145,2542.5442,N,07959.1349,W,1,9,2.0,13,M,,M,,*55
05/28/2014	17:11:45.572	$GPGGA,171146,2542.5448,N,07959.1366,W,1,9,2.0,13,M,,M,,*51
05/28/2014	17:11:46.554	$GPGGA,171147,2542.5454,N,07959.1383,W,1,9,2.0,13,M,,M,,*56
05/28/2014	17:11:47.577	$GPGGA,171148,2542.5461,N,07959.1398,W,1,9,2.0,13,M,,M,,*55
05/28/2014	17:11:48.565	$GPGGA,171149,2542.5468,N,07959.1414,W,1,9,2.0,13,M,,M,,*5E
05/28/2014	17:11:49.572	$GPGGA,171150,2542.5474,N,07959.1431,W,1,9,2.0,13,M,,M,,*5C
05/28/2014	17:11:50.557	$GPGGA,171151,2542.5481,N,07959.1447,W,1,9,2.0,13,M,,M,,*56
