Software Version Number: 1	Data File Format Number: 1	Build Version Number: 1	Error Count Since VI Started: 0	Manufacturer: Raytheon	 Model Number: RayMarine 120	 S/N: 	 Cal Date: 	 Wind Direction Offset: 0.00	 Slope (M)1: 0.00	 Offset (B)1: 0.00	 Slope (M)2: 0.00	 Offset (B)2: 0.00	 Slope (M)3: 0.00	 Offset (B)3: 0.00	 Slope (M)4: 0.00	 Offset (B)4: 0.00	 Slope (M)5: 0.00	 Offset (B)5: 0.00	 Slope (M)6: 0.00	 Offset (B)6: 0.00
Computer Date	Computer Time	GGA String
05/29/2014	14:00:00.076	$GPGGA,135959,2543.1234,N,07919.5376,W,1,8,1.9,22,M,,M,,*57
05/29/2014	14:00:01.164	$GPGGA,140000,2543.1227,N,07919.5401,W,1,8,1.9,22,M,,M,,*55
05/29/2014	14:00:02.264	$GPGGA,140001,2543.1223,N,07919.5426,W,1,8,1.9,22,M,,M,,*55
05/29/2014	14:00:03.300	$GPGGA,140002,2543.1217,N,07919.5452,W,1,8,2.4,22,M,,M,,*5C
05/29/2014	14:00:04.379	$GPGGA,140003,2543.1212,N,07919.5478,W,1,8,1.9,22,M,,M,,*5E
05/29/2014	14:00:05.469	$GPGGA,140004,2543.1205,N,07919.5504,W,1,8,1.9,22,M,,M,,*55
05/29/2014	14:00:06.548	$GPGGA,140005,2543.1200,N,07919.5528,W,1,6,2.7,22,M,,M,,*5C
05/29/2014	14:00:07.605	$GPGGA,140006,2543.1196,N,07919.5553,W,1,6,1.9,22,M,,M,,*52
05/29/2014	14:00:08.695	$GPGGA,140007,2543.1189,N,07919.5578,W,1,8,1.9,22,M,,M,,*5A
05/29/2014	14:00:09.817	$GPGGA,140008,2543.1184,N,07919.5603,W,1,8,1.9,22,M,,M,,*57
05/29/2014	14:00:10.853	$GPGGA,140009,2543.1180,N,07919.5629,W,1,7,1.9,22,M,,M,,*55
05/29/2014	14:00:11.912	$GPGGA,140010,2543.1174,N,07919.5654,W,1,7,1.9,22,M,,M,,*5C
05/29/2014	14:00:13.000	$GPGGA,140011,2543.1169,N,07919.5679,W,1,8,1.9,22,M,,M,,*51
05/29/2014	14:00:14.079	$GPGGA,140012,2543.1167,N,07919.5702,W,1,8,1.9,22,M,,M,,*51
05/29/2014	14:00:15.158	$GPGGA,140013,2543.1163,N,07919.5727,W,1,8,1.9,22,M,,M,,*53
05/29/2014	14:00:16.205	$GPGGA,140014,2543.1158,N,07919.5753,W,1,8,1.9,22,M,,M,,*5F
05/29/2014	14:00:17.316	$GPGGA,140015,2543.1154,N,07919.5777,W,1,8,1.9,22,M,,M,,*54
05/29/2014	14:00:18.383	$GPGGA,140016,2543.1151,N,07919.5802,W,1,8,1.9,22,M,,M,,*5F
05/29/2014	14:00:19.441	$GPGGA,140017,2543.1147,N,07919.5827,W,1,8,1.9,22,M,,M,,*5E
05/29/2014	14:00:20.531	$GPGGA,140018,2543.1142,N,07919.5853,W,1,8,1.9,22,M,,M,,*57
05/29/2014	14:00:21.631	$GPGGA,140019,2543.1138,N,07919.5878,W,1,8,1.9,22,M,,M,,*52
05/29/2014	14:00:22.689	$GPGGA,140020,2543.1134,N,07919.5903,W,1,8,1.9,22,M,,M,,*59
05/29/2014	14:00:23.769	$GPGGA,140021,2543.1130,N,07919.5928,W,1,8,1.9,22,M,,M,,*55
05/29/2014	14:00:24.836	$GPGGA,140022,2543.1127,N,07919.5952,W,1,8,1.9,22,M,,M,,*5D
05/29/2014	14:00:25.947	$GPGGA,140023,2543.1125,N,07919.5976,W,1,8,1.9,22,M,,M,,*58
05/29/2014	14:00:28.526	$GPGGA,140025,2543.1120,N,07919.6026,W,1,8,1.9,23,M,,M,,*55
05/29/2014	14:00:29.141	$GPGGA,140026,2543.1119,N,07919.6051,W,1,8,1.9,23,M,,M,,*5C
05/29/2014	14:00:30.220	$GPGGA,140027,2543.1121,N,07919.6076,W,1,7,1.9,23,M,,M,,*5C
05/29/2014	14:00:31.310	$GPGGA,140028,2543.1120,N,07919.6102,W,1,7,1.9,23,M,,M,,*50
05/29/2014	14:00:32.410	$GPGGA,140029,2543.1122,N,07919.6127,W,1,8,1.9,23,M,,M,,*5B
05/29/2014	14:00:33.446	$GPGGA,140030,2543.1125,N,07919.6152,W,1,8,1.9,22,M,,M,,*57
05/29/2014	14:00:34.655	$GPGGA,140031,2543.1126,N,07919.6178,W,1,8,1.9,22,M,,M,,*5D
05/29/2014	14:00:35.615	$GPGGA,140032,2543.1129,N,07919.6203,W,1,8,1.9,22,M,,M,,*5E
05/29/2014	14:00:36.673	$GPGGA,140033,2543.1131,N,07919.6229,W,1,8,1.9,22,M,,M,,*5E
05/29/2014	14:00:37.849	$GPGGA,140034,2543.1133,N,07919.6255,W,1,8,1.9,22,M,,M,,*50
05/29/2014	14:00:38.851	$GPGGA,140035,2543.1135,N,07919.6282,W,1,8,1.9,22,M,,M,,*5D
05/29/2014	14:00:39.908	$GPGGA,140036,2543.1134,N,07919.6308,W,1,8,1.9,22,M,,M,,*5C
05/29/2014	14:00:40.989	$GPGGA,140037,2543.1139,N,07919.6331,W,1,7,1.9,22,M,,M,,*55
05/29/2014	14:00:42.164	$GPGGA,140038,2543.1138,N,07919.6358,W,1,7,1.9,22,M,,M,,*54
05/29/2014	14:00:43.232	$GPGGA,140039,2543.1137,N,07919.6381,W,1,8,1.9,22,M,,M,,*51
05/29/2014	14:00:44.224	$GPGGA,140040,2543.1140,N,07919.6405,W,1,8,1.9,22,M,,M,,*54
05/29/2014	14:00:40.694	$GPGGA,140041,2543.1137,N,07919.6431,W,1,8,1.9,22,M,,M,,*52
05/29/2014	14:00:41.730	$GPGGA,140042,2543.1135,N,07919.6456,W,1,8,1.9,22,M,,M,,*52
05/29/2014	14:00:42.701	$GPGGA,140043,2543.1134,N,07919.6479,W,1,8,1.9,22,M,,M,,*5F
05/29/2014	14:00:43.910	$GPGGA,140044,2543.1131,N,07919.6504,W,1,8,1.9,22,M,,M,,*56
05/29/2014	14:00:44.994	$GPGGA,140045,2543.1129,N,07919.6528,W,1,7,1.9,22,M,,M,,*5F
05/29/2014	14:00:46.035	$GPGGA,140046,2543.1124,N,07919.6553,W,1,7,1.9,22,M,,M,,*5D
05/29/2014	14:00:47.157	$GPGGA,140047,2543.1120,N,07919.6576,W,1,8,2.4,22,M,,M,,*5E
05/29/2014	14:00:48.204	$GPGGA,140048,2543.1115,N,07919.6600,W,1,8,1.9,22,M,,M,,*5B
05/29/2014	14:00:49.294	$GPGGA,140049,2543.1112,N,07919.6623,W,1,8,1.9,22,M,,M,,*5C
05/29/2014	14:00:50.351	$GPGGA,140050,2543.1106,N,07919.6647,W,1,8,1.9,22,M,,M,,*53
05/29/2014	14:00:51.450	$GPGGA,140051,2543.1101,N,07919.6671,W,1,8,1.9,22,M,,M,,*50
05/29/2014	14:00:52.508	$GPGGA,140052,2543.1096,N,07919.6695,W,1,8,1.9,22,M,,M,,*56
05/29/2014	14:00:53.598	$GPGGA,140053,2543.1089,N,07919.6720,W,1,8,1.9,22,M,,M,,*56
05/29/2014	14:00:54.666	$GPGGA,140054,2543.1083,N,07919.6745,W,1,8,1.9,22,M,,M,,*58
05/29/2014	14:00:55.746	$GPGGA,140055,2543.1078,N,07919.6768,W,1,8,1.9,22,M,,M,,*52
05/29/2014	14:00:56.825	$GPGGA,140056,2543.1070,N,07919.6793,W,1,8,1.9,22,M,,M,,*5D
05/29/2014	14:00:57.903	$GPGGA,140057,2543.1064,N,07919.6818,W,1,8,1.9,22,M,,M,,*55
05/29/2014	14:00:58.961	$GPGGA,140058,2543.1058,N,07919.6842,W,1,8,2.4,22,M,,M,,*54
05/29/2014	14:01:00.082	$GPGGA,140059,2543.1050,N,07919.6868,W,1,7,1.9,22,M,,M,,*54
05/29/2014	14:01:01.140	$GPGGA,140100,2543.1042,N,07919.6890,W,1,7,1.9,22,M,,M,,*5D
05/29/2014	14:01:02.208	$GPGGA,140101,2543.1035,N,07919.6915,W,1,8,1.9,22,M,,M,,*5F
05/29/2014	14:01:03.255	$GPGGA,140102,2543.1028,N,07919.6940,W,1,8,1.9,22,M,,M,,*50
05/29/2014	14:01:04.377	$GPGGA,140103,2543.1019,N,07919.6963,W,1,8,1.9,22,M,,M,,*52
05/29/2014	14:01:05.434	$GPGGA,140104,2543.1011,N,07919.6988,W,1,8,1.9,22,M,,M,,*58
05/29/2014	14:01:06.535	$GPGGA,140105,2543.1003,N,07919.7012,W,1,8,1.9,22,M,,M,,*51
05/29/2014	14:01:07.571	$GPGGA,140106,2543.0996,N,07919.7037,W,1,8,1.9,22,M,,M,,*51
05/29/2014	14:01:08.671	$GPGGA,140107,2543.0988,N,07919.7060,W,1,8,1.9,22,M,,M,,*5D
05/29/2014	14:01:09.743	$GPGGA,140108,2543.0981,N,07919.7085,W,1,8,1.9,22,M,,M,,*50
05/29/2014	14:01:10.762	$GPGGA,140109,2543.0972,N,07919.7108,W,1,8,1.9,22,M,,M,,*59
05/29/2014	14:01:11.781	$GPGGA,140110,2543.0965,N,07919.7133,W,1,8,1.9,22,M,,M,,*5F
05/29/2014	14:01:12.832	$GPGGA,140111,2543.0959,N,07919.7157,W,1,8,1.9,22,M,,M,,*53
05/29/2014	14:01:13.841	$GPGGA,140112,2543.0952,N,07919.7182,W,1,8,1.9,22,M,,M,,*53
05/29/2014	14:01:14.964	$GPGGA,140113,2543.0945,N,07919.7207,W,1,8,1.9,22,M,,M,,*5A
05/29/2014	14:01:15.994	$GPGGA,140114,2543.0938,N,07919.7232,W,1,8,1.9,22,M,,M,,*51
05/29/2014	14:01:16.931	$GPGGA,140115,2543.0931,N,07919.7256,W,1,7,1.9,22,M,,M,,*54
05/29/2014	14:01:17.951	$GPGGA,140116,2543.0925,N,07919.7281,W,1,7,1.9,22,M,,M,,*58
05/29/2014	14:01:18.982	$GPGGA,140117,2543.0919,N,07919.7305,W,1,8,1.9,22,M,,M,,*54
05/29/2014	14:01:20.083	$GPGGA,140118,2543.0914,N,07919.7331,W,1,8,1.9,22,M,,M,,*51
05/29/2014	14:01:21.042	$GPGGA,140119,2543.0914,N,07919.7331,W,1,8,1.9,22,M,,M,,*50
05/29/2014	14:01:22.092	$GPGGA,140120,2543.0903,N,07919.7382,W,1,8,1.9,22,M,,M,,*54
05/29/2014	14:01:23.111	$GPGGA,140121,2543.0898,N,07919.7407,W,1,7,1.9,22,M,,M,,*53
05/29/2014	14:01:24.112	$GPGGA,140122,2543.0893,N,07919.7432,W,1,7,1.9,22,M,,M,,*5D
05/29/2014	14:01:25.161	$GPGGA,140123,2543.0888,N,07919.7460,W,1,8,2.1,22,M,,M,,*55
05/29/2014	14:01:26.263	$GPGGA,140124,2543.0884,N,07919.7486,W,1,8,2.1,22,M,,M,,*56
05/29/2014	14:01:27.293	$GPGGA,140125,2543.0880,N,07919.7511,W,1,8,1.9,22,M,,M,,*57
05/29/2014	14:01:28.230	$GPGGA,140126,2543.0876,N,07919.7537,W,1,8,1.9,22,M,,M,,*59
05/29/2014	14:01:29.373	$GPGGA,140127,2543.0874,N,07919.7563,W,1,8,1.9,22,M,,M,,*5B
05/29/2014	14:01:30.382	$GPGGA,140128,2543.0871,N,07919.7590,W,1,8,1.9,22,M,,M,,*5D
05/29/2014	14:01:31.320	$GPGGA,140129,2543.0867,N,07919.7616,W,1,8,1.9,22,M,,M,,*56
05/29/2014	14:01:32.433	$GPGGA,140130,2543.0865,N,07919.7644,W,1,8,1.9,22,M,,M,,*5B
05/29/2014	14:01:33.452	$GPGGA,140131,2543.0863,N,07919.7670,W,1,8,1.9,23,M,,M,,*5A
05/29/2014	14:01:34.502	$GPGGA,140132,2543.0859,N,07919.7697,W,1,8,1.9,23,M,,M,,*59
05/29/2014	14:01:35.502	$GPGGA,140133,2543.0856,N,07919.7724,W,1,8,1.9,23,M,,M,,*5E
05/29/2014	14:01:36.543	$GPGGA,140134,2543.0855,N,07919.7750,W,1,8,1.9,23,M,,M,,*59
05/29/2014	14:01:37.583	$GPGGA,140135,2543.0852,N,07919.7778,W,1,8,1.9,23,M,,M,,*55
05/29/2014	14:01:38.612	$GPGGA,140136,2543.0851,N,07919.7803,W,1,8,1.9,23,M,,M,,*56
05/29/2014	14:01:39.612	$GPGGA,140137,2543.0848,N,07919.7830,W,1,8,1.9,23,M,,M,,*5F
05/29/2014	14:01:40.642	$GPGGA,140138,2543.0846,N,07919.7858,W,1,8,1.9,23,M,,M,,*50
05/29/2014	14:01:41.692	$GPGGA,140139,2543.0844,N,07919.7883,W,1,8,1.9,23,M,,M,,*55
05/29/2014	14:01:42.722	$GPGGA,140140,2543.0841,N,07919.7910,W,1,8,1.9,23,M,,M,,*55
05/29/2014	14:01:40.594	$GPGGA,140141,2543.0840,N,07919.7937,W,1,8,1.9,24,M,,M,,*57
05/29/2014	14:01:41.604	$GPGGA,140142,2543.0837,N,07919.7962,W,1,8,1.9,24,M,,M,,*54
05/29/2014	14:01:42.665	$GPGGA,140143,2543.0834,N,07919.7991,W,1,8,1.9,24,M,,M,,*5A
05/29/2014	14:01:43.673	$GPGGA,140144,2543.0833,N,07919.8017,W,1,8,1.9,24,M,,M,,*52
05/29/2014	14:01:44.713	$GPGGA,140145,2543.0829,N,07919.8042,W,1,8,1.9,24,M,,M,,*58
05/29/2014	14:01:45.723	$GPGGA,140146,2543.0826,N,07919.8069,W,1,8,1.9,24,M,,M,,*5D
05/29/2014	14:01:46.773	$GPGGA,140147,2543.0823,N,07919.8094,W,1,8,1.6,24,M,,M,,*54
05/29/2014	14:01:47.783	$GPGGA,140148,2543.0819,N,07919.8121,W,1,8,1.6,24,M,,M,,*5D
05/29/2014	14:01:48.792	$GPGGA,140149,2543.0815,N,07919.8147,W,1,8,1.6,24,M,,M,,*50
05/29/2014	14:01:49.832	$GPGGA,140150,2543.0812,N,07919.8173,W,1,8,1.8,24,M,,M,,*56
05/29/2014	14:01:50.883	$GPGGA,140151,2543.0809,N,07919.8201,W,1,8,1.6,24,M,,M,,*55
05/29/2014	14:01:51.903	$GPGGA,140152,2543.0805,N,07919.8227,W,1,8,1.6,24,M,,M,,*5E
05/29/2014	14:01:52.902	$GPGGA,140153,2543.0801,N,07919.8252,W,1,8,1.6,24,M,,M,,*59
05/29/2014	14:01:53.942	$GPGGA,140154,2543.0797,N,07919.8278,W,1,8,1.6,25,M,,M,,*57
05/29/2014	14:01:54.962	$GPGGA,140155,2543.0793,N,07919.8303,W,1,8,1.6,25,M,,M,,*5F
05/29/2014	14:01:56.012	$GPGGA,140156,2543.0788,N,07919.8329,W,1,8,1.7,25,M,,M,,*5F
05/29/2014	14:01:57.054	$GPGGA,140157,2543.0784,N,07919.8354,W,1,7,1.7,25,M,,M,,*57
05/29/2014	14:01:58.062	$GPGGA,140158,2543.0780,N,07919.8381,W,1,7,1.6,25,M,,M,,*55
05/29/2014	14:01:59.092	$GPGGA,140159,2543.0775,N,07919.8407,W,1,8,1.6,25,M,,M,,*58
05/29/2014	14:02:00.246	$GPGGA,140200,2543.0769,N,07919.8432,W,1,8,1.6,25,M,,M,,*5C
05/29/2014	14:02:01.141	$GPGGA,140201,2543.0764,N,07919.8458,W,1,8,1.6,25,M,,M,,*5C
05/29/2014	14:02:02.253	$GPGGA,140202,2543.0759,N,07919.8483,W,1,8,1.6,25,M,,M,,*57
05/29/2014	14:02:03.180	$GPGGA,140203,2543.0753,N,07919.8509,W,1,8,1.6,25,M,,M,,*5F
05/29/2014	14:02:04.344	$GPGGA,140204,2543.0748,N,07919.8533,W,1,8,1.6,25,M,,M,,*5B
05/29/2014	14:02:05.230	$GPGGA,140205,2543.0742,N,07919.8559,W,1,8,1.6,25,M,,M,,*5C
05/29/2014	14:02:06.260	$GPGGA,140206,2543.0736,N,07919.8584,W,1,8,1.6,25,M,,M,,*5C
05/29/2014	14:02:07.434	$GPGGA,140207,2543.0732,N,07919.8609,W,1,8,1.6,25,M,,M,,*5F
05/29/2014	14:02:08.340	$GPGGA,140208,2543.0725,N,07919.8632,W,1,8,1.6,25,M,,M,,*5E
05/29/2014	14:02:09.360	$GPGGA,140209,2543.0719,N,07919.8658,W,1,8,1.6,25,M,,M,,*5C
05/29/2014	14:02:10.390	$GPGGA,140210,2543.0714,N,07919.8682,W,1,8,1.6,25,M,,M,,*5E
05/29/2014	14:02:11.410	$GPGGA,140211,2543.0707,N,07919.8707,W,1,8,1.6,26,M,,M,,*52
05/29/2014	14:02:12.574	$GPGGA,140212,2543.0701,N,07919.8732,W,1,8,1.6,26,M,,M,,*51
05/29/2014	14:02:13.470	$GPGGA,140213,2543.0695,N,07919.8757,W,1,8,1.6,26,M,,M,,*5F
05/29/2014	14:02:14.582	$GPGGA,140214,2543.0688,N,07919.8783,W,1,8,1.6,26,M,,M,,*5D
05/29/2014	14:02:15.633	$GPGGA,140215,2543.0682,N,07919.8808,W,1,8,1.6,26,M,,M,,*5A
05/29/2014	14:02:16.663	$GPGGA,140216,2543.0676,N,07919.8833,W,1,8,1.6,26,M,,M,,*5A
05/29/2014	14:02:17.693	$GPGGA,140217,2543.0669,N,07919.8858,W,1,8,1.6,26,M,,M,,*58
05/29/2014	14:02:18.692	$GPGGA,140218,2543.0663,N,07919.8884,W,1,8,1.6,26,M,,M,,*5C
05/29/2014	14:02:19.752	$GPGGA,140219,2543.0656,N,07919.8909,W,1,8,1.6,26,M,,M,,*5F
05/29/2014	14:02:20.771	$GPGGA,140220,2543.0650,N,07919.8934,W,1,8,1.6,26,M,,M,,*5D
05/29/2014	14:02:21.801	$GPGGA,140221,2543.0645,N,07919.8959,W,1,8,1.6,26,M,,M,,*53
05/29/2014	14:02:22.811	$GPGGA,140222,2543.0638,N,07919.8983,W,1,8,1.6,26,M,,M,,*5D
05/29/2014	14:02:23.861	$GPGGA,140223,2543.0631,N,07919.9008,W,1,8,1.6,26,M,,M,,*5E
05/29/2014	14:02:24.892	$GPGGA,140224,2543.0625,N,07919.9035,W,1,8,1.6,26,M,,M,,*52
05/29/2014	14:02:25.921	$GPGGA,140225,2543.0620,N,07919.9059,W,1,8,1.6,26,M,,M,,*5C
05/29/2014	14:02:26.931	$GPGGA,140226,2543.0613,N,07919.9083,W,1,8,1.6,25,M,,M,,*5B
05/29/2014	14:02:27.951	$GPGGA,140227,2543.0606,N,07919.9109,W,1,9,1.6,25,M,,M,,*5C
05/29/2014	14:02:29.001	$GPGGA,140228,2543.0600,N,07919.9136,W,1,9,1.6,25,M,,M,,*59
05/29/2014	14:02:30.000	$GPGGA,140229,2543.0596,N,07919.9160,W,1,9,1.6,25,M,,M,,*57
05/29/2014	14:02:31.042	$GPGGA,140230,2543.0591,N,07919.9187,W,1,9,1.6,25,M,,M,,*51
05/29/2014	14:02:32.081	$GPGGA,140231,2543.0584,N,07919.9212,W,1,9,1.6,25,M,,M,,*5B
05/29/2014	14:02:33.101	$GPGGA,140232,2543.0580,N,07919.9236,W,1,9,1.6,25,M,,M,,*5A
05/29/2014	14:02:34.151	$GPGGA,140233,2543.0574,N,07919.9263,W,1,9,1.6,25,M,,M,,*50
05/29/2014	14:02:35.150	$GPGGA,140234,2543.0569,N,07919.9286,W,1,9,1.6,25,M,,M,,*50
05/29/2014	14:02:36.170	$GPGGA,140235,2543.0564,N,07919.9313,W,1,9,1.6,25,M,,M,,*51
05/29/2014	14:02:37.219	$GPGGA,140236,2543.0559,N,07919.9336,W,1,9,1.6,25,M,,M,,*5B
05/29/2014	14:02:38.219	$GPGGA,140237,2543.0555,N,07919.9361,W,1,7,1.9,25,M,,M,,*55
05/29/2014	14:02:39.259	$GPGGA,140238,2543.0549,N,07919.9387,W,1,7,1.9,25,M,,M,,*5F
05/29/2014	14:02:40.320	$GPGGA,140239,2543.0545,N,07919.9411,W,1,8,1.9,25,M,,M,,*55
05/29/2014	14:02:41.329	$GPGGA,140240,2543.0541,N,07919.9436,W,1,8,1.6,25,M,,M,,*55
05/29/2014	14:02:40.540	$GPGGA,140241,2543.0536,N,07919.9462,W,1,8,1.9,25,M,,M,,*5A
05/29/2014	14:02:41.570	$GPGGA,140242,2543.0533,N,07919.9487,W,1,8,1.6,25,M,,M,,*58
05/29/2014	14:02:42.610	$GPGGA,140243,2543.0529,N,07919.9513,W,1,9,1.6,25,M,,M,,*5F
05/29/2014	14:02:43.630	$GPGGA,140244,2543.0524,N,07919.9539,W,1,9,1.6,25,M,,M,,*5D
05/29/2014	14:02:44.649	$GPGGA,140245,2543.0520,N,07919.9564,W,1,9,1.6,25,M,,M,,*50
05/29/2014	14:02:45.679	$GPGGA,140246,2543.0518,N,07919.9590,W,1,9,1.6,25,M,,M,,*53
05/29/2014	14:02:46.700	$GPGGA,140247,2543.0515,N,07919.9617,W,1,9,1.6,25,M,,M,,*53
05/29/2014	14:02:47.760	$GPGGA,140248,2543.0509,N,07919.9642,W,1,9,1.6,25,M,,M,,*51
05/29/2014	14:02:48.903	$GPGGA,140249,2543.0508,N,07919.9667,W,1,9,1.6,25,M,,M,,*56
05/29/2014	14:02:49.793	$GPGGA,140250,2543.0504,N,07919.9693,W,1,9,1.6,25,M,,M,,*59
05/29/2014	14:02:50.840	$GPGGA,140251,2543.0499,N,07919.9718,W,1,9,1.6,25,M,,M,,*5F
05/29/2014	14:02:51.870	$GPGGA,140252,2543.0497,N,07919.9743,W,1,9,1.6,25,M,,M,,*5C
05/29/2014	14:02:52.900	$GPGGA,140253,2543.0494,N,07919.9769,W,1,9,1.6,25,M,,M,,*56
05/29/2014	14:02:54.001	$GPGGA,140254,2543.0490,N,07919.9795,W,1,9,1.6,25,M,,M,,*56
05/29/2014	14:02:55.041	$GPGGA,140255,2543.0486,N,07919.9820,W,1,9,1.6,25,M,,M,,*51
05/29/2014	14:02:55.978	$GPGGA,140256,2543.0484,N,07919.9846,W,1,9,1.6,25,M,,M,,*50
05/29/2014	14:02:57.091	$GPGGA,140257,2543.0480,N,07919.9873,W,1,9,1.6,25,M,,M,,*53
05/29/2014	14:02:58.018	$GPGGA,140258,2543.0477,N,07919.9897,W,1,9,1.6,25,M,,M,,*5E
05/29/2014	14:02:59.038	$GPGGA,140259,2543.0473,N,07919.9922,W,1,9,1.6,25,M,,M,,*54
05/29/2014	14:03:00.201	$GPGGA,140300,2543.0470,N,07919.9949,W,1,9,1.6,25,M,,M,,*57
05/29/2014	14:03:01.242	$GPGGA,140301,2543.0468,N,07919.9975,W,1,9,1.6,25,M,,M,,*50
05/29/2014	14:03:02.230	$GPGGA,140302,2543.0463,N,07920.0000,W,1,9,1.6,25,M,,M,,*50
05/29/2014	14:03:03.291	$GPGGA,140303,2543.0459,N,07920.0026,W,1,9,1.6,25,M,,M,,*5C
05/29/2014	14:03:04.301	$GPGGA,140304,2543.0457,N,07920.0051,W,1,9,1.6,25,M,,M,,*55
05/29/2014	14:03:05.320	$GPGGA,140305,2543.0454,N,07920.0077,W,1,9,1.6,25,M,,M,,*53
05/29/2014	14:03:06.340	$GPGGA,140306,2543.0450,N,07920.0103,W,1,9,1.6,25,M,,M,,*56
05/29/2014	14:03:07.381	$GPGGA,140307,2543.0447,N,07920.0128,W,1,8,1.9,25,M,,M,,*56
05/29/2014	14:03:08.410	$GPGGA,140308,2543.0444,N,07920.0153,W,1,8,1.9,25,M,,M,,*56
05/29/2014	14:03:09.431	$GPGGA,140309,2543.0440,N,07920.0180,W,1,8,1.9,25,M,,M,,*5D
05/29/2014	14:03:10.460	$GPGGA,140310,2543.0434,N,07920.0206,W,1,8,1.9,25,M,,M,,*5B
05/29/2014	14:03:11.489	$GPGGA,140311,2543.0432,N,07920.0231,W,1,8,1.9,25,M,,M,,*58
05/29/2014	14:03:12.520	$GPGGA,140312,2543.0426,N,07920.0257,W,1,8,1.9,25,M,,M,,*5E
05/29/2014	14:03:13.559	$GPGGA,140313,2543.0421,N,07920.0282,W,1,8,1.6,25,M,,M,,*5F
05/29/2014	14:03:14.548	$GPGGA,140314,2543.0416,N,07920.0305,W,1,8,1.6,25,M,,M,,*52
05/29/2014	14:03:15.609	$GPGGA,140315,2543.0411,N,07920.0332,W,1,9,1.6,25,M,,M,,*51
05/29/2014	14:03:16.629	$GPGGA,140316,2543.0405,N,07920.0357,W,1,9,1.6,25,M,,M,,*54
05/29/2014	14:03:17.669	$GPGGA,140317,2543.0403,N,07920.0380,W,1,8,1.9,25,M,,M,,*57
05/29/2014	14:03:18.668	$GPGGA,140318,2543.0396,N,07920.0405,W,1,8,1.9,25,M,,M,,*59
05/29/2014	14:03:19.729	$GPGGA,140319,2543.0392,N,07920.0431,W,1,8,1.6,25,M,,M,,*54
05/29/2014	14:03:20.738	$GPGGA,140320,2543.0388,N,07920.0455,W,1,8,1.6,25,M,,M,,*57
05/29/2014	14:03:21.748	$GPGGA,140321,2543.0385,N,07920.0481,W,1,9,1.6,25,M,,M,,*53
05/29/2014	14:03:22.788	$GPGGA,140322,2543.0379,N,07920.0507,W,1,9,1.6,25,M,,M,,*5C
05/29/2014	14:03:23.818	$GPGGA,140323,2543.0374,N,07920.0531,W,1,9,1.6,25,M,,M,,*55
05/29/2014	14:03:24.838	$GPGGA,140324,2543.0370,N,07920.0557,W,1,9,1.6,25,M,,M,,*56
05/29/2014	14:03:25.868	$GPGGA,140325,2543.0364,N,07920.0582,W,1,9,1.6,25,M,,M,,*5A
05/29/2014	14:03:26.899	$GPGGA,140326,2543.0360,N,07920.0607,W,1,9,1.6,25,M,,M,,*53
05/29/2014	14:03:27.918	$GPGGA,140327,2543.0354,N,07920.0632,W,1,9,1.6,24,M,,M,,*52
05/29/2014	14:03:28.967	$GPGGA,140328,2543.0349,N,07920.0657,W,1,9,1.6,24,M,,M,,*52
05/29/2014	14:03:29.987	$GPGGA,140329,2543.0345,N,07920.0681,W,1,9,1.6,24,M,,M,,*54
05/29/2014	14:03:31.099	$GPGGA,140330,2543.0338,N,07920.0705,W,1,9,1.6,24,M,,M,,*5B
05/29/2014	14:03:32.067	$GPGGA,140331,2543.0333,N,07920.0730,W,1,9,1.6,24,M,,M,,*57
05/29/2014	14:03:33.077	$GPGGA,140332,2543.0328,N,07920.0755,W,1,9,1.6,24,M,,M,,*5D
05/29/2014	14:03:34.107	$GPGGA,140333,2543.0322,N,07920.0781,W,1,9,1.6,24,M,,M,,*5F
05/29/2014	14:03:35.209	$GPGGA,140334,2543.0316,N,07920.0806,W,1,9,1.6,24,M,,M,,*5F
05/29/2014	14:03:36.146	$GPGGA,140335,2543.0313,N,07920.0831,W,1,9,1.6,24,M,,M,,*5F
05/29/2014	14:03:37.188	$GPGGA,140336,2543.0306,N,07920.0856,W,1,9,1.6,24,M,,M,,*59
05/29/2014	14:03:38.217	$GPGGA,140337,2543.0300,N,07920.0882,W,1,9,1.6,24,M,,M,,*57
05/29/2014	14:03:39.319	$GPGGA,140338,2543.0296,N,07920.0907,W,1,9,1.6,24,M,,M,,*5A
05/29/2014	14:03:40.266	$GPGGA,140339,2543.0291,N,07920.0930,W,1,8,1.6,24,M,,M,,*59
05/29/2014	14:03:41.307	$GPGGA,140340,2543.0285,N,07920.0957,W,1,8,1.6,24,M,,M,,*53
05/29/2014	14:03:40.527	$GPGGA,140341,2543.0280,N,07920.0982,W,1,9,1.6,24,M,,M,,*5E
05/29/2014	14:03:41.548	$GPGGA,140342,2543.0276,N,07920.1008,W,1,9,1.6,24,M,,M,,*5E
05/29/2014	14:03:42.752	$GPGGA,140343,2543.0273,N,07920.1034,W,1,9,1.6,23,M,,M,,*52
05/29/2014	14:03:43.607	$GPGGA,140344,2543.0266,N,07920.1060,W,1,9,1.6,23,M,,M,,*50
05/29/2014	14:03:44.812	$GPGGA,140345,2543.0262,N,07920.1085,W,1,8,1.6,23,M,,M,,*5F
05/29/2014	14:03:45.779	$GPGGA,140346,2543.0258,N,07920.1111,W,1,8,1.6,23,M,,M,,*59
05/29/2014	14:03:46.881	$GPGGA,140347,2543.0252,N,07920.1136,W,1,9,1.6,23,M,,M,,*56
05/29/2014	14:03:47.850	$GPGGA,140348,2543.0247,N,07920.1160,W,1,9,1.6,23,M,,M,,*5E
05/29/2014	14:03:48.941	$GPGGA,140349,2543.0244,N,07920.1185,W,1,9,1.6,23,M,,M,,*57
05/29/2014	14:03:49.879	$GPGGA,140350,2543.0238,N,07920.1210,W,1,9,1.6,23,M,,M,,*5B
05/29/2014	14:03:51.942	$GPGGA,140351,2543.0233,N,07920.1236,W,1,9,1.6,23,M,,M,,*55
05/29/2014	14:03:51.959	$GPGGA,140352,2543.0229,N,07920.1261,W,1,9,1.6,23,M,,M,,*5F
05/29/2014	14:03:52.938	$GPGGA,140353,2543.0226,N,07920.1286,W,1,8,1.7,23,M,,M,,*58
05/29/2014	14:03:54.011	$GPGGA,140354,2543.0221,N,07920.1312,W,1,8,1.4,23,M,,M,,*57
05/29/2014	14:03:55.111	$GPGGA,140355,2543.0217,N,07920.1340,W,1,9,1.4,23,M,,M,,*55
05/29/2014	14:03:56.069	$GPGGA,140356,2543.0213,N,07920.1366,W,1,9,1.4,23,M,,M,,*56
05/29/2014	14:03:57.130	$GPGGA,140357,2543.0209,N,07920.1392,W,1,9,1.4,23,M,,M,,*57
05/29/2014	14:03:58.088	$GPGGA,140358,2543.0204,N,07920.1420,W,1,9,1.4,23,M,,M,,*5B
05/29/2014	14:03:59.107	$GPGGA,140359,2543.0201,N,07920.1446,W,1,9,1.4,23,M,,M,,*5F
05/29/2014	14:04:00.199	$GPGGA,140400,2543.0197,N,07920.1474,W,1,9,1.4,23,M,,M,,*59
05/29/2014	14:04:01.157	$GPGGA,140401,2543.0191,N,07920.1499,W,1,9,1.4,23,M,,M,,*5D
05/29/2014	14:04:02.218	$GPGGA,140402,2543.0187,N,07920.1525,W,1,9,1.4,23,M,,M,,*5F
05/29/2014	14:04:03.216	$GPGGA,140403,2543.0184,N,07920.1548,W,1,9,1.6,23,M,,M,,*54
05/29/2014	14:04:04.287	$GPGGA,140404,2543.0181,N,07920.1575,W,1,9,1.6,23,M,,M,,*58
05/29/2014	14:04:05.348	$GPGGA,140405,2543.0177,N,07920.1598,W,1,9,1.6,23,M,,M,,*53
05/29/2014	14:04:06.337	$GPGGA,140406,2543.0174,N,07920.1623,W,1,9,1.6,23,M,,M,,*50
05/29/2014	14:04:07.429	$GPGGA,140407,2543.0172,N,07920.1649,W,1,9,1.6,23,M,,M,,*5B
05/29/2014	14:04:08.407	$GPGGA,140408,2543.0168,N,07920.1673,W,1,9,1.6,23,M,,M,,*56
05/29/2014	14:04:09.520	$GPGGA,140409,2543.0163,N,07920.1699,W,1,9,1.6,23,M,,M,,*58
05/29/2014	14:04:10.436	$GPGGA,140410,2543.0161,N,07920.1724,W,1,9,1.6,23,M,,M,,*55
05/29/2014	14:04:11.559	$GPGGA,140411,2543.0157,N,07920.1749,W,1,9,1.6,23,M,,M,,*5A
05/29/2014	14:04:12.530	$GPGGA,140412,2543.0154,N,07920.1775,W,1,9,1.6,23,M,,M,,*55
05/29/2014	14:04:13.598	$GPGGA,140413,2543.0150,N,07920.1799,W,1,9,1.6,23,M,,M,,*52
05/29/2014	14:04:14.536	$GPGGA,140414,2543.0146,N,07920.1825,W,1,9,1.6,23,M,,M,,*5A
05/29/2014	14:04:15.679	$GPGGA,140415,2543.0143,N,07920.1851,W,1,9,1.6,23,M,,M,,*5D
05/29/2014	14:04:16.627	$GPGGA,140416,2543.0139,N,07920.1876,W,1,9,1.6,23,M,,M,,*56
05/29/2014	14:04:17.701	$GPGGA,140417,2543.0134,N,07920.1901,W,1,9,1.6,23,M,,M,,*5B
05/29/2014	14:04:18.738	$GPGGA,140418,2543.0130,N,07920.1929,W,1,9,1.4,23,M,,M,,*58
05/29/2014	14:04:19.768	$GPGGA,140419,2543.0125,N,07920.1958,W,1,9,1.4,23,M,,M,,*5B
05/29/2014	14:04:20.747	$GPGGA,140420,2543.0121,N,07920.1987,W,1,9,1.5,23,M,,M,,*56
05/29/2014	14:04:21.858	$GPGGA,140421,2543.0112,N,07920.2016,W,1,8,1.4,23,M,,M,,*55
05/29/2014	14:04:22.795	$GPGGA,140422,2543.0107,N,07920.2042,W,1,8,1.4,23,M,,M,,*53
05/29/2014	14:04:23.887	$GPGGA,140423,2543.0103,N,07920.2068,W,1,9,1.4,23,M,,M,,*5F
05/29/2014	14:04:24.866	$GPGGA,140424,2543.0097,N,07920.2093,W,1,9,1.6,23,M,,M,,*52
05/29/2014	14:04:25.947	$GPGGA,140425,2543.0092,N,07920.2117,W,1,9,1.6,23,M,,M,,*5B
05/29/2014	14:04:26.977	$GPGGA,140426,2543.0089,N,07920.2143,W,1,9,1.6,23,M,,M,,*53
05/29/2014	14:04:28.028	$GPGGA,140427,2543.0083,N,07920.2168,W,1,9,1.6,23,M,,M,,*51
05/29/2014	14:04:29.038	$GPGGA,140428,2543.0078,N,07920.2193,W,1,9,1.4,23,M,,M,,*5C
05/29/2014	14:04:30.067	$GPGGA,140429,2543.0074,N,07920.2218,W,1,9,1.6,23,M,,M,,*53
05/29/2014	14:04:31.078	$GPGGA,140430,2543.0070,N,07920.2243,W,1,9,1.6,23,M,,M,,*51
05/29/2014	14:04:32.148	$GPGGA,140431,2543.0064,N,07920.2267,W,1,9,1.6,23,M,,M,,*53
05/29/2014	14:04:34.496	$GPGGA,140433,2543.0056,N,07920.2321,W,1,9,1.4,23,M,,M,,*51
05/29/2014	14:04:35.176	$GPGGA,140434,2543.0056,N,07920.2321,W,1,9,1.4,23,M,,M,,*56
05/29/2014	14:04:36.237	$GPGGA,140435,2543.0049,N,07920.2348,W,1,9,1.4,23,M,,M,,*56
05/29/2014	14:04:37.257	$GPGGA,140436,2543.0038,N,07920.2399,W,1,9,1.4,23,M,,M,,*5F
05/29/2014	14:04:38.299	$GPGGA,140437,2543.0034,N,07920.2424,W,1,9,1.4,23,M,,M,,*53
05/29/2014	14:04:39.297	$GPGGA,140438,2543.0029,N,07920.2450,W,1,9,1.4,23,M,,M,,*53
05/29/2014	14:04:40.356	$GPGGA,140439,2543.0023,N,07920.2476,W,1,9,1.4,23,M,,M,,*5C
05/29/2014	14:04:41.355	$GPGGA,140440,2543.0020,N,07920.2501,W,1,9,1.4,23,M,,M,,*50
05/29/2014	14:04:40.619	$GPGGA,140441,2543.0014,N,07920.2527,W,1,9,1.4,23,M,,M,,*52
05/29/2014	14:04:41.597	$GPGGA,140442,2543.0009,N,07920.2551,W,1,9,1.6,23,M,,M,,*5E
05/29/2014	14:04:42.657	$GPGGA,140443,2543.0009,N,07920.2551,W,1,9,1.6,23,M,,M,,*5F
05/29/2014	14:04:43.678	$GPGGA,140444,2543.0000,N,07920.2601,W,1,9,1.6,23,M,,M,,*57
05/29/2014	14:04:44.728	$GPGGA,140445,2542.9995,N,07920.2626,W,1,9,1.6,23,M,,M,,*5E
05/29/2014	14:04:45.716	$GPGGA,140446,2542.9991,N,07920.2652,W,1,9,1.6,23,M,,M,,*5A
05/29/2014	14:04:46.798	$GPGGA,140447,2542.9985,N,07920.2681,W,1,10,1.4,24,M,,M,,*6D
05/29/2014	14:04:47.797	$GPGGA,140448,2542.9980,N,07920.2709,W,1,10,1.4,24,M,,M,,*66
05/29/2014	14:04:48.858	$GPGGA,140449,2542.9974,N,07920.2735,W,1,10,1.4,24,M,,M,,*63
05/29/2014	14:04:49.847	$GPGGA,140450,2542.9969,N,07920.2762,W,1,10,1.4,24,M,,M,,*65
05/29/2014	14:04:50.877	$GPGGA,140451,2542.9969,N,07920.2762,W,1,10,1.4,24,M,,M,,*64
05/29/2014	14:04:51.917	$GPGGA,140452,2542.9960,N,07920.2811,W,1,10,1.4,24,M,,M,,*65
05/29/2014	14:04:52.916	$GPGGA,140453,2542.9960,N,07920.2811,W,1,10,1.4,24,M,,M,,*64
05/29/2014	14:04:54.059	$GPGGA,140454,2542.9951,N,07920.2861,W,1,10,1.6,24,M,,M,,*64
05/29/2014	14:04:54.998	$GPGGA,140455,2542.9951,N,07920.2861,W,1,10,1.4,24,M,,M,,*67
05/29/2014	14:04:56.005	$GPGGA,140456,2542.9941,N,07920.2912,W,1,10,1.4,24,M,,M,,*60
05/29/2014	14:04:57.179	$GPGGA,140457,2542.9937,N,07920.2937,W,1,10,1.4,24,M,,M,,*67
05/29/2014	14:04:58.075	$GPGGA,140458,2542.9931,N,07920.2962,W,1,10,1.4,24,M,,M,,*6E
05/29/2014	14:04:59.198	$GPGGA,140459,2542.9931,N,07920.2962,W,1,10,1.4,24,M,,M,,*6F
05/29/2014	14:05:00.135	$GPGGA,140500,2542.9923,N,07920.3013,W,1,10,1.5,24,M,,M,,*6E
05/29/2014	14:05:01.279	$GPGGA,140501,2542.9923,N,07920.3013,W,1,9,1.6,24,M,,M,,*54
05/29/2014	14:05:02.175	$GPGGA,140502,2542.9915,N,07920.3060,W,1,9,1.6,24,M,,M,,*56
05/29/2014	14:05:03.267	$GPGGA,140503,2542.9909,N,07920.3085,W,1,9,1.6,24,M,,M,,*51
05/29/2014	14:05:04.348	$GPGGA,140504,2542.9904,N,07920.3108,W,1,9,1.6,24,M,,M,,*5F
05/29/2014	14:05:05.399	$GPGGA,140505,2542.9904,N,07920.3108,W,1,9,1.6,24,M,,M,,*5E
05/29/2014	14:05:06.284	$GPGGA,140506,2542.9894,N,07920.3157,W,1,9,1.9,24,M,,M,,*50
05/29/2014	14:05:07.314	$GPGGA,140507,2542.9890,N,07920.3180,W,1,9,1.6,24,M,,M,,*50
05/29/2014	14:05:08.458	$GPGGA,140508,2542.9885,N,07920.3205,W,1,9,1.6,24,M,,M,,*55
05/29/2014	14:05:09.499	$GPGGA,140509,2542.9880,N,07920.3230,W,1,9,1.6,24,M,,M,,*57
05/29/2014	14:05:10.394	$GPGGA,140510,2542.9876,N,07920.3255,W,1,9,1.6,24,M,,M,,*55
05/29/2014	14:05:11.434	$GPGGA,140511,2542.9876,N,07920.3255,W,1,9,1.6,24,M,,M,,*54
05/29/2014	14:05:12.549	$GPGGA,140512,2542.9870,N,07920.3305,W,1,9,1.9,24,M,,M,,*5A
05/29/2014	14:05:13.504	$GPGGA,140513,2542.9870,N,07920.3305,W,1,8,1.9,24,M,,M,,*5A
05/29/2014	14:05:14.596	$GPGGA,140514,2542.9863,N,07920.3353,W,1,8,1.6,24,M,,M,,*53
05/29/2014	14:05:17.716	$GPGGA,140517,2542.9852,N,07920.3426,W,1,8,1.9,24,M,,M,,*58
05/29/2014	14:05:18.705	$GPGGA,140518,2542.9850,N,07920.3452,W,1,8,1.9,24,M,,M,,*56
05/29/2014	14:05:19.756	$GPGGA,140519,2542.9844,N,07920.3477,W,1,8,1.9,24,M,,M,,*55
05/29/2014	14:05:20.776	$GPGGA,140520,2542.9840,N,07920.3502,W,1,8,1.6,24,M,,M,,*57
05/29/2014	14:05:21.828	$GPGGA,140521,2542.9836,N,07920.3530,W,1,8,1.9,23,M,,M,,*5E
05/29/2014	14:05:22.825	$GPGGA,140522,2542.9836,N,07920.3555,W,1,8,1.9,23,M,,M,,*5E
05/29/2014	14:05:23.866	$GPGGA,140523,2542.9832,N,07920.3580,W,1,9,1.6,23,M,,M,,*5D
05/29/2014	14:05:24.896	$GPGGA,140524,2542.9828,N,07920.3605,W,1,9,1.6,23,M,,M,,*5F
05/29/2014	14:05:25.936	$GPGGA,140525,2542.9826,N,07920.3631,W,1,9,1.6,23,M,,M,,*57
05/29/2014	14:05:26.935	$GPGGA,140526,2542.9822,N,07920.3656,W,1,9,1.9,23,M,,M,,*5E
05/29/2014	14:05:27.955	$GPGGA,140527,2542.9818,N,07920.3681,W,1,9,1.6,23,M,,M,,*53
05/29/2014	14:05:28.996	$GPGGA,140528,2542.9814,N,07920.3707,W,1,9,1.6,23,M,,M,,*5F
05/29/2014	14:05:30.004	$GPGGA,140529,2542.9811,N,07920.3732,W,1,7,1.9,23,M,,M,,*5C
05/29/2014	14:05:31.045	$GPGGA,140530,2542.9805,N,07920.3758,W,1,7,1.6,23,M,,M,,*52
05/29/2014	14:05:32.094	$GPGGA,140531,2542.9803,N,07920.3783,W,1,9,1.6,23,M,,M,,*5D
05/29/2014	14:05:33.114	$GPGGA,140532,2542.9799,N,07920.3809,W,1,9,1.9,23,M,,M,,*50
05/29/2014	14:05:34.144	$GPGGA,140533,2542.9796,N,07920.3835,W,1,8,1.9,23,M,,M,,*50
05/29/2014	14:05:35.143	$GPGGA,140534,2542.9790,N,07920.3862,W,1,8,1.9,23,M,,M,,*53
05/29/2014	14:05:36.204	$GPGGA,140535,2542.9785,N,07920.3888,W,1,9,1.6,23,M,,M,,*5C
05/29/2014	14:05:37.225	$GPGGA,140536,2542.9782,N,07920.3913,W,1,9,1.9,23,M,,M,,*54
05/29/2014	14:05:38.243	$GPGGA,140537,2542.9778,N,07920.3938,W,1,8,1.9,23,M,,M,,*58
05/29/2014	14:05:39.708	$GPGGA,140538,2542.9771,N,07920.3964,W,1,8,1.6,23,M,,M,,*58
05/29/2014	14:05:40.294	$GPGGA,140539,2542.9767,N,07920.3989,W,1,9,1.6,23,M,,M,,*5C
05/29/2014	14:05:41.323	$GPGGA,140540,2542.9762,N,07920.4014,W,1,9,1.6,23,M,,M,,*5D
05/29/2014	14:05:40.544	$GPGGA,140541,2542.9757,N,07920.4040,W,1,9,1.6,23,M,,M,,*5B
05/29/2014	14:05:41.584	$GPGGA,140542,2542.9751,N,07920.4065,W,1,9,1.6,23,M,,M,,*59
05/29/2014	14:05:42.646	$GPGGA,140543,2542.9747,N,07920.4090,W,1,9,1.6,23,M,,M,,*55
05/29/2014	14:05:43.644	$GPGGA,140544,2542.9743,N,07920.4116,W,1,9,1.6,23,M,,M,,*59
05/29/2014	14:05:44.664	$GPGGA,140545,2542.9738,N,07920.4141,W,1,9,1.6,23,M,,M,,*56
05/29/2014	14:05:45.683	$GPGGA,140546,2542.9732,N,07920.4167,W,1,9,1.6,23,M,,M,,*5B
05/29/2014	14:05:46.734	$GPGGA,140547,2542.9727,N,07920.4195,W,1,10,1.4,23,M,,M,,*69
05/29/2014	14:05:47.753	$GPGGA,140548,2542.9721,N,07920.4220,W,1,10,1.4,23,M,,M,,*6D
05/29/2014	14:05:48.762	$GPGGA,140549,2542.9716,N,07920.4246,W,1,9,1.6,23,M,,M,,*52
05/29/2014	14:05:49.895	$GPGGA,140550,2542.9710,N,07920.4274,W,1,9,1.4,23,M,,M,,*5F
05/29/2014	14:05:50.843	$GPGGA,140551,2542.9706,N,07920.4300,W,1,10,1.4,23,M,,M,,*63
05/29/2014	14:05:51.976	$GPGGA,140552,2542.9700,N,07920.4326,W,1,10,1.4,23,M,,M,,*62
05/29/2014	14:05:52.985	$GPGGA,140553,2542.9695,N,07920.4353,W,1,10,1.4,23,M,,M,,*6C
05/29/2014	14:05:53.912	$GPGGA,140554,2542.9691,N,07920.4378,W,1,10,1.4,23,M,,M,,*66
05/29/2014	14:05:55.076	$GPGGA,140555,2542.9685,N,07920.4402,W,1,10,1.4,23,M,,M,,*68
05/29/2014	14:05:56.075	$GPGGA,140556,2542.9680,N,07920.4427,W,1,10,1.6,23,M,,M,,*6B
05/29/2014	14:05:57.012	$GPGGA,140557,2542.9677,N,07920.4451,W,1,9,1.6,23,M,,M,,*5B
05/29/2014	14:05:58.116	$GPGGA,140558,2542.9673,N,07920.4476,W,1,9,1.6,23,M,,M,,*55
05/29/2014	14:05:59.144	$GPGGA,140559,2542.9667,N,07920.4501,W,1,9,1.6,23,M,,M,,*50
05/29/2014	14:06:00.216	$GPGGA,140600,2542.9663,N,07920.4527,W,1,9,1.6,23,M,,M,,*5F
05/29/2014	14:06:01.246	$GPGGA,140601,2542.9659,N,07920.4552,W,1,9,1.6,23,M,,M,,*55
05/29/2014	14:06:02.143	$GPGGA,140602,2542.9655,N,07920.4578,W,1,9,1.6,23,M,,M,,*52
05/29/2014	14:06:03.276	$GPGGA,140603,2542.9650,N,07920.4603,W,1,9,1.6,23,M,,M,,*59
05/29/2014	14:06:04.306	$GPGGA,140604,2542.9648,N,07920.4628,W,1,9,1.6,23,M,,M,,*5E
05/29/2014	14:06:05.314	$GPGGA,140605,2542.9642,N,07920.4654,W,1,9,1.6,23,M,,M,,*5E
05/29/2014	14:06:06.343	$GPGGA,140606,2542.9637,N,07920.4679,W,1,9,1.6,23,M,,M,,*50
05/29/2014	14:06:07.394	$GPGGA,140607,2542.9633,N,07920.4705,W,1,9,1.6,23,M,,M,,*5F
05/29/2014	14:06:08.410	$GPGGA,140608,2542.9630,N,07920.4730,W,1,9,1.6,23,M,,M,,*55
05/29/2014	14:06:09.424	$GPGGA,140609,2542.9624,N,07920.4755,W,1,8,1.7,23,M,,M,,*52
05/29/2014	14:06:10.415	$GPGGA,140610,2542.9621,N,07920.4780,W,1,8,1.6,23,M,,M,,*56
05/29/2014	14:06:11.417	$GPGGA,140611,2542.9619,N,07920.4805,W,1,9,1.6,23,M,,M,,*5F
05/29/2014	14:06:12.451	$GPGGA,140612,2542.9614,N,07920.4830,W,1,9,1.6,23,M,,M,,*57
05/29/2014	14:06:13.462	$GPGGA,140613,2542.9610,N,07920.4855,W,1,9,1.6,23,M,,M,,*51
05/29/2014	14:06:14.454	$GPGGA,140614,2542.9608,N,07920.4881,W,1,9,1.6,23,M,,M,,*56
05/29/2014	14:06:15.467	$GPGGA,140615,2542.9604,N,07920.4906,W,1,9,1.6,23,M,,M,,*55
05/29/2014	14:06:16.500	$GPGGA,140616,2542.9601,N,07920.4931,W,1,9,1.6,22,M,,M,,*56
05/29/2014	14:06:17.481	$GPGGA,140617,2542.9595,N,07920.4957,W,1,8,1.8,22,M,,M,,*56
05/29/2014	14:06:18.505	$GPGGA,140618,2542.9591,N,07920.4982,W,1,8,1.6,22,M,,M,,*5B
05/29/2014	14:06:19.526	$GPGGA,140619,2542.9588,N,07920.5007,W,1,9,1.6,22,M,,M,,*56
05/29/2014	14:06:20.539	$GPGGA,140620,2542.9583,N,07920.5032,W,1,9,1.8,22,M,,M,,*5F
05/29/2014	14:06:21.521	$GPGGA,140621,2542.9579,N,07920.5058,W,1,9,1.6,22,M,,M,,*59
05/29/2014	14:06:22.543	$GPGGA,140622,2542.9576,N,07920.5083,W,1,9,1.6,22,M,,M,,*53
05/29/2014	14:06:23.545	$GPGGA,140623,2542.9572,N,07920.5108,W,1,9,1.6,22,M,,M,,*54
05/29/2014	14:06:24.577	$GPGGA,140624,2542.9568,N,07920.5134,W,1,9,1.6,22,M,,M,,*57
05/29/2014	14:06:25.571	$GPGGA,140625,2542.9565,N,07920.5159,W,1,9,1.6,22,M,,M,,*50
05/29/2014	14:06:26.592	$GPGGA,140626,2542.9561,N,07920.5186,W,1,9,1.6,22,M,,M,,*55
05/29/2014	14:06:27.614	$GPGGA,140627,2542.9558,N,07920.5211,W,1,9,1.6,22,M,,M,,*53
05/29/2014	14:06:28.607	$GPGGA,140628,2542.9554,N,07920.5238,W,1,9,1.6,22,M,,M,,*5B
05/29/2014	14:06:29.609	$GPGGA,140629,2542.9551,N,07920.5264,W,1,9,1.6,22,M,,M,,*56
05/29/2014	14:06:30.622	$GPGGA,140630,2542.9549,N,07920.5289,W,1,9,1.6,22,M,,M,,*54
05/29/2014	14:06:31.645	$GPGGA,140631,2542.9544,N,07920.5315,W,1,9,1.6,22,M,,M,,*5C
05/29/2014	14:06:32.647	$GPGGA,140632,2542.9541,N,07920.5340,W,1,9,1.7,22,M,,M,,*5B
05/29/2014	14:06:33.669	$GPGGA,140633,2542.9539,N,07920.5368,W,1,9,1.6,22,M,,M,,*5E
05/29/2014	14:06:34.671	$GPGGA,140634,2542.9534,N,07920.5394,W,1,9,1.6,22,M,,M,,*57
05/29/2014	14:06:35.663	$GPGGA,140635,2542.9529,N,07920.5419,W,1,8,1.7,22,M,,M,,*58
05/29/2014	14:06:36.706	$GPGGA,140636,2542.9526,N,07920.5445,W,1,8,1.6,22,M,,M,,*5C
05/29/2014	14:06:37.698	$GPGGA,140637,2542.9523,N,07920.5471,W,1,9,1.6,22,M,,M,,*5E
05/29/2014	14:06:38.690	$GPGGA,140638,2542.9518,N,07920.5496,W,1,9,1.6,22,M,,M,,*50
05/29/2014	14:06:39.702	$GPGGA,140639,2542.9514,N,07920.5520,W,1,9,1.6,22,M,,M,,*51
05/29/2014	14:06:40.857	$GPGGA,140640,2542.9510,N,07920.5546,W,1,9,1.6,22,M,,M,,*5B
05/29/2014	14:06:40.608	$GPGGA,140641,2542.9505,N,07920.5571,W,1,9,1.6,22,M,,M,,*5A
05/29/2014	14:06:41.519	$GPGGA,140642,2542.9500,N,07920.5596,W,1,9,1.6,22,M,,M,,*55
05/29/2014	14:06:42.613	$GPGGA,140643,2542.9496,N,07920.5622,W,1,9,1.6,22,M,,M,,*56
05/29/2014	14:06:43.665	$GPGGA,140644,2542.9492,N,07920.5648,W,1,9,1.8,22,M,,M,,*57
05/29/2014	14:06:44.547	$GPGGA,140645,2542.9487,N,07920.5673,W,1,9,1.6,22,M,,M,,*54
05/29/2014	14:06:45.661	$GPGGA,140646,2542.9482,N,07920.5699,W,1,9,1.6,22,M,,M,,*56
05/29/2014	14:06:46.682	$GPGGA,140647,2542.9478,N,07920.5726,W,1,8,1.8,22,M,,M,,*58
05/29/2014	14:06:47.695	$GPGGA,140648,2542.9472,N,07920.5751,W,1,8,1.7,22,M,,M,,*52
05/29/2014	14:06:48.687	$GPGGA,140649,2542.9465,N,07920.5774,W,1,10,1.4,22,M,,M,,*68
05/29/2014	14:06:49.700	$GPGGA,140650,2542.9460,N,07920.5799,W,1,10,1.8,22,M,,M,,*6A
05/29/2014	14:06:50.712	$GPGGA,140651,2542.9455,N,07920.5822,W,1,9,1.6,22,M,,M,,*54
05/29/2014	14:06:51.734	$GPGGA,140652,2542.9449,N,07920.5849,W,1,9,1.6,22,M,,M,,*57
05/29/2014	14:06:52.736	$GPGGA,140653,2542.9444,N,07920.5874,W,1,9,1.6,22,M,,M,,*55
05/29/2014	14:06:53.739	$GPGGA,140654,2542.9439,N,07920.5899,W,1,9,1.6,22,M,,M,,*5B
05/29/2014	14:06:54.771	$GPGGA,140655,2542.9435,N,07920.5923,W,1,9,1.6,22,M,,M,,*56
05/29/2014	14:06:55.784	$GPGGA,140656,2542.9429,N,07920.5947,W,1,9,1.6,21,M,,M,,*59
05/29/2014	14:06:56.756	$GPGGA,140657,2542.9424,N,07920.5972,W,1,9,1.6,21,M,,M,,*53
05/29/2014	14:06:57.777	$GPGGA,140658,2542.9418,N,07920.6001,W,1,9,1.6,21,M,,M,,*5D
05/29/2014	14:06:58.779	$GPGGA,140659,2542.9414,N,07920.6026,W,1,10,1.4,21,M,,M,,*6F
05/29/2014	14:06:59.853	$GPGGA,140700,2542.9408,N,07920.6051,W,1,10,1.6,21,M,,M,,*6D
05/29/2014	14:07:00.835	$GPGGA,140701,2542.9402,N,07920.6077,W,1,8,1.7,21,M,,M,,*5A
05/29/2014	14:07:01.818	$GPGGA,140702,2542.9398,N,07920.6102,W,1,8,1.6,21,M,,M,,*5F
05/29/2014	14:07:02.860	$GPGGA,140703,2542.9393,N,07920.6127,W,1,9,1.6,21,M,,M,,*53
05/29/2014	14:07:03.841	$GPGGA,140704,2542.9388,N,07920.6152,W,1,9,1.6,21,M,,M,,*5C
05/29/2014	14:07:04.864	$GPGGA,140705,2542.9384,N,07920.6178,W,1,9,1.6,21,M,,M,,*59
05/29/2014	14:07:05.856	$GPGGA,140706,2542.9379,N,07920.6201,W,1,9,1.7,21,M,,M,,*54
05/29/2014	14:07:06.899	$GPGGA,140707,2542.9374,N,07920.6226,W,1,9,1.6,21,M,,M,,*5C
05/29/2014	14:07:07.881	$GPGGA,140708,2542.9370,N,07920.6251,W,1,9,1.6,21,M,,M,,*57
05/29/2014	14:07:08.883	$GPGGA,140709,2542.9366,N,07920.6276,W,1,9,1.6,21,M,,M,,*54
05/29/2014	14:07:09.906	$GPGGA,140710,2542.9361,N,07920.6304,W,1,9,1.8,21,M,,M,,*51
05/29/2014	14:07:10.899	$GPGGA,140711,2542.9355,N,07920.6329,W,1,9,1.6,21,M,,M,,*56
05/29/2014	14:07:11.932	$GPGGA,140712,2542.9352,N,07920.6353,W,1,9,1.6,21,M,,M,,*5F
05/29/2014	14:07:12.923	$GPGGA,140713,2542.9348,N,07920.6380,W,1,9,1.6,21,M,,M,,*5B
05/29/2014	14:07:13.945	$GPGGA,140714,2542.9342,N,07920.6405,W,1,9,1.6,21,M,,M,,*5C
05/29/2014	14:07:14.968	$GPGGA,140715,2542.9338,N,07920.6430,W,1,9,1.6,21,M,,M,,*56
05/29/2014	14:07:15.989	$GPGGA,140716,2542.9333,N,07920.6456,W,1,9,1.6,21,M,,M,,*5E
05/29/2014	14:07:16.992	$GPGGA,140717,2542.9327,N,07920.6481,W,1,9,1.6,21,M,,M,,*50
05/29/2014	14:07:17.974	$GPGGA,140718,2542.9323,N,07920.6506,W,1,9,1.6,21,M,,M,,*55
05/29/2014	14:07:18.986	$GPGGA,140719,2542.9319,N,07920.6530,W,1,9,1.6,21,M,,M,,*58
05/29/2014	14:07:20.131	$GPGGA,140720,2542.9313,N,07920.6557,W,1,9,1.6,21,M,,M,,*59
05/29/2014	14:07:21.021	$GPGGA,140721,2542.9307,N,07920.6582,W,1,9,1.6,21,M,,M,,*55
05/29/2014	14:07:22.114	$GPGGA,140722,2542.9302,N,07920.6608,W,1,9,1.4,21,M,,M,,*50
05/29/2014	14:07:23.046	$GPGGA,140723,2542.9296,N,07920.6634,W,1,10,1.4,22,M,,M,,*69
05/29/2014	14:07:24.169	$GPGGA,140724,2542.9290,N,07920.6659,W,1,10,1.4,22,M,,M,,*63
05/29/2014	14:07:25.182	$GPGGA,140725,2542.9284,N,07920.6684,W,1,10,1.4,22,M,,M,,*67
05/29/2014	14:07:26.164	$GPGGA,140726,2542.9278,N,07920.6710,W,1,10,1.4,22,M,,M,,*6B
05/29/2014	14:07:27.176	$GPGGA,140727,2542.9272,N,07920.6735,W,1,10,1.4,22,M,,M,,*67
05/29/2014	14:07:28.108	$GPGGA,140728,2542.9265,N,07920.6759,W,1,10,1.4,22,M,,M,,*64
05/29/2014	14:07:29.191	$GPGGA,140729,2542.9260,N,07920.6785,W,1,9,1.5,22,M,,M,,*58
05/29/2014	14:07:30.204	$GPGGA,140730,2542.9254,N,07920.6810,W,1,9,1.4,22,M,,M,,*55
05/29/2014	14:07:31.217	$GPGGA,140731,2542.9247,N,07920.6833,W,1,10,1.4,23,M,,M,,*6E
05/29/2014	14:07:32.147	$GPGGA,140732,2542.9242,N,07920.6860,W,1,10,1.6,23,M,,M,,*6C
05/29/2014	14:07:33.270	$GPGGA,140733,2542.9234,N,07920.6884,W,1,9,1.6,23,M,,M,,*5E
05/29/2014	14:07:34.252	$GPGGA,140734,2542.9229,N,07920.6907,W,1,9,1.4,23,M,,M,,*5D
05/29/2014	14:07:35.285	$GPGGA,140735,2542.9222,N,07920.6931,W,1,10,1.4,23,M,,M,,*6A
05/29/2014	14:07:36.277	$GPGGA,140736,2542.9214,N,07920.6955,W,1,10,1.5,24,M,,M,,*68
05/29/2014	14:07:37.269	$GPGGA,140737,2542.9207,N,07920.6977,W,1,10,1.4,24,M,,M,,*6A
05/29/2014	14:07:38.291	$GPGGA,140738,2542.9200,N,07920.7002,W,1,10,1.4,24,M,,M,,*68
05/29/2014	14:07:39.314	$GPGGA,140739,2542.9193,N,07920.7025,W,1,10,1.4,24,M,,M,,*65
05/29/2014	14:07:40.316	$GPGGA,140740,2542.9185,N,07920.7049,W,1,10,1.4,24,M,,M,,*66
05/29/2014	14:07:40.596	$GPGGA,140741,2542.9176,N,07920.7072,W,1,10,1.4,24,M,,M,,*63
05/29/2014	14:07:41.578	$GPGGA,140742,2542.9169,N,07920.7095,W,1,10,1.4,24,M,,M,,*67
05/29/2014	14:07:42.590	$GPGGA,140743,2542.9160,N,07920.7118,W,1,10,1.4,25,M,,M,,*6A
05/29/2014	14:07:43.623	$GPGGA,140744,2542.9153,N,07920.7140,W,1,10,1.4,25,M,,M,,*60
05/29/2014	14:07:44.645	$GPGGA,140745,2542.9144,N,07920.7162,W,1,10,1.4,25,M,,M,,*67
05/29/2014	14:07:45.617	$GPGGA,140746,2542.9135,N,07920.7186,W,1,10,1.4,25,M,,M,,*68
05/29/2014	14:07:46.671	$GPGGA,140747,2542.9128,N,07920.7208,W,1,10,1.4,25,M,,M,,*60
05/29/2014	14:07:47.662	$GPGGA,140748,2542.9119,N,07920.7230,W,1,10,1.4,25,M,,M,,*66
05/29/2014	14:07:48.665	$GPGGA,140749,2542.9110,N,07920.7254,W,1,10,1.4,25,M,,M,,*6C
05/29/2014	14:07:49.667	$GPGGA,140750,2542.9103,N,07920.7274,W,1,10,1.5,25,M,,M,,*65
05/29/2014	14:07:50.688	$GPGGA,140751,2542.9095,N,07920.7298,W,1,10,1.4,25,M,,M,,*69
05/29/2014	14:07:51.701	$GPGGA,140752,2542.9085,N,07920.7319,W,1,10,1.4,25,M,,M,,*63
05/29/2014	14:07:52.703	$GPGGA,140753,2542.9077,N,07920.7341,W,1,10,1.4,25,M,,M,,*62
05/29/2014	14:07:53.695	$GPGGA,140754,2542.9067,N,07920.7363,W,1,10,1.4,26,M,,M,,*67
05/29/2014	14:07:54.708	$GPGGA,140755,2542.9059,N,07920.7384,W,1,10,1.4,26,M,,M,,*62
05/29/2014	14:07:55.750	$GPGGA,140756,2542.9052,N,07920.7406,W,1,10,1.4,26,M,,M,,*67
05/29/2014	14:07:56.763	$GPGGA,140757,2542.9041,N,07920.7428,W,1,10,1.4,26,M,,M,,*68
05/29/2014	14:07:57.735	$GPGGA,140758,2542.9034,N,07920.7449,W,1,10,1.4,26,M,,M,,*62
05/29/2014	14:07:58.768	$GPGGA,140759,2542.9024,N,07920.7472,W,1,10,1.4,26,M,,M,,*6A
05/29/2014	14:07:59.800	$GPGGA,140800,2542.9014,N,07920.7493,W,1,10,1.4,26,M,,M,,*65
05/29/2014	14:08:00.783	$GPGGA,140801,2542.9005,N,07920.7515,W,1,9,1.5,26,M,,M,,*52
05/29/2014	14:08:01.774	$GPGGA,140802,2542.8995,N,07920.7538,W,1,9,1.4,26,M,,M,,*5E
05/29/2014	14:08:02.807	$GPGGA,140803,2542.8983,N,07920.7561,W,1,9,1.5,26,M,,M,,*55
05/29/2014	14:08:03.941	$GPGGA,140804,2542.8973,N,07920.7585,W,1,9,1.4,26,M,,M,,*56
05/29/2014	14:08:04.842	$GPGGA,140805,2542.8962,N,07920.7608,W,1,10,1.4,26,M,,M,,*69
05/29/2014	14:08:05.834	$GPGGA,140806,2542.8952,N,07920.7630,W,1,10,1.4,26,M,,M,,*62
05/29/2014	14:08:06.968	$GPGGA,140807,2542.8943,N,07920.7652,W,1,10,1.4,26,M,,M,,*67
05/29/2014	14:08:07.848	$GPGGA,140808,2542.8934,N,07920.7674,W,1,10,1.4,26,M,,M,,*6C
05/29/2014	14:08:08.860	$GPGGA,140809,2542.8924,N,07920.7696,W,1,10,1.4,26,M,,M,,*60
05/29/2014	14:08:09.974	$GPGGA,140810,2542.8916,N,07920.7720,W,1,10,1.4,26,M,,M,,*65
05/29/2014	14:08:10.996	$GPGGA,140811,2542.8908,N,07920.7742,W,1,10,1.4,26,M,,M,,*6F
05/29/2014	14:08:11.998	$GPGGA,140812,2542.8898,N,07920.7764,W,1,10,1.4,26,M,,M,,*60
05/29/2014	14:08:13.011	$GPGGA,140813,2542.8890,N,07920.7786,W,1,10,1.4,26,M,,M,,*65
05/29/2014	14:08:14.013	$GPGGA,140814,2542.8882,N,07920.7808,W,1,10,1.4,26,M,,M,,*68
05/29/2014	14:08:15.036	$GPGGA,140815,2542.8873,N,07920.7832,W,1,10,1.4,26,M,,M,,*6E
05/29/2014	14:08:16.038	$GPGGA,140816,2542.8865,N,07920.7854,W,1,10,1.4,26,M,,M,,*6A
05/29/2014	14:08:17.060	$GPGGA,140817,2542.8857,N,07920.7877,W,1,10,1.4,26,M,,M,,*6B
05/29/2014	14:08:18.042	$GPGGA,140818,2542.8848,N,07920.7901,W,1,10,1.4,25,M,,M,,*69
05/29/2014	14:08:19.085	$GPGGA,140819,2542.8840,N,07920.7924,W,1,10,1.5,25,M,,M,,*66
05/29/2014	14:08:20.087	$GPGGA,140820,2542.8832,N,07920.7945,W,1,10,1.6,25,M,,M,,*6D
05/29/2014	14:08:21.110	$GPGGA,140821,2542.8824,N,07920.7970,W,1,9,1.5,25,M,,M,,*56
05/29/2014	14:08:22.092	$GPGGA,140822,2542.8815,N,07920.7992,W,1,9,1.4,25,M,,M,,*5A
05/29/2014	14:08:23.125	$GPGGA,140823,2542.8808,N,07920.8017,W,1,10,1.4,25,M,,M,,*64
05/29/2014	14:08:24.131	$GPGGA,140824,2542.8801,N,07920.8042,W,1,10,1.6,25,M,,M,,*68
05/29/2014	14:08:25.119	$GPGGA,140825,2542.8793,N,07920.8065,W,1,9,1.6,25,M,,M,,*50
05/29/2014	14:08:26.130	$GPGGA,140826,2542.8786,N,07920.8089,W,1,9,1.4,25,M,,M,,*57
05/29/2014	14:08:27.173	$GPGGA,140827,2542.8778,N,07920.8114,W,1,10,1.6,25,M,,M,,*68
05/29/2014	14:08:29.198	$GPGGA,140829,2542.8767,N,07920.8163,W,1,10,1.5,25,M,,M,,*6B
05/29/2014	14:08:30.180	$GPGGA,140830,2542.8760,N,07920.8190,W,1,10,1.4,24,M,,M,,*68
05/29/2014	14:08:31.182	$GPGGA,140831,2542.8753,N,07920.8212,W,1,10,1.4,24,M,,M,,*60
05/29/2014	14:08:32.205	$GPGGA,140832,2542.8746,N,07920.8237,W,1,10,1.6,24,M,,M,,*62
05/29/2014	14:08:33.197	$GPGGA,140833,2542.8739,N,07920.8262,W,1,9,1.4,24,M,,M,,*51
05/29/2014	14:08:34.199	$GPGGA,140834,2542.8731,N,07920.8285,W,1,9,1.4,24,M,,M,,*57
05/29/2014	14:08:35.232	$GPGGA,140835,2542.8723,N,07920.8309,W,1,10,1.6,24,M,,M,,*6A
05/29/2014	14:08:36.255	$GPGGA,140836,2542.8716,N,07920.8332,W,1,10,1.4,24,M,,M,,*65
05/29/2014	14:08:37.257	$GPGGA,140837,2542.8707,N,07920.8356,W,1,10,1.4,23,M,,M,,*61
05/29/2014	14:08:38.279	$GPGGA,140838,2542.8698,N,07920.8379,W,1,10,1.4,23,M,,M,,*64
05/29/2014	14:08:39.292	$GPGGA,140839,2542.8690,N,07920.8403,W,1,10,1.4,23,M,,M,,*67
05/29/2014	14:08:40.294	$GPGGA,140840,2542.8681,N,07920.8426,W,1,10,1.4,23,M,,M,,*6E
05/29/2014	14:08:40.586	$GPGGA,140841,2542.8673,N,07920.8450,W,1,10,1.4,23,M,,M,,*63
05/29/2014	14:08:41.567	$GPGGA,140842,2542.8666,N,07920.8473,W,1,10,1.4,23,M,,M,,*65
05/29/2014	14:08:42.679	$GPGGA,140843,2542.8658,N,07920.8497,W,1,10,1.4,23,M,,M,,*63
05/29/2014	14:08:43.590	$GPGGA,140844,2542.8651,N,07920.8522,W,1,10,1.4,23,M,,M,,*62
05/29/2014	14:08:44.613	$GPGGA,140845,2542.8643,N,07920.8545,W,1,10,2.3,23,M,,M,,*65
05/29/2014	14:08:45.595	$GPGGA,140846,2542.8635,N,07920.8570,W,1,10,2.3,23,M,,M,,*61
05/29/2014	14:08:46.607	$GPGGA,140847,2542.8629,N,07920.8594,W,1,8,1.5,23,M,,M,,*5B
05/29/2014	14:08:47.640	$GPGGA,140848,2542.8622,N,07920.8617,W,1,8,1.5,23,M,,M,,*57
05/29/2014	14:08:48.744	$GPGGA,140849,2542.8613,N,07920.8642,W,1,9,1.4,23,M,,M,,*54
05/29/2014	14:08:49.634	$GPGGA,140850,2542.8607,N,07920.8664,W,1,9,1.5,23,M,,M,,*5C
05/29/2014	14:08:50.677	$GPGGA,140851,2542.8598,N,07920.8689,W,1,9,1.5,23,M,,M,,*5B
05/29/2014	14:08:51.690	$GPGGA,140852,2542.8590,N,07920.8712,W,1,9,1.4,23,M,,M,,*52
05/29/2014	14:08:52.692	$GPGGA,140853,2542.8583,N,07920.8736,W,1,10,1.5,23,M,,M,,*6E
05/29/2014	14:08:53.775	$GPGGA,140854,2542.8575,N,07920.8759,W,1,10,1.5,23,M,,M,,*69
05/29/2014	14:08:54.707	$GPGGA,140855,2542.8566,N,07920.8783,W,1,10,1.4,23,M,,M,,*6C
05/29/2014	14:08:55.810	$GPGGA,140856,2542.8559,N,07920.8806,W,1,10,1.4,23,M,,M,,*61
05/29/2014	14:08:56.822	$GPGGA,140857,2542.8550,N,07920.8829,W,1,10,1.4,23,M,,M,,*64
05/29/2014	14:08:57.815	$GPGGA,140858,2542.8542,N,07920.8852,W,1,10,1.4,23,M,,M,,*64
05/29/2014	14:08:58.827	$GPGGA,140859,2542.8533,N,07920.8876,W,1,10,1.4,23,M,,M,,*65
05/29/2014	14:08:59.860	$GPGGA,140900,2542.8525,N,07920.8899,W,1,10,1.4,23,M,,M,,*6E
05/29/2014	14:09:00.841	$GPGGA,140901,2542.8517,N,07920.8923,W,1,10,1.4,23,M,,M,,*6E
05/29/2014	14:09:01.772	$GPGGA,140902,2542.8507,N,07920.8946,W,1,10,1.6,23,M,,M,,*6D
05/29/2014	14:09:02.865	$GPGGA,140903,2542.8497,N,07920.8968,W,1,9,1.4,23,M,,M,,*52
05/29/2014	14:09:03.817	$GPGGA,140904,2542.8488,N,07920.8992,W,1,9,1.5,23,M,,M,,*5F
05/29/2014	14:09:04.890	$GPGGA,140905,2542.8478,N,07920.9014,W,1,9,1.5,23,M,,M,,*57
05/29/2014	14:09:05.894	$GPGGA,140906,2542.8468,N,07920.9036,W,1,9,1.6,23,M,,M,,*56
05/29/2014	14:09:06.905	$GPGGA,140907,2542.8459,N,07920.9058,W,1,8,1.5,23,M,,M,,*5F
05/29/2014	14:09:07.917	$GPGGA,140908,2542.8452,N,07920.9080,W,1,8,1.5,23,M,,M,,*5E
05/29/2014	14:09:08.943	$GPGGA,140909,2542.8441,N,07920.9102,W,1,9,1.5,23,M,,M,,*57
05/29/2014	14:09:09.942	$GPGGA,140910,2542.8432,N,07920.9124,W,1,9,1.6,23,M,,M,,*5C
05/29/2014	14:09:10.966	$GPGGA,140911,2542.8424,N,07920.9147,W,1,8,1.6,23,M,,M,,*5E
05/29/2014	14:09:11.977	$GPGGA,140912,2542.8414,N,07920.9169,W,1,8,1.5,23,M,,M,,*51
05/29/2014	14:09:12.979	$GPGGA,140913,2542.8406,N,07920.9191,W,1,9,1.5,23,M,,M,,*55
05/29/2014	14:09:13.972	$GPGGA,140914,2542.8399,N,07920.9213,W,1,9,1.5,24,M,,M,,*5D
05/29/2014	14:09:15.004	$GPGGA,140915,2542.8391,N,07920.9235,W,1,9,1.5,24,M,,M,,*50
05/29/2014	14:09:16.006	$GPGGA,140916,2542.8381,N,07920.9256,W,1,9,1.5,24,M,,M,,*57
05/29/2014	14:09:17.009	$GPGGA,140917,2542.8374,N,07920.9279,W,1,9,1.5,24,M,,M,,*51
05/29/2014	14:09:18.020	$GPGGA,140918,2542.8365,N,07920.9303,W,1,9,1.5,24,M,,M,,*52
05/29/2014	14:09:19.043	$GPGGA,140919,2542.8356,N,07920.9324,W,1,9,1.5,24,M,,M,,*56
05/29/2014	14:09:20.055	$GPGGA,140920,2542.8348,N,07920.9346,W,1,9,1.5,24,M,,M,,*57
05/29/2014	14:09:21.038	$GPGGA,140921,2542.8340,N,07920.9369,W,1,9,1.5,24,M,,M,,*53
05/29/2014	14:09:22.070	$GPGGA,140922,2542.8330,N,07920.9390,W,1,9,1.5,24,M,,M,,*51
05/29/2014	14:09:23.062	$GPGGA,140923,2542.8324,N,07920.9412,W,1,9,1.5,24,M,,M,,*58
05/29/2014	14:09:24.094	$GPGGA,140924,2542.8315,N,07920.9436,W,1,9,1.5,24,M,,M,,*5B
05/29/2014	14:09:25.127	$GPGGA,140925,2542.8305,N,07920.9458,W,1,9,1.5,24,M,,M,,*53
05/29/2014	14:09:26.090	$GPGGA,140926,2542.8298,N,07920.9480,W,1,9,1.5,24,M,,M,,*50
05/29/2014	14:09:27.101	$GPGGA,140927,2542.8289,N,07920.9505,W,1,9,1.5,24,M,,M,,*5D
05/29/2014	14:09:28.134	$GPGGA,140928,2542.8280,N,07920.9527,W,1,9,1.5,24,M,,M,,*5B
05/29/2014	14:09:29.126	$GPGGA,140929,2542.8272,N,07920.9548,W,1,9,1.5,25,M,,M,,*5F
05/29/2014	14:09:30.129	$GPGGA,140930,2542.8264,N,07920.9574,W,1,9,1.5,25,M,,M,,*5F
05/29/2014	14:09:31.151	$GPGGA,140931,2542.8257,N,07920.9595,W,1,9,1.5,25,M,,M,,*51
05/29/2014	14:09:32.184	$GPGGA,140932,2542.8247,N,07920.9617,W,1,9,1.5,25,M,,M,,*5A
05/29/2014	14:09:33.186	$GPGGA,140933,2542.8239,N,07920.9640,W,1,9,1.5,25,M,,M,,*50
05/29/2014	14:09:34.178	$GPGGA,140934,2542.8232,N,07920.9664,W,1,9,1.6,25,M,,M,,*59
05/29/2014	14:09:35.302	$GPGGA,140935,2542.8222,N,07920.9686,W,1,8,1.6,25,M,,M,,*54
05/29/2014	14:09:36.202	$GPGGA,140936,2542.8214,N,07920.9709,W,1,8,1.6,25,M,,M,,*54
05/29/2014	14:09:37.336	$GPGGA,140937,2542.8205,N,07920.9734,W,1,7,2.4,25,M,,M,,*55
05/29/2014	14:09:38.227	$GPGGA,140938,2542.8199,N,07920.9758,W,1,7,1.7,25,M,,M,,*56
05/29/2014	14:09:39.249	$GPGGA,140939,2542.8189,N,07920.9780,W,1,8,1.7,25,M,,M,,*5C
05/29/2014	14:09:40.262	$GPGGA,140940,2542.8181,N,07920.9805,W,1,8,1.7,25,M,,M,,*58
05/29/2014	14:09:40.632	$GPGGA,140941,2542.8174,N,07920.9828,W,1,8,1.7,25,M,,M,,*5C
05/29/2014	14:09:41.513	$GPGGA,140942,2542.8165,N,07920.9852,W,1,8,1.7,25,M,,M,,*52
05/29/2014	14:09:42.637	$GPGGA,140943,2542.8156,N,07920.9874,W,1,8,1.7,25,M,,M,,*57
05/29/2014	14:09:43.669	$GPGGA,140944,2542.8149,N,07920.9899,W,1,8,1.7,25,M,,M,,*5D
05/29/2014	14:09:44.662	$GPGGA,140945,2542.8141,N,07920.9922,W,1,8,1.7,25,M,,M,,*55
05/29/2014	14:09:45.573	$GPGGA,140946,2542.8132,N,07920.9946,W,1,8,1.5,25,M,,M,,*52
05/29/2014	14:09:46.696	$GPGGA,140947,2542.8125,N,07920.9969,W,1,8,1.7,24,M,,M,,*5B
05/29/2014	14:09:47.598	$GPGGA,140948,2542.8118,N,07920.9993,W,1,8,1.7,24,M,,M,,*5F
05/29/2014	14:09:48.692	$GPGGA,140949,2542.8109,N,07921.0016,W,1,8,1.7,24,M,,M,,*52
05/29/2014	14:09:49.602	$GPGGA,140950,2542.8099,N,07921.0040,W,1,8,1.5,24,M,,M,,*53
05/29/2014	14:09:50.615	$GPGGA,140951,2542.8092,N,07921.0063,W,1,9,1.5,24,M,,M,,*59
05/29/2014	14:09:51.728	$GPGGA,140952,2542.8084,N,07921.0087,W,1,9,1.7,24,M,,M,,*55
05/29/2014	14:09:52.740	$GPGGA,140953,2542.8080,N,07921.0112,W,1,9,1.5,24,M,,M,,*5F
05/29/2014	14:09:53.732	$GPGGA,140954,2542.8073,N,07921.0137,W,1,9,1.6,24,M,,M,,*50
05/29/2014	14:09:54.744	$GPGGA,140955,2542.8065,N,07921.0162,W,1,9,1.5,24,M,,M,,*55
05/29/2014	14:09:55.777	$GPGGA,140956,2542.8059,N,07921.0186,W,1,9,1.5,24,M,,M,,*53
05/29/2014	14:09:56.790	$GPGGA,140957,2542.8051,N,07921.0211,W,1,9,1.5,24,M,,M,,*57
05/29/2014	14:09:57.791	$GPGGA,140958,2542.8044,N,07921.0235,W,1,9,1.5,24,M,,M,,*5A
05/29/2014	14:09:58.804	$GPGGA,140959,2542.8036,N,07921.0260,W,1,9,1.5,24,M,,M,,*5E
05/29/2014	14:09:59.816	$GPGGA,141000,2542.8026,N,07921.0282,W,1,9,1.7,24,M,,M,,*55
05/29/2014	14:10:00.830	$GPGGA,141001,2542.8015,N,07921.0307,W,1,8,1.6,24,M,,M,,*58
05/29/2014	14:10:01.831	$GPGGA,141002,2542.8008,N,07921.0327,W,1,8,1.5,24,M,,M,,*56
05/29/2014	14:10:02.843	$GPGGA,141003,2542.7998,N,07921.0350,W,1,8,1.6,24,M,,M,,*5B
05/29/2014	14:10:03.856	$GPGGA,141004,2542.7988,N,07921.0374,W,1,8,1.5,24,M,,M,,*58
05/29/2014	14:10:04.878	$GPGGA,141005,2542.7980,N,07921.0398,W,1,9,1.5,24,M,,M,,*52
05/29/2014	14:10:05.850	$GPGGA,141006,2542.7971,N,07921.0423,W,1,9,1.5,24,M,,M,,*58
05/29/2014	14:10:06.903	$GPGGA,141007,2542.7962,N,07921.0448,W,1,9,1.5,24,M,,M,,*56
05/29/2014	14:10:07.905	$GPGGA,141008,2542.7952,N,07921.0470,W,1,9,1.5,24,M,,M,,*51
05/29/2014	14:10:08.887	$GPGGA,141009,2542.7943,N,07921.0495,W,1,9,1.5,24,M,,M,,*5B
05/29/2014	14:10:09.900	$GPGGA,141010,2542.7934,N,07921.0517,W,1,9,1.5,24,M,,M,,*58
05/29/2014	14:10:10.921	$GPGGA,141011,2542.7925,N,07921.0542,W,1,9,1.5,24,M,,M,,*59
05/29/2014	14:10:11.944	$GPGGA,141012,2542.7916,N,07921.0564,W,1,9,1.5,24,M,,M,,*5E
05/29/2014	14:10:12.956	$GPGGA,141013,2542.7908,N,07921.0586,W,1,9,1.5,24,M,,M,,*5C
05/29/2014	14:10:13.958	$GPGGA,141014,2542.7900,N,07921.0610,W,1,9,1.6,24,M,,M,,*5C
05/29/2014	14:10:14.952	$GPGGA,141015,2542.7892,N,07921.0632,W,1,9,1.5,24,M,,M,,*54
05/29/2014	14:10:15.983	$GPGGA,141016,2542.7885,N,07921.0654,W,1,9,1.5,24,M,,M,,*51
05/29/2014	14:10:16.975	$GPGGA,141017,2542.7878,N,07921.0677,W,1,9,1.5,24,M,,M,,*53
05/29/2014	14:10:18.089	$GPGGA,141018,2542.7868,N,07921.0699,W,1,9,1.5,24,M,,M,,*5D
05/29/2014	14:10:19.010	$GPGGA,141019,2542.7859,N,07921.0723,W,1,9,1.5,24,M,,M,,*5E
05/29/2014	14:10:20.114	$GPGGA,141020,2542.7851,N,07921.0745,W,1,9,1.5,24,M,,M,,*5C
05/29/2014	14:10:21.025	$GPGGA,141021,2542.7843,N,07921.0769,W,1,9,1.5,24,M,,M,,*50
05/29/2014	14:10:23.465	$GPGGA,141023,2542.7825,N,07921.0814,W,1,9,1.5,24,M,,M,,*57
05/29/2014	14:10:24.153	$GPGGA,141024,2542.7817,N,07921.0838,W,1,9,1.5,24,M,,M,,*5F
05/29/2014	14:10:25.197	$GPGGA,141025,2542.7809,N,07921.0860,W,1,9,1.5,24,M,,M,,*5C
05/29/2014	14:10:26.077	$GPGGA,141026,2542.7800,N,07921.0883,W,1,9,1.5,24,M,,M,,*5B
05/29/2014	14:10:27.170	$GPGGA,141027,2542.7791,N,07921.0907,W,1,9,1.5,24,M,,M,,*50
05/29/2014	14:10:28.111	$GPGGA,141028,2542.7782,N,07921.0928,W,1,9,1.5,24,M,,M,,*50
05/29/2014	14:10:29.194	$GPGGA,141029,2542.7773,N,07921.0951,W,1,9,1.5,24,M,,M,,*51
05/29/2014	14:10:30.206	$GPGGA,141030,2542.7764,N,07921.0975,W,1,9,1.5,24,M,,M,,*59
05/29/2014	14:10:31.128	$GPGGA,141031,2542.7755,N,07921.0997,W,1,9,1.5,24,M,,M,,*56
05/29/2014	14:10:32.241	$GPGGA,141032,2542.7746,N,07921.1020,W,1,9,1.5,24,M,,M,,*53
05/29/2014	14:10:33.274	$GPGGA,141033,2542.7737,N,07921.1044,W,1,9,1.5,24,M,,M,,*56
05/29/2014	14:10:34.247	$GPGGA,141034,2542.7728,N,07921.1066,W,1,9,1.5,24,M,,M,,*5F
05/29/2014	14:10:35.259	$GPGGA,141035,2542.7719,N,07921.1089,W,1,9,1.5,24,M,,M,,*5D
05/29/2014	14:10:36.180	$GPGGA,141036,2542.7710,N,07921.1113,W,1,9,1.5,24,M,,M,,*55
05/29/2014	14:10:37.284	$GPGGA,141037,2542.7701,N,07921.1135,W,1,9,1.5,24,M,,M,,*50
05/29/2014	14:10:38.306	$GPGGA,141038,2542.7693,N,07921.1158,W,1,9,1.5,24,M,,M,,*5E
05/29/2014	14:10:39.318	$GPGGA,141039,2542.7683,N,07921.1182,W,1,9,1.5,24,M,,M,,*59
05/29/2014	14:10:40.320	$GPGGA,141040,2542.7674,N,07921.1206,W,1,9,1.5,24,M,,M,,*50
05/29/2014	14:10:40.591	$GPGGA,141041,2542.7666,N,07921.1228,W,1,8,1.6,24,M,,M,,*5C
05/29/2014	14:10:41.583	$GPGGA,141042,2542.7657,N,07921.1251,W,1,8,1.6,24,M,,M,,*53
05/29/2014	14:10:42.615	$GPGGA,141043,2542.7648,N,07921.1275,W,1,8,1.6,24,M,,M,,*5A
05/29/2014	14:10:43.618	$GPGGA,141044,2542.7639,N,07921.1297,W,1,8,1.5,24,M,,M,,*54
05/29/2014	14:10:44.610	$GPGGA,141045,2542.7628,N,07921.1319,W,1,8,1.7,24,M,,M,,*50
05/29/2014	14:10:45.631	$GPGGA,141046,2542.7619,N,07921.1342,W,1,8,1.7,24,M,,M,,*5F
05/29/2014	14:10:46.654	$GPGGA,141047,2542.7611,N,07921.1366,W,1,8,1.7,24,M,,M,,*50
05/29/2014	14:10:47.666	$GPGGA,141048,2542.7603,N,07921.1389,W,1,8,1.5,24,M,,M,,*5F
05/29/2014	14:10:48.679	$GPGGA,141049,2542.7594,N,07921.1413,W,1,9,1.5,24,M,,M,,*56
05/29/2014	14:10:49.661	$GPGGA,141050,2542.7586,N,07921.1438,W,1,9,1.7,24,M,,M,,*56
05/29/2014	14:10:50.674	$GPGGA,141051,2542.7578,N,07921.1463,W,1,9,1.5,24,M,,M,,*5A
05/29/2014	14:10:51.697	$GPGGA,141052,2542.7569,N,07921.1485,W,1,9,1.5,24,M,,M,,*51
05/29/2014	14:10:52.738	$GPGGA,141053,2542.7561,N,07921.1510,W,1,9,1.5,25,M,,M,,*54
05/29/2014	14:10:53.700	$GPGGA,141054,2542.7553,N,07921.1535,W,1,9,1.5,25,M,,M,,*55
05/29/2014	14:10:54.733	$GPGGA,141055,2542.7545,N,07921.1557,W,1,9,1.5,25,M,,M,,*57
05/29/2014	14:10:55.746	$GPGGA,141056,2542.7538,N,07921.1582,W,1,9,1.5,25,M,,M,,*56
05/29/2014	14:10:56.758	$GPGGA,141057,2542.7529,N,07921.1607,W,1,9,1.5,25,M,,M,,*59
05/29/2014	14:10:57.750	$GPGGA,141058,2542.7522,N,07921.1631,W,1,9,1.7,25,M,,M,,*5A
05/29/2014	14:10:58.762	$GPGGA,141059,2542.7514,N,07921.1656,W,1,9,1.5,25,M,,M,,*5D
05/29/2014	14:10:59.795	$GPGGA,141100,2542.7506,N,07921.1680,W,1,9,1.5,25,M,,M,,*58
05/29/2014	14:11:00.778	$GPGGA,141101,2542.7497,N,07921.1705,W,1,7,2.4,25,M,,M,,*50
05/29/2014	14:11:01.799	$GPGGA,141102,2542.7488,N,07921.1727,W,1,7,1.5,25,M,,M,,*5F
05/29/2014	14:11:02.811	$GPGGA,141103,2542.7480,N,07921.1752,W,1,9,1.5,25,M,,M,,*5A
05/29/2014	14:11:03.823	$GPGGA,141104,2542.7471,N,07921.1777,W,1,9,1.5,25,M,,M,,*54
05/29/2014	14:11:04.856	$GPGGA,141105,2542.7466,N,07921.1801,W,1,9,1.5,25,M,,M,,*5D
05/29/2014	14:11:06.000	$GPGGA,141106,2542.7457,N,07921.1828,W,1,9,1.7,25,M,,M,,*55
05/29/2014	14:11:06.840	$GPGGA,141107,2542.7449,N,07921.1851,W,1,9,1.5,25,M,,M,,*57
05/29/2014	14:11:07.872	$GPGGA,141108,2542.7441,N,07921.1875,W,1,9,1.5,25,M,,M,,*56
05/29/2014	14:11:08.868	$GPGGA,141109,2542.7433,N,07921.1900,W,1,8,1.7,25,M,,M,,*52
05/29/2014	14:11:09.854	$GPGGA,141110,2542.7424,N,07921.1923,W,1,8,1.7,25,M,,M,,*5D
05/29/2014	14:11:10.850	$GPGGA,141111,2542.7413,N,07921.1944,W,1,9,1.5,25,M,,M,,*5A
05/29/2014	14:11:11.886	$GPGGA,141112,2542.7405,N,07921.1966,W,1,9,1.6,25,M,,M,,*5D
05/29/2014	14:11:12.892	$GPGGA,141113,2542.7395,N,07921.1990,W,1,8,1.6,25,M,,M,,*5A
05/29/2014	14:11:14.029	$GPGGA,141114,2542.7386,N,07921.2012,W,1,8,1.5,25,M,,M,,*5C
05/29/2014	14:11:15.045	$GPGGA,141115,2542.7379,N,07921.2038,W,1,9,1.5,25,M,,M,,*54
05/29/2014	14:11:15.890	$GPGGA,141116,2542.7369,N,07921.2059,W,1,9,1.5,25,M,,M,,*51
05/29/2014	14:11:17.059	$GPGGA,141117,2542.7359,N,07921.2084,W,1,8,1.5,25,M,,M,,*52
05/29/2014	14:11:17.983	$GPGGA,141118,2542.7351,N,07921.2106,W,1,8,1.5,25,M,,M,,*5E
05/29/2014	14:11:19.050	$GPGGA,141119,2542.7343,N,07921.2131,W,1,9,1.5,25,M,,M,,*59
05/29/2014	14:11:20.075	$GPGGA,141120,2542.7334,N,07921.2154,W,1,9,1.5,25,M,,M,,*50
05/29/2014	14:11:21.061	$GPGGA,141121,2542.7325,N,07921.2178,W,1,9,1.5,25,M,,M,,*5F
05/29/2014	14:11:22.067	$GPGGA,141122,2542.7318,N,07921.2202,W,1,9,1.5,25,M,,M,,*5C
05/29/2014	14:11:23.053	$GPGGA,141123,2542.7309,N,07921.2225,W,1,9,1.5,25,M,,M,,*58
05/29/2014	14:11:24.026	$GPGGA,141124,2542.7300,N,07921.2248,W,1,9,1.5,25,M,,M,,*5D
05/29/2014	14:11:25.095	$GPGGA,141125,2542.7292,N,07921.2272,W,1,9,1.6,25,M,,M,,*5C
05/29/2014	14:11:26.092	$GPGGA,141126,2542.7285,N,07921.2294,W,1,9,1.5,25,M,,M,,*52
05/29/2014	14:11:27.077	$GPGGA,141127,2542.7278,N,07921.2316,W,1,9,1.5,25,M,,M,,*5A
05/29/2014	14:11:28.115	$GPGGA,141128,2542.7268,N,07921.2341,W,1,9,1.5,25,M,,M,,*56
05/29/2014	14:11:29.079	$GPGGA,141129,2542.7261,N,07921.2363,W,1,8,1.6,25,M,,M,,*5C
05/29/2014	14:11:30.106	$GPGGA,141130,2542.7253,N,07921.2385,W,1,8,1.5,25,M,,M,,*5E
05/29/2014	14:11:31.082	$GPGGA,141131,2542.7243,N,07921.2408,W,1,9,1.5,25,M,,M,,*5D
05/29/2014	14:11:32.058	$GPGGA,141132,2542.7234,N,07921.2431,W,1,9,1.6,25,M,,M,,*57
05/29/2014	14:11:33.086	$GPGGA,141133,2542.7225,N,07921.2454,W,1,9,1.5,25,M,,M,,*56
05/29/2014	14:11:34.120	$GPGGA,141134,2542.7217,N,07921.2476,W,1,9,1.5,25,M,,M,,*50
05/29/2014	14:11:35.096	$GPGGA,141135,2542.7209,N,07921.2500,W,1,9,1.5,25,M,,M,,*5E
05/29/2014	14:11:36.072	$GPGGA,141136,2542.7200,N,07921.2522,W,1,9,1.5,25,M,,M,,*54
05/29/2014	14:11:37.138	$GPGGA,141137,2542.7191,N,07921.2544,W,1,9,1.5,25,M,,M,,*5E
05/29/2014	14:11:38.063	$GPGGA,141138,2542.7184,N,07921.2568,W,1,9,1.5,25,M,,M,,*5B
05/29/2014	14:11:39.109	$GPGGA,141139,2542.7174,N,07921.2590,W,1,9,1.5,25,M,,M,,*52
05/29/2014	14:11:40.146	$GPGGA,141140,2542.7166,N,07921.2612,W,1,9,1.5,25,M,,M,,*56
05/29/2014	14:11:40.583	$GPGGA,141141,2542.7156,N,07921.2635,W,1,9,1.5,25,M,,M,,*51
05/29/2014	14:11:41.539	$GPGGA,141142,2542.7148,N,07921.2659,W,1,9,1.5,25,M,,M,,*57
05/29/2014	14:11:42.605	$GPGGA,141143,2542.7138,N,07921.2681,W,1,9,1.5,25,M,,M,,*54
05/29/2014	14:11:43.561	$GPGGA,141144,2542.7130,N,07921.2703,W,1,9,1.5,25,M,,M,,*50
05/29/2014	14:11:44.558	$GPGGA,141145,2542.7121,N,07921.2727,W,1,9,1.5,25,M,,M,,*57
05/29/2014	14:11:45.613	$GPGGA,141146,2542.7112,N,07921.2749,W,1,9,1.5,25,M,,M,,*5C
05/29/2014	14:11:46.610	$GPGGA,141147,2542.7103,N,07921.2772,W,1,9,1.5,24,M,,M,,*54
05/29/2014	14:11:47.626	$GPGGA,141148,2542.7095,N,07921.2796,W,1,9,1.5,24,M,,M,,*5F
05/29/2014	14:11:48.604	$GPGGA,141149,2542.7086,N,07921.2818,W,1,9,1.6,24,M,,M,,*56
05/29/2014	14:11:49.579	$GPGGA,141150,2542.7077,N,07921.2841,W,1,9,1.6,24,M,,M,,*5C
05/29/2014	14:11:50.585	$GPGGA,141151,2542.7068,N,07921.2863,W,1,8,1.6,24,M,,M,,*52
