Software Version Number: 1	Data File Format Number: 1	Build Version Number: 1	Error Count Since VI Started: 0	Manufacturer: Raytheon	 Model Number: RayMarine 120	 S/N: 	 Cal Date: 	 Wind Direction Offset: 0.00	 Slope (M)1: 0.00	 Offset (B)1: 0.00	 Slope (M)2: 0.00	 Offset (B)2: 0.00	 Slope (M)3: 0.00	 Offset (B)3: 0.00	 Slope (M)4: 0.00	 Offset (B)4: 0.00	 Slope (M)5: 0.00	 Offset (B)5: 0.00	 Slope (M)6: 0.00	 Offset (B)6: 0.00
Computer Date	Computer Time	GGA String
06/12/2014	08:00:00.664	$GPGGA,080000,2543.8829,N,08009.7267,W,1,8,1.6,19,M,,M,,*51
06/12/2014	08:00:01.753	$GPGGA,080001,2543.8829,N,08009.7267,W,1,8,1.6,19,M,,M,,*50
06/12/2014	08:00:02.792	$GPGGA,080002,2543.8829,N,08009.7267,W,1,8,1.6,19,M,,M,,*53
06/12/2014	08:00:03.897	$GPGGA,080003,2543.8829,N,08009.7267,W,1,8,1.6,19,M,,M,,*52
06/12/2014	08:00:04.953	$GPGGA,080004,2543.8829,N,08009.7267,W,1,8,1.6,19,M,,M,,*55
06/12/2014	08:00:06.041	$GPGGA,080005,2543.8830,N,08009.7267,W,1,8,1.6,19,M,,M,,*5C
06/12/2014	08:00:07.094	$GPGGA,080006,2543.8830,N,08009.7267,W,1,8,1.6,19,M,,M,,*5F
06/12/2014	08:00:08.185	$GPGGA,080007,2543.8830,N,08009.7267,W,1,8,1.6,19,M,,M,,*5E
06/12/2014	08:00:09.263	$GPGGA,080008,2543.8830,N,08009.7267,W,1,8,1.6,19,M,,M,,*51
06/12/2014	08:00:10.329	$GPGGA,080009,2543.8832,N,08009.7267,W,1,8,1.6,19,M,,M,,*52
06/12/2014	08:00:11.504	$GPGGA,080010,2543.8831,N,08009.7267,W,1,8,1.6,19,M,,M,,*59
06/12/2014	08:00:12.474	$GPGGA,080011,2543.8832,N,08009.7269,W,1,8,1.6,19,M,,M,,*55
06/12/2014	08:00:13.691	$GPGGA,080012,2543.8831,N,08009.7268,W,1,8,1.6,19,M,,M,,*54
06/12/2014	08:00:14.693	$GPGGA,080013,2543.8832,N,08009.7269,W,1,8,1.6,19,M,,M,,*57
06/12/2014	08:00:15.728	$GPGGA,080014,2543.8831,N,08009.7268,W,1,8,1.6,19,M,,M,,*52
06/12/2014	08:00:16.881	$GPGGA,080015,2543.8833,N,08009.7269,W,1,8,1.6,19,M,,M,,*50
06/12/2014	08:00:17.861	$GPGGA,080016,2543.8833,N,08009.7269,W,1,8,1.6,19,M,,M,,*53
06/12/2014	08:00:19.037	$GPGGA,080017,2543.8833,N,08009.7269,W,1,8,1.6,19,M,,M,,*52
06/12/2014	08:00:20.015	$GPGGA,080018,2543.8833,N,08009.7269,W,1,8,1.6,19,M,,M,,*5D
06/12/2014	08:00:21.072	$GPGGA,080019,2543.8833,N,08009.7269,W,1,8,1.6,19,M,,M,,*5C
06/12/2014	08:00:22.181	$GPGGA,080020,2543.8833,N,08009.7269,W,1,8,1.6,19,M,,M,,*56
06/12/2014	08:00:23.355	$GPGGA,080021,2543.8833,N,08009.7269,W,1,8,1.6,18,M,,M,,*56
06/12/2014	08:00:24.304	$GPGGA,080022,2543.8833,N,08009.7269,W,1,8,1.6,18,M,,M,,*55
06/12/2014	08:00:25.381	$GPGGA,080023,2543.8833,N,08009.7268,W,1,8,1.6,18,M,,M,,*55
06/12/2014	08:00:26.599	$GPGGA,080024,2543.8833,N,08009.7269,W,1,8,1.6,18,M,,M,,*53
06/12/2014	08:00:27.665	$GPGGA,080025,2543.8833,N,08009.7268,W,1,8,1.6,18,M,,M,,*53
06/12/2014	08:00:28.711	$GPGGA,080026,2543.8835,N,08009.7269,W,1,8,1.6,18,M,,M,,*57
06/12/2014	08:00:29.810	$GPGGA,080027,2543.8834,N,08009.7267,W,1,8,1.6,18,M,,M,,*59
06/12/2014	08:00:30.888	$GPGGA,080028,2543.8836,N,08009.7267,W,1,8,1.6,18,M,,M,,*54
06/12/2014	08:00:31.975	$GPGGA,080029,2543.8835,N,08009.7267,W,1,8,1.6,18,M,,M,,*56
06/12/2014	08:00:33.010	$GPGGA,080030,2543.8836,N,08009.7267,W,1,8,1.6,18,M,,M,,*5D
06/12/2014	08:00:34.110	$GPGGA,080031,2543.8835,N,08009.7266,W,1,8,1.6,18,M,,M,,*5E
06/12/2014	08:00:35.176	$GPGGA,080032,2543.8837,N,08009.7266,W,1,8,1.6,18,M,,M,,*5F
06/12/2014	08:00:36.264	$GPGGA,080033,2543.8837,N,08009.7266,W,1,8,1.6,18,M,,M,,*5E
06/12/2014	08:00:37.319	$GPGGA,080034,2543.8837,N,08009.7266,W,1,8,1.6,18,M,,M,,*59
06/12/2014	08:00:38.407	$GPGGA,080035,2543.8837,N,08009.7266,W,1,8,1.6,18,M,,M,,*58
06/12/2014	08:00:39.474	$GPGGA,080036,2543.8837,N,08009.7266,W,1,8,1.6,18,M,,M,,*5B
06/12/2014	08:00:40.530	$GPGGA,080037,2543.8837,N,08009.7266,W,1,8,1.6,18,M,,M,,*5A
06/12/2014	08:00:41.629	$GPGGA,080038,2543.8837,N,08009.7266,W,1,8,1.6,18,M,,M,,*55
06/12/2014	08:00:42.706	$GPGGA,080039,2543.8837,N,08009.7266,W,1,8,1.6,18,M,,M,,*54
06/12/2014	08:00:43.773	$GPGGA,080040,2543.8837,N,08009.7266,W,1,8,1.6,18,M,,M,,*5A
06/12/2014	08:00:44.883	$GPGGA,080041,2543.8839,N,08009.7266,W,1,8,1.6,18,M,,M,,*55
06/12/2014	08:00:45.917	$GPGGA,080042,2543.8838,N,08009.7265,W,1,8,1.6,18,M,,M,,*54
06/12/2014	08:00:47.016	$GPGGA,080043,2543.8837,N,08009.7265,W,1,8,1.6,18,M,,M,,*5A
06/12/2014	08:00:48.083	$GPGGA,080044,2543.8839,N,08009.7265,W,1,8,1.6,18,M,,M,,*53
06/12/2014	08:00:49.171	$GPGGA,080045,2543.8837,N,08009.7265,W,1,8,1.6,18,M,,M,,*5C
06/12/2014	08:00:45.568	$GPGGA,080046,2543.8837,N,08009.7265,W,1,8,1.9,18,M,,M,,*50
06/12/2014	08:00:46.668	$GPGGA,080047,2543.8837,N,08009.7265,W,1,7,1.6,18,M,,M,,*51
06/12/2014	08:00:47.734	$GPGGA,080048,2543.8837,N,08009.7265,W,1,7,1.9,18,M,,M,,*51
06/12/2014	08:00:48.790	$GPGGA,080049,2543.8839,N,08009.7264,W,1,7,1.6,18,M,,M,,*50
06/12/2014	08:00:49.889	$GPGGA,080050,2543.8837,N,08009.7265,W,1,7,1.9,18,M,,M,,*58
06/12/2014	08:00:50.976	$GPGGA,080051,2543.8837,N,08009.7265,W,1,7,1.9,18,M,,M,,*59
06/12/2014	08:00:52.043	$GPGGA,080052,2543.8837,N,08009.7265,W,1,7,1.9,18,M,,M,,*5A
06/12/2014	08:00:53.102	$GPGGA,080053,2543.8835,N,08009.7265,W,1,7,1.9,18,M,,M,,*59
06/12/2014	08:00:54.160	$GPGGA,080054,2543.8836,N,08009.7265,W,1,7,1.9,18,M,,M,,*5D
06/12/2014	08:00:55.276	$GPGGA,080055,2543.8835,N,08009.7266,W,1,7,1.9,18,M,,M,,*5C
06/12/2014	08:00:56.461	$GPGGA,080056,2543.8836,N,08009.7265,W,1,7,1.9,18,M,,M,,*5F
06/12/2014	08:00:57.420	$GPGGA,080057,2543.8835,N,08009.7265,W,1,7,1.9,18,M,,M,,*5D
06/12/2014	08:00:58.465	$GPGGA,080058,2543.8836,N,08009.7265,W,1,7,1.9,18,M,,M,,*51
06/12/2014	08:00:59.553	$GPGGA,080059,2543.8835,N,08009.7265,W,1,7,1.9,18,M,,M,,*53
06/12/2014	08:01:00.771	$GPGGA,080100,2543.8836,N,08009.7266,W,1,7,1.9,18,M,,M,,*5E
06/12/2014	08:01:01.816	$GPGGA,080101,2543.8835,N,08009.7266,W,1,7,1.9,18,M,,M,,*5C
06/12/2014	08:01:02.778	$GPGGA,080102,2543.8839,N,08009.7265,W,1,7,1.6,18,M,,M,,*5F
06/12/2014	08:01:03.874	$GPGGA,080103,2543.8837,N,08009.7265,W,1,8,1.9,18,M,,M,,*50
06/12/2014	08:01:04.952	$GPGGA,080104,2543.8839,N,08009.7265,W,1,8,1.6,18,M,,M,,*56
06/12/2014	08:01:06.135	$GPGGA,080105,2543.8840,N,08009.7264,W,1,8,1.6,18,M,,M,,*58
06/12/2014	08:01:07.094	$GPGGA,080106,2543.8844,N,08009.7263,W,1,8,1.6,18,M,,M,,*58
06/12/2014	08:01:08.184	$GPGGA,080107,2543.8846,N,08009.7262,W,1,8,1.6,18,M,,M,,*5A
06/12/2014	08:01:09.262	$GPGGA,080108,2543.8848,N,08009.7262,W,1,8,1.6,18,M,,M,,*5B
06/12/2014	08:01:10.316	$GPGGA,080109,2543.8848,N,08009.7261,W,1,8,1.6,18,M,,M,,*59
06/12/2014	08:01:11.480	$GPGGA,080110,2543.8851,N,08009.7262,W,1,8,1.6,18,M,,M,,*5A
06/12/2014	08:01:12.590	$GPGGA,080111,2543.8851,N,08009.7262,W,1,8,1.6,18,M,,M,,*5B
06/12/2014	08:01:13.649	$GPGGA,080112,2543.8855,N,08009.7260,W,1,8,1.6,18,M,,M,,*5E
06/12/2014	08:01:14.745	$GPGGA,080113,2543.8857,N,08009.7259,W,1,8,1.6,18,M,,M,,*57
06/12/2014	08:01:15.779	$GPGGA,080114,2543.8858,N,08009.7258,W,1,8,1.6,18,M,,M,,*5E
06/12/2014	08:01:16.857	$GPGGA,080115,2543.8861,N,08009.7257,W,1,8,1.6,18,M,,M,,*5A
06/12/2014	08:01:17.958	$GPGGA,080116,2543.8862,N,08009.7258,W,1,8,1.6,18,M,,M,,*55
06/12/2014	08:01:19.012	$GPGGA,080117,2543.8864,N,08009.7257,W,1,8,1.6,18,M,,M,,*5D
06/12/2014	08:01:20.089	$GPGGA,080118,2543.8866,N,08009.7258,W,1,8,1.6,18,M,,M,,*5F
06/12/2014	08:01:21.178	$GPGGA,080119,2543.8866,N,08009.7256,W,1,8,1.6,18,M,,M,,*50
06/12/2014	08:01:22.244	$GPGGA,080120,2543.8868,N,08009.7256,W,1,8,1.6,19,M,,M,,*55
06/12/2014	08:01:23.311	$GPGGA,080121,2543.8869,N,08009.7256,W,1,8,1.6,19,M,,M,,*55
06/12/2014	08:01:24.389	$GPGGA,080122,2543.8869,N,08009.7256,W,1,8,1.6,19,M,,M,,*56
06/12/2014	08:01:25.488	$GPGGA,080123,2543.8872,N,08009.7255,W,1,8,1.6,19,M,,M,,*5E
06/12/2014	08:01:26.554	$GPGGA,080124,2543.8873,N,08009.7254,W,1,8,1.6,19,M,,M,,*59
06/12/2014	08:01:27.632	$GPGGA,080125,2543.8875,N,08009.7254,W,1,8,1.6,19,M,,M,,*5E
06/12/2014	08:01:28.687	$GPGGA,080126,2543.8876,N,08009.7253,W,1,8,1.6,19,M,,M,,*59
06/12/2014	08:01:29.786	$GPGGA,080127,2543.8876,N,08009.7253,W,1,8,1.6,19,M,,M,,*58
06/12/2014	08:01:30.863	$GPGGA,080128,2543.8876,N,08009.7253,W,1,8,1.6,19,M,,M,,*57
06/12/2014	08:01:31.909	$GPGGA,080129,2543.8877,N,08009.7252,W,1,8,1.6,19,M,,M,,*56
06/12/2014	08:01:32.986	$GPGGA,080130,2543.8877,N,08009.7251,W,1,8,1.6,20,M,,M,,*57
06/12/2014	08:01:34.107	$GPGGA,080131,2543.8879,N,08009.7252,W,1,8,1.6,20,M,,M,,*5B
06/12/2014	08:01:35.152	$GPGGA,080132,2543.8878,N,08009.7252,W,1,8,1.6,20,M,,M,,*59
06/12/2014	08:01:36.251	$GPGGA,080133,2543.8880,N,08009.7252,W,1,8,1.6,20,M,,M,,*5F
06/12/2014	08:01:37.296	$GPGGA,080134,2543.8880,N,08009.7252,W,1,8,1.6,20,M,,M,,*58
06/12/2014	08:01:38.384	$GPGGA,080135,2543.8882,N,08009.7252,W,1,8,1.6,20,M,,M,,*5B
06/12/2014	08:01:39.440	$GPGGA,080136,2543.8881,N,08009.7251,W,1,8,1.6,20,M,,M,,*58
06/12/2014	08:01:40.561	$GPGGA,080137,2543.8883,N,08009.7251,W,1,8,1.6,20,M,,M,,*5B
06/12/2014	08:01:41.606	$GPGGA,080138,2543.8881,N,08009.7252,W,1,8,1.6,20,M,,M,,*55
06/12/2014	08:01:42.694	$GPGGA,080139,2543.8882,N,08009.7252,W,1,8,1.6,20,M,,M,,*57
06/12/2014	08:01:43.721	$GPGGA,080140,2543.8880,N,08009.7252,W,1,8,1.6,21,M,,M,,*5A
06/12/2014	08:01:44.792	$GPGGA,080141,2543.8882,N,08009.7252,W,1,8,1.6,21,M,,M,,*59
06/12/2014	08:01:45.790	$GPGGA,080142,2543.8880,N,08009.7252,W,1,8,1.6,21,M,,M,,*58
06/12/2014	08:01:46.799	$GPGGA,080143,2543.8880,N,08009.7252,W,1,8,1.6,21,M,,M,,*59
06/12/2014	08:01:47.848	$GPGGA,080144,2543.8880,N,08009.7254,W,1,8,1.6,21,M,,M,,*58
06/12/2014	08:01:48.877	$GPGGA,080145,2543.8878,N,08009.7253,W,1,8,1.6,21,M,,M,,*59
06/12/2014	08:01:45.513	$GPGGA,080146,2543.8879,N,08009.7254,W,1,8,1.6,21,M,,M,,*5C
06/12/2014	08:01:46.553	$GPGGA,080147,2543.8878,N,08009.7253,W,1,8,1.6,21,M,,M,,*5B
06/12/2014	08:01:47.603	$GPGGA,080148,2543.8879,N,08009.7254,W,1,8,1.6,21,M,,M,,*52
06/12/2014	08:01:48.642	$GPGGA,080149,2543.8878,N,08009.7254,W,1,8,1.6,21,M,,M,,*52
06/12/2014	08:01:49.641	$GPGGA,080150,2543.8879,N,08009.7254,W,1,8,1.6,21,M,,M,,*5B
06/12/2014	08:01:50.765	$GPGGA,080151,2543.8878,N,08009.7254,W,1,8,1.6,21,M,,M,,*5B
06/12/2014	08:01:51.690	$GPGGA,080152,2543.8879,N,08009.7255,W,1,8,1.6,21,M,,M,,*58
06/12/2014	08:01:52.843	$GPGGA,080153,2543.8875,N,08009.7256,W,1,8,1.6,21,M,,M,,*56
06/12/2014	08:01:54.799	$GPGGA,080155,2543.8869,N,08009.7258,W,1,7,1.9,21,M,,M,,*53
06/12/2014	08:01:55.931	$GPGGA,080156,2543.8867,N,08009.7261,W,1,7,1.9,22,M,,M,,*57
06/12/2014	08:01:56.848	$GPGGA,080157,2543.8864,N,08009.7262,W,1,7,1.9,22,M,,M,,*56
06/12/2014	08:01:57.959	$GPGGA,080158,2543.8862,N,08009.7261,W,1,7,1.9,22,M,,M,,*5C
06/12/2014	08:01:58.880	$GPGGA,080159,2543.8860,N,08009.7262,W,1,7,1.9,22,M,,M,,*5C
06/12/2014	08:02:00.049	$GPGGA,080200,2543.8859,N,08009.7263,W,1,7,1.9,22,M,,M,,*58
06/12/2014	08:02:01.057	$GPGGA,080201,2543.8857,N,08009.7265,W,1,7,1.9,22,M,,M,,*51
06/12/2014	08:02:02.077	$GPGGA,080202,2543.8856,N,08009.7264,W,1,7,1.9,22,M,,M,,*52
06/12/2014	08:02:03.150	$GPGGA,080203,2543.8855,N,08009.7265,W,1,7,1.9,22,M,,M,,*51
06/12/2014	08:02:04.045	$GPGGA,080204,2543.8855,N,08009.7266,W,1,7,1.9,22,M,,M,,*55
06/12/2014	08:02:05.054	$GPGGA,080205,2543.8853,N,08009.7266,W,1,7,1.9,22,M,,M,,*52
06/12/2014	08:02:06.164	$GPGGA,080206,2543.8852,N,08009.7266,W,1,7,1.9,22,M,,M,,*50
06/12/2014	08:02:07.214	$GPGGA,080207,2543.8851,N,08009.7267,W,1,7,1.9,22,M,,M,,*53
06/12/2014	08:02:08.267	$GPGGA,080208,2543.8851,N,08009.7267,W,1,7,1.9,22,M,,M,,*5C
06/12/2014	08:02:09.262	$GPGGA,080209,2543.8850,N,08009.7267,W,1,7,1.9,22,M,,M,,*5C
06/12/2014	08:02:10.282	$GPGGA,080210,2543.8851,N,08009.7269,W,1,7,1.9,22,M,,M,,*5B
06/12/2014	08:02:11.301	$GPGGA,080211,2543.8849,N,08009.7268,W,1,7,1.9,22,M,,M,,*52
06/12/2014	08:02:12.351	$GPGGA,080212,2543.8848,N,08009.7269,W,1,7,1.9,22,M,,M,,*51
06/12/2014	08:02:13.391	$GPGGA,080213,2543.8848,N,08009.7268,W,1,7,1.9,22,M,,M,,*51
06/12/2014	08:02:14.389	$GPGGA,080214,2543.8848,N,08009.7269,W,1,7,1.9,22,M,,M,,*57
06/12/2014	08:02:15.429	$GPGGA,080215,2543.8846,N,08009.7268,W,1,7,1.9,22,M,,M,,*59
06/12/2014	08:02:16.459	$GPGGA,080216,2543.8847,N,08009.7269,W,1,7,1.9,22,M,,M,,*5A
06/12/2014	08:02:17.478	$GPGGA,080217,2543.8845,N,08009.7269,W,1,7,1.9,22,M,,M,,*59
06/12/2014	08:02:18.518	$GPGGA,080218,2543.8846,N,08009.7268,W,1,7,1.9,22,M,,M,,*54
06/12/2014	08:02:19.546	$GPGGA,080219,2543.8845,N,08009.7269,W,1,7,1.9,22,M,,M,,*57
06/12/2014	08:02:20.576	$GPGGA,080220,2543.8846,N,08009.7268,W,1,7,1.9,22,M,,M,,*5F
06/12/2014	08:02:21.584	$GPGGA,080221,2543.8844,N,08009.7269,W,1,7,1.9,22,M,,M,,*5D
06/12/2014	08:02:22.614	$GPGGA,080222,2543.8844,N,08009.7268,W,1,7,1.9,22,M,,M,,*5F
06/12/2014	08:02:23.633	$GPGGA,080223,2543.8844,N,08009.7269,W,1,7,1.9,22,M,,M,,*5F
06/12/2014	08:02:24.683	$GPGGA,080224,2543.8844,N,08009.7268,W,1,7,1.9,22,M,,M,,*59
06/12/2014	08:02:25.723	$GPGGA,080225,2543.8844,N,08009.7269,W,1,7,1.9,22,M,,M,,*59
06/12/2014	08:02:26.732	$GPGGA,080226,2543.8844,N,08009.7268,W,1,7,1.9,22,M,,M,,*5B
06/12/2014	08:02:27.773	$GPGGA,080227,2543.8844,N,08009.7269,W,1,7,1.9,22,M,,M,,*5B
06/12/2014	08:02:28.801	$GPGGA,080228,2543.8844,N,08009.7268,W,1,7,1.9,22,M,,M,,*55
06/12/2014	08:02:29.820	$GPGGA,080229,2543.8844,N,08009.7269,W,1,7,1.9,22,M,,M,,*55
06/12/2014	08:02:30.840	$GPGGA,080230,2543.8844,N,08009.7268,W,1,7,1.9,23,M,,M,,*5D
06/12/2014	08:02:31.890	$GPGGA,080231,2543.8844,N,08009.7269,W,1,7,1.9,23,M,,M,,*5D
06/12/2014	08:02:32.919	$GPGGA,080232,2543.8842,N,08009.7268,W,1,7,1.9,23,M,,M,,*59
06/12/2014	08:02:33.959	$GPGGA,080233,2543.8843,N,08009.7269,W,1,7,1.9,23,M,,M,,*58
06/12/2014	08:02:34.937	$GPGGA,080234,2543.8844,N,08009.7268,W,1,7,1.9,23,M,,M,,*59
06/12/2014	08:02:35.977	$GPGGA,080235,2543.8842,N,08009.7269,W,1,7,1.9,23,M,,M,,*5F
06/12/2014	08:02:37.005	$GPGGA,080236,2543.8844,N,08009.7268,W,1,7,1.9,23,M,,M,,*5B
06/12/2014	08:02:38.045	$GPGGA,080237,2543.8844,N,08009.7267,W,1,7,1.9,23,M,,M,,*55
06/12/2014	08:02:39.049	$GPGGA,080238,2543.8844,N,08009.7267,W,1,7,1.9,23,M,,M,,*5A
06/12/2014	08:02:40.207	$GPGGA,080239,2543.8851,N,08009.7264,W,1,7,1.9,23,M,,M,,*5C
06/12/2014	08:02:41.119	$GPGGA,080240,2543.8851,N,08009.7265,W,1,7,1.6,23,M,,M,,*5C
06/12/2014	08:02:42.153	$GPGGA,080241,2543.8854,N,08009.7264,W,1,7,1.9,23,M,,M,,*56
06/12/2014	08:02:43.151	$GPGGA,080242,2543.8855,N,08009.7263,W,1,7,1.6,23,M,,M,,*5C
06/12/2014	08:02:44.181	$GPGGA,080243,2543.8858,N,08009.7262,W,1,8,1.6,24,M,,M,,*59
06/12/2014	08:02:45.344	$GPGGA,080244,2543.8858,N,08009.7262,W,1,8,1.6,24,M,,M,,*5E
06/12/2014	08:02:46.250	$GPGGA,080245,2543.8861,N,08009.7261,W,1,8,1.6,24,M,,M,,*56
06/12/2014	08:02:45.509	$GPGGA,080246,2543.8862,N,08009.7262,W,1,8,1.6,24,M,,M,,*55
06/12/2014	08:02:46.624	$GPGGA,080247,2543.8862,N,08009.7260,W,1,8,1.6,24,M,,M,,*56
06/12/2014	08:02:47.572	$GPGGA,080248,2543.8862,N,08009.7261,W,1,8,1.6,24,M,,M,,*58
06/12/2014	08:02:48.724	$GPGGA,080249,2543.8864,N,08009.7259,W,1,8,1.6,24,M,,M,,*54
06/12/2014	08:02:49.712	$GPGGA,080250,2543.8865,N,08009.7259,W,1,8,1.6,24,M,,M,,*5D
06/12/2014	08:02:50.772	$GPGGA,080251,2543.8864,N,08009.7258,W,1,8,1.6,24,M,,M,,*5C
06/12/2014	08:02:51.776	$GPGGA,080252,2543.8865,N,08009.7258,W,1,8,1.6,25,M,,M,,*5F
06/12/2014	08:02:52.831	$GPGGA,080253,2543.8863,N,08009.7258,W,1,8,1.6,25,M,,M,,*58
06/12/2014	08:02:53.829	$GPGGA,080254,2543.8864,N,08009.7258,W,1,8,1.6,25,M,,M,,*58
06/12/2014	08:02:54.859	$GPGGA,080255,2543.8863,N,08009.7258,W,1,8,1.6,25,M,,M,,*5E
06/12/2014	08:02:55.900	$GPGGA,080256,2543.8862,N,08009.7258,W,1,8,1.6,25,M,,M,,*5C
06/12/2014	08:02:56.907	$GPGGA,080257,2543.8862,N,08009.7258,W,1,8,1.6,25,M,,M,,*5D
06/12/2014	08:02:57.937	$GPGGA,080258,2543.8859,N,08009.7259,W,1,8,1.6,25,M,,M,,*5B
06/12/2014	08:02:58.977	$GPGGA,080259,2543.8857,N,08009.7261,W,1,7,1.9,25,M,,M,,*5F
06/12/2014	08:02:59.996	$GPGGA,080300,2543.8855,N,08009.7262,W,1,7,1.6,25,M,,M,,*5C
06/12/2014	08:03:01.036	$GPGGA,080301,2543.8852,N,08009.7262,W,1,8,1.6,25,M,,M,,*55
06/12/2014	08:03:02.034	$GPGGA,080302,2543.8851,N,08009.7262,W,1,8,1.6,25,M,,M,,*55
06/12/2014	08:03:03.095	$GPGGA,080303,2543.8850,N,08009.7263,W,1,8,1.6,25,M,,M,,*54
06/12/2014	08:03:04.103	$GPGGA,080304,2543.8851,N,08009.7263,W,1,8,1.6,25,M,,M,,*52
06/12/2014	08:03:05.143	$GPGGA,080305,2543.8849,N,08009.7263,W,1,8,1.6,25,M,,M,,*5A
06/12/2014	08:03:06.142	$GPGGA,080306,2543.8850,N,08009.7265,W,1,8,1.6,25,M,,M,,*57
06/12/2014	08:03:07.192	$GPGGA,080307,2543.8848,N,08009.7263,W,1,8,1.6,25,M,,M,,*59
06/12/2014	08:03:08.232	$GPGGA,080308,2543.8850,N,08009.7263,W,1,8,1.6,25,M,,M,,*5F
06/12/2014	08:03:09.230	$GPGGA,080309,2543.8851,N,08009.7263,W,1,8,1.6,25,M,,M,,*5F
06/12/2014	08:03:10.271	$GPGGA,080310,2543.8850,N,08009.7262,W,1,8,1.6,25,M,,M,,*57
06/12/2014	08:03:11.309	$GPGGA,080311,2543.8851,N,08009.7262,W,1,8,1.6,25,M,,M,,*57
06/12/2014	08:03:12.318	$GPGGA,080312,2543.8851,N,08009.7262,W,1,8,1.6,25,M,,M,,*54
06/12/2014	08:03:13.368	$GPGGA,080313,2543.8851,N,08009.7262,W,1,8,1.6,25,M,,M,,*55
06/12/2014	08:03:14.367	$GPGGA,080314,2543.8850,N,08009.7263,W,1,8,1.6,25,M,,M,,*52
06/12/2014	08:03:15.396	$GPGGA,080315,2543.8849,N,08009.7263,W,1,7,1.9,25,M,,M,,*5B
06/12/2014	08:03:16.446	$GPGGA,080316,2543.8848,N,08009.7265,W,1,7,1.6,25,M,,M,,*50
06/12/2014	08:03:17.486	$GPGGA,080317,2543.8846,N,08009.7264,W,1,8,1.6,25,M,,M,,*51
06/12/2014	08:03:18.474	$GPGGA,080318,2543.8845,N,08009.7265,W,1,8,1.6,25,M,,M,,*5C
06/12/2014	08:03:19.535	$GPGGA,080319,2543.8844,N,08009.7265,W,1,8,1.6,25,M,,M,,*5C
06/12/2014	08:03:20.533	$GPGGA,080320,2543.8844,N,08009.7265,W,1,8,1.6,25,M,,M,,*56
06/12/2014	08:03:21.573	$GPGGA,080321,2543.8844,N,08009.7265,W,1,8,1.6,25,M,,M,,*57
06/12/2014	08:03:22.603	$GPGGA,080322,2543.8842,N,08009.7265,W,1,8,1.6,25,M,,M,,*52
06/12/2014	08:03:23.622	$GPGGA,080323,2543.8843,N,08009.7265,W,1,8,1.6,25,M,,M,,*52
06/12/2014	08:03:24.662	$GPGGA,080324,2543.8842,N,08009.7265,W,1,8,1.6,25,M,,M,,*54
06/12/2014	08:03:25.701	$GPGGA,080325,2543.8843,N,08009.7265,W,1,8,1.6,25,M,,M,,*54
06/12/2014	08:03:26.803	$GPGGA,080326,2543.8842,N,08009.7265,W,1,8,1.6,25,M,,M,,*56
06/12/2014	08:03:27.904	$GPGGA,080327,2543.8843,N,08009.7265,W,1,8,1.6,25,M,,M,,*56
06/12/2014	08:03:28.791	$GPGGA,080328,2543.8842,N,08009.7265,W,1,8,1.6,25,M,,M,,*58
06/12/2014	08:03:29.798	$GPGGA,080329,2543.8844,N,08009.7264,W,1,7,1.9,25,M,,M,,*5E
06/12/2014	08:03:30.799	$GPGGA,080330,2543.8844,N,08009.7265,W,1,7,1.6,25,M,,M,,*58
06/12/2014	08:03:31.841	$GPGGA,080331,2543.8844,N,08009.7264,W,1,8,1.6,25,M,,M,,*57
06/12/2014	08:03:32.969	$GPGGA,080332,2543.8842,N,08009.7265,W,1,8,1.6,25,M,,M,,*53
06/12/2014	08:03:34.094	$GPGGA,080333,2543.8843,N,08009.7264,W,1,8,1.6,25,M,,M,,*52
06/12/2014	08:03:34.935	$GPGGA,080334,2543.8842,N,08009.7265,W,1,8,1.6,25,M,,M,,*55
06/12/2014	08:03:35.934	$GPGGA,080335,2543.8843,N,08009.7264,W,1,8,1.6,25,M,,M,,*54
06/12/2014	08:03:37.082	$GPGGA,080336,2543.8842,N,08009.7263,W,1,8,1.6,25,M,,M,,*51
06/12/2014	08:03:38.198	$GPGGA,080337,2543.8843,N,08009.7263,W,1,8,1.6,25,M,,M,,*51
06/12/2014	08:03:39.037	$GPGGA,080338,2543.8844,N,08009.7263,W,1,8,1.6,25,M,,M,,*59
06/12/2014	08:03:40.257	$GPGGA,080339,2543.8844,N,08009.7262,W,1,8,1.6,25,M,,M,,*59
06/12/2014	08:03:41.235	$GPGGA,080340,2543.8846,N,08009.7262,W,1,8,1.6,25,M,,M,,*55
06/12/2014	08:03:42.322	$GPGGA,080341,2543.8847,N,08009.7261,W,1,8,1.6,25,M,,M,,*56
06/12/2014	08:03:43.264	$GPGGA,080342,2543.8846,N,08009.7262,W,1,8,1.6,25,M,,M,,*57
06/12/2014	08:03:44.366	$GPGGA,080343,2543.8848,N,08009.7260,W,1,8,1.6,25,M,,M,,*5A
06/12/2014	08:03:45.333	$GPGGA,080344,2543.8848,N,08009.7261,W,1,8,1.6,25,M,,M,,*5C
06/12/2014	08:03:46.441	$GPGGA,080345,2543.8850,N,08009.7259,W,1,8,1.6,25,M,,M,,*5F
06/12/2014	08:03:45.601	$GPGGA,080346,2543.8851,N,08009.7259,W,1,8,1.6,25,M,,M,,*5D
06/12/2014	08:03:46.713	$GPGGA,080347,2543.8850,N,08009.7259,W,1,8,1.6,24,M,,M,,*5C
06/12/2014	08:03:47.701	$GPGGA,080348,2543.8851,N,08009.7259,W,1,8,1.6,24,M,,M,,*52
06/12/2014	08:03:48.772	$GPGGA,080349,2543.8850,N,08009.7259,W,1,8,1.6,24,M,,M,,*52
06/12/2014	08:03:49.709	$GPGGA,080350,2543.8849,N,08009.7259,W,1,8,1.6,24,M,,M,,*52
06/12/2014	08:03:50.708	$GPGGA,080351,2543.8850,N,08009.7261,W,1,8,1.6,24,M,,M,,*50
06/12/2014	08:03:51.789	$GPGGA,080352,2543.8849,N,08009.7260,W,1,8,1.6,24,M,,M,,*5A
06/12/2014	08:03:52.890	$GPGGA,080353,2543.8850,N,08009.7261,W,1,8,1.6,24,M,,M,,*52
06/12/2014	08:03:53.806	$GPGGA,080354,2543.8849,N,08009.7259,W,1,8,1.6,24,M,,M,,*56
06/12/2014	08:03:54.826	$GPGGA,080355,2543.8848,N,08009.7259,W,1,7,1.9,24,M,,M,,*56
06/12/2014	08:03:55.909	$GPGGA,080356,2543.8848,N,08009.7261,W,1,7,1.6,24,M,,M,,*51
06/12/2014	08:03:56.998	$GPGGA,080357,2543.8848,N,08009.7262,W,1,8,1.6,24,M,,M,,*5C
06/12/2014	08:03:57.945	$GPGGA,080358,2543.8848,N,08009.7261,W,1,8,1.6,24,M,,M,,*50
06/12/2014	08:03:59.048	$GPGGA,080359,2543.8848,N,08009.7262,W,1,8,1.6,24,M,,M,,*52
06/12/2014	08:04:00.004	$GPGGA,080400,2543.8848,N,08009.7262,W,1,8,1.6,24,M,,M,,*59
06/12/2014	08:04:01.095	$GPGGA,080401,2543.8848,N,08009.7263,W,1,8,1.6,24,M,,M,,*59
06/12/2014	08:04:02.042	$GPGGA,080402,2543.8848,N,08009.7265,W,1,8,1.6,24,M,,M,,*5C
06/12/2014	08:04:03.185	$GPGGA,080403,2543.8848,N,08009.7264,W,1,8,1.6,24,M,,M,,*5C
06/12/2014	08:04:04.080	$GPGGA,080404,2543.8848,N,08009.7265,W,1,8,1.6,24,M,,M,,*5A
06/12/2014	08:04:05.212	$GPGGA,080405,2543.8848,N,08009.7265,W,1,8,1.6,25,M,,M,,*5A
06/12/2014	08:04:06.123	$GPGGA,080406,2543.8848,N,08009.7263,W,1,8,1.6,25,M,,M,,*5F
06/12/2014	08:04:07.251	$GPGGA,080407,2543.8848,N,08009.7262,W,1,7,1.9,25,M,,M,,*5F
06/12/2014	08:04:08.239	$GPGGA,080408,2543.8848,N,08009.7261,W,1,7,1.9,25,M,,M,,*53
06/12/2014	08:04:09.299	$GPGGA,080409,2543.8846,N,08009.7260,W,1,7,1.9,24,M,,M,,*5C
06/12/2014	08:04:10.267	$GPGGA,080410,2543.8847,N,08009.7263,W,1,7,1.6,24,M,,M,,*59
06/12/2014	08:04:11.379	$GPGGA,080411,2543.8846,N,08009.7265,W,1,8,1.6,24,M,,M,,*50
06/12/2014	08:04:12.336	$GPGGA,080412,2543.8847,N,08009.7265,W,1,8,1.6,24,M,,M,,*52
06/12/2014	08:04:13.428	$GPGGA,080413,2543.8846,N,08009.7265,W,1,8,1.6,24,M,,M,,*52
06/12/2014	08:04:14.334	$GPGGA,080414,2543.8847,N,08009.7265,W,1,8,1.6,24,M,,M,,*54
06/12/2014	08:04:15.363	$GPGGA,080415,2543.8845,N,08009.7266,W,1,8,1.6,24,M,,M,,*54
06/12/2014	08:04:16.454	$GPGGA,080416,2543.8846,N,08009.7267,W,1,8,1.6,24,M,,M,,*55
06/12/2014	08:04:17.422	$GPGGA,080417,2543.8845,N,08009.7269,W,1,8,1.6,24,M,,M,,*59
06/12/2014	08:04:18.555	$GPGGA,080418,2543.8846,N,08009.7269,W,1,8,1.6,25,M,,M,,*54
06/12/2014	08:04:19.617	$GPGGA,080419,2543.8845,N,08009.7270,W,1,8,1.6,25,M,,M,,*5E
06/12/2014	08:04:20.562	$GPGGA,080420,2543.8846,N,08009.7272,W,1,8,1.6,25,M,,M,,*55
06/12/2014	08:04:21.632	$GPGGA,080421,2543.8845,N,08009.7272,W,1,8,1.6,25,M,,M,,*57
06/12/2014	08:04:22.599	$GPGGA,080422,2543.8846,N,08009.7272,W,1,8,1.6,25,M,,M,,*57
06/12/2014	08:04:23.722	$GPGGA,080423,2543.8845,N,08009.7273,W,1,8,1.6,25,M,,M,,*54
06/12/2014	08:04:24.669	$GPGGA,080424,2543.8844,N,08009.7271,W,1,8,1.9,25,M,,M,,*5F
06/12/2014	08:04:25.739	$GPGGA,080425,2543.8844,N,08009.7270,W,1,7,1.6,25,M,,M,,*5F
06/12/2014	08:04:26.779	$GPGGA,080426,2543.8844,N,08009.7269,W,1,7,1.6,24,M,,M,,*55
06/12/2014	08:04:27.840	$GPGGA,080427,2543.8844,N,08009.7267,W,1,8,1.6,24,M,,M,,*55
06/12/2014	08:04:28.859	$GPGGA,080428,2543.8844,N,08009.7266,W,1,8,1.9,24,M,,M,,*54
06/12/2014	08:04:29.909	$GPGGA,080429,2543.8844,N,08009.7267,W,1,7,1.6,24,M,,M,,*54
06/12/2014	08:04:30.877	$GPGGA,080430,2543.8844,N,08009.7265,W,1,7,1.6,24,M,,M,,*5E
06/12/2014	08:04:31.906	$GPGGA,080431,2543.8844,N,08009.7265,W,1,8,1.6,24,M,,M,,*50
06/12/2014	08:04:32.958	$GPGGA,080432,2543.8844,N,08009.7265,W,1,8,1.6,24,M,,M,,*53
06/12/2014	08:04:33.986	$GPGGA,080433,2543.8844,N,08009.7266,W,1,8,1.6,24,M,,M,,*51
06/12/2014	08:04:34.995	$GPGGA,080434,2543.8844,N,08009.7265,W,1,8,1.9,24,M,,M,,*5A
06/12/2014	08:04:36.061	$GPGGA,080435,2543.8844,N,08009.7265,W,1,7,1.9,23,M,,M,,*53
06/12/2014	08:04:37.065	$GPGGA,080436,2543.8844,N,08009.7265,W,1,7,1.6,23,M,,M,,*5F
06/12/2014	08:04:38.121	$GPGGA,080437,2543.8844,N,08009.7264,W,1,8,1.9,23,M,,M,,*5F
06/12/2014	08:04:39.113	$GPGGA,080438,2543.8844,N,08009.7263,W,1,8,1.9,23,M,,M,,*57
06/12/2014	08:04:40.141	$GPGGA,080439,2543.8844,N,08009.7262,W,1,7,1.9,23,M,,M,,*58
06/12/2014	08:04:41.171	$GPGGA,080440,2543.8842,N,08009.7262,W,1,7,1.6,23,M,,M,,*5F
06/12/2014	08:04:42.221	$GPGGA,080441,2543.8843,N,08009.7262,W,1,8,1.6,23,M,,M,,*50
06/12/2014	08:04:43.219	$GPGGA,080442,2543.8842,N,08009.7262,W,1,8,1.9,22,M,,M,,*5C
06/12/2014	08:04:44.321	$GPGGA,080443,2543.8841,N,08009.7262,W,1,7,1.9,22,M,,M,,*51
06/12/2014	08:04:45.289	$GPGGA,080444,2543.8842,N,08009.7265,W,1,7,1.6,22,M,,M,,*5D
06/12/2014	08:04:46.349	$GPGGA,080445,2543.8843,N,08009.7265,W,1,8,1.6,22,M,,M,,*52
06/12/2014	08:04:45.550	$GPGGA,080446,2543.8841,N,08009.7265,W,1,8,1.6,22,M,,M,,*53
06/12/2014	08:04:46.619	$GPGGA,080447,2543.8842,N,08009.7265,W,1,8,1.6,22,M,,M,,*51
06/12/2014	08:04:47.659	$GPGGA,080448,2543.8841,N,08009.7266,W,1,8,1.6,22,M,,M,,*5E
06/12/2014	08:04:48.678	$GPGGA,080449,2543.8842,N,08009.7267,W,1,8,1.6,22,M,,M,,*5D
06/12/2014	08:04:49.667	$GPGGA,080450,2543.8841,N,08009.7269,W,1,8,1.6,22,M,,M,,*58
06/12/2014	08:04:52.261	$GPGGA,080451,2543.8842,N,08009.7269,W,1,8,1.6,22,M,,M,,*5A
06/12/2014	08:04:52.282	$GPGGA,080452,2543.8840,N,08009.7270,W,1,8,1.6,22,M,,M,,*53
06/12/2014	08:04:52.796	$GPGGA,080453,2543.8840,N,08009.7270,W,1,8,1.6,22,M,,M,,*52
06/12/2014	08:04:53.774	$GPGGA,080454,2543.8840,N,08009.7272,W,1,8,1.9,22,M,,M,,*58
06/12/2014	08:04:54.855	$GPGGA,080455,2543.8842,N,08009.7272,W,1,8,1.6,22,M,,M,,*54
06/12/2014	08:04:55.843	$GPGGA,080456,2543.8840,N,08009.7272,W,1,8,1.6,22,M,,M,,*55
06/12/2014	08:04:56.924	$GPGGA,080457,2543.8842,N,08009.7272,W,1,8,1.6,22,M,,M,,*56
06/12/2014	08:04:58.005	$GPGGA,080458,2543.8841,N,08009.7272,W,1,8,1.6,22,M,,M,,*5A
06/12/2014	08:04:58.962	$GPGGA,080459,2543.8842,N,08009.7273,W,1,8,1.6,22,M,,M,,*59
06/12/2014	08:04:59.961	$GPGGA,080500,2543.8841,N,08009.7273,W,1,8,1.6,22,M,,M,,*57
06/12/2014	08:05:01.093	$GPGGA,080501,2543.8843,N,08009.7273,W,1,8,1.6,22,M,,M,,*54
06/12/2014	08:05:02.009	$GPGGA,080502,2543.8842,N,08009.7274,W,1,8,1.6,22,M,,M,,*51
06/12/2014	08:05:03.049	$GPGGA,080503,2543.8843,N,08009.7276,W,1,8,1.6,22,M,,M,,*53
06/12/2014	08:05:04.079	$GPGGA,080504,2543.8842,N,08009.7273,W,1,8,1.6,22,M,,M,,*50
06/12/2014	08:05:05.149	$GPGGA,080505,2543.8843,N,08009.7272,W,1,7,1.9,22,M,,M,,*51
06/12/2014	08:05:06.116	$GPGGA,080506,2543.8842,N,08009.7270,W,1,7,1.9,22,M,,M,,*51
06/12/2014	08:05:07.147	$GPGGA,080507,2543.8842,N,08009.7270,W,1,7,1.9,22,M,,M,,*50
06/12/2014	08:05:08.217	$GPGGA,080508,2543.8842,N,08009.7268,W,1,7,1.9,22,M,,M,,*56
06/12/2014	08:05:09.185	$GPGGA,080509,2543.8842,N,08009.7268,W,1,7,1.9,22,M,,M,,*57
06/12/2014	08:05:10.245	$GPGGA,080510,2543.8842,N,08009.7266,W,1,7,1.8,22,M,,M,,*50
06/12/2014	08:05:11.337	$GPGGA,080511,2543.8843,N,08009.7265,W,1,7,1.8,22,M,,M,,*53
06/12/2014	08:05:12.383	$GPGGA,080512,2543.8842,N,08009.7265,W,1,7,1.8,22,M,,M,,*51
06/12/2014	08:05:13.416	$GPGGA,080513,2543.8843,N,08009.7264,W,1,7,1.8,22,M,,M,,*50
06/12/2014	08:05:14.414	$GPGGA,080514,2543.8841,N,08009.7265,W,1,7,1.8,21,M,,M,,*57
06/12/2014	08:05:15.495	$GPGGA,080515,2543.8842,N,08009.7263,W,1,7,1.8,21,M,,M,,*53
06/12/2014	08:05:16.514	$GPGGA,080516,2543.8841,N,08009.7263,W,1,7,1.8,21,M,,M,,*53
06/12/2014	08:05:17.503	$GPGGA,080517,2543.8842,N,08009.7263,W,1,7,1.8,21,M,,M,,*51
06/12/2014	08:05:18.542	$GPGGA,080518,2543.8841,N,08009.7263,W,1,7,1.8,21,M,,M,,*5D
06/12/2014	08:05:19.603	$GPGGA,080519,2543.8842,N,08009.7262,W,1,7,1.8,21,M,,M,,*5E
06/12/2014	08:05:20.611	$GPGGA,080520,2543.8841,N,08009.7262,W,1,7,1.8,21,M,,M,,*57
06/12/2014	08:05:21.610	$GPGGA,080521,2543.8842,N,08009.7262,W,1,7,1.8,20,M,,M,,*54
06/12/2014	08:05:22.650	$GPGGA,080522,2543.8840,N,08009.7262,W,1,7,1.8,20,M,,M,,*55
06/12/2014	08:05:23.700	$GPGGA,080523,2543.8840,N,08009.7262,W,1,7,1.8,20,M,,M,,*54
06/12/2014	08:05:24.709	$GPGGA,080524,2543.8840,N,08009.7262,W,1,7,1.8,20,M,,M,,*53
06/12/2014	08:05:25.738	$GPGGA,080525,2543.8840,N,08009.7262,W,1,7,1.8,20,M,,M,,*52
06/12/2014	08:05:26.758	$GPGGA,080526,2543.8839,N,08009.7262,W,1,7,1.8,20,M,,M,,*5F
06/12/2014	08:05:27.818	$GPGGA,080527,2543.8840,N,08009.7263,W,1,7,1.8,20,M,,M,,*51
06/12/2014	08:05:28.817	$GPGGA,080528,2543.8839,N,08009.7263,W,1,7,1.8,19,M,,M,,*5A
06/12/2014	08:05:29.856	$GPGGA,080529,2543.8838,N,08009.7263,W,1,7,1.8,19,M,,M,,*5A
06/12/2014	08:05:30.855	$GPGGA,080530,2543.8839,N,08009.7262,W,1,7,1.8,19,M,,M,,*52
06/12/2014	08:05:31.904	$GPGGA,080531,2543.8838,N,08009.7262,W,1,7,1.8,19,M,,M,,*52
06/12/2014	08:05:32.934	$GPGGA,080532,2543.8839,N,08009.7262,W,1,7,1.8,19,M,,M,,*50
06/12/2014	08:05:33.984	$GPGGA,080533,2543.8838,N,08009.7261,W,1,7,1.8,19,M,,M,,*53
06/12/2014	08:05:34.972	$GPGGA,080534,2543.8839,N,08009.7262,W,1,7,1.8,19,M,,M,,*56
06/12/2014	08:05:36.001	$GPGGA,080535,2543.8838,N,08009.7261,W,1,7,1.8,19,M,,M,,*55
06/12/2014	08:05:37.041	$GPGGA,080536,2543.8839,N,08009.7262,W,1,7,1.8,19,M,,M,,*54
06/12/2014	08:05:38.081	$GPGGA,080537,2543.8840,N,08009.7261,W,1,7,1.8,18,M,,M,,*59
06/12/2014	08:05:39.090	$GPGGA,080538,2543.8839,N,08009.7262,W,1,7,1.8,18,M,,M,,*5B
06/12/2014	08:05:40.099	$GPGGA,080539,2543.8840,N,08009.7261,W,1,7,1.8,18,M,,M,,*57
06/12/2014	08:05:41.149	$GPGGA,080540,2543.8839,N,08009.7262,W,1,7,1.8,18,M,,M,,*54
06/12/2014	08:05:42.168	$GPGGA,080541,2543.8840,N,08009.7261,W,1,7,1.8,18,M,,M,,*58
06/12/2014	08:05:43.198	$GPGGA,080542,2543.8839,N,08009.7262,W,1,7,1.8,18,M,,M,,*56
06/12/2014	08:05:44.268	$GPGGA,080543,2543.8838,N,08009.7261,W,1,7,1.8,18,M,,M,,*55
06/12/2014	08:05:45.267	$GPGGA,080544,2543.8839,N,08009.7262,W,1,7,1.8,18,M,,M,,*50
06/12/2014	08:05:46.266	$GPGGA,080545,2543.8838,N,08009.7261,W,1,7,1.8,18,M,,M,,*53
06/12/2014	08:05:45.537	$GPGGA,080546,2543.8839,N,08009.7262,W,1,7,1.8,18,M,,M,,*52
06/12/2014	08:05:46.567	$GPGGA,080547,2543.8838,N,08009.7261,W,1,7,1.8,18,M,,M,,*51
06/12/2014	08:05:47.607	$GPGGA,080548,2543.8840,N,08009.7262,W,1,7,1.8,17,M,,M,,*5D
06/12/2014	08:05:48.615	$GPGGA,080549,2543.8838,N,08009.7261,W,1,7,1.8,17,M,,M,,*50
06/12/2014	08:05:49.654	$GPGGA,080550,2543.8840,N,08009.7262,W,1,7,1.8,17,M,,M,,*54
06/12/2014	08:05:50.674	$GPGGA,080551,2543.8839,N,08009.7262,W,1,7,1.8,17,M,,M,,*5B
06/12/2014	08:05:51.827	$GPGGA,080552,2543.8840,N,08009.7261,W,1,7,1.8,17,M,,M,,*55
06/12/2014	08:05:52.743	$GPGGA,080553,2543.8839,N,08009.7262,W,1,7,1.8,17,M,,M,,*59
06/12/2014	08:05:53.772	$GPGGA,080554,2543.8840,N,08009.7261,W,1,7,1.8,17,M,,M,,*53
06/12/2014	08:05:54.780	$GPGGA,080555,2543.8839,N,08009.7262,W,1,7,1.8,17,M,,M,,*5F
06/12/2014	08:05:55.831	$GPGGA,080556,2543.8840,N,08009.7261,W,1,7,1.8,17,M,,M,,*51
06/12/2014	08:05:56.861	$GPGGA,080557,2543.8839,N,08009.7262,W,1,7,1.8,17,M,,M,,*5D
06/12/2014	08:05:57.870	$GPGGA,080558,2543.8840,N,08009.7261,W,1,7,1.8,17,M,,M,,*5F
06/12/2014	08:05:58.899	$GPGGA,080559,2543.8839,N,08009.7262,W,1,7,1.8,17,M,,M,,*53
06/12/2014	08:06:00.063	$GPGGA,080600,2543.8840,N,08009.7261,W,1,7,1.8,17,M,,M,,*51
06/12/2014	08:06:01.087	$GPGGA,080601,2543.8839,N,08009.7262,W,1,7,1.8,17,M,,M,,*5D
06/12/2014	08:06:01.980	$GPGGA,080602,2543.8840,N,08009.7261,W,1,7,1.8,17,M,,M,,*53
06/12/2014	08:06:03.137	$GPGGA,080603,2543.8839,N,08009.7260,W,1,7,1.8,17,M,,M,,*5D
06/12/2014	08:06:04.154	$GPGGA,080604,2543.8840,N,08009.7262,W,1,7,1.8,17,M,,M,,*56
06/12/2014	08:06:05.083	$GPGGA,080605,2543.8838,N,08009.7261,W,1,7,1.8,17,M,,M,,*5B
06/12/2014	08:06:06.178	$GPGGA,080606,2543.8839,N,08009.7262,W,1,7,1.8,17,M,,M,,*5A
06/12/2014	08:06:07.247	$GPGGA,080607,2543.8838,N,08009.7262,W,1,7,1.8,17,M,,M,,*5A
06/12/2014	08:06:08.267	$GPGGA,080608,2543.8839,N,08009.7262,W,1,7,1.8,17,M,,M,,*54
06/12/2014	08:06:09.186	$GPGGA,080609,2543.8837,N,08009.7262,W,1,7,1.8,17,M,,M,,*5B
06/12/2014	08:06:10.284	$GPGGA,080610,2543.8837,N,08009.7262,W,1,7,1.8,17,M,,M,,*53
06/12/2014	08:06:11.314	$GPGGA,080611,2543.8837,N,08009.7262,W,1,7,1.8,17,M,,M,,*52
06/12/2014	08:06:12.375	$GPGGA,080612,2543.8837,N,08009.7262,W,1,7,1.8,17,M,,M,,*51
06/12/2014	08:06:13.383	$GPGGA,080613,2543.8837,N,08009.7262,W,1,7,1.8,17,M,,M,,*50
06/12/2014	08:06:14.413	$GPGGA,080614,2543.8837,N,08009.7263,W,1,7,1.8,17,M,,M,,*56
06/12/2014	08:06:15.454	$GPGGA,080615,2543.8837,N,08009.7263,W,1,7,1.8,17,M,,M,,*57
06/12/2014	08:06:16.461	$GPGGA,080616,2543.8837,N,08009.7263,W,1,7,1.8,17,M,,M,,*54
06/12/2014	08:06:17.501	$GPGGA,080617,2543.8837,N,08009.7263,W,1,7,1.8,17,M,,M,,*55
06/12/2014	08:06:18.510	$GPGGA,080618,2543.8837,N,08009.7263,W,1,7,1.8,17,M,,M,,*5A
06/12/2014	08:06:19.540	$GPGGA,080619,2543.8837,N,08009.7265,W,1,7,1.8,18,M,,M,,*52
06/12/2014	08:06:20.590	$GPGGA,080620,2543.8837,N,08009.7264,W,1,7,1.8,18,M,,M,,*59
06/12/2014	08:06:21.619	$GPGGA,080621,2543.8837,N,08009.7265,W,1,7,1.8,18,M,,M,,*59
06/12/2014	08:06:22.618	$GPGGA,080622,2543.8837,N,08009.7264,W,1,7,1.8,18,M,,M,,*5B
06/12/2014	08:06:23.678	$GPGGA,080623,2543.8837,N,08009.7265,W,1,7,1.8,18,M,,M,,*5B
06/12/2014	08:06:24.696	$GPGGA,080624,2543.8837,N,08009.7264,W,1,7,1.8,18,M,,M,,*5D
06/12/2014	08:06:25.736	$GPGGA,080625,2543.8835,N,08009.7265,W,1,7,1.8,18,M,,M,,*5F
06/12/2014	08:06:26.725	$GPGGA,080626,2543.8836,N,08009.7264,W,1,7,1.8,18,M,,M,,*5E
06/12/2014	08:06:27.775	$GPGGA,080627,2543.8835,N,08009.7265,W,1,7,1.8,18,M,,M,,*5D
06/12/2014	08:06:28.804	$GPGGA,080628,2543.8836,N,08009.7264,W,1,7,1.8,18,M,,M,,*50
06/12/2014	08:06:29.844	$GPGGA,080629,2543.8835,N,08009.7265,W,1,7,1.8,18,M,,M,,*53
06/12/2014	08:06:30.843	$GPGGA,080630,2543.8836,N,08009.7265,W,1,7,1.8,18,M,,M,,*58
06/12/2014	08:06:31.893	$GPGGA,080631,2543.8835,N,08009.7265,W,1,7,1.8,18,M,,M,,*5A
06/12/2014	08:06:32.912	$GPGGA,080632,2543.8836,N,08009.7266,W,1,7,1.8,18,M,,M,,*59
06/12/2014	08:06:33.962	$GPGGA,080633,2543.8835,N,08009.7266,W,1,7,1.8,18,M,,M,,*5B
06/12/2014	08:06:34.971	$GPGGA,080634,2543.8836,N,08009.7266,W,1,7,1.8,18,M,,M,,*5F
06/12/2014	08:06:36.011	$GPGGA,080635,2543.8835,N,08009.7266,W,1,7,1.8,18,M,,M,,*5D
06/12/2014	08:06:37.009	$GPGGA,080636,2543.8834,N,08009.7267,W,1,7,1.8,18,M,,M,,*5E
06/12/2014	08:06:38.070	$GPGGA,080637,2543.8835,N,08009.7267,W,1,7,1.8,18,M,,M,,*5E
06/12/2014	08:06:39.068	$GPGGA,080638,2543.8834,N,08009.7267,W,1,7,1.8,18,M,,M,,*50
06/12/2014	08:06:40.093	$GPGGA,080639,2543.8835,N,08009.7267,W,1,7,1.8,18,M,,M,,*50
06/12/2014	08:06:41.131	$GPGGA,080640,2543.8834,N,08009.7267,W,1,7,1.8,18,M,,M,,*5F
06/12/2014	08:06:42.152	$GPGGA,080641,2543.8835,N,08009.7267,W,1,7,1.8,18,M,,M,,*5F
06/12/2014	08:06:43.129	$GPGGA,080642,2543.8834,N,08009.7269,W,1,7,1.8,18,M,,M,,*53
06/12/2014	08:06:44.146	$GPGGA,080643,2543.8835,N,08009.7268,W,1,7,1.8,18,M,,M,,*52
06/12/2014	08:06:45.279	$GPGGA,080644,2543.8834,N,08009.7267,W,1,7,1.8,19,M,,M,,*5A
06/12/2014	08:06:46.170	$GPGGA,080645,2543.8835,N,08009.7267,W,1,7,1.8,19,M,,M,,*5A
06/12/2014	08:06:45.618	$GPGGA,080646,2543.8834,N,08009.7267,W,1,7,1.8,19,M,,M,,*58
06/12/2014	08:06:46.529	$GPGGA,080647,2543.8835,N,08009.7267,W,1,7,1.8,19,M,,M,,*58
06/12/2014	08:06:47.652	$GPGGA,080648,2543.8834,N,08009.7267,W,1,7,1.8,19,M,,M,,*56
06/12/2014	08:06:48.543	$GPGGA,080649,2543.8835,N,08009.7267,W,1,7,1.8,19,M,,M,,*56
06/12/2014	08:06:49.636	$GPGGA,080650,2543.8834,N,08009.7267,W,1,7,1.8,19,M,,M,,*5F
06/12/2014	08:06:50.578	$GPGGA,080651,2543.8835,N,08009.7267,W,1,7,1.8,19,M,,M,,*5F
06/12/2014	08:06:51.691	$GPGGA,080652,2543.8834,N,08009.7266,W,1,7,1.8,19,M,,M,,*5C
06/12/2014	08:06:52.602	$GPGGA,080653,2543.8836,N,08009.7266,W,1,7,1.8,19,M,,M,,*5F
06/12/2014	08:06:53.675	$GPGGA,080654,2543.8835,N,08009.7266,W,1,7,1.8,19,M,,M,,*5B
06/12/2014	08:06:54.707	$GPGGA,080655,2543.8836,N,08009.7266,W,1,7,1.8,19,M,,M,,*59
06/12/2014	08:06:55.628	$GPGGA,080656,2543.8835,N,08009.7266,W,1,7,1.8,19,M,,M,,*59
06/12/2014	08:06:56.626	$GPGGA,080657,2543.8836,N,08009.7266,W,1,7,1.8,19,M,,M,,*5B
06/12/2014	08:06:57.724	$GPGGA,080658,2543.8835,N,08009.7265,W,1,7,1.8,19,M,,M,,*54
06/12/2014	08:06:58.735	$GPGGA,080659,2543.8836,N,08009.7265,W,1,7,1.8,19,M,,M,,*56
06/12/2014	08:06:59.767	$GPGGA,080700,2543.8835,N,08009.7265,W,1,7,1.8,19,M,,M,,*58
06/12/2014	08:07:00.759	$GPGGA,080701,2543.8836,N,08009.7265,W,1,7,1.8,19,M,,M,,*5A
06/12/2014	08:07:01.772	$GPGGA,080702,2543.8835,N,08009.7265,W,1,7,1.8,19,M,,M,,*5A
06/12/2014	08:07:02.774	$GPGGA,080703,2543.8836,N,08009.7265,W,1,7,1.8,19,M,,M,,*58
06/12/2014	08:07:03.806	$GPGGA,080704,2543.8835,N,08009.7265,W,1,7,1.8,19,M,,M,,*5C
06/12/2014	08:07:04.818	$GPGGA,080705,2543.8836,N,08009.7266,W,1,7,1.8,19,M,,M,,*5D
06/12/2014	08:07:05.810	$GPGGA,080706,2543.8835,N,08009.7266,W,1,7,1.8,19,M,,M,,*5D
06/12/2014	08:07:06.833	$GPGGA,080707,2543.8837,N,08009.7265,W,1,7,1.8,19,M,,M,,*5D
06/12/2014	08:07:07.845	$GPGGA,080708,2543.8837,N,08009.7264,W,1,7,1.7,19,M,,M,,*5C
06/12/2014	08:07:08.857	$GPGGA,080709,2543.8837,N,08009.7265,W,1,8,1.7,19,M,,M,,*53
06/12/2014	08:07:09.859	$GPGGA,080710,2543.8839,N,08009.7263,W,1,8,1.7,19,M,,M,,*53
06/12/2014	08:07:10.881	$GPGGA,080711,2543.8840,N,08009.7262,W,1,8,1.7,19,M,,M,,*5D
06/12/2014	08:07:11.873	$GPGGA,080712,2543.8840,N,08009.7261,W,1,8,1.7,19,M,,M,,*5D
06/12/2014	08:07:12.875	$GPGGA,080713,2543.8840,N,08009.7262,W,1,8,1.7,19,M,,M,,*5F
06/12/2014	08:07:13.888	$GPGGA,080714,2543.8842,N,08009.7261,W,1,8,1.7,19,M,,M,,*59
06/12/2014	08:07:14.920	$GPGGA,080715,2543.8843,N,08009.7260,W,1,8,1.7,19,M,,M,,*58
06/12/2014	08:07:15.921	$GPGGA,080716,2543.8842,N,08009.7261,W,1,8,1.7,19,M,,M,,*5B
06/12/2014	08:07:16.943	$GPGGA,080717,2543.8844,N,08009.7259,W,1,8,1.7,19,M,,M,,*57
06/12/2014	08:07:17.935	$GPGGA,080718,2543.8844,N,08009.7259,W,1,8,1.7,19,M,,M,,*58
06/12/2014	08:07:18.968	$GPGGA,080719,2543.8844,N,08009.7259,W,1,8,1.7,19,M,,M,,*59
06/12/2014	08:07:19.971	$GPGGA,080720,2543.8846,N,08009.7259,W,1,8,1.7,19,M,,M,,*51
06/12/2014	08:07:20.962	$GPGGA,080721,2543.8845,N,08009.7258,W,1,8,1.7,19,M,,M,,*52
06/12/2014	08:07:21.974	$GPGGA,080722,2543.8847,N,08009.7258,W,1,8,1.7,20,M,,M,,*59
06/12/2014	08:07:23.017	$GPGGA,080723,2543.8846,N,08009.7258,W,1,8,1.7,20,M,,M,,*59
06/12/2014	08:07:24.009	$GPGGA,080724,2543.8847,N,08009.7258,W,1,8,1.7,20,M,,M,,*5F
06/12/2014	08:07:25.001	$GPGGA,080725,2543.8846,N,08009.7258,W,1,8,1.7,20,M,,M,,*5F
06/12/2014	08:07:26.003	$GPGGA,080726,2543.8847,N,08009.7258,W,1,8,1.7,20,M,,M,,*5D
06/12/2014	08:07:27.015	$GPGGA,080727,2543.8846,N,08009.7258,W,1,8,1.7,20,M,,M,,*5D
06/12/2014	08:07:28.057	$GPGGA,080728,2543.8847,N,08009.7258,W,1,8,1.7,20,M,,M,,*53
06/12/2014	08:07:29.031	$GPGGA,080729,2543.8846,N,08009.7258,W,1,8,1.7,20,M,,M,,*53
06/12/2014	08:07:30.062	$GPGGA,080730,2543.8847,N,08009.7258,W,1,8,1.7,20,M,,M,,*5A
06/12/2014	08:07:31.075	$GPGGA,080731,2543.8846,N,08009.7258,W,1,8,1.7,20,M,,M,,*5A
06/12/2014	08:07:32.177	$GPGGA,080732,2543.8847,N,08009.7258,W,1,8,1.7,20,M,,M,,*58
06/12/2014	08:07:33.108	$GPGGA,080733,2543.8846,N,08009.7259,W,1,8,1.7,20,M,,M,,*59
06/12/2014	08:07:34.083	$GPGGA,080734,2543.8847,N,08009.7259,W,1,8,1.7,20,M,,M,,*5F
06/12/2014	08:07:35.099	$GPGGA,080735,2543.8848,N,08009.7259,W,1,8,1.7,20,M,,M,,*51
06/12/2014	08:07:36.136	$GPGGA,080736,2543.8848,N,08009.7259,W,1,8,1.7,20,M,,M,,*52
06/12/2014	08:07:37.219	$GPGGA,080737,2543.8848,N,08009.7261,W,1,8,1.7,20,M,,M,,*58
06/12/2014	08:07:38.154	$GPGGA,080738,2543.8848,N,08009.7260,W,1,8,1.7,20,M,,M,,*56
06/12/2014	08:07:39.160	$GPGGA,080739,2543.8848,N,08009.7261,W,1,8,1.7,20,M,,M,,*56
06/12/2014	08:07:40.156	$GPGGA,080740,2543.8848,N,08009.7260,W,1,8,1.7,20,M,,M,,*59
06/12/2014	08:07:41.170	$GPGGA,080741,2543.8848,N,08009.7261,W,1,8,1.7,20,M,,M,,*59
06/12/2014	08:07:42.170	$GPGGA,080742,2543.8848,N,08009.7262,W,1,8,1.7,20,M,,M,,*59
06/12/2014	08:07:43.194	$GPGGA,080743,2543.8848,N,08009.7261,W,1,8,1.7,20,M,,M,,*5B
06/12/2014	08:07:44.312	$GPGGA,080744,2543.8848,N,08009.7262,W,1,8,1.7,20,M,,M,,*5F
06/12/2014	08:07:45.208	$GPGGA,080745,2543.8848,N,08009.7261,W,1,8,1.7,20,M,,M,,*5D
06/12/2014	08:07:45.576	$GPGGA,080746,2543.8848,N,08009.7262,W,1,8,1.7,20,M,,M,,*5D
06/12/2014	08:07:46.498	$GPGGA,080747,2543.8848,N,08009.7261,W,1,8,1.7,20,M,,M,,*5F
06/12/2014	08:07:47.631	$GPGGA,080748,2543.8850,N,08009.7262,W,1,8,1.7,20,M,,M,,*5A
06/12/2014	08:07:48.625	$GPGGA,080749,2543.8849,N,08009.7261,W,1,8,1.7,20,M,,M,,*50
06/12/2014	08:07:49.616	$GPGGA,080750,2543.8850,N,08009.7262,W,1,8,1.7,20,M,,M,,*53
06/12/2014	08:07:50.636	$GPGGA,080751,2543.8849,N,08009.7261,W,1,8,1.7,20,M,,M,,*59
06/12/2014	08:07:51.661	$GPGGA,080752,2543.8851,N,08009.7262,W,1,8,1.7,20,M,,M,,*50
06/12/2014	08:07:52.671	$GPGGA,080753,2543.8850,N,08009.7261,W,1,8,1.7,20,M,,M,,*53
06/12/2014	08:07:53.673	$GPGGA,080754,2543.8851,N,08009.7262,W,1,8,1.7,20,M,,M,,*56
06/12/2014	08:07:54.685	$GPGGA,080755,2543.8850,N,08009.7261,W,1,8,1.7,20,M,,M,,*55
06/12/2014	08:07:55.697	$GPGGA,080756,2543.8851,N,08009.7262,W,1,8,1.7,20,M,,M,,*54
06/12/2014	08:07:56.699	$GPGGA,080757,2543.8850,N,08009.7262,W,1,8,1.7,20,M,,M,,*54
06/12/2014	08:07:57.712	$GPGGA,080758,2543.8851,N,08009.7262,W,1,8,1.7,20,M,,M,,*5A
06/12/2014	08:07:58.734	$GPGGA,080759,2543.8850,N,08009.7262,W,1,8,1.7,20,M,,M,,*5A
06/12/2014	08:07:59.757	$GPGGA,080800,2543.8849,N,08009.7263,W,1,8,1.7,20,M,,M,,*50
06/12/2014	08:08:00.748	$GPGGA,080801,2543.8850,N,08009.7263,W,1,8,1.7,20,M,,M,,*59
06/12/2014	08:08:01.750	$GPGGA,080802,2543.8849,N,08009.7263,W,1,8,1.7,20,M,,M,,*52
06/12/2014	08:08:02.773	$GPGGA,080803,2543.8850,N,08009.7263,W,1,8,1.7,20,M,,M,,*5B
06/12/2014	08:08:03.785	$GPGGA,080804,2543.8848,N,08009.7263,W,1,8,1.7,20,M,,M,,*55
06/12/2014	08:08:04.797	$GPGGA,080805,2543.8848,N,08009.7263,W,1,8,1.7,20,M,,M,,*54
06/12/2014	08:08:05.789	$GPGGA,080806,2543.8848,N,08009.7265,W,1,8,1.7,20,M,,M,,*51
06/12/2014	08:08:06.791	$GPGGA,080807,2543.8848,N,08009.7264,W,1,8,1.7,20,M,,M,,*51
06/12/2014	08:08:08.835	$GPGGA,080809,2543.8848,N,08009.7264,W,1,8,1.7,20,M,,M,,*5F
06/12/2014	08:08:09.837	$GPGGA,080810,2543.8848,N,08009.7265,W,1,8,1.7,20,M,,M,,*56
06/12/2014	08:08:10.879	$GPGGA,080811,2543.8848,N,08009.7265,W,1,8,1.7,20,M,,M,,*57
06/12/2014	08:08:11.871	$GPGGA,080812,2543.8846,N,08009.7265,W,1,8,1.7,20,M,,M,,*5A
06/12/2014	08:08:12.894	$GPGGA,080813,2543.8847,N,08009.7265,W,1,8,1.7,20,M,,M,,*5A
06/12/2014	08:08:13.875	$GPGGA,080814,2543.8845,N,08009.7266,W,1,8,1.7,20,M,,M,,*5C
06/12/2014	08:08:14.908	$GPGGA,080815,2543.8846,N,08009.7266,W,1,8,1.7,20,M,,M,,*5E
06/12/2014	08:08:15.890	$GPGGA,080816,2543.8844,N,08009.7266,W,1,8,1.7,20,M,,M,,*5F
06/12/2014	08:08:16.892	$GPGGA,080817,2543.8844,N,08009.7266,W,1,8,1.7,20,M,,M,,*5E
06/12/2014	08:08:17.904	$GPGGA,080818,2543.8844,N,08009.7266,W,1,8,1.7,20,M,,M,,*51
06/12/2014	08:08:18.957	$GPGGA,080819,2543.8844,N,08009.7267,W,1,8,1.7,20,M,,M,,*51
06/12/2014	08:08:20.060	$GPGGA,080820,2543.8844,N,08009.7267,W,1,8,1.7,20,M,,M,,*5B
06/12/2014	08:08:20.951	$GPGGA,080821,2543.8844,N,08009.7267,W,1,8,1.7,20,M,,M,,*5A
06/12/2014	08:08:21.943	$GPGGA,080822,2543.8844,N,08009.7267,W,1,8,1.7,20,M,,M,,*59
06/12/2014	08:08:22.976	$GPGGA,080823,2543.8842,N,08009.7267,W,1,8,1.7,20,M,,M,,*5E
06/12/2014	08:08:23.987	$GPGGA,080824,2543.8843,N,08009.7267,W,1,8,1.7,20,M,,M,,*58
06/12/2014	08:08:24.999	$GPGGA,080825,2543.8844,N,08009.7267,W,1,8,1.7,20,M,,M,,*5E
06/12/2014	08:08:25.980	$GPGGA,080826,2543.8844,N,08009.7267,W,1,8,1.7,20,M,,M,,*5D
06/12/2014	08:08:26.993	$GPGGA,080827,2543.8844,N,08009.7267,W,1,8,1.7,20,M,,M,,*5C
06/12/2014	08:08:28.134	$GPGGA,080828,2543.8844,N,08009.7267,W,1,8,1.7,20,M,,M,,*53
06/12/2014	08:08:29.138	$GPGGA,080829,2543.8844,N,08009.7267,W,1,8,1.7,20,M,,M,,*52
06/12/2014	08:08:30.135	$GPGGA,080830,2543.8844,N,08009.7267,W,1,8,1.7,20,M,,M,,*5A
06/12/2014	08:08:31.151	$GPGGA,080831,2543.8844,N,08009.7267,W,1,8,1.7,20,M,,M,,*5B
06/12/2014	08:08:32.185	$GPGGA,080832,2543.8844,N,08009.7267,W,1,8,1.7,20,M,,M,,*58
06/12/2014	08:08:33.087	$GPGGA,080833,2543.8844,N,08009.7267,W,1,8,1.7,20,M,,M,,*59
06/12/2014	08:08:34.189	$GPGGA,080834,2543.8844,N,08009.7267,W,1,8,1.7,20,M,,M,,*5E
06/12/2014	08:08:35.205	$GPGGA,080835,2543.8844,N,08009.7269,W,1,8,1.7,20,M,,M,,*51
06/12/2014	08:08:36.206	$GPGGA,080836,2543.8844,N,08009.7268,W,1,8,1.7,20,M,,M,,*53
06/12/2014	08:08:37.226	$GPGGA,080837,2543.8844,N,08009.7269,W,1,8,1.7,20,M,,M,,*53
06/12/2014	08:08:38.219	$GPGGA,080838,2543.8844,N,08009.7269,W,1,8,1.7,20,M,,M,,*5C
06/12/2014	08:08:39.270	$GPGGA,080839,2543.8846,N,08009.7269,W,1,8,1.7,20,M,,M,,*5F
06/12/2014	08:08:40.262	$GPGGA,080840,2543.8845,N,08009.7269,W,1,8,1.7,20,M,,M,,*52
06/12/2014	08:08:41.244	$GPGGA,080841,2543.8846,N,08009.7269,W,1,8,1.7,20,M,,M,,*50
06/12/2014	08:08:42.257	$GPGGA,080842,2543.8845,N,08009.7269,W,1,8,1.7,20,M,,M,,*50
06/12/2014	08:08:43.268	$GPGGA,080843,2543.8847,N,08009.7270,W,1,8,1.7,20,M,,M,,*5B
06/12/2014	08:08:44.280	$GPGGA,080844,2543.8846,N,08009.7269,W,1,8,1.7,20,M,,M,,*55
06/12/2014	08:08:45.312	$GPGGA,080845,2543.8848,N,08009.7269,W,1,8,1.7,20,M,,M,,*5A
06/12/2014	08:08:45.553	$GPGGA,080846,2543.8848,N,08009.7269,W,1,8,1.7,20,M,,M,,*59
06/12/2014	08:08:46.585	$GPGGA,080847,2543.8848,N,08009.7269,W,1,8,1.7,20,M,,M,,*58
06/12/2014	08:08:47.598	$GPGGA,080848,2543.8848,N,08009.7269,W,1,8,1.7,20,M,,M,,*57
06/12/2014	08:08:48.610	$GPGGA,080849,2543.8850,N,08009.7269,W,1,8,1.7,20,M,,M,,*5F
06/12/2014	08:08:49.602	$GPGGA,080850,2543.8849,N,08009.7269,W,1,8,1.7,20,M,,M,,*5F
06/12/2014	08:08:50.624	$GPGGA,080851,2543.8851,N,08009.7269,W,1,8,1.7,20,M,,M,,*57
06/12/2014	08:08:51.636	$GPGGA,080852,2543.8850,N,08009.7270,W,1,8,1.7,20,M,,M,,*5D
06/12/2014	08:08:52.649	$GPGGA,080853,2543.8851,N,08009.7270,W,1,8,1.7,20,M,,M,,*5D
06/12/2014	08:08:53.641	$GPGGA,080854,2543.8850,N,08009.7270,W,1,8,1.7,20,M,,M,,*5B
06/12/2014	08:08:54.663	$GPGGA,080855,2543.8851,N,08009.7270,W,1,8,1.7,20,M,,M,,*5B
06/12/2014	08:08:55.685	$GPGGA,080856,2543.8851,N,08009.7270,W,1,8,1.7,20,M,,M,,*58
06/12/2014	08:08:56.688	$GPGGA,080857,2543.8853,N,08009.7270,W,1,8,1.7,20,M,,M,,*5B
06/12/2014	08:08:57.699	$GPGGA,080858,2543.8852,N,08009.7270,W,1,8,1.7,20,M,,M,,*55
06/12/2014	08:08:58.702	$GPGGA,080859,2543.8853,N,08009.7270,W,1,8,1.7,20,M,,M,,*55
06/12/2014	08:08:59.736	$GPGGA,080900,2543.8852,N,08009.7270,W,1,8,1.7,20,M,,M,,*59
06/12/2014	08:09:00.745	$GPGGA,080901,2543.8853,N,08009.7270,W,1,8,1.7,20,M,,M,,*59
06/12/2014	08:09:01.727	$GPGGA,080902,2543.8854,N,08009.7272,W,1,8,1.7,20,M,,M,,*5F
06/12/2014	08:09:02.739	$GPGGA,080903,2543.8853,N,08009.7271,W,1,8,1.7,20,M,,M,,*5A
06/12/2014	08:09:03.762	$GPGGA,080904,2543.8854,N,08009.7272,W,1,8,1.7,20,M,,M,,*59
06/12/2014	08:09:04.743	$GPGGA,080905,2543.8853,N,08009.7271,W,1,8,1.7,20,M,,M,,*5C
06/12/2014	08:09:05.776	$GPGGA,080906,2543.8854,N,08009.7272,W,1,8,1.7,20,M,,M,,*5B
06/12/2014	08:09:06.798	$GPGGA,080907,2543.8853,N,08009.7271,W,1,8,1.7,20,M,,M,,*5E
06/12/2014	08:09:07.810	$GPGGA,080908,2543.8854,N,08009.7272,W,1,8,1.7,20,M,,M,,*55
06/12/2014	08:09:08.822	$GPGGA,080909,2543.8853,N,08009.7272,W,1,8,1.7,20,M,,M,,*53
06/12/2014	08:09:09.814	$GPGGA,080910,2543.8854,N,08009.7272,W,1,8,1.7,20,M,,M,,*5C
06/12/2014	08:09:10.817	$GPGGA,080911,2543.8853,N,08009.7272,W,1,8,1.7,20,M,,M,,*5A
06/12/2014	08:09:11.950	$GPGGA,080912,2543.8854,N,08009.7272,W,1,8,1.7,20,M,,M,,*5E
06/12/2014	08:09:12.861	$GPGGA,080913,2543.8853,N,08009.7273,W,1,8,1.7,20,M,,M,,*59
06/12/2014	08:09:13.864	$GPGGA,080914,2543.8854,N,08009.7273,W,1,8,1.7,20,M,,M,,*59
06/12/2014	08:09:14.875	$GPGGA,080915,2543.8852,N,08009.7273,W,1,8,1.8,20,M,,M,,*51
06/12/2014	08:09:15.899	$GPGGA,080916,2543.8857,N,08009.7273,W,1,8,1.7,20,M,,M,,*58
06/12/2014	08:09:16.900	$GPGGA,080917,2543.8858,N,08009.7273,W,1,8,1.7,20,M,,M,,*56
06/12/2014	08:09:17.921	$GPGGA,080918,2543.8856,N,08009.7273,W,1,8,1.8,20,M,,M,,*58
06/12/2014	08:09:18.923	$GPGGA,080919,2543.8855,N,08009.7274,W,1,7,1.8,20,M,,M,,*52
06/12/2014	08:09:20.027	$GPGGA,080920,2543.8855,N,08009.7274,W,1,7,1.8,20,M,,M,,*58
06/12/2014	08:09:20.948	$GPGGA,080921,2543.8853,N,08009.7274,W,1,7,1.8,20,M,,M,,*5F
06/12/2014	08:09:22.031	$GPGGA,080922,2543.8854,N,08009.7274,W,1,7,1.8,20,M,,M,,*5B
06/12/2014	08:09:23.054	$GPGGA,080923,2543.8852,N,08009.7274,W,1,7,1.8,20,M,,M,,*5C
06/12/2014	08:09:23.984	$GPGGA,080924,2543.8851,N,08009.7274,W,1,7,1.8,20,M,,M,,*58
06/12/2014	08:09:24.966	$GPGGA,080925,2543.8851,N,08009.7274,W,1,7,1.8,20,M,,M,,*59
06/12/2014	08:09:26.059	$GPGGA,080926,2543.8850,N,08009.7276,W,1,7,1.8,20,M,,M,,*59
06/12/2014	08:09:26.990	$GPGGA,080927,2543.8851,N,08009.7275,W,1,7,1.8,20,M,,M,,*5A
06/12/2014	08:09:28.094	$GPGGA,080928,2543.8850,N,08009.7276,W,1,7,1.8,20,M,,M,,*57
06/12/2014	08:09:29.130	$GPGGA,080929,2543.8849,N,08009.7275,W,1,7,1.8,20,M,,M,,*5D
06/12/2014	08:09:30.098	$GPGGA,080930,2543.8850,N,08009.7276,W,1,7,1.8,20,M,,M,,*5E
06/12/2014	08:09:31.120	$GPGGA,080931,2543.8849,N,08009.7275,W,1,7,1.8,20,M,,M,,*54
06/12/2014	08:09:32.143	$GPGGA,080932,2543.8848,N,08009.7276,W,1,7,1.8,20,M,,M,,*55
06/12/2014	08:09:33.155	$GPGGA,080933,2543.8848,N,08009.7275,W,1,7,1.8,20,M,,M,,*57
06/12/2014	08:09:34.147	$GPGGA,080934,2543.8848,N,08009.7276,W,1,7,1.8,20,M,,M,,*53
06/12/2014	08:09:35.159	$GPGGA,080935,2543.8848,N,08009.7275,W,1,7,1.8,20,M,,M,,*51
06/12/2014	08:09:36.170	$GPGGA,080936,2543.8848,N,08009.7276,W,1,7,1.8,20,M,,M,,*51
06/12/2014	08:09:37.172	$GPGGA,080937,2543.8846,N,08009.7275,W,1,7,1.8,20,M,,M,,*5D
06/12/2014	08:09:38.184	$GPGGA,080938,2543.8847,N,08009.7276,W,1,7,1.8,20,M,,M,,*50
06/12/2014	08:09:39.217	$GPGGA,080939,2543.8846,N,08009.7275,W,1,7,1.8,20,M,,M,,*53
06/12/2014	08:09:40.229	$GPGGA,080940,2543.8847,N,08009.7276,W,1,7,1.8,19,M,,M,,*55
06/12/2014	08:09:41.231	$GPGGA,080941,2543.8845,N,08009.7275,W,1,7,1.8,19,M,,M,,*55
06/12/2014	08:09:42.223	$GPGGA,080942,2543.8846,N,08009.7276,W,1,7,1.8,19,M,,M,,*56
06/12/2014	08:09:43.256	$GPGGA,080943,2543.8844,N,08009.7275,W,1,7,1.8,19,M,,M,,*56
06/12/2014	08:09:44.258	$GPGGA,080944,2543.8844,N,08009.7276,W,1,7,1.8,19,M,,M,,*52
06/12/2014	08:09:45.280	$GPGGA,080945,2543.8844,N,08009.7275,W,1,7,1.8,19,M,,M,,*50
06/12/2014	08:09:45.532	$GPGGA,080946,2543.8844,N,08009.7276,W,1,7,1.8,19,M,,M,,*50
06/12/2014	08:09:46.544	$GPGGA,080947,2543.8842,N,08009.7275,W,1,7,1.8,19,M,,M,,*54
06/12/2014	08:09:47.576	$GPGGA,080948,2543.8843,N,08009.7276,W,1,7,1.8,19,M,,M,,*59
06/12/2014	08:09:48.568	$GPGGA,080949,2543.8841,N,08009.7275,W,1,7,1.8,19,M,,M,,*59
06/12/2014	08:09:49.570	$GPGGA,080950,2543.8840,N,08009.7276,W,1,7,1.8,19,M,,M,,*53
06/12/2014	08:09:50.603	$GPGGA,080951,2543.8840,N,08009.7276,W,1,7,1.8,19,M,,M,,*52
06/12/2014	08:09:51.605	$GPGGA,080952,2543.8839,N,08009.7276,W,1,7,1.8,19,M,,M,,*5F
06/12/2014	08:09:52.626	$GPGGA,080953,2543.8840,N,08009.7276,W,1,7,1.8,19,M,,M,,*50
06/12/2014	08:09:53.618	$GPGGA,080954,2543.8838,N,08009.7276,W,1,7,1.8,19,M,,M,,*58
06/12/2014	08:09:54.641	$GPGGA,080955,2543.8839,N,08009.7276,W,1,7,1.8,19,M,,M,,*58
06/12/2014	08:09:55.643	$GPGGA,080956,2543.8840,N,08009.7277,W,1,7,1.8,19,M,,M,,*54
06/12/2014	08:09:56.695	$GPGGA,080957,2543.8839,N,08009.7276,W,1,7,1.8,19,M,,M,,*5A
06/12/2014	08:09:57.667	$GPGGA,080958,2543.8840,N,08009.7276,W,1,7,1.8,19,M,,M,,*5B
06/12/2014	08:09:58.699	$GPGGA,080959,2543.8839,N,08009.7276,W,1,7,1.8,19,M,,M,,*54
06/12/2014	08:09:59.712	$GPGGA,081000,2543.8840,N,08009.7276,W,1,7,1.8,19,M,,M,,*5E
06/12/2014	08:10:00.724	$GPGGA,081001,2543.8839,N,08009.7276,W,1,7,1.8,19,M,,M,,*51
06/12/2014	08:10:01.706	$GPGGA,081002,2543.8840,N,08009.7277,W,1,7,1.8,19,M,,M,,*5D
06/12/2014	08:10:02.839	$GPGGA,081003,2543.8840,N,08009.7277,W,1,7,1.8,19,M,,M,,*5C
06/12/2014	08:10:03.740	$GPGGA,081004,2543.8840,N,08009.7277,W,1,7,1.8,19,M,,M,,*5B
06/12/2014	08:10:04.724	$GPGGA,081005,2543.8840,N,08009.7277,W,1,7,1.8,19,M,,M,,*5A
06/12/2014	08:10:05.856	$GPGGA,081006,2543.8842,N,08009.7277,W,1,7,1.8,19,M,,M,,*5B
06/12/2014	08:10:06.748	$GPGGA,081007,2543.8841,N,08009.7277,W,1,7,1.8,19,M,,M,,*59
06/12/2014	08:10:07.870	$GPGGA,081008,2543.8842,N,08009.7277,W,1,7,1.8,19,M,,M,,*55
06/12/2014	08:10:08.791	$GPGGA,081009,2543.8843,N,08009.7277,W,1,7,1.8,19,M,,M,,*55
06/12/2014	08:10:09.874	$GPGGA,081010,2543.8842,N,08009.7277,W,1,7,1.8,19,M,,M,,*5C
06/12/2014	08:10:10.784	$GPGGA,081011,2543.8843,N,08009.7277,W,1,7,1.8,19,M,,M,,*5C
06/12/2014	08:10:11.827	$GPGGA,081012,2543.8842,N,08009.7277,W,1,7,1.8,19,M,,M,,*5E
06/12/2014	08:10:12.960	$GPGGA,081013,2543.8844,N,08009.7277,W,1,7,1.8,19,M,,M,,*59
06/12/2014	08:10:13.912	$GPGGA,081014,2543.8844,N,08009.7277,W,1,7,1.8,19,M,,M,,*5E
06/12/2014	08:10:14.833	$GPGGA,081015,2543.8844,N,08009.7279,W,1,7,1.8,19,M,,M,,*51
06/12/2014	08:10:15.951	$GPGGA,081016,2543.8844,N,08009.7278,W,1,7,1.8,19,M,,M,,*53
06/12/2014	08:10:16.969	$GPGGA,081017,2543.8844,N,08009.7279,W,1,7,1.8,19,M,,M,,*53
06/12/2014	08:10:17.971	$GPGGA,081018,2543.8844,N,08009.7278,W,1,7,1.8,19,M,,M,,*5D
06/12/2014	08:10:18.993	$GPGGA,081019,2543.8844,N,08009.7279,W,1,7,1.8,19,M,,M,,*5D
06/12/2014	08:10:20.005	$GPGGA,081020,2543.8844,N,08009.7278,W,1,7,1.8,19,M,,M,,*56
06/12/2014	08:10:20.987	$GPGGA,081021,2543.8844,N,08009.7279,W,1,7,1.8,19,M,,M,,*56
06/12/2014	08:10:22.009	$GPGGA,081022,2543.8844,N,08009.7278,W,1,7,1.8,20,M,,M,,*5E
06/12/2014	08:10:23.011	$GPGGA,081023,2543.8846,N,08009.7279,W,1,7,1.8,20,M,,M,,*5C
06/12/2014	08:10:24.068	$GPGGA,081024,2543.8845,N,08009.7278,W,1,7,1.8,20,M,,M,,*59
06/12/2014	08:10:25.050	$GPGGA,081025,2543.8846,N,08009.7279,W,1,7,1.8,20,M,,M,,*5A
06/12/2014	08:10:26.048	$GPGGA,081026,2543.8844,N,08009.7278,W,1,7,1.8,20,M,,M,,*5A
06/12/2014	08:10:27.070	$GPGGA,081027,2543.8844,N,08009.7279,W,1,7,1.8,20,M,,M,,*5A
06/12/2014	08:10:28.082	$GPGGA,081028,2543.8844,N,08009.7278,W,1,7,1.8,20,M,,M,,*54
06/12/2014	08:10:29.094	$GPGGA,081029,2543.8846,N,08009.7279,W,1,7,1.8,20,M,,M,,*56
06/12/2014	08:10:30.086	$GPGGA,081030,2543.8845,N,08009.7278,W,1,7,1.8,20,M,,M,,*5C
06/12/2014	08:10:31.118	$GPGGA,081031,2543.8846,N,08009.7279,W,1,7,1.8,20,M,,M,,*5F
06/12/2014	08:10:32.120	$GPGGA,081032,2543.8845,N,08009.7278,W,1,7,1.8,20,M,,M,,*5E
06/12/2014	08:10:33.122	$GPGGA,081033,2543.8846,N,08009.7280,W,1,7,1.8,20,M,,M,,*5B
06/12/2014	08:10:34.124	$GPGGA,081034,2543.8845,N,08009.7279,W,1,7,1.8,20,M,,M,,*59
06/12/2014	08:10:35.157	$GPGGA,081035,2543.8846,N,08009.7280,W,1,7,1.8,20,M,,M,,*5D
06/12/2014	08:10:36.159	$GPGGA,081036,2543.8845,N,08009.7280,W,1,7,1.8,20,M,,M,,*5D
06/12/2014	08:10:37.151	$GPGGA,081037,2543.8846,N,08009.7280,W,1,7,1.8,20,M,,M,,*5F
06/12/2014	08:10:38.173	$GPGGA,081038,2543.8845,N,08009.7280,W,1,7,1.8,20,M,,M,,*53
06/12/2014	08:10:39.175	$GPGGA,081039,2543.8846,N,08009.7280,W,1,7,1.8,20,M,,M,,*51
06/12/2014	08:10:40.208	$GPGGA,081040,2543.8845,N,08009.7280,W,1,7,1.8,20,M,,M,,*5C
06/12/2014	08:10:41.190	$GPGGA,081041,2543.8846,N,08009.7280,W,1,7,1.8,20,M,,M,,*5E
06/12/2014	08:10:42.212	$GPGGA,081042,2543.8845,N,08009.7280,W,1,7,1.8,20,M,,M,,*5E
06/12/2014	08:10:43.244	$GPGGA,081043,2543.8846,N,08009.7280,W,1,7,1.8,20,M,,M,,*5C
06/12/2014	08:10:44.257	$GPGGA,081044,2543.8845,N,08009.7280,W,1,7,1.8,20,M,,M,,*58
06/12/2014	08:10:45.228	$GPGGA,081045,2543.8846,N,08009.7280,W,1,7,1.8,20,M,,M,,*5A
06/12/2014	08:10:45.529	$GPGGA,081046,2543.8845,N,08009.7280,W,1,7,1.8,20,M,,M,,*5A
06/12/2014	08:10:46.642	$GPGGA,081047,2543.8844,N,08009.7280,W,1,7,1.8,20,M,,M,,*5A
06/12/2014	08:10:47.543	$GPGGA,081048,2543.8844,N,08009.7280,W,1,7,1.8,20,M,,M,,*55
06/12/2014	08:10:48.575	$GPGGA,081049,2543.8844,N,08009.7280,W,1,7,1.8,20,M,,M,,*54
06/12/2014	08:10:50.903	$GPGGA,081050,2543.8844,N,08009.7280,W,1,7,1.8,20,M,,M,,*5C
06/12/2014	08:10:50.924	$GPGGA,081051,2543.8844,N,08009.7280,W,1,7,1.8,20,M,,M,,*5D
06/12/2014	08:10:51.703	$GPGGA,081052,2543.8844,N,08009.7280,W,1,7,1.8,20,M,,M,,*5E
06/12/2014	08:10:52.594	$GPGGA,081053,2543.8844,N,08009.7281,W,1,7,1.8,20,M,,M,,*5E
06/12/2014	08:10:53.688	$GPGGA,081054,2543.8844,N,08009.7281,W,1,7,1.8,20,M,,M,,*59
06/12/2014	08:10:54.719	$GPGGA,081055,2543.8844,N,08009.7281,W,1,7,1.8,20,M,,M,,*58
06/12/2014	08:10:55.641	$GPGGA,081056,2543.8842,N,08009.7281,W,1,7,1.8,20,M,,M,,*5D
06/12/2014	08:10:56.754	$GPGGA,081057,2543.8843,N,08009.7281,W,1,7,1.8,20,M,,M,,*5D
06/12/2014	08:10:57.737	$GPGGA,081058,2543.8842,N,08009.7281,W,1,7,1.8,20,M,,M,,*53
06/12/2014	08:10:58.748	$GPGGA,081059,2543.8843,N,08009.7281,W,1,7,1.8,20,M,,M,,*53
06/12/2014	08:10:59.689	$GPGGA,081100,2543.8842,N,08009.7281,W,1,7,1.8,20,M,,M,,*5F
06/12/2014	08:11:00.671	$GPGGA,081101,2543.8841,N,08009.7281,W,1,7,1.8,20,M,,M,,*5D
06/12/2014	08:11:01.775	$GPGGA,081102,2543.8842,N,08009.7281,W,1,7,1.8,20,M,,M,,*5D
06/12/2014	08:11:02.786	$GPGGA,081103,2543.8844,N,08009.7281,W,1,7,1.8,20,M,,M,,*5A
06/12/2014	08:11:03.818	$GPGGA,081104,2543.8844,N,08009.7281,W,1,7,1.7,20,M,,M,,*52
06/12/2014	08:11:04.820	$GPGGA,081105,2543.8846,N,08009.7281,W,1,8,1.7,20,M,,M,,*5E
06/12/2014	08:11:05.813	$GPGGA,081106,2543.8845,N,08009.7281,W,1,8,1.7,20,M,,M,,*5E
06/12/2014	08:11:06.835	$GPGGA,081107,2543.8847,N,08009.7281,W,1,8,1.7,20,M,,M,,*5D
06/12/2014	08:11:07.857	$GPGGA,081108,2543.8846,N,08009.7281,W,1,8,1.7,20,M,,M,,*53
06/12/2014	08:11:08.860	$GPGGA,081109,2543.8847,N,08009.7281,W,1,8,1.7,20,M,,M,,*53
06/12/2014	08:11:09.861	$GPGGA,081110,2543.8846,N,08009.7281,W,1,8,1.7,20,M,,M,,*5A
06/12/2014	08:11:10.887	$GPGGA,081111,2543.8847,N,08009.7281,W,1,8,1.7,20,M,,M,,*5A
06/12/2014	08:11:11.896	$GPGGA,081112,2543.8845,N,08009.7281,W,1,8,1.7,20,M,,M,,*5B
06/12/2014	08:11:12.917	$GPGGA,081113,2543.8846,N,08009.7281,W,1,8,1.7,20,M,,M,,*59
06/12/2014	08:11:13.900	$GPGGA,081114,2543.8845,N,08009.7281,W,1,8,1.7,20,M,,M,,*5D
06/12/2014	08:11:14.932	$GPGGA,081115,2543.8846,N,08009.7280,W,1,8,1.7,20,M,,M,,*5E
06/12/2014	08:11:15.934	$GPGGA,081116,2543.8845,N,08009.7280,W,1,8,1.7,20,M,,M,,*5E
06/12/2014	08:11:16.947	$GPGGA,081117,2543.8844,N,08009.7280,W,1,8,1.7,20,M,,M,,*5E
06/12/2014	08:11:17.938	$GPGGA,081118,2543.8844,N,08009.7280,W,1,8,1.7,20,M,,M,,*51
06/12/2014	08:11:18.941	$GPGGA,081119,2543.8846,N,08009.7280,W,1,8,1.7,20,M,,M,,*52
06/12/2014	08:11:19.974	$GPGGA,081120,2543.8845,N,08009.7280,W,1,8,1.7,20,M,,M,,*5B
06/12/2014	08:11:20.995	$GPGGA,081121,2543.8846,N,08009.7281,W,1,8,1.7,20,M,,M,,*58
06/12/2014	08:11:21.977	$GPGGA,081122,2543.8845,N,08009.7281,W,1,8,1.7,20,M,,M,,*58
06/12/2014	08:11:23.008	$GPGGA,081123,2543.8846,N,08009.7281,W,1,8,1.7,20,M,,M,,*5A
06/12/2014	08:11:24.011	$GPGGA,081124,2543.8847,N,08009.7283,W,1,8,1.7,20,M,,M,,*5E
06/12/2014	08:11:25.013	$GPGGA,081125,2543.8846,N,08009.7281,W,1,8,1.7,20,M,,M,,*5C
06/12/2014	08:11:26.015	$GPGGA,081126,2543.8848,N,08009.7281,W,1,8,1.7,20,M,,M,,*51
06/12/2014	08:11:27.027	$GPGGA,081127,2543.8848,N,08009.7281,W,1,8,1.7,20,M,,M,,*50
06/12/2014	08:11:28.059	$GPGGA,081128,2543.8848,N,08009.7283,W,1,8,1.7,20,M,,M,,*5D
06/12/2014	08:11:29.041	$GPGGA,081129,2543.8848,N,08009.7282,W,1,8,1.7,20,M,,M,,*5D
06/12/2014	08:11:30.063	$GPGGA,081130,2543.8848,N,08009.7283,W,1,8,1.7,20,M,,M,,*54
06/12/2014	08:11:31.076	$GPGGA,081131,2543.8848,N,08009.7283,W,1,8,1.7,20,M,,M,,*55
06/12/2014	08:11:32.088	$GPGGA,081132,2543.8850,N,08009.7283,W,1,8,1.7,20,M,,M,,*5F
06/12/2014	08:11:33.088	$GPGGA,081133,2543.8849,N,08009.7283,W,1,8,1.7,20,M,,M,,*56
06/12/2014	08:11:34.112	$GPGGA,081134,2543.8850,N,08009.7282,W,1,8,1.7,20,M,,M,,*58
06/12/2014	08:11:35.124	$GPGGA,081135,2543.8849,N,08009.7283,W,1,8,1.7,20,M,,M,,*50
06/12/2014	08:11:36.147	$GPGGA,081136,2543.8851,N,08009.7282,W,1,8,1.7,20,M,,M,,*5B
06/12/2014	08:11:37.132	$GPGGA,081137,2543.8850,N,08009.7283,W,1,8,1.7,20,M,,M,,*5A
06/12/2014	08:11:38.150	$GPGGA,081138,2543.8851,N,08009.7283,W,1,8,1.7,20,M,,M,,*54
06/12/2014	08:11:39.172	$GPGGA,081139,2543.8850,N,08009.7282,W,1,8,1.7,20,M,,M,,*55
06/12/2014	08:11:40.172	$GPGGA,081140,2543.8851,N,08009.7283,W,1,8,1.7,20,M,,M,,*5B
06/12/2014	08:11:41.188	$GPGGA,081141,2543.8850,N,08009.7282,W,1,8,1.7,20,M,,M,,*5A
06/12/2014	08:11:42.174	$GPGGA,081142,2543.8851,N,08009.7283,W,1,8,1.7,20,M,,M,,*59
06/12/2014	08:11:43.180	$GPGGA,081143,2543.8850,N,08009.7282,W,1,8,1.7,20,M,,M,,*58
06/12/2014	08:11:44.206	$GPGGA,081144,2543.8849,N,08009.7283,W,1,8,1.7,20,M,,M,,*56
06/12/2014	08:11:45.282	$GPGGA,081145,2543.8850,N,08009.7282,W,1,8,1.7,20,M,,M,,*5E
06/12/2014	08:11:45.656	$GPGGA,081146,2543.8851,N,08009.7283,W,1,8,1.7,20,M,,M,,*5D
06/12/2014	08:11:46.612	$GPGGA,081147,2543.8850,N,08009.7282,W,1,8,1.7,20,M,,M,,*5C
06/12/2014	08:11:47.527	$GPGGA,081148,2543.8849,N,08009.7283,W,1,8,1.7,20,M,,M,,*5A
06/12/2014	08:11:48.603	$GPGGA,081149,2543.8850,N,08009.7283,W,1,8,1.7,21,M,,M,,*52
