Software Version Number: 1	Data File Format Number: 1	Build Version Number: 1	Error Count Since VI Started: 0	Manufacturer: Raytheon	 Model Number: RayMarine 120	 S/N: 	 Cal Date: 	 Wind Direction Offset: 0.00	 Slope (M)1: 0.00	 Offset (B)1: 0.00	 Slope (M)2: 0.00	 Offset (B)2: 0.00	 Slope (M)3: 0.00	 Offset (B)3: 0.00	 Slope (M)4: 0.00	 Offset (B)4: 0.00	 Slope (M)5: 0.00	 Offset (B)5: 0.00	 Slope (M)6: 0.00	 Offset (B)6: 0.00
Computer Date	Computer Time	GGA String
06/11/2014	06:00:00.817	$GPGGA,060001,2543.8845,N,08009.7280,W,1,8,1.6,17,M,,M,,*53
06/11/2014	06:00:01.838	$GPGGA,060002,2543.8846,N,08009.7280,W,1,8,1.6,17,M,,M,,*53
06/11/2014	06:00:02.836	$GPGGA,060003,2543.8845,N,08009.7280,W,1,8,1.6,17,M,,M,,*51
06/11/2014	06:00:03.801	$GPGGA,060004,2543.8847,N,08009.7280,W,1,8,1.6,17,M,,M,,*54
06/11/2014	06:00:04.839	$GPGGA,060005,2543.8845,N,08009.7281,W,1,8,1.6,17,M,,M,,*56
06/11/2014	06:00:05.863	$GPGGA,060006,2543.8846,N,08009.7280,W,1,8,1.6,17,M,,M,,*57
06/11/2014	06:00:06.854	$GPGGA,060007,2543.8845,N,08009.7280,W,1,8,1.6,17,M,,M,,*55
06/11/2014	06:00:07.905	$GPGGA,060008,2543.8846,N,08009.7280,W,1,8,1.6,17,M,,M,,*59
06/11/2014	06:00:08.857	$GPGGA,060009,2543.8845,N,08009.7280,W,1,8,1.6,17,M,,M,,*5B
06/11/2014	06:00:09.918	$GPGGA,060010,2543.8846,N,08009.7280,W,1,8,1.6,17,M,,M,,*50
06/11/2014	06:00:10.909	$GPGGA,060011,2543.8845,N,08009.7280,W,1,8,1.6,17,M,,M,,*52
06/11/2014	06:00:11.929	$GPGGA,060012,2543.8846,N,08009.7280,W,1,8,1.6,17,M,,M,,*52
06/11/2014	06:00:12.912	$GPGGA,060013,2543.8845,N,08009.7279,W,1,8,1.6,17,M,,M,,*56
06/11/2014	06:00:13.921	$GPGGA,060014,2543.8846,N,08009.7280,W,1,8,1.6,17,M,,M,,*54
06/11/2014	06:00:14.933	$GPGGA,060015,2543.8845,N,08009.7279,W,1,8,1.6,17,M,,M,,*50
06/11/2014	06:00:15.984	$GPGGA,060016,2543.8846,N,08009.7280,W,1,8,1.6,17,M,,M,,*56
06/11/2014	06:00:16.954	$GPGGA,060017,2543.8845,N,08009.7279,W,1,8,1.6,17,M,,M,,*52
06/11/2014	06:00:17.976	$GPGGA,060018,2543.8846,N,08009.7280,W,1,8,1.6,17,M,,M,,*58
06/11/2014	06:00:18.978	$GPGGA,060019,2543.8845,N,08009.7279,W,1,8,1.6,17,M,,M,,*5C
06/11/2014	06:00:20.029	$GPGGA,060020,2543.8846,N,08009.7280,W,1,8,1.6,17,M,,M,,*53
06/11/2014	06:00:20.989	$GPGGA,060021,2543.8845,N,08009.7278,W,1,8,1.6,17,M,,M,,*56
06/11/2014	06:00:22.001	$GPGGA,060022,2543.8846,N,08009.7279,W,1,8,1.6,17,M,,M,,*57
06/11/2014	06:00:23.016	$GPGGA,060023,2543.8847,N,08009.7278,W,1,8,1.6,17,M,,M,,*56
06/11/2014	06:00:23.972	$GPGGA,060024,2543.8846,N,08009.7279,W,1,8,1.6,17,M,,M,,*51
06/11/2014	06:00:25.027	$GPGGA,060025,2543.8847,N,08009.7278,W,1,8,1.6,17,M,,M,,*50
06/11/2014	06:00:26.035	$GPGGA,060026,2543.8846,N,08009.7279,W,1,8,1.6,17,M,,M,,*53
06/11/2014	06:00:26.986	$GPGGA,060027,2543.8847,N,08009.7278,W,1,8,1.6,17,M,,M,,*52
06/11/2014	06:00:28.073	$GPGGA,060028,2543.8845,N,08009.7279,W,1,8,1.6,16,M,,M,,*5F
06/11/2014	06:00:29.100	$GPGGA,060029,2543.8846,N,08009.7278,W,1,8,1.6,16,M,,M,,*5C
06/11/2014	06:00:30.089	$GPGGA,060030,2543.8845,N,08009.7279,W,1,8,1.6,16,M,,M,,*56
06/11/2014	06:00:31.090	$GPGGA,060031,2543.8846,N,08009.7278,W,1,8,1.6,16,M,,M,,*55
06/11/2014	06:00:32.051	$GPGGA,060032,2543.8847,N,08009.7279,W,1,8,1.6,16,M,,M,,*56
06/11/2014	06:00:33.102	$GPGGA,060033,2543.8846,N,08009.7278,W,1,8,1.6,16,M,,M,,*57
06/11/2014	06:00:34.114	$GPGGA,060034,2543.8847,N,08009.7279,W,1,8,1.6,16,M,,M,,*50
06/11/2014	06:00:35.068	$GPGGA,060035,2543.8848,N,08009.7278,W,1,8,1.6,16,M,,M,,*5F
06/11/2014	06:00:36.157	$GPGGA,060036,2543.8846,N,08009.7279,W,1,8,1.6,16,M,,M,,*53
06/11/2014	06:00:37.082	$GPGGA,060037,2543.8848,N,08009.7278,W,1,8,1.6,16,M,,M,,*5D
06/11/2014	06:00:38.148	$GPGGA,060038,2543.8848,N,08009.7280,W,1,8,1.6,16,M,,M,,*55
06/11/2014	06:00:39.230	$GPGGA,060039,2543.8848,N,08009.7278,W,1,8,1.6,16,M,,M,,*53
06/11/2014	06:00:40.181	$GPGGA,060040,2543.8848,N,08009.7279,W,1,8,1.6,16,M,,M,,*5C
06/11/2014	06:00:41.151	$GPGGA,060041,2543.8848,N,08009.7278,W,1,8,1.6,16,M,,M,,*5C
06/11/2014	06:00:42.126	$GPGGA,060042,2543.8848,N,08009.7279,W,1,8,1.6,16,M,,M,,*5E
06/11/2014	06:00:43.214	$GPGGA,060043,2543.8848,N,08009.7278,W,1,8,1.6,16,M,,M,,*5E
06/11/2014	06:00:44.286	$GPGGA,060044,2543.8848,N,08009.7279,W,1,8,1.6,16,M,,M,,*58
06/11/2014	06:00:44.617	$GPGGA,060045,2543.8848,N,08009.7278,W,1,8,1.6,16,M,,M,,*58
06/11/2014	06:00:45.558	$GPGGA,060046,2543.8846,N,08009.7277,W,1,8,1.6,16,M,,M,,*5A
06/11/2014	06:00:46.639	$GPGGA,060047,2543.8848,N,08009.7277,W,1,8,1.6,16,M,,M,,*55
06/11/2014	06:00:47.632	$GPGGA,060048,2543.8848,N,08009.7277,W,1,8,1.6,16,M,,M,,*5A
06/11/2014	06:00:48.651	$GPGGA,060049,2543.8848,N,08009.7277,W,1,8,1.6,16,M,,M,,*5B
06/11/2014	06:00:49.643	$GPGGA,060050,2543.8848,N,08009.7276,W,1,8,1.6,16,M,,M,,*52
06/11/2014	06:00:50.653	$GPGGA,060051,2543.8848,N,08009.7276,W,1,8,1.6,16,M,,M,,*53
06/11/2014	06:00:51.675	$GPGGA,060052,2543.8848,N,08009.7277,W,1,8,1.6,16,M,,M,,*51
06/11/2014	06:00:52.665	$GPGGA,060053,2543.8848,N,08009.7277,W,1,8,1.6,16,M,,M,,*50
06/11/2014	06:00:53.677	$GPGGA,060054,2543.8848,N,08009.7277,W,1,8,1.6,16,M,,M,,*57
06/11/2014	06:00:54.718	$GPGGA,060055,2543.8848,N,08009.7277,W,1,8,1.6,16,M,,M,,*56
06/11/2014	06:00:55.712	$GPGGA,060056,2543.8848,N,08009.7276,W,1,8,1.6,16,M,,M,,*54
06/11/2014	06:00:56.720	$GPGGA,060057,2543.8848,N,08009.7277,W,1,8,1.6,16,M,,M,,*54
06/11/2014	06:00:57.721	$GPGGA,060058,2543.8848,N,08009.7276,W,1,8,1.6,16,M,,M,,*5A
06/11/2014	06:00:58.754	$GPGGA,060059,2543.8848,N,08009.7276,W,1,8,1.6,16,M,,M,,*5B
06/11/2014	06:00:59.754	$GPGGA,060100,2543.8848,N,08009.7276,W,1,8,1.6,16,M,,M,,*56
06/11/2014	06:01:00.756	$GPGGA,060101,2543.8848,N,08009.7277,W,1,8,1.6,16,M,,M,,*56
06/11/2014	06:01:01.756	$GPGGA,060102,2543.8850,N,08009.7276,W,1,8,1.6,16,M,,M,,*5D
06/11/2014	06:01:02.798	$GPGGA,060103,2543.8849,N,08009.7276,W,1,8,1.6,16,M,,M,,*54
06/11/2014	06:01:03.779	$GPGGA,060104,2543.8850,N,08009.7276,W,1,8,1.6,16,M,,M,,*5B
06/11/2014	06:01:04.789	$GPGGA,060105,2543.8849,N,08009.7277,W,1,8,1.6,16,M,,M,,*53
06/11/2014	06:01:05.820	$GPGGA,060106,2543.8850,N,08009.7277,W,1,8,1.6,16,M,,M,,*58
06/11/2014	06:01:06.791	$GPGGA,060107,2543.8851,N,08009.7277,W,1,8,1.6,16,M,,M,,*58
06/11/2014	06:01:07.832	$GPGGA,060108,2543.8849,N,08009.7277,W,1,8,1.6,16,M,,M,,*5E
06/11/2014	06:01:08.813	$GPGGA,060109,2543.8850,N,08009.7277,W,1,8,1.6,16,M,,M,,*57
06/11/2014	06:01:09.845	$GPGGA,060110,2543.8849,N,08009.7279,W,1,8,1.6,16,M,,M,,*59
06/11/2014	06:01:10.846	$GPGGA,060111,2543.8850,N,08009.7278,W,1,8,1.6,16,M,,M,,*51
06/11/2014	06:01:11.877	$GPGGA,060112,2543.8851,N,08009.7279,W,1,8,1.6,16,M,,M,,*52
06/11/2014	06:01:12.868	$GPGGA,060113,2543.8849,N,08009.7278,W,1,8,1.6,16,M,,M,,*5B
06/11/2014	06:01:13.849	$GPGGA,060114,2543.8849,N,08009.7278,W,1,8,1.6,16,M,,M,,*5C
06/11/2014	06:01:14.880	$GPGGA,060115,2543.8851,N,08009.7278,W,1,8,1.6,16,M,,M,,*54
06/11/2014	06:01:15.892	$GPGGA,060116,2543.8851,N,08009.7278,W,1,8,1.6,16,M,,M,,*57
06/11/2014	06:01:16.893	$GPGGA,060117,2543.8851,N,08009.7279,W,1,8,1.6,16,M,,M,,*57
06/11/2014	06:01:17.924	$GPGGA,060118,2543.8851,N,08009.7279,W,1,8,1.6,16,M,,M,,*58
06/11/2014	06:01:18.915	$GPGGA,060119,2543.8851,N,08009.7279,W,1,8,1.6,16,M,,M,,*59
06/11/2014	06:01:19.957	$GPGGA,060120,2543.8850,N,08009.7280,W,1,8,1.6,16,M,,M,,*54
06/11/2014	06:01:20.927	$GPGGA,060121,2543.8851,N,08009.7279,W,1,8,1.6,16,M,,M,,*52
06/11/2014	06:01:21.978	$GPGGA,060122,2543.8851,N,08009.7280,W,1,8,1.6,16,M,,M,,*57
06/11/2014	06:01:22.959	$GPGGA,060123,2543.8851,N,08009.7279,W,1,8,1.6,16,M,,M,,*50
06/11/2014	06:01:24.001	$GPGGA,060124,2543.8851,N,08009.7280,W,1,8,1.6,16,M,,M,,*51
06/11/2014	06:01:24.971	$GPGGA,060125,2543.8851,N,08009.7280,W,1,8,1.6,16,M,,M,,*50
06/11/2014	06:01:26.013	$GPGGA,060126,2543.8851,N,08009.7280,W,1,8,1.6,16,M,,M,,*53
06/11/2014	06:01:27.024	$GPGGA,060127,2543.8851,N,08009.7279,W,1,8,1.6,16,M,,M,,*54
06/11/2014	06:01:28.015	$GPGGA,060128,2543.8851,N,08009.7279,W,1,8,1.6,16,M,,M,,*5B
06/11/2014	06:01:29.098	$GPGGA,060129,2543.8853,N,08009.7279,W,1,8,1.6,16,M,,M,,*58
06/11/2014	06:01:30.017	$GPGGA,060130,2543.8853,N,08009.7279,W,1,8,1.6,16,M,,M,,*50
06/11/2014	06:01:31.124	$GPGGA,060131,2543.8851,N,08009.7279,W,1,8,1.6,16,M,,M,,*53
06/11/2014	06:01:32.040	$GPGGA,060132,2543.8851,N,08009.7279,W,1,8,1.6,16,M,,M,,*50
06/11/2014	06:01:33.141	$GPGGA,060133,2543.8851,N,08009.7279,W,1,8,1.6,16,M,,M,,*51
06/11/2014	06:01:34.053	$GPGGA,060134,2543.8851,N,08009.7279,W,1,8,1.6,16,M,,M,,*56
06/11/2014	06:01:35.080	$GPGGA,060135,2543.8851,N,08009.7280,W,1,8,1.6,16,M,,M,,*51
06/11/2014	06:01:36.091	$GPGGA,060136,2543.8851,N,08009.7279,W,1,8,1.6,16,M,,M,,*54
06/11/2014	06:01:37.166	$GPGGA,060137,2543.8850,N,08009.7278,W,1,8,1.6,16,M,,M,,*55
06/11/2014	06:01:38.184	$GPGGA,060138,2543.8851,N,08009.7279,W,1,8,1.6,16,M,,M,,*5A
06/11/2014	06:01:39.211	$GPGGA,060139,2543.8850,N,08009.7278,W,1,8,1.6,16,M,,M,,*5B
06/11/2014	06:01:40.209	$GPGGA,060140,2543.8851,N,08009.7279,W,1,8,1.6,16,M,,M,,*55
06/11/2014	06:01:41.220	$GPGGA,060141,2543.8851,N,08009.7278,W,1,8,1.6,16,M,,M,,*55
06/11/2014	06:01:42.211	$GPGGA,060142,2543.8851,N,08009.7279,W,1,8,1.6,16,M,,M,,*57
06/11/2014	06:01:43.222	$GPGGA,060143,2543.8851,N,08009.7278,W,1,8,1.6,16,M,,M,,*57
06/11/2014	06:01:44.254	$GPGGA,060144,2543.8851,N,08009.7279,W,1,8,1.6,16,M,,M,,*51
06/11/2014	06:01:44.595	$GPGGA,060145,2543.8853,N,08009.7278,W,1,8,1.6,16,M,,M,,*53
06/11/2014	06:01:45.587	$GPGGA,060146,2543.8852,N,08009.7279,W,1,8,1.6,16,M,,M,,*50
06/11/2014	06:01:46.597	$GPGGA,060147,2543.8851,N,08009.7278,W,1,8,1.6,16,M,,M,,*53
06/11/2014	06:01:47.619	$GPGGA,060148,2543.8850,N,08009.7279,W,1,8,2.2,16,M,,M,,*5B
06/11/2014	06:01:48.632	$GPGGA,060149,2543.8851,N,08009.7278,W,1,7,2.2,16,M,,M,,*55
06/11/2014	06:01:49.621	$GPGGA,060150,2543.8849,N,08009.7277,W,1,7,2.2,16,M,,M,,*5B
06/11/2014	06:01:50.642	$GPGGA,060151,2543.8848,N,08009.7277,W,1,8,1.6,16,M,,M,,*53
06/11/2014	06:01:51.653	$GPGGA,060152,2543.8848,N,08009.7277,W,1,8,2.2,16,M,,M,,*57
06/11/2014	06:01:52.664	$GPGGA,060153,2543.8848,N,08009.7277,W,1,7,2.2,16,M,,M,,*59
06/11/2014	06:01:53.645	$GPGGA,060154,2543.8848,N,08009.7277,W,1,7,2.2,16,M,,M,,*5E
06/11/2014	06:01:54.687	$GPGGA,060155,2543.8846,N,08009.7276,W,1,7,2.2,16,M,,M,,*50
06/11/2014	06:01:55.689	$GPGGA,060156,2543.8854,N,08009.7279,W,1,7,2.2,16,M,,M,,*5F
06/11/2014	06:01:56.699	$GPGGA,060157,2543.8852,N,08009.7278,W,1,8,1.6,16,M,,M,,*51
06/11/2014	06:01:57.689	$GPGGA,060158,2543.8854,N,08009.7279,W,1,8,2.2,16,M,,M,,*5E
06/11/2014	06:01:58.731	$GPGGA,060159,2543.8852,N,08009.7278,W,1,8,1.6,16,M,,M,,*5F
06/11/2014	06:01:59.732	$GPGGA,060200,2543.8851,N,08009.7277,W,1,8,1.6,16,M,,M,,*5C
06/11/2014	06:02:00.733	$GPGGA,060201,2543.8850,N,08009.7277,W,1,8,1.6,16,M,,M,,*5C
06/11/2014	06:02:01.724	$GPGGA,060202,2543.8855,N,08009.7279,W,1,8,2.2,16,M,,M,,*53
06/11/2014	06:02:02.775	$GPGGA,060203,2543.8852,N,08009.7278,W,1,8,1.6,16,M,,M,,*53
06/11/2014	06:02:03.766	$GPGGA,060204,2543.8855,N,08009.7279,W,1,8,2.2,16,M,,M,,*55
06/11/2014	06:02:04.747	$GPGGA,060205,2543.8853,N,08009.7278,W,1,8,1.6,16,M,,M,,*54
06/11/2014	06:02:05.779	$GPGGA,060206,2543.8852,N,08009.7277,W,1,8,2.2,16,M,,M,,*5E
06/11/2014	06:02:06.770	$GPGGA,060207,2543.8851,N,08009.7277,W,1,7,2.2,16,M,,M,,*53
06/11/2014	06:02:07.802	$GPGGA,060208,2543.8850,N,08009.7277,W,1,7,2.2,16,M,,M,,*5D
06/11/2014	06:02:08.782	$GPGGA,060209,2543.8849,N,08009.7277,W,1,7,2.2,16,M,,M,,*54
06/11/2014	06:02:09.813	$GPGGA,060210,2543.8850,N,08009.7277,W,1,7,2.2,16,M,,M,,*54
06/11/2014	06:02:10.835	$GPGGA,060211,2543.8849,N,08009.7277,W,1,7,2.2,16,M,,M,,*5D
06/11/2014	06:02:11.846	$GPGGA,060212,2543.8848,N,08009.7276,W,1,7,2.2,16,M,,M,,*5E
06/11/2014	06:02:12.827	$GPGGA,060213,2543.8848,N,08009.7276,W,1,7,2.2,16,M,,M,,*5F
06/11/2014	06:02:13.858	$GPGGA,060214,2543.8848,N,08009.7276,W,1,7,2.2,15,M,,M,,*5B
06/11/2014	06:02:14.838	$GPGGA,060215,2543.8850,N,08009.7277,W,1,8,1.6,15,M,,M,,*5A
06/11/2014	06:02:15.880	$GPGGA,060216,2543.8851,N,08009.7277,W,1,8,1.6,15,M,,M,,*58
06/11/2014	06:02:16.881	$GPGGA,060217,2543.8854,N,08009.7279,W,1,8,1.6,15,M,,M,,*52
06/11/2014	06:02:17.882	$GPGGA,060218,2543.8857,N,08009.7278,W,1,8,1.6,15,M,,M,,*5F
06/11/2014	06:02:18.903	$GPGGA,060219,2543.8859,N,08009.7280,W,1,8,1.6,15,M,,M,,*57
06/11/2014	06:02:19.904	$GPGGA,060220,2543.8862,N,08009.7280,W,1,8,1.6,15,M,,M,,*55
06/11/2014	06:02:20.915	$GPGGA,060221,2543.8866,N,08009.7281,W,1,8,1.6,16,M,,M,,*52
06/11/2014	06:02:22.007	$GPGGA,060222,2543.8869,N,08009.7281,W,1,8,1.6,16,M,,M,,*5E
06/11/2014	06:02:22.919	$GPGGA,060223,2543.8872,N,08009.7283,W,1,8,1.6,16,M,,M,,*57
06/11/2014	06:02:24.066	$GPGGA,060224,2543.8873,N,08009.7283,W,1,8,1.6,16,M,,M,,*51
06/11/2014	06:02:25.061	$GPGGA,060225,2543.8877,N,08009.7284,W,1,8,1.6,16,M,,M,,*53
06/11/2014	06:02:26.068	$GPGGA,060226,2543.8880,N,08009.7284,W,1,8,1.6,17,M,,M,,*59
06/11/2014	06:02:27.065	$GPGGA,060227,2543.8883,N,08009.7287,W,1,8,1.6,17,M,,M,,*58
06/11/2014	06:02:27.984	$GPGGA,060228,2543.8884,N,08009.7286,W,1,8,1.6,17,M,,M,,*51
06/11/2014	06:02:29.111	$GPGGA,060229,2543.8886,N,08009.7287,W,1,8,1.6,17,M,,M,,*53
06/11/2014	06:02:30.078	$GPGGA,060230,2543.8885,N,08009.7287,W,1,8,1.6,18,M,,M,,*57
06/11/2014	06:02:31.148	$GPGGA,060231,2543.8887,N,08009.7287,W,1,8,1.6,18,M,,M,,*54
06/11/2014	06:02:32.134	$GPGGA,060232,2543.8886,N,08009.7287,W,1,8,1.6,18,M,,M,,*56
06/11/2014	06:02:33.125	$GPGGA,060233,2543.8887,N,08009.7286,W,1,8,1.6,19,M,,M,,*56
06/11/2014	06:02:34.122	$GPGGA,060234,2543.8886,N,08009.7287,W,1,8,1.6,19,M,,M,,*51
06/11/2014	06:02:35.153	$GPGGA,060235,2543.8887,N,08009.7286,W,1,8,1.6,19,M,,M,,*50
06/11/2014	06:02:36.143	$GPGGA,060236,2543.8887,N,08009.7287,W,1,8,1.6,19,M,,M,,*52
06/11/2014	06:02:37.164	$GPGGA,060237,2543.8886,N,08009.7286,W,1,8,1.6,19,M,,M,,*53
06/11/2014	06:02:38.155	$GPGGA,060238,2543.8885,N,08009.7287,W,1,8,1.6,20,M,,M,,*54
06/11/2014	06:02:39.198	$GPGGA,060239,2543.8886,N,08009.7286,W,1,8,1.6,20,M,,M,,*57
06/11/2014	06:02:40.188	$GPGGA,060240,2543.8885,N,08009.7287,W,1,8,1.6,20,M,,M,,*5B
06/11/2014	06:02:41.218	$GPGGA,060241,2543.8886,N,08009.7287,W,1,8,1.6,20,M,,M,,*59
06/11/2014	06:02:42.200	$GPGGA,060242,2543.8884,N,08009.7287,W,1,8,1.6,20,M,,M,,*58
06/11/2014	06:02:43.201	$GPGGA,060243,2543.8884,N,08009.7287,W,1,8,1.6,21,M,,M,,*58
06/11/2014	06:02:44.222	$GPGGA,060244,2543.8884,N,08009.7287,W,1,8,1.6,21,M,,M,,*5F
06/11/2014	06:02:44.574	$GPGGA,060245,2543.8882,N,08009.7287,W,1,8,1.6,21,M,,M,,*58
06/11/2014	06:02:45.554	$GPGGA,060246,2543.8881,N,08009.7287,W,1,8,1.6,21,M,,M,,*58
06/11/2014	06:02:46.585	$GPGGA,060247,2543.8880,N,08009.7287,W,1,8,1.6,21,M,,M,,*58
06/11/2014	06:02:47.586	$GPGGA,060248,2543.8880,N,08009.7287,W,1,8,1.6,21,M,,M,,*57
06/11/2014	06:02:48.618	$GPGGA,060249,2543.8878,N,08009.7286,W,1,8,1.6,21,M,,M,,*50
06/11/2014	06:02:49.608	$GPGGA,060250,2543.8879,N,08009.7287,W,1,8,1.6,21,M,,M,,*58
06/11/2014	06:02:50.609	$GPGGA,060251,2543.8877,N,08009.7286,W,1,8,1.6,21,M,,M,,*56
06/11/2014	06:02:51.630	$GPGGA,060252,2543.8876,N,08009.7287,W,1,8,1.6,21,M,,M,,*55
06/11/2014	06:02:52.621	$GPGGA,060253,2543.8876,N,08009.7285,W,1,8,1.6,21,M,,M,,*56
06/11/2014	06:02:53.632	$GPGGA,060254,2543.8875,N,08009.7285,W,1,8,1.6,21,M,,M,,*52
06/11/2014	06:02:54.684	$GPGGA,060255,2543.8874,N,08009.7285,W,1,8,1.6,21,M,,M,,*52
06/11/2014	06:02:55.675	$GPGGA,060256,2543.8875,N,08009.7285,W,1,8,1.6,21,M,,M,,*50
06/11/2014	06:02:56.666	$GPGGA,060257,2543.8874,N,08009.7285,W,1,8,1.6,21,M,,M,,*50
06/11/2014	06:02:57.677	$GPGGA,060258,2543.8875,N,08009.7285,W,1,8,1.6,21,M,,M,,*5E
06/11/2014	06:02:58.698	$GPGGA,060259,2543.8873,N,08009.7285,W,1,8,1.6,21,M,,M,,*59
06/11/2014	06:02:59.709	$GPGGA,060300,2543.8873,N,08009.7284,W,1,8,1.6,21,M,,M,,*55
06/11/2014	06:03:00.700	$GPGGA,060301,2543.8873,N,08009.7284,W,1,8,1.6,21,M,,M,,*54
06/11/2014	06:03:01.722	$GPGGA,060302,2543.8873,N,08009.7284,W,1,8,1.6,21,M,,M,,*57
06/11/2014	06:03:02.723	$GPGGA,060303,2543.8871,N,08009.7284,W,1,8,1.6,21,M,,M,,*54
06/11/2014	06:03:03.734	$GPGGA,060304,2543.8872,N,08009.7284,W,1,8,1.6,21,M,,M,,*50
06/11/2014	06:03:04.745	$GPGGA,060305,2543.8870,N,08009.7284,W,1,8,1.6,21,M,,M,,*53
06/11/2014	06:03:05.736	$GPGGA,060306,2543.8871,N,08009.7284,W,1,8,1.6,21,M,,M,,*51
06/11/2014	06:03:06.777	$GPGGA,060307,2543.8869,N,08009.7284,W,1,8,1.6,21,M,,M,,*59
06/11/2014	06:03:07.788	$GPGGA,060308,2543.8868,N,08009.7284,W,1,8,1.6,21,M,,M,,*57
06/11/2014	06:03:08.866	$GPGGA,060309,2543.8867,N,08009.7284,W,1,8,1.6,21,M,,M,,*59
06/11/2014	06:03:09.790	$GPGGA,060310,2543.8868,N,08009.7284,W,1,8,1.6,21,M,,M,,*5E
06/11/2014	06:03:10.882	$GPGGA,060311,2543.8866,N,08009.7284,W,1,8,1.6,21,M,,M,,*51
06/11/2014	06:03:11.903	$GPGGA,060312,2543.8866,N,08009.7284,W,1,8,1.6,21,M,,M,,*52
06/11/2014	06:03:12.811	$GPGGA,060313,2543.8866,N,08009.7283,W,1,8,1.6,21,M,,M,,*54
06/11/2014	06:03:13.826	$GPGGA,060314,2543.8866,N,08009.7283,W,1,8,1.6,20,M,,M,,*52
06/11/2014	06:03:14.947	$GPGGA,060315,2543.8864,N,08009.7283,W,1,8,1.6,20,M,,M,,*51
06/11/2014	06:03:15.857	$GPGGA,060316,2543.8865,N,08009.7283,W,1,8,1.6,20,M,,M,,*53
06/11/2014	06:03:16.959	$GPGGA,060317,2543.8863,N,08009.7283,W,1,8,1.6,20,M,,M,,*54
06/11/2014	06:03:17.961	$GPGGA,060318,2543.8864,N,08009.7283,W,1,8,1.6,20,M,,M,,*5C
06/11/2014	06:03:18.968	$GPGGA,060319,2543.8863,N,08009.7283,W,1,8,1.6,20,M,,M,,*5A
06/11/2014	06:03:19.983	$GPGGA,060320,2543.8864,N,08009.7283,W,1,8,1.6,20,M,,M,,*57
06/11/2014	06:03:21.004	$GPGGA,060321,2543.8863,N,08009.7283,W,1,8,1.6,20,M,,M,,*51
06/11/2014	06:03:21.985	$GPGGA,060322,2543.8862,N,08009.7283,W,1,8,1.6,20,M,,M,,*53
06/11/2014	06:03:23.006	$GPGGA,060323,2543.8862,N,08009.7282,W,1,8,1.6,20,M,,M,,*53
06/11/2014	06:03:24.032	$GPGGA,060324,2543.8862,N,08009.7283,W,1,8,1.6,20,M,,M,,*55
06/11/2014	06:03:25.047	$GPGGA,060325,2543.8862,N,08009.7282,W,1,8,1.6,19,M,,M,,*5F
06/11/2014	06:03:26.029	$GPGGA,060326,2543.8862,N,08009.7283,W,1,8,1.6,19,M,,M,,*5D
06/11/2014	06:03:27.070	$GPGGA,060327,2543.8862,N,08009.7282,W,1,8,1.6,19,M,,M,,*5D
06/11/2014	06:03:28.083	$GPGGA,060328,2543.8862,N,08009.7283,W,1,8,1.6,19,M,,M,,*53
06/11/2014	06:03:29.052	$GPGGA,060329,2543.8860,N,08009.7282,W,1,8,1.6,19,M,,M,,*51
06/11/2014	06:03:30.064	$GPGGA,060330,2543.8861,N,08009.7283,W,1,8,1.6,19,M,,M,,*59
06/11/2014	06:03:31.113	$GPGGA,060331,2543.8860,N,08009.7282,W,1,8,1.6,19,M,,M,,*58
06/11/2014	06:03:32.096	$GPGGA,060332,2543.8861,N,08009.7281,W,1,8,1.6,19,M,,M,,*59
06/11/2014	06:03:33.107	$GPGGA,060333,2543.8859,N,08009.7281,W,1,8,1.6,19,M,,M,,*53
06/11/2014	06:03:34.108	$GPGGA,060334,2543.8859,N,08009.7281,W,1,8,1.6,19,M,,M,,*54
06/11/2014	06:03:35.110	$GPGGA,060335,2543.8858,N,08009.7281,W,1,8,1.6,19,M,,M,,*54
06/11/2014	06:03:36.141	$GPGGA,060336,2543.8858,N,08009.7281,W,1,8,1.6,18,M,,M,,*56
06/11/2014	06:03:37.122	$GPGGA,060337,2543.8857,N,08009.7280,W,1,8,1.6,18,M,,M,,*59
06/11/2014	06:03:38.143	$GPGGA,060338,2543.8858,N,08009.7280,W,1,8,1.6,18,M,,M,,*59
06/11/2014	06:03:39.144	$GPGGA,060339,2543.8856,N,08009.7280,W,1,8,1.6,18,M,,M,,*56
06/11/2014	06:03:40.176	$GPGGA,060340,2543.8857,N,08009.7280,W,1,8,1.6,18,M,,M,,*59
06/11/2014	06:03:41.167	$GPGGA,060341,2543.8856,N,08009.7279,W,1,8,1.6,18,M,,M,,*5F
06/11/2014	06:03:42.187	$GPGGA,060342,2543.8855,N,08009.7280,W,1,8,1.6,18,M,,M,,*59
06/11/2014	06:03:43.218	$GPGGA,060343,2543.8855,N,08009.7279,W,1,8,1.6,18,M,,M,,*5E
06/11/2014	06:03:44.209	$GPGGA,060344,2543.8855,N,08009.7280,W,1,8,1.6,18,M,,M,,*5F
06/11/2014	06:03:44.530	$GPGGA,060345,2543.8855,N,08009.7279,W,1,8,1.6,18,M,,M,,*58
06/11/2014	06:03:45.552	$GPGGA,060346,2543.8857,N,08009.7280,W,1,8,1.6,18,M,,M,,*5F
06/11/2014	06:03:46.583	$GPGGA,060347,2543.8856,N,08009.7279,W,1,8,1.6,18,M,,M,,*59
06/11/2014	06:03:47.564	$GPGGA,060348,2543.8857,N,08009.7280,W,1,8,1.6,18,M,,M,,*51
06/11/2014	06:03:48.575	$GPGGA,060349,2543.8855,N,08009.7279,W,1,8,1.6,17,M,,M,,*5B
06/11/2014	06:03:49.587	$GPGGA,060350,2543.8853,N,08009.7278,W,1,8,2.2,17,M,,M,,*53
06/11/2014	06:03:50.587	$GPGGA,060351,2543.8851,N,08009.7277,W,1,8,1.6,17,M,,M,,*58
06/11/2014	06:03:51.619	$GPGGA,060352,2543.8849,N,08009.7277,W,1,8,1.6,17,M,,M,,*52
06/11/2014	06:03:52.594	$GPGGA,060353,2543.8848,N,08009.7277,W,1,8,1.6,17,M,,M,,*52
06/11/2014	06:03:53.610	$GPGGA,060354,2543.8846,N,08009.7277,W,1,8,1.6,17,M,,M,,*5B
06/11/2014	06:03:54.756	$GPGGA,060355,2543.8844,N,08009.7277,W,1,8,1.6,17,M,,M,,*58
06/11/2014	06:03:55.631	$GPGGA,060356,2543.8844,N,08009.7276,W,1,8,1.6,17,M,,M,,*5A
06/11/2014	06:03:56.607	$GPGGA,060357,2543.8844,N,08009.7276,W,1,8,1.6,17,M,,M,,*5B
06/11/2014	06:03:57.713	$GPGGA,060358,2543.8844,N,08009.7276,W,1,8,1.6,16,M,,M,,*55
06/11/2014	06:03:58.638	$GPGGA,060359,2543.8841,N,08009.7276,W,1,7,2.2,16,M,,M,,*59
06/11/2014	06:03:59.663	$GPGGA,060400,2543.8837,N,08009.7275,W,1,7,1.6,16,M,,M,,*57
06/11/2014	06:04:00.719	$GPGGA,060401,2543.8837,N,08009.7276,W,1,8,1.6,16,M,,M,,*5A
06/11/2014	06:04:01.725	$GPGGA,060402,2543.8839,N,08009.7275,W,1,8,2.2,16,M,,M,,*53
06/11/2014	06:04:02.632	$GPGGA,060403,2543.8834,N,08009.7276,W,1,7,2.2,16,M,,M,,*53
06/11/2014	06:04:03.666	$GPGGA,060404,2543.8835,N,08009.7275,W,1,7,1.6,15,M,,M,,*52
06/11/2014	06:04:04.662	$GPGGA,060405,2543.8834,N,08009.7276,W,1,8,1.6,15,M,,M,,*5E
06/11/2014	06:04:05.743	$GPGGA,060406,2543.8835,N,08009.7275,W,1,8,1.6,15,M,,M,,*5F
06/11/2014	06:04:06.764	$GPGGA,060407,2543.8834,N,08009.7276,W,1,8,1.6,15,M,,M,,*5C
06/11/2014	06:04:07.669	$GPGGA,060408,2543.8836,N,08009.7275,W,1,8,1.6,15,M,,M,,*52
06/11/2014	06:04:08.666	$GPGGA,060409,2543.8835,N,08009.7276,W,1,8,1.6,14,M,,M,,*52
06/11/2014	06:04:09.765	$GPGGA,060410,2543.8839,N,08009.7274,W,1,8,1.6,14,M,,M,,*54
06/11/2014	06:04:10.817	$GPGGA,060411,2543.8840,N,08009.7274,W,1,9,1.6,14,M,,M,,*5A
06/11/2014	06:04:11.772	$GPGGA,060412,2543.8843,N,08009.7274,W,1,9,1.6,14,M,,M,,*5A
06/11/2014	06:04:12.798	$GPGGA,060413,2543.8844,N,08009.7274,W,1,9,1.6,14,M,,M,,*5C
06/11/2014	06:04:13.773	$GPGGA,060414,2543.8846,N,08009.7273,W,1,9,1.6,14,M,,M,,*5E
06/11/2014	06:04:14.799	$GPGGA,060415,2543.8847,N,08009.7273,W,1,9,1.6,14,M,,M,,*5E
06/11/2014	06:04:15.785	$GPGGA,060416,2543.8846,N,08009.7273,W,1,9,1.6,14,M,,M,,*5C
06/11/2014	06:04:16.820	$GPGGA,060417,2543.8848,N,08009.7273,W,1,9,1.6,14,M,,M,,*53
06/11/2014	06:04:17.795	$GPGGA,060418,2543.8848,N,08009.7274,W,1,9,1.6,15,M,,M,,*5A
06/11/2014	06:04:18.801	$GPGGA,060419,2543.8848,N,08009.7274,W,1,9,1.6,15,M,,M,,*5B
06/11/2014	06:04:19.823	$GPGGA,060420,2543.8848,N,08009.7274,W,1,9,1.6,15,M,,M,,*51
06/11/2014	06:04:20.792	$GPGGA,060421,2543.8848,N,08009.7274,W,1,9,1.6,15,M,,M,,*50
06/11/2014	06:04:21.798	$GPGGA,060422,2543.8848,N,08009.7274,W,1,9,1.6,15,M,,M,,*53
06/11/2014	06:04:22.803	$GPGGA,060423,2543.8848,N,08009.7274,W,1,9,1.6,15,M,,M,,*52
06/11/2014	06:04:23.819	$GPGGA,060424,2543.8848,N,08009.7274,W,1,9,1.6,15,M,,M,,*55
06/11/2014	06:04:24.851	$GPGGA,060425,2543.8848,N,08009.7274,W,1,9,1.6,15,M,,M,,*54
06/11/2014	06:04:25.821	$GPGGA,060426,2543.8848,N,08009.7274,W,1,9,1.6,15,M,,M,,*57
06/11/2014	06:04:26.846	$GPGGA,060427,2543.8848,N,08009.7273,W,1,9,1.6,15,M,,M,,*51
06/11/2014	06:04:27.852	$GPGGA,060428,2543.8848,N,08009.7273,W,1,9,1.6,15,M,,M,,*5E
06/11/2014	06:04:28.870	$GPGGA,060429,2543.8848,N,08009.7274,W,1,9,1.6,15,M,,M,,*58
06/11/2014	06:04:29.823	$GPGGA,060430,2543.8846,N,08009.7274,W,1,9,1.6,15,M,,M,,*5E
06/11/2014	06:04:30.849	$GPGGA,060431,2543.8847,N,08009.7274,W,1,9,1.6,15,M,,M,,*5E
06/11/2014	06:04:31.855	$GPGGA,060432,2543.8846,N,08009.7274,W,1,9,1.6,16,M,,M,,*5F
06/11/2014	06:04:32.861	$GPGGA,060433,2543.8847,N,08009.7274,W,1,9,1.6,16,M,,M,,*5F
06/11/2014	06:04:33.857	$GPGGA,060434,2543.8846,N,08009.7276,W,1,9,1.6,16,M,,M,,*5B
06/11/2014	06:04:34.861	$GPGGA,060435,2543.8847,N,08009.7275,W,1,9,1.6,16,M,,M,,*58
06/11/2014	06:04:35.856	$GPGGA,060436,2543.8845,N,08009.7276,W,1,9,1.6,16,M,,M,,*5A
06/11/2014	06:04:36.862	$GPGGA,060437,2543.8846,N,08009.7275,W,1,9,1.6,16,M,,M,,*5B
06/11/2014	06:04:37.878	$GPGGA,060438,2543.8845,N,08009.7276,W,1,9,1.6,16,M,,M,,*54
06/11/2014	06:04:38.874	$GPGGA,060439,2543.8846,N,08009.7275,W,1,9,1.6,16,M,,M,,*55
06/11/2014	06:04:39.889	$GPGGA,060440,2543.8845,N,08009.7276,W,1,9,1.6,16,M,,M,,*5B
06/11/2014	06:04:40.895	$GPGGA,060441,2543.8846,N,08009.7274,W,1,9,1.6,16,M,,M,,*5B
06/11/2014	06:04:41.871	$GPGGA,060442,2543.8845,N,08009.7274,W,1,9,1.6,16,M,,M,,*5B
06/11/2014	06:04:42.876	$GPGGA,060443,2543.8846,N,08009.7274,W,1,9,1.6,16,M,,M,,*59
06/11/2014	06:04:43.993	$GPGGA,060444,2543.8845,N,08009.7274,W,1,9,1.6,16,M,,M,,*5D
06/11/2014	06:04:44.524	$GPGGA,060445,2543.8846,N,08009.7274,W,1,9,1.6,16,M,,M,,*5F
06/11/2014	06:04:45.499	$GPGGA,060446,2543.8845,N,08009.7274,W,1,9,1.6,17,M,,M,,*5E
06/11/2014	06:04:46.536	$GPGGA,060447,2543.8844,N,08009.7273,W,1,9,1.6,17,M,,M,,*59
06/11/2014	06:04:47.521	$GPGGA,060448,2543.8844,N,08009.7273,W,1,9,1.6,17,M,,M,,*56
06/11/2014	06:04:48.647	$GPGGA,060449,2543.8844,N,08009.7273,W,1,9,1.6,17,M,,M,,*57
06/11/2014	06:04:49.522	$GPGGA,060450,2543.8844,N,08009.7273,W,1,9,1.6,17,M,,M,,*5F
06/11/2014	06:04:50.659	$GPGGA,060451,2543.8844,N,08009.7273,W,1,9,1.6,17,M,,M,,*5E
06/11/2014	06:04:51.663	$GPGGA,060452,2543.8844,N,08009.7273,W,1,9,1.6,17,M,,M,,*5D
06/11/2014	06:04:52.548	$GPGGA,060453,2543.8844,N,08009.7273,W,1,9,1.6,17,M,,M,,*5C
06/11/2014	06:04:53.544	$GPGGA,060454,2543.8844,N,08009.7273,W,1,9,1.6,17,M,,M,,*5B
06/11/2014	06:04:54.670	$GPGGA,060455,2543.8844,N,08009.7274,W,1,9,1.6,17,M,,M,,*5D
06/11/2014	06:04:55.676	$GPGGA,060456,2543.8842,N,08009.7273,W,1,9,1.6,17,M,,M,,*5F
06/11/2014	06:04:56.672	$GPGGA,060457,2543.8843,N,08009.7273,W,1,9,1.6,17,M,,M,,*5F
06/11/2014	06:04:57.667	$GPGGA,060458,2543.8841,N,08009.7273,W,1,9,1.6,17,M,,M,,*52
06/11/2014	06:04:58.673	$GPGGA,060459,2543.8842,N,08009.7273,W,1,9,1.6,17,M,,M,,*50
06/11/2014	06:04:59.689	$GPGGA,060500,2543.8841,N,08009.7273,W,1,9,1.6,18,M,,M,,*51
06/11/2014	06:05:00.675	$GPGGA,060501,2543.8842,N,08009.7273,W,1,9,1.6,18,M,,M,,*53
06/11/2014	06:05:01.673	$GPGGA,060502,2543.8841,N,08009.7273,W,1,9,1.6,18,M,,M,,*53
06/11/2014	06:05:02.687	$GPGGA,060503,2543.8842,N,08009.7273,W,1,9,1.6,18,M,,M,,*51
06/11/2014	06:05:03.692	$GPGGA,060504,2543.8843,N,08009.7274,W,1,9,1.6,18,M,,M,,*50
06/11/2014	06:05:04.688	$GPGGA,060505,2543.8842,N,08009.7274,W,1,9,1.6,18,M,,M,,*50
06/11/2014	06:05:05.683	$GPGGA,060506,2543.8843,N,08009.7276,W,1,9,1.6,18,M,,M,,*50
06/11/2014	06:05:06.709	$GPGGA,060507,2543.8842,N,08009.7275,W,1,9,1.6,18,M,,M,,*53
06/11/2014	06:05:07.707	$GPGGA,060508,2543.8844,N,08009.7276,W,1,9,1.6,18,M,,M,,*59
06/11/2014	06:05:08.690	$GPGGA,060509,2543.8844,N,08009.7275,W,1,9,1.6,18,M,,M,,*5B
06/11/2014	06:05:09.705	$GPGGA,060510,2543.8844,N,08009.7276,W,1,9,1.6,18,M,,M,,*50
06/11/2014	06:05:10.726	$GPGGA,060511,2543.8846,N,08009.7276,W,1,9,1.6,18,M,,M,,*53
06/11/2014	06:05:11.729	$GPGGA,060512,2543.8847,N,08009.7276,W,1,9,1.6,19,M,,M,,*50
06/11/2014	06:05:12.746	$GPGGA,060513,2543.8848,N,08009.7276,W,1,9,1.6,19,M,,M,,*5E
06/11/2014	06:05:13.717	$GPGGA,060514,2543.8848,N,08009.7276,W,1,9,1.6,19,M,,M,,*59
06/11/2014	06:05:14.748	$GPGGA,060515,2543.8848,N,08009.7277,W,1,9,1.6,19,M,,M,,*59
06/11/2014	06:05:15.753	$GPGGA,060516,2543.8848,N,08009.7277,W,1,9,1.6,19,M,,M,,*5A
06/11/2014	06:05:16.758	$GPGGA,060517,2543.8848,N,08009.7277,W,1,9,1.6,19,M,,M,,*5B
06/11/2014	06:05:17.730	$GPGGA,060518,2543.8848,N,08009.7277,W,1,9,1.6,19,M,,M,,*54
06/11/2014	06:05:18.736	$GPGGA,060519,2543.8848,N,08009.7277,W,1,9,1.6,19,M,,M,,*55
06/11/2014	06:05:19.752	$GPGGA,060520,2543.8850,N,08009.7277,W,1,9,1.8,20,M,,M,,*52
06/11/2014	06:05:20.789	$GPGGA,060521,2543.8851,N,08009.7277,W,1,8,1.6,20,M,,M,,*5D
06/11/2014	06:05:21.753	$GPGGA,060522,2543.8851,N,08009.7277,W,1,8,1.6,20,M,,M,,*5E
06/11/2014	06:05:22.802	$GPGGA,060523,2543.8854,N,08009.7279,W,1,9,1.6,20,M,,M,,*55
06/11/2014	06:05:23.798	$GPGGA,060524,2543.8855,N,08009.7280,W,1,9,1.6,20,M,,M,,*55
06/11/2014	06:05:24.770	$GPGGA,060525,2543.8858,N,08009.7280,W,1,9,1.6,20,M,,M,,*59
06/11/2014	06:05:25.756	$GPGGA,060526,2543.8859,N,08009.7281,W,1,9,1.6,20,M,,M,,*5A
06/11/2014	06:05:26.780	$GPGGA,060527,2543.8862,N,08009.7283,W,1,9,1.6,21,M,,M,,*50
06/11/2014	06:05:27.786	$GPGGA,060528,2543.8865,N,08009.7282,W,1,9,1.6,21,M,,M,,*59
06/11/2014	06:05:28.802	$GPGGA,060529,2543.8862,N,08009.7283,W,1,9,1.8,21,M,,M,,*50
06/11/2014	06:05:29.888	$GPGGA,060530,2543.8865,N,08009.7283,W,1,9,1.6,21,M,,M,,*51
06/11/2014	06:05:30.894	$GPGGA,060531,2543.8863,N,08009.7282,W,1,9,1.8,21,M,,M,,*59
06/11/2014	06:05:31.809	$GPGGA,060532,2543.8862,N,08009.7283,W,1,9,1.8,22,M,,M,,*59
06/11/2014	06:05:32.895	$GPGGA,060533,2543.8860,N,08009.7282,W,1,8,1.8,22,M,,M,,*5A
06/11/2014	06:05:33.810	$GPGGA,060534,2543.8859,N,08009.7281,W,1,8,1.7,22,M,,M,,*5B
06/11/2014	06:05:34.816	$GPGGA,060535,2543.8858,N,08009.7281,W,1,8,1.7,22,M,,M,,*5B
06/11/2014	06:05:35.802	$GPGGA,060536,2543.8857,N,08009.7281,W,1,8,1.7,22,M,,M,,*57
06/11/2014	06:05:36.827	$GPGGA,060537,2543.8856,N,08009.7280,W,1,8,1.7,22,M,,M,,*56
06/11/2014	06:05:37.803	$GPGGA,060538,2543.8857,N,08009.7280,W,1,8,1.7,22,M,,M,,*58
06/11/2014	06:05:38.829	$GPGGA,060539,2543.8855,N,08009.7280,W,1,8,1.7,22,M,,M,,*5B
06/11/2014	06:05:39.845	$GPGGA,060540,2543.8855,N,08009.7280,W,1,8,1.7,22,M,,M,,*55
06/11/2014	06:05:40.820	$GPGGA,060541,2543.8855,N,08009.7280,W,1,8,1.7,22,M,,M,,*54
06/11/2014	06:05:41.856	$GPGGA,060542,2543.8855,N,08009.7280,W,1,8,1.7,22,M,,M,,*57
06/11/2014	06:05:42.938	$GPGGA,060543,2543.8855,N,08009.7280,W,1,8,1.7,22,M,,M,,*56
06/11/2014	06:05:44.008	$GPGGA,060544,2543.8855,N,08009.7280,W,1,8,1.7,22,M,,M,,*51
06/11/2014	06:05:44.636	$GPGGA,060545,2543.8855,N,08009.7280,W,1,8,1.7,22,M,,M,,*50
06/11/2014	06:05:45.706	$GPGGA,060546,2543.8853,N,08009.7280,W,1,8,1.7,22,M,,M,,*55
06/11/2014	06:05:46.701	$GPGGA,060547,2543.8854,N,08009.7280,W,1,8,1.7,22,M,,M,,*53
06/11/2014	06:05:47.867	$GPGGA,060548,2543.8853,N,08009.7280,W,1,8,1.7,22,M,,M,,*5B
06/11/2014	06:05:48.905	$GPGGA,060549,2543.8852,N,08009.7280,W,1,8,1.7,22,M,,M,,*5B
06/11/2014	06:05:49.974	$GPGGA,060550,2543.8851,N,08009.7280,W,1,8,1.7,22,M,,M,,*50
06/11/2014	06:05:51.066	$GPGGA,060551,2543.8851,N,08009.7280,W,1,7,1.7,22,M,,M,,*5E
06/11/2014	06:05:52.133	$GPGGA,060552,2543.8855,N,08009.7279,W,1,7,1.7,22,M,,M,,*5F
06/11/2014	06:05:53.195	$GPGGA,060553,2543.8857,N,08009.7280,W,1,8,1.7,22,M,,M,,*55
06/11/2014	06:05:54.254	$GPGGA,060554,2543.8858,N,08009.7279,W,1,8,1.7,22,M,,M,,*5B
06/11/2014	06:05:55.328	$GPGGA,060555,2543.8857,N,08009.7280,W,1,8,1.7,22,M,,M,,*53
06/11/2014	06:05:56.404	$GPGGA,060556,2543.8858,N,08009.7279,W,1,8,1.7,22,M,,M,,*59
06/11/2014	06:05:57.484	$GPGGA,060557,2543.8858,N,08009.7280,W,1,8,1.7,22,M,,M,,*5E
06/11/2014	06:05:58.511	$GPGGA,060558,2543.8856,N,08009.7279,W,1,8,2.2,22,M,,M,,*5F
06/11/2014	06:05:59.604	$GPGGA,060559,2543.8855,N,08009.7280,W,1,7,2.2,22,M,,M,,*54
06/11/2014	06:06:00.683	$GPGGA,060600,2543.8853,N,08009.7279,W,1,7,2.2,22,M,,M,,*5B
06/11/2014	06:06:01.742	$GPGGA,060601,2543.8852,N,08009.7280,W,1,7,2.2,22,M,,M,,*5D
06/11/2014	06:06:02.790	$GPGGA,060602,2543.8850,N,08009.7280,W,1,7,2.2,22,M,,M,,*5C
06/11/2014	06:06:03.881	$GPGGA,060603,2543.8849,N,08009.7280,W,1,7,2.2,22,M,,M,,*55
06/11/2014	06:06:04.951	$GPGGA,060604,2543.8848,N,08009.7280,W,1,7,2.2,22,M,,M,,*53
06/11/2014	06:06:06.027	$GPGGA,060605,2543.8848,N,08009.7280,W,1,7,2.2,22,M,,M,,*52
06/11/2014	06:06:07.058	$GPGGA,060606,2543.8848,N,08009.7280,W,1,7,2.2,22,M,,M,,*51
06/11/2014	06:06:08.162	$GPGGA,060607,2543.8846,N,08009.7280,W,1,7,2.2,22,M,,M,,*5E
06/11/2014	06:06:09.208	$GPGGA,060608,2543.8847,N,08009.7280,W,1,7,2.2,22,M,,M,,*50
06/11/2014	06:06:10.267	$GPGGA,060609,2543.8845,N,08009.7280,W,1,7,2.2,22,M,,M,,*53
06/11/2014	06:06:11.348	$GPGGA,060610,2543.8846,N,08009.7280,W,1,7,2.2,22,M,,M,,*58
06/11/2014	06:06:12.428	$GPGGA,060611,2543.8845,N,08009.7280,W,1,7,2.2,22,M,,M,,*5A
06/11/2014	06:06:13.477	$GPGGA,060612,2543.8844,N,08009.7280,W,1,7,2.2,22,M,,M,,*58
06/11/2014	06:06:14.525	$GPGGA,060613,2543.8844,N,08009.7280,W,1,7,2.2,21,M,,M,,*5A
06/11/2014	06:06:15.606	$GPGGA,060614,2543.8844,N,08009.7280,W,1,7,2.2,21,M,,M,,*5D
06/11/2014	06:06:16.708	$GPGGA,060615,2543.8844,N,08009.7280,W,1,7,2.2,21,M,,M,,*5C
06/11/2014	06:06:17.767	$GPGGA,060616,2543.8842,N,08009.7280,W,1,7,2.2,21,M,,M,,*59
06/11/2014	06:06:18.815	$GPGGA,060617,2543.8843,N,08009.7279,W,1,7,2.2,21,M,,M,,*5F
06/11/2014	06:06:19.864	$GPGGA,060618,2543.8841,N,08009.7280,W,1,7,2.2,21,M,,M,,*54
06/11/2014	06:06:20.945	$GPGGA,060619,2543.8842,N,08009.7279,W,1,7,2.2,21,M,,M,,*50
06/11/2014	06:06:22.025	$GPGGA,060620,2543.8841,N,08009.7280,W,1,7,2.2,21,M,,M,,*5F
06/11/2014	06:06:23.083	$GPGGA,060621,2543.8840,N,08009.7280,W,1,7,2.2,21,M,,M,,*5F
06/11/2014	06:06:24.140	$GPGGA,060622,2543.8840,N,08009.7279,W,1,7,2.2,20,M,,M,,*5B
06/11/2014	06:06:25.233	$GPGGA,060623,2543.8839,N,08009.7280,W,1,7,2.2,20,M,,M,,*52
06/11/2014	06:06:26.281	$GPGGA,060624,2543.8840,N,08009.7279,W,1,7,2.2,20,M,,M,,*5D
06/11/2014	06:06:27.383	$GPGGA,060625,2543.8838,N,08009.7280,W,1,7,2.2,20,M,,M,,*55
06/11/2014	06:06:28.410	$GPGGA,060626,2543.8839,N,08009.7279,W,1,7,2.2,20,M,,M,,*51
06/11/2014	06:06:29.576	$GPGGA,060627,2543.8843,N,08009.7280,W,1,7,2.2,20,M,,M,,*5B
06/11/2014	06:06:30.571	$GPGGA,060628,2543.8844,N,08009.7281,W,1,7,1.6,20,M,,M,,*55
06/11/2014	06:06:31.630	$GPGGA,060629,2543.8848,N,08009.7281,W,1,8,1.6,20,M,,M,,*57
06/11/2014	06:06:32.786	$GPGGA,060630,2543.8851,N,08009.7283,W,1,8,1.6,20,M,,M,,*55
06/11/2014	06:06:33.866	$GPGGA,060631,2543.8854,N,08009.7282,W,1,8,1.6,20,M,,M,,*50
06/11/2014	06:06:34.936	$GPGGA,060632,2543.8857,N,08009.7283,W,1,8,1.6,20,M,,M,,*51
06/11/2014	06:06:35.988	$GPGGA,060633,2543.8861,N,08009.7283,W,1,8,1.6,20,M,,M,,*55
06/11/2014	06:06:37.060	$GPGGA,060634,2543.8864,N,08009.7284,W,1,8,1.6,20,M,,M,,*50
06/11/2014	06:06:38.038	$GPGGA,060635,2543.8868,N,08009.7285,W,1,8,1.6,21,M,,M,,*5D
06/11/2014	06:06:39.226	$GPGGA,060636,2543.8872,N,08009.7287,W,1,8,1.6,21,M,,M,,*57
06/11/2014	06:06:40.275	$GPGGA,060637,2543.8873,N,08009.7286,W,1,8,1.6,21,M,,M,,*56
06/11/2014	06:06:41.343	$GPGGA,060638,2543.8876,N,08009.7287,W,1,8,1.6,21,M,,M,,*5D
06/11/2014	06:06:42.297	$GPGGA,060639,2543.8880,N,08009.7287,W,1,8,1.6,21,M,,M,,*55
06/11/2014	06:06:43.493	$GPGGA,060640,2543.8883,N,08009.7287,W,1,8,1.6,22,M,,M,,*5B
06/11/2014	06:06:44.542	$GPGGA,060641,2543.8884,N,08009.7288,W,1,8,1.6,22,M,,M,,*52
06/11/2014	06:06:45.612	$GPGGA,060642,2543.8887,N,08009.7288,W,1,8,1.6,22,M,,M,,*52
06/11/2014	06:06:46.703	$GPGGA,060643,2543.8889,N,08009.7288,W,1,8,1.6,23,M,,M,,*5C
06/11/2014	06:06:47.751	$GPGGA,060644,2543.8888,N,08009.7288,W,1,8,1.6,23,M,,M,,*5A
06/11/2014	06:06:44.646	$GPGGA,060645,2543.8889,N,08009.7288,W,1,8,1.6,23,M,,M,,*5A
06/11/2014	06:06:45.683	$GPGGA,060646,2543.8888,N,08009.7288,W,1,8,1.6,23,M,,M,,*58
06/11/2014	06:06:46.768	$GPGGA,060647,2543.8889,N,08009.7287,W,1,8,1.6,24,M,,M,,*50
06/11/2014	06:06:47.844	$GPGGA,060648,2543.8887,N,08009.7287,W,1,8,1.6,24,M,,M,,*51
06/11/2014	06:06:48.918	$GPGGA,060649,2543.8886,N,08009.7287,W,1,8,1.6,24,M,,M,,*51
06/11/2014	06:06:49.952	$GPGGA,060650,2543.8885,N,08009.7287,W,1,8,1.6,24,M,,M,,*5A
06/11/2014	06:06:51.022	$GPGGA,060651,2543.8884,N,08009.7286,W,1,8,1.6,25,M,,M,,*5A
06/11/2014	06:06:52.118	$GPGGA,060652,2543.8884,N,08009.7287,W,1,8,1.6,25,M,,M,,*58
06/11/2014	06:06:53.184	$GPGGA,060653,2543.8884,N,08009.7286,W,1,8,1.6,25,M,,M,,*58
06/11/2014	06:06:54.231	$GPGGA,060654,2543.8884,N,08009.7287,W,1,8,1.6,25,M,,M,,*5E
06/11/2014	06:06:55.289	$GPGGA,060655,2543.8886,N,08009.7286,W,1,8,1.6,25,M,,M,,*5C
06/11/2014	06:06:56.371	$GPGGA,060656,2543.8885,N,08009.7287,W,1,8,1.6,25,M,,M,,*5D
06/11/2014	06:06:57.472	$GPGGA,060657,2543.8884,N,08009.7286,W,1,8,1.6,25,M,,M,,*5C
06/11/2014	06:06:58.499	$GPGGA,060658,2543.8884,N,08009.7287,W,1,8,1.6,25,M,,M,,*52
06/11/2014	06:06:59.600	$GPGGA,060659,2543.8884,N,08009.7286,W,1,8,1.6,25,M,,M,,*52
06/11/2014	06:07:00.660	$GPGGA,060700,2543.8884,N,08009.7287,W,1,8,1.6,26,M,,M,,*5D
06/11/2014	06:07:01.708	$GPGGA,060701,2543.8884,N,08009.7286,W,1,8,1.6,26,M,,M,,*5D
06/11/2014	06:07:02.767	$GPGGA,060702,2543.8882,N,08009.7287,W,1,8,1.6,26,M,,M,,*59
06/11/2014	06:07:03.848	$GPGGA,060703,2543.8883,N,08009.7286,W,1,8,1.6,26,M,,M,,*58
06/11/2014	06:07:04.917	$GPGGA,060704,2543.8881,N,08009.7287,W,1,8,1.6,26,M,,M,,*5C
06/11/2014	06:07:05.998	$GPGGA,060705,2543.8882,N,08009.7286,W,1,8,1.6,26,M,,M,,*5F
06/11/2014	06:07:07.046	$GPGGA,060706,2543.8880,N,08009.7285,W,1,8,1.6,26,M,,M,,*5D
06/11/2014	06:07:08.127	$GPGGA,060707,2543.8880,N,08009.7285,W,1,8,1.6,26,M,,M,,*5C
06/11/2014	06:07:09.186	$GPGGA,060708,2543.8880,N,08009.7285,W,1,8,1.6,26,M,,M,,*53
06/11/2014	06:07:10.245	$GPGGA,060709,2543.8878,N,08009.7285,W,1,8,1.6,26,M,,M,,*55
06/11/2014	06:07:11.325	$GPGGA,060710,2543.8879,N,08009.7285,W,1,8,1.6,26,M,,M,,*5C
06/11/2014	06:07:12.374	$GPGGA,060711,2543.8877,N,08009.7285,W,1,8,1.6,26,M,,M,,*53
06/11/2014	06:07:13.475	$GPGGA,060712,2543.8876,N,08009.7284,W,1,8,1.6,26,M,,M,,*50
06/11/2014	06:07:14.523	$GPGGA,060713,2543.8875,N,08009.7284,W,1,8,1.6,26,M,,M,,*52
06/11/2014	06:07:15.593	$GPGGA,060714,2543.8874,N,08009.7283,W,1,8,1.6,26,M,,M,,*53
06/11/2014	06:07:16.791	$GPGGA,060715,2543.8873,N,08009.7283,W,1,8,1.6,26,M,,M,,*55
06/11/2014	06:07:17.743	$GPGGA,060716,2543.8873,N,08009.7283,W,1,8,1.6,26,M,,M,,*56
06/11/2014	06:07:18.920	$GPGGA,060717,2543.8873,N,08009.7283,W,1,8,1.6,26,M,,M,,*57
06/11/2014	06:07:19.851	$GPGGA,060718,2543.8873,N,08009.7283,W,1,8,1.6,26,M,,M,,*58
06/11/2014	06:07:20.931	$GPGGA,060719,2543.8873,N,08009.7283,W,1,8,1.6,25,M,,M,,*5A
06/11/2014	06:07:22.119	$GPGGA,060720,2543.8873,N,08009.7283,W,1,8,1.6,25,M,,M,,*50
06/11/2014	06:07:23.167	$GPGGA,060721,2543.8875,N,08009.7283,W,1,8,1.6,25,M,,M,,*57
06/11/2014	06:07:24.226	$GPGGA,060722,2543.8876,N,08009.7283,W,1,8,1.6,25,M,,M,,*57
06/11/2014	06:07:25.189	$GPGGA,060723,2543.8875,N,08009.7283,W,1,8,1.6,25,M,,M,,*55
06/11/2014	06:07:26.376	$GPGGA,060724,2543.8876,N,08009.7283,W,1,8,1.6,25,M,,M,,*51
06/11/2014	06:07:27.320	$GPGGA,060725,2543.8873,N,08009.7282,W,1,8,1.6,25,M,,M,,*54
06/11/2014	06:07:28.388	$GPGGA,060726,2543.8869,N,08009.7283,W,1,8,2.2,25,M,,M,,*5A
06/11/2014	06:07:29.586	$GPGGA,060727,2543.8866,N,08009.7282,W,1,7,2.2,25,M,,M,,*5A
06/11/2014	06:07:30.645	$GPGGA,060728,2543.8866,N,08009.7281,W,1,7,2.2,25,M,,M,,*56
06/11/2014	06:07:31.700	$GPGGA,060729,2543.8863,N,08009.7280,W,1,8,1.7,25,M,,M,,*5A
06/11/2014	06:07:32.773	$GPGGA,060730,2543.8862,N,08009.7280,W,1,8,1.7,25,M,,M,,*53
06/11/2014	06:07:33.834	$GPGGA,060731,2543.8859,N,08009.7280,W,1,8,1.7,24,M,,M,,*5B
06/11/2014	06:07:34.923	$GPGGA,060732,2543.8857,N,08009.7280,W,1,8,1.7,24,M,,M,,*56
06/11/2014	06:07:35.971	$GPGGA,060733,2543.8855,N,08009.7280,W,1,8,1.7,24,M,,M,,*55
06/11/2014	06:07:37.047	$GPGGA,060734,2543.8855,N,08009.7279,W,1,8,1.7,24,M,,M,,*54
06/11/2014	06:07:38.120	$GPGGA,060735,2543.8853,N,08009.7280,W,1,8,1.7,24,M,,M,,*55
06/11/2014	06:07:39.196	$GPGGA,060736,2543.8852,N,08009.7279,W,1,8,1.7,23,M,,M,,*56
06/11/2014	06:07:40.272	$GPGGA,060737,2543.8851,N,08009.7280,W,1,8,1.7,23,M,,M,,*52
06/11/2014	06:07:41.310	$GPGGA,060738,2543.8851,N,08009.7279,W,1,8,1.7,23,M,,M,,*5B
06/11/2014	06:07:42.401	$GPGGA,060739,2543.8851,N,08009.7280,W,1,8,1.7,23,M,,M,,*5C
06/11/2014	06:07:43.460	$GPGGA,060740,2543.8851,N,08009.7278,W,1,8,1.7,23,M,,M,,*55
06/11/2014	06:07:44.530	$GPGGA,060741,2543.8853,N,08009.7279,W,1,8,1.7,22,M,,M,,*56
06/11/2014	06:07:45.578	$GPGGA,060742,2543.8852,N,08009.7278,W,1,8,1.7,22,M,,M,,*55
06/11/2014	06:07:46.659	$GPGGA,060743,2543.8853,N,08009.7279,W,1,8,1.7,22,M,,M,,*54
06/11/2014	06:07:47.729	$GPGGA,060744,2543.8852,N,08009.7278,W,1,8,1.7,22,M,,M,,*53
06/11/2014	06:07:44.623	$GPGGA,060745,2543.8854,N,08009.7279,W,1,8,1.7,22,M,,M,,*55
06/11/2014	06:07:45.671	$GPGGA,060746,2543.8853,N,08009.7278,W,1,8,1.7,21,M,,M,,*53
06/11/2014	06:07:46.739	$GPGGA,060747,2543.8855,N,08009.7277,W,1,8,1.7,21,M,,M,,*5B
06/11/2014	06:07:47.820	$GPGGA,060748,2543.8855,N,08009.7277,W,1,8,1.7,21,M,,M,,*54
06/11/2014	06:07:48.868	$GPGGA,060749,2543.8855,N,08009.7277,W,1,8,1.7,21,M,,M,,*55
06/11/2014	06:07:49.938	$GPGGA,060750,2543.8855,N,08009.7277,W,1,8,1.7,21,M,,M,,*5D
06/11/2014	06:07:50.997	$GPGGA,060751,2543.8855,N,08009.7277,W,1,8,1.7,21,M,,M,,*5C
06/11/2014	06:07:52.078	$GPGGA,060752,2543.8855,N,08009.7279,W,1,8,1.7,21,M,,M,,*51
06/11/2014	06:07:53.170	$GPGGA,060753,2543.8855,N,08009.7277,W,1,8,1.7,21,M,,M,,*5E
06/11/2014	06:07:54.196	$GPGGA,060754,2543.8855,N,08009.7277,W,1,8,1.7,21,M,,M,,*59
06/11/2014	06:07:55.287	$GPGGA,060755,2543.8857,N,08009.7277,W,1,8,1.7,21,M,,M,,*5A
06/11/2014	06:07:56.346	$GPGGA,060756,2543.8855,N,08009.7279,W,1,8,1.7,21,M,,M,,*55
06/11/2014	06:07:57.459	$GPGGA,060757,2543.8855,N,08009.7277,W,1,8,1.7,21,M,,M,,*5A
06/11/2014	06:07:58.486	$GPGGA,060758,2543.8855,N,08009.7277,W,1,8,1.7,20,M,,M,,*54
06/11/2014	06:07:59.566	$GPGGA,060759,2543.8855,N,08009.7277,W,1,8,1.7,20,M,,M,,*55
06/11/2014	06:08:00.636	$GPGGA,060800,2543.8855,N,08009.7277,W,1,8,1.7,20,M,,M,,*56
06/11/2014	06:08:01.695	$GPGGA,060801,2543.8855,N,08009.7277,W,1,8,1.7,20,M,,M,,*57
06/11/2014	06:08:02.754	$GPGGA,060802,2543.8855,N,08009.7277,W,1,8,1.7,20,M,,M,,*54
06/11/2014	06:08:03.824	$GPGGA,060803,2543.8855,N,08009.7277,W,1,8,1.7,20,M,,M,,*55
06/11/2014	06:08:04.894	$GPGGA,060804,2543.8855,N,08009.7277,W,1,8,1.7,20,M,,M,,*52
06/11/2014	06:08:05.941	$GPGGA,060805,2543.8855,N,08009.7279,W,1,8,1.7,20,M,,M,,*5D
06/11/2014	06:08:07.032	$GPGGA,060806,2543.8855,N,08009.7278,W,1,8,1.7,20,M,,M,,*5F
06/11/2014	06:08:08.263	$GPGGA,060807,2543.8855,N,08009.7279,W,1,8,1.7,20,M,,M,,*5F
06/11/2014	06:08:09.311	$GPGGA,060808,2543.8855,N,08009.7278,W,1,8,1.7,20,M,,M,,*51
06/11/2014	06:08:10.424	$GPGGA,060809,2543.8853,N,08009.7279,W,1,8,1.7,20,M,,M,,*57
06/11/2014	06:08:11.279	$GPGGA,060810,2543.8855,N,08009.7278,W,1,8,1.7,20,M,,M,,*58
06/11/2014	06:08:12.531	$GPGGA,060811,2543.8853,N,08009.7279,W,1,8,1.7,19,M,,M,,*54
06/11/2014	06:08:13.537	$GPGGA,060812,2543.8854,N,08009.7278,W,1,8,1.7,19,M,,M,,*51
06/11/2014	06:08:14.703	$GPGGA,060813,2543.8853,N,08009.7279,W,1,8,1.7,19,M,,M,,*56
06/11/2014	06:08:15.569	$GPGGA,060814,2543.8854,N,08009.7278,W,1,8,1.7,19,M,,M,,*57
06/11/2014	06:08:16.837	$GPGGA,060815,2543.8853,N,08009.7279,W,1,8,1.7,19,M,,M,,*50
06/11/2014	06:08:17.720	$GPGGA,060816,2543.8854,N,08009.7278,W,1,8,1.7,19,M,,M,,*55
06/11/2014	06:08:18.982	$GPGGA,060817,2543.8857,N,08009.7280,W,1,8,1.6,19,M,,M,,*51
06/11/2014	06:08:19.966	$GPGGA,060818,2543.8856,N,08009.7278,W,1,8,1.7,19,M,,M,,*59
06/11/2014	06:08:21.114	$GPGGA,060819,2543.8858,N,08009.7280,W,1,8,1.7,19,M,,M,,*51
06/11/2014	06:08:22.095	$GPGGA,060820,2543.8859,N,08009.7279,W,1,8,1.6,19,M,,M,,*5D
06/11/2014	06:08:23.251	$GPGGA,060821,2543.8861,N,08009.7280,W,1,9,1.6,19,M,,M,,*50
06/11/2014	06:08:24.234	$GPGGA,060822,2543.8860,N,08009.7279,W,1,9,1.6,19,M,,M,,*54
06/11/2014	06:08:25.389	$GPGGA,060823,2543.8861,N,08009.7280,W,1,9,1.6,19,M,,M,,*52
06/11/2014	06:08:26.405	$GPGGA,060824,2543.8860,N,08009.7279,W,1,9,1.6,19,M,,M,,*52
06/11/2014	06:08:27.507	$GPGGA,060825,2543.8861,N,08009.7280,W,1,9,1.6,19,M,,M,,*54
06/11/2014	06:08:28.513	$GPGGA,060826,2543.8860,N,08009.7279,W,1,9,1.6,19,M,,M,,*50
06/11/2014	06:08:29.661	$GPGGA,060827,2543.8861,N,08009.7280,W,1,9,1.6,19,M,,M,,*56
06/11/2014	06:08:30.674	$GPGGA,060828,2543.8862,N,08009.7279,W,1,9,1.6,19,M,,M,,*5C
06/11/2014	06:08:31.679	$GPGGA,060829,2543.8862,N,08009.7280,W,1,9,1.6,19,M,,M,,*5B
06/11/2014	06:08:32.781	$GPGGA,060830,2543.8862,N,08009.7280,W,1,9,1.6,19,M,,M,,*53
06/11/2014	06:08:33.926	$GPGGA,060831,2543.8862,N,08009.7280,W,1,9,1.6,19,M,,M,,*52
06/11/2014	06:08:34.932	$GPGGA,060832,2543.8864,N,08009.7280,W,1,9,1.6,19,M,,M,,*57
06/11/2014	06:08:36.066	$GPGGA,060833,2543.8865,N,08009.7280,W,1,9,1.6,19,M,,M,,*57
06/11/2014	06:08:37.043	$GPGGA,060834,2543.8864,N,08009.7280,W,1,9,1.6,19,M,,M,,*51
06/11/2014	06:08:38.205	$GPGGA,060835,2543.8866,N,08009.7281,W,1,9,1.6,19,M,,M,,*53
06/11/2014	06:08:39.169	$GPGGA,060836,2543.8866,N,08009.7281,W,1,9,1.6,19,M,,M,,*50
06/11/2014	06:08:40.302	$GPGGA,060837,2543.8866,N,08009.7281,W,1,9,1.6,19,M,,M,,*51
06/11/2014	06:08:41.318	$GPGGA,060838,2543.8866,N,08009.7283,W,1,9,1.6,19,M,,M,,*5C
06/11/2014	06:08:42.462	$GPGGA,060839,2543.8866,N,08009.7282,W,1,9,1.6,19,M,,M,,*5C
06/11/2014	06:08:43.468	$GPGGA,060840,2543.8866,N,08009.7283,W,1,9,1.6,19,M,,M,,*53
06/11/2014	06:08:44.602	$GPGGA,060841,2543.8866,N,08009.7283,W,1,9,1.6,19,M,,M,,*52
06/11/2014	06:08:45.586	$GPGGA,060842,2543.8866,N,08009.7283,W,1,9,1.6,19,M,,M,,*51
06/11/2014	06:08:46.634	$GPGGA,060843,2543.8866,N,08009.7283,W,1,8,1.6,19,M,,M,,*51
06/11/2014	06:08:47.747	$GPGGA,060844,2543.8866,N,08009.7283,W,1,8,1.6,19,M,,M,,*56
06/11/2014	06:08:44.684	$GPGGA,060845,2543.8866,N,08009.7283,W,1,8,1.6,19,M,,M,,*57
06/11/2014	06:08:45.668	$GPGGA,060846,2543.8866,N,08009.7283,W,1,8,1.6,19,M,,M,,*54
06/11/2014	06:08:46.834	$GPGGA,060847,2543.8866,N,08009.7283,W,1,8,1.6,19,M,,M,,*55
06/11/2014	06:08:47.819	$GPGGA,060848,2543.8866,N,08009.7283,W,1,8,1.6,19,M,,M,,*5A
06/11/2014	06:08:48.974	$GPGGA,060849,2543.8866,N,08009.7284,W,1,8,1.6,19,M,,M,,*5C
06/11/2014	06:08:49.905	$GPGGA,060850,2543.8868,N,08009.7284,W,1,8,1.6,20,M,,M,,*50
06/11/2014	06:08:50.975	$GPGGA,060851,2543.8867,N,08009.7285,W,1,8,1.6,20,M,,M,,*5F
06/11/2014	06:08:52.055	$GPGGA,060852,2543.8868,N,08009.7284,W,1,8,1.6,20,M,,M,,*52
06/11/2014	06:08:53.243	$GPGGA,060853,2543.8869,N,08009.7285,W,1,8,1.6,20,M,,M,,*53
06/11/2014	06:08:54.217	$GPGGA,060854,2543.8868,N,08009.7285,W,1,8,1.6,20,M,,M,,*55
06/11/2014	06:08:55.361	$GPGGA,060855,2543.8869,N,08009.7285,W,1,8,1.6,20,M,,M,,*55
06/11/2014	06:08:56.366	$GPGGA,060856,2543.8868,N,08009.7285,W,1,8,1.6,20,M,,M,,*57
06/11/2014	06:08:57.489	$GPGGA,060857,2543.8869,N,08009.7287,W,1,8,1.6,20,M,,M,,*55
06/11/2014	06:08:58.494	$GPGGA,060858,2543.8869,N,08009.7286,W,1,8,1.6,20,M,,M,,*5B
06/11/2014	06:08:59.671	$GPGGA,060859,2543.8869,N,08009.7287,W,1,8,1.6,20,M,,M,,*5B
06/11/2014	06:09:00.655	$GPGGA,060900,2543.8869,N,08009.7286,W,1,8,1.6,20,M,,M,,*57
06/11/2014	06:09:01.778	$GPGGA,060901,2543.8869,N,08009.7285,W,1,8,1.6,20,M,,M,,*55
06/11/2014	06:09:02.720	$GPGGA,060902,2543.8868,N,08009.7285,W,1,8,1.6,20,M,,M,,*57
06/11/2014	06:09:03.907	$GPGGA,060903,2543.8869,N,08009.7285,W,1,8,1.6,20,M,,M,,*57
06/11/2014	06:09:04.924	$GPGGA,060904,2543.8868,N,08009.7285,W,1,8,1.6,20,M,,M,,*51
06/11/2014	06:09:06.017	$GPGGA,060905,2543.8867,N,08009.7285,W,1,8,1.6,20,M,,M,,*5F
06/11/2014	06:09:07.103	$GPGGA,060906,2543.8866,N,08009.7285,W,1,8,1.6,20,M,,M,,*5D
06/11/2014	06:09:08.229	$GPGGA,060907,2543.8866,N,08009.7285,W,1,8,1.6,20,M,,M,,*5C
06/11/2014	06:09:09.256	$GPGGA,060908,2543.8866,N,08009.7285,W,1,8,1.6,20,M,,M,,*53
06/11/2014	06:09:10.295	$GPGGA,060909,2543.8866,N,08009.7285,W,1,8,1.6,20,M,,M,,*52
06/11/2014	06:09:11.375	$GPGGA,060910,2543.8866,N,08009.7285,W,1,8,1.6,20,M,,M,,*5A
06/11/2014	06:09:12.445	$GPGGA,060911,2543.8866,N,08009.7284,W,1,8,1.6,20,M,,M,,*5A
06/11/2014	06:09:13.525	$GPGGA,060912,2543.8866,N,08009.7283,W,1,8,1.6,20,M,,M,,*5E
06/11/2014	06:09:14.605	$GPGGA,060913,2543.8866,N,08009.7283,W,1,8,1.6,20,M,,M,,*5F
06/11/2014	06:09:15.642	$GPGGA,060914,2543.8866,N,08009.7283,W,1,8,1.6,20,M,,M,,*58
06/11/2014	06:09:16.787	$GPGGA,060915,2543.8864,N,08009.7283,W,1,8,1.6,20,M,,M,,*5B
06/11/2014	06:09:17.814	$GPGGA,060916,2543.8865,N,08009.7283,W,1,8,1.6,20,M,,M,,*59
06/11/2014	06:09:18.884	$GPGGA,060917,2543.8864,N,08009.7283,W,1,8,1.6,20,M,,M,,*59
06/11/2014	06:09:19.911	$GPGGA,060918,2543.8865,N,08009.7283,W,1,8,1.6,20,M,,M,,*57
06/11/2014	06:09:21.012	$GPGGA,060919,2543.8864,N,08009.7283,W,1,8,1.6,20,M,,M,,*57
06/11/2014	06:09:22.074	$GPGGA,060920,2543.8863,N,08009.7283,W,1,8,1.6,20,M,,M,,*5A
06/11/2014	06:09:23.184	$GPGGA,060921,2543.8864,N,08009.7283,W,1,8,1.6,20,M,,M,,*5C
06/11/2014	06:09:24.179	$GPGGA,060922,2543.8864,N,08009.7283,W,1,8,1.6,20,M,,M,,*5F
06/11/2014	06:09:25.284	$GPGGA,060923,2543.8863,N,08009.7283,W,1,8,1.6,20,M,,M,,*59
06/11/2014	06:09:26.351	$GPGGA,060924,2543.8864,N,08009.7283,W,1,8,1.6,20,M,,M,,*59
06/11/2014	06:09:27.474	$GPGGA,060925,2543.8863,N,08009.7283,W,1,8,1.6,20,M,,M,,*5F
06/11/2014	06:09:28.458	$GPGGA,060926,2543.8862,N,08009.7283,W,1,8,1.6,20,M,,M,,*5D
06/11/2014	06:09:29.624	$GPGGA,060927,2543.8862,N,08009.7283,W,1,8,1.6,20,M,,M,,*5C
06/11/2014	06:09:30.609	$GPGGA,060928,2543.8862,N,08009.7283,W,1,8,1.6,20,M,,M,,*53
06/11/2014	06:09:31.732	$GPGGA,060929,2543.8862,N,08009.7283,W,1,8,1.6,20,M,,M,,*52
06/11/2014	06:09:32.737	$GPGGA,060930,2543.8862,N,08009.7284,W,1,8,1.6,20,M,,M,,*5D
06/11/2014	06:09:33.841	$GPGGA,060931,2543.8862,N,08009.7283,W,1,8,1.6,20,M,,M,,*5B
06/11/2014	06:09:34.876	$GPGGA,060932,2543.8862,N,08009.7284,W,1,8,1.6,20,M,,M,,*5F
06/11/2014	06:09:35.978	$GPGGA,060933,2543.8862,N,08009.7283,W,1,8,1.6,19,M,,M,,*53
06/11/2014	06:09:37.005	$GPGGA,060934,2543.8862,N,08009.7284,W,1,8,1.6,19,M,,M,,*53
06/11/2014	06:09:38.110	$GPGGA,060935,2543.8862,N,08009.7284,W,1,8,1.6,19,M,,M,,*52
06/11/2014	06:09:39.166	$GPGGA,060936,2543.8862,N,08009.7284,W,1,8,1.6,19,M,,M,,*51
06/11/2014	06:09:40.225	$GPGGA,060937,2543.8862,N,08009.7284,W,1,8,1.6,19,M,,M,,*50
06/11/2014	06:09:41.273	$GPGGA,060938,2543.8860,N,08009.7283,W,1,8,1.6,19,M,,M,,*5A
06/11/2014	06:09:42.386	$GPGGA,060939,2543.8861,N,08009.7283,W,1,8,1.6,19,M,,M,,*5A
06/11/2014	06:09:43.434	$GPGGA,060940,2543.8859,N,08009.7283,W,1,8,1.6,19,M,,M,,*5F
06/11/2014	06:09:44.493	$GPGGA,060941,2543.8859,N,08009.7283,W,1,8,1.6,19,M,,M,,*5E
06/11/2014	06:09:45.553	$GPGGA,060942,2543.8858,N,08009.7283,W,1,8,1.6,19,M,,M,,*5C
06/11/2014	06:09:46.751	$GPGGA,060943,2543.8857,N,08009.7283,W,1,8,1.6,19,M,,M,,*52
06/11/2014	06:09:47.703	$GPGGA,060944,2543.8858,N,08009.7283,W,1,8,1.6,19,M,,M,,*5A
06/11/2014	06:09:44.651	$GPGGA,060945,2543.8857,N,08009.7283,W,1,8,1.6,19,M,,M,,*54
06/11/2014	06:09:45.635	$GPGGA,060946,2543.8856,N,08009.7283,W,1,8,1.6,19,M,,M,,*56
06/11/2014	06:09:46.726	$GPGGA,060947,2543.8856,N,08009.7283,W,1,8,1.6,19,M,,M,,*57
06/11/2014	06:09:47.785	$GPGGA,060948,2543.8855,N,08009.7283,W,1,8,1.6,19,M,,M,,*5B
06/11/2014	06:09:48.897	$GPGGA,060949,2543.8855,N,08009.7283,W,1,8,1.6,19,M,,M,,*5A
06/11/2014	06:09:49.999	$GPGGA,060950,2543.8855,N,08009.7283,W,1,8,1.6,19,M,,M,,*52
06/11/2014	06:09:50.983	$GPGGA,060951,2543.8855,N,08009.7283,W,1,8,1.6,19,M,,M,,*53
06/11/2014	06:09:52.053	$GPGGA,060952,2543.8855,N,08009.7283,W,1,8,1.6,19,M,,M,,*50
06/11/2014	06:09:53.123	$GPGGA,060953,2543.8855,N,08009.7283,W,1,8,1.6,19,M,,M,,*51
06/11/2014	06:09:54.182	$GPGGA,060954,2543.8855,N,08009.7282,W,1,8,1.6,19,M,,M,,*57
06/11/2014	06:09:55.380	$GPGGA,060955,2543.8855,N,08009.7283,W,1,8,1.6,19,M,,M,,*57
06/11/2014	06:09:56.439	$GPGGA,060956,2543.8855,N,08009.7282,W,1,8,1.6,19,M,,M,,*55
06/11/2014	06:09:57.509	$GPGGA,060957,2543.8855,N,08009.7283,W,1,8,1.6,19,M,,M,,*55
06/11/2014	06:09:58.450	$GPGGA,060958,2543.8855,N,08009.7282,W,1,8,1.6,19,M,,M,,*5B
06/11/2014	06:09:59.627	$GPGGA,060959,2543.8855,N,08009.7283,W,1,8,1.6,19,M,,M,,*5B
06/11/2014	06:10:00.718	$GPGGA,061000,2543.8855,N,08009.7282,W,1,8,1.6,19,M,,M,,*5E
06/11/2014	06:10:01.777	$GPGGA,061001,2543.8853,N,08009.7283,W,1,8,1.6,19,M,,M,,*58
06/11/2014	06:10:02.815	$GPGGA,061002,2543.8854,N,08009.7281,W,1,8,1.6,19,M,,M,,*5E
06/11/2014	06:10:03.906	$GPGGA,061003,2543.8853,N,08009.7281,W,1,8,1.6,19,M,,M,,*58
06/11/2014	06:10:04.965	$GPGGA,061004,2543.8854,N,08009.7283,W,1,8,1.6,19,M,,M,,*5A
06/11/2014	06:10:06.057	$GPGGA,061005,2543.8853,N,08009.7282,W,1,8,1.6,19,M,,M,,*5D
06/11/2014	06:10:07.085	$GPGGA,061006,2543.8854,N,08009.7281,W,1,8,1.6,19,M,,M,,*5A
06/11/2014	06:10:08.174	$GPGGA,061007,2543.8853,N,08009.7281,W,1,8,1.6,19,M,,M,,*5C
06/11/2014	06:10:09.223	$GPGGA,061008,2543.8854,N,08009.7281,W,1,8,1.6,18,M,,M,,*55
06/11/2014	06:10:10.310	$GPGGA,061009,2543.8855,N,08009.7281,W,1,8,1.6,18,M,,M,,*55
06/11/2014	06:10:11.351	$GPGGA,061010,2543.8853,N,08009.7283,W,1,8,1.6,18,M,,M,,*59
06/11/2014	06:10:12.421	$GPGGA,061011,2543.8855,N,08009.7282,W,1,8,1.6,18,M,,M,,*5F
06/11/2014	06:10:14.614	$GPGGA,061013,2543.8855,N,08009.7282,W,1,8,1.6,18,M,,M,,*5D
06/11/2014	06:10:15.619	$GPGGA,061014,2543.8855,N,08009.7283,W,1,8,1.6,18,M,,M,,*5B
06/11/2014	06:10:16.724	$GPGGA,061015,2543.8855,N,08009.7282,W,1,8,1.6,18,M,,M,,*5B
06/11/2014	06:10:17.780	$GPGGA,061016,2543.8855,N,08009.7283,W,1,8,1.6,18,M,,M,,*59
06/11/2014	06:10:18.818	$GPGGA,061017,2543.8855,N,08009.7282,W,1,8,1.6,18,M,,M,,*59
06/11/2014	06:10:19.899	$GPGGA,061018,2543.8853,N,08009.7283,W,1,8,1.6,18,M,,M,,*51
06/11/2014	06:10:20.979	$GPGGA,061019,2543.8854,N,08009.7282,W,1,8,1.6,18,M,,M,,*56
06/11/2014	06:10:22.049	$GPGGA,061020,2543.8853,N,08009.7283,W,1,8,1.6,18,M,,M,,*5A
06/11/2014	06:10:23.087	$GPGGA,061021,2543.8854,N,08009.7281,W,1,8,1.6,18,M,,M,,*5E
06/11/2014	06:10:24.179	$GPGGA,061022,2543.8852,N,08009.7281,W,1,8,1.6,18,M,,M,,*5B
06/11/2014	06:10:25.226	$GPGGA,061023,2543.8853,N,08009.7281,W,1,8,1.6,18,M,,M,,*5B
06/11/2014	06:10:26.316	$GPGGA,061024,2543.8852,N,08009.7281,W,1,8,1.6,18,M,,M,,*5D
06/11/2014	06:10:27.398	$GPGGA,061025,2543.8853,N,08009.7280,W,1,8,1.6,18,M,,M,,*5C
06/11/2014	06:10:28.445	$GPGGA,061026,2543.8852,N,08009.7280,W,1,8,1.6,18,M,,M,,*5E
06/11/2014	06:10:29.547	$GPGGA,061027,2543.8853,N,08009.7280,W,1,8,1.6,18,M,,M,,*5E
06/11/2014	06:10:30.585	$GPGGA,061028,2543.8851,N,08009.7280,W,1,8,1.6,18,M,,M,,*53
06/11/2014	06:10:31.633	$GPGGA,061029,2543.8851,N,08009.7279,W,1,8,1.6,18,M,,M,,*54
06/11/2014	06:10:32.735	$GPGGA,061030,2543.8851,N,08009.7280,W,1,8,1.6,18,M,,M,,*5A
06/11/2014	06:10:33.773	$GPGGA,061031,2543.8851,N,08009.7279,W,1,8,1.6,18,M,,M,,*5D
06/11/2014	06:10:34.875	$GPGGA,061032,2543.8851,N,08009.7280,W,1,8,1.6,18,M,,M,,*58
06/11/2014	06:10:35.913	$GPGGA,061033,2543.8851,N,08009.7279,W,1,8,1.6,18,M,,M,,*5F
06/11/2014	06:10:37.100	$GPGGA,061034,2543.8851,N,08009.7280,W,1,8,1.6,18,M,,M,,*5E
06/11/2014	06:10:38.180	$GPGGA,061035,2543.8851,N,08009.7279,W,1,8,1.6,18,M,,M,,*59
06/11/2014	06:10:39.143	$GPGGA,061036,2543.8851,N,08009.7280,W,1,8,1.6,18,M,,M,,*5C
06/11/2014	06:10:40.320	$GPGGA,061037,2543.8851,N,08009.7279,W,1,8,1.6,18,M,,M,,*5B
06/11/2014	06:10:41.262	$GPGGA,061038,2543.8851,N,08009.7280,W,1,8,1.6,18,M,,M,,*52
06/11/2014	06:10:42.428	$GPGGA,061039,2543.8851,N,08009.7279,W,1,8,1.6,18,M,,M,,*55
06/11/2014	06:10:43.529	$GPGGA,061040,2543.8851,N,08009.7280,W,1,8,1.6,18,M,,M,,*5D
06/11/2014	06:10:44.556	$GPGGA,061041,2543.8851,N,08009.7279,W,1,8,1.6,18,M,,M,,*5A
06/11/2014	06:10:45.498	$GPGGA,061042,2543.8851,N,08009.7280,W,1,8,1.6,18,M,,M,,*5F
06/11/2014	06:10:46.627	$GPGGA,061043,2543.8851,N,08009.7279,W,1,8,1.6,18,M,,M,,*58
06/11/2014	06:10:47.664	$GPGGA,061044,2543.8851,N,08009.7280,W,1,8,1.6,17,M,,M,,*56
06/11/2014	06:10:44.519	$GPGGA,061045,2543.8851,N,08009.7279,W,1,8,1.6,17,M,,M,,*51
06/11/2014	06:10:45.628	$GPGGA,061046,2543.8850,N,08009.7280,W,1,8,1.6,17,M,,M,,*55
06/11/2014	06:10:46.685	$GPGGA,061047,2543.8851,N,08009.7279,W,1,8,1.6,17,M,,M,,*53
06/11/2014	06:10:47.691	$GPGGA,061048,2543.8850,N,08009.7280,W,1,8,1.6,17,M,,M,,*5B
06/11/2014	06:10:48.698	$GPGGA,061049,2543.8849,N,08009.7279,W,1,8,1.6,17,M,,M,,*54
06/11/2014	06:10:49.724	$GPGGA,061050,2543.8850,N,08009.7280,W,1,8,1.6,17,M,,M,,*52
06/11/2014	06:10:50.761	$GPGGA,061051,2543.8849,N,08009.7279,W,1,8,1.6,17,M,,M,,*5D
06/11/2014	06:10:51.808	$GPGGA,061052,2543.8850,N,08009.7280,W,1,8,1.6,17,M,,M,,*50
06/11/2014	06:10:52.816	$GPGGA,061053,2543.8849,N,08009.7279,W,1,8,1.6,17,M,,M,,*5F
06/11/2014	06:10:53.832	$GPGGA,061054,2543.8851,N,08009.7280,W,1,8,1.6,17,M,,M,,*57
06/11/2014	06:10:54.848	$GPGGA,061055,2543.8850,N,08009.7279,W,1,8,1.6,17,M,,M,,*51
06/11/2014	06:10:55.884	$GPGGA,061056,2543.8851,N,08009.7280,W,1,8,1.6,17,M,,M,,*55
06/11/2014	06:10:56.921	$GPGGA,061057,2543.8850,N,08009.7279,W,1,8,1.6,17,M,,M,,*53
06/11/2014	06:10:57.917	$GPGGA,061058,2543.8851,N,08009.7280,W,1,8,1.6,17,M,,M,,*5B
06/11/2014	06:10:58.963	$GPGGA,061059,2543.8851,N,08009.7279,W,1,8,1.6,17,M,,M,,*5C
06/11/2014	06:11:00.000	$GPGGA,061100,2543.8851,N,08009.7280,W,1,8,1.6,16,M,,M,,*56
06/11/2014	06:11:00.997	$GPGGA,061101,2543.8851,N,08009.7279,W,1,8,1.6,16,M,,M,,*51
06/11/2014	06:11:02.023	$GPGGA,061102,2543.8851,N,08009.7280,W,1,8,1.6,16,M,,M,,*54
06/11/2014	06:11:03.093	$GPGGA,061103,2543.8851,N,08009.7280,W,1,8,1.6,16,M,,M,,*55
06/11/2014	06:11:04.090	$GPGGA,061104,2543.8853,N,08009.7280,W,1,8,1.6,16,M,,M,,*50
06/11/2014	06:11:05.117	$GPGGA,061105,2543.8852,N,08009.7280,W,1,8,1.6,16,M,,M,,*50
06/11/2014	06:11:06.119	$GPGGA,061106,2543.8853,N,08009.7280,W,1,8,1.6,16,M,,M,,*52
06/11/2014	06:11:07.146	$GPGGA,061107,2543.8852,N,08009.7280,W,1,8,1.6,16,M,,M,,*52
06/11/2014	06:11:08.183	$GPGGA,061108,2543.8853,N,08009.7280,W,1,8,1.6,16,M,,M,,*5C
06/11/2014	06:11:09.189	$GPGGA,061109,2543.8851,N,08009.7280,W,1,8,1.6,16,M,,M,,*5F
06/11/2014	06:11:10.226	$GPGGA,061110,2543.8851,N,08009.7280,W,1,8,1.6,16,M,,M,,*57
06/11/2014	06:11:11.263	$GPGGA,061111,2543.8851,N,08009.7280,W,1,8,1.6,16,M,,M,,*56
06/11/2014	06:11:12.280	$GPGGA,061112,2543.8851,N,08009.7280,W,1,8,1.6,16,M,,M,,*55
06/11/2014	06:11:13.320	$GPGGA,061113,2543.8851,N,08009.7280,W,1,8,1.6,16,M,,M,,*54
06/11/2014	06:11:14.313	$GPGGA,061114,2543.8850,N,08009.7280,W,1,8,1.6,16,M,,M,,*52
06/11/2014	06:11:15.350	$GPGGA,061115,2543.8851,N,08009.7280,W,1,8,1.6,16,M,,M,,*52
06/11/2014	06:11:16.376	$GPGGA,061116,2543.8850,N,08009.7280,W,1,8,1.6,16,M,,M,,*50
06/11/2014	06:11:17.392	$GPGGA,061117,2543.8851,N,08009.7280,W,1,8,1.6,16,M,,M,,*50
06/11/2014	06:11:18.429	$GPGGA,061118,2543.8849,N,08009.7280,W,1,8,1.6,16,M,,M,,*56
06/11/2014	06:11:19.455	$GPGGA,061119,2543.8850,N,08009.7279,W,1,8,1.6,16,M,,M,,*59
06/11/2014	06:11:20.482	$GPGGA,061120,2543.8849,N,08009.7280,W,1,8,1.6,16,M,,M,,*5D
06/11/2014	06:11:21.519	$GPGGA,061121,2543.8850,N,08009.7279,W,1,8,1.6,16,M,,M,,*52
06/11/2014	06:11:22.525	$GPGGA,061122,2543.8849,N,08009.7280,W,1,8,1.6,16,M,,M,,*5F
06/11/2014	06:11:23.542	$GPGGA,061123,2543.8850,N,08009.7279,W,1,8,1.6,16,M,,M,,*50
06/11/2014	06:11:24.568	$GPGGA,061124,2543.8849,N,08009.7280,W,1,8,1.6,16,M,,M,,*59
06/11/2014	06:11:25.687	$GPGGA,061125,2543.8850,N,08009.7279,W,1,8,1.6,16,M,,M,,*56
06/11/2014	06:11:26.622	$GPGGA,061126,2543.8849,N,08009.7280,W,1,8,1.6,16,M,,M,,*5B
06/11/2014	06:11:27.669	$GPGGA,061127,2543.8850,N,08009.7280,W,1,8,1.6,16,M,,M,,*52
06/11/2014	06:11:28.676	$GPGGA,061128,2543.8849,N,08009.7280,W,1,8,1.6,16,M,,M,,*55
06/11/2014	06:11:29.681	$GPGGA,061129,2543.8850,N,08009.7280,W,1,8,1.6,16,M,,M,,*5C
06/11/2014	06:11:30.811	$GPGGA,061130,2543.8849,N,08009.7280,W,1,8,1.6,16,M,,M,,*5C
06/11/2014	06:11:31.837	$GPGGA,061131,2543.8850,N,08009.7280,W,1,8,1.6,16,M,,M,,*55
06/11/2014	06:11:32.792	$GPGGA,061132,2543.8849,N,08009.7281,W,1,8,1.6,16,M,,M,,*5F
06/11/2014	06:11:33.810	$GPGGA,061133,2543.8850,N,08009.7281,W,1,8,1.6,16,M,,M,,*56
06/11/2014	06:11:34.927	$GPGGA,061134,2543.8848,N,08009.7281,W,1,8,1.6,16,M,,M,,*58
06/11/2014	06:11:35.953	$GPGGA,061135,2543.8848,N,08009.7281,W,1,8,1.6,16,M,,M,,*59
06/11/2014	06:11:36.877	$GPGGA,061136,2543.8848,N,08009.7281,W,1,8,1.6,16,M,,M,,*5A
06/11/2014	06:11:37.983	$GPGGA,061137,2543.8848,N,08009.7281,W,1,8,1.6,16,M,,M,,*5B
06/11/2014	06:11:38.910	$GPGGA,061138,2543.8848,N,08009.7281,W,1,8,1.6,16,M,,M,,*54
06/11/2014	06:11:39.937	$GPGGA,061139,2543.8848,N,08009.7281,W,1,8,1.6,16,M,,M,,*55
06/11/2014	06:11:41.077	$GPGGA,061140,2543.8848,N,08009.7280,W,1,8,1.6,16,M,,M,,*5A
06/11/2014	06:11:42.094	$GPGGA,061141,2543.8848,N,08009.7280,W,1,8,1.6,16,M,,M,,*5B
06/11/2014	06:11:43.102	$GPGGA,061142,2543.8848,N,08009.7280,W,1,8,1.6,16,M,,M,,*58
06/11/2014	06:11:44.146	$GPGGA,061143,2543.8848,N,08009.7280,W,1,8,1.6,16,M,,M,,*59
06/11/2014	06:11:45.173	$GPGGA,061144,2543.8848,N,08009.7280,W,1,8,1.6,16,M,,M,,*5E
06/11/2014	06:11:44.590	$GPGGA,061145,2543.8848,N,08009.7280,W,1,8,1.6,16,M,,M,,*5F
06/11/2014	06:11:45.616	$GPGGA,061146,2543.8848,N,08009.7280,W,1,8,1.6,16,M,,M,,*5C
06/11/2014	06:11:46.640	$GPGGA,061147,2543.8848,N,08009.7280,W,1,8,1.6,16,M,,M,,*5D
06/11/2014	06:11:47.672	$GPGGA,061148,2543.8848,N,08009.7280,W,1,8,1.6,16,M,,M,,*52
06/11/2014	06:11:48.677	$GPGGA,061149,2543.8846,N,08009.7280,W,1,8,1.6,16,M,,M,,*5D
