Software Version Number: 1	Data File Format Number: 1	Build Version Number: 1	Error Count Since VI Started: 0	Manufacturer: Raytheon	 Model Number: RayMarine 120	 S/N: 	 Cal Date: 	 Wind Direction Offset: 0.00	 Slope (M)1: 0.00	 Offset (B)1: 0.00	 Slope (M)2: 0.00	 Offset (B)2: 0.00	 Slope (M)3: 0.00	 Offset (B)3: 0.00	 Slope (M)4: 0.00	 Offset (B)4: 0.00	 Slope (M)5: 0.00	 Offset (B)5: 0.00	 Slope (M)6: 0.00	 Offset (B)6: 0.00
Computer Date	Computer Time	GGA String
06/07/2014	19:00:00.729	$GPGGA,190001,2425.5743,N,08057.7471,W,1,12,1.4,11,M,,M,,*64
06/07/2014	19:00:01.767	$GPGGA,190002,2425.5728,N,08057.7460,W,1,12,1.4,11,M,,M,,*6A
06/07/2014	19:00:02.699	$GPGGA,190003,2425.5712,N,08057.7449,W,1,12,1.4,11,M,,M,,*69
06/07/2014	19:00:03.772	$GPGGA,190004,2425.5697,N,08057.7439,W,1,12,1.4,11,M,,M,,*65
06/07/2014	19:00:04.810	$GPGGA,190005,2425.5683,N,08057.7428,W,1,12,1.4,11,M,,M,,*61
06/07/2014	19:00:05.720	$GPGGA,190006,2425.5667,N,08057.7417,W,1,12,1.4,11,M,,M,,*64
06/07/2014	19:00:06.715	$GPGGA,190007,2425.5651,N,08057.7407,W,1,12,1.4,11,M,,M,,*61
06/07/2014	19:00:07.745	$GPGGA,190008,2425.5636,N,08057.7397,W,1,12,1.4,11,M,,M,,*61
06/07/2014	19:00:08.736	$GPGGA,190009,2425.5621,N,08057.7386,W,1,12,1.4,11,M,,M,,*66
06/07/2014	19:00:09.739	$GPGGA,190010,2425.5607,N,08057.7376,W,1,12,1.4,11,M,,M,,*65
06/07/2014	19:00:10.735	$GPGGA,190011,2425.5590,N,08057.7366,W,1,12,1.4,11,M,,M,,*68
06/07/2014	19:00:11.823	$GPGGA,190012,2425.5575,N,08057.7355,W,1,12,1.4,11,M,,M,,*60
06/07/2014	19:00:12.811	$GPGGA,190013,2425.5560,N,08057.7345,W,1,12,1.4,11,M,,M,,*64
06/07/2014	19:00:13.758	$GPGGA,190014,2425.5544,N,08057.7334,W,1,12,1.4,11,M,,M,,*63
06/07/2014	19:00:14.904	$GPGGA,190015,2425.5529,N,08057.7324,W,1,12,1.4,11,M,,M,,*68
06/07/2014	19:00:15.855	$GPGGA,190016,2425.5514,N,08057.7313,W,1,12,1.4,11,M,,M,,*61
06/07/2014	19:00:16.923	$GPGGA,190017,2425.5499,N,08057.7303,W,1,12,1.4,11,M,,M,,*65
06/07/2014	19:00:17.779	$GPGGA,190018,2425.5484,N,08057.7293,W,1,12,1.4,11,M,,M,,*6E
06/07/2014	19:00:18.818	$GPGGA,190019,2425.5468,N,08057.7283,W,1,12,1.4,11,M,,M,,*6C
06/07/2014	19:00:19.805	$GPGGA,190020,2425.5453,N,08057.7273,W,1,12,1.4,11,M,,M,,*61
06/07/2014	19:00:20.847	$GPGGA,190021,2425.5437,N,08057.7262,W,1,12,1.4,11,M,,M,,*62
06/07/2014	19:00:21.801	$GPGGA,190022,2425.5423,N,08057.7252,W,1,12,1.4,11,M,,M,,*67
06/07/2014	19:00:22.808	$GPGGA,190023,2425.5406,N,08057.7243,W,1,12,1.4,11,M,,M,,*61
06/07/2014	19:00:23.897	$GPGGA,190024,2425.5391,N,08057.7232,W,1,12,1.4,11,M,,M,,*69
06/07/2014	19:00:24.867	$GPGGA,190025,2425.5376,N,08057.7222,W,1,12,1.4,11,M,,M,,*60
06/07/2014	19:00:25.822	$GPGGA,190026,2425.5361,N,08057.7212,W,1,12,1.4,11,M,,M,,*66
06/07/2014	19:00:26.860	$GPGGA,190027,2425.5345,N,08057.7202,W,1,12,1.4,11,M,,M,,*60
06/07/2014	19:00:27.917	$GPGGA,190028,2425.5330,N,08057.7192,W,1,12,1.4,11,M,,M,,*67
06/07/2014	19:00:28.886	$GPGGA,190029,2425.5315,N,08057.7182,W,1,12,1.4,11,M,,M,,*60
06/07/2014	19:00:29.926	$GPGGA,190030,2425.5300,N,08057.7172,W,1,12,1.4,11,M,,M,,*63
06/07/2014	19:00:30.921	$GPGGA,190031,2425.5284,N,08057.7162,W,1,12,1.4,11,M,,M,,*6E
06/07/2014	19:00:31.978	$GPGGA,190032,2425.5269,N,08057.7153,W,1,12,1.4,11,M,,M,,*6C
06/07/2014	19:00:32.996	$GPGGA,190033,2425.5254,N,08057.7143,W,1,12,1.4,11,M,,M,,*62
06/07/2014	19:00:33.984	$GPGGA,190034,2425.5238,N,08057.7132,W,1,12,1.4,11,M,,M,,*69
06/07/2014	19:00:34.992	$GPGGA,190035,2425.5224,N,08057.7123,W,1,12,1.4,11,M,,M,,*65
06/07/2014	19:00:36.010	$GPGGA,190036,2425.5208,N,08057.7113,W,1,12,1.4,11,M,,M,,*6B
06/07/2014	19:00:37.017	$GPGGA,190037,2425.5193,N,08057.7102,W,1,12,1.4,11,M,,M,,*6B
06/07/2014	19:00:37.530	$GPGGA,190038,2425.5177,N,08057.7092,W,1,12,1.4,11,M,,M,,*66
06/07/2014	19:00:38.548	$GPGGA,190039,2425.5163,N,08057.7082,W,1,12,1.4,11,M,,M,,*63
06/07/2014	19:00:39.566	$GPGGA,190040,2425.5148,N,08057.7072,W,1,12,1.4,11,M,,M,,*6B
06/07/2014	19:00:40.574	$GPGGA,190041,2425.5131,N,08057.7061,W,1,12,1.4,11,M,,M,,*66
06/07/2014	19:00:41.551	$GPGGA,190042,2425.5116,N,08057.7051,W,1,12,1.4,11,M,,M,,*63
06/07/2014	19:00:42.609	$GPGGA,190043,2425.5101,N,08057.7041,W,1,12,1.4,11,M,,M,,*65
06/07/2014	19:00:43.587	$GPGGA,190044,2425.5087,N,08057.7031,W,1,12,1.4,11,M,,M,,*6A
06/07/2014	19:00:44.605	$GPGGA,190045,2425.5070,N,08057.7021,W,1,12,1.4,11,M,,M,,*62
06/07/2014	19:00:45.591	$GPGGA,190046,2425.5055,N,08057.7010,W,1,12,1.4,11,M,,M,,*64
06/07/2014	19:00:46.589	$GPGGA,190047,2425.5040,N,08057.6999,W,1,12,1.4,11,M,,M,,*68
06/07/2014	19:00:47.637	$GPGGA,190048,2425.5024,N,08057.6989,W,1,12,1.4,11,M,,M,,*64
06/07/2014	19:00:48.615	$GPGGA,190049,2425.5009,N,08057.6978,W,1,12,1.4,11,M,,M,,*64
06/07/2014	19:00:49.604	$GPGGA,190050,2425.4994,N,08057.6967,W,1,12,1.4,12,M,,M,,*6D
06/07/2014	19:00:50.671	$GPGGA,190051,2425.4978,N,08057.6957,W,1,12,1.4,12,M,,M,,*6D
06/07/2014	19:00:51.658	$GPGGA,190052,2425.4964,N,08057.6947,W,1,12,1.4,12,M,,M,,*62
06/07/2014	19:00:52.646	$GPGGA,190053,2425.4948,N,08057.6936,W,1,12,1.4,12,M,,M,,*6B
06/07/2014	19:00:53.674	$GPGGA,190054,2425.4933,N,08057.6925,W,1,12,1.4,12,M,,M,,*62
06/07/2014	19:00:54.651	$GPGGA,190055,2425.4933,N,08057.6925,W,1,12,1.4,12,M,,M,,*63
06/07/2014	19:00:55.679	$GPGGA,190056,2425.4902,N,08057.6903,W,1,12,1.4,12,M,,M,,*66
06/07/2014	19:00:56.687	$GPGGA,190057,2425.4888,N,08057.6893,W,1,12,1.4,12,M,,M,,*6C
06/07/2014	19:00:57.653	$GPGGA,190058,2425.4888,N,08057.6893,W,1,12,1.4,12,M,,M,,*63
06/07/2014	19:00:58.673	$GPGGA,190059,2425.4857,N,08057.6870,W,1,12,1.4,12,M,,M,,*6D
06/07/2014	19:00:59.721	$GPGGA,190100,2425.4842,N,08057.6860,W,1,12,1.4,12,M,,M,,*65
06/07/2014	19:01:00.658	$GPGGA,190101,2425.4827,N,08057.6849,W,1,12,1.4,12,M,,M,,*6C
06/07/2014	19:01:01.696	$GPGGA,190102,2425.4812,N,08057.6838,W,1,12,1.4,12,M,,M,,*6F
06/07/2014	19:01:02.683	$GPGGA,190103,2425.4798,N,08057.6827,W,1,12,1.4,12,M,,M,,*6D
06/07/2014	19:01:03.690	$GPGGA,190104,2425.4798,N,08057.6827,W,1,12,1.4,12,M,,M,,*6A
06/07/2014	19:01:04.706	$GPGGA,190105,2425.4767,N,08057.6805,W,1,12,1.4,12,M,,M,,*6B
06/07/2014	19:01:05.746	$GPGGA,190106,2425.4767,N,08057.6805,W,1,12,1.4,12,M,,M,,*68
06/07/2014	19:01:06.704	$GPGGA,190107,2425.4737,N,08057.6784,W,1,12,1.4,12,M,,M,,*6A
06/07/2014	19:01:07.762	$GPGGA,190108,2425.4722,N,08057.6772,W,1,12,1.4,12,M,,M,,*68
06/07/2014	19:01:08.699	$GPGGA,190109,2425.4707,N,08057.6761,W,1,12,1.4,12,M,,M,,*6C
06/07/2014	19:01:09.757	$GPGGA,190110,2425.4707,N,08057.6761,W,1,12,1.4,12,M,,M,,*64
06/07/2014	19:01:10.735	$GPGGA,190111,2425.4693,N,08057.6751,W,1,12,1.4,12,M,,M,,*6A
06/07/2014	19:01:11.833	$GPGGA,190112,2425.4662,N,08057.6728,W,1,12,1.4,12,M,,M,,*69
06/07/2014	19:01:12.730	$GPGGA,190113,2425.4647,N,08057.6718,W,1,12,1.4,12,M,,M,,*6C
06/07/2014	19:01:13.836	$GPGGA,190114,2425.4632,N,08057.6707,W,1,12,1.4,12,M,,M,,*67
06/07/2014	19:01:14.871	$GPGGA,190115,2425.4617,N,08057.6696,W,1,12,1.4,12,M,,M,,*68
06/07/2014	19:01:15.886	$GPGGA,190116,2425.4603,N,08057.6685,W,1,12,1.4,12,M,,M,,*6C
06/07/2014	19:01:16.830	$GPGGA,190117,2425.4587,N,08057.6675,W,1,12,1.4,12,M,,M,,*6D
06/07/2014	19:01:17.844	$GPGGA,190118,2425.4572,N,08057.6664,W,1,12,1.4,12,M,,M,,*68
06/07/2014	19:01:18.839	$GPGGA,190119,2425.4557,N,08057.6653,W,1,12,1.4,12,M,,M,,*6A
06/07/2014	19:01:19.863	$GPGGA,190120,2425.4542,N,08057.6643,W,1,12,1.4,12,M,,M,,*65
06/07/2014	19:01:20.876	$GPGGA,190121,2425.4527,N,08057.6632,W,1,12,1.4,12,M,,M,,*61
06/07/2014	19:01:21.850	$GPGGA,190122,2425.4527,N,08057.6632,W,1,12,1.4,12,M,,M,,*62
06/07/2014	19:01:22.844	$GPGGA,190123,2425.4498,N,08057.6611,W,1,12,1.4,12,M,,M,,*67
06/07/2014	19:01:23.859	$GPGGA,190124,2425.4481,N,08057.6601,W,1,12,1.4,12,M,,M,,*69
06/07/2014	19:01:24.863	$GPGGA,190125,2425.4466,N,08057.6590,W,1,12,1.4,12,M,,M,,*6A
06/07/2014	19:01:25.868	$GPGGA,190126,2425.4451,N,08057.6579,W,1,12,1.4,12,M,,M,,*6A
06/07/2014	19:01:26.872	$GPGGA,190127,2425.4436,N,08057.6569,W,1,12,1.4,12,M,,M,,*6B
06/07/2014	19:01:27.866	$GPGGA,190128,2425.4422,N,08057.6559,W,1,12,1.4,12,M,,M,,*62
06/07/2014	19:01:28.871	$GPGGA,190129,2425.4406,N,08057.6548,W,1,12,1.4,12,M,,M,,*65
06/07/2014	19:01:29.865	$GPGGA,190130,2425.4390,N,08057.6538,W,1,12,1.4,12,M,,M,,*62
06/07/2014	19:01:30.891	$GPGGA,190131,2425.4375,N,08057.6528,W,1,12,1.4,12,M,,M,,*69
06/07/2014	19:01:31.884	$GPGGA,190132,2425.4361,N,08057.6517,W,1,12,1.4,12,M,,M,,*63
06/07/2014	19:01:32.888	$GPGGA,190133,2425.4346,N,08057.6507,W,1,12,1.4,12,M,,M,,*66
06/07/2014	19:01:33.883	$GPGGA,190134,2425.4329,N,08057.6497,W,1,12,1.4,12,M,,M,,*60
06/07/2014	19:01:34.867	$GPGGA,190135,2425.4314,N,08057.6486,W,1,12,1.4,12,M,,M,,*6F
06/07/2014	19:01:35.892	$GPGGA,190136,2425.4299,N,08057.6476,W,1,12,1.4,12,M,,M,,*67
06/07/2014	19:01:36.878	$GPGGA,190137,2425.4283,N,08057.6466,W,1,12,1.4,12,M,,M,,*6C
06/07/2014	19:01:37.504	$GPGGA,190138,2425.4268,N,08057.6455,W,1,12,1.4,12,M,,M,,*66
06/07/2014	19:01:38.532	$GPGGA,190139,2425.4253,N,08057.6445,W,1,12,1.4,12,M,,M,,*6E
06/07/2014	19:01:39.527	$GPGGA,190140,2425.4238,N,08057.6435,W,1,12,1.4,12,M,,M,,*6A
06/07/2014	19:01:40.525	$GPGGA,190141,2425.4222,N,08057.6424,W,1,12,1.4,12,M,,M,,*60
06/07/2014	19:01:41.521	$GPGGA,190142,2425.4207,N,08057.6414,W,1,12,1.4,12,M,,M,,*67
06/07/2014	19:01:42.500	$GPGGA,190143,2425.4191,N,08057.6404,W,1,12,1.4,12,M,,M,,*6B
06/07/2014	19:01:43.537	$GPGGA,190144,2425.4176,N,08057.6393,W,1,12,1.4,12,M,,M,,*6C
06/07/2014	19:01:44.559	$GPGGA,190145,2425.4162,N,08057.6382,W,1,12,1.4,12,M,,M,,*68
06/07/2014	19:01:45.643	$GPGGA,190146,2425.4145,N,08057.6373,W,1,12,1.4,12,M,,M,,*60
06/07/2014	19:01:46.527	$GPGGA,190147,2425.4130,N,08057.6362,W,1,12,1.4,12,M,,M,,*63
06/07/2014	19:01:47.532	$GPGGA,190148,2425.4115,N,08057.6351,W,1,12,1.4,12,M,,M,,*6B
06/07/2014	19:01:48.549	$GPGGA,190149,2425.4100,N,08057.6341,W,1,12,1.4,12,M,,M,,*6F
06/07/2014	19:01:49.530	$GPGGA,190150,2425.4086,N,08057.6331,W,1,12,1.4,12,M,,M,,*6F
06/07/2014	19:01:50.525	$GPGGA,190151,2425.4070,N,08057.6320,W,1,12,1.4,12,M,,M,,*67
06/07/2014	19:01:51.662	$GPGGA,190152,2425.4055,N,08057.6308,W,1,12,1.4,12,M,,M,,*69
06/07/2014	19:01:52.544	$GPGGA,190153,2425.4040,N,08057.6298,W,1,12,1.4,12,M,,M,,*64
06/07/2014	19:01:53.638	$GPGGA,190154,2425.4025,N,08057.6288,W,1,12,1.4,12,M,,M,,*61
06/07/2014	19:01:54.532	$GPGGA,190155,2425.4010,N,08057.6276,W,1,12,1.4,12,M,,M,,*67
06/07/2014	19:01:55.566	$GPGGA,190156,2425.3996,N,08057.6265,W,1,12,1.4,12,M,,M,,*66
06/07/2014	19:01:56.671	$GPGGA,190157,2425.3980,N,08057.6254,W,1,12,1.4,12,M,,M,,*62
06/07/2014	19:01:57.555	$GPGGA,190158,2425.3965,N,08057.6243,W,1,12,1.4,12,M,,M,,*60
06/07/2014	19:01:58.539	$GPGGA,190159,2425.3950,N,08057.6231,W,1,12,1.4,12,M,,M,,*62
06/07/2014	19:01:59.583	$GPGGA,190200,2425.3935,N,08057.6220,W,1,12,1.4,12,M,,M,,*6E
06/07/2014	19:02:00.688	$GPGGA,190201,2425.3920,N,08057.6210,W,1,12,1.4,12,M,,M,,*68
06/07/2014	19:02:01.653	$GPGGA,190202,2425.3905,N,08057.6197,W,1,12,1.4,12,M,,M,,*60
06/07/2014	19:02:02.647	$GPGGA,190203,2425.3891,N,08057.6186,W,1,12,1.4,12,M,,M,,*6D
06/07/2014	19:02:03.571	$GPGGA,190204,2425.3875,N,08057.6175,W,1,12,1.4,12,M,,M,,*6C
06/07/2014	19:02:04.565	$GPGGA,190205,2425.3860,N,08057.6163,W,1,12,1.4,12,M,,M,,*6E
06/07/2014	19:02:05.670	$GPGGA,190206,2425.3845,N,08057.6152,W,1,12,1.4,12,M,,M,,*68
06/07/2014	19:02:06.665	$GPGGA,190207,2425.3831,N,08057.6140,W,1,12,1.4,12,M,,M,,*69
06/07/2014	19:02:07.589	$GPGGA,190208,2425.3816,N,08057.6127,W,1,12,1.6,12,M,,M,,*60
06/07/2014	19:02:08.573	$GPGGA,190209,2425.3801,N,08057.6116,W,1,11,1.6,12,M,,M,,*66
06/07/2014	19:02:09.668	$GPGGA,190210,2425.3786,N,08057.6104,W,1,11,1.6,12,M,,M,,*6D
06/07/2014	19:02:10.703	$GPGGA,190211,2425.3772,N,08057.6092,W,1,11,1.6,12,M,,M,,*69
06/07/2014	19:02:11.697	$GPGGA,190212,2425.3756,N,08057.6079,W,1,11,1.6,12,M,,M,,*69
06/07/2014	19:02:12.700	$GPGGA,190213,2425.3743,N,08057.6069,W,1,11,1.6,12,M,,M,,*6D
06/07/2014	19:02:13.694	$GPGGA,190214,2425.3728,N,08057.6057,W,1,11,1.4,12,M,,M,,*68
06/07/2014	19:02:14.679	$GPGGA,190215,2425.3716,N,08057.6046,W,1,11,1.6,12,M,,M,,*66
06/07/2014	19:02:15.693	$GPGGA,190216,2425.3703,N,08057.6034,W,1,11,1.4,12,M,,M,,*66
06/07/2014	19:02:16.678	$GPGGA,190217,2425.3689,N,08057.6023,W,1,12,1.4,12,M,,M,,*61
06/07/2014	19:02:17.692	$GPGGA,190218,2425.3674,N,08057.6011,W,1,12,1.4,12,M,,M,,*6D
06/07/2014	19:02:18.706	$GPGGA,190219,2425.3660,N,08057.5999,W,1,12,1.4,12,M,,M,,*63
06/07/2014	19:02:19.731	$GPGGA,190220,2425.3646,N,08057.5987,W,1,12,1.4,12,M,,M,,*62
06/07/2014	19:02:20.703	$GPGGA,190221,2425.3631,N,08057.5975,W,1,12,1.4,12,M,,M,,*6E
06/07/2014	19:02:21.694	$GPGGA,190222,2425.3616,N,08057.5962,W,1,12,1.4,12,M,,M,,*6E
06/07/2014	19:02:22.724	$GPGGA,190223,2425.3602,N,08057.5950,W,1,12,1.4,12,M,,M,,*6B
06/07/2014	19:02:23.718	$GPGGA,190224,2425.3586,N,08057.5937,W,1,12,1.4,12,M,,M,,*62
06/07/2014	19:02:24.723	$GPGGA,190225,2425.3571,N,08057.5924,W,1,12,1.4,12,M,,M,,*69
06/07/2014	19:02:25.722	$GPGGA,190226,2425.3555,N,08057.5912,W,1,12,1.6,12,M,,M,,*6B
06/07/2014	19:02:26.731	$GPGGA,190227,2425.3540,N,08057.5899,W,1,11,1.6,12,M,,M,,*6F
06/07/2014	19:02:29.127	$GPGGA,190229,2425.3512,N,08057.5874,W,1,12,1.4,13,M,,M,,*65
06/07/2014	19:02:29.713	$GPGGA,190230,2425.3497,N,08057.5862,W,1,12,1.6,13,M,,M,,*64
06/07/2014	19:02:30.738	$GPGGA,190231,2425.3480,N,08057.5850,W,1,11,1.6,13,M,,M,,*61
06/07/2014	19:02:31.742	$GPGGA,190232,2425.3466,N,08057.5837,W,1,11,1.6,13,M,,M,,*6B
06/07/2014	19:02:32.752	$GPGGA,190233,2425.3452,N,08057.5826,W,1,12,1.4,13,M,,M,,*6C
06/07/2014	19:02:33.721	$GPGGA,190234,2425.3436,N,08057.5814,W,1,12,1.4,13,M,,M,,*68
06/07/2014	19:02:34.759	$GPGGA,190235,2425.3423,N,08057.5803,W,1,11,1.6,13,M,,M,,*6A
06/07/2014	19:02:35.740	$GPGGA,190236,2425.3408,N,08057.5791,W,1,11,1.4,13,M,,M,,*66
06/07/2014	19:02:36.724	$GPGGA,190237,2425.3393,N,08057.5778,W,1,12,1.4,13,M,,M,,*66
06/07/2014	19:02:37.478	$GPGGA,190238,2425.3378,N,08057.5767,W,1,12,1.4,13,M,,M,,*62
06/07/2014	19:02:38.472	$GPGGA,190239,2425.3363,N,08057.5756,W,1,11,1.6,13,M,,M,,*6A
06/07/2014	19:02:39.496	$GPGGA,190240,2425.3349,N,08057.5744,W,1,11,1.4,13,M,,M,,*6D
06/07/2014	19:02:40.481	$GPGGA,190241,2425.3335,N,08057.5733,W,1,12,1.4,13,M,,M,,*64
06/07/2014	19:02:41.475	$GPGGA,190242,2425.3320,N,08057.5722,W,1,12,1.4,13,M,,M,,*63
06/07/2014	19:02:42.490	$GPGGA,190243,2425.3306,N,08057.5711,W,1,12,1.4,13,M,,M,,*66
06/07/2014	19:02:43.494	$GPGGA,190244,2425.3291,N,08057.5699,W,1,12,1.4,13,M,,M,,*6F
06/07/2014	19:02:44.600	$GPGGA,190245,2425.3277,N,08057.5688,W,1,12,1.4,13,M,,M,,*66
06/07/2014	19:02:45.503	$GPGGA,190246,2425.3261,N,08057.5678,W,1,12,1.4,13,M,,M,,*6D
06/07/2014	19:02:46.598	$GPGGA,190247,2425.3246,N,08057.5666,W,1,12,1.4,13,M,,M,,*66
06/07/2014	19:02:47.611	$GPGGA,190248,2425.3231,N,08057.5655,W,1,12,1.4,13,M,,M,,*69
06/07/2014	19:02:48.505	$GPGGA,190249,2425.3215,N,08057.5644,W,1,12,1.4,13,M,,M,,*6E
06/07/2014	19:02:49.509	$GPGGA,190250,2425.3201,N,08057.5634,W,1,12,1.4,13,M,,M,,*64
06/07/2014	19:02:50.624	$GPGGA,190251,2425.3185,N,08057.5623,W,1,12,1.4,14,M,,M,,*6B
06/07/2014	19:02:51.609	$GPGGA,190252,2425.3170,N,08057.5613,W,1,12,1.4,14,M,,M,,*61
06/07/2014	19:02:52.623	$GPGGA,190253,2425.3155,N,08057.5602,W,1,12,1.4,14,M,,M,,*67
06/07/2014	19:02:53.607	$GPGGA,190254,2425.3139,N,08057.5593,W,1,12,1.4,14,M,,M,,*61
06/07/2014	19:02:54.602	$GPGGA,190255,2425.3125,N,08057.5583,W,1,12,1.4,14,M,,M,,*6C
06/07/2014	19:02:55.626	$GPGGA,190256,2425.3109,N,08057.5572,W,1,12,1.4,14,M,,M,,*6F
06/07/2014	19:02:56.631	$GPGGA,190257,2425.3094,N,08057.5563,W,1,12,1.4,14,M,,M,,*6B
06/07/2014	19:02:57.615	$GPGGA,190258,2425.3079,N,08057.5552,W,1,12,1.4,14,M,,M,,*65
06/07/2014	19:02:58.639	$GPGGA,190259,2425.3064,N,08057.5543,W,1,12,1.4,14,M,,M,,*68
06/07/2014	19:02:59.644	$GPGGA,190300,2425.3049,N,08057.5534,W,1,12,1.4,14,M,,M,,*6A
06/07/2014	19:03:00.618	$GPGGA,190301,2425.3032,N,08057.5524,W,1,12,1.4,14,M,,M,,*66
06/07/2014	19:03:01.656	$GPGGA,190302,2425.3017,N,08057.5515,W,1,12,1.4,14,M,,M,,*60
06/07/2014	19:03:02.699	$GPGGA,190303,2425.3002,N,08057.5506,W,1,12,1.4,14,M,,M,,*67
06/07/2014	19:03:03.752	$GPGGA,190304,2425.2986,N,08057.5496,W,1,12,1.4,14,M,,M,,*6C
06/07/2014	19:03:04.795	$GPGGA,190305,2425.2971,N,08057.5486,W,1,12,1.4,14,M,,M,,*64
06/07/2014	19:03:05.848	$GPGGA,190306,2425.2956,N,08057.5477,W,1,12,1.4,14,M,,M,,*6C
06/07/2014	19:03:06.891	$GPGGA,190307,2425.2941,N,08057.5467,W,1,12,1.4,14,M,,M,,*6A
06/07/2014	19:03:07.924	$GPGGA,190308,2425.2925,N,08057.5458,W,1,12,1.4,14,M,,M,,*6B
06/07/2014	19:03:08.936	$GPGGA,190309,2425.2910,N,08057.5449,W,1,12,1.4,14,M,,M,,*6C
06/07/2014	19:03:09.992	$GPGGA,190310,2425.2895,N,08057.5439,W,1,12,1.4,14,M,,M,,*6F
06/07/2014	19:03:11.012	$GPGGA,190311,2425.2879,N,08057.5429,W,1,12,1.4,14,M,,M,,*6D
06/07/2014	19:03:12.084	$GPGGA,190312,2425.2865,N,08057.5420,W,1,12,1.4,14,M,,M,,*6A
06/07/2014	19:03:13.122	$GPGGA,190313,2425.2849,N,08057.5410,W,1,12,1.4,14,M,,M,,*66
06/07/2014	19:03:14.142	$GPGGA,190314,2425.2833,N,08057.5401,W,1,12,1.4,14,M,,M,,*6C
06/07/2014	19:03:15.184	$GPGGA,190315,2425.2818,N,08057.5391,W,1,12,1.4,14,M,,M,,*6A
06/07/2014	19:03:16.248	$GPGGA,190316,2425.2803,N,08057.5382,W,1,12,1.4,14,M,,M,,*61
06/07/2014	19:03:17.385	$GPGGA,190317,2425.2789,N,08057.5371,W,1,12,1.4,14,M,,M,,*61
06/07/2014	19:03:18.302	$GPGGA,190318,2425.2772,N,08057.5362,W,1,12,1.4,14,M,,M,,*68
06/07/2014	19:03:19.367	$GPGGA,190319,2425.2757,N,08057.5351,W,1,12,1.4,14,M,,M,,*6E
06/07/2014	19:03:20.389	$GPGGA,190320,2425.2742,N,08057.5341,W,1,12,1.4,14,M,,M,,*61
06/07/2014	19:03:21.547	$GPGGA,190321,2425.2726,N,08057.5331,W,1,12,1.4,14,M,,M,,*65
06/07/2014	19:03:22.475	$GPGGA,190322,2425.2710,N,08057.5320,W,1,12,1.4,14,M,,M,,*63
06/07/2014	19:03:23.550	$GPGGA,190323,2425.2695,N,08057.5309,W,1,12,1.4,14,M,,M,,*65
06/07/2014	19:03:24.581	$GPGGA,190324,2425.2681,N,08057.5300,W,1,12,1.6,14,M,,M,,*6C
06/07/2014	19:03:25.603	$GPGGA,190325,2425.2665,N,08057.5290,W,1,12,1.4,14,M,,M,,*6D
06/07/2014	19:03:26.625	$GPGGA,190326,2425.2650,N,08057.5278,W,1,12,1.4,14,M,,M,,*6E
06/07/2014	19:03:27.815	$GPGGA,190327,2425.2635,N,08057.5268,W,1,12,1.4,14,M,,M,,*6D
06/07/2014	19:03:28.722	$GPGGA,190328,2425.2619,N,08057.5258,W,1,12,1.4,14,M,,M,,*6F
06/07/2014	19:03:29.776	$GPGGA,190329,2425.2605,N,08057.5246,W,1,12,1.4,14,M,,M,,*6C
06/07/2014	19:03:30.798	$GPGGA,190330,2425.2589,N,08057.5235,W,1,12,1.4,14,M,,M,,*67
06/07/2014	19:03:31.851	$GPGGA,190331,2425.2574,N,08057.5225,W,1,12,1.4,14,M,,M,,*65
06/07/2014	19:03:32.999	$GPGGA,190332,2425.2559,N,08057.5214,W,1,12,1.4,14,M,,M,,*6B
06/07/2014	19:03:34.042	$GPGGA,190333,2425.2544,N,08057.5202,W,1,12,1.4,14,M,,M,,*61
06/07/2014	19:03:35.064	$GPGGA,190334,2425.2529,N,08057.5191,W,1,12,1.4,14,M,,M,,*64
06/07/2014	19:03:36.003	$GPGGA,190335,2425.2514,N,08057.5181,W,1,12,1.4,14,M,,M,,*6A
06/07/2014	19:03:37.150	$GPGGA,190336,2425.2500,N,08057.5169,W,1,12,1.4,14,M,,M,,*6A
06/07/2014	19:03:38.214	$GPGGA,190337,2425.2486,N,08057.5157,W,1,12,1.4,14,M,,M,,*69
06/07/2014	19:03:37.560	$GPGGA,190338,2425.2469,N,08057.5146,W,1,12,1.4,14,M,,M,,*67
06/07/2014	19:03:38.592	$GPGGA,190339,2425.2454,N,08057.5134,W,1,11,1.6,14,M,,M,,*6C
06/07/2014	19:03:39.634	$GPGGA,190340,2425.2440,N,08057.5122,W,1,11,1.4,14,M,,M,,*62
06/07/2014	19:03:40.699	$GPGGA,190341,2425.2425,N,08057.5111,W,1,12,1.4,14,M,,M,,*63
06/07/2014	19:03:41.710	$GPGGA,190342,2425.2411,N,08057.5099,W,1,12,1.4,14,M,,M,,*66
06/07/2014	19:03:42.774	$GPGGA,190343,2425.2397,N,08057.5088,W,1,12,1.4,14,M,,M,,*6E
06/07/2014	19:03:43.807	$GPGGA,190344,2425.2382,N,08057.5076,W,1,12,1.4,14,M,,M,,*6C
06/07/2014	19:03:44.871	$GPGGA,190345,2425.2368,N,08057.5064,W,1,12,1.4,14,M,,M,,*6A
06/07/2014	19:03:45.882	$GPGGA,190346,2425.2353,N,08057.5053,W,1,12,1.4,14,M,,M,,*65
06/07/2014	19:03:46.915	$GPGGA,190347,2425.2339,N,08057.5042,W,1,12,1.4,14,M,,M,,*68
06/07/2014	19:03:47.969	$GPGGA,190348,2425.2324,N,08057.5030,W,1,12,1.4,14,M,,M,,*6E
06/07/2014	19:03:49.012	$GPGGA,190349,2425.2309,N,08057.5018,W,1,12,1.4,14,M,,M,,*6A
06/07/2014	19:03:50.046	$GPGGA,190350,2425.2294,N,08057.5006,W,1,12,1.4,14,M,,M,,*68
06/07/2014	19:03:51.080	$GPGGA,190351,2425.2278,N,08057.4993,W,1,12,1.4,14,M,,M,,*6F
06/07/2014	19:03:52.141	$GPGGA,190352,2425.2262,N,08057.4981,W,1,12,1.6,14,M,,M,,*66
06/07/2014	19:03:53.171	$GPGGA,190353,2425.2248,N,08057.4969,W,1,12,1.4,14,M,,M,,*6B
06/07/2014	19:03:54.208	$GPGGA,190354,2425.2234,N,08057.4957,W,1,12,1.4,14,M,,M,,*6A
06/07/2014	19:03:55.270	$GPGGA,190355,2425.2218,N,08057.4947,W,1,12,1.4,14,M,,M,,*64
06/07/2014	19:03:56.296	$GPGGA,190356,2425.2204,N,08057.4934,W,1,12,1.4,14,M,,M,,*6E
06/07/2014	19:03:57.367	$GPGGA,190357,2425.2188,N,08057.4921,W,1,12,1.4,14,M,,M,,*6C
06/07/2014	19:03:58.383	$GPGGA,190358,2425.2173,N,08057.4911,W,1,12,1.4,14,M,,M,,*64
06/07/2014	19:03:59.463	$GPGGA,190359,2425.2159,N,08057.4899,W,1,12,1.4,14,M,,M,,*6C
06/07/2014	19:04:00.506	$GPGGA,190400,2425.2144,N,08057.4887,W,1,12,1.4,14,M,,M,,*64
06/07/2014	19:04:01.511	$GPGGA,190401,2425.2129,N,08057.4876,W,1,12,1.4,14,M,,M,,*60
06/07/2014	19:04:02.529	$GPGGA,190402,2425.2114,N,08057.4864,W,1,12,1.4,14,M,,M,,*6E
06/07/2014	19:04:03.572	$GPGGA,190403,2425.2099,N,08057.4852,W,1,12,1.4,14,M,,M,,*6E
06/07/2014	19:04:04.640	$GPGGA,190404,2425.2085,N,08057.4841,W,1,12,1.4,14,M,,M,,*66
06/07/2014	19:04:05.672	$GPGGA,190405,2425.2070,N,08057.4829,W,1,12,1.4,14,M,,M,,*63
06/07/2014	19:04:06.702	$GPGGA,190406,2425.2054,N,08057.4817,W,1,12,1.4,14,M,,M,,*6B
06/07/2014	19:04:07.870	$GPGGA,190407,2425.2039,N,08057.4806,W,1,12,1.4,14,M,,M,,*61
06/07/2014	19:04:08.805	$GPGGA,190408,2425.2024,N,08057.4795,W,1,12,1.4,14,M,,M,,*67
06/07/2014	19:04:09.841	$GPGGA,190409,2425.2009,N,08057.4783,W,1,12,1.4,14,M,,M,,*6E
06/07/2014	19:04:10.853	$GPGGA,190410,2425.1993,N,08057.4772,W,1,12,1.6,14,M,,M,,*63
06/07/2014	19:04:11.948	$GPGGA,190411,2425.1978,N,08057.4762,W,1,12,1.4,14,M,,M,,*64
06/07/2014	19:04:12.939	$GPGGA,190412,2425.1963,N,08057.4751,W,1,12,1.6,14,M,,M,,*6F
06/07/2014	19:04:14.003	$GPGGA,190413,2425.1947,N,08057.4739,W,1,11,1.6,14,M,,M,,*65
06/07/2014	19:04:15.062	$GPGGA,190414,2425.1933,N,08057.4728,W,1,11,1.6,14,M,,M,,*61
06/07/2014	19:04:16.068	$GPGGA,190415,2425.1917,N,08057.4718,W,1,11,1.6,14,M,,M,,*65
06/07/2014	19:04:17.121	$GPGGA,190416,2425.1901,N,08057.4707,W,1,11,1.6,14,M,,M,,*6F
06/07/2014	19:04:18.258	$GPGGA,190417,2425.1886,N,08057.4696,W,1,12,1.4,14,M,,M,,*68
06/07/2014	19:04:19.291	$GPGGA,190418,2425.1870,N,08057.4685,W,1,12,1.4,14,M,,M,,*6C
06/07/2014	19:04:20.230	$GPGGA,190419,2425.1855,N,08057.4675,W,1,12,1.4,14,M,,M,,*65
06/07/2014	19:04:21.283	$GPGGA,190420,2425.1840,N,08057.4664,W,1,12,1.4,14,M,,M,,*6B
06/07/2014	19:04:23.693	$GPGGA,190421,2425.1825,N,08057.4654,W,1,12,1.4,14,M,,M,,*6A
06/07/2014	19:04:23.714	$GPGGA,190422,2425.1810,N,08057.4644,W,1,12,1.4,14,M,,M,,*6E
06/07/2014	19:04:24.506	$GPGGA,190423,2425.1796,N,08057.4634,W,1,12,1.4,14,M,,M,,*69
06/07/2014	19:04:25.549	$GPGGA,190424,2425.1781,N,08057.4623,W,1,12,1.4,14,M,,M,,*6E
06/07/2014	19:04:26.593	$GPGGA,190425,2425.1764,N,08057.4614,W,1,12,1.4,13,M,,M,,*67
06/07/2014	19:04:27.615	$GPGGA,190426,2425.1749,N,08057.4604,W,1,12,1.4,13,M,,M,,*6A
06/07/2014	19:04:28.679	$GPGGA,190427,2425.1734,N,08057.4593,W,1,12,1.4,13,M,,M,,*6C
06/07/2014	19:04:29.711	$GPGGA,190428,2425.1720,N,08057.4584,W,1,12,1.4,13,M,,M,,*60
06/07/2014	19:04:30.786	$GPGGA,190429,2425.1704,N,08057.4574,W,1,12,1.4,13,M,,M,,*68
06/07/2014	19:04:31.777	$GPGGA,190430,2425.1688,N,08057.4564,W,1,12,1.4,13,M,,M,,*64
06/07/2014	19:04:32.841	$GPGGA,190431,2425.1673,N,08057.4554,W,1,12,1.4,13,M,,M,,*62
06/07/2014	19:04:33.873	$GPGGA,190432,2425.1658,N,08057.4544,W,1,12,1.4,13,M,,M,,*69
06/07/2014	19:04:34.905	$GPGGA,190433,2425.1644,N,08057.4534,W,1,12,1.4,13,M,,M,,*62
06/07/2014	19:04:35.938	$GPGGA,190434,2425.1628,N,08057.4523,W,1,12,1.4,13,M,,M,,*69
06/07/2014	19:04:37.012	$GPGGA,190435,2425.1613,N,08057.4514,W,1,12,1.4,14,M,,M,,*63
06/07/2014	19:04:38.045	$GPGGA,190436,2425.1597,N,08057.4504,W,1,12,1.4,14,M,,M,,*6E
06/07/2014	19:04:39.088	$GPGGA,190437,2425.1582,N,08057.4493,W,1,12,1.4,14,M,,M,,*64
06/07/2014	19:04:37.526	$GPGGA,190438,2425.1568,N,08057.4483,W,1,12,1.4,14,M,,M,,*6E
06/07/2014	19:04:38.559	$GPGGA,190439,2425.1551,N,08057.4474,W,1,12,1.4,14,M,,M,,*6D
06/07/2014	19:04:39.633	$GPGGA,190440,2425.1536,N,08057.4463,W,1,12,1.4,14,M,,M,,*64
06/07/2014	19:04:40.687	$GPGGA,190441,2425.1521,N,08057.4452,W,1,12,1.4,14,M,,M,,*61
06/07/2014	19:04:41.688	$GPGGA,190442,2425.1505,N,08057.4442,W,1,12,1.4,14,M,,M,,*65
06/07/2014	19:04:42.731	$GPGGA,190443,2425.1490,N,08057.4432,W,1,12,1.4,14,M,,M,,*6E
06/07/2014	19:04:43.785	$GPGGA,190444,2425.1475,N,08057.4421,W,1,12,1.4,14,M,,M,,*60
06/07/2014	19:04:44.796	$GPGGA,190445,2425.1460,N,08057.4411,W,1,12,1.4,14,M,,M,,*66
06/07/2014	19:04:45.852	$GPGGA,190446,2425.1445,N,08057.4400,W,1,12,1.4,14,M,,M,,*62
06/07/2014	19:04:46.914	$GPGGA,190447,2425.1429,N,08057.4390,W,1,11,1.6,14,M,,M,,*66
06/07/2014	19:04:47.953	$GPGGA,190448,2425.1413,N,08057.4379,W,1,11,1.6,14,M,,M,,*67
06/07/2014	19:04:48.958	$GPGGA,190449,2425.1398,N,08057.4368,W,1,10,1.6,14,M,,M,,*63
06/07/2014	19:04:50.022	$GPGGA,190450,2425.1382,N,08057.4357,W,1,10,1.6,14,M,,M,,*6C
06/07/2014	19:04:51.085	$GPGGA,190451,2425.1368,N,08057.4347,W,1,10,1.4,14,M,,M,,*6A
06/07/2014	19:04:52.110	$GPGGA,190452,2425.1355,N,08057.4337,W,1,10,1.4,14,M,,M,,*60
06/07/2014	19:04:53.131	$GPGGA,190453,2425.1340,N,08057.4327,W,1,11,1.4,14,M,,M,,*65
06/07/2014	19:04:54.267	$GPGGA,190454,2425.1326,N,08057.4317,W,1,11,1.4,14,M,,M,,*61
06/07/2014	19:04:55.238	$GPGGA,190455,2425.1311,N,08057.4307,W,1,11,1.4,14,M,,M,,*65
06/07/2014	19:04:56.270	$GPGGA,190456,2425.1297,N,08057.4296,W,1,11,1.4,14,M,,M,,*60
06/07/2014	19:04:57.407	$GPGGA,190457,2425.1283,N,08057.4285,W,1,11,1.4,14,M,,M,,*66
06/07/2014	19:04:58.358	$GPGGA,190458,2425.1268,N,08057.4274,W,1,11,1.4,14,M,,M,,*62
06/07/2014	19:04:59.524	$GPGGA,190459,2425.1252,N,08057.4263,W,1,11,1.4,14,M,,M,,*6C
06/07/2014	19:05:00.546	$GPGGA,190500,2425.1237,N,08057.4252,W,1,11,1.4,14,M,,M,,*60
06/07/2014	19:05:01.600	$GPGGA,190501,2425.1222,N,08057.4242,W,1,11,1.4,14,M,,M,,*64
06/07/2014	19:05:02.602	$GPGGA,190502,2425.1208,N,08057.4231,W,1,11,1.4,14,M,,M,,*6B
06/07/2014	19:05:03.561	$GPGGA,190503,2425.1193,N,08057.4219,W,1,11,1.4,14,M,,M,,*61
06/07/2014	19:05:04.698	$GPGGA,190504,2425.1179,N,08057.4208,W,1,11,1.4,14,M,,M,,*62
06/07/2014	19:05:05.720	$GPGGA,190505,2425.1163,N,08057.4196,W,1,11,1.4,15,M,,M,,*6D
06/07/2014	19:05:06.682	$GPGGA,190506,2425.1149,N,08057.4185,W,1,11,1.4,15,M,,M,,*64
06/07/2014	19:05:07.806	$GPGGA,190507,2425.1133,N,08057.4173,W,1,11,1.4,15,M,,M,,*61
06/07/2014	19:05:08.859	$GPGGA,190508,2425.1118,N,08057.4162,W,1,11,1.4,15,M,,M,,*67
06/07/2014	19:05:09.912	$GPGGA,190509,2425.1103,N,08057.4150,W,1,11,1.4,15,M,,M,,*6D
06/07/2014	19:05:10.924	$GPGGA,190510,2425.1088,N,08057.4138,W,1,11,1.4,15,M,,M,,*69
06/07/2014	19:05:11.988	$GPGGA,190511,2425.1073,N,08057.4127,W,1,11,1.4,15,M,,M,,*62
06/07/2014	19:05:13.031	$GPGGA,190512,2425.1059,N,08057.4115,W,1,11,1.4,15,M,,M,,*68
06/07/2014	19:05:14.074	$GPGGA,190513,2425.1044,N,08057.4102,W,1,11,1.6,15,M,,M,,*61
06/07/2014	19:05:15.093	$GPGGA,190514,2425.1027,N,08057.4091,W,1,11,1.6,15,M,,M,,*68
06/07/2014	19:05:16.140	$GPGGA,190515,2425.1013,N,08057.4080,W,1,11,1.4,15,M,,M,,*6C
06/07/2014	19:05:17.193	$GPGGA,190516,2425.0999,N,08057.4068,W,1,11,1.4,15,M,,M,,*63
06/07/2014	19:05:18.226	$GPGGA,190517,2425.0984,N,08057.4056,W,1,11,1.4,15,M,,M,,*63
06/07/2014	19:05:19.258	$GPGGA,190518,2425.0970,N,08057.4045,W,1,11,1.4,15,M,,M,,*65
06/07/2014	19:05:20.312	$GPGGA,190519,2425.0955,N,08057.4034,W,1,11,1.4,15,M,,M,,*65
06/07/2014	19:05:21.355	$GPGGA,190520,2425.0940,N,08057.4022,W,1,11,1.4,15,M,,M,,*6C
06/07/2014	19:05:22.409	$GPGGA,190521,2425.0926,N,08057.4010,W,1,11,1.4,16,M,,M,,*6F
06/07/2014	19:05:23.420	$GPGGA,190522,2425.0911,N,08057.3999,W,1,11,1.4,16,M,,M,,*67
06/07/2014	19:05:24.453	$GPGGA,190523,2425.0896,N,08057.3988,W,1,11,1.4,16,M,,M,,*68
06/07/2014	19:05:25.517	$GPGGA,190524,2425.0882,N,08057.3976,W,1,11,1.4,16,M,,M,,*6B
06/07/2014	19:05:26.549	$GPGGA,190525,2425.0867,N,08057.3964,W,1,11,1.4,16,M,,M,,*62
06/07/2014	19:05:27.592	$GPGGA,190526,2425.0851,N,08057.3953,W,1,11,1.4,16,M,,M,,*60
06/07/2014	19:05:28.635	$GPGGA,190527,2425.0836,N,08057.3942,W,1,11,1.4,16,M,,M,,*60
06/07/2014	19:05:29.678	$GPGGA,190528,2425.0821,N,08057.3931,W,1,11,1.4,16,M,,M,,*6D
06/07/2014	19:05:30.700	$GPGGA,190529,2425.0806,N,08057.3920,W,1,11,1.4,16,M,,M,,*69
06/07/2014	19:05:31.757	$GPGGA,190530,2425.0790,N,08057.3908,W,1,11,1.4,16,M,,M,,*6B
06/07/2014	19:05:32.776	$GPGGA,190531,2425.0774,N,08057.3896,W,1,11,1.4,16,M,,M,,*66
06/07/2014	19:05:33.871	$GPGGA,190532,2425.0759,N,08057.3885,W,1,11,1.6,16,M,,M,,*6A
06/07/2014	19:05:34.904	$GPGGA,190533,2425.0743,N,08057.3874,W,1,10,1.6,16,M,,M,,*6F
06/07/2014	19:05:35.895	$GPGGA,190534,2425.0727,N,08057.3862,W,1,10,1.6,16,M,,M,,*6D
06/07/2014	19:05:36.938	$GPGGA,190535,2425.0712,N,08057.3851,W,1,10,1.6,16,M,,M,,*6A
06/07/2014	19:05:38.012	$GPGGA,190536,2425.0696,N,08057.3840,W,1,10,1.6,16,M,,M,,*64
06/07/2014	19:05:39.035	$GPGGA,190537,2425.0681,N,08057.3829,W,1,10,1.6,15,M,,M,,*6F
06/07/2014	19:05:37.483	$GPGGA,190538,2425.0665,N,08057.3818,W,1,10,1.6,15,M,,M,,*68
06/07/2014	19:05:38.537	$GPGGA,190539,2425.0652,N,08057.3809,W,1,11,1.4,15,M,,M,,*6E
06/07/2014	19:05:39.581	$GPGGA,190540,2425.0638,N,08057.3799,W,1,11,1.4,15,M,,M,,*6A
06/07/2014	19:05:40.603	$GPGGA,190541,2425.0623,N,08057.3788,W,1,11,1.4,15,M,,M,,*61
06/07/2014	19:05:41.656	$GPGGA,190542,2425.0608,N,08057.3778,W,1,11,1.4,15,M,,M,,*64
06/07/2014	19:05:42.698	$GPGGA,190543,2425.0593,N,08057.3768,W,1,11,1.4,15,M,,M,,*65
06/07/2014	19:05:43.856	$GPGGA,190544,2425.0579,N,08057.3757,W,1,11,1.4,15,M,,M,,*6A
06/07/2014	19:05:44.888	$GPGGA,190545,2425.0564,N,08057.3746,W,1,11,1.4,15,M,,M,,*67
06/07/2014	19:05:45.827	$GPGGA,190546,2425.0549,N,08057.3736,W,1,11,1.4,15,M,,M,,*6C
06/07/2014	19:05:46.995	$GPGGA,190547,2425.0533,N,08057.3726,W,1,11,1.4,15,M,,M,,*61
06/07/2014	19:05:47.913	$GPGGA,190548,2425.0518,N,08057.3715,W,1,11,1.4,15,M,,M,,*67
06/07/2014	19:05:49.040	$GPGGA,190549,2425.0503,N,08057.3705,W,1,11,1.4,15,M,,M,,*6D
06/07/2014	19:05:49.989	$GPGGA,190550,2425.0488,N,08057.3695,W,1,11,1.4,15,M,,M,,*6F
06/07/2014	19:05:51.022	$GPGGA,190551,2425.0472,N,08057.3684,W,1,11,1.4,15,M,,M,,*6B
06/07/2014	19:05:52.180	$GPGGA,190552,2425.0456,N,08057.3673,W,1,11,1.4,15,M,,M,,*66
06/07/2014	19:05:53.212	$GPGGA,190553,2425.0441,N,08057.3663,W,1,11,1.4,15,M,,M,,*60
06/07/2014	19:05:54.151	$GPGGA,190554,2425.0426,N,08057.3653,W,1,11,1.4,15,M,,M,,*65
06/07/2014	19:05:55.288	$GPGGA,190555,2425.0410,N,08057.3642,W,1,11,1.4,15,M,,M,,*61
06/07/2014	19:05:56.341	$GPGGA,190556,2425.0395,N,08057.3632,W,1,11,1.4,15,M,,M,,*6F
06/07/2014	19:05:57.396	$GPGGA,190557,2425.0380,N,08057.3622,W,1,11,1.4,15,M,,M,,*6B
06/07/2014	19:05:58.407	$GPGGA,190558,2425.0365,N,08057.3612,W,1,11,1.4,15,M,,M,,*6C
06/07/2014	19:05:59.441	$GPGGA,190559,2425.0349,N,08057.3601,W,1,11,1.4,15,M,,M,,*61
06/07/2014	19:06:00.514	$GPGGA,190600,2425.0334,N,08057.3590,W,1,11,1.4,15,M,,M,,*6F
06/07/2014	19:06:01.535	$GPGGA,190601,2425.0318,N,08057.3580,W,1,11,1.4,15,M,,M,,*61
06/07/2014	19:06:02.578	$GPGGA,190602,2425.0303,N,08057.3570,W,1,11,1.4,15,M,,M,,*67
06/07/2014	19:06:03.632	$GPGGA,190603,2425.0287,N,08057.3559,W,1,11,1.4,15,M,,M,,*60
06/07/2014	19:06:04.675	$GPGGA,190604,2425.0272,N,08057.3548,W,1,11,1.4,15,M,,M,,*6D
06/07/2014	19:06:05.718	$GPGGA,190605,2425.0257,N,08057.3538,W,1,11,1.4,15,M,,M,,*6C
06/07/2014	19:06:06.730	$GPGGA,190606,2425.0242,N,08057.3528,W,1,11,1.4,15,M,,M,,*6A
06/07/2014	19:06:07.804	$GPGGA,190607,2425.0226,N,08057.3516,W,1,11,1.4,15,M,,M,,*64
06/07/2014	19:06:08.837	$GPGGA,190608,2425.0211,N,08057.3506,W,1,11,1.4,15,M,,M,,*6E
06/07/2014	19:06:09.880	$GPGGA,190609,2425.0196,N,08057.3495,W,1,11,1.4,15,M,,M,,*68
06/07/2014	19:06:10.898	$GPGGA,190610,2425.0181,N,08057.3484,W,1,11,1.4,15,M,,M,,*66
06/07/2014	19:06:11.956	$GPGGA,190611,2425.0164,N,08057.3474,W,1,10,1.6,15,M,,M,,*60
06/07/2014	19:06:12.988	$GPGGA,190612,2425.0148,N,08057.3462,W,1,10,1.6,15,M,,M,,*6A
06/07/2014	19:06:14.036	$GPGGA,190613,2425.0132,N,08057.3451,W,1,10,1.6,15,M,,M,,*66
06/07/2014	19:06:15.057	$GPGGA,190614,2425.0117,N,08057.3440,W,1,10,1.6,15,M,,M,,*66
06/07/2014	19:06:16.116	$GPGGA,190615,2425.0101,N,08057.3429,W,1,10,1.6,14,M,,M,,*6E
06/07/2014	19:06:17.163	$GPGGA,190616,2425.0085,N,08057.3418,W,1,10,1.6,14,M,,M,,*62
06/07/2014	19:06:18.204	$GPGGA,190617,2425.0070,N,08057.3406,W,1,11,1.4,14,M,,M,,*65
06/07/2014	19:06:19.225	$GPGGA,190618,2425.0054,N,08057.3396,W,1,11,1.6,14,M,,M,,*60
06/07/2014	19:06:20.258	$GPGGA,190619,2425.0038,N,08057.3385,W,1,10,1.6,14,M,,M,,*68
06/07/2014	19:06:21.325	$GPGGA,190620,2425.0023,N,08057.3374,W,1,10,1.6,14,M,,M,,*66
06/07/2014	19:06:22.375	$GPGGA,190621,2425.0007,N,08057.3363,W,1,11,1.4,14,M,,M,,*64
06/07/2014	19:06:23.377	$GPGGA,190622,2424.9993,N,08057.3352,W,1,11,1.4,14,M,,M,,*69
06/07/2014	19:06:24.461	$GPGGA,190623,2424.9978,N,08057.3341,W,1,11,1.4,14,M,,M,,*6F
06/07/2014	19:06:25.504	$GPGGA,190624,2424.9964,N,08057.3331,W,1,11,1.4,13,M,,M,,*65
06/07/2014	19:06:26.506	$GPGGA,190625,2424.9949,N,08057.3320,W,1,11,1.4,13,M,,M,,*6B
06/07/2014	19:06:27.559	$GPGGA,190626,2424.9935,N,08057.3309,W,1,11,1.4,13,M,,M,,*68
06/07/2014	19:06:28.618	$GPGGA,190627,2424.9919,N,08057.3298,W,1,11,1.4,13,M,,M,,*6E
06/07/2014	19:06:29.657	$GPGGA,190628,2424.9906,N,08057.3287,W,1,11,1.4,13,M,,M,,*61
06/07/2014	19:06:30.803	$GPGGA,190629,2424.9890,N,08057.3276,W,1,11,1.4,13,M,,M,,*60
06/07/2014	19:06:31.826	$GPGGA,190630,2424.9875,N,08057.3265,W,1,11,1.4,13,M,,M,,*61
06/07/2014	19:06:32.893	$GPGGA,190631,2424.9861,N,08057.3254,W,1,11,1.4,13,M,,M,,*67
06/07/2014	19:06:33.818	$GPGGA,190632,2424.9847,N,08057.3242,W,1,11,1.4,13,M,,M,,*67
06/07/2014	19:06:34.935	$GPGGA,190633,2424.9832,N,08057.3231,W,1,11,1.4,13,M,,M,,*60
06/07/2014	19:06:35.883	$GPGGA,190634,2424.9817,N,08057.3220,W,1,11,1.4,13,M,,M,,*60
06/07/2014	19:06:37.040	$GPGGA,190635,2424.9803,N,08057.3209,W,1,11,1.4,13,M,,M,,*6F
06/07/2014	19:06:37.968	$GPGGA,190636,2424.9788,N,08057.3197,W,1,11,1.4,13,M,,M,,*64
06/07/2014	19:06:39.095	$GPGGA,190637,2424.9773,N,08057.3186,W,1,11,1.4,13,M,,M,,*61
06/07/2014	19:06:37.566	$GPGGA,190638,2424.9758,N,08057.3175,W,1,11,1.4,13,M,,M,,*6B
06/07/2014	19:06:38.608	$GPGGA,190639,2424.9743,N,08057.3163,W,1,11,1.4,13,M,,M,,*67
06/07/2014	19:06:39.661	$GPGGA,190640,2424.9729,N,08057.3151,W,1,11,1.4,13,M,,M,,*64
06/07/2014	19:06:40.683	$GPGGA,190641,2424.9713,N,08057.3140,W,1,11,1.4,13,M,,M,,*6C
06/07/2014	19:06:41.727	$GPGGA,190642,2424.9698,N,08057.3129,W,1,11,1.4,13,M,,M,,*62
06/07/2014	19:06:42.780	$GPGGA,190643,2424.9683,N,08057.3117,W,1,11,1.4,13,M,,M,,*64
06/07/2014	19:06:43.823	$GPGGA,190644,2424.9668,N,08057.3106,W,1,11,1.4,13,M,,M,,*66
06/07/2014	19:06:44.835	$GPGGA,190645,2424.9653,N,08057.3095,W,1,11,1.4,13,M,,M,,*64
06/07/2014	19:06:45.890	$GPGGA,190646,2424.9639,N,08057.3083,W,1,11,1.4,13,M,,M,,*6C
06/07/2014	19:06:46.953	$GPGGA,190647,2424.9623,N,08057.3071,W,1,11,1.4,13,M,,M,,*6B
06/07/2014	19:06:47.985	$GPGGA,190648,2424.9607,N,08057.3060,W,1,11,1.4,13,M,,M,,*62
06/07/2014	19:06:49.028	$GPGGA,190649,2424.9592,N,08057.3049,W,1,11,1.4,13,M,,M,,*67
06/07/2014	19:06:50.055	$GPGGA,190650,2424.9577,N,08057.3037,W,1,11,1.4,13,M,,M,,*6D
06/07/2014	19:06:51.104	$GPGGA,190651,2424.9563,N,08057.3027,W,1,11,1.4,13,M,,M,,*68
06/07/2014	19:06:52.154	$GPGGA,190652,2424.9548,N,08057.3015,W,1,11,1.4,13,M,,M,,*63
06/07/2014	19:06:53.189	$GPGGA,190653,2424.9534,N,08057.3004,W,1,11,1.4,13,M,,M,,*69
06/07/2014	19:06:54.211	$GPGGA,190654,2424.9516,N,08057.2993,W,1,11,1.4,13,M,,M,,*68
06/07/2014	19:06:55.246	$GPGGA,190655,2424.9501,N,08057.2981,W,1,10,1.6,13,M,,M,,*6F
06/07/2014	19:06:56.308	$GPGGA,190656,2424.9485,N,08057.2969,W,1,10,1.6,13,M,,M,,*67
06/07/2014	19:06:57.336	$GPGGA,190657,2424.9469,N,08057.2958,W,1,10,1.6,13,M,,M,,*66
06/07/2014	19:06:58.384	$GPGGA,190658,2424.9454,N,08057.2947,W,1,10,1.6,13,M,,M,,*69
06/07/2014	19:06:59.417	$GPGGA,190659,2424.9440,N,08057.2937,W,1,10,1.6,13,M,,M,,*6A
06/07/2014	19:07:00.480	$GPGGA,190700,2424.9426,N,08057.2926,W,1,10,1.4,13,M,,M,,*65
06/07/2014	19:07:01.513	$GPGGA,190701,2424.9411,N,08057.2915,W,1,11,1.4,13,M,,M,,*61
06/07/2014	19:07:02.546	$GPGGA,190702,2424.9397,N,08057.2905,W,1,11,1.4,13,M,,M,,*6A
06/07/2014	19:07:03.610	$GPGGA,190703,2424.9381,N,08057.2894,W,1,11,1.4,13,M,,M,,*65
06/07/2014	19:07:04.641	$GPGGA,190704,2424.9366,N,08057.2883,W,1,11,1.4,13,M,,M,,*6D
06/07/2014	19:07:05.696	$GPGGA,190705,2424.9351,N,08057.2873,W,1,11,1.4,13,M,,M,,*67
06/07/2014	19:07:06.708	$GPGGA,190706,2424.9336,N,08057.2863,W,1,11,1.4,13,M,,M,,*64
06/07/2014	19:07:07.761	$GPGGA,190707,2424.9321,N,08057.2851,W,1,11,1.4,13,M,,M,,*62
06/07/2014	19:07:08.815	$GPGGA,190708,2424.9306,N,08057.2841,W,1,11,1.4,13,M,,M,,*69
06/07/2014	19:07:09.816	$GPGGA,190709,2424.9292,N,08057.2832,W,1,11,1.4,13,M,,M,,*60
06/07/2014	19:07:10.880	$GPGGA,190710,2424.9276,N,08057.2821,W,1,11,1.4,13,M,,M,,*60
06/07/2014	19:07:12.089	$GPGGA,190711,2424.9261,N,08057.2810,W,1,11,1.4,13,M,,M,,*65
06/07/2014	19:07:12.965	$GPGGA,190712,2424.9246,N,08057.2800,W,1,11,1.4,13,M,,M,,*62
06/07/2014	19:07:14.176	$GPGGA,190713,2424.9230,N,08057.2790,W,1,11,1.4,13,M,,M,,*64
06/07/2014	19:07:15.020	$GPGGA,190714,2424.9216,N,08057.2779,W,1,11,1.4,13,M,,M,,*60
06/07/2014	19:07:16.074	$GPGGA,190715,2424.9200,N,08057.2769,W,1,11,1.4,13,M,,M,,*67
06/07/2014	19:07:17.221	$GPGGA,190716,2424.9185,N,08057.2759,W,1,11,1.4,13,M,,M,,*69
06/07/2014	19:07:18.170	$GPGGA,190717,2424.9170,N,08057.2749,W,1,11,1.4,13,M,,M,,*63
06/07/2014	19:07:19.203	$GPGGA,190718,2424.9155,N,08057.2738,W,1,11,1.4,13,M,,M,,*6D
06/07/2014	19:07:20.444	$GPGGA,190719,2424.9140,N,08057.2728,W,1,11,1.4,13,M,,M,,*69
06/07/2014	19:07:21.289	$GPGGA,190720,2424.9124,N,08057.2718,W,1,11,1.4,13,M,,M,,*62
06/07/2014	19:07:22.499	$GPGGA,190721,2424.9109,N,08057.2708,W,1,11,1.4,13,M,,M,,*6D
06/07/2014	19:07:23.355	$GPGGA,190722,2424.9094,N,08057.2698,W,1,11,1.4,13,M,,M,,*63
06/07/2014	19:07:24.398	$GPGGA,190723,2424.9079,N,08057.2687,W,1,11,1.4,13,M,,M,,*6F
06/07/2014	19:07:25.545	$GPGGA,190724,2424.9063,N,08057.2677,W,1,11,1.4,14,M,,M,,*6B
06/07/2014	19:07:26.693	$GPGGA,190725,2424.9047,N,08057.2667,W,1,11,1.4,14,M,,M,,*6D
06/07/2014	19:07:27.622	$GPGGA,190726,2424.9032,N,08057.2656,W,1,11,1.4,14,M,,M,,*6E
06/07/2014	19:07:28.779	$GPGGA,190727,2424.9017,N,08057.2646,W,1,11,1.4,14,M,,M,,*69
06/07/2014	19:07:29.769	$GPGGA,190728,2424.9001,N,08057.2636,W,1,11,1.4,14,M,,M,,*66
06/07/2014	19:07:30.843	$GPGGA,190729,2424.8986,N,08057.2625,W,1,11,1.4,14,M,,M,,*62
06/07/2014	19:07:31.813	$GPGGA,190730,2424.8970,N,08057.2615,W,1,11,1.4,14,M,,M,,*60
06/07/2014	19:07:32.919	$GPGGA,190731,2424.8956,N,08057.2605,W,1,11,1.4,14,M,,M,,*64
06/07/2014	19:07:33.931	$GPGGA,190732,2424.8939,N,08057.2594,W,1,11,1.4,14,M,,M,,*65
06/07/2014	19:07:35.015	$GPGGA,190733,2424.8924,N,08057.2584,W,1,11,1.4,14,M,,M,,*69
06/07/2014	19:07:35.975	$GPGGA,190734,2424.8909,N,08057.2573,W,1,11,1.4,14,M,,M,,*69
06/07/2014	19:07:37.097	$GPGGA,190735,2424.8893,N,08057.2563,W,1,11,1.4,14,M,,M,,*6B
06/07/2014	19:07:38.082	$GPGGA,190736,2424.8877,N,08057.2552,W,1,11,1.4,14,M,,M,,*60
06/07/2014	19:07:39.177	$GPGGA,190737,2424.8862,N,08057.2541,W,1,11,1.4,14,M,,M,,*67
06/07/2014	19:07:37.552	$GPGGA,190738,2424.8846,N,08057.2530,W,1,11,1.4,14,M,,M,,*68
06/07/2014	19:07:38.564	$GPGGA,190739,2424.8830,N,08057.2519,W,1,11,1.4,14,M,,M,,*63
06/07/2014	19:07:39.649	$GPGGA,190740,2424.8815,N,08057.2509,W,1,11,1.4,14,M,,M,,*6B
06/07/2014	19:07:40.642	$GPGGA,190741,2424.8798,N,08057.2498,W,1,11,1.4,14,M,,M,,*69
06/07/2014	19:07:41.714	$GPGGA,190742,2424.8783,N,08057.2487,W,1,11,1.4,14,M,,M,,*6E
06/07/2014	19:07:42.729	$GPGGA,190743,2424.8766,N,08057.2475,W,1,10,1.6,14,M,,M,,*6A
06/07/2014	19:07:43.832	$GPGGA,190744,2424.8751,N,08057.2464,W,1,10,1.6,14,M,,M,,*69
06/07/2014	19:07:44.801	$GPGGA,190745,2424.8736,N,08057.2454,W,1,11,1.4,14,M,,M,,*69
06/07/2014	19:07:45.896	$GPGGA,190746,2424.8721,N,08057.2442,W,1,11,1.4,14,M,,M,,*6B
06/07/2014	19:07:46.889	$GPGGA,190747,2424.8704,N,08057.2430,W,1,11,1.4,14,M,,M,,*68
06/07/2014	19:07:47.982	$GPGGA,190748,2424.8689,N,08057.2420,W,1,11,1.4,13,M,,M,,*65
06/07/2014	19:07:48.973	$GPGGA,190749,2424.8674,N,08057.2408,W,1,11,1.4,13,M,,M,,*6C
06/07/2014	19:07:50.047	$GPGGA,190750,2424.8658,N,08057.2397,W,1,11,1.4,13,M,,M,,*6B
06/07/2014	19:07:51.154	$GPGGA,190751,2424.8642,N,08057.2385,W,1,11,1.4,13,M,,M,,*62
06/07/2014	19:07:52.144	$GPGGA,190752,2424.8627,N,08057.2374,W,1,11,1.4,13,M,,M,,*6C
06/07/2014	19:07:53.271	$GPGGA,190753,2424.8613,N,08057.2363,W,1,11,1.4,13,M,,M,,*6C
06/07/2014	19:07:54.201	$GPGGA,190754,2424.8596,N,08057.2351,W,1,11,1.6,13,M,,M,,*66
06/07/2014	19:07:55.221	$GPGGA,190755,2424.8582,N,08057.2340,W,1,10,1.6,13,M,,M,,*63
06/07/2014	19:07:56.327	$GPGGA,190756,2424.8568,N,08057.2330,W,1,10,1.4,13,M,,M,,*61
06/07/2014	19:07:57.380	$GPGGA,190757,2424.8555,N,08057.2318,W,1,11,1.4,13,M,,M,,*65
06/07/2014	19:07:58.330	$GPGGA,190758,2424.8539,N,08057.2307,W,1,11,1.4,13,M,,M,,*6E
06/07/2014	19:07:59.468	$GPGGA,190759,2424.8524,N,08057.2295,W,1,11,1.4,13,M,,M,,*69
06/07/2014	19:08:00.468	$GPGGA,190800,2424.8510,N,08057.2284,W,1,11,1.4,13,M,,M,,*6D
06/07/2014	19:08:02.846	$GPGGA,190801,2424.8495,N,08057.2273,W,1,11,1.4,13,M,,M,,*68
06/07/2014	19:08:02.866	$GPGGA,190802,2424.8480,N,08057.2262,W,1,11,1.4,13,M,,M,,*6F
06/07/2014	19:08:03.639	$GPGGA,190803,2424.8465,N,08057.2249,W,1,11,1.4,14,M,,M,,*6B
06/07/2014	19:08:04.565	$GPGGA,190804,2424.8450,N,08057.2238,W,1,11,1.4,14,M,,M,,*6C
06/07/2014	19:08:05.633	$GPGGA,190805,2424.8436,N,08057.2227,W,1,11,1.4,14,M,,M,,*63
06/07/2014	19:08:06.650	$GPGGA,190806,2424.8420,N,08057.2215,W,1,11,1.4,14,M,,M,,*66
06/07/2014	19:08:07.667	$GPGGA,190807,2424.8404,N,08057.2203,W,1,11,1.4,14,M,,M,,*66
06/07/2014	19:08:08.694	$GPGGA,190808,2424.8389,N,08057.2192,W,1,11,1.4,14,M,,M,,*60
06/07/2014	19:08:09.712	$GPGGA,190809,2424.8373,N,08057.2181,W,1,11,1.4,14,M,,M,,*66
06/07/2014	19:08:10.698	$GPGGA,190810,2424.8358,N,08057.2169,W,1,11,1.4,14,M,,M,,*61
06/07/2014	19:08:11.725	$GPGGA,190811,2424.8343,N,08057.2158,W,1,11,1.4,14,M,,M,,*68
06/07/2014	19:08:12.753	$GPGGA,190812,2424.8328,N,08057.2146,W,1,11,1.4,14,M,,M,,*69
06/07/2014	19:08:13.770	$GPGGA,190813,2424.8313,N,08057.2135,W,1,11,1.4,14,M,,M,,*64
06/07/2014	19:08:14.767	$GPGGA,190814,2424.8298,N,08057.2123,W,1,11,1.4,14,M,,M,,*66
06/07/2014	19:08:15.784	$GPGGA,190815,2424.8284,N,08057.2112,W,1,11,1.4,14,M,,M,,*68
06/07/2014	19:08:16.811	$GPGGA,190816,2424.8267,N,08057.2101,W,1,11,1.4,14,M,,M,,*64
06/07/2014	19:08:17.828	$GPGGA,190817,2424.8252,N,08057.2090,W,1,11,1.4,14,M,,M,,*6A
06/07/2014	19:08:18.825	$GPGGA,190818,2424.8237,N,08057.2078,W,1,11,1.4,14,M,,M,,*60
06/07/2014	19:08:19.862	$GPGGA,190819,2424.8223,N,08057.2067,W,1,11,1.4,14,M,,M,,*6A
06/07/2014	19:08:20.868	$GPGGA,190820,2424.8206,N,08057.2056,W,1,11,1.4,14,M,,M,,*65
06/07/2014	19:08:21.949	$GPGGA,190821,2424.8192,N,08057.2045,W,1,11,1.4,14,M,,M,,*68
06/07/2014	19:08:22.882	$GPGGA,190822,2424.8177,N,08057.2033,W,1,11,1.4,14,M,,M,,*61
06/07/2014	19:08:23.970	$GPGGA,190823,2424.8161,N,08057.2022,W,1,11,1.6,14,M,,M,,*65
06/07/2014	19:08:24.926	$GPGGA,190824,2424.8145,N,08057.2012,W,1,11,1.6,14,M,,M,,*67
06/07/2014	19:08:25.994	$GPGGA,190825,2424.8130,N,08057.2000,W,1,10,1.4,14,M,,M,,*64
06/07/2014	19:08:26.940	$GPGGA,190826,2424.8115,N,08057.1989,W,1,10,1.4,14,M,,M,,*6B
06/07/2014	19:08:27.988	$GPGGA,190827,2424.8100,N,08057.1979,W,1,11,1.4,14,M,,M,,*60
06/07/2014	19:08:29.015	$GPGGA,190828,2424.8085,N,08057.1968,W,1,11,1.4,14,M,,M,,*63
06/07/2014	19:08:30.053	$GPGGA,190829,2424.8071,N,08057.1958,W,1,11,1.4,14,M,,M,,*6A
06/07/2014	19:08:31.009	$GPGGA,190830,2424.8055,N,08057.1946,W,1,11,1.4,14,M,,M,,*6B
06/07/2014	19:08:32.066	$GPGGA,190831,2424.8055,N,08057.1946,W,1,11,1.4,14,M,,M,,*6A
06/07/2014	19:08:33.064	$GPGGA,190832,2424.8025,N,08057.1925,W,1,11,1.4,14,M,,M,,*6B
06/07/2014	19:08:34.121	$GPGGA,190833,2424.8009,N,08057.1914,W,1,11,1.6,14,M,,M,,*64
06/07/2014	19:08:35.089	$GPGGA,190834,2424.7993,N,08057.1903,W,1,11,1.6,14,M,,M,,*60
06/07/2014	19:08:36.108	$GPGGA,190835,2424.7978,N,08057.1892,W,1,10,1.6,14,M,,M,,*6C
06/07/2014	19:08:37.127	$GPGGA,190836,2424.7962,N,08057.1882,W,1,10,1.6,14,M,,M,,*65
06/07/2014	19:08:38.159	$GPGGA,190837,2424.7946,N,08057.1871,W,1,10,1.6,14,M,,M,,*6E
06/07/2014	19:08:37.494	$GPGGA,190838,2424.7931,N,08057.1860,W,1,10,1.6,14,M,,M,,*61
06/07/2014	19:08:38.528	$GPGGA,190839,2424.7931,N,08057.1860,W,1,10,1.6,14,M,,M,,*60
06/07/2014	19:08:39.535	$GPGGA,190840,2424.7903,N,08057.1841,W,1,10,1.4,14,M,,M,,*6E
06/07/2014	19:08:40.556	$GPGGA,190841,2424.7903,N,08057.1841,W,1,11,1.4,14,M,,M,,*6E
06/07/2014	19:08:41.559	$GPGGA,190842,2424.7873,N,08057.1821,W,1,11,1.4,14,M,,M,,*6D
06/07/2014	19:08:42.699	$GPGGA,190843,2424.7858,N,08057.1811,W,1,11,1.4,14,M,,M,,*66
06/07/2014	19:08:43.705	$GPGGA,190844,2424.7842,N,08057.1801,W,1,11,1.4,14,M,,M,,*6B
06/07/2014	19:08:44.672	$GPGGA,190845,2424.7827,N,08057.1790,W,1,11,1.4,14,M,,M,,*6E
06/07/2014	19:08:45.709	$GPGGA,190846,2424.7811,N,08057.1780,W,1,11,1.4,14,M,,M,,*69
06/07/2014	19:08:46.759	$GPGGA,190847,2424.7796,N,08057.1770,W,1,11,1.4,14,M,,M,,*67
06/07/2014	19:08:47.653	$GPGGA,190848,2424.7780,N,08057.1760,W,1,11,1.4,14,M,,M,,*6E
06/07/2014	19:08:48.710	$GPGGA,190849,2424.7764,N,08057.1749,W,1,10,1.6,14,M,,M,,*6D
06/07/2014	19:08:49.676	$GPGGA,190850,2424.7749,N,08057.1739,W,1,10,1.6,14,M,,M,,*6D
06/07/2014	19:08:50.754	$GPGGA,190851,2424.7733,N,08057.1729,W,1,10,1.6,14,M,,M,,*60
06/07/2014	19:08:51.730	$GPGGA,190852,2424.7717,N,08057.1718,W,1,10,1.6,14,M,,M,,*67
06/07/2014	19:08:52.830	$GPGGA,190853,2424.7701,N,08057.1707,W,1,10,1.6,14,M,,M,,*6F
06/07/2014	19:08:53.827	$GPGGA,190854,2424.7686,N,08057.1697,W,1,10,1.6,14,M,,M,,*6E
06/07/2014	19:08:54.842	$GPGGA,190855,2424.7671,N,08057.1687,W,1,11,1.4,14,M,,M,,*65
06/07/2014	19:08:55.869	$GPGGA,190856,2424.7655,N,08057.1677,W,1,11,1.4,14,M,,M,,*6F
06/07/2014	19:08:56.886	$GPGGA,190857,2424.7641,N,08057.1666,W,1,11,1.4,14,M,,M,,*6B
06/07/2014	19:08:57.883	$GPGGA,190858,2424.7625,N,08057.1657,W,1,11,1.4,14,M,,M,,*64
06/07/2014	19:08:58.930	$GPGGA,190859,2424.7610,N,08057.1647,W,1,11,1.4,14,M,,M,,*62
06/07/2014	19:08:59.948	$GPGGA,190900,2424.7596,N,08057.1637,W,1,11,1.4,14,M,,M,,*65
06/07/2014	19:09:00.954	$GPGGA,190901,2424.7581,N,08057.1626,W,1,11,1.4,14,M,,M,,*62
06/07/2014	19:09:01.941	$GPGGA,190902,2424.7566,N,08057.1617,W,1,11,1.4,14,M,,M,,*6A
06/07/2014	19:09:02.968	$GPGGA,190903,2424.7552,N,08057.1606,W,1,11,1.4,14,M,,M,,*6C
06/07/2014	19:09:03.985	$GPGGA,190904,2424.7536,N,08057.1595,W,1,11,1.4,14,M,,M,,*60
06/07/2014	19:09:04.992	$GPGGA,190905,2424.7522,N,08057.1585,W,1,10,1.6,14,M,,M,,*66
06/07/2014	19:09:06.009	$GPGGA,190906,2424.7506,N,08057.1574,W,1,10,1.4,14,M,,M,,*6F
06/07/2014	19:09:07.037	$GPGGA,190907,2424.7490,N,08057.1563,W,1,10,1.6,14,M,,M,,*64
06/07/2014	19:09:08.054	$GPGGA,190908,2424.7475,N,08057.1552,W,1,10,1.6,14,M,,M,,*62
06/07/2014	19:09:09.071	$GPGGA,190909,2424.7458,N,08057.1540,W,1,11,1.4,14,M,,M,,*6C
06/07/2014	19:09:10.088	$GPGGA,190910,2424.7442,N,08057.1529,W,1,11,1.6,14,M,,M,,*62
06/07/2014	19:09:11.090	$GPGGA,190911,2424.7428,N,08057.1518,W,1,11,1.4,14,M,,M,,*6F
06/07/2014	19:09:12.102	$GPGGA,190912,2424.7411,N,08057.1506,W,1,11,1.4,14,M,,M,,*69
06/07/2014	19:09:13.107	$GPGGA,190913,2424.7396,N,08057.1496,W,1,11,1.4,14,M,,M,,*68
06/07/2014	19:09:14.123	$GPGGA,190914,2424.7381,N,08057.1485,W,1,11,1.4,14,M,,M,,*6B
06/07/2014	19:09:15.136	$GPGGA,190915,2424.7366,N,08057.1473,W,1,11,1.4,14,M,,M,,*6A
06/07/2014	19:09:16.179	$GPGGA,190916,2424.7352,N,08057.1462,W,1,11,1.4,14,M,,M,,*6E
06/07/2014	19:09:17.170	$GPGGA,190917,2424.7336,N,08057.1451,W,1,11,1.4,14,M,,M,,*6D
06/07/2014	19:09:18.193	$GPGGA,190918,2424.7321,N,08057.1440,W,1,11,1.4,14,M,,M,,*64
06/07/2014	19:09:19.221	$GPGGA,190919,2424.7306,N,08057.1429,W,1,11,1.4,14,M,,M,,*6F
06/07/2014	19:09:20.227	$GPGGA,190920,2424.7292,N,08057.1418,W,1,11,1.4,14,M,,M,,*6B
06/07/2014	19:09:21.225	$GPGGA,190921,2424.7277,N,08057.1407,W,1,11,1.4,14,M,,M,,*6F
06/07/2014	19:09:22.256	$GPGGA,190922,2424.7262,N,08057.1396,W,1,11,1.4,14,M,,M,,*67
06/07/2014	19:09:23.269	$GPGGA,190923,2424.7248,N,08057.1385,W,1,11,1.4,14,M,,M,,*6C
06/07/2014	19:09:24.276	$GPGGA,190924,2424.7233,N,08057.1373,W,1,11,1.4,14,M,,M,,*6E
06/07/2014	19:09:25.294	$GPGGA,190925,2424.7217,N,08057.1362,W,1,11,1.4,14,M,,M,,*69
06/07/2014	19:09:26.289	$GPGGA,190926,2424.7202,N,08057.1350,W,1,11,1.4,14,M,,M,,*6F
06/07/2014	19:09:27.337	$GPGGA,190927,2424.7188,N,08057.1339,W,1,11,1.4,14,M,,M,,*60
06/07/2014	19:09:28.354	$GPGGA,190928,2424.7173,N,08057.1328,W,1,11,1.4,14,M,,M,,*6B
06/07/2014	19:09:29.361	$GPGGA,190929,2424.7158,N,08057.1317,W,1,11,1.4,14,M,,M,,*6F
06/07/2014	19:09:30.357	$GPGGA,190930,2424.7143,N,08057.1306,W,1,11,1.4,14,M,,M,,*6D
06/07/2014	19:09:31.396	$GPGGA,190931,2424.7128,N,08057.1294,W,1,11,1.4,14,M,,M,,*6B
06/07/2014	19:09:32.527	$GPGGA,190932,2424.7113,N,08057.1283,W,1,11,1.4,14,M,,M,,*66
06/07/2014	19:09:33.430	$GPGGA,190933,2424.7099,N,08057.1272,W,1,11,1.4,14,M,,M,,*6A
06/07/2014	19:09:34.415	$GPGGA,190934,2424.7083,N,08057.1261,W,1,11,1.4,14,M,,M,,*64
06/07/2014	19:09:35.432	$GPGGA,190935,2424.7070,N,08057.1249,W,1,11,1.5,14,M,,M,,*62
06/07/2014	19:09:36.459	$GPGGA,190936,2424.7053,N,08057.1239,W,1,11,1.5,14,M,,M,,*67
06/07/2014	19:09:37.568	$GPGGA,190937,2424.7038,N,08057.1227,W,1,11,1.5,14,M,,M,,*64
06/07/2014	19:09:37.458	$GPGGA,190938,2424.7023,N,08057.1216,W,1,11,1.5,14,M,,M,,*63
06/07/2014	19:09:38.577	$GPGGA,190939,2424.7009,N,08057.1205,W,1,11,1.5,14,M,,M,,*68
06/07/2014	19:09:39.513	$GPGGA,190940,2424.6993,N,08057.1194,W,1,11,1.5,14,M,,M,,*66
06/07/2014	19:09:40.601	$GPGGA,190941,2424.6977,N,08057.1183,W,1,10,1.6,14,M,,M,,*69
06/07/2014	19:09:41.618	$GPGGA,190942,2424.6963,N,08057.1171,W,1,10,1.5,14,M,,M,,*61
06/07/2014	19:09:42.625	$GPGGA,190943,2424.6948,N,08057.1161,W,1,11,1.5,14,M,,M,,*69
06/07/2014	19:09:43.664	$GPGGA,190944,2424.6933,N,08057.1151,W,1,11,1.5,14,M,,M,,*61
06/07/2014	19:09:44.660	$GPGGA,190945,2424.6917,N,08057.1139,W,1,11,1.5,14,M,,M,,*68
06/07/2014	19:09:45.677	$GPGGA,190946,2424.6902,N,08057.1128,W,1,11,1.6,14,M,,M,,*6C
06/07/2014	19:09:46.724	$GPGGA,190947,2424.6886,N,08057.1117,W,1,11,1.5,14,M,,M,,*6F
06/07/2014	19:09:47.730	$GPGGA,190948,2424.6870,N,08057.1106,W,1,11,1.6,14,M,,M,,*6A
06/07/2014	19:09:48.757	$GPGGA,190949,2424.6855,N,08057.1094,W,1,11,1.5,14,M,,M,,*65
06/07/2014	19:09:49.744	$GPGGA,190950,2424.6840,N,08057.1084,W,1,11,1.5,14,M,,M,,*68
06/07/2014	19:09:50.761	$GPGGA,190951,2424.6825,N,08057.1073,W,1,11,1.5,14,M,,M,,*62
06/07/2014	19:09:51.778	$GPGGA,190952,2424.6810,N,08057.1062,W,1,11,1.5,14,M,,M,,*67
06/07/2014	19:09:52.795	$GPGGA,190953,2424.6796,N,08057.1052,W,1,11,1.5,14,M,,M,,*64
06/07/2014	19:09:53.792	$GPGGA,190954,2424.6781,N,08057.1042,W,1,11,1.5,14,M,,M,,*64
06/07/2014	19:09:54.820	$GPGGA,190955,2424.6767,N,08057.1031,W,1,11,1.5,14,M,,M,,*69
06/07/2014	19:09:55.836	$GPGGA,190956,2424.6750,N,08057.1021,W,1,11,1.5,14,M,,M,,*6F
06/07/2014	19:09:56.854	$GPGGA,190957,2424.6735,N,08057.1011,W,1,11,1.5,14,M,,M,,*6E
06/07/2014	19:09:57.850	$GPGGA,190958,2424.6720,N,08057.1000,W,1,11,1.6,14,M,,M,,*66
06/07/2014	19:09:58.888	$GPGGA,190959,2424.6704,N,08057.0989,W,1,11,1.5,14,M,,M,,*6B
06/07/2014	19:09:59.905	$GPGGA,191000,2424.6691,N,08057.0979,W,1,11,1.5,14,M,,M,,*6D
06/07/2014	19:10:00.895	$GPGGA,191001,2424.6676,N,08057.0970,W,1,11,1.5,14,M,,M,,*6C
06/07/2014	19:10:01.919	$GPGGA,191002,2424.6662,N,08057.0959,W,1,11,1.5,14,M,,M,,*61
06/07/2014	19:10:02.915	$GPGGA,191003,2424.6647,N,08057.0949,W,1,11,1.5,14,M,,M,,*66
06/07/2014	19:10:03.953	$GPGGA,191004,2424.6633,N,08057.0940,W,1,11,1.5,14,M,,M,,*6B
06/07/2014	19:10:04.949	$GPGGA,191005,2424.6618,N,08057.0930,W,1,11,1.5,14,M,,M,,*64
06/07/2014	19:10:05.976	$GPGGA,191006,2424.6604,N,08057.0920,W,1,11,1.5,14,M,,M,,*6B
06/07/2014	19:10:06.993	$GPGGA,191007,2424.6587,N,08057.0910,W,1,11,1.5,14,M,,M,,*61
06/07/2014	19:10:08.030	$GPGGA,191008,2424.6572,N,08057.0900,W,1,11,1.5,14,M,,M,,*65
06/07/2014	19:10:09.020	$GPGGA,191009,2424.6557,N,08057.0890,W,1,11,1.5,14,M,,M,,*6B
06/07/2014	19:10:10.024	$GPGGA,191010,2424.6541,N,08057.0879,W,1,11,1.5,14,M,,M,,*63
06/07/2014	19:10:11.076	$GPGGA,191011,2424.6525,N,08057.0869,W,1,11,1.5,14,M,,M,,*61
06/07/2014	19:10:12.087	$GPGGA,191012,2424.6510,N,08057.0860,W,1,11,1.5,14,M,,M,,*6D
06/07/2014	19:10:13.188	$GPGGA,191013,2424.6494,N,08057.0849,W,1,11,1.5,14,M,,M,,*6A
06/07/2014	19:10:14.092	$GPGGA,191014,2424.6479,N,08057.0839,W,1,11,1.5,14,M,,M,,*69
06/07/2014	19:10:15.133	$GPGGA,191015,2424.6463,N,08057.0829,W,1,11,1.5,14,M,,M,,*62
06/07/2014	19:10:16.140	$GPGGA,191016,2424.6449,N,08057.0819,W,1,11,1.5,14,M,,M,,*6A
06/07/2014	19:10:17.144	$GPGGA,191017,2424.6431,N,08057.0807,W,1,11,1.5,14,M,,M,,*6B
06/07/2014	19:10:18.151	$GPGGA,191018,2424.6417,N,08057.0798,W,1,11,1.7,14,M,,M,,*6B
06/07/2014	19:10:19.259	$GPGGA,191019,2424.6403,N,08057.0788,W,1,10,1.5,14,M,,M,,*6D
06/07/2014	19:10:20.185	$GPGGA,191020,2424.6387,N,08057.0778,W,1,10,1.5,14,M,,M,,*63
06/07/2014	19:10:21.293	$GPGGA,191021,2424.6373,N,08057.0767,W,1,11,1.5,14,M,,M,,*66
06/07/2014	19:10:22.309	$GPGGA,191022,2424.6357,N,08057.0757,W,1,11,1.5,14,M,,M,,*60
06/07/2014	19:10:23.327	$GPGGA,191023,2424.6342,N,08057.0747,W,1,11,1.5,14,M,,M,,*64
06/07/2014	19:10:24.354	$GPGGA,191024,2424.6328,N,08057.0737,W,1,11,1.5,14,M,,M,,*68
06/07/2014	19:10:25.391	$GPGGA,191025,2424.6312,N,08057.0727,W,1,11,1.5,14,M,,M,,*61
06/07/2014	19:10:26.378	$GPGGA,191026,2424.6298,N,08057.0717,W,1,11,1.5,14,M,,M,,*62
06/07/2014	19:10:27.405	$GPGGA,191027,2424.6283,N,08057.0706,W,1,11,1.5,14,M,,M,,*69
06/07/2014	19:10:28.422	$GPGGA,191028,2424.6268,N,08057.0696,W,1,11,1.5,14,M,,M,,*6B
06/07/2014	19:10:29.439	$GPGGA,191029,2424.6254,N,08057.0685,W,1,11,1.5,14,M,,M,,*67
06/07/2014	19:10:30.436	$GPGGA,191030,2424.6237,N,08057.0675,W,1,11,1.5,14,M,,M,,*65
06/07/2014	19:10:31.443	$GPGGA,191031,2424.6222,N,08057.0664,W,1,11,1.5,14,M,,M,,*60
06/07/2014	19:10:32.480	$GPGGA,191032,2424.6207,N,08057.0652,W,1,11,1.7,14,M,,M,,*63
06/07/2014	19:10:33.498	$GPGGA,191033,2424.6192,N,08057.0642,W,1,11,1.5,14,M,,M,,*6E
06/07/2014	19:10:34.484	$GPGGA,191034,2424.6178,N,08057.0631,W,1,11,1.5,14,M,,M,,*69
06/07/2014	19:10:35.522	$GPGGA,191035,2424.6163,N,08057.0620,W,1,11,1.5,14,M,,M,,*62
06/07/2014	19:10:36.539	$GPGGA,191036,2424.6149,N,08057.0609,W,1,11,1.5,14,M,,M,,*62
06/07/2014	19:10:37.525	$GPGGA,191037,2424.6133,N,08057.0599,W,1,11,1.5,14,M,,M,,*64
06/07/2014	19:10:37.528	$GPGGA,191038,2424.6120,N,08057.0587,W,1,11,1.5,14,M,,M,,*66
06/07/2014	19:10:38.535	$GPGGA,191039,2424.6104,N,08057.0576,W,1,11,1.5,14,M,,M,,*6F
06/07/2014	19:10:39.561	$GPGGA,191040,2424.6089,N,08057.0564,W,1,11,1.5,14,M,,M,,*66
06/07/2014	19:10:40.588	$GPGGA,191041,2424.6074,N,08057.0552,W,1,11,1.5,14,M,,M,,*60
06/07/2014	19:10:41.585	$GPGGA,191042,2424.6059,N,08057.0541,W,1,11,1.5,14,M,,M,,*6E
06/07/2014	19:10:42.622	$GPGGA,191043,2424.6044,N,08057.0529,W,1,11,1.5,14,M,,M,,*6D
06/07/2014	19:10:43.619	$GPGGA,191044,2424.6030,N,08057.0517,W,1,11,1.5,14,M,,M,,*64
06/07/2014	19:10:44.616	$GPGGA,191045,2424.6015,N,08057.0505,W,1,11,1.5,14,M,,M,,*61
06/07/2014	19:10:45.653	$GPGGA,191046,2424.6001,N,08057.0493,W,1,11,1.5,14,M,,M,,*69
06/07/2014	19:10:46.660	$GPGGA,191047,2424.5985,N,08057.0481,W,1,11,1.5,14,M,,M,,*6D
06/07/2014	19:10:47.698	$GPGGA,191048,2424.5970,N,08057.0469,W,1,11,1.5,14,M,,M,,*6E
06/07/2014	19:10:48.694	$GPGGA,191049,2424.5955,N,08057.0456,W,1,11,1.5,14,M,,M,,*64
06/07/2014	19:10:49.711	$GPGGA,191050,2424.5940,N,08057.0444,W,1,11,1.5,14,M,,M,,*6B
06/07/2014	19:10:50.718	$GPGGA,191051,2424.5926,N,08057.0432,W,1,11,1.5,14,M,,M,,*6B
06/07/2014	19:10:51.756	$GPGGA,191052,2424.5911,N,08057.0420,W,1,11,1.5,14,M,,M,,*6F
06/07/2014	19:10:52.753	$GPGGA,191053,2424.5897,N,08057.0407,W,1,11,1.5,14,M,,M,,*64
06/07/2014	19:10:53.760	$GPGGA,191054,2424.5882,N,08057.0395,W,1,11,1.5,14,M,,M,,*6B
06/07/2014	19:10:54.781	$GPGGA,191055,2424.5867,N,08057.0383,W,1,11,1.5,14,M,,M,,*66
06/07/2014	19:10:55.814	$GPGGA,191056,2424.5853,N,08057.0371,W,1,11,1.5,14,M,,M,,*6F
06/07/2014	19:10:56.800	$GPGGA,191057,2424.5838,N,08057.0359,W,1,11,1.5,14,M,,M,,*69
06/07/2014	19:10:57.820	$GPGGA,191058,2424.5824,N,08057.0347,W,1,11,1.5,15,M,,M,,*65
06/07/2014	19:10:58.854	$GPGGA,191059,2424.5809,N,08057.0335,W,1,11,1.5,15,M,,M,,*6E
06/07/2014	19:10:59.881	$GPGGA,191100,2424.5795,N,08057.0322,W,1,11,1.5,15,M,,M,,*6F
06/07/2014	19:11:00.868	$GPGGA,191101,2424.5781,N,08057.0310,W,1,11,1.5,15,M,,M,,*6A
06/07/2014	19:11:01.997	$GPGGA,191102,2424.5766,N,08057.0298,W,1,11,1.5,15,M,,M,,*61
06/07/2014	19:11:03.029	$GPGGA,191103,2424.5751,N,08057.0286,W,1,11,1.5,15,M,,M,,*6B
06/07/2014	19:11:03.940	$GPGGA,191104,2424.5737,N,08057.0274,W,1,11,1.5,15,M,,M,,*61
06/07/2014	19:11:05.038	$GPGGA,191105,2424.5723,N,08057.0261,W,1,11,1.5,15,M,,M,,*61
06/07/2014	19:11:06.045	$GPGGA,191106,2424.5708,N,08057.0249,W,1,11,1.5,15,M,,M,,*61
06/07/2014	19:11:06.950	$GPGGA,191107,2424.5692,N,08057.0237,W,1,11,1.5,15,M,,M,,*6B
06/07/2014	19:11:08.089	$GPGGA,191108,2424.5677,N,08057.0225,W,1,11,1.5,15,M,,M,,*6C
06/07/2014	19:11:09.086	$GPGGA,191109,2424.5662,N,08057.0213,W,1,11,1.5,15,M,,M,,*6C
06/07/2014	19:11:10.093	$GPGGA,191110,2424.5648,N,08057.0201,W,1,11,1.5,15,M,,M,,*6F
06/07/2014	19:11:11.029	$GPGGA,191111,2424.5633,N,08057.0190,W,1,11,1.5,15,M,,M,,*69
06/07/2014	19:11:12.148	$GPGGA,191112,2424.5618,N,08057.0178,W,1,11,1.5,15,M,,M,,*65
06/07/2014	19:11:13.144	$GPGGA,191113,2424.5604,N,08057.0167,W,1,11,1.5,15,M,,M,,*67
06/07/2014	19:11:14.162	$GPGGA,191114,2424.5589,N,08057.0155,W,1,11,1.5,15,M,,M,,*67
06/07/2014	19:11:15.198	$GPGGA,191115,2424.5575,N,08057.0144,W,1,11,1.5,15,M,,M,,*65
06/07/2014	19:11:16.205	$GPGGA,191116,2424.5561,N,08057.0133,W,1,11,1.5,15,M,,M,,*63
06/07/2014	19:11:17.222	$GPGGA,191117,2424.5546,N,08057.0122,W,1,11,1.5,15,M,,M,,*67
06/07/2014	19:11:18.219	$GPGGA,191118,2424.5532,N,08057.0110,W,1,11,1.5,15,M,,M,,*6A
06/07/2014	19:11:19.246	$GPGGA,191119,2424.5517,N,08057.0100,W,1,11,1.5,15,M,,M,,*6D
06/07/2014	19:11:20.263	$GPGGA,191120,2424.5503,N,08057.0088,W,1,11,1.5,15,M,,M,,*63
06/07/2014	19:11:21.290	$GPGGA,191121,2424.5488,N,08057.0076,W,1,11,1.5,15,M,,M,,*61
06/07/2014	19:11:22.287	$GPGGA,191122,2424.5472,N,08057.0066,W,1,11,1.7,15,M,,M,,*64
06/07/2014	19:11:23.314	$GPGGA,191123,2424.5459,N,08057.0054,W,1,11,1.5,15,M,,M,,*6F
06/07/2014	19:11:24.321	$GPGGA,191124,2424.5443,N,08057.0043,W,1,11,1.5,15,M,,M,,*65
06/07/2014	19:11:25.318	$GPGGA,191125,2424.5430,N,08057.0032,W,1,11,1.5,15,M,,M,,*66
06/07/2014	19:11:26.345	$GPGGA,191126,2424.5414,N,08057.0021,W,1,11,1.5,15,M,,M,,*61
06/07/2014	19:11:27.342	$GPGGA,191127,2424.5399,N,08057.0010,W,1,11,1.5,15,M,,M,,*60
06/07/2014	19:11:28.390	$GPGGA,191128,2424.5384,N,08057.0000,W,1,11,1.5,15,M,,M,,*62
06/07/2014	19:11:29.407	$GPGGA,191129,2424.5369,N,08056.9989,W,1,11,1.5,15,M,,M,,*60
06/07/2014	19:11:30.393	$GPGGA,191130,2424.5355,N,08056.9978,W,1,11,1.5,15,M,,M,,*69
06/07/2014	19:11:31.451	$GPGGA,191131,2424.5340,N,08056.9968,W,1,11,1.5,15,M,,M,,*6D
06/07/2014	19:11:32.448	$GPGGA,191132,2424.5324,N,08056.9957,W,1,11,1.5,15,M,,M,,*60
06/07/2014	19:11:33.475	$GPGGA,191133,2424.5311,N,08056.9947,W,1,11,1.5,15,M,,M,,*66
06/07/2014	19:11:34.461	$GPGGA,191134,2424.5295,N,08056.9937,W,1,11,1.5,15,M,,M,,*6B
06/07/2014	19:11:35.468	$GPGGA,191135,2424.5280,N,08056.9925,W,1,11,1.5,15,M,,M,,*6D
06/07/2014	19:11:36.505	$GPGGA,191136,2424.5265,N,08056.9916,W,1,11,1.5,15,M,,M,,*65
06/07/2014	19:11:37.494	$GPGGA,191137,2424.5249,N,08056.9905,W,1,11,1.5,15,M,,M,,*68
06/07/2014	19:11:37.504	$GPGGA,191138,2424.5235,N,08056.9893,W,1,11,1.5,15,M,,M,,*62
06/07/2014	19:11:38.542	$GPGGA,191139,2424.5219,N,08056.9883,W,1,11,1.5,15,M,,M,,*6C
06/07/2014	19:11:39.528	$GPGGA,191140,2424.5204,N,08056.9873,W,1,11,1.5,15,M,,M,,*61
06/07/2014	19:11:40.667	$GPGGA,191141,2424.5188,N,08056.9862,W,1,11,1.5,15,M,,M,,*67
