Software Version Number: 1	Data File Format Number: 1	Build Version Number: 1	Error Count Since VI Started: 0	Manufacturer: Raytheon	 Model Number: RayMarine 120	 S/N: 	 Cal Date: 	 Wind Direction Offset: 0.00	 Slope (M)1: 0.00	 Offset (B)1: 0.00	 Slope (M)2: 0.00	 Offset (B)2: 0.00	 Slope (M)3: 0.00	 Offset (B)3: 0.00	 Slope (M)4: 0.00	 Offset (B)4: 0.00	 Slope (M)5: 0.00	 Offset (B)5: 0.00	 Slope (M)6: 0.00	 Offset (B)6: 0.00
Computer Date	Computer Time	GGA String
06/03/2014	09:00:00.674	$GPGGA,090001,2543.4507,N,08005.9491,W,1,8,2.1,16,M,,M,,*5A
06/03/2014	09:00:01.666	$GPGGA,090002,2543.4525,N,08005.9499,W,1,8,2.1,16,M,,M,,*51
06/03/2014	09:00:02.679	$GPGGA,090003,2543.4547,N,08005.9506,W,1,7,2.1,16,M,,M,,*5C
06/03/2014	09:00:03.671	$GPGGA,090004,2543.4568,N,08005.9513,W,1,7,2.9,16,M,,M,,*5A
06/03/2014	09:00:04.654	$GPGGA,090005,2543.4590,N,08005.9523,W,1,8,2.1,16,M,,M,,*58
06/03/2014	09:00:05.666	$GPGGA,090006,2543.4610,N,08005.9530,W,1,8,2.5,16,M,,M,,*56
06/03/2014	09:00:06.679	$GPGGA,090007,2543.4629,N,08005.9538,W,1,7,2.1,16,M,,M,,*5E
06/03/2014	09:00:07.671	$GPGGA,090008,2543.4648,N,08005.9545,W,1,7,2.1,16,M,,M,,*5C
06/03/2014	09:00:08.673	$GPGGA,090009,2543.4666,N,08005.9552,W,1,7,2.1,16,M,,M,,*57
06/03/2014	09:00:09.665	$GPGGA,090010,2543.4684,N,08005.9559,W,1,7,2.1,16,M,,M,,*58
06/03/2014	09:00:10.678	$GPGGA,090011,2543.4704,N,08005.9566,W,1,8,2.1,16,M,,M,,*53
06/03/2014	09:00:11.670	$GPGGA,090012,2543.4722,N,08005.9571,W,1,8,2.5,16,M,,M,,*56
06/03/2014	09:00:12.673	$GPGGA,090013,2543.4742,N,08005.9578,W,1,8,2.1,15,M,,M,,*5F
06/03/2014	09:00:13.665	$GPGGA,090014,2543.4760,N,08005.9588,W,1,8,2.1,15,M,,M,,*57
06/03/2014	09:00:14.658	$GPGGA,090015,2543.4780,N,08005.9593,W,1,7,2.1,15,M,,M,,*5D
06/03/2014	09:00:15.670	$GPGGA,090016,2543.4799,N,08005.9599,W,1,7,2.1,15,M,,M,,*5C
06/03/2014	09:00:16.693	$GPGGA,090017,2543.4818,N,08005.9607,W,1,8,2.1,15,M,,M,,*50
06/03/2014	09:00:17.665	$GPGGA,090018,2543.4836,N,08005.9614,W,1,8,2.1,15,M,,M,,*51
06/03/2014	09:00:18.668	$GPGGA,090019,2543.4854,N,08005.9621,W,1,8,2.1,15,M,,M,,*52
06/03/2014	09:00:19.680	$GPGGA,090020,2543.4874,N,08005.9628,W,1,8,2.1,15,M,,M,,*53
06/03/2014	09:00:20.673	$GPGGA,090021,2543.4892,N,08005.9639,W,1,7,2.1,15,M,,M,,*55
06/03/2014	09:00:21.675	$GPGGA,090022,2543.4911,N,08005.9646,W,1,7,2.1,15,M,,M,,*54
06/03/2014	09:00:22.698	$GPGGA,090023,2543.4933,N,08005.9653,W,1,8,2.1,15,M,,M,,*5E
06/03/2014	09:00:23.690	$GPGGA,090024,2543.4948,N,08005.9660,W,1,8,2.9,15,M,,M,,*5D
06/03/2014	09:00:24.683	$GPGGA,090025,2543.4966,N,08005.9669,W,1,7,2.5,15,M,,M,,*5A
06/03/2014	09:00:25.665	$GPGGA,090026,2543.4984,N,08005.9675,W,1,7,2.1,15,M,,M,,*5C
06/03/2014	09:00:26.707	$GPGGA,090027,2543.5000,N,08005.9682,W,1,7,2.5,15,M,,M,,*55
06/03/2014	09:00:27.779	$GPGGA,090028,2543.5016,N,08005.9690,W,1,7,2.1,15,M,,M,,*5A
06/03/2014	09:00:28.682	$GPGGA,090029,2543.5037,N,08005.9698,W,1,8,2.1,15,M,,M,,*5F
06/03/2014	09:00:29.694	$GPGGA,090030,2543.5055,N,08005.9707,W,1,8,2.1,16,M,,M,,*57
06/03/2014	09:00:30.513	$GPGGA,090031,2543.5071,N,08005.9714,W,1,8,2.1,16,M,,M,,*52
06/03/2014	09:00:31.650	$GPGGA,090032,2543.5092,N,08005.9722,W,1,8,2.5,16,M,,M,,*5D
06/03/2014	09:00:32.533	$GPGGA,090033,2543.5112,N,08005.9730,W,1,7,2.5,16,M,,M,,*59
06/03/2014	09:00:33.519	$GPGGA,090034,2543.5128,N,08005.9740,W,1,7,2.9,16,M,,M,,*5C
06/03/2014	09:00:34.527	$GPGGA,090035,2543.5148,N,08005.9747,W,1,7,2.5,16,M,,M,,*50
06/03/2014	09:00:35.660	$GPGGA,090036,2543.5165,N,08005.9754,W,1,7,2.5,16,M,,M,,*5E
06/03/2014	09:00:36.543	$GPGGA,090037,2543.5186,N,08005.9765,W,1,8,2.1,16,M,,M,,*5B
06/03/2014	09:00:37.534	$GPGGA,090038,2543.5206,N,08005.9774,W,1,8,2.1,16,M,,M,,*5F
06/03/2014	09:00:38.618	$GPGGA,090039,2543.5224,N,08005.9780,W,1,7,2.1,16,M,,M,,*5A
06/03/2014	09:00:39.630	$GPGGA,090040,2543.5243,N,08005.9788,W,1,7,2.5,16,M,,M,,*59
06/03/2014	09:00:40.542	$GPGGA,090041,2543.5262,N,08005.9798,W,1,7,2.5,16,M,,M,,*5A
06/03/2014	09:00:41.516	$GPGGA,090042,2543.5283,N,08005.9808,W,1,7,2.5,16,M,,M,,*50
06/03/2014	09:00:42.658	$GPGGA,090043,2543.5302,N,08005.9816,W,1,7,2.5,16,M,,M,,*56
06/03/2014	09:00:43.659	$GPGGA,090044,2543.5322,N,08005.9826,W,1,7,2.1,16,M,,M,,*54
06/03/2014	09:00:44.632	$GPGGA,090045,2543.5340,N,08005.9834,W,1,7,2.5,16,M,,M,,*56
06/03/2014	09:00:45.534	$GPGGA,090046,2543.5356,N,08005.9842,W,1,7,2.5,16,M,,M,,*53
06/03/2014	09:00:47.651	$GPGGA,090047,2543.5376,N,08005.9852,W,1,7,2.5,16,M,,M,,*51
06/03/2014	09:00:47.669	$GPGGA,090048,2543.5395,N,08005.9857,W,1,7,2.9,16,M,,M,,*5A
06/03/2014	09:00:48.653	$GPGGA,090049,2543.5410,N,08005.9863,W,1,8,2.1,16,M,,M,,*51
06/03/2014	09:00:49.624	$GPGGA,090050,2543.5428,N,08005.9873,W,1,8,2.1,16,M,,M,,*53
06/03/2014	09:00:50.647	$GPGGA,090051,2543.5448,N,08005.9881,W,1,7,2.1,16,M,,M,,*56
06/03/2014	09:00:51.649	$GPGGA,090052,2543.5464,N,08005.9886,W,1,7,2.1,16,M,,M,,*5C
06/03/2014	09:00:52.652	$GPGGA,090053,2543.5482,N,08005.9895,W,1,7,2.1,16,M,,M,,*57
06/03/2014	09:00:53.624	$GPGGA,090054,2543.5500,N,08005.9903,W,1,7,2.1,15,M,,M,,*56
06/03/2014	09:00:54.637	$GPGGA,090055,2543.5518,N,08005.9908,W,1,7,2.1,15,M,,M,,*55
06/03/2014	09:00:55.649	$GPGGA,090056,2543.5536,N,08005.9915,W,1,7,2.5,15,M,,M,,*52
06/03/2014	09:00:56.652	$GPGGA,090057,2543.5555,N,08005.9924,W,1,8,2.1,15,M,,M,,*5F
06/03/2014	09:00:57.644	$GPGGA,090058,2543.5575,N,08005.9931,W,1,8,2.1,15,M,,M,,*56
06/03/2014	09:00:58.657	$GPGGA,090059,2543.5593,N,08005.9935,W,1,7,2.5,15,M,,M,,*50
06/03/2014	09:00:59.660	$GPGGA,090100,2543.5612,N,08005.9940,W,1,7,2.5,15,M,,M,,*55
06/03/2014	09:01:00.653	$GPGGA,090101,2543.5630,N,08005.9949,W,1,8,2.1,15,M,,M,,*56
06/03/2014	09:01:01.623	$GPGGA,090102,2543.5648,N,08005.9954,W,1,8,2.1,15,M,,M,,*56
06/03/2014	09:01:02.636	$GPGGA,090103,2543.5667,N,08005.9960,W,1,8,2.1,15,M,,M,,*5D
06/03/2014	09:01:03.648	$GPGGA,090104,2543.5685,N,08005.9965,W,1,8,2.1,15,M,,M,,*53
06/03/2014	09:01:04.671	$GPGGA,090105,2543.5703,N,08005.9971,W,1,8,2.1,15,M,,M,,*58
06/03/2014	09:01:05.643	$GPGGA,090106,2543.5723,N,08005.9976,W,1,8,2.1,15,M,,M,,*5E
06/03/2014	09:01:06.676	$GPGGA,090107,2543.5742,N,08005.9982,W,1,8,2.1,15,M,,M,,*53
06/03/2014	09:01:07.648	$GPGGA,090108,2543.5761,N,08005.9987,W,1,8,2.5,15,M,,M,,*5C
06/03/2014	09:01:08.631	$GPGGA,090109,2543.5781,N,08005.9993,W,1,8,2.1,15,M,,M,,*52
06/03/2014	09:01:09.633	$GPGGA,090110,2543.5800,N,08005.9998,W,1,8,2.1,15,M,,M,,*57
06/03/2014	09:01:10.626	$GPGGA,090111,2543.5820,N,08006.0004,W,1,7,2.5,15,M,,M,,*59
06/03/2014	09:01:11.648	$GPGGA,090112,2543.5840,N,08006.0009,W,1,7,2.7,15,M,,M,,*53
06/03/2014	09:01:12.641	$GPGGA,090113,2543.5860,N,08006.0014,W,1,8,2.1,15,M,,M,,*55
06/03/2014	09:01:13.643	$GPGGA,090114,2543.5880,N,08006.0018,W,1,8,2.1,15,M,,M,,*50
06/03/2014	09:01:14.636	$GPGGA,090115,2543.5901,N,08006.0025,W,1,8,2.1,15,M,,M,,*57
06/03/2014	09:01:15.658	$GPGGA,090116,2543.5922,N,08006.0030,W,1,8,2.1,15,M,,M,,*51
06/03/2014	09:01:16.651	$GPGGA,090117,2543.5943,N,08006.0034,W,1,8,2.1,15,M,,M,,*53
06/03/2014	09:01:17.643	$GPGGA,090118,2543.5962,N,08006.0041,W,1,8,2.1,15,M,,M,,*5D
06/03/2014	09:01:18.655	$GPGGA,090119,2543.5981,N,08006.0045,W,1,8,2.1,15,M,,M,,*55
06/03/2014	09:01:21.081	$GPGGA,090121,2543.6021,N,08006.0052,W,1,7,2.5,15,M,,M,,*53
06/03/2014	09:01:21.652	$GPGGA,090122,2543.6042,N,08006.0058,W,1,7,2.5,15,M,,M,,*5F
06/03/2014	09:01:22.655	$GPGGA,090123,2543.6063,N,08006.0061,W,1,7,2.5,15,M,,M,,*57
06/03/2014	09:01:23.653	$GPGGA,090124,2543.6084,N,08006.0065,W,1,7,2.5,15,M,,M,,*5D
06/03/2014	09:01:24.649	$GPGGA,090125,2543.6103,N,08006.0070,W,1,7,2.5,15,M,,M,,*56
06/03/2014	09:01:25.762	$GPGGA,090126,2543.6122,N,08006.0073,W,1,7,2.1,15,M,,M,,*51
06/03/2014	09:01:26.644	$GPGGA,090127,2543.6143,N,08006.0076,W,1,8,2.1,15,M,,M,,*5D
06/03/2014	09:01:27.817	$GPGGA,090128,2543.6164,N,08006.0080,W,1,8,2.5,15,M,,M,,*5A
06/03/2014	09:01:28.770	$GPGGA,090129,2543.6183,N,08006.0083,W,1,7,2.5,15,M,,M,,*5E
06/03/2014	09:01:29.742	$GPGGA,090130,2543.6204,N,08006.0087,W,1,7,2.5,15,M,,M,,*5E
06/03/2014	09:01:30.608	$GPGGA,090131,2543.6222,N,08006.0091,W,1,7,2.1,15,M,,M,,*58
06/03/2014	09:01:31.619	$GPGGA,090132,2543.6243,N,08006.0094,W,1,7,2.1,15,M,,M,,*59
06/03/2014	09:01:32.632	$GPGGA,090133,2543.6262,N,08006.0097,W,1,8,2.1,15,M,,M,,*57
06/03/2014	09:01:33.504	$GPGGA,090134,2543.6283,N,08006.0099,W,1,8,2.1,15,M,,M,,*51
06/03/2014	09:01:34.637	$GPGGA,090135,2543.6302,N,08006.0102,W,1,8,2.1,15,M,,M,,*5B
06/03/2014	09:01:37.059	$GPGGA,090137,2543.6341,N,08006.0106,W,1,8,2.1,15,M,,M,,*5A
06/03/2014	09:01:37.603	$GPGGA,090138,2543.6360,N,08006.0108,W,1,8,2.1,15,M,,M,,*58
06/03/2014	09:01:38.616	$GPGGA,090139,2543.6380,N,08006.0112,W,1,8,2.1,15,M,,M,,*5C
06/03/2014	09:01:39.618	$GPGGA,090140,2543.6400,N,08006.0115,W,1,8,2.1,15,M,,M,,*5A
06/03/2014	09:01:40.623	$GPGGA,090141,2543.6421,N,08006.0117,W,1,8,2.1,15,M,,M,,*5A
06/03/2014	09:01:41.603	$GPGGA,090142,2543.6440,N,08006.0119,W,1,8,2.1,15,M,,M,,*50
06/03/2014	09:01:42.616	$GPGGA,090143,2543.6458,N,08006.0123,W,1,8,2.1,15,M,,M,,*51
06/03/2014	09:01:43.618	$GPGGA,090144,2543.6478,N,08006.0126,W,1,8,2.1,14,M,,M,,*50
06/03/2014	09:01:44.641	$GPGGA,090145,2543.6497,N,08006.0127,W,1,8,2.1,14,M,,M,,*51
06/03/2014	09:01:45.603	$GPGGA,090146,2543.6516,N,08006.0130,W,1,8,2.1,14,M,,M,,*5C
06/03/2014	09:01:46.626	$GPGGA,090147,2543.6536,N,08006.0134,W,1,8,2.1,14,M,,M,,*5B
06/03/2014	09:01:47.608	$GPGGA,090148,2543.6557,N,08006.0137,W,1,8,2.1,14,M,,M,,*50
06/03/2014	09:01:48.631	$GPGGA,090149,2543.6576,N,08006.0139,W,1,8,2.5,14,M,,M,,*58
06/03/2014	09:01:49.613	$GPGGA,090150,2543.6592,N,08006.0142,W,1,8,2.1,14,M,,M,,*52
06/03/2014	09:01:50.626	$GPGGA,090151,2543.6610,N,08006.0148,W,1,8,2.1,14,M,,M,,*50
06/03/2014	09:01:51.628	$GPGGA,090152,2543.6628,N,08006.0148,W,1,8,2.0,14,M,,M,,*59
06/03/2014	09:01:52.621	$GPGGA,090153,2543.6646,N,08006.0150,W,1,8,2.0,14,M,,M,,*59
06/03/2014	09:01:53.612	$GPGGA,090154,2543.6664,N,08006.0155,W,1,8,2.0,14,M,,M,,*5B
06/03/2014	09:01:54.615	$GPGGA,090155,2543.6685,N,08006.0159,W,1,8,2.0,14,M,,M,,*59
06/03/2014	09:01:55.627	$GPGGA,090156,2543.6703,N,08006.0160,W,1,8,2.0,14,M,,M,,*5F
06/03/2014	09:01:56.650	$GPGGA,090157,2543.6722,N,08006.0166,W,1,8,2.0,14,M,,M,,*5B
06/03/2014	09:01:57.622	$GPGGA,090158,2543.6740,N,08006.0170,W,1,8,2.0,14,M,,M,,*57
06/03/2014	09:01:58.635	$GPGGA,090159,2543.6761,N,08006.0171,W,1,8,2.5,14,M,,M,,*51
06/03/2014	09:01:59.647	$GPGGA,090200,2543.6779,N,08006.0175,W,1,8,2.3,14,M,,M,,*55
06/03/2014	09:02:00.640	$GPGGA,090201,2543.6800,N,08006.0181,W,1,7,2.0,14,M,,M,,*52
06/03/2014	09:02:01.622	$GPGGA,090202,2543.6819,N,08006.0185,W,1,7,2.0,14,M,,M,,*5D
06/03/2014	09:02:02.635	$GPGGA,090203,2543.6840,N,08006.0188,W,1,8,2.0,14,M,,M,,*52
06/03/2014	09:02:03.627	$GPGGA,090204,2543.6861,N,08006.0191,W,1,8,2.0,14,M,,M,,*5E
06/03/2014	09:02:04.599	$GPGGA,090205,2543.6880,N,08006.0199,W,1,8,2.0,14,M,,M,,*58
06/03/2014	09:02:05.622	$GPGGA,090206,2543.6902,N,08006.0202,W,1,8,2.0,14,M,,M,,*51
06/03/2014	09:02:06.615	$GPGGA,090207,2543.6922,N,08006.0206,W,1,8,2.0,14,M,,M,,*56
06/03/2014	09:02:07.647	$GPGGA,090208,2543.6942,N,08006.0211,W,1,8,2.0,14,M,,M,,*59
06/03/2014	09:02:08.612	$GPGGA,090209,2543.6962,N,08006.0217,W,1,8,2.0,14,M,,M,,*5C
06/03/2014	09:02:09.632	$GPGGA,090210,2543.6982,N,08006.0221,W,1,8,2.0,15,M,,M,,*5E
06/03/2014	09:02:10.645	$GPGGA,090211,2543.7003,N,08006.0224,W,1,8,2.0,15,M,,M,,*5B
06/03/2014	09:02:11.746	$GPGGA,090212,2543.7021,N,08006.0229,W,1,8,2.0,15,M,,M,,*55
06/03/2014	09:02:12.722	$GPGGA,090213,2543.7042,N,08006.0235,W,1,8,2.0,15,M,,M,,*5C
06/03/2014	09:02:13.641	$GPGGA,090214,2543.7061,N,08006.0239,W,1,8,2.0,15,M,,M,,*56
06/03/2014	09:02:14.644	$GPGGA,090215,2543.7079,N,08006.0243,W,1,8,2.1,15,M,,M,,*52
06/03/2014	09:02:15.746	$GPGGA,090216,2543.7100,N,08006.0246,W,1,8,2.1,15,M,,M,,*5B
06/03/2014	09:02:16.719	$GPGGA,090217,2543.7119,N,08006.0253,W,1,8,2.0,15,M,,M,,*57
06/03/2014	09:02:17.635	$GPGGA,090218,2543.7139,N,08006.0257,W,1,8,2.0,15,M,,M,,*5E
06/03/2014	09:02:18.634	$GPGGA,090219,2543.7158,N,08006.0260,W,1,8,2.0,15,M,,M,,*5C
06/03/2014	09:02:19.746	$GPGGA,090220,2543.7177,N,08006.0265,W,1,8,2.0,15,M,,M,,*5E
06/03/2014	09:02:20.719	$GPGGA,090221,2543.7197,N,08006.0269,W,1,8,2.0,15,M,,M,,*5D
06/03/2014	09:02:21.711	$GPGGA,090222,2543.7216,N,08006.0274,W,1,8,2.4,15,M,,M,,*5C
06/03/2014	09:02:22.638	$GPGGA,090223,2543.7233,N,08006.0278,W,1,7,2.0,16,M,,M,,*5E
06/03/2014	09:02:23.726	$GPGGA,090224,2543.7252,N,08006.0283,W,1,7,2.0,16,M,,M,,*5A
06/03/2014	09:02:24.729	$GPGGA,090225,2543.7271,N,08006.0289,W,1,8,2.0,16,M,,M,,*5F
06/03/2014	09:02:25.721	$GPGGA,090226,2543.7292,N,08006.0292,W,1,8,2.0,16,M,,M,,*5B
06/03/2014	09:02:26.748	$GPGGA,090227,2543.7311,N,08006.0296,W,1,8,2.0,16,M,,M,,*54
06/03/2014	09:02:27.736	$GPGGA,090228,2543.7329,N,08006.0300,W,1,8,2.0,16,M,,M,,*5E
06/03/2014	09:02:28.738	$GPGGA,090229,2543.7350,N,08006.0303,W,1,8,2.0,16,M,,M,,*52
06/03/2014	09:02:29.740	$GPGGA,090230,2543.7368,N,08006.0308,W,1,8,2.0,16,M,,M,,*5A
06/03/2014	09:02:30.595	$GPGGA,090231,2543.7389,N,08006.0311,W,1,7,2.4,16,M,,M,,*57
06/03/2014	09:02:31.577	$GPGGA,090232,2543.7408,N,08006.0314,W,1,7,2.4,16,M,,M,,*5F
06/03/2014	09:02:32.570	$GPGGA,090233,2543.7408,N,08006.0314,W,1,7,2.4,16,M,,M,,*5E
06/03/2014	09:02:33.582	$GPGGA,090234,2543.7446,N,08006.0323,W,1,7,2.0,16,M,,M,,*53
06/03/2014	09:02:34.605	$GPGGA,090235,2543.7465,N,08006.0326,W,1,8,2.0,16,M,,M,,*59
06/03/2014	09:02:35.587	$GPGGA,090236,2543.7484,N,08006.0332,W,1,8,2.0,16,M,,M,,*50
06/03/2014	09:02:36.600	$GPGGA,090237,2543.7502,N,08006.0333,W,1,8,2.0,16,M,,M,,*5F
06/03/2014	09:02:37.572	$GPGGA,090238,2543.7523,N,08006.0336,W,1,8,2.0,16,M,,M,,*56
06/03/2014	09:02:38.595	$GPGGA,090239,2543.7542,N,08006.0340,W,1,8,2.0,16,M,,M,,*51
06/03/2014	09:02:39.597	$GPGGA,090240,2543.7562,N,08006.0343,W,1,8,2.0,16,M,,M,,*5E
06/03/2014	09:02:40.590	$GPGGA,090241,2543.7581,N,08006.0345,W,1,8,2.0,16,M,,M,,*54
06/03/2014	09:02:41.572	$GPGGA,090242,2543.7602,N,08006.0348,W,1,8,2.0,16,M,,M,,*52
06/03/2014	09:02:42.595	$GPGGA,090243,2543.7621,N,08006.0350,W,1,7,2.1,16,M,,M,,*55
06/03/2014	09:02:43.597	$GPGGA,090244,2543.7639,N,08006.0352,W,1,7,2.0,16,M,,M,,*58
06/03/2014	09:02:44.610	$GPGGA,090245,2543.7661,N,08006.0354,W,1,8,2.0,16,M,,M,,*5D
06/03/2014	09:02:45.572	$GPGGA,090246,2543.7681,N,08006.0355,W,1,8,2.0,16,M,,M,,*51
06/03/2014	09:02:46.614	$GPGGA,090247,2543.7700,N,08006.0358,W,1,8,2.0,16,M,,M,,*55
06/03/2014	09:02:47.586	$GPGGA,090248,2543.7719,N,08006.0359,W,1,8,2.0,16,M,,M,,*53
06/03/2014	09:02:48.609	$GPGGA,090249,2543.7740,N,08006.0361,W,1,8,2.0,16,M,,M,,*55
06/03/2014	09:02:49.571	$GPGGA,090250,2543.7760,N,08006.0360,W,1,8,2.0,16,M,,M,,*5E
06/03/2014	09:02:50.584	$GPGGA,090251,2543.7780,N,08006.0362,W,1,8,2.0,16,M,,M,,*53
06/03/2014	09:02:51.596	$GPGGA,090252,2543.7798,N,08006.0365,W,1,8,2.0,16,M,,M,,*5E
06/03/2014	09:02:52.589	$GPGGA,090253,2543.7819,N,08006.0363,W,1,8,2.0,16,M,,M,,*5F
06/03/2014	09:02:53.601	$GPGGA,090254,2543.7838,N,08006.0365,W,1,8,2.0,16,M,,M,,*5D
06/03/2014	09:02:54.604	$GPGGA,090255,2543.7859,N,08006.0366,W,1,8,2.0,16,M,,M,,*58
06/03/2014	09:02:55.586	$GPGGA,090256,2543.7878,N,08006.0368,W,1,8,2.0,16,M,,M,,*56
06/03/2014	09:02:56.578	$GPGGA,090257,2543.7898,N,08006.0369,W,1,8,2.0,16,M,,M,,*58
06/03/2014	09:02:57.701	$GPGGA,090258,2543.7917,N,08006.0368,W,1,8,2.0,16,M,,M,,*50
06/03/2014	09:02:58.580	$GPGGA,090259,2543.7938,N,08006.0367,W,1,8,2.0,16,M,,M,,*53
06/03/2014	09:02:59.616	$GPGGA,090300,2543.7957,N,08006.0369,W,1,8,2.0,16,M,,M,,*59
06/03/2014	09:03:00.609	$GPGGA,090301,2543.7977,N,08006.0370,W,1,8,2.0,15,M,,M,,*51
06/03/2014	09:03:01.684	$GPGGA,090302,2543.7997,N,08006.0369,W,1,8,2.0,15,M,,M,,*54
06/03/2014	09:03:02.688	$GPGGA,090303,2543.8015,N,08006.0367,W,1,8,2.0,15,M,,M,,*57
06/03/2014	09:03:03.605	$GPGGA,090304,2543.8035,N,08006.0368,W,1,8,2.0,15,M,,M,,*5D
06/03/2014	09:03:04.600	$GPGGA,090305,2543.8055,N,08006.0369,W,1,8,2.0,15,M,,M,,*5B
06/03/2014	09:03:05.580	$GPGGA,090306,2543.8076,N,08006.0368,W,1,8,2.0,15,M,,M,,*58
06/03/2014	09:03:06.602	$GPGGA,090307,2543.8094,N,08006.0366,W,1,8,2.0,15,M,,M,,*5B
06/03/2014	09:03:07.615	$GPGGA,090308,2543.8112,N,08006.0368,W,1,8,2.4,15,M,,M,,*51
06/03/2014	09:03:08.587	$GPGGA,090309,2543.8133,N,08006.0369,W,1,8,2.0,15,M,,M,,*56
06/03/2014	09:03:09.680	$GPGGA,090310,2543.8152,N,08006.0367,W,1,8,2.0,15,M,,M,,*57
06/03/2014	09:03:10.683	$GPGGA,090311,2543.8172,N,08006.0366,W,1,8,2.0,15,M,,M,,*55
06/03/2014	09:03:11.695	$GPGGA,090312,2543.8192,N,08006.0368,W,1,8,2.0,15,M,,M,,*56
06/03/2014	09:03:12.688	$GPGGA,090313,2543.8212,N,08006.0369,W,1,8,2.0,15,M,,M,,*5D
06/03/2014	09:03:13.690	$GPGGA,090314,2543.8231,N,08006.0368,W,1,8,2.0,15,M,,M,,*5A
06/03/2014	09:03:14.704	$GPGGA,090315,2543.8249,N,08006.0368,W,1,8,2.0,14,M,,M,,*55
06/03/2014	09:03:15.718	$GPGGA,090316,2543.8268,N,08006.0369,W,1,8,2.0,14,M,,M,,*54
06/03/2014	09:03:16.718	$GPGGA,090317,2543.8289,N,08006.0369,W,1,8,2.0,14,M,,M,,*5A
06/03/2014	09:03:17.690	$GPGGA,090318,2543.8308,N,08006.0369,W,1,8,2.0,14,M,,M,,*5D
06/03/2014	09:03:18.704	$GPGGA,090319,2543.8329,N,08006.0370,W,1,8,2.0,14,M,,M,,*57
06/03/2014	09:03:19.695	$GPGGA,090320,2543.8349,N,08006.0372,W,1,8,2.0,14,M,,M,,*59
06/03/2014	09:03:20.708	$GPGGA,090321,2543.8369,N,08006.0372,W,1,8,2.0,14,M,,M,,*5A
06/03/2014	09:03:21.689	$GPGGA,090322,2543.8387,N,08006.0373,W,1,8,2.0,14,M,,M,,*58
06/03/2014	09:03:22.712	$GPGGA,090323,2543.8408,N,08006.0374,W,1,8,2.0,14,M,,M,,*5E
06/03/2014	09:03:23.704	$GPGGA,090324,2543.8427,N,08006.0376,W,1,8,2.0,14,M,,M,,*56
06/03/2014	09:03:24.717	$GPGGA,090325,2543.8448,N,08006.0377,W,1,8,2.0,14,M,,M,,*5F
06/03/2014	09:03:25.689	$GPGGA,090326,2543.8466,N,08006.0380,W,1,8,2.0,14,M,,M,,*58
06/03/2014	09:03:26.692	$GPGGA,090327,2543.8483,N,08006.0381,W,1,7,2.3,13,M,,M,,*58
06/03/2014	09:03:27.714	$GPGGA,090328,2543.8501,N,08006.0383,W,1,7,2.0,13,M,,M,,*5D
06/03/2014	09:03:28.727	$GPGGA,090329,2543.8520,N,08006.0386,W,1,7,2.4,13,M,,M,,*5E
06/03/2014	09:03:29.699	$GPGGA,090330,2543.8538,N,08006.0388,W,1,7,2.4,13,M,,M,,*51
06/03/2014	09:03:30.583	$GPGGA,090331,2543.8556,N,08006.0394,W,1,8,2.0,13,M,,M,,*5E
06/03/2014	09:03:31.555	$GPGGA,090332,2543.8575,N,08006.0395,W,1,8,2.0,13,M,,M,,*5D
06/03/2014	09:03:32.548	$GPGGA,090333,2543.8596,N,08006.0398,W,1,8,2.0,13,M,,M,,*5C
06/03/2014	09:03:33.550	$GPGGA,090334,2543.8614,N,08006.0404,W,1,8,2.4,13,M,,M,,*54
06/03/2014	09:03:34.563	$GPGGA,090335,2543.8633,N,08006.0408,W,1,8,2.0,13,M,,M,,*58
06/03/2014	09:03:35.566	$GPGGA,090336,2543.8654,N,08006.0410,W,1,8,2.4,13,M,,M,,*57
06/03/2014	09:03:36.568	$GPGGA,090337,2543.8674,N,08006.0412,W,1,7,2.4,13,M,,M,,*59
06/03/2014	09:03:37.540	$GPGGA,090338,2543.8694,N,08006.0417,W,1,7,2.4,13,M,,M,,*5D
06/03/2014	09:03:38.539	$GPGGA,090339,2543.8712,N,08006.0421,W,1,7,2.4,13,M,,M,,*56
06/03/2014	09:03:39.574	$GPGGA,090340,2543.8730,N,08006.0426,W,1,7,2.0,13,M,,M,,*5B
06/03/2014	09:03:40.541	$GPGGA,090341,2543.8751,N,08006.0428,W,1,8,2.0,13,M,,M,,*5C
06/03/2014	09:03:41.559	$GPGGA,090342,2543.8769,N,08006.0431,W,1,8,2.0,13,M,,M,,*5C
06/03/2014	09:03:42.582	$GPGGA,090343,2543.8788,N,08006.0437,W,1,8,2.0,13,M,,M,,*54
06/03/2014	09:03:43.564	$GPGGA,090344,2543.8810,N,08006.0441,W,1,8,2.4,13,M,,M,,*58
06/03/2014	09:03:44.567	$GPGGA,090345,2543.8828,N,08006.0442,W,1,8,2.0,13,M,,M,,*55
06/03/2014	09:03:45.554	$GPGGA,090346,2543.8849,N,08006.0445,W,1,8,2.0,13,M,,M,,*56
06/03/2014	09:03:46.551	$GPGGA,090347,2543.8867,N,08006.0452,W,1,8,2.0,14,M,,M,,*5A
06/03/2014	09:03:47.574	$GPGGA,090348,2543.8889,N,08006.0453,W,1,8,2.0,14,M,,M,,*54
06/03/2014	09:03:48.546	$GPGGA,090349,2543.8907,N,08006.0456,W,1,7,2.4,14,M,,M,,*5C
06/03/2014	09:03:49.669	$GPGGA,090350,2543.8928,N,08006.0460,W,1,7,2.0,14,M,,M,,*58
06/03/2014	09:03:50.560	$GPGGA,090351,2543.8947,N,08006.0464,W,1,8,2.0,14,M,,M,,*5B
06/03/2014	09:03:51.684	$GPGGA,090352,2543.8967,N,08006.0467,W,1,8,2.0,14,M,,M,,*59
06/03/2014	09:03:52.546	$GPGGA,090353,2543.8987,N,08006.0470,W,1,8,2.0,14,M,,M,,*50
06/03/2014	09:03:53.563	$GPGGA,090354,2543.9007,N,08006.0473,W,1,8,2.0,14,M,,M,,*54
06/03/2014	09:03:54.567	$GPGGA,090355,2543.9026,N,08006.0477,W,1,8,2.0,14,M,,M,,*52
06/03/2014	09:03:55.584	$GPGGA,090356,2543.9048,N,08006.0480,W,1,8,2.0,14,M,,M,,*51
06/03/2014	09:03:56.583	$GPGGA,090357,2543.9069,N,08006.0481,W,1,8,2.0,15,M,,M,,*53
06/03/2014	09:03:57.676	$GPGGA,090358,2543.9087,N,08006.0484,W,1,8,2.0,15,M,,M,,*59
06/03/2014	09:03:58.674	$GPGGA,090359,2543.9106,N,08006.0488,W,1,8,2.0,15,M,,M,,*5C
06/03/2014	09:03:59.683	$GPGGA,090400,2543.9126,N,08006.0491,W,1,8,2.0,15,M,,M,,*5D
06/03/2014	09:04:00.696	$GPGGA,090401,2543.9145,N,08006.0490,W,1,8,2.0,15,M,,M,,*58
06/03/2014	09:04:01.668	$GPGGA,090402,2543.9166,N,08006.0493,W,1,8,2.0,15,M,,M,,*59
06/03/2014	09:04:02.661	$GPGGA,090403,2543.9186,N,08006.0495,W,1,8,2.0,15,M,,M,,*50
06/03/2014	09:04:03.673	$GPGGA,090404,2543.9207,N,08006.0496,W,1,8,2.0,15,M,,M,,*5E
06/03/2014	09:04:04.656	$GPGGA,090405,2543.9225,N,08006.0498,W,1,8,2.0,15,M,,M,,*51
06/03/2014	09:04:05.668	$GPGGA,090406,2543.9245,N,08006.0502,W,1,8,2.0,15,M,,M,,*56
06/03/2014	09:04:06.681	$GPGGA,090407,2543.9264,N,08006.0500,W,1,8,2.0,15,M,,M,,*56
06/03/2014	09:04:07.683	$GPGGA,090408,2543.9283,N,08006.0500,W,1,8,2.0,15,M,,M,,*50
06/03/2014	09:04:08.686	$GPGGA,090409,2543.9303,N,08006.0500,W,1,8,2.0,15,M,,M,,*58
06/03/2014	09:04:09.658	$GPGGA,090410,2543.9322,N,08006.0502,W,1,8,2.0,15,M,,M,,*51
06/03/2014	09:04:10.681	$GPGGA,090411,2543.9341,N,08006.0501,W,1,8,2.0,15,M,,M,,*56
06/03/2014	09:04:11.713	$GPGGA,090412,2543.9359,N,08006.0502,W,1,8,2.0,15,M,,M,,*5F
06/03/2014	09:04:12.686	$GPGGA,090413,2543.9379,N,08006.0499,W,1,8,2.0,15,M,,M,,*5F
06/03/2014	09:04:13.657	$GPGGA,090414,2543.9398,N,08006.0499,W,1,8,2.0,15,M,,M,,*57
06/03/2014	09:04:14.700	$GPGGA,090415,2543.9417,N,08006.0497,W,1,8,2.0,15,M,,M,,*58
06/03/2014	09:04:15.672	$GPGGA,090416,2543.9437,N,08006.0495,W,1,8,2.0,15,M,,M,,*5B
06/03/2014	09:04:16.695	$GPGGA,090417,2543.9456,N,08006.0496,W,1,8,2.0,15,M,,M,,*5E
06/03/2014	09:04:17.667	$GPGGA,090418,2543.9474,N,08006.0495,W,1,8,2.0,15,M,,M,,*52
06/03/2014	09:04:18.700	$GPGGA,090419,2543.9495,N,08006.0492,W,1,8,2.0,15,M,,M,,*5B
06/03/2014	09:04:19.672	$GPGGA,090420,2543.9513,N,08006.0491,W,1,8,2.0,15,M,,M,,*5D
06/03/2014	09:04:20.705	$GPGGA,090421,2543.9531,N,08006.0490,W,1,8,2.0,15,M,,M,,*5D
06/03/2014	09:04:21.657	$GPGGA,090422,2543.9550,N,08006.0489,W,1,8,2.0,15,M,,M,,*51
06/03/2014	09:04:22.670	$GPGGA,090423,2543.9568,N,08006.0487,W,1,8,2.0,15,M,,M,,*55
06/03/2014	09:04:23.692	$GPGGA,090424,2543.9587,N,08006.0486,W,1,8,2.0,15,M,,M,,*52
06/03/2014	09:04:24.705	$GPGGA,090425,2543.9604,N,08006.0484,W,1,8,2.0,15,M,,M,,*59
06/03/2014	09:04:25.667	$GPGGA,090426,2543.9623,N,08006.0482,W,1,8,2.0,15,M,,M,,*59
06/03/2014	09:04:26.700	$GPGGA,090427,2543.9643,N,08006.0481,W,1,8,2.0,14,M,,M,,*5C
06/03/2014	09:04:27.683	$GPGGA,090428,2543.9661,N,08006.0479,W,1,8,2.0,14,M,,M,,*54
06/03/2014	09:04:28.685	$GPGGA,090429,2543.9680,N,08006.0480,W,1,8,2.0,14,M,,M,,*5C
06/03/2014	09:04:29.677	$GPGGA,090430,2543.9699,N,08006.0477,W,1,8,2.0,14,M,,M,,*54
06/03/2014	09:04:30.541	$GPGGA,090431,2543.9717,N,08006.0475,W,1,8,2.0,14,M,,M,,*50
06/03/2014	09:04:31.533	$GPGGA,090432,2543.9735,N,08006.0473,W,1,8,2.0,14,M,,M,,*55
06/03/2014	09:04:32.525	$GPGGA,090433,2543.9753,N,08006.0473,W,1,7,2.3,14,M,,M,,*58
06/03/2014	09:04:33.618	$GPGGA,090434,2543.9770,N,08006.0471,W,1,7,2.0,14,M,,M,,*5F
06/03/2014	09:04:34.522	$GPGGA,090435,2543.9788,N,08006.0468,W,1,8,2.0,14,M,,M,,*5E
06/03/2014	09:04:35.633	$GPGGA,090436,2543.9806,N,08006.0467,W,1,8,2.0,14,M,,M,,*5B
06/03/2014	09:04:36.720	$GPGGA,090437,2543.9829,N,08006.0470,W,1,7,2.0,14,M,,M,,*5E
06/03/2014	09:04:37.528	$GPGGA,090438,2543.9850,N,08006.0469,W,1,7,2.0,14,M,,M,,*57
06/03/2014	09:04:38.641	$GPGGA,090439,2543.9872,N,08006.0467,W,1,8,2.0,14,M,,M,,*57
06/03/2014	09:04:39.543	$GPGGA,090440,2543.9890,N,08006.0467,W,1,8,2.0,14,M,,M,,*55
06/03/2014	09:04:40.545	$GPGGA,090441,2543.9910,N,08006.0469,W,1,8,2.0,14,M,,M,,*53
06/03/2014	09:04:41.518	$GPGGA,090442,2543.9930,N,08006.0466,W,1,8,2.0,14,M,,M,,*5D
06/03/2014	09:04:42.540	$GPGGA,090443,2543.9950,N,08006.0465,W,1,8,2.0,14,M,,M,,*59
06/03/2014	09:04:43.635	$GPGGA,090444,2543.9969,N,08006.0469,W,1,8,2.0,14,M,,M,,*58
06/03/2014	09:04:44.626	$GPGGA,090445,2543.9990,N,08006.0468,W,1,8,2.0,14,M,,M,,*5E
06/03/2014	09:04:45.648	$GPGGA,090446,2544.0009,N,08006.0466,W,1,8,2.0,14,M,,M,,*54
06/03/2014	09:04:46.711	$GPGGA,090447,2544.0027,N,08006.0467,W,1,8,2.0,14,M,,M,,*58
06/03/2014	09:04:47.633	$GPGGA,090448,2544.0048,N,08006.0469,W,1,8,2.0,14,M,,M,,*50
06/03/2014	09:04:48.715	$GPGGA,090449,2544.0067,N,08006.0468,W,1,8,2.0,14,M,,M,,*5D
06/03/2014	09:04:49.647	$GPGGA,090450,2544.0087,N,08006.0470,W,1,8,2.0,14,M,,M,,*52
06/03/2014	09:04:50.740	$GPGGA,090451,2544.0107,N,08006.0469,W,1,8,2.0,14,M,,M,,*52
06/03/2014	09:04:51.672	$GPGGA,090452,2544.0127,N,08006.0470,W,1,8,2.0,14,M,,M,,*5B
06/03/2014	09:04:52.735	$GPGGA,090453,2544.0146,N,08006.0473,W,1,8,2.0,14,M,,M,,*5E
06/03/2014	09:04:53.657	$GPGGA,090454,2544.0164,N,08006.0472,W,1,8,2.0,14,M,,M,,*58
06/03/2014	09:04:54.630	$GPGGA,090455,2544.0183,N,08006.0473,W,1,8,2.0,14,M,,M,,*51
06/03/2014	09:04:55.692	$GPGGA,090456,2544.0204,N,08006.0473,W,1,8,2.0,14,M,,M,,*5E
06/03/2014	09:04:56.735	$GPGGA,090457,2544.0224,N,08006.0472,W,1,8,2.0,14,M,,M,,*5C
06/03/2014	09:04:57.657	$GPGGA,090458,2544.0243,N,08006.0474,W,1,8,2.0,14,M,,M,,*54
06/03/2014	09:04:58.750	$GPGGA,090459,2544.0262,N,08006.0475,W,1,8,2.0,14,M,,M,,*57
06/03/2014	09:04:59.681	$GPGGA,090500,2544.0282,N,08006.0475,W,1,8,2.0,14,M,,M,,*54
06/03/2014	09:05:00.755	$GPGGA,090501,2544.0301,N,08006.0477,W,1,8,2.0,14,M,,M,,*5D
06/03/2014	09:05:01.627	$GPGGA,090502,2544.0319,N,08006.0478,W,1,8,2.0,14,M,,M,,*58
06/03/2014	09:05:02.700	$GPGGA,090503,2544.0338,N,08006.0478,W,1,8,2.0,14,M,,M,,*5A
06/03/2014	09:05:03.672	$GPGGA,090504,2544.0358,N,08006.0477,W,1,8,2.0,14,M,,M,,*54
06/03/2014	09:05:04.635	$GPGGA,090505,2544.0377,N,08006.0478,W,1,8,2.0,14,M,,M,,*57
06/03/2014	09:05:05.626	$GPGGA,090506,2544.0396,N,08006.0480,W,1,8,2.0,14,M,,M,,*5C
06/03/2014	09:05:06.739	$GPGGA,090507,2544.0416,N,08006.0480,W,1,8,2.0,14,M,,M,,*52
06/03/2014	09:05:07.681	$GPGGA,090508,2544.0434,N,08006.0480,W,1,8,2.0,14,M,,M,,*5D
06/03/2014	09:05:08.724	$GPGGA,090509,2544.0453,N,08006.0481,W,1,8,2.0,13,M,,M,,*5B
06/03/2014	09:05:09.666	$GPGGA,090510,2544.0472,N,08006.0484,W,1,8,2.0,13,M,,M,,*55
06/03/2014	09:05:10.749	$GPGGA,090511,2544.0492,N,08006.0483,W,1,8,2.0,13,M,,M,,*5D
06/03/2014	09:05:11.681	$GPGGA,090512,2544.0511,N,08006.0484,W,1,8,2.0,13,M,,M,,*53
06/03/2014	09:05:12.754	$GPGGA,090513,2544.0532,N,08006.0485,W,1,8,2.0,13,M,,M,,*52
06/03/2014	09:05:13.646	$GPGGA,090514,2544.0551,N,08006.0486,W,1,8,2.0,13,M,,M,,*53
06/03/2014	09:05:14.749	$GPGGA,090515,2544.0569,N,08006.0488,W,1,8,2.0,13,M,,M,,*57
06/03/2014	09:05:15.691	$GPGGA,090516,2544.0589,N,08006.0489,W,1,8,2.0,13,M,,M,,*5B
06/03/2014	09:05:16.633	$GPGGA,090517,2544.0607,N,08006.0491,W,1,8,2.0,13,M,,M,,*56
06/03/2014	09:05:17.686	$GPGGA,090518,2544.0627,N,08006.0490,W,1,8,2.0,13,M,,M,,*5A
06/03/2014	09:05:18.759	$GPGGA,090519,2544.0645,N,08006.0491,W,1,8,2.0,13,M,,M,,*5E
06/03/2014	09:05:19.651	$GPGGA,090520,2544.0666,N,08006.0492,W,1,8,2.0,13,M,,M,,*56
06/03/2014	09:05:20.633	$GPGGA,090521,2544.0685,N,08006.0495,W,1,8,2.0,13,M,,M,,*5D
06/03/2014	09:05:21.736	$GPGGA,090522,2544.0706,N,08006.0494,W,1,8,2.0,13,M,,M,,*55
06/03/2014	09:05:22.719	$GPGGA,090523,2544.0725,N,08006.0495,W,1,8,2.0,13,M,,M,,*54
06/03/2014	09:05:23.690	$GPGGA,090524,2544.0743,N,08006.0496,W,1,8,2.0,13,M,,M,,*50
06/03/2014	09:05:24.723	$GPGGA,090525,2544.0764,N,08006.0496,W,1,8,2.0,13,M,,M,,*54
06/03/2014	09:05:25.745	$GPGGA,090526,2544.0782,N,08006.0495,W,1,8,2.0,13,M,,M,,*5C
06/03/2014	09:05:26.718	$GPGGA,090527,2544.0802,N,08006.0496,W,1,8,2.0,13,M,,M,,*59
06/03/2014	09:05:27.770	$GPGGA,090528,2544.0821,N,08006.0498,W,1,8,2.0,12,M,,M,,*58
06/03/2014	09:05:28.753	$GPGGA,090529,2544.0840,N,08006.0496,W,1,8,2.0,12,M,,M,,*50
06/03/2014	09:05:29.765	$GPGGA,090530,2544.0861,N,08006.0494,W,1,8,2.0,12,M,,M,,*59
06/03/2014	09:05:30.629	$GPGGA,090531,2544.0880,N,08006.0496,W,1,8,2.0,12,M,,M,,*55
06/03/2014	09:05:31.551	$GPGGA,090532,2544.0898,N,08006.0498,W,1,8,2.0,12,M,,M,,*51
06/03/2014	09:05:32.594	$GPGGA,090533,2544.0919,N,08006.0493,W,1,8,2.0,12,M,,M,,*53
06/03/2014	09:05:33.616	$GPGGA,090534,2544.0937,N,08006.0492,W,1,8,2.0,12,M,,M,,*59
06/03/2014	09:05:34.619	$GPGGA,090535,2544.0955,N,08006.0493,W,1,8,2.0,12,M,,M,,*5D
06/03/2014	09:05:35.621	$GPGGA,090536,2544.0974,N,08006.0491,W,1,8,2.0,12,M,,M,,*5F
06/03/2014	09:05:36.614	$GPGGA,090537,2544.0992,N,08006.0488,W,1,8,2.0,12,M,,M,,*5E
06/03/2014	09:05:37.606	$GPGGA,090538,2544.1013,N,08006.0486,W,1,8,2.0,12,M,,M,,*5E
06/03/2014	09:05:38.620	$GPGGA,090539,2544.1031,N,08006.0484,W,1,8,2.0,12,M,,M,,*5D
06/03/2014	09:05:39.628	$GPGGA,090540,2544.1052,N,08006.0482,W,1,8,2.0,12,M,,M,,*50
06/03/2014	09:05:40.623	$GPGGA,090541,2544.1070,N,08006.0482,W,1,8,2.0,12,M,,M,,*51
06/03/2014	09:05:41.595	$GPGGA,090542,2544.1089,N,08006.0479,W,1,8,2.0,12,M,,M,,*50
06/03/2014	09:05:42.629	$GPGGA,090543,2544.1109,N,08006.0473,W,1,8,2.0,12,M,,M,,*52
06/03/2014	09:05:43.642	$GPGGA,090544,2544.1125,N,08006.0471,W,1,8,2.0,11,M,,M,,*5A
06/03/2014	09:05:44.623	$GPGGA,090545,2544.1146,N,08006.0470,W,1,8,2.0,11,M,,M,,*5F
06/03/2014	09:05:45.595	$GPGGA,090546,2544.1165,N,08006.0467,W,1,8,2.0,11,M,,M,,*5B
06/03/2014	09:05:46.688	$GPGGA,090547,2544.1183,N,08006.0463,W,1,8,2.0,11,M,,M,,*56
06/03/2014	09:05:47.620	$GPGGA,090548,2544.1201,N,08006.0459,W,1,8,2.0,11,M,,M,,*59
06/03/2014	09:05:48.654	$GPGGA,090549,2544.1221,N,08006.0455,W,1,8,2.0,11,M,,M,,*56
06/03/2014	09:05:49.605	$GPGGA,090550,2544.1240,N,08006.0452,W,1,8,2.0,11,M,,M,,*5E
06/03/2014	09:05:50.688	$GPGGA,090551,2544.1259,N,08006.0449,W,1,8,2.0,11,M,,M,,*5D
06/03/2014	09:05:51.620	$GPGGA,090552,2544.1277,N,08006.0445,W,1,8,2.0,11,M,,M,,*5E
06/03/2014	09:05:52.633	$GPGGA,090553,2544.1295,N,08006.0438,W,1,8,2.0,11,M,,M,,*59
06/03/2014	09:05:53.605	$GPGGA,090554,2544.1315,N,08006.0435,W,1,8,2.0,11,M,,M,,*5A
06/03/2014	09:05:54.648	$GPGGA,090555,2544.1334,N,08006.0433,W,1,8,2.0,11,M,,M,,*5E
06/03/2014	09:05:55.630	$GPGGA,090556,2544.1353,N,08006.0428,W,1,8,2.0,11,M,,M,,*56
06/03/2014	09:05:56.643	$GPGGA,090557,2544.1371,N,08006.0424,W,1,8,2.0,11,M,,M,,*5B
06/03/2014	09:05:57.615	$GPGGA,090558,2544.1391,N,08006.0420,W,1,8,2.0,11,M,,M,,*5E
06/03/2014	09:05:58.657	$GPGGA,090559,2544.1410,N,08006.0413,W,1,8,2.0,11,M,,M,,*51
06/03/2014	09:05:59.639	$GPGGA,090600,2544.1428,N,08006.0411,W,1,8,2.0,11,M,,M,,*57
06/03/2014	09:06:00.675	$GPGGA,090601,2544.1447,N,08006.0408,W,1,8,2.0,11,M,,M,,*57
06/03/2014	09:06:01.634	$GPGGA,090602,2544.1465,N,08006.0402,W,1,8,2.0,10,M,,M,,*5F
06/03/2014	09:06:02.627	$GPGGA,090603,2544.1465,N,08006.0402,W,1,8,2.0,10,M,,M,,*5E
06/03/2014	09:06:03.639	$GPGGA,090604,2544.1504,N,08006.0392,W,1,8,2.0,10,M,,M,,*51
06/03/2014	09:06:04.683	$GPGGA,090605,2544.1523,N,08006.0390,W,1,8,2.0,10,M,,M,,*57
06/03/2014	09:06:05.624	$GPGGA,090606,2544.1541,N,08006.0386,W,1,8,2.0,10,M,,M,,*57
06/03/2014	09:06:06.667	$GPGGA,090607,2544.1561,N,08006.0379,W,1,8,2.0,10,M,,M,,*54
06/03/2014	09:06:07.739	$GPGGA,090608,2544.1580,N,08006.0377,W,1,8,2.0,10,M,,M,,*5A
06/03/2014	09:06:08.632	$GPGGA,090609,2544.1580,N,08006.0377,W,1,8,2.0,10,M,,M,,*5B
06/03/2014	09:06:09.624	$GPGGA,090610,2544.1617,N,08006.0372,W,1,8,2.0,10,M,,M,,*5B
06/03/2014	09:06:10.616	$GPGGA,090611,2544.1617,N,08006.0372,W,1,8,2.0,10,M,,M,,*5A
06/03/2014	09:06:11.649	$GPGGA,090612,2544.1656,N,08006.0366,W,1,8,2.0,10,M,,M,,*59
06/03/2014	09:06:12.682	$GPGGA,090613,2544.1674,N,08006.0364,W,1,8,2.0,10,M,,M,,*5A
06/03/2014	09:06:13.714	$GPGGA,090614,2544.1693,N,08006.0361,W,1,8,2.0,10,M,,M,,*51
06/03/2014	09:06:14.637	$GPGGA,090615,2544.1693,N,08006.0361,W,1,8,2.0,10,M,,M,,*50
06/03/2014	09:06:15.618	$GPGGA,090616,2544.1732,N,08006.0357,W,1,8,2.0,10,M,,M,,*5C
06/03/2014	09:06:16.623	$GPGGA,090617,2544.1732,N,08006.0357,W,1,8,2.0,10,M,,M,,*5D
06/03/2014	09:06:17.623	$GPGGA,090618,2544.1772,N,08006.0351,W,1,8,2.0,10,M,,M,,*50
06/03/2014	09:06:18.686	$GPGGA,090619,2544.1772,N,08006.0351,W,1,8,2.0,10,M,,M,,*51
06/03/2014	09:06:19.718	$GPGGA,090620,2544.1810,N,08006.0348,W,1,8,2.0,10,M,,M,,*58
06/03/2014	09:06:20.726	$GPGGA,090621,2544.1828,N,08006.0345,W,1,7,2.3,10,M,,M,,*53
06/03/2014	09:06:21.728	$GPGGA,090622,2544.1848,N,08006.0342,W,1,7,2.3,10,M,,M,,*51
06/03/2014	09:06:22.726	$GPGGA,090623,2544.1869,N,08006.0343,W,1,7,2.3,10,M,,M,,*52
06/03/2014	09:06:23.733	$GPGGA,090624,2544.1890,N,08006.0341,W,1,7,2.0,10,M,,M,,*52
06/03/2014	09:06:24.751	$GPGGA,090625,2544.1909,N,08006.0339,W,1,8,2.0,10,M,,M,,*52
06/03/2014	09:06:25.723	$GPGGA,090626,2544.1927,N,08006.0340,W,1,8,2.0,10,M,,M,,*53
06/03/2014	09:06:26.737	$GPGGA,090627,2544.1949,N,08006.0337,W,1,8,2.0,10,M,,M,,*5A
06/03/2014	09:06:27.744	$GPGGA,090628,2544.1969,N,08006.0336,W,1,8,2.0,10,M,,M,,*56
06/03/2014	09:06:28.743	$GPGGA,090629,2544.1989,N,08006.0337,W,1,8,2.0,10,M,,M,,*58
06/03/2014	09:06:29.733	$GPGGA,090630,2544.2009,N,08006.0335,W,1,8,2.0,10,M,,M,,*50
06/03/2014	09:06:30.600	$GPGGA,090631,2544.2029,N,08006.0333,W,1,8,2.0,10,M,,M,,*55
06/03/2014	09:06:31.590	$GPGGA,090632,2544.2047,N,08006.0333,W,1,8,2.0,10,M,,M,,*5E
06/03/2014	09:06:32.593	$GPGGA,090633,2544.2047,N,08006.0333,W,1,8,2.0,10,M,,M,,*5F
06/03/2014	09:06:33.574	$GPGGA,090634,2544.2086,N,08006.0330,W,1,8,2.0,10,M,,M,,*56
06/03/2014	09:06:34.597	$GPGGA,090635,2544.2107,N,08006.0329,W,1,7,2.3,10,M,,M,,*5B
06/03/2014	09:06:35.589	$GPGGA,090636,2544.2128,N,08006.0327,W,1,7,2.0,10,M,,M,,*58
06/03/2014	09:06:36.602	$GPGGA,090637,2544.2148,N,08006.0327,W,1,8,2.0,10,M,,M,,*50
06/03/2014	09:06:37.584	$GPGGA,090638,2544.2168,N,08006.0327,W,1,8,2.0,10,M,,M,,*5D
06/03/2014	09:06:38.597	$GPGGA,090639,2544.2186,N,08006.0325,W,1,8,2.0,10,M,,M,,*5E
06/03/2014	09:06:39.599	$GPGGA,090640,2544.2206,N,08006.0325,W,1,8,2.3,10,M,,M,,*58
06/03/2014	09:06:40.602	$GPGGA,090641,2544.2229,N,08006.0325,W,1,8,2.0,10,M,,M,,*57
06/03/2014	09:06:41.594	$GPGGA,090642,2544.2249,N,08006.0325,W,1,8,2.0,10,M,,M,,*52
06/03/2014	09:06:42.607	$GPGGA,090643,2544.2267,N,08006.0323,W,1,8,2.0,10,M,,M,,*59
06/03/2014	09:06:43.599	$GPGGA,090644,2544.2288,N,08006.0323,W,1,8,2.0,10,M,,M,,*5F
06/03/2014	09:06:44.572	$GPGGA,090645,2544.2309,N,08006.0321,W,1,8,2.0,10,M,,M,,*54
06/03/2014	09:06:45.584	$GPGGA,090646,2544.2328,N,08006.0319,W,1,8,2.0,10,M,,M,,*5F
06/03/2014	09:06:46.608	$GPGGA,090647,2544.2347,N,08006.0321,W,1,8,2.0,10,M,,M,,*5C
06/03/2014	09:06:47.599	$GPGGA,090648,2544.2367,N,08006.0319,W,1,8,2.0,10,M,,M,,*5A
06/03/2014	09:06:48.572	$GPGGA,090649,2544.2388,N,08006.0315,W,1,8,2.0,10,M,,M,,*56
06/03/2014	09:06:49.594	$GPGGA,090650,2544.2408,N,08006.0314,W,1,8,2.0,10,M,,M,,*50
06/03/2014	09:06:50.596	$GPGGA,090651,2544.2428,N,08006.0315,W,1,8,2.0,10,M,,M,,*52
06/03/2014	09:06:51.608	$GPGGA,090652,2544.2448,N,08006.0313,W,1,8,2.0,10,M,,M,,*51
06/03/2014	09:06:52.591	$GPGGA,090653,2544.2468,N,08006.0309,W,1,8,2.0,10,M,,M,,*59
06/03/2014	09:06:53.703	$GPGGA,090654,2544.2487,N,08006.0308,W,1,8,2.0,10,M,,M,,*5E
06/03/2014	09:06:54.606	$GPGGA,090655,2544.2506,N,08006.0307,W,1,8,2.0,10,M,,M,,*58
06/03/2014	09:06:55.608	$GPGGA,090656,2544.2527,N,08006.0304,W,1,8,2.0,10,M,,M,,*5B
06/03/2014	09:06:56.611	$GPGGA,090657,2544.2545,N,08006.0302,W,1,8,2.0,10,M,,M,,*58
06/03/2014	09:06:57.583	$GPGGA,090658,2544.2566,N,08006.0301,W,1,8,2.0,10,M,,M,,*55
06/03/2014	09:06:58.596	$GPGGA,090659,2544.2585,N,08006.0298,W,1,8,2.0,10,M,,M,,*58
06/03/2014	09:06:59.608	$GPGGA,090700,2544.2606,N,08006.0294,W,1,8,2.0,10,M,,M,,*51
06/03/2014	09:07:00.701	$GPGGA,090701,2544.2625,N,08006.0293,W,1,8,2.0,10,M,,M,,*56
06/03/2014	09:07:01.583	$GPGGA,090702,2544.2643,N,08006.0292,W,1,8,2.0,10,M,,M,,*54
06/03/2014	09:07:02.706	$GPGGA,090703,2544.2663,N,08006.0287,W,1,8,2.0,10,M,,M,,*53
06/03/2014	09:07:03.599	$GPGGA,090704,2544.2682,N,08006.0284,W,1,8,2.0,10,M,,M,,*58
06/03/2014	09:07:04.721	$GPGGA,090705,2544.2697,N,08006.0280,W,1,7,2.1,10,M,,M,,*57
06/03/2014	09:07:05.697	$GPGGA,090706,2544.2717,N,08006.0276,W,1,7,2.0,10,M,,M,,*55
06/03/2014	09:07:06.716	$GPGGA,090707,2544.2735,N,08006.0273,W,1,8,2.0,10,M,,M,,*5E
06/03/2014	09:07:07.618	$GPGGA,090708,2544.2753,N,08006.0269,W,1,8,2.0,10,M,,M,,*5A
06/03/2014	09:07:08.691	$GPGGA,090709,2544.2771,N,08006.0266,W,1,8,2.0,10,M,,M,,*54
06/03/2014	09:07:09.594	$GPGGA,090710,2544.2790,N,08006.0261,W,1,8,2.0,10,M,,M,,*54
06/03/2014	09:07:10.715	$GPGGA,090711,2544.2808,N,08006.0256,W,1,8,2.0,10,M,,M,,*5F
06/03/2014	09:07:11.707	$GPGGA,090712,2544.2826,N,08006.0253,W,1,8,2.0,10,M,,M,,*55
06/03/2014	09:07:12.680	$GPGGA,090713,2544.2844,N,08006.0249,W,1,8,2.0,10,M,,M,,*5B
06/03/2014	09:07:13.682	$GPGGA,090714,2544.2863,N,08006.0244,W,1,8,2.0,10,M,,M,,*54
06/03/2014	09:07:14.695	$GPGGA,090715,2544.2881,N,08006.0239,W,1,8,2.0,10,M,,M,,*53
06/03/2014	09:07:15.707	$GPGGA,090716,2544.2901,N,08006.0235,W,1,8,2.0,10,M,,M,,*55
06/03/2014	09:07:16.713	$GPGGA,090717,2544.2920,N,08006.0233,W,1,8,2.0,9,M,,M,,*69
06/03/2014	09:07:17.692	$GPGGA,090718,2544.2939,N,08006.0229,W,1,8,2.0,9,M,,M,,*65
06/03/2014	09:07:18.715	$GPGGA,090719,2544.2956,N,08006.0222,W,1,8,2.0,9,M,,M,,*66
06/03/2014	09:07:19.707	$GPGGA,090720,2544.2974,N,08006.0216,W,1,8,2.0,9,M,,M,,*6B
06/03/2014	09:07:20.690	$GPGGA,090721,2544.2993,N,08006.0210,W,1,8,2.0,9,M,,M,,*65
06/03/2014	09:07:21.702	$GPGGA,090722,2544.3011,N,08006.0207,W,1,8,2.0,9,M,,M,,*62
06/03/2014	09:07:22.715	$GPGGA,090723,2544.3029,N,08006.0201,W,1,8,2.0,9,M,,M,,*6E
06/03/2014	09:07:23.720	$GPGGA,090724,2544.3049,N,08006.0198,W,1,8,2.0,9,M,,M,,*6C
06/03/2014	09:07:24.720	$GPGGA,090725,2544.3068,N,08006.0195,W,1,8,2.0,9,M,,M,,*63
06/03/2014	09:07:25.701	$GPGGA,090726,2544.3087,N,08006.0190,W,1,8,2.0,9,M,,M,,*64
06/03/2014	09:07:26.694	$GPGGA,090727,2544.3105,N,08006.0185,W,1,8,2.0,9,M,,M,,*6A
06/03/2014	09:07:27.706	$GPGGA,090728,2544.3126,N,08006.0184,W,1,8,2.0,9,M,,M,,*65
06/03/2014	09:07:28.729	$GPGGA,090729,2544.3145,N,08006.0182,W,1,8,2.0,9,M,,M,,*67
06/03/2014	09:07:29.691	$GPGGA,090730,2544.3163,N,08006.0176,W,1,8,2.0,8,M,,M,,*61
06/03/2014	09:07:30.546	$GPGGA,090731,2544.3183,N,08006.0171,W,1,8,2.0,8,M,,M,,*69
06/03/2014	09:07:31.558	$GPGGA,090732,2544.3203,N,08006.0170,W,1,8,2.0,8,M,,M,,*60
06/03/2014	09:07:32.581	$GPGGA,090733,2544.3221,N,08006.0168,W,1,8,2.0,8,M,,M,,*68
06/03/2014	09:07:33.543	$GPGGA,090734,2544.3241,N,08006.0163,W,1,8,2.0,8,M,,M,,*62
06/03/2014	09:07:34.546	$GPGGA,090735,2544.3260,N,08006.0159,W,1,8,2.0,8,M,,M,,*69
06/03/2014	09:07:35.578	$GPGGA,090736,2544.3279,N,08006.0158,W,1,8,2.0,8,M,,M,,*63
06/03/2014	09:07:36.581	$GPGGA,090737,2544.3297,N,08006.0155,W,1,8,2.0,8,M,,M,,*6F
06/03/2014	09:07:37.563	$GPGGA,090738,2544.3317,N,08006.0149,W,1,8,2.0,8,M,,M,,*64
06/03/2014	09:07:38.556	$GPGGA,090739,2544.3336,N,08006.0146,W,1,8,2.0,8,M,,M,,*69
06/03/2014	09:07:39.578	$GPGGA,090740,2544.3354,N,08006.0146,W,1,8,2.0,8,M,,M,,*63
06/03/2014	09:07:40.540	$GPGGA,090741,2544.3373,N,08006.0142,W,1,8,2.0,8,M,,M,,*63
06/03/2014	09:07:41.673	$GPGGA,090742,2544.3393,N,08006.0138,W,1,8,2.0,8,M,,M,,*63
06/03/2014	09:07:42.545	$GPGGA,090743,2544.3412,N,08006.0137,W,1,8,2.0,8,M,,M,,*63
06/03/2014	09:07:43.677	$GPGGA,090744,2544.3430,N,08006.0135,W,1,8,2.0,8,M,,M,,*66
06/03/2014	09:07:44.570	$GPGGA,090745,2544.3451,N,08006.0131,W,1,8,2.0,8,M,,M,,*64
06/03/2014	09:07:45.652	$GPGGA,090746,2544.3469,N,08006.0128,W,1,8,2.0,8,M,,M,,*64
06/03/2014	09:07:46.585	$GPGGA,090747,2544.3488,N,08006.0128,W,1,7,2.4,8,M,,M,,*61
06/03/2014	09:07:47.577	$GPGGA,090748,2544.3508,N,08006.0127,W,1,7,2.0,8,M,,M,,*6C
06/03/2014	09:07:48.549	$GPGGA,090749,2544.3527,N,08006.0122,W,1,8,2.0,8,M,,M,,*6A
06/03/2014	09:07:49.652	$GPGGA,090750,2544.3546,N,08006.0120,W,1,8,2.0,8,M,,M,,*67
06/03/2014	09:07:50.574	$GPGGA,090751,2544.3564,N,08006.0119,W,1,8,2.0,8,M,,M,,*6C
06/03/2014	09:07:51.567	$GPGGA,090752,2544.3589,N,08006.0118,W,1,8,2.4,8,M,,M,,*69
06/03/2014	09:07:52.579	$GPGGA,090753,2544.3609,N,08006.0117,W,1,8,2.0,8,M,,M,,*68
06/03/2014	09:07:53.652	$GPGGA,090754,2544.3631,N,08006.0117,W,1,8,2.0,8,M,,M,,*64
06/03/2014	09:07:54.554	$GPGGA,090755,2544.3651,N,08006.0116,W,1,8,2.0,8,M,,M,,*62
06/03/2014	09:07:55.667	$GPGGA,090756,2544.3672,N,08006.0112,W,1,8,2.0,8,M,,M,,*64
06/03/2014	09:07:56.673	$GPGGA,090757,2544.3691,N,08006.0110,W,1,8,2.0,8,M,,M,,*6A
06/03/2014	09:07:57.565	$GPGGA,090758,2544.3711,N,08006.0110,W,1,8,2.0,9,M,,M,,*6D
06/03/2014	09:07:58.564	$GPGGA,090759,2544.3730,N,08006.0108,W,1,8,2.0,9,M,,M,,*66
06/03/2014	09:07:59.687	$GPGGA,090800,2544.3748,N,08006.0103,W,1,8,2.0,9,M,,M,,*61
06/03/2014	09:08:00.659	$GPGGA,090801,2544.3766,N,08006.0101,W,1,8,2.0,9,M,,M,,*6E
06/03/2014	09:08:01.673	$GPGGA,090802,2544.3787,N,08006.0100,W,1,8,2.0,9,M,,M,,*63
06/03/2014	09:08:02.664	$GPGGA,090803,2544.3806,N,08006.0097,W,1,8,2.0,9,M,,M,,*6B
06/03/2014	09:08:03.676	$GPGGA,090804,2544.3824,N,08006.0094,W,1,8,2.0,10,M,,M,,*57
06/03/2014	09:08:04.669	$GPGGA,090805,2544.3842,N,08006.0093,W,1,8,2.0,10,M,,M,,*51
06/03/2014	09:08:05.671	$GPGGA,090806,2544.3860,N,08006.0090,W,1,8,2.0,10,M,,M,,*51
06/03/2014	09:08:06.684	$GPGGA,090807,2544.3881,N,08006.0087,W,1,8,2.0,10,M,,M,,*59
06/03/2014	09:08:07.696	$GPGGA,090808,2544.3900,N,08006.0084,W,1,8,2.0,10,M,,M,,*5D
06/03/2014	09:08:08.679	$GPGGA,090809,2544.3918,N,08006.0082,W,1,7,2.0,10,M,,M,,*5C
06/03/2014	09:08:09.671	$GPGGA,090810,2544.3938,N,08006.0080,W,1,7,2.0,10,M,,M,,*54
06/03/2014	09:08:10.684	$GPGGA,090811,2544.3956,N,08006.0077,W,1,8,2.0,10,M,,M,,*5A
06/03/2014	09:08:11.686	$GPGGA,090812,2544.3975,N,08006.0073,W,1,8,2.0,11,M,,M,,*5D
06/03/2014	09:08:12.689	$GPGGA,090813,2544.3994,N,08006.0069,W,1,8,2.0,11,M,,M,,*58
06/03/2014	09:08:13.671	$GPGGA,090814,2544.4012,N,08006.0067,W,1,8,2.0,11,M,,M,,*51
06/03/2014	09:08:14.684	$GPGGA,090815,2544.4030,N,08006.0065,W,1,8,2.0,11,M,,M,,*52
06/03/2014	09:08:15.676	$GPGGA,090816,2544.4048,N,08006.0062,W,1,8,2.0,11,M,,M,,*59
06/03/2014	09:08:16.679	$GPGGA,090817,2544.4068,N,08006.0057,W,1,8,2.0,11,M,,M,,*5C
06/03/2014	09:08:17.662	$GPGGA,090818,2544.4084,N,08006.0053,W,1,8,2.0,11,M,,M,,*55
06/03/2014	09:08:18.693	$GPGGA,090819,2544.4102,N,08006.0052,W,1,7,2.4,11,M,,M,,*51
06/03/2014	09:08:19.685	$GPGGA,090820,2544.4117,N,08006.0048,W,1,7,2.0,11,M,,M,,*50
06/03/2014	09:08:20.678	$GPGGA,090821,2544.4135,N,08006.0043,W,1,7,2.4,11,M,,M,,*5E
06/03/2014	09:08:21.680	$GPGGA,090822,2544.4153,N,08006.0041,W,1,7,2.4,11,M,,M,,*5F
06/03/2014	09:08:22.673	$GPGGA,090823,2544.4171,N,08006.0041,W,1,7,2.4,11,M,,M,,*5E
06/03/2014	09:08:23.695	$GPGGA,090824,2544.4192,N,08006.0039,W,1,7,2.0,11,M,,M,,*5F
06/03/2014	09:08:24.698	$GPGGA,090825,2544.4213,N,08006.0035,W,1,8,2.0,11,M,,M,,*57
06/03/2014	09:08:25.670	$GPGGA,090826,2544.4232,N,08006.0032,W,1,8,2.0,11,M,,M,,*50
06/03/2014	09:08:26.703	$GPGGA,090827,2544.4250,N,08006.0033,W,1,8,2.0,11,M,,M,,*54
06/03/2014	09:08:27.695	$GPGGA,090828,2544.4271,N,08006.0032,W,1,8,2.0,11,M,,M,,*59
06/03/2014	09:08:28.678	$GPGGA,090829,2544.4287,N,08006.0027,W,1,8,2.0,11,M,,M,,*55
06/03/2014	09:08:29.670	$GPGGA,090830,2544.4308,N,08006.0024,W,1,8,2.4,11,M,,M,,*5C
06/03/2014	09:08:30.534	$GPGGA,090831,2544.4326,N,08006.0025,W,1,8,2.0,11,M,,M,,*54
06/03/2014	09:08:31.546	$GPGGA,090832,2544.4346,N,08006.0025,W,1,8,2.0,11,M,,M,,*51
06/03/2014	09:08:32.559	$GPGGA,090833,2544.4362,N,08006.0020,W,1,8,2.0,11,M,,M,,*53
06/03/2014	09:08:33.521	$GPGGA,090834,2544.4383,N,08006.0018,W,1,8,2.0,11,M,,M,,*50
06/03/2014	09:08:34.523	$GPGGA,090835,2544.4402,N,08006.0019,W,1,8,2.0,11,M,,M,,*5E
06/03/2014	09:08:35.555	$GPGGA,090836,2544.4420,N,08006.0016,W,1,8,2.0,11,M,,M,,*52
06/03/2014	09:08:36.537	$GPGGA,090837,2544.4440,N,08006.0012,W,1,8,2.0,11,M,,M,,*51
06/03/2014	09:08:37.650	$GPGGA,090838,2544.4459,N,08006.0012,W,1,8,2.0,11,M,,M,,*56
06/03/2014	09:08:38.643	$GPGGA,090839,2544.4478,N,08006.0011,W,1,8,2.0,11,M,,M,,*57
06/03/2014	09:08:39.535	$GPGGA,090840,2544.4496,N,08006.0007,W,1,8,2.0,11,M,,M,,*5E
06/03/2014	09:08:40.529	$GPGGA,090841,2544.4513,N,08006.0003,W,1,8,2.0,11,M,,M,,*57
06/03/2014	09:08:41.640	$GPGGA,090842,2544.4534,N,08006.0004,W,1,8,2.4,11,M,,M,,*52
06/03/2014	09:08:42.542	$GPGGA,090843,2544.4553,N,08006.0001,W,1,8,2.0,11,M,,M,,*53
06/03/2014	09:08:43.535	$GPGGA,090844,2544.4571,N,08005.9998,W,1,8,2.0,11,M,,M,,*57
06/03/2014	09:08:44.538	$GPGGA,090845,2544.4592,N,08005.9998,W,1,8,2.0,11,M,,M,,*5B
06/03/2014	09:08:45.620	$GPGGA,090846,2544.4612,N,08005.9995,W,1,8,2.0,11,M,,M,,*5E
06/03/2014	09:08:46.537	$GPGGA,090847,2544.4630,N,08005.9992,W,1,8,2.0,11,M,,M,,*58
06/03/2014	09:08:47.636	$GPGGA,090848,2544.4651,N,08005.9991,W,1,8,2.0,11,M,,M,,*53
06/03/2014	09:08:48.640	$GPGGA,090849,2544.4669,N,08005.9989,W,1,8,2.0,11,M,,M,,*50
06/03/2014	09:08:49.652	$GPGGA,090850,2544.4690,N,08005.9986,W,1,8,2.0,11,M,,M,,*51
06/03/2014	09:08:50.653	$GPGGA,090851,2544.4709,N,08005.9982,W,1,8,2.0,11,M,,M,,*55
06/03/2014	09:08:51.636	$GPGGA,090852,2544.4730,N,08005.9980,W,1,8,2.0,11,M,,M,,*5E
06/03/2014	09:08:52.662	$GPGGA,090853,2544.4749,N,08005.9980,W,1,8,2.0,11,M,,M,,*51
06/03/2014	09:08:53.639	$GPGGA,090854,2544.4769,N,08005.9977,W,1,8,2.0,11,M,,M,,*5C
06/03/2014	09:08:54.642	$GPGGA,090855,2544.4789,N,08005.9971,W,1,8,2.0,11,M,,M,,*55
06/03/2014	09:08:55.659	$GPGGA,090856,2544.4807,N,08005.9969,W,1,8,2.0,11,M,,M,,*56
06/03/2014	09:08:56.666	$GPGGA,090857,2544.4828,N,08005.9969,W,1,8,2.0,11,M,,M,,*5A
06/03/2014	09:08:57.629	$GPGGA,090858,2544.4846,N,08005.9964,W,1,8,2.0,11,M,,M,,*50
06/03/2014	09:08:58.675	$GPGGA,090859,2544.4867,N,08005.9959,W,1,8,2.0,11,M,,M,,*5C
06/03/2014	09:08:59.654	$GPGGA,090900,2544.4885,N,08005.9957,W,1,8,2.0,11,M,,M,,*53
06/03/2014	09:09:00.657	$GPGGA,090901,2544.4906,N,08005.9956,W,1,8,2.0,11,M,,M,,*59
06/03/2014	09:09:01.639	$GPGGA,090902,2544.4925,N,08005.9950,W,1,8,2.0,12,M,,M,,*5E
06/03/2014	09:09:02.652	$GPGGA,090903,2544.4943,N,08005.9944,W,1,8,2.0,12,M,,M,,*5A
06/03/2014	09:09:03.654	$GPGGA,090904,2544.4962,N,08005.9942,W,1,8,2.0,12,M,,M,,*58
06/03/2014	09:09:04.682	$GPGGA,090905,2544.4980,N,08005.9940,W,1,8,2.0,12,M,,M,,*57
06/03/2014	09:09:05.639	$GPGGA,090906,2544.4998,N,08005.9937,W,1,8,2.0,12,M,,M,,*5D
06/03/2014	09:09:06.662	$GPGGA,090907,2544.5016,N,08005.9931,W,1,8,2.0,12,M,,M,,*54
06/03/2014	09:09:07.654	$GPGGA,090908,2544.5034,N,08005.9925,W,1,8,2.3,12,M,,M,,*5D
06/03/2014	09:09:08.667	$GPGGA,090909,2544.5053,N,08005.9924,W,1,8,2.0,12,M,,M,,*5F
06/03/2014	09:09:09.649	$GPGGA,090910,2544.5071,N,08005.9921,W,1,8,2.0,12,M,,M,,*52
06/03/2014	09:09:10.694	$GPGGA,090911,2544.5089,N,08005.9914,W,1,8,2.0,12,M,,M,,*52
06/03/2014	09:09:11.663	$GPGGA,090912,2544.5106,N,08005.9908,W,1,8,2.0,12,M,,M,,*5A
06/03/2014	09:09:12.646	$GPGGA,090913,2544.5123,N,08005.9905,W,1,7,2.4,12,M,,M,,*5A
06/03/2014	09:09:13.648	$GPGGA,090914,2544.5139,N,08005.9901,W,1,7,2.0,12,M,,M,,*56
06/03/2014	09:09:14.651	$GPGGA,090915,2544.5157,N,08005.9896,W,1,8,2.0,12,M,,M,,*5F
06/03/2014	09:09:15.653	$GPGGA,090916,2544.5175,N,08005.9891,W,1,8,2.4,12,M,,M,,*5F
06/03/2014	09:09:16.646	$GPGGA,090917,2544.5195,N,08005.9888,W,1,8,2.0,12,M,,M,,*5C
06/03/2014	09:09:17.758	$GPGGA,090918,2544.5215,N,08005.9886,W,1,8,2.0,12,M,,M,,*56
06/03/2014	09:09:18.640	$GPGGA,090919,2544.5233,N,08005.9883,W,1,8,2.0,12,M,,M,,*56
06/03/2014	09:09:19.663	$GPGGA,090920,2544.5254,N,08005.9879,W,1,8,2.0,12,M,,M,,*58
06/03/2014	09:09:20.666	$GPGGA,090921,2544.5271,N,08005.9875,W,1,8,2.0,12,M,,M,,*52
06/03/2014	09:09:21.638	$GPGGA,090922,2544.5290,N,08005.9871,W,1,8,2.4,12,M,,M,,*5E
06/03/2014	09:09:22.640	$GPGGA,090923,2544.5309,N,08005.9868,W,1,8,2.0,12,M,,M,,*52
06/03/2014	09:09:23.753	$GPGGA,090924,2544.5329,N,08005.9866,W,1,8,2.0,12,M,,M,,*59
06/03/2014	09:09:24.640	$GPGGA,090925,2544.5349,N,08005.9863,W,1,8,2.0,12,M,,M,,*5B
06/03/2014	09:09:25.768	$GPGGA,090926,2544.5369,N,08005.9859,W,1,8,2.0,12,M,,M,,*53
06/03/2014	09:09:26.650	$GPGGA,090927,2544.5388,N,08005.9858,W,1,8,2.0,12,M,,M,,*5C
06/03/2014	09:09:27.773	$GPGGA,090928,2544.5410,N,08005.9856,W,1,8,2.0,12,M,,M,,*5B
06/03/2014	09:09:28.675	$GPGGA,090929,2544.5430,N,08005.9852,W,1,8,2.0,12,M,,M,,*5C
06/03/2014	09:09:30.512	$GPGGA,090930,2544.5450,N,08005.9849,W,1,8,2.0,13,M,,M,,*59
06/03/2014	09:09:30.521	$GPGGA,090931,2544.5471,N,08005.9848,W,1,8,2.0,13,M,,M,,*5A
06/03/2014	09:09:31.634	$GPGGA,090932,2544.5490,N,08005.9845,W,1,8,2.0,13,M,,M,,*5B
06/03/2014	09:09:32.507	$GPGGA,090933,2544.5510,N,08005.9840,W,1,8,2.0,13,M,,M,,*56
06/03/2014	09:09:33.609	$GPGGA,090934,2544.5526,N,08005.9837,W,1,8,2.4,13,M,,M,,*50
06/03/2014	09:09:34.642	$GPGGA,090935,2544.5547,N,08005.9836,W,1,7,1.9,13,M,,M,,*56
06/03/2014	09:09:35.614	$GPGGA,090936,2544.5565,N,08005.9832,W,1,7,2.4,13,M,,M,,*5F
06/03/2014	09:09:36.637	$GPGGA,090937,2544.5583,N,08005.9830,W,1,7,2.4,13,M,,M,,*54
06/03/2014	09:09:37.601	$GPGGA,090938,2544.5602,N,08005.9826,W,1,7,2.4,13,M,,M,,*56
06/03/2014	09:09:38.612	$GPGGA,090939,2544.5620,N,08005.9823,W,1,7,2.4,13,M,,M,,*52
06/03/2014	09:09:39.644	$GPGGA,090940,2544.5641,N,08005.9823,W,1,7,1.9,13,M,,M,,*55
06/03/2014	09:09:40.637	$GPGGA,090941,2544.5661,N,08005.9820,W,1,8,1.9,13,M,,M,,*5A
06/03/2014	09:09:41.610	$GPGGA,090942,2544.5681,N,08005.9817,W,1,8,1.9,13,M,,M,,*53
06/03/2014	09:09:42.612	$GPGGA,090943,2544.5702,N,08005.9817,W,1,8,1.9,13,M,,M,,*58
06/03/2014	09:09:43.664	$GPGGA,090944,2544.5721,N,08005.9815,W,1,8,1.9,13,M,,M,,*5C
06/03/2014	09:09:44.639	$GPGGA,090945,2544.5741,N,08005.9811,W,1,8,2.4,13,M,,M,,*51
06/03/2014	09:09:45.608	$GPGGA,090946,2544.5759,N,08005.9809,W,1,8,2.4,13,M,,M,,*52
06/03/2014	09:09:46.631	$GPGGA,090947,2544.5778,N,08005.9809,W,1,7,1.9,13,M,,M,,*51
06/03/2014	09:09:47.623	$GPGGA,090948,2544.5799,N,08005.9807,W,1,7,1.9,13,M,,M,,*5F
06/03/2014	09:09:48.636	$GPGGA,090949,2544.5818,N,08005.9804,W,1,8,1.9,13,M,,M,,*54
06/03/2014	09:09:49.618	$GPGGA,090950,2544.5839,N,08005.9801,W,1,8,1.9,13,M,,M,,*5A
06/03/2014	09:09:50.631	$GPGGA,090951,2544.5858,N,08005.9800,W,1,8,1.9,14,M,,M,,*5A
06/03/2014	09:09:51.623	$GPGGA,090952,2544.5880,N,08005.9799,W,1,8,1.9,14,M,,M,,*53
06/03/2014	09:09:52.606	$GPGGA,090953,2544.5898,N,08005.9797,W,1,8,1.9,14,M,,M,,*55
06/03/2014	09:09:53.618	$GPGGA,090954,2544.5919,N,08005.9794,W,1,8,1.9,14,M,,M,,*59
06/03/2014	09:09:54.631	$GPGGA,090955,2544.5938,N,08005.9792,W,1,8,1.9,14,M,,M,,*5D
06/03/2014	09:09:55.633	$GPGGA,090956,2544.5958,N,08005.9790,W,1,8,1.9,14,M,,M,,*5A
06/03/2014	09:09:56.646	$GPGGA,090957,2544.5976,N,08005.9788,W,1,8,1.9,14,M,,M,,*5E
06/03/2014	09:09:57.628	$GPGGA,090958,2544.5995,N,08005.9785,W,1,8,1.9,14,M,,M,,*51
06/03/2014	09:09:58.657	$GPGGA,090959,2544.6012,N,08005.9783,W,1,8,2.4,14,M,,M,,*5D
06/03/2014	09:09:59.644	$GPGGA,091000,2544.6034,N,08005.9781,W,1,8,1.9,14,M,,M,,*51
06/03/2014	09:10:00.646	$GPGGA,091001,2544.6053,N,08005.9778,W,1,8,1.9,14,M,,M,,*57
06/03/2014	09:10:01.639	$GPGGA,091002,2544.6073,N,08005.9777,W,1,8,1.9,14,M,,M,,*59
06/03/2014	09:10:02.651	$GPGGA,091003,2544.6091,N,08005.9774,W,1,8,1.9,14,M,,M,,*57
06/03/2014	09:10:03.632	$GPGGA,091004,2544.6107,N,08005.9769,W,1,8,1.9,14,M,,M,,*52
06/03/2014	09:10:04.635	$GPGGA,091005,2544.6125,N,08005.9767,W,1,8,1.9,14,M,,M,,*5D
06/03/2014	09:10:05.627	$GPGGA,091006,2544.6143,N,08005.9764,W,1,8,1.9,14,M,,M,,*5D
06/03/2014	09:10:06.730	$GPGGA,091007,2544.6161,N,08005.9759,W,1,8,1.9,14,M,,M,,*52
06/03/2014	09:10:07.652	$GPGGA,091008,2544.6180,N,08005.9756,W,1,8,1.9,14,M,,M,,*5D
06/03/2014	09:10:08.655	$GPGGA,091009,2544.6198,N,08005.9754,W,1,8,1.9,14,M,,M,,*57
06/03/2014	09:10:09.627	$GPGGA,091010,2544.6218,N,08005.9750,W,1,8,1.9,14,M,,M,,*50
06/03/2014	09:10:10.640	$GPGGA,091011,2544.6236,N,08005.9745,W,1,8,2.0,14,M,,M,,*53
06/03/2014	09:10:11.643	$GPGGA,091012,2544.6256,N,08005.9741,W,1,8,2.3,14,M,,M,,*51
06/03/2014	09:10:12.725	$GPGGA,091013,2544.6277,N,08005.9739,W,1,7,2.0,14,M,,M,,*50
06/03/2014	09:10:13.617	$GPGGA,091014,2544.6295,N,08005.9732,W,1,7,1.9,14,M,,M,,*5A
06/03/2014	09:10:14.640	$GPGGA,091015,2544.6310,N,08005.9722,W,1,8,1.9,13,M,,M,,*5E
06/03/2014	09:10:15.732	$GPGGA,091016,2544.6328,N,08005.9720,W,1,8,1.9,13,M,,M,,*54
06/03/2014	09:10:16.634	$GPGGA,091017,2544.6346,N,08005.9717,W,1,8,1.9,13,M,,M,,*59
06/03/2014	09:10:17.621	$GPGGA,091018,2544.6367,N,08005.9712,W,1,8,1.9,13,M,,M,,*50
06/03/2014	09:10:18.720	$GPGGA,091019,2544.6385,N,08005.9708,W,1,8,1.9,13,M,,M,,*56
06/03/2014	09:10:19.752	$GPGGA,091020,2544.6404,N,08005.9705,W,1,8,1.9,13,M,,M,,*5F
06/03/2014	09:10:20.716	$GPGGA,091021,2544.6424,N,08005.9701,W,1,8,1.9,13,M,,M,,*58
06/03/2014	09:10:21.636	$GPGGA,091022,2544.6443,N,08005.9697,W,1,8,2.0,13,M,,M,,*5E
06/03/2014	09:10:22.769	$GPGGA,091023,2544.6461,N,08005.9693,W,1,7,2.0,13,M,,M,,*54
06/03/2014	09:10:23.741	$GPGGA,091024,2544.6480,N,08005.9689,W,1,7,1.9,13,M,,M,,*5D
06/03/2014	09:10:24.714	$GPGGA,091025,2544.6498,N,08005.9683,W,1,8,1.9,13,M,,M,,*50
06/03/2014	09:10:25.726	$GPGGA,091026,2544.6518,N,08005.9678,W,1,8,1.9,13,M,,M,,*5E
06/03/2014	09:10:26.719	$GPGGA,091027,2544.6537,N,08005.9676,W,1,8,1.9,13,M,,M,,*5C
06/03/2014	09:10:27.741	$GPGGA,091028,2544.6555,N,08005.9672,W,1,8,1.9,13,M,,M,,*53
06/03/2014	09:10:28.744	$GPGGA,091029,2544.6573,N,08005.9665,W,1,8,1.9,13,M,,M,,*50
06/03/2014	09:10:29.739	$GPGGA,091030,2544.6590,N,08005.9661,W,1,8,1.9,13,M,,M,,*51
06/03/2014	09:10:30.580	$GPGGA,091031,2544.6613,N,08005.9659,W,1,7,1.9,14,M,,M,,*5B
06/03/2014	09:10:31.582	$GPGGA,091032,2544.6635,N,08005.9655,W,1,7,1.9,14,M,,M,,*50
06/03/2014	09:10:32.595	$GPGGA,091033,2544.6653,N,08005.9649,W,1,8,2.2,14,M,,M,,*5B
06/03/2014	09:10:33.587	$GPGGA,091034,2544.6671,N,08005.9645,W,1,8,2.2,14,M,,M,,*50
06/03/2014	09:10:34.580	$GPGGA,091035,2544.6688,N,08005.9641,W,1,8,1.9,14,M,,M,,*5B
06/03/2014	09:10:35.603	$GPGGA,091036,2544.6706,N,08005.9637,W,1,8,1.9,14,M,,M,,*5E
06/03/2014	09:10:36.585	$GPGGA,091037,2544.6722,N,08005.9631,W,1,8,1.9,14,M,,M,,*5F
06/03/2014	09:10:37.577	$GPGGA,091038,2544.6739,N,08005.9624,W,1,8,1.9,14,M,,M,,*5E
06/03/2014	09:10:38.589	$GPGGA,091039,2544.6757,N,08005.9622,W,1,8,1.9,14,M,,M,,*51
06/03/2014	09:10:39.591	$GPGGA,091040,2544.6776,N,08005.9618,W,1,8,2.0,14,M,,M,,*5F
06/03/2014	09:10:40.594	$GPGGA,091041,2544.6793,N,08005.9611,W,1,8,2.1,15,M,,M,,*5C
06/03/2014	09:10:41.586	$GPGGA,091042,2544.6810,N,08005.9606,W,1,8,2.1,15,M,,M,,*5D
06/03/2014	09:10:42.623	$GPGGA,091043,2544.6828,N,08005.9603,W,1,8,1.9,15,M,,M,,*59
06/03/2014	09:10:43.601	$GPGGA,091044,2544.6846,N,08005.9597,W,1,8,2.4,15,M,,M,,*56
06/03/2014	09:10:44.604	$GPGGA,091045,2544.6862,N,08005.9588,W,1,8,1.9,15,M,,M,,*51
06/03/2014	09:10:45.576	$GPGGA,091046,2544.6880,N,08005.9585,W,1,8,1.9,15,M,,M,,*53
06/03/2014	09:10:46.589	$GPGGA,091047,2544.6899,N,08005.9583,W,1,8,1.9,15,M,,M,,*5C
06/03/2014	09:10:47.601	$GPGGA,091048,2544.6919,N,08005.9575,W,1,8,1.9,15,M,,M,,*53
06/03/2014	09:10:48.614	$GPGGA,091049,2544.6938,N,08005.9569,W,1,7,2.2,15,M,,M,,*5B
06/03/2014	09:10:49.576	$GPGGA,091050,2544.6956,N,08005.9566,W,1,7,1.9,15,M,,M,,*5C
06/03/2014	09:10:50.579	$GPGGA,091051,2544.6974,N,08005.9561,W,1,8,1.9,15,M,,M,,*55
06/03/2014	09:10:51.601	$GPGGA,091052,2544.6992,N,08005.9555,W,1,8,1.9,15,M,,M,,*59
06/03/2014	09:10:52.594	$GPGGA,091053,2544.7010,N,08005.9548,W,1,8,1.9,14,M,,M,,*57
06/03/2014	09:10:53.586	$GPGGA,091054,2544.7028,N,08005.9544,W,1,8,2.4,14,M,,M,,*59
06/03/2014	09:10:54.599	$GPGGA,091055,2544.7047,N,08005.9540,W,1,8,1.9,14,M,,M,,*5B
06/03/2014	09:10:55.610	$GPGGA,091056,2544.7067,N,08005.9534,W,1,8,1.9,14,M,,M,,*59
06/03/2014	09:10:56.582	$GPGGA,091057,2544.7085,N,08005.9529,W,1,8,1.9,14,M,,M,,*58
06/03/2014	09:10:57.585	$GPGGA,091058,2544.7103,N,08005.9524,W,1,8,1.9,14,M,,M,,*55
06/03/2014	09:10:58.587	$GPGGA,091059,2544.7126,N,08005.9523,W,1,7,2.4,14,M,,M,,*55
06/03/2014	09:10:59.620	$GPGGA,091100,2544.7144,N,08005.9518,W,1,7,2.2,14,M,,M,,*52
06/03/2014	09:11:00.603	$GPGGA,091101,2544.7164,N,08005.9511,W,1,7,2.0,13,M,,M,,*5D
06/03/2014	09:11:01.595	$GPGGA,091102,2544.7180,N,08005.9507,W,1,7,1.9,13,M,,M,,*59
06/03/2014	09:11:02.597	$GPGGA,091103,2544.7199,N,08005.9504,W,1,6,2.7,13,M,,M,,*5F
06/03/2014	09:11:03.610	$GPGGA,091104,2544.7219,N,08005.9499,W,1,6,1.9,13,M,,M,,*5B
06/03/2014	09:11:04.613	$GPGGA,091105,2544.7238,N,08005.9492,W,1,8,1.9,13,M,,M,,*5C
06/03/2014	09:11:05.686	$GPGGA,091106,2544.7255,N,08005.9488,W,1,8,1.9,13,M,,M,,*5F
06/03/2014	09:11:06.698	$GPGGA,091107,2544.7274,N,08005.9485,W,1,8,1.9,13,M,,M,,*50
06/03/2014	09:11:07.600	$GPGGA,091108,2544.7294,N,08005.9480,W,1,8,1.9,13,M,,M,,*54
06/03/2014	09:11:08.703	$GPGGA,091109,2544.7311,N,08005.9475,W,1,8,1.9,13,M,,M,,*53
06/03/2014	09:11:09.695	$GPGGA,091110,2544.7332,N,08005.9471,W,1,8,1.9,13,M,,M,,*5E
06/03/2014	09:11:10.708	$GPGGA,091111,2544.7353,N,08005.9468,W,1,8,1.9,13,M,,M,,*50
06/03/2014	09:11:11.610	$GPGGA,091112,2544.7370,N,08005.9464,W,1,8,1.9,13,M,,M,,*5E
06/03/2014	09:11:12.722	$GPGGA,091113,2544.7390,N,08005.9460,W,1,8,1.9,13,M,,M,,*55
06/03/2014	09:11:13.694	$GPGGA,091114,2544.7410,N,08005.9455,W,1,8,1.9,13,M,,M,,*5B
06/03/2014	09:11:14.701	$GPGGA,091115,2544.7430,N,08005.9452,W,1,8,1.9,13,M,,M,,*5F
06/03/2014	09:11:15.700	$GPGGA,091116,2544.7448,N,08005.9450,W,1,8,1.9,13,M,,M,,*51
06/03/2014	09:11:16.732	$GPGGA,091117,2544.7469,N,08005.9445,W,1,8,1.9,13,M,,M,,*57
06/03/2014	09:11:17.714	$GPGGA,091118,2544.7487,N,08005.9442,W,1,8,1.9,13,M,,M,,*5F
06/03/2014	09:11:18.717	$GPGGA,091119,2544.7506,N,08005.9440,W,1,8,1.9,13,M,,M,,*54
06/03/2014	09:11:19.711	$GPGGA,091120,2544.7526,N,08005.9436,W,1,8,1.9,13,M,,M,,*5D
06/03/2014	09:11:20.714	$GPGGA,091121,2544.7545,N,08005.9432,W,1,8,1.9,12,M,,M,,*5C
06/03/2014	09:11:21.704	$GPGGA,091122,2544.7566,N,08005.9433,W,1,8,1.9,12,M,,M,,*5F
06/03/2014	09:11:22.707	$GPGGA,091123,2544.7584,N,08005.9429,W,1,8,1.9,12,M,,M,,*59
06/03/2014	09:11:23.709	$GPGGA,091124,2544.7605,N,08005.9424,W,1,8,1.9,12,M,,M,,*59
06/03/2014	09:11:24.738	$GPGGA,091125,2544.7624,N,08005.9422,W,1,8,1.9,12,M,,M,,*5D
06/03/2014	09:11:25.694	$GPGGA,091126,2544.7643,N,08005.9421,W,1,8,1.9,12,M,,M,,*5C
06/03/2014	09:11:26.727	$GPGGA,091127,2544.7663,N,08005.9418,W,1,8,1.9,12,M,,M,,*55
06/03/2014	09:11:27.709	$GPGGA,091128,2544.7682,N,08005.9413,W,1,8,1.9,12,M,,M,,*5E
06/03/2014	09:11:28.723	$GPGGA,091129,2544.7700,N,08005.9410,W,1,8,1.9,12,M,,M,,*57
06/03/2014	09:11:29.704	$GPGGA,091130,2544.7719,N,08005.9406,W,1,8,1.9,12,M,,M,,*50
06/03/2014	09:11:30.588	$GPGGA,091131,2544.7737,N,08005.9402,W,1,7,2.0,12,M,,M,,*5C
06/03/2014	09:11:31.570	$GPGGA,091132,2544.7755,N,08005.9399,W,1,7,2.4,12,M,,M,,*5A
06/03/2014	09:11:32.573	$GPGGA,091133,2544.7775,N,08005.9395,W,1,8,1.9,12,M,,M,,*54
06/03/2014	09:11:33.565	$GPGGA,091134,2544.7793,N,08005.9389,W,1,8,2.0,11,M,,M,,*5F
06/03/2014	09:11:34.578	$GPGGA,091135,2544.7812,N,08005.9387,W,1,8,1.9,11,M,,M,,*5C
06/03/2014	09:11:35.570	$GPGGA,091136,2544.7831,N,08005.9384,W,1,8,2.0,11,M,,M,,*57
06/03/2014	09:11:36.583	$GPGGA,091137,2544.7851,N,08005.9378,W,1,8,1.9,11,M,,M,,*59
06/03/2014	09:11:37.575	$GPGGA,091138,2544.7870,N,08005.9373,W,1,8,2.0,11,M,,M,,*54
06/03/2014	09:11:38.588	$GPGGA,091139,2544.7889,N,08005.9371,W,1,8,1.9,11,M,,M,,*5B
06/03/2014	09:11:39.580	$GPGGA,091140,2544.7910,N,08005.9366,W,1,8,1.9,11,M,,M,,*52
06/03/2014	09:11:40.573	$GPGGA,091141,2544.7930,N,08005.9360,W,1,8,1.9,11,M,,M,,*57
06/03/2014	09:11:41.565	$GPGGA,091142,2544.7949,N,08005.9357,W,1,8,1.9,11,M,,M,,*5E
06/03/2014	09:11:42.558	$GPGGA,091143,2544.7968,N,08005.9353,W,1,8,1.9,11,M,,M,,*58
06/03/2014	09:11:43.580	$GPGGA,091144,2544.7986,N,08005.9347,W,1,8,1.9,11,M,,M,,*5A
06/03/2014	09:11:44.574	$GPGGA,091145,2544.8006,N,08005.9343,W,1,8,1.9,11,M,,M,,*51
06/03/2014	09:11:45.556	$GPGGA,091146,2544.8022,N,08005.9339,W,1,8,1.9,11,M,,M,,*59
06/03/2014	09:11:46.557	$GPGGA,091147,2544.8044,N,08005.9337,W,1,6,2.4,11,M,,M,,*56
06/03/2014	09:11:47.689	$GPGGA,091148,2544.8061,N,08005.9328,W,1,6,2.0,11,M,,M,,*54
06/03/2014	09:11:48.682	$GPGGA,091149,2544.8079,N,08005.9323,W,1,7,2.4,11,M,,M,,*52
06/03/2014	09:11:49.574	$GPGGA,091150,2544.8098,N,08005.9320,W,1,7,1.9,11,M,,M,,*58
06/03/2014	09:11:50.687	$GPGGA,091151,2544.8116,N,08005.9315,W,1,8,1.9,11,M,,M,,*57
