Software Version Number: 1	Data File Format Number: 1	Build Version Number: 1	Error Count Since VI Started: 0	Manufacturer: Raytheon	 Model Number: RayMarine 120	 S/N: 	 Cal Date: 	 Wind Direction Offset: 0.00	 Slope (M)1: 0.00	 Offset (B)1: 0.00	 Slope (M)2: 0.00	 Offset (B)2: 0.00	 Slope (M)3: 0.00	 Offset (B)3: 0.00	 Slope (M)4: 0.00	 Offset (B)4: 0.00	 Slope (M)5: 0.00	 Offset (B)5: 0.00	 Slope (M)6: 0.00	 Offset (B)6: 0.00
Computer Date	Computer Time	GGA String
06/03/2014	22:00:00.651	$GPGGA,220009,2543.0732,N,08010.9994,W,1,10,1.3,20,M,,M,,*6A
06/03/2014	22:00:01.523	$GPGGA,220010,2543.0756,N,08010.9996,W,1,10,1.3,20,M,,M,,*62
06/03/2014	22:00:02.655	$GPGGA,220011,2543.0779,N,08011.0000,W,1,10,1.3,20,M,,M,,*60
06/03/2014	22:00:03.563	$GPGGA,220012,2543.0803,N,08011.0001,W,1,10,1.3,20,M,,M,,*60
06/03/2014	22:00:04.519	$GPGGA,220013,2543.0826,N,08011.0004,W,1,10,1.3,20,M,,M,,*63
06/03/2014	22:00:05.622	$GPGGA,220014,2543.0849,N,08011.0007,W,1,10,1.3,20,M,,M,,*6E
06/03/2014	22:00:06.514	$GPGGA,220015,2543.0872,N,08011.0008,W,1,10,1.3,20,M,,M,,*68
06/03/2014	22:00:07.527	$GPGGA,220016,2543.0896,N,08011.0011,W,1,10,1.3,20,M,,M,,*69
06/03/2014	22:00:08.629	$GPGGA,220017,2543.0919,N,08011.0012,W,1,10,1.3,20,M,,M,,*6D
06/03/2014	22:00:09.532	$GPGGA,220018,2543.0943,N,08011.0014,W,1,10,1.3,20,M,,M,,*6B
06/03/2014	22:00:10.614	$GPGGA,220019,2543.0966,N,08011.0016,W,1,10,1.3,20,M,,M,,*6F
06/03/2014	22:00:11.637	$GPGGA,220020,2543.0990,N,08011.0019,W,1,10,1.3,20,M,,M,,*63
06/03/2014	22:00:12.609	$GPGGA,220021,2543.1013,N,08011.0022,W,1,10,1.3,20,M,,M,,*69
06/03/2014	22:00:13.632	$GPGGA,220022,2543.1038,N,08011.0025,W,1,10,1.4,20,M,,M,,*63
06/03/2014	22:00:14.665	$GPGGA,220023,2543.1060,N,08011.0027,W,1,10,1.4,21,M,,M,,*6C
06/03/2014	22:00:15.637	$GPGGA,220024,2543.1085,N,08011.0029,W,1,10,1.4,21,M,,M,,*6E
06/03/2014	22:00:16.660	$GPGGA,220025,2543.1109,N,08011.0033,W,1,10,1.4,21,M,,M,,*61
06/03/2014	22:00:17.632	$GPGGA,220026,2543.1132,N,08011.0036,W,1,10,1.4,21,M,,M,,*6F
06/03/2014	22:00:18.644	$GPGGA,220027,2543.1156,N,08011.0038,W,1,10,1.4,21,M,,M,,*62
06/03/2014	22:00:19.637	$GPGGA,220028,2543.1180,N,08011.0041,W,1,10,1.3,21,M,,M,,*6F
06/03/2014	22:00:20.638	$GPGGA,220029,2543.1203,N,08011.0044,W,1,10,1.3,21,M,,M,,*63
06/03/2014	22:00:21.621	$GPGGA,220030,2543.1227,N,08011.0047,W,1,10,1.3,21,M,,M,,*6E
06/03/2014	22:00:22.504	$GPGGA,220031,2543.1251,N,08011.0051,W,1,10,1.3,21,M,,M,,*69
06/03/2014	22:00:23.496	$GPGGA,220032,2543.1274,N,08011.0054,W,1,10,1.3,21,M,,M,,*68
06/03/2014	22:00:24.489	$GPGGA,220033,2543.1299,N,08011.0058,W,1,10,1.3,21,M,,M,,*66
06/03/2014	22:00:25.481	$GPGGA,220034,2543.1323,N,08011.0061,W,1,10,1.4,21,M,,M,,*6C
06/03/2014	22:00:26.494	$GPGGA,220035,2543.1346,N,08011.0063,W,1,10,1.4,21,M,,M,,*6C
06/03/2014	22:00:27.506	$GPGGA,220036,2543.1370,N,08011.0068,W,1,10,1.4,21,M,,M,,*61
06/03/2014	22:00:28.499	$GPGGA,220037,2543.1393,N,08011.0070,W,1,10,1.4,21,M,,M,,*64
06/03/2014	22:00:29.491	$GPGGA,220038,2543.1417,N,08011.0073,W,1,10,1.4,21,M,,M,,*63
06/03/2014	22:00:30.504	$GPGGA,220039,2543.1440,N,08011.0076,W,1,10,1.4,21,M,,M,,*65
06/03/2014	22:00:31.486	$GPGGA,220040,2543.1464,N,08011.0080,W,1,10,1.4,21,M,,M,,*64
06/03/2014	22:00:32.499	$GPGGA,220041,2543.1487,N,08011.0084,W,1,10,1.7,20,M,,M,,*6E
06/03/2014	22:00:33.491	$GPGGA,220042,2543.1512,N,08011.0090,W,1,10,1.4,20,M,,M,,*66
06/03/2014	22:00:34.504	$GPGGA,220043,2543.1534,N,08011.0094,W,1,10,1.4,20,M,,M,,*67
06/03/2014	22:00:35.496	$GPGGA,220044,2543.1559,N,08011.0098,W,1,10,1.7,20,M,,M,,*64
06/03/2014	22:00:36.519	$GPGGA,220045,2543.1583,N,08011.0101,W,1,9,1.7,20,M,,M,,*5B
06/03/2014	22:00:37.490	$GPGGA,220046,2543.1606,N,08011.0105,W,1,9,1.7,20,M,,M,,*52
06/03/2014	22:00:38.513	$GPGGA,220047,2543.1631,N,08011.0108,W,1,9,1.4,20,M,,M,,*59
06/03/2014	22:00:39.505	$GPGGA,220048,2543.1653,N,08011.0109,W,1,9,1.4,20,M,,M,,*53
06/03/2014	22:00:40.508	$GPGGA,220049,2543.1678,N,08011.0112,W,1,10,1.4,20,M,,M,,*69
06/03/2014	22:00:41.500	$GPGGA,220050,2543.1702,N,08011.0116,W,1,10,1.7,20,M,,M,,*6A
06/03/2014	22:00:42.513	$GPGGA,220051,2543.1725,N,08011.0120,W,1,9,1.7,20,M,,M,,*53
06/03/2014	22:00:43.525	$GPGGA,220052,2543.1747,N,08011.0124,W,1,9,1.7,20,M,,M,,*50
06/03/2014	22:00:44.500	$GPGGA,220053,2543.1771,N,08011.0126,W,1,9,1.4,20,M,,M,,*55
06/03/2014	22:00:45.601	$GPGGA,220054,2543.1794,N,08011.0130,W,1,9,1.8,20,M,,M,,*52
06/03/2014	22:00:46.513	$GPGGA,220055,2543.1819,N,08011.0134,W,1,8,1.7,19,M,,M,,*59
06/03/2014	22:00:47.510	$GPGGA,220056,2543.1841,N,08011.0137,W,1,8,1.7,19,M,,M,,*54
06/03/2014	22:00:48.516	$GPGGA,220057,2543.1865,N,08011.0141,W,1,9,1.7,19,M,,M,,*53
06/03/2014	22:00:49.570	$GPGGA,220058,2543.1888,N,08011.0144,W,1,9,1.7,19,M,,M,,*5A
06/03/2014	22:00:50.506	$GPGGA,220059,2543.1913,N,08011.0148,W,1,10,1.7,19,M,,M,,*6C
06/03/2014	22:00:51.518	$GPGGA,220100,2543.1935,N,08011.0152,W,1,10,1.4,19,M,,M,,*6D
06/03/2014	22:00:52.588	$GPGGA,220101,2543.1960,N,08011.0155,W,1,10,1.4,19,M,,M,,*6B
06/03/2014	22:00:53.525	$GPGGA,220102,2543.1985,N,08011.0159,W,1,10,1.7,19,M,,M,,*6C
06/03/2014	22:00:54.513	$GPGGA,220103,2543.2009,N,08011.0163,W,1,9,1.8,19,M,,M,,*5D
06/03/2014	22:00:55.529	$GPGGA,220104,2543.2032,N,08011.0167,W,1,9,1.7,19,M,,M,,*59
06/03/2014	22:00:56.587	$GPGGA,220105,2543.2057,N,08011.0173,W,1,9,1.7,19,M,,M,,*5E
06/03/2014	22:00:57.489	$GPGGA,220106,2543.2079,N,08011.0177,W,1,9,1.7,19,M,,M,,*55
06/03/2014	22:00:58.582	$GPGGA,220107,2543.2103,N,08011.0181,W,1,9,1.7,19,M,,M,,*51
06/03/2014	22:00:59.536	$GPGGA,220108,2543.2128,N,08011.0184,W,1,9,1.8,19,M,,M,,*5D
06/03/2014	22:01:00.633	$GPGGA,220109,2543.2151,N,08011.0188,W,1,8,1.8,19,M,,M,,*5F
06/03/2014	22:01:01.579	$GPGGA,220110,2543.2173,N,08011.0192,W,1,8,1.7,18,M,,M,,*52
06/03/2014	22:01:02.502	$GPGGA,220111,2543.2198,N,08011.0196,W,1,9,1.7,18,M,,M,,*53
06/03/2014	22:01:03.594	$GPGGA,220112,2543.2220,N,08011.0197,W,1,9,1.7,18,M,,M,,*51
06/03/2014	22:01:04.597	$GPGGA,220113,2543.2244,N,08011.0199,W,1,10,1.4,18,M,,M,,*67
06/03/2014	22:01:05.589	$GPGGA,220114,2543.2267,N,08011.0203,W,1,10,1.7,18,M,,M,,*62
06/03/2014	22:01:06.592	$GPGGA,220115,2543.2291,N,08011.0206,W,1,9,1.7,18,M,,M,,*57
06/03/2014	22:01:07.604	$GPGGA,220116,2543.2314,N,08011.0211,W,1,9,1.7,18,M,,M,,*5E
06/03/2014	22:01:08.607	$GPGGA,220117,2543.2338,N,08011.0213,W,1,9,1.7,18,M,,M,,*53
06/03/2014	22:01:09.579	$GPGGA,220118,2543.2361,N,08011.0217,W,1,9,1.4,18,M,,M,,*57
06/03/2014	22:01:10.612	$GPGGA,220119,2543.2385,N,08011.0220,W,1,10,1.4,18,M,,M,,*60
06/03/2014	22:01:11.604	$GPGGA,220120,2543.2408,N,08011.0222,W,1,10,1.4,18,M,,M,,*6A
06/03/2014	22:01:12.606	$GPGGA,220121,2543.2432,N,08011.0225,W,1,10,1.4,18,M,,M,,*65
06/03/2014	22:01:13.598	$GPGGA,220122,2543.2455,N,08011.0229,W,1,10,1.4,18,M,,M,,*6B
06/03/2014	22:01:14.601	$GPGGA,220123,2543.2479,N,08011.0232,W,1,10,1.4,18,M,,M,,*6E
06/03/2014	22:01:15.613	$GPGGA,220124,2543.2502,N,08011.0236,W,1,10,1.4,18,M,,M,,*60
06/03/2014	22:01:16.589	$GPGGA,220125,2543.2526,N,08011.0239,W,1,10,1.4,18,M,,M,,*68
06/03/2014	22:01:17.598	$GPGGA,220126,2543.2549,N,08011.0243,W,1,10,1.4,18,M,,M,,*6F
06/03/2014	22:01:18.621	$GPGGA,220127,2543.2573,N,08011.0247,W,1,10,1.4,18,M,,M,,*63
06/03/2014	22:01:19.613	$GPGGA,220128,2543.2596,N,08011.0251,W,1,10,1.4,18,M,,M,,*60
06/03/2014	22:01:20.626	$GPGGA,220129,2543.2620,N,08011.0256,W,1,10,1.4,18,M,,M,,*68
06/03/2014	22:01:21.592	$GPGGA,220130,2543.2643,N,08011.0258,W,1,10,1.4,18,M,,M,,*6B
06/03/2014	22:01:22.443	$GPGGA,220131,2543.2667,N,08011.0262,W,1,10,1.4,18,M,,M,,*65
06/03/2014	22:01:23.464	$GPGGA,220132,2543.2690,N,08011.0267,W,1,10,1.4,18,M,,M,,*6B
06/03/2014	22:01:24.457	$GPGGA,220133,2543.2714,N,08011.0269,W,1,10,1.4,18,M,,M,,*69
06/03/2014	22:01:25.439	$GPGGA,220134,2543.2737,N,08011.0275,W,1,10,1.4,18,M,,M,,*62
06/03/2014	22:01:26.472	$GPGGA,220135,2543.2761,N,08011.0278,W,1,10,1.4,18,M,,M,,*6D
06/03/2014	22:01:27.464	$GPGGA,220136,2543.2784,N,08011.0282,W,1,10,1.4,18,M,,M,,*60
06/03/2014	22:01:28.577	$GPGGA,220137,2543.2808,N,08011.0286,W,1,10,1.4,18,M,,M,,*6E
06/03/2014	22:01:29.459	$GPGGA,220138,2543.2831,N,08011.0290,W,1,10,1.4,18,M,,M,,*6C
06/03/2014	22:01:30.471	$GPGGA,220139,2543.2855,N,08011.0294,W,1,10,1.4,18,M,,M,,*6B
06/03/2014	22:01:31.473	$GPGGA,220140,2543.2878,N,08011.0300,W,1,10,1.4,18,M,,M,,*66
06/03/2014	22:01:32.446	$GPGGA,220141,2543.2902,N,08011.0303,W,1,10,1.4,18,M,,M,,*68
06/03/2014	22:01:33.438	$GPGGA,220142,2543.2924,N,08011.0307,W,1,10,1.4,18,M,,M,,*6B
06/03/2014	22:01:34.441	$GPGGA,220143,2543.2949,N,08011.0312,W,1,10,1.4,18,M,,M,,*65
06/03/2014	22:01:35.475	$GPGGA,220144,2543.2971,N,08011.0316,W,1,10,1.4,18,M,,M,,*6D
06/03/2014	22:01:36.568	$GPGGA,220145,2543.2996,N,08011.0321,W,1,10,1.4,18,M,,M,,*61
06/03/2014	22:01:37.448	$GPGGA,220146,2543.3018,N,08011.0325,W,1,10,1.5,18,M,,M,,*69
06/03/2014	22:01:38.441	$GPGGA,220147,2543.3042,N,08011.0332,W,1,9,1.5,18,M,,M,,*59
06/03/2014	22:01:39.473	$GPGGA,220148,2543.3065,N,08011.0336,W,1,9,1.4,18,M,,M,,*56
06/03/2014	22:01:40.446	$GPGGA,220149,2543.3090,N,08011.0340,W,1,10,1.4,18,M,,M,,*64
06/03/2014	22:01:41.448	$GPGGA,220150,2543.3112,N,08011.0343,W,1,10,1.4,18,M,,M,,*64
06/03/2014	22:01:42.585	$GPGGA,220151,2543.3134,N,08011.0350,W,1,9,1.5,18,M,,M,,*5A
06/03/2014	22:01:43.584	$GPGGA,220152,2543.3159,N,08011.0354,W,1,9,1.4,18,M,,M,,*57
06/03/2014	22:01:44.466	$GPGGA,220153,2543.3183,N,08011.0358,W,1,10,1.4,18,M,,M,,*65
06/03/2014	22:01:45.548	$GPGGA,220154,2543.3206,N,08011.0362,W,1,10,1.4,18,M,,M,,*65
06/03/2014	22:01:46.461	$GPGGA,220155,2543.3230,N,08011.0366,W,1,10,1.4,18,M,,M,,*65
06/03/2014	22:01:47.562	$GPGGA,220156,2543.3253,N,08011.0372,W,1,10,1.4,18,M,,M,,*66
06/03/2014	22:01:48.555	$GPGGA,220157,2543.3278,N,08011.0376,W,1,10,1.4,18,M,,M,,*6A
06/03/2014	22:01:49.557	$GPGGA,220158,2543.3302,N,08011.0380,W,1,10,1.4,18,M,,M,,*60
06/03/2014	22:01:50.560	$GPGGA,220159,2543.3328,N,08011.0383,W,1,9,1.5,18,M,,M,,*53
06/03/2014	22:01:51.572	$GPGGA,220200,2543.3351,N,08011.0387,W,1,9,1.4,18,M,,M,,*57
06/03/2014	22:01:52.555	$GPGGA,220201,2543.3375,N,08011.0391,W,1,9,1.5,18,M,,M,,*56
06/03/2014	22:01:53.557	$GPGGA,220202,2543.3398,N,08011.0397,W,1,9,1.5,18,M,,M,,*50
06/03/2014	22:01:54.550	$GPGGA,220203,2543.3422,N,08011.0401,W,1,9,1.5,17,M,,M,,*50
06/03/2014	22:01:55.572	$GPGGA,220204,2543.3445,N,08011.0405,W,1,9,1.5,17,M,,M,,*52
06/03/2014	22:01:56.545	$GPGGA,220205,2543.3469,N,08011.0409,W,1,10,1.4,17,M,,M,,*68
06/03/2014	22:01:57.547	$GPGGA,220206,2543.3492,N,08011.0415,W,1,10,1.5,17,M,,M,,*63
06/03/2014	22:01:58.580	$GPGGA,220207,2543.3516,N,08011.0419,W,1,10,1.4,17,M,,M,,*62
06/03/2014	22:01:59.572	$GPGGA,220208,2543.3539,N,08011.0423,W,1,10,1.4,17,M,,M,,*69
06/03/2014	22:02:00.575	$GPGGA,220209,2543.3563,N,08011.0427,W,1,10,1.4,17,M,,M,,*63
06/03/2014	22:02:01.567	$GPGGA,220210,2543.3586,N,08011.0431,W,1,10,1.4,17,M,,M,,*67
06/03/2014	22:02:02.560	$GPGGA,220211,2543.3611,N,08011.0437,W,1,10,1.4,17,M,,M,,*6D
06/03/2014	22:02:03.572	$GPGGA,220212,2543.3633,N,08011.0441,W,1,10,1.4,17,M,,M,,*6F
06/03/2014	22:02:04.555	$GPGGA,220213,2543.3658,N,08011.0445,W,1,10,1.4,17,M,,M,,*67
06/03/2014	22:02:05.566	$GPGGA,220214,2543.3682,N,08011.0451,W,1,10,1.4,17,M,,M,,*62
06/03/2014	22:02:06.559	$GPGGA,220215,2543.3705,N,08011.0455,W,1,10,1.4,17,M,,M,,*69
06/03/2014	22:02:07.581	$GPGGA,220216,2543.3730,N,08011.0459,W,1,10,1.4,17,M,,M,,*60
06/03/2014	22:02:08.594	$GPGGA,220217,2543.3752,N,08011.0463,W,1,10,1.4,17,M,,M,,*6C
06/03/2014	22:02:09.558	$GPGGA,220218,2543.3777,N,08011.0469,W,1,10,1.4,17,M,,M,,*6E
06/03/2014	22:02:10.599	$GPGGA,220219,2543.3801,N,08011.0473,W,1,10,1.4,17,M,,M,,*6A
06/03/2014	22:02:11.571	$GPGGA,220220,2543.3824,N,08011.0477,W,1,10,1.4,17,M,,M,,*63
06/03/2014	22:02:12.584	$GPGGA,220221,2543.3849,N,08011.0482,W,1,10,1.4,17,M,,M,,*63
06/03/2014	22:02:13.567	$GPGGA,220222,2543.3874,N,08011.0488,W,1,10,1.4,17,M,,M,,*64
06/03/2014	22:02:14.579	$GPGGA,220223,2543.3898,N,08011.0492,W,1,10,1.4,17,M,,M,,*6C
06/03/2014	22:02:15.591	$GPGGA,220224,2543.3922,N,08011.0496,W,1,10,1.4,17,M,,M,,*6F
06/03/2014	22:02:16.674	$GPGGA,220225,2543.3947,N,08011.0502,W,1,10,1.4,17,M,,M,,*61
06/03/2014	22:02:17.556	$GPGGA,220226,2543.3971,N,08011.0506,W,1,10,1.4,17,M,,M,,*63
06/03/2014	22:02:18.589	$GPGGA,220227,2543.3996,N,08011.0510,W,1,10,1.4,17,M,,M,,*6C
06/03/2014	22:02:19.574	$GPGGA,220228,2543.4019,N,08011.0516,W,1,10,1.4,17,M,,M,,*6C
06/03/2014	22:02:20.564	$GPGGA,220229,2543.4043,N,08011.0520,W,1,10,1.4,17,M,,M,,*67
06/03/2014	22:02:21.577	$GPGGA,220230,2543.4066,N,08011.0524,W,1,10,1.4,17,M,,M,,*6C
06/03/2014	22:02:22.521	$GPGGA,220231,2543.4091,N,08011.0529,W,1,10,1.4,17,M,,M,,*68
06/03/2014	22:02:23.423	$GPGGA,220232,2543.4115,N,08011.0535,W,1,10,1.4,17,M,,M,,*6B
06/03/2014	22:02:24.416	$GPGGA,220233,2543.4138,N,08011.0539,W,1,10,1.4,17,M,,M,,*69
06/03/2014	22:02:25.408	$GPGGA,220234,2543.4163,N,08011.0543,W,1,10,1.4,17,M,,M,,*6D
06/03/2014	22:02:26.521	$GPGGA,220235,2543.4185,N,08011.0549,W,1,10,1.4,17,M,,M,,*6E
06/03/2014	22:02:27.533	$GPGGA,220236,2543.4210,N,08011.0553,W,1,10,1.4,17,M,,M,,*69
06/03/2014	22:02:28.546	$GPGGA,220237,2543.4234,N,08011.0557,W,1,10,1.4,17,M,,M,,*6A
06/03/2014	22:02:29.438	$GPGGA,220238,2543.4258,N,08011.0561,W,1,10,1.4,17,M,,M,,*6A
06/03/2014	22:02:30.521	$GPGGA,220239,2543.4281,N,08011.0567,W,1,10,1.4,17,M,,M,,*69
06/03/2014	22:02:31.543	$GPGGA,220240,2543.4305,N,08011.0571,W,1,10,1.4,17,M,,M,,*6D
06/03/2014	22:02:32.536	$GPGGA,220241,2543.4330,N,08011.0575,W,1,10,1.4,17,M,,M,,*6E
06/03/2014	22:02:33.518	$GPGGA,220242,2543.4354,N,08011.0581,W,1,10,1.4,17,M,,M,,*64
06/03/2014	22:02:34.551	$GPGGA,220243,2543.4377,N,08011.0585,W,1,10,1.4,17,M,,M,,*60
06/03/2014	22:02:35.533	$GPGGA,220244,2543.4402,N,08011.0589,W,1,10,1.4,17,M,,M,,*6E
06/03/2014	22:02:36.546	$GPGGA,220245,2543.4426,N,08011.0594,W,1,10,1.4,17,M,,M,,*65
06/03/2014	22:02:37.518	$GPGGA,220246,2543.4449,N,08011.0600,W,1,10,1.4,17,M,,M,,*61
06/03/2014	22:02:38.541	$GPGGA,220247,2543.4473,N,08011.0603,W,1,10,1.4,17,M,,M,,*6A
06/03/2014	22:02:39.543	$GPGGA,220248,2543.4496,N,08011.0608,W,1,10,1.4,17,M,,M,,*65
06/03/2014	22:02:40.545	$GPGGA,220249,2543.4520,N,08011.0614,W,1,10,1.4,17,M,,M,,*65
06/03/2014	22:02:41.527	$GPGGA,220250,2543.4543,N,08011.0618,W,1,10,1.4,17,M,,M,,*64
06/03/2014	22:02:42.550	$GPGGA,220251,2543.4568,N,08011.0622,W,1,10,1.4,17,M,,M,,*65
06/03/2014	22:02:43.542	$GPGGA,220252,2543.4592,N,08011.0628,W,1,10,1.4,17,M,,M,,*69
06/03/2014	22:02:44.525	$GPGGA,220253,2543.4615,N,08011.0632,W,1,10,1.4,17,M,,M,,*6F
06/03/2014	22:02:45.527	$GPGGA,220254,2543.4639,N,08011.0636,W,1,10,1.4,17,M,,M,,*62
06/03/2014	22:02:46.550	$GPGGA,220255,2543.4662,N,08011.0641,W,1,10,1.4,17,M,,M,,*6D
06/03/2014	22:02:47.542	$GPGGA,220256,2543.4686,N,08011.0645,W,1,10,1.4,17,M,,M,,*60
06/03/2014	22:02:48.535	$GPGGA,220257,2543.4709,N,08011.0650,W,1,10,1.4,17,M,,M,,*63
06/03/2014	22:02:49.517	$GPGGA,220258,2543.4733,N,08011.0654,W,1,10,1.4,17,M,,M,,*61
06/03/2014	22:02:50.520	$GPGGA,220259,2543.4756,N,08011.0659,W,1,10,1.4,17,M,,M,,*6E
06/03/2014	22:02:51.552	$GPGGA,220300,2543.4780,N,08011.0663,W,1,10,1.4,17,M,,M,,*61
06/03/2014	22:02:52.525	$GPGGA,220301,2543.4803,N,08011.0668,W,1,10,1.4,17,M,,M,,*6F
06/03/2014	22:02:53.527	$GPGGA,220302,2543.4828,N,08011.0673,W,1,10,1.4,17,M,,M,,*6F
06/03/2014	22:02:54.570	$GPGGA,220303,2543.4850,N,08011.0677,W,1,10,1.4,17,M,,M,,*65
06/03/2014	22:02:55.542	$GPGGA,220304,2543.4875,N,08011.0683,W,1,10,1.4,17,M,,M,,*6E
06/03/2014	22:02:56.525	$GPGGA,220305,2543.4899,N,08011.0687,W,1,10,1.4,17,M,,M,,*69
06/03/2014	22:02:57.536	$GPGGA,220306,2543.4922,N,08011.0691,W,1,10,1.4,17,M,,M,,*6C
06/03/2014	22:02:58.521	$GPGGA,220307,2543.4946,N,08011.0697,W,1,10,1.4,17,M,,M,,*69
06/03/2014	22:02:59.551	$GPGGA,220308,2543.4969,N,08011.0701,W,1,10,1.4,17,M,,M,,*65
06/03/2014	22:03:00.684	$GPGGA,220309,2543.4993,N,08011.0705,W,1,10,1.4,16,M,,M,,*64
06/03/2014	22:03:01.536	$GPGGA,220310,2543.5016,N,08011.0710,W,1,10,1.4,16,M,,M,,*6D
06/03/2014	22:03:02.529	$GPGGA,220311,2543.5040,N,08011.0715,W,1,10,1.4,16,M,,M,,*6A
06/03/2014	22:03:03.551	$GPGGA,220312,2543.5063,N,08011.0719,W,1,10,1.4,16,M,,M,,*64
06/03/2014	22:03:04.534	$GPGGA,220313,2543.5087,N,08011.0724,W,1,10,1.4,16,M,,M,,*61
06/03/2014	22:03:05.547	$GPGGA,220314,2543.5110,N,08011.0730,W,1,10,1.4,16,M,,M,,*6C
06/03/2014	22:03:06.529	$GPGGA,220315,2543.5135,N,08011.0734,W,1,10,1.4,16,M,,M,,*6E
06/03/2014	22:03:07.551	$GPGGA,220316,2543.5157,N,08011.0738,W,1,10,1.4,16,M,,M,,*65
06/03/2014	22:03:08.634	$GPGGA,220317,2543.5181,N,08011.0744,W,1,10,1.4,16,M,,M,,*64
06/03/2014	22:03:09.697	$GPGGA,220318,2543.5204,N,08011.0748,W,1,10,1.4,16,M,,M,,*69
06/03/2014	22:03:10.529	$GPGGA,220319,2543.5229,N,08011.0753,W,1,10,1.4,16,M,,M,,*6D
06/03/2014	22:03:11.722	$GPGGA,220320,2543.5251,N,08011.0759,W,1,10,1.4,16,M,,M,,*62
06/03/2014	22:03:12.704	$GPGGA,220321,2543.5276,N,08011.0763,W,1,10,1.4,16,M,,M,,*6F
06/03/2014	22:03:13.636	$GPGGA,220322,2543.5298,N,08011.0767,W,1,10,1.4,16,M,,M,,*68
06/03/2014	22:03:14.529	$GPGGA,220323,2543.5323,N,08011.0773,W,1,10,1.4,16,M,,M,,*6D
06/03/2014	22:03:15.721	$GPGGA,220324,2543.5345,N,08011.0777,W,1,10,1.4,16,M,,M,,*6E
06/03/2014	22:03:16.703	$GPGGA,220325,2543.5369,N,08011.0781,W,1,10,1.4,16,M,,M,,*68
06/03/2014	22:03:17.635	$GPGGA,220326,2543.5392,N,08011.0787,W,1,10,1.4,16,M,,M,,*69
06/03/2014	22:03:18.638	$GPGGA,220327,2543.5416,N,08011.0791,W,1,10,1.4,16,M,,M,,*64
06/03/2014	22:03:19.751	$GPGGA,220328,2543.5439,N,08011.0795,W,1,10,1.4,16,M,,M,,*62
06/03/2014	22:03:20.673	$GPGGA,220329,2543.5463,N,08011.0800,W,1,10,1.4,16,M,,M,,*6F
06/03/2014	22:03:21.706	$GPGGA,220330,2543.5486,N,08011.0806,W,1,10,1.4,16,M,,M,,*6A
06/03/2014	22:03:22.549	$GPGGA,220331,2543.5510,N,08011.0810,W,1,10,1.4,16,M,,M,,*62
06/03/2014	22:03:23.592	$GPGGA,220332,2543.5533,N,08011.0816,W,1,10,1.4,16,M,,M,,*66
06/03/2014	22:03:24.534	$GPGGA,220333,2543.5557,N,08011.0820,W,1,10,1.4,16,M,,M,,*60
06/03/2014	22:03:25.567	$GPGGA,220334,2543.5580,N,08011.0825,W,1,10,1.4,16,M,,M,,*68
06/03/2014	22:03:26.519	$GPGGA,220335,2543.5604,N,08011.0829,W,1,10,1.4,16,M,,M,,*6A
06/03/2014	22:03:27.552	$GPGGA,220336,2543.5627,N,08011.0835,W,1,10,1.4,16,M,,M,,*65
06/03/2014	22:03:28.584	$GPGGA,220337,2543.5651,N,08011.0839,W,1,10,1.4,15,M,,M,,*6A
06/03/2014	22:03:29.567	$GPGGA,220338,2543.5674,N,08011.0845,W,1,10,1.4,15,M,,M,,*69
06/03/2014	22:03:30.489	$GPGGA,220339,2543.5698,N,08011.0849,W,1,10,1.4,15,M,,M,,*66
06/03/2014	22:03:31.552	$GPGGA,220340,2543.5721,N,08011.0853,W,1,10,1.4,15,M,,M,,*60
06/03/2014	22:03:32.554	$GPGGA,220341,2543.5745,N,08011.0857,W,1,10,1.4,15,M,,M,,*67
06/03/2014	22:03:33.485	$GPGGA,220342,2543.5768,N,08011.0863,W,1,10,1.4,15,M,,M,,*6C
06/03/2014	22:03:34.528	$GPGGA,220343,2543.5792,N,08011.0867,W,1,10,1.4,15,M,,M,,*6C
06/03/2014	22:03:35.500	$GPGGA,220344,2543.5815,N,08011.0872,W,1,10,1.4,15,M,,M,,*6F
06/03/2014	22:03:36.543	$GPGGA,220345,2543.5839,N,08011.0876,W,1,10,1.4,15,M,,M,,*64
06/03/2014	22:03:37.545	$GPGGA,220346,2543.5862,N,08011.0882,W,1,10,1.4,15,M,,M,,*62
06/03/2014	22:03:38.598	$GPGGA,220347,2543.5886,N,08011.0886,W,1,10,1.4,15,M,,M,,*6D
06/03/2014	22:03:39.571	$GPGGA,220348,2543.5909,N,08011.0892,W,1,10,1.4,15,M,,M,,*61
06/03/2014	22:03:40.523	$GPGGA,220349,2543.5933,N,08011.0896,W,1,10,1.4,15,M,,M,,*6D
06/03/2014	22:03:41.555	$GPGGA,220350,2543.5956,N,08011.0901,W,1,10,1.4,15,M,,M,,*69
06/03/2014	22:03:42.548	$GPGGA,220351,2543.5981,N,08011.0907,W,1,10,1.4,15,M,,M,,*64
06/03/2014	22:03:43.570	$GPGGA,220352,2543.6003,N,08011.0910,W,1,10,1.4,15,M,,M,,*61
06/03/2014	22:03:44.513	$GPGGA,220353,2543.6028,N,08011.0915,W,1,10,1.4,15,M,,M,,*6C
06/03/2014	22:03:45.555	$GPGGA,220354,2543.6052,N,08011.0921,W,1,10,1.4,15,M,,M,,*61
06/03/2014	22:03:46.528	$GPGGA,220355,2543.6075,N,08011.0925,W,1,10,1.4,15,M,,M,,*61
06/03/2014	22:03:47.510	$GPGGA,220356,2543.6099,N,08011.0930,W,1,10,1.4,15,M,,M,,*64
06/03/2014	22:03:48.553	$GPGGA,220357,2543.6122,N,08011.0936,W,1,10,1.4,15,M,,M,,*62
06/03/2014	22:03:49.554	$GPGGA,220358,2543.6147,N,08011.0939,W,1,10,1.4,15,M,,M,,*61
06/03/2014	22:03:50.537	$GPGGA,220359,2543.6169,N,08011.0944,W,1,10,1.4,15,M,,M,,*66
06/03/2014	22:03:51.519	$GPGGA,220400,2543.6194,N,08011.0948,W,1,10,1.4,15,M,,M,,*63
06/03/2014	22:03:52.622	$GPGGA,220401,2543.6218,N,08011.0954,W,1,10,1.4,15,M,,M,,*68
06/03/2014	22:03:53.554	$GPGGA,220402,2543.6241,N,08011.0958,W,1,10,1.4,15,M,,M,,*6B
06/03/2014	22:03:54.537	$GPGGA,220403,2543.6265,N,08011.0962,W,1,10,1.4,15,M,,M,,*65
06/03/2014	22:03:55.559	$GPGGA,220404,2543.6288,N,08011.0968,W,1,10,1.4,16,M,,M,,*68
06/03/2014	22:03:56.612	$GPGGA,220405,2543.6313,N,08011.0972,W,1,10,1.4,16,M,,M,,*61
06/03/2014	22:03:57.554	$GPGGA,220406,2543.6335,N,08011.0977,W,1,10,1.4,16,M,,M,,*63
06/03/2014	22:03:58.547	$GPGGA,220407,2543.6360,N,08011.0983,W,1,10,1.4,16,M,,M,,*69
06/03/2014	22:03:59.569	$GPGGA,220408,2543.6382,N,08011.0986,W,1,10,1.4,16,M,,M,,*6F
06/03/2014	22:04:00.632	$GPGGA,220409,2543.6407,N,08011.0990,W,1,10,1.4,16,M,,M,,*63
06/03/2014	22:04:01.564	$GPGGA,220410,2543.6429,N,08011.0995,W,1,10,1.4,16,M,,M,,*62
06/03/2014	22:04:02.627	$GPGGA,220411,2543.6454,N,08011.1001,W,1,10,1.4,16,M,,M,,*6C
06/03/2014	22:04:03.579	$GPGGA,220412,2543.6478,N,08011.1004,W,1,10,1.4,16,M,,M,,*64
06/03/2014	22:04:04.602	$GPGGA,220413,2543.6501,N,08011.1009,W,1,10,1.4,16,M,,M,,*67
06/03/2014	22:04:05.564	$GPGGA,220414,2543.6525,N,08011.1015,W,1,10,1.4,16,M,,M,,*6B
06/03/2014	22:04:06.647	$GPGGA,220415,2543.6548,N,08011.1019,W,1,10,1.4,16,M,,M,,*6D
06/03/2014	22:04:07.618	$GPGGA,220416,2543.6572,N,08011.1023,W,1,10,1.4,16,M,,M,,*6E
06/03/2014	22:04:08.651	$GPGGA,220417,2543.6595,N,08011.1027,W,1,10,1.4,16,M,,M,,*62
06/03/2014	22:04:09.603	$GPGGA,220418,2543.6619,N,08011.1033,W,1,10,1.4,16,M,,M,,*6F
06/03/2014	22:04:10.626	$GPGGA,220419,2543.6642,N,08011.1037,W,1,10,1.4,16,M,,M,,*64
06/03/2014	22:04:11.618	$GPGGA,220420,2543.6667,N,08011.1041,W,1,10,1.4,16,M,,M,,*68
06/03/2014	22:04:12.621	$GPGGA,220421,2543.6689,N,08011.1046,W,1,10,1.4,16,M,,M,,*6E
06/03/2014	22:04:13.613	$GPGGA,220422,2543.6714,N,08011.1051,W,1,10,1.4,16,M,,M,,*6E
06/03/2014	22:04:14.626	$GPGGA,220423,2543.6738,N,08011.1056,W,1,10,1.4,16,M,,M,,*66
06/03/2014	22:04:15.618	$GPGGA,220424,2543.6761,N,08011.1060,W,1,10,1.4,16,M,,M,,*68
06/03/2014	22:04:16.631	$GPGGA,220425,2543.6785,N,08011.1066,W,1,10,1.4,16,M,,M,,*65
06/03/2014	22:04:17.603	$GPGGA,220426,2543.6808,N,08011.1069,W,1,10,1.4,16,M,,M,,*63
06/03/2014	22:04:18.626	$GPGGA,220427,2543.6833,N,08011.1074,W,1,10,1.4,16,M,,M,,*66
06/03/2014	22:04:19.628	$GPGGA,220428,2543.6855,N,08011.1078,W,1,10,1.4,16,M,,M,,*65
06/03/2014	22:04:20.601	$GPGGA,220429,2543.6880,N,08011.1084,W,1,10,1.4,16,M,,M,,*6F
06/03/2014	22:04:21.613	$GPGGA,220430,2543.6902,N,08011.1087,W,1,10,1.4,16,M,,M,,*6F
06/03/2014	22:04:22.477	$GPGGA,220431,2543.6927,N,08011.1092,W,1,10,1.4,16,M,,M,,*6D
06/03/2014	22:04:23.509	$GPGGA,220432,2543.6949,N,08011.1098,W,1,10,1.4,16,M,,M,,*6C
06/03/2014	22:04:24.491	$GPGGA,220433,2543.6974,N,08011.1102,W,1,10,1.4,16,M,,M,,*61
06/03/2014	22:04:25.463	$GPGGA,220434,2543.6998,N,08011.1107,W,1,10,1.4,16,M,,M,,*61
06/03/2014	22:04:26.496	$GPGGA,220435,2543.7021,N,08011.1113,W,1,10,1.4,15,M,,M,,*6C
06/03/2014	22:04:27.508	$GPGGA,220436,2543.7045,N,08011.1116,W,1,10,1.4,15,M,,M,,*68
06/03/2014	22:04:28.471	$GPGGA,220437,2543.7068,N,08011.1121,W,1,10,1.4,15,M,,M,,*62
06/03/2014	22:04:29.493	$GPGGA,220438,2543.7092,N,08011.1127,W,1,10,1.4,15,M,,M,,*6E
06/03/2014	22:04:30.506	$GPGGA,220439,2543.7115,N,08011.1131,W,1,10,1.4,15,M,,M,,*66
06/03/2014	22:04:31.518	$GPGGA,220440,2543.7137,N,08011.1136,W,1,10,1.4,15,M,,M,,*6F
06/03/2014	22:04:32.491	$GPGGA,220441,2543.7162,N,08011.1141,W,1,10,1.4,15,M,,M,,*6E
06/03/2014	22:04:33.464	$GPGGA,220442,2543.7162,N,08011.1141,W,1,10,1.4,15,M,,M,,*6D
06/03/2014	22:04:34.476	$GPGGA,220443,2543.7209,N,08011.1150,W,1,10,1.4,15,M,,M,,*62
06/03/2014	22:04:35.488	$GPGGA,220444,2543.7231,N,08011.1156,W,1,10,1.4,15,M,,M,,*68
06/03/2014	22:04:36.501	$GPGGA,220445,2543.7231,N,08011.1156,W,1,10,1.4,15,M,,M,,*69
06/03/2014	22:04:37.513	$GPGGA,220446,2543.7278,N,08011.1164,W,1,10,1.4,15,M,,M,,*66
06/03/2014	22:04:38.596	$GPGGA,220447,2543.7302,N,08011.1170,W,1,10,1.4,15,M,,M,,*6E
06/03/2014	22:04:39.478	$GPGGA,220448,2543.7302,N,08011.1170,W,1,10,1.4,15,M,,M,,*61
06/03/2014	22:04:40.493	$GPGGA,220449,2543.7349,N,08011.1179,W,1,10,1.4,15,M,,M,,*66
06/03/2014	22:04:41.563	$GPGGA,220450,2543.7372,N,08011.1185,W,1,10,1.4,15,M,,M,,*65
06/03/2014	22:04:42.468	$GPGGA,220451,2543.7396,N,08011.1189,W,1,10,1.4,15,M,,M,,*62
06/03/2014	22:04:43.608	$GPGGA,220452,2543.7419,N,08011.1194,W,1,10,1.4,15,M,,M,,*6D
06/03/2014	22:04:44.460	$GPGGA,220453,2543.7443,N,08011.1199,W,1,10,1.4,15,M,,M,,*6E
06/03/2014	22:04:45.572	$GPGGA,220454,2543.7466,N,08011.1204,W,1,10,1.4,15,M,,M,,*69
06/03/2014	22:04:46.595	$GPGGA,220455,2543.7488,N,08011.1210,W,1,10,1.4,15,M,,M,,*6D
06/03/2014	22:04:47.489	$GPGGA,220456,2543.7513,N,08011.1214,W,1,10,1.4,15,M,,M,,*69
06/03/2014	22:04:48.570	$GPGGA,220457,2543.7536,N,08011.1219,W,1,10,1.4,15,M,,M,,*62
06/03/2014	22:04:49.482	$GPGGA,220458,2543.7536,N,08011.1219,W,1,10,1.4,15,M,,M,,*6D
06/03/2014	22:04:50.585	$GPGGA,220459,2543.7583,N,08011.1230,W,1,10,1.4,15,M,,M,,*69
06/03/2014	22:04:51.597	$GPGGA,220500,2543.7607,N,08011.1236,W,1,10,1.4,14,M,,M,,*6C
06/03/2014	22:04:52.570	$GPGGA,220501,2543.7630,N,08011.1239,W,1,10,1.4,14,M,,M,,*66
06/03/2014	22:04:53.582	$GPGGA,220502,2543.7653,N,08011.1244,W,1,10,1.4,14,M,,M,,*6A
06/03/2014	22:04:54.565	$GPGGA,220503,2543.7677,N,08011.1250,W,1,10,1.4,14,M,,M,,*68
06/03/2014	22:04:55.577	$GPGGA,220504,2543.7700,N,08011.1254,W,1,10,1.4,14,M,,M,,*6A
06/03/2014	22:04:56.580	$GPGGA,220505,2543.7724,N,08011.1261,W,1,10,1.4,14,M,,M,,*6B
06/03/2014	22:04:57.572	$GPGGA,220506,2543.7747,N,08011.1265,W,1,10,1.4,14,M,,M,,*69
06/03/2014	22:04:58.565	$GPGGA,220507,2543.7771,N,08011.1270,W,1,10,1.4,14,M,,M,,*69
06/03/2014	22:04:59.606	$GPGGA,220508,2543.7794,N,08011.1275,W,1,10,1.4,14,M,,M,,*68
06/03/2014	22:05:00.589	$GPGGA,220509,2543.7816,N,08011.1280,W,1,10,1.4,14,M,,M,,*66
06/03/2014	22:05:01.581	$GPGGA,220510,2543.7841,N,08011.1286,W,1,10,1.4,14,M,,M,,*6A
06/03/2014	22:05:02.564	$GPGGA,220511,2543.7863,N,08011.1290,W,1,10,1.4,14,M,,M,,*6C
06/03/2014	22:05:03.586	$GPGGA,220512,2543.7887,N,08011.1295,W,1,10,1.4,14,M,,M,,*60
06/03/2014	22:05:04.589	$GPGGA,220513,2543.7910,N,08011.1300,W,1,10,1.4,14,M,,M,,*63
06/03/2014	22:05:05.571	$GPGGA,220514,2543.7934,N,08011.1304,W,1,10,1.7,14,M,,M,,*65
06/03/2014	22:05:06.594	$GPGGA,220515,2543.7956,N,08011.1306,W,1,10,1.4,14,M,,M,,*61
06/03/2014	22:05:07.586	$GPGGA,220516,2543.7979,N,08011.1309,W,1,10,1.4,14,M,,M,,*60
06/03/2014	22:05:08.569	$GPGGA,220517,2543.8001,N,08011.1311,W,1,10,1.4,14,M,,M,,*61
06/03/2014	22:05:09.571	$GPGGA,220518,2543.8025,N,08011.1313,W,1,10,1.4,14,M,,M,,*6A
06/03/2014	22:05:10.594	$GPGGA,220519,2543.8047,N,08011.1315,W,1,10,1.4,14,M,,M,,*69
06/03/2014	22:05:11.586	$GPGGA,220520,2543.8072,N,08011.1318,W,1,10,1.4,14,M,,M,,*68
06/03/2014	22:05:12.564	$GPGGA,220521,2543.8094,N,08011.1319,W,1,9,1.7,14,M,,M,,*5B
06/03/2014	22:05:13.581	$GPGGA,220522,2543.8119,N,08011.1320,W,1,9,1.7,14,M,,M,,*56
06/03/2014	22:05:14.604	$GPGGA,220523,2543.8143,N,08011.1322,W,1,9,1.7,14,M,,M,,*5A
06/03/2014	22:05:15.596	$GPGGA,220524,2543.8167,N,08011.1323,W,1,9,1.7,14,M,,M,,*5A
06/03/2014	22:05:17.600	$GPGGA,220526,2543.8214,N,08011.1326,W,1,9,1.7,14,M,,M,,*5A
06/03/2014	22:05:18.603	$GPGGA,220527,2543.8238,N,08011.1326,W,1,9,1.7,14,M,,M,,*55
06/03/2014	22:05:19.585	$GPGGA,220528,2543.8261,N,08011.1327,W,1,9,1.7,14,M,,M,,*57
06/03/2014	22:05:20.588	$GPGGA,220529,2543.8285,N,08011.1324,W,1,9,1.7,14,M,,M,,*5F
06/03/2014	22:05:21.574	$GPGGA,220530,2543.8308,N,08011.1324,W,1,9,1.4,14,M,,M,,*50
06/03/2014	22:05:22.425	$GPGGA,220531,2543.8332,N,08011.1323,W,1,10,1.4,14,M,,M,,*67
06/03/2014	22:05:23.457	$GPGGA,220532,2543.8355,N,08011.1322,W,1,10,1.4,14,M,,M,,*64
06/03/2014	22:05:24.440	$GPGGA,220533,2543.8380,N,08011.1322,W,1,10,1.4,14,M,,M,,*6D
06/03/2014	22:05:25.462	$GPGGA,220534,2543.8402,N,08011.1321,W,1,10,1.4,14,M,,M,,*64
06/03/2014	22:05:26.455	$GPGGA,220535,2543.8426,N,08011.1320,W,1,10,1.4,15,M,,M,,*63
06/03/2014	22:05:27.447	$GPGGA,220536,2543.8449,N,08011.1319,W,1,10,1.4,15,M,,M,,*63
06/03/2014	22:05:28.430	$GPGGA,220537,2543.8474,N,08011.1318,W,1,10,1.4,15,M,,M,,*6D
06/03/2014	22:05:29.522	$GPGGA,220538,2543.8498,N,08011.1317,W,1,10,1.4,15,M,,M,,*6F
06/03/2014	22:05:30.425	$GPGGA,220539,2543.8521,N,08011.1315,W,1,10,1.4,15,M,,M,,*6F
06/03/2014	22:05:31.463	$GPGGA,220540,2543.8545,N,08011.1313,W,1,10,1.4,15,M,,M,,*65
06/03/2014	22:05:32.442	$GPGGA,220541,2543.8568,N,08011.1312,W,1,10,1.4,15,M,,M,,*6A
06/03/2014	22:05:33.542	$GPGGA,220542,2543.8592,N,08011.1311,W,1,10,1.4,15,M,,M,,*6F
06/03/2014	22:05:34.434	$GPGGA,220543,2543.8615,N,08011.1309,W,1,10,1.4,15,M,,M,,*6B
06/03/2014	22:05:35.536	$GPGGA,220544,2543.8639,N,08011.1307,W,1,10,1.4,15,M,,M,,*6C
06/03/2014	22:05:36.539	$GPGGA,220545,2543.8662,N,08011.1306,W,1,10,1.4,15,M,,M,,*62
06/03/2014	22:05:37.541	$GPGGA,220546,2543.8687,N,08011.1304,W,1,10,1.4,15,M,,M,,*68
06/03/2014	22:05:38.544	$GPGGA,220547,2543.8711,N,08011.1302,W,1,10,1.4,15,M,,M,,*61
06/03/2014	22:05:39.546	$GPGGA,220548,2543.8734,N,08011.1301,W,1,10,1.4,15,M,,M,,*6A
06/03/2014	22:05:40.569	$GPGGA,220549,2543.8758,N,08011.1299,W,1,10,1.4,15,M,,M,,*61
06/03/2014	22:05:41.541	$GPGGA,220550,2543.8781,N,08011.1298,W,1,10,1.4,16,M,,M,,*6F
06/03/2014	22:05:42.534	$GPGGA,220551,2543.8806,N,08011.1297,W,1,10,1.4,16,M,,M,,*61
06/03/2014	22:05:43.546	$GPGGA,220552,2543.8830,N,08011.1295,W,1,10,1.4,16,M,,M,,*65
06/03/2014	22:05:44.559	$GPGGA,220553,2543.8853,N,08011.1294,W,1,10,1.4,16,M,,M,,*60
06/03/2014	22:05:45.551	$GPGGA,220554,2543.8878,N,08011.1293,W,1,10,1.4,16,M,,M,,*69
06/03/2014	22:05:46.534	$GPGGA,220555,2543.8902,N,08011.1292,W,1,10,1.4,16,M,,M,,*65
06/03/2014	22:05:47.556	$GPGGA,220556,2543.8925,N,08011.1290,W,1,10,1.4,16,M,,M,,*61
06/03/2014	22:05:48.549	$GPGGA,220557,2543.8950,N,08011.1288,W,1,10,1.4,16,M,,M,,*6B
06/03/2014	22:05:49.541	$GPGGA,220558,2543.8974,N,08011.1287,W,1,10,1.4,16,M,,M,,*6D
06/03/2014	22:05:50.534	$GPGGA,220559,2543.8997,N,08011.1285,W,1,10,1.4,16,M,,M,,*63
06/03/2014	22:05:51.556	$GPGGA,220600,2543.9022,N,08011.1284,W,1,10,1.4,16,M,,M,,*6B
06/03/2014	22:05:52.558	$GPGGA,220601,2543.9045,N,08011.1282,W,1,10,1.4,16,M,,M,,*6D
06/03/2014	22:05:53.550	$GPGGA,220602,2543.9070,N,08011.1281,W,1,10,1.4,16,M,,M,,*6B
06/03/2014	22:05:54.563	$GPGGA,220603,2543.9095,N,08011.1279,W,1,10,1.4,17,M,,M,,*67
06/03/2014	22:05:55.565	$GPGGA,220604,2543.9119,N,08011.1278,W,1,10,1.4,17,M,,M,,*64
06/03/2014	22:05:56.568	$GPGGA,220605,2543.9144,N,08011.1276,W,1,10,1.4,17,M,,M,,*63
06/03/2014	22:05:57.540	$GPGGA,220606,2543.9167,N,08011.1274,W,1,10,1.4,17,M,,M,,*63
06/03/2014	22:05:58.573	$GPGGA,220607,2543.9192,N,08011.1273,W,1,10,1.4,17,M,,M,,*6F
06/03/2014	22:05:59.555	$GPGGA,220608,2543.9216,N,08011.1271,W,1,10,1.4,17,M,,M,,*6D
06/03/2014	22:06:00.558	$GPGGA,220609,2543.9240,N,08011.1269,W,1,10,1.4,17,M,,M,,*66
06/03/2014	22:06:01.550	$GPGGA,220610,2543.9264,N,08011.1268,W,1,10,1.4,17,M,,M,,*69
06/03/2014	22:06:02.543	$GPGGA,220611,2543.9289,N,08011.1266,W,1,10,1.4,17,M,,M,,*65
06/03/2014	22:06:03.555	$GPGGA,220612,2543.9312,N,08011.1265,W,1,10,1.4,17,M,,M,,*66
06/03/2014	22:06:04.578	$GPGGA,220613,2543.9337,N,08011.1263,W,1,10,1.4,17,M,,M,,*66
06/03/2014	22:06:05.540	$GPGGA,220614,2543.9361,N,08011.1261,W,1,10,1.4,17,M,,M,,*60
06/03/2014	22:06:06.653	$GPGGA,220615,2543.9384,N,08011.1260,W,1,10,1.4,17,M,,M,,*6B
06/03/2014	22:06:07.565	$GPGGA,220616,2543.9409,N,08011.1258,W,1,10,1.4,17,M,,M,,*61
06/03/2014	22:06:08.578	$GPGGA,220617,2543.9433,N,08011.1256,W,1,10,1.4,17,M,,M,,*67
06/03/2014	22:06:09.541	$GPGGA,220618,2543.9458,N,08011.1255,W,1,10,1.4,17,M,,M,,*66
06/03/2014	22:06:10.662	$GPGGA,220619,2543.9481,N,08011.1253,W,1,10,1.4,17,M,,M,,*65
06/03/2014	22:06:11.675	$GPGGA,220620,2543.9505,N,08011.1252,W,1,10,1.4,17,M,,M,,*63
06/03/2014	22:06:12.548	$GPGGA,220621,2543.9529,N,08011.1250,W,1,10,1.4,17,M,,M,,*6E
06/03/2014	22:06:13.670	$GPGGA,220622,2543.9553,N,08011.1248,W,1,10,1.4,17,M,,M,,*69
06/03/2014	22:06:14.565	$GPGGA,220623,2543.9576,N,08011.1246,W,1,10,1.4,17,M,,M,,*61
06/03/2014	22:06:15.568	$GPGGA,220624,2543.9601,N,08011.1245,W,1,10,1.4,17,M,,M,,*66
06/03/2014	22:06:16.647	$GPGGA,220625,2543.9625,N,08011.1243,W,1,10,1.4,17,M,,M,,*67
06/03/2014	22:06:17.549	$GPGGA,220626,2543.9648,N,08011.1241,W,1,10,1.4,17,M,,M,,*6D
06/03/2014	22:06:18.562	$GPGGA,220627,2543.9673,N,08011.1239,W,1,10,1.4,17,M,,M,,*6B
06/03/2014	22:06:19.675	$GPGGA,220628,2543.9697,N,08011.1238,W,1,10,1.4,17,M,,M,,*6F
06/03/2014	22:06:20.647	$GPGGA,220629,2543.9720,N,08011.1236,W,1,10,1.4,17,M,,M,,*6D
06/03/2014	22:06:21.659	$GPGGA,220630,2543.9745,N,08011.1234,W,1,10,1.4,17,M,,M,,*64
06/03/2014	22:06:22.534	$GPGGA,220631,2543.9769,N,08011.1232,W,1,10,1.4,17,M,,M,,*6D
06/03/2014	22:06:23.432	$GPGGA,220632,2543.9792,N,08011.1230,W,1,10,1.4,17,M,,M,,*68
06/03/2014	22:06:24.509	$GPGGA,220633,2543.9817,N,08011.1228,W,1,10,1.4,17,M,,M,,*62
06/03/2014	22:06:25.411	$GPGGA,220634,2543.9839,N,08011.1226,W,1,10,1.4,17,M,,M,,*67
06/03/2014	22:06:26.514	$GPGGA,220635,2543.9864,N,08011.1224,W,1,10,1.4,17,M,,M,,*6C
06/03/2014	22:06:27.515	$GPGGA,220636,2543.9888,N,08011.1223,W,1,10,1.4,17,M,,M,,*6A
06/03/2014	22:06:28.508	$GPGGA,220637,2543.9911,N,08011.1221,W,1,10,1.4,17,M,,M,,*68
06/03/2014	22:06:29.510	$GPGGA,220638,2543.9935,N,08011.1219,W,1,10,1.4,17,M,,M,,*6A
06/03/2014	22:06:30.523	$GPGGA,220639,2543.9958,N,08011.1217,W,1,10,1.4,17,M,,M,,*6E
06/03/2014	22:06:31.525	$GPGGA,220640,2543.9983,N,08011.1216,W,1,10,1.4,17,M,,M,,*67
06/03/2014	22:06:32.518	$GPGGA,220641,2544.0006,N,08011.1213,W,1,10,1.4,17,M,,M,,*69
06/03/2014	22:06:33.510	$GPGGA,220642,2544.0031,N,08011.1212,W,1,10,1.4,17,M,,M,,*6F
06/03/2014	22:06:34.513	$GPGGA,220643,2544.0053,N,08011.1210,W,1,10,1.4,17,M,,M,,*68
06/03/2014	22:06:35.525	$GPGGA,220644,2544.0078,N,08011.1208,W,1,10,1.4,17,M,,M,,*6F
06/03/2014	22:06:36.528	$GPGGA,220645,2544.0102,N,08011.1206,W,1,10,1.4,17,M,,M,,*6C
06/03/2014	22:06:37.510	$GPGGA,220646,2544.0125,N,08011.1203,W,1,10,1.4,17,M,,M,,*6F
06/03/2014	22:06:38.503	$GPGGA,220647,2544.0149,N,08011.1201,W,1,10,1.4,17,M,,M,,*66
06/03/2014	22:06:39.535	$GPGGA,220648,2544.0172,N,08011.1199,W,1,10,1.4,17,M,,M,,*63
06/03/2014	22:06:40.528	$GPGGA,220649,2544.0196,N,08011.1196,W,1,10,1.4,17,M,,M,,*67
06/03/2014	22:06:41.510	$GPGGA,220650,2544.0219,N,08011.1194,W,1,10,1.4,17,M,,M,,*69
06/03/2014	22:06:42.543	$GPGGA,220651,2544.0243,N,08011.1191,W,1,10,1.4,17,M,,M,,*62
06/03/2014	22:06:43.525	$GPGGA,220652,2544.0266,N,08011.1189,W,1,10,1.4,17,M,,M,,*6F
06/03/2014	22:06:44.547	$GPGGA,220653,2544.0291,N,08011.1186,W,1,10,1.4,17,M,,M,,*69
06/03/2014	22:06:45.509	$GPGGA,220654,2544.0313,N,08011.1183,W,1,10,1.4,17,M,,M,,*60
06/03/2014	22:06:46.502	$GPGGA,220655,2544.0338,N,08011.1180,W,1,10,1.4,17,M,,M,,*6B
06/03/2014	22:06:47.524	$GPGGA,220656,2544.0362,N,08011.1178,W,1,10,1.4,17,M,,M,,*60
06/03/2014	22:06:48.547	$GPGGA,220657,2544.0385,N,08011.1175,W,1,10,1.4,17,M,,M,,*65
06/03/2014	22:06:49.503	$GPGGA,220658,2544.0409,N,08011.1173,W,1,10,1.4,17,M,,M,,*6F
06/03/2014	22:06:50.532	$GPGGA,220659,2544.0432,N,08011.1170,W,1,10,1.4,17,M,,M,,*65
06/03/2014	22:06:51.544	$GPGGA,220700,2544.0456,N,08011.1168,W,1,10,1.4,17,M,,M,,*63
06/03/2014	22:06:52.517	$GPGGA,220701,2544.0479,N,08011.1165,W,1,10,1.4,17,M,,M,,*62
06/03/2014	22:06:53.519	$GPGGA,220702,2544.0503,N,08011.1163,W,1,10,1.4,17,M,,M,,*6B
06/03/2014	22:06:54.508	$GPGGA,220703,2544.0526,N,08011.1161,W,1,10,1.4,17,M,,M,,*6F
06/03/2014	22:06:55.534	$GPGGA,220704,2544.0550,N,08011.1159,W,1,10,1.4,17,M,,M,,*62
06/03/2014	22:06:56.617	$GPGGA,220705,2544.0573,N,08011.1157,W,1,10,1.4,17,M,,M,,*6C
06/03/2014	22:06:57.521	$GPGGA,220706,2544.0597,N,08011.1155,W,1,10,1.4,17,M,,M,,*67
06/03/2014	22:06:58.642	$GPGGA,220707,2544.0620,N,08011.1153,W,1,10,1.4,17,M,,M,,*6F
06/03/2014	22:06:59.534	$GPGGA,220708,2544.0645,N,08011.1151,W,1,10,1.4,17,M,,M,,*61
06/03/2014	22:07:00.620	$GPGGA,220709,2544.0669,N,08011.1149,W,1,10,1.4,17,M,,M,,*67
06/03/2014	22:07:01.509	$GPGGA,220710,2544.0692,N,08011.1146,W,1,10,1.4,17,M,,M,,*64
06/03/2014	22:07:02.521	$GPGGA,220711,2544.0714,N,08011.1144,W,1,10,1.4,17,M,,M,,*68
06/03/2014	22:07:03.654	$GPGGA,220712,2544.0739,N,08011.1142,W,1,10,1.4,17,M,,M,,*62
06/03/2014	22:07:04.656	$GPGGA,220713,2544.0763,N,08011.1140,W,1,10,1.4,17,M,,M,,*6E
06/03/2014	22:07:05.528	$GPGGA,220714,2544.0786,N,08011.1138,W,1,10,1.4,17,M,,M,,*6D
06/03/2014	22:07:06.641	$GPGGA,220715,2544.0810,N,08011.1137,W,1,10,1.4,17,M,,M,,*63
06/03/2014	22:07:07.533	$GPGGA,220716,2544.0833,N,08011.1134,W,1,10,1.4,17,M,,M,,*62
06/03/2014	22:07:08.526	$GPGGA,220717,2544.0857,N,08011.1133,W,1,10,1.4,17,M,,M,,*66
06/03/2014	22:07:09.608	$GPGGA,220718,2544.0880,N,08011.1132,W,1,10,1.4,17,M,,M,,*62
06/03/2014	22:07:10.651	$GPGGA,220719,2544.0905,N,08011.1130,W,1,10,1.4,17,M,,M,,*6D
06/03/2014	22:07:11.633	$GPGGA,220720,2544.0929,N,08011.1128,W,1,10,1.4,17,M,,M,,*60
06/03/2014	22:07:12.636	$GPGGA,220721,2544.0952,N,08011.1126,W,1,10,1.4,17,M,,M,,*63
06/03/2014	22:07:13.618	$GPGGA,220722,2544.0976,N,08011.1124,W,1,10,1.4,17,M,,M,,*64
06/03/2014	22:07:14.641	$GPGGA,220723,2544.0999,N,08011.1123,W,1,10,1.4,17,M,,M,,*63
06/03/2014	22:07:15.633	$GPGGA,220724,2544.1023,N,08011.1121,W,1,10,1.4,17,M,,M,,*6F
06/03/2014	22:07:16.616	$GPGGA,220725,2544.1046,N,08011.1119,W,1,10,1.4,17,M,,M,,*66
06/03/2014	22:07:17.608	$GPGGA,220726,2544.1070,N,08011.1116,W,1,10,1.4,17,M,,M,,*6F
06/03/2014	22:07:18.631	$GPGGA,220727,2544.1093,N,08011.1114,W,1,10,1.4,17,M,,M,,*61
06/03/2014	22:07:19.632	$GPGGA,220728,2544.1117,N,08011.1112,W,1,10,1.4,17,M,,M,,*65
06/03/2014	22:07:20.615	$GPGGA,220729,2544.1140,N,08011.1110,W,1,10,1.4,17,M,,M,,*64
06/03/2014	22:07:21.627	$GPGGA,220730,2544.1165,N,08011.1109,W,1,10,1.4,17,M,,M,,*63
06/03/2014	22:07:22.482	$GPGGA,220731,2544.1187,N,08011.1108,W,1,10,1.4,17,M,,M,,*6F
06/03/2014	22:07:23.504	$GPGGA,220732,2544.1211,N,08011.1105,W,1,10,1.4,17,M,,M,,*6D
06/03/2014	22:07:24.487	$GPGGA,220733,2544.1234,N,08011.1103,W,1,10,1.4,17,M,,M,,*6D
06/03/2014	22:07:25.479	$GPGGA,220734,2544.1258,N,08011.1101,W,1,10,1.4,17,M,,M,,*62
06/03/2014	22:07:26.492	$GPGGA,220735,2544.1281,N,08011.1099,W,1,10,1.4,17,M,,M,,*67
06/03/2014	22:07:27.484	$GPGGA,220736,2544.1305,N,08011.1098,W,1,10,1.4,17,M,,M,,*68
06/03/2014	22:07:28.467	$GPGGA,220737,2544.1328,N,08011.1096,W,1,10,1.4,17,M,,M,,*68
06/03/2014	22:07:29.469	$GPGGA,220738,2544.1352,N,08011.1094,W,1,10,1.4,17,M,,M,,*68
06/03/2014	22:07:30.502	$GPGGA,220739,2544.1375,N,08011.1092,W,1,10,1.4,17,M,,M,,*6A
06/03/2014	22:07:31.484	$GPGGA,220740,2544.1399,N,08011.1090,W,1,10,1.4,18,M,,M,,*6B
06/03/2014	22:07:32.507	$GPGGA,220741,2544.1422,N,08011.1088,W,1,10,1.4,18,M,,M,,*64
06/03/2014	22:07:33.469	$GPGGA,220742,2544.1445,N,08011.1085,W,1,10,1.4,18,M,,M,,*6B
06/03/2014	22:07:34.512	$GPGGA,220743,2544.1469,N,08011.1083,W,1,10,1.4,18,M,,M,,*62
06/03/2014	22:07:35.494	$GPGGA,220744,2544.1492,N,08011.1081,W,1,10,1.4,18,M,,M,,*63
06/03/2014	22:07:36.497	$GPGGA,220745,2544.1516,N,08011.1078,W,1,10,1.4,18,M,,M,,*69
06/03/2014	22:07:37.468	$GPGGA,220746,2544.1539,N,08011.1076,W,1,10,1.4,18,M,,M,,*69
06/03/2014	22:07:38.471	$GPGGA,220747,2544.1563,N,08011.1074,W,1,10,1.4,18,M,,M,,*65
06/03/2014	22:07:39.483	$GPGGA,220748,2544.1586,N,08011.1072,W,1,9,1.4,18,M,,M,,*5F
06/03/2014	22:07:40.616	$GPGGA,220749,2544.1609,N,08011.1070,W,1,9,1.4,18,M,,M,,*58
06/03/2014	22:07:41.498	$GPGGA,220750,2544.1631,N,08011.1068,W,1,9,1.4,18,M,,M,,*52
06/03/2014	22:07:42.521	$GPGGA,220751,2544.1655,N,08011.1066,W,1,9,1.4,18,M,,M,,*5F
06/03/2014	22:07:43.493	$GPGGA,220752,2544.1678,N,08011.1063,W,1,9,1.4,18,M,,M,,*56
06/03/2014	22:07:44.476	$GPGGA,220753,2544.1702,N,08011.1061,W,1,9,1.4,18,M,,M,,*59
06/03/2014	22:07:45.589	$GPGGA,220754,2544.1725,N,08011.1059,W,1,9,1.4,18,M,,M,,*50
06/03/2014	22:07:46.501	$GPGGA,220755,2544.1747,N,08011.1056,W,1,9,1.4,18,M,,M,,*5A
06/03/2014	22:07:47.604	$GPGGA,220756,2544.1771,N,08011.1054,W,1,9,1.4,18,M,,M,,*5E
06/03/2014	22:07:48.486	$GPGGA,220757,2544.1794,N,08011.1052,W,1,9,1.4,18,M,,M,,*52
06/03/2014	22:07:49.478	$GPGGA,220758,2544.1818,N,08011.1049,W,1,9,1.4,18,M,,M,,*5C
06/03/2014	22:07:50.481	$GPGGA,220759,2544.1841,N,08011.1047,W,1,9,1.4,18,M,,M,,*5F
06/03/2014	22:07:51.624	$GPGGA,220800,2544.1865,N,08011.1045,W,1,9,1.4,18,M,,M,,*58
06/03/2014	22:07:52.588	$GPGGA,220801,2544.1888,N,08011.1043,W,1,9,1.4,18,M,,M,,*5C
06/03/2014	22:07:53.488	$GPGGA,220802,2544.1911,N,08011.1040,W,1,9,1.4,18,M,,M,,*5D
06/03/2014	22:07:54.616	$GPGGA,220803,2544.1934,N,08011.1039,W,1,9,1.4,18,M,,M,,*55
06/03/2014	22:07:55.614	$GPGGA,220804,2544.1956,N,08011.1037,W,1,9,1.4,18,M,,M,,*58
06/03/2014	22:07:56.585	$GPGGA,220805,2544.1981,N,08011.1035,W,1,9,1.4,18,M,,M,,*51
06/03/2014	22:07:57.587	$GPGGA,220806,2544.2003,N,08011.1033,W,1,9,1.4,18,M,,M,,*54
06/03/2014	22:07:58.600	$GPGGA,220807,2544.2028,N,08011.1031,W,1,9,1.4,18,M,,M,,*5E
06/03/2014	22:07:59.602	$GPGGA,220808,2544.2050,N,08011.1029,W,1,9,1.4,18,M,,M,,*57
06/03/2014	22:08:00.605	$GPGGA,220809,2544.2075,N,08011.1027,W,1,9,1.4,18,M,,M,,*5F
06/03/2014	22:08:01.587	$GPGGA,220810,2544.2097,N,08011.1025,W,1,9,1.4,18,M,,M,,*59
06/03/2014	22:08:02.610	$GPGGA,220811,2544.2121,N,08011.1023,W,1,9,1.4,18,M,,M,,*52
06/03/2014	22:08:03.612	$GPGGA,220812,2544.2144,N,08011.1021,W,1,9,1.4,18,M,,M,,*50
06/03/2014	22:08:04.605	$GPGGA,220813,2544.2168,N,08011.1019,W,1,9,1.4,18,M,,M,,*54
06/03/2014	22:08:05.587	$GPGGA,220814,2544.2191,N,08011.1017,W,1,9,1.4,18,M,,M,,*5B
06/03/2014	22:08:06.600	$GPGGA,220815,2544.2215,N,08011.1015,W,1,9,1.4,18,M,,M,,*57
06/03/2014	22:08:07.602	$GPGGA,220816,2544.2238,N,08011.1013,W,1,9,1.4,18,M,,M,,*5D
06/03/2014	22:08:08.625	$GPGGA,220817,2544.2262,N,08011.1012,W,1,9,1.4,18,M,,M,,*52
06/03/2014	22:08:09.587	$GPGGA,220818,2544.2285,N,08011.1010,W,1,9,1.4,18,M,,M,,*56
06/03/2014	22:08:10.610	$GPGGA,220819,2544.2309,N,08011.1008,W,1,9,1.4,18,M,,M,,*5B
06/03/2014	22:08:11.622	$GPGGA,220820,2544.2332,N,08011.1006,W,1,9,1.4,18,M,,M,,*57
06/03/2014	22:08:12.584	$GPGGA,220821,2544.2356,N,08011.1004,W,1,9,1.4,18,M,,M,,*56
06/03/2014	22:08:13.596	$GPGGA,220822,2544.2379,N,08011.1003,W,1,9,1.4,18,M,,M,,*5F
06/03/2014	22:08:14.629	$GPGGA,220823,2544.2403,N,08011.1001,W,1,9,1.4,18,M,,M,,*56
06/03/2014	22:08:15.601	$GPGGA,220824,2544.2426,N,08011.0999,W,1,9,1.4,18,M,,M,,*5F
06/03/2014	22:08:16.614	$GPGGA,220825,2544.2450,N,08011.0998,W,1,9,1.4,18,M,,M,,*5E
06/03/2014	22:08:17.596	$GPGGA,220826,2544.2473,N,08011.0996,W,1,9,1.4,18,M,,M,,*52
06/03/2014	22:08:18.609	$GPGGA,220827,2544.2497,N,08011.0995,W,1,9,1.4,18,M,,M,,*5A
06/03/2014	22:08:19.601	$GPGGA,220828,2544.2520,N,08011.0993,W,1,9,1.4,18,M,,M,,*5E
06/03/2014	22:08:20.624	$GPGGA,220829,2544.2544,N,08011.0992,W,1,9,1.4,18,M,,M,,*5C
06/03/2014	22:08:21.596	$GPGGA,220830,2544.2567,N,08011.0991,W,1,9,1.4,18,M,,M,,*56
06/03/2014	22:08:22.470	$GPGGA,220831,2544.2591,N,08011.0989,W,1,9,1.4,18,M,,M,,*57
06/03/2014	22:08:23.492	$GPGGA,220832,2544.2614,N,08011.0988,W,1,9,1.4,18,M,,M,,*5B
06/03/2014	22:08:24.475	$GPGGA,220833,2544.2638,N,08011.0986,W,1,9,1.4,18,M,,M,,*5A
06/03/2014	22:08:26.490	$GPGGA,220835,2544.2685,N,08011.0984,W,1,9,1.4,18,M,,M,,*58
06/03/2014	22:08:27.482	$GPGGA,220836,2544.2708,N,08011.0983,W,1,9,1.4,18,M,,M,,*58
06/03/2014	22:08:28.539	$GPGGA,220837,2544.2732,N,08011.0982,W,1,9,1.4,18,M,,M,,*51
06/03/2014	22:08:29.456	$GPGGA,220838,2544.2755,N,08011.0981,W,1,9,1.4,18,M,,M,,*5C
06/03/2014	22:08:30.439	$GPGGA,220839,2544.2777,N,08011.0980,W,1,9,1.4,18,M,,M,,*5C
06/03/2014	22:08:31.481	$GPGGA,220840,2544.2802,N,08011.0978,W,1,9,1.4,18,M,,M,,*58
06/03/2014	22:08:32.574	$GPGGA,220841,2544.2824,N,08011.0977,W,1,9,1.4,18,M,,M,,*52
06/03/2014	22:08:33.466	$GPGGA,220842,2544.2848,N,08011.0976,W,1,9,1.4,18,M,,M,,*5A
06/03/2014	22:08:34.439	$GPGGA,220843,2544.2872,N,08011.0975,W,1,9,1.4,18,M,,M,,*51
06/03/2014	22:08:35.481	$GPGGA,220844,2544.2895,N,08011.0973,W,1,9,1.4,18,M,,M,,*59
06/03/2014	22:08:36.544	$GPGGA,220845,2544.2917,N,08011.0972,W,1,9,1.4,18,M,,M,,*52
06/03/2014	22:08:37.466	$GPGGA,220846,2544.2942,N,08011.0970,W,1,9,1.4,18,M,,M,,*53
06/03/2014	22:08:38.569	$GPGGA,220847,2544.2964,N,08011.0968,W,1,9,1.4,18,M,,M,,*5F
06/03/2014	22:08:39.491	$GPGGA,220848,2544.2988,N,08011.0967,W,1,9,1.4,18,M,,M,,*5D
06/03/2014	22:08:40.544	$GPGGA,220849,2544.3011,N,08011.0965,W,1,9,1.4,18,M,,M,,*56
06/03/2014	22:08:41.546	$GPGGA,220850,2544.3035,N,08011.0963,W,1,9,1.4,18,M,,M,,*5E
06/03/2014	22:08:42.539	$GPGGA,220851,2544.3058,N,08011.0961,W,1,9,1.4,18,M,,M,,*56
06/03/2014	22:08:43.491	$GPGGA,220852,2544.3080,N,08011.0959,W,1,9,1.4,18,M,,M,,*5B
06/03/2014	22:08:44.564	$GPGGA,220853,2544.3105,N,08011.0956,W,1,9,1.4,18,M,,M,,*59
06/03/2014	22:08:45.556	$GPGGA,220854,2544.3127,N,08011.0953,W,1,9,1.4,18,M,,M,,*5B
06/03/2014	22:08:46.549	$GPGGA,220855,2544.3152,N,08011.0951,W,1,9,1.4,18,M,,M,,*5A
06/03/2014	22:08:47.560	$GPGGA,220856,2544.3174,N,08011.0949,W,1,9,1.4,18,M,,M,,*54
06/03/2014	22:08:48.563	$GPGGA,220857,2544.3198,N,08011.0947,W,1,9,1.4,18,M,,M,,*59
06/03/2014	22:08:49.555	$GPGGA,220858,2544.3221,N,08011.0945,W,1,9,1.4,18,M,,M,,*55
06/03/2014	22:08:50.568	$GPGGA,220859,2544.3245,N,08011.0943,W,1,9,1.4,18,M,,M,,*50
06/03/2014	22:08:51.580	$GPGGA,220900,2544.3268,N,08011.0940,W,1,9,1.4,18,M,,M,,*51
06/03/2014	22:08:52.573	$GPGGA,220901,2544.3292,N,08011.0938,W,1,9,1.4,18,M,,M,,*5A
06/03/2014	22:08:53.565	$GPGGA,220902,2544.3315,N,08011.0936,W,1,9,1.4,18,M,,M,,*59
06/03/2014	22:08:54.568	$GPGGA,220903,2544.3339,N,08011.0934,W,1,9,1.4,18,M,,M,,*54
06/03/2014	22:08:55.560	$GPGGA,220904,2544.3362,N,08011.0932,W,1,9,1.4,18,M,,M,,*5B
06/03/2014	22:08:56.573	$GPGGA,220905,2544.3385,N,08011.0930,W,1,9,1.4,18,M,,M,,*51
06/03/2014	22:08:57.555	$GPGGA,220906,2544.3409,N,08011.0928,W,1,9,1.4,18,M,,M,,*58
06/03/2014	22:08:58.558	$GPGGA,220907,2544.3432,N,08011.0926,W,1,9,1.4,18,M,,M,,*5F
06/03/2014	22:08:59.570	$GPGGA,220908,2544.3456,N,08011.0925,W,1,9,1.4,18,M,,M,,*51
06/03/2014	22:09:00.573	$GPGGA,220909,2544.3479,N,08011.0923,W,1,9,1.4,18,M,,M,,*5B
06/03/2014	22:09:01.555	$GPGGA,220910,2544.3503,N,08011.0921,W,1,9,1.4,18,M,,M,,*5D
06/03/2014	22:09:02.588	$GPGGA,220911,2544.3526,N,08011.0919,W,1,9,1.4,18,M,,M,,*50
06/03/2014	22:09:03.560	$GPGGA,220912,2544.3549,N,08011.0918,W,1,9,1.4,18,M,,M,,*5B
06/03/2014	22:09:04.552	$GPGGA,220913,2544.3574,N,08011.0916,W,1,9,1.4,18,M,,M,,*5A
06/03/2014	22:09:05.564	$GPGGA,220914,2544.3596,N,08011.0914,W,1,9,1.4,18,M,,M,,*53
06/03/2014	22:09:06.597	$GPGGA,220915,2544.3621,N,08011.0913,W,1,9,1.4,18,M,,M,,*5A
06/03/2014	22:09:07.569	$GPGGA,220916,2544.3643,N,08011.0911,W,1,9,1.4,18,M,,M,,*5F
06/03/2014	22:09:08.562	$GPGGA,220917,2544.3668,N,08011.0909,W,1,8,1.5,18,M,,M,,*5E
06/03/2014	22:09:09.564	$GPGGA,220918,2544.3690,N,08011.0907,W,1,8,1.5,18,M,,M,,*58
06/03/2014	22:09:10.547	$GPGGA,220919,2544.3715,N,08011.0905,W,1,8,1.5,18,M,,M,,*57
06/03/2014	22:09:11.569	$GPGGA,220920,2544.3737,N,08011.0903,W,1,8,1.5,18,M,,M,,*5B
06/03/2014	22:09:12.552	$GPGGA,220921,2544.3762,N,08011.0901,W,1,8,1.5,18,M,,M,,*58
06/03/2014	22:09:13.574	$GPGGA,220922,2544.3784,N,08011.0899,W,1,8,1.5,18,M,,M,,*53
06/03/2014	22:09:14.587	$GPGGA,220923,2544.3809,N,08011.0897,W,1,8,1.5,18,M,,M,,*56
06/03/2014	22:09:15.569	$GPGGA,220924,2544.3831,N,08011.0895,W,1,8,1.5,18,M,,M,,*58
06/03/2014	22:09:16.572	$GPGGA,220925,2544.3856,N,08011.0893,W,1,8,1.5,18,M,,M,,*5E
06/03/2014	22:09:17.554	$GPGGA,220926,2544.3880,N,08011.0891,W,1,8,1.5,18,M,,M,,*54
06/03/2014	22:09:18.567	$GPGGA,220927,2544.3904,N,08011.0889,W,1,8,1.5,18,M,,M,,*51
06/03/2014	22:09:19.690	$GPGGA,220928,2544.3927,N,08011.0887,W,1,8,1.5,18,M,,M,,*51
06/03/2014	22:09:20.572	$GPGGA,220929,2544.3950,N,08011.0885,W,1,8,1.5,18,M,,M,,*52
06/03/2014	22:09:21.566	$GPGGA,220930,2544.3974,N,08011.0883,W,1,8,1.5,18,M,,M,,*5A
06/03/2014	22:09:22.547	$GPGGA,220931,2544.3997,N,08011.0881,W,1,8,1.5,18,M,,M,,*54
06/03/2014	22:09:23.439	$GPGGA,220932,2544.4022,N,08011.0879,W,1,8,1.5,18,M,,M,,*50
06/03/2014	22:09:24.412	$GPGGA,220933,2544.4044,N,08011.0877,W,1,8,1.5,18,M,,M,,*5F
06/03/2014	22:09:25.504	$GPGGA,220934,2544.4069,N,08011.0875,W,1,8,1.5,18,M,,M,,*55
06/03/2014	22:09:26.567	$GPGGA,220935,2544.4092,N,08011.0873,W,1,8,1.5,18,M,,M,,*56
06/03/2014	22:09:27.419	$GPGGA,220936,2544.4117,N,08011.0871,W,1,8,1.5,18,M,,M,,*5B
06/03/2014	22:09:28.422	$GPGGA,220937,2544.4139,N,08011.0869,W,1,8,1.5,18,M,,M,,*5F
06/03/2014	22:09:29.404	$GPGGA,220938,2544.4164,N,08011.0866,W,1,8,1.5,18,M,,M,,*57
06/03/2014	22:09:30.517	$GPGGA,220939,2544.4188,N,08011.0864,W,1,8,1.5,18,M,,M,,*56
06/03/2014	22:09:31.529	$GPGGA,220940,2544.4211,N,08011.0862,W,1,8,1.5,18,M,,M,,*5D
06/03/2014	22:09:32.532	$GPGGA,220941,2544.4236,N,08011.0860,W,1,8,1.5,18,M,,M,,*5B
06/03/2014	22:09:33.504	$GPGGA,220942,2544.4258,N,08011.0857,W,1,8,1.5,18,M,,M,,*54
06/03/2014	22:09:34.537	$GPGGA,220943,2544.4283,N,08011.0855,W,1,8,1.5,18,M,,M,,*51
06/03/2014	22:09:35.529	$GPGGA,220944,2544.4307,N,08011.0852,W,1,8,1.5,18,M,,M,,*5C
06/03/2014	22:09:36.522	$GPGGA,220945,2544.4330,N,08011.0850,W,1,8,1.5,18,M,,M,,*5B
06/03/2014	22:09:37.524	$GPGGA,220946,2544.4354,N,08011.0848,W,1,8,1.5,18,M,,M,,*53
06/03/2014	22:09:38.527	$GPGGA,220947,2544.4379,N,08011.0845,W,1,8,1.6,18,M,,M,,*53
06/03/2014	22:09:39.528	$GPGGA,220948,2544.4402,N,08011.0843,W,1,8,1.5,18,M,,M,,*52
06/03/2014	22:09:40.521	$GPGGA,220949,2544.4427,N,08011.0841,W,1,9,1.5,18,M,,M,,*57
06/03/2014	22:09:41.523	$GPGGA,220950,2544.4451,N,08011.0838,W,1,9,1.5,18,M,,M,,*50
06/03/2014	22:09:42.536	$GPGGA,220951,2544.4475,N,08011.0836,W,1,9,1.5,18,M,,M,,*59
06/03/2014	22:09:43.548	$GPGGA,220952,2544.4499,N,08011.0833,W,1,9,2.0,18,M,,M,,*5B
06/03/2014	22:09:44.511	$GPGGA,220953,2544.4523,N,08011.0830,W,1,8,2.0,18,M,,M,,*58
06/03/2014	22:09:45.523	$GPGGA,220954,2544.4547,N,08011.0827,W,1,8,2.0,18,M,,M,,*5B
06/03/2014	22:09:46.536	$GPGGA,220955,2544.4571,N,08011.0825,W,1,8,2.0,18,M,,M,,*5D
06/03/2014	22:09:47.548	$GPGGA,220956,2544.4594,N,08011.0822,W,1,8,2.0,18,M,,M,,*52
06/03/2014	22:09:48.561	$GPGGA,220957,2544.4618,N,08011.0819,W,1,8,2.0,18,M,,M,,*5C
06/03/2014	22:09:49.523	$GPGGA,220958,2544.4641,N,08011.0816,W,1,8,2.0,18,M,,M,,*50
06/03/2014	22:09:50.546	$GPGGA,220959,2544.4665,N,08011.0813,W,1,8,2.0,18,M,,M,,*52
06/03/2014	22:09:51.538	$GPGGA,221000,2544.4688,N,08011.0810,W,1,8,2.0,18,M,,M,,*56
06/03/2014	22:09:52.511	$GPGGA,221001,2544.4713,N,08011.0807,W,1,8,2.0,18,M,,M,,*52
06/03/2014	22:09:53.523	$GPGGA,221002,2544.4737,N,08011.0804,W,1,8,2.0,18,M,,M,,*54
06/03/2014	22:09:54.536	$GPGGA,221003,2544.4760,N,08011.0801,W,1,8,2.0,18,M,,M,,*52
06/03/2014	22:09:55.538	$GPGGA,221004,2544.4785,N,08011.0798,W,1,8,2.0,18,M,,M,,*51
06/03/2014	22:09:56.521	$GPGGA,221005,2544.4809,N,08011.0794,W,1,8,2.0,18,M,,M,,*57
06/03/2014	22:09:57.513	$GPGGA,221006,2544.4832,N,08011.0792,W,1,8,2.0,18,M,,M,,*5A
06/03/2014	22:09:58.555	$GPGGA,221007,2544.4856,N,08011.0787,W,1,9,1.5,18,M,,M,,*5A
06/03/2014	22:09:59.547	$GPGGA,221008,2544.4879,N,08011.0783,W,1,9,1.5,18,M,,M,,*5C
06/03/2014	22:10:00.550	$GPGGA,221009,2544.4904,N,08011.0778,W,1,9,1.5,19,M,,M,,*53
06/03/2014	22:10:01.532	$GPGGA,221010,2544.4926,N,08011.0774,W,1,9,1.5,19,M,,M,,*57
06/03/2014	22:10:02.665	$GPGGA,221011,2544.4951,N,08011.0770,W,1,9,1.5,19,M,,M,,*52
06/03/2014	22:10:03.537	$GPGGA,221012,2544.4975,N,08011.0766,W,1,9,1.5,19,M,,M,,*50
06/03/2014	22:10:04.640	$GPGGA,221013,2544.4998,N,08011.0762,W,1,9,1.5,19,M,,M,,*56
06/03/2014	22:10:05.643	$GPGGA,221014,2544.5023,N,08011.0758,W,1,9,1.5,19,M,,M,,*50
06/03/2014	22:10:06.545	$GPGGA,221015,2544.5047,N,08011.0755,W,1,9,1.5,19,M,,M,,*5E
06/03/2014	22:10:07.658	$GPGGA,221016,2544.5070,N,08011.0751,W,1,9,1.5,20,M,,M,,*57
06/03/2014	22:10:08.532	$GPGGA,221017,2544.5094,N,08011.0747,W,1,9,1.5,20,M,,M,,*5B
06/03/2014	22:10:09.532	$GPGGA,221018,2544.5117,N,08011.0744,W,1,9,1.5,20,M,,M,,*5D
06/03/2014	22:10:10.525	$GPGGA,221019,2544.5142,N,08011.0740,W,1,9,1.5,20,M,,M,,*58
06/03/2014	22:10:11.537	$GPGGA,221020,2544.5165,N,08011.0737,W,1,9,1.5,20,M,,M,,*57
06/03/2014	22:10:12.641	$GPGGA,221021,2544.5189,N,08011.0734,W,1,9,1.5,20,M,,M,,*57
06/03/2014	22:10:13.545	$GPGGA,221022,2544.5212,N,08011.0730,W,1,9,1.5,20,M,,M,,*51
06/03/2014	22:10:14.664	$GPGGA,221023,2544.5237,N,08011.0727,W,1,9,1.5,21,M,,M,,*50
06/03/2014	22:10:15.548	$GPGGA,221024,2544.5261,N,08011.0725,W,1,9,1.5,21,M,,M,,*56
06/03/2014	22:10:16.649	$GPGGA,221025,2544.5286,N,08011.0722,W,1,9,1.5,21,M,,M,,*59
06/03/2014	22:10:17.621	$GPGGA,221026,2544.5309,N,08011.0718,W,1,9,1.5,21,M,,M,,*55
06/03/2014	22:10:18.656	$GPGGA,221027,2544.5334,N,08011.0715,W,1,9,1.5,21,M,,M,,*57
06/03/2014	22:10:19.636	$GPGGA,221028,2544.5358,N,08011.0712,W,1,9,1.5,21,M,,M,,*55
06/03/2014	22:10:20.619	$GPGGA,221029,2544.5381,N,08011.0709,W,1,9,1.5,21,M,,M,,*5A
06/03/2014	22:10:21.651	$GPGGA,221030,2544.5406,N,08011.0706,W,1,9,1.5,21,M,,M,,*55
06/03/2014	22:10:22.476	$GPGGA,221031,2544.5428,N,08011.0703,W,1,9,1.5,21,M,,M,,*5D
06/03/2014	22:10:23.518	$GPGGA,221032,2544.5453,N,08011.0700,W,1,9,1.5,21,M,,M,,*51
06/03/2014	22:10:24.501	$GPGGA,221033,2544.5477,N,08011.0697,W,1,9,1.5,21,M,,M,,*59
06/03/2014	22:10:26.556	$GPGGA,221035,2544.5524,N,08011.0690,W,1,9,1.5,21,M,,M,,*5F
06/03/2014	22:10:27.498	$GPGGA,221036,2544.5547,N,08011.0687,W,1,9,1.5,21,M,,M,,*5F
06/03/2014	22:10:28.511	$GPGGA,221037,2544.5572,N,08011.0684,W,1,9,1.5,21,M,,M,,*5B
06/03/2014	22:10:29.493	$GPGGA,221038,2544.5596,N,08011.0680,W,1,9,1.5,21,M,,M,,*5A
06/03/2014	22:10:30.506	$GPGGA,221039,2544.5620,N,08011.0677,W,1,9,1.5,21,M,,M,,*5D
06/03/2014	22:10:31.498	$GPGGA,221040,2544.5644,N,08011.0673,W,1,9,1.5,21,M,,M,,*55
06/03/2014	22:10:32.510	$GPGGA,221041,2544.5667,N,08011.0670,W,1,9,1.5,21,M,,M,,*56
06/03/2014	22:10:33.492	$GPGGA,221042,2544.5691,N,08011.0667,W,1,9,1.5,21,M,,M,,*5A
06/03/2014	22:10:34.505	$GPGGA,221043,2544.5714,N,08011.0663,W,1,9,1.5,21,M,,M,,*53
06/03/2014	22:10:35.507	$GPGGA,221044,2544.5738,N,08011.0660,W,1,9,1.5,21,M,,M,,*59
06/03/2014	22:10:36.480	$GPGGA,221045,2544.5761,N,08011.0656,W,1,9,1.5,21,M,,M,,*51
06/03/2014	22:10:37.492	$GPGGA,221046,2544.5785,N,08011.0652,W,1,9,1.5,21,M,,M,,*5C
06/03/2014	22:10:38.525	$GPGGA,221047,2544.5808,N,08011.0648,W,1,9,1.5,21,M,,M,,*5C
06/03/2014	22:10:39.507	$GPGGA,221048,2544.5832,N,08011.0644,W,1,9,1.5,21,M,,M,,*56
06/03/2014	22:10:40.520	$GPGGA,221049,2544.5854,N,08011.0639,W,1,9,1.5,21,M,,M,,*5D
06/03/2014	22:10:41.478	$GPGGA,221050,2544.5878,N,08011.0634,W,1,9,1.5,21,M,,M,,*56
06/03/2014	22:10:42.495	$GPGGA,221051,2544.5901,N,08011.0629,W,1,9,1.5,21,M,,M,,*54
06/03/2014	22:10:43.497	$GPGGA,221052,2544.5925,N,08011.0624,W,1,9,1.5,21,M,,M,,*5C
06/03/2014	22:10:44.520	$GPGGA,221053,2544.5948,N,08011.0618,W,1,9,1.5,21,M,,M,,*59
06/03/2014	22:10:45.492	$GPGGA,221054,2544.5970,N,08011.0613,W,1,9,1.5,21,M,,M,,*5E
06/03/2014	22:10:46.505	$GPGGA,221055,2544.5994,N,08011.0607,W,1,9,1.5,21,M,,M,,*50
06/03/2014	22:10:47.507	$GPGGA,221056,2544.6017,N,08011.0602,W,1,9,1.5,21,M,,M,,*57
06/03/2014	22:10:48.520	$GPGGA,221057,2544.6039,N,08011.0596,W,1,9,1.5,21,M,,M,,*54
06/03/2014	22:10:49.484	$GPGGA,221058,2544.6063,N,08011.0591,W,1,9,1.7,21,M,,M,,*51
06/03/2014	22:10:50.484	$GPGGA,221059,2544.6086,N,08011.0585,W,1,9,1.7,21,M,,M,,*5E
06/03/2014	22:10:51.526	$GPGGA,221100,2544.6109,N,08011.0579,W,1,9,1.7,21,M,,M,,*56
06/03/2014	22:10:52.529	$GPGGA,221101,2544.6132,N,08011.0573,W,1,9,1.7,21,M,,M,,*55
06/03/2014	22:10:53.498	$GPGGA,221102,2544.6154,N,08011.0568,W,1,9,1.5,21,M,,M,,*5E
06/03/2014	22:10:54.674	$GPGGA,221103,2544.6178,N,08011.0563,W,1,9,1.5,21,M,,M,,*5A
06/03/2014	22:10:55.519	$GPGGA,221104,2544.6201,N,08011.0558,W,1,9,1.5,21,M,,M,,*58
06/03/2014	22:10:56.589	$GPGGA,221105,2544.6223,N,08011.0552,W,1,9,1.5,21,M,,M,,*53
06/03/2014	22:10:57.491	$GPGGA,221106,2544.6247,N,08011.0547,W,1,9,1.5,21,M,,M,,*56
06/03/2014	22:10:58.495	$GPGGA,221107,2544.6269,N,08011.0541,W,1,9,1.5,21,M,,M,,*5D
06/03/2014	22:10:59.596	$GPGGA,221108,2544.6292,N,08011.0535,W,1,9,1.5,21,M,,M,,*55
06/03/2014	22:11:00.489	$GPGGA,221109,2544.6316,N,08011.0529,W,1,9,1.5,21,M,,M,,*54
06/03/2014	22:11:01.501	$GPGGA,221110,2544.6339,N,08011.0523,W,1,9,1.5,21,M,,M,,*5B
06/03/2014	22:11:02.517	$GPGGA,221111,2544.6362,N,08011.0517,W,1,9,1.5,21,M,,M,,*53
06/03/2014	22:11:03.657	$GPGGA,221112,2544.6385,N,08011.0511,W,1,9,1.5,21,M,,M,,*5F
06/03/2014	22:11:04.669	$GPGGA,221113,2544.6409,N,08011.0504,W,1,9,1.7,21,M,,M,,*5B
06/03/2014	22:11:05.642	$GPGGA,221114,2544.6432,N,08011.0499,W,1,9,1.5,21,M,,M,,*53
06/03/2014	22:11:06.594	$GPGGA,221115,2544.6454,N,08011.0493,W,1,9,1.5,21,M,,M,,*58
06/03/2014	22:11:07.627	$GPGGA,221116,2544.6478,N,08011.0487,W,1,9,1.5,21,M,,M,,*50
06/03/2014	22:11:08.698	$GPGGA,221117,2544.6501,N,08011.0481,W,1,9,1.5,21,M,,M,,*58
06/03/2014	22:11:09.600	$GPGGA,221118,2544.6525,N,08011.0476,W,1,9,1.5,21,M,,M,,*59
06/03/2014	22:11:10.713	$GPGGA,221119,2544.6548,N,08011.0471,W,1,9,1.5,21,M,,M,,*54
06/03/2014	22:11:11.637	$GPGGA,221120,2544.6570,N,08011.0465,W,1,9,1.5,21,M,,M,,*50
06/03/2014	22:11:12.708	$GPGGA,221121,2544.6594,N,08011.0460,W,1,9,1.5,21,M,,M,,*5E
06/03/2014	22:11:13.600	$GPGGA,221122,2544.6617,N,08011.0456,W,1,9,1.5,21,M,,M,,*50
06/03/2014	22:11:14.703	$GPGGA,221123,2544.6641,N,08011.0450,W,1,9,1.5,21,M,,M,,*54
06/03/2014	22:11:15.656	$GPGGA,221124,2544.6664,N,08011.0445,W,1,9,1.5,21,M,,M,,*50
06/03/2014	22:11:16.698	$GPGGA,221125,2544.6686,N,08011.0440,W,1,9,1.5,21,M,,M,,*58
06/03/2014	22:11:17.630	$GPGGA,221126,2544.6711,N,08011.0435,W,1,9,1.5,21,M,,M,,*56
06/03/2014	22:11:18.703	$GPGGA,221127,2544.6734,N,08011.0430,W,1,9,1.5,21,M,,M,,*55
06/03/2014	22:11:19.635	$GPGGA,221128,2544.6757,N,08011.0424,W,1,9,1.5,21,M,,M,,*5A
06/03/2014	22:11:20.708	$GPGGA,221129,2544.6781,N,08011.0419,W,1,9,1.5,21,M,,M,,*5E
06/03/2014	22:11:21.630	$GPGGA,221130,2544.6804,N,08011.0414,W,1,9,1.5,21,M,,M,,*59
06/03/2014	22:11:22.545	$GPGGA,221131,2544.6826,N,08011.0409,W,1,9,1.5,21,M,,M,,*54
06/03/2014	22:11:23.497	$GPGGA,221132,2544.6851,N,08011.0403,W,1,9,1.5,21,M,,M,,*5D
06/03/2014	22:11:24.569	$GPGGA,221133,2544.6873,N,08011.0398,W,1,9,1.5,21,M,,M,,*59
06/03/2014	22:11:25.451	$GPGGA,221134,2544.6898,N,08011.0393,W,1,9,1.5,21,M,,M,,*50
06/03/2014	22:11:26.544	$GPGGA,221135,2544.6920,N,08011.0387,W,1,9,1.5,21,M,,M,,*56
06/03/2014	22:11:27.496	$GPGGA,221136,2544.6945,N,08011.0381,W,1,9,1.5,21,M,,M,,*50
06/03/2014	22:11:28.549	$GPGGA,221137,2544.6971,N,08011.0375,W,1,10,1.3,21,M,,M,,*63
06/03/2014	22:11:29.481	$GPGGA,221138,2544.6995,N,08011.0369,W,1,10,1.3,21,M,,M,,*6B
06/03/2014	22:11:30.574	$GPGGA,221139,2544.7020,N,08011.0364,W,1,10,1.3,21,M,,M,,*61
06/03/2014	22:11:31.476	$GPGGA,221140,2544.7043,N,08011.0358,W,1,10,1.3,21,M,,M,,*65
06/03/2014	22:11:32.558	$GPGGA,221141,2544.7068,N,08011.0352,W,1,10,1.3,21,M,,M,,*67
06/03/2014	22:11:33.511	$GPGGA,221142,2544.7093,N,08011.0346,W,1,10,1.3,21,M,,M,,*65
06/03/2014	22:11:34.534	$GPGGA,221143,2544.7117,N,08011.0339,W,1,10,1.3,21,M,,M,,*61
06/03/2014	22:11:35.496	$GPGGA,221144,2544.7141,N,08011.0334,W,1,10,1.3,21,M,,M,,*68
06/03/2014	22:11:36.559	$GPGGA,221145,2544.7166,N,08011.0328,W,1,10,1.3,21,M,,M,,*61
06/03/2014	22:11:37.552	$GPGGA,221146,2544.7191,N,08011.0323,W,1,10,1.3,21,M,,M,,*61
06/03/2014	22:11:38.544	$GPGGA,221147,2544.7216,N,08011.0318,W,1,10,1.3,21,M,,M,,*64
06/03/2014	22:11:39.570	$GPGGA,221148,2544.7240,N,08011.0313,W,1,10,1.3,21,M,,M,,*63
06/03/2014	22:11:40.549	$GPGGA,221149,2544.7264,N,08011.0309,W,1,10,1.3,21,M,,M,,*6F
06/03/2014	22:11:41.491	$GPGGA,221150,2544.7289,N,08011.0305,W,1,10,1.3,21,M,,M,,*68
06/03/2014	22:11:42.553	$GPGGA,221151,2544.7313,N,08011.0300,W,1,10,1.3,21,M,,M,,*6E
06/03/2014	22:11:43.565	$GPGGA,221152,2544.7336,N,08011.0297,W,1,10,1.3,21,M,,M,,*65
06/03/2014	22:11:44.558	$GPGGA,221153,2544.7361,N,08011.0293,W,1,10,1.3,21,M,,M,,*62
06/03/2014	22:11:45.560	$GPGGA,221154,2544.7386,N,08011.0289,W,1,10,1.3,21,M,,M,,*67
