Software Version Number: 1	Data File Format Number: 1	Build Version Number: 1	Error Count Since VI Started: 0	Manufacturer: Raytheon	 Model Number: RayMarine 120	 S/N: 	 Cal Date: 	 Wind Direction Offset: 0.00	 Slope (M)1: 0.00	 Offset (B)1: 0.00	 Slope (M)2: 0.00	 Offset (B)2: 0.00	 Slope (M)3: 0.00	 Offset (B)3: 0.00	 Slope (M)4: 0.00	 Offset (B)4: 0.00	 Slope (M)5: 0.00	 Offset (B)5: 0.00	 Slope (M)6: 0.00	 Offset (B)6: 0.00
Computer Date	Computer Time	GGA String
05/28/2014	02:00:00.814	$GPGGA,020001,2543.8830,N,08009.7283,W,1,9,1.5,20,M,,M,,*50
05/28/2014	02:00:01.804	$GPGGA,020002,2543.8831,N,08009.7284,W,1,9,1.5,20,M,,M,,*55
05/28/2014	02:00:02.836	$GPGGA,020003,2543.8829,N,08009.7284,W,1,9,1.5,20,M,,M,,*5D
05/28/2014	02:00:03.826	$GPGGA,020004,2543.8830,N,08009.7284,W,1,9,1.5,20,M,,M,,*52
05/28/2014	02:00:04.837	$GPGGA,020005,2543.8829,N,08009.7284,W,1,9,1.5,20,M,,M,,*5B
05/28/2014	02:00:05.838	$GPGGA,020006,2543.8830,N,08009.7284,W,1,9,1.5,20,M,,M,,*50
05/28/2014	02:00:06.869	$GPGGA,020007,2543.8829,N,08009.7284,W,1,9,1.5,20,M,,M,,*59
05/28/2014	02:00:07.880	$GPGGA,020008,2543.8830,N,08009.7284,W,1,9,1.5,20,M,,M,,*5E
05/28/2014	02:00:08.861	$GPGGA,020009,2543.8829,N,08009.7284,W,1,9,1.5,20,M,,M,,*57
05/28/2014	02:00:09.862	$GPGGA,020010,2543.8830,N,08009.7284,W,1,9,1.5,21,M,,M,,*56
05/28/2014	02:00:10.893	$GPGGA,020011,2543.8829,N,08009.7284,W,1,9,1.5,21,M,,M,,*5F
05/28/2014	02:00:11.914	$GPGGA,020012,2543.8830,N,08009.7284,W,1,9,1.5,21,M,,M,,*54
05/28/2014	02:00:12.946	$GPGGA,020013,2543.8829,N,08009.7284,W,1,9,1.5,21,M,,M,,*5D
05/28/2014	02:00:13.906	$GPGGA,020014,2543.8830,N,08009.7285,W,1,9,1.5,21,M,,M,,*53
05/28/2014	02:00:14.916	$GPGGA,020015,2543.8829,N,08009.7285,W,1,9,1.5,21,M,,M,,*5A
05/28/2014	02:00:15.947	$GPGGA,020016,2543.8830,N,08009.7285,W,1,9,1.5,21,M,,M,,*51
05/28/2014	02:00:16.938	$GPGGA,020017,2543.8829,N,08009.7285,W,1,9,1.5,21,M,,M,,*58
05/28/2014	02:00:18.070	$GPGGA,020018,2543.8830,N,08009.7287,W,1,9,1.5,21,M,,M,,*5D
05/28/2014	02:00:18.970	$GPGGA,020019,2543.8829,N,08009.7286,W,1,9,1.5,21,M,,M,,*55
05/28/2014	02:00:20.102	$GPGGA,020020,2543.8830,N,08009.7287,W,1,9,1.5,21,M,,M,,*56
05/28/2014	02:00:21.103	$GPGGA,020021,2543.8829,N,08009.7286,W,1,9,1.5,21,M,,M,,*5E
05/28/2014	02:00:21.973	$GPGGA,020022,2543.8831,N,08009.7287,W,1,9,1.5,21,M,,M,,*55
05/28/2014	02:00:22.994	$GPGGA,020023,2543.8830,N,08009.7286,W,1,9,1.5,21,M,,M,,*54
05/28/2014	02:00:24.015	$GPGGA,020024,2543.8829,N,08009.7287,W,1,9,1.5,21,M,,M,,*5A
05/28/2014	02:00:25.117	$GPGGA,020025,2543.8830,N,08009.7286,W,1,9,1.5,21,M,,M,,*52
05/28/2014	02:00:26.027	$GPGGA,020026,2543.8831,N,08009.7287,W,1,9,1.5,21,M,,M,,*51
05/28/2014	02:00:27.130	$GPGGA,020027,2543.8830,N,08009.7287,W,1,9,1.5,21,M,,M,,*51
05/28/2014	02:00:28.049	$GPGGA,020028,2543.8831,N,08009.7287,W,1,9,1.5,21,M,,M,,*5F
05/28/2014	02:00:29.161	$GPGGA,020029,2543.8830,N,08009.7287,W,1,9,1.5,21,M,,M,,*5F
05/28/2014	02:00:30.164	$GPGGA,020030,2543.8831,N,08009.7288,W,1,9,1.5,21,M,,M,,*59
05/28/2014	02:00:31.193	$GPGGA,020031,2543.8829,N,08009.7288,W,1,9,1.5,21,M,,M,,*51
05/28/2014	02:00:32.183	$GPGGA,020032,2543.8830,N,08009.7288,W,1,9,1.5,21,M,,M,,*5A
05/28/2014	02:00:33.194	$GPGGA,020033,2543.8831,N,08009.7288,W,1,9,1.5,21,M,,M,,*5A
05/28/2014	02:00:34.195	$GPGGA,020034,2543.8830,N,08009.7288,W,1,9,1.5,21,M,,M,,*5C
05/28/2014	02:00:35.216	$GPGGA,020035,2543.8831,N,08009.7290,W,1,9,1.5,21,M,,M,,*55
05/28/2014	02:00:36.247	$GPGGA,020036,2543.8830,N,08009.7289,W,1,9,1.5,21,M,,M,,*5F
05/28/2014	02:00:37.228	$GPGGA,020037,2543.8831,N,08009.7290,W,1,9,1.5,21,M,,M,,*57
05/28/2014	02:00:38.219	$GPGGA,020038,2543.8830,N,08009.7289,W,1,9,1.5,21,M,,M,,*51
05/28/2014	02:00:38.592	$GPGGA,020039,2543.8831,N,08009.7290,W,1,9,1.5,21,M,,M,,*59
05/28/2014	02:00:39.593	$GPGGA,020040,2543.8830,N,08009.7289,W,1,9,1.5,21,M,,M,,*5E
05/28/2014	02:00:40.624	$GPGGA,020041,2543.8831,N,08009.7290,W,1,9,1.5,21,M,,M,,*56
05/28/2014	02:00:41.605	$GPGGA,020042,2543.8831,N,08009.7290,W,1,9,1.5,21,M,,M,,*55
05/28/2014	02:00:42.626	$GPGGA,020043,2543.8831,N,08009.7290,W,1,9,1.5,21,M,,M,,*54
05/28/2014	02:00:43.637	$GPGGA,020044,2543.8831,N,08009.7290,W,1,9,1.5,21,M,,M,,*53
05/28/2014	02:00:44.617	$GPGGA,020045,2543.8831,N,08009.7290,W,1,9,1.5,21,M,,M,,*52
05/28/2014	02:00:45.649	$GPGGA,020046,2543.8833,N,08009.7290,W,1,9,1.5,21,M,,M,,*53
05/28/2014	02:00:46.670	$GPGGA,020047,2543.8832,N,08009.7291,W,1,9,1.5,21,M,,M,,*52
05/28/2014	02:00:47.660	$GPGGA,020048,2543.8833,N,08009.7291,W,1,9,1.5,21,M,,M,,*5C
05/28/2014	02:00:48.702	$GPGGA,020049,2543.8834,N,08009.7291,W,1,9,1.5,21,M,,M,,*5A
05/28/2014	02:00:49.681	$GPGGA,020050,2543.8833,N,08009.7291,W,1,9,1.5,21,M,,M,,*55
05/28/2014	02:00:50.713	$GPGGA,020051,2543.8834,N,08009.7292,W,1,9,1.5,21,M,,M,,*50
05/28/2014	02:00:51.703	$GPGGA,020052,2543.8833,N,08009.7292,W,1,9,1.5,21,M,,M,,*54
05/28/2014	02:00:52.725	$GPGGA,020053,2543.8834,N,08009.7292,W,1,9,1.5,21,M,,M,,*52
05/28/2014	02:00:53.715	$GPGGA,020054,2543.8834,N,08009.7292,W,1,9,1.5,21,M,,M,,*55
05/28/2014	02:00:54.726	$GPGGA,020055,2543.8834,N,08009.7294,W,1,9,1.5,21,M,,M,,*52
05/28/2014	02:00:55.747	$GPGGA,020056,2543.8835,N,08009.7293,W,1,9,1.5,21,M,,M,,*57
05/28/2014	02:00:56.718	$GPGGA,020057,2543.8835,N,08009.7294,W,1,9,1.5,21,M,,M,,*51
05/28/2014	02:00:57.759	$GPGGA,020058,2543.8835,N,08009.7292,W,1,9,1.5,21,M,,M,,*58
05/28/2014	02:00:58.780	$GPGGA,020059,2543.8835,N,08009.7294,W,1,9,1.5,21,M,,M,,*5F
05/28/2014	02:00:59.791	$GPGGA,020100,2543.8835,N,08009.7293,W,1,9,1.5,21,M,,M,,*55
05/28/2014	02:01:00.762	$GPGGA,020101,2543.8835,N,08009.7292,W,1,9,1.5,21,M,,M,,*55
05/28/2014	02:01:01.783	$GPGGA,020102,2543.8835,N,08009.7294,W,1,9,1.5,21,M,,M,,*50
05/28/2014	02:01:02.905	$GPGGA,020103,2543.8835,N,08009.7293,W,1,9,1.5,21,M,,M,,*56
05/28/2014	02:01:03.825	$GPGGA,020104,2543.8835,N,08009.7294,W,1,9,1.5,21,M,,M,,*56
05/28/2014	02:01:04.826	$GPGGA,020105,2543.8835,N,08009.7293,W,1,9,1.5,21,M,,M,,*50
05/28/2014	02:01:05.817	$GPGGA,020106,2543.8835,N,08009.7294,W,1,9,1.5,21,M,,M,,*54
05/28/2014	02:01:06.958	$GPGGA,020107,2543.8835,N,08009.7294,W,1,9,1.5,21,M,,M,,*55
05/28/2014	02:01:07.939	$GPGGA,020108,2543.8835,N,08009.7294,W,1,9,1.5,21,M,,M,,*5A
05/28/2014	02:01:08.859	$GPGGA,020109,2543.8835,N,08009.7294,W,1,9,1.5,21,M,,M,,*5B
05/28/2014	02:01:09.961	$GPGGA,020110,2543.8835,N,08009.7294,W,1,9,1.5,21,M,,M,,*53
05/28/2014	02:01:10.881	$GPGGA,020111,2543.8835,N,08009.7294,W,1,9,1.5,21,M,,M,,*52
05/28/2014	02:01:11.973	$GPGGA,020112,2543.8835,N,08009.7294,W,1,9,1.5,21,M,,M,,*51
05/28/2014	02:01:12.893	$GPGGA,020113,2543.8835,N,08009.7294,W,1,9,1.5,21,M,,M,,*50
05/28/2014	02:01:13.975	$GPGGA,020114,2543.8835,N,08009.7295,W,1,9,1.5,21,M,,M,,*56
05/28/2014	02:01:15.016	$GPGGA,020115,2543.8835,N,08009.7295,W,1,9,1.5,21,M,,M,,*57
05/28/2014	02:01:16.017	$GPGGA,020116,2543.8835,N,08009.7294,W,1,9,1.5,21,M,,M,,*55
05/28/2014	02:01:17.028	$GPGGA,020117,2543.8835,N,08009.7294,W,1,9,1.5,21,M,,M,,*54
05/28/2014	02:01:18.021	$GPGGA,020118,2543.8835,N,08009.7293,W,1,9,1.5,21,M,,M,,*5C
05/28/2014	02:01:19.060	$GPGGA,020119,2543.8835,N,08009.7294,W,1,9,1.5,21,M,,M,,*5A
05/28/2014	02:01:20.041	$GPGGA,020120,2543.8835,N,08009.7294,W,1,9,1.5,21,M,,M,,*50
05/28/2014	02:01:21.062	$GPGGA,020121,2543.8835,N,08009.7294,W,1,9,1.5,21,M,,M,,*51
05/28/2014	02:01:22.053	$GPGGA,020122,2543.8835,N,08009.7294,W,1,9,1.5,21,M,,M,,*52
05/28/2014	02:01:23.054	$GPGGA,020123,2543.8835,N,08009.7294,W,1,9,1.5,21,M,,M,,*53
05/28/2014	02:01:24.075	$GPGGA,020124,2543.8837,N,08009.7294,W,1,9,1.5,21,M,,M,,*56
05/28/2014	02:01:25.097	$GPGGA,020125,2543.8836,N,08009.7294,W,1,9,1.5,21,M,,M,,*56
05/28/2014	02:01:26.075	$GPGGA,020126,2543.8837,N,08009.7294,W,1,9,1.5,21,M,,M,,*54
05/28/2014	02:01:27.127	$GPGGA,020127,2543.8836,N,08009.7294,W,1,9,1.5,21,M,,M,,*54
05/28/2014	02:01:28.118	$GPGGA,020128,2543.8837,N,08009.7294,W,1,9,1.5,21,M,,M,,*5A
05/28/2014	02:01:29.108	$GPGGA,020129,2543.8836,N,08009.7294,W,1,9,1.5,21,M,,M,,*5A
05/28/2014	02:01:30.140	$GPGGA,020130,2543.8837,N,08009.7294,W,1,9,1.5,21,M,,M,,*53
05/28/2014	02:01:31.151	$GPGGA,020131,2543.8836,N,08009.7295,W,1,9,1.5,21,M,,M,,*52
05/28/2014	02:01:32.162	$GPGGA,020132,2543.8837,N,08009.7294,W,1,9,1.5,21,M,,M,,*51
05/28/2014	02:01:33.142	$GPGGA,020133,2543.8836,N,08009.7294,W,1,9,1.5,21,M,,M,,*51
05/28/2014	02:01:34.153	$GPGGA,020134,2543.8837,N,08009.7294,W,1,9,1.5,21,M,,M,,*57
05/28/2014	02:01:35.195	$GPGGA,020135,2543.8836,N,08009.7294,W,1,9,1.5,21,M,,M,,*57
05/28/2014	02:01:36.185	$GPGGA,020136,2543.8838,N,08009.7295,W,1,9,1.5,21,M,,M,,*5B
05/28/2014	02:01:37.176	$GPGGA,020137,2543.8836,N,08009.7294,W,1,9,1.5,21,M,,M,,*55
05/28/2014	02:01:38.197	$GPGGA,020138,2543.8837,N,08009.7294,W,1,9,1.5,21,M,,M,,*5B
05/28/2014	02:01:38.571	$GPGGA,020139,2543.8836,N,08009.7294,W,1,9,1.5,21,M,,M,,*5B
05/28/2014	02:01:39.561	$GPGGA,020140,2543.8837,N,08009.7294,W,1,9,1.5,21,M,,M,,*54
05/28/2014	02:01:40.582	$GPGGA,020141,2543.8836,N,08009.7294,W,1,9,1.5,21,M,,M,,*54
05/28/2014	02:01:41.572	$GPGGA,020142,2543.8837,N,08009.7294,W,1,9,1.5,21,M,,M,,*56
05/28/2014	02:01:42.573	$GPGGA,020143,2543.8836,N,08009.7295,W,1,9,1.5,21,M,,M,,*57
05/28/2014	02:01:43.716	$GPGGA,020144,2543.8837,N,08009.7295,W,1,9,1.5,21,M,,M,,*51
05/28/2014	02:01:44.615	$GPGGA,020145,2543.8836,N,08009.7295,W,1,9,1.5,21,M,,M,,*51
05/28/2014	02:01:45.596	$GPGGA,020146,2543.8837,N,08009.7295,W,1,9,1.5,21,M,,M,,*53
05/28/2014	02:01:46.607	$GPGGA,020147,2543.8836,N,08009.7295,W,1,9,1.5,20,M,,M,,*52
05/28/2014	02:01:47.648	$GPGGA,020148,2543.8837,N,08009.7295,W,1,9,1.5,20,M,,M,,*5C
05/28/2014	02:01:48.639	$GPGGA,020149,2543.8836,N,08009.7295,W,1,9,1.5,20,M,,M,,*5C
05/28/2014	02:01:49.640	$GPGGA,020150,2543.8837,N,08009.7295,W,1,9,1.5,20,M,,M,,*55
05/28/2014	02:01:50.752	$GPGGA,020151,2543.8835,N,08009.7295,W,1,9,1.5,20,M,,M,,*56
05/28/2014	02:01:51.682	$GPGGA,020152,2543.8835,N,08009.7295,W,1,9,1.5,20,M,,M,,*55
05/28/2014	02:01:52.794	$GPGGA,020153,2543.8835,N,08009.7294,W,1,9,1.5,20,M,,M,,*55
05/28/2014	02:01:53.674	$GPGGA,020154,2543.8837,N,08009.7294,W,1,9,1.5,20,M,,M,,*50
05/28/2014	02:01:54.786	$GPGGA,020155,2543.8836,N,08009.7294,W,1,9,1.5,20,M,,M,,*50
05/28/2014	02:01:55.706	$GPGGA,020156,2543.8837,N,08009.7294,W,1,9,1.5,20,M,,M,,*52
05/28/2014	02:01:56.838	$GPGGA,020157,2543.8836,N,08009.7293,W,1,9,1.5,20,M,,M,,*55
05/28/2014	02:01:57.718	$GPGGA,020158,2543.8837,N,08009.7294,W,1,9,1.5,20,M,,M,,*5C
05/28/2014	02:01:58.729	$GPGGA,020159,2543.8836,N,08009.7293,W,1,9,1.5,20,M,,M,,*5B
05/28/2014	02:01:59.850	$GPGGA,020200,2543.8837,N,08009.7294,W,1,9,1.5,20,M,,M,,*52
05/28/2014	02:02:00.750	$GPGGA,020201,2543.8836,N,08009.7293,W,1,9,1.5,20,M,,M,,*55
05/28/2014	02:02:01.852	$GPGGA,020202,2543.8837,N,08009.7294,W,1,9,1.5,20,M,,M,,*50
05/28/2014	02:02:02.883	$GPGGA,020203,2543.8836,N,08009.7293,W,1,9,1.5,20,M,,M,,*57
05/28/2014	02:02:03.884	$GPGGA,020204,2543.8837,N,08009.7294,W,1,9,1.5,20,M,,M,,*56
05/28/2014	02:02:06.159	$GPGGA,020206,2543.8837,N,08009.7292,W,1,9,1.5,20,M,,M,,*52
05/28/2014	02:02:06.907	$GPGGA,020207,2543.8835,N,08009.7292,W,1,9,1.5,20,M,,M,,*51
05/28/2014	02:02:07.908	$GPGGA,020208,2543.8835,N,08009.7292,W,1,9,1.5,20,M,,M,,*5E
05/28/2014	02:02:08.929	$GPGGA,020209,2543.8835,N,08009.7292,W,1,9,1.5,20,M,,M,,*5F
05/28/2014	02:02:09.921	$GPGGA,020210,2543.8835,N,08009.7291,W,1,9,1.5,20,M,,M,,*54
05/28/2014	02:02:10.951	$GPGGA,020211,2543.8835,N,08009.7291,W,1,9,1.5,20,M,,M,,*55
05/28/2014	02:02:11.942	$GPGGA,020212,2543.8835,N,08009.7291,W,1,9,1.5,20,M,,M,,*56
05/28/2014	02:02:12.964	$GPGGA,020213,2543.8835,N,08009.7291,W,1,9,1.5,20,M,,M,,*57
05/28/2014	02:02:13.964	$GPGGA,020214,2543.8835,N,08009.7291,W,1,9,1.5,20,M,,M,,*50
05/28/2014	02:02:14.954	$GPGGA,020215,2543.8835,N,08009.7291,W,1,9,1.5,20,M,,M,,*51
05/28/2014	02:02:15.986	$GPGGA,020216,2543.8835,N,08009.7291,W,1,9,1.5,20,M,,M,,*52
05/28/2014	02:02:16.986	$GPGGA,020217,2543.8833,N,08009.7291,W,1,9,1.5,20,M,,M,,*55
05/28/2014	02:02:17.997	$GPGGA,020218,2543.8834,N,08009.7291,W,1,9,1.5,20,M,,M,,*5D
05/28/2014	02:02:19.018	$GPGGA,020219,2543.8833,N,08009.7291,W,1,9,1.5,20,M,,M,,*5B
05/28/2014	02:02:20.019	$GPGGA,020220,2543.8832,N,08009.7290,W,1,9,1.5,20,M,,M,,*51
05/28/2014	02:02:21.040	$GPGGA,020221,2543.8833,N,08009.7290,W,1,9,1.5,20,M,,M,,*51
05/28/2014	02:02:22.030	$GPGGA,020222,2543.8832,N,08009.7290,W,1,9,1.5,20,M,,M,,*53
05/28/2014	02:02:23.062	$GPGGA,020223,2543.8833,N,08009.7290,W,1,9,1.5,20,M,,M,,*53
05/28/2014	02:02:24.042	$GPGGA,020224,2543.8831,N,08009.7289,W,1,9,1.5,20,M,,M,,*5E
05/28/2014	02:02:25.084	$GPGGA,020225,2543.8831,N,08009.7290,W,1,9,1.5,20,M,,M,,*57
05/28/2014	02:02:26.064	$GPGGA,020226,2543.8831,N,08009.7289,W,1,9,1.5,20,M,,M,,*5C
05/28/2014	02:02:27.075	$GPGGA,020227,2543.8831,N,08009.7288,W,1,9,1.5,20,M,,M,,*5C
05/28/2014	02:02:28.107	$GPGGA,020228,2543.8831,N,08009.7288,W,1,9,1.5,20,M,,M,,*53
05/28/2014	02:02:29.097	$GPGGA,020229,2543.8830,N,08009.7288,W,1,9,1.5,20,M,,M,,*53
05/28/2014	02:02:30.098	$GPGGA,020230,2543.8831,N,08009.7288,W,1,9,1.5,20,M,,M,,*5A
05/28/2014	02:02:31.099	$GPGGA,020231,2543.8830,N,08009.7288,W,1,9,1.5,20,M,,M,,*5A
05/28/2014	02:02:32.140	$GPGGA,020232,2543.8831,N,08009.7287,W,1,9,1.5,20,M,,M,,*57
05/28/2014	02:02:33.141	$GPGGA,020233,2543.8830,N,08009.7287,W,1,9,1.5,20,M,,M,,*57
05/28/2014	02:02:34.142	$GPGGA,020234,2543.8831,N,08009.7287,W,1,9,1.5,20,M,,M,,*51
05/28/2014	02:02:35.142	$GPGGA,020235,2543.8830,N,08009.7287,W,1,9,1.5,20,M,,M,,*51
05/28/2014	02:02:36.163	$GPGGA,020236,2543.8831,N,08009.7287,W,1,9,1.5,20,M,,M,,*53
05/28/2014	02:02:37.164	$GPGGA,020237,2543.8831,N,08009.7287,W,1,9,1.5,20,M,,M,,*52
05/28/2014	02:02:38.155	$GPGGA,020238,2543.8831,N,08009.7287,W,1,9,1.5,20,M,,M,,*5D
05/28/2014	02:02:38.527	$GPGGA,020239,2543.8833,N,08009.7286,W,1,9,1.5,20,M,,M,,*5F
05/28/2014	02:02:39.538	$GPGGA,020240,2543.8832,N,08009.7287,W,1,9,1.5,20,M,,M,,*51
05/28/2014	02:02:40.529	$GPGGA,020241,2543.8833,N,08009.7286,W,1,9,1.5,20,M,,M,,*50
05/28/2014	02:02:41.540	$GPGGA,020242,2543.8832,N,08009.7287,W,1,9,1.5,19,M,,M,,*59
05/28/2014	02:02:42.652	$GPGGA,020243,2543.8833,N,08009.7286,W,1,9,1.5,19,M,,M,,*58
05/28/2014	02:02:43.683	$GPGGA,020244,2543.8834,N,08009.7287,W,1,9,1.5,19,M,,M,,*59
05/28/2014	02:02:44.694	$GPGGA,020245,2543.8833,N,08009.7286,W,1,9,1.5,19,M,,M,,*5E
05/28/2014	02:02:45.665	$GPGGA,020246,2543.8834,N,08009.7287,W,1,9,1.5,19,M,,M,,*5B
05/28/2014	02:02:46.696	$GPGGA,020247,2543.8833,N,08009.7286,W,1,9,1.5,19,M,,M,,*5C
05/28/2014	02:02:47.717	$GPGGA,020248,2543.8834,N,08009.7287,W,1,9,1.5,19,M,,M,,*55
05/28/2014	02:02:48.718	$GPGGA,020249,2543.8833,N,08009.7286,W,1,9,1.5,19,M,,M,,*52
05/28/2014	02:02:49.719	$GPGGA,020250,2543.8834,N,08009.7287,W,1,9,1.5,19,M,,M,,*5C
05/28/2014	02:02:50.720	$GPGGA,020251,2543.8833,N,08009.7286,W,1,9,1.5,19,M,,M,,*5B
05/28/2014	02:02:52.195	$GPGGA,020252,2543.8834,N,08009.7287,W,1,9,1.5,20,M,,M,,*54
05/28/2014	02:02:52.741	$GPGGA,020253,2543.8833,N,08009.7286,W,1,9,1.5,20,M,,M,,*53
05/28/2014	02:02:53.752	$GPGGA,020254,2543.8834,N,08009.7287,W,1,9,1.5,20,M,,M,,*52
05/28/2014	02:02:54.753	$GPGGA,020255,2543.8833,N,08009.7286,W,1,9,1.5,20,M,,M,,*55
05/28/2014	02:02:55.774	$GPGGA,020256,2543.8834,N,08009.7287,W,1,9,1.5,20,M,,M,,*50
05/28/2014	02:02:56.795	$GPGGA,020257,2543.8833,N,08009.7286,W,1,9,1.5,20,M,,M,,*57
05/28/2014	02:02:57.784	$GPGGA,020258,2543.8834,N,08009.7287,W,1,9,1.5,20,M,,M,,*5E
05/28/2014	02:02:58.780	$GPGGA,020259,2543.8833,N,08009.7286,W,1,9,1.5,19,M,,M,,*53
05/28/2014	02:02:59.815	$GPGGA,020300,2543.8834,N,08009.7287,W,1,9,1.5,19,M,,M,,*58
05/28/2014	02:03:00.811	$GPGGA,020301,2543.8832,N,08009.7285,W,1,9,1.5,19,M,,M,,*5D
05/28/2014	02:03:01.786	$GPGGA,020302,2543.8833,N,08009.7285,W,1,9,1.5,19,M,,M,,*5F
05/28/2014	02:03:02.822	$GPGGA,020303,2543.8832,N,08009.7285,W,1,9,1.5,19,M,,M,,*5F
05/28/2014	02:03:03.808	$GPGGA,020304,2543.8833,N,08009.7285,W,1,9,1.5,19,M,,M,,*59
05/28/2014	02:03:04.834	$GPGGA,020305,2543.8831,N,08009.7284,W,1,9,1.5,19,M,,M,,*5B
05/28/2014	02:03:05.809	$GPGGA,020306,2543.8831,N,08009.7284,W,1,9,1.5,19,M,,M,,*58
05/28/2014	02:03:06.814	$GPGGA,020307,2543.8831,N,08009.7284,W,1,9,1.5,19,M,,M,,*59
05/28/2014	02:03:07.830	$GPGGA,020308,2543.8831,N,08009.7283,W,1,9,1.5,19,M,,M,,*51
05/28/2014	02:03:08.815	$GPGGA,020309,2543.8831,N,08009.7283,W,1,9,1.5,19,M,,M,,*50
05/28/2014	02:03:09.830	$GPGGA,020310,2543.8831,N,08009.7283,W,1,9,1.5,19,M,,M,,*58
05/28/2014	02:03:10.866	$GPGGA,020311,2543.8831,N,08009.7283,W,1,9,1.5,19,M,,M,,*59
05/28/2014	02:03:11.841	$GPGGA,020312,2543.8831,N,08009.7283,W,1,9,1.5,19,M,,M,,*5A
05/28/2014	02:03:12.867	$GPGGA,020313,2543.8831,N,08009.7283,W,1,9,1.5,19,M,,M,,*5B
05/28/2014	02:03:13.842	$GPGGA,020314,2543.8831,N,08009.7283,W,1,9,1.5,19,M,,M,,*5C
05/28/2014	02:03:14.868	$GPGGA,020315,2543.8831,N,08009.7283,W,1,9,1.5,19,M,,M,,*5D
05/28/2014	02:03:15.854	$GPGGA,020316,2543.8831,N,08009.7283,W,1,9,1.5,19,M,,M,,*5E
05/28/2014	02:03:16.879	$GPGGA,020317,2543.8831,N,08009.7283,W,1,9,1.5,19,M,,M,,*5F
05/28/2014	02:03:17.845	$GPGGA,020318,2543.8833,N,08009.7283,W,1,9,1.5,19,M,,M,,*52
05/28/2014	02:03:18.870	$GPGGA,020319,2543.8832,N,08009.7284,W,1,9,1.5,19,M,,M,,*55
05/28/2014	02:03:19.866	$GPGGA,020320,2543.8833,N,08009.7283,W,1,9,1.5,19,M,,M,,*59
05/28/2014	02:03:20.872	$GPGGA,020321,2543.8832,N,08009.7283,W,1,9,1.5,19,M,,M,,*59
05/28/2014	02:03:21.857	$GPGGA,020322,2543.8833,N,08009.7283,W,1,9,1.5,19,M,,M,,*5B
05/28/2014	02:03:22.873	$GPGGA,020323,2543.8832,N,08009.7283,W,1,9,1.5,19,M,,M,,*5B
05/28/2014	02:03:23.898	$GPGGA,020324,2543.8833,N,08009.7283,W,1,9,1.5,19,M,,M,,*5D
05/28/2014	02:03:24.864	$GPGGA,020325,2543.8834,N,08009.7283,W,1,9,1.5,19,M,,M,,*5B
05/28/2014	02:03:26.020	$GPGGA,020326,2543.8833,N,08009.7283,W,1,9,1.5,19,M,,M,,*5F
05/28/2014	02:03:26.874	$GPGGA,020327,2543.8834,N,08009.7283,W,1,9,1.5,19,M,,M,,*59
05/28/2014	02:03:27.890	$GPGGA,020328,2543.8833,N,08009.7283,W,1,9,1.5,19,M,,M,,*51
05/28/2014	02:03:28.905	$GPGGA,020329,2543.8834,N,08009.7283,W,1,9,1.5,19,M,,M,,*57
05/28/2014	02:03:29.891	$GPGGA,020330,2543.8833,N,08009.7284,W,1,9,1.5,19,M,,M,,*5F
05/28/2014	02:03:30.886	$GPGGA,020331,2543.8835,N,08009.7284,W,1,9,1.5,19,M,,M,,*58
05/28/2014	02:03:32.053	$GPGGA,020332,2543.8835,N,08009.7284,W,1,9,1.5,19,M,,M,,*5B
05/28/2014	02:03:33.109	$GPGGA,020333,2543.8835,N,08009.7284,W,1,9,1.5,19,M,,M,,*5A
05/28/2014	02:03:34.004	$GPGGA,020334,2543.8835,N,08009.7285,W,1,9,1.5,19,M,,M,,*5C
05/28/2014	02:03:34.909	$GPGGA,020335,2543.8835,N,08009.7285,W,1,8,1.5,19,M,,M,,*5C
05/28/2014	02:03:36.065	$GPGGA,020336,2543.8835,N,08009.7285,W,1,8,1.5,20,M,,M,,*55
05/28/2014	02:03:37.121	$GPGGA,020337,2543.8837,N,08009.7285,W,1,9,1.5,20,M,,M,,*57
05/28/2014	02:03:38.016	$GPGGA,020338,2543.8836,N,08009.7285,W,1,9,1.5,20,M,,M,,*59
05/28/2014	02:03:38.692	$GPGGA,020339,2543.8838,N,08009.7285,W,1,8,1.5,20,M,,M,,*57
05/28/2014	02:03:39.628	$GPGGA,020340,2543.8837,N,08009.7287,W,1,8,1.5,20,M,,M,,*54
05/28/2014	02:03:40.693	$GPGGA,020341,2543.8839,N,08009.7287,W,1,9,1.5,20,M,,M,,*5A
05/28/2014	02:03:41.639	$GPGGA,020342,2543.8839,N,08009.7287,W,1,9,1.5,20,M,,M,,*59
05/28/2014	02:03:42.705	$GPGGA,020343,2543.8839,N,08009.7288,W,1,9,1.5,20,M,,M,,*57
05/28/2014	02:03:43.639	$GPGGA,020344,2543.8841,N,08009.7288,W,1,9,1.5,20,M,,M,,*5F
05/28/2014	02:03:44.715	$GPGGA,020345,2543.8842,N,08009.7290,W,1,9,1.5,20,M,,M,,*54
05/28/2014	02:03:45.632	$GPGGA,020346,2543.8842,N,08009.7290,W,1,9,1.5,20,M,,M,,*57
05/28/2014	02:03:46.716	$GPGGA,020347,2543.8844,N,08009.7291,W,1,9,1.5,20,M,,M,,*51
05/28/2014	02:03:47.671	$GPGGA,020348,2543.8845,N,08009.7291,W,1,9,1.5,20,M,,M,,*5F
05/28/2014	02:03:48.727	$GPGGA,020349,2543.8846,N,08009.7292,W,1,9,1.5,20,M,,M,,*5E
05/28/2014	02:03:49.643	$GPGGA,020350,2543.8846,N,08009.7294,W,1,9,1.5,20,M,,M,,*50
05/28/2014	02:03:50.738	$GPGGA,020351,2543.8848,N,08009.7294,W,1,9,1.5,20,M,,M,,*5F
05/28/2014	02:03:51.664	$GPGGA,020352,2543.8847,N,08009.7294,W,1,9,1.5,20,M,,M,,*53
05/28/2014	02:03:52.750	$GPGGA,020353,2543.8848,N,08009.7295,W,1,9,1.5,20,M,,M,,*5C
05/28/2014	02:03:53.624	$GPGGA,020354,2543.8849,N,08009.7296,W,1,9,1.5,20,M,,M,,*59
05/28/2014	02:03:54.751	$GPGGA,020355,2543.8848,N,08009.7296,W,1,9,1.5,20,M,,M,,*59
05/28/2014	02:03:55.688	$GPGGA,020356,2543.8849,N,08009.7296,W,1,9,1.5,20,M,,M,,*5B
05/28/2014	02:03:56.641	$GPGGA,020357,2543.8848,N,08009.7298,W,1,9,1.5,20,M,,M,,*55
05/28/2014	02:03:57.647	$GPGGA,020358,2543.8849,N,08009.7297,W,1,9,1.5,20,M,,M,,*54
05/28/2014	02:03:58.773	$GPGGA,020359,2543.8849,N,08009.7298,W,1,9,1.5,20,M,,M,,*5A
05/28/2014	02:03:59.668	$GPGGA,020400,2543.8849,N,08009.7297,W,1,9,1.5,20,M,,M,,*5E
05/28/2014	02:04:00.734	$GPGGA,020401,2543.8849,N,08009.7298,W,1,9,1.5,20,M,,M,,*50
05/28/2014	02:04:01.678	$GPGGA,020402,2543.8849,N,08009.7298,W,1,9,1.5,20,M,,M,,*53
05/28/2014	02:04:02.664	$GPGGA,020403,2543.8849,N,08009.7298,W,1,9,1.5,20,M,,M,,*52
05/28/2014	02:04:03.800	$GPGGA,020404,2543.8849,N,08009.7298,W,1,9,1.5,20,M,,M,,*55
05/28/2014	02:04:04.816	$GPGGA,020405,2543.8849,N,08009.7299,W,1,9,1.5,20,M,,M,,*55
05/28/2014	02:04:05.771	$GPGGA,020406,2543.8850,N,08009.7299,W,1,9,1.5,20,M,,M,,*5E
05/28/2014	02:04:06.666	$GPGGA,020407,2543.8850,N,08009.7301,W,1,9,1.5,20,M,,M,,*5F
05/28/2014	02:04:07.692	$GPGGA,020408,2543.8850,N,08009.7299,W,1,9,1.5,20,M,,M,,*50
05/28/2014	02:04:08.788	$GPGGA,020409,2543.8850,N,08009.7301,W,1,9,1.5,20,M,,M,,*51
05/28/2014	02:04:09.713	$GPGGA,020410,2543.8850,N,08009.7300,W,1,9,1.5,20,M,,M,,*58
05/28/2014	02:04:10.689	$GPGGA,020411,2543.8852,N,08009.7301,W,1,9,1.5,20,M,,M,,*5A
05/28/2014	02:04:11.744	$GPGGA,020412,2543.8851,N,08009.7300,W,1,9,1.5,20,M,,M,,*5B
05/28/2014	02:04:12.790	$GPGGA,020413,2543.8852,N,08009.7301,W,1,9,1.5,20,M,,M,,*58
05/28/2014	02:04:13.746	$GPGGA,020414,2543.8851,N,08009.7301,W,1,9,1.5,20,M,,M,,*5C
05/28/2014	02:04:14.801	$GPGGA,020415,2543.8852,N,08009.7300,W,1,9,1.5,20,M,,M,,*5F
05/28/2014	02:04:15.767	$GPGGA,020416,2543.8851,N,08009.7301,W,1,9,1.5,20,M,,M,,*5E
05/28/2014	02:04:16.803	$GPGGA,020417,2543.8852,N,08009.7300,W,1,9,1.5,20,M,,M,,*5D
05/28/2014	02:04:17.748	$GPGGA,020418,2543.8853,N,08009.7301,W,1,9,1.5,20,M,,M,,*52
05/28/2014	02:04:18.863	$GPGGA,020419,2543.8853,N,08009.7301,W,1,9,1.5,20,M,,M,,*53
05/28/2014	02:04:19.838	$GPGGA,020420,2543.8853,N,08009.7301,W,1,9,1.5,20,M,,M,,*59
05/28/2014	02:04:20.844	$GPGGA,020421,2543.8853,N,08009.7301,W,1,9,1.5,20,M,,M,,*58
05/28/2014	02:04:21.819	$GPGGA,020422,2543.8853,N,08009.7301,W,1,9,1.5,20,M,,M,,*5B
05/28/2014	02:04:22.845	$GPGGA,020423,2543.8853,N,08009.7300,W,1,9,1.5,20,M,,M,,*5B
05/28/2014	02:04:23.851	$GPGGA,020424,2543.8853,N,08009.7301,W,1,9,1.5,20,M,,M,,*5D
05/28/2014	02:04:24.846	$GPGGA,020425,2543.8853,N,08009.7300,W,1,9,1.5,20,M,,M,,*5D
05/28/2014	02:04:25.842	$GPGGA,020426,2543.8853,N,08009.7301,W,1,9,1.5,20,M,,M,,*5F
05/28/2014	02:04:26.938	$GPGGA,020427,2543.8851,N,08009.7300,W,1,9,1.5,20,M,,M,,*5D
05/28/2014	02:04:27.863	$GPGGA,020428,2543.8852,N,08009.7299,W,1,9,1.5,20,M,,M,,*50
05/28/2014	02:04:28.889	$GPGGA,020429,2543.8851,N,08009.7299,W,1,9,1.5,21,M,,M,,*53
05/28/2014	02:04:29.854	$GPGGA,020430,2543.8852,N,08009.7299,W,1,9,1.5,21,M,,M,,*58
05/28/2014	02:04:30.930	$GPGGA,020431,2543.8851,N,08009.7299,W,1,9,1.5,21,M,,M,,*5A
05/28/2014	02:04:31.875	$GPGGA,020432,2543.8852,N,08009.7299,W,1,9,1.5,21,M,,M,,*5A
05/28/2014	02:04:32.891	$GPGGA,020433,2543.8851,N,08009.7299,W,1,9,1.5,21,M,,M,,*58
05/28/2014	02:04:33.867	$GPGGA,020434,2543.8852,N,08009.7299,W,1,9,1.5,21,M,,M,,*5C
05/28/2014	02:04:34.912	$GPGGA,020435,2543.8850,N,08009.7299,W,1,9,1.5,21,M,,M,,*5F
05/28/2014	02:04:35.888	$GPGGA,020436,2543.8850,N,08009.7299,W,1,9,1.5,21,M,,M,,*5C
05/28/2014	02:04:36.915	$GPGGA,020437,2543.8850,N,08009.7299,W,1,9,1.5,21,M,,M,,*5D
05/28/2014	02:04:37.888	$GPGGA,020438,2543.8850,N,08009.7299,W,1,9,1.5,21,M,,M,,*52
05/28/2014	02:04:38.610	$GPGGA,020439,2543.8850,N,08009.7298,W,1,9,1.5,21,M,,M,,*52
05/28/2014	02:04:39.575	$GPGGA,020440,2543.8850,N,08009.7298,W,1,9,1.5,21,M,,M,,*5C
05/28/2014	02:04:40.601	$GPGGA,020441,2543.8849,N,08009.7298,W,1,9,1.5,21,M,,M,,*55
05/28/2014	02:04:41.576	$GPGGA,020442,2543.8849,N,08009.7298,W,1,9,1.5,21,M,,M,,*56
05/28/2014	02:04:42.612	$GPGGA,020443,2543.8849,N,08009.7298,W,1,9,1.5,21,M,,M,,*57
05/28/2014	02:04:43.588	$GPGGA,020444,2543.8848,N,08009.7297,W,1,9,1.5,21,M,,M,,*5E
05/28/2014	02:04:44.613	$GPGGA,020445,2543.8849,N,08009.7298,W,1,9,1.5,21,M,,M,,*51
05/28/2014	02:04:45.579	$GPGGA,020446,2543.8848,N,08009.7298,W,1,9,1.5,21,M,,M,,*53
05/28/2014	02:04:46.715	$GPGGA,020447,2543.8849,N,08009.7298,W,1,9,1.5,21,M,,M,,*53
05/28/2014	02:04:47.600	$GPGGA,020448,2543.8848,N,08009.7298,W,1,9,1.5,21,M,,M,,*5D
05/28/2014	02:04:48.636	$GPGGA,020449,2543.8849,N,08009.7298,W,1,9,1.5,21,M,,M,,*5D
05/28/2014	02:04:49.591	$GPGGA,020450,2543.8847,N,08009.7297,W,1,9,1.5,21,M,,M,,*54
05/28/2014	02:04:50.647	$GPGGA,020451,2543.8848,N,08009.7298,W,1,9,1.5,21,M,,M,,*55
05/28/2014	02:04:51.622	$GPGGA,020452,2543.8847,N,08009.7297,W,1,9,1.5,21,M,,M,,*56
05/28/2014	02:04:52.668	$GPGGA,020453,2543.8848,N,08009.7298,W,1,9,1.5,21,M,,M,,*57
05/28/2014	02:04:53.612	$GPGGA,020454,2543.8847,N,08009.7297,W,1,9,1.5,21,M,,M,,*50
05/28/2014	02:04:54.678	$GPGGA,020455,2543.8846,N,08009.7298,W,1,9,1.5,21,M,,M,,*5F
05/28/2014	02:04:55.634	$GPGGA,020456,2543.8846,N,08009.7297,W,1,9,1.5,21,M,,M,,*53
05/28/2014	02:04:56.690	$GPGGA,020457,2543.8846,N,08009.7298,W,1,9,1.5,21,M,,M,,*5D
05/28/2014	02:04:57.615	$GPGGA,020458,2543.8846,N,08009.7297,W,1,9,1.5,21,M,,M,,*5D
05/28/2014	02:04:58.741	$GPGGA,020459,2543.8846,N,08009.7298,W,1,9,1.5,21,M,,M,,*53
05/28/2014	02:04:59.656	$GPGGA,020500,2543.8846,N,08009.7297,W,1,9,1.5,21,M,,M,,*51
05/28/2014	02:05:00.631	$GPGGA,020501,2543.8846,N,08009.7297,W,1,9,1.5,21,M,,M,,*50
05/28/2014	02:05:01.746	$GPGGA,020502,2543.8846,N,08009.7296,W,1,9,1.5,21,M,,M,,*52
05/28/2014	02:05:02.857	$GPGGA,020503,2543.8846,N,08009.7296,W,1,9,1.5,21,M,,M,,*53
05/28/2014	02:05:03.915	$GPGGA,020504,2543.8846,N,08009.7296,W,1,9,1.5,21,M,,M,,*54
05/28/2014	02:05:04.983	$GPGGA,020505,2543.8846,N,08009.7296,W,1,9,1.5,21,M,,M,,*55
05/28/2014	02:05:06.020	$GPGGA,020506,2543.8846,N,08009.7296,W,1,9,1.5,21,M,,M,,*56
05/28/2014	02:05:07.099	$GPGGA,020507,2543.8846,N,08009.7296,W,1,9,1.5,21,M,,M,,*57
05/28/2014	02:05:08.061	$GPGGA,020508,2543.8846,N,08009.7295,W,1,9,1.5,21,M,,M,,*5B
05/28/2014	02:05:09.216	$GPGGA,020509,2543.8846,N,08009.7295,W,1,9,1.5,21,M,,M,,*5A
05/28/2014	02:05:10.283	$GPGGA,020510,2543.8846,N,08009.7294,W,1,9,1.5,21,M,,M,,*53
05/28/2014	02:05:11.352	$GPGGA,020511,2543.8846,N,08009.7294,W,1,9,1.5,21,M,,M,,*52
05/28/2014	02:05:12.430	$GPGGA,020512,2543.8846,N,08009.7293,W,1,9,1.5,21,M,,M,,*56
05/28/2014	02:05:13.488	$GPGGA,020513,2543.8846,N,08009.7294,W,1,9,1.5,21,M,,M,,*50
05/28/2014	02:05:14.556	$GPGGA,020514,2543.8846,N,08009.7293,W,1,9,1.5,21,M,,M,,*50
05/28/2014	02:05:15.625	$GPGGA,020515,2543.8846,N,08009.7294,W,1,9,1.5,21,M,,M,,*56
05/28/2014	02:05:16.693	$GPGGA,020516,2543.8846,N,08009.7293,W,1,9,1.5,21,M,,M,,*52
05/28/2014	02:05:17.740	$GPGGA,020517,2543.8846,N,08009.7294,W,1,9,1.5,21,M,,M,,*54
05/28/2014	02:05:18.809	$GPGGA,020518,2543.8846,N,08009.7293,W,1,9,1.5,21,M,,M,,*5C
05/28/2014	02:05:19.888	$GPGGA,020519,2543.8848,N,08009.7292,W,1,9,1.5,21,M,,M,,*52
05/28/2014	02:05:20.967	$GPGGA,020520,2543.8847,N,08009.7292,W,1,9,1.5,21,M,,M,,*57
05/28/2014	02:05:22.036	$GPGGA,020521,2543.8848,N,08009.7292,W,1,9,1.5,21,M,,M,,*59
05/28/2014	02:05:23.072	$GPGGA,020522,2543.8847,N,08009.7292,W,1,9,1.5,21,M,,M,,*55
05/28/2014	02:05:24.174	$GPGGA,020523,2543.8848,N,08009.7292,W,1,9,1.5,21,M,,M,,*5B
05/28/2014	02:05:25.220	$GPGGA,020524,2543.8847,N,08009.7292,W,1,9,1.5,21,M,,M,,*53
05/28/2014	02:05:26.299	$GPGGA,020525,2543.8848,N,08009.7291,W,1,9,1.5,21,M,,M,,*5E
05/28/2014	02:05:27.335	$GPGGA,020526,2543.8847,N,08009.7291,W,1,9,1.5,21,M,,M,,*52
05/28/2014	02:05:28.436	$GPGGA,020527,2543.8848,N,08009.7291,W,1,9,1.5,21,M,,M,,*5C
05/28/2014	02:05:29.494	$GPGGA,020528,2543.8847,N,08009.7291,W,1,9,1.5,21,M,,M,,*5C
05/28/2014	02:05:30.529	$GPGGA,020529,2543.8848,N,08009.7291,W,1,9,1.5,21,M,,M,,*52
05/28/2014	02:05:31.608	$GPGGA,020530,2543.8847,N,08009.7291,W,1,9,1.5,21,M,,M,,*55
05/28/2014	02:05:32.709	$GPGGA,020531,2543.8848,N,08009.7290,W,1,9,1.5,21,M,,M,,*5A
05/28/2014	02:05:33.745	$GPGGA,020532,2543.8847,N,08009.7290,W,1,9,1.5,21,M,,M,,*56
05/28/2014	02:05:34.835	$GPGGA,020533,2543.8848,N,08009.7290,W,1,9,1.5,21,M,,M,,*58
05/28/2014	02:05:35.882	$GPGGA,020534,2543.8847,N,08009.7290,W,1,9,1.5,21,M,,M,,*50
05/28/2014	02:05:36.951	$GPGGA,020535,2543.8848,N,08009.7290,W,1,9,1.5,21,M,,M,,*5E
05/28/2014	02:05:38.009	$GPGGA,020536,2543.8847,N,08009.7290,W,1,9,1.5,21,M,,M,,*52
05/28/2014	02:05:39.077	$GPGGA,020537,2543.8846,N,08009.7290,W,1,9,1.5,21,M,,M,,*52
05/28/2014	02:05:40.124	$GPGGA,020538,2543.8846,N,08009.7290,W,1,9,1.5,21,M,,M,,*5D
05/28/2014	02:05:38.615	$GPGGA,020539,2543.8846,N,08009.7289,W,1,9,1.5,21,M,,M,,*54
05/28/2014	02:05:39.663	$GPGGA,020540,2543.8846,N,08009.7290,W,1,9,1.5,21,M,,M,,*52
05/28/2014	02:05:40.742	$GPGGA,020541,2543.8846,N,08009.7289,W,1,9,1.5,21,M,,M,,*5B
05/28/2014	02:05:41.778	$GPGGA,020542,2543.8846,N,08009.7290,W,1,9,1.5,21,M,,M,,*50
05/28/2014	02:05:42.857	$GPGGA,020543,2543.8846,N,08009.7289,W,1,9,1.5,21,M,,M,,*59
05/28/2014	02:05:43.915	$GPGGA,020544,2543.8846,N,08009.7290,W,1,9,1.5,21,M,,M,,*56
05/28/2014	02:05:45.005	$GPGGA,020545,2543.8846,N,08009.7288,W,1,9,1.5,21,M,,M,,*5E
05/28/2014	02:05:46.042	$GPGGA,020546,2543.8846,N,08009.7288,W,1,9,1.5,21,M,,M,,*5D
05/28/2014	02:05:47.130	$GPGGA,020547,2543.8846,N,08009.7288,W,1,9,1.5,21,M,,M,,*5C
05/28/2014	02:05:48.199	$GPGGA,020548,2543.8846,N,08009.7288,W,1,9,1.5,21,M,,M,,*53
05/28/2014	02:05:49.342	$GPGGA,020549,2543.8846,N,08009.7288,W,1,9,1.5,21,M,,M,,*52
05/28/2014	02:05:50.314	$GPGGA,020550,2543.8844,N,08009.7288,W,1,9,1.5,21,M,,M,,*58
05/28/2014	02:05:51.490	$GPGGA,020551,2543.8845,N,08009.7287,W,1,9,1.5,21,M,,M,,*57
05/28/2014	02:05:52.558	$GPGGA,020552,2543.8844,N,08009.7286,W,1,9,1.5,21,M,,M,,*54
05/28/2014	02:05:53.616	$GPGGA,020553,2543.8845,N,08009.7287,W,1,9,1.5,21,M,,M,,*55
05/28/2014	02:05:54.674	$GPGGA,020554,2543.8844,N,08009.7286,W,1,9,1.5,21,M,,M,,*52
05/28/2014	02:05:55.774	$GPGGA,020555,2543.8845,N,08009.7285,W,1,9,1.5,21,M,,M,,*51
05/28/2014	02:05:56.822	$GPGGA,020556,2543.8844,N,08009.7285,W,1,9,1.5,21,M,,M,,*53
05/28/2014	02:05:57.869	$GPGGA,020557,2543.8843,N,08009.7285,W,1,9,1.5,21,M,,M,,*55
05/28/2014	02:05:58.948	$GPGGA,020558,2543.8844,N,08009.7284,W,1,9,1.5,21,M,,M,,*5C
05/28/2014	02:06:00.048	$GPGGA,020559,2543.8843,N,08009.7284,W,1,9,1.5,21,M,,M,,*5A
05/28/2014	02:06:01.106	$GPGGA,020600,2543.8844,N,08009.7284,W,1,9,1.5,21,M,,M,,*52
05/28/2014	02:06:02.143	$GPGGA,020601,2543.8843,N,08009.7283,W,1,9,1.5,21,M,,M,,*53
05/28/2014	02:06:03.201	$GPGGA,020602,2543.8845,N,08009.7282,W,1,9,1.5,21,M,,M,,*57
05/28/2014	02:06:04.290	$GPGGA,020603,2543.8843,N,08009.7281,W,1,8,2.0,21,M,,M,,*54
05/28/2014	02:06:05.358	$GPGGA,020604,2543.8845,N,08009.7280,W,1,8,2.0,20,M,,M,,*55
05/28/2014	02:06:06.406	$GPGGA,020605,2543.8844,N,08009.7279,W,1,8,2.0,20,M,,M,,*53
05/28/2014	02:06:07.463	$GPGGA,020606,2543.8846,N,08009.7278,W,1,8,2.0,20,M,,M,,*53
05/28/2014	02:06:08.574	$GPGGA,020607,2543.8846,N,08009.7277,W,1,8,2.0,20,M,,M,,*5D
05/28/2014	02:06:09.621	$GPGGA,020608,2543.8846,N,08009.7276,W,1,8,2.0,20,M,,M,,*53
05/28/2014	02:06:10.679	$GPGGA,020609,2543.8846,N,08009.7276,W,1,8,2.0,20,M,,M,,*52
05/28/2014	02:06:11.747	$GPGGA,020610,2543.8842,N,08009.7280,W,1,8,2.0,20,M,,M,,*57
05/28/2014	02:06:12.827	$GPGGA,020611,2543.8844,N,08009.7279,W,1,9,1.5,20,M,,M,,*51
05/28/2014	02:06:13.884	$GPGGA,020612,2543.8842,N,08009.7283,W,1,9,2.0,20,M,,M,,*57
05/28/2014	02:06:14.964	$GPGGA,020613,2543.8840,N,08009.7283,W,1,9,1.5,19,M,,M,,*58
05/28/2014	02:06:16.000	$GPGGA,020614,2543.8839,N,08009.7284,W,1,9,1.5,19,M,,M,,*56
05/28/2014	02:06:17.102	$GPGGA,020615,2543.8839,N,08009.7284,W,1,9,1.5,19,M,,M,,*57
05/28/2014	02:06:18.148	$GPGGA,020616,2543.8839,N,08009.7284,W,1,9,1.5,19,M,,M,,*54
05/28/2014	02:06:19.227	$GPGGA,020617,2543.8839,N,08009.7283,W,1,9,1.5,19,M,,M,,*52
05/28/2014	02:06:20.274	$GPGGA,020618,2543.8839,N,08009.7283,W,1,9,1.5,19,M,,M,,*5D
05/28/2014	02:06:21.353	$GPGGA,020619,2543.8839,N,08009.7284,W,1,9,1.5,19,M,,M,,*5B
05/28/2014	02:06:22.422	$GPGGA,020620,2543.8839,N,08009.7285,W,1,9,1.5,19,M,,M,,*50
05/28/2014	02:06:23.501	$GPGGA,020621,2543.8837,N,08009.7287,W,1,9,1.5,20,M,,M,,*57
05/28/2014	02:06:24.536	$GPGGA,020622,2543.8838,N,08009.7287,W,1,9,1.5,20,M,,M,,*5B
05/28/2014	02:06:25.658	$GPGGA,020623,2543.8836,N,08009.7287,W,1,9,1.5,20,M,,M,,*54
05/28/2014	02:06:26.705	$GPGGA,020624,2543.8835,N,08009.7288,W,1,9,1.5,20,M,,M,,*5F
05/28/2014	02:06:27.731	$GPGGA,020625,2543.8835,N,08009.7290,W,1,9,1.5,20,M,,M,,*57
05/28/2014	02:06:28.810	$GPGGA,020626,2543.8835,N,08009.7289,W,1,9,1.5,20,M,,M,,*5C
05/28/2014	02:06:29.868	$GPGGA,020627,2543.8835,N,08009.7290,W,1,9,1.5,20,M,,M,,*55
05/28/2014	02:06:30.958	$GPGGA,020628,2543.8833,N,08009.7290,W,1,9,1.5,20,M,,M,,*5C
05/28/2014	02:06:32.005	$GPGGA,020629,2543.8835,N,08009.7289,W,1,9,1.5,20,M,,M,,*53
05/28/2014	02:06:33.191	$GPGGA,020630,2543.8835,N,08009.7290,W,1,9,1.5,20,M,,M,,*53
05/28/2014	02:06:34.249	$GPGGA,020631,2543.8835,N,08009.7290,W,1,9,1.5,20,M,,M,,*52
05/28/2014	02:06:35.221	$GPGGA,020632,2543.8835,N,08009.7290,W,1,9,1.5,20,M,,M,,*51
05/28/2014	02:06:36.258	$GPGGA,020633,2543.8833,N,08009.7290,W,1,9,1.5,20,M,,M,,*56
05/28/2014	02:06:37.433	$GPGGA,020634,2543.8834,N,08009.7290,W,1,9,1.5,20,M,,M,,*56
05/28/2014	02:06:38.384	$GPGGA,020635,2543.8833,N,08009.7290,W,1,9,1.5,20,M,,M,,*50
05/28/2014	02:06:39.463	$GPGGA,020636,2543.8834,N,08009.7290,W,1,9,1.5,20,M,,M,,*54
05/28/2014	02:06:40.671	$GPGGA,020637,2543.8833,N,08009.7290,W,1,9,1.5,20,M,,M,,*52
05/28/2014	02:06:41.600	$GPGGA,020638,2543.8834,N,08009.7291,W,1,9,1.5,20,M,,M,,*5B
05/28/2014	02:06:38.677	$GPGGA,020639,2543.8833,N,08009.7291,W,1,9,1.5,21,M,,M,,*5C
05/28/2014	02:06:39.639	$GPGGA,020640,2543.8834,N,08009.7291,W,1,9,1.5,21,M,,M,,*55
05/28/2014	02:06:40.825	$GPGGA,020641,2543.8833,N,08009.7291,W,1,9,1.5,21,M,,M,,*53
05/28/2014	02:06:41.861	$GPGGA,020642,2543.8834,N,08009.7291,W,1,9,1.5,21,M,,M,,*57
05/28/2014	02:06:42.930	$GPGGA,020643,2543.8833,N,08009.7291,W,1,9,1.5,21,M,,M,,*51
05/28/2014	02:06:43.998	$GPGGA,020644,2543.8834,N,08009.7291,W,1,9,1.5,21,M,,M,,*51
05/28/2014	02:06:45.056	$GPGGA,020645,2543.8833,N,08009.7291,W,1,9,1.5,21,M,,M,,*57
05/28/2014	02:06:46.125	$GPGGA,020646,2543.8835,N,08009.7291,W,1,9,1.5,21,M,,M,,*52
05/28/2014	02:06:47.183	$GPGGA,020647,2543.8835,N,08009.7291,W,1,9,1.5,21,M,,M,,*53
05/28/2014	02:06:48.272	$GPGGA,020648,2543.8835,N,08009.7291,W,1,9,1.5,21,M,,M,,*5C
05/28/2014	02:06:49.330	$GPGGA,020649,2543.8835,N,08009.7291,W,1,9,1.5,21,M,,M,,*5D
05/28/2014	02:06:50.377	$GPGGA,020650,2543.8835,N,08009.7291,W,1,9,1.5,21,M,,M,,*55
05/28/2014	02:06:51.478	$GPGGA,020651,2543.8835,N,08009.7290,W,1,9,1.5,21,M,,M,,*55
05/28/2014	02:06:52.525	$GPGGA,020652,2543.8835,N,08009.7291,W,1,9,1.5,21,M,,M,,*57
05/28/2014	02:06:53.604	$GPGGA,020653,2543.8835,N,08009.7291,W,1,9,1.5,21,M,,M,,*56
05/28/2014	02:06:54.641	$GPGGA,020654,2543.8835,N,08009.7291,W,1,9,1.5,21,M,,M,,*51
05/28/2014	02:06:55.741	$GPGGA,020655,2543.8835,N,08009.7291,W,1,9,1.5,22,M,,M,,*53
05/28/2014	02:06:56.788	$GPGGA,020656,2543.8835,N,08009.7291,W,1,9,1.5,22,M,,M,,*50
05/28/2014	02:06:57.867	$GPGGA,020657,2543.8835,N,08009.7291,W,1,9,1.5,22,M,,M,,*51
05/28/2014	02:06:58.935	$GPGGA,020658,2543.8837,N,08009.7291,W,1,9,1.5,22,M,,M,,*5C
05/28/2014	02:06:59.971	$GPGGA,020659,2543.8836,N,08009.7290,W,1,9,1.5,22,M,,M,,*5D
05/28/2014	02:07:01.073	$GPGGA,020700,2543.8837,N,08009.7290,W,1,9,1.5,22,M,,M,,*51
05/28/2014	02:07:02.141	$GPGGA,020701,2543.8836,N,08009.7290,W,1,9,1.5,22,M,,M,,*51
05/28/2014	02:07:03.188	$GPGGA,020702,2543.8837,N,08009.7290,W,1,9,1.5,22,M,,M,,*53
05/28/2014	02:07:04.256	$GPGGA,020703,2543.8836,N,08009.7290,W,1,9,1.5,22,M,,M,,*53
05/28/2014	02:07:05.335	$GPGGA,020704,2543.8837,N,08009.7290,W,1,9,1.5,22,M,,M,,*55
05/28/2014	02:07:06.382	$GPGGA,020705,2543.8836,N,08009.7289,W,1,9,1.5,22,M,,M,,*5D
05/28/2014	02:07:07.451	$GPGGA,020706,2543.8837,N,08009.7290,W,1,9,1.5,22,M,,M,,*57
05/28/2014	02:07:08.509	$GPGGA,020707,2543.8836,N,08009.7288,W,1,9,1.5,22,M,,M,,*5E
05/28/2014	02:07:09.599	$GPGGA,020708,2543.8835,N,08009.7288,W,1,9,1.5,22,M,,M,,*52
05/28/2014	02:07:10.678	$GPGGA,020709,2543.8835,N,08009.7290,W,1,9,1.5,22,M,,M,,*5A
05/28/2014	02:07:11.704	$GPGGA,020710,2543.8835,N,08009.7289,W,1,9,1.5,22,M,,M,,*5A
05/28/2014	02:07:12.772	$GPGGA,020711,2543.8835,N,08009.7290,W,1,9,1.5,22,M,,M,,*53
05/28/2014	02:07:13.862	$GPGGA,020712,2543.8835,N,08009.7288,W,1,9,1.5,22,M,,M,,*59
05/28/2014	02:07:14.920	$GPGGA,020713,2543.8835,N,08009.7288,W,1,9,1.5,22,M,,M,,*58
05/28/2014	02:07:15.977	$GPGGA,020714,2543.8835,N,08009.7288,W,1,9,1.5,22,M,,M,,*5F
05/28/2014	02:07:17.056	$GPGGA,020715,2543.8835,N,08009.7288,W,1,9,1.5,22,M,,M,,*5E
05/28/2014	02:07:18.135	$GPGGA,020716,2543.8835,N,08009.7287,W,1,9,1.5,22,M,,M,,*52
05/28/2014	02:07:19.300	$GPGGA,020717,2543.8835,N,08009.7287,W,1,9,1.5,22,M,,M,,*53
05/28/2014	02:07:20.272	$GPGGA,020718,2543.8835,N,08009.7287,W,1,9,1.5,22,M,,M,,*5C
05/28/2014	02:07:21.308	$GPGGA,020719,2543.8835,N,08009.7287,W,1,9,1.5,22,M,,M,,*5D
05/28/2014	02:07:22.377	$GPGGA,020720,2543.8835,N,08009.7287,W,1,9,1.5,22,M,,M,,*57
05/28/2014	02:07:23.467	$GPGGA,020721,2543.8835,N,08009.7286,W,1,9,1.5,22,M,,M,,*57
05/28/2014	02:07:24.631	$GPGGA,020722,2543.8835,N,08009.7285,W,1,9,1.5,22,M,,M,,*57
05/28/2014	02:07:25.679	$GPGGA,020723,2543.8837,N,08009.7283,W,1,8,2.0,22,M,,M,,*55
05/28/2014	02:07:26.662	$GPGGA,020724,2543.8835,N,08009.7287,W,1,8,2.0,22,M,,M,,*54
05/28/2014	02:07:27.719	$GPGGA,020725,2543.8833,N,08009.7287,W,1,9,1.5,22,M,,M,,*54
05/28/2014	02:07:28.777	$GPGGA,020726,2543.8834,N,08009.7288,W,1,9,1.5,22,M,,M,,*5F
05/28/2014	02:07:29.942	$GPGGA,020727,2543.8832,N,08009.7290,W,1,9,1.5,22,M,,M,,*51
05/28/2014	02:07:31.042	$GPGGA,020728,2543.8833,N,08009.7289,W,1,9,1.5,22,M,,M,,*57
05/28/2014	02:07:32.079	$GPGGA,020729,2543.8832,N,08009.7290,W,1,9,1.5,22,M,,M,,*5F
05/28/2014	02:07:33.138	$GPGGA,020730,2543.8833,N,08009.7289,W,1,9,1.5,22,M,,M,,*5E
05/28/2014	02:07:34.227	$GPGGA,020731,2543.8832,N,08009.7290,W,1,9,1.5,22,M,,M,,*56
05/28/2014	02:07:35.283	$GPGGA,020732,2543.8831,N,08009.7289,W,1,9,1.5,22,M,,M,,*5E
05/28/2014	02:07:36.373	$GPGGA,020733,2543.8833,N,08009.7290,W,1,9,1.5,22,M,,M,,*55
05/28/2014	02:07:37.399	$GPGGA,020734,2543.8831,N,08009.7290,W,1,9,1.5,22,M,,M,,*50
05/28/2014	02:07:38.467	$GPGGA,020735,2543.8830,N,08009.7290,W,1,9,1.5,22,M,,M,,*50
05/28/2014	02:07:39.547	$GPGGA,020736,2543.8831,N,08009.7290,W,1,9,1.5,22,M,,M,,*52
05/28/2014	02:07:40.594	$GPGGA,020737,2543.8830,N,08009.7290,W,1,9,1.5,22,M,,M,,*52
05/28/2014	02:07:41.673	$GPGGA,020738,2543.8829,N,08009.7290,W,1,9,1.5,22,M,,M,,*55
05/28/2014	02:07:38.622	$GPGGA,020739,2543.8830,N,08009.7291,W,1,9,1.5,22,M,,M,,*5D
05/28/2014	02:07:39.712	$GPGGA,020740,2543.8828,N,08009.7291,W,1,9,1.5,22,M,,M,,*5A
05/28/2014	02:07:40.780	$GPGGA,020741,2543.8828,N,08009.7291,W,1,9,1.5,22,M,,M,,*5B
05/28/2014	02:07:41.827	$GPGGA,020742,2543.8828,N,08009.7291,W,1,9,1.5,22,M,,M,,*58
05/28/2014	02:07:42.885	$GPGGA,020743,2543.8828,N,08009.7291,W,1,9,1.5,22,M,,M,,*59
05/28/2014	02:07:43.975	$GPGGA,020744,2543.8828,N,08009.7291,W,1,9,1.5,22,M,,M,,*5E
05/28/2014	02:07:45.043	$GPGGA,020745,2543.8828,N,08009.7290,W,1,9,1.5,22,M,,M,,*5E
05/28/2014	02:07:46.080	$GPGGA,020746,2543.8828,N,08009.7290,W,1,9,1.5,22,M,,M,,*5D
05/28/2014	02:07:47.180	$GPGGA,020747,2543.8828,N,08009.7291,W,1,9,1.5,22,M,,M,,*5D
05/28/2014	02:07:48.228	$GPGGA,020748,2543.8828,N,08009.7291,W,1,9,1.5,22,M,,M,,*52
05/28/2014	02:07:49.316	$GPGGA,020749,2543.8828,N,08009.7291,W,1,9,1.5,22,M,,M,,*53
05/28/2014	02:07:50.353	$GPGGA,020750,2543.8828,N,08009.7291,W,1,9,1.5,22,M,,M,,*5B
05/28/2014	02:07:51.432	$GPGGA,020751,2543.8828,N,08009.7291,W,1,9,1.5,22,M,,M,,*5A
05/28/2014	02:07:52.501	$GPGGA,020752,2543.8828,N,08009.7292,W,1,9,1.5,22,M,,M,,*5A
05/28/2014	02:07:53.548	$GPGGA,020753,2543.8828,N,08009.7292,W,1,9,1.5,22,M,,M,,*5B
05/28/2014	02:07:54.627	$GPGGA,020754,2543.8828,N,08009.7292,W,1,9,1.5,22,M,,M,,*5C
05/28/2014	02:07:55.685	$GPGGA,020755,2543.8828,N,08009.7292,W,1,9,1.5,22,M,,M,,*5D
05/28/2014	02:07:56.775	$GPGGA,020756,2543.8828,N,08009.7291,W,1,9,1.5,22,M,,M,,*5D
05/28/2014	02:07:57.832	$GPGGA,020757,2543.8828,N,08009.7291,W,1,9,1.5,22,M,,M,,*5C
05/28/2014	02:07:58.879	$GPGGA,020758,2543.8828,N,08009.7291,W,1,9,1.5,22,M,,M,,*53
05/28/2014	02:07:59.969	$GPGGA,020759,2543.8828,N,08009.7292,W,1,9,1.5,22,M,,M,,*51
05/28/2014	02:08:01.049	$GPGGA,020800,2543.8828,N,08009.7292,W,1,9,1.5,22,M,,M,,*52
05/28/2014	02:08:02.096	$GPGGA,020801,2543.8828,N,08009.7292,W,1,9,1.5,22,M,,M,,*53
05/28/2014	02:08:03.164	$GPGGA,020802,2543.8828,N,08009.7292,W,1,9,1.5,22,M,,M,,*50
05/28/2014	02:08:04.350	$GPGGA,020803,2543.8828,N,08009.7292,W,1,9,1.5,22,M,,M,,*51
05/28/2014	02:08:05.290	$GPGGA,020804,2543.8828,N,08009.7292,W,1,9,1.5,22,M,,M,,*56
05/28/2014	02:08:06.359	$GPGGA,020805,2543.8828,N,08009.7292,W,1,9,1.5,22,M,,M,,*57
05/28/2014	02:08:07.417	$GPGGA,020806,2543.8828,N,08009.7292,W,1,9,1.5,22,M,,M,,*54
05/28/2014	02:08:08.591	$GPGGA,020807,2543.8828,N,08009.7291,W,1,9,1.5,22,M,,M,,*56
05/28/2014	02:08:09.670	$GPGGA,020808,2543.8828,N,08009.7291,W,1,9,1.5,22,M,,M,,*59
05/28/2014	02:08:10.632	$GPGGA,020809,2543.8828,N,08009.7291,W,1,9,1.5,22,M,,M,,*58
05/28/2014	02:08:11.679	$GPGGA,020810,2543.8828,N,08009.7290,W,1,9,1.5,22,M,,M,,*51
05/28/2014	02:08:12.865	$GPGGA,020811,2543.8830,N,08009.7290,W,1,9,1.5,22,M,,M,,*59
05/28/2014	02:08:13.934	$GPGGA,020812,2543.8829,N,08009.7289,W,1,9,1.5,22,M,,M,,*5A
05/28/2014	02:08:15.002	$GPGGA,020813,2543.8830,N,08009.7290,W,1,9,1.5,22,M,,M,,*5B
05/28/2014	02:08:15.942	$GPGGA,020814,2543.8829,N,08009.7288,W,1,9,1.5,22,M,,M,,*5D
05/28/2014	02:08:17.118	$GPGGA,020815,2543.8831,N,08009.7288,W,1,9,1.5,22,M,,M,,*55
05/28/2014	02:08:18.218	$GPGGA,020816,2543.8830,N,08009.7287,W,1,9,1.5,22,M,,M,,*58
05/28/2014	02:08:19.276	$GPGGA,020817,2543.8831,N,08009.7287,W,1,9,1.5,22,M,,M,,*58
05/28/2014	02:08:20.313	$GPGGA,020818,2543.8831,N,08009.7287,W,1,9,1.5,21,M,,M,,*54
05/28/2014	02:08:21.413	$GPGGA,020819,2543.8831,N,08009.7286,W,1,9,1.5,21,M,,M,,*54
05/28/2014	02:08:22.460	$GPGGA,020820,2543.8831,N,08009.7287,W,1,9,1.5,21,M,,M,,*5F
05/28/2014	02:08:23.529	$GPGGA,020821,2543.8831,N,08009.7286,W,1,9,1.5,21,M,,M,,*5F
05/28/2014	02:08:24.587	$GPGGA,020822,2543.8831,N,08009.7285,W,1,9,1.5,21,M,,M,,*5F
05/28/2014	02:08:25.666	$GPGGA,020823,2543.8831,N,08009.7285,W,1,9,1.5,21,M,,M,,*5E
05/28/2014	02:08:26.733	$GPGGA,020824,2543.8833,N,08009.7285,W,1,9,1.5,21,M,,M,,*5B
05/28/2014	02:08:27.802	$GPGGA,020825,2543.8832,N,08009.7284,W,1,9,1.5,21,M,,M,,*5A
05/28/2014	02:08:28.849	$GPGGA,020826,2543.8833,N,08009.7283,W,1,9,1.5,21,M,,M,,*5F
05/28/2014	02:08:29.928	$GPGGA,020827,2543.8832,N,08009.7283,W,1,9,1.5,21,M,,M,,*5F
05/28/2014	02:08:30.996	$GPGGA,020828,2543.8833,N,08009.7283,W,1,9,1.5,21,M,,M,,*51
05/28/2014	02:08:32.065	$GPGGA,020829,2543.8832,N,08009.7282,W,1,9,1.5,21,M,,M,,*50
05/28/2014	02:08:33.101	$GPGGA,020830,2543.8833,N,08009.7283,W,1,9,1.5,21,M,,M,,*58
05/28/2014	02:08:34.191	$GPGGA,020831,2543.8832,N,08009.7282,W,1,9,1.5,20,M,,M,,*58
05/28/2014	02:08:35.261	$GPGGA,020832,2543.8833,N,08009.7283,W,1,9,1.5,20,M,,M,,*5B
05/28/2014	02:08:36.350	$GPGGA,020833,2543.8832,N,08009.7281,W,1,9,1.5,20,M,,M,,*59
05/28/2014	02:08:37.375	$GPGGA,020834,2543.8833,N,08009.7281,W,1,9,1.5,20,M,,M,,*5F
05/28/2014	02:08:38.465	$GPGGA,020835,2543.8832,N,08009.7280,W,1,9,1.5,20,M,,M,,*5E
05/28/2014	02:08:39.523	$GPGGA,020836,2543.8834,N,08009.7280,W,1,9,1.5,20,M,,M,,*5B
05/28/2014	02:08:40.603	$GPGGA,020837,2543.8833,N,08009.7280,W,1,9,1.5,20,M,,M,,*5D
05/28/2014	02:08:41.649	$GPGGA,020838,2543.8834,N,08009.7280,W,1,9,1.5,20,M,,M,,*55
05/28/2014	02:08:38.633	$GPGGA,020839,2543.8833,N,08009.7279,W,1,9,1.5,20,M,,M,,*55
05/28/2014	02:08:39.711	$GPGGA,020840,2543.8832,N,08009.7280,W,1,9,1.5,20,M,,M,,*5C
05/28/2014	02:08:40.768	$GPGGA,020841,2543.8833,N,08009.7278,W,1,9,1.5,20,M,,M,,*5B
05/28/2014	02:08:41.814	$GPGGA,020842,2543.8832,N,08009.7279,W,1,9,1.5,20,M,,M,,*58
05/28/2014	02:08:42.894	$GPGGA,020843,2543.8833,N,08009.7277,W,1,9,1.5,19,M,,M,,*5C
05/28/2014	02:08:43.941	$GPGGA,020844,2543.8832,N,08009.7277,W,1,9,1.5,19,M,,M,,*5A
05/28/2014	02:08:45.041	$GPGGA,020845,2543.8833,N,08009.7277,W,1,9,1.5,19,M,,M,,*5A
05/28/2014	02:08:46.057	$GPGGA,020846,2543.8832,N,08009.7277,W,1,9,1.5,19,M,,M,,*58
05/28/2014	02:08:47.146	$GPGGA,020847,2543.8833,N,08009.7276,W,1,9,1.5,19,M,,M,,*59
05/28/2014	02:08:48.225	$GPGGA,020848,2543.8834,N,08009.7275,W,1,9,2.0,19,M,,M,,*54
05/28/2014	02:08:49.251	$GPGGA,020849,2543.8833,N,08009.7274,W,1,8,2.0,19,M,,M,,*52
05/28/2014	02:08:50.341	$GPGGA,020850,2543.8835,N,08009.7272,W,1,8,2.0,19,M,,M,,*5A
05/28/2014	02:08:51.516	$GPGGA,020851,2543.8835,N,08009.7271,W,1,8,2.0,19,M,,M,,*58
05/28/2014	02:08:52.478	$GPGGA,020852,2543.8837,N,08009.7270,W,1,8,2.0,19,M,,M,,*58
05/28/2014	02:08:53.514	$GPGGA,020853,2543.8836,N,08009.7269,W,1,8,2.0,18,M,,M,,*51
05/28/2014	02:08:54.615	$GPGGA,020854,2543.8838,N,08009.7268,W,1,8,2.0,18,M,,M,,*59
05/28/2014	02:08:55.662	$GPGGA,020855,2543.8837,N,08009.7267,W,1,8,2.0,18,M,,M,,*58
05/28/2014	02:08:56.859	$GPGGA,020856,2543.8839,N,08009.7267,W,1,8,2.0,18,M,,M,,*55
05/28/2014	02:08:57.895	$GPGGA,020857,2543.8839,N,08009.7266,W,1,8,2.0,18,M,,M,,*55
05/28/2014	02:08:58.868	$GPGGA,020858,2543.8839,N,08009.7266,W,1,8,2.0,18,M,,M,,*5A
05/28/2014	02:08:59.935	$GPGGA,020859,2543.8839,N,08009.7266,W,1,8,2.0,17,M,,M,,*54
05/28/2014	02:09:01.132	$GPGGA,020900,2543.8839,N,08009.7265,W,1,8,2.0,17,M,,M,,*5A
05/28/2014	02:09:02.083	$GPGGA,020901,2543.8839,N,08009.7265,W,1,8,2.0,17,M,,M,,*5B
05/28/2014	02:09:03.237	$GPGGA,020902,2543.8839,N,08009.7265,W,1,8,2.0,17,M,,M,,*58
05/28/2014	02:09:04.295	$GPGGA,020903,2543.8839,N,08009.7264,W,1,8,2.0,17,M,,M,,*58
05/28/2014	02:09:05.288	$GPGGA,020904,2543.8839,N,08009.7265,W,1,8,2.0,17,M,,M,,*5E
05/28/2014	02:09:06.421	$GPGGA,020905,2543.8839,N,08009.7263,W,1,8,2.0,17,M,,M,,*59
05/28/2014	02:09:07.489	$GPGGA,020906,2543.8839,N,08009.7263,W,1,8,2.0,16,M,,M,,*5B
05/28/2014	02:09:08.601	$GPGGA,020907,2543.8839,N,08009.7263,W,1,8,2.0,16,M,,M,,*5A
05/28/2014	02:09:09.637	$GPGGA,020908,2543.8839,N,08009.7263,W,1,8,2.0,16,M,,M,,*55
05/28/2014	02:09:10.695	$GPGGA,020909,2543.8839,N,08009.7262,W,1,8,2.0,16,M,,M,,*55
05/28/2014	02:09:11.753	$GPGGA,020910,2543.8839,N,08009.7262,W,1,8,2.0,16,M,,M,,*5D
05/28/2014	02:09:12.843	$GPGGA,020911,2543.8839,N,08009.7262,W,1,8,2.0,16,M,,M,,*5C
05/28/2014	02:09:13.900	$GPGGA,020912,2543.8839,N,08009.7261,W,1,8,2.0,16,M,,M,,*5C
05/28/2014	02:09:14.980	$GPGGA,020913,2543.8841,N,08009.7262,W,1,8,2.0,16,M,,M,,*51
05/28/2014	02:09:16.029	$GPGGA,020914,2543.8840,N,08009.7261,W,1,8,2.0,16,M,,M,,*54
05/28/2014	02:09:17.117	$GPGGA,020915,2543.8839,N,08009.7265,W,1,8,1.5,15,M,,M,,*5A
05/28/2014	02:09:18.181	$GPGGA,020916,2543.8839,N,08009.7264,W,1,8,1.5,15,M,,M,,*58
05/28/2014	02:09:19.242	$GPGGA,020917,2543.8836,N,08009.7269,W,1,8,2.0,15,M,,M,,*5D
05/28/2014	02:09:20.289	$GPGGA,020918,2543.8837,N,08009.7269,W,1,8,1.5,15,M,,M,,*55
05/28/2014	02:09:21.379	$GPGGA,020919,2543.8836,N,08009.7270,W,1,9,1.5,15,M,,M,,*5C
05/28/2014	02:09:22.426	$GPGGA,020920,2543.8835,N,08009.7272,W,1,9,1.5,15,M,,M,,*57
05/28/2014	02:09:23.484	$GPGGA,020921,2543.8835,N,08009.7272,W,1,9,1.5,15,M,,M,,*56
05/28/2014	02:09:24.552	$GPGGA,020922,2543.8835,N,08009.7273,W,1,9,1.5,16,M,,M,,*57
05/28/2014	02:09:25.643	$GPGGA,020923,2543.8833,N,08009.7273,W,1,9,1.5,16,M,,M,,*50
05/28/2014	02:09:26.700	$GPGGA,020924,2543.8834,N,08009.7274,W,1,9,1.5,16,M,,M,,*57
05/28/2014	02:09:27.747	$GPGGA,020925,2543.8833,N,08009.7274,W,1,9,1.5,16,M,,M,,*51
05/28/2014	02:09:28.805	$GPGGA,020926,2543.8834,N,08009.7276,W,1,9,1.5,16,M,,M,,*57
05/28/2014	02:09:29.895	$GPGGA,020927,2543.8833,N,08009.7275,W,1,9,1.5,16,M,,M,,*52
05/28/2014	02:09:30.953	$GPGGA,020928,2543.8834,N,08009.7276,W,1,9,1.5,16,M,,M,,*59
05/28/2014	02:09:32.057	$GPGGA,020929,2543.8832,N,08009.7276,W,1,9,1.5,16,M,,M,,*5E
05/28/2014	02:09:33.079	$GPGGA,020930,2543.8833,N,08009.7276,W,1,9,1.5,17,M,,M,,*56
05/28/2014	02:09:34.158	$GPGGA,020931,2543.8832,N,08009.7276,W,1,9,1.5,17,M,,M,,*56
05/28/2014	02:09:35.227	$GPGGA,020932,2543.8833,N,08009.7276,W,1,9,1.5,17,M,,M,,*54
05/28/2014	02:09:36.295	$GPGGA,020933,2543.8832,N,08009.7277,W,1,9,1.5,17,M,,M,,*55
05/28/2014	02:09:37.341	$GPGGA,020934,2543.8833,N,08009.7277,W,1,9,1.5,17,M,,M,,*53
05/28/2014	02:09:38.431	$GPGGA,020935,2543.8832,N,08009.7276,W,1,9,1.5,17,M,,M,,*52
05/28/2014	02:09:39.478	$GPGGA,020936,2543.8833,N,08009.7276,W,1,9,1.5,17,M,,M,,*50
05/28/2014	02:09:40.557	$GPGGA,020937,2543.8832,N,08009.7276,W,1,9,1.5,17,M,,M,,*50
05/28/2014	02:09:41.711	$GPGGA,020938,2543.8833,N,08009.7275,W,1,9,1.5,18,M,,M,,*52
05/28/2014	02:09:38.586	$GPGGA,020939,2543.8832,N,08009.7276,W,1,9,1.5,18,M,,M,,*51
05/28/2014	02:09:39.772	$GPGGA,020940,2543.8834,N,08009.7275,W,1,9,1.5,18,M,,M,,*5A
05/28/2014	02:09:40.809	$GPGGA,020941,2543.8833,N,08009.7276,W,1,9,1.5,18,M,,M,,*5F
05/28/2014	02:09:41.760	$GPGGA,020942,2543.8834,N,08009.7275,W,1,9,1.5,18,M,,M,,*58
05/28/2014	02:09:42.935	$GPGGA,020943,2543.8833,N,08009.7276,W,1,9,1.5,18,M,,M,,*5D
05/28/2014	02:09:43.918	$GPGGA,020944,2543.8832,N,08009.7275,W,1,9,1.5,18,M,,M,,*58
05/28/2014	02:09:44.976	$GPGGA,020945,2543.8834,N,08009.7276,W,1,9,1.5,18,M,,M,,*5C
05/28/2014	02:09:46.023	$GPGGA,020946,2543.8833,N,08009.7275,W,1,9,1.5,18,M,,M,,*5B
05/28/2014	02:09:47.231	$GPGGA,020947,2543.8834,N,08009.7276,W,1,9,1.5,18,M,,M,,*5E
05/28/2014	02:09:48.299	$GPGGA,020948,2543.8833,N,08009.7274,W,1,9,1.5,18,M,,M,,*54
05/28/2014	02:09:49.325	$GPGGA,020949,2543.8834,N,08009.7274,W,1,9,1.5,19,M,,M,,*53
05/28/2014	02:09:50.404	$GPGGA,020950,2543.8833,N,08009.7273,W,1,9,1.5,19,M,,M,,*5B
05/28/2014	02:09:51.463	$GPGGA,020951,2543.8834,N,08009.7274,W,1,9,1.5,19,M,,M,,*5A
05/28/2014	02:09:52.551	$GPGGA,020952,2543.8832,N,08009.7274,W,1,9,1.5,19,M,,M,,*5F
05/28/2014	02:09:53.608	$GPGGA,020953,2543.8833,N,08009.7274,W,1,9,1.5,19,M,,M,,*5F
05/28/2014	02:09:54.666	$GPGGA,020954,2543.8831,N,08009.7274,W,1,9,1.5,19,M,,M,,*5A
05/28/2014	02:09:55.756	$GPGGA,020955,2543.8831,N,08009.7276,W,1,9,1.5,19,M,,M,,*59
05/28/2014	02:09:56.814	$GPGGA,020956,2543.8831,N,08009.7275,W,1,9,1.5,19,M,,M,,*59
05/28/2014	02:09:57.861	$GPGGA,020957,2543.8831,N,08009.7276,W,1,9,1.5,19,M,,M,,*5B
05/28/2014	02:09:58.930	$GPGGA,020958,2543.8831,N,08009.7275,W,1,9,1.5,19,M,,M,,*57
05/28/2014	02:09:59.998	$GPGGA,020959,2543.8830,N,08009.7276,W,1,9,1.5,19,M,,M,,*54
05/28/2014	02:10:01.088	$GPGGA,021000,2543.8831,N,08009.7276,W,1,9,1.5,19,M,,M,,*51
05/28/2014	02:10:02.124	$GPGGA,021001,2543.8830,N,08009.7276,W,1,9,1.5,19,M,,M,,*51
05/28/2014	02:10:03.202	$GPGGA,021002,2543.8831,N,08009.7276,W,1,9,1.5,19,M,,M,,*53
05/28/2014	02:10:04.198	$GPGGA,021003,2543.8830,N,08009.7276,W,1,9,1.5,19,M,,M,,*53
05/28/2014	02:10:05.246	$GPGGA,021004,2543.8831,N,08009.7276,W,1,9,1.5,19,M,,M,,*55
05/28/2014	02:10:06.250	$GPGGA,021005,2543.8830,N,08009.7277,W,1,9,1.5,19,M,,M,,*54
05/28/2014	02:10:07.276	$GPGGA,021006,2543.8831,N,08009.7277,W,1,9,1.5,20,M,,M,,*5C
05/28/2014	02:10:08.333	$GPGGA,021007,2543.8830,N,08009.7277,W,1,9,1.5,20,M,,M,,*5C
05/28/2014	02:10:09.340	$GPGGA,021008,2543.8831,N,08009.7277,W,1,9,1.5,20,M,,M,,*52
05/28/2014	02:10:10.354	$GPGGA,021009,2543.8830,N,08009.7279,W,1,9,1.5,20,M,,M,,*5C
05/28/2014	02:10:11.380	$GPGGA,021010,2543.8831,N,08009.7278,W,1,9,1.5,20,M,,M,,*54
05/28/2014	02:10:12.427	$GPGGA,021011,2543.8830,N,08009.7279,W,1,9,1.5,20,M,,M,,*55
05/28/2014	02:10:13.443	$GPGGA,021012,2543.8831,N,08009.7280,W,1,9,1.5,20,M,,M,,*51
05/28/2014	02:10:14.469	$GPGGA,021013,2543.8830,N,08009.7279,W,1,9,1.5,20,M,,M,,*57
05/28/2014	02:10:15.486	$GPGGA,021014,2543.8831,N,08009.7280,W,1,9,1.5,20,M,,M,,*57
05/28/2014	02:10:16.501	$GPGGA,021015,2543.8830,N,08009.7279,W,1,9,1.5,20,M,,M,,*51
05/28/2014	02:10:17.527	$GPGGA,021016,2543.8831,N,08009.7280,W,1,9,1.5,20,M,,M,,*55
05/28/2014	02:10:18.574	$GPGGA,021017,2543.8830,N,08009.7280,W,1,9,1.5,20,M,,M,,*55
05/28/2014	02:10:19.580	$GPGGA,021018,2543.8831,N,08009.7280,W,1,9,1.5,20,M,,M,,*5B
05/28/2014	02:10:20.637	$GPGGA,021019,2543.8830,N,08009.7280,W,1,9,1.5,20,M,,M,,*5B
05/28/2014	02:10:21.642	$GPGGA,021020,2543.8831,N,08009.7280,W,1,9,1.5,20,M,,M,,*50
05/28/2014	02:10:22.638	$GPGGA,021021,2543.8830,N,08009.7280,W,1,9,1.5,20,M,,M,,*50
05/28/2014	02:10:23.674	$GPGGA,021022,2543.8831,N,08009.7280,W,1,9,1.5,20,M,,M,,*52
05/28/2014	02:10:24.813	$GPGGA,021023,2543.8830,N,08009.7280,W,1,9,1.5,20,M,,M,,*52
05/28/2014	02:10:25.850	$GPGGA,021024,2543.8831,N,08009.7280,W,1,9,1.5,20,M,,M,,*54
05/28/2014	02:10:26.866	$GPGGA,021025,2543.8831,N,08009.7280,W,1,9,1.5,20,M,,M,,*55
05/28/2014	02:10:27.769	$GPGGA,021026,2543.8831,N,08009.7279,W,1,9,1.5,20,M,,M,,*50
05/28/2014	02:10:28.917	$GPGGA,021027,2543.8831,N,08009.7280,W,1,9,1.5,20,M,,M,,*57
05/28/2014	02:10:29.830	$GPGGA,021028,2543.8831,N,08009.7280,W,1,9,1.5,20,M,,M,,*58
05/28/2014	02:10:32.416	$GPGGA,021030,2543.8831,N,08009.7280,W,1,9,1.5,20,M,,M,,*51
05/28/2014	02:10:32.878	$GPGGA,021031,2543.8831,N,08009.7280,W,1,9,1.5,20,M,,M,,*50
05/28/2014	02:10:34.017	$GPGGA,021032,2543.8830,N,08009.7280,W,1,9,1.5,20,M,,M,,*52
05/28/2014	02:10:35.033	$GPGGA,021033,2543.8831,N,08009.7280,W,1,9,1.5,20,M,,M,,*52
05/28/2014	02:10:35.957	$GPGGA,021034,2543.8830,N,08009.7279,W,1,9,1.5,20,M,,M,,*52
05/28/2014	02:10:37.137	$GPGGA,021035,2543.8831,N,08009.7280,W,1,9,1.5,20,M,,M,,*54
05/28/2014	02:10:38.112	$GPGGA,021036,2543.8830,N,08009.7279,W,1,9,1.5,20,M,,M,,*50
05/28/2014	02:10:39.138	$GPGGA,021037,2543.8831,N,08009.7280,W,1,9,1.5,20,M,,M,,*56
05/28/2014	02:10:40.154	$GPGGA,021038,2543.8830,N,08009.7279,W,1,9,1.5,20,M,,M,,*5E
05/28/2014	02:10:38.631	$GPGGA,021039,2543.8831,N,08009.7280,W,1,9,1.5,21,M,,M,,*59
05/28/2014	02:10:39.636	$GPGGA,021040,2543.8830,N,08009.7279,W,1,9,1.5,21,M,,M,,*50
05/28/2014	02:10:40.652	$GPGGA,021041,2543.8831,N,08009.7280,W,1,9,1.5,21,M,,M,,*56
05/28/2014	02:10:41.678	$GPGGA,021042,2543.8829,N,08009.7280,W,1,9,1.5,21,M,,M,,*5C
05/28/2014	02:10:42.725	$GPGGA,021043,2543.8830,N,08009.7280,W,1,9,1.5,21,M,,M,,*55
05/28/2014	02:10:43.740	$GPGGA,021044,2543.8829,N,08009.7281,W,1,9,1.5,21,M,,M,,*5B
05/28/2014	02:10:44.756	$GPGGA,021045,2543.8830,N,08009.7281,W,1,9,1.5,21,M,,M,,*52
05/28/2014	02:10:45.772	$GPGGA,021046,2543.8828,N,08009.7283,W,1,9,1.5,21,M,,M,,*5A
05/28/2014	02:10:46.808	$GPGGA,021047,2543.8828,N,08009.7282,W,1,9,1.5,21,M,,M,,*5A
05/28/2014	02:10:47.845	$GPGGA,021048,2543.8828,N,08009.7283,W,1,9,1.5,21,M,,M,,*54
05/28/2014	02:10:48.871	$GPGGA,021049,2543.8828,N,08009.7283,W,1,9,1.5,21,M,,M,,*55
05/28/2014	02:10:49.878	$GPGGA,021050,2543.8828,N,08009.7283,W,1,9,1.5,21,M,,M,,*5D
05/28/2014	02:10:50.923	$GPGGA,021051,2543.8828,N,08009.7283,W,1,9,1.5,21,M,,M,,*5C
05/28/2014	02:10:51.919	$GPGGA,021052,2543.8828,N,08009.7283,W,1,9,1.5,21,M,,M,,*5F
05/28/2014	02:10:52.976	$GPGGA,021053,2543.8828,N,08009.7283,W,1,9,1.5,21,M,,M,,*5E
05/28/2014	02:10:53.971	$GPGGA,021054,2543.8828,N,08009.7283,W,1,9,1.5,21,M,,M,,*59
05/28/2014	02:10:55.009	$GPGGA,021055,2543.8828,N,08009.7283,W,1,9,1.5,21,M,,M,,*58
05/28/2014	02:10:56.024	$GPGGA,021056,2543.8828,N,08009.7283,W,1,9,1.5,21,M,,M,,*5B
05/28/2014	02:10:57.070	$GPGGA,021057,2543.8830,N,08009.7283,W,1,9,1.5,21,M,,M,,*53
05/28/2014	02:10:58.066	$GPGGA,021058,2543.8829,N,08009.7283,W,1,9,1.5,21,M,,M,,*54
05/28/2014	02:10:59.123	$GPGGA,021059,2543.8831,N,08009.7282,W,1,9,1.5,21,M,,M,,*5D
05/28/2014	02:11:00.129	$GPGGA,021100,2543.8830,N,08009.7281,W,1,9,1.5,21,M,,M,,*52
05/28/2014	02:11:01.155	$GPGGA,021101,2543.8831,N,08009.7281,W,1,9,1.5,21,M,,M,,*52
05/28/2014	02:11:02.149	$GPGGA,021102,2543.8830,N,08009.7281,W,1,9,1.5,21,M,,M,,*50
05/28/2014	02:11:03.185	$GPGGA,021103,2543.8831,N,08009.7281,W,1,9,1.5,21,M,,M,,*50
05/28/2014	02:11:04.242	$GPGGA,021104,2543.8831,N,08009.7280,W,1,9,1.5,21,M,,M,,*56
05/28/2014	02:11:05.248	$GPGGA,021105,2543.8831,N,08009.7280,W,1,9,1.5,21,M,,M,,*57
05/28/2014	02:11:06.254	$GPGGA,021106,2543.8831,N,08009.7280,W,1,9,1.5,21,M,,M,,*54
05/28/2014	02:11:07.280	$GPGGA,021107,2543.8831,N,08009.7280,W,1,9,1.5,21,M,,M,,*55
05/28/2014	02:11:08.316	$GPGGA,021108,2543.8831,N,08009.7279,W,1,9,1.5,21,M,,M,,*5C
05/28/2014	02:11:09.322	$GPGGA,021109,2543.8833,N,08009.7280,W,1,9,1.5,21,M,,M,,*59
05/28/2014	02:11:10.359	$GPGGA,021110,2543.8831,N,08009.7279,W,1,9,1.5,21,M,,M,,*55
05/28/2014	02:11:11.529	$GPGGA,021111,2543.8831,N,08009.7278,W,1,9,1.5,21,M,,M,,*55
05/28/2014	02:11:12.421	$GPGGA,021112,2543.8831,N,08009.7279,W,1,9,1.5,21,M,,M,,*57
05/28/2014	02:11:13.437	$GPGGA,021113,2543.8833,N,08009.7278,W,1,9,1.5,21,M,,M,,*55
05/28/2014	02:11:14.617	$GPGGA,021114,2543.8832,N,08009.7279,W,1,9,1.5,21,M,,M,,*52
05/28/2014	02:11:15.643	$GPGGA,021115,2543.8833,N,08009.7278,W,1,9,1.5,21,M,,M,,*53
05/28/2014	02:11:16.516	$GPGGA,021116,2543.8832,N,08009.7279,W,1,9,1.5,21,M,,M,,*50
05/28/2014	02:11:17.511	$GPGGA,021117,2543.8833,N,08009.7278,W,1,9,1.5,21,M,,M,,*51
05/28/2014	02:11:18.640	$GPGGA,021118,2543.8832,N,08009.7279,W,1,9,1.5,21,M,,M,,*5E
05/28/2014	02:11:19.573	$GPGGA,021119,2543.8833,N,08009.7278,W,1,9,1.5,21,M,,M,,*5F
05/28/2014	02:11:20.702	$GPGGA,021120,2543.8832,N,08009.7279,W,1,9,1.5,21,M,,M,,*55
05/28/2014	02:11:21.748	$GPGGA,021121,2543.8831,N,08009.7278,W,1,9,1.5,21,M,,M,,*56
05/28/2014	02:11:22.733	$GPGGA,021122,2543.8831,N,08009.7279,W,1,9,1.5,21,M,,M,,*54
05/28/2014	02:11:23.811	$GPGGA,021123,2543.8831,N,08009.7278,W,1,9,1.5,20,M,,M,,*55
05/28/2014	02:11:24.888	$GPGGA,021124,2543.8831,N,08009.7279,W,1,9,1.5,20,M,,M,,*53
05/28/2014	02:11:25.853	$GPGGA,021125,2543.8833,N,08009.7278,W,1,9,1.5,20,M,,M,,*51
05/28/2014	02:11:26.828	$GPGGA,021126,2543.8832,N,08009.7279,W,1,9,1.5,20,M,,M,,*52
05/28/2014	02:11:27.854	$GPGGA,021127,2543.8833,N,08009.7278,W,1,9,1.5,20,M,,M,,*53
05/28/2014	02:11:28.891	$GPGGA,021128,2543.8834,N,08009.7279,W,1,9,1.5,20,M,,M,,*5A
05/28/2014	02:11:29.948	$GPGGA,021129,2543.8832,N,08009.7280,W,1,9,1.5,20,M,,M,,*5B
05/28/2014	02:11:30.994	$GPGGA,021130,2543.8834,N,08009.7279,W,1,9,1.5,20,M,,M,,*53
05/28/2014	02:11:32.000	$GPGGA,021131,2543.8833,N,08009.7280,W,1,9,1.5,20,M,,M,,*53
05/28/2014	02:11:32.985	$GPGGA,021132,2543.8832,N,08009.7280,W,1,9,1.5,20,M,,M,,*51
05/28/2014	02:11:34.042	$GPGGA,021133,2543.8833,N,08009.7280,W,1,9,1.5,20,M,,M,,*51
05/28/2014	02:11:35.140	$GPGGA,021134,2543.8834,N,08009.7281,W,1,9,1.5,20,M,,M,,*50
05/28/2014	02:11:36.084	$GPGGA,021135,2543.8833,N,08009.7281,W,1,9,1.5,20,M,,M,,*56
05/28/2014	02:11:37.081	$GPGGA,021136,2543.8834,N,08009.7281,W,1,9,1.5,20,M,,M,,*52
05/28/2014	02:11:38.136	$GPGGA,021137,2543.8833,N,08009.7281,W,1,9,1.5,20,M,,M,,*54
05/28/2014	02:11:39.111	$GPGGA,021138,2543.8834,N,08009.7281,W,1,9,1.5,20,M,,M,,*5C
05/28/2014	02:11:38.566	$GPGGA,021139,2543.8833,N,08009.7281,W,1,9,1.5,20,M,,M,,*5A
05/28/2014	02:11:39.664	$GPGGA,021140,2543.8835,N,08009.7281,W,1,9,1.5,20,M,,M,,*52
05/28/2014	02:11:40.628	$GPGGA,021141,2543.8835,N,08009.7281,W,1,9,1.5,20,M,,M,,*53
05/28/2014	02:11:41.706	$GPGGA,021142,2543.8835,N,08009.7281,W,1,9,1.5,20,M,,M,,*50
05/28/2014	02:11:42.722	$GPGGA,021143,2543.8835,N,08009.7281,W,1,9,1.5,20,M,,M,,*51
05/28/2014	02:11:43.707	$GPGGA,021144,2543.8835,N,08009.7281,W,1,9,1.5,20,M,,M,,*56
05/28/2014	02:11:44.806	$GPGGA,021145,2543.8835,N,08009.7283,W,1,9,1.5,20,M,,M,,*55
05/28/2014	02:11:45.739	$GPGGA,021146,2543.8835,N,08009.7282,W,1,9,1.5,20,M,,M,,*57
05/28/2014	02:11:46.765	$GPGGA,021147,2543.8835,N,08009.7280,W,1,9,1.5,20,M,,M,,*54
05/28/2014	02:11:47.791	$GPGGA,021148,2543.8835,N,08009.7281,W,1,9,2.1,20,M,,M,,*5D
05/28/2014	02:11:48.818	$GPGGA,021149,2543.8835,N,08009.7283,W,1,9,1.5,20,M,,M,,*59
05/28/2014	02:11:49.833	$GPGGA,021150,2543.8835,N,08009.7283,W,1,9,1.5,20,M,,M,,*51
