Software Version Number: 1	Data File Format Number: 1	Build Version Number: 1	Error Count Since VI Started: 0	Manufacturer: Raytheon	 Model Number: RayMarine 120	 S/N: 	 Cal Date: 	 Wind Direction Offset: 0.00	 Slope (M)1: 0.00	 Offset (B)1: 0.00	 Slope (M)2: 0.00	 Offset (B)2: 0.00	 Slope (M)3: 0.00	 Offset (B)3: 0.00	 Slope (M)4: 0.00	 Offset (B)4: 0.00	 Slope (M)5: 0.00	 Offset (B)5: 0.00	 Slope (M)6: 0.00	 Offset (B)6: 0.00
Computer Date	Computer Time	GGA String
06/05/2014	11:00:00.780	$GPGGA,110001,2431.0015,N,08117.1788,W,1,8,2.3,17,M,,M,,*57
06/05/2014	11:00:01.800	$GPGGA,110002,2431.0009,N,08117.1813,W,1,8,2.3,17,M,,M,,*54
06/05/2014	11:00:02.800	$GPGGA,110003,2431.0002,N,08117.1836,W,1,8,2.3,17,M,,M,,*59
06/05/2014	11:00:03.811	$GPGGA,110004,2430.9996,N,08117.1864,W,1,8,2.3,17,M,,M,,*55
06/05/2014	11:00:04.801	$GPGGA,110005,2430.9989,N,08117.1890,W,1,7,2.9,17,M,,M,,*54
06/05/2014	11:00:05.983	$GPGGA,110006,2430.9982,N,08117.1918,W,1,7,2.9,17,M,,M,,*5D
06/05/2014	11:00:06.822	$GPGGA,110007,2430.9975,N,08117.1945,W,1,8,2.3,17,M,,M,,*59
06/05/2014	11:00:07.863	$GPGGA,110008,2430.9967,N,08117.1973,W,1,8,2.3,17,M,,M,,*50
06/05/2014	11:00:08.863	$GPGGA,110009,2430.9960,N,08117.1998,W,1,8,2.3,17,M,,M,,*53
06/05/2014	11:00:09.853	$GPGGA,110010,2430.9953,N,08117.2024,W,1,8,2.3,17,M,,M,,*56
06/05/2014	11:00:10.853	$GPGGA,110011,2430.9946,N,08117.2049,W,1,8,2.3,17,M,,M,,*58
06/05/2014	11:00:11.975	$GPGGA,110012,2430.9940,N,08117.2074,W,1,8,2.3,17,M,,M,,*53
06/05/2014	11:00:13.067	$GPGGA,110013,2430.9932,N,08117.2097,W,1,8,2.3,17,M,,M,,*5A
06/05/2014	11:00:13.904	$GPGGA,110014,2430.9926,N,08117.2121,W,1,8,2.3,17,M,,M,,*54
06/05/2014	11:00:14.884	$GPGGA,110015,2430.9921,N,08117.2146,W,1,8,2.3,17,M,,M,,*53
06/05/2014	11:00:16.086	$GPGGA,110016,2430.9914,N,08117.2171,W,1,8,2.3,17,M,,M,,*52
06/05/2014	11:00:16.925	$GPGGA,110017,2430.9908,N,08117.2196,W,1,8,2.3,17,M,,M,,*57
06/05/2014	11:00:18.097	$GPGGA,110018,2430.9902,N,08117.2219,W,1,8,2.3,17,M,,M,,*56
06/05/2014	11:00:18.935	$GPGGA,110019,2430.9896,N,08117.2247,W,1,8,2.3,17,M,,M,,*50
06/05/2014	11:00:20.042	$GPGGA,110020,2430.9889,N,08117.2274,W,1,8,2.9,17,M,,M,,*5E
06/05/2014	11:00:21.037	$GPGGA,110021,2430.9882,N,08117.2301,W,1,7,2.9,17,M,,M,,*58
06/05/2014	11:00:22.049	$GPGGA,110022,2430.9876,N,08117.2327,W,1,7,2.9,17,M,,M,,*54
06/05/2014	11:00:23.088	$GPGGA,110023,2430.9870,N,08117.2352,W,1,8,2.9,17,M,,M,,*5E
06/05/2014	11:00:24.149	$GPGGA,110024,2430.9863,N,08117.2378,W,1,8,2.9,17,M,,M,,*53
06/05/2014	11:00:25.109	$GPGGA,110025,2430.9857,N,08117.2404,W,1,7,2.9,17,M,,M,,*56
06/05/2014	11:00:26.160	$GPGGA,110026,2430.9850,N,08117.2431,W,1,7,2.9,17,M,,M,,*54
06/05/2014	11:00:27.140	$GPGGA,110027,2430.9845,N,08117.2453,W,1,7,2.9,17,M,,M,,*55
06/05/2014	11:00:28.191	$GPGGA,110028,2430.9837,N,08117.2478,W,1,7,2.3,17,M,,M,,*5C
06/05/2014	11:00:29.110	$GPGGA,110029,2430.9832,N,08117.2500,W,1,8,2.3,17,M,,M,,*59
06/05/2014	11:00:30.111	$GPGGA,110030,2430.9827,N,08117.2523,W,1,8,2.4,17,M,,M,,*53
06/05/2014	11:00:31.171	$GPGGA,110031,2430.9821,N,08117.2548,W,1,7,2.4,17,M,,M,,*56
06/05/2014	11:00:32.221	$GPGGA,110032,2430.9816,N,08117.2573,W,1,7,2.3,17,M,,M,,*5E
06/05/2014	11:00:32.558	$GPGGA,110033,2430.9809,N,08117.2601,W,1,8,2.3,17,M,,M,,*58
06/05/2014	11:00:33.579	$GPGGA,110034,2430.9802,N,08117.2627,W,1,8,2.3,17,M,,M,,*50
06/05/2014	11:00:34.539	$GPGGA,110035,2430.9796,N,08117.2655,W,1,8,2.3,17,M,,M,,*56
06/05/2014	11:00:35.630	$GPGGA,110036,2430.9789,N,08117.2682,W,1,8,2.9,17,M,,M,,*5B
06/05/2014	11:00:36.650	$GPGGA,110037,2430.9783,N,08117.2709,W,1,7,2.9,17,M,,M,,*5D
06/05/2014	11:00:37.630	$GPGGA,110038,2430.9777,N,08117.2731,W,1,7,2.9,17,M,,M,,*52
06/05/2014	11:00:38.560	$GPGGA,110039,2430.9772,N,08117.2754,W,1,8,2.3,17,M,,M,,*50
06/05/2014	11:00:39.661	$GPGGA,110040,2430.9767,N,08117.2779,W,1,8,2.3,17,M,,M,,*55
06/05/2014	11:00:40.641	$GPGGA,110041,2430.9762,N,08117.2803,W,1,8,2.3,17,M,,M,,*53
06/05/2014	11:00:41.662	$GPGGA,110042,2430.9755,N,08117.2827,W,1,8,2.3,17,M,,M,,*52
06/05/2014	11:00:42.662	$GPGGA,110043,2430.9749,N,08117.2854,W,1,8,2.3,17,M,,M,,*5A
06/05/2014	11:00:43.673	$GPGGA,110044,2430.9743,N,08117.2881,W,1,8,2.9,17,M,,M,,*55
06/05/2014	11:00:44.622	$GPGGA,110045,2430.9736,N,08117.2909,W,1,7,2.9,17,M,,M,,*58
06/05/2014	11:00:45.693	$GPGGA,110046,2430.9730,N,08117.2934,W,1,7,2.3,17,M,,M,,*59
06/05/2014	11:00:46.714	$GPGGA,110047,2430.9724,N,08117.2962,W,1,8,2.9,17,M,,M,,*5B
06/05/2014	11:00:47.734	$GPGGA,110048,2430.9718,N,08117.2988,W,1,8,2.9,17,M,,M,,*5F
06/05/2014	11:00:48.653	$GPGGA,110049,2430.9712,N,08117.3013,W,1,7,2.9,17,M,,M,,*51
06/05/2014	11:00:49.724	$GPGGA,110050,2430.9706,N,08117.3031,W,1,7,2.3,17,M,,M,,*56
06/05/2014	11:00:50.714	$GPGGA,110051,2430.9701,N,08117.3053,W,1,8,2.3,18,M,,M,,*54
06/05/2014	11:00:51.815	$GPGGA,110052,2430.9695,N,08117.3076,W,1,8,2.3,18,M,,M,,*5C
06/05/2014	11:00:52.755	$GPGGA,110053,2430.9689,N,08117.3100,W,1,8,2.3,18,M,,M,,*50
06/05/2014	11:00:53.765	$GPGGA,110054,2430.9682,N,08117.3129,W,1,8,2.9,18,M,,M,,*5D
06/05/2014	11:00:54.746	$GPGGA,110055,2430.9675,N,08117.3157,W,1,7,2.3,18,M,,M,,*58
06/05/2014	11:00:55.786	$GPGGA,110056,2430.9668,N,08117.3184,W,1,7,2.3,18,M,,M,,*59
06/05/2014	11:00:56.847	$GPGGA,110057,2430.9660,N,08117.3210,W,1,8,2.3,18,M,,M,,*51
06/05/2014	11:00:57.797	$GPGGA,110058,2430.9652,N,08117.3237,W,1,8,2.3,18,M,,M,,*5A
06/05/2014	11:00:58.726	$GPGGA,110059,2430.9646,N,08117.3262,W,1,8,2.3,18,M,,M,,*5E
06/05/2014	11:00:59.888	$GPGGA,110100,2430.9637,N,08117.3289,W,1,8,2.9,18,M,,M,,*5A
06/05/2014	11:01:00.798	$GPGGA,110101,2430.9630,N,08117.3316,W,1,7,2.9,18,M,,M,,*54
06/05/2014	11:01:01.869	$GPGGA,110102,2430.9624,N,08117.3340,W,1,7,2.3,18,M,,M,,*5B
06/05/2014	11:01:02.830	$GPGGA,110103,2430.9617,N,08117.3367,W,1,8,2.9,18,M,,M,,*5A
06/05/2014	11:01:03.910	$GPGGA,110104,2430.9610,N,08117.3392,W,1,8,2.9,18,M,,M,,*50
06/05/2014	11:01:04.820	$GPGGA,110105,2430.9603,N,08117.3418,W,1,7,2.9,18,M,,M,,*59
06/05/2014	11:01:05.900	$GPGGA,110106,2430.9595,N,08117.3441,W,1,7,2.3,18,M,,M,,*50
06/05/2014	11:01:06.910	$GPGGA,110107,2430.9589,N,08117.3465,W,1,8,2.3,18,M,,M,,*55
06/05/2014	11:01:07.950	$GPGGA,110108,2430.9583,N,08117.3488,W,1,8,2.3,18,M,,M,,*53
06/05/2014	11:01:08.920	$GPGGA,110109,2430.9576,N,08117.3512,W,1,8,2.3,18,M,,M,,*5A
06/05/2014	11:01:09.932	$GPGGA,110110,2430.9570,N,08117.3538,W,1,8,2.3,18,M,,M,,*5C
06/05/2014	11:01:10.972	$GPGGA,110111,2430.9563,N,08117.3563,W,1,8,2.3,18,M,,M,,*51
06/05/2014	11:01:11.962	$GPGGA,110112,2430.9556,N,08117.3591,W,1,8,2.9,18,M,,M,,*53
06/05/2014	11:01:12.972	$GPGGA,110113,2430.9547,N,08117.3617,W,1,7,2.9,18,M,,M,,*50
06/05/2014	11:01:13.983	$GPGGA,110114,2430.9540,N,08117.3645,W,1,7,2.9,18,M,,M,,*57
06/05/2014	11:01:14.983	$GPGGA,110115,2430.9534,N,08117.3671,W,1,7,2.3,18,M,,M,,*58
06/05/2014	11:01:16.013	$GPGGA,110116,2430.9527,N,08117.3696,W,1,7,2.3,18,M,,M,,*50
06/05/2014	11:01:17.004	$GPGGA,110117,2430.9520,N,08117.3721,W,1,8,2.3,18,M,,M,,*54
06/05/2014	11:01:18.004	$GPGGA,110118,2430.9512,N,08117.3746,W,1,8,2.3,17,M,,M,,*54
06/05/2014	11:01:19.024	$GPGGA,110119,2430.9505,N,08117.3772,W,1,8,2.3,17,M,,M,,*54
06/05/2014	11:01:20.037	$GPGGA,110120,2430.9498,N,08117.3797,W,1,8,2.3,17,M,,M,,*50
06/05/2014	11:01:21.059	$GPGGA,110121,2430.9491,N,08117.3822,W,1,8,2.3,17,M,,M,,*59
06/05/2014	11:01:22.025	$GPGGA,110122,2430.9483,N,08117.3849,W,1,8,2.9,17,M,,M,,*5E
06/05/2014	11:01:23.057	$GPGGA,110123,2430.9476,N,08117.3876,W,1,7,2.9,17,M,,M,,*56
06/05/2014	11:01:24.055	$GPGGA,110124,2430.9469,N,08117.3902,W,1,7,2.3,17,M,,M,,*57
06/05/2014	11:01:25.077	$GPGGA,110125,2430.9462,N,08117.3928,W,1,8,2.9,17,M,,M,,*50
06/05/2014	11:01:26.076	$GPGGA,110126,2430.9454,N,08117.3954,W,1,8,2.3,17,M,,M,,*57
06/05/2014	11:01:27.077	$GPGGA,110127,2430.9447,N,08117.3981,W,1,8,2.3,17,M,,M,,*5C
06/05/2014	11:01:28.098	$GPGGA,110128,2430.9440,N,08117.4006,W,1,8,2.3,17,M,,M,,*55
06/05/2014	11:01:29.097	$GPGGA,110129,2430.9433,N,08117.4030,W,1,8,2.3,17,M,,M,,*55
06/05/2014	11:01:30.118	$GPGGA,110130,2430.9427,N,08117.4055,W,1,8,2.3,17,M,,M,,*5B
06/05/2014	11:01:31.168	$GPGGA,110131,2430.9422,N,08117.4079,W,1,8,2.3,17,M,,M,,*51
06/05/2014	11:01:32.169	$GPGGA,110132,2430.9422,N,08117.4079,W,1,8,2.3,17,M,,M,,*52
06/05/2014	11:01:32.495	$GPGGA,110133,2430.9409,N,08117.4127,W,1,8,2.3,17,M,,M,,*50
06/05/2014	11:01:33.506	$GPGGA,110134,2430.9404,N,08117.4152,W,1,8,2.3,17,M,,M,,*58
06/05/2014	11:01:34.547	$GPGGA,110135,2430.9397,N,08117.4181,W,1,7,2.3,17,M,,M,,*55
06/05/2014	11:01:35.537	$GPGGA,110136,2430.9390,N,08117.4209,W,1,7,2.3,17,M,,M,,*52
06/05/2014	11:01:36.537	$GPGGA,110137,2430.9384,N,08117.4234,W,1,8,2.3,17,M,,M,,*57
06/05/2014	11:01:37.568	$GPGGA,110138,2430.9377,N,08117.4259,W,1,8,2.3,17,M,,M,,*5F
06/05/2014	11:01:38.548	$GPGGA,110139,2430.9377,N,08117.4259,W,1,8,2.3,17,M,,M,,*5E
06/05/2014	11:01:39.609	$GPGGA,110140,2430.9365,N,08117.4308,W,1,8,2.3,17,M,,M,,*56
06/05/2014	11:01:40.569	$GPGGA,110141,2430.9359,N,08117.4332,W,1,8,2.3,17,M,,M,,*51
06/05/2014	11:01:41.576	$GPGGA,110142,2430.9359,N,08117.4332,W,1,8,2.3,17,M,,M,,*52
06/05/2014	11:01:42.581	$GPGGA,110143,2430.9348,N,08117.4383,W,1,8,2.3,17,M,,M,,*59
06/05/2014	11:01:43.607	$GPGGA,110144,2430.9342,N,08117.4408,W,1,8,2.3,17,M,,M,,*50
06/05/2014	11:01:44.572	$GPGGA,110145,2430.9337,N,08117.4434,W,1,8,2.3,17,M,,M,,*5C
06/05/2014	11:01:46.965	$GPGGA,110146,2430.9337,N,08117.4434,W,1,8,2.3,17,M,,M,,*5F
06/05/2014	11:01:46.985	$GPGGA,110147,2430.9324,N,08117.4485,W,1,8,2.3,17,M,,M,,*56
06/05/2014	11:01:47.729	$GPGGA,110148,2430.9318,N,08117.4512,W,1,8,2.3,17,M,,M,,*59
06/05/2014	11:01:48.594	$GPGGA,110149,2430.9312,N,08117.4537,W,1,8,2.3,17,M,,M,,*55
06/05/2014	11:01:49.609	$GPGGA,110150,2430.9305,N,08117.4560,W,1,8,2.3,18,M,,M,,*56
06/05/2014	11:01:50.735	$GPGGA,110151,2430.9299,N,08117.4585,W,1,8,2.3,18,M,,M,,*58
06/05/2014	11:01:51.711	$GPGGA,110152,2430.9293,N,08117.4611,W,1,8,2.3,18,M,,M,,*5F
06/05/2014	11:01:52.736	$GPGGA,110153,2430.9287,N,08117.4636,W,1,8,2.3,18,M,,M,,*5E
06/05/2014	11:01:53.711	$GPGGA,110154,2430.9281,N,08117.4661,W,1,8,2.3,18,M,,M,,*5D
06/05/2014	11:01:54.737	$GPGGA,110155,2430.9275,N,08117.4687,W,1,8,2.3,18,M,,M,,*5F
06/05/2014	11:01:55.732	$GPGGA,110156,2430.9269,N,08117.4712,W,1,8,2.3,18,M,,M,,*5C
06/05/2014	11:01:56.758	$GPGGA,110157,2430.9263,N,08117.4738,W,1,8,2.3,18,M,,M,,*5F
06/05/2014	11:01:57.723	$GPGGA,110158,2430.9256,N,08117.4763,W,1,8,2.3,18,M,,M,,*58
06/05/2014	11:01:58.737	$GPGGA,110159,2430.9249,N,08117.4787,W,1,8,2.3,18,M,,M,,*5D
06/05/2014	11:01:59.773	$GPGGA,110200,2430.9243,N,08117.4813,W,1,8,2.3,18,M,,M,,*5A
06/05/2014	11:02:00.748	$GPGGA,110201,2430.9236,N,08117.4838,W,1,8,2.3,18,M,,M,,*50
06/05/2014	11:02:01.743	$GPGGA,110202,2430.9229,N,08117.4866,W,1,8,2.3,18,M,,M,,*56
06/05/2014	11:02:02.759	$GPGGA,110203,2430.9223,N,08117.4892,W,1,7,2.9,18,M,,M,,*53
06/05/2014	11:02:03.764	$GPGGA,110204,2430.9218,N,08117.4913,W,1,7,2.9,18,M,,M,,*54
06/05/2014	11:02:04.760	$GPGGA,110205,2430.9212,N,08117.4935,W,1,8,2.3,18,M,,M,,*5E
06/05/2014	11:02:05.745	$GPGGA,110206,2430.9206,N,08117.4958,W,1,8,2.3,18,M,,M,,*53
06/05/2014	11:02:06.761	$GPGGA,110207,2430.9199,N,08117.4982,W,1,8,2.3,18,M,,M,,*50
06/05/2014	11:02:07.766	$GPGGA,110208,2430.9192,N,08117.5009,W,1,8,2.3,18,M,,M,,*5F
06/05/2014	11:02:08.781	$GPGGA,110209,2430.9185,N,08117.5037,W,1,7,2.9,18,M,,M,,*50
06/05/2014	11:02:09.767	$GPGGA,110210,2430.9177,N,08117.5063,W,1,7,2.9,18,M,,M,,*54
06/05/2014	11:02:10.782	$GPGGA,110211,2430.9170,N,08117.5087,W,1,8,2.3,18,M,,M,,*5D
06/05/2014	11:02:11.777	$GPGGA,110212,2430.9163,N,08117.5115,W,1,8,2.3,18,M,,M,,*56
06/05/2014	11:02:12.793	$GPGGA,110213,2430.9155,N,08117.5141,W,1,7,2.9,18,M,,M,,*56
06/05/2014	11:02:13.768	$GPGGA,110214,2430.9148,N,08117.5166,W,1,7,2.9,18,M,,M,,*58
06/05/2014	11:02:14.804	$GPGGA,110215,2430.9141,N,08117.5191,W,1,7,2.9,18,M,,M,,*58
06/05/2014	11:02:15.799	$GPGGA,110216,2430.9134,N,08117.5217,W,1,7,2.9,18,M,,M,,*54
06/05/2014	11:02:16.833	$GPGGA,110217,2430.9127,N,08117.5242,W,1,7,2.9,18,M,,M,,*57
06/05/2014	11:02:17.789	$GPGGA,110218,2430.9120,N,08117.5269,W,1,7,2.9,18,M,,M,,*56
06/05/2014	11:02:18.824	$GPGGA,110219,2430.9113,N,08117.5294,W,1,7,2.9,18,M,,M,,*55
06/05/2014	11:02:19.819	$GPGGA,110220,2430.9108,N,08117.5316,W,1,7,2.3,18,M,,M,,*54
06/05/2014	11:02:20.805	$GPGGA,110221,2430.9100,N,08117.5341,W,1,8,2.3,18,M,,M,,*50
06/05/2014	11:02:21.800	$GPGGA,110222,2430.9093,N,08117.5368,W,1,8,2.3,18,M,,M,,*53
06/05/2014	11:02:22.826	$GPGGA,110223,2430.9086,N,08117.5394,W,1,7,2.9,18,M,,M,,*50
06/05/2014	11:02:23.811	$GPGGA,110224,2430.9079,N,08117.5421,W,1,7,2.9,18,M,,M,,*5E
06/05/2014	11:02:24.816	$GPGGA,110225,2430.9073,N,08117.5442,W,1,7,2.9,18,M,,M,,*50
06/05/2014	11:02:25.812	$GPGGA,110226,2430.9068,N,08117.5464,W,1,7,2.3,18,M,,M,,*57
06/05/2014	11:02:26.827	$GPGGA,110227,2430.9061,N,08117.5488,W,1,8,2.3,18,M,,M,,*52
06/05/2014	11:02:27.833	$GPGGA,110228,2430.9057,N,08117.5510,W,1,8,2.3,18,M,,M,,*58
06/05/2014	11:02:28.838	$GPGGA,110229,2430.9050,N,08117.5533,W,1,7,2.4,18,M,,M,,*57
06/05/2014	11:02:29.833	$GPGGA,110230,2430.9044,N,08117.5558,W,1,7,2.4,18,M,,M,,*57
06/05/2014	11:02:30.819	$GPGGA,110231,2430.9039,N,08117.5585,W,1,7,2.4,18,M,,M,,*5C
06/05/2014	11:02:31.854	$GPGGA,110232,2430.9032,N,08117.5611,W,1,7,2.4,18,M,,M,,*5A
06/05/2014	11:02:32.464	$GPGGA,110233,2430.9025,N,08117.5639,W,1,8,2.3,18,M,,M,,*5F
06/05/2014	11:02:33.588	$GPGGA,110234,2430.9019,N,08117.5665,W,1,8,2.3,18,M,,M,,*5E
06/05/2014	11:02:34.503	$GPGGA,110235,2430.9014,N,08117.5691,W,1,8,2.3,18,M,,M,,*59
06/05/2014	11:02:35.610	$GPGGA,110236,2430.9007,N,08117.5716,W,1,8,2.3,18,M,,M,,*56
06/05/2014	11:02:36.534	$GPGGA,110237,2430.9001,N,08117.5740,W,1,8,2.3,18,M,,M,,*52
06/05/2014	11:02:37.499	$GPGGA,110238,2430.8996,N,08117.5763,W,1,8,2.4,18,M,,M,,*5D
06/05/2014	11:02:38.585	$GPGGA,110239,2430.8992,N,08117.5788,W,1,7,2.4,18,M,,M,,*52
06/05/2014	11:02:39.520	$GPGGA,110240,2430.8986,N,08117.5813,W,1,7,2.4,18,M,,M,,*54
06/05/2014	11:02:40.626	$GPGGA,110241,2430.8980,N,08117.5838,W,1,7,2.4,18,M,,M,,*5A
06/05/2014	11:02:41.601	$GPGGA,110242,2430.8974,N,08117.5863,W,1,7,2.4,18,M,,M,,*5C
06/05/2014	11:02:42.607	$GPGGA,110243,2430.8967,N,08117.5889,W,1,8,2.3,18,M,,M,,*53
06/05/2014	11:02:43.622	$GPGGA,110244,2430.8961,N,08117.5914,W,1,8,2.3,18,M,,M,,*57
06/05/2014	11:02:44.638	$GPGGA,110245,2430.8956,N,08117.5939,W,1,8,2.3,18,M,,M,,*5D
06/05/2014	11:02:45.603	$GPGGA,110246,2430.8949,N,08117.5965,W,1,8,2.3,18,M,,M,,*59
06/05/2014	11:02:46.628	$GPGGA,110247,2430.8943,N,08117.5990,W,1,8,2.3,18,M,,M,,*58
06/05/2014	11:02:47.634	$GPGGA,110248,2430.8938,N,08117.6015,W,1,8,2.3,18,M,,M,,*5C
06/05/2014	11:02:48.629	$GPGGA,110249,2430.8932,N,08117.6040,W,1,8,2.3,18,M,,M,,*57
06/05/2014	11:02:49.625	$GPGGA,110250,2430.8927,N,08117.6066,W,1,8,2.3,18,M,,M,,*5F
06/05/2014	11:02:50.650	$GPGGA,110251,2430.8920,N,08117.6089,W,1,8,2.3,18,M,,M,,*58
06/05/2014	11:02:51.644	$GPGGA,110252,2430.8914,N,08117.6116,W,1,8,2.4,18,M,,M,,*5C
06/05/2014	11:02:52.630	$GPGGA,110253,2430.8909,N,08117.6142,W,1,7,2.4,18,M,,M,,*5F
06/05/2014	11:02:53.635	$GPGGA,110254,2430.8902,N,08117.6168,W,1,7,2.3,18,M,,M,,*5C
06/05/2014	11:02:54.671	$GPGGA,110255,2430.8895,N,08117.6196,W,1,8,2.3,18,M,,M,,*5C
06/05/2014	11:02:56.500	$GPGGA,110256,2430.8888,N,08117.6221,W,1,8,2.3,18,M,,M,,*5C
06/05/2014	11:02:56.672	$GPGGA,110257,2430.8881,N,08117.6247,W,1,8,2.3,18,M,,M,,*54
06/05/2014	11:02:57.657	$GPGGA,110258,2430.8875,N,08117.6273,W,1,8,2.3,18,M,,M,,*57
06/05/2014	11:02:58.662	$GPGGA,110259,2430.8869,N,08117.6298,W,1,8,2.3,18,M,,M,,*5E
06/05/2014	11:02:59.678	$GPGGA,110300,2430.8863,N,08117.6323,W,1,8,2.3,18,M,,M,,*58
06/05/2014	11:03:00.688	$GPGGA,110301,2430.8857,N,08117.6348,W,1,8,2.3,18,M,,M,,*53
06/05/2014	11:03:01.658	$GPGGA,110302,2430.8851,N,08117.6374,W,1,8,2.3,18,M,,M,,*59
06/05/2014	11:03:02.665	$GPGGA,110303,2430.8844,N,08117.6399,W,1,8,2.3,18,M,,M,,*5F
06/05/2014	11:03:03.689	$GPGGA,110304,2430.8838,N,08117.6424,W,1,8,2.3,18,M,,M,,*52
06/05/2014	11:03:04.707	$GPGGA,110305,2430.8830,N,08117.6453,W,1,8,2.3,18,M,,M,,*5B
06/05/2014	11:03:05.670	$GPGGA,110306,2430.8823,N,08117.6481,W,1,8,2.8,18,M,,M,,*5E
06/05/2014	11:03:06.715	$GPGGA,110307,2430.8816,N,08117.6508,W,1,7,2.8,18,M,,M,,*56
06/05/2014	11:03:07.691	$GPGGA,110308,2430.8808,N,08117.6535,W,1,7,2.8,18,M,,M,,*58
06/05/2014	11:03:08.695	$GPGGA,110309,2430.8801,N,08117.6562,W,1,7,2.8,18,M,,M,,*52
06/05/2014	11:03:09.690	$GPGGA,110310,2430.8794,N,08117.6589,W,1,7,2.8,18,M,,M,,*5C
06/05/2014	11:03:10.696	$GPGGA,110311,2430.8787,N,08117.6615,W,1,7,2.8,18,M,,M,,*59
06/05/2014	11:03:11.701	$GPGGA,110312,2430.8781,N,08117.6640,W,1,7,2.8,18,M,,M,,*5C
06/05/2014	11:03:12.696	$GPGGA,110313,2430.8774,N,08117.6665,W,1,7,2.8,18,M,,M,,*50
06/05/2014	11:03:13.823	$GPGGA,110314,2430.8768,N,08117.6691,W,1,7,2.8,18,M,,M,,*51
06/05/2014	11:03:14.737	$GPGGA,110315,2430.8761,N,08117.6716,W,1,7,2.8,18,M,,M,,*57
06/05/2014	11:03:15.833	$GPGGA,110316,2430.8754,N,08117.6741,W,1,7,2.8,17,M,,M,,*5F
06/05/2014	11:03:16.738	$GPGGA,110317,2430.8746,N,08117.6767,W,1,7,2.8,17,M,,M,,*59
06/05/2014	11:03:17.723	$GPGGA,110318,2430.8739,N,08117.6792,W,1,7,2.8,17,M,,M,,*54
06/05/2014	11:03:18.850	$GPGGA,110319,2430.8732,N,08117.6817,W,1,7,2.8,17,M,,M,,*5C
06/05/2014	11:03:19.825	$GPGGA,110320,2430.8725,N,08117.6843,W,1,7,2.8,17,M,,M,,*51
06/05/2014	11:03:20.750	$GPGGA,110321,2430.8717,N,08117.6868,W,1,8,2.3,17,M,,M,,*5C
06/05/2014	11:03:21.725	$GPGGA,110322,2430.8710,N,08117.6891,W,1,8,2.8,17,M,,M,,*55
06/05/2014	11:03:22.730	$GPGGA,110323,2430.8704,N,08117.6912,W,1,8,2.3,17,M,,M,,*50
06/05/2014	11:03:23.757	$GPGGA,110324,2430.8697,N,08117.6936,W,1,8,2.3,17,M,,M,,*5A
06/05/2014	11:03:24.842	$GPGGA,110325,2430.8690,N,08117.6958,W,1,8,2.3,17,M,,M,,*54
06/05/2014	11:03:25.846	$GPGGA,110326,2430.8683,N,08117.6980,W,1,8,2.3,17,M,,M,,*50
06/05/2014	11:03:26.841	$GPGGA,110327,2430.8676,N,08117.7005,W,1,8,2.3,17,M,,M,,*5E
06/05/2014	11:03:27.857	$GPGGA,110328,2430.8669,N,08117.7027,W,1,8,2.3,17,M,,M,,*5F
06/05/2014	11:03:28.842	$GPGGA,110329,2430.8661,N,08117.7055,W,1,8,2.3,17,M,,M,,*53
06/05/2014	11:03:29.848	$GPGGA,110330,2430.8656,N,08117.7072,W,1,8,2.8,17,M,,M,,*51
06/05/2014	11:03:30.854	$GPGGA,110331,2430.8647,N,08117.7102,W,1,8,2.3,17,M,,M,,*5D
06/05/2014	11:03:31.878	$GPGGA,110332,2430.8639,N,08117.7129,W,1,8,2.8,17,M,,M,,*55
06/05/2014	11:03:32.541	$GPGGA,110333,2430.8631,N,08117.7157,W,1,7,2.8,18,M,,M,,*55
06/05/2014	11:03:33.546	$GPGGA,110334,2430.8624,N,08117.7180,W,1,7,2.8,18,M,,M,,*5C
06/05/2014	11:03:34.552	$GPGGA,110335,2430.8617,N,08117.7202,W,1,8,2.3,18,M,,M,,*50
06/05/2014	11:03:35.567	$GPGGA,110336,2430.8609,N,08117.7229,W,1,8,2.3,18,M,,M,,*55
06/05/2014	11:03:36.572	$GPGGA,110337,2430.8602,N,08117.7255,W,1,7,2.8,18,M,,M,,*50
06/05/2014	11:03:37.558	$GPGGA,110338,2430.8595,N,08117.7280,W,1,7,2.8,18,M,,M,,*5A
06/05/2014	11:03:38.563	$GPGGA,110339,2430.8587,N,08117.7305,W,1,8,2.3,18,M,,M,,*50
06/05/2014	11:03:39.579	$GPGGA,110340,2430.8580,N,08117.7334,W,1,8,2.8,18,M,,M,,*50
06/05/2014	11:03:40.577	$GPGGA,110341,2430.8573,N,08117.7360,W,1,7,2.8,18,M,,M,,*53
06/05/2014	11:03:41.579	$GPGGA,110342,2430.8564,N,08117.7386,W,1,7,2.8,18,M,,M,,*5E
06/05/2014	11:03:42.595	$GPGGA,110343,2430.8559,N,08117.7413,W,1,8,2.3,18,M,,M,,*5E
06/05/2014	11:03:43.589	$GPGGA,110344,2430.8550,N,08117.7438,W,1,8,2.3,18,M,,M,,*59
06/05/2014	11:03:44.574	$GPGGA,110345,2430.8544,N,08117.7460,W,1,8,2.3,18,M,,M,,*50
06/05/2014	11:03:45.590	$GPGGA,110346,2430.8538,N,08117.7485,W,1,8,2.3,18,M,,M,,*53
06/05/2014	11:03:46.625	$GPGGA,110347,2430.8531,N,08117.7507,W,1,8,2.3,18,M,,M,,*50
06/05/2014	11:03:47.601	$GPGGA,110348,2430.8526,N,08117.7529,W,1,8,2.3,18,M,,M,,*55
06/05/2014	11:03:48.616	$GPGGA,110349,2430.8520,N,08117.7551,W,1,8,2.3,18,M,,M,,*5D
06/05/2014	11:03:49.591	$GPGGA,110350,2430.8514,N,08117.7576,W,1,8,2.4,18,M,,M,,*50
06/05/2014	11:03:50.597	$GPGGA,110351,2430.8508,N,08117.7599,W,1,7,2.4,19,M,,M,,*53
06/05/2014	11:03:51.622	$GPGGA,110352,2430.8502,N,08117.7626,W,1,7,2.4,19,M,,M,,*5D
06/05/2014	11:03:52.618	$GPGGA,110353,2430.8497,N,08117.7650,W,1,8,2.3,19,M,,M,,*58
06/05/2014	11:03:53.613	$GPGGA,110354,2430.8490,N,08117.7680,W,1,8,2.3,19,M,,M,,*55
06/05/2014	11:03:54.618	$GPGGA,110355,2430.8483,N,08117.7702,W,1,7,2.8,19,M,,M,,*59
06/05/2014	11:03:55.634	$GPGGA,110356,2430.8479,N,08117.7727,W,1,7,2.4,19,M,,M,,*54
06/05/2014	11:03:56.649	$GPGGA,110357,2430.8472,N,08117.7750,W,1,7,2.4,19,M,,M,,*5E
06/05/2014	11:03:57.625	$GPGGA,110358,2430.8466,N,08117.7775,W,1,7,2.4,19,M,,M,,*53
06/05/2014	11:03:58.620	$GPGGA,110359,2430.8458,N,08117.7804,W,1,8,2.3,19,M,,M,,*5E
06/05/2014	11:03:59.768	$GPGGA,110400,2430.8452,N,08117.7832,W,1,8,2.8,19,M,,M,,*51
06/05/2014	11:04:00.760	$GPGGA,110401,2430.8447,N,08117.7858,W,1,7,2.8,19,M,,M,,*57
06/05/2014	11:04:01.635	$GPGGA,110402,2430.8440,N,08117.7886,W,1,7,2.3,20,M,,M,,*51
06/05/2014	11:04:02.771	$GPGGA,110403,2430.8433,N,08117.7912,W,1,8,2.3,20,M,,M,,*57
06/05/2014	11:04:03.656	$GPGGA,110404,2430.8427,N,08117.7939,W,1,8,2.3,19,M,,M,,*56
06/05/2014	11:04:04.651	$GPGGA,110405,2430.8421,N,08117.7966,W,1,8,2.3,19,M,,M,,*5B
06/05/2014	11:04:05.737	$GPGGA,110406,2430.8415,N,08117.7991,W,1,8,2.4,19,M,,M,,*50
06/05/2014	11:04:06.742	$GPGGA,110407,2430.8409,N,08117.8018,W,1,7,2.4,19,M,,M,,*54
06/05/2014	11:04:07.667	$GPGGA,110408,2430.8403,N,08117.8046,W,1,7,2.3,19,M,,M,,*5D
06/05/2014	11:04:08.763	$GPGGA,110409,2430.8397,N,08117.8071,W,1,8,2.3,19,M,,M,,*5D
06/05/2014	11:04:09.658	$GPGGA,110410,2430.8390,N,08117.8094,W,1,8,2.3,19,M,,M,,*59
06/05/2014	11:04:10.664	$GPGGA,110411,2430.8385,N,08117.8121,W,1,8,2.3,19,M,,M,,*53
06/05/2014	11:04:11.689	$GPGGA,110412,2430.8378,N,08117.8147,W,1,8,2.8,19,M,,M,,*59
06/05/2014	11:04:12.684	$GPGGA,110413,2430.8371,N,08117.8173,W,1,7,2.8,19,M,,M,,*59
06/05/2014	11:04:13.770	$GPGGA,110414,2430.8365,N,08117.8194,W,1,7,2.8,19,M,,M,,*52
06/05/2014	11:04:14.776	$GPGGA,110415,2430.8358,N,08117.8219,W,1,8,2.3,19,M,,M,,*5F
06/05/2014	11:04:15.701	$GPGGA,110416,2430.8351,N,08117.8246,W,1,8,2.3,19,M,,M,,*5F
06/05/2014	11:04:16.786	$GPGGA,110417,2430.8345,N,08117.8273,W,1,7,2.8,19,M,,M,,*59
06/05/2014	11:04:17.792	$GPGGA,110418,2430.8337,N,08117.8299,W,1,7,2.8,19,M,,M,,*57
06/05/2014	11:04:18.836	$GPGGA,110419,2430.8331,N,08117.8324,W,1,7,2.8,19,M,,M,,*57
06/05/2014	11:04:19.812	$GPGGA,110420,2430.8324,N,08117.8345,W,1,7,2.8,19,M,,M,,*5E
06/05/2014	11:04:20.817	$GPGGA,110421,2430.8318,N,08117.8371,W,1,8,2.3,19,M,,M,,*53
06/05/2014	11:04:21.792	$GPGGA,110422,2430.8310,N,08117.8396,W,1,8,2.8,19,M,,M,,*5A
06/05/2014	11:04:22.828	$GPGGA,110423,2430.8303,N,08117.8421,W,1,8,2.3,19,M,,M,,*59
06/05/2014	11:04:23.823	$GPGGA,110424,2430.8297,N,08117.8447,W,1,8,2.3,19,M,,M,,*52
06/05/2014	11:04:24.829	$GPGGA,110425,2430.8291,N,08117.8472,W,1,8,2.3,19,M,,M,,*53
06/05/2014	11:04:25.814	$GPGGA,110426,2430.8284,N,08117.8497,W,1,8,2.3,19,M,,M,,*5F
06/05/2014	11:04:26.829	$GPGGA,110427,2430.8277,N,08117.8523,W,1,8,2.3,19,M,,M,,*5C
06/05/2014	11:04:27.845	$GPGGA,110428,2430.8270,N,08117.8549,W,1,8,2.8,19,M,,M,,*53
06/05/2014	11:04:28.840	$GPGGA,110429,2430.8263,N,08117.8576,W,1,8,2.3,19,M,,M,,*57
06/05/2014	11:04:29.825	$GPGGA,110430,2430.8256,N,08117.8602,W,1,8,2.8,19,M,,M,,*52
06/05/2014	11:04:30.831	$GPGGA,110431,2430.8249,N,08117.8627,W,1,7,2.8,19,M,,M,,*55
06/05/2014	11:04:31.846	$GPGGA,110432,2430.8242,N,08117.8652,W,1,7,2.8,18,M,,M,,*5E
06/05/2014	11:04:32.549	$GPGGA,110433,2430.8235,N,08117.8678,W,1,7,2.8,18,M,,M,,*57
06/05/2014	11:04:33.524	$GPGGA,110434,2430.8228,N,08117.8703,W,1,7,2.3,18,M,,M,,*5A
06/05/2014	11:04:34.550	$GPGGA,110435,2430.8221,N,08117.8728,W,1,8,2.3,18,M,,M,,*54
06/05/2014	11:04:35.544	$GPGGA,110436,2430.8213,N,08117.8755,W,1,8,2.3,18,M,,M,,*5C
06/05/2014	11:04:36.559	$GPGGA,110437,2430.8206,N,08117.8783,W,1,7,2.8,18,M,,M,,*56
06/05/2014	11:04:37.525	$GPGGA,110438,2430.8199,N,08117.8808,W,1,7,2.3,18,M,,M,,*5B
06/05/2014	11:04:38.580	$GPGGA,110439,2430.8191,N,08117.8834,W,1,8,2.3,18,M,,M,,*52
06/05/2014	11:04:39.545	$GPGGA,110440,2430.8185,N,08117.8856,W,1,8,2.8,18,M,,M,,*56
06/05/2014	11:04:40.571	$GPGGA,110441,2430.8178,N,08117.8880,W,1,8,2.3,18,M,,M,,*55
06/05/2014	11:04:41.546	$GPGGA,110442,2430.8172,N,08117.8902,W,1,8,2.3,18,M,,M,,*57
06/05/2014	11:04:42.572	$GPGGA,110443,2430.8166,N,08117.8927,W,1,8,2.3,18,M,,M,,*54
06/05/2014	11:04:43.557	$GPGGA,110444,2430.8159,N,08117.8952,W,1,8,2.3,18,M,,M,,*5D
06/05/2014	11:04:44.552	$GPGGA,110445,2430.8154,N,08117.8978,W,1,7,2.8,18,M,,M,,*5D
06/05/2014	11:04:45.568	$GPGGA,110446,2430.8147,N,08117.9004,W,1,7,2.8,18,M,,M,,*5F
06/05/2014	11:04:46.583	$GPGGA,110447,2430.8139,N,08117.9032,W,1,7,2.8,18,M,,M,,*52
06/05/2014	11:04:47.579	$GPGGA,110448,2430.8132,N,08117.9058,W,1,7,2.3,18,M,,M,,*51
06/05/2014	11:04:48.564	$GPGGA,110449,2430.8126,N,08117.9083,W,1,8,2.3,18,M,,M,,*5C
06/05/2014	11:04:49.670	$GPGGA,110450,2430.8119,N,08117.9109,W,1,8,2.3,18,M,,M,,*5B
06/05/2014	11:04:50.585	$GPGGA,110451,2430.8113,N,08117.9133,W,1,8,2.3,18,M,,M,,*59
06/05/2014	11:04:51.712	$GPGGA,110452,2430.8107,N,08117.9155,W,1,8,2.3,18,M,,M,,*5F
06/05/2014	11:04:52.595	$GPGGA,110453,2430.8101,N,08117.9178,W,1,8,2.3,18,M,,M,,*57
06/05/2014	11:04:53.680	$GPGGA,110454,2430.8096,N,08117.9202,W,1,8,2.3,18,M,,M,,*51
06/05/2014	11:04:54.585	$GPGGA,110455,2430.8089,N,08117.9225,W,1,8,2.3,18,M,,M,,*5B
06/05/2014	11:04:55.721	$GPGGA,110456,2430.8083,N,08117.9252,W,1,8,2.9,18,M,,M,,*58
06/05/2014	11:04:56.596	$GPGGA,110457,2430.8075,N,08117.9281,W,1,6,2.9,18,M,,M,,*50
06/05/2014	11:04:57.702	$GPGGA,110458,2430.8068,N,08117.9306,W,1,6,2.3,18,M,,M,,*57
06/05/2014	11:04:58.617	$GPGGA,110459,2430.8062,N,08117.9332,W,1,8,2.3,18,M,,M,,*55
06/05/2014	11:04:59.753	$GPGGA,110500,2430.8054,N,08117.9361,W,1,8,2.8,18,M,,M,,*50
06/05/2014	11:05:00.718	$GPGGA,110501,2430.8047,N,08117.9389,W,1,7,2.8,18,M,,M,,*5A
06/05/2014	11:05:01.724	$GPGGA,110502,2430.8040,N,08117.9415,W,1,7,2.8,18,M,,M,,*5C
06/05/2014	11:05:02.739	$GPGGA,110503,2430.8033,N,08117.9440,W,1,7,2.3,18,M,,M,,*52
06/05/2014	11:05:03.734	$GPGGA,110504,2430.8026,N,08117.9463,W,1,7,2.3,18,M,,M,,*50
06/05/2014	11:05:04.619	$GPGGA,110505,2430.8019,N,08117.9490,W,1,8,2.3,18,M,,M,,*5E
06/05/2014	11:05:05.725	$GPGGA,110506,2430.8013,N,08117.9516,W,1,8,2.8,18,M,,M,,*53
06/05/2014	11:05:06.761	$GPGGA,110507,2430.8006,N,08117.9541,W,1,7,2.8,18,M,,M,,*5B
06/05/2014	11:05:07.756	$GPGGA,110508,2430.7999,N,08117.9566,W,1,7,2.3,18,M,,M,,*5A
06/05/2014	11:05:08.751	$GPGGA,110509,2430.7993,N,08117.9589,W,1,8,2.3,18,M,,M,,*5F
06/05/2014	11:05:09.747	$GPGGA,110510,2430.7986,N,08117.9617,W,1,8,2.8,18,M,,M,,*5C
06/05/2014	11:05:10.731	$GPGGA,110511,2430.7979,N,08117.9646,W,1,7,2.8,18,M,,M,,*56
06/05/2014	11:05:11.777	$GPGGA,110512,2430.7971,N,08117.9672,W,1,7,2.8,18,M,,M,,*5A
06/05/2014	11:05:12.782	$GPGGA,110513,2430.7964,N,08117.9698,W,1,7,2.3,18,M,,M,,*50
06/05/2014	11:05:13.747	$GPGGA,110514,2430.7957,N,08117.9722,W,1,7,2.3,18,M,,M,,*57
06/05/2014	11:05:14.793	$GPGGA,110515,2430.7950,N,08117.9749,W,1,8,2.8,18,M,,M,,*58
06/05/2014	11:05:15.768	$GPGGA,110516,2430.7942,N,08117.9774,W,1,8,2.8,18,M,,M,,*56
06/05/2014	11:05:16.794	$GPGGA,110517,2430.7936,N,08117.9796,W,1,7,2.3,18,M,,M,,*5C
06/05/2014	11:05:17.759	$GPGGA,110518,2430.7930,N,08117.9819,W,1,7,2.3,18,M,,M,,*5D
06/05/2014	11:05:18.784	$GPGGA,110519,2430.7923,N,08117.9844,W,1,8,2.3,18,M,,M,,*59
06/05/2014	11:05:19.790	$GPGGA,110520,2430.7915,N,08117.9867,W,1,8,2.3,18,M,,M,,*57
06/05/2014	11:05:20.795	$GPGGA,110521,2430.7908,N,08117.9892,W,1,8,2.3,18,M,,M,,*50
06/05/2014	11:05:21.797	$GPGGA,110522,2430.7901,N,08117.9918,W,1,8,2.3,18,M,,M,,*59
06/05/2014	11:05:22.827	$GPGGA,110523,2430.7894,N,08117.9946,W,1,8,2.8,18,M,,M,,*55
06/05/2014	11:05:23.801	$GPGGA,110524,2430.7887,N,08117.9971,W,1,8,2.3,18,M,,M,,*5F
06/05/2014	11:05:24.817	$GPGGA,110525,2430.7879,N,08117.9996,W,1,8,2.8,18,M,,M,,*5D
06/05/2014	11:05:25.802	$GPGGA,110526,2430.7872,N,08118.0022,W,1,8,2.8,18,M,,M,,*55
06/05/2014	11:05:26.817	$GPGGA,110527,2430.7865,N,08118.0047,W,1,7,2.8,18,M,,M,,*5E
06/05/2014	11:05:27.823	$GPGGA,110528,2430.7858,N,08118.0072,W,1,7,2.8,18,M,,M,,*59
06/05/2014	11:05:28.833	$GPGGA,110529,2430.7854,N,08118.0087,W,1,7,2.3,18,M,,M,,*55
06/05/2014	11:05:29.802	$GPGGA,110530,2430.7847,N,08118.0112,W,1,7,2.3,18,M,,M,,*52
06/05/2014	11:05:30.818	$GPGGA,110531,2430.7840,N,08118.0137,W,1,8,2.3,19,M,,M,,*5D
06/05/2014	11:05:31.823	$GPGGA,110532,2430.7834,N,08118.0163,W,1,8,2.8,19,M,,M,,*57
06/05/2014	11:05:32.497	$GPGGA,110533,2430.7827,N,08118.0191,W,1,6,2.8,19,M,,M,,*57
06/05/2014	11:05:33.502	$GPGGA,110534,2430.7819,N,08118.0217,W,1,6,2.8,19,M,,M,,*50
06/05/2014	11:05:34.497	$GPGGA,110535,2430.7811,N,08118.0249,W,1,6,2.8,19,M,,M,,*52
06/05/2014	11:05:35.533	$GPGGA,110536,2430.7804,N,08118.0278,W,1,6,2.8,19,M,,M,,*57
06/05/2014	11:05:36.629	$GPGGA,110537,2430.7797,N,08118.0305,W,1,7,2.3,19,M,,M,,*52
06/05/2014	11:05:37.513	$GPGGA,110538,2430.7790,N,08118.0330,W,1,7,2.3,19,M,,M,,*5C
06/05/2014	11:05:38.539	$GPGGA,110539,2430.7784,N,08118.0354,W,1,8,2.8,19,M,,M,,*5E
06/05/2014	11:05:39.544	$GPGGA,110540,2430.7778,N,08118.0379,W,1,8,2.8,19,M,,M,,*5C
06/05/2014	11:05:40.540	$GPGGA,110541,2430.7772,N,08118.0404,W,1,6,2.8,19,M,,M,,*54
06/05/2014	11:05:41.515	$GPGGA,110542,2430.7767,N,08118.0428,W,1,6,2.8,19,M,,M,,*5D
06/05/2014	11:05:42.671	$GPGGA,110543,2430.7762,N,08118.0452,W,1,6,2.3,19,M,,M,,*5F
06/05/2014	11:05:43.556	$GPGGA,110544,2430.7757,N,08118.0480,W,1,6,2.3,18,M,,M,,*50
06/05/2014	11:05:44.531	$GPGGA,110545,2430.7750,N,08118.0507,W,1,8,2.8,18,M,,M,,*5D
06/05/2014	11:05:45.646	$GPGGA,110546,2430.7743,N,08118.0535,W,1,8,2.8,18,M,,M,,*5D
06/05/2014	11:05:46.551	$GPGGA,110547,2430.7739,N,08118.0558,W,1,7,2.3,18,M,,M,,*5E
06/05/2014	11:05:47.657	$GPGGA,110548,2430.7732,N,08118.0583,W,1,7,2.3,18,M,,M,,*5C
06/05/2014	11:05:48.672	$GPGGA,110549,2430.7726,N,08118.0607,W,1,8,2.3,18,M,,M,,*58
06/05/2014	11:05:49.668	$GPGGA,110550,2430.7719,N,08118.0633,W,1,8,2.8,18,M,,M,,*50
06/05/2014	11:05:50.643	$GPGGA,110551,2430.7713,N,08118.0661,W,1,7,2.8,18,M,,M,,*53
06/05/2014	11:05:51.669	$GPGGA,110552,2430.7706,N,08118.0683,W,1,7,2.8,18,M,,M,,*58
06/05/2014	11:05:52.694	$GPGGA,110553,2430.7700,N,08118.0706,W,1,8,2.3,18,M,,M,,*57
06/05/2014	11:05:53.649	$GPGGA,110554,2430.7695,N,08118.0731,W,1,8,2.3,18,M,,M,,*59
06/05/2014	11:05:54.655	$GPGGA,110555,2430.7688,N,08118.0758,W,1,8,2.3,19,M,,M,,*5A
06/05/2014	11:05:55.690	$GPGGA,110556,2430.7679,N,08118.0787,W,1,8,2.8,19,M,,M,,*5E
06/05/2014	11:05:56.661	$GPGGA,110557,2430.7672,N,08118.0813,W,1,7,2.8,19,M,,M,,*59
06/05/2014	11:05:57.681	$GPGGA,110558,2430.7666,N,08118.0838,W,1,7,2.8,19,M,,M,,*5A
06/05/2014	11:05:58.696	$GPGGA,110559,2430.7659,N,08118.0863,W,1,7,2.8,19,M,,M,,*59
06/05/2014	11:05:59.712	$GPGGA,110600,2430.7654,N,08118.0885,W,1,7,2.8,19,M,,M,,*53
06/05/2014	11:06:00.697	$GPGGA,110601,2430.7648,N,08118.0907,W,1,8,2.3,19,M,,M,,*50
06/05/2014	11:06:01.684	$GPGGA,110602,2430.7642,N,08118.0932,W,1,8,2.3,19,M,,M,,*5F
06/05/2014	11:06:02.708	$GPGGA,110603,2430.7635,N,08118.0955,W,1,8,2.3,19,M,,M,,*5F
06/05/2014	11:06:03.732	$GPGGA,110604,2430.7628,N,08118.0980,W,1,8,2.3,19,M,,M,,*5C
06/05/2014	11:06:04.718	$GPGGA,110605,2430.7621,N,08118.1006,W,1,8,2.3,19,M,,M,,*52
06/05/2014	11:06:05.703	$GPGGA,110606,2430.7614,N,08118.1033,W,1,8,2.3,19,M,,M,,*51
06/05/2014	11:06:07.744	$GPGGA,110608,2430.7600,N,08118.1085,W,1,8,2.3,19,M,,M,,*57
06/05/2014	11:06:08.729	$GPGGA,110609,2430.7594,N,08118.1113,W,1,8,2.3,19,M,,M,,*56
06/05/2014	11:06:09.716	$GPGGA,110610,2430.7587,N,08118.1138,W,1,8,2.8,19,M,,M,,*5E
06/05/2014	11:06:10.710	$GPGGA,110611,2430.7580,N,08118.1161,W,1,7,2.8,19,M,,M,,*5B
06/05/2014	11:06:11.735	$GPGGA,110612,2430.7573,N,08118.1185,W,1,7,2.3,19,M,,M,,*55
06/05/2014	11:06:12.751	$GPGGA,110613,2430.7566,N,08118.1208,W,1,8,2.3,19,M,,M,,*59
06/05/2014	11:06:13.726	$GPGGA,110614,2430.7559,N,08118.1233,W,1,8,2.3,19,M,,M,,*5A
06/05/2014	11:06:14.751	$GPGGA,110615,2430.7553,N,08118.1258,W,1,8,2.3,20,M,,M,,*56
06/05/2014	11:06:15.737	$GPGGA,110616,2430.7547,N,08118.1286,W,1,8,2.3,20,M,,M,,*53
06/05/2014	11:06:16.732	$GPGGA,110617,2430.7540,N,08118.1311,W,1,8,2.3,20,M,,M,,*5A
06/05/2014	11:06:17.748	$GPGGA,110618,2430.7531,N,08118.1337,W,1,8,2.3,20,M,,M,,*57
06/05/2014	11:06:18.743	$GPGGA,110619,2430.7524,N,08118.1362,W,1,8,2.3,20,M,,M,,*52
06/05/2014	11:06:19.758	$GPGGA,110620,2430.7518,N,08118.1391,W,1,8,2.3,20,M,,M,,*5B
06/05/2014	11:06:20.763	$GPGGA,110621,2430.7511,N,08118.1416,W,1,7,2.8,20,M,,M,,*5F
06/05/2014	11:06:21.748	$GPGGA,110622,2430.7502,N,08118.1441,W,1,7,2.3,20,M,,M,,*57
06/05/2014	11:06:22.764	$GPGGA,110623,2430.7495,N,08118.1465,W,1,8,2.3,20,M,,M,,*50
06/05/2014	11:06:23.769	$GPGGA,110624,2430.7487,N,08118.1489,W,1,8,2.3,20,M,,M,,*56
06/05/2014	11:06:24.754	$GPGGA,110625,2430.7482,N,08118.1514,W,1,8,2.3,20,M,,M,,*57
06/05/2014	11:06:25.750	$GPGGA,110626,2430.7475,N,08118.1539,W,1,8,2.3,20,M,,M,,*53
06/05/2014	11:06:26.785	$GPGGA,110627,2430.7467,N,08118.1564,W,1,8,2.3,20,M,,M,,*59
06/05/2014	11:06:27.791	$GPGGA,110628,2430.7460,N,08118.1589,W,1,8,2.3,20,M,,M,,*52
06/05/2014	11:06:28.786	$GPGGA,110629,2430.7454,N,08118.1613,W,1,8,2.3,20,M,,M,,*54
06/05/2014	11:06:29.781	$GPGGA,110630,2430.7447,N,08118.1638,W,1,8,2.3,20,M,,M,,*57
06/05/2014	11:06:30.797	$GPGGA,110631,2430.7440,N,08118.1665,W,1,7,2.4,21,M,,M,,*50
06/05/2014	11:06:31.913	$GPGGA,110632,2430.7433,N,08118.1689,W,1,7,2.3,21,M,,M,,*52
06/05/2014	11:06:32.474	$GPGGA,110633,2430.7426,N,08118.1714,W,1,8,2.3,21,M,,M,,*5D
06/05/2014	11:06:33.480	$GPGGA,110634,2430.7421,N,08118.1741,W,1,8,2.3,21,M,,M,,*5D
06/05/2014	11:06:34.566	$GPGGA,110635,2430.7414,N,08118.1766,W,1,8,2.3,21,M,,M,,*5F
06/05/2014	11:06:35.491	$GPGGA,110636,2430.7407,N,08118.1789,W,1,8,2.3,21,M,,M,,*5F
06/05/2014	11:06:36.577	$GPGGA,110637,2430.7400,N,08118.1814,W,1,8,2.3,21,M,,M,,*52
06/05/2014	11:06:37.592	$GPGGA,110638,2430.7393,N,08118.1839,W,1,8,2.3,21,M,,M,,*5F
06/05/2014	11:06:38.596	$GPGGA,110639,2430.7388,N,08118.1865,W,1,8,2.3,21,M,,M,,*5D
06/05/2014	11:06:39.602	$GPGGA,110640,2430.7381,N,08118.1889,W,1,8,2.3,21,M,,M,,*58
06/05/2014	11:06:40.617	$GPGGA,110641,2430.7374,N,08118.1915,W,1,7,2.4,21,M,,M,,*5F
06/05/2014	11:06:41.592	$GPGGA,110642,2430.7367,N,08118.1941,W,1,7,2.3,22,M,,M,,*5B
06/05/2014	11:06:42.615	$GPGGA,110643,2430.7360,N,08118.1967,W,1,8,2.3,22,M,,M,,*56
06/05/2014	11:06:43.599	$GPGGA,110644,2430.7354,N,08118.1994,W,1,8,2.3,22,M,,M,,*5A
06/05/2014	11:06:44.592	$GPGGA,110645,2430.7346,N,08118.2020,W,1,8,2.3,22,M,,M,,*5D
06/05/2014	11:06:45.606	$GPGGA,110646,2430.7339,N,08118.2045,W,1,8,2.3,22,M,,M,,*55
06/05/2014	11:06:46.620	$GPGGA,110647,2430.7332,N,08118.2070,W,1,8,2.3,22,M,,M,,*59
06/05/2014	11:06:47.623	$GPGGA,110648,2430.7327,N,08118.2095,W,1,8,2.3,22,M,,M,,*59
06/05/2014	11:06:48.627	$GPGGA,110649,2430.7320,N,08118.2120,W,1,8,2.3,22,M,,M,,*50
06/05/2014	11:06:49.600	$GPGGA,110650,2430.7313,N,08118.2143,W,1,8,2.4,23,M,,M,,*5B
06/05/2014	11:06:50.634	$GPGGA,110651,2430.7306,N,08118.2168,W,1,8,2.3,23,M,,M,,*50
06/05/2014	11:06:51.616	$GPGGA,110652,2430.7301,N,08118.2193,W,1,8,2.3,23,M,,M,,*50
06/05/2014	11:06:52.642	$GPGGA,110653,2430.7294,N,08118.2218,W,1,8,2.3,23,M,,M,,*5C
06/05/2014	11:06:53.605	$GPGGA,110654,2430.7287,N,08118.2245,W,1,8,2.3,23,M,,M,,*51
06/05/2014	11:06:54.608	$GPGGA,110655,2430.7280,N,08118.2273,W,1,7,2.7,23,M,,M,,*59
06/05/2014	11:06:55.631	$GPGGA,110656,2430.7273,N,08118.2301,W,1,7,2.7,23,M,,M,,*52
06/05/2014	11:06:56.645	$GPGGA,110657,2430.7267,N,08118.2326,W,1,7,2.7,23,M,,M,,*53
06/05/2014	11:06:57.618	$GPGGA,110658,2430.7260,N,08118.2350,W,1,7,2.3,22,M,,M,,*5F
06/05/2014	11:06:58.642	$GPGGA,110659,2430.7254,N,08118.2375,W,1,8,2.3,22,M,,M,,*51
06/05/2014	11:06:59.645	$GPGGA,110700,2430.7248,N,08118.2399,W,1,8,2.4,22,M,,M,,*54
06/05/2014	11:07:00.629	$GPGGA,110701,2430.7241,N,08118.2424,W,1,8,2.3,22,M,,M,,*5A
06/05/2014	11:07:01.632	$GPGGA,110702,2430.7234,N,08118.2450,W,1,8,2.3,22,M,,M,,*58
06/05/2014	11:07:02.656	$GPGGA,110703,2430.7229,N,08118.2476,W,1,8,2.3,22,M,,M,,*51
06/05/2014	11:07:03.630	$GPGGA,110704,2430.7222,N,08118.2500,W,1,8,2.3,22,M,,M,,*5D
06/05/2014	11:07:04.633	$GPGGA,110705,2430.7215,N,08118.2529,W,1,8,2.3,22,M,,M,,*53
06/05/2014	11:07:05.617	$GPGGA,110706,2430.7209,N,08118.2554,W,1,8,2.7,22,M,,M,,*53
06/05/2014	11:07:06.630	$GPGGA,110707,2430.7202,N,08118.2583,W,1,8,2.3,22,M,,M,,*57
06/05/2014	11:07:07.644	$GPGGA,110708,2430.7195,N,08118.2608,W,1,8,2.7,22,M,,M,,*51
06/05/2014	11:07:08.648	$GPGGA,110709,2430.7188,N,08118.2637,W,1,8,2.3,22,M,,M,,*54
06/05/2014	11:07:09.621	$GPGGA,110710,2430.7182,N,08118.2663,W,1,8,2.7,22,M,,M,,*53
06/05/2014	11:07:10.645	$GPGGA,110711,2430.7175,N,08118.2689,W,1,8,2.3,21,M,,M,,*59
06/05/2014	11:07:11.659	$GPGGA,110712,2430.7169,N,08118.2714,W,1,8,2.3,21,M,,M,,*52
06/05/2014	11:07:12.652	$GPGGA,110713,2430.7162,N,08118.2740,W,1,8,2.3,21,M,,M,,*59
06/05/2014	11:07:13.645	$GPGGA,110714,2430.7157,N,08118.2765,W,1,8,2.3,21,M,,M,,*5F
06/05/2014	11:07:14.648	$GPGGA,110715,2430.7150,N,08118.2793,W,1,8,2.3,21,M,,M,,*50
06/05/2014	11:07:15.652	$GPGGA,110716,2430.7146,N,08118.2812,W,1,8,2.7,21,M,,M,,*56
06/05/2014	11:07:16.635	$GPGGA,110717,2430.7139,N,08118.2836,W,1,7,2.4,21,M,,M,,*55
06/05/2014	11:07:17.639	$GPGGA,110718,2430.7132,N,08118.2861,W,1,7,2.3,21,M,,M,,*54
06/05/2014	11:07:18.743	$GPGGA,110719,2430.7126,N,08118.2887,W,1,8,2.3,21,M,,M,,*57
06/05/2014	11:07:19.777	$GPGGA,110720,2430.7119,N,08118.2912,W,1,8,2.3,21,M,,M,,*5C
06/05/2014	11:07:20.680	$GPGGA,110721,2430.7112,N,08118.2941,W,1,8,2.3,21,M,,M,,*50
06/05/2014	11:07:21.744	$GPGGA,110722,2430.7106,N,08118.2963,W,1,8,2.7,21,M,,M,,*52
06/05/2014	11:07:22.767	$GPGGA,110723,2430.7101,N,08118.2988,W,1,8,2.3,21,M,,M,,*55
06/05/2014	11:07:23.781	$GPGGA,110724,2430.7094,N,08118.3013,W,1,8,2.4,21,M,,M,,*52
06/05/2014	11:07:24.664	$GPGGA,110725,2430.7087,N,08118.3039,W,1,7,2.4,21,M,,M,,*56
06/05/2014	11:07:25.758	$GPGGA,110726,2430.7081,N,08118.3065,W,1,7,2.4,21,M,,M,,*5A
06/05/2014	11:07:26.762	$GPGGA,110727,2430.7074,N,08118.3093,W,1,8,2.3,21,M,,M,,*50
06/05/2014	11:07:27.785	$GPGGA,110728,2430.7066,N,08118.3121,W,1,8,2.3,21,M,,M,,*54
06/05/2014	11:07:28.780	$GPGGA,110729,2430.7059,N,08118.3145,W,1,8,2.3,21,M,,M,,*5B
06/05/2014	11:07:29.772	$GPGGA,110730,2430.7052,N,08118.3170,W,1,8,2.3,21,M,,M,,*5E
06/05/2014	11:07:30.765	$GPGGA,110731,2430.7046,N,08118.3197,W,1,8,2.3,21,M,,M,,*53
06/05/2014	11:07:31.779	$GPGGA,110732,2430.7039,N,08118.3220,W,1,8,2.3,21,M,,M,,*57
06/05/2014	11:07:32.562	$GPGGA,110733,2430.7034,N,08118.3245,W,1,7,2.4,21,M,,M,,*50
06/05/2014	11:07:33.536	$GPGGA,110734,2430.7027,N,08118.3271,W,1,7,2.3,21,M,,M,,*55
06/05/2014	11:07:34.550	$GPGGA,110735,2430.7020,N,08118.3296,W,1,8,2.3,21,M,,M,,*55
06/05/2014	11:07:35.553	$GPGGA,110736,2430.7013,N,08118.3322,W,1,8,2.3,21,M,,M,,*58
06/05/2014	11:07:36.557	$GPGGA,110737,2430.7006,N,08118.3347,W,1,8,2.3,21,M,,M,,*5E
06/05/2014	11:07:37.560	$GPGGA,110738,2430.6999,N,08118.3372,W,1,8,2.3,21,M,,M,,*59
06/05/2014	11:07:38.564	$GPGGA,110739,2430.6993,N,08118.3399,W,1,8,2.3,21,M,,M,,*57
06/05/2014	11:07:39.558	$GPGGA,110740,2430.6987,N,08118.3422,W,1,8,2.3,21,M,,M,,*5B
06/05/2014	11:07:40.561	$GPGGA,110741,2430.6978,N,08118.3447,W,1,8,2.3,21,M,,M,,*59
06/05/2014	11:07:41.555	$GPGGA,110742,2430.6973,N,08118.3472,W,1,8,2.3,21,M,,M,,*57
06/05/2014	11:07:42.578	$GPGGA,110743,2430.6965,N,08118.3497,W,1,8,2.3,21,M,,M,,*5A
06/05/2014	11:07:43.582	$GPGGA,110744,2430.6958,N,08118.3522,W,1,8,2.3,21,M,,M,,*5C
06/05/2014	11:07:44.555	$GPGGA,110745,2430.6951,N,08118.3548,W,1,8,2.3,21,M,,M,,*58
06/05/2014	11:07:45.569	$GPGGA,110746,2430.6944,N,08118.3573,W,1,8,2.3,21,M,,M,,*57
06/05/2014	11:07:46.593	$GPGGA,110747,2430.6936,N,08118.3599,W,1,8,2.3,21,M,,M,,*57
06/05/2014	11:07:47.576	$GPGGA,110748,2430.6929,N,08118.3625,W,1,8,2.3,21,M,,M,,*52
06/05/2014	11:07:48.549	$GPGGA,110749,2430.6922,N,08118.3652,W,1,8,2.3,21,M,,M,,*58
06/05/2014	11:07:49.563	$GPGGA,110750,2430.6915,N,08118.3678,W,1,8,2.3,20,M,,M,,*5D
06/05/2014	11:07:50.556	$GPGGA,110751,2430.6908,N,08118.3703,W,1,8,2.3,20,M,,M,,*5D
06/05/2014	11:07:51.580	$GPGGA,110752,2430.6900,N,08118.3728,W,1,8,2.3,20,M,,M,,*5F
06/05/2014	11:07:52.593	$GPGGA,110753,2430.6893,N,08118.3754,W,1,8,2.3,20,M,,M,,*5E
06/05/2014	11:07:53.567	$GPGGA,110754,2430.6886,N,08118.3777,W,1,8,2.3,20,M,,M,,*5C
06/05/2014	11:07:54.570	$GPGGA,110755,2430.6880,N,08118.3802,W,1,8,2.3,20,M,,M,,*56
06/05/2014	11:07:55.594	$GPGGA,110756,2430.6873,N,08118.3827,W,1,8,2.3,20,M,,M,,*5E
06/05/2014	11:07:56.569	$GPGGA,110757,2430.6865,N,08118.3853,W,1,8,2.3,20,M,,M,,*5B
06/05/2014	11:07:57.671	$GPGGA,110758,2430.6861,N,08118.3878,W,1,8,2.3,20,M,,M,,*59
06/05/2014	11:07:58.565	$GPGGA,110759,2430.6852,N,08118.3905,W,1,7,2.4,20,M,,M,,*5B
06/05/2014	11:07:59.608	$GPGGA,110800,2430.6844,N,08118.3931,W,1,7,2.3,20,M,,M,,*5F
06/05/2014	11:08:00.592	$GPGGA,110801,2430.6837,N,08118.3956,W,1,8,2.3,20,M,,M,,*54
06/05/2014	11:08:01.596	$GPGGA,110802,2430.6830,N,08118.3983,W,1,8,2.3,20,M,,M,,*58
06/05/2014	11:08:02.770	$GPGGA,110803,2430.6822,N,08118.4010,W,1,8,2.3,20,M,,M,,*5E
06/05/2014	11:08:03.603	$GPGGA,110804,2430.6815,N,08118.4035,W,1,8,2.3,20,M,,M,,*5A
06/05/2014	11:08:04.578	$GPGGA,110805,2430.6807,N,08118.4061,W,1,8,2.3,20,M,,M,,*59
06/05/2014	11:08:05.679	$GPGGA,110806,2430.6799,N,08118.4087,W,1,8,2.3,20,M,,M,,*5A
06/05/2014	11:08:06.603	$GPGGA,110807,2430.6792,N,08118.4115,W,1,8,2.3,20,M,,M,,*5A
06/05/2014	11:08:07.616	$GPGGA,110808,2430.6785,N,08118.4140,W,1,8,2.3,20,M,,M,,*53
06/05/2014	11:08:08.600	$GPGGA,110809,2430.6776,N,08118.4166,W,1,8,2.3,20,M,,M,,*5A
06/05/2014	11:08:09.684	$GPGGA,110810,2430.6769,N,08118.4192,W,1,8,2.3,20,M,,M,,*57
06/05/2014	11:08:10.788	$GPGGA,110811,2430.6763,N,08118.4217,W,1,8,2.3,20,M,,M,,*52
06/05/2014	11:08:11.731	$GPGGA,110812,2430.6754,N,08118.4242,W,1,8,2.3,20,M,,M,,*55
06/05/2014	11:08:12.785	$GPGGA,110813,2430.6749,N,08118.4268,W,1,8,2.3,20,M,,M,,*50
06/05/2014	11:08:13.698	$GPGGA,110814,2430.6741,N,08118.4293,W,1,8,2.3,20,M,,M,,*5B
06/05/2014	11:08:14.782	$GPGGA,110815,2430.6734,N,08118.4317,W,1,8,2.3,20,M,,M,,*55
06/05/2014	11:08:15.735	$GPGGA,110816,2430.6727,N,08118.4343,W,1,8,2.3,20,M,,M,,*55
06/05/2014	11:08:16.799	$GPGGA,110817,2430.6721,N,08118.4368,W,1,8,2.3,20,M,,M,,*5B
06/05/2014	11:08:17.732	$GPGGA,110818,2430.6714,N,08118.4391,W,1,8,2.4,20,M,,M,,*53
06/05/2014	11:08:18.786	$GPGGA,110819,2430.6707,N,08118.4418,W,1,7,2.3,20,M,,M,,*5E
06/05/2014	11:08:19.770	$GPGGA,110820,2430.6700,N,08118.4445,W,1,7,2.3,20,M,,M,,*5B
06/05/2014	11:08:20.803	$GPGGA,110821,2430.6693,N,08118.4472,W,1,8,2.3,20,M,,M,,*5A
06/05/2014	11:08:21.738	$GPGGA,110822,2430.6686,N,08118.4498,W,1,8,2.3,20,M,,M,,*59
06/05/2014	11:08:22.802	$GPGGA,110823,2430.6680,N,08118.4521,W,1,7,2.3,20,M,,M,,*52
06/05/2014	11:08:23.763	$GPGGA,110824,2430.6673,N,08118.4548,W,1,7,2.3,20,M,,M,,*56
06/05/2014	11:08:24.807	$GPGGA,110825,2430.6666,N,08118.4575,W,1,8,2.7,20,M,,M,,*56
06/05/2014	11:08:25.740	$GPGGA,110826,2430.6660,N,08118.4603,W,1,8,2.7,20,M,,M,,*51
06/05/2014	11:08:26.816	$GPGGA,110827,2430.6653,N,08118.4628,W,1,7,2.7,20,M,,M,,*56
06/05/2014	11:08:27.757	$GPGGA,110828,2430.6647,N,08118.4654,W,1,7,2.7,20,M,,M,,*57
06/05/2014	11:08:28.811	$GPGGA,110829,2430.6641,N,08118.4682,W,1,8,2.3,20,M,,M,,*50
06/05/2014	11:08:29.745	$GPGGA,110830,2430.6635,N,08118.4707,W,1,8,2.3,20,M,,M,,*57
06/05/2014	11:08:30.828	$GPGGA,110831,2430.6629,N,08118.4733,W,1,8,2.3,20,M,,M,,*5C
06/05/2014	11:08:31.762	$GPGGA,110832,2430.6622,N,08118.4759,W,1,8,2.3,20,M,,M,,*58
06/05/2014	11:08:32.611	$GPGGA,110833,2430.6615,N,08118.4787,W,1,8,2.7,20,M,,M,,*5A
06/05/2014	11:08:33.504	$GPGGA,110834,2430.6610,N,08118.4810,W,1,8,2.7,20,M,,M,,*59
06/05/2014	11:08:34.618	$GPGGA,110835,2430.6605,N,08118.4834,W,1,8,2.3,20,M,,M,,*5E
06/05/2014	11:08:35.551	$GPGGA,110836,2430.6599,N,08118.4857,W,1,8,2.3,20,M,,M,,*5E
06/05/2014	11:08:36.515	$GPGGA,110837,2430.6593,N,08118.4881,W,1,8,2.3,20,M,,M,,*5E
06/05/2014	11:08:37.568	$GPGGA,110838,2430.6588,N,08118.4906,W,1,8,2.3,20,M,,M,,*55
06/05/2014	11:08:38.582	$GPGGA,110839,2430.6582,N,08118.4931,W,1,8,2.3,20,M,,M,,*5A
06/05/2014	11:08:39.566	$GPGGA,110840,2430.6576,N,08118.4956,W,1,8,2.3,20,M,,M,,*5E
06/05/2014	11:08:40.608	$GPGGA,110841,2430.6570,N,08118.4982,W,1,8,2.3,20,M,,M,,*50
06/05/2014	11:08:41.562	$GPGGA,110842,2430.6564,N,08118.5008,W,1,8,2.3,20,M,,M,,*5C
06/05/2014	11:08:42.646	$GPGGA,110843,2430.6558,N,08118.5034,W,1,8,2.3,20,M,,M,,*5D
06/05/2014	11:08:43.579	$GPGGA,110844,2430.6551,N,08118.5061,W,1,8,2.3,20,M,,M,,*53
06/05/2014	11:08:44.522	$GPGGA,110845,2430.6544,N,08118.5087,W,1,8,2.3,20,M,,M,,*5E
06/05/2014	11:08:45.568	$GPGGA,110846,2430.6539,N,08118.5112,W,1,8,2.3,20,M,,M,,*5A
06/05/2014	11:08:46.654	$GPGGA,110847,2430.6532,N,08118.5137,W,1,8,2.3,20,M,,M,,*57
06/05/2014	11:08:47.627	$GPGGA,110848,2430.6525,N,08118.5162,W,1,8,2.3,20,M,,M,,*5E
06/05/2014	11:08:48.601	$GPGGA,110849,2430.6518,N,08118.5186,W,1,8,2.3,20,M,,M,,*5B
06/05/2014	11:08:49.656	$GPGGA,110850,2430.6512,N,08118.5211,W,1,8,2.3,20,M,,M,,*54
06/05/2014	11:08:50.742	$GPGGA,110851,2430.6507,N,08118.5238,W,1,8,2.3,20,M,,M,,*5A
06/05/2014	11:08:51.726	$GPGGA,110852,2430.6499,N,08118.5264,W,1,8,2.3,20,M,,M,,*56
06/05/2014	11:08:52.791	$GPGGA,110853,2430.6492,N,08118.5289,W,1,8,2.3,20,M,,M,,*5F
06/05/2014	11:08:53.816	$GPGGA,110854,2430.6486,N,08118.5316,W,1,8,2.3,20,M,,M,,*5A
06/05/2014	11:08:54.840	$GPGGA,110855,2430.6478,N,08118.5343,W,1,8,2.3,20,M,,M,,*5A
06/05/2014	11:08:55.814	$GPGGA,110856,2430.6471,N,08118.5369,W,1,8,2.3,20,M,,M,,*58
06/05/2014	11:08:56.890	$GPGGA,110857,2430.6464,N,08118.5395,W,1,8,2.3,20,M,,M,,*5E
06/05/2014	11:08:57.854	$GPGGA,110858,2430.6457,N,08118.5421,W,1,8,2.3,20,M,,M,,*59
06/05/2014	11:08:58.917	$GPGGA,110859,2430.6450,N,08118.5446,W,1,8,2.3,20,M,,M,,*5E
06/05/2014	11:08:59.983	$GPGGA,110900,2430.6443,N,08118.5470,W,1,8,2.3,20,M,,M,,*54
06/05/2014	11:09:00.987	$GPGGA,110901,2430.6438,N,08118.5495,W,1,8,2.3,20,M,,M,,*52
06/05/2014	11:09:01.930	$GPGGA,110902,2430.6431,N,08118.5518,W,1,8,2.3,20,M,,M,,*5C
06/05/2014	11:09:03.057	$GPGGA,110903,2430.6424,N,08118.5543,W,1,7,2.3,20,M,,M,,*58
06/05/2014	11:09:04.061	$GPGGA,110904,2430.6417,N,08118.5568,W,1,7,2.3,20,M,,M,,*56
06/05/2014	11:09:05.096	$GPGGA,110905,2430.6410,N,08118.5596,W,1,8,2.3,20,M,,M,,*5E
06/05/2014	11:09:06.084	$GPGGA,110906,2430.6403,N,08118.5621,W,1,8,2.3,20,M,,M,,*50
06/05/2014	11:09:07.114	$GPGGA,110907,2430.6395,N,08118.5648,W,1,8,2.3,20,M,,M,,*56
06/05/2014	11:09:08.149	$GPGGA,110908,2430.6388,N,08118.5675,W,1,8,2.3,19,M,,M,,*51
06/05/2014	11:09:09.194	$GPGGA,110909,2430.6381,N,08118.5701,W,1,8,2.3,19,M,,M,,*5B
06/05/2014	11:09:10.178	$GPGGA,110910,2430.6374,N,08118.5726,W,1,8,2.3,19,M,,M,,*5C
06/05/2014	11:09:11.233	$GPGGA,110911,2430.6366,N,08118.5751,W,1,8,2.3,19,M,,M,,*5E
06/05/2014	11:09:12.237	$GPGGA,110912,2430.6359,N,08118.5775,W,1,8,2.3,19,M,,M,,*57
06/05/2014	11:09:13.282	$GPGGA,110913,2430.6352,N,08118.5802,W,1,8,2.3,19,M,,M,,*52
06/05/2014	11:09:14.267	$GPGGA,110914,2430.6344,N,08118.5827,W,1,8,2.3,19,M,,M,,*55
06/05/2014	11:09:15.343	$GPGGA,110915,2430.6337,N,08118.5853,W,1,8,2.3,19,M,,M,,*53
06/05/2014	11:09:16.334	$GPGGA,110916,2430.6329,N,08118.5881,W,1,8,2.3,19,M,,M,,*50
06/05/2014	11:09:17.369	$GPGGA,110917,2430.6322,N,08118.5907,W,1,8,2.3,19,M,,M,,*55
06/05/2014	11:09:18.384	$GPGGA,110918,2430.6315,N,08118.5932,W,1,8,2.3,19,M,,M,,*58
06/05/2014	11:09:19.449	$GPGGA,110919,2430.6308,N,08118.5957,W,1,8,2.3,19,M,,M,,*56
06/05/2014	11:09:20.423	$GPGGA,110920,2430.6301,N,08118.5983,W,1,8,2.3,19,M,,M,,*5C
06/05/2014	11:09:21.468	$GPGGA,110921,2430.6294,N,08118.6008,W,1,8,2.3,19,M,,M,,*59
06/05/2014	11:09:22.451	$GPGGA,110922,2430.6286,N,08118.6033,W,1,8,2.3,19,M,,M,,*51
06/05/2014	11:09:23.609	$GPGGA,110923,2430.6279,N,08118.6059,W,1,8,2.3,19,M,,M,,*5C
06/05/2014	11:09:24.511	$GPGGA,110924,2430.6272,N,08118.6085,W,1,8,2.3,19,M,,M,,*51
06/05/2014	11:09:25.525	$GPGGA,110925,2430.6272,N,08118.6085,W,1,8,2.3,19,M,,M,,*50
06/05/2014	11:09:26.539	$GPGGA,110926,2430.6265,N,08118.6110,W,1,8,2.3,19,M,,M,,*58
06/05/2014	11:09:27.564	$GPGGA,110927,2430.6258,N,08118.6135,W,1,8,2.3,19,M,,M,,*50
06/05/2014	11:09:28.619	$GPGGA,110928,2430.6244,N,08118.6185,W,1,8,2.3,19,M,,M,,*59
06/05/2014	11:09:29.675	$GPGGA,110929,2430.6237,N,08118.6211,W,1,8,2.3,19,M,,M,,*52
06/05/2014	11:09:30.751	$GPGGA,110930,2430.6230,N,08118.6236,W,1,8,2.3,19,M,,M,,*58
06/05/2014	11:09:31.724	$GPGGA,110931,2430.6230,N,08118.6236,W,1,8,2.3,19,M,,M,,*59
06/05/2014	11:09:32.718	$GPGGA,110932,2430.6216,N,08118.6290,W,1,8,2.3,19,M,,M,,*52
06/05/2014	11:09:32.576	$GPGGA,110933,2430.6209,N,08118.6315,W,1,8,2.3,19,M,,M,,*51
06/05/2014	11:09:33.609	$GPGGA,110934,2430.6203,N,08118.6340,W,1,8,2.3,19,M,,M,,*5C
06/05/2014	11:09:34.541	$GPGGA,110935,2430.6203,N,08118.6340,W,1,8,2.3,19,M,,M,,*5D
06/05/2014	11:09:35.576	$GPGGA,110936,2430.6186,N,08118.6391,W,1,8,2.3,19,M,,M,,*5C
06/05/2014	11:09:36.601	$GPGGA,110937,2430.6186,N,08118.6391,W,1,8,2.3,19,M,,M,,*5D
06/05/2014	11:09:37.615	$GPGGA,110938,2430.6172,N,08118.6441,W,1,8,2.3,19,M,,M,,*53
06/05/2014	11:09:38.691	$GPGGA,110939,2430.6165,N,08118.6465,W,1,7,2.3,19,M,,M,,*5D
06/05/2014	11:09:39.777	$GPGGA,110940,2430.6156,N,08118.6492,W,1,7,2.3,19,M,,M,,*5B
06/05/2014	11:09:40.679	$GPGGA,110941,2430.6156,N,08118.6492,W,1,8,2.3,19,M,,M,,*55
06/05/2014	11:09:41.785	$GPGGA,110942,2430.6142,N,08118.6546,W,1,8,2.3,19,M,,M,,*5B
06/05/2014	11:09:42.820	$GPGGA,110943,2430.6133,N,08118.6572,W,1,8,2.3,19,M,,M,,*5B
06/05/2014	11:09:43.752	$GPGGA,110944,2430.6126,N,08118.6597,W,1,8,2.3,19,M,,M,,*53
06/05/2014	11:09:44.859	$GPGGA,110945,2430.6121,N,08118.6620,W,1,8,2.3,19,M,,M,,*5A
06/05/2014	11:09:45.883	$GPGGA,110946,2430.6114,N,08118.6645,W,1,8,2.3,19,M,,M,,*5C
06/05/2014	11:09:46.939	$GPGGA,110947,2430.6107,N,08118.6669,W,1,8,2.3,19,M,,M,,*51
06/05/2014	11:09:47.944	$GPGGA,110948,2430.6102,N,08118.6694,W,1,8,2.3,19,M,,M,,*59
06/05/2014	11:09:48.958	$GPGGA,110949,2430.6095,N,08118.6720,W,1,8,2.3,19,M,,M,,*59
06/05/2014	11:09:49.961	$GPGGA,110950,2430.6087,N,08118.6746,W,1,8,2.3,19,M,,M,,*52
06/05/2014	11:09:51.026	$GPGGA,110951,2430.6080,N,08118.6774,W,1,8,2.3,19,M,,M,,*55
06/05/2014	11:09:52.030	$GPGGA,110952,2430.6074,N,08118.6800,W,1,8,2.3,19,M,,M,,*51
06/05/2014	11:09:53.044	$GPGGA,110953,2430.6067,N,08118.6828,W,1,8,2.3,19,M,,M,,*58
06/05/2014	11:09:54.059	$GPGGA,110954,2430.6061,N,08118.6853,W,1,8,2.3,19,M,,M,,*55
06/05/2014	11:09:55.094	$GPGGA,110955,2430.6055,N,08118.6879,W,1,8,2.3,19,M,,M,,*5B
06/05/2014	11:09:56.108	$GPGGA,110956,2430.6048,N,08118.6904,W,1,8,2.3,19,M,,M,,*5F
06/05/2014	11:09:57.153	$GPGGA,110957,2430.6041,N,08118.6929,W,1,8,2.3,19,M,,M,,*58
06/05/2014	11:09:58.147	$GPGGA,110958,2430.6035,N,08118.6954,W,1,8,2.3,19,M,,M,,*5E
06/05/2014	11:09:59.193	$GPGGA,110959,2430.6030,N,08118.6980,W,1,8,2.3,19,M,,M,,*53
06/05/2014	11:10:00.217	$GPGGA,111000,2430.6022,N,08118.7005,W,1,8,2.3,19,M,,M,,*51
06/05/2014	11:10:01.241	$GPGGA,111001,2430.6016,N,08118.7030,W,1,8,2.3,19,M,,M,,*51
06/05/2014	11:10:02.245	$GPGGA,111002,2430.6010,N,08118.7057,W,1,8,2.3,19,M,,M,,*55
06/05/2014	11:10:03.301	$GPGGA,111003,2430.6003,N,08118.7086,W,1,8,2.3,19,M,,M,,*5A
06/05/2014	11:10:04.305	$GPGGA,111004,2430.5997,N,08118.7113,W,1,8,2.7,19,M,,M,,*53
06/05/2014	11:10:05.329	$GPGGA,111005,2430.5991,N,08118.7136,W,1,8,2.3,19,M,,M,,*57
06/05/2014	11:10:06.334	$GPGGA,111006,2430.5987,N,08118.7160,W,1,8,2.3,19,M,,M,,*50
06/05/2014	11:10:07.379	$GPGGA,111007,2430.5983,N,08118.7183,W,1,8,2.3,19,M,,M,,*58
06/05/2014	11:10:08.390	$GPGGA,111008,2430.5976,N,08118.7207,W,1,8,2.3,19,M,,M,,*52
06/05/2014	11:10:09.427	$GPGGA,111009,2430.5972,N,08118.7230,W,1,8,2.3,19,M,,M,,*53
06/05/2014	11:10:10.421	$GPGGA,111010,2430.5965,N,08118.7258,W,1,8,2.3,19,M,,M,,*53
06/05/2014	11:10:11.436	$GPGGA,111011,2430.5957,N,08118.7285,W,1,7,2.7,19,M,,M,,*58
06/05/2014	11:10:12.480	$GPGGA,111012,2430.5952,N,08118.7312,W,1,7,2.7,19,M,,M,,*51
06/05/2014	11:10:13.484	$GPGGA,111013,2430.5947,N,08118.7339,W,1,8,2.3,19,M,,M,,*56
06/05/2014	11:10:14.519	$GPGGA,111014,2430.5939,N,08118.7368,W,1,8,2.3,19,M,,M,,*5C
06/05/2014	11:10:15.544	$GPGGA,111015,2430.5933,N,08118.7396,W,1,7,2.7,19,M,,M,,*5D
06/05/2014	11:10:16.559	$GPGGA,111016,2430.5926,N,08118.7424,W,1,7,2.7,19,M,,M,,*54
06/05/2014	11:10:17.572	$GPGGA,111017,2430.5921,N,08118.7449,W,1,7,2.7,19,M,,M,,*59
06/05/2014	11:10:18.699	$GPGGA,111018,2430.5915,N,08118.7475,W,1,7,2.3,19,M,,M,,*5A
06/05/2014	11:10:19.744	$GPGGA,111019,2430.5910,N,08118.7497,W,1,8,2.3,19,M,,M,,*5D
06/05/2014	11:10:20.656	$GPGGA,111020,2430.5904,N,08118.7522,W,1,8,2.3,19,M,,M,,*5D
06/05/2014	11:10:21.660	$GPGGA,111021,2430.5898,N,08118.7547,W,1,8,2.3,19,M,,M,,*5B
06/05/2014	11:10:22.798	$GPGGA,111022,2430.5891,N,08118.7572,W,1,8,2.3,19,M,,M,,*57
06/05/2014	11:10:23.833	$GPGGA,111023,2430.5885,N,08118.7599,W,1,6,2.7,19,M,,M,,*5C
06/05/2014	11:10:24.745	$GPGGA,111024,2430.5878,N,08118.7626,W,1,6,2.3,19,M,,M,,*5A
06/05/2014	11:10:25.872	$GPGGA,111025,2430.5871,N,08118.7652,W,1,8,2.3,19,M,,M,,*5F
06/05/2014	11:10:26.772	$GPGGA,111026,2430.5865,N,08118.7677,W,1,8,2.3,19,M,,M,,*5E
06/05/2014	11:10:27.828	$GPGGA,111027,2430.5858,N,08118.7702,W,1,8,2.3,19,M,,M,,*52
06/05/2014	11:10:28.852	$GPGGA,111028,2430.5853,N,08118.7727,W,1,8,2.3,19,M,,M,,*51
06/05/2014	11:10:29.866	$GPGGA,111029,2430.5845,N,08118.7750,W,1,8,2.3,19,M,,M,,*57
06/05/2014	11:10:30.912	$GPGGA,111030,2430.5839,N,08118.7775,W,1,8,2.3,19,M,,M,,*53
06/05/2014	11:10:32.028	$GPGGA,111031,2430.5831,N,08118.7800,W,1,8,2.3,19,M,,M,,*57
06/05/2014	11:10:32.930	$GPGGA,111032,2430.5824,N,08118.7823,W,1,8,2.3,18,M,,M,,*50
06/05/2014	11:10:32.592	$GPGGA,111033,2430.5817,N,08118.7848,W,1,8,2.3,18,M,,M,,*5C
06/05/2014	11:10:33.576	$GPGGA,111034,2430.5809,N,08118.7874,W,1,8,2.3,18,M,,M,,*5B
06/05/2014	11:10:34.601	$GPGGA,111035,2430.5802,N,08118.7901,W,1,8,2.2,18,M,,M,,*53
06/05/2014	11:10:35.656	$GPGGA,111036,2430.5793,N,08118.7926,W,1,8,2.2,18,M,,M,,*52
06/05/2014	11:10:36.651	$GPGGA,111037,2430.5786,N,08118.7952,W,1,8,2.2,18,M,,M,,*54
06/05/2014	11:10:37.674	$GPGGA,111038,2430.5779,N,08118.7978,W,1,8,2.2,18,M,,M,,*53
06/05/2014	11:10:38.709	$GPGGA,111039,2430.5771,N,08118.8004,W,1,8,2.2,18,M,,M,,*57
06/05/2014	11:10:39.734	$GPGGA,111040,2430.5763,N,08118.8029,W,1,8,2.2,18,M,,M,,*55
06/05/2014	11:10:40.748	$GPGGA,111041,2430.5755,N,08118.8056,W,1,8,2.2,18,M,,M,,*59
06/05/2014	11:10:41.763	$GPGGA,111042,2430.5748,N,08118.8081,W,1,8,2.2,18,M,,M,,*5C
06/05/2014	11:10:42.797	$GPGGA,111043,2430.5741,N,08118.8105,W,1,8,2.2,18,M,,M,,*59
06/05/2014	11:10:43.831	$GPGGA,111044,2430.5732,N,08118.8129,W,1,8,2.2,18,M,,M,,*54
06/05/2014	11:10:44.847	$GPGGA,111045,2430.5725,N,08118.8154,W,1,8,2.2,18,M,,M,,*59
06/05/2014	11:10:45.850	$GPGGA,111046,2430.5717,N,08118.8180,W,1,8,2.2,18,M,,M,,*52
06/05/2014	11:10:46.895	$GPGGA,111047,2430.5709,N,08118.8206,W,1,8,2.2,18,M,,M,,*51
06/05/2014	11:10:47.909	$GPGGA,111048,2430.5702,N,08118.8233,W,1,8,2.2,18,M,,M,,*53
06/05/2014	11:10:48.934	$GPGGA,111049,2430.5695,N,08118.8260,W,1,8,2.2,18,M,,M,,*5B
06/05/2014	11:10:49.945	$GPGGA,111050,2430.5687,N,08118.8285,W,1,8,2.2,18,M,,M,,*5B
06/05/2014	11:10:50.983	$GPGGA,111051,2430.5680,N,08118.8311,W,1,8,2.2,18,M,,M,,*51
06/05/2014	11:10:51.997	$GPGGA,111052,2430.5673,N,08118.8336,W,1,8,2.2,18,M,,M,,*5B
06/05/2014	11:10:53.042	$GPGGA,111053,2430.5665,N,08118.8361,W,1,8,2.2,18,M,,M,,*5F
06/05/2014	11:10:54.036	$GPGGA,111054,2430.5659,N,08118.8385,W,1,8,2.2,18,M,,M,,*5D
06/05/2014	11:10:55.112	$GPGGA,111055,2430.5651,N,08118.8410,W,1,8,2.2,18,M,,M,,*5F
06/05/2014	11:10:56.098	$GPGGA,111056,2430.5644,N,08118.8437,W,1,8,2.2,18,M,,M,,*5D
06/05/2014	11:10:57.090	$GPGGA,111057,2430.5636,N,08118.8464,W,1,6,2.7,17,M,,M,,*5B
06/05/2014	11:10:58.124	$GPGGA,111058,2430.5629,N,08118.8490,W,1,6,2.6,17,M,,M,,*50
06/05/2014	11:10:59.159	$GPGGA,111059,2430.5622,N,08118.8515,W,1,7,2.6,17,M,,M,,*57
06/05/2014	11:11:00.196	$GPGGA,111100,2430.5615,N,08118.8541,W,1,7,2.2,17,M,,M,,*5B
06/05/2014	11:11:01.228	$GPGGA,111101,2430.5609,N,08118.8566,W,1,8,2.2,17,M,,M,,*5D
06/05/2014	11:11:02.201	$GPGGA,111102,2430.5601,N,08118.8592,W,1,8,2.2,17,M,,M,,*5D
06/05/2014	11:11:03.267	$GPGGA,111103,2430.5596,N,08118.8617,W,1,8,2.2,17,M,,M,,*5F
06/05/2014	11:11:04.281	$GPGGA,111104,2430.5589,N,08118.8642,W,1,8,2.2,17,M,,M,,*56
06/05/2014	11:11:05.275	$GPGGA,111105,2430.5582,N,08118.8667,W,1,8,2.2,17,M,,M,,*5B
06/05/2014	11:11:06.310	$GPGGA,111106,2430.5576,N,08118.8692,W,1,8,2.2,17,M,,M,,*59
06/05/2014	11:11:07.335	$GPGGA,111107,2430.5571,N,08118.8718,W,1,8,2.2,17,M,,M,,*5C
06/05/2014	11:11:08.380	$GPGGA,111108,2430.5564,N,08118.8744,W,1,8,2.2,17,M,,M,,*5E
06/05/2014	11:11:09.384	$GPGGA,111109,2430.5558,N,08118.8770,W,1,8,2.2,17,M,,M,,*57
06/05/2014	11:11:10.388	$GPGGA,111110,2430.5551,N,08118.8797,W,1,8,2.2,17,M,,M,,*5F
06/05/2014	11:11:11.535	$GPGGA,111111,2430.5544,N,08118.8822,W,1,8,2.2,17,M,,M,,*5B
06/05/2014	11:11:12.458	$GPGGA,111112,2430.5538,N,08118.8848,W,1,8,2.2,17,M,,M,,*5F
06/05/2014	11:11:13.492	$GPGGA,111113,2430.5532,N,08118.8873,W,1,8,2.2,17,M,,M,,*5C
06/05/2014	11:11:14.476	$GPGGA,111114,2430.5526,N,08118.8899,W,1,8,2.2,17,M,,M,,*5A
06/05/2014	11:11:15.501	$GPGGA,111115,2430.5520,N,08118.8924,W,1,8,2.2,17,M,,M,,*5A
06/05/2014	11:11:16.535	$GPGGA,111116,2430.5513,N,08118.8949,W,1,8,2.2,17,M,,M,,*52
06/05/2014	11:11:17.560	$GPGGA,111117,2430.5508,N,08118.8975,W,1,8,2.2,17,M,,M,,*56
06/05/2014	11:11:18.666	$GPGGA,111118,2430.5502,N,08118.9001,W,1,8,2.2,17,M,,M,,*58
06/05/2014	11:11:19.690	$GPGGA,111119,2430.5495,N,08118.9028,W,1,8,2.2,17,M,,M,,*5D
06/05/2014	11:11:20.735	$GPGGA,111120,2430.5488,N,08118.9053,W,1,8,2.2,17,M,,M,,*57
06/05/2014	11:11:21.647	$GPGGA,111121,2430.5482,N,08118.9082,W,1,8,2.2,17,M,,M,,*50
06/05/2014	11:11:22.661	$GPGGA,111122,2430.5477,N,08118.9108,W,1,8,2.2,17,M,,M,,*5A
06/05/2014	11:11:23.820	$GPGGA,111123,2430.5470,N,08118.9134,W,1,8,2.2,17,M,,M,,*53
06/05/2014	11:11:24.813	$GPGGA,111124,2430.5463,N,08118.9160,W,1,8,2.2,17,M,,M,,*57
06/05/2014	11:11:25.838	$GPGGA,111125,2430.5459,N,08118.9185,W,1,8,2.2,17,M,,M,,*54
06/05/2014	11:11:26.852	$GPGGA,111126,2430.5452,N,08118.9209,W,1,8,2.2,17,M,,M,,*5B
06/05/2014	11:11:27.907	$GPGGA,111127,2430.5446,N,08118.9235,W,1,8,2.2,17,M,,M,,*50
06/05/2014	11:11:28.912	$GPGGA,111128,2430.5441,N,08118.9261,W,1,8,2.2,17,M,,M,,*59
06/05/2014	11:11:29.916	$GPGGA,111129,2430.5434,N,08118.9286,W,1,7,2.6,17,M,,M,,*58
06/05/2014	11:11:30.940	$GPGGA,111130,2430.5428,N,08118.9311,W,1,7,2.2,17,M,,M,,*56
06/05/2014	11:11:31.975	$GPGGA,111131,2430.5423,N,08118.9339,W,1,8,2.2,17,M,,M,,*59
06/05/2014	11:11:33.000	$GPGGA,111132,2430.5415,N,08118.9366,W,1,8,2.2,17,M,,M,,*55
06/05/2014	11:11:32.560	$GPGGA,111133,2430.5408,N,08118.9393,W,1,8,2.2,17,M,,M,,*52
06/05/2014	11:11:33.564	$GPGGA,111134,2430.5401,N,08118.9420,W,1,8,2.2,17,M,,M,,*53
06/05/2014	11:11:34.599	$GPGGA,111135,2430.5394,N,08118.9447,W,1,8,2.2,17,M,,M,,*58
06/05/2014	11:11:35.622	$GPGGA,111136,2430.5388,N,08118.9472,W,1,8,2.2,17,M,,M,,*50
06/05/2014	11:11:36.647	$GPGGA,111137,2430.5381,N,08118.9496,W,1,8,2.2,17,M,,M,,*52
06/05/2014	11:11:37.651	$GPGGA,111138,2430.5376,N,08118.9521,W,1,8,2.2,17,M,,M,,*58
06/05/2014	11:11:38.686	$GPGGA,111139,2430.5367,N,08118.9548,W,1,8,2.2,17,M,,M,,*56
06/05/2014	11:11:39.710	$GPGGA,111140,2430.5360,N,08118.9574,W,1,8,2.6,17,M,,M,,*54
06/05/2014	11:11:40.735	$GPGGA,111141,2430.5354,N,08118.9599,W,1,7,2.6,17,M,,M,,*5E
06/05/2014	11:11:41.729	$GPGGA,111142,2430.5347,N,08118.9624,W,1,7,2.2,17,M,,M,,*5E
06/05/2014	11:11:42.774	$GPGGA,111143,2430.5340,N,08118.9650,W,1,8,2.2,17,M,,M,,*54
06/05/2014	11:11:44.813	$GPGGA,111144,2430.5332,N,08118.9675,W,1,8,2.2,17,M,,M,,*51
06/05/2014	11:11:44.833	$GPGGA,111145,2430.5324,N,08118.9701,W,1,8,2.2,17,M,,M,,*55
06/05/2014	11:11:45.837	$GPGGA,111146,2430.5318,N,08118.9726,W,1,8,2.2,17,M,,M,,*5C
06/05/2014	11:11:46.872	$GPGGA,111147,2430.5311,N,08118.9751,W,1,8,2.2,17,M,,M,,*54
06/05/2014	11:11:47.907	$GPGGA,111148,2430.5304,N,08118.9776,W,1,8,2.2,17,M,,M,,*5A
06/05/2014	11:11:48.901	$GPGGA,111149,2430.5297,N,08118.9801,W,1,8,2.2,17,M,,M,,*5F
