Software Version Number: 1	Data File Format Number: 1	Build Version Number: 1	Error Count Since VI Started: 0	Manufacturer: Raytheon	 Model Number: RayMarine 120	 S/N: 	 Cal Date: 	 Wind Direction Offset: 0.00	 Slope (M)1: 0.00	 Offset (B)1: 0.00	 Slope (M)2: 0.00	 Offset (B)2: 0.00	 Slope (M)3: 0.00	 Offset (B)3: 0.00	 Slope (M)4: 0.00	 Offset (B)4: 0.00	 Slope (M)5: 0.00	 Offset (B)5: 0.00	 Slope (M)6: 0.00	 Offset (B)6: 0.00
Computer Date	Computer Time	GGA String
06/06/2014	11:00:00.801	$GPGGA,110001,2436.1340,N,08124.4299,W,1,7,2.4,17,M,,M,,*5A
06/06/2014	11:00:01.592	$GPGGA,110002,2436.1334,N,08124.4324,W,1,7,2.4,17,M,,M,,*5D
06/06/2014	11:00:02.619	$GPGGA,110003,2436.1327,N,08124.4350,W,1,7,2.4,17,M,,M,,*5D
06/06/2014	11:00:03.605	$GPGGA,110004,2436.1320,N,08124.4378,W,1,7,2.4,17,M,,M,,*57
06/06/2014	11:00:04.642	$GPGGA,110005,2436.1312,N,08124.4407,W,1,6,2.9,17,M,,M,,*54
06/06/2014	11:00:05.618	$GPGGA,110006,2436.1305,N,08124.4433,W,1,6,2.8,17,M,,M,,*57
06/06/2014	11:00:06.604	$GPGGA,110007,2436.1297,N,08124.4460,W,1,8,2.3,17,M,,M,,*5F
06/06/2014	11:00:07.630	$GPGGA,110008,2436.1290,N,08124.4488,W,1,8,2.8,17,M,,M,,*5A
06/06/2014	11:00:08.657	$GPGGA,110009,2436.1283,N,08124.4516,W,1,7,2.8,17,M,,M,,*50
06/06/2014	11:00:09.673	$GPGGA,110010,2436.1276,N,08124.4541,W,1,7,2.8,17,M,,M,,*50
06/06/2014	11:00:10.659	$GPGGA,110011,2436.1268,N,08124.4567,W,1,8,2.3,17,M,,M,,*5E
06/06/2014	11:00:11.635	$GPGGA,110012,2436.1261,N,08124.4595,W,1,8,2.8,17,M,,M,,*52
06/06/2014	11:00:12.662	$GPGGA,110013,2436.1254,N,08124.4622,W,1,7,2.8,17,M,,M,,*55
06/06/2014	11:00:13.639	$GPGGA,110014,2436.1246,N,08124.4646,W,1,7,2.8,17,M,,M,,*53
06/06/2014	11:00:14.683	$GPGGA,110015,2436.1239,N,08124.4671,W,1,8,2.3,16,M,,M,,*5B
06/06/2014	11:00:15.770	$GPGGA,110016,2436.1232,N,08124.4694,W,1,8,2.3,16,M,,M,,*58
06/06/2014	11:00:16.656	$GPGGA,110017,2436.1226,N,08124.4720,W,1,8,2.3,16,M,,M,,*52
06/06/2014	11:00:17.652	$GPGGA,110018,2436.1218,N,08124.4748,W,1,8,2.3,16,M,,M,,*5E
06/06/2014	11:00:18.678	$GPGGA,110019,2436.1211,N,08124.4774,W,1,7,2.8,16,M,,M,,*5D
06/06/2014	11:00:19.675	$GPGGA,110020,2436.1203,N,08124.4801,W,1,7,2.3,16,M,,M,,*52
06/06/2014	11:00:20.802	$GPGGA,110021,2436.1196,N,08124.4830,W,1,7,2.8,16,M,,M,,*55
06/06/2014	11:00:21.678	$GPGGA,110022,2436.1189,N,08124.4857,W,1,7,2.8,16,M,,M,,*59
06/06/2014	11:00:22.684	$GPGGA,110023,2436.1180,N,08124.4884,W,1,7,2.8,16,M,,M,,*5F
06/06/2014	11:00:23.690	$GPGGA,110024,2436.1174,N,08124.4910,W,1,7,2.8,16,M,,M,,*5F
06/06/2014	11:00:24.797	$GPGGA,110025,2436.1165,N,08124.4939,W,1,8,2.3,16,M,,M,,*51
06/06/2014	11:00:25.783	$GPGGA,110026,2436.1158,N,08124.4964,W,1,8,2.8,16,M,,M,,*5F
06/06/2014	11:00:26.789	$GPGGA,110027,2436.1150,N,08124.4990,W,1,8,2.3,16,M,,M,,*56
06/06/2014	11:00:27.806	$GPGGA,110028,2436.1143,N,08124.5014,W,1,8,2.8,16,M,,M,,*54
06/06/2014	11:00:28.822	$GPGGA,110029,2436.1136,N,08124.5037,W,1,8,2.3,16,M,,M,,*5D
06/06/2014	11:00:29.798	$GPGGA,110030,2436.1128,N,08124.5065,W,1,8,2.3,16,M,,M,,*5D
06/06/2014	11:00:30.804	$GPGGA,110031,2436.1120,N,08124.5092,W,1,7,2.8,16,M,,M,,*58
06/06/2014	11:00:31.811	$GPGGA,110032,2436.1113,N,08124.5112,W,1,7,2.8,16,M,,M,,*52
06/06/2014	11:00:32.837	$GPGGA,110033,2436.1106,N,08124.5137,W,1,8,2.3,16,M,,M,,*54
06/06/2014	11:00:33.822	$GPGGA,110034,2436.1099,N,08124.5160,W,1,8,2.3,16,M,,M,,*56
06/06/2014	11:00:34.889	$GPGGA,110035,2436.1091,N,08124.5188,W,1,8,2.3,16,M,,M,,*59
06/06/2014	11:00:35.470	$GPGGA,110036,2436.1082,N,08124.5214,W,1,8,2.8,16,M,,M,,*55
06/06/2014	11:00:36.476	$GPGGA,110037,2436.1075,N,08124.5238,W,1,7,2.8,16,M,,M,,*5D
06/06/2014	11:00:37.462	$GPGGA,110038,2436.1066,N,08124.5267,W,1,7,2.3,16,M,,M,,*51
06/06/2014	11:00:38.479	$GPGGA,110039,2436.1059,N,08124.5292,W,1,8,2.3,16,M,,M,,*59
06/06/2014	11:00:39.475	$GPGGA,110040,2436.1052,N,08124.5315,W,1,8,2.3,16,M,,M,,*52
06/06/2014	11:00:40.491	$GPGGA,110041,2436.1045,N,08124.5339,W,1,8,2.3,16,M,,M,,*5B
06/06/2014	11:00:41.478	$GPGGA,110042,2436.1037,N,08124.5366,W,1,8,2.3,16,M,,M,,*57
06/06/2014	11:00:42.504	$GPGGA,110043,2436.1030,N,08124.5394,W,1,7,2.8,16,M,,M,,*58
06/06/2014	11:00:43.500	$GPGGA,110044,2436.1023,N,08124.5415,W,1,7,2.8,16,M,,M,,*53
06/06/2014	11:00:44.517	$GPGGA,110045,2436.1017,N,08124.5439,W,1,7,2.4,16,M,,M,,*57
06/06/2014	11:00:45.504	$GPGGA,110046,2436.1012,N,08124.5463,W,1,7,2.4,17,M,,M,,*5F
06/06/2014	11:00:46.529	$GPGGA,110047,2436.1004,N,08124.5488,W,1,7,2.4,17,M,,M,,*5C
06/06/2014	11:00:47.515	$GPGGA,110048,2436.0999,N,08124.5513,W,1,7,2.4,17,M,,M,,*5C
06/06/2014	11:00:48.533	$GPGGA,110049,2436.0992,N,08124.5538,W,1,7,2.4,17,M,,M,,*5F
06/06/2014	11:00:49.507	$GPGGA,110050,2436.0986,N,08124.5561,W,1,7,2.4,17,M,,M,,*5E
06/06/2014	11:00:50.523	$GPGGA,110051,2436.0979,N,08124.5589,W,1,8,2.3,17,M,,M,,*51
06/06/2014	11:00:51.540	$GPGGA,110052,2436.0973,N,08124.5614,W,1,8,2.3,17,M,,M,,*5F
06/06/2014	11:00:52.516	$GPGGA,110053,2436.0966,N,08124.5640,W,1,8,2.3,17,M,,M,,*5B
06/06/2014	11:00:53.542	$GPGGA,110054,2436.0961,N,08124.5666,W,1,8,2.3,17,M,,M,,*5F
06/06/2014	11:00:54.558	$GPGGA,110055,2436.0954,N,08124.5695,W,1,8,2.3,18,M,,M,,*5B
06/06/2014	11:00:55.555	$GPGGA,110056,2436.0947,N,08124.5722,W,1,8,2.8,18,M,,M,,*5C
06/06/2014	11:00:56.652	$GPGGA,110057,2436.0940,N,08124.5749,W,1,8,2.3,18,M,,M,,*5C
06/06/2014	11:00:57.557	$GPGGA,110058,2436.0933,N,08124.5775,W,1,8,2.3,18,M,,M,,*58
06/06/2014	11:00:58.564	$GPGGA,110059,2436.0926,N,08124.5802,W,1,8,2.3,18,M,,M,,*52
06/06/2014	11:00:59.581	$GPGGA,110100,2436.0920,N,08124.5828,W,1,8,2.3,18,M,,M,,*51
06/06/2014	11:01:00.546	$GPGGA,110101,2436.0914,N,08124.5854,W,1,8,2.3,18,M,,M,,*5C
06/06/2014	11:01:01.572	$GPGGA,110102,2436.0907,N,08124.5881,W,1,8,2.3,18,M,,M,,*55
06/06/2014	11:01:02.699	$GPGGA,110103,2436.0901,N,08124.5907,W,1,8,2.3,18,M,,M,,*5D
06/06/2014	11:01:03.585	$GPGGA,110104,2436.0894,N,08124.5933,W,1,8,2.3,18,M,,M,,*50
06/06/2014	11:01:04.571	$GPGGA,110105,2436.0887,N,08124.5961,W,1,8,2.3,18,M,,M,,*54
06/06/2014	11:01:05.567	$GPGGA,110106,2436.0882,N,08124.5986,W,1,8,2.3,18,M,,M,,*5B
06/06/2014	11:01:06.674	$GPGGA,110107,2436.0875,N,08124.6013,W,1,8,2.3,18,M,,M,,*54
06/06/2014	11:01:07.589	$GPGGA,110108,2436.0869,N,08124.6040,W,1,8,2.3,19,M,,M,,*51
06/06/2014	11:01:08.706	$GPGGA,110109,2436.0862,N,08124.6066,W,1,8,2.3,19,M,,M,,*5F
06/06/2014	11:01:09.692	$GPGGA,110110,2436.0855,N,08124.6091,W,1,8,2.3,19,M,,M,,*5B
06/06/2014	11:01:10.719	$GPGGA,110111,2436.0849,N,08124.6117,W,1,8,2.3,19,M,,M,,*58
06/06/2014	11:01:11.624	$GPGGA,110112,2436.0842,N,08124.6145,W,1,8,2.4,19,M,,M,,*50
06/06/2014	11:01:12.711	$GPGGA,110113,2436.0835,N,08124.6170,W,1,6,2.9,19,M,,M,,*54
06/06/2014	11:01:13.617	$GPGGA,110114,2436.0828,N,08124.6197,W,1,6,2.4,19,M,,M,,*5B
06/06/2014	11:01:14.613	$GPGGA,110115,2436.0820,N,08124.6225,W,1,6,2.9,19,M,,M,,*55
06/06/2014	11:01:15.720	$GPGGA,110116,2436.0813,N,08124.6253,W,1,6,2.9,19,M,,M,,*57
06/06/2014	11:01:16.736	$GPGGA,110117,2436.0806,N,08124.6279,W,1,6,2.9,19,M,,M,,*5A
06/06/2014	11:01:17.743	$GPGGA,110118,2436.0799,N,08124.6308,W,1,6,2.9,18,M,,M,,*5A
06/06/2014	11:01:18.739	$GPGGA,110119,2436.0791,N,08124.6334,W,1,6,2.9,18,M,,M,,*5C
06/06/2014	11:01:19.745	$GPGGA,110120,2436.0784,N,08124.6362,W,1,6,2.9,18,M,,M,,*51
06/06/2014	11:01:20.731	$GPGGA,110121,2436.0777,N,08124.6388,W,1,6,2.9,18,M,,M,,*58
06/06/2014	11:01:21.748	$GPGGA,110122,2436.0770,N,08124.6416,W,1,6,2.9,18,M,,M,,*5C
06/06/2014	11:01:22.764	$GPGGA,110123,2436.0761,N,08124.6443,W,1,6,2.9,18,M,,M,,*5D
06/06/2014	11:01:23.761	$GPGGA,110124,2436.0755,N,08124.6470,W,1,6,2.8,17,M,,M,,*53
06/06/2014	11:01:24.745	$GPGGA,110125,2436.0746,N,08124.6499,W,1,7,2.8,17,M,,M,,*56
06/06/2014	11:01:25.762	$GPGGA,110126,2436.0739,N,08124.6528,W,1,7,2.8,17,M,,M,,*56
06/06/2014	11:01:26.778	$GPGGA,110127,2436.0732,N,08124.6550,W,1,7,2.8,17,M,,M,,*53
06/06/2014	11:01:27.784	$GPGGA,110128,2436.0725,N,08124.6576,W,1,7,2.3,17,M,,M,,*55
06/06/2014	11:01:28.801	$GPGGA,110129,2436.0719,N,08124.6600,W,1,8,2.3,17,M,,M,,*56
06/06/2014	11:01:29.777	$GPGGA,110130,2436.0712,N,08124.6624,W,1,8,2.3,17,M,,M,,*53
06/06/2014	11:01:30.803	$GPGGA,110131,2436.0703,N,08124.6649,W,1,8,2.3,17,M,,M,,*59
06/06/2014	11:01:31.800	$GPGGA,110132,2436.0695,N,08124.6676,W,1,8,2.3,17,M,,M,,*58
06/06/2014	11:01:32.786	$GPGGA,110133,2436.0687,N,08124.6705,W,1,7,2.8,17,M,,M,,*5B
06/06/2014	11:01:33.802	$GPGGA,110134,2436.0679,N,08124.6730,W,1,7,2.8,17,M,,M,,*5B
06/06/2014	11:01:34.818	$GPGGA,110135,2436.0672,N,08124.6753,W,1,8,2.3,17,M,,M,,*50
06/06/2014	11:01:35.439	$GPGGA,110136,2436.0665,N,08124.6777,W,1,8,2.3,17,M,,M,,*53
06/06/2014	11:01:36.445	$GPGGA,110137,2436.0658,N,08124.6806,W,1,8,2.3,18,M,,M,,*5A
06/06/2014	11:01:37.441	$GPGGA,110138,2436.0650,N,08124.6829,W,1,8,2.8,18,M,,M,,*5B
06/06/2014	11:01:38.438	$GPGGA,110139,2436.0643,N,08124.6854,W,1,8,2.3,18,M,,M,,*59
06/06/2014	11:01:39.444	$GPGGA,110140,2436.0636,N,08124.6880,W,1,8,2.3,18,M,,M,,*5C
06/06/2014	11:01:40.440	$GPGGA,110141,2436.0627,N,08124.6905,W,1,8,2.3,18,M,,M,,*51
06/06/2014	11:01:41.456	$GPGGA,110142,2436.0620,N,08124.6930,W,1,8,2.3,18,M,,M,,*53
06/06/2014	11:01:42.482	$GPGGA,110143,2436.0612,N,08124.6955,W,1,8,2.3,18,M,,M,,*50
06/06/2014	11:01:43.478	$GPGGA,110144,2436.0605,N,08124.6980,W,1,8,2.3,18,M,,M,,*59
06/06/2014	11:01:44.635	$GPGGA,110145,2436.0598,N,08124.7005,W,1,8,2.3,18,M,,M,,*5A
06/06/2014	11:01:45.460	$GPGGA,110146,2436.0590,N,08124.7032,W,1,8,2.3,18,M,,M,,*55
06/06/2014	11:01:46.467	$GPGGA,110147,2436.0584,N,08124.7048,W,1,7,2.8,19,M,,M,,*59
06/06/2014	11:01:47.503	$GPGGA,110148,2436.0578,N,08124.7071,W,1,7,2.3,19,M,,M,,*54
06/06/2014	11:01:48.479	$GPGGA,110149,2436.0571,N,08124.7100,W,1,8,2.3,19,M,,M,,*54
06/06/2014	11:01:49.486	$GPGGA,110150,2436.0562,N,08124.7128,W,1,8,2.8,19,M,,M,,*5F
06/06/2014	11:01:50.674	$GPGGA,110151,2436.0554,N,08124.7157,W,1,6,2.8,19,M,,M,,*5D
06/06/2014	11:01:51.508	$GPGGA,110152,2436.0547,N,08124.7183,W,1,6,2.8,19,M,,M,,*55
06/06/2014	11:01:52.500	$GPGGA,110153,2436.0542,N,08124.7207,W,1,6,2.8,19,M,,M,,*5E
06/06/2014	11:01:53.501	$GPGGA,110154,2436.0533,N,08124.7236,W,1,6,2.4,19,M,,M,,*51
06/06/2014	11:01:54.497	$GPGGA,110155,2436.0525,N,08124.7263,W,1,7,2.8,19,M,,M,,*5A
06/06/2014	11:01:55.654	$GPGGA,110156,2436.0519,N,08124.7291,W,1,7,2.8,19,M,,M,,*5B
06/06/2014	11:01:56.520	$GPGGA,110157,2436.0513,N,08124.7316,W,1,7,2.8,19,M,,M,,*5E
06/06/2014	11:01:57.657	$GPGGA,110158,2436.0506,N,08124.7341,W,1,7,2.3,19,M,,M,,*5C
06/06/2014	11:01:58.703	$GPGGA,110159,2436.0499,N,08124.7367,W,1,8,2.3,19,M,,M,,*51
06/06/2014	11:01:59.689	$GPGGA,110200,2436.0492,N,08124.7395,W,1,8,2.8,19,M,,M,,*53
06/06/2014	11:02:00.725	$GPGGA,110201,2436.0486,N,08124.7420,W,1,7,2.3,19,M,,M,,*5A
06/06/2014	11:02:01.651	$GPGGA,110202,2436.0480,N,08124.7446,W,1,7,2.3,19,M,,M,,*5F
06/06/2014	11:02:02.637	$GPGGA,110203,2436.0473,N,08124.7471,W,1,8,2.3,19,M,,M,,*59
06/06/2014	11:02:03.714	$GPGGA,110204,2436.0467,N,08124.7497,W,1,8,2.3,19,M,,M,,*53
06/06/2014	11:02:04.750	$GPGGA,110205,2436.0462,N,08124.7522,W,1,8,2.3,19,M,,M,,*58
06/06/2014	11:02:05.677	$GPGGA,110206,2436.0456,N,08124.7547,W,1,8,2.3,19,M,,M,,*5F
06/06/2014	11:02:06.753	$GPGGA,110207,2436.0452,N,08124.7572,W,1,8,2.3,19,M,,M,,*5C
06/06/2014	11:02:07.709	$GPGGA,110208,2436.0445,N,08124.7598,W,1,8,2.3,20,M,,M,,*5B
06/06/2014	11:02:08.765	$GPGGA,110209,2436.0441,N,08124.7621,W,1,8,2.3,20,M,,M,,*5F
06/06/2014	11:02:09.661	$GPGGA,110210,2436.0435,N,08124.7645,W,1,8,2.3,20,M,,M,,*56
06/06/2014	11:02:10.728	$GPGGA,110211,2436.0430,N,08124.7671,W,1,8,2.3,20,M,,M,,*55
06/06/2014	11:02:11.734	$GPGGA,110212,2436.0423,N,08124.7695,W,1,8,2.3,20,M,,M,,*5E
06/06/2014	11:02:12.791	$GPGGA,110213,2436.0419,N,08124.7721,W,1,8,2.3,20,M,,M,,*58
06/06/2014	11:02:13.686	$GPGGA,110214,2436.0412,N,08124.7746,W,1,8,2.3,20,M,,M,,*55
06/06/2014	11:02:14.793	$GPGGA,110215,2436.0406,N,08124.7771,W,1,8,2.3,21,M,,M,,*54
06/06/2014	11:02:15.729	$GPGGA,110216,2436.0401,N,08124.7796,W,1,8,2.3,21,M,,M,,*59
06/06/2014	11:02:16.685	$GPGGA,110217,2436.0395,N,08124.7822,W,1,8,2.3,21,M,,M,,*52
06/06/2014	11:02:17.720	$GPGGA,110218,2436.0387,N,08124.7851,W,1,8,2.8,21,M,,M,,*51
06/06/2014	11:02:18.697	$GPGGA,110219,2436.0380,N,08124.7880,W,1,7,2.8,21,M,,M,,*54
06/06/2014	11:02:19.743	$GPGGA,110220,2436.0376,N,08124.7905,W,1,7,2.3,21,M,,M,,*50
06/06/2014	11:02:20.709	$GPGGA,110221,2436.0368,N,08124.7930,W,1,8,2.3,21,M,,M,,*57
06/06/2014	11:02:21.746	$GPGGA,110222,2436.0362,N,08124.7955,W,1,8,2.3,21,M,,M,,*5D
06/06/2014	11:02:22.712	$GPGGA,110223,2436.0355,N,08124.7984,W,1,8,2.3,21,M,,M,,*54
06/06/2014	11:02:23.758	$GPGGA,110224,2436.0348,N,08124.8013,W,1,8,2.8,21,M,,M,,*5C
06/06/2014	11:02:24.724	$GPGGA,110225,2436.0341,N,08124.8042,W,1,7,2.8,21,M,,M,,*5F
06/06/2014	11:02:25.761	$GPGGA,110226,2436.0333,N,08124.8071,W,1,7,2.8,21,M,,M,,*59
06/06/2014	11:02:26.727	$GPGGA,110227,2436.0326,N,08124.8098,W,1,7,2.8,21,M,,M,,*5B
06/06/2014	11:02:27.773	$GPGGA,110228,2436.0319,N,08124.8128,W,1,7,2.8,21,M,,M,,*52
06/06/2014	11:02:28.850	$GPGGA,110229,2436.0312,N,08124.8154,W,1,7,2.8,21,M,,M,,*53
06/06/2014	11:02:29.866	$GPGGA,110230,2436.0304,N,08124.8181,W,1,7,2.3,20,M,,M,,*5E
06/06/2014	11:02:30.835	$GPGGA,110231,2436.0297,N,08124.8209,W,1,8,2.8,20,M,,M,,*53
06/06/2014	11:02:31.799	$GPGGA,110232,2436.0290,N,08124.8237,W,1,8,2.8,20,M,,M,,*5A
06/06/2014	11:02:32.855	$GPGGA,110233,2436.0283,N,08124.8260,W,1,6,2.8,20,M,,M,,*55
06/06/2014	11:02:33.761	$GPGGA,110234,2436.0276,N,08124.8287,W,1,6,2.3,20,M,,M,,*5A
06/06/2014	11:02:34.865	$GPGGA,110235,2436.0268,N,08124.8314,W,1,8,2.8,20,M,,M,,*5A
06/06/2014	11:02:35.456	$GPGGA,110236,2436.0261,N,08124.8338,W,1,8,2.3,19,M,,M,,*5F
06/06/2014	11:02:36.484	$GPGGA,110237,2436.0255,N,08124.8361,W,1,8,2.3,19,M,,M,,*55
06/06/2014	11:02:37.402	$GPGGA,110238,2436.0248,N,08124.8385,W,1,8,2.3,19,M,,M,,*5C
06/06/2014	11:02:38.517	$GPGGA,110239,2436.0242,N,08124.8410,W,1,7,2.4,19,M,,M,,*54
06/06/2014	11:02:39.463	$GPGGA,110240,2436.0235,N,08124.8436,W,1,7,2.3,19,M,,M,,*59
06/06/2014	11:02:40.509	$GPGGA,110241,2436.0228,N,08124.8462,W,1,8,2.3,19,M,,M,,*5A
06/06/2014	11:02:41.528	$GPGGA,110242,2436.0219,N,08124.8488,W,1,8,2.3,19,M,,M,,*5F
06/06/2014	11:02:42.562	$GPGGA,110243,2436.0211,N,08124.8515,W,1,8,2.3,19,M,,M,,*53
06/06/2014	11:02:43.559	$GPGGA,110244,2436.0204,N,08124.8541,W,1,8,2.3,19,M,,M,,*51
06/06/2014	11:02:44.525	$GPGGA,110245,2436.0196,N,08124.8567,W,1,8,2.3,19,M,,M,,*5C
06/06/2014	11:02:45.460	$GPGGA,110246,2436.0188,N,08124.8594,W,1,8,2.3,19,M,,M,,*5C
06/06/2014	11:02:46.527	$GPGGA,110247,2436.0181,N,08124.8620,W,1,8,2.3,19,M,,M,,*58
06/06/2014	11:02:47.564	$GPGGA,110248,2436.0172,N,08124.8645,W,1,8,2.3,19,M,,M,,*58
06/06/2014	11:02:48.600	$GPGGA,110249,2436.0164,N,08124.8671,W,1,8,2.3,19,M,,M,,*59
06/06/2014	11:02:49.547	$GPGGA,110250,2436.0157,N,08124.8696,W,1,8,2.3,19,M,,M,,*58
06/06/2014	11:02:50.584	$GPGGA,110251,2436.0149,N,08124.8722,W,1,8,2.3,19,M,,M,,*58
06/06/2014	11:02:51.578	$GPGGA,110252,2436.0141,N,08124.8748,W,1,8,2.3,19,M,,M,,*5F
06/06/2014	11:02:52.574	$GPGGA,110253,2436.0134,N,08124.8775,W,1,8,2.3,19,M,,M,,*52
06/06/2014	11:02:53.571	$GPGGA,110254,2436.0125,N,08124.8801,W,1,8,2.3,19,M,,M,,*59
06/06/2014	11:02:54.607	$GPGGA,110255,2436.0117,N,08124.8826,W,1,8,2.3,19,M,,M,,*5C
06/06/2014	11:02:55.593	$GPGGA,110256,2436.0108,N,08124.8852,W,1,8,2.3,19,M,,M,,*52
06/06/2014	11:02:56.599	$GPGGA,110257,2436.0101,N,08124.8878,W,1,8,2.3,19,M,,M,,*52
06/06/2014	11:02:57.595	$GPGGA,110258,2436.0094,N,08124.8905,W,1,8,2.3,19,M,,M,,*5B
06/06/2014	11:02:58.622	$GPGGA,110259,2436.0087,N,08124.8930,W,1,8,2.3,19,M,,M,,*5E
06/06/2014	11:02:59.658	$GPGGA,110300,2436.0078,N,08124.8956,W,1,8,2.3,19,M,,M,,*53
06/06/2014	11:03:00.705	$GPGGA,110301,2436.0071,N,08124.8981,W,1,8,2.3,19,M,,M,,*51
06/06/2014	11:03:01.611	$GPGGA,110302,2436.0063,N,08124.9007,W,1,8,2.3,19,M,,M,,*57
06/06/2014	11:03:02.637	$GPGGA,110303,2436.0058,N,08124.9032,W,1,8,2.4,19,M,,M,,*5F
06/06/2014	11:03:03.623	$GPGGA,110304,2436.0051,N,08124.9057,W,1,8,2.4,19,M,,M,,*52
06/06/2014	11:03:04.671	$GPGGA,110305,2436.0042,N,08124.9083,W,1,7,2.3,19,M,,M,,*50
06/06/2014	11:03:05.636	$GPGGA,110306,2436.0036,N,08124.9108,W,1,7,2.4,19,M,,M,,*55
06/06/2014	11:03:06.663	$GPGGA,110307,2436.0029,N,08124.9136,W,1,7,2.8,19,M,,M,,*5B
06/06/2014	11:03:07.648	$GPGGA,110308,2436.0020,N,08124.9163,W,1,7,2.7,19,M,,M,,*52
06/06/2014	11:03:08.675	$GPGGA,110309,2436.0012,N,08124.9191,W,1,7,2.7,19,M,,M,,*5F
06/06/2014	11:03:09.650	$GPGGA,110310,2436.0005,N,08124.9220,W,1,7,2.7,19,M,,M,,*58
06/06/2014	11:03:10.676	$GPGGA,110311,2435.9998,N,08124.9248,W,1,7,2.7,19,M,,M,,*50
06/06/2014	11:03:11.673	$GPGGA,110312,2435.9991,N,08124.9274,W,1,7,2.7,19,M,,M,,*55
06/06/2014	11:03:12.699	$GPGGA,110313,2435.9984,N,08124.9301,W,1,7,2.7,18,M,,M,,*52
06/06/2014	11:03:13.665	$GPGGA,110314,2435.9976,N,08124.9331,W,1,7,2.7,18,M,,M,,*5B
06/06/2014	11:03:14.712	$GPGGA,110315,2435.9969,N,08124.9357,W,1,8,2.7,18,M,,M,,*5B
06/06/2014	11:03:15.698	$GPGGA,110316,2435.9964,N,08124.9383,W,1,8,2.7,18,M,,M,,*5C
06/06/2014	11:03:16.805	$GPGGA,110317,2435.9957,N,08124.9409,W,1,7,2.7,18,M,,M,,*57
06/06/2014	11:03:17.680	$GPGGA,110318,2435.9950,N,08124.9436,W,1,7,2.7,18,M,,M,,*53
06/06/2014	11:03:18.686	$GPGGA,110319,2435.9950,N,08124.9436,W,1,7,2.7,18,M,,M,,*52
06/06/2014	11:03:19.713	$GPGGA,110320,2435.9937,N,08124.9488,W,1,7,2.7,18,M,,M,,*5C
06/06/2014	11:03:20.750	$GPGGA,110321,2435.9930,N,08124.9514,W,1,7,2.7,18,M,,M,,*5E
06/06/2014	11:03:21.786	$GPGGA,110322,2435.9924,N,08124.9541,W,1,7,2.7,18,M,,M,,*58
06/06/2014	11:03:22.702	$GPGGA,110323,2435.9924,N,08124.9541,W,1,7,2.7,17,M,,M,,*56
06/06/2014	11:03:23.819	$GPGGA,110324,2435.9910,N,08124.9593,W,1,7,2.7,17,M,,M,,*59
06/06/2014	11:03:24.785	$GPGGA,110325,2435.9903,N,08124.9621,W,1,7,2.7,17,M,,M,,*50
06/06/2014	11:03:25.821	$GPGGA,110326,2435.9896,N,08124.9646,W,1,7,2.7,17,M,,M,,*5F
06/06/2014	11:03:26.711	$GPGGA,110327,2435.9896,N,08124.9646,W,1,8,2.3,17,M,,M,,*55
06/06/2014	11:03:27.813	$GPGGA,110328,2435.9884,N,08124.9696,W,1,8,2.3,17,M,,M,,*54
06/06/2014	11:03:28.748	$GPGGA,110329,2435.9884,N,08124.9696,W,1,8,2.3,17,M,,M,,*55
06/06/2014	11:03:29.825	$GPGGA,110330,2435.9872,N,08124.9743,W,1,8,2.3,17,M,,M,,*5D
06/06/2014	11:03:30.862	$GPGGA,110331,2435.9865,N,08124.9766,W,1,8,2.3,17,M,,M,,*5D
06/06/2014	11:03:31.747	$GPGGA,110332,2435.9865,N,08124.9766,W,1,8,2.3,17,M,,M,,*5E
06/06/2014	11:03:32.844	$GPGGA,110333,2435.9853,N,08124.9816,W,1,6,2.8,17,M,,M,,*57
06/06/2014	11:03:33.840	$GPGGA,110334,2435.9846,N,08124.9839,W,1,6,2.3,17,M,,M,,*52
06/06/2014	11:03:34.877	$GPGGA,110335,2435.9841,N,08124.9863,W,1,8,2.3,17,M,,M,,*55
06/06/2014	11:03:35.488	$GPGGA,110336,2435.9834,N,08124.9888,W,1,8,2.4,17,M,,M,,*56
06/06/2014	11:03:36.514	$GPGGA,110337,2435.9834,N,08124.9888,W,1,7,2.4,17,M,,M,,*58
06/06/2014	11:03:37.470	$GPGGA,110338,2435.9818,N,08124.9938,W,1,7,2.3,17,M,,M,,*54
06/06/2014	11:03:38.497	$GPGGA,110339,2435.9811,N,08124.9962,W,1,8,2.3,17,M,,M,,*5C
06/06/2014	11:03:39.503	$GPGGA,110340,2435.9803,N,08124.9989,W,1,8,2.3,17,M,,M,,*54
06/06/2014	11:03:40.511	$GPGGA,110341,2435.9795,N,08125.0014,W,1,8,2.3,17,M,,M,,*50
06/06/2014	11:03:41.506	$GPGGA,110342,2435.9788,N,08125.0040,W,1,8,2.3,17,M,,M,,*5E
06/06/2014	11:03:42.524	$GPGGA,110343,2435.9780,N,08125.0065,W,1,8,2.3,17,M,,M,,*50
06/06/2014	11:03:43.518	$GPGGA,110344,2435.9771,N,08125.0091,W,1,8,2.3,17,M,,M,,*52
06/06/2014	11:03:44.535	$GPGGA,110345,2435.9763,N,08125.0117,W,1,8,2.3,18,M,,M,,*50
06/06/2014	11:03:45.510	$GPGGA,110346,2435.9755,N,08125.0144,W,1,8,2.3,18,M,,M,,*50
06/06/2014	11:03:46.536	$GPGGA,110347,2435.9747,N,08125.0170,W,1,8,2.3,18,M,,M,,*55
06/06/2014	11:03:47.542	$GPGGA,110348,2435.9740,N,08125.0195,W,1,8,2.3,18,M,,M,,*56
06/06/2014	11:03:48.529	$GPGGA,110349,2435.9731,N,08125.0221,W,1,8,2.3,18,M,,M,,*5D
06/06/2014	11:03:49.525	$GPGGA,110350,2435.9723,N,08125.0246,W,1,8,2.3,18,M,,M,,*57
06/06/2014	11:03:50.531	$GPGGA,110351,2435.9715,N,08125.0272,W,1,8,2.3,18,M,,M,,*54
06/06/2014	11:03:51.538	$GPGGA,110352,2435.9707,N,08125.0298,W,1,8,2.3,18,M,,M,,*50
06/06/2014	11:03:52.564	$GPGGA,110353,2435.9700,N,08125.0325,W,1,8,2.3,18,M,,M,,*51
06/06/2014	11:03:53.560	$GPGGA,110354,2435.9691,N,08125.0350,W,1,8,2.3,18,M,,M,,*5D
06/06/2014	11:03:54.578	$GPGGA,110355,2435.9683,N,08125.0376,W,1,8,2.3,18,M,,M,,*5B
06/06/2014	11:03:55.573	$GPGGA,110356,2435.9675,N,08125.0402,W,1,8,2.3,18,M,,M,,*55
06/06/2014	11:03:56.589	$GPGGA,110357,2435.9668,N,08125.0428,W,1,8,2.3,18,M,,M,,*50
06/06/2014	11:03:57.576	$GPGGA,110358,2435.9660,N,08125.0453,W,1,8,2.3,18,M,,M,,*5B
06/06/2014	11:03:58.572	$GPGGA,110359,2435.9652,N,08125.0478,W,1,8,2.3,19,M,,M,,*53
06/06/2014	11:03:59.589	$GPGGA,110400,2435.9644,N,08125.0504,W,1,8,2.3,19,M,,M,,*55
06/06/2014	11:04:00.584	$GPGGA,110401,2435.9636,N,08125.0531,W,1,8,2.3,19,M,,M,,*57
06/06/2014	11:04:01.589	$GPGGA,110402,2435.9629,N,08125.0556,W,1,8,2.3,19,M,,M,,*5B
06/06/2014	11:04:02.616	$GPGGA,110403,2435.9621,N,08125.0582,W,1,8,2.3,19,M,,M,,*5B
06/06/2014	11:04:03.593	$GPGGA,110404,2435.9612,N,08125.0607,W,1,8,2.3,19,M,,M,,*52
06/06/2014	11:04:04.586	$GPGGA,110405,2435.9604,N,08125.0632,W,1,8,2.3,19,M,,M,,*52
06/06/2014	11:04:05.599	$GPGGA,110406,2435.9596,N,08125.0658,W,1,8,2.3,19,M,,M,,*55
06/06/2014	11:04:06.603	$GPGGA,110407,2435.9588,N,08125.0683,W,1,8,2.3,19,M,,M,,*5D
06/06/2014	11:04:07.718	$GPGGA,110408,2435.9581,N,08125.0708,W,1,8,2.3,19,M,,M,,*59
06/06/2014	11:04:08.621	$GPGGA,110409,2435.9574,N,08125.0734,W,1,8,2.3,19,M,,M,,*5D
06/06/2014	11:04:09.695	$GPGGA,110410,2435.9566,N,08125.0759,W,1,8,2.3,19,M,,M,,*5D
06/06/2014	11:04:10.629	$GPGGA,110411,2435.9559,N,08125.0784,W,1,7,2.4,19,M,,M,,*58
06/06/2014	11:04:11.603	$GPGGA,110412,2435.9552,N,08125.0809,W,1,7,2.4,19,M,,M,,*5A
06/06/2014	11:04:12.627	$GPGGA,110413,2435.9545,N,08125.0835,W,1,7,2.4,19,M,,M,,*52
06/06/2014	11:04:13.621	$GPGGA,110414,2435.9538,N,08125.0857,W,1,7,2.4,19,M,,M,,*5B
06/06/2014	11:04:14.604	$GPGGA,110415,2435.9531,N,08125.0883,W,1,8,2.3,19,M,,M,,*52
06/06/2014	11:04:15.739	$GPGGA,110416,2435.9524,N,08125.0910,W,1,8,2.3,19,M,,M,,*5E
06/06/2014	11:04:16.622	$GPGGA,110417,2435.9517,N,08125.0936,W,1,8,2.3,19,M,,M,,*5B
06/06/2014	11:04:17.719	$GPGGA,110418,2435.9511,N,08125.0961,W,1,8,2.3,19,M,,M,,*50
06/06/2014	11:04:18.731	$GPGGA,110419,2435.9503,N,08125.0988,W,1,8,2.3,19,M,,M,,*55
06/06/2014	11:04:19.633	$GPGGA,110420,2435.9496,N,08125.1017,W,1,8,2.7,19,M,,M,,*58
06/06/2014	11:04:20.747	$GPGGA,110421,2435.9489,N,08125.1044,W,1,7,2.7,18,M,,M,,*5F
06/06/2014	11:04:21.721	$GPGGA,110422,2435.9482,N,08125.1073,W,1,7,2.7,18,M,,M,,*53
06/06/2014	11:04:22.715	$GPGGA,110423,2435.9475,N,08125.1100,W,1,7,2.7,18,M,,M,,*5F
06/06/2014	11:04:23.739	$GPGGA,110424,2435.9469,N,08125.1127,W,1,7,2.7,18,M,,M,,*50
06/06/2014	11:04:24.713	$GPGGA,110425,2435.9462,N,08125.1154,W,1,7,2.7,18,M,,M,,*5E
06/06/2014	11:04:25.737	$GPGGA,110426,2435.9454,N,08125.1181,W,1,7,2.7,18,M,,M,,*50
06/06/2014	11:04:26.741	$GPGGA,110427,2435.9447,N,08125.1208,W,1,7,2.7,18,M,,M,,*51
06/06/2014	11:04:27.734	$GPGGA,110428,2435.9441,N,08125.1236,W,1,7,2.7,18,M,,M,,*55
06/06/2014	11:04:28.758	$GPGGA,110429,2435.9434,N,08125.1262,W,1,8,2.3,17,M,,M,,*53
06/06/2014	11:04:29.732	$GPGGA,110430,2435.9427,N,08125.1290,W,1,8,2.7,17,M,,M,,*50
06/06/2014	11:04:30.736	$GPGGA,110431,2435.9422,N,08125.1316,W,1,7,2.7,17,M,,M,,*54
06/06/2014	11:04:31.750	$GPGGA,110432,2435.9415,N,08125.1344,W,1,7,2.7,17,M,,M,,*54
06/06/2014	11:04:32.754	$GPGGA,110433,2435.9408,N,08125.1370,W,1,7,2.7,17,M,,M,,*5E
06/06/2014	11:04:33.738	$GPGGA,110434,2435.9401,N,08125.1396,W,1,7,2.7,17,M,,M,,*58
06/06/2014	11:04:34.762	$GPGGA,110435,2435.9394,N,08125.1423,W,1,7,2.7,17,M,,M,,*5B
06/06/2014	11:04:35.458	$GPGGA,110436,2435.9389,N,08125.1446,W,1,7,2.7,17,M,,M,,*57
06/06/2014	11:04:36.481	$GPGGA,110437,2435.9384,N,08125.1470,W,1,8,2.3,17,M,,M,,*55
06/06/2014	11:04:37.444	$GPGGA,110438,2435.9379,N,08125.1493,W,1,8,2.3,16,M,,M,,*54
06/06/2014	11:04:38.478	$GPGGA,110439,2435.9372,N,08125.1517,W,1,8,2.3,16,M,,M,,*53
06/06/2014	11:04:39.472	$GPGGA,110440,2435.9366,N,08125.1543,W,1,8,2.3,17,M,,M,,*58
06/06/2014	11:04:40.486	$GPGGA,110441,2435.9361,N,08125.1566,W,1,8,2.3,17,M,,M,,*59
06/06/2014	11:04:41.450	$GPGGA,110442,2435.9354,N,08125.1590,W,1,8,2.3,17,M,,M,,*55
06/06/2014	11:04:42.454	$GPGGA,110443,2435.9347,N,08125.1615,W,1,8,2.3,17,M,,M,,*58
06/06/2014	11:04:43.478	$GPGGA,110444,2435.9340,N,08125.1640,W,1,8,2.3,17,M,,M,,*58
06/06/2014	11:04:44.452	$GPGGA,110445,2435.9333,N,08125.1666,W,1,8,2.3,17,M,,M,,*59
06/06/2014	11:04:45.476	$GPGGA,110446,2435.9326,N,08125.1691,W,1,8,2.3,17,M,,M,,*56
06/06/2014	11:04:46.469	$GPGGA,110447,2435.9319,N,08125.1713,W,1,8,2.3,17,M,,M,,*50
06/06/2014	11:04:47.493	$GPGGA,110448,2435.9312,N,08125.1739,W,1,8,2.4,17,M,,M,,*5B
06/06/2014	11:04:48.477	$GPGGA,110449,2435.9305,N,08125.1764,W,1,8,2.3,17,M,,M,,*53
06/06/2014	11:04:49.461	$GPGGA,110450,2435.9297,N,08125.1788,W,1,8,2.3,17,M,,M,,*53
06/06/2014	11:04:50.505	$GPGGA,110451,2435.9290,N,08125.1814,W,1,8,2.3,17,M,,M,,*5F
06/06/2014	11:04:51.489	$GPGGA,110452,2435.9282,N,08125.1839,W,1,8,2.3,18,M,,M,,*5F
06/06/2014	11:04:52.493	$GPGGA,110453,2435.9274,N,08125.1864,W,1,8,2.3,18,M,,M,,*5F
06/06/2014	11:04:53.467	$GPGGA,110454,2435.9267,N,08125.1890,W,1,8,2.3,18,M,,M,,*51
06/06/2014	11:04:54.600	$GPGGA,110455,2435.9257,N,08125.1915,W,1,8,2.3,18,M,,M,,*5F
06/06/2014	11:04:55.524	$GPGGA,110456,2435.9249,N,08125.1941,W,1,8,2.3,18,M,,M,,*52
06/06/2014	11:04:56.497	$GPGGA,110457,2435.9240,N,08125.1967,W,1,8,2.3,18,M,,M,,*5E
06/06/2014	11:04:57.481	$GPGGA,110458,2435.9232,N,08125.1994,W,1,8,2.3,18,M,,M,,*58
06/06/2014	11:04:58.616	$GPGGA,110459,2435.9223,N,08125.2020,W,1,8,2.3,18,M,,M,,*5C
06/06/2014	11:04:59.499	$GPGGA,110500,2435.9216,N,08125.2045,W,1,8,2.3,18,M,,M,,*54
06/06/2014	11:05:00.488	$GPGGA,110501,2435.9207,N,08125.2070,W,1,8,2.3,18,M,,M,,*53
06/06/2014	11:05:01.577	$GPGGA,110502,2435.9198,N,08125.2097,W,1,8,2.3,18,M,,M,,*5C
06/06/2014	11:05:02.581	$GPGGA,110503,2435.9191,N,08125.2122,W,1,8,2.3,18,M,,M,,*5B
06/06/2014	11:05:03.615	$GPGGA,110504,2435.9181,N,08125.2149,W,1,8,2.3,19,M,,M,,*51
06/06/2014	11:05:04.509	$GPGGA,110505,2435.9173,N,08125.2175,W,1,8,2.3,19,M,,M,,*52
06/06/2014	11:05:05.593	$GPGGA,110506,2435.9164,N,08125.2200,W,1,8,2.3,19,M,,M,,*56
06/06/2014	11:05:06.597	$GPGGA,110507,2435.9156,N,08125.2226,W,1,8,2.3,19,M,,M,,*52
06/06/2014	11:05:07.611	$GPGGA,110508,2435.9148,N,08125.2252,W,1,8,2.3,19,M,,M,,*51
06/06/2014	11:05:08.635	$GPGGA,110509,2435.9139,N,08125.2279,W,1,8,2.3,19,M,,M,,*5F
06/06/2014	11:05:09.608	$GPGGA,110510,2435.9131,N,08125.2305,W,1,8,2.3,19,M,,M,,*55
06/06/2014	11:05:10.642	$GPGGA,110511,2435.9124,N,08125.2330,W,1,8,2.3,19,M,,M,,*56
06/06/2014	11:05:11.625	$GPGGA,110512,2435.9116,N,08125.2355,W,1,8,2.3,19,M,,M,,*57
06/06/2014	11:05:12.630	$GPGGA,110513,2435.9108,N,08125.2381,W,1,7,2.3,19,M,,M,,*5F
06/06/2014	11:05:13.603	$GPGGA,110514,2435.9101,N,08125.2406,W,1,7,2.3,19,M,,M,,*59
06/06/2014	11:05:14.607	$GPGGA,110515,2435.9093,N,08125.2433,W,1,7,2.3,19,M,,M,,*54
06/06/2014	11:05:15.651	$GPGGA,110516,2435.9086,N,08125.2460,W,1,7,2.3,19,M,,M,,*55
06/06/2014	11:05:16.635	$GPGGA,110517,2435.9079,N,08125.2486,W,1,8,2.3,19,M,,M,,*53
06/06/2014	11:05:17.618	$GPGGA,110518,2435.9072,N,08125.2511,W,1,8,2.3,19,M,,M,,*58
06/06/2014	11:05:18.612	$GPGGA,110519,2435.9064,N,08125.2538,W,1,8,2.3,19,M,,M,,*55
06/06/2014	11:05:19.636	$GPGGA,110520,2435.9057,N,08125.2565,W,1,8,2.3,19,M,,M,,*57
06/06/2014	11:05:20.650	$GPGGA,110521,2435.9050,N,08125.2592,W,1,8,2.3,19,M,,M,,*59
06/06/2014	11:05:21.624	$GPGGA,110522,2435.9043,N,08125.2619,W,1,8,2.3,19,M,,M,,*58
06/06/2014	11:05:22.648	$GPGGA,110523,2435.9035,N,08125.2645,W,1,8,2.3,19,M,,M,,*51
06/06/2014	11:05:23.632	$GPGGA,110524,2435.9028,N,08125.2673,W,1,8,2.3,19,M,,M,,*5F
06/06/2014	11:05:24.626	$GPGGA,110525,2435.9021,N,08125.2700,W,1,8,2.3,19,M,,M,,*52
06/06/2014	11:05:25.640	$GPGGA,110526,2435.9014,N,08125.2727,W,1,8,2.3,19,M,,M,,*52
06/06/2014	11:05:26.674	$GPGGA,110527,2435.9007,N,08125.2753,W,1,8,2.3,19,M,,M,,*52
06/06/2014	11:05:28.671	$GPGGA,110528,2435.8999,N,08125.2778,W,1,8,2.3,19,M,,M,,*5B
06/06/2014	11:05:28.692	$GPGGA,110529,2435.8992,N,08125.2804,W,1,8,2.3,18,M,,M,,*54
06/06/2014	11:05:29.634	$GPGGA,110530,2435.8985,N,08125.2830,W,1,8,2.3,18,M,,M,,*5D
06/06/2014	11:05:30.638	$GPGGA,110531,2435.8978,N,08125.2857,W,1,8,2.3,18,M,,M,,*5F
06/06/2014	11:05:31.662	$GPGGA,110532,2435.8971,N,08125.2884,W,1,8,2.3,18,M,,M,,*5B
06/06/2014	11:05:32.676	$GPGGA,110533,2435.8964,N,08125.2910,W,1,7,2.7,18,M,,M,,*59
06/06/2014	11:05:33.640	$GPGGA,110534,2435.8956,N,08125.2937,W,1,7,2.3,18,M,,M,,*5E
06/06/2014	11:05:34.644	$GPGGA,110535,2435.8950,N,08125.2962,W,1,8,2.3,18,M,,M,,*56
06/06/2014	11:05:35.576	$GPGGA,110536,2435.8943,N,08125.2988,W,1,8,2.3,18,M,,M,,*53
06/06/2014	11:05:36.429	$GPGGA,110537,2435.8936,N,08125.3013,W,1,8,2.3,18,M,,M,,*5A
06/06/2014	11:05:37.423	$GPGGA,110538,2435.8931,N,08125.3039,W,1,8,2.3,18,M,,M,,*5A
06/06/2014	11:05:38.437	$GPGGA,110539,2435.8924,N,08125.3065,W,1,8,2.3,18,M,,M,,*56
06/06/2014	11:05:39.431	$GPGGA,110540,2435.8917,N,08125.3092,W,1,8,2.3,18,M,,M,,*50
06/06/2014	11:05:40.435	$GPGGA,110541,2435.8910,N,08125.3116,W,1,8,2.3,18,M,,M,,*5B
06/06/2014	11:05:41.519	$GPGGA,110542,2435.8903,N,08125.3141,W,1,8,2.3,18,M,,M,,*58
06/06/2014	11:05:42.423	$GPGGA,110543,2435.8898,N,08125.3168,W,1,8,2.3,18,M,,M,,*51
06/06/2014	11:05:43.447	$GPGGA,110544,2435.8891,N,08125.3194,W,1,8,2.3,18,M,,M,,*5C
06/06/2014	11:05:44.451	$GPGGA,110545,2435.8884,N,08125.3220,W,1,8,2.3,18,M,,M,,*55
06/06/2014	11:05:45.444	$GPGGA,110546,2435.8877,N,08125.3246,W,1,8,2.3,18,M,,M,,*5A
06/06/2014	11:05:46.457	$GPGGA,110547,2435.8870,N,08125.3273,W,1,8,2.3,18,M,,M,,*5A
06/06/2014	11:05:47.461	$GPGGA,110548,2435.8863,N,08125.3299,W,1,8,2.3,18,M,,M,,*53
06/06/2014	11:05:48.455	$GPGGA,110549,2435.8856,N,08125.3325,W,1,8,2.3,18,M,,M,,*52
06/06/2014	11:05:49.449	$GPGGA,110550,2435.8849,N,08125.3352,W,1,8,2.3,18,M,,M,,*54
06/06/2014	11:05:50.533	$GPGGA,110551,2435.8842,N,08125.3376,W,1,8,2.3,18,M,,M,,*58
06/06/2014	11:05:51.564	$GPGGA,110552,2435.8835,N,08125.3403,W,1,8,2.3,18,M,,M,,*5E
06/06/2014	11:05:52.576	$GPGGA,110553,2435.8828,N,08125.3429,W,1,8,2.3,18,M,,M,,*5B
06/06/2014	11:05:53.609	$GPGGA,110554,2435.8821,N,08125.3455,W,1,8,2.3,18,M,,M,,*5E
06/06/2014	11:05:54.652	$GPGGA,110555,2435.8815,N,08125.3482,W,1,8,2.3,18,M,,M,,*52
06/06/2014	11:05:55.686	$GPGGA,110556,2435.8808,N,08125.3508,W,1,8,2.3,18,M,,M,,*5E
06/06/2014	11:05:56.708	$GPGGA,110557,2435.8801,N,08125.3534,W,1,8,2.3,18,M,,M,,*59
06/06/2014	11:05:57.729	$GPGGA,110558,2435.8793,N,08125.3560,W,1,8,2.3,18,M,,M,,*53
06/06/2014	11:05:58.783	$GPGGA,110559,2435.8786,N,08125.3587,W,1,8,2.3,18,M,,M,,*5F
06/06/2014	11:05:59.816	$GPGGA,110600,2435.8779,N,08125.3611,W,1,8,2.3,18,M,,M,,*5C
06/06/2014	11:06:00.840	$GPGGA,110601,2435.8772,N,08125.3638,W,1,8,2.3,18,M,,M,,*5D
06/06/2014	11:06:01.859	$GPGGA,110602,2435.8763,N,08125.3663,W,1,8,2.3,18,M,,M,,*50
06/06/2014	11:06:02.902	$GPGGA,110603,2435.8755,N,08125.3690,W,1,8,2.3,18,M,,M,,*58
06/06/2014	11:06:03.935	$GPGGA,110604,2435.8750,N,08125.3712,W,1,8,2.7,18,M,,M,,*55
06/06/2014	11:06:04.967	$GPGGA,110605,2435.8741,N,08125.3736,W,1,8,2.3,18,M,,M,,*56
06/06/2014	11:06:05.968	$GPGGA,110606,2435.8734,N,08125.3761,W,1,8,2.3,18,M,,M,,*55
06/06/2014	11:06:07.001	$GPGGA,110607,2435.8727,N,08125.3786,W,1,8,2.3,18,M,,M,,*5F
06/06/2014	11:06:08.054	$GPGGA,110608,2435.8719,N,08125.3811,W,1,8,2.3,18,M,,M,,*5C
06/06/2014	11:06:09.076	$GPGGA,110609,2435.8711,N,08125.3835,W,1,8,2.3,18,M,,M,,*53
06/06/2014	11:06:10.099	$GPGGA,110610,2435.8703,N,08125.3862,W,1,8,2.3,18,M,,M,,*5A
06/06/2014	11:06:11.152	$GPGGA,110611,2435.8696,N,08125.3887,W,1,8,2.3,18,M,,M,,*5D
06/06/2014	11:06:12.174	$GPGGA,110612,2435.8687,N,08125.3913,W,1,8,2.3,18,M,,M,,*52
06/06/2014	11:06:13.217	$GPGGA,110613,2435.8678,N,08125.3938,W,1,8,2.3,18,M,,M,,*5A
06/06/2014	11:06:14.219	$GPGGA,110614,2435.8671,N,08125.3963,W,1,8,2.3,18,M,,M,,*5A
06/06/2014	11:06:15.241	$GPGGA,110615,2435.8662,N,08125.3989,W,1,8,2.3,18,M,,M,,*5D
06/06/2014	11:06:16.294	$GPGGA,110616,2435.8654,N,08125.4015,W,1,8,2.3,18,M,,M,,*50
06/06/2014	11:06:17.306	$GPGGA,110617,2435.8646,N,08125.4040,W,1,8,2.3,18,M,,M,,*52
06/06/2014	11:06:18.350	$GPGGA,110618,2435.8638,N,08125.4065,W,1,8,2.3,18,M,,M,,*53
06/06/2014	11:06:19.392	$GPGGA,110619,2435.8628,N,08125.4091,W,1,8,2.3,18,M,,M,,*58
06/06/2014	11:06:20.405	$GPGGA,110620,2435.8620,N,08125.4118,W,1,8,2.3,18,M,,M,,*5A
06/06/2014	11:06:21.426	$GPGGA,110621,2435.8613,N,08125.4144,W,1,8,2.3,18,M,,M,,*52
06/06/2014	11:06:22.468	$GPGGA,110622,2435.8603,N,08125.4169,W,1,8,2.3,18,M,,M,,*5F
06/06/2014	11:06:23.501	$GPGGA,110623,2435.8595,N,08125.4195,W,1,8,2.3,18,M,,M,,*51
06/06/2014	11:06:24.657	$GPGGA,110624,2435.8586,N,08125.4221,W,1,8,2.3,18,M,,M,,*58
06/06/2014	11:06:25.566	$GPGGA,110625,2435.8578,N,08125.4246,W,1,8,2.3,18,M,,M,,*59
06/06/2014	11:06:26.578	$GPGGA,110626,2435.8569,N,08125.4272,W,1,8,2.3,18,M,,M,,*5D
06/06/2014	11:06:27.610	$GPGGA,110627,2435.8561,N,08125.4297,W,1,8,2.3,17,M,,M,,*50
06/06/2014	11:06:28.664	$GPGGA,110628,2435.8553,N,08125.4322,W,1,8,2.3,17,M,,M,,*51
06/06/2014	11:06:29.686	$GPGGA,110629,2435.8545,N,08125.4348,W,1,8,2.3,17,M,,M,,*5B
06/06/2014	11:06:30.801	$GPGGA,110630,2435.8537,N,08125.4375,W,1,8,2.3,17,M,,M,,*58
06/06/2014	11:06:31.751	$GPGGA,110631,2435.8528,N,08125.4400,W,1,8,2.3,17,M,,M,,*52
06/06/2014	11:06:32.897	$GPGGA,110632,2435.8521,N,08125.4426,W,1,8,2.3,17,M,,M,,*5C
06/06/2014	11:06:33.806	$GPGGA,110633,2435.8513,N,08125.4451,W,1,8,2.3,17,M,,M,,*5C
06/06/2014	11:06:34.921	$GPGGA,110634,2435.8505,N,08125.4478,W,1,8,2.3,17,M,,M,,*57
06/06/2014	11:06:35.871	$GPGGA,110635,2435.8498,N,08125.4505,W,1,8,2.3,17,M,,M,,*58
06/06/2014	11:06:35.519	$GPGGA,110636,2435.8491,N,08125.4530,W,1,8,2.3,17,M,,M,,*54
06/06/2014	11:06:36.531	$GPGGA,110637,2435.8484,N,08125.4556,W,1,8,2.3,17,M,,M,,*51
06/06/2014	11:06:37.562	$GPGGA,110638,2435.8476,N,08125.4582,W,1,8,2.3,17,M,,M,,*5A
06/06/2014	11:06:38.588	$GPGGA,110639,2435.8470,N,08125.4610,W,1,8,2.3,17,M,,M,,*55
06/06/2014	11:06:39.628	$GPGGA,110640,2435.8463,N,08125.4635,W,1,8,2.2,17,M,,M,,*5F
06/06/2014	11:06:40.552	$GPGGA,110641,2435.8457,N,08125.4662,W,1,8,2.2,17,M,,M,,*5B
06/06/2014	11:06:41.672	$GPGGA,110642,2435.8450,N,08125.4689,W,1,8,2.2,17,M,,M,,*5A
06/06/2014	11:06:42.725	$GPGGA,110643,2435.8444,N,08125.4715,W,1,8,2.2,17,M,,M,,*5A
06/06/2014	11:06:43.750	$GPGGA,110644,2435.8438,N,08125.4740,W,1,8,2.2,17,M,,M,,*56
06/06/2014	11:06:44.791	$GPGGA,110645,2435.8432,N,08125.4769,W,1,8,2.6,17,M,,M,,*52
06/06/2014	11:06:45.803	$GPGGA,110646,2435.8425,N,08125.4794,W,1,8,2.3,17,M,,M,,*50
06/06/2014	11:06:46.846	$GPGGA,110647,2435.8419,N,08125.4819,W,1,8,2.3,17,M,,M,,*54
06/06/2014	11:06:47.888	$GPGGA,110648,2435.8414,N,08125.4845,W,1,8,2.3,17,M,,M,,*5F
06/06/2014	11:06:48.913	$GPGGA,110649,2435.8407,N,08125.4874,W,1,8,2.6,17,M,,M,,*5B
06/06/2014	11:06:49.933	$GPGGA,110650,2435.8400,N,08125.4900,W,1,8,2.6,17,M,,M,,*56
06/06/2014	11:06:50.986	$GPGGA,110651,2435.8394,N,08125.4928,W,1,7,2.3,17,M,,M,,*5D
06/06/2014	11:06:52.019	$GPGGA,110652,2435.8389,N,08125.4953,W,1,7,2.2,17,M,,M,,*5F
06/06/2014	11:06:53.031	$GPGGA,110653,2435.8382,N,08125.4978,W,1,8,2.2,17,M,,M,,*53
06/06/2014	11:06:54.043	$GPGGA,110654,2435.8376,N,08125.5004,W,1,8,2.2,17,M,,M,,*5C
06/06/2014	11:06:55.119	$GPGGA,110655,2435.8369,N,08125.5032,W,1,8,2.6,17,M,,M,,*52
06/06/2014	11:06:56.109	$GPGGA,110656,2435.8362,N,08125.5058,W,1,8,2.6,17,M,,M,,*56
06/06/2014	11:06:57.150	$GPGGA,110657,2435.8356,N,08125.5083,W,1,7,2.2,17,M,,M,,*5D
06/06/2014	11:06:58.162	$GPGGA,110658,2435.8350,N,08125.5109,W,1,7,2.2,17,M,,M,,*57
06/06/2014	11:06:59.215	$GPGGA,110659,2435.8344,N,08125.5135,W,1,8,2.2,17,M,,M,,*53
06/06/2014	11:07:00.248	$GPGGA,110700,2435.8337,N,08125.5160,W,1,8,2.2,17,M,,M,,*5A
06/06/2014	11:07:01.260	$GPGGA,110701,2435.8331,N,08125.5186,W,1,8,2.2,17,M,,M,,*55
06/06/2014	11:07:02.292	$GPGGA,110702,2435.8324,N,08125.5213,W,1,8,2.2,17,M,,M,,*5D
06/06/2014	11:07:03.345	$GPGGA,110703,2435.8316,N,08125.5238,W,1,8,2.2,17,M,,M,,*54
06/06/2014	11:07:04.357	$GPGGA,110704,2435.8309,N,08125.5264,W,1,8,2.2,17,M,,M,,*54
06/06/2014	11:07:05.390	$GPGGA,110705,2435.8302,N,08125.5289,W,1,8,2.2,17,M,,M,,*5D
06/06/2014	11:07:06.412	$GPGGA,110706,2435.8295,N,08125.5318,W,1,8,2.6,17,M,,M,,*5C
06/06/2014	11:07:07.455	$GPGGA,110707,2435.8286,N,08125.5344,W,1,7,2.6,17,M,,M,,*59
06/06/2014	11:07:08.498	$GPGGA,110708,2435.8280,N,08125.5368,W,1,7,2.2,17,M,,M,,*5A
06/06/2014	11:07:09.520	$GPGGA,110709,2435.8273,N,08125.5392,W,1,8,2.2,17,M,,M,,*5D
06/06/2014	11:07:10.532	$GPGGA,110710,2435.8267,N,08125.5409,W,1,8,2.2,17,M,,M,,*55
06/06/2014	11:07:11.586	$GPGGA,110711,2435.8259,N,08125.5437,W,1,8,2.6,17,M,,M,,*50
06/06/2014	11:07:12.629	$GPGGA,110712,2435.8252,N,08125.5462,W,1,8,2.3,17,M,,M,,*5D
06/06/2014	11:07:13.651	$GPGGA,110713,2435.8243,N,08125.5488,W,1,7,2.2,17,M,,M,,*56
06/06/2014	11:07:14.664	$GPGGA,110714,2435.8235,N,08125.5516,W,1,7,2.2,17,M,,M,,*56
06/06/2014	11:07:15.705	$GPGGA,110715,2435.8226,N,08125.5542,W,1,8,2.2,17,M,,M,,*5B
06/06/2014	11:07:16.842	$GPGGA,110716,2435.8217,N,08125.5568,W,1,8,2.2,17,M,,M,,*52
06/06/2014	11:07:17.759	$GPGGA,110717,2435.8209,N,08125.5594,W,1,8,2.2,17,M,,M,,*5F
06/06/2014	11:07:18.864	$GPGGA,110718,2435.8201,N,08125.5621,W,1,8,2.2,17,M,,M,,*55
06/06/2014	11:07:19.814	$GPGGA,110719,2435.8191,N,08125.5647,W,1,8,2.2,17,M,,M,,*5E
06/06/2014	11:07:20.971	$GPGGA,110720,2435.8183,N,08125.5672,W,1,8,2.2,17,M,,M,,*51
06/06/2014	11:07:21.869	$GPGGA,110721,2435.8173,N,08125.5698,W,1,8,2.2,17,M,,M,,*5B
06/06/2014	11:07:22.985	$GPGGA,110722,2435.8165,N,08125.5724,W,1,8,2.2,17,M,,M,,*59
06/06/2014	11:07:23.945	$GPGGA,110723,2435.8155,N,08125.5751,W,1,8,2.2,17,M,,M,,*59
06/06/2014	11:07:24.998	$GPGGA,110724,2435.8147,N,08125.5777,W,1,8,2.2,17,M,,M,,*59
06/06/2014	11:07:26.072	$GPGGA,110725,2435.8137,N,08125.5802,W,1,8,2.2,17,M,,M,,*52
06/06/2014	11:07:27.136	$GPGGA,110726,2435.8127,N,08125.5828,W,1,8,2.2,17,M,,M,,*58
06/06/2014	11:07:28.137	$GPGGA,110727,2435.8119,N,08125.5853,W,1,8,2.3,17,M,,M,,*59
06/06/2014	11:07:29.211	$GPGGA,110728,2435.8111,N,08125.5878,W,1,8,2.3,17,M,,M,,*57
06/06/2014	11:07:30.215	$GPGGA,110729,2435.8101,N,08125.5904,W,1,7,2.2,17,M,,M,,*53
06/06/2014	11:07:31.245	$GPGGA,110730,2435.8091,N,08125.5930,W,1,7,2.2,17,M,,M,,*54
06/06/2014	11:07:32.280	$GPGGA,110731,2435.8082,N,08125.5957,W,1,8,2.2,17,M,,M,,*59
06/06/2014	11:07:33.330	$GPGGA,110732,2435.8073,N,08125.5983,W,1,8,2.2,17,M,,M,,*5D
06/06/2014	11:07:34.332	$GPGGA,110733,2435.8064,N,08125.6008,W,1,8,2.2,16,M,,M,,*52
06/06/2014	11:07:35.364	$GPGGA,110734,2435.8054,N,08125.6034,W,1,8,2.2,16,M,,M,,*59
06/06/2014	11:07:36.376	$GPGGA,110735,2435.8046,N,08125.6062,W,1,8,2.2,16,M,,M,,*58
06/06/2014	11:07:35.468	$GPGGA,110736,2435.8036,N,08125.6087,W,1,8,2.2,16,M,,M,,*57
06/06/2014	11:07:36.519	$GPGGA,110737,2435.8028,N,08125.6113,W,1,8,2.2,16,M,,M,,*55
06/06/2014	11:07:37.521	$GPGGA,110738,2435.8019,N,08125.6139,W,1,8,2.2,16,M,,M,,*50
06/06/2014	11:07:38.564	$GPGGA,110739,2435.8010,N,08125.6165,W,1,8,2.2,16,M,,M,,*51
06/06/2014	11:07:39.610	$GPGGA,110740,2435.8001,N,08125.6192,W,1,8,2.2,16,M,,M,,*57
06/06/2014	11:07:40.653	$GPGGA,110741,2435.7992,N,08125.6217,W,1,8,2.2,16,M,,M,,*54
06/06/2014	11:07:41.651	$GPGGA,110742,2435.7984,N,08125.6243,W,1,8,2.2,16,M,,M,,*51
06/06/2014	11:07:42.694	$GPGGA,110743,2435.7975,N,08125.6268,W,1,8,2.2,16,M,,M,,*57
06/06/2014	11:07:43.717	$GPGGA,110744,2435.7966,N,08125.6293,W,1,8,2.2,16,M,,M,,*56
06/06/2014	11:07:44.739	$GPGGA,110745,2435.7957,N,08125.6319,W,1,8,2.2,16,M,,M,,*56
06/06/2014	11:07:45.762	$GPGGA,110746,2435.7949,N,08125.6345,W,1,8,2.2,16,M,,M,,*53
06/06/2014	11:07:46.804	$GPGGA,110747,2435.7941,N,08125.6371,W,1,8,2.2,16,M,,M,,*5D
06/06/2014	11:07:47.847	$GPGGA,110748,2435.7932,N,08125.6396,W,1,8,2.2,16,M,,M,,*5F
06/06/2014	11:07:48.890	$GPGGA,110749,2435.7923,N,08125.6423,W,1,8,2.2,16,M,,M,,*57
06/06/2014	11:07:49.891	$GPGGA,110750,2435.7916,N,08125.6449,W,1,8,2.2,16,M,,M,,*55
06/06/2014	11:07:50.934	$GPGGA,110751,2435.7907,N,08125.6475,W,1,8,2.2,16,M,,M,,*5B
06/06/2014	11:07:51.966	$GPGGA,110752,2435.7902,N,08125.6493,W,1,8,2.6,16,M,,M,,*51
06/06/2014	11:07:53.019	$GPGGA,110753,2435.7894,N,08125.6521,W,1,8,2.2,16,M,,M,,*52
06/06/2014	11:07:54.011	$GPGGA,110754,2435.7887,N,08125.6546,W,1,8,2.2,16,M,,M,,*56
06/06/2014	11:07:55.033	$GPGGA,110755,2435.7879,N,08125.6572,W,1,8,2.2,16,M,,M,,*51
06/06/2014	11:07:56.097	$GPGGA,110756,2435.7872,N,08125.6595,W,1,8,2.2,16,M,,M,,*50
06/06/2014	11:07:57.129	$GPGGA,110757,2435.7865,N,08125.6622,W,1,8,2.2,17,M,,M,,*59
06/06/2014	11:07:58.131	$GPGGA,110758,2435.7856,N,08125.6647,W,1,8,2.2,17,M,,M,,*55
06/06/2014	11:07:59.174	$GPGGA,110759,2435.7848,N,08125.6673,W,1,8,2.2,17,M,,M,,*5C
06/06/2014	11:08:00.206	$GPGGA,110800,2435.7841,N,08125.6701,W,1,8,2.2,17,M,,M,,*52
06/06/2014	11:08:01.239	$GPGGA,110801,2435.7833,N,08125.6725,W,1,8,2.2,17,M,,M,,*50
06/06/2014	11:08:02.251	$GPGGA,110802,2435.7825,N,08125.6750,W,1,8,2.2,17,M,,M,,*56
06/06/2014	11:08:03.304	$GPGGA,110803,2435.7818,N,08125.6777,W,1,8,2.2,17,M,,M,,*5C
06/06/2014	11:08:04.337	$GPGGA,110804,2435.7811,N,08125.6803,W,1,8,2.2,17,M,,M,,*5E
06/06/2014	11:08:05.359	$GPGGA,110805,2435.7802,N,08125.6828,W,1,8,2.2,17,M,,M,,*54
06/06/2014	11:08:06.474	$GPGGA,110806,2435.7794,N,08125.6854,W,1,8,2.2,17,M,,M,,*5C
06/06/2014	11:08:08.818	$GPGGA,110808,2435.7777,N,08125.6911,W,1,8,2.6,17,M,,M,,*5B
06/06/2014	11:08:09.602	$GPGGA,110809,2435.7771,N,08125.6937,W,1,8,2.2,17,M,,M,,*5C
06/06/2014	11:08:10.593	$GPGGA,110810,2435.7762,N,08125.6963,W,1,8,2.6,17,M,,M,,*53
06/06/2014	11:08:11.636	$GPGGA,110811,2435.7755,N,08125.6987,W,1,7,2.6,17,M,,M,,*53
06/06/2014	11:08:12.689	$GPGGA,110812,2435.7749,N,08125.7010,W,1,7,2.2,17,M,,M,,*5F
06/06/2014	11:08:13.692	$GPGGA,110813,2435.7740,N,08125.7041,W,1,8,2.2,17,M,,M,,*5C
06/06/2014	11:08:14.734	$GPGGA,110814,2435.7731,N,08125.7068,W,1,8,2.2,17,M,,M,,*56
06/06/2014	11:08:15.653	$GPGGA,110815,2435.7724,N,08125.7095,W,1,7,2.6,17,M,,M,,*5A
06/06/2014	11:08:16.790	$GPGGA,110816,2435.7717,N,08125.7121,W,1,7,2.6,17,M,,M,,*57
06/06/2014	11:08:17.842	$GPGGA,110817,2435.7708,N,08125.7147,W,1,7,2.6,17,M,,M,,*58
06/06/2014	11:08:18.833	$GPGGA,110818,2435.7700,N,08125.7175,W,1,7,2.6,17,M,,M,,*5E
06/06/2014	11:08:19.866	$GPGGA,110819,2435.7692,N,08125.7201,W,1,7,2.6,17,M,,M,,*55
06/06/2014	11:08:20.909	$GPGGA,110820,2435.7685,N,08125.7229,W,1,7,2.6,17,M,,M,,*53
06/06/2014	11:08:21.932	$GPGGA,110821,2435.7677,N,08125.7254,W,1,7,2.6,17,M,,M,,*55
06/06/2014	11:08:22.965	$GPGGA,110822,2435.7670,N,08125.7276,W,1,7,2.6,17,M,,M,,*51
06/06/2014	11:08:23.986	$GPGGA,110823,2435.7664,N,08125.7298,W,1,8,2.2,17,M,,M,,*5E
06/06/2014	11:08:25.030	$GPGGA,110824,2435.7656,N,08125.7326,W,1,8,2.2,17,M,,M,,*5C
06/06/2014	11:08:26.062	$GPGGA,110825,2435.7650,N,08125.7345,W,1,7,2.6,17,M,,M,,*55
06/06/2014	11:08:27.083	$GPGGA,110826,2435.7642,N,08125.7370,W,1,7,2.2,17,M,,M,,*57
06/06/2014	11:08:28.105	$GPGGA,110827,2435.7635,N,08125.7395,W,1,8,2.2,17,M,,M,,*52
06/06/2014	11:08:29.158	$GPGGA,110828,2435.7627,N,08125.7420,W,1,8,2.2,17,M,,M,,*57
06/06/2014	11:08:30.170	$GPGGA,110829,2435.7619,N,08125.7444,W,1,8,2.2,17,M,,M,,*59
06/06/2014	11:08:31.213	$GPGGA,110830,2435.7610,N,08125.7471,W,1,8,2.2,17,M,,M,,*5E
06/06/2014	11:08:32.256	$GPGGA,110831,2435.7602,N,08125.7496,W,1,8,2.2,17,M,,M,,*55
06/06/2014	11:08:33.278	$GPGGA,110832,2435.7594,N,08125.7522,W,1,8,2.2,17,M,,M,,*54
06/06/2014	11:08:34.301	$GPGGA,110833,2435.7587,N,08125.7547,W,1,8,2.2,17,M,,M,,*54
06/06/2014	11:08:35.333	$GPGGA,110834,2435.7577,N,08125.7573,W,1,8,2.2,17,M,,M,,*5B
06/06/2014	11:08:36.356	$GPGGA,110835,2435.7569,N,08125.7599,W,1,8,2.2,17,M,,M,,*51
06/06/2014	11:08:35.455	$GPGGA,110836,2435.7559,N,08125.7626,W,1,8,2.2,17,M,,M,,*56
06/06/2014	11:08:36.508	$GPGGA,110837,2435.7551,N,08125.7652,W,1,8,2.2,17,M,,M,,*5C
06/06/2014	11:08:37.489	$GPGGA,110838,2435.7542,N,08125.7677,W,1,8,2.2,17,M,,M,,*56
06/06/2014	11:08:38.522	$GPGGA,110839,2435.7533,N,08125.7702,W,1,8,2.2,17,M,,M,,*52
06/06/2014	11:08:39.585	$GPGGA,110840,2435.7524,N,08125.7728,W,1,8,2.2,17,M,,M,,*52
06/06/2014	11:08:40.618	$GPGGA,110841,2435.7515,N,08125.7753,W,1,8,2.2,17,M,,M,,*5D
06/06/2014	11:08:41.629	$GPGGA,110842,2435.7506,N,08125.7778,W,1,8,2.2,17,M,,M,,*55
06/06/2014	11:08:42.651	$GPGGA,110843,2435.7498,N,08125.7804,W,1,8,2.2,17,M,,M,,*56
06/06/2014	11:08:43.694	$GPGGA,110844,2435.7489,N,08125.7829,W,1,8,2.2,17,M,,M,,*5E
06/06/2014	11:08:44.830	$GPGGA,110845,2435.7482,N,08125.7854,W,1,8,2.2,17,M,,M,,*5E
06/06/2014	11:08:45.738	$GPGGA,110846,2435.7472,N,08125.7880,W,1,8,2.2,17,M,,M,,*5B
06/06/2014	11:08:46.781	$GPGGA,110847,2435.7464,N,08125.7906,W,1,8,2.2,17,M,,M,,*52
06/06/2014	11:08:47.824	$GPGGA,110848,2435.7455,N,08125.7931,W,1,8,2.2,17,M,,M,,*5B
06/06/2014	11:08:48.826	$GPGGA,110849,2435.7446,N,08125.7957,W,1,8,2.2,17,M,,M,,*58
06/06/2014	11:08:49.962	$GPGGA,110850,2435.7437,N,08125.7982,W,1,8,2.2,17,M,,M,,*5E
06/06/2014	11:08:50.891	$GPGGA,110851,2435.7428,N,08125.8007,W,1,8,2.2,17,M,,M,,*5A
06/06/2014	11:08:51.944	$GPGGA,110852,2435.7421,N,08125.8033,W,1,8,2.2,17,M,,M,,*57
06/06/2014	11:08:52.946	$GPGGA,110853,2435.7411,N,08125.8060,W,1,8,2.2,17,M,,M,,*53
06/06/2014	11:08:53.979	$GPGGA,110854,2435.7402,N,08125.8085,W,1,8,2.2,17,M,,M,,*5D
06/06/2014	11:08:55.011	$GPGGA,110855,2435.7394,N,08125.8111,W,1,8,2.2,17,M,,M,,*58
06/06/2014	11:08:56.048	$GPGGA,110856,2435.7386,N,08125.8136,W,1,8,2.2,17,M,,M,,*5D
06/06/2014	11:08:57.087	$GPGGA,110857,2435.7377,N,08125.8162,W,1,8,2.2,17,M,,M,,*53
06/06/2014	11:08:58.109	$GPGGA,110858,2435.7370,N,08125.8187,W,1,8,2.2,17,M,,M,,*50
06/06/2014	11:08:59.142	$GPGGA,110859,2435.7361,N,08125.8213,W,1,8,2.2,17,M,,M,,*5F
06/06/2014	11:09:00.307	$GPGGA,110900,2435.7353,N,08125.8240,W,1,8,2.2,17,M,,M,,*55
06/06/2014	11:09:01.325	$GPGGA,110901,2435.7345,N,08125.8266,W,1,8,2.2,17,M,,M,,*57
06/06/2014	11:09:02.331	$GPGGA,110902,2435.7336,N,08125.8291,W,1,8,2.2,17,M,,M,,*58
06/06/2014	11:09:03.364	$GPGGA,110903,2435.7328,N,08125.8317,W,1,8,2.2,17,M,,M,,*59
06/06/2014	11:09:04.417	$GPGGA,110904,2435.7319,N,08125.8342,W,1,8,2.2,17,M,,M,,*5C
06/06/2014	11:09:05.419	$GPGGA,110905,2435.7311,N,08125.8368,W,1,8,2.2,17,M,,M,,*5D
06/06/2014	11:09:06.441	$GPGGA,110906,2435.7303,N,08125.8394,W,1,8,2.2,17,M,,M,,*5E
06/06/2014	11:09:07.505	$GPGGA,110907,2435.7295,N,08125.8421,W,1,8,2.2,17,M,,M,,*58
06/06/2014	11:09:08.517	$GPGGA,110908,2435.7287,N,08125.8447,W,1,8,2.2,17,M,,M,,*54
06/06/2014	11:09:09.561	$GPGGA,110909,2435.7278,N,08125.8472,W,1,8,2.2,17,M,,M,,*53
06/06/2014	11:09:10.582	$GPGGA,110910,2435.7270,N,08125.8498,W,1,8,2.2,17,M,,M,,*57
06/06/2014	11:09:11.635	$GPGGA,110911,2435.7262,N,08125.8524,W,1,8,2.2,17,M,,M,,*53
06/06/2014	11:09:12.657	$GPGGA,110912,2435.7253,N,08125.8551,W,1,8,2.2,17,M,,M,,*50
06/06/2014	11:09:13.659	$GPGGA,110913,2435.7245,N,08125.8577,W,1,8,2.2,17,M,,M,,*52
06/06/2014	11:09:14.702	$GPGGA,110914,2435.7237,N,08125.8602,W,1,8,2.2,17,M,,M,,*51
06/06/2014	11:09:15.745	$GPGGA,110915,2435.7229,N,08125.8627,W,1,8,2.2,17,M,,M,,*58
06/06/2014	11:09:16.767	$GPGGA,110916,2435.7222,N,08125.8653,W,1,8,2.2,17,M,,M,,*53
06/06/2014	11:09:17.800	$GPGGA,110917,2435.7213,N,08125.8681,W,1,7,2.6,16,M,,M,,*55
06/06/2014	11:09:18.811	$GPGGA,110918,2435.7207,N,08125.8701,W,1,7,2.6,16,M,,M,,*56
06/06/2014	11:09:19.854	$GPGGA,110919,2435.7199,N,08125.8728,W,1,8,2.2,16,M,,M,,*53
06/06/2014	11:09:20.896	$GPGGA,110920,2435.7193,N,08125.8755,W,1,8,2.6,16,M,,M,,*5D
06/06/2014	11:09:21.908	$GPGGA,110921,2435.7183,N,08125.8782,W,1,7,2.6,16,M,,M,,*58
06/06/2014	11:09:22.941	$GPGGA,110922,2435.7176,N,08125.8808,W,1,7,2.6,16,M,,M,,*5C
06/06/2014	11:09:24.005	$GPGGA,110923,2435.7168,N,08125.8834,W,1,7,2.6,16,M,,M,,*5D
06/06/2014	11:09:25.007	$GPGGA,110924,2435.7161,N,08125.8859,W,1,7,2.6,16,M,,M,,*58
06/06/2014	11:09:26.039	$GPGGA,110925,2435.7155,N,08125.8884,W,1,8,2.2,16,M,,M,,*55
06/06/2014	11:09:27.061	$GPGGA,110926,2435.7148,N,08125.8909,W,1,8,2.2,16,M,,M,,*5E
06/06/2014	11:09:28.114	$GPGGA,110927,2435.7140,N,08125.8936,W,1,8,2.2,16,M,,M,,*5B
06/06/2014	11:09:29.126	$GPGGA,110928,2435.7132,N,08125.8963,W,1,8,2.6,16,M,,M,,*55
06/06/2014	11:09:30.180	$GPGGA,110929,2435.7123,N,08125.8989,W,1,7,2.6,16,M,,M,,*5F
06/06/2014	11:09:31.202	$GPGGA,110930,2435.7117,N,08125.9014,W,1,7,2.6,16,M,,M,,*5C
06/06/2014	11:09:32.224	$GPGGA,110931,2435.7107,N,08125.9042,W,1,8,2.2,16,M,,M,,*54
06/06/2014	11:09:33.268	$GPGGA,110932,2435.7100,N,08125.9068,W,1,8,2.6,16,M,,M,,*5C
06/06/2014	11:09:34.269	$GPGGA,110933,2435.7092,N,08125.9094,W,1,7,2.6,16,M,,M,,*5B
06/06/2014	11:09:35.312	$GPGGA,110934,2435.7085,N,08125.9122,W,1,7,2.6,16,M,,M,,*56
06/06/2014	11:09:36.343	$GPGGA,110935,2435.7076,N,08125.9148,W,1,8,2.2,16,M,,M,,*5C
06/06/2014	11:09:35.451	$GPGGA,110936,2435.7070,N,08125.9171,W,1,8,2.2,16,M,,M,,*53
06/06/2014	11:09:36.476	$GPGGA,110937,2435.7061,N,08125.9198,W,1,8,2.2,16,M,,M,,*55
06/06/2014	11:09:37.643	$GPGGA,110938,2435.7054,N,08125.9221,W,1,8,2.2,16,M,,M,,*5D
06/06/2014	11:09:38.510	$GPGGA,110939,2435.7046,N,08125.9246,W,1,8,2.2,16,M,,M,,*5E
06/06/2014	11:09:39.636	$GPGGA,110940,2435.7039,N,08125.9270,W,1,8,2.2,16,M,,M,,*5D
06/06/2014	11:09:40.586	$GPGGA,110941,2435.7030,N,08125.9296,W,1,8,2.2,16,M,,M,,*5D
06/06/2014	11:09:41.618	$GPGGA,110942,2435.7023,N,08125.9321,W,1,8,2.2,16,M,,M,,*51
06/06/2014	11:09:42.765	$GPGGA,110943,2435.7014,N,08125.9346,W,1,8,2.2,16,M,,M,,*55
06/06/2014	11:09:43.673	$GPGGA,110944,2435.7006,N,08125.9373,W,1,8,2.2,16,M,,M,,*57
06/06/2014	11:09:46.244	$GPGGA,110946,2435.6989,N,08125.9426,W,1,8,2.2,16,M,,M,,*5D
06/06/2014	11:09:46.895	$GPGGA,110947,2435.6980,N,08125.9451,W,1,8,2.2,16,M,,M,,*55
06/06/2014	11:09:47.958	$GPGGA,110948,2435.6971,N,08125.9476,W,1,8,2.2,16,M,,M,,*51
06/06/2014	11:09:48.950	$GPGGA,110949,2435.6963,N,08125.9502,W,1,7,2.2,16,M,,M,,*5E
06/06/2014	11:09:49.838	$GPGGA,110950,2435.6954,N,08125.9527,W,1,7,2.2,16,M,,M,,*55
06/06/2014	11:09:51.005	$GPGGA,110951,2435.6946,N,08125.9553,W,1,7,2.2,16,M,,M,,*54
06/06/2014	11:09:52.088	$GPGGA,110952,2435.6937,N,08125.9579,W,1,7,2.2,16,M,,M,,*59
06/06/2014	11:09:53.079	$GPGGA,110953,2435.6928,N,08125.9606,W,1,8,2.2,16,M,,M,,*52
06/06/2014	11:09:54.050	$GPGGA,110954,2435.6920,N,08125.9632,W,1,8,2.2,16,M,,M,,*5A
06/06/2014	11:09:55.124	$GPGGA,110955,2435.6911,N,08125.9657,W,1,8,2.2,16,M,,M,,*5A
06/06/2014	11:09:56.125	$GPGGA,110956,2435.6902,N,08125.9682,W,1,8,2.2,16,M,,M,,*53
06/06/2014	11:09:57.210	$GPGGA,110957,2435.6893,N,08125.9707,W,1,8,2.2,16,M,,M,,*57
06/06/2014	11:09:58.170	$GPGGA,110958,2435.6886,N,08125.9733,W,1,8,2.2,16,M,,M,,*5B
06/06/2014	11:09:59.264	$GPGGA,110959,2435.6876,N,08125.9758,W,1,8,2.2,16,M,,M,,*58
06/06/2014	11:10:00.328	$GPGGA,111000,2435.6868,N,08125.9783,W,1,8,2.2,16,M,,M,,*55
06/06/2014	11:10:01.336	$GPGGA,111001,2435.6858,N,08125.9806,W,1,8,2.2,16,M,,M,,*55
06/06/2014	11:10:02.373	$GPGGA,111002,2435.6850,N,08125.9831,W,1,8,2.2,16,M,,M,,*5A
06/06/2014	11:10:03.374	$GPGGA,111003,2435.6841,N,08125.9856,W,1,8,2.2,16,M,,M,,*5A
06/06/2014	11:10:04.448	$GPGGA,111004,2435.6832,N,08125.9881,W,1,8,2.2,16,M,,M,,*53
06/06/2014	11:10:05.389	$GPGGA,111005,2435.6823,N,08125.9907,W,1,8,2.2,16,M,,M,,*5D
06/06/2014	11:10:06.493	$GPGGA,111006,2435.6814,N,08125.9932,W,1,8,2.2,16,M,,M,,*5C
06/06/2014	11:10:07.453	$GPGGA,111007,2435.6806,N,08125.9957,W,1,8,2.2,16,M,,M,,*5D
06/06/2014	11:10:08.548	$GPGGA,111008,2435.6797,N,08125.9982,W,1,8,2.2,16,M,,M,,*5D
06/06/2014	11:10:09.508	$GPGGA,111009,2435.6788,N,08126.0007,W,1,8,2.2,16,M,,M,,*5C
06/06/2014	11:10:10.601	$GPGGA,111010,2435.6779,N,08126.0033,W,1,8,2.2,16,M,,M,,*5D
06/06/2014	11:10:11.593	$GPGGA,111011,2435.6770,N,08126.0058,W,1,8,2.2,16,M,,M,,*58
06/06/2014	11:10:12.615	$GPGGA,111012,2435.6761,N,08126.0083,W,1,8,2.2,16,M,,M,,*5D
06/06/2014	11:10:13.709	$GPGGA,111013,2435.6753,N,08126.0108,W,1,8,2.2,16,M,,M,,*5F
06/06/2014	11:10:14.721	$GPGGA,111014,2435.6745,N,08126.0134,W,1,8,2.2,16,M,,M,,*50
06/06/2014	11:10:15.723	$GPGGA,111015,2435.6738,N,08126.0157,W,1,7,2.2,16,M,,M,,*51
06/06/2014	11:10:16.797	$GPGGA,111016,2435.6730,N,08126.0182,W,1,7,2.2,16,M,,M,,*52
06/06/2014	11:10:17.823	$GPGGA,111017,2435.6723,N,08126.0206,W,1,8,2.2,16,M,,M,,*51
06/06/2014	11:10:18.842	$GPGGA,111018,2435.6716,N,08126.0231,W,1,8,2.2,16,M,,M,,*5C
06/06/2014	11:10:19.864	$GPGGA,111019,2435.6707,N,08126.0257,W,1,8,2.2,16,M,,M,,*5D
06/06/2014	11:10:20.927	$GPGGA,111020,2435.6699,N,08126.0282,W,1,8,2.3,16,M,,M,,*58
06/06/2014	11:10:21.919	$GPGGA,111021,2435.6692,N,08126.0305,W,1,7,2.2,16,M,,M,,*52
06/06/2014	11:10:22.900	$GPGGA,111022,2435.6685,N,08126.0330,W,1,7,2.2,16,M,,M,,*51
06/06/2014	11:10:23.984	$GPGGA,111023,2435.6678,N,08126.0354,W,1,8,2.2,16,M,,M,,*5F
06/06/2014	11:10:25.037	$GPGGA,111024,2435.6671,N,08126.0379,W,1,8,2.2,16,M,,M,,*5E
06/06/2014	11:10:26.039	$GPGGA,111025,2435.6664,N,08126.0404,W,1,8,2.2,16,M,,M,,*56
06/06/2014	11:10:27.092	$GPGGA,111026,2435.6657,N,08126.0427,W,1,8,2.2,17,M,,M,,*55
06/06/2014	11:10:28.062	$GPGGA,111027,2435.6649,N,08126.0452,W,1,8,2.2,17,M,,M,,*59
06/06/2014	11:10:29.094	$GPGGA,111028,2435.6642,N,08126.0478,W,1,8,2.2,17,M,,M,,*55
06/06/2014	11:10:30.116	$GPGGA,111029,2435.6635,N,08126.0503,W,1,8,2.2,17,M,,M,,*59
06/06/2014	11:10:31.263	$GPGGA,111030,2435.6627,N,08126.0531,W,1,8,2.2,17,M,,M,,*53
06/06/2014	11:10:32.326	$GPGGA,111031,2435.6620,N,08126.0556,W,1,8,2.5,17,M,,M,,*53
06/06/2014	11:10:33.287	$GPGGA,111032,2435.6612,N,08126.0583,W,1,8,2.2,17,M,,M,,*5E
06/06/2014	11:10:34.340	$GPGGA,111033,2435.6605,N,08126.0610,W,1,8,2.5,17,M,,M,,*57
06/06/2014	11:10:35.341	$GPGGA,111034,2435.6597,N,08126.0636,W,1,8,2.5,17,M,,M,,*5C
06/06/2014	11:10:36.415	$GPGGA,111035,2435.6591,N,08126.0659,W,1,7,2.2,17,M,,M,,*5A
06/06/2014	11:10:35.503	$GPGGA,111036,2435.6584,N,08126.0686,W,1,7,2.2,17,M,,M,,*5F
06/06/2014	11:10:36.523	$GPGGA,111037,2435.6576,N,08126.0712,W,1,8,2.5,17,M,,M,,*57
06/06/2014	11:10:37.550	$GPGGA,111038,2435.6568,N,08126.0740,W,1,8,2.2,17,M,,M,,*57
06/06/2014	11:10:38.603	$GPGGA,111039,2435.6561,N,08126.0766,W,1,8,2.5,17,M,,M,,*5C
06/06/2014	11:10:39.627	$GPGGA,111040,2435.6555,N,08126.0788,W,1,8,2.2,17,M,,M,,*52
06/06/2014	11:10:40.637	$GPGGA,111041,2435.6547,N,08126.0813,W,1,8,2.2,17,M,,M,,*5D
06/06/2014	11:10:41.670	$GPGGA,111042,2435.6540,N,08126.0838,W,1,8,2.2,18,M,,M,,*5F
06/06/2014	11:10:42.723	$GPGGA,111043,2435.6532,N,08126.0864,W,1,8,2.5,18,M,,M,,*55
06/06/2014	11:10:43.744	$GPGGA,111044,2435.6526,N,08126.0885,W,1,8,2.2,18,M,,M,,*5F
06/06/2014	11:10:44.767	$GPGGA,111045,2435.6517,N,08126.0912,W,1,8,2.5,18,M,,M,,*54
06/06/2014	11:10:45.799	$GPGGA,111046,2435.6510,N,08126.0939,W,1,8,2.5,18,M,,M,,*59
06/06/2014	11:10:46.863	$GPGGA,111047,2435.6503,N,08126.0965,W,1,7,2.2,18,M,,M,,*5B
06/06/2014	11:10:47.864	$GPGGA,111048,2435.6494,N,08126.0991,W,1,7,2.2,18,M,,M,,*50
06/06/2014	11:10:48.907	$GPGGA,111049,2435.6486,N,08126.1019,W,1,8,2.2,18,M,,M,,*55
06/06/2014	11:10:49.909	$GPGGA,111050,2435.6478,N,08126.1044,W,1,8,2.2,18,M,,M,,*54
06/06/2014	11:10:50.983	$GPGGA,111051,2435.6470,N,08126.1070,W,1,8,2.2,18,M,,M,,*5A
06/06/2014	11:10:51.990	$GPGGA,111052,2435.6462,N,08126.1096,W,1,8,2.2,18,M,,M,,*52
06/06/2014	11:10:53.004	$GPGGA,111053,2435.6454,N,08126.1124,W,1,8,2.2,18,M,,M,,*5E
06/06/2014	11:10:54.028	$GPGGA,111054,2435.6445,N,08126.1149,W,1,8,2.2,18,M,,M,,*52
06/06/2014	11:10:55.010	$GPGGA,111055,2435.6438,N,08126.1176,W,1,8,2.2,18,M,,M,,*55
06/06/2014	11:10:56.044	$GPGGA,111056,2435.6429,N,08126.1203,W,1,8,2.2,18,M,,M,,*57
06/06/2014	11:10:57.057	$GPGGA,111057,2435.6421,N,08126.1228,W,1,8,2.2,18,M,,M,,*57
06/06/2014	11:10:58.072	$GPGGA,111058,2435.6413,N,08126.1254,W,1,8,2.2,18,M,,M,,*52
06/06/2014	11:10:59.064	$GPGGA,111059,2435.6404,N,08126.1280,W,1,8,2.2,18,M,,M,,*5C
06/06/2014	11:11:00.087	$GPGGA,111100,2435.6404,N,08126.1280,W,1,8,2.2,18,M,,M,,*51
06/06/2014	11:11:01.081	$GPGGA,111101,2435.6387,N,08126.1331,W,1,8,2.2,18,M,,M,,*57
06/06/2014	11:11:02.123	$GPGGA,111102,2435.6387,N,08126.1331,W,1,8,2.2,18,M,,M,,*54
06/06/2014	11:11:03.117	$GPGGA,111103,2435.6370,N,08126.1384,W,1,8,2.2,18,M,,M,,*53
06/06/2014	11:11:04.150	$GPGGA,111104,2435.6362,N,08126.1409,W,1,8,2.2,18,M,,M,,*55
06/06/2014	11:11:05.133	$GPGGA,111105,2435.6355,N,08126.1434,W,1,8,2.2,18,M,,M,,*5E
06/06/2014	11:11:06.157	$GPGGA,111106,2435.6345,N,08126.1460,W,1,8,2.2,18,M,,M,,*5D
06/06/2014	11:11:07.130	$GPGGA,111107,2435.6334,N,08126.1485,W,1,7,2.2,18,M,,M,,*5E
06/06/2014	11:11:08.275	$GPGGA,111108,2435.6326,N,08126.1510,W,1,7,2.2,18,M,,M,,*5F
06/06/2014	11:11:09.187	$GPGGA,111109,2435.6317,N,08126.1535,W,1,8,2.3,18,M,,M,,*55
06/06/2014	11:11:10.200	$GPGGA,111110,2435.6317,N,08126.1535,W,1,8,2.3,18,M,,M,,*5D
06/06/2014	11:11:11.183	$GPGGA,111111,2435.6298,N,08126.1587,W,1,8,2.2,18,M,,M,,*52
06/06/2014	11:11:12.247	$GPGGA,111112,2435.6298,N,08126.1587,W,1,8,2.2,18,M,,M,,*51
06/06/2014	11:11:13.210	$GPGGA,111113,2435.6283,N,08126.1637,W,1,8,2.2,18,M,,M,,*52
06/06/2014	11:11:14.315	$GPGGA,111114,2435.6273,N,08126.1663,W,1,8,2.2,18,M,,M,,*5B
06/06/2014	11:11:15.227	$GPGGA,111115,2435.6263,N,08126.1689,W,1,8,2.2,18,M,,M,,*5F
06/06/2014	11:11:16.372	$GPGGA,111116,2435.6254,N,08126.1714,W,1,8,2.2,18,M,,M,,*5D
06/06/2014	11:11:17.243	$GPGGA,111117,2435.6244,N,08126.1741,W,1,7,2.2,18,M,,M,,*52
06/06/2014	11:11:18.358	$GPGGA,111118,2435.6236,N,08126.1766,W,1,7,2.2,18,M,,M,,*5D
06/06/2014	11:11:19.370	$GPGGA,111119,2435.6226,N,08126.1792,W,1,8,2.2,18,M,,M,,*59
06/06/2014	11:11:20.414	$GPGGA,111120,2435.6218,N,08126.1817,W,1,8,2.2,18,M,,M,,*5C
06/06/2014	11:11:21.397	$GPGGA,111121,2435.6207,N,08126.1842,W,1,8,2.2,18,M,,M,,*53
06/06/2014	11:11:22.360	$GPGGA,111122,2435.6199,N,08126.1868,W,1,8,2.2,18,M,,M,,*5C
06/06/2014	11:11:23.313	$GPGGA,111123,2435.6190,N,08126.1893,W,1,7,2.2,18,M,,M,,*5F
06/06/2014	11:11:24.448	$GPGGA,111124,2435.6182,N,08126.1918,W,1,7,2.2,17,M,,M,,*56
06/06/2014	11:11:25.450	$GPGGA,111125,2435.6174,N,08126.1944,W,1,8,2.2,17,M,,M,,*58
06/06/2014	11:11:26.444	$GPGGA,111126,2435.6167,N,08126.1969,W,1,8,2.2,17,M,,M,,*56
06/06/2014	11:11:27.488	$GPGGA,111127,2435.6157,N,08126.1995,W,1,8,2.2,17,M,,M,,*57
06/06/2014	11:11:28.491	$GPGGA,111128,2435.6149,N,08126.2020,W,1,8,2.2,17,M,,M,,*53
06/06/2014	11:11:29.504	$GPGGA,111129,2435.6139,N,08126.2046,W,1,7,2.2,17,M,,M,,*5A
06/06/2014	11:11:30.498	$GPGGA,111130,2435.6131,N,08126.2072,W,1,7,2.2,17,M,,M,,*5D
06/06/2014	11:11:31.521	$GPGGA,111131,2435.6124,N,08126.2097,W,1,8,2.2,17,M,,M,,*5C
06/06/2014	11:11:32.545	$GPGGA,111132,2435.6116,N,08126.2124,W,1,8,2.2,17,M,,M,,*57
06/06/2014	11:11:33.518	$GPGGA,111133,2435.6110,N,08126.2149,W,1,8,2.2,17,M,,M,,*5B
06/06/2014	11:11:34.541	$GPGGA,111134,2435.6102,N,08126.2175,W,1,8,2.2,17,M,,M,,*50
06/06/2014	11:11:35.566	$GPGGA,111135,2435.6095,N,08126.2200,W,1,8,2.2,17,M,,M,,*5F
06/06/2014	11:11:35.481	$GPGGA,111136,2435.6087,N,08126.2225,W,1,8,2.2,17,M,,M,,*58
06/06/2014	11:11:36.485	$GPGGA,111137,2435.6080,N,08126.2251,W,1,8,2.2,17,M,,M,,*5D
06/06/2014	11:11:37.488	$GPGGA,111138,2435.6073,N,08126.2274,W,1,8,2.5,17,M,,M,,*5E
06/06/2014	11:11:38.511	$GPGGA,111139,2435.6066,N,08126.2298,W,1,8,2.2,17,M,,M,,*5E
06/06/2014	11:11:39.515	$GPGGA,111140,2435.6059,N,08126.2326,W,1,8,2.2,17,M,,M,,*58
06/06/2014	11:11:40.538	$GPGGA,111141,2435.6049,N,08126.2355,W,1,8,2.2,17,M,,M,,*5C
06/06/2014	11:11:41.531	$GPGGA,111142,2435.6041,N,08126.2379,W,1,8,2.2,17,M,,M,,*59
06/06/2014	11:11:42.565	$GPGGA,111143,2435.6033,N,08126.2406,W,1,8,2.2,17,M,,M,,*52
06/06/2014	11:11:43.568	$GPGGA,111144,2435.6033,N,08126.2406,W,1,8,2.2,17,M,,M,,*55
06/06/2014	11:11:44.582	$GPGGA,111145,2435.6019,N,08126.2457,W,1,8,2.2,17,M,,M,,*58
06/06/2014	11:11:45.565	$GPGGA,111146,2435.6012,N,08126.2482,W,1,8,2.2,17,M,,M,,*58
06/06/2014	11:11:46.578	$GPGGA,111147,2435.6004,N,08126.2508,W,1,8,2.2,17,M,,M,,*5D
06/06/2014	11:11:47.602	$GPGGA,111148,2435.5997,N,08126.2534,W,1,8,2.5,17,M,,M,,*5A
06/06/2014	11:11:48.615	$GPGGA,111149,2435.5990,N,08126.2558,W,1,8,2.2,17,M,,M,,*51
06/06/2014	11:11:49.608	$GPGGA,111150,2435.5983,N,08126.2583,W,1,8,2.2,17,M,,M,,*5D
