Software Version Number: 1	Data File Format Number: 1	Build Version Number: 1	Error Count Since VI Started: 0	Manufacturer: Raytheon	 Model Number: RayMarine 120	 S/N: 	 Cal Date: 	 Wind Direction Offset: 0.00	 Slope (M)1: 0.00	 Offset (B)1: 0.00	 Slope (M)2: 0.00	 Offset (B)2: 0.00	 Slope (M)3: 0.00	 Offset (B)3: 0.00	 Slope (M)4: 0.00	 Offset (B)4: 0.00	 Slope (M)5: 0.00	 Offset (B)5: 0.00	 Slope (M)6: 0.00	 Offset (B)6: 0.00
Computer Date	Computer Time	GGA String
06/07/2014	21:00:00.434	$GPGGA,210009,2427.4928,N,08048.2746,W,1,10,1.3,19,M,,M,,*66
06/07/2014	21:00:01.486	$GPGGA,210010,2427.4935,N,08048.2714,W,1,10,1.2,19,M,,M,,*64
06/07/2014	21:00:02.445	$GPGGA,210011,2427.4944,N,08048.2681,W,1,11,1.2,19,M,,M,,*6F
06/07/2014	21:00:03.447	$GPGGA,210012,2427.4952,N,08048.2648,W,1,11,1.2,19,M,,M,,*6E
06/07/2014	21:00:04.555	$GPGGA,210013,2427.4960,N,08048.2616,W,1,11,1.2,19,M,,M,,*65
06/07/2014	21:00:05.444	$GPGGA,210014,2427.4967,N,08048.2584,W,1,11,1.2,19,M,,M,,*6D
06/07/2014	21:00:06.469	$GPGGA,210015,2427.4977,N,08048.2551,W,1,11,1.2,19,M,,M,,*65
06/07/2014	21:00:07.485	$GPGGA,210016,2427.4986,N,08048.2518,W,1,11,1.2,19,M,,M,,*65
06/07/2014	21:00:08.488	$GPGGA,210017,2427.4996,N,08048.2486,W,1,11,1.2,19,M,,M,,*63
06/07/2014	21:00:09.474	$GPGGA,210018,2427.5006,N,08048.2453,W,1,11,1.2,19,M,,M,,*65
06/07/2014	21:00:10.506	$GPGGA,210019,2427.5015,N,08048.2419,W,1,11,1.2,19,M,,M,,*68
06/07/2014	21:00:11.506	$GPGGA,210020,2427.5025,N,08048.2387,W,1,11,1.3,19,M,,M,,*60
06/07/2014	21:00:12.529	$GPGGA,210021,2427.5036,N,08048.2355,W,1,10,1.3,19,M,,M,,*6D
06/07/2014	21:00:13.525	$GPGGA,210022,2427.5049,N,08048.2324,W,1,10,1.3,19,M,,M,,*60
06/07/2014	21:00:14.636	$GPGGA,210023,2427.5062,N,08048.2294,W,1,11,1.2,19,M,,M,,*62
06/07/2014	21:00:15.546	$GPGGA,210024,2427.5076,N,08048.2264,W,1,11,1.2,19,M,,M,,*6F
06/07/2014	21:00:16.525	$GPGGA,210025,2427.5090,N,08048.2234,W,1,11,1.2,19,M,,M,,*63
06/07/2014	21:00:17.545	$GPGGA,210026,2427.5104,N,08048.2208,W,1,11,1.3,19,M,,M,,*62
06/07/2014	21:00:18.657	$GPGGA,210027,2427.5121,N,08048.2178,W,1,11,1.2,19,M,,M,,*61
06/07/2014	21:00:19.575	$GPGGA,210028,2427.5137,N,08048.2149,W,1,11,1.4,19,M,,M,,*6D
06/07/2014	21:00:20.697	$GPGGA,210029,2427.5155,N,08048.2120,W,1,11,1.2,19,M,,M,,*61
06/07/2014	21:00:21.677	$GPGGA,210030,2427.5173,N,08048.2093,W,1,11,1.2,20,M,,M,,*6E
06/07/2014	21:00:24.210	$GPGGA,210032,2427.5210,N,08048.2041,W,1,11,1.2,20,M,,M,,*65
06/07/2014	21:00:24.705	$GPGGA,210033,2427.5228,N,08048.2018,W,1,10,1.3,20,M,,M,,*63
06/07/2014	21:00:25.715	$GPGGA,210034,2427.5246,N,08048.1994,W,1,10,1.3,20,M,,M,,*62
06/07/2014	21:00:26.715	$GPGGA,210035,2427.5266,N,08048.1970,W,1,11,1.2,20,M,,M,,*6B
06/07/2014	21:00:27.736	$GPGGA,210036,2427.5286,N,08048.1947,W,1,11,1.2,20,M,,M,,*62
06/07/2014	21:00:28.746	$GPGGA,210037,2427.5307,N,08048.1924,W,1,11,1.2,20,M,,M,,*6E
06/07/2014	21:00:29.141	$GPGGA,210038,2427.5329,N,08048.1902,W,1,11,1.2,20,M,,M,,*69
06/07/2014	21:00:30.166	$GPGGA,210039,2427.5351,N,08048.1881,W,1,11,1.2,20,M,,M,,*6D
06/07/2014	21:00:31.151	$GPGGA,210040,2427.5376,N,08048.1860,W,1,11,1.2,20,M,,M,,*69
06/07/2014	21:00:32.147	$GPGGA,210041,2427.5397,N,08048.1840,W,1,10,1.4,20,M,,M,,*62
06/07/2014	21:00:33.146	$GPGGA,210042,2427.5422,N,08048.1821,W,1,10,1.2,20,M,,M,,*69
06/07/2014	21:00:34.177	$GPGGA,210043,2427.5445,N,08048.1804,W,1,11,1.2,20,M,,M,,*6F
06/07/2014	21:00:35.162	$GPGGA,210044,2427.5470,N,08048.1788,W,1,11,1.2,20,M,,M,,*65
06/07/2014	21:00:36.178	$GPGGA,210045,2427.5495,N,08048.1772,W,1,11,1.2,20,M,,M,,*6A
06/07/2014	21:00:37.153	$GPGGA,210046,2427.5520,N,08048.1756,W,1,11,1.2,20,M,,M,,*60
06/07/2014	21:00:38.158	$GPGGA,210047,2427.5545,N,08048.1742,W,1,11,1.2,20,M,,M,,*67
06/07/2014	21:00:39.184	$GPGGA,210048,2427.5570,N,08048.1728,W,1,11,1.2,20,M,,M,,*62
06/07/2014	21:00:40.178	$GPGGA,210049,2427.5593,N,08048.1714,W,1,11,1.2,20,M,,M,,*61
06/07/2014	21:00:41.173	$GPGGA,210050,2427.5621,N,08048.1704,W,1,11,1.7,20,M,,M,,*67
06/07/2014	21:00:42.169	$GPGGA,210051,2427.5647,N,08048.1692,W,1,10,1.2,20,M,,M,,*6C
06/07/2014	21:00:43.184	$GPGGA,210052,2427.5672,N,08048.1682,W,1,10,1.3,20,M,,M,,*69
06/07/2014	21:00:44.181	$GPGGA,210053,2427.5700,N,08048.1673,W,1,11,1.2,20,M,,M,,*62
06/07/2014	21:00:45.192	$GPGGA,210054,2427.5728,N,08048.1663,W,1,11,1.2,20,M,,M,,*6E
06/07/2014	21:00:46.181	$GPGGA,210055,2427.5755,N,08048.1655,W,1,11,1.2,20,M,,M,,*60
06/07/2014	21:00:47.205	$GPGGA,210056,2427.5784,N,08048.1646,W,1,11,1.2,20,M,,M,,*6D
06/07/2014	21:00:48.180	$GPGGA,210057,2427.5813,N,08048.1636,W,1,10,1.2,20,M,,M,,*6B
06/07/2014	21:00:49.196	$GPGGA,210058,2427.5842,N,08048.1628,W,1,10,1.2,20,M,,M,,*6F
06/07/2014	21:00:50.203	$GPGGA,210059,2427.5870,N,08048.1619,W,1,9,1.3,20,M,,M,,*54
06/07/2014	21:00:51.227	$GPGGA,210100,2427.5898,N,08048.1609,W,1,9,1.3,20,M,,M,,*5E
06/07/2014	21:00:52.222	$GPGGA,210101,2427.5925,N,08048.1600,W,1,10,1.3,20,M,,M,,*69
06/07/2014	21:00:53.197	$GPGGA,210102,2427.5953,N,08048.1589,W,1,10,1.2,20,M,,M,,*68
06/07/2014	21:00:54.222	$GPGGA,210103,2427.5981,N,08048.1578,W,1,10,1.3,20,M,,M,,*69
06/07/2014	21:00:55.398	$GPGGA,210104,2427.6008,N,08048.1567,W,1,10,1.2,20,M,,M,,*6A
06/07/2014	21:00:56.212	$GPGGA,210105,2427.6033,N,08048.1555,W,1,10,1.2,20,M,,M,,*62
06/07/2014	21:00:57.398	$GPGGA,210106,2427.6059,N,08048.1542,W,1,10,1.2,20,M,,M,,*6B
06/07/2014	21:00:58.353	$GPGGA,210107,2427.6086,N,08048.1527,W,1,11,1.2,20,M,,M,,*6A
06/07/2014	21:00:59.237	$GPGGA,210108,2427.6111,N,08048.1512,W,1,11,1.2,20,M,,M,,*6C
06/07/2014	21:01:00.254	$GPGGA,210109,2427.6137,N,08048.1496,W,1,10,1.4,20,M,,M,,*63
06/07/2014	21:01:01.238	$GPGGA,210110,2427.6163,N,08048.1479,W,1,10,1.4,20,M,,M,,*6B
06/07/2014	21:01:02.394	$GPGGA,210111,2427.6188,N,08048.1461,W,1,10,1.4,20,M,,M,,*66
06/07/2014	21:01:03.429	$GPGGA,210112,2427.6213,N,08048.1442,W,1,10,1.2,20,M,,M,,*63
06/07/2014	21:01:04.365	$GPGGA,210113,2427.6238,N,08048.1424,W,1,11,1.2,20,M,,M,,*6A
06/07/2014	21:01:05.420	$GPGGA,210114,2427.6264,N,08048.1405,W,1,11,1.2,20,M,,M,,*67
06/07/2014	21:01:06.395	$GPGGA,210115,2427.6289,N,08048.1387,W,1,11,1.2,21,M,,M,,*69
06/07/2014	21:01:07.360	$GPGGA,210116,2427.6315,N,08048.1367,W,1,11,1.2,21,M,,M,,*60
06/07/2014	21:01:08.411	$GPGGA,210117,2427.6340,N,08048.1348,W,1,11,1.2,21,M,,M,,*6C
06/07/2014	21:01:09.351	$GPGGA,210118,2427.6366,N,08048.1328,W,1,11,1.2,21,M,,M,,*61
06/07/2014	21:01:10.356	$GPGGA,210119,2427.6393,N,08048.1308,W,1,11,1.2,21,M,,M,,*68
06/07/2014	21:01:11.452	$GPGGA,210120,2427.6419,N,08048.1288,W,1,11,1.2,21,M,,M,,*6E
06/07/2014	21:01:12.407	$GPGGA,210121,2427.6445,N,08048.1269,W,1,11,1.2,21,M,,M,,*69
06/07/2014	21:01:13.373	$GPGGA,210122,2427.6470,N,08048.1250,W,1,11,1.2,21,M,,M,,*66
06/07/2014	21:01:14.426	$GPGGA,210123,2427.6496,N,08048.1230,W,1,11,1.2,21,M,,M,,*69
06/07/2014	21:01:15.462	$GPGGA,210124,2427.6524,N,08048.1212,W,1,11,1.4,21,M,,M,,*60
06/07/2014	21:01:16.437	$GPGGA,210125,2427.6550,N,08048.1193,W,1,10,1.2,21,M,,M,,*6F
06/07/2014	21:01:17.442	$GPGGA,210126,2427.6577,N,08048.1176,W,1,10,1.2,21,M,,M,,*62
06/07/2014	21:01:18.378	$GPGGA,210127,2427.6604,N,08048.1159,W,1,11,1.2,21,M,,M,,*68
06/07/2014	21:01:19.473	$GPGGA,210128,2427.6632,N,08048.1142,W,1,11,1.2,21,M,,M,,*68
06/07/2014	21:01:20.438	$GPGGA,210129,2427.6660,N,08048.1125,W,1,11,1.2,21,M,,M,,*6F
06/07/2014	21:01:21.443	$GPGGA,210130,2427.6687,N,08048.1110,W,1,11,1.2,21,M,,M,,*68
06/07/2014	21:01:22.439	$GPGGA,210131,2427.6713,N,08048.1094,W,1,11,1.2,21,M,,M,,*68
06/07/2014	21:01:23.464	$GPGGA,210132,2427.6741,N,08048.1078,W,1,11,1.2,21,M,,M,,*6E
06/07/2014	21:01:24.479	$GPGGA,210133,2427.6770,N,08048.1063,W,1,11,1.2,21,M,,M,,*67
06/07/2014	21:01:25.404	$GPGGA,210134,2427.6796,N,08048.1048,W,1,11,1.2,21,M,,M,,*61
06/07/2014	21:01:26.450	$GPGGA,210135,2427.6824,N,08048.1033,W,1,11,1.2,21,M,,M,,*6A
06/07/2014	21:01:27.415	$GPGGA,210136,2427.6852,N,08048.1019,W,1,11,1.2,21,M,,M,,*60
06/07/2014	21:01:28.501	$GPGGA,210137,2427.6879,N,08048.1005,W,1,11,1.2,21,M,,M,,*65
06/07/2014	21:01:29.104	$GPGGA,210138,2427.6907,N,08048.0991,W,1,11,1.2,21,M,,M,,*67
06/07/2014	21:01:30.174	$GPGGA,210139,2427.6935,N,08048.0979,W,1,11,1.2,21,M,,M,,*61
06/07/2014	21:01:31.181	$GPGGA,210140,2427.6962,N,08048.0967,W,1,11,1.2,21,M,,M,,*62
06/07/2014	21:01:32.139	$GPGGA,210141,2427.6991,N,08048.0955,W,1,10,1.3,21,M,,M,,*6E
06/07/2014	21:01:33.169	$GPGGA,210142,2427.7019,N,08048.0946,W,1,10,1.3,21,M,,M,,*67
06/07/2014	21:01:34.164	$GPGGA,210143,2427.7047,N,08048.0935,W,1,9,1.3,21,M,,M,,*51
06/07/2014	21:01:35.191	$GPGGA,210144,2427.7076,N,08048.0926,W,1,9,1.3,21,M,,M,,*56
06/07/2014	21:01:36.175	$GPGGA,210145,2427.7103,N,08048.0917,W,1,9,1.3,21,M,,M,,*56
06/07/2014	21:01:37.190	$GPGGA,210146,2427.7132,N,08048.0907,W,1,9,1.3,21,M,,M,,*56
06/07/2014	21:01:38.155	$GPGGA,210147,2427.7160,N,08048.0897,W,1,9,1.3,21,M,,M,,*58
06/07/2014	21:01:39.191	$GPGGA,210148,2427.7188,N,08048.0888,W,1,9,1.3,21,M,,M,,*5F
06/07/2014	21:01:40.136	$GPGGA,210149,2427.7218,N,08048.0879,W,1,10,1.3,21,M,,M,,*62
06/07/2014	21:01:42.572	$GPGGA,210151,2427.7272,N,08048.0859,W,1,10,1.3,20,M,,M,,*64
06/07/2014	21:01:43.222	$GPGGA,210152,2427.7300,N,08048.0848,W,1,10,1.3,20,M,,M,,*63
06/07/2014	21:01:44.197	$GPGGA,210153,2427.7327,N,08048.0838,W,1,10,1.3,20,M,,M,,*60
06/07/2014	21:01:45.243	$GPGGA,210154,2427.7355,N,08048.0828,W,1,10,1.3,20,M,,M,,*63
06/07/2014	21:01:46.147	$GPGGA,210155,2427.7384,N,08048.0820,W,1,10,1.3,20,M,,M,,*66
06/07/2014	21:01:47.297	$GPGGA,210156,2427.7413,N,08048.0812,W,1,10,1.3,20,M,,M,,*6D
06/07/2014	21:01:48.148	$GPGGA,210157,2427.7441,N,08048.0804,W,1,9,1.3,20,M,,M,,*54
06/07/2014	21:01:49.223	$GPGGA,210158,2427.7468,N,08048.0796,W,1,9,1.2,20,M,,M,,*55
06/07/2014	21:01:50.278	$GPGGA,210159,2427.7493,N,08048.0788,W,1,10,1.3,20,M,,M,,*66
06/07/2014	21:01:51.253	$GPGGA,210200,2427.7520,N,08048.0779,W,1,10,1.3,20,M,,M,,*6E
06/07/2014	21:01:52.238	$GPGGA,210201,2427.7543,N,08048.0771,W,1,11,1.3,20,M,,M,,*63
06/07/2014	21:01:53.284	$GPGGA,210202,2427.7565,N,08048.0763,W,1,11,1.2,20,M,,M,,*66
06/07/2014	21:01:54.279	$GPGGA,210203,2427.7585,N,08048.0755,W,1,11,1.2,20,M,,M,,*6C
06/07/2014	21:01:55.264	$GPGGA,210204,2427.7605,N,08048.0748,W,1,11,1.3,20,M,,M,,*6D
06/07/2014	21:01:56.320	$GPGGA,210205,2427.7626,N,08048.0740,W,1,9,1.3,20,M,,M,,*5C
06/07/2014	21:01:57.285	$GPGGA,210206,2427.7647,N,08048.0734,W,1,9,1.3,20,M,,M,,*5B
06/07/2014	21:01:58.290	$GPGGA,210207,2427.7668,N,08048.0727,W,1,9,1.3,20,M,,M,,*55
06/07/2014	21:01:59.306	$GPGGA,210208,2427.7688,N,08048.0720,W,1,9,1.2,20,M,,M,,*52
06/07/2014	21:02:00.311	$GPGGA,210209,2427.7706,N,08048.0712,W,1,10,1.2,20,M,,M,,*6D
06/07/2014	21:02:01.307	$GPGGA,210210,2427.7724,N,08048.0704,W,1,10,1.3,20,M,,M,,*63
06/07/2014	21:02:02.302	$GPGGA,210211,2427.7742,N,08048.0698,W,1,10,1.3,19,M,,M,,*6C
06/07/2014	21:02:03.317	$GPGGA,210212,2427.7760,N,08048.0691,W,1,10,1.3,19,M,,M,,*66
06/07/2014	21:02:04.332	$GPGGA,210213,2427.7777,N,08048.0684,W,1,9,1.3,19,M,,M,,*5D
06/07/2014	21:02:05.358	$GPGGA,210214,2427.7793,N,08048.0677,W,1,9,1.2,19,M,,M,,*5D
06/07/2014	21:02:06.323	$GPGGA,210215,2427.7810,N,08048.0670,W,1,11,1.3,19,M,,M,,*67
06/07/2014	21:02:07.327	$GPGGA,210216,2427.7825,N,08048.0661,W,1,11,1.3,19,M,,M,,*62
06/07/2014	21:02:08.342	$GPGGA,210217,2427.7840,N,08048.0655,W,1,10,1.3,19,M,,M,,*66
06/07/2014	21:02:09.338	$GPGGA,210218,2427.7857,N,08048.0648,W,1,10,1.3,19,M,,M,,*63
06/07/2014	21:02:10.363	$GPGGA,210219,2427.7871,N,08048.0642,W,1,9,1.2,19,M,,M,,*55
06/07/2014	21:02:11.348	$GPGGA,210220,2427.7885,N,08048.0634,W,1,9,1.2,19,M,,M,,*55
06/07/2014	21:02:12.364	$GPGGA,210221,2427.7900,N,08048.0627,W,1,11,1.2,19,M,,M,,*63
06/07/2014	21:02:13.329	$GPGGA,210222,2427.7900,N,08048.0627,W,1,11,1.2,19,M,,M,,*60
06/07/2014	21:02:14.354	$GPGGA,210223,2427.7929,N,08048.0612,W,1,11,1.3,19,M,,M,,*6D
06/07/2014	21:02:15.369	$GPGGA,210224,2427.7929,N,08048.0612,W,1,11,1.3,19,M,,M,,*6A
06/07/2014	21:02:16.365	$GPGGA,210225,2427.7958,N,08048.0598,W,1,11,1.3,19,M,,M,,*6C
06/07/2014	21:02:17.360	$GPGGA,210226,2427.7973,N,08048.0591,W,1,11,1.2,19,M,,M,,*6E
06/07/2014	21:02:18.358	$GPGGA,210227,2427.7984,N,08048.0582,W,1,10,1.2,19,M,,M,,*64
06/07/2014	21:02:19.391	$GPGGA,210228,2427.7995,N,08048.0575,W,1,10,1.3,19,M,,M,,*62
06/07/2014	21:02:20.376	$GPGGA,210229,2427.8009,N,08048.0569,W,1,10,1.3,18,M,,M,,*6C
06/07/2014	21:02:21.482	$GPGGA,210230,2427.8022,N,08048.0561,W,1,10,1.3,18,M,,M,,*65
06/07/2014	21:02:22.386	$GPGGA,210231,2427.8022,N,08048.0561,W,1,11,1.2,18,M,,M,,*64
06/07/2014	21:02:23.412	$GPGGA,210232,2427.8034,N,08048.0554,W,1,11,1.3,18,M,,M,,*67
06/07/2014	21:02:24.407	$GPGGA,210233,2427.8057,N,08048.0540,W,1,10,1.3,18,M,,M,,*67
06/07/2014	21:02:25.411	$GPGGA,210234,2427.8057,N,08048.0540,W,1,10,1.3,18,M,,M,,*60
06/07/2014	21:02:26.397	$GPGGA,210235,2427.8082,N,08048.0528,W,1,10,1.3,18,M,,M,,*67
06/07/2014	21:02:27.432	$GPGGA,210236,2427.8092,N,08048.0522,W,1,10,1.3,18,M,,M,,*6F
06/07/2014	21:02:28.402	$GPGGA,210237,2427.8107,N,08048.0514,W,1,9,1.3,18,M,,M,,*5E
06/07/2014	21:02:29.104	$GPGGA,210238,2427.8118,N,08048.0508,W,1,9,1.3,18,M,,M,,*52
06/07/2014	21:02:30.082	$GPGGA,210239,2427.8129,N,08048.0502,W,1,9,1.3,18,M,,M,,*5B
06/07/2014	21:02:31.153	$GPGGA,210240,2427.8139,N,08048.0495,W,1,9,1.2,18,M,,M,,*5A
06/07/2014	21:02:32.173	$GPGGA,210241,2427.8150,N,08048.0488,W,1,11,1.2,18,M,,M,,*61
06/07/2014	21:02:33.098	$GPGGA,210242,2427.8150,N,08048.0488,W,1,11,1.2,18,M,,M,,*62
06/07/2014	21:02:34.223	$GPGGA,210243,2427.8178,N,08048.0473,W,1,11,1.2,18,M,,M,,*6D
06/07/2014	21:02:35.141	$GPGGA,210244,2427.8178,N,08048.0473,W,1,11,1.2,18,M,,M,,*6A
06/07/2014	21:02:36.083	$GPGGA,210245,2427.8197,N,08048.0459,W,1,10,1.2,18,M,,M,,*63
06/07/2014	21:02:37.109	$GPGGA,210246,2427.8197,N,08048.0459,W,1,10,1.2,18,M,,M,,*60
06/07/2014	21:02:38.226	$GPGGA,210247,2427.8221,N,08048.0447,W,1,10,1.2,18,M,,M,,*60
06/07/2014	21:02:39.221	$GPGGA,210248,2427.8233,N,08048.0440,W,1,10,1.2,18,M,,M,,*6B
06/07/2014	21:02:40.205	$GPGGA,210249,2427.8244,N,08048.0433,W,1,10,1.2,18,M,,M,,*6E
06/07/2014	21:02:41.200	$GPGGA,210250,2427.8254,N,08048.0425,W,1,10,1.2,18,M,,M,,*60
06/07/2014	21:02:42.235	$GPGGA,210251,2427.8265,N,08048.0419,W,1,11,1.2,18,M,,M,,*6D
06/07/2014	21:02:43.220	$GPGGA,210252,2427.8277,N,08048.0411,W,1,11,1.2,18,M,,M,,*65
06/07/2014	21:02:44.215	$GPGGA,210253,2427.8288,N,08048.0404,W,1,11,1.2,18,M,,M,,*60
06/07/2014	21:02:45.244	$GPGGA,210254,2427.8298,N,08048.0397,W,1,11,1.2,18,M,,M,,*6B
06/07/2014	21:02:46.327	$GPGGA,210255,2427.8311,N,08048.0389,W,1,11,1.2,18,M,,M,,*65
06/07/2014	21:02:47.378	$GPGGA,210256,2427.8322,N,08048.0381,W,1,11,1.2,18,M,,M,,*6E
06/07/2014	21:02:48.439	$GPGGA,210257,2427.8333,N,08048.0373,W,1,11,1.2,18,M,,M,,*62
06/07/2014	21:02:49.480	$GPGGA,210258,2427.8345,N,08048.0366,W,1,11,1.2,18,M,,M,,*68
06/07/2014	21:02:50.552	$GPGGA,210259,2427.8356,N,08048.0359,W,1,11,1.2,18,M,,M,,*67
06/07/2014	21:02:51.624	$GPGGA,210300,2427.8370,N,08048.0352,W,1,11,1.2,18,M,,M,,*65
06/07/2014	21:02:52.675	$GPGGA,210301,2427.8382,N,08048.0346,W,1,10,1.2,17,M,,M,,*62
06/07/2014	21:02:53.715	$GPGGA,210302,2427.8393,N,08048.0339,W,1,10,1.2,17,M,,M,,*69
06/07/2014	21:02:54.798	$GPGGA,210303,2427.8406,N,08048.0332,W,1,10,1.2,17,M,,M,,*68
06/07/2014	21:02:55.849	$GPGGA,210304,2427.8418,N,08048.0325,W,1,10,1.2,17,M,,M,,*66
06/07/2014	21:02:56.881	$GPGGA,210305,2427.8432,N,08048.0317,W,1,9,1.3,17,M,,M,,*57
06/07/2014	21:02:57.962	$GPGGA,210306,2427.8443,N,08048.0311,W,1,9,1.2,17,M,,M,,*55
06/07/2014	21:02:59.034	$GPGGA,210307,2427.8457,N,08048.0303,W,1,10,1.2,17,M,,M,,*6A
06/07/2014	21:03:00.109	$GPGGA,210308,2427.8468,N,08048.0296,W,1,10,1.2,17,M,,M,,*64
06/07/2014	21:03:01.137	$GPGGA,210309,2427.8483,N,08048.0289,W,1,10,1.2,17,M,,M,,*6E
06/07/2014	21:03:02.201	$GPGGA,210310,2427.8494,N,08048.0282,W,1,10,1.2,17,M,,M,,*6B
06/07/2014	21:03:03.279	$GPGGA,210311,2427.8508,N,08048.0274,W,1,10,1.2,17,M,,M,,*67
06/07/2014	21:03:04.330	$GPGGA,210312,2427.8521,N,08048.0267,W,1,10,1.2,17,M,,M,,*6D
06/07/2014	21:03:05.392	$GPGGA,210313,2427.8533,N,08048.0260,W,1,10,1.2,17,M,,M,,*68
06/07/2014	21:03:06.422	$GPGGA,210314,2427.8544,N,08048.0250,W,1,10,1.2,17,M,,M,,*6C
06/07/2014	21:03:07.515	$GPGGA,210315,2427.8559,N,08048.0243,W,1,11,1.2,17,M,,M,,*62
06/07/2014	21:03:08.566	$GPGGA,210316,2427.8572,N,08048.0237,W,1,11,1.2,17,M,,M,,*6B
06/07/2014	21:03:09.618	$GPGGA,210317,2427.8583,N,08048.0227,W,1,10,1.2,17,M,,M,,*64
06/07/2014	21:03:10.657	$GPGGA,210318,2427.8595,N,08048.0219,W,1,10,1.2,17,M,,M,,*61
06/07/2014	21:03:11.719	$GPGGA,210319,2427.8609,N,08048.0213,W,1,11,1.2,17,M,,M,,*6D
06/07/2014	21:03:12.919	$GPGGA,210320,2427.8622,N,08048.0205,W,1,11,1.2,17,M,,M,,*69
06/07/2014	21:03:13.885	$GPGGA,210321,2427.8634,N,08048.0198,W,1,11,1.2,17,M,,M,,*68
06/07/2014	21:03:14.893	$GPGGA,210322,2427.8648,N,08048.0191,W,1,11,1.2,17,M,,M,,*69
06/07/2014	21:03:15.955	$GPGGA,210323,2427.8660,N,08048.0184,W,1,10,1.2,17,M,,M,,*67
06/07/2014	21:03:17.165	$GPGGA,210324,2427.8674,N,08048.0176,W,1,10,1.2,17,M,,M,,*68
06/07/2014	21:03:18.209	$GPGGA,210325,2427.8685,N,08048.0168,W,1,11,1.2,17,M,,M,,*69
06/07/2014	21:03:19.140	$GPGGA,210326,2427.8699,N,08048.0160,W,1,11,1.3,17,M,,M,,*6E
06/07/2014	21:03:20.349	$GPGGA,210327,2427.8712,N,08048.0152,W,1,11,1.2,17,M,,M,,*6D
06/07/2014	21:03:21.286	$GPGGA,210328,2427.8724,N,08048.0144,W,1,11,1.2,17,M,,M,,*60
06/07/2014	21:03:22.462	$GPGGA,210329,2427.8736,N,08048.0136,W,1,10,1.3,17,M,,M,,*67
06/07/2014	21:03:23.385	$GPGGA,210330,2427.8750,N,08048.0128,W,1,10,1.2,18,M,,M,,*6E
06/07/2014	21:03:24.575	$GPGGA,210331,2427.8763,N,08048.0121,W,1,11,1.2,18,M,,M,,*67
06/07/2014	21:03:25.614	$GPGGA,210332,2427.8775,N,08048.0114,W,1,11,1.3,18,M,,M,,*64
06/07/2014	21:03:26.655	$GPGGA,210333,2427.8786,N,08048.0106,W,1,11,1.2,18,M,,M,,*6B
06/07/2014	21:03:27.716	$GPGGA,210334,2427.8800,N,08048.0099,W,1,11,1.2,18,M,,M,,*6A
06/07/2014	21:03:28.810	$GPGGA,210335,2427.8811,N,08048.0091,W,1,11,1.2,18,M,,M,,*63
06/07/2014	21:03:29.850	$GPGGA,210336,2427.8825,N,08048.0084,W,1,11,1.3,18,M,,M,,*62
06/07/2014	21:03:30.912	$GPGGA,210337,2427.8837,N,08048.0077,W,1,11,1.2,18,M,,M,,*6D
06/07/2014	21:03:29.158	$GPGGA,210338,2427.8850,N,08048.0070,W,1,11,1.2,18,M,,M,,*64
06/07/2014	21:03:30.219	$GPGGA,210339,2427.8862,N,08048.0064,W,1,11,1.2,18,M,,M,,*61
06/07/2014	21:03:31.281	$GPGGA,210340,2427.8875,N,08048.0057,W,1,11,1.2,18,M,,M,,*69
06/07/2014	21:03:32.342	$GPGGA,210341,2427.8887,N,08048.0051,W,1,11,1.2,18,M,,M,,*63
06/07/2014	21:03:33.393	$GPGGA,210342,2427.8900,N,08048.0043,W,1,11,1.2,18,M,,M,,*6D
06/07/2014	21:03:34.443	$GPGGA,210343,2427.8913,N,08048.0037,W,1,10,1.3,18,M,,M,,*6D
06/07/2014	21:03:35.516	$GPGGA,210344,2427.8927,N,08048.0030,W,1,10,1.2,18,M,,M,,*6B
06/07/2014	21:03:36.588	$GPGGA,210345,2427.8941,N,08048.0023,W,1,11,1.2,18,M,,M,,*69
06/07/2014	21:03:37.618	$GPGGA,210346,2427.8956,N,08048.0018,W,1,11,1.2,18,M,,M,,*64
06/07/2014	21:03:38.711	$GPGGA,210347,2427.8970,N,08048.0012,W,1,11,1.2,18,M,,M,,*6B
06/07/2014	21:03:39.762	$GPGGA,210348,2427.8983,N,08048.0005,W,1,11,1.2,18,M,,M,,*6E
06/07/2014	21:03:40.813	$GPGGA,210349,2427.8996,N,08047.9998,W,1,10,1.2,18,M,,M,,*61
06/07/2014	21:03:41.875	$GPGGA,210350,2427.9010,N,08047.9993,W,1,10,1.2,18,M,,M,,*64
06/07/2014	21:03:42.915	$GPGGA,210351,2427.9024,N,08047.9986,W,1,10,1.2,18,M,,M,,*66
06/07/2014	21:03:43.998	$GPGGA,210352,2427.9036,N,08047.9979,W,1,10,1.2,18,M,,M,,*66
06/07/2014	21:03:45.070	$GPGGA,210353,2427.9049,N,08047.9971,W,1,10,1.2,18,M,,M,,*67
06/07/2014	21:03:46.098	$GPGGA,210354,2427.9063,N,08047.9964,W,1,10,1.2,18,M,,M,,*6C
06/07/2014	21:03:47.193	$GPGGA,210355,2427.9075,N,08047.9957,W,1,10,1.2,18,M,,M,,*6A
06/07/2014	21:03:48.223	$GPGGA,210356,2427.9088,N,08047.9948,W,1,10,1.2,18,M,,M,,*65
06/07/2014	21:03:49.274	$GPGGA,210357,2427.9100,N,08047.9941,W,1,11,1.2,18,M,,M,,*6D
06/07/2014	21:03:50.341	$GPGGA,210358,2427.9115,N,08047.9934,W,1,11,1.2,18,M,,M,,*64
06/07/2014	21:03:51.440	$GPGGA,210359,2427.9128,N,08047.9927,W,1,10,1.2,18,M,,M,,*68
06/07/2014	21:03:52.501	$GPGGA,210400,2427.9140,N,08047.9919,W,1,10,1.4,18,M,,M,,*66
06/07/2014	21:03:53.509	$GPGGA,210401,2427.9154,N,08047.9912,W,1,10,1.2,18,M,,M,,*6F
06/07/2014	21:03:54.581	$GPGGA,210402,2427.9168,N,08047.9905,W,1,10,1.2,18,M,,M,,*65
06/07/2014	21:03:55.645	$GPGGA,210403,2427.9179,N,08047.9896,W,1,10,1.2,18,M,,M,,*6F
06/07/2014	21:03:56.715	$GPGGA,210404,2427.9193,N,08047.9890,W,1,10,1.2,18,M,,M,,*6A
06/07/2014	21:03:57.744	$GPGGA,210405,2427.9205,N,08047.9882,W,1,10,1.2,18,M,,M,,*64
06/07/2014	21:03:58.914	$GPGGA,210406,2427.9219,N,08047.9875,W,1,10,1.2,18,M,,M,,*62
06/07/2014	21:03:59.899	$GPGGA,210407,2427.9231,N,08047.9868,W,1,11,1.2,18,M,,M,,*64
06/07/2014	21:04:00.950	$GPGGA,210408,2427.9244,N,08047.9860,W,1,11,1.2,18,M,,M,,*61
06/07/2014	21:04:02.114	$GPGGA,210409,2427.9256,N,08047.9852,W,1,11,1.2,18,M,,M,,*62
06/07/2014	21:04:03.055	$GPGGA,210410,2427.9269,N,08047.9845,W,1,11,1.2,18,M,,M,,*60
06/07/2014	21:04:04.251	$GPGGA,210411,2427.9281,N,08047.9838,W,1,11,1.2,18,M,,M,,*6D
06/07/2014	21:04:05.189	$GPGGA,210412,2427.9294,N,08047.9830,W,1,11,1.3,18,M,,M,,*63
06/07/2014	21:04:06.237	$GPGGA,210413,2427.9305,N,08047.9824,W,1,10,1.3,18,M,,M,,*6F
06/07/2014	21:04:07.299	$GPGGA,210414,2427.9317,N,08047.9817,W,1,10,1.2,18,M,,M,,*6A
06/07/2014	21:04:08.498	$GPGGA,210415,2427.9330,N,08047.9809,W,1,11,1.2,18,M,,M,,*60
06/07/2014	21:04:09.426	$GPGGA,210416,2427.9342,N,08047.9803,W,1,11,1.2,18,M,,M,,*6C
06/07/2014	21:04:10.600	$GPGGA,210417,2427.9353,N,08047.9796,W,1,11,1.2,18,M,,M,,*6E
06/07/2014	21:04:11.629	$GPGGA,210418,2427.9368,N,08047.9787,W,1,11,1.3,18,M,,M,,*68
06/07/2014	21:04:12.691	$GPGGA,210419,2427.9379,N,08047.9781,W,1,11,1.2,18,M,,M,,*6E
06/07/2014	21:04:13.657	$GPGGA,210420,2427.9389,N,08047.9774,W,1,11,1.3,18,M,,M,,*60
06/07/2014	21:04:15.866	$GPGGA,210422,2427.9411,N,08047.9760,W,1,10,1.2,18,M,,M,,*61
06/07/2014	21:04:16.926	$GPGGA,210423,2427.9422,N,08047.9754,W,1,11,1.2,18,M,,M,,*66
06/07/2014	21:04:17.999	$GPGGA,210424,2427.9435,N,08047.9747,W,1,11,1.2,18,M,,M,,*65
06/07/2014	21:04:19.060	$GPGGA,210425,2427.9444,N,08047.9740,W,1,11,1.2,19,M,,M,,*64
06/07/2014	21:04:20.101	$GPGGA,210426,2427.9455,N,08047.9733,W,1,11,1.3,19,M,,M,,*62
06/07/2014	21:04:21.152	$GPGGA,210427,2427.9468,N,08047.9727,W,1,11,1.2,19,M,,M,,*69
06/07/2014	21:04:22.234	$GPGGA,210428,2427.9480,N,08047.9719,W,1,11,1.3,19,M,,M,,*6C
06/07/2014	21:04:23.285	$GPGGA,210429,2427.9489,N,08047.9712,W,1,10,1.3,19,M,,M,,*6E
06/07/2014	21:04:24.347	$GPGGA,210430,2427.9498,N,08047.9705,W,1,10,1.2,19,M,,M,,*61
06/07/2014	21:04:25.419	$GPGGA,210431,2427.9508,N,08047.9698,W,1,11,1.2,19,M,,M,,*6C
06/07/2014	21:04:26.470	$GPGGA,210432,2427.9520,N,08047.9691,W,1,11,1.2,19,M,,M,,*6C
06/07/2014	21:04:27.532	$GPGGA,210433,2427.9530,N,08047.9686,W,1,10,1.2,19,M,,M,,*6B
06/07/2014	21:04:28.583	$GPGGA,210434,2427.9541,N,08047.9679,W,1,10,1.2,19,M,,M,,*6A
06/07/2014	21:04:29.634	$GPGGA,210435,2427.9552,N,08047.9672,W,1,11,1.2,19,M,,M,,*63
06/07/2014	21:04:30.716	$GPGGA,210436,2427.9563,N,08047.9665,W,1,11,1.2,18,M,,M,,*65
06/07/2014	21:04:31.756	$GPGGA,210437,2427.9574,N,08047.9658,W,1,11,1.2,18,M,,M,,*6C
06/07/2014	21:04:29.130	$GPGGA,210438,2427.9584,N,08047.9650,W,1,11,1.2,18,M,,M,,*64
06/07/2014	21:04:30.174	$GPGGA,210439,2427.9595,N,08047.9644,W,1,10,1.3,18,M,,M,,*60
06/07/2014	21:04:31.256	$GPGGA,210440,2427.9606,N,08047.9638,W,1,10,1.2,18,M,,M,,*6D
06/07/2014	21:04:32.307	$GPGGA,210441,2427.9617,N,08047.9631,W,1,11,1.2,18,M,,M,,*64
06/07/2014	21:04:33.358	$GPGGA,210442,2427.9627,N,08047.9624,W,1,11,1.2,18,M,,M,,*60
06/07/2014	21:04:34.420	$GPGGA,210443,2427.9638,N,08047.9617,W,1,11,1.2,18,M,,M,,*6F
06/07/2014	21:04:35.503	$GPGGA,210444,2427.9648,N,08047.9611,W,1,11,1.2,18,M,,M,,*69
06/07/2014	21:04:36.536	$GPGGA,210445,2427.9657,N,08047.9604,W,1,11,1.2,18,M,,M,,*62
06/07/2014	21:04:37.615	$GPGGA,210446,2427.9668,N,08047.9597,W,1,11,1.2,18,M,,M,,*64
06/07/2014	21:04:38.646	$GPGGA,210447,2427.9678,N,08047.9591,W,1,11,1.2,18,M,,M,,*62
06/07/2014	21:04:39.728	$GPGGA,210448,2427.9689,N,08047.9584,W,1,11,1.2,18,M,,M,,*67
06/07/2014	21:04:40.896	$GPGGA,210449,2427.9700,N,08047.9577,W,1,11,1.2,18,M,,M,,*6A
06/07/2014	21:04:41.846	$GPGGA,210450,2427.9708,N,08047.9568,W,1,11,1.2,18,M,,M,,*64
06/07/2014	21:04:43.008	$GPGGA,210451,2427.9718,N,08047.9561,W,1,10,1.3,18,M,,M,,*6D
06/07/2014	21:04:43.966	$GPGGA,210452,2427.9728,N,08047.9551,W,1,10,1.2,18,M,,M,,*6F
06/07/2014	21:04:45.123	$GPGGA,210453,2427.9736,N,08047.9543,W,1,11,1.2,18,M,,M,,*63
06/07/2014	21:04:46.066	$GPGGA,210454,2427.9747,N,08047.9537,W,1,11,1.2,18,M,,M,,*61
06/07/2014	21:04:47.232	$GPGGA,210455,2427.9757,N,08047.9529,W,1,11,1.2,18,M,,M,,*6E
06/07/2014	21:04:48.326	$GPGGA,210456,2427.9767,N,08047.9522,W,1,11,1.2,18,M,,M,,*65
06/07/2014	21:04:49.366	$GPGGA,210457,2427.9778,N,08047.9515,W,1,11,1.2,18,M,,M,,*6E
06/07/2014	21:04:50.407	$GPGGA,210458,2427.9787,N,08047.9508,W,1,11,1.2,18,M,,M,,*6D
06/07/2014	21:04:51.495	$GPGGA,210459,2427.9798,N,08047.9500,W,1,11,1.2,18,M,,M,,*6A
06/07/2014	21:04:52.593	$GPGGA,210500,2427.9809,N,08047.9494,W,1,11,1.3,18,M,,M,,*6D
06/07/2014	21:04:53.485	$GPGGA,210501,2427.9819,N,08047.9487,W,1,11,1.2,18,M,,M,,*6E
06/07/2014	21:04:54.653	$GPGGA,210502,2427.9827,N,08047.9480,W,1,11,1.2,19,M,,M,,*66
06/07/2014	21:04:55.715	$GPGGA,210503,2427.9837,N,08047.9473,W,1,10,1.3,19,M,,M,,*6A
06/07/2014	21:04:56.787	$GPGGA,210504,2427.9848,N,08047.9467,W,1,10,1.2,19,M,,M,,*61
06/07/2014	21:04:57.827	$GPGGA,210505,2427.9858,N,08047.9460,W,1,11,1.2,19,M,,M,,*67
06/07/2014	21:04:58.889	$GPGGA,210506,2427.9867,N,08047.9453,W,1,11,1.2,19,M,,M,,*68
06/07/2014	21:04:59.962	$GPGGA,210507,2427.9879,N,08047.9446,W,1,11,1.2,19,M,,M,,*62
06/07/2014	21:05:01.024	$GPGGA,210508,2427.9890,N,08047.9440,W,1,11,1.2,19,M,,M,,*6C
06/07/2014	21:05:02.084	$GPGGA,210509,2427.9899,N,08047.9434,W,1,11,1.2,19,M,,M,,*67
06/07/2014	21:05:03.135	$GPGGA,210510,2427.9908,N,08047.9426,W,1,11,1.3,19,M,,M,,*64
06/07/2014	21:05:04.197	$GPGGA,210511,2427.9917,N,08047.9420,W,1,11,1.2,19,M,,M,,*6C
06/07/2014	21:05:05.257	$GPGGA,210512,2427.9927,N,08047.9414,W,1,11,1.2,19,M,,M,,*6B
06/07/2014	21:05:06.319	$GPGGA,210513,2427.9935,N,08047.9406,W,1,11,1.2,19,M,,M,,*6A
06/07/2014	21:05:07.359	$GPGGA,210514,2427.9945,N,08047.9400,W,1,11,1.2,19,M,,M,,*6C
06/07/2014	21:05:08.433	$GPGGA,210515,2427.9955,N,08047.9394,W,1,10,1.3,19,M,,M,,*66
06/07/2014	21:05:09.493	$GPGGA,210516,2427.9962,N,08047.9387,W,1,10,1.2,19,M,,M,,*62
06/07/2014	21:05:10.555	$GPGGA,210517,2427.9971,N,08047.9381,W,1,11,1.2,19,M,,M,,*66
06/07/2014	21:05:11.584	$GPGGA,210518,2427.9980,N,08047.9375,W,1,11,1.2,19,M,,M,,*6C
06/07/2014	21:05:12.646	$GPGGA,210519,2427.9991,N,08047.9369,W,1,11,1.2,19,M,,M,,*60
06/07/2014	21:05:13.718	$GPGGA,210520,2428.0000,N,08047.9362,W,1,11,1.2,19,M,,M,,*66
06/07/2014	21:05:14.790	$GPGGA,210521,2428.0010,N,08047.9355,W,1,11,1.2,19,M,,M,,*62
06/07/2014	21:05:15.831	$GPGGA,210522,2428.0020,N,08047.9348,W,1,11,1.3,19,M,,M,,*6F
06/07/2014	21:05:16.877	$GPGGA,210523,2428.0033,N,08047.9342,W,1,10,1.3,19,M,,M,,*67
06/07/2014	21:05:17.965	$GPGGA,210524,2428.0043,N,08047.9335,W,1,10,1.2,19,M,,M,,*66
06/07/2014	21:05:19.005	$GPGGA,210525,2428.0054,N,08047.9328,W,1,11,1.2,19,M,,M,,*6C
06/07/2014	21:05:20.077	$GPGGA,210526,2428.0065,N,08047.9322,W,1,11,1.2,19,M,,M,,*67
06/07/2014	21:05:21.171	$GPGGA,210527,2428.0074,N,08047.9316,W,1,11,1.2,19,M,,M,,*61
06/07/2014	21:05:22.199	$GPGGA,210528,2428.0083,N,08047.9309,W,1,11,1.2,19,M,,M,,*68
06/07/2014	21:05:23.242	$GPGGA,210529,2428.0096,N,08047.9303,W,1,10,1.3,19,M,,M,,*67
06/07/2014	21:05:24.410	$GPGGA,210530,2428.0105,N,08047.9297,W,1,10,1.2,19,M,,M,,*69
06/07/2014	21:05:25.416	$GPGGA,210531,2428.0115,N,08047.9291,W,1,11,1.2,19,M,,M,,*6E
06/07/2014	21:05:26.425	$GPGGA,210532,2428.0123,N,08047.9285,W,1,11,1.3,19,M,,M,,*6C
06/07/2014	21:05:27.529	$GPGGA,210533,2428.0134,N,08047.9279,W,1,10,1.3,19,M,,M,,*69
06/07/2014	21:05:28.537	$GPGGA,210534,2428.0144,N,08047.9272,W,1,10,1.2,19,M,,M,,*63
06/07/2014	21:05:29.631	$GPGGA,210535,2428.0152,N,08047.9266,W,1,10,1.3,19,M,,M,,*61
06/07/2014	21:05:30.682	$GPGGA,210536,2428.0162,N,08047.9260,W,1,10,1.3,19,M,,M,,*67
06/07/2014	21:05:31.754	$GPGGA,210537,2428.0170,N,08047.9255,W,1,10,1.3,19,M,,M,,*63
06/07/2014	21:05:29.090	$GPGGA,210538,2428.0180,N,08047.9249,W,1,10,1.3,19,M,,M,,*6E
06/07/2014	21:05:30.141	$GPGGA,210539,2428.0190,N,08047.9242,W,1,10,1.3,19,M,,M,,*65
06/07/2014	21:05:31.224	$GPGGA,210540,2428.0199,N,08047.9236,W,1,10,1.3,19,M,,M,,*61
06/07/2014	21:05:32.402	$GPGGA,210541,2428.0208,N,08047.9230,W,1,10,1.3,19,M,,M,,*6D
06/07/2014	21:05:33.315	$GPGGA,210542,2428.0217,N,08047.9224,W,1,10,1.3,19,M,,M,,*65
06/07/2014	21:05:34.402	$GPGGA,210543,2428.0228,N,08047.9217,W,1,10,1.3,18,M,,M,,*69
06/07/2014	21:05:35.449	$GPGGA,210544,2428.0237,N,08047.9212,W,1,10,1.3,18,M,,M,,*65
06/07/2014	21:05:36.630	$GPGGA,210545,2428.0246,N,08047.9205,W,1,10,1.3,18,M,,M,,*64
06/07/2014	21:05:37.656	$GPGGA,210546,2428.0257,N,08047.9199,W,1,10,1.3,18,M,,M,,*61
06/07/2014	21:05:38.754	$GPGGA,210547,2428.0267,N,08047.9193,W,1,10,1.3,18,M,,M,,*69
06/07/2014	21:05:39.708	$GPGGA,210548,2428.0277,N,08047.9186,W,1,10,1.3,18,M,,M,,*63
06/07/2014	21:05:40.756	$GPGGA,210549,2428.0288,N,08047.9180,W,1,10,1.3,18,M,,M,,*64
06/07/2014	21:05:41.785	$GPGGA,210550,2428.0299,N,08047.9174,W,1,10,1.3,18,M,,M,,*67
06/07/2014	21:05:43.002	$GPGGA,210551,2428.0310,N,08047.9168,W,1,10,1.3,18,M,,M,,*6B
06/07/2014	21:05:44.036	$GPGGA,210552,2428.0320,N,08047.9161,W,1,10,1.3,18,M,,M,,*62
06/07/2014	21:05:44.991	$GPGGA,210553,2428.0329,N,08047.9155,W,1,10,1.3,18,M,,M,,*6D
06/07/2014	21:05:46.138	$GPGGA,210554,2428.0340,N,08047.9149,W,1,10,1.3,18,M,,M,,*68
06/07/2014	21:05:47.221	$GPGGA,210555,2428.0351,N,08047.9142,W,1,10,1.3,18,M,,M,,*62
06/07/2014	21:05:48.272	$GPGGA,210556,2428.0363,N,08047.9136,W,1,10,1.3,18,M,,M,,*63
06/07/2014	21:05:49.312	$GPGGA,210557,2428.0374,N,08047.9130,W,1,10,1.3,18,M,,M,,*62
06/07/2014	21:05:50.375	$GPGGA,210558,2428.0383,N,08047.9124,W,1,10,1.3,18,M,,M,,*60
06/07/2014	21:05:51.425	$GPGGA,210559,2428.0394,N,08047.9117,W,1,10,1.3,18,M,,M,,*67
06/07/2014	21:05:52.529	$GPGGA,210600,2428.0407,N,08047.9110,W,1,10,1.3,18,M,,M,,*62
06/07/2014	21:05:53.590	$GPGGA,210601,2428.0418,N,08047.9104,W,1,10,1.3,18,M,,M,,*68
06/07/2014	21:05:54.609	$GPGGA,210602,2428.0429,N,08047.9097,W,1,10,1.3,18,M,,M,,*62
06/07/2014	21:05:55.670	$GPGGA,210603,2428.0440,N,08047.9091,W,1,10,1.3,18,M,,M,,*6A
06/07/2014	21:05:56.742	$GPGGA,210604,2428.0451,N,08047.9085,W,1,10,1.3,18,M,,M,,*68
06/07/2014	21:05:57.814	$GPGGA,210605,2428.0462,N,08047.9078,W,1,10,1.3,18,M,,M,,*6B
06/07/2014	21:05:58.855	$GPGGA,210606,2428.0473,N,08047.9072,W,1,10,1.3,18,M,,M,,*62
06/07/2014	21:05:59.938	$GPGGA,210607,2428.0484,N,08047.9065,W,1,10,1.3,18,M,,M,,*6D
06/07/2014	21:06:00.989	$GPGGA,210608,2428.0495,N,08047.9059,W,1,10,1.3,18,M,,M,,*6D
06/07/2014	21:06:02.029	$GPGGA,210609,2428.0508,N,08047.9052,W,1,10,1.3,18,M,,M,,*62
06/07/2014	21:06:03.091	$GPGGA,210610,2428.0519,N,08047.9045,W,1,10,1.3,18,M,,M,,*6C
06/07/2014	21:06:04.163	$GPGGA,210611,2428.0531,N,08047.9039,W,1,10,1.3,18,M,,M,,*6C
06/07/2014	21:06:05.246	$GPGGA,210612,2428.0542,N,08047.9033,W,1,10,1.3,17,M,,M,,*6E
06/07/2014	21:06:06.260	$GPGGA,210613,2428.0553,N,08047.9026,W,1,10,1.3,17,M,,M,,*6B
06/07/2014	21:06:07.326	$GPGGA,210614,2428.0566,N,08047.9020,W,1,10,1.3,17,M,,M,,*6C
06/07/2014	21:06:08.409	$GPGGA,210615,2428.0578,N,08047.9014,W,1,10,1.3,17,M,,M,,*65
06/07/2014	21:06:09.481	$GPGGA,210616,2428.0589,N,08047.9007,W,1,10,1.3,17,M,,M,,*6A
06/07/2014	21:06:10.532	$GPGGA,210617,2428.0602,N,08047.9001,W,1,10,1.3,17,M,,M,,*6D
06/07/2014	21:06:11.557	$GPGGA,210618,2428.0613,N,08047.8995,W,1,10,1.3,17,M,,M,,*67
06/07/2014	21:06:12.634	$GPGGA,210619,2428.0625,N,08047.8988,W,1,10,1.3,17,M,,M,,*6F
06/07/2014	21:06:13.696	$GPGGA,210620,2428.0636,N,08047.8982,W,1,10,1.3,17,M,,M,,*6D
06/07/2014	21:06:14.747	$GPGGA,210621,2428.0649,N,08047.8976,W,1,10,1.3,17,M,,M,,*6F
06/07/2014	21:06:15.801	$GPGGA,210622,2428.0661,N,08047.8969,W,1,10,1.3,17,M,,M,,*68
06/07/2014	21:06:16.848	$GPGGA,210623,2428.0672,N,08047.8963,W,1,10,1.3,17,M,,M,,*61
06/07/2014	21:06:18.053	$GPGGA,210624,2428.0685,N,08047.8957,W,1,10,1.3,17,M,,M,,*69
06/07/2014	21:06:19.003	$GPGGA,210625,2428.0697,N,08047.8951,W,1,10,1.3,17,M,,M,,*6D
06/07/2014	21:06:20.033	$GPGGA,210626,2428.0708,N,08047.8944,W,1,10,1.3,17,M,,M,,*6D
06/07/2014	21:06:21.190	$GPGGA,210627,2428.0721,N,08047.8938,W,1,10,1.3,17,M,,M,,*6C
06/07/2014	21:06:22.284	$GPGGA,210628,2428.0733,N,08047.8932,W,1,10,1.3,17,M,,M,,*6A
06/07/2014	21:06:23.242	$GPGGA,210629,2428.0744,N,08047.8925,W,1,10,1.3,17,M,,M,,*6D
06/07/2014	21:06:24.268	$GPGGA,210630,2428.0757,N,08047.8919,W,1,10,1.3,17,M,,M,,*68
06/07/2014	21:06:25.469	$GPGGA,210631,2428.0769,N,08047.8912,W,1,10,1.3,17,M,,M,,*6F
06/07/2014	21:06:26.530	$GPGGA,210632,2428.0781,N,08047.8906,W,1,10,1.3,17,M,,M,,*6F
06/07/2014	21:06:27.475	$GPGGA,210633,2428.0794,N,08047.8900,W,1,10,1.3,17,M,,M,,*6C
06/07/2014	21:06:28.611	$GPGGA,210634,2428.0806,N,08047.8893,W,1,10,1.3,17,M,,M,,*64
06/07/2014	21:06:29.672	$GPGGA,210635,2428.0819,N,08047.8886,W,1,10,1.3,17,M,,M,,*6F
06/07/2014	21:06:30.670	$GPGGA,210636,2428.0831,N,08047.8880,W,1,10,1.3,17,M,,M,,*60
06/07/2014	21:06:31.816	$GPGGA,210637,2428.0842,N,08047.8873,W,1,10,1.3,17,M,,M,,*69
06/07/2014	21:06:29.161	$GPGGA,210638,2428.0855,N,08047.8866,W,1,10,1.3,17,M,,M,,*64
06/07/2014	21:06:30.246	$GPGGA,210639,2428.0867,N,08047.8860,W,1,10,1.3,17,M,,M,,*62
06/07/2014	21:06:31.213	$GPGGA,210640,2428.0880,N,08047.8854,W,1,10,1.3,17,M,,M,,*62
06/07/2014	21:06:32.356	$GPGGA,210641,2428.0892,N,08047.8847,W,1,10,1.3,17,M,,M,,*62
06/07/2014	21:06:33.386	$GPGGA,210642,2428.0905,N,08047.8840,W,1,10,1.3,17,M,,M,,*69
06/07/2014	21:06:34.448	$GPGGA,210643,2428.0917,N,08047.8834,W,1,10,1.3,16,M,,M,,*69
06/07/2014	21:06:35.520	$GPGGA,210644,2428.0928,N,08047.8827,W,1,10,1.3,16,M,,M,,*60
06/07/2014	21:06:36.571	$GPGGA,210645,2428.0941,N,08047.8821,W,1,10,1.3,16,M,,M,,*68
06/07/2014	21:06:37.622	$GPGGA,210646,2428.0954,N,08047.8814,W,1,10,1.3,16,M,,M,,*69
06/07/2014	21:06:38.716	$GPGGA,210647,2428.0967,N,08047.8808,W,1,10,1.3,16,M,,M,,*65
06/07/2014	21:06:39.766	$GPGGA,210648,2428.0979,N,08047.8801,W,1,10,1.3,16,M,,M,,*6C
06/07/2014	21:06:40.818	$GPGGA,210649,2428.0990,N,08047.8795,W,1,10,1.3,16,M,,M,,*68
06/07/2014	21:06:41.868	$GPGGA,210650,2428.1004,N,08047.8788,W,1,10,1.3,16,M,,M,,*69
06/07/2014	21:06:42.930	$GPGGA,210651,2428.1015,N,08047.8782,W,1,10,1.3,16,M,,M,,*62
06/07/2014	21:06:44.002	$GPGGA,210652,2428.1028,N,08047.8776,W,1,10,1.3,16,M,,M,,*64
06/07/2014	21:06:45.053	$GPGGA,210653,2428.1040,N,08047.8769,W,1,10,1.3,16,M,,M,,*65
06/07/2014	21:06:46.108	$GPGGA,210654,2428.1054,N,08047.8763,W,1,10,1.3,16,M,,M,,*6D
06/07/2014	21:06:47.188	$GPGGA,210655,2428.1066,N,08047.8757,W,1,10,1.3,16,M,,M,,*6A
06/07/2014	21:06:48.237	$GPGGA,210656,2428.1080,N,08047.8751,W,1,10,1.3,16,M,,M,,*67
06/07/2014	21:06:49.288	$GPGGA,210657,2428.1091,N,08047.8744,W,1,10,1.3,16,M,,M,,*62
06/07/2014	21:06:50.349	$GPGGA,210658,2428.1105,N,08047.8738,W,1,10,1.3,16,M,,M,,*6A
06/07/2014	21:06:51.400	$GPGGA,210659,2428.1117,N,08047.8732,W,1,10,1.3,16,M,,M,,*62
06/07/2014	21:06:52.483	$GPGGA,210700,2428.1130,N,08047.8724,W,1,10,1.4,16,M,,M,,*6A
06/07/2014	21:06:53.523	$GPGGA,210701,2428.1142,N,08047.8718,W,1,10,1.3,16,M,,M,,*66
06/07/2014	21:06:54.585	$GPGGA,210702,2428.1156,N,08047.8712,W,1,10,1.3,16,M,,M,,*6A
06/07/2014	21:06:55.626	$GPGGA,210703,2428.1167,N,08047.8705,W,1,10,1.3,16,M,,M,,*6F
06/07/2014	21:06:56.719	$GPGGA,210704,2428.1180,N,08047.8696,W,1,10,1.4,16,M,,M,,*6D
06/07/2014	21:06:57.768	$GPGGA,210705,2428.1192,N,08047.8689,W,1,10,1.3,16,M,,M,,*66
06/07/2014	21:06:58.822	$GPGGA,210706,2428.1203,N,08047.8681,W,1,10,1.3,16,M,,M,,*66
06/07/2014	21:06:59.873	$GPGGA,210707,2428.1216,N,08047.8674,W,1,10,1.3,16,M,,M,,*69
06/07/2014	21:07:00.955	$GPGGA,210708,2428.1228,N,08047.8667,W,1,10,1.3,17,M,,M,,*68
06/07/2014	21:07:02.016	$GPGGA,210709,2428.1241,N,08047.8660,W,1,10,1.3,17,M,,M,,*61
06/07/2014	21:07:03.067	$GPGGA,210710,2428.1254,N,08047.8653,W,1,10,1.3,17,M,,M,,*6D
06/07/2014	21:07:04.247	$GPGGA,210711,2428.1267,N,08047.8647,W,1,10,1.3,17,M,,M,,*69
06/07/2014	21:07:05.202	$GPGGA,210712,2428.1279,N,08047.8639,W,1,10,1.3,17,M,,M,,*6C
06/07/2014	21:07:06.255	$GPGGA,210713,2428.1293,N,08047.8633,W,1,10,1.3,17,M,,M,,*63
06/07/2014	21:07:07.291	$GPGGA,210714,2428.1306,N,08047.8626,W,1,10,1.3,17,M,,M,,*6D
06/07/2014	21:07:08.480	$GPGGA,210715,2428.1318,N,08047.8619,W,1,10,1.3,17,M,,M,,*6F
06/07/2014	21:07:09.426	$GPGGA,210716,2428.1330,N,08047.8612,W,1,10,1.3,17,M,,M,,*6D
06/07/2014	21:07:10.465	$GPGGA,210717,2428.1344,N,08047.8606,W,1,10,1.3,17,M,,M,,*6A
06/07/2014	21:07:11.538	$GPGGA,210718,2428.1357,N,08047.8600,W,1,10,1.3,17,M,,M,,*61
06/07/2014	21:07:12.578	$GPGGA,210719,2428.1369,N,08047.8593,W,1,10,1.3,17,M,,M,,*64
06/07/2014	21:07:13.650	$GPGGA,210720,2428.1384,N,08047.8586,W,1,10,1.3,17,M,,M,,*69
06/07/2014	21:07:14.712	$GPGGA,210721,2428.1397,N,08047.8579,W,1,10,1.3,17,M,,M,,*6A
06/07/2014	21:07:15.858	$GPGGA,210722,2428.1409,N,08047.8573,W,1,10,1.3,18,M,,M,,*6C
06/07/2014	21:07:16.824	$GPGGA,210723,2428.1423,N,08047.8566,W,1,10,1.3,18,M,,M,,*61
06/07/2014	21:07:17.992	$GPGGA,210724,2428.1436,N,08047.8559,W,1,10,1.3,18,M,,M,,*6E
06/07/2014	21:07:19.043	$GPGGA,210725,2428.1449,N,08047.8553,W,1,10,1.3,18,M,,M,,*6D
06/07/2014	21:07:20.105	$GPGGA,210726,2428.1462,N,08047.8546,W,1,10,1.3,18,M,,M,,*63
06/07/2014	21:07:21.166	$GPGGA,210727,2428.1474,N,08047.8540,W,1,10,1.3,18,M,,M,,*63
06/07/2014	21:07:22.239	$GPGGA,210728,2428.1488,N,08047.8534,W,1,10,1.3,18,M,,M,,*6C
06/07/2014	21:07:23.290	$GPGGA,210729,2428.1501,N,08047.8527,W,1,10,1.3,18,M,,M,,*6F
06/07/2014	21:07:24.351	$GPGGA,210730,2428.1514,N,08047.8521,W,1,10,1.3,18,M,,M,,*65
06/07/2014	21:07:25.413	$GPGGA,210731,2428.1528,N,08047.8514,W,1,10,1.3,18,M,,M,,*6D
06/07/2014	21:07:26.473	$GPGGA,210732,2428.1541,N,08047.8508,W,1,10,1.3,18,M,,M,,*6C
06/07/2014	21:07:27.546	$GPGGA,210733,2428.1553,N,08047.8501,W,1,10,1.3,18,M,,M,,*67
06/07/2014	21:07:28.575	$GPGGA,210734,2428.1568,N,08047.8495,W,1,10,1.3,18,M,,M,,*64
06/07/2014	21:07:29.669	$GPGGA,210735,2428.1581,N,08047.8488,W,1,10,1.3,18,M,,M,,*6E
06/07/2014	21:07:30.709	$GPGGA,210736,2428.1593,N,08047.8482,W,1,10,1.3,18,M,,M,,*64
06/07/2014	21:07:31.771	$GPGGA,210737,2428.1607,N,08047.8476,W,1,10,1.3,18,M,,M,,*60
06/07/2014	21:07:29.130	$GPGGA,210738,2428.1619,N,08047.8469,W,1,10,1.3,18,M,,M,,*6E
06/07/2014	21:07:30.199	$GPGGA,210739,2428.1633,N,08047.8462,W,1,10,1.3,18,M,,M,,*6C
06/07/2014	21:07:31.261	$GPGGA,210740,2428.1646,N,08047.8456,W,1,10,1.3,18,M,,M,,*67
06/07/2014	21:07:32.322	$GPGGA,210741,2428.1660,N,08047.8450,W,1,10,1.3,18,M,,M,,*64
06/07/2014	21:07:33.363	$GPGGA,210742,2428.1672,N,08047.8443,W,1,10,1.3,18,M,,M,,*66
06/07/2014	21:07:34.445	$GPGGA,210743,2428.1684,N,08047.8437,W,1,10,1.3,18,M,,M,,*6D
06/07/2014	21:07:35.496	$GPGGA,210744,2428.1698,N,08047.8430,W,1,10,1.3,18,M,,M,,*60
06/07/2014	21:07:36.579	$GPGGA,210745,2428.1712,N,08047.8424,W,1,10,1.3,18,M,,M,,*67
06/07/2014	21:07:37.594	$GPGGA,210746,2428.1725,N,08047.8418,W,1,10,1.3,18,M,,M,,*6F
06/07/2014	21:07:38.692	$GPGGA,210747,2428.1738,N,08047.8412,W,1,10,1.3,18,M,,M,,*68
06/07/2014	21:07:39.742	$GPGGA,210748,2428.1752,N,08047.8405,W,1,10,1.3,18,M,,M,,*6D
06/07/2014	21:07:40.774	$GPGGA,210749,2428.1765,N,08047.8399,W,1,10,1.3,18,M,,M,,*6A
06/07/2014	21:07:41.824	$GPGGA,210750,2428.1777,N,08047.8392,W,1,10,1.3,18,M,,M,,*6A
06/07/2014	21:07:42.916	$GPGGA,210751,2428.1792,N,08047.8386,W,1,10,1.3,18,M,,M,,*65
06/07/2014	21:07:43.967	$GPGGA,210752,2428.1805,N,08047.8379,W,1,10,1.3,18,M,,M,,*67
06/07/2014	21:07:45.027	$GPGGA,210753,2428.1817,N,08047.8373,W,1,10,1.3,18,M,,M,,*6F
06/07/2014	21:07:46.072	$GPGGA,210754,2428.1831,N,08047.8367,W,1,10,1.3,18,M,,M,,*69
06/07/2014	21:07:47.102	$GPGGA,210755,2428.1843,N,08047.8360,W,1,10,1.3,18,M,,M,,*6A
06/07/2014	21:07:48.139	$GPGGA,210756,2428.1857,N,08047.8354,W,1,10,1.3,18,M,,M,,*6B
06/07/2014	21:07:49.116	$GPGGA,210757,2428.1870,N,08047.8347,W,1,10,1.3,18,M,,M,,*6D
06/07/2014	21:07:50.152	$GPGGA,210758,2428.1882,N,08047.8341,W,1,10,1.3,18,M,,M,,*69
06/07/2014	21:07:51.153	$GPGGA,210759,2428.1896,N,08047.8335,W,1,10,1.3,18,M,,M,,*6E
06/07/2014	21:07:52.211	$GPGGA,210800,2428.1910,N,08047.8328,W,1,10,1.3,18,M,,M,,*6E
06/07/2014	21:07:53.326	$GPGGA,210801,2428.1922,N,08047.8322,W,1,10,1.3,18,M,,M,,*64
06/07/2014	21:07:54.224	$GPGGA,210802,2428.1936,N,08047.8315,W,1,10,1.3,18,M,,M,,*66
06/07/2014	21:07:55.340	$GPGGA,210803,2428.1950,N,08047.8309,W,1,10,1.3,18,M,,M,,*6A
06/07/2014	21:07:56.297	$GPGGA,210804,2428.1962,N,08047.8302,W,1,10,1.3,18,M,,M,,*67
06/07/2014	21:07:57.318	$GPGGA,210805,2428.1976,N,08047.8296,W,1,10,1.3,18,M,,M,,*6F
06/07/2014	21:07:58.308	$GPGGA,210806,2428.1990,N,08047.8290,W,1,10,1.3,18,M,,M,,*62
06/07/2014	21:07:59.352	$GPGGA,210807,2428.2001,N,08047.8282,W,1,10,1.3,18,M,,M,,*62
06/07/2014	21:08:00.468	$GPGGA,210808,2428.2014,N,08047.8276,W,1,10,1.8,18,M,,M,,*69
06/07/2014	21:08:01.389	$GPGGA,210809,2428.2027,N,08047.8270,W,1,10,1.3,18,M,,M,,*65
06/07/2014	21:08:02.495	$GPGGA,210810,2428.2043,N,08047.8264,W,1,10,1.3,18,M,,M,,*6A
06/07/2014	21:08:03.426	$GPGGA,210811,2428.2058,N,08047.8258,W,1,10,1.3,18,M,,M,,*6E
06/07/2014	21:08:04.552	$GPGGA,210812,2428.2072,N,08047.8252,W,1,10,1.3,18,M,,M,,*6F
06/07/2014	21:08:05.576	$GPGGA,210813,2428.2087,N,08047.8246,W,1,10,1.3,18,M,,M,,*61
06/07/2014	21:08:06.579	$GPGGA,210814,2428.2101,N,08047.8239,W,1,10,1.3,18,M,,M,,*61
06/07/2014	21:08:07.644	$GPGGA,210815,2428.2116,N,08047.8234,W,1,10,1.3,18,M,,M,,*6B
06/07/2014	21:08:08.647	$GPGGA,210816,2428.2130,N,08047.8228,W,1,10,1.3,18,M,,M,,*61
06/07/2014	21:08:10.705	$GPGGA,210818,2428.2157,N,08047.8215,W,1,10,1.3,18,M,,M,,*60
06/07/2014	21:08:11.708	$GPGGA,210819,2428.2170,N,08047.8208,W,1,10,1.3,18,M,,M,,*68
06/07/2014	21:08:12.732	$GPGGA,210820,2428.2182,N,08047.8202,W,1,10,1.3,18,M,,M,,*65
06/07/2014	21:08:13.755	$GPGGA,210821,2428.2197,N,08047.8195,W,1,10,1.3,19,M,,M,,*6C
06/07/2014	21:08:14.748	$GPGGA,210822,2428.2210,N,08047.8189,W,1,10,1.3,19,M,,M,,*6E
06/07/2014	21:08:15.802	$GPGGA,210823,2428.2222,N,08047.8183,W,1,10,1.3,19,M,,M,,*64
06/07/2014	21:08:16.805	$GPGGA,210824,2428.2236,N,08047.8176,W,1,10,1.3,19,M,,M,,*6C
06/07/2014	21:08:17.849	$GPGGA,210825,2428.2250,N,08047.8169,W,1,10,1.3,19,M,,M,,*63
06/07/2014	21:08:18.832	$GPGGA,210826,2428.2262,N,08047.8163,W,1,10,1.3,19,M,,M,,*6B
06/07/2014	21:08:19.886	$GPGGA,210827,2428.2276,N,08047.8156,W,1,10,1.3,19,M,,M,,*69
06/07/2014	21:08:20.900	$GPGGA,210828,2428.2290,N,08047.8150,W,1,10,1.3,19,M,,M,,*68
06/07/2014	21:08:21.913	$GPGGA,210829,2428.2303,N,08047.8143,W,1,10,1.3,19,M,,M,,*60
06/07/2014	21:08:22.927	$GPGGA,210830,2428.2316,N,08047.8137,W,1,10,1.3,19,M,,M,,*6F
06/07/2014	21:08:23.971	$GPGGA,210831,2428.2329,N,08047.8131,W,1,10,1.3,19,M,,M,,*64
06/07/2014	21:08:24.995	$GPGGA,210832,2428.2343,N,08047.8124,W,1,10,1.3,19,M,,M,,*6F
06/07/2014	21:08:25.988	$GPGGA,210833,2428.2355,N,08047.8118,W,1,10,1.3,19,M,,M,,*66
06/07/2014	21:08:27.021	$GPGGA,210834,2428.2369,N,08047.8111,W,1,10,1.3,19,M,,M,,*67
06/07/2014	21:08:28.058	$GPGGA,210835,2428.2383,N,08047.8105,W,1,10,1.3,19,M,,M,,*67
06/07/2014	21:08:29.082	$GPGGA,210836,2428.2395,N,08047.8098,W,1,10,1.3,19,M,,M,,*66
06/07/2014	21:08:30.111	$GPGGA,210837,2428.2409,N,08047.8092,W,1,10,1.3,19,M,,M,,*6F
06/07/2014	21:08:29.091	$GPGGA,210838,2428.2423,N,08047.8085,W,1,10,1.3,19,M,,M,,*6E
06/07/2014	21:08:30.090	$GPGGA,210839,2428.2435,N,08047.8078,W,1,10,1.3,19,M,,M,,*6A
06/07/2014	21:08:31.165	$GPGGA,210840,2428.2449,N,08047.8072,W,1,10,1.3,19,M,,M,,*65
06/07/2014	21:08:32.187	$GPGGA,210841,2428.2462,N,08047.8066,W,1,10,1.3,19,M,,M,,*68
06/07/2014	21:08:33.162	$GPGGA,210842,2428.2475,N,08047.8059,W,1,10,1.3,19,M,,M,,*61
06/07/2014	21:08:34.378	$GPGGA,210843,2428.2488,N,08047.8053,W,1,10,1.3,19,M,,M,,*68
06/07/2014	21:08:35.233	$GPGGA,210844,2428.2500,N,08047.8047,W,1,10,1.3,19,M,,M,,*6B
06/07/2014	21:08:36.244	$GPGGA,210845,2428.2514,N,08047.8040,W,1,10,1.3,19,M,,M,,*68
06/07/2014	21:08:37.244	$GPGGA,210846,2428.2528,N,08047.8034,W,1,10,1.3,19,M,,M,,*67
06/07/2014	21:08:38.370	$GPGGA,210847,2428.2540,N,08047.8028,W,1,10,1.3,19,M,,M,,*65
06/07/2014	21:08:39.302	$GPGGA,210848,2428.2554,N,08047.8021,W,1,10,1.3,19,M,,M,,*66
06/07/2014	21:08:40.418	$GPGGA,210849,2428.2567,N,08047.8014,W,1,10,1.3,19,M,,M,,*61
06/07/2014	21:08:41.349	$GPGGA,210850,2428.2579,N,08047.8008,W,1,10,1.3,19,M,,M,,*6B
06/07/2014	21:08:42.568	$GPGGA,210851,2428.2592,N,08047.8001,W,1,10,1.3,19,M,,M,,*66
06/07/2014	21:08:43.540	$GPGGA,210852,2428.2605,N,08047.7995,W,1,10,1.3,19,M,,M,,*63
06/07/2014	21:08:44.502	$GPGGA,210853,2428.2618,N,08047.7988,W,1,10,1.3,19,M,,M,,*62
06/07/2014	21:08:45.526	$GPGGA,210854,2428.2630,N,08047.7981,W,1,10,1.3,19,M,,M,,*66
06/07/2014	21:08:46.550	$GPGGA,210855,2428.2644,N,08047.7975,W,1,10,1.3,19,M,,M,,*6F
06/07/2014	21:08:47.625	$GPGGA,210856,2428.2656,N,08047.7969,W,1,10,1.3,19,M,,M,,*62
06/07/2014	21:08:48.689	$GPGGA,210857,2428.2670,N,08047.7962,W,1,10,1.3,19,M,,M,,*6C
06/07/2014	21:08:49.640	$GPGGA,210858,2428.2683,N,08047.7956,W,1,10,1.3,19,M,,M,,*68
06/07/2014	21:08:50.736	$GPGGA,210859,2428.2695,N,08047.7949,W,1,10,1.3,19,M,,M,,*60
06/07/2014	21:08:51.739	$GPGGA,210900,2428.2709,N,08047.7943,W,1,10,1.3,19,M,,M,,*63
06/07/2014	21:08:52.670	$GPGGA,210901,2428.2721,N,08047.7936,W,1,10,1.3,19,M,,M,,*6A
06/07/2014	21:08:53.694	$GPGGA,210902,2428.2735,N,08047.7930,W,1,10,1.3,19,M,,M,,*6A
06/07/2014	21:08:54.830	$GPGGA,210903,2428.2748,N,08047.7924,W,1,10,1.3,19,M,,M,,*64
06/07/2014	21:08:55.807	$GPGGA,210904,2428.2760,N,08047.7917,W,1,10,1.3,19,M,,M,,*69
06/07/2014	21:08:56.755	$GPGGA,210905,2428.2774,N,08047.7911,W,1,10,1.3,19,M,,M,,*6B
06/07/2014	21:08:57.809	$GPGGA,210906,2428.2786,N,08047.7905,W,1,10,1.3,19,M,,M,,*60
06/07/2014	21:08:58.915	$GPGGA,210907,2428.2800,N,08047.7898,W,1,10,1.3,19,M,,M,,*65
06/07/2014	21:08:59.867	$GPGGA,210908,2428.2813,N,08047.7892,W,1,10,1.3,19,M,,M,,*62
06/07/2014	21:09:00.840	$GPGGA,210909,2428.2825,N,08047.7885,W,1,10,1.3,19,M,,M,,*60
06/07/2014	21:09:01.904	$GPGGA,210910,2428.2839,N,08047.7879,W,1,10,1.3,19,M,,M,,*66
06/07/2014	21:09:02.887	$GPGGA,210911,2428.2851,N,08047.7873,W,1,10,1.3,19,M,,M,,*63
06/07/2014	21:09:03.952	$GPGGA,210912,2428.2865,N,08047.7867,W,1,10,1.3,19,M,,M,,*62
06/07/2014	21:09:05.047	$GPGGA,210913,2428.2878,N,08047.7860,W,1,10,1.3,19,M,,M,,*68
06/07/2014	21:09:05.979	$GPGGA,210914,2428.2890,N,08047.7854,W,1,10,1.3,19,M,,M,,*6E
06/07/2014	21:09:07.093	$GPGGA,210915,2428.2904,N,08047.7848,W,1,10,1.3,19,M,,M,,*6E
06/07/2014	21:09:08.004	$GPGGA,210916,2428.2916,N,08047.7841,W,1,10,1.3,19,M,,M,,*67
06/07/2014	21:09:09.135	$GPGGA,210917,2428.2930,N,08047.7834,W,1,10,1.3,19,M,,M,,*60
06/07/2014	21:09:10.038	$GPGGA,210918,2428.2943,N,08047.7829,W,1,10,1.3,19,M,,M,,*67
06/07/2014	21:09:11.178	$GPGGA,210919,2428.2957,N,08047.7823,W,1,10,1.3,19,M,,M,,*69
06/07/2014	21:09:12.094	$GPGGA,210920,2428.2969,N,08047.7816,W,1,10,1.3,19,M,,M,,*68
06/07/2014	21:09:13.216	$GPGGA,210921,2428.2983,N,08047.7809,W,1,10,1.3,19,M,,M,,*63
06/07/2014	21:09:14.157	$GPGGA,210922,2428.2995,N,08047.7803,W,1,10,1.3,19,M,,M,,*6D
06/07/2014	21:09:15.222	$GPGGA,210923,2428.3009,N,08047.7797,W,1,10,1.3,19,M,,M,,*63
06/07/2014	21:09:16.215	$GPGGA,210924,2428.3020,N,08047.7790,W,1,10,1.3,19,M,,M,,*68
06/07/2014	21:09:17.279	$GPGGA,210925,2428.3034,N,08047.7784,W,1,10,1.3,19,M,,M,,*69
06/07/2014	21:09:18.228	$GPGGA,210926,2428.3046,N,08047.7778,W,1,10,1.3,19,M,,M,,*6C
06/07/2014	21:09:19.357	$GPGGA,210927,2428.3060,N,08047.7771,W,1,10,1.3,18,M,,M,,*61
06/07/2014	21:09:20.309	$GPGGA,210928,2428.3074,N,08047.7765,W,1,10,1.3,18,M,,M,,*6E
06/07/2014	21:09:21.394	$GPGGA,210929,2428.3087,N,08047.7758,W,1,10,1.3,18,M,,M,,*6D
06/07/2014	21:09:22.319	$GPGGA,210930,2428.3100,N,08047.7752,W,1,10,1.3,18,M,,M,,*61
06/07/2014	21:09:23.309	$GPGGA,210931,2428.3113,N,08047.7745,W,1,10,1.3,18,M,,M,,*64
06/07/2014	21:09:24.343	$GPGGA,210932,2428.3125,N,08047.7739,W,1,10,1.3,18,M,,M,,*69
06/07/2014	21:09:25.437	$GPGGA,210933,2428.3139,N,08047.7732,W,1,10,1.3,18,M,,M,,*6E
06/07/2014	21:09:26.481	$GPGGA,210934,2428.3152,N,08047.7726,W,1,10,1.3,18,M,,M,,*61
06/07/2014	21:09:27.484	$GPGGA,210935,2428.3165,N,08047.7720,W,1,10,1.3,18,M,,M,,*62
06/07/2014	21:09:28.559	$GPGGA,210936,2428.3178,N,08047.7713,W,1,10,1.3,18,M,,M,,*6D
06/07/2014	21:09:29.586	$GPGGA,210937,2428.3190,N,08047.7706,W,1,10,1.3,18,M,,M,,*6E
06/07/2014	21:09:29.155	$GPGGA,210938,2428.3204,N,08047.7700,W,1,10,1.3,18,M,,M,,*69
06/07/2014	21:09:30.199	$GPGGA,210939,2428.3218,N,08047.7694,W,1,10,1.3,18,M,,M,,*69
06/07/2014	21:09:31.143	$GPGGA,210940,2428.3230,N,08047.7687,W,1,10,1.3,18,M,,M,,*6F
06/07/2014	21:09:32.267	$GPGGA,210941,2428.3244,N,08047.7681,W,1,10,1.3,18,M,,M,,*6B
06/07/2014	21:09:33.240	$GPGGA,210942,2428.3257,N,08047.7675,W,1,10,1.3,18,M,,M,,*61
06/07/2014	21:09:34.296	$GPGGA,210943,2428.3270,N,08047.7668,W,1,10,1.3,18,M,,M,,*69
06/07/2014	21:09:35.228	$GPGGA,210944,2428.3283,N,08047.7662,W,1,10,1.3,18,M,,M,,*68
06/07/2014	21:09:36.321	$GPGGA,210945,2428.3295,N,08047.7656,W,1,10,1.3,18,M,,M,,*69
06/07/2014	21:09:37.324	$GPGGA,210946,2428.3309,N,08047.7650,W,1,10,1.3,18,M,,M,,*68
06/07/2014	21:09:38.349	$GPGGA,210947,2428.3323,N,08047.7643,W,1,10,1.3,18,M,,M,,*63
06/07/2014	21:09:39.373	$GPGGA,210948,2428.3335,N,08047.7637,W,1,10,1.3,18,M,,M,,*68
06/07/2014	21:09:40.426	$GPGGA,210949,2428.3349,N,08047.7631,W,1,10,1.3,18,M,,M,,*64
06/07/2014	21:09:41.409	$GPGGA,210950,2428.3362,N,08047.7624,W,1,10,1.3,18,M,,M,,*61
06/07/2014	21:09:42.462	$GPGGA,210951,2428.3374,N,08047.7617,W,1,10,1.3,18,M,,M,,*67
06/07/2014	21:09:43.455	$GPGGA,210952,2428.3388,N,08047.7611,W,1,10,1.3,18,M,,M,,*61
06/07/2014	21:09:44.510	$GPGGA,210953,2428.3400,N,08047.7604,W,1,10,1.3,18,M,,M,,*63
06/07/2014	21:09:45.503	$GPGGA,210954,2428.3413,N,08047.7597,W,1,10,1.3,18,M,,M,,*6F
06/07/2014	21:09:46.598	$GPGGA,210955,2428.3425,N,08047.7591,W,1,10,1.3,18,M,,M,,*6D
06/07/2014	21:09:47.560	$GPGGA,210956,2428.3439,N,08047.7584,W,1,10,1.3,18,M,,M,,*67
06/07/2014	21:09:48.585	$GPGGA,210957,2428.3439,N,08047.7584,W,1,10,1.3,18,M,,M,,*66
06/07/2014	21:09:49.587	$GPGGA,210958,2428.3465,N,08047.7571,W,1,10,1.3,18,M,,M,,*6A
06/07/2014	21:09:50.631	$GPGGA,210959,2428.3478,N,08047.7564,W,1,10,1.3,18,M,,M,,*63
06/07/2014	21:09:51.675	$GPGGA,211000,2428.3490,N,08047.7557,W,1,10,1.3,18,M,,M,,*61
06/07/2014	21:09:52.689	$GPGGA,211001,2428.3504,N,08047.7549,W,1,10,1.3,17,M,,M,,*6C
06/07/2014	21:09:53.672	$GPGGA,211002,2428.3517,N,08047.7542,W,1,10,1.3,17,M,,M,,*66
06/07/2014	21:09:54.726	$GPGGA,211003,2428.3529,N,08047.7535,W,1,10,1.3,17,M,,M,,*6A
06/07/2014	21:09:55.709	$GPGGA,211004,2428.3541,N,08047.7529,W,1,10,1.3,17,M,,M,,*6E
06/07/2014	21:09:56.835	$GPGGA,211005,2428.3555,N,08047.7521,W,1,10,1.3,17,M,,M,,*62
06/07/2014	21:09:57.756	$GPGGA,211006,2428.3568,N,08047.7514,W,1,10,1.3,17,M,,M,,*69
06/07/2014	21:09:58.821	$GPGGA,211007,2428.3580,N,08047.7507,W,1,10,1.3,17,M,,M,,*6C
06/07/2014	21:09:59.813	$GPGGA,211008,2428.3594,N,08047.7500,W,1,10,1.3,17,M,,M,,*61
06/07/2014	21:10:00.857	$GPGGA,211009,2428.3594,N,08047.7500,W,1,10,1.3,17,M,,M,,*60
06/07/2014	21:10:01.830	$GPGGA,211010,2428.3620,N,08047.7485,W,1,10,1.3,17,M,,M,,*68
06/07/2014	21:10:02.884	$GPGGA,211011,2428.3620,N,08047.7485,W,1,10,1.3,17,M,,M,,*69
06/07/2014	21:10:03.897	$GPGGA,211012,2428.3645,N,08047.7471,W,1,10,1.3,17,M,,M,,*62
06/07/2014	21:10:04.921	$GPGGA,211013,2428.3645,N,08047.7471,W,1,10,1.3,17,M,,M,,*63
06/07/2014	21:10:05.936	$GPGGA,211014,2428.3671,N,08047.7456,W,1,10,1.3,17,M,,M,,*66
06/07/2014	21:10:07.020	$GPGGA,211015,2428.3685,N,08047.7449,W,1,10,1.3,17,M,,M,,*62
06/07/2014	21:10:08.002	$GPGGA,211016,2428.3696,N,08047.7441,W,1,10,1.3,17,M,,M,,*6B
06/07/2014	21:10:09.016	$GPGGA,211017,2428.3696,N,08047.7441,W,1,10,1.3,17,M,,M,,*6A
06/07/2014	21:10:09.999	$GPGGA,211018,2428.3723,N,08047.7427,W,1,10,1.3,17,M,,M,,*6A
06/07/2014	21:10:11.046	$GPGGA,211019,2428.3723,N,08047.7427,W,1,10,1.3,17,M,,M,,*6B
06/07/2014	21:10:12.068	$GPGGA,211020,2428.3736,N,08047.7420,W,1,10,1.3,17,M,,M,,*62
06/07/2014	21:10:13.070	$GPGGA,211021,2428.3763,N,08047.7405,W,1,10,1.3,17,M,,M,,*64
06/07/2014	21:10:14.207	$GPGGA,211022,2428.3775,N,08047.7398,W,1,10,1.3,17,M,,M,,*63
06/07/2014	21:10:15.251	$GPGGA,211023,2428.3789,N,08047.7391,W,1,10,1.3,17,M,,M,,*68
06/07/2014	21:10:16.151	$GPGGA,211024,2428.3801,N,08047.7383,W,1,10,1.3,17,M,,M,,*63
06/07/2014	21:10:17.276	$GPGGA,211025,2428.3815,N,08047.7376,W,1,10,1.3,17,M,,M,,*6D
06/07/2014	21:10:18.290	$GPGGA,211026,2428.3828,N,08047.7369,W,1,10,1.3,17,M,,M,,*6E
06/07/2014	21:10:19.313	$GPGGA,211027,2428.3840,N,08047.7362,W,1,10,1.3,17,M,,M,,*6A
06/07/2014	21:10:20.337	$GPGGA,211028,2428.3854,N,08047.7355,W,1,10,1.3,17,M,,M,,*64
06/07/2014	21:10:21.397	$GPGGA,211029,2428.3854,N,08047.7355,W,1,10,1.3,17,M,,M,,*65
06/07/2014	21:10:22.374	$GPGGA,211030,2428.3880,N,08047.7340,W,1,10,1.3,16,M,,M,,*61
06/07/2014	21:10:23.418	$GPGGA,211031,2428.3893,N,08047.7333,W,1,10,1.3,16,M,,M,,*66
06/07/2014	21:10:24.422	$GPGGA,211032,2428.3905,N,08047.7326,W,1,10,1.3,16,M,,M,,*6F
06/07/2014	21:10:25.445	$GPGGA,211033,2428.3919,N,08047.7319,W,1,10,1.3,16,M,,M,,*6F
06/07/2014	21:10:26.459	$GPGGA,211034,2428.3931,N,08047.7312,W,1,10,1.3,16,M,,M,,*69
06/07/2014	21:10:27.482	$GPGGA,211035,2428.3945,N,08047.7304,W,1,10,1.3,16,M,,M,,*6C
06/07/2014	21:10:28.506	$GPGGA,211036,2428.3959,N,08047.7298,W,1,10,1.3,16,M,,M,,*66
06/07/2014	21:10:29.540	$GPGGA,211037,2428.3970,N,08047.7291,W,1,10,1.3,16,M,,M,,*65
06/07/2014	21:10:29.113	$GPGGA,211038,2428.3984,N,08047.7284,W,1,10,1.3,16,M,,M,,*65
06/07/2014	21:10:30.157	$GPGGA,211039,2428.3996,N,08047.7277,W,1,10,1.3,16,M,,M,,*6B
06/07/2014	21:10:31.181	$GPGGA,211040,2428.4010,N,08047.7271,W,1,10,1.3,16,M,,M,,*63
06/07/2014	21:10:32.215	$GPGGA,211041,2428.4023,N,08047.7264,W,1,10,1.3,16,M,,M,,*66
06/07/2014	21:10:33.198	$GPGGA,211042,2428.4035,N,08047.7257,W,1,10,1.3,16,M,,M,,*62
06/07/2014	21:10:34.220	$GPGGA,211043,2428.4049,N,08047.7250,W,1,10,1.3,16,M,,M,,*6F
06/07/2014	21:10:35.264	$GPGGA,211044,2428.4061,N,08047.7244,W,1,10,1.3,16,M,,M,,*67
06/07/2014	21:10:36.288	$GPGGA,211045,2428.4075,N,08047.7238,W,1,10,1.3,16,M,,M,,*68
06/07/2014	21:10:37.281	$GPGGA,211046,2428.4088,N,08047.7231,W,1,10,1.3,16,M,,M,,*60
06/07/2014	21:10:38.346	$GPGGA,211047,2428.4100,N,08047.7224,W,1,10,1.3,16,M,,M,,*64
06/07/2014	21:10:39.349	$GPGGA,211048,2428.4114,N,08047.7218,W,1,10,1.3,16,M,,M,,*61
06/07/2014	21:10:40.352	$GPGGA,211049,2428.4126,N,08047.7211,W,1,10,1.3,16,M,,M,,*68
06/07/2014	21:10:41.386	$GPGGA,211050,2428.4140,N,08047.7204,W,1,10,1.3,16,M,,M,,*64
06/07/2014	21:10:42.389	$GPGGA,211051,2428.4151,N,08047.7198,W,1,10,1.3,16,M,,M,,*63
06/07/2014	21:10:43.423	$GPGGA,211052,2428.4165,N,08047.7191,W,1,10,1.3,16,M,,M,,*6E
06/07/2014	21:10:44.437	$GPGGA,211053,2428.4178,N,08047.7184,W,1,10,1.3,16,M,,M,,*67
06/07/2014	21:10:45.458	$GPGGA,211054,2428.4191,N,08047.7178,W,1,10,1.3,16,M,,M,,*64
06/07/2014	21:10:46.487	$GPGGA,211055,2428.4204,N,08047.7171,W,1,10,1.3,16,M,,M,,*63
06/07/2014	21:10:47.518	$GPGGA,211056,2428.4218,N,08047.7165,W,1,10,1.3,16,M,,M,,*68
06/07/2014	21:10:48.562	$GPGGA,211057,2428.4231,N,08047.7159,W,1,11,1.2,16,M,,M,,*6D
06/07/2014	21:10:49.547	$GPGGA,211058,2428.4245,N,08047.7152,W,1,11,1.2,16,M,,M,,*6A
06/07/2014	21:10:50.589	$GPGGA,211059,2428.4259,N,08047.7146,W,1,11,1.2,16,M,,M,,*63
06/07/2014	21:10:51.612	$GPGGA,211100,2428.4273,N,08047.7139,W,1,11,1.2,16,M,,M,,*6E
06/07/2014	21:10:52.620	$GPGGA,211101,2428.4285,N,08047.7133,W,1,11,1.2,16,M,,M,,*6C
06/07/2014	21:10:53.762	$GPGGA,211102,2428.4299,N,08047.7127,W,1,11,1.2,16,M,,M,,*67
06/07/2014	21:10:54.654	$GPGGA,211103,2428.4310,N,08047.7121,W,1,11,1.2,16,M,,M,,*60
06/07/2014	21:10:55.692	$GPGGA,211104,2428.4324,N,08047.7114,W,1,11,1.2,16,M,,M,,*66
06/07/2014	21:10:56.720	$GPGGA,211105,2428.4337,N,08047.7108,W,1,11,1.2,16,M,,M,,*68
06/07/2014	21:10:57.723	$GPGGA,211106,2428.4349,N,08047.7102,W,1,11,1.2,16,M,,M,,*68
06/07/2014	21:10:58.849	$GPGGA,211107,2428.4361,N,08047.7095,W,1,10,1.3,16,M,,M,,*6C
06/07/2014	21:10:59.771	$GPGGA,211108,2428.4375,N,08047.7089,W,1,10,1.2,16,M,,M,,*6A
06/07/2014	21:11:00.815	$GPGGA,211109,2428.4388,N,08047.7083,W,1,10,1.2,16,M,,M,,*63
06/07/2014	21:11:01.900	$GPGGA,211110,2428.4400,N,08047.7075,W,1,10,1.5,16,M,,M,,*62
06/07/2014	21:11:02.965	$GPGGA,211111,2428.4413,N,08047.7068,W,1,11,1.2,16,M,,M,,*6B
06/07/2014	21:11:03.866	$GPGGA,211112,2428.4425,N,08047.7061,W,1,11,1.2,16,M,,M,,*64
06/07/2014	21:11:04.992	$GPGGA,211113,2428.4436,N,08047.7054,W,1,10,1.2,16,M,,M,,*60
06/07/2014	21:11:05.995	$GPGGA,211114,2428.4449,N,08047.7048,W,1,10,1.2,16,M,,M,,*62
06/07/2014	21:11:07.008	$GPGGA,211115,2428.4461,N,08047.7040,W,1,11,1.2,17,M,,M,,*61
06/07/2014	21:11:08.054	$GPGGA,211116,2428.4472,N,08047.7033,W,1,11,1.2,17,M,,M,,*64
06/07/2014	21:11:09.076	$GPGGA,211117,2428.4484,N,08047.7027,W,1,11,1.2,17,M,,M,,*69
06/07/2014	21:11:10.078	$GPGGA,211118,2428.4497,N,08047.7021,W,1,11,1.2,17,M,,M,,*62
06/07/2014	21:11:11.123	$GPGGA,211119,2428.4509,N,08047.7015,W,1,11,1.2,17,M,,M,,*62
06/07/2014	21:11:12.137	$GPGGA,211120,2428.4523,N,08047.7009,W,1,11,1.2,17,M,,M,,*6D
06/07/2014	21:11:13.160	$GPGGA,211121,2428.4534,N,08047.7003,W,1,10,1.2,17,M,,M,,*61
06/07/2014	21:11:14.153	$GPGGA,211122,2428.4548,N,08047.6998,W,1,10,1.2,17,M,,M,,*63
06/07/2014	21:11:15.187	$GPGGA,211123,2428.4561,N,08047.6993,W,1,10,1.2,17,M,,M,,*62
06/07/2014	21:11:16.221	$GPGGA,211124,2428.4573,N,08047.6986,W,1,10,1.2,17,M,,M,,*62
06/07/2014	21:11:17.224	$GPGGA,211125,2428.4585,N,08047.6980,W,1,11,1.2,17,M,,M,,*6D
06/07/2014	21:11:18.258	$GPGGA,211126,2428.4599,N,08047.6975,W,1,11,1.2,17,M,,M,,*69
06/07/2014	21:11:19.312	$GPGGA,211127,2428.4612,N,08047.6968,W,1,10,1.2,17,M,,M,,*65
06/07/2014	21:11:20.305	$GPGGA,211128,2428.4624,N,08047.6962,W,1,10,1.2,17,M,,M,,*65
06/07/2014	21:11:21.308	$GPGGA,211129,2428.4635,N,08047.6956,W,1,11,1.2,17,M,,M,,*62
06/07/2014	21:11:22.342	$GPGGA,211130,2428.4649,N,08047.6950,W,1,11,1.2,18,M,,M,,*68
06/07/2014	21:11:23.377	$GPGGA,211131,2428.4661,N,08047.6944,W,1,11,1.2,18,M,,M,,*66
06/07/2014	21:11:24.400	$GPGGA,211132,2428.4675,N,08047.6939,W,1,11,1.2,18,M,,M,,*6A
06/07/2014	21:11:25.424	$GPGGA,211133,2428.4688,N,08047.6934,W,1,11,1.2,18,M,,M,,*64
06/07/2014	21:11:26.427	$GPGGA,211134,2428.4700,N,08047.6928,W,1,11,1.2,18,M,,M,,*6F
06/07/2014	21:11:27.439	$GPGGA,211135,2428.4713,N,08047.6922,W,1,11,1.2,18,M,,M,,*66
06/07/2014	21:11:28.484	$GPGGA,211136,2428.4725,N,08047.6916,W,1,11,1.2,18,M,,M,,*67
06/07/2014	21:11:29.487	$GPGGA,211137,2428.4738,N,08047.6910,W,1,11,1.2,18,M,,M,,*6C
06/07/2014	21:11:29.097	$GPGGA,211138,2428.4749,N,08047.6904,W,1,11,1.2,18,M,,M,,*60
06/07/2014	21:11:30.226	$GPGGA,211139,2428.4761,N,08047.6898,W,1,11,1.2,18,M,,M,,*6F
06/07/2014	21:11:31.148	$GPGGA,211140,2428.4772,N,08047.6892,W,1,11,1.2,18,M,,M,,*69
06/07/2014	21:11:32.140	$GPGGA,211141,2428.4786,N,08047.6886,W,1,11,1.2,18,M,,M,,*66
06/07/2014	21:11:33.297	$GPGGA,211142,2428.4798,N,08047.6880,W,1,11,1.2,18,M,,M,,*6C
06/07/2014	21:11:34.199	$GPGGA,211143,2428.4811,N,08047.6875,W,1,11,1.2,18,M,,M,,*69
06/07/2014	21:11:35.232	$GPGGA,211144,2428.4823,N,08047.6870,W,1,11,1.2,18,M,,M,,*6A
06/07/2014	21:11:36.378	$GPGGA,211145,2428.4834,N,08047.6864,W,1,11,1.2,18,M,,M,,*68
06/07/2014	21:11:37.269	$GPGGA,211146,2428.4847,N,08047.6858,W,1,11,1.2,18,M,,M,,*60
06/07/2014	21:11:38.295	$GPGGA,211147,2428.4859,N,08047.6854,W,1,11,1.2,18,M,,M,,*62
06/07/2014	21:11:39.318	$GPGGA,211148,2428.4874,N,08047.6849,W,1,11,1.3,18,M,,M,,*6F
06/07/2014	21:11:40.433	$GPGGA,211149,2428.4887,N,08047.6844,W,1,11,1.2,18,M,,M,,*6E
06/07/2014	21:11:41.343	$GPGGA,211150,2428.4899,N,08047.6839,W,1,11,1.2,18,M,,M,,*63
06/07/2014	21:11:42.367	$GPGGA,211151,2428.4912,N,08047.6834,W,1,11,1.2,18,M,,M,,*6D
06/07/2014	21:11:43.412	$GPGGA,211152,2428.4924,N,08047.6829,W,1,11,1.2,18,M,,M,,*67
