Software Version Number: 1	Data File Format Number: 1	Build Version Number: 1	Error Count Since VI Started: 0	Manufacturer: Raytheon	 Model Number: RayMarine 120	 S/N: 	 Cal Date: 	 Wind Direction Offset: 0.00	 Slope (M)1: 0.00	 Offset (B)1: 0.00	 Slope (M)2: 0.00	 Offset (B)2: 0.00	 Slope (M)3: 0.00	 Offset (B)3: 0.00	 Slope (M)4: 0.00	 Offset (B)4: 0.00	 Slope (M)5: 0.00	 Offset (B)5: 0.00	 Slope (M)6: 0.00	 Offset (B)6: 0.00
Computer Date	Computer Time	GGA String
06/07/2014	06:00:00.204	$GPGGA,060009,2422.5663,N,08125.6939,W,1,9,2.0,14,M,,M,,*5A
06/07/2014	06:00:01.296	$GPGGA,060010,2422.5658,N,08125.6938,W,1,9,2.0,14,M,,M,,*5B
06/07/2014	06:00:02.340	$GPGGA,060011,2422.5652,N,08125.6936,W,1,9,1.8,14,M,,M,,*55
06/07/2014	06:00:03.232	$GPGGA,060012,2422.5647,N,08125.6934,W,1,9,1.8,14,M,,M,,*50
06/07/2014	06:00:04.316	$GPGGA,060013,2422.5643,N,08125.6932,W,1,9,1.8,14,M,,M,,*53
06/07/2014	06:00:05.219	$GPGGA,060014,2422.5637,N,08125.6930,W,1,9,1.8,14,M,,M,,*55
06/07/2014	06:00:06.312	$GPGGA,060015,2422.5632,N,08125.6928,W,1,9,1.8,14,M,,M,,*58
06/07/2014	06:00:07.246	$GPGGA,060016,2422.5627,N,08125.6926,W,1,9,1.8,14,M,,M,,*51
06/07/2014	06:00:08.339	$GPGGA,060017,2422.5622,N,08125.6925,W,1,9,1.8,14,M,,M,,*56
06/07/2014	06:00:09.232	$GPGGA,060018,2422.5618,N,08125.6923,W,1,9,1.8,14,M,,M,,*56
06/07/2014	06:00:10.315	$GPGGA,060019,2422.5612,N,08125.6921,W,1,9,1.8,15,M,,M,,*5E
06/07/2014	06:00:11.328	$GPGGA,060020,2422.5607,N,08125.6919,W,1,9,1.8,15,M,,M,,*5B
06/07/2014	06:00:12.321	$GPGGA,060021,2422.5602,N,08125.6918,W,1,9,1.8,15,M,,M,,*5E
06/07/2014	06:00:13.326	$GPGGA,060022,2422.5596,N,08125.6916,W,1,9,2.0,15,M,,M,,*56
06/07/2014	06:00:14.318	$GPGGA,060023,2422.5592,N,08125.6914,W,1,8,1.8,15,M,,M,,*5B
06/07/2014	06:00:15.331	$GPGGA,060024,2422.5587,N,08125.6912,W,1,8,1.8,15,M,,M,,*5E
06/07/2014	06:00:16.335	$GPGGA,060025,2422.5583,N,08125.6911,W,1,9,1.8,15,M,,M,,*59
06/07/2014	06:00:17.336	$GPGGA,060026,2422.5578,N,08125.6909,W,1,9,1.8,15,M,,M,,*57
06/07/2014	06:00:18.350	$GPGGA,060027,2422.5574,N,08125.6907,W,1,9,1.8,15,M,,M,,*54
06/07/2014	06:00:19.343	$GPGGA,060028,2422.5571,N,08125.6906,W,1,9,1.8,15,M,,M,,*5F
06/07/2014	06:00:20.346	$GPGGA,060029,2422.5565,N,08125.6905,W,1,9,1.8,15,M,,M,,*58
06/07/2014	06:00:21.329	$GPGGA,060030,2422.5561,N,08125.6903,W,1,9,1.8,15,M,,M,,*52
06/07/2014	06:00:22.363	$GPGGA,060031,2422.5557,N,08125.6902,W,1,9,1.8,15,M,,M,,*57
06/07/2014	06:00:23.346	$GPGGA,060032,2422.5553,N,08125.6901,W,1,9,1.8,15,M,,M,,*53
06/07/2014	06:00:24.349	$GPGGA,060033,2422.5549,N,08125.6900,W,1,9,1.8,15,M,,M,,*58
06/07/2014	06:00:25.346	$GPGGA,060034,2422.5544,N,08125.6898,W,1,9,1.8,15,M,,M,,*52
06/07/2014	06:00:26.355	$GPGGA,060035,2422.5540,N,08125.6897,W,1,9,1.8,15,M,,M,,*58
06/07/2014	06:00:27.358	$GPGGA,060036,2422.5536,N,08125.6896,W,1,9,1.8,15,M,,M,,*5B
06/07/2014	06:00:28.186	$GPGGA,060037,2422.5531,N,08125.6895,W,1,9,1.8,15,M,,M,,*5E
06/07/2014	06:00:29.144	$GPGGA,060038,2422.5527,N,08125.6893,W,1,9,1.8,15,M,,M,,*50
06/07/2014	06:00:30.179	$GPGGA,060039,2422.5522,N,08125.6893,W,1,9,1.8,15,M,,M,,*54
06/07/2014	06:00:31.160	$GPGGA,060040,2422.5517,N,08125.6891,W,1,9,2.0,15,M,,M,,*55
06/07/2014	06:00:32.193	$GPGGA,060041,2422.5514,N,08125.6890,W,1,8,2.0,15,M,,M,,*57
06/07/2014	06:00:33.158	$GPGGA,060042,2422.5509,N,08125.6889,W,1,8,1.8,15,M,,M,,*5B
06/07/2014	06:00:34.181	$GPGGA,060043,2422.5506,N,08125.6889,W,1,9,1.8,15,M,,M,,*54
06/07/2014	06:00:35.162	$GPGGA,060044,2422.5501,N,08125.6888,W,1,9,1.8,15,M,,M,,*55
06/07/2014	06:00:36.165	$GPGGA,060045,2422.5497,N,08125.6887,W,1,9,1.8,15,M,,M,,*55
06/07/2014	06:00:37.158	$GPGGA,060046,2422.5492,N,08125.6886,W,1,9,1.8,15,M,,M,,*52
06/07/2014	06:00:38.151	$GPGGA,060047,2422.5488,N,08125.6886,W,1,9,1.8,15,M,,M,,*58
06/07/2014	06:00:39.175	$GPGGA,060048,2422.5484,N,08125.6885,W,1,9,1.8,15,M,,M,,*58
06/07/2014	06:00:40.189	$GPGGA,060049,2422.5480,N,08125.6884,W,1,9,1.8,15,M,,M,,*5C
06/07/2014	06:00:41.161	$GPGGA,060050,2422.5477,N,08125.6883,W,1,9,1.8,15,M,,M,,*5B
06/07/2014	06:00:42.194	$GPGGA,060051,2422.5471,N,08125.6882,W,1,9,1.8,15,M,,M,,*5D
06/07/2014	06:00:43.167	$GPGGA,060052,2422.5467,N,08125.6882,W,1,9,1.8,15,M,,M,,*59
06/07/2014	06:00:44.171	$GPGGA,060053,2422.5462,N,08125.6881,W,1,9,1.8,15,M,,M,,*5E
06/07/2014	06:00:45.174	$GPGGA,060054,2422.5459,N,08125.6880,W,1,9,1.8,15,M,,M,,*50
06/07/2014	06:00:46.287	$GPGGA,060055,2422.5453,N,08125.6879,W,1,9,1.8,15,M,,M,,*5D
06/07/2014	06:00:47.170	$GPGGA,060056,2422.5449,N,08125.6878,W,1,9,1.8,15,M,,M,,*54
06/07/2014	06:00:48.183	$GPGGA,060057,2422.5444,N,08125.6877,W,1,9,1.8,15,M,,M,,*57
06/07/2014	06:00:49.177	$GPGGA,060058,2422.5441,N,08125.6878,W,1,9,1.8,15,M,,M,,*52
06/07/2014	06:00:50.271	$GPGGA,060059,2422.5436,N,08125.6876,W,1,9,1.8,15,M,,M,,*5D
06/07/2014	06:00:51.183	$GPGGA,060100,2422.5432,N,08125.6876,W,1,9,1.8,15,M,,M,,*54
06/07/2014	06:00:52.296	$GPGGA,060101,2422.5427,N,08125.6875,W,1,9,1.8,15,M,,M,,*52
06/07/2014	06:00:53.178	$GPGGA,060102,2422.5423,N,08125.6874,W,1,9,1.8,15,M,,M,,*54
06/07/2014	06:00:54.192	$GPGGA,060103,2422.5419,N,08125.6873,W,1,9,1.8,15,M,,M,,*5B
06/07/2014	06:00:55.185	$GPGGA,060104,2422.5413,N,08125.6872,W,1,9,1.8,15,M,,M,,*57
06/07/2014	06:00:56.168	$GPGGA,060105,2422.5409,N,08125.6871,W,1,8,2.0,15,M,,M,,*54
06/07/2014	06:00:57.271	$GPGGA,060106,2422.5403,N,08125.6870,W,1,8,1.8,15,M,,M,,*57
06/07/2014	06:00:58.185	$GPGGA,060107,2422.5399,N,08125.6871,W,1,8,2.0,15,M,,M,,*58
06/07/2014	06:00:59.288	$GPGGA,060108,2422.5394,N,08125.6868,W,1,8,1.8,15,M,,M,,*59
06/07/2014	06:01:00.321	$GPGGA,060109,2422.5389,N,08125.6867,W,1,8,2.0,15,M,,M,,*50
06/07/2014	06:01:01.274	$GPGGA,060110,2422.5387,N,08125.6868,W,1,8,2.0,15,M,,M,,*59
06/07/2014	06:01:02.308	$GPGGA,060111,2422.5384,N,08125.6867,W,1,9,1.8,15,M,,M,,*5E
06/07/2014	06:01:03.311	$GPGGA,060112,2422.5378,N,08125.6865,W,1,9,1.8,15,M,,M,,*5C
06/07/2014	06:01:04.304	$GPGGA,060113,2422.5374,N,08125.6865,W,1,8,2.0,15,M,,M,,*5B
06/07/2014	06:01:05.287	$GPGGA,060114,2422.5372,N,08125.6864,W,1,8,1.8,15,M,,M,,*50
06/07/2014	06:01:06.310	$GPGGA,060115,2422.5367,N,08125.6863,W,1,9,1.8,15,M,,M,,*53
06/07/2014	06:01:07.314	$GPGGA,060116,2422.5363,N,08125.6862,W,1,9,1.8,15,M,,M,,*55
06/07/2014	06:01:08.308	$GPGGA,060117,2422.5359,N,08125.6862,W,1,9,1.8,15,M,,M,,*5D
06/07/2014	06:01:09.300	$GPGGA,060118,2422.5355,N,08125.6861,W,1,9,1.8,16,M,,M,,*5E
06/07/2014	06:01:10.302	$GPGGA,060119,2422.5350,N,08125.6859,W,1,9,1.8,16,M,,M,,*51
06/07/2014	06:01:11.295	$GPGGA,060120,2422.5347,N,08125.6860,W,1,9,1.8,16,M,,M,,*57
06/07/2014	06:01:12.339	$GPGGA,060121,2422.5342,N,08125.6858,W,1,9,1.8,16,M,,M,,*58
06/07/2014	06:01:13.302	$GPGGA,060122,2422.5338,N,08125.6856,W,1,9,1.8,16,M,,M,,*58
06/07/2014	06:01:14.299	$GPGGA,060123,2422.5334,N,08125.6855,W,1,9,1.8,16,M,,M,,*56
06/07/2014	06:01:15.308	$GPGGA,060124,2422.5329,N,08125.6854,W,1,9,1.8,16,M,,M,,*5C
06/07/2014	06:01:16.331	$GPGGA,060125,2422.5325,N,08125.6853,W,1,9,1.8,16,M,,M,,*56
06/07/2014	06:01:17.311	$GPGGA,060126,2422.5322,N,08125.6852,W,1,9,1.8,16,M,,M,,*53
06/07/2014	06:01:18.298	$GPGGA,060127,2422.5318,N,08125.6853,W,1,9,1.8,16,M,,M,,*5A
06/07/2014	06:01:19.311	$GPGGA,060128,2422.5311,N,08125.6850,W,1,9,2.0,16,M,,M,,*54
06/07/2014	06:01:20.334	$GPGGA,060129,2422.5305,N,08125.6847,W,1,9,1.8,16,M,,M,,*5D
06/07/2014	06:01:21.307	$GPGGA,060130,2422.5300,N,08125.6846,W,1,9,1.8,16,M,,M,,*51
06/07/2014	06:01:22.340	$GPGGA,060131,2422.5293,N,08125.6844,W,1,9,1.8,16,M,,M,,*59
06/07/2014	06:01:23.314	$GPGGA,060132,2422.5289,N,08125.6843,W,1,9,1.8,16,M,,M,,*56
06/07/2014	06:01:24.335	$GPGGA,060133,2422.5283,N,08125.6841,W,1,8,2.0,16,M,,M,,*55
06/07/2014	06:01:25.310	$GPGGA,060134,2422.5279,N,08125.6842,W,1,8,1.8,16,M,,M,,*5F
06/07/2014	06:01:26.324	$GPGGA,060135,2422.5275,N,08125.6839,W,1,9,1.8,16,M,,M,,*5F
06/07/2014	06:01:27.365	$GPGGA,060136,2422.5271,N,08125.6838,W,1,9,1.8,17,M,,M,,*58
06/07/2014	06:01:28.308	$GPGGA,060137,2422.5267,N,08125.6836,W,1,9,1.8,17,M,,M,,*50
06/07/2014	06:01:29.132	$GPGGA,060138,2422.5264,N,08125.6835,W,1,9,1.8,17,M,,M,,*5F
06/07/2014	06:01:30.155	$GPGGA,060139,2422.5258,N,08125.6833,W,1,9,1.8,17,M,,M,,*57
06/07/2014	06:01:31.149	$GPGGA,060140,2422.5254,N,08125.6832,W,1,9,1.8,17,M,,M,,*54
06/07/2014	06:01:32.122	$GPGGA,060141,2422.5250,N,08125.6831,W,1,9,1.8,17,M,,M,,*52
06/07/2014	06:01:33.124	$GPGGA,060142,2422.5246,N,08125.6830,W,1,9,1.8,17,M,,M,,*57
06/07/2014	06:01:34.238	$GPGGA,060143,2422.5242,N,08125.6828,W,1,9,1.8,17,M,,M,,*5B
06/07/2014	06:01:35.261	$GPGGA,060144,2422.5237,N,08125.6827,W,1,9,1.8,17,M,,M,,*51
06/07/2014	06:01:36.124	$GPGGA,060145,2422.5232,N,08125.6826,W,1,9,1.8,17,M,,M,,*54
06/07/2014	06:01:37.137	$GPGGA,060146,2422.5228,N,08125.6825,W,1,9,1.8,17,M,,M,,*5F
06/07/2014	06:01:38.231	$GPGGA,060147,2422.5224,N,08125.6823,W,1,9,1.8,17,M,,M,,*54
06/07/2014	06:01:39.154	$GPGGA,060148,2422.5219,N,08125.6824,W,1,9,1.8,17,M,,M,,*52
06/07/2014	06:01:40.137	$GPGGA,060149,2422.5214,N,08125.6821,W,1,9,1.8,17,M,,M,,*5B
06/07/2014	06:01:41.230	$GPGGA,060150,2422.5210,N,08125.6820,W,1,9,1.8,17,M,,M,,*56
06/07/2014	06:01:42.284	$GPGGA,060151,2422.5206,N,08125.6819,W,1,9,1.8,17,M,,M,,*5A
06/07/2014	06:01:43.156	$GPGGA,060152,2422.5201,N,08125.6818,W,1,9,2.0,17,M,,M,,*54
06/07/2014	06:01:44.269	$GPGGA,060153,2422.5196,N,08125.6816,W,1,9,1.8,17,M,,M,,*5D
06/07/2014	06:01:45.152	$GPGGA,060154,2422.5192,N,08125.6815,W,1,9,2.0,17,M,,M,,*56
06/07/2014	06:01:46.235	$GPGGA,060155,2422.5188,N,08125.6815,W,1,9,1.8,17,M,,M,,*57
06/07/2014	06:01:47.313	$GPGGA,060156,2422.5183,N,08125.6812,W,1,9,1.8,17,M,,M,,*58
06/07/2014	06:01:48.272	$GPGGA,060157,2422.5178,N,08125.6811,W,1,9,1.8,17,M,,M,,*5E
06/07/2014	06:01:49.235	$GPGGA,060158,2422.5174,N,08125.6810,W,1,9,1.8,17,M,,M,,*5C
06/07/2014	06:01:50.288	$GPGGA,060159,2422.5170,N,08125.6809,W,1,9,1.8,17,M,,M,,*51
06/07/2014	06:01:51.271	$GPGGA,060200,2422.5166,N,08125.6807,W,1,9,1.8,17,M,,M,,*57
06/07/2014	06:01:52.252	$GPGGA,060201,2422.5163,N,08125.6807,W,1,8,2.0,17,M,,M,,*59
06/07/2014	06:01:53.248	$GPGGA,060202,2422.5159,N,08125.6806,W,1,8,1.8,17,M,,M,,*59
06/07/2014	06:01:54.281	$GPGGA,060203,2422.5157,N,08125.6806,W,1,8,2.0,17,M,,M,,*5D
06/07/2014	06:01:55.264	$GPGGA,060204,2422.5153,N,08125.6805,W,1,8,1.8,17,M,,M,,*56
06/07/2014	06:01:56.250	$GPGGA,060205,2422.5148,N,08125.6803,W,1,8,2.0,17,M,,M,,*50
06/07/2014	06:01:57.270	$GPGGA,060206,2422.5145,N,08125.6803,W,1,8,1.8,17,M,,M,,*55
06/07/2014	06:01:58.274	$GPGGA,060207,2422.5141,N,08125.6802,W,1,9,1.8,16,M,,M,,*51
06/07/2014	06:01:59.270	$GPGGA,060208,2422.5141,N,08125.6803,W,1,9,2.0,16,M,,M,,*54
06/07/2014	06:02:00.270	$GPGGA,060209,2422.5135,N,08125.6800,W,1,9,1.8,16,M,,M,,*5E
06/07/2014	06:02:01.255	$GPGGA,060210,2422.5130,N,08125.6799,W,1,9,1.8,16,M,,M,,*5C
06/07/2014	06:02:02.295	$GPGGA,060211,2422.5126,N,08125.6798,W,1,9,1.8,16,M,,M,,*5B
06/07/2014	06:02:03.275	$GPGGA,060212,2422.5123,N,08125.6797,W,1,9,1.8,16,M,,M,,*52
06/07/2014	06:02:04.280	$GPGGA,060213,2422.5119,N,08125.6796,W,1,9,1.8,16,M,,M,,*5B
06/07/2014	06:02:05.255	$GPGGA,060214,2422.5116,N,08125.6796,W,1,9,2.0,16,M,,M,,*58
06/07/2014	06:02:06.288	$GPGGA,060215,2422.5113,N,08125.6795,W,1,9,1.8,16,M,,M,,*54
06/07/2014	06:02:07.301	$GPGGA,060216,2422.5110,N,08125.6796,W,1,9,1.8,16,M,,M,,*57
06/07/2014	06:02:08.286	$GPGGA,060217,2422.5107,N,08125.6794,W,1,9,1.8,16,M,,M,,*52
06/07/2014	06:02:09.284	$GPGGA,060218,2422.5105,N,08125.6793,W,1,9,1.8,16,M,,M,,*58
06/07/2014	06:02:10.271	$GPGGA,060219,2422.5100,N,08125.6791,W,1,9,1.8,16,M,,M,,*5E
06/07/2014	06:02:11.294	$GPGGA,060220,2422.5098,N,08125.6792,W,1,9,1.8,16,M,,M,,*57
06/07/2014	06:02:12.317	$GPGGA,060221,2422.5094,N,08125.6790,W,1,9,1.8,16,M,,M,,*58
06/07/2014	06:02:13.271	$GPGGA,060222,2422.5088,N,08125.6789,W,1,9,1.8,16,M,,M,,*5E
06/07/2014	06:02:14.307	$GPGGA,060223,2422.5085,N,08125.6788,W,1,9,1.8,16,M,,M,,*53
06/07/2014	06:02:15.287	$GPGGA,060224,2422.5081,N,08125.6788,W,1,9,1.8,16,M,,M,,*50
06/07/2014	06:02:16.280	$GPGGA,060225,2422.5077,N,08125.6786,W,1,9,1.8,17,M,,M,,*57
06/07/2014	06:02:17.273	$GPGGA,060226,2422.5072,N,08125.6785,W,1,9,1.8,17,M,,M,,*52
06/07/2014	06:02:18.297	$GPGGA,060227,2422.5069,N,08125.6784,W,1,9,1.8,17,M,,M,,*58
06/07/2014	06:02:19.289	$GPGGA,060228,2422.5065,N,08125.6783,W,1,9,1.8,17,M,,M,,*5C
06/07/2014	06:02:20.282	$GPGGA,060229,2422.5059,N,08125.6782,W,1,9,1.8,17,M,,M,,*53
06/07/2014	06:02:21.285	$GPGGA,060230,2422.5055,N,08125.6781,W,1,9,1.8,17,M,,M,,*54
06/07/2014	06:02:22.278	$GPGGA,060231,2422.5051,N,08125.6779,W,1,9,1.8,17,M,,M,,*56
06/07/2014	06:02:23.303	$GPGGA,060232,2422.5047,N,08125.6778,W,1,9,1.8,17,M,,M,,*53
06/07/2014	06:02:24.305	$GPGGA,060233,2422.5042,N,08125.6777,W,1,9,1.8,17,M,,M,,*58
06/07/2014	06:02:25.298	$GPGGA,060234,2422.5038,N,08125.6776,W,1,9,1.8,17,M,,M,,*53
06/07/2014	06:02:26.301	$GPGGA,060235,2422.5034,N,08125.6775,W,1,9,1.7,17,M,,M,,*52
06/07/2014	06:02:27.304	$GPGGA,060236,2422.5029,N,08125.6773,W,1,9,1.7,17,M,,M,,*5B
06/07/2014	06:02:28.297	$GPGGA,060237,2422.5026,N,08125.6772,W,1,9,1.7,17,M,,M,,*54
06/07/2014	06:02:29.191	$GPGGA,060238,2422.5022,N,08125.6771,W,1,9,1.7,17,M,,M,,*5C
06/07/2014	06:02:30.104	$GPGGA,060239,2422.5018,N,08125.6769,W,1,9,1.7,17,M,,M,,*5D
06/07/2014	06:02:31.217	$GPGGA,060240,2422.5013,N,08125.6768,W,1,9,1.7,17,M,,M,,*59
06/07/2014	06:02:32.100	$GPGGA,060241,2422.5008,N,08125.6767,W,1,9,1.7,17,M,,M,,*5D
06/07/2014	06:02:33.093	$GPGGA,060242,2422.5004,N,08125.6766,W,1,9,2.0,17,M,,M,,*57
06/07/2014	06:02:34.107	$GPGGA,060243,2422.5001,N,08125.6765,W,1,9,1.7,17,M,,M,,*54
06/07/2014	06:02:35.291	$GPGGA,060244,2422.4996,N,08125.6764,W,1,9,2.0,16,M,,M,,*51
06/07/2014	06:02:36.233	$GPGGA,060245,2422.4993,N,08125.6762,W,1,8,1.7,16,M,,M,,*56
06/07/2014	06:02:37.115	$GPGGA,060246,2422.4987,N,08125.6763,W,1,8,1.7,16,M,,M,,*51
06/07/2014	06:02:38.108	$GPGGA,060247,2422.4984,N,08125.6761,W,1,9,1.7,16,M,,M,,*50
06/07/2014	06:02:39.292	$GPGGA,060248,2422.4980,N,08125.6760,W,1,9,1.7,16,M,,M,,*5A
06/07/2014	06:02:40.245	$GPGGA,060249,2422.4976,N,08125.6759,W,1,9,1.7,16,M,,M,,*58
06/07/2014	06:02:41.278	$GPGGA,060250,2422.4972,N,08125.6758,W,1,9,1.7,16,M,,M,,*55
06/07/2014	06:02:42.272	$GPGGA,060251,2422.4968,N,08125.6757,W,1,9,1.7,16,M,,M,,*50
06/07/2014	06:02:43.225	$GPGGA,060252,2422.4962,N,08125.6756,W,1,9,1.7,16,M,,M,,*58
06/07/2014	06:02:44.238	$GPGGA,060253,2422.4959,N,08125.6755,W,1,8,1.7,16,M,,M,,*53
06/07/2014	06:02:45.291	$GPGGA,060254,2422.4957,N,08125.6753,W,1,8,1.7,16,M,,M,,*5C
06/07/2014	06:02:46.265	$GPGGA,060255,2422.4951,N,08125.6753,W,1,9,1.7,16,M,,M,,*5A
06/07/2014	06:02:47.309	$GPGGA,060256,2422.4949,N,08125.6753,W,1,9,2.0,16,M,,M,,*54
06/07/2014	06:02:48.271	$GPGGA,060257,2422.4943,N,08125.6750,W,1,9,1.7,16,M,,M,,*58
06/07/2014	06:02:49.294	$GPGGA,060258,2422.4939,N,08125.6749,W,1,9,2.0,16,M,,M,,*56
06/07/2014	06:02:50.217	$GPGGA,060259,2422.4933,N,08125.6748,W,1,9,1.7,16,M,,M,,*58
06/07/2014	06:02:51.321	$GPGGA,060300,2422.4928,N,08125.6747,W,1,9,2.0,16,M,,M,,*54
06/07/2014	06:02:52.325	$GPGGA,060301,2422.4924,N,08125.6745,W,1,8,1.7,16,M,,M,,*5E
06/07/2014	06:02:53.217	$GPGGA,060302,2422.4918,N,08125.6744,W,1,8,1.7,16,M,,M,,*53
06/07/2014	06:02:54.269	$GPGGA,060303,2422.4917,N,08125.6745,W,1,8,2.0,16,M,,M,,*58
06/07/2014	06:02:55.242	$GPGGA,060304,2422.4913,N,08125.6743,W,1,8,1.7,16,M,,M,,*59
06/07/2014	06:02:56.305	$GPGGA,060305,2422.4910,N,08125.6742,W,1,9,1.7,16,M,,M,,*5B
06/07/2014	06:02:57.309	$GPGGA,060306,2422.4906,N,08125.6742,W,1,9,1.7,16,M,,M,,*5F
06/07/2014	06:02:58.221	$GPGGA,060307,2422.4901,N,08125.6741,W,1,9,1.7,16,M,,M,,*5A
06/07/2014	06:02:59.304	$GPGGA,060308,2422.4899,N,08125.6740,W,1,9,1.7,16,M,,M,,*54
06/07/2014	06:03:00.266	$GPGGA,060309,2422.4894,N,08125.6739,W,1,9,1.7,16,M,,M,,*56
06/07/2014	06:03:01.289	$GPGGA,060310,2422.4890,N,08125.6738,W,1,9,1.7,16,M,,M,,*5B
06/07/2014	06:03:02.232	$GPGGA,060311,2422.4885,N,08125.6736,W,1,9,1.7,16,M,,M,,*50
06/07/2014	06:03:03.295	$GPGGA,060312,2422.4881,N,08125.6735,W,1,9,1.7,16,M,,M,,*54
06/07/2014	06:03:04.288	$GPGGA,060313,2422.4877,N,08125.6734,W,1,9,1.7,16,M,,M,,*5D
06/07/2014	06:03:05.230	$GPGGA,060314,2422.4872,N,08125.6734,W,1,9,1.7,16,M,,M,,*5F
06/07/2014	06:03:06.264	$GPGGA,060315,2422.4867,N,08125.6732,W,1,9,1.7,16,M,,M,,*5C
06/07/2014	06:03:07.246	$GPGGA,060316,2422.4861,N,08125.6730,W,1,9,1.7,16,M,,M,,*5B
06/07/2014	06:03:08.289	$GPGGA,060317,2422.4857,N,08125.6730,W,1,8,2.0,16,M,,M,,*5A
06/07/2014	06:03:09.302	$GPGGA,060318,2422.4852,N,08125.6728,W,1,8,1.7,16,M,,M,,*5D
06/07/2014	06:03:10.255	$GPGGA,060319,2422.4848,N,08125.6727,W,1,8,1.7,16,M,,M,,*58
06/07/2014	06:03:11.247	$GPGGA,060320,2422.4846,N,08125.6727,W,1,8,1.7,16,M,,M,,*5C
06/07/2014	06:03:12.339	$GPGGA,060321,2422.4842,N,08125.6726,W,1,9,1.7,16,M,,M,,*59
06/07/2014	06:03:13.242	$GPGGA,060322,2422.4837,N,08125.6724,W,1,9,1.7,16,M,,M,,*5A
06/07/2014	06:03:14.275	$GPGGA,060323,2422.4834,N,08125.6723,W,1,9,1.7,16,M,,M,,*5F
06/07/2014	06:03:15.317	$GPGGA,060324,2422.4829,N,08125.6722,W,1,9,1.7,16,M,,M,,*55
06/07/2014	06:03:16.294	$GPGGA,060325,2422.4825,N,08125.6721,W,1,9,1.7,16,M,,M,,*5B
06/07/2014	06:03:17.343	$GPGGA,060326,2422.4823,N,08125.6721,W,1,9,1.7,16,M,,M,,*5E
06/07/2014	06:03:18.286	$GPGGA,060327,2422.4818,N,08125.6720,W,1,9,1.7,16,M,,M,,*56
06/07/2014	06:03:19.319	$GPGGA,060328,2422.4812,N,08125.6718,W,1,9,1.7,16,M,,M,,*58
06/07/2014	06:03:20.241	$GPGGA,060329,2422.4806,N,08125.6716,W,1,8,2.0,16,M,,M,,*57
06/07/2014	06:03:21.294	$GPGGA,060330,2422.4800,N,08125.6715,W,1,8,2.0,16,M,,M,,*5A
06/07/2014	06:03:22.297	$GPGGA,060331,2422.4794,N,08125.6712,W,1,8,2.0,16,M,,M,,*5E
06/07/2014	06:03:23.310	$GPGGA,060332,2422.4788,N,08125.6711,W,1,8,2.2,16,M,,M,,*51
06/07/2014	06:03:24.272	$GPGGA,060333,2422.4782,N,08125.6710,W,1,7,2.0,16,M,,M,,*56
06/07/2014	06:03:25.315	$GPGGA,060334,2422.4785,N,08125.6710,W,1,7,1.7,16,M,,M,,*52
06/07/2014	06:03:26.278	$GPGGA,060335,2422.4778,N,08125.6708,W,1,9,2.0,16,M,,M,,*52
06/07/2014	06:03:27.351	$GPGGA,060336,2422.4772,N,08125.6706,W,1,9,2.2,16,M,,M,,*57
06/07/2014	06:03:28.174	$GPGGA,060337,2422.4766,N,08125.6704,W,1,7,2.0,16,M,,M,,*5D
06/07/2014	06:03:29.177	$GPGGA,060338,2422.4760,N,08125.6703,W,1,7,1.7,16,M,,M,,*57
06/07/2014	06:03:30.170	$GPGGA,060339,2422.4754,N,08125.6701,W,1,9,2.0,16,M,,M,,*59
06/07/2014	06:03:31.203	$GPGGA,060340,2422.4749,N,08125.6700,W,1,9,1.7,16,M,,M,,*5E
06/07/2014	06:03:32.196	$GPGGA,060341,2422.4747,N,08125.6699,W,1,9,1.7,16,M,,M,,*50
06/07/2014	06:03:33.170	$GPGGA,060342,2422.4741,N,08125.6697,W,1,9,2.0,16,M,,M,,*5F
06/07/2014	06:03:34.201	$GPGGA,060343,2422.4735,N,08125.6695,W,1,8,2.2,16,M,,M,,*5C
06/07/2014	06:03:35.184	$GPGGA,060344,2422.4730,N,08125.6694,W,1,8,1.7,16,M,,M,,*59
06/07/2014	06:03:36.197	$GPGGA,060345,2422.4727,N,08125.6694,W,1,9,1.7,16,M,,M,,*5F
06/07/2014	06:03:37.190	$GPGGA,060346,2422.4723,N,08125.6692,W,1,9,1.7,16,M,,M,,*5E
06/07/2014	06:03:38.204	$GPGGA,060347,2422.4720,N,08125.6691,W,1,9,1.7,16,M,,M,,*5F
06/07/2014	06:03:39.225	$GPGGA,060348,2422.4716,N,08125.6691,W,1,9,1.7,16,M,,M,,*55
06/07/2014	06:03:40.178	$GPGGA,060349,2422.4712,N,08125.6689,W,1,9,1.7,16,M,,M,,*59
06/07/2014	06:03:41.186	$GPGGA,060350,2422.4708,N,08125.6688,W,1,9,1.7,16,M,,M,,*5B
06/07/2014	06:03:42.234	$GPGGA,060351,2422.4704,N,08125.6687,W,1,9,1.7,16,M,,M,,*59
06/07/2014	06:03:43.213	$GPGGA,060352,2422.4700,N,08125.6687,W,1,9,1.7,16,M,,M,,*5E
06/07/2014	06:03:44.206	$GPGGA,060353,2422.4697,N,08125.6685,W,1,9,1.7,16,M,,M,,*52
06/07/2014	06:03:45.222	$GPGGA,060354,2422.4693,N,08125.6684,W,1,9,2.0,16,M,,M,,*54
06/07/2014	06:03:46.215	$GPGGA,060355,2422.4689,N,08125.6683,W,1,8,2.0,16,M,,M,,*58
06/07/2014	06:03:47.237	$GPGGA,060356,2422.4682,N,08125.6681,W,1,8,2.0,16,M,,M,,*52
06/07/2014	06:03:48.221	$GPGGA,060357,2422.4679,N,08125.6680,W,1,8,1.7,16,M,,M,,*52
06/07/2014	06:03:49.182	$GPGGA,060358,2422.4675,N,08125.6679,W,1,8,1.7,16,M,,M,,*57
06/07/2014	06:03:50.225	$GPGGA,060359,2422.4669,N,08125.6677,W,1,9,2.0,16,M,,M,,*50
06/07/2014	06:03:51.228	$GPGGA,060400,2422.4665,N,08125.6677,W,1,9,1.7,16,M,,M,,*53
06/07/2014	06:03:52.233	$GPGGA,060401,2422.4661,N,08125.6675,W,1,9,1.7,16,M,,M,,*54
06/07/2014	06:03:53.234	$GPGGA,060402,2422.4657,N,08125.6673,W,1,9,2.2,16,M,,M,,*52
06/07/2014	06:03:54.216	$GPGGA,060403,2422.4650,N,08125.6673,W,1,7,2.2,16,M,,M,,*5A
06/07/2014	06:03:55.199	$GPGGA,060404,2422.4650,N,08125.6673,W,1,7,2.0,16,M,,M,,*5F
06/07/2014	06:03:56.212	$GPGGA,060405,2422.4639,N,08125.6669,W,1,8,2.2,16,M,,M,,*57
06/07/2014	06:03:57.241	$GPGGA,060406,2422.4635,N,08125.6668,W,1,8,2.0,16,M,,M,,*5B
06/07/2014	06:03:58.218	$GPGGA,060407,2422.4628,N,08125.6666,W,1,8,2.0,16,M,,M,,*58
06/07/2014	06:03:59.210	$GPGGA,060408,2422.4628,N,08125.6666,W,1,8,2.0,16,M,,M,,*57
06/07/2014	06:04:00.214	$GPGGA,060409,2422.4621,N,08125.6663,W,1,9,1.7,16,M,,M,,*5F
06/07/2014	06:04:01.246	$GPGGA,060410,2422.4619,N,08125.6663,W,1,9,1.7,16,M,,M,,*5C
06/07/2014	06:04:02.249	$GPGGA,060411,2422.4614,N,08125.6662,W,1,9,1.7,15,M,,M,,*52
06/07/2014	06:04:03.222	$GPGGA,060412,2422.4610,N,08125.6660,W,1,9,1.7,15,M,,M,,*57
06/07/2014	06:04:04.293	$GPGGA,060413,2422.4605,N,08125.6658,W,1,9,1.7,15,M,,M,,*59
06/07/2014	06:04:05.196	$GPGGA,060414,2422.4605,N,08125.6658,W,1,9,2.0,15,M,,M,,*5A
06/07/2014	06:04:06.189	$GPGGA,060415,2422.4599,N,08125.6656,W,1,8,2.0,15,M,,M,,*52
06/07/2014	06:04:07.252	$GPGGA,060416,2422.4595,N,08125.6656,W,1,8,1.7,15,M,,M,,*59
06/07/2014	06:04:08.325	$GPGGA,060417,2422.4592,N,08125.6655,W,1,9,1.7,15,M,,M,,*5D
06/07/2014	06:04:09.217	$GPGGA,060418,2422.4592,N,08125.6654,W,1,9,1.7,15,M,,M,,*53
06/07/2014	06:04:10.340	$GPGGA,060419,2422.4587,N,08125.6653,W,1,9,1.7,15,M,,M,,*51
06/07/2014	06:04:11.280	$GPGGA,060420,2422.4587,N,08125.6653,W,1,9,1.7,15,M,,M,,*5B
06/07/2014	06:04:12.316	$GPGGA,060421,2422.4576,N,08125.6650,W,1,8,2.0,15,M,,M,,*52
06/07/2014	06:04:13.299	$GPGGA,060422,2422.4574,N,08125.6649,W,1,8,2.0,15,M,,M,,*5B
06/07/2014	06:04:14.342	$GPGGA,060423,2422.4570,N,08125.6648,W,1,9,1.7,16,M,,M,,*59
06/07/2014	06:04:15.314	$GPGGA,060424,2422.4565,N,08125.6647,W,1,9,2.0,16,M,,M,,*51
06/07/2014	06:04:16.307	$GPGGA,060425,2422.4560,N,08125.6645,W,1,9,1.7,16,M,,M,,*53
06/07/2014	06:04:17.310	$GPGGA,060426,2422.4556,N,08125.6644,W,1,9,1.7,16,M,,M,,*54
06/07/2014	06:04:18.313	$GPGGA,060427,2422.4552,N,08125.6642,W,1,9,1.7,16,M,,M,,*57
06/07/2014	06:04:19.325	$GPGGA,060428,2422.4547,N,08125.6641,W,1,9,1.7,16,M,,M,,*5F
06/07/2014	06:04:20.339	$GPGGA,060429,2422.4543,N,08125.6640,W,1,9,1.7,16,M,,M,,*5B
06/07/2014	06:04:21.321	$GPGGA,060430,2422.4539,N,08125.6638,W,1,9,1.7,16,M,,M,,*51
06/07/2014	06:04:22.333	$GPGGA,060431,2422.4535,N,08125.6637,W,1,9,1.7,16,M,,M,,*53
06/07/2014	06:04:23.326	$GPGGA,060432,2422.4532,N,08125.6637,W,1,9,1.7,16,M,,M,,*57
06/07/2014	06:04:24.318	$GPGGA,060433,2422.4528,N,08125.6635,W,1,9,1.7,15,M,,M,,*5C
06/07/2014	06:04:25.318	$GPGGA,060434,2422.4524,N,08125.6636,W,1,9,1.7,15,M,,M,,*54
06/07/2014	06:04:26.334	$GPGGA,060435,2422.4521,N,08125.6634,W,1,9,1.7,15,M,,M,,*52
06/07/2014	06:04:27.327	$GPGGA,060436,2422.4517,N,08125.6633,W,1,9,1.7,15,M,,M,,*53
06/07/2014	06:04:28.171	$GPGGA,060437,2422.4513,N,08125.6632,W,1,9,1.7,15,M,,M,,*57
06/07/2014	06:04:29.161	$GPGGA,060438,2422.4510,N,08125.6630,W,1,9,1.7,15,M,,M,,*59
06/07/2014	06:04:30.173	$GPGGA,060439,2422.4506,N,08125.6630,W,1,9,1.7,15,M,,M,,*5F
06/07/2014	06:04:31.174	$GPGGA,060440,2422.4501,N,08125.6628,W,1,9,1.7,15,M,,M,,*5F
06/07/2014	06:04:32.182	$GPGGA,060441,2422.4498,N,08125.6627,W,1,9,1.7,15,M,,M,,*50
06/07/2014	06:04:33.159	$GPGGA,060442,2422.4493,N,08125.6626,W,1,9,1.7,15,M,,M,,*59
06/07/2014	06:04:34.190	$GPGGA,060443,2422.4489,N,08125.6625,W,1,9,1.7,15,M,,M,,*50
06/07/2014	06:04:35.164	$GPGGA,060444,2422.4485,N,08125.6623,W,1,9,1.7,15,M,,M,,*5D
06/07/2014	06:04:36.156	$GPGGA,060445,2422.4481,N,08125.6621,W,1,9,1.7,15,M,,M,,*5A
06/07/2014	06:04:37.175	$GPGGA,060446,2422.4478,N,08125.6622,W,1,9,1.7,15,M,,M,,*5C
06/07/2014	06:04:38.192	$GPGGA,060447,2422.4473,N,08125.6619,W,1,9,1.7,15,M,,M,,*5E
06/07/2014	06:04:39.178	$GPGGA,060448,2422.4469,N,08125.6617,W,1,9,1.7,15,M,,M,,*54
06/07/2014	06:04:40.192	$GPGGA,060449,2422.4465,N,08125.6618,W,1,9,1.7,15,M,,M,,*56
06/07/2014	06:04:41.159	$GPGGA,060450,2422.4462,N,08125.6616,W,1,9,1.7,15,M,,M,,*57
06/07/2014	06:04:42.173	$GPGGA,060451,2422.4456,N,08125.6614,W,1,9,1.7,15,M,,M,,*53
06/07/2014	06:04:43.175	$GPGGA,060452,2422.4452,N,08125.6612,W,1,9,1.7,15,M,,M,,*52
06/07/2014	06:04:44.167	$GPGGA,060453,2422.4448,N,08125.6612,W,1,9,1.7,15,M,,M,,*58
06/07/2014	06:04:45.180	$GPGGA,060454,2422.4444,N,08125.6610,W,1,9,1.7,15,M,,M,,*51
06/07/2014	06:04:46.196	$GPGGA,060455,2422.4440,N,08125.6609,W,1,9,1.7,15,M,,M,,*5C
06/07/2014	06:04:47.213	$GPGGA,060456,2422.4437,N,08125.6608,W,1,9,1.7,15,M,,M,,*5E
06/07/2014	06:04:48.178	$GPGGA,060457,2422.4433,N,08125.6606,W,1,9,1.7,15,M,,M,,*55
06/07/2014	06:04:49.173	$GPGGA,060458,2422.4428,N,08125.6605,W,1,9,1.7,15,M,,M,,*53
06/07/2014	06:04:50.184	$GPGGA,060459,2422.4424,N,08125.6603,W,1,9,1.7,15,M,,M,,*58
06/07/2014	06:04:51.197	$GPGGA,060500,2422.4420,N,08125.6602,W,1,9,1.7,15,M,,M,,*50
06/07/2014	06:04:52.190	$GPGGA,060501,2422.4416,N,08125.6601,W,1,9,1.7,15,M,,M,,*57
06/07/2014	06:04:53.273	$GPGGA,060502,2422.4412,N,08125.6599,W,1,9,1.7,15,M,,M,,*52
06/07/2014	06:04:54.165	$GPGGA,060503,2422.4408,N,08125.6597,W,1,9,1.7,15,M,,M,,*56
06/07/2014	06:04:55.189	$GPGGA,060504,2422.4404,N,08125.6597,W,1,9,1.7,15,M,,M,,*5D
06/07/2014	06:04:56.171	$GPGGA,060505,2422.4400,N,08125.6596,W,1,9,1.7,15,M,,M,,*59
06/07/2014	06:04:57.273	$GPGGA,060506,2422.4395,N,08125.6594,W,1,9,1.7,15,M,,M,,*53
06/07/2014	06:04:58.165	$GPGGA,060507,2422.4391,N,08125.6593,W,1,9,1.7,15,M,,M,,*51
06/07/2014	06:04:59.278	$GPGGA,060508,2422.4388,N,08125.6592,W,1,9,1.7,15,M,,M,,*57
06/07/2014	06:05:00.281	$GPGGA,060509,2422.4383,N,08125.6591,W,1,9,1.7,15,M,,M,,*5E
06/07/2014	06:05:01.184	$GPGGA,060510,2422.4379,N,08125.6589,W,1,9,1.7,15,M,,M,,*5A
06/07/2014	06:05:02.277	$GPGGA,060511,2422.4376,N,08125.6588,W,1,9,1.7,15,M,,M,,*55
06/07/2014	06:05:03.199	$GPGGA,060512,2422.4372,N,08125.6587,W,1,9,1.7,15,M,,M,,*5D
06/07/2014	06:05:04.182	$GPGGA,060513,2422.4368,N,08125.6585,W,1,9,1.7,15,M,,M,,*55
06/07/2014	06:05:05.285	$GPGGA,060514,2422.4363,N,08125.6584,W,1,9,1.7,15,M,,M,,*58
06/07/2014	06:05:06.268	$GPGGA,060515,2422.4358,N,08125.6582,W,1,9,1.7,15,M,,M,,*57
06/07/2014	06:05:07.291	$GPGGA,060516,2422.4355,N,08125.6581,W,1,9,1.9,15,M,,M,,*54
06/07/2014	06:05:08.274	$GPGGA,060517,2422.4352,N,08125.6580,W,1,9,1.7,15,M,,M,,*5D
06/07/2014	06:05:09.276	$GPGGA,060518,2422.4350,N,08125.6579,W,1,9,1.7,15,M,,M,,*56
06/07/2014	06:05:10.299	$GPGGA,060519,2422.4347,N,08125.6578,W,1,9,1.7,15,M,,M,,*50
06/07/2014	06:05:11.292	$GPGGA,060520,2422.4343,N,08125.6577,W,1,9,1.7,15,M,,M,,*51
06/07/2014	06:05:12.305	$GPGGA,060521,2422.4339,N,08125.6576,W,1,9,1.7,15,M,,M,,*5C
06/07/2014	06:05:13.278	$GPGGA,060522,2422.4335,N,08125.6574,W,1,9,1.7,15,M,,M,,*51
06/07/2014	06:05:14.299	$GPGGA,060523,2422.4332,N,08125.6573,W,1,9,1.7,15,M,,M,,*50
06/07/2014	06:05:15.302	$GPGGA,060524,2422.4328,N,08125.6572,W,1,9,1.7,15,M,,M,,*5D
06/07/2014	06:05:16.275	$GPGGA,060525,2422.4324,N,08125.6570,W,1,9,1.7,15,M,,M,,*52
06/07/2014	06:05:17.288	$GPGGA,060526,2422.4321,N,08125.6569,W,1,9,1.7,15,M,,M,,*5C
06/07/2014	06:05:19.574	$GPGGA,060527,2422.4316,N,08125.6568,W,1,9,1.7,15,M,,M,,*58
06/07/2014	06:05:19.599	$GPGGA,060528,2422.4312,N,08125.6566,W,1,9,1.7,15,M,,M,,*5D
06/07/2014	06:05:20.306	$GPGGA,060529,2422.4307,N,08125.6565,W,1,9,1.7,15,M,,M,,*5B
06/07/2014	06:05:21.292	$GPGGA,060530,2422.4303,N,08125.6564,W,1,9,1.7,15,M,,M,,*56
06/07/2014	06:05:22.294	$GPGGA,060531,2422.4300,N,08125.6563,W,1,9,1.7,15,M,,M,,*53
06/07/2014	06:05:23.315	$GPGGA,060532,2422.4296,N,08125.6562,W,1,9,1.7,15,M,,M,,*5F
06/07/2014	06:05:24.287	$GPGGA,060533,2422.4292,N,08125.6560,W,1,9,1.7,15,M,,M,,*58
06/07/2014	06:05:25.290	$GPGGA,060534,2422.4286,N,08125.6559,W,1,9,1.7,15,M,,M,,*50
06/07/2014	06:05:26.303	$GPGGA,060535,2422.4281,N,08125.6558,W,1,9,1.7,15,M,,M,,*57
06/07/2014	06:05:27.309	$GPGGA,060536,2422.4277,N,08125.6555,W,1,9,1.7,15,M,,M,,*50
06/07/2014	06:05:28.172	$GPGGA,060537,2422.4274,N,08125.6555,W,1,9,1.7,15,M,,M,,*52
06/07/2014	06:05:29.123	$GPGGA,060538,2422.4269,N,08125.6554,W,1,9,1.7,15,M,,M,,*50
06/07/2014	06:05:30.147	$GPGGA,060539,2422.4264,N,08125.6552,W,1,9,1.7,15,M,,M,,*5A
06/07/2014	06:05:31.165	$GPGGA,060540,2422.4260,N,08125.6551,W,1,9,1.7,15,M,,M,,*53
06/07/2014	06:05:32.162	$GPGGA,060541,2422.4256,N,08125.6550,W,1,9,1.7,15,M,,M,,*56
06/07/2014	06:05:33.133	$GPGGA,060542,2422.4252,N,08125.6549,W,1,9,1.7,15,M,,M,,*59
06/07/2014	06:05:34.237	$GPGGA,060543,2422.4249,N,08125.6548,W,1,9,1.7,15,M,,M,,*53
06/07/2014	06:05:35.149	$GPGGA,060544,2422.4245,N,08125.6546,W,1,9,1.7,15,M,,M,,*56
06/07/2014	06:05:36.243	$GPGGA,060545,2422.4239,N,08125.6545,W,1,9,1.7,15,M,,M,,*5F
06/07/2014	06:05:37.135	$GPGGA,060546,2422.4235,N,08125.6544,W,1,9,1.7,15,M,,M,,*51
06/07/2014	06:05:38.160	$GPGGA,060547,2422.4230,N,08125.6543,W,1,9,1.7,15,M,,M,,*52
06/07/2014	06:05:39.261	$GPGGA,060548,2422.4227,N,08125.6541,W,1,9,1.7,15,M,,M,,*59
06/07/2014	06:05:40.153	$GPGGA,060549,2422.4222,N,08125.6540,W,1,9,1.7,15,M,,M,,*5C
06/07/2014	06:05:41.136	$GPGGA,060550,2422.4218,N,08125.6539,W,1,9,1.7,15,M,,M,,*53
06/07/2014	06:05:42.129	$GPGGA,060551,2422.4214,N,08125.6538,W,1,9,1.7,15,M,,M,,*5F
06/07/2014	06:05:43.272	$GPGGA,060552,2422.4210,N,08125.6537,W,1,9,1.7,15,M,,M,,*57
06/07/2014	06:05:44.244	$GPGGA,060553,2422.4206,N,08125.6536,W,1,9,1.7,15,M,,M,,*50
06/07/2014	06:05:45.127	$GPGGA,060554,2422.4202,N,08125.6534,W,1,9,1.7,15,M,,M,,*51
06/07/2014	06:05:46.230	$GPGGA,060555,2422.4198,N,08125.6533,W,1,9,1.7,15,M,,M,,*57
06/07/2014	06:05:47.173	$GPGGA,060556,2422.4193,N,08125.6532,W,1,9,1.7,15,M,,M,,*5E
06/07/2014	06:05:48.277	$GPGGA,060557,2422.4189,N,08125.6530,W,1,9,1.7,15,M,,M,,*56
06/07/2014	06:05:49.147	$GPGGA,060558,2422.4185,N,08125.6529,W,1,9,1.7,15,M,,M,,*5D
06/07/2014	06:05:50.270	$GPGGA,060559,2422.4181,N,08125.6528,W,1,9,1.7,15,M,,M,,*59
06/07/2014	06:05:51.273	$GPGGA,060600,2422.4177,N,08125.6527,W,1,9,1.7,15,M,,M,,*50
06/07/2014	06:05:52.256	$GPGGA,060601,2422.4173,N,08125.6525,W,1,9,1.7,15,M,,M,,*57
06/07/2014	06:05:53.239	$GPGGA,060602,2422.4169,N,08125.6524,W,1,9,1.7,15,M,,M,,*5E
06/07/2014	06:05:54.241	$GPGGA,060603,2422.4164,N,08125.6523,W,1,9,1.7,15,M,,M,,*55
06/07/2014	06:05:55.254	$GPGGA,060604,2422.4160,N,08125.6522,W,1,9,1.7,15,M,,M,,*57
06/07/2014	06:05:56.257	$GPGGA,060605,2422.4156,N,08125.6520,W,1,9,1.7,15,M,,M,,*51
06/07/2014	06:05:57.250	$GPGGA,060606,2422.4152,N,08125.6519,W,1,9,1.7,15,M,,M,,*5C
06/07/2014	06:05:58.243	$GPGGA,060607,2422.4147,N,08125.6518,W,1,9,1.7,15,M,,M,,*58
06/07/2014	06:05:59.265	$GPGGA,060608,2422.4144,N,08125.6516,W,1,9,1.7,15,M,,M,,*5A
06/07/2014	06:06:00.258	$GPGGA,060609,2422.4140,N,08125.6514,W,1,9,1.7,15,M,,M,,*5D
06/07/2014	06:06:01.251	$GPGGA,060610,2422.4135,N,08125.6514,W,1,9,1.7,15,M,,M,,*57
06/07/2014	06:06:02.244	$GPGGA,060611,2422.4131,N,08125.6512,W,1,9,1.7,15,M,,M,,*54
06/07/2014	06:06:03.257	$GPGGA,060612,2422.4127,N,08125.6511,W,1,9,1.7,15,M,,M,,*53
06/07/2014	06:06:04.269	$GPGGA,060613,2422.4123,N,08125.6510,W,1,9,1.7,15,M,,M,,*57
06/07/2014	06:06:05.242	$GPGGA,060614,2422.4119,N,08125.6508,W,1,9,1.7,15,M,,M,,*50
06/07/2014	06:06:06.260	$GPGGA,060615,2422.4115,N,08125.6507,W,1,9,1.7,15,M,,M,,*52
06/07/2014	06:06:07.267	$GPGGA,060616,2422.4111,N,08125.6506,W,1,9,1.7,15,M,,M,,*54
06/07/2014	06:06:08.290	$GPGGA,060617,2422.4108,N,08125.6504,W,1,9,1.7,15,M,,M,,*5F
06/07/2014	06:06:09.262	$GPGGA,060618,2422.4102,N,08125.6502,W,1,9,1.7,15,M,,M,,*5C
06/07/2014	06:06:10.275	$GPGGA,060619,2422.4098,N,08125.6501,W,1,9,1.7,15,M,,M,,*5C
06/07/2014	06:06:11.270	$GPGGA,060620,2422.4094,N,08125.6500,W,1,9,1.7,14,M,,M,,*5A
06/07/2014	06:06:12.291	$GPGGA,060621,2422.4090,N,08125.6499,W,1,9,1.7,14,M,,M,,*5E
06/07/2014	06:06:13.274	$GPGGA,060622,2422.4086,N,08125.6497,W,1,9,1.7,14,M,,M,,*54
06/07/2014	06:06:14.268	$GPGGA,060623,2422.4081,N,08125.6496,W,1,9,1.7,14,M,,M,,*53
06/07/2014	06:06:15.279	$GPGGA,060624,2422.4077,N,08125.6495,W,1,9,1.7,14,M,,M,,*5E
06/07/2014	06:06:16.292	$GPGGA,060625,2422.4073,N,08125.6493,W,1,9,1.7,14,M,,M,,*5D
06/07/2014	06:06:17.255	$GPGGA,060626,2422.4069,N,08125.6491,W,1,9,1.7,14,M,,M,,*57
06/07/2014	06:06:18.267	$GPGGA,060627,2422.4065,N,08125.6490,W,1,9,1.7,14,M,,M,,*5B
06/07/2014	06:06:19.270	$GPGGA,060628,2422.4061,N,08125.6489,W,1,9,1.7,14,M,,M,,*58
06/07/2014	06:06:20.273	$GPGGA,060629,2422.4057,N,08125.6487,W,1,9,1.7,14,M,,M,,*52
06/07/2014	06:06:21.257	$GPGGA,060630,2422.4053,N,08125.6486,W,1,9,1.7,14,M,,M,,*5F
06/07/2014	06:06:22.280	$GPGGA,060631,2422.4050,N,08125.6485,W,1,9,1.7,14,M,,M,,*5E
06/07/2014	06:06:23.272	$GPGGA,060632,2422.4045,N,08125.6483,W,1,9,1.7,14,M,,M,,*5F
06/07/2014	06:06:24.253	$GPGGA,060633,2422.4041,N,08125.6482,W,1,9,1.7,14,M,,M,,*5B
06/07/2014	06:06:25.266	$GPGGA,060634,2422.4037,N,08125.6481,W,1,9,1.7,14,M,,M,,*5E
06/07/2014	06:06:26.359	$GPGGA,060635,2422.4032,N,08125.6480,W,1,9,1.7,14,M,,M,,*5B
06/07/2014	06:06:27.392	$GPGGA,060636,2422.4028,N,08125.6478,W,1,9,1.7,14,M,,M,,*54
06/07/2014	06:06:28.274	$GPGGA,060637,2422.4025,N,08125.6477,W,1,9,1.7,14,M,,M,,*57
06/07/2014	06:06:29.192	$GPGGA,060638,2422.4021,N,08125.6476,W,1,9,1.7,14,M,,M,,*5D
06/07/2014	06:06:30.195	$GPGGA,060639,2422.4016,N,08125.6474,W,1,9,1.7,14,M,,M,,*5A
06/07/2014	06:06:31.118	$GPGGA,060640,2422.4012,N,08125.6473,W,1,9,1.7,14,M,,M,,*57
06/07/2014	06:06:32.121	$GPGGA,060641,2422.4010,N,08125.6472,W,1,9,1.7,14,M,,M,,*55
06/07/2014	06:06:33.113	$GPGGA,060642,2422.4005,N,08125.6470,W,1,9,1.7,14,M,,M,,*50
06/07/2014	06:06:34.206	$GPGGA,060643,2422.4000,N,08125.6469,W,1,9,1.7,14,M,,M,,*5C
06/07/2014	06:06:35.129	$GPGGA,060644,2422.3996,N,08125.6468,W,1,9,1.7,14,M,,M,,*5B
06/07/2014	06:06:36.202	$GPGGA,060645,2422.3992,N,08125.6466,W,1,9,1.7,14,M,,M,,*50
06/07/2014	06:06:37.215	$GPGGA,060646,2422.3988,N,08125.6465,W,1,9,1.7,14,M,,M,,*5B
06/07/2014	06:06:38.208	$GPGGA,060647,2422.3985,N,08125.6463,W,1,9,1.7,14,M,,M,,*51
06/07/2014	06:06:39.120	$GPGGA,060648,2422.3980,N,08125.6462,W,1,9,1.7,14,M,,M,,*5A
06/07/2014	06:06:40.213	$GPGGA,060649,2422.3976,N,08125.6460,W,1,9,1.7,14,M,,M,,*50
06/07/2014	06:06:41.116	$GPGGA,060650,2422.3972,N,08125.6459,W,1,9,1.7,14,M,,M,,*56
06/07/2014	06:06:42.268	$GPGGA,060651,2422.3968,N,08125.6458,W,1,9,1.7,14,M,,M,,*5D
06/07/2014	06:06:43.231	$GPGGA,060652,2422.3964,N,08125.6457,W,1,9,1.7,14,M,,M,,*5D
06/07/2014	06:06:44.223	$GPGGA,060653,2422.3960,N,08125.6455,W,1,9,1.7,14,M,,M,,*5A
06/07/2014	06:06:45.216	$GPGGA,060654,2422.3956,N,08125.6454,W,1,9,1.7,14,M,,M,,*59
06/07/2014	06:06:46.229	$GPGGA,060655,2422.3951,N,08125.6453,W,1,9,1.7,14,M,,M,,*58
06/07/2014	06:06:47.232	$GPGGA,060656,2422.3947,N,08125.6451,W,1,9,1.7,14,M,,M,,*5E
06/07/2014	06:06:48.235	$GPGGA,060657,2422.3942,N,08125.6449,W,1,9,1.7,14,M,,M,,*53
06/07/2014	06:06:49.224	$GPGGA,060658,2422.3938,N,08125.6448,W,1,9,1.7,14,M,,M,,*50
06/07/2014	06:06:50.240	$GPGGA,060659,2422.3934,N,08125.6447,W,1,9,1.7,14,M,,M,,*52
06/07/2014	06:06:51.253	$GPGGA,060700,2422.3931,N,08125.6445,W,1,9,1.7,14,M,,M,,*58
06/07/2014	06:06:52.236	$GPGGA,060701,2422.3927,N,08125.6443,W,1,9,1.7,14,M,,M,,*58
06/07/2014	06:06:53.222	$GPGGA,060702,2422.3922,N,08125.6442,W,1,9,1.7,14,M,,M,,*5F
06/07/2014	06:06:54.241	$GPGGA,060703,2422.3917,N,08125.6440,W,1,9,1.7,14,M,,M,,*5A
06/07/2014	06:06:55.224	$GPGGA,060704,2422.3913,N,08125.6439,W,1,9,1.7,14,M,,M,,*57
06/07/2014	06:06:56.253	$GPGGA,060705,2422.3909,N,08125.6437,W,1,9,1.7,14,M,,M,,*53
06/07/2014	06:06:57.231	$GPGGA,060706,2422.3905,N,08125.6436,W,1,9,1.7,14,M,,M,,*5D
06/07/2014	06:06:58.253	$GPGGA,060707,2422.3902,N,08125.6435,W,1,9,1.7,14,M,,M,,*58
06/07/2014	06:06:59.238	$GPGGA,060708,2422.3896,N,08125.6434,W,1,9,1.7,14,M,,M,,*5A
06/07/2014	06:07:00.217	$GPGGA,060709,2422.3892,N,08125.6432,W,1,9,1.7,14,M,,M,,*59
06/07/2014	06:07:01.245	$GPGGA,060710,2422.3888,N,08125.6431,W,1,9,1.7,14,M,,M,,*59
06/07/2014	06:07:02.245	$GPGGA,060711,2422.3884,N,08125.6429,W,1,9,1.7,14,M,,M,,*5D
06/07/2014	06:07:03.247	$GPGGA,060712,2422.3880,N,08125.6428,W,1,9,1.7,14,M,,M,,*5B
06/07/2014	06:07:04.258	$GPGGA,060713,2422.3876,N,08125.6426,W,1,9,1.7,14,M,,M,,*5D
06/07/2014	06:07:05.221	$GPGGA,060714,2422.3873,N,08125.6425,W,1,9,1.7,14,M,,M,,*5C
06/07/2014	06:07:06.224	$GPGGA,060715,2422.3868,N,08125.6424,W,1,9,1.7,14,M,,M,,*56
06/07/2014	06:07:07.237	$GPGGA,060716,2422.3864,N,08125.6423,W,1,9,1.7,14,M,,M,,*5E
06/07/2014	06:07:08.240	$GPGGA,060717,2422.3859,N,08125.6420,W,1,9,1.7,14,M,,M,,*52
06/07/2014	06:07:09.232	$GPGGA,060718,2422.3855,N,08125.6419,W,1,9,1.7,14,M,,M,,*5B
06/07/2014	06:07:10.246	$GPGGA,060719,2422.3852,N,08125.6420,W,1,9,1.7,14,M,,M,,*57
06/07/2014	06:07:11.248	$GPGGA,060720,2422.3848,N,08125.6417,W,1,9,1.7,14,M,,M,,*52
06/07/2014	06:07:12.241	$GPGGA,060721,2422.3842,N,08125.6414,W,1,9,1.7,14,M,,M,,*5A
06/07/2014	06:07:13.345	$GPGGA,060722,2422.3838,N,08125.6413,W,1,9,1.7,14,M,,M,,*53
06/07/2014	06:07:14.337	$GPGGA,060723,2422.3835,N,08125.6413,W,1,9,1.7,14,M,,M,,*5F
06/07/2014	06:07:15.359	$GPGGA,060724,2422.3830,N,08125.6410,W,1,9,1.7,14,M,,M,,*5E
06/07/2014	06:07:16.232	$GPGGA,060725,2422.3826,N,08125.6408,W,1,9,1.7,14,M,,M,,*51
06/07/2014	06:07:17.244	$GPGGA,060726,2422.3822,N,08125.6409,W,1,9,1.7,14,M,,M,,*57
06/07/2014	06:07:18.367	$GPGGA,060727,2422.3819,N,08125.6406,W,1,9,1.7,14,M,,M,,*51
06/07/2014	06:07:19.383	$GPGGA,060728,2422.3815,N,08125.6405,W,1,9,1.6,14,M,,M,,*50
06/07/2014	06:07:20.242	$GPGGA,060729,2422.3811,N,08125.6404,W,1,9,1.6,14,M,,M,,*54
06/07/2014	06:07:21.335	$GPGGA,060730,2422.3808,N,08125.6403,W,1,9,1.6,14,M,,M,,*53
06/07/2014	06:07:22.338	$GPGGA,060731,2422.3804,N,08125.6402,W,1,9,1.6,14,M,,M,,*5F
06/07/2014	06:07:23.351	$GPGGA,060732,2422.3801,N,08125.6401,W,1,9,1.6,14,M,,M,,*5A
06/07/2014	06:07:24.253	$GPGGA,060733,2422.3797,N,08125.6400,W,1,9,1.6,14,M,,M,,*5A
06/07/2014	06:07:25.356	$GPGGA,060734,2422.3792,N,08125.6399,W,1,9,1.6,14,M,,M,,*5F
06/07/2014	06:07:26.249	$GPGGA,060735,2422.3790,N,08125.6398,W,1,9,1.6,14,M,,M,,*5D
06/07/2014	06:07:27.352	$GPGGA,060736,2422.3786,N,08125.6396,W,1,9,1.6,14,M,,M,,*57
06/07/2014	06:07:28.208	$GPGGA,060737,2422.3780,N,08125.6394,W,1,9,1.6,14,M,,M,,*52
06/07/2014	06:07:29.180	$GPGGA,060738,2422.3776,N,08125.6393,W,1,9,1.6,14,M,,M,,*53
06/07/2014	06:07:30.193	$GPGGA,060739,2422.3773,N,08125.6391,W,1,9,1.6,14,M,,M,,*55
06/07/2014	06:07:31.196	$GPGGA,060740,2422.3769,N,08125.6390,W,1,9,1.6,15,M,,M,,*50
06/07/2014	06:07:32.199	$GPGGA,060741,2422.3764,N,08125.6388,W,1,9,1.6,15,M,,M,,*55
06/07/2014	06:07:33.192	$GPGGA,060742,2422.3761,N,08125.6387,W,1,9,1.6,15,M,,M,,*5C
06/07/2014	06:07:34.203	$GPGGA,060743,2422.3756,N,08125.6386,W,1,9,1.6,15,M,,M,,*58
06/07/2014	06:07:35.196	$GPGGA,060744,2422.3752,N,08125.6384,W,1,9,1.6,15,M,,M,,*59
06/07/2014	06:07:36.199	$GPGGA,060745,2422.3748,N,08125.6382,W,1,9,1.6,15,M,,M,,*55
06/07/2014	06:07:37.192	$GPGGA,060746,2422.3743,N,08125.6381,W,1,9,1.6,15,M,,M,,*5E
06/07/2014	06:07:38.215	$GPGGA,060747,2422.3743,N,08125.6380,W,1,9,1.6,15,M,,M,,*5E
06/07/2014	06:07:39.197	$GPGGA,060748,2422.3737,N,08125.6378,W,1,9,1.6,15,M,,M,,*55
06/07/2014	06:07:40.210	$GPGGA,060749,2422.3732,N,08125.6377,W,1,9,1.6,15,M,,M,,*5E
06/07/2014	06:07:41.196	$GPGGA,060750,2422.3728,N,08125.6376,W,1,9,1.6,15,M,,M,,*5C
06/07/2014	06:07:42.206	$GPGGA,060751,2422.3725,N,08125.6374,W,1,9,1.6,15,M,,M,,*52
06/07/2014	06:07:43.209	$GPGGA,060752,2422.3721,N,08125.6373,W,1,9,1.6,15,M,,M,,*52
06/07/2014	06:07:44.193	$GPGGA,060753,2422.3716,N,08125.6372,W,1,9,1.6,15,M,,M,,*56
06/07/2014	06:07:45.195	$GPGGA,060754,2422.3712,N,08125.6371,W,1,9,1.6,15,M,,M,,*56
06/07/2014	06:07:46.208	$GPGGA,060755,2422.3709,N,08125.6369,W,1,10,1.6,15,M,,M,,*6C
06/07/2014	06:07:47.210	$GPGGA,060756,2422.3705,N,08125.6368,W,1,10,1.6,15,M,,M,,*62
06/07/2014	06:07:48.223	$GPGGA,060757,2422.3703,N,08125.6367,W,1,9,1.6,15,M,,M,,*52
06/07/2014	06:07:49.196	$GPGGA,060758,2422.3697,N,08125.6365,W,1,9,1.6,15,M,,M,,*53
06/07/2014	06:07:50.212	$GPGGA,060759,2422.3693,N,08125.6364,W,1,9,1.6,15,M,,M,,*57
06/07/2014	06:07:51.221	$GPGGA,060800,2422.3689,N,08125.6363,W,1,9,1.6,15,M,,M,,*58
06/07/2014	06:07:52.243	$GPGGA,060801,2422.3685,N,08125.6362,W,1,10,1.6,15,M,,M,,*6C
06/07/2014	06:07:53.207	$GPGGA,060802,2422.3680,N,08125.6360,W,1,10,1.6,15,M,,M,,*68
06/07/2014	06:07:54.198	$GPGGA,060803,2422.3678,N,08125.6360,W,1,9,1.6,15,M,,M,,*56
06/07/2014	06:07:55.212	$GPGGA,060804,2422.3674,N,08125.6358,W,1,9,1.6,15,M,,M,,*56
06/07/2014	06:07:56.194	$GPGGA,060805,2422.3667,N,08125.6355,W,1,10,1.6,15,M,,M,,*60
06/07/2014	06:07:57.206	$GPGGA,060806,2422.3663,N,08125.6354,W,1,10,1.7,15,M,,M,,*67
06/07/2014	06:07:58.199	$GPGGA,060807,2422.3660,N,08125.6353,W,1,9,1.7,15,M,,M,,*5A
06/07/2014	06:07:59.224	$GPGGA,060808,2422.3656,N,08125.6350,W,1,9,1.6,15,M,,M,,*52
06/07/2014	06:08:00.214	$GPGGA,060809,2422.3651,N,08125.6348,W,1,10,1.6,15,M,,M,,*65
06/07/2014	06:08:01.317	$GPGGA,060810,2422.3649,N,08125.6347,W,1,10,1.6,15,M,,M,,*6B
06/07/2014	06:08:02.300	$GPGGA,060811,2422.3644,N,08125.6346,W,1,10,1.6,15,M,,M,,*66
06/07/2014	06:08:03.223	$GPGGA,060812,2422.3640,N,08125.6343,W,1,10,1.6,15,M,,M,,*64
06/07/2014	06:08:04.195	$GPGGA,060813,2422.3638,N,08125.6344,W,1,10,1.6,15,M,,M,,*6D
06/07/2014	06:08:05.328	$GPGGA,060814,2422.3632,N,08125.6342,W,1,10,1.6,15,M,,M,,*66
06/07/2014	06:08:06.200	$GPGGA,060815,2422.3629,N,08125.6340,W,1,10,1.6,15,M,,M,,*6F
06/07/2014	06:08:07.333	$GPGGA,060816,2422.3624,N,08125.6339,W,1,10,1.6,15,M,,M,,*6F
06/07/2014	06:08:08.237	$GPGGA,060817,2422.3621,N,08125.6338,W,1,10,1.6,15,M,,M,,*6A
06/07/2014	06:08:09.228	$GPGGA,060818,2422.3617,N,08125.6336,W,1,10,1.6,15,M,,M,,*6E
06/07/2014	06:08:10.309	$GPGGA,060819,2422.3613,N,08125.6335,W,1,10,1.6,15,M,,M,,*68
06/07/2014	06:08:11.270	$GPGGA,060820,2422.3609,N,08125.6333,W,1,10,1.6,15,M,,M,,*6F
06/07/2014	06:08:12.305	$GPGGA,060821,2422.3606,N,08125.6333,W,1,10,1.6,15,M,,M,,*61
06/07/2014	06:08:13.307	$GPGGA,060822,2422.3602,N,08125.6331,W,1,10,1.6,15,M,,M,,*64
06/07/2014	06:08:14.340	$GPGGA,060823,2422.3597,N,08125.6329,W,1,10,1.6,15,M,,M,,*63
06/07/2014	06:08:15.322	$GPGGA,060824,2422.3593,N,08125.6328,W,1,10,1.6,15,M,,M,,*61
06/07/2014	06:08:16.315	$GPGGA,060825,2422.3589,N,08125.6326,W,1,10,1.6,15,M,,M,,*65
06/07/2014	06:08:17.308	$GPGGA,060826,2422.3585,N,08125.6324,W,1,10,1.6,15,M,,M,,*68
06/07/2014	06:08:18.310	$GPGGA,060827,2422.3581,N,08125.6323,W,1,10,1.6,15,M,,M,,*6A
06/07/2014	06:08:19.333	$GPGGA,060828,2422.3577,N,08125.6321,W,1,10,1.6,15,M,,M,,*6E
06/07/2014	06:08:20.335	$GPGGA,060829,2422.3573,N,08125.6320,W,1,10,1.6,15,M,,M,,*6A
06/07/2014	06:08:21.318	$GPGGA,060830,2422.3567,N,08125.6318,W,1,10,1.6,15,M,,M,,*6C
06/07/2014	06:08:22.311	$GPGGA,060831,2422.3567,N,08125.6318,W,1,10,1.6,15,M,,M,,*6D
06/07/2014	06:08:23.333	$GPGGA,060832,2422.3559,N,08125.6316,W,1,10,1.6,15,M,,M,,*6D
06/07/2014	06:08:24.336	$GPGGA,060833,2422.3555,N,08125.6313,W,1,10,1.6,15,M,,M,,*65
06/07/2014	06:08:25.305	$GPGGA,060834,2422.3551,N,08125.6312,W,1,10,1.7,15,M,,M,,*66
06/07/2014	06:08:26.331	$GPGGA,060835,2422.3548,N,08125.6311,W,1,10,1.6,15,M,,M,,*6D
06/07/2014	06:08:27.323	$GPGGA,060836,2422.3544,N,08125.6310,W,1,10,1.6,15,M,,M,,*63
06/07/2014	06:08:28.170	$GPGGA,060837,2422.3539,N,08125.6308,W,1,10,1.6,15,M,,M,,*61
06/07/2014	06:08:29.158	$GPGGA,060838,2422.3537,N,08125.6307,W,1,10,1.6,15,M,,M,,*6F
06/07/2014	06:08:30.191	$GPGGA,060839,2422.3533,N,08125.6306,W,1,10,1.6,15,M,,M,,*6B
06/07/2014	06:08:31.173	$GPGGA,060840,2422.3528,N,08125.6305,W,1,10,1.6,15,M,,M,,*6C
06/07/2014	06:08:32.186	$GPGGA,060841,2422.3524,N,08125.6302,W,1,10,1.6,15,M,,M,,*66
06/07/2014	06:08:33.152	$GPGGA,060842,2422.3520,N,08125.6302,W,1,10,1.7,15,M,,M,,*60
06/07/2014	06:08:34.181	$GPGGA,060843,2422.3517,N,08125.6301,W,1,10,1.6,15,M,,M,,*67
06/07/2014	06:08:35.164	$GPGGA,060844,2422.3513,N,08125.6299,W,1,10,1.6,15,M,,M,,*64
06/07/2014	06:08:36.186	$GPGGA,060845,2422.3508,N,08125.6297,W,1,10,1.6,15,M,,M,,*61
06/07/2014	06:08:37.160	$GPGGA,060846,2422.3503,N,08125.6296,W,1,10,1.7,15,M,,M,,*69
06/07/2014	06:08:38.192	$GPGGA,060847,2422.3498,N,08125.6293,W,1,9,1.7,15,M,,M,,*56
06/07/2014	06:08:39.184	$GPGGA,060848,2422.3493,N,08125.6291,W,1,9,1.7,15,M,,M,,*50
06/07/2014	06:08:40.197	$GPGGA,060849,2422.3490,N,08125.6290,W,1,9,1.7,15,M,,M,,*53
06/07/2014	06:08:41.160	$GPGGA,060850,2422.3484,N,08125.6288,W,1,9,1.7,15,M,,M,,*57
06/07/2014	06:08:42.166	$GPGGA,060851,2422.3481,N,08125.6287,W,1,9,1.7,15,M,,M,,*5C
06/07/2014	06:08:43.176	$GPGGA,060852,2422.3476,N,08125.6285,W,1,9,1.5,15,M,,M,,*57
06/07/2014	06:08:44.157	$GPGGA,060853,2422.3475,N,08125.6284,W,1,9,1.6,15,M,,M,,*57
06/07/2014	06:08:45.159	$GPGGA,060854,2422.3472,N,08125.6283,W,1,9,1.6,15,M,,M,,*50
06/07/2014	06:08:46.181	$GPGGA,060855,2422.3468,N,08125.6282,W,1,10,1.6,15,M,,M,,*63
06/07/2014	06:08:47.186	$GPGGA,060856,2422.3463,N,08125.6280,W,1,10,1.6,15,M,,M,,*69
06/07/2014	06:08:48.176	$GPGGA,060857,2422.3459,N,08125.6279,W,1,9,1.6,15,M,,M,,*5F
06/07/2014	06:08:49.179	$GPGGA,060858,2422.3456,N,08125.6279,W,1,9,1.6,15,M,,M,,*5F
06/07/2014	06:08:50.173	$GPGGA,060859,2422.3454,N,08125.6278,W,1,10,1.5,15,M,,M,,*66
06/07/2014	06:08:51.184	$GPGGA,060900,2422.3448,N,08125.6276,W,1,10,1.5,15,M,,M,,*68
06/07/2014	06:08:52.197	$GPGGA,060901,2422.3445,N,08125.6274,W,1,9,1.6,15,M,,M,,*5D
06/07/2014	06:08:53.169	$GPGGA,060902,2422.3440,N,08125.6275,W,1,9,1.7,15,M,,M,,*5B
06/07/2014	06:08:54.172	$GPGGA,060903,2422.3436,N,08125.6273,W,1,9,1.6,15,M,,M,,*5C
06/07/2014	06:08:55.185	$GPGGA,060904,2422.3432,N,08125.6271,W,1,9,1.6,15,M,,M,,*5D
06/07/2014	06:08:56.277	$GPGGA,060905,2422.3429,N,08125.6272,W,1,9,1.6,15,M,,M,,*55
06/07/2014	06:08:57.260	$GPGGA,060906,2422.3425,N,08125.6269,W,1,9,1.6,15,M,,M,,*50
06/07/2014	06:08:58.192	$GPGGA,060907,2422.3420,N,08125.6268,W,1,9,1.7,15,M,,M,,*54
06/07/2014	06:08:59.275	$GPGGA,060908,2422.3416,N,08125.6267,W,1,9,1.5,15,M,,M,,*53
06/07/2014	06:09:00.268	$GPGGA,060909,2422.3414,N,08125.6265,W,1,10,1.5,15,M,,M,,*6A
06/07/2014	06:09:01.270	$GPGGA,060910,2422.3408,N,08125.6263,W,1,10,1.5,15,M,,M,,*69
06/07/2014	06:09:02.182	$GPGGA,060911,2422.3404,N,08125.6262,W,1,10,1.5,15,M,,M,,*65
06/07/2014	06:09:03.285	$GPGGA,060912,2422.3400,N,08125.6260,W,1,10,1.5,15,M,,M,,*60
06/07/2014	06:09:04.297	$GPGGA,060913,2422.3393,N,08125.6258,W,1,9,1.6,15,M,,M,,*5C
06/07/2014	06:09:05.270	$GPGGA,060914,2422.3389,N,08125.6256,W,1,9,1.6,15,M,,M,,*5E
06/07/2014	06:09:06.273	$GPGGA,060915,2422.3385,N,08125.6257,W,1,9,1.6,15,M,,M,,*52
06/07/2014	06:09:07.275	$GPGGA,060916,2422.3379,N,08125.6254,W,1,9,1.6,15,M,,M,,*51
06/07/2014	06:09:08.278	$GPGGA,060917,2422.3374,N,08125.6252,W,1,9,1.6,15,M,,M,,*5B
06/07/2014	06:09:09.280	$GPGGA,060918,2422.3371,N,08125.6251,W,1,9,1.5,15,M,,M,,*51
06/07/2014	06:09:10.283	$GPGGA,060919,2422.3367,N,08125.6250,W,1,10,1.5,15,M,,M,,*6E
06/07/2014	06:09:11.285	$GPGGA,060920,2422.3362,N,08125.6248,W,1,10,1.5,15,M,,M,,*68
06/07/2014	06:09:12.308	$GPGGA,060921,2422.3358,N,08125.6247,W,1,10,1.5,15,M,,M,,*6F
06/07/2014	06:09:13.271	$GPGGA,060922,2422.3354,N,08125.6246,W,1,10,1.5,15,M,,M,,*61
06/07/2014	06:09:14.273	$GPGGA,060923,2422.3350,N,08125.6244,W,1,10,1.5,15,M,,M,,*66
06/07/2014	06:09:15.296	$GPGGA,060924,2422.3346,N,08125.6243,W,1,10,1.5,15,M,,M,,*61
06/07/2014	06:09:16.278	$GPGGA,060925,2422.3342,N,08125.6242,W,1,10,1.5,15,M,,M,,*65
06/07/2014	06:09:17.291	$GPGGA,060926,2422.3338,N,08125.6241,W,1,10,1.5,15,M,,M,,*68
06/07/2014	06:09:18.304	$GPGGA,060927,2422.3335,N,08125.6240,W,1,9,1.6,15,M,,M,,*5E
06/07/2014	06:09:19.287	$GPGGA,060928,2422.3329,N,08125.6238,W,1,9,1.6,15,M,,M,,*53
06/07/2014	06:09:20.288	$GPGGA,060929,2422.3324,N,08125.6237,W,1,10,1.5,15,M,,M,,*6B
06/07/2014	06:09:21.280	$GPGGA,060930,2422.3320,N,08125.6236,W,1,10,1.5,15,M,,M,,*66
06/07/2014	06:09:22.274	$GPGGA,060931,2422.3315,N,08125.6234,W,1,9,1.6,15,M,,M,,*58
06/07/2014	06:09:23.296	$GPGGA,060932,2422.3311,N,08125.6233,W,1,9,1.6,15,M,,M,,*58
06/07/2014	06:09:24.308	$GPGGA,060933,2422.3307,N,08125.6233,W,1,10,1.5,15,M,,M,,*65
06/07/2014	06:09:25.292	$GPGGA,060934,2422.3304,N,08125.6231,W,1,10,1.6,15,M,,M,,*60
06/07/2014	06:09:26.283	$GPGGA,060935,2422.3300,N,08125.6230,W,1,10,1.5,15,M,,M,,*67
06/07/2014	06:09:27.298	$GPGGA,060936,2422.3296,N,08125.6230,W,1,10,1.5,14,M,,M,,*6B
06/07/2014	06:09:28.169	$GPGGA,060937,2422.3292,N,08125.6228,W,1,9,1.6,14,M,,M,,*5C
06/07/2014	06:09:29.127	$GPGGA,060938,2422.3288,N,08125.6227,W,1,9,1.5,14,M,,M,,*54
06/07/2014	06:09:30.130	$GPGGA,060939,2422.3284,N,08125.6228,W,1,10,1.5,14,M,,M,,*6E
06/07/2014	06:09:31.158	$GPGGA,060940,2422.3280,N,08125.6226,W,1,10,1.5,14,M,,M,,*6A
06/07/2014	06:09:32.148	$GPGGA,060941,2422.3277,N,08125.6224,W,1,10,1.5,14,M,,M,,*61
06/07/2014	06:09:33.151	$GPGGA,060942,2422.3273,N,08125.6225,W,1,10,1.5,14,M,,M,,*67
06/07/2014	06:09:34.130	$GPGGA,060943,2422.3268,N,08125.6223,W,1,10,1.5,14,M,,M,,*6A
06/07/2014	06:09:35.156	$GPGGA,060944,2422.3263,N,08125.6221,W,1,10,1.5,14,M,,M,,*64
06/07/2014	06:09:36.163	$GPGGA,060945,2422.3259,N,08125.6220,W,1,10,1.5,14,M,,M,,*6D
06/07/2014	06:09:37.127	$GPGGA,060946,2422.3256,N,08125.6219,W,1,10,1.5,14,M,,M,,*6B
06/07/2014	06:09:38.166	$GPGGA,060947,2422.3252,N,08125.6218,W,1,10,1.5,14,M,,M,,*6F
06/07/2014	06:09:39.142	$GPGGA,060948,2422.3248,N,08125.6216,W,1,10,1.5,14,M,,M,,*65
06/07/2014	06:09:40.155	$GPGGA,060949,2422.3243,N,08125.6217,W,1,10,1.5,14,M,,M,,*6E
06/07/2014	06:09:41.137	$GPGGA,060950,2422.3241,N,08125.6215,W,1,10,1.5,14,M,,M,,*66
06/07/2014	06:09:42.150	$GPGGA,060951,2422.3237,N,08125.6214,W,1,10,1.5,14,M,,M,,*67
06/07/2014	06:09:43.273	$GPGGA,060952,2422.3232,N,08125.6213,W,1,10,1.5,14,M,,M,,*66
06/07/2014	06:09:44.255	$GPGGA,060953,2422.3228,N,08125.6211,W,1,10,1.5,14,M,,M,,*6E
06/07/2014	06:09:45.138	$GPGGA,060954,2422.3224,N,08125.6210,W,1,10,1.5,14,M,,M,,*64
06/07/2014	06:09:46.140	$GPGGA,060955,2422.3220,N,08125.6210,W,1,10,1.5,14,M,,M,,*61
06/07/2014	06:09:47.173	$GPGGA,060956,2422.3216,N,08125.6208,W,1,10,1.6,14,M,,M,,*6D
06/07/2014	06:09:48.236	$GPGGA,060957,2422.3212,N,08125.6206,W,1,10,1.5,14,M,,M,,*65
06/07/2014	06:09:49.138	$GPGGA,060958,2422.3208,N,08125.6207,W,1,10,1.5,14,M,,M,,*60
06/07/2014	06:09:50.261	$GPGGA,060959,2422.3203,N,08125.6205,W,1,9,1.6,14,M,,M,,*53
06/07/2014	06:09:51.263	$GPGGA,061000,2422.3201,N,08125.6203,W,1,9,1.6,14,M,,M,,*53
06/07/2014	06:09:52.276	$GPGGA,061001,2422.3197,N,08125.6202,W,1,10,1.5,14,M,,M,,*64
06/07/2014	06:09:53.239	$GPGGA,061002,2422.3194,N,08125.6201,W,1,10,1.5,14,M,,M,,*67
06/07/2014	06:09:54.270	$GPGGA,061003,2422.3191,N,08125.6200,W,1,10,1.5,14,M,,M,,*62
06/07/2014	06:09:55.264	$GPGGA,061004,2422.3187,N,08125.6198,W,1,10,1.5,14,M,,M,,*60
06/07/2014	06:09:56.255	$GPGGA,061005,2422.3183,N,08125.6197,W,1,10,1.5,14,M,,M,,*6A
06/07/2014	06:09:57.248	$GPGGA,061006,2422.3179,N,08125.6196,W,1,10,1.5,14,M,,M,,*6D
06/07/2014	06:09:58.251	$GPGGA,061007,2422.3176,N,08125.6195,W,1,10,1.5,14,M,,M,,*60
06/07/2014	06:09:59.263	$GPGGA,061008,2422.3172,N,08125.6193,W,1,10,1.5,14,M,,M,,*6D
06/07/2014	06:10:00.266	$GPGGA,061009,2422.3168,N,08125.6192,W,1,10,1.5,14,M,,M,,*66
06/07/2014	06:10:01.243	$GPGGA,061010,2422.3163,N,08125.6191,W,1,10,1.5,14,M,,M,,*66
06/07/2014	06:10:03.534	$GPGGA,061012,2422.3155,N,08125.6188,W,1,10,1.5,14,M,,M,,*69
06/07/2014	06:10:04.266	$GPGGA,061013,2422.3151,N,08125.6187,W,1,10,1.5,15,M,,M,,*62
06/07/2014	06:10:05.259	$GPGGA,061014,2422.3147,N,08125.6186,W,1,10,1.5,15,M,,M,,*63
06/07/2014	06:10:06.241	$GPGGA,061015,2422.3143,N,08125.6185,W,1,10,1.5,15,M,,M,,*65
06/07/2014	06:10:07.267	$GPGGA,061016,2422.3139,N,08125.6184,W,1,10,1.5,15,M,,M,,*6A
06/07/2014	06:10:08.277	$GPGGA,061017,2422.3136,N,08125.6183,W,1,10,1.5,15,M,,M,,*63
06/07/2014	06:10:09.259	$GPGGA,061018,2422.3131,N,08125.6181,W,1,10,1.5,15,M,,M,,*69
06/07/2014	06:10:10.251	$GPGGA,061019,2422.3126,N,08125.6181,W,1,10,1.5,15,M,,M,,*6E
06/07/2014	06:10:11.274	$GPGGA,061020,2422.3122,N,08125.6179,W,1,10,1.5,15,M,,M,,*67
06/07/2014	06:10:12.267	$GPGGA,061021,2422.3118,N,08125.6178,W,1,10,1.5,15,M,,M,,*6E
06/07/2014	06:10:13.259	$GPGGA,061022,2422.3113,N,08125.6177,W,1,10,1.5,15,M,,M,,*69
06/07/2014	06:10:14.252	$GPGGA,061023,2422.3109,N,08125.6175,W,1,10,1.5,15,M,,M,,*61
06/07/2014	06:10:15.274	$GPGGA,061024,2422.3105,N,08125.6175,W,1,10,1.5,15,M,,M,,*6A
06/07/2014	06:10:16.246	$GPGGA,061025,2422.3101,N,08125.6173,W,1,10,1.5,15,M,,M,,*69
06/07/2014	06:10:17.270	$GPGGA,061026,2422.3097,N,08125.6172,W,1,10,1.5,15,M,,M,,*65
06/07/2014	06:10:18.261	$GPGGA,061027,2422.3093,N,08125.6171,W,1,10,1.5,15,M,,M,,*63
06/07/2014	06:10:19.276	$GPGGA,061028,2422.3089,N,08125.6170,W,1,10,1.5,15,M,,M,,*66
06/07/2014	06:10:20.297	$GPGGA,061029,2422.3084,N,08125.6169,W,1,10,1.5,15,M,,M,,*62
06/07/2014	06:10:21.259	$GPGGA,061030,2422.3082,N,08125.6168,W,1,10,1.5,15,M,,M,,*6D
06/07/2014	06:10:22.262	$GPGGA,061031,2422.3076,N,08125.6167,W,1,9,1.8,15,M,,M,,*5D
06/07/2014	06:10:23.277	$GPGGA,061032,2422.3072,N,08125.6166,W,1,9,1.5,15,M,,M,,*56
06/07/2014	06:10:24.257	$GPGGA,061033,2422.3068,N,08125.6165,W,1,10,1.5,15,M,,M,,*67
06/07/2014	06:10:25.392	$GPGGA,061034,2422.3065,N,08125.6164,W,1,10,1.5,15,M,,M,,*6C
06/07/2014	06:10:26.262	$GPGGA,061035,2422.3061,N,08125.6163,W,1,10,1.5,15,M,,M,,*6E
06/07/2014	06:10:27.276	$GPGGA,061036,2422.3057,N,08125.6162,W,1,10,1.5,15,M,,M,,*69
06/07/2014	06:10:28.203	$GPGGA,061037,2422.3053,N,08125.6161,W,1,10,1.5,15,M,,M,,*6F
06/07/2014	06:10:29.104	$GPGGA,061038,2422.3049,N,08125.6160,W,1,10,1.5,15,M,,M,,*6A
06/07/2014	06:10:30.127	$GPGGA,061039,2422.3046,N,08125.6158,W,1,10,1.5,15,M,,M,,*6F
06/07/2014	06:10:31.119	$GPGGA,061040,2422.3042,N,08125.6157,W,1,10,1.5,15,M,,M,,*6A
06/07/2014	06:10:32.102	$GPGGA,061041,2422.3037,N,08125.6157,W,1,10,1.5,15,M,,M,,*69
06/07/2014	06:10:33.215	$GPGGA,061042,2422.3033,N,08125.6156,W,1,10,1.5,15,M,,M,,*6F
06/07/2014	06:10:34.297	$GPGGA,061043,2422.3029,N,08125.6155,W,1,10,1.5,15,M,,M,,*66
06/07/2014	06:10:35.120	$GPGGA,061044,2422.3025,N,08125.6154,W,1,10,1.5,15,M,,M,,*6C
06/07/2014	06:10:36.132	$GPGGA,061045,2422.3021,N,08125.6152,W,1,10,1.5,15,M,,M,,*6F
06/07/2014	06:10:37.256	$GPGGA,061046,2422.3017,N,08125.6151,W,1,10,1.5,14,M,,M,,*6B
06/07/2014	06:10:38.308	$GPGGA,061047,2422.3013,N,08125.6150,W,1,10,1.5,14,M,,M,,*6F
06/07/2014	06:10:39.150	$GPGGA,061048,2422.3008,N,08125.6149,W,1,10,1.5,14,M,,M,,*62
06/07/2014	06:10:40.113	$GPGGA,061049,2422.3004,N,08125.6148,W,1,10,1.5,14,M,,M,,*6E
06/07/2014	06:10:41.125	$GPGGA,061050,2422.3000,N,08125.6147,W,1,10,1.5,14,M,,M,,*6D
06/07/2014	06:10:42.318	$GPGGA,061051,2422.2996,N,08125.6145,W,1,10,1.5,14,M,,M,,*69
06/07/2014	06:10:43.271	$GPGGA,061052,2422.2992,N,08125.6144,W,1,10,1.5,14,M,,M,,*6F
06/07/2014	06:10:44.313	$GPGGA,061053,2422.2988,N,08125.6143,W,1,10,1.5,14,M,,M,,*62
06/07/2014	06:10:45.236	$GPGGA,061054,2422.2984,N,08125.6142,W,1,10,1.5,14,M,,M,,*68
06/07/2014	06:10:46.318	$GPGGA,061055,2422.2980,N,08125.6140,W,1,10,1.5,14,M,,M,,*6F
06/07/2014	06:10:47.270	$GPGGA,061056,2422.2977,N,08125.6139,W,1,10,1.5,14,M,,M,,*6A
06/07/2014	06:10:48.213	$GPGGA,061057,2422.2971,N,08125.6138,W,1,10,1.5,14,M,,M,,*6C
06/07/2014	06:10:49.245	$GPGGA,061058,2422.2967,N,08125.6136,W,1,10,1.5,14,M,,M,,*6A
06/07/2014	06:10:50.318	$GPGGA,061059,2422.2963,N,08125.6135,W,1,10,1.5,14,M,,M,,*6C
06/07/2014	06:10:51.261	$GPGGA,061100,2422.2959,N,08125.6134,W,1,10,1.5,14,M,,M,,*69
06/07/2014	06:10:52.323	$GPGGA,061101,2422.2956,N,08125.6132,W,1,10,1.5,14,M,,M,,*61
06/07/2014	06:10:53.246	$GPGGA,061102,2422.2952,N,08125.6131,W,1,10,1.5,14,M,,M,,*65
06/07/2014	06:10:54.328	$GPGGA,061103,2422.2948,N,08125.6130,W,1,10,1.5,14,M,,M,,*6E
06/07/2014	06:10:55.221	$GPGGA,061104,2422.2944,N,08125.6128,W,1,10,1.5,14,M,,M,,*6C
06/07/2014	06:10:56.334	$GPGGA,061105,2422.2939,N,08125.6126,W,1,10,1.5,14,M,,M,,*69
06/07/2014	06:10:57.246	$GPGGA,061106,2422.2936,N,08125.6127,W,1,10,1.5,14,M,,M,,*64
06/07/2014	06:10:58.329	$GPGGA,061107,2422.2934,N,08125.6125,W,1,10,1.5,14,M,,M,,*65
06/07/2014	06:10:59.251	$GPGGA,061108,2422.2928,N,08125.6122,W,1,10,1.5,14,M,,M,,*60
06/07/2014	06:11:00.344	$GPGGA,061109,2422.2924,N,08125.6121,W,1,10,1.5,14,M,,M,,*6E
06/07/2014	06:11:01.226	$GPGGA,061110,2422.2920,N,08125.6120,W,1,10,1.5,14,M,,M,,*63
06/07/2014	06:11:02.300	$GPGGA,061111,2422.2916,N,08125.6118,W,1,10,1.5,14,M,,M,,*6C
06/07/2014	06:11:03.272	$GPGGA,061112,2422.2913,N,08125.6117,W,1,10,1.5,14,M,,M,,*65
06/07/2014	06:11:04.223	$GPGGA,061113,2422.2909,N,08125.6116,W,1,10,1.5,14,M,,M,,*6E
06/07/2014	06:11:05.246	$GPGGA,061114,2422.2905,N,08125.6114,W,1,10,1.5,14,M,,M,,*67
06/07/2014	06:11:06.218	$GPGGA,061115,2422.2901,N,08125.6113,W,1,10,1.5,14,M,,M,,*65
06/07/2014	06:11:07.271	$GPGGA,061116,2422.2897,N,08125.6112,W,1,10,1.5,14,M,,M,,*69
06/07/2014	06:11:08.349	$GPGGA,061117,2422.2894,N,08125.6110,W,1,10,1.5,14,M,,M,,*69
06/07/2014	06:11:09.226	$GPGGA,061118,2422.2889,N,08125.6109,W,1,10,1.5,14,M,,M,,*62
06/07/2014	06:11:10.319	$GPGGA,061119,2422.2884,N,08125.6107,W,1,10,1.5,14,M,,M,,*60
06/07/2014	06:11:11.271	$GPGGA,061120,2422.2881,N,08125.6107,W,1,10,1.5,14,M,,M,,*6F
06/07/2014	06:11:12.284	$GPGGA,061121,2422.2877,N,08125.6105,W,1,10,1.5,14,M,,M,,*65
06/07/2014	06:11:13.267	$GPGGA,061122,2422.2873,N,08125.6104,W,1,10,1.5,14,M,,M,,*63
06/07/2014	06:11:14.363	$GPGGA,061123,2422.2869,N,08125.6103,W,1,10,1.5,14,M,,M,,*6E
06/07/2014	06:11:15.272	$GPGGA,061124,2422.2865,N,08125.6101,W,1,10,1.5,14,M,,M,,*67
06/07/2014	06:11:16.324	$GPGGA,061125,2422.2861,N,08125.6100,W,1,10,1.5,14,M,,M,,*63
06/07/2014	06:11:17.247	$GPGGA,061126,2422.2858,N,08125.6099,W,1,10,1.5,14,M,,M,,*6B
06/07/2014	06:11:18.362	$GPGGA,061127,2422.2854,N,08125.6098,W,1,10,1.5,14,M,,M,,*67
06/07/2014	06:11:19.273	$GPGGA,061128,2422.2849,N,08125.6097,W,1,10,1.5,14,M,,M,,*6B
06/07/2014	06:11:20.316	$GPGGA,061129,2422.2847,N,08125.6096,W,1,10,1.5,14,M,,M,,*65
06/07/2014	06:11:21.266	$GPGGA,061130,2422.2842,N,08125.6094,W,1,10,1.5,14,M,,M,,*6A
06/07/2014	06:11:22.369	$GPGGA,061131,2422.2838,N,08125.6095,W,1,10,1.5,14,M,,M,,*67
06/07/2014	06:11:23.362	$GPGGA,061132,2422.2834,N,08125.6093,W,1,10,1.5,14,M,,M,,*6E
06/07/2014	06:11:24.364	$GPGGA,061133,2422.2830,N,08125.6091,W,1,10,1.6,14,M,,M,,*6A
06/07/2014	06:11:25.270	$GPGGA,061134,2422.2825,N,08125.6091,W,1,10,1.6,14,M,,M,,*69
06/07/2014	06:11:26.229	$GPGGA,061135,2422.2822,N,08125.6090,W,1,9,1.6,14,M,,M,,*56
06/07/2014	06:11:27.342	$GPGGA,061136,2422.2818,N,08125.6089,W,1,9,1.6,14,M,,M,,*54
06/07/2014	06:11:28.221	$GPGGA,061137,2422.2812,N,08125.6087,W,1,9,1.6,14,M,,M,,*51
06/07/2014	06:11:29.183	$GPGGA,061138,2422.2808,N,08125.6087,W,1,9,1.5,14,M,,M,,*56
06/07/2014	06:11:30.216	$GPGGA,061139,2422.2804,N,08125.6085,W,1,10,1.6,14,M,,M,,*62
06/07/2014	06:11:31.188	$GPGGA,061140,2422.2800,N,08125.6084,W,1,10,1.6,14,M,,M,,*69
06/07/2014	06:11:32.191	$GPGGA,061141,2422.2796,N,08125.6083,W,1,9,1.6,14,M,,M,,*57
06/07/2014	06:11:33.194	$GPGGA,061142,2422.2793,N,08125.6082,W,1,9,1.6,14,M,,M,,*50
06/07/2014	06:11:34.196	$GPGGA,061143,2422.2789,N,08125.6081,W,1,9,1.6,14,M,,M,,*59
06/07/2014	06:11:35.199	$GPGGA,061144,2422.2784,N,08125.6080,W,1,9,1.6,14,M,,M,,*52
06/07/2014	06:11:36.302	$GPGGA,061145,2422.2780,N,08125.6078,W,1,9,1.6,14,M,,M,,*50
06/07/2014	06:11:37.189	$GPGGA,061146,2422.2776,N,08125.6078,W,1,9,1.6,14,M,,M,,*5A
06/07/2014	06:11:38.228	$GPGGA,061147,2422.2772,N,08125.6077,W,1,9,1.6,14,M,,M,,*50
06/07/2014	06:11:39.198	$GPGGA,061148,2422.2768,N,08125.6076,W,1,9,1.6,14,M,,M,,*55
06/07/2014	06:11:40.211	$GPGGA,061149,2422.2764,N,08125.6074,W,1,9,1.6,14,M,,M,,*5A
06/07/2014	06:11:41.181	$GPGGA,061150,2422.2760,N,08125.6073,W,1,9,1.6,14,M,,M,,*51
06/07/2014	06:11:42.256	$GPGGA,061151,2422.2757,N,08125.6073,W,1,9,1.6,14,M,,M,,*54
06/07/2014	06:11:43.209	$GPGGA,061152,2422.2753,N,08125.6071,W,1,9,1.6,14,M,,M,,*51
06/07/2014	06:11:44.272	$GPGGA,061153,2422.2748,N,08125.6070,W,1,9,1.6,14,M,,M,,*5B
06/07/2014	06:11:45.194	$GPGGA,061154,2422.2746,N,08125.6070,W,1,9,1.8,14,M,,M,,*5C
06/07/2014	06:11:46.226	$GPGGA,061155,2422.2739,N,08125.6068,W,1,8,1.6,14,M,,M,,*53
