Software Version Number: 1	Data File Format Number: 1	Build Version Number: 1	Error Count Since VI Started: 0	Manufacturer: Raytheon	 Model Number: RayMarine 120	 S/N: 	 Cal Date: 	 Wind Direction Offset: 0.00	 Slope (M)1: 0.00	 Offset (B)1: 0.00	 Slope (M)2: 0.00	 Offset (B)2: 0.00	 Slope (M)3: 0.00	 Offset (B)3: 0.00	 Slope (M)4: 0.00	 Offset (B)4: 0.00	 Slope (M)5: 0.00	 Offset (B)5: 0.00	 Slope (M)6: 0.00	 Offset (B)6: 0.00
Computer Date	Computer Time	GGA String
06/07/2014	00:00:00.247	$GPGGA,000009,2420.2883,N,08135.5072,W,1,10,1.5,16,M,,M,,*61
06/07/2014	00:00:01.250	$GPGGA,000010,2420.2901,N,08135.5071,W,1,10,1.5,16,M,,M,,*61
06/07/2014	00:00:02.264	$GPGGA,000011,2420.2919,N,08135.5070,W,1,10,1.5,16,M,,M,,*68
06/07/2014	00:00:03.284	$GPGGA,000012,2420.2940,N,08135.5069,W,1,10,1.5,16,M,,M,,*6F
06/07/2014	00:00:04.238	$GPGGA,000013,2420.2959,N,08135.5069,W,1,9,1.8,16,M,,M,,*53
06/07/2014	00:00:05.250	$GPGGA,000014,2420.2979,N,08135.5070,W,1,9,1.8,16,M,,M,,*5E
06/07/2014	00:00:06.252	$GPGGA,000015,2420.2998,N,08135.5070,W,1,9,1.8,16,M,,M,,*50
06/07/2014	00:00:07.265	$GPGGA,000016,2420.3017,N,08135.5069,W,1,9,1.8,16,M,,M,,*54
06/07/2014	00:00:08.246	$GPGGA,000017,2420.3035,N,08135.5068,W,1,9,1.8,15,M,,M,,*57
06/07/2014	00:00:09.259	$GPGGA,000018,2420.3055,N,08135.5069,W,1,9,1.8,15,M,,M,,*5F
06/07/2014	00:00:10.272	$GPGGA,000019,2420.3074,N,08135.5067,W,1,9,1.8,15,M,,M,,*53
06/07/2014	00:00:11.274	$GPGGA,000020,2420.3092,N,08135.5066,W,1,9,1.8,15,M,,M,,*50
06/07/2014	00:00:12.267	$GPGGA,000021,2420.3111,N,08135.5065,W,1,9,1.8,15,M,,M,,*58
06/07/2014	00:00:13.259	$GPGGA,000022,2420.3128,N,08135.5062,W,1,9,1.8,15,M,,M,,*56
06/07/2014	00:00:14.272	$GPGGA,000023,2420.3145,N,08135.5057,W,1,10,1.5,15,M,,M,,*6F
06/07/2014	00:00:15.285	$GPGGA,000024,2420.3161,N,08135.5055,W,1,10,1.5,15,M,,M,,*6C
06/07/2014	00:00:16.297	$GPGGA,000025,2420.3179,N,08135.5051,W,1,10,1.5,15,M,,M,,*60
06/07/2014	00:00:17.260	$GPGGA,000026,2420.3197,N,08135.5049,W,1,10,1.5,15,M,,M,,*6A
06/07/2014	00:00:18.283	$GPGGA,000027,2420.3215,N,08135.5048,W,1,10,1.5,15,M,,M,,*63
06/07/2014	00:00:19.275	$GPGGA,000028,2420.3233,N,08135.5046,W,1,10,1.5,15,M,,M,,*66
06/07/2014	00:00:20.267	$GPGGA,000029,2420.3251,N,08135.5043,W,1,10,1.5,15,M,,M,,*66
06/07/2014	00:00:21.270	$GPGGA,000030,2420.3270,N,08135.5042,W,1,10,1.5,15,M,,M,,*6C
06/07/2014	00:00:22.303	$GPGGA,000031,2420.3290,N,08135.5043,W,1,10,1.5,15,M,,M,,*62
06/07/2014	00:00:23.386	$GPGGA,000032,2420.3308,N,08135.5040,W,1,10,1.5,15,M,,M,,*62
06/07/2014	00:00:24.260	$GPGGA,000033,2420.3326,N,08135.5037,W,1,10,1.5,15,M,,M,,*6F
06/07/2014	00:00:25.260	$GPGGA,000034,2420.3344,N,08135.5035,W,1,10,1.5,15,M,,M,,*6E
06/07/2014	00:00:26.252	$GPGGA,000035,2420.3362,N,08135.5034,W,1,10,1.5,15,M,,M,,*6A
06/07/2014	00:00:27.285	$GPGGA,000036,2420.3380,N,08135.5031,W,1,10,1.5,15,M,,M,,*60
06/07/2014	00:00:28.133	$GPGGA,000037,2420.3399,N,08135.5030,W,1,10,1.5,15,M,,M,,*68
06/07/2014	00:00:29.219	$GPGGA,000038,2420.3418,N,08135.5029,W,1,10,1.5,15,M,,M,,*61
06/07/2014	00:00:30.229	$GPGGA,000039,2420.3436,N,08135.5026,W,1,10,1.5,16,M,,M,,*60
06/07/2014	00:00:31.261	$GPGGA,000040,2420.3454,N,08135.5024,W,1,10,1.5,16,M,,M,,*68
06/07/2014	00:00:32.244	$GPGGA,000041,2420.3472,N,08135.5022,W,1,10,1.5,16,M,,M,,*6B
06/07/2014	00:00:33.216	$GPGGA,000042,2420.3490,N,08135.5020,W,1,10,1.5,16,M,,M,,*66
06/07/2014	00:00:34.249	$GPGGA,000043,2420.3510,N,08135.5018,W,1,10,1.5,16,M,,M,,*65
06/07/2014	00:00:35.222	$GPGGA,000044,2420.3529,N,08135.5018,W,1,10,1.8,16,M,,M,,*65
06/07/2014	00:00:36.234	$GPGGA,000045,2420.3548,N,08135.5019,W,1,9,1.8,16,M,,M,,*5A
06/07/2014	00:00:37.217	$GPGGA,000046,2420.3569,N,08135.5019,W,1,9,1.8,16,M,,M,,*5A
06/07/2014	00:00:38.229	$GPGGA,000047,2420.3587,N,08135.5018,W,1,9,1.8,16,M,,M,,*5A
06/07/2014	00:00:39.232	$GPGGA,000048,2420.3606,N,08135.5018,W,1,9,1.8,16,M,,M,,*5F
06/07/2014	00:00:40.235	$GPGGA,000049,2420.3624,N,08135.5017,W,1,9,1.5,16,M,,M,,*5C
06/07/2014	00:00:41.207	$GPGGA,000050,2420.3642,N,08135.5014,W,1,9,1.5,16,M,,M,,*57
06/07/2014	00:00:42.240	$GPGGA,000051,2420.3660,N,08135.5011,W,1,9,1.5,16,M,,M,,*53
06/07/2014	00:00:43.231	$GPGGA,000052,2420.3678,N,08135.5010,W,1,9,1.5,16,M,,M,,*58
06/07/2014	00:00:44.234	$GPGGA,000053,2420.3695,N,08135.5011,W,1,10,1.5,16,M,,M,,*63
06/07/2014	00:00:45.217	$GPGGA,000054,2420.3714,N,08135.5008,W,1,10,1.5,16,M,,M,,*64
06/07/2014	00:00:46.249	$GPGGA,000055,2420.3732,N,08135.5008,W,1,10,1.8,16,M,,M,,*6C
06/07/2014	00:00:47.232	$GPGGA,000056,2420.3750,N,08135.5005,W,1,10,1.5,16,M,,M,,*6B
06/07/2014	00:00:48.244	$GPGGA,000057,2420.3768,N,08135.5007,W,1,10,1.5,16,M,,M,,*63
06/07/2014	00:00:49.227	$GPGGA,000058,2420.3788,N,08135.5006,W,1,10,1.5,16,M,,M,,*63
06/07/2014	00:00:50.250	$GPGGA,000059,2420.3806,N,08135.5005,W,1,10,1.5,16,M,,M,,*68
06/07/2014	00:00:51.272	$GPGGA,000100,2420.3824,N,08135.5005,W,1,10,1.5,16,M,,M,,*65
06/07/2014	00:00:52.225	$GPGGA,000101,2420.3842,N,08135.5007,W,1,10,1.5,16,M,,M,,*66
06/07/2014	00:00:53.227	$GPGGA,000102,2420.3861,N,08135.5006,W,1,10,1.5,16,M,,M,,*65
06/07/2014	00:00:54.230	$GPGGA,000103,2420.3879,N,08135.5007,W,1,10,1.5,16,M,,M,,*6C
06/07/2014	00:00:55.254	$GPGGA,000104,2420.3898,N,08135.5011,W,1,10,1.8,16,M,,M,,*6E
06/07/2014	00:00:56.245	$GPGGA,000105,2420.3916,N,08135.5012,W,1,9,1.8,16,M,,M,,*53
06/07/2014	00:00:57.228	$GPGGA,000106,2420.3934,N,08135.5014,W,1,9,1.5,16,M,,M,,*5B
06/07/2014	00:00:58.250	$GPGGA,000107,2420.3952,N,08135.5014,W,1,10,1.5,16,M,,M,,*62
06/07/2014	00:00:59.243	$GPGGA,000108,2420.3967,N,08135.5014,W,1,10,1.5,16,M,,M,,*6B
06/07/2014	00:01:00.246	$GPGGA,000109,2420.3983,N,08135.5013,W,1,10,1.5,16,M,,M,,*67
06/07/2014	00:01:01.237	$GPGGA,000110,2420.3999,N,08135.5014,W,1,10,1.5,16,M,,M,,*63
06/07/2014	00:01:02.250	$GPGGA,000111,2420.4014,N,08135.5013,W,1,10,1.5,16,M,,M,,*6E
06/07/2014	00:01:03.252	$GPGGA,000112,2420.4028,N,08135.5014,W,1,10,1.5,16,M,,M,,*65
06/07/2014	00:01:04.265	$GPGGA,000113,2420.4043,N,08135.5014,W,1,10,1.5,16,M,,M,,*69
06/07/2014	00:01:05.237	$GPGGA,000114,2420.4060,N,08135.5014,W,1,10,1.5,16,M,,M,,*6F
06/07/2014	00:01:06.261	$GPGGA,000115,2420.4075,N,08135.5015,W,1,10,1.5,16,M,,M,,*6B
06/07/2014	00:01:07.253	$GPGGA,000116,2420.4090,N,08135.5015,W,1,10,1.5,16,M,,M,,*63
06/07/2014	00:01:08.265	$GPGGA,000117,2420.4106,N,08135.5016,W,1,10,1.5,17,M,,M,,*6E
06/07/2014	00:01:09.258	$GPGGA,000118,2420.4121,N,08135.5018,W,1,10,1.5,17,M,,M,,*6A
06/07/2014	00:01:10.227	$GPGGA,000119,2420.4135,N,08135.5018,W,1,10,1.5,17,M,,M,,*6E
06/07/2014	00:01:11.263	$GPGGA,000120,2420.4150,N,08135.5019,W,1,10,1.5,17,M,,M,,*66
06/07/2014	00:01:12.326	$GPGGA,000121,2420.4164,N,08135.5020,W,1,10,1.5,17,M,,M,,*6A
06/07/2014	00:01:13.238	$GPGGA,000122,2420.4176,N,08135.5022,W,1,10,1.5,17,M,,M,,*68
06/07/2014	00:01:14.261	$GPGGA,000123,2420.4191,N,08135.5021,W,1,10,1.5,17,M,,M,,*63
06/07/2014	00:01:15.263	$GPGGA,000124,2420.4205,N,08135.5022,W,1,10,1.5,17,M,,M,,*69
06/07/2014	00:01:16.327	$GPGGA,000125,2420.4218,N,08135.5023,W,1,10,1.5,17,M,,M,,*65
06/07/2014	00:01:17.246	$GPGGA,000126,2420.4230,N,08135.5023,W,1,10,1.5,17,M,,M,,*6C
06/07/2014	00:01:18.250	$GPGGA,000127,2420.4242,N,08135.5023,W,1,10,1.5,17,M,,M,,*68
06/07/2014	00:01:19.353	$GPGGA,000128,2420.4255,N,08135.5025,W,1,10,1.5,17,M,,M,,*67
06/07/2014	00:01:20.346	$GPGGA,000129,2420.4267,N,08135.5024,W,1,10,1.5,17,M,,M,,*66
06/07/2014	00:01:21.288	$GPGGA,000130,2420.4278,N,08135.5025,W,1,10,1.5,17,M,,M,,*61
06/07/2014	00:01:22.251	$GPGGA,000131,2420.4292,N,08135.5024,W,1,10,1.5,17,M,,M,,*65
06/07/2014	00:01:24.366	$GPGGA,000133,2420.4314,N,08135.5024,W,1,10,1.5,17,M,,M,,*68
06/07/2014	00:01:25.339	$GPGGA,000134,2420.4327,N,08135.5023,W,1,10,1.5,17,M,,M,,*68
06/07/2014	00:01:26.351	$GPGGA,000135,2420.4339,N,08135.5025,W,1,10,1.8,17,M,,M,,*6D
06/07/2014	00:01:27.354	$GPGGA,000136,2420.4346,N,08135.5021,W,1,10,1.7,17,M,,M,,*6D
06/07/2014	00:01:28.201	$GPGGA,000137,2420.4357,N,08135.5022,W,1,9,1.7,17,M,,M,,*57
06/07/2014	00:01:29.174	$GPGGA,000138,2420.4368,N,08135.5022,W,1,9,1.8,17,M,,M,,*5B
06/07/2014	00:01:30.207	$GPGGA,000139,2420.4379,N,08135.5022,W,1,9,1.8,17,M,,M,,*5A
06/07/2014	00:01:31.209	$GPGGA,000140,2420.4389,N,08135.5020,W,1,9,1.8,17,M,,M,,*59
06/07/2014	00:01:32.212	$GPGGA,000141,2420.4400,N,08135.5019,W,1,10,1.5,18,M,,M,,*6E
06/07/2014	00:01:33.194	$GPGGA,000142,2420.4411,N,08135.5018,W,1,10,1.5,18,M,,M,,*6C
06/07/2014	00:01:34.197	$GPGGA,000143,2420.4424,N,08135.5016,W,1,10,1.5,18,M,,M,,*65
06/07/2014	00:01:35.210	$GPGGA,000144,2420.4435,N,08135.5015,W,1,10,1.5,18,M,,M,,*61
06/07/2014	00:01:36.191	$GPGGA,000145,2420.4444,N,08135.5013,W,1,10,1.5,18,M,,M,,*60
06/07/2014	00:01:37.194	$GPGGA,000146,2420.4455,N,08135.5011,W,1,10,1.5,18,M,,M,,*61
06/07/2014	00:01:38.206	$GPGGA,000147,2420.4467,N,08135.5009,W,1,10,1.5,18,M,,M,,*68
06/07/2014	00:01:39.209	$GPGGA,000148,2420.4478,N,08135.5008,W,1,10,1.5,18,M,,M,,*68
06/07/2014	00:01:40.212	$GPGGA,000149,2420.4487,N,08135.5005,W,1,10,1.5,18,M,,M,,*64
06/07/2014	00:01:41.194	$GPGGA,000150,2420.4498,N,08135.5003,W,1,10,1.5,18,M,,M,,*64
06/07/2014	00:01:42.217	$GPGGA,000151,2420.4509,N,08135.5001,W,1,10,1.5,18,M,,M,,*6E
06/07/2014	00:01:43.199	$GPGGA,000152,2420.4518,N,08135.4999,W,1,10,1.5,18,M,,M,,*64
06/07/2014	00:01:44.192	$GPGGA,000153,2420.4529,N,08135.4997,W,1,9,1.7,18,M,,M,,*53
06/07/2014	00:01:45.206	$GPGGA,000154,2420.4538,N,08135.4994,W,1,9,1.5,18,M,,M,,*55
06/07/2014	00:01:46.227	$GPGGA,000155,2420.4548,N,08135.4993,W,1,10,1.5,18,M,,M,,*6C
06/07/2014	00:01:47.210	$GPGGA,000156,2420.4556,N,08135.4991,W,1,10,1.5,18,M,,M,,*62
06/07/2014	00:01:48.232	$GPGGA,000157,2420.4566,N,08135.4989,W,1,10,1.5,18,M,,M,,*69
06/07/2014	00:01:49.205	$GPGGA,000158,2420.4576,N,08135.4987,W,1,10,1.5,18,M,,M,,*69
06/07/2014	00:01:50.197	$GPGGA,000159,2420.4585,N,08135.4986,W,1,10,1.5,18,M,,M,,*65
06/07/2014	00:01:51.230	$GPGGA,000200,2420.4595,N,08135.4984,W,1,10,1.5,18,M,,M,,*69
06/07/2014	00:01:52.213	$GPGGA,000201,2420.4605,N,08135.4982,W,1,10,1.5,18,M,,M,,*64
06/07/2014	00:01:53.194	$GPGGA,000202,2420.4613,N,08135.4980,W,1,10,1.5,18,M,,M,,*62
06/07/2014	00:01:54.191	$GPGGA,000203,2420.4624,N,08135.4978,W,1,10,1.5,18,M,,M,,*60
06/07/2014	00:01:55.207	$GPGGA,000204,2420.4634,N,08135.4976,W,1,10,1.5,18,M,,M,,*68
06/07/2014	00:01:56.232	$GPGGA,000205,2420.4642,N,08135.4974,W,1,10,1.5,18,M,,M,,*6A
06/07/2014	00:01:57.197	$GPGGA,000206,2420.4652,N,08135.4972,W,1,10,1.5,18,M,,M,,*6E
06/07/2014	00:01:58.217	$GPGGA,000207,2420.4660,N,08135.4970,W,1,10,1.5,18,M,,M,,*6C
06/07/2014	00:01:59.220	$GPGGA,000208,2420.4670,N,08135.4969,W,1,10,1.8,18,M,,M,,*67
06/07/2014	00:02:00.218	$GPGGA,000209,2420.4679,N,08135.4968,W,1,9,1.8,18,M,,M,,*56
06/07/2014	00:02:01.210	$GPGGA,000210,2420.4688,N,08135.4967,W,1,9,1.5,18,M,,M,,*52
06/07/2014	00:02:02.328	$GPGGA,000211,2420.4696,N,08135.4964,W,1,10,1.5,18,M,,M,,*67
06/07/2014	00:02:03.230	$GPGGA,000212,2420.4703,N,08135.4961,W,1,10,1.5,18,M,,M,,*6C
06/07/2014	00:02:04.206	$GPGGA,000213,2420.4711,N,08135.4958,W,1,10,1.5,18,M,,M,,*64
06/07/2014	00:02:05.296	$GPGGA,000214,2420.4718,N,08135.4956,W,1,10,1.5,18,M,,M,,*64
06/07/2014	00:02:06.209	$GPGGA,000215,2420.4725,N,08135.4953,W,1,10,1.5,18,M,,M,,*6E
06/07/2014	00:02:07.214	$GPGGA,000216,2420.4733,N,08135.4951,W,1,10,1.5,18,M,,M,,*68
06/07/2014	00:02:08.205	$GPGGA,000217,2420.4740,N,08135.4948,W,1,10,1.5,18,M,,M,,*65
06/07/2014	00:02:09.329	$GPGGA,000218,2420.4747,N,08135.4944,W,1,10,1.8,18,M,,M,,*6C
06/07/2014	00:02:10.333	$GPGGA,000219,2420.4754,N,08135.4940,W,1,10,1.5,18,M,,M,,*66
06/07/2014	00:02:11.330	$GPGGA,000220,2420.4761,N,08135.4938,W,1,10,1.5,18,M,,M,,*65
06/07/2014	00:02:12.303	$GPGGA,000221,2420.4769,N,08135.4939,W,1,9,1.8,18,M,,M,,*58
06/07/2014	00:02:13.315	$GPGGA,000222,2420.4776,N,08135.4934,W,1,9,1.5,18,M,,M,,*55
06/07/2014	00:02:14.338	$GPGGA,000223,2420.4783,N,08135.4932,W,1,10,1.5,18,M,,M,,*60
06/07/2014	00:02:15.333	$GPGGA,000224,2420.4787,N,08135.4928,W,1,10,1.5,18,M,,M,,*68
06/07/2014	00:02:16.341	$GPGGA,000225,2420.4794,N,08135.4923,W,1,10,1.5,18,M,,M,,*60
06/07/2014	00:02:17.316	$GPGGA,000226,2420.4798,N,08135.4918,W,1,10,1.5,18,M,,M,,*67
06/07/2014	00:02:18.328	$GPGGA,000227,2420.4804,N,08135.4915,W,1,10,1.5,18,M,,M,,*61
06/07/2014	00:02:19.331	$GPGGA,000228,2420.4809,N,08135.4912,W,1,10,1.8,18,M,,M,,*69
06/07/2014	00:02:20.304	$GPGGA,000229,2420.4816,N,08135.4909,W,1,9,1.8,18,M,,M,,*54
06/07/2014	00:02:21.316	$GPGGA,000230,2420.4823,N,08135.4907,W,1,9,1.5,18,M,,M,,*59
06/07/2014	00:02:22.309	$GPGGA,000231,2420.4827,N,08135.4904,W,1,10,1.5,18,M,,M,,*67
06/07/2014	00:02:23.331	$GPGGA,000232,2420.4834,N,08135.4900,W,1,10,1.5,18,M,,M,,*62
06/07/2014	00:02:24.314	$GPGGA,000233,2420.4838,N,08135.4897,W,1,10,1.5,18,M,,M,,*60
06/07/2014	00:02:25.317	$GPGGA,000234,2420.4844,N,08135.4894,W,1,10,1.5,18,M,,M,,*6F
06/07/2014	00:02:26.339	$GPGGA,000235,2420.4850,N,08135.4890,W,1,10,1.5,17,M,,M,,*60
06/07/2014	00:02:27.332	$GPGGA,000236,2420.4855,N,08135.4887,W,1,10,1.5,17,M,,M,,*60
06/07/2014	00:02:28.159	$GPGGA,000237,2420.4859,N,08135.4884,W,1,10,1.5,17,M,,M,,*6E
06/07/2014	00:02:29.162	$GPGGA,000238,2420.4865,N,08135.4880,W,1,10,1.5,17,M,,M,,*6A
06/07/2014	00:02:30.195	$GPGGA,000239,2420.4870,N,08135.4876,W,1,10,1.5,17,M,,M,,*66
06/07/2014	00:02:31.187	$GPGGA,000240,2420.4874,N,08135.4872,W,1,10,1.5,17,M,,M,,*68
06/07/2014	00:02:32.170	$GPGGA,000241,2420.4879,N,08135.4869,W,1,10,1.5,17,M,,M,,*6E
06/07/2014	00:02:33.173	$GPGGA,000242,2420.4884,N,08135.4865,W,1,10,1.5,17,M,,M,,*63
06/07/2014	00:02:34.165	$GPGGA,000243,2420.4888,N,08135.4861,W,1,10,1.5,17,M,,M,,*6A
06/07/2014	00:02:35.178	$GPGGA,000244,2420.4892,N,08135.4857,W,1,10,1.5,17,M,,M,,*63
06/07/2014	00:02:36.210	$GPGGA,000245,2420.4895,N,08135.4853,W,1,10,1.5,17,M,,M,,*61
06/07/2014	00:02:37.163	$GPGGA,000246,2420.4899,N,08135.4849,W,1,10,1.5,17,M,,M,,*65
06/07/2014	00:02:38.185	$GPGGA,000247,2420.4905,N,08135.4844,W,1,10,1.5,17,M,,M,,*6D
06/07/2014	00:02:39.178	$GPGGA,000248,2420.4908,N,08135.4840,W,1,10,1.5,17,M,,M,,*6B
06/07/2014	00:02:40.201	$GPGGA,000249,2420.4912,N,08135.4836,W,1,10,1.5,16,M,,M,,*61
06/07/2014	00:02:41.163	$GPGGA,000250,2420.4916,N,08135.4831,W,1,10,1.5,16,M,,M,,*6A
06/07/2014	00:02:42.196	$GPGGA,000251,2420.4920,N,08135.4826,W,1,10,1.5,16,M,,M,,*68
06/07/2014	00:02:43.188	$GPGGA,000252,2420.4924,N,08135.4822,W,1,10,1.5,16,M,,M,,*6B
06/07/2014	00:02:44.171	$GPGGA,000253,2420.4928,N,08135.4818,W,1,10,1.5,16,M,,M,,*6F
06/07/2014	00:02:45.204	$GPGGA,000254,2420.4932,N,08135.4813,W,1,10,1.5,16,M,,M,,*68
06/07/2014	00:02:46.175	$GPGGA,000255,2420.4937,N,08135.4809,W,1,10,1.5,16,M,,M,,*67
06/07/2014	00:02:47.188	$GPGGA,000256,2420.4942,N,08135.4806,W,1,10,1.5,16,M,,M,,*69
06/07/2014	00:02:48.190	$GPGGA,000257,2420.4946,N,08135.4804,W,1,9,1.8,16,M,,M,,*5B
06/07/2014	00:02:49.184	$GPGGA,000258,2420.4952,N,08135.4800,W,1,9,1.5,16,M,,M,,*58
06/07/2014	00:02:50.166	$GPGGA,000259,2420.4957,N,08135.4797,W,1,10,1.5,16,M,,M,,*65
06/07/2014	00:02:51.208	$GPGGA,000300,2420.4962,N,08135.4793,W,1,10,1.5,16,M,,M,,*6A
06/07/2014	00:02:52.187	$GPGGA,000301,2420.4967,N,08135.4789,W,1,10,1.5,16,M,,M,,*65
06/07/2014	00:02:53.293	$GPGGA,000302,2420.4971,N,08135.4785,W,1,10,1.5,16,M,,M,,*6D
06/07/2014	00:02:54.279	$GPGGA,000303,2420.4975,N,08135.4781,W,1,10,1.5,16,M,,M,,*6C
06/07/2014	00:02:55.297	$GPGGA,000304,2420.4982,N,08135.4777,W,1,10,1.5,16,M,,M,,*6A
06/07/2014	00:02:56.204	$GPGGA,000305,2420.4986,N,08135.4773,W,1,10,1.5,16,M,,M,,*6B
06/07/2014	00:02:57.289	$GPGGA,000306,2420.4992,N,08135.4770,W,1,10,1.5,16,M,,M,,*6E
06/07/2014	00:02:58.298	$GPGGA,000307,2420.4996,N,08135.4766,W,1,10,1.5,16,M,,M,,*6C
06/07/2014	00:02:59.201	$GPGGA,000308,2420.5002,N,08135.4761,W,1,10,1.5,16,M,,M,,*61
06/07/2014	00:03:00.282	$GPGGA,000309,2420.5007,N,08135.4758,W,1,10,1.5,16,M,,M,,*6F
06/07/2014	00:03:01.185	$GPGGA,000310,2420.5011,N,08135.4754,W,1,10,1.5,16,M,,M,,*6C
06/07/2014	00:03:02.326	$GPGGA,000311,2420.5018,N,08135.4750,W,1,10,1.5,16,M,,M,,*60
06/07/2014	00:03:03.288	$GPGGA,000312,2420.5024,N,08135.4747,W,1,10,1.5,16,M,,M,,*6A
06/07/2014	00:03:04.304	$GPGGA,000313,2420.5029,N,08135.4743,W,1,10,1.5,16,M,,M,,*62
06/07/2014	00:03:05.274	$GPGGA,000314,2420.5036,N,08135.4740,W,1,10,1.5,16,M,,M,,*68
06/07/2014	00:03:06.311	$GPGGA,000315,2420.5043,N,08135.4738,W,1,10,1.5,16,M,,M,,*64
06/07/2014	00:03:07.299	$GPGGA,000316,2420.5051,N,08135.4735,W,1,10,1.5,16,M,,M,,*69
06/07/2014	00:03:08.301	$GPGGA,000317,2420.5058,N,08135.4733,W,1,9,1.8,16,M,,M,,*52
06/07/2014	00:03:09.284	$GPGGA,000318,2420.5065,N,08135.4732,W,1,9,1.8,16,M,,M,,*52
06/07/2014	00:03:10.307	$GPGGA,000319,2420.5074,N,08135.4730,W,1,9,1.8,16,M,,M,,*51
06/07/2014	00:03:11.299	$GPGGA,000320,2420.5083,N,08135.4729,W,1,9,1.7,16,M,,M,,*54
06/07/2014	00:03:12.314	$GPGGA,000321,2420.5090,N,08135.4725,W,1,10,1.5,16,M,,M,,*61
06/07/2014	00:03:13.284	$GPGGA,000322,2420.5098,N,08135.4723,W,1,10,1.5,16,M,,M,,*6C
06/07/2014	00:03:14.308	$GPGGA,000323,2420.5105,N,08135.4722,W,1,10,1.5,16,M,,M,,*69
06/07/2014	00:03:15.323	$GPGGA,000324,2420.5114,N,08135.4718,W,1,10,1.5,16,M,,M,,*67
06/07/2014	00:03:16.312	$GPGGA,000325,2420.5123,N,08135.4716,W,1,10,1.5,16,M,,M,,*6C
06/07/2014	00:03:17.285	$GPGGA,000326,2420.5130,N,08135.4716,W,1,10,1.5,16,M,,M,,*6D
06/07/2014	00:03:18.317	$GPGGA,000327,2420.5140,N,08135.4714,W,1,10,1.5,16,M,,M,,*69
06/07/2014	00:03:19.310	$GPGGA,000328,2420.5150,N,08135.4712,W,1,10,1.5,16,M,,M,,*61
06/07/2014	00:03:20.281	$GPGGA,000329,2420.5159,N,08135.4712,W,1,10,1.5,16,M,,M,,*69
06/07/2014	00:03:21.295	$GPGGA,000330,2420.5168,N,08135.4711,W,1,10,1.5,16,M,,M,,*60
06/07/2014	00:03:22.287	$GPGGA,000331,2420.5177,N,08135.4711,W,1,10,1.5,16,M,,M,,*6F
06/07/2014	00:03:23.310	$GPGGA,000332,2420.5188,N,08135.4710,W,1,10,1.5,16,M,,M,,*6D
06/07/2014	00:03:24.332	$GPGGA,000333,2420.5197,N,08135.4711,W,1,10,1.5,17,M,,M,,*62
06/07/2014	00:03:25.305	$GPGGA,000334,2420.5206,N,08135.4709,W,1,10,1.5,17,M,,M,,*67
06/07/2014	00:03:26.337	$GPGGA,000335,2420.5216,N,08135.4708,W,1,10,1.5,17,M,,M,,*66
06/07/2014	00:03:27.310	$GPGGA,000336,2420.5226,N,08135.4707,W,1,10,1.5,17,M,,M,,*69
06/07/2014	00:03:28.167	$GPGGA,000337,2420.5235,N,08135.4706,W,1,10,1.5,17,M,,M,,*6B
06/07/2014	00:03:29.150	$GPGGA,000338,2420.5245,N,08135.4707,W,1,10,1.5,17,M,,M,,*62
06/07/2014	00:03:30.163	$GPGGA,000339,2420.5255,N,08135.4707,W,1,9,1.8,17,M,,M,,*57
06/07/2014	00:03:31.155	$GPGGA,000340,2420.5264,N,08135.4707,W,1,9,1.8,17,M,,M,,*5B
06/07/2014	00:03:32.178	$GPGGA,000341,2420.5274,N,08135.4707,W,1,9,1.8,17,M,,M,,*5B
06/07/2014	00:03:33.140	$GPGGA,000342,2420.5284,N,08135.4708,W,1,9,1.8,17,M,,M,,*58
06/07/2014	00:03:34.183	$GPGGA,000343,2420.5293,N,08135.4708,W,1,9,1.8,17,M,,M,,*5F
06/07/2014	00:03:35.145	$GPGGA,000344,2420.5303,N,08135.4708,W,1,9,1.8,17,M,,M,,*50
06/07/2014	00:03:36.279	$GPGGA,000345,2420.5314,N,08135.4711,W,1,9,1.4,17,M,,M,,*53
06/07/2014	00:03:37.141	$GPGGA,000346,2420.5322,N,08135.4711,W,1,9,1.4,17,M,,M,,*55
06/07/2014	00:03:38.143	$GPGGA,000347,2420.5332,N,08135.4710,W,1,10,1.4,17,M,,M,,*6C
06/07/2014	00:03:39.175	$GPGGA,000348,2420.5340,N,08135.4709,W,1,10,1.4,17,M,,M,,*6E
06/07/2014	00:03:40.249	$GPGGA,000349,2420.5347,N,08135.4708,W,1,10,1.4,17,M,,M,,*69
06/07/2014	00:03:41.140	$GPGGA,000350,2420.5356,N,08135.4706,W,1,10,1.4,17,M,,M,,*6F
06/07/2014	00:03:42.145	$GPGGA,000351,2420.5364,N,08135.4707,W,1,10,1.4,17,M,,M,,*6E
06/07/2014	00:03:43.336	$GPGGA,000352,2420.5372,N,08135.4705,W,1,10,1.4,17,M,,M,,*68
06/07/2014	00:03:44.149	$GPGGA,000353,2420.5380,N,08135.4705,W,1,10,1.4,17,M,,M,,*64
06/07/2014	00:03:45.253	$GPGGA,000354,2420.5389,N,08135.4704,W,1,10,1.8,17,M,,M,,*67
06/07/2014	00:03:46.157	$GPGGA,000355,2420.5397,N,08135.4703,W,1,10,1.4,17,M,,M,,*62
06/07/2014	00:03:47.156	$GPGGA,000356,2420.5405,N,08135.4704,W,1,10,1.4,17,M,,M,,*6A
06/07/2014	00:03:48.248	$GPGGA,000357,2420.5412,N,08135.4701,W,1,10,1.4,17,M,,M,,*68
06/07/2014	00:03:49.251	$GPGGA,000358,2420.5419,N,08135.4701,W,1,10,1.4,17,M,,M,,*6C
06/07/2014	00:03:50.153	$GPGGA,000359,2420.5429,N,08135.4701,W,1,10,1.4,17,M,,M,,*6E
06/07/2014	00:03:51.346	$GPGGA,000400,2420.5437,N,08135.4700,W,1,10,1.4,17,M,,M,,*6B
06/07/2014	00:03:52.161	$GPGGA,000401,2420.5444,N,08135.4700,W,1,10,1.4,17,M,,M,,*6E
06/07/2014	00:03:53.322	$GPGGA,000402,2420.5452,N,08135.4700,W,1,10,1.4,17,M,,M,,*6A
06/07/2014	00:03:54.284	$GPGGA,000403,2420.5462,N,08135.4700,W,1,10,1.4,17,M,,M,,*68
06/07/2014	00:03:55.346	$GPGGA,000404,2420.5470,N,08135.4699,W,1,10,1.5,17,M,,M,,*6C
06/07/2014	00:03:56.290	$GPGGA,000405,2420.5477,N,08135.4700,W,1,9,1.5,17,M,,M,,*53
06/07/2014	00:03:57.321	$GPGGA,000406,2420.5486,N,08135.4700,W,1,9,1.4,17,M,,M,,*5F
06/07/2014	00:03:58.324	$GPGGA,000407,2420.5495,N,08135.4701,W,1,10,1.4,17,M,,M,,*65
06/07/2014	00:03:59.346	$GPGGA,000408,2420.5504,N,08135.4702,W,1,10,1.4,17,M,,M,,*60
06/07/2014	00:04:00.299	$GPGGA,000409,2420.5512,N,08135.4702,W,1,10,1.4,17,M,,M,,*66
06/07/2014	00:04:01.251	$GPGGA,000410,2420.5520,N,08135.4704,W,1,10,1.4,17,M,,M,,*69
06/07/2014	00:04:02.307	$GPGGA,000411,2420.5527,N,08135.4704,W,1,10,1.4,18,M,,M,,*60
06/07/2014	00:04:03.347	$GPGGA,000412,2420.5537,N,08135.4705,W,1,10,1.8,17,M,,M,,*60
06/07/2014	00:04:04.312	$GPGGA,000413,2420.5546,N,08135.4707,W,1,9,1.4,17,M,,M,,*51
06/07/2014	00:04:05.312	$GPGGA,000414,2420.5553,N,08135.4709,W,1,9,1.4,17,M,,M,,*5C
06/07/2014	00:04:06.254	$GPGGA,000415,2420.5562,N,08135.4709,W,1,10,1.4,17,M,,M,,*67
06/07/2014	00:04:07.347	$GPGGA,000416,2420.5569,N,08135.4709,W,1,10,1.4,17,M,,M,,*6F
06/07/2014	00:04:08.340	$GPGGA,000417,2420.5575,N,08135.4708,W,1,10,1.4,17,M,,M,,*62
06/07/2014	00:04:09.322	$GPGGA,000418,2420.5582,N,08135.4709,W,1,10,1.4,17,M,,M,,*64
06/07/2014	00:04:10.265	$GPGGA,000419,2420.5589,N,08135.4708,W,1,10,1.4,17,M,,M,,*6F
06/07/2014	00:04:11.339	$GPGGA,000420,2420.5596,N,08135.4707,W,1,10,1.4,17,M,,M,,*64
06/07/2014	00:04:12.320	$GPGGA,000421,2420.5602,N,08135.4706,W,1,10,1.4,17,M,,M,,*6A
06/07/2014	00:04:13.321	$GPGGA,000422,2420.5609,N,08135.4705,W,1,10,1.4,17,M,,M,,*61
06/07/2014	00:04:14.264	$GPGGA,000423,2420.5616,N,08135.4707,W,1,10,1.4,17,M,,M,,*6C
06/07/2014	00:04:15.337	$GPGGA,000424,2420.5622,N,08135.4706,W,1,10,1.4,17,M,,M,,*6D
06/07/2014	00:04:16.343	$GPGGA,000425,2420.5629,N,08135.4707,W,1,10,1.4,17,M,,M,,*66
06/07/2014	00:04:17.262	$GPGGA,000426,2420.5634,N,08135.4703,W,1,10,1.8,17,M,,M,,*61
06/07/2014	00:04:18.315	$GPGGA,000427,2420.5639,N,08135.4700,W,1,10,1.4,17,M,,M,,*62
06/07/2014	00:04:19.337	$GPGGA,000428,2420.5643,N,08135.4697,W,1,10,1.4,17,M,,M,,*6F
06/07/2014	00:04:20.330	$GPGGA,000429,2420.5650,N,08135.4697,W,1,10,1.4,17,M,,M,,*6C
06/07/2014	00:04:21.332	$GPGGA,000430,2420.5656,N,08135.4696,W,1,10,1.4,17,M,,M,,*63
06/07/2014	00:04:22.305	$GPGGA,000431,2420.5661,N,08135.4695,W,1,10,1.4,17,M,,M,,*65
06/07/2014	00:04:23.337	$GPGGA,000432,2420.5668,N,08135.4694,W,1,10,1.4,17,M,,M,,*6E
06/07/2014	00:04:24.310	$GPGGA,000433,2420.5672,N,08135.4694,W,1,10,1.4,17,M,,M,,*64
06/07/2014	00:04:25.262	$GPGGA,000434,2420.5679,N,08135.4693,W,1,10,1.4,17,M,,M,,*6F
06/07/2014	00:04:26.315	$GPGGA,000435,2420.5686,N,08135.4692,W,1,10,1.4,17,M,,M,,*6F
06/07/2014	00:04:27.278	$GPGGA,000436,2420.5692,N,08135.4693,W,1,10,1.4,17,M,,M,,*68
06/07/2014	00:04:28.237	$GPGGA,000437,2420.5697,N,08135.4692,W,1,10,1.4,17,M,,M,,*6D
06/07/2014	00:04:29.125	$GPGGA,000438,2420.5704,N,08135.4691,W,1,10,1.4,17,M,,M,,*6A
06/07/2014	00:04:30.121	$GPGGA,000439,2420.5711,N,08135.4691,W,1,10,1.4,17,M,,M,,*6F
06/07/2014	00:04:31.203	$GPGGA,000440,2420.5715,N,08135.4691,W,1,10,1.4,17,M,,M,,*65
06/07/2014	00:04:32.156	$GPGGA,000441,2420.5722,N,08135.4690,W,1,10,1.4,17,M,,M,,*61
06/07/2014	00:04:33.218	$GPGGA,000442,2420.5728,N,08135.4689,W,1,10,1.4,17,M,,M,,*60
06/07/2014	00:04:34.161	$GPGGA,000443,2420.5733,N,08135.4689,W,1,10,1.5,16,M,,M,,*6B
06/07/2014	00:04:35.204	$GPGGA,000444,2420.5741,N,08135.4689,W,1,10,1.4,16,M,,M,,*68
06/07/2014	00:04:36.256	$GPGGA,000445,2420.5746,N,08135.4688,W,1,10,1.4,16,M,,M,,*6F
06/07/2014	00:04:37.189	$GPGGA,000446,2420.5751,N,08135.4687,W,1,10,1.4,16,M,,M,,*65
06/07/2014	00:04:38.181	$GPGGA,000447,2420.5758,N,08135.4687,W,1,10,1.4,16,M,,M,,*6D
06/07/2014	00:04:39.234	$GPGGA,000448,2420.5764,N,08135.4686,W,1,10,1.4,16,M,,M,,*6C
06/07/2014	00:04:40.147	$GPGGA,000449,2420.5770,N,08135.4686,W,1,10,1.4,16,M,,M,,*68
06/07/2014	00:04:41.229	$GPGGA,000450,2420.5776,N,08135.4686,W,1,10,1.4,16,M,,M,,*66
06/07/2014	00:04:42.253	$GPGGA,000451,2420.5781,N,08135.4686,W,1,10,1.4,16,M,,M,,*6F
06/07/2014	00:04:43.244	$GPGGA,000452,2420.5788,N,08135.4685,W,1,10,1.4,16,M,,M,,*66
06/07/2014	00:04:44.271	$GPGGA,000453,2420.5793,N,08135.4684,W,1,10,1.5,16,M,,M,,*6D
06/07/2014	00:04:45.254	$GPGGA,000454,2420.5798,N,08135.4683,W,1,10,1.4,16,M,,M,,*67
06/07/2014	00:04:46.242	$GPGGA,000455,2420.5804,N,08135.4681,W,1,10,1.4,16,M,,M,,*6E
06/07/2014	00:04:47.255	$GPGGA,000456,2420.5809,N,08135.4682,W,1,10,1.4,16,M,,M,,*63
06/07/2014	00:04:48.276	$GPGGA,000457,2420.5813,N,08135.4680,W,1,10,1.4,16,M,,M,,*6B
06/07/2014	00:04:49.229	$GPGGA,000458,2420.5820,N,08135.4679,W,1,10,1.4,16,M,,M,,*62
06/07/2014	00:04:50.284	$GPGGA,000459,2420.5824,N,08135.4678,W,1,10,1.4,16,M,,M,,*66
06/07/2014	00:04:51.264	$GPGGA,000500,2420.5830,N,08135.4677,W,1,10,1.4,16,M,,M,,*61
06/07/2014	00:04:52.257	$GPGGA,000501,2420.5835,N,08135.4676,W,1,10,1.4,16,M,,M,,*64
06/07/2014	00:04:53.239	$GPGGA,000502,2420.5842,N,08135.4675,W,1,10,1.4,16,M,,M,,*64
06/07/2014	00:04:54.277	$GPGGA,000503,2420.5846,N,08135.4675,W,1,10,1.4,16,M,,M,,*61
06/07/2014	00:04:55.245	$GPGGA,000504,2420.5853,N,08135.4674,W,1,10,1.4,16,M,,M,,*63
06/07/2014	00:04:56.267	$GPGGA,000505,2420.5859,N,08135.4675,W,1,10,1.4,16,M,,M,,*69
06/07/2014	00:04:57.240	$GPGGA,000506,2420.5864,N,08135.4673,W,1,10,1.4,16,M,,M,,*62
06/07/2014	00:04:58.272	$GPGGA,000507,2420.5870,N,08135.4672,W,1,10,1.4,16,M,,M,,*67
06/07/2014	00:04:59.265	$GPGGA,000508,2420.5876,N,08135.4671,W,1,10,1.4,16,M,,M,,*6D
06/07/2014	00:05:00.258	$GPGGA,000509,2420.5881,N,08135.4670,W,1,10,1.4,16,M,,M,,*65
06/07/2014	00:05:01.231	$GPGGA,000510,2420.5881,N,08135.4670,W,1,10,1.4,16,M,,M,,*6D
06/07/2014	00:05:02.273	$GPGGA,000511,2420.5892,N,08135.4667,W,1,10,1.4,16,M,,M,,*68
06/07/2014	00:05:03.285	$GPGGA,000512,2420.5898,N,08135.4668,W,1,10,1.4,16,M,,M,,*6E
06/07/2014	00:05:04.258	$GPGGA,000513,2420.5903,N,08135.4666,W,1,10,1.4,16,M,,M,,*62
06/07/2014	00:05:05.249	$GPGGA,000514,2420.5903,N,08135.4666,W,1,10,1.4,16,M,,M,,*65
06/07/2014	00:05:06.262	$GPGGA,000515,2420.5916,N,08135.4664,W,1,10,1.4,16,M,,M,,*62
06/07/2014	00:05:07.275	$GPGGA,000516,2420.5921,N,08135.4664,W,1,10,1.4,16,M,,M,,*65
06/07/2014	00:05:08.257	$GPGGA,000517,2420.5925,N,08135.4664,W,1,10,1.4,16,M,,M,,*60
06/07/2014	00:05:09.250	$GPGGA,000518,2420.5925,N,08135.4664,W,1,10,1.4,16,M,,M,,*6F
06/07/2014	00:05:10.283	$GPGGA,000519,2420.5939,N,08135.4664,W,1,10,1.8,16,M,,M,,*6F
06/07/2014	00:05:11.285	$GPGGA,000520,2420.5943,N,08135.4664,W,1,10,1.8,16,M,,M,,*68
06/07/2014	00:05:12.278	$GPGGA,000521,2420.5947,N,08135.4661,W,1,9,1.4,16,M,,M,,*5C
06/07/2014	00:05:13.250	$GPGGA,000522,2420.5947,N,08135.4661,W,1,9,1.4,16,M,,M,,*5F
06/07/2014	00:05:14.273	$GPGGA,000523,2420.5958,N,08135.4660,W,1,9,2.4,16,M,,M,,*52
06/07/2014	00:05:15.296	$GPGGA,000524,2420.5965,N,08135.4661,W,1,9,2.4,16,M,,M,,*5A
06/07/2014	00:05:16.258	$GPGGA,000525,2420.5968,N,08135.4662,W,1,8,2.4,16,M,,M,,*54
06/07/2014	00:05:17.281	$GPGGA,000526,2420.5968,N,08135.4662,W,1,8,1.8,16,M,,M,,*58
06/07/2014	00:05:18.273	$GPGGA,000527,2420.5979,N,08135.4662,W,1,9,1.8,17,M,,M,,*59
06/07/2014	00:05:19.266	$GPGGA,000528,2420.5979,N,08135.4662,W,1,9,1.8,17,M,,M,,*56
06/07/2014	00:05:20.268	$GPGGA,000529,2420.5988,N,08135.4664,W,1,10,1.4,17,M,,M,,*6B
06/07/2014	00:05:21.251	$GPGGA,000530,2420.5993,N,08135.4663,W,1,10,1.4,17,M,,M,,*6E
06/07/2014	00:05:22.284	$GPGGA,000531,2420.5999,N,08135.4662,W,1,10,1.7,17,M,,M,,*67
06/07/2014	00:05:23.315	$GPGGA,000532,2420.5999,N,08135.4662,W,1,10,1.7,17,M,,M,,*64
06/07/2014	00:05:24.348	$GPGGA,000533,2420.6008,N,08135.4664,W,1,10,1.4,17,M,,M,,*62
06/07/2014	00:05:25.351	$GPGGA,000534,2420.6015,N,08135.4663,W,1,10,1.4,17,M,,M,,*6E
06/07/2014	00:05:26.255	$GPGGA,000535,2420.6019,N,08135.4664,W,1,10,1.4,17,M,,M,,*64
06/07/2014	00:05:27.386	$GPGGA,000536,2420.6025,N,08135.4664,W,1,10,1.4,17,M,,M,,*68
06/07/2014	00:05:28.215	$GPGGA,000537,2420.6030,N,08135.4664,W,1,10,1.4,17,M,,M,,*6D
06/07/2014	00:05:29.196	$GPGGA,000538,2420.6036,N,08135.4664,W,1,10,1.8,17,M,,M,,*68
06/07/2014	00:05:30.210	$GPGGA,000539,2420.6041,N,08135.4665,W,1,9,1.8,17,M,,M,,*50
06/07/2014	00:05:31.122	$GPGGA,000540,2420.6048,N,08135.4665,W,1,9,2.4,17,M,,M,,*58
06/07/2014	00:05:32.234	$GPGGA,000541,2420.6053,N,08135.4664,W,1,8,2.4,17,M,,M,,*53
06/07/2014	00:05:33.196	$GPGGA,000542,2420.6055,N,08135.4663,W,1,8,1.4,17,M,,M,,*52
06/07/2014	00:05:34.209	$GPGGA,000543,2420.6061,N,08135.4662,W,1,10,1.4,18,M,,M,,*63
06/07/2014	00:05:35.212	$GPGGA,000544,2420.6065,N,08135.4661,W,1,10,1.4,18,M,,M,,*63
06/07/2014	00:05:36.194	$GPGGA,000545,2420.6069,N,08135.4660,W,1,10,1.4,18,M,,M,,*6F
06/07/2014	00:05:37.207	$GPGGA,000546,2420.6073,N,08135.4660,W,1,10,1.4,18,M,,M,,*67
06/07/2014	00:05:38.229	$GPGGA,000547,2420.6080,N,08135.4660,W,1,10,1.4,18,M,,M,,*6A
06/07/2014	00:05:39.222	$GPGGA,000548,2420.6084,N,08135.4660,W,1,10,1.4,18,M,,M,,*61
06/07/2014	00:05:40.224	$GPGGA,000549,2420.6090,N,08135.4660,W,1,10,1.4,18,M,,M,,*65
06/07/2014	00:05:41.206	$GPGGA,000550,2420.6095,N,08135.4661,W,1,10,1.4,18,M,,M,,*69
06/07/2014	00:05:42.229	$GPGGA,000551,2420.6102,N,08135.4662,W,1,9,1.8,18,M,,M,,*50
06/07/2014	00:05:43.221	$GPGGA,000552,2420.6109,N,08135.4664,W,1,9,1.8,18,M,,M,,*5E
06/07/2014	00:05:44.224	$GPGGA,000553,2420.6113,N,08135.4663,W,1,10,1.4,18,M,,M,,*67
06/07/2014	00:05:45.207	$GPGGA,000554,2420.6117,N,08135.4662,W,1,10,1.4,18,M,,M,,*65
06/07/2014	00:05:46.229	$GPGGA,000555,2420.6123,N,08135.4662,W,1,10,1.4,18,M,,M,,*63
06/07/2014	00:05:47.222	$GPGGA,000556,2420.6127,N,08135.4662,W,1,10,1.4,18,M,,M,,*64
06/07/2014	00:05:48.204	$GPGGA,000557,2420.6131,N,08135.4662,W,1,10,1.4,18,M,,M,,*62
06/07/2014	00:05:49.217	$GPGGA,000558,2420.6138,N,08135.4662,W,1,10,1.4,18,M,,M,,*64
06/07/2014	00:05:50.199	$GPGGA,000559,2420.6142,N,08135.4662,W,1,10,1.4,18,M,,M,,*68
06/07/2014	00:05:51.242	$GPGGA,000600,2420.6148,N,08135.4662,W,1,10,1.4,18,M,,M,,*6D
06/07/2014	00:05:52.215	$GPGGA,000601,2420.6152,N,08135.4662,W,1,10,1.4,18,M,,M,,*67
06/07/2014	00:05:53.217	$GPGGA,000602,2420.6156,N,08135.4664,W,1,10,1.4,18,M,,M,,*66
06/07/2014	00:05:54.250	$GPGGA,000603,2420.6162,N,08135.4664,W,1,10,1.4,18,M,,M,,*60
06/07/2014	00:05:55.222	$GPGGA,000604,2420.6167,N,08135.4664,W,1,10,1.4,18,M,,M,,*62
06/07/2014	00:05:56.225	$GPGGA,000605,2420.6171,N,08135.4664,W,1,10,1.4,18,M,,M,,*64
06/07/2014	00:05:57.229	$GPGGA,000606,2420.6177,N,08135.4665,W,1,10,1.4,18,M,,M,,*60
06/07/2014	00:05:58.239	$GPGGA,000607,2420.6181,N,08135.4667,W,1,10,1.4,18,M,,M,,*6A
06/07/2014	00:05:59.222	$GPGGA,000608,2420.6187,N,08135.4666,W,1,10,1.4,18,M,,M,,*62
06/07/2014	00:06:00.234	$GPGGA,000609,2420.6192,N,08135.4668,W,1,10,1.4,18,M,,M,,*69
06/07/2014	00:06:01.217	$GPGGA,000610,2420.6196,N,08135.4668,W,1,10,1.4,18,M,,M,,*65
06/07/2014	00:06:02.230	$GPGGA,000611,2420.6202,N,08135.4669,W,1,10,1.4,18,M,,M,,*6B
06/07/2014	00:06:03.242	$GPGGA,000612,2420.6207,N,08135.4669,W,1,10,1.4,18,M,,M,,*6D
06/07/2014	00:06:04.325	$GPGGA,000613,2420.6212,N,08135.4669,W,1,10,1.4,18,M,,M,,*68
06/07/2014	00:06:05.338	$GPGGA,000614,2420.6217,N,08135.4671,W,1,10,1.4,18,M,,M,,*63
06/07/2014	00:06:06.310	$GPGGA,000615,2420.6223,N,08135.4671,W,1,10,1.4,18,M,,M,,*65
06/07/2014	00:06:07.273	$GPGGA,000616,2420.6228,N,08135.4671,W,1,10,1.4,18,M,,M,,*6D
06/07/2014	00:06:08.215	$GPGGA,000617,2420.6232,N,08135.4672,W,1,10,1.4,18,M,,M,,*64
06/07/2014	00:06:09.219	$GPGGA,000618,2420.6238,N,08135.4673,W,1,10,1.4,18,M,,M,,*60
06/07/2014	00:06:10.240	$GPGGA,000619,2420.6243,N,08135.4675,W,1,10,1.4,18,M,,M,,*6B
06/07/2014	00:06:11.233	$GPGGA,000620,2420.6247,N,08135.4674,W,1,10,1.4,18,M,,M,,*64
06/07/2014	00:06:12.276	$GPGGA,000621,2420.6253,N,08135.4675,W,1,10,1.4,17,M,,M,,*6E
06/07/2014	00:06:13.218	$GPGGA,000622,2420.6257,N,08135.4676,W,1,10,1.4,17,M,,M,,*6A
06/07/2014	00:06:14.231	$GPGGA,000623,2420.6263,N,08135.4678,W,1,10,1.4,17,M,,M,,*62
06/07/2014	00:06:15.353	$GPGGA,000624,2420.6268,N,08135.4677,W,1,10,1.4,17,M,,M,,*61
06/07/2014	00:06:16.235	$GPGGA,000625,2420.6272,N,08135.4678,W,1,10,1.4,17,M,,M,,*64
06/07/2014	00:06:17.338	$GPGGA,000626,2420.6278,N,08135.4679,W,1,10,1.4,17,M,,M,,*6C
06/07/2014	00:06:18.230	$GPGGA,000627,2420.6283,N,08135.4680,W,1,10,1.4,17,M,,M,,*6F
06/07/2014	00:06:19.333	$GPGGA,000628,2420.6288,N,08135.4680,W,1,10,1.4,17,M,,M,,*6B
06/07/2014	00:06:20.326	$GPGGA,000629,2420.6293,N,08135.4682,W,1,10,1.4,17,M,,M,,*62
06/07/2014	00:06:21.328	$GPGGA,000630,2420.6297,N,08135.4683,W,1,10,1.4,17,M,,M,,*6F
06/07/2014	00:06:22.361	$GPGGA,000631,2420.6303,N,08135.4683,W,1,9,1.8,17,M,,M,,*56
06/07/2014	00:06:23.333	$GPGGA,000632,2420.6308,N,08135.4684,W,1,9,1.4,17,M,,M,,*55
06/07/2014	00:06:24.366	$GPGGA,000633,2420.6314,N,08135.4686,W,1,10,1.4,17,M,,M,,*63
06/07/2014	00:06:25.329	$GPGGA,000634,2420.6319,N,08135.4687,W,1,10,1.4,17,M,,M,,*68
06/07/2014	00:06:26.352	$GPGGA,000635,2420.6325,N,08135.4689,W,1,9,1.8,17,M,,M,,*5C
06/07/2014	00:06:27.334	$GPGGA,000636,2420.6329,N,08135.4690,W,1,9,1.8,17,M,,M,,*5B
06/07/2014	00:06:28.192	$GPGGA,000637,2420.6333,N,08135.4688,W,1,9,1.8,17,M,,M,,*58
06/07/2014	00:06:29.175	$GPGGA,000638,2420.6339,N,08135.4689,W,1,9,1.4,17,M,,M,,*50
06/07/2014	00:06:30.198	$GPGGA,000639,2420.6344,N,08135.4691,W,1,9,1.8,17,M,,M,,*5E
06/07/2014	00:06:31.190	$GPGGA,000640,2420.6350,N,08135.4693,W,1,9,1.8,17,M,,M,,*57
06/07/2014	00:06:32.173	$GPGGA,000641,2420.6355,N,08135.4694,W,1,9,1.8,17,M,,M,,*54
06/07/2014	00:06:33.174	$GPGGA,000642,2420.6358,N,08135.4692,W,1,9,1.8,16,M,,M,,*5D
06/07/2014	00:06:34.207	$GPGGA,000643,2420.6364,N,08135.4691,W,1,10,1.4,16,M,,M,,*64
06/07/2014	00:06:35.180	$GPGGA,000644,2420.6369,N,08135.4693,W,1,10,1.4,16,M,,M,,*6C
06/07/2014	00:06:36.192	$GPGGA,000645,2420.6373,N,08135.4696,W,1,9,1.8,16,M,,M,,*57
06/07/2014	00:06:37.185	$GPGGA,000646,2420.6379,N,08135.4694,W,1,9,1.4,16,M,,M,,*50
06/07/2014	00:06:38.187	$GPGGA,000647,2420.6384,N,08135.4696,W,1,10,1.4,16,M,,M,,*69
06/07/2014	00:06:39.200	$GPGGA,000648,2420.6387,N,08135.4697,W,1,10,1.4,16,M,,M,,*64
06/07/2014	00:06:40.203	$GPGGA,000649,2420.6393,N,08135.4697,W,1,10,1.4,16,M,,M,,*60
06/07/2014	00:06:41.185	$GPGGA,000650,2420.6397,N,08135.4696,W,1,10,1.4,16,M,,M,,*6D
06/07/2014	00:06:42.208	$GPGGA,000651,2420.6402,N,08135.4697,W,1,10,1.4,16,M,,M,,*66
06/07/2014	00:06:43.210	$GPGGA,000652,2420.6406,N,08135.4697,W,1,10,1.4,16,M,,M,,*61
06/07/2014	00:06:44.213	$GPGGA,000653,2420.6412,N,08135.4698,W,1,10,1.4,16,M,,M,,*6A
06/07/2014	00:06:45.185	$GPGGA,000654,2420.6416,N,08135.4700,W,1,10,1.4,16,M,,M,,*69
06/07/2014	00:06:46.579	$GPGGA,000655,2420.6422,N,08135.4699,W,1,10,1.4,16,M,,M,,*6E
06/07/2014	00:06:47.191	$GPGGA,000656,2420.6427,N,08135.4700,W,1,10,1.4,16,M,,M,,*69
06/07/2014	00:06:48.193	$GPGGA,000657,2420.6431,N,08135.4701,W,1,10,1.4,16,M,,M,,*6E
06/07/2014	00:06:49.196	$GPGGA,000658,2420.6437,N,08135.4702,W,1,10,1.4,16,M,,M,,*64
06/07/2014	00:06:50.197	$GPGGA,000659,2420.6441,N,08135.4702,W,1,10,1.4,15,M,,M,,*67
06/07/2014	00:06:51.210	$GPGGA,000700,2420.6447,N,08135.4704,W,1,10,1.4,15,M,,M,,*6A
06/07/2014	00:06:52.192	$GPGGA,000701,2420.6452,N,08135.4704,W,1,10,1.4,15,M,,M,,*6F
06/07/2014	00:06:53.306	$GPGGA,000702,2420.6456,N,08135.4705,W,1,10,1.4,15,M,,M,,*69
06/07/2014	00:06:54.182	$GPGGA,000703,2420.6462,N,08135.4707,W,1,10,1.4,15,M,,M,,*6D
06/07/2014	00:06:55.210	$GPGGA,000704,2420.6467,N,08135.4706,W,1,10,1.4,15,M,,M,,*6E
06/07/2014	00:06:56.185	$GPGGA,000705,2420.6471,N,08135.4707,W,1,10,1.4,15,M,,M,,*69
06/07/2014	00:06:57.198	$GPGGA,000706,2420.6478,N,08135.4708,W,1,10,1.4,15,M,,M,,*6C
06/07/2014	00:06:58.192	$GPGGA,000707,2420.6484,N,08135.4708,W,1,10,1.4,15,M,,M,,*6E
06/07/2014	00:06:59.321	$GPGGA,000708,2420.6488,N,08135.4711,W,1,10,1.4,15,M,,M,,*65
06/07/2014	00:07:00.213	$GPGGA,000709,2420.6494,N,08135.4711,W,1,10,1.4,15,M,,M,,*69
06/07/2014	00:07:01.213	$GPGGA,000710,2420.6499,N,08135.4711,W,1,10,1.4,15,M,,M,,*6C
06/07/2014	00:07:02.300	$GPGGA,000711,2420.6503,N,08135.4712,W,1,10,1.4,15,M,,M,,*6C
06/07/2014	00:07:03.212	$GPGGA,000712,2420.6509,N,08135.4714,W,1,10,1.4,15,M,,M,,*63
06/07/2014	00:07:04.312	$GPGGA,000713,2420.6514,N,08135.4713,W,1,10,1.4,15,M,,M,,*69
06/07/2014	00:07:05.211	$GPGGA,000714,2420.6520,N,08135.4715,W,1,10,1.4,15,M,,M,,*6F
06/07/2014	00:07:06.329	$GPGGA,000715,2420.6525,N,08135.4715,W,1,10,1.4,15,M,,M,,*6B
06/07/2014	00:07:07.304	$GPGGA,000716,2420.6530,N,08135.4716,W,1,10,1.4,15,M,,M,,*6F
06/07/2014	00:07:08.293	$GPGGA,000717,2420.6535,N,08135.4718,W,1,10,1.4,15,M,,M,,*65
06/07/2014	00:07:09.306	$GPGGA,000718,2420.6541,N,08135.4718,W,1,10,1.4,15,M,,M,,*69
06/07/2014	00:07:10.299	$GPGGA,000719,2420.6546,N,08135.4719,W,1,10,1.4,15,M,,M,,*6E
06/07/2014	00:07:11.315	$GPGGA,000720,2420.6550,N,08135.4720,W,1,10,1.4,15,M,,M,,*69
06/07/2014	00:07:12.304	$GPGGA,000721,2420.6556,N,08135.4722,W,1,10,1.4,15,M,,M,,*6C
06/07/2014	00:07:13.296	$GPGGA,000722,2420.6561,N,08135.4722,W,1,10,1.4,15,M,,M,,*6B
06/07/2014	00:07:14.299	$GPGGA,000723,2420.6566,N,08135.4723,W,1,10,1.4,15,M,,M,,*6C
06/07/2014	00:07:15.312	$GPGGA,000724,2420.6571,N,08135.4725,W,1,10,1.4,15,M,,M,,*6B
06/07/2014	00:07:16.304	$GPGGA,000725,2420.6577,N,08135.4725,W,1,10,1.4,15,M,,M,,*6C
06/07/2014	00:07:17.307	$GPGGA,000726,2420.6582,N,08135.4726,W,1,10,1.4,15,M,,M,,*66
06/07/2014	00:07:18.319	$GPGGA,000727,2420.6588,N,08135.4727,W,1,10,1.4,15,M,,M,,*6C
06/07/2014	00:07:19.322	$GPGGA,000728,2420.6593,N,08135.4729,W,1,10,1.4,14,M,,M,,*66
06/07/2014	00:07:20.325	$GPGGA,000729,2420.6597,N,08135.4730,W,1,10,1.4,14,M,,M,,*6B
06/07/2014	00:07:21.297	$GPGGA,000730,2420.6603,N,08135.4732,W,1,10,1.4,14,M,,M,,*6F
06/07/2014	00:07:22.350	$GPGGA,000731,2420.6608,N,08135.4733,W,1,10,1.4,14,M,,M,,*64
06/07/2014	00:07:23.312	$GPGGA,000732,2420.6613,N,08135.4733,W,1,10,1.4,14,M,,M,,*6D
06/07/2014	00:07:24.315	$GPGGA,000733,2420.6618,N,08135.4736,W,1,10,1.4,14,M,,M,,*62
06/07/2014	00:07:25.319	$GPGGA,000734,2420.6622,N,08135.4738,W,1,10,1.5,14,M,,M,,*63
06/07/2014	00:07:26.339	$GPGGA,000735,2420.6628,N,08135.4740,W,1,10,1.4,14,M,,M,,*66
06/07/2014	00:07:27.322	$GPGGA,000736,2420.6633,N,08135.4743,W,1,10,1.4,14,M,,M,,*6C
06/07/2014	00:07:28.180	$GPGGA,000737,2420.6637,N,08135.4743,W,1,10,1.4,14,M,,M,,*69
06/07/2014	00:07:29.173	$GPGGA,000738,2420.6643,N,08135.4744,W,1,10,1.4,14,M,,M,,*62
06/07/2014	00:07:30.186	$GPGGA,000739,2420.6647,N,08135.4744,W,1,10,1.4,14,M,,M,,*67
06/07/2014	00:07:31.178	$GPGGA,000740,2420.6653,N,08135.4745,W,1,10,1.4,14,M,,M,,*6D
06/07/2014	00:07:32.191	$GPGGA,000741,2420.6658,N,08135.4747,W,1,10,1.4,14,M,,M,,*65
06/07/2014	00:07:33.153	$GPGGA,000742,2420.6664,N,08135.4747,W,1,10,1.4,14,M,,M,,*69
06/07/2014	00:07:34.196	$GPGGA,000743,2420.6668,N,08135.4748,W,1,10,1.4,14,M,,M,,*6B
06/07/2014	00:07:35.179	$GPGGA,000744,2420.6673,N,08135.4749,W,1,10,1.4,14,M,,M,,*67
06/07/2014	00:07:36.161	$GPGGA,000745,2420.6678,N,08135.4749,W,1,10,1.4,14,M,,M,,*6D
06/07/2014	00:07:37.174	$GPGGA,000746,2420.6683,N,08135.4749,W,1,10,1.4,14,M,,M,,*6A
06/07/2014	00:07:38.186	$GPGGA,000747,2420.6687,N,08135.4751,W,1,10,1.4,14,M,,M,,*66
06/07/2014	00:07:39.180	$GPGGA,000748,2420.6693,N,08135.4750,W,1,10,1.4,14,M,,M,,*6D
06/07/2014	00:07:40.171	$GPGGA,000749,2420.6697,N,08135.4751,W,1,10,1.4,14,M,,M,,*69
06/07/2014	00:07:41.174	$GPGGA,000750,2420.6702,N,08135.4751,W,1,10,1.4,14,M,,M,,*6C
06/07/2014	00:07:42.267	$GPGGA,000751,2420.6705,N,08135.4751,W,1,10,1.4,14,M,,M,,*6A
06/07/2014	00:07:43.168	$GPGGA,000752,2420.6712,N,08135.4750,W,1,10,1.4,14,M,,M,,*6E
06/07/2014	00:07:44.181	$GPGGA,000753,2420.6716,N,08135.4751,W,1,10,1.4,14,M,,M,,*6A
06/07/2014	00:07:45.163	$GPGGA,000754,2420.6720,N,08135.4751,W,1,10,1.4,14,M,,M,,*68
06/07/2014	00:07:46.286	$GPGGA,000755,2420.6725,N,08135.4752,W,1,10,1.4,14,M,,M,,*6F
06/07/2014	00:07:47.179	$GPGGA,000756,2420.6729,N,08135.4752,W,1,10,1.5,14,M,,M,,*61
06/07/2014	00:07:48.302	$GPGGA,000757,2420.6733,N,08135.4754,W,1,10,1.4,14,M,,M,,*6C
06/07/2014	00:07:49.174	$GPGGA,000758,2420.6738,N,08135.4753,W,1,10,1.4,14,M,,M,,*6F
06/07/2014	00:07:50.297	$GPGGA,000759,2420.6741,N,08135.4754,W,1,10,1.4,14,M,,M,,*67
06/07/2014	00:07:51.199	$GPGGA,000800,2420.6745,N,08135.4756,W,1,10,1.7,14,M,,M,,*61
06/07/2014	00:07:52.283	$GPGGA,000801,2420.6749,N,08135.4756,W,1,10,1.4,14,M,,M,,*6F
06/07/2014	00:07:53.172	$GPGGA,000802,2420.6752,N,08135.4756,W,1,10,1.4,14,M,,M,,*66
06/07/2014	00:07:54.170	$GPGGA,000803,2420.6758,N,08135.4756,W,1,10,1.4,14,M,,M,,*6D
06/07/2014	00:07:55.281	$GPGGA,000804,2420.6762,N,08135.4756,W,1,10,1.4,14,M,,M,,*63
06/07/2014	00:07:56.185	$GPGGA,000805,2420.6766,N,08135.4758,W,1,10,1.4,14,M,,M,,*68
06/07/2014	00:07:57.277	$GPGGA,000806,2420.6770,N,08135.4757,W,1,10,1.4,14,M,,M,,*63
06/07/2014	00:07:58.297	$GPGGA,000807,2420.6774,N,08135.4756,W,1,10,1.4,14,M,,M,,*67
06/07/2014	00:07:59.283	$GPGGA,000808,2420.6778,N,08135.4756,W,1,10,1.4,14,M,,M,,*64
06/07/2014	00:08:00.292	$GPGGA,000809,2420.6783,N,08135.4756,W,1,10,1.4,14,M,,M,,*61
06/07/2014	00:08:01.274	$GPGGA,000810,2420.6787,N,08135.4756,W,1,10,1.4,14,M,,M,,*6D
06/07/2014	00:08:02.289	$GPGGA,000811,2420.6791,N,08135.4756,W,1,10,1.4,14,M,,M,,*6B
06/07/2014	00:08:03.293	$GPGGA,000812,2420.6796,N,08135.4755,W,1,10,1.4,14,M,,M,,*6C
06/07/2014	00:08:04.272	$GPGGA,000813,2420.6799,N,08135.4755,W,1,10,1.4,14,M,,M,,*62
06/07/2014	00:08:05.275	$GPGGA,000814,2420.6803,N,08135.4754,W,1,10,1.4,14,M,,M,,*68
06/07/2014	00:08:06.300	$GPGGA,000815,2420.6809,N,08135.4754,W,1,10,1.4,14,M,,M,,*63
06/07/2014	00:08:07.280	$GPGGA,000816,2420.6813,N,08135.4753,W,1,10,1.4,14,M,,M,,*6C
06/07/2014	00:08:08.292	$GPGGA,000817,2420.6817,N,08135.4754,W,1,10,1.4,14,M,,M,,*6E
06/07/2014	00:08:09.275	$GPGGA,000818,2420.6821,N,08135.4752,W,1,10,1.4,14,M,,M,,*62
06/07/2014	00:08:10.268	$GPGGA,000819,2420.6825,N,08135.4751,W,1,10,1.4,14,M,,M,,*64
06/07/2014	00:08:11.290	$GPGGA,000820,2420.6830,N,08135.4751,W,1,10,1.4,14,M,,M,,*6A
06/07/2014	00:08:12.293	$GPGGA,000821,2420.6834,N,08135.4751,W,1,10,1.4,14,M,,M,,*6F
06/07/2014	00:08:13.285	$GPGGA,000822,2420.6838,N,08135.4750,W,1,10,1.4,14,M,,M,,*61
06/07/2014	00:08:14.298	$GPGGA,000823,2420.6842,N,08135.4751,W,1,10,1.4,14,M,,M,,*6C
06/07/2014	00:08:15.291	$GPGGA,000824,2420.6846,N,08135.4749,W,1,10,1.4,14,M,,M,,*66
06/07/2014	00:08:16.303	$GPGGA,000825,2420.6850,N,08135.4748,W,1,10,1.4,14,M,,M,,*61
06/07/2014	00:08:17.276	$GPGGA,000826,2420.6855,N,08135.4747,W,1,10,1.4,14,M,,M,,*68
06/07/2014	00:08:18.297	$GPGGA,000827,2420.6859,N,08135.4747,W,1,10,1.4,14,M,,M,,*65
06/07/2014	00:08:19.290	$GPGGA,000828,2420.6863,N,08135.4747,W,1,10,1.4,14,M,,M,,*63
06/07/2014	00:08:20.313	$GPGGA,000829,2420.6867,N,08135.4746,W,1,10,1.4,14,M,,M,,*67
06/07/2014	00:08:21.275	$GPGGA,000830,2420.6871,N,08135.4745,W,1,10,1.4,14,M,,M,,*6B
06/07/2014	00:08:22.318	$GPGGA,000831,2420.6875,N,08135.4745,W,1,10,1.4,14,M,,M,,*6E
06/07/2014	00:08:23.290	$GPGGA,000832,2420.6879,N,08135.4744,W,1,10,1.4,14,M,,M,,*60
06/07/2014	00:08:24.313	$GPGGA,000833,2420.6882,N,08135.4743,W,1,10,1.4,14,M,,M,,*62
06/07/2014	00:08:25.275	$GPGGA,000834,2420.6886,N,08135.4742,W,1,10,1.4,14,M,,M,,*60
06/07/2014	00:08:26.308	$GPGGA,000835,2420.6890,N,08135.4743,W,1,10,1.4,14,M,,M,,*67
06/07/2014	00:08:27.291	$GPGGA,000836,2420.6895,N,08135.4741,W,1,10,1.4,14,M,,M,,*63
06/07/2014	00:08:28.130	$GPGGA,000837,2420.6899,N,08135.4739,W,1,10,1.4,14,M,,M,,*61
06/07/2014	00:08:29.141	$GPGGA,000838,2420.6903,N,08135.4740,W,1,10,1.4,14,M,,M,,*62
06/07/2014	00:08:30.184	$GPGGA,000839,2420.6907,N,08135.4738,W,1,10,1.4,14,M,,M,,*68
06/07/2014	00:08:31.156	$GPGGA,000840,2420.6911,N,08135.4737,W,1,10,1.4,14,M,,M,,*6E
06/07/2014	00:08:32.139	$GPGGA,000841,2420.6915,N,08135.4736,W,1,10,1.4,14,M,,M,,*6A
06/07/2014	00:08:33.141	$GPGGA,000842,2420.6918,N,08135.4735,W,1,10,1.4,14,M,,M,,*67
06/07/2014	00:08:34.234	$GPGGA,000843,2420.6922,N,08135.4734,W,1,10,1.4,14,M,,M,,*6E
06/07/2014	00:08:35.145	$GPGGA,000844,2420.6926,N,08135.4733,W,1,10,1.4,14,M,,M,,*6A
06/07/2014	00:08:36.158	$GPGGA,000845,2420.6931,N,08135.4733,W,1,10,1.4,14,M,,M,,*6D
06/07/2014	00:08:37.231	$GPGGA,000846,2420.6935,N,08135.4732,W,1,10,1.4,14,M,,M,,*6B
06/07/2014	00:08:38.264	$GPGGA,000847,2420.6939,N,08135.4731,W,1,10,1.4,14,M,,M,,*65
06/07/2014	00:08:39.156	$GPGGA,000848,2420.6943,N,08135.4732,W,1,10,1.4,14,M,,M,,*64
06/07/2014	00:08:40.158	$GPGGA,000849,2420.6947,N,08135.4729,W,1,10,1.4,14,M,,M,,*6B
06/07/2014	00:08:41.241	$GPGGA,000850,2420.6951,N,08135.4728,W,1,10,1.4,14,M,,M,,*65
06/07/2014	00:08:42.274	$GPGGA,000851,2420.6954,N,08135.4727,W,1,10,1.4,14,M,,M,,*6E
06/07/2014	00:08:43.266	$GPGGA,000852,2420.6958,N,08135.4726,W,1,10,1.4,14,M,,M,,*60
06/07/2014	00:08:44.249	$GPGGA,000853,2420.6962,N,08135.4725,W,1,10,1.4,14,M,,M,,*6B
06/07/2014	00:08:45.141	$GPGGA,000854,2420.6968,N,08135.4724,W,1,10,1.4,14,M,,M,,*67
06/07/2014	00:08:46.254	$GPGGA,000855,2420.6971,N,08135.4723,W,1,10,1.4,14,M,,M,,*69
06/07/2014	00:08:47.277	$GPGGA,000856,2420.6975,N,08135.4722,W,1,10,1.4,14,M,,M,,*6F
06/07/2014	00:08:48.251	$GPGGA,000857,2420.6979,N,08135.4721,W,1,10,1.4,14,M,,M,,*61
06/07/2014	00:08:49.265	$GPGGA,000858,2420.6983,N,08135.4720,W,1,10,1.4,14,M,,M,,*6A
06/07/2014	00:08:50.245	$GPGGA,000859,2420.6987,N,08135.4719,W,1,10,1.4,14,M,,M,,*65
06/07/2014	00:08:51.267	$GPGGA,000900,2420.6991,N,08135.4718,W,1,10,1.4,14,M,,M,,*6E
06/07/2014	00:08:52.265	$GPGGA,000901,2420.6994,N,08135.4718,W,1,10,1.4,14,M,,M,,*6A
06/07/2014	00:08:54.665	$GPGGA,000903,2420.7002,N,08135.4716,W,1,10,1.4,14,M,,M,,*61
06/07/2014	00:08:55.267	$GPGGA,000904,2420.7005,N,08135.4715,W,1,10,1.4,13,M,,M,,*65
06/07/2014	00:08:56.269	$GPGGA,000905,2420.7009,N,08135.4715,W,1,10,1.4,13,M,,M,,*68
06/07/2014	00:08:57.252	$GPGGA,000906,2420.7014,N,08135.4714,W,1,10,1.4,13,M,,M,,*66
06/07/2014	00:08:58.276	$GPGGA,000907,2420.7018,N,08135.4713,W,1,10,1.4,13,M,,M,,*6C
06/07/2014	00:08:59.267	$GPGGA,000908,2420.7020,N,08135.4712,W,1,10,1.4,13,M,,M,,*69
06/07/2014	00:09:00.270	$GPGGA,000909,2420.7025,N,08135.4711,W,1,10,1.4,13,M,,M,,*6E
06/07/2014	00:09:01.252	$GPGGA,000910,2420.7029,N,08135.4710,W,1,10,1.4,13,M,,M,,*6B
06/07/2014	00:09:02.275	$GPGGA,000911,2420.7033,N,08135.4711,W,1,10,1.4,13,M,,M,,*60
06/07/2014	00:09:03.277	$GPGGA,000912,2420.7036,N,08135.4709,W,1,10,1.4,13,M,,M,,*6F
06/07/2014	00:09:04.250	$GPGGA,000913,2420.7040,N,08135.4709,W,1,10,1.5,13,M,,M,,*6E
06/07/2014	00:09:05.263	$GPGGA,000914,2420.7043,N,08135.4709,W,1,10,1.4,13,M,,M,,*6B
06/07/2014	00:09:06.275	$GPGGA,000915,2420.7047,N,08135.4709,W,1,10,1.4,13,M,,M,,*6E
06/07/2014	00:09:07.268	$GPGGA,000916,2420.7051,N,08135.4711,W,1,10,1.4,13,M,,M,,*63
06/07/2014	00:09:08.250	$GPGGA,000917,2420.7054,N,08135.4710,W,1,10,1.4,13,M,,M,,*66
06/07/2014	00:09:09.263	$GPGGA,000918,2420.7058,N,08135.4711,W,1,10,1.4,13,M,,M,,*64
06/07/2014	00:09:10.285	$GPGGA,000919,2420.7061,N,08135.4710,W,1,10,1.4,13,M,,M,,*6E
06/07/2014	00:09:11.267	$GPGGA,000920,2420.7065,N,08135.4711,W,1,10,1.4,13,M,,M,,*61
06/07/2014	00:09:12.260	$GPGGA,000921,2420.7069,N,08135.4710,W,1,10,1.4,13,M,,M,,*6D
06/07/2014	00:09:13.262	$GPGGA,000922,2420.7072,N,08135.4709,W,1,10,1.4,13,M,,M,,*6C
06/07/2014	00:09:14.295	$GPGGA,000923,2420.7076,N,08135.4709,W,1,10,1.4,13,M,,M,,*69
06/07/2014	00:09:15.277	$GPGGA,000924,2420.7080,N,08135.4709,W,1,10,1.4,13,M,,M,,*67
06/07/2014	00:09:16.270	$GPGGA,000925,2420.7084,N,08135.4708,W,1,10,1.4,13,M,,M,,*63
06/07/2014	00:09:17.253	$GPGGA,000926,2420.7088,N,08135.4708,W,1,10,1.4,13,M,,M,,*6C
06/07/2014	00:09:18.265	$GPGGA,000927,2420.7092,N,08135.4708,W,1,10,1.4,13,M,,M,,*66
06/07/2014	00:09:19.288	$GPGGA,000928,2420.7095,N,08135.4707,W,1,10,1.4,13,M,,M,,*61
06/07/2014	00:09:20.290	$GPGGA,000929,2420.7099,N,08135.4706,W,1,10,1.4,13,M,,M,,*6D
06/07/2014	00:09:21.263	$GPGGA,000930,2420.7103,N,08135.4707,W,1,10,1.4,13,M,,M,,*66
06/07/2014	00:09:22.296	$GPGGA,000931,2420.7106,N,08135.4705,W,1,10,1.4,13,M,,M,,*60
06/07/2014	00:09:23.288	$GPGGA,000932,2420.7110,N,08135.4704,W,1,10,1.4,13,M,,M,,*65
06/07/2014	00:09:24.251	$GPGGA,000933,2420.7114,N,08135.4704,W,1,10,1.4,13,M,,M,,*60
06/07/2014	00:09:25.283	$GPGGA,000934,2420.7119,N,08135.4703,W,1,10,1.4,13,M,,M,,*6D
06/07/2014	00:09:26.266	$GPGGA,000935,2420.7123,N,08135.4702,W,1,10,1.4,13,M,,M,,*64
06/07/2014	00:09:27.398	$GPGGA,000936,2420.7127,N,08135.4702,W,1,10,1.4,13,M,,M,,*63
06/07/2014	00:09:28.123	$GPGGA,000937,2420.7130,N,08135.4701,W,1,10,1.4,13,M,,M,,*67
06/07/2014	00:09:29.228	$GPGGA,000938,2420.7135,N,08135.4701,W,1,10,1.4,13,M,,M,,*6D
06/07/2014	00:09:30.113	$GPGGA,000939,2420.7139,N,08135.4701,W,1,9,1.8,13,M,,M,,*54
06/07/2014	00:09:31.254	$GPGGA,000940,2420.7141,N,08135.4699,W,1,9,1.8,13,M,,M,,*55
06/07/2014	00:09:32.133	$GPGGA,000941,2420.7143,N,08135.4697,W,1,10,1.4,13,M,,M,,*6C
06/07/2014	00:09:33.208	$GPGGA,000942,2420.7146,N,08135.4696,W,1,10,1.4,13,M,,M,,*6B
06/07/2014	00:09:34.241	$GPGGA,000943,2420.7150,N,08135.4697,W,1,10,1.4,13,M,,M,,*6C
06/07/2014	00:09:35.224	$GPGGA,000944,2420.7153,N,08135.4691,W,1,10,1.4,13,M,,M,,*6E
06/07/2014	00:09:36.246	$GPGGA,000945,2420.7156,N,08135.4688,W,1,10,1.4,13,M,,M,,*62
06/07/2014	00:09:37.209	$GPGGA,000946,2420.7157,N,08135.4685,W,1,10,1.4,14,M,,M,,*6A
06/07/2014	00:09:38.211	$GPGGA,000947,2420.7160,N,08135.4686,W,1,10,1.4,14,M,,M,,*6C
06/07/2014	00:09:40.227	$GPGGA,000949,2420.7168,N,08135.4680,W,1,9,1.4,14,M,,M,,*54
06/07/2014	00:09:41.209	$GPGGA,000950,2420.7171,N,08135.4680,W,1,9,1.4,14,M,,M,,*54
06/07/2014	00:09:42.232	$GPGGA,000951,2420.7175,N,08135.4679,W,1,10,1.4,14,M,,M,,*6F
06/07/2014	00:09:43.234	$GPGGA,000952,2420.7178,N,08135.4677,W,1,10,1.4,14,M,,M,,*6F
06/07/2014	00:09:44.217	$GPGGA,000953,2420.7182,N,08135.4676,W,1,10,1.4,14,M,,M,,*6A
06/07/2014	00:09:45.219	$GPGGA,000954,2420.7186,N,08135.4676,W,1,10,1.4,14,M,,M,,*69
06/07/2014	00:09:46.241	$GPGGA,000955,2420.7189,N,08135.4675,W,1,10,1.4,14,M,,M,,*64
06/07/2014	00:09:47.264	$GPGGA,000956,2420.7193,N,08135.4674,W,1,10,1.4,15,M,,M,,*6C
06/07/2014	00:09:48.236	$GPGGA,000957,2420.7197,N,08135.4673,W,1,9,1.5,15,M,,M,,*57
06/07/2014	00:09:49.220	$GPGGA,000958,2420.7202,N,08135.4675,W,1,9,1.4,15,M,,M,,*50
06/07/2014	00:09:50.242	$GPGGA,000959,2420.7206,N,08135.4673,W,1,10,1.4,15,M,,M,,*6B
06/07/2014	00:09:51.244	$GPGGA,001000,2420.7210,N,08135.4672,W,1,10,1.4,15,M,,M,,*69
06/07/2014	00:09:52.260	$GPGGA,001001,2420.7214,N,08135.4672,W,1,10,1.4,15,M,,M,,*6C
06/07/2014	00:09:53.219	$GPGGA,001002,2420.7218,N,08135.4671,W,1,10,1.4,15,M,,M,,*60
06/07/2014	00:09:54.262	$GPGGA,001003,2420.7222,N,08135.4671,W,1,10,1.4,15,M,,M,,*68
06/07/2014	00:09:55.245	$GPGGA,001004,2420.7225,N,08135.4670,W,1,10,1.4,15,M,,M,,*69
06/07/2014	00:09:56.247	$GPGGA,001005,2420.7229,N,08135.4669,W,1,10,1.4,15,M,,M,,*6C
06/07/2014	00:09:57.230	$GPGGA,001006,2420.7233,N,08135.4671,W,1,10,1.5,15,M,,M,,*6C
06/07/2014	00:09:58.242	$GPGGA,001007,2420.7238,N,08135.4670,W,1,10,1.4,15,M,,M,,*66
06/07/2014	00:09:59.246	$GPGGA,001008,2420.7243,N,08135.4671,W,1,10,1.4,15,M,,M,,*64
06/07/2014	00:10:00.258	$GPGGA,001009,2420.7247,N,08135.4671,W,1,10,1.4,15,M,,M,,*61
06/07/2014	00:10:01.230	$GPGGA,001010,2420.7251,N,08135.4670,W,1,10,1.4,16,M,,M,,*6C
06/07/2014	00:10:02.263	$GPGGA,001011,2420.7254,N,08135.4669,W,1,10,1.4,16,M,,M,,*60
06/07/2014	00:10:03.254	$GPGGA,001012,2420.7260,N,08135.4669,W,1,10,1.4,16,M,,M,,*64
06/07/2014	00:10:04.267	$GPGGA,001013,2420.7264,N,08135.4668,W,1,10,1.4,16,M,,M,,*60
06/07/2014	00:10:05.229	$GPGGA,001014,2420.7268,N,08135.4668,W,1,10,1.4,16,M,,M,,*6B
06/07/2014	00:10:06.252	$GPGGA,001015,2420.7272,N,08135.4668,W,1,10,1.4,16,M,,M,,*61
06/07/2014	00:10:07.245	$GPGGA,001016,2420.7276,N,08135.4667,W,1,10,1.4,16,M,,M,,*69
06/07/2014	00:10:08.237	$GPGGA,001017,2420.7280,N,08135.4668,W,1,10,1.4,16,M,,M,,*6E
06/07/2014	00:10:09.250	$GPGGA,001018,2420.7283,N,08135.4667,W,1,10,1.4,16,M,,M,,*6D
06/07/2014	00:10:10.353	$GPGGA,001019,2420.7287,N,08135.4668,W,1,10,1.4,16,M,,M,,*67
06/07/2014	00:10:11.255	$GPGGA,001020,2420.7291,N,08135.4668,W,1,10,1.4,16,M,,M,,*6A
06/07/2014	00:10:12.248	$GPGGA,001021,2420.7296,N,08135.4668,W,1,10,1.4,16,M,,M,,*6C
06/07/2014	00:10:13.250	$GPGGA,001022,2420.7300,N,08135.4668,W,1,10,1.4,16,M,,M,,*61
06/07/2014	00:10:14.233	$GPGGA,001023,2420.7305,N,08135.4669,W,1,10,1.4,16,M,,M,,*64
06/07/2014	00:10:15.366	$GPGGA,001024,2420.7308,N,08135.4671,W,1,10,1.4,16,M,,M,,*67
06/07/2014	00:10:16.238	$GPGGA,001025,2420.7312,N,08135.4670,W,1,10,1.4,16,M,,M,,*6C
06/07/2014	00:10:17.231	$GPGGA,001026,2420.7316,N,08135.4671,W,1,10,1.4,16,M,,M,,*6A
06/07/2014	00:10:18.233	$GPGGA,001027,2420.7320,N,08135.4671,W,1,10,1.4,16,M,,M,,*6E
06/07/2014	00:10:19.246	$GPGGA,001028,2420.7325,N,08135.4672,W,1,10,1.4,16,M,,M,,*67
06/07/2014	00:10:20.247	$GPGGA,001029,2420.7329,N,08135.4672,W,1,10,1.4,16,M,,M,,*6A
06/07/2014	00:10:21.343	$GPGGA,001030,2420.7333,N,08135.4672,W,1,10,1.4,16,M,,M,,*69
06/07/2014	00:10:22.373	$GPGGA,001031,2420.7337,N,08135.4672,W,1,10,1.4,16,M,,M,,*6C
06/07/2014	00:10:23.355	$GPGGA,001032,2420.7341,N,08135.4673,W,1,10,1.4,16,M,,M,,*6F
06/07/2014	00:10:24.348	$GPGGA,001033,2420.7345,N,08135.4675,W,1,10,1.4,16,M,,M,,*6C
06/07/2014	00:10:25.241	$GPGGA,001034,2420.7350,N,08135.4675,W,1,10,1.4,16,M,,M,,*6F
06/07/2014	00:10:26.373	$GPGGA,001035,2420.7355,N,08135.4676,W,1,10,1.4,16,M,,M,,*68
06/07/2014	00:10:27.356	$GPGGA,001036,2420.7359,N,08135.4678,W,1,10,1.4,16,M,,M,,*69
06/07/2014	00:10:28.214	$GPGGA,001037,2420.7363,N,08135.4678,W,1,10,1.4,16,M,,M,,*61
06/07/2014	00:10:29.187	$GPGGA,001038,2420.7366,N,08135.4678,W,1,10,1.4,16,M,,M,,*6B
06/07/2014	00:10:30.180	$GPGGA,001039,2420.7372,N,08135.4678,W,1,10,1.4,16,M,,M,,*6F
06/07/2014	00:10:31.208	$GPGGA,001040,2420.7376,N,08135.4680,W,1,10,1.4,16,M,,M,,*62
06/07/2014	00:10:32.205	$GPGGA,001041,2420.7380,N,08135.4682,W,1,10,1.4,16,M,,M,,*68
06/07/2014	00:10:33.188	$GPGGA,001042,2420.7385,N,08135.4683,W,1,10,1.8,16,M,,M,,*63
06/07/2014	00:10:34.219	$GPGGA,001043,2420.7390,N,08135.4684,W,1,9,1.8,16,M,,M,,*59
06/07/2014	00:10:35.203	$GPGGA,001044,2420.7394,N,08135.4686,W,1,9,1.4,16,M,,M,,*54
06/07/2014	00:10:36.196	$GPGGA,001045,2420.7398,N,08135.4685,W,1,10,1.4,16,M,,M,,*62
06/07/2014	00:10:37.197	$GPGGA,001046,2420.7402,N,08135.4686,W,1,10,1.5,16,M,,M,,*67
06/07/2014	00:10:38.209	$GPGGA,001047,2420.7408,N,08135.4689,W,1,9,1.8,16,M,,M,,*56
06/07/2014	00:10:39.202	$GPGGA,001048,2420.7413,N,08135.4690,W,1,9,1.8,16,M,,M,,*5B
06/07/2014	00:10:40.215	$GPGGA,001049,2420.7417,N,08135.4691,W,1,9,1.8,16,M,,M,,*5F
06/07/2014	00:10:41.188	$GPGGA,001050,2420.7421,N,08135.4693,W,1,9,1.8,16,M,,M,,*50
06/07/2014	00:10:42.190	$GPGGA,001051,2420.7427,N,08135.4696,W,1,9,1.8,16,M,,M,,*52
06/07/2014	00:10:43.202	$GPGGA,001052,2420.7431,N,08135.4695,W,1,9,1.8,16,M,,M,,*55
06/07/2014	00:10:44.215	$GPGGA,001053,2420.7437,N,08135.4697,W,1,9,1.8,15,M,,M,,*53
06/07/2014	00:10:45.208	$GPGGA,001054,2420.7439,N,08135.4696,W,1,9,1.8,15,M,,M,,*5B
06/07/2014	00:10:46.190	$GPGGA,001055,2420.7442,N,08135.4693,W,1,10,1.4,15,M,,M,,*67
06/07/2014	00:10:47.223	$GPGGA,001056,2420.7448,N,08135.4694,W,1,10,1.4,15,M,,M,,*69
06/07/2014	00:10:48.195	$GPGGA,001057,2420.7452,N,08135.4697,W,1,9,1.8,15,M,,M,,*54
06/07/2014	00:10:49.208	$GPGGA,001058,2420.7453,N,08135.4694,W,1,9,1.8,15,M,,M,,*59
06/07/2014	00:10:50.241	$GPGGA,001059,2420.7459,N,08135.4697,W,1,10,1.4,15,M,,M,,*65
06/07/2014	00:10:51.213	$GPGGA,001100,2420.7464,N,08135.4697,W,1,10,1.8,15,M,,M,,*6A
06/07/2014	00:10:52.226	$GPGGA,001101,2420.7467,N,08135.4700,W,1,9,1.8,15,M,,M,,*5F
06/07/2014	00:10:53.218	$GPGGA,001102,2420.7473,N,08135.4704,W,1,9,1.8,15,M,,M,,*5D
06/07/2014	00:10:54.211	$GPGGA,001103,2420.7478,N,08135.4704,W,1,9,1.8,15,M,,M,,*57
06/07/2014	00:10:55.222	$GPGGA,001104,2420.7482,N,08135.4707,W,1,9,1.8,15,M,,M,,*56
06/07/2014	00:10:56.205	$GPGGA,001105,2420.7486,N,08135.4708,W,1,9,1.8,15,M,,M,,*5C
06/07/2014	00:10:57.218	$GPGGA,001106,2420.7489,N,08135.4705,W,1,9,1.8,15,M,,M,,*5D
06/07/2014	00:10:58.220	$GPGGA,001107,2420.7493,N,08135.4707,W,1,10,1.4,15,M,,M,,*61
06/07/2014	00:10:59.233	$GPGGA,001108,2420.7496,N,08135.4707,W,1,10,1.8,15,M,,M,,*67
06/07/2014	00:11:00.326	$GPGGA,001109,2420.7500,N,08135.4709,W,1,10,1.4,15,M,,M,,*6A
06/07/2014	00:11:01.208	$GPGGA,001110,2420.7506,N,08135.4715,W,1,10,2.1,15,M,,M,,*6F
06/07/2014	00:11:02.331	$GPGGA,001111,2420.7511,N,08135.4716,W,1,9,1.8,15,M,,M,,*59
06/07/2014	00:11:03.263	$GPGGA,001112,2420.7515,N,08135.4718,W,1,9,1.8,15,M,,M,,*50
06/07/2014	00:11:04.326	$GPGGA,001113,2420.7520,N,08135.4718,W,1,8,2.1,14,M,,M,,*5D
06/07/2014	00:11:05.207	$GPGGA,001114,2420.7522,N,08135.4715,W,1,8,1.8,14,M,,M,,*5F
06/07/2014	00:11:06.311	$GPGGA,001115,2420.7527,N,08135.4714,W,1,9,1.8,14,M,,M,,*5B
06/07/2014	00:11:07.211	$GPGGA,001116,2420.7531,N,08135.4713,W,1,9,1.8,14,M,,M,,*58
06/07/2014	00:11:08.225	$GPGGA,001117,2420.7535,N,08135.4715,W,1,9,1.8,14,M,,M,,*5B
06/07/2014	00:11:09.318	$GPGGA,001118,2420.7539,N,08135.4714,W,1,9,1.8,14,M,,M,,*59
06/07/2014	00:11:10.311	$GPGGA,001119,2420.7543,N,08135.4715,W,1,9,1.8,14,M,,M,,*54
06/07/2014	00:11:11.316	$GPGGA,001120,2420.7547,N,08135.4714,W,1,9,1.8,14,M,,M,,*5B
06/07/2014	00:11:12.308	$GPGGA,001121,2420.7551,N,08135.4715,W,1,9,1.8,14,M,,M,,*5C
06/07/2014	00:11:13.337	$GPGGA,001122,2420.7554,N,08135.4713,W,1,9,1.8,14,M,,M,,*5C
06/07/2014	00:11:14.340	$GPGGA,001123,2420.7558,N,08135.4715,W,1,10,1.4,14,M,,M,,*63
06/07/2014	00:11:15.332	$GPGGA,001124,2420.7562,N,08135.4716,W,1,10,1.4,14,M,,M,,*6E
06/07/2014	00:11:16.319	$GPGGA,001125,2420.7567,N,08135.4718,W,1,10,1.4,14,M,,M,,*64
06/07/2014	00:11:17.317	$GPGGA,001126,2420.7572,N,08135.4718,W,1,10,1.4,14,M,,M,,*63
06/07/2014	00:11:18.340	$GPGGA,001127,2420.7575,N,08135.4719,W,1,10,1.4,14,M,,M,,*64
06/07/2014	00:11:19.335	$GPGGA,001128,2420.7579,N,08135.4719,W,1,10,1.4,14,M,,M,,*67
06/07/2014	00:11:20.349	$GPGGA,001129,2420.7583,N,08135.4719,W,1,10,1.4,14,M,,M,,*63
06/07/2014	00:11:21.327	$GPGGA,001130,2420.7586,N,08135.4720,W,1,10,1.7,14,M,,M,,*67
06/07/2014	00:11:22.340	$GPGGA,001131,2420.7589,N,08135.4722,W,1,10,1.4,14,M,,M,,*68
06/07/2014	00:11:23.338	$GPGGA,001132,2420.7594,N,08135.4721,W,1,10,1.5,14,M,,M,,*65
06/07/2014	00:11:24.325	$GPGGA,001133,2420.7597,N,08135.4722,W,1,10,1.4,15,M,,M,,*64
06/07/2014	00:11:25.317	$GPGGA,001134,2420.7600,N,08135.4722,W,1,10,1.4,15,M,,M,,*6E
06/07/2014	00:11:26.330	$GPGGA,001135,2420.7604,N,08135.4722,W,1,10,1.4,15,M,,M,,*6B
06/07/2014	00:11:27.333	$GPGGA,001136,2420.7608,N,08135.4723,W,1,10,1.4,15,M,,M,,*65
06/07/2014	00:11:28.173	$GPGGA,001137,2420.7612,N,08135.4723,W,1,10,1.4,15,M,,M,,*6F
06/07/2014	00:11:29.175	$GPGGA,001138,2420.7615,N,08135.4725,W,1,10,1.4,15,M,,M,,*61
06/07/2014	00:11:30.186	$GPGGA,001139,2420.7619,N,08135.4725,W,1,10,1.4,15,M,,M,,*6C
06/07/2014	00:11:31.179	$GPGGA,001140,2420.7623,N,08135.4726,W,1,10,1.4,15,M,,M,,*68
06/07/2014	00:11:32.191	$GPGGA,001141,2420.7626,N,08135.4726,W,1,10,1.4,15,M,,M,,*6C
06/07/2014	00:11:33.164	$GPGGA,001142,2420.7630,N,08135.4727,W,1,10,1.4,15,M,,M,,*69
06/07/2014	00:11:34.187	$GPGGA,001143,2420.7634,N,08135.4729,W,1,10,1.4,15,M,,M,,*62
06/07/2014	00:11:35.189	$GPGGA,001144,2420.7639,N,08135.4729,W,1,10,1.4,15,M,,M,,*68
06/07/2014	00:11:36.161	$GPGGA,001145,2420.7643,N,08135.4730,W,1,10,1.4,15,M,,M,,*6C
06/07/2014	00:11:37.185	$GPGGA,001146,2420.7647,N,08135.4732,W,1,10,1.4,15,M,,M,,*69
06/07/2014	00:11:38.166	$GPGGA,001147,2420.7651,N,08135.4733,W,1,10,1.4,15,M,,M,,*6E
06/07/2014	00:11:39.189	$GPGGA,001148,2420.7654,N,08135.4733,W,1,10,1.4,16,M,,M,,*67
06/07/2014	00:11:40.181	$GPGGA,001149,2420.7658,N,08135.4734,W,1,10,1.4,16,M,,M,,*6D
06/07/2014	00:11:41.164	$GPGGA,001150,2420.7662,N,08135.4736,W,1,10,1.4,16,M,,M,,*6E
06/07/2014	00:11:42.177	$GPGGA,001151,2420.7666,N,08135.4735,W,1,10,1.4,16,M,,M,,*68
06/07/2014	00:11:43.189	$GPGGA,001152,2420.7670,N,08135.4737,W,1,10,1.4,16,M,,M,,*6E
