Software Version Number: 1	Data File Format Number: 1	Build Version Number: 1	Error Count Since VI Started: 0	Manufacturer: Raytheon	 Model Number: RayMarine 120	 S/N: 	 Cal Date: 	 Wind Direction Offset: 0.00	 Slope (M)1: 0.00	 Offset (B)1: 0.00	 Slope (M)2: 0.00	 Offset (B)2: 0.00	 Slope (M)3: 0.00	 Offset (B)3: 0.00	 Slope (M)4: 0.00	 Offset (B)4: 0.00	 Slope (M)5: 0.00	 Offset (B)5: 0.00	 Slope (M)6: 0.00	 Offset (B)6: 0.00
Computer Date	Computer Time	GGA String
05/29/2014	04:00:00.033	$GPGGA,035959,2557.5103,N,07943.4601,W,1,9,1.6,16,M,,M,,*52
05/29/2014	04:00:01.100	$GPGGA,040000,2557.5092,N,07943.4585,W,1,9,1.6,16,M,,M,,*53
05/29/2014	04:00:02.143	$GPGGA,040001,2557.5081,N,07943.4569,W,1,9,1.6,16,M,,M,,*52
05/29/2014	04:00:03.242	$GPGGA,040002,2557.5070,N,07943.4553,W,1,9,1.6,16,M,,M,,*56
05/29/2014	04:00:04.318	$GPGGA,040003,2557.5058,N,07943.4538,W,1,9,1.6,16,M,,M,,*50
05/29/2014	04:00:05.374	$GPGGA,040004,2557.5046,N,07943.4522,W,1,9,1.6,16,M,,M,,*53
05/29/2014	04:00:06.581	$GPGGA,040005,2557.5035,N,07943.4506,W,1,9,1.6,16,M,,M,,*50
05/29/2014	04:00:07.517	$GPGGA,040006,2557.5024,N,07943.4491,W,1,9,1.6,16,M,,M,,*5C
05/29/2014	04:00:08.723	$GPGGA,040007,2557.5013,N,07943.4476,W,1,9,1.6,16,M,,M,,*50
05/29/2014	04:00:09.693	$GPGGA,040008,2557.5002,N,07943.4461,W,1,9,1.6,16,M,,M,,*59
05/29/2014	04:00:10.844	$GPGGA,040009,2557.4991,N,07943.4446,W,1,9,1.6,16,M,,M,,*5F
05/29/2014	04:00:11.836	$GPGGA,040010,2557.4980,N,07943.4431,W,1,9,1.6,16,M,,M,,*57
05/29/2014	04:00:12.891	$GPGGA,040011,2557.4968,N,07943.4416,W,1,9,1.6,16,M,,M,,*55
05/29/2014	04:00:14.011	$GPGGA,040012,2557.4958,N,07943.4401,W,1,9,1.6,16,M,,M,,*53
05/29/2014	04:00:15.066	$GPGGA,040013,2557.4946,N,07943.4386,W,1,9,1.6,16,M,,M,,*55
05/29/2014	04:00:16.112	$GPGGA,040014,2557.4934,N,07943.4371,W,1,9,1.6,16,M,,M,,*5F
05/29/2014	04:00:17.198	$GPGGA,040015,2557.4922,N,07943.4356,W,1,9,1.6,16,M,,M,,*5C
05/29/2014	04:00:18.404	$GPGGA,040016,2557.4911,N,07943.4340,W,1,9,1.6,16,M,,M,,*58
05/29/2014	04:00:19.470	$GPGGA,040017,2557.4899,N,07943.4325,W,1,9,1.6,16,M,,M,,*5B
05/29/2014	04:00:20.515	$GPGGA,040018,2557.4887,N,07943.4309,W,1,9,1.6,16,M,,M,,*55
05/29/2014	04:00:21.623	$GPGGA,040019,2557.4876,N,07943.4293,W,1,9,1.6,16,M,,M,,*58
05/29/2014	04:00:22.700	$GPGGA,040020,2557.4865,N,07943.4278,W,1,9,1.6,16,M,,M,,*55
05/29/2014	04:00:23.745	$GPGGA,040021,2557.4854,N,07943.4264,W,1,9,1.6,16,M,,M,,*5B
05/29/2014	04:00:24.823	$GPGGA,040022,2557.4843,N,07943.4248,W,1,9,1.6,16,M,,M,,*50
05/29/2014	04:00:25.888	$GPGGA,040023,2557.4832,N,07943.4232,W,1,9,1.6,16,M,,M,,*5A
05/29/2014	04:00:26.986	$GPGGA,040024,2557.4821,N,07943.4217,W,1,9,1.6,16,M,,M,,*58
05/29/2014	04:00:28.074	$GPGGA,040025,2557.4809,N,07943.4202,W,1,9,1.6,16,M,,M,,*57
05/29/2014	04:00:29.119	$GPGGA,040026,2557.4798,N,07943.4185,W,1,9,1.6,16,M,,M,,*5F
05/29/2014	04:00:30.228	$GPGGA,040027,2557.4786,N,07943.4169,W,1,9,1.6,16,M,,M,,*53
05/29/2014	04:00:31.283	$GPGGA,040028,2557.4774,N,07943.4155,W,1,9,1.7,16,M,,M,,*5F
05/29/2014	04:00:32.349	$GPGGA,040029,2557.4764,N,07943.4139,W,1,9,1.6,16,M,,M,,*54
05/29/2014	04:00:33.427	$GPGGA,040030,2557.4753,N,07943.4122,W,1,9,1.6,16,M,,M,,*52
05/29/2014	04:00:34.515	$GPGGA,040031,2557.4742,N,07943.4107,W,1,8,1.7,16,M,,M,,*54
05/29/2014	04:00:35.591	$GPGGA,040032,2557.4732,N,07943.4091,W,1,8,1.6,15,M,,M,,*5C
05/29/2014	04:00:36.646	$GPGGA,040033,2557.4721,N,07943.4075,W,1,9,1.6,15,M,,M,,*54
05/29/2014	04:00:37.724	$GPGGA,040034,2557.4711,N,07943.4059,W,1,9,1.6,15,M,,M,,*5E
05/29/2014	04:00:38.832	$GPGGA,040035,2557.4699,N,07943.4044,W,1,8,1.7,15,M,,M,,*52
05/29/2014	04:00:39.876	$GPGGA,040036,2557.4689,N,07943.4028,W,1,8,1.7,15,M,,M,,*5A
05/29/2014	04:00:42.471	$GPGGA,040038,2557.4668,N,07943.3998,W,1,9,1.6,15,M,,M,,*5E
05/29/2014	04:00:43.086	$GPGGA,040039,2557.4659,N,07943.3982,W,1,9,1.6,15,M,,M,,*56
05/29/2014	04:00:39.563	$GPGGA,040040,2557.4648,N,07943.3966,W,1,9,1.6,15,M,,M,,*52
05/29/2014	04:00:40.670	$GPGGA,040041,2557.4637,N,07943.3950,W,1,8,1.7,15,M,,M,,*5E
05/29/2014	04:00:41.693	$GPGGA,040042,2557.4626,N,07943.3934,W,1,8,1.6,15,M,,M,,*5E
05/29/2014	04:00:42.780	$GPGGA,040043,2557.4616,N,07943.3918,W,1,9,1.6,15,M,,M,,*53
05/29/2014	04:00:43.868	$GPGGA,040044,2557.4606,N,07943.3902,W,1,9,1.6,15,M,,M,,*5E
05/29/2014	04:00:44.924	$GPGGA,040045,2557.4595,N,07943.3886,W,1,9,1.6,15,M,,M,,*5B
05/29/2014	04:00:46.011	$GPGGA,040046,2557.4585,N,07943.3870,W,1,9,1.6,15,M,,M,,*50
05/29/2014	04:00:47.120	$GPGGA,040047,2557.4576,N,07943.3854,W,1,9,1.6,15,M,,M,,*5B
05/29/2014	04:00:48.154	$GPGGA,040048,2557.4563,N,07943.3837,W,1,9,1.6,15,M,,M,,*55
05/29/2014	04:00:49.220	$GPGGA,040049,2557.4554,N,07943.3821,W,1,8,1.7,15,M,,M,,*57
05/29/2014	04:00:50.308	$GPGGA,040050,2557.4543,N,07943.3804,W,1,8,1.6,15,M,,M,,*5F
05/29/2014	04:00:51.385	$GPGGA,040051,2557.4531,N,07943.3788,W,1,9,1.6,15,M,,M,,*51
05/29/2014	04:00:52.472	$GPGGA,040052,2557.4521,N,07943.3773,W,1,9,1.6,15,M,,M,,*57
05/29/2014	04:00:53.561	$GPGGA,040053,2557.4511,N,07943.3756,W,1,9,1.6,15,M,,M,,*52
05/29/2014	04:00:54.593	$GPGGA,040054,2557.4501,N,07943.3741,W,1,9,1.6,15,M,,M,,*52
05/29/2014	04:00:55.681	$GPGGA,040055,2557.4491,N,07943.3725,W,1,9,1.6,15,M,,M,,*59
05/29/2014	04:00:56.768	$GPGGA,040056,2557.4480,N,07943.3708,W,1,9,1.6,15,M,,M,,*55
05/29/2014	04:00:57.916	$GPGGA,040057,2557.4469,N,07943.3692,W,1,9,1.6,15,M,,M,,*51
05/29/2014	04:00:58.900	$GPGGA,040058,2557.4460,N,07943.3677,W,1,9,1.7,15,M,,M,,*5D
05/29/2014	04:01:00.085	$GPGGA,040059,2557.4449,N,07943.3660,W,1,9,1.6,15,M,,M,,*50
05/29/2014	04:01:01.076	$GPGGA,040100,2557.4437,N,07943.3645,W,1,9,1.6,15,M,,M,,*53
05/29/2014	04:01:02.229	$GPGGA,040101,2557.4426,N,07943.3629,W,1,9,1.6,15,M,,M,,*58
05/29/2014	04:01:03.295	$GPGGA,040102,2557.4415,N,07943.3613,W,1,9,1.6,15,M,,M,,*52
05/29/2014	04:01:04.403	$GPGGA,040103,2557.4406,N,07943.3598,W,1,9,1.6,15,M,,M,,*51
05/29/2014	04:01:05.480	$GPGGA,040104,2557.4395,N,07943.3582,W,1,9,1.6,15,M,,M,,*50
05/29/2014	04:01:06.439	$GPGGA,040105,2557.4384,N,07943.3567,W,1,9,1.6,15,M,,M,,*5A
05/29/2014	04:01:07.591	$GPGGA,040106,2557.4374,N,07943.3552,W,1,9,1.6,15,M,,M,,*50
05/29/2014	04:01:08.668	$GPGGA,040107,2557.4364,N,07943.3536,W,1,9,1.6,15,M,,M,,*52
05/29/2014	04:01:09.659	$GPGGA,040108,2557.4353,N,07943.3521,W,1,9,1.6,15,M,,M,,*5F
05/29/2014	04:01:10.835	$GPGGA,040109,2557.4341,N,07943.3505,W,1,9,1.6,15,M,,M,,*5B
05/29/2014	04:01:11.802	$GPGGA,040110,2557.4330,N,07943.3489,W,1,9,1.6,15,M,,M,,*50
05/29/2014	04:01:13.007	$GPGGA,040111,2557.4319,N,07943.3473,W,1,9,1.6,15,M,,M,,*5F
05/29/2014	04:01:14.063	$GPGGA,040112,2557.4307,N,07943.3458,W,1,9,1.6,15,M,,M,,*5A
05/29/2014	04:01:15.128	$GPGGA,040113,2557.4297,N,07943.3442,W,1,9,1.6,15,M,,M,,*58
05/29/2014	04:01:16.206	$GPGGA,040114,2557.4287,N,07943.3426,W,1,9,1.6,15,M,,M,,*5C
05/29/2014	04:01:17.293	$GPGGA,040115,2557.4276,N,07943.3411,W,1,9,1.6,15,M,,M,,*57
05/29/2014	04:01:18.359	$GPGGA,040116,2557.4265,N,07943.3396,W,1,9,1.6,15,M,,M,,*5E
05/29/2014	04:01:19.436	$GPGGA,040117,2557.4255,N,07943.3380,W,1,9,1.6,15,M,,M,,*5B
05/29/2014	04:01:20.502	$GPGGA,040118,2557.4244,N,07943.3364,W,1,9,1.6,15,M,,M,,*5E
05/29/2014	04:01:21.590	$GPGGA,040119,2557.4231,N,07943.3349,W,1,9,1.6,15,M,,M,,*52
05/29/2014	04:01:22.667	$GPGGA,040120,2557.4220,N,07943.3332,W,1,9,1.6,15,M,,M,,*54
05/29/2014	04:01:23.711	$GPGGA,040121,2557.4208,N,07943.3316,W,1,9,1.6,15,M,,M,,*59
05/29/2014	04:01:24.799	$GPGGA,040122,2557.4196,N,07943.3301,W,1,9,1.6,15,M,,M,,*58
05/29/2014	04:01:25.865	$GPGGA,040123,2557.4185,N,07943.3285,W,1,9,1.6,15,M,,M,,*56
05/29/2014	04:01:26.953	$GPGGA,040124,2557.4173,N,07943.3270,W,1,9,1.6,15,M,,M,,*52
05/29/2014	04:01:28.041	$GPGGA,040125,2557.4164,N,07943.3255,W,1,9,1.6,15,M,,M,,*52
05/29/2014	04:01:29.096	$GPGGA,040126,2557.4151,N,07943.3240,W,1,9,1.6,15,M,,M,,*53
05/29/2014	04:01:30.183	$GPGGA,040127,2557.4142,N,07943.3224,W,1,9,1.6,15,M,,M,,*52
05/29/2014	04:01:31.260	$GPGGA,040128,2557.4129,N,07943.3208,W,1,9,1.6,15,M,,M,,*5E
05/29/2014	04:01:32.358	$GPGGA,040129,2557.4117,N,07943.3193,W,1,9,1.6,15,M,,M,,*53
05/29/2014	04:01:33.391	$GPGGA,040130,2557.4106,N,07943.3177,W,1,9,1.6,15,M,,M,,*51
05/29/2014	04:01:34.491	$GPGGA,040131,2557.4093,N,07943.3161,W,1,9,1.6,15,M,,M,,*5A
05/29/2014	04:01:35.556	$GPGGA,040132,2557.4081,N,07943.3146,W,1,9,1.6,15,M,,M,,*5F
05/29/2014	04:01:36.644	$GPGGA,040133,2557.4070,N,07943.3132,W,1,9,1.6,15,M,,M,,*53
05/29/2014	04:01:37.677	$GPGGA,040134,2557.4059,N,07943.3116,W,1,9,1.6,15,M,,M,,*59
05/29/2014	04:01:38.765	$GPGGA,040135,2557.4046,N,07943.3101,W,1,9,1.6,15,M,,M,,*50
05/29/2014	04:01:39.874	$GPGGA,040136,2557.4035,N,07943.3085,W,1,9,1.6,15,M,,M,,*5A
05/29/2014	04:01:40.908	$GPGGA,040137,2557.4023,N,07943.3070,W,1,9,1.6,15,M,,M,,*56
05/29/2014	04:01:42.007	$GPGGA,040138,2557.4012,N,07943.3054,W,1,9,1.6,15,M,,M,,*5D
05/29/2014	04:01:43.105	$GPGGA,040139,2557.4001,N,07943.3039,W,1,9,1.6,15,M,,M,,*55
05/29/2014	04:01:39.538	$GPGGA,040140,2557.3988,N,07943.3023,W,1,9,1.6,15,M,,M,,*5F
05/29/2014	04:01:40.625	$GPGGA,040141,2557.3977,N,07943.3007,W,1,9,1.6,15,M,,M,,*58
05/29/2014	04:01:41.681	$GPGGA,040142,2557.3966,N,07943.2991,W,1,9,1.6,15,M,,M,,*5C
05/29/2014	04:01:42.768	$GPGGA,040143,2557.3954,N,07943.2976,W,1,9,1.6,14,M,,M,,*54
05/29/2014	04:01:43.836	$GPGGA,040144,2557.3943,N,07943.2960,W,1,9,1.6,14,M,,M,,*52
05/29/2014	04:01:45.094	$GPGGA,040145,2557.3932,N,07943.2944,W,1,9,1.6,14,M,,M,,*53
05/29/2014	04:01:45.987	$GPGGA,040146,2557.3920,N,07943.2929,W,1,9,1.6,14,M,,M,,*58
05/29/2014	04:01:47.247	$GPGGA,040147,2557.3908,N,07943.2913,W,1,9,1.6,14,M,,M,,*5A
05/29/2014	04:01:48.141	$GPGGA,040148,2557.3897,N,07943.2896,W,1,9,1.6,14,M,,M,,*5E
05/29/2014	04:01:49.196	$GPGGA,040149,2557.3887,N,07943.2879,W,1,9,1.6,14,M,,M,,*5F
05/29/2014	04:01:50.370	$GPGGA,040150,2557.3876,N,07943.2863,W,1,9,1.6,14,M,,M,,*52
05/29/2014	04:01:51.339	$GPGGA,040151,2557.3865,N,07943.2848,W,1,9,1.6,14,M,,M,,*58
05/29/2014	04:01:52.427	$GPGGA,040152,2557.3855,N,07943.2831,W,1,9,1.6,14,M,,M,,*56
05/29/2014	04:01:53.494	$GPGGA,040153,2557.3843,N,07943.2815,W,1,9,1.6,14,M,,M,,*56
05/29/2014	04:01:54.733	$GPGGA,040154,2557.3832,N,07943.2798,W,1,9,1.6,14,M,,M,,*5D
05/29/2014	04:01:55.755	$GPGGA,040155,2557.3821,N,07943.2782,W,1,9,1.6,14,M,,M,,*55
05/29/2014	04:01:56.745	$GPGGA,040156,2557.3810,N,07943.2766,W,1,9,1.6,14,M,,M,,*5E
05/29/2014	04:01:57.995	$GPGGA,040157,2557.3799,N,07943.2749,W,1,8,1.6,14,M,,M,,*5D
05/29/2014	04:01:59.018	$GPGGA,040158,2557.3788,N,07943.2733,W,1,8,1.7,14,M,,M,,*5E
05/29/2014	04:02:00.138	$GPGGA,040159,2557.3778,N,07943.2717,W,1,9,1.7,14,M,,M,,*57
05/29/2014	04:02:01.195	$GPGGA,040200,2557.3767,N,07943.2701,W,1,9,1.7,14,M,,M,,*51
05/29/2014	04:02:02.313	$GPGGA,040201,2557.3756,N,07943.2685,W,1,9,1.7,14,M,,M,,*5F
05/29/2014	04:02:03.304	$GPGGA,040202,2557.3745,N,07943.2668,W,1,9,1.7,14,M,,M,,*5D
05/29/2014	04:02:04.444	$GPGGA,040203,2557.3734,N,07943.2651,W,1,9,1.7,14,M,,M,,*50
05/29/2014	04:02:05.478	$GPGGA,040204,2557.3723,N,07943.2636,W,1,9,1.7,14,M,,M,,*50
05/29/2014	04:02:06.620	$GPGGA,040205,2557.3713,N,07943.2619,W,1,9,1.7,14,M,,M,,*5F
05/29/2014	04:02:07.621	$GPGGA,040206,2557.3703,N,07943.2603,W,1,9,1.7,14,M,,M,,*56
05/29/2014	04:02:08.730	$GPGGA,040207,2557.3692,N,07943.2587,W,1,9,1.7,14,M,,M,,*51
05/29/2014	04:02:09.732	$GPGGA,040208,2557.3681,N,07943.2569,W,1,9,1.7,14,M,,M,,*5C
05/29/2014	04:02:10.916	$GPGGA,040209,2557.3671,N,07943.2553,W,1,9,1.7,14,M,,M,,*5B
05/29/2014	04:02:11.864	$GPGGA,040210,2557.3661,N,07943.2539,W,1,9,1.7,14,M,,M,,*5E
05/29/2014	04:02:13.059	$GPGGA,040211,2557.3651,N,07943.2522,W,1,9,1.7,14,M,,M,,*56
05/29/2014	04:02:14.061	$GPGGA,040212,2557.3640,N,07943.2506,W,1,9,1.7,14,M,,M,,*53
05/29/2014	04:02:15.181	$GPGGA,040213,2557.3629,N,07943.2490,W,1,9,1.7,14,M,,M,,*53
05/29/2014	04:02:16.204	$GPGGA,040214,2557.3617,N,07943.2472,W,1,9,1.7,14,M,,M,,*55
05/29/2014	04:02:17.367	$GPGGA,040215,2557.3606,N,07943.2457,W,1,8,1.7,14,M,,M,,*52
05/29/2014	04:02:18.358	$GPGGA,040216,2557.3597,N,07943.2442,W,1,8,1.7,14,M,,M,,*5E
05/29/2014	04:02:19.532	$GPGGA,040217,2557.3586,N,07943.2425,W,1,9,1.7,14,M,,M,,*5F
05/29/2014	04:02:20.502	$GPGGA,040218,2557.3577,N,07943.2410,W,1,9,1.7,14,M,,M,,*58
05/29/2014	04:02:21.664	$GPGGA,040219,2557.3566,N,07943.2396,W,1,9,1.7,14,M,,M,,*50
05/29/2014	04:02:22.622	$GPGGA,040220,2557.3555,N,07943.2380,W,1,9,1.7,14,M,,M,,*5D
05/29/2014	04:02:23.806	$GPGGA,040221,2557.3546,N,07943.2364,W,1,9,1.7,14,M,,M,,*54
05/29/2014	04:02:24.797	$GPGGA,040222,2557.3535,N,07943.2348,W,1,9,1.7,14,M,,M,,*5D
05/29/2014	04:02:25.970	$GPGGA,040223,2557.3524,N,07943.2333,W,1,9,1.7,14,M,,M,,*50
05/29/2014	04:02:26.983	$GPGGA,040224,2557.3514,N,07943.2317,W,1,9,1.7,14,M,,M,,*52
05/29/2014	04:02:28.113	$GPGGA,040225,2557.3504,N,07943.2302,W,1,9,1.7,14,M,,M,,*56
05/29/2014	04:02:29.061	$GPGGA,040226,2557.3493,N,07943.2286,W,1,9,1.7,14,M,,M,,*57
05/29/2014	04:02:30.256	$GPGGA,040227,2557.3482,N,07943.2270,W,1,9,1.7,14,M,,M,,*5F
05/29/2014	04:02:31.258	$GPGGA,040228,2557.3470,N,07943.2255,W,1,9,1.7,14,M,,M,,*5A
05/29/2014	04:02:32.378	$GPGGA,040229,2557.3458,N,07943.2239,W,1,9,1.7,14,M,,M,,*5B
05/29/2014	04:02:33.401	$GPGGA,040230,2557.3447,N,07943.2223,W,1,9,1.7,14,M,,M,,*56
05/29/2014	04:02:34.553	$GPGGA,040231,2557.3436,N,07943.2208,W,1,9,1.7,14,M,,M,,*58
05/29/2014	04:02:35.566	$GPGGA,040232,2557.3424,N,07943.2193,W,1,9,1.7,14,M,,M,,*59
05/29/2014	04:02:36.675	$GPGGA,040233,2557.3414,N,07943.2177,W,1,9,1.7,14,M,,M,,*51
05/29/2014	04:02:37.699	$GPGGA,040234,2557.3403,N,07943.2160,W,1,9,1.7,14,M,,M,,*56
05/29/2014	04:02:38.861	$GPGGA,040235,2557.3391,N,07943.2145,W,1,9,1.7,14,M,,M,,*5C
05/29/2014	04:02:39.862	$GPGGA,040236,2557.3380,N,07943.2129,W,1,9,1.7,14,M,,M,,*55
05/29/2014	04:02:41.036	$GPGGA,040237,2557.3369,N,07943.2113,W,1,9,1.7,14,M,,M,,*5A
05/29/2014	04:02:41.962	$GPGGA,040238,2557.3356,N,07943.2098,W,1,9,1.7,14,M,,M,,*5B
05/29/2014	04:02:43.038	$GPGGA,040239,2557.3344,N,07943.2082,W,1,9,1.7,14,M,,M,,*52
05/29/2014	04:02:39.643	$GPGGA,040240,2557.3333,N,07943.2066,W,1,9,1.7,14,M,,M,,*56
05/29/2014	04:02:40.679	$GPGGA,040241,2557.3322,N,07943.2050,W,1,9,1.7,14,M,,M,,*52
05/29/2014	04:02:41.765	$GPGGA,040242,2557.3309,N,07943.2035,W,1,9,1.7,14,M,,M,,*5B
05/29/2014	04:02:42.874	$GPGGA,040243,2557.3298,N,07943.2018,W,1,9,1.7,14,M,,M,,*5C
05/29/2014	04:02:43.940	$GPGGA,040244,2557.3287,N,07943.2003,W,1,9,1.7,14,M,,M,,*5F
05/29/2014	04:02:44.996	$GPGGA,040245,2557.3276,N,07943.1988,W,1,9,1.7,14,M,,M,,*59
05/29/2014	04:02:46.061	$GPGGA,040246,2557.3265,N,07943.1972,W,1,9,1.7,14,M,,M,,*5D
05/29/2014	04:02:47.160	$GPGGA,040247,2557.3254,N,07943.1956,W,1,9,1.7,14,M,,M,,*58
05/29/2014	04:02:48.226	$GPGGA,040248,2557.3242,N,07943.1941,W,1,9,1.7,14,M,,M,,*56
05/29/2014	04:02:49.281	$GPGGA,040249,2557.3232,N,07943.1925,W,1,9,1.7,14,M,,M,,*52
05/29/2014	04:02:50.358	$GPGGA,040250,2557.3219,N,07943.1908,W,1,9,1.7,14,M,,M,,*5C
05/29/2014	04:02:51.435	$GPGGA,040251,2557.3207,N,07943.1892,W,1,9,1.7,14,M,,M,,*50
05/29/2014	04:02:52.524	$GPGGA,040252,2557.3195,N,07943.1877,W,1,9,1.7,14,M,,M,,*50
05/29/2014	04:02:53.654	$GPGGA,040253,2557.3185,N,07943.1860,W,1,9,1.7,14,M,,M,,*56
05/29/2014	04:02:54.656	$GPGGA,040254,2557.3172,N,07943.1844,W,1,9,1.7,14,M,,M,,*5F
05/29/2014	04:02:55.807	$GPGGA,040255,2557.3160,N,07943.1829,W,1,9,1.7,14,M,,M,,*56
05/29/2014	04:02:56.808	$GPGGA,040256,2557.3149,N,07943.1811,W,1,9,1.7,14,M,,M,,*55
05/29/2014	04:02:57.906	$GPGGA,040257,2557.3138,N,07943.1795,W,1,9,1.7,14,M,,M,,*51
05/29/2014	04:02:58.951	$GPGGA,040258,2557.3127,N,07943.1781,W,1,9,1.7,14,M,,M,,*55
05/29/2014	04:03:00.092	$GPGGA,040259,2557.3116,N,07943.1765,W,1,9,1.7,14,M,,M,,*5C
05/29/2014	04:03:01.126	$GPGGA,040300,2557.3105,N,07943.1748,W,1,9,1.7,14,M,,M,,*5C
05/29/2014	04:03:02.214	$GPGGA,040301,2557.3093,N,07943.1734,W,1,9,1.7,14,M,,M,,*58
05/29/2014	04:03:03.237	$GPGGA,040302,2557.3081,N,07943.1718,W,1,9,1.7,14,M,,M,,*56
05/29/2014	04:03:04.346	$GPGGA,040303,2557.3081,N,07943.1718,W,1,9,1.7,14,M,,M,,*57
05/29/2014	04:03:05.423	$GPGGA,040304,2557.3071,N,07943.1702,W,1,9,1.7,14,M,,M,,*54
05/29/2014	04:03:06.532	$GPGGA,040305,2557.3047,N,07943.1671,W,1,9,1.7,14,M,,M,,*55
05/29/2014	04:03:07.555	$GPGGA,040306,2557.3036,N,07943.1655,W,1,9,1.7,14,M,,M,,*56
05/29/2014	04:03:08.675	$GPGGA,040307,2557.3026,N,07943.1640,W,1,9,1.7,14,M,,M,,*52
05/29/2014	04:03:09.720	$GPGGA,040308,2557.3013,N,07943.1624,W,1,9,1.7,14,M,,M,,*59
05/29/2014	04:03:10.808	$GPGGA,040309,2557.3013,N,07943.1624,W,1,9,1.7,14,M,,M,,*58
05/29/2014	04:03:11.875	$GPGGA,040310,2557.2991,N,07943.1593,W,1,9,1.7,14,M,,M,,*5D
05/29/2014	04:03:12.983	$GPGGA,040311,2557.2980,N,07943.1577,W,1,9,1.7,14,M,,M,,*56
05/29/2014	04:03:14.029	$GPGGA,040312,2557.2968,N,07943.1560,W,1,9,1.7,14,M,,M,,*55
05/29/2014	04:03:15.104	$GPGGA,040313,2557.2968,N,07943.1560,W,1,8,1.7,14,M,,M,,*55
05/29/2014	04:03:16.159	$GPGGA,040314,2557.2945,N,07943.1528,W,1,8,1.7,14,M,,M,,*51
05/29/2014	04:03:17.236	$GPGGA,040315,2557.2945,N,07943.1528,W,1,9,1.7,14,M,,M,,*51
05/29/2014	04:03:18.312	$GPGGA,040316,2557.2923,N,07943.1497,W,1,9,1.7,14,M,,M,,*57
05/29/2014	04:03:19.443	$GPGGA,040317,2557.2912,N,07943.1481,W,1,9,1.7,14,M,,M,,*53
05/29/2014	04:03:20.445	$GPGGA,040318,2557.2901,N,07943.1466,W,1,9,1.7,14,M,,M,,*57
05/29/2014	04:03:21.543	$GPGGA,040319,2557.2901,N,07943.1466,W,1,9,1.7,14,M,,M,,*56
05/29/2014	04:03:22.633	$GPGGA,040320,2557.2879,N,07943.1433,W,1,9,1.7,14,M,,M,,*52
05/29/2014	04:03:23.697	$GPGGA,040321,2557.2879,N,07943.1433,W,1,9,1.7,14,M,,M,,*53
05/29/2014	04:03:24.752	$GPGGA,040322,2557.2856,N,07943.1402,W,1,9,1.7,14,M,,M,,*5F
05/29/2014	04:03:25.895	$GPGGA,040323,2557.2856,N,07943.1402,W,1,9,1.7,14,M,,M,,*5E
05/29/2014	04:03:26.917	$GPGGA,040324,2557.2834,N,07943.1370,W,1,9,1.7,14,M,,M,,*5F
05/29/2014	04:03:27.995	$GPGGA,040325,2557.2834,N,07943.1370,W,1,9,1.7,14,M,,M,,*5E
05/29/2014	04:03:29.038	$GPGGA,040326,2557.2811,N,07943.1339,W,1,9,1.7,14,M,,M,,*57
05/29/2014	04:03:30.127	$GPGGA,040327,2557.2811,N,07943.1339,W,1,9,1.7,14,M,,M,,*56
05/29/2014	04:03:31.311	$GPGGA,040328,2557.2788,N,07943.1306,W,1,9,1.7,14,M,,M,,*5A
05/29/2014	04:03:32.409	$GPGGA,040329,2557.2778,N,07943.1291,W,1,8,1.7,14,M,,M,,*5A
05/29/2014	04:03:33.443	$GPGGA,040330,2557.2767,N,07943.1274,W,1,8,1.7,14,M,,M,,*57
05/29/2014	04:03:34.562	$GPGGA,040331,2557.2756,N,07943.1258,W,1,9,1.7,14,M,,M,,*5B
05/29/2014	04:03:35.509	$GPGGA,040332,2557.2744,N,07943.1242,W,1,9,1.7,14,M,,M,,*50
05/29/2014	04:03:36.673	$GPGGA,040333,2557.2733,N,07943.1225,W,1,8,1.7,14,M,,M,,*51
05/29/2014	04:03:37.642	$GPGGA,040334,2557.2721,N,07943.1208,W,1,8,1.7,14,M,,M,,*5A
05/29/2014	04:03:38.826	$GPGGA,040335,2557.2712,N,07943.1194,W,1,8,1.7,14,M,,M,,*5D
05/29/2014	04:03:39.914	$GPGGA,040336,2557.2701,N,07943.1178,W,1,8,1.7,14,M,,M,,*5E
05/29/2014	04:03:40.991	$GPGGA,040337,2557.2690,N,07943.1162,W,1,8,1.7,14,M,,M,,*5D
05/29/2014	04:03:42.046	$GPGGA,040338,2557.2677,N,07943.1145,W,1,8,1.7,14,M,,M,,*5E
05/29/2014	04:03:43.134	$GPGGA,040339,2557.2668,N,07943.1129,W,1,9,1.7,14,M,,M,,*5A
05/29/2014	04:03:39.599	$GPGGA,040340,2557.2655,N,07943.1113,W,1,9,1.7,14,M,,M,,*53
05/29/2014	04:03:40.676	$GPGGA,040341,2557.2644,N,07943.1096,W,1,9,1.7,13,M,,M,,*59
05/29/2014	04:03:41.742	$GPGGA,040342,2557.2633,N,07943.1079,W,1,9,1.7,13,M,,M,,*5B
05/29/2014	04:03:42.830	$GPGGA,040343,2557.2622,N,07943.1062,W,1,9,1.7,13,M,,M,,*50
05/29/2014	04:03:43.918	$GPGGA,040344,2557.2611,N,07943.1046,W,1,9,1.7,13,M,,M,,*51
05/29/2014	04:03:44.952	$GPGGA,040345,2557.2599,N,07943.1030,W,1,9,1.7,13,M,,M,,*52
05/29/2014	04:03:46.040	$GPGGA,040346,2557.2589,N,07943.1013,W,1,9,1.7,13,M,,M,,*51
05/29/2014	04:03:47.126	$GPGGA,040347,2557.2578,N,07943.0996,W,1,9,1.7,13,M,,M,,*5B
05/29/2014	04:03:48.176	$GPGGA,040348,2557.2565,N,07943.0980,W,1,9,1.7,13,M,,M,,*5F
05/29/2014	04:03:49.215	$GPGGA,040349,2557.2554,N,07943.0963,W,1,9,1.7,13,M,,M,,*51
05/29/2014	04:03:50.214	$GPGGA,040350,2557.2543,N,07943.0947,W,1,9,1.7,13,M,,M,,*59
05/29/2014	04:03:51.265	$GPGGA,040351,2557.2531,N,07943.0931,W,1,9,1.7,13,M,,M,,*5C
05/29/2014	04:03:52.282	$GPGGA,040352,2557.2520,N,07943.0914,W,1,9,1.7,13,M,,M,,*58
05/29/2014	04:03:53.291	$GPGGA,040353,2557.2509,N,07943.0897,W,1,9,1.7,13,M,,M,,*58
05/29/2014	04:03:54.321	$GPGGA,040354,2557.2497,N,07943.0881,W,1,9,1.7,13,M,,M,,*5E
05/29/2014	04:03:55.370	$GPGGA,040355,2557.2487,N,07943.0864,W,1,8,1.7,13,M,,M,,*54
05/29/2014	04:03:56.390	$GPGGA,040356,2557.2475,N,07943.0847,W,1,8,1.7,13,M,,M,,*5B
05/29/2014	04:03:57.418	$GPGGA,040357,2557.2462,N,07943.0831,W,1,8,1.7,13,M,,M,,*5D
05/29/2014	04:03:58.447	$GPGGA,040358,2557.2451,N,07943.0814,W,1,8,1.7,13,M,,M,,*55
05/29/2014	04:03:59.456	$GPGGA,040359,2557.2439,N,07943.0798,W,1,8,1.7,13,M,,M,,*51
05/29/2014	04:04:00.516	$GPGGA,040400,2557.2428,N,07943.0783,W,1,8,1.7,13,M,,M,,*50
05/29/2014	04:04:01.514	$GPGGA,040401,2557.2417,N,07943.0766,W,1,9,1.7,13,M,,M,,*57
05/29/2014	04:04:02.544	$GPGGA,040402,2557.2406,N,07943.0750,W,1,9,1.7,13,M,,M,,*51
05/29/2014	04:04:03.583	$GPGGA,040403,2557.2393,N,07943.0734,W,1,8,1.7,13,M,,M,,*58
05/29/2014	04:04:04.633	$GPGGA,040404,2557.2383,N,07943.0718,W,1,8,1.7,13,M,,M,,*50
05/29/2014	04:04:05.755	$GPGGA,040405,2557.2372,N,07943.0701,W,1,9,1.7,13,M,,M,,*56
05/29/2014	04:04:06.659	$GPGGA,040406,2557.2359,N,07943.0685,W,1,9,1.7,13,M,,M,,*51
05/29/2014	04:04:07.709	$GPGGA,040407,2557.2347,N,07943.0669,W,1,9,1.7,13,M,,M,,*5D
05/29/2014	04:04:08.728	$GPGGA,040408,2557.2336,N,07943.0653,W,1,9,1.7,13,M,,M,,*5D
05/29/2014	04:04:09.747	$GPGGA,040409,2557.2325,N,07943.0636,W,1,9,1.7,13,M,,M,,*5D
05/29/2014	04:04:10.756	$GPGGA,040410,2557.2314,N,07943.0620,W,1,9,1.7,13,M,,M,,*50
05/29/2014	04:04:11.898	$GPGGA,040411,2557.2303,N,07943.0605,W,1,9,1.7,13,M,,M,,*50
05/29/2014	04:04:12.836	$GPGGA,040412,2557.2290,N,07943.0589,W,1,9,1.7,13,M,,M,,*5F
05/29/2014	04:04:13.864	$GPGGA,040413,2557.2279,N,07943.0573,W,1,9,1.7,13,M,,M,,*5C
05/29/2014	04:04:14.862	$GPGGA,040414,2557.2268,N,07943.0557,W,1,9,1.7,13,M,,M,,*5D
05/29/2014	04:04:15.922	$GPGGA,040415,2557.2256,N,07943.0542,W,1,9,1.7,13,M,,M,,*55
05/29/2014	04:04:16.941	$GPGGA,040416,2557.2245,N,07943.0526,W,1,9,1.7,13,M,,M,,*56
05/29/2014	04:04:18.053	$GPGGA,040417,2557.2234,N,07943.0510,W,1,9,1.7,13,M,,M,,*54
05/29/2014	04:04:18.999	$GPGGA,040418,2557.2222,N,07943.0494,W,1,9,1.7,13,M,,M,,*51
05/29/2014	04:04:20.101	$GPGGA,040419,2557.2211,N,07943.0479,W,1,9,1.7,13,M,,M,,*53
05/29/2014	04:04:21.140	$GPGGA,040420,2557.2200,N,07943.0463,W,1,9,1.7,13,M,,M,,*52
05/29/2014	04:04:22.159	$GPGGA,040421,2557.2188,N,07943.0448,W,1,9,1.7,13,M,,M,,*59
05/29/2014	04:04:23.179	$GPGGA,040422,2557.2175,N,07943.0432,W,1,9,1.7,13,M,,M,,*55
05/29/2014	04:04:24.206	$GPGGA,040423,2557.2163,N,07943.0416,W,1,9,1.7,13,M,,M,,*55
05/29/2014	04:04:25.256	$GPGGA,040424,2557.2151,N,07943.0401,W,1,9,1.7,13,M,,M,,*55
05/29/2014	04:04:26.275	$GPGGA,040425,2557.2139,N,07943.0385,W,1,9,1.7,13,M,,M,,*51
05/29/2014	04:04:27.294	$GPGGA,040426,2557.2127,N,07943.0370,W,1,9,1.7,13,M,,M,,*57
05/29/2014	04:04:28.344	$GPGGA,040427,2557.2115,N,07943.0354,W,1,9,1.7,13,M,,M,,*51
05/29/2014	04:04:29.363	$GPGGA,040428,2557.2103,N,07943.0338,W,1,9,1.7,13,M,,M,,*53
05/29/2014	04:04:30.393	$GPGGA,040429,2557.2091,N,07943.0323,W,1,9,1.7,13,M,,M,,*52
05/29/2014	04:04:31.411	$GPGGA,040430,2557.2079,N,07943.0308,W,1,9,1.7,13,M,,M,,*55
05/29/2014	04:04:32.419	$GPGGA,040431,2557.2067,N,07943.0293,W,1,9,1.7,13,M,,M,,*58
05/29/2014	04:04:33.481	$GPGGA,040432,2557.2055,N,07943.0277,W,1,9,1.7,13,M,,M,,*50
05/29/2014	04:04:34.498	$GPGGA,040433,2557.2043,N,07943.0261,W,1,9,1.7,13,M,,M,,*51
05/29/2014	04:04:35.517	$GPGGA,040434,2557.2031,N,07943.0246,W,1,9,1.7,13,M,,M,,*56
05/29/2014	04:04:36.526	$GPGGA,040435,2557.2018,N,07943.0231,W,1,9,1.7,13,M,,M,,*5C
05/29/2014	04:04:37.576	$GPGGA,040436,2557.2007,N,07943.0216,W,1,9,1.7,13,M,,M,,*54
05/29/2014	04:04:38.628	$GPGGA,040437,2557.1994,N,07943.0200,W,1,9,1.7,13,M,,M,,*52
05/29/2014	04:04:39.624	$GPGGA,040438,2557.1983,N,07943.0185,W,1,9,1.7,13,M,,M,,*55
05/29/2014	04:04:40.642	$GPGGA,040439,2557.1971,N,07943.0170,W,1,9,1.7,13,M,,M,,*53
05/29/2014	04:04:39.560	$GPGGA,040440,2557.1960,N,07943.0155,W,1,9,1.7,13,M,,M,,*5A
05/29/2014	04:04:40.558	$GPGGA,040441,2557.1947,N,07943.0139,W,1,9,1.7,13,M,,M,,*54
05/29/2014	04:04:41.597	$GPGGA,040442,2557.1935,N,07943.0124,W,1,9,1.7,13,M,,M,,*5E
05/29/2014	04:04:42.657	$GPGGA,040443,2557.1924,N,07943.0109,W,1,9,1.7,13,M,,M,,*50
05/29/2014	04:04:43.667	$GPGGA,040444,2557.1911,N,07943.0094,W,1,9,1.7,13,M,,M,,*54
05/29/2014	04:04:44.674	$GPGGA,040445,2557.1899,N,07943.0078,W,1,9,1.7,13,M,,M,,*56
05/29/2014	04:04:45.714	$GPGGA,040446,2557.1888,N,07943.0063,W,1,9,1.7,13,M,,M,,*5F
05/29/2014	04:04:46.722	$GPGGA,040447,2557.1875,N,07943.0048,W,1,9,1.7,13,M,,M,,*55
05/29/2014	04:04:47.772	$GPGGA,040448,2557.1863,N,07943.0032,W,1,9,1.7,13,M,,M,,*50
05/29/2014	04:04:48.791	$GPGGA,040449,2557.1850,N,07943.0017,W,1,9,1.7,13,M,,M,,*56
05/29/2014	04:04:49.820	$GPGGA,040450,2557.1838,N,07943.0003,W,1,9,1.7,13,M,,M,,*55
05/29/2014	04:04:50.860	$GPGGA,040451,2557.1826,N,07942.9986,W,1,9,1.7,13,M,,M,,*57
05/29/2014	04:04:51.889	$GPGGA,040452,2557.1814,N,07942.9972,W,1,9,1.7,13,M,,M,,*5E
05/29/2014	04:04:52.908	$GPGGA,040453,2557.1801,N,07942.9957,W,1,9,1.7,13,M,,M,,*5C
05/29/2014	04:04:53.937	$GPGGA,040454,2557.1790,N,07942.9940,W,1,9,1.7,13,M,,M,,*5A
05/29/2014	04:04:54.946	$GPGGA,040455,2557.1777,N,07942.9924,W,1,9,1.7,13,M,,M,,*50
05/29/2014	04:04:55.996	$GPGGA,040456,2557.1765,N,07942.9908,W,1,9,1.7,13,M,,M,,*5E
05/29/2014	04:04:57.025	$GPGGA,040457,2557.1754,N,07942.9892,W,1,8,1.7,13,M,,M,,*5E
05/29/2014	04:04:58.022	$GPGGA,040458,2557.1741,N,07942.9876,W,1,8,1.7,13,M,,M,,*5F
05/29/2014	04:04:59.164	$GPGGA,040459,2557.1730,N,07942.9860,W,1,9,1.7,13,M,,M,,*5E
05/29/2014	04:05:00.111	$GPGGA,040500,2557.1719,N,07942.9844,W,1,9,1.7,13,M,,M,,*5E
05/29/2014	04:05:01.233	$GPGGA,040501,2557.1708,N,07942.9828,W,1,9,1.7,13,M,,M,,*55
05/29/2014	04:05:02.233	$GPGGA,040502,2557.1698,N,07942.9812,W,1,9,1.7,13,M,,M,,*57
05/29/2014	04:05:03.178	$GPGGA,040503,2557.1689,N,07942.9796,W,1,9,1.7,13,M,,M,,*55
05/29/2014	04:05:04.321	$GPGGA,040504,2557.1676,N,07942.9779,W,1,9,1.7,13,M,,M,,*53
05/29/2014	04:05:05.319	$GPGGA,040505,2557.1665,N,07942.9761,W,1,8,1.7,13,M,,M,,*58
05/29/2014	04:05:06.256	$GPGGA,040506,2557.1654,N,07942.9745,W,1,8,1.7,13,M,,M,,*5F
05/29/2014	04:05:07.368	$GPGGA,040507,2557.1643,N,07942.9728,W,1,9,1.7,13,M,,M,,*52
05/29/2014	04:05:08.314	$GPGGA,040508,2557.1632,N,07942.9709,W,1,9,1.7,13,M,,M,,*58
05/29/2014	04:05:09.428	$GPGGA,040509,2557.1621,N,07942.9691,W,1,8,1.7,13,M,,M,,*5A
05/29/2014	04:05:10.363	$GPGGA,040510,2557.1610,N,07942.9673,W,1,8,1.7,13,M,,M,,*5C
05/29/2014	04:05:11.474	$GPGGA,040511,2557.1599,N,07942.9653,W,1,8,1.7,13,M,,M,,*5D
05/29/2014	04:05:12.526	$GPGGA,040512,2557.1591,N,07942.9637,W,1,8,1.7,13,M,,M,,*54
05/29/2014	04:05:13.553	$GPGGA,040513,2557.1581,N,07942.9618,W,1,9,1.7,13,M,,M,,*58
05/29/2014	04:05:14.572	$GPGGA,040514,2557.1570,N,07942.9599,W,1,9,1.7,13,M,,M,,*5B
05/29/2014	04:05:15.590	$GPGGA,040515,2557.1559,N,07942.9581,W,1,8,1.7,13,M,,M,,*59
05/29/2014	04:05:16.629	$GPGGA,040516,2557.1552,N,07942.9563,W,1,8,1.7,13,M,,M,,*5D
05/29/2014	04:05:17.668	$GPGGA,040517,2557.1541,N,07942.9545,W,1,9,1.7,13,M,,M,,*5B
05/29/2014	04:05:18.677	$GPGGA,040518,2557.1532,N,07942.9528,W,1,9,1.7,13,M,,M,,*5B
05/29/2014	04:05:19.737	$GPGGA,040519,2557.1523,N,07942.9511,W,1,9,1.7,13,M,,M,,*50
05/29/2014	04:05:20.746	$GPGGA,040520,2557.1514,N,07942.9492,W,1,9,1.7,13,M,,M,,*54
05/29/2014	04:05:21.744	$GPGGA,040521,2557.1505,N,07942.9474,W,1,9,1.7,13,M,,M,,*5D
05/29/2014	04:05:22.785	$GPGGA,040522,2557.1495,N,07942.9456,W,1,9,1.7,13,M,,M,,*56
05/29/2014	04:05:23.804	$GPGGA,040523,2557.1485,N,07942.9437,W,1,9,1.7,13,M,,M,,*51
05/29/2014	04:05:24.852	$GPGGA,040524,2557.1476,N,07942.9419,W,1,9,1.7,13,M,,M,,*56
05/29/2014	04:05:25.862	$GPGGA,040525,2557.1465,N,07942.9399,W,1,9,1.7,13,M,,M,,*5A
05/29/2014	04:05:26.890	$GPGGA,040526,2557.1455,N,07942.9381,W,1,9,1.7,13,M,,M,,*53
05/29/2014	04:05:27.919	$GPGGA,040527,2557.1445,N,07942.9362,W,1,9,1.7,13,M,,M,,*5E
05/29/2014	04:05:28.969	$GPGGA,040528,2557.1436,N,07942.9343,W,1,9,1.7,13,M,,M,,*56
05/29/2014	04:05:29.967	$GPGGA,040529,2557.1425,N,07942.9324,W,1,9,1.7,13,M,,M,,*54
05/29/2014	04:05:30.997	$GPGGA,040530,2557.1416,N,07942.9306,W,1,9,1.7,13,M,,M,,*5C
05/29/2014	04:05:32.026	$GPGGA,040531,2557.1405,N,07942.9287,W,1,9,1.7,13,M,,M,,*57
05/29/2014	04:05:33.066	$GPGGA,040532,2557.1396,N,07942.9270,W,1,9,1.7,13,M,,M,,*51
05/29/2014	04:05:34.073	$GPGGA,040533,2557.1386,N,07942.9250,W,1,9,1.7,13,M,,M,,*53
05/29/2014	04:05:35.124	$GPGGA,040534,2557.1375,N,07942.9232,W,1,9,1.7,13,M,,M,,*5C
05/29/2014	04:05:36.153	$GPGGA,040535,2557.1364,N,07942.9212,W,1,8,1.7,13,M,,M,,*5E
05/29/2014	04:05:37.171	$GPGGA,040536,2557.1353,N,07942.9193,W,1,8,1.7,13,M,,M,,*53
05/29/2014	04:05:38.222	$GPGGA,040537,2557.1342,N,07942.9175,W,1,8,1.7,13,M,,M,,*5A
05/29/2014	04:05:39.229	$GPGGA,040538,2557.1331,N,07942.9156,W,1,8,1.7,13,M,,M,,*50
05/29/2014	04:05:40.248	$GPGGA,040539,2557.1322,N,07942.9139,W,1,8,1.7,13,M,,M,,*5A
05/29/2014	04:05:39.517	$GPGGA,040540,2557.1311,N,07942.9121,W,1,8,1.7,13,M,,M,,*5D
05/29/2014	04:05:40.536	$GPGGA,040541,2557.1301,N,07942.9103,W,1,8,1.7,13,M,,M,,*5D
05/29/2014	04:05:41.575	$GPGGA,040542,2557.1292,N,07942.9085,W,1,8,1.7,13,M,,M,,*5A
05/29/2014	04:05:42.594	$GPGGA,040543,2557.1282,N,07942.9070,W,1,8,1.7,13,M,,M,,*50
05/29/2014	04:05:43.634	$GPGGA,040544,2557.1271,N,07942.9051,W,1,8,1.7,13,M,,M,,*58
05/29/2014	04:05:44.673	$GPGGA,040545,2557.1261,N,07942.9034,W,1,8,1.7,13,M,,M,,*5B
05/29/2014	04:05:45.775	$GPGGA,040546,2557.1253,N,07942.9019,W,1,8,1.7,13,M,,M,,*56
05/29/2014	04:05:46.814	$GPGGA,040547,2557.1243,N,07942.9004,W,1,9,1.7,13,M,,M,,*5B
05/29/2014	04:05:47.751	$GPGGA,040548,2557.1232,N,07942.8987,W,1,9,1.7,13,M,,M,,*51
05/29/2014	04:05:48.780	$GPGGA,040549,2557.1223,N,07942.8971,W,1,9,1.7,13,M,,M,,*59
05/29/2014	04:05:49.882	$GPGGA,040550,2557.1212,N,07942.8955,W,1,9,1.7,13,M,,M,,*55
05/29/2014	04:05:50.808	$GPGGA,040551,2557.1202,N,07942.8939,W,1,9,1.7,13,M,,M,,*5F
05/29/2014	04:05:51.959	$GPGGA,040552,2557.1192,N,07942.8923,W,1,9,1.7,13,M,,M,,*5D
05/29/2014	04:05:52.968	$GPGGA,040553,2557.1182,N,07942.8907,W,1,9,1.7,13,M,,M,,*5B
05/29/2014	04:05:53.997	$GPGGA,040554,2557.1170,N,07942.8890,W,1,9,1.7,13,M,,M,,*5E
05/29/2014	04:05:55.016	$GPGGA,040555,2557.1159,N,07942.8874,W,1,9,1.7,13,M,,M,,*5E
05/29/2014	04:05:56.086	$GPGGA,040556,2557.1148,N,07942.8857,W,1,9,1.7,13,M,,M,,*5C
05/29/2014	04:05:57.074	$GPGGA,040557,2557.1136,N,07942.8841,W,1,9,1.7,13,M,,M,,*53
05/29/2014	04:05:58.103	$GPGGA,040558,2557.1124,N,07942.8824,W,1,9,1.7,13,M,,M,,*5C
05/29/2014	04:05:59.133	$GPGGA,040559,2557.1112,N,07942.8808,W,1,9,1.7,13,M,,M,,*56
05/29/2014	04:06:00.213	$GPGGA,040600,2557.1101,N,07942.8791,W,1,9,1.7,13,M,,M,,*54
05/29/2014	04:06:01.192	$GPGGA,040601,2557.1090,N,07942.8774,W,1,9,1.7,13,M,,M,,*57
05/29/2014	04:06:02.221	$GPGGA,040602,2557.1078,N,07942.8758,W,1,9,1.7,13,M,,M,,*5C
05/29/2014	04:06:03.249	$GPGGA,040603,2557.1068,N,07942.8742,W,1,9,1.7,13,M,,M,,*57
05/29/2014	04:06:04.279	$GPGGA,040604,2557.1057,N,07942.8724,W,1,9,1.7,13,M,,M,,*5C
05/29/2014	04:06:05.309	$GPGGA,040605,2557.1044,N,07942.8706,W,1,9,1.7,13,M,,M,,*5F
05/29/2014	04:06:06.327	$GPGGA,040606,2557.1032,N,07942.8690,W,1,9,1.7,13,M,,M,,*53
05/29/2014	04:06:07.356	$GPGGA,040607,2557.1021,N,07942.8672,W,1,9,1.7,13,M,,M,,*5C
05/29/2014	04:06:08.395	$GPGGA,040608,2557.1008,N,07942.8654,W,1,9,1.7,13,M,,M,,*5C
05/29/2014	04:06:09.423	$GPGGA,040609,2557.0997,N,07942.8639,W,1,8,1.7,13,M,,M,,*59
05/29/2014	04:06:10.443	$GPGGA,040610,2557.0988,N,07942.8622,W,1,8,1.7,13,M,,M,,*55
05/29/2014	04:06:11.492	$GPGGA,040611,2557.0976,N,07942.8606,W,1,9,1.7,13,M,,M,,*52
05/29/2014	04:06:12.491	$GPGGA,040612,2557.0963,N,07942.8588,W,1,9,1.7,13,M,,M,,*50
05/29/2014	04:06:13.530	$GPGGA,040613,2557.0952,N,07942.8571,W,1,8,1.7,13,M,,M,,*54
05/29/2014	04:06:14.539	$GPGGA,040614,2557.0941,N,07942.8552,W,1,8,1.7,13,M,,M,,*50
05/29/2014	04:06:15.568	$GPGGA,040615,2557.0928,N,07942.8535,W,1,8,1.7,13,M,,M,,*5F
05/29/2014	04:06:16.607	$GPGGA,040616,2557.0916,N,07942.8518,W,1,8,1.7,13,M,,M,,*5E
05/29/2014	04:06:17.617	$GPGGA,040617,2557.0906,N,07942.8499,W,1,8,1.7,13,M,,M,,*56
05/29/2014	04:06:18.645	$GPGGA,040618,2557.0894,N,07942.8482,W,1,8,1.7,13,M,,M,,*59
05/29/2014	04:06:19.674	$GPGGA,040619,2557.0882,N,07942.8465,W,1,8,1.7,13,M,,M,,*56
05/29/2014	04:06:20.725	$GPGGA,040620,2557.0872,N,07942.8447,W,1,8,1.7,13,M,,M,,*53
05/29/2014	04:06:21.722	$GPGGA,040621,2557.0860,N,07942.8428,W,1,8,1.7,13,M,,M,,*58
05/29/2014	04:06:22.762	$GPGGA,040622,2557.0851,N,07942.8413,W,1,8,1.7,13,M,,M,,*51
05/29/2014	04:06:23.812	$GPGGA,040623,2557.0841,N,07942.8396,W,1,9,1.7,13,M,,M,,*5A
05/29/2014	04:06:24.831	$GPGGA,040624,2557.0830,N,07942.8377,W,1,9,1.7,13,M,,M,,*54
05/29/2014	04:06:25.880	$GPGGA,040625,2557.0818,N,07942.8360,W,1,8,1.7,13,M,,M,,*58
05/29/2014	04:06:26.879	$GPGGA,040626,2557.0808,N,07942.8342,W,1,8,1.7,13,M,,M,,*5A
05/29/2014	04:06:27.886	$GPGGA,040627,2557.0800,N,07942.8324,W,1,8,1.7,13,M,,M,,*53
05/29/2014	04:06:28.926	$GPGGA,040628,2557.0789,N,07942.8307,W,1,8,1.7,13,M,,M,,*53
05/29/2014	04:06:29.955	$GPGGA,040629,2557.0777,N,07942.8289,W,1,8,1.7,13,M,,M,,*54
05/29/2014	04:06:30.964	$GPGGA,040630,2557.0768,N,07942.8270,W,1,8,1.7,13,M,,M,,*54
05/29/2014	04:06:32.116	$GPGGA,040631,2557.0757,N,07942.8251,W,1,8,1.7,13,M,,M,,*5A
05/29/2014	04:06:33.043	$GPGGA,040632,2557.0750,N,07942.8237,W,1,8,1.7,13,M,,M,,*5E
05/29/2014	04:06:34.062	$GPGGA,040633,2557.0739,N,07942.8219,W,1,9,1.7,13,M,,M,,*5D
05/29/2014	04:06:35.080	$GPGGA,040634,2557.0728,N,07942.8199,W,1,9,1.7,13,M,,M,,*51
05/29/2014	04:06:36.110	$GPGGA,040635,2557.0717,N,07942.8182,W,1,8,1.7,13,M,,M,,*57
05/29/2014	04:06:37.262	$GPGGA,040636,2557.0706,N,07942.8164,W,1,8,1.7,13,M,,M,,*5C
05/29/2014	04:06:38.282	$GPGGA,040637,2557.0695,N,07942.8145,W,1,8,1.7,13,M,,M,,*55
05/29/2014	04:06:39.197	$GPGGA,040638,2557.0685,N,07942.8127,W,1,8,1.7,13,M,,M,,*5F
05/29/2014	04:06:40.329	$GPGGA,040639,2557.0674,N,07942.8109,W,1,8,1.7,13,M,,M,,*5C
05/29/2014	04:06:39.526	$GPGGA,040640,2557.0663,N,07942.8091,W,1,8,1.7,13,M,,M,,*54
05/29/2014	04:06:40.535	$GPGGA,040641,2557.0652,N,07942.8073,W,1,8,1.7,13,M,,M,,*5B
05/29/2014	04:06:41.646	$GPGGA,040642,2557.0642,N,07942.8055,W,1,8,1.7,13,M,,M,,*5D
05/29/2014	04:06:42.685	$GPGGA,040643,2557.0631,N,07942.8037,W,1,8,1.7,13,M,,M,,*5C
05/29/2014	04:06:43.714	$GPGGA,040644,2557.0621,N,07942.8019,W,1,8,1.7,13,M,,M,,*56
05/29/2014	04:06:44.743	$GPGGA,040645,2557.0610,N,07942.8001,W,1,8,1.7,13,M,,M,,*5C
05/29/2014	04:06:45.659	$GPGGA,040646,2557.0599,N,07942.7983,W,1,8,1.7,13,M,,M,,*51
05/29/2014	04:06:46.782	$GPGGA,040647,2557.0591,N,07942.7967,W,1,8,1.7,14,M,,M,,*55
05/29/2014	04:06:47.851	$GPGGA,040648,2557.0580,N,07942.7949,W,1,8,1.7,14,M,,M,,*56
05/29/2014	04:06:48.861	$GPGGA,040649,2557.0569,N,07942.7931,W,1,9,1.7,14,M,,M,,*5E
05/29/2014	04:06:51.392	$GPGGA,040651,2557.0551,N,07942.7898,W,1,9,1.7,14,M,,M,,*5E
05/29/2014	04:06:51.937	$GPGGA,040652,2557.0541,N,07942.7882,W,1,9,1.7,14,M,,M,,*57
05/29/2014	04:06:52.967	$GPGGA,040653,2557.0531,N,07942.7865,W,1,9,1.7,14,M,,M,,*58
05/29/2014	04:06:53.976	$GPGGA,040654,2557.0520,N,07942.7847,W,1,9,1.7,14,M,,M,,*5F
05/29/2014	04:06:55.005	$GPGGA,040655,2557.0509,N,07942.7829,W,1,8,1.7,14,M,,M,,*5C
05/29/2014	04:06:56.045	$GPGGA,040656,2557.0501,N,07942.7815,W,1,8,1.7,14,M,,M,,*58
05/29/2014	04:06:57.052	$GPGGA,040657,2557.0490,N,07942.7796,W,1,9,1.7,14,M,,M,,*55
05/29/2014	04:06:58.092	$GPGGA,040658,2557.0477,N,07942.7777,W,1,9,1.7,14,M,,M,,*5C
05/29/2014	04:06:59.142	$GPGGA,040659,2557.0465,N,07942.7760,W,1,8,1.7,14,M,,M,,*59
05/29/2014	04:07:00.171	$GPGGA,040700,2557.0453,N,07942.7742,W,1,8,1.7,14,M,,M,,*51
05/29/2014	04:07:01.179	$GPGGA,040701,2557.0443,N,07942.7724,W,1,8,1.7,14,M,,M,,*51
05/29/2014	04:07:02.187	$GPGGA,040702,2557.0430,N,07942.7708,W,1,8,1.7,14,M,,M,,*58
05/29/2014	04:07:03.258	$GPGGA,040703,2557.0419,N,07942.7690,W,1,8,1.7,14,M,,M,,*52
05/29/2014	04:07:04.266	$GPGGA,040704,2557.0408,N,07942.7673,W,1,8,1.7,14,M,,M,,*58
05/29/2014	04:07:05.295	$GPGGA,040705,2557.0397,N,07942.7656,W,1,8,1.7,14,M,,M,,*5F
05/29/2014	04:07:06.305	$GPGGA,040706,2557.0388,N,07942.7642,W,1,8,1.7,14,M,,M,,*57
05/29/2014	04:07:07.344	$GPGGA,040707,2557.0376,N,07942.7624,W,1,9,1.7,14,M,,M,,*56
05/29/2014	04:07:08.373	$GPGGA,040708,2557.0364,N,07942.7606,W,1,9,1.7,14,M,,M,,*5A
05/29/2014	04:07:10.781	$GPGGA,040710,2557.0341,N,07942.7572,W,1,8,1.7,14,M,,M,,*55
05/29/2014	04:07:11.429	$GPGGA,040711,2557.0329,N,07942.7555,W,1,8,1.7,14,M,,M,,*5F
05/29/2014	04:07:12.479	$GPGGA,040712,2557.0318,N,07942.7538,W,1,8,1.7,14,M,,M,,*55
05/29/2014	04:07:13.530	$GPGGA,040713,2557.0306,N,07942.7521,W,1,8,1.7,14,M,,M,,*53
05/29/2014	04:07:14.517	$GPGGA,040714,2557.0295,N,07942.7504,W,1,8,1.7,14,M,,M,,*58
05/29/2014	04:07:15.578	$GPGGA,040715,2557.0284,N,07942.7487,W,1,8,1.7,14,M,,M,,*53
05/29/2014	04:07:16.606	$GPGGA,040716,2557.0273,N,07942.7470,W,1,8,1.7,14,M,,M,,*50
05/29/2014	04:07:17.605	$GPGGA,040717,2557.0262,N,07942.7453,W,1,8,1.7,14,M,,M,,*50
05/29/2014	04:07:18.633	$GPGGA,040718,2557.0251,N,07942.7436,W,1,8,1.7,14,M,,M,,*5C
05/29/2014	04:07:19.684	$GPGGA,040719,2557.0239,N,07942.7418,W,1,8,1.7,14,M,,M,,*5F
05/29/2014	04:07:20.701	$GPGGA,040720,2557.0227,N,07942.7401,W,1,8,1.7,14,M,,M,,*52
05/29/2014	04:07:21.731	$GPGGA,040721,2557.0216,N,07942.7384,W,1,8,1.7,14,M,,M,,*5B
05/29/2014	04:07:22.750	$GPGGA,040722,2557.0206,N,07942.7368,W,1,8,1.7,14,M,,M,,*5B
05/29/2014	04:07:23.779	$GPGGA,040723,2557.0197,N,07942.7352,W,1,9,1.7,14,M,,M,,*59
05/29/2014	04:07:24.911	$GPGGA,040724,2557.0187,N,07942.7335,W,1,9,1.7,14,M,,M,,*5E
05/29/2014	04:07:25.817	$GPGGA,040725,2557.0176,N,07942.7318,W,1,9,1.7,14,M,,M,,*5E
05/29/2014	04:07:26.846	$GPGGA,040726,2557.0166,N,07942.7301,W,1,9,1.7,14,M,,M,,*54
05/29/2014	04:07:27.896	$GPGGA,040727,2557.0154,N,07942.7283,W,1,8,1.7,14,M,,M,,*5E
05/29/2014	04:07:28.925	$GPGGA,040728,2557.0143,N,07942.7266,W,1,8,1.7,14,M,,M,,*5C
05/29/2014	04:07:29.944	$GPGGA,040729,2557.0133,N,07942.7250,W,1,8,1.7,14,M,,M,,*5F
05/29/2014	04:07:31.045	$GPGGA,040730,2557.0121,N,07942.7232,W,1,8,1.7,14,M,,M,,*50
05/29/2014	04:07:32.084	$GPGGA,040731,2557.0110,N,07942.7215,W,1,8,1.7,14,M,,M,,*56
05/29/2014	04:07:33.114	$GPGGA,040732,2557.0099,N,07942.7196,W,1,8,1.7,14,M,,M,,*5D
05/29/2014	04:07:34.122	$GPGGA,040733,2557.0089,N,07942.7178,W,1,8,1.7,14,M,,M,,*5D
05/29/2014	04:07:35.151	$GPGGA,040734,2557.0078,N,07942.7162,W,1,8,1.7,14,M,,M,,*5F
05/29/2014	04:07:36.191	$GPGGA,040735,2557.0068,N,07942.7144,W,1,9,1.7,14,M,,M,,*5A
05/29/2014	04:07:37.229	$GPGGA,040736,2557.0058,N,07942.7127,W,1,9,1.7,14,M,,M,,*5F
05/29/2014	04:07:38.241	$GPGGA,040737,2557.0047,N,07942.7110,W,1,9,1.7,14,M,,M,,*54
05/29/2014	04:07:39.277	$GPGGA,040738,2557.0038,N,07942.7093,W,1,9,1.7,14,M,,M,,*59
05/29/2014	04:07:40.328	$GPGGA,040739,2557.0027,N,07942.7075,W,1,9,1.7,14,M,,M,,*5E
05/29/2014	04:07:39.586	$GPGGA,040740,2557.0015,N,07942.7056,W,1,9,1.7,14,M,,M,,*50
05/29/2014	04:07:40.615	$GPGGA,040741,2557.0004,N,07942.7039,W,1,8,1.7,14,M,,M,,*59
05/29/2014	04:07:41.634	$GPGGA,040742,2556.9993,N,07942.7021,W,1,8,1.7,14,M,,M,,*5C
05/29/2014	04:07:42.674	$GPGGA,040743,2556.9984,N,07942.7003,W,1,8,1.7,14,M,,M,,*5B
05/29/2014	04:07:43.693	$GPGGA,040744,2556.9973,N,07942.6985,W,1,8,1.7,14,M,,M,,*52
05/29/2014	04:07:44.732	$GPGGA,040745,2556.9962,N,07942.6968,W,1,8,1.7,14,M,,M,,*50
05/29/2014	04:07:45.720	$GPGGA,040746,2556.9952,N,07942.6950,W,1,8,1.7,14,M,,M,,*5B
05/29/2014	04:07:46.750	$GPGGA,040747,2556.9940,N,07942.6932,W,1,8,1.7,14,M,,M,,*5D
05/29/2014	04:07:47.799	$GPGGA,040748,2556.9930,N,07942.6914,W,1,8,1.7,14,M,,M,,*51
05/29/2014	04:07:48.828	$GPGGA,040749,2556.9920,N,07942.6895,W,1,8,1.7,14,M,,M,,*59
05/29/2014	04:07:49.837	$GPGGA,040750,2556.9909,N,07942.6878,W,1,8,1.7,14,M,,M,,*59
05/29/2014	04:07:50.887	$GPGGA,040751,2556.9899,N,07942.6861,W,1,8,1.7,14,M,,M,,*58
05/29/2014	04:07:51.895	$GPGGA,040752,2556.9890,N,07942.6842,W,1,8,1.7,14,M,,M,,*53
05/29/2014	04:07:52.944	$GPGGA,040753,2556.9879,N,07942.6825,W,1,8,1.7,14,M,,M,,*54
05/29/2014	04:07:53.954	$GPGGA,040754,2556.9867,N,07942.6807,W,1,8,1.7,14,M,,M,,*5C
05/29/2014	04:07:54.982	$GPGGA,040755,2556.9857,N,07942.6789,W,1,8,1.7,14,M,,M,,*57
05/29/2014	04:07:56.011	$GPGGA,040756,2556.9847,N,07942.6772,W,1,8,1.7,14,M,,M,,*51
05/29/2014	04:07:57.062	$GPGGA,040757,2556.9837,N,07942.6755,W,1,8,1.7,14,M,,M,,*52
05/29/2014	04:07:58.059	$GPGGA,040758,2556.9828,N,07942.6740,W,1,8,1.7,14,M,,M,,*57
05/29/2014	04:07:59.110	$GPGGA,040759,2556.9818,N,07942.6722,W,1,9,1.7,14,M,,M,,*50
05/29/2014	04:08:00.139	$GPGGA,040800,2556.9807,N,07942.6704,W,1,9,1.7,14,M,,M,,*59
05/29/2014	04:08:01.157	$GPGGA,040801,2556.9798,N,07942.6689,W,1,8,1.7,14,M,,M,,*54
05/29/2014	04:08:02.155	$GPGGA,040802,2556.9787,N,07942.6671,W,1,8,1.7,14,M,,M,,*5E
05/29/2014	04:08:03.184	$GPGGA,040803,2556.9776,N,07942.6653,W,1,8,1.7,14,M,,M,,*51
05/29/2014	04:08:04.224	$GPGGA,040804,2556.9767,N,07942.6635,W,1,8,1.7,14,M,,M,,*56
05/29/2014	04:08:05.243	$GPGGA,040805,2556.9755,N,07942.6618,W,1,8,1.7,14,M,,M,,*59
05/29/2014	04:08:06.282	$GPGGA,040806,2556.9747,N,07942.6604,W,1,8,1.7,14,M,,M,,*54
05/29/2014	04:08:07.291	$GPGGA,040807,2556.9736,N,07942.6586,W,1,9,1.7,14,M,,M,,*5B
05/29/2014	04:08:08.465	$GPGGA,040808,2556.9727,N,07942.6571,W,1,9,1.7,14,M,,M,,*5C
05/29/2014	04:08:09.370	$GPGGA,040809,2556.9717,N,07942.6553,W,1,9,1.7,14,M,,M,,*5E
05/29/2014	04:08:10.389	$GPGGA,040810,2556.9706,N,07942.6536,W,1,9,1.7,14,M,,M,,*55
05/29/2014	04:08:11.427	$GPGGA,040811,2556.9693,N,07942.6519,W,1,8,1.7,14,M,,M,,*55
05/29/2014	04:08:12.570	$GPGGA,040812,2556.9684,N,07942.6500,W,1,8,1.7,14,M,,M,,*58
05/29/2014	04:08:13.455	$GPGGA,040813,2556.9671,N,07942.6483,W,1,8,1.7,14,M,,M,,*59
05/29/2014	04:08:14.494	$GPGGA,040814,2556.9659,N,07942.6466,W,1,8,1.7,14,M,,M,,*5F
05/29/2014	04:08:15.545	$GPGGA,040815,2556.9648,N,07942.6448,W,1,8,1.7,14,M,,M,,*52
05/29/2014	04:08:16.554	$GPGGA,040816,2556.9637,N,07942.6432,W,1,8,1.7,14,M,,M,,*54
05/29/2014	04:08:17.705	$GPGGA,040817,2556.9626,N,07942.6415,W,1,8,1.7,14,M,,M,,*50
05/29/2014	04:08:18.693	$GPGGA,040818,2556.9614,N,07942.6398,W,1,8,1.7,14,M,,M,,*5C
05/29/2014	04:08:19.621	$GPGGA,040819,2556.9604,N,07942.6381,W,1,8,1.7,14,M,,M,,*54
05/29/2014	04:08:20.762	$GPGGA,040820,2556.9592,N,07942.6364,W,1,8,1.7,14,M,,M,,*59
05/29/2014	04:08:21.812	$GPGGA,040821,2556.9583,N,07942.6347,W,1,8,1.7,14,M,,M,,*59
05/29/2014	04:08:22.707	$GPGGA,040822,2556.9570,N,07942.6330,W,1,8,1.7,14,M,,M,,*56
05/29/2014	04:08:23.737	$GPGGA,040823,2556.9559,N,07942.6312,W,1,8,1.7,14,M,,M,,*5C
05/29/2014	04:08:24.879	$GPGGA,040824,2556.9548,N,07942.6295,W,1,8,1.7,14,M,,M,,*55
05/29/2014	04:08:25.908	$GPGGA,040825,2556.9537,N,07942.6278,W,1,8,1.7,14,M,,M,,*5F
05/29/2014	04:08:26.918	$GPGGA,040826,2556.9527,N,07942.6263,W,1,8,1.7,14,M,,M,,*57
05/29/2014	04:08:27.967	$GPGGA,040827,2556.9518,N,07942.6247,W,1,9,1.7,14,M,,M,,*5D
05/29/2014	04:08:28.974	$GPGGA,040828,2556.9509,N,07942.6230,W,1,9,1.7,14,M,,M,,*52
05/29/2014	04:08:30.014	$GPGGA,040829,2556.9497,N,07942.6214,W,1,9,1.7,14,M,,M,,*53
05/29/2014	04:08:31.043	$GPGGA,040830,2556.9487,N,07942.6195,W,1,9,1.7,14,M,,M,,*50
05/29/2014	04:08:32.051	$GPGGA,040831,2556.9476,N,07942.6178,W,1,8,1.7,14,M,,M,,*5D
05/29/2014	04:08:33.092	$GPGGA,040832,2556.9465,N,07942.6161,W,1,8,1.7,14,M,,M,,*54
05/29/2014	04:08:34.100	$GPGGA,040833,2556.9455,N,07942.6144,W,1,8,1.7,14,M,,M,,*51
05/29/2014	04:08:35.139	$GPGGA,040834,2556.9443,N,07942.6127,W,1,8,1.7,14,M,,M,,*54
05/29/2014	04:08:36.189	$GPGGA,040835,2556.9433,N,07942.6111,W,1,9,1.7,14,M,,M,,*56
05/29/2014	04:08:37.198	$GPGGA,040836,2556.9424,N,07942.6094,W,1,9,1.7,14,M,,M,,*5F
05/29/2014	04:08:38.237	$GPGGA,040837,2556.9413,N,07942.6076,W,1,9,1.7,14,M,,M,,*56
05/29/2014	04:08:39.246	$GPGGA,040838,2556.9402,N,07942.6060,W,1,9,1.7,14,M,,M,,*5E
05/29/2014	04:08:40.306	$GPGGA,040839,2556.9390,N,07942.6042,W,1,9,1.7,14,M,,M,,*53
05/29/2014	04:08:39.565	$GPGGA,040840,2556.9379,N,07942.6025,W,1,9,1.7,14,M,,M,,*5B
05/29/2014	04:08:40.594	$GPGGA,040841,2556.9370,N,07942.6008,W,1,9,1.7,14,M,,M,,*5C
05/29/2014	04:08:41.602	$GPGGA,040842,2556.9359,N,07942.5991,W,1,9,1.7,14,M,,M,,*5E
05/29/2014	04:08:43.444	$GPGGA,040843,2556.9348,N,07942.5974,W,1,9,1.7,14,M,,M,,*54
05/29/2014	04:08:43.671	$GPGGA,040844,2556.9337,N,07942.5956,W,1,9,1.7,14,M,,M,,*5B
05/29/2014	04:08:44.680	$GPGGA,040845,2556.9325,N,07942.5937,W,1,8,1.7,14,M,,M,,*5F
05/29/2014	04:08:45.718	$GPGGA,040846,2556.9315,N,07942.5921,W,1,8,1.7,14,M,,M,,*58
05/29/2014	04:08:46.778	$GPGGA,040847,2556.9305,N,07942.5903,W,1,9,1.7,14,M,,M,,*59
05/29/2014	04:08:47.771	$GPGGA,040848,2556.9294,N,07942.5884,W,1,9,1.7,14,M,,M,,*51
05/29/2014	04:08:48.763	$GPGGA,040849,2556.9283,N,07942.5867,W,1,8,1.7,14,M,,M,,*5A
05/29/2014	04:08:49.785	$GPGGA,040850,2556.9272,N,07942.5849,W,1,8,1.7,14,M,,M,,*50
05/29/2014	04:08:50.777	$GPGGA,040851,2556.9260,N,07942.5831,W,1,8,1.7,14,M,,M,,*5D
05/29/2014	04:08:51.809	$GPGGA,040852,2556.9248,N,07942.5813,W,1,8,1.7,14,M,,M,,*54
05/29/2014	04:08:52.811	$GPGGA,040853,2556.9237,N,07942.5795,W,1,8,1.7,14,M,,M,,*5C
05/29/2014	04:08:53.813	$GPGGA,040854,2556.9227,N,07942.5777,W,1,8,1.7,14,M,,M,,*56
05/29/2014	04:08:54.845	$GPGGA,040855,2556.9216,N,07942.5760,W,1,8,1.7,14,M,,M,,*53
05/29/2014	04:08:55.969	$GPGGA,040856,2556.9205,N,07942.5742,W,1,8,1.7,14,M,,M,,*52
05/29/2014	04:08:56.849	$GPGGA,040857,2556.9194,N,07942.5724,W,1,9,1.7,14,M,,M,,*59
05/29/2014	04:08:57.861	$GPGGA,040858,2556.9183,N,07942.5706,W,1,9,1.7,14,M,,M,,*50
05/29/2014	04:08:58.996	$GPGGA,040859,2556.9172,N,07942.5688,W,1,8,1.7,14,M,,M,,*59
05/29/2014	04:09:00.007	$GPGGA,040900,2556.9161,N,07942.5671,W,1,8,1.7,14,M,,M,,*50
05/29/2014	04:09:00.908	$GPGGA,040901,2556.9150,N,07942.5652,W,1,8,1.7,14,M,,M,,*52
05/29/2014	04:09:01.900	$GPGGA,040902,2556.9139,N,07942.5634,W,1,8,1.7,14,M,,M,,*5E
05/29/2014	04:09:03.002	$GPGGA,040903,2556.9128,N,07942.5617,W,1,8,1.7,14,M,,M,,*5E
05/29/2014	04:09:03.923	$GPGGA,040904,2556.9119,N,07942.5601,W,1,8,1.7,14,M,,M,,*5C
05/29/2014	04:09:04.925	$GPGGA,040905,2556.9109,N,07942.5583,W,1,9,1.7,14,M,,M,,*54
05/29/2014	04:09:06.038	$GPGGA,040906,2556.9099,N,07942.5566,W,1,9,1.7,14,M,,M,,*54
05/29/2014	04:09:07.050	$GPGGA,040907,2556.9088,N,07942.5548,W,1,8,1.7,14,M,,M,,*58
05/29/2014	04:09:07.971	$GPGGA,040908,2556.9077,N,07942.5531,W,1,8,1.7,14,M,,M,,*59
05/29/2014	04:09:08.973	$GPGGA,040909,2556.9066,N,07942.5512,W,1,8,1.7,14,M,,M,,*59
05/29/2014	04:09:09.975	$GPGGA,040910,2556.9056,N,07942.5496,W,1,8,1.7,14,M,,M,,*5F
05/29/2014	04:09:11.119	$GPGGA,040911,2556.9045,N,07942.5478,W,1,9,1.7,14,M,,M,,*5D
05/29/2014	04:09:12.121	$GPGGA,040912,2556.9034,N,07942.5460,W,1,9,1.7,14,M,,M,,*51
05/29/2014	04:09:13.133	$GPGGA,040913,2556.9024,N,07942.5442,W,1,8,1.7,14,M,,M,,*50
05/29/2014	04:09:14.115	$GPGGA,040914,2556.9014,N,07942.5424,W,1,8,1.7,14,M,,M,,*54
05/29/2014	04:09:15.157	$GPGGA,040915,2556.9003,N,07942.5407,W,1,8,1.7,14,M,,M,,*52
05/29/2014	04:09:16.149	$GPGGA,040916,2556.8994,N,07942.5389,W,1,8,1.7,14,M,,M,,*56
05/29/2014	04:09:17.142	$GPGGA,040917,2556.8983,N,07942.5372,W,1,8,1.7,14,M,,M,,*55
05/29/2014	04:09:18.153	$GPGGA,040918,2556.8971,N,07942.5353,W,1,8,1.7,14,M,,M,,*54
05/29/2014	04:09:19.185	$GPGGA,040919,2556.8961,N,07942.5336,W,1,8,1.7,14,M,,M,,*57
05/29/2014	04:09:20.187	$GPGGA,040920,2556.8951,N,07942.5318,W,1,8,1.7,14,M,,M,,*52
05/29/2014	04:09:21.198	$GPGGA,040921,2556.8940,N,07942.5300,W,1,8,1.7,14,M,,M,,*5A
05/29/2014	04:09:22.211	$GPGGA,040922,2556.8929,N,07942.5282,W,1,8,1.7,14,M,,M,,*5D
05/29/2014	04:09:23.214	$GPGGA,040923,2556.8919,N,07942.5265,W,1,8,1.7,14,M,,M,,*56
05/29/2014	04:09:24.225	$GPGGA,040924,2556.8908,N,07942.5247,W,1,8,1.7,14,M,,M,,*51
05/29/2014	04:09:25.247	$GPGGA,040925,2556.8900,N,07942.5231,W,1,8,1.7,14,M,,M,,*59
05/29/2014	04:09:26.229	$GPGGA,040926,2556.8890,N,07942.5214,W,1,8,1.7,14,M,,M,,*55
05/29/2014	04:09:27.281	$GPGGA,040927,2556.8880,N,07942.5198,W,1,9,1.7,14,M,,M,,*53
05/29/2014	04:09:28.273	$GPGGA,040928,2556.8869,N,07942.5181,W,1,9,1.7,14,M,,M,,*53
05/29/2014	04:09:29.297	$GPGGA,040929,2556.8859,N,07942.5164,W,1,9,1.7,14,M,,M,,*5A
05/29/2014	04:09:30.287	$GPGGA,040930,2556.8849,N,07942.5147,W,1,9,1.7,14,M,,M,,*52
05/29/2014	04:09:31.279	$GPGGA,040931,2556.8839,N,07942.5131,W,1,9,1.7,14,M,,M,,*55
05/29/2014	04:09:32.301	$GPGGA,040932,2556.8828,N,07942.5114,W,1,9,1.7,14,M,,M,,*51
05/29/2014	04:09:33.334	$GPGGA,040933,2556.8818,N,07942.5097,W,1,9,1.7,14,M,,M,,*59
05/29/2014	04:09:34.325	$GPGGA,040934,2556.8806,N,07942.5080,W,1,9,1.7,14,M,,M,,*57
05/29/2014	04:09:35.359	$GPGGA,040935,2556.8797,N,07942.5065,W,1,8,1.7,14,M,,M,,*5B
05/29/2014	04:09:36.339	$GPGGA,040936,2556.8788,N,07942.5048,W,1,8,1.7,14,M,,M,,*59
05/29/2014	04:09:37.363	$GPGGA,040937,2556.8775,N,07942.5031,W,1,9,1.7,14,M,,M,,*55
05/29/2014	04:09:38.353	$GPGGA,040938,2556.8764,N,07942.5014,W,1,9,1.7,14,M,,M,,*5D
05/29/2014	04:09:39.375	$GPGGA,040939,2556.8752,N,07942.4996,W,1,8,1.7,14,M,,M,,*5A
05/29/2014	04:09:39.536	$GPGGA,040940,2556.8742,N,07942.4980,W,1,8,1.7,14,M,,M,,*52
05/29/2014	04:09:40.680	$GPGGA,040941,2556.8732,N,07942.4965,W,1,9,1.7,14,M,,M,,*5E
05/29/2014	04:09:41.530	$GPGGA,040942,2556.8721,N,07942.4947,W,1,9,1.7,14,M,,M,,*5F
05/29/2014	04:09:42.562	$GPGGA,040943,2556.8710,N,07942.4930,W,1,8,1.7,14,M,,M,,*5D
05/29/2014	04:09:43.595	$GPGGA,040944,2556.8698,N,07942.4913,W,1,8,1.7,14,M,,M,,*5A
05/29/2014	04:09:44.556	$GPGGA,040945,2556.8687,N,07942.4895,W,1,9,1.7,14,M,,M,,*5B
05/29/2014	04:09:45.741	$GPGGA,040946,2556.8676,N,07942.4878,W,1,9,1.7,14,M,,M,,*55
05/29/2014	04:09:46.722	$GPGGA,040947,2556.8665,N,07942.4861,W,1,9,1.7,14,M,,M,,*5E
05/29/2014	04:09:47.623	$GPGGA,040948,2556.8653,N,07942.4844,W,1,9,1.7,14,M,,M,,*53
05/29/2014	04:09:48.605	$GPGGA,040949,2556.8642,N,07942.4827,W,1,9,1.7,14,M,,M,,*57
05/29/2014	04:09:49.790	$GPGGA,040950,2556.8631,N,07942.4810,W,1,9,1.7,14,M,,M,,*5F
05/29/2014	04:09:50.649	$GPGGA,040951,2556.8622,N,07942.4793,W,1,9,1.7,14,M,,M,,*58
05/29/2014	04:09:51.641	$GPGGA,040952,2556.8611,N,07942.4777,W,1,9,1.7,14,M,,M,,*51
05/29/2014	04:09:52.643	$GPGGA,040953,2556.8600,N,07942.4760,W,1,9,1.7,14,M,,M,,*56
05/29/2014	04:09:53.746	$GPGGA,040954,2556.8589,N,07942.4743,W,1,9,1.7,14,M,,M,,*52
05/29/2014	04:09:54.839	$GPGGA,040955,2556.8578,N,07942.4727,W,1,9,1.7,14,M,,M,,*5F
05/29/2014	04:09:55.851	$GPGGA,040956,2556.8568,N,07942.4710,W,1,9,1.7,14,M,,M,,*59
05/29/2014	04:09:56.690	$GPGGA,040957,2556.8557,N,07942.4693,W,1,9,1.7,14,M,,M,,*5E
05/29/2014	04:09:57.794	$GPGGA,040958,2556.8546,N,07942.4675,W,1,9,1.7,14,M,,M,,*59
05/29/2014	04:09:58.836	$GPGGA,040959,2556.8535,N,07942.4657,W,1,8,1.7,14,M,,M,,*5D
05/29/2014	04:09:59.909	$GPGGA,041000,2556.8524,N,07942.4640,W,1,8,1.7,14,M,,M,,*5F
05/29/2014	04:10:00.729	$GPGGA,041001,2556.8513,N,07942.4622,W,1,9,1.7,14,M,,M,,*5F
05/29/2014	04:10:01.903	$GPGGA,041002,2556.8501,N,07942.4604,W,1,9,1.7,14,M,,M,,*5B
05/29/2014	04:10:02.874	$GPGGA,041003,2556.8490,N,07942.4587,W,1,8,1.7,14,M,,M,,*5A
05/29/2014	04:10:03.886	$GPGGA,041004,2556.8479,N,07942.4568,W,1,8,1.7,14,M,,M,,*5B
05/29/2014	04:10:04.909	$GPGGA,041005,2556.8467,N,07942.4550,W,1,8,1.7,14,M,,M,,*5E
05/29/2014	04:10:05.870	$GPGGA,041006,2556.8456,N,07942.4533,W,1,8,1.7,14,M,,M,,*5A
05/29/2014	04:10:06.923	$GPGGA,041007,2556.8445,N,07942.4514,W,1,8,1.7,14,M,,M,,*5C
05/29/2014	04:10:07.904	$GPGGA,041008,2556.8434,N,07942.4496,W,1,8,1.7,14,M,,M,,*5E
05/29/2014	04:10:08.937	$GPGGA,041009,2556.8423,N,07942.4479,W,1,8,1.7,14,M,,M,,*58
05/29/2014	04:10:09.979	$GPGGA,041010,2556.8412,N,07942.4460,W,1,8,1.7,14,M,,M,,*5A
05/29/2014	04:10:10.921	$GPGGA,041011,2556.8402,N,07942.4443,W,1,8,1.7,14,M,,M,,*5B
05/29/2014	04:10:11.944	$GPGGA,041012,2556.8391,N,07942.4425,W,1,8,1.7,14,M,,M,,*55
05/29/2014	04:10:12.984	$GPGGA,041013,2556.8380,N,07942.4406,W,1,8,1.7,14,M,,M,,*55
05/29/2014	04:10:13.996	$GPGGA,041014,2556.8369,N,07942.4389,W,1,8,1.7,14,M,,M,,*55
05/29/2014	04:10:15.008	$GPGGA,041015,2556.8360,N,07942.4373,W,1,8,1.7,14,M,,M,,*58
05/29/2014	04:10:15.981	$GPGGA,041016,2556.8351,N,07942.4355,W,1,8,1.7,14,M,,M,,*5D
05/29/2014	04:10:17.033	$GPGGA,041017,2556.8341,N,07942.4340,W,1,9,1.7,14,M,,M,,*58
05/29/2014	04:10:18.065	$GPGGA,041018,2556.8333,N,07942.4323,W,1,9,1.7,14,M,,M,,*57
05/29/2014	04:10:19.006	$GPGGA,041019,2556.8322,N,07942.4305,W,1,9,1.7,14,M,,M,,*52
05/29/2014	04:10:20.099	$GPGGA,041020,2556.8312,N,07942.4288,W,1,9,1.7,14,M,,M,,*5F
05/29/2014	04:10:21.051	$GPGGA,041021,2556.8302,N,07942.4272,W,1,9,1.7,14,M,,M,,*5A
05/29/2014	04:10:22.032	$GPGGA,041022,2556.8293,N,07942.4254,W,1,9,1.7,14,M,,M,,*54
05/29/2014	04:10:23.044	$GPGGA,041023,2556.8282,N,07942.4236,W,1,9,1.7,14,M,,M,,*51
05/29/2014	04:10:24.127	$GPGGA,041024,2556.8270,N,07942.4217,W,1,9,1.7,14,M,,M,,*58
05/29/2014	04:10:25.119	$GPGGA,041025,2556.8260,N,07942.4198,W,1,8,1.8,14,M,,M,,*52
05/29/2014	04:10:26.131	$GPGGA,041026,2556.8248,N,07942.4180,W,1,8,1.8,14,M,,M,,*52
05/29/2014	04:10:27.114	$GPGGA,041027,2556.8240,N,07942.4164,W,1,8,1.7,14,M,,M,,*5E
05/29/2014	04:10:28.166	$GPGGA,041028,2556.8228,N,07942.4145,W,1,8,1.8,14,M,,M,,*53
05/29/2014	04:10:29.097	$GPGGA,041029,2556.8217,N,07942.4127,W,1,8,1.8,14,M,,M,,*5A
05/29/2014	04:10:30.180	$GPGGA,041030,2556.8206,N,07942.4108,W,1,8,1.8,14,M,,M,,*5F
05/29/2014	04:10:31.184	$GPGGA,041031,2556.8195,N,07942.4090,W,1,8,1.8,14,M,,M,,*57
05/29/2014	04:10:32.203	$GPGGA,041032,2556.8185,N,07942.4073,W,1,8,1.8,14,M,,M,,*58
05/29/2014	04:10:33.266	$GPGGA,041033,2556.8174,N,07942.4054,W,1,8,1.8,14,M,,M,,*52
05/29/2014	04:10:34.218	$GPGGA,041034,2556.8163,N,07942.4035,W,1,8,1.8,14,M,,M,,*54
05/29/2014	04:10:35.158	$GPGGA,041035,2556.8150,N,07942.4017,W,1,8,1.8,14,M,,M,,*55
05/29/2014	04:10:36.251	$GPGGA,041036,2556.8139,N,07942.4000,W,1,8,1.8,14,M,,M,,*5F
05/29/2014	04:10:37.304	$GPGGA,041037,2556.8129,N,07942.3981,W,1,8,1.8,14,M,,M,,*58
05/29/2014	04:10:38.256	$GPGGA,041038,2556.8117,N,07942.3963,W,1,8,1.8,14,M,,M,,*56
05/29/2014	04:10:39.298	$GPGGA,041039,2556.8107,N,07942.3946,W,1,8,1.8,14,M,,M,,*51
05/29/2014	04:10:39.606	$GPGGA,041040,2556.8098,N,07942.3929,W,1,8,1.8,14,M,,M,,*51
05/29/2014	04:10:40.527	$GPGGA,041041,2556.8087,N,07942.3911,W,1,8,1.8,14,M,,M,,*55
05/29/2014	04:10:41.611	$GPGGA,041042,2556.8077,N,07942.3897,W,1,8,1.7,14,M,,M,,*59
05/29/2014	04:10:42.512	$GPGGA,041043,2556.8066,N,07942.3878,W,1,9,1.7,14,M,,M,,*58
05/29/2014	04:10:43.665	$GPGGA,041044,2556.8055,N,07942.3860,W,1,9,1.8,14,M,,M,,*59
05/29/2014	04:10:44.646	$GPGGA,041045,2556.8044,N,07942.3843,W,1,8,1.8,13,M,,M,,*5F
05/29/2014	04:10:45.618	$GPGGA,041046,2556.8033,N,07942.3826,W,1,8,1.8,13,M,,M,,*5F
05/29/2014	04:10:46.691	$GPGGA,041047,2556.8023,N,07942.3809,W,1,8,1.7,13,M,,M,,*5D
05/29/2014	04:10:47.682	$GPGGA,041048,2556.8012,N,07942.3791,W,1,8,1.8,13,M,,M,,*51
05/29/2014	04:10:48.704	$GPGGA,041049,2556.8001,N,07942.3774,W,1,8,1.7,13,M,,M,,*56
05/29/2014	04:10:49.688	$GPGGA,041050,2556.7990,N,07942.3758,W,1,8,1.7,13,M,,M,,*5E
05/29/2014	04:10:50.728	$GPGGA,041051,2556.7979,N,07942.3741,W,1,9,1.8,13,M,,M,,*5E
05/29/2014	04:10:51.730	$GPGGA,041052,2556.7968,N,07942.3723,W,1,9,1.7,13,M,,M,,*56
05/29/2014	04:10:52.722	$GPGGA,041053,2556.7957,N,07942.3707,W,1,9,1.8,13,M,,M,,*52
05/29/2014	04:10:54.787	$GPGGA,041055,2556.7936,N,07942.3673,W,1,8,1.7,13,M,,M,,*5F
05/29/2014	04:10:55.758	$GPGGA,041056,2556.7925,N,07942.3657,W,1,8,1.8,13,M,,M,,*57
05/29/2014	04:10:56.781	$GPGGA,041057,2556.7914,N,07942.3640,W,1,8,1.8,13,M,,M,,*52
05/29/2014	04:10:57.782	$GPGGA,041058,2556.7905,N,07942.3623,W,1,8,1.7,13,M,,M,,*57
05/29/2014	04:10:58.815	$GPGGA,041059,2556.7894,N,07942.3608,W,1,9,1.7,13,M,,M,,*57
05/29/2014	04:10:59.867	$GPGGA,041100,2556.7882,N,07942.3591,W,1,9,1.8,13,M,,M,,*51
05/29/2014	04:11:00.850	$GPGGA,041101,2556.7871,N,07942.3572,W,1,8,1.8,13,M,,M,,*50
05/29/2014	04:11:01.822	$GPGGA,041102,2556.7859,N,07942.3554,W,1,8,1.7,13,M,,M,,*52
05/29/2014	04:11:02.824	$GPGGA,041103,2556.7847,N,07942.3537,W,1,9,1.8,13,M,,M,,*57
05/29/2014	04:11:03.856	$GPGGA,041104,2556.7836,N,07942.3520,W,1,9,1.8,13,M,,M,,*50
05/29/2014	04:11:04.867	$GPGGA,041105,2556.7827,N,07942.3502,W,1,8,1.7,13,M,,M,,*5F
05/29/2014	04:11:05.848	$GPGGA,041106,2556.7827,N,07942.3502,W,1,8,1.7,13,M,,M,,*5C
05/29/2014	04:11:06.860	$GPGGA,041107,2556.7804,N,07942.3469,W,1,9,1.7,13,M,,M,,*51
05/29/2014	04:11:07.902	$GPGGA,041108,2556.7793,N,07942.3451,W,1,9,1.8,13,M,,M,,*5B
05/29/2014	04:11:08.904	$GPGGA,041109,2556.7782,N,07942.3434,W,1,8,1.8,13,M,,M,,*58
05/29/2014	04:11:09.907	$GPGGA,041110,2556.7771,N,07942.3416,W,1,8,1.8,13,M,,M,,*5C
05/29/2014	04:11:10.939	$GPGGA,041111,2556.7759,N,07942.3399,W,1,8,1.8,13,M,,M,,*57
05/29/2014	04:11:11.921	$GPGGA,041112,2556.7759,N,07942.3399,W,1,8,1.8,13,M,,M,,*54
05/29/2014	04:11:12.953	$GPGGA,041113,2556.7737,N,07942.3363,W,1,8,1.8,13,M,,M,,*58
05/29/2014	04:11:13.935	$GPGGA,041114,2556.7737,N,07942.3363,W,1,8,1.8,13,M,,M,,*5F
05/29/2014	04:11:14.968	$GPGGA,041115,2556.7727,N,07942.3347,W,1,8,1.8,13,M,,M,,*59
05/29/2014	04:11:15.990	$GPGGA,041116,2556.7704,N,07942.3312,W,1,8,1.8,13,M,,M,,*5B
05/29/2014	04:11:17.001	$GPGGA,041117,2556.7694,N,07942.3294,W,1,8,1.8,13,M,,M,,*5D
05/29/2014	04:11:18.014	$GPGGA,041118,2556.7682,N,07942.3275,W,1,8,1.7,13,M,,M,,*55
05/29/2014	04:11:18.995	$GPGGA,041119,2556.7669,N,07942.3258,W,1,9,1.7,13,M,,M,,*5F
05/29/2014	04:11:19.997	$GPGGA,041120,2556.7669,N,07942.3258,W,1,9,1.7,13,M,,M,,*55
05/29/2014	04:11:21.009	$GPGGA,041121,2556.7661,N,07942.3239,W,1,9,1.7,13,M,,M,,*5B
05/29/2014	04:11:22.052	$GPGGA,041122,2556.7639,N,07942.3205,W,1,9,1.7,13,M,,M,,*5A
05/29/2014	04:11:23.032	$GPGGA,041123,2556.7629,N,07942.3187,W,1,9,1.7,13,M,,M,,*53
05/29/2014	04:11:24.105	$GPGGA,041124,2556.7618,N,07942.3168,W,1,9,1.7,13,M,,M,,*57
05/29/2014	04:11:25.036	$GPGGA,041125,2556.7618,N,07942.3168,W,1,9,1.7,13,M,,M,,*56
05/29/2014	04:11:26.109	$GPGGA,041126,2556.7597,N,07942.3133,W,1,9,1.7,13,M,,M,,*5F
05/29/2014	04:11:27.172	$GPGGA,041127,2556.7587,N,07942.3116,W,1,9,1.7,13,M,,M,,*58
05/29/2014	04:11:28.093	$GPGGA,041128,2556.7587,N,07942.3116,W,1,9,1.7,13,M,,M,,*57
05/29/2014	04:11:29.095	$GPGGA,041129,2556.7567,N,07942.3083,W,1,8,1.8,13,M,,M,,*5B
05/29/2014	04:11:30.198	$GPGGA,041130,2556.7558,N,07942.3066,W,1,8,1.7,13,M,,M,,*5B
05/29/2014	04:11:31.120	$GPGGA,041131,2556.7549,N,07942.3050,W,1,9,1.7,13,M,,M,,*5E
05/29/2014	04:11:32.141	$GPGGA,041132,2556.7549,N,07942.3050,W,1,9,1.7,13,M,,M,,*5D
05/29/2014	04:11:33.254	$GPGGA,041133,2556.7527,N,07942.3015,W,1,9,1.7,13,M,,M,,*55
05/29/2014	04:11:34.236	$GPGGA,041134,2556.7518,N,07942.2997,W,1,9,1.8,13,M,,M,,*53
05/29/2014	04:11:35.147	$GPGGA,041135,2556.7507,N,07942.2980,W,1,9,1.7,13,M,,M,,*55
05/29/2014	04:11:36.210	$GPGGA,041136,2556.7507,N,07942.2980,W,1,9,1.8,13,M,,M,,*59
05/29/2014	04:11:37.283	$GPGGA,041137,2556.7484,N,07942.2943,W,1,8,1.8,13,M,,M,,*5C
05/29/2014	04:11:38.265	$GPGGA,041138,2556.7475,N,07942.2927,W,1,8,1.8,13,M,,M,,*5F
05/29/2014	04:11:39.276	$GPGGA,041139,2556.7462,N,07942.2909,W,1,9,1.7,13,M,,M,,*5A
05/29/2014	04:11:39.583	$GPGGA,041140,2556.7451,N,07942.2892,W,1,9,2.1,13,M,,M,,*52
05/29/2014	04:11:40.595	$GPGGA,041141,2556.7441,N,07942.2876,W,1,8,1.8,13,M,,M,,*53
05/29/2014	04:11:41.588	$GPGGA,041142,2556.7430,N,07942.2859,W,1,8,1.7,13,M,,M,,*54
05/29/2014	04:11:42.609	$GPGGA,041143,2556.7417,N,07942.2842,W,1,8,1.8,13,M,,M,,*55
05/29/2014	04:11:43.631	$GPGGA,041144,2556.7408,N,07942.2825,W,1,8,1.8,13,M,,M,,*5D
05/29/2014	04:11:44.613	$GPGGA,041145,2556.7399,N,07942.2809,W,1,9,1.7,13,M,,M,,*53
05/29/2014	04:11:45.625	$GPGGA,041146,2556.7391,N,07942.2793,W,1,9,1.7,13,M,,M,,*54
05/29/2014	04:11:46.627	$GPGGA,041147,2556.7383,N,07942.2778,W,1,9,1.7,14,M,,M,,*54
05/29/2014	04:11:47.659	$GPGGA,041148,2556.7370,N,07942.2759,W,1,9,1.7,14,M,,M,,*54
05/29/2014	04:11:48.682	$GPGGA,041149,2556.7358,N,07942.2740,W,1,8,1.8,14,M,,M,,*59
05/29/2014	04:11:49.673	$GPGGA,041150,2556.7347,N,07942.2723,W,1,8,1.8,14,M,,M,,*5A
