Software Version Number: 1	Data File Format Number: 1	Build Version Number: 1	Error Count Since VI Started: 0	Manufacturer: Raytheon	 Model Number: RayMarine 120	 S/N: 	 Cal Date: 	 Wind Direction Offset: 0.00	 Slope (M)1: 0.00	 Offset (B)1: 0.00	 Slope (M)2: 0.00	 Offset (B)2: 0.00	 Slope (M)3: 0.00	 Offset (B)3: 0.00	 Slope (M)4: 0.00	 Offset (B)4: 0.00	 Slope (M)5: 0.00	 Offset (B)5: 0.00	 Slope (M)6: 0.00	 Offset (B)6: 0.00
Computer Date	Computer Time	GGA String
06/04/2014	23:00:00.565	$GPGGA,230001,2511.9501,N,08009.7742,W,1,10,1.5,17,M,,M,,*6E
06/04/2014	23:00:01.588	$GPGGA,230002,2511.9501,N,08009.7741,W,1,10,1.5,17,M,,M,,*6E
06/04/2014	23:00:02.521	$GPGGA,230003,2511.9504,N,08009.7742,W,1,10,1.5,17,M,,M,,*69
06/04/2014	23:00:03.604	$GPGGA,230004,2511.9505,N,08009.7739,W,1,10,1.5,17,M,,M,,*63
06/04/2014	23:00:04.647	$GPGGA,230005,2511.9505,N,08009.7737,W,1,10,1.5,17,M,,M,,*6C
06/04/2014	23:00:05.589	$GPGGA,230006,2511.9507,N,08009.7736,W,1,10,1.5,17,M,,M,,*6C
06/04/2014	23:00:06.522	$GPGGA,230007,2511.9509,N,08009.7736,W,1,10,1.5,17,M,,M,,*63
06/04/2014	23:00:07.595	$GPGGA,230008,2511.9509,N,08009.7733,W,1,10,1.5,17,M,,M,,*69
06/04/2014	23:00:08.628	$GPGGA,230009,2511.9512,N,08009.7731,W,1,10,1.5,17,M,,M,,*60
06/04/2014	23:00:09.631	$GPGGA,230010,2511.9514,N,08009.7731,W,1,10,1.5,17,M,,M,,*6E
06/04/2014	23:00:10.553	$GPGGA,230011,2511.9516,N,08009.7731,W,1,10,1.5,17,M,,M,,*6D
06/04/2014	23:00:11.656	$GPGGA,230012,2511.9518,N,08009.7728,W,1,10,1.5,17,M,,M,,*68
06/04/2014	23:00:12.619	$GPGGA,230013,2511.9520,N,08009.7727,W,1,10,1.5,17,M,,M,,*6D
06/04/2014	23:00:13.621	$GPGGA,230014,2511.9523,N,08009.7728,W,1,10,1.5,17,M,,M,,*66
06/04/2014	23:00:14.624	$GPGGA,230015,2511.9525,N,08009.7727,W,1,10,1.5,17,M,,M,,*6E
06/04/2014	23:00:15.606	$GPGGA,230016,2511.9529,N,08009.7725,W,1,10,1.5,17,M,,M,,*63
06/04/2014	23:00:16.629	$GPGGA,230017,2511.9531,N,08009.7725,W,1,10,1.5,17,M,,M,,*6B
06/04/2014	23:00:17.632	$GPGGA,230018,2511.9534,N,08009.7727,W,1,10,1.5,18,M,,M,,*6C
06/04/2014	23:00:18.665	$GPGGA,230019,2511.9538,N,08009.7725,W,1,10,1.5,18,M,,M,,*63
06/04/2014	23:00:19.648	$GPGGA,230020,2511.9541,N,08009.7723,W,1,10,1.5,18,M,,M,,*61
06/04/2014	23:00:20.650	$GPGGA,230021,2511.9544,N,08009.7722,W,1,10,1.5,18,M,,M,,*64
06/04/2014	23:00:21.633	$GPGGA,230022,2511.9547,N,08009.7722,W,1,10,1.5,18,M,,M,,*64
06/04/2014	23:00:22.636	$GPGGA,230023,2511.9548,N,08009.7721,W,1,10,1.5,18,M,,M,,*69
06/04/2014	23:00:23.649	$GPGGA,230024,2511.9552,N,08009.7721,W,1,10,1.5,18,M,,M,,*65
06/04/2014	23:00:24.652	$GPGGA,230025,2511.9555,N,08009.7720,W,1,10,1.5,18,M,,M,,*62
06/04/2014	23:00:25.634	$GPGGA,230026,2511.9556,N,08009.7718,W,1,10,1.5,18,M,,M,,*69
06/04/2014	23:00:26.647	$GPGGA,230027,2511.9559,N,08009.7720,W,1,10,1.5,18,M,,M,,*6C
06/04/2014	23:00:27.650	$GPGGA,230028,2511.9562,N,08009.7719,W,1,10,1.5,18,M,,M,,*61
06/04/2014	23:00:28.633	$GPGGA,230029,2511.9565,N,08009.7717,W,1,10,1.5,18,M,,M,,*69
06/04/2014	23:00:29.645	$GPGGA,230030,2511.9567,N,08009.7716,W,1,10,1.5,18,M,,M,,*62
06/04/2014	23:00:30.637	$GPGGA,230031,2511.9570,N,08009.7715,W,1,10,1.5,18,M,,M,,*66
06/04/2014	23:00:31.660	$GPGGA,230032,2511.9574,N,08009.7715,W,1,10,1.5,18,M,,M,,*61
06/04/2014	23:00:32.467	$GPGGA,230033,2511.9576,N,08009.7714,W,1,10,1.5,18,M,,M,,*63
06/04/2014	23:00:33.479	$GPGGA,230034,2511.9580,N,08009.7713,W,1,10,1.5,18,M,,M,,*6A
06/04/2014	23:00:34.501	$GPGGA,230035,2511.9584,N,08009.7713,W,1,10,1.5,19,M,,M,,*6E
06/04/2014	23:00:35.514	$GPGGA,230036,2511.9590,N,08009.7715,W,1,10,1.5,19,M,,M,,*6E
06/04/2014	23:00:36.507	$GPGGA,230037,2511.9595,N,08009.7715,W,1,10,1.5,19,M,,M,,*6A
06/04/2014	23:00:37.490	$GPGGA,230038,2511.9595,N,08009.7715,W,1,10,1.5,19,M,,M,,*65
06/04/2014	23:00:38.513	$GPGGA,230039,2511.9603,N,08009.7714,W,1,10,1.5,19,M,,M,,*69
06/04/2014	23:00:39.526	$GPGGA,230040,2511.9608,N,08009.7715,W,1,10,1.6,19,M,,M,,*6E
06/04/2014	23:00:40.488	$GPGGA,230041,2511.9610,N,08009.7715,W,1,10,1.6,19,M,,M,,*66
06/04/2014	23:00:41.511	$GPGGA,230042,2511.9613,N,08009.7713,W,1,10,1.5,19,M,,M,,*63
06/04/2014	23:00:42.484	$GPGGA,230043,2511.9619,N,08009.7713,W,1,10,1.5,19,M,,M,,*68
06/04/2014	23:00:43.517	$GPGGA,230044,2511.9624,N,08009.7715,W,1,10,1.5,19,M,,M,,*67
06/04/2014	23:00:44.519	$GPGGA,230045,2511.9627,N,08009.7713,W,1,10,1.6,19,M,,M,,*60
06/04/2014	23:00:45.512	$GPGGA,230046,2511.9628,N,08009.7710,W,1,10,1.6,20,M,,M,,*65
06/04/2014	23:00:46.486	$GPGGA,230047,2511.9632,N,08009.7711,W,1,10,2.2,20,M,,M,,*69
06/04/2014	23:00:47.509	$GPGGA,230048,2511.9632,N,08009.7711,W,1,10,2.2,20,M,,M,,*66
06/04/2014	23:00:48.500	$GPGGA,230049,2511.9639,N,08009.7706,W,1,10,2.2,20,M,,M,,*6A
06/04/2014	23:00:49.603	$GPGGA,230050,2511.9641,N,08009.7703,W,1,10,2.2,20,M,,M,,*68
06/04/2014	23:00:50.505	$GPGGA,230051,2511.9645,N,08009.7703,W,1,10,1.5,21,M,,M,,*68
06/04/2014	23:00:51.548	$GPGGA,230052,2511.9649,N,08009.7704,W,1,10,1.5,21,M,,M,,*60
06/04/2014	23:00:52.481	$GPGGA,230053,2511.9652,N,08009.7702,W,1,10,1.5,21,M,,M,,*6D
06/04/2014	23:00:53.604	$GPGGA,230054,2511.9653,N,08009.7700,W,1,10,1.5,21,M,,M,,*69
06/04/2014	23:00:54.587	$GPGGA,230055,2511.9657,N,08009.7702,W,1,10,1.5,21,M,,M,,*6E
06/04/2014	23:00:55.499	$GPGGA,230056,2511.9657,N,08009.7702,W,1,10,1.5,22,M,,M,,*6E
06/04/2014	23:00:56.592	$GPGGA,230057,2511.9664,N,08009.7700,W,1,10,1.5,22,M,,M,,*6D
06/04/2014	23:00:57.495	$GPGGA,230058,2511.9664,N,08009.7700,W,1,10,1.5,22,M,,M,,*62
06/04/2014	23:00:58.497	$GPGGA,230059,2511.9673,N,08009.7699,W,1,10,1.5,22,M,,M,,*64
06/04/2014	23:00:59.611	$GPGGA,230100,2511.9677,N,08009.7698,W,1,10,1.5,23,M,,M,,*6D
06/04/2014	23:01:00.593	$GPGGA,230101,2511.9681,N,08009.7699,W,1,10,1.5,23,M,,M,,*64
06/04/2014	23:01:01.506	$GPGGA,230102,2511.9681,N,08009.7699,W,1,10,1.5,23,M,,M,,*67
06/04/2014	23:01:02.599	$GPGGA,230103,2511.9688,N,08009.7697,W,1,10,1.5,23,M,,M,,*61
06/04/2014	23:01:03.612	$GPGGA,230104,2511.9692,N,08009.7694,W,1,10,1.5,23,M,,M,,*6E
06/04/2014	23:01:04.595	$GPGGA,230105,2511.9697,N,08009.7695,W,1,10,1.5,23,M,,M,,*6B
06/04/2014	23:01:05.596	$GPGGA,230106,2511.9702,N,08009.7696,W,1,10,1.5,23,M,,M,,*66
06/04/2014	23:01:06.599	$GPGGA,230107,2511.9706,N,08009.7695,W,1,10,1.5,24,M,,M,,*67
06/04/2014	23:01:07.642	$GPGGA,230108,2511.9708,N,08009.7692,W,1,10,1.5,24,M,,M,,*61
06/04/2014	23:01:08.615	$GPGGA,230109,2511.9714,N,08009.7692,W,1,9,1.5,24,M,,M,,*55
06/04/2014	23:01:09.608	$GPGGA,230110,2511.9718,N,08009.7692,W,1,9,1.5,24,M,,M,,*51
06/04/2014	23:01:10.600	$GPGGA,230111,2511.9722,N,08009.7692,W,1,9,1.5,24,M,,M,,*59
06/04/2014	23:01:11.613	$GPGGA,230112,2511.9728,N,08009.7691,W,1,9,1.5,24,M,,M,,*53
06/04/2014	23:01:12.616	$GPGGA,230113,2511.9733,N,08009.7690,W,1,10,1.5,24,M,,M,,*61
06/04/2014	23:01:13.599	$GPGGA,230114,2511.9739,N,08009.7689,W,1,10,1.5,24,M,,M,,*64
06/04/2014	23:01:14.642	$GPGGA,230115,2511.9743,N,08009.7691,W,1,10,1.5,24,M,,M,,*61
06/04/2014	23:01:15.614	$GPGGA,230116,2511.9747,N,08009.7690,W,1,10,1.5,24,M,,M,,*67
06/04/2014	23:01:16.597	$GPGGA,230117,2511.9751,N,08009.7688,W,1,10,1.5,24,M,,M,,*68
06/04/2014	23:01:17.600	$GPGGA,230118,2511.9758,N,08009.7687,W,1,10,1.5,24,M,,M,,*61
06/04/2014	23:01:18.623	$GPGGA,230119,2511.9761,N,08009.7686,W,1,10,1.5,24,M,,M,,*6B
06/04/2014	23:01:19.657	$GPGGA,230120,2511.9764,N,08009.7685,W,1,10,2.2,24,M,,M,,*63
06/04/2014	23:01:20.603	$GPGGA,230121,2511.9769,N,08009.7684,W,1,9,2.2,24,M,,M,,*56
06/04/2014	23:01:21.611	$GPGGA,230122,2511.9773,N,08009.7682,W,1,9,2.2,24,M,,M,,*58
06/04/2014	23:01:22.634	$GPGGA,230123,2511.9778,N,08009.7680,W,1,10,1.5,24,M,,M,,*6C
06/04/2014	23:01:23.626	$GPGGA,230124,2511.9782,N,08009.7679,W,1,10,1.5,24,M,,M,,*68
06/04/2014	23:01:24.598	$GPGGA,230125,2511.9787,N,08009.7677,W,1,10,1.5,24,M,,M,,*62
06/04/2014	23:01:25.611	$GPGGA,230126,2511.9791,N,08009.7675,W,1,10,1.6,24,M,,M,,*67
06/04/2014	23:01:26.614	$GPGGA,230127,2511.9797,N,08009.7675,W,1,10,1.6,24,M,,M,,*60
06/04/2014	23:01:27.627	$GPGGA,230128,2511.9800,N,08009.7675,W,1,10,1.5,24,M,,M,,*6D
06/04/2014	23:01:28.600	$GPGGA,230129,2511.9804,N,08009.7675,W,1,10,1.5,24,M,,M,,*68
06/04/2014	23:01:29.622	$GPGGA,230130,2511.9808,N,08009.7674,W,1,10,1.5,24,M,,M,,*6D
06/04/2014	23:01:30.635	$GPGGA,230131,2511.9812,N,08009.7673,W,1,10,1.5,24,M,,M,,*60
06/04/2014	23:01:31.638	$GPGGA,230132,2511.9816,N,08009.7673,W,1,10,1.5,24,M,,M,,*67
06/04/2014	23:01:32.475	$GPGGA,230133,2511.9820,N,08009.7671,W,1,10,1.5,24,M,,M,,*61
06/04/2014	23:01:33.458	$GPGGA,230134,2511.9826,N,08009.7670,W,1,10,1.5,24,M,,M,,*61
06/04/2014	23:01:34.460	$GPGGA,230135,2511.9832,N,08009.7668,W,1,10,1.5,24,M,,M,,*6C
06/04/2014	23:01:35.453	$GPGGA,230136,2511.9837,N,08009.7667,W,1,10,1.5,24,M,,M,,*65
06/04/2014	23:01:36.476	$GPGGA,230137,2511.9840,N,08009.7666,W,1,10,1.5,24,M,,M,,*65
06/04/2014	23:01:37.539	$GPGGA,230138,2511.9844,N,08009.7664,W,1,10,1.5,24,M,,M,,*6C
06/04/2014	23:01:38.472	$GPGGA,230139,2511.9848,N,08009.7662,W,1,10,1.5,24,M,,M,,*67
06/04/2014	23:01:39.474	$GPGGA,230140,2511.9852,N,08009.7660,W,1,10,1.5,24,M,,M,,*60
06/04/2014	23:01:40.566	$GPGGA,230141,2511.9858,N,08009.7654,W,1,8,2.6,24,M,,M,,*55
06/04/2014	23:01:41.449	$GPGGA,230142,2511.9863,N,08009.7650,W,1,8,2.2,24,M,,M,,*5E
06/04/2014	23:01:42.472	$GPGGA,230143,2511.9866,N,08009.7648,W,1,9,2.2,24,M,,M,,*52
06/04/2014	23:01:43.465	$GPGGA,230144,2511.9872,N,08009.7647,W,1,9,2.2,25,M,,M,,*5E
06/04/2014	23:01:44.467	$GPGGA,230145,2511.9877,N,08009.7643,W,1,9,2.2,25,M,,M,,*5E
06/04/2014	23:01:45.440	$GPGGA,230146,2511.9881,N,08009.7641,W,1,9,2.2,25,M,,M,,*56
06/04/2014	23:01:46.543	$GPGGA,230147,2511.9885,N,08009.7638,W,1,9,2.2,25,M,,M,,*5D
06/04/2014	23:01:47.566	$GPGGA,230148,2511.9891,N,08009.7635,W,1,9,2.2,25,M,,M,,*5A
06/04/2014	23:01:48.549	$GPGGA,230149,2511.9895,N,08009.7633,W,1,9,2.2,25,M,,M,,*59
06/04/2014	23:01:49.461	$GPGGA,230150,2511.9899,N,08009.7631,W,1,9,2.6,25,M,,M,,*5B
06/04/2014	23:01:50.554	$GPGGA,230151,2511.9905,N,08009.7626,W,1,8,2.6,25,M,,M,,*59
06/04/2014	23:01:51.467	$GPGGA,230152,2511.9910,N,08009.7622,W,1,8,2.2,25,M,,M,,*5E
06/04/2014	23:01:52.550	$GPGGA,230153,2511.9913,N,08009.7617,W,1,9,2.2,26,M,,M,,*58
06/04/2014	23:01:53.554	$GPGGA,230154,2511.9920,N,08009.7612,W,1,9,2.2,26,M,,M,,*5A
06/04/2014	23:01:54.586	$GPGGA,230155,2511.9926,N,08009.7609,W,1,9,2.2,26,M,,M,,*57
06/04/2014	23:01:55.568	$GPGGA,230156,2511.9930,N,08009.7608,W,1,9,2.2,26,M,,M,,*52
06/04/2014	23:01:56.551	$GPGGA,230157,2511.9932,N,08009.7606,W,1,8,2.6,26,M,,M,,*5A
06/04/2014	23:01:57.554	$GPGGA,230158,2511.9939,N,08009.7605,W,1,8,2.2,26,M,,M,,*59
06/04/2014	23:01:58.576	$GPGGA,230159,2511.9945,N,08009.7602,W,1,9,2.2,26,M,,M,,*55
06/04/2014	23:01:59.579	$GPGGA,230200,2511.9948,N,08009.7598,W,1,9,2.2,26,M,,M,,*57
06/04/2014	23:02:00.571	$GPGGA,230201,2511.9953,N,08009.7597,W,1,9,2.2,26,M,,M,,*53
06/04/2014	23:02:01.564	$GPGGA,230202,2511.9957,N,08009.7594,W,1,9,2.6,26,M,,M,,*53
06/04/2014	23:02:02.557	$GPGGA,230203,2511.9963,N,08009.7590,W,1,9,2.2,26,M,,M,,*55
06/04/2014	23:02:03.580	$GPGGA,230204,2511.9967,N,08009.7588,W,1,9,2.2,26,M,,M,,*5F
06/04/2014	23:02:04.582	$GPGGA,230205,2511.9973,N,08009.7586,W,1,9,2.2,26,M,,M,,*55
06/04/2014	23:02:05.565	$GPGGA,230206,2511.9978,N,08009.7582,W,1,9,2.2,26,M,,M,,*59
06/04/2014	23:02:06.588	$GPGGA,230207,2511.9982,N,08009.7579,W,1,9,2.2,26,M,,M,,*59
06/04/2014	23:02:07.581	$GPGGA,230208,2511.9986,N,08009.7576,W,1,9,2.2,26,M,,M,,*5D
06/04/2014	23:02:08.554	$GPGGA,230209,2511.9991,N,08009.7572,W,1,9,2.2,26,M,,M,,*5E
06/04/2014	23:02:09.566	$GPGGA,230210,2511.9996,N,08009.7568,W,1,9,1.5,27,M,,M,,*5F
06/04/2014	23:02:10.569	$GPGGA,230211,2512.0002,N,08009.7565,W,1,10,1.5,27,M,,M,,*65
06/04/2014	23:02:11.592	$GPGGA,230212,2512.0004,N,08009.7562,W,1,10,1.5,27,M,,M,,*67
06/04/2014	23:02:12.605	$GPGGA,230213,2512.0009,N,08009.7559,W,1,10,1.5,27,M,,M,,*63
06/04/2014	23:02:13.579	$GPGGA,230214,2512.0014,N,08009.7557,W,1,10,1.5,27,M,,M,,*66
06/04/2014	23:02:14.580	$GPGGA,230215,2512.0020,N,08009.7555,W,1,10,1.5,27,M,,M,,*62
06/04/2014	23:02:15.582	$GPGGA,230216,2512.0024,N,08009.7553,W,1,10,1.5,27,M,,M,,*63
06/04/2014	23:02:16.565	$GPGGA,230217,2512.0028,N,08009.7551,W,1,10,1.5,27,M,,M,,*6C
06/04/2014	23:02:17.578	$GPGGA,230218,2512.0033,N,08009.7549,W,1,10,1.5,27,M,,M,,*60
06/04/2014	23:02:18.601	$GPGGA,230219,2512.0036,N,08009.7547,W,1,10,1.5,27,M,,M,,*6A
06/04/2014	23:02:19.584	$GPGGA,230220,2512.0040,N,08009.7546,W,1,10,1.5,28,M,,M,,*6F
06/04/2014	23:02:20.567	$GPGGA,230221,2512.0044,N,08009.7547,W,1,9,1.5,28,M,,M,,*53
06/04/2014	23:02:21.669	$GPGGA,230222,2512.0049,N,08009.7545,W,1,9,1.5,28,M,,M,,*5F
06/04/2014	23:02:22.572	$GPGGA,230223,2512.0054,N,08009.7542,W,1,10,1.5,28,M,,M,,*6D
06/04/2014	23:02:23.605	$GPGGA,230224,2512.0060,N,08009.7540,W,1,10,1.6,28,M,,M,,*6C
06/04/2014	23:02:24.567	$GPGGA,230225,2512.0065,N,08009.7539,W,1,10,1.6,28,M,,M,,*66
06/04/2014	23:02:25.590	$GPGGA,230226,2512.0069,N,08009.7537,W,1,10,1.6,28,M,,M,,*67
06/04/2014	23:02:26.683	$GPGGA,230227,2512.0076,N,08009.7535,W,1,10,1.5,27,M,,M,,*66
06/04/2014	23:02:27.596	$GPGGA,230228,2512.0080,N,08009.7534,W,1,10,1.5,27,M,,M,,*61
06/04/2014	23:02:28.599	$GPGGA,230229,2512.0085,N,08009.7534,W,1,10,1.5,27,M,,M,,*65
06/04/2014	23:02:29.672	$GPGGA,230230,2512.0090,N,08009.7533,W,1,10,1.5,27,M,,M,,*6E
06/04/2014	23:02:30.594	$GPGGA,230231,2512.0094,N,08009.7533,W,1,10,1.5,27,M,,M,,*6B
06/04/2014	23:02:31.587	$GPGGA,230232,2512.0100,N,08009.7531,W,1,10,1.5,27,M,,M,,*66
06/04/2014	23:02:32.542	$GPGGA,230233,2512.0104,N,08009.7530,W,1,10,1.5,27,M,,M,,*62
06/04/2014	23:02:33.414	$GPGGA,230234,2512.0109,N,08009.7530,W,1,10,2.2,27,M,,M,,*6C
06/04/2014	23:02:34.508	$GPGGA,230235,2512.0115,N,08009.7528,W,1,10,1.5,27,M,,M,,*6D
06/04/2014	23:02:35.530	$GPGGA,230236,2512.0121,N,08009.7527,W,1,10,1.5,27,M,,M,,*66
06/04/2014	23:02:36.523	$GPGGA,230237,2512.0126,N,08009.7526,W,1,9,1.7,27,M,,M,,*5B
06/04/2014	23:02:37.516	$GPGGA,230238,2512.0130,N,08009.7526,W,1,9,1.5,27,M,,M,,*51
06/04/2014	23:02:38.539	$GPGGA,230239,2512.0134,N,08009.7524,W,1,10,1.5,27,M,,M,,*6E
06/04/2014	23:02:39.532	$GPGGA,230240,2512.0141,N,08009.7525,W,1,10,1.5,27,M,,M,,*63
06/04/2014	23:02:40.544	$GPGGA,230241,2512.0148,N,08009.7523,W,1,10,1.5,27,M,,M,,*6D
06/04/2014	23:02:41.527	$GPGGA,230242,2512.0154,N,08009.7522,W,1,10,1.5,26,M,,M,,*63
06/04/2014	23:02:42.520	$GPGGA,230243,2512.0159,N,08009.7521,W,1,10,1.5,26,M,,M,,*6C
06/04/2014	23:02:43.533	$GPGGA,230244,2512.0166,N,08009.7520,W,1,10,1.5,26,M,,M,,*66
06/04/2014	23:02:44.546	$GPGGA,230245,2512.0172,N,08009.7519,W,1,10,1.5,26,M,,M,,*68
06/04/2014	23:02:45.528	$GPGGA,230246,2512.0176,N,08009.7517,W,1,10,1.5,26,M,,M,,*61
06/04/2014	23:02:46.531	$GPGGA,230247,2512.0181,N,08009.7516,W,1,10,1.5,26,M,,M,,*69
06/04/2014	23:02:47.544	$GPGGA,230248,2512.0188,N,08009.7515,W,1,10,1.6,26,M,,M,,*6F
06/04/2014	23:02:48.527	$GPGGA,230249,2512.0194,N,08009.7512,W,1,10,1.5,25,M,,M,,*64
06/04/2014	23:02:49.529	$GPGGA,230250,2512.0198,N,08009.7511,W,1,10,1.5,25,M,,M,,*63
06/04/2014	23:02:50.541	$GPGGA,230251,2512.0204,N,08009.7510,W,1,10,1.5,25,M,,M,,*65
06/04/2014	23:02:51.544	$GPGGA,230252,2512.0209,N,08009.7511,W,1,10,1.5,25,M,,M,,*6A
06/04/2014	23:02:52.547	$GPGGA,230253,2512.0213,N,08009.7508,W,1,10,1.5,25,M,,M,,*68
06/04/2014	23:02:53.520	$GPGGA,230254,2512.0217,N,08009.7506,W,1,10,1.5,25,M,,M,,*65
06/04/2014	23:02:54.522	$GPGGA,230255,2512.0224,N,08009.7505,W,1,10,1.5,25,M,,M,,*67
06/04/2014	23:02:55.545	$GPGGA,230256,2512.0228,N,08009.7504,W,1,10,1.6,24,M,,M,,*6B
06/04/2014	23:02:56.568	$GPGGA,230257,2512.0235,N,08009.7502,W,1,10,1.5,24,M,,M,,*63
06/04/2014	23:02:57.541	$GPGGA,230258,2512.0239,N,08009.7500,W,1,10,1.5,24,M,,M,,*62
06/04/2014	23:02:58.554	$GPGGA,230259,2512.0245,N,08009.7498,W,1,10,1.5,24,M,,M,,*68
06/04/2014	23:02:59.556	$GPGGA,230300,2512.0251,N,08009.7498,W,1,10,1.5,24,M,,M,,*60
06/04/2014	23:03:00.559	$GPGGA,230301,2512.0255,N,08009.7497,W,1,10,1.5,24,M,,M,,*6A
06/04/2014	23:03:01.542	$GPGGA,230302,2512.0259,N,08009.7494,W,1,10,1.5,24,M,,M,,*66
06/04/2014	23:03:02.545	$GPGGA,230303,2512.0264,N,08009.7492,W,1,9,2.2,24,M,,M,,*53
06/04/2014	23:03:03.548	$GPGGA,230304,2512.0268,N,08009.7491,W,1,9,2.2,24,M,,M,,*5B
06/04/2014	23:03:04.550	$GPGGA,230305,2512.0273,N,08009.7489,W,1,9,2.2,24,M,,M,,*59
06/04/2014	23:03:05.533	$GPGGA,230306,2512.0278,N,08009.7487,W,1,9,2.2,24,M,,M,,*5F
06/04/2014	23:03:06.686	$GPGGA,230307,2512.0282,N,08009.7485,W,1,9,1.5,24,M,,M,,*5D
06/04/2014	23:03:07.539	$GPGGA,230308,2512.0288,N,08009.7483,W,1,9,1.5,24,M,,M,,*5E
06/04/2014	23:03:08.571	$GPGGA,230309,2512.0292,N,08009.7480,W,1,9,2.2,24,M,,M,,*53
06/04/2014	23:03:09.533	$GPGGA,230310,2512.0298,N,08009.7478,W,1,9,2.2,24,M,,M,,*56
06/04/2014	23:03:10.576	$GPGGA,230311,2512.0303,N,08009.7477,W,1,9,2.2,24,M,,M,,*5B
06/04/2014	23:03:11.559	$GPGGA,230312,2512.0307,N,08009.7479,W,1,9,2.2,24,M,,M,,*52
06/04/2014	23:03:12.662	$GPGGA,230313,2512.0311,N,08009.7478,W,1,8,2.6,24,M,,M,,*50
06/04/2014	23:03:13.655	$GPGGA,230314,2512.0317,N,08009.7480,W,1,8,2.2,24,M,,M,,*52
06/04/2014	23:03:14.698	$GPGGA,230315,2512.0320,N,08009.7479,W,1,10,1.5,24,M,,M,,*6C
06/04/2014	23:03:15.670	$GPGGA,230316,2512.0325,N,08009.7478,W,1,10,1.5,24,M,,M,,*6B
06/04/2014	23:03:16.543	$GPGGA,230317,2512.0332,N,08009.7473,W,1,9,1.5,24,M,,M,,*5F
06/04/2014	23:03:17.636	$GPGGA,230318,2512.0336,N,08009.7472,W,1,9,1.5,24,M,,M,,*55
06/04/2014	23:03:18.538	$GPGGA,230319,2512.0340,N,08009.7472,W,1,10,1.5,24,M,,M,,*6D
06/04/2014	23:03:19.561	$GPGGA,230320,2512.0345,N,08009.7473,W,1,10,1.5,24,M,,M,,*63
06/04/2014	23:03:20.674	$GPGGA,230321,2512.0349,N,08009.7473,W,1,10,1.5,24,M,,M,,*6E
06/04/2014	23:03:21.647	$GPGGA,230322,2512.0353,N,08009.7475,W,1,10,1.5,24,M,,M,,*60
06/04/2014	23:03:22.650	$GPGGA,230323,2512.0357,N,08009.7473,W,1,8,2.6,24,M,,M,,*5A
06/04/2014	23:03:23.653	$GPGGA,230324,2512.0361,N,08009.7475,W,1,8,1.5,24,M,,M,,*5E
06/04/2014	23:03:24.666	$GPGGA,230325,2512.0365,N,08009.7476,W,1,10,1.5,24,M,,M,,*61
06/04/2014	23:03:25.658	$GPGGA,230326,2512.0368,N,08009.7473,W,1,10,2.2,24,M,,M,,*6E
06/04/2014	23:03:26.660	$GPGGA,230327,2512.0372,N,08009.7472,W,1,10,1.5,24,M,,M,,*61
06/04/2014	23:03:27.664	$GPGGA,230328,2512.0376,N,08009.7475,W,1,10,1.5,24,M,,M,,*6D
06/04/2014	23:03:28.646	$GPGGA,230329,2512.0382,N,08009.7479,W,1,9,2.2,24,M,,M,,*57
06/04/2014	23:03:29.648	$GPGGA,230330,2512.0383,N,08009.7482,W,1,9,2.6,24,M,,M,,*5E
06/04/2014	23:03:30.671	$GPGGA,230331,2512.0387,N,08009.7480,W,1,10,1.5,24,M,,M,,*61
06/04/2014	23:03:31.664	$GPGGA,230332,2512.0392,N,08009.7482,W,1,10,1.5,24,M,,M,,*64
06/04/2014	23:03:32.510	$GPGGA,230333,2512.0397,N,08009.7482,W,1,10,1.5,24,M,,M,,*60
06/04/2014	23:03:33.483	$GPGGA,230334,2512.0400,N,08009.7483,W,1,10,1.5,24,M,,M,,*6F
06/04/2014	23:03:34.505	$GPGGA,230335,2512.0403,N,08009.7486,W,1,10,1.5,24,M,,M,,*68
06/04/2014	23:03:35.498	$GPGGA,230336,2512.0408,N,08009.7489,W,1,10,1.5,24,M,,M,,*6F
06/04/2014	23:03:36.511	$GPGGA,230337,2512.0412,N,08009.7491,W,1,9,2.2,24,M,,M,,*50
06/04/2014	23:03:37.494	$GPGGA,230338,2512.0415,N,08009.7494,W,1,9,1.7,24,M,,M,,*5B
06/04/2014	23:03:38.517	$GPGGA,230339,2512.0419,N,08009.7496,W,1,10,1.5,24,M,,M,,*6E
06/04/2014	23:03:39.509	$GPGGA,230340,2512.0423,N,08009.7500,W,1,10,1.5,24,M,,M,,*67
06/04/2014	23:03:40.523	$GPGGA,230341,2512.0428,N,08009.7501,W,1,10,1.5,24,M,,M,,*6C
06/04/2014	23:03:41.505	$GPGGA,230342,2512.0430,N,08009.7504,W,1,10,1.5,24,M,,M,,*63
06/04/2014	23:03:42.497	$GPGGA,230343,2512.0436,N,08009.7504,W,1,10,1.5,24,M,,M,,*64
06/04/2014	23:03:43.520	$GPGGA,230344,2512.0440,N,08009.7507,W,1,10,1.6,24,M,,M,,*62
06/04/2014	23:03:44.532	$GPGGA,230345,2512.0443,N,08009.7507,W,1,10,1.5,24,M,,M,,*63
06/04/2014	23:03:45.505	$GPGGA,230346,2512.0447,N,08009.7509,W,1,10,1.5,24,M,,M,,*6A
06/04/2014	23:03:46.548	$GPGGA,230347,2512.0451,N,08009.7511,W,1,10,1.5,24,M,,M,,*65
06/04/2014	23:03:47.511	$GPGGA,230348,2512.0455,N,08009.7511,W,1,10,1.5,24,M,,M,,*6E
06/04/2014	23:03:48.494	$GPGGA,230349,2512.0459,N,08009.7512,W,1,10,1.5,24,M,,M,,*60
06/04/2014	23:03:49.506	$GPGGA,230350,2512.0462,N,08009.7514,W,1,10,1.5,24,M,,M,,*66
06/04/2014	23:03:50.509	$GPGGA,230351,2512.0466,N,08009.7515,W,1,10,1.5,24,M,,M,,*62
06/04/2014	23:03:51.522	$GPGGA,230352,2512.0470,N,08009.7516,W,1,10,1.5,24,M,,M,,*65
06/04/2014	23:03:52.535	$GPGGA,230353,2512.0475,N,08009.7518,W,1,10,1.5,24,M,,M,,*6F
06/04/2014	23:03:53.498	$GPGGA,230354,2512.0479,N,08009.7518,W,1,10,1.5,24,M,,M,,*64
06/04/2014	23:03:54.540	$GPGGA,230355,2512.0480,N,08009.7519,W,1,9,1.5,24,M,,M,,*5A
06/04/2014	23:03:55.513	$GPGGA,230356,2512.0484,N,08009.7519,W,1,9,1.5,23,M,,M,,*5A
06/04/2014	23:03:56.496	$GPGGA,230357,2512.0488,N,08009.7522,W,1,10,1.5,23,M,,M,,*67
06/04/2014	23:03:57.508	$GPGGA,230358,2512.0492,N,08009.7522,W,1,10,1.5,23,M,,M,,*63
06/04/2014	23:03:58.631	$GPGGA,230359,2512.0495,N,08009.7523,W,1,10,1.5,23,M,,M,,*64
06/04/2014	23:03:59.534	$GPGGA,230400,2512.0498,N,08009.7525,W,1,10,1.5,23,M,,M,,*64
06/04/2014	23:04:00.525	$GPGGA,230401,2512.0501,N,08009.7527,W,1,10,1.5,23,M,,M,,*66
06/04/2014	23:04:01.598	$GPGGA,230402,2512.0502,N,08009.7529,W,1,10,1.5,23,M,,M,,*68
06/04/2014	23:04:02.500	$GPGGA,230403,2512.0504,N,08009.7532,W,1,10,1.5,23,M,,M,,*65
06/04/2014	23:04:03.523	$GPGGA,230404,2512.0506,N,08009.7534,W,1,10,1.5,23,M,,M,,*66
06/04/2014	23:04:04.616	$GPGGA,230405,2512.0506,N,08009.7540,W,1,8,1.6,23,M,,M,,*5E
06/04/2014	23:04:05.609	$GPGGA,230406,2512.0508,N,08009.7543,W,1,8,1.6,23,M,,M,,*50
06/04/2014	23:04:06.631	$GPGGA,230407,2512.0507,N,08009.7547,W,1,10,1.5,23,M,,M,,*60
06/04/2014	23:04:07.513	$GPGGA,230408,2512.0509,N,08009.7550,W,1,10,1.5,23,M,,M,,*67
06/04/2014	23:04:08.616	$GPGGA,230409,2512.0507,N,08009.7552,W,1,10,1.5,23,M,,M,,*6A
06/04/2014	23:04:09.619	$GPGGA,230410,2512.0504,N,08009.7554,W,1,10,1.5,23,M,,M,,*67
06/04/2014	23:04:10.631	$GPGGA,230411,2512.0503,N,08009.7559,W,1,10,1.5,23,M,,M,,*6C
06/04/2014	23:04:11.624	$GPGGA,230412,2512.0500,N,08009.7563,W,1,10,1.5,23,M,,M,,*65
06/04/2014	23:04:12.627	$GPGGA,230413,2512.0497,N,08009.7565,W,1,10,1.5,23,M,,M,,*6D
06/04/2014	23:04:13.619	$GPGGA,230414,2512.0493,N,08009.7568,W,1,10,1.5,23,M,,M,,*63
06/04/2014	23:04:14.612	$GPGGA,230415,2512.0488,N,08009.7569,W,1,9,1.5,23,M,,M,,*51
06/04/2014	23:04:15.634	$GPGGA,230416,2512.0484,N,08009.7572,W,1,9,1.5,23,M,,M,,*54
06/04/2014	23:04:16.618	$GPGGA,230417,2512.0478,N,08009.7574,W,1,9,1.5,23,M,,M,,*50
06/04/2014	23:04:17.609	$GPGGA,230418,2512.0472,N,08009.7574,W,1,9,1.5,23,M,,M,,*55
06/04/2014	23:04:18.631	$GPGGA,230419,2512.0467,N,08009.7574,W,1,10,1.5,23,M,,M,,*68
06/04/2014	23:04:19.624	$GPGGA,230420,2512.0460,N,08009.7576,W,1,10,1.5,23,M,,M,,*67
06/04/2014	23:04:20.626	$GPGGA,230421,2512.0454,N,08009.7576,W,1,10,1.5,23,M,,M,,*61
06/04/2014	23:04:21.609	$GPGGA,230422,2512.0448,N,08009.7575,W,1,10,1.5,23,M,,M,,*6C
06/04/2014	23:04:22.611	$GPGGA,230423,2512.0439,N,08009.7573,W,1,10,1.5,23,M,,M,,*6D
06/04/2014	23:04:23.644	$GPGGA,230424,2512.0432,N,08009.7573,W,1,10,1.5,23,M,,M,,*61
06/04/2014	23:04:24.607	$GPGGA,230425,2512.0426,N,08009.7573,W,1,10,1.5,23,M,,M,,*65
06/04/2014	23:04:25.619	$GPGGA,230426,2512.0419,N,08009.7572,W,1,10,1.5,23,M,,M,,*6B
06/04/2014	23:04:26.612	$GPGGA,230427,2512.0412,N,08009.7567,W,1,10,1.5,23,M,,M,,*65
06/04/2014	23:04:27.655	$GPGGA,230428,2512.0405,N,08009.7566,W,1,10,1.5,23,M,,M,,*6D
06/04/2014	23:04:28.647	$GPGGA,230429,2512.0397,N,08009.7566,W,1,10,1.5,23,M,,M,,*60
06/04/2014	23:04:29.610	$GPGGA,230430,2512.0389,N,08009.7562,W,1,10,1.5,23,M,,M,,*63
06/04/2014	23:04:30.632	$GPGGA,230431,2512.0381,N,08009.7556,W,1,10,1.5,23,M,,M,,*6D
06/04/2014	23:04:31.635	$GPGGA,230432,2512.0372,N,08009.7553,W,1,10,1.5,23,M,,M,,*67
06/04/2014	23:04:32.468	$GPGGA,230433,2512.0363,N,08009.7550,W,1,10,1.5,23,M,,M,,*65
06/04/2014	23:04:33.461	$GPGGA,230434,2512.0355,N,08009.7543,W,1,10,1.5,23,M,,M,,*65
06/04/2014	23:04:34.473	$GPGGA,230435,2512.0347,N,08009.7537,W,1,10,1.5,23,M,,M,,*64
06/04/2014	23:04:35.474	$GPGGA,230436,2512.0338,N,08009.7531,W,1,10,1.5,23,M,,M,,*69
06/04/2014	23:04:36.477	$GPGGA,230437,2512.0330,N,08009.7525,W,1,10,1.5,23,M,,M,,*65
06/04/2014	23:04:37.450	$GPGGA,230438,2512.0322,N,08009.7519,W,1,10,1.5,23,M,,M,,*66
06/04/2014	23:04:38.482	$GPGGA,230439,2512.0312,N,08009.7512,W,1,10,1.5,23,M,,M,,*6F
06/04/2014	23:04:39.475	$GPGGA,230440,2512.0304,N,08009.7502,W,1,10,1.5,22,M,,M,,*66
06/04/2014	23:04:40.487	$GPGGA,230441,2512.0296,N,08009.7495,W,1,10,1.5,22,M,,M,,*62
06/04/2014	23:04:41.470	$GPGGA,230442,2512.0287,N,08009.7487,W,1,10,1.5,22,M,,M,,*62
06/04/2014	23:04:42.493	$GPGGA,230443,2512.0279,N,08009.7477,W,1,10,1.5,22,M,,M,,*6D
06/04/2014	23:04:43.595	$GPGGA,230444,2512.0272,N,08009.7466,W,1,10,1.5,22,M,,M,,*61
06/04/2014	23:04:44.488	$GPGGA,230445,2512.0264,N,08009.7457,W,1,10,1.6,22,M,,M,,*66
06/04/2014	23:04:45.551	$GPGGA,230446,2512.0254,N,08009.7448,W,1,10,1.5,22,M,,M,,*6B
06/04/2014	23:04:46.474	$GPGGA,230447,2512.0247,N,08009.7437,W,1,10,1.5,22,M,,M,,*60
06/04/2014	23:04:47.506	$GPGGA,230448,2512.0242,N,08009.7425,W,1,10,1.5,22,M,,M,,*69
06/04/2014	23:04:48.578	$GPGGA,230449,2512.0235,N,08009.7414,W,1,10,1.5,22,M,,M,,*6A
06/04/2014	23:04:49.471	$GPGGA,230450,2512.0228,N,08009.7401,W,1,10,1.5,22,M,,M,,*6A
06/04/2014	23:04:50.483	$GPGGA,230451,2512.0221,N,08009.7388,W,1,10,1.5,22,M,,M,,*64
06/04/2014	23:04:51.506	$GPGGA,230452,2512.0217,N,08009.7376,W,1,10,1.5,22,M,,M,,*63
06/04/2014	23:04:52.578	$GPGGA,230453,2512.0210,N,08009.7362,W,1,10,1.5,22,M,,M,,*60
06/04/2014	23:04:53.480	$GPGGA,230454,2512.0203,N,08009.7347,W,1,10,1.5,22,M,,M,,*62
06/04/2014	23:04:54.573	$GPGGA,230455,2512.0200,N,08009.7334,W,1,10,1.5,22,M,,M,,*64
06/04/2014	23:04:55.495	$GPGGA,230456,2512.0195,N,08009.7319,W,1,10,1.5,22,M,,M,,*67
06/04/2014	23:04:56.558	$GPGGA,230457,2512.0190,N,08009.7304,W,1,9,1.5,22,M,,M,,*57
06/04/2014	23:04:57.571	$GPGGA,230458,2512.0186,N,08009.7289,W,1,9,1.5,22,M,,M,,*5B
06/04/2014	23:04:58.563	$GPGGA,230459,2512.0182,N,08009.7274,W,1,10,1.5,22,M,,M,,*64
06/04/2014	23:04:59.596	$GPGGA,230500,2512.0178,N,08009.7258,W,1,10,1.5,22,M,,M,,*62
06/04/2014	23:05:00.599	$GPGGA,230501,2512.0175,N,08009.7241,W,1,10,1.5,22,M,,M,,*66
06/04/2014	23:05:01.571	$GPGGA,230502,2512.0171,N,08009.7224,W,1,10,1.5,22,M,,M,,*62
06/04/2014	23:05:02.574	$GPGGA,230503,2512.0170,N,08009.7207,W,1,10,1.5,22,M,,M,,*63
06/04/2014	23:05:03.586	$GPGGA,230504,2512.0167,N,08009.7189,W,1,10,1.5,22,M,,M,,*67
06/04/2014	23:05:04.559	$GPGGA,230505,2512.0165,N,08009.7172,W,1,9,2.2,22,M,,M,,*5C
06/04/2014	23:05:05.561	$GPGGA,230506,2512.0163,N,08009.7154,W,1,9,2.2,22,M,,M,,*5D
06/04/2014	23:05:06.564	$GPGGA,230507,2512.0163,N,08009.7135,W,1,9,2.2,22,M,,M,,*5B
06/04/2014	23:05:07.587	$GPGGA,230508,2512.0161,N,08009.7118,W,1,9,2.2,23,M,,M,,*58
06/04/2014	23:05:08.589	$GPGGA,230509,2512.0160,N,08009.7100,W,1,8,2.2,23,M,,M,,*50
06/04/2014	23:05:09.572	$GPGGA,230510,2512.0161,N,08009.7080,W,1,8,2.2,23,M,,M,,*50
06/04/2014	23:05:10.583	$GPGGA,230511,2512.0163,N,08009.7063,W,1,9,2.2,23,M,,M,,*5F
06/04/2014	23:05:11.576	$GPGGA,230512,2512.0163,N,08009.7044,W,1,9,2.2,23,M,,M,,*59
06/04/2014	23:05:12.559	$GPGGA,230513,2512.0166,N,08009.7024,W,1,9,2.2,23,M,,M,,*5B
06/04/2014	23:05:13.562	$GPGGA,230514,2512.0170,N,08009.7006,W,1,9,2.2,23,M,,M,,*5B
06/04/2014	23:05:14.574	$GPGGA,230515,2512.0173,N,08009.6988,W,1,9,2.2,23,M,,M,,*57
06/04/2014	23:05:15.596	$GPGGA,230516,2512.0174,N,08009.6968,W,1,9,2.2,23,M,,M,,*5D
06/04/2014	23:05:16.599	$GPGGA,230517,2512.0180,N,08009.6949,W,1,9,2.4,23,M,,M,,*52
06/04/2014	23:05:17.572	$GPGGA,230518,2512.0186,N,08009.6931,W,1,9,2.2,23,M,,M,,*52
06/04/2014	23:05:18.564	$GPGGA,230519,2512.0191,N,08009.6913,W,1,9,2.2,23,M,,M,,*55
06/04/2014	23:05:19.597	$GPGGA,230520,2512.0195,N,08009.6892,W,1,9,2.2,23,M,,M,,*53
06/04/2014	23:05:20.609	$GPGGA,230521,2512.0202,N,08009.6874,W,1,9,2.4,23,M,,M,,*51
06/04/2014	23:05:21.572	$GPGGA,230522,2512.0209,N,08009.6858,W,1,9,2.4,23,M,,M,,*57
06/04/2014	23:05:22.615	$GPGGA,230523,2512.0215,N,08009.6838,W,1,9,2.2,23,M,,M,,*5B
06/04/2014	23:05:23.587	$GPGGA,230524,2512.0223,N,08009.6820,W,1,9,2.2,23,M,,M,,*50
06/04/2014	23:05:24.590	$GPGGA,230525,2512.0231,N,08009.6803,W,1,9,2.2,23,M,,M,,*53
06/04/2014	23:05:25.593	$GPGGA,230526,2512.0241,N,08009.6784,W,1,9,2.2,23,M,,M,,*57
06/04/2014	23:05:26.585	$GPGGA,230527,2512.0252,N,08009.6768,W,1,8,2.3,23,M,,M,,*56
06/04/2014	23:05:27.597	$GPGGA,230528,2512.0262,N,08009.6750,W,1,8,2.2,23,M,,M,,*50
06/04/2014	23:05:28.589	$GPGGA,230529,2512.0271,N,08009.6732,W,1,8,3.1,23,M,,M,,*55
06/04/2014	23:05:29.582	$GPGGA,230530,2512.0282,N,08009.6715,W,1,8,2.4,23,M,,M,,*50
06/04/2014	23:05:30.584	$GPGGA,230531,2512.0293,N,08009.6700,W,1,8,2.3,23,M,,M,,*52
06/04/2014	23:05:31.597	$GPGGA,230532,2512.0304,N,08009.6683,W,1,8,2.2,23,M,,M,,*55
06/04/2014	23:05:32.556	$GPGGA,230533,2512.0317,N,08009.6665,W,1,9,2.2,23,M,,M,,*5F
06/04/2014	23:05:33.518	$GPGGA,230534,2512.0331,N,08009.6649,W,1,9,2.2,23,M,,M,,*52
06/04/2014	23:05:34.552	$GPGGA,230535,2512.0346,N,08009.6635,W,1,9,2.2,23,M,,M,,*58
06/04/2014	23:05:35.463	$GPGGA,230536,2512.0360,N,08009.6619,W,1,9,2.2,23,M,,M,,*51
06/04/2014	23:05:36.426	$GPGGA,230537,2512.0372,N,08009.6603,W,1,9,2.2,23,M,,M,,*58
06/04/2014	23:05:37.529	$GPGGA,230538,2512.0389,N,08009.6588,W,1,9,2.2,23,M,,M,,*53
06/04/2014	23:05:38.421	$GPGGA,230539,2512.0405,N,08009.6574,W,1,9,2.2,23,M,,M,,*52
06/04/2014	23:05:39.554	$GPGGA,230540,2512.0419,N,08009.6560,W,1,9,2.2,23,M,,M,,*54
06/04/2014	23:05:40.527	$GPGGA,230541,2512.0436,N,08009.6547,W,1,9,2.2,23,M,,M,,*5D
06/04/2014	23:05:41.429	$GPGGA,230542,2512.0452,N,08009.6532,W,1,9,2.2,23,M,,M,,*5E
06/04/2014	23:05:42.552	$GPGGA,230543,2512.0470,N,08009.6520,W,1,9,2.2,23,M,,M,,*5C
06/04/2014	23:05:43.445	$GPGGA,230544,2512.0488,N,08009.6508,W,1,9,2.3,23,M,,M,,*57
06/04/2014	23:05:44.547	$GPGGA,230545,2512.0506,N,08009.6497,W,1,9,2.2,23,M,,M,,*57
06/04/2014	23:05:45.529	$GPGGA,230546,2512.0524,N,08009.6485,W,1,9,2.2,23,M,,M,,*57
06/04/2014	23:05:46.551	$GPGGA,230547,2512.0542,N,08009.6472,W,1,10,2.2,23,M,,M,,*66
06/04/2014	23:05:47.554	$GPGGA,230548,2512.0562,N,08009.6467,W,1,10,2.2,24,M,,M,,*68
06/04/2014	23:05:48.556	$GPGGA,230549,2512.0582,N,08009.6459,W,1,10,2.2,24,M,,M,,*6A
06/04/2014	23:05:49.540	$GPGGA,230550,2512.0600,N,08009.6446,W,1,10,2.2,24,M,,M,,*65
06/04/2014	23:05:50.552	$GPGGA,230551,2512.0621,N,08009.6439,W,1,10,2.2,24,M,,M,,*6F
06/04/2014	23:05:52.557	$GPGGA,230553,2512.0661,N,08009.6427,W,1,10,2.2,23,M,,M,,*61
06/04/2014	23:05:53.529	$GPGGA,230554,2512.0683,N,08009.6419,W,1,10,2.2,23,M,,M,,*67
06/04/2014	23:05:54.562	$GPGGA,230555,2512.0701,N,08009.6415,W,1,10,2.2,23,M,,M,,*61
06/04/2014	23:05:55.595	$GPGGA,230556,2512.0722,N,08009.6410,W,1,10,2.2,23,M,,M,,*66
06/04/2014	23:05:56.537	$GPGGA,230557,2512.0744,N,08009.6403,W,1,10,2.2,23,M,,M,,*65
06/04/2014	23:05:57.540	$GPGGA,230558,2512.0764,N,08009.6398,W,1,10,2.2,23,M,,M,,*6D
06/04/2014	23:05:58.552	$GPGGA,230559,2512.0784,N,08009.6395,W,1,10,2.2,23,M,,M,,*6F
06/04/2014	23:05:59.565	$GPGGA,230600,2512.0806,N,08009.6391,W,1,10,2.2,23,M,,M,,*61
06/04/2014	23:06:00.588	$GPGGA,230601,2512.0827,N,08009.6385,W,1,10,2.2,23,M,,M,,*66
06/04/2014	23:06:01.540	$GPGGA,230602,2512.0849,N,08009.6384,W,1,10,2.2,23,M,,M,,*6C
06/04/2014	23:06:02.532	$GPGGA,230603,2512.0870,N,08009.6384,W,1,10,2.2,23,M,,M,,*67
06/04/2014	23:06:03.565	$GPGGA,230604,2512.0892,N,08009.6379,W,1,10,2.2,23,M,,M,,*6E
06/04/2014	23:06:04.577	$GPGGA,230605,2512.0914,N,08009.6376,W,1,10,2.2,23,M,,M,,*6F
06/04/2014	23:06:05.539	$GPGGA,230606,2512.0936,N,08009.6376,W,1,10,2.2,23,M,,M,,*6C
06/04/2014	23:06:06.542	$GPGGA,230607,2512.0958,N,08009.6373,W,1,10,2.2,23,M,,M,,*60
06/04/2014	23:06:07.545	$GPGGA,230608,2512.0982,N,08009.6372,W,1,10,2.2,23,M,,M,,*69
06/04/2014	23:06:08.539	$GPGGA,230609,2512.1003,N,08009.6371,W,1,10,2.2,23,M,,M,,*6A
06/04/2014	23:06:09.550	$GPGGA,230610,2512.1025,N,08009.6370,W,1,10,2.2,23,M,,M,,*67
06/04/2014	23:06:10.593	$GPGGA,230611,2512.1048,N,08009.6368,W,1,10,2.2,23,M,,M,,*64
06/04/2014	23:06:11.555	$GPGGA,230612,2512.1072,N,08009.6367,W,1,10,2.2,23,M,,M,,*61
06/04/2014	23:06:12.578	$GPGGA,230613,2512.1094,N,08009.6367,W,1,10,2.2,23,M,,M,,*68
06/04/2014	23:06:13.550	$GPGGA,230614,2512.1116,N,08009.6369,W,1,10,2.2,23,M,,M,,*6A
06/04/2014	23:06:14.553	$GPGGA,230615,2512.1140,N,08009.6366,W,1,10,2.2,23,M,,M,,*67
06/04/2014	23:06:15.726	$GPGGA,230616,2512.1163,N,08009.6365,W,1,10,2.2,23,M,,M,,*66
06/04/2014	23:06:16.568	$GPGGA,230617,2512.1187,N,08009.6366,W,1,10,2.2,23,M,,M,,*6E
06/04/2014	23:06:17.563	$GPGGA,230618,2512.1209,N,08009.6365,W,1,10,2.2,23,M,,M,,*67
06/04/2014	23:06:18.674	$GPGGA,230619,2512.1232,N,08009.6364,W,1,10,2.2,23,M,,M,,*6F
06/04/2014	23:06:19.566	$GPGGA,230620,2512.1256,N,08009.6365,W,1,10,2.2,23,M,,M,,*66
06/04/2014	23:06:20.708	$GPGGA,230621,2512.1279,N,08009.6363,W,1,10,2.2,23,M,,M,,*6C
06/04/2014	23:06:21.650	$GPGGA,230622,2512.1303,N,08009.6362,W,1,10,2.2,23,M,,M,,*62
06/04/2014	23:06:22.542	$GPGGA,230623,2512.1326,N,08009.6362,W,1,10,2.2,23,M,,M,,*64
06/04/2014	23:06:23.655	$GPGGA,230624,2512.1348,N,08009.6362,W,1,10,2.2,23,M,,M,,*6B
06/04/2014	23:06:24.648	$GPGGA,230625,2512.1371,N,08009.6362,W,1,10,2.2,23,M,,M,,*60
06/04/2014	23:06:25.560	$GPGGA,230626,2512.1394,N,08009.6362,W,1,10,2.2,23,M,,M,,*68
06/04/2014	23:06:26.663	$GPGGA,230627,2512.1418,N,08009.6360,W,1,10,2.2,22,M,,M,,*69
06/04/2014	23:06:27.566	$GPGGA,230628,2512.1441,N,08009.6359,W,1,10,2.2,22,M,,M,,*60
06/04/2014	23:06:28.558	$GPGGA,230629,2512.1465,N,08009.6362,W,1,10,2.2,22,M,,M,,*6F
06/04/2014	23:06:29.651	$GPGGA,230630,2512.1488,N,08009.6363,W,1,10,2.2,22,M,,M,,*65
06/04/2014	23:06:30.664	$GPGGA,230631,2512.1510,N,08009.6359,W,1,10,2.2,22,M,,M,,*6D
06/04/2014	23:06:31.666	$GPGGA,230632,2512.1534,N,08009.6358,W,1,10,2.2,22,M,,M,,*69
06/04/2014	23:06:32.514	$GPGGA,230633,2512.1557,N,08009.6360,W,1,10,2.2,22,M,,M,,*66
06/04/2014	23:06:33.506	$GPGGA,230634,2512.1581,N,08009.6362,W,1,10,2.2,22,M,,M,,*68
06/04/2014	23:06:34.500	$GPGGA,230635,2512.1604,N,08009.6357,W,1,10,2.2,22,M,,M,,*61
06/04/2014	23:06:35.522	$GPGGA,230636,2512.1628,N,08009.6354,W,1,10,2.2,22,M,,M,,*6F
06/04/2014	23:06:36.504	$GPGGA,230637,2512.1651,N,08009.6353,W,1,10,2.2,22,M,,M,,*67
06/04/2014	23:06:37.496	$GPGGA,230638,2512.1676,N,08009.6355,W,1,10,2.2,22,M,,M,,*6B
06/04/2014	23:06:38.518	$GPGGA,230639,2512.1701,N,08009.6352,W,1,10,2.2,22,M,,M,,*6C
06/04/2014	23:06:39.521	$GPGGA,230640,2512.1726,N,08009.6347,W,1,10,2.2,22,M,,M,,*63
06/04/2014	23:06:40.524	$GPGGA,230641,2512.1749,N,08009.6345,W,1,10,2.2,22,M,,M,,*69
06/04/2014	23:06:41.506	$GPGGA,230642,2512.1774,N,08009.6344,W,1,10,2.2,22,M,,M,,*65
06/04/2014	23:06:42.509	$GPGGA,230643,2512.1799,N,08009.6342,W,1,10,2.2,22,M,,M,,*61
06/04/2014	23:06:43.511	$GPGGA,230644,2512.1825,N,08009.6338,W,1,10,2.2,22,M,,M,,*63
06/04/2014	23:06:44.504	$GPGGA,230645,2512.1852,N,08009.6334,W,1,10,2.2,22,M,,M,,*6E
06/04/2014	23:06:45.496	$GPGGA,230646,2512.1878,N,08009.6331,W,1,10,2.2,22,M,,M,,*60
06/04/2014	23:06:46.529	$GPGGA,230647,2512.1904,N,08009.6328,W,1,10,2.2,21,M,,M,,*60
06/04/2014	23:06:47.522	$GPGGA,230648,2512.1929,N,08009.6325,W,1,10,2.2,21,M,,M,,*6D
06/04/2014	23:06:48.494	$GPGGA,230649,2512.1957,N,08009.6320,W,1,10,2.2,21,M,,M,,*60
06/04/2014	23:06:49.507	$GPGGA,230650,2512.1983,N,08009.6314,W,1,10,2.2,21,M,,M,,*66
06/04/2014	23:06:50.540	$GPGGA,230651,2512.2009,N,08009.6309,W,1,10,2.2,21,M,,M,,*63
06/04/2014	23:06:51.512	$GPGGA,230652,2512.2036,N,08009.6305,W,1,10,2.2,21,M,,M,,*60
06/04/2014	23:06:52.535	$GPGGA,230653,2512.2062,N,08009.6299,W,1,10,2.2,21,M,,M,,*64
06/04/2014	23:06:53.507	$GPGGA,230654,2512.2088,N,08009.6291,W,1,10,2.2,21,M,,M,,*6F
06/04/2014	23:06:54.510	$GPGGA,230655,2512.2116,N,08009.6285,W,1,10,2.2,21,M,,M,,*6D
06/04/2014	23:06:55.521	$GPGGA,230656,2512.2142,N,08009.6280,W,1,10,2.2,21,M,,M,,*6A
06/04/2014	23:06:56.544	$GPGGA,230657,2512.2170,N,08009.6271,W,1,10,2.2,21,M,,M,,*64
06/04/2014	23:06:57.521	$GPGGA,230658,2512.2196,N,08009.6264,W,1,10,2.2,21,M,,M,,*67
06/04/2014	23:06:58.519	$GPGGA,230659,2512.2222,N,08009.6258,W,1,10,2.2,21,M,,M,,*65
06/04/2014	23:06:59.532	$GPGGA,230700,2512.2249,N,08009.6249,W,1,10,2.2,21,M,,M,,*65
06/04/2014	23:07:00.534	$GPGGA,230701,2512.2276,N,08009.6239,W,1,10,2.2,21,M,,M,,*6F
06/04/2014	23:07:01.507	$GPGGA,230702,2512.2303,N,08009.6234,W,1,10,2.2,21,M,,M,,*62
06/04/2014	23:07:02.510	$GPGGA,230703,2512.2330,N,08009.6226,W,1,10,2.2,21,M,,M,,*60
06/04/2014	23:07:03.532	$GPGGA,230704,2512.2356,N,08009.6215,W,1,10,2.2,21,M,,M,,*67
06/04/2014	23:07:04.515	$GPGGA,230705,2512.2384,N,08009.6207,W,1,10,2.2,21,M,,M,,*6A
06/04/2014	23:07:05.507	$GPGGA,230706,2512.2412,N,08009.6202,W,1,10,2.2,21,M,,M,,*64
06/04/2014	23:07:06.530	$GPGGA,230707,2512.2439,N,08009.6193,W,1,10,2.2,21,M,,M,,*67
06/04/2014	23:07:07.523	$GPGGA,230708,2512.2466,N,08009.6182,W,1,10,2.2,20,M,,M,,*63
06/04/2014	23:07:08.605	$GPGGA,230709,2512.2493,N,08009.6176,W,1,10,2.2,20,M,,M,,*63
06/04/2014	23:07:09.508	$GPGGA,230710,2512.2522,N,08009.6169,W,1,10,2.2,20,M,,M,,*6E
06/04/2014	23:07:10.530	$GPGGA,230711,2512.2549,N,08009.6162,W,1,10,2.2,20,M,,M,,*69
06/04/2014	23:07:11.543	$GPGGA,230712,2512.2576,N,08009.6155,W,1,10,2.2,20,M,,M,,*62
06/04/2014	23:07:12.526	$GPGGA,230713,2512.2604,N,08009.6145,W,1,10,2.2,20,M,,M,,*64
06/04/2014	23:07:13.607	$GPGGA,230714,2512.2630,N,08009.6138,W,1,10,2.2,20,M,,M,,*6E
06/04/2014	23:07:14.520	$GPGGA,230715,2512.2658,N,08009.6133,W,1,10,2.2,20,M,,M,,*6A
06/04/2014	23:07:15.683	$GPGGA,230716,2512.2687,N,08009.6124,W,1,10,2.2,20,M,,M,,*6D
06/04/2014	23:07:16.535	$GPGGA,230717,2512.2713,N,08009.6116,W,1,10,2.2,20,M,,M,,*61
06/04/2014	23:07:17.638	$GPGGA,230718,2512.2739,N,08009.6111,W,1,10,2.2,20,M,,M,,*61
06/04/2014	23:07:18.721	$GPGGA,230719,2512.2767,N,08009.6102,W,1,10,2.2,20,M,,M,,*69
06/04/2014	23:07:19.663	$GPGGA,230720,2512.2795,N,08009.6094,W,1,10,2.2,20,M,,M,,*60
06/04/2014	23:07:20.615	$GPGGA,230721,2512.2822,N,08009.6090,W,1,10,2.2,20,M,,M,,*66
06/04/2014	23:07:21.648	$GPGGA,230722,2512.2850,N,08009.6084,W,1,10,2.2,20,M,,M,,*65
06/04/2014	23:07:22.721	$GPGGA,230723,2512.2876,N,08009.6074,W,1,10,2.2,20,M,,M,,*6F
06/04/2014	23:07:23.663	$GPGGA,230724,2512.2905,N,08009.6066,W,1,10,2.2,20,M,,M,,*6E
06/04/2014	23:07:24.726	$GPGGA,230725,2512.2932,N,08009.6064,W,1,10,2.2,20,M,,M,,*69
06/04/2014	23:07:25.649	$GPGGA,230726,2512.2958,N,08009.6060,W,1,10,2.2,20,M,,M,,*62
06/04/2014	23:07:26.731	$GPGGA,230727,2512.2986,N,08009.6049,W,1,10,2.2,20,M,,M,,*6B
06/04/2014	23:07:27.664	$GPGGA,230728,2512.3012,N,08009.6041,W,1,10,2.2,20,M,,M,,*69
06/04/2014	23:07:28.727	$GPGGA,230729,2512.3038,N,08009.6038,W,1,10,2.2,20,M,,M,,*6E
06/04/2014	23:07:29.649	$GPGGA,230730,2512.3064,N,08009.6030,W,1,10,2.2,20,M,,M,,*67
06/04/2014	23:07:30.620	$GPGGA,230731,2512.3092,N,08009.6021,W,1,10,2.2,20,M,,M,,*6F
06/04/2014	23:07:31.673	$GPGGA,230732,2512.3118,N,08009.6014,W,1,10,2.2,20,M,,M,,*69
06/04/2014	23:07:32.461	$GPGGA,230733,2512.3145,N,08009.6008,W,1,10,2.2,20,M,,M,,*6D
06/04/2014	23:07:33.493	$GPGGA,230734,2512.3171,N,08009.6000,W,1,10,2.2,19,M,,M,,*6F
06/04/2014	23:07:34.466	$GPGGA,230735,2512.3197,N,08009.5992,W,1,10,2.2,19,M,,M,,*67
06/04/2014	23:07:35.519	$GPGGA,230736,2512.3226,N,08009.5987,W,1,10,2.2,19,M,,M,,*69
06/04/2014	23:07:36.461	$GPGGA,230737,2512.3251,N,08009.5980,W,1,10,2.2,19,M,,M,,*6F
06/04/2014	23:07:37.504	$GPGGA,230738,2512.3279,N,08009.5970,W,1,10,2.2,19,M,,M,,*65
06/04/2014	23:07:38.566	$GPGGA,230739,2512.3306,N,08009.5964,W,1,10,2.2,19,M,,M,,*68
06/04/2014	23:07:39.509	$GPGGA,230740,2512.3335,N,08009.5957,W,1,10,2.2,19,M,,M,,*66
06/04/2014	23:07:40.572	$GPGGA,230741,2512.3362,N,08009.5950,W,1,10,2.2,19,M,,M,,*62
06/04/2014	23:07:41.494	$GPGGA,230742,2512.3389,N,08009.5943,W,1,10,2.2,19,M,,M,,*66
06/04/2014	23:07:42.467	$GPGGA,230743,2512.3416,N,08009.5934,W,1,10,2.2,19,M,,M,,*66
06/04/2014	23:07:43.479	$GPGGA,230744,2512.3443,N,08009.5925,W,1,10,2.2,19,M,,M,,*61
06/04/2014	23:07:44.472	$GPGGA,230745,2512.3470,N,08009.5920,W,1,10,2.2,19,M,,M,,*65
06/04/2014	23:07:45.504	$GPGGA,230746,2512.3497,N,08009.5914,W,1,10,2.2,20,M,,M,,*62
06/04/2014	23:07:46.587	$GPGGA,230747,2512.3525,N,08009.5902,W,1,10,2.2,20,M,,M,,*6C
06/04/2014	23:07:47.529	$GPGGA,230748,2512.3551,N,08009.5894,W,1,10,2.2,19,M,,M,,*64
06/04/2014	23:07:48.561	$GPGGA,230749,2512.3579,N,08009.5890,W,1,10,2.2,19,M,,M,,*6B
06/04/2014	23:07:49.474	$GPGGA,230750,2512.3605,N,08009.5882,W,1,10,2.2,19,M,,M,,*68
06/04/2014	23:07:50.476	$GPGGA,230751,2512.3633,N,08009.5871,W,1,10,2.2,20,M,,M,,*6A
06/04/2014	23:07:51.529	$GPGGA,230752,2512.3659,N,08009.5864,W,1,10,2.2,20,M,,M,,*61
06/04/2014	23:07:52.572	$GPGGA,230753,2512.3685,N,08009.5859,W,1,10,2.2,20,M,,M,,*6F
06/04/2014	23:07:53.474	$GPGGA,230754,2512.3714,N,08009.5850,W,1,10,2.2,20,M,,M,,*68
06/04/2014	23:07:54.567	$GPGGA,230755,2512.3739,N,08009.5840,W,1,10,2.2,20,M,,M,,*67
06/04/2014	23:07:55.519	$GPGGA,230756,2512.3765,N,08009.5834,W,1,10,2.2,20,M,,M,,*6E
06/04/2014	23:07:56.572	$GPGGA,230757,2512.3793,N,08009.5826,W,1,10,2.2,20,M,,M,,*65
06/04/2014	23:07:57.474	$GPGGA,230758,2512.3821,N,08009.5818,W,1,10,2.2,20,M,,M,,*61
06/04/2014	23:07:58.627	$GPGGA,230759,2512.3847,N,08009.5811,W,1,10,2.2,20,M,,M,,*69
06/04/2014	23:07:59.620	$GPGGA,230800,2512.3876,N,08009.5803,W,1,10,2.2,20,M,,M,,*6B
06/04/2014	23:08:00.593	$GPGGA,230801,2512.3902,N,08009.5794,W,1,10,2.2,20,M,,M,,*69
06/04/2014	23:08:01.585	$GPGGA,230802,2512.3929,N,08009.5788,W,1,10,2.2,20,M,,M,,*6E
06/04/2014	23:08:02.578	$GPGGA,230803,2512.3956,N,08009.5782,W,1,10,2.2,20,M,,M,,*6D
06/04/2014	23:08:03.590	$GPGGA,230804,2512.3983,N,08009.5772,W,1,10,2.2,20,M,,M,,*6D
06/04/2014	23:08:04.636	$GPGGA,230805,2512.4009,N,08009.5764,W,1,10,2.2,20,M,,M,,*67
06/04/2014	23:08:05.585	$GPGGA,230806,2512.4038,N,08009.5760,W,1,10,2.2,20,M,,M,,*62
06/04/2014	23:08:06.607	$GPGGA,230807,2512.4064,N,08009.5752,W,1,10,2.2,20,M,,M,,*6B
06/04/2014	23:08:07.590	$GPGGA,230808,2512.4092,N,08009.5743,W,1,10,2.2,20,M,,M,,*6D
06/04/2014	23:08:08.652	$GPGGA,230809,2512.4118,N,08009.5737,W,1,10,2.2,20,M,,M,,*6C
06/04/2014	23:08:09.575	$GPGGA,230810,2512.4147,N,08009.5730,W,1,10,2.2,20,M,,M,,*69
06/04/2014	23:08:10.587	$GPGGA,230811,2512.4173,N,08009.5722,W,1,10,2.2,20,M,,M,,*6C
06/04/2014	23:08:11.600	$GPGGA,230812,2512.4200,N,08009.5714,W,1,10,2.2,20,M,,M,,*6D
06/04/2014	23:08:12.653	$GPGGA,230813,2512.4227,N,08009.5708,W,1,10,2.2,20,M,,M,,*64
06/04/2014	23:08:13.585	$GPGGA,230814,2512.4255,N,08009.5701,W,1,10,2.2,20,M,,M,,*6F
06/04/2014	23:08:14.628	$GPGGA,230815,2512.4283,N,08009.5691,W,1,10,2.2,20,M,,M,,*6D
06/04/2014	23:08:15.600	$GPGGA,230816,2512.4310,N,08009.5685,W,1,10,2.2,20,M,,M,,*60
06/04/2014	23:08:16.613	$GPGGA,230817,2512.4339,N,08009.5682,W,1,10,2.2,20,M,,M,,*6D
06/04/2014	23:08:17.586	$GPGGA,230818,2512.4366,N,08009.5674,W,1,10,2.2,20,M,,M,,*61
06/04/2014	23:08:18.648	$GPGGA,230819,2512.4393,N,08009.5664,W,1,10,2.2,20,M,,M,,*6B
06/04/2014	23:08:19.601	$GPGGA,230820,2512.4421,N,08009.5659,W,1,10,2.2,20,M,,M,,*61
06/04/2014	23:08:20.634	$GPGGA,230821,2512.4447,N,08009.5655,W,1,10,2.2,20,M,,M,,*6C
06/04/2014	23:08:21.596	$GPGGA,230822,2512.4475,N,08009.5645,W,1,10,2.2,20,M,,M,,*6F
06/04/2014	23:08:22.628	$GPGGA,230823,2512.4475,N,08009.5645,W,1,10,2.2,20,M,,M,,*6E
06/04/2014	23:08:23.610	$GPGGA,230824,2512.4530,N,08009.5634,W,1,10,2.2,20,M,,M,,*6F
06/04/2014	23:08:24.603	$GPGGA,230825,2512.4530,N,08009.5634,W,1,10,2.2,20,M,,M,,*6E
06/04/2014	23:08:25.595	$GPGGA,230826,2512.4585,N,08009.5616,W,1,10,2.2,20,M,,M,,*63
06/04/2014	23:08:26.648	$GPGGA,230827,2512.4613,N,08009.5612,W,1,10,2.2,20,M,,M,,*6A
06/04/2014	23:08:27.601	$GPGGA,230828,2512.4641,N,08009.5607,W,1,10,2.2,20,M,,M,,*66
06/04/2014	23:08:28.663	$GPGGA,230829,2512.4668,N,08009.5598,W,1,10,2.2,20,M,,M,,*69
06/04/2014	23:08:29.586	$GPGGA,230830,2512.4668,N,08009.5598,W,1,10,2.2,20,M,,M,,*61
06/04/2014	23:08:30.659	$GPGGA,230831,2512.4722,N,08009.5585,W,1,10,2.2,20,M,,M,,*63
06/04/2014	23:08:31.621	$GPGGA,230832,2512.4750,N,08009.5578,W,1,10,2.2,20,M,,M,,*67
06/04/2014	23:08:32.510	$GPGGA,230833,2512.4779,N,08009.5569,W,1,10,2.2,20,M,,M,,*6D
06/04/2014	23:08:33.442	$GPGGA,230834,2512.4805,N,08009.5562,W,1,10,2.2,20,M,,M,,*65
06/04/2014	23:08:34.515	$GPGGA,230835,2512.4805,N,08009.5562,W,1,10,2.2,20,M,,M,,*64
06/04/2014	23:08:35.467	$GPGGA,230836,2512.4832,N,08009.5557,W,1,10,2.2,20,M,,M,,*65
06/04/2014	23:08:36.560	$GPGGA,230837,2512.4885,N,08009.5543,W,1,10,2.2,20,M,,M,,*6D
06/04/2014	23:08:37.453	$GPGGA,230838,2512.4913,N,08009.5536,W,1,10,2.2,20,M,,M,,*6E
06/04/2014	23:08:38.596	$GPGGA,230839,2512.4942,N,08009.5532,W,1,10,2.2,20,M,,M,,*6F
06/04/2014	23:08:39.568	$GPGGA,230840,2512.4970,N,08009.5525,W,1,10,2.2,20,M,,M,,*66
06/04/2014	23:08:40.590	$GPGGA,230841,2512.4997,N,08009.5516,W,1,10,2.2,20,M,,M,,*6E
06/04/2014	23:08:41.452	$GPGGA,230842,2512.5025,N,08009.5513,W,1,10,2.2,20,M,,M,,*69
06/04/2014	23:08:42.595	$GPGGA,230843,2512.5053,N,08009.5509,W,1,10,2.2,20,M,,M,,*62
06/04/2014	23:08:43.467	$GPGGA,230844,2512.5079,N,08009.5501,W,1,10,2.4,20,M,,M,,*63
06/04/2014	23:08:44.450	$GPGGA,230845,2512.5079,N,08009.5501,W,1,10,2.2,20,M,,M,,*64
06/04/2014	23:08:45.443	$GPGGA,230846,2512.5133,N,08009.5490,W,1,10,2.2,20,M,,M,,*61
06/04/2014	23:08:46.545	$GPGGA,230847,2512.5161,N,08009.5486,W,1,10,2.2,20,M,,M,,*60
06/04/2014	23:08:47.548	$GPGGA,230848,2512.5188,N,08009.5478,W,1,10,2.2,20,M,,M,,*69
06/04/2014	23:08:48.540	$GPGGA,230849,2512.5188,N,08009.5478,W,1,10,2.2,20,M,,M,,*68
06/04/2014	23:08:49.553	$GPGGA,230850,2512.5242,N,08009.5470,W,1,10,2.2,20,M,,M,,*6D
06/04/2014	23:08:50.576	$GPGGA,230851,2512.5271,N,08009.5463,W,1,10,2.2,20,M,,M,,*6E
06/04/2014	23:08:51.568	$GPGGA,230852,2512.5296,N,08009.5457,W,1,10,2.2,20,M,,M,,*63
06/04/2014	23:08:52.581	$GPGGA,230853,2512.5324,N,08009.5453,W,1,10,2.2,21,M,,M,,*6F
06/04/2014	23:08:53.553	$GPGGA,230854,2512.5351,N,08009.5451,W,1,10,2.2,21,M,,M,,*68
06/04/2014	23:08:54.556	$GPGGA,230855,2512.5379,N,08009.5444,W,1,10,2.2,21,M,,M,,*67
06/04/2014	23:08:55.569	$GPGGA,230856,2512.5405,N,08009.5436,W,1,10,2.2,21,M,,M,,*6D
06/04/2014	23:08:56.571	$GPGGA,230857,2512.5405,N,08009.5436,W,1,9,2.4,21,M,,M,,*52
06/04/2014	23:08:57.543	$GPGGA,230858,2512.5459,N,08009.5431,W,1,9,2.2,21,M,,M,,*55
06/04/2014	23:08:58.565	$GPGGA,230859,2512.5486,N,08009.5422,W,1,10,2.2,21,M,,M,,*6C
06/04/2014	23:08:59.578	$GPGGA,230900,2512.5513,N,08009.5416,W,1,10,2.2,21,M,,M,,*6B
06/04/2014	23:09:00.571	$GPGGA,230901,2512.5513,N,08009.5416,W,1,10,2.2,21,M,,M,,*6A
06/04/2014	23:09:01.553	$GPGGA,230902,2512.5567,N,08009.5409,W,1,10,2.2,21,M,,M,,*64
06/04/2014	23:09:02.546	$GPGGA,230903,2512.5592,N,08009.5401,W,1,10,2.2,21,M,,M,,*67
06/04/2014	23:09:03.578	$GPGGA,230904,2512.5618,N,08009.5397,W,1,10,2.2,21,M,,M,,*69
06/04/2014	23:09:04.561	$GPGGA,230905,2512.5646,N,08009.5394,W,1,10,2.2,22,M,,M,,*63
06/04/2014	23:09:05.553	$GPGGA,230906,2512.5672,N,08009.5388,W,1,10,2.2,22,M,,M,,*6A
06/04/2014	23:09:06.576	$GPGGA,230907,2512.5700,N,08009.5381,W,1,10,2.2,22,M,,M,,*66
06/04/2014	23:09:07.569	$GPGGA,230908,2512.5728,N,08009.5377,W,1,10,2.2,22,M,,M,,*6A
06/04/2014	23:09:08.591	$GPGGA,230909,2512.5755,N,08009.5372,W,1,10,2.2,22,M,,M,,*64
06/04/2014	23:09:09.564	$GPGGA,230910,2512.5783,N,08009.5367,W,1,10,2.2,22,M,,M,,*63
06/04/2014	23:09:10.586	$GPGGA,230911,2512.5809,N,08009.5363,W,1,10,2.2,22,M,,M,,*6B
06/04/2014	23:09:11.569	$GPGGA,230912,2512.5838,N,08009.5356,W,1,10,2.2,22,M,,M,,*6C
06/04/2014	23:09:12.592	$GPGGA,230913,2512.5864,N,08009.5348,W,1,10,2.2,22,M,,M,,*6B
06/04/2014	23:09:13.561	$GPGGA,230914,2512.5892,N,08009.5346,W,1,10,2.2,22,M,,M,,*6B
06/04/2014	23:09:14.557	$GPGGA,230915,2512.5918,N,08009.5342,W,1,10,2.2,22,M,,M,,*6D
06/04/2014	23:09:15.578	$GPGGA,230916,2512.5946,N,08009.5332,W,1,10,2.2,22,M,,M,,*62
06/04/2014	23:09:16.561	$GPGGA,230917,2512.5972,N,08009.5325,W,1,10,2.2,22,M,,M,,*62
06/04/2014	23:09:17.564	$GPGGA,230918,2512.5999,N,08009.5322,W,1,10,2.2,23,M,,M,,*6E
06/04/2014	23:09:18.576	$GPGGA,230919,2512.6026,N,08009.5316,W,1,10,2.2,23,M,,M,,*66
06/04/2014	23:09:19.589	$GPGGA,230920,2512.6054,N,08009.5307,W,1,10,2.2,23,M,,M,,*69
06/04/2014	23:09:20.564	$GPGGA,230921,2512.6080,N,08009.5302,W,1,10,2.2,23,M,,M,,*64
06/04/2014	23:09:21.564	$GPGGA,230922,2512.6106,N,08009.5294,W,1,10,2.2,23,M,,M,,*66
06/04/2014	23:09:22.557	$GPGGA,230923,2512.6134,N,08009.5288,W,1,10,2.2,23,M,,M,,*6B
06/04/2014	23:09:23.579	$GPGGA,230924,2512.6160,N,08009.5283,W,1,10,2.2,23,M,,M,,*66
06/04/2014	23:09:24.562	$GPGGA,230925,2512.6188,N,08009.5276,W,1,10,2.2,23,M,,M,,*6B
06/04/2014	23:09:25.564	$GPGGA,230926,2512.6214,N,08009.5267,W,1,10,2.2,23,M,,M,,*6E
06/04/2014	23:09:26.687	$GPGGA,230927,2512.6242,N,08009.5262,W,1,10,2.2,23,M,,M,,*69
06/04/2014	23:09:27.580	$GPGGA,230928,2512.6268,N,08009.5257,W,1,10,2.2,23,M,,M,,*68
06/04/2014	23:09:28.592	$GPGGA,230929,2512.6297,N,08009.5249,W,1,10,2.2,23,M,,M,,*66
06/04/2014	23:09:29.565	$GPGGA,230930,2512.6322,N,08009.5241,W,1,10,2.2,23,M,,M,,*69
06/04/2014	23:09:30.567	$GPGGA,230931,2512.6350,N,08009.5237,W,1,10,2.2,23,M,,M,,*6C
06/04/2014	23:09:31.690	$GPGGA,230932,2512.6377,N,08009.5231,W,1,10,2.2,23,M,,M,,*6C
06/04/2014	23:09:32.547	$GPGGA,230933,2512.6405,N,08009.5223,W,1,10,2.2,23,M,,M,,*6C
06/04/2014	23:09:33.429	$GPGGA,230934,2512.6433,N,08009.5218,W,1,10,2.2,23,M,,M,,*66
06/04/2014	23:09:34.522	$GPGGA,230935,2512.6460,N,08009.5212,W,1,10,2.2,23,M,,M,,*6B
06/04/2014	23:09:35.424	$GPGGA,230936,2512.6488,N,08009.5204,W,1,10,2.2,23,M,,M,,*69
06/04/2014	23:09:36.547	$GPGGA,230937,2512.6514,N,08009.5199,W,1,10,2.2,23,M,,M,,*6B
06/04/2014	23:09:37.520	$GPGGA,230938,2512.6543,N,08009.5195,W,1,10,2.2,23,M,,M,,*6A
06/04/2014	23:09:38.542	$GPGGA,230939,2512.6571,N,08009.5187,W,1,10,2.2,23,M,,M,,*69
06/04/2014	23:09:39.525	$GPGGA,230940,2512.6597,N,08009.5181,W,1,10,2.2,23,M,,M,,*69
06/04/2014	23:09:40.528	$GPGGA,230941,2512.6626,N,08009.5179,W,1,10,2.2,23,M,,M,,*66
06/04/2014	23:09:41.520	$GPGGA,230942,2512.6654,N,08009.5171,W,1,10,2.2,23,M,,M,,*68
06/04/2014	23:09:42.533	$GPGGA,230943,2512.6680,N,08009.5163,W,1,10,2.2,23,M,,M,,*63
06/04/2014	23:09:43.535	$GPGGA,230944,2512.6709,N,08009.5160,W,1,10,2.2,23,M,,M,,*67
06/04/2014	23:09:44.538	$GPGGA,230945,2512.6737,N,08009.5157,W,1,10,2.2,23,M,,M,,*6F
06/04/2014	23:09:45.520	$GPGGA,230946,2512.6763,N,08009.5150,W,1,10,2.2,23,M,,M,,*6A
06/04/2014	23:09:46.533	$GPGGA,230947,2512.6792,N,08009.5142,W,1,10,2.2,23,M,,M,,*66
06/04/2014	23:09:47.536	$GPGGA,230948,2512.6819,N,08009.5140,W,1,10,2.2,23,M,,M,,*67
06/04/2014	23:09:48.538	$GPGGA,230949,2512.6846,N,08009.5136,W,1,10,2.2,23,M,,M,,*6D
06/04/2014	23:09:49.521	$GPGGA,230950,2512.6875,N,08009.5131,W,1,10,2.2,23,M,,M,,*62
06/04/2014	23:09:50.512	$GPGGA,230951,2512.6902,N,08009.5125,W,1,10,2.2,23,M,,M,,*67
06/04/2014	23:09:51.535	$GPGGA,230952,2512.6929,N,08009.5121,W,1,10,2.2,23,M,,M,,*69
06/04/2014	23:09:52.538	$GPGGA,230953,2512.6958,N,08009.5118,W,1,10,2.2,23,M,,M,,*64
06/04/2014	23:09:53.530	$GPGGA,230954,2512.6987,N,08009.5114,W,1,10,2.2,23,M,,M,,*6D
06/04/2014	23:09:54.543	$GPGGA,230955,2512.7012,N,08009.5110,W,1,10,2.2,23,M,,M,,*6C
06/04/2014	23:09:55.535	$GPGGA,230956,2512.7040,N,08009.5105,W,1,10,2.2,23,M,,M,,*6C
06/04/2014	23:09:56.518	$GPGGA,230957,2512.7067,N,08009.5101,W,1,10,2.2,23,M,,M,,*6C
06/04/2014	23:09:57.531	$GPGGA,230958,2512.7095,N,08009.5100,W,1,10,2.2,23,M,,M,,*6F
06/04/2014	23:09:58.543	$GPGGA,230959,2512.7124,N,08009.5097,W,1,10,2.2,23,M,,M,,*6A
06/04/2014	23:09:59.556	$GPGGA,231000,2512.7150,N,08009.5090,W,1,10,2.2,23,M,,M,,*6A
06/04/2014	23:10:00.558	$GPGGA,231001,2512.7179,N,08009.5087,W,1,10,2.2,23,M,,M,,*66
06/04/2014	23:10:01.525	$GPGGA,231002,2512.7207,N,08009.5086,W,1,10,2.2,23,M,,M,,*6E
06/04/2014	23:10:02.524	$GPGGA,231003,2512.7235,N,08009.5082,W,1,10,2.2,23,M,,M,,*6A
06/04/2014	23:10:03.546	$GPGGA,231004,2512.7262,N,08009.5078,W,1,10,2.2,23,M,,M,,*6A
06/04/2014	23:10:04.559	$GPGGA,231005,2512.7290,N,08009.5077,W,1,10,2.2,23,M,,M,,*69
06/04/2014	23:10:05.531	$GPGGA,231006,2512.7318,N,08009.5072,W,1,10,2.2,23,M,,M,,*6E
06/04/2014	23:10:06.564	$GPGGA,231007,2512.7345,N,08009.5067,W,1,10,2.2,22,M,,M,,*62
06/04/2014	23:10:07.546	$GPGGA,231008,2512.7373,N,08009.5068,W,1,10,2.2,22,M,,M,,*67
06/04/2014	23:10:08.628	$GPGGA,231009,2512.7399,N,08009.5066,W,1,10,2.2,22,M,,M,,*6C
06/04/2014	23:10:09.521	$GPGGA,231010,2512.7428,N,08009.5059,W,1,10,2.2,22,M,,M,,*65
06/04/2014	23:10:10.634	$GPGGA,231011,2512.7456,N,08009.5055,W,1,10,2.2,22,M,,M,,*61
06/04/2014	23:10:11.546	$GPGGA,231012,2512.7484,N,08009.5055,W,1,10,2.2,22,M,,M,,*6D
06/04/2014	23:10:12.539	$GPGGA,231013,2512.7511,N,08009.5053,W,1,10,2.2,22,M,,M,,*67
06/04/2014	23:10:13.521	$GPGGA,231014,2512.7540,N,08009.5048,W,1,10,2.2,22,M,,M,,*6E
06/04/2014	23:10:14.624	$GPGGA,231015,2512.7567,N,08009.5043,W,1,10,2.2,22,M,,M,,*61
06/04/2014	23:10:15.557	$GPGGA,231016,2512.7594,N,08009.5041,W,1,10,2.2,22,M,,M,,*6C
06/04/2014	23:10:16.619	$GPGGA,231017,2512.7622,N,08009.5039,W,1,10,2.2,22,M,,M,,*6C
06/04/2014	23:10:17.622	$GPGGA,231018,2512.7648,N,08009.5034,W,1,10,2.2,22,M,,M,,*62
06/04/2014	23:10:18.624	$GPGGA,231019,2512.7677,N,08009.5030,W,1,10,2.2,22,M,,M,,*6B
06/04/2014	23:10:19.537	$GPGGA,231020,2512.7705,N,08009.5027,W,1,10,2.2,22,M,,M,,*63
06/04/2014	23:10:20.539	$GPGGA,231021,2512.7733,N,08009.5025,W,1,10,2.2,22,M,,M,,*65
06/04/2014	23:10:21.632	$GPGGA,231022,2512.7760,N,08009.5021,W,1,10,2.2,22,M,,M,,*64
06/04/2014	23:10:22.544	$GPGGA,231023,2512.7789,N,08009.5016,W,1,10,2.2,21,M,,M,,*65
06/04/2014	23:10:23.637	$GPGGA,231024,2512.7818,N,08009.5014,W,1,10,2.2,21,M,,M,,*67
06/04/2014	23:10:24.641	$GPGGA,231025,2512.7845,N,08009.5012,W,1,10,2.2,21,M,,M,,*68
06/04/2014	23:10:25.631	$GPGGA,231026,2512.7874,N,08009.5007,W,1,10,2.2,21,M,,M,,*6D
06/04/2014	23:10:26.634	$GPGGA,231027,2512.7901,N,08009.5003,W,1,10,2.2,21,M,,M,,*6B
06/04/2014	23:10:27.647	$GPGGA,231028,2512.7928,N,08009.5001,W,1,10,2.2,21,M,,M,,*6D
06/04/2014	23:10:28.659	$GPGGA,231029,2512.7957,N,08009.4997,W,1,10,2.2,21,M,,M,,*63
06/04/2014	23:10:29.642	$GPGGA,231030,2512.7984,N,08009.4993,W,1,10,2.2,21,M,,M,,*61
06/04/2014	23:10:30.634	$GPGGA,231031,2512.8013,N,08009.4991,W,1,10,2.2,21,M,,M,,*6A
06/04/2014	23:10:31.657	$GPGGA,231032,2512.8041,N,08009.4987,W,1,10,2.2,21,M,,M,,*69
06/04/2014	23:10:32.495	$GPGGA,231033,2512.8069,N,08009.4982,W,1,10,2.2,21,M,,M,,*67
06/04/2014	23:10:33.487	$GPGGA,231034,2512.8096,N,08009.4979,W,1,10,2.2,21,M,,M,,*64
06/04/2014	23:10:34.480	$GPGGA,231035,2512.8124,N,08009.4975,W,1,10,2.2,21,M,,M,,*61
06/04/2014	23:10:35.503	$GPGGA,231036,2512.8150,N,08009.4972,W,1,10,2.2,21,M,,M,,*66
06/04/2014	23:10:36.515	$GPGGA,231037,2512.8179,N,08009.4966,W,1,10,2.2,21,M,,M,,*69
06/04/2014	23:10:37.478	$GPGGA,231038,2512.8205,N,08009.4962,W,1,10,2.2,21,M,,M,,*6A
06/04/2014	23:10:38.520	$GPGGA,231039,2512.8234,N,08009.4959,W,1,10,2.2,21,M,,M,,*61
06/04/2014	23:10:39.493	$GPGGA,231040,2512.8262,N,08009.4955,W,1,10,2.2,21,M,,M,,*60
06/04/2014	23:10:40.505	$GPGGA,231041,2512.8290,N,08009.4949,W,1,10,2.2,21,M,,M,,*61
06/04/2014	23:10:41.528	$GPGGA,231042,2512.8319,N,08009.4944,W,1,10,2.2,21,M,,M,,*6F
06/04/2014	23:10:42.490	$GPGGA,231043,2512.8345,N,08009.4940,W,1,10,2.2,21,M,,M,,*63
06/04/2014	23:10:43.502	$GPGGA,231044,2512.8373,N,08009.4935,W,1,10,2.2,21,M,,M,,*63
06/04/2014	23:10:44.485	$GPGGA,231045,2512.8400,N,08009.4929,W,1,10,2.2,21,M,,M,,*6C
06/04/2014	23:10:45.497	$GPGGA,231046,2512.8428,N,08009.4927,W,1,10,2.2,21,M,,M,,*6B
06/04/2014	23:10:46.490	$GPGGA,231047,2512.8454,N,08009.4921,W,1,10,2.2,21,M,,M,,*67
06/04/2014	23:10:47.513	$GPGGA,231048,2512.8483,N,08009.4913,W,1,10,2.2,21,M,,M,,*63
06/04/2014	23:10:48.485	$GPGGA,231049,2512.8510,N,08009.4912,W,1,10,2.2,21,M,,M,,*68
06/04/2014	23:10:49.498	$GPGGA,231050,2512.8537,N,08009.4910,W,1,10,2.2,21,M,,M,,*67
06/04/2014	23:10:50.520	$GPGGA,231051,2512.8565,N,08009.4900,W,1,10,2.2,21,M,,M,,*60
06/04/2014	23:10:51.493	$GPGGA,231052,2512.8591,N,08009.4893,W,1,10,2.2,21,M,,M,,*63
06/04/2014	23:10:52.536	$GPGGA,231053,2512.8617,N,08009.4893,W,1,10,2.2,21,M,,M,,*6F
06/04/2014	23:10:53.488	$GPGGA,231054,2512.8645,N,08009.4888,W,1,10,2.2,21,M,,M,,*65
06/04/2014	23:10:54.611	$GPGGA,231055,2512.8673,N,08009.4880,W,1,10,2.2,21,M,,M,,*69
06/04/2014	23:10:55.513	$GPGGA,231056,2512.8699,N,08009.4875,W,1,10,2.2,21,M,,M,,*64
06/04/2014	23:10:56.511	$GPGGA,231057,2512.8728,N,08009.4869,W,1,10,2.2,21,M,,M,,*63
06/04/2014	23:10:57.499	$GPGGA,231058,2512.8754,N,08009.4864,W,1,10,2.2,21,M,,M,,*6A
06/04/2014	23:10:58.631	$GPGGA,231059,2512.8781,N,08009.4861,W,1,10,2.2,21,M,,M,,*66
06/04/2014	23:10:59.544	$GPGGA,231100,2512.8808,N,08009.4855,W,1,10,2.2,21,M,,M,,*62
06/04/2014	23:11:00.616	$GPGGA,231101,2512.8835,N,08009.4847,W,1,10,2.2,21,M,,M,,*6E
06/04/2014	23:11:01.509	$GPGGA,231102,2512.8862,N,08009.4842,W,1,10,2.2,21,M,,M,,*6A
06/04/2014	23:11:02.621	$GPGGA,231103,2512.8890,N,08009.4838,W,1,10,2.2,21,M,,M,,*6B
06/04/2014	23:11:03.523	$GPGGA,231104,2512.8916,N,08009.4832,W,1,10,2.2,21,M,,M,,*69
06/04/2014	23:11:04.626	$GPGGA,231105,2512.8945,N,08009.4824,W,1,10,2.2,21,M,,M,,*69
06/04/2014	23:11:05.599	$GPGGA,231106,2512.8971,N,08009.4818,W,1,10,2.2,21,M,,M,,*62
06/04/2014	23:11:06.501	$GPGGA,231107,2512.8999,N,08009.4815,W,1,10,2.2,21,M,,M,,*68
06/04/2014	23:11:07.614	$GPGGA,231108,2512.9028,N,08009.4811,W,1,10,2.2,21,M,,M,,*61
06/04/2014	23:11:08.626	$GPGGA,231109,2512.9056,N,08009.4802,W,1,10,2.2,21,M,,M,,*6B
06/04/2014	23:11:09.599	$GPGGA,231110,2512.9082,N,08009.4797,W,1,10,2.2,21,M,,M,,*69
06/04/2014	23:11:10.632	$GPGGA,231111,2512.9111,N,08009.4795,W,1,10,2.2,21,M,,M,,*61
06/04/2014	23:11:11.614	$GPGGA,231112,2512.9137,N,08009.4790,W,1,10,2.2,21,M,,M,,*63
06/04/2014	23:11:12.597	$GPGGA,231113,2512.9165,N,08009.4784,W,1,10,2.2,21,M,,M,,*60
06/04/2014	23:11:13.599	$GPGGA,231114,2512.9193,N,08009.4779,W,1,10,2.2,21,M,,M,,*6C
06/04/2014	23:11:14.602	$GPGGA,231115,2512.9220,N,08009.4774,W,1,10,2.2,21,M,,M,,*6B
06/04/2014	23:11:15.604	$GPGGA,231116,2512.9248,N,08009.4771,W,1,10,2.2,21,M,,M,,*63
06/04/2014	23:11:16.607	$GPGGA,231117,2512.9276,N,08009.4768,W,1,10,2.2,21,M,,M,,*67
06/04/2014	23:11:17.609	$GPGGA,231118,2512.9303,N,08009.4762,W,1,10,2.2,21,M,,M,,*61
06/04/2014	23:11:18.621	$GPGGA,231119,2512.9330,N,08009.4757,W,1,10,2.2,21,M,,M,,*66
06/04/2014	23:11:19.624	$GPGGA,231120,2512.9357,N,08009.4753,W,1,10,2.2,21,M,,M,,*69
06/04/2014	23:11:20.596	$GPGGA,231121,2512.9385,N,08009.4749,W,1,10,2.2,21,M,,M,,*6C
06/04/2014	23:11:21.609	$GPGGA,231122,2512.9411,N,08009.4744,W,1,10,2.2,21,M,,M,,*68
06/04/2014	23:11:22.622	$GPGGA,231123,2512.9440,N,08009.4740,W,1,10,2.2,21,M,,M,,*69
06/04/2014	23:11:23.614	$GPGGA,231124,2512.9468,N,08009.4736,W,1,10,2.2,21,M,,M,,*65
06/04/2014	23:11:24.637	$GPGGA,231125,2512.9496,N,08009.4732,W,1,10,2.2,21,M,,M,,*61
06/04/2014	23:11:25.599	$GPGGA,231126,2512.9523,N,08009.4728,W,1,10,2.2,21,M,,M,,*66
06/04/2014	23:11:26.642	$GPGGA,231127,2512.9552,N,08009.4726,W,1,10,2.2,21,M,,M,,*6F
06/04/2014	23:11:27.625	$GPGGA,231128,2512.9580,N,08009.4721,W,1,10,2.2,21,M,,M,,*68
06/04/2014	23:11:28.607	$GPGGA,231129,2512.9606,N,08009.4716,W,1,10,2.2,21,M,,M,,*60
06/04/2014	23:11:29.610	$GPGGA,231130,2512.9635,N,08009.4714,W,1,10,2.2,21,M,,M,,*6A
06/04/2014	23:11:30.602	$GPGGA,231131,2512.9663,N,08009.4713,W,1,10,2.2,21,M,,M,,*6F
06/04/2014	23:11:31.625	$GPGGA,231132,2512.9691,N,08009.4707,W,1,10,2.2,21,M,,M,,*64
06/04/2014	23:11:32.453	$GPGGA,231133,2512.9718,N,08009.4702,W,1,10,2.2,21,M,,M,,*60
06/04/2014	23:11:33.465	$GPGGA,231134,2512.9747,N,08009.4700,W,1,10,2.2,21,M,,M,,*6F
06/04/2014	23:11:34.487	$GPGGA,231135,2512.9775,N,08009.4698,W,1,10,2.2,21,M,,M,,*6F
06/04/2014	23:11:35.459	$GPGGA,231136,2512.9803,N,08009.4693,W,1,10,2.2,21,M,,M,,*69
06/04/2014	23:11:36.452	$GPGGA,231137,2512.9830,N,08009.4688,W,1,10,2.2,21,M,,M,,*62
06/04/2014	23:11:37.475	$GPGGA,231138,2512.9858,N,08009.4685,W,1,10,2.2,21,M,,M,,*6E
06/04/2014	23:11:38.457	$GPGGA,231139,2512.9885,N,08009.4682,W,1,10,2.2,21,M,,M,,*68
06/04/2014	23:11:39.460	$GPGGA,231140,2512.9913,N,08009.4680,W,1,10,2.2,21,M,,M,,*6A
06/04/2014	23:11:40.502	$GPGGA,231141,2512.9942,N,08009.4675,W,1,10,2.2,21,M,,M,,*65
06/04/2014	23:11:41.455	$GPGGA,231142,2512.9970,N,08009.4669,W,1,10,2.2,20,M,,M,,*6B
