Software Version Number: 1	Data File Format Number: 1	Build Version Number: 1	Error Count Since VI Started: 0	Manufacturer: Raytheon	 Model Number: RayMarine 120	 S/N: 	 Cal Date: 	 Wind Direction Offset: 0.00	 Slope (M)1: 0.00	 Offset (B)1: 0.00	 Slope (M)2: 0.00	 Offset (B)2: 0.00	 Slope (M)3: 0.00	 Offset (B)3: 0.00	 Slope (M)4: 0.00	 Offset (B)4: 0.00	 Slope (M)5: 0.00	 Offset (B)5: 0.00	 Slope (M)6: 0.00	 Offset (B)6: 0.00
Computer Date	Computer Time	GGA String
06/14/2014	11:00:00.658	$GPGGA,110001,2428.8578,N,08100.3306,W,1,8,1.9,18,M,,M,,*59
06/14/2014	11:00:01.647	$GPGGA,110002,2428.8571,N,08100.3313,W,1,8,1.9,18,M,,M,,*57
06/14/2014	11:00:02.660	$GPGGA,110003,2428.8568,N,08100.3321,W,1,7,2.2,18,M,,M,,*58
06/14/2014	11:00:03.725	$GPGGA,110004,2428.8566,N,08100.3329,W,1,7,1.9,18,M,,M,,*51
06/14/2014	11:00:04.673	$GPGGA,110005,2428.8562,N,08100.3336,W,1,8,1.9,18,M,,M,,*55
06/14/2014	11:00:05.649	$GPGGA,110006,2428.8557,N,08100.3343,W,1,8,1.9,18,M,,M,,*52
06/14/2014	11:00:06.676	$GPGGA,110007,2428.8555,N,08100.3350,W,1,8,1.9,18,M,,M,,*53
06/14/2014	11:00:07.683	$GPGGA,110008,2428.8551,N,08100.3358,W,1,8,1.9,18,M,,M,,*50
06/14/2014	11:00:08.700	$GPGGA,110009,2428.8546,N,08100.3365,W,1,8,1.9,18,M,,M,,*59
06/14/2014	11:00:09.677	$GPGGA,110010,2428.8540,N,08100.3374,W,1,8,1.9,18,M,,M,,*57
06/14/2014	11:00:10.704	$GPGGA,110011,2428.8537,N,08100.3383,W,1,8,1.9,18,M,,M,,*5E
06/14/2014	11:00:11.701	$GPGGA,110012,2428.8537,N,08100.3383,W,1,8,1.9,18,M,,M,,*5D
06/14/2014	11:00:12.718	$GPGGA,110013,2428.8528,N,08100.3400,W,1,8,1.9,18,M,,M,,*5E
06/14/2014	11:00:13.685	$GPGGA,110014,2428.8522,N,08100.3407,W,1,8,1.9,18,M,,M,,*54
06/14/2014	11:00:14.691	$GPGGA,110015,2428.8520,N,08100.3414,W,1,7,2.2,18,M,,M,,*52
06/14/2014	11:00:15.718	$GPGGA,110016,2428.8517,N,08100.3422,W,1,7,1.9,18,M,,M,,*58
06/14/2014	11:00:16.745	$GPGGA,110017,2428.8514,N,08100.3430,W,1,8,1.9,18,M,,M,,*56
06/14/2014	11:00:17.712	$GPGGA,110018,2428.8509,N,08100.3437,W,1,8,1.9,18,M,,M,,*52
06/14/2014	11:00:18.759	$GPGGA,110019,2428.8506,N,08100.3446,W,1,8,1.9,18,M,,M,,*5A
06/14/2014	11:00:19.737	$GPGGA,110020,2428.8505,N,08100.3454,W,1,8,1.9,18,M,,M,,*50
06/14/2014	11:00:20.763	$GPGGA,110021,2428.8503,N,08100.3462,W,1,8,1.9,18,M,,M,,*52
06/14/2014	11:00:21.741	$GPGGA,110022,2428.8497,N,08100.3470,W,1,8,1.9,18,M,,M,,*5E
06/14/2014	11:00:22.756	$GPGGA,110023,2428.8494,N,08100.3476,W,1,8,1.9,18,M,,M,,*5A
06/14/2014	11:00:23.762	$GPGGA,110024,2428.8492,N,08100.3483,W,1,8,1.9,18,M,,M,,*51
06/14/2014	11:00:24.769	$GPGGA,110025,2428.8490,N,08100.3490,W,1,8,1.9,18,M,,M,,*50
06/14/2014	11:00:25.766	$GPGGA,110026,2428.8485,N,08100.3497,W,1,8,1.9,18,M,,M,,*50
06/14/2014	11:00:26.763	$GPGGA,110027,2428.8481,N,08100.3505,W,1,8,1.9,18,M,,M,,*5F
06/14/2014	11:00:27.780	$GPGGA,110028,2428.8477,N,08100.3515,W,1,8,1.9,18,M,,M,,*58
06/14/2014	11:00:28.777	$GPGGA,110029,2428.8473,N,08100.3522,W,1,8,1.9,18,M,,M,,*59
06/14/2014	11:00:29.764	$GPGGA,110030,2428.8469,N,08100.3530,W,1,8,1.9,18,M,,M,,*59
06/14/2014	11:00:30.791	$GPGGA,110031,2428.8465,N,08100.3537,W,1,8,1.9,18,M,,M,,*53
06/14/2014	11:00:31.908	$GPGGA,110032,2428.8461,N,08100.3544,W,1,8,1.9,18,M,,M,,*50
06/14/2014	11:00:32.794	$GPGGA,110033,2428.8458,N,08100.3551,W,1,8,1.9,18,M,,M,,*5F
06/14/2014	11:00:33.882	$GPGGA,110034,2428.8454,N,08100.3559,W,1,8,1.9,18,M,,M,,*5C
06/14/2014	11:00:34.808	$GPGGA,110035,2428.8450,N,08100.3566,W,1,8,1.9,18,M,,M,,*55
06/14/2014	11:00:35.906	$GPGGA,110036,2428.8447,N,08100.3576,W,1,8,1.9,18,M,,M,,*51
06/14/2014	11:00:36.812	$GPGGA,110037,2428.8443,N,08100.3582,W,1,8,1.9,18,M,,M,,*5F
06/14/2014	11:00:37.899	$GPGGA,110038,2428.8437,N,08100.3591,W,1,8,1.9,18,M,,M,,*51
06/14/2014	11:00:38.816	$GPGGA,110039,2428.8433,N,08100.3598,W,1,8,1.9,18,M,,M,,*5D
06/14/2014	11:00:39.943	$GPGGA,110040,2428.8430,N,08100.3606,W,1,8,1.9,18,M,,M,,*54
06/14/2014	11:00:40.828	$GPGGA,110041,2428.8426,N,08100.3613,W,1,8,1.9,18,M,,M,,*56
06/14/2014	11:00:41.926	$GPGGA,110042,2428.8422,N,08100.3621,W,1,8,1.9,18,M,,M,,*50
06/14/2014	11:00:42.943	$GPGGA,110043,2428.8419,N,08100.3629,W,1,8,1.9,18,M,,M,,*51
06/14/2014	11:00:43.950	$GPGGA,110044,2428.8414,N,08100.3638,W,1,8,1.9,18,M,,M,,*5B
06/14/2014	11:00:44.947	$GPGGA,110045,2428.8410,N,08100.3646,W,1,8,1.9,18,M,,M,,*57
06/14/2014	11:00:45.954	$GPGGA,110046,2428.8407,N,08100.3656,W,1,8,1.9,18,M,,M,,*53
06/14/2014	11:00:46.950	$GPGGA,110047,2428.8402,N,08100.3664,W,1,8,1.9,18,M,,M,,*56
06/14/2014	11:00:47.967	$GPGGA,110048,2428.8398,N,08100.3671,W,1,8,1.9,18,M,,M,,*59
06/14/2014	11:00:48.542	$GPGGA,110049,2428.8396,N,08100.3678,W,1,8,1.9,18,M,,M,,*5F
06/14/2014	11:00:49.549	$GPGGA,110050,2428.8392,N,08100.3685,W,1,8,1.9,18,M,,M,,*51
06/14/2014	11:00:50.566	$GPGGA,110051,2428.8389,N,08100.3693,W,1,8,1.9,18,M,,M,,*5D
06/14/2014	11:00:51.573	$GPGGA,110052,2428.8385,N,08100.3703,W,1,8,1.9,18,M,,M,,*5A
06/14/2014	11:00:52.590	$GPGGA,110053,2428.8380,N,08100.3711,W,1,8,1.9,18,M,,M,,*5D
06/14/2014	11:00:53.577	$GPGGA,110054,2428.8376,N,08100.3719,W,1,8,1.9,18,M,,M,,*5B
06/14/2014	11:00:54.594	$GPGGA,110055,2428.8372,N,08100.3729,W,1,8,1.9,18,M,,M,,*5D
06/14/2014	11:00:55.600	$GPGGA,110056,2428.8367,N,08100.3736,W,1,8,1.9,18,M,,M,,*54
06/14/2014	11:00:56.617	$GPGGA,110057,2428.8363,N,08100.3744,W,1,8,1.9,18,M,,M,,*54
06/14/2014	11:00:57.596	$GPGGA,110058,2428.8360,N,08100.3751,W,1,8,1.9,18,M,,M,,*5C
06/14/2014	11:00:58.621	$GPGGA,110059,2428.8356,N,08100.3758,W,1,8,1.9,18,M,,M,,*51
06/14/2014	11:00:59.637	$GPGGA,110100,2428.8353,N,08100.3765,W,1,8,1.9,18,M,,M,,*57
06/14/2014	11:01:00.606	$GPGGA,110101,2428.8349,N,08100.3775,W,1,8,1.9,18,M,,M,,*5C
06/14/2014	11:01:01.622	$GPGGA,110102,2428.8344,N,08100.3783,W,1,8,1.9,18,M,,M,,*5B
06/14/2014	11:01:02.621	$GPGGA,110103,2428.8339,N,08100.3791,W,1,8,1.9,18,M,,M,,*53
06/14/2014	11:01:03.625	$GPGGA,110104,2428.8335,N,08100.3800,W,1,8,1.9,18,M,,M,,*5F
06/14/2014	11:01:04.644	$GPGGA,110105,2428.8332,N,08100.3808,W,1,8,1.9,18,M,,M,,*51
06/14/2014	11:01:05.630	$GPGGA,110106,2428.8328,N,08100.3816,W,1,8,1.9,18,M,,M,,*56
06/14/2014	11:01:06.737	$GPGGA,110107,2428.8324,N,08100.3823,W,1,8,1.9,18,M,,M,,*5D
06/14/2014	11:01:07.787	$GPGGA,110108,2428.8320,N,08100.3831,W,1,8,1.9,18,M,,M,,*55
06/14/2014	11:01:08.915	$GPGGA,110109,2428.8317,N,08100.3840,W,1,8,1.9,18,M,,M,,*56
06/14/2014	11:01:09.976	$GPGGA,110110,2428.8313,N,08100.3848,W,1,8,1.9,18,M,,M,,*52
06/14/2014	11:01:11.113	$GPGGA,110111,2428.8308,N,08100.3856,W,1,8,1.9,18,M,,M,,*56
06/14/2014	11:01:12.169	$GPGGA,110112,2428.8302,N,08100.3866,W,1,8,1.9,18,M,,M,,*5C
06/14/2014	11:01:13.369	$GPGGA,110113,2428.8300,N,08100.3874,W,1,8,1.9,18,M,,M,,*5C
06/14/2014	11:01:14.332	$GPGGA,110114,2428.8296,N,08100.3884,W,1,8,1.9,18,M,,M,,*5A
06/14/2014	11:01:15.446	$GPGGA,110115,2428.8292,N,08100.3891,W,1,8,1.9,18,M,,M,,*5B
06/14/2014	11:01:16.554	$GPGGA,110116,2428.8288,N,08100.3898,W,1,8,1.9,18,M,,M,,*5A
06/14/2014	11:01:17.624	$GPGGA,110117,2428.8284,N,08100.3905,W,1,8,1.9,18,M,,M,,*52
06/14/2014	11:01:18.828	$GPGGA,110118,2428.8281,N,08100.3913,W,1,8,1.9,18,M,,M,,*5F
06/14/2014	11:01:19.791	$GPGGA,110119,2428.8277,N,08100.3923,W,1,8,1.9,18,M,,M,,*54
06/14/2014	11:01:21.027	$GPGGA,110120,2428.8271,N,08100.3931,W,1,8,1.9,18,M,,M,,*5B
06/14/2014	11:01:21.990	$GPGGA,110121,2428.8267,N,08100.3941,W,1,8,1.9,18,M,,M,,*5A
06/14/2014	11:01:23.194	$GPGGA,110122,2428.8263,N,08100.3949,W,1,8,1.9,18,M,,M,,*55
06/14/2014	11:01:24.157	$GPGGA,110123,2428.8259,N,08100.3957,W,1,8,1.9,18,M,,M,,*52
06/14/2014	11:01:25.394	$GPGGA,110124,2428.8255,N,08100.3964,W,1,8,1.9,18,M,,M,,*59
06/14/2014	11:01:26.357	$GPGGA,110125,2428.8251,N,08100.3972,W,1,8,1.9,18,M,,M,,*5B
06/14/2014	11:01:27.538	$GPGGA,110126,2428.8246,N,08100.3979,W,1,8,1.9,18,M,,M,,*55
06/14/2014	11:01:28.534	$GPGGA,110127,2428.8242,N,08100.3988,W,1,8,1.9,18,M,,M,,*5E
06/14/2014	11:01:29.749	$GPGGA,110128,2428.8237,N,08100.3997,W,1,8,1.9,18,M,,M,,*5D
06/14/2014	11:01:30.821	$GPGGA,110129,2428.8233,N,08100.4007,W,1,8,1.9,18,M,,M,,*5F
06/14/2014	11:01:31.927	$GPGGA,110130,2428.8228,N,08100.4015,W,1,8,1.9,18,M,,M,,*5E
06/14/2014	11:01:32.999	$GPGGA,110131,2428.8224,N,08100.4024,W,1,8,1.9,18,M,,M,,*51
06/14/2014	11:01:34.115	$GPGGA,110132,2428.8220,N,08100.4032,W,1,8,1.9,18,M,,M,,*51
06/14/2014	11:01:35.208	$GPGGA,110133,2428.8216,N,08100.4040,W,1,8,1.9,18,M,,M,,*50
06/14/2014	11:01:36.281	$GPGGA,110134,2428.8210,N,08100.4047,W,1,8,1.9,18,M,,M,,*56
06/14/2014	11:01:37.386	$GPGGA,110135,2428.8206,N,08100.4054,W,1,8,1.9,18,M,,M,,*52
06/14/2014	11:01:38.491	$GPGGA,110136,2428.8202,N,08100.4062,W,1,8,1.9,18,M,,M,,*50
06/14/2014	11:01:39.575	$GPGGA,110137,2428.8197,N,08100.4072,W,1,8,1.9,18,M,,M,,*5F
06/14/2014	11:01:40.647	$GPGGA,110138,2428.8194,N,08100.4080,W,1,8,1.9,18,M,,M,,*5E
06/14/2014	11:01:41.763	$GPGGA,110139,2428.8187,N,08100.4090,W,1,8,1.9,18,M,,M,,*5C
06/14/2014	11:01:42.858	$GPGGA,110140,2428.8183,N,08100.4098,W,1,8,1.9,18,M,,M,,*5E
06/14/2014	11:01:43.952	$GPGGA,110141,2428.8178,N,08100.4107,W,1,8,1.9,18,M,,M,,*5C
06/14/2014	11:01:45.019	$GPGGA,110142,2428.8173,N,08100.4113,W,1,8,1.9,18,M,,M,,*51
06/14/2014	11:01:46.140	$GPGGA,110143,2428.8170,N,08100.4120,W,1,8,1.9,18,M,,M,,*53
06/14/2014	11:01:47.224	$GPGGA,110144,2428.8165,N,08100.4129,W,1,8,1.9,18,M,,M,,*59
06/14/2014	11:01:48.307	$GPGGA,110145,2428.8161,N,08100.4137,W,1,8,1.9,18,M,,M,,*53
06/14/2014	11:01:49.401	$GPGGA,110146,2428.8156,N,08100.4144,W,1,8,1.9,18,M,,M,,*50
06/14/2014	11:01:50.507	$GPGGA,110147,2428.8152,N,08100.4154,W,1,8,1.9,18,M,,M,,*54
06/14/2014	11:01:51.590	$GPGGA,110148,2428.8147,N,08100.4162,W,1,8,1.9,18,M,,M,,*5A
06/14/2014	11:01:48.576	$GPGGA,110149,2428.8143,N,08100.4169,W,1,8,1.9,18,M,,M,,*54
06/14/2014	11:01:49.669	$GPGGA,110150,2428.8138,N,08100.4176,W,1,8,1.9,18,M,,M,,*5E
06/14/2014	11:01:50.785	$GPGGA,110151,2428.8134,N,08100.4184,W,1,8,1.9,18,M,,M,,*5E
06/14/2014	11:01:51.862	$GPGGA,110152,2428.8130,N,08100.4191,W,1,8,1.9,18,M,,M,,*5D
06/14/2014	11:01:52.974	$GPGGA,110153,2428.8125,N,08100.4199,W,1,8,1.9,18,M,,M,,*50
06/14/2014	11:01:54.036	$GPGGA,110154,2428.8120,N,08100.4207,W,1,8,1.9,18,M,,M,,*56
06/14/2014	11:01:55.174	$GPGGA,110155,2428.8116,N,08100.4216,W,1,8,1.9,18,M,,M,,*52
06/14/2014	11:01:56.224	$GPGGA,110156,2428.8112,N,08100.4224,W,1,8,1.9,18,M,,M,,*54
06/14/2014	11:01:57.318	$GPGGA,110157,2428.8108,N,08100.4234,W,1,8,1.9,18,M,,M,,*5F
06/14/2014	11:01:58.402	$GPGGA,110158,2428.8103,N,08100.4241,W,1,8,1.9,18,M,,M,,*59
06/14/2014	11:01:59.638	$GPGGA,110159,2428.8098,N,08100.4249,W,1,8,1.9,18,M,,M,,*53
06/14/2014	11:02:00.612	$GPGGA,110200,2428.8096,N,08100.4257,W,1,8,1.9,18,M,,M,,*5D
06/14/2014	11:02:01.717	$GPGGA,110201,2428.8092,N,08100.4267,W,1,8,1.9,18,M,,M,,*5B
06/14/2014	11:02:02.768	$GPGGA,110202,2428.8087,N,08100.4274,W,1,8,1.9,18,M,,M,,*5E
06/14/2014	11:02:03.862	$GPGGA,110203,2428.8083,N,08100.4282,W,1,8,1.9,18,M,,M,,*52
06/14/2014	11:02:05.154	$GPGGA,110204,2428.8079,N,08100.4292,W,1,8,1.9,18,M,,M,,*51
06/14/2014	11:02:06.062	$GPGGA,110205,2428.8076,N,08100.4300,W,1,8,1.9,18,M,,M,,*55
06/14/2014	11:02:07.245	$GPGGA,110206,2428.8071,N,08100.4310,W,1,8,1.9,18,M,,M,,*50
06/14/2014	11:02:08.230	$GPGGA,110207,2428.8066,N,08100.4317,W,1,8,1.9,18,M,,M,,*50
06/14/2014	11:02:09.508	$GPGGA,110208,2428.8062,N,08100.4326,W,1,8,1.9,17,M,,M,,*56
06/14/2014	11:02:10.416	$GPGGA,110209,2428.8060,N,08100.4335,W,1,8,1.9,17,M,,M,,*57
06/14/2014	11:02:11.609	$GPGGA,110210,2428.8055,N,08100.4342,W,1,8,1.9,17,M,,M,,*59
06/14/2014	11:02:12.616	$GPGGA,110211,2428.8051,N,08100.4350,W,1,8,1.9,17,M,,M,,*5F
06/14/2014	11:02:13.808	$GPGGA,110212,2428.8049,N,08100.4358,W,1,8,1.9,17,M,,M,,*5D
06/14/2014	11:02:14.957	$GPGGA,110213,2428.8046,N,08100.4368,W,1,8,1.9,17,M,,M,,*50
06/14/2014	11:02:16.065	$GPGGA,110214,2428.8042,N,08100.4376,W,1,8,1.9,17,M,,M,,*5C
06/14/2014	11:02:17.124	$GPGGA,110215,2428.8036,N,08100.4384,W,1,8,1.9,17,M,,M,,*53
06/14/2014	11:02:18.262	$GPGGA,110216,2428.8032,N,08100.4393,W,1,8,1.9,17,M,,M,,*52
06/14/2014	11:02:19.258	$GPGGA,110217,2428.8028,N,08100.4401,W,1,8,1.9,17,M,,M,,*54
06/14/2014	11:02:20.429	$GPGGA,110218,2428.8025,N,08100.4411,W,1,8,1.9,17,M,,M,,*57
06/14/2014	11:02:21.479	$GPGGA,110219,2428.8021,N,08100.4418,W,1,8,1.9,17,M,,M,,*5B
06/14/2014	11:02:22.628	$GPGGA,110220,2428.8017,N,08100.4426,W,1,8,1.9,17,M,,M,,*59
06/14/2014	11:02:23.690	$GPGGA,110221,2428.8013,N,08100.4434,W,1,8,1.9,17,M,,M,,*5F
06/14/2014	11:02:24.719	$GPGGA,110222,2428.8009,N,08100.4444,W,1,8,1.9,17,M,,M,,*50
06/14/2014	11:02:25.813	$GPGGA,110223,2428.8006,N,08100.4452,W,1,8,1.9,17,M,,M,,*59
06/14/2014	11:02:26.997	$GPGGA,110224,2428.8000,N,08100.4460,W,1,8,1.9,17,M,,M,,*59
06/14/2014	11:02:28.045	$GPGGA,110225,2428.7996,N,08100.4469,W,1,8,1.9,17,M,,M,,*58
06/14/2014	11:02:29.160	$GPGGA,110226,2428.7993,N,08100.4477,W,1,8,1.9,17,M,,M,,*51
06/14/2014	11:02:30.222	$GPGGA,110227,2428.7989,N,08100.4485,W,1,8,1.9,17,M,,M,,*56
06/14/2014	11:02:31.360	$GPGGA,110228,2428.7985,N,08100.4492,W,1,8,1.9,17,M,,M,,*53
06/14/2014	11:02:32.421	$GPGGA,110229,2428.7981,N,08100.4501,W,1,8,1.9,17,M,,M,,*5D
06/14/2014	11:02:33.527	$GPGGA,110230,2428.7977,N,08100.4509,W,1,8,1.9,17,M,,M,,*54
06/14/2014	11:02:34.599	$GPGGA,110231,2428.7973,N,08100.4517,W,1,8,1.9,17,M,,M,,*5E
06/14/2014	11:02:35.650	$GPGGA,110232,2428.7970,N,08100.4527,W,1,8,1.9,17,M,,M,,*5D
06/14/2014	11:02:36.788	$GPGGA,110233,2428.7966,N,08100.4535,W,1,8,1.9,17,M,,M,,*58
06/14/2014	11:02:37.927	$GPGGA,110234,2428.7960,N,08100.4543,W,1,8,1.9,17,M,,M,,*58
06/14/2014	11:02:38.965	$GPGGA,110235,2428.7957,N,08100.4552,W,1,8,1.9,17,M,,M,,*5D
06/14/2014	11:02:40.081	$GPGGA,110236,2428.7953,N,08100.4560,W,1,8,1.9,17,M,,M,,*5B
06/14/2014	11:02:41.176	$GPGGA,110237,2428.7948,N,08100.4567,W,1,8,1.9,17,M,,M,,*57
06/14/2014	11:02:42.259	$GPGGA,110238,2428.7944,N,08100.4575,W,1,8,1.9,17,M,,M,,*57
06/14/2014	11:02:43.332	$GPGGA,110239,2428.7941,N,08100.4584,W,1,8,1.9,17,M,,M,,*5D
06/14/2014	11:02:44.448	$GPGGA,110240,2428.7937,N,08100.4592,W,1,8,1.9,17,M,,M,,*55
06/14/2014	11:02:45.488	$GPGGA,110241,2428.7932,N,08100.4600,W,1,8,1.9,17,M,,M,,*59
06/14/2014	11:02:46.626	$GPGGA,110242,2428.7928,N,08100.4608,W,1,8,1.9,17,M,,M,,*59
06/14/2014	11:02:47.708	$GPGGA,110243,2428.7924,N,08100.4617,W,1,8,1.9,17,M,,M,,*5A
06/14/2014	11:02:48.813	$GPGGA,110244,2428.7920,N,08100.4625,W,1,8,1.9,17,M,,M,,*58
06/14/2014	11:02:49.874	$GPGGA,110245,2428.7915,N,08100.4633,W,1,8,1.9,17,M,,M,,*58
06/14/2014	11:02:50.991	$GPGGA,110246,2428.7912,N,08100.4640,W,1,8,1.9,17,M,,M,,*58
06/14/2014	11:02:52.008	$GPGGA,110247,2428.7909,N,08100.4650,W,1,8,1.9,17,M,,M,,*52
06/14/2014	11:02:53.113	$GPGGA,110248,2428.7905,N,08100.4657,W,1,8,1.9,17,M,,M,,*56
06/14/2014	11:02:48.541	$GPGGA,110249,2428.7901,N,08100.4667,W,1,8,1.9,17,M,,M,,*50
06/14/2014	11:02:49.701	$GPGGA,110250,2428.7897,N,08100.4676,W,1,8,1.9,17,M,,M,,*56
06/14/2014	11:02:50.861	$GPGGA,110251,2428.7894,N,08100.4686,W,1,8,1.9,17,M,,M,,*5B
06/14/2014	11:02:51.889	$GPGGA,110252,2428.7887,N,08100.4693,W,1,8,2.2,17,M,,M,,*56
06/14/2014	11:02:52.907	$GPGGA,110253,2428.7883,N,08100.4701,W,1,7,2.2,17,M,,M,,*56
06/14/2014	11:02:54.078	$GPGGA,110254,2428.7883,N,08100.4707,W,1,7,1.9,17,M,,M,,*5F
06/14/2014	11:02:55.151	$GPGGA,110255,2428.7879,N,08100.4715,W,1,8,1.9,17,M,,M,,*57
06/14/2014	11:02:56.332	$GPGGA,110256,2428.7876,N,08100.4722,W,1,8,1.9,17,M,,M,,*5F
06/14/2014	11:02:57.333	$GPGGA,110257,2428.7872,N,08100.4730,W,1,8,1.9,17,M,,M,,*59
06/14/2014	11:02:58.477	$GPGGA,110258,2428.7868,N,08100.4740,W,1,8,1.9,17,M,,M,,*5A
06/14/2014	11:02:59.506	$GPGGA,110259,2428.7865,N,08100.4748,W,1,8,1.9,17,M,,M,,*5E
06/14/2014	11:03:00.687	$GPGGA,110300,2428.7862,N,08100.4756,W,1,8,1.9,17,M,,M,,*5B
06/14/2014	11:03:01.759	$GPGGA,110301,2428.7859,N,08100.4763,W,1,8,1.9,17,M,,M,,*54
06/14/2014	11:03:02.811	$GPGGA,110302,2428.7855,N,08100.4770,W,1,8,1.9,18,M,,M,,*56
06/14/2014	11:03:03.948	$GPGGA,110303,2428.7852,N,08100.4777,W,1,8,1.9,18,M,,M,,*57
06/14/2014	11:03:05.053	$GPGGA,110304,2428.7850,N,08100.4785,W,1,8,1.9,18,M,,M,,*5F
06/14/2014	11:03:06.125	$GPGGA,110305,2428.7847,N,08100.4794,W,1,8,1.9,18,M,,M,,*58
06/14/2014	11:03:07.241	$GPGGA,110306,2428.7841,N,08100.4802,W,1,8,1.9,18,M,,M,,*5D
06/14/2014	11:03:08.303	$GPGGA,110307,2428.7838,N,08100.4810,W,1,8,1.9,18,M,,M,,*51
06/14/2014	11:03:09.408	$GPGGA,110308,2428.7834,N,08100.4819,W,1,8,1.9,18,M,,M,,*5B
06/14/2014	11:03:10.492	$GPGGA,110309,2428.7831,N,08100.4826,W,1,8,1.9,18,M,,M,,*53
06/14/2014	11:03:11.586	$GPGGA,110310,2428.7827,N,08100.4834,W,1,8,1.9,18,M,,M,,*5F
06/14/2014	11:03:12.702	$GPGGA,110311,2428.7822,N,08100.4841,W,1,8,1.9,18,M,,M,,*59
06/14/2014	11:03:13.840	$GPGGA,110312,2428.7822,N,08100.4841,W,1,8,1.9,18,M,,M,,*5A
06/14/2014	11:03:14.880	$GPGGA,110313,2428.7815,N,08100.4856,W,1,8,1.9,18,M,,M,,*59
06/14/2014	11:03:15.963	$GPGGA,110314,2428.7811,N,08100.4864,W,1,8,1.9,18,M,,M,,*5B
06/14/2014	11:03:17.079	$GPGGA,110315,2428.7805,N,08100.4873,W,1,8,1.9,18,M,,M,,*59
06/14/2014	11:03:19.715	$GPGGA,110317,2428.7797,N,08100.4891,W,1,8,1.9,18,M,,M,,*53
06/14/2014	11:03:20.361	$GPGGA,110318,2428.7793,N,08100.4897,W,1,8,1.9,18,M,,M,,*5E
06/14/2014	11:03:21.433	$GPGGA,110319,2428.7789,N,08100.4904,W,1,8,1.9,18,M,,M,,*5F
06/14/2014	11:03:22.539	$GPGGA,110320,2428.7784,N,08100.4911,W,1,8,1.9,18,M,,M,,*5C
06/14/2014	11:03:23.622	$GPGGA,110321,2428.7779,N,08100.4920,W,1,8,1.9,18,M,,M,,*5D
06/14/2014	11:03:24.685	$GPGGA,110322,2428.7779,N,08100.4920,W,1,8,1.9,18,M,,M,,*5E
06/14/2014	11:03:25.789	$GPGGA,110323,2428.7771,N,08100.4936,W,1,8,1.9,18,M,,M,,*50
06/14/2014	11:03:26.894	$GPGGA,110324,2428.7766,N,08100.4944,W,1,8,1.9,18,M,,M,,*54
06/14/2014	11:03:27.977	$GPGGA,110325,2428.7761,N,08100.4953,W,1,8,1.9,18,M,,M,,*54
06/14/2014	11:03:29.084	$GPGGA,110326,2428.7757,N,08100.4961,W,1,8,1.9,18,M,,M,,*53
06/14/2014	11:03:30.188	$GPGGA,110327,2428.7753,N,08100.4968,W,1,8,1.9,18,M,,M,,*5F
06/14/2014	11:03:31.260	$GPGGA,110328,2428.7749,N,08100.4976,W,1,8,1.9,18,M,,M,,*54
06/14/2014	11:03:32.344	$GPGGA,110329,2428.7746,N,08100.4985,W,1,8,1.9,18,M,,M,,*56
06/14/2014	11:03:33.449	$GPGGA,110330,2428.7746,N,08100.4985,W,1,8,1.9,18,M,,M,,*5E
06/14/2014	11:03:34.543	$GPGGA,110331,2428.7735,N,08100.5000,W,1,8,1.9,18,M,,M,,*5E
06/14/2014	11:03:35.670	$GPGGA,110332,2428.7732,N,08100.5008,W,1,8,1.9,18,M,,M,,*52
06/14/2014	11:03:36.732	$GPGGA,110333,2428.7728,N,08100.5018,W,1,8,1.9,18,M,,M,,*59
06/14/2014	11:03:37.805	$GPGGA,110334,2428.7722,N,08100.5025,W,1,8,1.9,18,M,,M,,*5A
06/14/2014	11:03:38.908	$GPGGA,110335,2428.7722,N,08100.5025,W,1,8,1.9,18,M,,M,,*5B
06/14/2014	11:03:40.046	$GPGGA,110336,2428.7719,N,08100.5033,W,1,8,1.9,18,M,,M,,*57
06/14/2014	11:03:41.086	$GPGGA,110337,2428.7710,N,08100.5048,W,1,8,1.9,18,M,,M,,*53
06/14/2014	11:03:42.290	$GPGGA,110338,2428.7706,N,08100.5055,W,1,8,1.9,18,M,,M,,*57
06/14/2014	11:03:43.253	$GPGGA,110339,2428.7702,N,08100.5063,W,1,8,1.9,18,M,,M,,*57
06/14/2014	11:03:44.489	$GPGGA,110340,2428.7699,N,08100.5072,W,1,8,1.9,18,M,,M,,*5A
06/14/2014	11:03:45.430	$GPGGA,110341,2428.7695,N,08100.5079,W,1,8,1.9,18,M,,M,,*5C
06/14/2014	11:03:46.634	$GPGGA,110342,2428.7690,N,08100.5087,W,1,8,1.9,18,M,,M,,*5B
06/14/2014	11:03:47.641	$GPGGA,110343,2428.7686,N,08100.5095,W,1,8,1.9,18,M,,M,,*5E
06/14/2014	11:03:48.855	$GPGGA,110344,2428.7682,N,08100.5103,W,1,8,1.9,18,M,,M,,*53
06/14/2014	11:03:49.829	$GPGGA,110345,2428.7679,N,08100.5112,W,1,8,1.9,18,M,,M,,*56
06/14/2014	11:03:51.011	$GPGGA,110346,2428.7675,N,08100.5119,W,1,8,1.9,18,M,,M,,*52
06/14/2014	11:03:52.116	$GPGGA,110347,2428.7671,N,08100.5126,W,1,8,1.9,18,M,,M,,*5B
06/14/2014	11:03:53.211	$GPGGA,110348,2428.7668,N,08100.5134,W,1,8,1.9,18,M,,M,,*5F
06/14/2014	11:03:48.518	$GPGGA,110349,2428.7665,N,08100.5142,W,1,8,1.9,18,M,,M,,*52
06/14/2014	11:03:49.611	$GPGGA,110350,2428.7661,N,08100.5150,W,1,8,1.9,18,M,,M,,*5D
06/14/2014	11:03:50.804	$GPGGA,110351,2428.7656,N,08100.5159,W,1,8,1.9,18,M,,M,,*51
06/14/2014	11:03:51.920	$GPGGA,110352,2428.7652,N,08100.5167,W,1,8,1.9,18,M,,M,,*5B
06/14/2014	11:03:53.013	$GPGGA,110353,2428.7649,N,08100.5175,W,1,8,1.9,17,M,,M,,*5C
06/14/2014	11:03:54.087	$GPGGA,110354,2428.7645,N,08100.5182,W,1,8,1.9,17,M,,M,,*5F
06/14/2014	11:03:55.191	$GPGGA,110355,2428.7641,N,08100.5189,W,1,8,1.9,17,M,,M,,*51
06/14/2014	11:03:56.318	$GPGGA,110356,2428.7637,N,08100.5196,W,1,8,1.9,17,M,,M,,*5D
06/14/2014	11:03:57.358	$GPGGA,110357,2428.7634,N,08100.5206,W,1,8,1.9,17,M,,M,,*55
06/14/2014	11:03:58.463	$GPGGA,110358,2428.7630,N,08100.5213,W,1,8,1.9,17,M,,M,,*5A
06/14/2014	11:03:59.568	$GPGGA,110359,2428.7625,N,08100.5222,W,1,8,1.9,17,M,,M,,*5D
06/14/2014	11:04:00.684	$GPGGA,110400,2428.7623,N,08100.5231,W,1,8,1.9,17,M,,M,,*52
06/14/2014	11:04:01.757	$GPGGA,110401,2428.7618,N,08100.5239,W,1,8,1.9,17,M,,M,,*53
06/14/2014	11:04:02.818	$GPGGA,110402,2428.7613,N,08100.5246,W,1,8,1.9,17,M,,M,,*53
06/14/2014	11:04:03.934	$GPGGA,110403,2428.7609,N,08100.5253,W,1,8,1.9,17,M,,M,,*5D
06/14/2014	11:04:05.029	$GPGGA,110404,2428.7606,N,08100.5260,W,1,8,1.9,17,M,,M,,*55
06/14/2014	11:04:06.132	$GPGGA,110405,2428.7602,N,08100.5268,W,1,8,1.9,17,M,,M,,*58
06/14/2014	11:04:07.193	$GPGGA,110406,2428.7598,N,08100.5275,W,1,8,1.9,17,M,,M,,*57
06/14/2014	11:04:08.312	$GPGGA,110407,2428.7594,N,08100.5285,W,1,8,1.9,17,M,,M,,*55
06/14/2014	11:04:09.384	$GPGGA,110408,2428.7590,N,08100.5293,W,1,8,1.9,17,M,,M,,*59
06/14/2014	11:04:10.461	$GPGGA,110409,2428.7587,N,08100.5300,W,1,8,1.9,17,M,,M,,*55
06/14/2014	11:04:11.563	$GPGGA,110410,2428.7583,N,08100.5307,W,1,8,1.9,17,M,,M,,*5E
06/14/2014	11:04:12.688	$GPGGA,110411,2428.7578,N,08100.5314,W,1,8,1.9,17,M,,M,,*59
06/14/2014	11:04:13.760	$GPGGA,110412,2428.7574,N,08100.5322,W,1,8,1.9,17,M,,M,,*53
06/14/2014	11:04:14.876	$GPGGA,110413,2428.7570,N,08100.5329,W,1,8,1.9,17,M,,M,,*5D
06/14/2014	11:04:15.941	$GPGGA,110414,2428.7566,N,08100.5336,W,1,8,1.9,17,M,,M,,*53
06/14/2014	11:04:17.010	$GPGGA,110415,2428.7562,N,08100.5344,W,1,8,1.9,17,M,,M,,*53
06/14/2014	11:04:18.137	$GPGGA,110416,2428.7558,N,08100.5351,W,1,8,1.9,17,M,,M,,*5D
06/14/2014	11:04:19.243	$GPGGA,110417,2428.7554,N,08100.5359,W,1,8,1.9,17,M,,M,,*58
06/14/2014	11:04:20.306	$GPGGA,110418,2428.7551,N,08100.5368,W,1,8,1.9,17,M,,M,,*50
06/14/2014	11:04:21.377	$GPGGA,110419,2428.7545,N,08100.5376,W,1,8,1.9,17,M,,M,,*5B
06/14/2014	11:04:22.505	$GPGGA,110420,2428.7541,N,08100.5383,W,1,8,1.9,17,M,,M,,*5F
06/14/2014	11:04:23.554	$GPGGA,110421,2428.7537,N,08100.5390,W,1,8,1.9,17,M,,M,,*5D
06/14/2014	11:04:24.681	$GPGGA,110422,2428.7534,N,08100.5397,W,1,8,1.9,17,M,,M,,*5A
06/14/2014	11:04:25.743	$GPGGA,110423,2428.7529,N,08100.5404,W,1,8,1.9,17,M,,M,,*5A
06/14/2014	11:04:26.979	$GPGGA,110424,2428.7525,N,08100.5412,W,1,8,1.9,17,M,,M,,*56
06/14/2014	11:04:27.922	$GPGGA,110425,2428.7520,N,08100.5420,W,1,8,1.9,17,M,,M,,*53
06/14/2014	11:04:29.135	$GPGGA,110426,2428.7515,N,08100.5428,W,1,8,1.9,17,M,,M,,*5E
06/14/2014	11:04:30.240	$GPGGA,110427,2428.7511,N,08100.5437,W,1,8,1.9,17,M,,M,,*55
06/14/2014	11:04:31.235	$GPGGA,110428,2428.7506,N,08100.5444,W,1,8,1.9,17,M,,M,,*58
06/14/2014	11:04:32.318	$GPGGA,110429,2428.7504,N,08100.5449,W,1,8,1.9,17,M,,M,,*56
06/14/2014	11:04:33.391	$GPGGA,110430,2428.7500,N,08100.5456,W,1,8,1.9,17,M,,M,,*54
06/14/2014	11:04:34.633	$GPGGA,110431,2428.7494,N,08100.5463,W,1,8,1.9,17,M,,M,,*5F
06/14/2014	11:04:35.612	$GPGGA,110432,2428.7489,N,08100.5471,W,1,8,1.9,17,M,,M,,*53
06/14/2014	11:04:36.816	$GPGGA,110433,2428.7486,N,08100.5480,W,1,8,1.9,17,M,,M,,*53
06/14/2014	11:04:37.877	$GPGGA,110434,2428.7480,N,08100.5488,W,1,8,1.9,17,M,,M,,*5A
06/14/2014	11:04:38.972	$GPGGA,110435,2428.7476,N,08100.5496,W,1,8,1.9,17,M,,M,,*5D
06/14/2014	11:04:40.066	$GPGGA,110436,2428.7472,N,08100.5503,W,1,8,1.9,17,M,,M,,*57
06/14/2014	11:04:41.160	$GPGGA,110437,2428.7467,N,08100.5509,W,1,8,1.9,17,M,,M,,*58
06/14/2014	11:04:42.244	$GPGGA,110438,2428.7464,N,08100.5517,W,1,8,1.9,17,M,,M,,*5B
06/14/2014	11:04:43.349	$GPGGA,110439,2428.7460,N,08100.5524,W,1,8,1.9,17,M,,M,,*5E
06/14/2014	11:04:44.432	$GPGGA,110440,2428.7455,N,08100.5531,W,1,8,1.9,17,M,,M,,*52
06/14/2014	11:04:45.548	$GPGGA,110441,2428.7450,N,08100.5540,W,1,8,1.9,17,M,,M,,*50
06/14/2014	11:04:46.610	$GPGGA,110442,2428.7446,N,08100.5549,W,1,8,1.9,17,M,,M,,*5D
06/14/2014	11:04:47.693	$GPGGA,110443,2428.7441,N,08100.5556,W,1,8,1.9,17,M,,M,,*55
06/14/2014	11:04:48.810	$GPGGA,110444,2428.7437,N,08100.5564,W,1,8,1.9,17,M,,M,,*52
06/14/2014	11:04:49.903	$GPGGA,110445,2428.7432,N,08100.5571,W,1,8,1.9,17,M,,M,,*52
06/14/2014	11:04:50.964	$GPGGA,110446,2428.7428,N,08100.5578,W,1,8,1.9,16,M,,M,,*52
06/14/2014	11:04:52.076	$GPGGA,110447,2428.7424,N,08100.5585,W,1,8,1.9,16,M,,M,,*5D
06/14/2014	11:04:53.175	$GPGGA,110448,2428.7421,N,08100.5592,W,1,8,1.9,16,M,,M,,*51
06/14/2014	11:04:48.613	$GPGGA,110449,2428.7417,N,08100.5600,W,1,8,1.9,16,M,,M,,*5D
06/14/2014	11:04:49.675	$GPGGA,110450,2428.7411,N,08100.5607,W,1,8,1.9,16,M,,M,,*54
06/14/2014	11:04:50.791	$GPGGA,110451,2428.7408,N,08100.5615,W,1,8,1.9,16,M,,M,,*5E
06/14/2014	11:04:51.885	$GPGGA,110452,2428.7402,N,08100.5623,W,1,8,2.6,16,M,,M,,*5E
06/14/2014	11:04:52.990	$GPGGA,110453,2428.7399,N,08100.5632,W,1,8,1.9,16,M,,M,,*56
06/14/2014	11:04:54.062	$GPGGA,110454,2428.7395,N,08100.5639,W,1,8,1.9,16,M,,M,,*56
06/14/2014	11:04:55.147	$GPGGA,110455,2428.7389,N,08100.5645,W,1,8,1.9,16,M,,M,,*51
06/14/2014	11:04:56.262	$GPGGA,110456,2428.7385,N,08100.5652,W,1,8,1.9,16,M,,M,,*58
06/14/2014	11:04:57.346	$GPGGA,110457,2428.7382,N,08100.5661,W,1,8,1.9,16,M,,M,,*5E
06/14/2014	11:04:58.429	$GPGGA,110458,2428.7377,N,08100.5668,W,1,8,1.9,16,M,,M,,*52
06/14/2014	11:04:59.512	$GPGGA,110459,2428.7371,N,08100.5676,W,1,8,1.9,16,M,,M,,*5A
06/14/2014	11:05:00.639	$GPGGA,110500,2428.7367,N,08100.5683,W,1,8,1.9,16,M,,M,,*5A
06/14/2014	11:05:01.723	$GPGGA,110501,2428.7363,N,08100.5690,W,1,8,1.9,16,M,,M,,*5D
06/14/2014	11:05:02.806	$GPGGA,110502,2428.7359,N,08100.5697,W,1,8,1.9,16,M,,M,,*50
06/14/2014	11:05:03.877	$GPGGA,110503,2428.7352,N,08100.5704,W,1,8,1.9,16,M,,M,,*51
06/14/2014	11:05:04.994	$GPGGA,110504,2428.7348,N,08100.5709,W,1,8,1.9,17,M,,M,,*51
06/14/2014	11:05:06.066	$GPGGA,110505,2428.7345,N,08100.5716,W,1,8,1.9,17,M,,M,,*53
06/14/2014	11:05:07.282	$GPGGA,110506,2428.7339,N,08100.5723,W,1,8,1.9,17,M,,M,,*5D
06/14/2014	11:05:08.277	$GPGGA,110507,2428.7335,N,08100.5730,W,1,8,1.9,17,M,,M,,*52
06/14/2014	11:05:09.349	$GPGGA,110508,2428.7331,N,08100.5738,W,1,8,1.9,17,M,,M,,*51
06/14/2014	11:05:10.531	$GPGGA,110509,2428.7327,N,08100.5746,W,1,8,1.9,17,M,,M,,*5E
06/14/2014	11:05:11.527	$GPGGA,110510,2428.7321,N,08100.5753,W,1,8,1.9,17,M,,M,,*54
06/14/2014	11:05:12.632	$GPGGA,110511,2428.7317,N,08100.5762,W,1,8,1.9,17,M,,M,,*52
06/14/2014	11:05:13.715	$GPGGA,110512,2428.7313,N,08100.5769,W,1,8,1.9,17,M,,M,,*5E
06/14/2014	11:05:14.810	$GPGGA,110513,2428.7309,N,08100.5775,W,1,8,1.9,17,M,,M,,*59
06/14/2014	11:05:15.882	$GPGGA,110514,2428.7305,N,08100.5782,W,1,8,1.9,17,M,,M,,*5A
06/14/2014	11:05:16.998	$GPGGA,110515,2428.7299,N,08100.5789,W,1,8,1.9,17,M,,M,,*54
06/14/2014	11:05:18.103	$GPGGA,110516,2428.7296,N,08100.5796,W,1,8,1.9,17,M,,M,,*56
06/14/2014	11:05:19.165	$GPGGA,110517,2428.7292,N,08100.5805,W,1,8,1.9,18,M,,M,,*59
06/14/2014	11:05:20.392	$GPGGA,110518,2428.7287,N,08100.5813,W,1,8,1.9,18,M,,M,,*55
06/14/2014	11:05:21.353	$GPGGA,110519,2428.7283,N,08100.5820,W,1,8,1.9,18,M,,M,,*50
06/14/2014	11:05:22.578	$GPGGA,110520,2428.7278,N,08100.5828,W,1,8,1.9,18,M,,M,,*56
06/14/2014	11:05:23.639	$GPGGA,110521,2428.7274,N,08100.5835,W,1,8,1.9,18,M,,M,,*57
06/14/2014	11:05:24.734	$GPGGA,110522,2428.7270,N,08100.5843,W,1,8,1.9,18,M,,M,,*51
06/14/2014	11:05:25.828	$GPGGA,110523,2428.7267,N,08100.5850,W,1,8,1.9,18,M,,M,,*54
06/14/2014	11:05:26.944	$GPGGA,110524,2428.7264,N,08100.5857,W,1,8,1.9,18,M,,M,,*57
06/14/2014	11:05:28.017	$GPGGA,110525,2428.7259,N,08100.5864,W,1,8,1.9,18,M,,M,,*58
06/14/2014	11:05:29.111	$GPGGA,110526,2428.7255,N,08100.5874,W,1,8,1.9,18,M,,M,,*56
06/14/2014	11:05:30.216	$GPGGA,110527,2428.7252,N,08100.5882,W,1,8,1.9,18,M,,M,,*59
06/14/2014	11:05:31.300	$GPGGA,110528,2428.7248,N,08100.5890,W,1,8,1.9,18,M,,M,,*5E
06/14/2014	11:05:32.372	$GPGGA,110529,2428.7243,N,08100.5899,W,1,8,1.9,18,M,,M,,*5D
06/14/2014	11:05:33.466	$GPGGA,110530,2428.7238,N,08100.5905,W,1,8,1.9,18,M,,M,,*5D
06/14/2014	11:05:34.593	$GPGGA,110531,2428.7234,N,08100.5912,W,1,8,1.9,18,M,,M,,*56
06/14/2014	11:05:35.666	$GPGGA,110532,2428.7231,N,08100.5919,W,1,8,1.9,18,M,,M,,*5B
06/14/2014	11:05:36.771	$GPGGA,110533,2428.7229,N,08100.5926,W,1,8,1.9,18,M,,M,,*5F
06/14/2014	11:05:37.832	$GPGGA,110534,2428.7223,N,08100.5934,W,1,8,1.9,18,M,,M,,*51
06/14/2014	11:05:38.960	$GPGGA,110535,2428.7218,N,08100.5943,W,1,8,1.9,18,M,,M,,*58
06/14/2014	11:05:40.032	$GPGGA,110536,2428.7215,N,08100.5951,W,1,8,1.9,18,M,,M,,*55
06/14/2014	11:05:41.133	$GPGGA,110537,2428.7211,N,08100.5961,W,1,8,1.9,18,M,,M,,*53
06/14/2014	11:05:42.220	$GPGGA,110538,2428.7208,N,08100.5968,W,1,8,1.9,18,M,,M,,*5D
06/14/2014	11:05:43.303	$GPGGA,110539,2428.7202,N,08100.5975,W,1,8,1.9,18,M,,M,,*5A
06/14/2014	11:05:44.408	$GPGGA,110540,2428.7199,N,08100.5980,W,1,8,1.9,18,M,,M,,*5F
06/14/2014	11:05:45.513	$GPGGA,110541,2428.7197,N,08100.5987,W,1,8,1.9,18,M,,M,,*57
06/14/2014	11:05:46.586	$GPGGA,110542,2428.7193,N,08100.5994,W,1,8,1.9,18,M,,M,,*52
06/14/2014	11:05:47.691	$GPGGA,110543,2428.7188,N,08100.6002,W,1,8,1.9,18,M,,M,,*5C
06/14/2014	11:05:48.774	$GPGGA,110544,2428.7186,N,08100.6012,W,1,8,1.9,18,M,,M,,*54
06/14/2014	11:05:49.847	$GPGGA,110545,2428.7178,N,08100.6019,W,1,7,2.6,18,M,,M,,*5C
06/14/2014	11:05:50.952	$GPGGA,110546,2428.7175,N,08100.6026,W,1,7,1.9,18,M,,M,,*52
06/14/2014	11:05:52.068	$GPGGA,110547,2428.7170,N,08100.6033,W,1,8,1.9,18,M,,M,,*5D
06/14/2014	11:05:53.152	$GPGGA,110548,2428.7164,N,08100.6040,W,1,8,2.2,18,M,,M,,*5B
06/14/2014	11:05:48.578	$GPGGA,110549,2428.7160,N,08100.6045,W,1,8,1.9,18,M,,M,,*53
06/14/2014	11:05:49.652	$GPGGA,110550,2428.7157,N,08100.6051,W,1,8,1.9,18,M,,M,,*5A
06/14/2014	11:05:50.747	$GPGGA,110551,2428.7152,N,08100.6058,W,1,8,1.9,19,M,,M,,*56
06/14/2014	11:05:51.874	$GPGGA,110552,2428.7148,N,08100.6066,W,1,8,1.9,19,M,,M,,*53
06/14/2014	11:05:52.968	$GPGGA,110553,2428.7146,N,08100.6073,W,1,8,1.9,19,M,,M,,*58
06/14/2014	11:05:54.030	$GPGGA,110554,2428.7140,N,08100.6080,W,1,8,1.9,19,M,,M,,*55
06/14/2014	11:05:55.113	$GPGGA,110555,2428.7136,N,08100.6087,W,1,8,1.9,19,M,,M,,*52
06/14/2014	11:05:56.239	$GPGGA,110556,2428.7133,N,08100.6091,W,1,8,1.9,19,M,,M,,*53
06/14/2014	11:05:57.311	$GPGGA,110557,2428.7130,N,08100.6096,W,1,8,1.9,19,M,,M,,*56
06/14/2014	11:05:58.493	$GPGGA,110558,2428.7126,N,08100.6102,W,1,8,1.9,19,M,,M,,*52
06/14/2014	11:05:59.521	$GPGGA,110559,2428.7121,N,08100.6109,W,1,8,1.9,19,M,,M,,*5F
06/14/2014	11:06:00.605	$GPGGA,110600,2428.7118,N,08100.6116,W,1,8,2.2,19,M,,M,,*5C
06/14/2014	11:06:01.689	$GPGGA,110601,2428.7114,N,08100.6123,W,1,8,1.9,19,M,,M,,*5F
06/14/2014	11:06:02.860	$GPGGA,110602,2428.7111,N,08100.6129,W,1,8,1.9,19,M,,M,,*53
06/14/2014	11:06:03.999	$GPGGA,110603,2428.7108,N,08100.6136,W,1,8,1.9,19,M,,M,,*54
06/14/2014	11:06:04.961	$GPGGA,110604,2428.7104,N,08100.6143,W,1,8,1.9,20,M,,M,,*57
06/14/2014	11:06:06.044	$GPGGA,110605,2428.7100,N,08100.6149,W,1,8,1.9,20,M,,M,,*58
06/14/2014	11:06:07.226	$GPGGA,110606,2428.7096,N,08100.6156,W,1,8,1.9,20,M,,M,,*5B
06/14/2014	11:06:08.184	$GPGGA,110607,2428.7092,N,08100.6163,W,1,8,1.9,20,M,,M,,*58
06/14/2014	11:06:09.323	$GPGGA,110608,2428.7087,N,08100.6168,W,1,8,1.9,20,M,,M,,*58
06/14/2014	11:06:10.349	$GPGGA,110609,2428.7083,N,08100.6176,W,1,8,1.9,20,M,,M,,*52
06/14/2014	11:06:11.374	$GPGGA,110610,2428.7079,N,08100.6183,W,1,8,1.9,20,M,,M,,*55
06/14/2014	11:06:12.421	$GPGGA,110611,2428.7075,N,08100.6190,W,1,8,1.9,20,M,,M,,*5A
06/14/2014	11:06:13.465	$GPGGA,110612,2428.7070,N,08100.6199,W,1,8,1.9,20,M,,M,,*55
06/14/2014	11:06:14.500	$GPGGA,110613,2428.7065,N,08100.6206,W,1,8,1.9,20,M,,M,,*55
06/14/2014	11:06:15.515	$GPGGA,110614,2428.7063,N,08100.6212,W,1,8,1.9,20,M,,M,,*51
06/14/2014	11:06:16.581	$GPGGA,110615,2428.7056,N,08100.6218,W,1,8,1.9,20,M,,M,,*5C
06/14/2014	11:06:17.606	$GPGGA,110616,2428.7052,N,08100.6225,W,1,8,1.9,20,M,,M,,*55
06/14/2014	11:06:18.632	$GPGGA,110617,2428.7048,N,08100.6232,W,1,8,1.9,20,M,,M,,*59
06/14/2014	11:06:19.646	$GPGGA,110618,2428.7043,N,08100.6239,W,1,8,1.9,20,M,,M,,*56
06/14/2014	11:06:20.723	$GPGGA,110619,2428.7039,N,08100.6246,W,1,8,1.9,20,M,,M,,*52
06/14/2014	11:06:21.738	$GPGGA,110620,2428.7035,N,08100.6254,W,1,8,1.9,20,M,,M,,*57
06/14/2014	11:06:22.763	$GPGGA,110621,2428.7031,N,08100.6261,W,1,8,1.9,20,M,,M,,*54
06/14/2014	11:06:23.788	$GPGGA,110622,2428.7027,N,08100.6266,W,1,8,1.9,20,M,,M,,*57
06/14/2014	11:06:24.834	$GPGGA,110623,2428.7023,N,08100.6273,W,1,8,1.9,20,M,,M,,*56
06/14/2014	11:06:25.870	$GPGGA,110624,2428.7020,N,08100.6282,W,1,8,1.9,20,M,,M,,*5C
06/14/2014	11:06:26.926	$GPGGA,110625,2428.7013,N,08100.6288,W,1,8,1.9,20,M,,M,,*57
06/14/2014	11:06:27.910	$GPGGA,110626,2428.7009,N,08100.6294,W,1,8,1.9,20,M,,M,,*52
06/14/2014	11:06:28.945	$GPGGA,110627,2428.7005,N,08100.6301,W,1,8,1.9,20,M,,M,,*52
06/14/2014	11:06:30.001	$GPGGA,110628,2428.7002,N,08100.6308,W,1,8,1.9,20,M,,M,,*53
06/14/2014	11:06:31.016	$GPGGA,110629,2428.6998,N,08100.6315,W,1,8,1.9,20,M,,M,,*55
06/14/2014	11:06:32.069	$GPGGA,110630,2428.6992,N,08100.6323,W,1,8,1.9,20,M,,M,,*52
06/14/2014	11:06:33.117	$GPGGA,110631,2428.6988,N,08100.6330,W,1,8,1.9,20,M,,M,,*5A
06/14/2014	11:06:34.125	$GPGGA,110632,2428.6984,N,08100.6337,W,1,8,1.9,20,M,,M,,*52
06/14/2014	11:06:35.147	$GPGGA,110633,2428.6981,N,08100.6344,W,1,8,1.9,20,M,,M,,*52
06/14/2014	11:06:36.193	$GPGGA,110634,2428.6977,N,08100.6351,W,1,8,1.9,20,M,,M,,*58
06/14/2014	11:06:37.249	$GPGGA,110635,2428.6971,N,08100.6358,W,1,8,1.9,20,M,,M,,*56
06/14/2014	11:06:38.264	$GPGGA,110636,2428.6967,N,08100.6365,W,1,8,1.9,20,M,,M,,*5C
06/14/2014	11:06:39.330	$GPGGA,110637,2428.6963,N,08100.6370,W,1,8,1.9,20,M,,M,,*5D
06/14/2014	11:06:40.314	$GPGGA,110638,2428.6959,N,08100.6378,W,1,8,1.9,20,M,,M,,*53
06/14/2014	11:06:41.391	$GPGGA,110639,2428.6953,N,08100.6384,W,1,7,2.6,20,M,,M,,*58
06/14/2014	11:06:42.406	$GPGGA,110640,2428.6947,N,08100.6391,W,1,7,1.9,20,M,,M,,*5B
06/14/2014	11:06:43.420	$GPGGA,110641,2428.6942,N,08100.6398,W,1,8,1.9,20,M,,M,,*59
06/14/2014	11:06:44.445	$GPGGA,110642,2428.6938,N,08100.6405,W,1,8,1.9,20,M,,M,,*54
06/14/2014	11:06:45.502	$GPGGA,110643,2428.6933,N,08100.6412,W,1,8,1.9,20,M,,M,,*58
06/14/2014	11:06:46.537	$GPGGA,110644,2428.6929,N,08100.6418,W,1,8,1.9,20,M,,M,,*5E
06/14/2014	11:06:47.552	$GPGGA,110645,2428.6924,N,08100.6425,W,1,8,1.9,20,M,,M,,*5C
06/14/2014	11:06:48.577	$GPGGA,110646,2428.6919,N,08100.6431,W,1,8,1.9,20,M,,M,,*54
06/14/2014	11:06:49.737	$GPGGA,110647,2428.6916,N,08100.6438,W,1,8,1.9,20,M,,M,,*53
06/14/2014	11:06:50.657	$GPGGA,110648,2428.6911,N,08100.6445,W,1,8,1.9,20,M,,M,,*51
06/14/2014	11:06:48.634	$GPGGA,110649,2428.6906,N,08100.6452,W,1,8,1.9,20,M,,M,,*50
06/14/2014	11:06:49.546	$GPGGA,110650,2428.6901,N,08100.6460,W,1,8,1.9,20,M,,M,,*5E
06/14/2014	11:06:50.705	$GPGGA,110651,2428.6897,N,08100.6465,W,1,8,1.9,20,M,,M,,*54
06/14/2014	11:06:51.617	$GPGGA,110652,2428.6893,N,08100.6472,W,1,8,1.9,20,M,,M,,*55
06/14/2014	11:06:52.631	$GPGGA,110653,2428.6889,N,08100.6481,W,1,8,1.9,20,M,,M,,*53
06/14/2014	11:06:53.781	$GPGGA,110654,2428.6886,N,08100.6486,W,1,8,1.9,20,M,,M,,*5C
06/14/2014	11:06:54.816	$GPGGA,110655,2428.6881,N,08100.6493,W,1,8,1.9,20,M,,M,,*5E
06/14/2014	11:06:55.748	$GPGGA,110656,2428.6879,N,08100.6500,W,1,8,1.9,20,M,,M,,*51
06/14/2014	11:06:56.877	$GPGGA,110657,2428.6873,N,08100.6507,W,1,8,1.9,20,M,,M,,*5D
06/14/2014	11:06:57.902	$GPGGA,110658,2428.6868,N,08100.6514,W,1,8,1.9,20,M,,M,,*5A
06/14/2014	11:06:58.958	$GPGGA,110659,2428.6864,N,08100.6521,W,1,8,1.9,20,M,,M,,*51
06/14/2014	11:07:00.004	$GPGGA,110700,2428.6859,N,08100.6528,W,1,8,1.9,20,M,,M,,*5B
06/14/2014	11:07:01.009	$GPGGA,110701,2428.6855,N,08100.6535,W,1,8,1.9,20,M,,M,,*5A
06/14/2014	11:07:02.034	$GPGGA,110702,2428.6851,N,08100.6543,W,1,8,1.9,20,M,,M,,*5C
06/14/2014	11:07:03.080	$GPGGA,110703,2428.6846,N,08100.6550,W,1,8,1.9,20,M,,M,,*59
06/14/2014	11:07:04.115	$GPGGA,110704,2428.6841,N,08100.6557,W,1,8,1.8,20,M,,M,,*5F
06/14/2014	11:07:05.170	$GPGGA,110705,2428.6837,N,08100.6564,W,1,8,1.8,20,M,,M,,*5F
06/14/2014	11:07:06.175	$GPGGA,110706,2428.6832,N,08100.6571,W,1,8,1.8,20,M,,M,,*5D
06/14/2014	11:07:07.221	$GPGGA,110707,2428.6828,N,08100.6579,W,1,8,1.8,19,M,,M,,*55
06/14/2014	11:07:08.256	$GPGGA,110708,2428.6823,N,08100.6586,W,1,8,1.8,19,M,,M,,*51
06/14/2014	11:07:09.292	$GPGGA,110709,2428.6818,N,08100.6593,W,1,8,1.8,19,M,,M,,*5C
06/14/2014	11:07:10.327	$GPGGA,110710,2428.6814,N,08100.6600,W,1,8,1.9,19,M,,M,,*50
06/14/2014	11:07:11.352	$GPGGA,110711,2428.6808,N,08100.6608,W,1,8,1.9,19,M,,M,,*54
06/14/2014	11:07:12.388	$GPGGA,110712,2428.6805,N,08100.6615,W,1,8,1.9,19,M,,M,,*56
06/14/2014	11:07:13.403	$GPGGA,110713,2428.6800,N,08100.6622,W,1,8,1.9,19,M,,M,,*56
06/14/2014	11:07:14.448	$GPGGA,110714,2428.6794,N,08100.6629,W,1,8,1.9,19,M,,M,,*58
06/14/2014	11:07:15.515	$GPGGA,110715,2428.6790,N,08100.6636,W,1,8,1.9,19,M,,M,,*53
06/14/2014	11:07:16.519	$GPGGA,110716,2428.6786,N,08100.6642,W,1,8,1.8,19,M,,M,,*55
06/14/2014	11:07:17.555	$GPGGA,110717,2428.6781,N,08100.6649,W,1,8,1.8,19,M,,M,,*58
06/14/2014	11:07:18.574	$GPGGA,110718,2428.6777,N,08100.6656,W,1,8,1.8,19,M,,M,,*50
06/14/2014	11:07:19.605	$GPGGA,110719,2428.6774,N,08100.6665,W,1,8,1.8,19,M,,M,,*52
06/14/2014	11:07:20.651	$GPGGA,110720,2428.6768,N,08100.6671,W,1,8,1.8,19,M,,M,,*50
06/14/2014	11:07:21.676	$GPGGA,110721,2428.6764,N,08100.6678,W,1,8,1.8,19,M,,M,,*54
06/14/2014	11:07:22.712	$GPGGA,110722,2428.6761,N,08100.6685,W,1,8,1.8,19,M,,M,,*50
06/14/2014	11:07:23.767	$GPGGA,110723,2428.6756,N,08100.6691,W,1,8,1.8,19,M,,M,,*50
06/14/2014	11:07:24.802	$GPGGA,110724,2428.6751,N,08100.6698,W,1,8,1.8,19,M,,M,,*59
06/14/2014	11:07:25.819	$GPGGA,110725,2428.6747,N,08100.6706,W,1,8,1.8,19,M,,M,,*59
06/14/2014	11:07:26.832	$GPGGA,110726,2428.6743,N,08100.6713,W,1,8,1.8,19,M,,M,,*5A
06/14/2014	11:07:27.898	$GPGGA,110727,2428.6738,N,08100.6720,W,1,8,1.8,19,M,,M,,*57
06/14/2014	11:07:28.934	$GPGGA,110728,2428.6734,N,08100.6727,W,1,8,1.8,19,M,,M,,*53
06/14/2014	11:07:29.969	$GPGGA,110729,2428.6731,N,08100.6734,W,1,8,1.8,19,M,,M,,*55
06/14/2014	11:07:30.964	$GPGGA,110730,2428.6727,N,08100.6741,W,1,8,1.8,19,M,,M,,*58
06/14/2014	11:07:31.999	$GPGGA,110731,2428.6721,N,08100.6748,W,1,8,1.8,19,M,,M,,*56
06/14/2014	11:07:33.073	$GPGGA,110732,2428.6716,N,08100.6753,W,1,8,1.8,19,M,,M,,*5B
06/14/2014	11:07:34.080	$GPGGA,110733,2428.6712,N,08100.6761,W,1,8,2.2,19,M,,M,,*56
06/14/2014	11:07:35.116	$GPGGA,110734,2428.6706,N,08100.6770,W,1,8,1.8,19,M,,M,,*5D
06/14/2014	11:07:36.265	$GPGGA,110735,2428.6700,N,08100.6775,W,1,8,1.8,19,M,,M,,*5F
06/14/2014	11:07:37.301	$GPGGA,110736,2428.6698,N,08100.6782,W,1,8,1.8,19,M,,M,,*54
06/14/2014	11:07:38.202	$GPGGA,110737,2428.6692,N,08100.6789,W,1,8,1.8,19,M,,M,,*54
06/14/2014	11:07:39.330	$GPGGA,110738,2428.6687,N,08100.6796,W,1,8,1.8,19,M,,M,,*51
06/14/2014	11:07:40.387	$GPGGA,110739,2428.6684,N,08100.6803,W,1,8,1.8,19,M,,M,,*50
06/14/2014	11:07:41.339	$GPGGA,110740,2428.6678,N,08100.6810,W,1,8,2.2,19,M,,M,,*56
06/14/2014	11:07:42.487	$GPGGA,110741,2428.6673,N,08100.6817,W,1,7,2.2,19,M,,M,,*54
06/14/2014	11:07:43.461	$GPGGA,110742,2428.6669,N,08100.6824,W,1,7,1.8,18,M,,M,,*54
06/14/2014	11:07:44.414	$GPGGA,110743,2428.6663,N,08100.6831,W,1,8,2.2,18,M,,M,,*5D
06/14/2014	11:07:45.563	$GPGGA,110744,2428.6658,N,08100.6837,W,1,8,2.2,18,M,,M,,*54
06/14/2014	11:07:46.568	$GPGGA,110745,2428.6653,N,08100.6843,W,1,8,1.8,18,M,,M,,*54
06/14/2014	11:07:47.603	$GPGGA,110746,2428.6649,N,08100.6850,W,1,8,1.8,18,M,,M,,*5E
06/14/2014	11:07:48.639	$GPGGA,110747,2428.6645,N,08100.6857,W,1,8,1.8,18,M,,M,,*54
06/14/2014	11:07:49.684	$GPGGA,110748,2428.6640,N,08100.6864,W,1,8,1.8,18,M,,M,,*5E
06/14/2014	11:07:48.603	$GPGGA,110749,2428.6635,N,08100.6871,W,1,8,1.8,18,M,,M,,*59
06/14/2014	11:07:49.608	$GPGGA,110750,2428.6631,N,08100.6876,W,1,8,1.8,18,M,,M,,*52
06/14/2014	11:07:50.643	$GPGGA,110751,2428.6627,N,08100.6883,W,1,8,1.8,18,M,,M,,*5E
06/14/2014	11:07:51.679	$GPGGA,110752,2428.6622,N,08100.6890,W,1,8,1.8,18,M,,M,,*5A
06/14/2014	11:07:52.725	$GPGGA,110753,2428.6619,N,08100.6897,W,1,8,1.8,18,M,,M,,*54
06/14/2014	11:07:53.739	$GPGGA,110754,2428.6615,N,08100.6904,W,1,8,1.8,18,M,,M,,*54
06/14/2014	11:07:54.806	$GPGGA,110755,2428.6609,N,08100.6911,W,1,8,1.8,18,M,,M,,*5C
06/14/2014	11:07:55.821	$GPGGA,110756,2428.6605,N,08100.6918,W,1,8,1.8,18,M,,M,,*5A
06/14/2014	11:07:56.855	$GPGGA,110757,2428.6601,N,08100.6926,W,1,8,1.8,18,M,,M,,*52
06/14/2014	11:07:57.870	$GPGGA,110758,2428.6597,N,08100.6933,W,1,8,1.8,18,M,,M,,*55
06/14/2014	11:07:58.926	$GPGGA,110759,2428.6592,N,08100.6940,W,1,8,1.8,18,M,,M,,*55
06/14/2014	11:07:59.951	$GPGGA,110800,2428.6588,N,08100.6947,W,1,8,1.8,18,M,,M,,*5A
06/14/2014	11:08:00.997	$GPGGA,110801,2428.6584,N,08100.6952,W,1,8,1.8,18,M,,M,,*53
06/14/2014	11:08:02.022	$GPGGA,110802,2428.6579,N,08100.6959,W,1,8,1.8,18,M,,M,,*59
06/14/2014	11:08:03.058	$GPGGA,110803,2428.6575,N,08100.6967,W,1,8,1.8,19,M,,M,,*58
06/14/2014	11:08:04.093	$GPGGA,110804,2428.6572,N,08100.6976,W,1,8,1.8,19,M,,M,,*58
06/14/2014	11:08:05.150	$GPGGA,110805,2428.6566,N,08100.6983,W,1,8,1.8,19,M,,M,,*56
06/14/2014	11:08:06.148	$GPGGA,110806,2428.6561,N,08100.6990,W,1,8,1.8,19,M,,M,,*50
06/14/2014	11:08:07.210	$GPGGA,110807,2428.6557,N,08100.6996,W,1,8,1.8,19,M,,M,,*52
06/14/2014	11:08:08.225	$GPGGA,110808,2428.6552,N,08100.7003,W,1,8,1.8,19,M,,M,,*5C
06/14/2014	11:08:09.241	$GPGGA,110809,2428.6548,N,08100.7010,W,1,8,1.8,19,M,,M,,*54
06/14/2014	11:08:10.286	$GPGGA,110810,2428.6544,N,08100.7017,W,1,8,1.8,19,M,,M,,*57
06/14/2014	11:08:11.342	$GPGGA,110811,2428.6539,N,08100.7025,W,1,8,1.8,19,M,,M,,*5D
06/14/2014	11:08:12.357	$GPGGA,110812,2428.6534,N,08100.7032,W,1,8,1.8,19,M,,M,,*55
06/14/2014	11:08:13.423	$GPGGA,110813,2428.6529,N,08100.7039,W,1,8,1.8,19,M,,M,,*53
06/14/2014	11:08:14.521	$GPGGA,110814,2428.6525,N,08100.7048,W,1,8,1.8,19,M,,M,,*5E
06/14/2014	11:08:15.431	$GPGGA,110815,2428.6521,N,08100.7055,W,1,8,1.8,19,M,,M,,*57
06/14/2014	11:08:16.499	$GPGGA,110816,2428.6515,N,08100.7061,W,1,8,1.8,19,M,,M,,*54
06/14/2014	11:08:17.536	$GPGGA,110817,2428.6511,N,08100.7067,W,1,8,1.8,19,M,,M,,*57
06/14/2014	11:08:18.641	$GPGGA,110818,2428.6508,N,08100.7074,W,1,8,1.8,19,M,,M,,*52
06/14/2014	11:08:19.585	$GPGGA,110819,2428.6503,N,08100.7081,W,1,8,1.8,19,M,,M,,*52
06/14/2014	11:08:20.631	$GPGGA,110820,2428.6497,N,08100.7088,W,1,8,1.8,19,M,,M,,*5D
06/14/2014	11:08:21.758	$GPGGA,110821,2428.6493,N,08100.7095,W,1,8,1.8,19,M,,M,,*54
06/14/2014	11:08:22.690	$GPGGA,110822,2428.6489,N,08100.7103,W,1,8,1.8,19,M,,M,,*52
06/14/2014	11:08:23.725	$GPGGA,110823,2428.6485,N,08100.7110,W,1,8,1.8,19,M,,M,,*5D
06/14/2014	11:08:24.855	$GPGGA,110824,2428.6480,N,08100.7117,W,1,8,1.8,19,M,,M,,*58
06/14/2014	11:08:25.796	$GPGGA,110825,2428.6476,N,08100.7125,W,1,8,1.8,19,M,,M,,*51
06/14/2014	11:08:26.821	$GPGGA,110826,2428.6471,N,08100.7132,W,1,8,1.8,19,M,,M,,*53
06/14/2014	11:08:27.848	$GPGGA,110827,2428.6467,N,08100.7139,W,1,8,1.8,19,M,,M,,*5E
06/14/2014	11:08:29.006	$GPGGA,110828,2428.6462,N,08100.7146,W,1,8,1.8,19,M,,M,,*5C
06/14/2014	11:08:30.011	$GPGGA,110829,2428.6458,N,08100.7153,W,1,8,1.8,19,M,,M,,*50
06/14/2014	11:08:30.943	$GPGGA,110830,2428.6453,N,08100.7160,W,1,8,1.8,19,M,,M,,*53
06/14/2014	11:08:32.082	$GPGGA,110831,2428.6449,N,08100.7168,W,1,8,1.8,18,M,,M,,*50
06/14/2014	11:08:33.116	$GPGGA,110832,2428.6445,N,08100.7175,W,1,8,1.8,18,M,,M,,*53
06/14/2014	11:08:34.141	$GPGGA,110833,2428.6441,N,08100.7182,W,1,8,1.8,18,M,,M,,*5E
06/14/2014	11:08:35.177	$GPGGA,110834,2428.6435,N,08100.7189,W,1,8,1.8,18,M,,M,,*51
06/14/2014	11:08:36.223	$GPGGA,110835,2428.6431,N,08100.7197,W,1,7,2.3,18,M,,M,,*5C
06/14/2014	11:08:37.248	$GPGGA,110836,2428.6427,N,08100.7202,W,1,7,1.8,18,M,,M,,*5F
06/14/2014	11:08:38.314	$GPGGA,110837,2428.6424,N,08100.7209,W,1,7,2.6,18,M,,M,,*5B
06/14/2014	11:08:39.298	$GPGGA,110838,2428.6418,N,08100.7215,W,1,7,1.8,18,M,,M,,*5B
06/14/2014	11:08:40.365	$GPGGA,110839,2428.6413,N,08100.7222,W,1,8,1.8,18,M,,M,,*5A
06/14/2014	11:08:41.380	$GPGGA,110840,2428.6409,N,08100.7229,W,1,8,1.8,18,M,,M,,*54
06/14/2014	11:08:42.415	$GPGGA,110841,2428.6403,N,08100.7236,W,1,8,1.8,18,M,,M,,*51
06/14/2014	11:08:43.440	$GPGGA,110842,2428.6398,N,08100.7243,W,1,8,1.8,18,M,,M,,*55
06/14/2014	11:08:44.486	$GPGGA,110843,2428.6395,N,08100.7249,W,1,8,1.8,18,M,,M,,*53
06/14/2014	11:08:45.511	$GPGGA,110844,2428.6389,N,08100.7256,W,1,8,1.8,18,M,,M,,*57
06/14/2014	11:08:46.557	$GPGGA,110845,2428.6385,N,08100.7262,W,1,8,1.8,18,M,,M,,*5D
06/14/2014	11:08:47.562	$GPGGA,110846,2428.6381,N,08100.7269,W,1,8,1.8,18,M,,M,,*51
06/14/2014	11:08:48.628	$GPGGA,110847,2428.6375,N,08100.7276,W,1,8,1.8,18,M,,M,,*55
06/14/2014	11:08:49.653	$GPGGA,110848,2428.6373,N,08100.7283,W,1,8,1.8,18,M,,M,,*56
06/14/2014	11:08:48.581	$GPGGA,110849,2428.6368,N,08100.7290,W,1,8,1.8,19,M,,M,,*5E
06/14/2014	11:08:49.585	$GPGGA,110850,2428.6362,N,08100.7296,W,1,8,1.8,19,M,,M,,*5A
06/14/2014	11:08:50.641	$GPGGA,110851,2428.6357,N,08100.7303,W,1,8,1.8,19,M,,M,,*50
06/14/2014	11:08:51.656	$GPGGA,110852,2428.6353,N,08100.7310,W,1,8,1.8,19,M,,M,,*55
06/14/2014	11:08:52.712	$GPGGA,110853,2428.6349,N,08100.7316,W,1,8,1.8,19,M,,M,,*59
06/14/2014	11:08:53.717	$GPGGA,110854,2428.6345,N,08100.7323,W,1,8,1.8,19,M,,M,,*54
06/14/2014	11:08:54.783	$GPGGA,110855,2428.6340,N,08100.7330,W,1,8,1.8,19,M,,M,,*52
06/14/2014	11:08:55.798	$GPGGA,110856,2428.6337,N,08100.7337,W,1,8,1.8,19,M,,M,,*56
06/14/2014	11:08:56.833	$GPGGA,110857,2428.6331,N,08100.7342,W,1,8,1.8,19,M,,M,,*53
06/14/2014	11:08:57.838	$GPGGA,110858,2428.6328,N,08100.7350,W,1,8,1.8,19,M,,M,,*57
06/14/2014	11:08:58.873	$GPGGA,110859,2428.6324,N,08100.7359,W,1,8,1.8,19,M,,M,,*53
06/14/2014	11:08:59.940	$GPGGA,110900,2428.6319,N,08100.7364,W,1,8,1.8,20,M,,M,,*54
06/14/2014	11:09:00.944	$GPGGA,110901,2428.6313,N,08100.7371,W,1,8,1.8,20,M,,M,,*5B
06/14/2014	11:09:02.005	$GPGGA,110902,2428.6309,N,08100.7377,W,1,8,1.8,20,M,,M,,*55
06/14/2014	11:09:03.016	$GPGGA,110903,2428.6303,N,08100.7384,W,1,8,1.8,20,M,,M,,*52
06/14/2014	11:09:04.065	$GPGGA,110904,2428.6298,N,08100.7392,W,1,8,2.3,20,M,,M,,*59
06/14/2014	11:09:05.076	$GPGGA,110905,2428.6293,N,08100.7399,W,1,7,2.3,20,M,,M,,*57
06/14/2014	11:09:06.123	$GPGGA,110906,2428.6290,N,08100.7406,W,1,7,1.8,20,M,,M,,*5E
06/14/2014	11:09:07.274	$GPGGA,110907,2428.6283,N,08100.7411,W,1,7,2.5,20,M,,M,,*55
06/14/2014	11:09:08.192	$GPGGA,110908,2428.6279,N,08100.7417,W,1,7,1.8,20,M,,M,,*57
06/14/2014	11:09:09.341	$GPGGA,110909,2428.6273,N,08100.7424,W,1,8,1.8,20,M,,M,,*53
06/14/2014	11:09:10.242	$GPGGA,110910,2428.6266,N,08100.7433,W,1,8,2.3,20,M,,M,,*51
06/14/2014	11:09:11.267	$GPGGA,110911,2428.6261,N,08100.7440,W,1,8,1.8,20,M,,M,,*5B
06/14/2014	11:09:12.437	$GPGGA,110912,2428.6256,N,08100.7446,W,1,8,1.8,20,M,,M,,*5A
06/14/2014	11:09:13.359	$GPGGA,110913,2428.6252,N,08100.7451,W,1,8,1.8,20,M,,M,,*59
06/14/2014	11:09:14.477	$GPGGA,110914,2428.6248,N,08100.7458,W,1,8,1.8,20,M,,M,,*5C
06/14/2014	11:09:15.523	$GPGGA,110915,2428.6243,N,08100.7464,W,1,8,1.8,20,M,,M,,*59
06/14/2014	11:09:16.559	$GPGGA,110916,2428.6238,N,08100.7472,W,1,8,1.8,20,M,,M,,*51
06/14/2014	11:09:17.480	$GPGGA,110917,2428.6232,N,08100.7480,W,1,7,2.5,20,M,,M,,*56
06/14/2014	11:09:18.609	$GPGGA,110918,2428.6226,N,08100.7487,W,1,7,1.8,20,M,,M,,*55
06/14/2014	11:09:19.655	$GPGGA,110919,2428.6222,N,08100.7494,W,1,8,1.8,20,M,,M,,*5D
06/14/2014	11:09:20.690	$GPGGA,110920,2428.6218,N,08100.7501,W,1,8,1.8,20,M,,M,,*53
06/14/2014	11:09:21.715	$GPGGA,110921,2428.6214,N,08100.7507,W,1,8,1.8,20,M,,M,,*58
06/14/2014	11:09:22.751	$GPGGA,110922,2428.6209,N,08100.7514,W,1,8,1.8,20,M,,M,,*55
06/14/2014	11:09:23.797	$GPGGA,110923,2428.6204,N,08100.7519,W,1,8,1.8,20,M,,M,,*54
06/14/2014	11:09:24.832	$GPGGA,110924,2428.6199,N,08100.7527,W,1,8,1.8,20,M,,M,,*59
06/14/2014	11:09:25.867	$GPGGA,110925,2428.6194,N,08100.7536,W,1,8,1.8,20,M,,M,,*55
06/14/2014	11:09:26.892	$GPGGA,110926,2428.6189,N,08100.7543,W,1,8,1.8,20,M,,M,,*58
06/14/2014	11:09:27.927	$GPGGA,110927,2428.6185,N,08100.7551,W,1,8,1.8,20,M,,M,,*56
06/14/2014	11:09:28.963	$GPGGA,110928,2428.6180,N,08100.7558,W,1,8,1.8,20,M,,M,,*55
06/14/2014	11:09:29.998	$GPGGA,110929,2428.6176,N,08100.7562,W,1,8,1.8,20,M,,M,,*54
06/14/2014	11:09:31.013	$GPGGA,110930,2428.6171,N,08100.7569,W,1,8,1.8,20,M,,M,,*50
06/14/2014	11:09:32.080	$GPGGA,110931,2428.6167,N,08100.7576,W,1,8,1.8,20,M,,M,,*58
06/14/2014	11:09:33.095	$GPGGA,110932,2428.6162,N,08100.7583,W,1,8,1.8,20,M,,M,,*54
06/14/2014	11:09:34.133	$GPGGA,110933,2428.6156,N,08100.7590,W,1,8,1.8,20,M,,M,,*50
06/14/2014	11:09:35.145	$GPGGA,110934,2428.6152,N,08100.7598,W,1,8,1.8,20,M,,M,,*5B
06/14/2014	11:09:36.211	$GPGGA,110935,2428.6147,N,08100.7603,W,1,8,1.8,20,M,,M,,*5F
06/14/2014	11:09:37.226	$GPGGA,110936,2428.6143,N,08100.7610,W,1,8,1.8,20,M,,M,,*5A
06/14/2014	11:09:38.282	$GPGGA,110937,2428.6139,N,08100.7616,W,1,8,1.8,20,M,,M,,*50
06/14/2014	11:09:39.275	$GPGGA,110938,2428.6134,N,08100.7623,W,1,8,1.8,20,M,,M,,*54
06/14/2014	11:09:40.302	$GPGGA,110939,2428.6131,N,08100.7628,W,1,8,1.8,20,M,,M,,*5B
06/14/2014	11:09:41.368	$GPGGA,110940,2428.6126,N,08100.7635,W,1,8,1.8,20,M,,M,,*5F
06/14/2014	11:09:42.378	$GPGGA,110941,2428.6122,N,08100.7642,W,1,8,1.8,20,M,,M,,*5A
06/14/2014	11:09:43.417	$GPGGA,110942,2428.6117,N,08100.7649,W,1,8,1.8,20,M,,M,,*54
06/14/2014	11:09:44.484	$GPGGA,110943,2428.6113,N,08100.7656,W,1,8,1.8,20,M,,M,,*5F
06/14/2014	11:09:45.490	$GPGGA,110944,2428.6109,N,08100.7663,W,1,8,1.8,19,M,,M,,*5F
06/14/2014	11:09:46.503	$GPGGA,110945,2428.6104,N,08100.7670,W,1,8,1.8,19,M,,M,,*51
06/14/2014	11:09:47.560	$GPGGA,110946,2428.6102,N,08100.7677,W,1,8,1.8,19,M,,M,,*53
06/14/2014	11:09:48.574	$GPGGA,110947,2428.6097,N,08100.7681,W,1,8,1.8,19,M,,M,,*56
06/14/2014	11:09:49.765	$GPGGA,110948,2428.6092,N,08100.7688,W,1,8,1.8,19,M,,M,,*55
06/14/2014	11:09:48.507	$GPGGA,110949,2428.6088,N,08100.7695,W,1,8,1.8,19,M,,M,,*53
06/14/2014	11:09:49.698	$GPGGA,110950,2428.6084,N,08100.7702,W,1,8,1.8,19,M,,M,,*58
06/14/2014	11:09:50.785	$GPGGA,110951,2428.6079,N,08100.7710,W,1,8,1.8,19,M,,M,,*58
06/14/2014	11:09:51.624	$GPGGA,110952,2428.6074,N,08100.7717,W,1,8,1.8,19,M,,M,,*51
06/14/2014	11:09:52.846	$GPGGA,110953,2428.6070,N,08100.7722,W,1,8,1.8,19,M,,M,,*52
06/14/2014	11:09:53.695	$GPGGA,110954,2428.6066,N,08100.7728,W,1,8,1.8,19,M,,M,,*58
06/14/2014	11:09:54.906	$GPGGA,110955,2428.6062,N,08100.7733,W,1,8,1.8,19,M,,M,,*57
06/14/2014	11:09:55.776	$GPGGA,110956,2428.6059,N,08100.7740,W,1,8,1.8,19,M,,M,,*58
06/14/2014	11:09:56.988	$GPGGA,110957,2428.6055,N,08100.7747,W,1,8,1.8,19,M,,M,,*52
06/14/2014	11:09:57.838	$GPGGA,110958,2428.6049,N,08100.7753,W,1,8,1.8,19,M,,M,,*55
06/14/2014	11:09:58.841	$GPGGA,110959,2428.6045,N,08100.7761,W,1,8,1.8,19,M,,M,,*59
06/14/2014	11:10:00.049	$GPGGA,111000,2428.6040,N,08100.7769,W,1,8,1.8,19,M,,M,,*50
06/14/2014	11:10:00.921	$GPGGA,111001,2428.6033,N,08100.7775,W,1,7,2.3,19,M,,M,,*5F
06/14/2014	11:10:02.081	$GPGGA,111002,2428.6032,N,08100.7780,W,1,7,1.8,19,M,,M,,*5F
06/14/2014	11:10:03.179	$GPGGA,111003,2428.6028,N,08100.7787,W,1,8,1.8,19,M,,M,,*5D
06/14/2014	11:10:04.132	$GPGGA,111004,2428.6023,N,08100.7793,W,1,8,1.8,19,M,,M,,*54
06/14/2014	11:10:05.214	$GPGGA,111005,2428.6019,N,08100.7800,W,1,8,1.8,19,M,,M,,*59
06/14/2014	11:10:06.238	$GPGGA,111006,2428.6014,N,08100.7807,W,1,8,1.8,19,M,,M,,*50
06/14/2014	11:10:07.269	$GPGGA,111007,2428.6008,N,08100.7814,W,1,8,1.8,19,M,,M,,*5E
06/14/2014	11:10:08.320	$GPGGA,111008,2428.6004,N,08100.7821,W,1,8,1.8,19,M,,M,,*5B
06/14/2014	11:10:09.382	$GPGGA,111009,2428.5998,N,08100.7829,W,1,8,2.3,19,M,,M,,*55
06/14/2014	11:10:10.345	$GPGGA,111010,2428.5994,N,08100.7836,W,1,8,2.3,19,M,,M,,*5F
06/14/2014	11:10:11.411	$GPGGA,111011,2428.5988,N,08100.7841,W,1,8,2.3,19,M,,M,,*53
06/14/2014	11:10:12.448	$GPGGA,111012,2428.5985,N,08100.7847,W,1,8,2.3,19,M,,M,,*5B
06/14/2014	11:10:13.524	$GPGGA,111013,2428.5981,N,08100.7852,W,1,8,1.8,19,M,,M,,*52
06/14/2014	11:10:14.476	$GPGGA,111014,2428.5977,N,08100.7861,W,1,8,1.8,19,M,,M,,*5C
06/14/2014	11:10:15.595	$GPGGA,111015,2428.5972,N,08100.7868,W,1,6,3.1,19,M,,M,,*54
06/14/2014	11:10:16.558	$GPGGA,111016,2428.5968,N,08100.7874,W,1,6,3.1,19,M,,M,,*51
06/14/2014	11:10:17.664	$GPGGA,111017,2428.5963,N,08100.7881,W,1,8,1.8,19,M,,M,,*54
06/14/2014	11:10:18.576	$GPGGA,111018,2428.5959,N,08100.7887,W,1,8,1.8,19,M,,M,,*54
06/14/2014	11:10:19.725	$GPGGA,111019,2428.5956,N,08100.7894,W,1,8,1.8,18,M,,M,,*59
06/14/2014	11:10:20.699	$GPGGA,111020,2428.5954,N,08100.7899,W,1,8,1.8,18,M,,M,,*5C
06/14/2014	11:10:21.796	$GPGGA,111021,2428.5949,N,08100.7905,W,1,8,2.5,18,M,,M,,*5B
06/14/2014	11:10:22.738	$GPGGA,111022,2428.5945,N,08100.7912,W,1,8,2.5,18,M,,M,,*52
06/14/2014	11:10:23.846	$GPGGA,111023,2428.5943,N,08100.7917,W,1,7,2.5,18,M,,M,,*5F
06/14/2014	11:10:24.789	$GPGGA,111024,2428.5934,N,08100.7924,W,1,7,2.5,18,M,,M,,*58
06/14/2014	11:10:25.938	$GPGGA,111025,2428.5928,N,08100.7931,W,1,8,1.8,18,M,,M,,*51
06/14/2014	11:10:26.849	$GPGGA,111026,2428.5925,N,08100.7938,W,1,8,1.8,18,M,,M,,*56
06/14/2014	11:10:27.885	$GPGGA,111027,2428.5918,N,08100.7944,W,1,8,1.8,18,M,,M,,*52
06/14/2014	11:10:28.962	$GPGGA,111028,2428.5912,N,08100.7952,W,1,8,1.8,18,M,,M,,*50
06/14/2014	11:10:29.947	$GPGGA,111029,2428.5907,N,08100.7959,W,1,8,1.8,18,M,,M,,*5E
06/14/2014	11:10:31.002	$GPGGA,111030,2428.5900,N,08100.7963,W,1,8,1.8,18,M,,M,,*58
06/14/2014	11:10:32.122	$GPGGA,111031,2428.5896,N,08100.7971,W,1,8,2.5,18,M,,M,,*5A
06/14/2014	11:10:33.072	$GPGGA,111032,2428.5890,N,08100.7978,W,1,8,2.5,18,M,,M,,*56
06/14/2014	11:10:34.079	$GPGGA,111033,2428.5885,N,08100.7985,W,1,8,1.8,18,M,,M,,*5F
06/14/2014	11:10:35.113	$GPGGA,111034,2428.5880,N,08100.7992,W,1,8,1.8,18,M,,M,,*5B
06/14/2014	11:10:36.230	$GPGGA,111035,2428.5874,N,08100.7999,W,1,8,1.8,18,M,,M,,*5A
06/14/2014	11:10:37.224	$GPGGA,111036,2428.5868,N,08100.8004,W,1,8,1.8,18,M,,M,,*56
06/14/2014	11:10:38.302	$GPGGA,111037,2428.5864,N,08100.8011,W,1,8,1.8,19,M,,M,,*5E
06/14/2014	11:10:39.243	$GPGGA,111038,2428.5860,N,08100.8018,W,1,8,1.8,19,M,,M,,*5C
06/14/2014	11:10:40.414	$GPGGA,111039,2428.5856,N,08100.8025,W,1,8,2.5,19,M,,M,,*58
06/14/2014	11:10:41.356	$GPGGA,111040,2428.5851,N,08100.8032,W,1,8,1.8,19,M,,M,,*59
06/14/2014	11:10:42.350	$GPGGA,111041,2428.5846,N,08100.8039,W,1,8,1.8,19,M,,M,,*55
06/14/2014	11:10:43.416	$GPGGA,111042,2428.5842,N,08100.8046,W,1,8,1.8,19,M,,M,,*5A
06/14/2014	11:10:44.493	$GPGGA,111043,2428.5837,N,08100.8051,W,1,8,1.8,19,M,,M,,*5F
06/14/2014	11:10:45.498	$GPGGA,111044,2428.5832,N,08100.8058,W,1,8,2.3,19,M,,M,,*5C
06/14/2014	11:10:46.606	$GPGGA,111045,2428.5824,N,08100.8067,W,1,7,1.8,19,M,,M,,*51
06/14/2014	11:10:47.507	$GPGGA,111046,2428.5817,N,08100.8072,W,1,7,1.8,19,M,,M,,*56
06/14/2014	11:10:48.646	$GPGGA,111047,2428.5813,N,08100.8081,W,1,8,1.8,19,M,,M,,*50
06/14/2014	11:10:49.691	$GPGGA,111048,2428.5807,N,08100.8087,W,1,8,1.8,19,M,,M,,*5C
06/14/2014	11:10:50.051	$GPGGA,111050,2428.5797,N,08100.8100,W,1,8,2.5,19,M,,M,,*53
06/14/2014	11:10:50.661	$GPGGA,111051,2428.5795,N,08100.8107,W,1,7,1.8,19,M,,M,,*56
06/14/2014	11:10:51.705	$GPGGA,111052,2428.5790,N,08100.8114,W,1,7,1.8,19,M,,M,,*52
06/14/2014	11:10:52.741	$GPGGA,111053,2428.5788,N,08100.8121,W,1,8,1.8,19,M,,M,,*53
06/14/2014	11:10:53.766	$GPGGA,111054,2428.5784,N,08100.8128,W,1,8,1.8,18,M,,M,,*50
06/14/2014	11:10:54.812	$GPGGA,111055,2428.5779,N,08100.8133,W,1,8,2.5,18,M,,M,,*57
06/14/2014	11:10:55.847	$GPGGA,111056,2428.5775,N,08100.8139,W,1,8,2.5,18,M,,M,,*52
06/14/2014	11:10:56.862	$GPGGA,111057,2428.5771,N,08100.8147,W,1,7,2.3,18,M,,M,,*57
06/14/2014	11:10:57.898	$GPGGA,111058,2428.5764,N,08100.8154,W,1,7,2.3,18,M,,M,,*5E
06/14/2014	11:10:58.964	$GPGGA,111059,2428.5760,N,08100.8158,W,1,7,2.5,18,M,,M,,*51
06/14/2014	11:10:59.989	$GPGGA,111100,2428.5756,N,08100.8166,W,1,7,3.1,18,M,,M,,*51
06/14/2014	11:11:01.015	$GPGGA,111101,2428.5752,N,08100.8170,W,1,6,1.8,18,M,,M,,*59
06/14/2014	11:11:02.029	$GPGGA,111102,2428.5746,N,08100.8176,W,1,6,1.8,18,M,,M,,*59
06/14/2014	11:11:03.086	$GPGGA,111103,2428.5746,N,08100.8176,W,1,8,1.8,18,M,,M,,*56
06/14/2014	11:11:04.111	$GPGGA,111104,2428.5737,N,08100.8186,W,1,8,1.8,18,M,,M,,*58
06/14/2014	11:11:05.146	$GPGGA,111105,2428.5733,N,08100.8193,W,1,8,2.5,18,M,,M,,*57
06/14/2014	11:11:06.161	$GPGGA,111106,2428.5733,N,08100.8193,W,1,8,2.5,18,M,,M,,*54
06/14/2014	11:11:07.222	$GPGGA,111107,2428.5724,N,08100.8205,W,1,7,1.8,18,M,,M,,*5E
06/14/2014	11:11:08.197	$GPGGA,111108,2428.5719,N,08100.8212,W,1,7,1.8,18,M,,M,,*59
06/14/2014	11:11:09.231	$GPGGA,111109,2428.5719,N,08100.8212,W,1,8,1.8,18,M,,M,,*57
06/14/2014	11:11:10.214	$GPGGA,111110,2428.5710,N,08100.8226,W,1,8,1.8,19,M,,M,,*50
06/14/2014	11:11:11.259	$GPGGA,111111,2428.5705,N,08100.8233,W,1,8,1.8,19,M,,M,,*51
06/14/2014	11:11:12.273	$GPGGA,111112,2428.5702,N,08100.8241,W,1,8,1.8,19,M,,M,,*50
06/14/2014	11:11:13.298	$GPGGA,111113,2428.5697,N,08100.8245,W,1,8,1.8,19,M,,M,,*58
06/14/2014	11:11:14.261	$GPGGA,111114,2428.5694,N,08100.8251,W,1,8,1.8,19,M,,M,,*59
06/14/2014	11:11:15.316	$GPGGA,111115,2428.5690,N,08100.8258,W,1,8,1.8,19,M,,M,,*55
06/14/2014	11:11:16.300	$GPGGA,111116,2428.5686,N,08100.8264,W,1,8,1.8,19,M,,M,,*5E
06/14/2014	11:11:17.355	$GPGGA,111117,2428.5681,N,08100.8270,W,1,8,1.8,19,M,,M,,*5D
06/14/2014	11:11:18.319	$GPGGA,111118,2428.5677,N,08100.8278,W,1,8,1.8,20,M,,M,,*59
06/14/2014	11:11:19.343	$GPGGA,111119,2428.5677,N,08100.8278,W,1,8,1.8,20,M,,M,,*58
06/14/2014	11:11:20.348	$GPGGA,111120,2428.5669,N,08100.8291,W,1,8,1.8,20,M,,M,,*5A
06/14/2014	11:11:21.362	$GPGGA,111121,2428.5669,N,08100.8291,W,1,8,1.8,20,M,,M,,*5B
06/14/2014	11:11:22.479	$GPGGA,111122,2428.5661,N,08100.8306,W,1,8,1.8,20,M,,M,,*5F
06/14/2014	11:11:23.391	$GPGGA,111123,2428.5661,N,08100.8306,W,1,8,1.8,20,M,,M,,*5E
06/14/2014	11:11:24.405	$GPGGA,111124,2428.5654,N,08100.8317,W,1,8,2.5,20,M,,M,,*51
06/14/2014	11:11:25.515	$GPGGA,111125,2428.5648,N,08100.8325,W,1,7,2.5,20,M,,M,,*53
06/14/2014	11:11:26.525	$GPGGA,111126,2428.5643,N,08100.8331,W,1,7,1.8,20,M,,M,,*50
06/14/2014	11:11:27.444	$GPGGA,111127,2428.5643,N,08100.8331,W,1,8,1.8,20,M,,M,,*5E
06/14/2014	11:11:28.563	$GPGGA,111128,2428.5632,N,08100.8345,W,1,8,2.5,20,M,,M,,*5A
06/14/2014	11:11:29.466	$GPGGA,111129,2428.5632,N,08100.8345,W,1,8,1.8,20,M,,M,,*55
06/14/2014	11:11:30.551	$GPGGA,111130,2428.5625,N,08100.8358,W,1,8,1.8,20,M,,M,,*57
06/14/2014	11:11:31.495	$GPGGA,111131,2428.5625,N,08100.8358,W,1,8,1.8,20,M,,M,,*56
06/14/2014	11:11:32.489	$GPGGA,111132,2428.5614,N,08100.8370,W,1,8,1.8,20,M,,M,,*5D
06/14/2014	11:11:33.503	$GPGGA,111133,2428.5614,N,08100.8370,W,1,8,1.8,20,M,,M,,*5C
06/14/2014	11:11:34.609	$GPGGA,111134,2428.5607,N,08100.8385,W,1,8,1.8,20,M,,M,,*53
06/14/2014	11:11:35.644	$GPGGA,111135,2428.5600,N,08100.8392,W,1,8,1.8,20,M,,M,,*53
06/14/2014	11:11:36.648	$GPGGA,111136,2428.5594,N,08100.8397,W,1,8,1.8,19,M,,M,,*51
06/14/2014	11:11:37.652	$GPGGA,111137,2428.5589,N,08100.8404,W,1,8,1.8,19,M,,M,,*51
06/14/2014	11:11:38.667	$GPGGA,111138,2428.5584,N,08100.8410,W,1,8,3.1,19,M,,M,,*5D
06/14/2014	11:11:39.701	$GPGGA,111139,2428.5580,N,08100.8415,W,1,8,1.8,19,M,,M,,*56
06/14/2014	11:11:40.695	$GPGGA,111140,2428.5576,N,08100.8421,W,1,8,1.8,19,M,,M,,*56
06/14/2014	11:11:41.700	$GPGGA,111141,2428.5571,N,08100.8428,W,1,8,1.8,19,M,,M,,*59
06/14/2014	11:11:42.714	$GPGGA,111142,2428.5566,N,08100.8434,W,1,8,1.8,19,M,,M,,*51
06/14/2014	11:11:43.739	$GPGGA,111143,2428.5560,N,08100.8443,W,1,8,1.8,19,M,,M,,*56
06/14/2014	11:11:44.733	$GPGGA,111144,2428.5554,N,08100.8448,W,1,8,1.8,19,M,,M,,*5D
06/14/2014	11:11:45.756	$GPGGA,111145,2428.5549,N,08100.8455,W,1,8,1.8,19,M,,M,,*5C
06/14/2014	11:11:46.761	$GPGGA,111146,2428.5544,N,08100.8459,W,1,8,1.8,19,M,,M,,*5E
06/14/2014	11:11:47.795	$GPGGA,111147,2428.5539,N,08100.8465,W,1,8,1.8,19,M,,M,,*5A
06/14/2014	11:11:48.789	$GPGGA,111148,2428.5535,N,08100.8472,W,1,8,1.8,19,M,,M,,*5F
06/14/2014	11:11:48.573	$GPGGA,111149,2428.5529,N,08100.8479,W,1,8,1.8,19,M,,M,,*58
06/14/2014	11:11:49.557	$GPGGA,111150,2428.5524,N,08100.8486,W,1,8,1.8,19,M,,M,,*5D
