Software Version Number: 1	Data File Format Number: 1	Build Version Number: 1	Error Count Since VI Started: 0	Manufacturer: Raytheon	 Model Number: RayMarine 120	 S/N: 	 Cal Date: 	 Wind Direction Offset: 0.00	 Slope (M)1: 0.00	 Offset (B)1: 0.00	 Slope (M)2: 0.00	 Offset (B)2: 0.00	 Slope (M)3: 0.00	 Offset (B)3: 0.00	 Slope (M)4: 0.00	 Offset (B)4: 0.00	 Slope (M)5: 0.00	 Offset (B)5: 0.00	 Slope (M)6: 0.00	 Offset (B)6: 0.00
Computer Date	Computer Time	GGA String
06/05/2014	21:00:00.902	$GPGGA,210001,2422.7347,N,08122.3880,W,1,10,1.4,12,M,,M,,*6E
06/05/2014	21:00:01.902	$GPGGA,210002,2422.7342,N,08122.3880,W,1,10,1.4,12,M,,M,,*68
06/05/2014	21:00:02.924	$GPGGA,210003,2422.7336,N,08122.3879,W,1,11,1.4,12,M,,M,,*6D
06/05/2014	21:00:03.814	$GPGGA,210004,2422.7330,N,08122.3877,W,1,11,1.4,12,M,,M,,*62
06/05/2014	21:00:04.917	$GPGGA,210005,2422.7325,N,08122.3876,W,1,11,1.4,12,M,,M,,*66
06/05/2014	21:00:05.837	$GPGGA,210006,2422.7320,N,08122.3877,W,1,11,1.4,12,M,,M,,*61
06/05/2014	21:00:06.970	$GPGGA,210007,2422.7316,N,08122.3878,W,1,11,1.4,12,M,,M,,*6A
06/05/2014	21:00:07.962	$GPGGA,210008,2422.7309,N,08122.3876,W,1,11,1.4,12,M,,M,,*65
06/05/2014	21:00:08.862	$GPGGA,210009,2422.7305,N,08122.3874,W,1,11,1.4,12,M,,M,,*6A
06/05/2014	21:00:09.975	$GPGGA,210010,2422.7298,N,08122.3874,W,1,11,1.4,12,M,,M,,*67
06/05/2014	21:00:10.986	$GPGGA,210011,2422.7294,N,08122.3876,W,1,11,1.4,12,M,,M,,*68
06/05/2014	21:00:11.997	$GPGGA,210012,2422.7289,N,08122.3875,W,1,11,1.4,12,M,,M,,*64
06/05/2014	21:00:13.029	$GPGGA,210013,2422.7283,N,08122.3872,W,1,11,1.4,12,M,,M,,*68
06/05/2014	21:00:14.010	$GPGGA,210014,2422.7278,N,08122.3873,W,1,11,1.4,12,M,,M,,*6A
06/05/2014	21:00:15.022	$GPGGA,210015,2422.7273,N,08122.3872,W,1,11,1.4,12,M,,M,,*61
06/05/2014	21:00:16.023	$GPGGA,210016,2422.7269,N,08122.3871,W,1,11,1.4,12,M,,M,,*6A
06/05/2014	21:00:17.065	$GPGGA,210017,2422.7263,N,08122.3870,W,1,11,1.4,12,M,,M,,*60
06/05/2014	21:00:18.046	$GPGGA,210018,2422.7258,N,08122.3870,W,1,11,1.4,12,M,,M,,*67
06/05/2014	21:00:19.058	$GPGGA,210019,2422.7253,N,08122.3870,W,1,11,1.4,12,M,,M,,*6D
06/05/2014	21:00:20.080	$GPGGA,210020,2422.7248,N,08122.3869,W,1,11,1.4,12,M,,M,,*65
06/05/2014	21:00:21.061	$GPGGA,210021,2422.7243,N,08122.3868,W,1,11,1.4,12,M,,M,,*6E
06/05/2014	21:00:22.083	$GPGGA,210022,2422.7238,N,08122.3869,W,1,11,1.4,12,M,,M,,*60
06/05/2014	21:00:23.084	$GPGGA,210023,2422.7233,N,08122.3868,W,1,11,1.4,13,M,,M,,*6A
06/05/2014	21:00:24.116	$GPGGA,210024,2422.7229,N,08122.3867,W,1,11,1.4,13,M,,M,,*69
06/05/2014	21:00:25.118	$GPGGA,210025,2422.7223,N,08122.3865,W,1,11,1.4,13,M,,M,,*60
06/05/2014	21:00:26.119	$GPGGA,210026,2422.7218,N,08122.3866,W,1,11,1.4,13,M,,M,,*68
06/05/2014	21:00:27.120	$GPGGA,210027,2422.7213,N,08122.3865,W,1,11,1.4,13,M,,M,,*61
06/05/2014	21:00:28.152	$GPGGA,210028,2422.7208,N,08122.3866,W,1,11,1.4,13,M,,M,,*67
06/05/2014	21:00:29.179	$GPGGA,210029,2422.7204,N,08122.3863,W,1,11,1.4,13,M,,M,,*6F
06/05/2014	21:00:30.144	$GPGGA,210030,2422.7199,N,08122.3863,W,1,11,1.4,13,M,,M,,*60
06/05/2014	21:00:31.196	$GPGGA,210031,2422.7194,N,08122.3865,W,1,11,1.4,13,M,,M,,*6A
06/05/2014	21:00:32.188	$GPGGA,210032,2422.7189,N,08122.3863,W,1,11,1.4,13,M,,M,,*63
06/05/2014	21:00:33.209	$GPGGA,210033,2422.7184,N,08122.3860,W,1,11,1.4,13,M,,M,,*6C
06/05/2014	21:00:34.191	$GPGGA,210034,2422.7179,N,08122.3859,W,1,11,1.4,13,M,,M,,*63
06/05/2014	21:00:35.202	$GPGGA,210035,2422.7175,N,08122.3862,W,1,11,1.4,13,M,,M,,*66
06/05/2014	21:00:35.550	$GPGGA,210036,2422.7169,N,08122.3860,W,1,11,1.4,13,M,,M,,*6A
06/05/2014	21:00:36.562	$GPGGA,210037,2422.7164,N,08122.3857,W,1,11,1.4,13,M,,M,,*62
06/05/2014	21:00:37.533	$GPGGA,210038,2422.7159,N,08122.3858,W,1,11,1.4,13,M,,M,,*6C
06/05/2014	21:00:38.555	$GPGGA,210039,2422.7154,N,08122.3858,W,1,11,1.4,13,M,,M,,*60
06/05/2014	21:00:39.566	$GPGGA,210040,2422.7150,N,08122.3856,W,1,11,1.4,13,M,,M,,*64
06/05/2014	21:00:40.608	$GPGGA,210041,2422.7144,N,08122.3856,W,1,11,1.4,13,M,,M,,*60
06/05/2014	21:00:41.579	$GPGGA,210042,2422.7139,N,08122.3855,W,1,11,1.4,13,M,,M,,*6A
06/05/2014	21:00:42.621	$GPGGA,210043,2422.7135,N,08122.3854,W,1,11,1.4,13,M,,M,,*66
06/05/2014	21:00:43.613	$GPGGA,210044,2422.7129,N,08122.3853,W,1,11,1.4,13,M,,M,,*6B
06/05/2014	21:00:44.624	$GPGGA,210045,2422.7125,N,08122.3853,W,1,11,1.4,13,M,,M,,*66
06/05/2014	21:00:45.605	$GPGGA,210046,2422.7119,N,08122.3853,W,1,11,1.4,13,M,,M,,*6A
06/05/2014	21:00:46.616	$GPGGA,210047,2422.7114,N,08122.3851,W,1,11,1.4,13,M,,M,,*64
06/05/2014	21:00:47.638	$GPGGA,210048,2422.7110,N,08122.3850,W,1,11,1.4,13,M,,M,,*6E
06/05/2014	21:00:48.750	$GPGGA,210049,2422.7104,N,08122.3851,W,1,11,1.4,13,M,,M,,*6B
06/05/2014	21:00:49.651	$GPGGA,210050,2422.7099,N,08122.3850,W,1,11,1.4,13,M,,M,,*67
06/05/2014	21:00:50.662	$GPGGA,210051,2422.7094,N,08122.3849,W,1,11,1.4,13,M,,M,,*63
06/05/2014	21:00:51.775	$GPGGA,210052,2422.7090,N,08122.3847,W,1,11,1.4,13,M,,M,,*6A
06/05/2014	21:00:52.696	$GPGGA,210053,2422.7085,N,08122.3848,W,1,11,1.4,13,M,,M,,*60
06/05/2014	21:00:53.798	$GPGGA,210054,2422.7081,N,08122.3847,W,1,11,1.4,13,M,,M,,*6C
06/05/2014	21:00:54.800	$GPGGA,210055,2422.7075,N,08122.3845,W,1,11,1.4,13,M,,M,,*64
06/05/2014	21:00:55.822	$GPGGA,210056,2422.7070,N,08122.3845,W,1,11,1.4,13,M,,M,,*62
06/05/2014	21:00:56.813	$GPGGA,210057,2422.7065,N,08122.3844,W,1,11,1.4,13,M,,M,,*66
06/05/2014	21:00:57.835	$GPGGA,210058,2422.7060,N,08122.3843,W,1,11,1.4,13,M,,M,,*6B
06/05/2014	21:00:58.866	$GPGGA,210059,2422.7056,N,08122.3844,W,1,11,1.4,13,M,,M,,*68
06/05/2014	21:00:59.868	$GPGGA,210100,2422.7050,N,08122.3842,W,1,11,1.4,13,M,,M,,*65
06/05/2014	21:01:00.859	$GPGGA,210101,2422.7045,N,08122.3840,W,1,11,1.4,13,M,,M,,*62
06/05/2014	21:01:01.862	$GPGGA,210102,2422.7040,N,08122.3841,W,1,11,1.4,13,M,,M,,*65
06/05/2014	21:01:02.903	$GPGGA,210103,2422.7035,N,08122.3840,W,1,11,1.4,13,M,,M,,*67
06/05/2014	21:01:03.893	$GPGGA,210104,2422.7030,N,08122.3839,W,1,11,1.4,13,M,,M,,*6B
06/05/2014	21:01:04.915	$GPGGA,210105,2422.7025,N,08122.3840,W,1,11,1.4,13,M,,M,,*60
06/05/2014	21:01:05.896	$GPGGA,210106,2422.7020,N,08122.3838,W,1,11,1.4,13,M,,M,,*69
06/05/2014	21:01:06.928	$GPGGA,210107,2422.7016,N,08122.3840,W,1,11,1.4,13,M,,M,,*62
06/05/2014	21:01:07.940	$GPGGA,210108,2422.7011,N,08122.3838,W,1,11,1.4,13,M,,M,,*65
06/05/2014	21:01:08.921	$GPGGA,210109,2422.7005,N,08122.3836,W,1,10,1.5,13,M,,M,,*6F
06/05/2014	21:01:09.942	$GPGGA,210110,2422.6999,N,08122.3835,W,1,10,1.4,13,M,,M,,*68
06/05/2014	21:01:10.974	$GPGGA,210111,2422.6994,N,08122.3834,W,1,11,1.4,13,M,,M,,*64
06/05/2014	21:01:11.976	$GPGGA,210112,2422.6989,N,08122.3833,W,1,11,1.4,13,M,,M,,*6C
06/05/2014	21:01:12.957	$GPGGA,210113,2422.6983,N,08122.3832,W,1,11,1.4,13,M,,M,,*66
06/05/2014	21:01:13.989	$GPGGA,210114,2422.6978,N,08122.3831,W,1,11,1.4,13,M,,M,,*66
06/05/2014	21:01:15.012	$GPGGA,210115,2422.6973,N,08122.3833,W,1,11,1.4,13,M,,M,,*6E
06/05/2014	21:01:16.012	$GPGGA,210116,2422.6969,N,08122.3831,W,1,11,1.6,13,M,,M,,*66
06/05/2014	21:01:17.035	$GPGGA,210117,2422.6962,N,08122.3831,W,1,11,1.4,13,M,,M,,*6E
06/05/2014	21:01:18.026	$GPGGA,210118,2422.6958,N,08122.3833,W,1,11,1.4,13,M,,M,,*6A
06/05/2014	21:01:19.047	$GPGGA,210119,2422.6952,N,08122.3833,W,1,11,1.4,13,M,,M,,*61
06/05/2014	21:01:20.038	$GPGGA,210120,2422.6947,N,08122.3832,W,1,11,1.4,13,M,,M,,*6E
06/05/2014	21:01:21.081	$GPGGA,210121,2422.6942,N,08122.3833,W,1,11,1.4,13,M,,M,,*6B
06/05/2014	21:01:22.050	$GPGGA,210122,2422.6937,N,08122.3833,W,1,11,1.4,13,M,,M,,*6A
06/05/2014	21:01:23.102	$GPGGA,210123,2422.6933,N,08122.3833,W,1,11,1.4,13,M,,M,,*6F
06/05/2014	21:01:24.094	$GPGGA,210124,2422.6927,N,08122.3833,W,1,11,1.4,13,M,,M,,*6D
06/05/2014	21:01:25.134	$GPGGA,210125,2422.6922,N,08122.3831,W,1,11,1.4,13,M,,M,,*6B
06/05/2014	21:01:26.088	$GPGGA,210126,2422.6917,N,08122.3831,W,1,11,1.4,14,M,,M,,*69
06/05/2014	21:01:27.118	$GPGGA,210127,2422.6913,N,08122.3833,W,1,11,1.4,14,M,,M,,*6E
06/05/2014	21:01:28.130	$GPGGA,210128,2422.6908,N,08122.3831,W,1,11,1.4,14,M,,M,,*69
06/05/2014	21:01:29.132	$GPGGA,210129,2422.6904,N,08122.3830,W,1,11,1.4,14,M,,M,,*65
06/05/2014	21:01:30.244	$GPGGA,210130,2422.6898,N,08122.3830,W,1,11,1.4,14,M,,M,,*69
06/05/2014	21:01:31.276	$GPGGA,210131,2422.6893,N,08122.3831,W,1,11,1.4,14,M,,M,,*62
06/05/2014	21:01:32.187	$GPGGA,210132,2422.6888,N,08122.3829,W,1,11,1.4,14,M,,M,,*62
06/05/2014	21:01:33.279	$GPGGA,210133,2422.6884,N,08122.3829,W,1,11,1.4,14,M,,M,,*6F
06/05/2014	21:01:34.179	$GPGGA,210134,2422.6879,N,08122.3830,W,1,11,1.4,14,M,,M,,*62
06/05/2014	21:01:35.302	$GPGGA,210135,2422.6875,N,08122.3830,W,1,11,1.4,14,M,,M,,*6F
06/05/2014	21:01:35.519	$GPGGA,210136,2422.6869,N,08122.3828,W,1,11,1.4,14,M,,M,,*68
06/05/2014	21:01:36.500	$GPGGA,210137,2422.6864,N,08122.3827,W,1,11,1.4,14,M,,M,,*6B
06/05/2014	21:01:37.634	$GPGGA,210138,2422.6859,N,08122.3829,W,1,11,1.4,14,M,,M,,*64
06/05/2014	21:01:38.665	$GPGGA,210139,2422.6855,N,08122.3829,W,1,11,1.4,14,M,,M,,*69
06/05/2014	21:01:39.645	$GPGGA,210140,2422.6850,N,08122.3827,W,1,11,1.4,14,M,,M,,*6C
06/05/2014	21:01:40.556	$GPGGA,210141,2422.6846,N,08122.3826,W,1,11,1.4,14,M,,M,,*6B
06/05/2014	21:01:41.648	$GPGGA,210142,2422.6840,N,08122.3826,W,1,11,1.4,14,M,,M,,*6E
06/05/2014	21:01:42.680	$GPGGA,210143,2422.6835,N,08122.3827,W,1,11,1.4,14,M,,M,,*6C
06/05/2014	21:01:43.681	$GPGGA,210144,2422.6832,N,08122.3827,W,1,11,1.4,14,M,,M,,*6C
06/05/2014	21:01:44.713	$GPGGA,210145,2422.6826,N,08122.3826,W,1,11,1.4,14,M,,M,,*69
06/05/2014	21:01:45.593	$GPGGA,210146,2422.6821,N,08122.3825,W,1,11,1.4,14,M,,M,,*6E
06/05/2014	21:01:46.706	$GPGGA,210147,2422.6816,N,08122.3826,W,1,10,1.4,15,M,,M,,*68
06/05/2014	21:01:47.728	$GPGGA,210148,2422.6812,N,08122.3825,W,1,10,1.4,15,M,,M,,*60
06/05/2014	21:01:48.749	$GPGGA,210149,2422.6807,N,08122.3824,W,1,10,1.4,15,M,,M,,*64
06/05/2014	21:01:49.737	$GPGGA,210150,2422.6803,N,08122.3824,W,1,10,1.2,15,M,,M,,*6E
06/05/2014	21:01:50.762	$GPGGA,210151,2422.6799,N,08122.3824,W,1,11,1.2,15,M,,M,,*62
06/05/2014	21:01:51.748	$GPGGA,210152,2422.6796,N,08122.3824,W,1,11,1.2,15,M,,M,,*6E
06/05/2014	21:01:52.754	$GPGGA,210153,2422.6792,N,08122.3824,W,1,11,1.2,15,M,,M,,*6B
06/05/2014	21:01:53.740	$GPGGA,210154,2422.6787,N,08122.3824,W,1,11,1.2,15,M,,M,,*68
06/05/2014	21:01:54.755	$GPGGA,210155,2422.6783,N,08122.3824,W,1,11,1.2,15,M,,M,,*6D
06/05/2014	21:01:55.760	$GPGGA,210156,2422.6779,N,08122.3824,W,1,11,1.2,15,M,,M,,*6B
06/05/2014	21:01:56.776	$GPGGA,210157,2422.6774,N,08122.3823,W,1,11,1.2,15,M,,M,,*60
06/05/2014	21:01:57.742	$GPGGA,210158,2422.6770,N,08122.3823,W,1,11,1.2,15,M,,M,,*6B
06/05/2014	21:01:58.758	$GPGGA,210159,2422.6767,N,08122.3823,W,1,11,1.2,15,M,,M,,*6C
06/05/2014	21:01:59.794	$GPGGA,210200,2422.6761,N,08122.3822,W,1,11,1.2,15,M,,M,,*64
06/05/2014	21:02:00.789	$GPGGA,210201,2422.6756,N,08122.3822,W,1,11,1.2,16,M,,M,,*62
06/05/2014	21:02:01.775	$GPGGA,210202,2422.6752,N,08122.3823,W,1,11,1.2,16,M,,M,,*64
06/05/2014	21:02:02.821	$GPGGA,210203,2422.6747,N,08122.3822,W,1,11,1.2,16,M,,M,,*60
06/05/2014	21:02:03.797	$GPGGA,210204,2422.6742,N,08122.3821,W,1,11,1.2,16,M,,M,,*61
06/05/2014	21:02:04.802	$GPGGA,210205,2422.6738,N,08122.3822,W,1,11,1.2,16,M,,M,,*6E
06/05/2014	21:02:05.798	$GPGGA,210206,2422.6734,N,08122.3821,W,1,11,1.2,16,M,,M,,*62
06/05/2014	21:02:06.824	$GPGGA,210207,2422.6728,N,08122.3820,W,1,11,1.2,16,M,,M,,*6F
06/05/2014	21:02:07.810	$GPGGA,210208,2422.6723,N,08122.3819,W,1,11,1.2,16,M,,M,,*61
06/05/2014	21:02:08.826	$GPGGA,210209,2422.6718,N,08122.3819,W,1,11,1.2,16,M,,M,,*68
06/05/2014	21:02:09.821	$GPGGA,210210,2422.6713,N,08122.3818,W,1,11,1.2,16,M,,M,,*6A
06/05/2014	21:02:10.918	$GPGGA,210211,2422.6709,N,08122.3819,W,1,11,1.2,16,M,,M,,*61
06/05/2014	21:02:11.823	$GPGGA,210212,2422.6703,N,08122.3818,W,1,11,1.2,16,M,,M,,*69
06/05/2014	21:02:12.830	$GPGGA,210213,2422.6698,N,08122.3819,W,1,11,1.2,16,M,,M,,*6A
06/05/2014	21:02:13.823	$GPGGA,210214,2422.6693,N,08122.3817,W,1,11,1.2,17,M,,M,,*69
06/05/2014	21:02:14.829	$GPGGA,210215,2422.6687,N,08122.3818,W,1,11,1.4,17,M,,M,,*64
06/05/2014	21:02:15.855	$GPGGA,210216,2422.6684,N,08122.3817,W,1,11,1.2,17,M,,M,,*6D
06/05/2014	21:02:16.931	$GPGGA,210217,2422.6678,N,08122.3818,W,1,11,1.2,17,M,,M,,*60
06/05/2014	21:02:17.827	$GPGGA,210218,2422.6673,N,08122.3816,W,1,11,1.2,17,M,,M,,*6A
06/05/2014	21:02:18.862	$GPGGA,210219,2422.6669,N,08122.3819,W,1,11,1.2,17,M,,M,,*6F
06/05/2014	21:02:19.939	$GPGGA,210220,2422.6663,N,08122.3817,W,1,11,1.2,17,M,,M,,*61
06/05/2014	21:02:20.854	$GPGGA,210221,2422.6658,N,08122.3816,W,1,11,1.2,17,M,,M,,*69
06/05/2014	21:02:21.850	$GPGGA,210222,2422.6655,N,08122.3816,W,1,11,1.2,17,M,,M,,*67
06/05/2014	21:02:22.966	$GPGGA,210223,2422.6649,N,08122.3818,W,1,11,1.4,17,M,,M,,*63
06/05/2014	21:02:23.891	$GPGGA,210224,2422.6644,N,08122.3816,W,1,11,1.4,17,M,,M,,*67
06/05/2014	21:02:24.958	$GPGGA,210225,2422.6637,N,08122.3814,W,1,10,1.4,17,M,,M,,*61
06/05/2014	21:02:25.863	$GPGGA,210226,2422.6633,N,08122.3815,W,1,10,1.2,17,M,,M,,*61
06/05/2014	21:02:26.959	$GPGGA,210227,2422.6628,N,08122.3815,W,1,11,1.2,17,M,,M,,*6B
06/05/2014	21:02:27.965	$GPGGA,210228,2422.6622,N,08122.3814,W,1,11,1.2,17,M,,M,,*6F
06/05/2014	21:02:28.890	$GPGGA,210229,2422.6617,N,08122.3813,W,1,10,1.4,17,M,,M,,*68
06/05/2014	21:02:29.977	$GPGGA,210230,2422.6613,N,08122.3813,W,1,10,1.4,17,M,,M,,*64
06/05/2014	21:02:30.981	$GPGGA,210231,2422.6608,N,08122.3813,W,1,11,1.2,17,M,,M,,*68
06/05/2014	21:02:31.987	$GPGGA,210232,2422.6605,N,08122.3815,W,1,11,1.2,17,M,,M,,*60
06/05/2014	21:02:33.013	$GPGGA,210233,2422.6600,N,08122.3815,W,1,11,1.2,17,M,,M,,*64
06/05/2014	21:02:33.989	$GPGGA,210234,2422.6595,N,08122.3813,W,1,11,1.2,17,M,,M,,*6A
06/05/2014	21:02:34.995	$GPGGA,210235,2422.6590,N,08122.3813,W,1,11,1.4,17,M,,M,,*68
06/05/2014	21:02:35.583	$GPGGA,210236,2422.6584,N,08122.3813,W,1,11,1.4,17,M,,M,,*6E
06/05/2014	21:02:36.579	$GPGGA,210237,2422.6580,N,08122.3813,W,1,10,1.4,17,M,,M,,*6A
06/05/2014	21:02:37.574	$GPGGA,210238,2422.6574,N,08122.3811,W,1,10,1.4,17,M,,M,,*6C
06/05/2014	21:02:38.590	$GPGGA,210239,2422.6569,N,08122.3811,W,1,11,1.2,17,M,,M,,*66
06/05/2014	21:02:39.596	$GPGGA,210240,2422.6564,N,08122.3811,W,1,11,1.2,17,M,,M,,*65
06/05/2014	21:02:40.602	$GPGGA,210241,2422.6561,N,08122.3813,W,1,10,1.2,17,M,,M,,*62
06/05/2014	21:02:41.589	$GPGGA,210242,2422.6558,N,08122.3812,W,1,10,1.2,17,M,,M,,*6A
06/05/2014	21:02:42.614	$GPGGA,210243,2422.6552,N,08122.3812,W,1,11,1.2,17,M,,M,,*60
06/05/2014	21:02:43.609	$GPGGA,210244,2422.6547,N,08122.3812,W,1,11,1.4,17,M,,M,,*65
06/05/2014	21:02:44.595	$GPGGA,210245,2422.6540,N,08122.3811,W,1,10,1.4,17,M,,M,,*61
06/05/2014	21:02:45.601	$GPGGA,210246,2422.6537,N,08122.3811,W,1,10,1.4,17,M,,M,,*62
06/05/2014	21:02:46.627	$GPGGA,210247,2422.6532,N,08122.3810,W,1,11,1.2,17,M,,M,,*60
06/05/2014	21:02:47.617	$GPGGA,210248,2422.6526,N,08122.3811,W,1,11,1.4,17,M,,M,,*6D
06/05/2014	21:02:48.647	$GPGGA,210249,2422.6521,N,08122.3809,W,1,10,1.4,17,M,,M,,*63
06/05/2014	21:02:49.613	$GPGGA,210250,2422.6514,N,08122.3808,W,1,10,1.2,17,M,,M,,*6A
06/05/2014	21:02:50.629	$GPGGA,210251,2422.6508,N,08122.3807,W,1,11,1.2,17,M,,M,,*68
06/05/2014	21:02:51.635	$GPGGA,210252,2422.6503,N,08122.3806,W,1,11,1.4,17,M,,M,,*67
06/05/2014	21:02:52.650	$GPGGA,210253,2422.6496,N,08122.3805,W,1,9,1.5,16,M,,M,,*51
06/05/2014	21:02:53.626	$GPGGA,210254,2422.6492,N,08122.3804,W,1,9,1.4,16,M,,M,,*52
06/05/2014	21:02:54.672	$GPGGA,210255,2422.6488,N,08122.3806,W,1,11,1.2,16,M,,M,,*65
06/05/2014	21:02:55.658	$GPGGA,210256,2422.6481,N,08122.3805,W,1,11,1.2,16,M,,M,,*6C
06/05/2014	21:02:56.664	$GPGGA,210257,2422.6478,N,08122.3804,W,1,10,1.4,16,M,,M,,*6D
06/05/2014	21:02:57.649	$GPGGA,210258,2422.6472,N,08122.3803,W,1,10,1.2,16,M,,M,,*69
06/05/2014	21:02:58.645	$GPGGA,210259,2422.6467,N,08122.3804,W,1,11,1.2,16,M,,M,,*6A
06/05/2014	21:02:59.671	$GPGGA,210300,2422.6461,N,08122.3803,W,1,11,1.4,16,M,,M,,*60
06/05/2014	21:03:00.647	$GPGGA,210301,2422.6456,N,08122.3801,W,1,11,1.2,16,M,,M,,*61
06/05/2014	21:03:01.672	$GPGGA,210302,2422.6451,N,08122.3801,W,1,11,1.2,17,M,,M,,*64
06/05/2014	21:03:02.678	$GPGGA,210303,2422.6447,N,08122.3802,W,1,11,1.2,17,M,,M,,*61
06/05/2014	21:03:03.694	$GPGGA,210304,2422.6442,N,08122.3801,W,1,11,1.2,17,M,,M,,*60
06/05/2014	21:03:04.671	$GPGGA,210305,2422.6438,N,08122.3800,W,1,11,1.2,17,M,,M,,*6D
06/05/2014	21:03:05.665	$GPGGA,210306,2422.6432,N,08122.3801,W,1,11,1.2,17,M,,M,,*65
06/05/2014	21:03:06.771	$GPGGA,210307,2422.6427,N,08122.3800,W,1,10,1.4,17,M,,M,,*66
06/05/2014	21:03:07.696	$GPGGA,210308,2422.6422,N,08122.3798,W,1,10,1.2,17,M,,M,,*64
06/05/2014	21:03:08.702	$GPGGA,210309,2422.6416,N,08122.3797,W,1,10,1.4,17,M,,M,,*6B
06/05/2014	21:03:09.688	$GPGGA,210310,2422.6411,N,08122.3797,W,1,10,1.2,17,M,,M,,*62
06/05/2014	21:03:10.704	$GPGGA,210311,2422.6406,N,08122.3797,W,1,10,1.4,17,M,,M,,*63
06/05/2014	21:03:11.830	$GPGGA,210312,2422.6402,N,08122.3795,W,1,10,1.4,17,M,,M,,*66
06/05/2014	21:03:12.846	$GPGGA,210313,2422.6398,N,08122.3795,W,1,10,1.4,17,M,,M,,*63
06/05/2014	21:03:13.801	$GPGGA,210314,2422.6395,N,08122.3797,W,1,10,1.2,17,M,,M,,*6D
06/05/2014	21:03:14.847	$GPGGA,210315,2422.6389,N,08122.3796,W,1,11,1.2,17,M,,M,,*61
06/05/2014	21:03:15.843	$GPGGA,210316,2422.6384,N,08122.3794,W,1,11,1.2,17,M,,M,,*6D
06/05/2014	21:03:16.829	$GPGGA,210317,2422.6378,N,08122.3794,W,1,10,1.4,17,M,,M,,*68
06/05/2014	21:03:17.734	$GPGGA,210318,2422.6373,N,08122.3793,W,1,10,1.2,17,M,,M,,*6D
06/05/2014	21:03:18.851	$GPGGA,210319,2422.6367,N,08122.3792,W,1,10,1.4,17,M,,M,,*6E
06/05/2014	21:03:19.836	$GPGGA,210320,2422.6363,N,08122.3793,W,1,10,1.2,17,M,,M,,*67
06/05/2014	21:03:20.852	$GPGGA,210321,2422.6359,N,08122.3793,W,1,11,1.2,17,M,,M,,*6E
06/05/2014	21:03:21.828	$GPGGA,210322,2422.6355,N,08122.3793,W,1,11,1.2,17,M,,M,,*61
06/05/2014	21:03:22.865	$GPGGA,210323,2422.6350,N,08122.3792,W,1,11,1.2,17,M,,M,,*64
06/05/2014	21:03:23.848	$GPGGA,210324,2422.6344,N,08122.3793,W,1,11,1.4,17,M,,M,,*61
06/05/2014	21:03:24.864	$GPGGA,210325,2422.6340,N,08122.3793,W,1,11,1.2,17,M,,M,,*62
06/05/2014	21:03:25.860	$GPGGA,210326,2422.6335,N,08122.3791,W,1,11,1.2,17,M,,M,,*61
06/05/2014	21:03:26.876	$GPGGA,210327,2422.6333,N,08122.3793,W,1,10,1.4,17,M,,M,,*63
06/05/2014	21:03:27.872	$GPGGA,210328,2422.6326,N,08122.3791,W,1,10,1.2,17,M,,M,,*6C
06/05/2014	21:03:28.877	$GPGGA,210329,2422.6321,N,08122.3791,W,1,10,1.4,17,M,,M,,*6C
06/05/2014	21:03:29.873	$GPGGA,210330,2422.6316,N,08122.3791,W,1,10,1.2,17,M,,M,,*66
06/05/2014	21:03:30.889	$GPGGA,210331,2422.6311,N,08122.3791,W,1,11,1.2,17,M,,M,,*61
06/05/2014	21:03:31.885	$GPGGA,210332,2422.6305,N,08122.3790,W,1,11,1.4,17,M,,M,,*60
06/05/2014	21:03:32.890	$GPGGA,210333,2422.6301,N,08122.3788,W,1,10,1.4,17,M,,M,,*6D
06/05/2014	21:03:33.886	$GPGGA,210334,2422.6295,N,08122.3788,W,1,10,1.4,17,M,,M,,*66
06/05/2014	21:03:34.872	$GPGGA,210335,2422.6290,N,08122.3790,W,1,10,1.4,17,M,,M,,*6B
06/05/2014	21:03:35.562	$GPGGA,210336,2422.6288,N,08122.3789,W,1,10,1.4,17,M,,M,,*69
06/05/2014	21:03:36.538	$GPGGA,210337,2422.6283,N,08122.3788,W,1,11,1.2,17,M,,M,,*65
06/05/2014	21:03:37.553	$GPGGA,210338,2422.6279,N,08122.3787,W,1,11,1.2,17,M,,M,,*60
06/05/2014	21:03:38.579	$GPGGA,210339,2422.6273,N,08122.3787,W,1,11,1.2,17,M,,M,,*6B
06/05/2014	21:03:39.575	$GPGGA,210340,2422.6268,N,08122.3786,W,1,11,1.4,17,M,,M,,*68
06/05/2014	21:03:40.590	$GPGGA,210341,2422.6262,N,08122.3784,W,1,10,1.4,17,M,,M,,*60
06/05/2014	21:03:41.566	$GPGGA,210342,2422.6257,N,08122.3784,W,1,10,1.4,17,M,,M,,*65
06/05/2014	21:03:42.571	$GPGGA,210343,2422.6251,N,08122.3783,W,1,10,1.4,17,M,,M,,*65
06/05/2014	21:03:43.577	$GPGGA,210344,2422.6246,N,08122.3782,W,1,10,1.4,17,M,,M,,*65
06/05/2014	21:03:44.593	$GPGGA,210345,2422.6243,N,08122.3783,W,1,10,1.4,17,M,,M,,*60
06/05/2014	21:03:45.589	$GPGGA,210346,2422.6237,N,08122.3782,W,1,10,1.2,17,M,,M,,*67
06/05/2014	21:03:46.584	$GPGGA,210347,2422.6232,N,08122.3781,W,1,10,1.4,17,M,,M,,*66
06/05/2014	21:03:47.600	$GPGGA,210348,2422.6227,N,08122.3782,W,1,10,1.4,17,M,,M,,*6E
06/05/2014	21:03:48.606	$GPGGA,210349,2422.6222,N,08122.3780,W,1,9,1.5,17,M,,M,,*51
06/05/2014	21:03:49.602	$GPGGA,210350,2422.6216,N,08122.3779,W,1,9,1.4,17,M,,M,,*59
06/05/2014	21:03:50.608	$GPGGA,210351,2422.6211,N,08122.3778,W,1,10,1.4,16,M,,M,,*67
06/05/2014	21:03:51.624	$GPGGA,210352,2422.6207,N,08122.3777,W,1,10,1.4,16,M,,M,,*6C
06/05/2014	21:03:52.609	$GPGGA,210353,2422.6200,N,08122.3777,W,1,10,1.4,16,M,,M,,*6A
06/05/2014	21:03:53.615	$GPGGA,210354,2422.6196,N,08122.3776,W,1,10,1.4,16,M,,M,,*60
06/05/2014	21:03:54.621	$GPGGA,210355,2422.6190,N,08122.3774,W,1,10,1.4,16,M,,M,,*65
06/05/2014	21:03:55.637	$GPGGA,210356,2422.6185,N,08122.3775,W,1,10,1.4,16,M,,M,,*63
06/05/2014	21:03:56.613	$GPGGA,210357,2422.6180,N,08122.3774,W,1,10,1.4,16,M,,M,,*66
06/05/2014	21:03:57.628	$GPGGA,210358,2422.6175,N,08122.3775,W,1,10,1.4,16,M,,M,,*62
06/05/2014	21:03:58.744	$GPGGA,210359,2422.6171,N,08122.3773,W,1,10,1.4,16,M,,M,,*61
06/05/2014	21:03:59.659	$GPGGA,210400,2422.6164,N,08122.3772,W,1,10,1.4,16,M,,M,,*6F
06/05/2014	21:04:00.634	$GPGGA,210401,2422.6160,N,08122.3773,W,1,10,1.4,16,M,,M,,*6B
06/05/2014	21:04:01.731	$GPGGA,210402,2422.6156,N,08122.3773,W,1,10,1.4,16,M,,M,,*6D
06/05/2014	21:04:02.777	$GPGGA,210403,2422.6153,N,08122.3775,W,1,10,1.4,16,M,,M,,*6F
06/05/2014	21:04:03.783	$GPGGA,210404,2422.6147,N,08122.3774,W,1,10,1.2,16,M,,M,,*6A
06/05/2014	21:04:04.778	$GPGGA,210405,2422.6142,N,08122.3775,W,1,10,1.3,16,M,,M,,*6E
06/05/2014	21:04:05.663	$GPGGA,210406,2422.6138,N,08122.3775,W,1,10,1.3,16,M,,M,,*60
06/05/2014	21:04:06.770	$GPGGA,210407,2422.6132,N,08122.3774,W,1,10,1.3,16,M,,M,,*6A
06/05/2014	21:04:07.776	$GPGGA,210408,2422.6126,N,08122.3772,W,1,10,1.3,16,M,,M,,*66
06/05/2014	21:04:08.792	$GPGGA,210409,2422.6121,N,08122.3772,W,1,10,1.3,16,M,,M,,*60
06/05/2014	21:04:09.677	$GPGGA,210410,2422.6116,N,08122.3773,W,1,10,1.3,16,M,,M,,*6D
06/05/2014	21:04:10.803	$GPGGA,210411,2422.6111,N,08122.3773,W,1,10,1.3,16,M,,M,,*6B
06/05/2014	21:04:11.789	$GPGGA,210412,2422.6105,N,08122.3771,W,1,10,1.3,16,M,,M,,*6F
06/05/2014	21:04:12.795	$GPGGA,210413,2422.6103,N,08122.3772,W,1,10,1.3,16,M,,M,,*6B
06/05/2014	21:04:13.790	$GPGGA,210414,2422.6098,N,08122.3775,W,1,10,1.2,16,M,,M,,*69
06/05/2014	21:04:14.816	$GPGGA,210415,2422.6093,N,08122.3774,W,1,11,1.2,16,M,,M,,*63
06/05/2014	21:04:15.801	$GPGGA,210416,2422.6087,N,08122.3772,W,1,11,1.3,16,M,,M,,*62
06/05/2014	21:04:16.817	$GPGGA,210417,2422.6082,N,08122.3772,W,1,10,1.3,16,M,,M,,*67
06/05/2014	21:04:17.802	$GPGGA,210418,2422.6077,N,08122.3771,W,1,10,1.3,16,M,,M,,*61
06/05/2014	21:04:18.818	$GPGGA,210419,2422.6073,N,08122.3772,W,1,11,1.2,16,M,,M,,*67
06/05/2014	21:04:19.824	$GPGGA,210420,2422.6067,N,08122.3772,W,1,11,1.2,16,M,,M,,*68
06/05/2014	21:04:20.810	$GPGGA,210421,2422.6062,N,08122.3770,W,1,10,1.3,16,M,,M,,*6E
06/05/2014	21:04:21.806	$GPGGA,210422,2422.6057,N,08122.3769,W,1,10,1.3,16,M,,M,,*63
06/05/2014	21:04:22.852	$GPGGA,210423,2422.6053,N,08122.3772,W,1,10,1.3,16,M,,M,,*6C
06/05/2014	21:04:23.827	$GPGGA,210424,2422.6050,N,08122.3773,W,1,10,1.2,16,M,,M,,*68
06/05/2014	21:04:24.838	$GPGGA,210425,2422.6045,N,08122.3771,W,1,11,1.2,16,M,,M,,*6E
06/05/2014	21:04:25.829	$GPGGA,210426,2422.6040,N,08122.3772,W,1,11,1.2,16,M,,M,,*6B
06/05/2014	21:04:26.824	$GPGGA,210427,2422.6035,N,08122.3771,W,1,10,1.3,16,M,,M,,*6B
06/05/2014	21:04:27.850	$GPGGA,210428,2422.6030,N,08122.3770,W,1,10,1.3,16,M,,M,,*60
06/05/2014	21:04:28.846	$GPGGA,210429,2422.6027,N,08122.3772,W,1,10,1.3,16,M,,M,,*65
06/05/2014	21:04:29.832	$GPGGA,210430,2422.6023,N,08122.3773,W,1,10,1.2,16,M,,M,,*69
06/05/2014	21:04:30.878	$GPGGA,210431,2422.6019,N,08122.3771,W,1,11,1.2,16,M,,M,,*62
06/05/2014	21:04:31.853	$GPGGA,210432,2422.6013,N,08122.3769,W,1,11,1.2,16,M,,M,,*62
06/05/2014	21:04:32.880	$GPGGA,210433,2422.6008,N,08122.3770,W,1,10,1.3,16,M,,M,,*61
06/05/2014	21:04:33.854	$GPGGA,210434,2422.6003,N,08122.3772,W,1,10,1.3,16,M,,M,,*6F
06/05/2014	21:04:34.870	$GPGGA,210435,2422.5998,N,08122.3768,W,1,10,1.3,16,M,,M,,*6D
06/05/2014	21:04:35.530	$GPGGA,210436,2422.5994,N,08122.3768,W,1,10,1.2,16,M,,M,,*63
06/05/2014	21:04:36.525	$GPGGA,210437,2422.5990,N,08122.3770,W,1,11,1.2,16,M,,M,,*6E
06/05/2014	21:04:37.531	$GPGGA,210438,2422.5985,N,08122.3770,W,1,11,1.2,16,M,,M,,*65
06/05/2014	21:04:38.557	$GPGGA,210439,2422.5979,N,08122.3767,W,1,11,1.2,16,M,,M,,*61
06/05/2014	21:04:39.533	$GPGGA,210440,2422.5974,N,08122.3768,W,1,11,1.3,16,M,,M,,*6C
06/05/2014	21:04:40.549	$GPGGA,210441,2422.5972,N,08122.3769,W,1,10,1.3,16,M,,M,,*6B
06/05/2014	21:04:41.544	$GPGGA,210442,2422.5967,N,08122.3768,W,1,10,1.2,16,M,,M,,*6C
06/05/2014	21:04:42.570	$GPGGA,210443,2422.5961,N,08122.3766,W,1,11,1.2,16,M,,M,,*64
06/05/2014	21:04:43.566	$GPGGA,210444,2422.5955,N,08122.3766,W,1,11,1.3,16,M,,M,,*65
06/05/2014	21:04:44.582	$GPGGA,210445,2422.5951,N,08122.3768,W,1,10,1.3,16,M,,M,,*6F
06/05/2014	21:04:45.547	$GPGGA,210446,2422.5947,N,08122.3765,W,1,10,1.5,16,M,,M,,*60
06/05/2014	21:04:46.654	$GPGGA,210447,2422.5943,N,08122.3766,W,1,11,1.2,16,M,,M,,*60
06/05/2014	21:04:47.579	$GPGGA,210448,2422.5938,N,08122.3768,W,1,11,1.2,16,M,,M,,*6D
06/05/2014	21:04:48.575	$GPGGA,210449,2422.5933,N,08122.3767,W,1,11,1.2,16,M,,M,,*68
06/05/2014	21:04:49.661	$GPGGA,210450,2422.5929,N,08122.3768,W,1,11,1.2,16,M,,M,,*64
06/05/2014	21:04:50.666	$GPGGA,210451,2422.5925,N,08122.3767,W,1,10,1.4,16,M,,M,,*61
06/05/2014	21:04:51.732	$GPGGA,210452,2422.5920,N,08122.3766,W,1,10,1.2,16,M,,M,,*60
06/05/2014	21:04:52.778	$GPGGA,210453,2422.5916,N,08122.3768,W,1,11,1.2,16,M,,M,,*6B
06/05/2014	21:04:53.714	$GPGGA,210454,2422.5912,N,08122.3767,W,1,11,1.2,16,M,,M,,*67
06/05/2014	21:04:54.790	$GPGGA,210455,2422.5907,N,08122.3766,W,1,11,1.2,16,M,,M,,*63
06/05/2014	21:04:55.755	$GPGGA,210456,2422.5902,N,08122.3766,W,1,11,1.2,16,M,,M,,*65
06/05/2014	21:04:56.691	$GPGGA,210457,2422.5898,N,08122.3768,W,1,11,1.2,16,M,,M,,*68
06/05/2014	21:04:57.697	$GPGGA,210458,2422.5893,N,08122.3766,W,1,11,1.2,16,M,,M,,*62
06/05/2014	21:04:58.692	$GPGGA,210459,2422.5889,N,08122.3764,W,1,11,1.2,16,M,,M,,*6A
06/05/2014	21:04:59.718	$GPGGA,210500,2422.5882,N,08122.3763,W,1,11,1.2,16,M,,M,,*6B
06/05/2014	21:05:00.704	$GPGGA,210501,2422.5876,N,08122.3764,W,1,10,1.3,16,M,,M,,*66
06/05/2014	21:05:01.710	$GPGGA,210502,2422.5871,N,08122.3762,W,1,10,1.3,16,M,,M,,*64
06/05/2014	21:05:02.816	$GPGGA,210503,2422.5865,N,08122.3761,W,1,10,1.3,16,M,,M,,*63
06/05/2014	21:05:03.721	$GPGGA,210504,2422.5860,N,08122.3760,W,1,10,1.3,16,M,,M,,*60
06/05/2014	21:05:04.828	$GPGGA,210505,2422.5855,N,08122.3761,W,1,10,1.3,16,M,,M,,*66
06/05/2014	21:05:05.753	$GPGGA,210506,2422.5851,N,08122.3760,W,1,10,1.2,16,M,,M,,*61
06/05/2014	21:05:06.839	$GPGGA,210507,2422.5846,N,08122.3759,W,1,11,1.2,16,M,,M,,*6D
06/05/2014	21:05:07.744	$GPGGA,210508,2422.5844,N,08122.3761,W,1,11,1.3,16,M,,M,,*6A
06/05/2014	21:05:08.840	$GPGGA,210509,2422.5837,N,08122.3758,W,1,11,1.3,16,M,,M,,*65
06/05/2014	21:05:09.735	$GPGGA,210510,2422.5833,N,08122.3758,W,1,11,1.3,16,M,,M,,*69
06/05/2014	21:05:10.851	$GPGGA,210511,2422.5828,N,08122.3759,W,1,11,1.2,16,M,,M,,*62
06/05/2014	21:05:11.787	$GPGGA,210512,2422.5822,N,08122.3757,W,1,11,1.2,16,M,,M,,*65
06/05/2014	21:05:12.863	$GPGGA,210513,2422.5817,N,08122.3756,W,1,10,1.3,16,M,,M,,*63
06/05/2014	21:05:14.876	$GPGGA,210515,2422.5806,N,08122.3756,W,1,10,1.3,16,M,,M,,*65
06/05/2014	21:05:15.810	$GPGGA,210516,2422.5800,N,08122.3754,W,1,10,1.3,16,M,,M,,*62
06/05/2014	21:05:16.765	$GPGGA,210517,2422.5796,N,08122.3754,W,1,11,1.2,16,M,,M,,*63
06/05/2014	21:05:17.801	$GPGGA,210518,2422.5791,N,08122.3757,W,1,11,1.4,16,M,,M,,*6E
06/05/2014	21:05:18.768	$GPGGA,210519,2422.5788,N,08122.3756,W,1,10,1.4,16,M,,M,,*67
06/05/2014	21:05:19.793	$GPGGA,210520,2422.5784,N,08122.3757,W,1,10,1.2,16,M,,M,,*66
06/05/2014	21:05:20.779	$GPGGA,210521,2422.5778,N,08122.3757,W,1,11,1.2,16,M,,M,,*65
06/05/2014	21:05:21.825	$GPGGA,210522,2422.5773,N,08122.3758,W,1,11,1.2,16,M,,M,,*62
06/05/2014	21:05:22.911	$GPGGA,210523,2422.5768,N,08122.3757,W,1,11,1.2,16,M,,M,,*66
06/05/2014	21:05:23.937	$GPGGA,210524,2422.5761,N,08122.3756,W,1,11,1.2,16,M,,M,,*69
06/05/2014	21:05:24.792	$GPGGA,210525,2422.5756,N,08122.3755,W,1,11,1.2,16,M,,M,,*6F
06/05/2014	21:05:25.897	$GPGGA,210526,2422.5750,N,08122.3755,W,1,11,1.2,16,M,,M,,*6A
06/05/2014	21:05:26.802	$GPGGA,210527,2422.5744,N,08122.3754,W,1,11,1.2,16,M,,M,,*6F
06/05/2014	21:05:27.848	$GPGGA,210528,2422.5739,N,08122.3753,W,1,11,1.2,16,M,,M,,*6D
06/05/2014	21:05:28.884	$GPGGA,210529,2422.5733,N,08122.3752,W,1,11,1.2,16,M,,M,,*67
06/05/2014	21:05:29.810	$GPGGA,210530,2422.5727,N,08122.3751,W,1,11,1.2,16,M,,M,,*69
06/05/2014	21:05:30.936	$GPGGA,210531,2422.5723,N,08122.3751,W,1,10,1.3,16,M,,M,,*6C
06/05/2014	21:05:31.932	$GPGGA,210532,2422.5719,N,08122.3751,W,1,10,1.2,16,M,,M,,*67
06/05/2014	21:05:32.968	$GPGGA,210533,2422.5712,N,08122.3750,W,1,11,1.2,17,M,,M,,*6C
06/05/2014	21:05:33.863	$GPGGA,210534,2422.5708,N,08122.3750,W,1,11,1.2,17,M,,M,,*60
06/05/2014	21:05:34.929	$GPGGA,210535,2422.5702,N,08122.3750,W,1,11,1.2,17,M,,M,,*6B
06/05/2014	21:05:35.549	$GPGGA,210536,2422.5698,N,08122.3750,W,1,11,1.2,17,M,,M,,*6A
06/05/2014	21:05:36.657	$GPGGA,210537,2422.5694,N,08122.3748,W,1,11,1.2,17,M,,M,,*6E
06/05/2014	21:05:37.540	$GPGGA,210538,2422.5687,N,08122.3748,W,1,11,1.2,17,M,,M,,*63
06/05/2014	21:05:38.596	$GPGGA,210539,2422.5681,N,08122.3748,W,1,11,1.3,17,M,,M,,*65
06/05/2014	21:05:39.612	$GPGGA,210540,2422.5676,N,08122.3746,W,1,11,1.3,17,M,,M,,*6D
06/05/2014	21:05:40.658	$GPGGA,210541,2422.5669,N,08122.3743,W,1,10,1.2,17,M,,M,,*67
06/05/2014	21:05:41.614	$GPGGA,210542,2422.5663,N,08122.3742,W,1,10,1.2,17,M,,M,,*6F
06/05/2014	21:05:42.660	$GPGGA,210543,2422.5658,N,08122.3743,W,1,11,1.2,17,M,,M,,*66
06/05/2014	21:05:43.574	$GPGGA,210544,2422.5650,N,08122.3741,W,1,11,1.7,17,M,,M,,*6E
06/05/2014	21:05:44.610	$GPGGA,210545,2422.5641,N,08122.3739,W,1,9,1.3,17,M,,M,,*5D
06/05/2014	21:05:45.636	$GPGGA,210546,2422.5636,N,08122.3738,W,1,9,1.2,17,M,,M,,*5E
06/05/2014	21:05:46.652	$GPGGA,210547,2422.5630,N,08122.3739,W,1,11,1.2,17,M,,M,,*61
06/05/2014	21:05:47.648	$GPGGA,210548,2422.5625,N,08122.3738,W,1,11,1.3,17,M,,M,,*6A
06/05/2014	21:05:48.684	$GPGGA,210549,2422.5620,N,08122.3737,W,1,10,1.3,17,M,,M,,*60
06/05/2014	21:05:49.639	$GPGGA,210550,2422.5616,N,08122.3735,W,1,10,1.3,17,M,,M,,*6F
06/05/2014	21:05:50.645	$GPGGA,210551,2422.5612,N,08122.3734,W,1,10,1.3,17,M,,M,,*6B
06/05/2014	21:05:51.671	$GPGGA,210552,2422.5609,N,08122.3736,W,1,10,1.2,17,M,,M,,*61
06/05/2014	21:05:52.687	$GPGGA,210553,2422.5605,N,08122.3736,W,1,11,1.2,17,M,,M,,*6D
06/05/2014	21:05:53.662	$GPGGA,210554,2422.5602,N,08122.3732,W,1,11,1.2,17,M,,M,,*69
06/05/2014	21:05:54.688	$GPGGA,210555,2422.5598,N,08122.3732,W,1,11,1.3,17,M,,M,,*69
06/05/2014	21:05:55.684	$GPGGA,210556,2422.5594,N,08122.3733,W,1,11,1.2,17,M,,M,,*66
06/05/2014	21:05:56.730	$GPGGA,210557,2422.5589,N,08122.3733,W,1,11,1.3,17,M,,M,,*6A
06/05/2014	21:05:57.675	$GPGGA,210558,2422.5583,N,08122.3730,W,1,11,1.2,17,M,,M,,*6D
06/05/2014	21:05:58.712	$GPGGA,210559,2422.5578,N,08122.3728,W,1,11,1.2,17,M,,M,,*61
06/05/2014	21:05:59.718	$GPGGA,210600,2422.5575,N,08122.3729,W,1,11,1.2,17,M,,M,,*62
06/05/2014	21:06:00.742	$GPGGA,210601,2422.5571,N,08122.3729,W,1,11,1.2,17,M,,M,,*67
06/05/2014	21:06:01.728	$GPGGA,210602,2422.5567,N,08122.3727,W,1,11,1.2,17,M,,M,,*6D
06/05/2014	21:06:02.734	$GPGGA,210603,2422.5562,N,08122.3725,W,1,11,1.2,17,M,,M,,*6B
06/05/2014	21:06:03.719	$GPGGA,210604,2422.5557,N,08122.3725,W,1,11,1.2,18,M,,M,,*65
06/05/2014	21:06:04.715	$GPGGA,210605,2422.5557,N,08122.3725,W,1,11,1.2,18,M,,M,,*64
06/05/2014	21:06:05.701	$GPGGA,210606,2422.5549,N,08122.3723,W,1,11,1.2,18,M,,M,,*6E
06/05/2014	21:06:06.777	$GPGGA,210607,2422.5543,N,08122.3722,W,1,11,1.2,18,M,,M,,*64
06/05/2014	21:06:07.732	$GPGGA,210608,2422.5538,N,08122.3723,W,1,11,1.2,18,M,,M,,*66
06/05/2014	21:06:08.738	$GPGGA,210609,2422.5538,N,08122.3723,W,1,11,1.2,18,M,,M,,*67
06/05/2014	21:06:09.714	$GPGGA,210610,2422.5529,N,08122.3721,W,1,11,1.2,18,M,,M,,*6D
06/05/2014	21:06:10.860	$GPGGA,210611,2422.5524,N,08122.3719,W,1,11,1.2,18,M,,M,,*6A
06/05/2014	21:06:11.756	$GPGGA,210612,2422.5519,N,08122.3721,W,1,11,1.2,18,M,,M,,*6C
06/05/2014	21:06:12.822	$GPGGA,210613,2422.5519,N,08122.3721,W,1,11,1.2,18,M,,M,,*6D
06/05/2014	21:06:13.727	$GPGGA,210614,2422.5510,N,08122.3718,W,1,11,1.2,18,M,,M,,*69
06/05/2014	21:06:14.753	$GPGGA,210615,2422.5510,N,08122.3718,W,1,11,1.2,18,M,,M,,*68
06/05/2014	21:06:15.772	$GPGGA,210616,2422.5506,N,08122.3715,W,1,11,1.2,18,M,,M,,*61
06/05/2014	21:06:16.875	$GPGGA,210617,2422.5495,N,08122.3717,W,1,10,1.3,18,M,,M,,*69
06/05/2014	21:06:17.760	$GPGGA,210618,2422.5490,N,08122.3713,W,1,10,1.2,18,M,,M,,*66
06/05/2014	21:06:18.765	$GPGGA,210619,2422.5490,N,08122.3713,W,1,10,1.3,18,M,,M,,*66
06/05/2014	21:06:19.771	$GPGGA,210620,2422.5479,N,08122.3712,W,1,10,1.2,19,M,,M,,*6A
06/05/2014	21:06:20.777	$GPGGA,210621,2422.5479,N,08122.3712,W,1,11,1.2,19,M,,M,,*6A
06/05/2014	21:06:21.853	$GPGGA,210622,2422.5466,N,08122.3708,W,1,11,1.3,19,M,,M,,*6D
06/05/2014	21:06:22.899	$GPGGA,210623,2422.5462,N,08122.3707,W,1,11,1.2,19,M,,M,,*66
06/05/2014	21:06:23.794	$GPGGA,210624,2422.5456,N,08122.3707,W,1,11,1.2,19,M,,M,,*66
06/05/2014	21:06:24.870	$GPGGA,210625,2422.5450,N,08122.3706,W,1,10,1.3,19,M,,M,,*60
06/05/2014	21:06:25.876	$GPGGA,210626,2422.5446,N,08122.3704,W,1,10,1.2,19,M,,M,,*67
06/05/2014	21:06:26.892	$GPGGA,210627,2422.5441,N,08122.3703,W,1,11,1.2,19,M,,M,,*67
06/05/2014	21:06:27.797	$GPGGA,210628,2422.5437,N,08122.3702,W,1,11,1.2,19,M,,M,,*68
06/05/2014	21:06:28.924	$GPGGA,210629,2422.5434,N,08122.3703,W,1,11,1.2,19,M,,M,,*6B
06/05/2014	21:06:29.889	$GPGGA,210630,2422.5427,N,08122.3701,W,1,11,1.2,19,M,,M,,*63
06/05/2014	21:06:30.925	$GPGGA,210631,2422.5425,N,08122.3699,W,1,10,1.3,19,M,,M,,*60
06/05/2014	21:06:31.911	$GPGGA,210632,2422.5423,N,08122.3697,W,1,10,1.2,19,M,,M,,*6A
06/05/2014	21:06:32.927	$GPGGA,210633,2422.5416,N,08122.3697,W,1,11,1.2,19,M,,M,,*6C
06/05/2014	21:06:33.912	$GPGGA,210634,2422.5410,N,08122.3696,W,1,11,1.2,19,M,,M,,*6C
06/05/2014	21:06:34.908	$GPGGA,210635,2422.5405,N,08122.3694,W,1,11,1.2,19,M,,M,,*6B
06/05/2014	21:06:35.597	$GPGGA,210636,2422.5401,N,08122.3694,W,1,11,1.2,19,M,,M,,*6C
06/05/2014	21:06:36.593	$GPGGA,210637,2422.5395,N,08122.3693,W,1,11,1.2,19,M,,M,,*60
06/05/2014	21:06:37.568	$GPGGA,210638,2422.5391,N,08122.3692,W,1,11,1.2,19,M,,M,,*6A
06/05/2014	21:06:38.574	$GPGGA,210639,2422.5387,N,08122.3689,W,1,11,1.2,19,M,,M,,*66
06/05/2014	21:06:39.600	$GPGGA,210640,2422.5381,N,08122.3688,W,1,11,1.2,19,M,,M,,*6F
06/05/2014	21:06:40.606	$GPGGA,210641,2422.5376,N,08122.3689,W,1,11,1.2,19,M,,M,,*67
06/05/2014	21:06:41.592	$GPGGA,210642,2422.5372,N,08122.3687,W,1,11,1.2,19,M,,M,,*6E
06/05/2014	21:06:42.587	$GPGGA,210643,2422.5365,N,08122.3686,W,1,11,1.2,19,M,,M,,*68
06/05/2014	21:06:43.613	$GPGGA,210644,2422.5359,N,08122.3685,W,1,11,1.3,19,M,,M,,*62
06/05/2014	21:06:44.629	$GPGGA,210645,2422.5354,N,08122.3683,W,1,10,1.3,19,M,,M,,*69
06/05/2014	21:06:45.605	$GPGGA,210646,2422.5348,N,08122.3683,W,1,10,1.2,19,M,,M,,*66
06/05/2014	21:06:46.631	$GPGGA,210647,2422.5343,N,08122.3683,W,1,11,1.2,19,M,,M,,*6D
06/05/2014	21:06:47.616	$GPGGA,210648,2422.5338,N,08122.3681,W,1,11,1.3,19,M,,M,,*6D
06/05/2014	21:06:48.652	$GPGGA,210649,2422.5334,N,08122.3680,W,1,11,1.2,19,M,,M,,*60
06/05/2014	21:06:49.637	$GPGGA,210650,2422.5329,N,08122.3681,W,1,11,1.2,19,M,,M,,*65
06/05/2014	21:06:50.640	$GPGGA,210651,2422.5324,N,08122.3679,W,1,11,1.2,19,M,,M,,*6E
06/05/2014	21:06:51.624	$GPGGA,210652,2422.5320,N,08122.3677,W,1,11,1.3,19,M,,M,,*66
06/05/2014	21:06:52.628	$GPGGA,210653,2422.5314,N,08122.3678,W,1,11,1.2,19,M,,M,,*6E
06/05/2014	21:06:53.630	$GPGGA,210654,2422.5311,N,08122.3677,W,1,11,1.2,19,M,,M,,*63
06/05/2014	21:06:54.644	$GPGGA,210655,2422.5307,N,08122.3675,W,1,11,1.2,19,M,,M,,*67
06/05/2014	21:06:55.648	$GPGGA,210656,2422.5301,N,08122.3675,W,1,11,1.2,19,M,,M,,*62
06/05/2014	21:06:56.631	$GPGGA,210657,2422.5296,N,08122.3675,W,1,11,1.2,19,M,,M,,*6C
06/05/2014	21:06:57.635	$GPGGA,210658,2422.5291,N,08122.3673,W,1,11,1.2,19,M,,M,,*62
06/05/2014	21:06:58.769	$GPGGA,210659,2422.5286,N,08122.3671,W,1,11,1.2,19,M,,M,,*67
06/05/2014	21:06:59.652	$GPGGA,210700,2422.5282,N,08122.3672,W,1,11,1.2,19,M,,M,,*6D
06/05/2014	21:07:00.667	$GPGGA,210701,2422.5277,N,08122.3671,W,1,11,1.2,19,M,,M,,*65
06/05/2014	21:07:01.640	$GPGGA,210702,2422.5272,N,08122.3668,W,1,11,1.2,19,M,,M,,*6B
06/05/2014	21:07:02.664	$GPGGA,210703,2422.5266,N,08122.3667,W,1,11,1.2,19,M,,M,,*60
06/05/2014	21:07:03.648	$GPGGA,210704,2422.5258,N,08122.3666,W,1,11,1.3,19,M,,M,,*6A
06/05/2014	21:07:04.771	$GPGGA,210705,2422.5253,N,08122.3665,W,1,9,1.7,19,M,,M,,*5E
06/05/2014	21:07:05.655	$GPGGA,210706,2422.5246,N,08122.3662,W,1,9,1.2,19,M,,M,,*5B
06/05/2014	21:07:06.779	$GPGGA,210707,2422.5242,N,08122.3663,W,1,10,1.3,19,M,,M,,*66
06/05/2014	21:07:07.672	$GPGGA,210708,2422.5236,N,08122.3662,W,1,10,1.2,19,M,,M,,*6A
06/05/2014	21:07:08.786	$GPGGA,210709,2422.5232,N,08122.3661,W,1,10,1.3,19,M,,M,,*6D
06/05/2014	21:07:09.659	$GPGGA,210710,2422.5228,N,08122.3659,W,1,10,1.2,19,M,,M,,*64
06/05/2014	21:07:10.662	$GPGGA,210711,2422.5224,N,08122.3660,W,1,11,1.2,19,M,,M,,*62
06/05/2014	21:07:11.676	$GPGGA,210712,2422.5219,N,08122.3659,W,1,11,1.2,19,M,,M,,*65
06/05/2014	21:07:12.760	$GPGGA,210713,2422.5214,N,08122.3658,W,1,11,1.2,19,M,,M,,*68
06/05/2014	21:07:13.763	$GPGGA,210714,2422.5210,N,08122.3656,W,1,11,1.2,19,M,,M,,*65
06/05/2014	21:07:14.757	$GPGGA,210715,2422.5204,N,08122.3656,W,1,11,1.2,19,M,,M,,*61
06/05/2014	21:07:15.681	$GPGGA,210716,2422.5199,N,08122.3655,W,1,11,1.3,19,M,,M,,*67
06/05/2014	21:07:16.795	$GPGGA,210717,2422.5195,N,08122.3656,W,1,10,1.3,19,M,,M,,*68
06/05/2014	21:07:17.768	$GPGGA,210718,2422.5191,N,08122.3654,W,1,10,1.2,19,M,,M,,*60
06/05/2014	21:07:18.772	$GPGGA,210719,2422.5188,N,08122.3654,W,1,11,1.2,19,M,,M,,*68
06/05/2014	21:07:19.685	$GPGGA,210720,2422.5184,N,08122.3654,W,1,11,1.2,19,M,,M,,*6E
06/05/2014	21:07:20.789	$GPGGA,210721,2422.5181,N,08122.3653,W,1,11,1.2,19,M,,M,,*6D
06/05/2014	21:07:21.763	$GPGGA,210722,2422.5174,N,08122.3652,W,1,11,1.2,19,M,,M,,*65
06/05/2014	21:07:22.797	$GPGGA,210723,2422.5170,N,08122.3652,W,1,11,1.2,19,M,,M,,*60
06/05/2014	21:07:23.790	$GPGGA,210724,2422.5165,N,08122.3652,W,1,11,1.2,19,M,,M,,*63
06/05/2014	21:07:24.794	$GPGGA,210725,2422.5159,N,08122.3651,W,1,11,1.2,19,M,,M,,*6E
06/05/2014	21:07:25.788	$GPGGA,210726,2422.5154,N,08122.3649,W,1,11,1.2,19,M,,M,,*69
06/05/2014	21:07:26.771	$GPGGA,210727,2422.5149,N,08122.3648,W,1,10,1.3,19,M,,M,,*65
06/05/2014	21:07:27.785	$GPGGA,210728,2422.5145,N,08122.3646,W,1,10,1.3,19,M,,M,,*68
06/05/2014	21:07:28.798	$GPGGA,210729,2422.5138,N,08122.3646,W,1,10,1.3,19,M,,M,,*63
06/05/2014	21:07:29.781	$GPGGA,210730,2422.5132,N,08122.3645,W,1,10,1.2,18,M,,M,,*62
06/05/2014	21:07:30.785	$GPGGA,210731,2422.5127,N,08122.3643,W,1,10,1.3,18,M,,M,,*60
06/05/2014	21:07:31.799	$GPGGA,210732,2422.5121,N,08122.3642,W,1,10,1.3,18,M,,M,,*64
06/05/2014	21:07:32.783	$GPGGA,210733,2422.5116,N,08122.3642,W,1,11,1.2,18,M,,M,,*61
06/05/2014	21:07:33.796	$GPGGA,210734,2422.5112,N,08122.3641,W,1,11,1.2,18,M,,M,,*61
06/05/2014	21:07:34.780	$GPGGA,210735,2422.5106,N,08122.3640,W,1,11,1.2,18,M,,M,,*64
06/05/2014	21:07:35.564	$GPGGA,210736,2422.5101,N,08122.3641,W,1,11,1.2,18,M,,M,,*61
06/05/2014	21:07:36.548	$GPGGA,210737,2422.5096,N,08122.3639,W,1,11,1.2,18,M,,M,,*60
06/05/2014	21:07:37.552	$GPGGA,210738,2422.5091,N,08122.3639,W,1,11,1.2,18,M,,M,,*68
06/05/2014	21:07:38.575	$GPGGA,210739,2422.5087,N,08122.3641,W,1,11,1.2,18,M,,M,,*61
06/05/2014	21:07:39.569	$GPGGA,210740,2422.5081,N,08122.3640,W,1,11,1.2,18,M,,M,,*68
06/05/2014	21:07:40.583	$GPGGA,210741,2422.5076,N,08122.3639,W,1,11,1.2,18,M,,M,,*6F
06/05/2014	21:07:41.556	$GPGGA,210742,2422.5070,N,08122.3639,W,1,11,1.2,18,M,,M,,*6A
06/05/2014	21:07:42.550	$GPGGA,210743,2422.5066,N,08122.3641,W,1,11,1.2,18,M,,M,,*63
06/05/2014	21:07:43.594	$GPGGA,210744,2422.5061,N,08122.3639,W,1,11,1.2,18,M,,M,,*6C
06/05/2014	21:07:44.598	$GPGGA,210745,2422.5055,N,08122.3638,W,1,11,1.2,18,M,,M,,*6B
06/05/2014	21:07:45.550	$GPGGA,210746,2422.5051,N,08122.3638,W,1,11,1.2,18,M,,M,,*6C
06/05/2014	21:07:46.574	$GPGGA,210747,2422.5047,N,08122.3638,W,1,11,1.2,18,M,,M,,*6A
06/05/2014	21:07:47.588	$GPGGA,210748,2422.5041,N,08122.3638,W,1,11,1.2,18,M,,M,,*63
06/05/2014	21:07:48.682	$GPGGA,210749,2422.5036,N,08122.3638,W,1,11,1.2,18,M,,M,,*62
06/05/2014	21:07:49.555	$GPGGA,210750,2422.5031,N,08122.3638,W,1,11,1.2,18,M,,M,,*6D
06/05/2014	21:07:50.579	$GPGGA,210751,2422.5026,N,08122.3638,W,1,11,1.2,18,M,,M,,*6A
06/05/2014	21:07:51.582	$GPGGA,210752,2422.5022,N,08122.3638,W,1,11,1.2,18,M,,M,,*6D
06/05/2014	21:07:52.566	$GPGGA,210753,2422.5016,N,08122.3638,W,1,11,1.2,18,M,,M,,*6B
06/05/2014	21:07:53.580	$GPGGA,210754,2422.5011,N,08122.3639,W,1,11,1.2,18,M,,M,,*6A
06/05/2014	21:07:54.593	$GPGGA,210755,2422.5006,N,08122.3639,W,1,11,1.2,18,M,,M,,*6D
06/05/2014	21:07:55.687	$GPGGA,210756,2422.5000,N,08122.3638,W,1,11,1.2,18,M,,M,,*69
06/05/2014	21:07:56.711	$GPGGA,210757,2422.4996,N,08122.3639,W,1,11,1.2,18,M,,M,,*6E
06/05/2014	21:07:57.585	$GPGGA,210758,2422.4991,N,08122.3642,W,1,11,1.2,18,M,,M,,*6A
06/05/2014	21:07:58.689	$GPGGA,210759,2422.4986,N,08122.3640,W,1,11,1.2,18,M,,M,,*6F
06/05/2014	21:07:59.692	$GPGGA,210800,2422.4982,N,08122.3639,W,1,11,1.2,17,M,,M,,*69
06/05/2014	21:08:00.676	$GPGGA,210801,2422.4977,N,08122.3641,W,1,11,1.2,17,M,,M,,*6D
06/05/2014	21:08:01.680	$GPGGA,210802,2422.4972,N,08122.3642,W,1,11,1.2,17,M,,M,,*68
06/05/2014	21:08:02.683	$GPGGA,210803,2422.4967,N,08122.3642,W,1,11,1.2,17,M,,M,,*6D
06/05/2014	21:08:03.606	$GPGGA,210804,2422.4964,N,08122.3641,W,1,11,1.2,17,M,,M,,*6A
06/05/2014	21:08:04.690	$GPGGA,210805,2422.4959,N,08122.3643,W,1,11,1.2,17,M,,M,,*67
06/05/2014	21:08:05.693	$GPGGA,210806,2422.4954,N,08122.3645,W,1,11,1.2,17,M,,M,,*6F
06/05/2014	21:08:06.697	$GPGGA,210807,2422.4949,N,08122.3644,W,1,11,1.2,17,M,,M,,*63
06/05/2014	21:08:07.711	$GPGGA,210808,2422.4944,N,08122.3645,W,1,11,1.2,17,M,,M,,*60
06/05/2014	21:08:08.684	$GPGGA,210809,2422.4940,N,08122.3646,W,1,11,1.2,17,M,,M,,*66
06/05/2014	21:08:09.708	$GPGGA,210810,2422.4935,N,08122.3646,W,1,11,1.2,17,M,,M,,*6C
06/05/2014	21:08:10.732	$GPGGA,210811,2422.4930,N,08122.3646,W,1,11,1.2,17,M,,M,,*68
06/05/2014	21:08:11.706	$GPGGA,210812,2422.4925,N,08122.3646,W,1,11,1.2,17,M,,M,,*6F
06/05/2014	21:08:12.729	$GPGGA,210813,2422.4921,N,08122.3647,W,1,11,1.2,17,M,,M,,*6B
06/05/2014	21:08:13.703	$GPGGA,210814,2422.4917,N,08122.3647,W,1,11,1.2,17,M,,M,,*69
06/05/2014	21:08:14.707	$GPGGA,210815,2422.4911,N,08122.3649,W,1,11,1.2,17,M,,M,,*60
06/05/2014	21:08:15.730	$GPGGA,210816,2422.4907,N,08122.3648,W,1,11,1.3,17,M,,M,,*64
06/05/2014	21:08:16.734	$GPGGA,210817,2422.4903,N,08122.3649,W,1,11,1.2,17,M,,M,,*61
06/05/2014	21:08:17.718	$GPGGA,210818,2422.4899,N,08122.3648,W,1,11,1.2,17,M,,M,,*6D
06/05/2014	21:08:18.721	$GPGGA,210819,2422.4893,N,08122.3649,W,1,10,1.3,17,M,,M,,*67
06/05/2014	21:08:19.735	$GPGGA,210820,2422.4889,N,08122.3650,W,1,10,1.2,17,M,,M,,*6F
06/05/2014	21:08:20.708	$GPGGA,210821,2422.4885,N,08122.3649,W,1,11,1.2,17,M,,M,,*6B
06/05/2014	21:08:21.721	$GPGGA,210822,2422.4881,N,08122.3648,W,1,11,1.2,17,M,,M,,*6D
06/05/2014	21:08:22.735	$GPGGA,210823,2422.4876,N,08122.3649,W,1,11,1.2,17,M,,M,,*65
06/05/2014	21:08:23.739	$GPGGA,210824,2422.4871,N,08122.3650,W,1,11,1.3,17,M,,M,,*6C
06/05/2014	21:08:24.712	$GPGGA,210825,2422.4868,N,08122.3649,W,1,11,1.2,17,M,,M,,*6C
06/05/2014	21:08:25.736	$GPGGA,210826,2422.4864,N,08122.3649,W,1,11,1.2,17,M,,M,,*63
06/05/2014	21:08:26.721	$GPGGA,210827,2422.4860,N,08122.3649,W,1,11,1.2,17,M,,M,,*66
06/05/2014	21:08:27.744	$GPGGA,210828,2422.4856,N,08122.3649,W,1,11,1.2,17,M,,M,,*6C
06/05/2014	21:08:28.757	$GPGGA,210829,2422.4852,N,08122.3648,W,1,10,1.3,17,M,,M,,*68
06/05/2014	21:08:29.731	$GPGGA,210830,2422.4849,N,08122.3649,W,1,10,1.2,17,M,,M,,*6A
06/05/2014	21:08:30.765	$GPGGA,210831,2422.4845,N,08122.3649,W,1,11,1.2,17,M,,M,,*66
06/05/2014	21:08:31.738	$GPGGA,210832,2422.4841,N,08122.3649,W,1,11,1.2,17,M,,M,,*61
06/05/2014	21:08:32.732	$GPGGA,210833,2422.4837,N,08122.3648,W,1,11,1.2,17,M,,M,,*60
06/05/2014	21:08:33.757	$GPGGA,210834,2422.4834,N,08122.3649,W,1,11,1.3,17,M,,M,,*64
06/05/2014	21:08:34.749	$GPGGA,210835,2422.4831,N,08122.3649,W,1,11,1.2,17,M,,M,,*61
06/05/2014	21:08:35.645	$GPGGA,210836,2422.4827,N,08122.3648,W,1,11,1.2,17,M,,M,,*64
06/05/2014	21:08:36.517	$GPGGA,210837,2422.4824,N,08122.3647,W,1,11,1.2,17,M,,M,,*69
06/05/2014	21:08:37.542	$GPGGA,210838,2422.4820,N,08122.3646,W,1,11,1.2,17,M,,M,,*63
06/05/2014	21:08:38.559	$GPGGA,210839,2422.4814,N,08122.3645,W,1,10,1.3,17,M,,M,,*66
06/05/2014	21:08:39.721	$GPGGA,210840,2422.4809,N,08122.3644,W,1,10,1.3,17,M,,M,,*65
06/05/2014	21:08:40.626	$GPGGA,210841,2422.4806,N,08122.3643,W,1,11,1.2,17,M,,M,,*6C
06/05/2014	21:08:41.645	$GPGGA,210842,2422.4801,N,08122.3641,W,1,11,1.2,17,M,,M,,*6A
06/05/2014	21:08:42.807	$GPGGA,210843,2422.4796,N,08122.3640,W,1,11,1.2,17,M,,M,,*6B
06/05/2014	21:08:43.722	$GPGGA,210844,2422.4791,N,08122.3642,W,1,11,1.2,17,M,,M,,*69
06/05/2014	21:08:44.720	$GPGGA,210845,2422.4787,N,08122.3639,W,1,10,1.3,17,M,,M,,*63
06/05/2014	21:08:45.748	$GPGGA,210846,2422.4781,N,08122.3635,W,1,10,1.3,17,M,,M,,*6A
06/05/2014	21:08:46.776	$GPGGA,210847,2422.4777,N,08122.3638,W,1,11,1.2,17,M,,M,,*6F
06/05/2014	21:08:47.908	$GPGGA,210848,2422.4774,N,08122.3637,W,1,11,1.2,17,M,,M,,*6C
06/05/2014	21:08:48.833	$GPGGA,210849,2422.4770,N,08122.3635,W,1,11,1.2,17,M,,M,,*6B
06/05/2014	21:08:49.954	$GPGGA,210850,2422.4765,N,08122.3633,W,1,11,1.2,17,M,,M,,*61
06/05/2014	21:08:50.982	$GPGGA,210851,2422.4759,N,08122.3634,W,1,11,1.2,18,M,,M,,*67
06/05/2014	21:08:52.021	$GPGGA,210852,2422.4755,N,08122.3631,W,1,11,1.2,18,M,,M,,*6D
06/05/2014	21:08:53.050	$GPGGA,210853,2422.4751,N,08122.3629,W,1,11,1.2,18,M,,M,,*61
06/05/2014	21:08:53.955	$GPGGA,210854,2422.4745,N,08122.3628,W,1,11,1.2,18,M,,M,,*62
06/05/2014	21:08:55.117	$GPGGA,210855,2422.4740,N,08122.3626,W,1,9,1.5,18,M,,M,,*56
06/05/2014	21:08:56.022	$GPGGA,210856,2422.4734,N,08122.3623,W,1,9,1.3,18,M,,M,,*55
06/05/2014	21:08:57.142	$GPGGA,210857,2422.4729,N,08122.3622,W,1,10,1.3,18,M,,M,,*61
06/05/2014	21:08:58.077	$GPGGA,210858,2422.4723,N,08122.3623,W,1,10,1.3,18,M,,M,,*65
06/05/2014	21:08:59.209	$GPGGA,210859,2422.4717,N,08122.3619,W,1,10,1.3,18,M,,M,,*6A
06/05/2014	21:09:00.227	$GPGGA,210900,2422.4711,N,08122.3616,W,1,10,1.2,18,M,,M,,*6F
06/05/2014	21:09:01.255	$GPGGA,210901,2422.4704,N,08122.3615,W,1,11,1.2,18,M,,M,,*68
06/05/2014	21:09:02.263	$GPGGA,210902,2422.4698,N,08122.3614,W,1,11,1.2,18,M,,M,,*6E
06/05/2014	21:09:03.291	$GPGGA,210903,2422.4691,N,08122.3609,W,1,11,1.2,18,M,,M,,*6A
06/05/2014	21:09:04.330	$GPGGA,210904,2422.4686,N,08122.3607,W,1,11,1.7,18,M,,M,,*60
06/05/2014	21:09:05.369	$GPGGA,210905,2422.4679,N,08122.3606,W,1,10,1.3,18,M,,M,,*65
06/05/2014	21:09:06.366	$GPGGA,210906,2422.4675,N,08122.3602,W,1,10,1.3,18,M,,M,,*6E
06/05/2014	21:09:07.426	$GPGGA,210907,2422.4671,N,08122.3598,W,1,11,1.2,18,M,,M,,*6B
06/05/2014	21:09:08.444	$GPGGA,210908,2422.4666,N,08122.3598,W,1,11,1.2,18,M,,M,,*62
06/05/2014	21:09:09.472	$GPGGA,210909,2422.4661,N,08122.3596,W,1,11,1.2,18,M,,M,,*6A
06/05/2014	21:09:10.480	$GPGGA,210910,2422.4657,N,08122.3591,W,1,11,1.2,18,M,,M,,*60
06/05/2014	21:09:11.519	$GPGGA,210911,2422.4650,N,08122.3585,W,1,10,1.3,18,M,,M,,*63
06/05/2014	21:09:12.547	$GPGGA,210912,2422.4643,N,08122.3583,W,1,10,1.3,18,M,,M,,*64
06/05/2014	21:09:13.545	$GPGGA,210913,2422.4637,N,08122.3580,W,1,10,1.3,18,M,,M,,*65
06/05/2014	21:09:14.582	$GPGGA,210914,2422.4632,N,08122.3575,W,1,10,1.3,18,M,,M,,*6D
06/05/2014	21:09:15.631	$GPGGA,210915,2422.4626,N,08122.3571,W,1,10,1.3,18,M,,M,,*6D
06/05/2014	21:09:16.640	$GPGGA,210916,2422.4621,N,08122.3568,W,1,10,1.3,18,M,,M,,*61
06/05/2014	21:09:17.667	$GPGGA,210917,2422.4613,N,08122.3565,W,1,10,1.3,18,M,,M,,*6C
06/05/2014	21:09:18.696	$GPGGA,210918,2422.4608,N,08122.3559,W,1,10,1.2,18,M,,M,,*67
06/05/2014	21:09:19.704	$GPGGA,210919,2422.4603,N,08122.3555,W,1,11,1.2,18,M,,M,,*60
06/05/2014	21:09:20.773	$GPGGA,210920,2422.4596,N,08122.3551,W,1,11,1.3,18,M,,M,,*60
06/05/2014	21:09:21.791	$GPGGA,210921,2422.4592,N,08122.3547,W,1,10,1.3,18,M,,M,,*63
06/05/2014	21:09:22.789	$GPGGA,210922,2422.4585,N,08122.3543,W,1,10,1.3,18,M,,M,,*62
06/05/2014	21:09:23.817	$GPGGA,210923,2422.4578,N,08122.3539,W,1,10,1.3,18,M,,M,,*6C
06/05/2014	21:09:24.856	$GPGGA,210924,2422.4574,N,08122.3534,W,1,10,1.3,18,M,,M,,*6A
06/05/2014	21:09:25.874	$GPGGA,210925,2422.4566,N,08122.3531,W,1,10,1.3,18,M,,M,,*6D
06/05/2014	21:09:27.016	$GPGGA,210926,2422.4563,N,08122.3530,W,1,10,1.2,18,M,,M,,*6B
06/05/2014	21:09:27.910	$GPGGA,210927,2422.4558,N,08122.3524,W,1,11,1.2,18,M,,M,,*66
06/05/2014	21:09:28.970	$GPGGA,210928,2422.4553,N,08122.3519,W,1,11,1.2,18,M,,M,,*6C
06/05/2014	21:09:30.101	$GPGGA,210929,2422.4547,N,08122.3518,W,1,11,1.2,18,M,,M,,*69
06/05/2014	21:09:30.995	$GPGGA,210930,2422.4541,N,08122.3515,W,1,11,1.2,18,M,,M,,*6A
06/05/2014	21:09:32.023	$GPGGA,210931,2422.4534,N,08122.3509,W,1,11,1.2,18,M,,M,,*64
06/05/2014	21:09:33.185	$GPGGA,210932,2422.4528,N,08122.3505,W,1,11,1.2,18,M,,M,,*66
06/05/2014	21:09:34.090	$GPGGA,210933,2422.4521,N,08122.3501,W,1,11,1.2,18,M,,M,,*6A
06/05/2014	21:09:35.098	$GPGGA,210934,2422.4513,N,08122.3496,W,1,11,1.2,18,M,,M,,*63
06/05/2014	21:09:36.229	$GPGGA,210935,2422.4509,N,08122.3492,W,1,11,1.2,18,M,,M,,*6D
06/05/2014	21:09:35.528	$GPGGA,210936,2422.4501,N,08122.3489,W,1,11,1.2,18,M,,M,,*6C
06/05/2014	21:09:36.547	$GPGGA,210937,2422.4494,N,08122.3484,W,1,10,1.3,18,M,,M,,*6D
06/05/2014	21:09:37.565	$GPGGA,210938,2422.4488,N,08122.3479,W,1,10,1.3,18,M,,M,,*6D
06/05/2014	21:09:38.706	$GPGGA,210939,2422.4482,N,08122.3476,W,1,11,1.2,18,M,,M,,*69
06/05/2014	21:09:39.642	$GPGGA,210940,2422.4475,N,08122.3474,W,1,11,1.2,18,M,,M,,*6D
06/05/2014	21:09:40.753	$GPGGA,210941,2422.4469,N,08122.3469,W,1,10,1.3,18,M,,M,,*6D
06/05/2014	21:09:41.781	$GPGGA,210942,2422.4463,N,08122.3464,W,1,10,1.2,18,M,,M,,*68
06/05/2014	21:09:42.820	$GPGGA,210943,2422.4456,N,08122.3462,W,1,11,1.2,18,M,,M,,*68
06/05/2014	21:09:43.870	$GPGGA,210944,2422.4449,N,08122.3459,W,1,11,1.2,18,M,,M,,*69
06/05/2014	21:09:44.866	$GPGGA,210945,2422.4442,N,08122.3454,W,1,11,1.3,18,M,,M,,*6F
06/05/2014	21:09:45.771	$GPGGA,210946,2422.4436,N,08122.3449,W,1,11,1.3,18,M,,M,,*63
06/05/2014	21:09:46.902	$GPGGA,210947,2422.4430,N,08122.3447,W,1,10,1.2,18,M,,M,,*6A
06/05/2014	21:09:47.981	$GPGGA,210948,2422.4423,N,08122.3442,W,1,10,1.3,18,M,,M,,*63
06/05/2014	21:09:48.958	$GPGGA,210949,2422.4416,N,08122.3438,W,1,10,1.3,18,M,,M,,*69
06/05/2014	21:09:49.987	$GPGGA,210950,2422.4409,N,08122.3435,W,1,10,1.3,18,M,,M,,*62
06/05/2014	21:09:51.025	$GPGGA,210951,2422.4402,N,08122.3431,W,1,10,1.2,18,M,,M,,*6D
06/05/2014	21:09:52.054	$GPGGA,210952,2422.4397,N,08122.3425,W,1,10,1.2,18,M,,M,,*60
06/05/2014	21:09:53.092	$GPGGA,210953,2422.4390,N,08122.3421,W,1,10,1.2,18,M,,M,,*62
06/05/2014	21:09:54.090	$GPGGA,210954,2422.4383,N,08122.3419,W,1,10,1.3,18,M,,M,,*6D
06/05/2014	21:09:55.139	$GPGGA,210955,2422.4377,N,08122.3414,W,1,10,1.3,18,M,,M,,*6A
06/05/2014	21:09:56.157	$GPGGA,210956,2422.4371,N,08122.3409,W,1,10,1.2,18,M,,M,,*62
06/05/2014	21:09:57.165	$GPGGA,210957,2422.4365,N,08122.3405,W,1,11,1.2,18,M,,M,,*6B
06/05/2014	21:09:58.204	$GPGGA,210958,2422.4359,N,08122.3402,W,1,11,1.2,18,M,,M,,*6C
06/05/2014	21:09:59.263	$GPGGA,210959,2422.4353,N,08122.3398,W,1,11,1.2,18,M,,M,,*63
06/05/2014	21:10:00.291	$GPGGA,211000,2422.4348,N,08122.3395,W,1,11,1.2,18,M,,M,,*60
06/05/2014	21:10:01.299	$GPGGA,211001,2422.4342,N,08122.3390,W,1,11,1.2,18,M,,M,,*6E
06/05/2014	21:10:02.297	$GPGGA,211002,2422.4335,N,08122.3385,W,1,11,1.3,18,M,,M,,*68
06/05/2014	21:10:03.335	$GPGGA,211003,2422.4330,N,08122.3382,W,1,10,1.2,18,M,,M,,*6B
06/05/2014	21:10:04.364	$GPGGA,211004,2422.4324,N,08122.3378,W,1,10,1.2,18,M,,M,,*6C
06/05/2014	21:10:05.373	$GPGGA,211005,2422.4318,N,08122.3373,W,1,11,1.2,18,M,,M,,*68
06/05/2014	21:10:06.409	$GPGGA,211006,2422.4311,N,08122.3368,W,1,11,1.3,18,M,,M,,*69
06/05/2014	21:10:07.427	$GPGGA,211007,2422.4305,N,08122.3363,W,1,10,1.3,17,M,,M,,*68
06/05/2014	21:10:08.476	$GPGGA,211008,2422.4299,N,08122.3359,W,1,10,1.2,17,M,,M,,*6B
06/05/2014	21:10:09.515	$GPGGA,211009,2422.4292,N,08122.3356,W,1,11,1.2,17,M,,M,,*6F
06/05/2014	21:10:10.502	$GPGGA,211010,2422.4286,N,08122.3350,W,1,11,1.2,17,M,,M,,*64
06/05/2014	21:10:11.561	$GPGGA,211011,2422.4281,N,08122.3345,W,1,11,1.3,17,M,,M,,*67
06/05/2014	21:10:12.580	$GPGGA,211012,2422.4274,N,08122.3343,W,1,11,1.2,17,M,,M,,*69
06/05/2014	21:10:13.577	$GPGGA,211013,2422.4268,N,08122.3339,W,1,11,1.2,17,M,,M,,*68
06/05/2014	21:10:14.730	$GPGGA,211014,2422.4263,N,08122.3333,W,1,11,1.2,17,M,,M,,*6E
06/05/2014	21:10:15.758	$GPGGA,211015,2422.4257,N,08122.3330,W,1,11,1.2,17,M,,M,,*6B
06/05/2014	21:10:16.693	$GPGGA,211016,2422.4252,N,08122.3328,W,1,11,1.2,17,M,,M,,*64
06/05/2014	21:10:17.691	$GPGGA,211017,2422.4246,N,08122.3323,W,1,11,1.2,17,M,,M,,*6B
06/05/2014	21:10:18.719	$GPGGA,211018,2422.4241,N,08122.3317,W,1,11,1.2,17,M,,M,,*64
06/05/2014	21:10:19.850	$GPGGA,211019,2422.4236,N,08122.3315,W,1,11,1.2,17,M,,M,,*67
06/05/2014	21:10:20.899	$GPGGA,211020,2422.4231,N,08122.3313,W,1,11,1.2,17,M,,M,,*6C
06/05/2014	21:10:21.804	$GPGGA,211021,2422.4227,N,08122.3308,W,1,11,1.2,17,M,,M,,*60
06/05/2014	21:10:22.833	$GPGGA,211022,2422.4221,N,08122.3303,W,1,11,1.2,17,M,,M,,*6E
06/05/2014	21:10:23.851	$GPGGA,211023,2422.4216,N,08122.3300,W,1,11,1.2,17,M,,M,,*68
06/05/2014	21:10:24.981	$GPGGA,211024,2422.4210,N,08122.3297,W,1,11,1.2,17,M,,M,,*66
06/05/2014	21:10:25.927	$GPGGA,211025,2422.4206,N,08122.3293,W,1,11,1.2,17,M,,M,,*64
06/05/2014	21:10:27.017	$GPGGA,211026,2422.4200,N,08122.3290,W,1,11,1.2,17,M,,M,,*62
06/05/2014	21:10:28.087	$GPGGA,211027,2422.4195,N,08122.3286,W,1,11,1.2,17,M,,M,,*6B
06/05/2014	21:10:29.023	$GPGGA,211028,2422.4191,N,08122.3282,W,1,11,1.3,17,M,,M,,*65
06/05/2014	21:10:30.113	$GPGGA,211029,2422.4184,N,08122.3278,W,1,10,1.2,17,M,,M,,*65
06/05/2014	21:10:31.049	$GPGGA,211030,2422.4178,N,08122.3276,W,1,10,1.2,17,M,,M,,*60
06/05/2014	21:10:32.170	$GPGGA,211031,2422.4173,N,08122.3273,W,1,11,1.2,17,M,,M,,*6E
06/05/2014	21:10:33.198	$GPGGA,211032,2422.4169,N,08122.3269,W,1,11,1.2,17,M,,M,,*6D
06/05/2014	21:10:34.216	$GPGGA,211033,2422.4165,N,08122.3265,W,1,11,1.2,17,M,,M,,*6C
06/05/2014	21:10:35.244	$GPGGA,211034,2422.4160,N,08122.3263,W,1,11,1.2,17,M,,M,,*68
06/05/2014	21:10:36.283	$GPGGA,211035,2422.4155,N,08122.3262,W,1,11,1.2,17,M,,M,,*6E
06/05/2014	21:10:35.599	$GPGGA,211036,2422.4151,N,08122.3257,W,1,11,1.2,17,M,,M,,*6F
06/05/2014	21:10:36.607	$GPGGA,211037,2422.4146,N,08122.3251,W,1,11,1.3,17,M,,M,,*6F
06/05/2014	21:10:37.646	$GPGGA,211038,2422.4140,N,08122.3249,W,1,11,1.3,17,M,,M,,*6F
06/05/2014	21:10:38.664	$GPGGA,211039,2422.4138,N,08122.3248,W,1,10,1.3,17,M,,M,,*61
06/05/2014	21:10:39.714	$GPGGA,211040,2422.4133,N,08122.3243,W,1,10,1.2,17,M,,M,,*6E
06/05/2014	21:10:40.740	$GPGGA,211041,2422.4128,N,08122.3239,W,1,10,1.3,17,M,,M,,*69
06/05/2014	21:10:41.748	$GPGGA,211042,2422.4123,N,08122.3236,W,1,10,1.3,17,M,,M,,*6E
06/05/2014	21:10:42.797	$GPGGA,211043,2422.4119,N,08122.3233,W,1,10,1.2,17,M,,M,,*62
06/05/2014	21:10:43.805	$GPGGA,211044,2422.4115,N,08122.3230,W,1,10,1.2,17,M,,M,,*6A
06/05/2014	21:10:44.833	$GPGGA,211045,2422.4110,N,08122.3227,W,1,11,1.2,17,M,,M,,*69
06/05/2014	21:10:45.851	$GPGGA,211046,2422.4105,N,08122.3224,W,1,11,1.3,17,M,,M,,*6C
06/05/2014	21:10:46.880	$GPGGA,211047,2422.4102,N,08122.3219,W,1,11,1.2,17,M,,M,,*65
06/05/2014	21:10:47.919	$GPGGA,211048,2422.4099,N,08122.3217,W,1,11,1.2,17,M,,M,,*67
06/05/2014	21:10:48.930	$GPGGA,211049,2422.4097,N,08122.3216,W,1,11,1.2,17,M,,M,,*69
06/05/2014	21:10:49.965	$GPGGA,211050,2422.4091,N,08122.3212,W,1,11,1.2,17,M,,M,,*63
06/05/2014	21:10:50.993	$GPGGA,211051,2422.4086,N,08122.3208,W,1,10,1.3,17,M,,M,,*6F
06/05/2014	21:10:52.022	$GPGGA,211052,2422.4081,N,08122.3205,W,1,10,1.3,17,M,,M,,*66
06/05/2014	21:10:53.040	$GPGGA,211053,2422.4076,N,08122.3201,W,1,10,1.3,17,M,,M,,*6B
06/05/2014	21:10:54.068	$GPGGA,211054,2422.4072,N,08122.3196,W,1,10,1.3,17,M,,M,,*65
06/05/2014	21:10:55.086	$GPGGA,211055,2422.4066,N,08122.3194,W,1,10,1.3,17,M,,M,,*63
06/05/2014	21:10:56.115	$GPGGA,211056,2422.4061,N,08122.3191,W,1,10,1.3,17,M,,M,,*62
06/05/2014	21:10:57.134	$GPGGA,211057,2422.4057,N,08122.3185,W,1,10,1.3,17,M,,M,,*63
06/05/2014	21:10:58.173	$GPGGA,211058,2422.4052,N,08122.3181,W,1,10,1.3,17,M,,M,,*6D
06/05/2014	21:10:59.209	$GPGGA,211059,2422.4047,N,08122.3179,W,1,10,1.3,17,M,,M,,*6F
06/05/2014	21:11:00.258	$GPGGA,211100,2422.4043,N,08122.3177,W,1,10,1.3,16,M,,M,,*69
06/05/2014	21:11:01.235	$GPGGA,211101,2422.4039,N,08122.3172,W,1,10,1.3,16,M,,M,,*60
06/05/2014	21:11:02.284	$GPGGA,211102,2422.4035,N,08122.3167,W,1,10,1.3,16,M,,M,,*6B
06/05/2014	21:11:03.292	$GPGGA,211103,2422.4030,N,08122.3165,W,1,10,1.3,16,M,,M,,*6D
06/05/2014	21:11:04.351	$GPGGA,211104,2422.4025,N,08122.3163,W,1,10,1.3,16,M,,M,,*68
06/05/2014	21:11:05.380	$GPGGA,211105,2422.4021,N,08122.3159,W,1,10,1.3,16,M,,M,,*64
06/05/2014	21:11:06.377	$GPGGA,211106,2422.4017,N,08122.3154,W,1,10,1.3,16,M,,M,,*6F
06/05/2014	21:11:07.416	$GPGGA,211107,2422.4014,N,08122.3152,W,1,10,1.3,16,M,,M,,*6B
06/05/2014	21:11:08.455	$GPGGA,211108,2422.4008,N,08122.3149,W,1,10,1.3,16,M,,M,,*63
06/05/2014	21:11:09.452	$GPGGA,211109,2422.4004,N,08122.3144,W,1,10,1.3,16,M,,M,,*63
06/05/2014	21:11:10.491	$GPGGA,211110,2422.4000,N,08122.3141,W,1,10,1.3,16,M,,M,,*6A
06/05/2014	21:11:11.509	$GPGGA,211111,2422.3996,N,08122.3139,W,1,10,1.3,16,M,,M,,*65
06/05/2014	21:11:12.548	$GPGGA,211112,2422.3992,N,08122.3134,W,1,10,1.3,16,M,,M,,*6F
06/05/2014	21:11:13.679	$GPGGA,211113,2422.3987,N,08122.3131,W,1,10,1.3,16,M,,M,,*6F
06/05/2014	21:11:14.687	$GPGGA,211114,2422.3985,N,08122.3129,W,1,10,1.3,16,M,,M,,*63
06/05/2014	21:11:15.633	$GPGGA,211115,2422.3980,N,08122.3126,W,1,11,1.2,16,M,,M,,*68
06/05/2014	21:11:16.650	$GPGGA,211116,2422.3975,N,08122.3121,W,1,11,1.3,15,M,,M,,*64
06/05/2014	21:11:17.761	$GPGGA,211117,2422.3971,N,08122.3118,W,1,10,1.3,15,M,,M,,*6A
06/05/2014	21:11:18.686	$GPGGA,211118,2422.3967,N,08122.3115,W,1,10,1.3,15,M,,M,,*6F
06/05/2014	21:11:19.725	$GPGGA,211119,2422.3962,N,08122.3111,W,1,10,1.3,15,M,,M,,*6F
06/05/2014	21:11:20.856	$GPGGA,211120,2422.3958,N,08122.3106,W,1,10,1.3,15,M,,M,,*6A
06/05/2014	21:11:21.895	$GPGGA,211121,2422.3954,N,08122.3103,W,1,10,1.3,15,M,,M,,*62
06/05/2014	21:11:22.892	$GPGGA,211122,2422.3950,N,08122.3100,W,1,10,1.2,15,M,,M,,*67
06/05/2014	21:11:23.962	$GPGGA,211123,2422.3946,N,08122.3096,W,1,10,1.3,15,M,,M,,*6E
06/05/2014	21:11:24.959	$GPGGA,211124,2422.3941,N,08122.3092,W,1,10,1.3,15,M,,M,,*6A
06/05/2014	21:11:25.967	$GPGGA,211125,2422.3936,N,08122.3089,W,1,10,1.3,15,M,,M,,*61
06/05/2014	21:11:26.996	$GPGGA,211126,2422.3933,N,08122.3086,W,1,10,1.3,15,M,,M,,*68
06/05/2014	21:11:28.024	$GPGGA,211127,2422.3932,N,08122.3083,W,1,11,1.2,15,M,,M,,*6D
06/05/2014	21:11:29.073	$GPGGA,211128,2422.3929,N,08122.3081,W,1,11,1.2,15,M,,M,,*6A
06/05/2014	21:11:30.091	$GPGGA,211129,2422.3924,N,08122.3077,W,1,11,1.2,15,M,,M,,*6F
06/05/2014	21:11:31.109	$GPGGA,211130,2422.3920,N,08122.3073,W,1,11,1.3,15,M,,M,,*66
06/05/2014	21:11:32.127	$GPGGA,211131,2422.3915,N,08122.3069,W,1,10,1.3,15,M,,M,,*6B
06/05/2014	21:11:33.166	$GPGGA,211132,2422.3910,N,08122.3065,W,1,10,1.3,15,M,,M,,*61
06/05/2014	21:11:34.214	$GPGGA,211133,2422.3906,N,08122.3060,W,1,10,1.3,15,M,,M,,*62
06/05/2014	21:11:35.222	$GPGGA,211134,2422.3902,N,08122.3056,W,1,10,1.3,15,M,,M,,*64
06/05/2014	21:11:36.230	$GPGGA,211135,2422.3898,N,08122.3054,W,1,10,1.3,15,M,,M,,*65
06/05/2014	21:11:35.577	$GPGGA,211136,2422.3893,N,08122.3051,W,1,10,1.2,15,M,,M,,*69
06/05/2014	21:11:36.605	$GPGGA,211137,2422.3891,N,08122.3047,W,1,10,1.3,15,M,,M,,*6C
06/05/2014	21:11:37.623	$GPGGA,211138,2422.3886,N,08122.3042,W,1,10,1.2,15,M,,M,,*61
06/05/2014	21:11:38.652	$GPGGA,211139,2422.3881,N,08122.3039,W,1,10,1.3,15,M,,M,,*6A
06/05/2014	21:11:39.680	$GPGGA,211140,2422.3876,N,08122.3035,W,1,10,1.2,15,M,,M,,*61
06/05/2014	21:11:40.719	$GPGGA,211141,2422.3871,N,08122.3031,W,1,10,1.3,15,M,,M,,*62
