Software Version Number: 1	Data File Format Number: 1	Build Version Number: 1	Error Count Since VI Started: 0	Manufacturer: Raytheon	 Model Number: RayMarine 120	 S/N: 	 Cal Date: 	 Wind Direction Offset: 0.00	 Slope (M)1: 0.00	 Offset (B)1: 0.00	 Slope (M)2: 0.00	 Offset (B)2: 0.00	 Slope (M)3: 0.00	 Offset (B)3: 0.00	 Slope (M)4: 0.00	 Offset (B)4: 0.00	 Slope (M)5: 0.00	 Offset (B)5: 0.00	 Slope (M)6: 0.00	 Offset (B)6: 0.00
Computer Date	Computer Time	GGA String
06/13/2014	18:00:00.656	$GPGGA,180010,2438.9285,N,08040.4939,W,1,9,1.7,21,M,,M,,*54
06/13/2014	18:00:01.692	$GPGGA,180011,2438.9281,N,08040.4949,W,1,9,1.7,21,M,,M,,*56
06/13/2014	18:00:02.668	$GPGGA,180012,2438.9275,N,08040.4957,W,1,9,1.7,21,M,,M,,*51
06/13/2014	18:00:03.664	$GPGGA,180013,2438.9275,N,08040.4957,W,1,9,1.7,21,M,,M,,*50
06/13/2014	18:00:04.690	$GPGGA,180014,2438.9270,N,08040.4973,W,1,9,1.7,21,M,,M,,*54
06/13/2014	18:00:05.685	$GPGGA,180015,2438.9270,N,08040.4973,W,1,9,1.7,21,M,,M,,*55
06/13/2014	18:00:06.792	$GPGGA,180016,2438.9263,N,08040.4989,W,1,9,1.7,21,M,,M,,*51
06/13/2014	18:00:07.778	$GPGGA,180017,2438.9258,N,08040.4997,W,1,9,1.7,21,M,,M,,*57
06/13/2014	18:00:08.784	$GPGGA,180018,2438.9254,N,08040.5005,W,1,9,1.7,21,M,,M,,*57
06/13/2014	18:00:09.801	$GPGGA,180019,2438.9251,N,08040.5014,W,1,9,1.7,21,M,,M,,*53
06/13/2014	18:00:10.817	$GPGGA,180020,2438.9249,N,08040.5022,W,1,9,1.7,21,M,,M,,*55
06/13/2014	18:00:11.843	$GPGGA,180021,2438.9245,N,08040.5029,W,1,9,1.7,21,M,,M,,*53
06/13/2014	18:00:12.809	$GPGGA,180022,2438.9239,N,08040.5036,W,1,9,1.7,21,M,,M,,*55
06/13/2014	18:00:13.855	$GPGGA,180023,2438.9236,N,08040.5044,W,1,9,1.7,21,M,,M,,*5E
06/13/2014	18:00:14.831	$GPGGA,180024,2438.9234,N,08040.5054,W,1,9,1.7,21,M,,M,,*5A
06/13/2014	18:00:15.847	$GPGGA,180025,2438.9234,N,08040.5054,W,1,9,1.7,21,M,,M,,*5B
06/13/2014	18:00:16.823	$GPGGA,180026,2438.9225,N,08040.5069,W,1,9,1.7,21,M,,M,,*56
06/13/2014	18:00:17.849	$GPGGA,180027,2438.9223,N,08040.5076,W,1,9,1.7,21,M,,M,,*5F
06/13/2014	18:00:18.835	$GPGGA,180028,2438.9220,N,08040.5085,W,1,9,1.7,21,M,,M,,*5F
06/13/2014	18:00:19.851	$GPGGA,180029,2438.9216,N,08040.5094,W,1,9,1.7,21,M,,M,,*5B
06/13/2014	18:00:20.837	$GPGGA,180030,2438.9212,N,08040.5101,W,1,9,1.7,21,M,,M,,*5A
06/13/2014	18:00:21.863	$GPGGA,180031,2438.9210,N,08040.5109,W,1,9,1.7,21,M,,M,,*51
06/13/2014	18:00:22.859	$GPGGA,180032,2438.9206,N,08040.5117,W,1,9,1.7,21,M,,M,,*5A
06/13/2014	18:00:23.875	$GPGGA,180033,2438.9203,N,08040.5126,W,1,9,1.7,21,M,,M,,*5C
06/13/2014	18:00:24.871	$GPGGA,180034,2438.9200,N,08040.5134,W,1,9,1.7,21,M,,M,,*5B
06/13/2014	18:00:25.877	$GPGGA,180035,2438.9196,N,08040.5141,W,1,9,1.7,21,M,,M,,*54
06/13/2014	18:00:26.873	$GPGGA,180036,2438.9194,N,08040.5149,W,1,9,1.7,21,M,,M,,*5D
06/13/2014	18:00:27.880	$GPGGA,180037,2438.9191,N,08040.5159,W,1,9,1.7,20,M,,M,,*59
06/13/2014	18:00:28.865	$GPGGA,180038,2438.9188,N,08040.5166,W,1,9,1.7,20,M,,M,,*52
06/13/2014	18:00:29.911	$GPGGA,180039,2438.9184,N,08040.5174,W,1,9,1.7,20,M,,M,,*5C
06/13/2014	18:00:30.897	$GPGGA,180040,2438.9182,N,08040.5184,W,1,9,1.7,20,M,,M,,*5B
06/13/2014	18:00:31.913	$GPGGA,180041,2438.9180,N,08040.5191,W,1,9,1.7,20,M,,M,,*5C
06/13/2014	18:00:32.879	$GPGGA,180042,2438.9175,N,08040.5199,W,1,9,1.7,20,M,,M,,*5D
06/13/2014	18:00:33.916	$GPGGA,180043,2438.9171,N,08040.5209,W,1,9,1.7,20,M,,M,,*52
06/13/2014	18:00:34.912	$GPGGA,180044,2438.9169,N,08040.5217,W,1,9,1.7,20,M,,M,,*53
06/13/2014	18:00:35.938	$GPGGA,180045,2438.9164,N,08040.5224,W,1,9,1.7,20,M,,M,,*5F
06/13/2014	18:00:36.904	$GPGGA,180046,2438.9162,N,08040.5232,W,1,9,1.7,20,M,,M,,*5D
06/13/2014	18:00:37.910	$GPGGA,180047,2438.9157,N,08040.5240,W,1,9,1.7,20,M,,M,,*5F
06/13/2014	18:00:38.562	$GPGGA,180048,2438.9155,N,08040.5249,W,1,9,1.7,20,M,,M,,*5B
06/13/2014	18:00:39.538	$GPGGA,180049,2438.9151,N,08040.5257,W,1,9,1.7,20,M,,M,,*51
06/13/2014	18:00:40.553	$GPGGA,180050,2438.9146,N,08040.5265,W,1,9,1.7,20,M,,M,,*5E
06/13/2014	18:00:41.697	$GPGGA,180051,2438.9144,N,08040.5275,W,1,9,1.7,20,M,,M,,*5C
06/13/2014	18:00:42.575	$GPGGA,180052,2438.9139,N,08040.5282,W,1,9,1.7,20,M,,M,,*5D
06/13/2014	18:00:43.662	$GPGGA,180053,2438.9135,N,08040.5290,W,1,9,1.7,20,M,,M,,*53
06/13/2014	18:00:44.577	$GPGGA,180054,2438.9133,N,08040.5300,W,1,9,1.7,20,M,,M,,*5A
06/13/2014	18:00:45.591	$GPGGA,180055,2438.9129,N,08040.5307,W,1,9,1.7,20,M,,M,,*57
06/13/2014	18:00:46.585	$GPGGA,180056,2438.9124,N,08040.5315,W,1,9,1.7,20,M,,M,,*5A
06/13/2014	18:00:47.588	$GPGGA,180057,2438.9122,N,08040.5325,W,1,9,1.7,20,M,,M,,*5E
06/13/2014	18:00:48.672	$GPGGA,180058,2438.9118,N,08040.5333,W,1,9,1.7,20,M,,M,,*5F
06/13/2014	18:00:49.586	$GPGGA,180059,2438.9115,N,08040.5340,W,1,9,1.7,20,M,,M,,*57
06/13/2014	18:00:50.600	$GPGGA,180100,2438.9109,N,08040.5347,W,1,9,1.7,20,M,,M,,*50
06/13/2014	18:00:51.674	$GPGGA,180101,2438.9106,N,08040.5355,W,1,9,1.7,20,M,,M,,*5D
06/13/2014	18:00:52.587	$GPGGA,180102,2438.9104,N,08040.5365,W,1,9,1.7,20,M,,M,,*5F
06/13/2014	18:00:53.712	$GPGGA,180103,2438.9098,N,08040.5372,W,1,8,3.1,20,M,,M,,*59
06/13/2014	18:00:54.595	$GPGGA,180104,2438.9092,N,08040.5379,W,1,8,1.7,20,M,,M,,*5B
06/13/2014	18:00:55.679	$GPGGA,180105,2438.9090,N,08040.5387,W,1,9,1.7,20,M,,M,,*58
06/13/2014	18:00:56.582	$GPGGA,180106,2438.9087,N,08040.5397,W,1,9,1.7,20,M,,M,,*5C
06/13/2014	18:00:57.595	$GPGGA,180107,2438.9084,N,08040.5404,W,1,9,1.7,20,M,,M,,*53
06/13/2014	18:00:58.689	$GPGGA,180108,2438.9080,N,08040.5410,W,1,9,1.7,20,M,,M,,*5D
06/13/2014	18:00:59.713	$GPGGA,180109,2438.9079,N,08040.5419,W,1,9,1.7,20,M,,M,,*53
06/13/2014	18:01:00.697	$GPGGA,180110,2438.9076,N,08040.5428,W,1,9,2.0,20,M,,M,,*52
06/13/2014	18:01:01.691	$GPGGA,180111,2438.9072,N,08040.5435,W,1,9,1.7,20,M,,M,,*5F
06/13/2014	18:01:02.705	$GPGGA,180112,2438.9068,N,08040.5444,W,1,9,1.7,20,M,,M,,*51
06/13/2014	18:01:03.718	$GPGGA,180113,2438.9066,N,08040.5452,W,1,9,1.7,20,M,,M,,*59
06/13/2014	18:01:04.692	$GPGGA,180114,2438.9064,N,08040.5460,W,1,9,1.7,20,M,,M,,*5D
06/13/2014	18:01:05.706	$GPGGA,180115,2438.9061,N,08040.5467,W,1,9,1.7,20,M,,M,,*5E
06/13/2014	18:01:06.710	$GPGGA,180116,2438.9057,N,08040.5474,W,1,9,1.7,20,M,,M,,*5A
06/13/2014	18:01:07.724	$GPGGA,180117,2438.9054,N,08040.5482,W,1,9,1.7,20,M,,M,,*51
06/13/2014	18:01:08.700	$GPGGA,180118,2438.9050,N,08040.5491,W,1,9,1.7,20,M,,M,,*58
06/13/2014	18:01:09.723	$GPGGA,180119,2438.9046,N,08040.5499,W,1,9,1.7,20,M,,M,,*56
06/13/2014	18:01:10.725	$GPGGA,180120,2438.9043,N,08040.5507,W,1,9,1.7,20,M,,M,,*5F
06/13/2014	18:01:11.729	$GPGGA,180121,2438.9040,N,08040.5516,W,1,9,1.7,20,M,,M,,*5D
06/13/2014	18:01:12.702	$GPGGA,180122,2438.9036,N,08040.5524,W,1,9,1.7,20,M,,M,,*5E
06/13/2014	18:01:13.746	$GPGGA,180123,2438.9033,N,08040.5531,W,1,9,1.7,20,M,,M,,*5E
06/13/2014	18:01:14.730	$GPGGA,180124,2438.9032,N,08040.5538,W,1,9,1.7,20,M,,M,,*51
06/13/2014	18:01:15.713	$GPGGA,180125,2438.9028,N,08040.5547,W,1,9,1.7,20,M,,M,,*53
06/13/2014	18:01:16.717	$GPGGA,180126,2438.9025,N,08040.5556,W,1,9,1.7,20,M,,M,,*5D
06/13/2014	18:01:17.751	$GPGGA,180127,2438.9021,N,08040.5564,W,1,9,1.7,20,M,,M,,*59
06/13/2014	18:01:18.724	$GPGGA,180128,2438.9018,N,08040.5574,W,1,9,1.7,20,M,,M,,*5D
06/13/2014	18:01:19.718	$GPGGA,180129,2438.9014,N,08040.5582,W,1,9,1.7,20,M,,M,,*59
06/13/2014	18:01:20.722	$GPGGA,180130,2438.9011,N,08040.5590,W,1,9,1.7,20,M,,M,,*57
06/13/2014	18:01:21.747	$GPGGA,180131,2438.9008,N,08040.5598,W,1,9,1.7,20,M,,M,,*56
06/13/2014	18:01:22.753	$GPGGA,180132,2438.9005,N,08040.5605,W,1,9,1.7,20,M,,M,,*5F
06/13/2014	18:01:23.763	$GPGGA,180133,2438.9003,N,08040.5614,W,1,9,1.7,20,M,,M,,*58
06/13/2014	18:01:24.727	$GPGGA,180134,2438.8997,N,08040.5622,W,1,9,1.7,20,M,,M,,*5F
06/13/2014	18:01:25.731	$GPGGA,180135,2438.8994,N,08040.5632,W,1,9,1.7,20,M,,M,,*5C
06/13/2014	18:01:26.855	$GPGGA,180136,2438.8992,N,08040.5641,W,1,9,2.0,20,M,,M,,*59
06/13/2014	18:01:27.760	$GPGGA,180137,2438.8987,N,08040.5650,W,1,9,1.7,20,M,,M,,*58
06/13/2014	18:01:28.742	$GPGGA,180138,2438.8985,N,08040.5659,W,1,9,1.7,20,M,,M,,*5C
06/13/2014	18:01:29.746	$GPGGA,180139,2438.8981,N,08040.5668,W,1,9,1.7,20,M,,M,,*5B
06/13/2014	18:01:30.760	$GPGGA,180140,2438.8978,N,08040.5676,W,1,9,1.7,20,M,,M,,*5C
06/13/2014	18:01:31.744	$GPGGA,180141,2438.8974,N,08040.5686,W,1,9,1.7,20,M,,M,,*5E
06/13/2014	18:01:32.857	$GPGGA,180142,2438.8970,N,08040.5694,W,1,9,1.7,20,M,,M,,*5A
06/13/2014	18:01:33.881	$GPGGA,180143,2438.8967,N,08040.5701,W,1,9,1.7,20,M,,M,,*50
06/13/2014	18:01:34.764	$GPGGA,180144,2438.8963,N,08040.5710,W,1,9,1.7,20,M,,M,,*53
06/13/2014	18:01:35.838	$GPGGA,180145,2438.8960,N,08040.5719,W,1,9,1.7,20,M,,M,,*58
06/13/2014	18:01:36.741	$GPGGA,180146,2438.8957,N,08040.5726,W,1,9,1.7,20,M,,M,,*53
06/13/2014	18:01:37.755	$GPGGA,180147,2438.8952,N,08040.5734,W,1,9,1.7,20,M,,M,,*54
06/13/2014	18:01:38.628	$GPGGA,180148,2438.8949,N,08040.5742,W,1,9,1.7,20,M,,M,,*50
06/13/2014	18:01:39.612	$GPGGA,180149,2438.8946,N,08040.5751,W,1,9,1.7,20,M,,M,,*5C
06/13/2014	18:01:40.525	$GPGGA,180150,2438.8943,N,08040.5759,W,1,9,1.7,20,M,,M,,*59
06/13/2014	18:01:41.519	$GPGGA,180151,2438.8939,N,08040.5767,W,1,9,1.7,20,M,,M,,*58
06/13/2014	18:01:42.623	$GPGGA,180152,2438.8936,N,08040.5777,W,1,9,1.7,20,M,,M,,*55
06/13/2014	18:01:43.627	$GPGGA,180153,2438.8934,N,08040.5784,W,1,9,1.7,20,M,,M,,*5A
06/13/2014	18:01:44.621	$GPGGA,180154,2438.8929,N,08040.5793,W,1,9,1.7,20,M,,M,,*57
06/13/2014	18:01:45.624	$GPGGA,180155,2438.8925,N,08040.5802,W,1,9,1.7,20,M,,M,,*5D
06/13/2014	18:01:46.639	$GPGGA,180156,2438.8922,N,08040.5809,W,1,9,1.7,20,M,,M,,*52
06/13/2014	18:01:47.642	$GPGGA,180157,2438.8920,N,08040.5816,W,1,9,1.7,20,M,,M,,*5F
06/13/2014	18:01:48.626	$GPGGA,180158,2438.8916,N,08040.5824,W,1,9,1.6,20,M,,M,,*55
06/13/2014	18:01:49.630	$GPGGA,180159,2438.8913,N,08040.5832,W,1,10,1.6,20,M,,M,,*6E
06/13/2014	18:01:50.652	$GPGGA,180200,2438.8910,N,08040.5840,W,1,10,1.6,20,M,,M,,*67
06/13/2014	18:01:51.646	$GPGGA,180201,2438.8905,N,08040.5849,W,1,10,1.6,20,M,,M,,*6B
06/13/2014	18:01:52.640	$GPGGA,180202,2438.8900,N,08040.5857,W,1,10,1.6,20,M,,M,,*62
06/13/2014	18:01:53.654	$GPGGA,180203,2438.8898,N,08040.5865,W,1,10,1.6,20,M,,M,,*62
06/13/2014	18:01:54.648	$GPGGA,180204,2438.8895,N,08040.5872,W,1,10,1.6,20,M,,M,,*6E
06/13/2014	18:01:55.661	$GPGGA,180205,2438.8891,N,08040.5878,W,1,10,1.6,20,M,,M,,*61
06/13/2014	18:01:56.647	$GPGGA,180206,2438.8888,N,08040.5886,W,1,10,1.6,20,M,,M,,*6B
06/13/2014	18:01:57.659	$GPGGA,180207,2438.8885,N,08040.5894,W,1,10,1.6,20,M,,M,,*64
06/13/2014	18:01:58.654	$GPGGA,180208,2438.8881,N,08040.5903,W,1,10,1.6,20,M,,M,,*60
06/13/2014	18:01:59.657	$GPGGA,180209,2438.8876,N,08040.5910,W,1,10,1.6,20,M,,M,,*6B
06/13/2014	18:02:00.651	$GPGGA,180210,2438.8873,N,08040.5918,W,1,10,1.6,20,M,,M,,*6E
06/13/2014	18:02:01.644	$GPGGA,180211,2438.8871,N,08040.5928,W,1,10,1.6,20,M,,M,,*6E
06/13/2014	18:02:02.658	$GPGGA,180212,2438.8868,N,08040.5934,W,1,10,1.6,20,M,,M,,*68
06/13/2014	18:02:03.682	$GPGGA,180213,2438.8864,N,08040.5940,W,1,10,1.6,20,M,,M,,*66
06/13/2014	18:02:04.655	$GPGGA,180214,2438.8862,N,08040.5950,W,1,10,1.6,20,M,,M,,*66
06/13/2014	18:02:05.689	$GPGGA,180215,2438.8857,N,08040.5957,W,1,10,1.6,20,M,,M,,*66
06/13/2014	18:02:06.663	$GPGGA,180216,2438.8853,N,08040.5965,W,1,10,1.6,20,M,,M,,*60
06/13/2014	18:02:07.656	$GPGGA,180217,2438.8848,N,08040.5973,W,1,10,1.6,20,M,,M,,*6C
06/13/2014	18:02:08.750	$GPGGA,180218,2438.8846,N,08040.5983,W,1,10,1.6,20,M,,M,,*62
06/13/2014	18:02:09.663	$GPGGA,180219,2438.8844,N,08040.5990,W,1,10,1.6,20,M,,M,,*63
06/13/2014	18:02:10.677	$GPGGA,180220,2438.8840,N,08040.5997,W,1,10,2.8,20,M,,M,,*67
06/13/2014	18:02:11.671	$GPGGA,180221,2438.8837,N,08040.6004,W,1,10,1.6,20,M,,M,,*6B
06/13/2014	18:02:12.655	$GPGGA,180222,2438.8834,N,08040.6013,W,1,10,1.6,20,M,,M,,*6D
06/13/2014	18:02:13.699	$GPGGA,180223,2438.8830,N,08040.6022,W,1,10,1.6,20,M,,M,,*6A
06/13/2014	18:02:14.692	$GPGGA,180224,2438.8824,N,08040.6030,W,1,10,1.6,20,M,,M,,*6B
06/13/2014	18:02:15.777	$GPGGA,180225,2438.8820,N,08040.6037,W,1,10,1.6,20,M,,M,,*69
06/13/2014	18:02:16.670	$GPGGA,180226,2438.8819,N,08040.6046,W,1,10,1.6,20,M,,M,,*66
06/13/2014	18:02:17.774	$GPGGA,180227,2438.8815,N,08040.6053,W,1,10,1.6,20,M,,M,,*6F
06/13/2014	18:02:18.688	$GPGGA,180228,2438.8811,N,08040.6060,W,1,10,1.6,20,M,,M,,*64
06/13/2014	18:02:19.782	$GPGGA,180229,2438.8809,N,08040.6069,W,1,10,1.6,20,M,,M,,*65
06/13/2014	18:02:20.675	$GPGGA,180230,2438.8805,N,08040.6077,W,1,10,1.6,20,M,,M,,*6E
06/13/2014	18:02:21.689	$GPGGA,180231,2438.8801,N,08040.6085,W,1,10,1.6,20,M,,M,,*66
06/13/2014	18:02:22.783	$GPGGA,180232,2438.8798,N,08040.6095,W,1,10,1.6,20,M,,M,,*6B
06/13/2014	18:02:23.698	$GPGGA,180233,2438.8794,N,08040.6102,W,1,10,1.6,19,M,,M,,*63
06/13/2014	18:02:24.782	$GPGGA,180234,2438.8791,N,08040.6110,W,1,10,1.6,19,M,,M,,*62
06/13/2014	18:02:25.693	$GPGGA,180235,2438.8788,N,08040.6117,W,1,10,1.6,19,M,,M,,*6C
06/13/2014	18:02:26.797	$GPGGA,180236,2438.8786,N,08040.6125,W,1,10,1.6,19,M,,M,,*60
06/13/2014	18:02:27.691	$GPGGA,180237,2438.8783,N,08040.6134,W,1,10,1.6,19,M,,M,,*64
06/13/2014	18:02:28.785	$GPGGA,180238,2438.8780,N,08040.6142,W,1,10,1.6,19,M,,M,,*69
06/13/2014	18:02:29.810	$GPGGA,180239,2438.8775,N,08040.6150,W,1,10,1.6,19,M,,M,,*61
06/13/2014	18:02:30.802	$GPGGA,180240,2438.8772,N,08040.6160,W,1,10,1.6,19,M,,M,,*6B
06/13/2014	18:02:31.796	$GPGGA,180241,2438.8770,N,08040.6168,W,1,9,1.7,19,M,,M,,*59
06/13/2014	18:02:32.790	$GPGGA,180242,2438.8768,N,08040.6174,W,1,9,1.6,19,M,,M,,*5F
06/13/2014	18:02:33.814	$GPGGA,180243,2438.8762,N,08040.6181,W,1,10,1.6,19,M,,M,,*66
06/13/2014	18:02:34.818	$GPGGA,180244,2438.8761,N,08040.6190,W,1,10,1.6,19,M,,M,,*62
06/13/2014	18:02:35.821	$GPGGA,180245,2438.8759,N,08040.6199,W,1,10,1.6,19,M,,M,,*61
06/13/2014	18:02:36.805	$GPGGA,180246,2438.8754,N,08040.6206,W,1,10,1.6,19,M,,M,,*6A
06/13/2014	18:02:37.819	$GPGGA,180247,2438.8751,N,08040.6214,W,1,10,1.6,19,M,,M,,*6D
06/13/2014	18:02:38.596	$GPGGA,180248,2438.8750,N,08040.6223,W,1,10,1.6,19,M,,M,,*67
06/13/2014	18:02:39.610	$GPGGA,180249,2438.8746,N,08040.6232,W,1,10,1.6,19,M,,M,,*61
06/13/2014	18:02:40.583	$GPGGA,180250,2438.8743,N,08040.6239,W,1,10,1.6,19,M,,M,,*67
06/13/2014	18:02:41.607	$GPGGA,180251,2438.8741,N,08040.6246,W,1,10,1.6,19,M,,M,,*6C
06/13/2014	18:02:42.600	$GPGGA,180252,2438.8738,N,08040.6254,W,1,10,1.6,19,M,,M,,*62
06/13/2014	18:02:43.604	$GPGGA,180253,2438.8736,N,08040.6262,W,1,10,1.6,19,M,,M,,*68
06/13/2014	18:02:44.577	$GPGGA,180254,2438.8732,N,08040.6270,W,1,10,1.6,19,M,,M,,*68
06/13/2014	18:02:45.600	$GPGGA,180255,2438.8728,N,08040.6279,W,1,10,1.6,19,M,,M,,*6B
06/13/2014	18:02:46.599	$GPGGA,180256,2438.8725,N,08040.6287,W,1,10,1.6,19,M,,M,,*64
06/13/2014	18:02:47.629	$GPGGA,180257,2438.8722,N,08040.6294,W,1,10,1.6,19,M,,M,,*60
06/13/2014	18:02:48.604	$GPGGA,180258,2438.8719,N,08040.6302,W,1,10,1.6,19,M,,M,,*69
06/13/2014	18:02:49.627	$GPGGA,180259,2438.8715,N,08040.6311,W,1,9,2.8,19,M,,M,,*53
06/13/2014	18:02:50.630	$GPGGA,180300,2438.8711,N,08040.6319,W,1,9,1.6,19,M,,M,,*5F
06/13/2014	18:02:51.624	$GPGGA,180301,2438.8707,N,08040.6326,W,1,10,1.6,19,M,,M,,*6D
06/13/2014	18:02:52.598	$GPGGA,180302,2438.8705,N,08040.6335,W,1,10,1.6,19,M,,M,,*6E
06/13/2014	18:02:53.642	$GPGGA,180303,2438.8701,N,08040.6344,W,1,10,1.6,19,M,,M,,*6D
06/13/2014	18:02:54.636	$GPGGA,180304,2438.8698,N,08040.6351,W,1,10,1.6,19,M,,M,,*6F
06/13/2014	18:02:55.629	$GPGGA,180305,2438.8694,N,08040.6359,W,1,10,1.6,19,M,,M,,*6A
06/13/2014	18:02:56.613	$GPGGA,180306,2438.8692,N,08040.6367,W,1,10,1.6,19,M,,M,,*62
06/13/2014	18:02:57.617	$GPGGA,180307,2438.8689,N,08040.6376,W,1,10,1.6,19,M,,M,,*69
06/13/2014	18:02:58.743	$GPGGA,180308,2438.8685,N,08040.6384,W,1,10,1.6,19,M,,M,,*67
06/13/2014	18:02:59.624	$GPGGA,180309,2438.8681,N,08040.6391,W,1,10,1.6,19,M,,M,,*66
06/13/2014	18:03:00.707	$GPGGA,180310,2438.8679,N,08040.6400,W,1,10,1.6,19,M,,M,,*66
06/13/2014	18:03:01.756	$GPGGA,180311,2438.8675,N,08040.6409,W,1,10,1.6,19,M,,M,,*62
06/13/2014	18:03:02.735	$GPGGA,180312,2438.8671,N,08040.6416,W,1,10,1.6,19,M,,M,,*6B
06/13/2014	18:03:03.639	$GPGGA,180313,2438.8668,N,08040.6424,W,1,10,1.6,19,M,,M,,*63
06/13/2014	18:03:04.622	$GPGGA,180314,2438.8667,N,08040.6432,W,1,10,1.6,19,M,,M,,*6C
06/13/2014	18:03:05.747	$GPGGA,180315,2438.8663,N,08040.6441,W,1,10,1.6,19,M,,M,,*6D
06/13/2014	18:03:06.640	$GPGGA,180316,2438.8658,N,08040.6449,W,1,10,1.6,19,M,,M,,*6E
06/13/2014	18:03:07.614	$GPGGA,180317,2438.8656,N,08040.6459,W,1,10,1.6,19,M,,M,,*60
06/13/2014	18:03:08.718	$GPGGA,180318,2438.8653,N,08040.6467,W,1,10,1.6,19,M,,M,,*67
06/13/2014	18:03:09.742	$GPGGA,180319,2438.8649,N,08040.6474,W,1,10,1.6,19,M,,M,,*6F
06/13/2014	18:03:10.645	$GPGGA,180320,2438.8645,N,08040.6482,W,1,10,1.6,19,M,,M,,*60
06/13/2014	18:03:11.739	$GPGGA,180321,2438.8643,N,08040.6492,W,1,10,1.6,19,M,,M,,*66
06/13/2014	18:03:12.633	$GPGGA,180322,2438.8639,N,08040.6499,W,1,10,1.6,19,M,,M,,*63
06/13/2014	18:03:13.767	$GPGGA,180323,2438.8635,N,08040.6507,W,1,10,1.6,19,M,,M,,*68
06/13/2014	18:03:14.761	$GPGGA,180324,2438.8632,N,08040.6514,W,1,10,1.6,19,M,,M,,*6A
06/13/2014	18:03:15.764	$GPGGA,180325,2438.8628,N,08040.6524,W,1,10,1.6,19,M,,M,,*63
06/13/2014	18:03:16.738	$GPGGA,180326,2438.8625,N,08040.6532,W,1,10,1.6,19,M,,M,,*6A
06/13/2014	18:03:17.761	$GPGGA,180327,2438.8622,N,08040.6540,W,1,10,1.7,19,M,,M,,*68
06/13/2014	18:03:18.755	$GPGGA,180328,2438.8620,N,08040.6547,W,1,10,1.6,19,M,,M,,*63
06/13/2014	18:03:19.759	$GPGGA,180329,2438.8615,N,08040.6554,W,1,10,1.6,19,M,,M,,*66
06/13/2014	18:03:20.752	$GPGGA,180330,2438.8613,N,08040.6561,W,1,10,1.6,19,M,,M,,*6E
06/13/2014	18:03:21.766	$GPGGA,180331,2438.8609,N,08040.6569,W,1,10,1.6,19,M,,M,,*6C
06/13/2014	18:03:22.760	$GPGGA,180332,2438.8605,N,08040.6577,W,1,10,1.6,19,M,,M,,*6C
06/13/2014	18:03:23.745	$GPGGA,180333,2438.8602,N,08040.6584,W,1,10,1.6,19,M,,M,,*66
06/13/2014	18:03:24.758	$GPGGA,180334,2438.8596,N,08040.6593,W,1,10,1.6,19,M,,M,,*69
06/13/2014	18:03:25.791	$GPGGA,180335,2438.8595,N,08040.6601,W,1,10,1.6,19,M,,M,,*63
06/13/2014	18:03:26.775	$GPGGA,180336,2438.8591,N,08040.6608,W,1,10,1.6,19,M,,M,,*6D
06/13/2014	18:03:27.790	$GPGGA,180337,2438.8587,N,08040.6615,W,1,10,1.6,19,M,,M,,*67
06/13/2014	18:03:28.754	$GPGGA,180338,2438.8584,N,08040.6623,W,1,10,1.6,19,M,,M,,*6E
06/13/2014	18:03:29.797	$GPGGA,180339,2438.8581,N,08040.6633,W,1,10,1.6,19,M,,M,,*6B
06/13/2014	18:03:30.780	$GPGGA,180340,2438.8577,N,08040.6640,W,1,10,1.6,19,M,,M,,*68
06/13/2014	18:03:31.764	$GPGGA,180341,2438.8571,N,08040.6648,W,1,10,1.6,19,M,,M,,*67
06/13/2014	18:03:32.768	$GPGGA,180342,2438.8570,N,08040.6656,W,1,10,1.6,19,M,,M,,*6A
06/13/2014	18:03:33.802	$GPGGA,180343,2438.8568,N,08040.6665,W,1,10,1.6,19,M,,M,,*62
06/13/2014	18:03:34.780	$GPGGA,180344,2438.8564,N,08040.6673,W,1,10,1.6,19,M,,M,,*6E
06/13/2014	18:03:35.798	$GPGGA,180345,2438.8560,N,08040.6680,W,1,10,1.6,19,M,,M,,*67
06/13/2014	18:03:36.782	$GPGGA,180346,2438.8559,N,08040.6689,W,1,10,1.6,19,M,,M,,*67
06/13/2014	18:03:37.791	$GPGGA,180347,2438.8555,N,08040.6698,W,1,10,1.6,19,M,,M,,*6A
06/13/2014	18:03:38.584	$GPGGA,180348,2438.8551,N,08040.6705,W,1,10,1.6,19,M,,M,,*64
06/13/2014	18:03:39.547	$GPGGA,180349,2438.8548,N,08040.6714,W,1,10,1.6,19,M,,M,,*6D
06/13/2014	18:03:40.672	$GPGGA,180350,2438.8546,N,08040.6723,W,1,10,1.6,19,M,,M,,*6F
06/13/2014	18:03:41.578	$GPGGA,180351,2438.8544,N,08040.6731,W,1,10,1.6,19,M,,M,,*6F
06/13/2014	18:03:42.584	$GPGGA,180352,2438.8539,N,08040.6738,W,1,10,1.6,19,M,,M,,*6F
06/13/2014	18:03:43.573	$GPGGA,180353,2438.8537,N,08040.6748,W,1,10,1.6,19,M,,M,,*67
06/13/2014	18:03:44.577	$GPGGA,180354,2438.8534,N,08040.6756,W,1,10,1.6,19,M,,M,,*6C
06/13/2014	18:03:45.681	$GPGGA,180355,2438.8531,N,08040.6766,W,1,10,1.6,19,M,,M,,*6B
06/13/2014	18:03:46.574	$GPGGA,180356,2438.8527,N,08040.6774,W,1,10,1.6,19,M,,M,,*6C
06/13/2014	18:03:47.588	$GPGGA,180357,2438.8523,N,08040.6782,W,1,10,1.6,19,M,,M,,*60
06/13/2014	18:03:48.572	$GPGGA,180358,2438.8521,N,08040.6792,W,1,10,1.6,19,M,,M,,*6C
06/13/2014	18:03:49.696	$GPGGA,180359,2438.8517,N,08040.6800,W,1,10,1.6,19,M,,M,,*6C
06/13/2014	18:03:50.702	$GPGGA,180400,2438.8514,N,08040.6808,W,1,10,1.6,19,M,,M,,*6C
06/13/2014	18:03:51.583	$GPGGA,180401,2438.8512,N,08040.6817,W,1,10,1.6,19,M,,M,,*65
06/13/2014	18:03:52.666	$GPGGA,180402,2438.8509,N,08040.6825,W,1,10,1.6,19,M,,M,,*6D
06/13/2014	18:03:53.700	$GPGGA,180403,2438.8505,N,08040.6833,W,1,10,1.6,19,M,,M,,*67
06/13/2014	18:03:54.694	$GPGGA,180404,2438.8501,N,08040.6842,W,1,10,1.6,19,M,,M,,*62
06/13/2014	18:03:55.667	$GPGGA,180405,2438.8498,N,08040.6851,W,1,10,1.6,19,M,,M,,*60
06/13/2014	18:03:56.681	$GPGGA,180406,2438.8495,N,08040.6860,W,1,10,1.6,19,M,,M,,*6C
06/13/2014	18:03:57.685	$GPGGA,180407,2438.8492,N,08040.6868,W,1,10,1.6,19,M,,M,,*62
06/13/2014	18:03:58.689	$GPGGA,180408,2438.8490,N,08040.6875,W,1,10,1.6,19,M,,M,,*63
06/13/2014	18:03:59.683	$GPGGA,180409,2438.8486,N,08040.6883,W,1,10,1.6,19,M,,M,,*6C
06/13/2014	18:04:00.696	$GPGGA,180410,2438.8483,N,08040.6893,W,1,10,1.6,19,M,,M,,*60
06/13/2014	18:04:01.710	$GPGGA,180411,2438.8479,N,08040.6901,W,1,10,1.6,19,M,,M,,*6E
06/13/2014	18:04:02.684	$GPGGA,180412,2438.8474,N,08040.6911,W,1,10,1.6,19,M,,M,,*61
06/13/2014	18:04:03.708	$GPGGA,180413,2438.8472,N,08040.6919,W,1,10,1.6,19,M,,M,,*6E
06/13/2014	18:04:04.682	$GPGGA,180414,2438.8469,N,08040.6929,W,1,10,1.6,19,M,,M,,*60
06/13/2014	18:04:05.705	$GPGGA,180415,2438.8465,N,08040.6934,W,1,10,1.6,19,M,,M,,*61
06/13/2014	18:04:06.710	$GPGGA,180416,2438.8461,N,08040.6943,W,1,10,1.6,19,M,,M,,*66
06/13/2014	18:04:07.713	$GPGGA,180417,2438.8457,N,08040.6951,W,1,10,1.6,19,M,,M,,*61
06/13/2014	18:04:08.697	$GPGGA,180418,2438.8454,N,08040.6959,W,1,10,1.6,19,M,,M,,*65
06/13/2014	18:04:09.711	$GPGGA,180419,2438.8449,N,08040.6967,W,1,10,1.6,19,M,,M,,*65
06/13/2014	18:04:10.703	$GPGGA,180420,2438.8447,N,08040.6976,W,1,10,1.6,19,M,,M,,*61
06/13/2014	18:04:13.072	$GPGGA,180422,2438.8439,N,08040.6991,W,1,10,1.6,19,M,,M,,*63
06/13/2014	18:04:13.695	$GPGGA,180423,2438.8436,N,08040.6999,W,1,10,1.6,19,M,,M,,*65
06/13/2014	18:04:14.719	$GPGGA,180424,2438.8433,N,08040.7008,W,1,10,1.6,18,M,,M,,*66
06/13/2014	18:04:15.722	$GPGGA,180425,2438.8429,N,08040.7016,W,1,10,1.6,18,M,,M,,*63
06/13/2014	18:04:16.718	$GPGGA,180426,2438.8425,N,08040.7023,W,1,10,1.6,18,M,,M,,*6A
06/13/2014	18:04:17.730	$GPGGA,180427,2438.8422,N,08040.7032,W,1,10,1.6,18,M,,M,,*6C
06/13/2014	18:04:18.714	$GPGGA,180428,2438.8418,N,08040.7041,W,1,10,1.6,18,M,,M,,*6E
06/13/2014	18:04:19.738	$GPGGA,180429,2438.8415,N,08040.7048,W,1,10,1.6,18,M,,M,,*6B
06/13/2014	18:04:20.711	$GPGGA,180430,2438.8411,N,08040.7056,W,1,10,1.6,18,M,,M,,*68
06/13/2014	18:04:21.715	$GPGGA,180431,2438.8407,N,08040.7066,W,1,10,1.6,18,M,,M,,*6D
06/13/2014	18:04:22.739	$GPGGA,180432,2438.8404,N,08040.7074,W,1,10,1.6,18,M,,M,,*6E
06/13/2014	18:04:23.723	$GPGGA,180433,2438.8401,N,08040.7081,W,1,10,1.6,18,M,,M,,*60
06/13/2014	18:04:24.716	$GPGGA,180434,2438.8397,N,08040.7090,W,1,10,1.6,18,M,,M,,*6F
06/13/2014	18:04:25.721	$GPGGA,180435,2438.8394,N,08040.7099,W,1,10,1.6,18,M,,M,,*64
06/13/2014	18:04:26.854	$GPGGA,180436,2438.8391,N,08040.7108,W,1,10,1.6,18,M,,M,,*6B
06/13/2014	18:04:27.849	$GPGGA,180437,2438.8387,N,08040.7117,W,1,10,1.6,18,M,,M,,*63
06/13/2014	18:04:28.722	$GPGGA,180438,2438.8383,N,08040.7124,W,1,10,1.6,18,M,,M,,*68
06/13/2014	18:04:29.744	$GPGGA,180439,2438.8380,N,08040.7133,W,1,10,1.6,18,M,,M,,*6C
06/13/2014	18:04:30.738	$GPGGA,180440,2438.8378,N,08040.7142,W,1,10,1.6,18,M,,M,,*63
06/13/2014	18:04:31.742	$GPGGA,180441,2438.8373,N,08040.7150,W,1,10,1.6,18,M,,M,,*6A
06/13/2014	18:04:32.727	$GPGGA,180442,2438.8369,N,08040.7158,W,1,10,1.6,18,M,,M,,*6A
06/13/2014	18:04:33.740	$GPGGA,180443,2438.8367,N,08040.7168,W,1,10,1.6,18,M,,M,,*66
06/13/2014	18:04:34.753	$GPGGA,180444,2438.8362,N,08040.7176,W,1,10,1.6,18,M,,M,,*6B
06/13/2014	18:04:35.747	$GPGGA,180445,2438.8358,N,08040.7184,W,1,10,1.6,18,M,,M,,*6E
06/13/2014	18:04:36.831	$GPGGA,180446,2438.8355,N,08040.7193,W,1,10,1.6,18,M,,M,,*66
06/13/2014	18:04:37.875	$GPGGA,180447,2438.8353,N,08040.7201,W,1,10,1.6,18,M,,M,,*69
06/13/2014	18:04:38.532	$GPGGA,180448,2438.8349,N,08040.7209,W,1,10,1.6,17,M,,M,,*6A
06/13/2014	18:04:39.515	$GPGGA,180449,2438.8346,N,08040.7218,W,1,10,1.6,17,M,,M,,*64
06/13/2014	18:04:40.609	$GPGGA,180450,2438.8342,N,08040.7226,W,1,10,1.6,17,M,,M,,*65
06/13/2014	18:04:41.523	$GPGGA,180451,2438.8339,N,08040.7236,W,1,10,1.6,17,M,,M,,*69
06/13/2014	18:04:42.537	$GPGGA,180452,2438.8335,N,08040.7244,W,1,10,1.6,17,M,,M,,*63
06/13/2014	18:04:43.621	$GPGGA,180453,2438.8331,N,08040.7251,W,1,10,1.6,17,M,,M,,*62
06/13/2014	18:04:44.615	$GPGGA,180454,2438.8327,N,08040.7259,W,1,10,1.6,17,M,,M,,*6A
06/13/2014	18:04:45.617	$GPGGA,180455,2438.8325,N,08040.7269,W,1,10,1.6,17,M,,M,,*6A
06/13/2014	18:04:46.641	$GPGGA,180456,2438.8322,N,08040.7276,W,1,10,1.6,17,M,,M,,*60
06/13/2014	18:04:47.655	$GPGGA,180457,2438.8318,N,08040.7285,W,1,10,1.6,17,M,,M,,*64
06/13/2014	18:04:48.629	$GPGGA,180458,2438.8313,N,08040.7294,W,1,10,1.6,17,M,,M,,*60
06/13/2014	18:04:49.633	$GPGGA,180459,2438.8310,N,08040.7302,W,1,10,1.6,17,M,,M,,*6C
06/13/2014	18:04:50.656	$GPGGA,180500,2438.8307,N,08040.7310,W,1,10,1.6,17,M,,M,,*64
06/13/2014	18:04:51.630	$GPGGA,180501,2438.8303,N,08040.7317,W,1,10,1.6,17,M,,M,,*66
06/13/2014	18:04:52.634	$GPGGA,180502,2438.8300,N,08040.7326,W,1,10,1.6,17,M,,M,,*64
06/13/2014	18:04:53.658	$GPGGA,180503,2438.8297,N,08040.7334,W,1,10,1.6,17,M,,M,,*69
06/13/2014	18:04:54.652	$GPGGA,180504,2438.8293,N,08040.7342,W,1,10,1.6,17,M,,M,,*6B
06/13/2014	18:04:55.665	$GPGGA,180505,2438.8290,N,08040.7352,W,1,10,1.6,17,M,,M,,*68
06/13/2014	18:04:56.642	$GPGGA,180506,2438.8286,N,08040.7360,W,1,10,1.6,17,M,,M,,*6D
06/13/2014	18:04:57.683	$GPGGA,180507,2438.8282,N,08040.7368,W,1,9,1.7,17,M,,M,,*59
06/13/2014	18:04:58.650	$GPGGA,180508,2438.8279,N,08040.7377,W,1,9,1.6,17,M,,M,,*5D
06/13/2014	18:04:59.671	$GPGGA,180509,2438.8277,N,08040.7384,W,1,10,1.6,17,M,,M,,*66
06/13/2014	18:05:00.654	$GPGGA,180510,2438.8273,N,08040.7392,W,1,10,1.6,17,M,,M,,*6D
06/13/2014	18:05:01.653	$GPGGA,180511,2438.8270,N,08040.7399,W,1,10,1.6,17,M,,M,,*64
06/13/2014	18:05:02.671	$GPGGA,180512,2438.8266,N,08040.7407,W,1,10,1.6,17,M,,M,,*60
06/13/2014	18:05:03.645	$GPGGA,180513,2438.8262,N,08040.7415,W,1,10,1.6,17,M,,M,,*66
06/13/2014	18:05:04.658	$GPGGA,180514,2438.8259,N,08040.7424,W,1,10,1.6,17,M,,M,,*6B
06/13/2014	18:05:05.682	$GPGGA,180515,2438.8256,N,08040.7431,W,1,10,1.6,17,M,,M,,*61
06/13/2014	18:05:06.678	$GPGGA,180516,2438.8253,N,08040.7439,W,1,10,1.6,17,M,,M,,*6F
06/13/2014	18:05:07.685	$GPGGA,180517,2438.8250,N,08040.7446,W,1,10,1.6,17,M,,M,,*65
06/13/2014	18:05:08.676	$GPGGA,180518,2438.8248,N,08040.7454,W,1,10,1.6,17,M,,M,,*60
06/13/2014	18:05:09.667	$GPGGA,180519,2438.8243,N,08040.7464,W,1,10,1.6,17,M,,M,,*69
06/13/2014	18:05:10.701	$GPGGA,180520,2438.8241,N,08040.7472,W,1,10,1.6,17,M,,M,,*66
06/13/2014	18:05:11.655	$GPGGA,180521,2438.8237,N,08040.7480,W,1,10,1.6,17,M,,M,,*6B
06/13/2014	18:05:12.679	$GPGGA,180522,2438.8234,N,08040.7489,W,1,10,1.6,17,M,,M,,*62
06/13/2014	18:05:13.683	$GPGGA,180523,2438.8231,N,08040.7496,W,1,10,1.6,17,M,,M,,*68
06/13/2014	18:05:14.686	$GPGGA,180524,2438.8227,N,08040.7504,W,1,10,1.6,17,M,,M,,*62
06/13/2014	18:05:15.670	$GPGGA,180525,2438.8224,N,08040.7511,W,1,10,1.6,17,M,,M,,*64
06/13/2014	18:05:16.684	$GPGGA,180526,2438.8221,N,08040.7520,W,1,10,1.6,17,M,,M,,*60
06/13/2014	18:05:17.698	$GPGGA,180527,2438.8219,N,08040.7529,W,1,10,1.6,17,M,,M,,*63
06/13/2014	18:05:18.702	$GPGGA,180528,2438.8214,N,08040.7537,W,1,10,1.6,17,M,,M,,*6E
06/13/2014	18:05:19.676	$GPGGA,180529,2438.8212,N,08040.7545,W,1,10,1.6,17,M,,M,,*6C
06/13/2014	18:05:20.688	$GPGGA,180530,2438.8208,N,08040.7554,W,1,10,1.6,17,M,,M,,*6F
06/13/2014	18:05:21.802	$GPGGA,180531,2438.8205,N,08040.7562,W,1,10,1.6,17,M,,M,,*66
06/13/2014	18:05:22.686	$GPGGA,180532,2438.8201,N,08040.7569,W,1,10,1.6,17,M,,M,,*6A
06/13/2014	18:05:23.800	$GPGGA,180533,2438.8198,N,08040.7577,W,1,10,1.6,17,M,,M,,*67
06/13/2014	18:05:24.784	$GPGGA,180534,2438.8196,N,08040.7587,W,1,10,1.6,17,M,,M,,*61
06/13/2014	18:05:25.828	$GPGGA,180535,2438.8192,N,08040.7594,W,1,10,1.6,17,M,,M,,*66
06/13/2014	18:05:26.801	$GPGGA,180536,2438.8188,N,08040.7602,W,1,10,1.6,17,M,,M,,*62
06/13/2014	18:05:27.815	$GPGGA,180537,2438.8185,N,08040.7610,W,1,10,1.6,17,M,,M,,*6D
06/13/2014	18:05:28.698	$GPGGA,180538,2438.8183,N,08040.7619,W,1,10,1.6,17,M,,M,,*6D
06/13/2014	18:05:29.833	$GPGGA,180539,2438.8180,N,08040.7627,W,1,10,1.6,17,M,,M,,*62
06/13/2014	18:05:30.837	$GPGGA,180540,2438.8177,N,08040.7634,W,1,10,1.6,17,M,,M,,*66
06/13/2014	18:05:31.820	$GPGGA,180541,2438.8174,N,08040.7641,W,1,10,1.6,17,M,,M,,*66
06/13/2014	18:05:32.804	$GPGGA,180542,2438.8172,N,08040.7649,W,1,10,1.6,17,M,,M,,*6B
06/13/2014	18:05:33.818	$GPGGA,180543,2438.8168,N,08040.7659,W,1,10,1.6,17,M,,M,,*60
06/13/2014	18:05:34.822	$GPGGA,180544,2438.8165,N,08040.7666,W,1,10,1.6,17,M,,M,,*66
06/13/2014	18:05:35.815	$GPGGA,180545,2438.8162,N,08040.7673,W,1,10,1.6,17,M,,M,,*64
06/13/2014	18:05:36.809	$GPGGA,180546,2438.8161,N,08040.7681,W,1,10,1.6,17,M,,M,,*69
06/13/2014	18:05:37.822	$GPGGA,180547,2438.8158,N,08040.7689,W,1,10,1.6,17,M,,M,,*6A
06/13/2014	18:05:38.590	$GPGGA,180548,2438.8154,N,08040.7697,W,1,10,1.6,17,M,,M,,*66
06/13/2014	18:05:39.604	$GPGGA,180549,2438.8150,N,08040.7706,W,1,10,1.6,17,M,,M,,*6A
06/13/2014	18:05:40.578	$GPGGA,180550,2438.8147,N,08040.7714,W,1,10,1.6,17,M,,M,,*67
06/13/2014	18:05:41.611	$GPGGA,180551,2438.8144,N,08040.7722,W,1,10,1.6,17,M,,M,,*60
06/13/2014	18:05:42.595	$GPGGA,180552,2438.8141,N,08040.7731,W,1,10,1.6,17,M,,M,,*64
06/13/2014	18:05:43.609	$GPGGA,180553,2438.8138,N,08040.7739,W,1,10,1.6,17,M,,M,,*63
06/13/2014	18:05:44.592	$GPGGA,180554,2438.8136,N,08040.7746,W,1,10,1.6,17,M,,M,,*62
06/13/2014	18:05:45.585	$GPGGA,180555,2438.8132,N,08040.7754,W,1,10,1.6,17,M,,M,,*64
06/13/2014	18:05:46.608	$GPGGA,180556,2438.8129,N,08040.7762,W,1,10,1.6,17,M,,M,,*68
06/13/2014	18:05:47.621	$GPGGA,180557,2438.8126,N,08040.7771,W,1,10,1.6,17,M,,M,,*64
06/13/2014	18:05:48.594	$GPGGA,180558,2438.8122,N,08040.7779,W,1,10,1.6,17,M,,M,,*67
06/13/2014	18:05:49.627	$GPGGA,180559,2438.8119,N,08040.7787,W,1,10,1.6,16,M,,M,,*6E
06/13/2014	18:05:50.620	$GPGGA,180600,2438.8116,N,08040.7796,W,1,10,1.6,16,M,,M,,*6E
06/13/2014	18:05:51.633	$GPGGA,180601,2438.8114,N,08040.7804,W,1,10,1.6,16,M,,M,,*69
06/13/2014	18:05:52.621	$GPGGA,180602,2438.8109,N,08040.7812,W,1,10,1.6,16,M,,M,,*61
06/13/2014	18:05:53.590	$GPGGA,180603,2438.8107,N,08040.7821,W,1,10,1.6,16,M,,M,,*6E
06/13/2014	18:05:54.624	$GPGGA,180604,2438.8104,N,08040.7829,W,1,10,1.7,16,M,,M,,*63
06/13/2014	18:05:55.594	$GPGGA,180605,2438.8100,N,08040.7839,W,1,9,1.7,16,M,,M,,*5F
06/13/2014	18:05:56.607	$GPGGA,180606,2438.8096,N,08040.7845,W,1,9,1.7,16,M,,M,,*59
06/13/2014	18:05:57.600	$GPGGA,180607,2438.8092,N,08040.7854,W,1,10,1.6,16,M,,M,,*65
06/13/2014	18:05:58.613	$GPGGA,180608,2438.8090,N,08040.7862,W,1,10,1.6,16,M,,M,,*6D
06/13/2014	18:05:59.617	$GPGGA,180609,2438.8086,N,08040.7870,W,1,10,1.6,16,M,,M,,*68
06/13/2014	18:06:00.599	$GPGGA,180610,2438.8082,N,08040.7877,W,1,10,1.6,16,M,,M,,*63
06/13/2014	18:06:01.753	$GPGGA,180611,2438.8080,N,08040.7887,W,1,10,1.6,16,M,,M,,*6F
06/13/2014	18:06:02.635	$GPGGA,180612,2438.8078,N,08040.7894,W,1,10,1.6,16,M,,M,,*69
06/13/2014	18:06:03.628	$GPGGA,180613,2438.8074,N,08040.7901,W,1,10,1.6,16,M,,M,,*69
06/13/2014	18:06:04.601	$GPGGA,180614,2438.8069,N,08040.7910,W,1,10,1.6,16,M,,M,,*62
06/13/2014	18:06:05.736	$GPGGA,180615,2438.8067,N,08040.7919,W,1,10,1.6,15,M,,M,,*67
06/13/2014	18:06:06.617	$GPGGA,180616,2438.8064,N,08040.7927,W,1,10,1.6,15,M,,M,,*6A
06/13/2014	18:06:07.620	$GPGGA,180617,2438.8061,N,08040.7934,W,1,10,1.6,15,M,,M,,*6C
06/13/2014	18:06:08.703	$GPGGA,180618,2438.8058,N,08040.7942,W,1,10,1.6,15,M,,M,,*68
06/13/2014	18:06:09.787	$GPGGA,180619,2438.8056,N,08040.7951,W,1,10,1.6,15,M,,M,,*65
06/13/2014	18:06:10.619	$GPGGA,180620,2438.8053,N,08040.7959,W,1,10,1.6,15,M,,M,,*62
06/13/2014	18:06:11.764	$GPGGA,180621,2438.8050,N,08040.7966,W,1,10,1.6,15,M,,M,,*6C
06/13/2014	18:06:12.714	$GPGGA,180622,2438.8047,N,08040.7974,W,1,10,1.6,15,M,,M,,*6A
06/13/2014	18:06:13.758	$GPGGA,180623,2438.8043,N,08040.7982,W,1,10,1.6,15,M,,M,,*66
06/13/2014	18:06:14.801	$GPGGA,180624,2438.8042,N,08040.7991,W,1,10,1.6,15,M,,M,,*62
06/13/2014	18:06:15.764	$GPGGA,180625,2438.8039,N,08040.7999,W,1,10,1.6,15,M,,M,,*67
06/13/2014	18:06:16.706	$GPGGA,180626,2438.8036,N,08040.8006,W,1,10,1.6,15,M,,M,,*6B
06/13/2014	18:06:17.759	$GPGGA,180627,2438.8033,N,08040.8013,W,1,10,1.6,15,M,,M,,*6B
06/13/2014	18:06:18.803	$GPGGA,180628,2438.8031,N,08040.8020,W,1,10,1.6,15,M,,M,,*66
06/13/2014	18:06:19.765	$GPGGA,180629,2438.8029,N,08040.8029,W,1,10,1.6,15,M,,M,,*67
06/13/2014	18:06:20.718	$GPGGA,180630,2438.8026,N,08040.8038,W,1,10,1.6,15,M,,M,,*60
06/13/2014	18:06:21.761	$GPGGA,180631,2438.8022,N,08040.8046,W,1,10,1.6,15,M,,M,,*6C
06/13/2014	18:06:22.744	$GPGGA,180632,2438.8020,N,08040.8053,W,1,10,1.6,15,M,,M,,*69
06/13/2014	18:06:23.757	$GPGGA,180633,2438.8018,N,08040.8060,W,1,10,1.6,15,M,,M,,*63
06/13/2014	18:06:24.793	$GPGGA,180634,2438.8017,N,08040.8068,W,1,10,1.6,15,M,,M,,*63
06/13/2014	18:06:25.763	$GPGGA,180635,2438.8013,N,08040.8075,W,1,10,1.6,15,M,,M,,*6A
06/13/2014	18:06:26.807	$GPGGA,180636,2438.8008,N,08040.8082,W,1,10,1.6,15,M,,M,,*6B
06/13/2014	18:06:27.769	$GPGGA,180637,2438.8006,N,08040.8090,W,1,10,1.6,15,M,,M,,*67
06/13/2014	18:06:28.722	$GPGGA,180638,2438.8003,N,08040.8100,W,1,10,1.6,15,M,,M,,*65
06/13/2014	18:06:29.775	$GPGGA,180639,2438.8000,N,08040.8107,W,1,10,1.6,15,M,,M,,*60
06/13/2014	18:06:30.787	$GPGGA,180640,2438.7996,N,08040.8114,W,1,10,1.6,15,M,,M,,*65
06/13/2014	18:06:31.770	$GPGGA,180641,2438.7995,N,08040.8121,W,1,10,1.6,15,M,,M,,*61
06/13/2014	18:06:32.783	$GPGGA,180642,2438.7992,N,08040.8129,W,1,10,1.6,15,M,,M,,*6D
06/13/2014	18:06:33.728	$GPGGA,180643,2438.7989,N,08040.8137,W,1,10,1.6,15,M,,M,,*69
06/13/2014	18:06:34.799	$GPGGA,180644,2438.7985,N,08040.8144,W,1,10,1.6,15,M,,M,,*66
06/13/2014	18:06:35.782	$GPGGA,180645,2438.7982,N,08040.8154,W,1,10,1.6,15,M,,M,,*61
06/13/2014	18:06:36.726	$GPGGA,180646,2438.7980,N,08040.8162,W,1,10,1.6,15,M,,M,,*65
06/13/2014	18:06:37.728	$GPGGA,180647,2438.7978,N,08040.8169,W,1,10,1.6,15,M,,M,,*68
06/13/2014	18:06:38.628	$GPGGA,180648,2438.7975,N,08040.8176,W,1,10,1.6,15,M,,M,,*64
06/13/2014	18:06:39.601	$GPGGA,180649,2438.7972,N,08040.8183,W,1,10,1.6,15,M,,M,,*68
06/13/2014	18:06:40.604	$GPGGA,180650,2438.7970,N,08040.8190,W,1,10,1.6,15,M,,M,,*60
06/13/2014	18:06:41.587	$GPGGA,180651,2438.7967,N,08040.8197,W,1,10,1.6,15,M,,M,,*60
06/13/2014	18:06:42.620	$GPGGA,180652,2438.7964,N,08040.8205,W,1,10,1.6,15,M,,M,,*68
06/13/2014	18:06:43.593	$GPGGA,180653,2438.7961,N,08040.8213,W,1,10,1.6,15,M,,M,,*6B
06/13/2014	18:06:44.616	$GPGGA,180654,2438.7959,N,08040.8220,W,1,10,1.6,15,M,,M,,*67
06/13/2014	18:06:45.599	$GPGGA,180655,2438.7956,N,08040.8228,W,1,10,1.7,15,M,,M,,*60
06/13/2014	18:06:46.632	$GPGGA,180656,2438.7952,N,08040.8235,W,1,10,1.6,15,M,,M,,*6A
06/13/2014	18:06:47.674	$GPGGA,180657,2438.7950,N,08040.8242,W,1,10,1.6,15,M,,M,,*69
06/13/2014	18:06:48.607	$GPGGA,180658,2438.7948,N,08040.8249,W,1,10,1.6,15,M,,M,,*64
06/13/2014	18:06:49.670	$GPGGA,180659,2438.7944,N,08040.8256,W,1,10,1.6,15,M,,M,,*67
06/13/2014	18:06:50.643	$GPGGA,180700,2438.7941,N,08040.8263,W,1,10,1.6,15,M,,M,,*69
06/13/2014	18:06:51.616	$GPGGA,180701,2438.7938,N,08040.8270,W,1,10,1.6,15,M,,M,,*64
06/13/2014	18:06:52.659	$GPGGA,180702,2438.7935,N,08040.8277,W,1,10,1.6,15,M,,M,,*6D
06/13/2014	18:06:53.552	$GPGGA,180703,2438.7932,N,08040.8285,W,1,10,1.6,15,M,,M,,*66
06/13/2014	18:06:54.675	$GPGGA,180704,2438.7930,N,08040.8293,W,1,10,1.6,15,M,,M,,*64
06/13/2014	18:06:55.618	$GPGGA,180705,2438.7926,N,08040.8300,W,1,10,1.7,15,M,,M,,*68
06/13/2014	18:06:56.661	$GPGGA,180706,2438.7923,N,08040.8309,W,1,10,1.6,15,M,,M,,*66
06/13/2014	18:06:57.664	$GPGGA,180707,2438.7921,N,08040.8316,W,1,10,1.6,15,M,,M,,*6B
06/13/2014	18:06:58.647	$GPGGA,180708,2438.7919,N,08040.8324,W,1,10,1.6,15,M,,M,,*6E
06/13/2014	18:06:59.671	$GPGGA,180709,2438.7913,N,08040.8331,W,1,10,1.6,15,M,,M,,*61
06/13/2014	18:07:00.625	$GPGGA,180710,2438.7912,N,08040.8339,W,1,10,1.6,15,M,,M,,*60
06/13/2014	18:07:01.677	$GPGGA,180711,2438.7909,N,08040.8349,W,1,10,1.7,15,M,,M,,*6D
06/13/2014	18:07:02.689	$GPGGA,180712,2438.7906,N,08040.8357,W,1,10,1.6,15,M,,M,,*6F
06/13/2014	18:07:03.702	$GPGGA,180713,2438.7902,N,08040.8365,W,1,10,1.6,15,M,,M,,*6B
06/13/2014	18:07:04.665	$GPGGA,180714,2438.7901,N,08040.8374,W,1,10,1.6,15,M,,M,,*6F
06/13/2014	18:07:05.677	$GPGGA,180715,2438.7898,N,08040.8382,W,1,10,1.6,15,M,,M,,*66
06/13/2014	18:07:06.690	$GPGGA,180716,2438.7894,N,08040.8389,W,1,10,1.6,15,M,,M,,*62
06/13/2014	18:07:07.694	$GPGGA,180717,2438.7892,N,08040.8397,W,1,10,1.6,15,M,,M,,*6A
06/13/2014	18:07:08.676	$GPGGA,180718,2438.7890,N,08040.8404,W,1,10,1.6,14,M,,M,,*6B
06/13/2014	18:07:09.699	$GPGGA,180719,2438.7887,N,08040.8411,W,1,10,1.6,14,M,,M,,*68
06/13/2014	18:07:10.732	$GPGGA,180720,2438.7887,N,08040.8411,W,1,10,1.6,14,M,,M,,*62
06/13/2014	18:07:11.695	$GPGGA,180721,2438.7880,N,08040.8426,W,1,10,1.6,14,M,,M,,*60
06/13/2014	18:07:12.688	$GPGGA,180722,2438.7878,N,08040.8434,W,1,10,1.6,14,M,,M,,*67
06/13/2014	18:07:13.701	$GPGGA,180723,2438.7878,N,08040.8434,W,1,10,1.6,14,M,,M,,*66
06/13/2014	18:07:14.684	$GPGGA,180724,2438.7876,N,08040.8443,W,1,10,1.6,14,M,,M,,*6F
06/13/2014	18:07:15.687	$GPGGA,180725,2438.7869,N,08040.8457,W,1,10,1.6,14,M,,M,,*65
06/13/2014	18:07:16.690	$GPGGA,180726,2438.7867,N,08040.8465,W,1,10,1.6,14,M,,M,,*69
06/13/2014	18:07:17.693	$GPGGA,180727,2438.7865,N,08040.8472,W,1,10,1.6,14,M,,M,,*6C
06/13/2014	18:07:18.706	$GPGGA,180728,2438.7862,N,08040.8480,W,1,10,1.6,14,M,,M,,*69
06/13/2014	18:07:19.709	$GPGGA,180729,2438.7859,N,08040.8488,W,1,10,1.6,14,M,,M,,*68
06/13/2014	18:07:20.693	$GPGGA,180730,2438.7858,N,08040.8497,W,1,10,1.6,14,M,,M,,*6F
06/13/2014	18:07:21.715	$GPGGA,180731,2438.7854,N,08040.8504,W,1,10,1.6,14,M,,M,,*69
06/13/2014	18:07:22.747	$GPGGA,180732,2438.7850,N,08040.8512,W,1,10,1.6,14,M,,M,,*69
06/13/2014	18:07:23.690	$GPGGA,180733,2438.7848,N,08040.8519,W,1,10,1.6,14,M,,M,,*6A
06/13/2014	18:07:24.713	$GPGGA,180734,2438.7845,N,08040.8526,W,1,10,1.6,14,M,,M,,*6C
06/13/2014	18:07:25.827	$GPGGA,180735,2438.7842,N,08040.8534,W,1,10,1.6,14,M,,M,,*69
06/13/2014	18:07:26.729	$GPGGA,180736,2438.7840,N,08040.8542,W,1,10,1.6,14,M,,M,,*69
06/13/2014	18:07:27.722	$GPGGA,180737,2438.7837,N,08040.8551,W,1,10,1.6,14,M,,M,,*6A
06/13/2014	18:07:28.716	$GPGGA,180738,2438.7833,N,08040.8559,W,1,10,1.6,14,M,,M,,*69
06/13/2014	18:07:29.688	$GPGGA,180739,2438.7831,N,08040.8566,W,1,10,1.6,14,M,,M,,*66
06/13/2014	18:07:30.822	$GPGGA,180740,2438.7829,N,08040.8574,W,1,10,1.6,14,M,,M,,*62
06/13/2014	18:07:31.694	$GPGGA,180741,2438.7825,N,08040.8582,W,1,10,1.6,14,M,,M,,*66
06/13/2014	18:07:32.697	$GPGGA,180742,2438.7822,N,08040.8591,W,1,10,1.6,14,M,,M,,*60
06/13/2014	18:07:33.720	$GPGGA,180743,2438.7822,N,08040.8591,W,1,10,1.6,14,M,,M,,*61
06/13/2014	18:07:34.753	$GPGGA,180744,2438.7816,N,08040.8606,W,1,10,1.6,14,M,,M,,*6C
06/13/2014	18:07:35.686	$GPGGA,180745,2438.7813,N,08040.8613,W,1,10,1.6,14,M,,M,,*6C
06/13/2014	18:07:36.709	$GPGGA,180746,2438.7811,N,08040.8623,W,1,10,1.6,14,M,,M,,*6E
06/13/2014	18:07:37.792	$GPGGA,180747,2438.7808,N,08040.8629,W,1,10,1.6,14,M,,M,,*6D
06/13/2014	18:07:38.547	$GPGGA,180748,2438.7808,N,08040.8629,W,1,10,1.6,14,M,,M,,*62
06/13/2014	18:07:39.619	$GPGGA,180749,2438.7801,N,08040.8645,W,1,10,1.6,14,M,,M,,*60
06/13/2014	18:07:40.532	$GPGGA,180750,2438.7800,N,08040.8654,W,1,10,1.6,14,M,,M,,*69
06/13/2014	18:07:41.615	$GPGGA,180751,2438.7796,N,08040.8663,W,1,10,1.6,14,M,,M,,*6C
06/13/2014	18:07:42.638	$GPGGA,180752,2438.7793,N,08040.8670,W,1,10,1.6,14,M,,M,,*68
06/13/2014	18:07:43.641	$GPGGA,180753,2438.7791,N,08040.8678,W,1,10,1.6,14,M,,M,,*63
06/13/2014	18:07:44.614	$GPGGA,180754,2438.7790,N,08040.8686,W,1,10,1.6,14,M,,M,,*64
06/13/2014	18:07:45.647	$GPGGA,180755,2438.7787,N,08040.8693,W,1,10,1.6,14,M,,M,,*67
06/13/2014	18:07:46.630	$GPGGA,180756,2438.7782,N,08040.8701,W,1,10,1.6,14,M,,M,,*6B
06/13/2014	18:07:47.623	$GPGGA,180757,2438.7780,N,08040.8710,W,1,10,1.6,14,M,,M,,*68
06/13/2014	18:07:48.626	$GPGGA,180758,2438.7778,N,08040.8718,W,1,10,1.6,14,M,,M,,*68
06/13/2014	18:07:49.639	$GPGGA,180759,2438.7775,N,08040.8726,W,1,10,1.6,14,M,,M,,*69
06/13/2014	18:07:50.652	$GPGGA,180800,2438.7771,N,08040.8732,W,1,10,1.6,14,M,,M,,*6B
06/13/2014	18:07:51.655	$GPGGA,180801,2438.7769,N,08040.8739,W,1,9,1.7,14,M,,M,,*51
06/13/2014	18:07:52.618	$GPGGA,180802,2438.7767,N,08040.8747,W,1,9,1.6,14,M,,M,,*54
06/13/2014	18:07:53.651	$GPGGA,180803,2438.7764,N,08040.8755,W,1,10,1.6,14,M,,M,,*6D
06/13/2014	18:07:54.634	$GPGGA,180804,2438.7760,N,08040.8762,W,1,10,1.7,14,M,,M,,*6B
06/13/2014	18:07:55.657	$GPGGA,180805,2438.7757,N,08040.8772,W,1,10,1.6,14,M,,M,,*6E
06/13/2014	18:07:56.630	$GPGGA,180806,2438.7755,N,08040.8779,W,1,10,1.6,14,M,,M,,*64
06/13/2014	18:07:57.652	$GPGGA,180807,2438.7753,N,08040.8787,W,1,10,1.6,14,M,,M,,*62
06/13/2014	18:07:58.645	$GPGGA,180808,2438.7748,N,08040.8793,W,1,10,1.7,14,M,,M,,*63
06/13/2014	18:07:59.658	$GPGGA,180809,2438.7746,N,08040.8801,W,1,10,1.6,14,M,,M,,*69
06/13/2014	18:08:00.631	$GPGGA,180810,2438.7743,N,08040.8809,W,1,10,1.6,14,M,,M,,*6C
06/13/2014	18:08:01.644	$GPGGA,180811,2438.7739,N,08040.8816,W,1,10,1.6,14,M,,M,,*6E
06/13/2014	18:08:02.657	$GPGGA,180812,2438.7735,N,08040.8824,W,1,10,1.6,14,M,,M,,*60
06/13/2014	18:08:03.630	$GPGGA,180813,2438.7733,N,08040.8831,W,1,10,1.6,14,M,,M,,*63
06/13/2014	18:08:04.647	$GPGGA,180814,2438.7730,N,08040.8838,W,1,10,1.6,14,M,,M,,*6E
06/13/2014	18:08:05.640	$GPGGA,180815,2438.7728,N,08040.8848,W,1,10,1.6,14,M,,M,,*61
06/13/2014	18:08:06.659	$GPGGA,180816,2438.7725,N,08040.8855,W,1,10,1.6,14,M,,M,,*63
06/13/2014	18:08:07.662	$GPGGA,180817,2438.7721,N,08040.8862,W,1,9,1.7,14,M,,M,,*5B
06/13/2014	18:08:08.648	$GPGGA,180818,2438.7717,N,08040.8869,W,1,9,1.6,14,M,,M,,*5B
06/13/2014	18:08:09.668	$GPGGA,180819,2438.7714,N,08040.8876,W,1,10,1.6,14,M,,M,,*6F
06/13/2014	18:08:10.661	$GPGGA,180820,2438.7711,N,08040.8884,W,1,10,1.6,14,M,,M,,*6D
06/13/2014	18:08:11.674	$GPGGA,180821,2438.7708,N,08040.8891,W,1,10,1.6,14,M,,M,,*60
06/13/2014	18:08:12.648	$GPGGA,180822,2438.7706,N,08040.8898,W,1,10,1.6,14,M,,M,,*64
06/13/2014	18:08:13.650	$GPGGA,180823,2438.7702,N,08040.8906,W,1,10,1.6,15,M,,M,,*66
06/13/2014	18:08:14.774	$GPGGA,180824,2438.7699,N,08040.8913,W,1,10,1.6,15,M,,M,,*66
06/13/2014	18:08:15.665	$GPGGA,180825,2438.7696,N,08040.8921,W,1,10,1.6,15,M,,M,,*69
06/13/2014	18:08:16.638	$GPGGA,180826,2438.7693,N,08040.8931,W,1,10,1.6,15,M,,M,,*6E
06/13/2014	18:08:17.661	$GPGGA,180827,2438.7689,N,08040.8938,W,1,10,1.6,15,M,,M,,*6D
06/13/2014	18:08:18.664	$GPGGA,180828,2438.7688,N,08040.8945,W,1,10,1.6,15,M,,M,,*69
06/13/2014	18:08:19.668	$GPGGA,180829,2438.7684,N,08040.8952,W,1,10,1.6,15,M,,M,,*62
06/13/2014	18:08:20.661	$GPGGA,180830,2438.7681,N,08040.8960,W,1,10,1.6,15,M,,M,,*6E
06/13/2014	18:08:21.673	$GPGGA,180831,2438.7677,N,08040.8967,W,1,10,1.6,15,M,,M,,*61
06/13/2014	18:08:22.756	$GPGGA,180832,2438.7674,N,08040.8975,W,1,10,1.6,15,M,,M,,*62
06/13/2014	18:08:23.669	$GPGGA,180833,2438.7671,N,08040.8983,W,1,10,1.6,15,M,,M,,*6F
06/13/2014	18:08:24.662	$GPGGA,180834,2438.7668,N,08040.8990,W,1,10,1.6,15,M,,M,,*62
06/13/2014	18:08:25.665	$GPGGA,180835,2438.7665,N,08040.8999,W,1,10,1.6,15,M,,M,,*67
06/13/2014	18:08:26.769	$GPGGA,180836,2438.7663,N,08040.9007,W,1,10,1.6,15,M,,M,,*6D
06/13/2014	18:08:27.751	$GPGGA,180837,2438.7659,N,08040.9014,W,1,10,1.6,15,M,,M,,*67
06/13/2014	18:08:28.674	$GPGGA,180838,2438.7654,N,08040.9021,W,1,10,1.6,15,M,,M,,*63
06/13/2014	18:08:29.787	$GPGGA,180839,2438.7652,N,08040.9029,W,1,10,1.6,15,M,,M,,*6C
06/13/2014	18:08:30.680	$GPGGA,180840,2438.7650,N,08040.9037,W,1,10,1.6,15,M,,M,,*6F
06/13/2014	18:08:31.753	$GPGGA,180841,2438.7648,N,08040.9044,W,1,9,1.7,15,M,,M,,*5A
06/13/2014	18:08:32.755	$GPGGA,180842,2438.7645,N,08040.9051,W,1,9,1.6,15,M,,M,,*51
06/13/2014	18:08:33.778	$GPGGA,180843,2438.7641,N,08040.9059,W,1,10,1.6,15,M,,M,,*64
06/13/2014	18:08:34.781	$GPGGA,180844,2438.7639,N,08040.9069,W,1,10,1.6,15,M,,M,,*6F
06/13/2014	18:08:35.775	$GPGGA,180845,2438.7636,N,08040.9075,W,1,9,1.7,15,M,,M,,*55
06/13/2014	18:08:36.777	$GPGGA,180846,2438.7634,N,08040.9082,W,1,9,1.6,15,M,,M,,*5D
06/13/2014	18:08:37.780	$GPGGA,180847,2438.7630,N,08040.9089,W,1,10,1.6,15,M,,M,,*6B
06/13/2014	18:08:38.605	$GPGGA,180848,2438.7628,N,08040.9097,W,1,10,1.6,15,M,,M,,*62
06/13/2014	18:08:39.608	$GPGGA,180849,2438.7625,N,08040.9104,W,1,10,1.6,15,M,,M,,*65
06/13/2014	18:08:40.581	$GPGGA,180850,2438.7621,N,08040.9112,W,1,10,1.6,15,M,,M,,*6E
06/13/2014	18:08:41.614	$GPGGA,180851,2438.7619,N,08040.9120,W,1,10,1.6,15,M,,M,,*65
06/13/2014	18:08:42.608	$GPGGA,180852,2438.7616,N,08040.9129,W,1,10,1.6,15,M,,M,,*60
06/13/2014	18:08:43.590	$GPGGA,180853,2438.7613,N,08040.9137,W,1,10,1.6,15,M,,M,,*6B
06/13/2014	18:08:44.613	$GPGGA,180854,2438.7612,N,08040.9144,W,1,10,1.6,15,M,,M,,*69
06/13/2014	18:08:45.616	$GPGGA,180855,2438.7608,N,08040.9152,W,1,10,1.6,15,M,,M,,*64
06/13/2014	18:08:46.619	$GPGGA,180856,2438.7605,N,08040.9160,W,1,10,1.6,16,M,,M,,*68
06/13/2014	18:08:47.612	$GPGGA,180857,2438.7602,N,08040.9167,W,1,10,1.6,16,M,,M,,*69
06/13/2014	18:08:48.596	$GPGGA,180858,2438.7599,N,08040.9176,W,1,10,1.6,16,M,,M,,*67
06/13/2014	18:08:49.587	$GPGGA,180859,2438.7596,N,08040.9184,W,1,10,1.6,16,M,,M,,*64
06/13/2014	18:08:50.620	$GPGGA,180900,2438.7594,N,08040.9192,W,1,10,1.6,16,M,,M,,*6C
06/13/2014	18:08:51.605	$GPGGA,180901,2438.7591,N,08040.9202,W,1,10,1.6,16,M,,M,,*62
06/13/2014	18:08:52.606	$GPGGA,180902,2438.7587,N,08040.9209,W,1,10,1.6,16,M,,M,,*6D
06/13/2014	18:08:53.604	$GPGGA,180903,2438.7584,N,08040.9217,W,1,10,1.6,16,M,,M,,*60
06/13/2014	18:08:54.602	$GPGGA,180904,2438.7583,N,08040.9225,W,1,10,1.6,16,M,,M,,*61
06/13/2014	18:08:55.595	$GPGGA,180905,2438.7579,N,08040.9232,W,1,10,1.6,16,M,,M,,*63
06/13/2014	18:08:56.608	$GPGGA,180906,2438.7576,N,08040.9239,W,1,10,1.6,15,M,,M,,*67
06/13/2014	18:08:57.622	$GPGGA,180907,2438.7572,N,08040.9249,W,1,10,1.6,15,M,,M,,*65
06/13/2014	18:08:58.604	$GPGGA,180908,2438.7570,N,08040.9259,W,1,10,1.6,15,M,,M,,*69
06/13/2014	18:08:59.629	$GPGGA,180909,2438.7567,N,08040.9267,W,1,9,1.7,15,M,,M,,*5A
06/13/2014	18:09:00.613	$GPGGA,180910,2438.7565,N,08040.9274,W,1,9,1.6,15,M,,M,,*53
06/13/2014	18:09:01.613	$GPGGA,180911,2438.7563,N,08040.9281,W,1,10,1.5,15,M,,M,,*65
06/13/2014	18:09:02.626	$GPGGA,180912,2438.7561,N,08040.9288,W,1,10,1.5,15,M,,M,,*6D
06/13/2014	18:09:03.719	$GPGGA,180913,2438.7558,N,08040.9296,W,1,10,1.5,15,M,,M,,*69
06/13/2014	18:09:04.623	$GPGGA,180914,2438.7556,N,08040.9303,W,1,10,1.5,15,M,,M,,*6D
06/13/2014	18:09:05.715	$GPGGA,180915,2438.7553,N,08040.9311,W,1,10,1.5,15,M,,M,,*6A
06/13/2014	18:09:06.708	$GPGGA,180916,2438.7551,N,08040.9318,W,1,10,1.6,15,M,,M,,*61
06/13/2014	18:09:07.633	$GPGGA,180917,2438.7547,N,08040.9326,W,1,10,1.5,15,M,,M,,*69
06/13/2014	18:09:08.604	$GPGGA,180918,2438.7544,N,08040.9333,W,1,10,1.5,15,M,,M,,*61
06/13/2014	18:09:09.606	$GPGGA,180919,2438.7540,N,08040.9340,W,1,10,1.5,15,M,,M,,*60
06/13/2014	18:09:10.739	$GPGGA,180920,2438.7538,N,08040.9348,W,1,10,1.5,15,M,,M,,*6D
06/13/2014	18:09:11.758	$GPGGA,180921,2438.7536,N,08040.9357,W,1,10,1.5,15,M,,M,,*6C
06/13/2014	18:09:12.615	$GPGGA,180922,2438.7533,N,08040.9364,W,1,10,1.5,15,M,,M,,*6A
06/13/2014	18:09:13.618	$GPGGA,180923,2438.7529,N,08040.9371,W,1,10,1.5,15,M,,M,,*64
06/13/2014	18:09:14.731	$GPGGA,180924,2438.7526,N,08040.9379,W,1,10,1.5,15,M,,M,,*64
06/13/2014	18:09:15.744	$GPGGA,180925,2438.7524,N,08040.9386,W,1,10,1.5,15,M,,M,,*67
06/13/2014	18:09:16.717	$GPGGA,180926,2438.7522,N,08040.9394,W,1,10,1.5,15,M,,M,,*61
06/13/2014	18:09:17.740	$GPGGA,180927,2438.7518,N,08040.9401,W,1,10,1.5,15,M,,M,,*62
06/13/2014	18:09:18.733	$GPGGA,180928,2438.7514,N,08040.9409,W,1,10,1.5,15,M,,M,,*69
06/13/2014	18:09:19.756	$GPGGA,180929,2438.7512,N,08040.9418,W,1,10,1.5,15,M,,M,,*6E
06/13/2014	18:09:20.709	$GPGGA,180930,2438.7509,N,08040.9425,W,1,10,1.5,15,M,,M,,*62
06/13/2014	18:09:21.712	$GPGGA,180931,2438.7505,N,08040.9431,W,1,10,1.5,15,M,,M,,*6A
06/13/2014	18:09:22.725	$GPGGA,180932,2438.7504,N,08040.9440,W,1,10,1.5,15,M,,M,,*6E
06/13/2014	18:09:23.749	$GPGGA,180933,2438.7500,N,08040.9447,W,1,10,1.5,15,M,,M,,*6C
06/13/2014	18:09:24.720	$GPGGA,180934,2438.7496,N,08040.9454,W,1,10,1.5,15,M,,M,,*67
06/13/2014	18:09:25.743	$GPGGA,180935,2438.7493,N,08040.9462,W,1,10,1.5,15,M,,M,,*66
06/13/2014	18:09:26.736	$GPGGA,180936,2438.7490,N,08040.9470,W,1,10,1.5,15,M,,M,,*65
06/13/2014	18:09:27.749	$GPGGA,180937,2438.7488,N,08040.9477,W,1,10,1.5,15,M,,M,,*6A
06/13/2014	18:09:28.722	$GPGGA,180938,2438.7486,N,08040.9485,W,1,10,1.5,15,M,,M,,*66
06/13/2014	18:09:29.745	$GPGGA,180939,2438.7482,N,08040.9494,W,1,10,1.5,15,M,,M,,*63
06/13/2014	18:09:30.738	$GPGGA,180940,2438.7478,N,08040.9501,W,1,10,1.5,15,M,,M,,*65
06/13/2014	18:09:31.724	$GPGGA,180941,2438.7476,N,08040.9509,W,1,10,1.5,15,M,,M,,*62
06/13/2014	18:09:32.734	$GPGGA,180942,2438.7472,N,08040.9517,W,1,10,1.5,15,M,,M,,*6A
06/13/2014	18:09:33.747	$GPGGA,180943,2438.7468,N,08040.9524,W,1,10,1.5,15,M,,M,,*60
06/13/2014	18:09:34.750	$GPGGA,180944,2438.7465,N,08040.9532,W,1,10,1.5,15,M,,M,,*6D
06/13/2014	18:09:35.753	$GPGGA,180945,2438.7462,N,08040.9541,W,1,10,1.5,15,M,,M,,*6F
06/13/2014	18:09:36.746	$GPGGA,180946,2438.7459,N,08040.9548,W,1,10,1.5,15,M,,M,,*6D
06/13/2014	18:09:37.759	$GPGGA,180947,2438.7457,N,08040.9556,W,1,11,1.5,15,M,,M,,*6C
06/13/2014	18:09:38.565	$GPGGA,180948,2438.7453,N,08040.9564,W,1,11,1.5,15,M,,M,,*66
06/13/2014	18:09:39.546	$GPGGA,180949,2438.7449,N,08040.9571,W,1,11,1.5,15,M,,M,,*68
06/13/2014	18:09:40.569	$GPGGA,180950,2438.7446,N,08040.9578,W,1,11,1.6,15,M,,M,,*65
06/13/2014	18:09:41.552	$GPGGA,180951,2438.7442,N,08040.9585,W,1,11,1.5,15,M,,M,,*61
06/13/2014	18:09:42.574	$GPGGA,180952,2438.7439,N,08040.9593,W,1,11,1.5,15,M,,M,,*69
06/13/2014	18:09:43.568	$GPGGA,180953,2438.7435,N,08040.9600,W,1,11,1.5,15,M,,M,,*6D
06/13/2014	18:09:44.570	$GPGGA,180954,2438.7430,N,08040.9607,W,1,11,1.5,15,M,,M,,*68
06/13/2014	18:09:45.583	$GPGGA,180955,2438.7428,N,08040.9615,W,1,11,1.5,15,M,,M,,*63
06/13/2014	18:09:46.586	$GPGGA,180956,2438.7424,N,08040.9622,W,1,11,1.5,15,M,,M,,*68
06/13/2014	18:09:47.579	$GPGGA,180957,2438.7421,N,08040.9631,W,1,11,1.5,15,M,,M,,*6E
06/13/2014	18:09:48.652	$GPGGA,180958,2438.7418,N,08040.9639,W,1,11,1.6,15,M,,M,,*60
06/13/2014	18:09:49.691	$GPGGA,180959,2438.7414,N,08040.9646,W,1,11,1.5,15,M,,M,,*66
06/13/2014	18:09:50.598	$GPGGA,181000,2438.7411,N,08040.9653,W,1,11,1.5,15,M,,M,,*63
06/13/2014	18:09:51.592	$GPGGA,181001,2438.7410,N,08040.9660,W,1,11,1.5,15,M,,M,,*63
06/13/2014	18:09:52.574	$GPGGA,181002,2438.7406,N,08040.9668,W,1,11,1.6,15,M,,M,,*6C
06/13/2014	18:09:53.678	$GPGGA,181003,2438.7402,N,08040.9675,W,1,11,1.5,15,M,,M,,*66
06/13/2014	18:09:54.570	$GPGGA,181004,2438.7399,N,08040.9684,W,1,11,1.5,15,M,,M,,*6A
06/13/2014	18:09:55.663	$GPGGA,181005,2438.7397,N,08040.9693,W,1,11,1.5,15,M,,M,,*63
06/13/2014	18:09:56.566	$GPGGA,181006,2438.7393,N,08040.9700,W,1,11,1.5,15,M,,M,,*6F
06/13/2014	18:09:57.699	$GPGGA,181007,2438.7390,N,08040.9707,W,1,10,1.6,15,M,,M,,*68
06/13/2014	18:09:58.682	$GPGGA,181008,2438.7388,N,08040.9715,W,1,10,1.6,15,M,,M,,*6D
06/13/2014	18:09:59.684	$GPGGA,181009,2438.7385,N,08040.9722,W,1,10,1.6,15,M,,M,,*65
06/13/2014	18:10:00.667	$GPGGA,181010,2438.7382,N,08040.9729,W,1,10,1.6,15,M,,M,,*61
06/13/2014	18:10:01.680	$GPGGA,181011,2438.7378,N,08040.9736,W,1,11,1.5,15,M,,M,,*69
06/13/2014	18:10:02.683	$GPGGA,181012,2438.7375,N,08040.9743,W,1,11,1.5,15,M,,M,,*65
06/13/2014	18:10:03.676	$GPGGA,181013,2438.7374,N,08040.9751,W,1,11,1.5,15,M,,M,,*66
06/13/2014	18:10:04.669	$GPGGA,181014,2438.7371,N,08040.9759,W,1,11,1.5,15,M,,M,,*6C
06/13/2014	18:10:05.702	$GPGGA,181015,2438.7367,N,08040.9766,W,1,10,1.6,15,M,,M,,*64
06/13/2014	18:10:06.715	$GPGGA,181016,2438.7363,N,08040.9772,W,1,10,1.5,15,M,,M,,*65
06/13/2014	18:10:07.668	$GPGGA,181017,2438.7361,N,08040.9780,W,1,11,1.5,15,M,,M,,*6A
06/13/2014	18:10:08.671	$GPGGA,181018,2438.7359,N,08040.9788,W,1,11,1.6,15,M,,M,,*65
06/13/2014	18:10:09.694	$GPGGA,181019,2438.7355,N,08040.9795,W,1,10,1.6,15,M,,M,,*65
06/13/2014	18:10:10.697	$GPGGA,181020,2438.7353,N,08040.9803,W,1,10,1.5,15,M,,M,,*6A
06/13/2014	18:10:11.740	$GPGGA,181021,2438.7352,N,08040.9812,W,1,11,1.5,15,M,,M,,*6B
06/13/2014	18:10:12.673	$GPGGA,181022,2438.7348,N,08040.9820,W,1,11,1.5,15,M,,M,,*62
06/13/2014	18:10:13.706	$GPGGA,181023,2438.7345,N,08040.9827,W,1,11,1.5,15,M,,M,,*69
06/13/2014	18:10:14.689	$GPGGA,181024,2438.7343,N,08040.9835,W,1,11,1.5,15,M,,M,,*6B
06/13/2014	18:10:15.702	$GPGGA,181025,2438.7341,N,08040.9844,W,1,11,1.5,15,M,,M,,*6E
06/13/2014	18:10:16.679	$GPGGA,181026,2438.7337,N,08040.9850,W,1,11,1.5,15,M,,M,,*69
06/13/2014	18:10:17.677	$GPGGA,181027,2438.7334,N,08040.9859,W,1,11,1.5,15,M,,M,,*62
06/13/2014	18:10:18.700	$GPGGA,181028,2438.7334,N,08040.9867,W,1,11,1.5,15,M,,M,,*60
06/13/2014	18:10:19.683	$GPGGA,181029,2438.7330,N,08040.9874,W,1,11,1.5,15,M,,M,,*67
06/13/2014	18:10:20.696	$GPGGA,181030,2438.7327,N,08040.9881,W,1,11,1.5,15,M,,M,,*63
06/13/2014	18:10:21.709	$GPGGA,181031,2438.7324,N,08040.9889,W,1,11,1.5,15,M,,M,,*69
06/13/2014	18:10:22.692	$GPGGA,181032,2438.7323,N,08040.9896,W,1,11,1.6,15,M,,M,,*60
06/13/2014	18:10:23.695	$GPGGA,181033,2438.7319,N,08040.9904,W,1,11,1.5,15,M,,M,,*61
06/13/2014	18:10:24.678	$GPGGA,181034,2438.7316,N,08040.9913,W,1,11,1.5,15,M,,M,,*6F
06/13/2014	18:10:25.701	$GPGGA,181035,2438.7314,N,08040.9921,W,1,11,1.5,15,M,,M,,*6D
06/13/2014	18:10:26.714	$GPGGA,181036,2438.7311,N,08040.9928,W,1,11,1.5,15,M,,M,,*62
06/13/2014	18:10:27.807	$GPGGA,181037,2438.7309,N,08040.9935,W,1,11,1.5,15,M,,M,,*66
06/13/2014	18:10:28.700	$GPGGA,181038,2438.7306,N,08040.9943,W,1,11,1.5,15,M,,M,,*67
06/13/2014	18:10:29.813	$GPGGA,181039,2438.7303,N,08040.9950,W,1,11,1.5,15,M,,M,,*61
06/13/2014	18:10:30.706	$GPGGA,181040,2438.7299,N,08040.9957,W,1,11,1.5,15,M,,M,,*6A
06/13/2014	18:10:31.699	$GPGGA,181041,2438.7298,N,08040.9967,W,1,11,1.5,15,M,,M,,*69
06/13/2014	18:10:32.782	$GPGGA,181042,2438.7295,N,08040.9973,W,1,11,1.6,15,M,,M,,*61
06/13/2014	18:10:33.706	$GPGGA,181043,2438.7291,N,08040.9982,W,1,10,1.6,15,M,,M,,*6B
06/13/2014	18:10:34.830	$GPGGA,181044,2438.7288,N,08040.9989,W,1,10,1.5,15,M,,M,,*6C
06/13/2014	18:10:35.833	$GPGGA,181045,2438.7287,N,08040.9996,W,1,11,1.5,15,M,,M,,*6D
06/13/2014	18:10:36.693	$GPGGA,181046,2438.7283,N,08041.0004,W,1,11,1.5,15,M,,M,,*60
06/13/2014	18:10:37.832	$GPGGA,181047,2438.7280,N,08041.0011,W,1,10,1.5,15,M,,M,,*67
06/13/2014	18:10:38.541	$GPGGA,181048,2438.7276,N,08041.0018,W,1,10,1.5,15,M,,M,,*68
06/13/2014	18:10:39.655	$GPGGA,181049,2438.7274,N,08041.0026,W,1,11,1.5,15,M,,M,,*67
06/13/2014	18:10:40.627	$GPGGA,181050,2438.7270,N,08041.0033,W,1,11,1.5,15,M,,M,,*6F
06/13/2014	18:10:41.640	$GPGGA,181051,2438.7267,N,08041.0040,W,1,11,1.5,15,M,,M,,*6C
06/13/2014	18:10:42.643	$GPGGA,181052,2438.7264,N,08041.0048,W,1,11,1.5,15,M,,M,,*64
06/13/2014	18:10:43.636	$GPGGA,181053,2438.7262,N,08041.0056,W,1,11,1.5,15,M,,M,,*6C
06/13/2014	18:10:44.629	$GPGGA,181054,2438.7259,N,08041.0065,W,1,11,1.5,15,M,,M,,*63
06/13/2014	18:10:45.622	$GPGGA,181055,2438.7256,N,08041.0072,W,1,11,1.5,15,M,,M,,*6B
06/13/2014	18:10:46.669	$GPGGA,181056,2438.7252,N,08041.0079,W,1,11,1.5,15,M,,M,,*67
06/13/2014	18:10:47.637	$GPGGA,181057,2438.7251,N,08041.0087,W,1,11,1.5,15,M,,M,,*64
06/13/2014	18:10:48.630	$GPGGA,181058,2438.7247,N,08041.0094,W,1,11,1.5,15,M,,M,,*6E
06/13/2014	18:10:49.633	$GPGGA,181059,2438.7243,N,08041.0102,W,1,11,1.5,15,M,,M,,*65
06/13/2014	18:10:50.676	$GPGGA,181100,2438.7240,N,08041.0109,W,1,11,1.5,15,M,,M,,*60
06/13/2014	18:10:51.668	$GPGGA,181101,2438.7238,N,08041.0117,W,1,11,1.5,15,M,,M,,*61
06/13/2014	18:10:52.620	$GPGGA,181102,2438.7236,N,08041.0126,W,1,11,1.5,15,M,,M,,*6E
06/13/2014	18:10:53.643	$GPGGA,181103,2438.7233,N,08041.0133,W,1,11,1.5,15,M,,M,,*6E
06/13/2014	18:10:54.675	$GPGGA,181104,2438.7229,N,08041.0141,W,1,11,1.5,15,M,,M,,*67
06/13/2014	18:10:55.628	$GPGGA,181105,2438.7227,N,08041.0148,W,1,11,1.5,15,M,,M,,*61
06/13/2014	18:10:56.631	$GPGGA,181106,2438.7223,N,08041.0155,W,1,11,1.5,15,M,,M,,*6A
06/13/2014	18:10:57.653	$GPGGA,181107,2438.7220,N,08041.0163,W,1,11,1.5,15,M,,M,,*6D
06/13/2014	18:10:58.646	$GPGGA,181108,2438.7217,N,08041.0170,W,1,11,1.5,15,M,,M,,*64
06/13/2014	18:10:59.649	$GPGGA,181109,2438.7215,N,08041.0178,W,1,11,1.5,15,M,,M,,*6F
06/13/2014	18:11:00.641	$GPGGA,181110,2438.7213,N,08041.0186,W,1,11,1.5,15,M,,M,,*60
06/13/2014	18:11:01.644	$GPGGA,181111,2438.7209,N,08041.0193,W,1,11,1.5,15,M,,M,,*6E
06/13/2014	18:11:02.657	$GPGGA,181112,2438.7206,N,08041.0200,W,1,11,1.5,15,M,,M,,*6B
06/13/2014	18:11:03.629	$GPGGA,181113,2438.7204,N,08041.0209,W,1,11,1.5,15,M,,M,,*61
06/13/2014	18:11:04.642	$GPGGA,181114,2438.7201,N,08041.0217,W,1,11,1.5,15,M,,M,,*6C
06/13/2014	18:11:05.655	$GPGGA,181115,2438.7197,N,08041.0224,W,1,11,1.5,15,M,,M,,*61
06/13/2014	18:11:06.678	$GPGGA,181116,2438.7195,N,08041.0232,W,1,11,1.5,15,M,,M,,*67
06/13/2014	18:11:07.640	$GPGGA,181117,2438.7193,N,08041.0239,W,1,11,1.5,15,M,,M,,*6B
06/13/2014	18:11:08.643	$GPGGA,181118,2438.7188,N,08041.0246,W,1,11,1.5,15,M,,M,,*66
06/13/2014	18:11:09.665	$GPGGA,181119,2438.7186,N,08041.0253,W,1,11,1.5,15,M,,M,,*6D
06/13/2014	18:11:10.667	$GPGGA,181120,2438.7183,N,08041.0262,W,1,11,1.5,15,M,,M,,*60
06/13/2014	18:11:11.670	$GPGGA,181121,2438.7179,N,08041.0269,W,1,11,1.5,15,M,,M,,*6F
06/13/2014	18:11:12.653	$GPGGA,181122,2438.7176,N,08041.0278,W,1,11,1.6,15,M,,M,,*60
06/13/2014	18:11:13.675	$GPGGA,181123,2438.7175,N,08041.0285,W,1,10,1.5,15,M,,M,,*62
06/13/2014	18:11:14.768	$GPGGA,181124,2438.7171,N,08041.0293,W,1,10,1.5,15,M,,M,,*66
06/13/2014	18:11:15.661	$GPGGA,181125,2438.7168,N,08041.0300,W,1,11,1.5,15,M,,M,,*65
06/13/2014	18:11:16.764	$GPGGA,181126,2438.7166,N,08041.0307,W,1,11,1.5,15,M,,M,,*6F
06/13/2014	18:11:17.756	$GPGGA,181127,2438.7164,N,08041.0315,W,1,11,1.6,15,M,,M,,*6C
06/13/2014	18:11:18.661	$GPGGA,181128,2438.7160,N,08041.0322,W,1,11,1.5,15,M,,M,,*60
06/13/2014	18:11:19.672	$GPGGA,181129,2438.7157,N,08041.0330,W,1,11,1.5,15,M,,M,,*66
06/13/2014	18:11:20.767	$GPGGA,181130,2438.7155,N,08041.0339,W,1,11,1.5,15,M,,M,,*65
06/13/2014	18:11:21.660	$GPGGA,181131,2438.7153,N,08041.0347,W,1,11,1.5,15,M,,M,,*6B
06/13/2014	18:11:22.690	$GPGGA,181132,2438.7150,N,08041.0354,W,1,11,1.5,15,M,,M,,*69
06/13/2014	18:11:23.652	$GPGGA,181133,2438.7146,N,08041.0359,W,1,11,1.5,15,M,,M,,*62
06/13/2014	18:11:24.745	$GPGGA,181134,2438.7144,N,08041.0368,W,1,11,1.5,15,M,,M,,*65
06/13/2014	18:11:25.779	$GPGGA,181135,2438.7143,N,08041.0376,W,1,11,1.5,15,M,,M,,*6C
06/13/2014	18:11:26.692	$GPGGA,181136,2438.7139,N,08041.0383,W,1,11,1.5,15,M,,M,,*68
06/13/2014	18:11:27.742	$GPGGA,181137,2438.7139,N,08041.0391,W,1,11,1.3,15,M,,M,,*6C
06/13/2014	18:11:28.665	$GPGGA,181138,2438.7136,N,08041.0399,W,1,11,1.6,15,M,,M,,*61
06/13/2014	18:11:29.758	$GPGGA,181139,2438.7133,N,08041.0406,W,1,10,1.5,15,M,,M,,*66
06/13/2014	18:11:30.760	$GPGGA,181140,2438.7129,N,08041.0412,W,1,10,1.5,15,M,,M,,*66
06/13/2014	18:11:31.743	$GPGGA,181141,2438.7130,N,08041.0421,W,1,11,1.4,15,M,,M,,*6F
06/13/2014	18:11:32.746	$GPGGA,181142,2438.7129,N,08041.0430,W,1,11,1.4,15,M,,M,,*64
06/13/2014	18:11:33.759	$GPGGA,181143,2438.7126,N,08041.0437,W,1,11,1.5,15,M,,M,,*6C
06/13/2014	18:11:34.761	$GPGGA,181144,2438.7121,N,08041.0444,W,1,11,1.5,15,M,,M,,*68
06/13/2014	18:11:35.754	$GPGGA,181145,2438.7118,N,08041.0451,W,1,11,1.7,15,M,,M,,*65
06/13/2014	18:11:36.757	$GPGGA,181146,2438.7117,N,08041.0457,W,1,11,1.7,15,M,,M,,*6F
06/13/2014	18:11:37.759	$GPGGA,181147,2438.7113,N,08041.0462,W,1,11,1.5,15,M,,M,,*6E
06/13/2014	18:11:38.599	$GPGGA,181148,2438.7110,N,08041.0470,W,1,11,1.5,15,M,,M,,*61
06/13/2014	18:11:39.602	$GPGGA,181149,2438.7108,N,08041.0477,W,1,11,1.5,16,M,,M,,*6D
06/13/2014	18:11:40.584	$GPGGA,181150,2438.7105,N,08041.0484,W,1,11,1.5,16,M,,M,,*64
06/13/2014	18:11:41.597	$GPGGA,181151,2438.7101,N,08041.0491,W,1,11,1.6,16,M,,M,,*66
