Software Version Number: 1	Data File Format Number: 1	Build Version Number: 1	Error Count Since VI Started: 0	Manufacturer: Raytheon	 Model Number: RayMarine 120	 S/N: 	 Cal Date: 	 Wind Direction Offset: 0.00	 Slope (M)1: 0.00	 Offset (B)1: 0.00	 Slope (M)2: 0.00	 Offset (B)2: 0.00	 Slope (M)3: 0.00	 Offset (B)3: 0.00	 Slope (M)4: 0.00	 Offset (B)4: 0.00	 Slope (M)5: 0.00	 Offset (B)5: 0.00	 Slope (M)6: 0.00	 Offset (B)6: 0.00
Computer Date	Computer Time	GGA String
06/05/2014	04:00:00.402	$GPGGA,040001,2500.5072,N,08019.7381,W,1,9,1.6,14,M,,M,,*54
06/05/2014	04:00:01.416	$GPGGA,040002,2500.5058,N,08019.7399,W,1,9,1.6,14,M,,M,,*56
06/05/2014	04:00:02.449	$GPGGA,040003,2500.5043,N,08019.7415,W,1,9,1.6,14,M,,M,,*5E
06/05/2014	04:00:03.432	$GPGGA,040004,2500.5029,N,08019.7435,W,1,9,1.6,14,M,,M,,*57
06/05/2014	04:00:04.516	$GPGGA,040005,2500.5013,N,08019.7451,W,1,9,1.6,14,M,,M,,*5D
06/05/2014	04:00:05.429	$GPGGA,040006,2500.4997,N,08019.7468,W,1,9,1.6,14,M,,M,,*50
06/05/2014	04:00:06.553	$GPGGA,040007,2500.4982,N,08019.7487,W,1,9,1.6,14,M,,M,,*54
06/05/2014	04:00:07.536	$GPGGA,040008,2500.4968,N,08019.7505,W,1,9,1.6,14,M,,M,,*54
06/05/2014	04:00:08.429	$GPGGA,040009,2500.4953,N,08019.7522,W,1,9,1.6,14,M,,M,,*58
06/05/2014	04:00:09.533	$GPGGA,040010,2500.4937,N,08019.7540,W,1,9,1.6,14,M,,M,,*56
06/05/2014	04:00:10.527	$GPGGA,040011,2500.4924,N,08019.7558,W,1,9,1.6,14,M,,M,,*5C
06/05/2014	04:00:11.550	$GPGGA,040012,2500.4910,N,08019.7576,W,1,9,1.6,14,M,,M,,*54
06/05/2014	04:00:12.564	$GPGGA,040013,2500.4893,N,08019.7594,W,1,9,1.6,14,M,,M,,*53
06/05/2014	04:00:13.527	$GPGGA,040014,2500.4879,N,08019.7610,W,1,9,1.6,14,M,,M,,*5F
06/05/2014	04:00:14.551	$GPGGA,040015,2500.4865,N,08019.7630,W,1,9,1.6,14,M,,M,,*51
06/05/2014	04:00:15.554	$GPGGA,040016,2500.4850,N,08019.7646,W,1,9,1.6,14,M,,M,,*55
06/05/2014	04:00:16.538	$GPGGA,040017,2500.4836,N,08019.7666,W,1,9,1.6,14,M,,M,,*56
06/05/2014	04:00:17.562	$GPGGA,040018,2500.4823,N,08019.7684,W,1,9,1.6,14,M,,M,,*51
06/05/2014	04:00:18.555	$GPGGA,040019,2500.4809,N,08019.7702,W,1,9,1.6,14,M,,M,,*57
06/05/2014	04:00:19.558	$GPGGA,040020,2500.4794,N,08019.7722,W,1,9,1.6,14,M,,M,,*54
06/05/2014	04:00:20.561	$GPGGA,040021,2500.4780,N,08019.7740,W,1,9,1.6,14,M,,M,,*54
06/05/2014	04:00:21.544	$GPGGA,040022,2500.4764,N,08019.7760,W,1,9,1.6,14,M,,M,,*5F
06/05/2014	04:00:22.588	$GPGGA,040023,2500.4751,N,08019.7778,W,1,9,1.6,14,M,,M,,*51
06/05/2014	04:00:23.561	$GPGGA,040024,2500.4737,N,08019.7797,W,1,9,1.6,14,M,,M,,*57
06/05/2014	04:00:24.565	$GPGGA,040025,2500.4723,N,08019.7814,W,1,9,1.6,14,M,,M,,*57
06/05/2014	04:00:25.548	$GPGGA,040026,2500.4709,N,08019.7832,W,1,9,1.6,14,M,,M,,*58
06/05/2014	04:00:26.572	$GPGGA,040027,2500.4697,N,08019.7851,W,1,9,1.6,14,M,,M,,*5A
06/05/2014	04:00:27.555	$GPGGA,040028,2500.4682,N,08019.7869,W,1,9,1.6,14,M,,M,,*5A
06/05/2014	04:00:28.559	$GPGGA,040029,2500.4668,N,08019.7888,W,1,9,1.6,14,M,,M,,*50
06/05/2014	04:00:29.552	$GPGGA,040030,2500.4652,N,08019.7908,W,1,9,1.6,14,M,,M,,*58
06/05/2014	04:00:30.545	$GPGGA,040031,2500.4637,N,08019.7926,W,1,9,1.6,14,M,,M,,*56
06/05/2014	04:00:31.579	$GPGGA,040032,2500.4621,N,08019.7945,W,1,9,1.6,14,M,,M,,*57
06/05/2014	04:00:32.344	$GPGGA,040033,2500.4606,N,08019.7964,W,1,9,1.6,14,M,,M,,*50
06/05/2014	04:00:33.358	$GPGGA,040034,2500.4592,N,08019.7984,W,1,9,1.6,14,M,,M,,*57
06/05/2014	04:00:34.382	$GPGGA,040035,2500.4578,N,08019.8000,W,1,9,1.6,14,M,,M,,*58
06/05/2014	04:00:35.365	$GPGGA,040036,2500.4563,N,08019.8017,W,1,9,1.6,14,M,,M,,*57
06/05/2014	04:00:36.379	$GPGGA,040037,2500.4552,N,08019.8036,W,1,9,1.6,14,M,,M,,*57
06/05/2014	04:00:37.362	$GPGGA,040038,2500.4536,N,08019.8053,W,1,9,1.6,14,M,,M,,*59
06/05/2014	04:00:38.395	$GPGGA,040039,2500.4520,N,08019.8071,W,1,9,1.6,14,M,,M,,*5F
06/05/2014	04:00:39.378	$GPGGA,040040,2500.4505,N,08019.8092,W,1,9,1.6,14,M,,M,,*5B
06/05/2014	04:00:40.472	$GPGGA,040041,2500.4491,N,08019.8111,W,1,9,1.6,14,M,,M,,*5C
06/05/2014	04:00:41.365	$GPGGA,040042,2500.4474,N,08019.8128,W,1,9,1.6,14,M,,M,,*5E
06/05/2014	04:00:42.378	$GPGGA,040043,2500.4459,N,08019.8145,W,1,9,1.6,14,M,,M,,*5B
06/05/2014	04:00:43.382	$GPGGA,040044,2500.4446,N,08019.8163,W,1,9,1.6,14,M,,M,,*56
06/05/2014	04:00:44.373	$GPGGA,040045,2500.4433,N,08019.8180,W,1,9,1.6,14,M,,M,,*58
06/05/2014	04:00:45.489	$GPGGA,040046,2500.4416,N,08019.8197,W,1,9,1.6,14,M,,M,,*5A
06/05/2014	04:00:46.483	$GPGGA,040047,2500.4402,N,08019.8215,W,1,9,1.6,14,M,,M,,*57
06/05/2014	04:00:47.476	$GPGGA,040048,2500.4388,N,08019.8233,W,1,9,1.6,14,M,,M,,*59
06/05/2014	04:00:48.379	$GPGGA,040049,2500.4373,N,08019.8249,W,1,9,1.6,14,M,,M,,*51
06/05/2014	04:00:49.383	$GPGGA,040050,2500.4355,N,08019.8266,W,1,9,1.6,14,M,,M,,*50
06/05/2014	04:00:50.376	$GPGGA,040051,2500.4341,N,08019.8282,W,1,9,1.6,14,M,,M,,*5E
06/05/2014	04:00:51.490	$GPGGA,040052,2500.4326,N,08019.8300,W,1,9,1.6,14,M,,M,,*57
06/05/2014	04:00:52.475	$GPGGA,040053,2500.4310,N,08019.8316,W,1,9,1.6,14,M,,M,,*54
06/05/2014	04:00:53.487	$GPGGA,040054,2500.4294,N,08019.8335,W,1,9,1.6,14,M,,M,,*5F
06/05/2014	04:00:54.491	$GPGGA,040055,2500.4279,N,08019.8353,W,1,9,1.6,14,M,,M,,*5D
06/05/2014	04:00:55.403	$GPGGA,040056,2500.4264,N,08019.8370,W,1,9,1.6,14,M,,M,,*53
06/05/2014	04:00:56.486	$GPGGA,040057,2500.4249,N,08019.8386,W,1,9,1.6,14,M,,M,,*54
06/05/2014	04:00:57.489	$GPGGA,040058,2500.4234,N,08019.8403,W,1,9,1.6,14,M,,M,,*5B
06/05/2014	04:00:58.482	$GPGGA,040059,2500.4220,N,08019.8421,W,1,9,1.6,14,M,,M,,*5F
06/05/2014	04:00:59.506	$GPGGA,040100,2500.4204,N,08019.8437,W,1,9,1.6,14,M,,M,,*53
06/05/2014	04:01:00.509	$GPGGA,040101,2500.4188,N,08019.8454,W,1,9,1.6,14,M,,M,,*50
06/05/2014	04:01:01.482	$GPGGA,040102,2500.4173,N,08019.8473,W,1,9,1.6,14,M,,M,,*52
06/05/2014	04:01:02.515	$GPGGA,040103,2500.4159,N,08019.8493,W,1,9,1.6,14,M,,M,,*55
06/05/2014	04:01:03.498	$GPGGA,040104,2500.4144,N,08019.8508,W,1,9,1.6,14,M,,M,,*5D
06/05/2014	04:01:04.482	$GPGGA,040105,2500.4128,N,08019.8524,W,1,9,1.6,14,M,,M,,*58
06/05/2014	04:01:05.495	$GPGGA,040106,2500.4115,N,08019.8542,W,1,9,1.6,14,M,,M,,*55
06/05/2014	04:01:06.508	$GPGGA,040107,2500.4100,N,08019.8562,W,1,9,1.6,14,M,,M,,*52
06/05/2014	04:01:07.511	$GPGGA,040108,2500.4086,N,08019.8580,W,1,9,1.6,14,M,,M,,*5E
06/05/2014	04:01:08.504	$GPGGA,040109,2500.4070,N,08019.8599,W,1,9,1.6,14,M,,M,,*5E
06/05/2014	04:01:09.508	$GPGGA,040110,2500.4057,N,08019.8618,W,1,9,1.6,14,M,,M,,*59
06/05/2014	04:01:10.502	$GPGGA,040111,2500.4043,N,08019.8635,W,1,9,1.6,14,M,,M,,*52
06/05/2014	04:01:11.532	$GPGGA,040112,2500.4030,N,08019.8652,W,1,9,1.6,14,M,,M,,*54
06/05/2014	04:01:12.565	$GPGGA,040113,2500.4016,N,08019.8670,W,1,9,1.6,14,M,,M,,*51
06/05/2014	04:01:13.556	$GPGGA,040114,2500.4003,N,08019.8689,W,1,9,1.6,14,M,,M,,*54
06/05/2014	04:01:14.600	$GPGGA,040115,2500.3987,N,08019.8707,W,1,9,1.6,14,M,,M,,*50
06/05/2014	04:01:15.623	$GPGGA,040116,2500.3972,N,08019.8725,W,1,9,1.6,13,M,,M,,*5E
06/05/2014	04:01:16.616	$GPGGA,040117,2500.3957,N,08019.8744,W,1,9,1.6,13,M,,M,,*5F
06/05/2014	04:01:17.649	$GPGGA,040118,2500.3943,N,08019.8764,W,1,9,1.6,13,M,,M,,*57
06/05/2014	04:01:18.703	$GPGGA,040119,2500.3929,N,08019.8782,W,1,9,1.6,13,M,,M,,*52
06/05/2014	04:01:19.706	$GPGGA,040120,2500.3915,N,08019.8798,W,1,9,1.6,13,M,,M,,*5C
06/05/2014	04:01:20.728	$GPGGA,040121,2500.3902,N,08019.8815,W,1,9,1.6,13,M,,M,,*51
06/05/2014	04:01:21.721	$GPGGA,040122,2500.3888,N,08019.8833,W,1,9,1.6,13,M,,M,,*55
06/05/2014	04:01:22.754	$GPGGA,040123,2500.3874,N,08019.8851,W,1,9,1.6,13,M,,M,,*53
06/05/2014	04:01:23.787	$GPGGA,040124,2500.3859,N,08019.8869,W,1,9,1.6,13,M,,M,,*50
06/05/2014	04:01:24.800	$GPGGA,040125,2500.3844,N,08019.8887,W,1,9,1.6,13,M,,M,,*5D
06/05/2014	04:01:25.803	$GPGGA,040126,2500.3828,N,08019.8905,W,1,9,1.6,13,M,,M,,*5F
06/05/2014	04:01:27.000	$GPGGA,040127,2500.3813,N,08019.8924,W,1,9,1.6,13,M,,M,,*55
06/05/2014	04:01:27.870	$GPGGA,040128,2500.3798,N,08019.8942,W,1,9,1.6,13,M,,M,,*56
06/05/2014	04:01:28.893	$GPGGA,040129,2500.3783,N,08019.8960,W,1,9,1.6,13,M,,M,,*5D
06/05/2014	04:01:29.987	$GPGGA,040130,2500.3769,N,08019.8978,W,1,9,1.6,13,M,,M,,*58
06/05/2014	04:01:30.907	$GPGGA,040131,2500.3754,N,08019.8995,W,1,9,1.6,13,M,,M,,*54
06/05/2014	04:01:32.125	$GPGGA,040132,2500.3739,N,08019.9011,W,1,9,1.6,13,M,,M,,*58
06/05/2014	04:01:32.485	$GPGGA,040133,2500.3726,N,08019.9029,W,1,9,1.6,13,M,,M,,*5C
06/05/2014	04:01:33.356	$GPGGA,040134,2500.3712,N,08019.9047,W,1,9,1.6,13,M,,M,,*54
06/05/2014	04:01:34.531	$GPGGA,040135,2500.3697,N,08019.9065,W,1,9,1.6,13,M,,M,,*59
06/05/2014	04:01:35.422	$GPGGA,040136,2500.3680,N,08019.9082,W,1,9,1.6,13,M,,M,,*55
06/05/2014	04:01:36.547	$GPGGA,040137,2500.3664,N,08019.9100,W,1,9,1.6,13,M,,M,,*55
06/05/2014	04:01:37.449	$GPGGA,040138,2500.3651,N,08019.9120,W,1,9,1.6,13,M,,M,,*5E
06/05/2014	04:01:38.460	$GPGGA,040139,2500.3636,N,08019.9140,W,1,9,1.6,13,M,,M,,*58
06/05/2014	04:01:39.596	$GPGGA,040140,2500.3620,N,08019.9155,W,1,9,1.6,13,M,,M,,*55
06/05/2014	04:01:40.670	$GPGGA,040141,2500.3606,N,08019.9171,W,1,9,1.6,13,M,,M,,*56
06/05/2014	04:01:41.529	$GPGGA,040142,2500.3593,N,08019.9189,W,1,9,1.6,13,M,,M,,*5D
06/05/2014	04:01:42.696	$GPGGA,040143,2500.3580,N,08019.9207,W,1,9,1.6,13,M,,M,,*5B
06/05/2014	04:01:43.750	$GPGGA,040144,2500.3564,N,08019.9224,W,1,9,1.6,13,M,,M,,*57
06/05/2014	04:01:44.612	$GPGGA,040145,2500.3548,N,08019.9242,W,1,9,1.6,13,M,,M,,*58
06/05/2014	04:01:45.704	$GPGGA,040146,2500.3533,N,08019.9263,W,1,9,1.6,13,M,,M,,*54
06/05/2014	04:01:46.778	$GPGGA,040147,2500.3519,N,08019.9281,W,1,9,1.6,13,M,,M,,*51
06/05/2014	04:01:47.841	$GPGGA,040148,2500.3503,N,08019.9299,W,1,9,1.6,13,M,,M,,*5C
06/05/2014	04:01:48.813	$GPGGA,040149,2500.3490,N,08019.9317,W,1,9,1.6,13,M,,M,,*51
06/05/2014	04:01:49.867	$GPGGA,040150,2500.3476,N,08019.9335,W,1,9,1.6,13,M,,M,,*51
06/05/2014	04:01:50.859	$GPGGA,040151,2500.3461,N,08019.9351,W,1,9,1.6,13,M,,M,,*54
06/05/2014	04:01:51.851	$GPGGA,040152,2500.3447,N,08019.9369,W,1,9,1.6,13,M,,M,,*58
06/05/2014	04:01:52.895	$GPGGA,040153,2500.3433,N,08019.9389,W,1,9,1.6,13,M,,M,,*54
06/05/2014	04:01:53.877	$GPGGA,040154,2500.3418,N,08019.9405,W,1,9,1.6,13,M,,M,,*59
06/05/2014	04:01:54.945	$GPGGA,040155,2500.3402,N,08019.9423,W,1,9,1.6,13,M,,M,,*57
06/05/2014	04:01:55.985	$GPGGA,040156,2500.3387,N,08019.9443,W,1,9,1.6,13,M,,M,,*58
06/05/2014	04:01:56.977	$GPGGA,040157,2500.3373,N,08019.9460,W,1,9,1.6,13,M,,M,,*53
06/05/2014	04:01:57.959	$GPGGA,040158,2500.3360,N,08019.9478,W,1,9,1.6,13,M,,M,,*57
06/05/2014	04:01:59.054	$GPGGA,040159,2500.3344,N,08019.9496,W,1,9,1.6,13,M,,M,,*50
06/05/2014	04:02:00.087	$GPGGA,040200,2500.3331,N,08019.9516,W,1,9,1.6,13,M,,M,,*54
06/05/2014	04:02:01.018	$GPGGA,040201,2500.3316,N,08019.9534,W,1,9,1.6,13,M,,M,,*50
06/05/2014	04:02:02.094	$GPGGA,040202,2500.3302,N,08019.9552,W,1,9,1.6,13,M,,M,,*56
06/05/2014	04:02:03.065	$GPGGA,040203,2500.3286,N,08019.9570,W,1,9,1.6,13,M,,M,,*5A
06/05/2014	04:02:04.170	$GPGGA,040204,2500.3273,N,08019.9589,W,1,9,1.6,13,M,,M,,*51
06/05/2014	04:02:05.203	$GPGGA,040205,2500.3259,N,08019.9607,W,1,9,1.6,13,M,,M,,*5D
06/05/2014	04:02:06.194	$GPGGA,040206,2500.3244,N,08019.9625,W,1,9,1.6,13,M,,M,,*52
06/05/2014	04:02:07.146	$GPGGA,040207,2500.3230,N,08019.9643,W,1,9,1.6,13,M,,M,,*50
06/05/2014	04:02:08.251	$GPGGA,040208,2500.3215,N,08019.9662,W,1,9,1.6,13,M,,M,,*5B
06/05/2014	04:02:09.305	$GPGGA,040209,2500.3201,N,08019.9682,W,1,9,1.6,13,M,,M,,*51
06/05/2014	04:02:10.225	$GPGGA,040210,2500.3184,N,08019.9700,W,1,9,1.6,13,M,,M,,*5C
06/05/2014	04:02:11.351	$GPGGA,040211,2500.3169,N,08019.9720,W,1,9,1.6,13,M,,M,,*5C
06/05/2014	04:02:12.261	$GPGGA,040212,2500.3154,N,08019.9740,W,1,9,1.6,13,M,,M,,*57
06/05/2014	04:02:13.315	$GPGGA,040213,2500.3139,N,08019.9758,W,1,9,1.6,13,M,,M,,*54
06/05/2014	04:02:14.348	$GPGGA,040214,2500.3123,N,08019.9776,W,1,9,1.6,13,M,,M,,*54
06/05/2014	04:02:15.443	$GPGGA,040215,2500.3109,N,08019.9794,W,1,9,1.6,13,M,,M,,*51
06/05/2014	04:02:16.405	$GPGGA,040216,2500.3096,N,08019.9812,W,1,9,1.6,13,M,,M,,*54
06/05/2014	04:02:17.387	$GPGGA,040217,2500.3082,N,08019.9828,W,1,9,1.6,13,M,,M,,*59
06/05/2014	04:02:18.431	$GPGGA,040218,2500.3066,N,08019.9845,W,1,9,1.6,13,M,,M,,*57
06/05/2014	04:02:19.515	$GPGGA,040219,2500.3051,N,08019.9863,W,1,9,1.6,13,M,,M,,*56
06/05/2014	04:02:20.436	$GPGGA,040220,2500.3038,N,08019.9881,W,1,9,1.6,13,M,,M,,*5F
06/05/2014	04:02:21.479	$GPGGA,040221,2500.3022,N,08019.9900,W,1,9,1.6,13,M,,M,,*5D
06/05/2014	04:02:22.462	$GPGGA,040222,2500.3006,N,08019.9917,W,1,9,1.6,13,M,,M,,*5E
06/05/2014	04:02:23.586	$GPGGA,040223,2500.2990,N,08019.9935,W,1,9,1.6,14,M,,M,,*5F
06/05/2014	04:02:24.517	$GPGGA,040224,2500.2977,N,08019.9953,W,1,9,1.6,14,M,,M,,*51
06/05/2014	04:02:25.622	$GPGGA,040225,2500.2962,N,08019.9971,W,1,9,1.6,14,M,,M,,*54
06/05/2014	04:02:26.604	$GPGGA,040226,2500.2946,N,08019.9987,W,1,9,1.6,14,M,,M,,*58
06/05/2014	04:02:27.699	$GPGGA,040227,2500.2932,N,08020.0005,W,1,9,1.6,14,M,,M,,*5A
06/05/2014	04:02:28.703	$GPGGA,040228,2500.2919,N,08020.0025,W,1,9,1.6,14,M,,M,,*5E
06/05/2014	04:02:29.725	$GPGGA,040229,2500.2902,N,08020.0040,W,1,9,1.6,14,M,,M,,*56
06/05/2014	04:02:30.697	$GPGGA,040230,2500.2887,N,08020.0058,W,1,9,1.7,14,M,,M,,*5A
06/05/2014	04:02:31.750	$GPGGA,040231,2500.2873,N,08020.0076,W,1,8,1.6,14,M,,M,,*5C
06/05/2014	04:02:32.753	$GPGGA,040232,2500.2860,N,08020.0094,W,1,8,1.6,14,M,,M,,*51
06/05/2014	04:02:32.334	$GPGGA,040233,2500.2845,N,08020.0110,W,1,9,1.6,14,M,,M,,*5B
06/05/2014	04:02:33.445	$GPGGA,040234,2500.2831,N,08020.0127,W,1,9,1.6,14,M,,M,,*5B
06/05/2014	04:02:34.478	$GPGGA,040235,2500.2818,N,08020.0146,W,1,9,1.6,14,M,,M,,*56
06/05/2014	04:02:35.501	$GPGGA,040236,2500.2803,N,08020.0164,W,1,9,1.6,14,M,,M,,*5F
06/05/2014	04:02:36.515	$GPGGA,040237,2500.2789,N,08020.0181,W,1,9,1.6,14,M,,M,,*58
06/05/2014	04:02:37.527	$GPGGA,040238,2500.2775,N,08020.0199,W,1,9,1.6,14,M,,M,,*5D
06/05/2014	04:02:38.591	$GPGGA,040239,2500.2761,N,08020.0215,W,1,9,1.6,14,M,,M,,*5E
06/05/2014	04:02:39.573	$GPGGA,040240,2500.2747,N,08020.0231,W,1,9,1.6,15,M,,M,,*53
06/05/2014	04:02:40.595	$GPGGA,040241,2500.2732,N,08020.0249,W,1,9,1.6,15,M,,M,,*5F
06/05/2014	04:02:41.599	$GPGGA,040242,2500.2717,N,08020.0267,W,1,9,1.6,15,M,,M,,*57
06/05/2014	04:02:42.642	$GPGGA,040243,2500.2702,N,08020.0285,W,1,9,1.6,15,M,,M,,*5E
06/05/2014	04:02:43.685	$GPGGA,040244,2500.2702,N,08020.0285,W,1,9,1.6,15,M,,M,,*59
06/05/2014	04:02:44.688	$GPGGA,040245,2500.2671,N,08020.0322,W,1,9,1.6,15,M,,M,,*51
06/05/2014	04:02:45.680	$GPGGA,040246,2500.2656,N,08020.0340,W,1,9,1.6,15,M,,M,,*53
06/05/2014	04:02:46.734	$GPGGA,040247,2500.2641,N,08020.0358,W,1,9,1.6,15,M,,M,,*5D
06/05/2014	04:02:47.757	$GPGGA,040248,2500.2626,N,08020.0376,W,1,9,1.6,15,M,,M,,*5F
06/05/2014	04:02:48.780	$GPGGA,040249,2500.2612,N,08020.0392,W,1,9,1.6,15,M,,M,,*53
06/05/2014	04:02:49.783	$GPGGA,040250,2500.2612,N,08020.0392,W,1,9,1.6,15,M,,M,,*5B
06/05/2014	04:02:50.826	$GPGGA,040251,2500.2584,N,08020.0427,W,1,9,1.6,15,M,,M,,*5F
06/05/2014	04:02:51.870	$GPGGA,040252,2500.2570,N,08020.0445,W,1,9,1.6,15,M,,M,,*53
06/05/2014	04:02:52.832	$GPGGA,040253,2500.2554,N,08020.0462,W,1,9,1.6,15,M,,M,,*51
06/05/2014	04:02:53.875	$GPGGA,040254,2500.2538,N,08020.0480,W,1,9,1.6,15,M,,M,,*50
06/05/2014	04:02:54.888	$GPGGA,040255,2500.2522,N,08020.0500,W,1,9,1.6,15,M,,M,,*53
06/05/2014	04:02:55.933	$GPGGA,040256,2500.2508,N,08020.0520,W,1,9,1.6,15,M,,M,,*5A
06/05/2014	04:02:56.914	$GPGGA,040257,2500.2493,N,08020.0538,W,1,9,1.6,15,M,,M,,*51
06/05/2014	04:02:57.977	$GPGGA,040258,2500.2478,N,08020.0556,W,1,9,1.6,15,M,,M,,*53
06/05/2014	04:02:58.969	$GPGGA,040259,2500.2465,N,08020.0574,W,1,9,1.6,15,M,,M,,*5E
06/05/2014	04:03:00.003	$GPGGA,040300,2500.2465,N,08020.0574,W,1,9,1.6,15,M,,M,,*53
06/05/2014	04:03:01.015	$GPGGA,040301,2500.2437,N,08020.0607,W,1,9,1.6,15,M,,M,,*52
06/05/2014	04:03:02.050	$GPGGA,040302,2500.2437,N,08020.0607,W,1,9,1.6,15,M,,M,,*51
06/05/2014	04:03:03.082	$GPGGA,040303,2500.2408,N,08020.0647,W,1,9,1.6,15,M,,M,,*58
06/05/2014	04:03:04.095	$GPGGA,040304,2500.2408,N,08020.0647,W,1,9,1.6,15,M,,M,,*5F
06/05/2014	04:03:05.128	$GPGGA,040305,2500.2378,N,08020.0684,W,1,9,1.6,15,M,,M,,*51
06/05/2014	04:03:06.223	$GPGGA,040306,2500.2363,N,08020.0704,W,1,9,1.6,15,M,,M,,*51
06/05/2014	04:03:07.154	$GPGGA,040307,2500.2363,N,08020.0704,W,1,9,1.6,15,M,,M,,*50
06/05/2014	04:03:08.157	$GPGGA,040308,2500.2348,N,08020.0722,W,1,9,1.6,15,M,,M,,*52
06/05/2014	04:03:09.169	$GPGGA,040309,2500.2319,N,08020.0759,W,1,9,1.6,15,M,,M,,*5B
06/05/2014	04:03:10.285	$GPGGA,040310,2500.2305,N,08020.0775,W,1,9,1.6,15,M,,M,,*50
06/05/2014	04:03:11.205	$GPGGA,040311,2500.2290,N,08020.0793,W,1,9,1.6,15,M,,M,,*54
06/05/2014	04:03:12.351	$GPGGA,040312,2500.2276,N,08020.0810,W,1,9,1.6,15,M,,M,,*5B
06/05/2014	04:03:13.272	$GPGGA,040313,2500.2263,N,08020.0828,W,1,9,1.6,15,M,,M,,*55
06/05/2014	04:03:14.275	$GPGGA,040314,2500.2263,N,08020.0828,W,1,9,1.6,15,M,,M,,*52
06/05/2014	04:03:15.390	$GPGGA,040315,2500.2234,N,08020.0864,W,1,9,1.6,15,M,,M,,*59
06/05/2014	04:03:16.443	$GPGGA,040316,2500.2219,N,08020.0883,W,1,9,1.6,15,M,,M,,*5C
06/05/2014	04:03:17.466	$GPGGA,040317,2500.2204,N,08020.0903,W,1,9,1.6,15,M,,M,,*58
06/05/2014	04:03:18.458	$GPGGA,040318,2500.2189,N,08020.0921,W,1,9,1.6,15,M,,M,,*51
06/05/2014	04:03:19.379	$GPGGA,040319,2500.2175,N,08020.0939,W,1,9,1.6,15,M,,M,,*5A
06/05/2014	04:03:20.515	$GPGGA,040320,2500.2160,N,08020.0958,W,1,9,1.6,15,M,,M,,*53
06/05/2014	04:03:21.538	$GPGGA,040321,2500.2144,N,08020.0975,W,1,9,1.6,15,M,,M,,*5B
06/05/2014	04:03:22.551	$GPGGA,040322,2500.2130,N,08020.0993,W,1,9,1.6,15,M,,M,,*53
06/05/2014	04:03:23.584	$GPGGA,040323,2500.2117,N,08020.1012,W,1,9,1.6,15,M,,M,,*56
06/05/2014	04:03:24.597	$GPGGA,040324,2500.2101,N,08020.1030,W,1,9,1.6,15,M,,M,,*56
06/05/2014	04:03:25.620	$GPGGA,040325,2500.2086,N,08020.1048,W,1,9,1.6,15,M,,M,,*56
06/05/2014	04:03:26.623	$GPGGA,040326,2500.2071,N,08020.1066,W,1,9,1.6,15,M,,M,,*51
06/05/2014	04:03:27.676	$GPGGA,040327,2500.2057,N,08020.1084,W,1,9,1.6,15,M,,M,,*58
06/05/2014	04:03:28.669	$GPGGA,040328,2500.2042,N,08020.1102,W,1,9,1.6,15,M,,M,,*5C
06/05/2014	04:03:29.714	$GPGGA,040329,2500.2027,N,08020.1120,W,1,9,1.6,15,M,,M,,*5E
06/05/2014	04:03:30.715	$GPGGA,040330,2500.2013,N,08020.1138,W,1,9,1.6,15,M,,M,,*58
06/05/2014	04:03:31.728	$GPGGA,040331,2500.1998,N,08020.1156,W,1,9,1.6,15,M,,M,,*58
06/05/2014	04:03:32.771	$GPGGA,040332,2500.1981,N,08020.1174,W,1,9,1.6,15,M,,M,,*53
06/05/2014	04:03:33.804	$GPGGA,040333,2500.1967,N,08020.1193,W,1,9,1.6,15,M,,M,,*53
06/05/2014	04:03:34.786	$GPGGA,040334,2500.1953,N,08020.1211,W,1,9,1.6,15,M,,M,,*5A
06/05/2014	04:03:35.829	$GPGGA,040335,2500.1938,N,08020.1228,W,1,9,1.6,15,M,,M,,*5C
06/05/2014	04:03:36.853	$GPGGA,040336,2500.1923,N,08020.1246,W,1,9,1.6,15,M,,M,,*5D
06/05/2014	04:03:37.876	$GPGGA,040337,2500.1909,N,08020.1264,W,1,9,1.6,15,M,,M,,*54
06/05/2014	04:03:38.878	$GPGGA,040338,2500.1894,N,08020.1283,W,1,9,1.6,15,M,,M,,*57
06/05/2014	04:03:39.922	$GPGGA,040339,2500.1877,N,08020.1300,W,1,9,1.6,15,M,,M,,*51
06/05/2014	04:03:40.935	$GPGGA,040340,2500.1861,N,08020.1319,W,1,9,1.6,15,M,,M,,*50
06/05/2014	04:03:41.937	$GPGGA,040341,2500.1846,N,08020.1337,W,1,9,1.6,15,M,,M,,*58
06/05/2014	04:03:42.971	$GPGGA,040342,2500.1832,N,08020.1356,W,1,9,1.6,15,M,,M,,*5F
06/05/2014	04:03:44.004	$GPGGA,040343,2500.1815,N,08020.1373,W,1,9,1.6,15,M,,M,,*5C
06/05/2014	04:03:45.027	$GPGGA,040344,2500.1799,N,08020.1391,W,1,9,1.6,15,M,,M,,*5C
06/05/2014	04:03:46.040	$GPGGA,040345,2500.1786,N,08020.1409,W,1,9,1.6,15,M,,M,,*55
06/05/2014	04:03:47.053	$GPGGA,040346,2500.1770,N,08020.1425,W,1,9,1.6,15,M,,M,,*51
06/05/2014	04:03:48.086	$GPGGA,040347,2500.1754,N,08020.1441,W,1,9,1.6,15,M,,M,,*54
06/05/2014	04:03:49.109	$GPGGA,040348,2500.1740,N,08020.1460,W,1,9,1.6,15,M,,M,,*5D
06/05/2014	04:03:50.102	$GPGGA,040349,2500.1724,N,08020.1478,W,1,9,1.6,15,M,,M,,*57
06/05/2014	04:03:51.136	$GPGGA,040350,2500.1709,N,08020.1496,W,1,9,1.6,15,M,,M,,*50
06/05/2014	04:03:52.270	$GPGGA,040351,2500.1693,N,08020.1514,W,1,9,1.6,15,M,,M,,*58
06/05/2014	04:03:53.180	$GPGGA,040352,2500.1678,N,08020.1532,W,1,9,1.6,15,M,,M,,*5A
06/05/2014	04:03:54.203	$GPGGA,040353,2500.1662,N,08020.1550,W,1,9,1.6,15,M,,M,,*54
06/05/2014	04:03:55.226	$GPGGA,040354,2500.1647,N,08020.1568,W,1,9,1.6,15,M,,M,,*5F
06/05/2014	04:03:56.260	$GPGGA,040355,2500.1633,N,08020.1586,W,1,9,1.6,15,M,,M,,*5D
06/05/2014	04:03:57.283	$GPGGA,040356,2500.1617,N,08020.1604,W,1,9,1.6,15,M,,M,,*51
06/05/2014	04:03:58.369	$GPGGA,040357,2500.1601,N,08020.1620,W,1,9,1.6,15,M,,M,,*51
06/05/2014	04:03:59.309	$GPGGA,040358,2500.1587,N,08020.1640,W,1,9,1.6,15,M,,M,,*55
06/05/2014	04:04:00.311	$GPGGA,040359,2500.1573,N,08020.1659,W,1,9,1.6,15,M,,M,,*57
06/05/2014	04:04:01.478	$GPGGA,040400,2500.1557,N,08020.1676,W,1,9,1.6,15,M,,M,,*57
06/05/2014	04:04:02.368	$GPGGA,040401,2500.1541,N,08020.1694,W,1,9,1.6,15,M,,M,,*5D
06/05/2014	04:04:03.391	$GPGGA,040402,2500.1528,N,08020.1712,W,1,9,1.6,15,M,,M,,*5E
06/05/2014	04:04:04.404	$GPGGA,040403,2500.1514,N,08020.1730,W,1,9,1.6,15,M,,M,,*50
06/05/2014	04:04:05.539	$GPGGA,040404,2500.1498,N,08020.1748,W,1,9,1.6,15,M,,M,,*5D
06/05/2014	04:04:06.450	$GPGGA,040405,2500.1483,N,08020.1767,W,1,9,1.6,15,M,,M,,*5B
06/05/2014	04:04:07.555	$GPGGA,040406,2500.1467,N,08020.1786,W,1,9,1.6,15,M,,M,,*5D
06/05/2014	04:04:08.588	$GPGGA,040407,2500.1451,N,08020.1804,W,1,9,1.6,15,M,,M,,*5C
06/05/2014	04:04:09.620	$GPGGA,040408,2500.1438,N,08020.1824,W,1,9,1.6,15,M,,M,,*5E
06/05/2014	04:04:10.664	$GPGGA,040409,2500.1423,N,08020.1842,W,1,9,1.6,15,M,,M,,*55
06/05/2014	04:04:11.656	$GPGGA,040410,2500.1407,N,08020.1860,W,1,9,1.6,15,M,,M,,*5B
06/05/2014	04:04:12.577	$GPGGA,040411,2500.1393,N,08020.1876,W,1,9,1.6,15,M,,M,,*57
06/05/2014	04:04:13.703	$GPGGA,040412,2500.1380,N,08020.1894,W,1,9,1.6,15,M,,M,,*5A
06/05/2014	04:04:14.746	$GPGGA,040413,2500.1364,N,08020.1912,W,1,9,1.6,15,M,,M,,*5E
06/05/2014	04:04:15.728	$GPGGA,040414,2500.1348,N,08020.1930,W,1,9,1.6,15,M,,M,,*57
06/05/2014	04:04:16.792	$GPGGA,040415,2500.1333,N,08020.1949,W,1,9,1.6,15,M,,M,,*54
06/05/2014	04:04:17.785	$GPGGA,040416,2500.1317,N,08020.1969,W,1,9,1.6,15,M,,M,,*53
06/05/2014	04:04:18.818	$GPGGA,040417,2500.1301,N,08020.1987,W,1,9,1.6,15,M,,M,,*55
06/05/2014	04:04:19.821	$GPGGA,040418,2500.1288,N,08020.2006,W,1,9,1.6,15,M,,M,,*59
06/05/2014	04:04:20.864	$GPGGA,040419,2500.1274,N,08020.2023,W,1,9,1.5,15,M,,M,,*5F
06/05/2014	04:04:21.877	$GPGGA,040420,2500.1261,N,08020.2041,W,1,9,1.5,15,M,,M,,*55
06/05/2014	04:04:22.911	$GPGGA,040421,2500.1247,N,08020.2059,W,1,9,1.5,15,M,,M,,*59
06/05/2014	04:04:23.903	$GPGGA,040422,2500.1232,N,08020.2077,W,1,9,1.5,15,M,,M,,*54
06/05/2014	04:04:24.936	$GPGGA,040423,2500.1221,N,08020.2092,W,1,9,1.6,15,M,,M,,*5F
06/05/2014	04:04:25.950	$GPGGA,040424,2500.1207,N,08020.2110,W,1,9,1.5,15,M,,M,,*54
06/05/2014	04:04:26.982	$GPGGA,040425,2500.1190,N,08020.2128,W,1,9,1.5,15,M,,M,,*53
06/05/2014	04:04:27.985	$GPGGA,040426,2500.1174,N,08020.2146,W,1,9,1.6,15,M,,M,,*51
06/05/2014	04:04:29.007	$GPGGA,040427,2500.1158,N,08020.2167,W,1,9,1.6,15,M,,M,,*5D
06/05/2014	04:04:30.040	$GPGGA,040428,2500.1142,N,08020.2186,W,1,9,1.6,15,M,,M,,*56
06/05/2014	04:04:31.074	$GPGGA,040429,2500.1126,N,08020.2204,W,1,9,1.6,15,M,,M,,*5C
06/05/2014	04:04:32.076	$GPGGA,040430,2500.1113,N,08020.2222,W,1,9,1.5,15,M,,M,,*55
06/05/2014	04:04:33.120	$GPGGA,040431,2500.1098,N,08020.2240,W,1,9,1.5,15,M,,M,,*52
06/05/2014	04:04:34.133	$GPGGA,040432,2500.1087,N,08020.2255,W,1,9,1.6,15,M,,M,,*58
06/05/2014	04:04:32.568	$GPGGA,040433,2500.1073,N,08020.2270,W,1,9,1.5,16,M,,M,,*55
06/05/2014	04:04:33.550	$GPGGA,040434,2500.1059,N,08020.2288,W,1,9,1.5,16,M,,M,,*5D
06/05/2014	04:04:34.573	$GPGGA,040435,2500.1048,N,08020.2305,W,1,9,1.6,16,M,,M,,*5B
06/05/2014	04:04:35.617	$GPGGA,040436,2500.1031,N,08020.2324,W,1,9,1.5,16,M,,M,,*56
06/05/2014	04:04:36.650	$GPGGA,040437,2500.1014,N,08020.2344,W,1,9,1.5,16,M,,M,,*56
06/05/2014	04:04:37.633	$GPGGA,040438,2500.0997,N,08020.2361,W,1,9,1.5,16,M,,M,,*5D
06/05/2014	04:04:38.686	$GPGGA,040439,2500.0981,N,08020.2379,W,1,9,1.5,16,M,,M,,*52
06/05/2014	04:04:39.689	$GPGGA,040440,2500.0965,N,08020.2399,W,1,9,1.5,16,M,,M,,*58
06/05/2014	04:04:40.702	$GPGGA,040441,2500.0949,N,08020.2415,W,1,9,1.6,16,M,,M,,*57
06/05/2014	04:04:41.715	$GPGGA,040442,2500.0934,N,08020.2432,W,1,9,1.6,16,M,,M,,*5B
06/05/2014	04:04:42.767	$GPGGA,040443,2500.0918,N,08020.2449,W,1,9,1.6,16,M,,M,,*58
06/05/2014	04:04:43.780	$GPGGA,040444,2500.0903,N,08020.2467,W,1,9,1.6,16,M,,M,,*59
06/05/2014	04:04:44.916	$GPGGA,040445,2500.0889,N,08020.2486,W,1,9,1.6,16,M,,M,,*54
06/05/2014	04:04:45.908	$GPGGA,040446,2500.0873,N,08020.2504,W,1,9,1.6,16,M,,M,,*59
06/05/2014	04:04:46.819	$GPGGA,040447,2500.0858,N,08020.2522,W,1,10,1.5,16,M,,M,,*6E
06/05/2014	04:04:47.873	$GPGGA,040448,2500.0843,N,08020.2540,W,1,10,1.5,16,M,,M,,*6F
06/05/2014	04:04:48.978	$GPGGA,040449,2500.0827,N,08020.2556,W,1,10,1.5,16,M,,M,,*6B
06/05/2014	04:04:49.898	$GPGGA,040450,2500.0813,N,08020.2574,W,1,10,1.5,16,M,,M,,*64
06/05/2014	04:04:51.014	$GPGGA,040451,2500.0798,N,08020.2594,W,1,10,1.5,16,M,,M,,*67
06/05/2014	04:04:51.945	$GPGGA,040452,2500.0784,N,08020.2610,W,1,10,1.6,16,M,,M,,*65
06/05/2014	04:04:52.958	$GPGGA,040453,2500.0766,N,08020.2626,W,1,9,1.6,16,M,,M,,*55
06/05/2014	04:04:54.011	$GPGGA,040454,2500.0751,N,08020.2645,W,1,9,1.6,16,M,,M,,*53
06/05/2014	04:04:55.116	$GPGGA,040455,2500.0739,N,08020.2663,W,1,9,1.6,16,M,,M,,*58
06/05/2014	04:04:56.137	$GPGGA,040456,2500.0724,N,08020.2681,W,1,9,1.5,16,M,,M,,*58
06/05/2014	04:04:57.143	$GPGGA,040457,2500.0708,N,08020.2699,W,1,10,1.5,16,M,,M,,*66
06/05/2014	04:04:58.063	$GPGGA,040458,2500.0691,N,08020.2720,W,1,10,1.5,16,M,,M,,*6B
06/05/2014	04:04:59.209	$GPGGA,040459,2500.0676,N,08020.2738,W,1,9,1.6,16,M,,M,,*51
06/05/2014	04:05:00.232	$GPGGA,040500,2500.0661,N,08020.2757,W,1,9,1.6,16,M,,M,,*53
06/05/2014	04:05:01.213	$GPGGA,040501,2500.0645,N,08020.2775,W,1,9,1.6,16,M,,M,,*54
06/05/2014	04:05:02.256	$GPGGA,040502,2500.0632,N,08020.2792,W,1,9,1.6,16,M,,M,,*5E
06/05/2014	04:05:03.290	$GPGGA,040503,2500.0619,N,08020.2808,W,1,10,1.5,16,M,,M,,*61
06/05/2014	04:05:04.303	$GPGGA,040504,2500.0605,N,08020.2825,W,1,10,1.5,16,M,,M,,*64
06/05/2014	04:05:05.326	$GPGGA,040505,2500.0591,N,08020.2843,W,1,10,1.5,16,M,,M,,*6B
06/05/2014	04:05:06.318	$GPGGA,040506,2500.0578,N,08020.2862,W,1,10,1.5,16,M,,M,,*6C
06/05/2014	04:05:07.372	$GPGGA,040507,2500.0562,N,08020.2880,W,1,10,1.5,16,M,,M,,*6A
06/05/2014	04:05:08.375	$GPGGA,040508,2500.0547,N,08020.2899,W,1,10,1.5,16,M,,M,,*6A
06/05/2014	04:05:09.439	$GPGGA,040509,2500.0533,N,08020.2920,W,1,10,1.5,16,M,,M,,*6B
06/05/2014	04:05:10.411	$GPGGA,040510,2500.0518,N,08020.2941,W,1,10,1.5,16,M,,M,,*6D
06/05/2014	04:05:11.434	$GPGGA,040511,2500.0502,N,08020.2957,W,1,10,1.5,16,M,,M,,*60
06/05/2014	04:05:12.487	$GPGGA,040512,2500.0488,N,08020.2977,W,1,10,1.5,17,M,,M,,*63
06/05/2014	04:05:13.511	$GPGGA,040513,2500.0473,N,08020.2995,W,1,9,1.6,17,M,,M,,*51
06/05/2014	04:05:14.493	$GPGGA,040514,2500.0459,N,08020.3013,W,1,9,1.5,17,M,,M,,*5B
06/05/2014	04:05:15.516	$GPGGA,040515,2500.0445,N,08020.3031,W,1,10,1.5,17,M,,M,,*6F
06/05/2014	04:05:16.571	$GPGGA,040516,2500.0430,N,08020.3049,W,1,10,1.5,17,M,,M,,*61
06/05/2014	04:05:17.584	$GPGGA,040517,2500.0416,N,08020.3067,W,1,10,1.5,17,M,,M,,*68
06/05/2014	04:05:18.584	$GPGGA,040518,2500.0401,N,08020.3085,W,1,10,1.5,17,M,,M,,*6D
06/05/2014	04:05:19.597	$GPGGA,040519,2500.0387,N,08020.3104,W,1,10,1.5,17,M,,M,,*6D
06/05/2014	04:05:20.630	$GPGGA,040520,2500.0372,N,08020.3123,W,1,10,1.5,17,M,,M,,*68
06/05/2014	04:05:21.653	$GPGGA,040521,2500.0355,N,08020.3143,W,1,10,1.5,17,M,,M,,*6A
06/05/2014	04:05:22.656	$GPGGA,040522,2500.0340,N,08020.3163,W,1,10,1.5,17,M,,M,,*6F
06/05/2014	04:05:23.710	$GPGGA,040523,2500.0324,N,08020.3183,W,1,9,1.6,17,M,,M,,*59
06/05/2014	04:05:24.712	$GPGGA,040524,2500.0309,N,08020.3201,W,1,9,1.6,17,M,,M,,*58
06/05/2014	04:05:25.736	$GPGGA,040525,2500.0294,N,08020.3217,W,1,9,1.6,17,M,,M,,*5B
06/05/2014	04:05:26.841	$GPGGA,040526,2500.0282,N,08020.3234,W,1,9,1.5,17,M,,M,,*5D
06/05/2014	04:05:27.761	$GPGGA,040527,2500.0269,N,08020.3252,W,1,10,1.5,17,M,,M,,*61
06/05/2014	04:05:28.795	$GPGGA,040528,2500.0253,N,08020.3270,W,1,10,1.5,17,M,,M,,*67
06/05/2014	04:05:29.930	$GPGGA,040529,2500.0235,N,08020.3288,W,1,9,1.6,17,M,,M,,*5A
06/05/2014	04:05:30.841	$GPGGA,040530,2500.0221,N,08020.3306,W,1,9,1.6,17,M,,M,,*50
06/05/2014	04:05:31.844	$GPGGA,040531,2500.0204,N,08020.3325,W,1,10,1.5,17,M,,M,,*6C
06/05/2014	04:05:33.020	$GPGGA,040532,2500.0188,N,08020.3342,W,1,10,1.5,17,M,,M,,*69
06/05/2014	04:05:32.639	$GPGGA,040533,2500.0172,N,08020.3360,W,1,10,1.5,17,M,,M,,*6D
06/05/2014	04:05:33.529	$GPGGA,040534,2500.0157,N,08020.3378,W,1,10,1.5,17,M,,M,,*64
06/05/2014	04:05:34.552	$GPGGA,040535,2500.0142,N,08020.3396,W,1,10,1.5,17,M,,M,,*61
06/05/2014	04:05:35.687	$GPGGA,040536,2500.0126,N,08020.3412,W,1,10,1.5,17,M,,M,,*6B
06/05/2014	04:05:36.618	$GPGGA,040537,2500.0112,N,08020.3430,W,1,10,1.5,17,M,,M,,*6D
06/05/2014	04:05:37.712	$GPGGA,040538,2500.0096,N,08020.3448,W,1,10,1.5,17,M,,M,,*60
06/05/2014	04:05:38.776	$GPGGA,040539,2500.0080,N,08020.3465,W,1,10,1.5,17,M,,M,,*69
06/05/2014	04:05:39.779	$GPGGA,040540,2500.0065,N,08020.3484,W,1,10,1.5,17,M,,M,,*63
06/05/2014	04:05:40.802	$GPGGA,040541,2500.0048,N,08020.3504,W,1,10,1.5,17,M,,M,,*64
06/05/2014	04:05:41.805	$GPGGA,040542,2500.0033,N,08020.3520,W,1,10,1.5,17,M,,M,,*6D
06/05/2014	04:05:42.818	$GPGGA,040543,2500.0018,N,08020.3538,W,1,10,1.5,17,M,,M,,*6C
06/05/2014	04:05:43.861	$GPGGA,040544,2500.0002,N,08020.3555,W,1,10,1.5,17,M,,M,,*6B
06/05/2014	04:05:44.864	$GPGGA,040545,2459.9987,N,08020.3573,W,1,10,1.5,17,M,,M,,*6E
06/05/2014	04:05:45.897	$GPGGA,040546,2459.9972,N,08020.3591,W,1,10,1.5,17,M,,M,,*6B
06/05/2014	04:05:46.910	$GPGGA,040547,2459.9957,N,08020.3607,W,1,10,1.5,17,M,,M,,*61
06/05/2014	04:05:47.943	$GPGGA,040548,2459.9941,N,08020.3625,W,1,10,1.5,17,M,,M,,*69
06/05/2014	04:05:48.967	$GPGGA,040549,2459.9926,N,08020.3645,W,1,10,1.5,17,M,,M,,*6F
06/05/2014	04:05:49.979	$GPGGA,040550,2459.9910,N,08020.3661,W,1,10,1.5,17,M,,M,,*64
06/05/2014	04:05:50.982	$GPGGA,040551,2459.9893,N,08020.3678,W,1,9,1.6,17,M,,M,,*5C
06/05/2014	04:05:52.016	$GPGGA,040552,2459.9877,N,08020.3697,W,1,9,1.5,17,M,,M,,*57
06/05/2014	04:05:53.078	$GPGGA,040553,2459.9863,N,08020.3715,W,1,9,1.6,17,M,,M,,*5B
06/05/2014	04:05:54.060	$GPGGA,040554,2459.9848,N,08020.3732,W,1,9,1.5,17,M,,M,,*53
06/05/2014	04:05:55.094	$GPGGA,040555,2459.9834,N,08020.3747,W,1,10,1.5,17,M,,M,,*63
06/05/2014	04:05:56.127	$GPGGA,040556,2459.9818,N,08020.3766,W,1,10,1.5,17,M,,M,,*6D
06/05/2014	04:05:57.109	$GPGGA,040557,2459.9805,N,08020.3786,W,1,9,1.6,17,M,,M,,*55
06/05/2014	04:05:58.122	$GPGGA,040558,2459.9788,N,08020.3801,W,1,9,1.6,17,M,,M,,*50
06/05/2014	04:05:59.186	$GPGGA,040559,2459.9773,N,08020.3819,W,1,10,1.5,17,M,,M,,*67
06/05/2014	04:06:00.209	$GPGGA,040600,2459.9759,N,08020.3838,W,1,10,1.5,17,M,,M,,*63
06/05/2014	04:06:01.212	$GPGGA,040601,2459.9744,N,08020.3856,W,1,9,1.6,17,M,,M,,*5D
06/05/2014	04:06:02.225	$GPGGA,040602,2459.9729,N,08020.3873,W,1,9,1.5,17,M,,M,,*51
06/05/2014	04:06:03.238	$GPGGA,040603,2459.9715,N,08020.3891,W,1,10,1.5,17,M,,M,,*6B
06/05/2014	04:06:04.271	$GPGGA,040604,2459.9700,N,08020.3909,W,1,10,1.6,17,M,,M,,*6B
06/05/2014	04:06:05.274	$GPGGA,040605,2459.9684,N,08020.3927,W,1,9,1.6,17,M,,M,,*53
06/05/2014	04:06:06.307	$GPGGA,040606,2459.9669,N,08020.3945,W,1,9,1.6,17,M,,M,,*57
06/05/2014	04:06:07.320	$GPGGA,040607,2459.9654,N,08020.3964,W,1,9,1.6,17,M,,M,,*5B
06/05/2014	04:06:08.363	$GPGGA,040608,2459.9639,N,08020.3982,W,1,9,1.6,17,M,,M,,*57
06/05/2014	04:06:09.366	$GPGGA,040609,2459.9622,N,08020.3999,W,1,9,1.6,17,M,,M,,*56
06/05/2014	04:06:10.379	$GPGGA,040610,2459.9608,N,08020.4017,W,1,9,1.6,17,M,,M,,*5E
06/05/2014	04:06:11.411	$GPGGA,040611,2459.9595,N,08020.4035,W,1,10,1.5,17,M,,M,,*63
06/05/2014	04:06:12.443	$GPGGA,040612,2459.9581,N,08020.4050,W,1,10,1.5,17,M,,M,,*66
06/05/2014	04:06:13.443	$GPGGA,040613,2459.9568,N,08020.4068,W,1,10,1.5,17,M,,M,,*6B
06/05/2014	04:06:14.432	$GPGGA,040614,2459.9554,N,08020.4086,W,1,10,1.5,17,M,,M,,*63
06/05/2014	04:06:15.452	$GPGGA,040615,2459.9538,N,08020.4105,W,1,10,1.5,17,M,,M,,*62
06/05/2014	04:06:16.462	$GPGGA,040616,2459.9523,N,08020.4126,W,1,10,1.6,17,M,,M,,*69
06/05/2014	04:06:17.462	$GPGGA,040617,2459.9506,N,08020.4144,W,1,9,1.6,17,M,,M,,*53
06/05/2014	04:06:18.472	$GPGGA,040618,2459.9491,N,08020.4163,W,1,9,1.6,17,M,,M,,*56
06/05/2014	04:06:19.573	$GPGGA,040619,2459.9476,N,08020.4181,W,1,10,1.5,17,M,,M,,*69
06/05/2014	04:06:20.482	$GPGGA,040620,2459.9463,N,08020.4201,W,1,10,1.5,17,M,,M,,*6C
06/05/2014	04:06:21.512	$GPGGA,040621,2459.9449,N,08020.4219,W,1,10,1.5,17,M,,M,,*6C
06/05/2014	04:06:22.502	$GPGGA,040622,2459.9434,N,08020.4235,W,1,10,1.5,17,M,,M,,*6B
06/05/2014	04:06:23.623	$GPGGA,040623,2459.9422,N,08020.4253,W,1,10,1.5,17,M,,M,,*6D
06/05/2014	04:06:24.653	$GPGGA,040624,2459.9408,N,08020.4271,W,1,10,1.5,17,M,,M,,*62
06/05/2014	04:06:25.663	$GPGGA,040625,2459.9393,N,08020.4289,W,1,10,1.5,17,M,,M,,*61
06/05/2014	04:06:26.642	$GPGGA,040626,2459.9379,N,08020.4308,W,1,10,1.5,17,M,,M,,*6E
06/05/2014	04:06:27.541	$GPGGA,040627,2459.9363,N,08020.4328,W,1,10,1.5,17,M,,M,,*66
06/05/2014	04:06:28.560	$GPGGA,040628,2459.9348,N,08020.4346,W,1,10,1.5,17,M,,M,,*68
06/05/2014	04:06:29.661	$GPGGA,040629,2459.9333,N,08020.4365,W,1,10,1.5,17,M,,M,,*64
06/05/2014	04:06:30.661	$GPGGA,040630,2459.9319,N,08020.4384,W,1,10,1.5,17,M,,M,,*6B
06/05/2014	04:06:31.681	$GPGGA,040631,2459.9305,N,08020.4404,W,1,10,1.5,17,M,,M,,*68
06/05/2014	04:06:32.690	$GPGGA,040632,2459.9290,N,08020.4422,W,1,10,1.5,17,M,,M,,*62
06/05/2014	04:06:32.597	$GPGGA,040633,2459.9277,N,08020.4438,W,1,10,1.5,17,M,,M,,*61
06/05/2014	04:06:33.586	$GPGGA,040634,2459.9263,N,08020.4458,W,1,10,1.5,17,M,,M,,*65
06/05/2014	04:06:34.627	$GPGGA,040635,2459.9249,N,08020.4476,W,1,10,1.5,17,M,,M,,*60
06/05/2014	04:06:35.616	$GPGGA,040636,2459.9234,N,08020.4494,W,1,10,1.5,17,M,,M,,*65
06/05/2014	04:06:36.626	$GPGGA,040637,2459.9220,N,08020.4513,W,1,10,1.5,17,M,,M,,*6F
06/05/2014	04:06:37.616	$GPGGA,040638,2459.9205,N,08020.4534,W,1,10,1.5,17,M,,M,,*62
06/05/2014	04:06:38.646	$GPGGA,040639,2459.9191,N,08020.4552,W,1,10,1.5,17,M,,M,,*6D
06/05/2014	04:06:39.646	$GPGGA,040640,2459.9177,N,08020.4570,W,1,10,1.5,17,M,,M,,*6B
06/05/2014	04:06:40.668	$GPGGA,040641,2459.9164,N,08020.4588,W,1,10,1.5,17,M,,M,,*6F
06/05/2014	04:06:41.656	$GPGGA,040642,2459.9151,N,08020.4606,W,1,10,1.5,17,M,,M,,*6F
06/05/2014	04:06:42.655	$GPGGA,040643,2459.9135,N,08020.4624,W,1,10,1.5,17,M,,M,,*6C
06/05/2014	04:06:43.685	$GPGGA,040644,2459.9120,N,08020.4642,W,1,10,1.6,17,M,,M,,*6C
06/05/2014	04:06:44.695	$GPGGA,040645,2459.9106,N,08020.4662,W,1,9,1.5,17,M,,M,,*50
06/05/2014	04:06:45.684	$GPGGA,040646,2459.9090,N,08020.4680,W,1,9,1.6,17,M,,M,,*52
06/05/2014	04:06:46.674	$GPGGA,040647,2459.9072,N,08020.4698,W,1,9,1.5,17,M,,M,,*55
06/05/2014	04:06:47.714	$GPGGA,040648,2459.9058,N,08020.4716,W,1,9,1.5,17,M,,M,,*55
06/05/2014	04:06:48.704	$GPGGA,040649,2459.9043,N,08020.4733,W,1,10,1.5,17,M,,M,,*61
06/05/2014	04:06:49.714	$GPGGA,040650,2459.9027,N,08020.4751,W,1,10,1.5,17,M,,M,,*6F
06/05/2014	04:06:50.744	$GPGGA,040651,2459.9011,N,08020.4767,W,1,10,1.5,17,M,,M,,*6E
06/05/2014	04:06:51.743	$GPGGA,040652,2459.8996,N,08020.4785,W,1,10,1.5,17,M,,M,,*66
06/05/2014	04:06:52.753	$GPGGA,040653,2459.8982,N,08020.4805,W,1,10,1.5,17,M,,M,,*65
06/05/2014	04:06:53.773	$GPGGA,040654,2459.8967,N,08020.4821,W,1,10,1.5,17,M,,M,,*6F
06/05/2014	04:06:54.783	$GPGGA,040655,2459.8950,N,08020.4837,W,1,10,1.5,17,M,,M,,*6D
06/05/2014	04:06:55.773	$GPGGA,040656,2459.8936,N,08020.4855,W,1,10,1.5,17,M,,M,,*6A
06/05/2014	04:06:56.773	$GPGGA,040657,2459.8922,N,08020.4874,W,1,10,1.5,17,M,,M,,*6D
06/05/2014	04:06:57.773	$GPGGA,040658,2459.8906,N,08020.4891,W,1,10,1.5,17,M,,M,,*6F
06/05/2014	04:06:58.813	$GPGGA,040659,2459.8891,N,08020.4906,W,1,10,1.5,17,M,,M,,*6E
06/05/2014	04:06:59.813	$GPGGA,040700,2459.8875,N,08020.4924,W,1,10,1.5,17,M,,M,,*69
06/05/2014	04:07:00.812	$GPGGA,040701,2459.8860,N,08020.4942,W,1,10,1.5,17,M,,M,,*6C
06/05/2014	04:07:01.812	$GPGGA,040702,2459.8842,N,08020.4960,W,1,10,1.5,17,M,,M,,*6F
06/05/2014	04:07:02.831	$GPGGA,040703,2459.8827,N,08020.4976,W,1,10,1.5,17,M,,M,,*6A
06/05/2014	04:07:03.851	$GPGGA,040704,2459.8812,N,08020.4994,W,1,10,1.5,17,M,,M,,*67
06/05/2014	04:07:04.861	$GPGGA,040705,2459.8797,N,08020.5011,W,1,10,1.5,17,M,,M,,*61
06/05/2014	04:07:05.830	$GPGGA,040706,2459.8779,N,08020.5027,W,1,10,1.5,16,M,,M,,*66
06/05/2014	04:07:06.871	$GPGGA,040707,2459.8765,N,08020.5045,W,1,10,1.5,16,M,,M,,*6E
06/05/2014	04:07:07.881	$GPGGA,040708,2459.8750,N,08020.5062,W,1,10,1.5,16,M,,M,,*62
06/05/2014	04:07:08.890	$GPGGA,040709,2459.8734,N,08020.5079,W,1,10,1.5,16,M,,M,,*6B
06/05/2014	04:07:09.961	$GPGGA,040710,2459.8721,N,08020.5098,W,1,10,1.5,16,M,,M,,*68
06/05/2014	04:07:10.900	$GPGGA,040711,2459.8704,N,08020.5115,W,1,10,1.6,16,M,,M,,*69
06/05/2014	04:07:11.900	$GPGGA,040712,2459.8689,N,08020.5131,W,1,10,1.6,16,M,,M,,*68
06/05/2014	04:07:13.011	$GPGGA,040713,2459.8674,N,08020.5150,W,1,9,1.6,16,M,,M,,*54
06/05/2014	04:07:13.910	$GPGGA,040714,2459.8657,N,08020.5168,W,1,9,1.6,16,M,,M,,*59
06/05/2014	04:07:15.010	$GPGGA,040715,2459.8642,N,08020.5185,W,1,9,1.5,16,M,,M,,*5C
06/05/2014	04:07:15.940	$GPGGA,040716,2459.8626,N,08020.5202,W,1,9,1.5,16,M,,M,,*51
06/05/2014	04:07:17.020	$GPGGA,040717,2459.8613,N,08020.5221,W,1,10,1.5,16,M,,M,,*6F
06/05/2014	04:07:18.030	$GPGGA,040718,2459.8597,N,08020.5239,W,1,10,1.6,16,M,,M,,*65
06/05/2014	04:07:19.070	$GPGGA,040719,2459.8584,N,08020.5256,W,1,9,1.6,16,M,,M,,*57
06/05/2014	04:07:20.061	$GPGGA,040720,2459.8568,N,08020.5272,W,1,9,1.5,16,M,,M,,*5A
06/05/2014	04:07:21.079	$GPGGA,040721,2459.8555,N,08020.5290,W,1,10,1.5,16,M,,M,,*61
06/05/2014	04:07:22.070	$GPGGA,040722,2459.8540,N,08020.5309,W,1,10,1.5,16,M,,M,,*67
06/05/2014	04:07:23.090	$GPGGA,040723,2459.8526,N,08020.5329,W,1,10,1.5,16,M,,M,,*64
06/05/2014	04:07:24.090	$GPGGA,040724,2459.8510,N,08020.5347,W,1,10,1.5,16,M,,M,,*6E
06/05/2014	04:07:25.089	$GPGGA,040725,2459.8495,N,08020.5366,W,1,10,1.5,16,M,,M,,*60
06/05/2014	04:07:26.098	$GPGGA,040726,2459.8481,N,08020.5384,W,1,10,1.5,16,M,,M,,*6A
06/05/2014	04:07:27.118	$GPGGA,040727,2459.8466,N,08020.5402,W,1,10,1.5,16,M,,M,,*6B
06/05/2014	04:07:28.118	$GPGGA,040728,2459.8454,N,08020.5420,W,1,10,1.5,16,M,,M,,*65
06/05/2014	04:07:29.108	$GPGGA,040729,2459.8439,N,08020.5437,W,1,10,1.5,16,M,,M,,*69
06/05/2014	04:07:30.118	$GPGGA,040730,2459.8425,N,08020.5455,W,1,10,1.5,16,M,,M,,*68
06/05/2014	04:07:31.158	$GPGGA,040731,2459.8410,N,08020.5473,W,1,10,1.5,16,M,,M,,*6B
06/05/2014	04:07:32.158	$GPGGA,040732,2459.8396,N,08020.5492,W,1,10,1.5,16,M,,M,,*6E
06/05/2014	04:07:32.544	$GPGGA,040733,2459.8380,N,08020.5511,W,1,10,1.5,16,M,,M,,*62
06/05/2014	04:07:33.564	$GPGGA,040734,2459.8365,N,08020.5531,W,1,10,1.5,16,M,,M,,*6C
06/05/2014	04:07:34.596	$GPGGA,040735,2459.8350,N,08020.5550,W,1,10,1.5,16,M,,M,,*6C
06/05/2014	04:07:35.584	$GPGGA,040736,2459.8335,N,08020.5568,W,1,10,1.5,16,M,,M,,*67
06/05/2014	04:07:36.594	$GPGGA,040737,2459.8320,N,08020.5586,W,1,10,1.5,16,M,,M,,*62
06/05/2014	04:07:37.603	$GPGGA,040738,2459.8306,N,08020.5605,W,1,10,1.5,16,M,,M,,*61
06/05/2014	04:07:38.633	$GPGGA,040739,2459.8291,N,08020.5623,W,1,10,1.5,16,M,,M,,*6B
06/05/2014	04:07:39.612	$GPGGA,040740,2459.8277,N,08020.5640,W,1,10,1.5,16,M,,M,,*68
06/05/2014	04:07:40.643	$GPGGA,040741,2459.8261,N,08020.5658,W,1,10,1.5,16,M,,M,,*67
06/05/2014	04:07:41.612	$GPGGA,040742,2459.8246,N,08020.5677,W,1,10,1.5,16,M,,M,,*6C
06/05/2014	04:07:42.632	$GPGGA,040743,2459.8231,N,08020.5695,W,1,10,1.5,16,M,,M,,*61
06/05/2014	04:07:43.662	$GPGGA,040744,2459.8215,N,08020.5715,W,1,10,1.5,16,M,,M,,*69
06/05/2014	04:07:44.642	$GPGGA,040745,2459.8199,N,08020.5734,W,1,10,1.5,16,M,,M,,*6C
06/05/2014	04:07:45.672	$GPGGA,040746,2459.8184,N,08020.5753,W,1,10,1.6,17,M,,M,,*60
06/05/2014	04:07:46.662	$GPGGA,040747,2459.8167,N,08020.5770,W,1,10,1.5,17,M,,M,,*6E
06/05/2014	04:07:47.692	$GPGGA,040748,2459.8152,N,08020.5788,W,1,10,1.5,16,M,,M,,*61
06/05/2014	04:07:48.691	$GPGGA,040749,2459.8138,N,08020.5807,W,1,9,1.6,16,M,,M,,*5F
06/05/2014	04:07:49.691	$GPGGA,040750,2459.8123,N,08020.5824,W,1,9,1.6,16,M,,M,,*5C
06/05/2014	04:07:50.701	$GPGGA,040751,2459.8108,N,08020.5839,W,1,10,1.5,16,M,,M,,*63
06/05/2014	04:07:51.711	$GPGGA,040752,2459.8094,N,08020.5857,W,1,10,1.5,16,M,,M,,*6C
06/05/2014	04:07:52.711	$GPGGA,040753,2459.8080,N,08020.5876,W,1,10,1.5,16,M,,M,,*6B
06/05/2014	04:07:53.711	$GPGGA,040754,2459.8064,N,08020.5894,W,1,10,1.5,16,M,,M,,*6A
06/05/2014	04:07:54.741	$GPGGA,040755,2459.8049,N,08020.5914,W,1,10,1.5,16,M,,M,,*6D
06/05/2014	04:07:55.760	$GPGGA,040756,2459.8032,N,08020.5932,W,1,10,1.6,16,M,,M,,*65
06/05/2014	04:07:56.781	$GPGGA,040757,2459.8017,N,08020.5948,W,1,9,1.6,16,M,,M,,*56
06/05/2014	04:07:57.840	$GPGGA,040758,2459.8003,N,08020.5966,W,1,9,1.6,16,M,,M,,*50
06/05/2014	04:07:58.850	$GPGGA,040759,2459.7988,N,08020.5983,W,1,10,1.5,16,M,,M,,*64
06/05/2014	04:07:59.799	$GPGGA,040800,2459.7972,N,08020.6001,W,1,10,1.5,16,M,,M,,*62
06/05/2014	04:08:00.860	$GPGGA,040801,2459.7957,N,08020.6022,W,1,9,1.6,16,M,,M,,*5E
06/05/2014	04:08:01.789	$GPGGA,040802,2459.7941,N,08020.6040,W,1,9,1.6,16,M,,M,,*5E
06/05/2014	04:08:02.910	$GPGGA,040803,2459.7924,N,08020.6056,W,1,9,1.6,16,M,,M,,*5B
06/05/2014	04:08:03.819	$GPGGA,040804,2459.7912,N,08020.6073,W,1,9,1.6,16,M,,M,,*5E
06/05/2014	04:08:04.930	$GPGGA,040805,2459.7897,N,08020.6091,W,1,10,1.5,16,M,,M,,*64
06/05/2014	04:08:05.910	$GPGGA,040806,2459.7883,N,08020.6109,W,1,10,1.5,16,M,,M,,*62
06/05/2014	04:08:06.828	$GPGGA,040807,2459.7867,N,08020.6127,W,1,10,1.5,16,M,,M,,*65
06/05/2014	04:08:07.931	$GPGGA,040808,2459.7852,N,08020.6143,W,1,10,1.5,16,M,,M,,*6E
06/05/2014	04:08:08.959	$GPGGA,040809,2459.7836,N,08020.6161,W,1,10,1.5,16,M,,M,,*6D
06/05/2014	04:08:11.383	$GPGGA,040811,2459.7807,N,08020.6197,W,1,10,1.5,16,M,,M,,*6F
06/05/2014	04:08:11.989	$GPGGA,040812,2459.7791,N,08020.6214,W,1,10,1.6,16,M,,M,,*67
06/05/2014	04:08:12.991	$GPGGA,040813,2459.7778,N,08020.6228,W,1,9,1.6,16,M,,M,,*56
06/05/2014	04:08:13.967	$GPGGA,040814,2459.7764,N,08020.6246,W,1,9,1.5,16,M,,M,,*57
06/05/2014	04:08:14.987	$GPGGA,040815,2459.7749,N,08020.6265,W,1,10,1.5,16,M,,M,,*60
06/05/2014	04:08:16.007	$GPGGA,040816,2459.7735,N,08020.6284,W,1,10,1.6,16,M,,M,,*64
06/05/2014	04:08:17.017	$GPGGA,040817,2459.7717,N,08020.6301,W,1,10,1.5,16,M,,M,,*6A
06/05/2014	04:08:19.431	$GPGGA,040819,2459.7686,N,08020.6338,W,1,9,1.6,16,M,,M,,*5C
06/05/2014	04:08:20.027	$GPGGA,040820,2459.7672,N,08020.6355,W,1,9,1.6,16,M,,M,,*56
06/05/2014	04:08:21.057	$GPGGA,040821,2459.7659,N,08020.6371,W,1,10,1.5,16,M,,M,,*63
06/05/2014	04:08:22.026	$GPGGA,040822,2459.7643,N,08020.6389,W,1,10,1.5,16,M,,M,,*6C
06/05/2014	04:08:23.077	$GPGGA,040823,2459.7630,N,08020.6406,W,1,9,1.6,16,M,,M,,*52
06/05/2014	04:08:24.066	$GPGGA,040824,2459.7613,N,08020.6424,W,1,9,1.5,16,M,,M,,*57
06/05/2014	04:08:25.056	$GPGGA,040825,2459.7598,N,08020.6442,W,1,10,1.5,16,M,,M,,*6E
06/05/2014	04:08:26.066	$GPGGA,040826,2459.7583,N,08020.6461,W,1,10,1.5,16,M,,M,,*66
06/05/2014	04:08:27.086	$GPGGA,040827,2459.7569,N,08020.6479,W,1,10,1.5,16,M,,M,,*6A
06/05/2014	04:08:28.097	$GPGGA,040828,2459.7552,N,08020.6496,W,1,10,1.5,16,M,,M,,*6C
06/05/2014	04:08:29.085	$GPGGA,040829,2459.7537,N,08020.6515,W,1,9,1.6,16,M,,M,,*5F
06/05/2014	04:08:30.085	$GPGGA,040830,2459.7523,N,08020.6533,W,1,9,1.6,16,M,,M,,*56
06/05/2014	04:08:31.104	$GPGGA,040831,2459.7509,N,08020.6548,W,1,9,1.6,16,M,,M,,*53
06/05/2014	04:08:32.134	$GPGGA,040832,2459.7493,N,08020.6566,W,1,9,1.5,16,M,,M,,*5D
06/05/2014	04:08:32.542	$GPGGA,040833,2459.7482,N,08020.6583,W,1,9,1.6,16,M,,M,,*54
06/05/2014	04:08:33.532	$GPGGA,040834,2459.7464,N,08020.6601,W,1,9,1.5,16,M,,M,,*51
06/05/2014	04:08:34.542	$GPGGA,040835,2459.7446,N,08020.6619,W,1,10,1.5,16,M,,M,,*61
06/05/2014	04:08:35.572	$GPGGA,040836,2459.7431,N,08020.6638,W,1,10,1.5,15,M,,M,,*62
06/05/2014	04:08:36.582	$GPGGA,040837,2459.7417,N,08020.6658,W,1,9,1.5,15,M,,M,,*59
06/05/2014	04:08:37.571	$GPGGA,040838,2459.7402,N,08020.6676,W,1,9,1.6,15,M,,M,,*5D
06/05/2014	04:08:38.571	$GPGGA,040839,2459.7388,N,08020.6692,W,1,10,1.5,15,M,,M,,*68
06/05/2014	04:08:39.611	$GPGGA,040840,2459.7374,N,08020.6709,W,1,10,1.5,15,M,,M,,*66
06/05/2014	04:08:40.692	$GPGGA,040841,2459.7360,N,08020.6727,W,1,10,1.5,15,M,,M,,*6E
06/05/2014	04:08:41.601	$GPGGA,040842,2459.7347,N,08020.6745,W,1,10,1.6,15,M,,M,,*6F
06/05/2014	04:08:42.621	$GPGGA,040843,2459.7332,N,08020.6763,W,1,10,1.5,15,M,,M,,*6B
06/05/2014	04:08:43.631	$GPGGA,040844,2459.7317,N,08020.6781,W,1,10,1.5,15,M,,M,,*67
06/05/2014	04:08:44.722	$GPGGA,040845,2459.7302,N,08020.6800,W,1,10,1.5,15,M,,M,,*64
06/05/2014	04:08:45.630	$GPGGA,040846,2459.7287,N,08020.6818,W,1,10,1.5,15,M,,M,,*62
06/05/2014	04:08:46.762	$GPGGA,040847,2459.7272,N,08020.6836,W,1,10,1.5,15,M,,M,,*65
06/05/2014	04:08:47.659	$GPGGA,040848,2459.7258,N,08020.6855,W,1,10,1.5,15,M,,M,,*67
06/05/2014	04:08:48.669	$GPGGA,040849,2459.7242,N,08020.6873,W,1,10,1.5,15,M,,M,,*69
06/05/2014	04:08:49.760	$GPGGA,040850,2459.7227,N,08020.6891,W,1,10,1.5,15,M,,M,,*6E
06/05/2014	04:08:50.760	$GPGGA,040851,2459.7213,N,08020.6908,W,1,10,1.5,15,M,,M,,*69
06/05/2014	04:08:51.699	$GPGGA,040852,2459.7198,N,08020.6926,W,1,10,1.5,15,M,,M,,*66
06/05/2014	04:08:52.699	$GPGGA,040853,2459.7184,N,08020.6944,W,1,10,1.5,15,M,,M,,*6E
06/05/2014	04:08:53.800	$GPGGA,040854,2459.7170,N,08020.6962,W,1,10,1.5,15,M,,M,,*66
06/05/2014	04:08:54.799	$GPGGA,040855,2459.7154,N,08020.6978,W,1,10,1.5,15,M,,M,,*6A
06/05/2014	04:08:55.819	$GPGGA,040856,2459.7140,N,08020.6998,W,1,10,1.5,15,M,,M,,*62
06/05/2014	04:08:56.839	$GPGGA,040857,2459.7126,N,08020.7019,W,1,10,1.5,15,M,,M,,*62
06/05/2014	04:08:59.011	$GPGGA,040859,2459.7095,N,08020.7056,W,1,10,1.5,15,M,,M,,*6E
06/05/2014	04:08:59.859	$GPGGA,040900,2459.7081,N,08020.7074,W,1,10,1.5,15,M,,M,,*66
06/05/2014	04:09:00.879	$GPGGA,040901,2459.7066,N,08020.7092,W,1,10,1.5,15,M,,M,,*66
06/05/2014	04:09:01.848	$GPGGA,040902,2459.7052,N,08020.7110,W,1,10,1.5,15,M,,M,,*69
06/05/2014	04:09:02.889	$GPGGA,040903,2459.7039,N,08020.7128,W,1,10,1.5,15,M,,M,,*6E
06/05/2014	04:09:03.890	$GPGGA,040904,2459.7024,N,08020.7144,W,1,10,1.5,16,M,,M,,*6C
06/05/2014	04:09:04.878	$GPGGA,040905,2459.7009,N,08020.7162,W,1,10,1.5,16,M,,M,,*66
06/05/2014	04:09:05.887	$GPGGA,040906,2459.6995,N,08020.7180,W,1,10,1.5,16,M,,M,,*64
06/05/2014	04:09:06.917	$GPGGA,040907,2459.6981,N,08020.7200,W,1,10,1.5,16,M,,M,,*6B
06/05/2014	04:09:07.907	$GPGGA,040908,2459.6966,N,08020.7218,W,1,10,1.5,16,M,,M,,*64
06/05/2014	04:09:08.927	$GPGGA,040909,2459.6951,N,08020.7236,W,1,10,1.5,16,M,,M,,*6D
06/05/2014	04:09:09.917	$GPGGA,040910,2459.6935,N,08020.7254,W,1,10,1.5,16,M,,M,,*63
06/05/2014	04:09:10.957	$GPGGA,040911,2459.6920,N,08020.7273,W,1,10,1.5,16,M,,M,,*63
06/05/2014	04:09:11.936	$GPGGA,040912,2459.6905,N,08020.7291,W,1,10,1.6,16,M,,M,,*68
06/05/2014	04:09:12.936	$GPGGA,040913,2459.6888,N,08020.7308,W,1,9,1.6,16,M,,M,,*54
06/05/2014	04:09:13.946	$GPGGA,040914,2459.6873,N,08020.7324,W,1,9,1.6,16,M,,M,,*59
06/05/2014	04:09:14.966	$GPGGA,040915,2459.6861,N,08020.7342,W,1,10,1.5,16,M,,M,,*60
06/05/2014	04:09:15.976	$GPGGA,040916,2459.6844,N,08020.7359,W,1,10,1.5,16,M,,M,,*6E
06/05/2014	04:09:16.976	$GPGGA,040917,2459.6829,N,08020.7375,W,1,10,1.5,16,M,,M,,*6A
06/05/2014	04:09:17.996	$GPGGA,040918,2459.6814,N,08020.7395,W,1,10,1.5,16,M,,M,,*65
06/05/2014	04:09:19.016	$GPGGA,040919,2459.6799,N,08020.7411,W,1,9,1.6,16,M,,M,,*5E
06/05/2014	04:09:20.006	$GPGGA,040920,2459.6785,N,08020.7428,W,1,9,1.5,16,M,,M,,*50
06/05/2014	04:09:21.015	$GPGGA,040921,2459.6769,N,08020.7443,W,1,9,1.5,16,M,,M,,*5E
06/05/2014	04:09:22.015	$GPGGA,040922,2459.6756,N,08020.7461,W,1,9,1.5,16,M,,M,,*51
06/05/2014	04:09:23.034	$GPGGA,040923,2459.6739,N,08020.7479,W,1,10,1.5,16,M,,M,,*68
06/05/2014	04:09:24.175	$GPGGA,040924,2459.6724,N,08020.7498,W,1,10,1.5,16,M,,M,,*6C
06/05/2014	04:09:25.024	$GPGGA,040925,2459.6707,N,08020.7516,W,1,9,1.6,16,M,,M,,*50
06/05/2014	04:09:26.055	$GPGGA,040926,2459.6691,N,08020.7534,W,1,9,1.5,16,M,,M,,*5E
06/05/2014	04:09:27.064	$GPGGA,040927,2459.6677,N,08020.7554,W,1,10,1.5,16,M,,M,,*69
06/05/2014	04:09:28.084	$GPGGA,040928,2459.6662,N,08020.7572,W,1,10,1.5,16,M,,M,,*66
06/05/2014	04:09:29.063	$GPGGA,040929,2459.6647,N,08020.7590,W,1,9,1.6,16,M,,M,,*57
06/05/2014	04:09:30.204	$GPGGA,040930,2459.6631,N,08020.7606,W,1,9,1.5,16,M,,M,,*51
06/05/2014	04:09:31.265	$GPGGA,040931,2459.6618,N,08020.7626,W,1,10,1.5,16,M,,M,,*61
06/05/2014	04:09:32.103	$GPGGA,040932,2459.6602,N,08020.7644,W,1,10,1.5,16,M,,M,,*6D
06/05/2014	04:09:32.702	$GPGGA,040933,2459.6586,N,08020.7663,W,1,9,1.6,16,M,,M,,*5D
06/05/2014	04:09:33.520	$GPGGA,040934,2459.6569,N,08020.7681,W,1,9,1.6,16,M,,M,,*57
06/05/2014	04:09:34.711	$GPGGA,040935,2459.6553,N,08020.7699,W,1,10,1.5,16,M,,M,,*6D
06/05/2014	04:09:35.641	$GPGGA,040936,2459.6539,N,08020.7717,W,1,10,1.5,16,M,,M,,*65
06/05/2014	04:09:36.731	$GPGGA,040937,2459.6525,N,08020.7735,W,1,9,1.6,16,M,,M,,*52
06/05/2014	04:09:37.640	$GPGGA,040938,2459.6510,N,08020.7751,W,1,9,1.6,16,M,,M,,*59
06/05/2014	04:09:38.742	$GPGGA,040939,2459.6496,N,08020.7768,W,1,10,1.5,16,M,,M,,*66
06/05/2014	04:09:39.660	$GPGGA,040940,2459.6481,N,08020.7786,W,1,10,1.5,16,M,,M,,*6E
06/05/2014	04:09:40.770	$GPGGA,040941,2459.6467,N,08020.7804,W,1,10,1.5,16,M,,M,,*62
06/05/2014	04:09:41.679	$GPGGA,040942,2459.6451,N,08020.7825,W,1,10,1.5,16,M,,M,,*67
06/05/2014	04:09:42.782	$GPGGA,040943,2459.6436,N,08020.7843,W,1,10,1.5,16,M,,M,,*67
06/05/2014	04:09:43.729	$GPGGA,040944,2459.6420,N,08020.7862,W,1,10,1.5,16,M,,M,,*64
06/05/2014	04:09:44.799	$GPGGA,040945,2459.6404,N,08020.7881,W,1,10,1.6,16,M,,M,,*6D
06/05/2014	04:09:45.728	$GPGGA,040946,2459.6392,N,08020.7901,W,1,10,1.6,16,M,,M,,*6F
06/05/2014	04:09:46.819	$GPGGA,040947,2459.6378,N,08020.7917,W,1,10,1.5,16,M,,M,,*6E
06/05/2014	04:09:47.758	$GPGGA,040948,2459.6362,N,08020.7934,W,1,10,1.5,16,M,,M,,*6B
06/05/2014	04:09:48.839	$GPGGA,040949,2459.6349,N,08020.7952,W,1,10,1.5,16,M,,M,,*63
06/05/2014	04:09:49.758	$GPGGA,040950,2459.6334,N,08020.7970,W,1,10,1.5,16,M,,M,,*61
06/05/2014	04:09:50.849	$GPGGA,040951,2459.6316,N,08020.7988,W,1,10,1.6,16,M,,M,,*64
06/05/2014	04:09:51.808	$GPGGA,040952,2459.6301,N,08020.8006,W,1,10,1.6,16,M,,M,,*61
06/05/2014	04:09:52.868	$GPGGA,040953,2459.6284,N,08020.8025,W,1,10,1.5,16,M,,M,,*6E
06/05/2014	04:09:53.767	$GPGGA,040954,2459.6268,N,08020.8043,W,1,10,1.5,16,M,,M,,*6B
06/05/2014	04:09:54.888	$GPGGA,040955,2459.6254,N,08020.8061,W,1,10,1.5,16,M,,M,,*65
06/05/2014	04:09:55.827	$GPGGA,040956,2459.6237,N,08020.8079,W,1,10,1.5,16,M,,M,,*6A
06/05/2014	04:09:56.898	$GPGGA,040957,2459.6222,N,08020.8097,W,1,10,1.5,16,M,,M,,*6F
06/05/2014	04:09:57.826	$GPGGA,040958,2459.6208,N,08020.8115,W,1,10,1.5,16,M,,M,,*63
06/05/2014	04:09:58.907	$GPGGA,040959,2459.6193,N,08020.8133,W,1,10,1.5,16,M,,M,,*67
06/05/2014	04:09:59.866	$GPGGA,041000,2459.6179,N,08020.8151,W,1,10,1.5,16,M,,M,,*63
06/05/2014	04:10:00.815	$GPGGA,041001,2459.6164,N,08020.8170,W,1,10,1.5,16,M,,M,,*6D
06/05/2014	04:10:01.825	$GPGGA,041002,2459.6149,N,08020.8190,W,1,10,1.5,16,M,,M,,*6F
06/05/2014	04:10:02.906	$GPGGA,041003,2459.6134,N,08020.8208,W,1,10,1.5,16,M,,M,,*66
06/05/2014	04:10:03.895	$GPGGA,041004,2459.6120,N,08020.8226,W,1,10,1.5,16,M,,M,,*68
06/05/2014	04:10:04.926	$GPGGA,041005,2459.6106,N,08020.8244,W,1,10,1.5,16,M,,M,,*69
06/05/2014	04:10:05.895	$GPGGA,041006,2459.6091,N,08020.8262,W,1,10,1.5,16,M,,M,,*61
06/05/2014	04:10:06.865	$GPGGA,041007,2459.6077,N,08020.8278,W,1,10,1.5,16,M,,M,,*63
06/05/2014	04:10:07.885	$GPGGA,041008,2459.6061,N,08020.8296,W,1,10,1.5,16,M,,M,,*6B
06/05/2014	04:10:08.995	$GPGGA,041009,2459.6046,N,08020.8316,W,1,10,1.5,16,M,,M,,*66
06/05/2014	04:10:09.925	$GPGGA,041010,2459.6031,N,08020.8335,W,1,10,1.5,16,M,,M,,*6F
06/05/2014	04:10:11.025	$GPGGA,041011,2459.6015,N,08020.8353,W,1,10,1.5,16,M,,M,,*68
06/05/2014	04:10:11.965	$GPGGA,041012,2459.6001,N,08020.8371,W,1,10,1.5,16,M,,M,,*6E
06/05/2014	04:10:13.025	$GPGGA,041013,2459.5985,N,08020.8389,W,1,10,1.5,16,M,,M,,*6E
06/05/2014	04:10:13.914	$GPGGA,041014,2459.5972,N,08020.8407,W,1,10,1.5,16,M,,M,,*60
06/05/2014	04:10:15.004	$GPGGA,041015,2459.5956,N,08020.8425,W,1,10,1.5,16,M,,M,,*67
06/05/2014	04:10:15.953	$GPGGA,041016,2459.5941,N,08020.8440,W,1,10,1.5,16,M,,M,,*61
06/05/2014	04:10:17.033	$GPGGA,041017,2459.5927,N,08020.8458,W,1,10,1.5,16,M,,M,,*69
06/05/2014	04:10:18.084	$GPGGA,041018,2459.5912,N,08020.8477,W,1,10,1.5,16,M,,M,,*6D
06/05/2014	04:10:19.083	$GPGGA,041019,2459.5896,N,08020.8495,W,1,10,1.5,16,M,,M,,*6D
06/05/2014	04:10:20.023	$GPGGA,041020,2459.5879,N,08020.8515,W,1,10,1.5,16,M,,M,,*6F
06/05/2014	04:10:21.063	$GPGGA,041021,2459.5863,N,08020.8534,W,1,10,1.5,16,M,,M,,*66
06/05/2014	04:10:21.982	$GPGGA,041022,2459.5849,N,08020.8553,W,1,10,1.5,16,M,,M,,*6C
06/05/2014	04:10:23.072	$GPGGA,041023,2459.5832,N,08020.8571,W,1,10,1.5,16,M,,M,,*61
06/05/2014	04:10:24.123	$GPGGA,041024,2459.5817,N,08020.8589,W,1,10,1.5,16,M,,M,,*66
06/05/2014	04:10:25.123	$GPGGA,041025,2459.5802,N,08020.8607,W,1,10,1.5,16,M,,M,,*66
06/05/2014	04:10:26.052	$GPGGA,041026,2459.5786,N,08020.8624,W,1,10,1.6,16,M,,M,,*64
06/05/2014	04:10:27.132	$GPGGA,041027,2459.5771,N,08020.8642,W,1,9,1.6,16,M,,M,,*55
06/05/2014	04:10:28.071	$GPGGA,041028,2459.5760,N,08020.8658,W,1,9,1.5,16,M,,M,,*52
06/05/2014	04:10:29.132	$GPGGA,041029,2459.5745,N,08020.8675,W,1,10,1.5,16,M,,M,,*63
06/05/2014	04:10:30.152	$GPGGA,041030,2459.5728,N,08020.8694,W,1,10,1.6,16,M,,M,,*6C
06/05/2014	04:10:31.142	$GPGGA,041031,2459.5712,N,08020.8712,W,1,9,1.6,16,M,,M,,*53
06/05/2014	04:10:32.182	$GPGGA,041032,2459.5696,N,08020.8730,W,1,9,1.5,16,M,,M,,*5E
06/05/2014	04:10:32.618	$GPGGA,041033,2459.5680,N,08020.8747,W,1,10,1.5,16,M,,M,,*60
06/05/2014	04:10:33.588	$GPGGA,041034,2459.5665,N,08020.8765,W,1,10,1.5,16,M,,M,,*6C
06/05/2014	04:10:34.628	$GPGGA,041035,2459.5649,N,08020.8784,W,1,10,1.5,16,M,,M,,*6C
06/05/2014	04:10:35.617	$GPGGA,041036,2459.5633,N,08020.8801,W,1,10,1.5,16,M,,M,,*60
06/05/2014	04:10:36.627	$GPGGA,041037,2459.5618,N,08020.8818,W,1,10,1.5,16,M,,M,,*60
06/05/2014	04:10:37.637	$GPGGA,041038,2459.5603,N,08020.8835,W,1,10,1.6,16,M,,M,,*69
06/05/2014	04:10:38.708	$GPGGA,041039,2459.5589,N,08020.8852,W,1,9,1.5,15,M,,M,,*50
06/05/2014	04:10:39.657	$GPGGA,041040,2459.5589,N,08020.8852,W,1,9,1.5,15,M,,M,,*5E
06/05/2014	04:10:40.727	$GPGGA,041041,2459.5555,N,08020.8887,W,1,10,1.6,15,M,,M,,*6D
06/05/2014	04:10:41.646	$GPGGA,041042,2459.5539,N,08020.8906,W,1,10,1.6,15,M,,M,,*6C
06/05/2014	04:10:42.697	$GPGGA,041043,2459.5524,N,08020.8924,W,1,9,1.5,15,M,,M,,*5A
06/05/2014	04:10:43.676	$GPGGA,041044,2459.5507,N,08020.8942,W,1,9,1.5,15,M,,M,,*5C
06/05/2014	04:10:44.716	$GPGGA,041045,2459.5491,N,08020.8960,W,1,10,1.6,15,M,,M,,*68
06/05/2014	04:10:45.676	$GPGGA,041046,2459.5477,N,08020.8978,W,1,10,1.5,15,M,,M,,*69
06/05/2014	04:10:46.726	$GPGGA,041047,2459.5462,N,08020.8996,W,1,10,1.5,15,M,,M,,*6C
06/05/2014	04:10:47.706	$GPGGA,041048,2459.5448,N,08020.9014,W,1,10,1.5,15,M,,M,,*69
06/05/2014	04:10:48.756	$GPGGA,041049,2459.5431,N,08020.9030,W,1,10,1.6,15,M,,M,,*63
06/05/2014	04:10:49.715	$GPGGA,041050,2459.5415,N,08020.9047,W,1,10,1.5,15,M,,M,,*6E
06/05/2014	04:10:50.765	$GPGGA,041051,2459.5401,N,08020.9066,W,1,10,1.6,15,M,,M,,*6A
06/05/2014	04:10:51.744	$GPGGA,041052,2459.5385,N,08020.9086,W,1,10,1.6,15,M,,M,,*6C
06/05/2014	04:10:52.774	$GPGGA,041053,2459.5368,N,08020.9101,W,1,9,1.6,15,M,,M,,*58
06/05/2014	04:10:53.744	$GPGGA,041054,2459.5352,N,08020.9118,W,1,9,1.6,15,M,,M,,*5E
06/05/2014	04:10:54.784	$GPGGA,041055,2459.5337,N,08020.9137,W,1,9,1.6,15,M,,M,,*51
06/05/2014	04:10:55.774	$GPGGA,041056,2459.5322,N,08020.9155,W,1,9,1.6,15,M,,M,,*52
06/05/2014	04:10:56.814	$GPGGA,041057,2459.5305,N,08020.9173,W,1,9,1.6,15,M,,M,,*52
06/05/2014	04:10:57.784	$GPGGA,041058,2459.5289,N,08020.9189,W,1,9,1.6,15,M,,M,,*5D
06/05/2014	04:10:58.804	$GPGGA,041059,2459.5289,N,08020.9189,W,1,9,1.6,15,M,,M,,*5C
06/05/2014	04:10:59.813	$GPGGA,041100,2459.5264,N,08020.9223,W,1,9,1.5,15,M,,M,,*52
06/05/2014	04:11:00.844	$GPGGA,041101,2459.5248,N,08020.9241,W,1,10,1.5,15,M,,M,,*61
06/05/2014	04:11:01.803	$GPGGA,041102,2459.5235,N,08020.9259,W,1,10,1.5,15,M,,M,,*61
06/05/2014	04:11:02.823	$GPGGA,041103,2459.5235,N,08020.9259,W,1,10,1.5,15,M,,M,,*60
06/05/2014	04:11:03.843	$GPGGA,041104,2459.5201,N,08020.9296,W,1,10,1.5,15,M,,M,,*63
06/05/2014	04:11:04.893	$GPGGA,041105,2459.5188,N,08020.9317,W,1,10,1.5,15,M,,M,,*68
06/05/2014	04:11:05.853	$GPGGA,041106,2459.5173,N,08020.9335,W,1,10,1.5,15,M,,M,,*6F
06/05/2014	04:11:06.975	$GPGGA,041107,2459.5159,N,08020.9351,W,1,10,1.5,15,M,,M,,*64
06/05/2014	04:11:07.861	$GPGGA,041108,2459.5143,N,08020.9368,W,1,10,1.5,15,M,,M,,*6A
06/05/2014	04:11:08.982	$GPGGA,041109,2459.5130,N,08020.9389,W,1,10,1.5,15,M,,M,,*60
06/05/2014	04:11:09.881	$GPGGA,041110,2459.5116,N,08020.9408,W,1,10,1.5,15,M,,M,,*62
06/05/2014	04:11:11.002	$GPGGA,041111,2459.5100,N,08020.9426,W,1,10,1.5,15,M,,M,,*68
06/05/2014	04:11:11.997	$GPGGA,041112,2459.5084,N,08020.9444,W,1,10,1.5,15,M,,M,,*62
06/05/2014	04:11:12.892	$GPGGA,041113,2459.5084,N,08020.9444,W,1,10,1.5,15,M,,M,,*63
06/05/2014	04:11:13.877	$GPGGA,041114,2459.5056,N,08020.9483,W,1,10,1.5,15,M,,M,,*60
06/05/2014	04:11:14.913	$GPGGA,041115,2459.5056,N,08020.9483,W,1,10,1.5,15,M,,M,,*61
06/05/2014	04:11:15.898	$GPGGA,041116,2459.5027,N,08020.9517,W,1,10,1.5,15,M,,M,,*68
06/05/2014	04:11:18.030	$GPGGA,041118,2459.4998,N,08020.9553,W,1,10,1.5,15,M,,M,,*6A
06/05/2014	04:11:19.034	$GPGGA,041119,2459.4984,N,08020.9571,W,1,10,1.5,15,M,,M,,*66
06/05/2014	04:11:20.009	$GPGGA,041120,2459.4968,N,08020.9589,W,1,10,1.5,15,M,,M,,*69
06/05/2014	04:11:21.034	$GPGGA,041121,2459.4953,N,08020.9608,W,1,10,1.5,15,M,,M,,*6A
06/05/2014	04:11:22.019	$GPGGA,041122,2459.4939,N,08020.9626,W,1,10,1.5,15,M,,M,,*69
06/05/2014	04:11:23.045	$GPGGA,041123,2459.4922,N,08020.9644,W,1,10,1.5,15,M,,M,,*66
06/05/2014	04:11:24.040	$GPGGA,041124,2459.4906,N,08020.9662,W,1,10,1.5,15,M,,M,,*63
06/05/2014	04:11:25.044	$GPGGA,041125,2459.4892,N,08020.9682,W,1,10,1.5,15,M,,M,,*60
06/05/2014	04:11:26.019	$GPGGA,041126,2459.4874,N,08020.9700,W,1,10,1.6,15,M,,M,,*63
06/05/2014	04:11:27.014	$GPGGA,041127,2459.4857,N,08020.9718,W,1,9,1.6,15,M,,M,,*52
06/05/2014	04:11:28.039	$GPGGA,041128,2459.4842,N,08020.9737,W,1,9,1.6,15,M,,M,,*54
06/05/2014	04:11:29.055	$GPGGA,041129,2459.4827,N,08020.9754,W,1,9,1.6,15,M,,M,,*53
06/05/2014	04:11:30.030	$GPGGA,041130,2459.4811,N,08020.9772,W,1,9,1.5,15,M,,M,,*59
06/05/2014	04:11:31.085	$GPGGA,041131,2459.4796,N,08020.9790,W,1,10,1.5,15,M,,M,,*6C
06/05/2014	04:11:32.060	$GPGGA,041132,2459.4780,N,08020.9809,W,1,10,1.6,15,M,,M,,*64
06/05/2014	04:11:32.544	$GPGGA,041133,2459.4763,N,08020.9827,W,1,9,1.6,15,M,,M,,*5C
06/05/2014	04:11:33.559	$GPGGA,041134,2459.4747,N,08020.9845,W,1,9,1.6,15,M,,M,,*59
06/05/2014	04:11:34.554	$GPGGA,041135,2459.4733,N,08020.9863,W,1,9,1.6,15,M,,M,,*5F
06/05/2014	04:11:35.569	$GPGGA,041136,2459.4716,N,08020.9881,W,1,9,1.6,15,M,,M,,*57
06/05/2014	04:11:36.584	$GPGGA,041137,2459.4700,N,08020.9900,W,1,9,1.6,15,M,,M,,*59
06/05/2014	04:11:37.559	$GPGGA,041138,2459.4686,N,08020.9917,W,1,9,1.6,15,M,,M,,*5F
06/05/2014	04:11:38.565	$GPGGA,041139,2459.4671,N,08020.9936,W,1,10,1.5,15,M,,M,,*6E
06/05/2014	04:11:39.590	$GPGGA,041140,2459.4657,N,08020.9954,W,1,10,1.5,15,M,,M,,*60
06/05/2014	04:11:40.595	$GPGGA,041141,2459.4642,N,08020.9972,W,1,10,1.5,15,M,,M,,*61
06/05/2014	04:11:41.580	$GPGGA,041142,2459.4628,N,08020.9989,W,1,10,1.5,15,M,,M,,*6A
06/05/2014	04:11:42.615	$GPGGA,041143,2459.4613,N,08021.0007,W,1,10,1.5,15,M,,M,,*64
06/05/2014	04:11:43.600	$GPGGA,041144,2459.4599,N,08021.0025,W,1,10,1.5,15,M,,M,,*62
06/05/2014	04:11:44.585	$GPGGA,041145,2459.4585,N,08021.0043,W,1,10,1.5,15,M,,M,,*6E
06/05/2014	04:11:45.600	$GPGGA,041146,2459.4566,N,08021.0061,W,1,10,1.5,15,M,,M,,*60
06/05/2014	04:11:46.625	$GPGGA,041147,2459.4552,N,08021.0079,W,1,9,1.6,15,M,,M,,*54
06/05/2014	04:11:48.927	$GPGGA,041149,2459.4520,N,08021.0116,W,1,10,1.5,15,M,,M,,*6C
