Software Version Number: 1	Data File Format Number: 1	Build Version Number: 1	Error Count Since VI Started: 0	Manufacturer: Raytheon	 Model Number: RayMarine 120	 S/N: 	 Cal Date: 	 Wind Direction Offset: 0.00	 Slope (M)1: 0.00	 Offset (B)1: 0.00	 Slope (M)2: 0.00	 Offset (B)2: 0.00	 Slope (M)3: 0.00	 Offset (B)3: 0.00	 Slope (M)4: 0.00	 Offset (B)4: 0.00	 Slope (M)5: 0.00	 Offset (B)5: 0.00	 Slope (M)6: 0.00	 Offset (B)6: 0.00
Computer Date	Computer Time	GGA String
06/14/2014	12:00:00.004	$GPGGA,120000,2427.3906,N,08102.6800,W,1,9,1.7,16,M,,M,,*51
06/14/2014	12:00:01.019	$GPGGA,120001,2427.3902,N,08102.6808,W,1,9,1.7,16,M,,M,,*5C
06/14/2014	12:00:02.045	$GPGGA,120002,2427.3900,N,08102.6817,W,1,9,1.9,16,M,,M,,*5D
06/14/2014	12:00:03.101	$GPGGA,120003,2427.3895,N,08102.6824,W,1,9,1.7,16,M,,M,,*5F
06/14/2014	12:00:04.204	$GPGGA,120004,2427.3891,N,08102.6832,W,1,9,1.7,16,M,,M,,*5B
06/14/2014	12:00:05.167	$GPGGA,120005,2427.3887,N,08102.6839,W,1,8,1.9,16,M,,M,,*59
06/14/2014	12:00:06.268	$GPGGA,120006,2427.3886,N,08102.6843,W,1,8,1.9,16,M,,M,,*56
06/14/2014	12:00:07.234	$GPGGA,120007,2427.3885,N,08102.6848,W,1,9,1.7,16,M,,M,,*50
06/14/2014	12:00:08.259	$GPGGA,120008,2427.3881,N,08102.6854,W,1,9,1.7,16,M,,M,,*56
06/14/2014	12:00:09.295	$GPGGA,120009,2427.3876,N,08102.6861,W,1,9,1.7,16,M,,M,,*59
06/14/2014	12:00:10.321	$GPGGA,120010,2427.3873,N,08102.6871,W,1,9,1.7,16,M,,M,,*55
06/14/2014	12:00:11.377	$GPGGA,120011,2427.3868,N,08102.6879,W,1,8,1.9,16,M,,M,,*59
06/14/2014	12:00:12.403	$GPGGA,120012,2427.3864,N,08102.6886,W,1,8,1.9,16,M,,M,,*56
06/14/2014	12:00:13.418	$GPGGA,120013,2427.3862,N,08102.6891,W,1,8,1.9,16,M,,M,,*57
06/14/2014	12:00:14.454	$GPGGA,120014,2427.3859,N,08102.6897,W,1,8,1.7,16,M,,M,,*50
06/14/2014	12:00:15.521	$GPGGA,120015,2427.3856,N,08102.6902,W,1,9,1.7,16,M,,M,,*52
06/14/2014	12:00:16.526	$GPGGA,120016,2427.3853,N,08102.6909,W,1,9,1.7,16,M,,M,,*5F
06/14/2014	12:00:17.572	$GPGGA,120017,2427.3849,N,08102.6916,W,1,9,1.7,16,M,,M,,*5B
06/14/2014	12:00:18.597	$GPGGA,120018,2427.3844,N,08102.6923,W,1,9,1.7,16,M,,M,,*5F
06/14/2014	12:00:19.613	$GPGGA,120019,2427.3841,N,08102.6933,W,1,9,1.7,16,M,,M,,*5A
06/14/2014	12:00:20.669	$GPGGA,120020,2427.3840,N,08102.6936,W,1,9,1.9,16,M,,M,,*5A
06/14/2014	12:00:21.687	$GPGGA,120021,2427.3835,N,08102.6944,W,1,9,1.7,16,M,,M,,*52
06/14/2014	12:00:22.720	$GPGGA,120022,2427.3833,N,08102.6949,W,1,9,1.9,16,M,,M,,*54
06/14/2014	12:00:23.756	$GPGGA,120023,2427.3830,N,08102.6956,W,1,9,1.7,16,M,,M,,*56
06/14/2014	12:00:25.858	$GPGGA,120025,2427.3821,N,08102.6969,W,1,9,1.7,16,M,,M,,*5C
06/14/2014	12:00:26.852	$GPGGA,120026,2427.3819,N,08102.6976,W,1,9,1.7,16,M,,M,,*5A
06/14/2014	12:00:27.919	$GPGGA,120027,2427.3815,N,08102.6985,W,1,9,1.7,16,M,,M,,*5B
06/14/2014	12:00:28.945	$GPGGA,120028,2427.3808,N,08102.6992,W,1,9,1.9,16,M,,M,,*50
06/14/2014	12:00:29.984	$GPGGA,120029,2427.3803,N,08102.6999,W,1,8,1.9,16,M,,M,,*50
06/14/2014	12:00:31.090	$GPGGA,120030,2427.3801,N,08102.7006,W,1,8,1.7,16,M,,M,,*5A
06/14/2014	12:00:32.125	$GPGGA,120031,2427.3798,N,08102.7012,W,1,9,1.7,16,M,,M,,*50
06/14/2014	12:00:33.069	$GPGGA,120032,2427.3794,N,08102.7016,W,1,9,1.7,16,M,,M,,*5B
06/14/2014	12:00:34.122	$GPGGA,120033,2427.3791,N,08102.7023,W,1,8,1.8,16,M,,M,,*57
06/14/2014	12:00:35.119	$GPGGA,120034,2427.3788,N,08102.7030,W,1,8,1.7,16,M,,M,,*55
06/14/2014	12:00:36.155	$GPGGA,120035,2427.3784,N,08102.7038,W,1,9,1.7,16,M,,M,,*51
06/14/2014	12:00:37.325	$GPGGA,120036,2427.3779,N,08102.7045,W,1,9,1.7,16,M,,M,,*5A
06/14/2014	12:00:38.227	$GPGGA,120037,2427.3776,N,08102.7050,W,1,9,1.7,16,M,,M,,*50
06/14/2014	12:00:39.356	$GPGGA,120038,2427.3773,N,08102.7057,W,1,9,1.7,16,M,,M,,*5D
06/14/2014	12:00:40.392	$GPGGA,120039,2427.3772,N,08102.7063,W,1,9,1.7,16,M,,M,,*5A
06/14/2014	12:00:41.448	$GPGGA,120040,2427.3768,N,08102.7070,W,1,9,1.7,16,M,,M,,*5D
06/14/2014	12:00:42.370	$GPGGA,120041,2427.3764,N,08102.7075,W,1,9,1.7,16,M,,M,,*55
06/14/2014	12:00:43.498	$GPGGA,120042,2427.3761,N,08102.7082,W,1,9,1.7,16,M,,M,,*5B
06/14/2014	12:00:44.545	$GPGGA,120043,2427.3758,N,08102.7090,W,1,9,1.7,16,M,,M,,*53
06/14/2014	12:00:45.580	$GPGGA,120044,2427.3754,N,08102.7097,W,1,9,1.7,16,M,,M,,*5F
06/14/2014	12:00:46.627	$GPGGA,120045,2427.3750,N,08102.7103,W,1,9,1.7,16,M,,M,,*56
06/14/2014	12:00:47.632	$GPGGA,120046,2427.3748,N,08102.7110,W,1,9,1.7,16,M,,M,,*5E
06/14/2014	12:00:48.667	$GPGGA,120047,2427.3746,N,08102.7117,W,1,9,1.7,16,M,,M,,*56
06/14/2014	12:00:49.714	$GPGGA,120048,2427.3743,N,08102.7124,W,1,9,1.7,16,M,,M,,*5C
06/14/2014	12:00:48.596	$GPGGA,120049,2427.3737,N,08102.7132,W,1,9,1.7,16,M,,M,,*59
06/14/2014	12:00:49.621	$GPGGA,120050,2427.3736,N,08102.7139,W,1,9,1.7,16,M,,M,,*5B
06/14/2014	12:00:50.636	$GPGGA,120051,2427.3732,N,08102.7146,W,1,9,1.7,16,M,,M,,*56
06/14/2014	12:00:51.703	$GPGGA,120052,2427.3728,N,08102.7153,W,1,9,1.7,16,M,,M,,*5A
06/14/2014	12:00:52.739	$GPGGA,120053,2427.3725,N,08102.7160,W,1,9,1.7,16,M,,M,,*56
06/14/2014	12:00:53.754	$GPGGA,120054,2427.3722,N,08102.7168,W,1,9,1.7,16,M,,M,,*5E
06/14/2014	12:00:54.801	$GPGGA,120055,2427.3719,N,08102.7175,W,1,9,1.7,16,M,,M,,*5B
06/14/2014	12:00:55.847	$GPGGA,120056,2427.3716,N,08102.7180,W,1,9,1.7,16,M,,M,,*5D
06/14/2014	12:00:56.872	$GPGGA,120057,2427.3714,N,08102.7189,W,1,9,1.7,16,M,,M,,*57
06/14/2014	12:00:57.888	$GPGGA,120058,2427.3709,N,08102.7196,W,1,9,1.7,16,M,,M,,*5A
06/14/2014	12:00:58.943	$GPGGA,120059,2427.3707,N,08102.7202,W,1,9,1.7,16,M,,M,,*5B
06/14/2014	12:00:59.969	$GPGGA,120100,2427.3703,N,08102.7211,W,1,9,1.7,16,M,,M,,*50
06/14/2014	12:01:01.005	$GPGGA,120101,2427.3698,N,08102.7218,W,1,9,1.7,16,M,,M,,*5B
06/14/2014	12:01:02.020	$GPGGA,120102,2427.3697,N,08102.7225,W,1,9,1.7,16,M,,M,,*59
06/14/2014	12:01:03.087	$GPGGA,120103,2427.3693,N,08102.7232,W,1,9,1.7,16,M,,M,,*5A
06/14/2014	12:01:04.107	$GPGGA,120104,2427.3689,N,08102.7238,W,1,9,1.7,16,M,,M,,*5C
06/14/2014	12:01:05.139	$GPGGA,120105,2427.3686,N,08102.7245,W,1,9,1.7,16,M,,M,,*58
06/14/2014	12:01:06.154	$GPGGA,120106,2427.3683,N,08102.7254,W,1,9,1.7,16,M,,M,,*5E
06/14/2014	12:01:07.179	$GPGGA,120107,2427.3680,N,08102.7261,W,1,9,1.7,16,M,,M,,*5A
06/14/2014	12:01:08.235	$GPGGA,120108,2427.3678,N,08102.7269,W,1,9,1.7,16,M,,M,,*5A
06/14/2014	12:01:09.292	$GPGGA,120109,2427.3674,N,08102.7276,W,1,9,1.7,16,M,,M,,*59
06/14/2014	12:01:10.286	$GPGGA,120110,2427.3671,N,08102.7283,W,1,9,1.7,16,M,,M,,*5E
06/14/2014	12:01:11.343	$GPGGA,120111,2427.3667,N,08102.7290,W,1,9,1.7,16,M,,M,,*5A
06/14/2014	12:01:12.359	$GPGGA,120112,2427.3664,N,08102.7296,W,1,9,1.7,15,M,,M,,*5F
06/14/2014	12:01:13.425	$GPGGA,120113,2427.3661,N,08102.7305,W,1,9,1.7,15,M,,M,,*50
06/14/2014	12:01:14.421	$GPGGA,120114,2427.3657,N,08102.7312,W,1,9,1.7,15,M,,M,,*54
06/14/2014	12:01:15.455	$GPGGA,120115,2427.3653,N,08102.7319,W,1,9,1.7,15,M,,M,,*5A
06/14/2014	12:01:16.509	$GPGGA,120116,2427.3650,N,08102.7326,W,1,9,1.7,15,M,,M,,*56
06/14/2014	12:01:17.516	$GPGGA,120117,2427.3647,N,08102.7332,W,1,9,1.7,15,M,,M,,*54
06/14/2014	12:01:18.562	$GPGGA,120118,2427.3645,N,08102.7338,W,1,9,1.9,15,M,,M,,*5D
06/14/2014	12:01:19.588	$GPGGA,120119,2427.3640,N,08102.7346,W,1,9,1.7,15,M,,M,,*5E
06/14/2014	12:01:20.634	$GPGGA,120120,2427.3638,N,08102.7353,W,1,9,1.7,15,M,,M,,*5F
06/14/2014	12:01:21.784	$GPGGA,120121,2427.3634,N,08102.7360,W,1,9,1.7,15,M,,M,,*52
06/14/2014	12:01:22.695	$GPGGA,120122,2427.3631,N,08102.7367,W,1,9,1.7,15,M,,M,,*53
06/14/2014	12:01:23.824	$GPGGA,120123,2427.3628,N,08102.7374,W,1,9,1.9,15,M,,M,,*56
06/14/2014	12:01:24.767	$GPGGA,120124,2427.3624,N,08102.7382,W,1,9,1.9,15,M,,M,,*54
06/14/2014	12:01:25.804	$GPGGA,120125,2427.3621,N,08102.7388,W,1,9,1.7,15,M,,M,,*54
06/14/2014	12:01:26.943	$GPGGA,120126,2427.3617,N,08102.7396,W,1,9,1.7,15,M,,M,,*5D
06/14/2014	12:01:27.958	$GPGGA,120127,2427.3614,N,08102.7402,W,1,9,1.7,15,M,,M,,*55
06/14/2014	12:01:29.014	$GPGGA,120128,2427.3613,N,08102.7410,W,1,9,1.7,15,M,,M,,*5E
06/14/2014	12:01:30.040	$GPGGA,120129,2427.3609,N,08102.7415,W,1,9,1.7,15,M,,M,,*51
06/14/2014	12:01:30.962	$GPGGA,120130,2427.3604,N,08102.7421,W,1,9,1.7,15,M,,M,,*53
06/14/2014	12:01:32.122	$GPGGA,120131,2427.3602,N,08102.7428,W,1,9,1.7,15,M,,M,,*5D
06/14/2014	12:01:33.148	$GPGGA,120132,2427.3598,N,08102.7435,W,1,9,1.7,14,M,,M,,*53
06/14/2014	12:01:34.184	$GPGGA,120133,2427.3595,N,08102.7442,W,1,9,1.7,14,M,,M,,*5F
06/14/2014	12:01:35.198	$GPGGA,120134,2427.3591,N,08102.7449,W,1,9,1.7,14,M,,M,,*57
06/14/2014	12:01:36.254	$GPGGA,120135,2427.3587,N,08102.7456,W,1,9,1.7,14,M,,M,,*5F
06/14/2014	12:01:37.280	$GPGGA,120136,2427.3584,N,08102.7462,W,1,9,1.9,14,M,,M,,*56
06/14/2014	12:01:38.326	$GPGGA,120137,2427.3580,N,08102.7469,W,1,8,1.7,14,M,,M,,*57
06/14/2014	12:01:39.341	$GPGGA,120138,2427.3577,N,08102.7476,W,1,8,1.7,14,M,,M,,*5E
06/14/2014	12:01:40.398	$GPGGA,120139,2427.3573,N,08102.7483,W,1,9,1.7,14,M,,M,,*50
06/14/2014	12:01:41.413	$GPGGA,120140,2427.3568,N,08102.7490,W,1,9,1.9,14,M,,M,,*58
06/14/2014	12:01:42.449	$GPGGA,120141,2427.3563,N,08102.7498,W,1,8,1.9,14,M,,M,,*5B
06/14/2014	12:01:43.474	$GPGGA,120142,2427.3561,N,08102.7505,W,1,8,1.7,14,M,,M,,*51
06/14/2014	12:01:44.521	$GPGGA,120143,2427.3559,N,08102.7512,W,1,9,1.7,14,M,,M,,*5C
06/14/2014	12:01:45.546	$GPGGA,120144,2427.3555,N,08102.7518,W,1,9,1.7,14,M,,M,,*5D
06/14/2014	12:01:46.592	$GPGGA,120145,2427.3551,N,08102.7523,W,1,9,1.7,14,M,,M,,*50
06/14/2014	12:01:47.608	$GPGGA,120146,2427.3549,N,08102.7532,W,1,9,1.7,14,M,,M,,*5A
06/14/2014	12:01:48.654	$GPGGA,120147,2427.3545,N,08102.7536,W,1,9,1.7,14,M,,M,,*53
06/14/2014	12:01:49.679	$GPGGA,120148,2427.3540,N,08102.7543,W,1,9,1.7,14,M,,M,,*5B
06/14/2014	12:01:48.585	$GPGGA,120149,2427.3537,N,08102.7551,W,1,9,1.8,14,M,,M,,*56
06/14/2014	12:01:49.580	$GPGGA,120150,2427.3534,N,08102.7556,W,1,9,1.9,14,M,,M,,*5B
06/14/2014	12:01:50.615	$GPGGA,120151,2427.3530,N,08102.7563,W,1,8,1.9,15,M,,M,,*58
06/14/2014	12:01:51.671	$GPGGA,120152,2427.3526,N,08102.7570,W,1,8,1.7,15,M,,M,,*50
06/14/2014	12:01:52.717	$GPGGA,120153,2427.3522,N,08102.7577,W,1,9,1.7,15,M,,M,,*53
06/14/2014	12:01:53.732	$GPGGA,120154,2427.3519,N,08102.7584,W,1,9,1.8,15,M,,M,,*5F
06/14/2014	12:01:54.789	$GPGGA,120155,2427.3515,N,08102.7591,W,1,8,1.7,15,M,,M,,*58
06/14/2014	12:01:55.804	$GPGGA,120156,2427.3512,N,08102.7598,W,1,8,1.7,15,M,,M,,*55
06/14/2014	12:01:56.851	$GPGGA,120157,2427.3508,N,08102.7605,W,1,9,1.7,15,M,,M,,*59
06/14/2014	12:01:57.861	$GPGGA,120158,2427.3504,N,08102.7612,W,1,9,1.7,15,M,,M,,*5C
06/14/2014	12:01:58.912	$GPGGA,120159,2427.3499,N,08102.7619,W,1,9,1.7,15,M,,M,,*53
06/14/2014	12:02:00.994	$GPGGA,120201,2427.3494,N,08102.7635,W,1,9,1.7,15,M,,M,,*5E
06/14/2014	12:02:02.020	$GPGGA,120202,2427.3491,N,08102.7641,W,1,9,1.7,15,M,,M,,*5B
06/14/2014	12:02:03.064	$GPGGA,120203,2427.3486,N,08102.7646,W,1,9,1.7,15,M,,M,,*5B
06/14/2014	12:02:04.185	$GPGGA,120204,2427.3484,N,08102.7653,W,1,9,1.7,15,M,,M,,*5A
06/14/2014	12:02:05.212	$GPGGA,120205,2427.3481,N,08102.7662,W,1,9,1.7,15,M,,M,,*5C
06/14/2014	12:02:06.111	$GPGGA,120206,2427.3477,N,08102.7670,W,1,9,1.7,15,M,,M,,*55
06/14/2014	12:02:07.147	$GPGGA,120207,2427.3473,N,08102.7675,W,1,9,1.7,15,M,,M,,*55
06/14/2014	12:02:08.326	$GPGGA,120208,2427.3470,N,08102.7684,W,1,9,1.7,15,M,,M,,*57
06/14/2014	12:02:09.263	$GPGGA,120209,2427.3467,N,08102.7691,W,1,9,1.9,15,M,,M,,*5A
06/14/2014	12:02:10.264	$GPGGA,120210,2427.3465,N,08102.7695,W,1,9,1.8,15,M,,M,,*55
06/14/2014	12:02:11.328	$GPGGA,120211,2427.3461,N,08102.7703,W,1,8,1.8,15,M,,M,,*5F
06/14/2014	12:02:12.461	$GPGGA,120212,2427.3457,N,08102.7710,W,1,8,1.8,15,M,,M,,*5B
06/14/2014	12:02:13.486	$GPGGA,120213,2427.3455,N,08102.7717,W,1,9,1.7,15,M,,M,,*51
06/14/2014	12:02:14.408	$GPGGA,120214,2427.3452,N,08102.7724,W,1,9,1.7,15,M,,M,,*51
06/14/2014	12:02:15.454	$GPGGA,120215,2427.3448,N,08102.7731,W,1,9,1.7,15,M,,M,,*5F
06/14/2014	12:02:16.573	$GPGGA,120216,2427.3445,N,08102.7738,W,1,9,1.7,15,M,,M,,*58
06/14/2014	12:02:17.631	$GPGGA,120217,2427.3444,N,08102.7746,W,1,9,1.7,15,M,,M,,*51
06/14/2014	12:02:18.655	$GPGGA,120218,2427.3439,N,08102.7753,W,1,9,1.7,15,M,,M,,*50
06/14/2014	12:02:19.691	$GPGGA,120219,2427.3436,N,08102.7760,W,1,9,1.7,15,M,,M,,*5E
06/14/2014	12:02:20.717	$GPGGA,120220,2427.3433,N,08102.7767,W,1,9,1.7,15,M,,M,,*56
06/14/2014	12:02:21.753	$GPGGA,120221,2427.3430,N,08102.7775,W,1,9,1.7,15,M,,M,,*57
06/14/2014	12:02:22.768	$GPGGA,120222,2427.3426,N,08102.7782,W,1,9,1.7,15,M,,M,,*5B
06/14/2014	12:02:23.824	$GPGGA,120223,2427.3422,N,08102.7789,W,1,9,1.7,15,M,,M,,*55
06/14/2014	12:02:24.850	$GPGGA,120224,2427.3418,N,08102.7796,W,1,9,1.7,15,M,,M,,*55
06/14/2014	12:02:25.886	$GPGGA,120225,2427.3416,N,08102.7803,W,1,9,1.7,15,M,,M,,*59
06/14/2014	12:02:26.902	$GPGGA,120226,2427.3414,N,08102.7811,W,1,9,1.7,15,M,,M,,*5B
06/14/2014	12:02:27.946	$GPGGA,120227,2427.3409,N,08102.7818,W,1,9,1.7,15,M,,M,,*5F
06/14/2014	12:02:28.982	$GPGGA,120228,2427.3407,N,08102.7825,W,1,9,1.7,15,M,,M,,*50
06/14/2014	12:02:30.018	$GPGGA,120229,2427.3404,N,08102.7832,W,1,9,1.7,14,M,,M,,*55
06/14/2014	12:02:31.023	$GPGGA,120230,2427.3400,N,08102.7839,W,1,9,1.7,14,M,,M,,*52
06/14/2014	12:02:32.081	$GPGGA,120231,2427.3396,N,08102.7844,W,1,9,1.7,14,M,,M,,*51
06/14/2014	12:02:33.117	$GPGGA,120232,2427.3392,N,08102.7852,W,1,9,1.7,14,M,,M,,*51
06/14/2014	12:02:34.139	$GPGGA,120233,2427.3389,N,08102.7859,W,1,9,1.7,14,M,,M,,*51
06/14/2014	12:02:35.177	$GPGGA,120234,2427.3385,N,08102.7866,W,1,9,1.7,14,M,,M,,*56
06/14/2014	12:02:36.217	$GPGGA,120235,2427.3380,N,08102.7873,W,1,8,1.8,14,M,,M,,*58
06/14/2014	12:02:37.210	$GPGGA,120236,2427.3378,N,08102.7880,W,1,8,1.7,14,M,,M,,*5F
06/14/2014	12:02:38.245	$GPGGA,120237,2427.3374,N,08102.7887,W,1,8,1.8,14,M,,M,,*5A
06/14/2014	12:02:39.229	$GPGGA,120238,2427.3369,N,08102.7894,W,1,8,1.8,14,M,,M,,*5B
06/14/2014	12:02:40.254	$GPGGA,120239,2427.3365,N,08102.7901,W,1,8,1.9,14,M,,M,,*5A
06/14/2014	12:02:41.268	$GPGGA,120240,2427.3363,N,08102.7906,W,1,8,1.9,14,M,,M,,*55
06/14/2014	12:02:42.293	$GPGGA,120241,2427.3360,N,08102.7913,W,1,8,1.9,14,M,,M,,*53
06/14/2014	12:02:43.287	$GPGGA,120242,2427.3355,N,08102.7920,W,1,8,1.8,14,M,,M,,*57
06/14/2014	12:02:44.282	$GPGGA,120243,2427.3353,N,08102.7926,W,1,9,1.7,14,M,,M,,*58
06/14/2014	12:02:45.305	$GPGGA,120244,2427.3349,N,08102.7934,W,1,9,1.7,14,M,,M,,*57
06/14/2014	12:02:46.350	$GPGGA,120245,2427.3344,N,08102.7939,W,1,9,1.7,14,M,,M,,*56
06/14/2014	12:02:47.330	$GPGGA,120246,2427.3340,N,08102.7945,W,1,9,1.7,14,M,,M,,*5A
06/14/2014	12:02:48.369	$GPGGA,120247,2427.3338,N,08102.7952,W,1,9,1.7,14,M,,M,,*52
06/14/2014	12:02:49.373	$GPGGA,120248,2427.3333,N,08102.7959,W,1,9,1.7,14,M,,M,,*5D
06/14/2014	12:02:48.550	$GPGGA,120249,2427.3329,N,08102.7966,W,1,9,1.7,14,M,,M,,*5B
06/14/2014	12:02:49.523	$GPGGA,120250,2427.3325,N,08102.7973,W,1,9,1.7,14,M,,M,,*5B
06/14/2014	12:02:50.538	$GPGGA,120251,2427.3324,N,08102.7981,W,1,9,1.7,15,M,,M,,*57
06/14/2014	12:02:51.674	$GPGGA,120252,2427.3320,N,08102.7988,W,1,9,1.7,15,M,,M,,*59
06/14/2014	12:02:52.688	$GPGGA,120253,2427.3314,N,08102.7995,W,1,9,1.7,15,M,,M,,*53
06/14/2014	12:02:53.582	$GPGGA,120254,2427.3310,N,08102.8002,W,1,9,1.7,15,M,,M,,*58
06/14/2014	12:02:54.597	$GPGGA,120255,2427.3308,N,08102.8010,W,1,9,1.7,15,M,,M,,*53
06/14/2014	12:02:55.727	$GPGGA,120256,2427.3304,N,08102.8017,W,1,9,1.7,15,M,,M,,*5B
06/14/2014	12:02:56.706	$GPGGA,120257,2427.3299,N,08102.8024,W,1,9,1.7,15,M,,M,,*5F
06/14/2014	12:02:57.629	$GPGGA,120258,2427.3296,N,08102.8031,W,1,9,1.7,15,M,,M,,*5B
06/14/2014	12:02:58.773	$GPGGA,120259,2427.3295,N,08102.8038,W,1,9,1.7,15,M,,M,,*50
06/14/2014	12:02:59.771	$GPGGA,120300,2427.3291,N,08102.8046,W,1,9,1.7,15,M,,M,,*50
06/14/2014	12:03:00.673	$GPGGA,120301,2427.3288,N,08102.8051,W,1,9,1.7,15,M,,M,,*5F
06/14/2014	12:03:01.767	$GPGGA,120302,2427.3284,N,08102.8058,W,1,9,1.7,15,M,,M,,*59
06/14/2014	12:03:02.782	$GPGGA,120303,2427.3280,N,08102.8065,W,1,9,1.7,15,M,,M,,*52
06/14/2014	12:03:03.806	$GPGGA,120304,2427.3277,N,08102.8072,W,1,9,1.7,15,M,,M,,*5B
06/14/2014	12:03:04.841	$GPGGA,120305,2427.3273,N,08102.8081,W,1,9,1.7,15,M,,M,,*52
06/14/2014	12:03:05.815	$GPGGA,120306,2427.3270,N,08102.8087,W,1,9,1.7,15,M,,M,,*54
06/14/2014	12:03:06.840	$GPGGA,120307,2427.3266,N,08102.8094,W,1,9,1.7,15,M,,M,,*50
06/14/2014	12:03:07.864	$GPGGA,120308,2427.3262,N,08102.8101,W,1,9,1.7,15,M,,M,,*56
06/14/2014	12:03:08.879	$GPGGA,120309,2427.3259,N,08102.8108,W,1,9,1.7,15,M,,M,,*56
06/14/2014	12:03:09.863	$GPGGA,120310,2427.3256,N,08102.8115,W,1,9,1.7,15,M,,M,,*5D
06/14/2014	12:03:10.877	$GPGGA,120311,2427.3252,N,08102.8123,W,1,9,1.7,15,M,,M,,*5D
06/14/2014	12:03:11.912	$GPGGA,120312,2427.3248,N,08102.8130,W,1,9,1.7,15,M,,M,,*57
06/14/2014	12:03:12.937	$GPGGA,120313,2427.3245,N,08102.8139,W,1,8,1.9,15,M,,M,,*5D
06/14/2014	12:03:13.921	$GPGGA,120314,2427.3241,N,08102.8144,W,1,8,1.7,15,M,,M,,*5A
06/14/2014	12:03:14.946	$GPGGA,120315,2427.3238,N,08102.8150,W,1,9,1.7,15,M,,M,,*51
06/14/2014	12:03:15.960	$GPGGA,120316,2427.3237,N,08102.8158,W,1,9,1.7,15,M,,M,,*55
06/14/2014	12:03:16.986	$GPGGA,120317,2427.3233,N,08102.8165,W,1,9,1.7,15,M,,M,,*5E
06/14/2014	12:03:17.969	$GPGGA,120318,2427.3227,N,08102.8170,W,1,9,1.7,15,M,,M,,*50
06/14/2014	12:03:19.003	$GPGGA,120319,2427.3224,N,08102.8177,W,1,9,1.7,15,M,,M,,*55
06/14/2014	12:03:20.007	$GPGGA,120320,2427.3223,N,08102.8184,W,1,9,1.7,15,M,,M,,*54
06/14/2014	12:03:21.032	$GPGGA,120321,2427.3219,N,08102.8191,W,1,9,1.7,15,M,,M,,*58
06/14/2014	12:03:22.026	$GPGGA,120322,2427.3215,N,08102.8197,W,1,9,1.7,15,M,,M,,*51
06/14/2014	12:03:23.061	$GPGGA,120323,2427.3212,N,08102.8204,W,1,9,1.7,15,M,,M,,*5E
06/14/2014	12:03:24.065	$GPGGA,120324,2427.3209,N,08102.8209,W,1,9,1.7,15,M,,M,,*5E
06/14/2014	12:03:25.058	$GPGGA,120325,2427.3205,N,08102.8216,W,1,9,1.7,15,M,,M,,*5D
06/14/2014	12:03:26.077	$GPGGA,120326,2427.3202,N,08102.8223,W,1,9,1.7,15,M,,M,,*5F
06/14/2014	12:03:27.109	$GPGGA,120327,2427.3198,N,08102.8231,W,1,9,1.7,15,M,,M,,*5D
06/14/2014	12:03:28.109	$GPGGA,120328,2427.3195,N,08102.8238,W,1,9,1.7,15,M,,M,,*56
06/14/2014	12:03:29.134	$GPGGA,120329,2427.3191,N,08102.8244,W,1,9,1.7,15,M,,M,,*58
06/14/2014	12:03:30.119	$GPGGA,120330,2427.3187,N,08102.8251,W,1,9,1.7,15,M,,M,,*53
06/14/2014	12:03:31.156	$GPGGA,120331,2427.3184,N,08102.8259,W,1,9,1.7,14,M,,M,,*58
06/14/2014	12:03:32.152	$GPGGA,120332,2427.3181,N,08102.8266,W,1,9,1.7,14,M,,M,,*52
06/14/2014	12:03:33.277	$GPGGA,120333,2427.3176,N,08102.8273,W,1,9,1.7,14,M,,M,,*5F
06/14/2014	12:03:34.171	$GPGGA,120334,2427.3173,N,08102.8280,W,1,9,1.7,14,M,,M,,*51
06/14/2014	12:03:35.185	$GPGGA,120335,2427.3169,N,08102.8288,W,1,9,1.7,14,M,,M,,*53
06/14/2014	12:03:36.192	$GPGGA,120336,2427.3165,N,08102.8295,W,1,9,1.7,14,M,,M,,*50
06/14/2014	12:03:37.212	$GPGGA,120337,2427.3162,N,08102.8302,W,1,9,1.7,14,M,,M,,*59
06/14/2014	12:03:38.318	$GPGGA,120338,2427.3158,N,08102.8309,W,1,9,1.7,14,M,,M,,*54
06/14/2014	12:03:39.255	$GPGGA,120339,2427.3155,N,08102.8316,W,1,9,1.7,14,M,,M,,*56
06/14/2014	12:03:40.377	$GPGGA,120340,2427.3154,N,08102.8322,W,1,9,1.7,14,M,,M,,*5E
06/14/2014	12:03:41.341	$GPGGA,120341,2427.3148,N,08102.8329,W,1,9,1.7,14,M,,M,,*59
06/14/2014	12:03:42.274	$GPGGA,120342,2427.3144,N,08102.8336,W,1,9,1.7,14,M,,M,,*58
06/14/2014	12:03:43.278	$GPGGA,120343,2427.3141,N,08102.8345,W,1,9,1.7,14,M,,M,,*58
06/14/2014	12:03:44.318	$GPGGA,120344,2427.3137,N,08102.8353,W,1,9,1.7,14,M,,M,,*59
06/14/2014	12:03:45.307	$GPGGA,120345,2427.3133,N,08102.8360,W,1,9,1.7,14,M,,M,,*5C
06/14/2014	12:03:46.413	$GPGGA,120346,2427.3130,N,08102.8365,W,1,9,1.7,14,M,,M,,*59
06/14/2014	12:03:47.336	$GPGGA,120347,2427.3129,N,08102.8372,W,1,9,1.7,14,M,,M,,*56
06/14/2014	12:03:48.463	$GPGGA,120348,2427.3125,N,08102.8379,W,1,9,1.7,14,M,,M,,*5E
06/14/2014	12:03:48.609	$GPGGA,120349,2427.3121,N,08102.8385,W,1,8,1.9,14,M,,M,,*57
06/14/2014	12:03:49.604	$GPGGA,120350,2427.3118,N,08102.8392,W,1,8,1.7,14,M,,M,,*5D
06/14/2014	12:03:50.618	$GPGGA,120351,2427.3115,N,08102.8400,W,1,9,1.7,14,M,,M,,*5C
06/14/2014	12:03:51.642	$GPGGA,120352,2427.3112,N,08102.8407,W,1,9,1.7,14,M,,M,,*5F
06/14/2014	12:03:52.637	$GPGGA,120353,2427.3109,N,08102.8414,W,1,9,1.7,14,M,,M,,*56
06/14/2014	12:03:53.650	$GPGGA,120354,2427.3105,N,08102.8419,W,1,9,1.7,14,M,,M,,*50
06/14/2014	12:03:54.665	$GPGGA,120355,2427.3103,N,08102.8425,W,1,9,1.7,14,M,,M,,*58
06/14/2014	12:03:55.689	$GPGGA,120356,2427.3100,N,08102.8432,W,1,9,1.7,14,M,,M,,*5E
06/14/2014	12:03:56.704	$GPGGA,120357,2427.3097,N,08102.8439,W,1,9,1.7,14,M,,M,,*5B
06/14/2014	12:03:57.688	$GPGGA,120358,2427.3094,N,08102.8444,W,1,9,1.9,14,M,,M,,*53
06/14/2014	12:03:58.723	$GPGGA,120359,2427.3090,N,08102.8451,W,1,9,1.7,14,M,,M,,*5C
06/14/2014	12:03:59.737	$GPGGA,120400,2427.3089,N,08102.8459,W,1,9,1.7,14,M,,M,,*57
06/14/2014	12:04:00.752	$GPGGA,120401,2427.3085,N,08102.8466,W,1,9,1.7,14,M,,M,,*56
06/14/2014	12:04:01.746	$GPGGA,120402,2427.3082,N,08102.8472,W,1,9,1.7,14,M,,M,,*57
06/14/2014	12:04:02.750	$GPGGA,120403,2427.3078,N,08102.8479,W,1,9,1.7,14,M,,M,,*58
06/14/2014	12:04:03.785	$GPGGA,120404,2427.3076,N,08102.8486,W,1,9,1.9,14,M,,M,,*5F
06/14/2014	12:04:04.800	$GPGGA,120405,2427.3071,N,08102.8491,W,1,9,1.7,13,M,,M,,*56
06/14/2014	12:04:05.794	$GPGGA,120406,2427.3067,N,08102.8498,W,1,9,1.7,13,M,,M,,*5B
06/14/2014	12:04:06.829	$GPGGA,120407,2427.3065,N,08102.8506,W,1,9,1.7,13,M,,M,,*5E
06/14/2014	12:04:07.823	$GPGGA,120408,2427.3062,N,08102.8512,W,1,9,1.7,13,M,,M,,*53
06/14/2014	12:04:08.859	$GPGGA,120409,2427.3057,N,08102.8519,W,1,9,1.7,13,M,,M,,*5F
06/14/2014	12:04:09.842	$GPGGA,120410,2427.3054,N,08102.8526,W,1,9,1.7,13,M,,M,,*58
06/14/2014	12:04:10.846	$GPGGA,120411,2427.3053,N,08102.8533,W,1,9,1.7,13,M,,M,,*5A
06/14/2014	12:04:11.890	$GPGGA,120412,2427.3049,N,08102.8538,W,1,9,1.7,13,M,,M,,*59
06/14/2014	12:04:12.874	$GPGGA,120413,2427.3046,N,08102.8544,W,1,9,1.7,13,M,,M,,*5C
06/14/2014	12:04:13.892	$GPGGA,120414,2427.3042,N,08102.8552,W,1,9,1.7,13,M,,M,,*58
06/14/2014	12:04:14.903	$GPGGA,120415,2427.3039,N,08102.8559,W,1,9,1.7,13,M,,M,,*5E
06/14/2014	12:04:15.928	$GPGGA,120416,2427.3035,N,08102.8566,W,1,9,1.7,13,M,,M,,*5D
06/14/2014	12:04:16.942	$GPGGA,120417,2427.3031,N,08102.8574,W,1,9,1.7,13,M,,M,,*5B
06/14/2014	12:04:17.940	$GPGGA,120418,2427.3027,N,08102.8581,W,1,9,1.7,13,M,,M,,*59
06/14/2014	12:04:18.961	$GPGGA,120419,2427.3025,N,08102.8588,W,1,9,1.7,13,M,,M,,*53
06/14/2014	12:04:20.148	$GPGGA,120420,2427.3020,N,08102.8595,W,1,9,1.7,13,M,,M,,*50
06/14/2014	12:04:21.118	$GPGGA,120421,2427.3017,N,08102.8600,W,1,9,1.7,13,M,,M,,*5A
06/14/2014	12:04:21.997	$GPGGA,120422,2427.3014,N,08102.8607,W,1,9,1.7,13,M,,M,,*5D
06/14/2014	12:04:23.009	$GPGGA,120423,2427.3010,N,08102.8614,W,1,9,1.7,13,M,,M,,*5A
06/14/2014	12:04:24.043	$GPGGA,120424,2427.3006,N,08102.8621,W,1,9,1.7,13,M,,M,,*5C
06/14/2014	12:04:25.045	$GPGGA,120425,2427.3002,N,08102.8628,W,1,9,1.7,13,M,,M,,*50
06/14/2014	12:04:26.033	$GPGGA,120426,2427.2999,N,08102.8635,W,1,9,1.7,13,M,,M,,*55
06/14/2014	12:04:27.058	$GPGGA,120427,2427.2996,N,08102.8642,W,1,9,1.7,13,M,,M,,*5B
06/14/2014	12:04:28.244	$GPGGA,120428,2427.2992,N,08102.8647,W,1,9,1.7,13,M,,M,,*55
06/14/2014	12:04:29.085	$GPGGA,120429,2427.2988,N,08102.8653,W,1,9,1.7,13,M,,M,,*5A
06/14/2014	12:04:30.181	$GPGGA,120430,2427.2985,N,08102.8661,W,1,9,1.7,13,M,,M,,*5E
06/14/2014	12:04:31.093	$GPGGA,120431,2427.2981,N,08102.8667,W,1,9,1.7,13,M,,M,,*5D
06/14/2014	12:04:32.219	$GPGGA,120432,2427.2977,N,08102.8674,W,1,9,1.7,13,M,,M,,*55
06/14/2014	12:04:33.264	$GPGGA,120433,2427.2973,N,08102.8681,W,1,9,1.7,13,M,,M,,*5A
06/14/2014	12:04:34.309	$GPGGA,120434,2427.2970,N,08102.8689,W,1,9,1.7,13,M,,M,,*56
06/14/2014	12:04:35.161	$GPGGA,120435,2427.2966,N,08102.8696,W,1,9,1.7,13,M,,M,,*5E
06/14/2014	12:04:36.267	$GPGGA,120436,2427.2962,N,08102.8701,W,1,9,1.7,13,M,,M,,*56
06/14/2014	12:04:37.322	$GPGGA,120437,2427.2959,N,08102.8708,W,1,9,1.7,13,M,,M,,*56
06/14/2014	12:04:38.276	$GPGGA,120438,2427.2954,N,08102.8715,W,1,9,1.7,13,M,,M,,*58
06/14/2014	12:04:39.331	$GPGGA,120439,2427.2952,N,08102.8722,W,1,9,1.7,13,M,,M,,*5B
06/14/2014	12:04:40.315	$GPGGA,120440,2427.2946,N,08102.8729,W,1,9,1.7,13,M,,M,,*5B
06/14/2014	12:04:41.360	$GPGGA,120441,2427.2942,N,08102.8736,W,1,9,1.8,13,M,,M,,*5F
06/14/2014	12:04:42.405	$GPGGA,120442,2427.2938,N,08102.8743,W,1,9,1.8,13,M,,M,,*53
06/14/2014	12:04:43.389	$GPGGA,120443,2427.2934,N,08102.8750,W,1,9,1.7,13,M,,M,,*53
06/14/2014	12:04:44.363	$GPGGA,120444,2427.2931,N,08102.8755,W,1,9,1.7,13,M,,M,,*54
06/14/2014	12:04:45.418	$GPGGA,120445,2427.2928,N,08102.8762,W,1,9,1.7,13,M,,M,,*59
06/14/2014	12:04:46.453	$GPGGA,120446,2427.2923,N,08102.8768,W,1,9,1.7,13,M,,M,,*5B
06/14/2014	12:04:47.446	$GPGGA,120447,2427.2919,N,08102.8775,W,1,9,1.7,13,M,,M,,*5F
06/14/2014	12:04:48.491	$GPGGA,120448,2427.2916,N,08102.8782,W,1,9,1.7,13,M,,M,,*57
06/14/2014	12:04:48.597	$GPGGA,120449,2427.2912,N,08102.8787,W,1,9,1.7,14,M,,M,,*50
06/14/2014	12:04:49.561	$GPGGA,120450,2427.2908,N,08102.8794,W,1,9,1.7,14,M,,M,,*51
06/14/2014	12:04:50.616	$GPGGA,120451,2427.2905,N,08102.8801,W,1,9,1.7,14,M,,M,,*5E
06/14/2014	12:04:51.681	$GPGGA,120452,2427.2902,N,08102.8808,W,1,9,1.7,14,M,,M,,*53
06/14/2014	12:04:52.655	$GPGGA,120453,2427.2901,N,08102.8808,W,1,8,1.7,14,M,,M,,*50
06/14/2014	12:04:53.619	$GPGGA,120454,2427.2896,N,08102.8815,W,1,8,1.7,14,M,,M,,*54
06/14/2014	12:04:54.633	$GPGGA,120455,2427.2894,N,08102.8822,W,1,9,1.7,14,M,,M,,*52
06/14/2014	12:04:55.709	$GPGGA,120456,2427.2890,N,08102.8830,W,1,9,1.9,14,M,,M,,*58
06/14/2014	12:04:56.703	$GPGGA,120457,2427.2885,N,08102.8837,W,1,8,1.7,14,M,,M,,*55
06/14/2014	12:04:57.717	$GPGGA,120458,2427.2880,N,08102.8844,W,1,8,1.7,14,M,,M,,*5B
06/14/2014	12:04:58.732	$GPGGA,120459,2427.2878,N,08102.8851,W,1,9,1.7,14,M,,M,,*58
06/14/2014	12:04:59.767	$GPGGA,120500,2427.2876,N,08102.8858,W,1,9,1.9,14,M,,M,,*5C
06/14/2014	12:05:00.761	$GPGGA,120501,2427.2873,N,08102.8863,W,1,8,1.7,14,M,,M,,*5F
06/14/2014	12:05:01.714	$GPGGA,120502,2427.2867,N,08102.8869,W,1,8,1.7,14,M,,M,,*53
06/14/2014	12:05:02.769	$GPGGA,120503,2427.2865,N,08102.8876,W,1,9,1.7,14,M,,M,,*5F
06/14/2014	12:05:03.813	$GPGGA,120504,2427.2862,N,08102.8883,W,1,9,1.7,14,M,,M,,*55
06/14/2014	12:05:04.809	$GPGGA,120505,2427.2859,N,08102.8889,W,1,9,1.7,14,M,,M,,*56
06/14/2014	12:05:05.863	$GPGGA,120506,2427.2854,N,08102.8896,W,1,9,1.7,14,M,,M,,*56
06/14/2014	12:05:06.776	$GPGGA,120507,2427.2849,N,08102.8902,W,1,9,1.7,14,M,,M,,*57
06/14/2014	12:05:07.861	$GPGGA,120508,2427.2847,N,08102.8909,W,1,9,1.7,15,M,,M,,*5C
06/14/2014	12:05:08.835	$GPGGA,120509,2427.2843,N,08102.8916,W,1,9,1.9,15,M,,M,,*59
06/14/2014	12:05:09.870	$GPGGA,120510,2427.2840,N,08102.8921,W,1,9,1.9,15,M,,M,,*56
06/14/2014	12:05:10.955	$GPGGA,120511,2427.2837,N,08102.8927,W,1,9,1.7,15,M,,M,,*5F
06/14/2014	12:05:11.899	$GPGGA,120512,2427.2834,N,08102.8934,W,1,9,1.7,15,M,,M,,*5D
06/14/2014	12:05:12.893	$GPGGA,120513,2427.2830,N,08102.8941,W,1,9,1.7,15,M,,M,,*5A
06/14/2014	12:05:13.857	$GPGGA,120514,2427.2827,N,08102.8946,W,1,9,1.7,15,M,,M,,*5C
06/14/2014	12:05:15.003	$GPGGA,120515,2427.2824,N,08102.8952,W,1,9,1.7,15,M,,M,,*5B
06/14/2014	12:05:15.957	$GPGGA,120516,2427.2822,N,08102.8960,W,1,9,1.9,15,M,,M,,*51
06/14/2014	12:05:16.951	$GPGGA,120517,2427.2819,N,08102.8965,W,1,8,1.7,15,M,,M,,*52
06/14/2014	12:05:18.006	$GPGGA,120518,2427.2815,N,08102.8971,W,1,8,1.7,15,M,,M,,*54
06/14/2014	12:05:19.056	$GPGGA,120519,2427.2811,N,08102.8978,W,1,9,1.7,15,M,,M,,*59
06/14/2014	12:05:20.015	$GPGGA,120520,2427.2809,N,08102.8985,W,1,9,1.7,15,M,,M,,*58
06/14/2014	12:05:21.009	$GPGGA,120521,2427.2807,N,08102.8992,W,1,9,1.7,15,M,,M,,*51
06/14/2014	12:05:23.145	$GPGGA,120523,2427.2798,N,08102.9004,W,1,9,1.7,15,M,,M,,*5D
06/14/2014	12:05:24.102	$GPGGA,120524,2427.2795,N,08102.9011,W,1,9,1.7,15,M,,M,,*53
06/14/2014	12:05:25.097	$GPGGA,120525,2427.2793,N,08102.9018,W,1,9,1.7,15,M,,M,,*5D
06/14/2014	12:05:26.121	$GPGGA,120526,2427.2789,N,08102.9025,W,1,9,1.9,15,M,,M,,*55
06/14/2014	12:05:27.146	$GPGGA,120527,2427.2784,N,08102.9032,W,1,8,1.7,15,M,,M,,*50
06/14/2014	12:05:28.150	$GPGGA,120528,2427.2780,N,08102.9037,W,1,8,1.7,15,M,,M,,*5E
06/14/2014	12:05:29.155	$GPGGA,120529,2427.2776,N,08102.9043,W,1,9,1.7,15,M,,M,,*54
06/14/2014	12:05:30.210	$GPGGA,120530,2427.2773,N,08102.9050,W,1,9,1.7,15,M,,M,,*5B
06/14/2014	12:05:31.194	$GPGGA,120531,2427.2771,N,08102.9055,W,1,9,1.7,15,M,,M,,*5D
06/14/2014	12:05:32.198	$GPGGA,120532,2427.2765,N,08102.9061,W,1,9,1.7,15,M,,M,,*5C
06/14/2014	12:05:33.213	$GPGGA,120533,2427.2761,N,08102.9068,W,1,9,1.7,15,M,,M,,*50
06/14/2014	12:05:34.207	$GPGGA,120534,2427.2758,N,08102.9075,W,1,9,1.7,15,M,,M,,*51
06/14/2014	12:05:35.272	$GPGGA,120535,2427.2754,N,08102.9082,W,1,9,1.7,15,M,,M,,*54
06/14/2014	12:05:36.256	$GPGGA,120536,2427.2749,N,08102.9089,W,1,9,1.7,15,M,,M,,*50
06/14/2014	12:05:37.260	$GPGGA,120537,2427.2744,N,08102.9094,W,1,9,1.7,15,M,,M,,*50
06/14/2014	12:05:38.295	$GPGGA,120538,2427.2742,N,08102.9100,W,1,9,1.7,15,M,,M,,*55
06/14/2014	12:05:39.289	$GPGGA,120539,2427.2739,N,08102.9107,W,1,9,1.7,14,M,,M,,*5E
06/14/2014	12:05:40.293	$GPGGA,120540,2427.2735,N,08102.9112,W,1,9,1.7,14,M,,M,,*58
06/14/2014	12:05:41.297	$GPGGA,120541,2427.2731,N,08102.9118,W,1,9,1.7,14,M,,M,,*57
06/14/2014	12:05:42.322	$GPGGA,120542,2427.2728,N,08102.9126,W,1,9,1.7,14,M,,M,,*51
06/14/2014	12:05:43.367	$GPGGA,120543,2427.2726,N,08102.9133,W,1,9,1.7,14,M,,M,,*5A
06/14/2014	12:05:44.372	$GPGGA,120544,2427.2722,N,08102.9140,W,1,9,1.7,14,M,,M,,*5D
06/14/2014	12:05:45.376	$GPGGA,120545,2427.2718,N,08102.9145,W,1,9,1.7,14,M,,M,,*50
06/14/2014	12:05:46.390	$GPGGA,120546,2427.2717,N,08102.9154,W,1,9,1.7,14,M,,M,,*5C
06/14/2014	12:05:47.384	$GPGGA,120547,2427.2715,N,08102.9159,W,1,9,1.7,14,M,,M,,*52
06/14/2014	12:05:48.409	$GPGGA,120548,2427.2710,N,08102.9165,W,1,9,1.7,14,M,,M,,*57
06/14/2014	12:05:48.565	$GPGGA,120549,2427.2707,N,08102.9171,W,1,9,1.7,14,M,,M,,*55
06/14/2014	12:05:49.545	$GPGGA,120550,2427.2706,N,08102.9180,W,1,9,1.7,14,M,,M,,*52
06/14/2014	12:05:50.574	$GPGGA,120551,2427.2703,N,08102.9187,W,1,9,1.7,14,M,,M,,*51
06/14/2014	12:05:51.589	$GPGGA,120552,2427.2699,N,08102.9194,W,1,9,1.7,14,M,,M,,*52
06/14/2014	12:05:52.584	$GPGGA,120553,2427.2696,N,08102.9201,W,1,9,1.7,14,M,,M,,*53
06/14/2014	12:05:53.639	$GPGGA,120554,2427.2695,N,08102.9207,W,1,9,1.7,14,M,,M,,*51
06/14/2014	12:05:54.714	$GPGGA,120555,2427.2690,N,08102.9213,W,1,9,1.7,14,M,,M,,*50
06/14/2014	12:05:55.626	$GPGGA,120556,2427.2688,N,08102.9219,W,1,9,1.7,14,M,,M,,*50
06/14/2014	12:05:56.731	$GPGGA,120557,2427.2686,N,08102.9227,W,1,8,1.9,14,M,,M,,*5D
06/14/2014	12:05:57.655	$GPGGA,120558,2427.2686,N,08102.9227,W,1,8,1.7,14,M,,M,,*5C
06/14/2014	12:05:58.761	$GPGGA,120559,2427.2678,N,08102.9241,W,1,9,1.7,14,M,,M,,*5D
06/14/2014	12:05:59.686	$GPGGA,120600,2427.2678,N,08102.9241,W,1,9,1.7,14,M,,M,,*52
06/14/2014	12:06:00.667	$GPGGA,120601,2427.2673,N,08102.9253,W,1,9,1.7,14,M,,M,,*5B
06/14/2014	12:06:01.783	$GPGGA,120602,2427.2671,N,08102.9259,W,1,9,1.7,14,M,,M,,*50
06/14/2014	12:06:02.829	$GPGGA,120603,2427.2668,N,08102.9266,W,1,9,1.7,14,M,,M,,*55
06/14/2014	12:06:03.723	$GPGGA,120604,2427.2668,N,08102.9266,W,1,9,1.7,14,M,,M,,*52
06/14/2014	12:06:04.852	$GPGGA,120605,2427.2663,N,08102.9278,W,1,9,1.7,14,M,,M,,*57
06/14/2014	12:06:05.842	$GPGGA,120606,2427.2659,N,08102.9283,W,1,9,1.7,14,M,,M,,*59
06/14/2014	12:06:06.754	$GPGGA,120607,2427.2654,N,08102.9290,W,1,9,1.7,14,M,,M,,*57
06/14/2014	12:06:07.790	$GPGGA,120608,2427.2654,N,08102.9290,W,1,9,1.7,14,M,,M,,*58
06/14/2014	12:06:08.773	$GPGGA,120609,2427.2650,N,08102.9306,W,1,9,1.7,13,M,,M,,*54
06/14/2014	12:06:09.889	$GPGGA,120610,2427.2645,N,08102.9313,W,1,9,1.7,13,M,,M,,*5C
06/14/2014	12:06:10.894	$GPGGA,120611,2427.2641,N,08102.9318,W,1,9,1.7,13,M,,M,,*52
06/14/2014	12:06:11.928	$GPGGA,120612,2427.2638,N,08102.9324,W,1,9,1.7,13,M,,M,,*50
06/14/2014	12:06:12.954	$GPGGA,120613,2427.2635,N,08102.9332,W,1,9,1.7,13,M,,M,,*5B
06/14/2014	12:06:13.936	$GPGGA,120614,2427.2631,N,08102.9339,W,1,9,1.7,13,M,,M,,*53
06/14/2014	12:06:14.951	$GPGGA,120615,2427.2625,N,08102.9344,W,1,9,1.7,13,M,,M,,*5D
06/14/2014	12:06:15.975	$GPGGA,120616,2427.2621,N,08102.9351,W,1,9,1.7,13,M,,M,,*5E
06/14/2014	12:06:16.969	$GPGGA,120617,2427.2619,N,08102.9358,W,1,9,1.7,13,M,,M,,*5D
06/14/2014	12:06:17.984	$GPGGA,120618,2427.2616,N,08102.9364,W,1,9,1.7,13,M,,M,,*52
06/14/2014	12:06:19.019	$GPGGA,120619,2427.2610,N,08102.9369,W,1,9,1.7,13,M,,M,,*58
06/14/2014	12:06:20.033	$GPGGA,120620,2427.2607,N,08102.9375,W,1,9,1.7,13,M,,M,,*59
06/14/2014	12:06:21.048	$GPGGA,120621,2427.2603,N,08102.9380,W,1,8,1.7,13,M,,M,,*57
06/14/2014	12:06:22.052	$GPGGA,120622,2427.2599,N,08102.9386,W,1,8,1.7,13,M,,M,,*52
06/14/2014	12:06:23.067	$GPGGA,120623,2427.2594,N,08102.9393,W,1,9,1.7,13,M,,M,,*5B
06/14/2014	12:06:24.091	$GPGGA,120624,2427.2591,N,08102.9400,W,1,9,1.7,13,M,,M,,*54
06/14/2014	12:06:25.096	$GPGGA,120625,2427.2587,N,08102.9408,W,1,9,1.7,13,M,,M,,*5A
06/14/2014	12:06:26.086	$GPGGA,120626,2427.2583,N,08102.9413,W,1,9,1.7,13,M,,M,,*57
06/14/2014	12:06:27.125	$GPGGA,120627,2427.2578,N,08102.9418,W,1,9,1.7,13,M,,M,,*59
06/14/2014	12:06:28.129	$GPGGA,120628,2427.2576,N,08102.9423,W,1,9,1.7,13,M,,M,,*50
06/14/2014	12:06:29.131	$GPGGA,120629,2427.2572,N,08102.9429,W,1,9,1.7,13,M,,M,,*5F
06/14/2014	12:06:30.143	$GPGGA,120630,2427.2569,N,08102.9436,W,1,9,1.7,13,M,,M,,*53
06/14/2014	12:06:31.133	$GPGGA,120631,2427.2565,N,08102.9444,W,1,9,1.7,13,M,,M,,*5B
06/14/2014	12:06:32.176	$GPGGA,120632,2427.2562,N,08102.9451,W,1,9,1.7,13,M,,M,,*5B
06/14/2014	12:06:33.200	$GPGGA,120633,2427.2558,N,08102.9458,W,1,9,1.7,13,M,,M,,*5A
06/14/2014	12:06:34.195	$GPGGA,120634,2427.2555,N,08102.9463,W,1,9,1.7,13,M,,M,,*58
06/14/2014	12:06:35.229	$GPGGA,120635,2427.2556,N,08102.9469,W,1,9,1.7,13,M,,M,,*50
06/14/2014	12:06:36.218	$GPGGA,120636,2427.2552,N,08102.9476,W,1,9,1.7,13,M,,M,,*59
06/14/2014	12:06:37.258	$GPGGA,120637,2427.2548,N,08102.9480,W,1,9,1.7,13,M,,M,,*5A
06/14/2014	12:06:38.222	$GPGGA,120638,2427.2545,N,08102.9487,W,1,9,1.7,14,M,,M,,*58
06/14/2014	12:06:39.237	$GPGGA,120639,2427.2543,N,08102.9494,W,1,9,1.7,14,M,,M,,*5D
06/14/2014	12:06:40.282	$GPGGA,120640,2427.2540,N,08102.9501,W,1,9,1.7,14,M,,M,,*5D
06/14/2014	12:06:41.278	$GPGGA,120641,2427.2537,N,08102.9508,W,1,9,1.7,14,M,,M,,*55
06/14/2014	12:06:42.280	$GPGGA,120642,2427.2533,N,08102.9512,W,1,9,1.7,14,M,,M,,*59
06/14/2014	12:06:43.285	$GPGGA,120643,2427.2530,N,08102.9519,W,1,9,1.7,14,M,,M,,*50
06/14/2014	12:06:44.340	$GPGGA,120644,2427.2527,N,08102.9524,W,1,9,1.7,14,M,,M,,*5F
06/14/2014	12:06:45.334	$GPGGA,120645,2427.2525,N,08102.9530,W,1,9,1.7,14,M,,M,,*59
06/14/2014	12:06:46.328	$GPGGA,120646,2427.2522,N,08102.9537,W,1,9,1.7,14,M,,M,,*5A
06/14/2014	12:06:47.343	$GPGGA,120647,2427.2516,N,08102.9543,W,1,9,1.7,14,M,,M,,*5F
06/14/2014	12:06:48.377	$GPGGA,120648,2427.2512,N,08102.9548,W,1,9,1.7,14,M,,M,,*5F
06/14/2014	12:06:48.604	$GPGGA,120649,2427.2509,N,08102.9556,W,1,9,1.7,14,M,,M,,*5B
06/14/2014	12:06:49.519	$GPGGA,120650,2427.2506,N,08102.9561,W,1,9,1.7,14,M,,M,,*58
06/14/2014	12:06:50.522	$GPGGA,120651,2427.2502,N,08102.9567,W,1,9,1.7,14,M,,M,,*5B
06/14/2014	12:06:51.668	$GPGGA,120652,2427.2497,N,08102.9574,W,1,9,1.7,14,M,,M,,*57
06/14/2014	12:06:52.652	$GPGGA,120653,2427.2493,N,08102.9578,W,1,9,1.7,14,M,,M,,*5E
06/14/2014	12:06:53.576	$GPGGA,120654,2427.2491,N,08102.9585,W,1,9,1.7,14,M,,M,,*59
06/14/2014	12:06:54.579	$GPGGA,120655,2427.2487,N,08102.9592,W,1,9,1.7,14,M,,M,,*59
06/14/2014	12:06:55.716	$GPGGA,120656,2427.2482,N,08102.9597,W,1,9,1.7,14,M,,M,,*5A
06/14/2014	12:06:56.720	$GPGGA,120657,2427.2478,N,08102.9603,W,1,9,1.7,14,M,,M,,*50
06/14/2014	12:06:57.714	$GPGGA,120658,2427.2475,N,08102.9610,W,1,9,1.7,14,M,,M,,*50
06/14/2014	12:06:58.750	$GPGGA,120659,2427.2471,N,08102.9617,W,1,9,1.7,14,M,,M,,*52
06/14/2014	12:06:59.753	$GPGGA,120700,2427.2467,N,08102.9622,W,1,9,1.7,14,M,,M,,*5E
06/14/2014	12:07:00.748	$GPGGA,120701,2427.2462,N,08102.9628,W,1,9,1.7,14,M,,M,,*50
06/14/2014	12:07:01.762	$GPGGA,120702,2427.2457,N,08102.9633,W,1,9,1.7,14,M,,M,,*5F
06/14/2014	12:07:02.777	$GPGGA,120703,2427.2454,N,08102.9640,W,1,9,1.7,14,M,,M,,*59
06/14/2014	12:07:03.801	$GPGGA,120704,2427.2451,N,08102.9647,W,1,9,1.7,14,M,,M,,*5C
06/14/2014	12:07:04.816	$GPGGA,120705,2427.2446,N,08102.9653,W,1,9,1.7,14,M,,M,,*5E
06/14/2014	12:07:05.800	$GPGGA,120706,2427.2441,N,08102.9660,W,1,9,1.7,14,M,,M,,*5A
06/14/2014	12:07:06.844	$GPGGA,120707,2427.2439,N,08102.9667,W,1,9,1.7,14,M,,M,,*53
06/14/2014	12:07:07.838	$GPGGA,120708,2427.2435,N,08102.9671,W,1,9,1.7,14,M,,M,,*57
06/14/2014	12:07:08.873	$GPGGA,120709,2427.2429,N,08102.9678,W,1,9,1.7,14,M,,M,,*52
06/14/2014	12:07:09.857	$GPGGA,120710,2427.2428,N,08102.9682,W,1,9,1.9,14,M,,M,,*50
06/14/2014	12:07:10.861	$GPGGA,120711,2427.2424,N,08102.9687,W,1,9,1.7,15,M,,M,,*57
06/14/2014	12:07:11.897	$GPGGA,120712,2427.2421,N,08102.9693,W,1,9,1.7,15,M,,M,,*54
06/14/2014	12:07:12.922	$GPGGA,120713,2427.2417,N,08102.9700,W,1,9,1.7,15,M,,M,,*5B
06/14/2014	12:07:13.905	$GPGGA,120714,2427.2414,N,08102.9707,W,1,9,1.7,15,M,,M,,*58
06/14/2014	12:07:14.919	$GPGGA,120715,2427.2411,N,08102.9712,W,1,9,1.7,15,M,,M,,*58
06/14/2014	12:07:15.944	$GPGGA,120716,2427.2408,N,08102.9718,W,1,9,1.7,15,M,,M,,*59
06/14/2014	12:07:16.979	$GPGGA,120717,2427.2404,N,08102.9725,W,1,9,1.7,15,M,,M,,*5A
06/14/2014	12:07:17.952	$GPGGA,120718,2427.2401,N,08102.9730,W,1,9,1.7,15,M,,M,,*54
06/14/2014	12:07:19.008	$GPGGA,120719,2427.2399,N,08102.9737,W,1,9,1.7,15,M,,M,,*54
06/14/2014	12:07:20.002	$GPGGA,120720,2427.2394,N,08102.9743,W,1,9,1.7,15,M,,M,,*50
06/14/2014	12:07:21.016	$GPGGA,120721,2427.2390,N,08102.9751,W,1,9,1.7,15,M,,M,,*56
06/14/2014	12:07:22.010	$GPGGA,120722,2427.2388,N,08102.9758,W,1,9,1.7,15,M,,M,,*55
06/14/2014	12:07:23.055	$GPGGA,120723,2427.2384,N,08102.9765,W,1,9,1.7,16,M,,M,,*55
06/14/2014	12:07:24.053	$GPGGA,120724,2427.2381,N,08102.9770,W,1,9,1.7,16,M,,M,,*53
06/14/2014	12:07:25.081	$GPGGA,120725,2427.2377,N,08102.9777,W,1,9,1.7,16,M,,M,,*5C
06/14/2014	12:07:26.075	$GPGGA,120726,2427.2374,N,08102.9783,W,1,9,1.7,16,M,,M,,*57
06/14/2014	12:07:27.110	$GPGGA,120727,2427.2370,N,08102.9790,W,1,9,1.7,16,M,,M,,*50
06/14/2014	12:07:28.103	$GPGGA,120728,2427.2366,N,08102.9796,W,1,9,1.7,16,M,,M,,*5E
06/14/2014	12:07:29.103	$GPGGA,120729,2427.2363,N,08102.9803,W,1,9,1.7,16,M,,M,,*59
06/14/2014	12:07:30.096	$GPGGA,120730,2427.2360,N,08102.9810,W,1,9,1.7,16,M,,M,,*50
06/14/2014	12:07:31.139	$GPGGA,120731,2427.2356,N,08102.9816,W,1,9,1.7,16,M,,M,,*52
06/14/2014	12:07:32.161	$GPGGA,120732,2427.2352,N,08102.9823,W,1,9,1.7,16,M,,M,,*53
06/14/2014	12:07:33.139	$GPGGA,120733,2427.2352,N,08102.9830,W,1,9,1.7,16,M,,M,,*50
06/14/2014	12:07:34.153	$GPGGA,120734,2427.2347,N,08102.9835,W,1,9,1.7,16,M,,M,,*56
06/14/2014	12:07:35.262	$GPGGA,120735,2427.2341,N,08102.9841,W,1,9,1.7,16,M,,M,,*52
06/14/2014	12:07:36.182	$GPGGA,120736,2427.2338,N,08102.9848,W,1,9,1.7,16,M,,M,,*56
06/14/2014	12:07:37.266	$GPGGA,120737,2427.2336,N,08102.9855,W,1,9,1.7,16,M,,M,,*55
06/14/2014	12:07:38.172	$GPGGA,120738,2427.2334,N,08102.9861,W,1,9,1.7,16,M,,M,,*5F
06/14/2014	12:07:39.179	$GPGGA,120739,2427.2329,N,08102.9867,W,1,9,1.7,16,M,,M,,*54
06/14/2014	12:07:40.201	$GPGGA,120740,2427.2327,N,08102.9874,W,1,9,1.7,16,M,,M,,*56
06/14/2014	12:07:41.204	$GPGGA,120741,2427.2324,N,08102.9881,W,1,9,1.7,16,M,,M,,*5E
06/14/2014	12:07:42.289	$GPGGA,120742,2427.2319,N,08102.9886,W,1,9,1.7,16,M,,M,,*54
06/14/2014	12:07:43.326	$GPGGA,120743,2427.2316,N,08102.9893,W,1,9,1.7,16,M,,M,,*5E
06/14/2014	12:07:44.312	$GPGGA,120744,2427.2314,N,08102.9899,W,1,9,1.7,16,M,,M,,*51
06/14/2014	12:07:45.329	$GPGGA,120745,2427.2309,N,08102.9906,W,1,9,1.7,16,M,,M,,*5B
06/14/2014	12:07:46.316	$GPGGA,120746,2427.2305,N,08102.9911,W,1,9,1.7,16,M,,M,,*52
06/14/2014	12:07:47.333	$GPGGA,120747,2427.2302,N,08102.9918,W,1,9,1.7,16,M,,M,,*5D
06/14/2014	12:07:48.340	$GPGGA,120748,2427.2299,N,08102.9925,W,1,9,1.7,16,M,,M,,*5F
06/14/2014	12:07:48.588	$GPGGA,120749,2427.2294,N,08102.9931,W,1,9,1.7,16,M,,M,,*56
06/14/2014	12:07:49.575	$GPGGA,120750,2427.2290,N,08102.9938,W,1,9,1.7,16,M,,M,,*53
06/14/2014	12:07:50.571	$GPGGA,120751,2427.2287,N,08102.9943,W,1,9,1.7,16,M,,M,,*58
06/14/2014	12:07:51.598	$GPGGA,120752,2427.2284,N,08102.9950,W,1,9,1.7,16,M,,M,,*5A
06/14/2014	12:07:52.615	$GPGGA,120753,2427.2280,N,08102.9957,W,1,9,1.7,16,M,,M,,*58
06/14/2014	12:07:53.592	$GPGGA,120754,2427.2276,N,08102.9964,W,1,9,1.7,16,M,,M,,*56
06/14/2014	12:07:54.619	$GPGGA,120755,2427.2272,N,08102.9971,W,1,9,1.7,16,M,,M,,*57
06/14/2014	12:07:56.642	$GPGGA,120756,2427.2269,N,08102.9976,W,1,9,1.7,16,M,,M,,*59
06/14/2014	12:07:56.671	$GPGGA,120757,2427.2264,N,08102.9982,W,1,9,1.7,16,M,,M,,*5E
06/14/2014	12:07:57.599	$GPGGA,120758,2427.2262,N,08102.9989,W,1,9,1.7,16,M,,M,,*5C
06/14/2014	12:07:58.635	$GPGGA,120759,2427.2258,N,08102.9994,W,1,9,1.7,16,M,,M,,*58
06/14/2014	12:07:59.643	$GPGGA,120800,2427.2253,N,08103.0000,W,1,9,1.7,16,M,,M,,*5C
06/14/2014	12:08:00.648	$GPGGA,120801,2427.2248,N,08103.0008,W,1,9,1.7,16,M,,M,,*5F
06/14/2014	12:08:01.625	$GPGGA,120802,2427.2245,N,08103.0015,W,1,9,1.7,16,M,,M,,*5D
06/14/2014	12:08:02.632	$GPGGA,120803,2427.2242,N,08103.0022,W,1,9,1.7,16,M,,M,,*5F
06/14/2014	12:08:03.649	$GPGGA,120804,2427.2237,N,08103.0029,W,1,9,1.7,15,M,,M,,*52
06/14/2014	12:08:04.676	$GPGGA,120805,2427.2234,N,08103.0034,W,1,9,1.7,15,M,,M,,*5C
06/14/2014	12:08:05.642	$GPGGA,120806,2427.2231,N,08103.0041,W,1,9,1.7,15,M,,M,,*58
06/14/2014	12:08:06.649	$GPGGA,120807,2427.2229,N,08103.0047,W,1,9,1.7,15,M,,M,,*56
06/14/2014	12:08:07.676	$GPGGA,120808,2427.2223,N,08103.0054,W,1,9,1.7,15,M,,M,,*51
06/14/2014	12:08:08.652	$GPGGA,120809,2427.2220,N,08103.0059,W,1,9,1.7,15,M,,M,,*5E
06/14/2014	12:08:09.669	$GPGGA,120810,2427.2217,N,08103.0065,W,1,9,1.7,15,M,,M,,*5D
06/14/2014	12:08:10.706	$GPGGA,120811,2427.2213,N,08103.0072,W,1,9,1.7,15,M,,M,,*5E
06/14/2014	12:08:11.683	$GPGGA,120812,2427.2211,N,08103.0079,W,1,9,1.7,15,M,,M,,*54
06/14/2014	12:08:12.680	$GPGGA,120813,2427.2207,N,08103.0087,W,1,9,1.7,15,M,,M,,*53
06/14/2014	12:08:13.686	$GPGGA,120814,2427.2204,N,08103.0092,W,1,9,1.7,15,M,,M,,*53
06/14/2014	12:08:14.804	$GPGGA,120815,2427.2198,N,08103.0098,W,1,9,1.7,15,M,,M,,*5E
06/14/2014	12:08:15.700	$GPGGA,120816,2427.2194,N,08103.0105,W,1,9,1.7,15,M,,M,,*54
06/14/2014	12:08:16.706	$GPGGA,120817,2427.2191,N,08103.0112,W,1,9,1.7,15,M,,M,,*56
06/14/2014	12:08:17.796	$GPGGA,120818,2427.2188,N,08103.0117,W,1,9,1.7,15,M,,M,,*54
06/14/2014	12:08:18.830	$GPGGA,120819,2427.2183,N,08103.0124,W,1,9,1.7,15,M,,M,,*5E
06/14/2014	12:08:19.736	$GPGGA,120820,2427.2178,N,08103.0131,W,1,9,1.9,14,M,,M,,*5B
06/14/2014	12:08:20.713	$GPGGA,120821,2427.2175,N,08103.0137,W,1,9,1.7,14,M,,M,,*5F
06/14/2014	12:08:21.844	$GPGGA,120822,2427.2172,N,08103.0145,W,1,9,1.7,14,M,,M,,*5E
06/14/2014	12:08:22.726	$GPGGA,120823,2427.2168,N,08103.0148,W,1,7,2.2,14,M,,M,,*51
06/14/2014	12:08:23.733	$GPGGA,120824,2427.2164,N,08103.0152,W,1,7,1.7,14,M,,M,,*57
06/14/2014	12:08:24.755	$GPGGA,120825,2427.2160,N,08103.0159,W,1,9,1.7,14,M,,M,,*57
06/14/2014	12:08:25.727	$GPGGA,120826,2427.2157,N,08103.0166,W,1,9,1.7,14,M,,M,,*5C
06/14/2014	12:08:26.860	$GPGGA,120827,2427.2151,N,08103.0173,W,1,9,1.7,14,M,,M,,*5F
06/14/2014	12:08:27.891	$GPGGA,120828,2427.2148,N,08103.0177,W,1,9,1.7,14,M,,M,,*5C
06/14/2014	12:08:28.758	$GPGGA,120829,2427.2144,N,08103.0184,W,1,9,1.7,14,M,,M,,*5D
06/14/2014	12:08:29.845	$GPGGA,120830,2427.2139,N,08103.0189,W,1,9,1.7,14,M,,M,,*52
06/14/2014	12:08:30.861	$GPGGA,120831,2427.2136,N,08103.0195,W,1,9,1.7,14,M,,M,,*51
06/14/2014	12:08:31.868	$GPGGA,120832,2427.2132,N,08103.0202,W,1,9,1.7,14,M,,M,,*5B
06/14/2014	12:08:32.920	$GPGGA,120833,2427.2128,N,08103.0209,W,1,9,1.7,15,M,,M,,*5B
06/14/2014	12:08:33.871	$GPGGA,120834,2427.2123,N,08103.0215,W,1,9,1.7,15,M,,M,,*5A
06/14/2014	12:08:34.878	$GPGGA,120835,2427.2119,N,08103.0224,W,1,9,1.7,15,M,,M,,*50
06/14/2014	12:08:35.894	$GPGGA,120836,2427.2115,N,08103.0229,W,1,9,1.7,15,M,,M,,*52
06/14/2014	12:08:36.911	$GPGGA,120837,2427.2111,N,08103.0236,W,1,9,1.7,15,M,,M,,*59
06/14/2014	12:08:37.888	$GPGGA,120838,2427.2108,N,08103.0242,W,1,9,1.7,15,M,,M,,*5D
06/14/2014	12:08:38.905	$GPGGA,120839,2427.2105,N,08103.0249,W,1,9,1.7,15,M,,M,,*5A
06/14/2014	12:08:39.922	$GPGGA,120840,2427.2101,N,08103.0256,W,1,9,1.7,15,M,,M,,*5E
06/14/2014	12:08:40.928	$GPGGA,120841,2427.2096,N,08103.0262,W,1,9,1.7,15,M,,M,,*57
06/14/2014	12:08:41.905	$GPGGA,120842,2427.2092,N,08103.0269,W,1,9,1.7,15,M,,M,,*5B
06/14/2014	12:08:42.932	$GPGGA,120843,2427.2089,N,08103.0276,W,1,9,1.7,15,M,,M,,*5E
06/14/2014	12:08:43.939	$GPGGA,120844,2427.2086,N,08103.0283,W,1,9,1.7,15,M,,M,,*5C
06/14/2014	12:08:44.946	$GPGGA,120845,2427.2081,N,08103.0289,W,1,9,1.7,15,M,,M,,*50
06/14/2014	12:08:45.932	$GPGGA,120846,2427.2077,N,08103.0296,W,1,9,1.8,15,M,,M,,*5B
06/14/2014	12:08:46.959	$GPGGA,120847,2427.2075,N,08103.0301,W,1,8,1.8,15,M,,M,,*56
06/14/2014	12:08:47.966	$GPGGA,120848,2427.2074,N,08103.0308,W,1,8,1.7,15,M,,M,,*5E
06/14/2014	12:08:48.567	$GPGGA,120849,2427.2070,N,08103.0314,W,1,9,1.7,15,M,,M,,*57
06/14/2014	12:08:49.533	$GPGGA,120850,2427.2064,N,08103.0319,W,1,9,1.7,15,M,,M,,*57
06/14/2014	12:08:50.539	$GPGGA,120851,2427.2063,N,08103.0326,W,1,9,1.7,15,M,,M,,*5D
06/14/2014	12:08:51.566	$GPGGA,120852,2427.2060,N,08103.0333,W,1,9,1.7,15,M,,M,,*59
06/14/2014	12:08:52.573	$GPGGA,120853,2427.2056,N,08103.0340,W,1,9,1.7,15,M,,M,,*59
06/14/2014	12:08:53.549	$GPGGA,120854,2427.2053,N,08103.0345,W,1,9,1.7,15,M,,M,,*5E
06/14/2014	12:08:54.596	$GPGGA,120855,2427.2050,N,08103.0351,W,1,9,1.7,15,M,,M,,*59
06/14/2014	12:08:55.583	$GPGGA,120856,2427.2048,N,08103.0358,W,1,9,1.7,15,M,,M,,*5A
06/14/2014	12:08:56.580	$GPGGA,120857,2427.2045,N,08103.0365,W,1,9,1.7,15,M,,M,,*58
06/14/2014	12:08:57.587	$GPGGA,120858,2427.2042,N,08103.0370,W,1,9,1.8,15,M,,M,,*5B
06/14/2014	12:08:58.634	$GPGGA,120859,2427.2041,N,08103.0376,W,1,9,1.7,15,M,,M,,*50
06/14/2014	12:08:59.610	$GPGGA,120900,2427.2039,N,08103.0381,W,1,9,1.7,15,M,,M,,*5A
06/14/2014	12:09:00.607	$GPGGA,120901,2427.2038,N,08103.0387,W,1,9,1.7,15,M,,M,,*5C
06/14/2014	12:09:01.614	$GPGGA,120902,2427.2034,N,08103.0394,W,1,9,1.7,15,M,,M,,*51
06/14/2014	12:09:02.621	$GPGGA,120903,2427.2032,N,08103.0399,W,1,9,1.7,15,M,,M,,*5B
06/14/2014	12:09:03.627	$GPGGA,120904,2427.2028,N,08103.0405,W,1,9,1.7,15,M,,M,,*55
06/14/2014	12:09:04.604	$GPGGA,120905,2427.2025,N,08103.0412,W,1,9,1.7,15,M,,M,,*5F
06/14/2014	12:09:05.621	$GPGGA,120906,2427.2023,N,08103.0417,W,1,9,1.7,15,M,,M,,*5F
06/14/2014	12:09:06.721	$GPGGA,120907,2427.2020,N,08103.0423,W,1,9,1.7,15,M,,M,,*5A
06/14/2014	12:09:07.655	$GPGGA,120908,2427.2016,N,08103.0427,W,1,9,1.7,15,M,,M,,*54
06/14/2014	12:09:08.649	$GPGGA,120909,2427.2012,N,08103.0434,W,1,9,1.7,15,M,,M,,*53
06/14/2014	12:09:09.647	$GPGGA,120910,2427.2011,N,08103.0441,W,1,9,1.7,15,M,,M,,*5A
06/14/2014	12:09:10.755	$GPGGA,120911,2427.2006,N,08103.0446,W,1,9,1.7,15,M,,M,,*5A
06/14/2014	12:09:11.671	$GPGGA,120912,2427.2000,N,08103.0452,W,1,9,1.7,15,M,,M,,*5A
06/14/2014	12:09:12.765	$GPGGA,120913,2427.1998,N,08103.0457,W,1,9,1.7,15,M,,M,,*55
06/14/2014	12:09:13.654	$GPGGA,120914,2427.1995,N,08103.0464,W,1,9,1.7,15,M,,M,,*5F
06/14/2014	12:09:14.794	$GPGGA,120915,2427.1991,N,08103.0470,W,1,9,1.7,15,M,,M,,*5F
06/14/2014	12:09:15.679	$GPGGA,120916,2427.1987,N,08103.0475,W,1,9,1.7,15,M,,M,,*5E
06/14/2014	12:09:16.675	$GPGGA,120917,2427.1982,N,08103.0480,W,1,9,1.7,15,M,,M,,*50
06/14/2014	12:09:17.792	$GPGGA,120918,2427.1978,N,08103.0486,W,1,9,1.7,15,M,,M,,*5C
06/14/2014	12:09:18.809	$GPGGA,120919,2427.1974,N,08103.0493,W,1,9,1.7,15,M,,M,,*55
06/14/2014	12:09:19.817	$GPGGA,120920,2427.1970,N,08103.0499,W,1,9,1.7,15,M,,M,,*51
06/14/2014	12:09:20.813	$GPGGA,120921,2427.1965,N,08103.0506,W,1,9,1.7,15,M,,M,,*53
06/14/2014	12:09:21.810	$GPGGA,120922,2427.1960,N,08103.0511,W,1,9,1.7,15,M,,M,,*53
06/14/2014	12:09:22.825	$GPGGA,120923,2427.1958,N,08103.0517,W,1,9,1.7,15,M,,M,,*5F
06/14/2014	12:09:23.822	$GPGGA,120924,2427.1954,N,08103.0524,W,1,9,1.7,15,M,,M,,*54
06/14/2014	12:09:24.797	$GPGGA,120925,2427.1949,N,08103.0529,W,1,9,1.7,15,M,,M,,*54
06/14/2014	12:09:25.802	$GPGGA,120926,2427.1945,N,08103.0535,W,1,9,1.7,15,M,,M,,*56
06/14/2014	12:09:26.828	$GPGGA,120927,2427.1942,N,08103.0542,W,1,9,1.7,15,M,,M,,*50
06/14/2014	12:09:27.834	$GPGGA,120928,2427.1938,N,08103.0547,W,1,9,1.7,15,M,,M,,*57
06/14/2014	12:09:28.850	$GPGGA,120929,2427.1933,N,08103.0553,W,1,9,1.7,15,M,,M,,*58
06/14/2014	12:09:29.825	$GPGGA,120930,2427.1929,N,08103.0560,W,1,9,1.7,14,M,,M,,*5A
06/14/2014	12:09:30.821	$GPGGA,120931,2427.1926,N,08103.0567,W,1,9,1.7,14,M,,M,,*53
06/14/2014	12:09:31.847	$GPGGA,120932,2427.1922,N,08103.0572,W,1,9,1.7,14,M,,M,,*50
06/14/2014	12:09:32.853	$GPGGA,120933,2427.1918,N,08103.0578,W,1,9,1.7,14,M,,M,,*52
06/14/2014	12:09:33.839	$GPGGA,120934,2427.1915,N,08103.0585,W,1,9,1.7,14,M,,M,,*5A
06/14/2014	12:09:34.876	$GPGGA,120935,2427.1911,N,08103.0590,W,1,9,1.7,14,M,,M,,*5B
06/14/2014	12:09:35.861	$GPGGA,120936,2427.1908,N,08103.0596,W,1,9,1.7,14,M,,M,,*56
06/14/2014	12:09:36.867	$GPGGA,120937,2427.1904,N,08103.0603,W,1,9,1.7,14,M,,M,,*54
06/14/2014	12:09:37.852	$GPGGA,120938,2427.1898,N,08103.0610,W,1,9,1.7,14,M,,M,,*5D
06/14/2014	12:09:38.868	$GPGGA,120939,2427.1895,N,08103.0615,W,1,9,1.7,14,M,,M,,*54
06/14/2014	12:09:39.874	$GPGGA,120940,2427.1893,N,08103.0622,W,1,9,1.7,14,M,,M,,*58
06/14/2014	12:09:40.890	$GPGGA,120941,2427.1888,N,08103.0629,W,1,9,1.8,14,M,,M,,*57
06/14/2014	12:09:41.866	$GPGGA,120942,2427.1886,N,08103.0632,W,1,9,1.7,14,M,,M,,*5F
06/14/2014	12:09:42.892	$GPGGA,120943,2427.1883,N,08103.0636,W,1,9,1.7,14,M,,M,,*5F
06/14/2014	12:09:43.887	$GPGGA,120944,2427.1880,N,08103.0643,W,1,9,1.7,14,M,,M,,*59
06/14/2014	12:09:44.913	$GPGGA,120945,2427.1876,N,08103.0647,W,1,9,1.7,14,M,,M,,*55
06/14/2014	12:09:45.889	$GPGGA,120946,2427.1873,N,08103.0654,W,1,9,1.7,14,M,,M,,*51
06/14/2014	12:09:47.005	$GPGGA,120947,2427.1870,N,08103.0659,W,1,9,1.7,14,M,,M,,*5E
06/14/2014	12:09:47.910	$GPGGA,120948,2427.1866,N,08103.0666,W,1,9,1.7,14,M,,M,,*5A
06/14/2014	12:09:48.625	$GPGGA,120949,2427.1863,N,08103.0672,W,1,9,1.7,14,M,,M,,*5B
06/14/2014	12:09:49.630	$GPGGA,120950,2427.1861,N,08103.0677,W,1,9,1.7,14,M,,M,,*54
06/14/2014	12:09:50.536	$GPGGA,120951,2427.1857,N,08103.0683,W,1,9,1.7,14,M,,M,,*5B
06/14/2014	12:09:51.652	$GPGGA,120952,2427.1853,N,08103.0688,W,1,9,1.7,14,M,,M,,*57
06/14/2014	12:09:52.648	$GPGGA,120953,2427.1850,N,08103.0695,W,1,9,1.7,14,M,,M,,*59
06/14/2014	12:09:53.644	$GPGGA,120954,2427.1847,N,08103.0701,W,1,9,1.7,14,M,,M,,*54
06/14/2014	12:09:54.539	$GPGGA,120955,2427.1844,N,08103.0708,W,1,9,1.7,14,M,,M,,*5F
06/14/2014	12:09:55.666	$GPGGA,120956,2427.1841,N,08103.0715,W,1,9,1.7,14,M,,M,,*55
06/14/2014	12:09:56.553	$GPGGA,120957,2427.1839,N,08103.0722,W,1,9,1.7,14,M,,M,,*5F
06/14/2014	12:09:57.572	$GPGGA,120958,2427.1834,N,08103.0727,W,1,9,1.7,14,M,,M,,*58
06/14/2014	12:09:58.569	$GPGGA,120959,2427.1832,N,08103.0733,W,1,9,1.7,14,M,,M,,*5A
06/14/2014	12:09:59.673	$GPGGA,121000,2427.1828,N,08103.0741,W,1,9,1.7,14,M,,M,,*50
06/14/2014	12:10:00.684	$GPGGA,121001,2427.1825,N,08103.0746,W,1,9,1.7,14,M,,M,,*5B
06/14/2014	12:10:01.579	$GPGGA,121002,2427.1824,N,08103.0753,W,1,9,1.7,14,M,,M,,*5D
06/14/2014	12:10:02.666	$GPGGA,121003,2427.1821,N,08103.0760,W,1,9,1.7,14,M,,M,,*59
06/14/2014	12:10:03.601	$GPGGA,121004,2427.1816,N,08103.0766,W,1,9,1.7,14,M,,M,,*5C
06/14/2014	12:10:04.668	$GPGGA,121005,2427.1814,N,08103.0773,W,1,9,1.7,14,M,,M,,*5B
06/14/2014	12:10:05.663	$GPGGA,121006,2427.1811,N,08103.0780,W,1,9,1.7,14,M,,M,,*51
06/14/2014	12:10:06.669	$GPGGA,121007,2427.1807,N,08103.0784,W,1,9,1.7,14,M,,M,,*53
06/14/2014	12:10:07.685	$GPGGA,121008,2427.1804,N,08103.0791,W,1,9,1.7,14,M,,M,,*5B
06/14/2014	12:10:08.701	$GPGGA,121009,2427.1800,N,08103.0796,W,1,9,1.7,14,M,,M,,*59
06/14/2014	12:10:09.697	$GPGGA,121010,2427.1796,N,08103.0802,W,1,9,1.7,14,M,,M,,*53
06/14/2014	12:10:10.703	$GPGGA,121011,2427.1793,N,08103.0809,W,1,9,1.6,14,M,,M,,*5D
06/14/2014	12:10:11.699	$GPGGA,121012,2427.1789,N,08103.0816,W,1,9,1.6,14,M,,M,,*5B
06/14/2014	12:10:12.695	$GPGGA,121013,2427.1785,N,08103.0821,W,1,9,1.6,14,M,,M,,*52
06/14/2014	12:10:13.701	$GPGGA,121014,2427.1782,N,08103.0827,W,1,9,1.6,14,M,,M,,*54
06/14/2014	12:10:14.717	$GPGGA,121015,2427.1778,N,08103.0832,W,1,9,1.6,14,M,,M,,*54
06/14/2014	12:10:15.722	$GPGGA,121016,2427.1775,N,08103.0838,W,1,9,1.6,14,M,,M,,*50
06/14/2014	12:10:16.708	$GPGGA,121017,2427.1771,N,08103.0845,W,1,9,1.6,14,M,,M,,*5F
06/14/2014	12:10:17.715	$GPGGA,121018,2427.1767,N,08103.0850,W,1,9,1.6,14,M,,M,,*53
06/14/2014	12:10:18.739	$GPGGA,121019,2427.1764,N,08103.0856,W,1,9,1.6,14,M,,M,,*57
06/14/2014	12:10:19.735	$GPGGA,121020,2427.1761,N,08103.0863,W,1,9,1.6,14,M,,M,,*5E
06/14/2014	12:10:20.751	$GPGGA,121021,2427.1756,N,08103.0867,W,1,9,1.6,14,M,,M,,*5F
06/14/2014	12:10:21.737	$GPGGA,121022,2427.1752,N,08103.0874,W,1,9,1.6,14,M,,M,,*5A
06/14/2014	12:10:22.763	$GPGGA,121023,2427.1749,N,08103.0881,W,1,9,1.6,14,M,,M,,*5B
06/14/2014	12:10:23.749	$GPGGA,121024,2427.1745,N,08103.0885,W,1,9,1.6,14,M,,M,,*54
06/14/2014	12:10:24.775	$GPGGA,121025,2427.1740,N,08103.0890,W,1,9,1.6,14,M,,M,,*54
06/14/2014	12:10:25.737	$GPGGA,121026,2427.1736,N,08103.0896,W,1,9,1.6,14,M,,M,,*50
06/14/2014	12:10:26.766	$GPGGA,121027,2427.1732,N,08103.0903,W,1,9,1.6,14,M,,M,,*58
06/14/2014	12:10:27.772	$GPGGA,121028,2427.1727,N,08103.0910,W,1,9,1.6,14,M,,M,,*51
06/14/2014	12:10:28.778	$GPGGA,121029,2427.1724,N,08103.0915,W,1,9,1.6,14,M,,M,,*56
06/14/2014	12:10:29.764	$GPGGA,121030,2427.1720,N,08103.0921,W,1,9,1.6,14,M,,M,,*5D
06/14/2014	12:10:30.800	$GPGGA,121031,2427.1716,N,08103.0926,W,1,9,1.6,14,M,,M,,*5E
06/14/2014	12:10:31.786	$GPGGA,121032,2427.1712,N,08103.0932,W,1,9,1.6,14,M,,M,,*5C
06/14/2014	12:10:32.773	$GPGGA,121033,2427.1709,N,08103.0939,W,1,9,1.6,14,M,,M,,*5C
06/14/2014	12:10:33.787	$GPGGA,121034,2427.1704,N,08103.0944,W,1,9,1.6,14,M,,M,,*5C
06/14/2014	12:10:34.904	$GPGGA,121035,2427.1700,N,08103.0951,W,1,9,1.6,14,M,,M,,*5D
06/14/2014	12:10:35.798	$GPGGA,121036,2427.1698,N,08103.0957,W,1,9,1.6,14,M,,M,,*58
06/14/2014	12:10:36.885	$GPGGA,121037,2427.1693,N,08103.0964,W,1,9,1.6,14,M,,M,,*52
06/14/2014	12:10:37.911	$GPGGA,121038,2427.1687,N,08103.0969,W,1,9,1.6,14,M,,M,,*55
06/14/2014	12:10:38.806	$GPGGA,121039,2427.1685,N,08103.0975,W,1,9,1.6,14,M,,M,,*5B
06/14/2014	12:10:39.824	$GPGGA,121040,2427.1681,N,08103.0983,W,1,9,1.6,14,M,,M,,*58
06/14/2014	12:10:40.810	$GPGGA,121041,2427.1676,N,08103.0987,W,1,9,1.6,14,M,,M,,*55
06/14/2014	12:10:41.904	$GPGGA,121042,2427.1673,N,08103.0993,W,1,9,1.6,14,M,,M,,*56
06/14/2014	12:10:42.930	$GPGGA,121043,2427.1669,N,08103.1001,W,1,9,1.6,14,M,,M,,*5F
06/14/2014	12:10:43.946	$GPGGA,121044,2427.1665,N,08103.1006,W,1,9,1.6,14,M,,M,,*53
06/14/2014	12:10:44.840	$GPGGA,121045,2427.1660,N,08103.1012,W,1,9,1.6,14,M,,M,,*52
06/14/2014	12:10:45.938	$GPGGA,121046,2427.1656,N,08103.1019,W,1,9,1.8,14,M,,M,,*51
06/14/2014	12:10:46.923	$GPGGA,121047,2427.1655,N,08103.1023,W,1,8,1.8,14,M,,M,,*5B
06/14/2014	12:10:47.960	$GPGGA,121048,2427.1652,N,08103.1027,W,1,8,1.6,13,M,,M,,*5E
06/14/2014	12:10:48.493	$GPGGA,121049,2427.1648,N,08103.1033,W,1,9,1.6,14,M,,M,,*57
06/14/2014	12:10:49.509	$GPGGA,121050,2427.1644,N,08103.1040,W,1,9,1.6,14,M,,M,,*57
06/14/2014	12:10:50.606	$GPGGA,121051,2427.1641,N,08103.1045,W,1,9,1.6,14,M,,M,,*56
06/14/2014	12:10:51.611	$GPGGA,121052,2427.1637,N,08103.1051,W,1,9,1.6,14,M,,M,,*51
06/14/2014	12:10:52.597	$GPGGA,121053,2427.1635,N,08103.1058,W,1,9,1.6,14,M,,M,,*5B
06/14/2014	12:10:53.613	$GPGGA,121054,2427.1630,N,08103.1062,W,1,9,1.6,14,M,,M,,*50
06/14/2014	12:10:54.598	$GPGGA,121055,2427.1627,N,08103.1067,W,1,9,1.6,14,M,,M,,*52
06/14/2014	12:10:55.624	$GPGGA,121056,2427.1626,N,08103.1074,W,1,9,1.6,14,M,,M,,*52
06/14/2014	12:10:56.609	$GPGGA,121057,2427.1622,N,08103.1080,W,1,9,1.6,14,M,,M,,*5C
06/14/2014	12:10:57.625	$GPGGA,121058,2427.1617,N,08103.1085,W,1,9,1.6,14,M,,M,,*50
06/14/2014	12:10:58.641	$GPGGA,121059,2427.1615,N,08103.1091,W,1,9,1.6,14,M,,M,,*56
06/14/2014	12:10:59.657	$GPGGA,121100,2427.1611,N,08103.1098,W,1,9,1.6,14,M,,M,,*56
06/14/2014	12:11:00.623	$GPGGA,121101,2427.1608,N,08103.1103,W,1,9,1.6,14,M,,M,,*5C
06/14/2014	12:11:01.639	$GPGGA,121102,2427.1604,N,08103.1109,W,1,9,1.6,14,M,,M,,*59
06/14/2014	12:11:02.655	$GPGGA,121103,2427.1599,N,08103.1116,W,1,9,1.6,14,M,,M,,*51
06/14/2014	12:11:03.652	$GPGGA,121104,2427.1597,N,08103.1121,W,1,9,1.6,14,M,,M,,*5C
06/14/2014	12:11:04.667	$GPGGA,121105,2427.1592,N,08103.1127,W,1,9,1.6,14,M,,M,,*5E
06/14/2014	12:11:05.652	$GPGGA,121106,2427.1590,N,08103.1134,W,1,9,1.6,14,M,,M,,*5D
06/14/2014	12:11:06.668	$GPGGA,121107,2427.1586,N,08103.1141,W,1,9,1.6,14,M,,M,,*59
06/14/2014	12:11:07.665	$GPGGA,121108,2427.1581,N,08103.1145,W,1,9,1.6,14,M,,M,,*55
06/14/2014	12:11:08.650	$GPGGA,121109,2427.1579,N,08103.1152,W,1,9,1.6,14,M,,M,,*55
06/14/2014	12:11:09.666	$GPGGA,121110,2427.1575,N,08103.1158,W,1,9,1.6,14,M,,M,,*5B
06/14/2014	12:11:10.691	$GPGGA,121111,2427.1570,N,08103.1164,W,1,9,1.6,14,M,,M,,*50
06/14/2014	12:11:11.687	$GPGGA,121112,2427.1568,N,08103.1171,W,1,9,1.6,14,M,,M,,*5E
06/14/2014	12:11:12.703	$GPGGA,121113,2427.1563,N,08103.1176,W,1,9,1.6,14,M,,M,,*53
06/14/2014	12:11:13.678	$GPGGA,121114,2427.1559,N,08103.1182,W,1,9,1.6,14,M,,M,,*56
06/14/2014	12:11:14.715	$GPGGA,121115,2427.1557,N,08103.1189,W,1,9,1.6,14,M,,M,,*52
06/14/2014	12:11:15.700	$GPGGA,121116,2427.1553,N,08103.1196,W,1,9,1.6,14,M,,M,,*5B
06/14/2014	12:11:16.716	$GPGGA,121117,2427.1548,N,08103.1201,W,1,9,1.6,14,M,,M,,*5D
06/14/2014	12:11:17.685	$GPGGA,121118,2427.1545,N,08103.1207,W,1,9,1.6,14,M,,M,,*59
06/14/2014	12:11:18.728	$GPGGA,121119,2427.1541,N,08103.1214,W,1,9,1.6,14,M,,M,,*5E
06/14/2014	12:11:19.714	$GPGGA,121120,2427.1537,N,08103.1219,W,1,9,1.6,14,M,,M,,*58
06/14/2014	12:11:20.710	$GPGGA,121121,2427.1534,N,08103.1225,W,1,9,1.6,14,M,,M,,*55
06/14/2014	12:11:21.716	$GPGGA,121122,2427.1532,N,08103.1232,W,1,9,1.6,14,M,,M,,*56
06/14/2014	12:11:22.822	$GPGGA,121123,2427.1527,N,08103.1237,W,1,9,1.6,14,M,,M,,*56
06/14/2014	12:11:23.721	$GPGGA,121124,2427.1522,N,08103.1243,W,1,9,1.6,14,M,,M,,*57
06/14/2014	12:11:24.728	$GPGGA,121125,2427.1521,N,08103.1250,W,1,9,1.6,14,M,,M,,*57
06/14/2014	12:11:25.731	$GPGGA,121126,2427.1517,N,08103.1257,W,1,9,1.6,14,M,,M,,*56
06/14/2014	12:11:26.846	$GPGGA,121127,2427.1512,N,08103.1264,W,1,9,1.6,14,M,,M,,*52
06/14/2014	12:11:27.750	$GPGGA,121128,2427.1507,N,08103.1268,W,1,9,1.6,14,M,,M,,*55
06/14/2014	12:11:28.748	$GPGGA,121129,2427.1504,N,08103.1275,W,1,9,1.6,14,M,,M,,*5B
06/14/2014	12:11:29.832	$GPGGA,121130,2427.1503,N,08103.1283,W,1,9,1.6,14,M,,M,,*5D
06/14/2014	12:11:30.868	$GPGGA,121131,2427.1498,N,08103.1288,W,1,9,1.6,14,M,,M,,*54
06/14/2014	12:11:31.771	$GPGGA,121132,2427.1493,N,08103.1294,W,1,9,1.6,14,M,,M,,*51
06/14/2014	12:11:32.851	$GPGGA,121133,2427.1490,N,08103.1301,W,1,9,1.6,14,M,,M,,*5E
06/14/2014	12:11:33.856	$GPGGA,121134,2427.1488,N,08103.1308,W,1,9,1.6,14,M,,M,,*59
06/14/2014	12:11:34.852	$GPGGA,121135,2427.1483,N,08103.1315,W,1,9,1.6,14,M,,M,,*5F
06/14/2014	12:11:35.783	$GPGGA,121136,2427.1479,N,08103.1319,W,1,9,1.6,14,M,,M,,*55
06/14/2014	12:11:36.763	$GPGGA,121137,2427.1476,N,08103.1326,W,1,9,1.6,14,M,,M,,*57
06/14/2014	12:11:37.859	$GPGGA,121138,2427.1474,N,08103.1331,W,1,9,1.6,14,M,,M,,*5C
06/14/2014	12:11:38.865	$GPGGA,121139,2427.1469,N,08103.1338,W,1,9,1.6,14,M,,M,,*58
06/14/2014	12:11:39.891	$GPGGA,121140,2427.1467,N,08103.1345,W,1,9,1.6,14,M,,M,,*52
06/14/2014	12:11:40.877	$GPGGA,121141,2427.1461,N,08103.1351,W,1,9,1.6,14,M,,M,,*50
06/14/2014	12:11:41.883	$GPGGA,121142,2427.1458,N,08103.1358,W,1,9,1.6,14,M,,M,,*50
06/14/2014	12:11:42.899	$GPGGA,121143,2427.1456,N,08103.1363,W,1,9,1.6,14,M,,M,,*57
06/14/2014	12:11:43.905	$GPGGA,121144,2427.1453,N,08103.1369,W,1,9,1.6,14,M,,M,,*5F
06/14/2014	12:11:44.911	$GPGGA,121145,2427.1449,N,08103.1374,W,1,9,1.6,14,M,,M,,*59
06/14/2014	12:11:45.905	$GPGGA,121146,2427.1445,N,08103.1380,W,1,9,1.6,14,M,,M,,*5D
06/14/2014	12:11:46.921	$GPGGA,121147,2427.1443,N,08103.1387,W,1,9,1.6,14,M,,M,,*5D
06/14/2014	12:11:47.917	$GPGGA,121148,2427.1439,N,08103.1395,W,1,9,1.6,14,M,,M,,*5C
06/14/2014	12:11:48.571	$GPGGA,121149,2427.1434,N,08103.1399,W,1,9,1.6,14,M,,M,,*5C
06/14/2014	12:11:49.557	$GPGGA,121150,2427.1432,N,08103.1405,W,1,9,1.6,14,M,,M,,*50
