Software Version Number: 1	Data File Format Number: 1	Build Version Number: 1	Error Count Since VI Started: 0	Manufacturer: Raytheon	 Model Number: RayMarine 120	 S/N: 	 Cal Date: 	 Wind Direction Offset: 0.00	 Slope (M)1: 0.00	 Offset (B)1: 0.00	 Slope (M)2: 0.00	 Offset (B)2: 0.00	 Slope (M)3: 0.00	 Offset (B)3: 0.00	 Slope (M)4: 0.00	 Offset (B)4: 0.00	 Slope (M)5: 0.00	 Offset (B)5: 0.00	 Slope (M)6: 0.00	 Offset (B)6: 0.00
Computer Date	Computer Time	GGA String
06/11/2014	19:00:00.043	$GPGGA,190009,2525.9425,N,07959.8404,W,1,11,1.5,15,M,,M,,*61
06/11/2014	19:00:00.856	$GPGGA,190010,2525.9424,N,07959.8403,W,1,11,1.5,15,M,,M,,*6F
06/11/2014	19:00:01.948	$GPGGA,190011,2525.9423,N,07959.8403,W,1,11,1.5,15,M,,M,,*69
06/11/2014	19:00:02.889	$GPGGA,190012,2525.9424,N,07959.8403,W,1,11,1.5,15,M,,M,,*6D
06/11/2014	19:00:03.922	$GPGGA,190013,2525.9423,N,07959.8403,W,1,11,1.5,15,M,,M,,*6B
06/11/2014	19:00:04.914	$GPGGA,190014,2525.9422,N,07959.8403,W,1,11,1.5,15,M,,M,,*6D
06/11/2014	19:00:05.917	$GPGGA,190015,2525.9422,N,07959.8403,W,1,11,1.5,15,M,,M,,*6C
06/11/2014	19:00:06.900	$GPGGA,190016,2525.9422,N,07959.8403,W,1,11,1.5,14,M,,M,,*6E
06/11/2014	19:00:07.953	$GPGGA,190017,2525.9420,N,07959.8403,W,1,11,1.5,14,M,,M,,*6D
06/11/2014	19:00:08.856	$GPGGA,190018,2525.9421,N,07959.8403,W,1,11,1.5,14,M,,M,,*63
06/11/2014	19:00:09.969	$GPGGA,190019,2525.9419,N,07959.8403,W,1,11,1.5,14,M,,M,,*69
06/11/2014	19:00:10.902	$GPGGA,190020,2525.9418,N,07959.8403,W,1,11,1.5,14,M,,M,,*62
06/11/2014	19:00:11.925	$GPGGA,190021,2525.9418,N,07959.8403,W,1,11,1.5,14,M,,M,,*63
06/11/2014	19:00:12.857	$GPGGA,190022,2525.9417,N,07959.8403,W,1,11,1.5,14,M,,M,,*6F
06/11/2014	19:00:13.970	$GPGGA,190023,2525.9416,N,07959.8403,W,1,11,1.5,14,M,,M,,*6F
06/11/2014	19:00:14.895	$GPGGA,190024,2525.9415,N,07959.8403,W,1,11,1.5,14,M,,M,,*6B
06/11/2014	19:00:15.936	$GPGGA,190025,2525.9415,N,07959.8403,W,1,11,1.5,14,M,,M,,*6A
06/11/2014	19:00:16.902	$GPGGA,190026,2525.9415,N,07959.8403,W,1,11,1.5,14,M,,M,,*69
06/11/2014	19:00:17.992	$GPGGA,190027,2525.9413,N,07959.8403,W,1,11,1.5,14,M,,M,,*6E
06/11/2014	19:00:18.875	$GPGGA,190028,2525.9414,N,07959.8403,W,1,11,1.5,14,M,,M,,*66
06/11/2014	19:00:19.948	$GPGGA,190029,2525.9412,N,07959.8403,W,1,11,1.5,14,M,,M,,*61
06/11/2014	19:00:20.911	$GPGGA,190030,2525.9411,N,07959.8404,W,1,11,1.5,14,M,,M,,*6D
06/11/2014	19:00:21.974	$GPGGA,190031,2525.9411,N,07959.8404,W,1,11,1.5,14,M,,M,,*6C
06/11/2014	19:00:22.915	$GPGGA,190032,2525.9411,N,07959.8404,W,1,11,1.5,14,M,,M,,*6F
06/11/2014	19:00:23.968	$GPGGA,190033,2525.9409,N,07959.8404,W,1,11,1.5,14,M,,M,,*67
06/11/2014	19:00:24.921	$GPGGA,190034,2525.9408,N,07959.8404,W,1,11,1.5,14,M,,M,,*61
06/11/2014	19:00:25.994	$GPGGA,190035,2525.9408,N,07959.8404,W,1,11,1.5,14,M,,M,,*60
06/11/2014	19:00:26.917	$GPGGA,190036,2525.9408,N,07959.8405,W,1,11,1.5,14,M,,M,,*62
06/11/2014	19:00:27.970	$GPGGA,190037,2525.9405,N,07959.8405,W,1,11,1.5,14,M,,M,,*6E
06/11/2014	19:00:28.913	$GPGGA,190038,2525.9406,N,07959.8405,W,1,11,1.5,14,M,,M,,*62
06/11/2014	19:00:29.956	$GPGGA,190039,2525.9404,N,07959.8407,W,1,11,1.5,14,M,,M,,*63
06/11/2014	19:00:31.009	$GPGGA,190040,2525.9404,N,07959.8406,W,1,11,1.5,14,M,,M,,*6C
06/11/2014	19:00:31.961	$GPGGA,190041,2525.9402,N,07959.8407,W,1,11,1.5,14,M,,M,,*6A
06/11/2014	19:00:32.984	$GPGGA,190042,2525.9403,N,07959.8407,W,1,11,1.5,14,M,,M,,*68
06/11/2014	19:00:34.017	$GPGGA,190043,2525.9401,N,07959.8407,W,1,11,1.5,14,M,,M,,*6B
06/11/2014	19:00:34.980	$GPGGA,190044,2525.9400,N,07959.8407,W,1,11,1.5,14,M,,M,,*6D
06/11/2014	19:00:37.195	$GPGGA,190046,2525.9397,N,07959.8407,W,1,11,1.7,14,M,,M,,*64
06/11/2014	19:00:37.800	$GPGGA,190047,2525.9397,N,07959.8407,W,1,10,1.5,14,M,,M,,*66
06/11/2014	19:00:38.819	$GPGGA,190048,2525.9395,N,07959.8407,W,1,10,1.5,14,M,,M,,*6B
06/11/2014	19:00:39.831	$GPGGA,190049,2525.9394,N,07959.8408,W,1,11,1.5,14,M,,M,,*65
06/11/2014	19:00:40.824	$GPGGA,190050,2525.9393,N,07959.8410,W,1,11,1.5,14,M,,M,,*63
06/11/2014	19:00:41.867	$GPGGA,190051,2525.9393,N,07959.8409,W,1,11,1.5,14,M,,M,,*6A
06/11/2014	19:00:42.829	$GPGGA,190052,2525.9393,N,07959.8410,W,1,11,1.5,14,M,,M,,*61
06/11/2014	19:00:43.842	$GPGGA,190053,2525.9391,N,07959.8410,W,1,11,1.5,14,M,,M,,*62
06/11/2014	19:00:44.819	$GPGGA,190054,2525.9390,N,07959.8410,W,1,11,1.5,14,M,,M,,*64
06/11/2014	19:00:45.838	$GPGGA,190055,2525.9389,N,07959.8410,W,1,11,1.5,14,M,,M,,*6D
06/11/2014	19:00:46.826	$GPGGA,190056,2525.9388,N,07959.8410,W,1,11,1.5,13,M,,M,,*68
06/11/2014	19:00:47.864	$GPGGA,190057,2525.9387,N,07959.8410,W,1,11,1.5,13,M,,M,,*66
06/11/2014	19:00:48.828	$GPGGA,190058,2525.9386,N,07959.8410,W,1,11,1.5,13,M,,M,,*68
06/11/2014	19:00:49.860	$GPGGA,190059,2525.9386,N,07959.8410,W,1,11,1.5,13,M,,M,,*69
06/11/2014	19:00:50.835	$GPGGA,190100,2525.9384,N,07959.8410,W,1,11,1.5,13,M,,M,,*66
06/11/2014	19:00:51.896	$GPGGA,190101,2525.9383,N,07959.8410,W,1,11,1.5,13,M,,M,,*60
06/11/2014	19:00:52.808	$GPGGA,190102,2525.9382,N,07959.8411,W,1,11,1.5,13,M,,M,,*63
06/11/2014	19:00:53.844	$GPGGA,190103,2525.9382,N,07959.8411,W,1,11,1.5,13,M,,M,,*62
06/11/2014	19:00:54.847	$GPGGA,190104,2525.9381,N,07959.8410,W,1,11,1.5,13,M,,M,,*67
06/11/2014	19:00:55.857	$GPGGA,190105,2525.9380,N,07959.8411,W,1,11,1.5,13,M,,M,,*66
06/11/2014	19:00:56.830	$GPGGA,190106,2525.9379,N,07959.8410,W,1,11,1.5,13,M,,M,,*62
06/11/2014	19:00:57.854	$GPGGA,190107,2525.9379,N,07959.8410,W,1,11,1.5,13,M,,M,,*63
06/11/2014	19:00:58.835	$GPGGA,190108,2525.9377,N,07959.8410,W,1,11,1.5,13,M,,M,,*62
06/11/2014	19:00:59.878	$GPGGA,190109,2525.9376,N,07959.8411,W,1,11,1.5,13,M,,M,,*63
06/11/2014	19:01:00.820	$GPGGA,190110,2525.9375,N,07959.8410,W,1,11,1.5,13,M,,M,,*69
06/11/2014	19:01:01.883	$GPGGA,190111,2525.9375,N,07959.8410,W,1,11,1.5,13,M,,M,,*68
06/11/2014	19:01:02.846	$GPGGA,190112,2525.9375,N,07959.8410,W,1,11,1.5,13,M,,M,,*6B
06/11/2014	19:01:03.853	$GPGGA,190113,2525.9375,N,07959.8410,W,1,11,1.5,13,M,,M,,*6A
06/11/2014	19:01:04.842	$GPGGA,190114,2525.9372,N,07959.8410,W,1,11,1.5,13,M,,M,,*6A
06/11/2014	19:01:05.885	$GPGGA,190115,2525.9371,N,07959.8410,W,1,11,1.5,13,M,,M,,*68
06/11/2014	19:01:06.858	$GPGGA,190116,2525.9370,N,07959.8410,W,1,11,1.5,13,M,,M,,*6A
06/11/2014	19:01:07.901	$GPGGA,190117,2525.9369,N,07959.8409,W,1,11,1.5,13,M,,M,,*6B
06/11/2014	19:01:08.944	$GPGGA,190118,2525.9368,N,07959.8410,W,1,11,1.5,13,M,,M,,*6D
06/11/2014	19:01:09.887	$GPGGA,190119,2525.9368,N,07959.8410,W,1,11,1.5,13,M,,M,,*6C
06/11/2014	19:01:10.829	$GPGGA,190120,2525.9366,N,07959.8408,W,1,11,1.7,13,M,,M,,*63
06/11/2014	19:01:11.902	$GPGGA,190121,2525.9365,N,07959.8408,W,1,10,1.5,13,M,,M,,*62
06/11/2014	19:01:12.945	$GPGGA,190122,2525.9363,N,07959.8407,W,1,10,1.5,13,M,,M,,*68
06/11/2014	19:01:13.897	$GPGGA,190123,2525.9362,N,07959.8406,W,1,10,1.7,13,M,,M,,*6B
06/11/2014	19:01:14.870	$GPGGA,190124,2525.9361,N,07959.8407,W,1,10,1.7,13,M,,M,,*6E
06/11/2014	19:01:15.963	$GPGGA,190125,2525.9361,N,07959.8406,W,1,11,1.5,13,M,,M,,*6D
06/11/2014	19:01:16.846	$GPGGA,190126,2525.9358,N,07959.8405,W,1,11,1.5,13,M,,M,,*67
06/11/2014	19:01:17.969	$GPGGA,190127,2525.9358,N,07959.8405,W,1,10,1.7,13,M,,M,,*65
06/11/2014	19:01:18.963	$GPGGA,190128,2525.9357,N,07959.8403,W,1,10,1.7,13,M,,M,,*63
06/11/2014	19:01:19.975	$GPGGA,190129,2525.9357,N,07959.8403,W,1,10,1.7,13,M,,M,,*62
06/11/2014	19:01:20.847	$GPGGA,190130,2525.9354,N,07959.8402,W,1,10,1.7,13,M,,M,,*68
06/11/2014	19:01:23.495	$GPGGA,190132,2525.9350,N,07959.8400,W,1,10,1.7,13,M,,M,,*6C
06/11/2014	19:01:23.846	$GPGGA,190133,2525.9350,N,07959.8400,W,1,10,1.7,13,M,,M,,*6D
06/11/2014	19:01:24.860	$GPGGA,190134,2525.9348,N,07959.8398,W,1,10,1.7,13,M,,M,,*65
06/11/2014	19:01:25.982	$GPGGA,190135,2525.9346,N,07959.8397,W,1,10,1.7,13,M,,M,,*65
06/11/2014	19:01:26.855	$GPGGA,190136,2525.9346,N,07959.8396,W,1,10,1.7,13,M,,M,,*67
06/11/2014	19:01:27.948	$GPGGA,190137,2525.9344,N,07959.8396,W,1,10,1.7,13,M,,M,,*64
06/11/2014	19:01:28.850	$GPGGA,190138,2525.9343,N,07959.8395,W,1,10,1.7,13,M,,M,,*6F
06/11/2014	19:01:29.945	$GPGGA,190139,2525.9342,N,07959.8393,W,1,10,1.7,13,M,,M,,*69
06/11/2014	19:01:30.967	$GPGGA,190140,2525.9340,N,07959.8392,W,1,10,1.7,13,M,,M,,*64
06/11/2014	19:01:31.959	$GPGGA,190141,2525.9341,N,07959.8392,W,1,10,1.7,13,M,,M,,*64
06/11/2014	19:01:32.951	$GPGGA,190142,2525.9339,N,07959.8391,W,1,10,1.7,13,M,,M,,*6B
06/11/2014	19:01:33.949	$GPGGA,190143,2525.9337,N,07959.8390,W,1,10,1.7,13,M,,M,,*65
06/11/2014	19:01:34.959	$GPGGA,190144,2525.9336,N,07959.8389,W,1,10,1.7,13,M,,M,,*6B
06/11/2014	19:01:35.788	$GPGGA,190145,2525.9335,N,07959.8388,W,1,10,1.7,13,M,,M,,*68
06/11/2014	19:01:36.781	$GPGGA,190146,2525.9334,N,07959.8387,W,1,10,1.7,13,M,,M,,*65
06/11/2014	19:01:37.796	$GPGGA,190147,2525.9333,N,07959.8386,W,1,10,1.7,13,M,,M,,*62
06/11/2014	19:01:38.797	$GPGGA,190148,2525.9332,N,07959.8385,W,1,10,1.7,13,M,,M,,*6F
06/11/2014	19:01:39.800	$GPGGA,190149,2525.9332,N,07959.8385,W,1,10,1.7,13,M,,M,,*6E
06/11/2014	19:01:40.772	$GPGGA,190150,2525.9332,N,07959.8385,W,1,10,1.7,13,M,,M,,*66
06/11/2014	19:01:41.815	$GPGGA,190151,2525.9332,N,07959.8384,W,1,11,1.5,13,M,,M,,*65
06/11/2014	19:01:42.812	$GPGGA,190152,2525.9330,N,07959.8383,W,1,11,1.5,13,M,,M,,*63
06/11/2014	19:01:43.771	$GPGGA,190153,2525.9329,N,07959.8382,W,1,11,1.5,13,M,,M,,*6B
06/11/2014	19:01:44.784	$GPGGA,190154,2525.9328,N,07959.8381,W,1,11,1.7,13,M,,M,,*6C
06/11/2014	19:01:45.778	$GPGGA,190155,2525.9326,N,07959.8380,W,1,10,1.7,13,M,,M,,*63
06/11/2014	19:01:46.800	$GPGGA,190156,2525.9325,N,07959.8379,W,1,10,1.5,13,M,,M,,*67
06/11/2014	19:01:47.816	$GPGGA,190157,2525.9325,N,07959.8379,W,1,11,1.5,13,M,,M,,*67
06/11/2014	19:01:48.777	$GPGGA,190158,2525.9324,N,07959.8378,W,1,11,1.5,13,M,,M,,*68
06/11/2014	19:01:49.787	$GPGGA,190159,2525.9323,N,07959.8378,W,1,11,1.5,13,M,,M,,*6E
06/11/2014	19:01:50.810	$GPGGA,190200,2525.9322,N,07959.8377,W,1,11,1.5,13,M,,M,,*6F
06/11/2014	19:01:51.793	$GPGGA,190201,2525.9321,N,07959.8378,W,1,11,1.5,13,M,,M,,*62
06/11/2014	19:01:52.786	$GPGGA,190202,2525.9319,N,07959.8376,W,1,11,1.5,13,M,,M,,*64
06/11/2014	19:01:53.831	$GPGGA,190203,2525.9318,N,07959.8375,W,1,11,1.5,13,M,,M,,*67
06/11/2014	19:01:54.812	$GPGGA,190204,2525.9317,N,07959.8375,W,1,11,1.5,13,M,,M,,*6F
06/11/2014	19:01:55.785	$GPGGA,190205,2525.9316,N,07959.8375,W,1,11,1.5,13,M,,M,,*6F
06/11/2014	19:01:56.898	$GPGGA,190206,2525.9314,N,07959.8374,W,1,11,1.5,13,M,,M,,*6F
06/11/2014	19:01:57.801	$GPGGA,190207,2525.9314,N,07959.8374,W,1,11,1.5,13,M,,M,,*6E
06/11/2014	19:01:58.804	$GPGGA,190208,2525.9312,N,07959.8373,W,1,11,1.5,13,M,,M,,*60
06/11/2014	19:01:59.806	$GPGGA,190209,2525.9311,N,07959.8374,W,1,11,1.5,13,M,,M,,*65
06/11/2014	19:02:00.799	$GPGGA,190210,2525.9310,N,07959.8373,W,1,11,1.5,13,M,,M,,*6B
06/11/2014	19:02:01.822	$GPGGA,190211,2525.9308,N,07959.8374,W,1,11,1.5,13,M,,M,,*64
06/11/2014	19:02:02.815	$GPGGA,190212,2525.9307,N,07959.8372,W,1,11,1.5,13,M,,M,,*6E
06/11/2014	19:02:03.938	$GPGGA,190213,2525.9306,N,07959.8372,W,1,11,1.5,13,M,,M,,*6E
06/11/2014	19:02:04.791	$GPGGA,190214,2525.9304,N,07959.8372,W,1,11,1.5,13,M,,M,,*6B
06/11/2014	19:02:05.934	$GPGGA,190215,2525.9303,N,07959.8372,W,1,11,1.5,13,M,,M,,*6D
06/11/2014	19:02:06.907	$GPGGA,190216,2525.9303,N,07959.8372,W,1,11,1.5,13,M,,M,,*6E
06/11/2014	19:02:07.909	$GPGGA,190217,2525.9301,N,07959.8372,W,1,11,1.5,13,M,,M,,*6D
06/11/2014	19:02:08.902	$GPGGA,190218,2525.9300,N,07959.8372,W,1,11,1.5,13,M,,M,,*63
06/11/2014	19:02:09.925	$GPGGA,190219,2525.9299,N,07959.8372,W,1,11,1.5,13,M,,M,,*63
06/11/2014	19:02:10.918	$GPGGA,190220,2525.9297,N,07959.8372,W,1,11,1.5,13,M,,M,,*67
06/11/2014	19:02:11.920	$GPGGA,190221,2525.9296,N,07959.8374,W,1,11,1.5,13,M,,M,,*61
06/11/2014	19:02:12.803	$GPGGA,190222,2525.9296,N,07959.8373,W,1,11,1.5,13,M,,M,,*65
06/11/2014	19:02:13.896	$GPGGA,190223,2525.9294,N,07959.8374,W,1,11,1.5,13,M,,M,,*61
06/11/2014	19:02:14.929	$GPGGA,190224,2525.9295,N,07959.8374,W,1,11,1.5,13,M,,M,,*67
06/11/2014	19:02:15.932	$GPGGA,190225,2525.9292,N,07959.8374,W,1,11,1.5,13,M,,M,,*61
06/11/2014	19:02:16.905	$GPGGA,190226,2525.9292,N,07959.8374,W,1,11,1.5,13,M,,M,,*62
06/11/2014	19:02:17.918	$GPGGA,190227,2525.9290,N,07959.8375,W,1,11,1.5,13,M,,M,,*60
06/11/2014	19:02:18.911	$GPGGA,190228,2525.9289,N,07959.8376,W,1,11,1.5,13,M,,M,,*64
06/11/2014	19:02:19.944	$GPGGA,190229,2525.9288,N,07959.8376,W,1,11,1.5,13,M,,M,,*64
06/11/2014	19:02:20.906	$GPGGA,190230,2525.9287,N,07959.8378,W,1,11,1.5,13,M,,M,,*6D
06/11/2014	19:02:21.899	$GPGGA,190231,2525.9286,N,07959.8377,W,1,11,1.5,13,M,,M,,*62
06/11/2014	19:02:22.922	$GPGGA,190232,2525.9285,N,07959.8378,W,1,11,1.5,13,M,,M,,*6D
06/11/2014	19:02:23.905	$GPGGA,190233,2525.9285,N,07959.8378,W,1,11,1.5,13,M,,M,,*6C
06/11/2014	19:02:24.917	$GPGGA,190234,2525.9283,N,07959.8379,W,1,11,1.5,13,M,,M,,*6C
06/11/2014	19:02:25.930	$GPGGA,190235,2525.9282,N,07959.8379,W,1,11,1.5,13,M,,M,,*6C
06/11/2014	19:02:26.933	$GPGGA,190236,2525.9281,N,07959.8381,W,1,11,1.5,13,M,,M,,*6B
06/11/2014	19:02:27.906	$GPGGA,190237,2525.9279,N,07959.8380,W,1,11,1.5,13,M,,M,,*6C
06/11/2014	19:02:28.909	$GPGGA,190238,2525.9280,N,07959.8382,W,1,11,1.5,13,M,,M,,*67
06/11/2014	19:02:29.952	$GPGGA,190239,2525.9278,N,07959.8382,W,1,11,1.5,13,M,,M,,*61
06/11/2014	19:02:30.914	$GPGGA,190240,2525.9277,N,07959.8382,W,1,11,1.5,13,M,,M,,*60
06/11/2014	19:02:31.947	$GPGGA,190241,2525.9276,N,07959.8383,W,1,11,1.5,13,M,,M,,*61
06/11/2014	19:02:32.910	$GPGGA,190242,2525.9275,N,07959.8385,W,1,11,1.5,13,M,,M,,*67
06/11/2014	19:02:33.953	$GPGGA,190243,2525.9274,N,07959.8384,W,1,11,1.5,13,M,,M,,*66
06/11/2014	19:02:34.936	$GPGGA,190244,2525.9272,N,07959.8385,W,1,11,1.5,13,M,,M,,*66
06/11/2014	19:02:35.736	$GPGGA,190245,2525.9271,N,07959.8385,W,1,11,1.5,13,M,,M,,*64
06/11/2014	19:02:36.739	$GPGGA,190246,2525.9270,N,07959.8386,W,1,11,1.5,13,M,,M,,*65
06/11/2014	19:02:37.742	$GPGGA,190247,2525.9268,N,07959.8386,W,1,11,1.5,13,M,,M,,*6D
06/11/2014	19:02:38.765	$GPGGA,190248,2525.9267,N,07959.8387,W,1,11,1.5,13,M,,M,,*6C
06/11/2014	19:02:39.747	$GPGGA,190249,2525.9267,N,07959.8387,W,1,11,1.5,13,M,,M,,*6D
06/11/2014	19:02:40.751	$GPGGA,190250,2525.9265,N,07959.8387,W,1,11,1.5,13,M,,M,,*67
06/11/2014	19:02:41.743	$GPGGA,190251,2525.9263,N,07959.8389,W,1,11,1.5,13,M,,M,,*6E
06/11/2014	19:02:42.775	$GPGGA,190252,2525.9263,N,07959.8388,W,1,11,1.5,13,M,,M,,*6C
06/11/2014	19:02:43.758	$GPGGA,190253,2525.9261,N,07959.8389,W,1,11,1.5,13,M,,M,,*6E
06/11/2014	19:02:44.841	$GPGGA,190254,2525.9260,N,07959.8389,W,1,11,1.5,13,M,,M,,*68
06/11/2014	19:02:45.764	$GPGGA,190255,2525.9259,N,07959.8389,W,1,11,1.5,13,M,,M,,*63
06/11/2014	19:02:46.777	$GPGGA,190256,2525.9257,N,07959.8389,W,1,11,1.5,13,M,,M,,*6E
06/11/2014	19:02:47.870	$GPGGA,190257,2525.9256,N,07959.8389,W,1,10,1.7,13,M,,M,,*6D
06/11/2014	19:02:48.763	$GPGGA,190258,2525.9256,N,07959.8390,W,1,10,1.5,13,M,,M,,*68
06/11/2014	19:02:49.896	$GPGGA,190259,2525.9253,N,07959.8389,W,1,11,1.5,13,M,,M,,*65
06/11/2014	19:02:50.888	$GPGGA,190300,2525.9252,N,07959.8390,W,1,11,1.5,13,M,,M,,*61
06/11/2014	19:02:51.881	$GPGGA,190301,2525.9250,N,07959.8390,W,1,11,1.5,13,M,,M,,*62
06/11/2014	19:02:52.763	$GPGGA,190302,2525.9249,N,07959.8390,W,1,11,1.5,13,M,,M,,*69
06/11/2014	19:02:53.886	$GPGGA,190303,2525.9249,N,07959.8390,W,1,11,1.5,13,M,,M,,*68
06/11/2014	19:02:54.879	$GPGGA,190304,2525.9247,N,07959.8390,W,1,11,1.5,13,M,,M,,*61
06/11/2014	19:02:55.852	$GPGGA,190305,2525.9246,N,07959.8390,W,1,11,1.5,13,M,,M,,*61
06/11/2014	19:02:56.864	$GPGGA,190306,2525.9245,N,07959.8390,W,1,11,1.5,13,M,,M,,*61
06/11/2014	19:02:57.887	$GPGGA,190307,2525.9245,N,07959.8390,W,1,11,1.5,13,M,,M,,*60
06/11/2014	19:02:58.880	$GPGGA,190308,2525.9242,N,07959.8390,W,1,11,1.5,13,M,,M,,*68
06/11/2014	19:02:59.882	$GPGGA,190309,2525.9240,N,07959.8389,W,1,10,1.7,13,M,,M,,*60
06/11/2014	19:03:00.864	$GPGGA,190310,2525.9239,N,07959.8389,W,1,10,1.5,13,M,,M,,*64
06/11/2014	19:03:01.867	$GPGGA,190311,2525.9238,N,07959.8389,W,1,11,1.5,13,M,,M,,*65
06/11/2014	19:03:02.890	$GPGGA,190312,2525.9238,N,07959.8388,W,1,11,1.5,13,M,,M,,*67
06/11/2014	19:03:03.882	$GPGGA,190313,2525.9236,N,07959.8389,W,1,11,1.5,13,M,,M,,*69
06/11/2014	19:03:04.857	$GPGGA,190314,2525.9235,N,07959.8388,W,1,11,1.5,13,M,,M,,*6C
06/11/2014	19:03:05.878	$GPGGA,190315,2525.9234,N,07959.8387,W,1,11,1.5,13,M,,M,,*63
06/11/2014	19:03:06.870	$GPGGA,190316,2525.9234,N,07959.8389,W,1,11,1.7,13,M,,M,,*6C
06/11/2014	19:03:07.883	$GPGGA,190317,2525.9234,N,07959.8388,W,1,11,1.5,13,M,,M,,*6E
06/11/2014	19:03:08.866	$GPGGA,190318,2525.9231,N,07959.8387,W,1,11,1.5,13,M,,M,,*6B
06/11/2014	19:03:09.889	$GPGGA,190319,2525.9230,N,07959.8386,W,1,10,1.7,13,M,,M,,*69
06/11/2014	19:03:10.883	$GPGGA,190320,2525.9228,N,07959.8386,W,1,10,1.5,13,M,,M,,*68
06/11/2014	19:03:11.854	$GPGGA,190321,2525.9227,N,07959.8385,W,1,10,1.7,13,M,,M,,*67
06/11/2014	19:03:12.867	$GPGGA,190322,2525.9227,N,07959.8385,W,1,10,1.7,13,M,,M,,*64
06/11/2014	19:03:13.859	$GPGGA,190323,2525.9224,N,07959.8384,W,1,11,1.5,13,M,,M,,*64
06/11/2014	19:03:14.892	$GPGGA,190324,2525.9223,N,07959.8383,W,1,11,1.7,13,M,,M,,*61
06/11/2014	19:03:15.865	$GPGGA,190325,2525.9222,N,07959.8382,W,1,11,1.5,13,M,,M,,*62
06/11/2014	19:03:16.877	$GPGGA,190326,2525.9221,N,07959.8382,W,1,11,1.5,13,M,,M,,*62
06/11/2014	19:03:17.889	$GPGGA,190327,2525.9220,N,07959.8381,W,1,11,1.5,13,M,,M,,*61
06/11/2014	19:03:18.882	$GPGGA,190328,2525.9218,N,07959.8380,W,1,11,1.5,13,M,,M,,*64
06/11/2014	19:03:19.864	$GPGGA,190329,2525.9217,N,07959.8379,W,1,10,1.7,13,M,,M,,*6F
06/11/2014	19:03:20.877	$GPGGA,190330,2525.9216,N,07959.8378,W,1,10,1.7,13,M,,M,,*67
06/11/2014	19:03:21.870	$GPGGA,190331,2525.9216,N,07959.8377,W,1,10,1.7,13,M,,M,,*69
06/11/2014	19:03:22.893	$GPGGA,190332,2525.9214,N,07959.8376,W,1,10,1.5,13,M,,M,,*6B
06/11/2014	19:03:23.907	$GPGGA,190333,2525.9213,N,07959.8376,W,1,11,1.5,13,M,,M,,*6C
06/11/2014	19:03:24.958	$GPGGA,190334,2525.9212,N,07959.8375,W,1,11,1.5,13,M,,M,,*69
06/11/2014	19:03:25.871	$GPGGA,190335,2525.9210,N,07959.8374,W,1,11,1.5,13,M,,M,,*6B
06/11/2014	19:03:26.893	$GPGGA,190336,2525.9209,N,07959.8373,W,1,11,1.7,13,M,,M,,*65
06/11/2014	19:03:27.876	$GPGGA,190337,2525.9206,N,07959.8372,W,1,10,1.7,13,M,,M,,*6B
06/11/2014	19:03:28.880	$GPGGA,190338,2525.9205,N,07959.8370,W,1,10,1.7,13,M,,M,,*65
06/11/2014	19:03:29.872	$GPGGA,190339,2525.9204,N,07959.8371,W,1,10,1.7,13,M,,M,,*64
06/11/2014	19:03:30.894	$GPGGA,190340,2525.9202,N,07959.8369,W,1,10,1.5,13,M,,M,,*67
06/11/2014	19:03:31.897	$GPGGA,190341,2525.9202,N,07959.8368,W,1,10,1.7,13,M,,M,,*65
06/11/2014	19:03:32.970	$GPGGA,190342,2525.9202,N,07959.8368,W,1,10,1.7,13,M,,M,,*66
06/11/2014	19:03:33.962	$GPGGA,190343,2525.9198,N,07959.8367,W,1,11,1.5,13,M,,M,,*6B
06/11/2014	19:03:34.884	$GPGGA,190344,2525.9196,N,07959.8365,W,1,11,1.7,13,M,,M,,*62
06/11/2014	19:03:35.824	$GPGGA,190345,2525.9197,N,07959.8365,W,1,11,1.5,13,M,,M,,*60
06/11/2014	19:03:36.726	$GPGGA,190346,2525.9195,N,07959.8365,W,1,11,1.5,13,M,,M,,*61
06/11/2014	19:03:37.829	$GPGGA,190347,2525.9194,N,07959.8364,W,1,11,1.5,13,M,,M,,*60
06/11/2014	19:03:38.812	$GPGGA,190348,2525.9193,N,07959.8365,W,1,11,1.5,13,M,,M,,*69
06/11/2014	19:03:39.725	$GPGGA,190349,2525.9192,N,07959.8364,W,1,11,1.5,13,M,,M,,*68
06/11/2014	19:03:40.807	$GPGGA,190350,2525.9191,N,07959.8364,W,1,11,1.5,13,M,,M,,*63
06/11/2014	19:03:41.720	$GPGGA,190351,2525.9191,N,07959.8363,W,1,11,1.5,13,M,,M,,*65
06/11/2014	19:03:42.823	$GPGGA,190352,2525.9189,N,07959.8363,W,1,11,1.5,13,M,,M,,*6F
06/11/2014	19:03:43.836	$GPGGA,190353,2525.9188,N,07959.8362,W,1,11,1.5,13,M,,M,,*6E
06/11/2014	19:03:44.818	$GPGGA,190354,2525.9187,N,07959.8363,W,1,11,1.5,13,M,,M,,*67
06/11/2014	19:03:45.821	$GPGGA,190355,2525.9186,N,07959.8362,W,1,11,1.5,13,M,,M,,*66
06/11/2014	19:03:46.834	$GPGGA,190356,2525.9184,N,07959.8363,W,1,11,1.5,13,M,,M,,*66
06/11/2014	19:03:47.836	$GPGGA,190357,2525.9184,N,07959.8362,W,1,11,1.5,13,M,,M,,*66
06/11/2014	19:03:48.819	$GPGGA,190358,2525.9182,N,07959.8363,W,1,11,1.5,13,M,,M,,*6E
06/11/2014	19:03:49.862	$GPGGA,190359,2525.9181,N,07959.8362,W,1,11,1.5,13,M,,M,,*6D
06/11/2014	19:03:50.834	$GPGGA,190400,2525.9180,N,07959.8361,W,1,11,1.5,13,M,,M,,*64
06/11/2014	19:03:51.827	$GPGGA,190401,2525.9180,N,07959.8361,W,1,11,1.5,13,M,,M,,*65
06/11/2014	19:03:52.829	$GPGGA,190402,2525.9178,N,07959.8363,W,1,11,1.5,13,M,,M,,*63
06/11/2014	19:03:53.812	$GPGGA,190403,2525.9176,N,07959.8362,W,1,11,1.5,13,M,,M,,*6D
06/11/2014	19:03:54.844	$GPGGA,190404,2525.9176,N,07959.8363,W,1,11,1.5,13,M,,M,,*6B
06/11/2014	19:03:55.847	$GPGGA,190405,2525.9175,N,07959.8362,W,1,11,1.5,13,M,,M,,*68
06/11/2014	19:03:56.830	$GPGGA,190406,2525.9174,N,07959.8363,W,1,11,1.5,13,M,,M,,*6B
06/11/2014	19:03:57.823	$GPGGA,190407,2525.9173,N,07959.8362,W,1,11,1.5,13,M,,M,,*6C
06/11/2014	19:03:58.835	$GPGGA,190408,2525.9173,N,07959.8363,W,1,11,1.5,13,M,,M,,*62
06/11/2014	19:03:59.858	$GPGGA,190409,2525.9171,N,07959.8363,W,1,11,1.5,13,M,,M,,*61
06/11/2014	19:04:00.830	$GPGGA,190410,2525.9170,N,07959.8363,W,1,11,1.5,13,M,,M,,*68
06/11/2014	19:04:01.853	$GPGGA,190411,2525.9169,N,07959.8364,W,1,11,1.5,13,M,,M,,*66
06/11/2014	19:04:02.826	$GPGGA,190412,2525.9169,N,07959.8365,W,1,11,1.5,13,M,,M,,*64
06/11/2014	19:04:03.889	$GPGGA,190413,2525.9167,N,07959.8365,W,1,11,1.5,13,M,,M,,*6B
06/11/2014	19:04:04.821	$GPGGA,190414,2525.9166,N,07959.8365,W,1,11,1.5,13,M,,M,,*6D
06/11/2014	19:04:05.834	$GPGGA,190415,2525.9165,N,07959.8367,W,1,11,1.5,13,M,,M,,*6D
06/11/2014	19:04:06.847	$GPGGA,190416,2525.9164,N,07959.8366,W,1,11,1.5,13,M,,M,,*6E
06/11/2014	19:04:07.864	$GPGGA,190417,2525.9163,N,07959.8367,W,1,10,1.5,13,M,,M,,*68
06/11/2014	19:04:08.823	$GPGGA,190418,2525.9164,N,07959.8367,W,1,10,1.5,13,M,,M,,*60
06/11/2014	19:04:09.835	$GPGGA,190419,2525.9162,N,07959.8367,W,1,11,1.5,13,M,,M,,*66
06/11/2014	19:04:10.846	$GPGGA,190420,2525.9162,N,07959.8368,W,1,11,1.5,13,M,,M,,*63
06/11/2014	19:04:11.949	$GPGGA,190421,2525.9162,N,07959.8368,W,1,11,1.5,13,M,,M,,*62
06/11/2014	19:04:12.832	$GPGGA,190422,2525.9160,N,07959.8370,W,1,11,1.5,13,M,,M,,*6A
06/11/2014	19:04:13.834	$GPGGA,190423,2525.9159,N,07959.8369,W,1,11,1.5,13,M,,M,,*69
06/11/2014	19:04:14.837	$GPGGA,190424,2525.9160,N,07959.8370,W,1,11,1.5,13,M,,M,,*6C
06/11/2014	19:04:15.960	$GPGGA,190425,2525.9158,N,07959.8371,W,1,11,1.5,13,M,,M,,*67
06/11/2014	19:04:16.832	$GPGGA,190426,2525.9156,N,07959.8370,W,1,11,1.5,13,M,,M,,*6B
06/11/2014	19:04:17.855	$GPGGA,190427,2525.9155,N,07959.8371,W,1,11,1.5,13,M,,M,,*68
06/11/2014	19:04:18.858	$GPGGA,190428,2525.9155,N,07959.8372,W,1,11,1.5,13,M,,M,,*64
06/11/2014	19:04:20.011	$GPGGA,190429,2525.9153,N,07959.8372,W,1,11,1.5,13,M,,M,,*63
06/11/2014	19:04:20.853	$GPGGA,190430,2525.9152,N,07959.8374,W,1,11,1.5,13,M,,M,,*6C
06/11/2014	19:04:21.946	$GPGGA,190431,2525.9151,N,07959.8374,W,1,11,1.5,13,M,,M,,*6E
06/11/2014	19:04:22.849	$GPGGA,190432,2525.9151,N,07959.8374,W,1,11,1.5,13,M,,M,,*6D
06/11/2014	19:04:23.952	$GPGGA,190433,2525.9149,N,07959.8374,W,1,11,1.5,13,M,,M,,*65
06/11/2014	19:04:24.934	$GPGGA,190434,2525.9148,N,07959.8375,W,1,11,1.5,13,M,,M,,*62
06/11/2014	19:04:25.867	$GPGGA,190435,2525.9147,N,07959.8375,W,1,11,1.5,13,M,,M,,*6C
06/11/2014	19:04:26.960	$GPGGA,190436,2525.9146,N,07959.8376,W,1,11,1.5,13,M,,M,,*6D
06/11/2014	19:04:27.961	$GPGGA,190437,2525.9145,N,07959.8378,W,1,11,1.5,13,M,,M,,*61
06/11/2014	19:04:28.944	$GPGGA,190438,2525.9144,N,07959.8378,W,1,11,1.5,13,M,,M,,*6F
06/11/2014	19:04:29.947	$GPGGA,190439,2525.9142,N,07959.8378,W,1,11,1.5,13,M,,M,,*68
06/11/2014	19:04:30.970	$GPGGA,190440,2525.9141,N,07959.8379,W,1,11,1.5,13,M,,M,,*64
06/11/2014	19:04:31.962	$GPGGA,190441,2525.9140,N,07959.8379,W,1,11,1.5,13,M,,M,,*64
06/11/2014	19:04:32.935	$GPGGA,190442,2525.9139,N,07959.8379,W,1,11,1.5,13,M,,M,,*69
06/11/2014	19:04:33.958	$GPGGA,190443,2525.9138,N,07959.8381,W,1,11,1.5,13,M,,M,,*6E
06/11/2014	19:04:34.980	$GPGGA,190444,2525.9137,N,07959.8382,W,1,11,1.5,13,M,,M,,*65
06/11/2014	19:04:35.792	$GPGGA,190445,2525.9137,N,07959.8381,W,1,11,1.5,13,M,,M,,*67
06/11/2014	19:04:36.785	$GPGGA,190446,2525.9135,N,07959.8382,W,1,11,1.5,13,M,,M,,*65
06/11/2014	19:04:37.797	$GPGGA,190447,2525.9133,N,07959.8381,W,1,11,1.5,13,M,,M,,*61
06/11/2014	19:04:38.800	$GPGGA,190448,2525.9133,N,07959.8382,W,1,11,1.5,13,M,,M,,*6D
06/11/2014	19:04:39.813	$GPGGA,190449,2525.9131,N,07959.8382,W,1,11,1.5,13,M,,M,,*6E
06/11/2014	19:04:40.815	$GPGGA,190450,2525.9130,N,07959.8382,W,1,11,1.5,13,M,,M,,*67
06/11/2014	19:04:41.808	$GPGGA,190451,2525.9129,N,07959.8382,W,1,11,1.5,13,M,,M,,*6E
06/11/2014	19:04:42.801	$GPGGA,190452,2525.9128,N,07959.8382,W,1,11,1.5,13,M,,M,,*6C
06/11/2014	19:04:43.814	$GPGGA,190453,2525.9126,N,07959.8382,W,1,11,1.5,13,M,,M,,*63
06/11/2014	19:04:44.793	$GPGGA,190454,2525.9126,N,07959.8383,W,1,11,1.5,13,M,,M,,*65
06/11/2014	19:04:45.828	$GPGGA,190455,2525.9123,N,07959.8383,W,1,11,1.7,13,M,,M,,*63
06/11/2014	19:04:46.811	$GPGGA,190456,2525.9122,N,07959.8383,W,1,11,1.5,13,M,,M,,*63
06/11/2014	19:04:47.793	$GPGGA,190457,2525.9122,N,07959.8383,W,1,11,1.5,13,M,,M,,*62
06/11/2014	19:04:48.796	$GPGGA,190458,2525.9120,N,07959.8385,W,1,11,1.5,13,M,,M,,*69
06/11/2014	19:04:49.819	$GPGGA,190459,2525.9119,N,07959.8384,W,1,11,1.5,13,M,,M,,*63
06/11/2014	19:04:50.811	$GPGGA,190500,2525.9117,N,07959.8385,W,1,11,1.5,13,M,,M,,*61
06/11/2014	19:04:51.834	$GPGGA,190501,2525.9116,N,07959.8384,W,1,11,1.5,13,M,,M,,*60
06/11/2014	19:04:52.797	$GPGGA,190502,2525.9115,N,07959.8385,W,1,11,1.5,13,M,,M,,*61
06/11/2014	19:04:53.831	$GPGGA,190503,2525.9113,N,07959.8384,W,1,11,1.5,13,M,,M,,*67
06/11/2014	19:04:54.812	$GPGGA,190504,2525.9111,N,07959.8385,W,1,11,1.5,13,M,,M,,*63
06/11/2014	19:04:55.805	$GPGGA,190505,2525.9110,N,07959.8383,W,1,11,1.7,13,M,,M,,*67
06/11/2014	19:04:56.908	$GPGGA,190506,2525.9109,N,07959.8382,W,1,11,1.5,13,M,,M,,*6F
06/11/2014	19:04:57.800	$GPGGA,190507,2525.9108,N,07959.8382,W,1,11,1.7,13,M,,M,,*6D
06/11/2014	19:04:58.813	$GPGGA,190508,2525.9106,N,07959.8382,W,1,11,1.7,13,M,,M,,*6C
06/11/2014	19:04:59.836	$GPGGA,190509,2525.9107,N,07959.8382,W,1,10,1.5,13,M,,M,,*6F
06/11/2014	19:05:00.899	$GPGGA,190510,2525.9105,N,07959.8382,W,1,10,1.5,13,M,,M,,*65
06/11/2014	19:05:01.811	$GPGGA,190511,2525.9104,N,07959.8381,W,1,11,1.5,13,M,,M,,*67
06/11/2014	19:05:02.833	$GPGGA,190512,2525.9102,N,07959.8382,W,1,11,1.5,13,M,,M,,*61
06/11/2014	19:05:03.825	$GPGGA,190513,2525.9101,N,07959.8381,W,1,11,1.5,13,M,,M,,*60
06/11/2014	19:05:04.818	$GPGGA,190514,2525.9099,N,07959.8380,W,1,11,1.7,13,M,,M,,*64
06/11/2014	19:05:05.821	$GPGGA,190515,2525.9098,N,07959.8379,W,1,10,1.7,14,M,,M,,*64
06/11/2014	19:05:06.824	$GPGGA,190516,2525.9097,N,07959.8378,W,1,10,1.7,14,M,,M,,*69
06/11/2014	19:05:07.896	$GPGGA,190517,2525.9094,N,07959.8377,W,1,10,1.7,14,M,,M,,*64
06/11/2014	19:05:08.809	$GPGGA,190518,2525.9092,N,07959.8376,W,1,10,1.7,14,M,,M,,*6C
06/11/2014	19:05:09.822	$GPGGA,190519,2525.9090,N,07959.8376,W,1,10,1.7,14,M,,M,,*6F
06/11/2014	19:05:10.814	$GPGGA,190520,2525.9088,N,07959.8375,W,1,10,1.7,14,M,,M,,*6F
06/11/2014	19:05:11.827	$GPGGA,190521,2525.9086,N,07959.8374,W,1,10,1.7,14,M,,M,,*61
06/11/2014	19:05:12.890	$GPGGA,190522,2525.9086,N,07959.8374,W,1,10,1.7,14,M,,M,,*62
06/11/2014	19:05:13.933	$GPGGA,190523,2525.9084,N,07959.8373,W,1,11,1.5,14,M,,M,,*65
06/11/2014	19:05:14.835	$GPGGA,190524,2525.9083,N,07959.8374,W,1,11,1.7,14,M,,M,,*60
06/11/2014	19:05:15.818	$GPGGA,190525,2525.9081,N,07959.8372,W,1,10,1.7,14,M,,M,,*64
06/11/2014	19:05:16.901	$GPGGA,190526,2525.9079,N,07959.8371,W,1,10,1.7,14,M,,M,,*63
06/11/2014	19:05:17.903	$GPGGA,190527,2525.9077,N,07959.8370,W,1,10,1.7,13,M,,M,,*6A
06/11/2014	19:05:18.916	$GPGGA,190528,2525.9078,N,07959.8371,W,1,10,1.7,13,M,,M,,*6B
06/11/2014	19:05:19.958	$GPGGA,190529,2525.9075,N,07959.8369,W,1,11,1.5,13,M,,M,,*6D
06/11/2014	19:05:20.910	$GPGGA,190530,2525.9074,N,07959.8368,W,1,11,1.7,13,M,,M,,*67
06/11/2014	19:05:21.913	$GPGGA,190531,2525.9073,N,07959.8368,W,1,10,1.5,13,M,,M,,*62
06/11/2014	19:05:22.926	$GPGGA,190532,2525.9072,N,07959.8367,W,1,10,1.5,13,M,,M,,*6F
06/11/2014	19:05:23.929	$GPGGA,190533,2525.9072,N,07959.8367,W,1,11,1.5,13,M,,M,,*6F
06/11/2014	19:05:24.931	$GPGGA,190534,2525.9070,N,07959.8367,W,1,11,1.5,13,M,,M,,*6A
06/11/2014	19:05:25.934	$GPGGA,190535,2525.9068,N,07959.8366,W,1,11,1.5,13,M,,M,,*63
06/11/2014	19:05:26.937	$GPGGA,190536,2525.9068,N,07959.8367,W,1,11,1.5,13,M,,M,,*61
06/11/2014	19:05:27.929	$GPGGA,190537,2525.9066,N,07959.8365,W,1,11,1.5,13,M,,M,,*6C
06/11/2014	19:05:28.912	$GPGGA,190538,2525.9064,N,07959.8364,W,1,11,1.5,13,M,,M,,*60
06/11/2014	19:05:29.935	$GPGGA,190539,2525.9062,N,07959.8363,W,1,11,1.5,13,M,,M,,*60
06/11/2014	19:05:30.917	$GPGGA,190540,2525.9061,N,07959.8363,W,1,11,1.7,13,M,,M,,*6F
06/11/2014	19:05:31.930	$GPGGA,190541,2525.9063,N,07959.8364,W,1,11,1.5,13,M,,M,,*69
06/11/2014	19:05:32.903	$GPGGA,190542,2525.9061,N,07959.8364,W,1,11,1.5,13,M,,M,,*68
06/11/2014	19:05:33.946	$GPGGA,190543,2525.9061,N,07959.8363,W,1,11,1.5,13,M,,M,,*6E
06/11/2014	19:05:34.931	$GPGGA,190544,2525.9058,N,07959.8363,W,1,11,1.5,14,M,,M,,*64
06/11/2014	19:05:35.741	$GPGGA,190545,2525.9057,N,07959.8363,W,1,11,1.5,14,M,,M,,*6A
06/11/2014	19:05:36.744	$GPGGA,190546,2525.9057,N,07959.8362,W,1,11,1.5,14,M,,M,,*68
06/11/2014	19:05:37.775	$GPGGA,190547,2525.9054,N,07959.8363,W,1,11,1.5,14,M,,M,,*6B
06/11/2014	19:05:38.778	$GPGGA,190548,2525.9053,N,07959.8361,W,1,11,1.5,14,M,,M,,*61
06/11/2014	19:05:39.782	$GPGGA,190549,2525.9052,N,07959.8360,W,1,11,1.5,14,M,,M,,*60
06/11/2014	19:05:40.763	$GPGGA,190550,2525.9051,N,07959.8360,W,1,11,1.5,14,M,,M,,*6B
06/11/2014	19:05:41.767	$GPGGA,190551,2525.9050,N,07959.8359,W,1,11,1.5,14,M,,M,,*61
06/11/2014	19:05:42.760	$GPGGA,190552,2525.9047,N,07959.8360,W,1,11,1.5,14,M,,M,,*6E
06/11/2014	19:05:43.771	$GPGGA,190553,2525.9045,N,07959.8358,W,1,11,1.5,14,M,,M,,*66
06/11/2014	19:05:44.844	$GPGGA,190554,2525.9044,N,07959.8358,W,1,11,1.5,14,M,,M,,*60
06/11/2014	19:05:45.777	$GPGGA,190555,2525.9043,N,07959.8358,W,1,11,1.5,14,M,,M,,*66
06/11/2014	19:05:46.890	$GPGGA,190556,2525.9041,N,07959.8358,W,1,11,1.5,14,M,,M,,*67
06/11/2014	19:05:47.752	$GPGGA,190557,2525.9040,N,07959.8358,W,1,11,1.5,14,M,,M,,*67
06/11/2014	19:05:48.755	$GPGGA,190558,2525.9041,N,07959.8358,W,1,11,1.5,14,M,,M,,*69
06/11/2014	19:05:49.778	$GPGGA,190559,2525.9039,N,07959.8358,W,1,11,1.5,14,M,,M,,*67
06/11/2014	19:05:50.770	$GPGGA,190600,2525.9037,N,07959.8358,W,1,11,1.5,14,M,,M,,*66
06/11/2014	19:05:51.753	$GPGGA,190601,2525.9035,N,07959.8358,W,1,11,1.5,14,M,,M,,*65
06/11/2014	19:05:52.876	$GPGGA,190602,2525.9034,N,07959.8358,W,1,11,1.5,14,M,,M,,*67
06/11/2014	19:05:53.859	$GPGGA,190603,2525.9032,N,07959.8360,W,1,11,1.5,14,M,,M,,*6B
06/11/2014	19:05:54.880	$GPGGA,190604,2525.9032,N,07959.8359,W,1,11,1.5,14,M,,M,,*66
06/11/2014	19:05:55.883	$GPGGA,190605,2525.9032,N,07959.8360,W,1,11,1.5,14,M,,M,,*6D
06/11/2014	19:05:56.765	$GPGGA,190606,2525.9029,N,07959.8360,W,1,11,1.5,14,M,,M,,*64
06/11/2014	19:05:57.858	$GPGGA,190607,2525.9028,N,07959.8360,W,1,11,1.5,14,M,,M,,*64
06/11/2014	19:05:58.781	$GPGGA,190608,2525.9027,N,07959.8361,W,1,11,1.5,14,M,,M,,*65
06/11/2014	19:05:59.864	$GPGGA,190609,2525.9025,N,07959.8361,W,1,11,1.5,14,M,,M,,*66
06/11/2014	19:06:00.766	$GPGGA,190610,2525.9025,N,07959.8363,W,1,11,1.5,14,M,,M,,*6C
06/11/2014	19:06:01.869	$GPGGA,190611,2525.9022,N,07959.8362,W,1,11,1.5,14,M,,M,,*6B
06/11/2014	19:06:02.872	$GPGGA,190612,2525.9021,N,07959.8363,W,1,11,1.5,14,M,,M,,*6A
06/11/2014	19:06:03.860	$GPGGA,190613,2525.9021,N,07959.8363,W,1,11,1.5,14,M,,M,,*6B
06/11/2014	19:06:04.867	$GPGGA,190614,2525.9019,N,07959.8364,W,1,11,1.5,14,M,,M,,*60
06/11/2014	19:06:05.880	$GPGGA,190615,2525.9017,N,07959.8364,W,1,11,1.5,14,M,,M,,*6F
06/11/2014	19:06:06.883	$GPGGA,190616,2525.9016,N,07959.8365,W,1,11,1.5,14,M,,M,,*6C
06/11/2014	19:06:07.885	$GPGGA,190617,2525.9015,N,07959.8367,W,1,11,1.5,14,M,,M,,*6C
06/11/2014	19:06:08.867	$GPGGA,190618,2525.9014,N,07959.8366,W,1,11,1.5,14,M,,M,,*63
06/11/2014	19:06:09.901	$GPGGA,190619,2525.9012,N,07959.8367,W,1,11,1.5,14,M,,M,,*65
06/11/2014	19:06:10.883	$GPGGA,190620,2525.9010,N,07959.8368,W,1,11,1.5,14,M,,M,,*62
06/11/2014	19:06:11.859	$GPGGA,190621,2525.9010,N,07959.8368,W,1,11,1.5,14,M,,M,,*63
06/11/2014	19:06:12.868	$GPGGA,190622,2525.9007,N,07959.8370,W,1,11,1.5,14,M,,M,,*6F
06/11/2014	19:06:13.891	$GPGGA,190623,2525.9007,N,07959.8369,W,1,11,1.5,14,M,,M,,*66
06/11/2014	19:06:14.893	$GPGGA,190624,2525.9005,N,07959.8371,W,1,11,1.5,14,M,,M,,*6A
06/11/2014	19:06:15.867	$GPGGA,190625,2525.9004,N,07959.8371,W,1,11,1.5,14,M,,M,,*6A
06/11/2014	19:06:16.869	$GPGGA,190626,2525.9003,N,07959.8371,W,1,11,1.5,14,M,,M,,*6E
06/11/2014	19:06:17.861	$GPGGA,190627,2525.9001,N,07959.8372,W,1,11,1.5,14,M,,M,,*6E
06/11/2014	19:06:18.887	$GPGGA,190628,2525.9000,N,07959.8374,W,1,11,1.5,14,M,,M,,*66
06/11/2014	19:06:19.867	$GPGGA,190629,2525.8999,N,07959.8373,W,1,11,1.5,14,M,,M,,*68
06/11/2014	19:06:20.869	$GPGGA,190630,2525.8998,N,07959.8374,W,1,11,1.5,14,M,,M,,*66
06/11/2014	19:06:21.882	$GPGGA,190631,2525.8996,N,07959.8374,W,1,11,1.5,14,M,,M,,*69
06/11/2014	19:06:22.875	$GPGGA,190632,2525.8996,N,07959.8375,W,1,11,1.5,14,M,,M,,*6B
06/11/2014	19:06:23.867	$GPGGA,190633,2525.8993,N,07959.8376,W,1,11,1.5,14,M,,M,,*6C
06/11/2014	19:06:24.890	$GPGGA,190634,2525.8994,N,07959.8376,W,1,11,1.5,14,M,,M,,*6C
06/11/2014	19:06:25.923	$GPGGA,190635,2525.8992,N,07959.8378,W,1,11,1.5,14,M,,M,,*65
06/11/2014	19:06:26.886	$GPGGA,190636,2525.8990,N,07959.8378,W,1,11,1.5,14,M,,M,,*64
06/11/2014	19:06:27.868	$GPGGA,190637,2525.8989,N,07959.8378,W,1,11,1.5,14,M,,M,,*6D
06/11/2014	19:06:28.881	$GPGGA,190638,2525.8988,N,07959.8378,W,1,11,1.5,14,M,,M,,*63
06/11/2014	19:06:29.904	$GPGGA,190639,2525.8986,N,07959.8379,W,1,11,1.5,14,M,,M,,*6D
06/11/2014	19:06:30.906	$GPGGA,190640,2525.8985,N,07959.8381,W,1,11,1.5,14,M,,M,,*67
06/11/2014	19:06:31.898	$GPGGA,190641,2525.8985,N,07959.8380,W,1,11,1.5,14,M,,M,,*67
06/11/2014	19:06:32.881	$GPGGA,190642,2525.8982,N,07959.8381,W,1,11,1.5,13,M,,M,,*65
06/11/2014	19:06:33.994	$GPGGA,190643,2525.8981,N,07959.8382,W,1,10,1.7,13,M,,M,,*67
06/11/2014	19:06:35.016	$GPGGA,190644,2525.8979,N,07959.8381,W,1,10,1.5,13,M,,M,,*66
06/11/2014	19:06:35.729	$GPGGA,190645,2525.8978,N,07959.8382,W,1,11,1.5,13,M,,M,,*64
06/11/2014	19:06:36.711	$GPGGA,190646,2525.8975,N,07959.8382,W,1,11,1.7,13,M,,M,,*68
06/11/2014	19:06:37.714	$GPGGA,190647,2525.8974,N,07959.8382,W,1,10,1.7,13,M,,M,,*69
06/11/2014	19:06:38.837	$GPGGA,190648,2525.8974,N,07959.8382,W,1,10,1.5,13,M,,M,,*64
06/11/2014	19:06:39.730	$GPGGA,190649,2525.8974,N,07959.8383,W,1,11,1.5,13,M,,M,,*65
06/11/2014	19:06:40.823	$GPGGA,190650,2525.8974,N,07959.8385,W,1,11,1.5,13,M,,M,,*6B
06/11/2014	19:06:41.835	$GPGGA,190651,2525.8974,N,07959.8384,W,1,11,1.5,13,M,,M,,*6B
06/11/2014	19:06:42.738	$GPGGA,190652,2525.8971,N,07959.8385,W,1,11,1.5,13,M,,M,,*6C
06/11/2014	19:06:43.821	$GPGGA,190653,2525.8970,N,07959.8385,W,1,11,1.5,13,M,,M,,*6C
06/11/2014	19:06:44.733	$GPGGA,190654,2525.8969,N,07959.8385,W,1,11,1.5,13,M,,M,,*63
06/11/2014	19:06:45.846	$GPGGA,190655,2525.8968,N,07959.8386,W,1,11,1.5,13,M,,M,,*60
06/11/2014	19:06:46.839	$GPGGA,190656,2525.8967,N,07959.8385,W,1,11,1.5,13,M,,M,,*6F
06/11/2014	19:06:47.860	$GPGGA,190657,2525.8967,N,07959.8385,W,1,11,1.5,13,M,,M,,*6E
06/11/2014	19:06:48.833	$GPGGA,190658,2525.8964,N,07959.8385,W,1,11,1.7,13,M,,M,,*60
06/11/2014	19:06:49.736	$GPGGA,190659,2525.8962,N,07959.8384,W,1,10,1.7,13,M,,M,,*67
06/11/2014	19:06:50.748	$GPGGA,190700,2525.8960,N,07959.8385,W,1,10,1.7,13,M,,M,,*69
06/11/2014	19:06:51.841	$GPGGA,190701,2525.8960,N,07959.8384,W,1,10,1.7,13,M,,M,,*69
06/11/2014	19:06:52.824	$GPGGA,190702,2525.8957,N,07959.8383,W,1,10,1.7,13,M,,M,,*69
06/11/2014	19:06:53.847	$GPGGA,190703,2525.8956,N,07959.8382,W,1,11,1.5,13,M,,M,,*6B
06/11/2014	19:06:54.849	$GPGGA,190704,2525.8954,N,07959.8382,W,1,11,1.5,13,M,,M,,*6E
06/11/2014	19:06:55.830	$GPGGA,190705,2525.8952,N,07959.8382,W,1,11,1.5,13,M,,M,,*69
06/11/2014	19:06:56.825	$GPGGA,190706,2525.8950,N,07959.8381,W,1,11,1.5,13,M,,M,,*6B
06/11/2014	19:06:57.827	$GPGGA,190707,2525.8949,N,07959.8380,W,1,11,1.5,13,M,,M,,*63
06/11/2014	19:06:58.850	$GPGGA,190708,2525.8947,N,07959.8381,W,1,11,1.7,13,M,,M,,*61
06/11/2014	19:06:59.853	$GPGGA,190709,2525.8945,N,07959.8379,W,1,11,1.5,13,M,,M,,*67
06/11/2014	19:07:02.119	$GPGGA,190711,2525.8945,N,07959.8379,W,1,11,1.5,13,M,,M,,*6E
06/11/2014	19:07:02.845	$GPGGA,190712,2525.8942,N,07959.8378,W,1,11,1.5,13,M,,M,,*6B
06/11/2014	19:07:03.864	$GPGGA,190713,2525.8941,N,07959.8378,W,1,10,1.7,13,M,,M,,*6A
06/11/2014	19:07:04.825	$GPGGA,190714,2525.8939,N,07959.8377,W,1,10,1.5,13,M,,M,,*6F
06/11/2014	19:07:05.838	$GPGGA,190715,2525.8938,N,07959.8376,W,1,10,1.7,13,M,,M,,*6C
06/11/2014	19:07:06.863	$GPGGA,190716,2525.8936,N,07959.8376,W,1,10,1.7,13,M,,M,,*61
06/11/2014	19:07:07.863	$GPGGA,190717,2525.8934,N,07959.8376,W,1,11,1.5,13,M,,M,,*61
06/11/2014	19:07:08.846	$GPGGA,190718,2525.8932,N,07959.8375,W,1,11,1.5,13,M,,M,,*6B
06/11/2014	19:07:09.870	$GPGGA,190719,2525.8931,N,07959.8374,W,1,11,1.5,13,M,,M,,*68
06/11/2014	19:07:10.841	$GPGGA,190720,2525.8929,N,07959.8374,W,1,11,1.7,13,M,,M,,*69
06/11/2014	19:07:11.855	$GPGGA,190721,2525.8927,N,07959.8373,W,1,10,1.7,13,M,,M,,*60
06/11/2014	19:07:12.827	$GPGGA,190722,2525.8929,N,07959.8374,W,1,10,1.5,13,M,,M,,*68
06/11/2014	19:07:13.859	$GPGGA,190723,2525.8927,N,07959.8373,W,1,11,1.5,13,M,,M,,*61
06/11/2014	19:07:14.842	$GPGGA,190724,2525.8924,N,07959.8374,W,1,11,1.7,13,M,,M,,*60
06/11/2014	19:07:15.835	$GPGGA,190725,2525.8922,N,07959.8372,W,1,10,1.7,13,M,,M,,*60
06/11/2014	19:07:16.848	$GPGGA,190726,2525.8923,N,07959.8372,W,1,10,1.7,13,M,,M,,*62
06/11/2014	19:07:17.860	$GPGGA,190727,2525.8920,N,07959.8372,W,1,11,1.5,13,M,,M,,*63
06/11/2014	19:07:18.863	$GPGGA,190728,2525.8920,N,07959.8371,W,1,11,1.5,13,M,,M,,*6F
06/11/2014	19:07:19.846	$GPGGA,190729,2525.8918,N,07959.8371,W,1,11,1.5,13,M,,M,,*65
06/11/2014	19:07:21.009	$GPGGA,190730,2525.8916,N,07959.8370,W,1,11,1.7,13,M,,M,,*60
06/11/2014	19:07:21.851	$GPGGA,190731,2525.8915,N,07959.8369,W,1,10,1.7,13,M,,M,,*6B
06/11/2014	19:07:23.034	$GPGGA,190732,2525.8913,N,07959.8370,W,1,10,1.7,13,M,,M,,*66
06/11/2014	19:07:24.006	$GPGGA,190733,2525.8911,N,07959.8368,W,1,10,1.5,13,M,,M,,*6E
06/11/2014	19:07:24.858	$GPGGA,190734,2525.8909,N,07959.8368,W,1,10,1.5,13,M,,M,,*60
06/11/2014	19:07:25.851	$GPGGA,190735,2525.8909,N,07959.8367,W,1,11,1.5,13,M,,M,,*6F
06/11/2014	19:07:26.964	$GPGGA,190736,2525.8907,N,07959.8367,W,1,11,1.5,13,M,,M,,*62
06/11/2014	19:07:27.976	$GPGGA,190737,2525.8908,N,07959.8367,W,1,11,1.5,13,M,,M,,*6C
06/11/2014	19:07:29.009	$GPGGA,190738,2525.8906,N,07959.8367,W,1,11,1.5,13,M,,M,,*6D
06/11/2014	19:07:29.972	$GPGGA,190739,2525.8905,N,07959.8367,W,1,11,1.5,13,M,,M,,*6F
06/11/2014	19:07:31.031	$GPGGA,190740,2525.8904,N,07959.8366,W,1,11,1.5,13,M,,M,,*61
06/11/2014	19:07:31.977	$GPGGA,190741,2525.8902,N,07959.8365,W,1,11,1.5,13,M,,M,,*65
06/11/2014	19:07:33.010	$GPGGA,190742,2525.8900,N,07959.8365,W,1,11,1.7,13,M,,M,,*66
06/11/2014	19:07:33.963	$GPGGA,190743,2525.8899,N,07959.8364,W,1,10,1.7,13,M,,M,,*66
06/11/2014	19:07:35.050	$GPGGA,190744,2525.8898,N,07959.8364,W,1,10,1.7,13,M,,M,,*60
06/11/2014	19:07:35.847	$GPGGA,190745,2525.8895,N,07959.8364,W,1,10,1.7,13,M,,M,,*6C
06/11/2014	19:07:36.790	$GPGGA,190746,2525.8895,N,07959.8364,W,1,10,1.7,13,M,,M,,*6F
06/11/2014	19:07:37.832	$GPGGA,190747,2525.8895,N,07959.8364,W,1,11,1.5,13,M,,M,,*6D
06/11/2014	19:07:38.855	$GPGGA,190748,2525.8893,N,07959.8365,W,1,11,1.5,13,M,,M,,*65
06/11/2014	19:07:39.827	$GPGGA,190749,2525.8892,N,07959.8365,W,1,11,1.5,13,M,,M,,*65
06/11/2014	19:07:40.840	$GPGGA,190750,2525.8891,N,07959.8365,W,1,11,1.5,13,M,,M,,*6E
06/11/2014	19:07:41.832	$GPGGA,190751,2525.8889,N,07959.8367,W,1,11,1.5,13,M,,M,,*64
06/11/2014	19:07:42.875	$GPGGA,190752,2525.8888,N,07959.8366,W,1,11,1.5,13,M,,M,,*67
06/11/2014	19:07:43.848	$GPGGA,190753,2525.8886,N,07959.8367,W,1,11,1.5,13,M,,M,,*69
06/11/2014	19:07:44.870	$GPGGA,190754,2525.8885,N,07959.8367,W,1,11,1.5,13,M,,M,,*6D
06/11/2014	19:07:45.783	$GPGGA,190755,2525.8884,N,07959.8367,W,1,11,1.5,13,M,,M,,*6D
06/11/2014	19:07:46.866	$GPGGA,190756,2525.8882,N,07959.8368,W,1,11,1.5,13,M,,M,,*67
06/11/2014	19:07:47.788	$GPGGA,190757,2525.8881,N,07959.8368,W,1,11,1.5,13,M,,M,,*65
06/11/2014	19:07:48.861	$GPGGA,190758,2525.8880,N,07959.8370,W,1,11,1.5,13,M,,M,,*62
06/11/2014	19:07:49.844	$GPGGA,190759,2525.8880,N,07959.8369,W,1,11,1.5,13,M,,M,,*6B
06/11/2014	19:07:50.867	$GPGGA,190800,2525.8878,N,07959.8371,W,1,11,1.5,13,M,,M,,*66
06/11/2014	19:07:51.829	$GPGGA,190801,2525.8876,N,07959.8371,W,1,11,1.5,13,M,,M,,*69
06/11/2014	19:07:52.852	$GPGGA,190802,2525.8874,N,07959.8371,W,1,11,1.5,13,M,,M,,*68
06/11/2014	19:07:53.784	$GPGGA,190803,2525.8873,N,07959.8372,W,1,11,1.5,13,M,,M,,*6D
06/11/2014	19:07:54.867	$GPGGA,190804,2525.8873,N,07959.8374,W,1,11,1.5,13,M,,M,,*6C
06/11/2014	19:07:55.790	$GPGGA,190805,2525.8873,N,07959.8374,W,1,11,1.5,13,M,,M,,*6D
06/11/2014	19:07:56.862	$GPGGA,190806,2525.8871,N,07959.8375,W,1,11,1.6,13,M,,M,,*6E
06/11/2014	19:07:57.854	$GPGGA,190807,2525.8870,N,07959.8376,W,1,10,1.6,13,M,,M,,*6C
06/11/2014	19:07:58.877	$GPGGA,190808,2525.8871,N,07959.8378,W,1,10,1.5,13,M,,M,,*6F
06/11/2014	19:07:59.860	$GPGGA,190809,2525.8868,N,07959.8379,W,1,11,1.5,13,M,,M,,*66
06/11/2014	19:08:00.862	$GPGGA,190810,2525.8867,N,07959.8382,W,1,11,1.5,13,M,,M,,*65
06/11/2014	19:08:01.855	$GPGGA,190811,2525.8868,N,07959.8383,W,1,11,1.5,13,M,,M,,*6A
06/11/2014	19:08:02.868	$GPGGA,190812,2525.8866,N,07959.8385,W,1,11,1.5,13,M,,M,,*61
06/11/2014	19:08:03.931	$GPGGA,190813,2525.8866,N,07959.8387,W,1,11,1.5,13,M,,M,,*62
06/11/2014	19:08:04.863	$GPGGA,190814,2525.8866,N,07959.8389,W,1,11,1.5,13,M,,M,,*6B
06/11/2014	19:08:05.906	$GPGGA,190815,2525.8866,N,07959.8392,W,1,11,1.5,13,M,,M,,*60
06/11/2014	19:08:06.879	$GPGGA,190816,2525.8864,N,07959.8393,W,1,11,1.5,13,M,,M,,*60
06/11/2014	19:08:07.841	$GPGGA,190817,2525.8863,N,07959.8396,W,1,11,1.5,13,M,,M,,*63
06/11/2014	19:08:08.874	$GPGGA,190818,2525.8862,N,07959.8397,W,1,11,1.5,13,M,,M,,*6C
06/11/2014	19:08:09.837	$GPGGA,190819,2525.8862,N,07959.8400,W,1,11,1.5,13,M,,M,,*64
06/11/2014	19:08:10.910	$GPGGA,190820,2525.8862,N,07959.8401,W,1,11,1.5,13,M,,M,,*6F
06/11/2014	19:08:11.832	$GPGGA,190821,2525.8860,N,07959.8403,W,1,11,1.5,13,M,,M,,*6E
06/11/2014	19:08:12.905	$GPGGA,190822,2525.8861,N,07959.8407,W,1,11,1.5,13,M,,M,,*68
06/11/2014	19:08:13.858	$GPGGA,190823,2525.8859,N,07959.8408,W,1,11,1.5,13,M,,M,,*6D
06/11/2014	19:08:14.919	$GPGGA,190824,2525.8859,N,07959.8410,W,1,11,1.5,13,M,,M,,*63
06/11/2014	19:08:15.802	$GPGGA,190825,2525.8858,N,07959.8412,W,1,11,1.5,13,M,,M,,*61
06/11/2014	19:08:16.915	$GPGGA,190826,2525.8857,N,07959.8414,W,1,11,1.5,13,M,,M,,*6B
06/11/2014	19:08:17.927	$GPGGA,190827,2525.8858,N,07959.8418,W,1,11,1.5,13,M,,M,,*69
06/11/2014	19:08:18.930	$GPGGA,190828,2525.8856,N,07959.8419,W,1,11,1.5,13,M,,M,,*69
06/11/2014	19:08:19.923	$GPGGA,190829,2525.8855,N,07959.8421,W,1,11,1.5,13,M,,M,,*60
06/11/2014	19:08:20.905	$GPGGA,190830,2525.8855,N,07959.8423,W,1,11,1.5,13,M,,M,,*6A
06/11/2014	19:08:21.938	$GPGGA,190831,2525.8853,N,07959.8426,W,1,11,1.5,13,M,,M,,*68
06/11/2014	19:08:22.941	$GPGGA,190832,2525.8854,N,07959.8428,W,1,11,1.5,13,M,,M,,*62
06/11/2014	19:08:23.934	$GPGGA,190833,2525.8852,N,07959.8430,W,1,11,1.5,13,M,,M,,*6C
06/11/2014	19:08:24.906	$GPGGA,190834,2525.8851,N,07959.8433,W,1,11,1.5,13,M,,M,,*6B
06/11/2014	19:08:25.929	$GPGGA,190835,2525.8850,N,07959.8434,W,1,11,1.5,13,M,,M,,*6C
06/11/2014	19:08:26.932	$GPGGA,190836,2525.8849,N,07959.8437,W,1,11,1.5,13,M,,M,,*64
06/11/2014	19:08:27.934	$GPGGA,190837,2525.8848,N,07959.8439,W,1,11,1.5,13,M,,M,,*6A
06/11/2014	19:08:28.917	$GPGGA,190838,2525.8848,N,07959.8441,W,1,11,1.5,13,M,,M,,*6A
06/11/2014	19:08:29.940	$GPGGA,190839,2525.8845,N,07959.8443,W,1,11,1.5,13,M,,M,,*64
06/11/2014	19:08:30.952	$GPGGA,190840,2525.8845,N,07959.8443,W,1,11,1.5,13,M,,M,,*6A
06/11/2014	19:08:31.944	$GPGGA,190841,2525.8844,N,07959.8447,W,1,11,1.5,13,M,,M,,*6E
06/11/2014	19:08:32.967	$GPGGA,190842,2525.8842,N,07959.8448,W,1,11,1.5,13,M,,M,,*64
06/11/2014	19:08:33.909	$GPGGA,190843,2525.8841,N,07959.8450,W,1,11,1.5,13,M,,M,,*6F
06/11/2014	19:08:34.942	$GPGGA,190844,2525.8842,N,07959.8452,W,1,11,1.5,13,M,,M,,*69
06/11/2014	19:08:35.775	$GPGGA,190845,2525.8839,N,07959.8454,W,1,11,1.5,13,M,,M,,*62
06/11/2014	19:08:36.758	$GPGGA,190846,2525.8839,N,07959.8454,W,1,11,1.5,13,M,,M,,*61
06/11/2014	19:08:37.800	$GPGGA,190847,2525.8837,N,07959.8454,W,1,11,1.5,13,M,,M,,*6E
06/11/2014	19:08:38.833	$GPGGA,190848,2525.8837,N,07959.8457,W,1,11,1.5,13,M,,M,,*62
06/11/2014	19:08:39.796	$GPGGA,190849,2525.8833,N,07959.8459,W,1,11,1.5,13,M,,M,,*69
06/11/2014	19:08:40.778	$GPGGA,190850,2525.8833,N,07959.8459,W,1,11,1.5,13,M,,M,,*61
06/11/2014	19:08:41.771	$GPGGA,190851,2525.8833,N,07959.8461,W,1,11,1.5,13,M,,M,,*6B
06/11/2014	19:08:42.814	$GPGGA,190852,2525.8831,N,07959.8462,W,1,11,1.5,13,M,,M,,*69
06/11/2014	19:08:43.877	$GPGGA,190853,2525.8830,N,07959.8465,W,1,11,1.5,13,M,,M,,*6E
06/11/2014	19:08:44.789	$GPGGA,190854,2525.8829,N,07959.8464,W,1,11,1.5,13,M,,M,,*60
06/11/2014	19:08:45.772	$GPGGA,190855,2525.8827,N,07959.8465,W,1,11,1.5,13,M,,M,,*6E
06/11/2014	19:08:46.805	$GPGGA,190856,2525.8826,N,07959.8466,W,1,11,1.5,13,M,,M,,*6F
06/11/2014	19:08:47.777	$GPGGA,190857,2525.8826,N,07959.8468,W,1,11,1.5,13,M,,M,,*60
06/11/2014	19:08:48.820	$GPGGA,190858,2525.8823,N,07959.8467,W,1,11,1.5,13,M,,M,,*65
06/11/2014	19:08:49.908	$GPGGA,190859,2525.8824,N,07959.8468,W,1,11,1.5,13,M,,M,,*6C
06/11/2014	19:08:50.811	$GPGGA,190900,2525.8824,N,07959.8468,W,1,11,1.5,13,M,,M,,*61
06/11/2014	19:08:51.877	$GPGGA,190901,2525.8821,N,07959.8470,W,1,11,1.5,13,M,,M,,*6C
06/11/2014	19:08:52.770	$GPGGA,190902,2525.8821,N,07959.8470,W,1,11,1.5,13,M,,M,,*6F
06/11/2014	19:08:53.893	$GPGGA,190903,2525.8819,N,07959.8472,W,1,11,1.5,13,M,,M,,*67
06/11/2014	19:08:54.795	$GPGGA,190904,2525.8819,N,07959.8472,W,1,11,1.5,13,M,,M,,*60
06/11/2014	19:08:55.878	$GPGGA,190905,2525.8816,N,07959.8473,W,1,11,1.5,13,M,,M,,*6F
06/11/2014	19:08:56.780	$GPGGA,190906,2525.8816,N,07959.8473,W,1,11,1.5,13,M,,M,,*6C
06/11/2014	19:08:57.863	$GPGGA,190907,2525.8813,N,07959.8474,W,1,11,1.5,13,M,,M,,*6F
06/11/2014	19:08:58.886	$GPGGA,190908,2525.8811,N,07959.8475,W,1,11,1.5,13,M,,M,,*63
06/11/2014	19:08:59.879	$GPGGA,190909,2525.8810,N,07959.8476,W,1,11,1.5,13,M,,M,,*60
06/11/2014	19:09:00.871	$GPGGA,190910,2525.8809,N,07959.8476,W,1,11,1.5,13,M,,M,,*60
06/11/2014	19:09:01.864	$GPGGA,190911,2525.8808,N,07959.8477,W,1,11,1.5,13,M,,M,,*61
06/11/2014	19:09:02.877	$GPGGA,190912,2525.8808,N,07959.8477,W,1,11,1.5,13,M,,M,,*62
06/11/2014	19:09:03.880	$GPGGA,190913,2525.8806,N,07959.8479,W,1,11,1.5,13,M,,M,,*63
06/11/2014	19:09:04.872	$GPGGA,190914,2525.8804,N,07959.8478,W,1,11,1.5,13,M,,M,,*67
06/11/2014	19:09:05.875	$GPGGA,190915,2525.8803,N,07959.8479,W,1,11,1.5,13,M,,M,,*60
06/11/2014	19:09:06.887	$GPGGA,190916,2525.8802,N,07959.8479,W,1,11,1.5,13,M,,M,,*62
06/11/2014	19:09:07.900	$GPGGA,190917,2525.8801,N,07959.8480,W,1,11,1.5,13,M,,M,,*66
06/11/2014	19:09:08.882	$GPGGA,190918,2525.8799,N,07959.8480,W,1,11,1.5,13,M,,M,,*67
06/11/2014	19:09:09.895	$GPGGA,190919,2525.8798,N,07959.8480,W,1,11,1.5,13,M,,M,,*67
06/11/2014	19:09:10.887	$GPGGA,190920,2525.8797,N,07959.8482,W,1,11,1.5,13,M,,M,,*60
06/11/2014	19:09:11.890	$GPGGA,190921,2525.8797,N,07959.8481,W,1,11,1.5,13,M,,M,,*62
06/11/2014	19:09:12.873	$GPGGA,190922,2525.8795,N,07959.8483,W,1,11,1.5,13,M,,M,,*61
06/11/2014	19:09:13.896	$GPGGA,190923,2525.8793,N,07959.8482,W,1,11,1.5,13,M,,M,,*67
06/11/2014	19:09:14.898	$GPGGA,190924,2525.8792,N,07959.8483,W,1,11,1.5,13,M,,M,,*60
06/11/2014	19:09:15.911	$GPGGA,190925,2525.8791,N,07959.8484,W,1,11,1.5,13,M,,M,,*65
06/11/2014	19:09:16.884	$GPGGA,190926,2525.8790,N,07959.8484,W,1,11,1.5,13,M,,M,,*67
06/11/2014	19:09:17.916	$GPGGA,190927,2525.8788,N,07959.8486,W,1,11,1.5,13,M,,M,,*6D
06/11/2014	19:09:18.889	$GPGGA,190928,2525.8786,N,07959.8485,W,1,11,1.5,13,M,,M,,*6F
06/11/2014	19:09:19.902	$GPGGA,190929,2525.8786,N,07959.8486,W,1,11,1.5,13,M,,M,,*6D
06/11/2014	19:09:20.886	$GPGGA,190930,2525.8784,N,07959.8487,W,1,11,1.5,13,M,,M,,*66
06/11/2014	19:09:21.907	$GPGGA,190931,2525.8783,N,07959.8487,W,1,11,1.5,13,M,,M,,*60
06/11/2014	19:09:22.900	$GPGGA,190932,2525.8781,N,07959.8490,W,1,11,1.5,13,M,,M,,*67
06/11/2014	19:09:23.883	$GPGGA,190933,2525.8780,N,07959.8490,W,1,11,1.5,13,M,,M,,*67
06/11/2014	19:09:24.884	$GPGGA,190934,2525.8779,N,07959.8490,W,1,11,1.5,13,M,,M,,*66
06/11/2014	19:09:25.903	$GPGGA,190935,2525.8777,N,07959.8491,W,1,11,1.5,13,M,,M,,*68
06/11/2014	19:09:26.900	$GPGGA,190936,2525.8776,N,07959.8493,W,1,11,1.5,13,M,,M,,*68
06/11/2014	19:09:27.922	$GPGGA,190937,2525.8774,N,07959.8493,W,1,11,1.5,13,M,,M,,*6B
06/11/2014	19:09:28.885	$GPGGA,190938,2525.8773,N,07959.8494,W,1,11,1.5,13,M,,M,,*64
06/11/2014	19:09:29.918	$GPGGA,190939,2525.8772,N,07959.8495,W,1,11,1.5,13,M,,M,,*65
06/11/2014	19:09:30.910	$GPGGA,190940,2525.8772,N,07959.8497,W,1,11,1.5,13,M,,M,,*69
06/11/2014	19:09:32.003	$GPGGA,190941,2525.8769,N,07959.8497,W,1,11,1.5,13,M,,M,,*62
06/11/2014	19:09:32.876	$GPGGA,190942,2525.8768,N,07959.8498,W,1,11,1.5,13,M,,M,,*6F
06/11/2014	19:09:33.888	$GPGGA,190943,2525.8768,N,07959.8499,W,1,11,1.5,13,M,,M,,*6F
06/11/2014	19:09:35.025	$GPGGA,190944,2525.8766,N,07959.8501,W,1,11,1.5,13,M,,M,,*66
06/11/2014	19:09:35.744	$GPGGA,190945,2525.8765,N,07959.8502,W,1,11,1.5,13,M,,M,,*67
06/11/2014	19:09:36.726	$GPGGA,190946,2525.8763,N,07959.8504,W,1,11,1.5,13,M,,M,,*64
06/11/2014	19:09:37.829	$GPGGA,190947,2525.8762,N,07959.8505,W,1,11,1.5,13,M,,M,,*65
06/11/2014	19:09:38.752	$GPGGA,190948,2525.8761,N,07959.8506,W,1,11,1.5,13,M,,M,,*6A
06/11/2014	19:09:39.835	$GPGGA,190949,2525.8761,N,07959.8508,W,1,11,1.5,13,M,,M,,*65
06/11/2014	19:09:40.747	$GPGGA,190950,2525.8759,N,07959.8509,W,1,11,1.5,13,M,,M,,*67
06/11/2014	19:09:41.729	$GPGGA,190951,2525.8757,N,07959.8512,W,1,11,1.5,13,M,,M,,*62
06/11/2014	19:09:42.842	$GPGGA,190952,2525.8757,N,07959.8513,W,1,11,1.6,13,M,,M,,*63
06/11/2014	19:09:43.865	$GPGGA,190953,2525.8757,N,07959.8515,W,1,11,1.5,13,M,,M,,*67
06/11/2014	19:09:44.737	$GPGGA,190954,2525.8756,N,07959.8519,W,1,11,1.5,13,M,,M,,*6D
06/11/2014	19:09:45.830	$GPGGA,190955,2525.8755,N,07959.8519,W,1,11,1.5,12,M,,M,,*6E
06/11/2014	19:09:46.863	$GPGGA,190956,2525.8756,N,07959.8522,W,1,11,1.5,12,M,,M,,*66
06/11/2014	19:09:47.835	$GPGGA,190957,2525.8754,N,07959.8524,W,1,11,1.5,12,M,,M,,*63
06/11/2014	19:09:48.868	$GPGGA,190958,2525.8754,N,07959.8526,W,1,11,1.5,12,M,,M,,*6E
06/11/2014	19:09:49.871	$GPGGA,190959,2525.8754,N,07959.8529,W,1,11,1.5,12,M,,M,,*60
06/11/2014	19:09:50.854	$GPGGA,191000,2525.8752,N,07959.8530,W,1,11,1.5,12,M,,M,,*6A
06/11/2014	19:09:51.856	$GPGGA,191001,2525.8751,N,07959.8533,W,1,11,1.5,12,M,,M,,*6B
06/11/2014	19:09:52.829	$GPGGA,191002,2525.8750,N,07959.8534,W,1,11,1.5,12,M,,M,,*6E
06/11/2014	19:09:53.842	$GPGGA,191003,2525.8750,N,07959.8537,W,1,11,1.5,12,M,,M,,*6C
06/11/2014	19:09:54.854	$GPGGA,191004,2525.8748,N,07959.8538,W,1,11,1.5,12,M,,M,,*6D
06/11/2014	19:09:55.847	$GPGGA,191005,2525.8747,N,07959.8540,W,1,11,1.5,12,M,,M,,*6C
06/11/2014	19:09:56.839	$GPGGA,191006,2525.8746,N,07959.8541,W,1,11,1.5,12,M,,M,,*6F
06/11/2014	19:09:57.842	$GPGGA,191007,2525.8745,N,07959.8544,W,1,11,1.5,12,M,,M,,*68
06/11/2014	19:09:58.855	$GPGGA,191008,2525.8743,N,07959.8545,W,1,11,1.5,12,M,,M,,*60
06/11/2014	19:09:59.867	$GPGGA,191009,2525.8743,N,07959.8548,W,1,11,1.5,12,M,,M,,*6C
06/11/2014	19:10:00.834	$GPGGA,191010,2525.8740,N,07959.8549,W,1,11,1.5,12,M,,M,,*66
06/11/2014	19:10:01.861	$GPGGA,191011,2525.8741,N,07959.8551,W,1,11,1.5,12,M,,M,,*6F
06/11/2014	19:10:02.854	$GPGGA,191012,2525.8739,N,07959.8553,W,1,11,1.5,12,M,,M,,*61
06/11/2014	19:10:03.847	$GPGGA,191013,2525.8738,N,07959.8555,W,1,11,1.5,12,M,,M,,*67
06/11/2014	19:10:04.829	$GPGGA,191014,2525.8737,N,07959.8558,W,1,11,1.5,12,M,,M,,*62
06/11/2014	19:10:05.862	$GPGGA,191015,2525.8736,N,07959.8559,W,1,11,1.5,12,M,,M,,*63
06/11/2014	19:10:06.864	$GPGGA,191016,2525.8734,N,07959.8562,W,1,11,1.5,12,M,,M,,*6A
06/11/2014	19:10:07.857	$GPGGA,191017,2525.8733,N,07959.8563,W,1,11,1.5,12,M,,M,,*6D
06/11/2014	19:10:08.860	$GPGGA,191018,2525.8732,N,07959.8566,W,1,11,1.5,12,M,,M,,*66
06/11/2014	19:10:09.832	$GPGGA,191019,2525.8732,N,07959.8567,W,1,11,1.5,12,M,,M,,*66
06/11/2014	19:10:10.865	$GPGGA,191020,2525.8730,N,07959.8569,W,1,11,1.5,12,M,,M,,*60
06/11/2014	19:10:11.887	$GPGGA,191021,2525.8729,N,07959.8571,W,1,11,1.5,12,M,,M,,*60
06/11/2014	19:10:12.850	$GPGGA,191022,2525.8728,N,07959.8573,W,1,11,1.5,12,M,,M,,*60
06/11/2014	19:10:13.873	$GPGGA,191023,2525.8727,N,07959.8576,W,1,11,1.5,12,M,,M,,*6B
06/11/2014	19:10:14.855	$GPGGA,191024,2525.8725,N,07959.8577,W,1,11,1.5,12,M,,M,,*6F
06/11/2014	19:10:15.878	$GPGGA,191025,2525.8725,N,07959.8578,W,1,11,1.5,12,M,,M,,*61
06/11/2014	19:10:16.849	$GPGGA,191026,2525.8723,N,07959.8580,W,1,11,1.5,12,M,,M,,*63
06/11/2014	19:10:17.862	$GPGGA,191027,2525.8722,N,07959.8582,W,1,11,1.5,12,M,,M,,*61
06/11/2014	19:10:18.975	$GPGGA,191028,2525.8721,N,07959.8584,W,1,11,1.5,12,M,,M,,*6B
06/11/2014	19:10:19.997	$GPGGA,191029,2525.8721,N,07959.8585,W,1,11,1.5,12,M,,M,,*6B
06/11/2014	19:10:20.860	$GPGGA,191030,2525.8718,N,07959.8587,W,1,11,1.5,12,M,,M,,*6B
06/11/2014	19:10:21.852	$GPGGA,191031,2525.8718,N,07959.8589,W,1,11,1.5,12,M,,M,,*64
06/11/2014	19:10:22.855	$GPGGA,191032,2525.8716,N,07959.8591,W,1,11,1.5,12,M,,M,,*60
06/11/2014	19:10:23.847	$GPGGA,191033,2525.8715,N,07959.8594,W,1,11,1.5,12,M,,M,,*67
06/11/2014	19:10:24.960	$GPGGA,191034,2525.8714,N,07959.8595,W,1,11,1.5,12,M,,M,,*60
06/11/2014	19:10:25.983	$GPGGA,191035,2525.8714,N,07959.8596,W,1,11,1.6,12,M,,M,,*61
06/11/2014	19:10:26.875	$GPGGA,191036,2525.8712,N,07959.8598,W,1,11,1.6,12,M,,M,,*6A
06/11/2014	19:10:27.958	$GPGGA,191037,2525.8713,N,07959.8600,W,1,11,1.6,12,M,,M,,*68
06/11/2014	19:10:28.850	$GPGGA,191038,2525.8710,N,07959.8602,W,1,11,1.6,12,M,,M,,*66
06/11/2014	19:10:29.853	$GPGGA,191039,2525.8709,N,07959.8603,W,1,11,1.6,12,M,,M,,*6E
06/11/2014	19:10:30.966	$GPGGA,191040,2525.8707,N,07959.8605,W,1,11,1.6,12,M,,M,,*68
06/11/2014	19:10:31.858	$GPGGA,191041,2525.8707,N,07959.8606,W,1,10,1.6,12,M,,M,,*6B
06/11/2014	19:10:32.951	$GPGGA,191042,2525.8705,N,07959.8607,W,1,10,1.6,12,M,,M,,*6B
06/11/2014	19:10:33.964	$GPGGA,191043,2525.8704,N,07959.8609,W,1,11,1.6,12,M,,M,,*64
06/11/2014	19:10:34.965	$GPGGA,191044,2525.8703,N,07959.8610,W,1,11,1.6,12,M,,M,,*6C
06/11/2014	19:10:35.811	$GPGGA,191045,2525.8701,N,07959.8611,W,1,11,1.6,12,M,,M,,*6E
06/11/2014	19:10:36.794	$GPGGA,191046,2525.8700,N,07959.8613,W,1,11,1.6,12,M,,M,,*6E
06/11/2014	19:10:37.796	$GPGGA,191047,2525.8698,N,07959.8614,W,1,11,1.6,12,M,,M,,*68
06/11/2014	19:10:38.809	$GPGGA,191048,2525.8697,N,07959.8616,W,1,11,1.6,12,M,,M,,*6A
06/11/2014	19:10:39.821	$GPGGA,191049,2525.8696,N,07959.8617,W,1,11,1.6,12,M,,M,,*6B
06/11/2014	19:10:40.794	$GPGGA,191050,2525.8694,N,07959.8618,W,1,11,1.6,12,M,,M,,*6E
06/11/2014	19:10:41.807	$GPGGA,191051,2525.8693,N,07959.8620,W,1,11,1.6,12,M,,M,,*63
06/11/2014	19:10:42.809	$GPGGA,191052,2525.8692,N,07959.8621,W,1,11,1.6,12,M,,M,,*60
06/11/2014	19:10:43.812	$GPGGA,191053,2525.8691,N,07959.8624,W,1,11,1.6,12,M,,M,,*67
06/11/2014	19:10:44.804	$GPGGA,191054,2525.8690,N,07959.8624,W,1,11,1.6,12,M,,M,,*61
06/11/2014	19:10:45.817	$GPGGA,191055,2525.8689,N,07959.8627,W,1,11,1.6,12,M,,M,,*6B
06/11/2014	19:10:46.820	$GPGGA,191056,2525.8687,N,07959.8627,W,1,11,1.6,12,M,,M,,*66
06/11/2014	19:10:47.796	$GPGGA,191057,2525.8686,N,07959.8628,W,1,11,1.6,12,M,,M,,*69
06/11/2014	19:10:48.805	$GPGGA,191058,2525.8685,N,07959.8631,W,1,11,1.6,12,M,,M,,*6D
06/11/2014	19:10:49.827	$GPGGA,191059,2525.8685,N,07959.8631,W,1,11,1.6,12,M,,M,,*6C
06/11/2014	19:10:50.840	$GPGGA,191100,2525.8683,N,07959.8632,W,1,11,1.6,12,M,,M,,*64
06/11/2014	19:10:51.832	$GPGGA,191101,2525.8682,N,07959.8634,W,1,11,1.6,12,M,,M,,*62
06/11/2014	19:10:52.804	$GPGGA,191102,2525.8680,N,07959.8635,W,1,11,1.6,12,M,,M,,*62
06/11/2014	19:10:53.817	$GPGGA,191103,2525.8679,N,07959.8635,W,1,11,1.6,12,M,,M,,*65
06/11/2014	19:10:54.819	$GPGGA,191104,2525.8678,N,07959.8638,W,1,11,1.6,12,M,,M,,*6E
06/11/2014	19:10:55.820	$GPGGA,191105,2525.8678,N,07959.8638,W,1,11,1.6,12,M,,M,,*6F
06/11/2014	19:10:56.820	$GPGGA,191106,2525.8675,N,07959.8638,W,1,11,1.6,12,M,,M,,*61
06/11/2014	19:10:57.797	$GPGGA,191107,2525.8674,N,07959.8639,W,1,11,1.6,12,M,,M,,*60
06/11/2014	19:10:58.831	$GPGGA,191108,2525.8674,N,07959.8641,W,1,11,1.6,12,M,,M,,*60
06/11/2014	19:10:59.792	$GPGGA,191109,2525.8671,N,07959.8642,W,1,11,1.6,12,M,,M,,*67
06/11/2014	19:11:00.819	$GPGGA,191110,2525.8671,N,07959.8642,W,1,11,1.6,12,M,,M,,*6F
06/11/2014	19:11:01.807	$GPGGA,191111,2525.8668,N,07959.8643,W,1,11,1.6,12,M,,M,,*67
06/11/2014	19:11:02.940	$GPGGA,191112,2525.8667,N,07959.8645,W,1,11,1.6,12,M,,M,,*6D
06/11/2014	19:11:03.845	$GPGGA,191113,2525.8667,N,07959.8645,W,1,11,1.6,12,M,,M,,*6C
06/11/2014	19:11:04.925	$GPGGA,191114,2525.8665,N,07959.8645,W,1,11,1.6,12,M,,M,,*69
06/11/2014	19:11:05.938	$GPGGA,191115,2525.8664,N,07959.8646,W,1,11,1.6,12,M,,M,,*6A
06/11/2014	19:11:06.820	$GPGGA,191116,2525.8663,N,07959.8647,W,1,11,1.6,12,M,,M,,*6F
06/11/2014	19:11:07.803	$GPGGA,191117,2525.8661,N,07959.8649,W,1,11,1.6,12,M,,M,,*62
06/11/2014	19:11:08.896	$GPGGA,191118,2525.8660,N,07959.8649,W,1,11,1.6,12,M,,M,,*6C
06/11/2014	19:11:09.948	$GPGGA,191119,2525.8658,N,07959.8650,W,1,11,1.6,12,M,,M,,*6E
06/11/2014	19:11:10.820	$GPGGA,191120,2525.8656,N,07959.8650,W,1,11,1.6,12,M,,M,,*6A
06/11/2014	19:11:11.903	$GPGGA,191121,2525.8656,N,07959.8652,W,1,11,1.6,12,M,,M,,*69
06/11/2014	19:11:12.805	$GPGGA,191122,2525.8653,N,07959.8653,W,1,11,1.6,12,M,,M,,*6E
06/11/2014	19:11:13.928	$GPGGA,191123,2525.8652,N,07959.8653,W,1,11,1.6,12,M,,M,,*6E
06/11/2014	19:11:14.940	$GPGGA,191124,2525.8651,N,07959.8654,W,1,11,1.6,12,M,,M,,*6D
06/11/2014	19:11:15.913	$GPGGA,191125,2525.8650,N,07959.8656,W,1,11,1.6,12,M,,M,,*6F
06/11/2014	19:11:16.916	$GPGGA,191126,2525.8649,N,07959.8656,W,1,11,1.6,12,M,,M,,*64
06/11/2014	19:11:17.818	$GPGGA,191127,2525.8647,N,07959.8657,W,1,11,1.6,12,M,,M,,*6A
06/11/2014	19:11:18.931	$GPGGA,191128,2525.8645,N,07959.8658,W,1,11,1.6,12,M,,M,,*68
06/11/2014	19:11:19.913	$GPGGA,191129,2525.8644,N,07959.8660,W,1,11,1.6,12,M,,M,,*63
06/11/2014	19:11:20.916	$GPGGA,191130,2525.8642,N,07959.8660,W,1,11,1.6,12,M,,M,,*6D
06/11/2014	19:11:21.939	$GPGGA,191131,2525.8642,N,07959.8661,W,1,11,1.6,12,M,,M,,*6D
06/11/2014	19:11:22.931	$GPGGA,191132,2525.8640,N,07959.8663,W,1,11,1.6,12,M,,M,,*6E
06/11/2014	19:11:23.914	$GPGGA,191133,2525.8638,N,07959.8663,W,1,11,1.6,12,M,,M,,*60
06/11/2014	19:11:24.916	$GPGGA,191134,2525.8638,N,07959.8664,W,1,11,1.6,12,M,,M,,*60
06/11/2014	19:11:25.819	$GPGGA,191135,2525.8636,N,07959.8665,W,1,11,1.6,12,M,,M,,*6E
06/11/2014	19:11:26.931	$GPGGA,191136,2525.8635,N,07959.8667,W,1,11,1.7,12,M,,M,,*6D
06/11/2014	19:11:27.933	$GPGGA,191137,2525.8633,N,07959.8668,W,1,11,1.6,12,M,,M,,*64
06/11/2014	19:11:28.916	$GPGGA,191138,2525.8632,N,07959.8670,W,1,11,1.6,12,M,,M,,*63
06/11/2014	19:11:29.948	$GPGGA,191139,2525.8631,N,07959.8671,W,1,11,1.6,12,M,,M,,*60
06/11/2014	19:11:30.941	$GPGGA,191140,2525.8629,N,07959.8671,W,1,11,1.6,12,M,,M,,*67
06/11/2014	19:11:31.934	$GPGGA,191141,2525.8628,N,07959.8672,W,1,11,1.6,12,M,,M,,*64
06/11/2014	19:11:32.917	$GPGGA,191142,2525.8627,N,07959.8674,W,1,11,1.6,12,M,,M,,*6E
06/11/2014	19:11:33.909	$GPGGA,191143,2525.8627,N,07959.8676,W,1,11,1.6,12,M,,M,,*6D
06/11/2014	19:11:34.931	$GPGGA,191144,2525.8626,N,07959.8678,W,1,11,1.6,12,M,,M,,*65
06/11/2014	19:11:35.790	$GPGGA,191145,2525.8627,N,07959.8679,W,1,11,1.6,12,M,,M,,*64
06/11/2014	19:11:36.772	$GPGGA,191146,2525.8625,N,07959.8681,W,1,11,1.6,12,M,,M,,*62
06/11/2014	19:11:37.805	$GPGGA,191147,2525.8624,N,07959.8682,W,1,11,1.6,12,M,,M,,*61
06/11/2014	19:11:38.788	$GPGGA,191148,2525.8624,N,07959.8685,W,1,11,1.6,12,M,,M,,*69
06/11/2014	19:11:39.810	$GPGGA,191149,2525.8622,N,07959.8688,W,1,11,1.6,12,M,,M,,*63
06/11/2014	19:11:40.763	$GPGGA,191150,2525.8620,N,07959.8689,W,1,11,1.6,12,M,,M,,*68
06/11/2014	19:11:41.775	$GPGGA,191151,2525.8620,N,07959.8690,W,1,11,1.6,12,M,,M,,*61
