Software Version Number: 1	Data File Format Number: 1	Build Version Number: 1	Error Count Since VI Started: 0	Manufacturer: Raytheon	 Model Number: RayMarine 120	 S/N: 	 Cal Date: 	 Wind Direction Offset: 0.00	 Slope (M)1: 0.00	 Offset (B)1: 0.00	 Slope (M)2: 0.00	 Offset (B)2: 0.00	 Slope (M)3: 0.00	 Offset (B)3: 0.00	 Slope (M)4: 0.00	 Offset (B)4: 0.00	 Slope (M)5: 0.00	 Offset (B)5: 0.00	 Slope (M)6: 0.00	 Offset (B)6: 0.00
Computer Date	Computer Time	GGA String
06/01/2014	01:00:00.682	$GPGGA,010001,2512.3829,N,07915.9816,W,1,7,2.0,14,M,,M,,*58
06/01/2014	01:00:01.664	$GPGGA,010002,2512.3806,N,07915.9819,W,1,7,2.0,14,M,,M,,*59
06/01/2014	01:00:02.686	$GPGGA,010003,2512.3782,N,07915.9821,W,1,8,1.7,14,M,,M,,*5B
06/01/2014	01:00:03.678	$GPGGA,010004,2512.3759,N,07915.9823,W,1,8,1.7,14,M,,M,,*58
06/01/2014	01:00:04.650	$GPGGA,010005,2512.3735,N,07915.9823,W,1,8,1.7,14,M,,M,,*53
06/01/2014	01:00:05.663	$GPGGA,010006,2512.3712,N,07915.9826,W,1,8,1.7,14,M,,M,,*50
06/01/2014	01:00:06.685	$GPGGA,010007,2512.3691,N,07915.9830,W,1,7,2.0,14,M,,M,,*57
06/01/2014	01:00:07.677	$GPGGA,010008,2512.3667,N,07915.9828,W,1,7,1.7,14,M,,M,,*5C
06/01/2014	01:00:08.689	$GPGGA,010009,2512.3644,N,07915.9830,W,1,7,2.0,14,M,,M,,*51
06/01/2014	01:00:09.662	$GPGGA,010010,2512.3622,N,07915.9834,W,1,7,1.7,14,M,,M,,*59
06/01/2014	01:00:10.684	$GPGGA,010011,2512.3600,N,07915.9837,W,1,8,1.7,14,M,,M,,*54
06/01/2014	01:00:11.676	$GPGGA,010012,2512.3577,N,07915.9837,W,1,8,1.7,14,M,,M,,*54
06/01/2014	01:00:12.657	$GPGGA,010013,2512.3553,N,07915.9841,W,1,8,1.7,14,M,,M,,*52
06/01/2014	01:00:13.699	$GPGGA,010014,2512.3531,N,07915.9844,W,1,8,1.7,14,M,,M,,*54
06/01/2014	01:00:14.691	$GPGGA,010015,2512.3508,N,07915.9845,W,1,8,1.7,14,M,,M,,*5E
06/01/2014	01:00:15.674	$GPGGA,010016,2512.3485,N,07915.9846,W,1,8,1.7,14,M,,M,,*5A
06/01/2014	01:00:16.666	$GPGGA,010017,2512.3461,N,07915.9848,W,1,8,1.7,14,M,,M,,*5F
06/01/2014	01:00:17.658	$GPGGA,010018,2512.3438,N,07915.9850,W,1,8,1.7,14,M,,M,,*55
06/01/2014	01:00:18.720	$GPGGA,010019,2512.3416,N,07915.9852,W,1,8,1.7,14,M,,M,,*5A
06/01/2014	01:00:19.682	$GPGGA,010020,2512.3391,N,07915.9853,W,1,8,1.7,14,M,,M,,*59
06/01/2014	01:00:20.706	$GPGGA,010021,2512.3369,N,07915.9855,W,1,8,1.7,14,M,,M,,*59
06/01/2014	01:00:21.667	$GPGGA,010022,2512.3344,N,07915.9855,W,1,8,1.7,14,M,,M,,*55
06/01/2014	01:00:22.679	$GPGGA,010023,2512.3322,N,07915.9857,W,1,8,1.7,14,M,,M,,*56
06/01/2014	01:00:23.681	$GPGGA,010024,2512.3298,N,07915.9859,W,1,8,1.7,14,M,,M,,*5F
06/01/2014	01:00:24.693	$GPGGA,010025,2512.3275,N,07915.9859,W,1,8,1.7,14,M,,M,,*5D
06/01/2014	01:00:25.776	$GPGGA,010026,2512.3251,N,07915.9860,W,1,8,1.7,14,M,,M,,*52
06/01/2014	01:00:26.658	$GPGGA,010027,2512.3228,N,07915.9861,W,1,8,1.7,14,M,,M,,*5C
06/01/2014	01:00:27.540	$GPGGA,010028,2512.3204,N,07915.9861,W,1,8,1.7,14,M,,M,,*5D
06/01/2014	01:00:28.662	$GPGGA,010029,2512.3181,N,07915.9861,W,1,8,1.7,14,M,,M,,*52
06/01/2014	01:00:29.523	$GPGGA,010030,2512.3156,N,07915.9863,W,1,8,1.7,14,M,,M,,*52
06/01/2014	01:00:30.556	$GPGGA,010031,2512.3134,N,07915.9862,W,1,8,1.7,14,M,,M,,*56
06/01/2014	01:00:31.548	$GPGGA,010032,2512.3109,N,07915.9861,W,1,8,1.7,14,M,,M,,*58
06/01/2014	01:00:32.530	$GPGGA,010033,2512.3085,N,07915.9861,W,1,8,1.7,14,M,,M,,*5C
06/01/2014	01:00:33.632	$GPGGA,010034,2512.3062,N,07915.9861,W,1,8,1.7,14,M,,M,,*52
06/01/2014	01:00:34.655	$GPGGA,010035,2512.3038,N,07915.9859,W,1,8,1.7,14,M,,M,,*57
06/01/2014	01:00:35.647	$GPGGA,010036,2512.3015,N,07915.9860,W,1,8,1.7,14,M,,M,,*51
06/01/2014	01:00:36.549	$GPGGA,010037,2512.2991,N,07915.9858,W,1,8,1.7,14,M,,M,,*5F
06/01/2014	01:00:37.541	$GPGGA,010038,2512.2968,N,07915.9859,W,1,8,1.7,14,M,,M,,*57
06/01/2014	01:00:38.643	$GPGGA,010039,2512.2944,N,07915.9859,W,1,8,1.7,14,M,,M,,*58
06/01/2014	01:00:39.555	$GPGGA,010040,2512.2921,N,07915.9857,W,1,8,1.7,14,M,,M,,*5B
06/01/2014	01:00:40.547	$GPGGA,010041,2512.2896,N,07915.9856,W,1,8,1.7,14,M,,M,,*56
06/01/2014	01:00:41.640	$GPGGA,010042,2512.2874,N,07915.9857,W,1,8,2.0,14,M,,M,,*5C
06/01/2014	01:00:42.532	$GPGGA,010043,2512.2851,N,07915.9857,W,1,8,1.7,14,M,,M,,*5E
06/01/2014	01:00:43.644	$GPGGA,010044,2512.2829,N,07915.9856,W,1,8,1.7,14,M,,M,,*57
06/01/2014	01:00:44.656	$GPGGA,010045,2512.2806,N,07915.9857,W,1,8,1.7,14,M,,M,,*5A
06/01/2014	01:00:45.640	$GPGGA,010046,2512.2784,N,07915.9859,W,1,8,1.7,14,M,,M,,*52
06/01/2014	01:00:46.644	$GPGGA,010047,2512.2759,N,07915.9856,W,1,8,1.7,14,M,,M,,*5C
06/01/2014	01:00:47.652	$GPGGA,010048,2512.2737,N,07915.9856,W,1,8,1.7,15,M,,M,,*5A
06/01/2014	01:00:48.624	$GPGGA,010049,2512.2712,N,07915.9856,W,1,8,1.7,15,M,,M,,*5C
06/01/2014	01:00:49.626	$GPGGA,010050,2512.2690,N,07915.9856,W,1,8,1.7,15,M,,M,,*5F
06/01/2014	01:00:50.649	$GPGGA,010051,2512.2665,N,07915.9856,W,1,8,1.7,15,M,,M,,*54
06/01/2014	01:00:51.651	$GPGGA,010052,2512.2643,N,07915.9855,W,1,8,1.7,15,M,,M,,*50
06/01/2014	01:00:52.623	$GPGGA,010053,2512.2618,N,07915.9856,W,1,8,1.7,15,M,,M,,*5C
06/01/2014	01:00:53.635	$GPGGA,010054,2512.2596,N,07915.9856,W,1,8,1.7,15,M,,M,,*5E
06/01/2014	01:00:54.647	$GPGGA,010055,2512.2572,N,07915.9856,W,1,8,1.7,15,M,,M,,*55
06/01/2014	01:00:55.640	$GPGGA,010056,2512.2549,N,07915.9856,W,1,8,1.7,15,M,,M,,*5E
06/01/2014	01:00:56.662	$GPGGA,010057,2512.2527,N,07915.9856,W,1,8,1.7,15,M,,M,,*57
06/01/2014	01:00:57.634	$GPGGA,010058,2512.2502,N,07915.9856,W,1,8,1.7,15,M,,M,,*5F
06/01/2014	01:00:58.646	$GPGGA,010059,2512.2480,N,07915.9857,W,1,8,1.7,15,M,,M,,*54
06/01/2014	01:00:59.658	$GPGGA,010100,2512.2456,N,07915.9857,W,1,8,1.7,15,M,,M,,*52
06/01/2014	01:01:00.631	$GPGGA,010101,2512.2433,N,07915.9859,W,1,8,1.7,15,M,,M,,*5E
06/01/2014	01:01:01.643	$GPGGA,010102,2512.2410,N,07915.9858,W,1,8,1.7,15,M,,M,,*5D
06/01/2014	01:01:02.665	$GPGGA,010103,2512.2385,N,07915.9859,W,1,8,1.7,15,M,,M,,*56
06/01/2014	01:01:03.647	$GPGGA,010104,2512.2361,N,07915.9858,W,1,8,2.0,15,M,,M,,*5E
06/01/2014	01:01:04.628	$GPGGA,010105,2512.2336,N,07915.9859,W,1,7,2.0,15,M,,M,,*53
06/01/2014	01:01:05.641	$GPGGA,010106,2512.2315,N,07915.9861,W,1,7,2.0,15,M,,M,,*5A
06/01/2014	01:01:06.633	$GPGGA,010107,2512.2292,N,07915.9863,W,1,8,1.7,15,M,,M,,*5C
06/01/2014	01:01:07.655	$GPGGA,010108,2512.2269,N,07915.9862,W,1,8,1.7,15,M,,M,,*56
06/01/2014	01:01:08.627	$GPGGA,010109,2512.2247,N,07915.9866,W,1,8,1.7,15,M,,M,,*5F
06/01/2014	01:01:09.639	$GPGGA,010110,2512.2224,N,07915.9866,W,1,8,1.7,15,M,,M,,*52
06/01/2014	01:01:10.632	$GPGGA,010111,2512.2202,N,07915.9868,W,1,8,1.7,15,M,,M,,*59
06/01/2014	01:01:11.654	$GPGGA,010112,2512.2178,N,07915.9870,W,1,8,1.7,15,M,,M,,*5D
06/01/2014	01:01:12.646	$GPGGA,010113,2512.2156,N,07915.9873,W,1,8,1.7,15,M,,M,,*53
06/01/2014	01:01:13.638	$GPGGA,010114,2512.2132,N,07915.9872,W,1,8,1.7,15,M,,M,,*57
06/01/2014	01:01:14.660	$GPGGA,010115,2512.2108,N,07915.9875,W,1,7,2.1,15,M,,M,,*52
06/01/2014	01:01:15.653	$GPGGA,010116,2512.2085,N,07915.9875,W,1,7,1.7,15,M,,M,,*50
06/01/2014	01:01:16.665	$GPGGA,010117,2512.2059,N,07915.9874,W,1,8,1.7,15,M,,M,,*5E
06/01/2014	01:01:17.627	$GPGGA,010118,2512.2036,N,07915.9877,W,1,8,2.0,15,M,,M,,*5F
06/01/2014	01:01:18.649	$GPGGA,010119,2512.2011,N,07915.9876,W,1,7,2.0,15,M,,M,,*55
06/01/2014	01:01:19.651	$GPGGA,010120,2512.1987,N,07915.9877,W,1,7,2.0,15,M,,M,,*5B
06/01/2014	01:01:20.623	$GPGGA,010121,2512.1964,N,07915.9877,W,1,8,1.7,15,M,,M,,*5C
06/01/2014	01:01:21.736	$GPGGA,010122,2512.1938,N,07915.9877,W,1,8,2.0,15,M,,M,,*52
06/01/2014	01:01:22.647	$GPGGA,010123,2512.1915,N,07915.9877,W,1,7,2.0,15,M,,M,,*53
06/01/2014	01:01:23.789	$GPGGA,010124,2512.1892,N,07915.9878,W,1,7,1.7,15,M,,M,,*51
06/01/2014	01:01:24.832	$GPGGA,010125,2512.1868,N,07915.9878,W,1,8,1.7,15,M,,M,,*5A
06/01/2014	01:01:25.653	$GPGGA,010126,2512.1845,N,07915.9879,W,1,8,1.7,15,M,,M,,*57
06/01/2014	01:01:26.826	$GPGGA,010127,2512.1821,N,07915.9881,W,1,8,1.7,16,M,,M,,*50
06/01/2014	01:01:27.618	$GPGGA,010128,2512.1798,N,07915.9879,W,1,8,1.7,16,M,,M,,*55
06/01/2014	01:01:28.700	$GPGGA,010129,2512.1774,N,07915.9881,W,1,8,1.7,16,M,,M,,*51
06/01/2014	01:01:29.512	$GPGGA,010130,2512.1750,N,07915.9880,W,1,8,1.7,16,M,,M,,*5E
06/01/2014	01:01:30.504	$GPGGA,010131,2512.1727,N,07915.9879,W,1,8,1.7,16,M,,M,,*59
06/01/2014	01:01:31.607	$GPGGA,010132,2512.1703,N,07915.9878,W,1,8,1.7,16,M,,M,,*5D
06/01/2014	01:01:32.679	$GPGGA,010133,2512.1679,N,07915.9879,W,1,8,1.7,16,M,,M,,*51
06/01/2014	01:01:33.641	$GPGGA,010134,2512.1657,N,07915.9879,W,1,8,1.7,16,M,,M,,*5A
06/01/2014	01:01:34.704	$GPGGA,010135,2512.1633,N,07915.9877,W,1,8,1.7,16,M,,M,,*57
06/01/2014	01:01:35.656	$GPGGA,010136,2512.1609,N,07915.9877,W,1,8,1.7,16,M,,M,,*5D
06/01/2014	01:01:36.718	$GPGGA,010137,2512.1586,N,07915.9877,W,1,8,1.7,16,M,,M,,*58
06/01/2014	01:01:37.602	$GPGGA,010138,2512.1563,N,07915.9875,W,1,8,1.7,16,M,,M,,*5E
06/01/2014	01:01:38.722	$GPGGA,010139,2512.1541,N,07915.9874,W,1,8,1.7,16,M,,M,,*5E
06/01/2014	01:01:39.674	$GPGGA,010140,2512.1516,N,07915.9875,W,1,8,1.7,16,M,,M,,*53
06/01/2014	01:01:40.716	$GPGGA,010141,2512.1494,N,07915.9873,W,1,8,1.7,17,M,,M,,*5E
06/01/2014	01:01:41.648	$GPGGA,010142,2512.1470,N,07915.9871,W,1,8,1.7,17,M,,M,,*55
06/01/2014	01:01:42.720	$GPGGA,010143,2512.1447,N,07915.9873,W,1,8,1.7,17,M,,M,,*52
06/01/2014	01:01:43.622	$GPGGA,010144,2512.1423,N,07915.9871,W,1,8,1.7,17,M,,M,,*55
06/01/2014	01:01:44.604	$GPGGA,010145,2512.1400,N,07915.9869,W,1,8,1.7,17,M,,M,,*5C
06/01/2014	01:01:45.637	$GPGGA,010146,2512.1377,N,07915.9870,W,1,8,1.7,17,M,,M,,*50
06/01/2014	01:01:46.669	$GPGGA,010147,2512.1354,N,07915.9869,W,1,8,1.7,17,M,,M,,*58
06/01/2014	01:01:47.651	$GPGGA,010148,2512.1330,N,07915.9868,W,1,8,1.7,17,M,,M,,*54
06/01/2014	01:01:48.673	$GPGGA,010149,2512.1307,N,07915.9870,W,1,8,1.7,17,M,,M,,*58
06/01/2014	01:01:49.635	$GPGGA,010150,2512.1284,N,07915.9870,W,1,8,1.7,17,M,,M,,*5A
06/01/2014	01:01:50.718	$GPGGA,010151,2512.1259,N,07915.9869,W,1,8,1.7,17,M,,M,,*53
06/01/2014	01:01:51.657	$GPGGA,010152,2512.1237,N,07915.9868,W,1,8,1.7,17,M,,M,,*59
06/01/2014	01:01:52.732	$GPGGA,010153,2512.1213,N,07915.9870,W,1,8,1.7,17,M,,M,,*57
06/01/2014	01:01:53.604	$GPGGA,010154,2512.1189,N,07915.9870,W,1,8,1.7,17,M,,M,,*50
06/01/2014	01:01:54.687	$GPGGA,010155,2512.1166,N,07915.9869,W,1,8,1.7,17,M,,M,,*58
06/01/2014	01:01:55.650	$GPGGA,010156,2512.1142,N,07915.9870,W,1,8,1.7,17,M,,M,,*55
06/01/2014	01:01:56.732	$GPGGA,010157,2512.1118,N,07915.9870,W,1,8,1.7,17,M,,M,,*5B
06/01/2014	01:01:57.602	$GPGGA,010158,2512.1095,N,07915.9870,W,1,8,1.7,17,M,,M,,*50
06/01/2014	01:01:58.694	$GPGGA,010159,2512.1071,N,07915.9870,W,1,8,1.7,17,M,,M,,*5B
06/01/2014	01:01:59.676	$GPGGA,010200,2512.1047,N,07915.9871,W,1,8,1.7,17,M,,M,,*50
06/01/2014	01:02:00.729	$GPGGA,010201,2512.1023,N,07915.9873,W,1,8,1.7,17,M,,M,,*51
06/01/2014	01:02:01.641	$GPGGA,010202,2512.1000,N,07915.9871,W,1,8,1.7,17,M,,M,,*51
06/01/2014	01:02:02.713	$GPGGA,010203,2512.0976,N,07915.9871,W,1,8,1.7,17,M,,M,,*59
06/01/2014	01:02:03.655	$GPGGA,010204,2512.0953,N,07915.9873,W,1,8,1.7,17,M,,M,,*5B
06/01/2014	01:02:04.718	$GPGGA,010205,2512.0929,N,07915.9872,W,1,8,1.7,18,M,,M,,*59
06/01/2014	01:02:05.710	$GPGGA,010206,2512.0905,N,07915.9871,W,1,8,1.7,18,M,,M,,*57
06/01/2014	01:02:06.742	$GPGGA,010207,2512.0881,N,07915.9873,W,1,8,1.7,18,M,,M,,*59
06/01/2014	01:02:07.664	$GPGGA,010208,2512.0858,N,07915.9871,W,1,8,1.7,18,M,,M,,*50
06/01/2014	01:02:08.746	$GPGGA,010209,2512.0834,N,07915.9871,W,1,8,1.7,18,M,,M,,*5B
06/01/2014	01:02:09.648	$GPGGA,010210,2512.0811,N,07915.9873,W,1,8,1.7,18,M,,M,,*56
06/01/2014	01:02:10.721	$GPGGA,010211,2512.0787,N,07915.9874,W,1,8,1.7,18,M,,M,,*50
06/01/2014	01:02:11.663	$GPGGA,010212,2512.0764,N,07915.9872,W,1,8,1.7,18,M,,M,,*58
06/01/2014	01:02:12.715	$GPGGA,010213,2512.0740,N,07915.9873,W,1,8,1.7,18,M,,M,,*5E
06/01/2014	01:02:13.637	$GPGGA,010214,2512.0717,N,07915.9874,W,1,8,1.7,18,M,,M,,*5C
06/01/2014	01:02:14.708	$GPGGA,010215,2512.0692,N,07915.9874,W,1,8,1.7,18,M,,M,,*51
06/01/2014	01:02:15.661	$GPGGA,010216,2512.0669,N,07915.9875,W,1,8,1.7,18,M,,M,,*57
06/01/2014	01:02:16.753	$GPGGA,010217,2512.0645,N,07915.9877,W,1,8,1.7,18,M,,M,,*5A
06/01/2014	01:02:17.725	$GPGGA,010218,2512.0621,N,07915.9876,W,1,8,2.0,18,M,,M,,*52
06/01/2014	01:02:18.707	$GPGGA,010219,2512.0598,N,07915.9877,W,1,7,1.7,18,M,,M,,*58
06/01/2014	01:02:19.719	$GPGGA,010220,2512.0575,N,07915.9879,W,1,7,1.7,18,M,,M,,*5F
06/01/2014	01:02:20.722	$GPGGA,010221,2512.0551,N,07915.9878,W,1,8,2.0,18,M,,M,,*52
06/01/2014	01:02:21.714	$GPGGA,010222,2512.0527,N,07915.9881,W,1,8,1.7,18,M,,M,,*52
06/01/2014	01:02:22.726	$GPGGA,010223,2512.0502,N,07915.9880,W,1,8,2.0,18,M,,M,,*51
06/01/2014	01:02:23.728	$GPGGA,010224,2512.0480,N,07915.9881,W,1,8,1.7,18,M,,M,,*58
06/01/2014	01:02:24.750	$GPGGA,010225,2512.0457,N,07915.9882,W,1,8,1.7,18,M,,M,,*50
06/01/2014	01:02:25.713	$GPGGA,010226,2512.0433,N,07915.9884,W,1,8,1.7,18,M,,M,,*57
06/01/2014	01:02:26.745	$GPGGA,010227,2512.0411,N,07915.9886,W,1,8,1.7,18,M,,M,,*54
06/01/2014	01:02:27.597	$GPGGA,010228,2512.0388,N,07915.9886,W,1,8,1.7,18,M,,M,,*5C
06/01/2014	01:02:28.619	$GPGGA,010229,2512.0365,N,07915.9888,W,1,8,1.7,18,M,,M,,*50
06/01/2014	01:02:29.581	$GPGGA,010230,2512.0341,N,07915.9889,W,1,8,2.0,18,M,,M,,*5B
06/01/2014	01:02:30.654	$GPGGA,010231,2512.0318,N,07915.9889,W,1,7,1.7,18,M,,M,,*5D
06/01/2014	01:02:31.597	$GPGGA,010232,2512.0296,N,07915.9891,W,1,7,1.7,18,M,,M,,*50
06/01/2014	01:02:32.607	$GPGGA,010233,2512.0273,N,07915.9893,W,1,8,1.7,18,M,,M,,*57
06/01/2014	01:02:33.589	$GPGGA,010234,2512.0249,N,07915.9892,W,1,8,1.7,18,M,,M,,*58
06/01/2014	01:02:34.611	$GPGGA,010235,2512.0226,N,07915.9892,W,1,8,1.7,18,M,,M,,*50
06/01/2014	01:02:35.604	$GPGGA,010236,2512.0201,N,07915.9895,W,1,8,1.7,18,M,,M,,*51
06/01/2014	01:02:36.616	$GPGGA,010237,2512.0179,N,07915.9894,W,1,8,1.7,18,M,,M,,*5D
06/01/2014	01:02:37.578	$GPGGA,010238,2512.0155,N,07915.9895,W,1,8,1.7,18,M,,M,,*5D
06/01/2014	01:02:38.620	$GPGGA,010239,2512.0132,N,07915.9896,W,1,8,1.7,18,M,,M,,*5E
06/01/2014	01:02:39.602	$GPGGA,010240,2512.0108,N,07915.9895,W,1,8,1.7,18,M,,M,,*5A
06/01/2014	01:02:40.645	$GPGGA,010241,2512.0085,N,07915.9895,W,1,8,1.7,18,M,,M,,*5F
06/01/2014	01:02:41.597	$GPGGA,010242,2512.0060,N,07915.9895,W,1,8,1.7,18,M,,M,,*57
06/01/2014	01:02:42.589	$GPGGA,010243,2512.0038,N,07915.9895,W,1,8,1.7,18,M,,M,,*5B
06/01/2014	01:02:43.591	$GPGGA,010244,2512.0013,N,07915.9894,W,1,8,1.7,18,M,,M,,*54
06/01/2014	01:02:44.623	$GPGGA,010245,2511.9989,N,07915.9895,W,1,8,1.7,18,M,,M,,*54
06/01/2014	01:02:45.576	$GPGGA,010246,2511.9964,N,07915.9894,W,1,8,1.7,18,M,,M,,*55
06/01/2014	01:02:46.608	$GPGGA,010247,2511.9964,N,07915.9894,W,1,8,1.7,18,M,,M,,*54
06/01/2014	01:02:47.610	$GPGGA,010248,2511.9916,N,07915.9893,W,1,8,1.7,18,M,,M,,*59
06/01/2014	01:02:48.653	$GPGGA,010249,2511.9892,N,07915.9892,W,1,8,1.7,18,M,,M,,*54
06/01/2014	01:02:49.623	$GPGGA,010250,2511.9868,N,07915.9891,W,1,8,1.7,17,M,,M,,*55
06/01/2014	01:02:50.727	$GPGGA,010251,2511.9845,N,07915.9892,W,1,8,1.7,17,M,,M,,*58
06/01/2014	01:02:51.718	$GPGGA,010252,2511.9820,N,07915.9892,W,1,8,1.7,17,M,,M,,*58
06/01/2014	01:02:52.700	$GPGGA,010253,2511.9796,N,07915.9889,W,1,8,1.7,17,M,,M,,*51
06/01/2014	01:02:53.682	$GPGGA,010254,2511.9772,N,07915.9892,W,1,8,1.7,17,M,,M,,*56
06/01/2014	01:02:54.644	$GPGGA,010255,2511.9749,N,07915.9892,W,1,8,1.7,17,M,,M,,*5F
06/01/2014	01:02:55.717	$GPGGA,010256,2511.9724,N,07915.9889,W,1,8,1.7,17,M,,M,,*5D
06/01/2014	01:02:56.659	$GPGGA,010257,2511.9702,N,07915.9889,W,1,8,1.7,17,M,,M,,*58
06/01/2014	01:02:57.671	$GPGGA,010258,2511.9678,N,07915.9891,W,1,8,1.7,17,M,,M,,*52
06/01/2014	01:02:58.603	$GPGGA,010259,2511.9678,N,07915.9891,W,1,8,1.7,17,M,,M,,*53
06/01/2014	01:02:59.605	$GPGGA,010300,2511.9631,N,07915.9888,W,1,8,1.7,17,M,,M,,*5B
06/01/2014	01:03:00.607	$GPGGA,010301,2511.9631,N,07915.9888,W,1,8,1.7,17,M,,M,,*5A
06/01/2014	01:03:01.680	$GPGGA,010302,2511.9583,N,07915.9888,W,1,8,1.7,17,M,,M,,*53
06/01/2014	01:03:02.602	$GPGGA,010303,2511.9583,N,07915.9888,W,1,8,1.7,17,M,,M,,*52
06/01/2014	01:03:03.694	$GPGGA,010304,2511.9536,N,07915.9885,W,1,8,1.7,17,M,,M,,*56
06/01/2014	01:03:04.676	$GPGGA,010305,2511.9512,N,07915.9885,W,1,8,1.7,17,M,,M,,*51
06/01/2014	01:03:05.679	$GPGGA,010306,2511.9489,N,07915.9885,W,1,8,1.7,17,M,,M,,*51
06/01/2014	01:03:06.711	$GPGGA,010307,2511.9464,N,07915.9884,W,1,8,1.7,17,M,,M,,*52
06/01/2014	01:03:07.722	$GPGGA,010308,2511.9442,N,07915.9884,W,1,8,1.7,17,M,,M,,*59
06/01/2014	01:03:08.685	$GPGGA,010309,2511.9417,N,07915.9884,W,1,8,1.7,16,M,,M,,*59
06/01/2014	01:03:09.686	$GPGGA,010310,2511.9395,N,07915.9884,W,1,8,1.7,16,M,,M,,*5C
06/01/2014	01:03:10.699	$GPGGA,010311,2511.9370,N,07915.9884,W,1,8,1.6,16,M,,M,,*57
06/01/2014	01:03:11.691	$GPGGA,010312,2511.9348,N,07915.9885,W,1,8,1.6,16,M,,M,,*5E
06/01/2014	01:03:12.703	$GPGGA,010313,2511.9324,N,07915.9886,W,1,8,1.6,16,M,,M,,*56
06/01/2014	01:03:13.675	$GPGGA,010314,2511.9301,N,07915.9885,W,1,8,1.6,16,M,,M,,*55
06/01/2014	01:03:14.697	$GPGGA,010315,2511.9276,N,07915.9885,W,1,8,1.6,16,M,,M,,*55
06/01/2014	01:03:15.700	$GPGGA,010316,2511.9252,N,07915.9888,W,1,8,2.0,16,M,,M,,*58
06/01/2014	01:03:16.702	$GPGGA,010317,2511.9229,N,07915.9887,W,1,8,1.6,16,M,,M,,*5F
06/01/2014	01:03:17.674	$GPGGA,010318,2511.9205,N,07915.9888,W,1,8,1.6,16,M,,M,,*51
06/01/2014	01:03:18.706	$GPGGA,010319,2511.9180,N,07915.9888,W,1,8,1.6,16,M,,M,,*5E
06/01/2014	01:03:19.688	$GPGGA,010320,2511.9156,N,07915.9888,W,1,8,2.0,16,M,,M,,*5A
06/01/2014	01:03:20.701	$GPGGA,010321,2511.9132,N,07915.9889,W,1,8,1.6,16,M,,M,,*5D
06/01/2014	01:03:21.693	$GPGGA,010322,2511.9107,N,07915.9888,W,1,8,2.0,16,M,,M,,*5C
06/01/2014	01:03:22.745	$GPGGA,010323,2511.9082,N,07915.9888,W,1,7,2.0,16,M,,M,,*5E
06/01/2014	01:03:23.697	$GPGGA,010324,2511.9060,N,07915.9891,W,1,7,2.0,15,M,,M,,*5E
06/01/2014	01:03:24.718	$GPGGA,010325,2511.9035,N,07915.9889,W,1,8,1.6,15,M,,M,,*5C
06/01/2014	01:03:25.691	$GPGGA,010326,2511.9012,N,07915.9891,W,1,8,2.0,15,M,,M,,*56
06/01/2014	01:03:26.713	$GPGGA,010327,2511.8987,N,07915.9892,W,1,8,1.6,15,M,,M,,*55
06/01/2014	01:03:27.576	$GPGGA,010328,2511.8962,N,07915.9891,W,1,8,2.0,15,M,,M,,*57
06/01/2014	01:03:28.568	$GPGGA,010329,2511.8941,N,07915.9893,W,1,7,2.0,15,M,,M,,*5A
06/01/2014	01:03:29.560	$GPGGA,010330,2511.8920,N,07915.9896,W,1,7,1.6,15,M,,M,,*55
06/01/2014	01:03:30.553	$GPGGA,010331,2511.8897,N,07915.9897,W,1,8,1.6,15,M,,M,,*57
06/01/2014	01:03:31.575	$GPGGA,010332,2511.8875,N,07915.9899,W,1,8,1.6,15,M,,M,,*56
06/01/2014	01:03:32.587	$GPGGA,010333,2511.8851,N,07915.9900,W,1,8,1.6,15,M,,M,,*50
06/01/2014	01:03:33.550	$GPGGA,010334,2511.8828,N,07915.9899,W,1,8,1.6,15,M,,M,,*58
06/01/2014	01:03:34.571	$GPGGA,010335,2511.8802,N,07915.9900,W,1,7,2.0,15,M,,M,,*5A
06/01/2014	01:03:35.574	$GPGGA,010336,2511.8777,N,07915.9900,W,1,7,2.0,15,M,,M,,*54
06/01/2014	01:03:36.576	$GPGGA,010337,2511.8752,N,07915.9900,W,1,8,1.6,15,M,,M,,*58
06/01/2014	01:03:37.558	$GPGGA,010338,2511.8728,N,07915.9902,W,1,8,1.6,15,M,,M,,*58
06/01/2014	01:03:38.590	$GPGGA,010339,2511.8705,N,07915.9902,W,1,8,1.6,15,M,,M,,*56
06/01/2014	01:03:39.563	$GPGGA,010340,2511.8681,N,07915.9900,W,1,8,1.6,15,M,,M,,*57
06/01/2014	01:03:40.675	$GPGGA,010341,2511.8659,N,07915.9902,W,1,8,1.6,15,M,,M,,*51
06/01/2014	01:03:41.557	$GPGGA,010342,2511.8636,N,07915.9903,W,1,8,1.6,15,M,,M,,*5A
06/01/2014	01:03:42.568	$GPGGA,010343,2511.8612,N,07915.9902,W,1,8,1.6,14,M,,M,,*5D
06/01/2014	01:03:43.680	$GPGGA,010344,2511.8590,N,07915.9903,W,1,8,1.6,14,M,,M,,*52
06/01/2014	01:03:44.682	$GPGGA,010345,2511.8568,N,07915.9903,W,1,8,1.6,14,M,,M,,*54
06/01/2014	01:03:45.564	$GPGGA,010346,2511.8544,N,07915.9906,W,1,8,1.6,14,M,,M,,*5C
06/01/2014	01:03:46.576	$GPGGA,010347,2511.8521,N,07915.9904,W,1,8,1.6,14,M,,M,,*5C
06/01/2014	01:03:47.688	$GPGGA,010348,2511.8497,N,07915.9904,W,1,8,1.6,14,M,,M,,*5F
06/01/2014	01:03:48.681	$GPGGA,010349,2511.8474,N,07915.9906,W,1,8,1.6,14,M,,M,,*51
06/01/2014	01:03:49.562	$GPGGA,010350,2511.8450,N,07915.9905,W,1,8,1.6,14,M,,M,,*5C
06/01/2014	01:03:50.675	$GPGGA,010351,2511.8427,N,07915.9906,W,1,8,1.6,14,M,,M,,*5E
06/01/2014	01:03:51.667	$GPGGA,010352,2511.8405,N,07915.9907,W,1,8,1.6,14,M,,M,,*5C
06/01/2014	01:03:52.669	$GPGGA,010353,2511.8381,N,07915.9907,W,1,8,1.6,14,M,,M,,*56
06/01/2014	01:03:53.661	$GPGGA,010354,2511.8358,N,07915.9907,W,1,8,1.6,14,M,,M,,*55
06/01/2014	01:03:54.663	$GPGGA,010355,2511.8336,N,07915.9908,W,1,8,1.6,14,M,,M,,*53
06/01/2014	01:03:55.675	$GPGGA,010356,2511.8312,N,07915.9908,W,1,8,1.6,14,M,,M,,*56
06/01/2014	01:03:56.669	$GPGGA,010357,2511.8288,N,07915.9908,W,1,8,1.6,14,M,,M,,*55
06/01/2014	01:03:57.659	$GPGGA,010358,2511.8265,N,07915.9908,W,1,8,1.6,14,M,,M,,*59
06/01/2014	01:03:58.671	$GPGGA,010359,2511.8243,N,07915.9910,W,1,7,2.0,14,M,,M,,*5F
06/01/2014	01:03:59.673	$GPGGA,010400,2511.8221,N,07915.9909,W,1,7,1.6,14,M,,M,,*5D
06/01/2014	01:04:00.695	$GPGGA,010401,2511.8196,N,07915.9911,W,1,8,1.6,14,M,,M,,*55
06/01/2014	01:04:01.647	$GPGGA,010402,2511.8174,N,07915.9911,W,1,8,1.6,14,M,,M,,*5A
06/01/2014	01:04:02.679	$GPGGA,010403,2511.8150,N,07915.9910,W,1,8,1.6,14,M,,M,,*5C
06/01/2014	01:04:03.681	$GPGGA,010404,2511.8127,N,07915.9911,W,1,8,1.6,14,M,,M,,*5A
06/01/2014	01:04:04.673	$GPGGA,010405,2511.8105,N,07915.9913,W,1,8,1.6,15,M,,M,,*58
06/01/2014	01:04:05.665	$GPGGA,010406,2511.8082,N,07915.9911,W,1,8,1.6,15,M,,M,,*57
06/01/2014	01:04:06.657	$GPGGA,010407,2511.8058,N,07915.9911,W,1,8,1.6,15,M,,M,,*51
06/01/2014	01:04:07.669	$GPGGA,010408,2511.8036,N,07915.9911,W,1,8,1.6,15,M,,M,,*56
06/01/2014	01:04:08.671	$GPGGA,010409,2511.8012,N,07915.9910,W,1,8,1.6,15,M,,M,,*50
06/01/2014	01:04:09.653	$GPGGA,010410,2511.7988,N,07915.9908,W,1,8,1.6,15,M,,M,,*54
06/01/2014	01:04:10.686	$GPGGA,010411,2511.7965,N,07915.9910,W,1,8,1.6,15,M,,M,,*5F
06/01/2014	01:04:11.678	$GPGGA,010412,2511.7941,N,07915.9909,W,1,8,1.6,15,M,,M,,*52
06/01/2014	01:04:12.680	$GPGGA,010413,2511.7918,N,07915.9908,W,1,8,1.6,15,M,,M,,*5E
06/01/2014	01:04:13.662	$GPGGA,010414,2511.7896,N,07915.9910,W,1,8,1.6,15,M,,M,,*57
06/01/2014	01:04:14.697	$GPGGA,010415,2511.7871,N,07915.9909,W,1,8,1.6,15,M,,M,,*57
06/01/2014	01:04:15.676	$GPGGA,010416,2511.7849,N,07915.9908,W,1,8,1.6,15,M,,M,,*5E
06/01/2014	01:04:16.659	$GPGGA,010417,2511.7824,N,07915.9908,W,1,8,1.6,15,M,,M,,*54
06/01/2014	01:04:17.659	$GPGGA,010418,2511.7800,N,07915.9908,W,1,8,1.6,15,M,,M,,*5D
06/01/2014	01:04:18.661	$GPGGA,010419,2511.7776,N,07915.9908,W,1,8,1.6,15,M,,M,,*52
06/01/2014	01:04:19.663	$GPGGA,010420,2511.7752,N,07915.9908,W,1,8,1.6,15,M,,M,,*5E
06/01/2014	01:04:20.676	$GPGGA,010421,2511.7729,N,07915.9907,W,1,8,1.6,15,M,,M,,*5C
06/01/2014	01:04:21.649	$GPGGA,010422,2511.7705,N,07915.9907,W,1,8,1.6,15,M,,M,,*51
06/01/2014	01:04:22.670	$GPGGA,010423,2511.7682,N,07915.9907,W,1,8,1.6,15,M,,M,,*5E
06/01/2014	01:04:23.682	$GPGGA,010424,2511.7658,N,07915.9906,W,1,8,1.6,16,M,,M,,*5C
06/01/2014	01:04:24.674	$GPGGA,010425,2511.7635,N,07915.9907,W,1,8,1.6,15,M,,M,,*54
06/01/2014	01:04:25.646	$GPGGA,010426,2511.7612,N,07915.9908,W,1,8,1.6,15,M,,M,,*5D
06/01/2014	01:04:26.668	$GPGGA,010427,2511.7589,N,07915.9906,W,1,8,1.6,15,M,,M,,*53
06/01/2014	01:04:27.557	$GPGGA,010428,2511.7564,N,07915.9907,W,1,8,1.6,15,M,,M,,*5E
06/01/2014	01:04:28.539	$GPGGA,010429,2511.7539,N,07915.9908,W,1,8,1.6,15,M,,M,,*58
06/01/2014	01:04:29.551	$GPGGA,010430,2511.7517,N,07915.9907,W,1,8,2.0,15,M,,M,,*56
06/01/2014	01:04:30.643	$GPGGA,010431,2511.7492,N,07915.9906,W,1,8,1.6,15,M,,M,,*5F
06/01/2014	01:04:31.545	$GPGGA,010432,2511.7468,N,07915.9907,W,1,8,1.6,15,M,,M,,*58
06/01/2014	01:04:32.527	$GPGGA,010433,2511.7444,N,07915.9908,W,1,8,1.6,15,M,,M,,*58
06/01/2014	01:04:33.529	$GPGGA,010434,2511.7420,N,07915.9906,W,1,8,1.6,15,M,,M,,*53
06/01/2014	01:04:34.631	$GPGGA,010435,2511.7397,N,07915.9906,W,1,8,1.6,15,M,,M,,*59
06/01/2014	01:04:35.543	$GPGGA,010436,2511.7373,N,07915.9907,W,1,8,1.6,15,M,,M,,*51
06/01/2014	01:04:36.535	$GPGGA,010437,2511.7350,N,07915.9906,W,1,8,1.6,15,M,,M,,*50
06/01/2014	01:04:37.627	$GPGGA,010438,2511.7326,N,07915.9907,W,1,8,1.6,15,M,,M,,*5F
06/01/2014	01:04:38.639	$GPGGA,010439,2511.7303,N,07915.9907,W,1,8,1.6,15,M,,M,,*59
06/01/2014	01:04:39.641	$GPGGA,010440,2511.7279,N,07915.9907,W,1,8,1.6,15,M,,M,,*5B
06/01/2014	01:04:40.643	$GPGGA,010441,2511.7255,N,07915.9908,W,1,8,1.6,15,M,,M,,*5B
06/01/2014	01:04:41.545	$GPGGA,010442,2511.7231,N,07915.9908,W,1,8,1.6,15,M,,M,,*5A
06/01/2014	01:04:42.630	$GPGGA,010443,2511.7206,N,07915.9907,W,1,7,2.0,15,M,,M,,*5A
06/01/2014	01:04:43.650	$GPGGA,010444,2511.7184,N,07915.9908,W,1,7,2.0,15,M,,M,,*5B
06/01/2014	01:04:44.642	$GPGGA,010445,2511.7160,N,07915.9910,W,1,8,1.6,15,M,,M,,*53
06/01/2014	01:04:45.635	$GPGGA,010446,2511.7138,N,07915.9913,W,1,8,1.6,14,M,,M,,*5F
06/01/2014	01:04:46.636	$GPGGA,010447,2511.7116,N,07915.9912,W,1,8,1.6,14,M,,M,,*53
06/01/2014	01:04:47.648	$GPGGA,010448,2511.7092,N,07915.9913,W,1,8,1.6,14,M,,M,,*50
06/01/2014	01:04:48.652	$GPGGA,010449,2511.7068,N,07915.9915,W,1,8,1.6,14,M,,M,,*52
06/01/2014	01:04:49.632	$GPGGA,010450,2511.7044,N,07915.9914,W,1,8,2.0,14,M,,M,,*50
06/01/2014	01:04:50.635	$GPGGA,010451,2511.7020,N,07915.9914,W,1,8,1.6,14,M,,M,,*56
06/01/2014	01:04:51.645	$GPGGA,010452,2511.6997,N,07915.9915,W,1,8,2.1,14,M,,M,,*54
06/01/2014	01:04:53.870	$GPGGA,010453,2511.6972,N,07915.9915,W,1,8,1.6,14,M,,M,,*5A
06/01/2014	01:04:53.890	$GPGGA,010454,2511.6947,N,07915.9914,W,1,8,2.0,14,M,,M,,*5F
06/01/2014	01:04:54.662	$GPGGA,010455,2511.6924,N,07915.9913,W,1,7,2.0,15,M,,M,,*52
06/01/2014	01:04:55.634	$GPGGA,010456,2511.6898,N,07915.9914,W,1,7,1.6,15,M,,M,,*55
06/01/2014	01:04:56.656	$GPGGA,010457,2511.6873,N,07915.9913,W,1,7,2.0,15,M,,M,,*53
06/01/2014	01:04:57.628	$GPGGA,010458,2511.6852,N,07915.9913,W,1,7,2.0,15,M,,M,,*5F
06/01/2014	01:04:58.651	$GPGGA,010459,2511.6827,N,07915.9913,W,1,8,1.6,15,M,,M,,*56
06/01/2014	01:04:59.672	$GPGGA,010500,2511.6805,N,07915.9914,W,1,8,1.6,15,M,,M,,*5C
06/01/2014	01:05:00.654	$GPGGA,010501,2511.6780,N,07915.9913,W,1,8,1.6,15,M,,M,,*58
06/01/2014	01:05:01.626	$GPGGA,010502,2511.6755,N,07915.9912,W,1,8,1.6,15,M,,M,,*52
06/01/2014	01:05:02.628	$GPGGA,010503,2511.6734,N,07915.9913,W,1,7,2.0,15,M,,M,,*5F
06/01/2014	01:05:03.641	$GPGGA,010504,2511.6709,N,07915.9913,W,1,7,1.6,15,M,,M,,*53
06/01/2014	01:05:04.623	$GPGGA,010505,2511.6685,N,07915.9914,W,1,8,1.6,15,M,,M,,*5F
06/01/2014	01:05:05.645	$GPGGA,010506,2511.6661,N,07915.9911,W,1,8,1.6,15,M,,M,,*53
06/01/2014	01:05:06.657	$GPGGA,010507,2511.6636,N,07915.9913,W,1,8,1.6,16,M,,M,,*51
06/01/2014	01:05:07.649	$GPGGA,010508,2511.6613,N,07915.9912,W,1,8,1.6,16,M,,M,,*58
06/01/2014	01:05:08.631	$GPGGA,010509,2511.6588,N,07915.9911,W,1,7,2.1,16,M,,M,,*50
06/01/2014	01:05:09.632	$GPGGA,010510,2511.6563,N,07915.9911,W,1,7,2.1,16,M,,M,,*5D
06/01/2014	01:05:10.744	$GPGGA,010511,2511.6539,N,07915.9911,W,1,7,2.1,16,M,,M,,*53
06/01/2014	01:05:11.646	$GPGGA,010512,2511.6516,N,07915.9913,W,1,7,1.6,16,M,,M,,*5B
06/01/2014	01:05:12.658	$GPGGA,010513,2511.6494,N,07915.9912,W,1,8,1.6,16,M,,M,,*5F
06/01/2014	01:05:13.640	$GPGGA,010514,2511.6470,N,07915.9913,W,1,8,1.6,16,M,,M,,*53
06/01/2014	01:05:14.653	$GPGGA,010515,2511.6447,N,07915.9911,W,1,8,1.6,16,M,,M,,*54
06/01/2014	01:05:15.645	$GPGGA,010516,2511.6424,N,07915.9913,W,1,8,1.6,16,M,,M,,*50
06/01/2014	01:05:16.647	$GPGGA,010517,2511.6401,N,07915.9912,W,1,8,1.6,16,M,,M,,*57
06/01/2014	01:05:17.629	$GPGGA,010518,2511.6378,N,07915.9913,W,1,8,1.6,16,M,,M,,*50
06/01/2014	01:05:18.631	$GPGGA,010519,2511.6355,N,07915.9913,W,1,8,1.6,17,M,,M,,*5F
06/01/2014	01:05:19.633	$GPGGA,010520,2511.6331,N,07915.9912,W,1,8,1.6,17,M,,M,,*56
06/01/2014	01:05:20.625	$GPGGA,010521,2511.6307,N,07915.9913,W,1,8,1.6,17,M,,M,,*53
06/01/2014	01:05:21.727	$GPGGA,010522,2511.6284,N,07915.9912,W,1,8,1.6,17,M,,M,,*5B
06/01/2014	01:05:22.730	$GPGGA,010523,2511.6260,N,07915.9911,W,1,8,1.6,17,M,,M,,*53
06/01/2014	01:05:23.651	$GPGGA,010524,2511.6238,N,07915.9911,W,1,8,1.6,17,M,,M,,*59
06/01/2014	01:05:24.634	$GPGGA,010525,2511.6214,N,07915.9913,W,1,8,1.6,17,M,,M,,*54
06/01/2014	01:05:25.726	$GPGGA,010526,2511.6190,N,07915.9910,W,1,8,1.6,17,M,,M,,*5B
06/01/2014	01:05:26.727	$GPGGA,010527,2511.6166,N,07915.9909,W,1,8,1.6,17,M,,M,,*5B
06/01/2014	01:05:27.527	$GPGGA,010528,2511.6143,N,07915.9910,W,1,8,1.6,17,M,,M,,*5B
06/01/2014	01:05:28.609	$GPGGA,010529,2511.6120,N,07915.9909,W,1,8,1.6,17,M,,M,,*57
06/01/2014	01:05:29.611	$GPGGA,010530,2511.6096,N,07915.9908,W,1,8,1.6,17,M,,M,,*52
06/01/2014	01:05:30.613	$GPGGA,010531,2511.6073,N,07915.9908,W,1,8,1.6,17,M,,M,,*58
06/01/2014	01:05:31.625	$GPGGA,010532,2511.6050,N,07915.9908,W,1,8,1.6,17,M,,M,,*5A
06/01/2014	01:05:32.597	$GPGGA,010533,2511.6026,N,07915.9907,W,1,8,1.6,17,M,,M,,*55
06/01/2014	01:05:33.610	$GPGGA,010534,2511.6003,N,07915.9907,W,1,8,1.6,17,M,,M,,*55
06/01/2014	01:05:34.632	$GPGGA,010535,2511.5979,N,07915.9907,W,1,8,1.6,17,M,,M,,*53
06/01/2014	01:05:35.624	$GPGGA,010536,2511.5956,N,07915.9907,W,1,8,2.1,17,M,,M,,*59
06/01/2014	01:05:36.606	$GPGGA,010537,2511.5934,N,07915.9907,W,1,8,1.6,17,M,,M,,*58
06/01/2014	01:05:37.609	$GPGGA,010538,2511.5909,N,07915.9905,W,1,8,1.6,17,M,,M,,*5B
06/01/2014	01:05:38.610	$GPGGA,010539,2511.5887,N,07915.9907,W,1,8,1.6,17,M,,M,,*5F
06/01/2014	01:05:39.622	$GPGGA,010540,2511.5862,N,07915.9907,W,1,8,1.6,17,M,,M,,*5A
06/01/2014	01:05:40.624	$GPGGA,010541,2511.5837,N,07915.9906,W,1,8,1.6,17,M,,M,,*5A
06/01/2014	01:05:41.616	$GPGGA,010542,2511.5813,N,07915.9906,W,1,8,2.1,17,M,,M,,*5B
06/01/2014	01:05:42.619	$GPGGA,010543,2511.5789,N,07915.9908,W,1,7,2.1,17,M,,M,,*57
06/01/2014	01:05:43.661	$GPGGA,010544,2511.5765,N,07915.9906,W,1,7,2.1,17,M,,M,,*5C
06/01/2014	01:05:44.652	$GPGGA,010545,2511.5741,N,07915.9906,W,1,7,2.1,17,M,,M,,*5B
06/01/2014	01:05:45.614	$GPGGA,010546,2511.5717,N,07915.9907,W,1,7,2.1,17,M,,M,,*5A
06/01/2014	01:05:46.626	$GPGGA,010547,2511.5693,N,07915.9907,W,1,7,2.1,17,M,,M,,*56
06/01/2014	01:05:47.608	$GPGGA,010548,2511.5670,N,07915.9908,W,1,7,2.1,17,M,,M,,*5B
06/01/2014	01:05:48.640	$GPGGA,010549,2511.5647,N,07915.9910,W,1,8,1.6,17,M,,M,,*5C
06/01/2014	01:05:49.612	$GPGGA,010550,2511.5624,N,07915.9909,W,1,8,1.6,17,M,,M,,*59
06/01/2014	01:05:50.604	$GPGGA,010551,2511.5602,N,07915.9911,W,1,8,1.6,16,M,,M,,*54
06/01/2014	01:05:51.636	$GPGGA,010552,2511.5580,N,07915.9913,W,1,8,1.6,16,M,,M,,*5C
06/01/2014	01:05:52.638	$GPGGA,010553,2511.5557,N,07915.9912,W,1,8,1.6,16,M,,M,,*56
06/01/2014	01:05:53.611	$GPGGA,010554,2511.5535,N,07915.9915,W,1,8,1.6,16,M,,M,,*52
06/01/2014	01:05:54.643	$GPGGA,010555,2511.5512,N,07915.9917,W,1,8,1.6,16,M,,M,,*54
06/01/2014	01:05:55.615	$GPGGA,010556,2511.5488,N,07915.9915,W,1,8,1.6,16,M,,M,,*57
06/01/2014	01:05:56.627	$GPGGA,010557,2511.5464,N,07915.9917,W,1,7,2.1,16,M,,M,,*5D
06/01/2014	01:05:57.599	$GPGGA,010558,2511.5443,N,07915.9920,W,1,7,2.1,16,M,,M,,*53
06/01/2014	01:05:58.731	$GPGGA,010559,2511.5421,N,07915.9921,W,1,8,1.6,16,M,,M,,*5C
06/01/2014	01:05:59.633	$GPGGA,010600,2511.5396,N,07915.9920,W,1,8,1.6,16,M,,M,,*59
06/01/2014	01:06:00.615	$GPGGA,010601,2511.5372,N,07915.9924,W,1,7,2.1,16,M,,M,,*5D
06/01/2014	01:06:01.606	$GPGGA,010602,2511.5349,N,07915.9924,W,1,7,2.1,16,M,,M,,*56
06/01/2014	01:06:02.618	$GPGGA,010603,2511.5327,N,07915.9925,W,1,7,2.1,16,M,,M,,*5E
06/01/2014	01:06:03.620	$GPGGA,010604,2511.5303,N,07915.9928,W,1,7,1.6,16,M,,M,,*56
06/01/2014	01:06:04.613	$GPGGA,010605,2511.5282,N,07915.9931,W,1,7,2.1,16,M,,M,,*53
06/01/2014	01:06:05.605	$GPGGA,010606,2511.5257,N,07915.9930,W,1,7,1.6,16,M,,M,,*5D
06/01/2014	01:06:06.747	$GPGGA,010607,2511.5233,N,07915.9931,W,1,7,2.1,16,M,,M,,*5B
06/01/2014	01:06:07.629	$GPGGA,010608,2511.5210,N,07915.9931,W,1,7,2.1,16,M,,M,,*55
06/01/2014	01:06:08.601	$GPGGA,010609,2511.5186,N,07915.9931,W,1,7,2.1,16,M,,M,,*58
06/01/2014	01:06:09.703	$GPGGA,010610,2511.5163,N,07915.9933,W,1,7,1.6,16,M,,M,,*5D
06/01/2014	01:06:10.745	$GPGGA,010611,2511.5139,N,07915.9933,W,1,8,2.1,16,M,,M,,*58
06/01/2014	01:06:11.627	$GPGGA,010612,2511.5114,N,07915.9932,W,1,8,2.1,16,M,,M,,*55
06/01/2014	01:06:12.720	$GPGGA,010613,2511.5092,N,07915.9935,W,1,7,2.1,16,M,,M,,*53
06/01/2014	01:06:13.601	$GPGGA,010614,2511.5067,N,07915.9935,W,1,7,2.1,16,M,,M,,*5E
06/01/2014	01:06:14.724	$GPGGA,010615,2511.5044,N,07915.9934,W,1,7,1.6,16,M,,M,,*5B
06/01/2014	01:06:15.726	$GPGGA,010616,2511.5023,N,07915.9936,W,1,7,1.6,16,M,,M,,*5B
06/01/2014	01:06:16.699	$GPGGA,010617,2511.4999,N,07915.9938,W,1,8,1.6,16,M,,M,,*52
06/01/2014	01:06:17.703	$GPGGA,010618,2511.4977,N,07915.9936,W,1,8,1.6,16,M,,M,,*53
06/01/2014	01:06:18.712	$GPGGA,010619,2511.4952,N,07915.9936,W,1,8,1.6,16,M,,M,,*55
06/01/2014	01:06:19.753	$GPGGA,010620,2511.4930,N,07915.9936,W,1,8,1.6,16,M,,M,,*5B
06/01/2014	01:06:20.745	$GPGGA,010621,2511.4906,N,07915.9936,W,1,8,1.6,16,M,,M,,*5F
06/01/2014	01:06:21.707	$GPGGA,010622,2511.4883,N,07915.9935,W,1,8,1.6,16,M,,M,,*53
06/01/2014	01:06:22.730	$GPGGA,010623,2511.4861,N,07915.9936,W,1,8,1.6,16,M,,M,,*5D
06/01/2014	01:06:23.722	$GPGGA,010624,2511.4836,N,07915.9938,W,1,8,1.6,16,M,,M,,*56
06/01/2014	01:06:24.734	$GPGGA,010625,2511.4814,N,07915.9935,W,1,8,1.6,16,M,,M,,*5A
06/01/2014	01:06:25.716	$GPGGA,010626,2511.4789,N,07915.9933,W,1,8,1.6,16,M,,M,,*54
06/01/2014	01:06:26.728	$GPGGA,010627,2511.4765,N,07915.9935,W,1,8,1.6,16,M,,M,,*51
06/01/2014	01:06:27.598	$GPGGA,010628,2511.4742,N,07915.9933,W,1,8,1.6,16,M,,M,,*5D
06/01/2014	01:06:28.580	$GPGGA,010629,2511.4720,N,07915.9931,W,1,8,1.6,17,M,,M,,*5B
06/01/2014	01:06:29.602	$GPGGA,010630,2511.4695,N,07915.9931,W,1,8,1.6,17,M,,M,,*5C
06/01/2014	01:06:30.604	$GPGGA,010631,2511.4673,N,07915.9931,W,1,8,1.6,17,M,,M,,*55
06/01/2014	01:06:31.596	$GPGGA,010632,2511.4649,N,07915.9930,W,1,8,1.6,17,M,,M,,*5E
06/01/2014	01:06:32.619	$GPGGA,010633,2511.4626,N,07915.9931,W,1,8,1.6,17,M,,M,,*57
06/01/2014	01:06:33.592	$GPGGA,010634,2511.4602,N,07915.9929,W,1,8,1.6,17,M,,M,,*5F
06/01/2014	01:06:34.605	$GPGGA,010635,2511.4579,N,07915.9927,W,1,8,1.6,17,M,,M,,*5F
06/01/2014	01:06:35.606	$GPGGA,010636,2511.4555,N,07915.9928,W,1,8,1.6,17,M,,M,,*5D
06/01/2014	01:06:36.596	$GPGGA,010637,2511.4531,N,07915.9927,W,1,8,1.6,17,M,,M,,*51
06/01/2014	01:06:37.598	$GPGGA,010638,2511.4507,N,07915.9924,W,1,8,1.6,17,M,,M,,*58
06/01/2014	01:06:38.580	$GPGGA,010639,2511.4483,N,07915.9924,W,1,8,1.6,17,M,,M,,*54
06/01/2014	01:06:39.602	$GPGGA,010640,2511.4460,N,07915.9925,W,1,8,1.6,17,M,,M,,*56
06/01/2014	01:06:40.634	$GPGGA,010641,2511.4436,N,07915.9923,W,1,8,1.6,17,M,,M,,*52
06/01/2014	01:06:41.576	$GPGGA,010642,2511.4413,N,07915.9922,W,1,8,1.6,17,M,,M,,*57
06/01/2014	01:06:42.578	$GPGGA,010643,2511.4389,N,07915.9924,W,1,8,1.6,17,M,,M,,*54
06/01/2014	01:06:43.611	$GPGGA,010644,2511.4366,N,07915.9921,W,1,8,1.6,17,M,,M,,*57
06/01/2014	01:06:44.613	$GPGGA,010645,2511.4342,N,07915.9920,W,1,8,1.6,17,M,,M,,*51
06/01/2014	01:06:45.595	$GPGGA,010646,2511.4319,N,07915.9921,W,1,8,1.6,17,M,,M,,*5D
06/01/2014	01:06:46.607	$GPGGA,010647,2511.4295,N,07915.9919,W,1,8,1.6,17,M,,M,,*52
06/01/2014	01:06:47.609	$GPGGA,010648,2511.4272,N,07915.9918,W,1,8,1.6,17,M,,M,,*55
06/01/2014	01:06:48.621	$GPGGA,010649,2511.4249,N,07915.9920,W,1,8,1.6,17,M,,M,,*57
06/01/2014	01:06:49.603	$GPGGA,010650,2511.4225,N,07915.9918,W,1,8,1.6,17,M,,M,,*5E
06/01/2014	01:06:50.675	$GPGGA,010651,2511.4202,N,07915.9918,W,1,8,1.6,17,M,,M,,*5A
06/01/2014	01:06:51.608	$GPGGA,010652,2511.4178,N,07915.9918,W,1,8,1.6,17,M,,M,,*57
06/01/2014	01:06:52.619	$GPGGA,010653,2511.4154,N,07915.9918,W,1,8,2.1,17,M,,M,,*5C
06/01/2014	01:06:53.602	$GPGGA,010654,2511.4132,N,07915.9917,W,1,8,1.6,17,M,,M,,*50
06/01/2014	01:06:54.693	$GPGGA,010655,2511.4109,N,07915.9918,W,1,8,1.6,17,M,,M,,*56
06/01/2014	01:06:55.715	$GPGGA,010656,2511.4088,N,07915.9920,W,1,8,1.6,17,M,,M,,*56
06/01/2014	01:06:56.707	$GPGGA,010657,2511.4066,N,07915.9918,W,1,8,1.6,17,M,,M,,*5C
06/01/2014	01:06:57.699	$GPGGA,010658,2511.4041,N,07915.9918,W,1,8,2.1,17,M,,M,,*52
06/01/2014	01:06:58.611	$GPGGA,010659,2511.4016,N,07915.9918,W,1,7,2.1,17,M,,M,,*5E
06/01/2014	01:06:59.693	$GPGGA,010700,2511.3992,N,07915.9917,W,1,7,2.1,17,M,,M,,*5E
06/01/2014	01:07:00.685	$GPGGA,010701,2511.3969,N,07915.9917,W,1,7,1.6,17,M,,M,,*5F
06/01/2014	01:07:01.597	$GPGGA,010702,2511.3947,N,07915.9918,W,1,7,1.6,17,M,,M,,*5F
06/01/2014	01:07:02.710	$GPGGA,010703,2511.3922,N,07915.9920,W,1,8,1.6,17,M,,M,,*59
06/01/2014	01:07:03.621	$GPGGA,010704,2511.3900,N,07915.9918,W,1,8,1.6,17,M,,M,,*55
06/01/2014	01:07:04.677	$GPGGA,010705,2511.3875,N,07915.9920,W,1,8,2.1,17,M,,M,,*58
06/01/2014	01:07:05.696	$GPGGA,010706,2511.3851,N,07915.9921,W,1,8,2.1,17,M,,M,,*5C
06/01/2014	01:07:06.708	$GPGGA,010707,2511.3828,N,07915.9921,W,1,7,2.1,17,M,,M,,*5C
06/01/2014	01:07:07.700	$GPGGA,010708,2511.3803,N,07915.9921,W,1,7,2.1,17,M,,M,,*5A
06/01/2014	01:07:08.702	$GPGGA,010709,2511.3781,N,07915.9924,W,1,7,2.1,17,M,,M,,*5B
06/01/2014	01:07:09.675	$GPGGA,010710,2511.3759,N,07915.9926,W,1,7,1.6,17,M,,M,,*50
06/01/2014	01:07:10.696	$GPGGA,010711,2511.3735,N,07915.9926,W,1,8,1.6,17,M,,M,,*54
06/01/2014	01:07:11.697	$GPGGA,010712,2511.3713,N,07915.9929,W,1,8,1.6,17,M,,M,,*5C
06/01/2014	01:07:12.700	$GPGGA,010713,2511.3690,N,07915.9932,W,1,8,1.6,17,M,,M,,*5D
06/01/2014	01:07:13.692	$GPGGA,010714,2511.3666,N,07915.9932,W,1,8,1.6,17,M,,M,,*53
06/01/2014	01:07:14.674	$GPGGA,010715,2511.3643,N,07915.9933,W,1,7,2.1,17,M,,M,,*5F
06/01/2014	01:07:15.696	$GPGGA,010716,2511.3618,N,07915.9936,W,1,7,1.6,17,M,,M,,*53
06/01/2014	01:07:16.678	$GPGGA,010717,2511.3595,N,07915.9938,W,1,7,2.1,16,M,,M,,*5F
06/01/2014	01:07:17.690	$GPGGA,010718,2511.3571,N,07915.9936,W,1,7,2.1,16,M,,M,,*54
06/01/2014	01:07:18.672	$GPGGA,010719,2511.3549,N,07915.9939,W,1,7,2.1,16,M,,M,,*51
06/01/2014	01:07:19.694	$GPGGA,010720,2511.3526,N,07915.9940,W,1,7,1.6,16,M,,M,,*58
06/01/2014	01:07:20.676	$GPGGA,010721,2511.3505,N,07915.9942,W,1,7,2.1,16,M,,M,,*5E
06/01/2014	01:07:21.678	$GPGGA,010722,2511.3484,N,07915.9943,W,1,7,1.6,16,M,,M,,*50
06/01/2014	01:07:22.670	$GPGGA,010723,2511.3459,N,07915.9943,W,1,8,1.6,16,M,,M,,*5E
06/01/2014	01:07:23.703	$GPGGA,010724,2511.3435,N,07915.9944,W,1,8,2.1,16,M,,M,,*50
06/01/2014	01:07:24.675	$GPGGA,010725,2511.3410,N,07915.9944,W,1,7,2.1,16,M,,M,,*59
06/01/2014	01:07:25.687	$GPGGA,010726,2511.3385,N,07915.9944,W,1,7,2.1,16,M,,M,,*51
06/01/2014	01:07:26.679	$GPGGA,010727,2511.3362,N,07915.9943,W,1,7,2.1,16,M,,M,,*5E
06/01/2014	01:07:27.579	$GPGGA,010728,2511.3338,N,07915.9944,W,1,7,2.1,16,M,,M,,*59
06/01/2014	01:07:28.570	$GPGGA,010729,2511.3316,N,07915.9944,W,1,8,1.6,16,M,,M,,*5F
06/01/2014	01:07:29.571	$GPGGA,010730,2511.3293,N,07915.9946,W,1,8,1.6,16,M,,M,,*59
06/01/2014	01:07:30.583	$GPGGA,010731,2511.3271,N,07915.9945,W,1,8,1.6,16,M,,M,,*57
06/01/2014	01:07:31.575	$GPGGA,010732,2511.3248,N,07915.9946,W,1,8,1.6,16,M,,M,,*5D
06/01/2014	01:07:32.577	$GPGGA,010733,2511.3226,N,07915.9946,W,1,8,1.6,16,M,,M,,*54
06/01/2014	01:07:33.660	$GPGGA,010734,2511.3203,N,07915.9946,W,1,8,1.6,16,M,,M,,*54
06/01/2014	01:07:34.672	$GPGGA,010735,2511.3179,N,07915.9947,W,1,8,1.6,16,M,,M,,*5A
06/01/2014	01:07:35.564	$GPGGA,010736,2511.3156,N,07915.9946,W,1,8,1.6,16,M,,M,,*55
06/01/2014	01:07:36.566	$GPGGA,010737,2511.3134,N,07915.9946,W,1,8,1.6,16,M,,M,,*50
06/01/2014	01:07:37.558	$GPGGA,010738,2511.3110,N,07915.9947,W,1,8,1.6,17,M,,M,,*59
06/01/2014	01:07:38.680	$GPGGA,010739,2511.3087,N,07915.9946,W,1,8,1.6,17,M,,M,,*56
06/01/2014	01:07:39.572	$GPGGA,010740,2511.3064,N,07915.9946,W,1,8,1.6,17,M,,M,,*55
06/01/2014	01:07:40.574	$GPGGA,010741,2511.3041,N,07915.9945,W,1,8,1.6,17,M,,M,,*50
06/01/2014	01:07:41.556	$GPGGA,010742,2511.3018,N,07915.9946,W,1,8,1.6,17,M,,M,,*5C
06/01/2014	01:07:42.659	$GPGGA,010743,2511.2995,N,07915.9944,W,1,8,1.6,17,M,,M,,*52
06/01/2014	01:07:43.570	$GPGGA,010744,2511.2972,N,07915.9944,W,1,8,1.6,17,M,,M,,*5C
06/01/2014	01:07:44.573	$GPGGA,010745,2511.2948,N,07915.9943,W,1,8,1.6,17,M,,M,,*53
06/01/2014	01:07:45.575	$GPGGA,010746,2511.2924,N,07915.9942,W,1,8,1.6,17,M,,M,,*5B
06/01/2014	01:07:46.666	$GPGGA,010747,2511.2900,N,07915.9942,W,1,8,1.6,18,M,,M,,*53
06/01/2014	01:07:47.678	$GPGGA,010748,2511.2878,N,07915.9942,W,1,8,1.6,18,M,,M,,*52
06/01/2014	01:07:48.570	$GPGGA,010749,2511.2854,N,07915.9941,W,1,8,1.6,18,M,,M,,*5E
06/01/2014	01:07:49.662	$GPGGA,010750,2511.2831,N,07915.9939,W,1,8,1.6,18,M,,M,,*5A
06/01/2014	01:07:50.664	$GPGGA,010751,2511.2807,N,07915.9940,W,1,8,1.6,18,M,,M,,*50
06/01/2014	01:07:51.676	$GPGGA,010752,2511.2784,N,07915.9942,W,1,8,1.6,18,M,,M,,*55
06/01/2014	01:07:52.648	$GPGGA,010753,2511.2760,N,07915.9939,W,1,8,1.6,18,M,,M,,*52
06/01/2014	01:07:53.651	$GPGGA,010754,2511.2737,N,07915.9938,W,1,8,1.6,18,M,,M,,*56
06/01/2014	01:07:54.663	$GPGGA,010755,2511.2712,N,07915.9940,W,1,8,1.6,18,M,,M,,*5F
06/01/2014	01:07:55.675	$GPGGA,010756,2511.2690,N,07915.9939,W,1,8,1.6,18,M,,M,,*59
06/01/2014	01:07:56.658	$GPGGA,010757,2511.2666,N,07915.9937,W,1,8,1.6,18,M,,M,,*5F
06/01/2014	01:07:57.659	$GPGGA,010758,2511.2643,N,07915.9939,W,1,8,1.6,18,M,,M,,*59
06/01/2014	01:07:58.651	$GPGGA,010759,2511.2621,N,07915.9937,W,1,8,1.6,18,M,,M,,*52
06/01/2014	01:07:59.704	$GPGGA,010800,2511.2597,N,07915.9936,W,1,8,1.6,18,M,,M,,*5E
06/01/2014	01:08:00.665	$GPGGA,010801,2511.2574,N,07915.9936,W,1,8,1.6,18,M,,M,,*52
06/01/2014	01:08:01.657	$GPGGA,010802,2511.2550,N,07915.9936,W,1,8,1.6,18,M,,M,,*57
06/01/2014	01:08:02.680	$GPGGA,010803,2511.2527,N,07915.9936,W,1,8,1.6,18,M,,M,,*56
06/01/2014	01:08:03.681	$GPGGA,010804,2511.2503,N,07915.9936,W,1,8,1.6,18,M,,M,,*57
06/01/2014	01:08:04.673	$GPGGA,010805,2511.2480,N,07915.9934,W,1,8,1.6,18,M,,M,,*5E
06/01/2014	01:08:05.655	$GPGGA,010806,2511.2456,N,07915.9935,W,1,8,1.6,18,M,,M,,*57
06/01/2014	01:08:06.687	$GPGGA,010807,2511.2432,N,07915.9935,W,1,8,1.6,18,M,,M,,*54
06/01/2014	01:08:07.659	$GPGGA,010808,2511.2409,N,07915.9934,W,1,8,1.6,18,M,,M,,*52
06/01/2014	01:08:08.651	$GPGGA,010809,2511.2386,N,07915.9935,W,1,8,1.6,18,M,,M,,*52
06/01/2014	01:08:09.663	$GPGGA,010810,2511.2362,N,07915.9935,W,1,8,1.6,18,M,,M,,*50
06/01/2014	01:08:10.675	$GPGGA,010811,2511.2338,N,07915.9933,W,1,8,1.6,18,M,,M,,*58
06/01/2014	01:08:11.677	$GPGGA,010812,2511.2314,N,07915.9933,W,1,8,2.1,18,M,,M,,*51
06/01/2014	01:08:12.649	$GPGGA,010813,2511.2289,N,07915.9935,W,1,7,2.1,18,M,,M,,*5C
06/01/2014	01:08:13.651	$GPGGA,010814,2511.2265,N,07915.9934,W,1,7,2.1,18,M,,M,,*58
06/01/2014	01:08:14.694	$GPGGA,010815,2511.2242,N,07915.9933,W,1,7,2.1,18,M,,M,,*5B
06/01/2014	01:08:15.686	$GPGGA,010816,2511.2218,N,07915.9935,W,1,7,2.1,18,M,,M,,*51
06/01/2014	01:08:16.678	$GPGGA,010817,2511.2195,N,07915.9935,W,1,7,2.1,17,M,,M,,*59
06/01/2014	01:08:17.660	$GPGGA,010818,2511.2170,N,07915.9934,W,1,7,2.1,17,M,,M,,*5C
06/01/2014	01:08:18.672	$GPGGA,010819,2511.2146,N,07915.9935,W,1,7,2.1,17,M,,M,,*59
06/01/2014	01:08:19.674	$GPGGA,010820,2511.2122,N,07915.9938,W,1,7,2.1,17,M,,M,,*5C
06/01/2014	01:08:20.687	$GPGGA,010821,2511.2099,N,07915.9937,W,1,7,2.1,17,M,,M,,*53
06/01/2014	01:08:21.657	$GPGGA,010822,2511.2076,N,07915.9936,W,1,7,2.1,17,M,,M,,*50
06/01/2014	01:08:22.679	$GPGGA,010823,2511.2052,N,07915.9939,W,1,7,2.1,16,M,,M,,*59
06/01/2014	01:08:23.661	$GPGGA,010824,2511.2029,N,07915.9939,W,1,7,2.1,16,M,,M,,*52
06/01/2014	01:08:24.674	$GPGGA,010825,2511.2007,N,07915.9940,W,1,7,2.1,16,M,,M,,*51
06/01/2014	01:08:25.666	$GPGGA,010826,2511.1983,N,07915.9942,W,1,7,1.6,16,M,,M,,*52
06/01/2014	01:08:26.768	$GPGGA,010827,2511.1960,N,07915.9943,W,1,7,2.1,16,M,,M,,*5B
06/01/2014	01:08:27.558	$GPGGA,010828,2511.1936,N,07915.9944,W,1,7,2.1,15,M,,M,,*53
06/01/2014	01:08:28.660	$GPGGA,010829,2511.1913,N,07915.9944,W,1,7,2.1,15,M,,M,,*55
06/01/2014	01:08:29.542	$GPGGA,010830,2511.1889,N,07915.9947,W,1,7,2.1,15,M,,M,,*5C
06/01/2014	01:08:30.554	$GPGGA,010831,2511.1866,N,07915.9947,W,1,7,2.1,15,M,,M,,*5C
06/01/2014	01:08:31.646	$GPGGA,010832,2511.1842,N,07915.9949,W,1,7,2.1,15,M,,M,,*57
06/01/2014	01:08:32.548	$GPGGA,010833,2511.1819,N,07915.9949,W,1,7,2.1,15,M,,M,,*58
06/01/2014	01:08:33.530	$GPGGA,010834,2511.1798,N,07915.9953,W,1,7,2.1,15,M,,M,,*52
06/01/2014	01:08:34.543	$GPGGA,010835,2511.1777,N,07915.9954,W,1,8,1.6,15,M,,M,,*5E
06/01/2014	01:08:35.665	$GPGGA,010836,2511.1755,N,07915.9956,W,1,8,1.6,14,M,,M,,*5E
06/01/2014	01:08:36.637	$GPGGA,010837,2511.1732,N,07915.9957,W,1,8,1.6,14,M,,M,,*5F
06/01/2014	01:08:37.639	$GPGGA,010838,2511.1711,N,07915.9960,W,1,8,1.6,14,M,,M,,*55
06/01/2014	01:08:38.631	$GPGGA,010839,2511.1685,N,07915.9958,W,1,8,1.6,15,M,,M,,*52
06/01/2014	01:08:39.662	$GPGGA,010840,2511.1660,N,07915.9960,W,1,8,2.1,15,M,,M,,*58
06/01/2014	01:08:40.634	$GPGGA,010841,2511.1638,N,07915.9961,W,1,7,2.1,14,M,,M,,*5B
06/01/2014	01:08:41.636	$GPGGA,010842,2511.1613,N,07915.9961,W,1,7,1.6,14,M,,M,,*55
06/01/2014	01:08:42.628	$GPGGA,010843,2511.1592,N,07915.9962,W,1,7,2.1,14,M,,M,,*59
06/01/2014	01:08:43.651	$GPGGA,010844,2511.1570,N,07915.9964,W,1,7,1.6,14,M,,M,,*50
06/01/2014	01:08:44.633	$GPGGA,010845,2511.1546,N,07915.9964,W,1,8,1.6,15,M,,M,,*5A
06/01/2014	01:08:45.645	$GPGGA,010846,2511.1523,N,07915.9964,W,1,8,1.6,15,M,,M,,*5A
06/01/2014	01:08:46.627	$GPGGA,010847,2511.1501,N,07915.9964,W,1,8,1.6,15,M,,M,,*5B
06/01/2014	01:08:47.639	$GPGGA,010848,2511.1478,N,07915.9963,W,1,8,1.6,15,M,,M,,*5C
06/01/2014	01:08:48.631	$GPGGA,010849,2511.1455,N,07915.9965,W,1,8,1.6,15,M,,M,,*54
06/01/2014	01:08:49.643	$GPGGA,010850,2511.1432,N,07915.9967,W,1,8,1.6,15,M,,M,,*5F
06/01/2014	01:08:50.665	$GPGGA,010851,2511.1409,N,07915.9964,W,1,8,1.6,15,M,,M,,*55
06/01/2014	01:08:51.647	$GPGGA,010852,2511.1386,N,07915.9965,W,1,8,1.6,15,M,,M,,*57
06/01/2014	01:08:52.662	$GPGGA,010853,2511.1364,N,07915.9967,W,1,8,1.6,15,M,,M,,*58
06/01/2014	01:08:53.622	$GPGGA,010854,2511.1340,N,07915.9966,W,1,8,1.6,15,M,,M,,*58
06/01/2014	01:08:54.625	$GPGGA,010855,2511.1317,N,07915.9967,W,1,8,1.6,16,M,,M,,*59
06/01/2014	01:08:55.647	$GPGGA,010856,2511.1294,N,07915.9966,W,1,8,1.6,16,M,,M,,*51
06/01/2014	01:08:56.667	$GPGGA,010857,2511.1271,N,07915.9967,W,1,8,1.6,16,M,,M,,*5A
06/01/2014	01:08:57.629	$GPGGA,010858,2511.1247,N,07915.9967,W,1,8,1.6,16,M,,M,,*50
06/01/2014	01:08:58.631	$GPGGA,010859,2511.1224,N,07915.9965,W,1,8,1.6,16,M,,M,,*56
06/01/2014	01:08:59.664	$GPGGA,010900,2511.1200,N,07915.9967,W,1,8,1.6,16,M,,M,,*5F
06/01/2014	01:09:00.645	$GPGGA,010901,2511.1178,N,07915.9966,W,1,8,1.6,16,M,,M,,*53
06/01/2014	01:09:01.637	$GPGGA,010902,2511.1154,N,07915.9965,W,1,8,1.6,16,M,,M,,*5D
06/01/2014	01:09:02.669	$GPGGA,010903,2511.1131,N,07915.9965,W,1,8,1.6,16,M,,M,,*5F
06/01/2014	01:09:03.642	$GPGGA,010904,2511.1108,N,07915.9965,W,1,8,1.6,16,M,,M,,*52
06/01/2014	01:09:04.674	$GPGGA,010905,2511.1086,N,07915.9964,W,1,8,1.6,17,M,,M,,*54
06/01/2014	01:09:05.636	$GPGGA,010906,2511.1061,N,07915.9963,W,1,8,1.6,17,M,,M,,*59
06/01/2014	01:09:06.628	$GPGGA,010907,2511.1039,N,07915.9964,W,1,8,1.6,17,M,,M,,*52
06/01/2014	01:09:07.820	$GPGGA,010908,2511.1014,N,07915.9962,W,1,8,1.6,17,M,,M,,*54
06/01/2014	01:09:08.652	$GPGGA,010909,2511.0990,N,07915.9962,W,1,8,1.6,17,M,,M,,*51
06/01/2014	01:09:09.644	$GPGGA,010910,2511.0967,N,07915.9962,W,1,8,1.6,17,M,,M,,*51
06/01/2014	01:09:10.646	$GPGGA,010911,2511.0943,N,07915.9962,W,1,8,1.6,17,M,,M,,*56
06/01/2014	01:09:11.648	$GPGGA,010912,2511.0920,N,07915.9962,W,1,8,1.6,17,M,,M,,*50
06/01/2014	01:09:12.771	$GPGGA,010913,2511.0898,N,07915.9962,W,1,8,1.6,17,M,,M,,*53
06/01/2014	01:09:13.642	$GPGGA,010914,2511.0873,N,07915.9961,W,1,8,1.6,17,M,,M,,*52
06/01/2014	01:09:14.644	$GPGGA,010915,2511.0849,N,07915.9962,W,1,8,1.6,17,M,,M,,*59
06/01/2014	01:09:15.746	$GPGGA,010916,2511.0829,N,07915.9964,W,1,8,2.1,17,M,,M,,*5E
06/01/2014	01:09:16.628	$GPGGA,010917,2511.0804,N,07915.9962,W,1,8,1.6,17,M,,M,,*52
06/01/2014	01:09:17.730	$GPGGA,010918,2511.0780,N,07915.9964,W,1,8,2.1,17,M,,M,,*5C
06/01/2014	01:09:18.632	$GPGGA,010919,2511.0757,N,07915.9964,W,1,8,1.6,17,M,,M,,*53
06/01/2014	01:09:19.814	$GPGGA,010920,2511.0733,N,07915.9964,W,1,8,1.6,17,M,,M,,*5B
06/01/2014	01:09:20.646	$GPGGA,010921,2511.0710,N,07915.9967,W,1,8,1.6,17,M,,M,,*58
06/01/2014	01:09:21.799	$GPGGA,010922,2511.0688,N,07915.9967,W,1,8,1.6,17,M,,M,,*5B
06/01/2014	01:09:22.640	$GPGGA,010923,2511.0665,N,07915.9968,W,1,8,1.6,17,M,,M,,*56
06/01/2014	01:09:23.813	$GPGGA,010924,2511.0642,N,07915.9969,W,1,8,1.6,17,M,,M,,*55
06/01/2014	01:09:24.645	$GPGGA,010925,2511.0620,N,07915.9969,W,1,8,1.6,17,M,,M,,*50
06/01/2014	01:09:25.727	$GPGGA,010926,2511.0595,N,07915.9971,W,1,8,1.6,17,M,,M,,*57
06/01/2014	01:09:26.769	$GPGGA,010927,2511.0573,N,07915.9971,W,1,8,1.6,17,M,,M,,*5E
06/01/2014	01:09:27.708	$GPGGA,010928,2511.0548,N,07915.9972,W,1,8,1.6,17,M,,M,,*5A
06/01/2014	01:09:28.630	$GPGGA,010929,2511.0522,N,07915.9971,W,1,8,2.1,17,M,,M,,*50
06/01/2014	01:09:29.682	$GPGGA,010930,2511.0497,N,07915.9972,W,1,8,2.1,17,M,,M,,*54
06/01/2014	01:09:30.674	$GPGGA,010931,2511.0473,N,07915.9973,W,1,7,2.1,17,M,,M,,*51
06/01/2014	01:09:31.696	$GPGGA,010932,2511.0448,N,07915.9972,W,1,7,2.1,17,M,,M,,*5B
06/01/2014	01:09:32.648	$GPGGA,010933,2511.0426,N,07915.9975,W,1,7,2.1,17,M,,M,,*55
06/01/2014	01:09:33.610	$GPGGA,010934,2511.0403,N,07915.9974,W,1,7,1.6,17,M,,M,,*50
06/01/2014	01:09:34.652	$GPGGA,010935,2511.0378,N,07915.9975,W,1,7,2.1,17,M,,M,,*5F
06/01/2014	01:09:35.694	$GPGGA,010936,2511.0353,N,07915.9975,W,1,7,2.1,17,M,,M,,*55
06/01/2014	01:09:36.606	$GPGGA,010937,2511.0328,N,07915.9976,W,1,7,2.1,17,M,,M,,*5B
06/01/2014	01:09:37.658	$GPGGA,010938,2511.0304,N,07915.9976,W,1,7,2.1,16,M,,M,,*5B
06/01/2014	01:09:38.650	$GPGGA,010939,2511.0280,N,07915.9976,W,1,7,2.1,16,M,,M,,*57
06/01/2014	01:09:39.692	$GPGGA,010940,2511.0255,N,07915.9978,W,1,7,2.1,16,M,,M,,*5F
06/01/2014	01:09:40.634	$GPGGA,010941,2511.0231,N,07915.9978,W,1,7,2.1,16,M,,M,,*5C
06/01/2014	01:09:41.676	$GPGGA,010942,2511.0208,N,07915.9978,W,1,7,2.1,16,M,,M,,*55
06/01/2014	01:09:42.669	$GPGGA,010943,2511.0183,N,07915.9979,W,1,7,2.1,15,M,,M,,*56
06/01/2014	01:09:43.671	$GPGGA,010944,2511.0161,N,07915.9980,W,1,7,2.1,15,M,,M,,*5B
06/01/2014	01:09:44.604	$GPGGA,010945,2511.0136,N,07915.9980,W,1,7,2.1,15,M,,M,,*58
06/01/2014	01:09:45.605	$GPGGA,010946,2511.0112,N,07915.9980,W,1,7,2.1,15,M,,M,,*5D
06/01/2014	01:09:46.657	$GPGGA,010947,2511.0089,N,07915.9982,W,1,7,2.1,14,M,,M,,*5C
06/01/2014	01:09:47.689	$GPGGA,010948,2511.0065,N,07915.9981,W,1,7,2.1,14,M,,M,,*52
06/01/2014	01:09:48.611	$GPGGA,010949,2511.0042,N,07915.9982,W,1,7,2.1,14,M,,M,,*55
06/01/2014	01:09:49.662	$GPGGA,010950,2511.0018,N,07915.9985,W,1,7,2.1,14,M,,M,,*55
06/01/2014	01:09:50.684	$GPGGA,010951,2510.9995,N,07915.9984,W,1,7,2.1,14,M,,M,,*51
06/01/2014	01:09:51.616	$GPGGA,010952,2510.9971,N,07915.9986,W,1,7,2.1,13,M,,M,,*5D
06/01/2014	01:09:52.658	$GPGGA,010953,2510.9948,N,07915.9986,W,1,7,2.1,13,M,,M,,*56
06/01/2014	01:09:53.671	$GPGGA,010954,2510.9924,N,07915.9987,W,1,7,2.1,13,M,,M,,*5A
06/01/2014	01:09:54.693	$GPGGA,010955,2510.9901,N,07915.9989,W,1,7,2.1,13,M,,M,,*52
06/01/2014	01:09:55.735	$GPGGA,010956,2510.9877,N,07915.9988,W,1,7,2.1,12,M,,M,,*51
06/01/2014	01:09:56.717	$GPGGA,010957,2510.9854,N,07915.9989,W,1,7,2.1,12,M,,M,,*50
06/01/2014	01:09:57.669	$GPGGA,010958,2510.9830,N,07915.9989,W,1,7,2.1,12,M,,M,,*5D
06/01/2014	01:09:58.671	$GPGGA,010959,2510.9807,N,07915.9990,W,1,7,2.1,12,M,,M,,*50
06/01/2014	01:09:59.693	$GPGGA,011000,2510.9783,N,07915.9989,W,1,7,2.1,12,M,,M,,*5F
06/01/2014	01:10:00.605	$GPGGA,011001,2510.9760,N,07915.9989,W,1,7,2.1,12,M,,M,,*53
06/01/2014	01:10:01.667	$GPGGA,011002,2510.9738,N,07915.9990,W,1,7,2.1,11,M,,M,,*56
06/01/2014	01:10:02.649	$GPGGA,011003,2510.9714,N,07915.9990,W,1,7,2.1,11,M,,M,,*59
06/01/2014	01:10:03.682	$GPGGA,011004,2510.9691,N,07915.9989,W,1,7,2.1,11,M,,M,,*5A
06/01/2014	01:10:04.634	$GPGGA,011005,2510.9667,N,07915.9989,W,1,7,2.1,11,M,,M,,*52
06/01/2014	01:10:05.606	$GPGGA,011006,2510.9644,N,07915.9991,W,1,7,2.1,11,M,,M,,*59
06/01/2014	01:10:06.657	$GPGGA,011007,2510.9620,N,07915.9991,W,1,7,2.1,11,M,,M,,*5A
06/01/2014	01:10:07.739	$GPGGA,011008,2510.9597,N,07915.9990,W,1,7,2.1,11,M,,M,,*5B
06/01/2014	01:10:08.731	$GPGGA,011009,2510.9574,N,07915.9991,W,1,7,2.1,11,M,,M,,*56
06/01/2014	01:10:09.673	$GPGGA,011010,2510.9551,N,07915.9993,W,1,7,2.1,10,M,,M,,*5A
06/01/2014	01:10:10.785	$GPGGA,011011,2510.9529,N,07915.9991,W,1,7,2.1,10,M,,M,,*56
06/01/2014	01:10:11.747	$GPGGA,011012,2510.9504,N,07915.9991,W,1,7,2.1,10,M,,M,,*5A
06/01/2014	01:10:12.730	$GPGGA,011013,2510.9482,N,07915.9991,W,1,7,2.1,10,M,,M,,*54
06/01/2014	01:10:13.672	$GPGGA,011014,2510.9457,N,07915.9993,W,1,7,2.1,10,M,,M,,*59
06/01/2014	01:10:14.704	$GPGGA,011015,2510.9435,N,07915.9993,W,1,7,2.1,10,M,,M,,*5C
06/01/2014	01:10:15.726	$GPGGA,011016,2510.9410,N,07915.9992,W,1,7,2.1,10,M,,M,,*59
06/01/2014	01:10:16.728	$GPGGA,011017,2510.9386,N,07915.9993,W,1,7,2.1,10,M,,M,,*51
06/01/2014	01:10:17.700	$GPGGA,011018,2510.9364,N,07915.9994,W,1,7,2.1,10,M,,M,,*55
06/01/2014	01:10:18.742	$GPGGA,011019,2510.9341,N,07915.9993,W,1,7,2.1,10,M,,M,,*54
06/01/2014	01:10:19.714	$GPGGA,011020,2510.9319,N,07915.9994,W,1,7,2.1,10,M,,M,,*54
06/01/2014	01:10:20.726	$GPGGA,011021,2510.9294,N,07915.9996,W,1,7,2.1,10,M,,M,,*53
06/01/2014	01:10:21.709	$GPGGA,011022,2510.9272,N,07915.9995,W,1,7,2.1,10,M,,M,,*5B
06/01/2014	01:10:22.731	$GPGGA,011023,2510.9249,N,07915.9996,W,1,7,2.1,10,M,,M,,*51
06/01/2014	01:10:23.723	$GPGGA,011024,2510.9226,N,07915.9996,W,1,7,2.1,10,M,,M,,*5F
06/01/2014	01:10:24.716	$GPGGA,011025,2510.9203,N,07915.9995,W,1,7,2.1,10,M,,M,,*5A
06/01/2014	01:10:25.706	$GPGGA,011026,2510.9179,N,07915.9996,W,1,7,2.1,10,M,,M,,*54
06/01/2014	01:10:26.748	$GPGGA,011027,2510.9156,N,07915.9995,W,1,7,2.1,10,M,,M,,*5B
06/01/2014	01:10:27.607	$GPGGA,011028,2510.9133,N,07915.9996,W,1,7,2.1,10,M,,M,,*54
06/01/2014	01:10:28.619	$GPGGA,011029,2510.9109,N,07915.9994,W,1,7,2.1,10,M,,M,,*5E
06/01/2014	01:10:29.621	$GPGGA,011030,2510.9086,N,07915.9996,W,1,7,2.1,10,M,,M,,*52
06/01/2014	01:10:30.593	$GPGGA,011031,2510.9063,N,07915.9996,W,1,7,2.1,10,M,,M,,*58
06/01/2014	01:10:31.605	$GPGGA,011032,2510.9039,N,07915.9995,W,1,7,2.1,10,M,,M,,*57
06/01/2014	01:10:32.607	$GPGGA,011033,2510.9017,N,07915.9994,W,1,7,2.1,10,M,,M,,*5B
06/01/2014	01:10:33.620	$GPGGA,011034,2510.8992,N,07915.9996,W,1,7,2.1,10,M,,M,,*5B
06/01/2014	01:10:34.612	$GPGGA,011035,2510.8970,N,07915.9995,W,1,7,2.1,10,M,,M,,*55
06/01/2014	01:10:35.614	$GPGGA,011036,2510.8947,N,07915.9994,W,1,7,2.1,10,M,,M,,*53
06/01/2014	01:10:36.621	$GPGGA,011037,2510.8922,N,07915.9994,W,1,7,2.1,10,M,,M,,*51
06/01/2014	01:10:37.598	$GPGGA,011038,2510.8922,N,07915.9994,W,1,7,2.1,10,M,,M,,*5E
06/01/2014	01:10:38.610	$GPGGA,011039,2510.8875,N,07915.9994,W,1,7,2.1,10,M,,M,,*5C
06/01/2014	01:10:39.602	$GPGGA,011040,2510.8875,N,07915.9994,W,1,7,2.1,10,M,,M,,*52
06/01/2014	01:10:40.615	$GPGGA,011041,2510.8828,N,07915.9996,W,1,7,2.1,10,M,,M,,*59
06/01/2014	01:10:41.585	$GPGGA,011042,2510.8828,N,07915.9996,W,1,7,2.1,10,M,,M,,*5A
06/01/2014	01:10:42.597	$GPGGA,011043,2510.8781,N,07915.9996,W,1,7,2.1,10,M,,M,,*57
06/01/2014	01:10:43.610	$GPGGA,011044,2510.8781,N,07915.9996,W,1,7,2.1,10,M,,M,,*50
06/01/2014	01:10:44.602	$GPGGA,011045,2510.8734,N,07915.9996,W,1,7,2.1,10,M,,M,,*5F
06/01/2014	01:10:45.584	$GPGGA,011046,2510.8734,N,07915.9996,W,1,7,2.1,10,M,,M,,*5C
06/01/2014	01:10:46.696	$GPGGA,011047,2510.8687,N,07915.9996,W,1,7,2.1,10,M,,M,,*54
06/01/2014	01:10:47.638	$GPGGA,011048,2510.8665,N,07915.9996,W,1,7,2.1,10,M,,M,,*57
06/01/2014	01:10:48.590	$GPGGA,011049,2510.8640,N,07915.9997,W,1,7,2.1,10,M,,M,,*50
06/01/2014	01:10:49.682	$GPGGA,011050,2510.8617,N,07915.9997,W,1,7,2.1,10,M,,M,,*5A
06/01/2014	01:10:50.624	$GPGGA,011051,2510.8595,N,07915.9998,W,1,7,2.1,10,M,,M,,*5D
06/01/2014	01:10:51.606	$GPGGA,011052,2510.8595,N,07915.9998,W,1,7,2.1,10,M,,M,,*5E
06/01/2014	01:10:52.679	$GPGGA,011053,2510.8548,N,07916.0000,W,1,7,2.1,10,M,,M,,*5D
06/01/2014	01:10:53.590	$GPGGA,011054,2510.8548,N,07916.0000,W,1,7,2.1,10,M,,M,,*5A
06/01/2014	01:10:54.693	$GPGGA,011055,2510.8503,N,07916.0001,W,1,7,2.1,10,M,,M,,*55
06/01/2014	01:10:55.605	$GPGGA,011056,2510.8503,N,07916.0001,W,1,7,2.1,10,M,,M,,*56
06/01/2014	01:10:56.577	$GPGGA,011057,2510.8456,N,07916.0002,W,1,7,2.1,10,M,,M,,*55
06/01/2014	01:10:57.699	$GPGGA,011058,2510.8432,N,07916.0005,W,1,7,2.1,10,M,,M,,*5F
06/01/2014	01:10:58.591	$GPGGA,011059,2510.8409,N,07916.0005,W,1,7,2.1,10,M,,M,,*56
06/01/2014	01:10:59.722	$GPGGA,011100,2510.8385,N,07916.0007,W,1,7,2.1,10,M,,M,,*5A
06/01/2014	01:11:00.684	$GPGGA,011101,2510.8362,N,07916.0008,W,1,7,2.1,10,M,,M,,*5D
06/01/2014	01:11:01.696	$GPGGA,011102,2510.8338,N,07916.0009,W,1,7,2.1,10,M,,M,,*50
06/01/2014	01:11:02.678	$GPGGA,011103,2510.8315,N,07916.0009,W,1,7,2.1,10,M,,M,,*5E
06/01/2014	01:11:03.701	$GPGGA,011104,2510.8291,N,07916.0011,W,1,7,2.1,10,M,,M,,*5D
06/01/2014	01:11:04.713	$GPGGA,011105,2510.8268,N,07916.0014,W,1,7,2.1,10,M,,M,,*5F
06/01/2014	01:11:05.675	$GPGGA,011106,2510.8244,N,07916.0013,W,1,7,2.1,10,M,,M,,*55
06/01/2014	01:11:06.697	$GPGGA,011107,2510.8221,N,07916.0014,W,1,7,2.1,10,M,,M,,*50
06/01/2014	01:11:07.689	$GPGGA,011108,2510.8197,N,07916.0016,W,1,7,2.1,10,M,,M,,*53
06/01/2014	01:11:08.681	$GPGGA,011109,2510.8174,N,07916.0018,W,1,7,2.1,10,M,,M,,*51
06/01/2014	01:11:09.683	$GPGGA,011110,2510.8150,N,07916.0018,W,1,7,2.1,10,M,,M,,*5F
06/01/2014	01:11:10.705	$GPGGA,011111,2510.8127,N,07916.0019,W,1,7,2.1,10,M,,M,,*5F
06/01/2014	01:11:11.697	$GPGGA,011112,2510.8105,N,07916.0020,W,1,7,2.1,11,M,,M,,*57
06/01/2014	01:11:12.680	$GPGGA,011113,2510.8080,N,07916.0022,W,1,7,2.1,11,M,,M,,*58
06/01/2014	01:11:13.693	$GPGGA,011114,2510.8057,N,07916.0021,W,1,7,2.1,11,M,,M,,*56
06/01/2014	01:11:14.674	$GPGGA,011115,2510.8034,N,07916.0023,W,1,7,2.1,11,M,,M,,*50
06/01/2014	01:11:15.699	$GPGGA,011116,2510.8010,N,07916.0023,W,1,7,2.1,11,M,,M,,*55
06/01/2014	01:11:16.707	$GPGGA,011117,2510.7987,N,07916.0025,W,1,7,2.1,11,M,,M,,*5A
06/01/2014	01:11:17.689	$GPGGA,011118,2510.7963,N,07916.0025,W,1,7,2.1,11,M,,M,,*5F
06/01/2014	01:11:18.701	$GPGGA,011119,2510.7940,N,07916.0026,W,1,7,2.1,11,M,,M,,*5C
06/01/2014	01:11:19.693	$GPGGA,011120,2510.7916,N,07916.0027,W,1,7,2.1,11,M,,M,,*54
06/01/2014	01:11:20.705	$GPGGA,011121,2510.7893,N,07916.0027,W,1,7,2.1,11,M,,M,,*59
06/01/2014	01:11:21.687	$GPGGA,011122,2510.7869,N,07916.0029,W,1,7,2.1,11,M,,M,,*51
06/01/2014	01:11:22.719	$GPGGA,011123,2510.7846,N,07916.0028,W,1,7,2.1,11,M,,M,,*5C
06/01/2014	01:11:23.692	$GPGGA,011124,2510.7823,N,07916.0029,W,1,7,2.1,11,M,,M,,*59
06/01/2014	01:11:24.684	$GPGGA,011125,2510.7800,N,07916.0030,W,1,7,2.1,11,M,,M,,*51
06/01/2014	01:11:25.686	$GPGGA,011126,2510.7777,N,07916.0030,W,1,7,2.1,11,M,,M,,*5D
06/01/2014	01:11:26.718	$GPGGA,011127,2510.7753,N,07916.0030,W,1,7,2.1,11,M,,M,,*5A
06/01/2014	01:11:27.577	$GPGGA,011128,2510.7730,N,07916.0032,W,1,7,2.1,11,M,,M,,*52
06/01/2014	01:11:28.569	$GPGGA,011129,2510.7708,N,07916.0030,W,1,7,2.1,11,M,,M,,*5A
06/01/2014	01:11:29.581	$GPGGA,011130,2510.7683,N,07916.0030,W,1,7,2.1,11,M,,M,,*50
06/01/2014	01:11:30.573	$GPGGA,011131,2510.7661,N,07916.0030,W,1,7,2.1,11,M,,M,,*5D
06/01/2014	01:11:31.687	$GPGGA,011132,2510.7636,N,07916.0032,W,1,7,2.1,11,M,,M,,*5E
06/01/2014	01:11:32.557	$GPGGA,011133,2510.7614,N,07916.0031,W,1,7,2.1,11,M,,M,,*5C
06/01/2014	01:11:33.569	$GPGGA,011134,2510.7590,N,07916.0033,W,1,7,2.1,11,M,,M,,*56
06/01/2014	01:11:34.571	$GPGGA,011135,2510.7567,N,07916.0031,W,1,7,2.1,11,M,,M,,*5D
06/01/2014	01:11:35.583	$GPGGA,011136,2510.7544,N,07916.0032,W,1,7,2.1,11,M,,M,,*5C
06/01/2014	01:11:36.665	$GPGGA,011137,2510.7520,N,07916.0033,W,1,7,2.1,10,M,,M,,*5F
06/01/2014	01:11:37.657	$GPGGA,011138,2510.7497,N,07916.0031,W,1,7,2.1,10,M,,M,,*5F
06/01/2014	01:11:38.679	$GPGGA,011139,2510.7474,N,07916.0033,W,1,7,2.1,10,M,,M,,*51
06/01/2014	01:11:39.571	$GPGGA,011140,2510.7450,N,07916.0032,W,1,7,2.1,10,M,,M,,*58
06/01/2014	01:11:41.044	$GPGGA,011141,2510.7427,N,07916.0033,W,1,7,2.1,10,M,,M,,*58
06/01/2014	01:11:41.575	$GPGGA,011142,2510.7403,N,07916.0033,W,1,7,2.1,10,M,,M,,*5D
06/01/2014	01:11:42.658	$GPGGA,011143,2510.7380,N,07916.0033,W,1,7,2.1,10,M,,M,,*50
06/01/2014	01:11:43.589	$GPGGA,011144,2510.7356,N,07916.0032,W,1,7,2.1,10,M,,M,,*5D
06/01/2014	01:11:44.662	$GPGGA,011145,2510.7333,N,07916.0033,W,1,7,2.1,10,M,,M,,*5E
06/01/2014	01:11:45.674	$GPGGA,011146,2510.7310,N,07916.0033,W,1,7,2.1,10,M,,M,,*5C
06/01/2014	01:11:46.576	$GPGGA,011147,2510.7286,N,07916.0032,W,1,7,2.1,10,M,,M,,*52
06/01/2014	01:11:47.588	$GPGGA,011148,2510.7263,N,07916.0033,W,1,7,2.1,10,M,,M,,*57
