Software Version Number: 1	Data File Format Number: 1	Build Version Number: 1	Error Count Since VI Started: 0	Manufacturer: Raytheon	 Model Number: RayMarine 120	 S/N: 	 Cal Date: 	 Wind Direction Offset: 0.00	 Slope (M)1: 0.00	 Offset (B)1: 0.00	 Slope (M)2: 0.00	 Offset (B)2: 0.00	 Slope (M)3: 0.00	 Offset (B)3: 0.00	 Slope (M)4: 0.00	 Offset (B)4: 0.00	 Slope (M)5: 0.00	 Offset (B)5: 0.00	 Slope (M)6: 0.00	 Offset (B)6: 0.00
Computer Date	Computer Time	GGA String
06/02/2014	21:00:00.672	$GPGGA,210001,2445.1003,N,08027.0691,W,1,10,1.6,12,M,,M,,*61
06/02/2014	21:00:01.663	$GPGGA,210002,2445.0999,N,08027.0673,W,1,10,1.6,12,M,,M,,*65
06/02/2014	21:00:02.666	$GPGGA,210003,2445.0996,N,08027.0653,W,1,10,1.6,12,M,,M,,*69
06/02/2014	21:00:03.679	$GPGGA,210004,2445.0993,N,08027.0638,W,1,10,1.6,12,M,,M,,*66
06/02/2014	21:00:04.672	$GPGGA,210005,2445.0986,N,08027.0625,W,1,10,1.6,12,M,,M,,*6F
06/02/2014	21:00:05.665	$GPGGA,210006,2445.0982,N,08027.0607,W,1,10,1.6,12,M,,M,,*68
06/02/2014	21:00:06.687	$GPGGA,210007,2445.0983,N,08027.0587,W,1,10,1.6,12,M,,M,,*63
06/02/2014	21:00:07.680	$GPGGA,210008,2445.0978,N,08027.0573,W,1,10,1.6,12,M,,M,,*63
06/02/2014	21:00:08.684	$GPGGA,210009,2445.0972,N,08027.0556,W,1,10,1.6,12,M,,M,,*6F
06/02/2014	21:00:09.665	$GPGGA,210010,2445.0970,N,08027.0537,W,1,10,1.6,12,M,,M,,*62
06/02/2014	21:00:10.718	$GPGGA,210011,2445.0970,N,08027.0521,W,1,10,1.6,12,M,,M,,*64
06/02/2014	21:00:11.680	$GPGGA,210012,2445.0970,N,08027.0521,W,1,10,1.6,12,M,,M,,*67
06/02/2014	21:00:12.663	$GPGGA,210013,2445.0960,N,08027.0488,W,1,10,1.6,12,M,,M,,*65
06/02/2014	21:00:13.686	$GPGGA,210014,2445.0957,N,08027.0470,W,1,10,1.6,12,M,,M,,*61
06/02/2014	21:00:14.679	$GPGGA,210015,2445.0956,N,08027.0454,W,1,10,1.6,12,M,,M,,*67
06/02/2014	21:00:15.722	$GPGGA,210016,2445.0952,N,08027.0440,W,1,10,2.0,12,M,,M,,*60
06/02/2014	21:00:16.694	$GPGGA,210017,2445.0947,N,08027.0421,W,1,9,1.6,12,M,,M,,*5F
06/02/2014	21:00:17.667	$GPGGA,210018,2445.0945,N,08027.0403,W,1,9,1.6,12,M,,M,,*52
06/02/2014	21:00:18.670	$GPGGA,210019,2445.0943,N,08027.0388,W,1,10,1.6,12,M,,M,,*69
06/02/2014	21:00:19.733	$GPGGA,210020,2445.0941,N,08027.0373,W,1,10,1.6,12,M,,M,,*65
06/02/2014	21:00:20.676	$GPGGA,210021,2445.0938,N,08027.0355,W,1,10,1.6,12,M,,M,,*6E
06/02/2014	21:00:21.678	$GPGGA,210022,2445.0938,N,08027.0355,W,1,10,1.6,12,M,,M,,*6D
06/02/2014	21:00:22.691	$GPGGA,210023,2445.0934,N,08027.0323,W,1,10,1.6,11,M,,M,,*62
06/02/2014	21:00:23.724	$GPGGA,210024,2445.0929,N,08027.0308,W,1,10,1.6,11,M,,M,,*60
06/02/2014	21:00:24.687	$GPGGA,210025,2445.0927,N,08027.0292,W,1,10,1.6,11,M,,M,,*6D
06/02/2014	21:00:25.699	$GPGGA,210026,2445.0924,N,08027.0276,W,1,10,1.6,11,M,,M,,*67
06/02/2014	21:00:26.691	$GPGGA,210027,2445.0921,N,08027.0261,W,1,10,1.6,11,M,,M,,*65
06/02/2014	21:00:27.694	$GPGGA,210028,2445.0918,N,08027.0244,W,1,10,1.6,11,M,,M,,*67
06/02/2014	21:00:28.687	$GPGGA,210029,2445.0916,N,08027.0228,W,1,10,1.6,11,M,,M,,*62
06/02/2014	21:00:29.523	$GPGGA,210030,2445.0911,N,08027.0213,W,1,10,1.6,11,M,,M,,*65
06/02/2014	21:00:30.667	$GPGGA,210031,2445.0907,N,08027.0196,W,1,10,1.6,11,M,,M,,*6D
06/02/2014	21:00:31.518	$GPGGA,210032,2445.0907,N,08027.0196,W,1,10,1.6,12,M,,M,,*6D
06/02/2014	21:00:32.521	$GPGGA,210033,2445.0899,N,08027.0164,W,1,10,1.6,12,M,,M,,*67
06/02/2014	21:00:33.524	$GPGGA,210034,2445.0895,N,08027.0148,W,1,10,1.6,12,M,,M,,*62
06/02/2014	21:00:34.617	$GPGGA,210035,2445.0891,N,08027.0132,W,1,10,1.6,12,M,,M,,*6A
06/02/2014	21:00:35.670	$GPGGA,210036,2445.0887,N,08027.0115,W,1,10,1.6,12,M,,M,,*6B
06/02/2014	21:00:36.612	$GPGGA,210037,2445.0883,N,08027.0099,W,1,10,1.6,12,M,,M,,*6B
06/02/2014	21:00:37.621	$GPGGA,210038,2445.0880,N,08027.0082,W,1,10,1.6,12,M,,M,,*6D
06/02/2014	21:00:38.611	$GPGGA,210039,2445.0874,N,08027.0065,W,1,10,1.6,12,M,,M,,*6E
06/02/2014	21:00:39.633	$GPGGA,210040,2445.0870,N,08027.0049,W,1,10,1.6,12,M,,M,,*6A
06/02/2014	21:00:40.644	$GPGGA,210041,2445.0866,N,08027.0033,W,1,10,1.6,12,M,,M,,*61
06/02/2014	21:00:41.618	$GPGGA,210042,2445.0862,N,08027.0017,W,1,10,1.6,12,M,,M,,*60
06/02/2014	21:00:42.631	$GPGGA,210043,2445.0858,N,08027.0000,W,1,10,1.6,12,M,,M,,*6E
06/02/2014	21:00:43.635	$GPGGA,210044,2445.0853,N,08026.9982,W,1,10,1.6,12,M,,M,,*69
06/02/2014	21:00:44.664	$GPGGA,210045,2445.0849,N,08026.9966,W,1,10,1.6,12,M,,M,,*69
06/02/2014	21:00:45.631	$GPGGA,210046,2445.0844,N,08026.9951,W,1,10,1.6,12,M,,M,,*63
06/02/2014	21:00:46.653	$GPGGA,210047,2445.0838,N,08026.9933,W,1,10,1.6,12,M,,M,,*6D
06/02/2014	21:00:47.632	$GPGGA,210048,2445.0835,N,08026.9915,W,1,10,1.6,12,M,,M,,*6B
06/02/2014	21:00:48.645	$GPGGA,210049,2445.0833,N,08026.9901,W,1,10,1.6,12,M,,M,,*69
06/02/2014	21:00:49.628	$GPGGA,210050,2445.0826,N,08026.9885,W,1,10,1.6,12,M,,M,,*68
06/02/2014	21:00:50.651	$GPGGA,210051,2445.0822,N,08026.9866,W,1,10,1.6,12,M,,M,,*60
06/02/2014	21:00:51.633	$GPGGA,210052,2445.0820,N,08026.9850,W,1,10,1.6,12,M,,M,,*64
06/02/2014	21:00:52.616	$GPGGA,210053,2445.0815,N,08026.9835,W,1,10,1.6,12,M,,M,,*60
06/02/2014	21:00:53.619	$GPGGA,210054,2445.0811,N,08026.9818,W,1,10,1.6,12,M,,M,,*6C
06/02/2014	21:00:54.652	$GPGGA,210055,2445.0806,N,08026.9801,W,1,10,1.6,12,M,,M,,*63
06/02/2014	21:00:55.645	$GPGGA,210056,2445.0804,N,08026.9784,W,1,10,1.6,12,M,,M,,*60
06/02/2014	21:00:56.617	$GPGGA,210057,2445.0799,N,08026.9768,W,1,10,1.6,12,M,,M,,*68
06/02/2014	21:00:57.630	$GPGGA,210058,2445.0794,N,08026.9751,W,1,10,1.6,12,M,,M,,*60
06/02/2014	21:00:58.613	$GPGGA,210059,2445.0791,N,08026.9733,W,1,10,1.6,12,M,,M,,*60
06/02/2014	21:00:59.656	$GPGGA,210100,2445.0788,N,08026.9715,W,1,10,1.6,12,M,,M,,*61
06/02/2014	21:01:00.658	$GPGGA,210101,2445.0782,N,08026.9698,W,1,10,1.6,12,M,,M,,*6E
06/02/2014	21:01:01.620	$GPGGA,210102,2445.0779,N,08026.9684,W,1,10,1.6,12,M,,M,,*64
06/02/2014	21:01:02.623	$GPGGA,210103,2445.0777,N,08026.9667,W,1,10,1.6,12,M,,M,,*66
06/02/2014	21:01:03.656	$GPGGA,210104,2445.0773,N,08026.9648,W,1,10,1.6,12,M,,M,,*68
06/02/2014	21:01:04.669	$GPGGA,210105,2445.0768,N,08026.9634,W,1,10,1.6,12,M,,M,,*68
06/02/2014	21:01:05.642	$GPGGA,210106,2445.0764,N,08026.9618,W,1,10,1.6,12,M,,M,,*69
06/02/2014	21:01:06.644	$GPGGA,210107,2445.0761,N,08026.9599,W,1,10,1.6,12,M,,M,,*67
06/02/2014	21:01:07.647	$GPGGA,210108,2445.0758,N,08026.9583,W,1,10,1.6,12,M,,M,,*69
06/02/2014	21:01:08.640	$GPGGA,210109,2445.0753,N,08026.9568,W,1,10,1.6,12,M,,M,,*66
06/02/2014	21:01:09.633	$GPGGA,210110,2445.0750,N,08026.9550,W,1,10,1.6,12,M,,M,,*66
06/02/2014	21:01:10.646	$GPGGA,210111,2445.0748,N,08026.9533,W,1,10,1.6,12,M,,M,,*6B
06/02/2014	21:01:11.759	$GPGGA,210112,2445.0744,N,08026.9518,W,1,10,1.6,12,M,,M,,*6D
06/02/2014	21:01:12.651	$GPGGA,210113,2445.0739,N,08026.9500,W,1,10,1.6,12,M,,M,,*6F
06/02/2014	21:01:13.644	$GPGGA,210114,2445.0736,N,08026.9484,W,1,10,1.6,12,M,,M,,*6A
06/02/2014	21:01:14.657	$GPGGA,210115,2445.0733,N,08026.9470,W,1,10,1.6,12,M,,M,,*65
06/02/2014	21:01:15.660	$GPGGA,210116,2445.0730,N,08026.9452,W,1,10,1.6,12,M,,M,,*65
06/02/2014	21:01:16.743	$GPGGA,210117,2445.0728,N,08026.9435,W,1,10,1.6,12,M,,M,,*6C
06/02/2014	21:01:17.655	$GPGGA,210118,2445.0724,N,08026.9421,W,1,10,1.6,12,M,,M,,*6A
06/02/2014	21:01:18.737	$GPGGA,210119,2445.0719,N,08026.9405,W,1,10,1.6,12,M,,M,,*63
06/02/2014	21:01:19.670	$GPGGA,210120,2445.0717,N,08026.9388,W,1,10,2.0,12,M,,M,,*60
06/02/2014	21:01:20.735	$GPGGA,210121,2445.0714,N,08026.9371,W,1,10,1.6,12,M,,M,,*61
06/02/2014	21:01:21.735	$GPGGA,210122,2445.0710,N,08026.9354,W,1,10,1.6,12,M,,M,,*61
06/02/2014	21:01:22.738	$GPGGA,210123,2445.0706,N,08026.9338,W,1,10,1.6,12,M,,M,,*6D
06/02/2014	21:01:23.661	$GPGGA,210124,2445.0704,N,08026.9323,W,1,10,1.6,12,M,,M,,*62
06/02/2014	21:01:24.746	$GPGGA,210125,2445.0703,N,08026.9304,W,1,9,1.7,12,M,,M,,*58
06/02/2014	21:01:25.737	$GPGGA,210126,2445.0699,N,08026.9285,W,1,9,1.6,12,M,,M,,*50
06/02/2014	21:01:26.760	$GPGGA,210127,2445.0696,N,08026.9267,W,1,10,1.6,12,M,,M,,*6A
06/02/2014	21:01:27.762	$GPGGA,210128,2445.0693,N,08026.9250,W,1,10,1.6,12,M,,M,,*64
06/02/2014	21:01:28.755	$GPGGA,210129,2445.0690,N,08026.9234,W,1,10,1.6,12,M,,M,,*64
06/02/2014	21:01:29.601	$GPGGA,210130,2445.0686,N,08026.9217,W,1,10,1.6,12,M,,M,,*6A
06/02/2014	21:01:30.593	$GPGGA,210131,2445.0682,N,08026.9197,W,1,9,2.0,12,M,,M,,*59
06/02/2014	21:01:31.603	$GPGGA,210132,2445.0681,N,08026.9181,W,1,9,1.6,12,M,,M,,*5B
06/02/2014	21:01:32.580	$GPGGA,210133,2445.0678,N,08026.9165,W,1,10,1.6,12,M,,M,,*6E
06/02/2014	21:01:33.573	$GPGGA,210134,2445.0674,N,08026.9149,W,1,10,2.0,12,M,,M,,*6E
06/02/2014	21:01:34.615	$GPGGA,210135,2445.0671,N,08026.9131,W,1,10,1.6,12,M,,M,,*60
06/02/2014	21:01:35.600	$GPGGA,210136,2445.0668,N,08026.9116,W,1,10,2.0,12,M,,M,,*6B
06/02/2014	21:01:36.632	$GPGGA,210137,2445.0665,N,08026.9099,W,1,10,1.6,12,M,,M,,*64
06/02/2014	21:01:37.573	$GPGGA,210138,2445.0663,N,08026.9081,W,1,10,1.6,13,M,,M,,*65
06/02/2014	21:01:38.576	$GPGGA,210139,2445.0658,N,08026.9064,W,1,10,1.6,13,M,,M,,*67
06/02/2014	21:01:39.611	$GPGGA,210140,2445.0654,N,08026.9047,W,1,10,1.6,13,M,,M,,*64
06/02/2014	21:01:40.582	$GPGGA,210141,2445.0652,N,08026.9032,W,1,9,2.0,13,M,,M,,*5C
06/02/2014	21:01:41.584	$GPGGA,210142,2445.0648,N,08026.9014,W,1,9,1.6,13,M,,M,,*55
06/02/2014	21:01:42.597	$GPGGA,210143,2445.0645,N,08026.8999,W,1,10,1.6,13,M,,M,,*6C
06/02/2014	21:01:43.600	$GPGGA,210144,2445.0640,N,08026.8984,W,1,10,1.6,13,M,,M,,*62
06/02/2014	21:01:44.583	$GPGGA,210145,2445.0638,N,08026.8965,W,1,10,1.6,13,M,,M,,*63
06/02/2014	21:01:45.596	$GPGGA,210146,2445.0634,N,08026.8948,W,1,10,1.6,13,M,,M,,*63
06/02/2014	21:01:46.588	$GPGGA,210147,2445.0629,N,08026.8935,W,1,10,1.6,14,M,,M,,*63
06/02/2014	21:01:47.601	$GPGGA,210148,2445.0627,N,08026.8920,W,1,10,1.6,14,M,,M,,*66
06/02/2014	21:01:48.624	$GPGGA,210149,2445.0623,N,08026.8902,W,1,10,1.6,14,M,,M,,*63
06/02/2014	21:01:49.587	$GPGGA,210150,2445.0620,N,08026.8886,W,1,10,1.6,14,M,,M,,*65
06/02/2014	21:01:50.600	$GPGGA,210151,2445.0614,N,08026.8872,W,1,10,1.6,14,M,,M,,*68
06/02/2014	21:01:51.602	$GPGGA,210152,2445.0610,N,08026.8856,W,1,10,1.6,14,M,,M,,*69
06/02/2014	21:01:52.605	$GPGGA,210153,2445.0607,N,08026.8838,W,1,10,1.6,14,M,,M,,*66
06/02/2014	21:01:53.587	$GPGGA,210154,2445.0602,N,08026.8822,W,1,10,1.6,14,M,,M,,*6F
06/02/2014	21:01:54.610	$GPGGA,210155,2445.0598,N,08026.8810,W,1,10,1.6,14,M,,M,,*6F
06/02/2014	21:01:55.613	$GPGGA,210156,2445.0594,N,08026.8795,W,1,10,1.6,14,M,,M,,*62
06/02/2014	21:01:56.615	$GPGGA,210157,2445.0591,N,08026.8777,W,1,10,1.6,14,M,,M,,*6A
06/02/2014	21:01:57.608	$GPGGA,210158,2445.0585,N,08026.8762,W,1,10,1.6,14,M,,M,,*64
06/02/2014	21:01:58.591	$GPGGA,210159,2445.0580,N,08026.8750,W,1,10,1.6,14,M,,M,,*61
06/02/2014	21:01:59.644	$GPGGA,210200,2445.0574,N,08026.8734,W,1,10,1.6,14,M,,M,,*67
06/02/2014	21:02:00.617	$GPGGA,210201,2445.0571,N,08026.8719,W,1,10,1.6,14,M,,M,,*6C
06/02/2014	21:02:01.609	$GPGGA,210202,2445.0569,N,08026.8704,W,1,10,1.6,14,M,,M,,*6A
06/02/2014	21:02:02.612	$GPGGA,210203,2445.0563,N,08026.8689,W,1,10,1.6,14,M,,M,,*65
06/02/2014	21:02:03.735	$GPGGA,210204,2445.0558,N,08026.8674,W,1,10,1.6,14,M,,M,,*68
06/02/2014	21:02:04.738	$GPGGA,210205,2445.0555,N,08026.8659,W,1,10,1.6,14,M,,M,,*6B
06/02/2014	21:02:05.701	$GPGGA,210206,2445.0549,N,08026.8642,W,1,10,1.6,14,M,,M,,*6F
06/02/2014	21:02:06.704	$GPGGA,210207,2445.0544,N,08026.8626,W,1,10,1.6,14,M,,M,,*61
06/02/2014	21:02:07.708	$GPGGA,210208,2445.0540,N,08026.8610,W,1,10,1.6,14,M,,M,,*6F
06/02/2014	21:02:08.619	$GPGGA,210209,2445.0535,N,08026.8595,W,1,10,1.6,14,M,,M,,*62
06/02/2014	21:02:09.696	$GPGGA,210210,2445.0533,N,08026.8579,W,1,10,1.6,14,M,,M,,*6E
06/02/2014	21:02:10.603	$GPGGA,210211,2445.0528,N,08026.8562,W,1,10,1.6,14,M,,M,,*6F
06/02/2014	21:02:11.720	$GPGGA,210212,2445.0524,N,08026.8545,W,1,10,1.6,14,M,,M,,*65
06/02/2014	21:02:12.729	$GPGGA,210213,2445.0519,N,08026.8528,W,1,10,1.6,14,M,,M,,*61
06/02/2014	21:02:13.719	$GPGGA,210214,2445.0515,N,08026.8512,W,1,10,1.6,14,M,,M,,*63
06/02/2014	21:02:14.745	$GPGGA,210215,2445.0511,N,08026.8497,W,1,10,1.6,14,M,,M,,*6A
06/02/2014	21:02:15.726	$GPGGA,210216,2445.0508,N,08026.8479,W,1,10,1.6,14,M,,M,,*61
06/02/2014	21:02:16.734	$GPGGA,210217,2445.0504,N,08026.8462,W,1,10,1.6,14,M,,M,,*66
06/02/2014	21:02:17.719	$GPGGA,210218,2445.0499,N,08026.8446,W,1,10,1.6,14,M,,M,,*6A
06/02/2014	21:02:18.706	$GPGGA,210219,2445.0497,N,08026.8428,W,1,10,1.6,14,M,,M,,*6D
06/02/2014	21:02:19.739	$GPGGA,210220,2445.0493,N,08026.8409,W,1,10,1.6,14,M,,M,,*60
06/02/2014	21:02:20.712	$GPGGA,210221,2445.0488,N,08026.8393,W,1,10,1.6,14,M,,M,,*6F
06/02/2014	21:02:21.714	$GPGGA,210222,2445.0486,N,08026.8375,W,1,10,1.6,14,M,,M,,*6A
06/02/2014	21:02:22.732	$GPGGA,210223,2445.0482,N,08026.8358,W,1,10,1.6,14,M,,M,,*60
06/02/2014	21:02:23.720	$GPGGA,210224,2445.0479,N,08026.8343,W,1,10,1.6,14,M,,M,,*69
06/02/2014	21:02:24.703	$GPGGA,210225,2445.0475,N,08026.8325,W,1,10,1.6,14,M,,M,,*64
06/02/2014	21:02:25.716	$GPGGA,210226,2445.0470,N,08026.8307,W,1,10,1.6,14,M,,M,,*62
06/02/2014	21:02:26.708	$GPGGA,210227,2445.0468,N,08026.8291,W,1,10,1.6,13,M,,M,,*63
06/02/2014	21:02:27.722	$GPGGA,210228,2445.0463,N,08026.8274,W,1,10,1.6,13,M,,M,,*6C
06/02/2014	21:02:28.713	$GPGGA,210229,2445.0461,N,08026.8254,W,1,10,1.6,13,M,,M,,*6D
06/02/2014	21:02:29.549	$GPGGA,210230,2445.0459,N,08026.8239,W,1,10,1.6,13,M,,M,,*65
06/02/2014	21:02:30.542	$GPGGA,210231,2445.0454,N,08026.8223,W,1,10,1.6,13,M,,M,,*62
06/02/2014	21:02:31.564	$GPGGA,210232,2445.0450,N,08026.8206,W,1,10,2.0,13,M,,M,,*67
06/02/2014	21:02:32.567	$GPGGA,210233,2445.0447,N,08026.8190,W,1,10,1.6,13,M,,M,,*69
06/02/2014	21:02:33.550	$GPGGA,210234,2445.0444,N,08026.8173,W,1,10,1.6,13,M,,M,,*60
06/02/2014	21:02:34.583	$GPGGA,210235,2445.0439,N,08026.8159,W,1,10,1.6,13,M,,M,,*63
06/02/2014	21:02:35.566	$GPGGA,210236,2445.0439,N,08026.8142,W,1,10,2.0,13,M,,M,,*6F
06/02/2014	21:02:36.548	$GPGGA,210237,2445.0437,N,08026.8122,W,1,10,1.6,13,M,,M,,*63
06/02/2014	21:02:37.561	$GPGGA,210238,2445.0433,N,08026.8107,W,1,10,1.6,13,M,,M,,*6F
06/02/2014	21:02:38.574	$GPGGA,210239,2445.0428,N,08026.8092,W,1,9,2.0,13,M,,M,,*54
06/02/2014	21:02:39.567	$GPGGA,210240,2445.0426,N,08026.8073,W,1,9,1.6,13,M,,M,,*5E
06/02/2014	21:02:40.549	$GPGGA,210241,2445.0424,N,08026.8055,W,1,10,1.6,13,M,,M,,*61
06/02/2014	21:02:41.562	$GPGGA,210242,2445.0419,N,08026.8043,W,1,10,1.8,13,M,,M,,*65
06/02/2014	21:02:42.585	$GPGGA,210243,2445.0417,N,08026.8029,W,1,9,1.8,13,M,,M,,*5E
06/02/2014	21:02:43.578	$GPGGA,210244,2445.0415,N,08026.8009,W,1,9,1.6,13,M,,M,,*57
06/02/2014	21:02:44.571	$GPGGA,210245,2445.0414,N,08026.7994,W,1,10,1.6,13,M,,M,,*6D
06/02/2014	21:02:45.562	$GPGGA,210246,2445.0410,N,08026.7981,W,1,10,1.6,13,M,,M,,*6E
06/02/2014	21:02:46.676	$GPGGA,210247,2445.0406,N,08026.7963,W,1,9,1.9,13,M,,M,,*53
06/02/2014	21:02:47.568	$GPGGA,210248,2445.0405,N,08026.7945,W,1,9,1.6,13,M,,M,,*54
06/02/2014	21:02:48.651	$GPGGA,210249,2445.0404,N,08026.7931,W,1,10,1.6,13,M,,M,,*6F
06/02/2014	21:02:49.564	$GPGGA,210250,2445.0399,N,08026.7918,W,1,10,1.6,13,M,,M,,*6F
06/02/2014	21:02:50.697	$GPGGA,210251,2445.0397,N,08026.7901,W,1,10,1.6,13,M,,M,,*68
06/02/2014	21:02:51.599	$GPGGA,210252,2445.0396,N,08026.7884,W,1,10,1.6,13,M,,M,,*66
06/02/2014	21:02:52.692	$GPGGA,210253,2445.0396,N,08026.7869,W,1,10,1.6,13,M,,M,,*64
06/02/2014	21:02:53.575	$GPGGA,210254,2445.0392,N,08026.7856,W,1,10,1.6,14,M,,M,,*6C
06/02/2014	21:02:54.718	$GPGGA,210255,2445.0389,N,08026.7840,W,1,10,1.6,14,M,,M,,*60
06/02/2014	21:02:55.711	$GPGGA,210256,2445.0388,N,08026.7823,W,1,10,1.6,14,M,,M,,*67
06/02/2014	21:02:56.573	$GPGGA,210257,2445.0387,N,08026.7811,W,1,10,1.6,14,M,,M,,*68
06/02/2014	21:02:57.666	$GPGGA,210258,2445.0385,N,08026.7797,W,1,10,1.6,14,M,,M,,*64
06/02/2014	21:02:58.698	$GPGGA,210259,2445.0381,N,08026.7781,W,1,10,1.6,14,M,,M,,*66
06/02/2014	21:02:59.701	$GPGGA,210300,2445.0378,N,08026.7765,W,1,10,1.6,14,M,,M,,*67
06/02/2014	21:03:00.673	$GPGGA,210301,2445.0376,N,08026.7751,W,1,10,1.6,14,M,,M,,*6F
06/02/2014	21:03:01.671	$GPGGA,210302,2445.0372,N,08026.7738,W,1,10,1.6,14,M,,M,,*67
06/02/2014	21:03:02.688	$GPGGA,210303,2445.0369,N,08026.7722,W,1,10,1.6,14,M,,M,,*67
06/02/2014	21:03:03.680	$GPGGA,210304,2445.0367,N,08026.7704,W,1,10,1.6,14,M,,M,,*6A
06/02/2014	21:03:04.723	$GPGGA,210305,2445.0364,N,08026.7690,W,1,9,1.7,14,M,,M,,*5D
06/02/2014	21:03:05.655	$GPGGA,210306,2445.0363,N,08026.7677,W,1,9,1.6,14,M,,M,,*51
06/02/2014	21:03:06.698	$GPGGA,210307,2445.0360,N,08026.7660,W,1,10,1.6,14,M,,M,,*6D
06/02/2014	21:03:07.694	$GPGGA,210308,2445.0357,N,08026.7642,W,1,10,1.6,14,M,,M,,*66
06/02/2014	21:03:08.687	$GPGGA,210309,2445.0356,N,08026.7629,W,1,10,1.6,14,M,,M,,*6B
06/02/2014	21:03:09.666	$GPGGA,210310,2445.0354,N,08026.7617,W,1,10,1.6,15,M,,M,,*6D
06/02/2014	21:03:10.678	$GPGGA,210311,2445.0351,N,08026.7599,W,1,10,1.6,15,M,,M,,*6C
06/02/2014	21:03:11.695	$GPGGA,210312,2445.0349,N,08026.7584,W,1,10,1.6,15,M,,M,,*6A
06/02/2014	21:03:12.699	$GPGGA,210313,2445.0346,N,08026.7571,W,1,10,1.6,15,M,,M,,*6E
06/02/2014	21:03:13.676	$GPGGA,210314,2445.0343,N,08026.7556,W,1,10,1.6,15,M,,M,,*69
06/02/2014	21:03:14.701	$GPGGA,210315,2445.0342,N,08026.7540,W,1,10,1.6,15,M,,M,,*6E
06/02/2014	21:03:15.691	$GPGGA,210316,2445.0338,N,08026.7525,W,1,10,1.6,15,M,,M,,*63
06/02/2014	21:03:16.718	$GPGGA,210317,2445.0335,N,08026.7511,W,1,10,1.6,15,M,,M,,*68
06/02/2014	21:03:17.677	$GPGGA,210318,2445.0331,N,08026.7494,W,1,10,1.6,15,M,,M,,*6F
06/02/2014	21:03:18.709	$GPGGA,210319,2445.0327,N,08026.7478,W,1,10,1.6,15,M,,M,,*6B
06/02/2014	21:03:19.702	$GPGGA,210320,2445.0324,N,08026.7466,W,1,10,1.6,15,M,,M,,*6D
06/02/2014	21:03:20.673	$GPGGA,210321,2445.0321,N,08026.7450,W,1,10,1.6,15,M,,M,,*6C
06/02/2014	21:03:21.686	$GPGGA,210322,2445.0318,N,08026.7433,W,1,10,1.6,15,M,,M,,*60
06/02/2014	21:03:22.709	$GPGGA,210323,2445.0314,N,08026.7419,W,1,10,1.6,16,M,,M,,*66
06/02/2014	21:03:23.701	$GPGGA,210324,2445.0310,N,08026.7404,W,1,10,1.6,16,M,,M,,*69
06/02/2014	21:03:24.736	$GPGGA,210325,2445.0307,N,08026.7389,W,1,10,1.6,16,M,,M,,*6C
06/02/2014	21:03:25.686	$GPGGA,210326,2445.0304,N,08026.7373,W,1,10,1.6,16,M,,M,,*69
06/02/2014	21:03:26.709	$GPGGA,210327,2445.0300,N,08026.7356,W,1,10,1.6,16,M,,M,,*6B
06/02/2014	21:03:27.702	$GPGGA,210328,2445.0296,N,08026.7341,W,1,10,1.6,16,M,,M,,*6C
06/02/2014	21:03:28.724	$GPGGA,210329,2445.0291,N,08026.7328,W,1,10,1.6,16,M,,M,,*65
06/02/2014	21:03:29.518	$GPGGA,210330,2445.0287,N,08026.7313,W,1,10,1.6,16,M,,M,,*62
06/02/2014	21:03:30.570	$GPGGA,210331,2445.0284,N,08026.7293,W,1,10,1.6,16,M,,M,,*69
06/02/2014	21:03:31.533	$GPGGA,210332,2445.0280,N,08026.7278,W,1,10,1.6,16,M,,M,,*6B
06/02/2014	21:03:32.555	$GPGGA,210333,2445.0275,N,08026.7267,W,1,10,1.6,16,M,,M,,*6E
06/02/2014	21:03:33.528	$GPGGA,210334,2445.0273,N,08026.7250,W,1,10,1.6,16,M,,M,,*6B
06/02/2014	21:03:34.631	$GPGGA,210335,2445.0269,N,08026.7234,W,1,10,1.6,15,M,,M,,*60
06/02/2014	21:03:35.543	$GPGGA,210336,2445.0266,N,08026.7220,W,1,10,1.6,15,M,,M,,*69
06/02/2014	21:03:36.516	$GPGGA,210337,2445.0260,N,08026.7203,W,1,10,1.6,15,M,,M,,*6F
06/02/2014	21:03:37.618	$GPGGA,210338,2445.0258,N,08026.7187,W,1,10,1.6,15,M,,M,,*64
06/02/2014	21:03:38.530	$GPGGA,210339,2445.0256,N,08026.7173,W,1,10,1.6,15,M,,M,,*60
06/02/2014	21:03:39.663	$GPGGA,210340,2445.0251,N,08026.7157,W,1,10,1.6,15,M,,M,,*6F
06/02/2014	21:03:40.635	$GPGGA,210341,2445.0246,N,08026.7142,W,1,10,1.6,15,M,,M,,*6C
06/02/2014	21:03:41.628	$GPGGA,210342,2445.0244,N,08026.7125,W,1,10,1.6,15,M,,M,,*6C
06/02/2014	21:03:42.540	$GPGGA,210343,2445.0241,N,08026.7107,W,1,10,1.6,15,M,,M,,*68
06/02/2014	21:03:43.673	$GPGGA,210344,2445.0237,N,08026.7093,W,1,10,1.6,15,M,,M,,*62
06/02/2014	21:03:44.656	$GPGGA,210345,2445.0234,N,08026.7077,W,1,10,1.9,15,M,,M,,*65
06/02/2014	21:03:45.528	$GPGGA,210346,2445.0231,N,08026.7059,W,1,10,1.9,15,M,,M,,*6F
06/02/2014	21:03:46.651	$GPGGA,210347,2445.0227,N,08026.7042,W,1,10,1.6,15,M,,M,,*6C
06/02/2014	21:03:47.644	$GPGGA,210348,2445.0224,N,08026.7026,W,1,10,1.9,15,M,,M,,*6D
06/02/2014	21:03:48.638	$GPGGA,210349,2445.0221,N,08026.7010,W,1,9,1.9,15,M,,M,,*54
06/02/2014	21:03:49.659	$GPGGA,210350,2445.0219,N,08026.6992,W,1,9,1.9,15,M,,M,,*55
06/02/2014	21:03:50.641	$GPGGA,210351,2445.0215,N,08026.6975,W,1,9,1.9,15,M,,M,,*51
06/02/2014	21:03:51.664	$GPGGA,210352,2445.0211,N,08026.6958,W,1,9,1.9,15,M,,M,,*59
06/02/2014	21:03:52.657	$GPGGA,210353,2445.0208,N,08026.6941,W,1,9,1.6,15,M,,M,,*57
06/02/2014	21:03:53.644	$GPGGA,210354,2445.0206,N,08026.6925,W,1,9,1.6,15,M,,M,,*5C
06/02/2014	21:03:54.655	$GPGGA,210355,2445.0202,N,08026.6906,W,1,10,1.9,15,M,,M,,*6F
06/02/2014	21:03:55.654	$GPGGA,210356,2445.0198,N,08026.6887,W,1,10,1.9,15,M,,M,,*64
06/02/2014	21:03:56.648	$GPGGA,210357,2445.0197,N,08026.6871,W,1,9,1.9,15,M,,M,,*5B
06/02/2014	21:03:57.639	$GPGGA,210358,2445.0194,N,08026.6857,W,1,9,1.6,15,M,,M,,*5C
06/02/2014	21:03:58.631	$GPGGA,210359,2445.0190,N,08026.6840,W,1,10,1.6,15,M,,M,,*67
06/02/2014	21:03:59.669	$GPGGA,210400,2445.0186,N,08026.6822,W,1,10,1.6,15,M,,M,,*6F
06/02/2014	21:04:00.636	$GPGGA,210401,2445.0181,N,08026.6808,W,1,10,1.6,15,M,,M,,*61
06/02/2014	21:04:01.639	$GPGGA,210402,2445.0179,N,08026.6792,W,1,10,1.6,15,M,,M,,*69
06/02/2014	21:04:02.631	$GPGGA,210403,2445.0176,N,08026.6774,W,1,10,1.6,15,M,,M,,*6F
06/02/2014	21:04:03.654	$GPGGA,210404,2445.0172,N,08026.6758,W,1,10,1.6,15,M,,M,,*62
06/02/2014	21:04:04.687	$GPGGA,210405,2445.0169,N,08026.6743,W,1,10,1.6,15,M,,M,,*63
06/02/2014	21:04:05.639	$GPGGA,210406,2445.0165,N,08026.6727,W,1,10,1.6,15,M,,M,,*6E
06/02/2014	21:04:06.642	$GPGGA,210407,2445.0163,N,08026.6710,W,1,10,1.6,15,M,,M,,*6D
06/02/2014	21:04:07.644	$GPGGA,210408,2445.0161,N,08026.6691,W,1,10,1.6,15,M,,M,,*68
06/02/2014	21:04:08.667	$GPGGA,210409,2445.0154,N,08026.6675,W,1,10,1.6,15,M,,M,,*65
06/02/2014	21:04:09.650	$GPGGA,210410,2445.0151,N,08026.6663,W,1,10,1.6,15,M,,M,,*6F
06/02/2014	21:04:10.642	$GPGGA,210411,2445.0150,N,08026.6648,W,1,10,1.6,15,M,,M,,*66
06/02/2014	21:04:11.665	$GPGGA,210412,2445.0146,N,08026.6631,W,1,10,1.6,15,M,,M,,*6C
06/02/2014	21:04:12.667	$GPGGA,210413,2445.0143,N,08026.6615,W,1,10,1.6,15,M,,M,,*6E
06/02/2014	21:04:13.649	$GPGGA,210414,2445.0139,N,08026.6601,W,1,10,1.6,15,M,,M,,*61
06/02/2014	21:04:14.632	$GPGGA,210415,2445.0135,N,08026.6585,W,1,10,1.6,15,M,,M,,*63
06/02/2014	21:04:15.664	$GPGGA,210416,2445.0132,N,08026.6571,W,1,10,1.6,15,M,,M,,*6C
06/02/2014	21:04:16.667	$GPGGA,210417,2445.0128,N,08026.6556,W,1,10,1.6,15,M,,M,,*63
06/02/2014	21:04:17.639	$GPGGA,210418,2445.0125,N,08026.6539,W,1,10,1.6,15,M,,M,,*68
06/02/2014	21:04:18.642	$GPGGA,210419,2445.0122,N,08026.6524,W,1,10,1.6,15,M,,M,,*62
06/02/2014	21:04:19.705	$GPGGA,210420,2445.0118,N,08026.6509,W,1,10,1.6,15,M,,M,,*6E
06/02/2014	21:04:20.768	$GPGGA,210421,2445.0112,N,08026.6494,W,1,10,1.6,15,M,,M,,*60
06/02/2014	21:04:21.650	$GPGGA,210422,2445.0109,N,08026.6479,W,1,10,1.6,15,M,,M,,*6A
06/02/2014	21:04:22.763	$GPGGA,210423,2445.0107,N,08026.6462,W,1,10,1.6,15,M,,M,,*6F
06/02/2014	21:04:23.676	$GPGGA,210424,2445.0104,N,08026.6446,W,1,10,1.6,15,M,,M,,*6D
06/02/2014	21:04:24.678	$GPGGA,210425,2445.0100,N,08026.6433,W,1,10,1.6,15,M,,M,,*6A
06/02/2014	21:04:25.670	$GPGGA,210426,2445.0096,N,08026.6418,W,1,10,1.6,15,M,,M,,*6E
06/02/2014	21:04:26.763	$GPGGA,210427,2445.0094,N,08026.6399,W,1,10,1.6,15,M,,M,,*63
06/02/2014	21:04:27.675	$GPGGA,210428,2445.0092,N,08026.6381,W,1,10,1.6,14,M,,M,,*62
06/02/2014	21:04:28.758	$GPGGA,210429,2445.0086,N,08026.6369,W,1,10,1.6,14,M,,M,,*60
06/02/2014	21:04:29.516	$GPGGA,210430,2445.0083,N,08026.6356,W,1,10,1.6,14,M,,M,,*61
06/02/2014	21:04:30.507	$GPGGA,210431,2445.0081,N,08026.6339,W,1,10,1.6,14,M,,M,,*6B
06/02/2014	21:04:31.600	$GPGGA,210432,2445.0078,N,08026.6322,W,1,10,1.6,14,M,,M,,*64
06/02/2014	21:04:32.603	$GPGGA,210433,2445.0075,N,08026.6310,W,1,10,1.9,14,M,,M,,*66
06/02/2014	21:04:33.505	$GPGGA,210434,2445.0072,N,08026.6296,W,1,10,1.9,14,M,,M,,*69
06/02/2014	21:04:34.608	$GPGGA,210435,2445.0069,N,08026.6279,W,1,9,1.9,14,M,,M,,*5B
06/02/2014	21:04:35.610	$GPGGA,210436,2445.0067,N,08026.6264,W,1,9,1.6,14,M,,M,,*55
06/02/2014	21:04:36.606	$GPGGA,210437,2445.0064,N,08026.6253,W,1,10,1.6,14,M,,M,,*6B
06/02/2014	21:04:37.596	$GPGGA,210438,2445.0061,N,08026.6242,W,1,10,1.6,14,M,,M,,*61
06/02/2014	21:04:38.601	$GPGGA,210439,2445.0058,N,08026.6225,W,1,10,1.6,14,M,,M,,*6B
06/02/2014	21:04:39.621	$GPGGA,210440,2445.0054,N,08026.6210,W,1,10,1.6,14,M,,M,,*6F
06/02/2014	21:04:40.593	$GPGGA,210441,2445.0052,N,08026.6198,W,1,10,1.6,14,M,,M,,*6B
06/02/2014	21:04:41.608	$GPGGA,210442,2445.0049,N,08026.6184,W,1,10,1.6,14,M,,M,,*6F
06/02/2014	21:04:42.619	$GPGGA,210443,2445.0049,N,08026.6170,W,1,9,1.8,14,M,,M,,*53
06/02/2014	21:04:43.611	$GPGGA,210444,2445.0049,N,08026.6155,W,1,9,1.6,14,M,,M,,*5D
06/02/2014	21:04:44.624	$GPGGA,210445,2445.0045,N,08026.6139,W,1,10,1.6,14,M,,M,,*62
06/02/2014	21:04:45.596	$GPGGA,210446,2445.0043,N,08026.6124,W,1,10,1.9,14,M,,M,,*64
06/02/2014	21:04:46.589	$GPGGA,210447,2445.0040,N,08026.6110,W,1,9,1.9,14,M,,M,,*59
06/02/2014	21:04:47.600	$GPGGA,210448,2445.0036,N,08026.6094,W,1,9,1.9,14,M,,M,,*5A
06/02/2014	21:04:48.603	$GPGGA,210449,2445.0033,N,08026.6080,W,1,10,1.6,14,M,,M,,*6C
06/02/2014	21:04:49.606	$GPGGA,210450,2445.0031,N,08026.6066,W,1,10,1.6,14,M,,M,,*6E
06/02/2014	21:04:50.608	$GPGGA,210451,2445.0028,N,08026.6050,W,1,10,1.6,14,M,,M,,*62
06/02/2014	21:04:51.631	$GPGGA,210452,2445.0027,N,08026.6033,W,1,10,1.6,14,M,,M,,*6B
06/02/2014	21:04:52.593	$GPGGA,210453,2445.0023,N,08026.6015,W,1,9,1.9,14,M,,M,,*5D
06/02/2014	21:04:53.606	$GPGGA,210454,2445.0022,N,08026.5997,W,1,9,1.9,14,M,,M,,*5B
06/02/2014	21:04:54.639	$GPGGA,210455,2445.0018,N,08026.5982,W,1,10,1.6,14,M,,M,,*60
06/02/2014	21:04:55.621	$GPGGA,210456,2445.0014,N,08026.5967,W,1,10,1.6,15,M,,M,,*65
06/02/2014	21:04:56.634	$GPGGA,210457,2445.0013,N,08026.5950,W,1,10,1.6,15,M,,M,,*67
06/02/2014	21:04:57.616	$GPGGA,210458,2445.0010,N,08026.5934,W,1,10,1.6,15,M,,M,,*69
06/02/2014	21:04:58.599	$GPGGA,210459,2445.0007,N,08026.5920,W,1,9,1.9,15,M,,M,,*5C
06/02/2014	21:04:59.642	$GPGGA,210500,2445.0003,N,08026.5901,W,1,9,1.6,15,M,,M,,*59
06/02/2014	21:05:00.604	$GPGGA,210501,2445.0002,N,08026.5883,W,1,10,1.6,15,M,,M,,*6A
06/02/2014	21:05:01.617	$GPGGA,210502,2444.9999,N,08026.5866,W,1,10,1.6,15,M,,M,,*61
06/02/2014	21:05:02.619	$GPGGA,210503,2444.9995,N,08026.5850,W,1,10,1.6,15,M,,M,,*69
06/02/2014	21:05:03.632	$GPGGA,210504,2444.9989,N,08026.5836,W,1,10,1.9,15,M,,M,,*6C
06/02/2014	21:05:04.735	$GPGGA,210505,2444.9987,N,08026.5819,W,1,10,1.6,15,M,,M,,*61
06/02/2014	21:05:05.616	$GPGGA,210506,2444.9985,N,08026.5801,W,1,10,1.6,15,M,,M,,*69
06/02/2014	21:05:06.599	$GPGGA,210507,2444.9981,N,08026.5784,W,1,10,1.6,15,M,,M,,*6E
06/02/2014	21:05:07.631	$GPGGA,210508,2444.9977,N,08026.5767,W,1,10,1.6,15,M,,M,,*65
06/02/2014	21:05:08.624	$GPGGA,210509,2444.9974,N,08026.5750,W,1,9,1.9,15,M,,M,,*54
06/02/2014	21:05:09.607	$GPGGA,210510,2444.9973,N,08026.5733,W,1,9,1.9,15,M,,M,,*5E
06/02/2014	21:05:10.609	$GPGGA,210511,2444.9968,N,08026.5715,W,1,10,1.6,15,M,,M,,*66
06/02/2014	21:05:11.742	$GPGGA,210512,2444.9964,N,08026.5699,W,1,10,1.6,15,M,,M,,*6C
06/02/2014	21:05:12.745	$GPGGA,210513,2444.9962,N,08026.5682,W,1,10,1.6,15,M,,M,,*61
06/02/2014	21:05:13.637	$GPGGA,210514,2444.9958,N,08026.5663,W,1,10,1.6,15,M,,M,,*60
06/02/2014	21:05:14.741	$GPGGA,210515,2444.9955,N,08026.5648,W,1,10,1.6,15,M,,M,,*65
06/02/2014	21:05:15.632	$GPGGA,210516,2444.9949,N,08026.5632,W,1,10,1.6,15,M,,M,,*66
06/02/2014	21:05:16.615	$GPGGA,210517,2444.9945,N,08026.5614,W,1,10,1.6,15,M,,M,,*6F
06/02/2014	21:05:17.708	$GPGGA,210518,2444.9942,N,08026.5597,W,1,10,1.6,15,M,,M,,*6F
06/02/2014	21:05:18.741	$GPGGA,210519,2444.9937,N,08026.5581,W,1,10,1.6,15,M,,M,,*6B
06/02/2014	21:05:19.723	$GPGGA,210520,2444.9933,N,08026.5564,W,1,10,1.6,15,M,,M,,*6E
06/02/2014	21:05:20.745	$GPGGA,210521,2444.9930,N,08026.5545,W,1,10,1.6,15,M,,M,,*6F
06/02/2014	21:05:21.709	$GPGGA,210522,2444.9926,N,08026.5529,W,1,10,1.6,15,M,,M,,*61
06/02/2014	21:05:22.740	$GPGGA,210523,2444.9921,N,08026.5514,W,1,10,1.6,15,M,,M,,*69
06/02/2014	21:05:23.732	$GPGGA,210524,2444.9919,N,08026.5495,W,1,10,1.6,15,M,,M,,*6D
06/02/2014	21:05:24.735	$GPGGA,210525,2444.9915,N,08026.5477,W,1,10,1.6,15,M,,M,,*6C
06/02/2014	21:05:25.707	$GPGGA,210526,2444.9908,N,08026.5461,W,1,10,1.6,15,M,,M,,*64
06/02/2014	21:05:26.720	$GPGGA,210527,2444.9905,N,08026.5444,W,1,10,1.6,15,M,,M,,*6F
06/02/2014	21:05:27.733	$GPGGA,210528,2444.9901,N,08026.5428,W,1,10,1.6,15,M,,M,,*6E
06/02/2014	21:05:28.735	$GPGGA,210529,2444.9897,N,08026.5411,W,1,10,1.6,15,M,,M,,*6B
06/02/2014	21:05:29.563	$GPGGA,210530,2444.9892,N,08026.5392,W,1,10,1.6,15,M,,M,,*6A
06/02/2014	21:05:30.555	$GPGGA,210531,2444.9890,N,08026.5375,W,1,10,1.6,15,M,,M,,*60
06/02/2014	21:05:31.588	$GPGGA,210532,2444.9885,N,08026.5359,W,1,10,1.6,15,M,,M,,*69
06/02/2014	21:05:32.581	$GPGGA,210533,2444.9880,N,08026.5342,W,1,10,1.6,15,M,,M,,*67
06/02/2014	21:05:33.573	$GPGGA,210534,2444.9879,N,08026.5324,W,1,10,1.6,15,M,,M,,*66
06/02/2014	21:05:34.596	$GPGGA,210535,2444.9876,N,08026.5307,W,1,10,1.6,15,M,,M,,*69
06/02/2014	21:05:35.578	$GPGGA,210536,2444.9872,N,08026.5291,W,1,10,1.6,15,M,,M,,*60
06/02/2014	21:05:36.561	$GPGGA,210537,2444.9866,N,08026.5275,W,1,10,1.6,15,M,,M,,*6E
06/02/2014	21:05:37.573	$GPGGA,210538,2444.9862,N,08026.5257,W,1,10,1.6,15,M,,M,,*65
06/02/2014	21:05:38.599	$GPGGA,210539,2444.9861,N,08026.5240,W,1,10,1.6,15,M,,M,,*61
06/02/2014	21:05:39.599	$GPGGA,210540,2444.9857,N,08026.5226,W,1,10,1.6,15,M,,M,,*6A
06/02/2014	21:05:40.570	$GPGGA,210541,2444.9851,N,08026.5210,W,1,10,1.6,15,M,,M,,*68
06/02/2014	21:05:41.573	$GPGGA,210542,2444.9850,N,08026.5192,W,1,10,1.6,15,M,,M,,*63
06/02/2014	21:05:42.585	$GPGGA,210543,2444.9846,N,08026.5176,W,1,10,1.6,15,M,,M,,*6F
06/02/2014	21:05:43.598	$GPGGA,210544,2444.9843,N,08026.5159,W,1,10,1.6,15,M,,M,,*60
06/02/2014	21:05:44.581	$GPGGA,210545,2444.9840,N,08026.5142,W,1,10,1.6,14,M,,M,,*69
06/02/2014	21:05:45.583	$GPGGA,210546,2444.9836,N,08026.5126,W,1,10,1.6,14,M,,M,,*69
06/02/2014	21:05:46.606	$GPGGA,210547,2444.9832,N,08026.5110,W,1,10,1.6,14,M,,M,,*69
06/02/2014	21:05:47.598	$GPGGA,210548,2444.9827,N,08026.5093,W,1,10,1.6,14,M,,M,,*68
06/02/2014	21:05:48.611	$GPGGA,210549,2444.9825,N,08026.5075,W,1,10,1.6,14,M,,M,,*63
06/02/2014	21:05:49.574	$GPGGA,210550,2444.9821,N,08026.5058,W,1,10,1.6,14,M,,M,,*60
06/02/2014	21:05:50.606	$GPGGA,210551,2444.9818,N,08026.5041,W,1,10,1.6,14,M,,M,,*63
06/02/2014	21:05:51.589	$GPGGA,210552,2444.9814,N,08026.5024,W,1,10,1.6,14,M,,M,,*6F
06/02/2014	21:05:52.591	$GPGGA,210553,2444.9811,N,08026.5007,W,1,10,1.6,14,M,,M,,*6A
06/02/2014	21:05:53.584	$GPGGA,210554,2444.9809,N,08026.4990,W,1,10,1.9,14,M,,M,,*6D
06/02/2014	21:05:54.607	$GPGGA,210555,2444.9803,N,08026.4974,W,1,10,1.6,14,M,,M,,*63
06/02/2014	21:05:55.589	$GPGGA,210556,2444.9799,N,08026.4958,W,1,10,1.6,14,M,,M,,*62
06/02/2014	21:05:56.692	$GPGGA,210557,2444.9797,N,08026.4939,W,1,9,1.9,14,M,,M,,*5D
06/02/2014	21:05:57.593	$GPGGA,210558,2444.9794,N,08026.4921,W,1,9,1.9,14,M,,M,,*58
06/02/2014	21:05:58.586	$GPGGA,210559,2444.9791,N,08026.4906,W,1,10,1.6,14,M,,M,,*6E
06/02/2014	21:05:59.719	$GPGGA,210600,2444.9789,N,08026.4889,W,1,10,1.9,14,M,,M,,*61
06/02/2014	21:06:00.571	$GPGGA,210601,2444.9783,N,08026.4871,W,1,9,1.9,14,M,,M,,*55
06/02/2014	21:06:01.674	$GPGGA,210602,2444.9781,N,08026.4855,W,1,9,1.6,14,M,,M,,*5D
06/02/2014	21:06:02.681	$GPGGA,210603,2444.9778,N,08026.4842,W,1,9,1.9,14,M,,M,,*53
06/02/2014	21:06:03.599	$GPGGA,210604,2444.9773,N,08026.4825,W,1,9,1.6,14,M,,M,,*51
06/02/2014	21:06:04.692	$GPGGA,210605,2444.9771,N,08026.4808,W,1,9,1.7,14,M,,M,,*5C
06/02/2014	21:06:05.584	$GPGGA,210606,2444.9768,N,08026.4790,W,1,9,1.6,14,M,,M,,*58
06/02/2014	21:06:06.670	$GPGGA,210607,2444.9764,N,08026.4772,W,1,9,1.9,14,M,,M,,*56
06/02/2014	21:06:07.690	$GPGGA,210608,2444.9763,N,08026.4755,W,1,9,1.6,14,M,,M,,*54
06/02/2014	21:06:08.712	$GPGGA,210609,2444.9761,N,08026.4738,W,1,10,1.6,14,M,,M,,*64
06/02/2014	21:06:09.675	$GPGGA,210610,2444.9756,N,08026.4720,W,1,10,1.6,14,M,,M,,*61
06/02/2014	21:06:10.717	$GPGGA,210611,2444.9753,N,08026.4702,W,1,10,1.6,14,M,,M,,*65
06/02/2014	21:06:11.694	$GPGGA,210612,2444.9753,N,08026.4688,W,1,10,1.6,14,M,,M,,*65
06/02/2014	21:06:13.725	$GPGGA,210614,2444.9744,N,08026.4656,W,1,10,1.6,14,M,,M,,*66
06/02/2014	21:06:14.701	$GPGGA,210615,2444.9742,N,08026.4638,W,1,10,1.6,14,M,,M,,*69
06/02/2014	21:06:15.706	$GPGGA,210616,2444.9740,N,08026.4624,W,1,10,1.6,14,M,,M,,*65
06/02/2014	21:06:16.682	$GPGGA,210617,2444.9736,N,08026.4611,W,1,10,1.6,14,M,,M,,*63
06/02/2014	21:06:17.674	$GPGGA,210618,2444.9734,N,08026.4593,W,1,10,1.9,14,M,,M,,*68
06/02/2014	21:06:18.707	$GPGGA,210619,2444.9732,N,08026.4575,W,1,10,1.6,14,M,,M,,*68
06/02/2014	21:06:19.701	$GPGGA,210620,2444.9728,N,08026.4562,W,1,10,1.6,14,M,,M,,*6F
06/02/2014	21:06:20.692	$GPGGA,210621,2444.9724,N,08026.4549,W,1,10,1.6,14,M,,M,,*6B
06/02/2014	21:06:21.685	$GPGGA,210622,2444.9722,N,08026.4532,W,1,10,1.6,14,M,,M,,*62
06/02/2014	21:06:22.698	$GPGGA,210623,2444.9720,N,08026.4518,W,1,10,1.6,14,M,,M,,*69
06/02/2014	21:06:23.690	$GPGGA,210624,2444.9714,N,08026.4504,W,1,10,1.6,14,M,,M,,*64
06/02/2014	21:06:24.726	$GPGGA,210625,2444.9710,N,08026.4487,W,1,10,1.6,14,M,,M,,*6B
06/02/2014	21:06:25.685	$GPGGA,210626,2444.9707,N,08026.4472,W,1,10,1.6,14,M,,M,,*64
06/02/2014	21:06:26.688	$GPGGA,210627,2444.9706,N,08026.4459,W,1,10,1.6,14,M,,M,,*6D
06/02/2014	21:06:27.711	$GPGGA,210628,2444.9699,N,08026.4445,W,1,10,1.6,14,M,,M,,*68
06/02/2014	21:06:28.683	$GPGGA,210629,2444.9695,N,08026.4426,W,1,10,1.6,14,M,,M,,*60
06/02/2014	21:06:29.552	$GPGGA,210630,2444.9695,N,08026.4411,W,1,10,1.6,14,M,,M,,*6C
06/02/2014	21:06:30.535	$GPGGA,210631,2444.9692,N,08026.4400,W,1,10,1.6,14,M,,M,,*6A
06/02/2014	21:06:31.557	$GPGGA,210632,2444.9688,N,08026.4387,W,1,10,1.9,14,M,,M,,*65
06/02/2014	21:06:32.528	$GPGGA,210633,2444.9685,N,08026.4370,W,1,10,1.6,14,M,,M,,*6E
06/02/2014	21:06:33.531	$GPGGA,210634,2444.9686,N,08026.4353,W,1,10,1.6,14,M,,M,,*6B
06/02/2014	21:06:34.597	$GPGGA,210635,2444.9682,N,08026.4343,W,1,10,1.6,14,M,,M,,*6F
06/02/2014	21:06:35.566	$GPGGA,210636,2444.9678,N,08026.4333,W,1,10,1.9,14,M,,M,,*61
06/02/2014	21:06:36.549	$GPGGA,210637,2444.9677,N,08026.4317,W,1,10,1.6,14,M,,M,,*66
06/02/2014	21:06:37.541	$GPGGA,210638,2444.9677,N,08026.4299,W,1,10,1.6,14,M,,M,,*6E
06/02/2014	21:06:38.724	$GPGGA,210639,2444.9675,N,08026.4287,W,1,10,1.6,14,M,,M,,*62
06/02/2014	21:06:39.577	$GPGGA,210640,2444.9673,N,08026.4278,W,1,10,1.6,14,M,,M,,*6A
06/02/2014	21:06:40.549	$GPGGA,210641,2444.9669,N,08026.4267,W,1,9,1.9,14,M,,M,,*59
06/02/2014	21:06:41.632	$GPGGA,210642,2444.9667,N,08026.4252,W,1,9,1.6,14,M,,M,,*5D
06/02/2014	21:06:42.534	$GPGGA,210643,2444.9666,N,08026.4239,W,1,10,1.6,14,M,,M,,*68
06/02/2014	21:06:43.697	$GPGGA,210644,2444.9663,N,08026.4228,W,1,10,1.6,14,M,,M,,*6A
06/02/2014	21:06:44.740	$GPGGA,210645,2444.9661,N,08026.4217,W,1,10,1.6,14,M,,M,,*65
06/02/2014	21:06:45.642	$GPGGA,210646,2444.9660,N,08026.4201,W,1,10,1.6,14,M,,M,,*60
06/02/2014	21:06:46.735	$GPGGA,210647,2444.9659,N,08026.4187,W,1,9,1.6,14,M,,M,,*5E
06/02/2014	21:06:47.567	$GPGGA,210648,2444.9656,N,08026.4175,W,1,9,1.6,14,M,,M,,*53
06/02/2014	21:06:48.740	$GPGGA,210649,2444.9655,N,08026.4164,W,1,10,1.9,14,M,,M,,*66
06/02/2014	21:06:49.684	$GPGGA,210650,2444.9653,N,08026.4149,W,1,10,1.9,14,M,,M,,*67
06/02/2014	21:06:50.729	$GPGGA,210651,2444.9652,N,08026.4135,W,1,9,1.6,14,M,,M,,*5B
06/02/2014	21:06:51.697	$GPGGA,210652,2444.9652,N,08026.4125,W,1,9,1.6,14,M,,M,,*59
06/02/2014	21:06:52.549	$GPGGA,210653,2444.9651,N,08026.4113,W,1,10,1.6,14,M,,M,,*66
06/02/2014	21:06:53.646	$GPGGA,210654,2444.9649,N,08026.4098,W,1,10,1.9,14,M,,M,,*65
06/02/2014	21:06:54.651	$GPGGA,210655,2444.9648,N,08026.4083,W,1,9,1.9,14,M,,M,,*57
06/02/2014	21:06:55.657	$GPGGA,210656,2444.9646,N,08026.4070,W,1,9,1.6,14,M,,M,,*59
06/02/2014	21:06:56.640	$GPGGA,210657,2444.9645,N,08026.4057,W,1,9,1.9,14,M,,M,,*51
06/02/2014	21:06:57.673	$GPGGA,210658,2444.9643,N,08026.4044,W,1,9,1.9,14,M,,M,,*5A
06/02/2014	21:06:58.756	$GPGGA,210659,2444.9641,N,08026.4029,W,1,10,1.6,14,M,,M,,*65
06/02/2014	21:06:59.718	$GPGGA,210700,2444.9639,N,08026.4016,W,1,10,1.6,14,M,,M,,*6B
06/02/2014	21:07:00.640	$GPGGA,210701,2444.9638,N,08026.4002,W,1,9,1.9,14,M,,M,,*59
06/02/2014	21:07:01.673	$GPGGA,210702,2444.9637,N,08026.3986,W,1,9,1.9,14,M,,M,,*57
06/02/2014	21:07:02.726	$GPGGA,210703,2444.9634,N,08026.3972,W,1,9,1.6,14,M,,M,,*51
06/02/2014	21:07:05.122	$GPGGA,210705,2444.9627,N,08026.3945,W,1,10,1.6,14,M,,M,,*69
06/02/2014	21:07:05.677	$GPGGA,210706,2444.9626,N,08026.3932,W,1,10,1.6,14,M,,M,,*6B
06/02/2014	21:07:06.646	$GPGGA,210707,2444.9622,N,08026.3917,W,1,10,1.6,14,M,,M,,*69
06/02/2014	21:07:07.688	$GPGGA,210708,2444.9619,N,08026.3903,W,1,10,1.6,14,M,,M,,*6B
06/02/2014	21:07:08.760	$GPGGA,210709,2444.9617,N,08026.3888,W,1,10,1.6,14,M,,M,,*66
06/02/2014	21:07:09.663	$GPGGA,210710,2444.9614,N,08026.3875,W,1,10,1.6,14,M,,M,,*6F
06/02/2014	21:07:10.746	$GPGGA,210711,2444.9612,N,08026.3861,W,1,10,1.6,15,M,,M,,*6C
06/02/2014	21:07:11.658	$GPGGA,210712,2444.9609,N,08026.3845,W,1,10,1.6,15,M,,M,,*63
06/02/2014	21:07:12.650	$GPGGA,210713,2444.9606,N,08026.3831,W,1,10,1.6,15,M,,M,,*6E
06/02/2014	21:07:13.653	$GPGGA,210714,2444.9603,N,08026.3820,W,1,10,1.6,15,M,,M,,*6C
06/02/2014	21:07:14.746	$GPGGA,210715,2444.9599,N,08026.3806,W,1,10,1.6,15,M,,M,,*69
06/02/2014	21:07:15.700	$GPGGA,210716,2444.9596,N,08026.3790,W,1,10,1.6,15,M,,M,,*65
06/02/2014	21:07:16.751	$GPGGA,210717,2444.9594,N,08026.3775,W,1,10,1.6,15,M,,M,,*6D
06/02/2014	21:07:17.653	$GPGGA,210718,2444.9590,N,08026.3762,W,1,10,1.6,15,M,,M,,*60
06/02/2014	21:07:18.656	$GPGGA,210719,2444.9590,N,08026.3749,W,1,10,1.6,15,M,,M,,*68
06/02/2014	21:07:19.712	$GPGGA,210720,2444.9586,N,08026.3734,W,1,10,1.6,15,M,,M,,*6F
06/02/2014	21:07:20.772	$GPGGA,210721,2444.9583,N,08026.3718,W,1,10,1.6,15,M,,M,,*65
06/02/2014	21:07:21.674	$GPGGA,210722,2444.9580,N,08026.3701,W,1,10,1.6,15,M,,M,,*6D
06/02/2014	21:07:22.797	$GPGGA,210723,2444.9579,N,08026.3686,W,1,10,1.6,15,M,,M,,*64
06/02/2014	21:07:23.711	$GPGGA,210724,2444.9574,N,08026.3674,W,1,10,1.6,15,M,,M,,*63
06/02/2014	21:07:24.812	$GPGGA,210725,2444.9570,N,08026.3658,W,1,10,1.6,15,M,,M,,*68
06/02/2014	21:07:25.683	$GPGGA,210726,2444.9569,N,08026.3641,W,1,10,1.6,15,M,,M,,*6B
06/02/2014	21:07:26.776	$GPGGA,210727,2444.9567,N,08026.3628,W,1,10,1.6,15,M,,M,,*6B
06/02/2014	21:07:27.698	$GPGGA,210728,2444.9563,N,08026.3614,W,1,10,1.6,15,M,,M,,*6F
06/02/2014	21:07:28.751	$GPGGA,210729,2444.9561,N,08026.3597,W,1,10,1.6,15,M,,M,,*64
06/02/2014	21:07:29.549	$GPGGA,210730,2444.9559,N,08026.3579,W,1,10,1.6,15,M,,M,,*67
06/02/2014	21:07:30.582	$GPGGA,210731,2444.9556,N,08026.3565,W,1,10,1.6,15,M,,M,,*64
06/02/2014	21:07:31.564	$GPGGA,210732,2444.9554,N,08026.3550,W,1,10,1.9,15,M,,M,,*6C
06/02/2014	21:07:32.597	$GPGGA,210733,2444.9551,N,08026.3533,W,1,9,1.6,15,M,,M,,*5A
06/02/2014	21:07:33.509	$GPGGA,210734,2444.9548,N,08026.3518,W,1,9,1.6,15,M,,M,,*5C
06/02/2014	21:07:34.662	$GPGGA,210735,2444.9545,N,08026.3503,W,1,9,1.9,15,M,,M,,*55
06/02/2014	21:07:35.574	$GPGGA,210736,2444.9543,N,08026.3485,W,1,9,1.6,15,M,,M,,*50
06/02/2014	21:07:36.607	$GPGGA,210737,2444.9540,N,08026.3466,W,1,10,1.6,15,M,,M,,*67
06/02/2014	21:07:37.610	$GPGGA,210738,2444.9537,N,08026.3450,W,1,10,1.6,15,M,,M,,*6D
06/02/2014	21:07:38.632	$GPGGA,210739,2444.9536,N,08026.3434,W,1,10,1.9,15,M,,M,,*60
06/02/2014	21:07:39.645	$GPGGA,210740,2444.9533,N,08026.3418,W,1,10,1.9,15,M,,M,,*65
06/02/2014	21:07:40.617	$GPGGA,210741,2444.9530,N,08026.3402,W,1,9,1.6,15,M,,M,,*5B
06/02/2014	21:07:41.620	$GPGGA,210742,2444.9526,N,08026.3386,W,1,9,1.6,15,M,,M,,*54
06/02/2014	21:07:42.642	$GPGGA,210743,2444.9522,N,08026.3370,W,1,10,1.6,15,M,,M,,*60
06/02/2014	21:07:43.634	$GPGGA,210744,2444.9519,N,08026.3355,W,1,10,1.9,15,M,,M,,*67
06/02/2014	21:07:44.637	$GPGGA,210745,2444.9516,N,08026.3338,W,1,9,1.9,15,M,,M,,*5A
06/02/2014	21:07:45.609	$GPGGA,210746,2444.9514,N,08026.3321,W,1,9,1.6,15,M,,M,,*5C
06/02/2014	21:07:46.642	$GPGGA,210747,2444.9511,N,08026.3304,W,1,10,1.6,15,M,,M,,*67
06/02/2014	21:07:47.635	$GPGGA,210748,2444.9508,N,08026.3289,W,1,10,1.9,15,M,,M,,*6B
06/02/2014	21:07:48.637	$GPGGA,210749,2444.9505,N,08026.3272,W,1,9,1.9,15,M,,M,,*5B
06/02/2014	21:07:49.626	$GPGGA,210750,2444.9502,N,08026.3255,W,1,9,1.6,15,M,,M,,*5E
06/02/2014	21:07:50.693	$GPGGA,210751,2444.9498,N,08026.3241,W,1,10,1.6,15,M,,M,,*60
06/02/2014	21:07:51.637	$GPGGA,210752,2444.9494,N,08026.3223,W,1,10,1.9,15,M,,M,,*64
06/02/2014	21:07:52.730	$GPGGA,210753,2444.9492,N,08026.3207,W,1,9,1.9,14,M,,M,,*5C
06/02/2014	21:07:53.620	$GPGGA,210754,2444.9490,N,08026.3192,W,1,9,1.9,14,M,,M,,*56
06/02/2014	21:07:54.663	$GPGGA,210755,2444.9485,N,08026.3174,W,1,9,1.6,14,M,,M,,*54
06/02/2014	21:07:55.648	$GPGGA,210756,2444.9482,N,08026.3158,W,1,9,1.6,14,M,,M,,*5E
06/02/2014	21:07:56.646	$GPGGA,210757,2444.9482,N,08026.3158,W,1,10,1.6,14,M,,M,,*67
06/02/2014	21:07:57.620	$GPGGA,210758,2444.9480,N,08026.3142,W,1,10,1.9,14,M,,M,,*6E
06/02/2014	21:07:58.653	$GPGGA,210759,2444.9473,N,08026.3108,W,1,9,1.9,14,M,,M,,*55
06/02/2014	21:07:59.666	$GPGGA,210800,2444.9473,N,08026.3108,W,1,9,1.9,14,M,,M,,*56
06/02/2014	21:08:00.667	$GPGGA,210801,2444.9468,N,08026.3073,W,1,10,1.6,14,M,,M,,*67
06/02/2014	21:08:01.620	$GPGGA,210802,2444.9464,N,08026.3058,W,1,10,1.9,14,M,,M,,*6E
06/02/2014	21:08:02.673	$GPGGA,210803,2444.9458,N,08026.3046,W,1,9,1.6,14,M,,M,,*58
06/02/2014	21:08:03.635	$GPGGA,210804,2444.9455,N,08026.3027,W,1,9,1.6,14,M,,M,,*55
06/02/2014	21:08:04.688	$GPGGA,210805,2444.9451,N,08026.3010,W,1,10,1.6,14,M,,M,,*6C
06/02/2014	21:08:05.630	$GPGGA,210806,2444.9447,N,08026.2996,W,1,10,1.9,14,M,,M,,*61
06/02/2014	21:08:06.670	$GPGGA,210807,2444.9444,N,08026.2981,W,1,9,1.6,14,M,,M,,*52
06/02/2014	21:08:07.645	$GPGGA,210808,2444.9444,N,08026.2981,W,1,9,1.6,14,M,,M,,*5D
06/02/2014	21:08:08.758	$GPGGA,210809,2444.9437,N,08026.2944,W,1,10,1.6,14,M,,M,,*69
06/02/2014	21:08:09.651	$GPGGA,210810,2444.9432,N,08026.2931,W,1,10,1.6,14,M,,M,,*66
06/02/2014	21:08:10.684	$GPGGA,210811,2444.9427,N,08026.2915,W,1,10,1.6,14,M,,M,,*65
06/02/2014	21:08:11.636	$GPGGA,210812,2444.9424,N,08026.2896,W,1,10,1.6,14,M,,M,,*6F
06/02/2014	21:08:12.749	$GPGGA,210813,2444.9421,N,08026.2883,W,1,10,1.6,14,M,,M,,*6F
06/02/2014	21:08:13.621	$GPGGA,210814,2444.9417,N,08026.2869,W,1,10,1.6,14,M,,M,,*69
06/02/2014	21:08:14.714	$GPGGA,210815,2444.9413,N,08026.2851,W,1,10,1.6,14,M,,M,,*67
06/02/2014	21:08:15.767	$GPGGA,210816,2444.9411,N,08026.2835,W,1,10,1.6,14,M,,M,,*64
06/02/2014	21:08:16.699	$GPGGA,210817,2444.9409,N,08026.2822,W,1,10,1.6,14,M,,M,,*6A
06/02/2014	21:08:17.751	$GPGGA,210818,2444.9404,N,08026.2805,W,1,10,1.6,14,M,,M,,*6D
06/02/2014	21:08:18.703	$GPGGA,210819,2444.9400,N,08026.2787,W,1,10,1.6,14,M,,M,,*6D
06/02/2014	21:08:19.766	$GPGGA,210820,2444.9398,N,08026.2775,W,1,10,1.6,14,M,,M,,*6C
06/02/2014	21:08:20.758	$GPGGA,210821,2444.9395,N,08026.2761,W,1,10,1.6,14,M,,M,,*65
06/02/2014	21:08:21.641	$GPGGA,210822,2444.9392,N,08026.2744,W,1,10,1.6,14,M,,M,,*66
06/02/2014	21:08:22.764	$GPGGA,210823,2444.9389,N,08026.2728,W,1,10,1.6,14,M,,M,,*67
06/02/2014	21:08:23.766	$GPGGA,210824,2444.9385,N,08026.2714,W,1,10,1.6,14,M,,M,,*63
06/02/2014	21:08:24.769	$GPGGA,210825,2444.9380,N,08026.2698,W,1,10,1.6,14,M,,M,,*62
06/02/2014	21:08:25.731	$GPGGA,210826,2444.9378,N,08026.2682,W,1,10,1.6,14,M,,M,,*6D
06/02/2014	21:08:26.764	$GPGGA,210827,2444.9377,N,08026.2666,W,1,10,1.6,14,M,,M,,*69
06/02/2014	21:08:27.737	$GPGGA,210828,2444.9371,N,08026.2651,W,1,10,1.6,14,M,,M,,*64
06/02/2014	21:08:28.759	$GPGGA,210829,2444.9368,N,08026.2636,W,1,10,1.6,14,M,,M,,*6C
06/02/2014	21:08:29.583	$GPGGA,210830,2444.9366,N,08026.2619,W,1,10,1.6,14,M,,M,,*67
06/02/2014	21:08:30.600	$GPGGA,210831,2444.9361,N,08026.2603,W,1,10,1.6,14,M,,M,,*6A
06/02/2014	21:08:31.593	$GPGGA,210832,2444.9356,N,08026.2588,W,1,10,1.6,14,M,,M,,*6D
06/02/2014	21:08:32.606	$GPGGA,210833,2444.9356,N,08026.2588,W,1,10,1.6,14,M,,M,,*6C
06/02/2014	21:08:33.578	$GPGGA,210834,2444.9352,N,08026.2557,W,1,10,1.6,13,M,,M,,*6A
06/02/2014	21:08:34.621	$GPGGA,210835,2444.9348,N,08026.2540,W,1,10,1.6,13,M,,M,,*66
06/02/2014	21:08:35.582	$GPGGA,210836,2444.9344,N,08026.2524,W,1,10,1.6,13,M,,M,,*6B
06/02/2014	21:08:36.575	$GPGGA,210837,2444.9344,N,08026.2524,W,1,10,1.6,13,M,,M,,*6A
06/02/2014	21:08:37.577	$GPGGA,210838,2444.9341,N,08026.2493,W,1,10,1.6,13,M,,M,,*6D
06/02/2014	21:08:38.605	$GPGGA,210839,2444.9335,N,08026.2477,W,1,9,1.8,13,M,,M,,*53
06/02/2014	21:08:39.594	$GPGGA,210840,2444.9331,N,08026.2460,W,1,9,1.8,13,M,,M,,*5F
06/02/2014	21:08:40.615	$GPGGA,210841,2444.9330,N,08026.2446,W,1,10,1.5,13,M,,M,,*6E
06/02/2014	21:08:41.588	$GPGGA,210842,2444.9326,N,08026.2433,W,1,10,1.5,13,M,,M,,*68
06/02/2014	21:08:42.611	$GPGGA,210843,2444.9321,N,08026.2419,W,1,10,1.5,13,M,,M,,*66
06/02/2014	21:08:43.604	$GPGGA,210844,2444.9319,N,08026.2401,W,1,10,1.5,13,M,,M,,*63
06/02/2014	21:08:44.615	$GPGGA,210845,2444.9316,N,08026.2386,W,1,10,1.5,13,M,,M,,*65
06/02/2014	21:08:45.578	$GPGGA,210846,2444.9312,N,08026.2372,W,1,10,1.5,13,M,,M,,*69
06/02/2014	21:08:46.612	$GPGGA,210847,2444.9308,N,08026.2357,W,1,9,1.8,13,M,,M,,*51
06/02/2014	21:08:47.593	$GPGGA,210848,2444.9306,N,08026.2343,W,1,9,1.8,14,M,,M,,*52
06/02/2014	21:08:48.616	$GPGGA,210849,2444.9305,N,08026.2327,W,1,10,1.5,14,M,,M,,*67
06/02/2014	21:08:49.599	$GPGGA,210850,2444.9301,N,08026.2312,W,1,10,1.5,14,M,,M,,*6D
06/02/2014	21:08:50.611	$GPGGA,210851,2444.9296,N,08026.2296,W,1,9,1.8,14,M,,M,,*5B
06/02/2014	21:08:51.604	$GPGGA,210852,2444.9294,N,08026.2277,W,1,9,1.8,14,M,,M,,*55
06/02/2014	21:08:52.626	$GPGGA,210853,2444.9294,N,08026.2260,W,1,9,1.8,14,M,,M,,*52
06/02/2014	21:08:53.578	$GPGGA,210854,2444.9290,N,08026.2244,W,1,9,1.8,14,M,,M,,*57
06/02/2014	21:08:54.621	$GPGGA,210855,2444.9286,N,08026.2227,W,1,9,1.8,14,M,,M,,*54
06/02/2014	21:08:55.603	$GPGGA,210856,2444.9286,N,08026.2212,W,1,9,1.8,14,M,,M,,*51
06/02/2014	21:08:56.627	$GPGGA,210857,2444.9283,N,08026.2195,W,1,9,1.8,14,M,,M,,*59
06/02/2014	21:08:57.598	$GPGGA,210858,2444.9281,N,08026.2177,W,1,9,1.5,14,M,,M,,*55
06/02/2014	21:08:58.631	$GPGGA,210859,2444.9279,N,08026.2160,W,1,10,1.5,14,M,,M,,*6D
06/02/2014	21:08:59.634	$GPGGA,210900,2444.9277,N,08026.2144,W,1,10,1.8,14,M,,M,,*65
06/02/2014	21:09:00.596	$GPGGA,210901,2444.9276,N,08026.2128,W,1,9,1.8,14,M,,M,,*57
06/02/2014	21:09:01.599	$GPGGA,210902,2444.9274,N,08026.2111,W,1,9,1.5,14,M,,M,,*51
06/02/2014	21:09:02.702	$GPGGA,210903,2444.9273,N,08026.2093,W,1,10,1.5,14,M,,M,,*64
06/02/2014	21:09:03.614	$GPGGA,210904,2444.9272,N,08026.2076,W,1,10,1.8,14,M,,M,,*64
06/02/2014	21:09:04.597	$GPGGA,210905,2444.9272,N,08026.2060,W,1,10,1.5,14,M,,M,,*6F
06/02/2014	21:09:05.589	$GPGGA,210906,2444.9266,N,08026.2044,W,1,10,1.8,14,M,,M,,*62
06/02/2014	21:09:06.622	$GPGGA,210907,2444.9267,N,08026.2025,W,1,9,1.8,14,M,,M,,*5D
06/02/2014	21:09:07.604	$GPGGA,210908,2444.9266,N,08026.2007,W,1,9,1.8,14,M,,M,,*53
06/02/2014	21:09:08.617	$GPGGA,210909,2444.9265,N,08026.1993,W,1,9,1.8,14,M,,M,,*56
06/02/2014	21:09:09.700	$GPGGA,210910,2444.9260,N,08026.1980,W,1,9,1.5,14,M,,M,,*54
06/02/2014	21:09:10.611	$GPGGA,210911,2444.9258,N,08026.1962,W,1,10,1.5,15,M,,M,,*6B
06/02/2014	21:09:11.704	$GPGGA,210912,2444.9256,N,08026.1943,W,1,10,1.8,15,M,,M,,*68
06/02/2014	21:09:12.727	$GPGGA,210913,2444.9254,N,08026.1927,W,1,10,1.5,15,M,,M,,*64
06/02/2014	21:09:13.609	$GPGGA,210914,2444.9250,N,08026.1912,W,1,10,1.8,15,M,,M,,*6C
06/02/2014	21:09:14.702	$GPGGA,210915,2444.9248,N,08026.1896,W,1,9,1.8,15,M,,M,,*51
06/02/2014	21:09:15.714	$GPGGA,210916,2444.9245,N,08026.1878,W,1,9,1.5,15,M,,M,,*52
06/02/2014	21:09:16.707	$GPGGA,210917,2444.9243,N,08026.1863,W,1,10,1.5,15,M,,M,,*67
06/02/2014	21:09:17.710	$GPGGA,210918,2444.9240,N,08026.1847,W,1,10,1.5,15,M,,M,,*6D
06/02/2014	21:09:18.712	$GPGGA,210919,2444.9236,N,08026.1832,W,1,9,1.8,15,M,,M,,*5A
06/02/2014	21:09:19.715	$GPGGA,210920,2444.9233,N,08026.1818,W,1,9,1.5,15,M,,M,,*50
06/02/2014	21:09:20.717	$GPGGA,210921,2444.9229,N,08026.1801,W,1,10,1.5,15,M,,M,,*6A
06/02/2014	21:09:21.702	$GPGGA,210922,2444.9225,N,08026.1786,W,1,10,1.5,15,M,,M,,*65
06/02/2014	21:09:22.723	$GPGGA,210923,2444.9221,N,08026.1769,W,1,10,1.5,15,M,,M,,*61
06/02/2014	21:09:24.758	$GPGGA,210925,2444.9213,N,08026.1737,W,1,10,1.5,15,M,,M,,*6D
06/02/2014	21:09:25.701	$GPGGA,210926,2444.9208,N,08026.1722,W,1,10,1.5,15,M,,M,,*60
06/02/2014	21:09:26.724	$GPGGA,210927,2444.9205,N,08026.1705,W,1,10,1.5,15,M,,M,,*69
06/02/2014	21:09:27.715	$GPGGA,210928,2444.9200,N,08026.1686,W,1,10,1.5,15,M,,M,,*69
06/02/2014	21:09:28.707	$GPGGA,210929,2444.9196,N,08026.1672,W,1,10,1.5,15,M,,M,,*6F
06/02/2014	21:09:29.565	$GPGGA,210930,2444.9193,N,08026.1659,W,1,10,1.5,15,M,,M,,*6B
06/02/2014	21:09:30.568	$GPGGA,210931,2444.9186,N,08026.1643,W,1,10,1.5,15,M,,M,,*65
06/02/2014	21:09:31.572	$GPGGA,210932,2444.9182,N,08026.1626,W,1,10,1.5,15,M,,M,,*61
06/02/2014	21:09:32.583	$GPGGA,210933,2444.9179,N,08026.1609,W,1,10,1.5,15,M,,M,,*69
06/02/2014	21:09:33.545	$GPGGA,210934,2444.9175,N,08026.1595,W,1,10,1.5,15,M,,M,,*64
06/02/2014	21:09:34.588	$GPGGA,210935,2444.9169,N,08026.1581,W,1,10,1.5,15,M,,M,,*6D
06/02/2014	21:09:35.570	$GPGGA,210936,2444.9165,N,08026.1563,W,1,10,1.5,15,M,,M,,*6E
06/02/2014	21:09:36.583	$GPGGA,210937,2444.9162,N,08026.1547,W,1,10,1.5,15,M,,M,,*6E
06/02/2014	21:09:37.575	$GPGGA,210938,2444.9157,N,08026.1534,W,1,10,1.5,15,M,,M,,*63
06/02/2014	21:09:38.568	$GPGGA,210939,2444.9153,N,08026.1518,W,1,10,1.5,15,M,,M,,*68
06/02/2014	21:09:39.581	$GPGGA,210940,2444.9149,N,08026.1500,W,1,10,1.5,15,M,,M,,*64
06/02/2014	21:09:40.595	$GPGGA,210941,2444.9146,N,08026.1488,W,1,10,1.5,15,M,,M,,*6B
06/02/2014	21:09:41.566	$GPGGA,210942,2444.9139,N,08026.1476,W,1,10,1.5,15,M,,M,,*61
06/02/2014	21:09:42.578	$GPGGA,210943,2444.9135,N,08026.1458,W,1,10,1.5,15,M,,M,,*60
06/02/2014	21:09:43.582	$GPGGA,210944,2444.9133,N,08026.1440,W,1,10,1.5,15,M,,M,,*68
06/02/2014	21:09:44.584	$GPGGA,210945,2444.9129,N,08026.1426,W,1,10,1.5,15,M,,M,,*62
06/02/2014	21:09:45.565	$GPGGA,210946,2444.9124,N,08026.1413,W,1,10,1.5,15,M,,M,,*6A
06/02/2014	21:09:46.578	$GPGGA,210947,2444.9120,N,08026.1397,W,1,10,1.5,15,M,,M,,*64
06/02/2014	21:09:47.611	$GPGGA,210948,2444.9117,N,08026.1380,W,1,10,1.5,15,M,,M,,*69
06/02/2014	21:09:48.573	$GPGGA,210949,2444.9113,N,08026.1367,W,1,10,1.5,15,M,,M,,*65
06/02/2014	21:09:49.556	$GPGGA,210950,2444.9107,N,08026.1353,W,1,10,1.5,15,M,,M,,*6F
06/02/2014	21:09:50.558	$GPGGA,210951,2444.9103,N,08026.1335,W,1,10,1.5,15,M,,M,,*6A
06/02/2014	21:09:51.571	$GPGGA,210952,2444.9100,N,08026.1319,W,1,10,1.5,15,M,,M,,*64
06/02/2014	21:09:52.553	$GPGGA,210953,2444.9095,N,08026.1305,W,1,10,1.5,15,M,,M,,*65
06/02/2014	21:09:53.676	$GPGGA,210954,2444.9092,N,08026.1288,W,1,10,1.5,15,M,,M,,*61
06/02/2014	21:09:54.679	$GPGGA,210955,2444.9088,N,08026.1271,W,1,10,1.5,15,M,,M,,*6D
06/02/2014	21:09:55.591	$GPGGA,210956,2444.9082,N,08026.1256,W,1,10,1.5,15,M,,M,,*61
06/02/2014	21:09:56.574	$GPGGA,210957,2444.9078,N,08026.1242,W,1,10,1.5,15,M,,M,,*60
06/02/2014	21:09:57.707	$GPGGA,210958,2444.9074,N,08026.1224,W,1,10,1.5,15,M,,M,,*63
06/02/2014	21:09:58.669	$GPGGA,210959,2444.9068,N,08026.1207,W,1,10,1.5,15,M,,M,,*6E
06/02/2014	21:09:59.682	$GPGGA,211000,2444.9066,N,08026.1193,W,1,10,1.5,15,M,,M,,*6A
06/02/2014	21:10:00.664	$GPGGA,211001,2444.9063,N,08026.1178,W,1,10,1.5,14,M,,M,,*6A
06/02/2014	21:10:01.667	$GPGGA,211002,2444.9059,N,08026.1163,W,1,10,1.5,14,M,,M,,*6A
06/02/2014	21:10:02.669	$GPGGA,211003,2444.9052,N,08026.1145,W,1,10,1.5,14,M,,M,,*64
06/02/2014	21:10:03.671	$GPGGA,211004,2444.9049,N,08026.1130,W,1,10,1.5,14,M,,M,,*6B
06/02/2014	21:10:04.684	$GPGGA,211005,2444.9045,N,08026.1117,W,1,10,1.5,14,M,,M,,*63
06/02/2014	21:10:05.658	$GPGGA,211006,2444.9041,N,08026.1100,W,1,10,1.5,14,M,,M,,*62
06/02/2014	21:10:06.689	$GPGGA,211007,2444.9038,N,08026.1083,W,1,10,1.5,14,M,,M,,*67
06/02/2014	21:10:07.742	$GPGGA,211008,2444.9032,N,08026.1069,W,1,10,1.5,14,M,,M,,*66
06/02/2014	21:10:08.684	$GPGGA,211009,2444.9027,N,08026.1054,W,1,10,1.5,14,M,,M,,*6D
06/02/2014	21:10:09.667	$GPGGA,211010,2444.9024,N,08026.1040,W,1,10,1.5,14,M,,M,,*63
06/02/2014	21:10:10.690	$GPGGA,211011,2444.9019,N,08026.1026,W,1,10,1.5,14,M,,M,,*6C
06/02/2014	21:10:11.682	$GPGGA,211012,2444.9016,N,08026.1008,W,1,10,1.5,14,M,,M,,*6C
06/02/2014	21:10:12.687	$GPGGA,211013,2444.9012,N,08026.0992,W,1,10,1.5,14,M,,M,,*62
06/02/2014	21:10:13.667	$GPGGA,211014,2444.9006,N,08026.0980,W,1,10,1.5,14,M,,M,,*63
06/02/2014	21:10:14.660	$GPGGA,211015,2444.9001,N,08026.0968,W,1,10,1.5,14,M,,M,,*63
06/02/2014	21:10:15.694	$GPGGA,211016,2444.8996,N,08026.0952,W,1,10,1.5,14,M,,M,,*6F
06/02/2014	21:10:16.695	$GPGGA,211017,2444.8994,N,08026.0933,W,1,10,1.5,14,M,,M,,*6B
06/02/2014	21:10:17.667	$GPGGA,211018,2444.8987,N,08026.0922,W,1,10,1.5,14,M,,M,,*66
06/02/2014	21:10:18.670	$GPGGA,211019,2444.8979,N,08026.0914,W,1,10,1.5,14,M,,M,,*63
06/02/2014	21:10:19.683	$GPGGA,211020,2444.8977,N,08026.0900,W,1,10,1.5,13,M,,M,,*65
06/02/2014	21:10:20.674	$GPGGA,211021,2444.8972,N,08026.0883,W,1,10,1.5,13,M,,M,,*6B
06/02/2014	21:10:21.677	$GPGGA,211022,2444.8967,N,08026.0869,W,1,10,1.5,13,M,,M,,*68
06/02/2014	21:10:22.669	$GPGGA,211023,2444.8965,N,08026.0860,W,1,10,1.5,13,M,,M,,*62
06/02/2014	21:10:23.692	$GPGGA,211024,2444.8962,N,08026.0848,W,1,10,1.5,13,M,,M,,*68
06/02/2014	21:10:24.665	$GPGGA,211025,2444.8959,N,08026.0834,W,1,10,1.5,13,M,,M,,*6A
06/02/2014	21:10:25.677	$GPGGA,211026,2444.8954,N,08026.0819,W,1,10,1.5,13,M,,M,,*6B
06/02/2014	21:10:26.714	$GPGGA,211027,2444.8951,N,08026.0809,W,1,10,1.5,13,M,,M,,*6E
06/02/2014	21:10:27.692	$GPGGA,211028,2444.8949,N,08026.0799,W,1,10,1.5,13,M,,M,,*6E
06/02/2014	21:10:28.685	$GPGGA,211029,2444.8947,N,08026.0786,W,1,10,1.5,13,M,,M,,*6F
06/02/2014	21:10:29.643	$GPGGA,211030,2444.8942,N,08026.0772,W,1,10,1.5,13,M,,M,,*69
06/02/2014	21:10:30.525	$GPGGA,211031,2444.8943,N,08026.0760,W,1,10,1.5,13,M,,M,,*6A
06/02/2014	21:10:31.538	$GPGGA,211032,2444.8941,N,08026.0745,W,1,10,1.5,13,M,,M,,*6C
06/02/2014	21:10:32.560	$GPGGA,211033,2444.8938,N,08026.0733,W,1,10,1.5,13,M,,M,,*62
06/02/2014	21:10:33.523	$GPGGA,211034,2444.8936,N,08026.0722,W,1,10,1.5,13,M,,M,,*6B
06/02/2014	21:10:34.656	$GPGGA,211035,2444.8932,N,08026.0706,W,1,10,1.5,13,M,,M,,*68
06/02/2014	21:10:35.548	$GPGGA,211036,2444.8929,N,08026.0689,W,1,10,1.5,13,M,,M,,*67
06/02/2014	21:10:36.641	$GPGGA,211037,2444.8929,N,08026.0678,W,1,10,1.5,13,M,,M,,*68
06/02/2014	21:10:37.522	$GPGGA,211038,2444.8925,N,08026.0668,W,1,10,1.5,13,M,,M,,*6A
06/02/2014	21:10:38.545	$GPGGA,211039,2444.8922,N,08026.0651,W,1,10,1.5,13,M,,M,,*66
06/02/2014	21:10:39.548	$GPGGA,211040,2444.8920,N,08026.0634,W,1,10,1.5,13,M,,M,,*69
06/02/2014	21:10:40.660	$GPGGA,211041,2444.8921,N,08026.0621,W,1,10,1.5,13,M,,M,,*6D
06/02/2014	21:10:41.523	$GPGGA,211042,2444.8918,N,08026.0607,W,1,10,1.5,13,M,,M,,*60
06/02/2014	21:10:42.545	$GPGGA,211043,2444.8914,N,08026.0594,W,1,9,1.8,13,M,,M,,*51
06/02/2014	21:10:43.638	$GPGGA,211044,2444.8911,N,08026.0583,W,1,9,1.5,13,M,,M,,*58
06/02/2014	21:10:44.651	$GPGGA,211045,2444.8909,N,08026.0568,W,1,10,1.5,13,M,,M,,*6D
06/02/2014	21:10:45.533	$GPGGA,211046,2444.8908,N,08026.0550,W,1,10,1.5,13,M,,M,,*64
06/02/2014	21:10:46.626	$GPGGA,211047,2444.8905,N,08026.0538,W,1,10,1.5,13,M,,M,,*66
06/02/2014	21:10:47.649	$GPGGA,211048,2444.8900,N,08026.0525,W,1,10,1.8,13,M,,M,,*6D
06/02/2014	21:10:48.661	$GPGGA,211049,2444.8898,N,08026.0507,W,1,10,1.5,13,M,,M,,*61
06/02/2014	21:10:49.634	$GPGGA,211050,2444.8899,N,08026.0489,W,1,10,1.5,13,M,,M,,*6F
06/02/2014	21:10:50.626	$GPGGA,211051,2444.8895,N,08026.0475,W,1,10,1.5,13,M,,M,,*61
06/02/2014	21:10:51.649	$GPGGA,211052,2444.8889,N,08026.0462,W,1,10,1.5,13,M,,M,,*69
06/02/2014	21:10:52.633	$GPGGA,211053,2444.8886,N,08026.0446,W,1,10,1.5,13,M,,M,,*61
06/02/2014	21:10:53.634	$GPGGA,211054,2444.8884,N,08026.0428,W,1,10,1.5,13,M,,M,,*6C
06/02/2014	21:10:54.627	$GPGGA,211055,2444.8882,N,08026.0413,W,1,10,1.5,13,M,,M,,*63
06/02/2014	21:10:55.638	$GPGGA,211056,2444.8875,N,08026.0399,W,1,10,1.5,13,M,,M,,*6D
06/02/2014	21:10:56.651	$GPGGA,211057,2444.8872,N,08026.0383,W,1,10,1.5,13,M,,M,,*60
06/02/2014	21:10:57.635	$GPGGA,211058,2444.8871,N,08026.0367,W,1,10,1.5,13,M,,M,,*66
06/02/2014	21:10:58.636	$GPGGA,211059,2444.8867,N,08026.0349,W,1,10,1.5,13,M,,M,,*6C
06/02/2014	21:10:59.659	$GPGGA,211100,2444.8862,N,08026.0332,W,1,10,1.5,13,M,,M,,*68
06/02/2014	21:11:00.651	$GPGGA,211101,2444.8858,N,08026.0320,W,1,10,1.5,13,M,,M,,*63
06/02/2014	21:11:01.634	$GPGGA,211102,2444.8854,N,08026.0307,W,1,10,1.5,13,M,,M,,*69
06/02/2014	21:11:02.667	$GPGGA,211103,2444.8849,N,08026.0289,W,1,10,1.5,13,M,,M,,*63
06/02/2014	21:11:03.649	$GPGGA,211104,2444.8847,N,08026.0274,W,1,10,1.5,13,M,,M,,*68
06/02/2014	21:11:04.653	$GPGGA,211105,2444.8843,N,08026.0261,W,1,10,1.5,13,M,,M,,*69
06/02/2014	21:11:05.644	$GPGGA,211106,2444.8837,N,08026.0245,W,1,10,1.5,13,M,,M,,*6F
06/02/2014	21:11:06.637	$GPGGA,211107,2444.8835,N,08026.0229,W,1,10,1.5,13,M,,M,,*66
06/02/2014	21:11:07.660	$GPGGA,211108,2444.8832,N,08026.0215,W,1,10,1.5,13,M,,M,,*61
06/02/2014	21:11:08.652	$GPGGA,211109,2444.8826,N,08026.0199,W,1,10,1.5,13,M,,M,,*62
06/02/2014	21:11:09.635	$GPGGA,211110,2444.8821,N,08026.0184,W,1,10,1.5,13,M,,M,,*61
06/02/2014	21:11:10.647	$GPGGA,211111,2444.8817,N,08026.0168,W,1,10,1.5,13,M,,M,,*67
06/02/2014	21:11:11.661	$GPGGA,211112,2444.8814,N,08026.0153,W,1,10,1.5,13,M,,M,,*6F
06/02/2014	21:11:12.672	$GPGGA,211113,2444.8808,N,08026.0137,W,1,10,1.5,13,M,,M,,*61
06/02/2014	21:11:13.654	$GPGGA,211114,2444.8800,N,08026.0122,W,1,10,1.5,13,M,,M,,*6A
06/02/2014	21:11:14.637	$GPGGA,211115,2444.8797,N,08026.0109,W,1,10,1.5,13,M,,M,,*63
06/02/2014	21:11:15.649	$GPGGA,211116,2444.8796,N,08026.0095,W,1,10,1.5,13,M,,M,,*65
06/02/2014	21:11:16.642	$GPGGA,211117,2444.8792,N,08026.0078,W,1,10,1.5,13,M,,M,,*63
06/02/2014	21:11:17.735	$GPGGA,211118,2444.8786,N,08026.0063,W,1,10,1.5,13,M,,M,,*63
06/02/2014	21:11:18.667	$GPGGA,211119,2444.8784,N,08026.0051,W,1,10,1.5,13,M,,M,,*61
06/02/2014	21:11:19.670	$GPGGA,211120,2444.8781,N,08026.0036,W,1,10,1.5,13,M,,M,,*6F
06/02/2014	21:11:20.692	$GPGGA,211121,2444.8775,N,08026.0020,W,1,10,1.5,13,M,,M,,*62
06/02/2014	21:11:21.645	$GPGGA,211122,2444.8771,N,08026.0005,W,1,10,1.5,13,M,,M,,*62
06/02/2014	21:11:22.748	$GPGGA,211123,2444.8767,N,08025.9991,W,1,10,1.5,13,M,,M,,*6A
06/02/2014	21:11:23.660	$GPGGA,211124,2444.8763,N,08025.9977,W,1,10,1.5,13,M,,M,,*61
06/02/2014	21:11:24.743	$GPGGA,211125,2444.8759,N,08025.9961,W,1,10,1.5,13,M,,M,,*6E
06/02/2014	21:11:25.745	$GPGGA,211126,2444.8755,N,08025.9946,W,1,10,1.5,13,M,,M,,*64
06/02/2014	21:11:26.638	$GPGGA,211127,2444.8752,N,08025.9930,W,1,10,1.5,13,M,,M,,*63
06/02/2014	21:11:27.670	$GPGGA,211128,2444.8747,N,08025.9915,W,1,10,1.5,13,M,,M,,*6F
06/02/2014	21:11:28.763	$GPGGA,211129,2444.8745,N,08025.9898,W,1,10,1.5,13,M,,M,,*68
06/02/2014	21:11:29.492	$GPGGA,211130,2444.8739,N,08025.9882,W,1,10,1.5,13,M,,M,,*60
06/02/2014	21:11:30.493	$GPGGA,211131,2444.8735,N,08025.9868,W,1,10,1.5,13,M,,M,,*69
06/02/2014	21:11:31.636	$GPGGA,211132,2444.8731,N,08025.9852,W,1,10,1.5,13,M,,M,,*67
06/02/2014	21:11:32.619	$GPGGA,211133,2444.8727,N,08025.9834,W,1,10,1.5,13,M,,M,,*61
06/02/2014	21:11:33.601	$GPGGA,211134,2444.8721,N,08025.9819,W,1,10,1.5,13,M,,M,,*6F
06/02/2014	21:11:34.604	$GPGGA,211135,2444.8717,N,08025.9807,W,1,10,1.5,13,M,,M,,*64
06/02/2014	21:11:35.606	$GPGGA,211136,2444.8712,N,08025.9788,W,1,10,1.5,13,M,,M,,*6A
06/02/2014	21:11:36.609	$GPGGA,211137,2444.8708,N,08025.9772,W,1,10,1.5,13,M,,M,,*65
06/02/2014	21:11:37.602	$GPGGA,211138,2444.8706,N,08025.9762,W,1,10,1.5,13,M,,M,,*65
06/02/2014	21:11:38.614	$GPGGA,211139,2444.8700,N,08025.9749,W,1,10,1.5,13,M,,M,,*6B
06/02/2014	21:11:39.617	$GPGGA,211140,2444.8696,N,08025.9731,W,1,10,1.5,13,M,,M,,*64
06/02/2014	21:11:40.594	$GPGGA,211141,2444.8694,N,08025.9717,W,1,10,1.5,13,M,,M,,*63
06/02/2014	21:11:41.612	$GPGGA,211142,2444.8689,N,08025.9706,W,1,10,1.5,13,M,,M,,*6C
06/02/2014	21:11:42.625	$GPGGA,211143,2444.8685,N,08025.9691,W,1,10,1.5,13,M,,M,,*6E
06/02/2014	21:11:43.637	$GPGGA,211144,2444.8683,N,08025.9674,W,1,10,1.5,13,M,,M,,*64
