Software Version Number: 1	Data File Format Number: 1	Build Version Number: 1	Error Count Since VI Started: 0	Manufacturer: Raytheon	 Model Number: RayMarine 120	 S/N: 	 Cal Date: 	 Wind Direction Offset: 0.00	 Slope (M)1: 0.00	 Offset (B)1: 0.00	 Slope (M)2: 0.00	 Offset (B)2: 0.00	 Slope (M)3: 0.00	 Offset (B)3: 0.00	 Slope (M)4: 0.00	 Offset (B)4: 0.00	 Slope (M)5: 0.00	 Offset (B)5: 0.00	 Slope (M)6: 0.00	 Offset (B)6: 0.00
Computer Date	Computer Time	GGA String
06/09/2014	22:00:00.732	$GPGGA,220000,2543.5206,N,08000.9384,W,1,10,1.5,18,M,,M,,*63
06/09/2014	22:00:01.801	$GPGGA,220001,2543.5217,N,08000.9369,W,1,10,1.5,18,M,,M,,*61
06/09/2014	22:00:02.818	$GPGGA,220002,2543.5228,N,08000.9355,W,1,10,1.5,18,M,,M,,*61
06/09/2014	22:00:03.932	$GPGGA,220003,2543.5239,N,08000.9340,W,1,10,1.5,18,M,,M,,*64
06/09/2014	22:00:04.951	$GPGGA,220004,2543.5251,N,08000.9325,W,1,10,1.5,18,M,,M,,*6E
06/09/2014	22:00:06.001	$GPGGA,220005,2543.5262,N,08000.9310,W,1,10,1.5,18,M,,M,,*69
06/09/2014	22:00:07.068	$GPGGA,220006,2543.5273,N,08000.9296,W,1,10,1.5,18,M,,M,,*65
06/09/2014	22:00:08.112	$GPGGA,220007,2543.5282,N,08000.9282,W,1,10,1.5,18,M,,M,,*6F
06/09/2014	22:00:09.193	$GPGGA,220008,2543.5293,N,08000.9267,W,1,10,1.5,18,M,,M,,*6B
06/09/2014	22:00:10.263	$GPGGA,220009,2543.5304,N,08000.9253,W,1,9,1.8,18,M,,M,,*57
06/09/2014	22:00:11.286	$GPGGA,220010,2543.5316,N,08000.9239,W,1,9,1.8,18,M,,M,,*50
06/09/2014	22:00:12.346	$GPGGA,220011,2543.5325,N,08000.9224,W,1,8,2.1,18,M,,M,,*56
06/09/2014	22:00:13.434	$GPGGA,220012,2543.5336,N,08000.9209,W,1,8,1.5,18,M,,M,,*5F
06/09/2014	22:00:14.483	$GPGGA,220013,2543.5346,N,08000.9194,W,1,10,1.5,18,M,,M,,*67
06/09/2014	22:00:15.523	$GPGGA,220014,2543.5357,N,08000.9180,W,1,10,1.5,18,M,,M,,*65
06/09/2014	22:00:16.615	$GPGGA,220015,2543.5368,N,08000.9166,W,1,10,1.5,18,M,,M,,*60
06/09/2014	22:00:17.664	$GPGGA,220016,2543.5379,N,08000.9153,W,1,10,1.5,18,M,,M,,*65
06/09/2014	22:00:18.745	$GPGGA,220017,2543.5390,N,08000.9138,W,1,10,1.5,18,M,,M,,*6E
06/09/2014	22:00:19.773	$GPGGA,220018,2543.5400,N,08000.9124,W,1,10,1.5,18,M,,M,,*62
06/09/2014	22:00:20.835	$GPGGA,220019,2543.5410,N,08000.9110,W,1,10,1.5,18,M,,M,,*65
06/09/2014	22:00:22.074	$GPGGA,220020,2543.5421,N,08000.9095,W,1,10,1.5,19,M,,M,,*60
06/09/2014	22:00:22.954	$GPGGA,220021,2543.5432,N,08000.9081,W,1,10,1.5,19,M,,M,,*66
06/09/2014	22:00:24.004	$GPGGA,220022,2543.5441,N,08000.9067,W,1,10,1.5,19,M,,M,,*69
06/09/2014	22:00:25.058	$GPGGA,220023,2543.5452,N,08000.9052,W,1,10,1.5,19,M,,M,,*6C
06/09/2014	22:00:26.135	$GPGGA,220024,2543.5463,N,08000.9038,W,1,10,1.5,19,M,,M,,*65
06/09/2014	22:00:27.164	$GPGGA,220025,2543.5475,N,08000.9024,W,1,10,1.5,19,M,,M,,*6E
06/09/2014	22:00:28.239	$GPGGA,220026,2543.5484,N,08000.9010,W,1,10,1.5,19,M,,M,,*64
06/09/2014	22:00:29.274	$GPGGA,220027,2543.5495,N,08000.8996,W,1,10,1.5,19,M,,M,,*63
06/09/2014	22:00:31.850	$GPGGA,220029,2543.5517,N,08000.8967,W,1,10,1.5,19,M,,M,,*68
06/09/2014	22:00:32.454	$GPGGA,220030,2543.5527,N,08000.8952,W,1,10,1.5,19,M,,M,,*65
06/09/2014	22:00:33.610	$GPGGA,220031,2543.5538,N,08000.8938,W,1,10,1.5,19,M,,M,,*66
06/09/2014	22:00:34.766	$GPGGA,220032,2543.5549,N,08000.8924,W,1,10,1.5,19,M,,M,,*6E
06/09/2014	22:00:35.794	$GPGGA,220033,2543.5560,N,08000.8910,W,1,10,1.5,19,M,,M,,*63
06/09/2014	22:00:36.864	$GPGGA,220034,2543.5571,N,08000.8897,W,1,10,1.5,19,M,,M,,*6A
06/09/2014	22:00:37.935	$GPGGA,220035,2543.5582,N,08000.8882,W,1,10,1.5,19,M,,M,,*63
06/09/2014	22:00:39.006	$GPGGA,220036,2543.5592,N,08000.8868,W,1,10,1.5,19,M,,M,,*65
06/09/2014	22:00:40.045	$GPGGA,220037,2543.5603,N,08000.8854,W,1,10,1.5,19,M,,M,,*60
06/09/2014	22:00:41.102	$GPGGA,220038,2543.5614,N,08000.8840,W,1,10,1.5,19,M,,M,,*6C
06/09/2014	22:00:42.141	$GPGGA,220039,2543.5625,N,08000.8826,W,1,10,1.5,19,M,,M,,*6F
06/09/2014	22:00:43.237	$GPGGA,220040,2543.5636,N,08000.8812,W,1,10,1.5,19,M,,M,,*64
06/09/2014	22:00:40.606	$GPGGA,220041,2543.5647,N,08000.8798,W,1,9,1.5,19,M,,M,,*56
06/09/2014	22:00:41.731	$GPGGA,220042,2543.5658,N,08000.8784,W,1,9,1.5,19,M,,M,,*56
06/09/2014	22:00:42.695	$GPGGA,220043,2543.5668,N,08000.8770,W,1,9,1.9,19,M,,M,,*53
06/09/2014	22:00:43.850	$GPGGA,220044,2543.5679,N,08000.8756,W,1,9,2.1,19,M,,M,,*5B
06/09/2014	22:00:44.900	$GPGGA,220045,2543.5690,N,08000.8744,W,1,10,1.5,19,M,,M,,*61
06/09/2014	22:00:45.950	$GPGGA,220046,2543.5701,N,08000.8730,W,1,10,1.5,19,M,,M,,*68
06/09/2014	22:00:46.989	$GPGGA,220047,2543.5711,N,08000.8715,W,1,10,1.5,19,M,,M,,*6F
06/09/2014	22:00:47.996	$GPGGA,220048,2543.5721,N,08000.8697,W,1,10,1.8,19,M,,M,,*65
06/09/2014	22:00:49.088	$GPGGA,220049,2543.5732,N,08000.8682,W,1,10,1.5,19,M,,M,,*6F
06/09/2014	22:00:50.107	$GPGGA,220050,2543.5741,N,08000.8666,W,1,10,1.7,19,M,,M,,*6B
06/09/2014	22:00:51.210	$GPGGA,220051,2543.5752,N,08000.8652,W,1,10,1.5,19,M,,M,,*6D
06/09/2014	22:00:52.321	$GPGGA,220052,2543.5764,N,08000.8637,W,1,10,1.7,19,M,,M,,*6A
06/09/2014	22:00:53.328	$GPGGA,220053,2543.5775,N,08000.8622,W,1,9,1.7,19,M,,M,,*57
06/09/2014	22:00:54.336	$GPGGA,220054,2543.5786,N,08000.8607,W,1,9,1.7,19,M,,M,,*5B
06/09/2014	22:00:55.438	$GPGGA,220055,2543.5797,N,08000.8592,W,1,8,2.2,19,M,,M,,*52
06/09/2014	22:00:56.456	$GPGGA,220056,2543.5808,N,08000.8577,W,1,8,1.7,19,M,,M,,*55
06/09/2014	22:00:57.507	$GPGGA,220057,2543.5820,N,08000.8563,W,1,9,1.7,19,M,,M,,*5A
06/09/2014	22:00:58.630	$GPGGA,220058,2543.5830,N,08000.8549,W,1,9,1.7,19,M,,M,,*5C
06/09/2014	22:00:59.722	$GPGGA,220059,2543.5841,N,08000.8534,W,1,10,1.7,19,M,,M,,*69
06/09/2014	22:01:00.708	$GPGGA,220100,2543.5852,N,08000.8520,W,1,10,1.7,19,M,,M,,*63
06/09/2014	22:01:01.736	$GPGGA,220101,2543.5863,N,08000.8505,W,1,9,1.7,19,M,,M,,*5F
06/09/2014	22:01:02.892	$GPGGA,220102,2543.5873,N,08000.8493,W,1,9,1.5,19,M,,M,,*51
06/09/2014	22:01:03.910	$GPGGA,220103,2543.5884,N,08000.8479,W,1,10,1.5,19,M,,M,,*64
06/09/2014	22:01:04.928	$GPGGA,220104,2543.5895,N,08000.8464,W,1,10,1.7,19,M,,M,,*6D
06/09/2014	22:01:05.967	$GPGGA,220105,2543.5907,N,08000.8449,W,1,8,2.2,19,M,,M,,*56
06/09/2014	22:01:07.102	$GPGGA,220106,2543.5918,N,08000.8435,W,1,8,1.7,19,M,,M,,*56
06/09/2014	22:01:08.205	$GPGGA,220107,2543.5928,N,08000.8421,W,1,9,1.8,18,M,,M,,*5E
06/09/2014	22:01:09.234	$GPGGA,220108,2543.5939,N,08000.8406,W,1,9,1.8,18,M,,M,,*54
06/09/2014	22:01:10.240	$GPGGA,220109,2543.5952,N,08000.8392,W,1,9,1.8,18,M,,M,,*52
06/09/2014	22:01:11.321	$GPGGA,220110,2543.5961,N,08000.8379,W,1,9,1.5,18,M,,M,,*52
06/09/2014	22:01:12.360	$GPGGA,220111,2543.5974,N,08000.8367,W,1,10,1.5,18,M,,M,,*60
06/09/2014	22:01:13.537	$GPGGA,220112,2543.5985,N,08000.8354,W,1,10,1.5,18,M,,M,,*6D
06/09/2014	22:01:14.512	$GPGGA,220113,2543.5996,N,08000.8341,W,1,10,2.1,18,M,,M,,*6D
06/09/2014	22:01:15.604	$GPGGA,220114,2543.6007,N,08000.8327,W,1,10,2.1,18,M,,M,,*68
06/09/2014	22:01:16.622	$GPGGA,220115,2543.6017,N,08000.8313,W,1,8,1.9,18,M,,M,,*5D
06/09/2014	22:01:17.693	$GPGGA,220116,2543.6029,N,08000.8301,W,1,8,1.5,18,M,,M,,*5C
06/09/2014	22:01:18.817	$GPGGA,220117,2543.6040,N,08000.8288,W,1,10,1.8,18,M,,M,,*66
06/09/2014	22:01:19.803	$GPGGA,220118,2543.6051,N,08000.8277,W,1,10,1.5,18,M,,M,,*64
06/09/2014	22:01:20.895	$GPGGA,220119,2543.6061,N,08000.8264,W,1,10,1.5,18,M,,M,,*64
06/09/2014	22:01:21.934	$GPGGA,220120,2543.6072,N,08000.8250,W,1,10,1.5,18,M,,M,,*6B
06/09/2014	22:01:23.016	$GPGGA,220121,2543.6083,N,08000.8237,W,1,10,1.5,18,M,,M,,*65
06/09/2014	22:01:24.044	$GPGGA,220122,2543.6091,N,08000.8223,W,1,10,1.5,18,M,,M,,*60
06/09/2014	22:01:25.179	$GPGGA,220123,2543.6102,N,08000.8209,W,1,10,1.5,18,M,,M,,*62
06/09/2014	22:01:26.208	$GPGGA,220124,2543.6113,N,08000.8196,W,1,10,1.5,18,M,,M,,*60
06/09/2014	22:01:27.281	$GPGGA,220125,2543.6124,N,08000.8182,W,1,10,1.5,18,M,,M,,*60
06/09/2014	22:01:28.317	$GPGGA,220126,2543.6134,N,08000.8168,W,1,10,1.5,18,M,,M,,*66
06/09/2014	22:01:29.376	$GPGGA,220127,2543.6145,N,08000.8154,W,1,10,1.5,18,M,,M,,*6E
06/09/2014	22:01:30.437	$GPGGA,220128,2543.6156,N,08000.8140,W,1,10,1.5,18,M,,M,,*66
06/09/2014	22:01:31.497	$GPGGA,220129,2543.6167,N,08000.8126,W,1,10,1.5,18,M,,M,,*65
06/09/2014	22:01:32.536	$GPGGA,220130,2543.6178,N,08000.8112,W,1,10,1.5,18,M,,M,,*64
06/09/2014	22:01:33.639	$GPGGA,220131,2543.6189,N,08000.8098,W,1,10,1.5,18,M,,M,,*68
06/09/2014	22:01:34.710	$GPGGA,220132,2543.6199,N,08000.8084,W,1,10,1.5,18,M,,M,,*67
06/09/2014	22:01:35.728	$GPGGA,220133,2543.6210,N,08000.8070,W,1,10,1.5,18,M,,M,,*6F
06/09/2014	22:01:36.767	$GPGGA,220134,2543.6221,N,08000.8055,W,1,10,1.5,19,M,,M,,*6C
06/09/2014	22:01:37.859	$GPGGA,220135,2543.6232,N,08000.8041,W,1,10,1.5,19,M,,M,,*6A
06/09/2014	22:01:38.908	$GPGGA,220136,2543.6243,N,08000.8027,W,1,10,1.5,19,M,,M,,*6F
06/09/2014	22:01:39.958	$GPGGA,220137,2543.6253,N,08000.8012,W,1,10,1.5,19,M,,M,,*69
06/09/2014	22:01:41.008	$GPGGA,220138,2543.6264,N,08000.7998,W,1,10,1.5,19,M,,M,,*66
06/09/2014	22:01:42.100	$GPGGA,220139,2543.6274,N,08000.7984,W,1,10,1.5,19,M,,M,,*6B
06/09/2014	22:01:43.150	$GPGGA,220140,2543.6286,N,08000.7969,W,1,10,1.5,19,M,,M,,*6B
06/09/2014	22:01:40.583	$GPGGA,220141,2543.6297,N,08000.7955,W,1,10,1.5,19,M,,M,,*65
06/09/2014	22:01:41.633	$GPGGA,220142,2543.6307,N,08000.7940,W,1,10,1.5,19,M,,M,,*6A
06/09/2014	22:01:42.726	$GPGGA,220143,2543.6318,N,08000.7926,W,1,10,1.5,19,M,,M,,*65
06/09/2014	22:01:43.763	$GPGGA,220144,2543.6329,N,08000.7912,W,1,10,1.5,19,M,,M,,*67
06/09/2014	22:01:44.824	$GPGGA,220145,2543.6339,N,08000.7897,W,1,10,1.5,19,M,,M,,*6B
06/09/2014	22:01:45.863	$GPGGA,220146,2543.6350,N,08000.7883,W,1,10,1.5,19,M,,M,,*62
06/09/2014	22:01:46.934	$GPGGA,220147,2543.6359,N,08000.7869,W,1,10,1.5,19,M,,M,,*6E
06/09/2014	22:01:47.994	$GPGGA,220148,2543.6371,N,08000.7855,W,1,10,1.5,20,M,,M,,*6E
06/09/2014	22:01:49.022	$GPGGA,220149,2543.6382,N,08000.7840,W,1,10,2.1,20,M,,M,,*60
06/09/2014	22:01:50.106	$GPGGA,220150,2543.6382,N,08000.7840,W,1,10,2.1,20,M,,M,,*68
06/09/2014	22:01:51.143	$GPGGA,220151,2543.6405,N,08000.7816,W,1,10,1.5,20,M,,M,,*65
06/09/2014	22:01:52.277	$GPGGA,220152,2543.6405,N,08000.7816,W,1,10,1.5,20,M,,M,,*66
06/09/2014	22:01:53.306	$GPGGA,220153,2543.6427,N,08000.7786,W,1,10,1.8,20,M,,M,,*6C
06/09/2014	22:01:54.334	$GPGGA,220154,2543.6436,N,08000.7771,W,1,10,1.8,20,M,,M,,*63
06/09/2014	22:01:55.395	$GPGGA,220155,2543.6436,N,08000.7771,W,1,9,1.8,20,M,,M,,*5A
06/09/2014	22:01:56.434	$GPGGA,220156,2543.6447,N,08000.7758,W,1,9,1.5,20,M,,M,,*59
06/09/2014	22:01:57.526	$GPGGA,220157,2543.6469,N,08000.7728,W,1,10,1.5,20,M,,M,,*6B
06/09/2014	22:01:58.554	$GPGGA,220158,2543.6469,N,08000.7728,W,1,10,1.7,20,M,,M,,*66
06/09/2014	22:01:59.594	$GPGGA,220159,2543.6488,N,08000.7703,W,1,9,1.8,20,M,,M,,*56
06/09/2014	22:02:00.739	$GPGGA,220200,2543.6488,N,08000.7703,W,1,9,1.8,20,M,,M,,*59
06/09/2014	22:02:01.841	$GPGGA,220201,2543.6510,N,08000.7671,W,1,9,1.7,19,M,,M,,*59
06/09/2014	22:02:02.802	$GPGGA,220202,2543.6510,N,08000.7671,W,1,9,1.5,19,M,,M,,*58
06/09/2014	22:02:03.950	$GPGGA,220203,2543.6532,N,08000.7641,W,1,9,1.7,19,M,,M,,*58
06/09/2014	22:02:05.011	$GPGGA,220204,2543.6541,N,08000.7630,W,1,9,2.2,19,M,,M,,*5B
06/09/2014	22:02:06.071	$GPGGA,220205,2543.6553,N,08000.7617,W,1,9,1.8,19,M,,M,,*55
06/09/2014	22:02:07.015	$GPGGA,220206,2543.6553,N,08000.7617,W,1,9,1.7,19,M,,M,,*59
06/09/2014	22:02:08.202	$GPGGA,220207,2543.6572,N,08000.7591,W,1,10,1.5,19,M,,M,,*6C
06/09/2014	22:02:09.156	$GPGGA,220208,2543.6572,N,08000.7591,W,1,10,1.8,19,M,,M,,*6E
06/09/2014	22:02:10.280	$GPGGA,220209,2543.6596,N,08000.7560,W,1,7,2.5,19,M,,M,,*53
06/09/2014	22:02:11.245	$GPGGA,220210,2543.6596,N,08000.7560,W,1,7,2.5,19,M,,M,,*5B
06/09/2014	22:02:12.401	$GPGGA,220211,2543.6615,N,08000.7531,W,1,9,1.8,19,M,,M,,*56
06/09/2014	22:02:13.493	$GPGGA,220212,2543.6626,N,08000.7517,W,1,9,1.8,19,M,,M,,*51
06/09/2014	22:02:14.566	$GPGGA,220213,2543.6637,N,08000.7504,W,1,8,2.1,19,M,,M,,*59
06/09/2014	22:02:15.592	$GPGGA,220214,2543.6648,N,08000.7490,W,1,8,1.9,19,M,,M,,*51
06/09/2014	22:02:16.653	$GPGGA,220215,2543.6661,N,08000.7477,W,1,10,1.5,19,M,,M,,*67
06/09/2014	22:02:17.724	$GPGGA,220216,2543.6669,N,08000.7463,W,1,10,2.0,19,M,,M,,*6F
06/09/2014	22:02:18.773	$GPGGA,220217,2543.6680,N,08000.7450,W,1,9,1.9,19,M,,M,,*5B
06/09/2014	22:02:19.812	$GPGGA,220218,2543.6691,N,08000.7436,W,1,9,1.5,19,M,,M,,*58
06/09/2014	22:02:20.893	$GPGGA,220219,2543.6702,N,08000.7421,W,1,9,1.9,19,M,,M,,*58
06/09/2014	22:02:21.953	$GPGGA,220220,2543.6712,N,08000.7407,W,1,9,1.7,19,M,,M,,*59
06/09/2014	22:02:22.982	$GPGGA,220221,2543.6720,N,08000.7392,W,1,10,1.5,19,M,,M,,*68
06/09/2014	22:02:24.053	$GPGGA,220222,2543.6731,N,08000.7378,W,1,10,1.5,19,M,,M,,*6F
06/09/2014	22:02:25.102	$GPGGA,220223,2543.6742,N,08000.7365,W,1,10,1.5,19,M,,M,,*66
06/09/2014	22:02:26.216	$GPGGA,220224,2543.6754,N,08000.7352,W,1,10,1.5,19,M,,M,,*62
06/09/2014	22:02:27.244	$GPGGA,220225,2543.6766,N,08000.7338,W,1,10,1.5,20,M,,M,,*64
06/09/2014	22:02:28.273	$GPGGA,220226,2543.6774,N,08000.7322,W,1,10,2.0,20,M,,M,,*69
06/09/2014	22:02:29.375	$GPGGA,220227,2543.6785,N,08000.7308,W,1,10,1.5,20,M,,M,,*68
06/09/2014	22:02:30.425	$GPGGA,220228,2543.6796,N,08000.7294,W,1,10,1.5,20,M,,M,,*61
06/09/2014	22:02:31.443	$GPGGA,220229,2543.6807,N,08000.7281,W,1,10,1.5,20,M,,M,,*63
06/09/2014	22:02:32.514	$GPGGA,220230,2543.6820,N,08000.7267,W,1,10,1.5,20,M,,M,,*66
06/09/2014	22:02:33.595	$GPGGA,220231,2543.6831,N,08000.7253,W,1,10,1.5,20,M,,M,,*60
06/09/2014	22:02:34.656	$GPGGA,220232,2543.6841,N,08000.7240,W,1,10,1.5,20,M,,M,,*66
06/09/2014	22:02:35.726	$GPGGA,220233,2543.6852,N,08000.7227,W,1,10,1.5,20,M,,M,,*64
06/09/2014	22:02:36.744	$GPGGA,220234,2543.6863,N,08000.7213,W,1,10,1.5,20,M,,M,,*66
06/09/2014	22:02:39.204	$GPGGA,220236,2543.6885,N,08000.7186,W,1,10,1.5,21,M,,M,,*62
06/09/2014	22:02:39.914	$GPGGA,220237,2543.6896,N,08000.7172,W,1,10,1.5,21,M,,M,,*6A
06/09/2014	22:02:40.984	$GPGGA,220238,2543.6908,N,08000.7158,W,1,10,1.5,21,M,,M,,*6B
06/09/2014	22:02:42.036	$GPGGA,220239,2543.6918,N,08000.7144,W,1,10,1.5,21,M,,M,,*66
06/09/2014	22:02:43.232	$GPGGA,220240,2543.6929,N,08000.7130,W,1,10,1.5,21,M,,M,,*69
06/09/2014	22:02:40.570	$GPGGA,220241,2543.6940,N,08000.7116,W,1,10,1.5,21,M,,M,,*63
06/09/2014	22:02:41.694	$GPGGA,220242,2543.6951,N,08000.7102,W,1,10,1.5,21,M,,M,,*65
06/09/2014	22:02:42.658	$GPGGA,220243,2543.6962,N,08000.7088,W,1,10,1.5,21,M,,M,,*67
06/09/2014	22:02:43.740	$GPGGA,220244,2543.6973,N,08000.7073,W,1,10,1.5,21,M,,M,,*64
06/09/2014	22:02:44.790	$GPGGA,220245,2543.6983,N,08000.7060,W,1,10,1.5,21,M,,M,,*68
06/09/2014	22:02:45.839	$GPGGA,220246,2543.6994,N,08000.7046,W,1,10,1.5,21,M,,M,,*69
06/09/2014	22:02:47.027	$GPGGA,220247,2543.7005,N,08000.7032,W,1,10,1.5,21,M,,M,,*6B
06/09/2014	22:02:47.971	$GPGGA,220248,2543.7016,N,08000.7018,W,1,10,1.5,21,M,,M,,*6E
06/09/2014	22:02:48.988	$GPGGA,220249,2543.7026,N,08000.7004,W,1,10,1.5,21,M,,M,,*61
06/09/2014	22:02:50.076	$GPGGA,220250,2543.7037,N,08000.6988,W,1,10,1.9,21,M,,M,,*69
06/09/2014	22:02:51.250	$GPGGA,220251,2543.7048,N,08000.6974,W,1,10,1.5,21,M,,M,,*6F
06/09/2014	22:02:52.298	$GPGGA,220252,2543.7058,N,08000.6961,W,1,10,1.5,21,M,,M,,*69
06/09/2014	22:02:53.389	$GPGGA,220253,2543.7069,N,08000.6947,W,1,10,1.5,21,M,,M,,*6E
06/09/2014	22:02:54.310	$GPGGA,220254,2543.7081,N,08000.6934,W,1,10,1.5,21,M,,M,,*6B
06/09/2014	22:02:55.360	$GPGGA,220255,2543.7090,N,08000.6920,W,1,10,1.5,21,M,,M,,*6F
06/09/2014	22:02:56.434	$GPGGA,220256,2543.7101,N,08000.6905,W,1,10,1.5,21,M,,M,,*62
06/09/2014	22:02:57.576	$GPGGA,220257,2543.7112,N,08000.6892,W,1,10,1.5,21,M,,M,,*6E
06/09/2014	22:02:58.637	$GPGGA,220258,2543.7123,N,08000.6877,W,1,10,1.5,21,M,,M,,*68
06/09/2014	22:02:59.686	$GPGGA,220259,2543.7132,N,08000.6863,W,1,10,1.5,21,M,,M,,*6C
06/09/2014	22:03:00.769	$GPGGA,220300,2543.7143,N,08000.6849,W,1,10,1.5,21,M,,M,,*6F
06/09/2014	22:03:01.796	$GPGGA,220301,2543.7155,N,08000.6835,W,1,10,1.5,21,M,,M,,*62
06/09/2014	22:03:02.856	$GPGGA,220302,2543.7166,N,08000.6821,W,1,10,1.5,21,M,,M,,*64
06/09/2014	22:03:03.916	$GPGGA,220303,2543.7175,N,08000.6807,W,1,10,1.5,21,M,,M,,*63
06/09/2014	22:03:04.987	$GPGGA,220304,2543.7186,N,08000.6793,W,1,10,1.5,21,M,,M,,*6A
06/09/2014	22:03:06.078	$GPGGA,220305,2543.7197,N,08000.6778,W,1,10,1.5,21,M,,M,,*6E
06/09/2014	22:03:07.108	$GPGGA,220306,2543.7208,N,08000.6764,W,1,10,1.5,21,M,,M,,*65
06/09/2014	22:03:08.158	$GPGGA,220307,2543.7220,N,08000.6750,W,1,10,1.5,21,M,,M,,*69
06/09/2014	22:03:09.229	$GPGGA,220308,2543.7231,N,08000.6735,W,1,10,1.5,21,M,,M,,*65
06/09/2014	22:03:10.268	$GPGGA,220309,2543.7240,N,08000.6721,W,1,10,1.5,21,M,,M,,*67
06/09/2014	22:03:11.328	$GPGGA,220310,2543.7251,N,08000.6707,W,1,10,1.5,21,M,,M,,*6B
06/09/2014	22:03:12.410	$GPGGA,220311,2543.7262,N,08000.6693,W,1,10,1.5,21,M,,M,,*66
06/09/2014	22:03:13.509	$GPGGA,220312,2543.7273,N,08000.6679,W,1,10,1.5,21,M,,M,,*61
06/09/2014	22:03:14.497	$GPGGA,220313,2543.7285,N,08000.6664,W,1,10,1.5,21,M,,M,,*65
06/09/2014	22:03:15.557	$GPGGA,220314,2543.7296,N,08000.6650,W,1,10,1.5,21,M,,M,,*67
06/09/2014	22:03:16.607	$GPGGA,220315,2543.7307,N,08000.6636,W,1,10,1.5,21,M,,M,,*6F
06/09/2014	22:03:17.689	$GPGGA,220316,2543.7316,N,08000.6622,W,1,10,1.5,21,M,,M,,*69
06/09/2014	22:03:18.728	$GPGGA,220317,2543.7327,N,08000.6607,W,1,10,1.5,21,M,,M,,*6D
06/09/2014	22:03:19.799	$GPGGA,220318,2543.7338,N,08000.6594,W,1,10,1.5,21,M,,M,,*65
06/09/2014	22:03:20.870	$GPGGA,220319,2543.7350,N,08000.6579,W,1,10,1.5,21,M,,M,,*69
06/09/2014	22:03:21.930	$GPGGA,220320,2543.7361,N,08000.6564,W,1,10,1.7,21,M,,M,,*6F
06/09/2014	22:03:22.958	$GPGGA,220321,2543.7372,N,08000.6550,W,1,10,1.5,21,M,,M,,*69
06/09/2014	22:03:24.029	$GPGGA,220322,2543.7383,N,08000.6536,W,1,10,1.5,21,M,,M,,*64
06/09/2014	22:03:25.084	$GPGGA,220323,2543.7392,N,08000.6522,W,1,9,1.8,21,M,,M,,*55
06/09/2014	22:03:26.127	$GPGGA,220324,2543.7402,N,08000.6509,W,1,9,1.5,21,M,,M,,*58
06/09/2014	22:03:27.150	$GPGGA,220325,2543.7413,N,08000.6495,W,1,10,1.5,21,M,,M,,*65
06/09/2014	22:03:28.153	$GPGGA,220326,2543.7426,N,08000.6479,W,1,10,1.8,21,M,,M,,*6F
06/09/2014	22:03:29.299	$GPGGA,220327,2543.7435,N,08000.6467,W,1,8,2.2,21,M,,M,,*53
06/09/2014	22:03:30.190	$GPGGA,220328,2543.7446,N,08000.6454,W,1,8,1.5,21,M,,M,,*5C
06/09/2014	22:03:31.243	$GPGGA,220329,2543.7459,N,08000.6438,W,1,10,1.5,21,M,,M,,*60
06/09/2014	22:03:32.235	$GPGGA,220330,2543.7470,N,08000.6423,W,1,10,2.2,21,M,,M,,*6D
06/09/2014	22:03:33.258	$GPGGA,220331,2543.7480,N,08000.6408,W,1,9,1.7,21,M,,M,,*54
06/09/2014	22:03:34.302	$GPGGA,220332,2543.7489,N,08000.6395,W,1,9,1.5,21,M,,M,,*5F
06/09/2014	22:03:35.285	$GPGGA,220333,2543.7502,N,08000.6381,W,1,10,1.5,20,M,,M,,*60
06/09/2014	22:03:36.339	$GPGGA,220334,2543.7514,N,08000.6367,W,1,10,1.7,20,M,,M,,*6A
06/09/2014	22:03:37.436	$GPGGA,220335,2543.7525,N,08000.6353,W,1,10,1.5,20,M,,M,,*6C
06/09/2014	22:03:38.365	$GPGGA,220336,2543.7536,N,08000.6340,W,1,10,1.5,20,M,,M,,*6F
06/09/2014	22:03:39.511	$GPGGA,220337,2543.7549,N,08000.6326,W,1,10,1.5,20,M,,M,,*66
06/09/2014	22:03:40.411	$GPGGA,220338,2543.7560,N,08000.6312,W,1,10,1.5,20,M,,M,,*65
06/09/2014	22:03:41.568	$GPGGA,220339,2543.7571,N,08000.6299,W,1,10,1.5,20,M,,M,,*66
06/09/2014	22:03:42.468	$GPGGA,220340,2543.7582,N,08000.6285,W,1,10,1.5,20,M,,M,,*69
06/09/2014	22:03:40.611	$GPGGA,220341,2543.7593,N,08000.6272,W,1,10,1.5,20,M,,M,,*60
06/09/2014	22:03:41.542	$GPGGA,220342,2543.7604,N,08000.6259,W,1,10,1.5,20,M,,M,,*67
06/09/2014	22:03:42.555	$GPGGA,220343,2543.7615,N,08000.6245,W,1,10,1.5,20,M,,M,,*6B
06/09/2014	22:03:43.673	$GPGGA,220344,2543.7625,N,08000.6231,W,1,10,1.5,20,M,,M,,*6C
06/09/2014	22:03:44.673	$GPGGA,220345,2543.7634,N,08000.6217,W,1,10,1.5,20,M,,M,,*69
06/09/2014	22:03:45.618	$GPGGA,220346,2543.7647,N,08000.6204,W,1,10,1.5,20,M,,M,,*6C
06/09/2014	22:03:46.753	$GPGGA,220347,2543.7658,N,08000.6190,W,1,10,1.5,20,M,,M,,*6D
06/09/2014	22:03:47.773	$GPGGA,220348,2543.7668,N,08000.6176,W,1,10,1.5,20,M,,M,,*69
06/09/2014	22:03:48.789	$GPGGA,220349,2543.7679,N,08000.6162,W,1,10,1.5,20,M,,M,,*6D
06/09/2014	22:03:49.686	$GPGGA,220350,2543.7691,N,08000.6147,W,1,10,1.5,20,M,,M,,*64
06/09/2014	22:03:50.822	$GPGGA,220351,2543.7702,N,08000.6133,W,1,10,1.5,20,M,,M,,*6D
06/09/2014	22:03:51.845	$GPGGA,220352,2543.7710,N,08000.6119,W,1,10,1.5,20,M,,M,,*65
06/09/2014	22:03:52.869	$GPGGA,220353,2543.7721,N,08000.6105,W,1,10,1.5,20,M,,M,,*6B
06/09/2014	22:03:53.871	$GPGGA,220354,2543.7733,N,08000.6091,W,1,10,1.5,20,M,,M,,*63
06/09/2014	22:03:54.915	$GPGGA,220355,2543.7742,N,08000.6077,W,1,10,1.5,20,M,,M,,*6C
06/09/2014	22:03:55.939	$GPGGA,220356,2543.7753,N,08000.6063,W,1,10,1.5,20,M,,M,,*6A
06/09/2014	22:03:56.975	$GPGGA,220357,2543.7764,N,08000.6048,W,1,10,1.5,20,M,,M,,*66
06/09/2014	22:03:57.965	$GPGGA,220358,2543.7775,N,08000.6034,W,1,10,1.5,20,M,,M,,*62
06/09/2014	22:03:59.008	$GPGGA,220359,2543.7785,N,08000.6020,W,1,10,1.5,20,M,,M,,*69
06/09/2014	22:04:00.021	$GPGGA,220400,2543.7796,N,08000.6006,W,1,10,1.5,20,M,,M,,*64
06/09/2014	22:04:01.024	$GPGGA,220401,2543.7807,N,08000.5991,W,1,10,1.5,20,M,,M,,*66
06/09/2014	22:04:02.037	$GPGGA,220402,2543.7818,N,08000.5977,W,1,10,1.5,20,M,,M,,*63
06/09/2014	22:04:03.081	$GPGGA,220403,2543.7828,N,08000.5963,W,1,10,1.5,20,M,,M,,*64
06/09/2014	22:04:04.103	$GPGGA,220404,2543.7839,N,08000.5948,W,1,10,1.5,20,M,,M,,*6A
06/09/2014	22:04:05.137	$GPGGA,220405,2543.7850,N,08000.5934,W,1,10,1.5,20,M,,M,,*6F
06/09/2014	22:04:06.120	$GPGGA,220406,2543.7861,N,08000.5920,W,1,10,1.5,20,M,,M,,*6B
06/09/2014	22:04:07.150	$GPGGA,220407,2543.7872,N,08000.5906,W,1,10,1.5,20,M,,M,,*6C
06/09/2014	22:04:08.176	$GPGGA,220408,2543.7883,N,08000.5891,W,1,10,1.5,20,M,,M,,*62
06/09/2014	22:04:09.220	$GPGGA,220409,2543.7894,N,08000.5877,W,1,10,1.5,20,M,,M,,*6D
06/09/2014	22:04:10.213	$GPGGA,220410,2543.7905,N,08000.5862,W,1,10,1.5,20,M,,M,,*68
06/09/2014	22:04:11.226	$GPGGA,220411,2543.7915,N,08000.5848,W,1,10,1.5,20,M,,M,,*60
06/09/2014	22:04:12.269	$GPGGA,220412,2543.7926,N,08000.5833,W,1,10,1.5,20,M,,M,,*6F
06/09/2014	22:04:13.272	$GPGGA,220413,2543.7937,N,08000.5819,W,1,10,1.5,20,M,,M,,*66
06/09/2014	22:04:14.306	$GPGGA,220414,2543.7948,N,08000.5805,W,1,10,1.5,20,M,,M,,*64
06/09/2014	22:04:15.329	$GPGGA,220415,2543.7959,N,08000.5790,W,1,10,1.5,20,M,,M,,*66
06/09/2014	22:04:16.342	$GPGGA,220416,2543.7970,N,08000.5775,W,1,10,1.5,20,M,,M,,*65
06/09/2014	22:04:17.386	$GPGGA,220417,2543.7980,N,08000.5761,W,1,10,1.5,20,M,,M,,*6E
06/09/2014	22:04:18.370	$GPGGA,220418,2543.7991,N,08000.5747,W,1,10,1.5,20,M,,M,,*65
06/09/2014	22:04:19.494	$GPGGA,220419,2543.8002,N,08000.5732,W,1,10,1.5,20,M,,M,,*6A
06/09/2014	22:04:20.435	$GPGGA,220420,2543.8013,N,08000.5718,W,1,10,1.5,20,M,,M,,*68
06/09/2014	22:04:21.449	$GPGGA,220421,2543.8024,N,08000.5703,W,1,10,1.5,20,M,,M,,*67
06/09/2014	22:04:22.564	$GPGGA,220422,2543.8035,N,08000.5689,W,1,10,1.5,20,M,,M,,*67
06/09/2014	22:04:23.473	$GPGGA,220423,2543.8046,N,08000.5674,W,1,10,1.5,19,M,,M,,*6A
06/09/2014	22:04:24.650	$GPGGA,220424,2543.8057,N,08000.5660,W,1,10,1.5,19,M,,M,,*68
06/09/2014	22:04:25.531	$GPGGA,220425,2543.8067,N,08000.5646,W,1,10,1.5,19,M,,M,,*6E
06/09/2014	22:04:26.564	$GPGGA,220426,2543.8078,N,08000.5631,W,1,10,1.5,19,M,,M,,*63
06/09/2014	22:04:27.578	$GPGGA,220427,2543.8091,N,08000.5617,W,1,10,1.5,19,M,,M,,*61
06/09/2014	22:04:28.610	$GPGGA,220428,2543.8100,N,08000.5603,W,1,10,1.5,19,M,,M,,*62
06/09/2014	22:04:29.727	$GPGGA,220429,2543.8111,N,08000.5588,W,1,10,1.5,19,M,,M,,*63
06/09/2014	22:04:30.647	$GPGGA,220430,2543.8122,N,08000.5574,W,1,10,1.5,19,M,,M,,*68
06/09/2014	22:04:31.783	$GPGGA,220431,2543.8134,N,08000.5560,W,1,10,1.5,19,M,,M,,*6B
06/09/2014	22:04:32.826	$GPGGA,220432,2543.8145,N,08000.5546,W,1,10,1.5,19,M,,M,,*6A
06/09/2014	22:04:33.850	$GPGGA,220433,2543.8154,N,08000.5532,W,1,10,1.5,19,M,,M,,*68
06/09/2014	22:04:34.730	$GPGGA,220434,2543.8167,N,08000.5517,W,1,10,1.5,19,M,,M,,*68
06/09/2014	22:04:35.733	$GPGGA,220435,2543.8178,N,08000.5503,W,1,10,1.5,19,M,,M,,*62
06/09/2014	22:04:36.881	$GPGGA,220436,2543.8189,N,08000.5489,W,1,10,1.5,19,M,,M,,*6C
06/09/2014	22:04:37.892	$GPGGA,220437,2543.8200,N,08000.5474,W,1,10,1.5,19,M,,M,,*6D
06/09/2014	22:04:38.803	$GPGGA,220438,2543.8211,N,08000.5460,W,1,10,1.5,19,M,,M,,*67
06/09/2014	22:04:39.937	$GPGGA,220439,2543.8222,N,08000.5446,W,1,10,1.5,18,M,,M,,*63
06/09/2014	22:04:40.971	$GPGGA,220440,2543.8233,N,08000.5431,W,1,10,1.5,18,M,,M,,*6D
06/09/2014	22:04:40.597	$GPGGA,220441,2543.8244,N,08000.5417,W,1,10,1.5,18,M,,M,,*68
06/09/2014	22:04:41.590	$GPGGA,220442,2543.8255,N,08000.5403,W,1,10,1.5,18,M,,M,,*6E
06/09/2014	22:04:42.634	$GPGGA,220443,2543.8266,N,08000.5389,W,1,10,1.5,18,M,,M,,*6A
06/09/2014	22:04:43.657	$GPGGA,220444,2543.8277,N,08000.5375,W,1,10,1.5,18,M,,M,,*6E
06/09/2014	22:04:44.680	$GPGGA,220445,2543.8288,N,08000.5361,W,1,10,1.5,18,M,,M,,*6A
06/09/2014	22:04:45.673	$GPGGA,220446,2543.8299,N,08000.5347,W,1,10,1.5,18,M,,M,,*6D
06/09/2014	22:04:46.717	$GPGGA,220447,2543.8311,N,08000.5332,W,1,10,1.5,18,M,,M,,*6F
06/09/2014	22:04:47.740	$GPGGA,220448,2543.8320,N,08000.5318,W,1,10,1.5,18,M,,M,,*6A
06/09/2014	22:04:48.763	$GPGGA,220449,2543.8333,N,08000.5304,W,1,10,1.5,18,M,,M,,*64
06/09/2014	22:04:49.766	$GPGGA,220450,2543.8345,N,08000.5290,W,1,10,1.5,18,M,,M,,*61
06/09/2014	22:04:50.800	$GPGGA,220451,2543.8353,N,08000.5276,W,1,10,1.5,18,M,,M,,*6F
06/09/2014	22:04:51.823	$GPGGA,220452,2543.8364,N,08000.5262,W,1,10,1.5,18,M,,M,,*6D
06/09/2014	22:04:52.837	$GPGGA,220453,2543.8377,N,08000.5248,W,1,10,1.5,18,M,,M,,*66
06/09/2014	22:04:53.839	$GPGGA,220454,2543.8388,N,08000.5234,W,1,10,1.7,18,M,,M,,*68
06/09/2014	22:04:54.862	$GPGGA,220455,2543.8398,N,08000.5220,W,1,10,1.5,18,M,,M,,*6F
06/09/2014	22:04:55.906	$GPGGA,220456,2543.8410,N,08000.5206,W,1,10,1.5,18,M,,M,,*6F
06/09/2014	22:04:56.908	$GPGGA,220457,2543.8421,N,08000.5190,W,1,9,1.9,18,M,,M,,*54
06/09/2014	22:04:57.931	$GPGGA,220458,2543.8432,N,08000.5178,W,1,9,1.5,18,M,,M,,*53
06/09/2014	22:04:58.964	$GPGGA,220459,2543.8442,N,08000.5165,W,1,10,1.6,18,M,,M,,*62
06/09/2014	22:04:59.999	$GPGGA,220500,2543.8454,N,08000.5151,W,1,10,1.9,17,M,,M,,*6F
06/09/2014	22:05:01.021	$GPGGA,220501,2543.8465,N,08000.5136,W,1,10,1.6,17,M,,M,,*62
06/09/2014	22:05:02.034	$GPGGA,220502,2543.8475,N,08000.5122,W,1,10,1.6,17,M,,M,,*65
06/09/2014	22:05:03.047	$GPGGA,220503,2543.8485,N,08000.5107,W,1,10,1.6,17,M,,M,,*6C
06/09/2014	22:05:04.193	$GPGGA,220504,2543.8496,N,08000.5092,W,1,10,1.5,17,M,,M,,*67
06/09/2014	22:05:05.217	$GPGGA,220505,2543.8507,N,08000.5078,W,1,10,1.5,17,M,,M,,*6B
06/09/2014	22:05:06.110	$GPGGA,220506,2543.8517,N,08000.5064,W,1,10,1.5,17,M,,M,,*64
06/09/2014	22:05:07.253	$GPGGA,220507,2543.8526,N,08000.5050,W,1,10,1.5,18,M,,M,,*6F
06/09/2014	22:05:08.164	$GPGGA,220508,2543.8537,N,08000.5036,W,1,10,1.5,18,M,,M,,*60
06/09/2014	22:05:09.300	$GPGGA,220509,2543.8548,N,08000.5022,W,1,10,1.5,18,M,,M,,*6C
06/09/2014	22:05:10.200	$GPGGA,220510,2543.8558,N,08000.5007,W,1,10,1.5,18,M,,M,,*62
06/09/2014	22:05:11.336	$GPGGA,220511,2543.8569,N,08000.4993,W,1,10,1.6,18,M,,M,,*67
06/09/2014	22:05:12.257	$GPGGA,220512,2543.8580,N,08000.4979,W,1,10,1.6,18,M,,M,,*67
06/09/2014	22:05:13.260	$GPGGA,220513,2543.8590,N,08000.4965,W,1,10,1.6,18,M,,M,,*6A
06/09/2014	22:05:14.262	$GPGGA,220514,2543.8602,N,08000.4951,W,1,10,1.6,18,M,,M,,*62
06/09/2014	22:05:15.286	$GPGGA,220515,2543.8612,N,08000.4937,W,1,10,1.6,18,M,,M,,*62
06/09/2014	22:05:16.339	$GPGGA,220516,2543.8622,N,08000.4923,W,1,10,1.6,18,M,,M,,*67
06/09/2014	22:05:17.352	$GPGGA,220517,2543.8633,N,08000.4909,W,1,10,1.6,18,M,,M,,*6E
06/09/2014	22:05:18.345	$GPGGA,220518,2543.8644,N,08000.4895,W,1,10,1.6,18,M,,M,,*65
06/09/2014	22:05:19.491	$GPGGA,220519,2543.8653,N,08000.4881,W,1,10,1.6,18,M,,M,,*67
06/09/2014	22:05:20.535	$GPGGA,220520,2543.8663,N,08000.4867,W,1,10,1.6,18,M,,M,,*66
06/09/2014	22:05:21.548	$GPGGA,220521,2543.8674,N,08000.4853,W,1,10,1.6,18,M,,M,,*66
06/09/2014	22:05:22.469	$GPGGA,220522,2543.8685,N,08000.4839,W,1,10,1.6,18,M,,M,,*67
06/09/2014	22:05:23.604	$GPGGA,220523,2543.8696,N,08000.4825,W,1,10,1.6,19,M,,M,,*68
06/09/2014	22:05:24.628	$GPGGA,220524,2543.8707,N,08000.4810,W,1,10,1.6,19,M,,M,,*60
06/09/2014	22:05:25.641	$GPGGA,220525,2543.8717,N,08000.4796,W,1,10,1.6,19,M,,M,,*61
06/09/2014	22:05:26.531	$GPGGA,220526,2543.8727,N,08000.4782,W,1,10,1.6,19,M,,M,,*64
06/09/2014	22:05:27.667	$GPGGA,220527,2543.8739,N,08000.4768,W,1,10,1.6,19,M,,M,,*6E
06/09/2014	22:05:28.595	$GPGGA,220528,2543.8747,N,08000.4753,W,1,10,1.6,19,M,,M,,*60
06/09/2014	22:05:29.693	$GPGGA,220529,2543.8759,N,08000.4739,W,1,10,1.6,19,M,,M,,*62
06/09/2014	22:05:30.717	$GPGGA,220530,2543.8770,N,08000.4725,W,1,10,1.6,19,M,,M,,*6C
06/09/2014	22:05:31.729	$GPGGA,220531,2543.8781,N,08000.4711,W,1,10,1.6,19,M,,M,,*64
06/09/2014	22:05:32.762	$GPGGA,220532,2543.8790,N,08000.4696,W,1,10,1.6,19,M,,M,,*69
06/09/2014	22:05:33.775	$GPGGA,220533,2543.8801,N,08000.4682,W,1,10,1.6,19,M,,M,,*6A
06/09/2014	22:05:34.798	$GPGGA,220534,2543.8812,N,08000.4668,W,1,10,1.6,19,M,,M,,*6B
06/09/2014	22:05:35.842	$GPGGA,220535,2543.8824,N,08000.4653,W,1,10,1.6,19,M,,M,,*67
06/09/2014	22:05:36.865	$GPGGA,220536,2543.8833,N,08000.4639,W,1,10,1.6,19,M,,M,,*6E
06/09/2014	22:05:37.900	$GPGGA,220537,2543.8844,N,08000.4625,W,1,10,1.6,19,M,,M,,*62
06/09/2014	22:05:38.892	$GPGGA,220538,2543.8855,N,08000.4611,W,1,10,1.6,19,M,,M,,*6A
06/09/2014	22:05:39.925	$GPGGA,220539,2543.8865,N,08000.4597,W,1,10,1.6,19,M,,M,,*65
06/09/2014	22:05:40.938	$GPGGA,220540,2543.8876,N,08000.4583,W,1,10,1.6,19,M,,M,,*6C
06/09/2014	22:05:41.961	$GPGGA,220541,2543.8887,N,08000.4569,W,1,10,1.6,19,M,,M,,*67
06/09/2014	22:05:42.964	$GPGGA,220542,2543.8898,N,08000.4554,W,1,10,1.6,19,M,,M,,*64
06/09/2014	22:05:44.009	$GPGGA,220543,2543.8909,N,08000.4540,W,1,10,1.6,19,M,,M,,*69
06/09/2014	22:05:45.021	$GPGGA,220544,2543.8920,N,08000.4526,W,1,10,1.6,19,M,,M,,*65
06/09/2014	22:05:46.034	$GPGGA,220545,2543.8930,N,08000.4513,W,1,10,1.6,19,M,,M,,*63
06/09/2014	22:05:47.048	$GPGGA,220546,2543.8941,N,08000.4498,W,1,10,1.6,19,M,,M,,*64
06/09/2014	22:05:48.091	$GPGGA,220547,2543.8952,N,08000.4485,W,1,10,1.9,19,M,,M,,*64
06/09/2014	22:05:49.114	$GPGGA,220548,2543.8963,N,08000.4472,W,1,10,1.6,19,M,,M,,*6E
06/09/2014	22:05:50.126	$GPGGA,220549,2543.8974,N,08000.4456,W,1,10,1.6,19,M,,M,,*6F
06/09/2014	22:05:51.150	$GPGGA,220550,2543.8984,N,08000.4440,W,1,10,1.6,19,M,,M,,*6F
06/09/2014	22:05:52.183	$GPGGA,220551,2543.8995,N,08000.4427,W,1,10,1.6,19,M,,M,,*6F
06/09/2014	22:05:53.196	$GPGGA,220552,2543.9006,N,08000.4413,W,1,10,1.6,19,M,,M,,*69
06/09/2014	22:05:54.230	$GPGGA,220553,2543.9017,N,08000.4399,W,1,10,1.6,19,M,,M,,*6D
06/09/2014	22:05:55.222	$GPGGA,220554,2543.9028,N,08000.4385,W,1,10,1.6,19,M,,M,,*6B
06/09/2014	22:05:56.256	$GPGGA,220555,2543.9039,N,08000.4371,W,1,10,1.6,19,M,,M,,*61
06/09/2014	22:05:57.300	$GPGGA,220556,2543.9050,N,08000.4357,W,1,10,1.6,19,M,,M,,*69
06/09/2014	22:05:58.303	$GPGGA,220557,2543.9061,N,08000.4343,W,1,10,1.6,19,M,,M,,*6F
06/09/2014	22:05:59.305	$GPGGA,220558,2543.9072,N,08000.4328,W,1,10,1.6,19,M,,M,,*6F
06/09/2014	22:06:00.339	$GPGGA,220559,2543.9083,N,08000.4314,W,1,10,1.6,19,M,,M,,*6F
06/09/2014	22:06:01.465	$GPGGA,220600,2543.9095,N,08000.4301,W,1,10,1.6,19,M,,M,,*63
06/09/2014	22:06:02.365	$GPGGA,220601,2543.9104,N,08000.4287,W,1,10,1.6,19,M,,M,,*64
06/09/2014	22:06:03.419	$GPGGA,220602,2543.9117,N,08000.4273,W,1,10,1.6,19,M,,M,,*6E
06/09/2014	22:06:04.418	$GPGGA,220603,2543.9129,N,08000.4259,W,1,10,1.6,19,M,,M,,*6A
06/09/2014	22:06:05.476	$GPGGA,220604,2543.9139,N,08000.4245,W,1,10,1.6,19,M,,M,,*61
06/09/2014	22:06:06.571	$GPGGA,220605,2543.9150,N,08000.4231,W,1,10,1.6,19,M,,M,,*6C
06/09/2014	22:06:07.502	$GPGGA,220606,2543.9162,N,08000.4217,W,1,10,1.6,19,M,,M,,*6A
06/09/2014	22:06:08.545	$GPGGA,220607,2543.9172,N,08000.4203,W,1,10,1.6,19,M,,M,,*6F
06/09/2014	22:06:09.558	$GPGGA,220608,2543.9183,N,08000.4189,W,1,10,1.6,19,M,,M,,*6F
06/09/2014	22:06:10.673	$GPGGA,220609,2543.9194,N,08000.4176,W,1,10,1.6,19,M,,M,,*68
06/09/2014	22:06:11.584	$GPGGA,220610,2543.9207,N,08000.4162,W,1,10,1.6,19,M,,M,,*6C
06/09/2014	22:06:12.577	$GPGGA,220611,2543.9216,N,08000.4147,W,1,10,1.6,19,M,,M,,*6A
06/09/2014	22:06:13.733	$GPGGA,220612,2543.9227,N,08000.4133,W,1,10,1.6,19,M,,M,,*68
06/09/2014	22:06:14.736	$GPGGA,220613,2543.9240,N,08000.4119,W,1,10,1.6,19,M,,M,,*60
06/09/2014	22:06:15.660	$GPGGA,220614,2543.9251,N,08000.4105,W,1,10,1.6,19,M,,M,,*6A
06/09/2014	22:06:16.793	$GPGGA,220615,2543.9260,N,08000.4090,W,1,10,1.6,19,M,,M,,*64
06/09/2014	22:06:17.816	$GPGGA,220616,2543.9273,N,08000.4077,W,1,10,1.9,19,M,,M,,*63
06/09/2014	22:06:18.829	$GPGGA,220617,2543.9284,N,08000.4063,W,1,9,1.9,19,M,,M,,*57
06/09/2014	22:06:19.832	$GPGGA,220618,2543.9295,N,08000.4049,W,1,9,1.6,19,M,,M,,*5F
06/09/2014	22:06:20.896	$GPGGA,220619,2543.9306,N,08000.4035,W,1,10,1.6,19,M,,M,,*66
06/09/2014	22:06:21.878	$GPGGA,220620,2543.9317,N,08000.4021,W,1,10,1.6,19,M,,M,,*69
06/09/2014	22:06:22.931	$GPGGA,220621,2543.9328,N,08000.4006,W,1,10,1.6,19,M,,M,,*61
06/09/2014	22:06:23.915	$GPGGA,220622,2543.9338,N,08000.3992,W,1,10,1.6,18,M,,M,,*61
06/09/2014	22:06:24.969	$GPGGA,220623,2543.9350,N,08000.3979,W,1,10,1.6,18,M,,M,,*6B
06/09/2014	22:06:25.971	$GPGGA,220624,2543.9360,N,08000.3964,W,1,10,1.6,18,M,,M,,*63
06/09/2014	22:06:27.004	$GPGGA,220625,2543.9371,N,08000.3950,W,1,10,1.6,18,M,,M,,*65
06/09/2014	22:06:27.997	$GPGGA,220626,2543.9382,N,08000.3936,W,1,10,1.6,18,M,,M,,*6A
06/09/2014	22:06:29.030	$GPGGA,220627,2543.9393,N,08000.3922,W,1,10,1.6,18,M,,M,,*6E
06/09/2014	22:06:30.064	$GPGGA,220628,2543.9404,N,08000.3908,W,1,10,1.6,18,M,,M,,*60
06/09/2014	22:06:31.077	$GPGGA,220629,2543.9415,N,08000.3894,W,1,10,1.6,18,M,,M,,*65
06/09/2014	22:06:32.100	$GPGGA,220630,2543.9426,N,08000.3881,W,1,10,1.6,18,M,,M,,*69
06/09/2014	22:06:33.103	$GPGGA,220631,2543.9436,N,08000.3866,W,1,10,1.6,18,M,,M,,*60
06/09/2014	22:06:34.136	$GPGGA,220632,2543.9447,N,08000.3852,W,1,10,1.6,18,M,,M,,*62
06/09/2014	22:06:35.148	$GPGGA,220633,2543.9458,N,08000.3839,W,1,10,1.6,18,M,,M,,*60
06/09/2014	22:06:36.173	$GPGGA,220634,2543.9469,N,08000.3824,W,1,10,1.6,18,M,,M,,*69
06/09/2014	22:06:37.227	$GPGGA,220635,2543.9480,N,08000.3811,W,1,10,1.6,18,M,,M,,*69
06/09/2014	22:06:38.230	$GPGGA,220636,2543.9491,N,08000.3797,W,1,10,1.6,18,M,,M,,*6B
06/09/2014	22:06:39.232	$GPGGA,220637,2543.9502,N,08000.3784,W,1,9,1.9,18,M,,M,,*54
06/09/2014	22:06:40.256	$GPGGA,220638,2543.9512,N,08000.3769,W,1,9,1.9,18,M,,M,,*59
06/09/2014	22:06:41.310	$GPGGA,220639,2543.9523,N,08000.3755,W,1,10,1.6,18,M,,M,,*62
06/09/2014	22:06:42.302	$GPGGA,220640,2543.9534,N,08000.3741,W,1,10,1.6,18,M,,M,,*6F
06/09/2014	22:06:31.928	$GPGGA,220641,2543.9545,N,08000.3727,W,1,10,1.6,18,M,,M,,*68
06/09/2014	22:06:32.929	$GPGGA,220642,2543.9556,N,08000.3713,W,1,10,1.6,18,M,,M,,*6E
06/09/2014	22:06:33.973	$GPGGA,220643,2543.9566,N,08000.3699,W,1,10,1.6,18,M,,M,,*6F
06/09/2014	22:06:34.965	$GPGGA,220644,2543.9577,N,08000.3685,W,1,10,1.6,18,M,,M,,*65
06/09/2014	22:06:35.999	$GPGGA,220645,2543.9588,N,08000.3671,W,1,10,1.6,18,M,,M,,*6F
06/09/2014	22:06:37.002	$GPGGA,220646,2543.9598,N,08000.3657,W,1,10,1.6,18,M,,M,,*69
06/09/2014	22:06:38.035	$GPGGA,220647,2543.9609,N,08000.3644,W,1,10,1.6,18,M,,M,,*61
06/09/2014	22:06:39.071	$GPGGA,220648,2543.9620,N,08000.3630,W,1,10,1.6,18,M,,M,,*66
06/09/2014	22:06:40.076	$GPGGA,220649,2543.9630,N,08000.3616,W,1,10,1.6,18,M,,M,,*62
06/09/2014	22:06:41.098	$GPGGA,220650,2543.9641,N,08000.3602,W,1,10,1.6,18,M,,M,,*69
06/09/2014	22:06:42.137	$GPGGA,220651,2543.9650,N,08000.3587,W,1,10,1.6,18,M,,M,,*66
06/09/2014	22:06:43.152	$GPGGA,220652,2543.9660,N,08000.3572,W,1,10,1.6,18,M,,M,,*6C
06/09/2014	22:06:44.175	$GPGGA,220653,2543.9671,N,08000.3558,W,1,10,1.6,18,M,,M,,*65
06/09/2014	22:06:45.188	$GPGGA,220654,2543.9682,N,08000.3544,W,1,10,1.6,18,M,,M,,*63
06/09/2014	22:06:46.314	$GPGGA,220655,2543.9693,N,08000.3529,W,1,10,1.6,18,M,,M,,*69
06/09/2014	22:06:47.237	$GPGGA,220656,2543.9704,N,08000.3515,W,1,10,1.6,18,M,,M,,*6A
06/09/2014	22:06:48.227	$GPGGA,220657,2543.9715,N,08000.3501,W,1,10,1.6,18,M,,M,,*6E
06/09/2014	22:06:49.353	$GPGGA,220658,2543.9725,N,08000.3487,W,1,10,1.6,18,M,,M,,*6D
06/09/2014	22:06:50.400	$GPGGA,220659,2543.9736,N,08000.3473,W,1,10,1.6,17,M,,M,,*6A
06/09/2014	22:06:51.429	$GPGGA,220700,2543.9746,N,08000.3459,W,1,10,1.6,17,M,,M,,*68
06/09/2014	22:06:52.442	$GPGGA,220701,2543.9757,N,08000.3445,W,1,10,1.6,17,M,,M,,*64
06/09/2014	22:06:53.365	$GPGGA,220702,2543.9767,N,08000.3431,W,1,10,1.6,17,M,,M,,*67
06/09/2014	22:06:54.468	$GPGGA,220703,2543.9778,N,08000.3416,W,1,10,1.6,17,M,,M,,*6D
06/09/2014	22:06:55.441	$GPGGA,220704,2543.9787,N,08000.3402,W,1,10,1.6,17,M,,M,,*6F
06/09/2014	22:06:56.535	$GPGGA,220705,2543.9798,N,08000.3388,W,1,10,1.6,17,M,,M,,*65
06/09/2014	22:06:57.528	$GPGGA,220706,2543.9809,N,08000.3373,W,1,10,1.6,17,M,,M,,*65
06/09/2014	22:06:58.541	$GPGGA,220707,2543.9820,N,08000.3359,W,1,10,1.6,17,M,,M,,*67
06/09/2014	22:06:59.585	$GPGGA,220708,2543.9830,N,08000.3345,W,1,10,1.6,17,M,,M,,*64
06/09/2014	22:07:00.588	$GPGGA,220709,2543.9841,N,08000.3331,W,1,10,1.6,17,M,,M,,*60
06/09/2014	22:07:01.621	$GPGGA,220710,2543.9852,N,08000.3316,W,1,10,1.6,17,M,,M,,*6F
06/09/2014	22:07:02.645	$GPGGA,220711,2543.9863,N,08000.3302,W,1,10,1.6,17,M,,M,,*69
06/09/2014	22:07:03.699	$GPGGA,220712,2543.9874,N,08000.3288,W,1,10,1.6,17,M,,M,,*6F
06/09/2014	22:07:04.681	$GPGGA,220713,2543.9884,N,08000.3273,W,1,10,1.6,17,M,,M,,*65
06/09/2014	22:07:05.704	$GPGGA,220714,2543.9895,N,08000.3259,W,1,10,1.6,17,M,,M,,*6A
06/09/2014	22:07:06.728	$GPGGA,220715,2543.9906,N,08000.3245,W,1,10,1.6,17,M,,M,,*6D
06/09/2014	22:07:07.761	$GPGGA,220716,2543.9917,N,08000.3231,W,1,10,1.6,17,M,,M,,*6D
06/09/2014	22:07:08.783	$GPGGA,220717,2543.9928,N,08000.3216,W,1,10,1.6,17,M,,M,,*65
06/09/2014	22:07:09.786	$GPGGA,220718,2543.9939,N,08000.3202,W,1,10,1.6,17,M,,M,,*6F
06/09/2014	22:07:10.820	$GPGGA,220719,2543.9949,N,08000.3188,W,1,10,1.6,17,M,,M,,*68
06/09/2014	22:07:11.843	$GPGGA,220720,2543.9960,N,08000.3173,W,1,10,1.6,17,M,,M,,*6D
06/09/2014	22:07:12.846	$GPGGA,220721,2543.9971,N,08000.3159,W,1,10,1.6,17,M,,M,,*64
06/09/2014	22:07:13.859	$GPGGA,220722,2543.9982,N,08000.3145,W,1,10,1.6,17,M,,M,,*66
06/09/2014	22:07:14.933	$GPGGA,220723,2543.9993,N,08000.3131,W,1,10,1.6,17,M,,M,,*64
06/09/2014	22:07:15.967	$GPGGA,220724,2544.0004,N,08000.3116,W,1,10,1.6,17,M,,M,,*6F
06/09/2014	22:07:16.960	$GPGGA,220725,2544.0015,N,08000.3102,W,1,10,1.6,17,M,,M,,*6B
06/09/2014	22:07:17.962	$GPGGA,220726,2544.0028,N,08000.3088,W,1,10,1.6,17,M,,M,,*65
06/09/2014	22:07:18.996	$GPGGA,220727,2544.0038,N,08000.3074,W,1,10,1.6,17,M,,M,,*66
06/09/2014	22:07:20.009	$GPGGA,220728,2544.0049,N,08000.3060,W,1,10,1.6,17,M,,M,,*6A
06/09/2014	22:07:21.042	$GPGGA,220729,2544.0060,N,08000.3046,W,1,10,1.6,17,M,,M,,*64
06/09/2014	22:07:22.045	$GPGGA,220730,2544.0071,N,08000.3032,W,1,10,1.6,17,M,,M,,*6F
06/09/2014	22:07:23.053	$GPGGA,220731,2544.0082,N,08000.3018,W,1,10,1.6,17,M,,M,,*6A
06/09/2014	22:07:24.098	$GPGGA,220732,2544.0094,N,08000.3004,W,1,10,1.6,17,M,,M,,*63
06/09/2014	22:07:25.105	$GPGGA,220733,2544.0105,N,08000.2990,W,1,10,1.6,17,M,,M,,*6E
06/09/2014	22:07:26.137	$GPGGA,220734,2544.0116,N,08000.2976,W,1,10,1.6,17,M,,M,,*63
06/09/2014	22:07:27.140	$GPGGA,220735,2544.0126,N,08000.2962,W,1,10,1.6,17,M,,M,,*64
06/09/2014	22:07:28.174	$GPGGA,220736,2544.0137,N,08000.2948,W,1,10,1.6,17,M,,M,,*6F
06/09/2014	22:07:29.207	$GPGGA,220737,2544.0148,N,08000.2934,W,1,10,1.6,17,M,,M,,*6D
06/09/2014	22:07:30.302	$GPGGA,220738,2544.0159,N,08000.2920,W,1,10,1.6,17,M,,M,,*67
06/09/2014	22:07:31.228	$GPGGA,220739,2544.0172,N,08000.2906,W,1,10,1.6,17,M,,M,,*6B
06/09/2014	22:07:32.277	$GPGGA,220740,2544.0183,N,08000.2892,W,1,10,1.6,17,M,,M,,*67
06/09/2014	22:07:31.874	$GPGGA,220741,2544.0194,N,08000.2878,W,1,10,1.6,17,M,,M,,*64
06/09/2014	22:07:33.000	$GPGGA,220742,2544.0205,N,08000.2864,W,1,10,1.6,17,M,,M,,*61
06/09/2014	22:07:34.031	$GPGGA,220743,2544.0216,N,08000.2850,W,1,10,1.6,17,M,,M,,*65
06/09/2014	22:07:34.964	$GPGGA,220744,2544.0227,N,08000.2836,W,1,10,1.6,17,M,,M,,*60
06/09/2014	22:07:35.962	$GPGGA,220745,2544.0238,N,08000.2822,W,1,10,1.6,17,M,,M,,*6A
06/09/2014	22:07:37.102	$GPGGA,220746,2544.0249,N,08000.2808,W,1,10,1.6,17,M,,M,,*67
06/09/2014	22:07:38.099	$GPGGA,220747,2544.0260,N,08000.2793,W,1,10,1.6,17,M,,M,,*60
06/09/2014	22:07:39.055	$GPGGA,220748,2544.0271,N,08000.2779,W,1,10,1.6,17,M,,M,,*6B
06/09/2014	22:07:40.173	$GPGGA,220749,2544.0282,N,08000.2765,W,1,10,1.6,17,M,,M,,*6B
06/09/2014	22:07:41.080	$GPGGA,220750,2544.0293,N,08000.2751,W,1,10,1.6,17,M,,M,,*64
06/09/2014	22:07:42.191	$GPGGA,220751,2544.0303,N,08000.2737,W,1,10,1.6,17,M,,M,,*6D
06/09/2014	22:07:43.234	$GPGGA,220752,2544.0316,N,08000.2723,W,1,10,1.6,17,M,,M,,*6F
06/09/2014	22:07:44.224	$GPGGA,220753,2544.0325,N,08000.2708,W,1,10,1.6,17,M,,M,,*67
06/09/2014	22:07:45.156	$GPGGA,220754,2544.0336,N,08000.2694,W,1,10,1.6,16,M,,M,,*67
06/09/2014	22:07:46.271	$GPGGA,220755,2544.0347,N,08000.2680,W,1,10,1.6,16,M,,M,,*65
06/09/2014	22:07:47.221	$GPGGA,220756,2544.0360,N,08000.2666,W,1,10,1.6,16,M,,M,,*6B
06/09/2014	22:07:48.318	$GPGGA,220757,2544.0369,N,08000.2651,W,1,10,1.6,16,M,,M,,*67
06/09/2014	22:07:49.341	$GPGGA,220758,2544.0379,N,08000.2637,W,1,10,1.6,16,M,,M,,*69
06/09/2014	22:07:50.364	$GPGGA,220759,2544.0392,N,08000.2623,W,1,10,1.6,16,M,,M,,*68
06/09/2014	22:07:51.421	$GPGGA,220800,2544.0401,N,08000.2609,W,1,10,1.6,16,M,,M,,*6E
06/09/2014	22:07:52.400	$GPGGA,220801,2544.0412,N,08000.2595,W,1,10,1.6,16,M,,M,,*6B
06/09/2014	22:07:54.877	$GPGGA,220803,2544.0434,N,08000.2565,W,1,10,1.6,16,M,,M,,*62
06/09/2014	22:07:55.480	$GPGGA,220804,2544.0444,N,08000.2551,W,1,10,1.6,16,M,,M,,*65
06/09/2014	22:07:56.505	$GPGGA,220805,2544.0455,N,08000.2536,W,1,10,1.6,16,M,,M,,*65
06/09/2014	22:07:57.507	$GPGGA,220806,2544.0466,N,08000.2522,W,1,10,1.6,16,M,,M,,*63
06/09/2014	22:07:58.540	$GPGGA,220807,2544.0477,N,08000.2507,W,1,10,1.6,16,M,,M,,*65
06/09/2014	22:07:59.563	$GPGGA,220808,2544.0488,N,08000.2493,W,1,10,1.6,16,M,,M,,*66
06/09/2014	22:08:00.565	$GPGGA,220809,2544.0498,N,08000.2479,W,1,10,1.6,16,M,,M,,*62
06/09/2014	22:08:01.599	$GPGGA,220810,2544.0509,N,08000.2465,W,1,10,1.6,16,M,,M,,*6E
06/09/2014	22:08:02.612	$GPGGA,220811,2544.0520,N,08000.2451,W,1,10,1.6,16,M,,M,,*63
06/09/2014	22:08:03.656	$GPGGA,220812,2544.0531,N,08000.2436,W,1,10,1.6,16,M,,M,,*61
06/09/2014	22:08:04.679	$GPGGA,220813,2544.0542,N,08000.2422,W,1,10,1.6,16,M,,M,,*61
06/09/2014	22:08:05.671	$GPGGA,220814,2544.0553,N,08000.2408,W,1,10,1.6,16,M,,M,,*6E
06/09/2014	22:08:06.725	$GPGGA,220815,2544.0564,N,08000.2394,W,1,10,1.6,16,M,,M,,*69
06/09/2014	22:08:07.739	$GPGGA,220816,2544.0574,N,08000.2380,W,1,10,1.6,16,M,,M,,*6E
06/09/2014	22:08:08.762	$GPGGA,220817,2544.0585,N,08000.2365,W,1,10,1.6,16,M,,M,,*6A
06/09/2014	22:08:09.754	$GPGGA,220818,2544.0596,N,08000.2351,W,1,10,1.6,16,M,,M,,*60
06/09/2014	22:08:10.788	$GPGGA,220819,2544.0607,N,08000.2336,W,1,9,1.7,16,M,,M,,*52
06/09/2014	22:08:11.822	$GPGGA,220820,2544.0618,N,08000.2321,W,1,9,1.6,16,M,,M,,*51
06/09/2014	22:08:12.824	$GPGGA,220821,2544.0629,N,08000.2307,W,1,10,1.6,16,M,,M,,*6E
06/09/2014	22:08:13.858	$GPGGA,220822,2544.0640,N,08000.2293,W,1,10,1.6,16,M,,M,,*6E
06/09/2014	22:08:14.902	$GPGGA,220823,2544.0652,N,08000.2278,W,1,10,1.6,16,M,,M,,*69
06/09/2014	22:08:15.893	$GPGGA,220824,2544.0663,N,08000.2264,W,1,10,1.6,16,M,,M,,*61
06/09/2014	22:08:17.072	$GPGGA,220825,2544.0674,N,08000.2249,W,1,10,1.6,16,M,,M,,*69
06/09/2014	22:08:17.986	$GPGGA,220826,2544.0686,N,08000.2235,W,1,10,1.6,16,M,,M,,*6C
06/09/2014	22:08:18.922	$GPGGA,220827,2544.0697,N,08000.2220,W,1,10,1.6,16,M,,M,,*69
06/09/2014	22:08:19.911	$GPGGA,220828,2544.0707,N,08000.2206,W,1,10,1.6,16,M,,M,,*6A
06/09/2014	22:08:20.942	$GPGGA,220829,2544.0719,N,08000.2191,W,1,10,1.6,16,M,,M,,*69
06/09/2014	22:08:21.942	$GPGGA,220830,2544.0730,N,08000.2177,W,1,10,1.6,16,M,,M,,*62
06/09/2014	22:08:23.113	$GPGGA,220831,2544.0740,N,08000.2162,W,1,10,1.6,16,M,,M,,*60
06/09/2014	22:08:23.951	$GPGGA,220832,2544.0751,N,08000.2148,W,1,10,1.6,16,M,,M,,*6B
06/09/2014	22:08:24.951	$GPGGA,220833,2544.0762,N,08000.2133,W,1,10,1.6,16,M,,M,,*66
06/09/2014	22:08:26.062	$GPGGA,220834,2544.0773,N,08000.2119,W,1,10,1.6,16,M,,M,,*69
06/09/2014	22:08:26.961	$GPGGA,220835,2544.0784,N,08000.2104,W,1,10,1.6,16,M,,M,,*6C
06/09/2014	22:08:27.991	$GPGGA,220836,2544.0795,N,08000.2090,W,1,10,1.6,16,M,,M,,*63
06/09/2014	22:08:29.173	$GPGGA,220837,2544.0808,N,08000.2076,W,1,10,1.6,16,M,,M,,*61
06/09/2014	22:08:29.991	$GPGGA,220838,2544.0817,N,08000.2061,W,1,10,1.6,16,M,,M,,*66
06/09/2014	22:08:31.193	$GPGGA,220839,2544.0829,N,08000.2047,W,1,10,1.6,16,M,,M,,*6E
06/09/2014	22:08:32.153	$GPGGA,220840,2544.0841,N,08000.2032,W,1,10,1.6,16,M,,M,,*6C
06/09/2014	22:08:32.048	$GPGGA,220841,2544.0852,N,08000.2018,W,1,10,1.6,16,M,,M,,*67
06/09/2014	22:08:32.958	$GPGGA,220842,2544.0863,N,08000.2003,W,1,10,1.6,16,M,,M,,*6C
06/09/2014	22:08:34.058	$GPGGA,220843,2544.0874,N,08000.1989,W,1,10,1.6,16,M,,M,,*63
06/09/2014	22:08:35.026	$GPGGA,220844,2544.0885,N,08000.1975,W,1,10,1.6,16,M,,M,,*69
06/09/2014	22:08:36.087	$GPGGA,220845,2544.0896,N,08000.1961,W,1,10,1.6,16,M,,M,,*6F
06/09/2014	22:08:36.986	$GPGGA,220846,2544.0907,N,08000.1947,W,1,10,1.6,16,M,,M,,*61
06/09/2014	22:08:38.097	$GPGGA,220847,2544.0918,N,08000.1932,W,1,10,1.6,16,M,,M,,*6C
06/09/2014	22:08:39.006	$GPGGA,220848,2544.0929,N,08000.1918,W,1,10,1.6,16,M,,M,,*69
06/09/2014	22:08:40.117	$GPGGA,220849,2544.0941,N,08000.1903,W,1,10,1.6,16,M,,M,,*6C
06/09/2014	22:08:41.048	$GPGGA,220850,2544.0953,N,08000.1889,W,1,10,1.6,16,M,,M,,*64
06/09/2014	22:08:42.116	$GPGGA,220851,2544.0964,N,08000.1875,W,1,10,1.6,16,M,,M,,*62
06/09/2014	22:08:43.092	$GPGGA,220852,2544.0975,N,08000.1861,W,1,10,1.6,16,M,,M,,*64
06/09/2014	22:08:44.046	$GPGGA,220853,2544.0986,N,08000.1846,W,1,10,1.6,16,M,,M,,*6C
06/09/2014	22:08:45.076	$GPGGA,220854,2544.0997,N,08000.1832,W,1,10,1.6,16,M,,M,,*68
06/09/2014	22:08:46.130	$GPGGA,220855,2544.1008,N,08000.1818,W,1,10,1.6,16,M,,M,,*6F
06/09/2014	22:08:47.127	$GPGGA,220856,2544.1019,N,08000.1804,W,1,10,1.6,16,M,,M,,*61
06/09/2014	22:08:48.065	$GPGGA,220857,2544.1030,N,08000.1789,W,1,10,1.6,16,M,,M,,*61
06/09/2014	22:08:49.106	$GPGGA,220858,2544.1041,N,08000.1775,W,1,10,1.6,16,M,,M,,*6B
06/09/2014	22:08:50.207	$GPGGA,220859,2544.1051,N,08000.1757,W,1,9,1.6,16,M,,M,,*53
06/09/2014	22:08:51.139	$GPGGA,220900,2544.1062,N,08000.1743,W,1,9,1.6,16,M,,M,,*5B
06/09/2014	22:08:52.095	$GPGGA,220901,2544.1073,N,08000.1729,W,1,10,1.6,16,M,,M,,*6E
06/09/2014	22:08:53.146	$GPGGA,220902,2544.1084,N,08000.1714,W,1,10,1.6,16,M,,M,,*6B
06/09/2014	22:08:54.235	$GPGGA,220903,2544.1095,N,08000.1699,W,1,10,1.6,16,M,,M,,*6E
06/09/2014	22:08:55.165	$GPGGA,220904,2544.1105,N,08000.1683,W,1,10,1.6,16,M,,M,,*6A
06/09/2014	22:08:56.225	$GPGGA,220905,2544.1116,N,08000.1668,W,1,10,1.6,16,M,,M,,*6C
06/09/2014	22:08:57.139	$GPGGA,220906,2544.1126,N,08000.1653,W,1,10,1.6,16,M,,M,,*64
06/09/2014	22:08:58.154	$GPGGA,220907,2544.1135,N,08000.1638,W,1,10,1.6,16,M,,M,,*6A
06/09/2014	22:08:59.215	$GPGGA,220908,2544.1147,N,08000.1623,W,1,10,1.6,16,M,,M,,*6A
06/09/2014	22:09:00.255	$GPGGA,220909,2544.1156,N,08000.1609,W,1,10,1.6,17,M,,M,,*62
06/09/2014	22:09:01.174	$GPGGA,220910,2544.1167,N,08000.1594,W,1,10,1.6,17,M,,M,,*6F
06/09/2014	22:09:03.741	$GPGGA,220912,2544.1189,N,08000.1566,W,1,10,1.4,17,M,,M,,*62
06/09/2014	22:09:04.265	$GPGGA,220913,2544.1199,N,08000.1552,W,1,10,1.4,17,M,,M,,*65
06/09/2014	22:09:05.315	$GPGGA,220914,2544.1210,N,08000.1537,W,1,10,1.4,17,M,,M,,*63
06/09/2014	22:09:06.315	$GPGGA,220915,2544.1221,N,08000.1524,W,1,10,1.4,17,M,,M,,*62
06/09/2014	22:09:07.264	$GPGGA,220916,2544.1231,N,08000.1510,W,1,10,1.4,17,M,,M,,*67
06/09/2014	22:09:08.345	$GPGGA,220917,2544.1241,N,08000.1495,W,1,10,1.4,18,M,,M,,*62
06/09/2014	22:09:09.254	$GPGGA,220918,2544.1252,N,08000.1482,W,1,10,1.4,18,M,,M,,*69
06/09/2014	22:09:10.354	$GPGGA,220919,2544.1263,N,08000.1468,W,1,10,1.4,18,M,,M,,*6E
06/09/2014	22:09:11.315	$GPGGA,220920,2544.1272,N,08000.1454,W,1,10,1.4,18,M,,M,,*6B
06/09/2014	22:09:12.374	$GPGGA,220921,2544.1283,N,08000.1440,W,1,10,1.4,18,M,,M,,*61
06/09/2014	22:09:13.314	$GPGGA,220922,2544.1293,N,08000.1426,W,1,10,1.4,18,M,,M,,*63
06/09/2014	22:09:14.434	$GPGGA,220923,2544.1303,N,08000.1412,W,1,10,1.4,18,M,,M,,*6D
06/09/2014	22:09:15.404	$GPGGA,220924,2544.1314,N,08000.1398,W,1,10,1.4,18,M,,M,,*69
06/09/2014	22:09:16.454	$GPGGA,220925,2544.1325,N,08000.1384,W,1,10,1.4,18,M,,M,,*67
06/09/2014	22:09:17.394	$GPGGA,220926,2544.1335,N,08000.1370,W,1,10,1.4,19,M,,M,,*6F
06/09/2014	22:09:18.414	$GPGGA,220927,2544.1346,N,08000.1356,W,1,10,1.4,19,M,,M,,*6E
06/09/2014	22:09:19.435	$GPGGA,220928,2544.1355,N,08000.1342,W,1,10,1.4,19,M,,M,,*66
06/09/2014	22:09:20.474	$GPGGA,220929,2544.1365,N,08000.1328,W,1,10,1.4,19,M,,M,,*68
06/09/2014	22:09:21.446	$GPGGA,220930,2544.1376,N,08000.1313,W,1,10,1.4,19,M,,M,,*6A
06/09/2014	22:09:22.484	$GPGGA,220931,2544.1387,N,08000.1299,W,1,10,1.6,19,M,,M,,*64
06/09/2014	22:09:23.469	$GPGGA,220932,2544.1397,N,08000.1285,W,1,10,1.6,19,M,,M,,*6B
06/09/2014	22:09:24.515	$GPGGA,220933,2544.1406,N,08000.1271,W,1,10,1.4,19,M,,M,,*6C
06/09/2014	22:09:25.474	$GPGGA,220934,2544.1419,N,08000.1256,W,1,10,1.4,19,M,,M,,*60
06/09/2014	22:09:26.534	$GPGGA,220935,2544.1430,N,08000.1242,W,1,10,1.6,19,M,,M,,*6D
06/09/2014	22:09:27.483	$GPGGA,220936,2544.1440,N,08000.1227,W,1,10,1.6,19,M,,M,,*6A
06/09/2014	22:09:28.493	$GPGGA,220937,2544.1449,N,08000.1213,W,1,10,1.6,19,M,,M,,*65
06/09/2014	22:09:29.493	$GPGGA,220938,2544.1460,N,08000.1200,W,1,10,1.4,19,M,,M,,*61
06/09/2014	22:09:30.544	$GPGGA,220939,2544.1460,N,08000.1200,W,1,10,1.4,19,M,,M,,*60
06/09/2014	22:09:31.533	$GPGGA,220940,2544.1481,N,08000.1174,W,1,10,1.4,19,M,,M,,*61
06/09/2014	22:09:31.965	$GPGGA,220941,2544.1492,N,08000.1160,W,1,10,1.4,19,M,,M,,*67
06/09/2014	22:09:32.945	$GPGGA,220942,2544.1502,N,08000.1146,W,1,10,1.4,19,M,,M,,*68
06/09/2014	22:09:33.976	$GPGGA,220943,2544.1512,N,08000.1133,W,1,10,1.4,19,M,,M,,*6A
06/09/2014	22:09:34.996	$GPGGA,220944,2544.1523,N,08000.1120,W,1,10,1.4,19,M,,M,,*6D
06/09/2014	22:09:36.045	$GPGGA,220945,2544.1534,N,08000.1106,W,1,10,1.8,19,M,,M,,*62
06/09/2014	22:09:36.954	$GPGGA,220946,2544.1543,N,08000.1094,W,1,10,1.4,19,M,,M,,*67
06/09/2014	22:09:38.047	$GPGGA,220947,2544.1554,N,08000.1082,W,1,10,1.4,19,M,,M,,*67
06/09/2014	22:09:38.995	$GPGGA,220948,2544.1566,N,08000.1066,W,1,10,2.0,19,M,,M,,*64
06/09/2014	22:09:40.056	$GPGGA,220949,2544.1577,N,08000.1053,W,1,9,1.8,19,M,,M,,*50
06/09/2014	22:09:41.004	$GPGGA,220950,2544.1588,N,08000.1039,W,1,9,1.4,19,M,,M,,*58
06/09/2014	22:09:42.058	$GPGGA,220951,2544.1599,N,08000.1025,W,1,10,1.8,19,M,,M,,*60
06/09/2014	22:09:43.035	$GPGGA,220952,2544.1610,N,08000.1010,W,1,10,2.0,19,M,,M,,*6C
06/09/2014	22:09:44.066	$GPGGA,220953,2544.1621,N,08000.0995,W,1,9,2.0,19,M,,M,,*52
06/09/2014	22:09:45.033	$GPGGA,220954,2544.1630,N,08000.0980,W,1,9,1.8,19,M,,M,,*5A
06/09/2014	22:09:46.112	$GPGGA,220955,2544.1642,N,08000.0966,W,1,9,2.0,19,M,,M,,*5D
06/09/2014	22:09:47.053	$GPGGA,220956,2544.1653,N,08000.0952,W,1,9,2.0,19,M,,M,,*59
06/09/2014	22:09:48.154	$GPGGA,220957,2544.1664,N,08000.0939,W,1,9,1.6,19,M,,M,,*54
06/09/2014	22:09:49.065	$GPGGA,220958,2544.1675,N,08000.0924,W,1,9,2.0,19,M,,M,,*52
06/09/2014	22:09:50.164	$GPGGA,220959,2544.1675,N,08000.0924,W,1,9,2.0,19,M,,M,,*53
06/09/2014	22:09:51.103	$GPGGA,221000,2544.1686,N,08000.0911,W,1,9,1.8,19,M,,M,,*56
06/09/2014	22:09:52.134	$GPGGA,221001,2544.1705,N,08000.0881,W,1,9,1.6,18,M,,M,,*5A
06/09/2014	22:09:53.099	$GPGGA,221002,2544.1715,N,08000.0864,W,1,9,1.6,18,M,,M,,*53
06/09/2014	22:09:54.123	$GPGGA,221003,2544.1715,N,08000.0864,W,1,10,1.6,18,M,,M,,*6A
06/09/2014	22:09:55.244	$GPGGA,221004,2544.1736,N,08000.0834,W,1,10,2.0,18,M,,M,,*6C
06/09/2014	22:09:56.143	$GPGGA,221005,2544.1736,N,08000.0834,W,1,10,1.4,18,M,,M,,*6A
06/09/2014	22:09:57.134	$GPGGA,221006,2544.1758,N,08000.0806,W,1,10,2.0,18,M,,M,,*67
06/09/2014	22:09:58.234	$GPGGA,221007,2544.1767,N,08000.0793,W,1,9,1.8,18,M,,M,,*5A
06/09/2014	22:09:59.153	$GPGGA,221008,2544.1777,N,08000.0779,W,1,9,1.4,18,M,,M,,*5C
06/09/2014	22:10:00.274	$GPGGA,221009,2544.1777,N,08000.0779,W,1,10,1.4,18,M,,M,,*65
06/09/2014	22:10:01.164	$GPGGA,221010,2544.1799,N,08000.0751,W,1,10,1.4,18,M,,M,,*67
06/09/2014	22:10:02.182	$GPGGA,221011,2544.1799,N,08000.0751,W,1,10,1.4,18,M,,M,,*66
06/09/2014	22:10:03.186	$GPGGA,221012,2544.1820,N,08000.0723,W,1,10,1.4,18,M,,M,,*6D
06/09/2014	22:10:04.263	$GPGGA,221013,2544.1831,N,08000.0709,W,1,10,1.6,18,M,,M,,*66
06/09/2014	22:10:05.284	$GPGGA,221014,2544.1841,N,08000.0694,W,1,10,1.6,18,M,,M,,*63
06/09/2014	22:10:06.293	$GPGGA,221015,2544.1852,N,08000.0680,W,1,10,1.4,18,M,,M,,*67
06/09/2014	22:10:07.313	$GPGGA,221016,2544.1863,N,08000.0665,W,1,10,1.4,18,M,,M,,*6D
06/09/2014	22:10:08.323	$GPGGA,221017,2544.1874,N,08000.0651,W,1,10,1.6,18,M,,M,,*6F
06/09/2014	22:10:09.323	$GPGGA,221018,2544.1884,N,08000.0638,W,1,10,1.4,18,M,,M,,*62
06/09/2014	22:10:10.363	$GPGGA,221019,2544.1893,N,08000.0624,W,1,10,1.4,18,M,,M,,*68
06/09/2014	22:10:11.353	$GPGGA,221020,2544.1904,N,08000.0610,W,1,10,1.4,18,M,,M,,*6A
06/09/2014	22:10:12.363	$GPGGA,221021,2544.1915,N,08000.0596,W,1,10,1.4,19,M,,M,,*67
06/09/2014	22:10:13.344	$GPGGA,221022,2544.1924,N,08000.0582,W,1,10,1.4,19,M,,M,,*63
06/09/2014	22:10:14.353	$GPGGA,221023,2544.1933,N,08000.0568,W,1,10,1.4,19,M,,M,,*60
06/09/2014	22:10:15.373	$GPGGA,221024,2544.1946,N,08000.0554,W,1,10,1.4,19,M,,M,,*6A
06/09/2014	22:10:16.393	$GPGGA,221025,2544.1955,N,08000.0540,W,1,10,1.4,19,M,,M,,*6C
06/09/2014	22:10:17.374	$GPGGA,221026,2544.1965,N,08000.0527,W,1,10,1.4,19,M,,M,,*6D
06/09/2014	22:10:18.424	$GPGGA,221027,2544.1976,N,08000.0513,W,1,10,1.4,19,M,,M,,*69
06/09/2014	22:10:19.414	$GPGGA,221028,2544.1987,N,08000.0499,W,1,10,1.4,19,M,,M,,*6B
06/09/2014	22:10:20.422	$GPGGA,221029,2544.1997,N,08000.0485,W,1,10,1.4,19,M,,M,,*66
06/09/2014	22:10:21.411	$GPGGA,221030,2544.2007,N,08000.0470,W,1,10,1.4,19,M,,M,,*67
06/09/2014	22:10:22.432	$GPGGA,221031,2544.2018,N,08000.0456,W,1,10,1.4,19,M,,M,,*6C
06/09/2014	22:10:23.452	$GPGGA,221032,2544.2030,N,08000.0443,W,1,10,1.4,19,M,,M,,*61
06/09/2014	22:10:24.472	$GPGGA,221033,2544.2038,N,08000.0429,W,1,10,1.4,19,M,,M,,*64
06/09/2014	22:10:25.441	$GPGGA,221034,2544.2048,N,08000.0415,W,1,10,1.4,19,M,,M,,*6B
06/09/2014	22:10:26.451	$GPGGA,221035,2544.2059,N,08000.0400,W,1,10,1.4,19,M,,M,,*6E
06/09/2014	22:10:27.482	$GPGGA,221036,2544.2070,N,08000.0386,W,1,10,1.4,19,M,,M,,*6F
06/09/2014	22:10:28.492	$GPGGA,221037,2544.2081,N,08000.0372,W,1,10,1.4,19,M,,M,,*6B
06/09/2014	22:10:29.481	$GPGGA,221038,2544.2092,N,08000.0358,W,1,10,1.4,19,M,,M,,*6E
06/09/2014	22:10:30.512	$GPGGA,221039,2544.2103,N,08000.0344,W,1,10,1.4,19,M,,M,,*6B
06/09/2014	22:10:31.511	$GPGGA,221040,2544.2113,N,08000.0330,W,1,10,1.4,19,M,,M,,*67
06/09/2014	22:10:31.893	$GPGGA,221041,2544.2124,N,08000.0316,W,1,10,1.4,19,M,,M,,*66
06/09/2014	22:10:32.923	$GPGGA,221042,2544.2135,N,08000.0302,W,1,10,1.4,19,M,,M,,*60
06/09/2014	22:10:33.913	$GPGGA,221043,2544.2145,N,08000.0288,W,1,10,1.4,19,M,,M,,*65
06/09/2014	22:10:34.933	$GPGGA,221044,2544.2156,N,08000.0274,W,1,10,1.4,19,M,,M,,*63
06/09/2014	22:10:35.923	$GPGGA,221045,2544.2167,N,08000.0260,W,1,10,1.4,19,M,,M,,*65
06/09/2014	22:10:36.952	$GPGGA,221046,2544.2177,N,08000.0247,W,1,10,1.4,19,M,,M,,*62
06/09/2014	22:10:37.962	$GPGGA,221047,2544.2186,N,08000.0233,W,1,10,1.4,19,M,,M,,*6E
06/09/2014	22:10:38.962	$GPGGA,221048,2544.2197,N,08000.0219,W,1,10,1.4,19,M,,M,,*69
06/09/2014	22:10:39.992	$GPGGA,221049,2544.2208,N,08000.0206,W,1,10,1.4,19,M,,M,,*63
06/09/2014	22:10:40.982	$GPGGA,221050,2544.2218,N,08000.0192,W,1,10,1.4,19,M,,M,,*64
06/09/2014	22:10:42.002	$GPGGA,221051,2544.2229,N,08000.0178,W,1,10,1.4,19,M,,M,,*63
06/09/2014	22:10:43.123	$GPGGA,221052,2544.2240,N,08000.0164,W,1,10,1.4,19,M,,M,,*62
06/09/2014	22:10:44.022	$GPGGA,221053,2544.2251,N,08000.0150,W,1,10,1.4,19,M,,M,,*64
06/09/2014	22:10:45.002	$GPGGA,221054,2544.2262,N,08000.0136,W,1,10,1.6,19,M,,M,,*61
06/09/2014	22:10:46.114	$GPGGA,221055,2544.2272,N,08000.0123,W,1,10,1.6,19,M,,M,,*65
06/09/2014	22:10:47.032	$GPGGA,221056,2544.2283,N,08000.0109,W,1,10,1.4,19,M,,M,,*62
06/09/2014	22:10:48.033	$GPGGA,221057,2544.2294,N,08000.0095,W,1,10,1.6,19,M,,M,,*63
06/09/2014	22:10:50.427	$GPGGA,221058,2544.2305,N,08000.0081,W,1,10,1.4,19,M,,M,,*62
06/09/2014	22:10:50.455	$GPGGA,221059,2544.2316,N,08000.0067,W,1,10,1.6,19,M,,M,,*6B
06/09/2014	22:10:51.079	$GPGGA,221100,2544.2327,N,08000.0055,W,1,10,1.6,19,M,,M,,*65
06/09/2014	22:10:52.086	$GPGGA,221101,2544.2337,N,08000.0041,W,1,10,1.4,19,M,,M,,*62
06/09/2014	22:10:53.183	$GPGGA,221102,2544.2350,N,08000.0027,W,1,10,1.6,19,M,,M,,*62
06/09/2014	22:10:54.203	$GPGGA,221103,2544.2361,N,08000.0013,W,1,10,1.6,19,M,,M,,*66
06/09/2014	22:10:55.121	$GPGGA,221104,2544.2370,N,07959.9999,W,1,10,1.6,19,M,,M,,*69
06/09/2014	22:10:56.093	$GPGGA,221105,2544.2383,N,07959.9985,W,1,10,1.6,19,M,,M,,*69
06/09/2014	22:10:57.202	$GPGGA,221106,2544.2392,N,07959.9972,W,1,10,1.6,19,M,,M,,*62
06/09/2014	22:10:58.232	$GPGGA,221107,2544.2403,N,07959.9958,W,1,10,1.4,19,M,,M,,*66
06/09/2014	22:10:59.242	$GPGGA,221108,2544.2413,N,07959.9944,W,1,10,1.4,19,M,,M,,*65
06/09/2014	22:11:00.222	$GPGGA,221109,2544.2424,N,07959.9930,W,1,10,1.6,19,M,,M,,*61
06/09/2014	22:11:01.232	$GPGGA,221110,2544.2435,N,07959.9916,W,1,10,1.6,18,M,,M,,*6C
06/09/2014	22:11:02.243	$GPGGA,221111,2544.2446,N,07959.9901,W,1,10,1.6,18,M,,M,,*6F
06/09/2014	22:11:03.253	$GPGGA,221112,2544.2456,N,07959.9886,W,1,10,1.4,18,M,,M,,*61
06/09/2014	22:11:04.252	$GPGGA,221113,2544.2467,N,07959.9871,W,1,10,1.4,18,M,,M,,*6A
06/09/2014	22:11:05.273	$GPGGA,221114,2544.2478,N,07959.9858,W,1,10,1.4,18,M,,M,,*68
06/09/2014	22:11:06.261	$GPGGA,221115,2544.2488,N,07959.9844,W,1,10,1.4,18,M,,M,,*6B
06/09/2014	22:11:07.292	$GPGGA,221116,2544.2497,N,07959.9831,W,1,10,1.4,18,M,,M,,*64
06/09/2014	22:11:08.302	$GPGGA,221117,2544.2510,N,07959.9817,W,1,10,1.4,18,M,,M,,*6F
06/09/2014	22:11:09.302	$GPGGA,221118,2544.2520,N,07959.9803,W,1,10,1.4,18,M,,M,,*66
06/09/2014	22:11:10.322	$GPGGA,221119,2544.2529,N,07959.9789,W,1,10,1.4,18,M,,M,,*63
06/09/2014	22:11:11.332	$GPGGA,221120,2544.2540,N,07959.9776,W,1,10,1.4,18,M,,M,,*66
06/09/2014	22:11:12.331	$GPGGA,221121,2544.2550,N,07959.9762,W,1,10,1.4,18,M,,M,,*63
06/09/2014	22:11:13.330	$GPGGA,221122,2544.2560,N,07959.9748,W,1,10,1.4,18,M,,M,,*6B
06/09/2014	22:11:14.330	$GPGGA,221123,2544.2571,N,07959.9734,W,1,10,1.4,18,M,,M,,*61
06/09/2014	22:11:15.361	$GPGGA,221124,2544.2580,N,07959.9720,W,1,10,1.4,18,M,,M,,*6D
06/09/2014	22:11:16.381	$GPGGA,221125,2544.2590,N,07959.9706,W,1,10,1.4,18,M,,M,,*69
06/09/2014	22:11:17.370	$GPGGA,221126,2544.2601,N,07959.9691,W,1,10,1.4,18,M,,M,,*6E
06/09/2014	22:11:18.370	$GPGGA,221127,2544.2612,N,07959.9677,W,1,10,1.4,18,M,,M,,*65
06/09/2014	22:11:19.390	$GPGGA,221128,2544.2622,N,07959.9663,W,1,10,1.4,18,M,,M,,*6C
06/09/2014	22:11:20.411	$GPGGA,221129,2544.2633,N,07959.9649,W,1,10,1.4,18,M,,M,,*65
06/09/2014	22:11:21.390	$GPGGA,221130,2544.2643,N,07959.9635,W,1,10,1.4,18,M,,M,,*61
06/09/2014	22:11:22.420	$GPGGA,221131,2544.2654,N,07959.9621,W,1,10,1.4,18,M,,M,,*63
06/09/2014	22:11:23.430	$GPGGA,221132,2544.2663,N,07959.9607,W,1,10,1.4,18,M,,M,,*60
06/09/2014	22:11:24.451	$GPGGA,221133,2544.2673,N,07959.9593,W,1,10,1.4,18,M,,M,,*6E
06/09/2014	22:11:25.420	$GPGGA,221134,2544.2684,N,07959.9579,W,1,10,1.4,18,M,,M,,*65
06/09/2014	22:11:26.420	$GPGGA,221135,2544.2695,N,07959.9566,W,1,9,1.4,18,M,,M,,*52
06/09/2014	22:11:27.450	$GPGGA,221136,2544.2704,N,07959.9552,W,1,9,1.4,18,M,,M,,*5F
06/09/2014	22:11:28.450	$GPGGA,221137,2544.2713,N,07959.9538,W,1,10,1.4,18,M,,M,,*6C
06/09/2014	22:11:29.460	$GPGGA,221138,2544.2724,N,07959.9523,W,1,10,1.4,18,M,,M,,*6D
06/09/2014	22:11:30.499	$GPGGA,221139,2544.2735,N,07959.9509,W,1,10,1.4,18,M,,M,,*64
06/09/2014	22:11:31.499	$GPGGA,221140,2544.2746,N,07959.9495,W,1,10,1.4,18,M,,M,,*6A
06/09/2014	22:11:31.880	$GPGGA,221141,2544.2756,N,07959.9480,W,1,10,1.4,18,M,,M,,*6E
06/09/2014	22:11:33.011	$GPGGA,221142,2544.2767,N,07959.9465,W,1,10,1.4,18,M,,M,,*64
06/09/2014	22:11:33.991	$GPGGA,221143,2544.2777,N,07959.9451,W,1,10,1.4,18,M,,M,,*63
06/09/2014	22:11:34.920	$GPGGA,221144,2544.2788,N,07959.9437,W,1,10,1.4,18,M,,M,,*64
