Software Version Number: 1	Data File Format Number: 1	Build Version Number: 1	Error Count Since VI Started: 0	Manufacturer: Raytheon	 Model Number: RayMarine 120	 S/N: 	 Cal Date: 	 Wind Direction Offset: 0.00	 Slope (M)1: 0.00	 Offset (B)1: 0.00	 Slope (M)2: 0.00	 Offset (B)2: 0.00	 Slope (M)3: 0.00	 Offset (B)3: 0.00	 Slope (M)4: 0.00	 Offset (B)4: 0.00	 Slope (M)5: 0.00	 Offset (B)5: 0.00	 Slope (M)6: 0.00	 Offset (B)6: 0.00
Computer Date	Computer Time	GGA String
05/28/2014	07:00:00.684	$GPGGA,070001,2543.8835,N,08009.7270,W,1,8,1.6,13,M,,M,,*5E
05/28/2014	07:00:01.669	$GPGGA,070002,2543.8835,N,08009.7270,W,1,8,1.6,13,M,,M,,*5D
05/28/2014	07:00:02.694	$GPGGA,070003,2543.8835,N,08009.7269,W,1,8,1.6,12,M,,M,,*55
05/28/2014	07:00:03.688	$GPGGA,070004,2543.8835,N,08009.7270,W,1,8,1.6,12,M,,M,,*5A
05/28/2014	07:00:04.692	$GPGGA,070005,2543.8835,N,08009.7270,W,1,8,1.6,12,M,,M,,*5B
05/28/2014	07:00:05.677	$GPGGA,070006,2543.8835,N,08009.7270,W,1,8,1.6,12,M,,M,,*58
05/28/2014	07:00:06.702	$GPGGA,070007,2543.8835,N,08009.7269,W,1,8,1.6,12,M,,M,,*51
05/28/2014	07:00:07.706	$GPGGA,070008,2543.8835,N,08009.7269,W,1,8,1.6,12,M,,M,,*5E
05/28/2014	07:00:08.721	$GPGGA,070009,2543.8835,N,08009.7269,W,1,8,1.6,12,M,,M,,*5F
05/28/2014	07:00:09.696	$GPGGA,070010,2543.8835,N,08009.7269,W,1,8,1.6,12,M,,M,,*57
05/28/2014	07:00:10.739	$GPGGA,070011,2543.8835,N,08009.7269,W,1,8,1.6,12,M,,M,,*56
05/28/2014	07:00:11.713	$GPGGA,070012,2543.8835,N,08009.7269,W,1,8,1.6,12,M,,M,,*55
05/28/2014	07:00:12.736	$GPGGA,070013,2543.8835,N,08009.7269,W,1,8,1.6,12,M,,M,,*54
05/28/2014	07:00:13.699	$GPGGA,070014,2543.8835,N,08009.7269,W,1,8,1.6,12,M,,M,,*53
05/28/2014	07:00:14.693	$GPGGA,070015,2543.8835,N,08009.7269,W,1,8,1.6,12,M,,M,,*52
05/28/2014	07:00:15.726	$GPGGA,070016,2543.8835,N,08009.7268,W,1,8,1.6,12,M,,M,,*50
05/28/2014	07:00:16.700	$GPGGA,070017,2543.8835,N,08009.7269,W,1,8,1.6,12,M,,M,,*50
05/28/2014	07:00:17.753	$GPGGA,070018,2543.8833,N,08009.7268,W,1,8,1.6,12,M,,M,,*58
05/28/2014	07:00:18.726	$GPGGA,070019,2543.8833,N,08009.7268,W,1,8,1.6,12,M,,M,,*59
05/28/2014	07:00:19.720	$GPGGA,070020,2543.8834,N,08009.7269,W,1,8,1.6,12,M,,M,,*55
05/28/2014	07:00:20.834	$GPGGA,070021,2543.8834,N,08009.7269,W,1,8,1.6,12,M,,M,,*54
05/28/2014	07:00:21.816	$GPGGA,070022,2543.8832,N,08009.7268,W,1,8,1.6,12,M,,M,,*50
05/28/2014	07:00:22.709	$GPGGA,070023,2543.8833,N,08009.7269,W,1,8,1.6,12,M,,M,,*51
05/28/2014	07:00:23.753	$GPGGA,070024,2543.8832,N,08009.7268,W,1,8,1.6,12,M,,M,,*56
05/28/2014	07:00:24.716	$GPGGA,070025,2543.8833,N,08009.7269,W,1,8,1.6,12,M,,M,,*57
05/28/2014	07:00:25.709	$GPGGA,070026,2543.8832,N,08009.7268,W,1,8,1.6,12,M,,M,,*54
05/28/2014	07:00:26.723	$GPGGA,070027,2543.8831,N,08009.7269,W,1,8,1.6,12,M,,M,,*57
05/28/2014	07:00:27.736	$GPGGA,070028,2543.8831,N,08009.7269,W,1,8,1.6,11,M,,M,,*5B
05/28/2014	07:00:28.700	$GPGGA,070029,2543.8831,N,08009.7269,W,1,8,1.6,11,M,,M,,*5A
05/28/2014	07:00:29.823	$GPGGA,070030,2543.8831,N,08009.7268,W,1,8,1.6,11,M,,M,,*53
05/28/2014	07:00:30.826	$GPGGA,070031,2543.8831,N,08009.7269,W,1,8,1.6,11,M,,M,,*53
05/28/2014	07:00:31.820	$GPGGA,070032,2543.8831,N,08009.7268,W,1,8,1.6,11,M,,M,,*51
05/28/2014	07:00:32.833	$GPGGA,070033,2543.8830,N,08009.7269,W,1,8,1.6,11,M,,M,,*50
05/28/2014	07:00:33.716	$GPGGA,070034,2543.8830,N,08009.7269,W,1,8,1.6,11,M,,M,,*57
05/28/2014	07:00:34.810	$GPGGA,070035,2543.8830,N,08009.7269,W,1,8,1.6,11,M,,M,,*56
05/28/2014	07:00:35.843	$GPGGA,070036,2543.8831,N,08009.7267,W,1,8,1.6,11,M,,M,,*5A
05/28/2014	07:00:36.817	$GPGGA,070037,2543.8830,N,08009.7267,W,1,8,1.6,11,M,,M,,*5A
05/28/2014	07:00:37.820	$GPGGA,070038,2543.8831,N,08009.7267,W,1,8,1.6,11,M,,M,,*54
05/28/2014	07:00:38.597	$GPGGA,070039,2543.8830,N,08009.7269,W,1,8,1.6,11,M,,M,,*5A
05/28/2014	07:00:39.579	$GPGGA,070040,2543.8829,N,08009.7268,W,1,8,1.6,11,M,,M,,*5D
05/28/2014	07:00:40.582	$GPGGA,070041,2543.8830,N,08009.7269,W,1,8,1.6,11,M,,M,,*55
05/28/2014	07:00:41.586	$GPGGA,070042,2543.8828,N,08009.7268,W,1,8,1.6,11,M,,M,,*5E
05/28/2014	07:00:42.589	$GPGGA,070043,2543.8828,N,08009.7269,W,1,8,1.6,11,M,,M,,*5E
05/28/2014	07:00:43.603	$GPGGA,070044,2543.8828,N,08009.7268,W,1,8,1.6,11,M,,M,,*58
05/28/2014	07:00:44.606	$GPGGA,070045,2543.8828,N,08009.7269,W,1,8,1.6,11,M,,M,,*58
05/28/2014	07:00:45.589	$GPGGA,070046,2543.8828,N,08009.7268,W,1,8,1.6,11,M,,M,,*5A
05/28/2014	07:00:46.593	$GPGGA,070047,2543.8828,N,08009.7269,W,1,8,1.6,11,M,,M,,*5A
05/28/2014	07:00:47.616	$GPGGA,070048,2543.8828,N,08009.7268,W,1,8,1.6,10,M,,M,,*55
05/28/2014	07:00:48.609	$GPGGA,070049,2543.8828,N,08009.7269,W,1,8,1.6,10,M,,M,,*55
05/28/2014	07:00:49.593	$GPGGA,070050,2543.8828,N,08009.7268,W,1,8,1.6,10,M,,M,,*5C
05/28/2014	07:00:50.616	$GPGGA,070051,2543.8828,N,08009.7269,W,1,8,1.6,10,M,,M,,*5C
05/28/2014	07:00:51.610	$GPGGA,070052,2543.8828,N,08009.7269,W,1,8,1.6,10,M,,M,,*5F
05/28/2014	07:00:52.613	$GPGGA,070053,2543.8828,N,08009.7269,W,1,8,1.6,10,M,,M,,*5E
05/28/2014	07:00:53.606	$GPGGA,070054,2543.8830,N,08009.7269,W,1,8,1.6,10,M,,M,,*50
05/28/2014	07:00:54.610	$GPGGA,070055,2543.8829,N,08009.7269,W,1,8,1.6,10,M,,M,,*59
05/28/2014	07:00:55.623	$GPGGA,070056,2543.8830,N,08009.7269,W,1,8,1.6,10,M,,M,,*52
05/28/2014	07:00:56.598	$GPGGA,070057,2543.8831,N,08009.7269,W,1,8,1.6,10,M,,M,,*52
05/28/2014	07:00:57.619	$GPGGA,070058,2543.8830,N,08009.7270,W,1,8,1.6,10,M,,M,,*54
05/28/2014	07:00:58.632	$GPGGA,070059,2543.8831,N,08009.7270,W,1,8,1.6,10,M,,M,,*54
05/28/2014	07:00:59.626	$GPGGA,070100,2543.8831,N,08009.7270,W,1,8,1.6,10,M,,M,,*59
05/28/2014	07:01:00.619	$GPGGA,070101,2543.8830,N,08009.7270,W,1,8,1.6,10,M,,M,,*59
05/28/2014	07:01:01.614	$GPGGA,070102,2543.8831,N,08009.7272,W,1,8,1.6,10,M,,M,,*59
05/28/2014	07:01:02.636	$GPGGA,070103,2543.8830,N,08009.7271,W,1,8,1.6,10,M,,M,,*5A
05/28/2014	07:01:03.629	$GPGGA,070104,2543.8831,N,08009.7272,W,1,8,1.6,10,M,,M,,*5F
05/28/2014	07:01:04.603	$GPGGA,070105,2543.8830,N,08009.7271,W,1,8,1.6,10,M,,M,,*5C
05/28/2014	07:01:05.616	$GPGGA,070106,2543.8831,N,08009.7272,W,1,8,1.6,10,M,,M,,*5D
05/28/2014	07:01:06.620	$GPGGA,070107,2543.8830,N,08009.7271,W,1,8,1.6,10,M,,M,,*5E
05/28/2014	07:01:07.643	$GPGGA,070108,2543.8831,N,08009.7272,W,1,8,1.6,10,M,,M,,*53
05/28/2014	07:01:08.616	$GPGGA,070109,2543.8830,N,08009.7271,W,1,8,1.6,10,M,,M,,*50
05/28/2014	07:01:09.730	$GPGGA,070110,2543.8831,N,08009.7272,W,1,8,1.6,10,M,,M,,*5A
05/28/2014	07:01:10.653	$GPGGA,070111,2543.8830,N,08009.7271,W,1,8,1.6,10,M,,M,,*59
05/28/2014	07:01:11.637	$GPGGA,070112,2543.8829,N,08009.7272,W,1,8,1.6,10,M,,M,,*51
05/28/2014	07:01:12.760	$GPGGA,070113,2543.8830,N,08009.7271,W,1,8,1.6,10,M,,M,,*5B
05/28/2014	07:01:13.623	$GPGGA,070114,2543.8831,N,08009.7270,W,1,8,1.6,10,M,,M,,*5C
05/28/2014	07:01:14.646	$GPGGA,070115,2543.8830,N,08009.7270,W,1,8,1.6,10,M,,M,,*5C
05/28/2014	07:01:15.649	$GPGGA,070116,2543.8831,N,08009.7270,W,1,8,1.6,10,M,,M,,*5E
05/28/2014	07:01:16.622	$GPGGA,070117,2543.8831,N,08009.7272,W,1,8,1.6,10,M,,M,,*5D
05/28/2014	07:01:17.726	$GPGGA,070118,2543.8831,N,08009.7271,W,1,8,1.6,10,M,,M,,*51
05/28/2014	07:01:18.730	$GPGGA,070119,2543.8831,N,08009.7272,W,1,8,1.6,10,M,,M,,*53
05/28/2014	07:01:19.653	$GPGGA,070120,2543.8833,N,08009.7271,W,1,8,1.6,10,M,,M,,*58
05/28/2014	07:01:20.626	$GPGGA,070121,2543.8832,N,08009.7272,W,1,8,1.6,10,M,,M,,*5B
05/28/2014	07:01:21.629	$GPGGA,070122,2543.8834,N,08009.7271,W,1,8,1.6,11,M,,M,,*5C
05/28/2014	07:01:22.753	$GPGGA,070123,2543.8833,N,08009.7272,W,1,8,1.6,11,M,,M,,*59
05/28/2014	07:01:23.737	$GPGGA,070124,2543.8834,N,08009.7270,W,1,8,1.6,11,M,,M,,*5B
05/28/2014	07:01:24.730	$GPGGA,070125,2543.8835,N,08009.7272,W,1,8,1.6,11,M,,M,,*59
05/28/2014	07:01:25.733	$GPGGA,070126,2543.8835,N,08009.7270,W,1,8,1.6,11,M,,M,,*58
05/28/2014	07:01:26.648	$GPGGA,070127,2543.8835,N,08009.7270,W,1,8,1.6,11,M,,M,,*59
05/28/2014	07:01:27.750	$GPGGA,070128,2543.8835,N,08009.7272,W,1,8,1.6,11,M,,M,,*54
05/28/2014	07:01:28.733	$GPGGA,070129,2543.8835,N,08009.7270,W,1,8,1.6,11,M,,M,,*57
05/28/2014	07:01:29.747	$GPGGA,070130,2543.8835,N,08009.7270,W,1,8,1.6,11,M,,M,,*5F
05/28/2014	07:01:30.740	$GPGGA,070131,2543.8835,N,08009.7272,W,1,8,1.6,11,M,,M,,*5C
05/28/2014	07:01:31.753	$GPGGA,070132,2543.8835,N,08009.7271,W,1,8,1.6,11,M,,M,,*5C
05/28/2014	07:01:32.767	$GPGGA,070133,2543.8835,N,08009.7272,W,1,8,1.6,11,M,,M,,*5E
05/28/2014	07:01:33.749	$GPGGA,070134,2543.8835,N,08009.7271,W,1,8,1.6,11,M,,M,,*5A
05/28/2014	07:01:34.783	$GPGGA,070135,2543.8835,N,08009.7272,W,1,8,1.6,11,M,,M,,*58
05/28/2014	07:01:35.756	$GPGGA,070136,2543.8835,N,08009.7271,W,1,8,1.6,11,M,,M,,*58
05/28/2014	07:01:36.750	$GPGGA,070137,2543.8835,N,08009.7272,W,1,8,1.6,11,M,,M,,*5A
05/28/2014	07:01:37.753	$GPGGA,070138,2543.8835,N,08009.7271,W,1,8,1.6,12,M,,M,,*55
05/28/2014	07:01:38.585	$GPGGA,070139,2543.8837,N,08009.7272,W,1,8,1.6,12,M,,M,,*55
05/28/2014	07:01:39.568	$GPGGA,070140,2543.8836,N,08009.7271,W,1,8,1.6,12,M,,M,,*59
05/28/2014	07:01:40.561	$GPGGA,070141,2543.8838,N,08009.7272,W,1,8,1.6,12,M,,M,,*55
05/28/2014	07:01:41.565	$GPGGA,070142,2543.8837,N,08009.7271,W,1,8,1.6,12,M,,M,,*5A
05/28/2014	07:01:42.578	$GPGGA,070143,2543.8839,N,08009.7272,W,1,8,1.6,12,M,,M,,*56
05/28/2014	07:01:43.571	$GPGGA,070144,2543.8839,N,08009.7272,W,1,8,1.6,12,M,,M,,*51
05/28/2014	07:01:44.555	$GPGGA,070145,2543.8839,N,08009.7272,W,1,8,1.6,12,M,,M,,*50
05/28/2014	07:01:45.568	$GPGGA,070146,2543.8839,N,08009.7272,W,1,8,1.6,12,M,,M,,*53
05/28/2014	07:01:46.582	$GPGGA,070147,2543.8839,N,08009.7272,W,1,8,1.6,12,M,,M,,*52
05/28/2014	07:01:47.595	$GPGGA,070148,2543.8842,N,08009.7272,W,1,8,1.6,12,M,,M,,*51
05/28/2014	07:01:48.571	$GPGGA,070149,2543.8842,N,08009.7271,W,1,9,1.6,13,M,,M,,*53
05/28/2014	07:01:49.572	$GPGGA,070150,2543.8844,N,08009.7272,W,1,9,1.6,13,M,,M,,*5E
05/28/2014	07:01:50.588	$GPGGA,070151,2543.8845,N,08009.7270,W,1,9,1.6,13,M,,M,,*5C
05/28/2014	07:01:51.598	$GPGGA,070152,2543.8846,N,08009.7270,W,1,9,1.6,13,M,,M,,*5C
05/28/2014	07:01:52.601	$GPGGA,070153,2543.8846,N,08009.7270,W,1,9,1.6,13,M,,M,,*5D
05/28/2014	07:01:53.564	$GPGGA,070154,2543.8848,N,08009.7270,W,1,9,1.6,13,M,,M,,*54
05/28/2014	07:01:54.598	$GPGGA,070155,2543.8847,N,08009.7269,W,1,9,1.6,14,M,,M,,*55
05/28/2014	07:01:55.591	$GPGGA,070156,2543.8849,N,08009.7269,W,1,9,1.6,14,M,,M,,*58
05/28/2014	07:01:56.615	$GPGGA,070157,2543.8848,N,08009.7269,W,1,9,1.6,14,M,,M,,*58
05/28/2014	07:01:57.588	$GPGGA,070158,2543.8849,N,08009.7269,W,1,9,1.6,14,M,,M,,*56
05/28/2014	07:01:58.611	$GPGGA,070159,2543.8850,N,08009.7269,W,1,9,1.6,14,M,,M,,*5F
05/28/2014	07:01:59.615	$GPGGA,070200,2543.8852,N,08009.7270,W,1,9,1.8,14,M,,M,,*54
05/28/2014	07:02:00.688	$GPGGA,070201,2543.8853,N,08009.7270,W,1,9,1.6,14,M,,M,,*5A
05/28/2014	07:02:01.581	$GPGGA,070202,2543.8857,N,08009.7272,W,1,9,1.6,15,M,,M,,*5E
05/28/2014	07:02:02.676	$GPGGA,070203,2543.8857,N,08009.7271,W,1,9,1.6,15,M,,M,,*5C
05/28/2014	07:02:03.608	$GPGGA,070204,2543.8860,N,08009.7272,W,1,9,1.6,15,M,,M,,*5C
05/28/2014	07:02:04.582	$GPGGA,070205,2543.8860,N,08009.7272,W,1,9,1.6,15,M,,M,,*5D
05/28/2014	07:02:05.685	$GPGGA,070206,2543.8863,N,08009.7273,W,1,9,1.6,15,M,,M,,*5C
05/28/2014	07:02:06.688	$GPGGA,070207,2543.8864,N,08009.7274,W,1,9,1.6,16,M,,M,,*5E
05/28/2014	07:02:07.621	$GPGGA,070208,2543.8862,N,08009.7274,W,1,9,1.6,16,M,,M,,*57
05/28/2014	07:02:08.604	$GPGGA,070209,2543.8863,N,08009.7274,W,1,8,1.8,16,M,,M,,*58
05/28/2014	07:02:09.608	$GPGGA,070210,2543.8861,N,08009.7274,W,1,8,1.8,16,M,,M,,*52
05/28/2014	07:02:10.721	$GPGGA,070211,2543.8862,N,08009.7276,W,1,8,1.8,16,M,,M,,*52
05/28/2014	07:02:11.705	$GPGGA,070212,2543.8860,N,08009.7274,W,1,8,1.8,16,M,,M,,*51
05/28/2014	07:02:12.629	$GPGGA,070213,2543.8859,N,08009.7274,W,1,8,1.8,17,M,,M,,*5B
05/28/2014	07:02:13.611	$GPGGA,070214,2543.8860,N,08009.7274,W,1,8,1.8,17,M,,M,,*56
05/28/2014	07:02:14.715	$GPGGA,070215,2543.8859,N,08009.7274,W,1,8,1.8,17,M,,M,,*5D
05/28/2014	07:02:15.618	$GPGGA,070216,2543.8860,N,08009.7276,W,1,8,1.8,17,M,,M,,*56
05/28/2014	07:02:16.702	$GPGGA,070217,2543.8859,N,08009.7274,W,1,8,1.8,17,M,,M,,*5F
05/28/2014	07:02:17.705	$GPGGA,070218,2543.8860,N,08009.7274,W,1,8,1.8,17,M,,M,,*5A
05/28/2014	07:02:18.739	$GPGGA,070219,2543.8859,N,08009.7274,W,1,8,1.8,17,M,,M,,*51
05/28/2014	07:02:19.722	$GPGGA,070220,2543.8860,N,08009.7274,W,1,8,1.8,17,M,,M,,*51
05/28/2014	07:02:20.735	$GPGGA,070221,2543.8858,N,08009.7274,W,1,8,1.8,17,M,,M,,*5B
05/28/2014	07:02:21.709	$GPGGA,070222,2543.8859,N,08009.7274,W,1,8,1.8,17,M,,M,,*59
05/28/2014	07:02:22.752	$GPGGA,070223,2543.8857,N,08009.7274,W,1,8,1.8,17,M,,M,,*56
05/28/2014	07:02:23.715	$GPGGA,070224,2543.8857,N,08009.7274,W,1,8,1.8,17,M,,M,,*51
05/28/2014	07:02:24.708	$GPGGA,070225,2543.8857,N,08009.7273,W,1,8,1.8,17,M,,M,,*57
05/28/2014	07:02:25.721	$GPGGA,070226,2543.8863,N,08009.7276,W,1,8,1.8,18,M,,M,,*59
05/28/2014	07:02:26.705	$GPGGA,070227,2543.8867,N,08009.7277,W,1,9,1.6,18,M,,M,,*52
05/28/2014	07:02:27.728	$GPGGA,070228,2543.8868,N,08009.7280,W,1,9,1.6,18,M,,M,,*5A
05/28/2014	07:02:28.731	$GPGGA,070229,2543.8867,N,08009.7278,W,1,9,1.6,18,M,,M,,*53
05/28/2014	07:02:29.715	$GPGGA,070230,2543.8868,N,08009.7279,W,1,9,1.8,18,M,,M,,*5B
05/28/2014	07:02:30.718	$GPGGA,070231,2543.8867,N,08009.7278,W,1,9,1.6,18,M,,M,,*5A
05/28/2014	07:02:31.742	$GPGGA,070232,2543.8866,N,08009.7279,W,1,9,1.6,18,M,,M,,*59
05/28/2014	07:02:32.745	$GPGGA,070233,2543.8867,N,08009.7278,W,1,9,1.6,19,M,,M,,*59
05/28/2014	07:02:33.738	$GPGGA,070234,2543.8865,N,08009.7277,W,1,9,1.6,19,M,,M,,*53
05/28/2014	07:02:34.762	$GPGGA,070235,2543.8864,N,08009.7277,W,1,9,1.6,19,M,,M,,*53
05/28/2014	07:02:35.735	$GPGGA,070236,2543.8862,N,08009.7277,W,1,9,1.6,19,M,,M,,*56
05/28/2014	07:02:36.729	$GPGGA,070237,2543.8860,N,08009.7276,W,1,9,1.6,19,M,,M,,*54
05/28/2014	07:02:37.723	$GPGGA,070238,2543.8858,N,08009.7276,W,1,9,1.6,19,M,,M,,*50
05/28/2014	07:02:38.563	$GPGGA,070239,2543.8857,N,08009.7275,W,1,9,1.6,19,M,,M,,*5D
05/28/2014	07:02:39.547	$GPGGA,070240,2543.8855,N,08009.7274,W,1,9,1.6,19,M,,M,,*50
05/28/2014	07:02:40.531	$GPGGA,070241,2543.8853,N,08009.7273,W,1,9,1.6,19,M,,M,,*50
05/28/2014	07:02:41.553	$GPGGA,070242,2543.8853,N,08009.7273,W,1,9,1.6,19,M,,M,,*53
05/28/2014	07:02:42.546	$GPGGA,070243,2543.8851,N,08009.7272,W,1,9,1.6,19,M,,M,,*51
05/28/2014	07:02:43.539	$GPGGA,070244,2543.8850,N,08009.7272,W,1,9,1.6,19,M,,M,,*57
05/28/2014	07:02:44.553	$GPGGA,070245,2543.8849,N,08009.7271,W,1,9,1.6,19,M,,M,,*5D
05/28/2014	07:02:45.546	$GPGGA,070246,2543.8849,N,08009.7272,W,1,9,1.6,19,M,,M,,*5D
05/28/2014	07:02:46.560	$GPGGA,070247,2543.8848,N,08009.7271,W,1,9,1.6,19,M,,M,,*5E
05/28/2014	07:02:47.583	$GPGGA,070248,2543.8849,N,08009.7272,W,1,9,1.6,19,M,,M,,*53
05/28/2014	07:02:48.677	$GPGGA,070249,2543.8847,N,08009.7271,W,1,9,1.6,19,M,,M,,*5F
05/28/2014	07:02:49.560	$GPGGA,070250,2543.8848,N,08009.7270,W,1,9,1.6,18,M,,M,,*58
05/28/2014	07:02:50.543	$GPGGA,070251,2543.8846,N,08009.7270,W,1,9,1.6,18,M,,M,,*57
05/28/2014	07:02:51.687	$GPGGA,070252,2543.8846,N,08009.7270,W,1,9,1.6,18,M,,M,,*54
05/28/2014	07:02:52.670	$GPGGA,070253,2543.8846,N,08009.7270,W,1,9,1.6,18,M,,M,,*55
05/28/2014	07:02:53.674	$GPGGA,070254,2543.8846,N,08009.7270,W,1,9,1.6,18,M,,M,,*52
05/28/2014	07:02:54.677	$GPGGA,070255,2543.8844,N,08009.7270,W,1,9,1.6,18,M,,M,,*51
05/28/2014	07:02:55.570	$GPGGA,070256,2543.8845,N,08009.7270,W,1,9,1.6,18,M,,M,,*53
05/28/2014	07:02:56.573	$GPGGA,070257,2543.8844,N,08009.7270,W,1,9,1.6,18,M,,M,,*53
05/28/2014	07:02:57.557	$GPGGA,070258,2543.8843,N,08009.7270,W,1,9,1.6,18,M,,M,,*5B
05/28/2014	07:02:58.680	$GPGGA,070259,2543.8844,N,08009.7270,W,1,9,1.6,18,M,,M,,*5D
05/28/2014	07:02:59.673	$GPGGA,070300,2543.8842,N,08009.7270,W,1,9,1.6,18,M,,M,,*56
05/28/2014	07:03:00.666	$GPGGA,070301,2543.8842,N,08009.7270,W,1,9,1.6,18,M,,M,,*57
05/28/2014	07:03:01.559	$GPGGA,070302,2543.8842,N,08009.7270,W,1,9,1.6,18,M,,M,,*54
05/28/2014	07:03:02.703	$GPGGA,070303,2543.8840,N,08009.7270,W,1,9,1.6,18,M,,M,,*57
05/28/2014	07:03:03.677	$GPGGA,070304,2543.8841,N,08009.7270,W,1,9,1.6,17,M,,M,,*5E
05/28/2014	07:03:04.660	$GPGGA,070305,2543.8840,N,08009.7270,W,1,9,1.6,17,M,,M,,*5E
05/28/2014	07:03:05.663	$GPGGA,070306,2543.8839,N,08009.7270,W,1,9,1.6,17,M,,M,,*53
05/28/2014	07:03:06.667	$GPGGA,070307,2543.8839,N,08009.7269,W,1,8,1.6,17,M,,M,,*5B
05/28/2014	07:03:07.670	$GPGGA,070308,2543.8839,N,08009.7270,W,1,8,1.6,17,M,,M,,*5C
05/28/2014	07:03:08.724	$GPGGA,070309,2543.8839,N,08009.7270,W,1,8,1.6,17,M,,M,,*5D
05/28/2014	07:03:09.667	$GPGGA,070310,2543.8841,N,08009.7269,W,1,8,1.6,17,M,,M,,*52
05/28/2014	07:03:10.690	$GPGGA,070311,2543.8840,N,08009.7269,W,1,9,1.6,17,M,,M,,*53
05/28/2014	07:03:11.684	$GPGGA,070312,2543.8839,N,08009.7270,W,1,9,1.6,17,M,,M,,*56
05/28/2014	07:03:12.697	$GPGGA,070313,2543.8842,N,08009.7269,W,1,8,1.6,17,M,,M,,*52
05/28/2014	07:03:13.670	$GPGGA,070314,2543.8840,N,08009.7269,W,1,8,1.6,17,M,,M,,*57
05/28/2014	07:03:14.694	$GPGGA,070315,2543.8841,N,08009.7269,W,1,8,1.6,17,M,,M,,*57
05/28/2014	07:03:15.697	$GPGGA,070316,2543.8840,N,08009.7270,W,1,8,1.6,17,M,,M,,*5D
05/28/2014	07:03:16.710	$GPGGA,070317,2543.8841,N,08009.7270,W,1,8,1.6,17,M,,M,,*5D
05/28/2014	07:03:17.673	$GPGGA,070318,2543.8840,N,08009.7270,W,1,8,1.6,17,M,,M,,*53
05/28/2014	07:03:18.706	$GPGGA,070319,2543.8841,N,08009.7270,W,1,8,1.6,17,M,,M,,*53
05/28/2014	07:03:19.700	$GPGGA,070320,2543.8840,N,08009.7270,W,1,8,1.6,17,M,,M,,*58
05/28/2014	07:03:20.694	$GPGGA,070321,2543.8842,N,08009.7269,W,1,8,1.6,17,M,,M,,*53
05/28/2014	07:03:21.687	$GPGGA,070322,2543.8842,N,08009.7268,W,1,8,1.6,17,M,,M,,*51
05/28/2014	07:03:22.710	$GPGGA,070323,2543.8844,N,08009.7267,W,1,9,1.6,17,M,,M,,*58
05/28/2014	07:03:23.693	$GPGGA,070324,2543.8845,N,08009.7267,W,1,9,1.6,17,M,,M,,*5E
05/28/2014	07:03:24.717	$GPGGA,070325,2543.8844,N,08009.7267,W,1,9,1.6,17,M,,M,,*5E
05/28/2014	07:03:25.710	$GPGGA,070326,2543.8843,N,08009.7267,W,1,9,1.6,17,M,,M,,*5A
05/28/2014	07:03:26.694	$GPGGA,070327,2543.8844,N,08009.7269,W,1,8,1.6,17,M,,M,,*53
05/28/2014	07:03:27.707	$GPGGA,070328,2543.8843,N,08009.7268,W,1,8,1.6,17,M,,M,,*5A
05/28/2014	07:03:28.710	$GPGGA,070329,2543.8842,N,08009.7269,W,1,8,1.6,17,M,,M,,*5B
05/28/2014	07:03:29.704	$GPGGA,070330,2543.8842,N,08009.7268,W,1,8,1.6,17,M,,M,,*52
05/28/2014	07:03:30.707	$GPGGA,070331,2543.8842,N,08009.7269,W,1,8,1.6,17,M,,M,,*52
05/28/2014	07:03:31.712	$GPGGA,070332,2543.8842,N,08009.7269,W,1,8,1.6,17,M,,M,,*51
05/28/2014	07:03:32.744	$GPGGA,070333,2543.8842,N,08009.7269,W,1,8,1.6,17,M,,M,,*50
05/28/2014	07:03:33.697	$GPGGA,070334,2543.8842,N,08009.7269,W,1,8,1.6,17,M,,M,,*57
05/28/2014	07:03:34.750	$GPGGA,070335,2543.8842,N,08009.7269,W,1,8,1.6,17,M,,M,,*56
05/28/2014	07:03:35.723	$GPGGA,070336,2543.8842,N,08009.7268,W,1,8,1.6,17,M,,M,,*54
05/28/2014	07:03:36.727	$GPGGA,070337,2543.8842,N,08009.7269,W,1,8,1.6,17,M,,M,,*54
05/28/2014	07:03:37.710	$GPGGA,070338,2543.8842,N,08009.7269,W,1,8,1.6,17,M,,M,,*5B
05/28/2014	07:03:38.520	$GPGGA,070339,2543.8842,N,08009.7269,W,1,8,1.6,17,M,,M,,*5A
05/28/2014	07:03:39.524	$GPGGA,070340,2543.8842,N,08009.7269,W,1,8,1.6,17,M,,M,,*54
05/28/2014	07:03:40.527	$GPGGA,070341,2543.8840,N,08009.7269,W,1,8,1.6,17,M,,M,,*57
05/28/2014	07:03:41.511	$GPGGA,070342,2543.8841,N,08009.7269,W,1,8,1.6,17,M,,M,,*55
05/28/2014	07:03:42.514	$GPGGA,070343,2543.8840,N,08009.7269,W,1,8,1.6,17,M,,M,,*55
05/28/2014	07:03:43.618	$GPGGA,070344,2543.8841,N,08009.7269,W,1,8,1.6,17,M,,M,,*53
05/28/2014	07:03:44.632	$GPGGA,070345,2543.8840,N,08009.7269,W,1,8,1.6,17,M,,M,,*53
05/28/2014	07:03:45.504	$GPGGA,070346,2543.8839,N,08009.7269,W,1,8,1.6,17,M,,M,,*5E
05/28/2014	07:03:46.527	$GPGGA,070347,2543.8839,N,08009.7269,W,1,8,1.6,17,M,,M,,*5F
05/28/2014	07:03:47.541	$GPGGA,070348,2543.8839,N,08009.7269,W,1,8,1.6,17,M,,M,,*50
05/28/2014	07:03:48.635	$GPGGA,070349,2543.8839,N,08009.7269,W,1,8,1.6,17,M,,M,,*51
05/28/2014	07:03:49.528	$GPGGA,070350,2543.8839,N,08009.7269,W,1,8,1.6,17,M,,M,,*59
05/28/2014	07:03:50.531	$GPGGA,070351,2543.8839,N,08009.7269,W,1,8,1.6,17,M,,M,,*58
05/28/2014	07:03:51.533	$GPGGA,070352,2543.8839,N,08009.7269,W,1,8,1.6,17,M,,M,,*5B
05/28/2014	07:03:52.667	$GPGGA,070353,2543.8839,N,08009.7269,W,1,8,1.6,17,M,,M,,*5A
05/28/2014	07:03:53.620	$GPGGA,070354,2543.8839,N,08009.7269,W,1,8,1.6,17,M,,M,,*5D
05/28/2014	07:03:54.654	$GPGGA,070355,2543.8839,N,08009.7269,W,1,8,1.6,17,M,,M,,*5C
05/28/2014	07:03:55.657	$GPGGA,070356,2543.8839,N,08009.7269,W,1,8,1.6,17,M,,M,,*5F
05/28/2014	07:03:56.631	$GPGGA,070357,2543.8839,N,08009.7269,W,1,8,1.6,16,M,,M,,*5F
05/28/2014	07:03:57.644	$GPGGA,070358,2543.8839,N,08009.7269,W,1,8,1.6,16,M,,M,,*50
05/28/2014	07:03:58.658	$GPGGA,070359,2543.8839,N,08009.7268,W,1,8,1.6,16,M,,M,,*50
05/28/2014	07:03:59.681	$GPGGA,070400,2543.8839,N,08009.7269,W,1,8,1.6,16,M,,M,,*5A
05/28/2014	07:04:00.655	$GPGGA,070401,2543.8839,N,08009.7268,W,1,8,1.6,16,M,,M,,*5A
05/28/2014	07:04:01.638	$GPGGA,070402,2543.8839,N,08009.7269,W,1,8,1.6,16,M,,M,,*58
05/28/2014	07:04:02.672	$GPGGA,070403,2543.8839,N,08009.7268,W,1,8,1.6,16,M,,M,,*58
05/28/2014	07:04:03.654	$GPGGA,070404,2543.8839,N,08009.7267,W,1,8,1.6,16,M,,M,,*50
05/28/2014	07:04:04.658	$GPGGA,070405,2543.8839,N,08009.7267,W,1,8,1.6,16,M,,M,,*51
05/28/2014	07:04:06.865	$GPGGA,070407,2543.8839,N,08009.7267,W,1,8,1.6,16,M,,M,,*53
05/28/2014	07:04:07.668	$GPGGA,070408,2543.8837,N,08009.7266,W,1,8,1.6,16,M,,M,,*53
05/28/2014	07:04:08.640	$GPGGA,070409,2543.8838,N,08009.7266,W,1,8,1.6,16,M,,M,,*5D
05/28/2014	07:04:09.654	$GPGGA,070410,2543.8837,N,08009.7266,W,1,8,1.6,16,M,,M,,*5A
05/28/2014	07:04:10.667	$GPGGA,070411,2543.8838,N,08009.7266,W,1,8,1.6,16,M,,M,,*54
05/28/2014	07:04:11.671	$GPGGA,070412,2543.8836,N,08009.7266,W,1,8,1.6,16,M,,M,,*59
05/28/2014	07:04:12.654	$GPGGA,070413,2543.8837,N,08009.7266,W,1,8,1.6,16,M,,M,,*59
05/28/2014	07:04:13.657	$GPGGA,070414,2543.8836,N,08009.7266,W,1,8,1.6,15,M,,M,,*5C
05/28/2014	07:04:14.681	$GPGGA,070415,2543.8835,N,08009.7266,W,1,8,1.6,15,M,,M,,*5E
05/28/2014	07:04:15.674	$GPGGA,070416,2543.8835,N,08009.7266,W,1,8,1.6,15,M,,M,,*5D
05/28/2014	07:04:16.668	$GPGGA,070417,2543.8835,N,08009.7266,W,1,8,1.6,15,M,,M,,*5C
05/28/2014	07:04:17.671	$GPGGA,070418,2543.8835,N,08009.7266,W,1,8,1.6,15,M,,M,,*53
05/28/2014	07:04:18.704	$GPGGA,070419,2543.8835,N,08009.7266,W,1,8,1.6,15,M,,M,,*52
05/28/2014	07:04:19.688	$GPGGA,070420,2543.8833,N,08009.7267,W,1,8,1.6,15,M,,M,,*5F
05/28/2014	07:04:20.701	$GPGGA,070421,2543.8834,N,08009.7267,W,1,8,1.6,15,M,,M,,*59
05/28/2014	07:04:21.654	$GPGGA,070422,2543.8833,N,08009.7267,W,1,8,1.6,15,M,,M,,*5D
05/28/2014	07:04:22.668	$GPGGA,070423,2543.8835,N,08009.7266,W,1,8,1.6,15,M,,M,,*5B
05/28/2014	07:04:23.671	$GPGGA,070424,2543.8838,N,08009.7265,W,1,8,1.6,15,M,,M,,*52
05/28/2014	07:04:24.788	$GPGGA,070425,2543.8839,N,08009.7264,W,1,9,1.6,15,M,,M,,*52
05/28/2014	07:04:25.678	$GPGGA,070426,2543.8839,N,08009.7263,W,1,9,1.6,15,M,,M,,*56
05/28/2014	07:04:26.801	$GPGGA,070427,2543.8841,N,08009.7262,W,1,9,1.6,15,M,,M,,*59
05/28/2014	07:04:27.734	$GPGGA,070428,2543.8840,N,08009.7261,W,1,9,1.6,15,M,,M,,*54
05/28/2014	07:04:28.687	$GPGGA,070429,2543.8841,N,08009.7262,W,1,9,1.6,15,M,,M,,*57
05/28/2014	07:04:29.691	$GPGGA,070430,2543.8840,N,08009.7261,W,1,9,1.6,15,M,,M,,*5D
05/28/2014	07:04:30.774	$GPGGA,070431,2543.8841,N,08009.7262,W,1,9,1.6,15,M,,M,,*5E
05/28/2014	07:04:31.697	$GPGGA,070432,2543.8839,N,08009.7261,W,1,9,1.6,15,M,,M,,*51
05/28/2014	07:04:32.801	$GPGGA,070433,2543.8839,N,08009.7262,W,1,8,1.6,15,M,,M,,*52
05/28/2014	07:04:33.775	$GPGGA,070434,2543.8839,N,08009.7260,W,1,8,1.6,15,M,,M,,*57
05/28/2014	07:04:34.798	$GPGGA,070435,2543.8837,N,08009.7262,W,1,9,1.6,15,M,,M,,*5B
05/28/2014	07:04:35.701	$GPGGA,070436,2543.8837,N,08009.7262,W,1,9,1.6,15,M,,M,,*58
05/28/2014	07:04:36.694	$GPGGA,070437,2543.8837,N,08009.7262,W,1,9,1.6,15,M,,M,,*59
05/28/2014	07:04:37.788	$GPGGA,070438,2543.8838,N,08009.7261,W,1,9,1.6,15,M,,M,,*5A
05/28/2014	07:04:38.499	$GPGGA,070439,2543.8839,N,08009.7262,W,1,9,1.6,15,M,,M,,*59
05/28/2014	07:04:39.523	$GPGGA,070440,2543.8839,N,08009.7261,W,1,9,1.6,16,M,,M,,*57
05/28/2014	07:04:40.586	$GPGGA,070441,2543.8839,N,08009.7262,W,1,9,1.6,16,M,,M,,*55
05/28/2014	07:04:41.590	$GPGGA,070442,2543.8837,N,08009.7260,W,1,9,1.6,16,M,,M,,*5A
05/28/2014	07:04:42.651	$GPGGA,070443,2543.8838,N,08009.7261,W,1,9,1.6,16,M,,M,,*55
05/28/2014	07:04:43.595	$GPGGA,070444,2543.8837,N,08009.7260,W,1,9,1.6,16,M,,M,,*5C
05/28/2014	07:04:44.619	$GPGGA,070445,2543.8838,N,08009.7262,W,1,9,1.6,16,M,,M,,*50
05/28/2014	07:04:45.592	$GPGGA,070446,2543.8839,N,08009.7261,W,1,9,1.6,16,M,,M,,*51
05/28/2014	07:04:46.616	$GPGGA,070447,2543.8837,N,08009.7262,W,1,9,1.6,16,M,,M,,*5D
05/28/2014	07:04:47.629	$GPGGA,070448,2543.8838,N,08009.7260,W,1,9,1.6,16,M,,M,,*5F
05/28/2014	07:04:48.592	$GPGGA,070449,2543.8837,N,08009.7261,W,1,9,1.6,16,M,,M,,*50
05/28/2014	07:04:49.606	$GPGGA,070450,2543.8838,N,08009.7260,W,1,9,1.6,16,M,,M,,*56
05/28/2014	07:04:50.619	$GPGGA,070451,2543.8836,N,08009.7259,W,1,9,1.6,16,M,,M,,*53
05/28/2014	07:04:51.613	$GPGGA,070452,2543.8837,N,08009.7259,W,1,9,1.6,16,M,,M,,*51
05/28/2014	07:04:52.626	$GPGGA,070453,2543.8836,N,08009.7258,W,1,9,1.6,16,M,,M,,*50
05/28/2014	07:04:53.609	$GPGGA,070454,2543.8837,N,08009.7258,W,1,9,1.6,16,M,,M,,*56
05/28/2014	07:04:54.623	$GPGGA,070455,2543.8836,N,08009.7258,W,1,9,1.6,16,M,,M,,*56
05/28/2014	07:04:55.636	$GPGGA,070456,2543.8837,N,08009.7257,W,1,9,1.6,16,M,,M,,*5B
05/28/2014	07:04:56.600	$GPGGA,070457,2543.8836,N,08009.7258,W,1,9,1.6,16,M,,M,,*54
05/28/2014	07:04:57.623	$GPGGA,070458,2543.8837,N,08009.7257,W,1,9,1.6,16,M,,M,,*55
05/28/2014	07:04:58.616	$GPGGA,070459,2543.8836,N,08009.7258,W,1,9,1.6,16,M,,M,,*5A
05/28/2014	07:04:59.650	$GPGGA,070500,2543.8837,N,08009.7257,W,1,9,1.6,16,M,,M,,*59
05/28/2014	07:05:00.613	$GPGGA,070501,2543.8836,N,08009.7258,W,1,9,1.6,16,M,,M,,*56
05/28/2014	07:05:01.616	$GPGGA,070502,2543.8836,N,08009.7258,W,1,9,1.6,16,M,,M,,*55
05/28/2014	07:05:02.609	$GPGGA,070503,2543.8836,N,08009.7258,W,1,9,1.6,16,M,,M,,*54
05/28/2014	07:05:03.632	$GPGGA,070504,2543.8837,N,08009.7257,W,1,9,1.6,16,M,,M,,*5D
05/28/2014	07:05:04.666	$GPGGA,070505,2543.8836,N,08009.7258,W,1,9,1.6,16,M,,M,,*52
05/28/2014	07:05:05.619	$GPGGA,070506,2543.8837,N,08009.7257,W,1,9,1.6,16,M,,M,,*5F
05/28/2014	07:05:06.653	$GPGGA,070507,2543.8836,N,08009.7258,W,1,9,1.6,16,M,,M,,*50
05/28/2014	07:05:07.636	$GPGGA,070508,2543.8837,N,08009.7257,W,1,9,1.6,16,M,,M,,*51
05/28/2014	07:05:08.630	$GPGGA,070509,2543.8836,N,08009.7258,W,1,9,1.6,16,M,,M,,*5E
05/28/2014	07:05:09.623	$GPGGA,070510,2543.8837,N,08009.7257,W,1,9,1.6,16,M,,M,,*58
05/28/2014	07:05:10.635	$GPGGA,070511,2543.8838,N,08009.7258,W,1,9,1.6,16,M,,M,,*59
05/28/2014	07:05:11.648	$GPGGA,070512,2543.8837,N,08009.7257,W,1,9,1.6,16,M,,M,,*5A
05/28/2014	07:05:12.651	$GPGGA,070513,2543.8838,N,08009.7258,W,1,9,1.6,16,M,,M,,*5B
05/28/2014	07:05:13.624	$GPGGA,070514,2543.8837,N,08009.7258,W,1,9,1.6,16,M,,M,,*53
05/28/2014	07:05:14.617	$GPGGA,070515,2543.8838,N,08009.7258,W,1,9,1.6,16,M,,M,,*5D
05/28/2014	07:05:15.760	$GPGGA,070516,2543.8837,N,08009.7258,W,1,9,1.6,16,M,,M,,*51
05/28/2014	07:05:16.642	$GPGGA,070517,2543.8838,N,08009.7258,W,1,9,1.6,16,M,,M,,*5F
05/28/2014	07:05:17.635	$GPGGA,070518,2543.8837,N,08009.7258,W,1,9,1.6,16,M,,M,,*5F
05/28/2014	07:05:18.738	$GPGGA,070519,2543.8838,N,08009.7258,W,1,9,1.6,16,M,,M,,*51
05/28/2014	07:05:19.640	$GPGGA,070520,2543.8839,N,08009.7258,W,1,9,1.6,16,M,,M,,*5A
05/28/2014	07:05:20.743	$GPGGA,070521,2543.8839,N,08009.7258,W,1,9,1.6,16,M,,M,,*5B
05/28/2014	07:05:21.635	$GPGGA,070522,2543.8839,N,08009.7259,W,1,9,1.6,16,M,,M,,*59
05/28/2014	07:05:22.658	$GPGGA,070523,2543.8839,N,08009.7259,W,1,9,1.6,16,M,,M,,*58
05/28/2014	07:05:23.781	$GPGGA,070524,2543.8839,N,08009.7259,W,1,9,1.6,16,M,,M,,*5F
05/28/2014	07:05:24.654	$GPGGA,070525,2543.8839,N,08009.7259,W,1,9,1.6,16,M,,M,,*5E
05/28/2014	07:05:25.737	$GPGGA,070526,2543.8839,N,08009.7259,W,1,9,1.6,16,M,,M,,*5D
05/28/2014	07:05:26.770	$GPGGA,070527,2543.8839,N,08009.7259,W,1,9,1.6,16,M,,M,,*5C
05/28/2014	07:05:27.753	$GPGGA,070528,2543.8839,N,08009.7259,W,1,9,1.6,16,M,,M,,*53
05/28/2014	07:05:28.646	$GPGGA,070529,2543.8839,N,08009.7259,W,1,9,1.6,16,M,,M,,*52
05/28/2014	07:05:29.738	$GPGGA,070530,2543.8839,N,08009.7259,W,1,9,1.6,16,M,,M,,*5A
05/28/2014	07:05:30.731	$GPGGA,070531,2543.8839,N,08009.7259,W,1,9,1.6,16,M,,M,,*5B
05/28/2014	07:05:31.753	$GPGGA,070532,2543.8839,N,08009.7259,W,1,9,1.6,16,M,,M,,*58
05/28/2014	07:05:32.756	$GPGGA,070533,2543.8839,N,08009.7259,W,1,9,1.6,16,M,,M,,*59
05/28/2014	07:05:33.739	$GPGGA,070534,2543.8839,N,08009.7261,W,1,9,1.6,16,M,,M,,*55
05/28/2014	07:05:34.732	$GPGGA,070535,2543.8839,N,08009.7260,W,1,9,1.6,16,M,,M,,*55
05/28/2014	07:05:35.745	$GPGGA,070536,2543.8839,N,08009.7261,W,1,9,1.6,16,M,,M,,*57
05/28/2014	07:05:36.766	$GPGGA,070537,2543.8839,N,08009.7260,W,1,9,1.6,16,M,,M,,*57
05/28/2014	07:05:37.749	$GPGGA,070538,2543.8839,N,08009.7262,W,1,9,1.6,16,M,,M,,*5A
05/28/2014	07:05:38.556	$GPGGA,070539,2543.8839,N,08009.7261,W,1,9,1.6,16,M,,M,,*58
05/28/2014	07:05:39.579	$GPGGA,070540,2543.8839,N,08009.7262,W,1,9,1.6,16,M,,M,,*55
05/28/2014	07:05:40.552	$GPGGA,070541,2543.8839,N,08009.7261,W,1,9,1.6,16,M,,M,,*57
05/28/2014	07:05:41.564	$GPGGA,070542,2543.8839,N,08009.7262,W,1,9,1.6,16,M,,M,,*57
05/28/2014	07:05:42.587	$GPGGA,070543,2543.8837,N,08009.7262,W,1,9,1.6,16,M,,M,,*58
05/28/2014	07:05:43.580	$GPGGA,070544,2543.8838,N,08009.7262,W,1,9,1.6,16,M,,M,,*50
05/28/2014	07:05:44.583	$GPGGA,070545,2543.8837,N,08009.7262,W,1,9,1.6,16,M,,M,,*5E
05/28/2014	07:05:45.556	$GPGGA,070546,2543.8839,N,08009.7262,W,1,9,1.6,16,M,,M,,*53
05/28/2014	07:05:46.589	$GPGGA,070547,2543.8839,N,08009.7262,W,1,9,1.6,16,M,,M,,*52
05/28/2014	07:05:47.591	$GPGGA,070548,2543.8839,N,08009.7261,W,1,9,1.6,16,M,,M,,*5E
05/28/2014	07:05:48.594	$GPGGA,070549,2543.8839,N,08009.7262,W,1,9,1.6,16,M,,M,,*5C
05/28/2014	07:05:49.567	$GPGGA,070550,2543.8839,N,08009.7261,W,1,9,1.6,16,M,,M,,*57
05/28/2014	07:05:50.561	$GPGGA,070551,2543.8839,N,08009.7262,W,1,9,1.6,16,M,,M,,*55
05/28/2014	07:05:51.592	$GPGGA,070552,2543.8839,N,08009.7261,W,1,9,1.6,16,M,,M,,*55
05/28/2014	07:05:52.576	$GPGGA,070553,2543.8839,N,08009.7262,W,1,9,1.6,16,M,,M,,*57
05/28/2014	07:05:53.577	$GPGGA,070554,2543.8841,N,08009.7261,W,1,9,1.6,16,M,,M,,*5C
05/28/2014	07:05:54.610	$GPGGA,070555,2543.8840,N,08009.7262,W,1,9,1.6,16,M,,M,,*5F
05/28/2014	07:05:55.573	$GPGGA,070556,2543.8841,N,08009.7261,W,1,9,1.6,16,M,,M,,*5E
05/28/2014	07:05:56.595	$GPGGA,070557,2543.8840,N,08009.7262,W,1,9,1.6,16,M,,M,,*5D
05/28/2014	07:05:57.568	$GPGGA,070558,2543.8842,N,08009.7261,W,1,9,1.6,16,M,,M,,*53
05/28/2014	07:05:58.582	$GPGGA,070559,2543.8842,N,08009.7262,W,1,9,1.6,16,M,,M,,*51
05/28/2014	07:05:59.594	$GPGGA,070600,2543.8842,N,08009.7261,W,1,9,1.6,16,M,,M,,*5D
05/28/2014	07:06:00.588	$GPGGA,070601,2543.8842,N,08009.7260,W,1,9,1.6,16,M,,M,,*5D
05/28/2014	07:06:01.579	$GPGGA,070602,2543.8842,N,08009.7261,W,1,9,1.6,16,M,,M,,*5F
05/28/2014	07:06:02.592	$GPGGA,070603,2543.8842,N,08009.7260,W,1,9,1.6,16,M,,M,,*5F
05/28/2014	07:06:03.595	$GPGGA,070604,2543.8842,N,08009.7262,W,1,9,1.6,16,M,,M,,*5A
05/28/2014	07:06:04.698	$GPGGA,070605,2543.8840,N,08009.7262,W,1,8,1.6,16,M,,M,,*58
05/28/2014	07:06:05.571	$GPGGA,070606,2543.8841,N,08009.7262,W,1,8,1.6,16,M,,M,,*5A
05/28/2014	07:06:06.593	$GPGGA,070607,2543.8839,N,08009.7263,W,1,8,1.6,16,M,,M,,*55
05/28/2014	07:06:07.596	$GPGGA,070608,2543.8839,N,08009.7265,W,1,8,1.6,16,M,,M,,*5C
05/28/2014	07:06:08.599	$GPGGA,070609,2543.8839,N,08009.7264,W,1,8,1.6,16,M,,M,,*5C
05/28/2014	07:06:09.572	$GPGGA,070610,2543.8839,N,08009.7265,W,1,8,1.6,16,M,,M,,*55
05/28/2014	07:06:10.675	$GPGGA,070611,2543.8837,N,08009.7265,W,1,8,1.6,16,M,,M,,*5A
05/28/2014	07:06:11.596	$GPGGA,070612,2543.8838,N,08009.7265,W,1,8,1.6,16,M,,M,,*56
05/28/2014	07:06:12.609	$GPGGA,070613,2543.8837,N,08009.7265,W,1,8,1.6,16,M,,M,,*58
05/28/2014	07:06:13.682	$GPGGA,070614,2543.8838,N,08009.7265,W,1,8,1.6,16,M,,M,,*50
05/28/2014	07:06:14.685	$GPGGA,070615,2543.8837,N,08009.7266,W,1,8,1.6,16,M,,M,,*5D
05/28/2014	07:06:15.598	$GPGGA,070616,2543.8838,N,08009.7266,W,1,8,1.6,16,M,,M,,*51
05/28/2014	07:06:16.600	$GPGGA,070617,2543.8837,N,08009.7266,W,1,8,1.6,16,M,,M,,*5F
05/28/2014	07:06:17.693	$GPGGA,070618,2543.8838,N,08009.7266,W,1,8,1.6,16,M,,M,,*5F
05/28/2014	07:06:18.696	$GPGGA,070619,2543.8837,N,08009.7266,W,1,8,1.6,16,M,,M,,*51
05/28/2014	07:06:19.709	$GPGGA,070620,2543.8838,N,08009.7266,W,1,8,1.6,16,M,,M,,*54
05/28/2014	07:06:20.692	$GPGGA,070621,2543.8837,N,08009.7266,W,1,8,1.6,16,M,,M,,*5A
05/28/2014	07:06:21.695	$GPGGA,070622,2543.8838,N,08009.7266,W,1,8,1.6,16,M,,M,,*56
05/28/2014	07:06:22.687	$GPGGA,070623,2543.8837,N,08009.7266,W,1,8,1.6,16,M,,M,,*58
05/28/2014	07:06:23.710	$GPGGA,070624,2543.8838,N,08009.7266,W,1,8,1.6,15,M,,M,,*53
05/28/2014	07:06:24.713	$GPGGA,070625,2543.8836,N,08009.7266,W,1,8,1.6,15,M,,M,,*5C
05/28/2014	07:06:25.696	$GPGGA,070626,2543.8837,N,08009.7266,W,1,8,1.6,15,M,,M,,*5E
05/28/2014	07:06:26.709	$GPGGA,070627,2543.8835,N,08009.7266,W,1,8,1.6,15,M,,M,,*5D
05/28/2014	07:06:27.711	$GPGGA,070628,2543.8835,N,08009.7267,W,1,8,1.6,15,M,,M,,*53
05/28/2014	07:06:28.713	$GPGGA,070629,2543.8835,N,08009.7267,W,1,8,1.6,15,M,,M,,*52
05/28/2014	07:06:29.686	$GPGGA,070630,2543.8835,N,08009.7267,W,1,8,1.6,15,M,,M,,*5A
05/28/2014	07:06:30.719	$GPGGA,070631,2543.8835,N,08009.7267,W,1,8,1.6,15,M,,M,,*5B
05/28/2014	07:06:31.711	$GPGGA,070632,2543.8835,N,08009.7267,W,1,8,1.6,15,M,,M,,*58
05/28/2014	07:06:32.694	$GPGGA,070633,2543.8833,N,08009.7267,W,1,8,1.6,15,M,,M,,*5F
05/28/2014	07:06:33.707	$GPGGA,070634,2543.8834,N,08009.7269,W,1,8,1.6,15,M,,M,,*51
05/28/2014	07:06:34.720	$GPGGA,070635,2543.8832,N,08009.7268,W,1,8,1.6,15,M,,M,,*57
05/28/2014	07:06:35.723	$GPGGA,070636,2543.8831,N,08009.7269,W,1,8,1.6,15,M,,M,,*56
05/28/2014	07:06:36.715	$GPGGA,070637,2543.8831,N,08009.7268,W,1,8,1.6,15,M,,M,,*56
05/28/2014	07:06:37.708	$GPGGA,070638,2543.8830,N,08009.7269,W,1,8,1.6,15,M,,M,,*59
05/28/2014	07:06:38.535	$GPGGA,070639,2543.8831,N,08009.7268,W,1,8,1.6,15,M,,M,,*58
05/28/2014	07:06:39.548	$GPGGA,070640,2543.8829,N,08009.7269,W,1,8,1.6,15,M,,M,,*5E
05/28/2014	07:06:40.531	$GPGGA,070641,2543.8830,N,08009.7269,W,1,8,1.6,14,M,,M,,*56
05/28/2014	07:06:41.553	$GPGGA,070642,2543.8828,N,08009.7269,W,1,8,1.6,14,M,,M,,*5C
05/28/2014	07:06:42.526	$GPGGA,070643,2543.8828,N,08009.7269,W,1,8,1.6,14,M,,M,,*5D
05/28/2014	07:06:43.549	$GPGGA,070644,2543.8828,N,08009.7269,W,1,8,1.6,14,M,,M,,*5A
05/28/2014	07:06:44.542	$GPGGA,070645,2543.8828,N,08009.7269,W,1,8,1.6,14,M,,M,,*5B
05/28/2014	07:06:45.546	$GPGGA,070646,2543.8826,N,08009.7269,W,1,8,1.6,14,M,,M,,*56
05/28/2014	07:06:46.576	$GPGGA,070647,2543.8827,N,08009.7268,W,1,8,1.6,14,M,,M,,*57
05/28/2014	07:06:47.690	$GPGGA,070648,2543.8826,N,08009.7269,W,1,8,1.6,14,M,,M,,*58
05/28/2014	07:06:48.583	$GPGGA,070649,2543.8825,N,08009.7268,W,1,8,1.6,14,M,,M,,*5B
05/28/2014	07:06:49.555	$GPGGA,070650,2543.8826,N,08009.7269,W,1,8,1.6,14,M,,M,,*51
05/28/2014	07:06:50.588	$GPGGA,070651,2543.8825,N,08009.7268,W,1,8,1.6,14,M,,M,,*52
05/28/2014	07:06:51.691	$GPGGA,070652,2543.8826,N,08009.7267,W,1,8,1.6,14,M,,M,,*5D
05/28/2014	07:06:52.593	$GPGGA,070653,2543.8824,N,08009.7267,W,1,8,1.6,14,M,,M,,*5E
05/28/2014	07:06:53.556	$GPGGA,070654,2543.8824,N,08009.7267,W,1,8,1.6,14,M,,M,,*59
05/28/2014	07:06:54.539	$GPGGA,070655,2543.8824,N,08009.7267,W,1,8,1.6,14,M,,M,,*58
05/28/2014	07:06:55.562	$GPGGA,070656,2543.8824,N,08009.7267,W,1,8,1.6,13,M,,M,,*5C
05/28/2014	07:06:56.544	$GPGGA,070657,2543.8824,N,08009.7266,W,1,8,1.6,13,M,,M,,*5C
05/28/2014	07:06:57.689	$GPGGA,070658,2543.8824,N,08009.7266,W,1,8,1.6,13,M,,M,,*53
05/28/2014	07:06:58.740	$GPGGA,070659,2543.8824,N,08009.7266,W,1,8,1.6,13,M,,M,,*52
05/28/2014	07:06:59.587	$GPGGA,070700,2543.8822,N,08009.7266,W,1,8,1.6,13,M,,M,,*59
05/28/2014	07:07:00.566	$GPGGA,070701,2543.8821,N,08009.7269,W,1,8,1.6,13,M,,M,,*54
05/28/2014	07:07:01.558	$GPGGA,070702,2543.8821,N,08009.7268,W,1,8,1.6,13,M,,M,,*56
05/28/2014	07:07:02.551	$GPGGA,070703,2543.8821,N,08009.7269,W,1,8,1.6,13,M,,M,,*56
05/28/2014	07:07:03.554	$GPGGA,070704,2543.8821,N,08009.7268,W,1,8,1.6,13,M,,M,,*50
05/28/2014	07:07:04.746	$GPGGA,070705,2543.8821,N,08009.7269,W,1,8,1.6,13,M,,M,,*50
05/28/2014	07:07:05.689	$GPGGA,070706,2543.8821,N,08009.7268,W,1,8,1.6,12,M,,M,,*53
05/28/2014	07:07:06.561	$GPGGA,070707,2543.8821,N,08009.7269,W,1,8,1.6,12,M,,M,,*53
05/28/2014	07:07:07.714	$GPGGA,070708,2543.8821,N,08009.7268,W,1,8,1.6,12,M,,M,,*5D
05/28/2014	07:07:08.757	$GPGGA,070709,2543.8821,N,08009.7269,W,1,8,1.6,12,M,,M,,*5D
05/28/2014	07:07:09.680	$GPGGA,070710,2543.8821,N,08009.7268,W,1,8,1.6,12,M,,M,,*54
05/28/2014	07:07:10.713	$GPGGA,070711,2543.8821,N,08009.7269,W,1,8,1.6,12,M,,M,,*54
05/28/2014	07:07:11.696	$GPGGA,070712,2543.8821,N,08009.7268,W,1,8,1.6,12,M,,M,,*56
05/28/2014	07:07:12.769	$GPGGA,070713,2543.8821,N,08009.7269,W,1,8,1.6,12,M,,M,,*56
05/28/2014	07:07:13.692	$GPGGA,070714,2543.8821,N,08009.7268,W,1,8,1.6,12,M,,M,,*50
05/28/2014	07:07:14.734	$GPGGA,070715,2543.8821,N,08009.7269,W,1,8,1.6,12,M,,M,,*50
05/28/2014	07:07:15.718	$GPGGA,070716,2543.8821,N,08009.7268,W,1,8,1.6,12,M,,M,,*52
05/28/2014	07:07:16.730	$GPGGA,070717,2543.8821,N,08009.7269,W,1,8,1.6,12,M,,M,,*52
05/28/2014	07:07:17.722	$GPGGA,070718,2543.8821,N,08009.7268,W,1,8,1.6,11,M,,M,,*5F
05/28/2014	07:07:18.765	$GPGGA,070719,2543.8821,N,08009.7269,W,1,8,1.6,11,M,,M,,*5F
05/28/2014	07:07:19.728	$GPGGA,070720,2543.8821,N,08009.7268,W,1,8,1.6,11,M,,M,,*54
05/28/2014	07:07:20.771	$GPGGA,070721,2543.8821,N,08009.7269,W,1,8,1.6,11,M,,M,,*54
05/28/2014	07:07:21.682	$GPGGA,070722,2543.8821,N,08009.7268,W,1,8,1.6,11,M,,M,,*56
05/28/2014	07:07:22.735	$GPGGA,070723,2543.8821,N,08009.7269,W,1,8,1.6,11,M,,M,,*56
05/28/2014	07:07:23.728	$GPGGA,070724,2543.8821,N,08009.7268,W,1,8,1.6,11,M,,M,,*50
05/28/2014	07:07:24.741	$GPGGA,070725,2543.8821,N,08009.7269,W,1,8,1.6,11,M,,M,,*50
05/28/2014	07:07:25.694	$GPGGA,070726,2543.8821,N,08009.7269,W,1,8,1.6,11,M,,M,,*53
05/28/2014	07:07:26.737	$GPGGA,070727,2543.8821,N,08009.7269,W,1,8,1.6,11,M,,M,,*52
05/28/2014	07:07:27.719	$GPGGA,070728,2543.8823,N,08009.7269,W,1,8,1.6,11,M,,M,,*5F
05/28/2014	07:07:28.662	$GPGGA,070729,2543.8822,N,08009.7269,W,1,8,1.6,11,M,,M,,*5F
05/28/2014	07:07:29.665	$GPGGA,070730,2543.8823,N,08009.7270,W,1,8,1.6,11,M,,M,,*5E
05/28/2014	07:07:30.798	$GPGGA,070731,2543.8822,N,08009.7270,W,1,8,1.6,11,M,,M,,*5E
05/28/2014	07:07:31.710	$GPGGA,070732,2543.8823,N,08009.7270,W,1,8,1.6,11,M,,M,,*5C
05/28/2014	07:07:32.814	$GPGGA,070733,2543.8822,N,08009.7270,W,1,8,1.6,11,M,,M,,*5C
05/28/2014	07:07:33.676	$GPGGA,070734,2543.8823,N,08009.7270,W,1,8,1.6,11,M,,M,,*5A
05/28/2014	07:07:34.759	$GPGGA,070735,2543.8822,N,08009.7270,W,1,8,1.6,11,M,,M,,*5A
05/28/2014	07:07:35.722	$GPGGA,070736,2543.8823,N,08009.7270,W,1,8,1.6,11,M,,M,,*58
05/28/2014	07:07:36.674	$GPGGA,070737,2543.8822,N,08009.7270,W,1,8,1.6,11,M,,M,,*58
05/28/2014	07:07:37.678	$GPGGA,070738,2543.8824,N,08009.7270,W,1,8,1.6,11,M,,M,,*51
05/28/2014	07:07:38.603	$GPGGA,070739,2543.8824,N,08009.7270,W,1,8,1.6,11,M,,M,,*50
05/28/2014	07:07:39.516	$GPGGA,070740,2543.8824,N,08009.7270,W,1,8,1.6,11,M,,M,,*5E
05/28/2014	07:07:40.619	$GPGGA,070741,2543.8824,N,08009.7270,W,1,8,1.6,11,M,,M,,*5F
05/28/2014	07:07:41.532	$GPGGA,070742,2543.8824,N,08009.7270,W,1,8,1.6,11,M,,M,,*5C
05/28/2014	07:07:42.665	$GPGGA,070743,2543.8826,N,08009.7270,W,1,8,1.6,11,M,,M,,*5F
05/28/2014	07:07:43.647	$GPGGA,070744,2543.8825,N,08009.7270,W,1,8,1.6,11,M,,M,,*5B
05/28/2014	07:07:44.640	$GPGGA,070745,2543.8827,N,08009.7270,W,1,8,1.6,11,M,,M,,*58
05/28/2014	07:07:45.553	$GPGGA,070746,2543.8826,N,08009.7270,W,1,8,1.6,11,M,,M,,*5A
05/28/2014	07:07:46.626	$GPGGA,070747,2543.8828,N,08009.7270,W,1,8,1.6,11,M,,M,,*55
05/28/2014	07:07:47.578	$GPGGA,070748,2543.8828,N,08009.7270,W,1,8,1.6,11,M,,M,,*5A
05/28/2014	07:07:48.611	$GPGGA,070749,2543.8828,N,08009.7270,W,1,8,1.6,11,M,,M,,*5B
05/28/2014	07:07:49.514	$GPGGA,070750,2543.8828,N,08009.7270,W,1,8,1.6,11,M,,M,,*53
05/28/2014	07:07:50.627	$GPGGA,070751,2543.8828,N,08009.7269,W,1,8,1.6,11,M,,M,,*5A
05/28/2014	07:07:51.650	$GPGGA,070752,2543.8828,N,08009.7269,W,1,8,1.6,11,M,,M,,*59
05/28/2014	07:07:52.633	$GPGGA,070753,2543.8828,N,08009.7269,W,1,8,1.6,11,M,,M,,*58
05/28/2014	07:07:53.625	$GPGGA,070754,2543.8828,N,08009.7269,W,1,8,1.6,11,M,,M,,*5F
05/28/2014	07:07:54.608	$GPGGA,070755,2543.8828,N,08009.7269,W,1,8,1.6,11,M,,M,,*5E
05/28/2014	07:07:55.572	$GPGGA,070756,2543.8828,N,08009.7269,W,1,8,1.6,11,M,,M,,*5D
05/28/2014	07:07:56.673	$GPGGA,070757,2543.8828,N,08009.7269,W,1,8,1.6,11,M,,M,,*5C
05/28/2014	07:07:57.625	$GPGGA,070758,2543.8828,N,08009.7269,W,1,8,1.6,11,M,,M,,*53
05/28/2014	07:07:58.628	$GPGGA,070759,2543.8828,N,08009.7269,W,1,8,1.6,11,M,,M,,*52
05/28/2014	07:07:59.651	$GPGGA,070800,2543.8830,N,08009.7269,W,1,8,1.6,11,M,,M,,*58
05/28/2014	07:08:00.684	$GPGGA,070801,2543.8829,N,08009.7269,W,1,8,1.6,11,M,,M,,*51
05/28/2014	07:08:01.626	$GPGGA,070802,2543.8830,N,08009.7269,W,1,8,1.6,11,M,,M,,*5A
05/28/2014	07:08:02.659	$GPGGA,070803,2543.8829,N,08009.7269,W,1,8,1.6,11,M,,M,,*53
05/28/2014	07:08:03.652	$GPGGA,070804,2543.8830,N,08009.7269,W,1,8,1.6,11,M,,M,,*5C
05/28/2014	07:08:04.665	$GPGGA,070805,2543.8831,N,08009.7270,W,1,8,1.6,11,M,,M,,*54
05/28/2014	07:08:05.638	$GPGGA,070806,2543.8830,N,08009.7270,W,1,8,1.6,11,M,,M,,*56
05/28/2014	07:08:06.661	$GPGGA,070807,2543.8831,N,08009.7270,W,1,8,1.6,11,M,,M,,*56
05/28/2014	07:08:07.683	$GPGGA,070808,2543.8830,N,08009.7269,W,1,8,1.6,11,M,,M,,*50
05/28/2014	07:08:08.676	$GPGGA,070809,2543.8831,N,08009.7269,W,1,8,1.6,11,M,,M,,*50
05/28/2014	07:08:09.639	$GPGGA,070810,2543.8830,N,08009.7269,W,1,8,1.6,11,M,,M,,*59
05/28/2014	07:08:10.652	$GPGGA,070811,2543.8831,N,08009.7269,W,1,8,1.6,11,M,,M,,*59
05/28/2014	07:08:11.654	$GPGGA,070812,2543.8830,N,08009.7269,W,1,8,1.6,11,M,,M,,*5B
05/28/2014	07:08:12.738	$GPGGA,070813,2543.8831,N,08009.7270,W,1,8,1.6,11,M,,M,,*53
05/28/2014	07:08:13.639	$GPGGA,070814,2543.8831,N,08009.7270,W,1,8,1.6,11,M,,M,,*54
05/28/2014	07:08:14.732	$GPGGA,070815,2543.8831,N,08009.7270,W,1,8,1.6,11,M,,M,,*55
05/28/2014	07:08:15.655	$GPGGA,070816,2543.8831,N,08009.7270,W,1,8,1.6,11,M,,M,,*56
05/28/2014	07:08:16.678	$GPGGA,070817,2543.8831,N,08009.7270,W,1,8,1.6,11,M,,M,,*57
05/28/2014	07:08:17.640	$GPGGA,070818,2543.8831,N,08009.7270,W,1,8,1.6,11,M,,M,,*58
05/28/2014	07:08:18.683	$GPGGA,070819,2543.8831,N,08009.7270,W,1,8,1.6,11,M,,M,,*59
05/28/2014	07:08:19.666	$GPGGA,070820,2543.8832,N,08009.7270,W,1,8,1.6,12,M,,M,,*53
05/28/2014	07:08:20.699	$GPGGA,070821,2543.8833,N,08009.7269,W,1,8,1.6,12,M,,M,,*5B
05/28/2014	07:08:21.642	$GPGGA,070822,2543.8832,N,08009.7269,W,1,8,1.6,12,M,,M,,*59
05/28/2014	07:08:22.725	$GPGGA,070823,2543.8834,N,08009.7270,W,1,8,1.6,12,M,,M,,*56
05/28/2014	07:08:23.667	$GPGGA,070824,2543.8833,N,08009.7270,W,1,8,1.6,12,M,,M,,*56
05/28/2014	07:08:24.700	$GPGGA,070825,2543.8834,N,08009.7270,W,1,8,1.6,12,M,,M,,*50
05/28/2014	07:08:25.653	$GPGGA,070826,2543.8833,N,08009.7270,W,1,8,1.6,12,M,,M,,*54
05/28/2014	07:08:26.685	$GPGGA,070827,2543.8833,N,08009.7270,W,1,8,1.6,12,M,,M,,*55
05/28/2014	07:08:27.669	$GPGGA,070828,2543.8835,N,08009.7270,W,1,8,1.6,12,M,,M,,*5C
05/28/2014	07:08:28.721	$GPGGA,070829,2543.8835,N,08009.7270,W,1,8,1.6,12,M,,M,,*5D
05/28/2014	07:08:29.644	$GPGGA,070830,2543.8835,N,08009.7270,W,1,8,1.6,12,M,,M,,*55
05/28/2014	07:08:30.667	$GPGGA,070831,2543.8835,N,08009.7270,W,1,8,1.6,12,M,,M,,*54
05/28/2014	07:08:31.688	$GPGGA,070832,2543.8835,N,08009.7269,W,1,8,1.6,12,M,,M,,*5F
05/28/2014	07:08:32.741	$GPGGA,070833,2543.8835,N,08009.7269,W,1,8,1.6,12,M,,M,,*5E
05/28/2014	07:08:33.654	$GPGGA,070834,2543.8835,N,08009.7269,W,1,8,1.6,12,M,,M,,*59
05/28/2014	07:08:34.667	$GPGGA,070835,2543.8835,N,08009.7269,W,1,8,1.6,12,M,,M,,*58
05/28/2014	07:08:35.691	$GPGGA,070836,2543.8835,N,08009.7269,W,1,8,1.6,12,M,,M,,*5B
05/28/2014	07:08:36.793	$GPGGA,070837,2543.8835,N,08009.7268,W,1,8,1.6,12,M,,M,,*5B
05/28/2014	07:08:37.775	$GPGGA,070838,2543.8833,N,08009.7269,W,1,8,1.6,12,M,,M,,*53
05/28/2014	07:08:38.631	$GPGGA,070839,2543.8834,N,08009.7268,W,1,8,1.6,12,M,,M,,*54
05/28/2014	07:08:39.514	$GPGGA,070840,2543.8833,N,08009.7269,W,1,8,1.6,12,M,,M,,*5C
05/28/2014	07:08:40.617	$GPGGA,070841,2543.8834,N,08009.7268,W,1,8,1.6,12,M,,M,,*5B
05/28/2014	07:08:41.610	$GPGGA,070842,2543.8833,N,08009.7269,W,1,8,1.6,12,M,,M,,*5E
05/28/2014	07:08:42.582	$GPGGA,070843,2543.8833,N,08009.7269,W,1,8,1.6,12,M,,M,,*5F
05/28/2014	07:08:43.505	$GPGGA,070844,2543.8832,N,08009.7269,W,1,8,1.6,12,M,,M,,*59
05/28/2014	07:08:44.599	$GPGGA,070845,2543.8834,N,08009.7268,W,1,8,1.6,12,M,,M,,*5F
05/28/2014	07:08:45.500	$GPGGA,070846,2543.8833,N,08009.7269,W,1,8,1.6,12,M,,M,,*5A
05/28/2014	07:08:46.583	$GPGGA,070847,2543.8834,N,08009.7269,W,1,8,1.6,12,M,,M,,*5C
05/28/2014	07:08:47.616	$GPGGA,070848,2543.8833,N,08009.7269,W,1,8,1.6,12,M,,M,,*54
05/28/2014	07:08:48.598	$GPGGA,070849,2543.8834,N,08009.7269,W,1,8,1.6,12,M,,M,,*52
05/28/2014	07:08:49.591	$GPGGA,070850,2543.8833,N,08009.7269,W,1,8,1.6,12,M,,M,,*5D
05/28/2014	07:08:50.624	$GPGGA,070851,2543.8834,N,08009.7269,W,1,8,1.6,12,M,,M,,*5B
05/28/2014	07:08:51.618	$GPGGA,070852,2543.8833,N,08009.7269,W,1,8,1.6,12,M,,M,,*5F
05/28/2014	07:08:52.609	$GPGGA,070853,2543.8834,N,08009.7269,W,1,8,1.6,12,M,,M,,*59
05/28/2014	07:08:53.602	$GPGGA,070854,2543.8833,N,08009.7269,W,1,8,1.6,12,M,,M,,*59
05/28/2014	07:08:54.615	$GPGGA,070855,2543.8834,N,08009.7269,W,1,8,1.6,12,M,,M,,*5F
05/28/2014	07:08:55.618	$GPGGA,070856,2543.8833,N,08009.7269,W,1,8,1.6,12,M,,M,,*5B
05/28/2014	07:08:56.621	$GPGGA,070857,2543.8835,N,08009.7269,W,1,8,1.6,12,M,,M,,*5C
05/28/2014	07:08:57.613	$GPGGA,070858,2543.8835,N,08009.7269,W,1,8,1.6,12,M,,M,,*53
05/28/2014	07:08:58.616	$GPGGA,070859,2543.8835,N,08009.7269,W,1,8,1.6,12,M,,M,,*52
05/28/2014	07:08:59.639	$GPGGA,070900,2543.8835,N,08009.7269,W,1,8,1.6,12,M,,M,,*5F
05/28/2014	07:09:00.632	$GPGGA,070901,2543.8835,N,08009.7269,W,1,8,1.6,12,M,,M,,*5E
05/28/2014	07:09:01.614	$GPGGA,070902,2543.8835,N,08009.7269,W,1,8,1.6,12,M,,M,,*5D
05/28/2014	07:09:02.647	$GPGGA,070903,2543.8835,N,08009.7269,W,1,8,1.6,12,M,,M,,*5C
05/28/2014	07:09:03.610	$GPGGA,070904,2543.8833,N,08009.7269,W,1,8,1.6,12,M,,M,,*5D
05/28/2014	07:09:04.623	$GPGGA,070905,2543.8834,N,08009.7269,W,1,8,1.6,12,M,,M,,*5B
05/28/2014	07:09:05.616	$GPGGA,070906,2543.8833,N,08009.7269,W,1,8,1.6,12,M,,M,,*5F
05/28/2014	07:09:06.648	$GPGGA,070907,2543.8834,N,08009.7269,W,1,8,1.6,12,M,,M,,*59
05/28/2014	07:09:07.620	$GPGGA,070908,2543.8833,N,08009.7269,W,1,8,1.6,12,M,,M,,*51
05/28/2014	07:09:08.633	$GPGGA,070909,2543.8834,N,08009.7269,W,1,8,1.6,12,M,,M,,*57
05/28/2014	07:09:09.616	$GPGGA,070910,2543.8833,N,08009.7269,W,1,8,1.6,12,M,,M,,*58
05/28/2014	07:09:10.649	$GPGGA,070911,2543.8835,N,08009.7269,W,1,8,1.7,12,M,,M,,*5E
05/28/2014	07:09:11.631	$GPGGA,070912,2543.8833,N,08009.7270,W,1,8,1.7,12,M,,M,,*53
05/28/2014	07:09:12.615	$GPGGA,070913,2543.8834,N,08009.7270,W,1,8,1.7,12,M,,M,,*55
05/28/2014	07:09:13.627	$GPGGA,070914,2543.8833,N,08009.7270,W,1,8,1.7,12,M,,M,,*55
05/28/2014	07:09:14.632	$GPGGA,070915,2543.8835,N,08009.7270,W,1,8,1.7,12,M,,M,,*52
05/28/2014	07:09:15.633	$GPGGA,070916,2543.8835,N,08009.7270,W,1,8,1.7,13,M,,M,,*50
05/28/2014	07:09:16.746	$GPGGA,070917,2543.8835,N,08009.7270,W,1,8,1.7,13,M,,M,,*51
05/28/2014	07:09:17.638	$GPGGA,070918,2543.8835,N,08009.7270,W,1,8,1.7,13,M,,M,,*5E
05/28/2014	07:09:18.651	$GPGGA,070919,2543.8835,N,08009.7270,W,1,8,1.7,13,M,,M,,*5F
05/28/2014	07:09:19.624	$GPGGA,070920,2543.8835,N,08009.7270,W,1,8,1.7,13,M,,M,,*55
05/28/2014	07:09:20.617	$GPGGA,070921,2543.8835,N,08009.7270,W,1,8,1.7,13,M,,M,,*54
05/28/2014	07:09:21.629	$GPGGA,070922,2543.8835,N,08009.7270,W,1,8,1.7,13,M,,M,,*57
05/28/2014	07:09:22.752	$GPGGA,070923,2543.8835,N,08009.7270,W,1,8,1.7,13,M,,M,,*56
05/28/2014	07:09:23.644	$GPGGA,070924,2543.8835,N,08009.7270,W,1,8,1.7,13,M,,M,,*51
05/28/2014	07:09:24.737	$GPGGA,070925,2543.8835,N,08009.7270,W,1,8,1.7,13,M,,M,,*50
05/28/2014	07:09:25.640	$GPGGA,070926,2543.8835,N,08009.7270,W,1,8,1.7,13,M,,M,,*53
05/28/2014	07:09:26.757	$GPGGA,070927,2543.8835,N,08009.7270,W,1,8,1.7,13,M,,M,,*52
05/28/2014	07:09:27.755	$GPGGA,070928,2543.8833,N,08009.7270,W,1,8,1.7,13,M,,M,,*5B
05/28/2014	07:09:28.748	$GPGGA,070929,2543.8834,N,08009.7270,W,1,8,1.7,13,M,,M,,*5D
05/28/2014	07:09:29.731	$GPGGA,070930,2543.8835,N,08009.7270,W,1,8,1.7,13,M,,M,,*54
05/28/2014	07:09:30.623	$GPGGA,070931,2543.8835,N,08009.7270,W,1,8,1.7,13,M,,M,,*55
05/28/2014	07:09:31.757	$GPGGA,070932,2543.8835,N,08009.7270,W,1,8,1.7,13,M,,M,,*56
05/28/2014	07:09:32.659	$GPGGA,070933,2543.8835,N,08009.7270,W,1,8,1.7,13,M,,M,,*57
05/28/2014	07:09:33.732	$GPGGA,070934,2543.8835,N,08009.7270,W,1,8,1.7,13,M,,M,,*50
05/28/2014	07:09:34.725	$GPGGA,070935,2543.8835,N,08009.7270,W,1,8,1.7,13,M,,M,,*51
05/28/2014	07:09:35.740	$GPGGA,070936,2543.8837,N,08009.7270,W,1,8,1.7,13,M,,M,,*50
05/28/2014	07:09:36.731	$GPGGA,070937,2543.8838,N,08009.7270,W,1,8,1.7,13,M,,M,,*5E
05/28/2014	07:09:37.733	$GPGGA,070938,2543.8837,N,08009.7270,W,1,8,1.7,13,M,,M,,*5E
05/28/2014	07:09:38.560	$GPGGA,070939,2543.8838,N,08009.7270,W,1,8,1.7,13,M,,M,,*50
05/28/2014	07:09:39.583	$GPGGA,070940,2543.8839,N,08009.7270,W,1,8,1.7,13,M,,M,,*5F
05/28/2014	07:09:40.586	$GPGGA,070941,2543.8839,N,08009.7270,W,1,8,1.7,13,M,,M,,*5E
05/28/2014	07:09:41.567	$GPGGA,070942,2543.8839,N,08009.7270,W,1,8,1.7,13,M,,M,,*5D
05/28/2014	07:09:42.590	$GPGGA,070943,2543.8839,N,08009.7270,W,1,8,1.7,13,M,,M,,*5C
05/28/2014	07:09:43.583	$GPGGA,070944,2543.8839,N,08009.7270,W,1,8,1.7,13,M,,M,,*5B
05/28/2014	07:09:44.576	$GPGGA,070945,2543.8839,N,08009.7270,W,1,8,1.7,13,M,,M,,*5A
05/28/2014	07:09:45.579	$GPGGA,070946,2543.8839,N,08009.7270,W,1,8,1.7,13,M,,M,,*59
05/28/2014	07:09:46.592	$GPGGA,070947,2543.8839,N,08009.7270,W,1,8,1.7,14,M,,M,,*5F
05/28/2014	07:09:47.584	$GPGGA,070948,2543.8839,N,08009.7270,W,1,8,1.7,14,M,,M,,*50
05/28/2014	07:09:48.587	$GPGGA,070949,2543.8837,N,08009.7270,W,1,8,1.7,14,M,,M,,*5F
05/28/2014	07:09:49.570	$GPGGA,070950,2543.8838,N,08009.7272,W,1,8,1.7,14,M,,M,,*5A
05/28/2014	07:09:50.593	$GPGGA,070951,2543.8836,N,08009.7271,W,1,8,1.7,14,M,,M,,*56
05/28/2014	07:09:51.595	$GPGGA,070952,2543.8837,N,08009.7270,W,1,8,1.7,14,M,,M,,*55
05/28/2014	07:09:52.570	$GPGGA,070953,2543.8835,N,08009.7270,W,1,8,1.7,14,M,,M,,*56
05/28/2014	07:09:53.581	$GPGGA,070954,2543.8835,N,08009.7270,W,1,8,1.7,14,M,,M,,*51
05/28/2014	07:09:54.594	$GPGGA,070955,2543.8835,N,08009.7270,W,1,8,1.7,14,M,,M,,*50
05/28/2014	07:09:55.608	$GPGGA,070956,2543.8835,N,08009.7270,W,1,8,1.7,14,M,,M,,*53
05/28/2014	07:09:56.609	$GPGGA,070957,2543.8835,N,08009.7270,W,1,8,1.7,13,M,,M,,*55
05/28/2014	07:09:57.582	$GPGGA,070958,2543.8835,N,08009.7270,W,1,8,1.7,13,M,,M,,*5A
05/28/2014	07:09:58.584	$GPGGA,070959,2543.8835,N,08009.7270,W,1,8,1.7,13,M,,M,,*5B
05/28/2014	07:09:59.607	$GPGGA,071000,2543.8835,N,08009.7270,W,1,8,1.7,13,M,,M,,*5F
05/28/2014	07:10:00.580	$GPGGA,071001,2543.8833,N,08009.7270,W,1,8,1.7,13,M,,M,,*58
05/28/2014	07:10:01.593	$GPGGA,071002,2543.8834,N,08009.7269,W,1,8,1.7,13,M,,M,,*54
05/28/2014	07:10:02.605	$GPGGA,071003,2543.8833,N,08009.7269,W,1,8,1.7,13,M,,M,,*52
05/28/2014	07:10:03.608	$GPGGA,071004,2543.8832,N,08009.7269,W,1,8,1.7,13,M,,M,,*54
05/28/2014	07:10:04.581	$GPGGA,071005,2543.8833,N,08009.7269,W,1,8,1.7,13,M,,M,,*54
05/28/2014	07:10:05.584	$GPGGA,071006,2543.8832,N,08009.7269,W,1,8,1.7,13,M,,M,,*56
05/28/2014	07:10:06.707	$GPGGA,071007,2543.8833,N,08009.7269,W,1,8,1.7,13,M,,M,,*56
05/28/2014	07:10:07.619	$GPGGA,071008,2543.8832,N,08009.7269,W,1,8,1.7,13,M,,M,,*58
05/28/2014	07:10:08.612	$GPGGA,071009,2543.8831,N,08009.7269,W,1,8,1.7,13,M,,M,,*5A
05/28/2014	07:10:09.685	$GPGGA,071010,2543.8831,N,08009.7268,W,1,8,1.7,13,M,,M,,*53
05/28/2014	07:10:10.628	$GPGGA,071011,2543.8830,N,08009.7269,W,1,8,1.7,13,M,,M,,*52
05/28/2014	07:10:11.720	$GPGGA,071012,2543.8831,N,08009.7268,W,1,8,1.7,13,M,,M,,*51
05/28/2014	07:10:12.703	$GPGGA,071013,2543.8830,N,08009.7269,W,1,8,1.7,13,M,,M,,*50
05/28/2014	07:10:13.686	$GPGGA,071014,2543.8829,N,08009.7268,W,1,8,1.7,13,M,,M,,*5E
05/28/2014	07:10:14.589	$GPGGA,071015,2543.8830,N,08009.7269,W,1,8,1.7,13,M,,M,,*56
05/28/2014	07:10:15.601	$GPGGA,071016,2543.8829,N,08009.7269,W,1,8,1.7,13,M,,M,,*5D
05/28/2014	07:10:16.683	$GPGGA,071017,2543.8830,N,08009.7269,W,1,8,1.7,13,M,,M,,*54
05/28/2014	07:10:17.605	$GPGGA,071018,2543.8829,N,08009.7269,W,1,8,1.7,12,M,,M,,*52
05/28/2014	07:10:18.588	$GPGGA,071019,2543.8830,N,08009.7269,W,1,8,1.7,12,M,,M,,*5B
05/28/2014	07:10:19.722	$GPGGA,071020,2543.8829,N,08009.7269,W,1,8,1.7,12,M,,M,,*59
05/28/2014	07:10:20.704	$GPGGA,071021,2543.8831,N,08009.7269,W,1,8,1.7,12,M,,M,,*51
05/28/2014	07:10:21.696	$GPGGA,071022,2543.8830,N,08009.7269,W,1,8,1.7,12,M,,M,,*53
05/28/2014	07:10:22.719	$GPGGA,071023,2543.8831,N,08009.7269,W,1,8,1.7,12,M,,M,,*53
05/28/2014	07:10:23.722	$GPGGA,071024,2543.8830,N,08009.7269,W,1,8,1.7,12,M,,M,,*55
05/28/2014	07:10:24.694	$GPGGA,071025,2543.8831,N,08009.7269,W,1,8,1.7,12,M,,M,,*55
05/28/2014	07:10:25.707	$GPGGA,071026,2543.8830,N,08009.7269,W,1,8,1.7,12,M,,M,,*57
05/28/2014	07:10:26.710	$GPGGA,071027,2543.8831,N,08009.7269,W,1,8,1.7,12,M,,M,,*57
05/28/2014	07:10:27.743	$GPGGA,071028,2543.8829,N,08009.7269,W,1,8,1.7,12,M,,M,,*51
05/28/2014	07:10:28.725	$GPGGA,071029,2543.8830,N,08009.7269,W,1,8,1.7,12,M,,M,,*58
05/28/2014	07:10:29.698	$GPGGA,071030,2543.8828,N,08009.7269,W,1,8,1.7,12,M,,M,,*59
05/28/2014	07:10:30.721	$GPGGA,071031,2543.8828,N,08009.7269,W,1,8,1.7,12,M,,M,,*58
05/28/2014	07:10:31.723	$GPGGA,071032,2543.8828,N,08009.7269,W,1,8,1.7,12,M,,M,,*5B
05/28/2014	07:10:32.706	$GPGGA,071033,2543.8826,N,08009.7269,W,1,8,1.7,12,M,,M,,*54
05/28/2014	07:10:33.698	$GPGGA,071034,2543.8827,N,08009.7269,W,1,8,1.7,12,M,,M,,*52
05/28/2014	07:10:34.710	$GPGGA,071035,2543.8825,N,08009.7269,W,1,8,1.7,12,M,,M,,*51
05/28/2014	07:10:35.723	$GPGGA,071036,2543.8826,N,08009.7269,W,1,8,1.7,11,M,,M,,*52
05/28/2014	07:10:36.727	$GPGGA,071037,2543.8825,N,08009.7269,W,1,8,1.7,11,M,,M,,*50
05/28/2014	07:10:37.708	$GPGGA,071038,2543.8826,N,08009.7269,W,1,8,1.7,11,M,,M,,*5C
05/28/2014	07:10:38.537	$GPGGA,071039,2543.8825,N,08009.7269,W,1,8,1.7,11,M,,M,,*5E
05/28/2014	07:10:39.560	$GPGGA,071040,2543.8824,N,08009.7269,W,1,8,1.7,11,M,,M,,*51
05/28/2014	07:10:40.542	$GPGGA,071041,2543.8824,N,08009.7269,W,1,8,1.7,11,M,,M,,*50
05/28/2014	07:10:41.545	$GPGGA,071042,2543.8824,N,08009.7269,W,1,8,1.7,11,M,,M,,*53
05/28/2014	07:10:42.538	$GPGGA,071043,2543.8824,N,08009.7269,W,1,8,1.7,11,M,,M,,*52
05/28/2014	07:10:43.560	$GPGGA,071044,2543.8824,N,08009.7269,W,1,8,1.7,11,M,,M,,*55
05/28/2014	07:10:44.573	$GPGGA,071045,2543.8824,N,08009.7269,W,1,8,1.7,11,M,,M,,*54
05/28/2014	07:10:45.556	$GPGGA,071046,2543.8824,N,08009.7269,W,1,8,1.7,11,M,,M,,*57
05/28/2014	07:10:46.540	$GPGGA,071047,2543.8824,N,08009.7269,W,1,8,1.7,11,M,,M,,*56
05/28/2014	07:10:47.561	$GPGGA,071048,2543.8824,N,08009.7269,W,1,8,1.7,11,M,,M,,*59
05/28/2014	07:10:48.574	$GPGGA,071049,2543.8824,N,08009.7269,W,1,8,1.7,11,M,,M,,*58
05/28/2014	07:10:49.548	$GPGGA,071050,2543.8824,N,08009.7269,W,1,8,1.7,11,M,,M,,*50
05/28/2014	07:10:50.550	$GPGGA,071051,2543.8824,N,08009.7269,W,1,8,1.7,11,M,,M,,*51
05/28/2014	07:10:51.561	$GPGGA,071052,2543.8824,N,08009.7269,W,1,8,1.7,11,M,,M,,*52
05/28/2014	07:10:52.564	$GPGGA,071053,2543.8824,N,08009.7269,W,1,8,1.7,11,M,,M,,*53
05/28/2014	07:10:53.667	$GPGGA,071054,2543.8824,N,08009.7270,W,1,8,1.7,11,M,,M,,*5C
05/28/2014	07:10:54.549	$GPGGA,071055,2543.8822,N,08009.7270,W,1,8,1.7,10,M,,M,,*5A
05/28/2014	07:10:55.572	$GPGGA,071056,2543.8823,N,08009.7270,W,1,8,1.7,10,M,,M,,*58
05/28/2014	07:10:56.585	$GPGGA,071057,2543.8822,N,08009.7270,W,1,8,1.7,10,M,,M,,*58
05/28/2014	07:10:57.567	$GPGGA,071058,2543.8823,N,08009.7270,W,1,8,1.7,10,M,,M,,*56
05/28/2014	07:10:58.572	$GPGGA,071059,2543.8822,N,08009.7270,W,1,8,1.7,10,M,,M,,*56
05/28/2014	07:10:59.583	$GPGGA,071100,2543.8821,N,08009.7270,W,1,8,1.7,10,M,,M,,*58
05/28/2014	07:11:00.676	$GPGGA,071101,2543.8821,N,08009.7270,W,1,8,1.7,10,M,,M,,*59
05/28/2014	07:11:01.549	$GPGGA,071102,2543.8821,N,08009.7272,W,1,8,1.7,10,M,,M,,*58
05/28/2014	07:11:02.661	$GPGGA,071103,2543.8821,N,08009.7271,W,1,8,1.7,10,M,,M,,*5A
05/28/2014	07:11:03.584	$GPGGA,071104,2543.8821,N,08009.7272,W,1,8,1.7,10,M,,M,,*5E
05/28/2014	07:11:04.576	$GPGGA,071105,2543.8821,N,08009.7271,W,1,8,1.7,10,M,,M,,*5C
05/28/2014	07:11:05.579	$GPGGA,071106,2543.8821,N,08009.7272,W,1,8,1.7,10,M,,M,,*5C
05/28/2014	07:11:06.702	$GPGGA,071107,2543.8820,N,08009.7271,W,1,7,2.2,10,M,,M,,*56
05/28/2014	07:11:07.594	$GPGGA,071108,2543.8824,N,08009.7272,W,1,7,2.2,10,M,,M,,*5E
05/28/2014	07:11:08.576	$GPGGA,071109,2543.8830,N,08009.7271,W,1,8,1.7,10,M,,M,,*50
05/28/2014	07:11:09.659	$GPGGA,071110,2543.8835,N,08009.7272,W,1,8,1.7,10,M,,M,,*5E
05/28/2014	07:11:10.671	$GPGGA,071111,2543.8839,N,08009.7272,W,1,8,1.7,10,M,,M,,*53
05/28/2014	07:11:11.694	$GPGGA,071112,2543.8844,N,08009.7272,W,1,8,1.7,10,M,,M,,*5A
05/28/2014	07:11:12.687	$GPGGA,071113,2543.8848,N,08009.7273,W,1,8,1.7,10,M,,M,,*56
05/28/2014	07:11:13.661	$GPGGA,071114,2543.8852,N,08009.7273,W,1,8,1.7,11,M,,M,,*5B
05/28/2014	07:11:14.662	$GPGGA,071115,2543.8855,N,08009.7273,W,1,8,1.7,11,M,,M,,*5D
05/28/2014	07:11:15.675	$GPGGA,071116,2543.8857,N,08009.7273,W,1,8,1.7,11,M,,M,,*5C
05/28/2014	07:11:16.658	$GPGGA,071117,2543.8860,N,08009.7273,W,1,8,1.7,11,M,,M,,*59
05/28/2014	07:11:17.670	$GPGGA,071118,2543.8863,N,08009.7274,W,1,8,1.7,12,M,,M,,*51
05/28/2014	07:11:18.684	$GPGGA,071119,2543.8864,N,08009.7274,W,1,8,1.7,12,M,,M,,*57
05/28/2014	07:11:19.686	$GPGGA,071120,2543.8867,N,08009.7274,W,1,8,1.7,12,M,,M,,*5E
05/28/2014	07:11:20.668	$GPGGA,071121,2543.8867,N,08009.7274,W,1,8,1.7,13,M,,M,,*5E
05/28/2014	07:11:21.671	$GPGGA,071122,2543.8870,N,08009.7276,W,1,8,1.7,13,M,,M,,*59
05/28/2014	07:11:22.664	$GPGGA,071123,2543.8864,N,08009.7275,W,1,8,1.7,14,M,,M,,*59
05/28/2014	07:11:23.688	$GPGGA,071124,2543.8859,N,08009.7276,W,1,8,2.2,14,M,,M,,*55
05/28/2014	07:11:24.689	$GPGGA,071125,2543.8857,N,08009.7275,W,1,7,2.2,14,M,,M,,*56
05/28/2014	07:11:25.683	$GPGGA,071126,2543.8853,N,08009.7276,W,1,7,2.2,14,M,,M,,*52
05/28/2014	07:11:26.694	$GPGGA,071127,2543.8848,N,08009.7275,W,1,7,2.2,14,M,,M,,*5A
05/28/2014	07:11:27.686	$GPGGA,071128,2543.8846,N,08009.7276,W,1,7,2.2,15,M,,M,,*59
05/28/2014	07:11:28.679	$GPGGA,071129,2543.8843,N,08009.7275,W,1,7,2.2,15,M,,M,,*5E
05/28/2014	07:11:29.682	$GPGGA,071130,2543.8840,N,08009.7276,W,1,7,2.2,15,M,,M,,*56
05/28/2014	07:11:30.664	$GPGGA,071131,2543.8839,N,08009.7275,W,1,7,2.2,15,M,,M,,*5A
05/28/2014	07:11:31.687	$GPGGA,071132,2543.8837,N,08009.7276,W,1,7,2.2,15,M,,M,,*54
05/28/2014	07:11:32.680	$GPGGA,071133,2543.8835,N,08009.7275,W,1,7,2.2,15,M,,M,,*54
05/28/2014	07:11:33.682	$GPGGA,071134,2543.8835,N,08009.7276,W,1,7,2.2,14,M,,M,,*51
05/28/2014	07:11:34.705	$GPGGA,071135,2543.8833,N,08009.7275,W,1,7,2.2,14,M,,M,,*55
05/28/2014	07:11:35.698	$GPGGA,071136,2543.8831,N,08009.7274,W,1,7,2.2,14,M,,M,,*55
05/28/2014	07:11:36.671	$GPGGA,071137,2543.8831,N,08009.7276,W,1,7,2.2,14,M,,M,,*56
05/28/2014	07:11:37.693	$GPGGA,071138,2543.8830,N,08009.7274,W,1,7,2.2,14,M,,M,,*5A
05/28/2014	07:11:38.566	$GPGGA,071139,2543.8829,N,08009.7274,W,1,7,2.2,14,M,,M,,*53
05/28/2014	07:11:39.539	$GPGGA,071140,2543.8830,N,08009.7274,W,1,7,2.2,14,M,,M,,*55
05/28/2014	07:11:40.551	$GPGGA,071141,2543.8828,N,08009.7274,W,1,7,2.2,14,M,,M,,*5D
05/28/2014	07:11:41.525	$GPGGA,071142,2543.8828,N,08009.7274,W,1,7,2.2,14,M,,M,,*5E
05/28/2014	07:11:42.537	$GPGGA,071143,2543.8828,N,08009.7274,W,1,7,2.2,14,M,,M,,*5F
05/28/2014	07:11:43.528	$GPGGA,071144,2543.8826,N,08009.7274,W,1,7,2.2,14,M,,M,,*56
05/28/2014	07:11:44.512	$GPGGA,071145,2543.8827,N,08009.7274,W,1,7,2.2,13,M,,M,,*51
05/28/2014	07:11:45.524	$GPGGA,071146,2543.8826,N,08009.7274,W,1,7,2.2,13,M,,M,,*53
05/28/2014	07:11:46.547	$GPGGA,071147,2543.8827,N,08009.7274,W,1,7,2.2,13,M,,M,,*53
05/28/2014	07:11:47.539	$GPGGA,071148,2543.8825,N,08009.7274,W,1,7,2.2,13,M,,M,,*5E
05/28/2014	07:11:48.543	$GPGGA,071149,2543.8826,N,08009.7274,W,1,7,2.2,13,M,,M,,*5C
