Software Version Number: 1	Data File Format Number: 1	Build Version Number: 1	Error Count Since VI Started: 0	Manufacturer: Raytheon	 Model Number: RayMarine 120	 S/N: 	 Cal Date: 	 Wind Direction Offset: 0.00	 Slope (M)1: 0.00	 Offset (B)1: 0.00	 Slope (M)2: 0.00	 Offset (B)2: 0.00	 Slope (M)3: 0.00	 Offset (B)3: 0.00	 Slope (M)4: 0.00	 Offset (B)4: 0.00	 Slope (M)5: 0.00	 Offset (B)5: 0.00	 Slope (M)6: 0.00	 Offset (B)6: 0.00
Computer Date	Computer Time	GGA String
06/09/2014	02:00:00.595	$GPGGA,020001,2502.8685,N,08016.2075,W,1,9,1.6,18,M,,M,,*5D
06/09/2014	02:00:01.675	$GPGGA,020002,2502.8685,N,08016.2093,W,1,9,2.1,18,M,,M,,*52
06/09/2014	02:00:02.630	$GPGGA,020003,2502.8685,N,08016.2110,W,1,9,1.6,18,M,,M,,*5D
06/09/2014	02:00:03.603	$GPGGA,020004,2502.8689,N,08016.2125,W,1,9,1.6,18,M,,M,,*50
06/09/2014	02:00:04.594	$GPGGA,020005,2502.8691,N,08016.2140,W,1,9,1.6,18,M,,M,,*5B
06/09/2014	02:00:05.617	$GPGGA,020006,2502.8692,N,08016.2157,W,1,9,1.6,18,M,,M,,*5D
06/09/2014	02:00:06.589	$GPGGA,020007,2502.8695,N,08016.2171,W,1,9,1.6,19,M,,M,,*5E
06/09/2014	02:00:07.602	$GPGGA,020008,2502.8696,N,08016.2186,W,1,9,1.6,19,M,,M,,*5A
06/09/2014	02:00:08.615	$GPGGA,020009,2502.8699,N,08016.2201,W,1,8,1.8,19,M,,M,,*57
06/09/2014	02:00:09.587	$GPGGA,020010,2502.8702,N,08016.2218,W,1,8,1.8,19,M,,M,,*54
06/09/2014	02:00:10.610	$GPGGA,020011,2502.8705,N,08016.2233,W,1,8,1.8,19,M,,M,,*5B
06/09/2014	02:00:11.704	$GPGGA,020012,2502.8707,N,08016.2247,W,1,8,1.8,19,M,,M,,*59
06/09/2014	02:00:12.595	$GPGGA,020013,2502.8710,N,08016.2262,W,1,8,1.8,19,M,,M,,*59
06/09/2014	02:00:13.698	$GPGGA,020014,2502.8712,N,08016.2274,W,1,8,2.4,19,M,,M,,*54
06/09/2014	02:00:14.590	$GPGGA,020015,2502.8714,N,08016.2287,W,1,5,4.7,19,M,,M,,*57
06/09/2014	02:00:15.633	$GPGGA,020016,2502.8720,N,08016.2301,W,1,5,2.1,19,M,,M,,*5C
06/09/2014	02:00:16.736	$GPGGA,020017,2502.8724,N,08016.2314,W,1,8,2.1,19,M,,M,,*50
06/09/2014	02:00:17.708	$GPGGA,020018,2502.8728,N,08016.2327,W,1,8,2.1,19,M,,M,,*53
06/09/2014	02:00:18.701	$GPGGA,020019,2502.8732,N,08016.2341,W,1,8,2.1,18,M,,M,,*58
06/09/2014	02:00:19.723	$GPGGA,020020,2502.8736,N,08016.2353,W,1,8,2.4,18,M,,M,,*50
06/09/2014	02:00:20.616	$GPGGA,020021,2502.8741,N,08016.2367,W,1,7,2.4,18,M,,M,,*59
06/09/2014	02:00:21.708	$GPGGA,020022,2502.8743,N,08016.2382,W,1,7,2.4,18,M,,M,,*53
06/09/2014	02:00:22.710	$GPGGA,020023,2502.8746,N,08016.2399,W,1,6,2.6,17,M,,M,,*51
06/09/2014	02:00:23.723	$GPGGA,020024,2502.8750,N,08016.2413,W,1,6,1.8,17,M,,M,,*59
06/09/2014	02:00:24.715	$GPGGA,020025,2502.8754,N,08016.2428,W,1,7,2.4,17,M,,M,,*5A
06/09/2014	02:00:25.708	$GPGGA,020026,2502.8757,N,08016.2442,W,1,7,2.4,17,M,,M,,*56
06/09/2014	02:00:26.741	$GPGGA,020027,2502.8759,N,08016.2460,W,1,6,2.6,17,M,,M,,*5A
06/09/2014	02:00:27.723	$GPGGA,020028,2502.8761,N,08016.2475,W,1,6,1.8,17,M,,M,,*57
06/09/2014	02:00:28.726	$GPGGA,020029,2502.8763,N,08016.2493,W,1,8,1.8,16,M,,M,,*53
06/09/2014	02:00:29.712	$GPGGA,020030,2502.8767,N,08016.2507,W,1,8,1.9,16,M,,M,,*52
06/09/2014	02:00:30.713	$GPGGA,020031,2502.8771,N,08016.2522,W,1,8,1.8,16,M,,M,,*52
06/09/2014	02:00:31.713	$GPGGA,020032,2502.8775,N,08016.2536,W,1,8,2.6,16,M,,M,,*5D
06/09/2014	02:00:32.726	$GPGGA,020033,2502.8781,N,08016.2550,W,1,7,2.4,16,M,,M,,*5A
06/09/2014	02:00:33.699	$GPGGA,020034,2502.8785,N,08016.2565,W,1,7,2.4,16,M,,M,,*5F
06/09/2014	02:00:34.731	$GPGGA,020035,2502.8788,N,08016.2579,W,1,6,2.6,16,M,,M,,*5D
06/09/2014	02:00:35.734	$GPGGA,020036,2502.8793,N,08016.2590,W,1,6,2.6,16,M,,M,,*53
06/09/2014	02:00:36.728	$GPGGA,020037,2502.8799,N,08016.2603,W,1,7,2.4,16,M,,M,,*52
06/09/2014	02:00:37.699	$GPGGA,020038,2502.8804,N,08016.2617,W,1,7,2.1,16,M,,M,,*56
06/09/2014	02:00:38.703	$GPGGA,020039,2502.8807,N,08016.2633,W,1,7,2.4,16,M,,M,,*57
06/09/2014	02:00:39.570	$GPGGA,020040,2502.8804,N,08016.2655,W,1,7,2.6,16,M,,M,,*58
06/09/2014	02:00:40.553	$GPGGA,020041,2502.8810,N,08016.2668,W,1,7,1.9,16,M,,M,,*5E
06/09/2014	02:00:41.555	$GPGGA,020042,2502.8811,N,08016.2685,W,1,7,1.6,16,M,,M,,*50
06/09/2014	02:00:42.588	$GPGGA,020043,2502.8815,N,08016.2702,W,1,7,1.9,16,M,,M,,*54
06/09/2014	02:00:43.571	$GPGGA,020044,2502.8817,N,08016.2717,W,1,7,2.4,16,M,,M,,*5B
06/09/2014	02:00:44.553	$GPGGA,020045,2502.8821,N,08016.2731,W,1,7,2.4,16,M,,M,,*5B
06/09/2014	02:00:45.576	$GPGGA,020046,2502.8826,N,08016.2746,W,1,7,2.4,16,M,,M,,*5F
06/09/2014	02:00:46.598	$GPGGA,020047,2502.8829,N,08016.2760,W,1,8,2.1,16,M,,M,,*5F
06/09/2014	02:00:47.581	$GPGGA,020048,2502.8836,N,08016.2772,W,1,8,2.4,16,M,,M,,*58
06/09/2014	02:00:48.604	$GPGGA,020049,2502.8840,N,08016.2787,W,1,8,2.1,16,M,,M,,*57
06/09/2014	02:00:49.566	$GPGGA,020050,2502.8846,N,08016.2803,W,1,8,3.1,16,M,,M,,*5B
06/09/2014	02:00:50.589	$GPGGA,020051,2502.8847,N,08016.2818,W,1,6,2.6,16,M,,M,,*59
06/09/2014	02:00:51.571	$GPGGA,020052,2502.8851,N,08016.2830,W,1,6,4.7,16,M,,M,,*50
06/09/2014	02:00:52.585	$GPGGA,020053,2502.8853,N,08016.2843,W,1,8,2.1,16,M,,M,,*59
06/09/2014	02:00:53.567	$GPGGA,020054,2502.8855,N,08016.2858,W,1,8,2.4,16,M,,M,,*57
06/09/2014	02:00:54.579	$GPGGA,020055,2502.8859,N,08016.2873,W,1,6,3.1,16,M,,M,,*59
06/09/2014	02:00:55.603	$GPGGA,020056,2502.8864,N,08016.2888,W,1,6,2.4,15,M,,M,,*57
06/09/2014	02:00:56.553	$GPGGA,020057,2502.8866,N,08016.2904,W,1,7,2.4,15,M,,M,,*50
06/09/2014	02:00:57.576	$GPGGA,020058,2502.8866,N,08016.2920,W,1,7,2.6,15,M,,M,,*5B
06/09/2014	02:00:58.558	$GPGGA,020059,2502.8869,N,08016.2935,W,1,7,2.4,15,M,,M,,*53
06/09/2014	02:00:59.701	$GPGGA,020100,2502.8877,N,08016.2945,W,1,7,2.6,15,M,,M,,*54
06/09/2014	02:01:00.674	$GPGGA,020101,2502.8880,N,08016.2962,W,1,7,2.4,15,M,,M,,*5A
06/09/2014	02:01:01.566	$GPGGA,020102,2502.8882,N,08016.2977,W,1,7,2.6,15,M,,M,,*5D
06/09/2014	02:01:02.569	$GPGGA,020103,2502.8884,N,08016.2991,W,1,6,2.6,15,M,,M,,*53
06/09/2014	02:01:03.682	$GPGGA,020104,2502.8884,N,08016.3006,W,1,6,2.1,15,M,,M,,*55
06/09/2014	02:01:04.695	$GPGGA,020105,2502.8887,N,08016.3021,W,1,9,1.6,15,M,,M,,*59
06/09/2014	02:01:05.667	$GPGGA,020106,2502.8889,N,08016.3038,W,1,9,1.6,15,M,,M,,*5C
06/09/2014	02:01:06.700	$GPGGA,020107,2502.8891,N,08016.3056,W,1,9,1.6,15,M,,M,,*5C
06/09/2014	02:01:07.682	$GPGGA,020108,2502.8893,N,08016.3071,W,1,9,1.6,15,M,,M,,*54
06/09/2014	02:01:08.675	$GPGGA,020109,2502.8895,N,08016.3089,W,1,9,1.6,15,M,,M,,*54
06/09/2014	02:01:09.667	$GPGGA,020110,2502.8898,N,08016.3103,W,1,9,1.6,15,M,,M,,*52
06/09/2014	02:01:10.670	$GPGGA,020111,2502.8900,N,08016.3116,W,1,8,2.1,15,M,,M,,*52
06/09/2014	02:01:11.683	$GPGGA,020112,2502.8902,N,08016.3132,W,1,8,2.1,15,M,,M,,*55
06/09/2014	02:01:12.696	$GPGGA,020113,2502.8904,N,08016.3147,W,1,7,2.4,15,M,,M,,*5A
06/09/2014	02:01:13.677	$GPGGA,020114,2502.8905,N,08016.3162,W,1,7,2.1,15,M,,M,,*5E
06/09/2014	02:01:14.699	$GPGGA,020115,2502.8908,N,08016.3177,W,1,8,2.1,15,M,,M,,*59
06/09/2014	02:01:15.682	$GPGGA,020116,2502.8911,N,08016.3191,W,1,8,2.1,15,M,,M,,*5A
06/09/2014	02:01:16.705	$GPGGA,020117,2502.8913,N,08016.3208,W,1,7,2.4,15,M,,M,,*50
06/09/2014	02:01:17.681	$GPGGA,020118,2502.8916,N,08016.3222,W,1,7,2.4,15,M,,M,,*52
06/09/2014	02:01:18.690	$GPGGA,020119,2502.8922,N,08016.3235,W,1,7,2.4,15,M,,M,,*52
06/09/2014	02:01:19.689	$GPGGA,020120,2502.8923,N,08016.3251,W,1,7,2.1,15,M,,M,,*5E
06/09/2014	02:01:20.675	$GPGGA,020121,2502.8926,N,08016.3266,W,1,8,2.1,15,M,,M,,*51
06/09/2014	02:01:21.677	$GPGGA,020122,2502.8927,N,08016.3280,W,1,8,2.1,15,M,,M,,*5B
06/09/2014	02:01:22.700	$GPGGA,020123,2502.8929,N,08016.3295,W,1,7,2.4,15,M,,M,,*5A
06/09/2014	02:01:23.693	$GPGGA,020124,2502.8931,N,08016.3309,W,1,7,2.4,15,M,,M,,*50
06/09/2014	02:01:24.675	$GPGGA,020125,2502.8934,N,08016.3324,W,1,8,2.1,15,M,,M,,*51
06/09/2014	02:01:25.688	$GPGGA,020126,2502.8937,N,08016.3339,W,1,8,2.1,15,M,,M,,*5D
06/09/2014	02:01:26.701	$GPGGA,020127,2502.8938,N,08016.3354,W,1,7,2.4,15,M,,M,,*52
06/09/2014	02:01:27.683	$GPGGA,020128,2502.8940,N,08016.3370,W,1,7,2.4,15,M,,M,,*54
06/09/2014	02:01:28.716	$GPGGA,020129,2502.8941,N,08016.3385,W,1,7,2.4,15,M,,M,,*5E
06/09/2014	02:01:29.678	$GPGGA,020130,2502.8941,N,08016.3400,W,1,7,2.4,15,M,,M,,*5C
06/09/2014	02:01:30.701	$GPGGA,020131,2502.8947,N,08016.3414,W,1,8,2.1,14,M,,M,,*55
06/09/2014	02:01:31.692	$GPGGA,020132,2502.8948,N,08016.3428,W,1,8,2.1,14,M,,M,,*56
06/09/2014	02:01:32.685	$GPGGA,020133,2502.8952,N,08016.3443,W,1,7,2.4,14,M,,M,,*5B
06/09/2014	02:01:33.688	$GPGGA,020134,2502.8954,N,08016.3458,W,1,7,2.1,14,M,,M,,*55
06/09/2014	02:01:34.724	$GPGGA,020135,2502.8955,N,08016.3475,W,1,7,2.4,14,M,,M,,*5F
06/09/2014	02:01:35.713	$GPGGA,020136,2502.8953,N,08016.3493,W,1,7,1.6,14,M,,M,,*53
06/09/2014	02:01:36.816	$GPGGA,020137,2502.8955,N,08016.3509,W,1,9,1.6,14,M,,M,,*58
06/09/2014	02:01:37.698	$GPGGA,020138,2502.8956,N,08016.3526,W,1,9,1.6,14,M,,M,,*59
06/09/2014	02:01:38.691	$GPGGA,020139,2502.8956,N,08016.3542,W,1,9,1.6,14,M,,M,,*5A
06/09/2014	02:01:39.549	$GPGGA,020140,2502.8959,N,08016.3558,W,1,9,1.7,14,M,,M,,*51
06/09/2014	02:01:40.562	$GPGGA,020141,2502.8963,N,08016.3570,W,1,9,1.6,14,M,,M,,*52
06/09/2014	02:01:41.545	$GPGGA,020142,2502.8966,N,08016.3584,W,1,9,2.4,14,M,,M,,*5E
06/09/2014	02:01:42.557	$GPGGA,020143,2502.8965,N,08016.3600,W,1,6,2.6,14,M,,M,,*5E
06/09/2014	02:01:43.540	$GPGGA,020144,2502.8967,N,08016.3616,W,1,6,2.4,14,M,,M,,*5E
06/09/2014	02:01:44.542	$GPGGA,020145,2502.8969,N,08016.3631,W,1,6,2.6,14,M,,M,,*56
06/09/2014	02:01:45.545	$GPGGA,020146,2502.8971,N,08016.3646,W,1,6,2.4,14,M,,M,,*5E
06/09/2014	02:01:46.688	$GPGGA,020147,2502.8974,N,08016.3657,W,1,7,2.1,14,M,,M,,*5E
06/09/2014	02:01:47.540	$GPGGA,020148,2502.8978,N,08016.3672,W,1,7,2.1,14,M,,M,,*5A
06/09/2014	02:01:48.652	$GPGGA,020149,2502.8978,N,08016.3686,W,1,8,1.6,15,M,,M,,*5A
06/09/2014	02:01:49.534	$GPGGA,020150,2502.8981,N,08016.3703,W,1,8,1.6,15,M,,M,,*58
06/09/2014	02:01:50.567	$GPGGA,020151,2502.8984,N,08016.3718,W,1,8,1.8,15,M,,M,,*58
06/09/2014	02:01:51.720	$GPGGA,020152,2502.8987,N,08016.3735,W,1,8,1.8,15,M,,M,,*57
06/09/2014	02:01:52.692	$GPGGA,020153,2502.8989,N,08016.3750,W,1,8,1.8,15,M,,M,,*5B
06/09/2014	02:01:53.635	$GPGGA,020154,2502.8992,N,08016.3765,W,1,8,1.8,15,M,,M,,*50
06/09/2014	02:01:54.547	$GPGGA,020155,2502.8996,N,08016.3779,W,1,7,2.0,15,M,,M,,*5C
06/09/2014	02:01:55.710	$GPGGA,020156,2502.8999,N,08016.3794,W,1,7,1.7,16,M,,M,,*54
06/09/2014	02:01:56.632	$GPGGA,020157,2502.9005,N,08016.3809,W,1,8,1.7,16,M,,M,,*5C
06/09/2014	02:01:57.635	$GPGGA,020158,2502.9007,N,08016.3826,W,1,8,1.6,16,M,,M,,*5D
06/09/2014	02:01:58.638	$GPGGA,020159,2502.9010,N,08016.3842,W,1,8,1.7,16,M,,M,,*59
06/09/2014	02:01:59.650	$GPGGA,020200,2502.9013,N,08016.3858,W,1,8,1.7,16,M,,M,,*5E
06/09/2014	02:02:00.643	$GPGGA,020201,2502.9014,N,08016.3874,W,1,8,1.7,16,M,,M,,*56
06/09/2014	02:02:01.635	$GPGGA,020202,2502.9017,N,08016.3891,W,1,8,1.6,16,M,,M,,*5C
06/09/2014	02:02:02.698	$GPGGA,020203,2502.9021,N,08016.3906,W,1,8,1.7,17,M,,M,,*57
06/09/2014	02:02:03.722	$GPGGA,020204,2502.9024,N,08016.3923,W,1,8,1.7,17,M,,M,,*52
06/09/2014	02:02:04.693	$GPGGA,020205,2502.9025,N,08016.3939,W,1,8,1.7,17,M,,M,,*59
06/09/2014	02:02:05.646	$GPGGA,020206,2502.9031,N,08016.3956,W,1,8,1.7,17,M,,M,,*56
06/09/2014	02:02:06.688	$GPGGA,020207,2502.9034,N,08016.3972,W,1,9,1.6,17,M,,M,,*54
06/09/2014	02:02:07.710	$GPGGA,020208,2502.9036,N,08016.3990,W,1,9,1.7,17,M,,M,,*54
06/09/2014	02:02:08.683	$GPGGA,020209,2502.9039,N,08016.4007,W,1,8,1.7,17,M,,M,,*5B
06/09/2014	02:02:09.636	$GPGGA,020210,2502.9043,N,08016.4025,W,1,8,1.7,17,M,,M,,*5E
06/09/2014	02:02:10.739	$GPGGA,020211,2502.9046,N,08016.4043,W,1,8,1.7,17,M,,M,,*5A
06/09/2014	02:02:11.741	$GPGGA,020212,2502.9052,N,08016.4058,W,1,8,1.7,17,M,,M,,*56
06/09/2014	02:02:12.643	$GPGGA,020213,2502.9054,N,08016.4075,W,1,9,1.6,17,M,,M,,*5E
06/09/2014	02:02:13.696	$GPGGA,020214,2502.9057,N,08016.4093,W,1,9,2.0,18,M,,M,,*58
06/09/2014	02:02:14.688	$GPGGA,020215,2502.9060,N,08016.4111,W,1,7,2.0,18,M,,M,,*58
06/09/2014	02:02:15.731	$GPGGA,020216,2502.9063,N,08016.4129,W,1,7,2.0,18,M,,M,,*53
06/09/2014	02:02:16.673	$GPGGA,020217,2502.9068,N,08016.4147,W,1,7,1.8,18,M,,M,,*5A
06/09/2014	02:02:17.696	$GPGGA,020218,2502.9071,N,08016.4165,W,1,7,2.0,18,M,,M,,*56
06/09/2014	02:02:18.699	$GPGGA,020219,2502.9078,N,08016.4180,W,1,7,2.0,18,M,,M,,*55
06/09/2014	02:02:19.721	$GPGGA,020220,2502.9079,N,08016.4198,W,1,7,2.0,18,M,,M,,*57
06/09/2014	02:02:20.714	$GPGGA,020221,2502.9082,N,08016.4216,W,1,7,2.0,18,M,,M,,*57
06/09/2014	02:02:21.717	$GPGGA,020222,2502.9085,N,08016.4235,W,1,7,2.0,19,M,,M,,*53
06/09/2014	02:02:22.649	$GPGGA,020223,2502.9088,N,08016.4254,W,1,7,2.0,19,M,,M,,*58
06/09/2014	02:02:23.661	$GPGGA,020224,2502.9090,N,08016.4274,W,1,7,1.7,19,M,,M,,*50
06/09/2014	02:02:24.693	$GPGGA,020225,2502.9092,N,08016.4292,W,1,9,1.6,19,M,,M,,*54
06/09/2014	02:02:25.726	$GPGGA,020226,2502.9095,N,08016.4310,W,1,9,2.4,19,M,,M,,*5A
06/09/2014	02:02:26.698	$GPGGA,020227,2502.9097,N,08016.4326,W,1,7,2.1,19,M,,M,,*57
06/09/2014	02:02:27.741	$GPGGA,020228,2502.9100,N,08016.4343,W,1,7,2.1,19,M,,M,,*54
06/09/2014	02:02:28.654	$GPGGA,020229,2502.9103,N,08016.4360,W,1,8,2.1,19,M,,M,,*58
06/09/2014	02:02:29.776	$GPGGA,020230,2502.9106,N,08016.4378,W,1,8,2.4,19,M,,M,,*59
06/09/2014	02:02:30.739	$GPGGA,020231,2502.9108,N,08016.4397,W,1,7,2.4,19,M,,M,,*58
06/09/2014	02:02:31.661	$GPGGA,020232,2502.9111,N,08016.4415,W,1,7,2.4,19,M,,M,,*5E
06/09/2014	02:02:32.705	$GPGGA,020233,2502.9115,N,08016.4433,W,1,6,2.4,18,M,,M,,*5F
06/09/2014	02:02:33.767	$GPGGA,020234,2502.9118,N,08016.4451,W,1,6,2.6,18,M,,M,,*53
06/09/2014	02:02:34.700	$GPGGA,020235,2502.9118,N,08016.4470,W,1,6,2.0,18,M,,M,,*57
06/09/2014	02:02:35.763	$GPGGA,020236,2502.9119,N,08016.4491,W,1,6,2.0,18,M,,M,,*5A
06/09/2014	02:02:36.664	$GPGGA,020237,2502.9121,N,08016.4510,W,1,7,2.0,18,M,,M,,*59
06/09/2014	02:02:37.717	$GPGGA,020238,2502.9122,N,08016.4530,W,1,7,1.7,18,M,,M,,*53
06/09/2014	02:02:38.720	$GPGGA,020239,2502.9125,N,08016.4546,W,1,8,1.7,18,M,,M,,*5B
06/09/2014	02:02:39.639	$GPGGA,020240,2502.9126,N,08016.4563,W,1,8,1.7,18,M,,M,,*51
06/09/2014	02:02:40.622	$GPGGA,020241,2502.9129,N,08016.4581,W,1,8,1.7,18,M,,M,,*53
06/09/2014	02:02:41.588	$GPGGA,020242,2502.9132,N,08016.4599,W,1,8,1.7,18,M,,M,,*53
06/09/2014	02:02:42.646	$GPGGA,020243,2502.9136,N,08016.4614,W,1,8,1.6,18,M,,M,,*51
06/09/2014	02:02:43.629	$GPGGA,020244,2502.9137,N,08016.4632,W,1,8,1.7,19,M,,M,,*53
06/09/2014	02:02:44.641	$GPGGA,020245,2502.9143,N,08016.4646,W,1,8,1.6,19,M,,M,,*53
06/09/2014	02:02:45.614	$GPGGA,020246,2502.9142,N,08016.4664,W,1,8,1.6,19,M,,M,,*51
06/09/2014	02:02:46.606	$GPGGA,020247,2502.9144,N,08016.4679,W,1,9,1.6,19,M,,M,,*5B
06/09/2014	02:02:47.629	$GPGGA,020248,2502.9146,N,08016.4694,W,1,9,1.6,19,M,,M,,*55
06/09/2014	02:02:48.652	$GPGGA,020249,2502.9147,N,08016.4709,W,1,9,1.6,19,M,,M,,*50
06/09/2014	02:02:49.610	$GPGGA,020250,2502.9148,N,08016.4725,W,1,9,1.6,19,M,,M,,*59
06/09/2014	02:02:50.637	$GPGGA,020251,2502.9151,N,08016.4738,W,1,9,1.6,19,M,,M,,*5C
06/09/2014	02:02:51.650	$GPGGA,020252,2502.9153,N,08016.4752,W,1,9,1.8,19,M,,M,,*5F
06/09/2014	02:02:52.632	$GPGGA,020253,2502.9155,N,08016.4765,W,1,8,2.0,19,M,,M,,*56
06/09/2014	02:02:53.645	$GPGGA,020254,2502.9155,N,08016.4765,W,1,8,2.0,19,M,,M,,*51
06/09/2014	02:02:54.637	$GPGGA,020255,2502.9160,N,08016.4790,W,1,9,1.8,19,M,,M,,*56
06/09/2014	02:02:55.630	$GPGGA,020256,2502.9162,N,08016.4802,W,1,9,2.0,19,M,,M,,*58
06/09/2014	02:02:56.632	$GPGGA,020257,2502.9168,N,08016.4814,W,1,7,2.0,19,M,,M,,*5A
06/09/2014	02:02:57.615	$GPGGA,020258,2502.9171,N,08016.4826,W,1,7,2.0,19,M,,M,,*5C
06/09/2014	02:02:58.647	$GPGGA,020259,2502.9173,N,08016.4837,W,1,8,1.6,19,M,,M,,*55
06/09/2014	02:02:59.700	$GPGGA,020300,2502.9176,N,08016.4848,W,1,8,1.8,20,M,,M,,*51
06/09/2014	02:03:00.652	$GPGGA,020301,2502.9180,N,08016.4859,W,1,8,1.8,20,M,,M,,*59
06/09/2014	02:03:01.626	$GPGGA,020302,2502.9184,N,08016.4870,W,1,8,1.8,20,M,,M,,*55
06/09/2014	02:03:02.647	$GPGGA,020303,2502.9187,N,08016.4879,W,1,8,1.8,20,M,,M,,*5E
06/09/2014	02:03:03.680	$GPGGA,020304,2502.9187,N,08016.4879,W,1,8,1.8,20,M,,M,,*59
06/09/2014	02:03:04.632	$GPGGA,020305,2502.9195,N,08016.4900,W,1,9,1.6,20,M,,M,,*5B
06/09/2014	02:03:05.649	$GPGGA,020306,2502.9198,N,08016.4908,W,1,9,1.6,20,M,,M,,*5D
06/09/2014	02:03:06.627	$GPGGA,020307,2502.9202,N,08016.4918,W,1,9,1.8,20,M,,M,,*53
06/09/2014	02:03:07.656	$GPGGA,020308,2502.9207,N,08016.4928,W,1,9,1.8,20,M,,M,,*5A
06/09/2014	02:03:08.656	$GPGGA,020309,2502.9211,N,08016.4938,W,1,8,1.6,20,M,,M,,*52
06/09/2014	02:03:09.715	$GPGGA,020310,2502.9216,N,08016.4946,W,1,8,1.6,20,M,,M,,*54
06/09/2014	02:03:10.668	$GPGGA,020311,2502.9220,N,08016.4957,W,1,8,1.8,21,M,,M,,*5F
06/09/2014	02:03:11.681	$GPGGA,020312,2502.9220,N,08016.4957,W,1,8,1.8,21,M,,M,,*5C
06/09/2014	02:03:12.769	$GPGGA,020313,2502.9230,N,08016.4975,W,1,8,1.8,21,M,,M,,*5C
06/09/2014	02:03:13.662	$GPGGA,020314,2502.9234,N,08016.4985,W,1,8,1.6,21,M,,M,,*5E
06/09/2014	02:03:14.748	$GPGGA,020315,2502.9240,N,08016.4994,W,1,9,1.6,21,M,,M,,*5D
06/09/2014	02:03:15.651	$GPGGA,020316,2502.9240,N,08016.4994,W,1,9,1.6,21,M,,M,,*5E
06/09/2014	02:03:16.764	$GPGGA,020317,2502.9249,N,08016.5012,W,1,9,1.6,21,M,,M,,*50
06/09/2014	02:03:17.672	$GPGGA,020318,2502.9249,N,08016.5012,W,1,9,1.6,21,M,,M,,*5F
06/09/2014	02:03:18.648	$GPGGA,020319,2502.9260,N,08016.5029,W,1,9,1.6,21,M,,M,,*5D
06/09/2014	02:03:19.630	$GPGGA,020320,2502.9260,N,08016.5029,W,1,9,1.7,21,M,,M,,*56
06/09/2014	02:03:20.633	$GPGGA,020321,2502.9270,N,08016.5048,W,1,8,1.8,21,M,,M,,*5F
06/09/2014	02:03:21.726	$GPGGA,020322,2502.9276,N,08016.5056,W,1,8,1.6,20,M,,M,,*5A
06/09/2014	02:03:22.628	$GPGGA,020323,2502.9281,N,08016.5065,W,1,9,1.6,20,M,,M,,*52
06/09/2014	02:03:23.731	$GPGGA,020324,2502.9287,N,08016.5072,W,1,9,1.8,20,M,,M,,*5B
06/09/2014	02:03:24.643	$GPGGA,020325,2502.9292,N,08016.5080,W,1,8,1.8,20,M,,M,,*52
06/09/2014	02:03:25.736	$GPGGA,020326,2502.9292,N,08016.5080,W,1,8,1.8,20,M,,M,,*51
06/09/2014	02:03:26.638	$GPGGA,020327,2502.9306,N,08016.5098,W,1,9,1.6,20,M,,M,,*5A
06/09/2014	02:03:27.731	$GPGGA,020328,2502.9313,N,08016.5105,W,1,9,1.6,20,M,,M,,*54
06/09/2014	02:03:28.764	$GPGGA,020329,2502.9320,N,08016.5112,W,1,8,1.8,20,M,,M,,*5C
06/09/2014	02:03:29.736	$GPGGA,020330,2502.9327,N,08016.5119,W,1,8,1.8,20,M,,M,,*58
06/09/2014	02:03:30.719	$GPGGA,020331,2502.9332,N,08016.5126,W,1,9,1.6,20,M,,M,,*5E
06/09/2014	02:03:31.742	$GPGGA,020332,2502.9339,N,08016.5131,W,1,9,1.6,20,M,,M,,*50
06/09/2014	02:03:32.734	$GPGGA,020333,2502.9346,N,08016.5139,W,1,9,1.6,20,M,,M,,*51
06/09/2014	02:03:33.726	$GPGGA,020334,2502.9353,N,08016.5146,W,1,9,1.8,20,M,,M,,*54
06/09/2014	02:03:34.738	$GPGGA,020335,2502.9361,N,08016.5155,W,1,8,1.8,20,M,,M,,*57
06/09/2014	02:03:35.751	$GPGGA,020336,2502.9368,N,08016.5163,W,1,8,1.6,20,M,,M,,*56
06/09/2014	02:03:36.744	$GPGGA,020337,2502.9375,N,08016.5170,W,1,8,1.8,20,M,,M,,*57
06/09/2014	02:03:37.736	$GPGGA,020338,2502.9382,N,08016.5178,W,1,8,1.8,20,M,,M,,*58
06/09/2014	02:03:38.759	$GPGGA,020339,2502.9389,N,08016.5186,W,1,8,1.8,20,M,,M,,*53
06/09/2014	02:03:39.597	$GPGGA,020340,2502.9396,N,08016.5193,W,1,8,1.8,20,M,,M,,*57
06/09/2014	02:03:40.580	$GPGGA,020341,2502.9404,N,08016.5200,W,1,8,1.8,20,M,,M,,*53
06/09/2014	02:03:41.582	$GPGGA,020342,2502.9411,N,08016.5209,W,1,8,1.8,20,M,,M,,*5D
06/09/2014	02:03:42.605	$GPGGA,020343,2502.9418,N,08016.5215,W,1,8,1.8,20,M,,M,,*58
06/09/2014	02:03:43.608	$GPGGA,020344,2502.9425,N,08016.5224,W,1,8,1.8,20,M,,M,,*53
06/09/2014	02:03:44.600	$GPGGA,020345,2502.9432,N,08016.5231,W,1,8,1.8,19,M,,M,,*5A
06/09/2014	02:03:45.583	$GPGGA,020346,2502.9432,N,08016.5231,W,1,8,1.8,19,M,,M,,*59
06/09/2014	02:03:46.605	$GPGGA,020347,2502.9447,N,08016.5246,W,1,8,1.8,19,M,,M,,*5A
06/09/2014	02:03:47.588	$GPGGA,020348,2502.9454,N,08016.5253,W,1,8,1.8,19,M,,M,,*53
06/09/2014	02:03:48.621	$GPGGA,020349,2502.9462,N,08016.5260,W,1,8,1.8,19,M,,M,,*57
06/09/2014	02:03:49.583	$GPGGA,020350,2502.9469,N,08016.5267,W,1,8,1.8,19,M,,M,,*53
06/09/2014	02:03:50.616	$GPGGA,020351,2502.9476,N,08016.5275,W,1,9,1.6,19,M,,M,,*50
06/09/2014	02:03:51.609	$GPGGA,020352,2502.9483,N,08016.5282,W,1,9,1.6,19,M,,M,,*51
06/09/2014	02:03:52.620	$GPGGA,020353,2502.9491,N,08016.5289,W,1,8,1.8,19,M,,M,,*57
06/09/2014	02:03:53.593	$GPGGA,020354,2502.9498,N,08016.5297,W,1,8,1.8,19,M,,M,,*56
06/09/2014	02:03:54.625	$GPGGA,020355,2502.9505,N,08016.5304,W,1,8,1.8,19,M,,M,,*59
06/09/2014	02:03:55.608	$GPGGA,020356,2502.9512,N,08016.5312,W,1,8,1.8,19,M,,M,,*5B
06/09/2014	02:03:56.590	$GPGGA,020357,2502.9520,N,08016.5321,W,1,9,1.6,19,M,,M,,*54
06/09/2014	02:03:57.603	$GPGGA,020358,2502.9527,N,08016.5327,W,1,9,1.8,18,M,,M,,*55
06/09/2014	02:03:58.616	$GPGGA,020359,2502.9536,N,08016.5336,W,1,8,1.8,18,M,,M,,*55
06/09/2014	02:03:59.608	$GPGGA,020400,2502.9543,N,08016.5343,W,1,8,1.8,18,M,,M,,*5E
06/09/2014	02:04:00.730	$GPGGA,020401,2502.9551,N,08016.5348,W,1,8,1.8,18,M,,M,,*57
06/09/2014	02:04:01.623	$GPGGA,020402,2502.9558,N,08016.5357,W,1,8,1.6,18,M,,M,,*5D
06/09/2014	02:04:02.686	$GPGGA,020403,2502.9566,N,08016.5365,W,1,8,1.8,18,M,,M,,*5E
06/09/2014	02:04:03.619	$GPGGA,020404,2502.9574,N,08016.5372,W,1,8,1.8,18,M,,M,,*5C
06/09/2014	02:04:04.581	$GPGGA,020405,2502.9581,N,08016.5379,W,1,8,1.8,18,M,,M,,*5C
06/09/2014	02:04:05.614	$GPGGA,020406,2502.9581,N,08016.5379,W,1,8,1.8,18,M,,M,,*5F
06/09/2014	02:04:06.687	$GPGGA,020407,2502.9595,N,08016.5390,W,1,9,1.6,18,M,,M,,*53
06/09/2014	02:04:07.619	$GPGGA,020408,2502.9603,N,08016.5395,W,1,9,1.6,18,M,,M,,*55
06/09/2014	02:04:08.601	$GPGGA,020409,2502.9610,N,08016.5404,W,1,9,1.6,18,M,,M,,*59
06/09/2014	02:04:09.693	$GPGGA,020410,2502.9619,N,08016.5412,W,1,9,1.8,18,M,,M,,*51
06/09/2014	02:04:10.716	$GPGGA,020411,2502.9626,N,08016.5419,W,1,8,1.8,18,M,,M,,*56
06/09/2014	02:04:11.719	$GPGGA,020412,2502.9634,N,08016.5426,W,1,8,1.6,18,M,,M,,*54
06/09/2014	02:04:12.691	$GPGGA,020413,2502.9641,N,08016.5434,W,1,9,1.6,18,M,,M,,*55
06/09/2014	02:04:13.614	$GPGGA,020414,2502.9649,N,08016.5444,W,1,9,1.8,18,M,,M,,*53
06/09/2014	02:04:14.726	$GPGGA,020415,2502.9656,N,08016.5452,W,1,8,1.8,18,M,,M,,*5A
06/09/2014	02:04:15.709	$GPGGA,020416,2502.9664,N,08016.5459,W,1,8,1.8,18,M,,M,,*53
06/09/2014	02:04:16.611	$GPGGA,020417,2502.9671,N,08016.5467,W,1,8,1.8,18,M,,M,,*5B
06/09/2014	02:04:17.694	$GPGGA,020418,2502.9678,N,08016.5475,W,1,8,1.8,18,M,,M,,*5E
06/09/2014	02:04:18.717	$GPGGA,020419,2502.9686,N,08016.5484,W,1,8,1.8,18,M,,M,,*50
06/09/2014	02:04:19.729	$GPGGA,020420,2502.9693,N,08016.5491,W,1,8,1.8,18,M,,M,,*5A
06/09/2014	02:04:20.732	$GPGGA,020421,2502.9700,N,08016.5499,W,1,8,1.8,17,M,,M,,*57
06/09/2014	02:04:21.694	$GPGGA,020422,2502.9708,N,08016.5507,W,1,8,1.8,17,M,,M,,*5A
06/09/2014	02:04:22.737	$GPGGA,020423,2502.9715,N,08016.5516,W,1,8,1.8,17,M,,M,,*57
06/09/2014	02:04:23.720	$GPGGA,020424,2502.9724,N,08016.5522,W,1,8,1.8,17,M,,M,,*55
06/09/2014	02:04:24.722	$GPGGA,020425,2502.9731,N,08016.5531,W,1,8,1.8,17,M,,M,,*52
06/09/2014	02:04:25.695	$GPGGA,020426,2502.9739,N,08016.5538,W,1,8,1.8,17,M,,M,,*50
06/09/2014	02:04:26.706	$GPGGA,020427,2502.9746,N,08016.5546,W,1,8,1.8,17,M,,M,,*50
06/09/2014	02:04:27.719	$GPGGA,020428,2502.9754,N,08016.5553,W,1,8,1.8,17,M,,M,,*58
06/09/2014	02:04:28.701	$GPGGA,020429,2502.9761,N,08016.5560,W,1,9,1.6,17,M,,M,,*50
06/09/2014	02:04:29.704	$GPGGA,020430,2502.9768,N,08016.5567,W,1,9,1.8,17,M,,M,,*58
06/09/2014	02:04:30.726	$GPGGA,020431,2502.9776,N,08016.5575,W,1,8,1.8,17,M,,M,,*54
06/09/2014	02:04:31.719	$GPGGA,020432,2502.9783,N,08016.5583,W,1,8,1.8,16,M,,M,,*55
06/09/2014	02:04:32.721	$GPGGA,020433,2502.9790,N,08016.5592,W,1,8,1.8,16,M,,M,,*56
06/09/2014	02:04:33.714	$GPGGA,020434,2502.9797,N,08016.5600,W,1,8,1.8,16,M,,M,,*5E
06/09/2014	02:04:34.736	$GPGGA,020435,2502.9805,N,08016.5607,W,1,8,1.8,16,M,,M,,*5C
06/09/2014	02:04:35.719	$GPGGA,020436,2502.9812,N,08016.5614,W,1,8,1.8,16,M,,M,,*5B
06/09/2014	02:04:36.712	$GPGGA,020437,2502.9819,N,08016.5621,W,1,8,1.8,16,M,,M,,*57
06/09/2014	02:04:37.714	$GPGGA,020438,2502.9827,N,08016.5629,W,1,8,1.6,16,M,,M,,*53
06/09/2014	02:04:38.696	$GPGGA,020439,2502.9834,N,08016.5637,W,1,8,1.8,16,M,,M,,*51
06/09/2014	02:04:39.568	$GPGGA,020440,2502.9841,N,08016.5645,W,1,8,1.8,16,M,,M,,*58
06/09/2014	02:04:40.551	$GPGGA,020441,2502.9848,N,08016.5654,W,1,9,1.6,15,M,,M,,*5C
06/09/2014	02:04:41.582	$GPGGA,020442,2502.9855,N,08016.5661,W,1,9,1.6,15,M,,M,,*55
06/09/2014	02:04:42.557	$GPGGA,020443,2502.9862,N,08016.5668,W,1,9,1.6,15,M,,M,,*59
06/09/2014	02:04:43.578	$GPGGA,020444,2502.9870,N,08016.5676,W,1,9,1.6,15,M,,M,,*52
06/09/2014	02:04:44.570	$GPGGA,020445,2502.9877,N,08016.5683,W,1,9,1.6,15,M,,M,,*5E
06/09/2014	02:04:45.551	$GPGGA,020446,2502.9884,N,08016.5690,W,1,9,1.6,15,M,,M,,*53
06/09/2014	02:04:46.554	$GPGGA,020447,2502.9891,N,08016.5697,W,1,9,1.6,15,M,,M,,*51
06/09/2014	02:04:47.689	$GPGGA,020448,2502.9899,N,08016.5704,W,1,9,1.6,15,M,,M,,*5D
06/09/2014	02:04:48.579	$GPGGA,020449,2502.9906,N,08016.5710,W,1,9,1.6,15,M,,M,,*5E
06/09/2014	02:04:49.571	$GPGGA,020450,2502.9913,N,08016.5719,W,1,9,1.6,15,M,,M,,*5B
06/09/2014	02:04:50.674	$GPGGA,020451,2502.9921,N,08016.5724,W,1,8,1.8,15,M,,M,,*5A
06/09/2014	02:04:51.566	$GPGGA,020452,2502.9928,N,08016.5730,W,1,8,1.6,15,M,,M,,*5B
06/09/2014	02:04:52.559	$GPGGA,020453,2502.9935,N,08016.5737,W,1,9,1.6,15,M,,M,,*50
06/09/2014	02:04:53.681	$GPGGA,020454,2502.9942,N,08016.5744,W,1,9,1.6,15,M,,M,,*53
06/09/2014	02:04:54.684	$GPGGA,020455,2502.9950,N,08016.5751,W,1,9,1.6,15,M,,M,,*55
06/09/2014	02:04:55.586	$GPGGA,020456,2502.9957,N,08016.5759,W,1,9,1.6,15,M,,M,,*59
06/09/2014	02:04:56.570	$GPGGA,020457,2502.9964,N,08016.5766,W,1,9,1.6,15,M,,M,,*54
06/09/2014	02:04:57.571	$GPGGA,020458,2502.9973,N,08016.5774,W,1,9,1.6,15,M,,M,,*5E
06/09/2014	02:04:58.564	$GPGGA,020459,2502.9980,N,08016.5781,W,1,9,1.6,15,M,,M,,*59
06/09/2014	02:04:59.696	$GPGGA,020500,2502.9986,N,08016.5788,W,1,9,1.6,15,M,,M,,*5B
06/09/2014	02:05:00.659	$GPGGA,020501,2502.9993,N,08016.5796,W,1,9,1.6,15,M,,M,,*51
06/09/2014	02:05:01.670	$GPGGA,020502,2503.0000,N,08016.5803,W,1,9,1.6,15,M,,M,,*5A
06/09/2014	02:05:02.673	$GPGGA,020503,2503.0009,N,08016.5810,W,1,9,1.6,15,M,,M,,*50
06/09/2014	02:05:03.685	$GPGGA,020504,2503.0015,N,08016.5818,W,1,9,1.6,15,M,,M,,*52
06/09/2014	02:05:04.658	$GPGGA,020505,2503.0022,N,08016.5825,W,1,9,1.6,15,M,,M,,*59
06/09/2014	02:05:05.680	$GPGGA,020506,2503.0031,N,08016.5832,W,1,9,1.6,16,M,,M,,*5D
06/09/2014	02:05:06.683	$GPGGA,020507,2503.0038,N,08016.5840,W,1,9,1.6,16,M,,M,,*50
06/09/2014	02:05:07.675	$GPGGA,020508,2503.0044,N,08016.5847,W,1,9,1.6,16,M,,M,,*53
06/09/2014	02:05:08.678	$GPGGA,020509,2503.0051,N,08016.5854,W,1,9,1.6,16,M,,M,,*54
06/09/2014	02:05:09.660	$GPGGA,020510,2503.0058,N,08016.5863,W,1,9,1.6,16,M,,M,,*51
06/09/2014	02:05:10.683	$GPGGA,020511,2503.0065,N,08016.5870,W,1,9,1.6,16,M,,M,,*5C
06/09/2014	02:05:11.675	$GPGGA,020512,2503.0074,N,08016.5878,W,1,9,1.6,16,M,,M,,*57
06/09/2014	02:05:12.668	$GPGGA,020513,2503.0080,N,08016.5885,W,1,9,1.6,16,M,,M,,*5F
06/09/2014	02:05:13.680	$GPGGA,020514,2503.0087,N,08016.5892,W,1,9,1.6,16,M,,M,,*59
06/09/2014	02:05:14.665	$GPGGA,020515,2503.0094,N,08016.5900,W,1,9,1.6,16,M,,M,,*50
06/09/2014	02:05:15.685	$GPGGA,020516,2503.0101,N,08016.5908,W,1,9,1.6,16,M,,M,,*56
06/09/2014	02:05:16.688	$GPGGA,020517,2503.0108,N,08016.5915,W,1,9,1.6,16,M,,M,,*52
06/09/2014	02:05:17.662	$GPGGA,020518,2503.0115,N,08016.5923,W,1,9,1.6,16,M,,M,,*54
06/09/2014	02:05:18.675	$GPGGA,020519,2503.0122,N,08016.5932,W,1,9,1.6,17,M,,M,,*50
06/09/2014	02:05:19.676	$GPGGA,020520,2503.0129,N,08016.5939,W,1,9,1.6,17,M,,M,,*5A
06/09/2014	02:05:20.667	$GPGGA,020521,2503.0136,N,08016.5947,W,1,9,1.6,17,M,,M,,*5C
06/09/2014	02:05:21.669	$GPGGA,020522,2503.0143,N,08016.5955,W,1,9,1.6,17,M,,M,,*5E
06/09/2014	02:05:22.662	$GPGGA,020523,2503.0150,N,08016.5964,W,1,8,1.8,17,M,,M,,*50
06/09/2014	02:05:23.687	$GPGGA,020524,2503.0156,N,08016.5972,W,1,8,1.6,17,M,,M,,*58
06/09/2014	02:05:24.707	$GPGGA,020525,2503.0163,N,08016.5979,W,1,9,1.6,17,M,,M,,*55
06/09/2014	02:05:25.669	$GPGGA,020526,2503.0170,N,08016.5986,W,1,9,1.6,17,M,,M,,*54
06/09/2014	02:05:26.686	$GPGGA,020527,2503.0177,N,08016.5995,W,1,9,1.6,17,M,,M,,*50
06/09/2014	02:05:27.674	$GPGGA,020528,2503.0184,N,08016.6004,W,1,9,1.8,17,M,,M,,*5F
06/09/2014	02:05:28.707	$GPGGA,020529,2503.0191,N,08016.6009,W,1,8,1.8,17,M,,M,,*56
06/09/2014	02:05:29.669	$GPGGA,020530,2503.0199,N,08016.6017,W,1,8,1.6,17,M,,M,,*57
06/09/2014	02:05:30.682	$GPGGA,020531,2503.0206,N,08016.6026,W,1,9,1.6,17,M,,M,,*50
06/09/2014	02:05:31.694	$GPGGA,020532,2503.0213,N,08016.6033,W,1,9,1.6,17,M,,M,,*53
06/09/2014	02:05:32.809	$GPGGA,020533,2503.0220,N,08016.6040,W,1,9,1.6,17,M,,M,,*56
06/09/2014	02:05:33.669	$GPGGA,020534,2503.0227,N,08016.6049,W,1,9,1.6,17,M,,M,,*5F
06/09/2014	02:05:34.682	$GPGGA,020535,2503.0234,N,08016.6059,W,1,8,1.8,17,M,,M,,*52
06/09/2014	02:05:35.684	$GPGGA,020536,2503.0241,N,08016.6066,W,1,8,1.8,17,M,,M,,*5F
06/09/2014	02:05:36.686	$GPGGA,020537,2503.0248,N,08016.6076,W,1,8,1.8,17,M,,M,,*56
06/09/2014	02:05:37.678	$GPGGA,020538,2503.0256,N,08016.6084,W,1,8,1.8,17,M,,M,,*5B
06/09/2014	02:05:38.701	$GPGGA,020539,2503.0263,N,08016.6091,W,1,8,1.8,17,M,,M,,*58
06/09/2014	02:05:39.655	$GPGGA,020540,2503.0270,N,08016.6100,W,1,8,1.8,17,M,,M,,*5D
06/09/2014	02:05:40.648	$GPGGA,020541,2503.0277,N,08016.6109,W,1,8,1.8,17,M,,M,,*52
06/09/2014	02:05:41.540	$GPGGA,020542,2503.0284,N,08016.6116,W,1,8,1.8,17,M,,M,,*53
06/09/2014	02:05:42.533	$GPGGA,020543,2503.0292,N,08016.6124,W,1,8,1.8,17,M,,M,,*54
06/09/2014	02:05:43.555	$GPGGA,020544,2503.0299,N,08016.6132,W,1,8,1.8,17,M,,M,,*5F
06/09/2014	02:05:44.538	$GPGGA,020545,2503.0307,N,08016.6138,W,1,8,1.8,17,M,,M,,*52
06/09/2014	02:05:45.550	$GPGGA,020546,2503.0314,N,08016.6145,W,1,8,1.6,17,M,,M,,*57
06/09/2014	02:05:46.663	$GPGGA,020547,2503.0322,N,08016.6152,W,1,9,1.6,17,M,,M,,*54
06/09/2014	02:05:47.546	$GPGGA,020548,2503.0329,N,08016.6160,W,1,9,1.6,16,M,,M,,*50
06/09/2014	02:05:48.668	$GPGGA,020549,2503.0336,N,08016.6165,W,1,9,1.6,16,M,,M,,*5A
06/09/2014	02:05:49.640	$GPGGA,020550,2503.0345,N,08016.6172,W,1,9,1.6,17,M,,M,,*51
06/09/2014	02:05:50.623	$GPGGA,020551,2503.0351,N,08016.6178,W,1,9,1.6,17,M,,M,,*5F
06/09/2014	02:05:51.655	$GPGGA,020552,2503.0358,N,08016.6185,W,1,9,1.6,17,M,,M,,*57
06/09/2014	02:05:52.638	$GPGGA,020553,2503.0367,N,08016.6192,W,1,9,1.6,17,M,,M,,*5C
06/09/2014	02:05:53.639	$GPGGA,020554,2503.0375,N,08016.6200,W,1,9,1.6,17,M,,M,,*50
06/09/2014	02:05:54.632	$GPGGA,020555,2503.0383,N,08016.6207,W,1,9,1.6,17,M,,M,,*5F
06/09/2014	02:05:55.644	$GPGGA,020556,2503.0390,N,08016.6215,W,1,9,1.6,17,M,,M,,*5D
06/09/2014	02:05:56.657	$GPGGA,020557,2503.0397,N,08016.6223,W,1,9,1.6,17,M,,M,,*5E
06/09/2014	02:05:57.639	$GPGGA,020558,2503.0405,N,08016.6232,W,1,9,1.6,17,M,,M,,*5D
06/09/2014	02:05:58.642	$GPGGA,020559,2503.0412,N,08016.6240,W,1,9,1.6,17,M,,M,,*5F
06/09/2014	02:05:59.654	$GPGGA,020600,2503.0419,N,08016.6248,W,1,9,1.6,17,M,,M,,*53
06/09/2014	02:06:00.647	$GPGGA,020601,2503.0428,N,08016.6257,W,1,9,1.6,17,M,,M,,*5E
06/09/2014	02:06:01.639	$GPGGA,020602,2503.0434,N,08016.6264,W,1,9,1.6,17,M,,M,,*50
06/09/2014	02:06:02.662	$GPGGA,020603,2503.0443,N,08016.6272,W,1,9,1.6,17,M,,M,,*56
06/09/2014	02:06:03.644	$GPGGA,020604,2503.0451,N,08016.6279,W,1,9,1.6,17,M,,M,,*59
06/09/2014	02:06:04.657	$GPGGA,020605,2503.0458,N,08016.6288,W,1,9,1.6,17,M,,M,,*5F
06/09/2014	02:06:05.640	$GPGGA,020606,2503.0466,N,08016.6297,W,1,9,1.8,17,M,,M,,*51
06/09/2014	02:06:06.662	$GPGGA,020607,2503.0473,N,08016.6304,W,1,8,1.8,17,M,,M,,*5E
06/09/2014	02:06:07.645	$GPGGA,020608,2503.0480,N,08016.6313,W,1,8,1.8,17,M,,M,,*5B
06/09/2014	02:06:08.667	$GPGGA,020609,2503.0488,N,08016.6322,W,1,8,1.8,17,M,,M,,*50
06/09/2014	02:06:09.652	$GPGGA,020610,2503.0495,N,08016.6329,W,1,8,1.8,17,M,,M,,*5F
06/09/2014	02:06:10.634	$GPGGA,020611,2503.0504,N,08016.6337,W,1,8,1.8,17,M,,M,,*58
06/09/2014	02:06:11.643	$GPGGA,020612,2503.0512,N,08016.6345,W,1,8,1.8,17,M,,M,,*59
06/09/2014	02:06:12.666	$GPGGA,020613,2503.0519,N,08016.6353,W,1,8,1.8,17,M,,M,,*54
06/09/2014	02:06:13.638	$GPGGA,020614,2503.0527,N,08016.6359,W,1,8,1.8,17,M,,M,,*54
06/09/2014	02:06:14.681	$GPGGA,020615,2503.0535,N,08016.6367,W,1,9,1.6,16,M,,M,,*55
06/09/2014	02:06:15.664	$GPGGA,020616,2503.0542,N,08016.6374,W,1,9,1.8,16,M,,M,,*5A
06/09/2014	02:06:16.686	$GPGGA,020617,2503.0551,N,08016.6381,W,1,9,1.6,16,M,,M,,*5D
06/09/2014	02:06:17.638	$GPGGA,020618,2503.0559,N,08016.6387,W,1,9,1.6,16,M,,M,,*5C
06/09/2014	02:06:18.641	$GPGGA,020619,2503.0567,N,08016.6395,W,1,9,1.6,16,M,,M,,*53
06/09/2014	02:06:19.681	$GPGGA,020620,2503.0574,N,08016.6403,W,1,9,1.6,16,M,,M,,*53
06/09/2014	02:06:20.656	$GPGGA,020621,2503.0582,N,08016.6410,W,1,9,1.6,16,M,,M,,*59
06/09/2014	02:06:21.638	$GPGGA,020622,2503.0589,N,08016.6418,W,1,9,1.6,16,M,,M,,*59
06/09/2014	02:06:22.651	$GPGGA,020623,2503.0596,N,08016.6427,W,1,9,1.6,16,M,,M,,*5A
06/09/2014	02:06:23.653	$GPGGA,020624,2503.0605,N,08016.6434,W,1,9,1.6,16,M,,M,,*56
06/09/2014	02:06:24.636	$GPGGA,020625,2503.0611,N,08016.6441,W,1,9,1.6,16,M,,M,,*50
06/09/2014	02:06:25.658	$GPGGA,020626,2503.0620,N,08016.6449,W,1,9,1.6,16,M,,M,,*59
06/09/2014	02:06:26.662	$GPGGA,020627,2503.0627,N,08016.6456,W,1,9,1.6,16,M,,M,,*51
06/09/2014	02:06:27.673	$GPGGA,020628,2503.0634,N,08016.6464,W,1,9,1.6,16,M,,M,,*5D
06/09/2014	02:06:28.785	$GPGGA,020629,2503.0642,N,08016.6471,W,1,9,1.6,16,M,,M,,*59
06/09/2014	02:06:29.747	$GPGGA,020630,2503.0649,N,08016.6478,W,1,9,1.6,16,M,,M,,*53
06/09/2014	02:06:30.651	$GPGGA,020631,2503.0656,N,08016.6485,W,1,9,1.6,16,M,,M,,*5E
06/09/2014	02:06:31.772	$GPGGA,020632,2503.0663,N,08016.6490,W,1,9,1.6,16,M,,M,,*5F
06/09/2014	02:06:32.665	$GPGGA,020633,2503.0669,N,08016.6496,W,1,9,1.6,16,M,,M,,*52
06/09/2014	02:06:33.757	$GPGGA,020634,2503.0676,N,08016.6501,W,1,9,1.6,16,M,,M,,*54
06/09/2014	02:06:34.780	$GPGGA,020635,2503.0683,N,08016.6507,W,1,9,1.6,16,M,,M,,*59
06/09/2014	02:06:35.772	$GPGGA,020636,2503.0690,N,08016.6511,W,1,9,1.6,16,M,,M,,*5F
06/09/2014	02:06:36.775	$GPGGA,020637,2503.0696,N,08016.6517,W,1,9,1.6,16,M,,M,,*5E
06/09/2014	02:06:37.657	$GPGGA,020638,2503.0703,N,08016.6524,W,1,9,1.6,16,M,,M,,*5C
06/09/2014	02:06:38.780	$GPGGA,020639,2503.0708,N,08016.6530,W,1,8,1.6,16,M,,M,,*52
06/09/2014	02:06:39.634	$GPGGA,020640,2503.0715,N,08016.6535,W,1,8,1.8,17,M,,M,,*5A
06/09/2014	02:06:40.627	$GPGGA,020641,2503.0722,N,08016.6542,W,1,8,1.8,17,M,,M,,*5F
06/09/2014	02:06:41.609	$GPGGA,020642,2503.0728,N,08016.6546,W,1,8,1.8,17,M,,M,,*52
06/09/2014	02:06:42.612	$GPGGA,020643,2503.0734,N,08016.6551,W,1,8,1.8,17,M,,M,,*58
06/09/2014	02:06:43.644	$GPGGA,020644,2503.0741,N,08016.6555,W,1,8,1.8,17,M,,M,,*59
06/09/2014	02:06:44.597	$GPGGA,020645,2503.0747,N,08016.6561,W,1,8,1.8,17,M,,M,,*59
06/09/2014	02:06:45.619	$GPGGA,020646,2503.0754,N,08016.6564,W,1,8,1.8,17,M,,M,,*5D
06/09/2014	02:06:46.621	$GPGGA,020647,2503.0759,N,08016.6568,W,1,8,1.8,16,M,,M,,*5C
06/09/2014	02:06:47.623	$GPGGA,020648,2503.0766,N,08016.6572,W,1,8,1.8,16,M,,M,,*54
06/09/2014	02:06:48.606	$GPGGA,020649,2503.0772,N,08016.6576,W,1,8,1.8,16,M,,M,,*54
06/09/2014	02:06:49.608	$GPGGA,020650,2503.0777,N,08016.6580,W,1,8,1.8,16,M,,M,,*50
06/09/2014	02:06:50.611	$GPGGA,020651,2503.0784,N,08016.6583,W,1,8,1.8,16,M,,M,,*5E
06/09/2014	02:06:51.623	$GPGGA,020652,2503.0790,N,08016.6587,W,1,8,1.8,16,M,,M,,*5C
06/09/2014	02:06:52.626	$GPGGA,020653,2503.0795,N,08016.6590,W,1,8,1.8,16,M,,M,,*5E
06/09/2014	02:06:53.618	$GPGGA,020654,2503.0802,N,08016.6593,W,1,8,1.8,16,M,,M,,*5B
06/09/2014	02:06:54.631	$GPGGA,020655,2503.0806,N,08016.6597,W,1,8,1.8,16,M,,M,,*5A
06/09/2014	02:06:55.623	$GPGGA,020656,2503.0813,N,08016.6600,W,1,8,1.8,16,M,,M,,*50
06/09/2014	02:06:56.626	$GPGGA,020657,2503.0819,N,08016.6602,W,1,8,1.8,16,M,,M,,*59
06/09/2014	02:06:57.618	$GPGGA,020658,2503.0824,N,08016.6604,W,1,8,1.9,16,M,,M,,*5F
06/09/2014	02:06:58.641	$GPGGA,020659,2503.0830,N,08016.6608,W,1,8,1.9,16,M,,M,,*57
06/09/2014	02:06:59.633	$GPGGA,020700,2503.0835,N,08016.6609,W,1,8,1.9,16,M,,M,,*5E
06/09/2014	02:07:00.606	$GPGGA,020701,2503.0842,N,08016.6612,W,1,8,1.9,16,M,,M,,*55
06/09/2014	02:07:01.618	$GPGGA,020702,2503.0846,N,08016.6615,W,1,8,1.9,16,M,,M,,*55
06/09/2014	02:07:02.641	$GPGGA,020703,2503.0853,N,08016.6616,W,1,8,1.9,16,M,,M,,*53
06/09/2014	02:07:03.622	$GPGGA,020704,2503.0858,N,08016.6619,W,1,8,1.8,16,M,,M,,*51
06/09/2014	02:07:04.615	$GPGGA,020705,2503.0863,N,08016.6620,W,1,8,1.8,16,M,,M,,*52
06/09/2014	02:07:05.637	$GPGGA,020706,2503.0869,N,08016.6622,W,1,8,1.8,15,M,,M,,*5A
06/09/2014	02:07:06.630	$GPGGA,020707,2503.0874,N,08016.6626,W,1,8,1.8,15,M,,M,,*53
06/09/2014	02:07:07.634	$GPGGA,020708,2503.0880,N,08016.6627,W,1,8,1.8,15,M,,M,,*56
06/09/2014	02:07:08.635	$GPGGA,020709,2503.0885,N,08016.6629,W,1,8,1.8,15,M,,M,,*5C
06/09/2014	02:07:09.727	$GPGGA,020710,2503.0891,N,08016.6631,W,1,8,1.8,15,M,,M,,*58
06/09/2014	02:07:10.640	$GPGGA,020711,2503.0896,N,08016.6633,W,1,8,1.9,15,M,,M,,*5D
06/09/2014	02:07:11.722	$GPGGA,020712,2503.0902,N,08016.6634,W,1,8,1.9,15,M,,M,,*55
06/09/2014	02:07:12.635	$GPGGA,020713,2503.0907,N,08016.6637,W,1,8,1.9,15,M,,M,,*52
06/09/2014	02:07:13.617	$GPGGA,020714,2503.0911,N,08016.6635,W,1,8,1.6,15,M,,M,,*5F
06/09/2014	02:07:14.640	$GPGGA,020715,2503.0918,N,08016.6640,W,1,9,1.6,15,M,,M,,*54
06/09/2014	02:07:15.642	$GPGGA,020716,2503.0923,N,08016.6640,W,1,9,1.6,15,M,,M,,*5F
06/09/2014	02:07:16.725	$GPGGA,020717,2503.0928,N,08016.6641,W,1,9,1.6,15,M,,M,,*54
06/09/2014	02:07:17.617	$GPGGA,020718,2503.0932,N,08016.6642,W,1,9,1.6,15,M,,M,,*53
06/09/2014	02:07:18.660	$GPGGA,020719,2503.0939,N,08016.6644,W,1,9,1.6,15,M,,M,,*5F
06/09/2014	02:07:19.742	$GPGGA,020720,2503.0943,N,08016.6645,W,1,9,1.6,15,M,,M,,*59
06/09/2014	02:07:20.645	$GPGGA,020721,2503.0949,N,08016.6647,W,1,9,1.6,15,M,,M,,*50
06/09/2014	02:07:21.716	$GPGGA,020722,2503.0954,N,08016.6648,W,1,9,1.6,15,M,,M,,*50
06/09/2014	02:07:22.629	$GPGGA,020723,2503.0958,N,08016.6649,W,1,9,1.6,15,M,,M,,*5C
06/09/2014	02:07:23.721	$GPGGA,020724,2503.0964,N,08016.6651,W,1,9,1.6,15,M,,M,,*5D
06/09/2014	02:07:24.714	$GPGGA,020725,2503.0968,N,08016.6651,W,1,9,1.6,15,M,,M,,*50
06/09/2014	02:07:25.716	$GPGGA,020726,2503.0974,N,08016.6652,W,1,9,1.6,15,M,,M,,*5D
06/09/2014	02:07:26.749	$GPGGA,020727,2503.0979,N,08016.6652,W,1,9,1.6,15,M,,M,,*51
06/09/2014	02:07:27.721	$GPGGA,020728,2503.0983,N,08016.6654,W,1,9,1.6,15,M,,M,,*5D
06/09/2014	02:07:28.744	$GPGGA,020729,2503.0983,N,08016.6654,W,1,9,1.6,15,M,,M,,*5C
06/09/2014	02:07:29.726	$GPGGA,020730,2503.0993,N,08016.6655,W,1,9,1.6,15,M,,M,,*54
06/09/2014	02:07:30.719	$GPGGA,020731,2503.0999,N,08016.6654,W,1,9,1.6,15,M,,M,,*5E
06/09/2014	02:07:31.731	$GPGGA,020732,2503.1004,N,08016.6655,W,1,9,1.6,15,M,,M,,*50
06/09/2014	02:07:32.745	$GPGGA,020733,2503.1008,N,08016.6656,W,1,9,1.6,14,M,,M,,*5F
06/09/2014	02:07:33.726	$GPGGA,020734,2503.1014,N,08016.6656,W,1,9,1.6,14,M,,M,,*55
06/09/2014	02:07:34.739	$GPGGA,020735,2503.1019,N,08016.6658,W,1,8,1.9,14,M,,M,,*59
06/09/2014	02:07:35.741	$GPGGA,020736,2503.1023,N,08016.6657,W,1,8,1.9,14,M,,M,,*5C
06/09/2014	02:07:36.734	$GPGGA,020737,2503.1028,N,08016.6658,W,1,8,1.9,14,M,,M,,*59
06/09/2014	02:07:37.718	$GPGGA,020738,2503.1033,N,08016.6658,W,1,8,1.9,14,M,,M,,*5C
06/09/2014	02:07:38.728	$GPGGA,020739,2503.1037,N,08016.6658,W,1,8,1.9,14,M,,M,,*59
06/09/2014	02:07:39.579	$GPGGA,020740,2503.1043,N,08016.6658,W,1,8,1.9,14,M,,M,,*54
06/09/2014	02:07:40.586	$GPGGA,020741,2503.1048,N,08016.6658,W,1,8,1.9,14,M,,M,,*5E
06/09/2014	02:07:41.582	$GPGGA,020742,2503.1051,N,08016.6658,W,1,8,1.6,14,M,,M,,*5A
06/09/2014	02:07:42.611	$GPGGA,020743,2503.1057,N,08016.6658,W,1,9,1.6,14,M,,M,,*5C
06/09/2014	02:07:43.585	$GPGGA,020744,2503.1062,N,08016.6658,W,1,9,1.6,14,M,,M,,*5D
06/09/2014	02:07:44.606	$GPGGA,020745,2503.1066,N,08016.6658,W,1,9,1.6,14,M,,M,,*58
06/09/2014	02:07:45.589	$GPGGA,020746,2503.1072,N,08016.6658,W,1,9,1.6,14,M,,M,,*5E
06/09/2014	02:07:46.581	$GPGGA,020747,2503.1077,N,08016.6658,W,1,9,1.6,14,M,,M,,*5A
06/09/2014	02:07:47.597	$GPGGA,020748,2503.1082,N,08016.6657,W,1,9,1.6,14,M,,M,,*50
06/09/2014	02:07:48.578	$GPGGA,020749,2503.1087,N,08016.6658,W,1,9,1.6,14,M,,M,,*5B
06/09/2014	02:07:49.605	$GPGGA,020750,2503.1091,N,08016.6656,W,1,9,1.6,14,M,,M,,*5A
06/09/2014	02:07:50.581	$GPGGA,020751,2503.1097,N,08016.6656,W,1,9,1.6,14,M,,M,,*5D
06/09/2014	02:07:51.605	$GPGGA,020752,2503.1101,N,08016.6655,W,1,9,1.6,14,M,,M,,*53
06/09/2014	02:07:52.586	$GPGGA,020753,2503.1105,N,08016.6655,W,1,9,1.6,14,M,,M,,*56
06/09/2014	02:07:53.588	$GPGGA,020754,2503.1111,N,08016.6654,W,1,9,1.6,14,M,,M,,*55
06/09/2014	02:07:54.691	$GPGGA,020755,2503.1116,N,08016.6653,W,1,9,1.6,14,M,,M,,*54
06/09/2014	02:07:55.584	$GPGGA,020756,2503.1120,N,08016.6654,W,1,9,1.6,15,M,,M,,*54
06/09/2014	02:07:56.621	$GPGGA,020757,2503.1126,N,08016.6652,W,1,9,1.6,15,M,,M,,*55
06/09/2014	02:07:57.587	$GPGGA,020758,2503.1130,N,08016.6652,W,1,9,1.6,15,M,,M,,*5D
06/09/2014	02:07:58.600	$GPGGA,020759,2503.1134,N,08016.6651,W,1,9,1.6,15,M,,M,,*5B
06/09/2014	02:07:59.621	$GPGGA,020800,2503.1140,N,08016.6651,W,1,9,1.6,15,M,,M,,*5B
06/09/2014	02:08:00.685	$GPGGA,020801,2503.1144,N,08016.6651,W,1,9,1.6,15,M,,M,,*5E
06/09/2014	02:08:01.597	$GPGGA,020802,2503.1149,N,08016.6650,W,1,9,1.6,15,M,,M,,*51
06/09/2014	02:08:02.680	$GPGGA,020803,2503.1152,N,08016.6651,W,1,9,1.6,15,M,,M,,*5B
06/09/2014	02:08:03.592	$GPGGA,020804,2503.1158,N,08016.6649,W,1,9,1.6,15,M,,M,,*5F
06/09/2014	02:08:04.685	$GPGGA,020805,2503.1162,N,08016.6649,W,1,9,1.6,15,M,,M,,*57
06/09/2014	02:08:05.597	$GPGGA,020806,2503.1167,N,08016.6648,W,1,9,1.6,15,M,,M,,*50
06/09/2014	02:08:06.600	$GPGGA,020807,2503.1171,N,08016.6648,W,1,9,1.6,15,M,,M,,*56
06/09/2014	02:08:07.712	$GPGGA,020808,2503.1176,N,08016.6647,W,1,9,1.6,15,M,,M,,*51
06/09/2014	02:08:08.595	$GPGGA,020809,2503.1181,N,08016.6647,W,1,9,1.6,15,M,,M,,*58
06/09/2014	02:08:09.597	$GPGGA,020810,2503.1185,N,08016.6646,W,1,9,1.6,15,M,,M,,*55
06/09/2014	02:08:10.600	$GPGGA,020811,2503.1189,N,08016.6645,W,1,9,1.6,15,M,,M,,*5B
06/09/2014	02:08:11.702	$GPGGA,020812,2503.1194,N,08016.6644,W,1,9,1.6,15,M,,M,,*55
06/09/2014	02:08:12.685	$GPGGA,020813,2503.1199,N,08016.6642,W,1,9,1.6,15,M,,M,,*5F
06/09/2014	02:08:13.586	$GPGGA,020814,2503.1203,N,08016.6640,W,1,9,2.1,15,M,,M,,*5E
06/09/2014	02:08:14.719	$GPGGA,020815,2503.1209,N,08016.6639,W,1,8,2.1,15,M,,M,,*5A
06/09/2014	02:08:15.711	$GPGGA,020816,2503.1214,N,08016.6638,W,1,8,1.6,15,M,,M,,*50
06/09/2014	02:08:16.714	$GPGGA,020817,2503.1217,N,08016.6638,W,1,9,1.6,15,M,,M,,*53
06/09/2014	02:08:17.686	$GPGGA,020818,2503.1221,N,08016.6637,W,1,9,1.6,15,M,,M,,*56
06/09/2014	02:08:18.709	$GPGGA,020819,2503.1225,N,08016.6636,W,1,9,1.6,15,M,,M,,*52
06/09/2014	02:08:19.711	$GPGGA,020820,2503.1231,N,08016.6637,W,1,9,1.6,15,M,,M,,*5C
06/09/2014	02:08:20.704	$GPGGA,020821,2503.1235,N,08016.6635,W,1,9,1.6,15,M,,M,,*5B
06/09/2014	02:08:21.696	$GPGGA,020822,2503.1239,N,08016.6634,W,1,9,1.6,15,M,,M,,*55
06/09/2014	02:08:22.719	$GPGGA,020823,2503.1243,N,08016.6633,W,1,9,1.6,15,M,,M,,*5E
06/09/2014	02:08:23.701	$GPGGA,020824,2503.1247,N,08016.6633,W,1,9,1.6,15,M,,M,,*5D
06/09/2014	02:08:24.714	$GPGGA,020825,2503.1253,N,08016.6632,W,1,9,1.6,15,M,,M,,*58
06/09/2014	02:08:25.686	$GPGGA,020826,2503.1257,N,08016.6633,W,1,9,1.6,15,M,,M,,*5E
06/09/2014	02:08:26.709	$GPGGA,020827,2503.1261,N,08016.6631,W,1,9,1.6,15,M,,M,,*58
06/09/2014	02:08:27.711	$GPGGA,020828,2503.1265,N,08016.6630,W,1,9,1.6,15,M,,M,,*52
06/09/2014	02:08:28.698	$GPGGA,020829,2503.1270,N,08016.6629,W,1,9,1.6,15,M,,M,,*5F
06/09/2014	02:08:29.699	$GPGGA,020830,2503.1274,N,08016.6628,W,1,9,1.6,15,M,,M,,*52
06/09/2014	02:08:30.696	$GPGGA,020831,2503.1278,N,08016.6627,W,1,9,1.6,15,M,,M,,*50
06/09/2014	02:08:31.700	$GPGGA,020832,2503.1283,N,08016.6626,W,1,9,1.6,15,M,,M,,*56
06/09/2014	02:08:32.733	$GPGGA,020833,2503.1286,N,08016.6625,W,1,9,1.6,15,M,,M,,*51
06/09/2014	02:08:33.715	$GPGGA,020834,2503.1290,N,08016.6623,W,1,9,1.6,15,M,,M,,*57
06/09/2014	02:08:34.718	$GPGGA,020835,2503.1294,N,08016.6622,W,1,9,1.6,15,M,,M,,*53
06/09/2014	02:08:35.704	$GPGGA,020836,2503.1300,N,08016.6621,W,1,9,1.6,15,M,,M,,*5F
06/09/2014	02:08:36.705	$GPGGA,020837,2503.1304,N,08016.6619,W,1,9,1.6,16,M,,M,,*52
06/09/2014	02:08:37.713	$GPGGA,020838,2503.1308,N,08016.6618,W,1,9,1.6,16,M,,M,,*50
06/09/2014	02:08:38.725	$GPGGA,020839,2503.1312,N,08016.6617,W,1,9,1.6,16,M,,M,,*55
06/09/2014	02:08:39.552	$GPGGA,020840,2503.1317,N,08016.6615,W,1,9,1.6,16,M,,M,,*5C
06/09/2014	02:08:40.575	$GPGGA,020841,2503.1321,N,08016.6614,W,1,9,1.6,16,M,,M,,*59
06/09/2014	02:08:41.568	$GPGGA,020842,2503.1329,N,08016.6612,W,1,9,1.7,16,M,,M,,*55
06/09/2014	02:08:42.570	$GPGGA,020843,2503.1333,N,08016.6610,W,1,9,1.6,16,M,,M,,*5C
06/09/2014	02:08:43.562	$GPGGA,020844,2503.1337,N,08016.6609,W,1,9,1.7,16,M,,M,,*56
06/09/2014	02:08:44.575	$GPGGA,020845,2503.1340,N,08016.6608,W,1,9,1.6,16,M,,M,,*57
06/09/2014	02:08:45.558	$GPGGA,020846,2503.1343,N,08016.6607,W,1,9,1.7,16,M,,M,,*59
06/09/2014	02:08:46.670	$GPGGA,020847,2503.1347,N,08016.6606,W,1,9,1.6,16,M,,M,,*5C
06/09/2014	02:08:47.590	$GPGGA,020848,2503.1351,N,08016.6604,W,1,9,1.6,16,M,,M,,*56
06/09/2014	02:08:48.544	$GPGGA,020849,2503.1357,N,08016.6603,W,1,9,1.6,16,M,,M,,*56
06/09/2014	02:08:49.556	$GPGGA,020850,2503.1362,N,08016.6601,W,1,9,1.6,16,M,,M,,*5A
06/09/2014	02:08:50.549	$GPGGA,020851,2503.1368,N,08016.6598,W,1,9,1.6,16,M,,M,,*52
06/09/2014	02:08:51.681	$GPGGA,020852,2503.1373,N,08016.6597,W,1,9,1.6,16,M,,M,,*54
06/09/2014	02:08:52.694	$GPGGA,020853,2503.1377,N,08016.6595,W,1,9,1.6,16,M,,M,,*53
06/09/2014	02:08:53.646	$GPGGA,020854,2503.1383,N,08016.6593,W,1,9,1.6,16,M,,M,,*59
06/09/2014	02:08:54.569	$GPGGA,020855,2503.1387,N,08016.6591,W,1,9,1.6,16,M,,M,,*5E
06/09/2014	02:08:55.681	$GPGGA,020856,2503.1393,N,08016.6590,W,1,9,1.6,16,M,,M,,*59
06/09/2014	02:08:56.564	$GPGGA,020857,2503.1398,N,08016.6588,W,1,9,1.6,16,M,,M,,*5A
06/09/2014	02:08:57.656	$GPGGA,020858,2503.1402,N,08016.6587,W,1,9,1.6,16,M,,M,,*5E
06/09/2014	02:08:58.669	$GPGGA,020859,2503.1408,N,08016.6585,W,1,8,1.7,16,M,,M,,*57
06/09/2014	02:08:59.681	$GPGGA,020900,2503.1411,N,08016.6582,W,1,8,1.7,16,M,,M,,*55
06/09/2014	02:09:00.664	$GPGGA,020901,2503.1415,N,08016.6580,W,1,9,1.6,15,M,,M,,*51
06/09/2014	02:09:01.666	$GPGGA,020902,2503.1418,N,08016.6578,W,1,9,1.6,15,M,,M,,*58
06/09/2014	02:09:02.659	$GPGGA,020903,2503.1422,N,08016.6576,W,1,9,1.6,15,M,,M,,*5E
06/09/2014	02:09:03.661	$GPGGA,020904,2503.1426,N,08016.6574,W,1,9,1.6,15,M,,M,,*5F
06/09/2014	02:09:04.674	$GPGGA,020905,2503.1431,N,08016.6572,W,1,9,1.6,15,M,,M,,*5E
06/09/2014	02:09:05.666	$GPGGA,020906,2503.1434,N,08016.6570,W,1,9,1.6,15,M,,M,,*5A
06/09/2014	02:09:06.699	$GPGGA,020907,2503.1440,N,08016.6568,W,1,9,1.6,15,M,,M,,*51
06/09/2014	02:09:07.700	$GPGGA,020908,2503.1444,N,08016.6566,W,1,9,1.6,15,M,,M,,*54
06/09/2014	02:09:08.663	$GPGGA,020909,2503.1449,N,08016.6564,W,1,9,1.6,15,M,,M,,*5A
06/09/2014	02:09:09.665	$GPGGA,020910,2503.1452,N,08016.6563,W,1,9,1.6,15,M,,M,,*5F
06/09/2014	02:09:10.688	$GPGGA,020911,2503.1458,N,08016.6561,W,1,9,1.6,14,M,,M,,*57
06/09/2014	02:09:11.680	$GPGGA,020912,2503.1463,N,08016.6559,W,1,9,1.6,14,M,,M,,*57
06/09/2014	02:09:12.653	$GPGGA,020913,2503.1467,N,08016.6557,W,1,9,1.6,14,M,,M,,*5C
06/09/2014	02:09:13.665	$GPGGA,020914,2503.1470,N,08016.6555,W,1,9,1.6,14,M,,M,,*5F
06/09/2014	02:09:14.688	$GPGGA,020915,2503.1476,N,08016.6553,W,1,8,1.7,14,M,,M,,*5E
06/09/2014	02:09:15.680	$GPGGA,020916,2503.1480,N,08016.6551,W,1,8,1.7,14,M,,M,,*56
06/09/2014	02:09:16.693	$GPGGA,020917,2503.1484,N,08016.6549,W,1,8,1.7,14,M,,M,,*5A
06/09/2014	02:09:17.667	$GPGGA,020918,2503.1488,N,08016.6547,W,1,8,1.6,14,M,,M,,*56
06/09/2014	02:09:18.688	$GPGGA,020919,2503.1492,N,08016.6546,W,1,8,1.7,14,M,,M,,*5C
06/09/2014	02:09:19.690	$GPGGA,020920,2503.1498,N,08016.6544,W,1,8,1.7,14,M,,M,,*5E
06/09/2014	02:09:20.666	$GPGGA,020921,2503.1503,N,08016.6542,W,1,9,1.6,14,M,,M,,*5A
06/09/2014	02:09:21.665	$GPGGA,020922,2503.1509,N,08016.6540,W,1,9,1.6,14,M,,M,,*51
06/09/2014	02:09:22.708	$GPGGA,020923,2503.1514,N,08016.6539,W,1,9,1.6,14,M,,M,,*52
06/09/2014	02:09:23.689	$GPGGA,020924,2503.1518,N,08016.6538,W,1,9,1.6,14,M,,M,,*58
06/09/2014	02:09:24.664	$GPGGA,020925,2503.1524,N,08016.6536,W,1,9,1.6,14,M,,M,,*58
06/09/2014	02:09:25.664	$GPGGA,020926,2503.1528,N,08016.6534,W,1,9,1.6,14,M,,M,,*55
06/09/2014	02:09:26.667	$GPGGA,020927,2503.1532,N,08016.6533,W,1,9,1.6,14,M,,M,,*58
06/09/2014	02:09:27.689	$GPGGA,020928,2503.1535,N,08016.6531,W,1,9,1.6,14,M,,M,,*52
06/09/2014	02:09:28.682	$GPGGA,020929,2503.1539,N,08016.6529,W,1,8,1.7,14,M,,M,,*56
06/09/2014	02:09:29.685	$GPGGA,020930,2503.1543,N,08016.6528,W,1,8,1.7,14,M,,M,,*52
06/09/2014	02:09:30.677	$GPGGA,020931,2503.1548,N,08016.6526,W,1,9,1.6,14,M,,M,,*56
06/09/2014	02:09:31.699	$GPGGA,020932,2503.1553,N,08016.6525,W,1,9,1.6,14,M,,M,,*5C
06/09/2014	02:09:32.682	$GPGGA,020933,2503.1560,N,08016.6523,W,1,9,1.6,14,M,,M,,*5B
06/09/2014	02:09:33.674	$GPGGA,020934,2503.1564,N,08016.6522,W,1,9,1.6,14,M,,M,,*59
06/09/2014	02:09:34.698	$GPGGA,020935,2503.1568,N,08016.6520,W,1,9,1.6,14,M,,M,,*56
06/09/2014	02:09:35.679	$GPGGA,020936,2503.1574,N,08016.6518,W,1,9,1.6,14,M,,M,,*53
06/09/2014	02:09:36.872	$GPGGA,020937,2503.1577,N,08016.6516,W,1,9,1.6,14,M,,M,,*5F
06/09/2014	02:09:37.684	$GPGGA,020938,2503.1581,N,08016.6514,W,1,9,1.6,14,M,,M,,*5B
06/09/2014	02:09:38.867	$GPGGA,020939,2503.1585,N,08016.6513,W,1,9,1.6,14,M,,M,,*59
06/09/2014	02:09:39.532	$GPGGA,020940,2503.1589,N,08016.6510,W,1,9,1.6,14,M,,M,,*58
06/09/2014	02:09:40.714	$GPGGA,020941,2503.1593,N,08016.6508,W,1,9,1.6,14,M,,M,,*5B
06/09/2014	02:09:41.656	$GPGGA,020942,2503.1597,N,08016.6506,W,1,9,1.6,14,M,,M,,*52
06/09/2014	02:09:42.709	$GPGGA,020943,2503.1600,N,08016.6505,W,1,9,1.6,14,M,,M,,*5D
06/09/2014	02:09:43.682	$GPGGA,020944,2503.1604,N,08016.6502,W,1,9,1.6,14,M,,M,,*59
06/09/2014	02:09:44.624	$GPGGA,020945,2503.1608,N,08016.6500,W,1,9,1.6,14,M,,M,,*56
06/09/2014	02:09:45.626	$GPGGA,020946,2503.1613,N,08016.6497,W,1,9,1.6,14,M,,M,,*50
06/09/2014	02:09:46.619	$GPGGA,020947,2503.1617,N,08016.6495,W,1,9,1.6,14,M,,M,,*57
06/09/2014	02:09:47.688	$GPGGA,020948,2503.1619,N,08016.6493,W,1,9,1.6,14,M,,M,,*50
06/09/2014	02:09:48.734	$GPGGA,020949,2503.1624,N,08016.6491,W,1,9,1.6,14,M,,M,,*5D
06/09/2014	02:09:49.626	$GPGGA,020950,2503.1628,N,08016.6489,W,1,9,1.6,14,M,,M,,*50
06/09/2014	02:09:50.719	$GPGGA,020951,2503.1632,N,08016.6486,W,1,9,1.6,14,M,,M,,*55
06/09/2014	02:09:51.671	$GPGGA,020952,2503.1635,N,08016.6484,W,1,9,1.6,14,M,,M,,*53
06/09/2014	02:09:52.624	$GPGGA,020953,2503.1639,N,08016.6482,W,1,9,1.6,14,M,,M,,*58
06/09/2014	02:09:53.656	$GPGGA,020954,2503.1643,N,08016.6480,W,1,9,1.6,15,M,,M,,*51
06/09/2014	02:09:54.729	$GPGGA,020955,2503.1647,N,08016.6478,W,1,9,1.6,15,M,,M,,*53
06/09/2014	02:09:55.641	$GPGGA,020956,2503.1650,N,08016.6475,W,1,9,1.6,15,M,,M,,*5B
06/09/2014	02:09:56.694	$GPGGA,020957,2503.1654,N,08016.6473,W,1,9,1.6,15,M,,M,,*58
06/09/2014	02:09:57.656	$GPGGA,020958,2503.1658,N,08016.6471,W,1,9,1.6,15,M,,M,,*59
06/09/2014	02:09:58.738	$GPGGA,020959,2503.1662,N,08016.6469,W,1,9,1.6,15,M,,M,,*58
06/09/2014	02:09:59.680	$GPGGA,021000,2503.1665,N,08016.6467,W,1,9,1.6,15,M,,M,,*55
06/09/2014	02:10:00.725	$GPGGA,021001,2503.1669,N,08016.6464,W,1,9,1.6,15,M,,M,,*5B
06/09/2014	02:10:01.655	$GPGGA,021002,2503.1673,N,08016.6462,W,1,9,1.6,15,M,,M,,*55
06/09/2014	02:10:02.758	$GPGGA,021003,2503.1676,N,08016.6460,W,1,9,1.6,15,M,,M,,*53
06/09/2014	02:10:03.670	$GPGGA,021004,2503.1680,N,08016.6457,W,1,9,1.6,15,M,,M,,*59
06/09/2014	02:10:04.753	$GPGGA,021005,2503.1684,N,08016.6454,W,1,9,1.6,15,M,,M,,*5F
06/09/2014	02:10:05.641	$GPGGA,021006,2503.1687,N,08016.6452,W,1,9,1.6,15,M,,M,,*59
06/09/2014	02:10:06.738	$GPGGA,021007,2503.1691,N,08016.6450,W,1,9,1.6,15,M,,M,,*5D
06/09/2014	02:10:07.648	$GPGGA,021008,2503.1695,N,08016.6447,W,1,9,1.6,15,M,,M,,*50
06/09/2014	02:10:08.753	$GPGGA,021009,2503.1698,N,08016.6445,W,1,9,1.6,15,M,,M,,*5E
06/09/2014	02:10:09.675	$GPGGA,021010,2503.1702,N,08016.6442,W,1,9,1.7,15,M,,M,,*52
06/09/2014	02:10:10.628	$GPGGA,021011,2503.1705,N,08016.6439,W,1,8,1.7,15,M,,M,,*59
06/09/2014	02:10:11.690	$GPGGA,021012,2503.1709,N,08016.6437,W,1,8,1.7,15,M,,M,,*58
06/09/2014	02:10:12.753	$GPGGA,021013,2503.1715,N,08016.6435,W,1,9,1.6,15,M,,M,,*56
06/09/2014	02:10:13.664	$GPGGA,021014,2503.1719,N,08016.6432,W,1,9,1.6,15,M,,M,,*5A
06/09/2014	02:10:14.708	$GPGGA,021015,2503.1723,N,08016.6430,W,1,9,1.6,15,M,,M,,*50
06/09/2014	02:10:15.679	$GPGGA,021016,2503.1727,N,08016.6428,W,1,9,1.6,15,M,,M,,*5E
06/09/2014	02:10:16.722	$GPGGA,021017,2503.1730,N,08016.6425,W,1,9,1.6,15,M,,M,,*54
06/09/2014	02:10:17.684	$GPGGA,021018,2503.1734,N,08016.6423,W,1,9,1.6,15,M,,M,,*59
06/09/2014	02:10:18.637	$GPGGA,021019,2503.1738,N,08016.6420,W,1,9,1.6,15,M,,M,,*57
06/09/2014	02:10:19.649	$GPGGA,021020,2503.1741,N,08016.6418,W,1,9,1.6,15,M,,M,,*58
06/09/2014	02:10:20.632	$GPGGA,021021,2503.1745,N,08016.6415,W,1,9,1.6,15,M,,M,,*50
06/09/2014	02:10:21.734	$GPGGA,021022,2503.1749,N,08016.6414,W,1,9,1.6,15,M,,M,,*5E
06/09/2014	02:10:22.737	$GPGGA,021023,2503.1752,N,08016.6411,W,1,9,1.6,15,M,,M,,*50
06/09/2014	02:10:23.684	$GPGGA,021024,2503.1756,N,08016.6408,W,1,9,1.6,15,M,,M,,*5B
06/09/2014	02:10:24.772	$GPGGA,021025,2503.1759,N,08016.6405,W,1,9,1.6,15,M,,M,,*58
06/09/2014	02:10:25.754	$GPGGA,021026,2503.1763,N,08016.6403,W,1,9,1.6,15,M,,M,,*54
06/09/2014	02:10:26.737	$GPGGA,021027,2503.1767,N,08016.6401,W,1,9,1.6,15,M,,M,,*53
06/09/2014	02:10:27.693	$GPGGA,021028,2503.1772,N,08016.6398,W,1,9,1.6,15,M,,M,,*5F
06/09/2014	02:10:28.742	$GPGGA,021029,2503.1776,N,08016.6396,W,1,9,1.6,15,M,,M,,*54
06/09/2014	02:10:29.744	$GPGGA,021030,2503.1778,N,08016.6394,W,1,9,1.6,15,M,,M,,*50
06/09/2014	02:10:30.757	$GPGGA,021031,2503.1783,N,08016.6392,W,1,9,1.6,15,M,,M,,*53
06/09/2014	02:10:31.749	$GPGGA,021032,2503.1787,N,08016.6389,W,1,9,1.6,15,M,,M,,*5E
06/09/2014	02:10:32.792	$GPGGA,021033,2503.1791,N,08016.6387,W,1,9,1.6,15,M,,M,,*56
06/09/2014	02:10:33.743	$GPGGA,021034,2503.1794,N,08016.6384,W,1,9,1.6,15,M,,M,,*57
06/09/2014	02:10:34.746	$GPGGA,021035,2503.1798,N,08016.6382,W,1,9,1.6,15,M,,M,,*5C
06/09/2014	02:10:35.758	$GPGGA,021036,2503.1801,N,08016.6379,W,1,9,1.9,15,M,,M,,*5B
06/09/2014	02:10:36.791	$GPGGA,021037,2503.1803,N,08016.6375,W,1,8,1.6,15,M,,M,,*5A
06/09/2014	02:10:37.743	$GPGGA,021038,2503.1806,N,08016.6372,W,1,8,1.7,15,M,,M,,*56
06/09/2014	02:10:38.776	$GPGGA,021039,2503.1810,N,08016.6369,W,1,8,1.7,15,M,,M,,*5A
06/09/2014	02:10:39.610	$GPGGA,021040,2503.1814,N,08016.6366,W,1,8,1.6,15,M,,M,,*5E
06/09/2014	02:10:40.663	$GPGGA,021041,2503.1817,N,08016.6363,W,1,9,1.6,15,M,,M,,*58
06/09/2014	02:10:41.605	$GPGGA,021042,2503.1821,N,08016.6360,W,1,9,1.6,15,M,,M,,*5D
06/09/2014	02:10:42.628	$GPGGA,021043,2503.1824,N,08016.6357,W,1,9,1.6,15,M,,M,,*5D
06/09/2014	02:10:43.610	$GPGGA,021044,2503.1828,N,08016.6355,W,1,9,1.6,15,M,,M,,*54
06/09/2014	02:10:44.633	$GPGGA,021045,2503.1832,N,08016.6352,W,1,9,1.6,15,M,,M,,*59
06/09/2014	02:10:45.595	$GPGGA,021046,2503.1835,N,08016.6349,W,1,9,1.6,16,M,,M,,*54
06/09/2014	02:10:46.638	$GPGGA,021047,2503.1839,N,08016.6347,W,1,9,1.6,16,M,,M,,*57
06/09/2014	02:10:47.640	$GPGGA,021048,2503.1842,N,08016.6344,W,1,9,1.6,16,M,,M,,*57
06/09/2014	02:10:48.663	$GPGGA,021049,2503.1846,N,08016.6342,W,1,9,1.6,16,M,,M,,*54
06/09/2014	02:10:49.605	$GPGGA,021050,2503.1849,N,08016.6339,W,1,9,1.6,16,M,,M,,*5F
06/09/2014	02:10:50.637	$GPGGA,021051,2503.1850,N,08016.6336,W,1,9,1.7,16,M,,M,,*58
06/09/2014	02:10:51.619	$GPGGA,021052,2503.1853,N,08016.6334,W,1,9,1.7,16,M,,M,,*5A
06/09/2014	02:10:52.672	$GPGGA,021053,2503.1857,N,08016.6331,W,1,8,1.7,16,M,,M,,*5B
06/09/2014	02:10:54.647	$GPGGA,021055,2503.1863,N,08016.6326,W,1,8,1.7,16,M,,M,,*5C
06/09/2014	02:10:55.639	$GPGGA,021056,2503.1864,N,08016.6323,W,1,8,1.7,16,M,,M,,*5D
06/09/2014	02:10:56.642	$GPGGA,021057,2503.1868,N,08016.6320,W,1,8,1.7,16,M,,M,,*53
06/09/2014	02:10:57.634	$GPGGA,021058,2503.1871,N,08016.6318,W,1,8,1.7,16,M,,M,,*5F
06/09/2014	02:10:58.617	$GPGGA,021059,2503.1871,N,08016.6318,W,1,8,1.7,16,M,,M,,*5E
06/09/2014	02:10:59.629	$GPGGA,021100,2503.1877,N,08016.6313,W,1,8,1.7,16,M,,M,,*5E
06/09/2014	02:11:00.662	$GPGGA,021101,2503.1879,N,08016.6310,W,1,8,1.7,16,M,,M,,*52
06/09/2014	02:11:01.614	$GPGGA,021102,2503.1884,N,08016.6308,W,1,8,1.7,16,M,,M,,*5A
06/09/2014	02:11:02.647	$GPGGA,021103,2503.1884,N,08016.6308,W,1,8,1.7,16,M,,M,,*5B
06/09/2014	02:11:03.619	$GPGGA,021104,2503.1889,N,08016.6302,W,1,8,1.7,16,M,,M,,*5B
06/09/2014	02:11:04.662	$GPGGA,021105,2503.1893,N,08016.6299,W,1,8,1.7,16,M,,M,,*52
06/09/2014	02:11:05.726	$GPGGA,021106,2503.1897,N,08016.6296,W,1,8,1.7,16,M,,M,,*5A
06/09/2014	02:11:06.637	$GPGGA,021107,2503.1897,N,08016.6296,W,1,9,1.6,16,M,,M,,*5B
06/09/2014	02:11:07.632	$GPGGA,021108,2503.1904,N,08016.6292,W,1,9,1.6,16,M,,M,,*5B
06/09/2014	02:11:08.631	$GPGGA,021109,2503.1907,N,08016.6289,W,1,8,1.7,16,M,,M,,*53
06/09/2014	02:11:09.703	$GPGGA,021110,2503.1910,N,08016.6287,W,1,8,1.7,15,M,,M,,*50
06/09/2014	02:11:10.616	$GPGGA,021111,2503.1910,N,08016.6287,W,1,8,1.7,15,M,,M,,*51
06/09/2014	02:11:11.618	$GPGGA,021112,2503.1917,N,08016.6281,W,1,8,1.7,15,M,,M,,*53
06/09/2014	02:11:12.731	$GPGGA,021113,2503.1919,N,08016.6278,W,1,8,1.7,15,M,,M,,*5A
06/09/2014	02:11:13.613	$GPGGA,021114,2503.1922,N,08016.6275,W,1,8,1.7,15,M,,M,,*58
06/09/2014	02:11:14.716	$GPGGA,021115,2503.1926,N,08016.6273,W,1,8,1.7,15,M,,M,,*5B
06/09/2014	02:11:15.618	$GPGGA,021116,2503.1929,N,08016.6270,W,1,8,1.7,15,M,,M,,*54
06/09/2014	02:11:16.641	$GPGGA,021117,2503.1929,N,08016.6270,W,1,8,1.7,15,M,,M,,*55
06/09/2014	02:11:17.713	$GPGGA,021118,2503.1936,N,08016.6264,W,1,8,2.5,15,M,,M,,*50
06/09/2014	02:11:18.736	$GPGGA,021119,2503.1939,N,08016.6263,W,1,7,2.5,14,M,,M,,*57
06/09/2014	02:11:19.628	$GPGGA,021120,2503.1943,N,08016.6260,W,1,7,1.7,14,M,,M,,*52
06/09/2014	02:11:20.641	$GPGGA,021121,2503.1943,N,08016.6260,W,1,7,2.5,14,M,,M,,*52
06/09/2014	02:11:21.713	$GPGGA,021122,2503.1950,N,08016.6253,W,1,7,1.7,14,M,,M,,*52
06/09/2014	02:11:22.756	$GPGGA,021123,2503.1953,N,08016.6249,W,1,7,2.5,14,M,,M,,*5A
06/09/2014	02:11:23.728	$GPGGA,021124,2503.1955,N,08016.6247,W,1,7,1.7,14,M,,M,,*54
06/09/2014	02:11:24.731	$GPGGA,021125,2503.1958,N,08016.6244,W,1,8,1.7,14,M,,M,,*54
06/09/2014	02:11:25.722	$GPGGA,021126,2503.1962,N,08016.6243,W,1,8,1.7,14,M,,M,,*59
06/09/2014	02:11:26.715	$GPGGA,021127,2503.1965,N,08016.6240,W,1,8,1.7,13,M,,M,,*5B
06/09/2014	02:11:27.727	$GPGGA,021128,2503.1968,N,08016.6237,W,1,8,1.7,13,M,,M,,*59
06/09/2014	02:11:28.750	$GPGGA,021129,2503.1971,N,08016.6234,W,1,8,1.7,13,M,,M,,*53
06/09/2014	02:11:29.722	$GPGGA,021130,2503.1975,N,08016.6232,W,1,8,1.7,13,M,,M,,*59
06/09/2014	02:11:30.715	$GPGGA,021131,2503.1978,N,08016.6229,W,1,7,2.5,13,M,,M,,*51
06/09/2014	02:11:31.737	$GPGGA,021132,2503.1980,N,08016.6226,W,1,7,2.5,13,M,,M,,*5A
06/09/2014	02:11:32.730	$GPGGA,021133,2503.1983,N,08016.6224,W,1,7,2.5,13,M,,M,,*5A
06/09/2014	02:11:33.722	$GPGGA,021134,2503.1987,N,08016.6221,W,1,7,1.7,13,M,,M,,*5D
06/09/2014	02:11:34.725	$GPGGA,021135,2503.1990,N,08016.6218,W,1,8,1.7,13,M,,M,,*5F
06/09/2014	02:11:35.737	$GPGGA,021136,2503.1993,N,08016.6216,W,1,8,2.5,13,M,,M,,*50
06/09/2014	02:11:36.740	$GPGGA,021137,2503.1996,N,08016.6213,W,1,7,2.5,13,M,,M,,*5E
06/09/2014	02:11:37.722	$GPGGA,021138,2503.1998,N,08016.6212,W,1,7,2.5,13,M,,M,,*5E
06/09/2014	02:11:38.745	$GPGGA,021139,2503.2001,N,08016.6209,W,1,8,1.7,12,M,,M,,*50
06/09/2014	02:11:39.580	$GPGGA,021140,2503.2005,N,08016.6206,W,1,8,1.7,12,M,,M,,*55
06/09/2014	02:11:40.573	$GPGGA,021141,2503.2008,N,08016.6204,W,1,8,1.7,12,M,,M,,*5B
06/09/2014	02:11:41.585	$GPGGA,021142,2503.2011,N,08016.6202,W,1,8,1.7,12,M,,M,,*56
06/09/2014	02:11:42.608	$GPGGA,021143,2503.2015,N,08016.6200,W,1,8,1.7,12,M,,M,,*51
06/09/2014	02:11:43.579	$GPGGA,021144,2503.2018,N,08016.6198,W,1,8,1.7,12,M,,M,,*59
06/09/2014	02:11:44.592	$GPGGA,021145,2503.2022,N,08016.6195,W,1,9,1.6,12,M,,M,,*5C
06/09/2014	02:11:45.564	$GPGGA,021146,2503.2026,N,08016.6193,W,1,9,1.6,12,M,,M,,*5D
06/09/2014	02:11:46.587	$GPGGA,021147,2503.2030,N,08016.6191,W,1,9,1.6,12,M,,M,,*59
06/09/2014	02:11:47.589	$GPGGA,021148,2503.2034,N,08016.6189,W,1,9,1.6,11,M,,M,,*58
06/09/2014	02:11:48.582	$GPGGA,021149,2503.2037,N,08016.6187,W,1,9,1.6,11,M,,M,,*54
