Software Version Number: 1	Data File Format Number: 1	Build Version Number: 1	Error Count Since VI Started: 0	Manufacturer: Raytheon	 Model Number: RayMarine 120	 S/N: 	 Cal Date: 	 Wind Direction Offset: 0.00	 Slope (M)1: 0.00	 Offset (B)1: 0.00	 Slope (M)2: 0.00	 Offset (B)2: 0.00	 Slope (M)3: 0.00	 Offset (B)3: 0.00	 Slope (M)4: 0.00	 Offset (B)4: 0.00	 Slope (M)5: 0.00	 Offset (B)5: 0.00	 Slope (M)6: 0.00	 Offset (B)6: 0.00
Computer Date	Computer Time	GGA String
06/02/2014	10:00:00.553	$GPGGA,100001,2432.3138,N,08047.6904,W,1,9,1.5,15,M,,M,,*57
06/02/2014	10:00:01.522	$GPGGA,100002,2432.3134,N,08047.6920,W,1,9,1.5,15,M,,M,,*5E
06/02/2014	10:00:02.522	$GPGGA,100003,2432.3129,N,08047.6937,W,1,9,1.5,15,M,,M,,*55
06/02/2014	10:00:03.531	$GPGGA,100004,2432.3124,N,08047.6954,W,1,9,1.5,15,M,,M,,*5A
06/02/2014	10:00:04.540	$GPGGA,100005,2432.3120,N,08047.6973,W,1,9,1.5,15,M,,M,,*5A
06/02/2014	10:00:05.519	$GPGGA,100006,2432.3114,N,08047.6991,W,1,9,1.5,15,M,,M,,*52
06/02/2014	10:00:06.508	$GPGGA,100007,2432.3109,N,08047.7009,W,1,9,1.5,15,M,,M,,*56
06/02/2014	10:00:07.528	$GPGGA,100008,2432.3102,N,08047.7027,W,1,9,1.5,15,M,,M,,*5E
06/02/2014	10:00:08.547	$GPGGA,100009,2432.3098,N,08047.7046,W,1,9,1.5,15,M,,M,,*5A
06/02/2014	10:00:09.505	$GPGGA,100010,2432.3093,N,08047.7064,W,1,9,1.5,15,M,,M,,*59
06/02/2014	10:00:10.544	$GPGGA,100011,2432.3087,N,08047.7081,W,1,9,1.5,15,M,,M,,*56
06/02/2014	10:00:11.513	$GPGGA,100012,2432.3083,N,08047.7097,W,1,9,1.5,15,M,,M,,*56
06/02/2014	10:00:12.503	$GPGGA,100013,2432.3081,N,08047.7114,W,1,9,1.5,15,M,,M,,*5F
06/02/2014	10:00:13.482	$GPGGA,100014,2432.3075,N,08047.7132,W,1,9,1.5,15,M,,M,,*57
06/02/2014	10:00:14.491	$GPGGA,100015,2432.3069,N,08047.7150,W,1,9,1.5,15,M,,M,,*5F
06/02/2014	10:00:15.510	$GPGGA,100016,2432.3063,N,08047.7171,W,1,9,1.5,15,M,,M,,*55
06/02/2014	10:00:16.479	$GPGGA,100017,2432.3057,N,08047.7191,W,1,9,1.5,15,M,,M,,*5D
06/02/2014	10:00:17.599	$GPGGA,100018,2432.3052,N,08047.7211,W,1,9,1.5,15,M,,M,,*5C
06/02/2014	10:00:18.498	$GPGGA,100019,2432.3047,N,08047.7229,W,1,9,1.5,15,M,,M,,*52
06/02/2014	10:00:19.497	$GPGGA,100020,2432.3041,N,08047.7243,W,1,9,1.5,15,M,,M,,*52
06/02/2014	10:00:20.466	$GPGGA,100021,2432.3038,N,08047.7259,W,1,8,1.6,15,M,,M,,*54
06/02/2014	10:00:21.585	$GPGGA,100022,2432.3035,N,08047.7276,W,1,8,1.5,15,M,,M,,*54
06/02/2014	10:00:22.485	$GPGGA,100023,2432.3030,N,08047.7292,W,1,9,1.5,15,M,,M,,*5B
06/02/2014	10:00:23.475	$GPGGA,100024,2432.3026,N,08047.7312,W,1,9,1.5,15,M,,M,,*52
06/02/2014	10:00:24.453	$GPGGA,100025,2432.3020,N,08047.7330,W,1,9,1.5,15,M,,M,,*55
06/02/2014	10:00:25.572	$GPGGA,100026,2432.3015,N,08047.7349,W,1,9,1.5,15,M,,M,,*5E
06/02/2014	10:00:26.570	$GPGGA,100027,2432.3009,N,08047.7367,W,1,9,1.5,15,M,,M,,*5E
06/02/2014	10:00:27.580	$GPGGA,100028,2432.3005,N,08047.7384,W,1,9,1.5,15,M,,M,,*50
06/02/2014	10:00:28.579	$GPGGA,100029,2432.2999,N,08047.7400,W,1,9,1.5,15,M,,M,,*57
06/02/2014	10:00:29.508	$GPGGA,100030,2432.2993,N,08047.7417,W,1,9,1.5,15,M,,M,,*53
06/02/2014	10:00:30.597	$GPGGA,100031,2432.2990,N,08047.7435,W,1,9,1.5,15,M,,M,,*51
06/02/2014	10:00:31.506	$GPGGA,100032,2432.2983,N,08047.7453,W,1,9,1.5,15,M,,M,,*50
06/02/2014	10:00:32.576	$GPGGA,100033,2432.2977,N,08047.7471,W,1,9,1.5,15,M,,M,,*5A
06/02/2014	10:00:33.585	$GPGGA,100034,2432.2971,N,08047.7489,W,1,9,1.5,15,M,,M,,*5C
06/02/2014	10:00:34.614	$GPGGA,100035,2432.2965,N,08047.7505,W,1,9,1.5,15,M,,M,,*5D
06/02/2014	10:00:35.603	$GPGGA,100036,2432.2959,N,08047.7522,W,1,9,1.5,15,M,,M,,*54
06/02/2014	10:00:36.592	$GPGGA,100037,2432.2953,N,08047.7538,W,1,9,1.5,15,M,,M,,*54
06/02/2014	10:00:37.582	$GPGGA,100038,2432.2946,N,08047.7556,W,1,9,1.6,15,M,,M,,*54
06/02/2014	10:00:38.571	$GPGGA,100039,2432.2939,N,08047.7576,W,1,9,1.5,15,M,,M,,*5C
06/02/2014	10:00:39.580	$GPGGA,100040,2432.2932,N,08047.7594,W,1,9,1.5,15,M,,M,,*55
06/02/2014	10:00:40.579	$GPGGA,100041,2432.2926,N,08047.7612,W,1,9,1.5,15,M,,M,,*5C
06/02/2014	10:00:41.568	$GPGGA,100042,2432.2921,N,08047.7627,W,1,9,1.5,15,M,,M,,*5E
06/02/2014	10:00:42.579	$GPGGA,100043,2432.2914,N,08047.7641,W,1,8,1.6,15,M,,M,,*5B
06/02/2014	10:00:43.567	$GPGGA,100044,2432.2906,N,08047.7656,W,1,8,1.5,15,M,,M,,*5A
06/02/2014	10:00:44.575	$GPGGA,100045,2432.2900,N,08047.7673,W,1,9,1.5,15,M,,M,,*5B
06/02/2014	10:00:45.544	$GPGGA,100046,2432.2894,N,08047.7691,W,1,9,1.5,15,M,,M,,*58
06/02/2014	10:00:46.543	$GPGGA,100047,2432.2887,N,08047.7713,W,1,8,1.8,15,M,,M,,*5C
06/02/2014	10:00:47.563	$GPGGA,100048,2432.2880,N,08047.7731,W,1,8,1.5,15,M,,M,,*59
06/02/2014	10:00:48.562	$GPGGA,100049,2432.2874,N,08047.7750,W,1,9,1.5,15,M,,M,,*55
06/02/2014	10:00:49.532	$GPGGA,100050,2432.2867,N,08047.7768,W,1,9,1.5,15,M,,M,,*54
06/02/2014	10:00:50.530	$GPGGA,100051,2432.2860,N,08047.7785,W,1,9,1.5,15,M,,M,,*51
06/02/2014	10:00:51.549	$GPGGA,100052,2432.2854,N,08047.7801,W,1,9,1.5,15,M,,M,,*56
06/02/2014	10:00:52.519	$GPGGA,100053,2432.2849,N,08047.7816,W,1,9,1.5,15,M,,M,,*5D
06/02/2014	10:00:53.528	$GPGGA,100054,2432.2843,N,08047.7830,W,1,9,1.5,15,M,,M,,*54
06/02/2014	10:00:54.517	$GPGGA,100055,2432.2838,N,08047.7847,W,1,9,1.5,15,M,,M,,*59
06/02/2014	10:00:55.536	$GPGGA,100056,2432.2833,N,08047.7863,W,1,9,1.6,15,M,,M,,*54
06/02/2014	10:00:56.525	$GPGGA,100057,2432.2827,N,08047.7881,W,1,9,1.5,15,M,,M,,*5F
06/02/2014	10:00:57.505	$GPGGA,100058,2432.2821,N,08047.7899,W,1,9,1.5,15,M,,M,,*5F
06/02/2014	10:00:58.504	$GPGGA,100059,2432.2816,N,08047.7919,W,1,9,1.5,15,M,,M,,*53
06/02/2014	10:01:00.512	$GPGGA,100101,2432.2805,N,08047.7955,W,1,9,1.5,15,M,,M,,*55
06/02/2014	10:01:01.500	$GPGGA,100102,2432.2802,N,08047.7973,W,1,9,1.5,15,M,,M,,*55
06/02/2014	10:01:02.531	$GPGGA,100103,2432.2798,N,08047.7989,W,1,9,1.5,15,M,,M,,*5D
06/02/2014	10:01:03.509	$GPGGA,100104,2432.2793,N,08047.8006,W,1,9,1.5,15,M,,M,,*50
06/02/2014	10:01:04.508	$GPGGA,100105,2432.2789,N,08047.8024,W,1,9,1.5,15,M,,M,,*5A
06/02/2014	10:01:05.487	$GPGGA,100106,2432.2784,N,08047.8042,W,1,9,1.5,15,M,,M,,*54
06/02/2014	10:01:06.476	$GPGGA,100107,2432.2780,N,08047.8058,W,1,9,1.5,15,M,,M,,*5A
06/02/2014	10:01:07.506	$GPGGA,100108,2432.2776,N,08047.8076,W,1,9,1.5,15,M,,M,,*50
06/02/2014	10:01:08.485	$GPGGA,100109,2432.2771,N,08047.8094,W,1,9,1.5,15,M,,M,,*5A
06/02/2014	10:01:09.484	$GPGGA,100110,2432.2767,N,08047.8112,W,1,9,1.5,15,M,,M,,*5A
06/02/2014	10:01:10.603	$GPGGA,100111,2432.2763,N,08047.8132,W,1,9,1.5,15,M,,M,,*5D
06/02/2014	10:01:11.482	$GPGGA,100112,2432.2760,N,08047.8150,W,1,9,1.5,15,M,,M,,*59
06/02/2014	10:01:12.492	$GPGGA,100113,2432.2755,N,08047.8169,W,1,9,1.5,15,M,,M,,*54
06/02/2014	10:01:13.461	$GPGGA,100114,2432.2751,N,08047.8187,W,1,9,1.5,15,M,,M,,*57
06/02/2014	10:01:14.460	$GPGGA,100115,2432.2747,N,08047.8205,W,1,9,1.5,15,M,,M,,*58
06/02/2014	10:01:15.639	$GPGGA,100116,2432.2744,N,08047.8223,W,1,9,1.5,15,M,,M,,*5C
06/02/2014	10:01:16.458	$GPGGA,100117,2432.2738,N,08047.8240,W,1,9,1.5,15,M,,M,,*53
06/02/2014	10:01:17.548	$GPGGA,100118,2432.2734,N,08047.8255,W,1,9,1.8,15,M,,M,,*59
06/02/2014	10:01:18.588	$GPGGA,100119,2432.2730,N,08047.8273,W,1,9,1.5,15,M,,M,,*55
06/02/2014	10:01:19.645	$GPGGA,100120,2432.2726,N,08047.8289,W,1,9,1.5,15,M,,M,,*5D
06/02/2014	10:01:20.605	$GPGGA,100121,2432.2719,N,08047.8307,W,1,9,1.5,15,M,,M,,*57
06/02/2014	10:01:21.613	$GPGGA,100122,2432.2715,N,08047.8325,W,1,9,1.5,15,M,,M,,*58
06/02/2014	10:01:22.583	$GPGGA,100123,2432.2709,N,08047.8343,W,1,9,1.5,15,M,,M,,*54
06/02/2014	10:01:23.632	$GPGGA,100124,2432.2702,N,08047.8361,W,1,9,1.5,15,M,,M,,*58
06/02/2014	10:01:24.611	$GPGGA,100125,2432.2695,N,08047.8378,W,1,9,1.5,15,M,,M,,*5E
06/02/2014	10:01:25.530	$GPGGA,100126,2432.2691,N,08047.8394,W,1,9,1.5,15,M,,M,,*5B
06/02/2014	10:01:26.559	$GPGGA,100127,2432.2687,N,08047.8411,W,1,9,1.8,16,M,,M,,*59
06/02/2014	10:01:27.618	$GPGGA,100128,2432.2682,N,08047.8428,W,1,9,1.8,16,M,,M,,*59
06/02/2014	10:01:28.568	$GPGGA,100129,2432.2674,N,08047.8446,W,1,8,1.8,16,M,,M,,*58
06/02/2014	10:01:29.566	$GPGGA,100130,2432.2668,N,08047.8462,W,1,8,1.5,16,M,,M,,*56
06/02/2014	10:01:30.605	$GPGGA,100131,2432.2662,N,08047.8482,W,1,9,1.5,16,M,,M,,*52
06/02/2014	10:01:31.664	$GPGGA,100132,2432.2654,N,08047.8499,W,1,9,1.5,16,M,,M,,*5E
06/02/2014	10:01:32.605	$GPGGA,100133,2432.2646,N,08047.8516,W,1,9,1.5,16,M,,M,,*5A
06/02/2014	10:01:33.613	$GPGGA,100134,2432.2641,N,08047.8533,W,1,9,1.5,16,M,,M,,*5D
06/02/2014	10:01:34.592	$GPGGA,100135,2432.2635,N,08047.8549,W,1,9,1.5,16,M,,M,,*52
06/02/2014	10:01:35.611	$GPGGA,100136,2432.2629,N,08047.8564,W,1,9,1.5,16,M,,M,,*53
06/02/2014	10:01:36.599	$GPGGA,100137,2432.2623,N,08047.8580,W,1,9,1.5,16,M,,M,,*52
06/02/2014	10:01:37.609	$GPGGA,100138,2432.2621,N,08047.8596,W,1,9,1.5,16,M,,M,,*58
06/02/2014	10:01:38.538	$GPGGA,100139,2432.2615,N,08047.8614,W,1,9,1.5,16,M,,M,,*57
06/02/2014	10:01:39.617	$GPGGA,100140,2432.2609,N,08047.8631,W,1,9,1.5,16,M,,M,,*53
06/02/2014	10:01:40.526	$GPGGA,100141,2432.2603,N,08047.8649,W,1,9,1.5,16,M,,M,,*57
06/02/2014	10:01:41.525	$GPGGA,100142,2432.2599,N,08047.8667,W,1,9,1.5,16,M,,M,,*58
06/02/2014	10:01:42.575	$GPGGA,100143,2432.2594,N,08047.8685,W,1,8,1.5,16,M,,M,,*59
06/02/2014	10:01:43.614	$GPGGA,100144,2432.2590,N,08047.8703,W,1,8,1.5,16,M,,M,,*55
06/02/2014	10:01:44.523	$GPGGA,100145,2432.2585,N,08047.8718,W,1,9,1.5,16,M,,M,,*5B
06/02/2014	10:01:45.582	$GPGGA,100146,2432.2580,N,08047.8737,W,1,9,1.5,15,M,,M,,*53
06/02/2014	10:01:46.511	$GPGGA,100147,2432.2576,N,08047.8754,W,1,9,1.5,15,M,,M,,*5E
06/02/2014	10:01:47.591	$GPGGA,100148,2432.2571,N,08047.8772,W,1,9,1.5,15,M,,M,,*52
06/02/2014	10:01:48.550	$GPGGA,100149,2432.2567,N,08047.8790,W,1,9,1.5,15,M,,M,,*58
06/02/2014	10:01:49.499	$GPGGA,100150,2432.2561,N,08047.8808,W,1,9,1.5,15,M,,M,,*58
06/02/2014	10:01:50.498	$GPGGA,100151,2432.2557,N,08047.8826,W,1,8,1.5,15,M,,M,,*51
06/02/2014	10:01:51.638	$GPGGA,100152,2432.2553,N,08047.8844,W,1,8,1.5,15,M,,M,,*52
06/02/2014	10:01:52.607	$GPGGA,100153,2432.2549,N,08047.8862,W,1,9,1.5,15,M,,M,,*5D
06/02/2014	10:01:53.546	$GPGGA,100154,2432.2544,N,08047.8880,W,1,9,1.5,15,M,,M,,*5B
06/02/2014	10:01:54.524	$GPGGA,100155,2432.2540,N,08047.8896,W,1,9,1.5,15,M,,M,,*59
06/02/2014	10:01:55.573	$GPGGA,100156,2432.2538,N,08047.8914,W,1,9,1.5,15,M,,M,,*5E
06/02/2014	10:01:56.602	$GPGGA,100157,2432.2531,N,08047.8931,W,1,9,1.5,15,M,,M,,*51
06/02/2014	10:01:57.552	$GPGGA,100158,2432.2527,N,08047.8950,W,1,9,1.5,15,M,,M,,*5E
06/02/2014	10:01:58.521	$GPGGA,100159,2432.2521,N,08047.8970,W,1,9,1.5,15,M,,M,,*5B
06/02/2014	10:01:59.600	$GPGGA,100200,2432.2515,N,08047.8990,W,1,9,1.5,16,M,,M,,*5E
06/02/2014	10:02:00.519	$GPGGA,100201,2432.2509,N,08047.9010,W,1,9,1.5,16,M,,M,,*52
06/02/2014	10:02:01.468	$GPGGA,100202,2432.2504,N,08047.9028,W,1,9,1.5,16,M,,M,,*57
06/02/2014	10:02:02.488	$GPGGA,100203,2432.2500,N,08047.9044,W,1,9,1.5,16,M,,M,,*58
06/02/2014	10:02:03.537	$GPGGA,100204,2432.2496,N,08047.9059,W,1,9,1.5,16,M,,M,,*5D
06/02/2014	10:02:04.526	$GPGGA,100205,2432.2491,N,08047.9076,W,1,9,1.5,16,M,,M,,*56
06/02/2014	10:02:05.555	$GPGGA,100206,2432.2487,N,08047.9094,W,1,9,1.5,16,M,,M,,*5E
06/02/2014	10:02:06.594	$GPGGA,100207,2432.2482,N,08047.9113,W,1,9,1.5,16,M,,M,,*54
06/02/2014	10:02:07.584	$GPGGA,100208,2432.2475,N,08047.9133,W,1,9,1.8,16,M,,M,,*5C
06/02/2014	10:02:08.553	$GPGGA,100209,2432.2470,N,08047.9151,W,1,8,1.8,16,M,,M,,*5D
06/02/2014	10:02:09.562	$GPGGA,100210,2432.2466,N,08047.9170,W,1,8,1.8,16,M,,M,,*51
06/02/2014	10:02:10.581	$GPGGA,100211,2432.2459,N,08047.9187,W,1,8,1.5,16,M,,M,,*59
06/02/2014	10:02:11.559	$GPGGA,100212,2432.2455,N,08047.9205,W,1,8,1.5,16,M,,M,,*5F
06/02/2014	10:02:12.549	$GPGGA,100213,2432.2448,N,08047.9223,W,1,9,1.5,16,M,,M,,*57
06/02/2014	10:02:13.538	$GPGGA,100214,2432.2442,N,08047.9238,W,1,9,1.5,16,M,,M,,*50
06/02/2014	10:02:14.597	$GPGGA,100215,2432.2437,N,08047.9254,W,1,9,1.5,16,M,,M,,*59
06/02/2014	10:02:15.546	$GPGGA,100216,2432.2431,N,08047.9270,W,1,9,1.5,16,M,,M,,*5A
06/02/2014	10:02:16.535	$GPGGA,100217,2432.2426,N,08047.9286,W,1,9,1.5,16,M,,M,,*54
06/02/2014	10:02:17.545	$GPGGA,100218,2432.2421,N,08047.9304,W,1,9,1.8,16,M,,M,,*5A
06/02/2014	10:02:18.534	$GPGGA,100219,2432.2415,N,08047.9321,W,1,8,1.5,17,M,,M,,*56
06/02/2014	10:02:19.553	$GPGGA,100220,2432.2409,N,08047.9339,W,1,8,1.6,17,M,,M,,*5B
06/02/2014	10:02:20.572	$GPGGA,100221,2432.2403,N,08047.9355,W,1,8,1.6,17,M,,M,,*5A
06/02/2014	10:02:21.531	$GPGGA,100222,2432.2403,N,08047.9355,W,1,8,1.6,17,M,,M,,*59
06/02/2014	10:02:22.531	$GPGGA,100223,2432.2391,N,08047.9389,W,1,9,1.5,17,M,,M,,*57
06/02/2014	10:02:23.550	$GPGGA,100224,2432.2385,N,08047.9408,W,1,9,1.5,17,M,,M,,*5B
06/02/2014	10:02:24.509	$GPGGA,100225,2432.2379,N,08047.9426,W,1,9,1.6,17,M,,M,,*56
06/02/2014	10:02:25.538	$GPGGA,100226,2432.2373,N,08047.9444,W,1,9,1.6,17,M,,M,,*5B
06/02/2014	10:02:26.527	$GPGGA,100227,2432.2368,N,08047.9459,W,1,8,1.5,17,M,,M,,*5E
06/02/2014	10:02:27.547	$GPGGA,100228,2432.2362,N,08047.9476,W,1,8,1.5,17,M,,M,,*56
06/02/2014	10:02:28.526	$GPGGA,100229,2432.2355,N,08047.9492,W,1,9,1.5,17,M,,M,,*58
06/02/2014	10:02:29.584	$GPGGA,100230,2432.2351,N,08047.9509,W,1,9,1.5,17,M,,M,,*57
06/02/2014	10:02:30.553	$GPGGA,100231,2432.2346,N,08047.9527,W,1,9,1.5,17,M,,M,,*5C
06/02/2014	10:02:31.572	$GPGGA,100232,2432.2339,N,08047.9545,W,1,9,1.5,17,M,,M,,*53
06/02/2014	10:02:32.572	$GPGGA,100233,2432.2333,N,08047.9561,W,1,9,1.5,17,M,,M,,*5E
06/02/2014	10:02:33.521	$GPGGA,100234,2432.2333,N,08047.9561,W,1,9,1.5,17,M,,M,,*59
06/02/2014	10:02:34.570	$GPGGA,100235,2432.2323,N,08047.9597,W,1,9,1.5,18,M,,M,,*5F
06/02/2014	10:02:35.659	$GPGGA,100236,2432.2316,N,08047.9614,W,1,9,1.5,18,M,,M,,*52
06/02/2014	10:02:36.538	$GPGGA,100237,2432.2312,N,08047.9632,W,1,9,1.5,18,M,,M,,*53
06/02/2014	10:02:37.518	$GPGGA,100238,2432.2307,N,08047.9650,W,1,9,1.5,18,M,,M,,*5C
06/02/2014	10:02:38.527	$GPGGA,100239,2432.2301,N,08047.9668,W,1,9,1.5,18,M,,M,,*50
06/02/2014	10:02:39.656	$GPGGA,100240,2432.2298,N,08047.9686,W,1,9,1.5,18,M,,M,,*5F
06/02/2014	10:02:40.615	$GPGGA,100241,2432.2294,N,08047.9702,W,1,9,1.5,18,M,,M,,*5F
06/02/2014	10:02:41.504	$GPGGA,100242,2432.2289,N,08047.9718,W,1,9,1.5,18,M,,M,,*5B
06/02/2014	10:02:42.514	$GPGGA,100243,2432.2285,N,08047.9736,W,1,9,1.5,18,M,,M,,*5A
06/02/2014	10:02:43.633	$GPGGA,100244,2432.2281,N,08047.9754,W,1,9,1.5,18,M,,M,,*5D
06/02/2014	10:02:44.522	$GPGGA,100245,2432.2274,N,08047.9772,W,1,9,1.5,18,M,,M,,*52
06/02/2014	10:02:45.511	$GPGGA,100246,2432.2274,N,08047.9772,W,1,9,1.5,18,M,,M,,*51
06/02/2014	10:02:46.629	$GPGGA,100247,2432.2264,N,08047.9812,W,1,9,1.5,18,M,,M,,*58
06/02/2014	10:02:47.499	$GPGGA,100248,2432.2264,N,08047.9812,W,1,9,1.5,18,M,,M,,*57
06/02/2014	10:02:48.897	$GPGGA,100249,2432.2253,N,08047.9848,W,1,9,1.5,18,M,,M,,*5D
06/02/2014	10:02:49.497	$GPGGA,100250,2432.2247,N,08047.9867,W,1,9,1.5,18,M,,M,,*5D
06/02/2014	10:02:50.486	$GPGGA,100251,2432.2243,N,08047.9885,W,1,9,1.5,18,M,,M,,*54
06/02/2014	10:02:51.586	$GPGGA,100252,2432.2238,N,08047.9902,W,1,9,1.5,18,M,,M,,*55
06/02/2014	10:02:52.585	$GPGGA,100253,2432.2232,N,08047.9920,W,1,9,1.5,18,M,,M,,*5E
06/02/2014	10:02:53.574	$GPGGA,100254,2432.2227,N,08047.9936,W,1,9,1.5,18,M,,M,,*5A
06/02/2014	10:02:54.603	$GPGGA,100255,2432.2222,N,08047.9953,W,1,9,1.5,18,M,,M,,*5D
06/02/2014	10:02:55.582	$GPGGA,100256,2432.2216,N,08047.9971,W,1,9,1.5,18,M,,M,,*59
06/02/2014	10:02:56.561	$GPGGA,100257,2432.2210,N,08047.9990,W,1,9,1.5,18,M,,M,,*51
06/02/2014	10:02:57.551	$GPGGA,100258,2432.2204,N,08048.0011,W,1,9,1.5,18,M,,M,,*5D
06/02/2014	10:02:58.560	$GPGGA,100259,2432.2199,N,08048.0030,W,1,9,1.5,18,M,,M,,*58
06/02/2014	10:02:59.619	$GPGGA,100300,2432.2195,N,08048.0051,W,1,9,1.5,17,M,,M,,*51
06/02/2014	10:03:00.578	$GPGGA,100301,2432.2188,N,08048.0070,W,1,9,1.5,17,M,,M,,*5F
06/02/2014	10:03:01.547	$GPGGA,100302,2432.2182,N,08048.0088,W,1,9,1.5,17,M,,M,,*51
06/02/2014	10:03:02.535	$GPGGA,100303,2432.2178,N,08048.0105,W,1,9,1.5,17,M,,M,,*51
06/02/2014	10:03:03.556	$GPGGA,100304,2432.2174,N,08048.0123,W,1,9,1.5,17,M,,M,,*5E
06/02/2014	10:03:04.554	$GPGGA,100305,2432.2169,N,08048.0139,W,1,9,1.5,17,M,,M,,*58
06/02/2014	10:03:05.533	$GPGGA,100306,2432.2166,N,08048.0156,W,1,9,1.5,17,M,,M,,*5D
06/02/2014	10:03:06.552	$GPGGA,100307,2432.2160,N,08048.0174,W,1,9,1.5,17,M,,M,,*5A
06/02/2014	10:03:07.552	$GPGGA,100308,2432.2155,N,08048.0193,W,1,9,1.5,17,M,,M,,*5A
06/02/2014	10:03:08.521	$GPGGA,100309,2432.2150,N,08048.0213,W,1,8,1.9,17,M,,M,,*58
06/02/2014	10:03:09.523	$GPGGA,100310,2432.2146,N,08048.0231,W,1,8,1.9,17,M,,M,,*57
06/02/2014	10:03:10.529	$GPGGA,100311,2432.2141,N,08048.0251,W,1,8,1.9,17,M,,M,,*57
06/02/2014	10:03:11.528	$GPGGA,100312,2432.2137,N,08048.0269,W,1,8,1.5,17,M,,M,,*52
06/02/2014	10:03:12.538	$GPGGA,100313,2432.2131,N,08048.0286,W,1,9,1.5,17,M,,M,,*55
06/02/2014	10:03:13.517	$GPGGA,100314,2432.2126,N,08048.0304,W,1,9,1.5,17,M,,M,,*5F
06/02/2014	10:03:14.536	$GPGGA,100315,2432.2122,N,08048.0322,W,1,9,1.5,17,M,,M,,*5E
06/02/2014	10:03:15.515	$GPGGA,100316,2432.2119,N,08048.0337,W,1,9,1.5,17,M,,M,,*51
06/02/2014	10:03:16.534	$GPGGA,100317,2432.2112,N,08048.0352,W,1,9,1.5,17,M,,M,,*58
06/02/2014	10:03:17.504	$GPGGA,100318,2432.2108,N,08048.0369,W,1,9,1.5,17,M,,M,,*54
06/02/2014	10:03:18.523	$GPGGA,100319,2432.2102,N,08048.0387,W,1,9,1.5,17,M,,M,,*5F
06/02/2014	10:03:19.522	$GPGGA,100320,2432.2095,N,08048.0406,W,1,9,1.5,17,M,,M,,*54
06/02/2014	10:03:20.513	$GPGGA,100321,2432.2090,N,08048.0426,W,1,9,1.5,17,M,,M,,*52
06/02/2014	10:03:21.499	$GPGGA,100322,2432.2081,N,08048.0446,W,1,9,1.5,17,M,,M,,*57
06/02/2014	10:03:22.519	$GPGGA,100323,2432.2074,N,08048.0467,W,1,9,1.5,18,M,,M,,*50
06/02/2014	10:03:23.508	$GPGGA,100324,2432.2069,N,08048.0488,W,1,9,1.5,18,M,,M,,*5A
06/02/2014	10:03:24.487	$GPGGA,100325,2432.2063,N,08048.0504,W,1,9,1.5,18,M,,M,,*54
06/02/2014	10:03:25.476	$GPGGA,100326,2432.2056,N,08048.0520,W,1,9,1.5,18,M,,M,,*57
06/02/2014	10:03:26.475	$GPGGA,100327,2432.2052,N,08048.0535,W,1,9,1.5,18,M,,M,,*56
06/02/2014	10:03:27.485	$GPGGA,100328,2432.2048,N,08048.0550,W,1,9,1.5,18,M,,M,,*51
06/02/2014	10:03:28.474	$GPGGA,100329,2432.2043,N,08048.0567,W,1,9,1.5,18,M,,M,,*5F
06/02/2014	10:03:29.643	$GPGGA,100330,2432.2037,N,08048.0586,W,1,9,1.5,18,M,,M,,*5B
06/02/2014	10:03:30.532	$GPGGA,100331,2432.2030,N,08048.0605,W,1,9,1.5,18,M,,M,,*55
06/02/2014	10:03:31.631	$GPGGA,100332,2432.2025,N,08048.0626,W,1,9,1.5,18,M,,M,,*53
06/02/2014	10:03:32.501	$GPGGA,100333,2432.2018,N,08048.0645,W,1,9,1.5,18,M,,M,,*59
06/02/2014	10:03:33.620	$GPGGA,100334,2432.2011,N,08048.0665,W,1,9,1.5,18,M,,M,,*55
06/02/2014	10:03:34.639	$GPGGA,100335,2432.2004,N,08048.0681,W,1,9,1.5,18,M,,M,,*5A
06/02/2014	10:03:35.518	$GPGGA,100336,2432.2000,N,08048.0697,W,1,9,1.5,18,M,,M,,*5A
06/02/2014	10:03:36.507	$GPGGA,100337,2432.1994,N,08048.0715,W,1,9,1.5,18,M,,M,,*57
06/02/2014	10:03:37.587	$GPGGA,100338,2432.1989,N,08048.0731,W,1,9,1.6,18,M,,M,,*51
06/02/2014	10:03:38.625	$GPGGA,100339,2432.1984,N,08048.0748,W,1,8,1.6,18,M,,M,,*52
06/02/2014	10:03:39.604	$GPGGA,100340,2432.1980,N,08048.0764,W,1,8,1.5,18,M,,M,,*55
06/02/2014	10:03:40.613	$GPGGA,100341,2432.1974,N,08048.0780,W,1,8,1.9,18,M,,M,,*59
06/02/2014	10:03:41.582	$GPGGA,100342,2432.1968,N,08048.0795,W,1,8,1.5,18,M,,M,,*5F
06/02/2014	10:03:42.572	$GPGGA,100343,2432.1962,N,08048.0813,W,1,9,1.5,18,M,,M,,*54
06/02/2014	10:03:43.581	$GPGGA,100344,2432.1954,N,08048.0831,W,1,9,1.5,18,M,,M,,*56
06/02/2014	10:03:44.600	$GPGGA,100345,2432.1947,N,08048.0852,W,1,9,1.5,18,M,,M,,*50
06/02/2014	10:03:45.559	$GPGGA,100346,2432.1940,N,08048.0871,W,1,9,1.5,18,M,,M,,*55
06/02/2014	10:03:46.588	$GPGGA,100347,2432.1932,N,08048.0889,W,1,9,1.5,19,M,,M,,*57
06/02/2014	10:03:47.608	$GPGGA,100348,2432.1925,N,08048.0907,W,1,9,1.5,19,M,,M,,*59
06/02/2014	10:03:48.587	$GPGGA,100349,2432.1920,N,08048.0922,W,1,9,1.5,19,M,,M,,*5A
06/02/2014	10:03:49.546	$GPGGA,100350,2432.1914,N,08048.0937,W,1,9,1.5,19,M,,M,,*51
06/02/2014	10:03:50.575	$GPGGA,100351,2432.1908,N,08048.0952,W,1,9,1.5,19,M,,M,,*5E
06/02/2014	10:03:51.564	$GPGGA,100352,2432.1902,N,08048.0968,W,1,9,1.5,19,M,,M,,*5E
06/02/2014	10:03:52.564	$GPGGA,100353,2432.1896,N,08048.0986,W,1,9,1.5,19,M,,M,,*53
06/02/2014	10:03:53.553	$GPGGA,100354,2432.1889,N,08048.1004,W,1,9,1.5,19,M,,M,,*58
06/02/2014	10:03:54.564	$GPGGA,100355,2432.1881,N,08048.1022,W,1,9,1.5,19,M,,M,,*55
06/02/2014	10:03:55.554	$GPGGA,100356,2432.1875,N,08048.1042,W,1,9,1.5,19,M,,M,,*5B
06/02/2014	10:03:56.534	$GPGGA,100357,2432.1868,N,08048.1062,W,1,9,1.5,19,M,,M,,*54
06/02/2014	10:03:57.533	$GPGGA,100358,2432.1860,N,08048.1080,W,1,9,1.5,19,M,,M,,*5F
06/02/2014	10:03:58.563	$GPGGA,100359,2432.1855,N,08048.1098,W,1,9,1.5,19,M,,M,,*51
06/02/2014	10:03:59.564	$GPGGA,100400,2432.1852,N,08048.1116,W,1,9,1.5,19,M,,M,,*5A
06/02/2014	10:04:00.524	$GPGGA,100401,2432.1846,N,08048.1132,W,1,8,1.9,19,M,,M,,*55
06/02/2014	10:04:01.534	$GPGGA,100402,2432.1842,N,08048.1147,W,1,8,1.5,19,M,,M,,*5C
06/02/2014	10:04:02.554	$GPGGA,100403,2432.1841,N,08048.1163,W,1,8,1.6,19,M,,M,,*5B
06/02/2014	10:04:03.544	$GPGGA,100404,2432.1837,N,08048.1182,W,1,8,1.5,18,M,,M,,*50
06/02/2014	10:04:04.535	$GPGGA,100405,2432.1833,N,08048.1201,W,1,9,1.5,18,M,,M,,*5C
06/02/2014	10:04:05.525	$GPGGA,100406,2432.1827,N,08048.1221,W,1,9,1.5,18,M,,M,,*58
06/02/2014	10:04:06.535	$GPGGA,100407,2432.1823,N,08048.1243,W,1,9,1.5,18,M,,M,,*59
06/02/2014	10:04:07.535	$GPGGA,100408,2432.1819,N,08048.1264,W,1,9,1.5,18,M,,M,,*5A
06/02/2014	10:04:08.625	$GPGGA,100409,2432.1813,N,08048.1283,W,1,9,1.5,18,M,,M,,*58
06/02/2014	10:04:09.506	$GPGGA,100410,2432.1810,N,08048.1301,W,1,9,1.5,18,M,,M,,*58
06/02/2014	10:04:10.506	$GPGGA,100411,2432.1807,N,08048.1316,W,1,9,1.5,18,M,,M,,*59
06/02/2014	10:04:11.636	$GPGGA,100412,2432.1805,N,08048.1331,W,1,9,1.5,18,M,,M,,*5D
06/02/2014	10:04:12.516	$GPGGA,100413,2432.1803,N,08048.1348,W,1,9,1.5,18,M,,M,,*54
06/02/2014	10:04:13.545	$GPGGA,100414,2432.1801,N,08048.1366,W,1,9,1.5,18,M,,M,,*5D
06/02/2014	10:04:14.636	$GPGGA,100415,2432.1796,N,08048.1385,W,1,9,1.5,17,M,,M,,*5F
06/02/2014	10:04:15.527	$GPGGA,100416,2432.1792,N,08048.1406,W,1,9,1.5,17,M,,M,,*54
06/02/2014	10:04:16.516	$GPGGA,100417,2432.1787,N,08048.1425,W,1,9,1.5,17,M,,M,,*50
06/02/2014	10:04:17.486	$GPGGA,100418,2432.1783,N,08048.1443,W,1,9,1.5,17,M,,M,,*5B
06/02/2014	10:04:18.617	$GPGGA,100419,2432.1778,N,08048.1460,W,1,9,1.5,17,M,,M,,*5F
06/02/2014	10:04:19.517	$GPGGA,100420,2432.1774,N,08048.1478,W,1,9,1.5,17,M,,M,,*50
06/02/2014	10:04:20.487	$GPGGA,100421,2432.1770,N,08048.1496,W,1,9,1.5,17,M,,M,,*55
06/02/2014	10:04:21.477	$GPGGA,100422,2432.1766,N,08048.1514,W,1,9,1.5,17,M,,M,,*5A
06/02/2014	10:04:22.477	$GPGGA,100423,2432.1760,N,08048.1532,W,1,9,1.5,17,M,,M,,*59
06/02/2014	10:04:23.507	$GPGGA,100424,2432.1756,N,08048.1551,W,1,9,1.5,17,M,,M,,*5E
06/02/2014	10:04:24.588	$GPGGA,100425,2432.1750,N,08048.1568,W,1,9,1.5,17,M,,M,,*53
06/02/2014	10:04:25.578	$GPGGA,100426,2432.1745,N,08048.1584,W,1,9,1.5,17,M,,M,,*56
06/02/2014	10:04:26.578	$GPGGA,100427,2432.1740,N,08048.1600,W,1,9,1.5,17,M,,M,,*5D
06/02/2014	10:04:27.498	$GPGGA,100428,2432.1734,N,08048.1618,W,1,9,1.5,17,M,,M,,*58
06/02/2014	10:04:28.578	$GPGGA,100429,2432.1729,N,08048.1634,W,1,8,1.9,17,M,,M,,*56
06/02/2014	10:04:29.583	$GPGGA,100430,2432.1722,N,08048.1652,W,1,8,1.9,17,M,,M,,*55
06/02/2014	10:04:30.593	$GPGGA,100431,2432.1715,N,08048.1670,W,1,9,1.5,17,M,,M,,*5D
06/02/2014	10:04:31.602	$GPGGA,100432,2432.1707,N,08048.1689,W,1,9,1.5,17,M,,M,,*5B
06/02/2014	10:04:32.602	$GPGGA,100433,2432.1701,N,08048.1709,W,1,9,1.5,17,M,,M,,*55
06/02/2014	10:04:33.572	$GPGGA,100434,2432.1694,N,08048.1725,W,1,9,1.5,17,M,,M,,*51
06/02/2014	10:04:36.103	$GPGGA,100436,2432.1682,N,08048.1754,W,1,9,1.5,17,M,,M,,*52
06/02/2014	10:04:36.593	$GPGGA,100437,2432.1676,N,08048.1768,W,1,9,1.5,17,M,,M,,*57
06/02/2014	10:04:37.563	$GPGGA,100438,2432.1671,N,08048.1786,W,1,9,1.5,17,M,,M,,*5F
06/02/2014	10:04:38.944	$GPGGA,100439,2432.1664,N,08048.1803,W,1,8,1.9,17,M,,M,,*55
06/02/2014	10:04:39.584	$GPGGA,100440,2432.1655,N,08048.1824,W,1,8,1.9,17,M,,M,,*5C
06/02/2014	10:04:40.554	$GPGGA,100441,2432.1647,N,08048.1843,W,1,8,1.9,17,M,,M,,*5F
06/02/2014	10:04:41.554	$GPGGA,100442,2432.1639,N,08048.1864,W,1,8,1.5,17,M,,M,,*5C
06/02/2014	10:04:42.554	$GPGGA,100443,2432.1631,N,08048.1882,W,1,9,1.5,17,M,,M,,*5C
06/02/2014	10:04:43.574	$GPGGA,100444,2432.1624,N,08048.1900,W,1,9,1.5,17,M,,M,,*54
06/02/2014	10:04:44.555	$GPGGA,100445,2432.1617,N,08048.1916,W,1,9,1.5,17,M,,M,,*52
06/02/2014	10:04:45.562	$GPGGA,100446,2432.1610,N,08048.1933,W,1,9,1.5,17,M,,M,,*51
06/02/2014	10:04:46.585	$GPGGA,100447,2432.1604,N,08048.1948,W,1,8,1.6,17,M,,M,,*5B
06/02/2014	10:04:47.575	$GPGGA,100448,2432.1599,N,08048.1965,W,1,8,1.5,16,M,,M,,*5E
06/02/2014	10:04:48.544	$GPGGA,100449,2432.1592,N,08048.1981,W,1,9,1.5,16,M,,M,,*5F
06/02/2014	10:04:49.565	$GPGGA,100450,2432.1585,N,08048.1998,W,1,9,1.5,16,M,,M,,*59
06/02/2014	10:04:50.555	$GPGGA,100451,2432.1579,N,08048.2016,W,1,9,1.5,16,M,,M,,*57
06/02/2014	10:04:51.555	$GPGGA,100452,2432.1573,N,08048.2034,W,1,9,1.5,16,M,,M,,*5E
06/02/2014	10:04:52.575	$GPGGA,100453,2432.1568,N,08048.2050,W,1,9,1.5,16,M,,M,,*57
06/02/2014	10:04:53.535	$GPGGA,100454,2432.1563,N,08048.2070,W,1,9,1.5,16,M,,M,,*59
06/02/2014	10:04:54.546	$GPGGA,100455,2432.1556,N,08048.2088,W,1,9,1.5,16,M,,M,,*59
06/02/2014	10:04:55.556	$GPGGA,100456,2432.1552,N,08048.2106,W,1,9,1.5,16,M,,M,,*59
06/02/2014	10:04:56.536	$GPGGA,100457,2432.1548,N,08048.2122,W,1,9,1.5,16,M,,M,,*55
06/02/2014	10:04:57.546	$GPGGA,100458,2432.1542,N,08048.2139,W,1,9,1.5,16,M,,M,,*5A
06/02/2014	10:04:58.646	$GPGGA,100459,2432.1537,N,08048.2154,W,1,9,1.5,16,M,,M,,*52
06/02/2014	10:04:59.557	$GPGGA,100500,2432.1534,N,08048.2171,W,1,9,1.5,16,M,,M,,*5B
06/02/2014	10:05:00.637	$GPGGA,100501,2432.1530,N,08048.2187,W,1,9,1.5,16,M,,M,,*57
06/02/2014	10:05:01.517	$GPGGA,100502,2432.1526,N,08048.2205,W,1,9,1.5,16,M,,M,,*5A
06/02/2014	10:05:02.527	$GPGGA,100503,2432.1520,N,08048.2225,W,1,9,1.5,16,M,,M,,*5F
06/02/2014	10:05:04.929	$GPGGA,100504,2432.1516,N,08048.2243,W,1,9,1.5,16,M,,M,,*5D
06/02/2014	10:05:04.949	$GPGGA,100505,2432.1513,N,08048.2263,W,1,9,1.5,16,M,,M,,*5B
06/02/2014	10:05:05.528	$GPGGA,100506,2432.1508,N,08048.2283,W,1,9,1.5,16,M,,M,,*5C
06/02/2014	10:05:06.508	$GPGGA,100507,2432.1503,N,08048.2302,W,1,9,1.5,16,M,,M,,*5E
06/02/2014	10:05:07.617	$GPGGA,100508,2432.1498,N,08048.2321,W,1,9,1.5,16,M,,M,,*53
06/02/2014	10:05:08.607	$GPGGA,100509,2432.1494,N,08048.2341,W,1,9,1.5,16,M,,M,,*58
06/02/2014	10:05:09.518	$GPGGA,100510,2432.1490,N,08048.2359,W,1,9,1.5,16,M,,M,,*5D
06/02/2014	10:05:10.508	$GPGGA,100511,2432.1484,N,08048.2374,W,1,9,1.5,16,M,,M,,*56
06/02/2014	10:05:11.638	$GPGGA,100512,2432.1479,N,08048.2392,W,1,9,1.5,16,M,,M,,*5F
06/02/2014	10:05:12.508	$GPGGA,100513,2432.1476,N,08048.2410,W,1,9,1.5,16,M,,M,,*5C
06/02/2014	10:05:13.598	$GPGGA,100514,2432.1471,N,08048.2428,W,1,9,1.5,16,M,,M,,*57
06/02/2014	10:05:14.659	$GPGGA,100515,2432.1466,N,08048.2447,W,1,9,1.5,16,M,,M,,*59
06/02/2014	10:05:15.639	$GPGGA,100516,2432.1462,N,08048.2467,W,1,9,1.5,16,M,,M,,*5C
06/02/2014	10:05:16.629	$GPGGA,100517,2432.1458,N,08048.2486,W,1,8,1.9,16,M,,M,,*56
06/02/2014	10:05:17.589	$GPGGA,100518,2432.1454,N,08048.2503,W,1,8,1.5,16,M,,M,,*55
06/02/2014	10:05:18.609	$GPGGA,100519,2432.1449,N,08048.2519,W,1,9,1.5,16,M,,M,,*52
06/02/2014	10:05:19.600	$GPGGA,100520,2432.1445,N,08048.2534,W,1,9,1.9,16,M,,M,,*57
06/02/2014	10:05:20.600	$GPGGA,100521,2432.1440,N,08048.2554,W,1,9,1.5,16,M,,M,,*59
06/02/2014	10:05:21.580	$GPGGA,100522,2432.1436,N,08048.2572,W,1,9,1.9,16,M,,M,,*53
06/02/2014	10:05:22.610	$GPGGA,100523,2432.1431,N,08048.2591,W,1,9,1.5,16,M,,M,,*54
06/02/2014	10:05:23.589	$GPGGA,100524,2432.1427,N,08048.2610,W,1,9,1.5,16,M,,M,,*5E
06/02/2014	10:05:24.620	$GPGGA,100525,2432.1422,N,08048.2627,W,1,9,1.5,16,M,,M,,*5E
06/02/2014	10:05:25.580	$GPGGA,100526,2432.1416,N,08048.2645,W,1,9,1.5,16,M,,M,,*5E
06/02/2014	10:05:26.590	$GPGGA,100527,2432.1411,N,08048.2660,W,1,9,1.5,16,M,,M,,*5F
06/02/2014	10:05:27.590	$GPGGA,100528,2432.1407,N,08048.2678,W,1,9,1.5,16,M,,M,,*5E
06/02/2014	10:05:28.591	$GPGGA,100529,2432.1402,N,08048.2696,W,1,9,1.5,17,M,,M,,*5B
06/02/2014	10:05:29.571	$GPGGA,100530,2432.1396,N,08048.2713,W,1,9,1.9,17,M,,M,,*59
06/02/2014	10:05:30.591	$GPGGA,100531,2432.1391,N,08048.2732,W,1,9,1.5,17,M,,M,,*50
06/02/2014	10:05:31.581	$GPGGA,100532,2432.1386,N,08048.2753,W,1,9,1.5,17,M,,M,,*52
06/02/2014	10:05:32.591	$GPGGA,100533,2432.1379,N,08048.2771,W,1,9,1.5,17,M,,M,,*53
06/02/2014	10:05:33.551	$GPGGA,100534,2432.1372,N,08048.2789,W,1,9,1.5,17,M,,M,,*58
06/02/2014	10:05:34.553	$GPGGA,100535,2432.1367,N,08048.2807,W,1,9,1.5,17,M,,M,,*54
06/02/2014	10:05:35.572	$GPGGA,100536,2432.1364,N,08048.2826,W,1,9,1.5,17,M,,M,,*57
06/02/2014	10:05:36.592	$GPGGA,100537,2432.1358,N,08048.2843,W,1,9,1.5,17,M,,M,,*5A
06/02/2014	10:05:37.562	$GPGGA,100538,2432.1353,N,08048.2858,W,1,9,1.5,17,M,,M,,*54
06/02/2014	10:05:38.552	$GPGGA,100539,2432.1347,N,08048.2873,W,1,9,1.5,16,M,,M,,*58
06/02/2014	10:05:39.565	$GPGGA,100540,2432.1343,N,08048.2890,W,1,9,1.5,16,M,,M,,*5F
06/02/2014	10:05:40.553	$GPGGA,100541,2432.1337,N,08048.2908,W,1,9,1.5,16,M,,M,,*5D
06/02/2014	10:05:41.552	$GPGGA,100542,2432.1331,N,08048.2927,W,1,9,1.5,16,M,,M,,*55
06/02/2014	10:05:42.662	$GPGGA,100543,2432.1325,N,08048.2948,W,1,9,1.5,16,M,,M,,*58
06/02/2014	10:05:43.542	$GPGGA,100544,2432.1318,N,08048.2967,W,1,9,1.5,16,M,,M,,*5C
06/02/2014	10:05:44.543	$GPGGA,100545,2432.1312,N,08048.2986,W,1,9,1.5,16,M,,M,,*58
06/02/2014	10:05:45.533	$GPGGA,100546,2432.1307,N,08048.3003,W,1,9,1.5,16,M,,M,,*5A
06/02/2014	10:05:46.543	$GPGGA,100547,2432.1303,N,08048.3017,W,1,9,1.5,16,M,,M,,*5A
06/02/2014	10:05:47.553	$GPGGA,100548,2432.1299,N,08048.3032,W,1,9,1.5,16,M,,M,,*50
06/02/2014	10:05:48.523	$GPGGA,100549,2432.1295,N,08048.3047,W,1,9,1.5,16,M,,M,,*5F
06/02/2014	10:05:49.534	$GPGGA,100550,2432.1290,N,08048.3065,W,1,9,1.5,16,M,,M,,*52
06/02/2014	10:05:50.624	$GPGGA,100551,2432.1286,N,08048.3085,W,1,9,1.5,16,M,,M,,*5A
06/02/2014	10:05:51.544	$GPGGA,100552,2432.1281,N,08048.3107,W,1,9,1.5,16,M,,M,,*55
06/02/2014	10:05:52.544	$GPGGA,100553,2432.1273,N,08048.3126,W,1,8,1.9,16,M,,M,,*57
06/02/2014	10:05:53.524	$GPGGA,100554,2432.1267,N,08048.3145,W,1,8,1.5,16,M,,M,,*5C
06/02/2014	10:05:54.515	$GPGGA,100555,2432.1263,N,08048.3163,W,1,9,1.5,16,M,,M,,*5C
06/02/2014	10:05:55.646	$GPGGA,100556,2432.1259,N,08048.3179,W,1,9,1.5,16,M,,M,,*5D
06/02/2014	10:05:56.645	$GPGGA,100557,2432.1252,N,08048.3194,W,1,9,1.5,16,M,,M,,*54
06/02/2014	10:05:57.615	$GPGGA,100558,2432.1246,N,08048.3208,W,1,9,1.5,16,M,,M,,*58
06/02/2014	10:05:58.614	$GPGGA,100559,2432.1242,N,08048.3224,W,1,9,1.5,16,M,,M,,*53
06/02/2014	10:05:59.665	$GPGGA,100600,2432.1237,N,08048.3244,W,1,9,1.9,16,M,,M,,*54
06/02/2014	10:06:00.525	$GPGGA,100601,2432.1231,N,08048.3263,W,1,8,1.9,16,M,,M,,*57
06/02/2014	10:06:01.615	$GPGGA,100602,2432.1223,N,08048.3281,W,1,8,1.5,16,M,,M,,*57
06/02/2014	10:06:02.625	$GPGGA,100603,2432.1216,N,08048.3302,W,1,9,1.5,16,M,,M,,*5B
06/02/2014	10:06:03.615	$GPGGA,100604,2432.1209,N,08048.3320,W,1,9,1.5,16,M,,M,,*52
06/02/2014	10:06:04.636	$GPGGA,100605,2432.1203,N,08048.3338,W,1,9,1.5,16,M,,M,,*50
06/02/2014	10:06:05.596	$GPGGA,100606,2432.1196,N,08048.3354,W,1,9,1.5,16,M,,M,,*56
06/02/2014	10:06:06.616	$GPGGA,100607,2432.1189,N,08048.3371,W,1,9,1.5,16,M,,M,,*5E
06/02/2014	10:06:07.646	$GPGGA,100608,2432.1183,N,08048.3387,W,1,9,1.5,16,M,,M,,*52
06/02/2014	10:06:08.616	$GPGGA,100609,2432.1178,N,08048.3404,W,1,9,1.5,16,M,,M,,*5B
06/02/2014	10:06:09.597	$GPGGA,100610,2432.1172,N,08048.3422,W,1,9,1.5,16,M,,M,,*5D
06/02/2014	10:06:10.607	$GPGGA,100611,2432.1165,N,08048.3440,W,1,9,1.5,16,M,,M,,*5E
06/02/2014	10:06:11.597	$GPGGA,100612,2432.1158,N,08048.3458,W,1,9,1.5,16,M,,M,,*5A
06/02/2014	10:06:12.597	$GPGGA,100613,2432.1152,N,08048.3477,W,1,9,1.5,16,M,,M,,*5C
06/02/2014	10:06:13.587	$GPGGA,100614,2432.1147,N,08048.3495,W,1,9,1.5,16,M,,M,,*53
06/02/2014	10:06:14.608	$GPGGA,100615,2432.1140,N,08048.3512,W,1,9,1.5,16,M,,M,,*5B
06/02/2014	10:06:15.598	$GPGGA,100616,2432.1133,N,08048.3530,W,1,9,1.5,16,M,,M,,*5C
06/02/2014	10:06:16.597	$GPGGA,100617,2432.1129,N,08048.3546,W,1,9,1.5,16,M,,M,,*57
06/02/2014	10:06:17.577	$GPGGA,100618,2432.1124,N,08048.3563,W,1,9,1.5,16,M,,M,,*52
06/02/2014	10:06:18.567	$GPGGA,100619,2432.1117,N,08048.3580,W,1,9,1.5,16,M,,M,,*5E
06/02/2014	10:06:19.598	$GPGGA,100620,2432.1111,N,08048.3596,W,1,9,1.5,16,M,,M,,*55
06/02/2014	10:06:20.568	$GPGGA,100621,2432.1106,N,08048.3614,W,1,9,1.5,16,M,,M,,*5B
06/02/2014	10:06:21.568	$GPGGA,100622,2432.1100,N,08048.3632,W,1,9,1.5,16,M,,M,,*5A
06/02/2014	10:06:22.608	$GPGGA,100623,2432.1093,N,08048.3649,W,1,9,1.5,16,M,,M,,*5C
06/02/2014	10:06:23.588	$GPGGA,100624,2432.1087,N,08048.3667,W,1,9,1.5,16,M,,M,,*52
06/02/2014	10:06:24.619	$GPGGA,100625,2432.1082,N,08048.3685,W,1,9,1.5,16,M,,M,,*5A
06/02/2014	10:06:25.574	$GPGGA,100626,2432.1075,N,08048.3701,W,1,9,1.5,16,M,,M,,*5C
06/02/2014	10:06:26.579	$GPGGA,100627,2432.1070,N,08048.3718,W,1,9,1.5,16,M,,M,,*50
06/02/2014	10:06:27.569	$GPGGA,100628,2432.1066,N,08048.3736,W,1,9,1.5,16,M,,M,,*54
06/02/2014	10:06:28.589	$GPGGA,100629,2432.1060,N,08048.3754,W,1,9,1.5,16,M,,M,,*57
06/02/2014	10:06:29.529	$GPGGA,100630,2432.1054,N,08048.3770,W,1,9,1.5,16,M,,M,,*5E
06/02/2014	10:06:30.540	$GPGGA,100631,2432.1049,N,08048.3790,W,1,9,1.5,16,M,,M,,*5D
06/02/2014	10:06:31.529	$GPGGA,100632,2432.1042,N,08048.3808,W,1,9,1.5,16,M,,M,,*5B
06/02/2014	10:06:32.559	$GPGGA,100633,2432.1036,N,08048.3826,W,1,9,1.5,16,M,,M,,*55
06/02/2014	10:06:33.528	$GPGGA,100634,2432.1031,N,08048.3842,W,1,9,1.5,16,M,,M,,*57
06/02/2014	10:06:34.529	$GPGGA,100635,2432.1026,N,08048.3859,W,1,9,1.9,16,M,,M,,*56
06/02/2014	10:06:35.569	$GPGGA,100636,2432.1022,N,08048.3873,W,1,9,1.5,16,M,,M,,*55
06/02/2014	10:06:36.549	$GPGGA,100637,2432.1017,N,08048.3889,W,1,9,1.5,16,M,,M,,*57
06/02/2014	10:06:37.509	$GPGGA,100638,2432.1012,N,08048.3905,W,1,9,1.5,16,M,,M,,*58
06/02/2014	10:06:38.519	$GPGGA,100639,2432.1006,N,08048.3924,W,1,9,1.5,16,M,,M,,*5F
06/02/2014	10:06:39.530	$GPGGA,100640,2432.1000,N,08048.3943,W,1,9,1.5,16,M,,M,,*56
06/02/2014	10:06:40.540	$GPGGA,100641,2432.0996,N,08048.3963,W,1,9,1.5,16,M,,M,,*52
06/02/2014	10:06:41.601	$GPGGA,100642,2432.0992,N,08048.3981,W,1,9,1.5,16,M,,M,,*59
06/02/2014	10:06:42.630	$GPGGA,100643,2432.0988,N,08048.3997,W,1,9,1.5,16,M,,M,,*54
06/02/2014	10:06:43.630	$GPGGA,100644,2432.0983,N,08048.4014,W,1,9,1.5,16,M,,M,,*5D
06/02/2014	10:06:44.631	$GPGGA,100645,2432.0982,N,08048.4030,W,1,9,1.5,16,M,,M,,*5B
06/02/2014	10:06:45.511	$GPGGA,100646,2432.0979,N,08048.4046,W,1,9,1.5,16,M,,M,,*5D
06/02/2014	10:06:46.631	$GPGGA,100647,2432.0975,N,08048.4064,W,1,9,1.5,16,M,,M,,*50
06/02/2014	10:06:47.611	$GPGGA,100648,2432.0972,N,08048.4086,W,1,9,1.5,16,M,,M,,*54
06/02/2014	10:06:48.591	$GPGGA,100649,2432.0967,N,08048.4108,W,1,9,1.9,16,M,,M,,*5A
06/02/2014	10:06:49.582	$GPGGA,100650,2432.0961,N,08048.4127,W,1,9,1.5,16,M,,M,,*55
06/02/2014	10:06:50.612	$GPGGA,100651,2432.0956,N,08048.4147,W,1,9,1.5,16,M,,M,,*56
06/02/2014	10:06:51.601	$GPGGA,100652,2432.0950,N,08048.4165,W,1,9,1.5,16,M,,M,,*53
06/02/2014	10:06:52.581	$GPGGA,100653,2432.0946,N,08048.4183,W,1,9,1.5,16,M,,M,,*5D
06/02/2014	10:06:53.591	$GPGGA,100654,2432.0942,N,08048.4198,W,1,9,1.5,16,M,,M,,*54
06/02/2014	10:06:54.632	$GPGGA,100655,2432.0939,N,08048.4213,W,1,9,1.5,16,M,,M,,*59
06/02/2014	10:06:55.592	$GPGGA,100656,2432.0935,N,08048.4230,W,1,9,1.5,17,M,,M,,*56
06/02/2014	10:06:56.572	$GPGGA,100657,2432.0930,N,08048.4245,W,1,9,1.5,17,M,,M,,*50
06/02/2014	10:06:57.572	$GPGGA,100658,2432.0927,N,08048.4263,W,1,9,1.5,17,M,,M,,*5D
06/02/2014	10:06:58.582	$GPGGA,100659,2432.0920,N,08048.4282,W,1,9,1.5,17,M,,M,,*54
06/02/2014	10:06:59.603	$GPGGA,100700,2432.0914,N,08048.4301,W,1,9,1.5,17,M,,M,,*54
06/02/2014	10:07:00.573	$GPGGA,100701,2432.0906,N,08048.4321,W,1,9,1.5,17,M,,M,,*54
06/02/2014	10:07:01.573	$GPGGA,100702,2432.0900,N,08048.4339,W,1,9,1.5,17,M,,M,,*58
06/02/2014	10:07:02.583	$GPGGA,100703,2432.0895,N,08048.4358,W,1,9,1.5,17,M,,M,,*53
06/02/2014	10:07:03.573	$GPGGA,100704,2432.0888,N,08048.4376,W,1,9,1.5,17,M,,M,,*54
06/02/2014	10:07:04.594	$GPGGA,100705,2432.0883,N,08048.4391,W,1,9,1.5,17,M,,M,,*57
06/02/2014	10:07:05.556	$GPGGA,100706,2432.0880,N,08048.4407,W,1,9,1.5,17,M,,M,,*5F
06/02/2014	10:07:06.584	$GPGGA,100707,2432.0876,N,08048.4422,W,1,9,1.5,17,M,,M,,*50
06/02/2014	10:07:07.564	$GPGGA,100708,2432.0870,N,08048.4438,W,1,9,1.5,17,M,,M,,*52
06/02/2014	10:07:08.553	$GPGGA,100709,2432.0864,N,08048.4456,W,1,9,1.5,17,M,,M,,*5E
06/02/2014	10:07:09.554	$GPGGA,100710,2432.0858,N,08048.4476,W,1,9,1.5,17,M,,M,,*5B
06/02/2014	10:07:10.584	$GPGGA,100711,2432.0849,N,08048.4495,W,1,9,1.5,17,M,,M,,*57
06/02/2014	10:07:11.564	$GPGGA,100712,2432.0844,N,08048.4516,W,1,9,1.5,17,M,,M,,*53
06/02/2014	10:07:12.554	$GPGGA,100713,2432.0840,N,08048.4535,W,1,9,1.5,17,M,,M,,*57
06/02/2014	10:07:13.534	$GPGGA,100714,2432.0833,N,08048.4552,W,1,9,1.5,17,M,,M,,*55
06/02/2014	10:07:14.555	$GPGGA,100715,2432.0829,N,08048.4567,W,1,9,1.5,17,M,,M,,*59
06/02/2014	10:07:15.555	$GPGGA,100716,2432.0827,N,08048.4585,W,1,9,1.5,17,M,,M,,*58
06/02/2014	10:07:16.555	$GPGGA,100717,2432.0822,N,08048.4602,W,1,8,1.9,17,M,,M,,*5D
06/02/2014	10:07:17.535	$GPGGA,100718,2432.0815,N,08048.4620,W,1,8,1.5,17,M,,M,,*5A
06/02/2014	10:07:18.535	$GPGGA,100719,2432.0809,N,08048.4639,W,1,7,2.1,17,M,,M,,*56
06/02/2014	10:07:19.556	$GPGGA,100720,2432.0804,N,08048.4660,W,1,7,1.5,17,M,,M,,*5A
06/02/2014	10:07:20.536	$GPGGA,100721,2432.0799,N,08048.4678,W,1,9,1.5,17,M,,M,,*57
06/02/2014	10:07:21.526	$GPGGA,100722,2432.0793,N,08048.4696,W,1,9,1.5,17,M,,M,,*5E
06/02/2014	10:07:22.546	$GPGGA,100723,2432.0789,N,08048.4715,W,1,9,1.5,17,M,,M,,*5E
06/02/2014	10:07:23.656	$GPGGA,100724,2432.0786,N,08048.4733,W,1,9,1.5,17,M,,M,,*52
06/02/2014	10:07:24.647	$GPGGA,100725,2432.0780,N,08048.4751,W,1,9,1.5,17,M,,M,,*51
06/02/2014	10:07:25.527	$GPGGA,100726,2432.0775,N,08048.4767,W,1,9,1.5,17,M,,M,,*5D
06/02/2014	10:07:26.536	$GPGGA,100727,2432.0771,N,08048.4784,W,1,9,1.5,17,M,,M,,*55
06/02/2014	10:07:27.646	$GPGGA,100728,2432.0766,N,08048.4801,W,1,9,1.5,17,M,,M,,*5E
06/02/2014	10:07:28.646	$GPGGA,100729,2432.0760,N,08048.4816,W,1,9,1.5,17,M,,M,,*5F
06/02/2014	10:07:29.527	$GPGGA,100730,2432.0755,N,08048.4832,W,1,9,1.5,17,M,,M,,*57
06/02/2014	10:07:30.527	$GPGGA,100731,2432.0752,N,08048.4852,W,1,8,1.6,17,M,,M,,*55
06/02/2014	10:07:31.617	$GPGGA,100732,2432.0746,N,08048.4871,W,1,8,1.5,17,M,,M,,*51
06/02/2014	10:07:32.637	$GPGGA,100733,2432.0741,N,08048.4892,W,1,9,1.5,17,M,,M,,*5B
06/02/2014	10:07:33.597	$GPGGA,100734,2432.0737,N,08048.4910,W,1,9,1.5,17,M,,M,,*56
06/02/2014	10:07:34.638	$GPGGA,100735,2432.0732,N,08048.4928,W,1,9,1.5,17,M,,M,,*59
06/02/2014	10:07:35.618	$GPGGA,100736,2432.0726,N,08048.4944,W,1,9,1.5,17,M,,M,,*55
06/02/2014	10:07:36.638	$GPGGA,100737,2432.0722,N,08048.4960,W,1,9,1.5,17,M,,M,,*56
06/02/2014	10:07:37.598	$GPGGA,100738,2432.0718,N,08048.4976,W,1,9,1.5,17,M,,M,,*57
06/02/2014	10:07:38.618	$GPGGA,100739,2432.0714,N,08048.4993,W,1,9,1.5,17,M,,M,,*51
06/02/2014	10:07:39.619	$GPGGA,100740,2432.0710,N,08048.5014,W,1,9,1.5,17,M,,M,,*5C
06/02/2014	10:07:40.619	$GPGGA,100741,2432.0703,N,08048.5033,W,1,7,1.9,18,M,,M,,*57
06/02/2014	10:07:41.589	$GPGGA,100742,2432.0696,N,08048.5051,W,1,7,1.5,18,M,,M,,*51
06/02/2014	10:07:42.609	$GPGGA,100743,2432.0692,N,08048.5072,W,1,9,1.5,18,M,,M,,*5B
06/02/2014	10:07:43.598	$GPGGA,100744,2432.0686,N,08048.5088,W,1,9,1.5,18,M,,M,,*5C
06/02/2014	10:07:44.610	$GPGGA,100745,2432.0679,N,08048.5105,W,1,9,1.5,18,M,,M,,*59
06/02/2014	10:07:45.579	$GPGGA,100746,2432.0674,N,08048.5121,W,1,9,1.5,18,M,,M,,*51
06/02/2014	10:07:46.589	$GPGGA,100747,2432.0669,N,08048.5138,W,1,8,1.5,18,M,,M,,*55
06/02/2014	10:07:47.599	$GPGGA,100748,2432.0663,N,08048.5156,W,1,8,1.5,18,M,,M,,*58
06/02/2014	10:07:48.599	$GPGGA,100749,2432.0657,N,08048.5177,W,1,9,1.5,18,M,,M,,*5C
06/02/2014	10:07:49.590	$GPGGA,100750,2432.0650,N,08048.5195,W,1,9,1.5,18,M,,M,,*5F
06/02/2014	10:07:50.610	$GPGGA,100751,2432.0643,N,08048.5211,W,1,8,1.6,18,M,,M,,*51
06/02/2014	10:07:51.580	$GPGGA,100752,2432.0636,N,08048.5228,W,1,8,1.5,18,M,,M,,*59
06/02/2014	10:07:52.570	$GPGGA,100753,2432.0630,N,08048.5246,W,1,9,1.5,19,M,,M,,*56
06/02/2014	10:07:53.570	$GPGGA,100754,2432.0624,N,08048.5261,W,1,9,1.5,19,M,,M,,*51
06/02/2014	10:07:54.611	$GPGGA,100755,2432.0617,N,08048.5278,W,1,9,1.5,19,M,,M,,*58
06/02/2014	10:07:55.581	$GPGGA,100756,2432.0612,N,08048.5296,W,1,9,1.5,19,M,,M,,*5E
06/02/2014	10:07:56.591	$GPGGA,100757,2432.0606,N,08048.5314,W,1,9,1.5,19,M,,M,,*51
06/02/2014	10:07:57.551	$GPGGA,100758,2432.0600,N,08048.5333,W,1,9,1.5,19,M,,M,,*5D
06/02/2014	10:07:58.551	$GPGGA,100759,2432.0594,N,08048.5354,W,1,9,1.5,19,M,,M,,*53
06/02/2014	10:07:59.582	$GPGGA,100800,2432.0588,N,08048.5372,W,1,9,1.5,19,M,,M,,*59
06/02/2014	10:08:00.554	$GPGGA,100801,2432.0581,N,08048.5390,W,1,9,1.5,19,M,,M,,*5D
06/02/2014	10:08:01.551	$GPGGA,100802,2432.0577,N,08048.5409,W,1,9,1.9,19,M,,M,,*5C
06/02/2014	10:08:02.581	$GPGGA,100803,2432.0573,N,08048.5427,W,1,9,1.5,19,M,,M,,*59
06/02/2014	10:08:03.571	$GPGGA,100804,2432.0567,N,08048.5444,W,1,9,1.5,19,M,,M,,*5E
06/02/2014	10:08:04.562	$GPGGA,100805,2432.0562,N,08048.5462,W,1,9,1.5,19,M,,M,,*5E
06/02/2014	10:08:05.552	$GPGGA,100806,2432.0558,N,08048.5480,W,1,9,1.5,19,M,,M,,*58
06/02/2014	10:08:06.572	$GPGGA,100807,2432.0552,N,08048.5496,W,1,9,1.5,19,M,,M,,*54
06/02/2014	10:08:07.552	$GPGGA,100808,2432.0547,N,08048.5514,W,1,9,1.5,19,M,,M,,*54
06/02/2014	10:08:08.553	$GPGGA,100809,2432.0541,N,08048.5533,W,1,9,1.5,19,M,,M,,*56
06/02/2014	10:08:09.533	$GPGGA,100810,2432.0537,N,08048.5554,W,1,9,1.5,19,M,,M,,*5E
06/02/2014	10:08:10.553	$GPGGA,100811,2432.0531,N,08048.5574,W,1,8,1.9,19,M,,M,,*56
06/02/2014	10:08:11.553	$GPGGA,100812,2432.0526,N,08048.5592,W,1,8,1.5,19,M,,M,,*57
06/02/2014	10:08:12.523	$GPGGA,100813,2432.0522,N,08048.5607,W,1,9,1.5,19,M,,M,,*5C
06/02/2014	10:08:13.643	$GPGGA,100814,2432.0516,N,08048.5625,W,1,9,1.5,19,M,,M,,*5C
06/02/2014	10:08:14.524	$GPGGA,100815,2432.0512,N,08048.5640,W,1,8,1.9,19,M,,M,,*57
06/02/2014	10:08:15.534	$GPGGA,100816,2432.0508,N,08048.5658,W,1,8,1.5,19,M,,M,,*5A
06/02/2014	10:08:16.524	$GPGGA,100817,2432.0502,N,08048.5675,W,1,9,1.5,19,M,,M,,*5F
06/02/2014	10:08:17.634	$GPGGA,100818,2432.0497,N,08048.5694,W,1,9,1.5,19,M,,M,,*52
06/02/2014	10:08:18.523	$GPGGA,100819,2432.0491,N,08048.5712,W,1,8,1.9,19,M,,M,,*57
06/02/2014	10:08:19.624	$GPGGA,100820,2432.0486,N,08048.5730,W,1,8,1.5,19,M,,M,,*57
06/02/2014	10:08:20.644	$GPGGA,100821,2432.0480,N,08048.5748,W,1,9,1.5,18,M,,M,,*5F
06/02/2014	10:08:21.514	$GPGGA,100822,2432.0475,N,08048.5763,W,1,9,1.5,18,M,,M,,*5F
06/02/2014	10:08:22.624	$GPGGA,100823,2432.0469,N,08048.5780,W,1,9,1.5,18,M,,M,,*5E
06/02/2014	10:08:23.614	$GPGGA,100824,2432.0464,N,08048.5798,W,1,9,1.5,18,M,,M,,*5D
06/02/2014	10:08:24.615	$GPGGA,100825,2432.0459,N,08048.5816,W,1,8,1.9,18,M,,M,,*56
06/02/2014	10:08:25.605	$GPGGA,100826,2432.0455,N,08048.5835,W,1,8,1.9,18,M,,M,,*58
06/02/2014	10:08:26.626	$GPGGA,100827,2432.0452,N,08048.5856,W,1,9,1.5,18,M,,M,,*56
06/02/2014	10:08:27.605	$GPGGA,100828,2432.0448,N,08048.5874,W,1,9,1.5,18,M,,M,,*52
06/02/2014	10:08:28.615	$GPGGA,100829,2432.0443,N,08048.5892,W,1,9,1.5,18,M,,M,,*50
06/02/2014	10:08:29.576	$GPGGA,100830,2432.0439,N,08048.5910,W,1,9,1.5,18,M,,M,,*5E
06/02/2014	10:08:30.596	$GPGGA,100831,2432.0432,N,08048.5926,W,1,9,1.5,18,M,,M,,*51
06/02/2014	10:08:31.576	$GPGGA,100832,2432.0426,N,08048.5944,W,1,9,1.5,17,M,,M,,*5C
06/02/2014	10:08:32.566	$GPGGA,100833,2432.0421,N,08048.5964,W,1,9,1.5,17,M,,M,,*58
06/02/2014	10:08:33.576	$GPGGA,100834,2432.0416,N,08048.5980,W,1,9,1.5,17,M,,M,,*51
06/02/2014	10:08:34.567	$GPGGA,100835,2432.0410,N,08048.5997,W,1,9,1.5,17,M,,M,,*50
06/02/2014	10:08:35.577	$GPGGA,100836,2432.0404,N,08048.6015,W,1,9,1.5,17,M,,M,,*56
06/02/2014	10:08:36.586	$GPGGA,100837,2432.0399,N,08048.6033,W,1,9,1.5,17,M,,M,,*50
06/02/2014	10:08:37.566	$GPGGA,100838,2432.0394,N,08048.6051,W,1,9,1.5,17,M,,M,,*56
06/02/2014	10:08:38.546	$GPGGA,100839,2432.0388,N,08048.6069,W,1,9,1.5,17,M,,M,,*51
06/02/2014	10:08:39.587	$GPGGA,100840,2432.0383,N,08048.6087,W,1,9,1.5,17,M,,M,,*54
06/02/2014	10:08:40.587	$GPGGA,100841,2432.0379,N,08048.6103,W,1,9,1.5,17,M,,M,,*5D
06/02/2014	10:08:41.548	$GPGGA,100842,2432.0374,N,08048.6120,W,1,9,1.5,17,M,,M,,*52
06/02/2014	10:08:42.557	$GPGGA,100843,2432.0368,N,08048.6138,W,1,9,1.5,17,M,,M,,*57
06/02/2014	10:08:43.567	$GPGGA,100844,2432.0363,N,08048.6156,W,1,9,1.5,17,M,,M,,*53
06/02/2014	10:08:44.578	$GPGGA,100845,2432.0356,N,08048.6174,W,1,9,1.5,17,M,,M,,*54
06/02/2014	10:08:45.538	$GPGGA,100846,2432.0350,N,08048.6193,W,1,9,1.5,17,M,,M,,*58
06/02/2014	10:08:46.548	$GPGGA,100847,2432.0342,N,08048.6212,W,1,9,1.5,17,M,,M,,*50
06/02/2014	10:08:47.558	$GPGGA,100848,2432.0338,N,08048.6232,W,1,9,1.5,17,M,,M,,*50
06/02/2014	10:08:48.540	$GPGGA,100849,2432.0332,N,08048.6250,W,1,9,1.5,17,M,,M,,*5F
06/02/2014	10:08:49.549	$GPGGA,100850,2432.0327,N,08048.6264,W,1,9,1.5,17,M,,M,,*54
06/02/2014	10:08:50.559	$GPGGA,100851,2432.0323,N,08048.6280,W,1,9,1.5,17,M,,M,,*5B
06/02/2014	10:08:51.540	$GPGGA,100852,2432.0320,N,08048.6297,W,1,9,1.5,17,M,,M,,*5D
06/02/2014	10:08:52.559	$GPGGA,100853,2432.0313,N,08048.6312,W,1,9,1.5,17,M,,M,,*50
06/02/2014	10:08:53.529	$GPGGA,100854,2432.0307,N,08048.6329,W,1,9,1.5,17,M,,M,,*5A
06/02/2014	10:08:54.529	$GPGGA,100855,2432.0302,N,08048.6349,W,1,9,1.5,17,M,,M,,*58
06/02/2014	10:08:55.550	$GPGGA,100856,2432.0296,N,08048.6370,W,1,9,1.5,17,M,,M,,*5D
06/02/2014	10:08:56.540	$GPGGA,100857,2432.0289,N,08048.6391,W,1,9,1.5,17,M,,M,,*5D
06/02/2014	10:08:57.541	$GPGGA,100858,2432.0281,N,08048.6412,W,1,9,1.5,17,M,,M,,*56
06/02/2014	10:08:58.531	$GPGGA,100859,2432.0274,N,08048.6431,W,1,9,1.5,17,M,,M,,*5C
06/02/2014	10:08:59.562	$GPGGA,100900,2432.0270,N,08048.6449,W,1,9,1.5,17,M,,M,,*5A
06/02/2014	10:09:00.512	$GPGGA,100901,2432.0266,N,08048.6465,W,1,9,1.5,17,M,,M,,*52
06/02/2014	10:09:01.613	$GPGGA,100902,2432.0259,N,08048.6478,W,1,9,1.5,17,M,,M,,*51
06/02/2014	10:09:02.523	$GPGGA,100903,2432.0256,N,08048.6493,W,1,9,1.5,17,M,,M,,*5A
06/02/2014	10:09:03.524	$GPGGA,100904,2432.0255,N,08048.6510,W,1,9,1.5,17,M,,M,,*54
06/02/2014	10:09:04.504	$GPGGA,100905,2432.0248,N,08048.6528,W,1,8,1.9,17,M,,M,,*5F
06/02/2014	10:09:05.605	$GPGGA,100906,2432.0241,N,08048.6546,W,1,8,1.5,17,M,,M,,*51
06/02/2014	10:09:06.705	$GPGGA,100907,2432.0235,N,08048.6568,W,1,9,1.5,17,M,,M,,*5E
06/02/2014	10:09:07.526	$GPGGA,100908,2432.0228,N,08048.6590,W,1,9,1.5,17,M,,M,,*5A
06/02/2014	10:09:08.696	$GPGGA,100909,2432.0220,N,08048.6612,W,1,9,1.5,17,M,,M,,*5A
06/02/2014	10:09:09.507	$GPGGA,100910,2432.0215,N,08048.6633,W,1,9,1.5,17,M,,M,,*57
06/02/2014	10:09:10.697	$GPGGA,100911,2432.0209,N,08048.6651,W,1,9,1.5,17,M,,M,,*5F
06/02/2014	10:09:11.607	$GPGGA,100912,2432.0205,N,08048.6667,W,1,9,1.5,17,M,,M,,*55
06/02/2014	10:09:12.647	$GPGGA,100913,2432.0202,N,08048.6683,W,1,9,1.5,17,M,,M,,*59
06/02/2014	10:09:13.618	$GPGGA,100914,2432.0198,N,08048.6698,W,1,9,1.5,17,M,,M,,*54
06/02/2014	10:09:14.708	$GPGGA,100915,2432.0195,N,08048.6716,W,1,9,1.9,17,M,,M,,*53
06/02/2014	10:09:15.629	$GPGGA,100916,2432.0191,N,08048.6730,W,1,9,1.9,17,M,,M,,*50
06/02/2014	10:09:16.699	$GPGGA,100917,2432.0186,N,08048.6749,W,1,9,1.5,17,M,,M,,*55
06/02/2014	10:09:17.590	$GPGGA,100918,2432.0179,N,08048.6768,W,1,9,1.5,17,M,,M,,*59
06/02/2014	10:09:18.690	$GPGGA,100919,2432.0173,N,08048.6788,W,1,9,1.5,17,M,,M,,*5C
06/02/2014	10:09:19.651	$GPGGA,100920,2432.0168,N,08048.6810,W,1,9,1.5,17,M,,M,,*52
06/02/2014	10:09:20.681	$GPGGA,100921,2432.0161,N,08048.6832,W,1,9,1.9,17,M,,M,,*56
06/02/2014	10:09:21.612	$GPGGA,100922,2432.0156,N,08048.6850,W,1,9,1.5,18,M,,M,,*56
06/02/2014	10:09:22.682	$GPGGA,100923,2432.0152,N,08048.6871,W,1,9,1.5,18,M,,M,,*50
06/02/2014	10:09:23.613	$GPGGA,100924,2432.0150,N,08048.6889,W,1,9,1.5,18,M,,M,,*52
06/02/2014	10:09:24.573	$GPGGA,100925,2432.0144,N,08048.6902,W,1,9,1.5,18,M,,M,,*54
06/02/2014	10:09:25.594	$GPGGA,100926,2432.0141,N,08048.6918,W,1,9,1.5,18,M,,M,,*59
06/02/2014	10:09:26.674	$GPGGA,100927,2432.0139,N,08048.6934,W,1,9,1.5,18,M,,M,,*59
06/02/2014	10:09:27.615	$GPGGA,100928,2432.0133,N,08048.6952,W,1,9,1.5,18,M,,M,,*5C
06/02/2014	10:09:28.564	$GPGGA,100929,2432.0126,N,08048.6972,W,1,9,1.5,18,M,,M,,*5B
06/02/2014	10:09:29.584	$GPGGA,100930,2432.0121,N,08048.6994,W,1,9,1.5,18,M,,M,,*5C
06/02/2014	10:09:30.664	$GPGGA,100931,2432.0112,N,08048.7013,W,1,9,1.5,18,M,,M,,*5A
06/02/2014	10:09:31.555	$GPGGA,100932,2432.0105,N,08048.7034,W,1,9,1.5,18,M,,M,,*5A
06/02/2014	10:09:32.655	$GPGGA,100933,2432.0099,N,08048.7050,W,1,9,1.5,18,M,,M,,*5D
06/02/2014	10:09:33.536	$GPGGA,100934,2432.0093,N,08048.7066,W,1,9,1.5,18,M,,M,,*55
06/02/2014	10:09:34.666	$GPGGA,100935,2432.0089,N,08048.7081,W,1,9,1.5,18,M,,M,,*56
06/02/2014	10:09:35.577	$GPGGA,100936,2432.0082,N,08048.7095,W,1,9,1.5,18,M,,M,,*5B
06/02/2014	10:09:36.627	$GPGGA,100937,2432.0078,N,08048.7113,W,1,9,1.9,18,M,,M,,*5C
06/02/2014	10:09:37.528	$GPGGA,100938,2432.0071,N,08048.7131,W,1,9,1.9,18,M,,M,,*5A
06/02/2014	10:09:38.608	$GPGGA,100939,2432.0064,N,08048.7149,W,1,9,1.5,18,M,,M,,*5C
06/02/2014	10:09:39.589	$GPGGA,100940,2432.0057,N,08048.7167,W,1,9,1.5,18,M,,M,,*5E
06/02/2014	10:09:40.609	$GPGGA,100941,2432.0050,N,08048.7184,W,1,9,1.5,18,M,,M,,*55
06/02/2014	10:09:41.520	$GPGGA,100942,2432.0044,N,08048.7202,W,1,9,1.5,18,M,,M,,*5E
06/02/2014	10:09:42.640	$GPGGA,100943,2432.0038,N,08048.7219,W,1,9,1.5,18,M,,M,,*5E
06/02/2014	10:09:43.531	$GPGGA,100944,2432.0033,N,08048.7236,W,1,9,1.5,18,M,,M,,*5F
06/02/2014	10:09:44.611	$GPGGA,100945,2432.0027,N,08048.7252,W,1,9,1.5,18,M,,M,,*59
06/02/2014	10:09:45.522	$GPGGA,100946,2432.0020,N,08048.7269,W,1,9,1.5,18,M,,M,,*55
06/02/2014	10:09:46.511	$GPGGA,100947,2432.0015,N,08048.7287,W,1,9,1.5,18,M,,M,,*52
06/02/2014	10:09:47.560	$GPGGA,100948,2432.0009,N,08048.7302,W,1,9,1.5,18,M,,M,,*5C
06/02/2014	10:09:48.602	$GPGGA,100949,2432.0003,N,08048.7319,W,1,9,1.9,18,M,,M,,*51
06/02/2014	10:09:49.553	$GPGGA,100950,2431.9997,N,08048.7334,W,1,9,1.5,18,M,,M,,*54
06/02/2014	10:09:50.593	$GPGGA,100951,2431.9991,N,08048.7348,W,1,9,1.5,18,M,,M,,*58
06/02/2014	10:09:51.614	$GPGGA,100952,2431.9987,N,08048.7366,W,1,9,1.7,18,M,,M,,*52
06/02/2014	10:09:52.654	$GPGGA,100953,2431.9982,N,08048.7384,W,1,8,1.5,18,M,,M,,*59
06/02/2014	10:09:53.605	$GPGGA,100954,2431.9977,N,08048.7400,W,1,8,1.5,18,M,,M,,*5F
06/02/2014	10:09:54.625	$GPGGA,100955,2431.9971,N,08048.7421,W,1,9,1.5,18,M,,M,,*5A
06/02/2014	10:09:55.556	$GPGGA,100956,2431.9966,N,08048.7440,W,1,9,1.5,18,M,,M,,*58
06/02/2014	10:09:56.646	$GPGGA,100957,2431.9962,N,08048.7461,W,1,9,1.9,18,M,,M,,*52
06/02/2014	10:09:57.597	$GPGGA,100958,2431.9955,N,08048.7479,W,1,9,1.5,18,M,,M,,*5C
06/02/2014	10:09:58.617	$GPGGA,100959,2431.9948,N,08048.7496,W,1,9,1.5,18,M,,M,,*50
06/02/2014	10:09:59.618	$GPGGA,101000,2431.9942,N,08048.7514,W,1,9,1.5,18,M,,M,,*55
06/02/2014	10:10:00.638	$GPGGA,101001,2431.9938,N,08048.7529,W,1,9,1.5,18,M,,M,,*57
06/02/2014	10:10:01.619	$GPGGA,101002,2431.9933,N,08048.7544,W,1,9,1.5,18,M,,M,,*54
06/02/2014	10:10:02.599	$GPGGA,101003,2431.9927,N,08048.7561,W,1,9,1.5,18,M,,M,,*57
06/02/2014	10:10:03.609	$GPGGA,101004,2431.9922,N,08048.7579,W,1,9,1.5,18,M,,M,,*5C
06/02/2014	10:10:04.669	$GPGGA,101005,2431.9917,N,08048.7599,W,1,9,1.5,18,M,,M,,*55
06/02/2014	10:10:05.580	$GPGGA,101006,2431.9910,N,08048.7620,W,1,9,1.5,18,M,,M,,*50
06/02/2014	10:10:06.610	$GPGGA,101007,2431.9903,N,08048.7642,W,1,9,1.5,18,M,,M,,*57
06/02/2014	10:10:07.601	$GPGGA,101008,2431.9903,N,08048.7642,W,1,9,1.5,18,M,,M,,*58
06/02/2014	10:10:08.611	$GPGGA,101009,2431.9890,N,08048.7684,W,1,9,1.5,18,M,,M,,*58
06/02/2014	10:10:09.582	$GPGGA,101010,2431.9884,N,08048.7702,W,1,9,1.5,18,M,,M,,*5A
06/02/2014	10:10:10.602	$GPGGA,101011,2431.9879,N,08048.7717,W,1,9,1.5,18,M,,M,,*5D
06/02/2014	10:10:11.593	$GPGGA,101012,2431.9872,N,08048.7732,W,1,9,1.5,18,M,,M,,*52
06/02/2014	10:10:12.623	$GPGGA,101013,2431.9868,N,08048.7749,W,1,9,1.5,18,M,,M,,*54
06/02/2014	10:10:13.584	$GPGGA,101014,2431.9865,N,08048.7767,W,1,9,1.5,18,M,,M,,*52
06/02/2014	10:10:14.634	$GPGGA,101015,2431.9857,N,08048.7785,W,1,9,1.5,19,M,,M,,*5F
06/02/2014	10:10:15.585	$GPGGA,101016,2431.9851,N,08048.7804,W,1,9,1.5,19,M,,M,,*5C
06/02/2014	10:10:16.595	$GPGGA,101017,2431.9851,N,08048.7804,W,1,9,1.5,19,M,,M,,*5D
06/02/2014	10:10:17.566	$GPGGA,101018,2431.9839,N,08048.7845,W,1,9,1.5,19,M,,M,,*59
06/02/2014	10:10:18.636	$GPGGA,101019,2431.9832,N,08048.7865,W,1,9,1.5,19,M,,M,,*51
06/02/2014	10:10:19.587	$GPGGA,101020,2431.9826,N,08048.7883,W,1,9,1.5,19,M,,M,,*56
06/02/2014	10:10:20.569	$GPGGA,101021,2431.9826,N,08048.7883,W,1,9,1.5,19,M,,M,,*57
06/02/2014	10:10:21.577	$GPGGA,101022,2431.9816,N,08048.7917,W,1,9,1.5,19,M,,M,,*5B
06/02/2014	10:10:22.627	$GPGGA,101023,2431.9810,N,08048.7933,W,1,8,1.5,19,M,,M,,*5B
06/02/2014	10:10:23.688	$GPGGA,101024,2431.9805,N,08048.7949,W,1,8,1.5,19,M,,M,,*55
06/02/2014	10:10:24.638	$GPGGA,101025,2431.9803,N,08048.7967,W,1,9,1.5,19,M,,M,,*5F
06/02/2014	10:10:25.569	$GPGGA,101026,2431.9797,N,08048.7986,W,1,9,1.5,19,M,,M,,*51
06/02/2014	10:10:26.579	$GPGGA,101027,2431.9797,N,08048.7986,W,1,9,1.5,19,M,,M,,*50
06/02/2014	10:10:27.580	$GPGGA,101028,2431.9786,N,08048.8025,W,1,9,1.5,19,M,,M,,*50
06/02/2014	10:10:28.560	$GPGGA,101029,2431.9786,N,08048.8025,W,1,9,1.5,19,M,,M,,*51
06/02/2014	10:10:29.533	$GPGGA,101030,2431.9776,N,08048.8064,W,1,9,1.5,19,M,,M,,*53
06/02/2014	10:10:30.546	$GPGGA,101031,2431.9776,N,08048.8064,W,1,9,1.5,19,M,,M,,*52
06/02/2014	10:10:31.544	$GPGGA,101032,2431.9765,N,08048.8100,W,1,9,1.5,19,M,,M,,*50
06/02/2014	10:10:32.564	$GPGGA,101033,2431.9765,N,08048.8100,W,1,9,1.5,19,M,,M,,*51
06/02/2014	10:10:33.525	$GPGGA,101034,2431.9757,N,08048.8134,W,1,9,1.5,19,M,,M,,*50
06/02/2014	10:10:34.535	$GPGGA,101035,2431.9757,N,08048.8134,W,1,9,1.5,19,M,,M,,*51
06/02/2014	10:10:35.516	$GPGGA,101036,2431.9749,N,08048.8168,W,1,9,1.5,19,M,,M,,*54
06/02/2014	10:10:36.526	$GPGGA,101037,2431.9749,N,08048.8168,W,1,9,1.5,19,M,,M,,*55
06/02/2014	10:10:37.518	$GPGGA,101038,2431.9738,N,08048.8205,W,1,9,1.5,19,M,,M,,*54
06/02/2014	10:10:38.506	$GPGGA,101039,2431.9738,N,08048.8205,W,1,9,1.5,19,M,,M,,*55
06/02/2014	10:10:39.537	$GPGGA,101040,2431.9729,N,08048.8241,W,1,9,1.5,19,M,,M,,*5B
06/02/2014	10:10:40.517	$GPGGA,101041,2431.9729,N,08048.8241,W,1,9,1.5,19,M,,M,,*5A
06/02/2014	10:10:41.598	$GPGGA,101042,2431.9721,N,08048.8277,W,1,9,1.5,19,M,,M,,*54
06/02/2014	10:10:42.608	$GPGGA,101043,2431.9716,N,08048.8293,W,1,9,1.5,19,M,,M,,*5B
06/02/2014	10:10:43.609	$GPGGA,101044,2431.9713,N,08048.8310,W,1,9,1.5,19,M,,M,,*53
06/02/2014	10:10:44.599	$GPGGA,101045,2431.9708,N,08048.8327,W,1,9,1.5,19,M,,M,,*5C
06/02/2014	10:10:45.600	$GPGGA,101046,2431.9703,N,08048.8345,W,1,9,1.5,19,M,,M,,*50
06/02/2014	10:10:46.620	$GPGGA,101047,2431.9699,N,08048.8363,W,1,9,1.5,19,M,,M,,*57
06/02/2014	10:10:47.601	$GPGGA,101048,2431.9695,N,08048.8381,W,1,9,1.5,19,M,,M,,*58
06/02/2014	10:10:48.611	$GPGGA,101049,2431.9688,N,08048.8399,W,1,9,1.5,19,M,,M,,*5C
06/02/2014	10:10:49.592	$GPGGA,101050,2431.9684,N,08048.8418,W,1,9,1.5,19,M,,M,,*56
06/02/2014	10:10:50.602	$GPGGA,101051,2431.9678,N,08048.8436,W,1,9,1.5,19,M,,M,,*58
06/02/2014	10:10:51.603	$GPGGA,101052,2431.9673,N,08048.8454,W,1,9,1.5,19,M,,M,,*54
06/02/2014	10:10:52.573	$GPGGA,101053,2431.9666,N,08048.8470,W,1,9,1.5,19,M,,M,,*57
06/02/2014	10:10:53.584	$GPGGA,101054,2431.9662,N,08048.8487,W,1,9,1.5,19,M,,M,,*5C
06/02/2014	10:10:54.604	$GPGGA,101055,2431.9657,N,08048.8506,W,1,9,1.5,19,M,,M,,*53
06/02/2014	10:10:55.585	$GPGGA,101056,2431.9651,N,08048.8523,W,1,9,1.9,19,M,,M,,*5D
06/02/2014	10:10:56.604	$GPGGA,101057,2431.9645,N,08048.8540,W,1,9,1.5,19,M,,M,,*50
06/02/2014	10:10:57.565	$GPGGA,101058,2431.9641,N,08048.8559,W,1,9,1.5,19,M,,M,,*53
06/02/2014	10:10:58.565	$GPGGA,101059,2431.9635,N,08048.8577,W,1,8,1.9,19,M,,M,,*50
06/02/2014	10:10:59.616	$GPGGA,101100,2431.9630,N,08048.8595,W,1,8,1.5,18,M,,M,,*59
06/02/2014	10:11:00.596	$GPGGA,101101,2431.9623,N,08048.8613,W,1,9,1.5,18,M,,M,,*56
06/02/2014	10:11:01.577	$GPGGA,101102,2431.9616,N,08048.8631,W,1,9,1.5,18,M,,M,,*53
06/02/2014	10:11:02.597	$GPGGA,101103,2431.9612,N,08048.8649,W,1,9,1.5,18,M,,M,,*59
06/02/2014	10:11:03.578	$GPGGA,101104,2431.9608,N,08048.8667,W,1,9,1.5,18,M,,M,,*59
06/02/2014	10:11:04.598	$GPGGA,101105,2431.9601,N,08048.8682,W,1,9,1.5,18,M,,M,,*5A
06/02/2014	10:11:05.569	$GPGGA,101106,2431.9596,N,08048.8699,W,1,9,1.5,18,M,,M,,*5E
06/02/2014	10:11:06.579	$GPGGA,101107,2431.9591,N,08048.8717,W,1,9,1.5,18,M,,M,,*5F
06/02/2014	10:11:07.580	$GPGGA,101108,2431.9584,N,08048.8733,W,1,9,1.5,18,M,,M,,*52
06/02/2014	10:11:08.560	$GPGGA,101109,2431.9579,N,08048.8750,W,1,9,1.5,18,M,,M,,*54
06/02/2014	10:11:09.551	$GPGGA,101110,2431.9574,N,08048.8768,W,1,9,1.5,18,M,,M,,*5A
06/02/2014	10:11:10.591	$GPGGA,101111,2431.9568,N,08048.8786,W,1,8,1.5,18,M,,M,,*57
06/02/2014	10:11:11.592	$GPGGA,101112,2431.9562,N,08048.8802,W,1,8,1.5,18,M,,M,,*5D
06/02/2014	10:11:12.552	$GPGGA,101113,2431.9556,N,08048.8819,W,1,9,1.5,18,M,,M,,*50
06/02/2014	10:11:13.542	$GPGGA,101114,2431.9550,N,08048.8835,W,1,9,1.5,18,M,,M,,*5F
06/02/2014	10:11:14.572	$GPGGA,101115,2431.9545,N,08048.8853,W,1,9,1.5,18,M,,M,,*5A
06/02/2014	10:11:15.553	$GPGGA,101116,2431.9538,N,08048.8870,W,1,9,1.5,18,M,,M,,*52
06/02/2014	10:11:16.533	$GPGGA,101117,2431.9534,N,08048.8888,W,1,9,1.5,18,M,,M,,*58
06/02/2014	10:11:17.545	$GPGGA,101118,2431.9529,N,08048.8905,W,1,9,1.5,18,M,,M,,*5F
06/02/2014	10:11:18.534	$GPGGA,101119,2431.9522,N,08048.8921,W,1,9,1.5,18,M,,M,,*53
06/02/2014	10:11:19.695	$GPGGA,101120,2431.9518,N,08048.8936,W,1,9,1.5,18,M,,M,,*56
06/02/2014	10:11:20.555	$GPGGA,101121,2431.9512,N,08048.8952,W,1,9,1.5,18,M,,M,,*5F
06/02/2014	10:11:21.536	$GPGGA,101122,2431.9507,N,08048.8970,W,1,9,1.5,18,M,,M,,*58
06/02/2014	10:11:22.536	$GPGGA,101123,2431.9502,N,08048.8988,W,1,9,1.5,18,M,,M,,*5B
06/02/2014	10:11:23.647	$GPGGA,101124,2431.9496,N,08048.9007,W,1,9,1.5,18,M,,M,,*5F
06/02/2014	10:11:24.567	$GPGGA,101125,2431.9490,N,08048.9026,W,1,9,1.5,18,M,,M,,*5B
06/02/2014	10:11:25.538	$GPGGA,101126,2431.9485,N,08048.9046,W,1,9,1.5,18,M,,M,,*5A
06/02/2014	10:11:26.628	$GPGGA,101127,2431.9480,N,08048.9065,W,1,9,1.5,18,M,,M,,*5F
06/02/2014	10:11:27.659	$GPGGA,101128,2431.9476,N,08048.9082,W,1,9,1.5,18,M,,M,,*50
06/02/2014	10:11:28.539	$GPGGA,101129,2431.9472,N,08048.9100,W,1,9,1.5,18,M,,M,,*5E
06/02/2014	10:11:29.592	$GPGGA,101130,2431.9469,N,08048.9115,W,1,9,1.5,18,M,,M,,*58
06/02/2014	10:11:30.620	$GPGGA,101131,2431.9465,N,08048.9133,W,1,9,1.5,18,M,,M,,*51
06/02/2014	10:11:31.601	$GPGGA,101132,2431.9462,N,08048.9151,W,1,9,1.5,18,M,,M,,*51
06/02/2014	10:11:32.591	$GPGGA,101133,2431.9458,N,08048.9173,W,1,9,1.5,18,M,,M,,*59
06/02/2014	10:11:33.592	$GPGGA,101134,2431.9453,N,08048.9191,W,1,9,1.5,18,M,,M,,*59
06/02/2014	10:11:34.592	$GPGGA,101135,2431.9451,N,08048.9212,W,1,9,1.5,18,M,,M,,*52
06/02/2014	10:11:35.603	$GPGGA,101136,2431.9449,N,08048.9230,W,1,9,1.5,18,M,,M,,*58
06/02/2014	10:11:36.603	$GPGGA,101137,2431.9443,N,08048.9248,W,1,9,1.5,18,M,,M,,*5C
06/02/2014	10:11:37.574	$GPGGA,101138,2431.9440,N,08048.9264,W,1,9,1.5,18,M,,M,,*5E
06/02/2014	10:11:38.584	$GPGGA,101139,2431.9437,N,08048.9281,W,1,9,1.5,18,M,,M,,*54
06/02/2014	10:11:39.595	$GPGGA,101140,2431.9435,N,08048.9299,W,1,9,1.5,18,M,,M,,*51
06/02/2014	10:11:40.575	$GPGGA,101141,2431.9431,N,08048.9317,W,1,9,1.5,18,M,,M,,*53
06/02/2014	10:11:41.566	$GPGGA,101142,2431.9426,N,08048.9335,W,1,9,1.9,18,M,,M,,*5A
06/02/2014	10:11:42.596	$GPGGA,101143,2431.9422,N,08048.9353,W,1,9,1.5,18,M,,M,,*53
06/02/2014	10:11:43.587	$GPGGA,101144,2431.9417,N,08048.9372,W,1,9,1.5,18,M,,M,,*51
06/02/2014	10:11:44.587	$GPGGA,101145,2431.9413,N,08048.9390,W,1,9,1.5,18,M,,M,,*58
06/02/2014	10:11:45.558	$GPGGA,101146,2431.9407,N,08048.9408,W,1,9,1.5,18,M,,M,,*58
06/02/2014	10:11:46.588	$GPGGA,101147,2431.9402,N,08048.9426,W,1,9,1.5,18,M,,M,,*50
06/02/2014	10:11:47.579	$GPGGA,101148,2431.9397,N,08048.9443,W,1,9,1.5,18,M,,M,,*57
06/02/2014	10:11:48.588	$GPGGA,101149,2431.9392,N,08048.9459,W,1,8,1.5,18,M,,M,,*59
06/02/2014	10:11:49.569	$GPGGA,101150,2431.9386,N,08048.9474,W,1,8,1.5,18,M,,M,,*5B
