Software Version Number: 1	Data File Format Number: 1	Build Version Number: 1	Error Count Since VI Started: 0	Manufacturer: Raytheon	 Model Number: RayMarine 120	 S/N: 	 Cal Date: 	 Wind Direction Offset: 0.00	 Slope (M)1: 0.00	 Offset (B)1: 0.00	 Slope (M)2: 0.00	 Offset (B)2: 0.00	 Slope (M)3: 0.00	 Offset (B)3: 0.00	 Slope (M)4: 0.00	 Offset (B)4: 0.00	 Slope (M)5: 0.00	 Offset (B)5: 0.00	 Slope (M)6: 0.00	 Offset (B)6: 0.00
Computer Date	Computer Time	GGA String
06/09/2014	10:00:00.697	$GPGGA,100001,2512.0876,N,08006.9386,W,1,9,1.5,12,M,,M,,*59
06/09/2014	10:00:01.719	$GPGGA,100002,2512.0878,N,08006.9370,W,1,9,1.5,12,M,,M,,*5D
06/09/2014	10:00:02.732	$GPGGA,100003,2512.0878,N,08006.9353,W,1,9,1.5,12,M,,M,,*5D
06/09/2014	10:00:03.731	$GPGGA,100004,2512.0878,N,08006.9337,W,1,9,1.5,12,M,,M,,*58
06/09/2014	10:00:04.743	$GPGGA,100005,2512.0878,N,08006.9321,W,1,9,1.5,12,M,,M,,*5E
06/09/2014	10:00:05.853	$GPGGA,100006,2512.0878,N,08006.9305,W,1,9,1.5,12,M,,M,,*5B
06/09/2014	10:00:06.851	$GPGGA,100007,2512.0878,N,08006.9288,W,1,9,1.5,12,M,,M,,*5E
06/09/2014	10:00:07.861	$GPGGA,100008,2512.0878,N,08006.9272,W,1,9,1.5,12,M,,M,,*54
06/09/2014	10:00:08.910	$GPGGA,100009,2512.0878,N,08006.9255,W,1,9,1.5,12,M,,M,,*50
06/09/2014	10:00:09.859	$GPGGA,100010,2512.0878,N,08006.9239,W,1,9,1.5,12,M,,M,,*52
06/09/2014	10:00:10.878	$GPGGA,100011,2512.0878,N,08006.9223,W,1,9,1.5,12,M,,M,,*58
06/09/2014	10:00:11.807	$GPGGA,100012,2512.0878,N,08006.9206,W,1,9,1.5,11,M,,M,,*5F
06/09/2014	10:00:12.917	$GPGGA,100013,2512.0880,N,08006.9190,W,1,9,1.5,11,M,,M,,*55
06/09/2014	10:00:13.897	$GPGGA,100014,2512.0879,N,08006.9174,W,1,9,1.5,11,M,,M,,*5E
06/09/2014	10:00:14.936	$GPGGA,100015,2512.0880,N,08006.9158,W,1,9,1.5,11,M,,M,,*57
06/09/2014	10:00:15.916	$GPGGA,100016,2512.0879,N,08006.9141,W,1,9,1.5,11,M,,M,,*5A
06/09/2014	10:00:16.934	$GPGGA,100017,2512.0880,N,08006.9125,W,1,9,1.5,11,M,,M,,*5F
06/09/2014	10:00:17.924	$GPGGA,100018,2512.0879,N,08006.9109,W,1,9,1.5,11,M,,M,,*58
06/09/2014	10:00:18.953	$GPGGA,100019,2512.0880,N,08006.9093,W,1,9,1.5,11,M,,M,,*5D
06/09/2014	10:00:19.953	$GPGGA,100020,2512.0879,N,08006.9076,W,1,9,1.5,11,M,,M,,*5A
06/09/2014	10:00:20.942	$GPGGA,100021,2512.0880,N,08006.9060,W,1,9,1.5,11,M,,M,,*5A
06/09/2014	10:00:21.962	$GPGGA,100022,2512.0879,N,08006.9044,W,1,9,1.5,11,M,,M,,*59
06/09/2014	10:00:22.981	$GPGGA,100023,2512.0880,N,08006.9028,W,1,9,1.5,11,M,,M,,*54
06/09/2014	10:00:23.991	$GPGGA,100024,2512.0881,N,08006.9011,W,1,9,1.5,11,M,,M,,*58
06/09/2014	10:00:25.010	$GPGGA,100025,2512.0880,N,08006.8995,W,1,9,1.5,11,M,,M,,*5C
06/09/2014	10:00:25.979	$GPGGA,100026,2512.0881,N,08006.8979,W,1,9,1.5,11,M,,M,,*5C
06/09/2014	10:00:26.989	$GPGGA,100027,2512.0880,N,08006.8962,W,1,9,1.5,11,M,,M,,*56
06/09/2014	10:00:28.008	$GPGGA,100028,2512.0881,N,08006.8946,W,1,9,1.5,11,M,,M,,*5E
06/09/2014	10:00:29.018	$GPGGA,100029,2512.0879,N,08006.8930,W,1,9,1.5,11,M,,M,,*59
06/09/2014	10:00:30.017	$GPGGA,100030,2512.0881,N,08006.8913,W,1,9,1.5,11,M,,M,,*57
06/09/2014	10:00:31.027	$GPGGA,100031,2512.0880,N,08006.8897,W,1,9,1.5,11,M,,M,,*5A
06/09/2014	10:00:32.046	$GPGGA,100032,2512.0881,N,08006.8881,W,1,9,1.5,11,M,,M,,*5F
06/09/2014	10:00:33.036	$GPGGA,100033,2512.0879,N,08006.8864,W,1,9,1.5,11,M,,M,,*52
06/09/2014	10:00:34.054	$GPGGA,100034,2512.0881,N,08006.8848,W,1,9,1.5,11,M,,M,,*5C
06/09/2014	10:00:35.074	$GPGGA,100035,2512.0880,N,08006.8831,W,1,9,1.5,11,M,,M,,*52
06/09/2014	10:00:36.083	$GPGGA,100036,2512.0881,N,08006.8815,W,1,9,1.5,11,M,,M,,*56
06/09/2014	10:00:37.063	$GPGGA,100037,2512.0880,N,08006.8798,W,1,9,1.5,11,M,,M,,*5C
06/09/2014	10:00:38.080	$GPGGA,100038,2512.0881,N,08006.8782,W,1,9,1.5,11,M,,M,,*59
06/09/2014	10:00:39.113	$GPGGA,100039,2512.0880,N,08006.8766,W,1,9,1.5,11,M,,M,,*53
06/09/2014	10:00:39.533	$GPGGA,100040,2512.0881,N,08006.8749,W,1,9,1.5,11,M,,M,,*51
06/09/2014	10:00:40.563	$GPGGA,100041,2512.0880,N,08006.8734,W,1,9,1.5,11,M,,M,,*5B
06/09/2014	10:00:41.532	$GPGGA,100042,2512.0882,N,08006.8717,W,1,9,2.2,11,M,,M,,*5F
06/09/2014	10:00:42.562	$GPGGA,100043,2512.0880,N,08006.8701,W,1,9,1.5,11,M,,M,,*5F
06/09/2014	10:00:43.561	$GPGGA,100044,2512.0882,N,08006.8685,W,1,9,1.5,11,M,,M,,*57
06/09/2014	10:00:44.581	$GPGGA,100045,2512.0882,N,08006.8669,W,1,9,1.5,11,M,,M,,*54
06/09/2014	10:00:45.570	$GPGGA,100046,2512.0882,N,08006.8653,W,1,9,2.2,11,M,,M,,*5A
06/09/2014	10:00:46.580	$GPGGA,100047,2512.0882,N,08006.8637,W,1,8,2.2,11,M,,M,,*58
06/09/2014	10:00:47.710	$GPGGA,100048,2512.0882,N,08006.8622,W,1,8,2.2,11,M,,M,,*53
06/09/2014	10:00:48.578	$GPGGA,100049,2512.0882,N,08006.8606,W,1,8,2.2,11,M,,M,,*54
06/09/2014	10:00:49.689	$GPGGA,100050,2512.0882,N,08006.8590,W,1,8,2.2,11,M,,M,,*50
06/09/2014	10:00:52.209	$GPGGA,100052,2512.0882,N,08006.8557,W,1,8,1.5,11,M,,M,,*5D
06/09/2014	10:00:52.628	$GPGGA,100053,2512.0882,N,08006.8542,W,1,9,1.5,11,M,,M,,*59
06/09/2014	10:00:53.613	$GPGGA,100054,2512.0882,N,08006.8525,W,1,9,1.5,11,M,,M,,*5F
06/09/2014	10:00:54.608	$GPGGA,100055,2512.0882,N,08006.8508,W,1,9,1.5,11,M,,M,,*51
06/09/2014	10:00:55.754	$GPGGA,100056,2512.0882,N,08006.8490,W,1,9,1.5,11,M,,M,,*52
06/09/2014	10:00:56.628	$GPGGA,100057,2512.0882,N,08006.8472,W,1,9,1.5,11,M,,M,,*5F
06/09/2014	10:00:57.724	$GPGGA,100058,2512.0882,N,08006.8455,W,1,9,1.5,11,M,,M,,*55
06/09/2014	10:00:58.719	$GPGGA,100059,2512.0884,N,08006.8437,W,1,9,1.5,11,M,,M,,*56
06/09/2014	10:00:59.764	$GPGGA,100100,2512.0883,N,08006.8420,W,1,9,1.5,11,M,,M,,*5A
06/09/2014	10:01:00.764	$GPGGA,100101,2512.0882,N,08006.8403,W,1,9,1.5,11,M,,M,,*5B
06/09/2014	10:01:01.734	$GPGGA,100102,2512.0884,N,08006.8386,W,1,9,1.5,11,M,,M,,*54
06/09/2014	10:01:02.772	$GPGGA,100103,2512.0883,N,08006.8368,W,1,9,1.5,11,M,,M,,*52
06/09/2014	10:01:03.744	$GPGGA,100104,2512.0884,N,08006.8352,W,1,9,1.5,11,M,,M,,*5B
06/09/2014	10:01:04.749	$GPGGA,100105,2512.0883,N,08006.8336,W,1,9,1.5,11,M,,M,,*5F
06/09/2014	10:01:05.754	$GPGGA,100106,2512.0884,N,08006.8320,W,1,9,1.5,11,M,,M,,*5C
06/09/2014	10:01:06.748	$GPGGA,100107,2512.0885,N,08006.8303,W,1,9,1.5,12,M,,M,,*5E
06/09/2014	10:01:07.804	$GPGGA,100108,2512.0885,N,08006.8287,W,1,9,1.5,12,M,,M,,*5C
06/09/2014	10:01:08.778	$GPGGA,100109,2512.0885,N,08006.8272,W,1,9,1.5,12,M,,M,,*57
06/09/2014	10:01:09.752	$GPGGA,100110,2512.0885,N,08006.8256,W,1,9,2.2,12,M,,M,,*5D
06/09/2014	10:01:10.788	$GPGGA,100111,2512.0885,N,08006.8241,W,1,8,2.2,12,M,,M,,*5B
06/09/2014	10:01:11.784	$GPGGA,100112,2512.0887,N,08006.8225,W,1,8,2.2,12,M,,M,,*58
06/09/2014	10:01:12.767	$GPGGA,100113,2512.0886,N,08006.8209,W,1,8,2.2,12,M,,M,,*56
06/09/2014	10:01:13.772	$GPGGA,100114,2512.0887,N,08006.8195,W,1,8,1.5,12,M,,M,,*52
06/09/2014	10:01:14.798	$GPGGA,100115,2512.0888,N,08006.8179,W,1,9,1.5,12,M,,M,,*5F
06/09/2014	10:01:15.782	$GPGGA,100116,2512.0887,N,08006.8162,W,1,9,1.5,12,M,,M,,*59
06/09/2014	10:01:16.808	$GPGGA,100117,2512.0888,N,08006.8146,W,1,9,1.5,12,M,,M,,*51
06/09/2014	10:01:17.772	$GPGGA,100118,2512.0889,N,08006.8131,W,1,9,1.5,12,M,,M,,*5F
06/09/2014	10:01:18.818	$GPGGA,100119,2512.0889,N,08006.8113,W,1,8,2.2,12,M,,M,,*5B
06/09/2014	10:01:19.802	$GPGGA,100120,2512.0889,N,08006.8096,W,1,8,1.5,12,M,,M,,*59
06/09/2014	10:01:20.828	$GPGGA,100121,2512.0887,N,08006.8078,W,1,9,1.5,12,M,,M,,*57
06/09/2014	10:01:21.792	$GPGGA,100122,2512.0889,N,08006.8063,W,1,9,1.5,12,M,,M,,*50
06/09/2014	10:01:22.807	$GPGGA,100123,2512.0889,N,08006.8048,W,1,8,2.2,12,M,,M,,*5D
06/09/2014	10:01:23.822	$GPGGA,100124,2512.0887,N,08006.8034,W,1,8,2.2,12,M,,M,,*5F
06/09/2014	10:01:24.827	$GPGGA,100125,2512.0889,N,08006.8018,W,1,8,2.2,12,M,,M,,*5E
06/09/2014	10:01:25.802	$GPGGA,100126,2512.0889,N,08006.8003,W,1,8,2.2,12,M,,M,,*57
06/09/2014	10:01:26.806	$GPGGA,100127,2512.0887,N,08006.7989,W,1,8,2.2,12,M,,M,,*5C
06/09/2014	10:01:27.831	$GPGGA,100128,2512.0888,N,08006.7973,W,1,8,2.2,12,M,,M,,*59
06/09/2014	10:01:28.836	$GPGGA,100129,2512.0887,N,08006.7955,W,1,8,2.2,12,M,,M,,*53
06/09/2014	10:01:29.811	$GPGGA,100130,2512.0885,N,08006.7938,W,1,8,1.5,12,M,,M,,*56
06/09/2014	10:01:30.816	$GPGGA,100131,2512.0885,N,08006.7921,W,1,9,1.5,12,M,,M,,*5E
06/09/2014	10:01:31.851	$GPGGA,100132,2512.0885,N,08006.7907,W,1,9,1.5,12,M,,M,,*59
06/09/2014	10:01:32.846	$GPGGA,100133,2512.0885,N,08006.7892,W,1,8,2.2,12,M,,M,,*50
06/09/2014	10:01:33.821	$GPGGA,100134,2512.0885,N,08006.7877,W,1,8,2.2,12,M,,M,,*5C
06/09/2014	10:01:34.846	$GPGGA,100135,2512.0883,N,08006.7862,W,1,8,2.2,12,M,,M,,*5F
06/09/2014	10:01:35.841	$GPGGA,100136,2512.0884,N,08006.7845,W,1,8,1.5,12,M,,M,,*5A
06/09/2014	10:01:36.846	$GPGGA,100137,2512.0883,N,08006.7830,W,1,9,1.5,12,M,,M,,*5F
06/09/2014	10:01:37.946	$GPGGA,100138,2512.0882,N,08006.7816,W,1,9,1.5,12,M,,M,,*55
06/09/2014	10:01:38.866	$GPGGA,100139,2512.0882,N,08006.7801,W,1,9,1.5,12,M,,M,,*52
06/09/2014	10:01:39.501	$GPGGA,100140,2512.0880,N,08006.7786,W,1,9,1.5,12,M,,M,,*5E
06/09/2014	10:01:40.516	$GPGGA,100141,2512.0881,N,08006.7770,W,1,9,1.5,12,M,,M,,*57
06/09/2014	10:01:41.632	$GPGGA,100142,2512.0879,N,08006.7755,W,1,9,1.5,12,M,,M,,*54
06/09/2014	10:01:42.526	$GPGGA,100143,2512.0878,N,08006.7740,W,1,9,1.5,12,M,,M,,*50
06/09/2014	10:01:43.651	$GPGGA,100144,2512.0878,N,08006.7725,W,1,9,1.5,12,M,,M,,*54
06/09/2014	10:01:44.696	$GPGGA,100145,2512.0878,N,08006.7710,W,1,9,1.5,12,M,,M,,*53
06/09/2014	10:01:45.522	$GPGGA,100146,2512.0876,N,08006.7695,W,1,9,1.5,12,M,,M,,*52
06/09/2014	10:01:46.515	$GPGGA,100147,2512.0875,N,08006.7680,W,1,9,1.5,12,M,,M,,*54
06/09/2014	10:01:47.621	$GPGGA,100148,2512.0874,N,08006.7664,W,1,9,1.5,12,M,,M,,*50
06/09/2014	10:01:48.716	$GPGGA,100149,2512.0874,N,08006.7648,W,1,9,1.5,12,M,,M,,*5F
06/09/2014	10:01:49.654	$GPGGA,100150,2512.0873,N,08006.7634,W,1,9,1.5,12,M,,M,,*5B
06/09/2014	10:01:50.739	$GPGGA,100151,2512.0872,N,08006.7618,W,1,9,1.5,12,M,,M,,*55
06/09/2014	10:01:51.643	$GPGGA,100152,2512.0871,N,08006.7603,W,1,9,1.5,12,M,,M,,*5F
06/09/2014	10:01:52.736	$GPGGA,100153,2512.0869,N,08006.7588,W,1,9,1.5,12,M,,M,,*57
06/09/2014	10:01:53.631	$GPGGA,100154,2512.0868,N,08006.7573,W,1,9,1.5,12,M,,M,,*55
06/09/2014	10:01:54.636	$GPGGA,100155,2512.0867,N,08006.7558,W,1,9,1.5,12,M,,M,,*52
06/09/2014	10:01:55.683	$GPGGA,100156,2512.0867,N,08006.7543,W,1,9,1.5,12,M,,M,,*5B
06/09/2014	10:01:56.746	$GPGGA,100157,2512.0865,N,08006.7528,W,1,9,1.5,12,M,,M,,*55
06/09/2014	10:01:57.641	$GPGGA,100158,2512.0866,N,08006.7513,W,1,9,1.5,12,M,,M,,*51
06/09/2014	10:01:58.716	$GPGGA,100159,2512.0864,N,08006.7498,W,1,9,1.5,12,M,,M,,*50
06/09/2014	10:01:59.672	$GPGGA,100200,2512.0862,N,08006.7483,W,1,9,1.5,12,M,,M,,*53
06/09/2014	10:02:00.765	$GPGGA,100201,2512.0863,N,08006.7468,W,1,9,1.5,12,M,,M,,*56
06/09/2014	10:02:01.692	$GPGGA,100202,2512.0861,N,08006.7452,W,1,9,1.5,12,M,,M,,*5E
06/09/2014	10:02:02.765	$GPGGA,100203,2512.0860,N,08006.7437,W,1,9,1.5,12,M,,M,,*5D
06/09/2014	10:02:03.702	$GPGGA,100204,2512.0860,N,08006.7422,W,1,9,1.5,12,M,,M,,*5E
06/09/2014	10:02:04.725	$GPGGA,100205,2512.0860,N,08006.7407,W,1,9,1.5,12,M,,M,,*58
06/09/2014	10:02:05.700	$GPGGA,100206,2512.0858,N,08006.7390,W,1,9,2.2,12,M,,M,,*5D
06/09/2014	10:02:06.674	$GPGGA,100207,2512.0857,N,08006.7373,W,1,9,1.5,12,M,,M,,*5A
06/09/2014	10:02:07.679	$GPGGA,100208,2512.0858,N,08006.7357,W,1,9,1.5,12,M,,M,,*5C
06/09/2014	10:02:08.795	$GPGGA,100209,2512.0857,N,08006.7341,W,1,9,1.5,12,M,,M,,*55
06/09/2014	10:02:09.730	$GPGGA,100210,2512.0856,N,08006.7325,W,1,9,1.5,12,M,,M,,*5E
06/09/2014	10:02:10.775	$GPGGA,100211,2512.0854,N,08006.7309,W,1,9,1.5,12,M,,M,,*53
06/09/2014	10:02:11.700	$GPGGA,100212,2512.0855,N,08006.7293,W,1,9,1.5,12,M,,M,,*53
06/09/2014	10:02:12.795	$GPGGA,100213,2512.0854,N,08006.7277,W,1,9,1.5,12,M,,M,,*59
06/09/2014	10:02:13.730	$GPGGA,100214,2512.0855,N,08006.7263,W,1,9,2.2,12,M,,M,,*5E
06/09/2014	10:02:14.775	$GPGGA,100215,2512.0853,N,08006.7245,W,1,8,1.5,13,M,,M,,*59
06/09/2014	10:02:15.761	$GPGGA,100216,2512.0853,N,08006.7231,W,1,8,2.2,13,M,,M,,*5D
06/09/2014	10:02:16.778	$GPGGA,100217,2512.0853,N,08006.7217,W,1,8,2.2,13,M,,M,,*58
06/09/2014	10:02:17.699	$GPGGA,100218,2512.0853,N,08006.7202,W,1,8,2.2,13,M,,M,,*53
06/09/2014	10:02:18.824	$GPGGA,100219,2512.0851,N,08006.7186,W,1,8,1.5,13,M,,M,,*5B
06/09/2014	10:02:19.839	$GPGGA,100220,2512.0850,N,08006.7169,W,1,8,1.5,13,M,,M,,*51
06/09/2014	10:02:20.784	$GPGGA,100221,2512.0852,N,08006.7153,W,1,9,1.5,13,M,,M,,*5A
06/09/2014	10:02:21.738	$GPGGA,100222,2512.0851,N,08006.7137,W,1,9,1.5,13,M,,M,,*58
06/09/2014	10:02:22.804	$GPGGA,100223,2512.0850,N,08006.7121,W,1,9,1.5,13,M,,M,,*5F
06/09/2014	10:02:23.768	$GPGGA,100224,2512.0849,N,08006.7105,W,1,9,1.5,13,M,,M,,*56
06/09/2014	10:02:24.825	$GPGGA,100225,2512.0851,N,08006.7089,W,1,9,1.5,13,M,,M,,*5B
06/09/2014	10:02:25.728	$GPGGA,100226,2512.0849,N,08006.7073,W,1,9,1.5,13,M,,M,,*54
06/09/2014	10:02:26.874	$GPGGA,100227,2512.0849,N,08006.7057,W,1,9,1.5,13,M,,M,,*53
06/09/2014	10:02:27.778	$GPGGA,100228,2512.0849,N,08006.7041,W,1,9,1.5,13,M,,M,,*5B
06/09/2014	10:02:28.814	$GPGGA,100229,2512.0849,N,08006.7024,W,1,9,1.5,13,M,,M,,*59
06/09/2014	10:02:29.841	$GPGGA,100230,2512.0849,N,08006.7008,W,1,9,1.5,13,M,,M,,*5F
06/09/2014	10:02:30.834	$GPGGA,100231,2512.0849,N,08006.6992,W,1,9,1.5,13,M,,M,,*55
06/09/2014	10:02:31.798	$GPGGA,100232,2512.0849,N,08006.6976,W,1,9,1.5,13,M,,M,,*5C
06/09/2014	10:02:32.854	$GPGGA,100233,2512.0849,N,08006.6960,W,1,9,1.5,13,M,,M,,*5A
06/09/2014	10:02:33.849	$GPGGA,100234,2512.0852,N,08006.6943,W,1,9,1.4,13,M,,M,,*57
06/09/2014	10:02:34.854	$GPGGA,100235,2512.0851,N,08006.6927,W,1,9,1.4,14,M,,M,,*50
06/09/2014	10:02:35.868	$GPGGA,100236,2512.0850,N,08006.6911,W,1,9,1.5,14,M,,M,,*56
06/09/2014	10:02:36.923	$GPGGA,100237,2512.0853,N,08006.6895,W,1,9,1.4,14,M,,M,,*58
06/09/2014	10:02:37.868	$GPGGA,100238,2512.0853,N,08006.6878,W,1,9,1.4,14,M,,M,,*54
06/09/2014	10:02:38.883	$GPGGA,100239,2512.0851,N,08006.6863,W,1,9,1.5,14,M,,M,,*5C
06/09/2014	10:02:39.580	$GPGGA,100240,2512.0853,N,08006.6847,W,1,9,1.4,14,M,,M,,*57
06/09/2014	10:02:40.595	$GPGGA,100241,2512.0855,N,08006.6830,W,1,9,1.4,14,M,,M,,*50
06/09/2014	10:02:41.580	$GPGGA,100242,2512.0856,N,08006.6814,W,1,9,1.4,14,M,,M,,*56
06/09/2014	10:02:42.635	$GPGGA,100243,2512.0855,N,08006.6798,W,1,9,1.4,14,M,,M,,*5F
06/09/2014	10:02:43.600	$GPGGA,100244,2512.0856,N,08006.6782,W,1,9,1.4,14,M,,M,,*50
06/09/2014	10:02:44.615	$GPGGA,100245,2512.0858,N,08006.6765,W,1,9,1.4,14,M,,M,,*56
06/09/2014	10:02:45.590	$GPGGA,100246,2512.0857,N,08006.6750,W,1,9,1.4,14,M,,M,,*5C
06/09/2014	10:02:46.645	$GPGGA,100247,2512.0858,N,08006.6734,W,1,10,1.4,14,M,,M,,*68
06/09/2014	10:02:47.610	$GPGGA,100248,2512.0858,N,08006.6734,W,1,10,1.4,14,M,,M,,*67
06/09/2014	10:02:48.640	$GPGGA,100249,2512.0860,N,08006.6701,W,1,10,1.4,15,M,,M,,*6A
06/09/2014	10:02:49.599	$GPGGA,100250,2512.0858,N,08006.6686,W,1,10,1.4,15,M,,M,,*67
06/09/2014	10:02:50.645	$GPGGA,100251,2512.0860,N,08006.6670,W,1,10,1.4,15,M,,M,,*64
06/09/2014	10:02:51.620	$GPGGA,100252,2512.0860,N,08006.6654,W,1,10,1.7,15,M,,M,,*62
06/09/2014	10:02:52.655	$GPGGA,100253,2512.0860,N,08006.6639,W,1,9,1.4,15,M,,M,,*53
06/09/2014	10:02:53.618	$GPGGA,100254,2512.0860,N,08006.6639,W,1,9,1.4,15,M,,M,,*54
06/09/2014	10:02:54.694	$GPGGA,100255,2512.0860,N,08006.6624,W,1,10,1.4,15,M,,M,,*61
06/09/2014	10:02:55.638	$GPGGA,100256,2512.0862,N,08006.6592,W,1,10,1.7,15,M,,M,,*6D
06/09/2014	10:02:56.683	$GPGGA,100257,2512.0861,N,08006.6577,W,1,9,1.4,15,M,,M,,*5F
06/09/2014	10:02:57.617	$GPGGA,100258,2512.0860,N,08006.6561,W,1,9,1.4,15,M,,M,,*56
06/09/2014	10:02:58.671	$GPGGA,100259,2512.0862,N,08006.6544,W,1,10,1.4,15,M,,M,,*6A
06/09/2014	10:02:59.656	$GPGGA,100300,2512.0860,N,08006.6527,W,1,10,1.4,15,M,,M,,*60
06/09/2014	10:03:00.640	$GPGGA,100301,2512.0860,N,08006.6527,W,1,10,1.4,15,M,,M,,*61
06/09/2014	10:03:01.644	$GPGGA,100302,2512.0860,N,08006.6495,W,1,10,1.4,15,M,,M,,*6A
06/09/2014	10:03:02.679	$GPGGA,100303,2512.0860,N,08006.6495,W,1,10,1.4,15,M,,M,,*6B
06/09/2014	10:03:03.653	$GPGGA,100304,2512.0860,N,08006.6463,W,1,10,1.4,15,M,,M,,*65
06/09/2014	10:03:04.778	$GPGGA,100305,2512.0860,N,08006.6448,W,1,10,1.4,15,M,,M,,*6D
06/09/2014	10:03:05.652	$GPGGA,100306,2512.0860,N,08006.6448,W,1,10,1.4,15,M,,M,,*6E
06/09/2014	10:03:06.777	$GPGGA,100307,2512.0859,N,08006.6416,W,1,10,1.4,15,M,,M,,*6E
06/09/2014	10:03:07.661	$GPGGA,100308,2512.0860,N,08006.6401,W,1,10,1.4,15,M,,M,,*6D
06/09/2014	10:03:08.756	$GPGGA,100309,2512.0858,N,08006.6385,W,1,10,1.4,15,M,,M,,*6C
06/09/2014	10:03:09.660	$GPGGA,100310,2512.0857,N,08006.6369,W,1,10,1.4,15,M,,M,,*69
06/09/2014	10:03:10.663	$GPGGA,100311,2512.0859,N,08006.6354,W,1,10,1.4,15,M,,M,,*68
06/09/2014	10:03:11.710	$GPGGA,100312,2512.0858,N,08006.6338,W,1,10,1.4,15,M,,M,,*60
06/09/2014	10:03:12.766	$GPGGA,100313,2512.0856,N,08006.6322,W,1,10,1.4,15,M,,M,,*64
06/09/2014	10:03:13.898	$GPGGA,100314,2512.0856,N,08006.6307,W,1,10,1.4,16,M,,M,,*67
06/09/2014	10:03:14.951	$GPGGA,100315,2512.0858,N,08006.6292,W,1,10,1.4,16,M,,M,,*65
06/09/2014	10:03:16.017	$GPGGA,100316,2512.0856,N,08006.6275,W,1,10,1.4,16,M,,M,,*61
06/09/2014	10:03:16.977	$GPGGA,100317,2512.0856,N,08006.6275,W,1,10,1.4,16,M,,M,,*60
06/09/2014	10:03:18.128	$GPGGA,100318,2512.0856,N,08006.6245,W,1,10,1.4,16,M,,M,,*6C
06/09/2014	10:03:19.204	$GPGGA,100319,2512.0855,N,08006.6229,W,1,10,1.4,16,M,,M,,*64
06/09/2014	10:03:20.260	$GPGGA,100320,2512.0854,N,08006.6214,W,1,10,1.4,16,M,,M,,*61
06/09/2014	10:03:21.315	$GPGGA,100321,2512.0855,N,08006.6198,W,1,10,1.4,16,M,,M,,*66
06/09/2014	10:03:22.330	$GPGGA,100322,2512.0854,N,08006.6183,W,1,10,1.4,16,M,,M,,*6E
06/09/2014	10:03:23.396	$GPGGA,100323,2512.0853,N,08006.6167,W,1,10,1.4,16,M,,M,,*62
06/09/2014	10:03:24.450	$GPGGA,100324,2512.0855,N,08006.6152,W,1,10,1.4,16,M,,M,,*65
06/09/2014	10:03:25.506	$GPGGA,100325,2512.0853,N,08006.6137,W,1,10,1.4,16,M,,M,,*61
06/09/2014	10:03:26.530	$GPGGA,100326,2512.0853,N,08006.6121,W,1,10,1.4,16,M,,M,,*65
06/09/2014	10:03:28.408	$GPGGA,100327,2512.0853,N,08006.6107,W,1,10,1.4,16,M,,M,,*60
06/09/2014	10:03:28.663	$GPGGA,100328,2512.0853,N,08006.6091,W,1,10,1.4,16,M,,M,,*61
06/09/2014	10:03:29.717	$GPGGA,100329,2512.0851,N,08006.6076,W,1,10,1.4,16,M,,M,,*6B
06/09/2014	10:03:30.750	$GPGGA,100330,2512.0852,N,08006.6061,W,1,10,1.4,16,M,,M,,*66
06/09/2014	10:03:31.827	$GPGGA,100331,2512.0850,N,08006.6046,W,1,10,1.4,16,M,,M,,*60
06/09/2014	10:03:32.872	$GPGGA,100332,2512.0851,N,08006.6031,W,1,10,1.4,16,M,,M,,*62
06/09/2014	10:03:33.928	$GPGGA,100333,2512.0849,N,08006.6016,W,1,10,1.4,16,M,,M,,*6F
06/09/2014	10:03:34.972	$GPGGA,100334,2512.0849,N,08006.6001,W,1,10,1.4,16,M,,M,,*6E
06/09/2014	10:03:36.055	$GPGGA,100335,2512.0847,N,08006.5986,W,1,10,1.4,16,M,,M,,*64
06/09/2014	10:03:37.094	$GPGGA,100336,2512.0848,N,08006.5971,W,1,10,1.4,16,M,,M,,*60
06/09/2014	10:03:38.163	$GPGGA,100337,2512.0847,N,08006.5956,W,1,10,1.4,16,M,,M,,*6B
06/09/2014	10:03:39.184	$GPGGA,100338,2512.0846,N,08006.5941,W,1,10,1.4,16,M,,M,,*63
06/09/2014	10:03:40.250	$GPGGA,100339,2512.0845,N,08006.5926,W,1,10,1.4,16,M,,M,,*60
06/09/2014	10:03:39.578	$GPGGA,100340,2512.0845,N,08006.5910,W,1,10,1.4,16,M,,M,,*6B
06/09/2014	10:03:40.602	$GPGGA,100341,2512.0844,N,08006.5895,W,1,10,1.4,16,M,,M,,*67
06/09/2014	10:03:41.668	$GPGGA,100342,2512.0843,N,08006.5880,W,1,10,1.4,16,M,,M,,*67
06/09/2014	10:03:42.734	$GPGGA,100343,2512.0844,N,08006.5864,W,1,10,1.4,16,M,,M,,*6B
06/09/2014	10:03:43.790	$GPGGA,100344,2512.0843,N,08006.5849,W,1,10,1.4,16,M,,M,,*64
06/09/2014	10:03:44.866	$GPGGA,100345,2512.0842,N,08006.5834,W,1,10,1.4,16,M,,M,,*6E
06/09/2014	10:03:45.868	$GPGGA,100346,2512.0842,N,08006.5818,W,1,10,1.4,16,M,,M,,*63
06/09/2014	10:03:47.071	$GPGGA,100347,2512.0842,N,08006.5802,W,1,10,1.4,16,M,,M,,*69
06/09/2014	10:03:48.011	$GPGGA,100348,2512.0842,N,08006.5787,W,1,10,1.4,16,M,,M,,*64
06/09/2014	10:03:49.045	$GPGGA,100349,2512.0842,N,08006.5772,W,1,10,1.4,16,M,,M,,*6F
06/09/2014	10:03:50.101	$GPGGA,100350,2512.0840,N,08006.5756,W,1,10,1.4,16,M,,M,,*63
06/09/2014	10:03:51.156	$GPGGA,100351,2512.0839,N,08006.5740,W,1,10,1.4,15,M,,M,,*68
06/09/2014	10:03:52.213	$GPGGA,100352,2512.0840,N,08006.5725,W,1,10,1.4,15,M,,M,,*66
06/09/2014	10:03:53.288	$GPGGA,100353,2512.0839,N,08006.5709,W,1,10,1.4,15,M,,M,,*67
06/09/2014	10:03:54.302	$GPGGA,100354,2512.0838,N,08006.5694,W,1,10,1.5,15,M,,M,,*65
06/09/2014	10:03:55.378	$GPGGA,100355,2512.0837,N,08006.5678,W,1,10,1.4,15,M,,M,,*68
06/09/2014	10:03:56.413	$GPGGA,100356,2512.0838,N,08006.5662,W,1,10,1.4,15,M,,M,,*6F
06/09/2014	10:03:57.468	$GPGGA,100357,2512.0837,N,08006.5647,W,1,10,1.4,15,M,,M,,*66
06/09/2014	10:03:58.640	$GPGGA,100358,2512.0838,N,08006.5631,W,1,10,1.4,15,M,,M,,*67
06/09/2014	10:03:59.569	$GPGGA,100359,2512.0837,N,08006.5615,W,1,10,1.4,15,M,,M,,*6F
06/09/2014	10:04:00.761	$GPGGA,100400,2512.0838,N,08006.5599,W,1,10,1.4,15,M,,M,,*6C
06/09/2014	10:04:01.781	$GPGGA,100401,2512.0836,N,08006.5584,W,1,10,1.4,15,M,,M,,*6F
06/09/2014	10:04:02.736	$GPGGA,100402,2512.0837,N,08006.5567,W,1,10,1.4,15,M,,M,,*60
06/09/2014	10:04:03.812	$GPGGA,100403,2512.0835,N,08006.5552,W,1,10,1.4,15,M,,M,,*65
06/09/2014	10:04:04.944	$GPGGA,100404,2512.0835,N,08006.5536,W,1,10,1.4,15,M,,M,,*60
06/09/2014	10:04:06.017	$GPGGA,100405,2512.0835,N,08006.5520,W,1,10,1.4,15,M,,M,,*66
06/09/2014	10:04:07.060	$GPGGA,100406,2512.0835,N,08006.5504,W,1,10,1.4,15,M,,M,,*63
06/09/2014	10:04:08.115	$GPGGA,100407,2512.0835,N,08006.5488,W,1,10,1.4,15,M,,M,,*67
06/09/2014	10:04:09.169	$GPGGA,100408,2512.0833,N,08006.5473,W,1,10,1.4,15,M,,M,,*6A
06/09/2014	10:04:10.211	$GPGGA,100409,2512.0834,N,08006.5457,W,1,10,1.4,15,M,,M,,*6A
06/09/2014	10:04:11.177	$GPGGA,100410,2512.0835,N,08006.5440,W,1,10,1.4,15,M,,M,,*65
06/09/2014	10:04:12.328	$GPGGA,100411,2512.0833,N,08006.5425,W,1,10,1.4,15,M,,M,,*61
06/09/2014	10:04:13.386	$GPGGA,100412,2512.0832,N,08006.5409,W,1,10,1.4,15,M,,M,,*6D
06/09/2014	10:04:14.451	$GPGGA,100413,2512.0833,N,08006.5393,W,1,10,1.4,15,M,,M,,*69
06/09/2014	10:04:15.474	$GPGGA,100414,2512.0834,N,08006.5377,W,1,10,1.4,15,M,,M,,*63
06/09/2014	10:04:16.550	$GPGGA,100415,2512.0832,N,08006.5361,W,1,10,1.4,15,M,,M,,*63
06/09/2014	10:04:17.608	$GPGGA,100416,2512.0833,N,08006.5346,W,1,10,1.4,15,M,,M,,*64
06/09/2014	10:04:18.630	$GPGGA,100417,2512.0832,N,08006.5329,W,1,10,1.4,15,M,,M,,*6D
06/09/2014	10:04:19.685	$GPGGA,100418,2512.0831,N,08006.5314,W,1,10,1.4,15,M,,M,,*6F
06/09/2014	10:04:20.764	$GPGGA,100419,2512.0831,N,08006.5298,W,1,10,1.4,15,M,,M,,*6B
06/09/2014	10:04:21.808	$GPGGA,100420,2512.0831,N,08006.5282,W,1,10,1.4,15,M,,M,,*6A
06/09/2014	10:04:22.863	$GPGGA,100421,2512.0831,N,08006.5266,W,1,10,1.4,15,M,,M,,*61
06/09/2014	10:04:23.906	$GPGGA,100422,2512.0831,N,08006.5251,W,1,10,1.4,15,M,,M,,*66
06/09/2014	10:04:24.951	$GPGGA,100423,2512.0831,N,08006.5235,W,1,10,1.4,15,M,,M,,*65
06/09/2014	10:04:26.029	$GPGGA,100424,2512.0831,N,08006.5219,W,1,10,1.4,15,M,,M,,*6C
06/09/2014	10:04:27.073	$GPGGA,100425,2512.0829,N,08006.5204,W,1,10,1.4,15,M,,M,,*68
06/09/2014	10:04:28.118	$GPGGA,100426,2512.0828,N,08006.5188,W,1,10,1.4,15,M,,M,,*6D
06/09/2014	10:04:29.207	$GPGGA,100427,2512.0829,N,08006.5172,W,1,10,1.4,15,M,,M,,*68
06/09/2014	10:04:30.229	$GPGGA,100428,2512.0828,N,08006.5157,W,1,10,1.4,15,M,,M,,*61
06/09/2014	10:04:31.263	$GPGGA,100429,2512.0827,N,08006.5141,W,1,10,1.4,15,M,,M,,*68
06/09/2014	10:04:32.319	$GPGGA,100430,2512.0826,N,08006.5126,W,1,10,1.4,15,M,,M,,*60
06/09/2014	10:04:33.374	$GPGGA,100431,2512.0827,N,08006.5110,W,1,10,1.4,15,M,,M,,*65
06/09/2014	10:04:34.451	$GPGGA,100432,2512.0826,N,08006.5095,W,1,10,1.4,15,M,,M,,*6B
06/09/2014	10:04:35.527	$GPGGA,100433,2512.0824,N,08006.5079,W,1,10,1.4,15,M,,M,,*6A
06/09/2014	10:04:36.551	$GPGGA,100434,2512.0824,N,08006.5064,W,1,10,1.4,15,M,,M,,*61
06/09/2014	10:04:37.607	$GPGGA,100435,2512.0824,N,08006.5049,W,1,10,1.4,15,M,,M,,*6F
06/09/2014	10:04:38.673	$GPGGA,100436,2512.0822,N,08006.5034,W,1,10,1.4,15,M,,M,,*60
06/09/2014	10:04:39.707	$GPGGA,100437,2512.0821,N,08006.5019,W,1,10,1.4,15,M,,M,,*6D
06/09/2014	10:04:40.753	$GPGGA,100438,2512.0822,N,08006.5003,W,1,10,1.4,15,M,,M,,*6A
06/09/2014	10:04:41.806	$GPGGA,100439,2512.0820,N,08006.4988,W,1,10,1.4,15,M,,M,,*62
06/09/2014	10:04:39.534	$GPGGA,100440,2512.0820,N,08006.4974,W,1,10,1.4,15,M,,M,,*6F
06/09/2014	10:04:40.579	$GPGGA,100441,2512.0818,N,08006.4958,W,1,10,1.4,15,M,,M,,*6B
06/09/2014	10:04:41.761	$GPGGA,100442,2512.0819,N,08006.4943,W,1,10,1.4,15,M,,M,,*63
06/09/2014	10:04:42.690	$GPGGA,100443,2512.0816,N,08006.4928,W,1,10,1.4,15,M,,M,,*60
06/09/2014	10:04:43.767	$GPGGA,100444,2512.0815,N,08006.4913,W,1,10,1.4,15,M,,M,,*6C
06/09/2014	10:04:44.801	$GPGGA,100445,2512.0814,N,08006.4899,W,1,9,1.4,15,M,,M,,*57
06/09/2014	10:04:45.846	$GPGGA,100446,2512.0813,N,08006.4884,W,1,9,1.4,15,M,,M,,*5F
06/09/2014	10:04:46.944	$GPGGA,100447,2512.0813,N,08006.4871,W,1,9,1.4,15,M,,M,,*54
06/09/2014	10:04:47.989	$GPGGA,100448,2512.0810,N,08006.4857,W,1,9,1.5,15,M,,M,,*5D
06/09/2014	10:04:49.044	$GPGGA,100449,2512.0811,N,08006.4843,W,1,10,1.4,15,M,,M,,*61
06/09/2014	10:04:50.080	$GPGGA,100450,2512.0810,N,08006.4829,W,1,10,1.4,15,M,,M,,*64
06/09/2014	10:04:51.134	$GPGGA,100451,2512.0809,N,08006.4815,W,1,9,1.4,15,M,,M,,*5A
06/09/2014	10:04:52.284	$GPGGA,100452,2512.0809,N,08006.4801,W,1,9,1.4,15,M,,M,,*5C
06/09/2014	10:04:53.224	$GPGGA,100453,2512.0808,N,08006.4787,W,1,10,1.4,15,M,,M,,*65
06/09/2014	10:04:54.375	$GPGGA,100454,2512.0809,N,08006.4773,W,1,10,1.4,15,M,,M,,*68
06/09/2014	10:04:55.444	$GPGGA,100455,2512.0807,N,08006.4759,W,1,9,1.4,15,M,,M,,*57
06/09/2014	10:04:56.400	$GPGGA,100456,2512.0806,N,08006.4745,W,1,9,1.4,15,M,,M,,*58
06/09/2014	10:04:57.540	$GPGGA,100457,2512.0806,N,08006.4732,W,1,10,1.4,15,M,,M,,*61
06/09/2014	10:04:58.490	$GPGGA,100458,2512.0804,N,08006.4718,W,1,10,1.4,15,M,,M,,*64
06/09/2014	10:04:59.652	$GPGGA,100459,2512.0802,N,08006.4705,W,1,10,1.4,15,M,,M,,*6F
06/09/2014	10:05:00.727	$GPGGA,100500,2512.0802,N,08006.4691,W,1,10,1.4,15,M,,M,,*6E
06/09/2014	10:05:01.752	$GPGGA,100501,2512.0800,N,08006.4679,W,1,9,1.4,15,M,,M,,*53
06/09/2014	10:05:02.807	$GPGGA,100502,2512.0799,N,08006.4664,W,1,9,1.4,15,M,,M,,*53
06/09/2014	10:05:03.874	$GPGGA,100503,2512.0798,N,08006.4649,W,1,9,1.4,15,M,,M,,*5C
06/09/2014	10:05:04.928	$GPGGA,100504,2512.0796,N,08006.4636,W,1,9,1.4,15,M,,M,,*5D
06/09/2014	10:05:05.984	$GPGGA,100505,2512.0793,N,08006.4621,W,1,10,1.4,15,M,,M,,*67
06/09/2014	10:05:07.018	$GPGGA,100506,2512.0791,N,08006.4606,W,1,10,1.4,15,M,,M,,*63
06/09/2014	10:05:08.098	$GPGGA,100507,2512.0789,N,08006.4593,W,1,10,1.4,15,M,,M,,*64
06/09/2014	10:05:09.140	$GPGGA,100508,2512.0788,N,08006.4580,W,1,10,1.4,15,M,,M,,*68
06/09/2014	10:05:10.195	$GPGGA,100509,2512.0784,N,08006.4564,W,1,10,1.4,15,M,,M,,*6F
06/09/2014	10:05:11.240	$GPGGA,100510,2512.0784,N,08006.4548,W,1,10,1.4,15,M,,M,,*69
06/09/2014	10:05:12.317	$GPGGA,100511,2512.0781,N,08006.4534,W,1,9,1.4,15,M,,M,,*5E
06/09/2014	10:05:13.362	$GPGGA,100512,2512.0778,N,08006.4519,W,1,9,1.4,15,M,,M,,*54
06/09/2014	10:05:14.417	$GPGGA,100513,2512.0777,N,08006.4505,W,1,10,1.4,15,M,,M,,*6F
06/09/2014	10:05:15.461	$GPGGA,100514,2512.0773,N,08006.4490,W,1,10,1.4,15,M,,M,,*61
06/09/2014	10:05:16.527	$GPGGA,100515,2512.0771,N,08006.4475,W,1,10,1.4,15,M,,M,,*69
06/09/2014	10:05:17.572	$GPGGA,100516,2512.0770,N,08006.4460,W,1,10,1.4,15,M,,M,,*6F
06/09/2014	10:05:18.596	$GPGGA,100517,2512.0767,N,08006.4445,W,1,9,1.5,15,M,,M,,*56
06/09/2014	10:05:19.662	$GPGGA,100518,2512.0766,N,08006.4429,W,1,9,1.6,15,M,,M,,*51
06/09/2014	10:05:20.739	$GPGGA,100519,2512.0763,N,08006.4414,W,1,9,1.5,15,M,,M,,*58
06/09/2014	10:05:21.784	$GPGGA,100520,2512.0762,N,08006.4399,W,1,9,1.5,15,M,,M,,*51
06/09/2014	10:05:22.818	$GPGGA,100521,2512.0760,N,08006.4383,W,1,10,1.4,15,M,,M,,*60
06/09/2014	10:05:23.884	$GPGGA,100522,2512.0757,N,08006.4368,W,1,10,1.4,15,M,,M,,*62
06/09/2014	10:05:24.929	$GPGGA,100523,2512.0755,N,08006.4353,W,1,9,1.4,15,M,,M,,*51
06/09/2014	10:05:25.995	$GPGGA,100524,2512.0753,N,08006.4338,W,1,9,1.4,15,M,,M,,*5D
06/09/2014	10:05:27.061	$GPGGA,100525,2512.0751,N,08006.4321,W,1,10,1.4,15,M,,M,,*6E
06/09/2014	10:05:28.095	$GPGGA,100526,2512.0749,N,08006.4306,W,1,10,1.4,15,M,,M,,*61
06/09/2014	10:05:29.151	$GPGGA,100527,2512.0748,N,08006.4290,W,1,10,1.4,15,M,,M,,*6F
06/09/2014	10:05:30.206	$GPGGA,100528,2512.0746,N,08006.4275,W,1,10,1.4,15,M,,M,,*65
06/09/2014	10:05:31.241	$GPGGA,100529,2512.0744,N,08006.4259,W,1,10,1.4,15,M,,M,,*68
06/09/2014	10:05:32.296	$GPGGA,100530,2512.0743,N,08006.4243,W,1,10,1.4,15,M,,M,,*6C
06/09/2014	10:05:33.372	$GPGGA,100531,2512.0741,N,08006.4227,W,1,10,1.4,15,M,,M,,*6D
06/09/2014	10:05:34.544	$GPGGA,100532,2512.0739,N,08006.4211,W,1,10,1.4,15,M,,M,,*64
06/09/2014	10:05:35.451	$GPGGA,100533,2512.0738,N,08006.4195,W,1,10,1.4,15,M,,M,,*6B
06/09/2014	10:05:36.612	$GPGGA,100534,2512.0737,N,08006.4180,W,1,10,1.4,15,M,,M,,*67
06/09/2014	10:05:37.583	$GPGGA,100535,2512.0735,N,08006.4164,W,1,10,1.4,15,M,,M,,*6E
06/09/2014	10:05:38.628	$GPGGA,100536,2512.0734,N,08006.4148,W,1,10,1.4,15,M,,M,,*62
06/09/2014	10:05:39.694	$GPGGA,100537,2512.0733,N,08006.4132,W,1,10,1.4,15,M,,M,,*69
06/09/2014	10:05:40.834	$GPGGA,100538,2512.0732,N,08006.4117,W,1,10,1.4,15,M,,M,,*60
06/09/2014	10:05:41.784	$GPGGA,100539,2512.0731,N,08006.4100,W,1,10,1.4,15,M,,M,,*64
06/09/2014	10:05:39.512	$GPGGA,100540,2512.0730,N,08006.4085,W,1,10,1.4,15,M,,M,,*67
06/09/2014	10:05:40.673	$GPGGA,100541,2512.0730,N,08006.4069,W,1,10,1.4,14,M,,M,,*65
06/09/2014	10:05:41.728	$GPGGA,100542,2512.0728,N,08006.4053,W,1,10,1.4,14,M,,M,,*66
06/09/2014	10:05:42.773	$GPGGA,100543,2512.0727,N,08006.4037,W,1,10,1.4,14,M,,M,,*6A
06/09/2014	10:05:43.839	$GPGGA,100544,2512.0726,N,08006.4021,W,1,10,1.4,14,M,,M,,*6B
06/09/2014	10:05:44.884	$GPGGA,100545,2512.0726,N,08006.4004,W,1,10,1.4,14,M,,M,,*6D
06/09/2014	10:05:45.929	$GPGGA,100546,2512.0725,N,08006.3988,W,1,10,1.4,14,M,,M,,*67
06/09/2014	10:05:46.987	$GPGGA,100547,2512.0724,N,08006.3972,W,1,10,1.4,14,M,,M,,*62
06/09/2014	10:05:48.058	$GPGGA,100548,2512.0723,N,08006.3956,W,1,10,1.4,14,M,,M,,*6C
06/09/2014	10:05:49.112	$GPGGA,100549,2512.0723,N,08006.3940,W,1,10,1.4,14,M,,M,,*6A
06/09/2014	10:05:50.166	$GPGGA,100550,2512.0723,N,08006.3924,W,1,10,1.4,14,M,,M,,*60
06/09/2014	10:05:51.208	$GPGGA,100551,2512.0721,N,08006.3908,W,1,10,1.4,14,M,,M,,*6D
06/09/2014	10:05:52.272	$GPGGA,100552,2512.0720,N,08006.3892,W,1,10,1.4,14,M,,M,,*6D
06/09/2014	10:05:53.327	$GPGGA,100553,2512.0719,N,08006.3876,W,1,10,1.4,14,M,,M,,*6C
06/09/2014	10:05:54.362	$GPGGA,100554,2512.0719,N,08006.3860,W,1,10,1.4,14,M,,M,,*6C
06/09/2014	10:05:55.438	$GPGGA,100555,2512.0719,N,08006.3843,W,1,10,1.4,14,M,,M,,*6C
06/09/2014	10:05:56.484	$GPGGA,100556,2512.0717,N,08006.3827,W,1,10,1.4,14,M,,M,,*63
06/09/2014	10:05:57.548	$GPGGA,100557,2512.0716,N,08006.3811,W,1,10,1.4,14,M,,M,,*66
06/09/2014	10:05:58.573	$GPGGA,100558,2512.0717,N,08006.3794,W,1,10,1.4,14,M,,M,,*6A
06/09/2014	10:05:59.639	$GPGGA,100559,2512.0715,N,08006.3778,W,1,10,1.4,14,M,,M,,*6B
06/09/2014	10:06:00.695	$GPGGA,100600,2512.0714,N,08006.3762,W,1,10,1.4,14,M,,M,,*6E
06/09/2014	10:06:01.750	$GPGGA,100601,2512.0715,N,08006.3746,W,1,10,1.4,14,M,,M,,*68
06/09/2014	10:06:02.785	$GPGGA,100602,2512.0713,N,08006.3730,W,1,10,1.5,14,M,,M,,*6D
06/09/2014	10:06:03.851	$GPGGA,100603,2512.0714,N,08006.3713,W,1,9,1.5,14,M,,M,,*52
06/09/2014	10:06:04.906	$GPGGA,100604,2512.0713,N,08006.3696,W,1,9,1.4,14,M,,M,,*5F
06/09/2014	10:06:05.974	$GPGGA,100605,2512.0714,N,08006.3680,W,1,10,1.4,14,M,,M,,*66
06/09/2014	10:06:06.995	$GPGGA,100606,2512.0712,N,08006.3664,W,1,10,1.4,14,M,,M,,*69
06/09/2014	10:06:08.061	$GPGGA,100607,2512.0712,N,08006.3648,W,1,10,1.4,14,M,,M,,*66
06/09/2014	10:06:09.116	$GPGGA,100608,2512.0710,N,08006.3631,W,1,10,1.4,14,M,,M,,*65
06/09/2014	10:06:10.151	$GPGGA,100609,2512.0711,N,08006.3615,W,1,9,1.5,14,M,,M,,*5A
06/09/2014	10:06:11.217	$GPGGA,100610,2512.0709,N,08006.3599,W,1,9,1.4,14,M,,M,,*5D
06/09/2014	10:06:12.283	$GPGGA,100611,2512.0710,N,08006.3582,W,1,10,1.4,14,M,,M,,*66
06/09/2014	10:06:13.338	$GPGGA,100612,2512.0708,N,08006.3566,W,1,10,1.4,14,M,,M,,*66
06/09/2014	10:06:14.500	$GPGGA,100613,2512.0708,N,08006.3550,W,1,10,1.4,14,M,,M,,*62
06/09/2014	10:06:15.418	$GPGGA,100614,2512.0708,N,08006.3534,W,1,10,1.4,14,M,,M,,*67
06/09/2014	10:06:16.494	$GPGGA,100615,2512.0706,N,08006.3517,W,1,10,1.4,14,M,,M,,*69
06/09/2014	10:06:17.540	$GPGGA,100616,2512.0704,N,08006.3501,W,1,10,1.4,14,M,,M,,*6F
06/09/2014	10:06:18.605	$GPGGA,100617,2512.0703,N,08006.3485,W,1,10,1.4,14,M,,M,,*64
06/09/2014	10:06:19.629	$GPGGA,100618,2512.0704,N,08006.3469,W,1,10,1.4,14,M,,M,,*6E
06/09/2014	10:06:20.822	$GPGGA,100619,2512.0701,N,08006.3453,W,1,10,1.4,14,M,,M,,*63
06/09/2014	10:06:21.740	$GPGGA,100620,2512.0701,N,08006.3438,W,1,10,1.4,14,M,,M,,*64
06/09/2014	10:06:22.818	$GPGGA,100621,2512.0698,N,08006.3421,W,1,9,1.4,14,M,,M,,*54
06/09/2014	10:06:23.851	$GPGGA,100622,2512.0697,N,08006.3405,W,1,9,1.4,14,M,,M,,*5E
06/09/2014	10:06:24.896	$GPGGA,100623,2512.0695,N,08006.3389,W,1,9,1.4,14,M,,M,,*5E
06/09/2014	10:06:26.067	$GPGGA,100624,2512.0694,N,08006.3373,W,1,9,1.4,14,M,,M,,*5D
06/09/2014	10:06:27.006	$GPGGA,100625,2512.0694,N,08006.3357,W,1,9,1.4,14,M,,M,,*5A
06/09/2014	10:06:28.158	$GPGGA,100626,2512.0692,N,08006.3342,W,1,9,1.4,14,M,,M,,*5B
06/09/2014	10:06:29.131	$GPGGA,100627,2512.0690,N,08006.3325,W,1,10,1.4,14,M,,M,,*61
06/09/2014	10:06:30.173	$GPGGA,100628,2512.0690,N,08006.3309,W,1,10,1.4,14,M,,M,,*60
06/09/2014	10:06:31.239	$GPGGA,100629,2512.0687,N,08006.3296,W,1,9,1.4,14,M,,M,,*58
06/09/2014	10:06:32.263	$GPGGA,100630,2512.0686,N,08006.3281,W,1,9,1.4,14,M,,M,,*57
06/09/2014	10:06:33.329	$GPGGA,100631,2512.0685,N,08006.3266,W,1,10,1.4,14,M,,M,,*64
06/09/2014	10:06:34.511	$GPGGA,100632,2512.0683,N,08006.3249,W,1,10,1.8,14,M,,M,,*60
06/09/2014	10:06:35.545	$GPGGA,100633,2512.0680,N,08006.3233,W,1,8,1.8,14,M,,M,,*56
06/09/2014	10:06:36.496	$GPGGA,100634,2512.0677,N,08006.3216,W,1,8,1.8,14,M,,M,,*5E
06/09/2014	10:06:37.677	$GPGGA,100635,2512.0676,N,08006.3201,W,1,10,1.4,14,M,,M,,*6D
06/09/2014	10:06:38.607	$GPGGA,100636,2512.0674,N,08006.3184,W,1,10,1.4,14,M,,M,,*62
06/09/2014	10:06:39.778	$GPGGA,100637,2512.0672,N,08006.3169,W,1,9,1.4,14,M,,M,,*5E
06/09/2014	10:06:40.803	$GPGGA,100638,2512.0670,N,08006.3153,W,1,9,1.4,14,M,,M,,*5A
06/09/2014	10:06:41.863	$GPGGA,100639,2512.0669,N,08006.3138,W,1,9,1.4,15,M,,M,,*5F
06/09/2014	10:06:39.606	$GPGGA,100640,2512.0668,N,08006.3126,W,1,9,1.4,15,M,,M,,*5F
06/09/2014	10:06:40.661	$GPGGA,100641,2512.0666,N,08006.3111,W,1,10,1.4,15,M,,M,,*6C
06/09/2014	10:06:41.695	$GPGGA,100642,2512.0665,N,08006.3095,W,1,10,1.4,15,M,,M,,*61
06/09/2014	10:06:42.751	$GPGGA,100643,2512.0662,N,08006.3080,W,1,10,1.4,15,M,,M,,*63
06/09/2014	10:06:43.823	$GPGGA,100644,2512.0661,N,08006.3065,W,1,10,1.4,15,M,,M,,*6C
06/09/2014	10:06:44.876	$GPGGA,100645,2512.0658,N,08006.3050,W,1,9,1.4,15,M,,M,,*59
06/09/2014	10:06:45.895	$GPGGA,100646,2512.0655,N,08006.3032,W,1,9,1.4,15,M,,M,,*53
06/09/2014	10:06:46.996	$GPGGA,100647,2512.0654,N,08006.3017,W,1,10,1.4,15,M,,M,,*6C
06/09/2014	10:06:48.047	$GPGGA,100648,2512.0651,N,08006.3002,W,1,10,1.4,15,M,,M,,*62
06/09/2014	10:06:49.072	$GPGGA,100649,2512.0650,N,08006.2989,W,1,9,1.4,15,M,,M,,*51
06/09/2014	10:06:50.118	$GPGGA,100650,2512.0648,N,08006.2973,W,1,9,1.8,15,M,,M,,*59
06/09/2014	10:06:51.194	$GPGGA,100651,2512.0645,N,08006.2957,W,1,8,1.4,15,M,,M,,*5E
06/09/2014	10:06:52.239	$GPGGA,100652,2512.0643,N,08006.2941,W,1,8,1.4,15,M,,M,,*5C
06/09/2014	10:06:53.305	$GPGGA,100653,2512.0641,N,08006.2924,W,1,9,1.4,15,M,,M,,*5D
06/09/2014	10:06:54.330	$GPGGA,100654,2512.0639,N,08006.2909,W,1,9,1.4,15,M,,M,,*5A
06/09/2014	10:06:55.431	$GPGGA,100655,2512.0637,N,08006.2895,W,1,9,1.4,15,M,,M,,*51
06/09/2014	10:06:56.450	$GPGGA,100656,2512.0636,N,08006.2879,W,1,9,1.4,15,M,,M,,*51
06/09/2014	10:06:57.533	$GPGGA,100657,2512.0633,N,08006.2862,W,1,9,1.4,15,M,,M,,*5F
06/09/2014	10:06:58.540	$GPGGA,100658,2512.0631,N,08006.2846,W,1,9,1.4,15,M,,M,,*54
06/09/2014	10:06:59.627	$GPGGA,100659,2512.0629,N,08006.2830,W,1,9,1.4,15,M,,M,,*5D
06/09/2014	10:07:00.671	$GPGGA,100700,2512.0627,N,08006.2814,W,1,9,1.4,15,M,,M,,*58
06/09/2014	10:07:01.737	$GPGGA,100701,2512.0625,N,08006.2798,W,1,9,1.4,15,M,,M,,*50
06/09/2014	10:07:02.761	$GPGGA,100702,2512.0623,N,08006.2782,W,1,9,1.4,15,M,,M,,*5E
06/09/2014	10:07:03.848	$GPGGA,100703,2512.0621,N,08006.2767,W,1,9,1.4,15,M,,M,,*56
06/09/2014	10:07:04.999	$GPGGA,100704,2512.0619,N,08006.2750,W,1,9,1.4,15,M,,M,,*5E
06/09/2014	10:07:05.949	$GPGGA,100705,2512.0618,N,08006.2735,W,1,10,1.4,15,M,,M,,*65
06/09/2014	10:07:06.973	$GPGGA,100706,2512.0616,N,08006.2719,W,1,10,1.4,15,M,,M,,*66
06/09/2014	10:07:08.049	$GPGGA,100707,2512.0615,N,08006.2704,W,1,10,1.8,15,M,,M,,*64
06/09/2014	10:07:09.094	$GPGGA,100708,2512.0614,N,08006.2689,W,1,10,1.8,15,M,,M,,*6E
06/09/2014	10:07:10.139	$GPGGA,100709,2512.0613,N,08006.2675,W,1,9,1.8,15,M,,M,,*53
06/09/2014	10:07:11.311	$GPGGA,100710,2512.0612,N,08006.2660,W,1,9,1.8,15,M,,M,,*5E
06/09/2014	10:07:12.261	$GPGGA,100711,2512.0609,N,08006.2642,W,1,9,1.4,15,M,,M,,*59
06/09/2014	10:07:13.317	$GPGGA,100712,2512.0608,N,08006.2626,W,1,9,1.8,15,M,,M,,*55
06/09/2014	10:07:14.448	$GPGGA,100713,2512.0607,N,08006.2611,W,1,8,1.8,15,M,,M,,*5E
06/09/2014	10:07:15.385	$GPGGA,100714,2512.0605,N,08006.2594,W,1,8,1.8,15,M,,M,,*55
06/09/2014	10:07:16.472	$GPGGA,100715,2512.0603,N,08006.2578,W,1,9,1.4,15,M,,M,,*5D
06/09/2014	10:07:17.537	$GPGGA,100716,2512.0602,N,08006.2562,W,1,9,1.4,15,M,,M,,*54
06/09/2014	10:07:18.561	$GPGGA,100717,2512.0601,N,08006.2546,W,1,9,1.4,14,M,,M,,*51
06/09/2014	10:07:19.715	$GPGGA,100718,2512.0600,N,08006.2530,W,1,9,1.4,14,M,,M,,*5E
06/09/2014	10:07:20.663	$GPGGA,100719,2512.0600,N,08006.2514,W,1,10,1.4,14,M,,M,,*61
06/09/2014	10:07:21.833	$GPGGA,100720,2512.0597,N,08006.2498,W,1,10,1.4,14,M,,M,,*63
06/09/2014	10:07:22.910	$GPGGA,100721,2512.0596,N,08006.2482,W,1,10,1.4,14,M,,M,,*68
06/09/2014	10:07:23.839	$GPGGA,100722,2512.0594,N,08006.2465,W,1,10,1.4,14,M,,M,,*60
06/09/2014	10:07:24.980	$GPGGA,100723,2512.0593,N,08006.2449,W,1,10,1.4,14,M,,M,,*68
06/09/2014	10:07:26.054	$GPGGA,100724,2512.0592,N,08006.2433,W,1,10,1.4,14,M,,M,,*63
06/09/2014	10:07:27.111	$GPGGA,100725,2512.0591,N,08006.2417,W,1,10,1.4,15,M,,M,,*66
06/09/2014	10:07:28.134	$GPGGA,100726,2512.0590,N,08006.2400,W,1,10,1.4,15,M,,M,,*62
06/09/2014	10:07:29.217	$GPGGA,100727,2512.0589,N,08006.2384,W,1,10,1.4,15,M,,M,,*60
06/09/2014	10:07:30.256	$GPGGA,100728,2512.0587,N,08006.2368,W,1,10,1.4,15,M,,M,,*63
06/09/2014	10:07:31.290	$GPGGA,100729,2512.0586,N,08006.2351,W,1,10,1.4,15,M,,M,,*69
06/09/2014	10:07:32.346	$GPGGA,100730,2512.0585,N,08006.2335,W,1,10,1.4,15,M,,M,,*60
06/09/2014	10:07:33.439	$GPGGA,100731,2512.0583,N,08006.2319,W,1,10,1.4,15,M,,M,,*69
06/09/2014	10:07:34.470	$GPGGA,100732,2512.0582,N,08006.2302,W,1,10,1.4,15,M,,M,,*61
06/09/2014	10:07:35.535	$GPGGA,100733,2512.0582,N,08006.2285,W,1,10,1.4,15,M,,M,,*6E
06/09/2014	10:07:36.567	$GPGGA,100734,2512.0580,N,08006.2269,W,1,10,1.4,15,M,,M,,*69
06/09/2014	10:07:37.622	$GPGGA,100735,2512.0581,N,08006.2253,W,1,10,1.4,15,M,,M,,*60
06/09/2014	10:07:38.688	$GPGGA,100736,2512.0578,N,08006.2237,W,1,10,1.4,15,M,,M,,*67
06/09/2014	10:07:39.733	$GPGGA,100737,2512.0578,N,08006.2221,W,1,10,1.5,15,M,,M,,*60
06/09/2014	10:07:40.790	$GPGGA,100738,2512.0578,N,08006.2205,W,1,10,1.5,15,M,,M,,*69
06/09/2014	10:07:41.855	$GPGGA,100739,2512.0575,N,08006.2188,W,1,10,1.4,15,M,,M,,*62
06/09/2014	10:07:39.572	$GPGGA,100740,2512.0573,N,08006.2172,W,1,10,1.4,15,M,,M,,*6F
06/09/2014	10:07:40.606	$GPGGA,100741,2512.0572,N,08006.2155,W,1,10,1.4,15,M,,M,,*6A
06/09/2014	10:07:41.672	$GPGGA,100742,2512.0573,N,08006.2138,W,1,10,1.4,15,M,,M,,*63
06/09/2014	10:07:42.749	$GPGGA,100743,2512.0571,N,08006.2121,W,1,9,1.4,15,M,,M,,*50
06/09/2014	10:07:43.794	$GPGGA,100744,2512.0571,N,08006.2105,W,1,9,1.4,15,M,,M,,*51
06/09/2014	10:07:44.818	$GPGGA,100745,2512.0568,N,08006.2089,W,1,9,1.4,15,M,,M,,*5D
06/09/2014	10:07:45.873	$GPGGA,100746,2512.0569,N,08006.2073,W,1,9,1.4,15,M,,M,,*5A
06/09/2014	10:07:46.950	$GPGGA,100747,2512.0568,N,08006.2057,W,1,9,1.8,16,M,,M,,*53
06/09/2014	10:07:48.005	$GPGGA,100748,2512.0565,N,08006.2040,W,1,9,1.4,16,M,,M,,*5B
06/09/2014	10:07:49.050	$GPGGA,100749,2512.0564,N,08006.2024,W,1,9,1.4,16,M,,M,,*59
06/09/2014	10:07:50.085	$GPGGA,100750,2512.0564,N,08006.2007,W,1,9,1.4,16,M,,M,,*50
06/09/2014	10:07:51.150	$GPGGA,100751,2512.0562,N,08006.1990,W,1,10,1.4,16,M,,M,,*6B
06/09/2014	10:07:52.205	$GPGGA,100752,2512.0561,N,08006.1974,W,1,10,1.4,16,M,,M,,*61
06/09/2014	10:07:53.377	$GPGGA,100753,2512.0560,N,08006.1958,W,1,10,1.4,16,M,,M,,*6F
06/09/2014	10:07:54.316	$GPGGA,100754,2512.0557,N,08006.1942,W,1,10,1.4,16,M,,M,,*67
06/09/2014	10:07:55.393	$GPGGA,100755,2512.0557,N,08006.1928,W,1,9,1.4,16,M,,M,,*52
06/09/2014	10:07:56.427	$GPGGA,100756,2512.0556,N,08006.1912,W,1,9,1.4,16,M,,M,,*59
06/09/2014	10:07:57.589	$GPGGA,100757,2512.0553,N,08006.1896,W,1,10,1.4,16,M,,M,,*68
06/09/2014	10:07:58.517	$GPGGA,100758,2512.0553,N,08006.1879,W,1,10,1.4,17,M,,M,,*67
06/09/2014	10:07:59.583	$GPGGA,100759,2512.0550,N,08006.1862,W,1,9,1.4,17,M,,M,,*57
06/09/2014	10:08:00.639	$GPGGA,100800,2512.0549,N,08006.1846,W,1,9,1.4,17,M,,M,,*5A
06/09/2014	10:08:01.810	$GPGGA,100801,2512.0546,N,08006.1830,W,1,9,1.4,17,M,,M,,*55
06/09/2014	10:08:02.823	$GPGGA,100802,2512.0544,N,08006.1813,W,1,9,1.4,17,M,,M,,*55
06/09/2014	10:08:03.900	$GPGGA,100803,2512.0543,N,08006.1798,W,1,9,1.4,17,M,,M,,*5F
06/09/2014	10:08:04.850	$GPGGA,100804,2512.0542,N,08006.1782,W,1,9,1.4,17,M,,M,,*52
06/09/2014	10:08:05.884	$GPGGA,100805,2512.0540,N,08006.1766,W,1,9,1.4,17,M,,M,,*5B
06/09/2014	10:08:07.038	$GPGGA,100806,2512.0538,N,08006.1750,W,1,9,1.4,17,M,,M,,*52
06/09/2014	10:08:08.094	$GPGGA,100807,2512.0536,N,08006.1735,W,1,10,1.4,17,M,,M,,*66
06/09/2014	10:08:09.070	$GPGGA,100808,2512.0535,N,08006.1719,W,1,10,1.4,18,M,,M,,*6B
06/09/2014	10:08:10.129	$GPGGA,100809,2512.0533,N,08006.1704,W,1,8,1.6,18,M,,M,,*5B
06/09/2014	10:08:11.266	$GPGGA,100810,2512.0532,N,08006.1690,W,1,8,1.4,18,M,,M,,*5C
06/09/2014	10:08:12.332	$GPGGA,100811,2512.0531,N,08006.1675,W,1,10,1.4,18,M,,M,,*6C
06/09/2014	10:08:13.363	$GPGGA,100812,2512.0529,N,08006.1661,W,1,10,1.4,18,M,,M,,*63
06/09/2014	10:08:14.375	$GPGGA,100813,2512.0527,N,08006.1646,W,1,10,1.4,18,M,,M,,*69
06/09/2014	10:08:15.389	$GPGGA,100814,2512.0526,N,08006.1630,W,1,10,1.4,18,M,,M,,*6E
06/09/2014	10:08:16.429	$GPGGA,100815,2512.0524,N,08006.1614,W,1,10,1.4,18,M,,M,,*6B
06/09/2014	10:08:17.429	$GPGGA,100816,2512.0522,N,08006.1599,W,1,10,1.4,18,M,,M,,*68
06/09/2014	10:08:18.462	$GPGGA,100817,2512.0520,N,08006.1584,W,1,10,1.4,18,M,,M,,*67
06/09/2014	10:08:19.452	$GPGGA,100818,2512.0519,N,08006.1568,W,1,10,1.4,18,M,,M,,*60
06/09/2014	10:08:20.504	$GPGGA,100819,2512.0517,N,08006.1552,W,1,9,1.4,18,M,,M,,*5E
06/09/2014	10:08:21.515	$GPGGA,100820,2512.0514,N,08006.1537,W,1,9,1.4,18,M,,M,,*54
06/09/2014	10:08:22.526	$GPGGA,100821,2512.0513,N,08006.1521,W,1,10,1.4,18,M,,M,,*6D
06/09/2014	10:08:23.548	$GPGGA,100822,2512.0510,N,08006.1504,W,1,10,1.4,18,M,,M,,*6A
06/09/2014	10:08:24.583	$GPGGA,100823,2512.0508,N,08006.1489,W,1,10,1.4,18,M,,M,,*66
06/09/2014	10:08:25.592	$GPGGA,100824,2512.0506,N,08006.1474,W,1,10,1.4,18,M,,M,,*6D
06/09/2014	10:08:26.592	$GPGGA,100825,2512.0504,N,08006.1459,W,1,10,1.4,18,M,,M,,*61
06/09/2014	10:08:27.612	$GPGGA,100826,2512.0503,N,08006.1443,W,1,10,1.4,18,M,,M,,*6E
06/09/2014	10:08:28.664	$GPGGA,100827,2512.0500,N,08006.1428,W,1,10,1.4,18,M,,M,,*61
06/09/2014	10:08:29.665	$GPGGA,100828,2512.0499,N,08006.1413,W,1,10,1.4,18,M,,M,,*67
06/09/2014	10:08:30.668	$GPGGA,100829,2512.0497,N,08006.1397,W,1,10,1.4,18,M,,M,,*63
06/09/2014	10:08:31.688	$GPGGA,100830,2512.0495,N,08006.1382,W,1,10,1.5,18,M,,M,,*6C
06/09/2014	10:08:32.710	$GPGGA,100831,2512.0492,N,08006.1366,W,1,9,1.5,18,M,,M,,*58
06/09/2014	10:08:33.751	$GPGGA,100832,2512.0489,N,08006.1350,W,1,9,1.4,18,M,,M,,*55
06/09/2014	10:08:34.783	$GPGGA,100833,2512.0486,N,08006.1334,W,1,10,1.4,18,M,,M,,*61
06/09/2014	10:08:35.784	$GPGGA,100834,2512.0484,N,08006.1317,W,1,10,1.4,18,M,,M,,*65
06/09/2014	10:08:36.785	$GPGGA,100835,2512.0481,N,08006.1301,W,1,10,1.4,18,M,,M,,*66
06/09/2014	10:08:37.827	$GPGGA,100836,2512.0479,N,08006.1284,W,1,10,1.4,18,M,,M,,*6E
06/09/2014	10:08:38.860	$GPGGA,100837,2512.0477,N,08006.1268,W,1,9,1.4,18,M,,M,,*5B
06/09/2014	10:08:39.850	$GPGGA,100838,2512.0475,N,08006.1251,W,1,9,1.4,18,M,,M,,*5C
06/09/2014	10:08:40.871	$GPGGA,100839,2512.0473,N,08006.1235,W,1,9,1.4,18,M,,M,,*59
06/09/2014	10:08:39.542	$GPGGA,100840,2512.0472,N,08006.1219,W,1,9,1.4,18,M,,M,,*58
06/09/2014	10:08:40.533	$GPGGA,100841,2512.0470,N,08006.1203,W,1,9,1.4,18,M,,M,,*50
06/09/2014	10:08:41.657	$GPGGA,100842,2512.0468,N,08006.1187,W,1,9,1.4,18,M,,M,,*55
06/09/2014	10:08:42.587	$GPGGA,100843,2512.0467,N,08006.1171,W,1,9,1.4,18,M,,M,,*52
06/09/2014	10:08:43.627	$GPGGA,100844,2512.0466,N,08006.1155,W,1,9,1.4,18,M,,M,,*52
06/09/2014	10:08:44.628	$GPGGA,100845,2512.0464,N,08006.1139,W,1,9,1.4,18,M,,M,,*5B
06/09/2014	10:08:45.660	$GPGGA,100846,2512.0462,N,08006.1124,W,1,9,1.4,18,M,,M,,*52
06/09/2014	10:08:46.763	$GPGGA,100847,2512.0461,N,08006.1108,W,1,9,1.4,18,M,,M,,*5E
06/09/2014	10:08:47.683	$GPGGA,100848,2512.0460,N,08006.1092,W,1,9,1.4,18,M,,M,,*52
06/09/2014	10:08:48.817	$GPGGA,100849,2512.0459,N,08006.1076,W,1,9,1.4,17,M,,M,,*5C
06/09/2014	10:08:49.716	$GPGGA,100850,2512.0456,N,08006.1060,W,1,9,1.4,17,M,,M,,*5C
06/09/2014	10:08:50.839	$GPGGA,100851,2512.0455,N,08006.1044,W,1,9,1.4,17,M,,M,,*58
06/09/2014	10:08:51.780	$GPGGA,100852,2512.0454,N,08006.1028,W,1,9,1.4,17,M,,M,,*50
06/09/2014	10:08:52.913	$GPGGA,100853,2512.0452,N,08006.1012,W,1,10,1.4,17,M,,M,,*66
06/09/2014	10:08:53.802	$GPGGA,100854,2512.0452,N,08006.0997,W,1,10,1.4,17,M,,M,,*64
06/09/2014	10:08:54.916	$GPGGA,100855,2512.0452,N,08006.0980,W,1,10,1.4,17,M,,M,,*63
06/09/2014	10:08:55.957	$GPGGA,100856,2512.0449,N,08006.0965,W,1,10,1.4,17,M,,M,,*61
06/09/2014	10:08:56.960	$GPGGA,100857,2512.0448,N,08006.0949,W,1,9,1.4,17,M,,M,,*57
06/09/2014	10:08:57.971	$GPGGA,100858,2512.0448,N,08006.0933,W,1,9,1.4,17,M,,M,,*55
06/09/2014	10:08:59.011	$GPGGA,100859,2512.0446,N,08006.0917,W,1,9,1.4,17,M,,M,,*5C
06/09/2014	10:09:00.031	$GPGGA,100900,2512.0444,N,08006.0901,W,1,9,1.4,17,M,,M,,*54
06/09/2014	10:09:01.077	$GPGGA,100901,2512.0443,N,08006.0884,W,1,9,1.4,17,M,,M,,*5E
06/09/2014	10:09:02.044	$GPGGA,100902,2512.0442,N,08006.0868,W,1,9,1.4,17,M,,M,,*5E
06/09/2014	10:09:03.119	$GPGGA,100903,2512.0441,N,08006.0852,W,1,9,1.4,17,M,,M,,*55
06/09/2014	10:09:04.115	$GPGGA,100904,2512.0441,N,08006.0836,W,1,9,1.4,17,M,,M,,*50
06/09/2014	10:09:05.109	$GPGGA,100905,2512.0439,N,08006.0820,W,1,9,1.4,16,M,,M,,*58
06/09/2014	10:09:06.142	$GPGGA,100906,2512.0438,N,08006.0804,W,1,9,1.4,16,M,,M,,*5C
06/09/2014	10:09:07.165	$GPGGA,100907,2512.0436,N,08006.0788,W,1,9,1.4,16,M,,M,,*58
06/09/2014	10:09:08.184	$GPGGA,100908,2512.0437,N,08006.0771,W,1,9,1.4,16,M,,M,,*50
06/09/2014	10:09:09.205	$GPGGA,100909,2512.0436,N,08006.0755,W,1,9,1.4,16,M,,M,,*56
06/09/2014	10:09:10.206	$GPGGA,100910,2512.0434,N,08006.0740,W,1,9,1.4,16,M,,M,,*58
06/09/2014	10:09:11.238	$GPGGA,100911,2512.0434,N,08006.0724,W,1,9,1.4,16,M,,M,,*5B
06/09/2014	10:09:12.260	$GPGGA,100912,2512.0432,N,08006.0708,W,1,9,1.4,16,M,,M,,*50
06/09/2014	10:09:13.281	$GPGGA,100913,2512.0431,N,08006.0692,W,1,9,1.4,16,M,,M,,*50
06/09/2014	10:09:14.292	$GPGGA,100914,2512.0430,N,08006.0676,W,1,9,1.4,16,M,,M,,*5C
06/09/2014	10:09:15.335	$GPGGA,100915,2512.0430,N,08006.0661,W,1,9,1.4,16,M,,M,,*5B
06/09/2014	10:09:16.345	$GPGGA,100916,2512.0430,N,08006.0645,W,1,9,1.4,16,M,,M,,*5E
06/09/2014	10:09:17.369	$GPGGA,100917,2512.0428,N,08006.0629,W,1,9,1.4,16,M,,M,,*5C
06/09/2014	10:09:18.368	$GPGGA,100918,2512.0426,N,08006.0614,W,1,9,1.4,16,M,,M,,*53
06/09/2014	10:09:19.420	$GPGGA,100919,2512.0426,N,08006.0598,W,1,9,1.4,16,M,,M,,*55
06/09/2014	10:09:20.420	$GPGGA,100920,2512.0425,N,08006.0581,W,1,9,1.4,16,M,,M,,*54
06/09/2014	10:09:21.452	$GPGGA,100921,2512.0424,N,08006.0565,W,1,9,1.4,16,M,,M,,*5E
06/09/2014	10:09:22.442	$GPGGA,100922,2512.0423,N,08006.0550,W,1,9,1.4,16,M,,M,,*5C
06/09/2014	10:09:23.464	$GPGGA,100923,2512.0421,N,08006.0534,W,1,9,1.4,16,M,,M,,*5D
06/09/2014	10:09:24.496	$GPGGA,100924,2512.0420,N,08006.0518,W,1,9,1.4,16,M,,M,,*55
06/09/2014	10:09:25.486	$GPGGA,100925,2512.0419,N,08006.0502,W,1,9,1.4,15,M,,M,,*56
06/09/2014	10:09:26.518	$GPGGA,100926,2512.0419,N,08006.0486,W,1,9,1.4,15,M,,M,,*58
06/09/2014	10:09:27.570	$GPGGA,100927,2512.0416,N,08006.0470,W,1,8,1.5,15,M,,M,,*5F
06/09/2014	10:09:28.571	$GPGGA,100928,2512.0416,N,08006.0453,W,1,8,1.5,15,M,,M,,*51
06/09/2014	10:09:29.594	$GPGGA,100929,2512.0414,N,08006.0438,W,1,9,1.4,15,M,,M,,*5F
06/09/2014	10:09:30.594	$GPGGA,100930,2512.0412,N,08006.0423,W,1,9,1.4,15,M,,M,,*5B
06/09/2014	10:09:31.636	$GPGGA,100931,2512.0410,N,08006.0407,W,1,9,1.4,15,M,,M,,*5E
06/09/2014	10:09:32.647	$GPGGA,100932,2512.0409,N,08006.0391,W,1,9,1.4,15,M,,M,,*5D
06/09/2014	10:09:33.750	$GPGGA,100933,2512.0408,N,08006.0378,W,1,9,1.4,15,M,,M,,*5A
06/09/2014	10:09:34.680	$GPGGA,100934,2512.0407,N,08006.0362,W,1,9,1.4,15,M,,M,,*59
06/09/2014	10:09:35.825	$GPGGA,100935,2512.0408,N,08006.0346,W,1,9,1.4,15,M,,M,,*51
06/09/2014	10:09:36.896	$GPGGA,100936,2512.0406,N,08006.0331,W,1,9,1.4,15,M,,M,,*5C
06/09/2014	10:09:37.764	$GPGGA,100937,2512.0405,N,08006.0316,W,1,9,1.4,15,M,,M,,*5B
06/09/2014	10:09:38.744	$GPGGA,100938,2512.0405,N,08006.0301,W,1,9,1.6,15,M,,M,,*50
06/09/2014	10:09:39.919	$GPGGA,100939,2512.0405,N,08006.0286,W,1,9,1.4,15,M,,M,,*5D
06/09/2014	10:09:39.500	$GPGGA,100940,2512.0403,N,08006.0271,W,1,9,1.4,15,M,,M,,*5D
06/09/2014	10:09:40.511	$GPGGA,100941,2512.0404,N,08006.0257,W,1,9,1.5,15,M,,M,,*5E
06/09/2014	10:09:41.532	$GPGGA,100942,2512.0403,N,08006.0242,W,1,9,1.4,15,M,,M,,*5F
06/09/2014	10:09:42.739	$GPGGA,100943,2512.0402,N,08006.0227,W,1,10,1.4,15,M,,M,,*64
06/09/2014	10:09:43.688	$GPGGA,100944,2512.0401,N,08006.0213,W,1,10,1.4,15,M,,M,,*67
06/09/2014	10:09:44.730	$GPGGA,100945,2512.0401,N,08006.0198,W,1,10,1.4,15,M,,M,,*66
06/09/2014	10:09:45.792	$GPGGA,100946,2512.0399,N,08006.0184,W,1,10,1.4,15,M,,M,,*6E
06/09/2014	10:09:46.773	$GPGGA,100947,2512.0398,N,08006.0169,W,1,10,1.4,15,M,,M,,*6D
06/09/2014	10:09:47.845	$GPGGA,100948,2512.0397,N,08006.0154,W,1,10,1.4,15,M,,M,,*63
06/09/2014	10:09:48.805	$GPGGA,100949,2512.0396,N,08006.0139,W,1,10,1.4,15,M,,M,,*68
06/09/2014	10:09:49.868	$GPGGA,100950,2512.0395,N,08006.0125,W,1,10,1.4,15,M,,M,,*6E
06/09/2014	10:09:50.859	$GPGGA,100951,2512.0394,N,08006.0110,W,1,10,1.4,15,M,,M,,*68
06/09/2014	10:09:51.840	$GPGGA,100952,2512.0392,N,08006.0095,W,1,10,1.4,15,M,,M,,*61
06/09/2014	10:09:52.850	$GPGGA,100953,2512.0391,N,08006.0079,W,1,9,1.4,15,M,,M,,*59
06/09/2014	10:09:53.872	$GPGGA,100954,2512.0389,N,08006.0064,W,1,9,1.4,15,M,,M,,*5B
06/09/2014	10:09:54.954	$GPGGA,100955,2512.0388,N,08006.0050,W,1,10,1.4,15,M,,M,,*64
06/09/2014	10:09:55.924	$GPGGA,100956,2512.0387,N,08006.0034,W,1,10,1.4,15,M,,M,,*6A
06/09/2014	10:09:56.987	$GPGGA,100957,2512.0385,N,08006.0019,W,1,10,1.4,15,M,,M,,*66
06/09/2014	10:09:58.008	$GPGGA,100958,2512.0383,N,08006.0004,W,1,10,1.4,15,M,,M,,*63
06/09/2014	10:09:59.009	$GPGGA,100959,2512.0383,N,08005.9990,W,1,10,1.4,15,M,,M,,*6C
06/09/2014	10:10:00.082	$GPGGA,101000,2512.0381,N,08005.9974,W,1,10,1.4,15,M,,M,,*60
06/09/2014	10:10:01.048	$GPGGA,101001,2512.0380,N,08005.9959,W,1,10,1.4,15,M,,M,,*6F
06/09/2014	10:10:02.104	$GPGGA,101002,2512.0378,N,08005.9944,W,1,10,1.4,14,M,,M,,*66
06/09/2014	10:10:03.077	$GPGGA,101003,2512.0377,N,08005.9928,W,1,10,1.4,14,M,,M,,*62
06/09/2014	10:10:04.076	$GPGGA,101004,2512.0374,N,08005.9912,W,1,10,1.4,14,M,,M,,*6F
06/09/2014	10:10:05.136	$GPGGA,101005,2512.0372,N,08005.9897,W,1,10,1.4,14,M,,M,,*64
06/09/2014	10:10:06.098	$GPGGA,101006,2512.0372,N,08005.9881,W,1,10,1.4,14,M,,M,,*60
06/09/2014	10:10:07.183	$GPGGA,101007,2512.0369,N,08005.9865,W,1,10,1.4,14,M,,M,,*61
06/09/2014	10:10:08.152	$GPGGA,101008,2512.0367,N,08005.9850,W,1,10,1.4,14,M,,M,,*66
06/09/2014	10:10:09.228	$GPGGA,101009,2512.0365,N,08005.9834,W,1,10,1.4,14,M,,M,,*67
06/09/2014	10:10:10.246	$GPGGA,101010,2512.0365,N,08005.9819,W,1,10,1.5,14,M,,M,,*61
06/09/2014	10:10:11.195	$GPGGA,101011,2512.0362,N,08005.9803,W,1,9,1.5,14,M,,M,,*54
06/09/2014	10:10:12.288	$GPGGA,101012,2512.0361,N,08005.9787,W,1,9,1.4,14,M,,M,,*56
06/09/2014	10:10:13.309	$GPGGA,101013,2512.0358,N,08005.9770,W,1,9,1.4,14,M,,M,,*55
06/09/2014	10:10:14.259	$GPGGA,101014,2512.0355,N,08005.9753,W,1,9,1.4,14,M,,M,,*5E
06/09/2014	10:10:15.342	$GPGGA,101015,2512.0354,N,08005.9737,W,1,9,1.4,14,M,,M,,*5C
06/09/2014	10:10:16.363	$GPGGA,101016,2512.0351,N,08005.9720,W,1,9,1.4,14,M,,M,,*5C
06/09/2014	10:10:17.344	$GPGGA,101017,2512.0348,N,08005.9703,W,1,9,1.9,14,M,,M,,*59
06/09/2014	10:10:18.397	$GPGGA,101018,2512.0344,N,08005.9688,W,1,9,1.4,14,M,,M,,*55
06/09/2014	10:10:19.397	$GPGGA,101019,2512.0340,N,08005.9674,W,1,9,1.4,14,M,,M,,*53
06/09/2014	10:10:20.449	$GPGGA,101020,2512.0338,N,08005.9658,W,1,9,1.4,14,M,,M,,*58
06/09/2014	10:10:21.420	$GPGGA,101021,2512.0336,N,08005.9642,W,1,9,1.4,14,M,,M,,*5C
06/09/2014	10:10:22.513	$GPGGA,101022,2512.0332,N,08005.9627,W,1,9,1.4,14,M,,M,,*58
06/09/2014	10:10:23.483	$GPGGA,101023,2512.0330,N,08005.9611,W,1,9,1.4,14,M,,M,,*5E
06/09/2014	10:10:24.528	$GPGGA,101024,2512.0329,N,08005.9595,W,1,9,1.4,14,M,,M,,*5E
06/09/2014	10:10:25.516	$GPGGA,101025,2512.0327,N,08005.9579,W,1,9,1.4,14,M,,M,,*53
06/09/2014	10:10:26.486	$GPGGA,101026,2512.0324,N,08005.9563,W,1,9,1.4,14,M,,M,,*58
06/09/2014	10:10:27.549	$GPGGA,101027,2512.0322,N,08005.9547,W,1,9,1.4,14,M,,M,,*59
06/09/2014	10:10:28.641	$GPGGA,101028,2512.0322,N,08005.9531,W,1,9,1.4,14,M,,M,,*57
06/09/2014	10:10:29.611	$GPGGA,101029,2512.0320,N,08005.9515,W,1,9,1.4,14,M,,M,,*52
06/09/2014	10:10:30.694	$GPGGA,101030,2512.0318,N,08005.9499,W,1,9,1.4,14,M,,M,,*54
06/09/2014	10:10:31.634	$GPGGA,101031,2512.0318,N,08005.9482,W,1,9,1.4,14,M,,M,,*5F
06/09/2014	10:10:32.717	$GPGGA,101032,2512.0316,N,08005.9466,W,1,9,1.4,14,M,,M,,*58
06/09/2014	10:10:33.759	$GPGGA,101033,2512.0314,N,08005.9450,W,1,9,1.4,14,M,,M,,*5E
06/09/2014	10:10:34.749	$GPGGA,101034,2512.0314,N,08005.9436,W,1,9,1.4,14,M,,M,,*59
06/09/2014	10:10:35.781	$GPGGA,101035,2512.0313,N,08005.9419,W,1,10,1.4,14,M,,M,,*6A
06/09/2014	10:10:36.813	$GPGGA,101036,2512.0312,N,08005.9403,W,1,10,1.4,14,M,,M,,*63
06/09/2014	10:10:37.824	$GPGGA,101037,2512.0313,N,08005.9389,W,1,10,1.4,14,M,,M,,*66
06/09/2014	10:10:38.840	$GPGGA,101038,2512.0311,N,08005.9372,W,1,10,1.4,15,M,,M,,*6E
06/09/2014	10:10:39.867	$GPGGA,101039,2512.0309,N,08005.9355,W,1,9,1.4,15,M,,M,,*5B
06/09/2014	10:10:39.582	$GPGGA,101040,2512.0308,N,08005.9338,W,1,9,1.4,15,M,,M,,*5F
06/09/2014	10:10:40.622	$GPGGA,101041,2512.0307,N,08005.9322,W,1,9,1.4,15,M,,M,,*5A
06/09/2014	10:10:41.613	$GPGGA,101042,2512.0307,N,08005.9305,W,1,9,1.4,15,M,,M,,*5C
06/09/2014	10:10:42.655	$GPGGA,101043,2512.0305,N,08005.9288,W,1,9,1.4,15,M,,M,,*5B
06/09/2014	10:10:43.668	$GPGGA,101044,2512.0303,N,08005.9272,W,1,9,1.4,15,M,,M,,*5F
06/09/2014	10:10:44.699	$GPGGA,101045,2512.0301,N,08005.9255,W,1,9,1.4,15,M,,M,,*59
06/09/2014	10:10:47.076	$GPGGA,101047,2512.0300,N,08005.9221,W,1,9,1.4,15,M,,M,,*59
06/09/2014	10:10:47.761	$GPGGA,101048,2512.0298,N,08005.9205,W,1,9,1.4,15,M,,M,,*50
06/09/2014	10:10:48.773	$GPGGA,101049,2512.0297,N,08005.9188,W,1,9,1.4,15,M,,M,,*58
06/09/2014	10:10:49.795	$GPGGA,101050,2512.0296,N,08005.9172,W,1,9,1.4,15,M,,M,,*54
06/09/2014	10:10:50.827	$GPGGA,101051,2512.0296,N,08005.9157,W,1,9,1.4,15,M,,M,,*52
06/09/2014	10:10:51.837	$GPGGA,101052,2512.0295,N,08005.9141,W,1,9,1.4,15,M,,M,,*55
06/09/2014	10:10:52.848	$GPGGA,101053,2512.0293,N,08005.9125,W,1,10,1.4,15,M,,M,,*68
06/09/2014	10:10:53.893	$GPGGA,101054,2512.0291,N,08005.9109,W,1,10,1.4,15,M,,M,,*63
06/09/2014	10:10:54.904	$GPGGA,101055,2512.0292,N,08005.9092,W,1,9,1.4,15,M,,M,,*5A
06/09/2014	10:10:55.940	$GPGGA,101056,2512.0289,N,08005.9076,W,1,9,1.4,15,M,,M,,*59
06/09/2014	10:10:56.904	$GPGGA,101057,2512.0289,N,08005.9059,W,1,9,1.4,15,M,,M,,*55
06/09/2014	10:10:57.946	$GPGGA,101058,2512.0286,N,08005.9043,W,1,9,1.4,15,M,,M,,*5E
06/09/2014	10:10:58.957	$GPGGA,101059,2512.0285,N,08005.9026,W,1,9,1.4,15,M,,M,,*5F
06/09/2014	10:11:00.023	$GPGGA,101100,2512.0284,N,08005.9010,W,1,9,1.4,15,M,,M,,*56
06/09/2014	10:11:01.020	$GPGGA,101101,2512.0282,N,08005.8994,W,1,9,1.4,15,M,,M,,*55
06/09/2014	10:11:02.022	$GPGGA,101102,2512.0282,N,08005.8994,W,1,9,1.4,15,M,,M,,*56
06/09/2014	10:11:03.022	$GPGGA,101103,2512.0278,N,08005.8962,W,1,9,1.4,15,M,,M,,*5B
06/09/2014	10:11:04.112	$GPGGA,101104,2512.0278,N,08005.8962,W,1,9,1.4,15,M,,M,,*5C
06/09/2014	10:11:05.095	$GPGGA,101105,2512.0275,N,08005.8929,W,1,9,1.4,15,M,,M,,*5F
06/09/2014	10:11:06.107	$GPGGA,101106,2512.0275,N,08005.8929,W,1,9,1.8,15,M,,M,,*50
06/09/2014	10:11:07.108	$GPGGA,101107,2512.0274,N,08005.8900,W,1,7,1.9,15,M,,M,,*54
06/09/2014	10:11:08.170	$GPGGA,101108,2512.0271,N,08005.8885,W,1,7,1.5,15,M,,M,,*5E
06/09/2014	10:11:09.253	$GPGGA,101109,2512.0271,N,08005.8871,W,1,9,1.5,15,M,,M,,*5A
06/09/2014	10:11:10.172	$GPGGA,101110,2512.0271,N,08005.8871,W,1,9,1.5,14,M,,M,,*53
06/09/2014	10:11:11.296	$GPGGA,101111,2512.0268,N,08005.8841,W,1,9,1.5,14,M,,M,,*59
06/09/2014	10:11:12.266	$GPGGA,101112,2512.0267,N,08005.8827,W,1,9,1.5,14,M,,M,,*55
06/09/2014	10:11:13.349	$GPGGA,101113,2512.0267,N,08005.8812,W,1,9,1.5,14,M,,M,,*52
06/09/2014	10:11:14.331	$GPGGA,101114,2512.0267,N,08005.8797,W,1,9,1.5,14,M,,M,,*57
06/09/2014	10:11:15.249	$GPGGA,101115,2512.0267,N,08005.8783,W,1,10,1.4,14,M,,M,,*6A
06/09/2014	10:11:16.342	$GPGGA,101116,2512.0265,N,08005.8768,W,1,10,1.4,14,M,,M,,*6E
06/09/2014	10:11:17.397	$GPGGA,101117,2512.0264,N,08005.8752,W,1,10,1.4,14,M,,M,,*67
06/09/2014	10:11:18.324	$GPGGA,101118,2512.0264,N,08005.8752,W,1,10,1.4,14,M,,M,,*68
06/09/2014	10:11:19.345	$GPGGA,101119,2512.0260,N,08005.8720,W,1,10,1.4,14,M,,M,,*68
06/09/2014	10:11:20.462	$GPGGA,101120,2512.0257,N,08005.8705,W,1,10,1.4,14,M,,M,,*61
06/09/2014	10:11:21.474	$GPGGA,101121,2512.0257,N,08005.8688,W,1,10,1.4,14,M,,M,,*64
06/09/2014	10:11:22.492	$GPGGA,101122,2512.0254,N,08005.8672,W,1,10,1.4,14,M,,M,,*61
06/09/2014	10:11:23.513	$GPGGA,101123,2512.0253,N,08005.8657,W,1,10,1.4,14,M,,M,,*60
06/09/2014	10:11:24.554	$GPGGA,101124,2512.0250,N,08005.8641,W,1,10,1.4,14,M,,M,,*63
06/09/2014	10:11:26.995	$GPGGA,101126,2512.0246,N,08005.8609,W,1,10,1.4,14,M,,M,,*6A
06/09/2014	10:11:27.601	$GPGGA,101127,2512.0244,N,08005.8593,W,1,10,1.4,14,M,,M,,*69
06/09/2014	10:11:28.630	$GPGGA,101128,2512.0242,N,08005.8576,W,1,10,1.4,14,M,,M,,*6B
06/09/2014	10:11:29.646	$GPGGA,101129,2512.0239,N,08005.8561,W,1,10,1.4,14,M,,M,,*60
06/09/2014	10:11:30.642	$GPGGA,101130,2512.0237,N,08005.8546,W,1,10,1.4,14,M,,M,,*63
06/09/2014	10:11:31.689	$GPGGA,101131,2512.0235,N,08005.8529,W,1,10,1.4,14,M,,M,,*69
06/09/2014	10:11:32.706	$GPGGA,101132,2512.0233,N,08005.8513,W,1,10,1.4,14,M,,M,,*65
06/09/2014	10:11:33.728	$GPGGA,101133,2512.0230,N,08005.8498,W,1,10,1.4,14,M,,M,,*65
06/09/2014	10:11:34.728	$GPGGA,101134,2512.0228,N,08005.8482,W,1,10,1.4,14,M,,M,,*60
06/09/2014	10:11:35.762	$GPGGA,101135,2512.0225,N,08005.8466,W,1,10,1.4,14,M,,M,,*66
06/09/2014	10:11:36.785	$GPGGA,101136,2512.0224,N,08005.8450,W,1,10,1.4,14,M,,M,,*61
06/09/2014	10:11:37.813	$GPGGA,101137,2512.0220,N,08005.8434,W,1,10,1.4,14,M,,M,,*66
06/09/2014	10:11:38.803	$GPGGA,101138,2512.0218,N,08005.8418,W,1,10,1.4,14,M,,M,,*6C
06/09/2014	10:11:39.846	$GPGGA,101139,2512.0217,N,08005.8402,W,1,10,1.4,14,M,,M,,*69
06/09/2014	10:11:39.568	$GPGGA,101140,2512.0214,N,08005.8386,W,1,10,1.4,14,M,,M,,*6F
06/09/2014	10:11:40.600	$GPGGA,101141,2512.0212,N,08005.8370,W,1,10,1.4,14,M,,M,,*61
06/09/2014	10:11:41.601	$GPGGA,101142,2512.0211,N,08005.8355,W,1,10,1.5,15,M,,M,,*66
06/09/2014	10:11:42.644	$GPGGA,101143,2512.0210,N,08005.8339,W,1,10,1.4,15,M,,M,,*6D
06/09/2014	10:11:43.644	$GPGGA,101144,2512.0208,N,08005.8323,W,1,10,1.4,15,M,,M,,*68
06/09/2014	10:11:44.655	$GPGGA,101145,2512.0206,N,08005.8307,W,1,9,1.5,15,M,,M,,*58
06/09/2014	10:11:45.666	$GPGGA,101146,2512.0203,N,08005.8290,W,1,9,1.5,15,M,,M,,*51
06/09/2014	10:11:46.708	$GPGGA,101147,2512.0202,N,08005.8275,W,1,9,1.5,15,M,,M,,*5A
