Software Version Number: 1	Data File Format Number: 1	Build Version Number: 1	Error Count Since VI Started: 0	Manufacturer: Raytheon	 Model Number: RayMarine 120	 S/N: 	 Cal Date: 	 Wind Direction Offset: 0.00	 Slope (M)1: 0.00	 Offset (B)1: 0.00	 Slope (M)2: 0.00	 Offset (B)2: 0.00	 Slope (M)3: 0.00	 Offset (B)3: 0.00	 Slope (M)4: 0.00	 Offset (B)4: 0.00	 Slope (M)5: 0.00	 Offset (B)5: 0.00	 Slope (M)6: 0.00	 Offset (B)6: 0.00
Computer Date	Computer Time	GGA String
06/14/2014	02:00:00.992	$GPGGA,020001,2430.8754,N,08056.6077,W,1,9,1.9,19,M,,M,,*5C
06/14/2014	02:00:01.978	$GPGGA,020002,2430.8748,N,08056.6082,W,1,9,1.9,19,M,,M,,*58
06/14/2014	02:00:03.030	$GPGGA,020003,2430.8744,N,08056.6087,W,1,8,2.0,19,M,,M,,*5B
06/14/2014	02:00:04.091	$GPGGA,020004,2430.8743,N,08056.6092,W,1,8,1.9,19,M,,M,,*55
06/14/2014	02:00:05.084	$GPGGA,020005,2430.8739,N,08056.6098,W,1,9,1.9,19,M,,M,,*52
06/14/2014	02:00:06.117	$GPGGA,020006,2430.8734,N,08056.6105,W,1,9,1.9,19,M,,M,,*59
06/14/2014	02:00:07.178	$GPGGA,020007,2430.8729,N,08056.6113,W,1,9,1.9,19,M,,M,,*53
06/14/2014	02:00:08.192	$GPGGA,020008,2430.8727,N,08056.6118,W,1,9,1.9,19,M,,M,,*59
06/14/2014	02:00:09.225	$GPGGA,020009,2430.8723,N,08056.6124,W,1,9,1.9,18,M,,M,,*52
06/14/2014	02:00:10.353	$GPGGA,020010,2430.8718,N,08056.6128,W,1,9,1.9,18,M,,M,,*5E
06/14/2014	02:00:11.274	$GPGGA,020011,2430.8715,N,08056.6132,W,1,9,1.9,18,M,,M,,*59
06/14/2014	02:00:12.443	$GPGGA,020012,2430.8711,N,08056.6138,W,1,9,1.9,18,M,,M,,*54
06/14/2014	02:00:13.446	$GPGGA,020013,2430.8708,N,08056.6143,W,1,9,1.9,18,M,,M,,*51
06/14/2014	02:00:14.368	$GPGGA,020014,2430.8703,N,08056.6152,W,1,9,1.9,18,M,,M,,*5D
06/14/2014	02:00:15.391	$GPGGA,020015,2430.8697,N,08056.6158,W,1,8,2.0,18,M,,M,,*51
06/14/2014	02:00:16.557	$GPGGA,020016,2430.8693,N,08056.6164,W,1,8,1.9,18,M,,M,,*53
06/14/2014	02:00:17.481	$GPGGA,020017,2430.8691,N,08056.6170,W,1,9,1.9,18,M,,M,,*54
06/14/2014	02:00:18.506	$GPGGA,020018,2430.8689,N,08056.6174,W,1,9,1.9,18,M,,M,,*56
06/14/2014	02:00:19.622	$GPGGA,020019,2430.8686,N,08056.6178,W,1,9,1.9,18,M,,M,,*54
06/14/2014	02:00:20.667	$GPGGA,020020,2430.8683,N,08056.6182,W,1,9,1.9,18,M,,M,,*5E
06/14/2014	02:00:21.722	$GPGGA,020021,2430.8679,N,08056.6188,W,1,9,1.9,18,M,,M,,*50
06/14/2014	02:00:22.736	$GPGGA,020022,2430.8675,N,08056.6192,W,1,9,1.9,18,M,,M,,*54
06/14/2014	02:00:23.760	$GPGGA,020023,2430.8674,N,08056.6200,W,1,9,1.9,18,M,,M,,*5C
06/14/2014	02:00:24.805	$GPGGA,020024,2430.8671,N,08056.6207,W,1,9,1.9,18,M,,M,,*59
06/14/2014	02:00:25.840	$GPGGA,020025,2430.8667,N,08056.6212,W,1,9,1.9,18,M,,M,,*5B
06/14/2014	02:00:26.864	$GPGGA,020026,2430.8661,N,08056.6218,W,1,9,1.9,18,M,,M,,*54
06/14/2014	02:00:27.908	$GPGGA,020027,2430.8657,N,08056.6225,W,1,8,2.0,18,M,,M,,*55
06/14/2014	02:00:28.932	$GPGGA,020028,2430.8652,N,08056.6230,W,1,8,1.9,18,M,,M,,*51
06/14/2014	02:00:29.966	$GPGGA,020029,2430.8647,N,08056.6236,W,1,9,1.9,18,M,,M,,*53
06/14/2014	02:00:31.001	$GPGGA,020030,2430.8643,N,08056.6243,W,1,9,1.9,18,M,,M,,*5D
06/14/2014	02:00:32.046	$GPGGA,020031,2430.8639,N,08056.6250,W,1,9,1.9,18,M,,M,,*53
06/14/2014	02:00:33.060	$GPGGA,020032,2430.8642,N,08056.6254,W,1,9,2.8,18,M,,M,,*5A
06/14/2014	02:00:34.104	$GPGGA,020033,2430.8640,N,08056.6258,W,1,9,1.9,18,M,,M,,*57
06/14/2014	02:00:35.149	$GPGGA,020034,2430.8639,N,08056.6264,W,1,9,1.9,18,M,,M,,*51
06/14/2014	02:00:36.163	$GPGGA,020035,2430.8638,N,08056.6266,W,1,9,1.9,18,M,,M,,*53
06/14/2014	02:00:37.198	$GPGGA,020036,2430.8635,N,08056.6269,W,1,9,1.9,18,M,,M,,*52
06/14/2014	02:00:38.253	$GPGGA,020037,2430.8634,N,08056.6273,W,1,9,1.9,18,M,,M,,*59
06/14/2014	02:00:39.246	$GPGGA,020038,2430.8632,N,08056.6279,W,1,9,1.9,18,M,,M,,*5A
06/14/2014	02:00:40.311	$GPGGA,020039,2430.8629,N,08056.6284,W,1,9,1.9,18,M,,M,,*53
06/14/2014	02:00:41.325	$GPGGA,020040,2430.8624,N,08056.6291,W,1,9,1.9,18,M,,M,,*54
06/14/2014	02:00:42.380	$GPGGA,020041,2430.8621,N,08056.6298,W,1,9,1.9,18,M,,M,,*59
06/14/2014	02:00:43.374	$GPGGA,020042,2430.8618,N,08056.6304,W,1,9,1.9,18,M,,M,,*54
06/14/2014	02:00:44.408	$GPGGA,020043,2430.8614,N,08056.6308,W,1,9,1.9,18,M,,M,,*55
06/14/2014	02:00:45.462	$GPGGA,020044,2430.8610,N,08056.6312,W,1,9,1.9,18,M,,M,,*5D
06/14/2014	02:00:46.497	$GPGGA,020045,2430.8607,N,08056.6315,W,1,9,1.9,18,M,,M,,*5D
06/14/2014	02:00:47.510	$GPGGA,020046,2430.8604,N,08056.6320,W,1,9,1.9,18,M,,M,,*5B
06/14/2014	02:00:48.535	$GPGGA,020047,2430.8600,N,08056.6327,W,1,9,1.9,18,M,,M,,*59
06/14/2014	02:00:47.522	$GPGGA,020048,2430.8596,N,08056.6334,W,1,9,1.9,18,M,,M,,*58
06/14/2014	02:00:48.546	$GPGGA,020049,2430.8591,N,08056.6341,W,1,9,1.9,18,M,,M,,*5C
06/14/2014	02:00:49.570	$GPGGA,020050,2430.8586,N,08056.6349,W,1,9,1.9,18,M,,M,,*5A
06/14/2014	02:00:50.625	$GPGGA,020051,2430.8584,N,08056.6355,W,1,9,1.9,18,M,,M,,*54
06/14/2014	02:00:51.660	$GPGGA,020052,2430.8578,N,08056.6358,W,1,9,1.9,18,M,,M,,*59
06/14/2014	02:00:52.777	$GPGGA,020053,2430.8575,N,08056.6362,W,1,9,1.9,18,M,,M,,*5C
06/14/2014	02:00:53.690	$GPGGA,020054,2430.8574,N,08056.6366,W,1,9,1.9,18,M,,M,,*5E
06/14/2014	02:00:54.753	$GPGGA,020055,2430.8570,N,08056.6373,W,1,9,1.9,18,M,,M,,*5F
06/14/2014	02:00:55.766	$GPGGA,020056,2430.8564,N,08056.6380,W,1,9,1.9,18,M,,M,,*55
06/14/2014	02:00:56.812	$GPGGA,020057,2430.8561,N,08056.6387,W,1,8,2.0,18,M,,M,,*5D
06/14/2014	02:00:57.817	$GPGGA,020058,2430.8559,N,08056.6395,W,1,8,1.9,18,M,,M,,*50
06/14/2014	02:00:58.861	$GPGGA,020059,2430.8553,N,08056.6402,W,1,9,1.9,18,M,,M,,*53
06/14/2014	02:01:00.029	$GPGGA,020100,2430.8544,N,08056.6409,W,1,9,2.0,18,M,,M,,*59
06/14/2014	02:01:00.949	$GPGGA,020101,2430.8541,N,08056.6412,W,1,9,1.9,18,M,,M,,*5D
06/14/2014	02:01:01.962	$GPGGA,020102,2430.8539,N,08056.6416,W,1,9,1.9,18,M,,M,,*55
06/14/2014	02:01:03.132	$GPGGA,020103,2430.8537,N,08056.6421,W,1,9,1.9,18,M,,M,,*5E
06/14/2014	02:01:04.138	$GPGGA,020104,2430.8533,N,08056.6427,W,1,9,1.9,18,M,,M,,*5B
06/14/2014	02:01:05.159	$GPGGA,020105,2430.8530,N,08056.6434,W,1,9,1.9,18,M,,M,,*5B
06/14/2014	02:01:06.091	$GPGGA,020106,2430.8526,N,08056.6441,W,1,9,1.9,18,M,,M,,*5D
06/14/2014	02:01:07.125	$GPGGA,020107,2430.8523,N,08056.6446,W,1,9,1.9,18,M,,M,,*5E
06/14/2014	02:01:08.263	$GPGGA,020108,2430.8519,N,08056.6450,W,1,9,1.9,18,M,,M,,*5F
06/14/2014	02:01:09.307	$GPGGA,020109,2430.8515,N,08056.6454,W,1,9,1.9,18,M,,M,,*56
06/14/2014	02:01:10.321	$GPGGA,020110,2430.8512,N,08056.6457,W,1,9,1.9,18,M,,M,,*5A
06/14/2014	02:01:11.397	$GPGGA,020111,2430.8508,N,08056.6463,W,1,9,1.9,18,M,,M,,*57
06/14/2014	02:01:12.390	$GPGGA,020112,2430.8505,N,08056.6467,W,1,9,2.0,17,M,,M,,*58
06/14/2014	02:01:13.435	$GPGGA,020113,2430.8499,N,08056.6474,W,1,9,1.9,17,M,,M,,*55
06/14/2014	02:01:14.449	$GPGGA,020114,2430.8494,N,08056.6479,W,1,9,2.0,17,M,,M,,*58
06/14/2014	02:01:15.505	$GPGGA,020115,2430.8490,N,08056.6485,W,1,9,1.9,17,M,,M,,*54
06/14/2014	02:01:16.529	$GPGGA,020116,2430.8485,N,08056.6490,W,1,9,1.9,17,M,,M,,*57
06/14/2014	02:01:17.563	$GPGGA,020117,2430.8481,N,08056.6492,W,1,10,1.3,17,M,,M,,*62
06/14/2014	02:01:18.577	$GPGGA,020118,2430.8477,N,08056.6493,W,1,10,1.3,17,M,,M,,*65
06/14/2014	02:01:19.600	$GPGGA,020119,2430.8476,N,08056.6496,W,1,9,1.4,17,M,,M,,*5F
06/14/2014	02:01:20.655	$GPGGA,020120,2430.8473,N,08056.6499,W,1,9,1.3,18,M,,M,,*57
06/14/2014	02:01:21.669	$GPGGA,020121,2430.8468,N,08056.6503,W,1,10,1.3,18,M,,M,,*66
06/14/2014	02:01:22.703	$GPGGA,020122,2430.8465,N,08056.6511,W,1,10,1.4,18,M,,M,,*6C
06/14/2014	02:01:23.748	$GPGGA,020123,2430.8461,N,08056.6517,W,1,9,1.9,18,M,,M,,*5A
06/14/2014	02:01:24.782	$GPGGA,020124,2430.8454,N,08056.6521,W,1,9,1.9,18,M,,M,,*5E
06/14/2014	02:01:25.796	$GPGGA,020125,2430.8451,N,08056.6525,W,1,9,1.4,18,M,,M,,*53
06/14/2014	02:01:26.831	$GPGGA,020126,2430.8449,N,08056.6530,W,1,9,1.4,18,M,,M,,*5D
06/14/2014	02:01:27.896	$GPGGA,020127,2430.8445,N,08056.6535,W,1,9,1.9,18,M,,M,,*58
06/14/2014	02:01:28.900	$GPGGA,020128,2430.8440,N,08056.6539,W,1,9,1.9,18,M,,M,,*5E
06/14/2014	02:01:29.945	$GPGGA,020129,2430.8436,N,08056.6546,W,1,9,1.9,18,M,,M,,*56
06/14/2014	02:01:30.969	$GPGGA,020130,2430.8433,N,08056.6553,W,1,9,1.9,18,M,,M,,*5F
06/14/2014	02:01:32.034	$GPGGA,020131,2430.8429,N,08056.6559,W,1,9,1.9,18,M,,M,,*5F
06/14/2014	02:01:33.048	$GPGGA,020132,2430.8425,N,08056.6564,W,1,9,1.9,18,M,,M,,*5E
06/14/2014	02:01:34.072	$GPGGA,020133,2430.8421,N,08056.6568,W,1,9,1.4,18,M,,M,,*5A
06/14/2014	02:01:35.083	$GPGGA,020134,2430.8418,N,08056.6572,W,1,9,1.9,18,M,,M,,*51
06/14/2014	02:01:36.141	$GPGGA,020135,2430.8414,N,08056.6575,W,1,9,1.4,18,M,,M,,*56
06/14/2014	02:01:37.290	$GPGGA,020136,2430.8410,N,08056.6580,W,1,9,1.4,18,M,,M,,*5B
06/14/2014	02:01:38.179	$GPGGA,020137,2430.8407,N,08056.6586,W,1,9,1.4,18,M,,M,,*5A
06/14/2014	02:01:39.214	$GPGGA,020138,2430.8401,N,08056.6591,W,1,9,1.4,18,M,,M,,*55
06/14/2014	02:01:40.247	$GPGGA,020139,2430.8397,N,08056.6598,W,1,9,1.4,18,M,,M,,*55
06/14/2014	02:01:41.302	$GPGGA,020140,2430.8396,N,08056.6604,W,1,9,1.4,18,M,,M,,*5C
06/14/2014	02:01:42.317	$GPGGA,020141,2430.8390,N,08056.6608,W,1,9,1.4,18,M,,M,,*57
06/14/2014	02:01:43.465	$GPGGA,020142,2430.8387,N,08056.6611,W,1,9,1.6,18,M,,M,,*58
06/14/2014	02:01:44.396	$GPGGA,020143,2430.8383,N,08056.6618,W,1,8,1.6,18,M,,M,,*55
06/14/2014	02:01:45.420	$GPGGA,020144,2430.8379,N,08056.6626,W,1,8,1.4,18,M,,M,,*58
06/14/2014	02:01:46.434	$GPGGA,020145,2430.8374,N,08056.6631,W,1,9,1.4,18,M,,M,,*53
06/14/2014	02:01:47.489	$GPGGA,020146,2430.8371,N,08056.6637,W,1,9,1.4,18,M,,M,,*53
06/14/2014	02:01:48.536	$GPGGA,020147,2430.8367,N,08056.6644,W,1,10,1.4,18,M,,M,,*69
06/14/2014	02:01:47.496	$GPGGA,020148,2430.8364,N,08056.6649,W,1,10,1.4,19,M,,M,,*69
06/14/2014	02:01:48.627	$GPGGA,020149,2430.8361,N,08056.6655,W,1,10,2.3,19,M,,M,,*64
06/14/2014	02:01:49.527	$GPGGA,020150,2430.8360,N,08056.6662,W,1,10,2.3,19,M,,M,,*69
06/14/2014	02:01:50.572	$GPGGA,020151,2430.8356,N,08056.6667,W,1,8,2.3,19,M,,M,,*51
06/14/2014	02:01:51.741	$GPGGA,020152,2430.8353,N,08056.6673,W,1,8,1.4,19,M,,M,,*56
06/14/2014	02:01:52.737	$GPGGA,020153,2430.8349,N,08056.6677,W,1,10,1.4,19,M,,M,,*61
06/14/2014	02:01:53.728	$GPGGA,020154,2430.8346,N,08056.6683,W,1,10,1.6,19,M,,M,,*60
06/14/2014	02:01:54.773	$GPGGA,020155,2430.8344,N,08056.6687,W,1,9,1.6,19,M,,M,,*5F
06/14/2014	02:01:55.766	$GPGGA,020156,2430.8340,N,08056.6694,W,1,9,1.4,19,M,,M,,*58
06/14/2014	02:01:56.780	$GPGGA,020157,2430.8335,N,08056.6699,W,1,10,1.4,19,M,,M,,*6E
06/14/2014	02:01:57.774	$GPGGA,020158,2430.8333,N,08056.6706,W,1,10,2.3,19,M,,M,,*64
06/14/2014	02:01:58.788	$GPGGA,020159,2430.8329,N,08056.6712,W,1,8,1.4,19,M,,M,,*56
06/14/2014	02:01:59.823	$GPGGA,020200,2430.8326,N,08056.6717,W,1,8,1.4,19,M,,M,,*53
06/14/2014	02:02:00.836	$GPGGA,020201,2430.8322,N,08056.6724,W,1,10,1.4,19,M,,M,,*6F
06/14/2014	02:02:01.820	$GPGGA,020202,2430.8320,N,08056.6730,W,1,10,1.4,19,M,,M,,*6B
06/14/2014	02:02:02.884	$GPGGA,020203,2430.8315,N,08056.6735,W,1,10,1.4,19,M,,M,,*69
06/14/2014	02:02:03.868	$GPGGA,020204,2430.8311,N,08056.6741,W,1,10,1.9,19,M,,M,,*64
06/14/2014	02:02:04.892	$GPGGA,020205,2430.8308,N,08056.6748,W,1,9,1.9,19,M,,M,,*5C
06/14/2014	02:02:05.867	$GPGGA,020206,2430.8304,N,08056.6756,W,1,9,1.9,19,M,,M,,*5C
06/14/2014	02:02:06.910	$GPGGA,020207,2430.8302,N,08056.6763,W,1,9,1.9,19,M,,M,,*5D
06/14/2014	02:02:07.914	$GPGGA,020208,2430.8298,N,08056.6771,W,1,9,1.4,19,M,,M,,*5E
06/14/2014	02:02:08.908	$GPGGA,020209,2430.8293,N,08056.6777,W,1,10,1.9,19,M,,M,,*67
06/14/2014	02:02:09.923	$GPGGA,020210,2430.8289,N,08056.6785,W,1,10,1.4,19,M,,M,,*64
06/14/2014	02:02:10.926	$GPGGA,020211,2430.8286,N,08056.6790,W,1,10,1.9,19,M,,M,,*63
06/14/2014	02:02:11.960	$GPGGA,020212,2430.8282,N,08056.6796,W,1,10,1.9,19,M,,M,,*62
06/14/2014	02:02:12.983	$GPGGA,020213,2430.8278,N,08056.6800,W,1,9,1.4,19,M,,M,,*53
06/14/2014	02:02:13.956	$GPGGA,020214,2430.8275,N,08056.6807,W,1,9,1.4,19,M,,M,,*5E
06/14/2014	02:02:14.991	$GPGGA,020215,2430.8271,N,08056.6814,W,1,10,1.4,19,M,,M,,*61
06/14/2014	02:02:16.015	$GPGGA,020216,2430.8266,N,08056.6821,W,1,10,1.4,19,M,,M,,*62
06/14/2014	02:02:16.998	$GPGGA,020217,2430.8262,N,08056.6828,W,1,10,1.9,19,M,,M,,*63
06/14/2014	02:02:18.023	$GPGGA,020218,2430.8259,N,08056.6833,W,1,10,1.9,19,M,,M,,*6E
06/14/2014	02:02:19.047	$GPGGA,020219,2430.8253,N,08056.6837,W,1,9,1.4,19,M,,M,,*54
06/14/2014	02:02:20.051	$GPGGA,020220,2430.8248,N,08056.6842,W,1,9,1.4,19,M,,M,,*56
06/14/2014	02:02:21.075	$GPGGA,020221,2430.8246,N,08056.6846,W,1,10,1.4,19,M,,M,,*65
06/14/2014	02:02:22.067	$GPGGA,020222,2430.8242,N,08056.6851,W,1,10,1.9,19,M,,M,,*69
06/14/2014	02:02:23.092	$GPGGA,020223,2430.8237,N,08056.6857,W,1,9,1.9,19,M,,M,,*54
06/14/2014	02:02:24.107	$GPGGA,020224,2430.8232,N,08056.6861,W,1,9,1.4,19,M,,M,,*5E
06/14/2014	02:02:25.122	$GPGGA,020225,2430.8230,N,08056.6868,W,1,10,1.4,19,M,,M,,*6C
06/14/2014	02:02:26.125	$GPGGA,020226,2430.8225,N,08056.6875,W,1,10,1.4,19,M,,M,,*67
06/14/2014	02:02:27.149	$GPGGA,020227,2430.8219,N,08056.6879,W,1,10,1.4,19,M,,M,,*65
06/14/2014	02:02:28.152	$GPGGA,020228,2430.8213,N,08056.6883,W,1,10,1.4,19,M,,M,,*65
06/14/2014	02:02:29.176	$GPGGA,020229,2430.8212,N,08056.6887,W,1,10,1.4,19,M,,M,,*61
06/14/2014	02:02:30.162	$GPGGA,020230,2430.8208,N,08056.6891,W,1,10,1.9,19,M,,M,,*68
06/14/2014	02:02:31.193	$GPGGA,020231,2430.8203,N,08056.6897,W,1,9,1.4,19,M,,M,,*51
06/14/2014	02:02:32.207	$GPGGA,020232,2430.8199,N,08056.6901,W,1,9,1.4,19,M,,M,,*5C
06/14/2014	02:02:33.282	$GPGGA,020233,2430.8196,N,08056.6908,W,1,10,1.9,19,M,,M,,*6E
06/14/2014	02:02:34.205	$GPGGA,020234,2430.8191,N,08056.6915,W,1,10,1.9,19,M,,M,,*62
06/14/2014	02:02:35.341	$GPGGA,020235,2430.8187,N,08056.6920,W,1,9,1.9,19,M,,M,,*5A
06/14/2014	02:02:36.275	$GPGGA,020236,2430.8183,N,08056.6926,W,1,9,1.9,19,M,,M,,*5B
06/14/2014	02:02:37.349	$GPGGA,020237,2430.8179,N,08056.6931,W,1,9,1.9,19,M,,M,,*59
06/14/2014	02:02:38.271	$GPGGA,020238,2430.8176,N,08056.6936,W,1,9,1.9,19,M,,M,,*5E
06/14/2014	02:02:39.356	$GPGGA,020239,2430.8170,N,08056.6940,W,1,9,2.0,19,M,,M,,*52
06/14/2014	02:02:40.391	$GPGGA,020240,2430.8168,N,08056.6944,W,1,9,2.0,19,M,,M,,*51
06/14/2014	02:02:41.384	$GPGGA,020241,2430.8162,N,08056.6949,W,1,10,1.4,19,M,,M,,*68
06/14/2014	02:02:42.398	$GPGGA,020242,2430.8158,N,08056.6956,W,1,10,1.4,19,M,,M,,*6C
06/14/2014	02:02:43.412	$GPGGA,020243,2430.8151,N,08056.6963,W,1,10,1.4,19,M,,M,,*62
06/14/2014	02:02:44.439	$GPGGA,020244,2430.8147,N,08056.6969,W,1,10,1.4,19,M,,M,,*68
06/14/2014	02:02:45.462	$GPGGA,020245,2430.8144,N,08056.6974,W,1,9,1.9,19,M,,M,,*53
06/14/2014	02:02:46.455	$GPGGA,020246,2430.8140,N,08056.6978,W,1,9,1.4,19,M,,M,,*55
06/14/2014	02:02:47.477	$GPGGA,020247,2430.8137,N,08056.6981,W,1,10,1.4,19,M,,M,,*6A
06/14/2014	02:02:47.556	$GPGGA,020248,2430.8133,N,08056.6987,W,1,10,1.4,19,M,,M,,*67
06/14/2014	02:02:48.560	$GPGGA,020249,2430.8129,N,08056.6991,W,1,10,1.4,19,M,,M,,*6A
06/14/2014	02:02:49.574	$GPGGA,020250,2430.8126,N,08056.6998,W,1,10,1.4,19,M,,M,,*64
06/14/2014	02:02:50.577	$GPGGA,020251,2430.8122,N,08056.7003,W,1,10,1.4,19,M,,M,,*6B
06/14/2014	02:02:51.613	$GPGGA,020252,2430.8116,N,08056.7010,W,1,10,1.4,19,M,,M,,*6D
06/14/2014	02:02:52.616	$GPGGA,020253,2430.8113,N,08056.7016,W,1,9,1.9,19,M,,M,,*5A
06/14/2014	02:02:53.609	$GPGGA,020254,2430.8111,N,08056.7023,W,1,9,1.9,19,M,,M,,*59
06/14/2014	02:02:54.644	$GPGGA,020255,2430.8108,N,08056.7025,W,1,10,1.4,19,M,,M,,*63
06/14/2014	02:02:55.658	$GPGGA,020256,2430.8102,N,08056.7030,W,1,10,1.6,19,M,,M,,*6C
06/14/2014	02:02:56.682	$GPGGA,020257,2430.8100,N,08056.7035,W,1,8,1.9,19,M,,M,,*5C
06/14/2014	02:02:57.655	$GPGGA,020258,2430.8097,N,08056.7039,W,1,8,2.2,19,M,,M,,*58
06/14/2014	02:02:58.669	$GPGGA,020259,2430.8092,N,08056.7048,W,1,10,1.4,19,M,,M,,*66
06/14/2014	02:02:59.703	$GPGGA,020300,2430.8089,N,08056.7053,W,1,10,1.4,19,M,,M,,*6B
06/14/2014	02:03:00.697	$GPGGA,020301,2430.8084,N,08056.7061,W,1,10,1.4,19,M,,M,,*66
06/14/2014	02:03:01.721	$GPGGA,020302,2430.8082,N,08056.7066,W,1,10,1.4,19,M,,M,,*64
06/14/2014	02:03:02.715	$GPGGA,020303,2430.8078,N,08056.7072,W,1,9,1.6,19,M,,M,,*5F
06/14/2014	02:03:03.749	$GPGGA,020304,2430.8073,N,08056.7081,W,1,9,2.2,18,M,,M,,*59
06/14/2014	02:03:04.742	$GPGGA,020305,2430.8071,N,08056.7086,W,1,10,1.4,18,M,,M,,*60
06/14/2014	02:03:05.786	$GPGGA,020306,2430.8066,N,08056.7093,W,1,10,1.4,18,M,,M,,*61
06/14/2014	02:03:06.760	$GPGGA,020307,2430.8062,N,08056.7100,W,1,9,1.9,18,M,,M,,*5A
06/14/2014	02:03:07.794	$GPGGA,020308,2430.8058,N,08056.7106,W,1,9,1.9,18,M,,M,,*5A
06/14/2014	02:03:08.808	$GPGGA,020309,2430.8054,N,08056.7110,W,1,9,1.9,19,M,,M,,*51
06/14/2014	02:03:09.802	$GPGGA,020310,2430.8051,N,08056.7117,W,1,9,1.6,19,M,,M,,*54
06/14/2014	02:03:10.856	$GPGGA,020311,2430.8047,N,08056.7122,W,1,9,1.6,19,M,,M,,*54
06/14/2014	02:03:11.850	$GPGGA,020312,2430.8042,N,08056.7129,W,1,9,1.9,19,M,,M,,*56
06/14/2014	02:03:12.874	$GPGGA,020313,2430.8037,N,08056.7140,W,1,9,1.9,19,M,,M,,*5A
06/14/2014	02:03:13.848	$GPGGA,020314,2430.8031,N,08056.7149,W,1,9,1.5,19,M,,M,,*5E
06/14/2014	02:03:14.882	$GPGGA,020315,2430.8028,N,08056.7153,W,1,9,1.5,19,M,,M,,*5C
06/14/2014	02:03:15.886	$GPGGA,020316,2430.8024,N,08056.7158,W,1,9,1.9,19,M,,M,,*54
06/14/2014	02:03:16.901	$GPGGA,020317,2430.8018,N,08056.7164,W,1,10,1.4,19,M,,M,,*60
06/14/2014	02:03:17.894	$GPGGA,020318,2430.8014,N,08056.7169,W,1,10,1.5,19,M,,M,,*6F
06/14/2014	02:03:18.928	$GPGGA,020319,2430.8008,N,08056.7173,W,1,9,1.9,19,M,,M,,*5C
06/14/2014	02:03:19.942	$GPGGA,020320,2430.8009,N,08056.7178,W,1,9,1.5,19,M,,M,,*50
06/14/2014	02:03:21.039	$GPGGA,020321,2430.8004,N,08056.7182,W,1,9,1.9,19,M,,M,,*55
06/14/2014	02:03:22.051	$GPGGA,020322,2430.8000,N,08056.7186,W,1,9,1.9,19,M,,M,,*56
06/14/2014	02:03:23.058	$GPGGA,020323,2430.7999,N,08056.7189,W,1,10,1.4,19,M,,M,,*6B
06/14/2014	02:03:23.997	$GPGGA,020324,2430.7993,N,08056.7197,W,1,10,1.4,19,M,,M,,*69
06/14/2014	02:03:25.093	$GPGGA,020325,2430.7988,N,08056.7200,W,1,9,1.5,19,M,,M,,*56
06/14/2014	02:03:25.994	$GPGGA,020326,2430.7985,N,08056.7204,W,1,9,1.5,19,M,,M,,*5C
06/14/2014	02:03:27.120	$GPGGA,020327,2430.7981,N,08056.7209,W,1,10,1.4,19,M,,M,,*6D
06/14/2014	02:03:28.124	$GPGGA,020328,2430.7978,N,08056.7215,W,1,10,1.4,19,M,,M,,*69
06/14/2014	02:03:29.160	$GPGGA,020329,2430.7973,N,08056.7220,W,1,9,1.9,19,M,,M,,*50
06/14/2014	02:03:30.142	$GPGGA,020330,2430.7968,N,08056.7226,W,1,9,1.4,19,M,,M,,*59
06/14/2014	02:03:31.156	$GPGGA,020331,2430.7963,N,08056.7233,W,1,9,1.5,19,M,,M,,*56
06/14/2014	02:03:32.180	$GPGGA,020332,2430.7959,N,08056.7240,W,1,9,1.9,19,M,,M,,*54
06/14/2014	02:03:33.184	$GPGGA,020333,2430.7952,N,08056.7247,W,1,9,1.9,19,M,,M,,*59
06/14/2014	02:03:34.188	$GPGGA,020334,2430.7948,N,08056.7251,W,1,9,1.4,19,M,,M,,*5F
06/14/2014	02:03:35.222	$GPGGA,020335,2430.7943,N,08056.7258,W,1,10,1.4,19,M,,M,,*64
06/14/2014	02:03:36.226	$GPGGA,020336,2430.7939,N,08056.7263,W,1,10,1.4,19,M,,M,,*62
06/14/2014	02:03:37.230	$GPGGA,020337,2430.7934,N,08056.7267,W,1,9,1.9,19,M,,M,,*5F
06/14/2014	02:03:38.244	$GPGGA,020338,2430.7930,N,08056.7272,W,1,9,1.4,19,M,,M,,*5D
06/14/2014	02:03:39.246	$GPGGA,020339,2430.7924,N,08056.7277,W,1,9,1.5,19,M,,M,,*5D
06/14/2014	02:03:40.271	$GPGGA,020340,2430.7920,N,08056.7281,W,1,9,1.5,19,M,,M,,*5E
06/14/2014	02:03:41.295	$GPGGA,020341,2430.7921,N,08056.7284,W,1,10,1.4,20,M,,M,,*68
06/14/2014	02:03:42.278	$GPGGA,020342,2430.7917,N,08056.7288,W,1,10,1.9,20,M,,M,,*6F
06/14/2014	02:03:43.313	$GPGGA,020343,2430.7912,N,08056.7295,W,1,9,1.9,19,M,,M,,*55
06/14/2014	02:03:44.316	$GPGGA,020344,2430.7912,N,08056.7301,W,1,9,2.0,19,M,,M,,*54
06/14/2014	02:03:45.310	$GPGGA,020345,2430.7907,N,08056.7305,W,1,9,1.9,19,M,,M,,*5F
06/14/2014	02:03:46.334	$GPGGA,020346,2430.7902,N,08056.7309,W,1,9,1.9,19,M,,M,,*55
06/14/2014	02:03:47.348	$GPGGA,020347,2430.7901,N,08056.7312,W,1,10,1.4,19,M,,M,,*68
06/14/2014	02:03:47.533	$GPGGA,020348,2430.7901,N,08056.7314,W,1,10,2.2,19,M,,M,,*64
06/14/2014	02:03:48.568	$GPGGA,020349,2430.7896,N,08056.7319,W,1,10,1.4,19,M,,M,,*62
06/14/2014	02:03:49.541	$GPGGA,020350,2430.7894,N,08056.7324,W,1,10,1.6,19,M,,M,,*64
06/14/2014	02:03:50.586	$GPGGA,020351,2430.7889,N,08056.7330,W,1,9,1.9,19,M,,M,,*5B
06/14/2014	02:03:51.569	$GPGGA,020352,2430.7885,N,08056.7334,W,1,9,1.9,19,M,,M,,*50
06/14/2014	02:03:52.573	$GPGGA,020353,2430.7883,N,08056.7338,W,1,9,1.6,19,M,,M,,*54
06/14/2014	02:03:53.598	$GPGGA,020354,2430.7880,N,08056.7342,W,1,9,1.6,18,M,,M,,*5C
06/14/2014	02:03:54.601	$GPGGA,020355,2430.7876,N,08056.7346,W,1,9,1.6,18,M,,M,,*50
06/14/2014	02:03:55.626	$GPGGA,020356,2430.7873,N,08056.7352,W,1,9,1.6,18,M,,M,,*53
06/14/2014	02:03:56.740	$GPGGA,020357,2430.7870,N,08056.7355,W,1,8,2.2,18,M,,M,,*50
06/14/2014	02:03:57.642	$GPGGA,020358,2430.7866,N,08056.7360,W,1,8,1.6,18,M,,M,,*59
06/14/2014	02:03:58.757	$GPGGA,020359,2430.7862,N,08056.7364,W,1,10,1.4,18,M,,M,,*63
06/14/2014	02:03:59.670	$GPGGA,020400,2430.7856,N,08056.7373,W,1,10,1.6,18,M,,M,,*6B
06/14/2014	02:04:00.689	$GPGGA,020401,2430.7849,N,08056.7378,W,1,8,2.0,18,M,,M,,*53
06/14/2014	02:04:01.669	$GPGGA,020402,2430.7843,N,08056.7384,W,1,8,1.4,18,M,,M,,*5E
06/14/2014	02:04:02.803	$GPGGA,020403,2430.7838,N,08056.7388,W,1,9,1.6,18,M,,M,,*5C
06/14/2014	02:04:03.726	$GPGGA,020404,2430.7834,N,08056.7392,W,1,9,1.6,18,M,,M,,*5C
06/14/2014	02:04:04.710	$GPGGA,020405,2430.7830,N,08056.7396,W,1,9,1.6,18,M,,M,,*5D
06/14/2014	02:04:05.845	$GPGGA,020406,2430.7827,N,08056.7400,W,1,9,1.6,18,M,,M,,*50
06/14/2014	02:04:06.758	$GPGGA,020407,2430.7824,N,08056.7406,W,1,9,1.6,18,M,,M,,*54
06/14/2014	02:04:07.762	$GPGGA,020408,2430.7820,N,08056.7414,W,1,9,2.2,18,M,,M,,*5B
06/14/2014	02:04:08.879	$GPGGA,020409,2430.7815,N,08056.7418,W,1,10,1.4,18,M,,M,,*6D
06/14/2014	02:04:09.871	$GPGGA,020410,2430.7811,N,08056.7424,W,1,10,1.6,18,M,,M,,*6C
06/14/2014	02:04:10.925	$GPGGA,020411,2430.7808,N,08056.7431,W,1,9,1.6,18,M,,M,,*59
06/14/2014	02:04:11.910	$GPGGA,020412,2430.7803,N,08056.7435,W,1,9,1.6,19,M,,M,,*54
06/14/2014	02:04:12.824	$GPGGA,020413,2430.7798,N,08056.7440,W,1,9,1.6,19,M,,M,,*5A
06/14/2014	02:04:13.916	$GPGGA,020414,2430.7796,N,08056.7446,W,1,9,1.9,19,M,,M,,*5A
06/14/2014	02:04:14.955	$GPGGA,020415,2430.7794,N,08056.7451,W,1,10,1.4,19,M,,M,,*6A
06/14/2014	02:04:15.967	$GPGGA,020416,2430.7790,N,08056.7457,W,1,10,1.4,19,M,,M,,*6B
06/14/2014	02:04:16.981	$GPGGA,020417,2430.7789,N,08056.7464,W,1,9,1.9,19,M,,M,,*57
06/14/2014	02:04:17.973	$GPGGA,020418,2430.7789,N,08056.7469,W,1,9,1.9,19,M,,M,,*55
06/14/2014	02:04:18.996	$GPGGA,020419,2430.7786,N,08056.7473,W,1,9,1.6,19,M,,M,,*5F
06/14/2014	02:04:20.010	$GPGGA,020420,2430.7783,N,08056.7479,W,1,9,1.6,19,M,,M,,*5A
06/14/2014	02:04:21.004	$GPGGA,020421,2430.7779,N,08056.7489,W,1,8,2.2,19,M,,M,,*57
06/14/2014	02:04:22.018	$GPGGA,020422,2430.7772,N,08056.7497,W,1,8,1.9,19,M,,M,,*58
06/14/2014	02:04:23.042	$GPGGA,020423,2430.7767,N,08056.7504,W,1,8,2.0,19,M,,M,,*5C
06/14/2014	02:04:24.056	$GPGGA,020424,2430.7767,N,08056.7508,W,1,8,2.0,19,M,,M,,*57
06/14/2014	02:04:25.070	$GPGGA,020425,2430.7762,N,08056.7512,W,1,10,1.4,19,M,,M,,*66
06/14/2014	02:04:26.064	$GPGGA,020426,2430.7757,N,08056.7522,W,1,10,1.4,19,M,,M,,*60
06/14/2014	02:04:27.108	$GPGGA,020427,2430.7754,N,08056.7526,W,1,8,2.0,19,M,,M,,*58
06/14/2014	02:04:28.102	$GPGGA,020428,2430.7751,N,08056.7533,W,1,8,1.4,19,M,,M,,*51
06/14/2014	02:04:29.116	$GPGGA,020429,2430.7749,N,08056.7536,W,1,10,1.4,19,M,,M,,*65
06/14/2014	02:04:30.119	$GPGGA,020430,2430.7746,N,08056.7540,W,1,10,1.4,19,M,,M,,*63
06/14/2014	02:04:31.113	$GPGGA,020431,2430.7743,N,08056.7543,W,1,10,1.4,19,M,,M,,*64
06/14/2014	02:04:32.158	$GPGGA,020432,2430.7742,N,08056.7550,W,1,10,1.4,19,M,,M,,*64
06/14/2014	02:04:33.172	$GPGGA,020433,2430.7736,N,08056.7554,W,1,9,1.9,19,M,,M,,*57
06/14/2014	02:04:34.154	$GPGGA,020434,2430.7731,N,08056.7559,W,1,9,1.4,19,M,,M,,*57
06/14/2014	02:04:35.168	$GPGGA,020435,2430.7724,N,08056.7568,W,1,10,1.4,19,M,,M,,*68
06/14/2014	02:04:36.192	$GPGGA,020436,2430.7718,N,08056.7574,W,1,10,1.5,19,M,,M,,*68
06/14/2014	02:04:37.186	$GPGGA,020437,2430.7714,N,08056.7579,W,1,9,1.9,20,M,,M,,*56
06/14/2014	02:04:38.210	$GPGGA,020438,2430.7711,N,08056.7584,W,1,9,1.9,20,M,,M,,*5E
06/14/2014	02:04:39.224	$GPGGA,020439,2430.7706,N,08056.7590,W,1,9,1.9,20,M,,M,,*5C
06/14/2014	02:04:40.228	$GPGGA,020440,2430.7703,N,08056.7594,W,1,9,2.0,20,M,,M,,*59
06/14/2014	02:04:41.272	$GPGGA,020441,2430.7699,N,08056.7601,W,1,10,1.4,20,M,,M,,*6A
06/14/2014	02:04:42.256	$GPGGA,020442,2430.7695,N,08056.7605,W,1,10,1.4,20,M,,M,,*61
06/14/2014	02:04:43.280	$GPGGA,020443,2430.7691,N,08056.7612,W,1,10,1.4,20,M,,M,,*62
06/14/2014	02:04:44.284	$GPGGA,020444,2430.7688,N,08056.7616,W,1,10,1.4,20,M,,M,,*69
06/14/2014	02:04:45.283	$GPGGA,020445,2430.7681,N,08056.7623,W,1,9,1.6,19,M,,M,,*57
06/14/2014	02:04:46.312	$GPGGA,020446,2430.7681,N,08056.7626,W,1,9,2.0,19,M,,M,,*54
06/14/2014	02:04:47.326	$GPGGA,020447,2430.7679,N,08056.7630,W,1,8,2.2,19,M,,M,,*56
06/14/2014	02:04:47.498	$GPGGA,020448,2430.7677,N,08056.7635,W,1,8,1.9,19,M,,M,,*5A
06/14/2014	02:04:48.496	$GPGGA,020449,2430.7672,N,08056.7641,W,1,9,1.9,19,M,,M,,*5C
06/14/2014	02:04:49.529	$GPGGA,020450,2430.7668,N,08056.7646,W,1,9,1.9,19,M,,M,,*58
06/14/2014	02:04:50.514	$GPGGA,020451,2430.7664,N,08056.7653,W,1,9,1.9,19,M,,M,,*51
06/14/2014	02:04:51.557	$GPGGA,020452,2430.7663,N,08056.7659,W,1,9,1.9,19,M,,M,,*5F
06/14/2014	02:04:52.662	$GPGGA,020453,2430.7657,N,08056.7663,W,1,9,1.4,19,M,,M,,*5D
06/14/2014	02:04:53.659	$GPGGA,020454,2430.7652,N,08056.7663,W,1,9,1.4,19,M,,M,,*5F
06/14/2014	02:04:54.711	$GPGGA,020455,2430.7648,N,08056.7667,W,1,10,1.4,19,M,,M,,*69
06/14/2014	02:04:55.765	$GPGGA,020456,2430.7645,N,08056.7673,W,1,10,1.4,19,M,,M,,*62
06/14/2014	02:04:56.600	$GPGGA,020457,2430.7641,N,08056.7677,W,1,10,1.4,19,M,,M,,*63
06/14/2014	02:04:57.702	$GPGGA,020458,2430.7637,N,08056.7684,W,1,10,1.4,19,M,,M,,*61
06/14/2014	02:04:58.738	$GPGGA,020459,2430.7634,N,08056.7688,W,1,9,1.9,19,M,,M,,*5A
06/14/2014	02:04:59.831	$GPGGA,020500,2430.7631,N,08056.7691,W,1,9,1.4,19,M,,M,,*57
06/14/2014	02:05:00.784	$GPGGA,020501,2430.7626,N,08056.7696,W,1,10,1.4,19,M,,M,,*6F
06/14/2014	02:05:01.748	$GPGGA,020502,2430.7623,N,08056.7702,W,1,10,1.4,19,M,,M,,*65
06/14/2014	02:05:02.812	$GPGGA,020503,2430.7619,N,08056.7707,W,1,9,1.9,19,M,,M,,*5D
06/14/2014	02:05:03.857	$GPGGA,020504,2430.7616,N,08056.7713,W,1,9,1.4,19,M,,M,,*5D
06/14/2014	02:05:04.830	$GPGGA,020505,2430.7612,N,08056.7718,W,1,10,1.4,19,M,,M,,*6B
06/14/2014	02:05:05.875	$GPGGA,020506,2430.7609,N,08056.7722,W,1,10,1.4,19,M,,M,,*6B
06/14/2014	02:05:06.867	$GPGGA,020507,2430.7605,N,08056.7727,W,1,10,1.6,19,M,,M,,*61
06/14/2014	02:05:07.831	$GPGGA,020508,2430.7601,N,08056.7731,W,1,10,1.6,19,M,,M,,*6D
06/14/2014	02:05:08.835	$GPGGA,020509,2430.7599,N,08056.7735,W,1,9,1.6,19,M,,M,,*52
06/14/2014	02:05:09.920	$GPGGA,020510,2430.7594,N,08056.7742,W,1,9,2.2,19,M,,M,,*50
06/14/2014	02:05:10.915	$GPGGA,020511,2430.7590,N,08056.7749,W,1,8,2.2,19,M,,M,,*5F
06/14/2014	02:05:11.968	$GPGGA,020512,2430.7587,N,08056.7753,W,1,8,1.7,19,M,,M,,*57
06/14/2014	02:05:12.944	$GPGGA,020513,2430.7583,N,08056.7758,W,1,9,1.7,20,M,,M,,*52
06/14/2014	02:05:13.965	$GPGGA,020514,2430.7580,N,08056.7761,W,1,9,1.7,20,M,,M,,*5C
06/14/2014	02:05:14.939	$GPGGA,020515,2430.7577,N,08056.7764,W,1,8,2.1,20,M,,M,,*54
06/14/2014	02:05:15.983	$GPGGA,020516,2430.7574,N,08056.7768,W,1,8,1.7,20,M,,M,,*5D
06/14/2014	02:05:16.926	$GPGGA,020517,2430.7569,N,08056.7774,W,1,9,1.7,20,M,,M,,*5C
06/14/2014	02:05:18.011	$GPGGA,020518,2430.7566,N,08056.7779,W,1,9,4.0,20,M,,M,,*53
06/14/2014	02:05:18.995	$GPGGA,020519,2430.7565,N,08056.7786,W,1,6,1.7,20,M,,M,,*5C
06/14/2014	02:05:20.060	$GPGGA,020520,2430.7563,N,08056.7793,W,1,6,1.7,20,M,,M,,*54
06/14/2014	02:05:21.027	$GPGGA,020521,2430.7559,N,08056.7798,W,1,9,2.8,21,M,,M,,*55
06/14/2014	02:05:22.074	$GPGGA,020522,2430.7558,N,08056.7801,W,1,9,2.8,21,M,,M,,*58
06/14/2014	02:05:22.990	$GPGGA,020523,2430.7554,N,08056.7807,W,1,7,3.6,21,M,,M,,*52
06/14/2014	02:05:24.089	$GPGGA,020524,2430.7551,N,08056.7811,W,1,7,2.4,21,M,,M,,*54
06/14/2014	02:05:25.096	$GPGGA,020525,2430.7548,N,08056.7815,W,1,8,1.7,21,M,,M,,*56
06/14/2014	02:05:26.092	$GPGGA,020526,2430.7547,N,08056.7822,W,1,8,1.7,21,M,,M,,*5E
06/14/2014	02:05:27.106	$GPGGA,020527,2430.7544,N,08056.7826,W,1,8,2.2,21,M,,M,,*5E
06/14/2014	02:05:28.133	$GPGGA,020528,2430.7541,N,08056.7832,W,1,8,2.1,21,M,,M,,*52
06/14/2014	02:05:29.114	$GPGGA,020529,2430.7540,N,08056.7839,W,1,8,1.7,21,M,,M,,*5C
06/14/2014	02:05:30.138	$GPGGA,020530,2430.7536,N,08056.7844,W,1,8,2.8,21,M,,M,,*53
06/14/2014	02:05:31.152	$GPGGA,020531,2430.7533,N,08056.7850,W,1,7,2.8,21,M,,M,,*5D
06/14/2014	02:05:32.176	$GPGGA,020532,2430.7529,N,08056.7855,W,1,7,2.7,22,M,,M,,*5C
06/14/2014	02:05:34.227	$GPGGA,020533,2430.7524,N,08056.7863,W,1,7,2.7,22,M,,M,,*55
06/14/2014	02:05:34.244	$GPGGA,020534,2430.7520,N,08056.7870,W,1,7,2.8,22,M,,M,,*5B
06/14/2014	02:05:35.198	$GPGGA,020535,2430.7518,N,08056.7876,W,1,7,2.8,22,M,,M,,*57
06/14/2014	02:05:36.223	$GPGGA,020536,2430.7514,N,08056.7881,W,1,7,2.2,22,M,,M,,*5A
06/14/2014	02:05:37.226	$GPGGA,020537,2430.7512,N,08056.7887,W,1,8,1.7,23,M,,M,,*53
06/14/2014	02:05:38.179	$GPGGA,020538,2430.7511,N,08056.7891,W,1,8,1.7,23,M,,M,,*58
06/14/2014	02:05:39.186	$GPGGA,020539,2430.7507,N,08056.7895,W,1,9,1.7,23,M,,M,,*5B
06/14/2014	02:05:40.349	$GPGGA,020540,2430.7505,N,08056.7899,W,1,9,2.2,23,M,,M,,*5D
06/14/2014	02:05:41.251	$GPGGA,020541,2430.7500,N,08056.7905,W,1,8,2.4,23,M,,M,,*5A
06/14/2014	02:05:42.334	$GPGGA,020542,2430.7494,N,08056.7912,W,1,8,2.8,23,M,,M,,*5F
06/14/2014	02:05:43.299	$GPGGA,020543,2430.7489,N,08056.7917,W,1,7,2.2,23,M,,M,,*52
06/14/2014	02:05:44.356	$GPGGA,020544,2430.7486,N,08056.7924,W,1,7,2.2,23,M,,M,,*5A
06/14/2014	02:05:45.316	$GPGGA,020545,2430.7482,N,08056.7931,W,1,8,2.2,23,M,,M,,*54
06/14/2014	02:05:46.400	$GPGGA,020546,2430.7476,N,08056.7937,W,1,8,2.8,23,M,,M,,*50
06/14/2014	02:05:47.415	$GPGGA,020547,2430.7472,N,08056.7944,W,1,7,2.4,23,M,,M,,*52
06/14/2014	02:05:47.530	$GPGGA,020548,2430.7468,N,08056.7948,W,1,7,2.2,23,M,,M,,*5C
06/14/2014	02:05:48.598	$GPGGA,020549,2430.7464,N,08056.7952,W,1,8,2.2,23,M,,M,,*55
06/14/2014	02:05:49.579	$GPGGA,020550,2430.7464,N,08056.7956,W,1,8,2.2,23,M,,M,,*59
06/14/2014	02:05:50.593	$GPGGA,020551,2430.7458,N,08056.7963,W,1,8,2.8,23,M,,M,,*5B
06/14/2014	02:05:51.647	$GPGGA,020552,2430.7455,N,08056.7970,W,1,8,1.7,23,M,,M,,*5B
06/14/2014	02:05:52.659	$GPGGA,020553,2430.7451,N,08056.7977,W,1,9,2.2,23,M,,M,,*5E
06/14/2014	02:05:53.625	$GPGGA,020554,2430.7446,N,08056.7982,W,1,9,4.0,23,M,,M,,*51
06/14/2014	02:05:54.650	$GPGGA,020555,2430.7440,N,08056.7988,W,1,6,2.8,23,M,,M,,*5D
06/14/2014	02:05:55.693	$GPGGA,020556,2430.7435,N,08056.7992,W,1,6,2.2,23,M,,M,,*5D
06/14/2014	02:05:56.667	$GPGGA,020557,2430.7432,N,08056.7996,W,1,8,2.2,23,M,,M,,*51
06/14/2014	02:05:57.671	$GPGGA,020558,2430.7431,N,08056.7999,W,1,8,1.7,23,M,,M,,*54
06/14/2014	02:05:58.704	$GPGGA,020559,2430.7425,N,08056.8003,W,1,9,2.4,23,M,,M,,*54
06/14/2014	02:05:59.757	$GPGGA,020600,2430.7426,N,08056.8007,W,1,9,2.1,22,M,,M,,*58
06/14/2014	02:06:00.721	$GPGGA,020601,2430.7421,N,08056.8013,W,1,8,2.1,22,M,,M,,*5A
06/14/2014	02:06:01.725	$GPGGA,020602,2430.7417,N,08056.8017,W,1,8,2.1,22,M,,M,,*58
06/14/2014	02:06:02.760	$GPGGA,020603,2430.7414,N,08056.8022,W,1,8,2.1,22,M,,M,,*5C
06/14/2014	02:06:03.763	$GPGGA,020604,2430.7412,N,08056.8027,W,1,8,2.1,22,M,,M,,*58
06/14/2014	02:06:04.767	$GPGGA,020605,2430.7410,N,08056.8031,W,1,8,2.1,22,M,,M,,*5C
06/14/2014	02:06:05.791	$GPGGA,020606,2430.7408,N,08056.8035,W,1,8,2.1,22,M,,M,,*52
06/14/2014	02:06:06.866	$GPGGA,020607,2430.7407,N,08056.8039,W,1,8,2.1,22,M,,M,,*50
06/14/2014	02:06:07.819	$GPGGA,020608,2430.7406,N,08056.8043,W,1,8,2.1,22,M,,M,,*53
06/14/2014	02:06:08.823	$GPGGA,020609,2430.7402,N,08056.8053,W,1,8,1.7,22,M,,M,,*52
06/14/2014	02:06:09.828	$GPGGA,020610,2430.7397,N,08056.8060,W,1,8,2.4,22,M,,M,,*51
06/14/2014	02:06:10.861	$GPGGA,020611,2430.7392,N,08056.8067,W,1,8,2.1,22,M,,M,,*57
06/14/2014	02:06:11.875	$GPGGA,020612,2430.7392,N,08056.8067,W,1,8,2.1,22,M,,M,,*54
06/14/2014	02:06:12.869	$GPGGA,020613,2430.7386,N,08056.8078,W,1,9,1.7,22,M,,M,,*5A
06/14/2014	02:06:13.894	$GPGGA,020614,2430.7386,N,08056.8078,W,1,9,2.2,22,M,,M,,*5B
06/14/2014	02:06:14.897	$GPGGA,020615,2430.7382,N,08056.8087,W,1,9,1.7,22,M,,M,,*58
06/14/2014	02:06:15.942	$GPGGA,020616,2430.7377,N,08056.8093,W,1,9,2.4,23,M,,M,,*55
06/14/2014	02:06:16.904	$GPGGA,020617,2430.7371,N,08056.8101,W,1,8,2.4,23,M,,M,,*59
06/14/2014	02:06:17.958	$GPGGA,020618,2430.7370,N,08056.8105,W,1,8,2.2,23,M,,M,,*55
06/14/2014	02:06:18.942	$GPGGA,020619,2430.7363,N,08056.8111,W,1,8,2.2,23,M,,M,,*53
06/14/2014	02:06:19.946	$GPGGA,020620,2430.7363,N,08056.8111,W,1,8,1.7,23,M,,M,,*5F
06/14/2014	02:06:20.980	$GPGGA,020621,2430.7354,N,08056.8121,W,1,9,1.7,23,M,,M,,*58
06/14/2014	02:06:21.964	$GPGGA,020622,2430.7352,N,08056.8125,W,1,9,1.7,23,M,,M,,*59
06/14/2014	02:06:22.978	$GPGGA,020623,2430.7348,N,08056.8132,W,1,9,1.7,23,M,,M,,*55
06/14/2014	02:06:24.114	$GPGGA,020624,2430.7343,N,08056.8136,W,1,9,2.8,23,M,,M,,*51
06/14/2014	02:06:25.006	$GPGGA,020625,2430.7339,N,08056.8139,W,1,9,2.1,24,M,,M,,*5C
06/14/2014	02:06:26.130	$GPGGA,020626,2430.7335,N,08056.8144,W,1,9,2.1,24,M,,M,,*59
06/14/2014	02:06:27.155	$GPGGA,020627,2430.7331,N,08056.8150,W,1,8,2.1,24,M,,M,,*58
06/14/2014	02:06:28.151	$GPGGA,020628,2430.7327,N,08056.8155,W,1,8,1.7,24,M,,M,,*50
06/14/2014	02:06:29.163	$GPGGA,020629,2430.7323,N,08056.8161,W,1,8,2.2,24,M,,M,,*54
06/14/2014	02:06:30.075	$GPGGA,020630,2430.7323,N,08056.8161,W,1,8,1.7,24,M,,M,,*5A
06/14/2014	02:06:31.073	$GPGGA,020631,2430.7314,N,08056.8172,W,1,9,1.7,24,M,,M,,*5C
06/14/2014	02:06:32.215	$GPGGA,020632,2430.7311,N,08056.8177,W,1,9,2.1,24,M,,M,,*5A
06/14/2014	02:06:33.231	$GPGGA,020633,2430.7306,N,08056.8183,W,1,7,3.6,24,M,,M,,*5E
06/14/2014	02:06:34.118	$GPGGA,020634,2430.7306,N,08056.8183,W,1,7,2.1,24,M,,M,,*5F
06/14/2014	02:06:35.216	$GPGGA,020635,2430.7296,N,08056.8195,W,1,9,1.7,24,M,,M,,*5A
06/14/2014	02:06:36.230	$GPGGA,020636,2430.7294,N,08056.8202,W,1,9,2.1,24,M,,M,,*53
06/14/2014	02:06:37.258	$GPGGA,020637,2430.7291,N,08056.8209,W,1,9,1.7,24,M,,M,,*59
06/14/2014	02:06:38.258	$GPGGA,020638,2430.7287,N,08056.8215,W,1,9,1.7,24,M,,M,,*5C
06/14/2014	02:06:39.272	$GPGGA,020639,2430.7283,N,08056.8219,W,1,8,2.2,24,M,,M,,*52
06/14/2014	02:06:40.286	$GPGGA,020640,2430.7280,N,08056.8226,W,1,8,2.2,24,M,,M,,*53
06/14/2014	02:06:41.313	$GPGGA,020641,2430.7276,N,08056.8233,W,1,9,1.7,24,M,,M,,*58
06/14/2014	02:06:42.314	$GPGGA,020642,2430.7273,N,08056.8238,W,1,9,2.3,24,M,,M,,*52
06/14/2014	02:06:43.307	$GPGGA,020643,2430.7269,N,08056.8244,W,1,8,2.3,24,M,,M,,*52
06/14/2014	02:06:44.332	$GPGGA,020644,2430.7264,N,08056.8249,W,1,8,1.7,23,M,,M,,*55
06/14/2014	02:06:45.346	$GPGGA,020645,2430.7262,N,08056.8255,W,1,8,2.3,23,M,,M,,*58
06/14/2014	02:06:46.349	$GPGGA,020646,2430.7258,N,08056.8259,W,1,8,2.3,23,M,,M,,*5E
06/14/2014	02:06:47.396	$GPGGA,020647,2430.7254,N,08056.8264,W,1,9,1.7,23,M,,M,,*5B
06/14/2014	02:06:47.549	$GPGGA,020648,2430.7249,N,08056.8270,W,1,9,1.7,23,M,,M,,*5D
06/14/2014	02:06:48.532	$GPGGA,020649,2430.7245,N,08056.8277,W,1,9,1.7,23,M,,M,,*57
06/14/2014	02:06:49.556	$GPGGA,020650,2430.7242,N,08056.8282,W,1,9,2.3,23,M,,M,,*55
06/14/2014	02:06:50.591	$GPGGA,020651,2430.7238,N,08056.8289,W,1,8,2.3,23,M,,M,,*53
06/14/2014	02:06:51.604	$GPGGA,020652,2430.7233,N,08056.8295,W,1,8,1.7,23,M,,M,,*51
06/14/2014	02:06:52.571	$GPGGA,020653,2430.7230,N,08056.8298,W,1,7,2.7,23,M,,M,,*52
06/14/2014	02:06:53.589	$GPGGA,020654,2430.7233,N,08056.8299,W,1,7,2.1,23,M,,M,,*51
06/14/2014	02:06:54.584	$GPGGA,020655,2430.7233,N,08056.8303,W,1,8,2.1,23,M,,M,,*5D
06/14/2014	02:06:55.612	$GPGGA,020656,2430.7233,N,08056.8309,W,1,8,2.1,23,M,,M,,*54
06/14/2014	02:06:56.638	$GPGGA,020657,2430.7229,N,08056.8318,W,1,9,1.7,23,M,,M,,*5A
06/14/2014	02:06:57.614	$GPGGA,020658,2430.7222,N,08056.8327,W,1,9,2.4,23,M,,M,,*52
06/14/2014	02:06:58.601	$GPGGA,020659,2430.7216,N,08056.8331,W,1,8,2.3,23,M,,M,,*55
06/14/2014	02:06:59.658	$GPGGA,020700,2430.7213,N,08056.8338,W,1,8,2.3,23,M,,M,,*54
06/14/2014	02:07:00.644	$GPGGA,020701,2430.7211,N,08056.8342,W,1,9,1.7,23,M,,M,,*5C
06/14/2014	02:07:01.631	$GPGGA,020702,2430.7205,N,08056.8347,W,1,9,2.1,22,M,,M,,*5B
06/14/2014	02:07:02.638	$GPGGA,020703,2430.7198,N,08056.8354,W,1,7,2.7,22,M,,M,,*57
06/14/2014	02:07:03.644	$GPGGA,020704,2430.7194,N,08056.8360,W,1,7,1.7,22,M,,M,,*58
06/14/2014	02:07:04.628	$GPGGA,020705,2430.7191,N,08056.8367,W,1,9,1.7,22,M,,M,,*55
06/14/2014	02:07:05.759	$GPGGA,020706,2430.7184,N,08056.8374,W,1,9,1.7,22,M,,M,,*50
06/14/2014	02:07:06.685	$GPGGA,020707,2430.7180,N,08056.8379,W,1,8,2.4,22,M,,M,,*59
06/14/2014	02:07:07.671	$GPGGA,020708,2430.7179,N,08056.8386,W,1,8,3.6,22,M,,M,,*53
06/14/2014	02:07:08.747	$GPGGA,020709,2430.7177,N,08056.8392,W,1,9,1.7,22,M,,M,,*5B
06/14/2014	02:07:09.659	$GPGGA,020710,2430.7173,N,08056.8396,W,1,9,1.7,22,M,,M,,*53
06/14/2014	02:07:10.680	$GPGGA,020711,2430.7168,N,08056.8400,W,1,8,2.1,22,M,,M,,*54
06/14/2014	02:07:11.687	$GPGGA,020712,2430.7164,N,08056.8405,W,1,8,1.7,22,M,,M,,*5B
06/14/2014	02:07:12.784	$GPGGA,020713,2430.7160,N,08056.8411,W,1,9,1.7,22,M,,M,,*5A
06/14/2014	02:07:13.690	$GPGGA,020714,2430.7157,N,08056.8418,W,1,9,1.7,22,M,,M,,*50
06/14/2014	02:07:14.808	$GPGGA,020715,2430.7153,N,08056.8423,W,1,9,1.7,22,M,,M,,*5D
06/14/2014	02:07:15.704	$GPGGA,020716,2430.7150,N,08056.8428,W,1,9,2.1,22,M,,M,,*53
06/14/2014	02:07:16.831	$GPGGA,020717,2430.7147,N,08056.8432,W,1,8,2.1,22,M,,M,,*5E
06/14/2014	02:07:17.818	$GPGGA,020718,2430.7146,N,08056.8436,W,1,8,2.1,22,M,,M,,*54
06/14/2014	02:07:18.794	$GPGGA,020719,2430.7142,N,08056.8443,W,1,8,2.1,22,M,,M,,*53
06/14/2014	02:07:19.722	$GPGGA,020720,2430.7135,N,08056.8450,W,1,8,2.4,22,M,,M,,*5E
06/14/2014	02:07:20.798	$GPGGA,020721,2430.7138,N,08056.8454,W,1,8,2.4,22,M,,M,,*56
06/14/2014	02:07:21.845	$GPGGA,020722,2430.7136,N,08056.8461,W,1,8,3.6,22,M,,M,,*5E
06/14/2014	02:07:22.811	$GPGGA,020723,2430.7135,N,08056.8469,W,1,8,2.3,22,M,,M,,*50
06/14/2014	02:07:23.838	$GPGGA,020724,2430.7132,N,08056.8475,W,1,8,1.7,22,M,,M,,*5A
06/14/2014	02:07:24.846	$GPGGA,020725,2430.7130,N,08056.8479,W,1,8,2.3,22,M,,M,,*52
06/14/2014	02:07:25.831	$GPGGA,020726,2430.7126,N,08056.8483,W,1,8,1.7,22,M,,M,,*54
06/14/2014	02:07:26.837	$GPGGA,020727,2430.7124,N,08056.8486,W,1,8,2.1,22,M,,M,,*57
06/14/2014	02:07:27.854	$GPGGA,020728,2430.7122,N,08056.8490,W,1,8,2.1,23,M,,M,,*58
06/14/2014	02:07:28.860	$GPGGA,020729,2430.7118,N,08056.8494,W,1,8,2.1,23,M,,M,,*54
06/14/2014	02:07:29.847	$GPGGA,020730,2430.7114,N,08056.8499,W,1,8,1.7,23,M,,M,,*58
06/14/2014	02:07:30.874	$GPGGA,020731,2430.7110,N,08056.8506,W,1,9,1.7,23,M,,M,,*5B
06/14/2014	02:07:31.880	$GPGGA,020732,2430.7110,N,08056.8515,W,1,9,2.3,23,M,,M,,*5D
06/14/2014	02:07:32.857	$GPGGA,020733,2430.7105,N,08056.8519,W,1,9,1.7,23,M,,M,,*53
06/14/2014	02:07:33.874	$GPGGA,020734,2430.7099,N,08056.8523,W,1,9,1.7,23,M,,M,,*59
06/14/2014	02:07:34.860	$GPGGA,020735,2430.7095,N,08056.8529,W,1,9,1.7,23,M,,M,,*5E
06/14/2014	02:07:35.897	$GPGGA,020736,2430.7093,N,08056.8535,W,1,9,2.3,23,M,,M,,*51
06/14/2014	02:07:36.884	$GPGGA,020737,2430.7090,N,08056.8544,W,1,8,2.1,23,M,,M,,*56
06/14/2014	02:07:37.890	$GPGGA,020738,2430.7086,N,08056.8549,W,1,8,1.7,23,M,,M,,*56
06/14/2014	02:07:38.907	$GPGGA,020739,2430.7082,N,08056.8553,W,1,9,1.7,23,M,,M,,*59
06/14/2014	02:07:39.904	$GPGGA,020740,2430.7079,N,08056.8559,W,1,9,3.6,23,M,,M,,*5A
06/14/2014	02:07:40.921	$GPGGA,020741,2430.7074,N,08056.8564,W,1,8,2.1,23,M,,M,,*5F
06/14/2014	02:07:41.917	$GPGGA,020742,2430.7070,N,08056.8569,W,1,8,2.7,23,M,,M,,*53
06/14/2014	02:07:42.924	$GPGGA,020743,2430.7066,N,08056.8576,W,1,8,2.1,23,M,,M,,*5D
06/14/2014	02:07:43.930	$GPGGA,020744,2430.7061,N,08056.8578,W,1,8,2.3,23,M,,M,,*51
06/14/2014	02:07:44.916	$GPGGA,020745,2430.7058,N,08056.8584,W,1,9,1.7,23,M,,M,,*5F
06/14/2014	02:07:45.933	$GPGGA,020746,2430.7056,N,08056.8589,W,1,9,2.3,23,M,,M,,*58
06/14/2014	02:07:46.960	$GPGGA,020747,2430.7050,N,08056.8596,W,1,8,2.3,23,M,,M,,*50
06/14/2014	02:07:47.516	$GPGGA,020748,2430.7045,N,08056.8602,W,1,8,1.7,23,M,,M,,*52
06/14/2014	02:07:48.532	$GPGGA,020749,2430.7042,N,08056.8607,W,1,7,3.6,23,M,,M,,*5D
06/14/2014	02:07:49.509	$GPGGA,020750,2430.7038,N,08056.8613,W,1,7,3.6,22,M,,M,,*5C
06/14/2014	02:07:50.535	$GPGGA,020751,2430.7031,N,08056.8618,W,1,8,2.1,22,M,,M,,*56
06/14/2014	02:07:51.552	$GPGGA,020752,2430.7027,N,08056.8624,W,1,8,2.1,22,M,,M,,*5D
06/14/2014	02:07:52.519	$GPGGA,020753,2430.7023,N,08056.8628,W,1,8,2.1,22,M,,M,,*54
06/14/2014	02:07:53.535	$GPGGA,020754,2430.7017,N,08056.8634,W,1,8,2.1,22,M,,M,,*59
06/14/2014	02:07:54.542	$GPGGA,020755,2430.7013,N,08056.8638,W,1,8,2.1,22,M,,M,,*50
06/14/2014	02:07:55.549	$GPGGA,020756,2430.7009,N,08056.8645,W,1,8,2.1,22,M,,M,,*52
06/14/2014	02:07:56.555	$GPGGA,020757,2430.7005,N,08056.8649,W,1,9,1.7,22,M,,M,,*57
06/14/2014	02:07:57.542	$GPGGA,020758,2430.7000,N,08056.8656,W,1,9,1.7,22,M,,M,,*53
06/14/2014	02:07:58.549	$GPGGA,020759,2430.6998,N,08056.8661,W,1,9,1.7,22,M,,M,,*5F
06/14/2014	02:07:59.686	$GPGGA,020800,2430.6993,N,08056.8670,W,1,9,2.1,22,M,,M,,*52
06/14/2014	02:08:00.590	$GPGGA,020801,2430.6987,N,08056.8674,W,1,9,1.7,23,M,,M,,*56
06/14/2014	02:08:01.578	$GPGGA,020802,2430.6984,N,08056.8679,W,1,9,2.1,23,M,,M,,*5E
06/14/2014	02:08:02.685	$GPGGA,020803,2430.6980,N,08056.8685,W,1,8,2.1,23,M,,M,,*59
06/14/2014	02:08:03.581	$GPGGA,020804,2430.6975,N,08056.8692,W,1,8,2.7,23,M,,M,,*54
06/14/2014	02:08:04.589	$GPGGA,020805,2430.6969,N,08056.8699,W,1,9,1.7,23,M,,M,,*51
06/14/2014	02:08:05.585	$GPGGA,020806,2430.6973,N,08056.8703,W,1,9,2.4,23,M,,M,,*5B
06/14/2014	02:08:06.596	$GPGGA,020807,2430.6969,N,08056.8707,W,1,9,1.7,23,M,,M,,*55
06/14/2014	02:08:07.699	$GPGGA,020808,2430.6965,N,08056.8711,W,1,9,2.1,23,M,,M,,*54
06/14/2014	02:08:08.725	$GPGGA,020809,2430.6963,N,08056.8717,W,1,8,2.1,23,M,,M,,*54
06/14/2014	02:08:09.702	$GPGGA,020810,2430.6959,N,08056.8723,W,1,8,2.1,23,M,,M,,*52
06/14/2014	02:08:10.709	$GPGGA,020811,2430.6953,N,08056.8729,W,1,7,2.7,23,M,,M,,*5A
06/14/2014	02:08:11.766	$GPGGA,020812,2430.6947,N,08056.8736,W,1,7,2.1,23,M,,M,,*54
06/14/2014	02:08:12.722	$GPGGA,020813,2430.6944,N,08056.8740,W,1,8,2.1,23,M,,M,,*58
06/14/2014	02:08:13.709	$GPGGA,020814,2430.6941,N,08056.8746,W,1,8,2.1,23,M,,M,,*5C
06/14/2014	02:08:14.735	$GPGGA,020815,2430.6938,N,08056.8754,W,1,8,2.1,23,M,,M,,*50
06/14/2014	02:08:15.743	$GPGGA,020816,2430.6935,N,08056.8759,W,1,8,1.7,23,M,,M,,*56
06/14/2014	02:08:16.760	$GPGGA,020817,2430.6931,N,08056.8765,W,1,8,2.3,23,M,,M,,*5B
06/14/2014	02:08:17.735	$GPGGA,020818,2430.6928,N,08056.8770,W,1,8,3.6,23,M,,M,,*5C
06/14/2014	02:08:18.773	$GPGGA,020819,2430.6924,N,08056.8775,W,1,8,2.1,23,M,,M,,*52
06/14/2014	02:08:19.758	$GPGGA,020820,2430.6919,N,08056.8780,W,1,8,2.1,23,M,,M,,*5C
06/14/2014	02:08:20.765	$GPGGA,020821,2430.6916,N,08056.8786,W,1,8,2.1,23,M,,M,,*54
06/14/2014	02:08:21.751	$GPGGA,020822,2430.6915,N,08056.8793,W,1,8,2.1,23,M,,M,,*50
06/14/2014	02:08:22.778	$GPGGA,020823,2430.6911,N,08056.8798,W,1,7,3.6,23,M,,M,,*57
06/14/2014	02:08:23.785	$GPGGA,020824,2430.6908,N,08056.8805,W,1,7,3.6,23,M,,M,,*53
06/14/2014	02:08:24.801	$GPGGA,020825,2430.6904,N,08056.8811,W,1,7,3.6,22,M,,M,,*5A
06/14/2014	02:08:25.768	$GPGGA,020826,2430.6899,N,08056.8815,W,1,7,2.1,22,M,,M,,*5E
06/14/2014	02:08:26.805	$GPGGA,020827,2430.6895,N,08056.8820,W,1,8,2.1,22,M,,M,,*5A
06/14/2014	02:08:27.801	$GPGGA,020828,2430.6891,N,08056.8826,W,1,8,2.1,22,M,,M,,*57
06/14/2014	02:08:28.808	$GPGGA,020829,2430.6888,N,08056.8833,W,1,8,2.1,22,M,,M,,*5A
06/14/2014	02:08:29.785	$GPGGA,020830,2430.6883,N,08056.8840,W,1,8,2.1,22,M,,M,,*5D
06/14/2014	02:08:30.791	$GPGGA,020831,2430.6879,N,08056.8845,W,1,9,1.7,22,M,,M,,*58
06/14/2014	02:08:31.838	$GPGGA,020832,2430.6875,N,08056.8851,W,1,9,2.1,21,M,,M,,*54
06/14/2014	02:08:32.835	$GPGGA,020833,2430.6872,N,08056.8858,W,1,8,2.1,21,M,,M,,*5A
06/14/2014	02:08:33.821	$GPGGA,020834,2430.6868,N,08056.8863,W,1,8,2.1,21,M,,M,,*5E
06/14/2014	02:08:34.849	$GPGGA,020835,2430.6863,N,08056.8867,W,1,8,2.1,21,M,,M,,*50
06/14/2014	02:08:35.834	$GPGGA,020836,2430.6859,N,08056.8873,W,1,8,2.1,21,M,,M,,*5F
06/14/2014	02:08:36.871	$GPGGA,020837,2430.6857,N,08056.8880,W,1,8,2.1,21,M,,M,,*5C
06/14/2014	02:08:37.938	$GPGGA,020838,2430.6851,N,08056.8887,W,1,8,2.7,21,M,,M,,*54
06/14/2014	02:08:38.945	$GPGGA,020839,2430.6846,N,08056.8894,W,1,9,1.7,21,M,,M,,*53
06/14/2014	02:08:39.841	$GPGGA,020840,2430.6839,N,08056.8900,W,1,9,2.1,21,M,,M,,*5C
06/14/2014	02:08:40.966	$GPGGA,020841,2430.6836,N,08056.8909,W,1,8,2.3,21,M,,M,,*58
06/14/2014	02:08:41.948	$GPGGA,020842,2430.6834,N,08056.8913,W,1,8,1.7,21,M,,M,,*55
06/14/2014	02:08:43.061	$GPGGA,020843,2430.6829,N,08056.8917,W,1,8,2.1,21,M,,M,,*59
06/14/2014	02:08:44.149	$GPGGA,020844,2430.6826,N,08056.8923,W,1,8,2.1,21,M,,M,,*56
06/14/2014	02:08:45.343	$GPGGA,020845,2430.6823,N,08056.8928,W,1,9,1.7,21,M,,M,,*5D
06/14/2014	02:08:46.314	$GPGGA,020846,2430.6819,N,08056.8932,W,1,9,2.1,21,M,,M,,*59
06/14/2014	02:08:47.406	$GPGGA,020847,2430.6816,N,08056.8938,W,1,8,2.1,21,M,,M,,*5C
06/14/2014	02:08:47.511	$GPGGA,020848,2430.6814,N,08056.8945,W,1,8,3.6,21,M,,M,,*5D
06/14/2014	02:08:48.703	$GPGGA,020849,2430.6810,N,08056.8950,W,1,7,3.6,21,M,,M,,*53
06/14/2014	02:08:49.653	$GPGGA,020850,2430.6806,N,08056.8956,W,1,7,2.1,21,M,,M,,*5C
06/14/2014	02:08:50.897	$GPGGA,020851,2430.6803,N,08056.8960,W,1,8,2.1,21,M,,M,,*52
06/14/2014	02:08:51.858	$GPGGA,020852,2430.6800,N,08056.8965,W,1,8,2.1,21,M,,M,,*57
06/14/2014	02:08:53.080	$GPGGA,020853,2430.6799,N,08056.8975,W,1,8,2.1,21,M,,M,,*58
06/14/2014	02:08:54.019	$GPGGA,020854,2430.6794,N,08056.8979,W,1,8,2.4,21,M,,M,,*5B
06/14/2014	02:08:55.213	$GPGGA,020855,2430.6792,N,08056.8983,W,1,7,3.6,21,M,,M,,*55
06/14/2014	02:08:56.332	$GPGGA,020856,2430.6789,N,08056.8989,W,1,7,2.1,21,M,,M,,*50
06/14/2014	02:08:57.457	$GPGGA,020857,2430.6785,N,08056.8996,W,1,7,3.6,21,M,,M,,*55
06/14/2014	02:08:58.472	$GPGGA,020858,2430.6782,N,08056.9001,W,1,7,2.3,21,M,,M,,*5F
06/14/2014	02:08:59.607	$GPGGA,020859,2430.6779,N,08056.9007,W,1,7,3.6,20,M,,M,,*59
06/14/2014	02:09:02.063	$GPGGA,020901,2430.6774,N,08056.9017,W,1,7,3.6,20,M,,M,,*59
06/14/2014	02:09:02.853	$GPGGA,020902,2430.6770,N,08056.9022,W,1,7,2.3,20,M,,M,,*5C
06/14/2014	02:09:03.919	$GPGGA,020903,2430.6767,N,08056.9028,W,1,8,2.3,20,M,,M,,*5E
06/14/2014	02:09:05.021	$GPGGA,020904,2430.6763,N,08056.9033,W,1,8,2.3,20,M,,M,,*57
06/14/2014	02:09:06.135	$GPGGA,020905,2430.6760,N,08056.9039,W,1,8,2.1,20,M,,M,,*5D
06/14/2014	02:09:07.183	$GPGGA,020906,2430.6758,N,08056.9046,W,1,8,2.1,20,M,,M,,*5D
06/14/2014	02:09:08.307	$GPGGA,020907,2430.6754,N,08056.9051,W,1,9,1.7,20,M,,M,,*52
06/14/2014	02:09:09.388	$GPGGA,020908,2430.6751,N,08056.9058,W,1,9,2.1,20,M,,M,,*54
06/14/2014	02:09:10.480	$GPGGA,020909,2430.6749,N,08056.9064,W,1,8,2.3,20,M,,M,,*50
06/14/2014	02:09:11.550	$GPGGA,020910,2430.6745,N,08056.9068,W,1,8,3.6,20,M,,M,,*5C
06/14/2014	02:09:12.661	$GPGGA,020911,2430.6741,N,08056.9072,W,1,8,2.1,20,M,,M,,*54
06/14/2014	02:09:13.764	$GPGGA,020912,2430.6738,N,08056.9077,W,1,8,2.1,20,M,,M,,*5C
06/14/2014	02:09:14.823	$GPGGA,020913,2430.6734,N,08056.9083,W,1,9,1.7,20,M,,M,,*5E
06/14/2014	02:09:15.914	$GPGGA,020914,2430.6729,N,08056.9089,W,1,9,1.7,20,M,,M,,*5F
06/14/2014	02:09:17.028	$GPGGA,020915,2430.6725,N,08056.9094,W,1,9,1.7,20,M,,M,,*5E
06/14/2014	02:09:18.098	$GPGGA,020916,2430.6722,N,08056.9101,W,1,9,2.1,20,M,,M,,*52
06/14/2014	02:09:19.222	$GPGGA,020917,2430.6718,N,08056.9107,W,1,9,1.7,20,M,,M,,*59
06/14/2014	02:09:20.259	$GPGGA,020918,2430.6714,N,08056.9111,W,1,9,2.1,20,M,,M,,*58
06/14/2014	02:09:21.394	$GPGGA,020919,2430.6711,N,08056.9116,W,1,9,1.7,20,M,,M,,*5E
06/14/2014	02:09:22.475	$GPGGA,020920,2430.6707,N,08056.9122,W,1,9,2.1,20,M,,M,,*51
06/14/2014	02:09:23.577	$GPGGA,020921,2430.6703,N,08056.9127,W,1,9,1.7,21,M,,M,,*55
06/14/2014	02:09:24.636	$GPGGA,020922,2430.6699,N,08056.9133,W,1,9,1.7,21,M,,M,,*51
06/14/2014	02:09:25.706	$GPGGA,020923,2430.6696,N,08056.9138,W,1,8,2.1,21,M,,M,,*50
06/14/2014	02:09:26.940	$GPGGA,020924,2430.6693,N,08056.9144,W,1,8,1.7,21,M,,M,,*5C
06/14/2014	02:09:27.912	$GPGGA,020925,2430.6691,N,08056.9151,W,1,9,1.7,21,M,,M,,*5A
06/14/2014	02:09:28.970	$GPGGA,020926,2430.6686,N,08056.9158,W,1,9,1.7,21,M,,M,,*56
06/14/2014	02:09:30.065	$GPGGA,020927,2430.6684,N,08056.9163,W,1,9,1.7,21,M,,M,,*5D
06/14/2014	02:09:31.176	$GPGGA,020928,2430.6678,N,08056.9171,W,1,9,1.7,21,M,,M,,*52
06/14/2014	02:09:32.387	$GPGGA,020929,2430.6675,N,08056.9176,W,1,8,2.1,22,M,,M,,*5E
06/14/2014	02:09:33.444	$GPGGA,020930,2430.6674,N,08056.9180,W,1,8,2.1,22,M,,M,,*5E
06/14/2014	02:09:34.558	$GPGGA,020931,2430.6673,N,08056.9183,W,1,8,2.1,22,M,,M,,*5B
06/14/2014	02:09:35.540	$GPGGA,020932,2430.6669,N,08056.9189,W,1,8,2.1,22,M,,M,,*59
06/14/2014	02:09:36.741	$GPGGA,020933,2430.6663,N,08056.9195,W,1,7,2.7,22,M,,M,,*56
06/14/2014	02:09:37.686	$GPGGA,020934,2430.6662,N,08056.9198,W,1,7,2.7,22,M,,M,,*5D
06/14/2014	02:09:38.788	$GPGGA,020935,2430.6659,N,08056.9205,W,1,9,1.7,22,M,,M,,*5E
06/14/2014	02:09:40.005	$GPGGA,020936,2430.6657,N,08056.9210,W,1,9,2.1,21,M,,M,,*51
06/14/2014	02:09:40.987	$GPGGA,020937,2430.6655,N,08056.9216,W,1,8,2.1,21,M,,M,,*55
06/14/2014	02:09:42.066	$GPGGA,020938,2430.6652,N,08056.9221,W,1,8,2.1,21,M,,M,,*59
06/14/2014	02:09:43.280	$GPGGA,020939,2430.6649,N,08056.9227,W,1,9,2.1,21,M,,M,,*55
06/14/2014	02:09:44.240	$GPGGA,020940,2430.6645,N,08056.9234,W,1,9,2.1,21,M,,M,,*55
06/14/2014	02:09:45.463	$GPGGA,020941,2430.6642,N,08056.9241,W,1,9,1.7,21,M,,M,,*54
06/14/2014	02:09:46.544	$GPGGA,020942,2430.6640,N,08056.9245,W,1,9,3.6,21,M,,M,,*52
06/14/2014	02:09:47.621	$GPGGA,020943,2430.6637,N,08056.9250,W,1,7,2.1,21,M,,M,,*5F
06/14/2014	02:09:48.706	$GPGGA,020944,2430.6631,N,08056.9256,W,1,7,2.1,21,M,,M,,*58
06/14/2014	02:09:49.787	$GPGGA,020945,2430.6627,N,08056.9263,W,1,8,2.1,21,M,,M,,*57
06/14/2014	02:09:50.877	$GPGGA,020946,2430.6624,N,08056.9267,W,1,8,2.1,21,M,,M,,*53
06/14/2014	02:09:51.979	$GPGGA,020947,2430.6620,N,08056.9274,W,1,8,3.6,21,M,,M,,*52
06/14/2014	02:09:47.579	$GPGGA,020948,2430.6617,N,08056.9281,W,1,8,1.7,21,M,,M,,*50
06/14/2014	02:09:48.667	$GPGGA,020949,2430.6615,N,08056.9285,W,1,9,2.1,21,M,,M,,*53
06/14/2014	02:09:49.737	$GPGGA,020950,2430.6611,N,08056.9292,W,1,9,1.7,21,M,,M,,*5C
06/14/2014	02:09:50.851	$GPGGA,020951,2430.6608,N,08056.9299,W,1,9,1.7,21,M,,M,,*5E
06/14/2014	02:09:51.931	$GPGGA,020952,2430.6604,N,08056.9304,W,1,9,2.1,21,M,,M,,*51
06/14/2014	02:09:53.023	$GPGGA,020953,2430.6599,N,08056.9310,W,1,8,2.1,21,M,,M,,*53
06/14/2014	02:09:54.092	$GPGGA,020954,2430.6595,N,08056.9315,W,1,8,2.1,21,M,,M,,*5D
06/14/2014	02:09:55.206	$GPGGA,020955,2430.6591,N,08056.9321,W,1,8,3.6,21,M,,M,,*59
06/14/2014	02:09:56.286	$GPGGA,020956,2430.6588,N,08056.9326,W,1,8,1.7,21,M,,M,,*56
06/14/2014	02:09:57.422	$GPGGA,020957,2430.6586,N,08056.9331,W,1,9,2.1,21,M,,M,,*5B
06/14/2014	02:09:58.459	$GPGGA,020958,2430.6581,N,08056.9335,W,1,9,1.7,21,M,,M,,*52
06/14/2014	02:09:59.572	$GPGGA,020959,2430.6579,N,08056.9340,W,1,9,1.7,21,M,,M,,*56
06/14/2014	02:10:00.664	$GPGGA,021000,2430.6575,N,08056.9347,W,1,9,1.7,21,M,,M,,*59
06/14/2014	02:10:01.733	$GPGGA,021001,2430.6572,N,08056.9357,W,1,9,2.3,21,M,,M,,*59
06/14/2014	02:10:02.803	$GPGGA,021002,2430.6566,N,08056.9362,W,1,9,2.1,21,M,,M,,*5B
06/14/2014	02:10:03.895	$GPGGA,021003,2430.6561,N,08056.9368,W,1,8,1.7,21,M,,M,,*53
06/14/2014	02:10:05.018	$GPGGA,021004,2430.6561,N,08056.9371,W,1,8,2.1,21,M,,M,,*59
06/14/2014	02:10:06.110	$GPGGA,021005,2430.6561,N,08056.9376,W,1,8,2.1,21,M,,M,,*5F
06/14/2014	02:10:07.169	$GPGGA,021006,2430.6554,N,08056.9382,W,1,8,2.3,21,M,,M,,*53
06/14/2014	02:10:08.271	$GPGGA,021007,2430.6551,N,08056.9387,W,1,8,2.1,21,M,,M,,*50
06/14/2014	02:10:09.363	$GPGGA,021008,2430.6548,N,08056.9393,W,1,8,1.7,21,M,,M,,*57
06/14/2014	02:10:10.432	$GPGGA,021009,2430.6545,N,08056.9400,W,1,9,2.1,21,M,,M,,*52
06/14/2014	02:10:11.535	$GPGGA,021010,2430.6541,N,08056.9407,W,1,9,2.1,22,M,,M,,*5A
06/14/2014	02:10:12.648	$GPGGA,021011,2430.6537,N,08056.9413,W,1,8,1.7,22,M,,M,,*5B
06/14/2014	02:10:13.740	$GPGGA,021012,2430.6534,N,08056.9420,W,1,8,1.7,22,M,,M,,*5B
06/14/2014	02:10:14.822	$GPGGA,021013,2430.6532,N,08056.9426,W,1,9,1.7,22,M,,M,,*5B
06/14/2014	02:10:15.901	$GPGGA,021014,2430.6529,N,08056.9429,W,1,9,2.1,22,M,,M,,*5C
06/14/2014	02:10:17.004	$GPGGA,021015,2430.6525,N,08056.9433,W,1,8,2.1,22,M,,M,,*5B
06/14/2014	02:10:18.095	$GPGGA,021016,2430.6521,N,08056.9437,W,1,8,1.7,22,M,,M,,*5D
06/14/2014	02:10:19.296	$GPGGA,021017,2430.6518,N,08056.9444,W,1,9,1.7,23,M,,M,,*52
06/14/2014	02:10:20.257	$GPGGA,021018,2430.6515,N,08056.9451,W,1,9,2.1,23,M,,M,,*51
06/14/2014	02:10:21.425	$GPGGA,021019,2430.6510,N,08056.9458,W,1,8,2.1,23,M,,M,,*5D
06/14/2014	02:10:22.440	$GPGGA,021020,2430.6507,N,08056.9465,W,1,8,1.7,23,M,,M,,*5A
06/14/2014	02:10:23.651	$GPGGA,021021,2430.6504,N,08056.9469,W,1,9,1.7,23,M,,M,,*55
06/14/2014	02:10:24.600	$GPGGA,021022,2430.6500,N,08056.9474,W,1,9,1.7,23,M,,M,,*5E
06/14/2014	02:10:25.714	$GPGGA,021023,2430.6498,N,08056.9481,W,1,9,1.7,23,M,,M,,*55
06/14/2014	02:10:26.904	$GPGGA,021024,2430.6496,N,08056.9487,W,1,9,1.7,23,M,,M,,*5A
06/14/2014	02:10:27.966	$GPGGA,021025,2430.6492,N,08056.9494,W,1,9,1.7,24,M,,M,,*5A
06/14/2014	02:10:28.967	$GPGGA,021026,2430.6488,N,08056.9501,W,1,9,1.7,24,M,,M,,*5F
06/14/2014	02:10:30.066	$GPGGA,021027,2430.6483,N,08056.9509,W,1,9,1.7,24,M,,M,,*5D
06/14/2014	02:10:31.248	$GPGGA,021028,2430.6478,N,08056.9514,W,1,9,1.7,24,M,,M,,*5A
06/14/2014	02:10:32.234	$GPGGA,021029,2430.6475,N,08056.9520,W,1,8,2.1,24,M,,M,,*55
06/14/2014	02:10:33.422	$GPGGA,021030,2430.6471,N,08056.9525,W,1,8,2.1,24,M,,M,,*5C
06/14/2014	02:10:34.503	$GPGGA,021031,2430.6467,N,08056.9530,W,1,9,2.3,24,M,,M,,*5D
06/14/2014	02:10:35.604	$GPGGA,021032,2430.6463,N,08056.9535,W,1,9,2.3,24,M,,M,,*5F
06/14/2014	02:10:36.706	$GPGGA,021033,2430.6461,N,08056.9541,W,1,9,1.7,24,M,,M,,*58
06/14/2014	02:10:37.782	$GPGGA,021034,2430.6456,N,08056.9546,W,1,9,2.1,24,M,,M,,*59
06/14/2014	02:10:38.857	$GPGGA,021035,2430.6451,N,08056.9552,W,1,9,2.1,24,M,,M,,*5A
06/14/2014	02:10:39.959	$GPGGA,021036,2430.6447,N,08056.9559,W,1,9,2.1,24,M,,M,,*55
06/14/2014	02:10:41.069	$GPGGA,021037,2430.6445,N,08056.9566,W,1,8,2.1,24,M,,M,,*5B
06/14/2014	02:10:42.122	$GPGGA,021038,2430.6442,N,08056.9571,W,1,8,1.7,24,M,,M,,*50
06/14/2014	02:10:43.211	$GPGGA,021039,2430.6439,N,08056.9575,W,1,8,2.1,24,M,,M,,*5C
06/14/2014	02:10:44.324	$GPGGA,021040,2430.6438,N,08056.9579,W,1,8,2.1,24,M,,M,,*5F
06/14/2014	02:10:45.405	$GPGGA,021041,2430.6434,N,08056.9586,W,1,8,2.8,24,M,,M,,*5B
06/14/2014	02:10:46.497	$GPGGA,021042,2430.6429,N,08056.9590,W,1,8,2.8,24,M,,M,,*53
06/14/2014	02:10:47.588	$GPGGA,021043,2430.6422,N,08056.9596,W,1,8,2.3,24,M,,M,,*54
06/14/2014	02:10:48.680	$GPGGA,021044,2430.6418,N,08056.9603,W,1,8,2.3,24,M,,M,,*55
06/14/2014	02:10:49.772	$GPGGA,021045,2430.6416,N,08056.9610,W,1,8,2.1,24,M,,M,,*5A
06/14/2014	02:10:50.841	$GPGGA,021046,2430.6414,N,08056.9615,W,1,8,2.1,24,M,,M,,*5E
06/14/2014	02:10:51.967	$GPGGA,021047,2430.6415,N,08056.9622,W,1,8,2.1,24,M,,M,,*5A
06/14/2014	02:10:47.552	$GPGGA,021048,2430.6411,N,08056.9628,W,1,8,1.7,24,M,,M,,*5E
06/14/2014	02:10:48.622	$GPGGA,021049,2430.6409,N,08056.9633,W,1,8,2.3,24,M,,M,,*5B
06/14/2014	02:10:49.714	$GPGGA,021050,2430.6406,N,08056.9639,W,1,8,1.7,24,M,,M,,*51
06/14/2014	02:10:50.784	$GPGGA,021051,2430.6404,N,08056.9643,W,1,9,1.7,24,M,,M,,*5E
06/14/2014	02:10:51.919	$GPGGA,021052,2430.6402,N,08056.9649,W,1,9,1.7,24,M,,M,,*51
06/14/2014	02:10:53.010	$GPGGA,021053,2430.6398,N,08056.9654,W,1,9,1.7,24,M,,M,,*58
06/14/2014	02:10:54.069	$GPGGA,021054,2430.6396,N,08056.9660,W,1,9,1.7,24,M,,M,,*56
06/14/2014	02:10:55.161	$GPGGA,021055,2430.6392,N,08056.9665,W,1,9,1.7,24,M,,M,,*56
06/14/2014	02:10:56.263	$GPGGA,021056,2430.6389,N,08056.9669,W,1,9,1.7,25,M,,M,,*52
06/14/2014	02:10:57.387	$GPGGA,021057,2430.6386,N,08056.9675,W,1,8,2.1,25,M,,M,,*55
06/14/2014	02:10:58.413	$GPGGA,021058,2430.6384,N,08056.9679,W,1,8,1.7,25,M,,M,,*51
06/14/2014	02:10:59.624	$GPGGA,021059,2430.6380,N,08056.9684,W,1,8,2.1,25,M,,M,,*53
06/14/2014	02:11:00.607	$GPGGA,021100,2430.6377,N,08056.9689,W,1,8,2.1,25,M,,M,,*5B
06/14/2014	02:11:01.703	$GPGGA,021101,2430.6373,N,08056.9691,W,1,8,2.1,25,M,,M,,*57
06/14/2014	02:11:02.768	$GPGGA,021102,2430.6370,N,08056.9697,W,1,8,2.1,25,M,,M,,*51
06/14/2014	02:11:03.882	$GPGGA,021103,2430.6367,N,08056.9704,W,1,8,2.1,25,M,,M,,*5D
06/14/2014	02:11:04.962	$GPGGA,021104,2430.6363,N,08056.9711,W,1,8,1.7,25,M,,M,,*5F
06/14/2014	02:11:06.064	$GPGGA,021105,2430.6359,N,08056.9718,W,1,9,1.7,25,M,,M,,*5F
06/14/2014	02:11:07.144	$GPGGA,021106,2430.6356,N,08056.9725,W,1,9,2.1,25,M,,M,,*58
06/14/2014	02:11:08.335	$GPGGA,021107,2430.6353,N,08056.9730,W,1,8,2.3,25,M,,M,,*5B
06/14/2014	02:11:09.329	$GPGGA,021108,2430.6350,N,08056.9736,W,1,8,2.1,25,M,,M,,*53
06/14/2014	02:11:10.512	$GPGGA,021109,2430.6346,N,08056.9741,W,1,8,2.1,25,M,,M,,*55
06/14/2014	02:11:11.610	$GPGGA,021110,2430.6342,N,08056.9747,W,1,8,2.1,25,M,,M,,*5F
06/14/2014	02:11:12.582	$GPGGA,021111,2430.6338,N,08056.9752,W,1,8,2.1,25,M,,M,,*57
06/14/2014	02:11:13.673	$GPGGA,021112,2430.6335,N,08056.9758,W,1,8,2.1,25,M,,M,,*53
06/14/2014	02:11:14.765	$GPGGA,021113,2430.6330,N,08056.9765,W,1,7,3.6,25,M,,M,,*50
06/14/2014	02:11:15.943	$GPGGA,021114,2430.6327,N,08056.9770,W,1,7,2.1,24,M,,M,,*52
06/14/2014	02:11:16.947	$GPGGA,021115,2430.6322,N,08056.9776,W,1,8,2.1,24,M,,M,,*5F
06/14/2014	02:11:18.137	$GPGGA,021116,2430.6316,N,08056.9780,W,1,8,2.1,24,M,,M,,*52
06/14/2014	02:11:19.233	$GPGGA,021117,2430.6312,N,08056.9787,W,1,8,2.1,24,M,,M,,*50
06/14/2014	02:11:20.321	$GPGGA,021118,2430.6310,N,08056.9794,W,1,8,1.7,24,M,,M,,*5A
06/14/2014	02:11:21.414	$GPGGA,021119,2430.6305,N,08056.9798,W,1,9,1.7,23,M,,M,,*55
06/14/2014	02:11:22.504	$GPGGA,021120,2430.6301,N,08056.9803,W,1,9,2.1,23,M,,M,,*53
06/14/2014	02:11:23.606	$GPGGA,021121,2430.6297,N,08056.9809,W,1,7,3.6,23,M,,M,,*5E
06/14/2014	02:11:24.676	$GPGGA,021122,2430.6293,N,08056.9819,W,1,7,2.1,23,M,,M,,*5E
06/14/2014	02:11:25.756	$GPGGA,021123,2430.6290,N,08056.9824,W,1,9,1.7,23,M,,M,,*59
06/14/2014	02:11:26.859	$GPGGA,021124,2430.6283,N,08056.9830,W,1,9,2.1,23,M,,M,,*5C
06/14/2014	02:11:27.950	$GPGGA,021125,2430.6279,N,08056.9837,W,1,8,2.1,23,M,,M,,*5E
06/14/2014	02:11:29.020	$GPGGA,021126,2430.6276,N,08056.9844,W,1,8,1.7,22,M,,M,,*52
06/14/2014	02:11:30.134	$GPGGA,021127,2430.6272,N,08056.9848,W,1,8,2.1,22,M,,M,,*5E
06/14/2014	02:11:31.214	$GPGGA,021128,2430.6268,N,08056.9852,W,1,8,2.1,22,M,,M,,*51
06/14/2014	02:11:32.284	$GPGGA,021129,2430.6265,N,08056.9859,W,1,9,1.7,22,M,,M,,*52
06/14/2014	02:11:33.376	$GPGGA,021130,2430.6261,N,08056.9864,W,1,9,1.7,22,M,,M,,*50
06/14/2014	02:11:34.466	$GPGGA,021131,2430.6257,N,08056.9871,W,1,9,1.7,22,M,,M,,*50
06/14/2014	02:11:35.590	$GPGGA,021132,2430.6254,N,08056.9879,W,1,9,1.7,22,M,,M,,*58
06/14/2014	02:11:36.671	$GPGGA,021133,2430.6251,N,08056.9888,W,1,9,1.7,22,M,,M,,*52
06/14/2014	02:11:37.730	$GPGGA,021134,2430.6246,N,08056.9893,W,1,9,2.1,22,M,,M,,*5C
06/14/2014	02:11:38.865	$GPGGA,021135,2430.6243,N,08056.9900,W,1,8,2.1,22,M,,M,,*52
06/14/2014	02:11:39.935	$GPGGA,021136,2430.6241,N,08056.9906,W,1,8,1.7,22,M,,M,,*50
06/14/2014	02:11:41.038	$GPGGA,021137,2430.6236,N,08056.9911,W,1,9,1.7,22,M,,M,,*56
06/14/2014	02:11:42.096	$GPGGA,021138,2430.6230,N,08056.9920,W,1,9,2.6,22,M,,M,,*5F
06/14/2014	02:11:43.200	$GPGGA,021139,2430.6226,N,08056.9926,W,1,8,2.3,22,M,,M,,*5B
06/14/2014	02:11:44.291	$GPGGA,021140,2430.6223,N,08056.9935,W,1,8,2.1,22,M,,M,,*50
06/14/2014	02:11:45.404	$GPGGA,021141,2430.6219,N,08056.9942,W,1,9,1.7,22,M,,M,,*5C
06/14/2014	02:11:46.452	$GPGGA,021142,2430.6217,N,08056.9950,W,1,9,2.1,22,M,,M,,*57
06/14/2014	02:11:47.533	$GPGGA,021143,2430.6214,N,08056.9956,W,1,9,1.7,22,M,,M,,*56
06/14/2014	02:11:48.766	$GPGGA,021144,2430.6210,N,08056.9960,W,1,9,2.1,22,M,,M,,*55
06/14/2014	02:11:49.716	$GPGGA,021145,2430.6208,N,08056.9967,W,1,9,1.7,22,M,,M,,*5F
06/14/2014	02:11:50.829	$GPGGA,021146,2430.6204,N,08056.9973,W,1,9,1.7,22,M,,M,,*55
06/14/2014	02:11:51.943	$GPGGA,021147,2430.6201,N,08056.9980,W,1,8,2.3,22,M,,M,,*5B
06/14/2014	02:11:47.518	$GPGGA,021148,2430.6197,N,08056.9989,W,1,8,1.7,22,M,,M,,*56
