Software Version Number: 1	Data File Format Number: 1	Build Version Number: 1	Error Count Since VI Started: 0	Manufacturer: Raytheon	 Model Number: RayMarine 120	 S/N: 	 Cal Date: 	 Wind Direction Offset: 0.00	 Slope (M)1: 0.00	 Offset (B)1: 0.00	 Slope (M)2: 0.00	 Offset (B)2: 0.00	 Slope (M)3: 0.00	 Offset (B)3: 0.00	 Slope (M)4: 0.00	 Offset (B)4: 0.00	 Slope (M)5: 0.00	 Offset (B)5: 0.00	 Slope (M)6: 0.00	 Offset (B)6: 0.00
Computer Date	Computer Time	GGA String
06/09/2014	23:00:00.328	$GPGGA,230009,2547.0257,N,08001.5351,W,1,10,2.1,12,M,,M,,*66
06/09/2014	23:00:01.343	$GPGGA,230010,2547.0267,N,08001.5365,W,1,10,2.1,12,M,,M,,*6A
06/09/2014	23:00:02.342	$GPGGA,230011,2547.0278,N,08001.5379,W,1,10,2.1,12,M,,M,,*68
06/09/2014	23:00:03.374	$GPGGA,230012,2547.0289,N,08001.5394,W,1,10,2.1,12,M,,M,,*66
06/09/2014	23:00:04.386	$GPGGA,230013,2547.0300,N,08001.5408,W,1,10,2.1,12,M,,M,,*65
06/09/2014	23:00:05.378	$GPGGA,230014,2547.0311,N,08001.5423,W,1,10,2.1,12,M,,M,,*6B
06/09/2014	23:00:06.411	$GPGGA,230015,2547.0322,N,08001.5437,W,1,10,2.1,12,M,,M,,*6F
06/09/2014	23:00:07.413	$GPGGA,230016,2547.0332,N,08001.5451,W,1,10,2.1,12,M,,M,,*6D
06/09/2014	23:00:08.425	$GPGGA,230017,2547.0343,N,08001.5464,W,1,10,2.1,12,M,,M,,*6C
06/09/2014	23:00:09.425	$GPGGA,230018,2547.0354,N,08001.5478,W,1,10,2.1,12,M,,M,,*68
06/09/2014	23:00:10.436	$GPGGA,230019,2547.0365,N,08001.5493,W,1,10,2.1,12,M,,M,,*6E
06/09/2014	23:00:11.448	$GPGGA,230020,2547.0376,N,08001.5507,W,1,10,2.1,12,M,,M,,*6A
06/09/2014	23:00:12.470	$GPGGA,230021,2547.0387,N,08001.5521,W,1,10,2.1,12,M,,M,,*61
06/09/2014	23:00:13.452	$GPGGA,230022,2547.0398,N,08001.5535,W,1,10,2.1,12,M,,M,,*69
06/09/2014	23:00:14.484	$GPGGA,230023,2547.0410,N,08001.5550,W,1,10,2.1,12,M,,M,,*6C
06/09/2014	23:00:15.476	$GPGGA,230024,2547.0421,N,08001.5564,W,1,10,2.1,12,M,,M,,*6E
06/09/2014	23:00:16.508	$GPGGA,230025,2547.0433,N,08001.5578,W,1,10,2.1,12,M,,M,,*61
06/09/2014	23:00:17.499	$GPGGA,230026,2547.0444,N,08001.5592,W,1,10,2.1,12,M,,M,,*66
06/09/2014	23:00:18.531	$GPGGA,230027,2547.0455,N,08001.5607,W,1,10,2.1,12,M,,M,,*68
06/09/2014	23:00:19.523	$GPGGA,230028,2547.0466,N,08001.5621,W,1,10,2.1,12,M,,M,,*63
06/09/2014	23:00:20.515	$GPGGA,230029,2547.0479,N,08001.5634,W,1,10,2.1,12,M,,M,,*68
06/09/2014	23:00:21.547	$GPGGA,230030,2547.0490,N,08001.5648,W,1,10,2.1,12,M,,M,,*6C
06/09/2014	23:00:22.569	$GPGGA,230031,2547.0502,N,08001.5662,W,1,10,2.1,12,M,,M,,*6F
06/09/2014	23:00:23.561	$GPGGA,230032,2547.0513,N,08001.5677,W,1,10,2.1,12,M,,M,,*68
06/09/2014	23:00:24.593	$GPGGA,230033,2547.0524,N,08001.5691,W,1,10,2.1,12,M,,M,,*65
06/09/2014	23:00:25.584	$GPGGA,230034,2547.0537,N,08001.5705,W,1,10,2.1,12,M,,M,,*6C
06/09/2014	23:00:26.617	$GPGGA,230035,2547.0548,N,08001.5719,W,1,10,2.1,12,M,,M,,*68
06/09/2014	23:00:27.597	$GPGGA,230036,2547.0560,N,08001.5733,W,1,10,2.1,12,M,,M,,*69
06/09/2014	23:00:28.639	$GPGGA,230037,2547.0571,N,08001.5748,W,1,10,2.1,12,M,,M,,*64
06/09/2014	23:00:29.621	$GPGGA,230038,2547.0584,N,08001.5762,W,1,10,2.1,12,M,,M,,*69
06/09/2014	23:00:30.623	$GPGGA,230039,2547.0595,N,08001.5777,W,1,10,2.1,12,M,,M,,*6C
06/09/2014	23:00:31.645	$GPGGA,230040,2547.0606,N,08001.5791,W,1,10,2.1,12,M,,M,,*63
06/09/2014	23:00:31.912	$GPGGA,230041,2547.0618,N,08001.5805,W,1,10,2.1,12,M,,M,,*6F
06/09/2014	23:00:32.893	$GPGGA,230042,2547.0631,N,08001.5818,W,1,10,2.1,12,M,,M,,*6B
06/09/2014	23:00:33.895	$GPGGA,230043,2547.0640,N,08001.5834,W,1,10,2.1,12,M,,M,,*62
06/09/2014	23:00:35.038	$GPGGA,230044,2547.0653,N,08001.5847,W,1,10,2.1,12,M,,M,,*63
06/09/2014	23:00:35.929	$GPGGA,230045,2547.0665,N,08001.5861,W,1,10,2.1,12,M,,M,,*63
06/09/2014	23:00:36.922	$GPGGA,230046,2547.0676,N,08001.5875,W,1,10,2.1,12,M,,M,,*67
06/09/2014	23:00:38.082	$GPGGA,230047,2547.0686,N,08001.5890,W,1,10,2.1,12,M,,M,,*62
06/09/2014	23:00:38.952	$GPGGA,230048,2547.0699,N,08001.5904,W,1,10,2.1,12,M,,M,,*6F
06/09/2014	23:00:39.957	$GPGGA,230049,2547.0712,N,08001.5918,W,1,10,2.1,12,M,,M,,*61
06/09/2014	23:00:40.968	$GPGGA,230050,2547.0723,N,08001.5932,W,1,10,2.1,12,M,,M,,*63
06/09/2014	23:00:42.099	$GPGGA,230051,2547.0733,N,08001.5947,W,1,10,2.1,12,M,,M,,*61
06/09/2014	23:00:43.012	$GPGGA,230052,2547.0746,N,08001.5961,W,1,10,2.1,12,M,,M,,*64
06/09/2014	23:00:43.994	$GPGGA,230053,2547.0757,N,08001.5975,W,1,10,2.1,12,M,,M,,*60
06/09/2014	23:00:45.106	$GPGGA,230054,2547.0768,N,08001.5990,W,1,10,2.1,12,M,,M,,*60
06/09/2014	23:00:46.148	$GPGGA,230055,2547.0780,N,08001.6004,W,1,10,2.1,12,M,,M,,*60
06/09/2014	23:00:47.054	$GPGGA,230056,2547.0791,N,08001.6019,W,1,10,2.1,12,M,,M,,*6F
06/09/2014	23:00:48.180	$GPGGA,230057,2547.0802,N,08001.6034,W,1,10,2.1,12,M,,M,,*64
06/09/2014	23:00:49.143	$GPGGA,230058,2547.0813,N,08001.6048,W,1,10,2.1,12,M,,M,,*60
06/09/2014	23:00:50.145	$GPGGA,230059,2547.0826,N,08001.6062,W,1,10,2.1,12,M,,M,,*6F
06/09/2014	23:00:51.190	$GPGGA,230100,2547.0835,N,08001.6077,W,1,10,2.1,12,M,,M,,*64
06/09/2014	23:00:52.202	$GPGGA,230101,2547.0848,N,08001.6091,W,1,10,2.1,12,M,,M,,*67
06/09/2014	23:00:53.181	$GPGGA,230102,2547.0859,N,08001.6106,W,1,10,2.1,12,M,,M,,*6B
06/09/2014	23:00:54.213	$GPGGA,230103,2547.0870,N,08001.6120,W,1,10,2.1,12,M,,M,,*65
06/09/2014	23:00:55.215	$GPGGA,230104,2547.0881,N,08001.6135,W,1,10,2.1,12,M,,M,,*68
06/09/2014	23:00:56.237	$GPGGA,230105,2547.0892,N,08001.6150,W,1,10,2.1,12,M,,M,,*68
06/09/2014	23:00:57.228	$GPGGA,230106,2547.0903,N,08001.6164,W,1,10,2.1,12,M,,M,,*65
06/09/2014	23:00:58.240	$GPGGA,230107,2547.0914,N,08001.6179,W,1,10,2.1,12,M,,M,,*6E
06/09/2014	23:00:59.252	$GPGGA,230108,2547.0925,N,08001.6193,W,1,10,2.1,12,M,,M,,*67
06/09/2014	23:01:00.266	$GPGGA,230109,2547.0936,N,08001.6208,W,1,10,2.1,12,M,,M,,*65
06/09/2014	23:01:01.256	$GPGGA,230110,2547.0947,N,08001.6223,W,1,10,2.1,12,M,,M,,*62
06/09/2014	23:01:02.287	$GPGGA,230111,2547.0957,N,08001.6237,W,1,10,2.1,12,M,,M,,*67
06/09/2014	23:01:03.289	$GPGGA,230112,2547.0968,N,08001.6253,W,1,10,2.1,12,M,,M,,*6A
06/09/2014	23:01:04.280	$GPGGA,230113,2547.0979,N,08001.6266,W,1,10,2.1,12,M,,M,,*6D
06/09/2014	23:01:05.302	$GPGGA,230114,2547.0990,N,08001.6282,W,1,10,2.1,12,M,,M,,*67
06/09/2014	23:01:06.334	$GPGGA,230115,2547.1001,N,08001.6295,W,1,10,2.1,12,M,,M,,*60
06/09/2014	23:01:07.336	$GPGGA,230116,2547.1012,N,08001.6311,W,1,10,2.1,12,M,,M,,*6C
06/09/2014	23:01:08.358	$GPGGA,230117,2547.1022,N,08001.6326,W,1,10,2.1,12,M,,M,,*6A
06/09/2014	23:01:09.350	$GPGGA,230118,2547.1033,N,08001.6340,W,1,10,2.1,12,M,,M,,*65
06/09/2014	23:01:10.382	$GPGGA,230119,2547.1044,N,08001.6355,W,1,10,2.1,12,M,,M,,*60
06/09/2014	23:01:11.384	$GPGGA,230120,2547.1055,N,08001.6369,W,1,10,2.1,12,M,,M,,*65
06/09/2014	23:01:12.396	$GPGGA,230121,2547.1066,N,08001.6384,W,1,10,2.1,12,M,,M,,*67
06/09/2014	23:01:13.387	$GPGGA,230122,2547.1077,N,08001.6398,W,1,10,2.1,12,M,,M,,*69
06/09/2014	23:01:14.379	$GPGGA,230123,2547.1087,N,08001.6413,W,1,10,2.1,12,M,,M,,*63
06/09/2014	23:01:15.401	$GPGGA,230124,2547.1098,N,08001.6427,W,1,10,2.1,12,M,,M,,*6D
06/09/2014	23:01:16.453	$GPGGA,230125,2547.1109,N,08001.6442,W,1,10,2.1,12,M,,M,,*66
06/09/2014	23:01:17.425	$GPGGA,230126,2547.1120,N,08001.6456,W,1,10,2.1,12,M,,M,,*6B
06/09/2014	23:01:18.437	$GPGGA,230127,2547.1131,N,08001.6471,W,1,10,2.1,12,M,,M,,*6F
06/09/2014	23:01:19.458	$GPGGA,230128,2547.1142,N,08001.6485,W,1,10,2.1,12,M,,M,,*6F
06/09/2014	23:01:20.480	$GPGGA,230129,2547.1153,N,08001.6500,W,1,10,2.1,12,M,,M,,*62
06/09/2014	23:01:21.461	$GPGGA,230130,2547.1165,N,08001.6514,W,1,10,2.1,12,M,,M,,*6A
06/09/2014	23:01:22.494	$GPGGA,230131,2547.1176,N,08001.6529,W,1,10,2.1,12,M,,M,,*67
06/09/2014	23:01:23.495	$GPGGA,230132,2547.1185,N,08001.6543,W,1,10,2.1,12,M,,M,,*64
06/09/2014	23:01:24.497	$GPGGA,230133,2547.1196,N,08001.6558,W,1,10,2.1,12,M,,M,,*6D
06/09/2014	23:01:25.591	$GPGGA,230134,2547.1207,N,08001.6572,W,1,10,2.1,12,M,,M,,*69
06/09/2014	23:01:26.501	$GPGGA,230135,2547.1218,N,08001.6587,W,1,10,2.1,12,M,,M,,*6C
06/09/2014	23:01:27.624	$GPGGA,230136,2547.1230,N,08001.6601,W,1,10,2.1,12,M,,M,,*68
06/09/2014	23:01:28.545	$GPGGA,230137,2547.1241,N,08001.6615,W,1,10,2.1,12,M,,M,,*6A
06/09/2014	23:01:29.546	$GPGGA,230138,2547.1252,N,08001.6630,W,1,10,2.1,12,M,,M,,*60
06/09/2014	23:01:30.649	$GPGGA,230139,2547.1263,N,08001.6644,W,1,10,2.1,12,M,,M,,*60
06/09/2014	23:01:31.692	$GPGGA,230140,2547.1274,N,08001.6659,W,1,10,2.1,12,M,,M,,*64
06/09/2014	23:01:31.991	$GPGGA,230141,2547.1285,N,08001.6674,W,1,10,2.1,12,M,,M,,*64
06/09/2014	23:01:32.962	$GPGGA,230142,2547.1296,N,08001.6688,W,1,10,2.1,12,M,,M,,*66
06/09/2014	23:01:33.984	$GPGGA,230143,2547.1308,N,08001.6702,W,1,10,2.1,12,M,,M,,*62
06/09/2014	23:01:34.996	$GPGGA,230144,2547.1319,N,08001.6717,W,1,10,2.1,12,M,,M,,*61
06/09/2014	23:01:36.016	$GPGGA,230145,2547.1329,N,08001.6731,W,1,10,2.1,12,M,,M,,*67
06/09/2014	23:01:36.999	$GPGGA,230146,2547.1342,N,08001.6746,W,1,10,2.1,12,M,,M,,*69
06/09/2014	23:01:38.010	$GPGGA,230147,2547.1353,N,08001.6760,W,1,10,2.1,12,M,,M,,*6C
06/09/2014	23:01:39.053	$GPGGA,230148,2547.1364,N,08001.6774,W,1,10,2.1,12,M,,M,,*62
06/09/2014	23:01:40.044	$GPGGA,230149,2547.1375,N,08001.6788,W,1,10,2.1,12,M,,M,,*60
06/09/2014	23:01:41.056	$GPGGA,230150,2547.1387,N,08001.6803,W,1,10,2.1,12,M,,M,,*69
06/09/2014	23:01:42.068	$GPGGA,230151,2547.1398,N,08001.6817,W,1,10,2.1,12,M,,M,,*63
06/09/2014	23:01:43.080	$GPGGA,230152,2547.1409,N,08001.6832,W,1,10,2.1,12,M,,M,,*68
06/09/2014	23:01:44.092	$GPGGA,230153,2547.1420,N,08001.6846,W,1,10,2.1,12,M,,M,,*61
06/09/2014	23:01:45.073	$GPGGA,230154,2547.1433,N,08001.6860,W,1,10,2.1,12,M,,M,,*60
06/09/2014	23:01:46.116	$GPGGA,230155,2547.1444,N,08001.6873,W,1,10,2.1,12,M,,M,,*63
06/09/2014	23:01:47.117	$GPGGA,230156,2547.1455,N,08001.6889,W,1,10,2.1,12,M,,M,,*65
06/09/2014	23:01:48.129	$GPGGA,230157,2547.1467,N,08001.6902,W,1,10,2.1,12,M,,M,,*67
06/09/2014	23:01:49.121	$GPGGA,230158,2547.1478,N,08001.6915,W,1,10,2.1,12,M,,M,,*60
06/09/2014	23:01:50.123	$GPGGA,230159,2547.1488,N,08001.6929,W,1,10,2.1,12,M,,M,,*61
06/09/2014	23:01:51.155	$GPGGA,230200,2547.1501,N,08001.6944,W,1,10,2.1,12,M,,M,,*65
06/09/2014	23:01:52.177	$GPGGA,230201,2547.1513,N,08001.6958,W,1,10,2.1,12,M,,M,,*6A
06/09/2014	23:01:53.169	$GPGGA,230202,2547.1524,N,08001.6973,W,1,10,2.1,12,M,,M,,*64
06/09/2014	23:01:54.210	$GPGGA,230203,2547.1535,N,08001.6987,W,1,10,2.1,12,M,,M,,*6E
06/09/2014	23:01:55.192	$GPGGA,230204,2547.1546,N,08001.7001,W,1,10,2.1,12,M,,M,,*6B
06/09/2014	23:01:56.193	$GPGGA,230205,2547.1557,N,08001.7016,W,1,10,2.1,12,M,,M,,*6C
06/09/2014	23:01:57.205	$GPGGA,230206,2547.1568,N,08001.7030,W,1,10,2.1,12,M,,M,,*67
06/09/2014	23:01:58.217	$GPGGA,230207,2547.1581,N,08001.7043,W,1,10,2.1,12,M,,M,,*65
06/09/2014	23:01:59.239	$GPGGA,230208,2547.1592,N,08001.7057,W,1,10,2.1,12,M,,M,,*6D
06/09/2014	23:02:00.271	$GPGGA,230209,2547.1604,N,08001.7072,W,1,10,2.1,12,M,,M,,*67
06/09/2014	23:02:01.253	$GPGGA,230210,2547.1615,N,08001.7086,W,1,10,2.1,12,M,,M,,*64
06/09/2014	23:02:02.255	$GPGGA,230211,2547.1626,N,08001.7100,W,1,10,2.1,12,M,,M,,*6A
06/09/2014	23:02:03.287	$GPGGA,230212,2547.1637,N,08001.7114,W,1,10,2.1,12,M,,M,,*6C
06/09/2014	23:02:04.258	$GPGGA,230213,2547.1647,N,08001.7128,W,1,10,2.1,12,M,,M,,*65
06/09/2014	23:02:05.280	$GPGGA,230214,2547.1660,N,08001.7143,W,1,10,2.1,12,M,,M,,*6A
06/09/2014	23:02:06.322	$GPGGA,230215,2547.1672,N,08001.7157,W,1,10,2.1,12,M,,M,,*6D
06/09/2014	23:02:07.425	$GPGGA,230216,2547.1683,N,08001.7171,W,1,10,2.1,12,M,,M,,*64
06/09/2014	23:02:08.306	$GPGGA,230217,2547.1693,N,08001.7186,W,1,10,2.1,12,M,,M,,*6C
06/09/2014	23:02:09.328	$GPGGA,230218,2547.1705,N,08001.7200,W,1,10,2.1,12,M,,M,,*60
06/09/2014	23:02:10.431	$GPGGA,230219,2547.1716,N,08001.7214,W,1,10,2.1,12,M,,M,,*66
06/09/2014	23:02:11.351	$GPGGA,230220,2547.1727,N,08001.7227,W,1,10,2.1,12,M,,M,,*6E
06/09/2014	23:02:12.362	$GPGGA,230221,2547.1738,N,08001.7241,W,1,10,2.1,12,M,,M,,*61
06/09/2014	23:02:13.354	$GPGGA,230222,2547.1749,N,08001.7255,W,1,10,2.1,12,M,,M,,*61
06/09/2014	23:02:14.465	$GPGGA,230223,2547.1759,N,08001.7269,W,1,10,2.1,12,M,,M,,*6E
06/09/2014	23:02:15.509	$GPGGA,230224,2547.1770,N,08001.7284,W,1,10,2.1,12,M,,M,,*61
06/09/2014	23:02:16.391	$GPGGA,230225,2547.1783,N,08001.7298,W,1,10,2.1,12,M,,M,,*61
06/09/2014	23:02:17.500	$GPGGA,230226,2547.1794,N,08001.7312,W,1,10,2.1,12,M,,M,,*67
06/09/2014	23:02:18.535	$GPGGA,230227,2547.1803,N,08001.7327,W,1,10,2.1,12,M,,M,,*61
06/09/2014	23:02:19.446	$GPGGA,230228,2547.1814,N,08001.7341,W,1,10,2.1,12,M,,M,,*68
06/09/2014	23:02:20.569	$GPGGA,230229,2547.1825,N,08001.7355,W,1,10,2.1,12,M,,M,,*6E
06/09/2014	23:02:21.445	$GPGGA,230230,2547.1838,N,08001.7368,W,1,10,2.1,12,M,,M,,*64
06/09/2014	23:02:22.569	$GPGGA,230231,2547.1848,N,08001.7382,W,1,10,2.1,12,M,,M,,*66
06/09/2014	23:02:23.474	$GPGGA,230232,2547.1859,N,08001.7396,W,1,10,2.1,12,M,,M,,*60
06/09/2014	23:02:24.596	$GPGGA,230233,2547.1870,N,08001.7410,W,1,10,2.1,12,M,,M,,*63
06/09/2014	23:02:25.568	$GPGGA,230234,2547.1881,N,08001.7425,W,1,10,2.1,12,M,,M,,*6C
06/09/2014	23:02:26.611	$GPGGA,230235,2547.1890,N,08001.7439,W,1,10,2.1,12,M,,M,,*60
06/09/2014	23:02:27.624	$GPGGA,230236,2547.1902,N,08001.7453,W,1,10,2.1,12,M,,M,,*65
06/09/2014	23:02:28.613	$GPGGA,230237,2547.1911,N,08001.7467,W,1,10,2.1,12,M,,M,,*61
06/09/2014	23:02:29.615	$GPGGA,230238,2547.1922,N,08001.7482,W,1,10,2.1,12,M,,M,,*65
06/09/2014	23:02:30.646	$GPGGA,230239,2547.1933,N,08001.7496,W,1,10,2.1,12,M,,M,,*61
06/09/2014	23:02:31.658	$GPGGA,230240,2547.1944,N,08001.7509,W,1,10,2.1,12,M,,M,,*68
06/09/2014	23:02:31.968	$GPGGA,230241,2547.1954,N,08001.7523,W,1,10,2.1,12,M,,M,,*60
06/09/2014	23:02:32.950	$GPGGA,230242,2547.1965,N,08001.7538,W,1,10,2.1,12,M,,M,,*6B
06/09/2014	23:02:33.972	$GPGGA,230243,2547.1975,N,08001.7552,W,1,10,2.1,12,M,,M,,*67
06/09/2014	23:02:34.974	$GPGGA,230244,2547.1986,N,08001.7566,W,1,10,2.1,12,M,,M,,*6B
06/09/2014	23:02:36.006	$GPGGA,230245,2547.1997,N,08001.7580,W,1,10,2.1,12,M,,M,,*62
06/09/2014	23:02:36.997	$GPGGA,230246,2547.2007,N,08001.7594,W,1,10,2.1,12,M,,M,,*67
06/09/2014	23:02:37.989	$GPGGA,230247,2547.2018,N,08001.7608,W,1,10,2.1,12,M,,M,,*6E
06/09/2014	23:02:39.011	$GPGGA,230248,2547.2027,N,08001.7621,W,1,10,2.1,12,M,,M,,*66
06/09/2014	23:02:40.013	$GPGGA,230249,2547.2038,N,08001.7635,W,1,10,2.1,12,M,,M,,*6C
06/09/2014	23:02:41.025	$GPGGA,230250,2547.2048,N,08001.7649,W,1,10,2.1,12,M,,M,,*68
06/09/2014	23:02:42.086	$GPGGA,230251,2547.2059,N,08001.7663,W,1,10,2.1,12,M,,M,,*61
06/09/2014	23:02:43.049	$GPGGA,230252,2547.2070,N,08001.7677,W,1,10,2.1,12,M,,M,,*6C
06/09/2014	23:02:44.091	$GPGGA,230253,2547.2081,N,08001.7691,W,1,10,2.1,12,M,,M,,*6B
06/09/2014	23:02:45.062	$GPGGA,230254,2547.2092,N,08001.7704,W,1,10,2.1,12,M,,M,,*63
06/09/2014	23:02:46.070	$GPGGA,230255,2547.2103,N,08001.7717,W,1,10,2.1,12,M,,M,,*69
06/09/2014	23:02:47.105	$GPGGA,230256,2547.2113,N,08001.7731,W,1,10,2.1,12,M,,M,,*6F
06/09/2014	23:02:48.127	$GPGGA,230257,2547.2124,N,08001.7746,W,1,10,2.1,12,M,,M,,*6A
06/09/2014	23:02:49.098	$GPGGA,230258,2547.2135,N,08001.7760,W,1,10,2.1,12,M,,M,,*61
06/09/2014	23:02:50.121	$GPGGA,230259,2547.2146,N,08001.7772,W,1,10,2.1,12,M,,M,,*67
06/09/2014	23:02:51.173	$GPGGA,230300,2547.2157,N,08001.7786,W,1,10,2.1,12,M,,M,,*61
06/09/2014	23:02:52.155	$GPGGA,230301,2547.2168,N,08001.7800,W,1,10,2.1,12,M,,M,,*6D
06/09/2014	23:02:53.148	$GPGGA,230302,2547.2179,N,08001.7814,W,1,10,2.1,12,M,,M,,*6B
06/09/2014	23:02:54.179	$GPGGA,230303,2547.2191,N,08001.7827,W,1,10,2.1,12,M,,M,,*6C
06/09/2014	23:02:55.180	$GPGGA,230304,2547.2202,N,08001.7840,W,1,10,2.1,12,M,,M,,*63
06/09/2014	23:02:56.202	$GPGGA,230305,2547.2213,N,08001.7854,W,1,10,2.1,12,M,,M,,*67
06/09/2014	23:02:57.184	$GPGGA,230306,2547.2224,N,08001.7868,W,1,10,2.1,12,M,,M,,*6F
06/09/2014	23:02:58.307	$GPGGA,230307,2547.2235,N,08001.7881,W,1,10,2.1,12,M,,M,,*69
06/09/2014	23:02:59.218	$GPGGA,230308,2547.2246,N,08001.7894,W,1,10,2.1,12,M,,M,,*66
06/09/2014	23:03:00.230	$GPGGA,230309,2547.2258,N,08001.7908,W,1,10,2.1,12,M,,M,,*6C
06/09/2014	23:03:01.231	$GPGGA,230310,2547.2269,N,08001.7921,W,1,10,2.1,12,M,,M,,*6D
06/09/2014	23:03:02.345	$GPGGA,230311,2547.2279,N,08001.7935,W,1,10,2.1,12,M,,M,,*68
06/09/2014	23:03:03.275	$GPGGA,230312,2547.2290,N,08001.7948,W,1,10,2.1,12,M,,M,,*66
06/09/2014	23:03:04.266	$GPGGA,230313,2547.2303,N,08001.7962,W,1,10,2.1,12,M,,M,,*64
06/09/2014	23:03:05.258	$GPGGA,230314,2547.2312,N,08001.7975,W,1,10,2.1,12,M,,M,,*65
06/09/2014	23:03:06.300	$GPGGA,230315,2547.2325,N,08001.7988,W,1,10,2.1,12,M,,M,,*62
06/09/2014	23:03:07.393	$GPGGA,230316,2547.2337,N,08001.8002,W,1,10,2.1,12,M,,M,,*66
06/09/2014	23:03:08.385	$GPGGA,230317,2547.2348,N,08001.8016,W,1,10,2.1,12,M,,M,,*6A
06/09/2014	23:03:09.386	$GPGGA,230318,2547.2358,N,08001.8029,W,1,10,2.1,12,M,,M,,*68
06/09/2014	23:03:10.317	$GPGGA,230319,2547.2370,N,08001.8042,W,1,10,2.1,12,M,,M,,*6E
06/09/2014	23:03:11.441	$GPGGA,230320,2547.2381,N,08001.8056,W,1,10,2.1,12,M,,M,,*6F
06/09/2014	23:03:12.422	$GPGGA,230321,2547.2392,N,08001.8069,W,1,10,2.1,12,M,,M,,*60
06/09/2014	23:03:13.343	$GPGGA,230322,2547.2402,N,08001.8082,W,1,10,2.1,12,M,,M,,*68
06/09/2014	23:03:14.457	$GPGGA,230323,2547.2415,N,08001.8096,W,1,10,2.1,12,M,,M,,*6A
06/09/2014	23:03:15.468	$GPGGA,230324,2547.2426,N,08001.8110,W,1,10,2.1,12,M,,M,,*62
06/09/2014	23:03:16.481	$GPGGA,230325,2547.2438,N,08001.8123,W,1,10,2.1,12,M,,M,,*6C
06/09/2014	23:03:17.471	$GPGGA,230326,2547.2449,N,08001.8136,W,1,10,2.1,12,M,,M,,*6D
06/09/2014	23:03:18.520	$GPGGA,230327,2547.2459,N,08001.8150,W,1,10,2.1,12,M,,M,,*6D
06/09/2014	23:03:19.505	$GPGGA,230328,2547.2471,N,08001.8163,W,1,10,2.1,12,M,,M,,*68
06/09/2014	23:03:20.532	$GPGGA,230329,2547.2482,N,08001.8177,W,1,10,2.1,12,M,,M,,*60
06/09/2014	23:03:21.509	$GPGGA,230330,2547.2492,N,08001.8190,W,1,10,2.1,12,M,,M,,*60
06/09/2014	23:03:22.510	$GPGGA,230331,2547.2503,N,08001.8204,W,1,10,2.1,12,M,,M,,*66
06/09/2014	23:03:23.542	$GPGGA,230332,2547.2514,N,08001.8217,W,1,10,2.1,12,M,,M,,*61
06/09/2014	23:03:24.544	$GPGGA,230333,2547.2525,N,08001.8231,W,1,10,2.1,12,M,,M,,*66
06/09/2014	23:03:25.556	$GPGGA,230334,2547.2536,N,08001.8245,W,1,10,2.1,12,M,,M,,*60
06/09/2014	23:03:26.557	$GPGGA,230335,2547.2547,N,08001.8259,W,1,10,2.1,12,M,,M,,*6A
06/09/2014	23:03:27.589	$GPGGA,230336,2547.2558,N,08001.8273,W,1,10,2.1,12,M,,M,,*6F
06/09/2014	23:03:28.571	$GPGGA,230337,2547.2569,N,08001.8287,W,1,10,2.1,12,M,,M,,*67
06/09/2014	23:03:29.583	$GPGGA,230338,2547.2579,N,08001.8300,W,1,10,2.1,12,M,,M,,*67
06/09/2014	23:03:30.605	$GPGGA,230339,2547.2590,N,08001.8313,W,1,10,2.1,12,M,,M,,*63
06/09/2014	23:03:31.617	$GPGGA,230340,2547.2601,N,08001.8327,W,1,10,2.1,12,M,,M,,*61
06/09/2014	23:03:31.927	$GPGGA,230341,2547.2612,N,08001.8340,W,1,10,2.1,12,M,,M,,*63
06/09/2014	23:03:32.929	$GPGGA,230342,2547.2623,N,08001.8354,W,1,10,2.1,12,M,,M,,*67
06/09/2014	23:03:33.951	$GPGGA,230343,2547.2634,N,08001.8368,W,1,10,2.1,12,M,,M,,*6F
06/09/2014	23:03:34.943	$GPGGA,230344,2547.2645,N,08001.8382,W,1,10,2.1,12,M,,M,,*6A
06/09/2014	23:03:35.944	$GPGGA,230345,2547.2655,N,08001.8396,W,1,10,2.1,12,M,,M,,*6F
06/09/2014	23:03:36.966	$GPGGA,230346,2547.2666,N,08001.8410,W,1,10,2.1,12,M,,M,,*65
06/09/2014	23:03:37.978	$GPGGA,230347,2547.2677,N,08001.8423,W,1,10,2.1,12,M,,M,,*64
06/09/2014	23:03:38.990	$GPGGA,230348,2547.2688,N,08001.8436,W,1,10,2.1,12,M,,M,,*6F
06/09/2014	23:03:39.981	$GPGGA,230349,2547.2699,N,08001.8450,W,1,10,2.1,12,M,,M,,*6E
06/09/2014	23:03:41.003	$GPGGA,230350,2547.2710,N,08001.8464,W,1,10,2.1,12,M,,M,,*61
06/09/2014	23:03:42.035	$GPGGA,230351,2547.2720,N,08001.8477,W,1,10,2.1,12,M,,M,,*61
06/09/2014	23:03:43.016	$GPGGA,230352,2547.2731,N,08001.8491,W,1,10,2.1,12,M,,M,,*6A
06/09/2014	23:03:44.018	$GPGGA,230353,2547.2742,N,08001.8504,W,1,10,2.1,12,M,,M,,*62
06/09/2014	23:03:45.031	$GPGGA,230354,2547.2752,N,08001.8519,W,1,10,2.1,12,M,,M,,*68
06/09/2014	23:03:46.072	$GPGGA,230355,2547.2762,N,08001.8533,W,1,10,2.1,12,M,,M,,*62
06/09/2014	23:03:47.070	$GPGGA,230356,2547.2773,N,08001.8546,W,1,10,2.1,12,M,,M,,*63
06/09/2014	23:03:48.177	$GPGGA,230357,2547.2784,N,08001.8560,W,1,10,2.1,12,M,,M,,*6E
06/09/2014	23:03:49.089	$GPGGA,230358,2547.2793,N,08001.8574,W,1,10,2.1,12,M,,M,,*62
06/09/2014	23:03:50.211	$GPGGA,230359,2547.2803,N,08001.8587,W,1,10,2.1,12,M,,M,,*69
06/09/2014	23:03:51.122	$GPGGA,230400,2547.2814,N,08001.8602,W,1,10,2.1,12,M,,M,,*6A
06/09/2014	23:03:52.100	$GPGGA,230401,2547.2825,N,08001.8616,W,1,10,2.1,12,M,,M,,*6C
06/09/2014	23:03:53.207	$GPGGA,230402,2547.2836,N,08001.8629,W,1,10,2.1,12,M,,M,,*61
06/09/2014	23:03:54.137	$GPGGA,230403,2547.2846,N,08001.8643,W,1,10,2.1,12,M,,M,,*6B
06/09/2014	23:03:55.139	$GPGGA,230404,2547.2857,N,08001.8656,W,1,10,2.1,12,M,,M,,*68
06/09/2014	23:03:56.262	$GPGGA,230405,2547.2868,N,08001.8671,W,1,10,2.1,12,M,,M,,*60
06/09/2014	23:03:57.172	$GPGGA,230406,2547.2878,N,08001.8685,W,1,10,2.1,12,M,,M,,*69
06/09/2014	23:03:58.285	$GPGGA,230407,2547.2887,N,08001.8697,W,1,10,2.1,12,M,,M,,*6B
06/09/2014	23:03:59.277	$GPGGA,230408,2547.2900,N,08001.8711,W,1,10,2.1,12,M,,M,,*65
06/09/2014	23:04:00.187	$GPGGA,230409,2547.2910,N,08001.8725,W,1,10,2.1,12,M,,M,,*62
06/09/2014	23:04:01.290	$GPGGA,230410,2547.2919,N,08001.8739,W,1,10,2.1,12,M,,M,,*6E
06/09/2014	23:04:02.332	$GPGGA,230411,2547.2930,N,08001.8753,W,1,10,2.1,12,M,,M,,*68
06/09/2014	23:04:03.324	$GPGGA,230412,2547.2941,N,08001.8766,W,1,10,2.1,12,M,,M,,*6B
06/09/2014	23:04:04.326	$GPGGA,230413,2547.2952,N,08001.8779,W,1,10,2.1,12,M,,M,,*66
06/09/2014	23:04:05.338	$GPGGA,230414,2547.2962,N,08001.8793,W,1,10,2.1,12,M,,M,,*66
06/09/2014	23:04:06.350	$GPGGA,230415,2547.2973,N,08001.8808,W,1,10,2.1,12,M,,M,,*6A
06/09/2014	23:04:07.372	$GPGGA,230416,2547.2986,N,08001.8822,W,1,10,2.1,12,M,,M,,*6B
06/09/2014	23:04:08.391	$GPGGA,230417,2547.2997,N,08001.8835,W,1,10,2.1,12,M,,M,,*6C
06/09/2014	23:04:09.365	$GPGGA,230418,2547.3006,N,08001.8849,W,1,10,2.1,12,M,,M,,*68
06/09/2014	23:04:10.397	$GPGGA,230419,2547.3019,N,08001.8862,W,1,10,2.1,12,M,,M,,*6E
06/09/2014	23:04:11.409	$GPGGA,230420,2547.3028,N,08001.8876,W,1,10,2.1,12,M,,M,,*63
06/09/2014	23:04:12.421	$GPGGA,230421,2547.3041,N,08001.8889,W,1,10,2.1,12,M,,M,,*6D
06/09/2014	23:04:13.413	$GPGGA,230422,2547.3051,N,08001.8903,W,1,10,2.1,12,M,,M,,*6C
06/09/2014	23:04:14.434	$GPGGA,230423,2547.3062,N,08001.8916,W,1,10,2.1,12,M,,M,,*69
06/09/2014	23:04:15.446	$GPGGA,230424,2547.3074,N,08001.8931,W,1,10,2.1,12,M,,M,,*6C
06/09/2014	23:04:16.468	$GPGGA,230425,2547.3084,N,08001.8945,W,1,10,2.1,12,M,,M,,*61
06/09/2014	23:04:17.459	$GPGGA,230426,2547.3095,N,08001.8959,W,1,10,2.1,12,M,,M,,*6F
06/09/2014	23:04:18.461	$GPGGA,230427,2547.3107,N,08001.8971,W,1,10,2.1,12,M,,M,,*6E
06/09/2014	23:04:19.494	$GPGGA,230428,2547.3118,N,08001.8985,W,1,10,2.1,12,M,,M,,*64
06/09/2014	23:04:20.505	$GPGGA,230429,2547.3129,N,08001.8999,W,1,10,2.1,12,M,,M,,*6A
06/09/2014	23:04:21.497	$GPGGA,230430,2547.3140,N,08001.9011,W,1,10,2.1,12,M,,M,,*65
06/09/2014	23:04:22.488	$GPGGA,230431,2547.3152,N,08001.9025,W,1,10,2.1,12,M,,M,,*60
06/09/2014	23:04:23.521	$GPGGA,230432,2547.3163,N,08001.9039,W,1,10,2.1,12,M,,M,,*6C
06/09/2014	23:04:24.553	$GPGGA,230433,2547.3175,N,08001.9053,W,1,10,2.1,12,M,,M,,*66
06/09/2014	23:04:25.524	$GPGGA,230434,2547.3186,N,08001.9065,W,1,10,2.1,12,M,,M,,*68
06/09/2014	23:04:26.536	$GPGGA,230435,2547.3197,N,08001.9079,W,1,10,2.1,12,M,,M,,*64
06/09/2014	23:04:27.568	$GPGGA,230436,2547.3208,N,08001.9093,W,1,10,2.1,12,M,,M,,*66
06/09/2014	23:04:28.550	$GPGGA,230437,2547.3219,N,08001.9105,W,1,10,2.1,12,M,,M,,*69
06/09/2014	23:04:29.562	$GPGGA,230438,2547.3230,N,08001.9118,W,1,10,2.1,12,M,,M,,*61
06/09/2014	23:04:30.614	$GPGGA,230439,2547.3243,N,08001.9133,W,1,10,2.1,12,M,,M,,*6D
06/09/2014	23:04:31.606	$GPGGA,230440,2547.3254,N,08001.9145,W,1,10,2.1,12,M,,M,,*64
06/09/2014	23:04:31.914	$GPGGA,230441,2547.3266,N,08001.9158,W,1,10,2.1,12,M,,M,,*68
06/09/2014	23:04:32.885	$GPGGA,230442,2547.3277,N,08001.9171,W,1,10,2.1,12,M,,M,,*60
06/09/2014	23:04:33.937	$GPGGA,230443,2547.3288,N,08001.9185,W,1,10,2.1,12,M,,M,,*6A
06/09/2014	23:04:34.917	$GPGGA,230444,2547.3299,N,08001.9199,W,1,10,2.1,12,M,,M,,*60
06/09/2014	23:04:35.933	$GPGGA,230445,2547.3313,N,08001.9212,W,1,10,2.1,12,M,,M,,*62
06/09/2014	23:04:36.919	$GPGGA,230446,2547.3324,N,08001.9225,W,1,10,2.1,12,M,,M,,*61
06/09/2014	23:04:37.935	$GPGGA,230447,2547.3335,N,08001.9238,W,1,10,2.1,12,M,,M,,*6C
06/09/2014	23:04:39.052	$GPGGA,230448,2547.3348,N,08001.9252,W,1,10,2.1,12,M,,M,,*65
06/09/2014	23:04:39.947	$GPGGA,230449,2547.3360,N,08001.9267,W,1,10,2.1,12,M,,M,,*68
06/09/2014	23:04:40.936	$GPGGA,230450,2547.3371,N,08001.9279,W,1,10,2.1,12,M,,M,,*6F
06/09/2014	23:04:41.959	$GPGGA,230451,2547.3384,N,08001.9292,W,1,10,2.1,12,M,,M,,*61
06/09/2014	23:04:42.965	$GPGGA,230452,2547.3396,N,08001.9306,W,1,10,2.1,12,M,,M,,*6D
06/09/2014	23:04:43.947	$GPGGA,230453,2547.3407,N,08001.9319,W,1,10,2.0,12,M,,M,,*6C
06/09/2014	23:04:45.089	$GPGGA,230454,2547.3420,N,08001.9332,W,1,10,2.0,12,M,,M,,*67
06/09/2014	23:04:46.078	$GPGGA,230455,2547.3431,N,08001.9346,W,1,10,2.0,12,M,,M,,*65
06/09/2014	23:04:46.978	$GPGGA,230456,2547.3443,N,08001.9361,W,1,10,2.0,12,M,,M,,*66
06/09/2014	23:04:48.095	$GPGGA,230457,2547.3454,N,08001.9373,W,1,10,2.0,12,M,,M,,*62
06/09/2014	23:04:48.970	$GPGGA,230458,2547.3467,N,08001.9387,W,1,10,2.0,12,M,,M,,*66
06/09/2014	23:04:50.066	$GPGGA,230459,2547.3479,N,08001.9401,W,1,9,2.1,12,M,,M,,*58
06/09/2014	23:04:51.102	$GPGGA,230500,2547.3490,N,08001.9415,W,1,9,2.1,12,M,,M,,*57
06/09/2014	23:04:52.067	$GPGGA,230501,2547.3504,N,08001.9429,W,1,10,2.1,12,M,,M,,*6D
06/09/2014	23:04:53.073	$GPGGA,230502,2547.3515,N,08001.9444,W,1,10,2.1,12,M,,M,,*65
06/09/2014	23:04:54.079	$GPGGA,230503,2547.3526,N,08001.9456,W,1,10,2.1,12,M,,M,,*67
06/09/2014	23:04:55.119	$GPGGA,230504,2547.3539,N,08001.9470,W,1,10,2.1,12,M,,M,,*6A
06/09/2014	23:04:56.091	$GPGGA,230505,2547.3550,N,08001.9484,W,1,10,2.0,12,M,,M,,*6E
06/09/2014	23:04:57.107	$GPGGA,230506,2547.3562,N,08001.9498,W,1,10,2.0,12,M,,M,,*61
06/09/2014	23:04:58.092	$GPGGA,230507,2547.3573,N,08001.9512,W,1,10,2.0,12,M,,M,,*63
06/09/2014	23:04:59.108	$GPGGA,230508,2547.3584,N,08001.9525,W,1,10,2.0,12,M,,M,,*60
06/09/2014	23:05:00.135	$GPGGA,230509,2547.3595,N,08001.9539,W,1,10,2.0,12,M,,M,,*6C
06/09/2014	23:05:01.110	$GPGGA,230510,2547.3608,N,08001.9553,W,1,10,2.0,12,M,,M,,*6F
06/09/2014	23:05:02.106	$GPGGA,230511,2547.3620,N,08001.9567,W,1,10,2.0,12,M,,M,,*63
06/09/2014	23:05:03.132	$GPGGA,230512,2547.3631,N,08001.9581,W,1,10,2.0,12,M,,M,,*68
06/09/2014	23:05:04.151	$GPGGA,230513,2547.3642,N,08001.9595,W,1,10,2.0,12,M,,M,,*68
06/09/2014	23:05:05.134	$GPGGA,230514,2547.3653,N,08001.9610,W,1,10,2.0,12,M,,M,,*61
06/09/2014	23:05:06.130	$GPGGA,230515,2547.3665,N,08001.9624,W,1,10,2.0,12,M,,M,,*62
06/09/2014	23:05:07.145	$GPGGA,230516,2547.3676,N,08001.9637,W,1,10,2.0,12,M,,M,,*61
06/09/2014	23:05:08.171	$GPGGA,230517,2547.3688,N,08001.9653,W,1,10,2.0,12,M,,M,,*63
06/09/2014	23:05:09.146	$GPGGA,230518,2547.3699,N,08001.9667,W,1,10,2.0,12,M,,M,,*6B
06/09/2014	23:05:10.162	$GPGGA,230519,2547.3709,N,08001.9680,W,1,10,2.0,12,M,,M,,*6B
06/09/2014	23:05:11.168	$GPGGA,230520,2547.3720,N,08001.9693,W,1,10,2.0,12,M,,M,,*68
06/09/2014	23:05:12.154	$GPGGA,230521,2547.3732,N,08001.9707,W,1,10,2.0,12,M,,M,,*66
06/09/2014	23:05:13.160	$GPGGA,230522,2547.3742,N,08001.9722,W,1,10,2.0,12,M,,M,,*65
06/09/2014	23:05:14.196	$GPGGA,230523,2547.3753,N,08001.9736,W,1,10,2.0,12,M,,M,,*61
06/09/2014	23:05:15.172	$GPGGA,230524,2547.3764,N,08001.9751,W,1,10,2.0,12,M,,M,,*63
06/09/2014	23:05:16.198	$GPGGA,230525,2547.3775,N,08001.9765,W,1,10,2.0,12,M,,M,,*65
06/09/2014	23:05:17.193	$GPGGA,230526,2547.3786,N,08001.9779,W,1,10,2.0,12,M,,M,,*67
06/09/2014	23:05:18.169	$GPGGA,230527,2547.3797,N,08001.9792,W,1,10,2.0,12,M,,M,,*63
06/09/2014	23:05:19.195	$GPGGA,230528,2547.3808,N,08001.9806,W,1,10,2.0,12,M,,M,,*67
06/09/2014	23:05:20.211	$GPGGA,230529,2547.3818,N,08001.9820,W,1,10,2.0,12,M,,M,,*63
06/09/2014	23:05:21.187	$GPGGA,230530,2547.3829,N,08001.9834,W,1,10,2.0,12,M,,M,,*6C
06/09/2014	23:05:22.223	$GPGGA,230531,2547.3840,N,08001.9848,W,1,10,2.0,12,M,,M,,*69
06/09/2014	23:05:23.219	$GPGGA,230532,2547.3851,N,08001.9863,W,1,10,2.0,12,M,,M,,*63
06/09/2014	23:05:24.196	$GPGGA,230533,2547.3861,N,08001.9877,W,1,10,2.0,12,M,,M,,*64
06/09/2014	23:05:25.200	$GPGGA,230534,2547.3872,N,08001.9891,W,1,10,2.0,12,M,,M,,*69
06/09/2014	23:05:26.246	$GPGGA,230535,2547.3882,N,08001.9904,W,1,10,2.0,12,M,,M,,*6A
06/09/2014	23:05:27.221	$GPGGA,230536,2547.3893,N,08001.9918,W,1,10,2.0,12,M,,M,,*64
06/09/2014	23:05:28.224	$GPGGA,230537,2547.3904,N,08001.9931,W,1,10,2.0,12,M,,M,,*61
06/09/2014	23:05:29.317	$GPGGA,230538,2547.3915,N,08001.9946,W,1,10,2.0,12,M,,M,,*6E
06/09/2014	23:05:30.249	$GPGGA,230539,2547.3926,N,08001.9960,W,1,10,2.0,12,M,,M,,*6B
06/09/2014	23:05:31.406	$GPGGA,230540,2547.3937,N,08001.9975,W,1,10,2.0,12,M,,M,,*61
06/09/2014	23:05:32.001	$GPGGA,230541,2547.3948,N,08001.9987,W,1,10,2.0,12,M,,M,,*65
06/09/2014	23:05:33.037	$GPGGA,230542,2547.3958,N,08002.0001,W,1,10,2.0,12,M,,M,,*6A
06/09/2014	23:05:34.012	$GPGGA,230543,2547.3969,N,08002.0014,W,1,10,2.0,12,M,,M,,*6D
06/09/2014	23:05:34.898	$GPGGA,230544,2547.3980,N,08002.0029,W,1,10,2.0,12,M,,M,,*63
06/09/2014	23:05:36.034	$GPGGA,230545,2547.3991,N,08002.0043,W,1,10,2.0,12,M,,M,,*6E
06/09/2014	23:05:37.060	$GPGGA,230546,2547.4002,N,08002.0056,W,1,10,2.0,12,M,,M,,*6D
06/09/2014	23:05:37.996	$GPGGA,230547,2547.4013,N,08002.0070,W,1,10,2.0,12,M,,M,,*68
06/09/2014	23:05:38.901	$GPGGA,230548,2547.4024,N,08002.0083,W,1,10,2.0,12,M,,M,,*6F
06/09/2014	23:05:39.987	$GPGGA,230549,2547.4035,N,08002.0098,W,1,10,2.0,12,M,,M,,*64
06/09/2014	23:05:41.064	$GPGGA,230550,2547.4045,N,08002.0112,W,1,10,2.0,12,M,,M,,*68
06/09/2014	23:05:42.028	$GPGGA,230551,2547.4057,N,08002.0126,W,1,10,2.0,12,M,,M,,*6D
06/09/2014	23:05:43.095	$GPGGA,230552,2547.4068,N,08002.0139,W,1,10,2.0,12,M,,M,,*6C
06/09/2014	23:05:44.058	$GPGGA,230553,2547.4079,N,08002.0153,W,1,10,2.1,12,M,,M,,*60
06/09/2014	23:05:45.016	$GPGGA,230554,2547.4089,N,08002.0166,W,1,10,2.1,12,M,,M,,*6E
06/09/2014	23:05:46.065	$GPGGA,230555,2547.4100,N,08002.0181,W,1,10,2.0,12,M,,M,,*67
06/09/2014	23:05:47.109	$GPGGA,230556,2547.4111,N,08002.0195,W,1,10,2.0,12,M,,M,,*61
06/09/2014	23:05:48.104	$GPGGA,230557,2547.4122,N,08002.0209,W,1,9,2.0,12,M,,M,,*5E
06/09/2014	23:05:49.086	$GPGGA,230558,2547.4133,N,08002.0221,W,1,9,2.0,12,M,,M,,*5B
06/09/2014	23:05:50.089	$GPGGA,230559,2547.4147,N,08002.0235,W,1,9,2.0,12,M,,M,,*5C
06/09/2014	23:05:51.122	$GPGGA,230600,2547.4160,N,08002.0250,W,1,9,2.0,12,M,,M,,*55
06/09/2014	23:05:52.088	$GPGGA,230601,2547.4173,N,08002.0264,W,1,10,2.0,12,M,,M,,*69
06/09/2014	23:05:53.105	$GPGGA,230602,2547.4184,N,08002.0278,W,1,10,2.1,12,M,,M,,*6E
06/09/2014	23:05:54.086	$GPGGA,230603,2547.4194,N,08002.0292,W,1,9,2.1,12,M,,M,,*52
06/09/2014	23:05:55.055	$GPGGA,230604,2547.4207,N,08002.0305,W,1,9,2.1,12,M,,M,,*53
06/09/2014	23:05:56.116	$GPGGA,230605,2547.4218,N,08002.0318,W,1,10,2.0,12,M,,M,,*69
06/09/2014	23:05:57.057	$GPGGA,230606,2547.4230,N,08002.0332,W,1,10,2.0,12,M,,M,,*68
06/09/2014	23:05:58.104	$GPGGA,230607,2547.4241,N,08002.0347,W,1,10,2.1,12,M,,M,,*6C
06/09/2014	23:05:59.148	$GPGGA,230608,2547.4252,N,08002.0359,W,1,10,2.1,12,M,,M,,*6E
06/09/2014	23:06:00.063	$GPGGA,230609,2547.4263,N,08002.0373,W,1,10,2.0,12,M,,M,,*64
06/09/2014	23:06:01.069	$GPGGA,230610,2547.4274,N,08002.0387,W,1,10,2.0,12,M,,M,,*61
06/09/2014	23:06:02.125	$GPGGA,230611,2547.4287,N,08002.0401,W,1,10,2.0,12,M,,M,,*65
06/09/2014	23:06:03.151	$GPGGA,230612,2547.4298,N,08002.0415,W,1,10,2.0,12,M,,M,,*6D
06/09/2014	23:06:04.127	$GPGGA,230613,2547.4310,N,08002.0428,W,1,10,2.0,12,M,,M,,*63
06/09/2014	23:06:05.153	$GPGGA,230614,2547.4321,N,08002.0442,W,1,10,2.0,12,M,,M,,*6A
06/09/2014	23:06:06.080	$GPGGA,230615,2547.4332,N,08002.0455,W,1,10,2.0,12,M,,M,,*6F
06/09/2014	23:06:07.165	$GPGGA,230616,2547.4346,N,08002.0470,W,1,10,2.1,12,M,,M,,*69
06/09/2014	23:06:08.141	$GPGGA,230617,2547.4357,N,08002.0484,W,1,10,2.0,12,M,,M,,*62
06/09/2014	23:06:09.106	$GPGGA,230618,2547.4368,N,08002.0496,W,1,10,2.0,12,M,,M,,*62
06/09/2014	23:06:10.173	$GPGGA,230619,2547.4379,N,08002.0510,W,1,9,2.0,12,M,,M,,*54
06/09/2014	23:06:11.189	$GPGGA,230620,2547.4392,N,08002.0524,W,1,9,2.0,12,M,,M,,*5C
06/09/2014	23:06:12.174	$GPGGA,230621,2547.4403,N,08002.0538,W,1,10,2.0,12,M,,M,,*67
06/09/2014	23:06:13.119	$GPGGA,230622,2547.4414,N,08002.0551,W,1,10,2.0,12,M,,M,,*6D
06/09/2014	23:06:14.156	$GPGGA,230623,2547.4426,N,08002.0564,W,1,9,2.1,12,M,,M,,*52
06/09/2014	23:06:15.130	$GPGGA,230624,2547.4436,N,08002.0578,W,1,9,2.1,12,M,,M,,*59
06/09/2014	23:06:16.238	$GPGGA,230625,2547.4449,N,08002.0592,W,1,9,2.1,12,M,,M,,*54
06/09/2014	23:06:17.142	$GPGGA,230626,2547.4461,N,08002.0607,W,1,9,2.1,12,M,,M,,*52
06/09/2014	23:06:18.168	$GPGGA,230627,2547.4473,N,08002.0621,W,1,10,2.0,12,M,,M,,*6D
06/09/2014	23:06:19.275	$GPGGA,230628,2547.4486,N,08002.0634,W,1,10,2.0,12,M,,M,,*6C
06/09/2014	23:06:20.201	$GPGGA,230629,2547.4497,N,08002.0650,W,1,10,2.0,12,M,,M,,*6F
06/09/2014	23:06:21.137	$GPGGA,230630,2547.4511,N,08002.0662,W,1,10,2.0,12,M,,M,,*69
06/09/2014	23:06:22.257	$GPGGA,230631,2547.4523,N,08002.0677,W,1,10,2.0,12,M,,M,,*6D
06/09/2014	23:06:23.242	$GPGGA,230632,2547.4534,N,08002.0691,W,1,10,2.0,12,M,,M,,*60
06/09/2014	23:06:24.249	$GPGGA,230633,2547.4545,N,08002.0705,W,1,10,2.0,12,M,,M,,*6B
06/09/2014	23:06:25.387	$GPGGA,230634,2547.4558,N,08002.0719,W,1,10,2.0,11,M,,M,,*6E
06/09/2014	23:06:26.530	$GPGGA,230635,2547.4570,N,08002.0733,W,1,10,2.0,11,M,,M,,*6D
06/09/2014	23:06:27.565	$GPGGA,230636,2547.4581,N,08002.0748,W,1,10,2.0,11,M,,M,,*6C
06/09/2014	23:06:28.578	$GPGGA,230637,2547.4592,N,08002.0762,W,1,10,2.0,11,M,,M,,*67
06/09/2014	23:06:29.688	$GPGGA,230638,2547.4603,N,08002.0775,W,1,10,2.0,11,M,,M,,*65
06/09/2014	23:06:30.842	$GPGGA,230639,2547.4614,N,08002.0789,W,1,10,2.0,11,M,,M,,*61
06/09/2014	23:06:31.909	$GPGGA,230640,2547.4624,N,08002.0803,W,1,10,2.0,11,M,,M,,*61
06/09/2014	23:06:31.972	$GPGGA,230641,2547.4637,N,08002.0817,W,1,10,2.0,11,M,,M,,*67
06/09/2014	23:06:33.050	$GPGGA,230642,2547.4648,N,08002.0831,W,1,10,2.0,11,M,,M,,*68
06/09/2014	23:06:34.138	$GPGGA,230643,2547.4659,N,08002.0845,W,1,10,2.0,11,M,,M,,*6A
06/09/2014	23:06:35.205	$GPGGA,230644,2547.4668,N,08002.0858,W,1,10,2.0,11,M,,M,,*63
06/09/2014	23:06:36.283	$GPGGA,230645,2547.4681,N,08002.0872,W,1,10,2.0,11,M,,M,,*6D
06/09/2014	23:06:37.383	$GPGGA,230646,2547.4692,N,08002.0886,W,1,10,2.0,11,M,,M,,*67
06/09/2014	23:06:38.428	$GPGGA,230647,2547.4703,N,08002.0900,W,1,10,2.0,11,M,,M,,*60
06/09/2014	23:06:39.530	$GPGGA,230648,2547.4714,N,08002.0914,W,1,10,2.0,11,M,,M,,*6C
06/09/2014	23:06:40.574	$GPGGA,230649,2547.4725,N,08002.0928,W,1,10,2.0,11,M,,M,,*60
06/09/2014	23:06:41.652	$GPGGA,230650,2547.4736,N,08002.0943,W,1,10,2.0,11,M,,M,,*67
06/09/2014	23:06:42.763	$GPGGA,230651,2547.4747,N,08002.0957,W,1,10,2.0,11,M,,M,,*65
06/09/2014	23:06:43.808	$GPGGA,230652,2547.4757,N,08002.0970,W,1,10,2.0,11,M,,M,,*62
06/09/2014	23:06:44.875	$GPGGA,230653,2547.4768,N,08002.0984,W,1,10,2.0,11,M,,M,,*64
06/09/2014	23:06:45.964	$GPGGA,230654,2547.4779,N,08002.0997,W,1,10,2.0,11,M,,M,,*61
06/09/2014	23:06:47.042	$GPGGA,230655,2547.4790,N,08002.1012,W,1,10,2.0,11,M,,M,,*62
06/09/2014	23:06:48.130	$GPGGA,230656,2547.4801,N,08002.1026,W,1,10,2.0,11,M,,M,,*61
06/09/2014	23:06:49.176	$GPGGA,230657,2547.4812,N,08002.1040,W,1,10,2.0,11,M,,M,,*62
06/09/2014	23:06:50.276	$GPGGA,230658,2547.4823,N,08002.1053,W,1,10,2.0,11,M,,M,,*6D
06/09/2014	23:06:51.365	$GPGGA,230659,2547.4834,N,08002.1067,W,1,10,2.0,11,M,,M,,*6D
06/09/2014	23:06:52.443	$GPGGA,230700,2547.4834,N,08002.1067,W,1,10,2.0,11,M,,M,,*60
06/09/2014	23:06:53.487	$GPGGA,230701,2547.4855,N,08002.1095,W,1,10,2.0,11,M,,M,,*6B
06/09/2014	23:06:54.587	$GPGGA,230702,2547.4866,N,08002.1109,W,1,10,2.0,11,M,,M,,*6C
06/09/2014	23:06:55.654	$GPGGA,230703,2547.4877,N,08002.1123,W,1,10,2.0,11,M,,M,,*65
06/09/2014	23:06:56.753	$GPGGA,230704,2547.4888,N,08002.1136,W,1,10,2.0,11,M,,M,,*66
06/09/2014	23:06:57.821	$GPGGA,230705,2547.4899,N,08002.1150,W,1,10,2.0,11,M,,M,,*67
06/09/2014	23:06:58.877	$GPGGA,230706,2547.4899,N,08002.1150,W,1,10,2.0,11,M,,M,,*64
06/09/2014	23:06:59.998	$GPGGA,230707,2547.4921,N,08002.1178,W,1,10,2.0,11,M,,M,,*6D
06/09/2014	23:07:01.033	$GPGGA,230708,2547.4921,N,08002.1178,W,1,10,2.0,11,M,,M,,*62
06/09/2014	23:07:02.208	$GPGGA,230709,2547.4945,N,08002.1204,W,1,10,2.0,11,M,,M,,*69
06/09/2014	23:07:03.167	$GPGGA,230710,2547.4945,N,08002.1204,W,1,10,2.0,11,M,,M,,*61
06/09/2014	23:07:04.267	$GPGGA,230711,2547.4967,N,08002.1232,W,1,10,2.0,10,M,,M,,*64
06/09/2014	23:07:05.464	$GPGGA,230712,2547.4978,N,08002.1246,W,1,10,2.0,10,M,,M,,*6A
06/09/2014	23:07:06.445	$GPGGA,230713,2547.4989,N,08002.1259,W,1,10,2.0,10,M,,M,,*6B
06/09/2014	23:07:07.523	$GPGGA,230714,2547.5000,N,08002.1272,W,1,10,2.0,10,M,,M,,*6C
06/09/2014	23:07:08.579	$GPGGA,230715,2547.5013,N,08002.1286,W,1,10,2.0,10,M,,M,,*64
06/09/2014	23:07:09.689	$GPGGA,230716,2547.5024,N,08002.1301,W,1,10,2.0,10,M,,M,,*6D
06/09/2014	23:07:10.843	$GPGGA,230717,2547.5036,N,08002.1315,W,1,10,2.0,10,M,,M,,*6A
06/09/2014	23:07:11.790	$GPGGA,230718,2547.5036,N,08002.1315,W,1,10,2.0,10,M,,M,,*65
06/09/2014	23:07:12.965	$GPGGA,230719,2547.5058,N,08002.1342,W,1,10,2.0,10,M,,M,,*6E
06/09/2014	23:07:13.946	$GPGGA,230720,2547.5058,N,08002.1342,W,1,10,2.0,10,M,,M,,*64
06/09/2014	23:07:15.136	$GPGGA,230721,2547.5083,N,08002.1369,W,1,10,2.0,10,M,,M,,*6A
06/09/2014	23:07:16.191	$GPGGA,230722,2547.5094,N,08002.1384,W,1,10,2.0,10,M,,M,,*6C
06/09/2014	23:07:17.159	$GPGGA,230723,2547.5094,N,08002.1384,W,1,10,2.0,10,M,,M,,*6D
06/09/2014	23:07:18.355	$GPGGA,230724,2547.5118,N,08002.1410,W,1,10,2.0,10,M,,M,,*65
06/09/2014	23:07:19.444	$GPGGA,230725,2547.5129,N,08002.1423,W,1,10,2.0,10,M,,M,,*66
06/09/2014	23:07:20.490	$GPGGA,230726,2547.5141,N,08002.1438,W,1,10,2.0,10,M,,M,,*61
06/09/2014	23:07:21.600	$GPGGA,230727,2547.5152,N,08002.1450,W,1,10,2.0,10,M,,M,,*6C
06/09/2014	23:07:22.657	$GPGGA,230728,2547.5163,N,08002.1464,W,1,10,2.0,10,M,,M,,*66
06/09/2014	23:07:23.745	$GPGGA,230729,2547.5176,N,08002.1478,W,1,10,2.0,10,M,,M,,*6E
06/09/2014	23:07:24.780	$GPGGA,230730,2547.5188,N,08002.1492,W,1,10,2.0,10,M,,M,,*63
06/09/2014	23:07:25.912	$GPGGA,230731,2547.5199,N,08002.1506,W,1,10,2.0,10,M,,M,,*6E
06/09/2014	23:07:26.947	$GPGGA,230732,2547.5210,N,08002.1519,W,1,10,2.0,10,M,,M,,*61
06/09/2014	23:07:28.058	$GPGGA,230733,2547.5223,N,08002.1533,W,1,10,2.0,10,M,,M,,*68
06/09/2014	23:07:29.093	$GPGGA,230734,2547.5235,N,08002.1546,W,1,10,2.0,10,M,,M,,*6A
06/09/2014	23:07:30.159	$GPGGA,230735,2547.5246,N,08002.1561,W,1,10,2.0,10,M,,M,,*6A
06/09/2014	23:07:31.290	$GPGGA,230736,2547.5257,N,08002.1575,W,1,10,2.0,10,M,,M,,*6C
06/09/2014	23:07:32.314	$GPGGA,230737,2547.5271,N,08002.1587,W,1,10,2.0,10,M,,M,,*64
06/09/2014	23:07:33.403	$GPGGA,230738,2547.5282,N,08002.1601,W,1,10,2.0,10,M,,M,,*6A
06/09/2014	23:07:34.460	$GPGGA,230739,2547.5293,N,08002.1615,W,1,10,2.0,11,M,,M,,*6F
06/09/2014	23:07:35.559	$GPGGA,230740,2547.5306,N,08002.1629,W,1,10,2.0,11,M,,M,,*63
06/09/2014	23:07:31.947	$GPGGA,230741,2547.5318,N,08002.1642,W,1,10,2.0,11,M,,M,,*60
06/09/2014	23:07:33.015	$GPGGA,230742,2547.5329,N,08002.1656,W,1,10,2.0,11,M,,M,,*64
06/09/2014	23:07:34.114	$GPGGA,230743,2547.5340,N,08002.1669,W,1,10,2.0,11,M,,M,,*66
06/09/2014	23:07:35.192	$GPGGA,230744,2547.5353,N,08002.1684,W,1,10,2.0,11,M,,M,,*60
06/09/2014	23:07:36.282	$GPGGA,230745,2547.5364,N,08002.1696,W,1,10,2.0,11,M,,M,,*66
06/09/2014	23:07:37.327	$GPGGA,230746,2547.5375,N,08002.1710,W,1,10,2.0,11,M,,M,,*6A
06/09/2014	23:07:38.426	$GPGGA,230747,2547.5387,N,08002.1724,W,1,9,2.0,11,M,,M,,*59
06/09/2014	23:07:39.493	$GPGGA,230748,2547.5398,N,08002.1738,W,1,9,2.0,11,M,,M,,*55
06/09/2014	23:07:40.539	$GPGGA,230749,2547.5410,N,08002.1752,W,1,8,2.0,11,M,,M,,*5E
06/09/2014	23:07:41.639	$GPGGA,230750,2547.5422,N,08002.1764,W,1,8,2.0,11,M,,M,,*52
06/09/2014	23:07:42.696	$GPGGA,230751,2547.5433,N,08002.1778,W,1,9,2.0,11,M,,M,,*5F
06/09/2014	23:07:43.795	$GPGGA,230752,2547.5444,N,08002.1793,W,1,9,2.0,11,M,,M,,*59
06/09/2014	23:07:44.850	$GPGGA,230753,2547.5455,N,08002.1806,W,1,9,2.0,11,M,,M,,*5B
06/09/2014	23:07:45.939	$GPGGA,230754,2547.5468,N,08002.1819,W,1,9,2.0,11,M,,M,,*5C
06/09/2014	23:07:47.006	$GPGGA,230755,2547.5477,N,08002.1833,W,1,9,2.0,11,M,,M,,*5B
06/09/2014	23:07:48.084	$GPGGA,230756,2547.5490,N,08002.1847,W,1,9,2.0,11,M,,M,,*52
06/09/2014	23:07:49.156	$GPGGA,230757,2547.5502,N,08002.1861,W,1,8,2.1,11,M,,M,,*5D
06/09/2014	23:07:50.229	$GPGGA,230758,2547.5513,N,08002.1875,W,1,8,2.0,11,M,,M,,*56
06/09/2014	23:07:51.426	$GPGGA,230759,2547.5524,N,08002.1889,W,1,9,2.0,11,M,,M,,*51
06/09/2014	23:07:52.418	$GPGGA,230800,2547.5535,N,08002.1902,W,1,9,2.0,11,M,,M,,*50
06/09/2014	23:07:53.452	$GPGGA,230801,2547.5546,N,08002.1915,W,1,9,2.0,11,M,,M,,*53
06/09/2014	23:07:54.552	$GPGGA,230802,2547.5559,N,08002.1929,W,1,9,2.0,11,M,,M,,*51
06/09/2014	23:07:55.749	$GPGGA,230803,2547.5570,N,08002.1944,W,1,9,2.0,11,M,,M,,*50
06/09/2014	23:07:56.697	$GPGGA,230804,2547.5582,N,08002.1958,W,1,9,2.0,11,M,,M,,*57
06/09/2014	23:07:57.754	$GPGGA,230805,2547.5595,N,08002.1970,W,1,9,2.0,11,M,,M,,*5A
06/09/2014	23:07:58.853	$GPGGA,230806,2547.5606,N,08002.1983,W,1,9,2.0,11,M,,M,,*5C
06/09/2014	23:07:59.910	$GPGGA,230807,2547.5616,N,08002.1998,W,1,9,2.0,11,M,,M,,*56
06/09/2014	23:08:01.134	$GPGGA,230808,2547.5628,N,08002.2010,W,1,9,2.0,11,M,,M,,*5E
06/09/2014	23:08:02.095	$GPGGA,230809,2547.5639,N,08002.2024,W,1,9,2.0,11,M,,M,,*58
06/09/2014	23:08:03.241	$GPGGA,230810,2547.5650,N,08002.2038,W,1,9,2.0,11,M,,M,,*52
06/09/2014	23:08:04.328	$GPGGA,230811,2547.5661,N,08002.2052,W,1,9,2.0,11,M,,M,,*5D
06/09/2014	23:08:05.428	$GPGGA,230812,2547.5674,N,08002.2066,W,1,9,2.0,11,M,,M,,*5D
06/09/2014	23:08:06.475	$GPGGA,230813,2547.5686,N,08002.2081,W,1,9,2.0,11,M,,M,,*58
06/09/2014	23:08:09.096	$GPGGA,230815,2547.5708,N,08002.2107,W,1,9,2.0,11,M,,M,,*56
06/09/2014	23:08:09.729	$GPGGA,230816,2547.5719,N,08002.2121,W,1,9,2.0,11,M,,M,,*51
06/09/2014	23:08:10.792	$GPGGA,230817,2547.5730,N,08002.2135,W,1,9,2.0,11,M,,M,,*5E
06/09/2014	23:08:11.864	$GPGGA,230818,2547.5740,N,08002.2150,W,1,9,2.0,11,M,,M,,*55
06/09/2014	23:08:12.942	$GPGGA,230819,2547.5751,N,08002.2164,W,1,9,2.0,11,M,,M,,*53
06/09/2014	23:08:14.038	$GPGGA,230820,2547.5764,N,08002.2176,W,1,9,2.0,11,M,,M,,*5C
06/09/2014	23:08:15.090	$GPGGA,230821,2547.5775,N,08002.2190,W,1,9,2.0,12,M,,M,,*56
06/09/2014	23:08:16.154	$GPGGA,230822,2547.5784,N,08002.2204,W,1,9,2.0,12,M,,M,,*55
06/09/2014	23:08:17.264	$GPGGA,230823,2547.5797,N,08002.2218,W,1,9,2.0,12,M,,M,,*5B
06/09/2014	23:08:18.321	$GPGGA,230824,2547.5809,N,08002.2230,W,1,9,2.0,12,M,,M,,*5E
06/09/2014	23:08:19.410	$GPGGA,230825,2547.5819,N,08002.2244,W,1,9,2.0,12,M,,M,,*5D
06/09/2014	23:08:20.455	$GPGGA,230826,2547.5830,N,08002.2258,W,1,9,2.0,12,M,,M,,*58
06/09/2014	23:08:21.570	$GPGGA,230827,2547.5842,N,08002.2272,W,1,9,2.0,12,M,,M,,*54
06/09/2014	23:08:22.622	$GPGGA,230828,2547.5853,N,08002.2284,W,1,9,2.0,12,M,,M,,*52
06/09/2014	23:08:23.677	$GPGGA,230829,2547.5863,N,08002.2298,W,1,9,2.0,12,M,,M,,*5D
06/09/2014	23:08:24.755	$GPGGA,230830,2547.5874,N,08002.2312,W,1,9,2.0,12,M,,M,,*50
06/09/2014	23:08:25.866	$GPGGA,230831,2547.5885,N,08002.2326,W,1,9,2.0,12,M,,M,,*58
06/09/2014	23:08:26.933	$GPGGA,230832,2547.5896,N,08002.2339,W,1,9,2.0,12,M,,M,,*57
06/09/2014	23:08:28.022	$GPGGA,230833,2547.5909,N,08002.2352,W,1,9,2.0,12,M,,M,,*5C
06/09/2014	23:08:29.067	$GPGGA,230834,2547.5920,N,08002.2366,W,1,9,2.0,12,M,,M,,*57
06/09/2014	23:08:30.167	$GPGGA,230835,2547.5931,N,08002.2381,W,1,9,2.0,12,M,,M,,*5F
06/09/2014	23:08:31.235	$GPGGA,230836,2547.5943,N,08002.2395,W,1,9,2.0,12,M,,M,,*5C
06/09/2014	23:08:32.323	$GPGGA,230837,2547.5954,N,08002.2408,W,1,9,2.0,12,M,,M,,*58
06/09/2014	23:08:33.370	$GPGGA,230838,2547.5965,N,08002.2422,W,1,9,2.0,12,M,,M,,*5D
06/09/2014	23:08:34.479	$GPGGA,230839,2547.5978,N,08002.2435,W,1,9,2.0,12,M,,M,,*56
06/09/2014	23:08:35.535	$GPGGA,230840,2547.5990,N,08002.2449,W,1,9,2.0,12,M,,M,,*55
06/09/2014	23:08:31.925	$GPGGA,230841,2547.6001,N,08002.2464,W,1,9,2.0,12,M,,M,,*59
06/09/2014	23:08:33.004	$GPGGA,230842,2547.6012,N,08002.2478,W,1,9,2.0,12,M,,M,,*55
06/09/2014	23:08:34.081	$GPGGA,230843,2547.6026,N,08002.2490,W,1,9,2.0,12,M,,M,,*55
06/09/2014	23:08:36.645	$GPGGA,230844,2547.6037,N,08002.2504,W,1,9,2.0,12,M,,M,,*5E
06/09/2014	23:08:36.667	$GPGGA,230845,2547.6048,N,08002.2518,W,1,9,2.0,12,M,,M,,*5A
06/09/2014	23:08:37.292	$GPGGA,230846,2547.6059,N,08002.2532,W,1,9,2.0,12,M,,M,,*51
06/09/2014	23:08:38.413	$GPGGA,230847,2547.6072,N,08002.2545,W,1,9,2.0,12,M,,M,,*59
06/09/2014	23:08:39.448	$GPGGA,230848,2547.6084,N,08002.2558,W,1,9,2.0,12,M,,M,,*53
06/09/2014	23:08:40.515	$GPGGA,230849,2547.6095,N,08002.2572,W,1,9,2.0,12,M,,M,,*5A
06/09/2014	23:08:41.701	$GPGGA,230850,2547.6108,N,08002.2587,W,1,9,2.0,12,M,,M,,*5D
06/09/2014	23:08:42.693	$GPGGA,230851,2547.6119,N,08002.2601,W,1,9,2.0,12,M,,M,,*51
06/09/2014	23:08:43.760	$GPGGA,230852,2547.6131,N,08002.2613,W,1,9,2.0,12,M,,M,,*5B
06/09/2014	23:08:44.957	$GPGGA,230853,2547.6142,N,08002.2627,W,1,9,2.0,12,M,,M,,*59
06/09/2014	23:08:46.002	$GPGGA,230854,2547.6153,N,08002.2641,W,1,9,2.0,12,M,,M,,*5E
06/09/2014	23:08:46.983	$GPGGA,230855,2547.6166,N,08002.2655,W,1,9,2.0,12,M,,M,,*5C
06/09/2014	23:08:48.083	$GPGGA,230856,2547.6177,N,08002.2668,W,1,9,2.0,12,M,,M,,*51
06/09/2014	23:08:49.269	$GPGGA,230857,2547.6188,N,08002.2682,W,1,9,2.0,12,M,,M,,*54
06/09/2014	23:08:50.210	$GPGGA,230858,2547.6199,N,08002.2697,W,1,9,2.0,12,M,,M,,*5F
06/09/2014	23:08:51.435	$GPGGA,230859,2547.6213,N,08002.2710,W,1,8,2.0,12,M,,M,,*50
06/09/2014	23:08:52.406	$GPGGA,230900,2547.6223,N,08002.2722,W,1,8,2.0,12,M,,M,,*5F
06/09/2014	23:08:53.453	$GPGGA,230901,2547.6232,N,08002.2735,W,1,10,1.5,12,M,,M,,*67
06/09/2014	23:08:54.519	$GPGGA,230902,2547.6245,N,08002.2747,W,1,10,1.5,12,M,,M,,*61
06/09/2014	23:08:55.714	$GPGGA,230903,2547.6257,N,08002.2760,W,1,10,1.5,12,M,,M,,*66
06/09/2014	23:08:56.792	$GPGGA,230904,2547.6268,N,08002.2771,W,1,10,1.5,12,M,,M,,*6D
06/09/2014	23:08:57.848	$GPGGA,230905,2547.6278,N,08002.2783,W,1,10,1.5,12,M,,M,,*60
06/09/2014	23:08:58.928	$GPGGA,230906,2547.6290,N,08002.2796,W,1,10,1.6,12,M,,M,,*62
06/09/2014	23:09:00.026	$GPGGA,230907,2547.6304,N,08002.2812,W,1,10,1.5,12,M,,M,,*6F
06/09/2014	23:09:01.096	$GPGGA,230908,2547.6314,N,08002.2822,W,1,10,2.0,12,M,,M,,*64
06/09/2014	23:09:02.172	$GPGGA,230909,2547.6325,N,08002.2836,W,1,9,1.6,12,M,,M,,*5F
06/09/2014	23:09:03.217	$GPGGA,230910,2547.6337,N,08002.2851,W,1,9,1.6,13,M,,M,,*54
06/09/2014	23:09:04.329	$GPGGA,230911,2547.6350,N,08002.2866,W,1,10,1.5,13,M,,M,,*6B
06/09/2014	23:09:05.394	$GPGGA,230912,2547.6361,N,08002.2881,W,1,10,1.5,13,M,,M,,*63
06/09/2014	23:09:06.472	$GPGGA,230913,2547.6373,N,08002.2897,W,1,9,2.0,13,M,,M,,*58
06/09/2014	23:09:07.529	$GPGGA,230914,2547.6386,N,08002.2912,W,1,9,2.0,13,M,,M,,*59
06/09/2014	23:09:08.639	$GPGGA,230915,2547.6398,N,08002.2926,W,1,8,2.1,13,M,,M,,*50
06/09/2014	23:09:09.697	$GPGGA,230916,2547.6409,N,08002.2938,W,1,8,2.0,13,M,,M,,*52
06/09/2014	23:09:10.775	$GPGGA,230917,2547.6420,N,08002.2952,W,1,10,1.5,13,M,,M,,*6B
06/09/2014	23:09:11.830	$GPGGA,230918,2547.6431,N,08002.2963,W,1,10,1.5,13,M,,M,,*66
06/09/2014	23:09:12.910	$GPGGA,230919,2547.6442,N,08002.2978,W,1,10,1.5,13,M,,M,,*69
06/09/2014	23:09:13.996	$GPGGA,230920,2547.6454,N,08002.2991,W,1,10,1.5,13,M,,M,,*63
06/09/2014	23:09:15.095	$GPGGA,230921,2547.6466,N,08002.3006,W,1,10,1.5,13,M,,M,,*65
06/09/2014	23:09:16.130	$GPGGA,230922,2547.6477,N,08002.3020,W,1,10,2.0,13,M,,M,,*64
06/09/2014	23:09:17.241	$GPGGA,230923,2547.6488,N,08002.3035,W,1,9,2.0,13,M,,M,,*59
06/09/2014	23:09:18.297	$GPGGA,230924,2547.6499,N,08002.3049,W,1,9,2.0,13,M,,M,,*55
06/09/2014	23:09:19.397	$GPGGA,230925,2547.6510,N,08002.3064,W,1,9,2.0,13,M,,M,,*5B
06/09/2014	23:09:20.442	$GPGGA,230926,2547.6521,N,08002.3078,W,1,9,1.5,13,M,,M,,*51
06/09/2014	23:09:21.553	$GPGGA,230927,2547.6534,N,08002.3092,W,1,9,2.0,13,M,,M,,*56
06/09/2014	23:09:22.620	$GPGGA,230928,2547.6545,N,08002.3107,W,1,9,2.0,13,M,,M,,*52
06/09/2014	23:09:23.698	$GPGGA,230929,2547.6556,N,08002.3122,W,1,9,2.0,13,M,,M,,*56
06/09/2014	23:09:24.733	$GPGGA,230930,2547.6567,N,08002.3137,W,1,9,2.0,13,M,,M,,*58
06/09/2014	23:09:25.811	$GPGGA,230931,2547.6579,N,08002.3150,W,1,9,2.0,13,M,,M,,*57
06/09/2014	23:09:26.910	$GPGGA,230932,2547.6589,N,08002.3165,W,1,9,1.5,13,M,,M,,*5B
06/09/2014	23:09:27.956	$GPGGA,230933,2547.6600,N,08002.3176,W,1,8,2.0,13,M,,M,,*5D
06/09/2014	23:09:29.055	$GPGGA,230934,2547.6611,N,08002.3186,W,1,8,1.5,13,M,,M,,*53
06/09/2014	23:09:30.119	$GPGGA,230935,2547.6622,N,08002.3198,W,1,9,1.6,13,M,,M,,*5F
06/09/2014	23:09:31.211	$GPGGA,230936,2547.6633,N,08002.3210,W,1,9,1.5,13,M,,M,,*5C
06/09/2014	23:09:32.301	$GPGGA,230937,2547.6644,N,08002.3222,W,1,10,1.5,13,M,,M,,*64
06/09/2014	23:09:33.345	$GPGGA,230938,2547.6655,N,08002.3234,W,1,10,1.5,13,M,,M,,*6C
06/09/2014	23:09:34.434	$GPGGA,230939,2547.6665,N,08002.3246,W,1,10,1.5,13,M,,M,,*6B
06/09/2014	23:09:35.522	$GPGGA,230940,2547.6678,N,08002.3259,W,1,10,1.5,14,M,,M,,*60
06/09/2014	23:09:31.900	$GPGGA,230941,2547.6687,N,08002.3273,W,1,10,1.5,14,M,,M,,*69
06/09/2014	23:09:33.085	$GPGGA,230942,2547.6698,N,08002.3285,W,1,10,1.6,14,M,,M,,*6E
06/09/2014	23:09:34.047	$GPGGA,230943,2547.6711,N,08002.3299,W,1,10,1.5,14,M,,M,,*61
06/09/2014	23:09:35.242	$GPGGA,230944,2547.6723,N,08002.3314,W,1,10,1.5,14,M,,M,,*63
06/09/2014	23:09:36.191	$GPGGA,230945,2547.6734,N,08002.3328,W,1,10,1.5,14,M,,M,,*6B
06/09/2014	23:09:37.380	$GPGGA,230946,2547.6745,N,08002.3343,W,1,10,1.6,14,M,,M,,*60
06/09/2014	23:09:38.476	$GPGGA,230947,2547.6758,N,08002.3356,W,1,9,1.6,15,M,,M,,*50
06/09/2014	23:09:39.457	$GPGGA,230948,2547.6770,N,08002.3371,W,1,9,1.5,15,M,,M,,*53
06/09/2014	23:09:40.621	$GPGGA,230949,2547.6783,N,08002.3386,W,1,10,1.5,15,M,,M,,*6E
06/09/2014	23:09:41.580	$GPGGA,230950,2547.6796,N,08002.3400,W,1,10,1.5,15,M,,M,,*6B
06/09/2014	23:09:42.766	$GPGGA,230951,2547.6807,N,08002.3415,W,1,10,1.5,15,M,,M,,*69
06/09/2014	23:09:43.747	$GPGGA,230952,2547.6820,N,08002.3429,W,1,10,1.5,15,M,,M,,*60
06/09/2014	23:09:44.922	$GPGGA,230953,2547.6831,N,08002.3443,W,1,10,1.5,15,M,,M,,*6D
06/09/2014	23:09:45.981	$GPGGA,230954,2547.6842,N,08002.3458,W,1,10,1.6,15,M,,M,,*67
06/09/2014	23:09:47.099	$GPGGA,230955,2547.6853,N,08002.3472,W,1,10,1.5,15,M,,M,,*6D
06/09/2014	23:09:48.158	$GPGGA,230956,2547.6864,N,08002.3486,W,1,10,1.5,15,M,,M,,*61
06/09/2014	23:09:49.212	$GPGGA,230957,2547.6875,N,08002.3501,W,1,10,1.5,15,M,,M,,*6E
06/09/2014	23:09:50.279	$GPGGA,230958,2547.6886,N,08002.3515,W,1,10,1.5,15,M,,M,,*68
06/09/2014	23:09:51.368	$GPGGA,230959,2547.6900,N,08002.3530,W,1,10,1.5,15,M,,M,,*61
06/09/2014	23:09:52.467	$GPGGA,231000,2547.6911,N,08002.3544,W,1,10,1.5,15,M,,M,,*66
06/09/2014	23:09:53.525	$GPGGA,231001,2547.6922,N,08002.3559,W,1,10,1.5,15,M,,M,,*6B
06/09/2014	23:09:54.602	$GPGGA,231002,2547.6933,N,08002.3573,W,1,10,1.5,15,M,,M,,*60
06/09/2014	23:09:55.691	$GPGGA,231003,2547.6946,N,08002.3585,W,1,10,1.5,15,M,,M,,*6A
06/09/2014	23:09:56.758	$GPGGA,231004,2547.6957,N,08002.3599,W,1,10,1.5,15,M,,M,,*60
06/09/2014	23:09:57.836	$GPGGA,231005,2547.6968,N,08002.3613,W,1,10,1.5,15,M,,M,,*6C
06/09/2014	23:09:58.903	$GPGGA,231006,2547.6980,N,08002.3627,W,1,10,1.7,15,M,,M,,*6C
06/09/2014	23:10:00.006	$GPGGA,231007,2547.6991,N,08002.3639,W,1,10,1.5,15,M,,M,,*60
06/09/2014	23:10:01.072	$GPGGA,231008,2547.7002,N,08002.3653,W,1,10,1.5,15,M,,M,,*61
06/09/2014	23:10:02.149	$GPGGA,231009,2547.7014,N,08002.3667,W,1,10,1.5,15,M,,M,,*60
06/09/2014	23:10:03.204	$GPGGA,231010,2547.7026,N,08002.3681,W,1,10,1.5,15,M,,M,,*61
06/09/2014	23:10:04.304	$GPGGA,231011,2547.7037,N,08002.3694,W,1,10,1.5,15,M,,M,,*64
06/09/2014	23:10:05.360	$GPGGA,231012,2547.7047,N,08002.3707,W,1,10,1.5,15,M,,M,,*6B
06/09/2014	23:10:06.415	$GPGGA,231013,2547.7058,N,08002.3721,W,1,10,1.5,15,M,,M,,*60
06/09/2014	23:10:07.504	$GPGGA,231014,2547.7070,N,08002.3733,W,1,10,1.5,15,M,,M,,*6E
06/09/2014	23:10:08.582	$GPGGA,231015,2547.7081,N,08002.3747,W,1,10,1.5,15,M,,M,,*62
06/09/2014	23:10:09.682	$GPGGA,231016,2547.7092,N,08002.3761,W,1,10,1.5,15,M,,M,,*67
06/09/2014	23:10:10.727	$GPGGA,231017,2547.7103,N,08002.3775,W,1,10,1.5,15,M,,M,,*6A
06/09/2014	23:10:11.805	$GPGGA,231018,2547.7113,N,08002.3790,W,1,10,1.5,15,M,,M,,*6F
06/09/2014	23:10:12.894	$GPGGA,231019,2547.7126,N,08002.3804,W,1,10,1.5,15,M,,M,,*6A
06/09/2014	23:10:13.983	$GPGGA,231020,2547.7137,N,08002.3819,W,1,10,1.5,15,M,,M,,*6C
06/09/2014	23:10:15.039	$GPGGA,231021,2547.7148,N,08002.3833,W,1,9,2.0,15,M,,M,,*53
06/09/2014	23:10:16.107	$GPGGA,231022,2547.7160,N,08002.3848,W,1,9,1.5,15,M,,M,,*50
06/09/2014	23:10:17.238	$GPGGA,231023,2547.7171,N,08002.3862,W,1,10,1.5,15,M,,M,,*61
06/09/2014	23:10:18.273	$GPGGA,231024,2547.7182,N,08002.3876,W,1,10,1.5,15,M,,M,,*6F
06/09/2014	23:10:19.351	$GPGGA,231025,2547.7193,N,08002.3891,W,1,10,1.5,15,M,,M,,*67
06/09/2014	23:10:20.526	$GPGGA,231026,2547.7204,N,08002.3905,W,1,10,1.5,15,M,,M,,*65
06/09/2014	23:10:21.626	$GPGGA,231027,2547.7215,N,08002.3920,W,1,10,1.5,15,M,,M,,*63
06/09/2014	23:10:22.607	$GPGGA,231028,2547.7226,N,08002.3934,W,1,10,1.5,15,M,,M,,*69
06/09/2014	23:10:23.782	$GPGGA,231029,2547.7238,N,08002.3947,W,1,10,1.5,15,M,,M,,*63
06/09/2014	23:10:24.719	$GPGGA,231030,2547.7249,N,08002.3963,W,1,10,1.5,15,M,,M,,*6B
06/09/2014	23:10:25.958	$GPGGA,231031,2547.7260,N,08002.3977,W,1,10,1.5,15,M,,M,,*64
06/09/2014	23:10:27.026	$GPGGA,231032,2547.7272,N,08002.3990,W,1,10,1.5,15,M,,M,,*6D
06/09/2014	23:10:27.963	$GPGGA,231033,2547.7282,N,08002.4003,W,1,10,1.5,15,M,,M,,*67
06/09/2014	23:10:29.020	$GPGGA,231034,2547.7293,N,08002.4017,W,1,10,1.5,15,M,,M,,*65
06/09/2014	23:10:30.216	$GPGGA,231035,2547.7303,N,08002.4030,W,1,10,1.5,15,M,,M,,*69
06/09/2014	23:10:31.316	$GPGGA,231036,2547.7314,N,08002.4044,W,1,10,1.5,15,M,,M,,*6F
06/09/2014	23:10:32.362	$GPGGA,231037,2547.7325,N,08002.4061,W,1,10,2.0,15,M,,M,,*6D
06/09/2014	23:10:33.420	$GPGGA,231038,2547.7337,N,08002.4073,W,1,10,1.5,16,M,,M,,*67
06/09/2014	23:10:34.518	$GPGGA,231039,2547.7348,N,08002.4087,W,1,10,1.5,16,M,,M,,*65
06/09/2014	23:10:35.617	$GPGGA,231040,2547.7358,N,08002.4101,W,1,10,1.6,16,M,,M,,*66
06/09/2014	23:10:32.039	$GPGGA,231041,2547.7370,N,08002.4116,W,1,9,1.5,16,M,,M,,*50
06/09/2014	23:10:33.064	$GPGGA,231042,2547.7381,N,08002.4133,W,1,9,2.0,16,M,,M,,*5C
06/09/2014	23:10:34.147	$GPGGA,231043,2547.7392,N,08002.4144,W,1,9,1.5,16,M,,M,,*59
06/09/2014	23:10:35.230	$GPGGA,231044,2547.7402,N,08002.4156,W,1,9,1.6,16,M,,M,,*50
06/09/2014	23:10:36.308	$GPGGA,231045,2547.7415,N,08002.4169,W,1,9,1.5,16,M,,M,,*58
06/09/2014	23:10:37.353	$GPGGA,231046,2547.7426,N,08002.4183,W,1,9,1.5,16,M,,M,,*5F
06/09/2014	23:10:38.475	$GPGGA,231047,2547.7437,N,08002.4194,W,1,10,1.5,16,M,,M,,*60
06/09/2014	23:10:39.532	$GPGGA,231048,2547.7446,N,08002.4207,W,1,10,1.6,16,M,,M,,*63
06/09/2014	23:10:40.608	$GPGGA,231049,2547.7459,N,08002.4221,W,1,9,1.5,16,M,,M,,*53
06/09/2014	23:10:41.664	$GPGGA,231050,2547.7470,N,08002.4234,W,1,9,1.5,16,M,,M,,*54
06/09/2014	23:10:42.775	$GPGGA,231051,2547.7481,N,08002.4248,W,1,10,1.5,16,M,,M,,*68
06/09/2014	23:10:43.831	$GPGGA,231052,2547.7492,N,08002.4263,W,1,10,1.5,17,M,,M,,*61
06/09/2014	23:10:44.915	$GPGGA,231053,2547.7504,N,08002.4277,W,1,10,1.5,17,M,,M,,*6B
06/09/2014	23:10:45.966	$GPGGA,231054,2547.7514,N,08002.4292,W,1,10,2.0,17,M,,M,,*60
06/09/2014	23:10:47.044	$GPGGA,231055,2547.7527,N,08002.4306,W,1,9,1.5,17,M,,M,,*53
06/09/2014	23:10:49.253	$GPGGA,231057,2547.7550,N,08002.4333,W,1,10,1.5,17,M,,M,,*6F
06/09/2014	23:10:50.267	$GPGGA,231058,2547.7561,N,08002.4347,W,1,10,1.5,17,M,,M,,*61
06/09/2014	23:10:51.356	$GPGGA,231059,2547.7572,N,08002.4361,W,1,10,1.5,17,M,,M,,*66
06/09/2014	23:10:52.444	$GPGGA,231100,2547.7583,N,08002.4375,W,1,10,1.5,17,M,,M,,*60
06/09/2014	23:10:53.490	$GPGGA,231101,2547.7594,N,08002.4387,W,1,10,1.5,17,M,,M,,*6A
06/09/2014	23:10:54.579	$GPGGA,231102,2547.7605,N,08002.4400,W,1,10,1.5,17,M,,M,,*6A
06/09/2014	23:10:55.678	$GPGGA,231103,2547.7616,N,08002.4415,W,1,10,1.5,17,M,,M,,*6D
06/09/2014	23:10:56.736	$GPGGA,231104,2547.7629,N,08002.4429,W,1,10,1.5,17,M,,M,,*69
06/09/2014	23:10:57.801	$GPGGA,231105,2547.7640,N,08002.4441,W,1,10,1.5,17,M,,M,,*69
06/09/2014	23:10:58.902	$GPGGA,231106,2547.7651,N,08002.4455,W,1,10,1.5,17,M,,M,,*6F
06/09/2014	23:10:59.989	$GPGGA,231107,2547.7663,N,08002.4469,W,1,10,1.5,17,M,,M,,*60
06/09/2014	23:11:01.080	$GPGGA,231108,2547.7673,N,08002.4483,W,1,10,1.5,17,M,,M,,*6A
06/09/2014	23:11:02.124	$GPGGA,231109,2547.7686,N,08002.4496,W,1,10,1.5,17,M,,M,,*65
06/09/2014	23:11:03.191	$GPGGA,231110,2547.7697,N,08002.4512,W,1,10,1.5,17,M,,M,,*60
06/09/2014	23:11:04.291	$GPGGA,231111,2547.7709,N,08002.4525,W,1,10,1.5,17,M,,M,,*63
06/09/2014	23:11:05.347	$GPGGA,231112,2547.7720,N,08002.4538,W,1,10,1.5,18,M,,M,,*68
06/09/2014	23:11:06.447	$GPGGA,231113,2547.7731,N,08002.4552,W,1,10,1.5,18,M,,M,,*65
06/09/2014	23:11:07.471	$GPGGA,231114,2547.7742,N,08002.4566,W,1,10,1.5,18,M,,M,,*61
06/09/2014	23:11:08.559	$GPGGA,231115,2547.7753,N,08002.4581,W,1,10,1.5,18,M,,M,,*69
06/09/2014	23:11:09.778	$GPGGA,231116,2547.7766,N,08002.4595,W,1,10,1.5,18,M,,M,,*69
06/09/2014	23:11:10.705	$GPGGA,231117,2547.7777,N,08002.4608,W,1,10,1.5,18,M,,M,,*6F
06/09/2014	23:11:11.804	$GPGGA,231118,2547.7788,N,08002.4622,W,1,10,1.5,18,M,,M,,*68
06/09/2014	23:11:12.979	$GPGGA,231119,2547.7800,N,08002.4636,W,1,10,1.5,18,M,,M,,*63
06/09/2014	23:11:13.982	$GPGGA,231120,2547.7811,N,08002.4650,W,1,10,1.5,17,M,,M,,*66
06/09/2014	23:11:15.114	$GPGGA,231121,2547.7822,N,08002.4664,W,1,10,1.5,17,M,,M,,*60
06/09/2014	23:11:16.202	$GPGGA,231122,2547.7833,N,08002.4678,W,1,10,1.5,17,M,,M,,*6E
06/09/2014	23:11:17.269	$GPGGA,231123,2547.7845,N,08002.4693,W,1,10,1.5,17,M,,M,,*6B
06/09/2014	23:11:18.282	$GPGGA,231124,2547.7857,N,08002.4707,W,1,10,1.5,17,M,,M,,*63
06/09/2014	23:11:19.328	$GPGGA,231125,2547.7868,N,08002.4719,W,1,10,1.5,17,M,,M,,*61
06/09/2014	23:11:20.492	$GPGGA,231126,2547.7879,N,08002.4733,W,1,10,1.5,17,M,,M,,*6A
06/09/2014	23:11:21.613	$GPGGA,231127,2547.7890,N,08002.4747,W,1,10,1.5,17,M,,M,,*6F
06/09/2014	23:11:22.660	$GPGGA,231128,2547.7903,N,08002.4762,W,1,10,1.5,17,M,,M,,*6C
06/09/2014	23:11:23.737	$GPGGA,231129,2547.7914,N,08002.4776,W,1,10,1.5,17,M,,M,,*6E
06/09/2014	23:11:24.804	$GPGGA,231130,2547.7926,N,08002.4790,W,1,10,1.5,17,M,,M,,*6F
06/09/2014	23:11:25.925	$GPGGA,231131,2547.7937,N,08002.4803,W,1,10,1.5,17,M,,M,,*6B
06/09/2014	23:11:26.952	$GPGGA,231132,2547.7948,N,08002.4819,W,1,10,2.0,17,M,,M,,*6D
06/09/2014	23:11:27.992	$GPGGA,231133,2547.7961,N,08002.4834,W,1,9,2.0,17,M,,M,,*50
06/09/2014	23:11:28.981	$GPGGA,231134,2547.7972,N,08002.4850,W,1,9,2.2,17,M,,M,,*55
06/09/2014	23:11:30.025	$GPGGA,231135,2547.7981,N,08002.4866,W,1,9,2.0,17,M,,M,,*5F
06/09/2014	23:11:31.076	$GPGGA,231136,2547.7992,N,08002.4881,W,1,9,2.0,17,M,,M,,*57
06/09/2014	23:11:32.070	$GPGGA,231137,2547.8004,N,08002.4895,W,1,9,2.0,16,M,,M,,*5B
06/09/2014	23:11:33.099	$GPGGA,231138,2547.8015,N,08002.4911,W,1,9,2.0,16,M,,M,,*59
06/09/2014	23:11:34.130	$GPGGA,231139,2547.8026,N,08002.4925,W,1,10,1.5,16,M,,M,,*61
06/09/2014	23:11:35.169	$GPGGA,231140,2547.8035,N,08002.4939,W,1,10,2.0,16,M,,M,,*66
06/09/2014	23:11:31.970	$GPGGA,231141,2547.8046,N,08002.4954,W,1,9,2.0,16,M,,M,,*50
06/09/2014	23:11:32.958	$GPGGA,231142,2547.8057,N,08002.4968,W,1,9,2.0,16,M,,M,,*5C
06/09/2014	23:11:33.978	$GPGGA,231143,2547.8069,N,08002.4982,W,1,9,2.0,16,M,,M,,*54
06/09/2014	23:11:35.028	$GPGGA,231144,2547.8078,N,08002.4996,W,1,9,2.0,16,M,,M,,*56
06/09/2014	23:11:36.057	$GPGGA,231145,2547.8089,N,08002.5007,W,1,10,1.5,16,M,,M,,*67
06/09/2014	23:11:37.087	$GPGGA,231146,2547.8100,N,08002.5019,W,1,10,1.5,16,M,,M,,*6B
06/09/2014	23:11:38.117	$GPGGA,231147,2547.8110,N,08002.5034,W,1,10,1.5,16,M,,M,,*64
06/09/2014	23:11:39.136	$GPGGA,231148,2547.8121,N,08002.5050,W,1,10,2.0,16,M,,M,,*6D
06/09/2014	23:11:40.156	$GPGGA,231149,2547.8132,N,08002.5063,W,1,9,2.0,16,M,,M,,*56
06/09/2014	23:11:41.185	$GPGGA,231150,2547.8143,N,08002.5079,W,1,9,2.0,16,M,,M,,*53
06/09/2014	23:11:42.225	$GPGGA,231151,2547.8154,N,08002.5094,W,1,9,2.0,16,M,,M,,*57
