Software Version Number: 1	Data File Format Number: 1	Build Version Number: 1	Error Count Since VI Started: 0	Manufacturer: Raytheon	 Model Number: RayMarine 120	 S/N: 	 Cal Date: 	 Wind Direction Offset: 0.00	 Slope (M)1: 0.00	 Offset (B)1: 0.00	 Slope (M)2: 0.00	 Offset (B)2: 0.00	 Slope (M)3: 0.00	 Offset (B)3: 0.00	 Slope (M)4: 0.00	 Offset (B)4: 0.00	 Slope (M)5: 0.00	 Offset (B)5: 0.00	 Slope (M)6: 0.00	 Offset (B)6: 0.00
Computer Date	Computer Time	GGA String
06/09/2014	13:00:00.689	$GPGGA,130001,2516.0690,N,08004.5713,W,1,9,1.4,17,M,,M,,*5A
06/09/2014	13:00:01.678	$GPGGA,130002,2516.0687,N,08004.5715,W,1,9,1.4,17,M,,M,,*59
06/09/2014	13:00:02.690	$GPGGA,130003,2516.0686,N,08004.5717,W,1,9,1.4,17,M,,M,,*5B
06/09/2014	13:00:03.693	$GPGGA,130004,2516.0684,N,08004.5720,W,1,9,1.4,17,M,,M,,*5A
06/09/2014	13:00:04.706	$GPGGA,130005,2516.0683,N,08004.5723,W,1,9,1.4,17,M,,M,,*5F
06/09/2014	13:00:05.669	$GPGGA,130006,2516.0681,N,08004.5724,W,1,9,1.4,17,M,,M,,*59
06/09/2014	13:00:06.692	$GPGGA,130007,2516.0679,N,08004.5727,W,1,9,1.4,17,M,,M,,*5C
06/09/2014	13:00:07.695	$GPGGA,130008,2516.0678,N,08004.5730,W,1,9,1.4,17,M,,M,,*54
06/09/2014	13:00:08.709	$GPGGA,130009,2516.0676,N,08004.5733,W,1,9,1.4,17,M,,M,,*58
06/09/2014	13:00:09.692	$GPGGA,130010,2516.0674,N,08004.5735,W,1,9,1.4,17,M,,M,,*54
06/09/2014	13:00:10.675	$GPGGA,130011,2516.0672,N,08004.5738,W,1,9,1.4,17,M,,M,,*5E
06/09/2014	13:00:11.688	$GPGGA,130012,2516.0670,N,08004.5741,W,1,9,1.4,17,M,,M,,*51
06/09/2014	13:00:12.681	$GPGGA,130013,2516.0669,N,08004.5744,W,1,9,1.4,17,M,,M,,*5D
06/09/2014	13:00:13.694	$GPGGA,130014,2516.0667,N,08004.5746,W,1,9,1.4,16,M,,M,,*57
06/09/2014	13:00:14.708	$GPGGA,130015,2516.0665,N,08004.5749,W,1,9,1.4,16,M,,M,,*5B
06/09/2014	13:00:15.701	$GPGGA,130016,2516.0663,N,08004.5753,W,1,9,1.4,16,M,,M,,*55
06/09/2014	13:00:16.714	$GPGGA,130017,2516.0661,N,08004.5756,W,1,8,1.6,16,M,,M,,*50
06/09/2014	13:00:17.697	$GPGGA,130018,2516.0661,N,08004.5759,W,1,8,1.6,16,M,,M,,*50
06/09/2014	13:00:18.710	$GPGGA,130019,2516.0658,N,08004.5762,W,1,9,1.4,16,M,,M,,*50
06/09/2014	13:00:19.704	$GPGGA,130020,2516.0656,N,08004.5766,W,1,9,1.6,16,M,,M,,*52
06/09/2014	13:00:20.726	$GPGGA,130021,2516.0654,N,08004.5769,W,1,8,1.6,16,M,,M,,*5F
06/09/2014	13:00:21.689	$GPGGA,130022,2516.0657,N,08004.5770,W,1,8,1.6,16,M,,M,,*57
06/09/2014	13:00:22.712	$GPGGA,130023,2516.0654,N,08004.5773,W,1,9,1.4,16,M,,M,,*55
06/09/2014	13:00:23.715	$GPGGA,130024,2516.0651,N,08004.5775,W,1,9,1.6,16,M,,M,,*53
06/09/2014	13:00:24.719	$GPGGA,130025,2516.0649,N,08004.5780,W,1,8,1.6,16,M,,M,,*50
06/09/2014	13:00:25.702	$GPGGA,130026,2516.0660,N,08004.5784,W,1,8,2.2,16,M,,M,,*5B
06/09/2014	13:00:26.695	$GPGGA,130027,2516.0658,N,08004.5787,W,1,8,1.6,16,M,,M,,*55
06/09/2014	13:00:27.728	$GPGGA,130028,2516.0663,N,08004.5788,W,1,8,1.6,16,M,,M,,*5D
06/09/2014	13:00:28.691	$GPGGA,130029,2516.0659,N,08004.5791,W,1,9,1.4,17,M,,M,,*5F
06/09/2014	13:00:29.694	$GPGGA,130030,2516.0658,N,08004.5795,W,1,9,1.6,17,M,,M,,*50
06/09/2014	13:00:30.698	$GPGGA,130031,2516.0656,N,08004.5798,W,1,8,1.6,17,M,,M,,*53
06/09/2014	13:00:31.721	$GPGGA,130032,2516.0654,N,08004.5802,W,1,8,1.6,17,M,,M,,*5E
06/09/2014	13:00:32.734	$GPGGA,130033,2516.0654,N,08004.5805,W,1,8,1.6,17,M,,M,,*58
06/09/2014	13:00:33.717	$GPGGA,130034,2516.0651,N,08004.5807,W,1,8,1.6,17,M,,M,,*58
06/09/2014	13:00:34.741	$GPGGA,130035,2516.0648,N,08004.5810,W,1,8,1.6,17,M,,M,,*57
06/09/2014	13:00:35.724	$GPGGA,130036,2516.0650,N,08004.5813,W,1,8,2.2,17,M,,M,,*59
06/09/2014	13:00:36.737	$GPGGA,130037,2516.0647,N,08004.5816,W,1,9,1.4,17,M,,M,,*5F
06/09/2014	13:00:37.710	$GPGGA,130038,2516.0647,N,08004.5818,W,1,9,1.4,17,M,,M,,*5E
06/09/2014	13:00:38.712	$GPGGA,130039,2516.0645,N,08004.5821,W,1,9,1.4,18,M,,M,,*58
06/09/2014	13:00:39.656	$GPGGA,130040,2516.0644,N,08004.5824,W,1,9,1.5,18,M,,M,,*53
06/09/2014	13:00:40.649	$GPGGA,130041,2516.0641,N,08004.5825,W,1,8,1.4,18,M,,M,,*56
06/09/2014	13:00:41.642	$GPGGA,130042,2516.0639,N,08004.5827,W,1,8,1.4,18,M,,M,,*58
06/09/2014	13:00:42.635	$GPGGA,130043,2516.0638,N,08004.5831,W,1,9,1.4,18,M,,M,,*5E
06/09/2014	13:00:43.548	$GPGGA,130044,2516.0637,N,08004.5832,W,1,9,1.4,18,M,,M,,*55
06/09/2014	13:00:44.652	$GPGGA,130045,2516.0636,N,08004.5835,W,1,8,1.5,18,M,,M,,*52
06/09/2014	13:00:45.635	$GPGGA,130046,2516.0633,N,08004.5838,W,1,8,1.4,18,M,,M,,*58
06/09/2014	13:00:46.635	$GPGGA,130047,2516.0632,N,08004.5842,W,1,9,1.4,18,M,,M,,*54
06/09/2014	13:00:47.671	$GPGGA,130048,2516.0630,N,08004.5843,W,1,9,1.4,18,M,,M,,*58
06/09/2014	13:00:48.539	$GPGGA,130049,2516.0629,N,08004.5846,W,1,9,1.4,18,M,,M,,*54
06/09/2014	13:00:49.643	$GPGGA,130050,2516.0627,N,08004.5849,W,1,9,1.6,18,M,,M,,*5F
06/09/2014	13:00:50.652	$GPGGA,130051,2516.0629,N,08004.5849,W,1,8,1.4,18,M,,M,,*53
06/09/2014	13:00:51.654	$GPGGA,130052,2516.0627,N,08004.5853,W,1,8,1.4,18,M,,M,,*55
06/09/2014	13:00:52.667	$GPGGA,130053,2516.0626,N,08004.5854,W,1,9,1.4,19,M,,M,,*52
06/09/2014	13:00:53.641	$GPGGA,130054,2516.0623,N,08004.5857,W,1,9,1.6,19,M,,M,,*51
06/09/2014	13:00:54.654	$GPGGA,130055,2516.0621,N,08004.5860,W,1,8,1.6,19,M,,M,,*57
06/09/2014	13:00:55.685	$GPGGA,130056,2516.0618,N,08004.5863,W,1,8,1.6,19,M,,M,,*5D
06/09/2014	13:00:56.660	$GPGGA,130057,2516.0618,N,08004.5867,W,1,8,1.4,19,M,,M,,*5A
06/09/2014	13:00:57.654	$GPGGA,130058,2516.0615,N,08004.5870,W,1,8,1.6,19,M,,M,,*5C
06/09/2014	13:00:58.655	$GPGGA,130059,2516.0613,N,08004.5871,W,1,8,1.6,19,M,,M,,*5A
06/09/2014	13:00:59.671	$GPGGA,130100,2516.0611,N,08004.5874,W,1,8,1.6,19,M,,M,,*50
06/09/2014	13:01:00.667	$GPGGA,130101,2516.0609,N,08004.5876,W,1,8,1.6,19,M,,M,,*5A
06/09/2014	13:01:01.641	$GPGGA,130102,2516.0608,N,08004.5878,W,1,8,1.4,19,M,,M,,*54
06/09/2014	13:01:02.656	$GPGGA,130103,2516.0607,N,08004.5881,W,1,9,1.4,19,M,,M,,*5D
06/09/2014	13:01:03.657	$GPGGA,130104,2516.0605,N,08004.5882,W,1,9,1.4,19,M,,M,,*5B
06/09/2014	13:01:04.650	$GPGGA,130105,2516.0604,N,08004.5885,W,1,9,1.4,19,M,,M,,*5C
06/09/2014	13:01:05.653	$GPGGA,130106,2516.0603,N,08004.5886,W,1,9,1.4,19,M,,M,,*5B
06/09/2014	13:01:06.645	$GPGGA,130107,2516.0601,N,08004.5889,W,1,9,1.4,19,M,,M,,*57
06/09/2014	13:01:07.668	$GPGGA,130108,2516.0600,N,08004.5892,W,1,9,1.4,19,M,,M,,*53
06/09/2014	13:01:08.651	$GPGGA,130109,2516.0597,N,08004.5893,W,1,9,1.4,19,M,,M,,*5E
06/09/2014	13:01:09.654	$GPGGA,130110,2516.0596,N,08004.5896,W,1,9,1.4,19,M,,M,,*52
06/09/2014	13:01:10.648	$GPGGA,130111,2516.0593,N,08004.5897,W,1,9,1.4,19,M,,M,,*57
06/09/2014	13:01:11.680	$GPGGA,130112,2516.0592,N,08004.5900,W,1,9,1.4,19,M,,M,,*5A
06/09/2014	13:01:12.684	$GPGGA,130113,2516.0590,N,08004.5901,W,1,9,1.4,19,M,,M,,*58
06/09/2014	13:01:13.654	$GPGGA,130114,2516.0589,N,08004.5903,W,1,9,1.4,19,M,,M,,*55
06/09/2014	13:01:14.677	$GPGGA,130115,2516.0585,N,08004.5905,W,1,9,1.4,19,M,,M,,*5E
06/09/2014	13:01:15.670	$GPGGA,130116,2516.0584,N,08004.5907,W,1,9,1.8,19,M,,M,,*52
06/09/2014	13:01:16.672	$GPGGA,130117,2516.0582,N,08004.5910,W,1,8,1.8,19,M,,M,,*52
06/09/2014	13:01:17.775	$GPGGA,130118,2516.0580,N,08004.5911,W,1,8,1.4,18,M,,M,,*53
06/09/2014	13:01:18.678	$GPGGA,130119,2516.0578,N,08004.5914,W,1,9,1.4,18,M,,M,,*51
06/09/2014	13:01:19.761	$GPGGA,130120,2516.0575,N,08004.5915,W,1,9,1.4,18,M,,M,,*57
06/09/2014	13:01:20.654	$GPGGA,130121,2516.0572,N,08004.5918,W,1,9,1.4,18,M,,M,,*5C
06/09/2014	13:01:21.777	$GPGGA,130122,2516.0571,N,08004.5921,W,1,9,1.4,18,M,,M,,*56
06/09/2014	13:01:22.759	$GPGGA,130123,2516.0568,N,08004.5922,W,1,9,1.4,18,M,,M,,*5C
06/09/2014	13:01:23.702	$GPGGA,130124,2516.0565,N,08004.5923,W,1,9,1.4,18,M,,M,,*57
06/09/2014	13:01:24.775	$GPGGA,130125,2516.0564,N,08004.5925,W,1,9,1.4,18,M,,M,,*51
06/09/2014	13:01:25.678	$GPGGA,130126,2516.0561,N,08004.5928,W,1,9,1.4,18,M,,M,,*5A
06/09/2014	13:01:26.670	$GPGGA,130127,2516.0560,N,08004.5928,W,1,9,1.4,18,M,,M,,*5A
06/09/2014	13:01:27.793	$GPGGA,130128,2516.0557,N,08004.5930,W,1,9,1.4,18,M,,M,,*58
06/09/2014	13:01:28.687	$GPGGA,130129,2516.0555,N,08004.5932,W,1,9,1.4,18,M,,M,,*59
06/09/2014	13:01:29.759	$GPGGA,130130,2516.0553,N,08004.5933,W,1,9,1.4,18,M,,M,,*56
06/09/2014	13:01:30.691	$GPGGA,130131,2516.0550,N,08004.5934,W,1,9,1.4,18,M,,M,,*53
06/09/2014	13:01:31.703	$GPGGA,130132,2516.0549,N,08004.5936,W,1,9,1.4,18,M,,M,,*5A
06/09/2014	13:01:32.686	$GPGGA,130133,2516.0546,N,08004.5936,W,1,9,1.4,18,M,,M,,*54
06/09/2014	13:01:33.679	$GPGGA,130134,2516.0544,N,08004.5939,W,1,9,1.4,18,M,,M,,*5E
06/09/2014	13:01:34.792	$GPGGA,130135,2516.0542,N,08004.5939,W,1,9,1.4,18,M,,M,,*59
06/09/2014	13:01:35.684	$GPGGA,130136,2516.0540,N,08004.5940,W,1,9,1.4,18,M,,M,,*56
06/09/2014	13:01:36.788	$GPGGA,130137,2516.0538,N,08004.5941,W,1,9,1.4,18,M,,M,,*59
06/09/2014	13:01:37.778	$GPGGA,130138,2516.0536,N,08004.5943,W,1,9,1.4,18,M,,M,,*5A
06/09/2014	13:01:38.769	$GPGGA,130139,2516.0535,N,08004.5943,W,1,9,1.8,18,M,,M,,*54
06/09/2014	13:01:39.650	$GPGGA,130140,2516.0533,N,08004.5943,W,1,9,1.8,18,M,,M,,*5C
06/09/2014	13:01:40.607	$GPGGA,130141,2516.0532,N,08004.5943,W,1,8,1.8,18,M,,M,,*5D
06/09/2014	13:01:41.600	$GPGGA,130142,2516.0531,N,08004.5943,W,1,8,1.8,18,M,,M,,*5D
06/09/2014	13:01:42.593	$GPGGA,130143,2516.0528,N,08004.5944,W,1,8,1.8,18,M,,M,,*53
06/09/2014	13:01:43.616	$GPGGA,130144,2516.0526,N,08004.5946,W,1,8,1.8,18,M,,M,,*58
06/09/2014	13:01:44.629	$GPGGA,130145,2516.0524,N,08004.5947,W,1,9,1.4,18,M,,M,,*57
06/09/2014	13:01:45.612	$GPGGA,130146,2516.0522,N,08004.5946,W,1,9,1.8,18,M,,M,,*5F
06/09/2014	13:01:46.634	$GPGGA,130147,2516.0521,N,08004.5947,W,1,8,1.8,18,M,,M,,*5D
06/09/2014	13:01:47.616	$GPGGA,130148,2516.0515,N,08004.5950,W,1,8,1.8,18,M,,M,,*53
06/09/2014	13:01:48.599	$GPGGA,130149,2516.0511,N,08004.5952,W,1,9,1.4,18,M,,M,,*59
06/09/2014	13:01:49.622	$GPGGA,130150,2516.0507,N,08004.5954,W,1,9,1.4,18,M,,M,,*50
06/09/2014	13:01:50.634	$GPGGA,130151,2516.0506,N,08004.5954,W,1,9,1.4,18,M,,M,,*50
06/09/2014	13:01:51.617	$GPGGA,130152,2516.0503,N,08004.5954,W,1,9,1.4,18,M,,M,,*56
06/09/2014	13:01:52.600	$GPGGA,130153,2516.0501,N,08004.5954,W,1,9,1.4,18,M,,M,,*55
06/09/2014	13:01:53.603	$GPGGA,130154,2516.0499,N,08004.5954,W,1,9,2.0,18,M,,M,,*55
06/09/2014	13:01:54.636	$GPGGA,130155,2516.0496,N,08004.5954,W,1,7,2.0,18,M,,M,,*55
06/09/2014	13:01:55.618	$GPGGA,130156,2516.0495,N,08004.5955,W,1,7,1.6,17,M,,M,,*5E
06/09/2014	13:01:56.611	$GPGGA,130157,2516.0491,N,08004.5957,W,1,8,1.6,17,M,,M,,*56
06/09/2014	13:01:57.614	$GPGGA,130158,2516.0489,N,08004.5955,W,1,8,1.6,17,M,,M,,*52
06/09/2014	13:01:58.627	$GPGGA,130159,2516.0490,N,08004.5954,W,1,9,1.4,17,M,,M,,*59
06/09/2014	13:01:59.620	$GPGGA,130200,2516.0488,N,08004.5952,W,1,9,1.8,17,M,,M,,*55
06/09/2014	13:02:00.642	$GPGGA,130201,2516.0488,N,08004.5951,W,1,8,1.8,17,M,,M,,*56
06/09/2014	13:02:01.615	$GPGGA,130202,2516.0485,N,08004.5951,W,1,8,1.8,17,M,,M,,*58
06/09/2014	13:02:02.608	$GPGGA,130203,2516.0486,N,08004.5949,W,1,9,1.4,17,M,,M,,*5E
06/09/2014	13:02:03.631	$GPGGA,130204,2516.0481,N,08004.5950,W,1,9,1.6,17,M,,M,,*54
06/09/2014	13:02:04.644	$GPGGA,130205,2516.0479,N,08004.5949,W,1,8,1.6,17,M,,M,,*5B
06/09/2014	13:02:05.605	$GPGGA,130206,2516.0477,N,08004.5947,W,1,8,2.0,17,M,,M,,*5D
06/09/2014	13:02:06.608	$GPGGA,130207,2516.0477,N,08004.5946,W,1,7,2.0,17,M,,M,,*52
06/09/2014	13:02:07.631	$GPGGA,130208,2516.0474,N,08004.5944,W,1,7,2.0,17,M,,M,,*5C
06/09/2014	13:02:08.614	$GPGGA,130209,2516.0472,N,08004.5943,W,1,7,2.0,17,M,,M,,*5C
06/09/2014	13:02:09.626	$GPGGA,130210,2516.0473,N,08004.5941,W,1,7,2.0,17,M,,M,,*57
06/09/2014	13:02:10.629	$GPGGA,130211,2516.0471,N,08004.5938,W,1,8,1.8,17,M,,M,,*5E
06/09/2014	13:02:11.722	$GPGGA,130212,2516.0470,N,08004.5937,W,1,8,1.8,17,M,,M,,*53
06/09/2014	13:02:12.745	$GPGGA,130213,2516.0467,N,08004.5936,W,1,9,1.4,17,M,,M,,*58
06/09/2014	13:02:13.628	$GPGGA,130214,2516.0468,N,08004.5935,W,1,9,1.4,17,M,,M,,*53
06/09/2014	13:02:14.731	$GPGGA,130215,2516.0466,N,08004.5934,W,1,8,1.8,17,M,,M,,*50
06/09/2014	13:02:15.623	$GPGGA,130216,2516.0464,N,08004.5933,W,1,8,1.8,17,M,,M,,*56
06/09/2014	13:02:16.636	$GPGGA,130217,2516.0462,N,08004.5932,W,1,8,1.8,17,M,,M,,*50
06/09/2014	13:02:17.619	$GPGGA,130218,2516.0460,N,08004.5930,W,1,8,1.8,17,M,,M,,*5F
06/09/2014	13:02:18.712	$GPGGA,130219,2516.0459,N,08004.5929,W,1,8,1.8,17,M,,M,,*5C
06/09/2014	13:02:19.644	$GPGGA,130220,2516.0456,N,08004.5929,W,1,8,1.8,17,M,,M,,*59
06/09/2014	13:02:20.637	$GPGGA,130221,2516.0454,N,08004.5927,W,1,8,1.8,17,M,,M,,*54
06/09/2014	13:02:21.730	$GPGGA,130222,2516.0450,N,08004.5928,W,1,8,1.8,17,M,,M,,*5C
06/09/2014	13:02:22.722	$GPGGA,130223,2516.0446,N,08004.5929,W,1,9,1.4,17,M,,M,,*56
06/09/2014	13:02:23.745	$GPGGA,130224,2516.0443,N,08004.5929,W,1,9,1.4,17,M,,M,,*54
06/09/2014	13:02:24.748	$GPGGA,130225,2516.0441,N,08004.5929,W,1,9,1.4,17,M,,M,,*57
06/09/2014	13:02:25.730	$GPGGA,130226,2516.0436,N,08004.5928,W,1,9,1.4,17,M,,M,,*55
06/09/2014	13:02:26.743	$GPGGA,130227,2516.0434,N,08004.5928,W,1,9,1.4,17,M,,M,,*56
06/09/2014	13:02:27.737	$GPGGA,130228,2516.0430,N,08004.5928,W,1,9,1.4,17,M,,M,,*5D
06/09/2014	13:02:28.749	$GPGGA,130229,2516.0428,N,08004.5927,W,1,9,1.4,17,M,,M,,*5A
06/09/2014	13:02:29.734	$GPGGA,130230,2516.0425,N,08004.5926,W,1,9,1.4,17,M,,M,,*5E
06/09/2014	13:02:30.754	$GPGGA,130231,2516.0423,N,08004.5925,W,1,9,1.4,18,M,,M,,*55
06/09/2014	13:02:31.737	$GPGGA,130232,2516.0420,N,08004.5924,W,1,9,1.4,18,M,,M,,*54
06/09/2014	13:02:32.750	$GPGGA,130233,2516.0417,N,08004.5923,W,1,9,1.4,18,M,,M,,*56
06/09/2014	13:02:33.735	$GPGGA,130234,2516.0416,N,08004.5920,W,1,9,1.4,18,M,,M,,*53
06/09/2014	13:02:34.747	$GPGGA,130235,2516.0415,N,08004.5918,W,1,8,1.8,18,M,,M,,*57
06/09/2014	13:02:35.748	$GPGGA,130236,2516.0414,N,08004.5915,W,1,8,1.8,18,M,,M,,*58
06/09/2014	13:02:36.748	$GPGGA,130237,2516.0412,N,08004.5913,W,1,8,1.8,18,M,,M,,*59
06/09/2014	13:02:37.724	$GPGGA,130238,2516.0412,N,08004.5911,W,1,8,1.8,18,M,,M,,*54
06/09/2014	13:02:38.727	$GPGGA,130239,2516.0409,N,08004.5909,W,1,8,1.8,18,M,,M,,*56
06/09/2014	13:02:39.595	$GPGGA,130240,2516.0407,N,08004.5906,W,1,8,1.8,18,M,,M,,*59
06/09/2014	13:02:40.585	$GPGGA,130241,2516.0406,N,08004.5904,W,1,8,1.8,18,M,,M,,*5B
06/09/2014	13:02:41.568	$GPGGA,130242,2516.0405,N,08004.5902,W,1,8,1.8,18,M,,M,,*5D
06/09/2014	13:02:42.591	$GPGGA,130243,2516.0402,N,08004.5900,W,1,8,1.8,18,M,,M,,*59
06/09/2014	13:02:43.584	$GPGGA,130244,2516.0401,N,08004.5898,W,1,8,1.8,18,M,,M,,*5D
06/09/2014	13:02:44.597	$GPGGA,130245,2516.0398,N,08004.5896,W,1,8,1.8,18,M,,M,,*55
06/09/2014	13:02:45.579	$GPGGA,130246,2516.0395,N,08004.5894,W,1,8,1.8,18,M,,M,,*59
06/09/2014	13:02:46.602	$GPGGA,130247,2516.0394,N,08004.5893,W,1,7,2.0,18,M,,M,,*5A
06/09/2014	13:02:47.595	$GPGGA,130248,2516.0390,N,08004.5892,W,1,7,2.6,18,M,,M,,*56
06/09/2014	13:02:48.598	$GPGGA,130249,2516.0388,N,08004.5888,W,1,7,2.0,18,M,,M,,*53
06/09/2014	13:02:49.581	$GPGGA,130250,2516.0387,N,08004.5885,W,1,7,1.8,18,M,,M,,*52
06/09/2014	13:02:50.573	$GPGGA,130251,2516.0384,N,08004.5881,W,1,8,1.8,18,M,,M,,*5B
06/09/2014	13:02:51.596	$GPGGA,130252,2516.0383,N,08004.5878,W,1,8,1.8,18,M,,M,,*59
06/09/2014	13:02:52.579	$GPGGA,130253,2516.0380,N,08004.5875,W,1,8,1.8,18,M,,M,,*56
06/09/2014	13:02:53.582	$GPGGA,130254,2516.0378,N,08004.5873,W,1,8,1.8,18,M,,M,,*50
06/09/2014	13:02:54.606	$GPGGA,130255,2516.0376,N,08004.5870,W,1,8,1.8,18,M,,M,,*5C
06/09/2014	13:02:55.587	$GPGGA,130256,2516.0374,N,08004.5867,W,1,8,1.8,18,M,,M,,*5B
06/09/2014	13:02:56.590	$GPGGA,130257,2516.0372,N,08004.5864,W,1,8,1.8,18,M,,M,,*5F
06/09/2014	13:02:57.592	$GPGGA,130258,2516.0369,N,08004.5862,W,1,8,1.8,18,M,,M,,*5C
06/09/2014	13:02:58.575	$GPGGA,130259,2516.0367,N,08004.5859,W,1,8,1.8,18,M,,M,,*5B
06/09/2014	13:02:59.608	$GPGGA,130300,2516.0365,N,08004.5856,W,1,8,1.8,18,M,,M,,*5B
06/09/2014	13:03:00.711	$GPGGA,130301,2516.0362,N,08004.5852,W,1,8,1.8,18,M,,M,,*59
06/09/2014	13:03:01.593	$GPGGA,130302,2516.0360,N,08004.5849,W,1,8,1.8,18,M,,M,,*52
06/09/2014	13:03:02.596	$GPGGA,130303,2516.0358,N,08004.5846,W,1,8,1.8,18,M,,M,,*57
06/09/2014	13:03:03.609	$GPGGA,130304,2516.0355,N,08004.5843,W,1,8,1.8,18,M,,M,,*58
06/09/2014	13:03:04.702	$GPGGA,130305,2516.0352,N,08004.5840,W,1,8,1.8,18,M,,M,,*5D
06/09/2014	13:03:05.594	$GPGGA,130306,2516.0350,N,08004.5837,W,1,8,1.8,18,M,,M,,*5C
06/09/2014	13:03:06.607	$GPGGA,130307,2516.0347,N,08004.5834,W,1,8,1.8,18,M,,M,,*58
06/09/2014	13:03:07.590	$GPGGA,130308,2516.0344,N,08004.5831,W,1,8,1.8,18,M,,M,,*51
06/09/2014	13:03:08.593	$GPGGA,130309,2516.0342,N,08004.5828,W,1,8,1.8,18,M,,M,,*5E
06/09/2014	13:03:09.585	$GPGGA,130310,2516.0341,N,08004.5824,W,1,8,2.0,18,M,,M,,*52
06/09/2014	13:03:10.719	$GPGGA,130311,2516.0340,N,08004.5821,W,1,8,1.8,18,M,,M,,*5C
06/09/2014	13:03:11.611	$GPGGA,130312,2516.0337,N,08004.5818,W,1,8,1.8,18,M,,M,,*55
06/09/2014	13:03:12.694	$GPGGA,130313,2516.0336,N,08004.5814,W,1,8,1.8,18,M,,M,,*59
06/09/2014	13:03:13.688	$GPGGA,130314,2516.0332,N,08004.5811,W,1,8,1.8,18,M,,M,,*5F
06/09/2014	13:03:14.680	$GPGGA,130315,2516.0330,N,08004.5808,W,1,7,2.0,18,M,,M,,*50
06/09/2014	13:03:15.711	$GPGGA,130316,2516.0327,N,08004.5805,W,1,7,2.0,18,M,,M,,*58
06/09/2014	13:03:16.714	$GPGGA,130317,2516.0325,N,08004.5802,W,1,7,2.0,18,M,,M,,*5C
06/09/2014	13:03:17.687	$GPGGA,130318,2516.0323,N,08004.5798,W,1,7,1.8,18,M,,M,,*52
06/09/2014	13:03:18.692	$GPGGA,130319,2516.0322,N,08004.5795,W,1,8,1.8,18,M,,M,,*50
06/09/2014	13:03:19.713	$GPGGA,130320,2516.0320,N,08004.5791,W,1,8,1.8,18,M,,M,,*5C
06/09/2014	13:03:20.695	$GPGGA,130321,2516.0318,N,08004.5787,W,1,8,1.8,18,M,,M,,*51
06/09/2014	13:03:21.688	$GPGGA,130322,2516.0315,N,08004.5783,W,1,8,1.8,18,M,,M,,*5B
06/09/2014	13:03:22.722	$GPGGA,130323,2516.0313,N,08004.5780,W,1,7,2.0,18,M,,M,,*5B
06/09/2014	13:03:23.716	$GPGGA,130324,2516.0311,N,08004.5776,W,1,7,2.0,18,M,,M,,*57
06/09/2014	13:03:24.717	$GPGGA,130325,2516.0311,N,08004.5771,W,1,7,2.0,18,M,,M,,*51
06/09/2014	13:03:25.699	$GPGGA,130326,2516.0308,N,08004.5768,W,1,7,1.8,18,M,,M,,*59
06/09/2014	13:03:26.712	$GPGGA,130327,2516.0307,N,08004.5764,W,1,8,1.8,18,M,,M,,*54
06/09/2014	13:03:27.715	$GPGGA,130328,2516.0305,N,08004.5759,W,1,8,1.8,18,M,,M,,*57
06/09/2014	13:03:28.728	$GPGGA,130329,2516.0303,N,08004.5755,W,1,8,1.8,18,M,,M,,*5C
06/09/2014	13:03:29.701	$GPGGA,130330,2516.0301,N,08004.5751,W,1,8,1.8,18,M,,M,,*52
06/09/2014	13:03:30.703	$GPGGA,130331,2516.0300,N,08004.5748,W,1,8,1.8,18,M,,M,,*5A
06/09/2014	13:03:31.718	$GPGGA,130332,2516.0298,N,08004.5743,W,1,8,2.0,18,M,,M,,*59
06/09/2014	13:03:32.718	$GPGGA,130333,2516.0299,N,08004.5739,W,1,8,1.8,18,M,,M,,*5F
06/09/2014	13:03:33.701	$GPGGA,130334,2516.0296,N,08004.5735,W,1,8,1.8,18,M,,M,,*5B
06/09/2014	13:03:34.734	$GPGGA,130335,2516.0295,N,08004.5731,W,1,8,1.8,18,M,,M,,*5D
06/09/2014	13:03:35.716	$GPGGA,130336,2516.0293,N,08004.5727,W,1,8,1.8,18,M,,M,,*5F
06/09/2014	13:03:36.699	$GPGGA,130337,2516.0293,N,08004.5723,W,1,8,1.8,18,M,,M,,*5A
06/09/2014	13:03:37.712	$GPGGA,130338,2516.0290,N,08004.5719,W,1,8,2.0,18,M,,M,,*54
06/09/2014	13:03:38.735	$GPGGA,130339,2516.0289,N,08004.5716,W,1,8,1.8,18,M,,M,,*59
06/09/2014	13:03:39.717	$GPGGA,130340,2516.0287,N,08004.5712,W,1,8,1.8,18,M,,M,,*5D
06/09/2014	13:03:40.534	$GPGGA,130341,2516.0285,N,08004.5708,W,1,8,1.8,18,M,,M,,*55
06/09/2014	13:03:41.557	$GPGGA,130342,2516.0284,N,08004.5704,W,1,8,1.8,18,M,,M,,*5B
06/09/2014	13:03:42.540	$GPGGA,130343,2516.0282,N,08004.5700,W,1,8,1.8,18,M,,M,,*58
06/09/2014	13:03:43.563	$GPGGA,130344,2516.0280,N,08004.5696,W,1,8,1.8,18,M,,M,,*53
06/09/2014	13:03:44.535	$GPGGA,130345,2516.0279,N,08004.5692,W,1,8,1.8,18,M,,M,,*50
06/09/2014	13:03:45.699	$GPGGA,130346,2516.0277,N,08004.5688,W,1,8,1.8,18,M,,M,,*56
06/09/2014	13:03:46.541	$GPGGA,130347,2516.0276,N,08004.5684,W,1,8,1.8,18,M,,M,,*5A
06/09/2014	13:03:47.564	$GPGGA,130348,2516.0275,N,08004.5680,W,1,8,1.8,18,M,,M,,*52
06/09/2014	13:03:48.557	$GPGGA,130349,2516.0272,N,08004.5675,W,1,8,1.8,18,M,,M,,*5E
06/09/2014	13:03:49.559	$GPGGA,130350,2516.0271,N,08004.5671,W,1,8,1.8,18,M,,M,,*51
06/09/2014	13:03:50.541	$GPGGA,130351,2516.0269,N,08004.5668,W,1,8,1.8,18,M,,M,,*51
06/09/2014	13:03:51.554	$GPGGA,130352,2516.0268,N,08004.5664,W,1,8,1.8,18,M,,M,,*5F
06/09/2014	13:03:52.739	$GPGGA,130353,2516.0267,N,08004.5659,W,1,8,1.8,18,M,,M,,*5F
06/09/2014	13:03:53.560	$GPGGA,130354,2516.0266,N,08004.5655,W,1,8,1.8,18,M,,M,,*55
06/09/2014	13:03:54.562	$GPGGA,130355,2516.0265,N,08004.5650,W,1,8,1.8,18,M,,M,,*52
06/09/2014	13:03:55.565	$GPGGA,130356,2516.0264,N,08004.5646,W,1,8,1.8,18,M,,M,,*57
06/09/2014	13:03:56.568	$GPGGA,130357,2516.0264,N,08004.5641,W,1,8,1.8,18,M,,M,,*51
06/09/2014	13:03:57.721	$GPGGA,130358,2516.0262,N,08004.5637,W,1,8,1.8,18,M,,M,,*59
06/09/2014	13:03:58.714	$GPGGA,130359,2516.0261,N,08004.5633,W,1,8,1.8,18,M,,M,,*5F
06/09/2014	13:03:59.737	$GPGGA,130400,2516.0262,N,08004.5628,W,1,8,1.8,18,M,,M,,*5D
06/09/2014	13:04:00.669	$GPGGA,130401,2516.0260,N,08004.5624,W,1,8,1.8,18,M,,M,,*52
06/09/2014	13:04:01.722	$GPGGA,130402,2516.0260,N,08004.5620,W,1,8,1.8,18,M,,M,,*55
06/09/2014	13:04:02.655	$GPGGA,130403,2516.0260,N,08004.5616,W,1,8,1.8,18,M,,M,,*51
06/09/2014	13:04:03.738	$GPGGA,130404,2516.0260,N,08004.5612,W,1,8,1.8,18,M,,M,,*52
06/09/2014	13:04:04.711	$GPGGA,130405,2516.0258,N,08004.5608,W,1,8,1.8,18,M,,M,,*53
06/09/2014	13:04:05.653	$GPGGA,130406,2516.0259,N,08004.5604,W,1,8,1.8,18,M,,M,,*5D
06/09/2014	13:04:06.707	$GPGGA,130407,2516.0258,N,08004.5600,W,1,8,1.8,18,M,,M,,*59
06/09/2014	13:04:07.748	$GPGGA,130408,2516.0259,N,08004.5595,W,1,8,1.8,18,M,,M,,*58
06/09/2014	13:04:08.711	$GPGGA,130409,2516.0257,N,08004.5591,W,1,8,1.8,18,M,,M,,*53
06/09/2014	13:04:09.724	$GPGGA,130410,2516.0259,N,08004.5587,W,1,8,1.8,18,M,,M,,*52
06/09/2014	13:04:10.706	$GPGGA,130411,2516.0258,N,08004.5583,W,1,8,1.8,18,M,,M,,*56
06/09/2014	13:04:11.739	$GPGGA,130412,2516.0259,N,08004.5578,W,1,8,1.8,18,M,,M,,*50
06/09/2014	13:04:12.762	$GPGGA,130413,2516.0258,N,08004.5574,W,1,8,1.8,18,M,,M,,*5C
06/09/2014	13:04:13.656	$GPGGA,130414,2516.0259,N,08004.5570,W,1,8,1.8,18,M,,M,,*5E
06/09/2014	13:04:14.708	$GPGGA,130415,2516.0260,N,08004.5566,W,1,8,1.8,18,M,,M,,*52
06/09/2014	13:04:15.720	$GPGGA,130416,2516.0260,N,08004.5562,W,1,8,1.8,18,M,,M,,*55
06/09/2014	13:04:16.703	$GPGGA,130417,2516.0260,N,08004.5557,W,1,8,1.8,18,M,,M,,*52
06/09/2014	13:04:17.716	$GPGGA,130418,2516.0262,N,08004.5553,W,1,8,1.8,18,M,,M,,*5B
06/09/2014	13:04:18.709	$GPGGA,130419,2516.0261,N,08004.5549,W,1,8,1.8,17,M,,M,,*5D
06/09/2014	13:04:19.742	$GPGGA,130420,2516.0263,N,08004.5545,W,1,8,1.8,17,M,,M,,*59
06/09/2014	13:04:20.714	$GPGGA,130421,2516.0262,N,08004.5541,W,1,8,1.8,17,M,,M,,*5D
06/09/2014	13:04:21.714	$GPGGA,130422,2516.0264,N,08004.5536,W,1,8,1.8,17,M,,M,,*58
06/09/2014	13:04:22.740	$GPGGA,130423,2516.0264,N,08004.5532,W,1,8,1.8,17,M,,M,,*5D
06/09/2014	13:04:23.753	$GPGGA,130424,2516.0264,N,08004.5529,W,1,8,1.8,17,M,,M,,*50
06/09/2014	13:04:24.665	$GPGGA,130425,2516.0266,N,08004.5524,W,1,8,1.8,17,M,,M,,*5E
06/09/2014	13:04:25.727	$GPGGA,130426,2516.0267,N,08004.5520,W,1,8,1.8,17,M,,M,,*58
06/09/2014	13:04:26.725	$GPGGA,130427,2516.0266,N,08004.5516,W,1,8,1.8,17,M,,M,,*5D
06/09/2014	13:04:27.673	$GPGGA,130428,2516.0267,N,08004.5512,W,1,8,1.8,17,M,,M,,*57
06/09/2014	13:04:28.717	$GPGGA,130429,2516.0268,N,08004.5507,W,1,8,1.8,17,M,,M,,*5D
06/09/2014	13:04:29.739	$GPGGA,130430,2516.0270,N,08004.5503,W,1,8,1.8,17,M,,M,,*58
06/09/2014	13:04:30.701	$GPGGA,130431,2516.0271,N,08004.5499,W,1,8,1.8,17,M,,M,,*5A
06/09/2014	13:04:31.674	$GPGGA,130432,2516.0271,N,08004.5495,W,1,8,1.8,17,M,,M,,*55
06/09/2014	13:04:32.707	$GPGGA,130433,2516.0273,N,08004.5491,W,1,8,1.8,17,M,,M,,*52
06/09/2014	13:04:33.760	$GPGGA,130434,2516.0274,N,08004.5487,W,1,8,1.8,16,M,,M,,*54
06/09/2014	13:04:34.672	$GPGGA,130435,2516.0275,N,08004.5483,W,1,8,1.8,16,M,,M,,*50
06/09/2014	13:04:35.755	$GPGGA,130436,2516.0275,N,08004.5479,W,1,8,1.8,16,M,,M,,*56
06/09/2014	13:04:36.768	$GPGGA,130437,2516.0277,N,08004.5474,W,1,8,1.8,16,M,,M,,*58
06/09/2014	13:04:37.671	$GPGGA,130438,2516.0278,N,08004.5470,W,1,8,1.8,16,M,,M,,*5C
06/09/2014	13:04:38.674	$GPGGA,130439,2516.0278,N,08004.5466,W,1,8,1.8,16,M,,M,,*5A
06/09/2014	13:04:39.599	$GPGGA,130440,2516.0280,N,08004.5462,W,1,8,1.8,16,M,,M,,*57
06/09/2014	13:04:40.643	$GPGGA,130441,2516.0281,N,08004.5458,W,1,8,1.8,16,M,,M,,*5E
06/09/2014	13:04:41.615	$GPGGA,130442,2516.0282,N,08004.5454,W,1,8,1.8,16,M,,M,,*52
06/09/2014	13:04:42.547	$GPGGA,130443,2516.0282,N,08004.5450,W,1,8,1.8,16,M,,M,,*57
06/09/2014	13:04:43.630	$GPGGA,130444,2516.0284,N,08004.5446,W,1,8,1.8,16,M,,M,,*51
06/09/2014	13:04:44.643	$GPGGA,130445,2516.0285,N,08004.5442,W,1,8,1.8,16,M,,M,,*55
06/09/2014	13:04:45.625	$GPGGA,130446,2516.0285,N,08004.5437,W,1,8,1.8,16,M,,M,,*54
06/09/2014	13:04:46.638	$GPGGA,130447,2516.0286,N,08004.5433,W,1,8,1.8,16,M,,M,,*52
06/09/2014	13:04:47.651	$GPGGA,130448,2516.0288,N,08004.5429,W,1,8,1.8,15,M,,M,,*5B
06/09/2014	13:04:48.624	$GPGGA,130449,2516.0289,N,08004.5425,W,1,8,1.8,15,M,,M,,*57
06/09/2014	13:04:49.627	$GPGGA,130450,2516.0289,N,08004.5421,W,1,8,1.8,15,M,,M,,*5B
06/09/2014	13:04:50.639	$GPGGA,130451,2516.0292,N,08004.5418,W,1,8,1.8,15,M,,M,,*5A
06/09/2014	13:04:51.642	$GPGGA,130452,2516.0293,N,08004.5413,W,1,8,1.8,15,M,,M,,*53
06/09/2014	13:04:52.645	$GPGGA,130453,2516.0293,N,08004.5409,W,1,8,1.8,15,M,,M,,*59
06/09/2014	13:04:53.619	$GPGGA,130454,2516.0296,N,08004.5405,W,1,8,1.8,15,M,,M,,*57
06/09/2014	13:04:54.631	$GPGGA,130455,2516.0296,N,08004.5401,W,1,8,1.8,15,M,,M,,*52
06/09/2014	13:04:55.633	$GPGGA,130456,2516.0298,N,08004.5397,W,1,8,1.8,15,M,,M,,*57
06/09/2014	13:04:56.636	$GPGGA,130457,2516.0299,N,08004.5393,W,1,8,1.8,15,M,,M,,*53
06/09/2014	13:04:57.620	$GPGGA,130458,2516.0300,N,08004.5389,W,1,8,1.8,15,M,,M,,*56
06/09/2014	13:04:58.652	$GPGGA,130459,2516.0300,N,08004.5385,W,1,8,1.8,15,M,,M,,*5B
06/09/2014	13:04:59.635	$GPGGA,130500,2516.0302,N,08004.5381,W,1,8,1.8,15,M,,M,,*50
06/09/2014	13:05:00.646	$GPGGA,130501,2516.0303,N,08004.5377,W,1,8,1.8,15,M,,M,,*59
06/09/2014	13:05:01.629	$GPGGA,130502,2516.0303,N,08004.5377,W,1,8,1.8,15,M,,M,,*5A
06/09/2014	13:05:02.642	$GPGGA,130503,2516.0307,N,08004.5369,W,1,8,1.8,15,M,,M,,*50
06/09/2014	13:05:03.665	$GPGGA,130504,2516.0307,N,08004.5364,W,1,8,1.8,15,M,,M,,*5A
06/09/2014	13:05:04.664	$GPGGA,130505,2516.0309,N,08004.5361,W,1,8,1.8,15,M,,M,,*50
06/09/2014	13:05:05.670	$GPGGA,130506,2516.0310,N,08004.5357,W,1,8,1.8,14,M,,M,,*5F
06/09/2014	13:05:06.633	$GPGGA,130507,2516.0311,N,08004.5353,W,1,8,1.8,14,M,,M,,*5B
06/09/2014	13:05:07.657	$GPGGA,130508,2516.0313,N,08004.5349,W,1,8,1.8,14,M,,M,,*5D
06/09/2014	13:05:08.659	$GPGGA,130509,2516.0314,N,08004.5345,W,1,8,1.8,14,M,,M,,*57
06/09/2014	13:05:09.652	$GPGGA,130510,2516.0316,N,08004.5341,W,1,8,1.8,14,M,,M,,*59
06/09/2014	13:05:10.644	$GPGGA,130511,2516.0316,N,08004.5341,W,1,8,1.8,14,M,,M,,*58
06/09/2014	13:05:11.687	$GPGGA,130512,2516.0317,N,08004.5338,W,1,8,1.8,14,M,,M,,*54
06/09/2014	13:05:12.640	$GPGGA,130513,2516.0320,N,08004.5330,W,1,8,1.8,14,M,,M,,*59
06/09/2014	13:05:13.653	$GPGGA,130514,2516.0322,N,08004.5328,W,1,8,1.8,14,M,,M,,*55
06/09/2014	13:05:14.666	$GPGGA,130515,2516.0324,N,08004.5324,W,1,8,2.0,14,M,,M,,*55
06/09/2014	13:05:15.658	$GPGGA,130516,2516.0324,N,08004.5324,W,1,8,2.0,14,M,,M,,*56
06/09/2014	13:05:16.671	$GPGGA,130517,2516.0327,N,08004.5317,W,1,8,1.8,14,M,,M,,*5F
06/09/2014	13:05:17.653	$GPGGA,130518,2516.0329,N,08004.5313,W,1,8,1.8,14,M,,M,,*5A
06/09/2014	13:05:18.646	$GPGGA,130519,2516.0332,N,08004.5310,W,1,8,1.8,14,M,,M,,*52
06/09/2014	13:05:19.648	$GPGGA,130520,2516.0332,N,08004.5310,W,1,8,1.8,14,M,,M,,*58
06/09/2014	13:05:20.762	$GPGGA,130521,2516.0336,N,08004.5302,W,1,8,1.8,14,M,,M,,*5E
06/09/2014	13:05:21.644	$GPGGA,130522,2516.0336,N,08004.5299,W,1,8,1.8,14,M,,M,,*5E
06/09/2014	13:05:22.777	$GPGGA,130523,2516.0339,N,08004.5295,W,1,8,1.8,14,M,,M,,*5C
06/09/2014	13:05:23.700	$GPGGA,130524,2516.0339,N,08004.5295,W,1,8,1.8,14,M,,M,,*5B
06/09/2014	13:05:24.652	$GPGGA,130525,2516.0342,N,08004.5287,W,1,8,1.8,14,M,,M,,*55
06/09/2014	13:05:25.655	$GPGGA,130526,2516.0343,N,08004.5283,W,1,8,1.8,14,M,,M,,*53
06/09/2014	13:05:26.678	$GPGGA,130527,2516.0345,N,08004.5280,W,1,8,1.8,15,M,,M,,*56
06/09/2014	13:05:27.661	$GPGGA,130528,2516.0345,N,08004.5280,W,1,8,1.8,15,M,,M,,*59
06/09/2014	13:05:28.637	$GPGGA,130529,2516.0347,N,08004.5272,W,1,7,2.0,15,M,,M,,*53
06/09/2014	13:05:29.737	$GPGGA,130530,2516.0349,N,08004.5268,W,1,7,2.0,15,M,,M,,*5E
06/09/2014	13:05:30.739	$GPGGA,130531,2516.0350,N,08004.5265,W,1,7,2.0,15,M,,M,,*5A
06/09/2014	13:05:31.672	$GPGGA,130532,2516.0351,N,08004.5261,W,1,7,1.8,15,M,,M,,*57
06/09/2014	13:05:32.645	$GPGGA,130533,2516.0353,N,08004.5258,W,1,8,1.8,15,M,,M,,*51
06/09/2014	13:05:33.738	$GPGGA,130534,2516.0356,N,08004.5254,W,1,8,1.8,15,M,,M,,*5F
06/09/2014	13:05:34.751	$GPGGA,130535,2516.0357,N,08004.5250,W,1,8,1.8,15,M,,M,,*5B
06/09/2014	13:05:35.762	$GPGGA,130536,2516.0358,N,08004.5246,W,1,8,2.0,15,M,,M,,*5B
06/09/2014	13:05:36.775	$GPGGA,130537,2516.0360,N,08004.5242,W,1,7,2.0,15,M,,M,,*5A
06/09/2014	13:05:37.758	$GPGGA,130538,2516.0361,N,08004.5238,W,1,7,2.0,15,M,,M,,*59
06/09/2014	13:05:38.781	$GPGGA,130539,2516.0363,N,08004.5234,W,1,7,2.0,15,M,,M,,*56
06/09/2014	13:05:39.589	$GPGGA,130540,2516.0364,N,08004.5230,W,1,7,2.0,14,M,,M,,*5A
06/09/2014	13:05:40.600	$GPGGA,130541,2516.0365,N,08004.5226,W,1,7,2.0,14,M,,M,,*5D
06/09/2014	13:05:41.603	$GPGGA,130542,2516.0367,N,08004.5222,W,1,7,2.0,14,M,,M,,*58
06/09/2014	13:05:42.611	$GPGGA,130543,2516.0369,N,08004.5219,W,1,7,2.0,14,M,,M,,*5F
06/09/2014	13:05:43.614	$GPGGA,130544,2516.0372,N,08004.5216,W,1,7,1.8,14,M,,M,,*56
06/09/2014	13:05:45.975	$GPGGA,130546,2516.0376,N,08004.5209,W,1,8,1.8,14,M,,M,,*51
06/09/2014	13:05:46.577	$GPGGA,130547,2516.0378,N,08004.5205,W,1,8,1.8,14,M,,M,,*52
06/09/2014	13:05:47.617	$GPGGA,130548,2516.0379,N,08004.5201,W,1,8,1.8,14,M,,M,,*58
06/09/2014	13:05:48.617	$GPGGA,130549,2516.0380,N,08004.5197,W,1,8,1.8,14,M,,M,,*53
06/09/2014	13:05:49.596	$GPGGA,130550,2516.0383,N,08004.5193,W,1,8,1.8,14,M,,M,,*5C
06/09/2014	13:05:50.588	$GPGGA,130551,2516.0385,N,08004.5190,W,1,8,1.8,14,M,,M,,*58
06/09/2014	13:05:51.612	$GPGGA,130552,2516.0387,N,08004.5186,W,1,8,1.8,14,M,,M,,*5E
06/09/2014	13:05:52.613	$GPGGA,130553,2516.0389,N,08004.5182,W,1,8,1.8,14,M,,M,,*55
06/09/2014	13:05:53.596	$GPGGA,130554,2516.0390,N,08004.5178,W,1,8,1.8,14,M,,M,,*5F
06/09/2014	13:05:54.632	$GPGGA,130555,2516.0392,N,08004.5175,W,1,8,1.8,14,M,,M,,*51
06/09/2014	13:05:55.611	$GPGGA,130556,2516.0394,N,08004.5170,W,1,8,1.8,14,M,,M,,*51
06/09/2014	13:05:56.593	$GPGGA,130557,2516.0397,N,08004.5166,W,1,7,2.0,14,M,,M,,*50
06/09/2014	13:05:57.606	$GPGGA,130558,2516.0398,N,08004.5163,W,1,7,2.0,14,M,,M,,*55
06/09/2014	13:05:58.619	$GPGGA,130559,2516.0401,N,08004.5159,W,1,7,1.9,14,M,,M,,*50
06/09/2014	13:05:59.621	$GPGGA,130600,2516.0404,N,08004.5155,W,1,7,1.8,14,M,,M,,*57
06/09/2014	13:06:00.624	$GPGGA,130601,2516.0405,N,08004.5152,W,1,8,1.8,14,M,,M,,*5F
06/09/2014	13:06:01.596	$GPGGA,130602,2516.0408,N,08004.5148,W,1,8,1.8,14,M,,M,,*5A
06/09/2014	13:06:02.599	$GPGGA,130603,2516.0410,N,08004.5144,W,1,7,1.9,14,M,,M,,*50
06/09/2014	13:06:03.723	$GPGGA,130604,2516.0412,N,08004.5140,W,1,7,1.8,14,M,,M,,*50
06/09/2014	13:06:04.604	$GPGGA,130605,2516.0414,N,08004.5137,W,1,8,1.8,14,M,,M,,*58
06/09/2014	13:06:05.597	$GPGGA,130606,2516.0415,N,08004.5133,W,1,8,2.0,14,M,,M,,*55
06/09/2014	13:06:06.589	$GPGGA,130607,2516.0416,N,08004.5130,W,1,7,2.0,14,M,,M,,*5B
06/09/2014	13:06:07.723	$GPGGA,130608,2516.0419,N,08004.5127,W,1,7,1.8,14,M,,M,,*56
06/09/2014	13:06:08.625	$GPGGA,130609,2516.0419,N,08004.5123,W,1,8,1.8,14,M,,M,,*5C
06/09/2014	13:06:09.597	$GPGGA,130610,2516.0422,N,08004.5120,W,1,8,1.8,14,M,,M,,*5F
06/09/2014	13:06:10.609	$GPGGA,130611,2516.0423,N,08004.5117,W,1,8,1.8,14,M,,M,,*5B
06/09/2014	13:06:11.732	$GPGGA,130612,2516.0423,N,08004.5113,W,1,8,1.8,14,M,,M,,*5C
06/09/2014	13:06:12.614	$GPGGA,130613,2516.0426,N,08004.5110,W,1,8,1.8,14,M,,M,,*5B
06/09/2014	13:06:13.695	$GPGGA,130614,2516.0426,N,08004.5106,W,1,8,1.9,14,M,,M,,*5A
06/09/2014	13:06:14.619	$GPGGA,130615,2516.0428,N,08004.5103,W,1,7,1.9,14,M,,M,,*5F
06/09/2014	13:06:15.732	$GPGGA,130616,2516.0430,N,08004.5099,W,1,7,1.8,15,M,,M,,*57
06/09/2014	13:06:16.614	$GPGGA,130617,2516.0430,N,08004.5096,W,1,8,1.8,15,M,,M,,*56
06/09/2014	13:06:17.710	$GPGGA,130618,2516.0433,N,08004.5092,W,1,8,1.8,15,M,,M,,*5E
06/09/2014	13:06:18.608	$GPGGA,130619,2516.0434,N,08004.5089,W,1,8,1.8,15,M,,M,,*52
06/09/2014	13:06:19.732	$GPGGA,130620,2516.0437,N,08004.5085,W,1,8,1.8,15,M,,M,,*57
06/09/2014	13:06:20.745	$GPGGA,130621,2516.0439,N,08004.5081,W,1,8,1.8,15,M,,M,,*5C
06/09/2014	13:06:21.705	$GPGGA,130622,2516.0440,N,08004.5077,W,1,8,1.8,15,M,,M,,*58
06/09/2014	13:06:22.730	$GPGGA,130623,2516.0441,N,08004.5074,W,1,8,1.8,15,M,,M,,*5B
06/09/2014	13:06:23.717	$GPGGA,130624,2516.0444,N,08004.5070,W,1,8,1.9,15,M,,M,,*5C
06/09/2014	13:06:24.735	$GPGGA,130625,2516.0447,N,08004.5067,W,1,7,1.9,15,M,,M,,*57
06/09/2014	13:06:25.720	$GPGGA,130626,2516.0448,N,08004.5063,W,1,7,1.8,15,M,,M,,*5E
06/09/2014	13:06:26.717	$GPGGA,130627,2516.0451,N,08004.5059,W,1,8,1.8,15,M,,M,,*51
06/09/2014	13:06:27.730	$GPGGA,130628,2516.0454,N,08004.5055,W,1,8,1.8,15,M,,M,,*57
06/09/2014	13:06:28.734	$GPGGA,130629,2516.0455,N,08004.5052,W,1,8,1.8,15,M,,M,,*50
06/09/2014	13:06:29.709	$GPGGA,130630,2516.0457,N,08004.5048,W,1,8,1.8,15,M,,M,,*51
06/09/2014	13:06:30.724	$GPGGA,130631,2516.0459,N,08004.5044,W,1,8,1.8,15,M,,M,,*52
06/09/2014	13:06:31.725	$GPGGA,130632,2516.0461,N,08004.5040,W,1,8,1.8,15,M,,M,,*5E
06/09/2014	13:06:32.725	$GPGGA,130633,2516.0462,N,08004.5037,W,1,8,1.8,15,M,,M,,*5C
06/09/2014	13:06:33.709	$GPGGA,130634,2516.0465,N,08004.5034,W,1,8,1.9,15,M,,M,,*5E
06/09/2014	13:06:34.741	$GPGGA,130635,2516.0466,N,08004.5029,W,1,8,1.8,15,M,,M,,*51
06/09/2014	13:06:35.723	$GPGGA,130636,2516.0469,N,08004.5026,W,1,8,1.8,15,M,,M,,*52
06/09/2014	13:06:36.751	$GPGGA,130637,2516.0470,N,08004.5022,W,1,8,1.8,15,M,,M,,*5F
06/09/2014	13:06:37.718	$GPGGA,130638,2516.0473,N,08004.5018,W,1,8,1.8,15,M,,M,,*5A
06/09/2014	13:06:38.741	$GPGGA,130639,2516.0475,N,08004.5015,W,1,8,1.8,15,M,,M,,*50
06/09/2014	13:06:39.587	$GPGGA,130640,2516.0477,N,08004.5011,W,1,8,1.8,15,M,,M,,*58
06/09/2014	13:06:40.546	$GPGGA,130641,2516.0480,N,08004.5007,W,1,8,1.8,15,M,,M,,*56
06/09/2014	13:06:41.559	$GPGGA,130642,2516.0481,N,08004.5004,W,1,8,1.8,15,M,,M,,*57
06/09/2014	13:06:42.551	$GPGGA,130643,2516.0484,N,08004.5000,W,1,8,1.8,15,M,,M,,*57
06/09/2014	13:06:43.574	$GPGGA,130644,2516.0487,N,08004.4996,W,1,8,1.8,15,M,,M,,*54
06/09/2014	13:06:44.546	$GPGGA,130645,2516.0488,N,08004.4992,W,1,8,1.8,15,M,,M,,*5E
06/09/2014	13:06:45.568	$GPGGA,130646,2516.0491,N,08004.4988,W,1,8,1.8,15,M,,M,,*5E
06/09/2014	13:06:46.571	$GPGGA,130647,2516.0490,N,08004.4984,W,1,7,2.0,15,M,,M,,*56
06/09/2014	13:06:47.573	$GPGGA,130648,2516.0492,N,08004.4981,W,1,7,1.8,15,M,,M,,*55
06/09/2014	13:06:48.596	$GPGGA,130649,2516.0495,N,08004.4978,W,1,8,1.8,15,M,,M,,*5A
06/09/2014	13:06:49.558	$GPGGA,130650,2516.0498,N,08004.4976,W,1,8,1.8,15,M,,M,,*51
06/09/2014	13:06:50.591	$GPGGA,130651,2516.0499,N,08004.4973,W,1,8,1.8,16,M,,M,,*57
06/09/2014	13:06:51.565	$GPGGA,130652,2516.0502,N,08004.4970,W,1,8,1.8,16,M,,M,,*54
06/09/2014	13:06:52.656	$GPGGA,130653,2516.0502,N,08004.4967,W,1,8,1.9,16,M,,M,,*52
06/09/2014	13:06:53.569	$GPGGA,130654,2516.0504,N,08004.4964,W,1,8,1.9,16,M,,M,,*50
06/09/2014	13:06:54.581	$GPGGA,130655,2516.0506,N,08004.4961,W,1,8,1.9,16,M,,M,,*56
06/09/2014	13:06:55.584	$GPGGA,130656,2516.0508,N,08004.4957,W,1,8,1.9,16,M,,M,,*5E
06/09/2014	13:06:56.567	$GPGGA,130657,2516.0509,N,08004.4954,W,1,8,1.9,16,M,,M,,*5D
06/09/2014	13:06:57.680	$GPGGA,130658,2516.0510,N,08004.4950,W,1,8,1.9,16,M,,M,,*5E
06/09/2014	13:06:58.562	$GPGGA,130659,2516.0512,N,08004.4947,W,1,7,2.0,16,M,,M,,*5E
06/09/2014	13:06:59.594	$GPGGA,130700,2516.0513,N,08004.4943,W,1,7,2.0,16,M,,M,,*56
06/09/2014	13:07:00.557	$GPGGA,130701,2516.0515,N,08004.4939,W,1,8,1.8,17,M,,M,,*59
06/09/2014	13:07:01.570	$GPGGA,130702,2516.0516,N,08004.4935,W,1,8,1.8,17,M,,M,,*55
06/09/2014	13:07:02.571	$GPGGA,130703,2516.0517,N,08004.4932,W,1,8,1.8,17,M,,M,,*52
06/09/2014	13:07:03.694	$GPGGA,130704,2516.0520,N,08004.4929,W,1,8,1.8,17,M,,M,,*5B
06/09/2014	13:07:04.576	$GPGGA,130705,2516.0520,N,08004.4925,W,1,8,1.9,17,M,,M,,*57
06/09/2014	13:07:05.669	$GPGGA,130706,2516.0523,N,08004.4922,W,1,8,1.9,17,M,,M,,*50
06/09/2014	13:07:06.663	$GPGGA,130707,2516.0524,N,08004.4919,W,1,8,1.9,17,M,,M,,*5E
06/09/2014	13:07:07.674	$GPGGA,130708,2516.0526,N,08004.4915,W,1,8,1.9,17,M,,M,,*5F
06/09/2014	13:07:08.657	$GPGGA,130709,2516.0527,N,08004.4912,W,1,8,1.9,17,M,,M,,*58
06/09/2014	13:07:09.667	$GPGGA,130710,2516.0530,N,08004.4909,W,1,8,1.9,17,M,,M,,*5C
06/09/2014	13:07:10.692	$GPGGA,130711,2516.0531,N,08004.4905,W,1,8,1.9,17,M,,M,,*50
06/09/2014	13:07:11.675	$GPGGA,130712,2516.0533,N,08004.4902,W,1,8,1.9,17,M,,M,,*56
06/09/2014	13:07:12.687	$GPGGA,130713,2516.0535,N,08004.4898,W,1,8,1.9,17,M,,M,,*53
06/09/2014	13:07:13.670	$GPGGA,130714,2516.0535,N,08004.4895,W,1,8,1.9,17,M,,M,,*59
06/09/2014	13:07:14.683	$GPGGA,130715,2516.0538,N,08004.4892,W,1,8,1.9,17,M,,M,,*52
06/09/2014	13:07:15.685	$GPGGA,130716,2516.0538,N,08004.4888,W,1,8,1.9,17,M,,M,,*5A
06/09/2014	13:07:16.681	$GPGGA,130717,2516.0541,N,08004.4884,W,1,8,1.9,17,M,,M,,*59
06/09/2014	13:07:17.670	$GPGGA,130718,2516.0542,N,08004.4880,W,1,8,1.9,17,M,,M,,*51
06/09/2014	13:07:18.693	$GPGGA,130719,2516.0544,N,08004.4877,W,1,8,1.9,17,M,,M,,*5E
06/09/2014	13:07:19.689	$GPGGA,130720,2516.0545,N,08004.4873,W,1,8,1.9,17,M,,M,,*51
06/09/2014	13:07:20.689	$GPGGA,130721,2516.0546,N,08004.4870,W,1,8,1.9,17,M,,M,,*50
06/09/2014	13:07:21.670	$GPGGA,130722,2516.0548,N,08004.4866,W,1,8,1.9,17,M,,M,,*5A
06/09/2014	13:07:22.692	$GPGGA,130723,2516.0549,N,08004.4862,W,1,8,1.9,17,M,,M,,*5E
06/09/2014	13:07:23.687	$GPGGA,130724,2516.0551,N,08004.4858,W,1,8,1.9,17,M,,M,,*59
06/09/2014	13:07:24.678	$GPGGA,130725,2516.0552,N,08004.4855,W,1,8,1.9,17,M,,M,,*56
06/09/2014	13:07:25.671	$GPGGA,130726,2516.0553,N,08004.4851,W,1,8,1.9,17,M,,M,,*50
06/09/2014	13:07:26.713	$GPGGA,130727,2516.0556,N,08004.4847,W,1,8,1.9,17,M,,M,,*53
06/09/2014	13:07:27.675	$GPGGA,130728,2516.0557,N,08004.4844,W,1,8,1.9,17,M,,M,,*5E
06/09/2014	13:07:28.708	$GPGGA,130729,2516.0560,N,08004.4840,W,1,8,1.9,17,M,,M,,*5F
06/09/2014	13:07:29.681	$GPGGA,130730,2516.0560,N,08004.4836,W,1,8,1.9,17,M,,M,,*56
06/09/2014	13:07:30.673	$GPGGA,130731,2516.0563,N,08004.4833,W,1,8,1.9,17,M,,M,,*51
06/09/2014	13:07:31.676	$GPGGA,130732,2516.0564,N,08004.4829,W,1,8,1.9,17,M,,M,,*5E
06/09/2014	13:07:32.668	$GPGGA,130733,2516.0567,N,08004.4825,W,1,7,2.0,17,M,,M,,*55
06/09/2014	13:07:33.691	$GPGGA,130734,2516.0569,N,08004.4821,W,1,7,2.0,17,M,,M,,*58
06/09/2014	13:07:34.705	$GPGGA,130735,2516.0571,N,08004.4817,W,1,7,2.0,17,M,,M,,*55
06/09/2014	13:07:35.707	$GPGGA,130736,2516.0574,N,08004.4815,W,1,7,2.0,17,M,,M,,*51
06/09/2014	13:07:36.709	$GPGGA,130737,2516.0578,N,08004.4813,W,1,8,1.9,17,M,,M,,*5F
06/09/2014	13:07:37.680	$GPGGA,130738,2516.0581,N,08004.4810,W,1,8,1.9,17,M,,M,,*55
06/09/2014	13:07:38.673	$GPGGA,130739,2516.0584,N,08004.4807,W,1,8,1.9,17,M,,M,,*57
06/09/2014	13:07:39.695	$GPGGA,130740,2516.0587,N,08004.4804,W,1,8,1.9,17,M,,M,,*59
06/09/2014	13:07:40.530	$GPGGA,130741,2516.0589,N,08004.4801,W,1,8,1.9,17,M,,M,,*53
06/09/2014	13:07:41.633	$GPGGA,130742,2516.0591,N,08004.4798,W,1,8,1.9,17,M,,M,,*56
06/09/2014	13:07:42.636	$GPGGA,130743,2516.0592,N,08004.4794,W,1,8,1.9,17,M,,M,,*58
06/09/2014	13:07:43.548	$GPGGA,130744,2516.0595,N,08004.4791,W,1,8,1.9,17,M,,M,,*5D
06/09/2014	13:07:44.661	$GPGGA,130745,2516.0596,N,08004.4787,W,1,8,1.9,17,M,,M,,*58
06/09/2014	13:07:45.643	$GPGGA,130746,2516.0599,N,08004.4784,W,1,8,1.9,17,M,,M,,*57
06/09/2014	13:07:46.546	$GPGGA,130747,2516.0600,N,08004.4780,W,1,8,1.9,17,M,,M,,*51
06/09/2014	13:07:47.548	$GPGGA,130748,2516.0603,N,08004.4777,W,1,8,1.9,17,M,,M,,*55
06/09/2014	13:07:48.621	$GPGGA,130749,2516.0605,N,08004.4774,W,1,8,1.9,17,M,,M,,*51
06/09/2014	13:07:49.624	$GPGGA,130750,2516.0607,N,08004.4771,W,1,8,1.9,17,M,,M,,*5E
06/09/2014	13:07:50.536	$GPGGA,130751,2516.0609,N,08004.4767,W,1,7,1.9,17,M,,M,,*59
06/09/2014	13:07:51.629	$GPGGA,130752,2516.0611,N,08004.4763,W,1,7,1.9,17,M,,M,,*57
06/09/2014	13:07:52.531	$GPGGA,130753,2516.0611,N,08004.4761,W,1,8,1.9,17,M,,M,,*5B
06/09/2014	13:07:53.634	$GPGGA,130754,2516.0614,N,08004.4758,W,1,8,1.9,17,M,,M,,*53
06/09/2014	13:07:54.647	$GPGGA,130755,2516.0616,N,08004.4754,W,1,8,1.9,17,M,,M,,*5C
06/09/2014	13:07:55.638	$GPGGA,130756,2516.0618,N,08004.4751,W,1,8,1.9,17,M,,M,,*54
06/09/2014	13:07:56.681	$GPGGA,130757,2516.0620,N,08004.4748,W,1,8,1.9,17,M,,M,,*56
06/09/2014	13:07:57.624	$GPGGA,130758,2516.0621,N,08004.4745,W,1,8,1.9,17,M,,M,,*55
06/09/2014	13:07:58.646	$GPGGA,130759,2516.0624,N,08004.4741,W,1,8,1.9,17,M,,M,,*55
06/09/2014	13:07:59.679	$GPGGA,130800,2516.0625,N,08004.4738,W,1,8,1.9,17,M,,M,,*59
06/09/2014	13:08:00.651	$GPGGA,130801,2516.0628,N,08004.4735,W,1,8,1.9,17,M,,M,,*58
06/09/2014	13:08:01.624	$GPGGA,130802,2516.0629,N,08004.4732,W,1,8,1.9,17,M,,M,,*5D
06/09/2014	13:08:02.636	$GPGGA,130803,2516.0632,N,08004.4728,W,1,8,1.9,17,M,,M,,*5D
06/09/2014	13:08:03.649	$GPGGA,130804,2516.0634,N,08004.4725,W,1,8,1.9,17,M,,M,,*51
06/09/2014	13:08:04.655	$GPGGA,130805,2516.0635,N,08004.4722,W,1,8,1.9,17,M,,M,,*56
06/09/2014	13:08:05.634	$GPGGA,130806,2516.0636,N,08004.4719,W,1,8,1.9,17,M,,M,,*5E
06/09/2014	13:08:06.647	$GPGGA,130807,2516.0638,N,08004.4716,W,1,8,1.9,17,M,,M,,*5E
06/09/2014	13:08:07.649	$GPGGA,130808,2516.0639,N,08004.4713,W,1,8,1.9,17,M,,M,,*55
06/09/2014	13:08:08.655	$GPGGA,130809,2516.0640,N,08004.4710,W,1,8,1.9,17,M,,M,,*59
06/09/2014	13:08:09.635	$GPGGA,130810,2516.0643,N,08004.4707,W,1,8,1.9,17,M,,M,,*54
06/09/2014	13:08:10.667	$GPGGA,130811,2516.0643,N,08004.4704,W,1,8,1.9,17,M,,M,,*56
06/09/2014	13:08:11.650	$GPGGA,130812,2516.0647,N,08004.4700,W,1,8,1.9,17,M,,M,,*55
06/09/2014	13:08:12.662	$GPGGA,130813,2516.0647,N,08004.4698,W,1,7,1.9,17,M,,M,,*5B
06/09/2014	13:08:13.644	$GPGGA,130814,2516.0649,N,08004.4695,W,1,7,1.9,17,M,,M,,*5F
06/09/2014	13:08:14.657	$GPGGA,130815,2516.0650,N,08004.4692,W,1,8,1.9,17,M,,M,,*5E
06/09/2014	13:08:15.649	$GPGGA,130816,2516.0652,N,08004.4689,W,1,8,1.9,17,M,,M,,*55
06/09/2014	13:08:16.672	$GPGGA,130817,2516.0654,N,08004.4685,W,1,8,1.9,17,M,,M,,*5E
06/09/2014	13:08:17.634	$GPGGA,130818,2516.0656,N,08004.4682,W,1,8,1.9,17,M,,M,,*54
06/09/2014	13:08:18.637	$GPGGA,130819,2516.0658,N,08004.4679,W,1,8,1.9,17,M,,M,,*5F
06/09/2014	13:08:19.660	$GPGGA,130820,2516.0660,N,08004.4676,W,1,8,1.9,17,M,,M,,*51
06/09/2014	13:08:20.672	$GPGGA,130821,2516.0661,N,08004.4673,W,1,7,1.9,17,M,,M,,*5B
06/09/2014	13:08:21.635	$GPGGA,130822,2516.0661,N,08004.4670,W,1,7,1.9,17,M,,M,,*5B
06/09/2014	13:08:22.647	$GPGGA,130823,2516.0664,N,08004.4667,W,1,8,1.9,17,M,,M,,*56
06/09/2014	13:08:23.680	$GPGGA,130824,2516.0665,N,08004.4664,W,1,8,1.9,17,M,,M,,*53
06/09/2014	13:08:24.643	$GPGGA,130825,2516.0668,N,08004.4661,W,1,8,1.9,17,M,,M,,*5A
06/09/2014	13:08:25.645	$GPGGA,130826,2516.0668,N,08004.4658,W,1,8,1.9,17,M,,M,,*53
06/09/2014	13:08:26.638	$GPGGA,130827,2516.0671,N,08004.4654,W,1,8,1.9,17,M,,M,,*56
06/09/2014	13:08:27.660	$GPGGA,130828,2516.0672,N,08004.4651,W,1,8,1.9,17,M,,M,,*5F
06/09/2014	13:08:28.653	$GPGGA,130829,2516.0675,N,08004.4648,W,1,8,1.9,17,M,,M,,*51
06/09/2014	13:08:29.635	$GPGGA,130830,2516.0676,N,08004.4645,W,1,8,1.9,17,M,,M,,*57
06/09/2014	13:08:30.657	$GPGGA,130831,2516.0679,N,08004.4642,W,1,8,1.9,17,M,,M,,*5E
06/09/2014	13:08:31.660	$GPGGA,130832,2516.0679,N,08004.4638,W,1,8,1.9,17,M,,M,,*50
06/09/2014	13:08:32.783	$GPGGA,130833,2516.0682,N,08004.4635,W,1,8,1.9,17,M,,M,,*58
06/09/2014	13:08:33.655	$GPGGA,130834,2516.0683,N,08004.4632,W,1,8,1.9,17,M,,M,,*59
06/09/2014	13:08:34.657	$GPGGA,130835,2516.0686,N,08004.4629,W,1,8,1.9,17,M,,M,,*57
06/09/2014	13:08:35.650	$GPGGA,130836,2516.0687,N,08004.4625,W,1,8,1.9,17,M,,M,,*59
06/09/2014	13:08:36.763	$GPGGA,130837,2516.0690,N,08004.4623,W,1,8,1.9,17,M,,M,,*58
06/09/2014	13:08:37.655	$GPGGA,130838,2516.0690,N,08004.4620,W,1,8,1.9,17,M,,M,,*54
06/09/2014	13:08:38.778	$GPGGA,130839,2516.0693,N,08004.4617,W,1,8,1.9,17,M,,M,,*52
06/09/2014	13:08:39.660	$GPGGA,130840,2516.0694,N,08004.4614,W,1,8,1.9,17,M,,M,,*58
06/09/2014	13:08:40.492	$GPGGA,130841,2516.0697,N,08004.4611,W,1,8,1.9,17,M,,M,,*5F
06/09/2014	13:08:41.609	$GPGGA,130842,2516.0699,N,08004.4608,W,1,8,1.9,17,M,,M,,*5A
06/09/2014	13:08:42.621	$GPGGA,130843,2516.0701,N,08004.4605,W,1,8,1.9,17,M,,M,,*56
06/09/2014	13:08:43.604	$GPGGA,130844,2516.0703,N,08004.4601,W,1,8,1.9,17,M,,M,,*57
06/09/2014	13:08:44.617	$GPGGA,130845,2516.0704,N,08004.4598,W,1,8,1.9,17,M,,M,,*52
06/09/2014	13:08:45.590	$GPGGA,130846,2516.0705,N,08004.4595,W,1,8,1.9,17,M,,M,,*5D
06/09/2014	13:08:46.612	$GPGGA,130847,2516.0708,N,08004.4592,W,1,8,1.9,17,M,,M,,*56
06/09/2014	13:08:47.613	$GPGGA,130848,2516.0710,N,08004.4589,W,1,8,1.9,17,M,,M,,*5A
06/09/2014	13:08:48.616	$GPGGA,130849,2516.0712,N,08004.4586,W,1,8,1.9,17,M,,M,,*56
06/09/2014	13:08:49.600	$GPGGA,130850,2516.0714,N,08004.4583,W,1,8,1.9,17,M,,M,,*5D
06/09/2014	13:08:50.611	$GPGGA,130851,2516.0715,N,08004.4579,W,1,8,1.9,17,M,,M,,*58
06/09/2014	13:08:51.614	$GPGGA,130852,2516.0718,N,08004.4576,W,1,8,1.9,17,M,,M,,*59
06/09/2014	13:08:52.636	$GPGGA,130853,2516.0719,N,08004.4573,W,1,8,1.9,17,M,,M,,*5C
06/09/2014	13:08:53.609	$GPGGA,130854,2516.0722,N,08004.4570,W,1,8,1.9,17,M,,M,,*50
06/09/2014	13:08:54.614	$GPGGA,130855,2516.0723,N,08004.4567,W,1,8,1.9,17,M,,M,,*56
06/09/2014	13:08:55.614	$GPGGA,130856,2516.0726,N,08004.4563,W,1,8,1.9,17,M,,M,,*54
06/09/2014	13:08:56.587	$GPGGA,130857,2516.0728,N,08004.4560,W,1,8,1.9,17,M,,M,,*58
06/09/2014	13:08:57.599	$GPGGA,130858,2516.0730,N,08004.4557,W,1,8,1.9,17,M,,M,,*5A
06/09/2014	13:08:58.642	$GPGGA,130859,2516.0732,N,08004.4554,W,1,8,1.9,17,M,,M,,*5A
06/09/2014	13:08:59.625	$GPGGA,130900,2516.0733,N,08004.4551,W,1,8,1.9,17,M,,M,,*53
06/09/2014	13:09:00.597	$GPGGA,130901,2516.0736,N,08004.4548,W,1,8,1.9,17,M,,M,,*5F
06/09/2014	13:09:01.600	$GPGGA,130902,2516.0737,N,08004.4544,W,1,8,1.9,17,M,,M,,*51
06/09/2014	13:09:02.623	$GPGGA,130903,2516.0740,N,08004.4541,W,1,8,1.9,17,M,,M,,*55
06/09/2014	13:09:03.615	$GPGGA,130904,2516.0741,N,08004.4538,W,1,8,1.9,17,M,,M,,*5D
06/09/2014	13:09:04.597	$GPGGA,130905,2516.0744,N,08004.4534,W,1,8,1.9,17,M,,M,,*55
06/09/2014	13:09:05.619	$GPGGA,130906,2516.0746,N,08004.4531,W,1,8,1.9,17,M,,M,,*51
06/09/2014	13:09:06.632	$GPGGA,130907,2516.0748,N,08004.4528,W,1,8,1.9,17,M,,M,,*56
06/09/2014	13:09:07.614	$GPGGA,130908,2516.0750,N,08004.4525,W,1,8,1.9,17,M,,M,,*5D
06/09/2014	13:09:08.637	$GPGGA,130909,2516.0751,N,08004.4521,W,1,8,1.9,17,M,,M,,*59
06/09/2014	13:09:09.609	$GPGGA,130910,2516.0754,N,08004.4518,W,1,8,1.9,17,M,,M,,*5E
06/09/2014	13:09:10.632	$GPGGA,130911,2516.0755,N,08004.4515,W,1,8,1.9,17,M,,M,,*53
06/09/2014	13:09:11.625	$GPGGA,130912,2516.0757,N,08004.4512,W,1,8,1.9,17,M,,M,,*55
06/09/2014	13:09:12.607	$GPGGA,130913,2516.0759,N,08004.4508,W,1,8,1.9,17,M,,M,,*51
06/09/2014	13:09:13.720	$GPGGA,130914,2516.0761,N,08004.4505,W,1,8,1.9,17,M,,M,,*50
06/09/2014	13:09:14.622	$GPGGA,130915,2516.0762,N,08004.4502,W,1,8,1.9,17,M,,M,,*55
06/09/2014	13:09:15.645	$GPGGA,130916,2516.0764,N,08004.4499,W,1,8,1.9,17,M,,M,,*53
06/09/2014	13:09:16.598	$GPGGA,130917,2516.0766,N,08004.4496,W,1,8,1.9,17,M,,M,,*5F
06/09/2014	13:09:17.630	$GPGGA,130918,2516.0768,N,08004.4492,W,1,8,1.9,17,M,,M,,*5A
06/09/2014	13:09:18.633	$GPGGA,130919,2516.0770,N,08004.4490,W,1,8,1.9,17,M,,M,,*50
06/09/2014	13:09:19.635	$GPGGA,130920,2516.0770,N,08004.4487,W,1,8,1.9,17,M,,M,,*5C
06/09/2014	13:09:20.728	$GPGGA,130921,2516.0773,N,08004.4484,W,1,8,1.9,17,M,,M,,*5D
06/09/2014	13:09:21.632	$GPGGA,130922,2516.0775,N,08004.4481,W,1,8,1.9,17,M,,M,,*5D
06/09/2014	13:09:22.632	$GPGGA,130923,2516.0776,N,08004.4477,W,1,8,1.9,17,M,,M,,*56
06/09/2014	13:09:23.645	$GPGGA,130924,2516.0777,N,08004.4474,W,1,8,1.9,17,M,,M,,*53
06/09/2014	13:09:24.708	$GPGGA,130925,2516.0780,N,08004.4471,W,1,8,1.9,17,M,,M,,*5F
06/09/2014	13:09:25.630	$GPGGA,130926,2516.0781,N,08004.4468,W,1,8,1.9,17,M,,M,,*55
06/09/2014	13:09:26.753	$GPGGA,130927,2516.0783,N,08004.4465,W,1,8,1.9,17,M,,M,,*5B
06/09/2014	13:09:27.715	$GPGGA,130928,2516.0784,N,08004.4462,W,1,8,1.9,17,M,,M,,*54
06/09/2014	13:09:28.738	$GPGGA,130929,2516.0786,N,08004.4459,W,1,8,1.9,17,M,,M,,*5F
06/09/2014	13:09:29.711	$GPGGA,130930,2516.0787,N,08004.4456,W,1,8,1.9,17,M,,M,,*59
06/09/2014	13:09:30.713	$GPGGA,130931,2516.0788,N,08004.4453,W,1,8,1.9,17,M,,M,,*52
06/09/2014	13:09:31.726	$GPGGA,130932,2516.0791,N,08004.4450,W,1,8,1.9,17,M,,M,,*5A
06/09/2014	13:09:32.728	$GPGGA,130933,2516.0791,N,08004.4447,W,1,8,1.9,17,M,,M,,*5D
06/09/2014	13:09:33.721	$GPGGA,130934,2516.0794,N,08004.4443,W,1,8,1.9,17,M,,M,,*5B
06/09/2014	13:09:34.734	$GPGGA,130935,2516.0795,N,08004.4441,W,1,8,1.9,17,M,,M,,*59
06/09/2014	13:09:35.726	$GPGGA,130936,2516.0797,N,08004.4438,W,1,8,1.9,17,M,,M,,*56
06/09/2014	13:09:36.709	$GPGGA,130937,2516.0798,N,08004.4434,W,1,8,1.9,16,M,,M,,*55
06/09/2014	13:09:37.721	$GPGGA,130938,2516.0799,N,08004.4431,W,1,8,1.9,16,M,,M,,*5E
06/09/2014	13:09:38.734	$GPGGA,130939,2516.0802,N,08004.4428,W,1,8,1.9,16,M,,M,,*5A
06/09/2014	13:09:39.596	$GPGGA,130940,2516.0804,N,08004.4425,W,1,8,1.9,16,M,,M,,*5F
06/09/2014	13:09:40.563	$GPGGA,130941,2516.0805,N,08004.4422,W,1,8,1.9,16,M,,M,,*58
06/09/2014	13:09:41.564	$GPGGA,130942,2516.0806,N,08004.4419,W,1,8,1.9,16,M,,M,,*50
06/09/2014	13:09:42.579	$GPGGA,130943,2516.0809,N,08004.4416,W,1,8,1.9,16,M,,M,,*51
06/09/2014	13:09:43.569	$GPGGA,130944,2516.0811,N,08004.4412,W,1,8,1.9,16,M,,M,,*5B
06/09/2014	13:09:44.551	$GPGGA,130945,2516.0812,N,08004.4409,W,1,8,1.9,16,M,,M,,*53
06/09/2014	13:09:45.564	$GPGGA,130946,2516.0813,N,08004.4406,W,1,8,1.9,16,M,,M,,*5E
06/09/2014	13:09:46.557	$GPGGA,130947,2516.0816,N,08004.4403,W,1,8,1.9,16,M,,M,,*5F
06/09/2014	13:09:47.579	$GPGGA,130948,2516.0817,N,08004.4400,W,1,8,1.9,16,M,,M,,*52
06/09/2014	13:09:48.593	$GPGGA,130949,2516.0819,N,08004.4397,W,1,8,1.9,16,M,,M,,*54
06/09/2014	13:09:49.564	$GPGGA,130950,2516.0820,N,08004.4393,W,1,8,1.9,16,M,,M,,*52
06/09/2014	13:09:50.597	$GPGGA,130951,2516.0823,N,08004.4391,W,1,8,1.9,16,M,,M,,*52
06/09/2014	13:09:51.580	$GPGGA,130952,2516.0824,N,08004.4387,W,1,8,1.9,16,M,,M,,*51
06/09/2014	13:09:52.562	$GPGGA,130953,2516.0827,N,08004.4384,W,1,8,1.9,16,M,,M,,*50
06/09/2014	13:09:53.565	$GPGGA,130954,2516.0827,N,08004.4381,W,1,8,1.9,16,M,,M,,*52
06/09/2014	13:09:54.557	$GPGGA,130955,2516.0830,N,08004.4378,W,1,8,1.9,16,M,,M,,*53
06/09/2014	13:09:55.591	$GPGGA,130956,2516.0831,N,08004.4375,W,1,8,1.9,16,M,,M,,*5C
06/09/2014	13:09:56.593	$GPGGA,130957,2516.0834,N,08004.4372,W,1,8,1.9,16,M,,M,,*5F
06/09/2014	13:09:57.574	$GPGGA,130958,2516.0835,N,08004.4369,W,1,8,1.9,16,M,,M,,*5B
06/09/2014	13:09:58.567	$GPGGA,130959,2516.0838,N,08004.4366,W,1,8,1.9,16,M,,M,,*58
06/09/2014	13:09:59.700	$GPGGA,131000,2516.0840,N,08004.4363,W,1,8,1.9,16,M,,M,,*56
06/09/2014	13:10:00.562	$GPGGA,131001,2516.0842,N,08004.4360,W,1,8,1.9,16,M,,M,,*56
06/09/2014	13:10:01.565	$GPGGA,131002,2516.0842,N,08004.4357,W,1,8,1.9,16,M,,M,,*51
06/09/2014	13:10:02.698	$GPGGA,131003,2516.0845,N,08004.4354,W,1,8,1.9,16,M,,M,,*54
06/09/2014	13:10:03.600	$GPGGA,131004,2516.0846,N,08004.4350,W,1,8,1.9,16,M,,M,,*54
06/09/2014	13:10:04.582	$GPGGA,131005,2516.0849,N,08004.4347,W,1,8,1.9,16,M,,M,,*5C
06/09/2014	13:10:05.565	$GPGGA,131006,2516.0849,N,08004.4345,W,1,8,1.9,16,M,,M,,*5D
06/09/2014	13:10:06.568	$GPGGA,131007,2516.0852,N,08004.4341,W,1,8,1.9,16,M,,M,,*52
06/09/2014	13:10:07.600	$GPGGA,131008,2516.0853,N,08004.4338,W,1,8,1.9,16,M,,M,,*52
06/09/2014	13:10:08.563	$GPGGA,131009,2516.0856,N,08004.4335,W,1,8,1.9,16,M,,M,,*5B
06/09/2014	13:10:09.666	$GPGGA,131010,2516.0856,N,08004.4332,W,1,8,1.9,16,M,,M,,*54
06/09/2014	13:10:12.012	$GPGGA,131011,2516.0859,N,08004.4329,W,1,8,1.9,16,M,,M,,*50
06/09/2014	13:10:12.032	$GPGGA,131012,2516.0860,N,08004.4326,W,1,8,1.9,16,M,,M,,*56
06/09/2014	13:10:12.683	$GPGGA,131013,2516.0862,N,08004.4323,W,1,8,1.9,16,M,,M,,*50
06/09/2014	13:10:13.686	$GPGGA,131014,2516.0863,N,08004.4320,W,1,8,1.9,16,M,,M,,*55
06/09/2014	13:10:16.041	$GPGGA,131015,2516.0866,N,08004.4317,W,1,8,1.9,16,M,,M,,*55
06/09/2014	13:10:16.097	$GPGGA,131016,2516.0869,N,08004.4313,W,1,8,1.9,15,M,,M,,*5E
06/09/2014	13:10:16.673	$GPGGA,131017,2516.0871,N,08004.4310,W,1,8,1.9,15,M,,M,,*55
06/09/2014	13:10:17.675	$GPGGA,131018,2516.0873,N,08004.4307,W,1,8,1.9,15,M,,M,,*5E
06/09/2014	13:10:18.698	$GPGGA,131019,2516.0874,N,08004.4304,W,1,8,1.9,15,M,,M,,*5B
06/09/2014	13:10:19.691	$GPGGA,131020,2516.0876,N,08004.4301,W,1,8,1.9,15,M,,M,,*56
06/09/2014	13:10:20.703	$GPGGA,131021,2516.0878,N,08004.4299,W,1,8,1.9,15,M,,M,,*59
06/09/2014	13:10:21.686	$GPGGA,131022,2516.0880,N,08004.4296,W,1,8,1.9,15,M,,M,,*52
06/09/2014	13:10:22.678	$GPGGA,131023,2516.0882,N,08004.4292,W,1,8,1.9,15,M,,M,,*55
06/09/2014	13:10:23.693	$GPGGA,131024,2516.0884,N,08004.4290,W,1,8,1.9,15,M,,M,,*56
06/09/2014	13:10:24.704	$GPGGA,131025,2516.0885,N,08004.4287,W,1,8,1.9,15,M,,M,,*50
06/09/2014	13:10:25.676	$GPGGA,131026,2516.0888,N,08004.4284,W,1,8,1.9,15,M,,M,,*5D
06/09/2014	13:10:26.689	$GPGGA,131027,2516.0889,N,08004.4281,W,1,8,1.9,15,M,,M,,*58
06/09/2014	13:10:27.691	$GPGGA,131028,2516.0891,N,08004.4278,W,1,8,1.9,15,M,,M,,*58
06/09/2014	13:10:28.704	$GPGGA,131029,2516.0892,N,08004.4274,W,1,8,1.9,15,M,,M,,*56
06/09/2014	13:10:29.687	$GPGGA,131030,2516.0895,N,08004.4272,W,1,8,1.9,15,M,,M,,*5F
06/09/2014	13:10:30.709	$GPGGA,131031,2516.0896,N,08004.4269,W,1,8,1.9,15,M,,M,,*57
06/09/2014	13:10:31.704	$GPGGA,131032,2516.0899,N,08004.4266,W,1,8,1.9,15,M,,M,,*54
06/09/2014	13:10:32.703	$GPGGA,131033,2516.0900,N,08004.4263,W,1,8,1.9,15,M,,M,,*51
06/09/2014	13:10:33.686	$GPGGA,131034,2516.0903,N,08004.4260,W,1,8,1.9,15,M,,M,,*56
06/09/2014	13:10:34.699	$GPGGA,131035,2516.0905,N,08004.4257,W,1,8,1.9,15,M,,M,,*55
06/09/2014	13:10:35.701	$GPGGA,131036,2516.0906,N,08004.4254,W,1,8,1.9,15,M,,M,,*56
06/09/2014	13:10:36.714	$GPGGA,131037,2516.0907,N,08004.4250,W,1,8,1.9,15,M,,M,,*52
06/09/2014	13:10:37.686	$GPGGA,131038,2516.0910,N,08004.4248,W,1,8,1.9,15,M,,M,,*52
06/09/2014	13:10:38.689	$GPGGA,131039,2516.0911,N,08004.4245,W,1,8,1.9,15,M,,M,,*5F
06/09/2014	13:10:39.691	$GPGGA,131040,2516.0914,N,08004.4242,W,1,8,1.9,15,M,,M,,*53
06/09/2014	13:10:40.558	$GPGGA,131041,2516.0916,N,08004.4239,W,1,8,1.9,15,M,,M,,*5C
06/09/2014	13:10:41.532	$GPGGA,131042,2516.0918,N,08004.4236,W,1,8,1.9,15,M,,M,,*5E
06/09/2014	13:10:42.563	$GPGGA,131043,2516.0920,N,08004.4235,W,1,7,2.1,15,M,,M,,*53
06/09/2014	13:10:43.536	$GPGGA,131044,2516.0921,N,08004.4233,W,1,7,1.9,15,M,,M,,*58
06/09/2014	13:10:44.659	$GPGGA,131045,2516.0925,N,08004.4231,W,1,8,1.9,15,M,,M,,*50
06/09/2014	13:10:45.531	$GPGGA,131046,2516.0927,N,08004.4229,W,1,8,1.9,15,M,,M,,*58
06/09/2014	13:10:46.644	$GPGGA,131047,2516.0928,N,08004.4227,W,1,8,1.9,15,M,,M,,*58
06/09/2014	13:10:47.546	$GPGGA,131048,2516.0929,N,08004.4223,W,1,8,1.9,15,M,,M,,*52
06/09/2014	13:10:48.649	$GPGGA,131049,2516.0932,N,08004.4220,W,1,7,2.1,15,M,,M,,*5E
06/09/2014	13:10:49.540	$GPGGA,131050,2516.0932,N,08004.4216,W,1,7,2.1,15,M,,M,,*53
06/09/2014	13:10:50.543	$GPGGA,131051,2516.0935,N,08004.4213,W,1,7,2.1,15,M,,M,,*50
06/09/2014	13:10:51.556	$GPGGA,131052,2516.0936,N,08004.4210,W,1,7,1.9,15,M,,M,,*58
06/09/2014	13:10:52.528	$GPGGA,131053,2516.0939,N,08004.4206,W,1,7,2.1,15,M,,M,,*5A
06/09/2014	13:10:53.631	$GPGGA,131054,2516.0941,N,08004.4203,W,1,7,2.1,15,M,,M,,*57
06/09/2014	13:10:54.533	$GPGGA,131055,2516.0942,N,08004.4200,W,1,8,1.9,15,M,,M,,*52
06/09/2014	13:10:55.666	$GPGGA,131056,2516.0943,N,08004.4197,W,1,8,2.1,15,M,,M,,*56
06/09/2014	13:10:56.529	$GPGGA,131057,2516.0945,N,08004.4193,W,1,7,2.1,15,M,,M,,*5A
06/09/2014	13:10:57.625	$GPGGA,131058,2516.0947,N,08004.4190,W,1,7,2.1,15,M,,M,,*54
06/09/2014	13:10:58.674	$GPGGA,131059,2516.0949,N,08004.4187,W,1,7,2.1,15,M,,M,,*5D
06/09/2014	13:10:59.566	$GPGGA,131100,2516.0950,N,08004.4186,W,1,7,2.1,15,M,,M,,*59
06/09/2014	13:11:00.669	$GPGGA,131101,2516.0954,N,08004.4184,W,1,8,1.9,15,M,,M,,*5A
06/09/2014	13:11:01.636	$GPGGA,131102,2516.0956,N,08004.4182,W,1,8,1.9,15,M,,M,,*5D
06/09/2014	13:11:02.637	$GPGGA,131103,2516.0957,N,08004.4180,W,1,8,1.9,15,M,,M,,*5F
06/09/2014	13:11:03.667	$GPGGA,131104,2516.0960,N,08004.4178,W,1,8,1.9,15,M,,M,,*5B
06/09/2014	13:11:04.645	$GPGGA,131105,2516.0961,N,08004.4174,W,1,8,1.9,15,M,,M,,*57
06/09/2014	13:11:05.642	$GPGGA,131106,2516.0964,N,08004.4171,W,1,8,2.1,15,M,,M,,*5F
06/09/2014	13:11:06.655	$GPGGA,131107,2516.0965,N,08004.4168,W,1,8,1.9,15,M,,M,,*5C
06/09/2014	13:11:07.651	$GPGGA,131108,2516.0968,N,08004.4166,W,1,8,1.9,15,M,,M,,*50
06/09/2014	13:11:08.659	$GPGGA,131109,2516.0970,N,08004.4163,W,1,8,1.9,15,M,,M,,*5D
06/09/2014	13:11:09.659	$GPGGA,131110,2516.0972,N,08004.4160,W,1,8,1.9,15,M,,M,,*54
06/09/2014	13:11:10.674	$GPGGA,131111,2516.0974,N,08004.4157,W,1,8,1.9,15,M,,M,,*57
06/09/2014	13:11:11.665	$GPGGA,131112,2516.0975,N,08004.4154,W,1,8,1.9,15,M,,M,,*56
06/09/2014	13:11:12.665	$GPGGA,131113,2516.0978,N,08004.4150,W,1,8,1.9,15,M,,M,,*5E
06/09/2014	13:11:13.653	$GPGGA,131114,2516.0979,N,08004.4147,W,1,8,1.9,15,M,,M,,*5E
06/09/2014	13:11:14.669	$GPGGA,131115,2516.0983,N,08004.4145,W,1,8,1.9,15,M,,M,,*58
06/09/2014	13:11:15.661	$GPGGA,131116,2516.0985,N,08004.4142,W,1,8,1.9,15,M,,M,,*5A
06/09/2014	13:11:16.676	$GPGGA,131117,2516.0986,N,08004.4140,W,1,8,1.9,15,M,,M,,*5A
06/09/2014	13:11:17.652	$GPGGA,131118,2516.0989,N,08004.4137,W,1,8,1.9,15,M,,M,,*5A
06/09/2014	13:11:18.680	$GPGGA,131119,2516.0990,N,08004.4134,W,1,8,1.9,15,M,,M,,*50
06/09/2014	13:11:19.658	$GPGGA,131120,2516.0993,N,08004.4132,W,1,8,1.9,15,M,,M,,*5F
06/09/2014	13:11:20.660	$GPGGA,131121,2516.0994,N,08004.4129,W,1,8,1.9,15,M,,M,,*53
06/09/2014	13:11:21.653	$GPGGA,131122,2516.0997,N,08004.4126,W,1,8,1.9,15,M,,M,,*5C
06/09/2014	13:11:22.665	$GPGGA,131123,2516.0997,N,08004.4123,W,1,8,1.9,15,M,,M,,*58
06/09/2014	13:11:23.669	$GPGGA,131124,2516.1000,N,08004.4119,W,1,8,2.1,15,M,,M,,*5B
06/09/2014	13:11:24.680	$GPGGA,131125,2516.1001,N,08004.4116,W,1,7,2.1,15,M,,M,,*5B
06/09/2014	13:11:25.653	$GPGGA,131126,2516.1004,N,08004.4113,W,1,7,1.9,15,M,,M,,*53
06/09/2014	13:11:26.646	$GPGGA,131127,2516.1004,N,08004.4110,W,1,8,1.9,15,M,,M,,*5E
06/09/2014	13:11:27.677	$GPGGA,131128,2516.1008,N,08004.4107,W,1,8,1.9,15,M,,M,,*5B
06/09/2014	13:11:28.640	$GPGGA,131129,2516.1008,N,08004.4104,W,1,8,1.9,15,M,,M,,*59
06/09/2014	13:11:29.783	$GPGGA,131130,2516.1011,N,08004.4102,W,1,8,1.9,15,M,,M,,*5F
06/09/2014	13:11:30.666	$GPGGA,131131,2516.1012,N,08004.4099,W,1,8,1.9,15,M,,M,,*5E
06/09/2014	13:11:31.818	$GPGGA,131132,2516.1015,N,08004.4096,W,1,8,1.9,15,M,,M,,*55
06/09/2014	13:11:32.660	$GPGGA,131133,2516.1018,N,08004.4093,W,1,8,1.9,15,M,,M,,*5C
06/09/2014	13:11:33.653	$GPGGA,131134,2516.1021,N,08004.4090,W,1,8,1.9,15,M,,M,,*52
06/09/2014	13:11:34.655	$GPGGA,131135,2516.1023,N,08004.4088,W,1,7,1.9,15,M,,M,,*57
06/09/2014	13:11:35.668	$GPGGA,131136,2516.1026,N,08004.4085,W,1,7,1.9,15,M,,M,,*5C
06/09/2014	13:11:36.651	$GPGGA,131137,2516.1028,N,08004.4082,W,1,8,1.9,15,M,,M,,*5B
06/09/2014	13:11:37.663	$GPGGA,131138,2516.1030,N,08004.4080,W,1,8,1.9,15,M,,M,,*5F
06/09/2014	13:11:38.656	$GPGGA,131139,2516.1032,N,08004.4077,W,1,8,1.9,15,M,,M,,*54
06/09/2014	13:11:39.607	$GPGGA,131140,2516.1033,N,08004.4075,W,1,8,1.9,15,M,,M,,*59
06/09/2014	13:11:40.514	$GPGGA,131141,2516.1036,N,08004.4072,W,1,8,1.9,15,M,,M,,*5A
06/09/2014	13:11:41.497	$GPGGA,131142,2516.1037,N,08004.4069,W,1,8,1.9,15,M,,M,,*52
06/09/2014	13:11:42.689	$GPGGA,131143,2516.1040,N,08004.4067,W,1,8,1.9,15,M,,M,,*5D
06/09/2014	13:11:43.511	$GPGGA,131144,2516.1043,N,08004.4064,W,1,8,1.9,15,M,,M,,*5A
06/09/2014	13:11:44.503	$GPGGA,131145,2516.1044,N,08004.4061,W,1,8,1.9,15,M,,M,,*59
06/09/2014	13:11:45.626	$GPGGA,131146,2516.1047,N,08004.4059,W,1,8,1.9,15,M,,M,,*52
06/09/2014	13:11:46.599	$GPGGA,131147,2516.1048,N,08004.4057,W,1,8,1.9,15,M,,M,,*52
06/09/2014	13:11:47.611	$GPGGA,131148,2516.1051,N,08004.4055,W,1,8,1.9,15,M,,M,,*57
06/09/2014	13:11:48.687	$GPGGA,131149,2516.1053,N,08004.4052,W,1,8,1.9,15,M,,M,,*53
