Software Version Number: 1	Data File Format Number: 1	Build Version Number: 1	Error Count Since VI Started: 0	Manufacturer: Raytheon	 Model Number: RayMarine 120	 S/N: 	 Cal Date: 	 Wind Direction Offset: 0.00	 Slope (M)1: 0.00	 Offset (B)1: 0.00	 Slope (M)2: 0.00	 Offset (B)2: 0.00	 Slope (M)3: 0.00	 Offset (B)3: 0.00	 Slope (M)4: 0.00	 Offset (B)4: 0.00	 Slope (M)5: 0.00	 Offset (B)5: 0.00	 Slope (M)6: 0.00	 Offset (B)6: 0.00
Computer Date	Computer Time	GGA String
06/10/2014	15:00:00.759	$GPGGA,150000,2605.8108,N,08002.4830,W,1,9,1.6,17,M,,M,,*59
06/10/2014	15:00:01.910	$GPGGA,150001,2605.8093,N,08002.4842,W,1,9,1.6,17,M,,M,,*5E
06/10/2014	15:00:02.939	$GPGGA,150002,2605.8076,N,08002.4855,W,1,9,1.6,17,M,,M,,*50
06/10/2014	15:00:03.919	$GPGGA,150003,2605.8076,N,08002.4855,W,1,9,1.6,17,M,,M,,*51
06/10/2014	15:00:05.094	$GPGGA,150004,2605.8046,N,08002.4881,W,1,9,1.6,17,M,,M,,*5C
06/10/2014	15:00:06.138	$GPGGA,150005,2605.8029,N,08002.4895,W,1,9,1.6,18,M,,M,,*5E
06/10/2014	15:00:07.192	$GPGGA,150006,2605.8013,N,08002.4908,W,1,9,1.6,18,M,,M,,*51
06/10/2014	15:00:08.269	$GPGGA,150007,2605.7997,N,08002.4921,W,1,9,1.6,18,M,,M,,*51
06/10/2014	15:00:09.348	$GPGGA,150008,2605.7980,N,08002.4935,W,1,9,1.6,18,M,,M,,*5D
06/10/2014	15:00:10.400	$GPGGA,150009,2605.7964,N,08002.4949,W,1,9,1.6,18,M,,M,,*5D
06/10/2014	15:00:11.444	$GPGGA,150010,2605.7948,N,08002.4961,W,1,9,1.6,18,M,,M,,*51
06/10/2014	15:00:12.552	$GPGGA,150011,2605.7931,N,08002.4975,W,1,9,1.6,18,M,,M,,*5B
06/10/2014	15:00:13.598	$GPGGA,150012,2605.7915,N,08002.4987,W,1,9,1.6,18,M,,M,,*53
06/10/2014	15:00:14.642	$GPGGA,150013,2605.7898,N,08002.5000,W,1,9,1.6,18,M,,M,,*51
06/10/2014	15:00:15.708	$GPGGA,150014,2605.7883,N,08002.5014,W,1,9,1.6,18,M,,M,,*59
06/10/2014	15:00:16.796	$GPGGA,150015,2605.7865,N,08002.5027,W,1,9,1.6,18,M,,M,,*50
06/10/2014	15:00:17.851	$GPGGA,150016,2605.7849,N,08002.5040,W,1,9,1.6,18,M,,M,,*5C
06/10/2014	15:00:18.917	$GPGGA,150017,2605.7832,N,08002.5054,W,1,9,1.6,18,M,,M,,*54
06/10/2014	15:00:19.962	$GPGGA,150018,2605.7816,N,08002.5069,W,1,9,1.6,18,M,,M,,*53
06/10/2014	15:00:21.061	$GPGGA,150019,2605.7800,N,08002.5083,W,1,9,1.6,18,M,,M,,*51
06/10/2014	15:00:22.104	$GPGGA,150020,2605.7783,N,08002.5097,W,1,9,1.6,18,M,,M,,*5A
06/10/2014	15:00:23.181	$GPGGA,150021,2605.7767,N,08002.5110,W,1,8,1.7,18,M,,M,,*5F
06/10/2014	15:00:24.215	$GPGGA,150022,2605.7749,N,08002.5126,W,1,8,1.6,18,M,,M,,*54
06/10/2014	15:00:25.313	$GPGGA,150023,2605.7732,N,08002.5139,W,1,8,1.9,18,M,,M,,*58
06/10/2014	15:00:26.358	$GPGGA,150024,2605.7715,N,08002.5153,W,1,8,1.9,17,M,,M,,*59
06/10/2014	15:00:27.401	$GPGGA,150025,2605.7699,N,08002.5168,W,1,8,1.9,17,M,,M,,*55
06/10/2014	15:00:28.467	$GPGGA,150026,2605.7682,N,08002.5182,W,1,8,1.9,17,M,,M,,*58
06/10/2014	15:00:29.565	$GPGGA,150027,2605.7664,N,08002.5197,W,1,8,1.9,17,M,,M,,*55
06/10/2014	15:00:30.610	$GPGGA,150028,2605.7648,N,08002.5213,W,1,8,1.9,17,M,,M,,*5B
06/10/2014	15:00:31.676	$GPGGA,150029,2605.7630,N,08002.5228,W,1,8,1.9,17,M,,M,,*5D
06/10/2014	15:00:32.731	$GPGGA,150030,2605.7614,N,08002.5242,W,1,8,1.9,17,M,,M,,*5F
06/10/2014	15:00:33.819	$GPGGA,150031,2605.7598,N,08002.5257,W,1,8,1.9,17,M,,M,,*5D
06/10/2014	15:00:34.874	$GPGGA,150032,2605.7581,N,08002.5272,W,1,8,1.9,16,M,,M,,*50
06/10/2014	15:00:35.951	$GPGGA,150033,2605.7566,N,08002.5286,W,1,8,1.9,16,M,,M,,*53
06/10/2014	15:00:36.985	$GPGGA,150034,2605.7552,N,08002.5300,W,1,8,1.6,16,M,,M,,*53
06/10/2014	15:00:38.051	$GPGGA,150035,2605.7537,N,08002.5314,W,1,9,1.6,16,M,,M,,*55
06/10/2014	15:00:39.105	$GPGGA,150036,2605.7522,N,08002.5327,W,1,9,1.6,16,M,,M,,*52
06/10/2014	15:00:40.172	$GPGGA,150037,2605.7506,N,08002.5343,W,1,9,1.6,16,M,,M,,*57
06/10/2014	15:00:41.241	$GPGGA,150038,2605.7490,N,08002.5357,W,1,9,1.6,16,M,,M,,*53
06/10/2014	15:00:42.421	$GPGGA,150039,2605.7475,N,08002.5372,W,1,9,1.6,16,M,,M,,*5E
06/10/2014	15:00:43.381	$GPGGA,150040,2605.7458,N,08002.5387,W,1,9,1.6,16,M,,M,,*55
06/10/2014	15:00:44.416	$GPGGA,150041,2605.7441,N,08002.5401,W,1,9,1.6,16,M,,M,,*55
06/10/2014	15:00:41.628	$GPGGA,150042,2605.7426,N,08002.5416,W,1,9,1.9,16,M,,M,,*5E
06/10/2014	15:00:42.737	$GPGGA,150043,2605.7410,N,08002.5430,W,1,9,1.6,16,M,,M,,*51
06/10/2014	15:00:43.771	$GPGGA,150044,2605.7394,N,08002.5445,W,1,9,1.6,16,M,,M,,*5F
06/10/2014	15:00:44.837	$GPGGA,150045,2605.7378,N,08002.5460,W,1,9,1.6,17,M,,M,,*5A
06/10/2014	15:00:45.882	$GPGGA,150046,2605.7363,N,08002.5474,W,1,9,1.6,17,M,,M,,*56
06/10/2014	15:00:46.862	$GPGGA,150047,2605.7347,N,08002.5489,W,1,9,1.6,17,M,,M,,*53
06/10/2014	15:00:48.025	$GPGGA,150048,2605.7329,N,08002.5506,W,1,9,1.6,17,M,,M,,*52
06/10/2014	15:00:48.994	$GPGGA,150049,2605.7312,N,08002.5520,W,1,8,1.9,17,M,,M,,*51
06/10/2014	15:00:50.052	$GPGGA,150050,2605.7295,N,08002.5535,W,1,8,1.9,17,M,,M,,*53
06/10/2014	15:00:51.244	$GPGGA,150051,2605.7278,N,08002.5551,W,1,8,1.9,17,M,,M,,*53
06/10/2014	15:00:52.300	$GPGGA,150052,2605.7262,N,08002.5565,W,1,8,1.9,17,M,,M,,*5C
06/10/2014	15:00:53.248	$GPGGA,150053,2605.7244,N,08002.5581,W,1,8,1.9,17,M,,M,,*53
06/10/2014	15:00:54.399	$GPGGA,150054,2605.7227,N,08002.5596,W,1,8,1.9,17,M,,M,,*57
06/10/2014	15:00:55.465	$GPGGA,150055,2605.7211,N,08002.5611,W,1,8,1.9,17,M,,M,,*5F
06/10/2014	15:00:56.542	$GPGGA,150056,2605.7193,N,08002.5625,W,1,8,1.9,17,M,,M,,*52
06/10/2014	15:00:57.618	$GPGGA,150057,2605.7176,N,08002.5640,W,1,8,1.9,17,M,,M,,*5B
06/10/2014	15:00:58.664	$GPGGA,150058,2605.7161,N,08002.5654,W,1,8,1.9,16,M,,M,,*56
06/10/2014	15:00:59.718	$GPGGA,150059,2605.7146,N,08002.5668,W,1,9,1.6,16,M,,M,,*53
06/10/2014	15:01:00.805	$GPGGA,150100,2605.7129,N,08002.5681,W,1,9,1.6,16,M,,M,,*50
06/10/2014	15:01:01.839	$GPGGA,150101,2605.7113,N,08002.5694,W,1,9,1.6,16,M,,M,,*5C
06/10/2014	15:01:02.905	$GPGGA,150102,2605.7099,N,08002.5708,W,1,9,1.6,16,M,,M,,*58
06/10/2014	15:01:03.960	$GPGGA,150103,2605.7081,N,08002.5722,W,1,9,1.6,16,M,,M,,*58
06/10/2014	15:01:05.047	$GPGGA,150104,2605.7066,N,08002.5734,W,1,9,1.6,16,M,,M,,*51
06/10/2014	15:01:06.113	$GPGGA,150105,2605.7050,N,08002.5748,W,1,9,1.6,16,M,,M,,*5E
06/10/2014	15:01:07.169	$GPGGA,150106,2605.7034,N,08002.5759,W,1,9,1.6,16,M,,M,,*5F
06/10/2014	15:01:08.246	$GPGGA,150107,2605.7017,N,08002.5773,W,1,9,1.6,16,M,,M,,*57
06/10/2014	15:01:09.301	$GPGGA,150108,2605.7001,N,08002.5785,W,1,9,1.6,17,M,,M,,*57
06/10/2014	15:01:10.345	$GPGGA,150109,2605.6984,N,08002.5798,W,1,9,1.6,17,M,,M,,*5F
06/10/2014	15:01:11.422	$GPGGA,150110,2605.6967,N,08002.5811,W,1,9,1.6,17,M,,M,,*54
06/10/2014	15:01:12.499	$GPGGA,150111,2605.6951,N,08002.5824,W,1,9,1.6,17,M,,M,,*56
06/10/2014	15:01:13.565	$GPGGA,150112,2605.6933,N,08002.5838,W,1,9,1.6,17,M,,M,,*5C
06/10/2014	15:01:14.620	$GPGGA,150113,2605.6916,N,08002.5849,W,1,9,1.6,17,M,,M,,*5C
06/10/2014	15:01:15.686	$GPGGA,150114,2605.6899,N,08002.5863,W,1,9,1.6,17,M,,M,,*55
06/10/2014	15:01:16.741	$GPGGA,150115,2605.6881,N,08002.5876,W,1,9,1.6,17,M,,M,,*59
06/10/2014	15:01:17.808	$GPGGA,150116,2605.6864,N,08002.5889,W,1,9,1.6,17,M,,M,,*51
06/10/2014	15:01:18.852	$GPGGA,150117,2605.6847,N,08002.5901,W,1,9,1.6,17,M,,M,,*50
06/10/2014	15:01:19.938	$GPGGA,150118,2605.6829,N,08002.5914,W,1,9,1.6,17,M,,M,,*53
06/10/2014	15:01:21.015	$GPGGA,150119,2605.6814,N,08002.5928,W,1,9,1.6,17,M,,M,,*53
06/10/2014	15:01:22.081	$GPGGA,150120,2605.6796,N,08002.5940,W,1,9,1.6,17,M,,M,,*52
06/10/2014	15:01:23.136	$GPGGA,150121,2605.6778,N,08002.5954,W,1,9,1.6,17,M,,M,,*56
06/10/2014	15:01:24.277	$GPGGA,150122,2605.6761,N,08002.5966,W,1,9,1.6,17,M,,M,,*5C
06/10/2014	15:01:25.375	$GPGGA,150123,2605.6745,N,08002.5980,W,1,9,1.6,17,M,,M,,*53
06/10/2014	15:01:26.313	$GPGGA,150124,2605.6727,N,08002.5993,W,1,9,1.6,17,M,,M,,*52
06/10/2014	15:01:27.464	$GPGGA,150125,2605.6709,N,08002.6006,W,1,9,1.6,17,M,,M,,*59
06/10/2014	15:01:28.445	$GPGGA,150126,2605.6692,N,08002.6019,W,1,9,1.6,18,M,,M,,*58
06/10/2014	15:01:29.596	$GPGGA,150127,2605.6675,N,08002.6033,W,1,9,1.6,18,M,,M,,*58
06/10/2014	15:01:30.588	$GPGGA,150128,2605.6658,N,08002.6048,W,1,9,1.6,18,M,,M,,*54
06/10/2014	15:01:31.749	$GPGGA,150129,2605.6640,N,08002.6062,W,1,8,1.9,18,M,,M,,*5A
06/10/2014	15:01:32.691	$GPGGA,150130,2605.6624,N,08002.6074,W,1,8,1.9,18,M,,M,,*57
06/10/2014	15:01:33.756	$GPGGA,150131,2605.6608,N,08002.6088,W,1,9,1.6,18,M,,M,,*55
06/10/2014	15:01:34.830	$GPGGA,150132,2605.6590,N,08002.6102,W,1,9,1.9,18,M,,M,,*58
06/10/2014	15:01:35.899	$GPGGA,150133,2605.6573,N,08002.6116,W,1,9,1.6,18,M,,M,,*5E
06/10/2014	15:01:37.061	$GPGGA,150134,2605.6557,N,08002.6129,W,1,9,1.6,18,M,,M,,*53
06/10/2014	15:01:38.018	$GPGGA,150135,2605.6539,N,08002.6145,W,1,9,1.6,18,M,,M,,*50
06/10/2014	15:01:39.087	$GPGGA,150136,2605.6521,N,08002.6160,W,1,9,1.9,17,M,,M,,*5D
06/10/2014	15:01:40.234	$GPGGA,150137,2605.6507,N,08002.6172,W,1,8,1.9,17,M,,M,,*5A
06/10/2014	15:01:41.300	$GPGGA,150138,2605.6490,N,08002.6186,W,1,8,1.6,17,M,,M,,*5E
06/10/2014	15:01:42.387	$GPGGA,150139,2605.6475,N,08002.6200,W,1,9,1.6,17,M,,M,,*58
06/10/2014	15:01:43.432	$GPGGA,150140,2605.6460,N,08002.6212,W,1,9,1.6,17,M,,M,,*51
06/10/2014	15:01:44.521	$GPGGA,150141,2605.6443,N,08002.6228,W,1,9,1.6,17,M,,M,,*58
06/10/2014	15:01:41.605	$GPGGA,150142,2605.6427,N,08002.6241,W,1,9,1.6,18,M,,M,,*59
06/10/2014	15:01:42.692	$GPGGA,150143,2605.6410,N,08002.6255,W,1,9,1.6,18,M,,M,,*59
06/10/2014	15:01:43.737	$GPGGA,150144,2605.6395,N,08002.6270,W,1,9,1.6,18,M,,M,,*53
06/10/2014	15:01:44.803	$GPGGA,150145,2605.6377,N,08002.6286,W,1,9,1.6,18,M,,M,,*57
06/10/2014	15:01:45.858	$GPGGA,150146,2605.6362,N,08002.6300,W,1,9,1.6,18,M,,M,,*5F
06/10/2014	15:01:46.935	$GPGGA,150147,2605.6344,N,08002.6315,W,1,9,1.6,18,M,,M,,*5E
06/10/2014	15:01:48.001	$GPGGA,150148,2605.6327,N,08002.6329,W,1,9,1.6,18,M,,M,,*5B
06/10/2014	15:01:49.056	$GPGGA,150149,2605.6310,N,08002.6344,W,1,9,1.6,18,M,,M,,*55
06/10/2014	15:01:50.112	$GPGGA,150150,2605.6294,N,08002.6358,W,1,9,1.6,18,M,,M,,*5D
06/10/2014	15:01:51.188	$GPGGA,150151,2605.6277,N,08002.6373,W,1,9,1.6,18,M,,M,,*58
06/10/2014	15:01:52.253	$GPGGA,150152,2605.6261,N,08002.6387,W,1,9,1.6,18,M,,M,,*57
06/10/2014	15:01:53.287	$GPGGA,150153,2605.6243,N,08002.6402,W,1,9,1.6,18,M,,M,,*5C
06/10/2014	15:01:54.374	$GPGGA,150154,2605.6227,N,08002.6416,W,1,9,1.6,18,M,,M,,*5C
06/10/2014	15:01:55.430	$GPGGA,150155,2605.6211,N,08002.6430,W,1,9,1.6,18,M,,M,,*5C
06/10/2014	15:01:56.506	$GPGGA,150156,2605.6194,N,08002.6443,W,1,9,1.6,19,M,,M,,*54
06/10/2014	15:01:57.572	$GPGGA,150157,2605.6178,N,08002.6459,W,1,9,1.6,19,M,,M,,*5C
06/10/2014	15:01:58.606	$GPGGA,150158,2605.6160,N,08002.6472,W,1,9,1.6,19,M,,M,,*53
06/10/2014	15:01:59.694	$GPGGA,150159,2605.6142,N,08002.6488,W,1,9,1.6,19,M,,M,,*57
06/10/2014	15:02:00.770	$GPGGA,150200,2605.6124,N,08002.6503,W,1,9,1.6,19,M,,M,,*5A
06/10/2014	15:02:01.794	$GPGGA,150201,2605.6105,N,08002.6517,W,1,8,1.9,19,M,,M,,*53
06/10/2014	15:02:02.881	$GPGGA,150202,2605.6087,N,08002.6532,W,1,8,1.9,19,M,,M,,*5C
06/10/2014	15:02:03.958	$GPGGA,150203,2605.6069,N,08002.6548,W,1,8,1.9,19,M,,M,,*50
06/10/2014	15:02:05.024	$GPGGA,150204,2605.6051,N,08002.6564,W,1,8,1.9,19,M,,M,,*52
06/10/2014	15:02:06.100	$GPGGA,150205,2605.6033,N,08002.6577,W,1,8,1.9,19,M,,M,,*55
06/10/2014	15:02:07.132	$GPGGA,150206,2605.6015,N,08002.6593,W,1,8,1.9,19,M,,M,,*58
06/10/2014	15:02:08.183	$GPGGA,150207,2605.5997,N,08002.6608,W,1,8,1.9,18,M,,M,,*59
06/10/2014	15:02:09.384	$GPGGA,150208,2605.5980,N,08002.6622,W,1,8,1.9,18,M,,M,,*58
06/10/2014	15:02:10.450	$GPGGA,150209,2605.5965,N,08002.6634,W,1,8,1.9,18,M,,M,,*55
06/10/2014	15:02:11.377	$GPGGA,150210,2605.5949,N,08002.6648,W,1,8,1.6,18,M,,M,,*57
06/10/2014	15:02:12.432	$GPGGA,150211,2605.5932,N,08002.6662,W,1,9,1.6,18,M,,M,,*53
06/10/2014	15:02:13.529	$GPGGA,150212,2605.5914,N,08002.6677,W,1,9,1.9,18,M,,M,,*5F
06/10/2014	15:02:14.670	$GPGGA,150213,2605.5896,N,08002.6692,W,1,8,1.9,18,M,,M,,*5F
06/10/2014	15:02:15.640	$GPGGA,150214,2605.5878,N,08002.6706,W,1,8,1.9,18,M,,M,,*54
06/10/2014	15:02:16.702	$GPGGA,150215,2605.5858,N,08002.6721,W,1,8,1.9,17,M,,M,,*5D
06/10/2014	15:02:17.783	$GPGGA,150216,2605.5842,N,08002.6735,W,1,8,1.9,17,M,,M,,*50
06/10/2014	15:02:18.823	$GPGGA,150217,2605.5824,N,08002.6750,W,1,8,1.9,17,M,,M,,*52
06/10/2014	15:02:19.894	$GPGGA,150218,2605.5806,N,08002.6764,W,1,8,1.6,17,M,,M,,*55
06/10/2014	15:02:20.959	$GPGGA,150219,2605.5790,N,08002.6777,W,1,8,1.9,17,M,,M,,*59
06/10/2014	15:02:22.143	$GPGGA,150220,2605.5773,N,08002.6790,W,1,8,1.6,17,M,,M,,*58
06/10/2014	15:02:23.218	$GPGGA,150221,2605.5757,N,08002.6804,W,1,9,1.6,17,M,,M,,*5C
06/10/2014	15:02:24.253	$GPGGA,150222,2605.5741,N,08002.6817,W,1,9,1.6,17,M,,M,,*5A
06/10/2014	15:02:25.309	$GPGGA,150223,2605.5724,N,08002.6831,W,1,9,1.6,17,M,,M,,*5C
06/10/2014	15:02:26.408	$GPGGA,150224,2605.5708,N,08002.6844,W,1,9,1.6,17,M,,M,,*57
06/10/2014	15:02:27.430	$GPGGA,150225,2605.5691,N,08002.6858,W,1,9,1.6,17,M,,M,,*5A
06/10/2014	15:02:28.496	$GPGGA,150226,2605.5674,N,08002.6871,W,1,9,1.6,17,M,,M,,*59
06/10/2014	15:02:29.582	$GPGGA,150227,2605.5658,N,08002.6884,W,1,9,1.6,17,M,,M,,*5C
06/10/2014	15:02:30.650	$GPGGA,150228,2605.5641,N,08002.6898,W,1,9,1.6,17,M,,M,,*56
06/10/2014	15:02:31.736	$GPGGA,150229,2605.5625,N,08002.6911,W,1,9,1.6,17,M,,M,,*55
06/10/2014	15:02:32.759	$GPGGA,150230,2605.5607,N,08002.6925,W,1,9,1.6,17,M,,M,,*5A
06/10/2014	15:02:33.825	$GPGGA,150231,2605.5590,N,08002.6937,W,1,9,1.6,17,M,,M,,*55
06/10/2014	15:02:34.902	$GPGGA,150232,2605.5573,N,08002.6951,W,1,9,1.6,17,M,,M,,*5B
06/10/2014	15:02:35.968	$GPGGA,150233,2605.5556,N,08002.6963,W,1,9,1.6,17,M,,M,,*5C
06/10/2014	15:02:37.012	$GPGGA,150234,2605.5539,N,08002.6976,W,1,9,1.6,17,M,,M,,*56
06/10/2014	15:02:38.078	$GPGGA,150235,2605.5521,N,08002.6991,W,1,9,1.6,17,M,,M,,*57
06/10/2014	15:02:39.155	$GPGGA,150236,2605.5503,N,08002.7003,W,1,9,1.6,17,M,,M,,*57
06/10/2014	15:02:40.200	$GPGGA,150237,2605.5486,N,08002.7016,W,1,9,1.6,18,M,,M,,*51
06/10/2014	15:02:41.276	$GPGGA,150238,2605.5468,N,08002.7030,W,1,9,1.6,18,M,,M,,*5A
06/10/2014	15:02:42.321	$GPGGA,150239,2605.5452,N,08002.7043,W,1,9,1.6,18,M,,M,,*56
06/10/2014	15:02:43.408	$GPGGA,150240,2605.5434,N,08002.7057,W,1,9,1.6,18,M,,M,,*5D
06/10/2014	15:02:44.453	$GPGGA,150241,2605.5416,N,08002.7070,W,1,9,1.6,18,M,,M,,*59
06/10/2014	15:02:41.572	$GPGGA,150242,2605.5398,N,08002.7085,W,1,9,1.6,18,M,,M,,*51
06/10/2014	15:02:42.638	$GPGGA,150243,2605.5381,N,08002.7097,W,1,9,1.6,18,M,,M,,*5B
06/10/2014	15:02:43.714	$GPGGA,150244,2605.5363,N,08002.7111,W,1,9,1.6,18,M,,M,,*5F
06/10/2014	15:02:44.747	$GPGGA,150245,2605.5345,N,08002.7125,W,1,9,1.6,19,M,,M,,*5C
06/10/2014	15:02:45.824	$GPGGA,150246,2605.5326,N,08002.7140,W,1,9,1.6,19,M,,M,,*59
06/10/2014	15:02:46.879	$GPGGA,150247,2605.5307,N,08002.7155,W,1,8,1.9,19,M,,M,,*51
06/10/2014	15:02:47.977	$GPGGA,150248,2605.5289,N,08002.7171,W,1,8,1.9,19,M,,M,,*5F
06/10/2014	15:02:49.011	$GPGGA,150249,2605.5271,N,08002.7186,W,1,8,1.9,19,M,,M,,*51
06/10/2014	15:02:50.079	$GPGGA,150250,2605.5253,N,08002.7200,W,1,8,1.9,19,M,,M,,*54
06/10/2014	15:02:51.165	$GPGGA,150251,2605.5235,N,08002.7215,W,1,8,1.9,18,M,,M,,*50
06/10/2014	15:02:52.221	$GPGGA,150252,2605.5217,N,08002.7230,W,1,8,1.9,18,M,,M,,*54
06/10/2014	15:02:53.265	$GPGGA,150253,2605.5199,N,08002.7244,W,1,8,1.9,18,M,,M,,*53
06/10/2014	15:02:54.320	$GPGGA,150254,2605.5181,N,08002.7259,W,1,8,1.9,18,M,,M,,*51
06/10/2014	15:02:55.386	$GPGGA,150255,2605.5165,N,08002.7274,W,1,9,1.6,18,M,,M,,*5B
06/10/2014	15:02:56.591	$GPGGA,150256,2605.5149,N,08002.7288,W,1,9,1.6,18,M,,M,,*55
06/10/2014	15:02:57.529	$GPGGA,150257,2605.5132,N,08002.7302,W,1,9,1.6,18,M,,M,,*5B
06/10/2014	15:02:58.683	$GPGGA,150258,2605.5116,N,08002.7317,W,1,9,1.6,18,M,,M,,*56
06/10/2014	15:02:59.661	$GPGGA,150259,2605.5099,N,08002.7332,W,1,9,1.6,18,M,,M,,*56
06/10/2014	15:03:00.855	$GPGGA,150300,2605.5083,N,08002.7346,W,1,9,1.6,17,M,,M,,*5C
06/10/2014	15:03:01.922	$GPGGA,150301,2605.5066,N,08002.7361,W,1,9,1.6,17,M,,M,,*53
06/10/2014	15:03:02.956	$GPGGA,150302,2605.5051,N,08002.7377,W,1,9,1.6,17,M,,M,,*53
06/10/2014	15:03:04.023	$GPGGA,150303,2605.5033,N,08002.7392,W,1,9,1.6,17,M,,M,,*5D
06/10/2014	15:03:04.979	$GPGGA,150304,2605.5018,N,08002.7406,W,1,9,1.6,17,M,,M,,*59
06/10/2014	15:03:06.162	$GPGGA,150305,2605.5000,N,08002.7422,W,1,9,1.6,17,M,,M,,*57
06/10/2014	15:03:07.196	$GPGGA,150306,2605.4983,N,08002.7436,W,1,9,1.6,17,M,,M,,*52
06/10/2014	15:03:08.273	$GPGGA,150307,2605.4966,N,08002.7453,W,1,9,1.6,17,M,,M,,*5B
06/10/2014	15:03:09.341	$GPGGA,150308,2605.4951,N,08002.7467,W,1,9,1.6,17,M,,M,,*57
06/10/2014	15:03:10.394	$GPGGA,150309,2605.4933,N,08002.7482,W,1,9,1.6,17,M,,M,,*59
06/10/2014	15:03:11.450	$GPGGA,150310,2605.4917,N,08002.7496,W,1,9,1.6,17,M,,M,,*52
06/10/2014	15:03:12.539	$GPGGA,150311,2605.4901,N,08002.7511,W,1,9,1.6,17,M,,M,,*5A
06/10/2014	15:03:13.582	$GPGGA,150312,2605.4883,N,08002.7527,W,1,9,1.8,17,M,,M,,*59
06/10/2014	15:03:14.658	$GPGGA,150313,2605.4866,N,08002.7543,W,1,8,1.6,17,M,,M,,*5E
06/10/2014	15:03:15.703	$GPGGA,150314,2605.4848,N,08002.7558,W,1,8,1.6,18,M,,M,,*50
06/10/2014	15:03:16.814	$GPGGA,150315,2605.4832,N,08002.7574,W,1,9,1.6,18,M,,M,,*53
06/10/2014	15:03:17.846	$GPGGA,150316,2605.4816,N,08002.7590,W,1,9,1.6,18,M,,M,,*5C
06/10/2014	15:03:18.912	$GPGGA,150317,2605.4798,N,08002.7605,W,1,9,1.6,18,M,,M,,*5B
06/10/2014	15:03:19.967	$GPGGA,150318,2605.4781,N,08002.7620,W,1,9,1.6,18,M,,M,,*5B
06/10/2014	15:03:21.044	$GPGGA,150319,2605.4764,N,08002.7635,W,1,9,1.6,18,M,,M,,*55
06/10/2014	15:03:22.108	$GPGGA,150320,2605.4747,N,08002.7650,W,1,9,1.6,18,M,,M,,*5D
06/10/2014	15:03:23.164	$GPGGA,150321,2605.4729,N,08002.7666,W,1,9,1.9,18,M,,M,,*5E
06/10/2014	15:03:24.219	$GPGGA,150322,2605.4711,N,08002.7681,W,1,9,1.9,18,M,,M,,*5F
06/10/2014	15:03:25.296	$GPGGA,150323,2605.4693,N,08002.7696,W,1,8,1.9,17,M,,M,,*5D
06/10/2014	15:03:26.372	$GPGGA,150324,2605.4673,N,08002.7711,W,1,8,1.9,17,M,,M,,*5A
06/10/2014	15:03:27.449	$GPGGA,150325,2605.4655,N,08002.7728,W,1,8,1.9,17,M,,M,,*55
06/10/2014	15:03:28.462	$GPGGA,150326,2605.4637,N,08002.7742,W,1,8,1.9,17,M,,M,,*5E
06/10/2014	15:03:29.570	$GPGGA,150327,2605.4619,N,08002.7757,W,1,8,1.9,17,M,,M,,*57
06/10/2014	15:03:30.615	$GPGGA,150328,2605.4601,N,08002.7771,W,1,8,1.9,17,M,,M,,*55
06/10/2014	15:03:31.692	$GPGGA,150329,2605.4585,N,08002.7786,W,1,8,1.9,17,M,,M,,*53
06/10/2014	15:03:32.715	$GPGGA,150330,2605.4566,N,08002.7800,W,1,8,1.9,17,M,,M,,*57
06/10/2014	15:03:33.824	$GPGGA,150331,2605.4548,N,08002.7814,W,1,8,1.6,17,M,,M,,*50
06/10/2014	15:03:34.869	$GPGGA,150332,2605.4531,N,08002.7829,W,1,8,1.6,16,M,,M,,*52
06/10/2014	15:03:35.956	$GPGGA,150333,2605.4513,N,08002.7843,W,1,9,1.9,16,M,,M,,*51
06/10/2014	15:03:37.001	$GPGGA,150334,2605.4496,N,08002.7858,W,1,9,1.6,16,M,,M,,*5F
06/10/2014	15:03:38.077	$GPGGA,150335,2605.4478,N,08002.7872,W,1,9,1.9,16,M,,M,,*59
06/10/2014	15:03:39.125	$GPGGA,150336,2605.4462,N,08002.7886,W,1,9,1.6,16,M,,M,,*55
06/10/2014	15:03:40.165	$GPGGA,150337,2605.4444,N,08002.7899,W,1,9,1.6,16,M,,M,,*5E
06/10/2014	15:03:41.359	$GPGGA,150338,2605.4427,N,08002.7912,W,1,9,1.6,16,M,,M,,*56
06/10/2014	15:03:42.297	$GPGGA,150339,2605.4411,N,08002.7926,W,1,9,1.6,16,M,,M,,*55
06/10/2014	15:03:43.502	$GPGGA,150340,2605.4393,N,08002.7938,W,1,9,1.6,16,M,,M,,*59
06/10/2014	15:03:44.532	$GPGGA,150341,2605.4376,N,08002.7952,W,1,9,1.6,16,M,,M,,*5F
06/10/2014	15:03:41.547	$GPGGA,150342,2605.4359,N,08002.7966,W,1,9,1.6,16,M,,M,,*56
06/10/2014	15:03:42.675	$GPGGA,150343,2605.4342,N,08002.7978,W,1,9,1.6,16,M,,M,,*52
06/10/2014	15:03:43.690	$GPGGA,150344,2605.4323,N,08002.7992,W,1,9,1.6,16,M,,M,,*56
06/10/2014	15:03:44.613	$GPGGA,150345,2605.4306,N,08002.8006,W,1,9,1.6,16,M,,M,,*5B
06/10/2014	15:03:45.741	$GPGGA,150346,2605.4288,N,08002.8020,W,1,9,1.6,16,M,,M,,*5B
06/10/2014	15:03:46.746	$GPGGA,150347,2605.4271,N,08002.8032,W,1,9,1.6,17,M,,M,,*5E
06/10/2014	15:03:47.710	$GPGGA,150348,2605.4253,N,08002.8046,W,1,9,1.6,17,M,,M,,*52
06/10/2014	15:03:48.817	$GPGGA,150349,2605.4235,N,08002.8060,W,1,9,1.6,17,M,,M,,*57
06/10/2014	15:03:49.801	$GPGGA,150350,2605.4218,N,08002.8074,W,1,9,1.6,17,M,,M,,*55
06/10/2014	15:03:50.850	$GPGGA,150351,2605.4199,N,08002.8087,W,1,9,1.6,17,M,,M,,*52
06/10/2014	15:03:51.872	$GPGGA,150352,2605.4181,N,08002.8100,W,1,9,1.6,17,M,,M,,*56
06/10/2014	15:03:52.877	$GPGGA,150353,2605.4163,N,08002.8114,W,1,9,1.6,17,M,,M,,*5E
06/10/2014	15:03:53.903	$GPGGA,150354,2605.4145,N,08002.8129,W,1,9,1.6,17,M,,M,,*53
06/10/2014	15:03:54.947	$GPGGA,150355,2605.4128,N,08002.8143,W,1,9,1.6,17,M,,M,,*55
06/10/2014	15:03:55.973	$GPGGA,150356,2605.4110,N,08002.8157,W,1,9,1.6,17,M,,M,,*58
06/10/2014	15:03:56.977	$GPGGA,150357,2605.4092,N,08002.8170,W,1,9,1.6,17,M,,M,,*57
06/10/2014	15:03:58.003	$GPGGA,150358,2605.4074,N,08002.8184,W,1,9,1.6,17,M,,M,,*5B
06/10/2014	15:03:59.028	$GPGGA,150359,2605.4055,N,08002.8199,W,1,9,1.9,17,M,,M,,*5A
06/10/2014	15:04:00.080	$GPGGA,150400,2605.4036,N,08002.8215,W,1,9,1.9,17,M,,M,,*53
06/10/2014	15:04:01.089	$GPGGA,150401,2605.4017,N,08002.8230,W,1,8,1.9,17,M,,M,,*57
06/10/2014	15:04:02.094	$GPGGA,150402,2605.4000,N,08002.8244,W,1,8,1.9,17,M,,M,,*51
06/10/2014	15:04:03.151	$GPGGA,150403,2605.3983,N,08002.8258,W,1,8,1.9,17,M,,M,,*58
06/10/2014	15:04:04.144	$GPGGA,150404,2605.3965,N,08002.8273,W,1,8,1.9,17,M,,M,,*5E
06/10/2014	15:04:05.180	$GPGGA,150405,2605.3947,N,08002.8288,W,1,8,1.9,17,M,,M,,*5B
06/10/2014	15:04:06.174	$GPGGA,150406,2605.3931,N,08002.8302,W,1,8,1.9,17,M,,M,,*5A
06/10/2014	15:04:07.230	$GPGGA,150407,2605.3914,N,08002.8316,W,1,9,1.6,17,M,,M,,*57
06/10/2014	15:04:08.256	$GPGGA,150408,2605.3899,N,08002.8331,W,1,9,1.6,17,M,,M,,*59
06/10/2014	15:04:09.282	$GPGGA,150409,2605.3884,N,08002.8345,W,1,9,1.6,17,M,,M,,*57
06/10/2014	15:04:10.276	$GPGGA,150410,2605.3866,N,08002.8360,W,1,9,1.6,17,M,,M,,*54
06/10/2014	15:04:11.290	$GPGGA,150411,2605.3850,N,08002.8374,W,1,9,1.6,17,M,,M,,*55
06/10/2014	15:04:12.346	$GPGGA,150412,2605.3833,N,08002.8390,W,1,9,1.6,17,M,,M,,*59
06/10/2014	15:04:13.382	$GPGGA,150413,2605.3816,N,08002.8404,W,1,9,1.6,17,M,,M,,*55
06/10/2014	15:04:14.355	$GPGGA,150414,2605.3799,N,08002.8421,W,1,9,1.6,17,M,,M,,*5D
06/10/2014	15:04:15.391	$GPGGA,150415,2605.3783,N,08002.8436,W,1,9,1.6,17,M,,M,,*51
06/10/2014	15:04:16.447	$GPGGA,150416,2605.3765,N,08002.8452,W,1,9,1.6,17,M,,M,,*58
06/10/2014	15:04:17.452	$GPGGA,150417,2605.3747,N,08002.8468,W,1,9,1.6,17,M,,M,,*50
06/10/2014	15:04:18.456	$GPGGA,150418,2605.3730,N,08002.8483,W,1,9,1.6,17,M,,M,,*5A
06/10/2014	15:04:19.471	$GPGGA,150419,2605.3714,N,08002.8499,W,1,9,1.6,17,M,,M,,*56
06/10/2014	15:04:20.527	$GPGGA,150420,2605.3696,N,08002.8515,W,1,9,1.6,17,M,,M,,*52
06/10/2014	15:04:21.522	$GPGGA,150421,2605.3679,N,08002.8530,W,1,9,1.6,17,M,,M,,*55
06/10/2014	15:04:22.542	$GPGGA,150422,2605.3662,N,08002.8546,W,1,9,1.6,17,M,,M,,*5D
06/10/2014	15:04:23.603	$GPGGA,150423,2605.3645,N,08002.8562,W,1,9,1.6,18,M,,M,,*50
06/10/2014	15:04:24.608	$GPGGA,150424,2605.3628,N,08002.8577,W,1,9,1.6,18,M,,M,,*58
06/10/2014	15:04:25.623	$GPGGA,150425,2605.3611,N,08002.8594,W,1,9,1.6,18,M,,M,,*5E
06/10/2014	15:04:26.744	$GPGGA,150426,2605.3595,N,08002.8609,W,1,9,1.6,18,M,,M,,*55
06/10/2014	15:04:27.656	$GPGGA,150427,2605.3577,N,08002.8625,W,1,9,1.6,18,M,,M,,*56
06/10/2014	15:04:28.822	$GPGGA,150428,2605.3559,N,08002.8641,W,1,9,1.6,18,M,,M,,*57
06/10/2014	15:04:29.819	$GPGGA,150429,2605.3541,N,08002.8656,W,1,9,1.6,18,M,,M,,*59
06/10/2014	15:04:30.728	$GPGGA,150430,2605.3524,N,08002.8672,W,1,9,1.6,18,M,,M,,*54
06/10/2014	15:04:31.765	$GPGGA,150431,2605.3506,N,08002.8688,W,1,9,1.6,18,M,,M,,*50
06/10/2014	15:04:32.892	$GPGGA,150432,2605.3487,N,08002.8703,W,1,9,1.6,18,M,,M,,*59
06/10/2014	15:04:33.907	$GPGGA,150433,2605.3472,N,08002.8717,W,1,8,1.9,18,M,,M,,*59
06/10/2014	15:04:34.821	$GPGGA,150434,2605.3452,N,08002.8732,W,1,8,1.6,18,M,,M,,*54
06/10/2014	15:04:35.988	$GPGGA,150435,2605.3433,N,08002.8748,W,1,8,1.9,18,M,,M,,*50
06/10/2014	15:04:36.994	$GPGGA,150436,2605.3415,N,08002.8764,W,1,8,1.9,18,M,,M,,*59
06/10/2014	15:04:38.008	$GPGGA,150437,2605.3396,N,08002.8779,W,1,8,1.9,17,M,,M,,*57
06/10/2014	15:04:38.920	$GPGGA,150438,2605.3378,N,08002.8794,W,1,8,1.9,17,M,,M,,*5B
06/10/2014	15:04:40.038	$GPGGA,150439,2605.3358,N,08002.8809,W,1,8,1.9,17,M,,M,,*53
06/10/2014	15:04:41.073	$GPGGA,150440,2605.3340,N,08002.8826,W,1,8,1.9,17,M,,M,,*59
06/10/2014	15:04:42.100	$GPGGA,150441,2605.3321,N,08002.8840,W,1,8,1.9,17,M,,M,,*5F
06/10/2014	15:04:41.574	$GPGGA,150442,2605.3302,N,08002.8853,W,1,8,1.9,17,M,,M,,*5F
06/10/2014	15:04:42.599	$GPGGA,150443,2605.3284,N,08002.8869,W,1,8,1.9,17,M,,M,,*58
06/10/2014	15:04:43.635	$GPGGA,150444,2605.3266,N,08002.8884,W,1,8,2.6,17,M,,M,,*5C
06/10/2014	15:04:44.662	$GPGGA,150445,2605.3248,N,08002.8898,W,1,8,1.9,16,M,,M,,*51
06/10/2014	15:04:45.665	$GPGGA,150446,2605.3230,N,08002.8912,W,1,8,1.9,16,M,,M,,*5E
06/10/2014	15:04:46.700	$GPGGA,150447,2605.3214,N,08002.8927,W,1,8,1.9,16,M,,M,,*5F
06/10/2014	15:04:47.725	$GPGGA,150448,2605.3197,N,08002.8939,W,1,8,1.6,16,M,,M,,*58
06/10/2014	15:04:48.750	$GPGGA,150449,2605.3181,N,08002.8952,W,1,9,1.6,16,M,,M,,*52
06/10/2014	15:04:49.765	$GPGGA,150450,2605.3165,N,08002.8965,W,1,9,1.6,16,M,,M,,*54
06/10/2014	15:04:50.770	$GPGGA,150451,2605.3147,N,08002.8978,W,1,9,1.6,16,M,,M,,*59
06/10/2014	15:04:51.816	$GPGGA,150452,2605.3129,N,08002.8992,W,1,9,1.6,16,M,,M,,*56
06/10/2014	15:04:52.862	$GPGGA,150453,2605.3111,N,08002.9006,W,1,9,1.6,16,M,,M,,*59
06/10/2014	15:04:53.846	$GPGGA,150454,2605.3093,N,08002.9019,W,1,9,1.6,16,M,,M,,*5B
06/10/2014	15:04:54.892	$GPGGA,150455,2605.3075,N,08002.9032,W,1,9,1.6,16,M,,M,,*5B
06/10/2014	15:04:55.907	$GPGGA,150456,2605.3056,N,08002.9047,W,1,9,1.6,16,M,,M,,*5B
06/10/2014	15:04:56.922	$GPGGA,150457,2605.3038,N,08002.9061,W,1,9,1.6,16,M,,M,,*56
06/10/2014	15:04:57.947	$GPGGA,150458,2605.3020,N,08002.9075,W,1,9,1.6,17,M,,M,,*54
06/10/2014	15:04:58.993	$GPGGA,150459,2605.3001,N,08002.9089,W,1,9,1.6,17,M,,M,,*55
06/10/2014	15:05:00.009	$GPGGA,150500,2605.2982,N,08002.9104,W,1,9,1.6,17,M,,M,,*5F
06/10/2014	15:05:01.033	$GPGGA,150501,2605.2963,N,08002.9118,W,1,8,1.9,17,M,,M,,*52
06/10/2014	15:05:02.028	$GPGGA,150502,2605.2944,N,08002.9131,W,1,8,1.6,17,M,,M,,*50
06/10/2014	15:05:03.059	$GPGGA,150503,2605.2925,N,08002.9147,W,1,8,1.9,17,M,,M,,*58
06/10/2014	15:05:04.099	$GPGGA,150504,2605.2908,N,08002.9159,W,1,8,1.9,17,M,,M,,*5F
06/10/2014	15:05:05.102	$GPGGA,150505,2605.2889,N,08002.9174,W,1,9,1.6,17,M,,M,,*57
06/10/2014	15:05:06.133	$GPGGA,150506,2605.2872,N,08002.9187,W,1,9,1.9,17,M,,M,,*53
06/10/2014	15:05:07.151	$GPGGA,150507,2605.2854,N,08002.9202,W,1,9,1.6,17,M,,M,,*57
06/10/2014	15:05:08.199	$GPGGA,150508,2605.2836,N,08002.9217,W,1,9,1.9,17,M,,M,,*57
06/10/2014	15:05:09.204	$GPGGA,150509,2605.2816,N,08002.9232,W,1,8,1.9,17,M,,M,,*52
06/10/2014	15:05:10.217	$GPGGA,150510,2605.2798,N,08002.9248,W,1,8,1.9,17,M,,M,,*5E
06/10/2014	15:05:11.244	$GPGGA,150511,2605.2779,N,08002.9261,W,1,8,1.9,17,M,,M,,*5B
06/10/2014	15:05:12.270	$GPGGA,150512,2605.2761,N,08002.9277,W,1,8,1.9,17,M,,M,,*56
06/10/2014	15:05:13.397	$GPGGA,150513,2605.2743,N,08002.9292,W,1,8,1.9,17,M,,M,,*5C
06/10/2014	15:05:14.411	$GPGGA,150514,2605.2725,N,08002.9306,W,1,8,1.9,17,M,,M,,*57
06/10/2014	15:05:15.345	$GPGGA,150515,2605.2706,N,08002.9321,W,1,8,1.9,17,M,,M,,*52
06/10/2014	15:05:16.361	$GPGGA,150516,2605.2689,N,08002.9336,W,1,8,1.9,17,M,,M,,*51
06/10/2014	15:05:17.390	$GPGGA,150517,2605.2671,N,08002.9351,W,1,8,1.9,17,M,,M,,*56
06/10/2014	15:05:18.493	$GPGGA,150518,2605.2655,N,08002.9365,W,1,8,1.9,16,M,,M,,*59
06/10/2014	15:05:19.529	$GPGGA,150519,2605.2639,N,08002.9380,W,1,9,1.6,16,M,,M,,*57
06/10/2014	15:05:20.575	$GPGGA,150520,2605.2624,N,08002.9394,W,1,9,1.6,16,M,,M,,*54
06/10/2014	15:05:21.477	$GPGGA,150521,2605.2607,N,08002.9409,W,1,9,1.6,16,M,,M,,*57
06/10/2014	15:05:22.604	$GPGGA,150522,2605.2592,N,08002.9423,W,1,9,1.6,16,M,,M,,*53
06/10/2014	15:05:23.608	$GPGGA,150523,2605.2576,N,08002.9438,W,1,9,1.6,17,M,,M,,*53
06/10/2014	15:05:24.658	$GPGGA,150524,2605.2558,N,08002.9454,W,1,9,1.6,17,M,,M,,*52
06/10/2014	15:05:25.695	$GPGGA,150525,2605.2542,N,08002.9467,W,1,9,1.6,17,M,,M,,*58
06/10/2014	15:05:26.684	$GPGGA,150526,2605.2525,N,08002.9483,W,1,9,1.6,17,M,,M,,*50
06/10/2014	15:05:27.710	$GPGGA,150527,2605.2509,N,08002.9498,W,1,9,1.6,17,M,,M,,*55
06/10/2014	15:05:28.764	$GPGGA,150528,2605.2493,N,08002.9513,W,1,9,1.6,17,M,,M,,*5A
06/10/2014	15:05:29.750	$GPGGA,150529,2605.2475,N,08002.9530,W,1,9,1.6,17,M,,M,,*52
06/10/2014	15:05:30.775	$GPGGA,150530,2605.2458,N,08002.9545,W,1,9,1.6,17,M,,M,,*57
06/10/2014	15:05:31.821	$GPGGA,150531,2605.2441,N,08002.9561,W,1,9,1.6,17,M,,M,,*58
06/10/2014	15:05:32.836	$GPGGA,150532,2605.2424,N,08002.9577,W,1,9,1.6,18,M,,M,,*50
06/10/2014	15:05:33.861	$GPGGA,150533,2605.2407,N,08002.9592,W,1,9,1.6,18,M,,M,,*5B
06/10/2014	15:05:34.866	$GPGGA,150534,2605.2389,N,08002.9608,W,1,9,1.6,18,M,,M,,*5D
06/10/2014	15:05:35.912	$GPGGA,150535,2605.2372,N,08002.9625,W,1,9,1.6,18,M,,M,,*57
06/10/2014	15:05:36.927	$GPGGA,150536,2605.2354,N,08002.9642,W,1,9,1.6,18,M,,M,,*51
06/10/2014	15:05:37.973	$GPGGA,150537,2605.2336,N,08002.9657,W,1,9,1.6,18,M,,M,,*50
06/10/2014	15:05:38.968	$GPGGA,150538,2605.2318,N,08002.9672,W,1,9,1.6,18,M,,M,,*54
06/10/2014	15:05:39.983	$GPGGA,150539,2605.2300,N,08002.9689,W,1,9,1.6,18,M,,M,,*58
06/10/2014	15:05:41.048	$GPGGA,150540,2605.2282,N,08002.9704,W,1,9,1.6,18,M,,M,,*59
06/10/2014	15:05:42.032	$GPGGA,150541,2605.2263,N,08002.9722,W,1,9,1.6,18,M,,M,,*53
06/10/2014	15:05:41.540	$GPGGA,150542,2605.2244,N,08002.9737,W,1,9,1.9,18,M,,M,,*5E
06/10/2014	15:05:42.586	$GPGGA,150543,2605.2226,N,08002.9752,W,1,8,1.9,18,M,,M,,*59
06/10/2014	15:05:43.591	$GPGGA,150544,2605.2208,N,08002.9769,W,1,8,1.6,18,M,,M,,*55
06/10/2014	15:05:44.648	$GPGGA,150545,2605.2189,N,08002.9785,W,1,8,1.9,18,M,,M,,*53
06/10/2014	15:05:45.621	$GPGGA,150546,2605.2170,N,08002.9801,W,1,8,1.9,18,M,,M,,*55
06/10/2014	15:05:46.677	$GPGGA,150547,2605.2151,N,08002.9816,W,1,8,2.0,18,M,,M,,*5B
06/10/2014	15:05:47.692	$GPGGA,150548,2605.2133,N,08002.9832,W,1,8,2.0,18,M,,M,,*56
06/10/2014	15:05:48.717	$GPGGA,150549,2605.2114,N,08002.9848,W,1,8,2.0,18,M,,M,,*5F
06/10/2014	15:05:49.722	$GPGGA,150550,2605.2095,N,08002.9863,W,1,8,2.0,18,M,,M,,*56
06/10/2014	15:05:50.748	$GPGGA,150551,2605.2077,N,08002.9878,W,1,8,2.0,18,M,,M,,*51
06/10/2014	15:05:51.783	$GPGGA,150552,2605.2059,N,08002.9893,W,1,8,1.6,17,M,,M,,*51
06/10/2014	15:05:52.782	$GPGGA,150553,2605.2040,N,08002.9908,W,1,8,2.0,17,M,,M,,*5E
06/10/2014	15:05:53.916	$GPGGA,150554,2605.2021,N,08002.9924,W,1,8,2.0,17,M,,M,,*50
06/10/2014	15:05:54.859	$GPGGA,150555,2605.2005,N,08002.9938,W,1,8,2.0,17,M,,M,,*5A
06/10/2014	15:05:55.884	$GPGGA,150556,2605.1987,N,08002.9953,W,1,8,1.6,17,M,,M,,*51
06/10/2014	15:05:56.888	$GPGGA,150557,2605.1967,N,08002.9967,W,1,8,2.0,17,M,,M,,*5C
06/10/2014	15:05:58.067	$GPGGA,150558,2605.1949,N,08002.9982,W,1,8,2.0,17,M,,M,,*54
06/10/2014	15:05:58.934	$GPGGA,150559,2605.1933,N,08002.9996,W,1,8,2.0,17,M,,M,,*5D
06/10/2014	15:06:00.149	$GPGGA,150600,2605.1915,N,08003.0011,W,1,8,1.6,17,M,,M,,*5D
06/10/2014	15:06:01.110	$GPGGA,150601,2605.1895,N,08003.0023,W,1,8,1.6,17,M,,M,,*54
06/10/2014	15:06:02.005	$GPGGA,150602,2605.1877,N,08003.0038,W,1,8,1.6,17,M,,M,,*51
06/10/2014	15:06:03.019	$GPGGA,150603,2605.1861,N,08003.0051,W,1,9,1.6,17,M,,M,,*59
06/10/2014	15:06:04.147	$GPGGA,150604,2605.1842,N,08003.0065,W,1,9,1.6,17,M,,M,,*58
06/10/2014	15:06:05.213	$GPGGA,150605,2605.1824,N,08003.0079,W,1,9,1.6,17,M,,M,,*54
06/10/2014	15:06:06.188	$GPGGA,150606,2605.1806,N,08003.0092,W,1,9,1.6,17,M,,M,,*52
06/10/2014	15:06:07.274	$GPGGA,150607,2605.1786,N,08003.0108,W,1,9,1.6,17,M,,M,,*56
06/10/2014	15:06:08.249	$GPGGA,150608,2605.1767,N,08003.0123,W,1,9,2.0,17,M,,M,,*5A
06/10/2014	15:06:09.294	$GPGGA,150609,2605.1747,N,08003.0137,W,1,8,2.0,17,M,,M,,*5D
06/10/2014	15:06:10.350	$GPGGA,150610,2605.1728,N,08003.0152,W,1,8,2.0,17,M,,M,,*5F
06/10/2014	15:06:11.355	$GPGGA,150611,2605.1709,N,08003.0166,W,1,8,2.0,16,M,,M,,*5B
06/10/2014	15:06:12.411	$GPGGA,150612,2605.1688,N,08003.0181,W,1,8,2.0,16,M,,M,,*59
06/10/2014	15:06:13.381	$GPGGA,150613,2605.1670,N,08003.0196,W,1,8,2.0,16,M,,M,,*59
06/10/2014	15:06:14.441	$GPGGA,150614,2605.1651,N,08003.0211,W,1,8,2.0,16,M,,M,,*51
06/10/2014	15:06:15.435	$GPGGA,150615,2605.1631,N,08003.0227,W,1,8,2.0,16,M,,M,,*53
06/10/2014	15:06:16.502	$GPGGA,150616,2605.1613,N,08003.0242,W,1,8,2.0,16,M,,M,,*53
06/10/2014	15:06:17.485	$GPGGA,150617,2605.1594,N,08003.0256,W,1,8,2.0,16,M,,M,,*5B
06/10/2014	15:06:18.907	$GPGGA,150618,2605.1575,N,08003.0271,W,1,8,2.0,16,M,,M,,*5E
06/10/2014	15:06:19.526	$GPGGA,150619,2605.1557,N,08003.0285,W,1,8,2.0,16,M,,M,,*54
06/10/2014	15:06:20.592	$GPGGA,150620,2605.1537,N,08003.0300,W,1,8,2.3,16,M,,M,,*57
06/10/2014	15:06:21.587	$GPGGA,150621,2605.1518,N,08003.0314,W,1,8,2.0,15,M,,M,,*5E
06/10/2014	15:06:22.622	$GPGGA,150622,2605.1499,N,08003.0329,W,1,8,2.0,15,M,,M,,*5B
06/10/2014	15:06:23.629	$GPGGA,150623,2605.1480,N,08003.0343,W,1,8,2.0,15,M,,M,,*5E
06/10/2014	15:06:24.673	$GPGGA,150624,2605.1461,N,08003.0358,W,1,8,2.0,15,M,,M,,*5C
06/10/2014	15:06:25.690	$GPGGA,150625,2605.1442,N,08003.0372,W,1,8,2.0,15,M,,M,,*54
06/10/2014	15:06:26.703	$GPGGA,150626,2605.1424,N,08003.0387,W,1,8,2.0,15,M,,M,,*5D
06/10/2014	15:06:27.759	$GPGGA,150627,2605.1405,N,08003.0402,W,1,8,2.0,15,M,,M,,*55
06/10/2014	15:06:28.764	$GPGGA,150628,2605.1388,N,08003.0415,W,1,8,2.0,15,M,,M,,*5E
06/10/2014	15:06:29.717	$GPGGA,150629,2605.1370,N,08003.0430,W,1,9,1.7,15,M,,M,,*5A
06/10/2014	15:06:30.742	$GPGGA,150630,2605.1352,N,08003.0446,W,1,9,2.0,15,M,,M,,*57
06/10/2014	15:06:31.829	$GPGGA,150631,2605.1334,N,08003.0462,W,1,9,1.7,14,M,,M,,*55
06/10/2014	15:06:32.854	$GPGGA,150632,2605.1317,N,08003.0475,W,1,9,1.7,14,M,,M,,*51
06/10/2014	15:06:33.858	$GPGGA,150633,2605.1299,N,08003.0491,W,1,9,1.7,14,M,,M,,*5D
06/10/2014	15:06:34.904	$GPGGA,150634,2605.1283,N,08003.0506,W,1,9,1.7,14,M,,M,,*5E
06/10/2014	15:06:35.899	$GPGGA,150635,2605.1264,N,08003.0522,W,1,9,1.7,14,M,,M,,*50
06/10/2014	15:06:36.956	$GPGGA,150636,2605.1246,N,08003.0538,W,1,9,1.7,14,M,,M,,*58
06/10/2014	15:06:38.021	$GPGGA,150637,2605.1229,N,08003.0553,W,1,9,1.7,14,M,,M,,*5D
06/10/2014	15:06:38.985	$GPGGA,150638,2605.1212,N,08003.0568,W,1,9,1.7,15,M,,M,,*53
06/10/2014	15:06:40.072	$GPGGA,150639,2605.1194,N,08003.0583,W,1,9,1.7,15,M,,M,,*5A
06/10/2014	15:06:41.107	$GPGGA,150640,2605.1178,N,08003.0600,W,1,9,1.7,15,M,,M,,*5E
06/10/2014	15:06:42.040	$GPGGA,150641,2605.1160,N,08003.0615,W,1,9,1.7,15,M,,M,,*52
06/10/2014	15:06:41.560	$GPGGA,150642,2605.1143,N,08003.0630,W,1,9,1.7,15,M,,M,,*57
06/10/2014	15:06:42.626	$GPGGA,150643,2605.1126,N,08003.0647,W,1,9,1.7,15,M,,M,,*55
06/10/2014	15:06:43.621	$GPGGA,150644,2605.1109,N,08003.0662,W,1,9,1.7,15,M,,M,,*58
06/10/2014	15:06:44.605	$GPGGA,150645,2605.1091,N,08003.0679,W,1,9,1.7,15,M,,M,,*53
06/10/2014	15:06:45.605	$GPGGA,150646,2605.1073,N,08003.0694,W,1,9,1.7,15,M,,M,,*5F
06/10/2014	15:06:46.758	$GPGGA,150647,2605.1055,N,08003.0709,W,1,9,1.7,15,M,,M,,*5F
06/10/2014	15:06:47.722	$GPGGA,150648,2605.1038,N,08003.0726,W,1,9,1.7,15,M,,M,,*56
06/10/2014	15:06:48.771	$GPGGA,150649,2605.1020,N,08003.0741,W,1,9,1.7,15,M,,M,,*5F
06/10/2014	15:06:49.797	$GPGGA,150650,2605.1003,N,08003.0756,W,1,9,1.7,16,M,,M,,*53
06/10/2014	15:06:50.838	$GPGGA,150651,2605.0985,N,08003.0771,W,1,9,1.7,16,M,,M,,*51
06/10/2014	15:06:51.857	$GPGGA,150652,2605.0968,N,08003.0787,W,1,9,1.7,16,M,,M,,*58
06/10/2014	15:06:52.875	$GPGGA,150653,2605.0949,N,08003.0803,W,1,9,2.0,16,M,,M,,*5D
06/10/2014	15:06:53.883	$GPGGA,150654,2605.0930,N,08003.0820,W,1,9,2.0,16,M,,M,,*55
06/10/2014	15:06:54.908	$GPGGA,150655,2605.0912,N,08003.0836,W,1,8,2.0,16,M,,M,,*52
06/10/2014	15:06:55.954	$GPGGA,150656,2605.0893,N,08003.0853,W,1,8,2.0,16,M,,M,,*5A
06/10/2014	15:06:56.959	$GPGGA,150657,2605.0875,N,08003.0868,W,1,8,2.0,16,M,,M,,*5B
06/10/2014	15:06:57.994	$GPGGA,150658,2605.0856,N,08003.0883,W,1,8,2.0,16,M,,M,,*50
06/10/2014	15:06:59.054	$GPGGA,150659,2605.0839,N,08003.0900,W,1,8,2.0,16,M,,M,,*52
06/10/2014	15:07:00.058	$GPGGA,150700,2605.0820,N,08003.0914,W,1,8,2.0,16,M,,M,,*52
06/10/2014	15:07:01.073	$GPGGA,150701,2605.0802,N,08003.0928,W,1,8,2.0,16,M,,M,,*5C
06/10/2014	15:07:02.085	$GPGGA,150702,2605.0784,N,08003.0944,W,1,8,2.0,16,M,,M,,*54
06/10/2014	15:07:03.111	$GPGGA,150703,2605.0766,N,08003.0958,W,1,8,2.0,16,M,,M,,*54
06/10/2014	15:07:04.158	$GPGGA,150704,2605.0748,N,08003.0973,W,1,8,2.0,15,M,,M,,*55
06/10/2014	15:07:05.173	$GPGGA,150705,2605.0728,N,08003.0988,W,1,8,2.0,15,M,,M,,*56
06/10/2014	15:07:06.166	$GPGGA,150706,2605.0712,N,08003.1002,W,1,8,1.7,15,M,,M,,*52
06/10/2014	15:07:07.200	$GPGGA,150707,2605.0694,N,08003.1015,W,1,9,1.7,15,M,,M,,*5B
06/10/2014	15:07:08.216	$GPGGA,150708,2605.0694,N,08003.1015,W,1,9,1.7,15,M,,M,,*54
06/10/2014	15:07:09.231	$GPGGA,150709,2605.0658,N,08003.1044,W,1,9,1.7,15,M,,M,,*51
06/10/2014	15:07:10.276	$GPGGA,150710,2605.0641,N,08003.1059,W,1,9,1.7,15,M,,M,,*5D
06/10/2014	15:07:11.291	$GPGGA,150711,2605.0623,N,08003.1073,W,1,9,1.7,15,M,,M,,*50
06/10/2014	15:07:12.328	$GPGGA,150712,2605.0607,N,08003.1087,W,1,9,1.7,15,M,,M,,*5E
06/10/2014	15:07:13.352	$GPGGA,150713,2605.0589,N,08003.1100,W,1,9,1.7,15,M,,M,,*54
06/10/2014	15:07:14.357	$GPGGA,150714,2605.0569,N,08003.1116,W,1,9,2.0,15,M,,M,,*5E
06/10/2014	15:07:15.393	$GPGGA,150715,2605.0553,N,08003.1129,W,1,8,1.7,15,M,,M,,*5F
06/10/2014	15:07:16.452	$GPGGA,150716,2605.0535,N,08003.1145,W,1,8,2.0,16,M,,M,,*51
06/10/2014	15:07:17.412	$GPGGA,150717,2605.0515,N,08003.1160,W,1,8,2.0,16,M,,M,,*55
06/10/2014	15:07:18.469	$GPGGA,150718,2605.0515,N,08003.1160,W,1,8,2.0,16,M,,M,,*5A
06/10/2014	15:07:19.484	$GPGGA,150719,2605.0478,N,08003.1189,W,1,9,2.0,16,M,,M,,*57
06/10/2014	15:07:20.611	$GPGGA,150720,2605.0460,N,08003.1203,W,1,9,2.0,16,M,,M,,*55
06/10/2014	15:07:21.617	$GPGGA,150721,2605.0441,N,08003.1218,W,1,9,1.7,16,M,,M,,*59
06/10/2014	15:07:22.529	$GPGGA,150722,2605.0441,N,08003.1218,W,1,9,2.0,16,M,,M,,*5E
06/10/2014	15:07:23.554	$GPGGA,150723,2605.0405,N,08003.1250,W,1,8,2.0,16,M,,M,,*52
06/10/2014	15:07:24.620	$GPGGA,150724,2605.0387,N,08003.1264,W,1,8,2.0,16,M,,M,,*5F
06/10/2014	15:07:25.614	$GPGGA,150725,2605.0368,N,08003.1279,W,1,8,2.0,16,M,,M,,*53
06/10/2014	15:07:26.619	$GPGGA,150726,2605.0349,N,08003.1295,W,1,8,2.0,15,M,,M,,*52
06/10/2014	15:07:27.664	$GPGGA,150727,2605.0331,N,08003.1311,W,1,8,2.0,15,M,,M,,*51
06/10/2014	15:07:28.720	$GPGGA,150728,2605.0313,N,08003.1326,W,1,8,2.0,15,M,,M,,*5A
06/10/2014	15:07:29.818	$GPGGA,150729,2605.0294,N,08003.1341,W,1,8,2.0,15,M,,M,,*54
06/10/2014	15:07:30.730	$GPGGA,150730,2605.0276,N,08003.1358,W,1,8,2.0,15,M,,M,,*58
06/10/2014	15:07:31.837	$GPGGA,150731,2605.0258,N,08003.1373,W,1,8,2.0,15,M,,M,,*5C
06/10/2014	15:07:32.781	$GPGGA,150732,2605.0240,N,08003.1388,W,1,8,2.0,15,M,,M,,*52
06/10/2014	15:07:33.785	$GPGGA,150733,2605.0224,N,08003.1402,W,1,8,2.0,15,M,,M,,*54
06/10/2014	15:07:34.905	$GPGGA,150734,2605.0208,N,08003.1417,W,1,8,1.7,15,M,,M,,*5D
06/10/2014	15:07:35.831	$GPGGA,150735,2605.0192,N,08003.1431,W,1,9,1.7,15,M,,M,,*59
06/10/2014	15:07:36.968	$GPGGA,150736,2605.0177,N,08003.1446,W,1,9,1.7,15,M,,M,,*51
06/10/2014	15:07:37.979	$GPGGA,150737,2605.0160,N,08003.1463,W,1,9,1.7,15,M,,M,,*51
06/10/2014	15:07:39.007	$GPGGA,150738,2605.0143,N,08003.1478,W,1,9,1.7,15,M,,M,,*55
06/10/2014	15:07:40.041	$GPGGA,150739,2605.0126,N,08003.1492,W,1,9,1.7,15,M,,M,,*53
06/10/2014	15:07:41.062	$GPGGA,150740,2605.0110,N,08003.1508,W,1,9,1.7,15,M,,M,,*5A
06/10/2014	15:07:42.076	$GPGGA,150741,2605.0094,N,08003.1525,W,1,9,1.7,15,M,,M,,*59
06/10/2014	15:07:41.587	$GPGGA,150742,2605.0076,N,08003.1540,W,1,9,1.7,15,M,,M,,*55
06/10/2014	15:07:42.613	$GPGGA,150743,2605.0059,N,08003.1555,W,1,9,1.7,15,M,,M,,*5D
06/10/2014	15:07:43.638	$GPGGA,150744,2605.0042,N,08003.1572,W,1,9,1.7,16,M,,M,,*56
06/10/2014	15:07:44.663	$GPGGA,150745,2605.0025,N,08003.1587,W,1,9,1.7,16,M,,M,,*5C
06/10/2014	15:07:45.668	$GPGGA,150746,2605.0008,N,08003.1604,W,1,9,1.7,16,M,,M,,*58
06/10/2014	15:07:46.704	$GPGGA,150747,2604.9990,N,08003.1618,W,1,9,1.7,16,M,,M,,*54
06/10/2014	15:07:47.730	$GPGGA,150748,2604.9973,N,08003.1634,W,1,9,1.7,16,M,,M,,*58
06/10/2014	15:07:48.724	$GPGGA,150749,2604.9955,N,08003.1651,W,1,9,1.7,16,M,,M,,*5E
06/10/2014	15:07:49.759	$GPGGA,150750,2604.9937,N,08003.1665,W,1,9,1.7,16,M,,M,,*55
06/10/2014	15:07:50.774	$GPGGA,150751,2604.9919,N,08003.1681,W,1,9,1.7,17,M,,M,,*53
06/10/2014	15:07:51.840	$GPGGA,150752,2604.9900,N,08003.1698,W,1,9,1.7,17,M,,M,,*50
06/10/2014	15:07:52.855	$GPGGA,150753,2604.9882,N,08003.1713,W,1,8,2.0,17,M,,M,,*5D
06/10/2014	15:07:53.850	$GPGGA,150754,2604.9863,N,08003.1730,W,1,8,1.7,17,M,,M,,*50
06/10/2014	15:07:54.886	$GPGGA,150755,2604.9845,N,08003.1748,W,1,8,2.0,17,M,,M,,*5E
06/10/2014	15:07:55.901	$GPGGA,150756,2604.9827,N,08003.1763,W,1,8,2.0,17,M,,M,,*50
06/10/2014	15:07:56.946	$GPGGA,150757,2604.9809,N,08003.1779,W,1,8,2.0,17,M,,M,,*56
06/10/2014	15:07:57.951	$GPGGA,150758,2604.9790,N,08003.1796,W,1,8,2.0,17,M,,M,,*57
06/10/2014	15:07:58.997	$GPGGA,150759,2604.9771,N,08003.1813,W,1,8,2.0,17,M,,M,,*5B
06/10/2014	15:08:00.011	$GPGGA,150800,2604.9753,N,08003.1828,W,1,8,2.0,17,M,,M,,*50
06/10/2014	15:08:01.036	$GPGGA,150801,2604.9734,N,08003.1844,W,1,8,2.0,16,M,,M,,*5B
06/10/2014	15:08:02.041	$GPGGA,150802,2604.9715,N,08003.1861,W,1,8,2.0,16,M,,M,,*5C
06/10/2014	15:08:03.066	$GPGGA,150803,2604.9697,N,08003.1875,W,1,8,2.0,16,M,,M,,*53
06/10/2014	15:08:04.092	$GPGGA,150804,2604.9679,N,08003.1893,W,1,8,2.0,16,M,,M,,*5C
06/10/2014	15:08:05.117	$GPGGA,150805,2604.9660,N,08003.1908,W,1,8,2.0,16,M,,M,,*56
06/10/2014	15:08:06.129	$GPGGA,150806,2604.9643,N,08003.1922,W,1,8,2.0,16,M,,M,,*5C
06/10/2014	15:08:07.260	$GPGGA,150807,2604.9625,N,08003.1938,W,1,9,1.7,15,M,,M,,*50
06/10/2014	15:08:08.171	$GPGGA,150808,2604.9606,N,08003.1954,W,1,9,2.0,15,M,,M,,*50
06/10/2014	15:08:09.182	$GPGGA,150809,2604.9588,N,08003.1969,W,1,9,1.7,15,M,,M,,*5E
06/10/2014	15:08:10.232	$GPGGA,150810,2604.9571,N,08003.1984,W,1,9,1.7,15,M,,M,,*53
06/10/2014	15:08:11.248	$GPGGA,150811,2604.9552,N,08003.1999,W,1,9,1.7,15,M,,M,,*5F
06/10/2014	15:08:12.397	$GPGGA,150812,2604.9534,N,08003.2014,W,1,9,2.0,15,M,,M,,*57
06/10/2014	15:08:13.412	$GPGGA,150813,2604.9516,N,08003.2030,W,1,8,2.0,14,M,,M,,*50
06/10/2014	15:08:14.417	$GPGGA,150814,2604.9498,N,08003.2046,W,1,8,2.0,14,M,,M,,*51
06/10/2014	15:08:15.453	$GPGGA,150815,2604.9480,N,08003.2060,W,1,8,2.0,14,M,,M,,*5D
06/10/2014	15:08:16.375	$GPGGA,150816,2604.9462,N,08003.2075,W,1,8,2.0,14,M,,M,,*56
06/10/2014	15:08:17.368	$GPGGA,150817,2604.9442,N,08003.2090,W,1,8,2.0,14,M,,M,,*5E
06/10/2014	15:08:18.414	$GPGGA,150818,2604.9424,N,08003.2106,W,1,8,2.0,14,M,,M,,*5F
06/10/2014	15:08:19.532	$GPGGA,150819,2604.9406,N,08003.2121,W,1,8,2.0,13,M,,M,,*5C
06/10/2014	15:08:20.465	$GPGGA,150820,2604.9390,N,08003.2133,W,1,8,2.0,13,M,,M,,*5D
06/10/2014	15:08:21.586	$GPGGA,150821,2604.9372,N,08003.2149,W,1,9,1.7,13,M,,M,,*58
06/10/2014	15:08:22.508	$GPGGA,150822,2604.9354,N,08003.2164,W,1,9,2.0,13,M,,M,,*54
06/10/2014	15:08:23.623	$GPGGA,150823,2604.9337,N,08003.2178,W,1,8,2.0,13,M,,M,,*5C
06/10/2014	15:08:24.560	$GPGGA,150824,2604.9319,N,08003.2193,W,1,8,1.8,13,M,,M,,*59
06/10/2014	15:08:25.694	$GPGGA,150825,2604.9300,N,08003.2209,W,1,7,2.1,13,M,,M,,*55
06/10/2014	15:08:26.710	$GPGGA,150826,2604.9282,N,08003.2225,W,1,7,2.0,13,M,,M,,*52
06/10/2014	15:08:27.734	$GPGGA,150827,2604.9264,N,08003.2240,W,1,7,2.1,13,M,,M,,*59
06/10/2014	15:08:28.749	$GPGGA,150828,2604.9245,N,08003.2255,W,1,7,2.0,12,M,,M,,*51
06/10/2014	15:08:29.785	$GPGGA,150829,2604.9227,N,08003.2272,W,1,8,2.0,12,M,,M,,*5E
06/10/2014	15:08:30.769	$GPGGA,150830,2604.9210,N,08003.2287,W,1,8,2.0,12,M,,M,,*58
06/10/2014	15:08:31.827	$GPGGA,150831,2604.9191,N,08003.2302,W,1,8,2.0,12,M,,M,,*5F
06/10/2014	15:08:32.840	$GPGGA,150832,2604.9173,N,08003.2319,W,1,8,2.0,12,M,,M,,*5A
06/10/2014	15:08:33.856	$GPGGA,150833,2604.9155,N,08003.2335,W,1,8,2.0,12,M,,M,,*51
06/10/2014	15:08:34.870	$GPGGA,150834,2604.9137,N,08003.2350,W,1,8,2.0,12,M,,M,,*51
06/10/2014	15:08:35.925	$GPGGA,150835,2604.9122,N,08003.2364,W,1,9,1.7,12,M,,M,,*56
06/10/2014	15:08:36.920	$GPGGA,150836,2604.9104,N,08003.2379,W,1,9,1.7,12,M,,M,,*5D
06/10/2014	15:08:37.966	$GPGGA,150837,2604.9088,N,08003.2395,W,1,9,1.7,12,M,,M,,*5B
06/10/2014	15:08:38.970	$GPGGA,150838,2604.9072,N,08003.2410,W,1,9,1.7,12,M,,M,,*5B
06/10/2014	15:08:39.975	$GPGGA,150839,2604.9054,N,08003.2425,W,1,9,1.7,12,M,,M,,*58
06/10/2014	15:08:41.031	$GPGGA,150840,2604.9037,N,08003.2440,W,1,9,1.7,12,M,,M,,*50
06/10/2014	15:08:42.046	$GPGGA,150841,2604.9021,N,08003.2457,W,1,9,1.7,13,M,,M,,*51
06/10/2014	15:08:41.525	$GPGGA,150842,2604.9004,N,08003.2473,W,1,9,1.7,13,M,,M,,*53
06/10/2014	15:08:42.546	$GPGGA,150843,2604.8987,N,08003.2489,W,1,9,1.7,13,M,,M,,*54
06/10/2014	15:08:43.577	$GPGGA,150844,2604.8971,N,08003.2505,W,1,9,1.7,13,M,,M,,*5F
06/10/2014	15:08:44.557	$GPGGA,150845,2604.8954,N,08003.2522,W,1,9,1.7,13,M,,M,,*5C
06/10/2014	15:08:45.578	$GPGGA,150846,2604.8938,N,08003.2537,W,1,9,1.7,14,M,,M,,*56
06/10/2014	15:08:46.599	$GPGGA,150847,2604.8921,N,08003.2554,W,1,9,1.7,14,M,,M,,*5A
06/10/2014	15:08:47.599	$GPGGA,150848,2604.8905,N,08003.2569,W,1,9,1.7,14,M,,M,,*5D
06/10/2014	15:08:48.600	$GPGGA,150849,2604.8888,N,08003.2585,W,1,8,1.8,14,M,,M,,*54
06/10/2014	15:08:49.610	$GPGGA,150850,2604.8871,N,08003.2601,W,1,8,1.7,14,M,,M,,*5A
06/10/2014	15:08:50.732	$GPGGA,150851,2604.8855,N,08003.2617,W,1,9,1.7,15,M,,M,,*5A
06/10/2014	15:08:51.631	$GPGGA,150852,2604.8837,N,08003.2634,W,1,9,1.7,15,M,,M,,*5C
06/10/2014	15:08:52.652	$GPGGA,150853,2604.8820,N,08003.2652,W,1,9,1.7,15,M,,M,,*5B
06/10/2014	15:08:53.632	$GPGGA,150854,2604.8802,N,08003.2668,W,1,9,1.7,15,M,,M,,*55
06/10/2014	15:08:54.653	$GPGGA,150855,2604.8784,N,08003.2684,W,1,9,1.7,15,M,,M,,*57
06/10/2014	15:08:55.684	$GPGGA,150856,2604.8766,N,08003.2702,W,1,9,1.7,15,M,,M,,*57
06/10/2014	15:08:56.785	$GPGGA,150857,2604.8750,N,08003.2717,W,1,9,1.7,16,M,,M,,*54
06/10/2014	15:08:57.776	$GPGGA,150858,2604.8732,N,08003.2733,W,1,9,1.7,16,M,,M,,*59
06/10/2014	15:08:58.807	$GPGGA,150859,2604.8714,N,08003.2749,W,1,9,1.7,16,M,,M,,*51
06/10/2014	15:08:59.696	$GPGGA,150900,2604.8696,N,08003.2765,W,1,9,1.7,16,M,,M,,*59
06/10/2014	15:09:00.717	$GPGGA,150901,2604.8678,N,08003.2782,W,1,9,1.7,16,M,,M,,*51
06/10/2014	15:09:01.806	$GPGGA,150902,2604.8657,N,08003.2797,W,1,9,1.7,17,M,,M,,*5A
06/10/2014	15:09:02.728	$GPGGA,150903,2604.8638,N,08003.2812,W,1,8,2.0,17,M,,M,,*55
06/10/2014	15:09:03.830	$GPGGA,150904,2604.8620,N,08003.2829,W,1,8,2.3,17,M,,M,,*50
06/10/2014	15:09:04.861	$GPGGA,150905,2604.8602,N,08003.2848,W,1,8,2.0,17,M,,M,,*55
06/10/2014	15:09:05.851	$GPGGA,150906,2604.8584,N,08003.2865,W,1,8,2.0,17,M,,M,,*54
06/10/2014	15:09:06.842	$GPGGA,150907,2604.8564,N,08003.2880,W,1,8,2.0,17,M,,M,,*50
06/10/2014	15:09:07.873	$GPGGA,150908,2604.8546,N,08003.2897,W,1,8,2.0,17,M,,M,,*59
06/10/2014	15:09:08.886	$GPGGA,150909,2604.8528,N,08003.2913,W,1,8,2.0,17,M,,M,,*5D
06/10/2014	15:09:09.883	$GPGGA,150910,2604.8510,N,08003.2928,W,1,8,2.0,17,M,,M,,*56
06/10/2014	15:09:10.875	$GPGGA,150911,2604.8492,N,08003.2944,W,1,9,1.7,17,M,,M,,*53
06/10/2014	15:09:11.909	$GPGGA,150912,2604.8473,N,08003.2959,W,1,9,2.0,16,M,,M,,*56
06/10/2014	15:09:12.915	$GPGGA,150913,2604.8455,N,08003.2973,W,1,9,1.7,16,M,,M,,*5F
06/10/2014	15:09:13.917	$GPGGA,150914,2604.8436,N,08003.2988,W,1,9,2.0,16,M,,M,,*5D
06/10/2014	15:09:14.926	$GPGGA,150915,2604.8418,N,08003.3002,W,1,8,2.0,16,M,,M,,*5B
06/10/2014	15:09:15.937	$GPGGA,150916,2604.8400,N,08003.3016,W,1,8,1.7,16,M,,M,,*50
06/10/2014	15:09:16.948	$GPGGA,150917,2604.8382,N,08003.3031,W,1,8,2.0,16,M,,M,,*5D
06/10/2014	15:09:17.938	$GPGGA,150918,2604.8362,N,08003.3046,W,1,8,2.0,16,M,,M,,*5C
06/10/2014	15:09:18.959	$GPGGA,150919,2604.8343,N,08003.3060,W,1,8,2.0,16,M,,M,,*5A
06/10/2014	15:09:19.990	$GPGGA,150920,2604.8325,N,08003.3074,W,1,8,2.0,16,M,,M,,*55
06/10/2014	15:09:20.991	$GPGGA,150921,2604.8306,N,08003.3089,W,1,8,2.0,16,M,,M,,*57
06/10/2014	15:09:21.971	$GPGGA,150922,2604.8288,N,08003.3103,W,1,8,2.0,16,M,,M,,*50
06/10/2014	15:09:22.992	$GPGGA,150923,2604.8270,N,08003.3118,W,1,9,1.7,15,M,,M,,*5A
06/10/2014	15:09:24.003	$GPGGA,150924,2604.8255,N,08003.3130,W,1,9,2.0,15,M,,M,,*54
06/10/2014	15:09:25.003	$GPGGA,150925,2604.8235,N,08003.3145,W,1,9,1.7,15,M,,M,,*55
06/10/2014	15:09:26.014	$GPGGA,150926,2604.8216,N,08003.3159,W,1,9,2.0,15,M,,M,,*5E
06/10/2014	15:09:27.055	$GPGGA,150927,2604.8197,N,08003.3175,W,1,8,2.0,15,M,,M,,*5A
06/10/2014	15:09:28.044	$GPGGA,150928,2604.8179,N,08003.3190,W,1,8,2.0,15,M,,M,,*5E
06/10/2014	15:09:29.025	$GPGGA,150929,2604.8163,N,08003.3202,W,1,9,1.7,15,M,,M,,*59
06/10/2014	15:09:30.046	$GPGGA,150930,2604.8147,N,08003.3215,W,1,9,1.7,16,M,,M,,*52
06/10/2014	15:09:31.178	$GPGGA,150931,2604.8130,N,08003.3230,W,1,9,1.7,16,M,,M,,*54
06/10/2014	15:09:32.067	$GPGGA,150932,2604.8112,N,08003.3242,W,1,9,1.7,16,M,,M,,*52
06/10/2014	15:09:33.098	$GPGGA,150933,2604.8093,N,08003.3258,W,1,9,1.7,16,M,,M,,*50
06/10/2014	15:09:34.072	$GPGGA,150934,2604.8074,N,08003.3273,W,1,9,2.0,16,M,,M,,*53
06/10/2014	15:09:35.119	$GPGGA,150935,2604.8056,N,08003.3288,W,1,8,2.0,16,M,,M,,*57
06/10/2014	15:09:36.110	$GPGGA,150936,2604.8037,N,08003.3302,W,1,8,2.0,16,M,,M,,*50
06/10/2014	15:09:37.123	$GPGGA,150937,2604.8019,N,08003.3318,W,1,8,2.0,16,M,,M,,*56
06/10/2014	15:09:38.108	$GPGGA,150938,2604.8000,N,08003.3334,W,1,8,2.0,16,M,,M,,*5F
06/10/2014	15:09:39.127	$GPGGA,150939,2604.7981,N,08003.3349,W,1,7,2.3,16,M,,M,,*57
06/10/2014	15:09:40.142	$GPGGA,150940,2604.7963,N,08003.3364,W,1,7,2.0,16,M,,M,,*59
06/10/2014	15:09:41.153	$GPGGA,150941,2604.7945,N,08003.3379,W,1,8,2.0,16,M,,M,,*5F
06/10/2014	15:09:41.585	$GPGGA,150942,2604.7930,N,08003.3394,W,1,8,2.0,16,M,,M,,*5D
06/10/2014	15:09:42.606	$GPGGA,150943,2604.7913,N,08003.3410,W,1,9,1.7,16,M,,M,,*53
06/10/2014	15:09:43.526	$GPGGA,150944,2604.7897,N,08003.3425,W,1,9,1.7,16,M,,M,,*5F
06/10/2014	15:09:44.618	$GPGGA,150945,2604.7881,N,08003.3440,W,1,9,1.7,16,M,,M,,*5A
06/10/2014	15:09:45.637	$GPGGA,150946,2604.7865,N,08003.3457,W,1,9,1.7,17,M,,M,,*54
06/10/2014	15:09:46.539	$GPGGA,150947,2604.7848,N,08003.3472,W,1,9,1.7,17,M,,M,,*5D
06/10/2014	15:09:47.679	$GPGGA,150948,2604.7831,N,08003.3487,W,1,9,1.7,17,M,,M,,*56
06/10/2014	15:09:48.652	$GPGGA,150949,2604.7815,N,08003.3504,W,1,9,1.7,17,M,,M,,*5B
06/10/2014	15:09:49.673	$GPGGA,150950,2604.7798,N,08003.3519,W,1,9,1.7,17,M,,M,,*55
06/10/2014	15:09:50.701	$GPGGA,150951,2604.7782,N,08003.3534,W,1,9,1.7,17,M,,M,,*50
06/10/2014	15:09:51.693	$GPGGA,150952,2604.7765,N,08003.3551,W,1,9,1.7,17,M,,M,,*59
06/10/2014	15:09:52.709	$GPGGA,150953,2604.7748,N,08003.3566,W,1,9,1.7,17,M,,M,,*53
06/10/2014	15:09:53.692	$GPGGA,150954,2604.7732,N,08003.3581,W,1,9,1.7,17,M,,M,,*50
06/10/2014	15:09:54.703	$GPGGA,150955,2604.7715,N,08003.3598,W,1,9,1.7,17,M,,M,,*5C
06/10/2014	15:09:55.738	$GPGGA,150956,2604.7699,N,08003.3613,W,1,9,1.7,17,M,,M,,*5A
06/10/2014	15:09:56.755	$GPGGA,150957,2604.7683,N,08003.3629,W,1,9,1.7,17,M,,M,,*59
06/10/2014	15:09:57.735	$GPGGA,150958,2604.7666,N,08003.3645,W,1,9,1.7,18,M,,M,,*58
06/10/2014	15:09:58.736	$GPGGA,150959,2604.7650,N,08003.3661,W,1,9,1.7,18,M,,M,,*5A
06/10/2014	15:09:59.769	$GPGGA,151000,2604.7634,N,08003.3678,W,1,9,1.7,18,M,,M,,*54
06/10/2014	15:10:00.783	$GPGGA,151001,2604.7617,N,08003.3693,W,1,9,1.7,18,M,,M,,*51
06/10/2014	15:10:01.757	$GPGGA,151002,2604.7600,N,08003.3710,W,1,9,1.7,18,M,,M,,*5E
06/10/2014	15:10:02.788	$GPGGA,151003,2604.7584,N,08003.3725,W,1,9,1.7,18,M,,M,,*56
06/10/2014	15:10:03.812	$GPGGA,151004,2604.7567,N,08003.3741,W,1,9,1.7,18,M,,M,,*5E
06/10/2014	15:10:04.809	$GPGGA,151005,2604.7551,N,08003.3757,W,1,9,1.7,18,M,,M,,*5D
06/10/2014	15:10:05.800	$GPGGA,151006,2604.7534,N,08003.3772,W,1,9,1.7,18,M,,M,,*5A
06/10/2014	15:10:06.854	$GPGGA,151007,2604.7518,N,08003.3788,W,1,9,1.7,18,M,,M,,*50
06/10/2014	15:10:07.831	$GPGGA,151008,2604.7500,N,08003.3804,W,1,9,1.7,18,M,,M,,*5D
06/10/2014	15:10:08.852	$GPGGA,151009,2604.7483,N,08003.3820,W,1,9,1.7,18,M,,M,,*50
06/10/2014	15:10:09.832	$GPGGA,151010,2604.7466,N,08003.3835,W,1,9,1.7,18,M,,M,,*57
06/10/2014	15:10:10.833	$GPGGA,151011,2604.7449,N,08003.3851,W,1,9,1.7,18,M,,M,,*59
06/10/2014	15:10:11.864	$GPGGA,151012,2604.7432,N,08003.3867,W,1,9,1.7,19,M,,M,,*52
06/10/2014	15:10:12.875	$GPGGA,151013,2604.7415,N,08003.3883,W,1,9,1.7,19,M,,M,,*5C
06/10/2014	15:10:13.986	$GPGGA,151014,2604.7399,N,08003.3898,W,1,9,1.7,19,M,,M,,*52
06/10/2014	15:10:14.896	$GPGGA,151015,2604.7381,N,08003.3913,W,1,9,1.7,19,M,,M,,*58
06/10/2014	15:10:15.886	$GPGGA,151016,2604.7364,N,08003.3928,W,1,9,1.7,19,M,,M,,*58
06/10/2014	15:10:16.887	$GPGGA,151017,2604.7346,N,08003.3945,W,1,9,1.7,19,M,,M,,*52
06/10/2014	15:10:17.908	$GPGGA,151018,2604.7327,N,08003.3960,W,1,9,2.0,19,M,,M,,*59
06/10/2014	15:10:18.918	$GPGGA,151019,2604.7309,N,08003.3977,W,1,8,2.0,19,M,,M,,*53
06/10/2014	15:10:20.039	$GPGGA,151020,2604.7291,N,08003.3992,W,1,8,2.0,19,M,,M,,*52
06/10/2014	15:10:21.060	$GPGGA,151021,2604.7274,N,08003.4007,W,1,8,1.7,19,M,,M,,*5E
06/10/2014	15:10:21.950	$GPGGA,151022,2604.7258,N,08003.4021,W,1,8,1.7,19,M,,M,,*57
06/10/2014	15:10:22.981	$GPGGA,151023,2604.7238,N,08003.4036,W,1,9,1.7,18,M,,M,,*56
06/10/2014	15:10:23.971	$GPGGA,151024,2604.7222,N,08003.4050,W,1,9,2.0,18,M,,M,,*5E
06/10/2014	15:10:24.962	$GPGGA,151025,2604.7204,N,08003.4065,W,1,9,1.7,18,M,,M,,*59
06/10/2014	15:10:26.063	$GPGGA,151026,2604.7190,N,08003.4076,W,1,9,1.7,18,M,,M,,*56
06/10/2014	15:10:27.104	$GPGGA,151027,2604.7173,N,08003.4090,W,1,9,1.7,18,M,,M,,*52
06/10/2014	15:10:28.125	$GPGGA,151028,2604.7157,N,08003.4104,W,1,9,1.7,18,M,,M,,*57
06/10/2014	15:10:29.101	$GPGGA,151029,2604.7139,N,08003.4120,W,1,9,2.0,18,M,,M,,*5C
06/10/2014	15:10:29.995	$GPGGA,151030,2604.7118,N,08003.4136,W,1,9,2.0,18,M,,M,,*50
06/10/2014	15:10:31.026	$GPGGA,151031,2604.7099,N,08003.4151,W,1,8,2.0,18,M,,M,,*59
06/10/2014	15:10:32.158	$GPGGA,151032,2604.7081,N,08003.4166,W,1,8,2.0,18,M,,M,,*57
06/10/2014	15:10:33.143	$GPGGA,151033,2604.7064,N,08003.4180,W,1,8,1.7,18,M,,M,,*51
06/10/2014	15:10:34.070	$GPGGA,151034,2604.7046,N,08003.4195,W,1,8,1.7,18,M,,M,,*52
06/10/2014	15:10:35.058	$GPGGA,151035,2604.7029,N,08003.4209,W,1,8,2.0,18,M,,M,,*58
06/10/2014	15:10:36.069	$GPGGA,151036,2604.7011,N,08003.4223,W,1,8,1.7,18,M,,M,,*5C
06/10/2014	15:10:37.174	$GPGGA,151037,2604.6995,N,08003.4236,W,1,8,1.7,18,M,,M,,*5D
06/10/2014	15:10:38.201	$GPGGA,151038,2604.6977,N,08003.4250,W,1,8,1.7,18,M,,M,,*5E
06/10/2014	15:10:39.196	$GPGGA,151039,2604.6960,N,08003.4264,W,1,9,1.7,18,M,,M,,*5F
06/10/2014	15:10:40.203	$GPGGA,151040,2604.6944,N,08003.4278,W,1,9,1.7,18,M,,M,,*5A
06/10/2014	15:10:41.223	$GPGGA,151041,2604.6926,N,08003.4293,W,1,9,1.7,18,M,,M,,*5A
06/10/2014	15:10:41.553	$GPGGA,151042,2604.6908,N,08003.4310,W,1,9,2.0,18,M,,M,,*5B
06/10/2014	15:10:42.594	$GPGGA,151043,2604.6889,N,08003.4324,W,1,8,2.0,18,M,,M,,*54
06/10/2014	15:10:43.595	$GPGGA,151044,2604.6871,N,08003.4339,W,1,8,2.0,18,M,,M,,*58
06/10/2014	15:10:44.614	$GPGGA,151045,2604.6853,N,08003.4355,W,1,8,2.0,18,M,,M,,*53
06/10/2014	15:10:45.596	$GPGGA,151046,2604.6835,N,08003.4371,W,1,8,2.0,18,M,,M,,*56
06/10/2014	15:10:46.627	$GPGGA,151047,2604.6817,N,08003.4386,W,1,8,2.0,17,M,,M,,*50
06/10/2014	15:10:47.627	$GPGGA,151048,2604.6799,N,08003.4401,W,1,8,2.0,17,M,,M,,*5E
06/10/2014	15:10:48.628	$GPGGA,151049,2604.6781,N,08003.4418,W,1,8,2.0,17,M,,M,,*5E
06/10/2014	15:10:49.639	$GPGGA,151050,2604.6763,N,08003.4433,W,1,8,2.0,17,M,,M,,*53
06/10/2014	15:10:50.649	$GPGGA,151051,2604.6746,N,08003.4449,W,1,8,1.7,17,M,,M,,*5C
06/10/2014	15:10:51.670	$GPGGA,151052,2604.6732,N,08003.4462,W,1,8,1.7,17,M,,M,,*55
06/10/2014	15:10:52.671	$GPGGA,151053,2604.6716,N,08003.4477,W,1,9,1.7,17,M,,M,,*57
06/10/2014	15:10:53.650	$GPGGA,151054,2604.6699,N,08003.4492,W,1,9,1.7,17,M,,M,,*5D
06/10/2014	15:10:54.701	$GPGGA,151055,2604.6684,N,08003.4509,W,1,9,1.7,16,M,,M,,*52
06/10/2014	15:10:55.722	$GPGGA,151056,2604.6666,N,08003.4523,W,1,9,1.7,16,M,,M,,*55
06/10/2014	15:10:56.712	$GPGGA,151057,2604.6649,N,08003.4538,W,1,9,1.7,16,M,,M,,*53
06/10/2014	15:10:57.693	$GPGGA,151058,2604.6633,N,08003.4555,W,1,9,1.7,16,M,,M,,*5A
06/10/2014	15:10:58.744	$GPGGA,151059,2604.6616,N,08003.4570,W,1,9,1.7,16,M,,M,,*5B
06/10/2014	15:10:59.745	$GPGGA,151100,2604.6599,N,08003.4585,W,1,9,1.7,16,M,,M,,*58
06/10/2014	15:11:00.786	$GPGGA,151101,2604.6582,N,08003.4600,W,1,9,1.7,16,M,,M,,*5D
06/10/2014	15:11:01.736	$GPGGA,151102,2604.6582,N,08003.4600,W,1,9,1.7,16,M,,M,,*5E
06/10/2014	15:11:02.837	$GPGGA,151103,2604.6548,N,08003.4632,W,1,9,1.7,16,M,,M,,*58
06/10/2014	15:11:03.767	$GPGGA,151104,2604.6532,N,08003.4649,W,1,9,1.7,16,M,,M,,*5E
06/10/2014	15:11:04.778	$GPGGA,151105,2604.6515,N,08003.4664,W,1,9,1.7,16,M,,M,,*55
06/10/2014	15:11:05.768	$GPGGA,151106,2604.6498,N,08003.4680,W,1,9,1.7,16,M,,M,,*58
06/10/2014	15:11:06.769	$GPGGA,151107,2604.6481,N,08003.4697,W,1,9,1.7,16,M,,M,,*57
06/10/2014	15:11:07.911	$GPGGA,151108,2604.6464,N,08003.4714,W,1,9,1.7,16,M,,M,,*59
06/10/2014	15:11:08.912	$GPGGA,151109,2604.6447,N,08003.4729,W,1,9,1.7,16,M,,M,,*57
06/10/2014	15:11:09.811	$GPGGA,151110,2604.6431,N,08003.4747,W,1,9,1.7,16,M,,M,,*56
06/10/2014	15:11:10.813	$GPGGA,151111,2604.6413,N,08003.4762,W,1,9,1.7,16,M,,M,,*50
06/10/2014	15:11:11.862	$GPGGA,151112,2604.6396,N,08003.4779,W,1,9,1.7,16,M,,M,,*53
06/10/2014	15:11:12.852	$GPGGA,151113,2604.6380,N,08003.4794,W,1,9,1.9,16,M,,M,,*58
06/10/2014	15:11:13.934	$GPGGA,151114,2604.6362,N,08003.4812,W,1,9,1.9,16,M,,M,,*52
06/10/2014	15:11:14.975	$GPGGA,151115,2604.6342,N,08003.4828,W,1,9,1.7,16,M,,M,,*56
06/10/2014	15:11:15.996	$GPGGA,151116,2604.6326,N,08003.4845,W,1,9,1.7,16,M,,M,,*5C
06/10/2014	15:11:16.875	$GPGGA,151117,2604.6308,N,08003.4861,W,1,9,1.7,16,M,,M,,*57
06/10/2014	15:11:17.875	$GPGGA,151118,2604.6290,N,08003.4877,W,1,9,1.7,17,M,,M,,*5E
06/10/2014	15:11:19.007	$GPGGA,151119,2604.6272,N,08003.4895,W,1,9,1.7,17,M,,M,,*5F
06/10/2014	15:11:19.998	$GPGGA,151120,2604.6255,N,08003.4910,W,1,9,1.7,17,M,,M,,*5C
06/10/2014	15:11:21.009	$GPGGA,151121,2604.6238,N,08003.4925,W,1,9,1.7,17,M,,M,,*50
06/10/2014	15:11:21.999	$GPGGA,151122,2604.6221,N,08003.4942,W,1,9,1.7,17,M,,M,,*5A
06/10/2014	15:11:23.010	$GPGGA,151123,2604.6203,N,08003.4958,W,1,9,2.0,17,M,,M,,*54
06/10/2014	15:11:24.034	$GPGGA,151124,2604.6185,N,08003.4975,W,1,9,2.0,17,M,,M,,*51
06/10/2014	15:11:25.057	$GPGGA,151125,2604.6165,N,08003.4990,W,1,8,2.0,17,M,,M,,*54
06/10/2014	15:11:26.034	$GPGGA,151126,2604.6147,N,08003.5007,W,1,8,2.0,17,M,,M,,*51
06/10/2014	15:11:27.043	$GPGGA,151127,2604.6129,N,08003.5022,W,1,8,2.0,17,M,,M,,*5F
06/10/2014	15:11:28.054	$GPGGA,151128,2604.6111,N,08003.5038,W,1,8,2.0,16,M,,M,,*51
06/10/2014	15:11:29.053	$GPGGA,151129,2604.6093,N,08003.5054,W,1,8,2.0,16,M,,M,,*51
06/10/2014	15:11:30.064	$GPGGA,151130,2604.6075,N,08003.5069,W,1,8,2.0,16,M,,M,,*5F
06/10/2014	15:11:31.095	$GPGGA,151131,2604.6057,N,08003.5085,W,1,8,2.0,16,M,,M,,*5C
06/10/2014	15:11:32.116	$GPGGA,151132,2604.6039,N,08003.5101,W,1,8,2.0,16,M,,M,,*5A
06/10/2014	15:11:33.106	$GPGGA,151133,2604.6021,N,08003.5116,W,1,9,1.7,16,M,,M,,*51
06/10/2014	15:11:34.106	$GPGGA,151134,2604.6005,N,08003.5130,W,1,9,1.7,16,M,,M,,*54
06/10/2014	15:11:35.137	$GPGGA,151135,2604.5988,N,08003.5145,W,1,9,1.7,16,M,,M,,*58
06/10/2014	15:11:36.128	$GPGGA,151136,2604.5972,N,08003.5159,W,1,9,1.7,16,M,,M,,*53
06/10/2014	15:11:37.149	$GPGGA,151137,2604.5954,N,08003.5173,W,1,9,1.7,15,M,,M,,*5D
06/10/2014	15:11:38.139	$GPGGA,151138,2604.5937,N,08003.5186,W,1,9,1.7,15,M,,M,,*5D
06/10/2014	15:11:39.140	$GPGGA,151139,2604.5920,N,08003.5200,W,1,9,1.7,15,M,,M,,*57
06/10/2014	15:11:40.160	$GPGGA,151140,2604.5903,N,08003.5214,W,1,9,1.7,15,M,,M,,*5D
06/10/2014	15:11:41.215	$GPGGA,151141,2604.5886,N,08003.5228,W,1,9,1.7,16,M,,M,,*5C
06/10/2014	15:11:41.532	$GPGGA,151142,2604.5868,N,08003.5242,W,1,9,1.7,16,M,,M,,*53
06/10/2014	15:11:42.563	$GPGGA,151143,2604.5851,N,08003.5257,W,1,9,1.7,16,M,,M,,*5C
06/10/2014	15:11:43.564	$GPGGA,151144,2604.5831,N,08003.5272,W,1,9,1.7,16,M,,M,,*5A
06/10/2014	15:11:44.565	$GPGGA,151145,2604.5814,N,08003.5287,W,1,8,2.0,16,M,,M,,*53
06/10/2014	15:11:45.564	$GPGGA,151146,2604.5798,N,08003.5301,W,1,8,1.7,16,M,,M,,*50
06/10/2014	15:11:46.605	$GPGGA,151147,2604.5781,N,08003.5314,W,1,9,1.7,16,M,,M,,*5C
