Software Version Number: 1	Data File Format Number: 1	Build Version Number: 1	Error Count Since VI Started: 0	Manufacturer: Raytheon	 Model Number: RayMarine 120	 S/N: 	 Cal Date: 	 Wind Direction Offset: 0.00	 Slope (M)1: 0.00	 Offset (B)1: 0.00	 Slope (M)2: 0.00	 Offset (B)2: 0.00	 Slope (M)3: 0.00	 Offset (B)3: 0.00	 Slope (M)4: 0.00	 Offset (B)4: 0.00	 Slope (M)5: 0.00	 Offset (B)5: 0.00	 Slope (M)6: 0.00	 Offset (B)6: 0.00
Computer Date	Computer Time	GGA String
06/08/2014	03:00:00.610	$GPGGA,030000,2442.0154,N,08042.7684,W,1,9,1.5,19,M,,M,,*55
06/08/2014	03:00:01.626	$GPGGA,030001,2442.0155,N,08042.7688,W,1,9,1.5,19,M,,M,,*59
06/08/2014	03:00:02.684	$GPGGA,030002,2442.0158,N,08042.7693,W,1,9,1.5,19,M,,M,,*5D
06/08/2014	03:00:03.693	$GPGGA,030003,2442.0159,N,08042.7699,W,1,9,1.5,19,M,,M,,*57
06/08/2014	03:00:04.770	$GPGGA,030004,2442.0162,N,08042.7703,W,1,9,1.5,19,M,,M,,*5A
06/08/2014	03:00:05.803	$GPGGA,030005,2442.0163,N,08042.7709,W,1,9,1.5,19,M,,M,,*50
06/08/2014	03:00:06.828	$GPGGA,030006,2442.0163,N,08042.7709,W,1,9,1.5,19,M,,M,,*53
06/08/2014	03:00:07.883	$GPGGA,030007,2442.0168,N,08042.7718,W,1,9,1.5,19,M,,M,,*59
06/08/2014	03:00:08.918	$GPGGA,030008,2442.0170,N,08042.7724,W,1,9,1.5,19,M,,M,,*50
06/08/2014	03:00:09.963	$GPGGA,030009,2442.0173,N,08042.7728,W,1,9,1.5,19,M,,M,,*5E
06/08/2014	03:00:10.987	$GPGGA,030010,2442.0173,N,08042.7728,W,1,9,1.5,19,M,,M,,*56
06/08/2014	03:00:12.057	$GPGGA,030011,2442.0176,N,08042.7738,W,1,9,1.5,19,M,,M,,*53
06/08/2014	03:00:13.151	$GPGGA,030012,2442.0177,N,08042.7745,W,1,9,1.5,19,M,,M,,*5B
06/08/2014	03:00:14.217	$GPGGA,030013,2442.0179,N,08042.7749,W,1,9,1.5,19,M,,M,,*58
06/08/2014	03:00:15.209	$GPGGA,030014,2442.0180,N,08042.7754,W,1,9,1.5,19,M,,M,,*55
06/08/2014	03:00:16.338	$GPGGA,030015,2442.0181,N,08042.7760,W,1,9,1.5,19,M,,M,,*52
06/08/2014	03:00:17.279	$GPGGA,030016,2442.0184,N,08042.7764,W,1,9,1.5,19,M,,M,,*50
06/08/2014	03:00:18.313	$GPGGA,030017,2442.0184,N,08042.7771,W,1,9,1.5,19,M,,M,,*55
06/08/2014	03:00:19.338	$GPGGA,030018,2442.0184,N,08042.7771,W,1,9,1.5,19,M,,M,,*5A
06/08/2014	03:00:20.372	$GPGGA,030019,2442.0188,N,08042.7780,W,1,9,1.5,19,M,,M,,*59
06/08/2014	03:00:21.544	$GPGGA,030020,2442.0188,N,08042.7786,W,1,9,1.5,19,M,,M,,*55
06/08/2014	03:00:22.598	$GPGGA,030021,2442.0188,N,08042.7792,W,1,8,2.0,19,M,,M,,*56
06/08/2014	03:00:23.546	$GPGGA,030022,2442.0188,N,08042.7792,W,1,8,2.0,19,M,,M,,*55
06/08/2014	03:00:24.687	$GPGGA,030023,2442.0189,N,08042.7803,W,1,8,2.0,19,M,,M,,*52
06/08/2014	03:00:25.712	$GPGGA,030024,2442.0191,N,08042.7808,W,1,8,2.0,19,M,,M,,*57
06/08/2014	03:00:26.746	$GPGGA,030025,2442.0191,N,08042.7814,W,1,8,2.0,19,M,,M,,*5B
06/08/2014	03:00:27.687	$GPGGA,030026,2442.0191,N,08042.7814,W,1,8,2.0,19,M,,M,,*58
06/08/2014	03:00:28.826	$GPGGA,030027,2442.0194,N,08042.7825,W,1,8,2.0,19,M,,M,,*5E
06/08/2014	03:00:29.882	$GPGGA,030028,2442.0195,N,08042.7829,W,1,8,2.0,19,M,,M,,*5C
06/08/2014	03:00:30.937	$GPGGA,030029,2442.0197,N,08042.7834,W,1,8,2.0,19,M,,M,,*53
06/08/2014	03:00:31.951	$GPGGA,030030,2442.0198,N,08042.7840,W,1,8,2.0,19,M,,M,,*57
06/08/2014	03:00:33.027	$GPGGA,030031,2442.0199,N,08042.7845,W,1,8,2.0,19,M,,M,,*52
06/08/2014	03:00:34.051	$GPGGA,030032,2442.0199,N,08042.7850,W,1,8,2.0,19,M,,M,,*55
06/08/2014	03:00:35.117	$GPGGA,030033,2442.0202,N,08042.7855,W,1,8,2.0,19,M,,M,,*50
06/08/2014	03:00:36.142	$GPGGA,030034,2442.0202,N,08042.7861,W,1,8,2.0,19,M,,M,,*50
06/08/2014	03:00:37.187	$GPGGA,030035,2442.0204,N,08042.7866,W,1,8,2.0,19,M,,M,,*50
06/08/2014	03:00:38.221	$GPGGA,030036,2442.0206,N,08042.7872,W,1,8,2.0,19,M,,M,,*54
06/08/2014	03:00:39.246	$GPGGA,030037,2442.0206,N,08042.7876,W,1,8,2.0,18,M,,M,,*50
06/08/2014	03:00:40.312	$GPGGA,030038,2442.0208,N,08042.7883,W,1,8,2.0,18,M,,M,,*5B
06/08/2014	03:00:38.630	$GPGGA,030039,2442.0210,N,08042.7887,W,1,8,2.0,18,M,,M,,*57
06/08/2014	03:00:39.705	$GPGGA,030040,2442.0210,N,08042.7892,W,1,8,2.0,18,M,,M,,*5D
06/08/2014	03:00:40.740	$GPGGA,030041,2442.0212,N,08042.7897,W,1,8,2.0,18,M,,M,,*5B
06/08/2014	03:00:41.764	$GPGGA,030042,2442.0213,N,08042.7904,W,1,8,2.0,18,M,,M,,*52
06/08/2014	03:00:42.799	$GPGGA,030043,2442.0215,N,08042.7908,W,1,8,2.0,18,M,,M,,*59
06/08/2014	03:00:43.875	$GPGGA,030044,2442.0216,N,08042.7913,W,1,8,2.0,18,M,,M,,*57
06/08/2014	03:00:44.899	$GPGGA,030045,2442.0217,N,08042.7919,W,1,8,2.0,18,M,,M,,*5D
06/08/2014	03:00:45.945	$GPGGA,030046,2442.0219,N,08042.7923,W,1,8,2.0,18,M,,M,,*59
06/08/2014	03:00:46.969	$GPGGA,030047,2442.0220,N,08042.7930,W,1,8,2.0,18,M,,M,,*50
06/08/2014	03:00:48.045	$GPGGA,030048,2442.0221,N,08042.7934,W,1,8,2.0,18,M,,M,,*5A
06/08/2014	03:00:49.101	$GPGGA,030049,2442.0223,N,08042.7939,W,1,8,2.0,18,M,,M,,*54
06/08/2014	03:00:50.122	$GPGGA,030050,2442.0224,N,08042.7944,W,1,8,2.0,18,M,,M,,*51
06/08/2014	03:00:51.170	$GPGGA,030051,2442.0228,N,08042.7949,W,1,8,2.0,18,M,,M,,*51
06/08/2014	03:00:52.196	$GPGGA,030052,2442.0230,N,08042.7955,W,1,8,1.5,18,M,,M,,*50
06/08/2014	03:00:53.239	$GPGGA,030053,2442.0231,N,08042.7960,W,1,9,1.5,18,M,,M,,*57
06/08/2014	03:00:54.274	$GPGGA,030054,2442.0233,N,08042.7966,W,1,9,1.5,18,M,,M,,*54
06/08/2014	03:00:55.350	$GPGGA,030055,2442.0235,N,08042.7970,W,1,9,1.5,18,M,,M,,*54
06/08/2014	03:00:56.500	$GPGGA,030056,2442.0238,N,08042.7974,W,1,9,1.5,18,M,,M,,*5E
06/08/2014	03:00:57.523	$GPGGA,030057,2442.0239,N,08042.7980,W,1,9,1.5,18,M,,M,,*55
06/08/2014	03:00:58.454	$GPGGA,030058,2442.0241,N,08042.7984,W,1,9,1.5,18,M,,M,,*51
06/08/2014	03:00:59.592	$GPGGA,030059,2442.0244,N,08042.7989,W,1,9,1.5,18,M,,M,,*58
06/08/2014	03:01:00.564	$GPGGA,030100,2442.0246,N,08042.7995,W,1,9,1.5,18,M,,M,,*5A
06/08/2014	03:01:01.589	$GPGGA,030101,2442.0248,N,08042.7999,W,1,9,1.5,18,M,,M,,*59
06/08/2014	03:01:02.728	$GPGGA,030102,2442.0249,N,08042.8003,W,1,9,1.5,18,M,,M,,*5E
06/08/2014	03:01:03.668	$GPGGA,030103,2442.0251,N,08042.8007,W,1,9,1.5,18,M,,M,,*52
06/08/2014	03:01:04.713	$GPGGA,030104,2442.0253,N,08042.8013,W,1,9,1.5,18,M,,M,,*52
06/08/2014	03:01:05.774	$GPGGA,030105,2442.0256,N,08042.8017,W,1,9,1.5,18,M,,M,,*52
06/08/2014	03:01:06.793	$GPGGA,030106,2442.0257,N,08042.8021,W,1,9,1.5,18,M,,M,,*55
06/08/2014	03:01:07.828	$GPGGA,030107,2442.0260,N,08042.8025,W,1,9,1.5,18,M,,M,,*54
06/08/2014	03:01:09.025	$GPGGA,030108,2442.0262,N,08042.8029,W,1,9,1.5,18,M,,M,,*55
06/08/2014	03:01:10.023	$GPGGA,030109,2442.0264,N,08042.8033,W,1,9,1.5,18,M,,M,,*59
06/08/2014	03:01:10.974	$GPGGA,030110,2442.0267,N,08042.8038,W,1,9,1.5,18,M,,M,,*59
06/08/2014	03:01:12.123	$GPGGA,030111,2442.0270,N,08042.8042,W,1,9,1.5,18,M,,M,,*53
06/08/2014	03:01:13.168	$GPGGA,030112,2442.0273,N,08042.8046,W,1,9,1.5,18,M,,M,,*57
06/08/2014	03:01:14.224	$GPGGA,030113,2442.0275,N,08042.8050,W,1,9,1.5,18,M,,M,,*57
06/08/2014	03:01:15.238	$GPGGA,030114,2442.0278,N,08042.8054,W,1,9,1.5,18,M,,M,,*59
06/08/2014	03:01:16.313	$GPGGA,030115,2442.0280,N,08042.8058,W,1,9,1.5,18,M,,M,,*53
06/08/2014	03:01:17.337	$GPGGA,030116,2442.0282,N,08042.8063,W,1,9,1.5,18,M,,M,,*5A
06/08/2014	03:01:18.372	$GPGGA,030117,2442.0285,N,08042.8065,W,1,9,1.5,18,M,,M,,*5A
06/08/2014	03:01:19.418	$GPGGA,030118,2442.0289,N,08042.8069,W,1,9,1.8,18,M,,M,,*58
06/08/2014	03:01:20.473	$GPGGA,030119,2442.0289,N,08042.8074,W,1,8,1.8,18,M,,M,,*54
06/08/2014	03:01:21.507	$GPGGA,030120,2442.0292,N,08042.8078,W,1,8,1.5,19,M,,M,,*54
06/08/2014	03:01:22.573	$GPGGA,030121,2442.0295,N,08042.8082,W,1,9,1.5,19,M,,M,,*56
06/08/2014	03:01:23.587	$GPGGA,030122,2442.0298,N,08042.8086,W,1,9,1.5,19,M,,M,,*5C
06/08/2014	03:01:24.642	$GPGGA,030123,2442.0300,N,08042.8090,W,1,9,1.5,19,M,,M,,*5A
06/08/2014	03:01:25.688	$GPGGA,030124,2442.0303,N,08042.8094,W,1,9,1.5,19,M,,M,,*5A
06/08/2014	03:01:26.733	$GPGGA,030125,2442.0304,N,08042.8098,W,1,9,1.5,19,M,,M,,*50
06/08/2014	03:01:27.757	$GPGGA,030126,2442.0307,N,08042.8101,W,1,9,1.5,19,M,,M,,*51
06/08/2014	03:01:28.812	$GPGGA,030127,2442.0310,N,08042.8105,W,1,9,1.5,19,M,,M,,*52
06/08/2014	03:01:29.858	$GPGGA,030128,2442.0313,N,08042.8108,W,1,9,1.5,19,M,,M,,*53
06/08/2014	03:01:30.871	$GPGGA,030129,2442.0316,N,08042.8111,W,1,9,1.5,19,M,,M,,*5F
06/08/2014	03:01:31.927	$GPGGA,030130,2442.0318,N,08042.8114,W,1,9,1.5,19,M,,M,,*5C
06/08/2014	03:01:32.994	$GPGGA,030131,2442.0322,N,08042.8118,W,1,9,1.5,19,M,,M,,*58
06/08/2014	03:01:34.029	$GPGGA,030132,2442.0325,N,08042.8121,W,1,9,1.5,19,M,,M,,*56
06/08/2014	03:01:35.051	$GPGGA,030133,2442.0329,N,08042.8123,W,1,9,1.5,19,M,,M,,*59
06/08/2014	03:01:36.105	$GPGGA,030134,2442.0331,N,08042.8125,W,1,9,2.0,19,M,,M,,*57
06/08/2014	03:01:37.151	$GPGGA,030135,2442.0332,N,08042.8124,W,1,9,1.5,20,M,,M,,*58
06/08/2014	03:01:38.196	$GPGGA,030136,2442.0336,N,08042.8126,W,1,9,1.5,20,M,,M,,*5D
06/08/2014	03:01:39.252	$GPGGA,030137,2442.0338,N,08042.8129,W,1,8,2.0,20,M,,M,,*5A
06/08/2014	03:01:40.266	$GPGGA,030138,2442.0340,N,08042.8130,W,1,8,1.5,20,M,,M,,*54
06/08/2014	03:01:38.595	$GPGGA,030139,2442.0343,N,08042.8132,W,1,9,1.5,20,M,,M,,*55
06/08/2014	03:01:39.672	$GPGGA,030140,2442.0347,N,08042.8133,W,1,9,1.5,20,M,,M,,*5E
06/08/2014	03:01:40.706	$GPGGA,030141,2442.0354,N,08042.8133,W,1,8,2.0,20,M,,M,,*5A
06/08/2014	03:01:41.762	$GPGGA,030142,2442.0358,N,08042.8134,W,1,8,1.5,21,M,,M,,*55
06/08/2014	03:01:42.807	$GPGGA,030143,2442.0363,N,08042.8137,W,1,8,2.0,21,M,,M,,*59
06/08/2014	03:01:45.284	$GPGGA,030145,2442.0371,N,08042.8143,W,1,8,2.0,21,M,,M,,*5F
06/08/2014	03:01:45.922	$GPGGA,030146,2442.0374,N,08042.8144,W,1,8,2.0,21,M,,M,,*5E
06/08/2014	03:01:46.967	$GPGGA,030147,2442.0378,N,08042.8147,W,1,8,2.0,21,M,,M,,*50
06/08/2014	03:01:47.991	$GPGGA,030148,2442.0380,N,08042.8145,W,1,8,2.7,22,M,,M,,*5E
06/08/2014	03:01:49.036	$GPGGA,030149,2442.0386,N,08042.8145,W,1,8,1.6,22,M,,M,,*5B
06/08/2014	03:01:50.090	$GPGGA,030150,2442.0390,N,08042.8145,W,1,8,1.5,22,M,,M,,*57
06/08/2014	03:01:51.232	$GPGGA,030151,2442.0394,N,08042.8145,W,1,8,2.0,22,M,,M,,*54
06/08/2014	03:01:52.186	$GPGGA,030152,2442.0397,N,08042.8144,W,1,8,2.0,22,M,,M,,*55
06/08/2014	03:01:53.231	$GPGGA,030153,2442.0401,N,08042.8144,W,1,9,1.5,22,M,,M,,*5B
06/08/2014	03:01:54.344	$GPGGA,030154,2442.0405,N,08042.8144,W,1,9,1.8,23,M,,M,,*54
06/08/2014	03:01:55.400	$GPGGA,030155,2442.0408,N,08042.8143,W,1,9,1.5,23,M,,M,,*52
06/08/2014	03:01:56.445	$GPGGA,030156,2442.0412,N,08042.8144,W,1,9,1.8,23,M,,M,,*50
06/08/2014	03:01:57.479	$GPGGA,030157,2442.0415,N,08042.8144,W,1,9,1.5,23,M,,M,,*5B
06/08/2014	03:01:58.524	$GPGGA,030158,2442.0419,N,08042.8145,W,1,9,1.5,24,M,,M,,*5E
06/08/2014	03:01:59.601	$GPGGA,030159,2442.0423,N,08042.8145,W,1,9,1.5,24,M,,M,,*56
06/08/2014	03:02:00.636	$GPGGA,030200,2442.0428,N,08042.8147,W,1,9,1.5,24,M,,M,,*50
06/08/2014	03:02:01.692	$GPGGA,030201,2442.0432,N,08042.8148,W,1,9,1.5,24,M,,M,,*55
06/08/2014	03:02:02.694	$GPGGA,030202,2442.0436,N,08042.8148,W,1,9,1.5,25,M,,M,,*53
06/08/2014	03:02:03.750	$GPGGA,030203,2442.0441,N,08042.8150,W,1,9,1.5,25,M,,M,,*5B
06/08/2014	03:02:04.795	$GPGGA,030204,2442.0444,N,08042.8149,W,1,9,1.5,25,M,,M,,*51
06/08/2014	03:02:05.830	$GPGGA,030205,2442.0448,N,08042.8148,W,1,7,2.7,25,M,,M,,*52
06/08/2014	03:02:06.864	$GPGGA,030206,2442.0452,N,08042.8147,W,1,7,2.0,25,M,,M,,*52
06/08/2014	03:02:07.929	$GPGGA,030207,2442.0455,N,08042.8146,W,1,8,2.0,26,M,,M,,*59
06/08/2014	03:02:08.964	$GPGGA,030208,2442.0462,N,08042.8148,W,1,8,2.0,26,M,,M,,*5C
06/08/2014	03:02:10.019	$GPGGA,030209,2442.0466,N,08042.8150,W,1,8,1.8,26,M,,M,,*5B
06/08/2014	03:02:11.044	$GPGGA,030210,2442.0472,N,08042.8150,W,1,8,1.5,26,M,,M,,*5B
06/08/2014	03:02:12.099	$GPGGA,030211,2442.0476,N,08042.8151,W,1,9,1.5,26,M,,M,,*5E
06/08/2014	03:02:13.144	$GPGGA,030212,2442.0480,N,08042.8151,W,1,9,1.5,27,M,,M,,*55
06/08/2014	03:02:14.179	$GPGGA,030213,2442.0484,N,08042.8151,W,1,9,1.5,27,M,,M,,*50
06/08/2014	03:02:15.214	$GPGGA,030214,2442.0488,N,08042.8151,W,1,9,1.5,27,M,,M,,*5B
06/08/2014	03:02:16.248	$GPGGA,030215,2442.0492,N,08042.8150,W,1,9,1.5,27,M,,M,,*50
06/08/2014	03:02:17.315	$GPGGA,030216,2442.0497,N,08042.8151,W,1,9,1.5,27,M,,M,,*57
06/08/2014	03:02:18.359	$GPGGA,030217,2442.0501,N,08042.8150,W,1,9,1.5,27,M,,M,,*59
06/08/2014	03:02:19.373	$GPGGA,030218,2442.0505,N,08042.8150,W,1,9,1.5,27,M,,M,,*52
06/08/2014	03:02:20.439	$GPGGA,030219,2442.0508,N,08042.8149,W,1,9,1.5,27,M,,M,,*56
06/08/2014	03:02:21.484	$GPGGA,030220,2442.0512,N,08042.8150,W,1,9,1.5,27,M,,M,,*5F
06/08/2014	03:02:22.508	$GPGGA,030221,2442.0515,N,08042.8149,W,1,9,1.5,27,M,,M,,*51
06/08/2014	03:02:23.564	$GPGGA,030222,2442.0519,N,08042.8148,W,1,9,1.5,27,M,,M,,*5F
06/08/2014	03:02:24.640	$GPGGA,030223,2442.0522,N,08042.8147,W,1,9,1.5,27,M,,M,,*59
06/08/2014	03:02:25.644	$GPGGA,030224,2442.0524,N,08042.8146,W,1,9,1.5,27,M,,M,,*59
06/08/2014	03:02:26.719	$GPGGA,030225,2442.0530,N,08042.8147,W,1,8,2.0,27,M,,M,,*5B
06/08/2014	03:02:27.733	$GPGGA,030226,2442.0533,N,08042.8145,W,1,8,1.5,27,M,,M,,*5F
06/08/2014	03:02:28.799	$GPGGA,030227,2442.0535,N,08042.8144,W,1,9,1.5,27,M,,M,,*58
06/08/2014	03:02:29.813	$GPGGA,030228,2442.0538,N,08042.8142,W,1,9,1.5,27,M,,M,,*5C
06/08/2014	03:02:30.879	$GPGGA,030229,2442.0542,N,08042.8141,W,1,9,1.5,27,M,,M,,*53
06/08/2014	03:02:31.901	$GPGGA,030230,2442.0545,N,08042.8140,W,1,9,1.5,27,M,,M,,*5D
06/08/2014	03:02:32.958	$GPGGA,030231,2442.0549,N,08042.8139,W,1,9,1.5,27,M,,M,,*5E
06/08/2014	03:02:34.003	$GPGGA,030232,2442.0552,N,08042.8138,W,1,9,1.5,27,M,,M,,*56
06/08/2014	03:02:35.036	$GPGGA,030233,2442.0555,N,08042.8135,W,1,8,2.0,27,M,,M,,*5A
06/08/2014	03:02:36.188	$GPGGA,030234,2442.0557,N,08042.8136,W,1,8,1.5,27,M,,M,,*5A
06/08/2014	03:02:37.121	$GPGGA,030235,2442.0562,N,08042.8134,W,1,9,1.5,27,M,,M,,*5E
06/08/2014	03:02:38.166	$GPGGA,030236,2442.0564,N,08042.8131,W,1,9,2.0,27,M,,M,,*58
06/08/2014	03:02:39.187	$GPGGA,030237,2442.0567,N,08042.8130,W,1,8,1.8,27,M,,M,,*51
06/08/2014	03:02:40.358	$GPGGA,030238,2442.0571,N,08042.8130,W,1,8,1.5,27,M,,M,,*54
06/08/2014	03:02:38.582	$GPGGA,030239,2442.0574,N,08042.8129,W,1,9,1.5,27,M,,M,,*59
06/08/2014	03:02:39.627	$GPGGA,030240,2442.0577,N,08042.8128,W,1,9,1.5,27,M,,M,,*55
06/08/2014	03:02:40.651	$GPGGA,030241,2442.0580,N,08042.8126,W,1,9,1.5,27,M,,M,,*52
06/08/2014	03:02:41.800	$GPGGA,030242,2442.0584,N,08042.8124,W,1,9,1.5,27,M,,M,,*57
06/08/2014	03:02:42.893	$GPGGA,030243,2442.0587,N,08042.8123,W,1,8,1.8,26,M,,M,,*5F
06/08/2014	03:02:43.935	$GPGGA,030244,2442.0589,N,08042.8121,W,1,8,1.5,26,M,,M,,*59
06/08/2014	03:02:44.977	$GPGGA,030245,2442.0592,N,08042.8118,W,1,9,1.5,26,M,,M,,*59
06/08/2014	03:02:45.980	$GPGGA,030246,2442.0596,N,08042.8117,W,1,9,1.5,26,M,,M,,*51
06/08/2014	03:02:47.015	$GPGGA,030247,2442.0599,N,08042.8115,W,1,9,1.5,26,M,,M,,*5D
06/08/2014	03:02:48.081	$GPGGA,030248,2442.0602,N,08042.8113,W,1,9,1.5,26,M,,M,,*55
06/08/2014	03:02:49.105	$GPGGA,030249,2442.0603,N,08042.8111,W,1,9,1.5,26,M,,M,,*57
06/08/2014	03:02:50.140	$GPGGA,030250,2442.0607,N,08042.8109,W,1,9,1.5,26,M,,M,,*52
06/08/2014	03:02:51.216	$GPGGA,030251,2442.0610,N,08042.8107,W,1,9,1.5,26,M,,M,,*5B
06/08/2014	03:02:52.251	$GPGGA,030252,2442.0611,N,08042.8105,W,1,9,1.8,26,M,,M,,*56
06/08/2014	03:02:53.285	$GPGGA,030253,2442.0614,N,08042.8102,W,1,8,1.8,25,M,,M,,*57
06/08/2014	03:02:54.330	$GPGGA,030254,2442.0617,N,08042.8100,W,1,8,1.8,25,M,,M,,*51
06/08/2014	03:02:55.365	$GPGGA,030255,2442.0618,N,08042.8098,W,1,9,1.5,25,M,,M,,*53
06/08/2014	03:02:56.421	$GPGGA,030256,2442.0621,N,08042.8095,W,1,9,1.8,25,M,,M,,*5A
06/08/2014	03:02:57.476	$GPGGA,030257,2442.0622,N,08042.8093,W,1,7,2.6,25,M,,M,,*5D
06/08/2014	03:02:58.500	$GPGGA,030258,2442.0622,N,08042.8090,W,1,7,1.5,25,M,,M,,*51
06/08/2014	03:02:59.525	$GPGGA,030259,2442.0625,N,08042.8086,W,1,9,1.5,25,M,,M,,*5E
06/08/2014	03:03:00.600	$GPGGA,030300,2442.0627,N,08042.8085,W,1,9,1.8,25,M,,M,,*5F
06/08/2014	03:03:01.614	$GPGGA,030301,2442.0629,N,08042.8082,W,1,9,1.5,25,M,,M,,*5A
06/08/2014	03:03:02.669	$GPGGA,030302,2442.0629,N,08042.8080,W,1,9,1.8,25,M,,M,,*56
06/08/2014	03:03:03.714	$GPGGA,030303,2442.0632,N,08042.8077,W,1,9,1.5,25,M,,M,,*58
06/08/2014	03:03:04.770	$GPGGA,030304,2442.0635,N,08042.8074,W,1,9,1.8,25,M,,M,,*56
06/08/2014	03:03:05.794	$GPGGA,030305,2442.0636,N,08042.8072,W,1,8,1.8,25,M,,M,,*53
06/08/2014	03:03:06.839	$GPGGA,030306,2442.0636,N,08042.8074,W,1,8,1.5,25,M,,M,,*5B
06/08/2014	03:03:07.884	$GPGGA,030307,2442.0638,N,08042.8070,W,1,9,1.5,25,M,,M,,*51
06/08/2014	03:03:08.929	$GPGGA,030308,2442.0639,N,08042.8068,W,1,9,1.5,25,M,,M,,*56
06/08/2014	03:03:10.006	$GPGGA,030309,2442.0643,N,08042.8064,W,1,9,1.5,25,M,,M,,*56
06/08/2014	03:03:11.003	$GPGGA,030310,2442.0645,N,08042.8062,W,1,9,1.9,25,M,,M,,*52
06/08/2014	03:03:12.050	$GPGGA,030311,2442.0647,N,08042.8059,W,1,8,1.6,25,M,,M,,*57
06/08/2014	03:03:13.116	$GPGGA,030312,2442.0647,N,08042.8057,W,1,8,1.5,25,M,,M,,*59
06/08/2014	03:03:14.148	$GPGGA,030313,2442.0649,N,08042.8054,W,1,9,1.5,24,M,,M,,*55
06/08/2014	03:03:15.171	$GPGGA,030314,2442.0652,N,08042.8051,W,1,9,1.5,24,M,,M,,*5D
06/08/2014	03:03:16.224	$GPGGA,030315,2442.0651,N,08042.8050,W,1,8,1.8,24,M,,M,,*52
06/08/2014	03:03:17.290	$GPGGA,030316,2442.0652,N,08042.8048,W,1,8,1.5,24,M,,M,,*56
06/08/2014	03:03:18.331	$GPGGA,030317,2442.0654,N,08042.8047,W,1,8,2.0,24,M,,M,,*58
06/08/2014	03:03:19.339	$GPGGA,030318,2442.0654,N,08042.8045,W,1,8,1.5,24,M,,M,,*53
06/08/2014	03:03:20.406	$GPGGA,030319,2442.0657,N,08042.8042,W,1,9,1.5,24,M,,M,,*57
06/08/2014	03:03:21.463	$GPGGA,030320,2442.0658,N,08042.8039,W,1,9,1.5,24,M,,M,,*5E
06/08/2014	03:03:22.619	$GPGGA,030321,2442.0661,N,08042.8036,W,1,9,1.5,24,M,,M,,*5A
06/08/2014	03:03:23.540	$GPGGA,030322,2442.0661,N,08042.8032,W,1,9,1.5,24,M,,M,,*5D
06/08/2014	03:03:24.695	$GPGGA,030323,2442.0661,N,08042.8030,W,1,9,1.5,24,M,,M,,*5E
06/08/2014	03:03:25.641	$GPGGA,030324,2442.0663,N,08042.8025,W,1,9,1.5,24,M,,M,,*5F
06/08/2014	03:03:26.800	$GPGGA,030325,2442.0664,N,08042.8022,W,1,8,1.5,24,M,,M,,*5F
06/08/2014	03:03:27.803	$GPGGA,030326,2442.0662,N,08042.8018,W,1,8,2.0,24,M,,M,,*55
06/08/2014	03:03:28.858	$GPGGA,030327,2442.0664,N,08042.8015,W,1,8,2.0,24,M,,M,,*5F
06/08/2014	03:03:29.789	$GPGGA,030328,2442.0663,N,08042.8011,W,1,8,2.0,24,M,,M,,*53
06/08/2014	03:03:30.959	$GPGGA,030329,2442.0664,N,08042.8007,W,1,8,2.0,24,M,,M,,*52
06/08/2014	03:03:31.973	$GPGGA,030330,2442.0663,N,08042.8004,W,1,8,2.0,24,M,,M,,*5E
06/08/2014	03:03:32.913	$GPGGA,030331,2442.0662,N,08042.8000,W,1,8,2.0,24,M,,M,,*5A
06/08/2014	03:03:33.969	$GPGGA,030332,2442.0661,N,08042.7997,W,1,8,1.5,24,M,,M,,*54
06/08/2014	03:03:34.994	$GPGGA,030333,2442.0661,N,08042.7993,W,1,9,1.5,24,M,,M,,*50
06/08/2014	03:03:36.143	$GPGGA,030334,2442.0661,N,08042.7989,W,1,9,1.5,24,M,,M,,*5C
06/08/2014	03:03:37.187	$GPGGA,030335,2442.0661,N,08042.7985,W,1,9,1.5,24,M,,M,,*51
06/08/2014	03:03:38.242	$GPGGA,030336,2442.0661,N,08042.7981,W,1,9,1.5,24,M,,M,,*56
06/08/2014	03:03:39.277	$GPGGA,030337,2442.0663,N,08042.7977,W,1,9,1.5,24,M,,M,,*5C
06/08/2014	03:03:40.301	$GPGGA,030338,2442.0664,N,08042.7973,W,1,9,2.0,24,M,,M,,*56
06/08/2014	03:03:38.673	$GPGGA,030339,2442.0665,N,08042.7969,W,1,8,2.0,24,M,,M,,*5C
06/08/2014	03:03:39.682	$GPGGA,030340,2442.0665,N,08042.7966,W,1,8,2.0,24,M,,M,,*5D
06/08/2014	03:03:40.699	$GPGGA,030341,2442.0665,N,08042.7960,W,1,8,1.5,24,M,,M,,*5C
06/08/2014	03:03:41.717	$GPGGA,030342,2442.0665,N,08042.7956,W,1,8,1.5,25,M,,M,,*5B
06/08/2014	03:03:42.735	$GPGGA,030343,2442.0667,N,08042.7951,W,1,9,1.5,25,M,,M,,*5E
06/08/2014	03:03:43.786	$GPGGA,030344,2442.0668,N,08042.7946,W,1,9,1.5,25,M,,M,,*50
06/08/2014	03:03:44.740	$GPGGA,030345,2442.0667,N,08042.7941,W,1,9,1.5,25,M,,M,,*59
06/08/2014	03:03:45.768	$GPGGA,030346,2442.0668,N,08042.7937,W,1,9,1.5,25,M,,M,,*54
06/08/2014	03:03:46.796	$GPGGA,030347,2442.0668,N,08042.7932,W,1,9,1.5,25,M,,M,,*50
06/08/2014	03:03:47.814	$GPGGA,030348,2442.0669,N,08042.7928,W,1,9,1.5,25,M,,M,,*55
06/08/2014	03:03:48.811	$GPGGA,030349,2442.0669,N,08042.7924,W,1,9,1.5,25,M,,M,,*58
06/08/2014	03:03:49.829	$GPGGA,030350,2442.0671,N,08042.7919,W,1,9,1.5,25,M,,M,,*57
06/08/2014	03:03:50.857	$GPGGA,030351,2442.0670,N,08042.7915,W,1,9,1.5,25,M,,M,,*5B
06/08/2014	03:03:51.884	$GPGGA,030352,2442.0671,N,08042.7910,W,1,9,1.5,25,M,,M,,*5C
06/08/2014	03:03:52.902	$GPGGA,030353,2442.0672,N,08042.7906,W,1,9,1.5,25,M,,M,,*59
06/08/2014	03:03:53.889	$GPGGA,030354,2442.0672,N,08042.7902,W,1,9,1.5,25,M,,M,,*5A
06/08/2014	03:03:54.897	$GPGGA,030355,2442.0674,N,08042.7898,W,1,9,1.5,25,M,,M,,*5F
06/08/2014	03:03:55.935	$GPGGA,030356,2442.0673,N,08042.7893,W,1,9,1.5,25,M,,M,,*50
06/08/2014	03:03:56.932	$GPGGA,030357,2442.0675,N,08042.7889,W,1,9,1.5,25,M,,M,,*5C
06/08/2014	03:03:57.960	$GPGGA,030358,2442.0675,N,08042.7889,W,1,9,1.5,25,M,,M,,*53
06/08/2014	03:03:58.989	$GPGGA,030359,2442.0676,N,08042.7880,W,1,9,1.5,25,M,,M,,*58
06/08/2014	03:04:00.016	$GPGGA,030400,2442.0676,N,08042.7876,W,1,9,1.5,25,M,,M,,*5A
06/08/2014	03:04:00.994	$GPGGA,030401,2442.0676,N,08042.7871,W,1,9,1.5,25,M,,M,,*5C
06/08/2014	03:04:02.021	$GPGGA,030402,2442.0676,N,08042.7867,W,1,9,1.5,25,M,,M,,*58
06/08/2014	03:04:03.024	$GPGGA,030403,2442.0676,N,08042.7862,W,1,9,1.5,25,M,,M,,*5C
06/08/2014	03:04:04.083	$GPGGA,030404,2442.0676,N,08042.7858,W,1,9,1.5,25,M,,M,,*52
06/08/2014	03:04:05.170	$GPGGA,030405,2442.0678,N,08042.7853,W,1,9,1.5,25,M,,M,,*56
06/08/2014	03:04:06.075	$GPGGA,030406,2442.0677,N,08042.7849,W,1,9,1.5,25,M,,M,,*51
06/08/2014	03:04:07.127	$GPGGA,030407,2442.0678,N,08042.7844,W,1,9,1.5,25,M,,M,,*52
06/08/2014	03:04:08.146	$GPGGA,030408,2442.0677,N,08042.7840,W,1,9,1.5,25,M,,M,,*56
06/08/2014	03:04:09.152	$GPGGA,030409,2442.0679,N,08042.7835,W,1,9,1.5,25,M,,M,,*5B
06/08/2014	03:04:10.224	$GPGGA,030410,2442.0678,N,08042.7831,W,1,9,1.5,25,M,,M,,*56
06/08/2014	03:04:11.199	$GPGGA,030411,2442.0679,N,08042.7826,W,1,9,1.5,25,M,,M,,*50
06/08/2014	03:04:12.198	$GPGGA,030412,2442.0679,N,08042.7822,W,1,9,1.5,25,M,,M,,*57
06/08/2014	03:04:13.208	$GPGGA,030413,2442.0679,N,08042.7818,W,1,9,1.5,24,M,,M,,*5E
06/08/2014	03:04:14.295	$GPGGA,030414,2442.0679,N,08042.7813,W,1,9,1.5,24,M,,M,,*52
06/08/2014	03:04:15.313	$GPGGA,030415,2442.0679,N,08042.7809,W,1,9,1.5,24,M,,M,,*58
06/08/2014	03:04:16.341	$GPGGA,030416,2442.0681,N,08042.7804,W,1,9,1.5,24,M,,M,,*51
06/08/2014	03:04:17.372	$GPGGA,030417,2442.0680,N,08042.7800,W,1,9,1.5,24,M,,M,,*55
06/08/2014	03:04:18.274	$GPGGA,030418,2442.0681,N,08042.7796,W,1,9,1.5,24,M,,M,,*5B
06/08/2014	03:04:19.292	$GPGGA,030419,2442.0680,N,08042.7791,W,1,9,1.5,24,M,,M,,*5C
06/08/2014	03:04:20.402	$GPGGA,030420,2442.0681,N,08042.7787,W,1,9,1.5,24,M,,M,,*50
06/08/2014	03:04:21.419	$GPGGA,030421,2442.0680,N,08042.7783,W,1,9,1.5,24,M,,M,,*54
06/08/2014	03:04:22.427	$GPGGA,030422,2442.0681,N,08042.7778,W,1,9,1.5,24,M,,M,,*52
06/08/2014	03:04:23.445	$GPGGA,030423,2442.0682,N,08042.7774,W,1,9,1.5,24,M,,M,,*5C
06/08/2014	03:04:24.473	$GPGGA,030424,2442.0681,N,08042.7770,W,1,9,1.5,24,M,,M,,*5C
06/08/2014	03:04:25.491	$GPGGA,030425,2442.0682,N,08042.7765,W,1,9,1.5,24,M,,M,,*5A
06/08/2014	03:04:26.478	$GPGGA,030426,2442.0681,N,08042.7761,W,1,9,1.5,24,M,,M,,*5E
06/08/2014	03:04:27.525	$GPGGA,030427,2442.0680,N,08042.7756,W,1,9,1.5,24,M,,M,,*5A
06/08/2014	03:04:28.533	$GPGGA,030428,2442.0681,N,08042.7751,W,1,9,1.5,23,M,,M,,*54
06/08/2014	03:04:29.530	$GPGGA,030429,2442.0680,N,08042.7747,W,1,9,1.8,23,M,,M,,*5E
06/08/2014	03:04:30.538	$GPGGA,030430,2442.0679,N,08042.7743,W,1,9,1.8,23,M,,M,,*54
06/08/2014	03:04:31.586	$GPGGA,030431,2442.0678,N,08042.7740,W,1,9,1.5,23,M,,M,,*5A
06/08/2014	03:04:32.594	$GPGGA,030432,2442.0677,N,08042.7736,W,1,9,1.5,23,M,,M,,*57
06/08/2014	03:04:33.591	$GPGGA,030433,2442.0676,N,08042.7732,W,1,9,1.5,23,M,,M,,*53
06/08/2014	03:04:34.619	$GPGGA,030434,2442.0676,N,08042.7728,W,1,9,1.5,23,M,,M,,*5F
06/08/2014	03:04:35.657	$GPGGA,030435,2442.0676,N,08042.7724,W,1,9,1.5,23,M,,M,,*52
06/08/2014	03:04:36.645	$GPGGA,030436,2442.0673,N,08042.7720,W,1,9,1.5,23,M,,M,,*50
06/08/2014	03:04:37.683	$GPGGA,030437,2442.0674,N,08042.7716,W,1,9,1.5,23,M,,M,,*53
06/08/2014	03:04:38.670	$GPGGA,030438,2442.0672,N,08042.7711,W,1,9,1.5,23,M,,M,,*5D
06/08/2014	03:04:38.625	$GPGGA,030439,2442.0672,N,08042.7707,W,1,9,1.5,23,M,,M,,*5B
06/08/2014	03:04:39.623	$GPGGA,030440,2442.0672,N,08042.7703,W,1,9,1.5,23,M,,M,,*51
06/08/2014	03:04:40.641	$GPGGA,030441,2442.0670,N,08042.7698,W,1,9,1.5,23,M,,M,,*51
06/08/2014	03:04:41.638	$GPGGA,030442,2442.0669,N,08042.7694,W,1,9,1.5,23,M,,M,,*56
06/08/2014	03:04:42.656	$GPGGA,030443,2442.0668,N,08042.7690,W,1,9,1.5,23,M,,M,,*52
06/08/2014	03:04:43.694	$GPGGA,030444,2442.0667,N,08042.7686,W,1,9,1.5,23,M,,M,,*5D
06/08/2014	03:04:44.680	$GPGGA,030445,2442.0666,N,08042.7682,W,1,9,1.5,23,M,,M,,*59
06/08/2014	03:04:45.698	$GPGGA,030446,2442.0665,N,08042.7677,W,1,9,1.5,23,M,,M,,*53
06/08/2014	03:04:46.716	$GPGGA,030447,2442.0667,N,08042.7676,W,1,8,1.6,23,M,,M,,*53
06/08/2014	03:04:47.754	$GPGGA,030448,2442.0666,N,08042.7674,W,1,8,2.1,23,M,,M,,*5B
06/08/2014	03:04:48.751	$GPGGA,030449,2442.0667,N,08042.7671,W,1,8,2.1,23,M,,M,,*5E
06/08/2014	03:04:49.779	$GPGGA,030450,2442.0665,N,08042.7666,W,1,8,2.1,23,M,,M,,*52
06/08/2014	03:04:50.818	$GPGGA,030451,2442.0665,N,08042.7662,W,1,8,1.8,23,M,,M,,*5D
06/08/2014	03:04:51.815	$GPGGA,030452,2442.0662,N,08042.7657,W,1,8,1.8,23,M,,M,,*5F
06/08/2014	03:04:52.833	$GPGGA,030453,2442.0663,N,08042.7653,W,1,9,1.5,23,M,,M,,*57
06/08/2014	03:04:53.840	$GPGGA,030454,2442.0661,N,08042.7648,W,1,9,1.5,23,M,,M,,*58
06/08/2014	03:04:54.960	$GPGGA,030455,2442.0659,N,08042.7645,W,1,9,1.5,23,M,,M,,*5F
06/08/2014	03:04:55.989	$GPGGA,030456,2442.0656,N,08042.7638,W,1,9,2.1,23,M,,M,,*5E
06/08/2014	03:04:56.874	$GPGGA,030457,2442.0657,N,08042.7634,W,1,9,1.5,23,M,,M,,*55
06/08/2014	03:04:57.891	$GPGGA,030458,2442.0654,N,08042.7630,W,1,9,1.6,23,M,,M,,*5E
06/08/2014	03:04:59.001	$GPGGA,030459,2442.0654,N,08042.7628,W,1,8,1.6,23,M,,M,,*57
06/08/2014	03:04:59.957	$GPGGA,030500,2442.0656,N,08042.7626,W,1,8,1.5,23,M,,M,,*55
06/08/2014	03:05:01.086	$GPGGA,030501,2442.0657,N,08042.7622,W,1,9,1.5,23,M,,M,,*50
06/08/2014	03:05:01.951	$GPGGA,030502,2442.0656,N,08042.7618,W,1,9,2.0,23,M,,M,,*5D
06/08/2014	03:05:02.979	$GPGGA,030503,2442.0657,N,08042.7613,W,1,7,2.7,23,M,,M,,*5F
06/08/2014	03:05:03.997	$GPGGA,030504,2442.0654,N,08042.7608,W,1,7,1.5,23,M,,M,,*50
06/08/2014	03:05:05.139	$GPGGA,030505,2442.0654,N,08042.7603,W,1,9,1.5,24,M,,M,,*53
06/08/2014	03:05:06.124	$GPGGA,030506,2442.0652,N,08042.7600,W,1,9,1.5,24,M,,M,,*55
06/08/2014	03:05:07.132	$GPGGA,030507,2442.0651,N,08042.7595,W,1,8,2.1,24,M,,M,,*5E
06/08/2014	03:05:08.174	$GPGGA,030508,2442.0648,N,08042.7592,W,1,8,2.6,24,M,,M,,*59
06/08/2014	03:05:09.157	$GPGGA,030509,2442.0647,N,08042.7588,W,1,8,2.1,24,M,,M,,*5B
06/08/2014	03:05:10.185	$GPGGA,030510,2442.0645,N,08042.7583,W,1,8,1.5,24,M,,M,,*5D
06/08/2014	03:05:11.203	$GPGGA,030511,2442.0646,N,08042.7579,W,1,8,1.6,24,M,,M,,*59
06/08/2014	03:05:12.231	$GPGGA,030512,2442.0643,N,08042.7575,W,1,8,1.5,24,M,,M,,*50
06/08/2014	03:05:13.218	$GPGGA,030513,2442.0643,N,08042.7572,W,1,9,1.5,24,M,,M,,*57
06/08/2014	03:05:14.236	$GPGGA,030514,2442.0640,N,08042.7568,W,1,9,1.5,24,M,,M,,*58
06/08/2014	03:05:15.285	$GPGGA,030515,2442.0638,N,08042.7564,W,1,9,1.5,24,M,,M,,*5A
06/08/2014	03:05:16.282	$GPGGA,030516,2442.0636,N,08042.7561,W,1,9,1.5,24,M,,M,,*52
06/08/2014	03:05:17.320	$GPGGA,030517,2442.0634,N,08042.7558,W,1,9,1.5,24,M,,M,,*5B
06/08/2014	03:05:18.297	$GPGGA,030518,2442.0633,N,08042.7554,W,1,9,1.5,24,M,,M,,*5F
06/08/2014	03:05:19.346	$GPGGA,030519,2442.0631,N,08042.7550,W,1,9,1.5,25,M,,M,,*59
06/08/2014	03:05:20.342	$GPGGA,030520,2442.0629,N,08042.7547,W,1,9,1.5,25,M,,M,,*5C
06/08/2014	03:05:21.370	$GPGGA,030521,2442.0627,N,08042.7543,W,1,9,1.5,25,M,,M,,*57
06/08/2014	03:05:22.378	$GPGGA,030522,2442.0626,N,08042.7538,W,1,9,1.5,25,M,,M,,*59
06/08/2014	03:05:23.406	$GPGGA,030523,2442.0625,N,08042.7535,W,1,9,1.5,25,M,,M,,*56
06/08/2014	03:05:24.413	$GPGGA,030524,2442.0623,N,08042.7531,W,1,9,1.5,25,M,,M,,*53
06/08/2014	03:05:25.441	$GPGGA,030525,2442.0622,N,08042.7527,W,1,9,1.5,25,M,,M,,*54
06/08/2014	03:05:26.439	$GPGGA,030526,2442.0621,N,08042.7524,W,1,9,1.5,25,M,,M,,*57
06/08/2014	03:05:27.467	$GPGGA,030527,2442.0619,N,08042.7520,W,1,9,1.5,25,M,,M,,*59
06/08/2014	03:05:28.474	$GPGGA,030528,2442.0618,N,08042.7516,W,1,9,1.5,26,M,,M,,*51
06/08/2014	03:05:29.472	$GPGGA,030529,2442.0616,N,08042.7513,W,1,9,1.6,26,M,,M,,*58
06/08/2014	03:05:30.500	$GPGGA,030530,2442.0615,N,08042.7509,W,1,9,1.6,26,M,,M,,*58
06/08/2014	03:05:31.517	$GPGGA,030531,2442.0612,N,08042.7505,W,1,9,1.6,26,M,,M,,*52
06/08/2014	03:05:32.545	$GPGGA,030532,2442.0611,N,08042.7502,W,1,9,1.6,26,M,,M,,*55
06/08/2014	03:05:33.563	$GPGGA,030533,2442.0611,N,08042.7498,W,1,9,1.6,26,M,,M,,*56
06/08/2014	03:05:34.550	$GPGGA,030534,2442.0608,N,08042.7495,W,1,9,1.6,26,M,,M,,*54
06/08/2014	03:05:35.568	$GPGGA,030535,2442.0607,N,08042.7491,W,1,9,1.6,26,M,,M,,*5E
06/08/2014	03:05:36.606	$GPGGA,030536,2442.0604,N,08042.7488,W,1,9,1.6,26,M,,M,,*56
06/08/2014	03:05:37.715	$GPGGA,030537,2442.0603,N,08042.7484,W,1,9,1.6,26,M,,M,,*5C
06/08/2014	03:05:38.631	$GPGGA,030538,2442.0601,N,08042.7481,W,1,9,1.6,26,M,,M,,*54
06/08/2014	03:05:38.683	$GPGGA,030539,2442.0600,N,08042.7477,W,1,9,1.6,26,M,,M,,*5D
06/08/2014	03:05:39.599	$GPGGA,030540,2442.0597,N,08042.7474,W,1,9,1.6,26,M,,M,,*5D
06/08/2014	03:05:40.617	$GPGGA,030541,2442.0596,N,08042.7470,W,1,9,1.6,26,M,,M,,*59
06/08/2014	03:05:41.618	$GPGGA,030542,2442.0594,N,08042.7466,W,1,9,1.6,26,M,,M,,*5F
06/08/2014	03:05:42.643	$GPGGA,030543,2442.0592,N,08042.7463,W,1,9,1.6,26,M,,M,,*5D
06/08/2014	03:05:43.650	$GPGGA,030544,2442.0590,N,08042.7459,W,1,9,1.6,27,M,,M,,*50
06/08/2014	03:05:44.800	$GPGGA,030545,2442.0587,N,08042.7456,W,1,9,1.6,27,M,,M,,*58
06/08/2014	03:05:45.777	$GPGGA,030546,2442.0585,N,08042.7452,W,1,9,1.6,27,M,,M,,*5D
06/08/2014	03:05:46.785	$GPGGA,030547,2442.0583,N,08042.7449,W,1,9,1.6,27,M,,M,,*50
06/08/2014	03:05:47.733	$GPGGA,030548,2442.0582,N,08042.7445,W,1,9,1.6,27,M,,M,,*52
06/08/2014	03:05:48.851	$GPGGA,030549,2442.0578,N,08042.7441,W,1,9,1.6,27,M,,M,,*52
06/08/2014	03:05:49.747	$GPGGA,030550,2442.0576,N,08042.7438,W,1,9,1.6,27,M,,M,,*5A
06/08/2014	03:05:50.866	$GPGGA,030551,2442.0573,N,08042.7434,W,1,9,1.6,27,M,,M,,*52
06/08/2014	03:05:51.783	$GPGGA,030552,2442.0571,N,08042.7430,W,1,9,1.8,27,M,,M,,*59
06/08/2014	03:05:52.882	$GPGGA,030553,2442.0569,N,08042.7426,W,1,9,1.6,27,M,,M,,*58
06/08/2014	03:05:53.900	$GPGGA,030554,2442.0567,N,08042.7422,W,1,9,2.1,27,M,,M,,*51
06/08/2014	03:05:54.937	$GPGGA,030555,2442.0564,N,08042.7419,W,1,8,2.1,27,M,,M,,*5A
06/08/2014	03:05:55.944	$GPGGA,030556,2442.0562,N,08042.7416,W,1,8,1.6,26,M,,M,,*55
06/08/2014	03:05:56.952	$GPGGA,030557,2442.0560,N,08042.7413,W,1,8,1.6,26,M,,M,,*53
06/08/2014	03:05:57.970	$GPGGA,030558,2442.0560,N,08042.7411,W,1,8,1.6,26,M,,M,,*5E
06/08/2014	03:05:58.988	$GPGGA,030559,2442.0556,N,08042.7407,W,1,9,1.6,26,M,,M,,*5C
06/08/2014	03:06:00.015	$GPGGA,030600,2442.0553,N,08042.7403,W,1,9,1.6,26,M,,M,,*52
06/08/2014	03:06:01.003	$GPGGA,030601,2442.0550,N,08042.7399,W,1,9,1.6,26,M,,M,,*54
06/08/2014	03:06:02.021	$GPGGA,030602,2442.0549,N,08042.7395,W,1,9,2.1,26,M,,M,,*57
06/08/2014	03:06:03.049	$GPGGA,030603,2442.0546,N,08042.7390,W,1,7,2.6,26,M,,M,,*55
06/08/2014	03:06:04.077	$GPGGA,030604,2442.0543,N,08042.7386,W,1,7,2.6,26,M,,M,,*50
06/08/2014	03:06:05.094	$GPGGA,030605,2442.0540,N,08042.7380,W,1,7,2.6,26,M,,M,,*54
06/08/2014	03:06:06.089	$GPGGA,030606,2442.0538,N,08042.7374,W,1,7,2.3,26,M,,M,,*56
06/08/2014	03:06:07.120	$GPGGA,030607,2442.0535,N,08042.7370,W,1,8,2.0,26,M,,M,,*52
06/08/2014	03:06:08.138	$GPGGA,030608,2442.0533,N,08042.7366,W,1,8,2.0,26,M,,M,,*5C
06/08/2014	03:06:09.166	$GPGGA,030609,2442.0531,N,08042.7363,W,1,7,2.7,26,M,,M,,*52
06/08/2014	03:06:10.150	$GPGGA,030610,2442.0528,N,08042.7360,W,1,7,2.0,26,M,,M,,*56
06/08/2014	03:06:11.201	$GPGGA,030611,2442.0526,N,08042.7357,W,1,8,1.6,26,M,,M,,*57
06/08/2014	03:06:12.187	$GPGGA,030612,2442.0524,N,08042.7353,W,1,8,1.6,26,M,,M,,*52
06/08/2014	03:06:13.226	$GPGGA,030613,2442.0521,N,08042.7349,W,1,8,1.6,26,M,,M,,*5D
06/08/2014	03:06:14.213	$GPGGA,030614,2442.0517,N,08042.7344,W,1,8,2.9,26,M,,M,,*5E
06/08/2014	03:06:15.231	$GPGGA,030615,2442.0515,N,08042.7341,W,1,9,1.6,26,M,,M,,*55
06/08/2014	03:06:16.269	$GPGGA,030616,2442.0514,N,08042.7337,W,1,9,2.1,26,M,,M,,*52
06/08/2014	03:06:17.297	$GPGGA,030617,2442.0513,N,08042.7333,W,1,8,2.1,26,M,,M,,*51
06/08/2014	03:06:18.269	$GPGGA,030618,2442.0511,N,08042.7328,W,1,8,2.1,26,M,,M,,*56
06/08/2014	03:06:19.322	$GPGGA,030619,2442.0506,N,08042.7320,W,1,8,2.1,26,M,,M,,*59
06/08/2014	03:06:20.309	$GPGGA,030620,2442.0506,N,08042.7318,W,1,8,1.6,26,M,,M,,*5C
06/08/2014	03:06:21.348	$GPGGA,030621,2442.0504,N,08042.7315,W,1,8,1.8,26,M,,M,,*5C
06/08/2014	03:06:22.345	$GPGGA,030622,2442.0502,N,08042.7311,W,1,8,1.6,26,M,,M,,*53
06/08/2014	03:06:23.363	$GPGGA,030623,2442.0499,N,08042.7307,W,1,9,1.6,26,M,,M,,*57
06/08/2014	03:06:24.391	$GPGGA,030624,2442.0496,N,08042.7303,W,1,9,1.6,26,M,,M,,*5B
06/08/2014	03:06:25.387	$GPGGA,030625,2442.0493,N,08042.7298,W,1,9,1.6,26,M,,M,,*5C
06/08/2014	03:06:26.408	$GPGGA,030626,2442.0490,N,08042.7293,W,1,9,1.6,26,M,,M,,*57
06/08/2014	03:06:27.430	$GPGGA,030627,2442.0488,N,08042.7288,W,1,8,2.1,26,M,,M,,*50
06/08/2014	03:06:28.462	$GPGGA,030628,2442.0485,N,08042.7283,W,1,8,2.1,26,M,,M,,*59
06/08/2014	03:06:29.439	$GPGGA,030629,2442.0482,N,08042.7278,W,1,8,2.1,26,M,,M,,*5B
06/08/2014	03:06:30.466	$GPGGA,030630,2442.0479,N,08042.7273,W,1,8,2.1,26,M,,M,,*5C
06/08/2014	03:06:31.667	$GPGGA,030631,2442.0477,N,08042.7267,W,1,8,1.6,26,M,,M,,*52
06/08/2014	03:06:32.603	$GPGGA,030632,2442.0474,N,08042.7261,W,1,8,1.6,26,M,,M,,*54
06/08/2014	03:06:33.601	$GPGGA,030633,2442.0471,N,08042.7255,W,1,9,1.6,26,M,,M,,*56
06/08/2014	03:06:34.552	$GPGGA,030634,2442.0470,N,08042.7251,W,1,9,1.6,26,M,,M,,*54
06/08/2014	03:06:35.545	$GPGGA,030635,2442.0466,N,08042.7244,W,1,8,2.1,26,M,,M,,*53
06/08/2014	03:06:36.664	$GPGGA,030636,2442.0462,N,08042.7235,W,1,8,1.6,26,M,,M,,*56
06/08/2014	03:06:37.764	$GPGGA,030637,2442.0459,N,08042.7229,W,1,9,1.6,26,M,,M,,*53
06/08/2014	03:06:38.720	$GPGGA,030638,2442.0456,N,08042.7224,W,1,9,1.6,26,M,,M,,*5E
06/08/2014	03:06:38.753	$GPGGA,030639,2442.0454,N,08042.7219,W,1,9,1.6,26,M,,M,,*53
06/08/2014	03:06:39.695	$GPGGA,030640,2442.0452,N,08042.7213,W,1,9,1.6,26,M,,M,,*51
06/08/2014	03:06:40.768	$GPGGA,030641,2442.0448,N,08042.7204,W,1,8,1.6,26,M,,M,,*5C
06/08/2014	03:06:41.704	$GPGGA,030642,2442.0443,N,08042.7196,W,1,8,1.6,26,M,,M,,*5C
06/08/2014	03:06:42.783	$GPGGA,030643,2442.0441,N,08042.7189,W,1,9,1.6,26,M,,M,,*50
06/08/2014	03:06:43.719	$GPGGA,030644,2442.0437,N,08042.7183,W,1,9,1.6,26,M,,M,,*5C
06/08/2014	03:06:44.839	$GPGGA,030645,2442.0435,N,08042.7176,W,1,9,1.6,26,M,,M,,*55
06/08/2014	03:06:45.745	$GPGGA,030646,2442.0434,N,08042.7171,W,1,9,1.6,26,M,,M,,*50
06/08/2014	03:06:46.864	$GPGGA,030647,2442.0431,N,08042.7166,W,1,9,1.6,27,M,,M,,*53
06/08/2014	03:06:47.834	$GPGGA,030648,2442.0430,N,08042.7161,W,1,9,1.6,27,M,,M,,*5A
06/08/2014	03:06:48.899	$GPGGA,030649,2442.0427,N,08042.7155,W,1,8,2.1,27,M,,M,,*5F
06/08/2014	03:06:49.805	$GPGGA,030650,2442.0425,N,08042.7150,W,1,8,1.6,27,M,,M,,*54
06/08/2014	03:06:50.813	$GPGGA,030651,2442.0424,N,08042.7144,W,1,9,1.6,27,M,,M,,*50
06/08/2014	03:06:51.894	$GPGGA,030652,2442.0423,N,08042.7138,W,1,9,1.6,27,M,,M,,*5F
06/08/2014	03:06:52.848	$GPGGA,030653,2442.0419,N,08042.7132,W,1,9,1.6,27,M,,M,,*5D
06/08/2014	03:06:53.896	$GPGGA,030654,2442.0417,N,08042.7126,W,1,9,1.6,27,M,,M,,*51
06/08/2014	03:06:54.996	$GPGGA,030655,2442.0415,N,08042.7120,W,1,9,1.6,27,M,,M,,*54
06/08/2014	03:06:55.942	$GPGGA,030656,2442.0413,N,08042.7114,W,1,9,1.6,27,M,,M,,*56
06/08/2014	03:06:57.021	$GPGGA,030657,2442.0412,N,08042.7108,W,1,9,1.6,27,M,,M,,*5B
06/08/2014	03:06:57.957	$GPGGA,030658,2442.0410,N,08042.7102,W,1,9,1.6,27,M,,M,,*5C
06/08/2014	03:06:58.945	$GPGGA,030659,2442.0408,N,08042.7096,W,1,9,1.6,27,M,,M,,*58
06/08/2014	03:07:00.024	$GPGGA,030700,2442.0406,N,08042.7090,W,1,9,1.6,27,M,,M,,*5D
06/08/2014	03:07:01.102	$GPGGA,030701,2442.0405,N,08042.7083,W,1,9,1.6,27,M,,M,,*5D
06/08/2014	03:07:01.992	$GPGGA,030702,2442.0402,N,08042.7077,W,1,9,1.6,27,M,,M,,*52
06/08/2014	03:07:03.134	$GPGGA,030703,2442.0401,N,08042.7071,W,1,9,1.6,27,M,,M,,*56
06/08/2014	03:07:04.064	$GPGGA,030704,2442.0399,N,08042.7064,W,1,9,1.6,27,M,,M,,*53
06/08/2014	03:07:05.163	$GPGGA,030705,2442.0397,N,08042.7057,W,1,9,1.6,27,M,,M,,*5C
06/08/2014	03:07:06.091	$GPGGA,030706,2442.0395,N,08042.7051,W,1,9,1.6,27,M,,M,,*5B
06/08/2014	03:07:07.074	$GPGGA,030707,2442.0394,N,08042.7044,W,1,9,1.6,27,M,,M,,*5F
06/08/2014	03:07:08.145	$GPGGA,030708,2442.0391,N,08042.7038,W,1,9,1.6,27,M,,M,,*5E
06/08/2014	03:07:09.224	$GPGGA,030709,2442.0389,N,08042.7031,W,1,9,1.6,27,M,,M,,*5F
06/08/2014	03:07:10.145	$GPGGA,030710,2442.0388,N,08042.7024,W,1,9,1.6,27,M,,M,,*52
06/08/2014	03:07:11.229	$GPGGA,030711,2442.0387,N,08042.7018,W,1,9,1.6,26,M,,M,,*52
06/08/2014	03:07:12.185	$GPGGA,030712,2442.0384,N,08042.7011,W,1,9,1.6,26,M,,M,,*5B
06/08/2014	03:07:13.254	$GPGGA,030713,2442.0383,N,08042.7004,W,1,9,1.6,26,M,,M,,*59
06/08/2014	03:07:14.231	$GPGGA,030714,2442.0381,N,08042.6998,W,1,9,1.6,26,M,,M,,*51
06/08/2014	03:07:15.320	$GPGGA,030715,2442.0379,N,08042.6991,W,1,9,1.6,26,M,,M,,*5E
06/08/2014	03:07:16.257	$GPGGA,030716,2442.0377,N,08042.6984,W,1,9,1.6,26,M,,M,,*57
06/08/2014	03:07:17.315	$GPGGA,030717,2442.0376,N,08042.6977,W,1,9,1.6,26,M,,M,,*5B
06/08/2014	03:07:18.372	$GPGGA,030718,2442.0373,N,08042.6970,W,1,9,1.6,26,M,,M,,*56
06/08/2014	03:07:19.381	$GPGGA,030719,2442.0372,N,08042.6963,W,1,9,1.6,26,M,,M,,*54
06/08/2014	03:07:20.392	$GPGGA,030720,2442.0369,N,08042.6956,W,1,9,1.6,26,M,,M,,*52
06/08/2014	03:07:21.376	$GPGGA,030721,2442.0367,N,08042.6950,W,1,9,1.6,26,M,,M,,*5B
06/08/2014	03:07:22.413	$GPGGA,030722,2442.0366,N,08042.6943,W,1,9,1.6,26,M,,M,,*5B
06/08/2014	03:07:23.433	$GPGGA,030723,2442.0363,N,08042.6936,W,1,9,1.6,25,M,,M,,*5E
06/08/2014	03:07:24.459	$GPGGA,030724,2442.0362,N,08042.6929,W,1,9,1.6,25,M,,M,,*56
06/08/2014	03:07:25.446	$GPGGA,030725,2442.0360,N,08042.6923,W,1,9,1.6,25,M,,M,,*5F
06/08/2014	03:07:26.464	$GPGGA,030726,2442.0358,N,08042.6916,W,1,9,1.6,25,M,,M,,*51
06/08/2014	03:07:27.526	$GPGGA,030727,2442.0356,N,08042.6909,W,1,9,1.6,25,M,,M,,*50
06/08/2014	03:07:28.537	$GPGGA,030728,2442.0354,N,08042.6902,W,1,9,1.6,25,M,,M,,*56
06/08/2014	03:07:29.548	$GPGGA,030729,2442.0352,N,08042.6896,W,1,9,1.6,25,M,,M,,*5D
06/08/2014	03:07:30.535	$GPGGA,030730,2442.0350,N,08042.6889,W,1,9,1.6,25,M,,M,,*59
06/08/2014	03:07:31.573	$GPGGA,030731,2442.0348,N,08042.6883,W,1,9,1.6,25,M,,M,,*5B
06/08/2014	03:07:32.581	$GPGGA,030732,2442.0347,N,08042.6876,W,1,9,1.6,25,M,,M,,*5D
06/08/2014	03:07:33.610	$GPGGA,030733,2442.0344,N,08042.6870,W,1,9,1.6,25,M,,M,,*59
06/08/2014	03:07:34.606	$GPGGA,030734,2442.0342,N,08042.6863,W,1,9,1.6,25,M,,M,,*5A
06/08/2014	03:07:35.634	$GPGGA,030735,2442.0340,N,08042.6856,W,1,9,1.6,25,M,,M,,*5F
06/08/2014	03:07:36.642	$GPGGA,030736,2442.0337,N,08042.6849,W,1,9,1.6,25,M,,M,,*52
06/08/2014	03:07:37.680	$GPGGA,030737,2442.0337,N,08042.6849,W,1,9,1.6,25,M,,M,,*53
06/08/2014	03:07:38.678	$GPGGA,030738,2442.0333,N,08042.6836,W,1,9,1.6,24,M,,M,,*51
06/08/2014	03:07:38.679	$GPGGA,030739,2442.0330,N,08042.6829,W,1,9,1.6,24,M,,M,,*5D
06/08/2014	03:07:39.645	$GPGGA,030740,2442.0329,N,08042.6823,W,1,9,1.6,24,M,,M,,*51
06/08/2014	03:07:40.714	$GPGGA,030741,2442.0326,N,08042.6816,W,1,9,1.6,24,M,,M,,*59
06/08/2014	03:07:41.651	$GPGGA,030742,2442.0324,N,08042.6810,W,1,9,1.6,24,M,,M,,*5E
06/08/2014	03:07:42.729	$GPGGA,030743,2442.0322,N,08042.6803,W,1,9,1.6,24,M,,M,,*5B
06/08/2014	03:07:43.737	$GPGGA,030744,2442.0319,N,08042.6797,W,1,9,1.6,24,M,,M,,*56
06/08/2014	03:07:44.779	$GPGGA,030745,2442.0316,N,08042.6789,W,1,9,1.6,24,M,,M,,*57
06/08/2014	03:07:45.722	$GPGGA,030746,2442.0314,N,08042.6783,W,1,9,1.6,24,M,,M,,*5C
06/08/2014	03:07:46.851	$GPGGA,030747,2442.0312,N,08042.6776,W,1,9,1.6,24,M,,M,,*51
06/08/2014	03:07:47.767	$GPGGA,030748,2442.0309,N,08042.6770,W,1,9,1.6,24,M,,M,,*52
06/08/2014	03:07:48.805	$GPGGA,030749,2442.0309,N,08042.6770,W,1,9,1.6,24,M,,M,,*53
06/08/2014	03:07:49.783	$GPGGA,030750,2442.0304,N,08042.6756,W,1,9,1.6,24,M,,M,,*52
06/08/2014	03:07:50.811	$GPGGA,030751,2442.0304,N,08042.6756,W,1,9,1.6,24,M,,M,,*53
06/08/2014	03:07:51.838	$GPGGA,030752,2442.0300,N,08042.6743,W,1,9,1.6,24,M,,M,,*50
06/08/2014	03:07:52.887	$GPGGA,030753,2442.0300,N,08042.6743,W,1,9,1.6,24,M,,M,,*51
06/08/2014	03:07:53.833	$GPGGA,030754,2442.0294,N,08042.6729,W,1,9,1.6,23,M,,M,,*51
06/08/2014	03:07:54.872	$GPGGA,030755,2442.0294,N,08042.6729,W,1,9,1.6,23,M,,M,,*50
06/08/2014	03:07:55.901	$GPGGA,030756,2442.0289,N,08042.6716,W,1,9,1.6,23,M,,M,,*53
06/08/2014	03:07:56.947	$GPGGA,030757,2442.0286,N,08042.6709,W,1,9,1.6,23,M,,M,,*53
06/08/2014	03:07:57.944	$GPGGA,030758,2442.0284,N,08042.6703,W,1,9,2.1,23,M,,M,,*50
06/08/2014	03:07:58.932	$GPGGA,030759,2442.0284,N,08042.6703,W,1,8,2.1,23,M,,M,,*50
06/08/2014	03:07:59.990	$GPGGA,030800,2442.0278,N,08042.6689,W,1,8,1.6,23,M,,M,,*57
06/08/2014	03:08:01.018	$GPGGA,030801,2442.0276,N,08042.6682,W,1,9,1.6,23,M,,M,,*52
06/08/2014	03:08:01.985	$GPGGA,030802,2442.0275,N,08042.6676,W,1,9,1.6,23,M,,M,,*59
06/08/2014	03:08:03.122	$GPGGA,030803,2442.0271,N,08042.6669,W,1,9,1.6,23,M,,M,,*52
06/08/2014	03:08:04.015	$GPGGA,030804,2442.0268,N,08042.6662,W,1,9,1.7,23,M,,M,,*57
06/08/2014	03:08:05.140	$GPGGA,030805,2442.0268,N,08042.6662,W,1,9,1.6,23,M,,M,,*57
06/08/2014	03:08:06.146	$GPGGA,030806,2442.0262,N,08042.6650,W,1,9,1.6,23,M,,M,,*5F
06/08/2014	03:08:07.135	$GPGGA,030807,2442.0260,N,08042.6643,W,1,8,1.7,23,M,,M,,*5E
06/08/2014	03:08:08.194	$GPGGA,030808,2442.0257,N,08042.6636,W,1,8,1.7,23,M,,M,,*57
06/08/2014	03:08:09.211	$GPGGA,030809,2442.0254,N,08042.6629,W,1,8,1.7,23,M,,M,,*5B
06/08/2014	03:08:10.199	$GPGGA,030810,2442.0251,N,08042.6624,W,1,8,1.7,23,M,,M,,*5B
06/08/2014	03:08:11.186	$GPGGA,030811,2442.0251,N,08042.6624,W,1,9,1.6,23,M,,M,,*5A
06/08/2014	03:08:12.147	$GPGGA,030812,2442.0246,N,08042.6609,W,1,9,1.6,23,M,,M,,*50
06/08/2014	03:08:13.277	$GPGGA,030813,2442.0242,N,08042.6602,W,1,8,1.6,23,M,,M,,*5F
06/08/2014	03:08:14.260	$GPGGA,030814,2442.0240,N,08042.6595,W,1,8,1.6,23,M,,M,,*57
06/08/2014	03:08:15.266	$GPGGA,030815,2442.0238,N,08042.6592,W,1,8,1.6,23,M,,M,,*5E
06/08/2014	03:08:16.304	$GPGGA,030816,2442.0236,N,08042.6587,W,1,8,1.6,22,M,,M,,*56
06/08/2014	03:08:17.312	$GPGGA,030817,2442.0235,N,08042.6581,W,1,9,1.6,22,M,,M,,*53
06/08/2014	03:08:18.320	$GPGGA,030818,2442.0232,N,08042.6575,W,1,9,1.6,22,M,,M,,*50
06/08/2014	03:08:19.327	$GPGGA,030819,2442.0230,N,08042.6571,W,1,9,1.6,22,M,,M,,*57
06/08/2014	03:08:20.365	$GPGGA,030820,2442.0228,N,08042.6566,W,1,9,1.6,22,M,,M,,*52
06/08/2014	03:08:21.393	$GPGGA,030821,2442.0226,N,08042.6562,W,1,9,1.6,22,M,,M,,*59
06/08/2014	03:08:22.411	$GPGGA,030822,2442.0225,N,08042.6557,W,1,9,1.6,22,M,,M,,*5F
06/08/2014	03:08:23.419	$GPGGA,030823,2442.0224,N,08042.6553,W,1,9,1.6,22,M,,M,,*5B
06/08/2014	03:08:24.426	$GPGGA,030824,2442.0221,N,08042.6548,W,1,9,1.6,22,M,,M,,*53
06/08/2014	03:08:25.454	$GPGGA,030825,2442.0219,N,08042.6543,W,1,9,1.6,22,M,,M,,*52
06/08/2014	03:08:26.442	$GPGGA,030826,2442.0217,N,08042.6538,W,1,9,1.6,22,M,,M,,*53
06/08/2014	03:08:27.518	$GPGGA,030827,2442.0217,N,08042.6538,W,1,9,1.6,22,M,,M,,*52
06/08/2014	03:08:28.477	$GPGGA,030828,2442.0211,N,08042.6527,W,1,9,1.6,22,M,,M,,*55
06/08/2014	03:08:29.526	$GPGGA,030829,2442.0210,N,08042.6521,W,1,9,1.6,22,M,,M,,*53
06/08/2014	03:08:30.513	$GPGGA,030830,2442.0206,N,08042.6515,W,1,9,1.6,22,M,,M,,*5B
06/08/2014	03:08:31.551	$GPGGA,030831,2442.0204,N,08042.6509,W,1,8,1.6,21,M,,M,,*57
06/08/2014	03:08:32.558	$GPGGA,030832,2442.0201,N,08042.6503,W,1,8,1.6,21,M,,M,,*5B
06/08/2014	03:08:33.555	$GPGGA,030833,2442.0199,N,08042.6497,W,1,8,1.6,21,M,,M,,*54
06/08/2014	03:08:34.573	$GPGGA,030834,2442.0196,N,08042.6491,W,1,8,1.6,21,M,,M,,*5A
06/08/2014	03:08:35.611	$GPGGA,030835,2442.0193,N,08042.6485,W,1,8,1.6,21,M,,M,,*5B
06/08/2014	03:08:36.619	$GPGGA,030836,2442.0192,N,08042.6481,W,1,8,1.6,21,M,,M,,*5D
06/08/2014	03:08:37.658	$GPGGA,030837,2442.0189,N,08042.6476,W,1,9,1.6,21,M,,M,,*5F
06/08/2014	03:08:38.624	$GPGGA,030838,2442.0188,N,08042.6470,W,1,9,1.6,21,M,,M,,*57
06/08/2014	03:08:38.625	$GPGGA,030839,2442.0186,N,08042.6466,W,1,9,1.6,21,M,,M,,*5F
06/08/2014	03:08:39.604	$GPGGA,030840,2442.0184,N,08042.6461,W,1,9,1.6,21,M,,M,,*54
06/08/2014	03:08:40.612	$GPGGA,030841,2442.0182,N,08042.6456,W,1,9,1.6,21,M,,M,,*57
06/08/2014	03:08:41.589	$GPGGA,030842,2442.0181,N,08042.6451,W,1,9,1.6,20,M,,M,,*51
06/08/2014	03:08:42.597	$GPGGA,030843,2442.0178,N,08042.6446,W,1,9,1.6,20,M,,M,,*50
06/08/2014	03:08:43.747	$GPGGA,030844,2442.0177,N,08042.6440,W,1,9,1.6,20,M,,M,,*5E
06/08/2014	03:08:44.613	$GPGGA,030845,2442.0175,N,08042.6437,W,1,8,1.6,20,M,,M,,*5C
06/08/2014	03:08:45.632	$GPGGA,030846,2442.0173,N,08042.6432,W,1,8,1.6,20,M,,M,,*5C
06/08/2014	03:08:46.640	$GPGGA,030847,2442.0170,N,08042.6426,W,1,9,1.6,20,M,,M,,*5A
06/08/2014	03:08:47.758	$GPGGA,030848,2442.0167,N,08042.6419,W,1,9,1.6,20,M,,M,,*5F
06/08/2014	03:08:48.736	$GPGGA,030849,2442.0166,N,08042.6415,W,1,9,1.6,20,M,,M,,*53
06/08/2014	03:08:49.663	$GPGGA,030850,2442.0164,N,08042.6410,W,1,9,1.6,20,M,,M,,*5C
06/08/2014	03:08:50.761	$GPGGA,030851,2442.0161,N,08042.6405,W,1,8,1.6,20,M,,M,,*5D
06/08/2014	03:08:51.679	$GPGGA,030852,2442.0162,N,08042.6401,W,1,8,1.6,20,M,,M,,*59
06/08/2014	03:08:52.797	$GPGGA,030853,2442.0159,N,08042.6397,W,1,9,1.6,20,M,,M,,*59
06/08/2014	03:08:53.765	$GPGGA,030854,2442.0159,N,08042.6391,W,1,9,1.6,20,M,,M,,*58
06/08/2014	03:08:54.682	$GPGGA,030855,2442.0156,N,08042.6386,W,1,8,1.6,19,M,,M,,*5B
06/08/2014	03:08:55.801	$GPGGA,030856,2442.0155,N,08042.6383,W,1,8,1.6,19,M,,M,,*5E
06/08/2014	03:08:56.779	$GPGGA,030857,2442.0154,N,08042.6379,W,1,9,1.6,19,M,,M,,*5A
06/08/2014	03:08:57.706	$GPGGA,030858,2442.0153,N,08042.6375,W,1,9,1.6,19,M,,M,,*5E
06/08/2014	03:08:58.825	$GPGGA,030859,2442.0152,N,08042.6371,W,1,9,1.6,19,M,,M,,*5A
06/08/2014	03:08:59.823	$GPGGA,030900,2442.0149,N,08042.6366,W,1,9,1.6,19,M,,M,,*5B
06/08/2014	03:09:00.821	$GPGGA,030901,2442.0148,N,08042.6361,W,1,8,1.6,19,M,,M,,*5D
06/08/2014	03:09:01.819	$GPGGA,030902,2442.0148,N,08042.6357,W,1,8,1.6,19,M,,M,,*5B
06/08/2014	03:09:02.837	$GPGGA,030903,2442.0145,N,08042.6352,W,1,9,1.6,19,M,,M,,*53
06/08/2014	03:09:03.835	$GPGGA,030904,2442.0143,N,08042.6347,W,1,9,1.6,19,M,,M,,*56
06/08/2014	03:09:04.853	$GPGGA,030905,2442.0141,N,08042.6342,W,1,8,1.6,19,M,,M,,*51
06/08/2014	03:09:05.841	$GPGGA,030906,2442.0138,N,08042.6337,W,1,8,1.6,19,M,,M,,*5E
06/08/2014	03:09:06.868	$GPGGA,030907,2442.0137,N,08042.6332,W,1,9,1.6,19,M,,M,,*54
06/08/2014	03:09:07.866	$GPGGA,030908,2442.0135,N,08042.6327,W,1,9,1.6,19,M,,M,,*5D
06/08/2014	03:09:08.874	$GPGGA,030909,2442.0134,N,08042.6322,W,1,9,1.6,19,M,,M,,*58
06/08/2014	03:09:09.862	$GPGGA,030910,2442.0131,N,08042.6317,W,1,9,1.6,19,M,,M,,*53
06/08/2014	03:09:10.890	$GPGGA,030911,2442.0130,N,08042.6312,W,1,9,1.6,19,M,,M,,*56
06/08/2014	03:09:11.878	$GPGGA,030912,2442.0128,N,08042.6309,W,1,9,2.1,19,M,,M,,*52
06/08/2014	03:09:12.896	$GPGGA,030913,2442.0127,N,08042.6305,W,1,8,2.1,19,M,,M,,*51
06/08/2014	03:09:13.894	$GPGGA,030914,2442.0125,N,08042.6301,W,1,8,2.1,19,M,,M,,*50
06/08/2014	03:09:14.912	$GPGGA,030915,2442.0123,N,08042.6296,W,1,8,2.1,19,M,,M,,*58
06/08/2014	03:09:15.920	$GPGGA,030916,2442.0123,N,08042.6292,W,1,8,2.1,19,M,,M,,*5F
06/08/2014	03:09:16.918	$GPGGA,030917,2442.0121,N,08042.6287,W,1,8,2.1,18,M,,M,,*59
06/08/2014	03:09:17.916	$GPGGA,030918,2442.0119,N,08042.6282,W,1,8,2.1,18,M,,M,,*58
06/08/2014	03:09:18.904	$GPGGA,030919,2442.0117,N,08042.6276,W,1,8,2.1,18,M,,M,,*5C
06/08/2014	03:09:19.932	$GPGGA,030920,2442.0116,N,08042.6271,W,1,8,2.4,18,M,,M,,*55
06/08/2014	03:09:20.920	$GPGGA,030921,2442.0112,N,08042.6265,W,1,8,1.6,18,M,,M,,*54
06/08/2014	03:09:21.948	$GPGGA,030922,2442.0110,N,08042.6260,W,1,8,1.6,18,M,,M,,*50
06/08/2014	03:09:22.966	$GPGGA,030923,2442.0107,N,08042.6254,W,1,9,1.6,18,M,,M,,*51
06/08/2014	03:09:23.964	$GPGGA,030924,2442.0103,N,08042.6246,W,1,9,1.6,18,M,,M,,*51
06/08/2014	03:09:24.951	$GPGGA,030925,2442.0104,N,08042.6244,W,1,8,1.6,18,M,,M,,*54
06/08/2014	03:09:25.959	$GPGGA,030926,2442.0101,N,08042.6239,W,1,8,1.6,18,M,,M,,*58
06/08/2014	03:09:26.967	$GPGGA,030927,2442.0099,N,08042.6234,W,1,9,1.6,19,M,,M,,*54
06/08/2014	03:09:27.985	$GPGGA,030928,2442.0098,N,08042.6229,W,1,9,1.6,19,M,,M,,*56
06/08/2014	03:09:28.972	$GPGGA,030929,2442.0095,N,08042.6225,W,1,9,1.6,19,M,,M,,*56
06/08/2014	03:09:29.980	$GPGGA,030930,2442.0094,N,08042.6220,W,1,9,1.6,19,M,,M,,*5A
06/08/2014	03:09:30.999	$GPGGA,030931,2442.0091,N,08042.6216,W,1,9,1.6,19,M,,M,,*5B
06/08/2014	03:09:32.017	$GPGGA,030932,2442.0090,N,08042.6212,W,1,9,1.6,19,M,,M,,*5D
06/08/2014	03:09:33.004	$GPGGA,030933,2442.0088,N,08042.6208,W,1,9,1.6,19,M,,M,,*5E
06/08/2014	03:09:34.007	$GPGGA,030934,2442.0087,N,08042.6204,W,1,9,1.6,19,M,,M,,*5A
06/08/2014	03:09:35.031	$GPGGA,030935,2442.0085,N,08042.6200,W,1,9,1.6,19,M,,M,,*5D
06/08/2014	03:09:36.039	$GPGGA,030936,2442.0083,N,08042.6196,W,1,9,1.6,19,M,,M,,*54
06/08/2014	03:09:37.016	$GPGGA,030937,2442.0083,N,08042.6192,W,1,9,1.6,19,M,,M,,*51
06/08/2014	03:09:38.028	$GPGGA,030938,2442.0080,N,08042.6188,W,1,9,1.6,19,M,,M,,*56
06/08/2014	03:09:38.535	$GPGGA,030939,2442.0076,N,08042.6186,W,1,8,1.8,19,M,,M,,*5F
06/08/2014	03:09:39.674	$GPGGA,030940,2442.0074,N,08042.6181,W,1,8,1.6,20,M,,M,,*50
06/08/2014	03:09:40.692	$GPGGA,030941,2442.0072,N,08042.6177,W,1,9,1.6,20,M,,M,,*5F
06/08/2014	03:09:41.568	$GPGGA,030942,2442.0070,N,08042.6173,W,1,9,1.6,20,M,,M,,*5A
06/08/2014	03:09:42.576	$GPGGA,030943,2442.0069,N,08042.6168,W,1,9,1.6,20,M,,M,,*59
06/08/2014	03:09:43.675	$GPGGA,030944,2442.0067,N,08042.6164,W,1,9,1.6,20,M,,M,,*5C
06/08/2014	03:09:44.683	$GPGGA,030945,2442.0065,N,08042.6159,W,1,9,1.6,20,M,,M,,*51
06/08/2014	03:09:45.590	$GPGGA,030946,2442.0065,N,08042.6156,W,1,9,1.6,20,M,,M,,*5D
06/08/2014	03:09:46.699	$GPGGA,030947,2442.0063,N,08042.6151,W,1,9,1.6,20,M,,M,,*5D
06/08/2014	03:09:47.717	$GPGGA,030948,2442.0061,N,08042.6146,W,1,9,1.6,21,M,,M,,*57
06/08/2014	03:09:48.705	$GPGGA,030949,2442.0059,N,08042.6142,W,1,9,1.6,21,M,,M,,*59
06/08/2014	03:09:49.713	$GPGGA,030950,2442.0058,N,08042.6139,W,1,9,1.6,21,M,,M,,*5C
06/08/2014	03:09:50.711	$GPGGA,030951,2442.0056,N,08042.6135,W,1,9,1.6,21,M,,M,,*5F
06/08/2014	03:09:51.741	$GPGGA,030952,2442.0054,N,08042.6131,W,1,9,1.6,21,M,,M,,*5A
06/08/2014	03:09:52.737	$GPGGA,030953,2442.0056,N,08042.6126,W,1,9,1.6,21,M,,M,,*5F
06/08/2014	03:09:53.735	$GPGGA,030954,2442.0052,N,08042.6122,W,1,9,2.0,21,M,,M,,*5D
06/08/2014	03:09:54.753	$GPGGA,030955,2442.0051,N,08042.6117,W,1,9,1.6,21,M,,M,,*5C
06/08/2014	03:09:55.762	$GPGGA,030956,2442.0049,N,08042.6113,W,1,9,1.6,21,M,,M,,*52
06/08/2014	03:09:56.738	$GPGGA,030957,2442.0048,N,08042.6108,W,1,9,1.6,21,M,,M,,*58
06/08/2014	03:09:57.758	$GPGGA,030958,2442.0045,N,08042.6104,W,1,9,1.6,22,M,,M,,*55
06/08/2014	03:09:58.784	$GPGGA,030959,2442.0043,N,08042.6098,W,1,9,1.6,22,M,,M,,*56
06/08/2014	03:09:59.772	$GPGGA,031000,2442.0042,N,08042.6094,W,1,9,1.6,22,M,,M,,*5F
06/08/2014	03:10:00.769	$GPGGA,031001,2442.0040,N,08042.6091,W,1,9,1.6,22,M,,M,,*59
06/08/2014	03:10:01.777	$GPGGA,031002,2442.0038,N,08042.6086,W,1,9,1.6,22,M,,M,,*53
06/08/2014	03:10:02.816	$GPGGA,031003,2442.0037,N,08042.6081,W,1,9,1.6,22,M,,M,,*5A
06/08/2014	03:10:03.804	$GPGGA,031004,2442.0036,N,08042.6077,W,1,9,1.6,22,M,,M,,*55
06/08/2014	03:10:04.822	$GPGGA,031005,2442.0033,N,08042.6073,W,1,9,1.6,22,M,,M,,*55
06/08/2014	03:10:05.809	$GPGGA,031006,2442.0033,N,08042.6068,W,1,9,1.6,22,M,,M,,*5C
06/08/2014	03:10:06.807	$GPGGA,031007,2442.0033,N,08042.6064,W,1,9,1.6,22,M,,M,,*51
06/08/2014	03:10:07.836	$GPGGA,031008,2442.0033,N,08042.6059,W,1,9,2.0,22,M,,M,,*55
06/08/2014	03:10:08.813	$GPGGA,031009,2442.0033,N,08042.6054,W,1,9,1.6,22,M,,M,,*5C
06/08/2014	03:10:09.841	$GPGGA,031010,2442.0031,N,08042.6050,W,1,9,2.0,23,M,,M,,*56
06/08/2014	03:10:10.829	$GPGGA,031011,2442.0030,N,08042.6046,W,1,9,1.6,23,M,,M,,*54
06/08/2014	03:10:11.857	$GPGGA,031012,2442.0025,N,08042.6039,W,1,9,2.0,23,M,,M,,*5E
06/08/2014	03:10:12.855	$GPGGA,031013,2442.0028,N,08042.6035,W,1,7,2.4,23,M,,M,,*54
06/08/2014	03:10:13.843	$GPGGA,031014,2442.0026,N,08042.6031,W,1,7,1.6,23,M,,M,,*58
06/08/2014	03:10:14.861	$GPGGA,031015,2442.0025,N,08042.6026,W,1,8,2.0,23,M,,M,,*56
06/08/2014	03:10:15.880	$GPGGA,031016,2442.0024,N,08042.6022,W,1,8,2.0,23,M,,M,,*50
06/08/2014	03:10:16.886	$GPGGA,031017,2442.0022,N,08042.6018,W,1,8,2.0,24,M,,M,,*59
06/08/2014	03:10:17.867	$GPGGA,031018,2442.0019,N,08042.6012,W,1,8,2.0,24,M,,M,,*54
06/08/2014	03:10:18.882	$GPGGA,031019,2442.0018,N,08042.6008,W,1,9,1.6,24,M,,M,,*5B
06/08/2014	03:10:19.900	$GPGGA,031020,2442.0015,N,08042.6004,W,1,9,1.6,24,M,,M,,*50
06/08/2014	03:10:20.908	$GPGGA,031021,2442.0011,N,08042.5998,W,1,8,2.0,24,M,,M,,*5E
06/08/2014	03:10:21.886	$GPGGA,031022,2442.0011,N,08042.5994,W,1,8,2.4,24,M,,M,,*55
06/08/2014	03:10:23.015	$GPGGA,031023,2442.0011,N,08042.5991,W,1,8,2.0,24,M,,M,,*55
06/08/2014	03:10:23.922	$GPGGA,031024,2442.0011,N,08042.5988,W,1,8,2.0,24,M,,M,,*5A
06/08/2014	03:10:25.035	$GPGGA,031025,2442.0011,N,08042.5983,W,1,8,2.0,25,M,,M,,*51
06/08/2014	03:10:25.928	$GPGGA,031026,2442.0008,N,08042.5980,W,1,8,2.0,25,M,,M,,*59
06/08/2014	03:10:27.059	$GPGGA,031027,2442.0006,N,08042.5975,W,1,9,1.6,25,M,,M,,*58
06/08/2014	03:10:27.954	$GPGGA,031028,2442.0004,N,08042.5971,W,1,9,1.6,25,M,,M,,*51
06/08/2014	03:10:29.047	$GPGGA,031029,2442.0004,N,08042.5967,W,1,9,1.6,25,M,,M,,*57
06/08/2014	03:10:29.968	$GPGGA,031030,2442.0000,N,08042.5961,W,1,9,1.6,25,M,,M,,*5D
06/08/2014	03:10:30.948	$GPGGA,031031,2441.9996,N,08042.5957,W,1,7,1.9,25,M,,M,,*54
06/08/2014	03:10:31.956	$GPGGA,031032,2441.9994,N,08042.5951,W,1,7,1.8,25,M,,M,,*52
06/08/2014	03:10:33.065	$GPGGA,031033,2441.9987,N,08042.5944,W,1,7,1.9,25,M,,M,,*54
06/08/2014	03:10:34.086	$GPGGA,031034,2441.9982,N,08042.5937,W,1,7,3.8,25,M,,M,,*51
06/08/2014	03:10:35.117	$GPGGA,031035,2441.9975,N,08042.5930,W,1,6,3.8,25,M,,M,,*5E
06/08/2014	03:10:36.007	$GPGGA,031036,2441.9971,N,08042.5924,W,1,6,3.8,25,M,,M,,*5C
06/08/2014	03:10:37.130	$GPGGA,031037,2441.9965,N,08042.5918,W,1,6,3.8,25,M,,M,,*57
06/08/2014	03:10:38.003	$GPGGA,031038,2441.9959,N,08042.5912,W,1,6,3.8,25,M,,M,,*5D
06/08/2014	03:10:38.633	$GPGGA,031039,2441.9960,N,08042.5907,W,1,6,3.8,24,M,,M,,*53
06/08/2014	03:10:39.631	$GPGGA,031040,2441.9955,N,08042.5904,W,1,6,1.9,24,M,,M,,*5B
06/08/2014	03:10:40.639	$GPGGA,031041,2441.9953,N,08042.5900,W,1,8,2.1,24,M,,M,,*5D
06/08/2014	03:10:41.647	$GPGGA,031042,2441.9949,N,08042.5894,W,1,8,2.4,24,M,,M,,*5C
06/08/2014	03:10:42.665	$GPGGA,031043,2441.9947,N,08042.5891,W,1,8,1.6,24,M,,M,,*57
06/08/2014	03:10:43.663	$GPGGA,031044,2441.9946,N,08042.5887,W,1,8,1.6,23,M,,M,,*51
06/08/2014	03:10:44.671	$GPGGA,031045,2441.9943,N,08042.5883,W,1,9,1.6,23,M,,M,,*50
06/08/2014	03:10:45.648	$GPGGA,031046,2441.9940,N,08042.5879,W,1,9,1.6,23,M,,M,,*55
06/08/2014	03:10:46.677	$GPGGA,031047,2441.9939,N,08042.5875,W,1,9,1.6,23,M,,M,,*56
06/08/2014	03:10:47.685	$GPGGA,031048,2441.9936,N,08042.5869,W,1,9,1.6,23,M,,M,,*5B
06/08/2014	03:10:48.683	$GPGGA,031049,2441.9933,N,08042.5864,W,1,8,1.6,23,M,,M,,*53
06/08/2014	03:10:49.671	$GPGGA,031050,2441.9931,N,08042.5860,W,1,8,1.6,23,M,,M,,*5D
06/08/2014	03:10:50.678	$GPGGA,031051,2441.9929,N,08042.5856,W,1,8,1.6,23,M,,M,,*50
06/08/2014	03:10:51.706	$GPGGA,031052,2441.9928,N,08042.5853,W,1,8,1.6,23,M,,M,,*57
06/08/2014	03:10:52.693	$GPGGA,031053,2441.9928,N,08042.5850,W,1,9,1.6,23,M,,M,,*54
06/08/2014	03:10:53.701	$GPGGA,031054,2441.9928,N,08042.5847,W,1,9,1.6,23,M,,M,,*55
06/08/2014	03:10:54.709	$GPGGA,031055,2441.9926,N,08042.5845,W,1,9,1.6,23,M,,M,,*58
06/08/2014	03:10:55.727	$GPGGA,031056,2441.9925,N,08042.5842,W,1,9,1.6,23,M,,M,,*5F
06/08/2014	03:10:56.746	$GPGGA,031057,2441.9924,N,08042.5839,W,1,9,1.6,23,M,,M,,*53
06/08/2014	03:10:57.733	$GPGGA,031058,2441.9921,N,08042.5835,W,1,9,1.6,23,M,,M,,*55
06/08/2014	03:10:58.762	$GPGGA,031059,2441.9919,N,08042.5831,W,1,9,1.6,23,M,,M,,*5B
06/08/2014	03:10:59.770	$GPGGA,031100,2441.9917,N,08042.5827,W,1,9,1.6,24,M,,M,,*58
06/08/2014	03:11:00.757	$GPGGA,031101,2441.9914,N,08042.5824,W,1,9,1.6,24,M,,M,,*59
06/08/2014	03:11:01.755	$GPGGA,031102,2441.9912,N,08042.5820,W,1,9,1.6,24,M,,M,,*58
06/08/2014	03:11:02.743	$GPGGA,031103,2441.9910,N,08042.5816,W,1,9,1.6,24,M,,M,,*5E
06/08/2014	03:11:03.781	$GPGGA,031104,2441.9907,N,08042.5812,W,1,9,1.6,24,M,,M,,*5B
06/08/2014	03:11:04.810	$GPGGA,031105,2441.9906,N,08042.5807,W,1,9,1.6,24,M,,M,,*5F
06/08/2014	03:11:05.777	$GPGGA,031106,2441.9902,N,08042.5803,W,1,9,1.6,24,M,,M,,*5C
06/08/2014	03:11:06.795	$GPGGA,031107,2441.9900,N,08042.5799,W,1,9,1.6,24,M,,M,,*53
06/08/2014	03:11:07.803	$GPGGA,031108,2441.9897,N,08042.5794,W,1,9,1.6,24,M,,M,,*5E
06/08/2014	03:11:08.800	$GPGGA,031109,2441.9894,N,08042.5789,W,1,9,1.6,24,M,,M,,*50
06/08/2014	03:11:09.788	$GPGGA,031110,2441.9892,N,08042.5784,W,1,9,1.6,24,M,,M,,*53
06/08/2014	03:11:10.897	$GPGGA,031111,2441.9888,N,08042.5779,W,1,9,1.6,24,M,,M,,*5B
06/08/2014	03:11:11.935	$GPGGA,031112,2441.9883,N,08042.5774,W,1,9,1.6,24,M,,M,,*5E
06/08/2014	03:11:12.842	$GPGGA,031113,2441.9881,N,08042.5768,W,1,9,1.6,24,M,,M,,*50
06/08/2014	03:11:13.921	$GPGGA,031114,2441.9877,N,08042.5763,W,1,9,1.6,24,M,,M,,*55
06/08/2014	03:11:14.819	$GPGGA,031115,2441.9874,N,08042.5757,W,1,9,1.6,24,M,,M,,*50
06/08/2014	03:11:15.937	$GPGGA,031116,2441.9870,N,08042.5752,W,1,9,1.6,24,M,,M,,*52
06/08/2014	03:11:16.854	$GPGGA,031117,2441.9866,N,08042.5746,W,1,9,1.6,24,M,,M,,*51
06/08/2014	03:11:17.953	$GPGGA,031118,2441.9863,N,08042.5740,W,1,9,1.6,24,M,,M,,*5D
06/08/2014	03:11:18.991	$GPGGA,031119,2441.9859,N,08042.5734,W,1,9,1.6,24,M,,M,,*56
06/08/2014	03:11:19.989	$GPGGA,031120,2441.9854,N,08042.5727,W,1,9,1.6,24,M,,M,,*53
06/08/2014	03:11:20.987	$GPGGA,031121,2441.9849,N,08042.5721,W,1,9,1.6,24,M,,M,,*58
06/08/2014	03:11:21.955	$GPGGA,031122,2441.9845,N,08042.5714,W,1,9,1.6,24,M,,M,,*51
06/08/2014	03:11:22.993	$GPGGA,031123,2441.9839,N,08042.5707,W,1,9,1.6,24,M,,M,,*59
06/08/2014	03:11:23.991	$GPGGA,031124,2441.9834,N,08042.5700,W,1,9,1.6,24,M,,M,,*54
06/08/2014	03:11:24.989	$GPGGA,031125,2441.9828,N,08042.5692,W,1,9,1.6,24,M,,M,,*52
06/08/2014	03:11:25.997	$GPGGA,031126,2441.9823,N,08042.5686,W,1,9,1.6,24,M,,M,,*5F
06/08/2014	03:11:27.028	$GPGGA,031127,2441.9818,N,08042.5679,W,1,9,1.6,24,M,,M,,*56
06/08/2014	03:11:28.022	$GPGGA,031128,2441.9812,N,08042.5672,W,1,9,1.6,24,M,,M,,*58
06/08/2014	03:11:29.000	$GPGGA,031129,2441.9806,N,08042.5665,W,1,9,1.6,24,M,,M,,*5A
06/08/2014	03:11:30.008	$GPGGA,031130,2441.9799,N,08042.5656,W,1,9,1.6,23,M,,M,,*5C
06/08/2014	03:11:31.069	$GPGGA,031131,2441.9794,N,08042.5649,W,1,8,1.6,23,M,,M,,*5F
06/08/2014	03:11:32.044	$GPGGA,031132,2441.9787,N,08042.5641,W,1,8,1.6,23,M,,M,,*56
06/08/2014	03:11:33.068	$GPGGA,031133,2441.9780,N,08042.5633,W,1,9,1.6,23,M,,M,,*54
06/08/2014	03:11:34.040	$GPGGA,031134,2441.9774,N,08042.5625,W,1,9,1.6,23,M,,M,,*5F
06/08/2014	03:11:35.058	$GPGGA,031135,2441.9767,N,08042.5616,W,1,9,1.6,23,M,,M,,*5C
06/08/2014	03:11:36.056	$GPGGA,031136,2441.9760,N,08042.5608,W,1,9,1.6,23,M,,M,,*57
06/08/2014	03:11:37.053	$GPGGA,031137,2441.9753,N,08042.5599,W,1,9,1.6,23,M,,M,,*5D
06/08/2014	03:11:38.061	$GPGGA,031138,2441.9747,N,08042.5591,W,1,9,1.6,23,M,,M,,*5F
06/08/2014	03:11:38.580	$GPGGA,031139,2441.9740,N,08042.5582,W,1,9,1.6,23,M,,M,,*5B
06/08/2014	03:11:39.619	$GPGGA,031140,2441.9731,N,08042.5573,W,1,9,1.6,23,M,,M,,*5D
06/08/2014	03:11:40.617	$GPGGA,031141,2441.9724,N,08042.5564,W,1,8,1.6,23,M,,M,,*5F
06/08/2014	03:11:41.604	$GPGGA,031142,2441.9717,N,08042.5557,W,1,8,1.6,23,M,,M,,*5C
06/08/2014	03:11:42.633	$GPGGA,031143,2441.9711,N,08042.5549,W,1,9,1.6,23,M,,M,,*55
06/08/2014	03:11:43.629	$GPGGA,031144,2441.9704,N,08042.5541,W,1,9,1.6,23,M,,M,,*5E
06/08/2014	03:11:44.658	$GPGGA,031145,2441.9697,N,08042.5533,W,1,9,1.6,23,M,,M,,*51
06/08/2014	03:11:45.625	$GPGGA,031146,2441.9689,N,08042.5524,W,1,9,1.6,23,M,,M,,*5B
06/08/2014	03:11:46.675	$GPGGA,031147,2441.9682,N,08042.5514,W,1,8,1.6,23,M,,M,,*53
06/08/2014	03:11:47.672	$GPGGA,031148,2441.9673,N,08042.5505,W,1,8,1.6,23,M,,M,,*52
