Software Version Number: 1	Data File Format Number: 1	Build Version Number: 1	Error Count Since VI Started: 0	Manufacturer: Raytheon	 Model Number: RayMarine 120	 S/N: 	 Cal Date: 	 Wind Direction Offset: 0.00	 Slope (M)1: 0.00	 Offset (B)1: 0.00	 Slope (M)2: 0.00	 Offset (B)2: 0.00	 Slope (M)3: 0.00	 Offset (B)3: 0.00	 Slope (M)4: 0.00	 Offset (B)4: 0.00	 Slope (M)5: 0.00	 Offset (B)5: 0.00	 Slope (M)6: 0.00	 Offset (B)6: 0.00
Computer Date	Computer Time	GGA String
06/06/2014	10:00:00.567	$GPGGA,100001,2438.3592,N,08114.8997,W,1,9,1.5,14,M,,M,,*5B
06/06/2014	10:00:01.580	$GPGGA,100002,2438.3585,N,08114.9024,W,1,9,1.5,14,M,,M,,*5E
06/06/2014	10:00:02.564	$GPGGA,100003,2438.3579,N,08114.9048,W,1,9,1.5,14,M,,M,,*56
06/06/2014	10:00:03.537	$GPGGA,100004,2438.3573,N,08114.9073,W,1,9,1.5,14,M,,M,,*53
06/06/2014	10:00:04.591	$GPGGA,100005,2438.3566,N,08114.9100,W,1,9,1.5,14,M,,M,,*53
06/06/2014	10:00:05.595	$GPGGA,100006,2438.3560,N,08114.9126,W,1,9,1.5,14,M,,M,,*52
06/06/2014	10:00:06.587	$GPGGA,100007,2438.3555,N,08114.9151,W,1,9,1.5,14,M,,M,,*55
06/06/2014	10:00:07.611	$GPGGA,100008,2438.3548,N,08114.9177,W,1,9,1.5,15,M,,M,,*53
06/06/2014	10:00:08.634	$GPGGA,100009,2438.3541,N,08114.9203,W,1,9,1.5,15,M,,M,,*5B
06/06/2014	10:00:09.598	$GPGGA,100010,2438.3537,N,08114.9231,W,1,9,2.0,15,M,,M,,*55
06/06/2014	10:00:10.661	$GPGGA,100011,2438.3530,N,08114.9256,W,1,8,1.5,15,M,,M,,*55
06/06/2014	10:00:11.604	$GPGGA,100012,2438.3523,N,08114.9283,W,1,8,1.6,15,M,,M,,*5F
06/06/2014	10:00:12.598	$GPGGA,100013,2438.3519,N,08114.9311,W,1,8,1.6,15,M,,M,,*5D
06/06/2014	10:00:13.600	$GPGGA,100014,2438.3512,N,08114.9339,W,1,8,1.6,15,M,,M,,*5B
06/06/2014	10:00:14.634	$GPGGA,100015,2438.3506,N,08114.9366,W,1,8,1.6,15,M,,M,,*55
06/06/2014	10:00:15.607	$GPGGA,100016,2438.3501,N,08114.9393,W,1,8,1.6,15,M,,M,,*5B
06/06/2014	10:00:16.620	$GPGGA,100017,2438.3497,N,08114.9420,W,1,8,1.5,15,M,,M,,*58
06/06/2014	10:00:17.614	$GPGGA,100018,2438.3493,N,08114.9447,W,1,8,1.5,15,M,,M,,*52
06/06/2014	10:00:18.637	$GPGGA,100019,2438.3490,N,08114.9474,W,1,9,1.5,15,M,,M,,*51
06/06/2014	10:00:19.631	$GPGGA,100020,2438.3487,N,08114.9501,W,1,9,1.5,15,M,,M,,*5E
06/06/2014	10:00:20.644	$GPGGA,100021,2438.3483,N,08114.9528,W,1,9,1.5,15,M,,M,,*50
06/06/2014	10:00:21.607	$GPGGA,100022,2438.3479,N,08114.9556,W,1,9,1.5,15,M,,M,,*5F
06/06/2014	10:00:22.641	$GPGGA,100023,2438.3474,N,08114.9582,W,1,9,1.5,15,M,,M,,*5A
06/06/2014	10:00:23.634	$GPGGA,100024,2438.3470,N,08114.9610,W,1,9,1.5,15,M,,M,,*51
06/06/2014	10:00:24.648	$GPGGA,100025,2438.3465,N,08114.9636,W,1,9,1.5,15,M,,M,,*50
06/06/2014	10:00:25.611	$GPGGA,100026,2438.3461,N,08114.9662,W,1,9,1.5,15,M,,M,,*56
06/06/2014	10:00:26.634	$GPGGA,100027,2438.3461,N,08114.9662,W,1,9,1.5,15,M,,M,,*57
06/06/2014	10:00:27.638	$GPGGA,100028,2438.3452,N,08114.9715,W,1,9,1.5,15,M,,M,,*59
06/06/2014	10:00:28.691	$GPGGA,100029,2438.3452,N,08114.9715,W,1,9,1.5,15,M,,M,,*58
06/06/2014	10:00:29.624	$GPGGA,100030,2438.3444,N,08114.9767,W,1,9,1.5,15,M,,M,,*52
06/06/2014	10:00:30.667	$GPGGA,100031,2438.3438,N,08114.9794,W,1,9,1.6,15,M,,M,,*57
06/06/2014	10:00:31.650	$GPGGA,100032,2438.3432,N,08114.9820,W,1,9,1.5,15,M,,M,,*5D
06/06/2014	10:00:32.624	$GPGGA,100033,2438.3432,N,08114.9820,W,1,9,1.5,15,M,,M,,*5C
06/06/2014	10:00:33.627	$GPGGA,100034,2438.3422,N,08114.9874,W,1,9,1.5,15,M,,M,,*5B
06/06/2014	10:00:34.671	$GPGGA,100035,2438.3418,N,08114.9900,W,1,9,1.6,15,M,,M,,*52
06/06/2014	10:00:35.442	$GPGGA,100036,2438.3411,N,08114.9926,W,1,9,1.6,15,M,,M,,*5C
06/06/2014	10:00:36.425	$GPGGA,100037,2438.3411,N,08114.9926,W,1,9,1.5,15,M,,M,,*5E
06/06/2014	10:00:37.439	$GPGGA,100038,2438.3402,N,08114.9979,W,1,9,1.5,15,M,,M,,*59
06/06/2014	10:00:38.482	$GPGGA,100039,2438.3397,N,08115.0007,W,1,9,1.6,15,M,,M,,*58
06/06/2014	10:00:39.445	$GPGGA,100040,2438.3392,N,08115.0033,W,1,9,1.6,15,M,,M,,*54
06/06/2014	10:00:40.439	$GPGGA,100041,2438.3392,N,08115.0033,W,1,9,1.5,15,M,,M,,*56
06/06/2014	10:00:41.522	$GPGGA,100042,2438.3382,N,08115.0085,W,1,9,1.6,15,M,,M,,*5A
06/06/2014	10:00:42.456	$GPGGA,100043,2438.3382,N,08115.0085,W,1,8,1.6,15,M,,M,,*5A
06/06/2014	10:00:43.439	$GPGGA,100044,2438.3369,N,08115.0139,W,1,8,1.6,15,M,,M,,*5E
06/06/2014	10:00:44.432	$GPGGA,100045,2438.3369,N,08115.0139,W,1,8,1.6,15,M,,M,,*5F
06/06/2014	10:00:45.536	$GPGGA,100046,2438.3357,N,08115.0191,W,1,8,1.6,15,M,,M,,*53
06/06/2014	10:00:46.570	$GPGGA,100047,2438.3349,N,08115.0220,W,1,8,1.6,15,M,,M,,*54
06/06/2014	10:00:47.463	$GPGGA,100048,2438.3344,N,08115.0246,W,1,8,2.0,15,M,,M,,*53
06/06/2014	10:00:48.535	$GPGGA,100049,2438.3342,N,08115.0274,W,1,9,1.5,15,M,,M,,*52
06/06/2014	10:00:49.539	$GPGGA,100050,2438.3338,N,08115.0300,W,1,9,1.5,15,M,,M,,*55
06/06/2014	10:00:50.452	$GPGGA,100051,2438.3338,N,08115.0300,W,1,9,1.5,15,M,,M,,*54
06/06/2014	10:00:51.565	$GPGGA,100052,2438.3326,N,08115.0354,W,1,9,1.5,15,M,,M,,*59
06/06/2014	10:00:52.559	$GPGGA,100053,2438.3322,N,08115.0379,W,1,9,1.5,15,M,,M,,*53
06/06/2014	10:00:53.542	$GPGGA,100054,2438.3316,N,08115.0405,W,1,9,1.5,15,M,,M,,*5F
06/06/2014	10:00:54.576	$GPGGA,100055,2438.3310,N,08115.0431,W,1,9,1.5,15,M,,M,,*5F
06/06/2014	10:00:55.559	$GPGGA,100056,2438.3304,N,08115.0457,W,1,9,1.5,15,M,,M,,*59
06/06/2014	10:00:56.582	$GPGGA,100057,2438.3299,N,08115.0486,W,1,8,2.0,15,M,,M,,*56
06/06/2014	10:00:57.556	$GPGGA,100058,2438.3293,N,08115.0513,W,1,8,1.5,15,M,,M,,*58
06/06/2014	10:00:58.559	$GPGGA,100059,2438.3288,N,08115.0539,W,1,8,1.6,15,M,,M,,*58
06/06/2014	10:00:59.573	$GPGGA,100100,2438.3281,N,08115.0565,W,1,8,1.5,15,M,,M,,*56
06/06/2014	10:01:00.546	$GPGGA,100101,2438.3275,N,08115.0592,W,1,8,2.0,15,M,,M,,*52
06/06/2014	10:01:01.559	$GPGGA,100102,2438.3268,N,08115.0621,W,1,8,2.0,15,M,,M,,*56
06/06/2014	10:01:02.573	$GPGGA,100103,2438.3262,N,08115.0647,W,1,8,1.6,15,M,,M,,*58
06/06/2014	10:01:03.566	$GPGGA,100104,2438.3255,N,08115.0673,W,1,8,1.6,15,M,,M,,*5C
06/06/2014	10:01:04.580	$GPGGA,100105,2438.3249,N,08115.0699,W,1,8,1.6,15,M,,M,,*54
06/06/2014	10:01:05.562	$GPGGA,100106,2438.3243,N,08115.0726,W,1,8,1.6,15,M,,M,,*58
06/06/2014	10:01:06.585	$GPGGA,100107,2438.3237,N,08115.0751,W,1,8,1.6,15,M,,M,,*5A
06/06/2014	10:01:07.569	$GPGGA,100108,2438.3232,N,08115.0777,W,1,8,1.6,15,M,,M,,*54
06/06/2014	10:01:08.592	$GPGGA,100109,2438.3226,N,08115.0803,W,1,8,1.6,15,M,,M,,*5C
06/06/2014	10:01:09.555	$GPGGA,100110,2438.3216,N,08115.0829,W,1,8,1.6,15,M,,M,,*5F
06/06/2014	10:01:10.599	$GPGGA,100111,2438.3214,N,08115.0856,W,1,9,1.5,15,M,,M,,*56
06/06/2014	10:01:11.582	$GPGGA,100112,2438.3212,N,08115.0882,W,1,9,1.5,15,M,,M,,*5A
06/06/2014	10:01:12.566	$GPGGA,100113,2438.3208,N,08115.0910,W,1,9,1.5,15,M,,M,,*5A
06/06/2014	10:01:13.569	$GPGGA,100114,2438.3203,N,08115.0936,W,1,9,1.5,15,M,,M,,*52
06/06/2014	10:01:14.592	$GPGGA,100115,2438.3201,N,08115.0962,W,1,9,1.5,15,M,,M,,*50
06/06/2014	10:01:15.586	$GPGGA,100116,2438.3196,N,08115.0990,W,1,9,1.5,15,M,,M,,*53
06/06/2014	10:01:16.609	$GPGGA,100117,2438.3191,N,08115.1015,W,1,9,1.5,15,M,,M,,*50
06/06/2014	10:01:17.583	$GPGGA,100118,2438.3188,N,08115.1042,W,1,9,1.5,15,M,,M,,*55
06/06/2014	10:01:18.596	$GPGGA,100119,2438.3183,N,08115.1069,W,1,9,1.5,15,M,,M,,*56
06/06/2014	10:01:19.589	$GPGGA,100120,2438.3178,N,08115.1095,W,1,9,1.5,15,M,,M,,*5B
06/06/2014	10:01:20.573	$GPGGA,100121,2438.3174,N,08115.1121,W,1,9,1.5,15,M,,M,,*58
06/06/2014	10:01:21.586	$GPGGA,100122,2438.3170,N,08115.1149,W,1,9,1.5,15,M,,M,,*51
06/06/2014	10:01:22.590	$GPGGA,100123,2438.3165,N,08115.1175,W,1,9,1.5,15,M,,M,,*5B
06/06/2014	10:01:23.602	$GPGGA,100124,2438.3159,N,08115.1201,W,1,9,1.5,15,M,,M,,*53
06/06/2014	10:01:24.585	$GPGGA,100125,2438.3156,N,08115.1228,W,1,9,1.5,15,M,,M,,*56
06/06/2014	10:01:25.579	$GPGGA,100126,2438.3151,N,08115.1254,W,1,9,1.5,15,M,,M,,*59
06/06/2014	10:01:26.582	$GPGGA,100127,2438.3145,N,08115.1282,W,1,9,1.5,15,M,,M,,*56
06/06/2014	10:01:27.606	$GPGGA,100128,2438.3140,N,08115.1308,W,1,9,1.5,15,M,,M,,*5F
06/06/2014	10:01:28.599	$GPGGA,100129,2438.3136,N,08115.1333,W,1,9,1.5,15,M,,M,,*57
06/06/2014	10:01:29.592	$GPGGA,100130,2438.3130,N,08115.1359,W,1,9,1.5,16,M,,M,,*56
06/06/2014	10:01:30.586	$GPGGA,100131,2438.3125,N,08115.1387,W,1,9,1.5,16,M,,M,,*50
06/06/2014	10:01:31.609	$GPGGA,100132,2438.3119,N,08115.1413,W,1,9,1.5,16,M,,M,,*56
06/06/2014	10:01:32.703	$GPGGA,100133,2438.3115,N,08115.1438,W,1,9,1.5,16,M,,M,,*52
06/06/2014	10:01:33.606	$GPGGA,100134,2438.3111,N,08115.1464,W,1,9,1.5,16,M,,M,,*58
06/06/2014	10:01:34.609	$GPGGA,100135,2438.3105,N,08115.1492,W,1,9,1.5,16,M,,M,,*55
06/06/2014	10:01:35.417	$GPGGA,100136,2438.3100,N,08115.1518,W,1,9,1.5,16,M,,M,,*50
06/06/2014	10:01:36.403	$GPGGA,100137,2438.3096,N,08115.1544,W,1,9,1.5,16,M,,M,,*56
06/06/2014	10:01:37.396	$GPGGA,100138,2438.3090,N,08115.1572,W,1,9,1.5,16,M,,M,,*5A
06/06/2014	10:01:38.540	$GPGGA,100139,2438.3083,N,08115.1597,W,1,9,1.5,16,M,,M,,*52
06/06/2014	10:01:39.514	$GPGGA,100140,2438.3078,N,08115.1624,W,1,9,1.6,16,M,,M,,*50
06/06/2014	10:01:40.496	$GPGGA,100141,2438.3071,N,08115.1651,W,1,8,1.6,16,M,,M,,*5B
06/06/2014	10:01:41.509	$GPGGA,100142,2438.3064,N,08115.1677,W,1,8,1.6,16,M,,M,,*58
06/06/2014	10:01:42.504	$GPGGA,100143,2438.3058,N,08115.1705,W,1,8,1.6,16,M,,M,,*52
06/06/2014	10:01:43.506	$GPGGA,100144,2438.3053,N,08115.1730,W,1,8,1.6,16,M,,M,,*58
06/06/2014	10:01:44.530	$GPGGA,100145,2438.3046,N,08115.1757,W,1,8,1.6,16,M,,M,,*5C
06/06/2014	10:01:45.513	$GPGGA,100146,2438.3040,N,08115.1785,W,1,8,1.6,16,M,,M,,*56
06/06/2014	10:01:46.536	$GPGGA,100147,2438.3035,N,08115.1810,W,1,7,2.2,16,M,,M,,*5E
06/06/2014	10:01:47.520	$GPGGA,100148,2438.3028,N,08115.1835,W,1,7,1.5,16,M,,M,,*5E
06/06/2014	10:01:48.523	$GPGGA,100149,2438.3022,N,08115.1861,W,1,9,1.5,16,M,,M,,*5A
06/06/2014	10:01:49.517	$GPGGA,100150,2438.3017,N,08115.1886,W,1,9,1.5,16,M,,M,,*5D
06/06/2014	10:01:50.530	$GPGGA,100151,2438.3009,N,08115.1911,W,1,9,1.5,16,M,,M,,*5C
06/06/2014	10:01:51.533	$GPGGA,100152,2438.3003,N,08115.1937,W,1,9,1.5,16,M,,M,,*51
06/06/2014	10:01:52.538	$GPGGA,100153,2438.2997,N,08115.1963,W,1,9,1.5,16,M,,M,,*54
06/06/2014	10:01:53.510	$GPGGA,100154,2438.2990,N,08115.1991,W,1,9,1.5,16,M,,M,,*59
06/06/2014	10:01:54.545	$GPGGA,100155,2438.2984,N,08115.2017,W,1,9,1.5,17,M,,M,,*58
06/06/2014	10:01:55.537	$GPGGA,100156,2438.2978,N,08115.2043,W,1,9,1.5,17,M,,M,,*59
06/06/2014	10:01:56.550	$GPGGA,100157,2438.2971,N,08115.2070,W,1,9,1.5,17,M,,M,,*51
06/06/2014	10:01:57.524	$GPGGA,100158,2438.2964,N,08115.2096,W,1,9,1.5,17,M,,M,,*52
06/06/2014	10:01:58.556	$GPGGA,100159,2438.2959,N,08115.2124,W,1,8,1.6,17,M,,M,,*57
06/06/2014	10:01:59.539	$GPGGA,100200,2438.2952,N,08115.2150,W,1,8,1.6,17,M,,M,,*50
06/06/2014	10:02:00.523	$GPGGA,100201,2438.2952,N,08115.2178,W,1,8,1.6,17,M,,M,,*5B
06/06/2014	10:02:01.536	$GPGGA,100202,2438.2945,N,08115.2204,W,1,8,1.5,17,M,,M,,*55
06/06/2014	10:02:02.560	$GPGGA,100203,2438.2941,N,08115.2232,W,1,9,1.5,17,M,,M,,*54
06/06/2014	10:02:03.533	$GPGGA,100204,2438.2936,N,08115.2258,W,1,9,1.5,17,M,,M,,*5F
06/06/2014	10:02:04.536	$GPGGA,100205,2438.2930,N,08115.2284,W,1,9,1.5,17,M,,M,,*59
06/06/2014	10:02:05.520	$GPGGA,100206,2438.2925,N,08115.2312,W,1,9,1.5,17,M,,M,,*50
06/06/2014	10:02:06.523	$GPGGA,100207,2438.2920,N,08115.2338,W,1,9,1.5,17,M,,M,,*5C
06/06/2014	10:02:07.557	$GPGGA,100208,2438.2915,N,08115.2364,W,1,9,1.5,17,M,,M,,*5C
06/06/2014	10:02:08.530	$GPGGA,100209,2438.2910,N,08115.2392,W,1,9,1.5,17,M,,M,,*51
06/06/2014	10:02:09.543	$GPGGA,100210,2438.2906,N,08115.2418,W,1,9,1.5,17,M,,M,,*5B
06/06/2014	10:02:10.527	$GPGGA,100211,2438.2902,N,08115.2446,W,1,9,1.5,17,M,,M,,*55
06/06/2014	10:02:11.662	$GPGGA,100212,2438.2896,N,08115.2472,W,1,9,1.5,17,M,,M,,*5D
06/06/2014	10:02:12.644	$GPGGA,100213,2438.2891,N,08115.2498,W,1,9,1.5,17,M,,M,,*5F
06/06/2014	10:02:13.547	$GPGGA,100214,2438.2887,N,08115.2525,W,1,9,1.5,17,M,,M,,*58
06/06/2014	10:02:14.560	$GPGGA,100215,2438.2881,N,08115.2551,W,1,9,1.5,17,M,,M,,*5C
06/06/2014	10:02:15.553	$GPGGA,100216,2438.2876,N,08115.2579,W,1,9,1.5,17,M,,M,,*5D
06/06/2014	10:02:16.546	$GPGGA,100217,2438.2872,N,08115.2605,W,1,9,1.5,17,M,,M,,*50
06/06/2014	10:02:17.560	$GPGGA,100218,2438.2865,N,08115.2633,W,1,9,1.5,17,M,,M,,*5C
06/06/2014	10:02:18.563	$GPGGA,100219,2438.2860,N,08115.2659,W,1,9,1.5,17,M,,M,,*54
06/06/2014	10:02:19.677	$GPGGA,100220,2438.2856,N,08115.2685,W,1,9,1.5,17,M,,M,,*5A
06/06/2014	10:02:20.650	$GPGGA,100221,2438.2851,N,08115.2713,W,1,9,1.5,17,M,,M,,*52
06/06/2014	10:02:21.653	$GPGGA,100222,2438.2847,N,08115.2739,W,1,9,1.5,17,M,,M,,*5E
06/06/2014	10:02:22.647	$GPGGA,100223,2438.2841,N,08115.2765,W,1,9,1.5,17,M,,M,,*50
06/06/2014	10:02:23.570	$GPGGA,100224,2438.2837,N,08115.2793,W,1,9,1.5,17,M,,M,,*5F
06/06/2014	10:02:24.654	$GPGGA,100225,2438.2832,N,08115.2818,W,1,9,1.5,17,M,,M,,*57
06/06/2014	10:02:25.657	$GPGGA,100226,2438.2829,N,08115.2845,W,1,9,1.5,17,M,,M,,*56
06/06/2014	10:02:26.660	$GPGGA,100227,2438.2823,N,08115.2872,W,1,9,1.5,17,M,,M,,*59
06/06/2014	10:02:27.674	$GPGGA,100228,2438.2818,N,08115.2899,W,1,9,1.5,17,M,,M,,*5B
06/06/2014	10:02:28.657	$GPGGA,100229,2438.2814,N,08115.2926,W,1,9,1.5,17,M,,M,,*53
06/06/2014	10:02:29.661	$GPGGA,100230,2438.2811,N,08115.2953,W,1,9,1.5,17,M,,M,,*5C
06/06/2014	10:02:30.674	$GPGGA,100231,2438.2805,N,08115.2980,W,1,9,1.5,17,M,,M,,*56
06/06/2014	10:02:31.667	$GPGGA,100232,2438.2800,N,08115.3006,W,1,9,1.5,17,M,,M,,*56
06/06/2014	10:02:32.670	$GPGGA,100233,2438.2794,N,08115.3032,W,1,9,1.5,17,M,,M,,*52
06/06/2014	10:02:33.673	$GPGGA,100234,2438.2789,N,08115.3060,W,1,9,1.5,17,M,,M,,*5E
06/06/2014	10:02:34.687	$GPGGA,100235,2438.2783,N,08115.3086,W,1,9,1.5,17,M,,M,,*5D
06/06/2014	10:02:35.477	$GPGGA,100236,2438.2778,N,08115.3112,W,1,9,1.5,17,M,,M,,*56
06/06/2014	10:02:36.470	$GPGGA,100237,2438.2773,N,08115.3139,W,1,9,1.5,17,M,,M,,*55
06/06/2014	10:02:38.896	$GPGGA,100239,2438.2764,N,08115.3193,W,1,9,1.5,17,M,,M,,*5D
06/06/2014	10:02:39.478	$GPGGA,100240,2438.2757,N,08115.3219,W,1,9,1.5,17,M,,M,,*52
06/06/2014	10:02:40.491	$GPGGA,100241,2438.2751,N,08115.3246,W,1,9,1.5,17,M,,M,,*5F
06/06/2014	10:02:41.464	$GPGGA,100242,2438.2746,N,08115.3273,W,1,9,1.5,17,M,,M,,*5C
06/06/2014	10:02:42.496	$GPGGA,100243,2438.2738,N,08115.3300,W,1,8,1.6,17,M,,M,,*53
06/06/2014	10:02:43.479	$GPGGA,100244,2438.2729,N,08115.3327,W,1,8,1.5,16,M,,M,,*53
06/06/2014	10:02:44.462	$GPGGA,100245,2438.2724,N,08115.3353,W,1,9,1.5,16,M,,M,,*5D
06/06/2014	10:02:45.475	$GPGGA,100246,2438.2718,N,08115.3381,W,1,9,1.6,16,M,,M,,*5D
06/06/2014	10:02:46.468	$GPGGA,100247,2438.2712,N,08115.3407,W,1,8,1.6,16,M,,M,,*5E
06/06/2014	10:02:47.480	$GPGGA,100248,2438.2706,N,08115.3433,W,1,8,1.6,16,M,,M,,*53
06/06/2014	10:02:48.473	$GPGGA,100249,2438.2701,N,08115.3459,W,1,8,1.6,16,M,,M,,*59
06/06/2014	10:02:49.486	$GPGGA,100250,2438.2695,N,08115.3486,W,1,8,1.6,16,M,,M,,*5F
06/06/2014	10:02:50.508	$GPGGA,100251,2438.2689,N,08115.3512,W,1,8,1.6,16,M,,M,,*5F
06/06/2014	10:02:51.491	$GPGGA,100252,2438.2684,N,08115.3540,W,1,8,1.5,16,M,,M,,*55
06/06/2014	10:02:52.503	$GPGGA,100253,2438.2678,N,08115.3566,W,1,9,1.5,16,M,,M,,*52
06/06/2014	10:02:53.466	$GPGGA,100254,2438.2673,N,08115.3592,W,1,9,1.6,16,M,,M,,*56
06/06/2014	10:02:54.469	$GPGGA,100255,2438.2668,N,08115.3620,W,1,8,1.6,16,M,,M,,*56
06/06/2014	10:02:55.502	$GPGGA,100256,2438.2663,N,08115.3645,W,1,8,1.6,16,M,,M,,*5D
06/06/2014	10:02:56.495	$GPGGA,100257,2438.2657,N,08115.3671,W,1,8,1.6,16,M,,M,,*5C
06/06/2014	10:02:57.497	$GPGGA,100258,2438.2652,N,08115.3699,W,1,8,1.6,15,M,,M,,*53
06/06/2014	10:02:58.480	$GPGGA,100259,2438.2646,N,08115.3725,W,1,8,1.6,15,M,,M,,*51
06/06/2014	10:02:59.513	$GPGGA,100300,2438.2641,N,08115.3750,W,1,8,1.6,15,M,,M,,*59
06/06/2014	10:03:00.499	$GPGGA,100301,2438.2634,N,08115.3777,W,1,9,1.5,15,M,,M,,*5D
06/06/2014	10:03:01.569	$GPGGA,100302,2438.2630,N,08115.3804,W,1,9,1.6,15,M,,M,,*52
06/06/2014	10:03:02.531	$GPGGA,100303,2438.2623,N,08115.3830,W,1,8,1.6,15,M,,M,,*57
06/06/2014	10:03:03.484	$GPGGA,100304,2438.2618,N,08115.3858,W,1,8,1.6,15,M,,M,,*56
06/06/2014	10:03:04.587	$GPGGA,100305,2438.2612,N,08115.3884,W,1,9,1.5,15,M,,M,,*5E
06/06/2014	10:03:05.490	$GPGGA,100306,2438.2606,N,08115.3909,W,1,9,1.6,15,M,,M,,*5F
06/06/2014	10:03:06.482	$GPGGA,100307,2438.2601,N,08115.3936,W,1,8,1.6,15,M,,M,,*54
06/06/2014	10:03:07.585	$GPGGA,100308,2438.2594,N,08115.3963,W,1,8,1.6,15,M,,M,,*54
06/06/2014	10:03:08.597	$GPGGA,100309,2438.2589,N,08115.3989,W,1,8,1.6,15,M,,M,,*5D
06/06/2014	10:03:09.490	$GPGGA,100310,2438.2584,N,08115.4015,W,1,8,1.6,15,M,,M,,*53
06/06/2014	10:03:10.623	$GPGGA,100311,2438.2580,N,08115.4043,W,1,9,1.5,15,M,,M,,*57
06/06/2014	10:03:11.606	$GPGGA,100312,2438.2573,N,08115.4069,W,1,9,1.5,15,M,,M,,*50
06/06/2014	10:03:12.498	$GPGGA,100313,2438.2567,N,08115.4095,W,1,8,1.6,15,M,,M,,*55
06/06/2014	10:03:13.581	$GPGGA,100314,2438.2560,N,08115.4122,W,1,8,1.6,15,M,,M,,*58
06/06/2014	10:03:14.614	$GPGGA,100315,2438.2554,N,08115.4148,W,1,8,1.6,15,M,,M,,*52
06/06/2014	10:03:15.607	$GPGGA,100316,2438.2549,N,08115.4174,W,1,8,1.6,15,M,,M,,*52
06/06/2014	10:03:16.600	$GPGGA,100317,2438.2543,N,08115.4202,W,1,8,1.6,15,M,,M,,*5B
06/06/2014	10:03:17.592	$GPGGA,100318,2438.2540,N,08115.4228,W,1,8,1.6,15,M,,M,,*5F
06/06/2014	10:03:18.595	$GPGGA,100319,2438.2537,N,08115.4256,W,1,9,1.5,15,M,,M,,*55
06/06/2014	10:03:19.598	$GPGGA,100320,2438.2533,N,08115.4282,W,1,9,1.5,15,M,,M,,*52
06/06/2014	10:03:20.631	$GPGGA,100321,2438.2529,N,08115.4310,W,1,9,1.5,15,M,,M,,*52
06/06/2014	10:03:21.594	$GPGGA,100322,2438.2524,N,08115.4336,W,1,9,1.5,15,M,,M,,*58
06/06/2014	10:03:22.586	$GPGGA,100323,2438.2519,N,08115.4364,W,1,9,1.5,15,M,,M,,*50
06/06/2014	10:03:23.609	$GPGGA,100324,2438.2515,N,08115.4390,W,1,9,1.5,15,M,,M,,*50
06/06/2014	10:03:24.612	$GPGGA,100325,2438.2511,N,08115.4418,W,1,9,1.5,15,M,,M,,*52
06/06/2014	10:03:25.594	$GPGGA,100326,2438.2505,N,08115.4444,W,1,9,1.5,15,M,,M,,*5D
06/06/2014	10:03:26.617	$GPGGA,100327,2438.2501,N,08115.4470,W,1,9,1.5,15,M,,M,,*5F
06/06/2014	10:03:27.609	$GPGGA,100328,2438.2496,N,08115.4498,W,1,9,1.5,15,M,,M,,*59
06/06/2014	10:03:28.622	$GPGGA,100329,2438.2491,N,08115.4523,W,1,9,1.5,15,M,,M,,*5E
06/06/2014	10:03:29.595	$GPGGA,100330,2438.2486,N,08115.4550,W,1,9,1.5,15,M,,M,,*54
06/06/2014	10:03:30.618	$GPGGA,100331,2438.2482,N,08115.4577,W,1,9,1.5,15,M,,M,,*54
06/06/2014	10:03:31.611	$GPGGA,100332,2438.2476,N,08115.4603,W,1,9,1.5,15,M,,M,,*5C
06/06/2014	10:03:32.593	$GPGGA,100333,2438.2471,N,08115.4631,W,1,9,1.5,15,M,,M,,*5B
06/06/2014	10:03:33.606	$GPGGA,100334,2438.2466,N,08115.4657,W,1,9,1.5,15,M,,M,,*5A
06/06/2014	10:03:34.639	$GPGGA,100335,2438.2461,N,08115.4683,W,1,9,1.5,15,M,,M,,*55
06/06/2014	10:03:35.446	$GPGGA,100336,2438.2457,N,08115.4711,W,1,9,1.5,15,M,,M,,*59
06/06/2014	10:03:36.449	$GPGGA,100337,2438.2451,N,08115.4736,W,1,9,1.5,15,M,,M,,*5B
06/06/2014	10:03:37.431	$GPGGA,100338,2438.2446,N,08115.4763,W,1,9,1.5,15,M,,M,,*52
06/06/2014	10:03:38.444	$GPGGA,100339,2438.2440,N,08115.4790,W,1,9,1.5,15,M,,M,,*59
06/06/2014	10:03:39.457	$GPGGA,100340,2438.2435,N,08115.4816,W,1,9,1.5,15,M,,M,,*54
06/06/2014	10:03:40.470	$GPGGA,100341,2438.2431,N,08115.4842,W,1,9,1.5,15,M,,M,,*50
06/06/2014	10:03:41.453	$GPGGA,100342,2438.2425,N,08115.4870,W,1,9,1.5,15,M,,M,,*57
06/06/2014	10:03:42.565	$GPGGA,100343,2438.2421,N,08115.4896,W,1,9,1.5,15,M,,M,,*5A
06/06/2014	10:03:43.467	$GPGGA,100344,2438.2415,N,08115.4922,W,1,9,1.5,15,M,,M,,*54
06/06/2014	10:03:44.560	$GPGGA,100345,2438.2410,N,08115.4949,W,1,9,1.5,15,M,,M,,*5D
06/06/2014	10:03:45.433	$GPGGA,100346,2438.2406,N,08115.4976,W,1,9,1.5,15,M,,M,,*55
06/06/2014	10:03:46.456	$GPGGA,100347,2438.2400,N,08115.5004,W,1,9,1.5,15,M,,M,,*5F
06/06/2014	10:03:47.468	$GPGGA,100348,2438.2394,N,08115.5029,W,1,9,1.5,15,M,,M,,*55
06/06/2014	10:03:48.451	$GPGGA,100349,2438.2390,N,08115.5056,W,1,9,1.5,15,M,,M,,*58
06/06/2014	10:03:49.444	$GPGGA,100350,2438.2385,N,08115.5083,W,1,9,1.5,15,M,,M,,*5C
06/06/2014	10:03:50.577	$GPGGA,100351,2438.2379,N,08115.5109,W,1,9,1.5,15,M,,M,,*5D
06/06/2014	10:03:51.470	$GPGGA,100352,2438.2374,N,08115.5135,W,1,9,1.5,15,M,,M,,*5C
06/06/2014	10:03:52.472	$GPGGA,100353,2438.2368,N,08115.5163,W,1,9,1.5,15,M,,M,,*53
06/06/2014	10:03:53.555	$GPGGA,100354,2438.2363,N,08115.5188,W,1,9,1.5,15,M,,M,,*5A
06/06/2014	10:03:54.448	$GPGGA,100355,2438.2357,N,08115.5215,W,1,9,1.5,15,M,,M,,*5B
06/06/2014	10:03:55.581	$GPGGA,100356,2438.2352,N,08115.5242,W,1,9,1.5,15,M,,M,,*5F
06/06/2014	10:03:56.594	$GPGGA,100357,2438.2346,N,08115.5269,W,1,9,1.5,15,M,,M,,*52
06/06/2014	10:03:57.446	$GPGGA,100358,2438.2341,N,08115.5296,W,1,9,1.5,15,M,,M,,*5A
06/06/2014	10:03:58.580	$GPGGA,100359,2438.2335,N,08115.5322,W,1,9,1.5,15,M,,M,,*56
06/06/2014	10:03:59.582	$GPGGA,100400,2438.2329,N,08115.5350,W,1,9,1.5,15,M,,M,,*55
06/06/2014	10:04:00.564	$GPGGA,100401,2438.2324,N,08115.5376,W,1,9,1.5,15,M,,M,,*5D
06/06/2014	10:04:01.557	$GPGGA,100402,2438.2318,N,08115.5401,W,1,9,1.5,15,M,,M,,*56
06/06/2014	10:04:02.590	$GPGGA,100403,2438.2313,N,08115.5428,W,1,9,1.5,15,M,,M,,*57
06/06/2014	10:04:03.592	$GPGGA,100404,2438.2307,N,08115.5455,W,1,9,1.5,15,M,,M,,*5F
06/06/2014	10:04:04.575	$GPGGA,100405,2438.2301,N,08115.5481,W,1,9,1.5,15,M,,M,,*51
06/06/2014	10:04:05.548	$GPGGA,100406,2438.2296,N,08115.5507,W,1,9,1.5,15,M,,M,,*52
06/06/2014	10:04:06.571	$GPGGA,100407,2438.2291,N,08115.5535,W,1,9,1.5,15,M,,M,,*55
06/06/2014	10:04:07.604	$GPGGA,100408,2438.2285,N,08115.5560,W,1,9,1.5,15,M,,M,,*5F
06/06/2014	10:04:08.586	$GPGGA,100409,2438.2280,N,08115.5587,W,1,9,1.5,15,M,,M,,*52
06/06/2014	10:04:09.549	$GPGGA,100410,2438.2273,N,08115.5614,W,1,9,1.5,15,M,,M,,*5F
06/06/2014	10:04:10.590	$GPGGA,100411,2438.2267,N,08115.5640,W,1,9,1.5,15,M,,M,,*5A
06/06/2014	10:04:11.575	$GPGGA,100412,2438.2262,N,08115.5666,W,1,9,1.5,15,M,,M,,*58
06/06/2014	10:04:12.567	$GPGGA,100413,2438.2256,N,08115.5694,W,1,9,1.5,15,M,,M,,*53
06/06/2014	10:04:13.570	$GPGGA,100414,2438.2251,N,08115.5719,W,1,9,1.5,15,M,,M,,*57
06/06/2014	10:04:14.595	$GPGGA,100415,2438.2245,N,08115.5745,W,1,9,1.5,15,M,,M,,*5A
06/06/2014	10:04:15.586	$GPGGA,100416,2438.2240,N,08115.5771,W,1,9,1.5,15,M,,M,,*5B
06/06/2014	10:04:16.589	$GPGGA,100417,2438.2235,N,08115.5798,W,1,9,1.5,15,M,,M,,*5F
06/06/2014	10:04:17.570	$GPGGA,100418,2438.2229,N,08115.5824,W,1,9,1.5,15,M,,M,,*55
06/06/2014	10:04:18.603	$GPGGA,100419,2438.2223,N,08115.5850,W,1,9,1.5,15,M,,M,,*5D
06/06/2014	10:04:19.576	$GPGGA,100420,2438.2217,N,08115.5878,W,1,9,1.6,15,M,,M,,*59
06/06/2014	10:04:20.589	$GPGGA,100421,2438.2211,N,08115.5903,W,1,8,1.5,15,M,,M,,*51
06/06/2014	10:04:21.582	$GPGGA,100422,2438.2205,N,08115.5930,W,1,8,1.5,15,M,,M,,*57
06/06/2014	10:04:22.594	$GPGGA,100423,2438.2200,N,08115.5957,W,1,9,1.5,15,M,,M,,*53
06/06/2014	10:04:23.587	$GPGGA,100424,2438.2195,N,08115.5983,W,1,9,1.5,15,M,,M,,*52
06/06/2014	10:04:24.600	$GPGGA,100425,2438.2191,N,08115.6011,W,1,9,1.5,15,M,,M,,*56
06/06/2014	10:04:25.573	$GPGGA,100426,2438.2187,N,08115.6037,W,1,9,1.5,15,M,,M,,*56
06/06/2014	10:04:26.566	$GPGGA,100427,2438.2183,N,08115.6062,W,1,9,1.5,15,M,,M,,*53
06/06/2014	10:04:27.598	$GPGGA,100428,2438.2178,N,08115.6088,W,1,9,1.5,15,M,,M,,*5C
06/06/2014	10:04:28.581	$GPGGA,100429,2438.2173,N,08115.6116,W,1,9,1.5,15,M,,M,,*50
06/06/2014	10:04:29.584	$GPGGA,100430,2438.2168,N,08115.6142,W,1,9,1.5,15,M,,M,,*53
06/06/2014	10:04:30.597	$GPGGA,100431,2438.2162,N,08115.6168,W,1,9,1.5,15,M,,M,,*50
06/06/2014	10:04:31.600	$GPGGA,100432,2438.2157,N,08115.6194,W,1,9,1.5,15,M,,M,,*56
06/06/2014	10:04:32.593	$GPGGA,100433,2438.2152,N,08115.6221,W,1,9,1.5,15,M,,M,,*5F
06/06/2014	10:04:33.575	$GPGGA,100434,2438.2147,N,08115.6247,W,1,9,1.5,15,M,,M,,*5C
06/06/2014	10:04:34.608	$GPGGA,100435,2438.2143,N,08115.6275,W,1,9,1.5,15,M,,M,,*58
06/06/2014	10:04:35.433	$GPGGA,100436,2438.2139,N,08115.6301,W,1,9,1.5,15,M,,M,,*54
06/06/2014	10:04:36.415	$GPGGA,100437,2438.2132,N,08115.6326,W,1,9,1.5,15,M,,M,,*5B
06/06/2014	10:04:37.418	$GPGGA,100438,2438.2128,N,08115.6353,W,1,9,1.5,15,M,,M,,*5D
06/06/2014	10:04:38.411	$GPGGA,100439,2438.2122,N,08115.6380,W,1,9,1.5,15,M,,M,,*58
06/06/2014	10:04:39.544	$GPGGA,100440,2438.2117,N,08115.6405,W,1,9,1.5,15,M,,M,,*5A
06/06/2014	10:04:40.547	$GPGGA,100441,2438.2111,N,08115.6432,W,1,9,2.1,15,M,,M,,*5E
06/06/2014	10:04:41.429	$GPGGA,100442,2438.2105,N,08115.6459,W,1,9,1.5,15,M,,M,,*52
06/06/2014	10:04:42.422	$GPGGA,100443,2438.2100,N,08115.6485,W,1,9,1.5,15,M,,M,,*57
06/06/2014	10:04:43.515	$GPGGA,100444,2438.2095,N,08115.6512,W,1,9,1.5,15,M,,M,,*52
06/06/2014	10:04:44.548	$GPGGA,100445,2438.2090,N,08115.6539,W,1,9,1.5,15,M,,M,,*5F
06/06/2014	10:04:45.512	$GPGGA,100446,2438.2085,N,08115.6565,W,1,9,1.5,15,M,,M,,*51
06/06/2014	10:04:46.516	$GPGGA,100447,2438.2081,N,08115.6593,W,1,9,1.5,15,M,,M,,*5D
06/06/2014	10:04:47.537	$GPGGA,100448,2438.2075,N,08115.6619,W,1,9,1.5,15,M,,M,,*58
06/06/2014	10:04:48.529	$GPGGA,100449,2438.2070,N,08115.6647,W,1,9,1.5,15,M,,M,,*57
06/06/2014	10:04:49.512	$GPGGA,100450,2438.2065,N,08115.6673,W,1,9,1.5,15,M,,M,,*5C
06/06/2014	10:04:50.515	$GPGGA,100451,2438.2059,N,08115.6701,W,1,9,1.5,15,M,,M,,*56
06/06/2014	10:04:51.548	$GPGGA,100452,2438.2054,N,08115.6727,W,1,9,1.5,15,M,,M,,*5C
06/06/2014	10:04:52.509	$GPGGA,100453,2438.2049,N,08115.6754,W,1,9,1.5,15,M,,M,,*55
06/06/2014	10:04:53.522	$GPGGA,100454,2438.2045,N,08115.6781,W,1,9,1.5,15,M,,M,,*56
06/06/2014	10:04:54.535	$GPGGA,100455,2438.2039,N,08115.6806,W,1,9,1.5,15,M,,M,,*5C
06/06/2014	10:04:55.538	$GPGGA,100456,2438.2034,N,08115.6833,W,1,9,1.5,15,M,,M,,*54
06/06/2014	10:04:56.541	$GPGGA,100457,2438.2030,N,08115.6861,W,1,9,1.5,15,M,,M,,*56
06/06/2014	10:04:57.513	$GPGGA,100458,2438.2025,N,08115.6887,W,1,9,1.5,15,M,,M,,*55
06/06/2014	10:04:58.536	$GPGGA,100459,2438.2020,N,08115.6915,W,1,9,1.5,15,M,,M,,*5B
06/06/2014	10:04:59.549	$GPGGA,100500,2438.2016,N,08115.6940,W,1,9,2.1,15,M,,M,,*54
06/06/2014	10:05:00.522	$GPGGA,100501,2438.2010,N,08115.6966,W,1,9,1.5,15,M,,M,,*50
06/06/2014	10:05:01.535	$GPGGA,100502,2438.2005,N,08115.6991,W,1,9,1.5,15,M,,M,,*5F
06/06/2014	10:05:02.517	$GPGGA,100503,2438.1999,N,08115.7017,W,1,9,1.5,15,M,,M,,*57
06/06/2014	10:05:03.560	$GPGGA,100504,2438.1994,N,08115.7043,W,1,9,1.5,15,M,,M,,*5C
06/06/2014	10:05:04.523	$GPGGA,100505,2438.1988,N,08115.7068,W,1,9,1.5,15,M,,M,,*59
06/06/2014	10:05:05.526	$GPGGA,100506,2438.1982,N,08115.7095,W,1,9,1.5,15,M,,M,,*52
06/06/2014	10:05:06.549	$GPGGA,100507,2438.1977,N,08115.7121,W,1,9,1.5,15,M,,M,,*57
06/06/2014	10:05:07.541	$GPGGA,100508,2438.1971,N,08115.7147,W,1,9,1.5,15,M,,M,,*5E
06/06/2014	10:05:08.535	$GPGGA,100509,2438.1966,N,08115.7173,W,1,9,1.5,15,M,,M,,*5E
06/06/2014	10:05:09.527	$GPGGA,100510,2438.1960,N,08115.7200,W,1,9,1.5,15,M,,M,,*57
06/06/2014	10:05:10.559	$GPGGA,100511,2438.1954,N,08115.7225,W,1,9,1.5,16,M,,M,,*55
06/06/2014	10:05:11.542	$GPGGA,100512,2438.1949,N,08115.7251,W,1,9,1.5,16,M,,M,,*59
06/06/2014	10:05:12.564	$GPGGA,100513,2438.1944,N,08115.7279,W,1,9,1.5,16,M,,M,,*5F
06/06/2014	10:05:13.527	$GPGGA,100514,2438.1937,N,08115.7305,W,1,9,1.5,16,M,,M,,*56
06/06/2014	10:05:14.540	$GPGGA,100515,2438.1931,N,08115.7330,W,1,9,1.5,16,M,,M,,*57
06/06/2014	10:05:15.553	$GPGGA,100516,2438.1924,N,08115.7357,W,1,9,1.5,16,M,,M,,*51
06/06/2014	10:05:16.566	$GPGGA,100517,2438.1918,N,08115.7384,W,1,9,1.5,16,M,,M,,*51
06/06/2014	10:05:17.548	$GPGGA,100518,2438.1912,N,08115.7410,W,1,9,1.5,16,M,,M,,*5E
06/06/2014	10:05:18.541	$GPGGA,100519,2438.1908,N,08115.7436,W,1,9,1.5,16,M,,M,,*50
06/06/2014	10:05:19.554	$GPGGA,100520,2438.1901,N,08115.7464,W,1,9,1.5,16,M,,M,,*54
06/06/2014	10:05:20.657	$GPGGA,100521,2438.1895,N,08115.7489,W,1,9,1.5,16,M,,M,,*5A
06/06/2014	10:05:21.550	$GPGGA,100522,2438.1889,N,08115.7516,W,1,9,1.5,16,M,,M,,*53
06/06/2014	10:05:22.532	$GPGGA,100523,2438.1883,N,08115.7543,W,1,9,1.5,16,M,,M,,*58
06/06/2014	10:05:23.565	$GPGGA,100524,2438.1877,N,08115.7569,W,1,9,1.5,16,M,,M,,*5C
06/06/2014	10:05:24.558	$GPGGA,100525,2438.1871,N,08115.7595,W,1,9,1.5,16,M,,M,,*58
06/06/2014	10:05:25.541	$GPGGA,100526,2438.1865,N,08115.7623,W,1,9,1.5,16,M,,M,,*50
06/06/2014	10:05:26.533	$GPGGA,100527,2438.1861,N,08115.7649,W,1,9,1.5,16,M,,M,,*59
06/06/2014	10:05:27.676	$GPGGA,100528,2438.1854,N,08115.7677,W,1,9,1.5,17,M,,M,,*5C
06/06/2014	10:05:28.638	$GPGGA,100529,2438.1847,N,08115.7702,W,1,9,1.5,17,M,,M,,*5C
06/06/2014	10:05:29.651	$GPGGA,100530,2438.1842,N,08115.7729,W,1,9,1.5,17,M,,M,,*58
06/06/2014	10:05:30.644	$GPGGA,100531,2438.1839,N,08115.7757,W,1,9,1.5,17,M,,M,,*5C
06/06/2014	10:05:31.556	$GPGGA,100532,2438.1832,N,08115.7782,W,1,9,1.5,17,M,,M,,*5C
06/06/2014	10:05:32.670	$GPGGA,100533,2438.1825,N,08115.7809,W,1,9,1.5,17,M,,M,,*57
06/06/2014	10:05:33.652	$GPGGA,100534,2438.1821,N,08115.7836,W,1,9,1.5,17,M,,M,,*58
06/06/2014	10:05:34.665	$GPGGA,100535,2438.1815,N,08115.7862,W,1,9,1.5,17,M,,M,,*5F
06/06/2014	10:05:35.492	$GPGGA,100536,2438.1810,N,08115.7888,W,1,9,1.5,17,M,,M,,*5D
06/06/2014	10:05:36.485	$GPGGA,100537,2438.1804,N,08115.7915,W,1,9,1.5,17,M,,M,,*5C
06/06/2014	10:05:37.487	$GPGGA,100538,2438.1799,N,08115.7942,W,1,9,1.5,17,M,,M,,*5A
06/06/2014	10:05:38.480	$GPGGA,100539,2438.1793,N,08115.7970,W,1,9,1.5,17,M,,M,,*50
06/06/2014	10:05:39.493	$GPGGA,100540,2438.1787,N,08115.7996,W,1,9,1.5,17,M,,M,,*53
06/06/2014	10:05:40.476	$GPGGA,100541,2438.1782,N,08115.8024,W,1,8,2.1,17,M,,M,,*5E
06/06/2014	10:05:41.479	$GPGGA,100542,2438.1777,N,08115.8051,W,1,8,1.5,17,M,,M,,*52
06/06/2014	10:05:42.481	$GPGGA,100543,2438.1772,N,08115.8079,W,1,9,1.5,17,M,,M,,*5D
06/06/2014	10:05:43.504	$GPGGA,100544,2438.1767,N,08115.8107,W,1,9,1.5,17,M,,M,,*56
06/06/2014	10:05:44.507	$GPGGA,100545,2438.1761,N,08115.8129,W,1,8,2.1,17,M,,M,,*5B
06/06/2014	10:05:45.479	$GPGGA,100546,2438.1756,N,08115.8152,W,1,8,1.5,17,M,,M,,*57
06/06/2014	10:05:46.513	$GPGGA,100547,2438.1749,N,08115.8177,W,1,9,1.5,17,M,,M,,*5E
06/06/2014	10:05:47.494	$GPGGA,100548,2438.1745,N,08115.8204,W,1,9,1.5,17,M,,M,,*5A
06/06/2014	10:05:48.507	$GPGGA,100549,2438.1738,N,08115.8231,W,1,9,1.5,17,M,,M,,*57
06/06/2014	10:05:49.480	$GPGGA,100550,2438.1732,N,08115.8259,W,1,9,1.5,17,M,,M,,*5B
06/06/2014	10:05:50.483	$GPGGA,100551,2438.1727,N,08115.8287,W,1,9,1.5,17,M,,M,,*5D
06/06/2014	10:05:51.516	$GPGGA,100552,2438.1721,N,08115.8313,W,1,9,1.5,17,M,,M,,*54
06/06/2014	10:05:52.488	$GPGGA,100553,2438.1716,N,08115.8342,W,1,9,1.5,17,M,,M,,*55
06/06/2014	10:05:53.491	$GPGGA,100554,2438.1710,N,08115.8367,W,1,9,1.5,17,M,,M,,*53
06/06/2014	10:05:54.484	$GPGGA,100555,2438.1704,N,08115.8394,W,1,9,1.5,17,M,,M,,*5B
06/06/2014	10:05:55.507	$GPGGA,100556,2438.1699,N,08115.8421,W,1,9,1.5,17,M,,M,,*54
06/06/2014	10:05:56.530	$GPGGA,100557,2438.1694,N,08115.8447,W,1,9,1.5,17,M,,M,,*58
06/06/2014	10:05:57.492	$GPGGA,100558,2438.1688,N,08115.8475,W,1,9,1.5,17,M,,M,,*5B
06/06/2014	10:05:58.505	$GPGGA,100559,2438.1682,N,08115.8501,W,1,9,1.5,17,M,,M,,*52
06/06/2014	10:05:59.518	$GPGGA,100600,2438.1677,N,08115.8529,W,1,9,1.5,17,M,,M,,*5D
06/06/2014	10:06:00.522	$GPGGA,100601,2438.1673,N,08115.8555,W,1,9,1.5,17,M,,M,,*53
06/06/2014	10:06:01.494	$GPGGA,100602,2438.1666,N,08115.8581,W,1,9,1.5,17,M,,M,,*5D
06/06/2014	10:06:02.515	$GPGGA,100603,2438.1662,N,08115.8609,W,1,9,1.5,17,M,,M,,*5B
06/06/2014	10:06:03.508	$GPGGA,100604,2438.1656,N,08115.8634,W,1,9,1.5,17,M,,M,,*55
06/06/2014	10:06:04.491	$GPGGA,100605,2438.1651,N,08115.8663,W,1,9,1.5,17,M,,M,,*51
06/06/2014	10:06:05.614	$GPGGA,100606,2438.1645,N,08115.8689,W,1,9,2.1,17,M,,M,,*54
06/06/2014	10:06:06.597	$GPGGA,100607,2438.1640,N,08115.8717,W,1,8,2.1,17,M,,M,,*57
06/06/2014	10:06:07.519	$GPGGA,100608,2438.1634,N,08115.8743,W,1,8,1.5,17,M,,M,,*5D
06/06/2014	10:06:08.512	$GPGGA,100609,2438.1628,N,08115.8768,W,1,9,1.5,17,M,,M,,*59
06/06/2014	10:06:09.515	$GPGGA,100610,2438.1623,N,08115.8793,W,1,9,1.5,17,M,,M,,*5E
06/06/2014	10:06:10.518	$GPGGA,100611,2438.1618,N,08115.8819,W,1,9,1.5,17,M,,M,,*5A
06/06/2014	10:06:11.631	$GPGGA,100612,2438.1612,N,08115.8845,W,1,9,1.5,17,M,,M,,*5A
06/06/2014	10:06:12.634	$GPGGA,100613,2438.1606,N,08115.8871,W,1,9,1.5,17,M,,M,,*59
06/06/2014	10:06:13.516	$GPGGA,100614,2438.1601,N,08115.8898,W,1,9,1.5,17,M,,M,,*5E
06/06/2014	10:06:14.609	$GPGGA,100615,2438.1597,N,08115.8923,W,1,9,1.5,17,M,,M,,*52
06/06/2014	10:06:15.512	$GPGGA,100616,2438.1590,N,08115.8952,W,1,9,1.5,17,M,,M,,*50
06/06/2014	10:06:16.514	$GPGGA,100617,2438.1586,N,08115.8978,W,1,8,2.1,17,M,,M,,*58
06/06/2014	10:06:17.597	$GPGGA,100618,2438.1580,N,08115.9007,W,1,8,2.1,17,M,,M,,*51
06/06/2014	10:06:18.610	$GPGGA,100619,2438.1575,N,08115.9033,W,1,9,1.5,17,M,,M,,*5B
06/06/2014	10:06:19.623	$GPGGA,100620,2438.1569,N,08115.9061,W,1,9,1.5,16,M,,M,,*5A
06/06/2014	10:06:20.645	$GPGGA,100621,2438.1565,N,08115.9087,W,1,9,1.5,16,M,,M,,*5F
06/06/2014	10:06:21.608	$GPGGA,100622,2438.1561,N,08115.9115,W,1,9,1.5,16,M,,M,,*52
06/06/2014	10:06:22.661	$GPGGA,100623,2438.1554,N,08115.9140,W,1,9,1.5,16,M,,M,,*55
06/06/2014	10:06:23.623	$GPGGA,100624,2438.1550,N,08115.9169,W,1,9,1.5,16,M,,M,,*5D
06/06/2014	10:06:24.606	$GPGGA,100625,2438.1545,N,08115.9195,W,1,8,2.1,16,M,,M,,*5D
06/06/2014	10:06:25.619	$GPGGA,100626,2438.1540,N,08115.9223,W,1,8,2.1,16,M,,M,,*55
06/06/2014	10:06:26.632	$GPGGA,100627,2438.1535,N,08115.9252,W,1,9,1.5,16,M,,M,,*56
06/06/2014	10:06:27.624	$GPGGA,100628,2438.1530,N,08115.9278,W,1,9,1.5,16,M,,M,,*54
06/06/2014	10:06:28.637	$GPGGA,100629,2438.1525,N,08115.9304,W,1,9,1.5,16,M,,M,,*5B
06/06/2014	10:06:29.610	$GPGGA,100630,2438.1521,N,08115.9332,W,1,9,1.5,16,M,,M,,*52
06/06/2014	10:06:30.623	$GPGGA,100631,2438.1515,N,08115.9357,W,1,9,1.5,16,M,,M,,*57
06/06/2014	10:06:31.636	$GPGGA,100632,2438.1510,N,08115.9383,W,1,9,1.5,16,M,,M,,*58
06/06/2014	10:06:32.649	$GPGGA,100633,2438.1505,N,08115.9411,W,1,9,1.5,16,M,,M,,*51
06/06/2014	10:06:33.621	$GPGGA,100634,2438.1499,N,08115.9436,W,1,9,1.5,16,M,,M,,*57
06/06/2014	10:06:34.614	$GPGGA,100635,2438.1494,N,08115.9462,W,1,9,1.5,15,M,,M,,*59
06/06/2014	10:06:35.460	$GPGGA,100636,2438.1489,N,08115.9490,W,1,9,1.5,15,M,,M,,*5B
06/06/2014	10:06:36.443	$GPGGA,100637,2438.1483,N,08115.9516,W,1,9,1.5,15,M,,M,,*5F
06/06/2014	10:06:37.464	$GPGGA,100638,2438.1478,N,08115.9541,W,1,9,1.5,15,M,,M,,*56
06/06/2014	10:06:38.477	$GPGGA,100639,2438.1474,N,08115.9568,W,1,9,1.5,15,M,,M,,*50
06/06/2014	10:06:39.470	$GPGGA,100640,2438.1469,N,08115.9595,W,1,9,1.5,15,M,,M,,*50
06/06/2014	10:06:40.501	$GPGGA,100641,2438.1463,N,08115.9621,W,1,9,1.5,15,M,,M,,*57
06/06/2014	10:06:41.446	$GPGGA,100642,2438.1458,N,08115.9647,W,1,9,1.5,15,M,,M,,*5C
06/06/2014	10:06:42.468	$GPGGA,100643,2438.1453,N,08115.9673,W,1,9,1.5,15,M,,M,,*51
06/06/2014	10:06:43.471	$GPGGA,100644,2438.1449,N,08115.9700,W,1,9,1.5,15,M,,M,,*58
06/06/2014	10:06:44.494	$GPGGA,100645,2438.1443,N,08115.9726,W,1,9,1.5,15,M,,M,,*57
06/06/2014	10:06:45.457	$GPGGA,100646,2438.1438,N,08115.9752,W,1,9,1.5,15,M,,M,,*5B
06/06/2014	10:06:46.460	$GPGGA,100647,2438.1433,N,08115.9779,W,1,9,1.5,15,M,,M,,*58
06/06/2014	10:06:48.485	$GPGGA,100649,2438.1423,N,08115.9832,W,1,9,1.5,15,M,,M,,*57
06/06/2014	10:06:49.478	$GPGGA,100650,2438.1417,N,08115.9859,W,1,9,1.5,15,M,,M,,*55
06/06/2014	10:06:50.481	$GPGGA,100651,2438.1411,N,08115.9886,W,1,9,1.5,15,M,,M,,*50
06/06/2014	10:06:51.464	$GPGGA,100652,2438.1407,N,08115.9911,W,1,9,2.1,15,M,,M,,*5C
06/06/2014	10:06:52.476	$GPGGA,100653,2438.1402,N,08115.9935,W,1,9,1.5,15,M,,M,,*59
06/06/2014	10:06:53.459	$GPGGA,100654,2438.1395,N,08115.9958,W,1,9,1.5,15,M,,M,,*5C
06/06/2014	10:06:54.473	$GPGGA,100655,2438.1389,N,08115.9986,W,1,9,1.5,15,M,,M,,*53
06/06/2014	10:06:55.644	$GPGGA,100656,2438.1385,N,08116.0014,W,1,9,2.1,15,M,,M,,*53
06/06/2014	10:06:56.607	$GPGGA,100657,2438.1380,N,08116.0041,W,1,9,1.5,15,M,,M,,*50
06/06/2014	10:06:57.469	$GPGGA,100658,2438.1373,N,08116.0068,W,1,9,1.5,15,M,,M,,*58
06/06/2014	10:06:58.462	$GPGGA,100659,2438.1366,N,08116.0094,W,1,9,1.5,15,M,,M,,*5E
06/06/2014	10:06:59.655	$GPGGA,100700,2438.1362,N,08116.0120,W,1,9,1.5,15,M,,M,,*59
06/06/2014	10:07:00.608	$GPGGA,100701,2438.1355,N,08116.0146,W,1,9,1.5,16,M,,M,,*5F
06/06/2014	10:07:01.480	$GPGGA,100702,2438.1349,N,08116.0171,W,1,9,1.5,16,M,,M,,*55
06/06/2014	10:07:02.473	$GPGGA,100703,2438.1344,N,08116.0199,W,1,9,1.5,16,M,,M,,*5F
06/06/2014	10:07:03.576	$GPGGA,100704,2438.1337,N,08116.0224,W,1,9,1.5,16,M,,M,,*59
06/06/2014	10:07:04.619	$GPGGA,100705,2438.1333,N,08116.0250,W,1,9,1.5,16,M,,M,,*5F
06/06/2014	10:07:05.642	$GPGGA,100706,2438.1326,N,08116.0278,W,1,9,1.5,16,M,,M,,*52
06/06/2014	10:07:06.615	$GPGGA,100707,2438.1319,N,08116.0303,W,1,8,1.6,16,M,,M,,*50
06/06/2014	10:07:07.658	$GPGGA,100708,2438.1313,N,08116.0329,W,1,8,1.5,16,M,,M,,*5E
06/06/2014	10:07:08.620	$GPGGA,100709,2438.1308,N,08116.0355,W,1,9,1.5,16,M,,M,,*5F
06/06/2014	10:07:09.633	$GPGGA,100710,2438.1302,N,08116.0383,W,1,9,1.5,16,M,,M,,*56
06/06/2014	10:07:10.581	$GPGGA,100711,2438.1297,N,08116.0408,W,1,9,1.5,16,M,,M,,*5E
06/06/2014	10:07:11.660	$GPGGA,100712,2438.1290,N,08116.0435,W,1,9,1.5,16,M,,M,,*54
06/06/2014	10:07:12.570	$GPGGA,100713,2438.1286,N,08116.0462,W,1,9,1.5,16,M,,M,,*50
06/06/2014	10:07:13.643	$GPGGA,100714,2438.1279,N,08116.0489,W,1,9,1.5,16,M,,M,,*52
06/06/2014	10:07:14.616	$GPGGA,100715,2438.1273,N,08116.0514,W,1,9,1.5,16,M,,M,,*5C
06/06/2014	10:07:15.659	$GPGGA,100716,2438.1268,N,08116.0542,W,1,9,1.5,16,M,,M,,*56
06/06/2014	10:07:16.612	$GPGGA,100717,2438.1262,N,08116.0567,W,1,9,1.5,16,M,,M,,*5A
06/06/2014	10:07:17.645	$GPGGA,100718,2438.1257,N,08116.0593,W,1,9,1.5,16,M,,M,,*58
06/06/2014	10:07:18.627	$GPGGA,100719,2438.1251,N,08116.0621,W,1,9,1.5,16,M,,M,,*55
06/06/2014	10:07:19.650	$GPGGA,100720,2438.1246,N,08116.0647,W,1,9,1.5,16,M,,M,,*59
06/06/2014	10:07:20.613	$GPGGA,100721,2438.1241,N,08116.0673,W,1,9,1.5,17,M,,M,,*59
06/06/2014	10:07:21.576	$GPGGA,100722,2438.1236,N,08116.0701,W,1,9,1.5,17,M,,M,,*5E
06/06/2014	10:07:22.608	$GPGGA,100723,2438.1232,N,08116.0727,W,1,9,1.5,17,M,,M,,*5F
06/06/2014	10:07:23.671	$GPGGA,100724,2438.1226,N,08116.0755,W,1,9,1.5,17,M,,M,,*58
06/06/2014	10:07:24.644	$GPGGA,100725,2438.1221,N,08116.0781,W,1,9,1.5,17,M,,M,,*57
06/06/2014	10:07:25.637	$GPGGA,100726,2438.1216,N,08116.0809,W,1,9,1.5,17,M,,M,,*5F
06/06/2014	10:07:26.580	$GPGGA,100727,2438.1212,N,08116.0835,W,1,9,1.5,17,M,,M,,*55
06/06/2014	10:07:27.653	$GPGGA,100728,2438.1207,N,08116.0861,W,1,9,1.5,17,M,,M,,*5F
06/06/2014	10:07:28.635	$GPGGA,100729,2438.1203,N,08116.0889,W,1,9,1.5,17,M,,M,,*5C
06/06/2014	10:07:29.648	$GPGGA,100730,2438.1199,N,08116.0915,W,1,9,1.5,17,M,,M,,*50
06/06/2014	10:07:30.640	$GPGGA,100731,2438.1194,N,08116.0943,W,1,9,1.5,17,M,,M,,*5F
06/06/2014	10:07:31.653	$GPGGA,100732,2438.1190,N,08116.0969,W,1,9,1.5,17,M,,M,,*50
06/06/2014	10:07:32.575	$GPGGA,100733,2438.1186,N,08116.0997,W,1,9,1.5,17,M,,M,,*57
06/06/2014	10:07:33.578	$GPGGA,100734,2438.1181,N,08116.1023,W,1,9,1.5,17,M,,M,,*50
06/06/2014	10:07:34.631	$GPGGA,100735,2438.1178,N,08116.1051,W,1,9,1.5,17,M,,M,,*52
06/06/2014	10:07:35.487	$GPGGA,100736,2438.1174,N,08116.1077,W,1,9,1.5,17,M,,M,,*59
06/06/2014	10:07:36.449	$GPGGA,100737,2438.1169,N,08116.1103,W,1,9,1.5,17,M,,M,,*56
06/06/2014	10:07:37.422	$GPGGA,100738,2438.1165,N,08116.1129,W,1,9,1.5,17,M,,M,,*5D
06/06/2014	10:07:38.475	$GPGGA,100739,2438.1160,N,08116.1156,W,1,9,1.5,17,M,,M,,*51
06/06/2014	10:07:39.488	$GPGGA,100740,2438.1156,N,08116.1182,W,1,9,1.5,17,M,,M,,*53
06/06/2014	10:07:40.460	$GPGGA,100741,2438.1152,N,08116.1210,W,1,9,1.5,17,M,,M,,*5E
06/06/2014	10:07:41.423	$GPGGA,100742,2438.1146,N,08116.1236,W,1,9,1.5,17,M,,M,,*5C
06/06/2014	10:07:42.476	$GPGGA,100743,2438.1143,N,08116.1264,W,1,9,1.5,17,M,,M,,*5F
06/06/2014	10:07:43.569	$GPGGA,100744,2438.1139,N,08116.1290,W,1,9,1.5,17,M,,M,,*5E
06/06/2014	10:07:44.541	$GPGGA,100745,2438.1133,N,08116.1316,W,1,9,1.5,17,M,,M,,*5A
06/06/2014	10:07:45.424	$GPGGA,100746,2438.1128,N,08116.1344,W,1,9,1.5,17,M,,M,,*54
06/06/2014	10:07:46.567	$GPGGA,100747,2438.1124,N,08116.1369,W,1,9,1.5,17,M,,M,,*56
06/06/2014	10:07:47.488	$GPGGA,100748,2438.1120,N,08116.1396,W,1,9,1.5,17,M,,M,,*5D
06/06/2014	10:07:48.521	$GPGGA,100749,2438.1113,N,08116.1423,W,1,9,1.5,17,M,,M,,*55
06/06/2014	10:07:49.494	$GPGGA,100750,2438.1109,N,08116.1449,W,1,9,1.5,17,M,,M,,*5A
06/06/2014	10:07:50.456	$GPGGA,100751,2438.1103,N,08116.1477,W,1,9,1.5,17,M,,M,,*5C
06/06/2014	10:07:51.549	$GPGGA,100752,2438.1098,N,08116.1503,W,1,9,1.5,17,M,,M,,*5E
06/06/2014	10:07:52.532	$GPGGA,100753,2438.1092,N,08116.1529,W,1,9,1.5,17,M,,M,,*5D
06/06/2014	10:07:53.545	$GPGGA,100754,2438.1087,N,08116.1557,W,1,9,1.5,17,M,,M,,*57
06/06/2014	10:07:54.567	$GPGGA,100755,2438.1081,N,08116.1583,W,1,9,1.5,17,M,,M,,*59
06/06/2014	10:07:55.560	$GPGGA,100756,2438.1077,N,08116.1611,W,1,9,1.5,17,M,,M,,*5B
06/06/2014	10:07:56.563	$GPGGA,100757,2438.1070,N,08116.1637,W,1,9,1.5,17,M,,M,,*59
06/06/2014	10:07:57.525	$GPGGA,100758,2438.1064,N,08116.1665,W,1,9,1.5,17,M,,M,,*54
06/06/2014	10:07:58.558	$GPGGA,100759,2438.1059,N,08116.1691,W,1,9,1.5,17,M,,M,,*50
06/06/2014	10:07:59.561	$GPGGA,100800,2438.1051,N,08116.1717,W,1,9,1.5,17,M,,M,,*54
06/06/2014	10:08:00.553	$GPGGA,100801,2438.1045,N,08116.1745,W,1,9,1.5,17,M,,M,,*57
06/06/2014	10:08:01.556	$GPGGA,100802,2438.1039,N,08116.1770,W,1,9,1.5,17,M,,M,,*59
06/06/2014	10:08:02.569	$GPGGA,100803,2438.1032,N,08116.1796,W,1,9,1.5,17,M,,M,,*5B
06/06/2014	10:08:03.572	$GPGGA,100804,2438.1026,N,08116.1822,W,1,9,1.5,17,M,,M,,*59
06/06/2014	10:08:04.554	$GPGGA,100805,2438.1020,N,08116.1850,W,1,9,1.5,17,M,,M,,*5B
06/06/2014	10:08:05.536	$GPGGA,100806,2438.1014,N,08116.1875,W,1,9,1.5,17,M,,M,,*58
06/06/2014	10:08:06.569	$GPGGA,100807,2438.1008,N,08116.1902,W,1,9,1.5,17,M,,M,,*55
06/06/2014	10:08:07.551	$GPGGA,100808,2438.1001,N,08116.1929,W,1,9,1.5,17,M,,M,,*5A
06/06/2014	10:08:08.554	$GPGGA,100809,2438.0997,N,08116.1956,W,1,9,1.5,17,M,,M,,*54
06/06/2014	10:08:09.547	$GPGGA,100810,2438.0990,N,08116.1983,W,1,9,1.5,17,M,,M,,*53
06/06/2014	10:08:10.569	$GPGGA,100811,2438.0984,N,08116.2009,W,1,9,1.5,17,M,,M,,*5F
06/06/2014	10:08:11.582	$GPGGA,100812,2438.0979,N,08116.2035,W,1,9,1.5,17,M,,M,,*51
06/06/2014	10:08:12.575	$GPGGA,100813,2438.0972,N,08116.2063,W,1,9,1.5,17,M,,M,,*58
06/06/2014	10:08:13.537	$GPGGA,100814,2438.0972,N,08116.2063,W,1,9,1.5,17,M,,M,,*5F
06/06/2014	10:08:14.580	$GPGGA,100815,2438.0961,N,08116.2117,W,1,9,1.5,17,M,,M,,*5E
06/06/2014	10:08:15.583	$GPGGA,100816,2438.0954,N,08116.2142,W,1,9,1.5,17,M,,M,,*5B
06/06/2014	10:08:16.576	$GPGGA,100817,2438.0948,N,08116.2169,W,1,9,1.5,17,M,,M,,*5E
06/06/2014	10:08:17.578	$GPGGA,100818,2438.0943,N,08116.2197,W,1,9,1.5,17,M,,M,,*5B
06/06/2014	10:08:18.581	$GPGGA,100819,2438.0943,N,08116.2197,W,1,9,1.5,17,M,,M,,*5A
06/06/2014	10:08:19.584	$GPGGA,100820,2438.0932,N,08116.2249,W,1,9,1.5,17,M,,M,,*56
06/06/2014	10:08:20.546	$GPGGA,100821,2438.0925,N,08116.2276,W,1,9,1.5,17,M,,M,,*5D
06/06/2014	10:08:21.579	$GPGGA,100822,2438.0919,N,08116.2302,W,1,9,1.5,17,M,,M,,*53
06/06/2014	10:08:22.571	$GPGGA,100823,2438.0919,N,08116.2302,W,1,9,1.5,17,M,,M,,*52
06/06/2014	10:08:23.593	$GPGGA,100824,2438.0908,N,08116.2356,W,1,9,1.5,17,M,,M,,*54
06/06/2014	10:08:24.556	$GPGGA,100825,2438.0902,N,08116.2384,W,1,9,1.5,17,M,,M,,*50
06/06/2014	10:08:25.589	$GPGGA,100826,2438.0896,N,08116.2410,W,1,9,1.5,17,M,,M,,*55
06/06/2014	10:08:26.561	$GPGGA,100827,2438.0891,N,08116.2438,W,1,9,1.5,17,M,,M,,*59
06/06/2014	10:08:27.564	$GPGGA,100828,2438.0891,N,08116.2438,W,1,9,1.5,17,M,,M,,*56
06/06/2014	10:08:28.567	$GPGGA,100829,2438.0879,N,08116.2490,W,1,9,1.5,17,M,,M,,*53
06/06/2014	10:08:29.549	$GPGGA,100830,2438.0879,N,08116.2490,W,1,9,1.5,17,M,,M,,*5B
06/06/2014	10:08:30.552	$GPGGA,100831,2438.0871,N,08116.2544,W,1,9,1.5,17,M,,M,,*5A
06/06/2014	10:08:31.685	$GPGGA,100832,2438.0864,N,08116.2570,W,1,9,1.5,17,M,,M,,*5A
06/06/2014	10:08:32.648	$GPGGA,100833,2438.0860,N,08116.2598,W,1,9,1.5,17,M,,M,,*59
06/06/2014	10:08:33.560	$GPGGA,100834,2438.0860,N,08116.2598,W,1,9,1.5,17,M,,M,,*5E
06/06/2014	10:08:34.563	$GPGGA,100835,2438.0849,N,08116.2652,W,1,9,1.5,17,M,,M,,*51
06/06/2014	10:08:35.466	$GPGGA,100836,2438.0845,N,08116.2678,W,1,9,1.5,17,M,,M,,*56
06/06/2014	10:08:36.519	$GPGGA,100837,2438.0840,N,08116.2706,W,1,9,1.5,17,M,,M,,*5A
06/06/2014	10:08:37.411	$GPGGA,100838,2438.0840,N,08116.2706,W,1,9,1.5,17,M,,M,,*55
06/06/2014	10:08:38.504	$GPGGA,100839,2438.0831,N,08116.2760,W,1,9,1.5,17,M,,M,,*52
06/06/2014	10:08:39.517	$GPGGA,100840,2438.0826,N,08116.2786,W,1,9,1.5,17,M,,M,,*52
06/06/2014	10:08:40.518	$GPGGA,100841,2438.0820,N,08116.2814,W,1,9,1.5,17,M,,M,,*51
06/06/2014	10:08:41.502	$GPGGA,100842,2438.0816,N,08116.2840,W,1,9,1.5,17,M,,M,,*56
06/06/2014	10:08:42.504	$GPGGA,100843,2438.0813,N,08116.2866,W,1,9,1.5,16,M,,M,,*57
06/06/2014	10:08:43.517	$GPGGA,100844,2438.0808,N,08116.2894,W,1,9,1.5,16,M,,M,,*57
06/06/2014	10:08:44.539	$GPGGA,100845,2438.0802,N,08116.2919,W,1,7,2.0,16,M,,M,,*50
06/06/2014	10:08:45.492	$GPGGA,100846,2438.0799,N,08116.2946,W,1,7,1.5,16,M,,M,,*52
06/06/2014	10:08:46.525	$GPGGA,100847,2438.0795,N,08116.2973,W,1,9,1.5,16,M,,M,,*57
06/06/2014	10:08:47.507	$GPGGA,100848,2438.0790,N,08116.3000,W,1,9,1.5,16,M,,M,,*51
06/06/2014	10:08:48.520	$GPGGA,100849,2438.0786,N,08116.3027,W,1,9,1.5,16,M,,M,,*52
06/06/2014	10:08:49.513	$GPGGA,100850,2438.0782,N,08116.3054,W,1,9,1.5,16,M,,M,,*5A
06/06/2014	10:08:50.525	$GPGGA,100851,2438.0779,N,08116.3082,W,1,9,1.5,16,M,,M,,*54
06/06/2014	10:08:51.518	$GPGGA,100852,2438.0775,N,08116.3108,W,1,9,1.5,16,M,,M,,*58
06/06/2014	10:08:52.531	$GPGGA,100853,2438.0773,N,08116.3136,W,1,9,1.5,16,M,,M,,*52
06/06/2014	10:08:53.503	$GPGGA,100854,2438.0767,N,08116.3161,W,1,9,1.5,16,M,,M,,*52
06/06/2014	10:08:54.526	$GPGGA,100855,2438.0763,N,08116.3188,W,1,9,1.5,16,M,,M,,*50
06/06/2014	10:08:55.519	$GPGGA,100856,2438.0759,N,08116.3215,W,1,9,1.5,16,M,,M,,*5D
06/06/2014	10:08:56.532	$GPGGA,100857,2438.0755,N,08116.3241,W,1,9,1.5,16,M,,M,,*51
06/06/2014	10:08:57.503	$GPGGA,100858,2438.0750,N,08116.3269,W,1,9,1.5,16,M,,M,,*51
06/06/2014	10:08:58.526	$GPGGA,100859,2438.0746,N,08116.3295,W,1,9,1.5,16,M,,M,,*54
06/06/2014	10:08:59.529	$GPGGA,100900,2438.0742,N,08116.3322,W,1,9,1.5,16,M,,M,,*50
06/06/2014	10:09:00.501	$GPGGA,100901,2438.0737,N,08116.3349,W,1,9,1.5,16,M,,M,,*5E
06/06/2014	10:09:01.504	$GPGGA,100902,2438.0731,N,08116.3375,W,1,9,1.5,16,M,,M,,*54
06/06/2014	10:09:02.507	$GPGGA,100903,2438.0727,N,08116.3401,W,1,9,1.5,16,M,,M,,*56
06/06/2014	10:09:03.539	$GPGGA,100904,2438.0723,N,08116.3428,W,1,9,1.5,16,M,,M,,*5E
06/06/2014	10:09:04.522	$GPGGA,100905,2438.0715,N,08116.3454,W,1,9,1.5,16,M,,M,,*51
06/06/2014	10:09:05.515	$GPGGA,100906,2438.0710,N,08116.3480,W,1,9,1.5,16,M,,M,,*5E
06/06/2014	10:09:06.507	$GPGGA,100907,2438.0704,N,08116.3506,W,1,9,1.5,16,M,,M,,*55
06/06/2014	10:09:07.540	$GPGGA,100908,2438.0697,N,08116.3533,W,1,9,1.5,16,M,,M,,*57
06/06/2014	10:09:08.623	$GPGGA,100909,2438.0691,N,08116.3559,W,1,9,1.5,16,M,,M,,*5C
06/06/2014	10:09:09.505	$GPGGA,100910,2438.0685,N,08116.3585,W,1,9,1.5,16,M,,M,,*50
06/06/2014	10:09:10.508	$GPGGA,100911,2438.0678,N,08116.3611,W,1,9,1.5,16,M,,M,,*5D
06/06/2014	10:09:11.641	$GPGGA,100912,2438.0672,N,08116.3638,W,1,9,1.5,16,M,,M,,*5F
06/06/2014	10:09:12.524	$GPGGA,100913,2438.0666,N,08116.3664,W,1,9,1.5,16,M,,M,,*52
06/06/2014	10:09:13.506	$GPGGA,100914,2438.0659,N,08116.3692,W,1,9,1.5,16,M,,M,,*50
06/06/2014	10:09:14.519	$GPGGA,100915,2438.0654,N,08116.3717,W,1,9,1.5,16,M,,M,,*50
06/06/2014	10:09:15.541	$GPGGA,100916,2438.0647,N,08116.3743,W,1,9,1.5,16,M,,M,,*50
06/06/2014	10:09:16.533	$GPGGA,100917,2438.0641,N,08116.3770,W,1,9,1.5,16,M,,M,,*57
06/06/2014	10:09:17.526	$GPGGA,100918,2438.0632,N,08116.3797,W,1,9,1.7,16,M,,M,,*57
06/06/2014	10:09:18.519	$GPGGA,100919,2438.0625,N,08116.3824,W,1,9,1.5,16,M,,M,,*55
06/06/2014	10:09:19.652	$GPGGA,100920,2438.0618,N,08116.3851,W,1,9,1.5,16,M,,M,,*53
06/06/2014	10:09:20.524	$GPGGA,100921,2438.0611,N,08116.3878,W,1,9,1.5,16,M,,M,,*50
06/06/2014	10:09:21.637	$GPGGA,100922,2438.0603,N,08116.3905,W,1,9,1.7,16,M,,M,,*59
06/06/2014	10:09:22.511	$GPGGA,100923,2438.0596,N,08116.3932,W,1,9,1.5,16,M,,M,,*51
06/06/2014	10:09:23.633	$GPGGA,100924,2438.0589,N,08116.3960,W,1,9,1.5,16,M,,M,,*5F
06/06/2014	10:09:24.625	$GPGGA,100925,2438.0582,N,08116.3986,W,1,9,1.5,16,M,,M,,*5D
06/06/2014	10:09:25.528	$GPGGA,100926,2438.0576,N,08116.4012,W,1,9,1.5,16,M,,M,,*56
06/06/2014	10:09:26.661	$GPGGA,100927,2438.0569,N,08116.4039,W,1,9,1.5,16,M,,M,,*50
06/06/2014	10:09:27.643	$GPGGA,100928,2438.0562,N,08116.4064,W,1,9,1.5,17,M,,M,,*5D
06/06/2014	10:09:28.626	$GPGGA,100929,2438.0555,N,08116.4090,W,1,9,1.5,17,M,,M,,*53
06/06/2014	10:09:29.629	$GPGGA,100930,2438.0549,N,08116.4116,W,1,9,1.5,17,M,,M,,*59
06/06/2014	10:09:30.651	$GPGGA,100931,2438.0543,N,08116.4141,W,1,9,1.5,17,M,,M,,*50
06/06/2014	10:09:31.654	$GPGGA,100932,2438.0538,N,08116.4167,W,1,9,1.7,17,M,,M,,*59
06/06/2014	10:09:32.636	$GPGGA,100933,2438.0533,N,08116.4194,W,1,8,1.7,17,M,,M,,*5E
06/06/2014	10:09:33.618	$GPGGA,100934,2438.0528,N,08116.4220,W,1,8,1.7,17,M,,M,,*5F
06/06/2014	10:09:34.631	$GPGGA,100935,2438.0524,N,08116.4245,W,1,8,1.7,17,M,,M,,*51
06/06/2014	10:09:35.483	$GPGGA,100936,2438.0517,N,08116.4271,W,1,8,1.5,17,M,,M,,*57
06/06/2014	10:09:36.486	$GPGGA,100937,2438.0511,N,08116.4299,W,1,9,1.5,17,M,,M,,*57
06/06/2014	10:09:37.459	$GPGGA,100938,2438.0506,N,08116.4325,W,1,9,1.5,17,M,,M,,*58
06/06/2014	10:09:38.461	$GPGGA,100939,2438.0501,N,08116.4353,W,1,9,1.5,17,M,,M,,*5F
06/06/2014	10:09:39.485	$GPGGA,100940,2438.0495,N,08116.4379,W,1,9,1.5,17,M,,M,,*55
06/06/2014	10:09:40.486	$GPGGA,100941,2438.0489,N,08116.4405,W,1,9,1.5,17,M,,M,,*55
06/06/2014	10:09:41.459	$GPGGA,100942,2438.0485,N,08116.4433,W,1,9,1.5,17,M,,M,,*5F
06/06/2014	10:09:42.494	$GPGGA,100943,2438.0480,N,08116.4458,W,1,9,1.5,17,M,,M,,*56
06/06/2014	10:09:43.485	$GPGGA,100944,2438.0475,N,08116.4485,W,1,9,1.5,17,M,,M,,*5B
06/06/2014	10:09:44.467	$GPGGA,100945,2438.0471,N,08116.4512,W,1,9,1.5,17,M,,M,,*51
06/06/2014	10:09:45.480	$GPGGA,100946,2438.0467,N,08116.4538,W,1,9,1.5,17,M,,M,,*5D
06/06/2014	10:09:48.038	$GPGGA,100948,2438.0459,N,08116.4592,W,1,9,1.5,17,M,,M,,*5E
06/06/2014	10:09:48.500	$GPGGA,100949,2438.0454,N,08116.4618,W,1,9,1.5,17,M,,M,,*53
06/06/2014	10:09:49.481	$GPGGA,100950,2438.0450,N,08116.4646,W,1,9,1.5,17,M,,M,,*54
06/06/2014	10:09:50.513	$GPGGA,100951,2438.0445,N,08116.4671,W,1,9,1.5,17,M,,M,,*55
06/06/2014	10:09:51.485	$GPGGA,100952,2438.0441,N,08116.4696,W,1,9,2.1,17,M,,M,,*5C
06/06/2014	10:09:52.508	$GPGGA,100953,2438.0437,N,08116.4722,W,1,9,1.5,17,M,,M,,*55
06/06/2014	10:09:53.490	$GPGGA,100954,2438.0432,N,08116.4749,W,1,9,2.1,17,M,,M,,*5D
06/06/2014	10:09:54.513	$GPGGA,100955,2438.0428,N,08116.4774,W,1,9,1.5,17,M,,M,,*5E
06/06/2014	10:09:55.496	$GPGGA,100956,2438.0423,N,08116.4801,W,1,9,1.5,17,M,,M,,*5B
06/06/2014	10:09:56.478	$GPGGA,100957,2438.0419,N,08116.4827,W,1,9,1.5,17,M,,M,,*57
06/06/2014	10:09:57.491	$GPGGA,100958,2438.0414,N,08116.4853,W,1,9,1.5,17,M,,M,,*56
06/06/2014	10:09:58.484	$GPGGA,100959,2438.0410,N,08116.4879,W,1,9,1.5,17,M,,M,,*5B
06/06/2014	10:09:59.497	$GPGGA,101000,2438.0405,N,08116.4906,W,1,9,1.5,17,M,,M,,*52
06/06/2014	10:10:00.489	$GPGGA,101001,2438.0399,N,08116.4931,W,1,9,1.5,17,M,,M,,*55
06/06/2014	10:10:01.592	$GPGGA,101002,2438.0395,N,08116.4958,W,1,9,1.5,17,M,,M,,*55
06/06/2014	10:10:02.475	$GPGGA,101003,2438.0390,N,08116.4985,W,1,9,1.5,18,M,,M,,*5E
06/06/2014	10:10:03.497	$GPGGA,101004,2438.0385,N,08116.5011,W,1,9,1.5,18,M,,M,,*58
06/06/2014	10:10:04.500	$GPGGA,101005,2438.0380,N,08116.5037,W,1,9,1.5,18,M,,M,,*58
06/06/2014	10:10:05.583	$GPGGA,101006,2438.0376,N,08116.5065,W,1,9,1.5,18,M,,M,,*55
06/06/2014	10:10:06.606	$GPGGA,101007,2438.0369,N,08116.5090,W,1,9,1.5,18,M,,M,,*50
06/06/2014	10:10:07.497	$GPGGA,101008,2438.0365,N,08116.5116,W,1,9,1.5,18,M,,M,,*5C
06/06/2014	10:10:08.580	$GPGGA,101009,2438.0358,N,08116.5144,W,1,9,1.5,18,M,,M,,*54
06/06/2014	10:10:09.492	$GPGGA,101010,2438.0354,N,08116.5170,W,1,9,1.5,18,M,,M,,*57
06/06/2014	10:10:10.495	$GPGGA,101011,2438.0347,N,08116.5196,W,1,9,1.5,18,M,,M,,*5C
06/06/2014	10:10:11.588	$GPGGA,101012,2438.0341,N,08116.5222,W,1,9,1.5,18,M,,M,,*55
06/06/2014	10:10:12.621	$GPGGA,101013,2438.0336,N,08116.5249,W,1,9,1.5,19,M,,M,,*58
06/06/2014	10:10:13.583	$GPGGA,101014,2438.0330,N,08116.5275,W,1,9,1.5,19,M,,M,,*56
06/06/2014	10:10:14.586	$GPGGA,101015,2438.0324,N,08116.5303,W,1,9,1.5,19,M,,M,,*52
06/06/2014	10:10:15.589	$GPGGA,101016,2438.0318,N,08116.5329,W,1,9,1.5,19,M,,M,,*56
06/06/2014	10:10:16.602	$GPGGA,101017,2438.0312,N,08116.5355,W,1,9,1.5,19,M,,M,,*56
06/06/2014	10:10:17.594	$GPGGA,101018,2438.0307,N,08116.5381,W,1,9,1.5,19,M,,M,,*54
06/06/2014	10:10:18.607	$GPGGA,101019,2438.0301,N,08116.5408,W,1,9,1.5,19,M,,M,,*55
06/06/2014	10:10:19.610	$GPGGA,101020,2438.0295,N,08116.5434,W,1,9,1.5,19,M,,M,,*5C
06/06/2014	10:10:20.612	$GPGGA,101021,2438.0289,N,08116.5462,W,1,9,1.5,19,M,,M,,*53
06/06/2014	10:10:21.598	$GPGGA,101022,2438.0283,N,08116.5488,W,1,9,1.5,19,M,,M,,*5E
06/06/2014	10:10:22.599	$GPGGA,101023,2438.0277,N,08116.5514,W,1,9,1.5,20,M,,M,,*5A
06/06/2014	10:10:23.603	$GPGGA,101024,2438.0272,N,08116.5542,W,1,9,2.1,20,M,,M,,*5C
06/06/2014	10:10:24.603	$GPGGA,101025,2438.0266,N,08116.5568,W,1,8,2.1,20,M,,M,,*51
06/06/2014	10:10:25.605	$GPGGA,101026,2438.0260,N,08116.5593,W,1,8,1.5,20,M,,M,,*57
06/06/2014	10:10:26.587	$GPGGA,101027,2438.0253,N,08116.5619,W,1,9,1.5,20,M,,M,,*56
06/06/2014	10:10:27.610	$GPGGA,101028,2438.0248,N,08116.5647,W,1,9,1.5,20,M,,M,,*58
06/06/2014	10:10:28.617	$GPGGA,101029,2438.0242,N,08116.5672,W,1,9,1.5,20,M,,M,,*55
06/06/2014	10:10:29.596	$GPGGA,101030,2438.0236,N,08116.5699,W,1,9,1.5,20,M,,M,,*5B
06/06/2014	10:10:30.618	$GPGGA,101031,2438.0230,N,08116.5726,W,1,9,1.5,20,M,,M,,*59
06/06/2014	10:10:31.631	$GPGGA,101032,2438.0224,N,08116.5752,W,1,9,1.5,20,M,,M,,*5C
06/06/2014	10:10:32.594	$GPGGA,101033,2438.0219,N,08116.5780,W,1,9,1.5,20,M,,M,,*5C
06/06/2014	10:10:33.596	$GPGGA,101034,2438.0213,N,08116.5806,W,1,9,1.5,20,M,,M,,*50
06/06/2014	10:10:34.629	$GPGGA,101035,2438.0207,N,08116.5832,W,1,8,1.7,20,M,,M,,*50
06/06/2014	10:10:35.441	$GPGGA,101036,2438.0199,N,08116.5860,W,1,8,1.5,20,M,,M,,*52
06/06/2014	10:10:36.453	$GPGGA,101037,2438.0191,N,08116.5887,W,1,9,1.5,20,M,,M,,*53
06/06/2014	10:10:37.446	$GPGGA,101038,2438.0184,N,08116.5914,W,1,9,1.5,20,M,,M,,*53
06/06/2014	10:10:38.469	$GPGGA,101039,2438.0177,N,08116.5940,W,1,9,1.5,20,M,,M,,*5F
06/06/2014	10:10:39.472	$GPGGA,101040,2438.0171,N,08116.5968,W,1,9,1.5,20,M,,M,,*5D
06/06/2014	10:10:40.445	$GPGGA,101041,2438.0167,N,08116.5993,W,1,9,1.5,20,M,,M,,*5F
06/06/2014	10:10:41.437	$GPGGA,101042,2438.0161,N,08116.6019,W,1,9,1.7,20,M,,M,,*50
06/06/2014	10:10:42.469	$GPGGA,101043,2438.0154,N,08116.6045,W,1,8,1.7,20,M,,M,,*5F
06/06/2014	10:10:43.461	$GPGGA,101044,2438.0148,N,08116.6073,W,1,8,1.5,20,M,,M,,*52
06/06/2014	10:10:44.454	$GPGGA,101045,2438.0142,N,08116.6099,W,1,9,1.5,20,M,,M,,*5C
06/06/2014	10:10:45.447	$GPGGA,101046,2438.0135,N,08116.6127,W,1,9,1.5,20,M,,M,,*5B
06/06/2014	10:10:46.439	$GPGGA,101047,2438.0130,N,08116.6153,W,1,9,1.5,20,M,,M,,*5C
06/06/2014	10:10:47.472	$GPGGA,101048,2438.0125,N,08116.6179,W,1,9,1.5,20,M,,M,,*5F
06/06/2014	10:10:48.555	$GPGGA,101049,2438.0119,N,08116.6206,W,1,9,1.5,20,M,,M,,*5A
06/06/2014	10:10:49.447	$GPGGA,101050,2438.0113,N,08116.6232,W,1,9,1.5,20,M,,M,,*5F
06/06/2014	10:10:50.460	$GPGGA,101051,2438.0109,N,08116.6258,W,1,9,1.5,20,M,,M,,*59
06/06/2014	10:10:51.453	$GPGGA,101052,2438.0105,N,08116.6284,W,1,9,1.5,21,M,,M,,*56
06/06/2014	10:10:52.446	$GPGGA,101053,2438.0098,N,08116.6311,W,1,9,1.5,21,M,,M,,*5F
06/06/2014	10:10:53.569	$GPGGA,101054,2438.0094,N,08116.6337,W,1,9,1.5,21,M,,M,,*50
06/06/2014	10:10:54.572	$GPGGA,101055,2438.0089,N,08116.6365,W,1,9,1.5,21,M,,M,,*5A
06/06/2014	10:10:55.474	$GPGGA,101056,2438.0085,N,08116.6391,W,1,9,1.5,21,M,,M,,*5E
06/06/2014	10:10:56.456	$GPGGA,101057,2438.0080,N,08116.6417,W,1,9,1.5,21,M,,M,,*53
06/06/2014	10:10:57.539	$GPGGA,101058,2438.0076,N,08116.6445,W,1,9,1.5,21,M,,M,,*52
06/06/2014	10:10:58.582	$GPGGA,101059,2438.0072,N,08116.6470,W,1,9,1.5,21,M,,M,,*51
06/06/2014	10:10:59.574	$GPGGA,101100,2438.0069,N,08116.6497,W,1,9,1.5,21,M,,M,,*5F
06/06/2014	10:11:00.546	$GPGGA,101101,2438.0065,N,08116.6524,W,1,9,1.5,21,M,,M,,*5B
06/06/2014	10:11:01.559	$GPGGA,101102,2438.0060,N,08116.6550,W,1,9,1.5,21,M,,M,,*5E
06/06/2014	10:11:02.572	$GPGGA,101103,2438.0056,N,08116.6576,W,1,9,1.5,21,M,,M,,*5E
06/06/2014	10:11:03.564	$GPGGA,101104,2438.0052,N,08116.6602,W,1,9,1.5,21,M,,M,,*5D
06/06/2014	10:11:04.547	$GPGGA,101105,2438.0048,N,08116.6629,W,1,9,1.5,21,M,,M,,*5E
06/06/2014	10:11:05.560	$GPGGA,101106,2438.0044,N,08116.6656,W,1,9,1.5,21,M,,M,,*59
06/06/2014	10:11:06.583	$GPGGA,101107,2438.0040,N,08116.6684,W,1,9,1.5,21,M,,M,,*53
06/06/2014	10:11:07.565	$GPGGA,101108,2438.0036,N,08116.6709,W,1,9,1.5,21,M,,M,,*59
06/06/2014	10:11:08.568	$GPGGA,101109,2438.0033,N,08116.6736,W,1,8,1.6,21,M,,M,,*53
06/06/2014	10:11:09.551	$GPGGA,101110,2438.0029,N,08116.6763,W,1,8,1.5,21,M,,M,,*53
06/06/2014	10:11:10.583	$GPGGA,101111,2438.0024,N,08116.6789,W,1,9,1.5,21,M,,M,,*5A
06/06/2014	10:11:11.566	$GPGGA,101112,2438.0022,N,08116.6817,W,1,9,1.5,21,M,,M,,*57
06/06/2014	10:11:12.579	$GPGGA,101113,2438.0019,N,08116.6842,W,1,8,2.1,21,M,,M,,*58
06/06/2014	10:11:13.551	$GPGGA,101114,2438.0016,N,08116.6868,W,1,8,2.1,21,M,,M,,*58
06/06/2014	10:11:14.575	$GPGGA,101115,2438.0012,N,08116.6894,W,1,9,1.5,21,M,,M,,*58
06/06/2014	10:11:15.567	$GPGGA,101116,2438.0011,N,08116.6920,W,1,9,1.5,21,M,,M,,*56
06/06/2014	10:11:16.583	$GPGGA,101117,2438.0006,N,08116.6947,W,1,9,1.5,21,M,,M,,*50
06/06/2014	10:11:17.561	$GPGGA,101118,2438.0002,N,08116.6973,W,1,9,1.7,21,M,,M,,*5E
06/06/2014	10:11:18.554	$GPGGA,101119,2437.9998,N,08116.6999,W,1,8,1.7,21,M,,M,,*56
06/06/2014	10:11:19.577	$GPGGA,101120,2437.9993,N,08116.7025,W,1,8,1.7,21,M,,M,,*58
06/06/2014	10:11:20.589	$GPGGA,101121,2437.9989,N,08116.7052,W,1,8,1.7,21,M,,M,,*52
06/06/2014	10:11:21.562	$GPGGA,101122,2437.9983,N,08116.7077,W,1,8,1.7,21,M,,M,,*5C
06/06/2014	10:11:22.555	$GPGGA,101123,2437.9978,N,08116.7103,W,1,8,1.7,21,M,,M,,*5B
06/06/2014	10:11:23.597	$GPGGA,101124,2437.9972,N,08116.7131,W,1,8,1.7,21,M,,M,,*57
06/06/2014	10:11:24.580	$GPGGA,101125,2437.9966,N,08116.7157,W,1,9,1.5,21,M,,M,,*50
06/06/2014	10:11:25.563	$GPGGA,101126,2437.9961,N,08116.7182,W,1,9,1.7,21,M,,M,,*5E
06/06/2014	10:11:26.706	$GPGGA,101127,2437.9958,N,08116.7207,W,1,8,1.5,21,M,,M,,*58
06/06/2014	10:11:27.578	$GPGGA,101128,2437.9951,N,08116.7236,W,1,8,1.5,21,M,,M,,*5C
06/06/2014	10:11:28.571	$GPGGA,101129,2437.9943,N,08116.7262,W,1,9,1.5,21,M,,M,,*5E
06/06/2014	10:11:29.664	$GPGGA,101130,2437.9936,N,08116.7290,W,1,9,1.5,21,M,,M,,*59
06/06/2014	10:11:30.576	$GPGGA,101131,2437.9930,N,08116.7316,W,1,9,1.5,21,M,,M,,*51
06/06/2014	10:11:31.569	$GPGGA,101132,2437.9924,N,08116.7344,W,1,9,1.5,22,M,,M,,*53
06/06/2014	10:11:32.562	$GPGGA,101133,2437.9917,N,08116.7370,W,1,9,1.5,22,M,,M,,*55
06/06/2014	10:11:33.574	$GPGGA,101134,2437.9910,N,08116.7396,W,1,9,1.7,22,M,,M,,*5F
06/06/2014	10:11:34.577	$GPGGA,101135,2437.9904,N,08116.7424,W,1,8,2.2,22,M,,M,,*52
06/06/2014	10:11:35.426	$GPGGA,101136,2437.9899,N,08116.7451,W,1,8,2.2,22,M,,M,,*56
06/06/2014	10:11:36.532	$GPGGA,101137,2437.9892,N,08116.7478,W,1,9,2.5,22,M,,M,,*51
06/06/2014	10:11:37.414	$GPGGA,101138,2437.9886,N,08116.7503,W,1,9,2.5,22,M,,M,,*56
06/06/2014	10:11:38.407	$GPGGA,101139,2437.9874,N,08116.7533,W,1,8,1.7,22,M,,M,,*59
06/06/2014	10:11:39.429	$GPGGA,101140,2437.9870,N,08116.7558,W,1,8,1.5,22,M,,M,,*5C
06/06/2014	10:11:40.532	$GPGGA,101141,2437.9863,N,08116.7584,W,1,8,1.5,22,M,,M,,*5E
06/06/2014	10:11:41.515	$GPGGA,101142,2437.9859,N,08116.7612,W,1,8,1.5,22,M,,M,,*58
06/06/2014	10:11:42.538	$GPGGA,101143,2437.9853,N,08116.7637,W,1,9,1.5,22,M,,M,,*55
06/06/2014	10:11:43.430	$GPGGA,101144,2437.9847,N,08116.7664,W,1,9,1.5,22,M,,M,,*51
06/06/2014	10:11:44.523	$GPGGA,101145,2437.9841,N,08116.7691,W,1,9,1.5,22,M,,M,,*5C
06/06/2014	10:11:45.516	$GPGGA,101146,2437.9836,N,08116.7717,W,1,9,1.5,22,M,,M,,*50
06/06/2014	10:11:46.529	$GPGGA,101147,2437.9830,N,08116.7742,W,1,9,1.5,22,M,,M,,*57
06/06/2014	10:11:47.531	$GPGGA,101148,2437.9824,N,08116.7768,W,1,9,1.5,22,M,,M,,*55
06/06/2014	10:11:48.554	$GPGGA,101149,2437.9818,N,08116.7794,W,1,9,1.5,22,M,,M,,*58
06/06/2014	10:11:49.507	$GPGGA,101150,2437.9813,N,08116.7822,W,1,9,1.5,22,M,,M,,*59
06/06/2014	10:11:50.539	$GPGGA,101151,2437.9807,N,08116.7847,W,1,9,1.5,22,M,,M,,*5E
