Software Version Number: 1	Data File Format Number: 1	Build Version Number: 1	Error Count Since VI Started: 0	Manufacturer: Raytheon	 Model Number: RayMarine 120	 S/N: 	 Cal Date: 	 Wind Direction Offset: 0.00	 Slope (M)1: 0.00	 Offset (B)1: 0.00	 Slope (M)2: 0.00	 Offset (B)2: 0.00	 Slope (M)3: 0.00	 Offset (B)3: 0.00	 Slope (M)4: 0.00	 Offset (B)4: 0.00	 Slope (M)5: 0.00	 Offset (B)5: 0.00	 Slope (M)6: 0.00	 Offset (B)6: 0.00
Computer Date	Computer Time	GGA String
06/01/2014	05:00:00.215	$GPGGA,050001,2441.0708,N,07927.6926,W,1,9,1.9,14,M,,M,,*5C
06/01/2014	05:00:01.182	$GPGGA,050002,2441.0693,N,07927.6947,W,1,9,1.9,14,M,,M,,*5B
06/01/2014	05:00:02.179	$GPGGA,050003,2441.0678,N,07927.6966,W,1,9,1.9,14,M,,M,,*5C
06/01/2014	05:00:03.156	$GPGGA,050004,2441.0664,N,07927.6987,W,1,9,1.9,14,M,,M,,*59
06/01/2014	05:00:04.192	$GPGGA,050005,2441.0649,N,07927.7008,W,1,9,1.9,14,M,,M,,*58
06/01/2014	05:00:05.111	$GPGGA,050006,2441.0634,N,07927.7028,W,1,9,1.9,14,M,,M,,*53
06/01/2014	05:00:06.136	$GPGGA,050007,2441.0620,N,07927.7048,W,1,9,1.9,14,M,,M,,*51
06/01/2014	05:00:07.103	$GPGGA,050008,2441.0605,N,07927.7070,W,1,9,1.9,15,M,,M,,*53
06/01/2014	05:00:08.110	$GPGGA,050009,2441.0589,N,07927.7089,W,1,9,1.9,15,M,,M,,*53
06/01/2014	05:00:09.047	$GPGGA,050010,2441.0573,N,07927.7110,W,1,9,1.9,15,M,,M,,*5F
06/01/2014	05:00:10.093	$GPGGA,050011,2441.0573,N,07927.7110,W,1,8,2.0,15,M,,M,,*55
06/01/2014	05:00:11.022	$GPGGA,050012,2441.0544,N,07927.7150,W,1,8,1.9,15,M,,M,,*5C
06/01/2014	05:00:12.067	$GPGGA,050013,2441.0544,N,07927.7150,W,1,9,1.9,15,M,,M,,*5C
06/01/2014	05:00:12.974	$GPGGA,050014,2441.0515,N,07927.7191,W,1,9,1.9,15,M,,M,,*52
06/01/2014	05:00:14.099	$GPGGA,050015,2441.0501,N,07927.7212,W,1,9,1.9,15,M,,M,,*5E
06/01/2014	05:00:14.978	$GPGGA,050016,2441.0487,N,07927.7233,W,1,9,1.9,15,M,,M,,*51
06/01/2014	05:00:15.974	$GPGGA,050017,2441.0487,N,07927.7233,W,1,9,1.9,15,M,,M,,*50
06/01/2014	05:00:17.041	$GPGGA,050018,2441.0457,N,07927.7274,W,1,9,1.9,15,M,,M,,*51
06/01/2014	05:00:17.977	$GPGGA,050019,2441.0443,N,07927.7295,W,1,9,1.9,15,M,,M,,*5A
06/01/2014	05:00:18.914	$GPGGA,050020,2441.0428,N,07927.7316,W,1,9,1.9,15,M,,M,,*57
06/01/2014	05:00:19.950	$GPGGA,050021,2441.0414,N,07927.7337,W,1,9,1.9,15,M,,M,,*5A
06/01/2014	05:00:20.868	$GPGGA,050022,2441.0399,N,07927.7356,W,1,9,1.9,15,M,,M,,*5C
06/01/2014	05:00:21.865	$GPGGA,050023,2441.0399,N,07927.7356,W,1,9,1.9,15,M,,M,,*5D
06/01/2014	05:00:22.960	$GPGGA,050024,2441.0370,N,07927.7397,W,1,9,1.9,15,M,,M,,*50
06/01/2014	05:00:23.838	$GPGGA,050025,2441.0370,N,07927.7397,W,1,9,1.9,15,M,,M,,*51
06/01/2014	05:00:24.815	$GPGGA,050026,2441.0341,N,07927.7439,W,1,9,1.9,16,M,,M,,*50
06/01/2014	05:00:25.920	$GPGGA,050027,2441.0327,N,07927.7460,W,1,9,1.9,16,M,,M,,*5D
06/01/2014	05:00:27.671	$GPGGA,050028,2441.0311,N,07927.7479,W,1,9,1.9,16,M,,M,,*5F
06/01/2014	05:00:28.658	$GPGGA,050029,2441.0298,N,07927.7500,W,1,9,1.9,16,M,,M,,*51
06/01/2014	05:00:29.546	$GPGGA,050030,2441.0282,N,07927.7520,W,1,9,1.9,16,M,,M,,*50
06/01/2014	05:00:30.543	$GPGGA,050031,2441.0282,N,07927.7520,W,1,9,1.9,16,M,,M,,*51
06/01/2014	05:00:31.638	$GPGGA,050032,2441.0252,N,07927.7563,W,1,9,1.9,16,M,,M,,*58
06/01/2014	05:00:32.625	$GPGGA,050033,2441.0238,N,07927.7583,W,1,8,2.0,16,M,,M,,*50
06/01/2014	05:00:33.592	$GPGGA,050034,2441.0226,N,07927.7603,W,1,8,1.9,16,M,,M,,*59
06/01/2014	05:00:34.559	$GPGGA,050035,2441.0213,N,07927.7626,W,1,9,1.9,16,M,,M,,*58
06/01/2014	05:00:35.545	$GPGGA,050036,2441.0198,N,07927.7648,W,1,9,1.9,16,M,,M,,*53
06/01/2014	05:00:36.532	$GPGGA,050037,2441.0183,N,07927.7667,W,1,8,2.0,16,M,,M,,*5E
06/01/2014	05:00:37.519	$GPGGA,050038,2441.0168,N,07927.7688,W,1,8,1.9,16,M,,M,,*5F
06/01/2014	05:00:38.506	$GPGGA,050039,2441.0154,N,07927.7710,W,1,9,1.9,16,M,,M,,*50
06/01/2014	05:00:39.512	$GPGGA,050040,2441.0139,N,07927.7731,W,1,9,1.9,16,M,,M,,*56
06/01/2014	05:00:40.459	$GPGGA,050041,2441.0122,N,07927.7751,W,1,8,2.0,16,M,,M,,*50
06/01/2014	05:00:41.456	$GPGGA,050042,2441.0109,N,07927.7772,W,1,8,1.9,16,M,,M,,*51
06/01/2014	05:00:42.433	$GPGGA,050043,2441.0096,N,07927.7793,W,1,9,1.9,16,M,,M,,*59
06/01/2014	05:00:43.440	$GPGGA,050044,2441.0081,N,07927.7814,W,1,9,1.9,16,M,,M,,*58
06/01/2014	05:00:44.397	$GPGGA,050045,2441.0067,N,07927.7836,W,1,9,1.9,16,M,,M,,*51
06/01/2014	05:00:45.393	$GPGGA,050046,2441.0054,N,07927.7858,W,1,9,1.9,16,M,,M,,*5A
06/01/2014	05:00:46.400	$GPGGA,050047,2441.0040,N,07927.7879,W,1,9,1.9,16,M,,M,,*5D
06/01/2014	05:00:47.377	$GPGGA,050048,2441.0025,N,07927.7899,W,1,9,1.9,16,M,,M,,*5F
06/01/2014	05:00:48.364	$GPGGA,050049,2441.0011,N,07927.7920,W,1,9,1.9,16,M,,M,,*5A
06/01/2014	05:00:49.321	$GPGGA,050050,2440.9998,N,07927.7941,W,1,9,1.9,16,M,,M,,*55
06/01/2014	05:00:50.347	$GPGGA,050051,2440.9984,N,07927.7963,W,1,9,1.9,16,M,,M,,*59
06/01/2014	05:00:51.314	$GPGGA,050052,2440.9970,N,07927.7984,W,1,9,1.9,16,M,,M,,*58
06/01/2014	05:00:52.272	$GPGGA,050053,2440.9955,N,07927.8004,W,1,9,1.9,16,M,,M,,*50
06/01/2014	05:00:53.267	$GPGGA,050054,2440.9942,N,07927.8027,W,1,9,1.9,16,M,,M,,*50
06/01/2014	05:00:54.274	$GPGGA,050055,2440.9928,N,07927.8047,W,1,9,1.9,16,M,,M,,*5B
06/01/2014	05:00:55.260	$GPGGA,050056,2440.9915,N,07927.8068,W,1,9,1.9,16,M,,M,,*5B
06/01/2014	05:00:56.247	$GPGGA,050057,2440.9901,N,07927.8090,W,1,9,1.9,16,M,,M,,*58
06/01/2014	05:00:57.204	$GPGGA,050058,2440.9887,N,07927.8111,W,1,9,1.9,16,M,,M,,*50
06/01/2014	05:00:58.212	$GPGGA,050059,2440.9872,N,07927.8132,W,1,9,1.9,16,M,,M,,*5A
06/01/2014	05:00:59.208	$GPGGA,050100,2440.9859,N,07927.8154,W,1,9,2.0,16,M,,M,,*54
06/01/2014	05:01:00.165	$GPGGA,050101,2440.9846,N,07927.8175,W,1,9,1.9,16,M,,M,,*52
06/01/2014	05:01:01.142	$GPGGA,050102,2440.9832,N,07927.8195,W,1,9,1.9,16,M,,M,,*5C
06/01/2014	05:01:02.158	$GPGGA,050103,2440.9818,N,07927.8216,W,1,9,1.9,16,M,,M,,*5D
06/01/2014	05:01:03.125	$GPGGA,050104,2440.9804,N,07927.8237,W,1,9,1.9,16,M,,M,,*54
06/01/2014	05:01:05.563	$GPGGA,050106,2440.9776,N,07927.8280,W,1,9,1.9,16,M,,M,,*50
06/01/2014	05:01:06.108	$GPGGA,050107,2440.9761,N,07927.8300,W,1,9,1.9,16,M,,M,,*5E
06/01/2014	05:01:07.083	$GPGGA,050108,2440.9747,N,07927.8321,W,1,9,1.9,16,M,,M,,*56
06/01/2014	05:01:08.074	$GPGGA,050109,2440.9732,N,07927.8342,W,1,9,1.9,16,M,,M,,*50
06/01/2014	05:01:09.027	$GPGGA,050110,2440.9718,N,07927.8363,W,1,9,1.9,16,M,,M,,*53
06/01/2014	05:01:10.022	$GPGGA,050111,2440.9703,N,07927.8383,W,1,9,1.9,16,M,,M,,*56
06/01/2014	05:01:10.999	$GPGGA,050112,2440.9688,N,07927.8403,W,1,9,1.9,16,M,,M,,*58
06/01/2014	05:01:12.094	$GPGGA,050113,2440.9674,N,07927.8425,W,1,9,1.9,16,M,,M,,*5E
06/01/2014	05:01:12.963	$GPGGA,050114,2440.9659,N,07927.8446,W,1,9,1.9,16,M,,M,,*53
06/01/2014	05:01:14.038	$GPGGA,050115,2440.9644,N,07927.8466,W,1,9,1.9,16,M,,M,,*5C
06/01/2014	05:01:14.946	$GPGGA,050116,2440.9630,N,07927.8486,W,1,9,1.9,16,M,,M,,*52
06/01/2014	05:01:16.051	$GPGGA,050117,2440.9614,N,07927.8508,W,1,9,1.9,16,M,,M,,*52
06/01/2014	05:01:16.910	$GPGGA,050118,2440.9599,N,07927.8529,W,1,9,1.9,16,M,,M,,*58
06/01/2014	05:01:17.985	$GPGGA,050119,2440.9584,N,07927.8549,W,1,9,1.9,16,M,,M,,*53
06/01/2014	05:01:18.982	$GPGGA,050120,2440.9569,N,07927.8570,W,1,9,1.9,16,M,,M,,*50
06/01/2014	05:01:19.959	$GPGGA,050121,2440.9554,N,07927.8591,W,1,9,1.9,16,M,,M,,*50
06/01/2014	05:01:20.936	$GPGGA,050122,2440.9539,N,07927.8611,W,1,9,1.9,16,M,,M,,*53
06/01/2014	05:01:21.933	$GPGGA,050123,2440.9525,N,07927.8632,W,1,9,1.9,16,M,,M,,*5E
06/01/2014	05:01:22.919	$GPGGA,050124,2440.9510,N,07927.8653,W,1,9,1.9,16,M,,M,,*58
06/01/2014	05:01:23.916	$GPGGA,050125,2440.9496,N,07927.8674,W,1,9,1.9,16,M,,M,,*53
06/01/2014	05:01:24.883	$GPGGA,050126,2440.9480,N,07927.8694,W,1,9,1.9,16,M,,M,,*59
06/01/2014	05:01:25.890	$GPGGA,050127,2440.9465,N,07927.8714,W,1,9,1.9,16,M,,M,,*5A
06/01/2014	05:01:27.670	$GPGGA,050128,2440.9449,N,07927.8736,W,1,9,1.9,16,M,,M,,*5B
06/01/2014	05:01:28.646	$GPGGA,050129,2440.9435,N,07927.8757,W,1,8,2.0,16,M,,M,,*5D
06/01/2014	05:01:29.604	$GPGGA,050130,2440.9419,N,07927.8776,W,1,8,1.9,16,M,,M,,*52
06/01/2014	05:01:30.610	$GPGGA,050131,2440.9404,N,07927.8797,W,1,9,1.9,16,M,,M,,*51
06/01/2014	05:01:31.607	$GPGGA,050132,2440.9390,N,07927.8819,W,1,9,1.9,16,M,,M,,*51
06/01/2014	05:01:32.584	$GPGGA,050133,2440.9375,N,07927.8840,W,1,9,1.9,16,M,,M,,*57
06/01/2014	05:01:33.551	$GPGGA,050134,2440.9360,N,07927.8860,W,1,9,1.9,16,M,,M,,*56
06/01/2014	05:01:34.557	$GPGGA,050135,2440.9346,N,07927.8880,W,1,9,1.9,16,M,,M,,*5D
06/01/2014	05:01:35.524	$GPGGA,050136,2440.9332,N,07927.8902,W,1,9,1.9,16,M,,M,,*56
06/01/2014	05:01:36.521	$GPGGA,050137,2440.9319,N,07927.8923,W,1,9,1.9,16,M,,M,,*5D
06/01/2014	05:01:37.478	$GPGGA,050138,2440.9303,N,07927.8941,W,1,9,1.9,16,M,,M,,*5D
06/01/2014	05:01:38.468	$GPGGA,050139,2440.9290,N,07927.8963,W,1,9,1.9,16,M,,M,,*57
06/01/2014	05:01:39.472	$GPGGA,050140,2440.9276,N,07927.8983,W,1,9,1.9,16,M,,M,,*5F
06/01/2014	05:01:40.468	$GPGGA,050141,2440.9260,N,07927.9004,W,1,9,1.9,16,M,,M,,*5E
06/01/2014	05:01:41.435	$GPGGA,050142,2440.9247,N,07927.9025,W,1,9,1.9,16,M,,M,,*5B
06/01/2014	05:01:42.432	$GPGGA,050143,2440.9231,N,07927.9046,W,1,9,1.9,16,M,,M,,*5E
06/01/2014	05:01:43.409	$GPGGA,050144,2440.9216,N,07927.9068,W,1,9,1.9,16,M,,M,,*50
06/01/2014	05:01:44.406	$GPGGA,050145,2440.9202,N,07927.9089,W,1,9,1.9,16,M,,M,,*5B
06/01/2014	05:01:45.362	$GPGGA,050146,2440.9189,N,07927.9109,W,1,9,1.9,16,M,,M,,*51
06/01/2014	05:01:46.378	$GPGGA,050147,2440.9174,N,07927.9130,W,1,9,1.9,16,M,,M,,*58
06/01/2014	05:01:47.355	$GPGGA,050148,2440.9160,N,07927.9151,W,1,9,1.9,16,M,,M,,*55
06/01/2014	05:01:48.332	$GPGGA,050149,2440.9146,N,07927.9173,W,1,9,1.9,16,M,,M,,*50
06/01/2014	05:01:49.299	$GPGGA,050150,2440.9132,N,07927.9194,W,1,9,1.9,16,M,,M,,*52
06/01/2014	05:01:50.286	$GPGGA,050151,2440.9118,N,07927.9214,W,1,9,1.9,16,M,,M,,*50
06/01/2014	05:01:51.302	$GPGGA,050152,2440.9104,N,07927.9235,W,1,9,1.9,16,M,,M,,*5D
06/01/2014	05:01:52.269	$GPGGA,050153,2440.9090,N,07927.9256,W,1,9,1.9,16,M,,M,,*55
06/01/2014	05:01:53.256	$GPGGA,050154,2440.9077,N,07927.9277,W,1,9,1.9,16,M,,M,,*58
06/01/2014	05:01:54.253	$GPGGA,050155,2440.9061,N,07927.9297,W,1,9,1.9,16,M,,M,,*50
06/01/2014	05:01:55.230	$GPGGA,050156,2440.9048,N,07927.9318,W,1,9,1.9,16,M,,M,,*5E
06/01/2014	05:01:56.187	$GPGGA,050157,2440.9034,N,07927.9339,W,1,9,1.9,16,M,,M,,*57
06/01/2014	05:01:57.282	$GPGGA,050158,2440.9019,N,07927.9361,W,1,9,1.9,16,M,,M,,*5A
06/01/2014	05:01:58.269	$GPGGA,050159,2440.9005,N,07927.9382,W,1,9,1.9,16,M,,M,,*5B
06/01/2014	05:01:59.286	$GPGGA,050200,2440.8991,N,07927.9402,W,1,9,1.9,16,M,,M,,*5E
06/01/2014	05:02:00.154	$GPGGA,050201,2440.8977,N,07927.9423,W,1,9,1.9,16,M,,M,,*54
06/01/2014	05:02:01.112	$GPGGA,050202,2440.8963,N,07927.9444,W,1,9,1.9,16,M,,M,,*53
06/01/2014	05:02:02.197	$GPGGA,050203,2440.8948,N,07927.9465,W,1,9,1.9,16,M,,M,,*58
06/01/2014	05:02:03.192	$GPGGA,050204,2440.8934,N,07927.9487,W,1,9,1.9,16,M,,M,,*58
06/01/2014	05:02:04.100	$GPGGA,050205,2440.8922,N,07927.9509,W,1,9,1.9,16,M,,M,,*59
06/01/2014	05:02:05.166	$GPGGA,050206,2440.8906,N,07927.9528,W,1,9,1.9,16,M,,M,,*5F
06/01/2014	05:02:06.192	$GPGGA,050207,2440.8891,N,07927.9549,W,1,9,1.9,16,M,,M,,*56
06/01/2014	05:02:07.130	$GPGGA,050208,2440.8877,N,07927.9570,W,1,9,1.9,16,M,,M,,*5B
06/01/2014	05:02:08.107	$GPGGA,050209,2440.8864,N,07927.9592,W,1,9,1.9,16,M,,M,,*54
06/01/2014	05:02:09.113	$GPGGA,050210,2440.8848,N,07927.9613,W,1,9,1.9,16,M,,M,,*58
06/01/2014	05:02:10.090	$GPGGA,050211,2440.8833,N,07927.9633,W,1,9,1.9,16,M,,M,,*57
06/01/2014	05:02:11.077	$GPGGA,050212,2440.8819,N,07927.9654,W,1,9,1.9,16,M,,M,,*5D
06/01/2014	05:02:12.064	$GPGGA,050213,2440.8806,N,07927.9675,W,1,9,1.9,16,M,,M,,*51
06/01/2014	05:02:13.042	$GPGGA,050214,2440.8790,N,07927.9696,W,1,9,1.9,16,M,,M,,*5B
06/01/2014	05:02:14.028	$GPGGA,050215,2440.8777,N,07927.9715,W,1,9,1.9,16,M,,M,,*59
06/01/2014	05:02:15.024	$GPGGA,050216,2440.8761,N,07927.9736,W,1,9,1.9,16,M,,M,,*5C
06/01/2014	05:02:16.011	$GPGGA,050217,2440.8747,N,07927.9756,W,1,9,1.9,16,M,,M,,*5F
06/01/2014	05:02:16.978	$GPGGA,050218,2440.8734,N,07927.9777,W,1,9,1.9,16,M,,M,,*57
06/01/2014	05:02:17.977	$GPGGA,050219,2440.8718,N,07927.9798,W,1,9,1.9,16,M,,M,,*59
06/01/2014	05:02:18.970	$GPGGA,050220,2440.8705,N,07927.9819,W,1,9,1.9,16,M,,M,,*59
06/01/2014	05:02:19.963	$GPGGA,050221,2440.8690,N,07927.9839,W,1,9,1.9,16,M,,M,,*57
06/01/2014	05:02:20.937	$GPGGA,050222,2440.8676,N,07927.9859,W,1,9,1.9,16,M,,M,,*5A
06/01/2014	05:02:21.921	$GPGGA,050223,2440.8661,N,07927.9881,W,1,9,1.9,16,M,,M,,*58
06/01/2014	05:02:22.934	$GPGGA,050224,2440.8647,N,07927.9902,W,1,9,1.9,16,M,,M,,*51
06/01/2014	05:02:23.928	$GPGGA,050225,2440.8631,N,07927.9921,W,1,9,1.9,16,M,,M,,*50
06/01/2014	05:02:24.892	$GPGGA,050226,2440.8617,N,07927.9942,W,1,9,1.9,16,M,,M,,*52
06/01/2014	05:02:25.925	$GPGGA,050227,2440.8604,N,07927.9964,W,1,9,1.9,16,M,,M,,*55
06/01/2014	05:02:27.634	$GPGGA,050228,2440.8589,N,07927.9986,W,1,9,1.9,16,M,,M,,*50
06/01/2014	05:02:28.644	$GPGGA,050229,2440.8575,N,07928.0005,W,1,9,1.9,16,M,,M,,*56
06/01/2014	05:02:29.588	$GPGGA,050230,2440.8560,N,07928.0026,W,1,9,1.9,16,M,,M,,*5B
06/01/2014	05:02:30.611	$GPGGA,050231,2440.8546,N,07928.0047,W,1,9,1.9,16,M,,M,,*59
06/01/2014	05:02:31.595	$GPGGA,050232,2440.8531,N,07928.0068,W,1,9,1.9,16,M,,M,,*57
06/01/2014	05:02:32.589	$GPGGA,050233,2440.8517,N,07928.0090,W,1,9,1.9,16,M,,M,,*55
06/01/2014	05:02:33.573	$GPGGA,050234,2440.8503,N,07928.0109,W,1,9,1.9,16,M,,M,,*56
06/01/2014	05:02:34.596	$GPGGA,050235,2440.8488,N,07928.0130,W,1,9,1.9,16,M,,M,,*5F
06/01/2014	05:02:35.561	$GPGGA,050236,2440.8474,N,07928.0150,W,1,9,1.9,16,M,,M,,*59
06/01/2014	05:02:36.574	$GPGGA,050237,2440.8459,N,07928.0171,W,1,9,1.9,16,M,,M,,*54
06/01/2014	05:02:37.528	$GPGGA,050238,2440.8443,N,07928.0191,W,1,9,1.9,16,M,,M,,*5E
06/01/2014	05:02:38.530	$GPGGA,050239,2440.8429,N,07928.0211,W,1,9,1.9,16,M,,M,,*58
06/01/2014	05:02:39.534	$GPGGA,050240,2440.8416,N,07928.0233,W,1,9,1.9,16,M,,M,,*5A
06/01/2014	05:02:40.537	$GPGGA,050241,2440.8400,N,07928.0253,W,1,9,1.9,16,M,,M,,*5A
06/01/2014	05:02:41.491	$GPGGA,050242,2440.8387,N,07928.0274,W,1,9,2.0,16,M,,M,,*5E
06/01/2014	05:02:42.505	$GPGGA,050243,2440.8372,N,07928.0294,W,1,9,1.9,16,M,,M,,*51
06/01/2014	05:02:43.499	$GPGGA,050244,2440.8359,N,07928.0315,W,1,9,2.0,16,M,,M,,*5D
06/01/2014	05:02:44.562	$GPGGA,050245,2440.8345,N,07928.0336,W,1,9,1.9,16,M,,M,,*5A
06/01/2014	05:02:45.456	$GPGGA,050246,2440.8333,N,07928.0357,W,1,9,1.9,16,M,,M,,*5F
06/01/2014	05:02:46.450	$GPGGA,050247,2440.8319,N,07928.0379,W,1,9,1.9,16,M,,M,,*5A
06/01/2014	05:02:47.473	$GPGGA,050248,2440.8306,N,07928.0399,W,1,9,1.9,16,M,,M,,*55
06/01/2014	05:02:48.547	$GPGGA,050249,2440.8291,N,07928.0420,W,1,9,1.9,16,M,,M,,*5E
06/01/2014	05:02:49.431	$GPGGA,050250,2440.8279,N,07928.0441,W,1,9,1.9,16,M,,M,,*57
06/01/2014	05:02:50.435	$GPGGA,050251,2440.8264,N,07928.0462,W,1,9,1.9,16,M,,M,,*5B
06/01/2014	05:02:51.538	$GPGGA,050252,2440.8251,N,07928.0482,W,1,9,1.9,16,M,,M,,*50
06/01/2014	05:02:52.521	$GPGGA,050253,2440.8237,N,07928.0503,W,1,9,1.9,16,M,,M,,*59
06/01/2014	05:02:53.485	$GPGGA,050254,2440.8223,N,07928.0524,W,1,9,1.9,16,M,,M,,*5E
06/01/2014	05:02:54.400	$GPGGA,050255,2440.8210,N,07928.0545,W,1,9,1.9,16,M,,M,,*58
06/01/2014	05:02:55.482	$GPGGA,050256,2440.8196,N,07928.0564,W,1,9,1.9,16,M,,M,,*55
06/01/2014	05:02:56.386	$GPGGA,050257,2440.8183,N,07928.0585,W,1,9,1.9,16,M,,M,,*5F
06/01/2014	05:02:57.469	$GPGGA,050258,2440.8169,N,07928.0605,W,1,9,1.9,16,M,,M,,*5F
06/01/2014	05:02:58.463	$GPGGA,050259,2440.8156,N,07928.0628,W,1,9,1.9,16,M,,M,,*5D
06/01/2014	05:02:59.496	$GPGGA,050300,2440.8142,N,07928.0650,W,1,9,1.9,16,M,,M,,*5A
06/01/2014	05:03:00.450	$GPGGA,050301,2440.8128,N,07928.0669,W,1,9,1.9,16,M,,M,,*5D
06/01/2014	05:03:01.434	$GPGGA,050302,2440.8113,N,07928.0690,W,1,9,1.9,16,M,,M,,*50
06/01/2014	05:03:02.457	$GPGGA,050303,2440.8100,N,07928.0712,W,1,9,1.9,16,M,,M,,*58
06/01/2014	05:03:03.421	$GPGGA,050304,2440.8087,N,07928.0733,W,1,9,1.9,16,M,,M,,*52
06/01/2014	05:03:04.425	$GPGGA,050305,2440.8071,N,07928.0753,W,1,9,1.9,16,M,,M,,*5C
06/01/2014	05:03:05.399	$GPGGA,050306,2440.8057,N,07928.0774,W,1,9,1.9,17,M,,M,,*5F
06/01/2014	05:03:06.422	$GPGGA,050307,2440.8044,N,07928.0796,W,1,9,1.9,17,M,,M,,*50
06/01/2014	05:03:07.396	$GPGGA,050308,2440.8028,N,07928.0816,W,1,9,1.9,17,M,,M,,*52
06/01/2014	05:03:08.370	$GPGGA,050309,2440.8015,N,07928.0836,W,1,9,1.9,17,M,,M,,*5F
06/01/2014	05:03:09.354	$GPGGA,050310,2440.8000,N,07928.0857,W,1,9,1.9,17,M,,M,,*54
06/01/2014	05:03:10.378	$GPGGA,050311,2440.7986,N,07928.0878,W,1,9,1.9,17,M,,M,,*50
06/01/2014	05:03:11.362	$GPGGA,050312,2440.7971,N,07928.0897,W,1,9,1.9,17,M,,M,,*5A
06/01/2014	05:03:12.335	$GPGGA,050313,2440.7957,N,07928.0918,W,1,9,1.9,17,M,,M,,*59
06/01/2014	05:03:13.328	$GPGGA,050314,2440.7943,N,07928.0939,W,1,9,1.9,17,M,,M,,*58
06/01/2014	05:03:14.341	$GPGGA,050315,2440.7928,N,07928.0961,W,1,9,1.9,17,M,,M,,*59
06/01/2014	05:03:15.315	$GPGGA,050316,2440.7912,N,07928.0980,W,1,9,1.9,17,M,,M,,*5C
06/01/2014	05:03:16.299	$GPGGA,050317,2440.7898,N,07928.1001,W,1,8,2.0,17,M,,M,,*54
06/01/2014	05:03:17.302	$GPGGA,050318,2440.7885,N,07928.1022,W,1,8,1.9,17,M,,M,,*5C
06/01/2014	05:03:18.276	$GPGGA,050319,2440.7870,N,07928.1042,W,1,9,1.9,17,M,,M,,*50
06/01/2014	05:03:19.300	$GPGGA,050320,2440.7856,N,07928.1063,W,1,9,1.9,17,M,,M,,*5D
06/01/2014	05:03:20.304	$GPGGA,050321,2440.7841,N,07928.1084,W,1,9,1.9,17,M,,M,,*53
06/01/2014	05:03:21.267	$GPGGA,050322,2440.7827,N,07928.1103,W,1,9,1.9,17,M,,M,,*5E
06/01/2014	05:03:22.281	$GPGGA,050323,2440.7813,N,07928.1124,W,1,9,1.9,17,M,,M,,*5D
06/01/2014	05:03:23.255	$GPGGA,050324,2440.7798,N,07928.1145,W,1,9,1.9,17,M,,M,,*51
06/01/2014	05:03:24.228	$GPGGA,050325,2440.7784,N,07928.1164,W,1,9,1.9,17,M,,M,,*5E
06/01/2014	05:03:25.242	$GPGGA,050326,2440.7769,N,07928.1185,W,1,9,1.9,17,M,,M,,*51
06/01/2014	05:03:26.226	$GPGGA,050327,2440.7755,N,07928.1204,W,1,9,1.9,17,M,,M,,*55
06/01/2014	05:03:27.615	$GPGGA,050328,2440.7741,N,07928.1225,W,1,9,1.9,17,M,,M,,*5C
06/01/2014	05:03:28.593	$GPGGA,050329,2440.7726,N,07928.1244,W,1,9,1.9,17,M,,M,,*5B
06/01/2014	05:03:29.666	$GPGGA,050330,2440.7712,N,07928.1264,W,1,9,1.9,16,M,,M,,*57
06/01/2014	05:03:30.689	$GPGGA,050331,2440.7699,N,07928.1284,W,1,9,1.9,16,M,,M,,*5A
06/01/2014	05:03:31.573	$GPGGA,050332,2440.7686,N,07928.1304,W,1,9,1.9,16,M,,M,,*5E
06/01/2014	05:03:32.537	$GPGGA,050333,2440.7672,N,07928.1324,W,1,9,1.9,16,M,,M,,*56
06/01/2014	05:03:33.630	$GPGGA,050334,2440.7657,N,07928.1345,W,1,9,1.9,16,M,,M,,*51
06/01/2014	05:03:34.634	$GPGGA,050335,2440.7644,N,07928.1366,W,1,9,1.9,16,M,,M,,*53
06/01/2014	05:03:35.528	$GPGGA,050336,2440.7630,N,07928.1385,W,1,9,1.9,16,M,,M,,*5E
06/01/2014	05:03:36.642	$GPGGA,050337,2440.7615,N,07928.1405,W,1,9,1.9,16,M,,M,,*57
06/01/2014	05:03:37.496	$GPGGA,050338,2440.7603,N,07928.1425,W,1,9,1.9,16,M,,M,,*5D
06/01/2014	05:03:38.629	$GPGGA,050339,2440.7589,N,07928.1446,W,1,9,1.9,16,M,,M,,*58
06/01/2014	05:03:39.524	$GPGGA,050340,2440.7574,N,07928.1467,W,1,9,1.9,16,M,,M,,*57
06/01/2014	05:03:40.596	$GPGGA,050341,2440.7560,N,07928.1485,W,1,9,1.9,16,M,,M,,*5F
06/01/2014	05:03:41.480	$GPGGA,050342,2440.7546,N,07928.1506,W,1,9,1.9,16,M,,M,,*52
06/01/2014	05:03:42.474	$GPGGA,050343,2440.7532,N,07928.1525,W,1,9,1.9,16,M,,M,,*51
06/01/2014	05:03:43.567	$GPGGA,050344,2440.7518,N,07928.1546,W,1,9,1.9,16,M,,M,,*5B
06/01/2014	05:03:44.491	$GPGGA,050345,2440.7505,N,07928.1565,W,1,9,1.9,16,M,,M,,*57
06/01/2014	05:03:45.546	$GPGGA,050346,2440.7491,N,07928.1586,W,1,9,1.9,16,M,,M,,*55
06/01/2014	05:03:46.441	$GPGGA,050347,2440.7477,N,07928.1605,W,1,9,1.9,16,M,,M,,*54
06/01/2014	05:03:47.541	$GPGGA,050348,2440.7463,N,07928.1626,W,1,9,1.9,16,M,,M,,*5F
06/01/2014	05:03:48.525	$GPGGA,050349,2440.7450,N,07928.1647,W,1,9,1.9,16,M,,M,,*59
06/01/2014	05:03:49.509	$GPGGA,050350,2440.7435,N,07928.1665,W,1,9,2.0,16,M,,M,,*58
06/01/2014	05:03:50.492	$GPGGA,050351,2440.7420,N,07928.1687,W,1,8,1.9,16,M,,M,,*5A
06/01/2014	05:03:51.506	$GPGGA,050352,2440.7408,N,07928.1706,W,1,8,1.9,16,M,,M,,*5B
06/01/2014	05:03:52.500	$GPGGA,050353,2440.7393,N,07928.1727,W,1,9,1.9,16,M,,M,,*5D
06/01/2014	05:03:53.493	$GPGGA,050354,2440.7380,N,07928.1746,W,1,9,1.9,16,M,,M,,*5F
06/01/2014	05:03:54.497	$GPGGA,050355,2440.7366,N,07928.1767,W,1,9,1.9,16,M,,M,,*55
06/01/2014	05:03:55.471	$GPGGA,050356,2440.7352,N,07928.1788,W,1,9,1.9,16,M,,M,,*50
06/01/2014	05:03:56.464	$GPGGA,050357,2440.7339,N,07928.1807,W,1,9,1.9,16,M,,M,,*54
06/01/2014	05:03:57.438	$GPGGA,050358,2440.7326,N,07928.1828,W,1,9,1.9,16,M,,M,,*58
06/01/2014	05:03:58.462	$GPGGA,050359,2440.7314,N,07928.1847,W,1,9,1.9,16,M,,M,,*51
06/01/2014	05:03:59.465	$GPGGA,050400,2440.7300,N,07928.1868,W,1,9,1.9,16,M,,M,,*52
06/01/2014	05:04:00.429	$GPGGA,050401,2440.7287,N,07928.1889,W,1,9,2.2,16,M,,M,,*5A
06/01/2014	05:04:01.403	$GPGGA,050402,2440.7273,N,07928.1911,W,1,9,2.0,16,M,,M,,*50
06/01/2014	05:04:02.417	$GPGGA,050403,2440.7260,N,07928.1933,W,1,8,2.0,16,M,,M,,*52
06/01/2014	05:04:03.401	$GPGGA,050404,2440.7245,N,07928.1955,W,1,8,2.0,16,M,,M,,*52
06/01/2014	05:04:04.425	$GPGGA,050405,2440.7232,N,07928.1976,W,1,8,1.9,16,M,,M,,*58
06/01/2014	05:04:05.368	$GPGGA,050406,2440.7220,N,07928.1998,W,1,8,1.9,16,M,,M,,*58
06/01/2014	05:04:06.381	$GPGGA,050407,2440.7206,N,07928.2019,W,1,9,2.0,16,M,,M,,*55
06/01/2014	05:04:07.384	$GPGGA,050408,2440.7192,N,07928.2039,W,1,9,2.0,17,M,,M,,*57
06/01/2014	05:04:08.378	$GPGGA,050409,2440.7178,N,07928.2060,W,1,8,2.0,17,M,,M,,*5F
06/01/2014	05:04:09.342	$GPGGA,050410,2440.7166,N,07928.2081,W,1,8,1.9,17,M,,M,,*5D
06/01/2014	05:04:10.326	$GPGGA,050411,2440.7151,N,07928.2100,W,1,9,2.0,17,M,,M,,*5B
06/01/2014	05:04:11.329	$GPGGA,050412,2440.7137,N,07928.2121,W,1,9,1.9,17,M,,M,,*51
06/01/2014	05:04:12.303	$GPGGA,050413,2440.7123,N,07928.2142,W,1,9,2.0,17,M,,M,,*5A
06/01/2014	05:04:13.327	$GPGGA,050414,2440.7112,N,07928.2164,W,1,9,1.9,17,M,,M,,*51
06/01/2014	05:04:14.330	$GPGGA,050415,2440.7098,N,07928.2182,W,1,9,1.9,17,M,,M,,*5B
06/01/2014	05:04:15.314	$GPGGA,050416,2440.7087,N,07928.2204,W,1,9,1.9,17,M,,M,,*5B
06/01/2014	05:04:16.268	$GPGGA,050417,2440.7074,N,07928.2225,W,1,9,1.9,17,M,,M,,*55
06/01/2014	05:04:17.291	$GPGGA,050418,2440.7061,N,07928.2247,W,1,9,1.9,17,M,,M,,*5A
06/01/2014	05:04:18.255	$GPGGA,050419,2440.7047,N,07928.2265,W,1,9,2.0,17,M,,M,,*55
06/01/2014	05:04:19.299	$GPGGA,050420,2440.7034,N,07928.2287,W,1,9,1.9,17,M,,M,,*5D
06/01/2014	05:04:20.362	$GPGGA,050421,2440.7021,N,07928.2306,W,1,9,1.9,17,M,,M,,*50
06/01/2014	05:04:21.246	$GPGGA,050422,2440.7008,N,07928.2327,W,1,9,1.9,17,M,,M,,*5B
06/01/2014	05:04:22.250	$GPGGA,050423,2440.6996,N,07928.2348,W,1,9,1.9,17,M,,M,,*5C
06/01/2014	05:04:23.243	$GPGGA,050424,2440.6982,N,07928.2367,W,1,9,1.9,18,M,,M,,*5C
06/01/2014	05:04:24.217	$GPGGA,050425,2440.6971,N,07928.2388,W,1,9,1.9,18,M,,M,,*50
06/01/2014	05:04:25.290	$GPGGA,050426,2440.6956,N,07928.2410,W,1,9,1.9,18,M,,M,,*50
06/01/2014	05:04:26.323	$GPGGA,050427,2440.6942,N,07928.2429,W,1,9,1.9,18,M,,M,,*5E
06/01/2014	05:04:27.616	$GPGGA,050428,2440.6928,N,07928.2449,W,1,9,1.9,18,M,,M,,*5B
06/01/2014	05:04:28.681	$GPGGA,050429,2440.6915,N,07928.2469,W,1,9,1.9,18,M,,M,,*56
06/01/2014	05:04:29.555	$GPGGA,050430,2440.6902,N,07928.2489,W,1,9,1.9,18,M,,M,,*56
06/01/2014	05:04:30.638	$GPGGA,050431,2440.6888,N,07928.2508,W,1,9,1.9,18,M,,M,,*5C
06/01/2014	05:04:31.672	$GPGGA,050432,2440.6874,N,07928.2529,W,1,9,1.9,18,M,,M,,*5F
06/01/2014	05:04:32.636	$GPGGA,050433,2440.6860,N,07928.2548,W,1,9,1.9,18,M,,M,,*5C
06/01/2014	05:04:33.609	$GPGGA,050434,2440.6846,N,07928.2568,W,1,9,1.9,18,M,,M,,*5D
06/01/2014	05:04:34.613	$GPGGA,050435,2440.6832,N,07928.2587,W,1,9,1.9,18,M,,M,,*5E
06/01/2014	05:04:35.617	$GPGGA,050436,2440.6819,N,07928.2608,W,1,9,1.9,18,M,,M,,*50
06/01/2014	05:04:36.620	$GPGGA,050437,2440.6803,N,07928.2626,W,1,9,1.9,18,M,,M,,*56
06/01/2014	05:04:37.574	$GPGGA,050438,2440.6790,N,07928.2646,W,1,9,1.9,18,M,,M,,*5A
06/01/2014	05:04:38.598	$GPGGA,050439,2440.6776,N,07928.2666,W,1,9,1.9,18,M,,M,,*51
06/01/2014	05:04:39.572	$GPGGA,050440,2440.6761,N,07928.2684,W,1,9,1.9,18,M,,M,,*55
06/01/2014	05:04:40.574	$GPGGA,050441,2440.6747,N,07928.2703,W,1,9,1.9,18,M,,M,,*5E
06/01/2014	05:04:41.558	$GPGGA,050442,2440.6732,N,07928.2721,W,1,9,1.9,18,M,,M,,*5F
06/01/2014	05:04:42.563	$GPGGA,050443,2440.6718,N,07928.2739,W,1,9,1.9,18,M,,M,,*5F
06/01/2014	05:04:43.545	$GPGGA,050444,2440.6703,N,07928.2760,W,1,9,1.9,18,M,,M,,*5E
06/01/2014	05:04:44.549	$GPGGA,050445,2440.6689,N,07928.2778,W,1,9,1.9,18,M,,M,,*55
06/01/2014	05:04:45.513	$GPGGA,050446,2440.6673,N,07928.2796,W,1,9,1.9,18,M,,M,,*53
06/01/2014	05:04:46.527	$GPGGA,050447,2440.6658,N,07928.2814,W,1,9,1.9,18,M,,M,,*5E
06/01/2014	05:04:47.500	$GPGGA,050448,2440.6642,N,07928.2832,W,1,9,1.9,18,M,,M,,*5E
06/01/2014	05:04:48.484	$GPGGA,050449,2440.6628,N,07928.2850,W,1,9,1.9,18,M,,M,,*57
06/01/2014	05:04:49.478	$GPGGA,050450,2440.6613,N,07928.2868,W,1,9,1.9,18,M,,M,,*5C
06/01/2014	05:04:50.501	$GPGGA,050451,2440.6597,N,07928.2887,W,1,9,1.9,18,M,,M,,*53
06/01/2014	05:04:51.475	$GPGGA,050452,2440.6581,N,07928.2905,W,1,9,1.9,18,M,,M,,*5C
06/01/2014	05:04:52.449	$GPGGA,050453,2440.6566,N,07928.2921,W,1,9,1.9,18,M,,M,,*52
06/01/2014	05:04:53.433	$GPGGA,050454,2440.6550,N,07928.2939,W,1,9,1.9,18,M,,M,,*59
06/01/2014	05:04:54.466	$GPGGA,050455,2440.6534,N,07928.2957,W,1,9,1.9,18,M,,M,,*52
06/01/2014	05:04:55.450	$GPGGA,050456,2440.6519,N,07928.2975,W,1,9,1.9,18,M,,M,,*5E
06/01/2014	05:04:56.473	$GPGGA,050457,2440.6505,N,07928.2993,W,1,9,1.9,18,M,,M,,*5A
06/01/2014	05:04:57.407	$GPGGA,050458,2440.6488,N,07928.3011,W,1,9,1.9,18,M,,M,,*53
06/01/2014	05:04:58.400	$GPGGA,050459,2440.6472,N,07928.3028,W,1,9,1.9,18,M,,M,,*5D
06/01/2014	05:04:59.424	$GPGGA,050500,2440.6458,N,07928.3047,W,1,9,1.9,18,M,,M,,*51
06/01/2014	05:05:00.417	$GPGGA,050501,2440.6442,N,07928.3064,W,1,9,1.9,18,M,,M,,*5A
06/01/2014	05:05:01.501	$GPGGA,050502,2440.6426,N,07928.3082,W,1,9,1.9,18,M,,M,,*53
06/01/2014	05:05:02.375	$GPGGA,050503,2440.6411,N,07928.3098,W,1,9,1.9,17,M,,M,,*52
06/01/2014	05:05:03.369	$GPGGA,050504,2440.6394,N,07928.3118,W,1,9,1.9,17,M,,M,,*56
06/01/2014	05:05:04.372	$GPGGA,050505,2440.6379,N,07928.3134,W,1,9,1.9,17,M,,M,,*5A
06/01/2014	05:05:05.336	$GPGGA,050506,2440.6364,N,07928.3152,W,1,9,1.9,17,M,,M,,*55
06/01/2014	05:05:06.330	$GPGGA,050507,2440.6348,N,07928.3170,W,1,9,1.9,17,M,,M,,*5A
06/01/2014	05:05:07.353	$GPGGA,050508,2440.6333,N,07928.3188,W,1,9,1.9,17,M,,M,,*5E
06/01/2014	05:05:08.317	$GPGGA,050509,2440.6318,N,07928.3206,W,1,9,1.9,17,M,,M,,*53
06/01/2014	05:05:09.301	$GPGGA,050510,2440.6302,N,07928.3223,W,1,9,1.9,17,M,,M,,*57
06/01/2014	05:05:10.394	$GPGGA,050511,2440.6288,N,07928.3241,W,1,9,1.9,17,M,,M,,*51
06/01/2014	05:05:11.298	$GPGGA,050512,2440.6273,N,07928.3260,W,1,9,1.9,17,M,,M,,*55
06/01/2014	05:05:12.382	$GPGGA,050513,2440.6259,N,07928.3277,W,1,9,1.9,17,M,,M,,*5A
06/01/2014	05:05:13.286	$GPGGA,050514,2440.6245,N,07928.3295,W,1,9,1.9,17,M,,M,,*5C
06/01/2014	05:05:14.389	$GPGGA,050515,2440.6230,N,07928.3313,W,1,9,1.9,17,M,,M,,*50
06/01/2014	05:05:15.272	$GPGGA,050516,2440.6216,N,07928.3329,W,1,9,1.9,17,M,,M,,*5E
06/01/2014	05:05:16.365	$GPGGA,050517,2440.6201,N,07928.3347,W,1,9,1.9,17,M,,M,,*51
06/01/2014	05:05:17.250	$GPGGA,050518,2440.6187,N,07928.3364,W,1,9,1.9,17,M,,M,,*52
06/01/2014	05:05:18.333	$GPGGA,050519,2440.6172,N,07928.3382,W,1,9,1.9,16,M,,M,,*50
06/01/2014	05:05:19.336	$GPGGA,050520,2440.6158,N,07928.3400,W,1,9,1.9,16,M,,M,,*5F
06/01/2014	05:05:20.330	$GPGGA,050521,2440.6144,N,07928.3418,W,1,9,1.9,16,M,,M,,*5A
06/01/2014	05:05:21.324	$GPGGA,050522,2440.6130,N,07928.3434,W,1,9,1.9,16,M,,M,,*54
06/01/2014	05:05:22.337	$GPGGA,050523,2440.6117,N,07928.3452,W,1,9,1.9,16,M,,M,,*50
06/01/2014	05:05:23.301	$GPGGA,050524,2440.6104,N,07928.3469,W,1,9,1.9,16,M,,M,,*5D
06/01/2014	05:05:24.325	$GPGGA,050525,2440.6089,N,07928.3487,W,1,9,1.9,16,M,,M,,*58
06/01/2014	05:05:25.269	$GPGGA,050526,2440.6076,N,07928.3505,W,1,9,1.9,16,M,,M,,*50
06/01/2014	05:05:26.302	$GPGGA,050527,2440.6064,N,07928.3523,W,1,9,1.9,16,M,,M,,*56
06/01/2014	05:05:27.656	$GPGGA,050528,2440.6049,N,07928.3540,W,1,9,1.9,16,M,,M,,*53
06/01/2014	05:05:28.640	$GPGGA,050529,2440.6036,N,07928.3559,W,1,9,1.9,16,M,,M,,*52
06/01/2014	05:05:29.624	$GPGGA,050530,2440.6023,N,07928.3576,W,1,9,1.9,16,M,,M,,*53
06/01/2014	05:05:30.637	$GPGGA,050531,2440.6010,N,07928.3594,W,1,9,1.9,16,M,,M,,*5E
06/01/2014	05:05:31.621	$GPGGA,050532,2440.5997,N,07928.3610,W,1,9,1.9,16,M,,M,,*57
06/01/2014	05:05:32.614	$GPGGA,050533,2440.5984,N,07928.3628,W,1,9,1.9,16,M,,M,,*5F
06/01/2014	05:05:33.588	$GPGGA,050534,2440.5970,N,07928.3646,W,1,9,1.9,16,M,,M,,*5B
06/01/2014	05:05:34.611	$GPGGA,050535,2440.5957,N,07928.3664,W,1,9,1.9,16,M,,M,,*5F
06/01/2014	05:05:35.595	$GPGGA,050536,2440.5946,N,07928.3682,W,1,9,2.0,16,M,,M,,*5E
06/01/2014	05:05:36.608	$GPGGA,050537,2440.5934,N,07928.3700,W,1,9,1.9,16,M,,M,,*5B
06/01/2014	05:05:37.562	$GPGGA,050538,2440.5923,N,07928.3717,W,1,9,1.9,15,M,,M,,*57
06/01/2014	05:05:38.536	$GPGGA,050539,2440.5909,N,07928.3736,W,1,9,1.9,15,M,,M,,*5D
06/01/2014	05:05:39.550	$GPGGA,050540,2440.5898,N,07928.3753,W,1,9,1.9,15,M,,M,,*59
06/01/2014	05:05:40.573	$GPGGA,050541,2440.5884,N,07928.3770,W,1,9,1.9,15,M,,M,,*54
06/01/2014	05:05:41.517	$GPGGA,050542,2440.5871,N,07928.3788,W,1,9,1.9,15,M,,M,,*5A
06/01/2014	05:05:42.541	$GPGGA,050543,2440.5858,N,07928.3806,W,1,9,1.9,15,M,,M,,*59
06/01/2014	05:05:43.525	$GPGGA,050544,2440.5846,N,07928.3824,W,1,9,1.9,15,M,,M,,*51
06/01/2014	05:05:45.899	$GPGGA,050546,2440.5822,N,07928.3859,W,1,9,1.9,15,M,,M,,*5B
06/01/2014	05:05:46.517	$GPGGA,050547,2440.5808,N,07928.3877,W,1,9,1.9,15,M,,M,,*5E
06/01/2014	05:05:47.481	$GPGGA,050548,2440.5793,N,07928.3895,W,1,9,2.0,15,M,,M,,*5A
06/01/2014	05:05:48.493	$GPGGA,050549,2440.5779,N,07928.3913,W,1,9,1.9,15,M,,M,,*5A
06/01/2014	05:05:49.469	$GPGGA,050550,2440.5766,N,07928.3931,W,1,9,1.9,15,M,,M,,*5C
06/01/2014	05:05:50.450	$GPGGA,050551,2440.5754,N,07928.3949,W,1,9,1.9,15,M,,M,,*53
06/01/2014	05:05:51.463	$GPGGA,050552,2440.5741,N,07928.3965,W,1,9,1.9,15,M,,M,,*5A
06/01/2014	05:05:52.447	$GPGGA,050553,2440.5729,N,07928.3985,W,1,9,1.9,15,M,,M,,*5B
06/01/2014	05:05:53.421	$GPGGA,050554,2440.5717,N,07928.4001,W,1,9,1.9,15,M,,M,,*53
06/01/2014	05:05:54.534	$GPGGA,050555,2440.5703,N,07928.4018,W,1,9,1.9,15,M,,M,,*5F
06/01/2014	05:05:55.418	$GPGGA,050556,2440.5692,N,07928.4036,W,1,9,1.9,15,M,,M,,*59
06/01/2014	05:05:56.392	$GPGGA,050557,2440.5678,N,07928.4054,W,1,9,1.9,15,M,,M,,*58
06/01/2014	05:05:57.396	$GPGGA,050558,2440.5665,N,07928.4072,W,1,9,1.9,15,M,,M,,*5F
06/01/2014	05:05:58.489	$GPGGA,050559,2440.5653,N,07928.4090,W,1,9,1.9,15,M,,M,,*57
06/01/2014	05:05:59.383	$GPGGA,050600,2440.5639,N,07928.4108,W,1,9,1.9,15,M,,M,,*54
06/01/2014	05:06:00.476	$GPGGA,050601,2440.5627,N,07928.4126,W,1,9,1.9,15,M,,M,,*56
06/01/2014	05:06:01.351	$GPGGA,050602,2440.5614,N,07928.4144,W,1,9,1.9,15,M,,M,,*51
06/01/2014	05:06:02.354	$GPGGA,050603,2440.5600,N,07928.4160,W,1,9,1.9,15,M,,M,,*53
06/01/2014	05:06:03.447	$GPGGA,050604,2440.5587,N,07928.4177,W,1,9,1.9,15,M,,M,,*5E
06/01/2014	05:06:04.431	$GPGGA,050605,2440.5574,N,07928.4195,W,1,9,1.9,15,M,,M,,*5F
06/01/2014	05:06:05.435	$GPGGA,050606,2440.5562,N,07928.4212,W,1,9,1.9,15,M,,M,,*57
06/01/2014	05:06:06.418	$GPGGA,050607,2440.5548,N,07928.4230,W,1,9,1.9,15,M,,M,,*5E
06/01/2014	05:06:07.411	$GPGGA,050608,2440.5534,N,07928.4248,W,1,9,1.9,15,M,,M,,*55
06/01/2014	05:06:08.405	$GPGGA,050609,2440.5522,N,07928.4264,W,1,9,1.9,15,M,,M,,*5D
06/01/2014	05:06:09.399	$GPGGA,050610,2440.5508,N,07928.4281,W,1,9,1.9,15,M,,M,,*56
06/01/2014	05:06:10.392	$GPGGA,050611,2440.5494,N,07928.4299,W,1,9,1.9,15,M,,M,,*5A
06/01/2014	05:06:11.396	$GPGGA,050612,2440.5481,N,07928.4317,W,1,9,1.9,15,M,,M,,*5A
06/01/2014	05:06:12.380	$GPGGA,050613,2440.5468,N,07928.4333,W,1,9,1.9,15,M,,M,,*5A
06/01/2014	05:06:13.353	$GPGGA,050614,2440.5453,N,07928.4350,W,1,9,1.9,15,M,,M,,*50
06/01/2014	05:06:14.337	$GPGGA,050615,2440.5440,N,07928.4368,W,1,9,1.9,15,M,,M,,*58
06/01/2014	05:06:15.361	$GPGGA,050616,2440.5428,N,07928.4384,W,1,9,1.9,15,M,,M,,*57
06/01/2014	05:06:16.354	$GPGGA,050617,2440.5414,N,07928.4401,W,1,9,1.9,15,M,,M,,*53
06/01/2014	05:06:17.318	$GPGGA,050618,2440.5399,N,07928.4418,W,1,9,1.9,15,M,,M,,*56
06/01/2014	05:06:18.322	$GPGGA,050619,2440.5386,N,07928.4436,W,1,9,1.9,15,M,,M,,*55
06/01/2014	05:06:19.316	$GPGGA,050620,2440.5372,N,07928.4452,W,1,9,1.9,15,M,,M,,*56
06/01/2014	05:06:20.309	$GPGGA,050621,2440.5359,N,07928.4469,W,1,9,1.9,15,M,,M,,*56
06/01/2014	05:06:21.273	$GPGGA,050622,2440.5345,N,07928.4487,W,1,9,1.9,15,M,,M,,*58
06/01/2014	05:06:22.287	$GPGGA,050623,2440.5331,N,07928.4502,W,1,9,1.9,15,M,,M,,*56
06/01/2014	05:06:23.280	$GPGGA,050624,2440.5318,N,07928.4520,W,1,9,1.9,15,M,,M,,*5A
06/01/2014	05:06:24.284	$GPGGA,050625,2440.5305,N,07928.4538,W,1,9,1.9,15,M,,M,,*5E
06/01/2014	05:06:25.247	$GPGGA,050626,2440.5291,N,07928.4555,W,1,9,1.9,15,M,,M,,*5A
06/01/2014	05:06:26.251	$GPGGA,050627,2440.5278,N,07928.4571,W,1,9,1.9,15,M,,M,,*5A
06/01/2014	05:06:27.636	$GPGGA,050628,2440.5264,N,07928.4588,W,1,9,1.9,15,M,,M,,*5E
06/01/2014	05:06:28.609	$GPGGA,050629,2440.5251,N,07928.4606,W,1,9,1.9,15,M,,M,,*5C
06/01/2014	05:06:29.603	$GPGGA,050630,2440.5237,N,07928.4624,W,1,9,1.9,15,M,,M,,*54
06/01/2014	05:06:30.587	$GPGGA,050631,2440.5223,N,07928.4639,W,1,9,1.9,15,M,,M,,*5C
06/01/2014	05:06:31.600	$GPGGA,050632,2440.5210,N,07928.4657,W,1,9,1.9,15,M,,M,,*57
06/01/2014	05:06:32.604	$GPGGA,050633,2440.5197,N,07928.4673,W,1,9,1.9,15,M,,M,,*5C
06/01/2014	05:06:33.559	$GPGGA,050634,2440.5183,N,07928.4690,W,1,9,1.9,14,M,,M,,*52
06/01/2014	05:06:34.561	$GPGGA,050635,2440.5169,N,07928.4707,W,1,9,1.9,14,M,,M,,*58
06/01/2014	05:06:35.565	$GPGGA,050636,2440.5156,N,07928.4725,W,1,9,1.9,14,M,,M,,*57
06/01/2014	05:06:36.668	$GPGGA,050637,2440.5143,N,07928.4743,W,1,9,1.9,14,M,,M,,*52
06/01/2014	05:06:37.523	$GPGGA,050638,2440.5129,N,07928.4759,W,1,9,1.9,14,M,,M,,*5A
06/01/2014	05:06:38.546	$GPGGA,050639,2440.5115,N,07928.4776,W,1,9,1.9,14,M,,M,,*59
06/01/2014	05:06:39.520	$GPGGA,050640,2440.5103,N,07928.4794,W,1,9,1.9,14,M,,M,,*5C
06/01/2014	05:06:40.494	$GPGGA,050641,2440.5089,N,07928.4810,W,1,9,1.9,14,M,,M,,*5D
06/01/2014	05:06:41.656	$GPGGA,050642,2440.5075,N,07928.4828,W,1,9,1.9,14,M,,M,,*56
06/01/2014	05:06:42.510	$GPGGA,050643,2440.5062,N,07928.4845,W,1,9,1.9,14,M,,M,,*5A
06/01/2014	05:06:43.494	$GPGGA,050644,2440.5049,N,07928.4863,W,1,9,1.9,14,M,,M,,*50
06/01/2014	05:06:44.507	$GPGGA,050645,2440.5036,N,07928.4881,W,1,9,1.9,14,M,,M,,*55
06/01/2014	05:06:45.471	$GPGGA,050646,2440.5022,N,07928.4897,W,1,9,1.9,14,M,,M,,*54
06/01/2014	05:06:46.445	$GPGGA,050647,2440.5009,N,07928.4914,W,1,9,1.9,14,M,,M,,*56
06/01/2014	05:06:47.469	$GPGGA,050648,2440.4997,N,07928.4931,W,1,9,1.9,14,M,,M,,*51
06/01/2014	05:06:48.432	$GPGGA,050649,2440.4984,N,07928.4949,W,1,9,1.9,14,M,,M,,*5D
06/01/2014	05:06:49.436	$GPGGA,050650,2440.4970,N,07928.4967,W,1,9,1.9,14,M,,M,,*52
06/01/2014	05:06:50.430	$GPGGA,050651,2440.4957,N,07928.4985,W,1,9,1.9,14,M,,M,,*5A
06/01/2014	05:06:51.523	$GPGGA,050652,2440.4944,N,07928.5001,W,1,9,1.9,14,M,,M,,*5F
06/01/2014	05:06:52.427	$GPGGA,050653,2440.4932,N,07928.5018,W,1,9,1.9,14,M,,M,,*57
06/01/2014	05:06:53.490	$GPGGA,050654,2440.4919,N,07928.5036,W,1,9,1.9,14,M,,M,,*55
06/01/2014	05:06:54.524	$GPGGA,050655,2440.4906,N,07928.5054,W,1,9,1.9,14,M,,M,,*5E
06/01/2014	05:06:55.557	$GPGGA,050656,2440.4892,N,07928.5072,W,1,9,1.9,14,M,,M,,*55
06/01/2014	05:06:56.541	$GPGGA,050657,2440.4881,N,07928.5088,W,1,8,1.9,14,M,,M,,*52
06/01/2014	05:06:57.366	$GPGGA,050658,2440.4868,N,07928.5106,W,1,8,1.9,14,M,,M,,*5D
06/01/2014	05:06:58.449	$GPGGA,050659,2440.4856,N,07928.5124,W,1,9,1.9,14,M,,M,,*50
06/01/2014	05:06:59.383	$GPGGA,050700,2440.4843,N,07928.5141,W,1,9,1.9,14,M,,M,,*5A
06/01/2014	05:07:00.455	$GPGGA,050701,2440.4828,N,07928.5159,W,1,8,2.0,13,M,,M,,*53
06/01/2014	05:07:01.499	$GPGGA,050702,2440.4816,N,07928.5177,W,1,8,2.0,13,M,,M,,*51
06/01/2014	05:07:02.443	$GPGGA,050703,2440.4803,N,07928.5195,W,1,9,1.9,13,M,,M,,*53
06/01/2014	05:07:03.496	$GPGGA,050704,2440.4790,N,07928.5213,W,1,9,2.0,13,M,,M,,*56
06/01/2014	05:07:04.440	$GPGGA,050705,2440.4776,N,07928.5231,W,1,8,2.0,13,M,,M,,*5E
06/01/2014	05:07:05.463	$GPGGA,050706,2440.4764,N,07928.5249,W,1,8,2.0,13,M,,M,,*51
06/01/2014	05:07:06.427	$GPGGA,050707,2440.4751,N,07928.5267,W,1,8,1.9,13,M,,M,,*50
06/01/2014	05:07:07.461	$GPGGA,050708,2440.4738,N,07928.5285,W,1,8,1.9,13,M,,M,,*5C
06/01/2014	05:07:08.405	$GPGGA,050709,2440.4725,N,07928.5301,W,1,9,1.9,13,M,,M,,*5D
06/01/2014	05:07:09.349	$GPGGA,050710,2440.4713,N,07928.5319,W,1,9,2.0,13,M,,M,,*53
06/01/2014	05:07:10.392	$GPGGA,050711,2440.4702,N,07928.5339,W,1,9,2.0,13,M,,M,,*50
06/01/2014	05:07:11.432	$GPGGA,050712,2440.4688,N,07928.5355,W,1,9,2.0,13,M,,M,,*5A
06/01/2014	05:07:12.370	$GPGGA,050713,2440.4674,N,07928.5373,W,1,8,2.0,13,M,,M,,*5D
06/01/2014	05:07:13.373	$GPGGA,050714,2440.4663,N,07928.5391,W,1,8,1.9,13,M,,M,,*5A
06/01/2014	05:07:14.314	$GPGGA,050715,2440.4650,N,07928.5409,W,1,9,1.9,13,M,,M,,*5C
06/01/2014	05:07:15.321	$GPGGA,050716,2440.4637,N,07928.5427,W,1,9,1.9,13,M,,M,,*52
06/01/2014	05:07:16.384	$GPGGA,050717,2440.4624,N,07928.5445,W,1,8,2.0,13,M,,M,,*5E
06/01/2014	05:07:17.357	$GPGGA,050718,2440.4612,N,07928.5463,W,1,8,1.9,13,M,,M,,*5A
06/01/2014	05:07:18.342	$GPGGA,050719,2440.4601,N,07928.5481,W,1,9,1.9,13,M,,M,,*54
06/01/2014	05:07:19.348	$GPGGA,050720,2440.4588,N,07928.5499,W,1,9,1.9,13,M,,M,,*55
06/01/2014	05:07:20.324	$GPGGA,050721,2440.4576,N,07928.5517,W,1,9,1.9,13,M,,M,,*52
06/01/2014	05:07:21.340	$GPGGA,050722,2440.4562,N,07928.5535,W,1,9,2.0,13,M,,M,,*5E
06/01/2014	05:07:22.257	$GPGGA,050723,2440.4549,N,07928.5553,W,1,8,2.0,13,M,,M,,*57
06/01/2014	05:07:23.323	$GPGGA,050724,2440.4536,N,07928.5571,W,1,8,2.0,13,M,,M,,*58
06/01/2014	05:07:24.269	$GPGGA,050725,2440.4525,N,07928.5589,W,1,9,1.9,13,M,,M,,*57
06/01/2014	05:07:25.365	$GPGGA,050726,2440.4511,N,07928.5605,W,1,9,1.9,13,M,,M,,*54
06/01/2014	05:07:26.291	$GPGGA,050727,2440.4497,N,07928.5623,W,1,9,1.9,13,M,,M,,*5E
06/01/2014	05:07:27.654	$GPGGA,050728,2440.4484,N,07928.5641,W,1,9,1.9,13,M,,M,,*57
06/01/2014	05:07:28.621	$GPGGA,050729,2440.4471,N,07928.5658,W,1,9,1.9,13,M,,M,,*54
06/01/2014	05:07:29.627	$GPGGA,050730,2440.4458,N,07928.5676,W,1,9,1.9,13,M,,M,,*5B
06/01/2014	05:07:30.695	$GPGGA,050731,2440.4446,N,07928.5694,W,1,9,1.9,13,M,,M,,*59
06/01/2014	05:07:31.679	$GPGGA,050732,2440.4433,N,07928.5712,W,1,9,1.9,13,M,,M,,*57
06/01/2014	05:07:32.665	$GPGGA,050733,2440.4419,N,07928.5728,W,1,9,1.9,13,M,,M,,*57
06/01/2014	05:07:33.552	$GPGGA,050734,2440.4406,N,07928.5745,W,1,9,1.9,13,M,,M,,*55
06/01/2014	05:07:34.538	$GPGGA,050735,2440.4393,N,07928.5763,W,1,9,1.9,13,M,,M,,*5B
06/01/2014	05:07:35.673	$GPGGA,050736,2440.4379,N,07928.5780,W,1,9,1.9,13,M,,M,,*51
06/01/2014	05:07:36.629	$GPGGA,050737,2440.4366,N,07928.5798,W,1,9,1.9,13,M,,M,,*57
06/01/2014	05:07:37.595	$GPGGA,050738,2440.4353,N,07928.5816,W,1,9,1.9,13,M,,M,,*57
06/01/2014	05:07:38.651	$GPGGA,050739,2440.4341,N,07928.5832,W,1,9,1.9,13,M,,M,,*53
06/01/2014	05:07:39.638	$GPGGA,050740,2440.4326,N,07928.5849,W,1,9,1.9,13,M,,M,,*50
06/01/2014	05:07:40.614	$GPGGA,050741,2440.4313,N,07928.5867,W,1,9,1.9,13,M,,M,,*5B
06/01/2014	05:07:41.630	$GPGGA,050742,2440.4301,N,07928.5885,W,1,9,1.9,13,M,,M,,*57
06/01/2014	05:07:42.596	$GPGGA,050743,2440.4286,N,07928.5901,W,1,9,1.9,13,M,,M,,*55
06/01/2014	05:07:43.612	$GPGGA,050744,2440.4272,N,07928.5918,W,1,9,1.9,13,M,,M,,*51
06/01/2014	05:07:44.629	$GPGGA,050745,2440.4259,N,07928.5933,W,1,9,1.9,13,M,,M,,*50
06/01/2014	05:07:45.585	$GPGGA,050746,2440.4247,N,07928.5951,W,1,9,1.9,13,M,,M,,*58
06/01/2014	05:07:46.601	$GPGGA,050747,2440.4232,N,07928.5968,W,1,9,1.9,13,M,,M,,*51
06/01/2014	05:07:47.587	$GPGGA,050748,2440.4218,N,07928.5984,W,1,9,1.9,13,M,,M,,*54
06/01/2014	05:07:48.583	$GPGGA,050749,2440.4205,N,07928.6002,W,1,9,1.9,13,M,,M,,*5D
06/01/2014	05:07:49.561	$GPGGA,050750,2440.4193,N,07928.6019,W,1,9,1.9,13,M,,M,,*53
06/01/2014	05:07:50.577	$GPGGA,050751,2440.4178,N,07928.6035,W,1,9,1.9,13,M,,M,,*59
06/01/2014	05:07:51.592	$GPGGA,050752,2440.4164,N,07928.6052,W,1,9,1.9,13,M,,M,,*56
06/01/2014	05:07:52.537	$GPGGA,050753,2440.4151,N,07928.6069,W,1,9,1.9,13,M,,M,,*59
06/01/2014	05:07:53.534	$GPGGA,050754,2440.4138,N,07928.6087,W,1,9,1.9,13,M,,M,,*51
06/01/2014	05:07:54.530	$GPGGA,050755,2440.4124,N,07928.6102,W,1,9,1.9,13,M,,M,,*51
06/01/2014	05:07:55.546	$GPGGA,050756,2440.4111,N,07928.6118,W,1,9,1.9,13,M,,M,,*5F
06/01/2014	05:07:56.562	$GPGGA,050757,2440.4099,N,07928.6135,W,1,9,1.9,13,M,,M,,*50
06/01/2014	05:07:57.548	$GPGGA,050758,2440.4085,N,07928.6152,W,1,9,1.9,13,M,,M,,*53
06/01/2014	05:07:58.525	$GPGGA,050759,2440.4072,N,07928.6168,W,1,9,1.9,13,M,,M,,*53
06/01/2014	05:07:59.561	$GPGGA,050800,2440.4059,N,07928.6185,W,1,9,1.9,13,M,,M,,*5A
06/01/2014	05:08:00.557	$GPGGA,050801,2440.4046,N,07928.6200,W,1,9,1.9,13,M,,M,,*5B
06/01/2014	05:08:01.513	$GPGGA,050802,2440.4034,N,07928.6217,W,1,9,1.9,13,M,,M,,*5B
06/01/2014	05:08:02.519	$GPGGA,050803,2440.4020,N,07928.6232,W,1,9,1.9,13,M,,M,,*58
06/01/2014	05:08:03.525	$GPGGA,050804,2440.4008,N,07928.6248,W,1,9,1.9,13,M,,M,,*58
06/01/2014	05:08:04.472	$GPGGA,050805,2440.3995,N,07928.6265,W,1,9,1.9,13,M,,M,,*5C
06/01/2014	05:08:05.478	$GPGGA,050806,2440.3995,N,07928.6265,W,1,9,1.9,13,M,,M,,*5F
06/01/2014	05:08:06.494	$GPGGA,050807,2440.3969,N,07928.6297,W,1,9,1.9,13,M,,M,,*50
06/01/2014	05:08:07.470	$GPGGA,050808,2440.3969,N,07928.6297,W,1,9,1.9,13,M,,M,,*5F
06/01/2014	05:08:08.477	$GPGGA,050809,2440.3945,N,07928.6330,W,1,9,1.9,13,M,,M,,*5C
06/01/2014	05:08:09.443	$GPGGA,050810,2440.3945,N,07928.6330,W,1,9,1.9,13,M,,M,,*54
06/01/2014	05:08:10.468	$GPGGA,050811,2440.3920,N,07928.6362,W,1,9,1.9,13,M,,M,,*51
06/01/2014	05:08:11.464	$GPGGA,050812,2440.3920,N,07928.6362,W,1,9,1.9,13,M,,M,,*52
06/01/2014	05:08:12.431	$GPGGA,050813,2440.3895,N,07928.6395,W,1,9,1.9,13,M,,M,,*54
06/01/2014	05:08:13.427	$GPGGA,050814,2440.3895,N,07928.6395,W,1,9,1.9,13,M,,M,,*53
06/01/2014	05:08:14.413	$GPGGA,050815,2440.3871,N,07928.6427,W,1,9,1.9,13,M,,M,,*56
06/01/2014	05:08:15.459	$GPGGA,050816,2440.3858,N,07928.6442,W,1,9,1.9,13,M,,M,,*5D
06/01/2014	05:08:16.425	$GPGGA,050817,2440.3846,N,07928.6460,W,1,9,1.9,13,M,,M,,*53
06/01/2014	05:08:17.418	$GPGGA,050818,2440.3846,N,07928.6460,W,1,9,1.9,13,M,,M,,*5C
06/01/2014	05:08:18.418	$GPGGA,050819,2440.3835,N,07928.6474,W,1,8,2.0,13,M,,M,,*57
06/01/2014	05:08:19.424	$GPGGA,050820,2440.3810,N,07928.6508,W,1,8,2.0,13,M,,M,,*50
06/01/2014	05:08:20.510	$GPGGA,050821,2440.3806,N,07928.6525,W,1,8,2.0,13,M,,M,,*59
06/01/2014	05:08:21.376	$GPGGA,050822,2440.3806,N,07928.6525,W,1,8,1.9,13,M,,M,,*50
06/01/2014	05:08:22.363	$GPGGA,050823,2440.3781,N,07928.6557,W,1,9,1.9,13,M,,M,,*55
06/01/2014	05:08:23.488	$GPGGA,050824,2440.3771,N,07928.6575,W,1,9,1.9,13,M,,M,,*5D
06/01/2014	05:08:24.366	$GPGGA,050825,2440.3771,N,07928.6575,W,1,9,1.9,13,M,,M,,*5C
06/01/2014	05:08:25.382	$GPGGA,050826,2440.3759,N,07928.6591,W,1,9,2.0,13,M,,M,,*55
06/01/2014	05:08:26.337	$GPGGA,050827,2440.3735,N,07928.6624,W,1,9,1.9,13,M,,M,,*59
06/01/2014	05:08:27.692	$GPGGA,050828,2440.3723,N,07928.6640,W,1,9,1.9,13,M,,M,,*53
06/01/2014	05:08:28.668	$GPGGA,050829,2440.3712,N,07928.6658,W,1,9,1.9,13,M,,M,,*59
06/01/2014	05:08:29.565	$GPGGA,050830,2440.3712,N,07928.6658,W,1,9,2.0,13,M,,M,,*5B
06/01/2014	05:08:30.661	$GPGGA,050831,2440.3687,N,07928.6689,W,1,8,2.0,13,M,,M,,*5A
06/01/2014	05:08:31.577	$GPGGA,050832,2440.3687,N,07928.6689,W,1,8,2.0,13,M,,M,,*59
06/01/2014	05:08:32.534	$GPGGA,050833,2440.3663,N,07928.6723,W,1,8,2.0,13,M,,M,,*53
06/01/2014	05:08:33.630	$GPGGA,050834,2440.3651,N,07928.6739,W,1,8,1.9,13,M,,M,,*54
06/01/2014	05:08:34.526	$GPGGA,050835,2440.3637,N,07928.6756,W,1,8,2.0,13,M,,M,,*56
06/01/2014	05:08:35.622	$GPGGA,050836,2440.3627,N,07928.6774,W,1,8,1.9,13,M,,M,,*5E
06/01/2014	05:08:36.638	$GPGGA,050837,2440.3615,N,07928.6789,W,1,9,1.9,13,M,,M,,*5D
06/01/2014	05:08:37.614	$GPGGA,050838,2440.3602,N,07928.6806,W,1,9,2.0,13,M,,M,,*56
06/01/2014	05:08:38.591	$GPGGA,050839,2440.3590,N,07928.6822,W,1,8,2.0,13,M,,M,,*58
06/01/2014	05:08:39.607	$GPGGA,050840,2440.3578,N,07928.6839,W,1,8,2.0,13,M,,M,,*5A
06/01/2014	05:08:40.623	$GPGGA,050841,2440.3566,N,07928.6855,W,1,8,2.0,13,M,,M,,*5E
06/01/2014	05:08:41.569	$GPGGA,050842,2440.3554,N,07928.6872,W,1,8,2.0,13,M,,M,,*59
06/01/2014	05:08:42.595	$GPGGA,050843,2440.3542,N,07928.6889,W,1,8,2.0,13,M,,M,,*5B
06/01/2014	05:08:43.572	$GPGGA,050844,2440.3532,N,07928.6904,W,1,8,2.0,13,M,,M,,*5F
06/01/2014	05:08:44.558	$GPGGA,050845,2440.3522,N,07928.6922,W,1,9,1.9,13,M,,M,,*50
06/01/2014	05:08:45.593	$GPGGA,050846,2440.3511,N,07928.6938,W,1,9,1.9,13,M,,M,,*58
06/01/2014	05:08:46.539	$GPGGA,050847,2440.3499,N,07928.6954,W,1,9,1.9,13,M,,M,,*52
06/01/2014	05:08:47.565	$GPGGA,050848,2440.3488,N,07928.6970,W,1,9,1.9,13,M,,M,,*5B
06/01/2014	05:08:48.552	$GPGGA,050849,2440.3476,N,07928.6987,W,1,9,1.9,13,M,,M,,*53
06/01/2014	05:08:49.538	$GPGGA,050850,2440.3464,N,07928.7003,W,1,9,1.9,13,M,,M,,*5C
06/01/2014	05:08:50.584	$GPGGA,050851,2440.3452,N,07928.7020,W,1,9,1.9,13,M,,M,,*59
06/01/2014	05:08:51.550	$GPGGA,050852,2440.3439,N,07928.7037,W,1,9,1.9,13,M,,M,,*51
06/01/2014	05:08:52.556	$GPGGA,050853,2440.3428,N,07928.7053,W,1,9,1.9,13,M,,M,,*52
06/01/2014	05:08:53.513	$GPGGA,050854,2440.3416,N,07928.7070,W,1,9,1.9,13,M,,M,,*59
06/01/2014	05:08:54.529	$GPGGA,050855,2440.3403,N,07928.7085,W,1,9,1.9,13,M,,M,,*56
06/01/2014	05:08:55.505	$GPGGA,050856,2440.3392,N,07928.7103,W,1,9,1.9,13,M,,M,,*55
06/01/2014	05:08:56.521	$GPGGA,050857,2440.3380,N,07928.7117,W,1,9,1.9,13,M,,M,,*52
06/01/2014	05:08:57.488	$GPGGA,050858,2440.3367,N,07928.7133,W,1,9,1.9,13,M,,M,,*52
06/01/2014	05:08:58.494	$GPGGA,050859,2440.3356,N,07928.7150,W,1,9,1.9,13,M,,M,,*54
06/01/2014	05:08:59.510	$GPGGA,050900,2440.3344,N,07928.7167,W,1,9,1.9,13,M,,M,,*5E
06/01/2014	05:09:00.596	$GPGGA,050901,2440.3333,N,07928.7182,W,1,9,1.9,13,M,,M,,*54
06/01/2014	05:09:01.492	$GPGGA,050902,2440.3319,N,07928.7197,W,1,9,1.9,13,M,,M,,*5B
06/01/2014	05:09:02.557	$GPGGA,050903,2440.3307,N,07928.7215,W,1,9,1.9,13,M,,M,,*5C
06/01/2014	05:09:03.464	$GPGGA,050904,2440.3295,N,07928.7230,W,1,9,1.9,14,M,,M,,*51
06/01/2014	05:09:04.550	$GPGGA,050905,2440.3283,N,07928.7247,W,1,9,1.9,14,M,,M,,*57
06/01/2014	05:09:05.446	$GPGGA,050906,2440.3271,N,07928.7262,W,1,9,1.9,14,M,,M,,*5E
06/01/2014	05:09:06.442	$GPGGA,050907,2440.3258,N,07928.7280,W,1,9,1.9,14,M,,M,,*58
06/01/2014	05:09:07.558	$GPGGA,050908,2440.3246,N,07928.7295,W,1,9,1.9,14,M,,M,,*5C
06/01/2014	05:09:08.534	$GPGGA,050909,2440.3234,N,07928.7312,W,1,9,1.9,14,M,,M,,*56
06/01/2014	05:09:09.531	$GPGGA,050910,2440.3222,N,07928.7327,W,1,9,1.9,14,M,,M,,*5F
06/01/2014	05:09:10.507	$GPGGA,050911,2440.3210,N,07928.7342,W,1,9,1.9,14,M,,M,,*5C
06/01/2014	05:09:11.533	$GPGGA,050912,2440.3199,N,07928.7359,W,1,9,1.9,14,M,,M,,*57
06/01/2014	05:09:12.499	$GPGGA,050913,2440.3185,N,07928.7374,W,1,9,1.9,14,M,,M,,*54
06/01/2014	05:09:13.496	$GPGGA,050914,2440.3172,N,07928.7391,W,1,9,1.9,14,M,,M,,*50
06/01/2014	05:09:14.382	$GPGGA,050915,2440.3160,N,07928.7406,W,1,9,1.9,14,M,,M,,*5B
06/01/2014	05:09:15.398	$GPGGA,050916,2440.3148,N,07928.7424,W,1,9,1.9,14,M,,M,,*52
06/01/2014	05:09:16.464	$GPGGA,050917,2440.3135,N,07928.7439,W,1,9,1.9,14,M,,M,,*55
06/01/2014	05:09:17.471	$GPGGA,050918,2440.3122,N,07928.7454,W,1,9,1.9,14,M,,M,,*57
06/01/2014	05:09:18.487	$GPGGA,050919,2440.3111,N,07928.7471,W,1,9,1.9,14,M,,M,,*51
06/01/2014	05:09:19.465	$GPGGA,050920,2440.3099,N,07928.7487,W,1,9,1.9,14,M,,M,,*53
06/01/2014	05:09:20.478	$GPGGA,050921,2440.3087,N,07928.7503,W,1,9,1.9,14,M,,M,,*50
06/01/2014	05:09:21.444	$GPGGA,050922,2440.3074,N,07928.7518,W,1,9,1.9,14,M,,M,,*55
06/01/2014	05:09:22.460	$GPGGA,050923,2440.3062,N,07928.7536,W,1,9,1.9,14,M,,M,,*5F
06/01/2014	05:09:23.476	$GPGGA,050924,2440.3051,N,07928.7551,W,1,9,1.9,14,M,,M,,*59
06/01/2014	05:09:24.434	$GPGGA,050925,2440.3038,N,07928.7568,W,1,9,1.9,14,M,,M,,*5D
06/01/2014	05:09:25.419	$GPGGA,050926,2440.3026,N,07928.7583,W,1,9,1.9,14,M,,M,,*54
06/01/2014	05:09:26.435	$GPGGA,050927,2440.3013,N,07928.7599,W,1,9,1.9,14,M,,M,,*58
06/01/2014	05:09:27.644	$GPGGA,050928,2440.3001,N,07928.7616,W,1,9,1.9,14,M,,M,,*50
06/01/2014	05:09:28.651	$GPGGA,050929,2440.2990,N,07928.7634,W,1,8,2.0,14,M,,M,,*5A
06/01/2014	05:09:29.637	$GPGGA,050930,2440.2977,N,07928.7649,W,1,8,1.9,14,M,,M,,*5B
06/01/2014	05:09:30.643	$GPGGA,050931,2440.2966,N,07928.7666,W,1,9,1.9,14,M,,M,,*56
06/01/2014	05:09:31.639	$GPGGA,050932,2440.2953,N,07928.7682,W,1,9,1.9,14,M,,M,,*59
06/01/2014	05:09:32.625	$GPGGA,050933,2440.2941,N,07928.7699,W,1,8,2.0,14,M,,M,,*5A
06/01/2014	05:09:33.612	$GPGGA,050934,2440.2928,N,07928.7715,W,1,8,2.0,14,M,,M,,*57
06/01/2014	05:09:34.588	$GPGGA,050935,2440.2917,N,07928.7732,W,1,8,2.0,14,M,,M,,*5F
06/01/2014	05:09:35.604	$GPGGA,050936,2440.2907,N,07928.7749,W,1,8,1.9,14,M,,M,,*5B
06/01/2014	05:09:36.583	$GPGGA,050937,2440.2896,N,07928.7765,W,1,9,1.9,14,M,,M,,*5C
06/01/2014	05:09:37.595	$GPGGA,050938,2440.2883,N,07928.7782,W,1,9,1.9,14,M,,M,,*5E
06/01/2014	05:09:38.572	$GPGGA,050939,2440.2870,N,07928.7798,W,1,9,1.9,14,M,,M,,*58
06/01/2014	05:09:39.588	$GPGGA,050940,2440.2859,N,07928.7815,W,1,9,1.9,14,M,,M,,*57
06/01/2014	05:09:40.594	$GPGGA,050941,2440.2845,N,07928.7832,W,1,9,1.9,14,M,,M,,*5E
06/01/2014	05:09:41.570	$GPGGA,050942,2440.2833,N,07928.7847,W,1,9,1.9,14,M,,M,,*5E
06/01/2014	05:09:42.586	$GPGGA,050943,2440.2822,N,07928.7865,W,1,9,1.9,14,M,,M,,*5F
06/01/2014	05:09:43.563	$GPGGA,050944,2440.2810,N,07928.7881,W,1,9,1.9,14,M,,M,,*53
06/01/2014	05:09:44.579	$GPGGA,050945,2440.2798,N,07928.7897,W,1,9,1.9,14,M,,M,,*5A
06/01/2014	05:09:45.535	$GPGGA,050946,2440.2787,N,07928.7915,W,1,9,1.9,14,M,,M,,*5C
06/01/2014	05:09:46.571	$GPGGA,050947,2440.2774,N,07928.7930,W,1,8,2.0,14,M,,M,,*5D
06/01/2014	05:09:47.531	$GPGGA,050948,2440.2762,N,07928.7946,W,1,8,2.0,14,M,,M,,*54
06/01/2014	05:09:48.515	$GPGGA,050949,2440.2751,N,07928.7963,W,1,9,1.9,14,M,,M,,*59
06/01/2014	05:09:49.520	$GPGGA,050950,2440.2740,N,07928.7980,W,1,9,1.9,14,M,,M,,*5C
06/01/2014	05:09:50.496	$GPGGA,050951,2440.2728,N,07928.7996,W,1,9,1.9,14,M,,M,,*54
06/01/2014	05:09:51.522	$GPGGA,050952,2440.2717,N,07928.8013,W,1,9,1.9,14,M,,M,,*50
06/01/2014	05:09:52.489	$GPGGA,050953,2440.2705,N,07928.8031,W,1,9,1.9,14,M,,M,,*52
06/01/2014	05:09:53.585	$GPGGA,050954,2440.2692,N,07928.8047,W,1,9,2.0,14,M,,M,,*51
06/01/2014	05:09:54.481	$GPGGA,050955,2440.2680,N,07928.8063,W,1,8,2.0,14,M,,M,,*54
06/01/2014	05:09:55.496	$GPGGA,050956,2440.2668,N,07928.8079,W,1,8,1.9,14,M,,M,,*50
06/01/2014	05:09:56.512	$GPGGA,050957,2440.2656,N,07928.8097,W,1,9,1.9,14,M,,M,,*5D
06/01/2014	05:09:57.459	$GPGGA,050958,2440.2643,N,07928.8114,W,1,9,2.0,14,M,,M,,*56
06/01/2014	05:09:58.485	$GPGGA,050959,2440.2630,N,07928.8130,W,1,8,2.0,14,M,,M,,*54
06/01/2014	05:09:59.591	$GPGGA,051000,2440.2618,N,07928.8147,W,1,8,2.0,14,M,,M,,*5A
06/01/2014	05:10:00.567	$GPGGA,051001,2440.2608,N,07928.8163,W,1,8,2.0,14,M,,M,,*5C
06/01/2014	05:10:01.463	$GPGGA,051002,2440.2596,N,07928.8180,W,1,8,1.9,14,M,,M,,*5C
06/01/2014	05:10:02.440	$GPGGA,051003,2440.2585,N,07928.8197,W,1,9,1.9,14,M,,M,,*58
06/01/2014	05:10:03.436	$GPGGA,051004,2440.2572,N,07928.8213,W,1,9,1.9,14,M,,M,,*58
06/01/2014	05:10:04.522	$GPGGA,051005,2440.2560,N,07928.8230,W,1,9,1.9,14,M,,M,,*5B
06/01/2014	05:10:05.518	$GPGGA,051006,2440.2549,N,07928.8246,W,1,9,1.9,14,M,,M,,*52
06/01/2014	05:10:06.544	$GPGGA,051007,2440.2536,N,07928.8263,W,1,9,1.9,14,M,,M,,*5C
06/01/2014	05:10:07.520	$GPGGA,051008,2440.2524,N,07928.8280,W,1,9,1.9,14,M,,M,,*5D
06/01/2014	05:10:08.516	$GPGGA,051009,2440.2513,N,07928.8295,W,1,9,1.9,14,M,,M,,*5C
06/01/2014	05:10:09.483	$GPGGA,051010,2440.2500,N,07928.8313,W,1,9,1.9,14,M,,M,,*59
06/01/2014	05:10:10.479	$GPGGA,051011,2440.2488,N,07928.8328,W,1,9,1.9,14,M,,M,,*51
06/01/2014	05:10:11.495	$GPGGA,051012,2440.2477,N,07928.8345,W,1,9,1.9,14,M,,M,,*59
06/01/2014	05:10:12.490	$GPGGA,051013,2440.2463,N,07928.8361,W,1,9,1.9,14,M,,M,,*5B
06/01/2014	05:10:13.477	$GPGGA,051014,2440.2452,N,07928.8378,W,1,9,1.9,14,M,,M,,*56
06/01/2014	05:10:14.453	$GPGGA,051015,2440.2440,N,07928.8394,W,1,9,1.9,14,M,,M,,*56
06/01/2014	05:10:15.469	$GPGGA,051016,2440.2427,N,07928.8410,W,1,9,1.9,14,M,,M,,*5F
06/01/2014	05:10:16.445	$GPGGA,051017,2440.2415,N,07928.8426,W,1,9,1.9,14,M,,M,,*5A
06/01/2014	05:10:17.441	$GPGGA,051018,2440.2402,N,07928.8443,W,1,9,1.9,14,M,,M,,*50
06/01/2014	05:10:18.448	$GPGGA,051019,2440.2390,N,07928.8458,W,1,9,1.9,14,M,,M,,*57
06/01/2014	05:10:19.445	$GPGGA,051020,2440.2379,N,07928.8473,W,1,9,1.9,14,M,,M,,*53
06/01/2014	05:10:20.440	$GPGGA,051021,2440.2365,N,07928.8490,W,1,8,2.2,14,M,,M,,*5B
06/01/2014	05:10:21.426	$GPGGA,051022,2440.2354,N,07928.8508,W,1,8,1.9,14,M,,M,,*52
06/01/2014	05:10:22.412	$GPGGA,051023,2440.2341,N,07928.8526,W,1,9,1.9,14,M,,M,,*5A
06/01/2014	05:10:23.429	$GPGGA,051024,2440.2328,N,07928.8541,W,1,9,1.9,14,M,,M,,*53
06/01/2014	05:10:24.435	$GPGGA,051025,2440.2316,N,07928.8559,W,1,9,1.9,15,M,,M,,*57
06/01/2014	05:10:25.411	$GPGGA,051026,2440.2304,N,07928.8576,W,1,9,1.9,15,M,,M,,*5A
06/01/2014	05:10:26.407	$GPGGA,051027,2440.2291,N,07928.8591,W,1,9,1.9,15,M,,M,,*5F
06/01/2014	05:10:27.623	$GPGGA,051028,2440.2279,N,07928.8607,W,1,9,1.9,15,M,,M,,*5A
06/01/2014	05:10:28.612	$GPGGA,051029,2440.2267,N,07928.8624,W,1,9,1.9,15,M,,M,,*55
06/01/2014	05:10:29.598	$GPGGA,051030,2440.2254,N,07928.8638,W,1,9,1.9,15,M,,M,,*50
06/01/2014	05:10:30.613	$GPGGA,051031,2440.2242,N,07928.8656,W,1,9,1.9,15,M,,M,,*5E
06/01/2014	05:10:31.619	$GPGGA,051032,2440.2229,N,07928.8671,W,1,9,1.9,15,M,,M,,*55
06/01/2014	05:10:32.595	$GPGGA,051033,2440.2217,N,07928.8686,W,1,9,1.9,15,M,,M,,*51
06/01/2014	05:10:33.592	$GPGGA,051034,2440.2204,N,07928.8703,W,1,9,1.9,15,M,,M,,*58
06/01/2014	05:10:34.590	$GPGGA,051035,2440.2192,N,07928.8719,W,1,9,1.9,15,M,,M,,*5E
06/01/2014	05:10:35.574	$GPGGA,051036,2440.2180,N,07928.8736,W,1,9,1.9,15,M,,M,,*53
06/01/2014	05:10:36.561	$GPGGA,051037,2440.2167,N,07928.8751,W,1,9,1.9,16,M,,M,,*59
06/01/2014	05:10:37.567	$GPGGA,051038,2440.2155,N,07928.8768,W,1,9,1.9,16,M,,M,,*5D
06/01/2014	05:10:38.573	$GPGGA,051039,2440.2143,N,07928.8784,W,1,9,1.9,16,M,,M,,*59
06/01/2014	05:10:39.678	$GPGGA,051040,2440.2130,N,07928.8801,W,1,9,1.9,16,M,,M,,*51
06/01/2014	05:10:40.635	$GPGGA,051041,2440.2119,N,07928.8816,W,1,9,1.9,16,M,,M,,*5D
06/01/2014	05:10:41.561	$GPGGA,051042,2440.2106,N,07928.8833,W,1,9,1.9,16,M,,M,,*57
06/01/2014	05:10:42.528	$GPGGA,051043,2440.2094,N,07928.8849,W,1,9,1.9,16,M,,M,,*51
06/01/2014	05:10:43.544	$GPGGA,051044,2440.2081,N,07928.8866,W,1,9,1.9,16,M,,M,,*5F
06/01/2014	05:10:44.610	$GPGGA,051045,2440.2069,N,07928.8881,W,1,9,1.9,16,M,,M,,*51
06/01/2014	05:10:45.506	$GPGGA,051046,2440.2058,N,07928.8898,W,1,9,1.9,16,M,,M,,*58
06/01/2014	05:10:46.523	$GPGGA,051047,2440.2045,N,07928.8914,W,1,9,1.9,16,M,,M,,*50
06/01/2014	05:10:47.518	$GPGGA,051048,2440.2033,N,07928.8931,W,1,9,1.9,16,M,,M,,*59
06/01/2014	05:10:48.504	$GPGGA,051049,2440.2022,N,07928.8947,W,1,9,1.9,16,M,,M,,*59
06/01/2014	05:10:49.590	$GPGGA,051050,2440.2009,N,07928.8963,W,1,9,1.9,16,M,,M,,*5E
06/01/2014	05:10:50.576	$GPGGA,051051,2440.1998,N,07928.8981,W,1,9,1.9,16,M,,M,,*51
06/01/2014	05:10:51.512	$GPGGA,051052,2440.1986,N,07928.8997,W,1,9,1.9,16,M,,M,,*5A
06/01/2014	05:10:52.578	$GPGGA,051053,2440.1974,N,07928.9014,W,1,9,1.9,16,M,,M,,*55
06/01/2014	05:10:53.565	$GPGGA,051054,2440.1962,N,07928.9029,W,1,9,1.9,16,M,,M,,*5B
06/01/2014	05:10:54.581	$GPGGA,051055,2440.1950,N,07928.9046,W,1,9,1.9,16,M,,M,,*52
06/01/2014	05:10:55.577	$GPGGA,051056,2440.1938,N,07928.9062,W,1,9,1.9,16,M,,M,,*59
06/01/2014	05:10:56.473	$GPGGA,051057,2440.1926,N,07928.9079,W,1,8,2.0,16,M,,M,,*56
06/01/2014	05:10:57.539	$GPGGA,051058,2440.1915,N,07928.9095,W,1,8,1.9,16,M,,M,,*51
06/01/2014	05:10:58.526	$GPGGA,051059,2440.1904,N,07928.9112,W,1,9,1.9,16,M,,M,,*5F
06/01/2014	05:10:59.552	$GPGGA,051100,2440.1892,N,07928.9129,W,1,9,1.9,16,M,,M,,*54
06/01/2014	05:11:00.518	$GPGGA,051101,2440.1879,N,07928.9145,W,1,9,1.9,16,M,,M,,*5A
06/01/2014	05:11:01.514	$GPGGA,051102,2440.1867,N,07928.9162,W,1,9,2.0,16,M,,M,,*59
06/01/2014	05:11:02.550	$GPGGA,051103,2440.1855,N,07928.9180,W,1,8,2.0,16,M,,M,,*54
06/01/2014	05:11:03.517	$GPGGA,051104,2440.1843,N,07928.9195,W,1,8,2.0,16,M,,M,,*50
06/01/2014	05:11:04.493	$GPGGA,051105,2440.1832,N,07928.9212,W,1,9,1.9,16,M,,M,,*50
06/01/2014	05:11:05.498	$GPGGA,051106,2440.1821,N,07928.9230,W,1,9,1.9,16,M,,M,,*51
06/01/2014	05:11:06.474	$GPGGA,051107,2440.1809,N,07928.9245,W,1,8,2.0,16,M,,M,,*53
06/01/2014	05:11:07.490	$GPGGA,051108,2440.1797,N,07928.9263,W,1,8,2.0,16,M,,M,,*50
06/01/2014	05:11:09.762	$GPGGA,051110,2440.1773,N,07928.9296,W,1,9,2.0,16,M,,M,,*58
06/01/2014	05:11:10.459	$GPGGA,051111,2440.1761,N,07928.9311,W,1,8,2.0,16,M,,M,,*55
06/01/2014	05:11:11.465	$GPGGA,051112,2440.1751,N,07928.9328,W,1,8,1.9,16,M,,M,,*55
06/01/2014	05:11:12.471	$GPGGA,051113,2440.1740,N,07928.9346,W,1,9,1.9,16,M,,M,,*5D
06/01/2014	05:11:13.438	$GPGGA,051114,2440.1729,N,07928.9362,W,1,9,2.0,16,M,,M,,*59
06/01/2014	05:11:14.444	$GPGGA,051115,2440.1718,N,07928.9379,W,1,9,1.9,16,M,,M,,*5A
06/01/2014	05:11:15.450	$GPGGA,051116,2440.1705,N,07928.9397,W,1,9,1.9,16,M,,M,,*55
06/01/2014	05:11:16.446	$GPGGA,051117,2440.1693,N,07928.9412,W,1,8,2.0,16,M,,M,,*5B
06/01/2014	05:11:17.423	$GPGGA,051118,2440.1679,N,07928.9429,W,1,8,2.0,16,M,,M,,*58
06/01/2014	05:11:18.423	$GPGGA,051119,2440.1667,N,07928.9447,W,1,9,1.9,16,M,,M,,*55
06/01/2014	05:11:19.435	$GPGGA,051120,2440.1656,N,07928.9465,W,1,9,1.9,16,M,,M,,*5D
06/01/2014	05:11:20.401	$GPGGA,051121,2440.1646,N,07928.9480,W,1,9,1.9,16,M,,M,,*56
06/01/2014	05:11:21.407	$GPGGA,051122,2440.1633,N,07928.9496,W,1,9,1.9,16,M,,M,,*50
06/01/2014	05:11:22.383	$GPGGA,051123,2440.1622,N,07928.9513,W,1,9,1.9,16,M,,M,,*5D
06/01/2014	05:11:23.389	$GPGGA,051124,2440.1611,N,07928.9531,W,1,9,1.9,16,M,,M,,*5A
06/01/2014	05:11:24.375	$GPGGA,051125,2440.1599,N,07928.9548,W,1,9,1.9,16,M,,M,,*56
06/01/2014	05:11:25.381	$GPGGA,051126,2440.1588,N,07928.9563,W,1,9,1.9,16,M,,M,,*5C
06/01/2014	05:11:26.377	$GPGGA,051127,2440.1577,N,07928.9581,W,1,9,1.9,16,M,,M,,*51
06/01/2014	05:11:27.627	$GPGGA,051128,2440.1564,N,07928.9597,W,1,9,1.9,16,M,,M,,*5B
06/01/2014	05:11:28.594	$GPGGA,051129,2440.1552,N,07928.9613,W,1,9,1.9,16,M,,M,,*50
06/01/2014	05:11:29.588	$GPGGA,051130,2440.1541,N,07928.9631,W,1,9,1.9,16,M,,M,,*5A
06/01/2014	05:11:30.594	$GPGGA,051131,2440.1530,N,07928.9647,W,1,9,1.9,16,M,,M,,*5C
06/01/2014	05:11:31.710	$GPGGA,051132,2440.1518,N,07928.9664,W,1,9,1.9,16,M,,M,,*54
06/01/2014	05:11:32.679	$GPGGA,051133,2440.1507,N,07928.9680,W,1,9,1.9,16,M,,M,,*51
06/01/2014	05:11:33.553	$GPGGA,051134,2440.1495,N,07928.9697,W,1,9,1.9,16,M,,M,,*5A
06/01/2014	05:11:34.559	$GPGGA,051135,2440.1483,N,07928.9714,W,1,9,1.9,16,M,,M,,*56
06/01/2014	05:11:35.565	$GPGGA,051136,2440.1471,N,07928.9729,W,1,9,1.9,16,M,,M,,*56
06/01/2014	05:11:36.661	$GPGGA,051137,2440.1458,N,07928.9745,W,1,9,1.9,16,M,,M,,*56
06/01/2014	05:11:37.627	$GPGGA,051138,2440.1447,N,07928.9762,W,1,9,1.9,16,M,,M,,*52
06/01/2014	05:11:38.644	$GPGGA,051139,2440.1434,N,07928.9779,W,1,9,1.9,16,M,,M,,*5D
06/01/2014	05:11:39.550	$GPGGA,051140,2440.1422,N,07928.9794,W,1,9,1.9,16,M,,M,,*57
06/01/2014	05:11:40.615	$GPGGA,051141,2440.1411,N,07928.9810,W,1,9,1.9,16,M,,M,,*55
06/01/2014	05:11:41.631	$GPGGA,051142,2440.1397,N,07928.9827,W,1,9,1.9,16,M,,M,,*5B
06/01/2014	05:11:42.617	$GPGGA,051143,2440.1385,N,07928.9844,W,1,9,1.9,16,M,,M,,*5C
06/01/2014	05:11:43.613	$GPGGA,051144,2440.1372,N,07928.9859,W,1,9,1.9,16,M,,M,,*5F
06/01/2014	05:11:44.621	$GPGGA,051145,2440.1360,N,07928.9875,W,1,9,1.9,16,M,,M,,*53
06/01/2014	05:11:45.586	$GPGGA,051146,2440.1347,N,07928.9892,W,1,9,1.9,16,M,,M,,*5C
06/01/2014	05:11:46.602	$GPGGA,051147,2440.1335,N,07928.9907,W,1,9,1.9,16,M,,M,,*55
06/01/2014	05:11:47.578	$GPGGA,051148,2440.1322,N,07928.9924,W,1,9,1.9,16,M,,M,,*5D
06/01/2014	05:11:48.585	$GPGGA,051149,2440.1310,N,07928.9939,W,1,9,1.9,16,M,,M,,*51
06/01/2014	05:11:49.571	$GPGGA,051150,2440.1297,N,07928.9956,W,1,9,1.9,16,M,,M,,*5E
06/01/2014	05:11:50.577	$GPGGA,051151,2440.1284,N,07928.9971,W,1,9,1.9,16,M,,M,,*58
