Software Version Number: 1	Data File Format Number: 1	Build Version Number: 1	Error Count Since VI Started: 0	Manufacturer: Raytheon	 Model Number: RayMarine 120	 S/N: 	 Cal Date: 	 Wind Direction Offset: 0.00	 Slope (M)1: 0.00	 Offset (B)1: 0.00	 Slope (M)2: 0.00	 Offset (B)2: 0.00	 Slope (M)3: 0.00	 Offset (B)3: 0.00	 Slope (M)4: 0.00	 Offset (B)4: 0.00	 Slope (M)5: 0.00	 Offset (B)5: 0.00	 Slope (M)6: 0.00	 Offset (B)6: 0.00
Computer Date	Computer Time	GGA String
05/28/2014	20:00:00.715	$GPGGA,200001,2551.9167,N,07954.5058,W,1,10,1.9,17,M,,M,,*61
05/28/2014	20:00:01.711	$GPGGA,200002,2551.9173,N,07954.5065,W,1,10,1.6,17,M,,M,,*66
05/28/2014	20:00:02.727	$GPGGA,200003,2551.9178,N,07954.5072,W,1,11,1.6,17,M,,M,,*6B
05/28/2014	20:00:03.652	$GPGGA,200004,2551.9184,N,07954.5074,W,1,11,1.6,18,M,,M,,*66
05/28/2014	20:00:04.739	$GPGGA,200005,2551.9191,N,07954.5079,W,1,10,1.7,18,M,,M,,*6E
05/28/2014	20:00:05.734	$GPGGA,200006,2551.9196,N,07954.5084,W,1,10,1.6,18,M,,M,,*69
05/28/2014	20:00:06.769	$GPGGA,200007,2551.9202,N,07954.5090,W,1,11,1.6,17,M,,M,,*6D
05/28/2014	20:00:07.745	$GPGGA,200008,2551.9207,N,07954.5095,W,1,11,1.6,17,M,,M,,*62
05/28/2014	20:00:08.771	$GPGGA,200009,2551.9214,N,07954.5102,W,1,10,1.9,17,M,,M,,*60
05/28/2014	20:00:09.747	$GPGGA,200010,2551.9220,N,07954.5108,W,1,10,1.6,17,M,,M,,*6A
05/28/2014	20:00:10.753	$GPGGA,200011,2551.9228,N,07954.5116,W,1,9,1.9,17,M,,M,,*5B
05/28/2014	20:00:11.769	$GPGGA,200012,2551.9234,N,07954.5121,W,1,9,1.9,17,M,,M,,*51
05/28/2014	20:00:12.765	$GPGGA,200013,2551.9240,N,07954.5126,W,1,10,1.9,17,M,,M,,*6C
05/28/2014	20:00:13.771	$GPGGA,200014,2551.9246,N,07954.5131,W,1,10,1.9,18,M,,M,,*64
05/28/2014	20:00:14.766	$GPGGA,200015,2551.9253,N,07954.5138,W,1,10,1.9,18,M,,M,,*68
05/28/2014	20:00:15.782	$GPGGA,200016,2551.9258,N,07954.5144,W,1,10,1.9,18,M,,M,,*6B
05/28/2014	20:00:16.778	$GPGGA,200017,2551.9263,N,07954.5146,W,1,9,2.3,18,M,,M,,*51
05/28/2014	20:00:17.784	$GPGGA,200018,2551.9267,N,07954.5150,W,1,9,1.9,18,M,,M,,*54
05/28/2014	20:00:18.771	$GPGGA,200019,2551.9272,N,07954.5156,W,1,10,1.9,18,M,,M,,*6F
05/28/2014	20:00:19.796	$GPGGA,200020,2551.9278,N,07954.5160,W,1,10,1.9,17,M,,M,,*65
05/28/2014	20:00:20.822	$GPGGA,200021,2551.9283,N,07954.5164,W,1,11,1.6,17,M,,M,,*6A
05/28/2014	20:00:21.788	$GPGGA,200022,2551.9290,N,07954.5170,W,1,11,1.6,17,M,,M,,*6E
05/28/2014	20:00:22.803	$GPGGA,200023,2551.9296,N,07954.5180,W,1,10,1.9,17,M,,M,,*68
05/28/2014	20:00:23.818	$GPGGA,200024,2551.9301,N,07954.5184,W,1,10,1.6,17,M,,M,,*6B
05/28/2014	20:00:24.804	$GPGGA,200025,2551.9307,N,07954.5188,W,1,11,1.6,17,M,,M,,*61
05/28/2014	20:00:25.800	$GPGGA,200026,2551.9312,N,07954.5195,W,1,11,1.6,17,M,,M,,*6A
05/28/2014	20:00:26.826	$GPGGA,200027,2551.9319,N,07954.5202,W,1,11,1.6,17,M,,M,,*6D
05/28/2014	20:00:27.832	$GPGGA,200028,2551.9323,N,07954.5209,W,1,11,1.6,17,M,,M,,*60
05/28/2014	20:00:28.840	$GPGGA,200029,2551.9329,N,07954.5213,W,1,11,1.6,17,M,,M,,*60
05/28/2014	20:00:30.847	$GPGGA,200031,2551.9340,N,07954.5227,W,1,11,1.6,17,M,,M,,*61
05/28/2014	20:00:31.856	$GPGGA,200032,2551.9344,N,07954.5231,W,1,11,1.6,17,M,,M,,*61
05/28/2014	20:00:32.843	$GPGGA,200033,2551.9351,N,07954.5236,W,1,10,1.6,17,M,,M,,*62
05/28/2014	20:00:33.948	$GPGGA,200034,2551.9355,N,07954.5243,W,1,10,1.6,17,M,,M,,*63
05/28/2014	20:00:34.833	$GPGGA,200035,2551.9362,N,07954.5249,W,1,10,1.6,17,M,,M,,*6C
05/28/2014	20:00:35.869	$GPGGA,200036,2551.9366,N,07954.5254,W,1,10,1.9,17,M,,M,,*68
05/28/2014	20:00:36.845	$GPGGA,200037,2551.9372,N,07954.5260,W,1,11,1.6,17,M,,M,,*65
05/28/2014	20:00:37.971	$GPGGA,200038,2551.9377,N,07954.5265,W,1,11,1.6,17,M,,M,,*6A
05/28/2014	20:00:38.867	$GPGGA,200039,2551.9381,N,07954.5269,W,1,11,1.6,17,M,,M,,*6E
05/28/2014	20:00:39.511	$GPGGA,200040,2551.9387,N,07954.5276,W,1,11,1.9,17,M,,M,,*67
05/28/2014	20:00:40.638	$GPGGA,200041,2551.9391,N,07954.5282,W,1,11,1.6,17,M,,M,,*65
05/28/2014	20:00:41.531	$GPGGA,200042,2551.9397,N,07954.5285,W,1,11,1.6,17,M,,M,,*67
05/28/2014	20:00:42.658	$GPGGA,200043,2551.9404,N,07954.5293,W,1,10,1.7,17,M,,M,,*6C
05/28/2014	20:00:43.544	$GPGGA,200044,2551.9409,N,07954.5297,W,1,10,1.6,17,M,,M,,*63
05/28/2014	20:00:44.650	$GPGGA,200045,2551.9413,N,07954.5303,W,1,10,1.9,18,M,,M,,*65
05/28/2014	20:00:45.625	$GPGGA,200046,2551.9419,N,07954.5308,W,1,10,1.6,18,M,,M,,*68
05/28/2014	20:00:46.661	$GPGGA,200047,2551.9424,N,07954.5315,W,1,10,1.7,18,M,,M,,*6A
05/28/2014	20:00:47.647	$GPGGA,200048,2551.9428,N,07954.5319,W,1,10,1.6,18,M,,M,,*64
05/28/2014	20:00:48.664	$GPGGA,200049,2551.9434,N,07954.5323,W,1,11,1.6,18,M,,M,,*60
05/28/2014	20:00:49.649	$GPGGA,200050,2551.9440,N,07954.5329,W,1,11,1.6,18,M,,M,,*61
05/28/2014	20:00:50.695	$GPGGA,200051,2551.9445,N,07954.5336,W,1,10,1.9,18,M,,M,,*65
05/28/2014	20:00:51.560	$GPGGA,200052,2551.9449,N,07954.5339,W,1,10,1.6,18,M,,M,,*6A
05/28/2014	20:00:52.697	$GPGGA,200053,2551.9456,N,07954.5344,W,1,9,2.3,18,M,,M,,*51
05/28/2014	20:00:53.652	$GPGGA,200054,2551.9462,N,07954.5350,W,1,9,1.6,18,M,,M,,*52
05/28/2014	20:00:54.679	$GPGGA,200055,2551.9467,N,07954.5357,W,1,11,1.6,18,M,,M,,*68
05/28/2014	20:00:55.753	$GPGGA,200056,2551.9474,N,07954.5362,W,1,11,1.6,18,M,,M,,*6F
05/28/2014	20:00:56.838	$GPGGA,200057,2551.9480,N,07954.5369,W,1,11,1.6,18,M,,M,,*6E
05/28/2014	20:00:57.890	$GPGGA,200058,2551.9484,N,07954.5373,W,1,11,1.6,18,M,,M,,*6E
05/28/2014	20:00:58.952	$GPGGA,200059,2551.9489,N,07954.5379,W,1,11,1.6,18,M,,M,,*68
05/28/2014	20:01:00.058	$GPGGA,200100,2551.9495,N,07954.5386,W,1,11,1.6,18,M,,M,,*68
05/28/2014	20:01:01.102	$GPGGA,200101,2551.9499,N,07954.5390,W,1,11,1.6,18,M,,M,,*62
05/28/2014	20:01:02.174	$GPGGA,200102,2551.9503,N,07954.5394,W,1,11,1.6,19,M,,M,,*66
05/28/2014	20:01:03.259	$GPGGA,200103,2551.9509,N,07954.5398,W,1,11,1.6,19,M,,M,,*61
05/28/2014	20:01:04.332	$GPGGA,200104,2551.9516,N,07954.5405,W,1,11,1.7,19,M,,M,,*6A
05/28/2014	20:01:05.406	$GPGGA,200105,2551.9521,N,07954.5408,W,1,10,1.9,19,M,,M,,*6D
05/28/2014	20:01:06.448	$GPGGA,200106,2551.9525,N,07954.5410,W,1,10,1.9,19,M,,M,,*63
05/28/2014	20:01:07.554	$GPGGA,200107,2551.9531,N,07954.5415,W,1,11,1.6,19,M,,M,,*6C
05/28/2014	20:01:08.617	$GPGGA,200108,2551.9536,N,07954.5420,W,1,11,1.9,19,M,,M,,*6D
05/28/2014	20:01:09.680	$GPGGA,200109,2551.9542,N,07954.5423,W,1,11,1.6,19,M,,M,,*63
05/28/2014	20:01:10.744	$GPGGA,200110,2551.9547,N,07954.5428,W,1,11,1.6,19,M,,M,,*65
05/28/2014	20:01:11.839	$GPGGA,200111,2551.9553,N,07954.5433,W,1,11,1.6,19,M,,M,,*6B
05/28/2014	20:01:12.902	$GPGGA,200112,2551.9557,N,07954.5437,W,1,11,1.6,19,M,,M,,*68
05/28/2014	20:01:13.965	$GPGGA,200113,2551.9563,N,07954.5442,W,1,11,1.6,19,M,,M,,*6C
05/28/2014	20:01:15.054	$GPGGA,200114,2551.9567,N,07954.5446,W,1,11,1.6,19,M,,M,,*6B
05/28/2014	20:01:16.092	$GPGGA,200115,2551.9571,N,07954.5449,W,1,11,1.6,19,M,,M,,*62
05/28/2014	20:01:17.209	$GPGGA,200116,2551.9576,N,07954.5453,W,1,11,1.7,19,M,,M,,*6C
05/28/2014	20:01:18.292	$GPGGA,200117,2551.9582,N,07954.5459,W,1,10,1.7,19,M,,M,,*6D
05/28/2014	20:01:19.312	$GPGGA,200118,2551.9583,N,07954.5460,W,1,10,1.7,19,M,,M,,*69
05/28/2014	20:01:20.526	$GPGGA,200119,2551.9589,N,07954.5464,W,1,11,1.7,19,M,,M,,*67
05/28/2014	20:01:21.482	$GPGGA,200120,2551.9593,N,07954.5467,W,1,11,1.7,19,M,,M,,*65
05/28/2014	20:01:22.548	$GPGGA,200121,2551.9597,N,07954.5471,W,1,10,1.7,19,M,,M,,*66
05/28/2014	20:01:23.715	$GPGGA,200122,2551.9601,N,07954.5475,W,1,10,1.6,19,M,,M,,*6C
05/28/2014	20:01:24.671	$GPGGA,200123,2551.9608,N,07954.5480,W,1,11,1.6,19,M,,M,,*6F
05/28/2014	20:01:25.895	$GPGGA,200124,2551.9614,N,07954.5484,W,1,11,1.6,19,M,,M,,*61
05/28/2014	20:01:26.830	$GPGGA,200125,2551.9619,N,07954.5488,W,1,11,1.6,19,M,,M,,*61
05/28/2014	20:01:27.882	$GPGGA,200126,2551.9623,N,07954.5493,W,1,11,1.7,19,M,,M,,*60
05/28/2014	20:01:29.101	$GPGGA,200127,2551.9628,N,07954.5495,W,1,11,1.7,19,M,,M,,*6C
05/28/2014	20:01:30.191	$GPGGA,200128,2551.9633,N,07954.5500,W,1,11,1.6,19,M,,M,,*65
05/28/2014	20:01:31.223	$GPGGA,200129,2551.9637,N,07954.5506,W,1,11,1.6,19,M,,M,,*66
05/28/2014	20:01:32.188	$GPGGA,200130,2551.9641,N,07954.5509,W,1,11,1.6,19,M,,M,,*60
05/28/2014	20:01:33.252	$GPGGA,200131,2551.9644,N,07954.5511,W,1,10,1.7,19,M,,M,,*6D
05/28/2014	20:01:34.444	$GPGGA,200132,2551.9651,N,07954.5516,W,1,10,1.6,19,M,,M,,*6C
05/28/2014	20:01:35.539	$GPGGA,200133,2551.9659,N,07954.5522,W,1,11,1.6,19,M,,M,,*63
05/28/2014	20:01:36.472	$GPGGA,200134,2551.9665,N,07954.5527,W,1,11,1.6,19,M,,M,,*6E
05/28/2014	20:01:37.643	$GPGGA,200135,2551.9666,N,07954.5528,W,1,11,1.7,19,M,,M,,*62
05/28/2014	20:01:38.738	$GPGGA,200136,2551.9672,N,07954.5532,W,1,11,1.6,19,M,,M,,*6E
05/28/2014	20:01:39.812	$GPGGA,200137,2551.9677,N,07954.5538,W,1,11,1.7,19,M,,M,,*61
05/28/2014	20:01:40.864	$GPGGA,200138,2551.9680,N,07954.5539,W,1,11,1.7,19,M,,M,,*67
05/28/2014	20:01:41.949	$GPGGA,200139,2551.9683,N,07954.5542,W,1,10,1.7,19,M,,M,,*68
05/28/2014	20:01:39.662	$GPGGA,200140,2551.9688,N,07954.5546,W,1,10,1.6,19,M,,M,,*68
05/28/2014	20:01:40.714	$GPGGA,200141,2551.9693,N,07954.5550,W,1,11,1.7,19,M,,M,,*64
05/28/2014	20:01:41.788	$GPGGA,200142,2551.9697,N,07954.5553,W,1,11,1.7,19,M,,M,,*60
05/28/2014	20:01:42.873	$GPGGA,200143,2551.9702,N,07954.5556,W,1,10,1.6,19,M,,M,,*69
05/28/2014	20:01:43.947	$GPGGA,200144,2551.9708,N,07954.5561,W,1,10,1.6,19,M,,M,,*60
05/28/2014	20:01:45.021	$GPGGA,200145,2551.9713,N,07954.5565,W,1,11,1.6,19,M,,M,,*6E
05/28/2014	20:01:46.073	$GPGGA,200146,2551.9716,N,07954.5568,W,1,11,1.6,19,M,,M,,*65
05/28/2014	20:01:47.147	$GPGGA,200147,2551.9722,N,07954.5572,W,1,11,1.6,19,M,,M,,*68
05/28/2014	20:01:48.221	$GPGGA,200148,2551.9726,N,07954.5576,W,1,11,1.6,19,M,,M,,*67
05/28/2014	20:01:49.284	$GPGGA,200149,2551.9731,N,07954.5581,W,1,11,1.6,19,M,,M,,*68
05/28/2014	20:01:50.358	$GPGGA,200150,2551.9735,N,07954.5585,W,1,11,1.6,19,M,,M,,*60
05/28/2014	20:01:51.475	$GPGGA,200151,2551.9740,N,07954.5589,W,1,11,1.6,19,M,,M,,*6F
05/28/2014	20:01:52.537	$GPGGA,200152,2551.9745,N,07954.5592,W,1,11,1.6,19,M,,M,,*63
05/28/2014	20:01:53.579	$GPGGA,200153,2551.9751,N,07954.5596,W,1,11,1.6,19,M,,M,,*63
05/28/2014	20:01:56.018	$GPGGA,200155,2551.9760,N,07954.5603,W,1,11,1.6,19,M,,M,,*68
05/28/2014	20:01:56.822	$GPGGA,200156,2551.9764,N,07954.5608,W,1,11,1.6,19,M,,M,,*64
05/28/2014	20:01:57.874	$GPGGA,200157,2551.9770,N,07954.5612,W,1,11,1.6,19,M,,M,,*6B
05/28/2014	20:01:58.916	$GPGGA,200158,2551.9774,N,07954.5615,W,1,11,1.6,19,M,,M,,*67
05/28/2014	20:02:00.033	$GPGGA,200159,2551.9778,N,07954.5621,W,1,11,1.6,19,M,,M,,*6D
05/28/2014	20:02:01.107	$GPGGA,200200,2551.9782,N,07954.5623,W,1,11,1.6,19,M,,M,,*65
05/28/2014	20:02:02.159	$GPGGA,200201,2551.9787,N,07954.5628,W,1,11,1.6,19,M,,M,,*6A
05/28/2014	20:02:03.222	$GPGGA,200202,2551.9792,N,07954.5632,W,1,11,1.6,19,M,,M,,*66
05/28/2014	20:02:04.318	$GPGGA,200203,2551.9796,N,07954.5634,W,1,11,1.7,19,M,,M,,*64
05/28/2014	20:02:05.381	$GPGGA,200204,2551.9800,N,07954.5636,W,1,11,1.7,19,M,,M,,*61
05/28/2014	20:02:06.551	$GPGGA,200205,2551.9807,N,07954.5641,W,1,10,1.6,19,M,,M,,*67
05/28/2014	20:02:07.529	$GPGGA,200206,2551.9811,N,07954.5647,W,1,10,1.6,19,M,,M,,*65
05/28/2014	20:02:08.704	$GPGGA,200207,2551.9817,N,07954.5650,W,1,11,1.6,19,M,,M,,*65
05/28/2014	20:02:09.794	$GPGGA,200208,2551.9821,N,07954.5654,W,1,11,1.6,19,M,,M,,*6B
05/28/2014	20:02:10.738	$GPGGA,200209,2551.9827,N,07954.5658,W,1,11,1.7,19,M,,M,,*61
05/28/2014	20:02:11.887	$GPGGA,200210,2551.9831,N,07954.5661,W,1,11,1.6,19,M,,M,,*65
05/28/2014	20:02:12.997	$GPGGA,200211,2551.9834,N,07954.5663,W,1,11,1.6,19,M,,M,,*63
05/28/2014	20:02:13.960	$GPGGA,200212,2551.9839,N,07954.5666,W,1,11,1.7,19,M,,M,,*69
05/28/2014	20:02:15.042	$GPGGA,200213,2551.9843,N,07954.5670,W,1,10,1.7,19,M,,M,,*63
05/28/2014	20:02:16.086	$GPGGA,200214,2551.9846,N,07954.5675,W,1,10,1.7,19,M,,M,,*64
05/28/2014	20:02:17.268	$GPGGA,200215,2551.9850,N,07954.5676,W,1,10,1.7,19,M,,M,,*61
05/28/2014	20:02:18.342	$GPGGA,200216,2551.9854,N,07954.5679,W,1,10,1.7,19,M,,M,,*69
05/28/2014	20:02:19.406	$GPGGA,200217,2551.9861,N,07954.5686,W,1,10,1.6,19,M,,M,,*6F
05/28/2014	20:02:20.382	$GPGGA,200218,2551.9865,N,07954.5688,W,1,10,1.7,19,M,,M,,*6B
05/28/2014	20:02:21.542	$GPGGA,200219,2551.9868,N,07954.5690,W,1,10,1.7,19,M,,M,,*6E
05/28/2014	20:02:22.530	$GPGGA,200220,2551.9872,N,07954.5694,W,1,10,1.7,19,M,,M,,*6B
05/28/2014	20:02:23.690	$GPGGA,200221,2551.9879,N,07954.5699,W,1,10,1.6,19,M,,M,,*6D
05/28/2014	20:02:24.645	$GPGGA,200222,2551.9883,N,07954.5702,W,1,10,1.7,19,M,,M,,*69
05/28/2014	20:02:25.827	$GPGGA,200223,2551.9889,N,07954.5706,W,1,10,1.6,19,M,,M,,*67
05/28/2014	20:02:26.912	$GPGGA,200224,2551.9894,N,07954.5710,W,1,10,1.6,19,M,,M,,*6B
05/28/2014	20:02:27.889	$GPGGA,200225,2551.9899,N,07954.5715,W,1,11,1.7,19,M,,M,,*62
05/28/2014	20:02:29.038	$GPGGA,200226,2551.9903,N,07954.5717,W,1,11,1.7,19,M,,M,,*61
05/28/2014	20:02:30.132	$GPGGA,200227,2551.9907,N,07954.5720,W,1,10,1.7,19,M,,M,,*61
05/28/2014	20:02:31.184	$GPGGA,200228,2551.9911,N,07954.5724,W,1,10,1.6,19,M,,M,,*6C
05/28/2014	20:02:32.269	$GPGGA,200229,2551.9918,N,07954.5728,W,1,11,1.6,19,M,,M,,*69
05/28/2014	20:02:33.332	$GPGGA,200230,2551.9922,N,07954.5733,W,1,11,1.6,19,M,,M,,*62
05/28/2014	20:02:34.417	$GPGGA,200231,2551.9926,N,07954.5735,W,1,11,1.6,19,M,,M,,*61
05/28/2014	20:02:35.481	$GPGGA,200232,2551.9932,N,07954.5740,W,1,11,1.6,19,M,,M,,*65
05/28/2014	20:02:36.565	$GPGGA,200233,2551.9937,N,07954.5744,W,1,11,1.6,19,M,,M,,*65
05/28/2014	20:02:37.617	$GPGGA,200234,2551.9941,N,07954.5748,W,1,11,1.6,19,M,,M,,*6F
05/28/2014	20:02:38.702	$GPGGA,200235,2551.9946,N,07954.5751,W,1,11,1.7,19,M,,M,,*60
05/28/2014	20:02:39.765	$GPGGA,200236,2551.9950,N,07954.5753,W,1,11,1.7,19,M,,M,,*66
05/28/2014	20:02:40.849	$GPGGA,200237,2551.9954,N,07954.5758,W,1,10,1.7,19,M,,M,,*69
05/28/2014	20:02:41.902	$GPGGA,200238,2551.9958,N,07954.5760,W,1,10,1.7,19,M,,M,,*61
05/28/2014	20:02:42.965	$GPGGA,200239,2551.9964,N,07954.5764,W,1,10,1.7,19,M,,M,,*6B
05/28/2014	20:02:39.618	$GPGGA,200240,2551.9966,N,07954.5766,W,1,10,1.6,19,M,,M,,*64
05/28/2014	20:02:40.675	$GPGGA,200241,2551.9972,N,07954.5770,W,1,10,1.7,19,M,,M,,*66
05/28/2014	20:02:41.755	$GPGGA,200242,2551.9979,N,07954.5777,W,1,10,1.7,19,M,,M,,*69
05/28/2014	20:02:42.839	$GPGGA,200243,2551.9982,N,07954.5778,W,1,11,1.6,19,M,,M,,*63
05/28/2014	20:02:43.912	$GPGGA,200244,2551.9984,N,07954.5780,W,1,11,1.7,19,M,,M,,*64
05/28/2014	20:02:44.986	$GPGGA,200245,2551.9991,N,07954.5784,W,1,11,1.6,18,M,,M,,*65
05/28/2014	20:02:46.030	$GPGGA,200246,2551.9997,N,07954.5789,W,1,11,1.6,18,M,,M,,*6D
05/28/2014	20:02:47.241	$GPGGA,200247,2552.0001,N,07954.5791,W,1,11,1.6,18,M,,M,,*69
05/28/2014	20:02:48.209	$GPGGA,200248,2552.0006,N,07954.5795,W,1,11,1.6,18,M,,M,,*65
05/28/2014	20:02:49.239	$GPGGA,200249,2552.0013,N,07954.5802,W,1,11,1.6,18,M,,M,,*61
05/28/2014	20:02:50.336	$GPGGA,200250,2552.0016,N,07954.5805,W,1,11,1.6,18,M,,M,,*6B
05/28/2014	20:02:51.387	$GPGGA,200251,2552.0020,N,07954.5806,W,1,10,1.7,18,M,,M,,*6C
05/28/2014	20:02:52.484	$GPGGA,200252,2552.0026,N,07954.5811,W,1,10,1.7,18,M,,M,,*6F
05/28/2014	20:02:53.664	$GPGGA,200253,2552.0031,N,07954.5816,W,1,10,1.7,18,M,,M,,*6F
05/28/2014	20:02:54.621	$GPGGA,200254,2552.0034,N,07954.5816,W,1,10,1.7,18,M,,M,,*6D
05/28/2014	20:02:55.811	$GPGGA,200255,2552.0038,N,07954.5821,W,1,10,1.7,18,M,,M,,*64
05/28/2014	20:02:56.778	$GPGGA,200256,2552.0045,N,07954.5825,W,1,10,1.7,18,M,,M,,*69
05/28/2014	20:02:57.927	$GPGGA,200257,2552.0051,N,07954.5829,W,1,10,1.7,18,M,,M,,*61
05/28/2014	20:02:58.904	$GPGGA,200258,2552.0056,N,07954.5834,W,1,10,1.6,18,M,,M,,*64
05/28/2014	20:03:00.097	$GPGGA,200259,2552.0062,N,07954.5839,W,1,11,1.6,18,M,,M,,*6E
05/28/2014	20:03:01.073	$GPGGA,200300,2552.0066,N,07954.5843,W,1,11,1.6,18,M,,M,,*6A
05/28/2014	20:03:02.211	$GPGGA,200301,2552.0070,N,07954.5849,W,1,11,1.6,18,M,,M,,*66
05/28/2014	20:03:03.188	$GPGGA,200302,2552.0074,N,07954.5853,W,1,11,1.6,18,M,,M,,*6A
05/28/2014	20:03:04.358	$GPGGA,200303,2552.0078,N,07954.5858,W,1,11,1.6,18,M,,M,,*6C
05/28/2014	20:03:05.346	$GPGGA,200304,2552.0084,N,07954.5863,W,1,11,1.6,18,M,,M,,*60
05/28/2014	20:03:06.539	$GPGGA,200305,2552.0087,N,07954.5868,W,1,11,1.6,18,M,,M,,*69
05/28/2014	20:03:07.569	$GPGGA,200306,2552.0091,N,07954.5874,W,1,11,1.6,18,M,,M,,*60
05/28/2014	20:03:08.675	$GPGGA,200307,2552.0094,N,07954.5879,W,1,11,1.6,18,M,,M,,*69
05/28/2014	20:03:09.728	$GPGGA,200308,2552.0096,N,07954.5885,W,1,11,1.6,18,M,,M,,*67
05/28/2014	20:03:10.802	$GPGGA,200309,2552.0099,N,07954.5892,W,1,11,1.6,18,M,,M,,*6F
05/28/2014	20:03:11.865	$GPGGA,200310,2552.0100,N,07954.5896,W,1,11,1.6,18,M,,M,,*62
05/28/2014	20:03:12.960	$GPGGA,200311,2552.0102,N,07954.5901,W,1,10,1.7,18,M,,M,,*6E
05/28/2014	20:03:14.023	$GPGGA,200312,2552.0103,N,07954.5907,W,1,10,1.6,17,M,,M,,*64
05/28/2014	20:03:15.065	$GPGGA,200313,2552.0107,N,07954.5914,W,1,11,1.6,17,M,,M,,*62
05/28/2014	20:03:16.150	$GPGGA,200314,2552.0107,N,07954.5918,W,1,11,1.6,17,M,,M,,*69
05/28/2014	20:03:17.245	$GPGGA,200315,2552.0110,N,07954.5925,W,1,11,1.6,17,M,,M,,*60
05/28/2014	20:03:18.309	$GPGGA,200316,2552.0113,N,07954.5932,W,1,11,1.6,17,M,,M,,*66
05/28/2014	20:03:19.393	$GPGGA,200317,2552.0114,N,07954.5939,W,1,11,1.6,17,M,,M,,*6B
05/28/2014	20:03:20.435	$GPGGA,200318,2552.0116,N,07954.5944,W,1,11,1.6,17,M,,M,,*6C
05/28/2014	20:03:21.518	$GPGGA,200319,2552.0117,N,07954.5951,W,1,11,1.6,17,M,,M,,*68
05/28/2014	20:03:22.592	$GPGGA,200320,2552.0118,N,07954.5958,W,1,11,1.6,17,M,,M,,*64
05/28/2014	20:03:23.644	$GPGGA,200321,2552.0118,N,07954.5965,W,1,11,1.6,17,M,,M,,*6B
05/28/2014	20:03:24.729	$GPGGA,200322,2552.0120,N,07954.5970,W,1,11,1.6,17,M,,M,,*67
05/28/2014	20:03:25.786	$GPGGA,200323,2552.0121,N,07954.5979,W,1,11,1.6,17,M,,M,,*6E
05/28/2014	20:03:26.888	$GPGGA,200324,2552.0121,N,07954.5984,W,1,11,1.6,17,M,,M,,*6B
05/28/2014	20:03:27.929	$GPGGA,200325,2552.0121,N,07954.5990,W,1,11,1.6,17,M,,M,,*6F
05/28/2014	20:03:29.014	$GPGGA,200326,2552.0123,N,07954.5997,W,1,11,1.6,17,M,,M,,*69
05/28/2014	20:03:30.109	$GPGGA,200327,2552.0121,N,07954.6004,W,1,10,1.7,17,M,,M,,*6A
05/28/2014	20:03:31.151	$GPGGA,200328,2552.0123,N,07954.6009,W,1,10,1.6,17,M,,M,,*6B
05/28/2014	20:03:32.228	$GPGGA,200329,2552.0121,N,07954.6015,W,1,11,1.6,17,M,,M,,*64
05/28/2014	20:03:33.304	$GPGGA,200330,2552.0121,N,07954.6022,W,1,11,1.7,17,M,,M,,*69
05/28/2014	20:03:34.375	$GPGGA,200331,2552.0121,N,07954.6027,W,1,10,1.7,17,M,,M,,*6C
05/28/2014	20:03:35.449	$GPGGA,200332,2552.0121,N,07954.6033,W,1,10,1.7,17,M,,M,,*6A
05/28/2014	20:03:36.503	$GPGGA,200333,2552.0121,N,07954.6040,W,1,10,1.7,17,M,,M,,*6F
05/28/2014	20:03:37.574	$GPGGA,200334,2552.0119,N,07954.6048,W,1,10,1.7,17,M,,M,,*6B
05/28/2014	20:03:38.660	$GPGGA,200335,2552.0118,N,07954.6053,W,1,10,1.7,17,M,,M,,*61
05/28/2014	20:03:39.734	$GPGGA,200336,2552.0118,N,07954.6060,W,1,10,1.7,16,M,,M,,*63
05/28/2014	20:03:40.783	$GPGGA,200337,2552.0118,N,07954.6066,W,1,10,1.7,16,M,,M,,*64
05/28/2014	20:03:41.871	$GPGGA,200338,2552.0118,N,07954.6073,W,1,10,1.7,16,M,,M,,*6F
05/28/2014	20:03:43.069	$GPGGA,200339,2552.0117,N,07954.6078,W,1,10,1.7,16,M,,M,,*6A
05/28/2014	20:03:39.593	$GPGGA,200340,2552.0118,N,07954.6085,W,1,10,1.7,16,M,,M,,*69
05/28/2014	20:03:40.678	$GPGGA,200341,2552.0117,N,07954.6091,W,1,10,1.7,16,M,,M,,*62
05/28/2014	20:03:41.709	$GPGGA,200342,2552.0117,N,07954.6098,W,1,10,1.7,16,M,,M,,*68
05/28/2014	20:03:42.815	$GPGGA,200343,2552.0120,N,07954.6105,W,1,10,1.7,16,M,,M,,*68
05/28/2014	20:03:43.880	$GPGGA,200344,2552.0119,N,07954.6113,W,1,10,1.6,16,M,,M,,*63
05/28/2014	20:03:45.028	$GPGGA,200345,2552.0120,N,07954.6120,W,1,11,1.6,16,M,,M,,*69
05/28/2014	20:03:46.015	$GPGGA,200346,2552.0119,N,07954.6127,W,1,11,1.6,16,M,,M,,*67
05/28/2014	20:03:47.079	$GPGGA,200347,2552.0118,N,07954.6134,W,1,11,1.6,16,M,,M,,*65
05/28/2014	20:03:48.152	$GPGGA,200348,2552.0118,N,07954.6141,W,1,11,1.7,16,M,,M,,*69
05/28/2014	20:03:49.323	$GPGGA,200349,2552.0120,N,07954.6147,W,1,10,1.7,16,M,,M,,*64
05/28/2014	20:03:50.289	$GPGGA,200350,2552.0118,N,07954.6153,W,1,10,1.6,16,M,,M,,*63
05/28/2014	20:03:51.363	$GPGGA,200351,2552.0117,N,07954.6160,W,1,10,1.7,16,M,,M,,*6C
05/28/2014	20:03:52.555	$GPGGA,200352,2552.0117,N,07954.6167,W,1,10,1.7,16,M,,M,,*68
05/28/2014	20:03:53.618	$GPGGA,200353,2552.0117,N,07954.6172,W,1,10,1.7,16,M,,M,,*6D
05/28/2014	20:03:54.680	$GPGGA,200354,2552.0116,N,07954.6179,W,1,10,1.6,16,M,,M,,*61
05/28/2014	20:03:55.765	$GPGGA,200355,2552.0115,N,07954.6188,W,1,10,1.7,16,M,,M,,*6C
05/28/2014	20:03:56.839	$GPGGA,200356,2552.0114,N,07954.6192,W,1,10,1.7,16,M,,M,,*65
05/28/2014	20:03:57.925	$GPGGA,200357,2552.0114,N,07954.6197,W,1,10,1.7,16,M,,M,,*61
05/28/2014	20:03:58.965	$GPGGA,200358,2552.0114,N,07954.6204,W,1,10,1.7,16,M,,M,,*67
05/28/2014	20:04:00.028	$GPGGA,200359,2552.0114,N,07954.6211,W,1,9,2.3,16,M,,M,,*5D
05/28/2014	20:04:01.134	$GPGGA,200400,2552.0114,N,07954.6217,W,1,9,1.7,16,M,,M,,*57
05/28/2014	20:04:02.187	$GPGGA,200401,2552.0112,N,07954.6225,W,1,10,1.7,16,M,,M,,*69
05/28/2014	20:04:03.261	$GPGGA,200402,2552.0113,N,07954.6233,W,1,10,1.7,16,M,,M,,*6C
05/28/2014	20:04:04.345	$GPGGA,200403,2552.0110,N,07954.6241,W,1,10,1.7,16,M,,M,,*6B
05/28/2014	20:04:05.398	$GPGGA,200404,2552.0109,N,07954.6247,W,1,10,1.7,16,M,,M,,*62
05/28/2014	20:04:06.472	$GPGGA,200405,2552.0107,N,07954.6254,W,1,10,1.7,16,M,,M,,*6F
05/28/2014	20:04:07.548	$GPGGA,200406,2552.0109,N,07954.6262,W,1,10,2.3,16,M,,M,,*60
05/28/2014	20:04:08.609	$GPGGA,200407,2552.0107,N,07954.6268,W,1,11,1.6,16,M,,M,,*62
05/28/2014	20:04:09.693	$GPGGA,200408,2552.0105,N,07954.6275,W,1,11,1.7,16,M,,M,,*62
05/28/2014	20:04:10.757	$GPGGA,200409,2552.0106,N,07954.6284,W,1,10,1.7,16,M,,M,,*6F
05/28/2014	20:04:11.831	$GPGGA,200410,2552.0103,N,07954.6290,W,1,10,1.6,16,M,,M,,*66
05/28/2014	20:04:12.893	$GPGGA,200411,2552.0101,N,07954.6297,W,1,10,1.7,16,M,,M,,*63
05/28/2014	20:04:13.977	$GPGGA,200412,2552.0100,N,07954.6304,W,1,10,1.7,16,M,,M,,*6A
05/28/2014	20:04:15.062	$GPGGA,200413,2552.0098,N,07954.6311,W,1,10,1.7,16,M,,M,,*6F
05/28/2014	20:04:16.104	$GPGGA,200414,2552.0096,N,07954.6318,W,1,10,1.7,17,M,,M,,*6E
05/28/2014	20:04:17.220	$GPGGA,200415,2552.0094,N,07954.6323,W,1,10,1.7,17,M,,M,,*65
05/28/2014	20:04:18.262	$GPGGA,200416,2552.0092,N,07954.6330,W,1,10,1.7,17,M,,M,,*62
05/28/2014	20:04:19.357	$GPGGA,200417,2552.0089,N,07954.6337,W,1,9,2.3,17,M,,M,,*51
05/28/2014	20:04:20.410	$GPGGA,200418,2552.0087,N,07954.6344,W,1,9,1.7,17,M,,M,,*53
05/28/2014	20:04:21.483	$GPGGA,200419,2552.0086,N,07954.6351,W,1,10,1.7,17,M,,M,,*6F
05/28/2014	20:04:22.558	$GPGGA,200420,2552.0085,N,07954.6359,W,1,10,1.7,17,M,,M,,*6E
05/28/2014	20:04:23.622	$GPGGA,200421,2552.0082,N,07954.6366,W,1,10,1.7,17,M,,M,,*64
05/28/2014	20:04:24.738	$GPGGA,200422,2552.0081,N,07954.6373,W,1,10,1.7,17,M,,M,,*60
05/28/2014	20:04:25.770	$GPGGA,200423,2552.0080,N,07954.6381,W,1,10,1.7,17,M,,M,,*6D
05/28/2014	20:04:26.846	$GPGGA,200424,2552.0078,N,07954.6388,W,1,10,1.7,17,M,,M,,*64
05/28/2014	20:04:27.938	$GPGGA,200425,2552.0076,N,07954.6395,W,1,10,1.7,17,M,,M,,*67
05/28/2014	20:04:28.969	$GPGGA,200426,2552.0074,N,07954.6402,W,1,10,1.7,17,M,,M,,*6F
05/28/2014	20:04:30.204	$GPGGA,200427,2552.0074,N,07954.6409,W,1,10,1.7,17,M,,M,,*65
05/28/2014	20:04:31.128	$GPGGA,200428,2552.0071,N,07954.6416,W,1,10,1.7,17,M,,M,,*61
05/28/2014	20:04:32.340	$GPGGA,200429,2552.0069,N,07954.6424,W,1,10,1.7,17,M,,M,,*68
05/28/2014	20:04:33.360	$GPGGA,200430,2552.0068,N,07954.6432,W,1,10,1.7,17,M,,M,,*66
05/28/2014	20:04:34.327	$GPGGA,200431,2552.0067,N,07954.6439,W,1,10,1.7,17,M,,M,,*63
05/28/2014	20:04:35.594	$GPGGA,200432,2552.0064,N,07954.6447,W,1,10,1.7,17,M,,M,,*6A
05/28/2014	20:04:36.485	$GPGGA,200433,2552.0065,N,07954.6456,W,1,11,1.6,17,M,,M,,*6A
05/28/2014	20:04:37.548	$GPGGA,200434,2552.0062,N,07954.6463,W,1,11,1.6,17,M,,M,,*6C
05/28/2014	20:04:38.753	$GPGGA,200435,2552.0061,N,07954.6470,W,1,11,1.6,17,M,,M,,*6C
05/28/2014	20:04:39.696	$GPGGA,200436,2552.0060,N,07954.6478,W,1,11,1.6,17,M,,M,,*66
05/28/2014	20:04:40.920	$GPGGA,200437,2552.0060,N,07954.6488,W,1,11,1.6,17,M,,M,,*68
05/28/2014	20:04:41.931	$GPGGA,200438,2552.0058,N,07954.6495,W,1,11,1.6,17,M,,M,,*60
05/28/2014	20:04:43.071	$GPGGA,200439,2552.0056,N,07954.6503,W,1,11,1.6,17,M,,M,,*61
05/28/2014	20:04:39.742	$GPGGA,200440,2552.0056,N,07954.6511,W,1,11,1.6,17,M,,M,,*6C
05/28/2014	20:04:40.762	$GPGGA,200441,2552.0053,N,07954.6519,W,1,11,1.6,17,M,,M,,*60
05/28/2014	20:04:41.783	$GPGGA,200442,2552.0051,N,07954.6528,W,1,11,1.6,17,M,,M,,*63
05/28/2014	20:04:42.900	$GPGGA,200443,2552.0050,N,07954.6533,W,1,11,1.6,17,M,,M,,*69
05/28/2014	20:04:44.027	$GPGGA,200444,2552.0049,N,07954.6543,W,1,11,1.6,17,M,,M,,*61
05/28/2014	20:04:45.058	$GPGGA,200445,2552.0047,N,07954.6553,W,1,11,1.6,17,M,,M,,*6F
05/28/2014	20:04:46.077	$GPGGA,200446,2552.0045,N,07954.6558,W,1,11,1.6,17,M,,M,,*65
05/28/2014	20:04:47.194	$GPGGA,200447,2552.0044,N,07954.6566,W,1,11,1.6,17,M,,M,,*68
05/28/2014	20:04:48.225	$GPGGA,200448,2552.0043,N,07954.6577,W,1,11,1.6,17,M,,M,,*60
05/28/2014	20:04:49.344	$GPGGA,200449,2552.0040,N,07954.6583,W,1,11,1.6,17,M,,M,,*69
05/28/2014	20:04:50.429	$GPGGA,200450,2552.0039,N,07954.6590,W,1,11,1.6,17,M,,M,,*6D
05/28/2014	20:04:51.490	$GPGGA,200451,2552.0038,N,07954.6600,W,1,11,1.6,17,M,,M,,*67
05/28/2014	20:04:52.574	$GPGGA,200452,2552.0034,N,07954.6608,W,1,11,1.7,18,M,,M,,*6E
05/28/2014	20:04:53.573	$GPGGA,200453,2552.0032,N,07954.6615,W,1,11,1.6,18,M,,M,,*64
05/28/2014	20:04:54.711	$GPGGA,200454,2552.0031,N,07954.6622,W,1,11,1.6,18,M,,M,,*64
05/28/2014	20:04:55.776	$GPGGA,200455,2552.0031,N,07954.6631,W,1,11,1.6,18,M,,M,,*67
05/28/2014	20:04:56.884	$GPGGA,200456,2552.0028,N,07954.6638,W,1,11,1.6,18,M,,M,,*65
05/28/2014	20:04:57.869	$GPGGA,200457,2552.0027,N,07954.6645,W,1,10,1.7,18,M,,M,,*61
05/28/2014	20:04:59.007	$GPGGA,200458,2552.0027,N,07954.6655,W,1,10,1.6,18,M,,M,,*6E
05/28/2014	20:05:00.059	$GPGGA,200459,2552.0027,N,07954.6663,W,1,11,1.6,18,M,,M,,*6B
05/28/2014	20:05:01.090	$GPGGA,200500,2552.0024,N,07954.6673,W,1,11,1.6,18,M,,M,,*64
05/28/2014	20:05:02.186	$GPGGA,200501,2552.0023,N,07954.6680,W,1,11,1.6,18,M,,M,,*6E
05/28/2014	20:05:03.219	$GPGGA,200502,2552.0022,N,07954.6688,W,1,11,1.6,18,M,,M,,*64
05/28/2014	20:05:04.344	$GPGGA,200503,2552.0021,N,07954.6698,W,1,11,1.6,18,M,,M,,*67
05/28/2014	20:05:05.374	$GPGGA,200504,2552.0020,N,07954.6705,W,1,11,1.6,18,M,,M,,*64
05/28/2014	20:05:06.491	$GPGGA,200505,2552.0018,N,07954.6716,W,1,10,1.9,18,M,,M,,*62
05/28/2014	20:05:07.565	$GPGGA,200506,2552.0016,N,07954.6724,W,1,10,1.6,18,M,,M,,*61
05/28/2014	20:05:08.574	$GPGGA,200507,2552.0014,N,07954.6734,W,1,10,1.7,18,M,,M,,*62
05/28/2014	20:05:09.713	$GPGGA,200508,2552.0013,N,07954.6741,W,1,10,1.6,18,M,,M,,*69
05/28/2014	20:05:10.711	$GPGGA,200509,2552.0011,N,07954.6752,W,1,11,1.6,18,M,,M,,*69
05/28/2014	20:05:11.850	$GPGGA,200510,2552.0009,N,07954.6760,W,1,11,1.6,18,M,,M,,*69
05/28/2014	20:05:12.979	$GPGGA,200511,2552.0009,N,07954.6770,W,1,11,1.6,18,M,,M,,*69
05/28/2014	20:05:14.008	$GPGGA,200512,2552.0007,N,07954.6781,W,1,11,1.6,18,M,,M,,*6A
05/28/2014	20:05:15.104	$GPGGA,200513,2552.0006,N,07954.6788,W,1,11,1.9,18,M,,M,,*6C
05/28/2014	20:05:16.135	$GPGGA,200514,2552.0006,N,07954.6797,W,1,11,1.9,18,M,,M,,*65
05/28/2014	20:05:17.294	$GPGGA,200515,2552.0006,N,07954.6808,W,1,10,1.6,18,M,,M,,*63
05/28/2014	20:05:18.304	$GPGGA,200516,2552.0003,N,07954.6817,W,1,10,1.6,18,M,,M,,*6B
05/28/2014	20:05:19.430	$GPGGA,200517,2552.0004,N,07954.6828,W,1,11,1.6,18,M,,M,,*60
05/28/2014	20:05:20.462	$GPGGA,200518,2552.0002,N,07954.6839,W,1,11,1.6,18,M,,M,,*69
05/28/2014	20:05:21.515	$GPGGA,200519,2552.0002,N,07954.6848,W,1,11,1.6,18,M,,M,,*6E
05/28/2014	20:05:22.655	$GPGGA,200520,2552.0002,N,07954.6860,W,1,11,1.6,18,M,,M,,*6E
05/28/2014	20:05:23.651	$GPGGA,200521,2552.0002,N,07954.6869,W,1,11,1.6,18,M,,M,,*66
05/28/2014	20:05:24.768	$GPGGA,200522,2552.0002,N,07954.6879,W,1,11,1.6,18,M,,M,,*64
05/28/2014	20:05:25.746	$GPGGA,200523,2552.0002,N,07954.6889,W,1,11,1.9,18,M,,M,,*65
05/28/2014	20:05:26.915	$GPGGA,200524,2552.0000,N,07954.6900,W,1,11,1.6,18,M,,M,,*6F
05/28/2014	20:05:28.015	$GPGGA,200525,2552.0001,N,07954.6912,W,1,11,1.6,18,M,,M,,*6C
05/28/2014	20:05:29.042	$GPGGA,200526,2552.0000,N,07954.6923,W,1,11,1.9,18,M,,M,,*63
05/28/2014	20:05:30.148	$GPGGA,200527,2552.0002,N,07954.6933,W,1,10,1.6,18,M,,M,,*6F
05/28/2014	20:05:31.211	$GPGGA,200528,2552.0000,N,07954.6944,W,1,10,1.6,18,M,,M,,*62
05/28/2014	20:05:32.264	$GPGGA,200529,2552.0001,N,07954.6955,W,1,11,1.6,18,M,,M,,*63
05/28/2014	20:05:33.337	$GPGGA,200530,2552.0002,N,07954.6969,W,1,11,1.6,18,M,,M,,*67
05/28/2014	20:05:34.433	$GPGGA,200531,2552.0002,N,07954.6980,W,1,11,1.6,18,M,,M,,*61
05/28/2014	20:05:35.532	$GPGGA,200532,2552.0002,N,07954.6991,W,1,11,1.6,18,M,,M,,*62
05/28/2014	20:05:36.570	$GPGGA,200533,2552.0002,N,07954.7001,W,1,11,1.6,18,M,,M,,*62
05/28/2014	20:05:37.633	$GPGGA,200534,2552.0002,N,07954.7014,W,1,11,1.6,18,M,,M,,*61
05/28/2014	20:05:38.707	$GPGGA,200535,2552.0002,N,07954.7025,W,1,11,1.6,18,M,,M,,*62
05/28/2014	20:05:39.802	$GPGGA,200536,2552.0002,N,07954.7035,W,1,11,1.9,18,M,,M,,*6F
05/28/2014	20:05:40.855	$GPGGA,200537,2552.0002,N,07954.7045,W,1,10,1.9,18,M,,M,,*68
05/28/2014	20:05:41.918	$GPGGA,200538,2552.0002,N,07954.7056,W,1,10,1.9,18,M,,M,,*65
05/28/2014	20:05:42.980	$GPGGA,200539,2552.0004,N,07954.7067,W,1,10,1.9,18,M,,M,,*60
05/28/2014	20:05:39.633	$GPGGA,200540,2552.0003,N,07954.7077,W,1,10,1.9,18,M,,M,,*68
05/28/2014	20:05:40.696	$GPGGA,200541,2552.0004,N,07954.7090,W,1,10,1.6,18,M,,M,,*68
05/28/2014	20:05:41.759	$GPGGA,200542,2552.0003,N,07954.7102,W,1,10,1.9,18,M,,M,,*69
05/28/2014	20:05:42.854	$GPGGA,200543,2552.0005,N,07954.7113,W,1,10,1.9,18,M,,M,,*6E
05/28/2014	20:05:43.950	$GPGGA,200544,2552.0003,N,07954.7124,W,1,10,1.9,18,M,,M,,*6B
05/28/2014	20:05:45.002	$GPGGA,200545,2552.0004,N,07954.7135,W,1,10,1.9,18,M,,M,,*6D
05/28/2014	20:05:46.055	$GPGGA,200546,2552.0004,N,07954.7135,W,1,10,1.9,18,M,,M,,*6E
05/28/2014	20:05:47.120	$GPGGA,200547,2552.0004,N,07954.7162,W,1,11,1.6,18,M,,M,,*63
05/28/2014	20:05:48.213	$GPGGA,200548,2552.0003,N,07954.7173,W,1,11,1.9,18,M,,M,,*64
05/28/2014	20:05:49.255	$GPGGA,200549,2552.0004,N,07954.7183,W,1,10,1.9,18,M,,M,,*6C
05/28/2014	20:05:50.350	$GPGGA,200550,2552.0003,N,07954.7194,W,1,10,1.9,18,M,,M,,*65
05/28/2014	20:05:51.436	$GPGGA,200551,2552.0005,N,07954.7204,W,1,10,1.9,18,M,,M,,*68
05/28/2014	20:05:52.498	$GPGGA,200552,2552.0005,N,07954.7204,W,1,10,1.9,18,M,,M,,*6B
05/28/2014	20:05:53.593	$GPGGA,200553,2552.0005,N,07954.7225,W,1,11,1.6,18,M,,M,,*67
05/28/2014	20:05:54.635	$GPGGA,200554,2552.0005,N,07954.7225,W,1,11,1.6,18,M,,M,,*60
05/28/2014	20:05:55.713	$GPGGA,200555,2552.0005,N,07954.7247,W,1,11,1.6,18,M,,M,,*65
05/28/2014	20:05:56.741	$GPGGA,200556,2552.0005,N,07954.7247,W,1,11,1.6,18,M,,M,,*66
05/28/2014	20:05:57.779	$GPGGA,200557,2552.0005,N,07954.7269,W,1,11,1.9,18,M,,M,,*64
05/28/2014	20:05:58.776	$GPGGA,200558,2552.0005,N,07954.7269,W,1,11,1.9,18,M,,M,,*6B
05/28/2014	20:05:59.805	$GPGGA,200559,2552.0003,N,07954.7290,W,1,11,1.6,18,M,,M,,*65
05/28/2014	20:06:00.977	$GPGGA,200600,2552.0005,N,07954.7303,W,1,11,1.6,18,M,,M,,*67
05/28/2014	20:06:01.863	$GPGGA,200601,2552.0004,N,07954.7314,W,1,11,1.6,18,M,,M,,*61
05/28/2014	20:06:02.869	$GPGGA,200602,2552.0004,N,07954.7314,W,1,11,1.6,18,M,,M,,*62
05/28/2014	20:06:04.013	$GPGGA,200603,2552.0002,N,07954.7334,W,1,11,1.6,18,M,,M,,*67
05/28/2014	20:06:04.946	$GPGGA,200604,2552.0002,N,07954.7334,W,1,11,1.9,18,M,,M,,*6F
05/28/2014	20:06:05.944	$GPGGA,200605,2552.0000,N,07954.7353,W,1,10,1.9,19,M,,M,,*6D
05/28/2014	20:06:07.084	$GPGGA,200606,2551.9999,N,07954.7363,W,1,10,1.9,19,M,,M,,*6E
05/28/2014	20:06:08.124	$GPGGA,200607,2552.0001,N,07954.7374,W,1,11,1.6,19,M,,M,,*65
05/28/2014	20:06:09.049	$GPGGA,200608,2552.0001,N,07954.7374,W,1,11,1.9,19,M,,M,,*65
05/28/2014	20:06:10.066	$GPGGA,200609,2551.9999,N,07954.7392,W,1,10,1.9,18,M,,M,,*6E
05/28/2014	20:06:11.166	$GPGGA,200610,2552.0000,N,07954.7402,W,1,10,1.9,18,M,,M,,*6B
05/28/2014	20:06:12.112	$GPGGA,200611,2551.9999,N,07954.7413,W,1,11,1.6,18,M,,M,,*67
05/28/2014	20:06:13.151	$GPGGA,200612,2551.9999,N,07954.7413,W,1,11,1.9,18,M,,M,,*6B
05/28/2014	20:06:14.271	$GPGGA,200613,2551.9997,N,07954.7429,W,1,10,1.9,18,M,,M,,*6C
05/28/2014	20:06:15.288	$GPGGA,200614,2551.9996,N,07954.7440,W,1,10,1.9,18,M,,M,,*65
05/28/2014	20:06:16.347	$GPGGA,200615,2551.9995,N,07954.7450,W,1,11,1.6,18,M,,M,,*68
05/28/2014	20:06:17.345	$GPGGA,200616,2551.9995,N,07954.7460,W,1,11,1.6,18,M,,M,,*68
05/28/2014	20:06:18.373	$GPGGA,200617,2551.9993,N,07954.7469,W,1,11,1.6,18,M,,M,,*66
05/28/2014	20:06:19.391	$GPGGA,200618,2551.9992,N,07954.7479,W,1,11,1.6,18,M,,M,,*69
05/28/2014	20:06:20.409	$GPGGA,200619,2551.9993,N,07954.7489,W,1,10,1.9,18,M,,M,,*68
05/28/2014	20:06:21.447	$GPGGA,200620,2551.9992,N,07954.7500,W,1,10,1.9,18,M,,M,,*63
05/28/2014	20:06:22.496	$GPGGA,200621,2551.9991,N,07954.7508,W,1,10,1.9,18,M,,M,,*69
05/28/2014	20:06:23.483	$GPGGA,200622,2551.9989,N,07954.7519,W,1,10,1.9,18,M,,M,,*63
05/28/2014	20:06:24.532	$GPGGA,200623,2551.9988,N,07954.7530,W,1,11,1.6,18,M,,M,,*66
05/28/2014	20:06:25.560	$GPGGA,200624,2551.9987,N,07954.7540,W,1,11,1.6,18,M,,M,,*69
05/28/2014	20:06:26.589	$GPGGA,200625,2551.9985,N,07954.7550,W,1,10,1.7,18,M,,M,,*6B
05/28/2014	20:06:27.596	$GPGGA,200626,2551.9984,N,07954.7559,W,1,10,1.6,18,M,,M,,*61
05/28/2014	20:06:28.655	$GPGGA,200627,2551.9982,N,07954.7570,W,1,11,1.6,18,M,,M,,*6C
05/28/2014	20:06:29.663	$GPGGA,200628,2551.9981,N,07954.7581,W,1,11,1.6,18,M,,M,,*6E
05/28/2014	20:06:30.691	$GPGGA,200629,2551.9980,N,07954.7592,W,1,11,1.6,18,M,,M,,*6C
05/28/2014	20:06:31.689	$GPGGA,200630,2551.9980,N,07954.7602,W,1,11,1.7,18,M,,M,,*6F
05/28/2014	20:06:32.736	$GPGGA,200631,2551.9980,N,07954.7612,W,1,11,1.6,18,M,,M,,*6E
05/28/2014	20:06:33.764	$GPGGA,200632,2551.9980,N,07954.7623,W,1,11,1.9,18,M,,M,,*60
05/28/2014	20:06:34.772	$GPGGA,200633,2551.9980,N,07954.7631,W,1,10,1.9,18,M,,M,,*63
05/28/2014	20:06:35.810	$GPGGA,200634,2551.9980,N,07954.7641,W,1,10,1.6,18,M,,M,,*6C
05/28/2014	20:06:36.941	$GPGGA,200635,2551.9980,N,07954.7652,W,1,10,1.9,18,M,,M,,*60
05/28/2014	20:06:37.858	$GPGGA,200636,2551.9980,N,07954.7663,W,1,10,1.6,17,M,,M,,*61
05/28/2014	20:06:38.874	$GPGGA,200637,2551.9982,N,07954.7674,W,1,11,1.6,17,M,,M,,*65
05/28/2014	20:06:39.902	$GPGGA,200638,2551.9981,N,07954.7688,W,1,11,1.9,17,M,,M,,*65
05/28/2014	20:06:40.933	$GPGGA,200639,2551.9982,N,07954.7699,W,1,11,1.6,18,M,,M,,*67
05/28/2014	20:06:39.569	$GPGGA,200640,2551.9981,N,07954.7711,W,1,11,1.9,18,M,,M,,*64
05/28/2014	20:06:40.586	$GPGGA,200641,2551.9982,N,07954.7722,W,1,11,1.6,18,M,,M,,*69
05/28/2014	20:06:41.687	$GPGGA,200642,2551.9984,N,07954.7735,W,1,11,1.9,18,M,,M,,*65
05/28/2014	20:06:42.756	$GPGGA,200643,2551.9984,N,07954.7749,W,1,11,1.6,18,M,,M,,*60
05/28/2014	20:06:43.661	$GPGGA,200644,2551.9984,N,07954.7758,W,1,11,1.6,18,M,,M,,*67
05/28/2014	20:06:44.710	$GPGGA,200645,2551.9986,N,07954.7768,W,1,10,1.9,18,M,,M,,*69
05/28/2014	20:06:45.820	$GPGGA,200646,2551.9987,N,07954.7780,W,1,10,1.9,18,M,,M,,*6D
05/28/2014	20:06:46.869	$GPGGA,200647,2551.9988,N,07954.7792,W,1,10,1.9,18,M,,M,,*60
05/28/2014	20:06:47.784	$GPGGA,200648,2551.9988,N,07954.7805,W,1,10,1.9,18,M,,M,,*6E
05/28/2014	20:06:48.924	$GPGGA,200649,2551.9990,N,07954.7818,W,1,11,1.6,18,M,,M,,*64
05/28/2014	20:06:49.819	$GPGGA,200650,2551.9991,N,07954.7829,W,1,11,1.6,18,M,,M,,*6F
05/28/2014	20:06:50.951	$GPGGA,200651,2551.9993,N,07954.7843,W,1,11,1.6,18,M,,M,,*60
05/28/2014	20:06:51.879	$GPGGA,200652,2551.9995,N,07954.7855,W,1,11,1.6,18,M,,M,,*62
05/28/2014	20:06:53.032	$GPGGA,200653,2551.9997,N,07954.7868,W,1,11,1.6,18,M,,M,,*6F
05/28/2014	20:06:54.003	$GPGGA,200654,2551.9998,N,07954.7881,W,1,11,1.6,18,M,,M,,*60
05/28/2014	20:06:55.063	$GPGGA,200655,2551.9997,N,07954.7894,W,1,11,1.6,19,M,,M,,*6B
05/28/2014	20:06:56.070	$GPGGA,200656,2552.0000,N,07954.7908,W,1,11,1.6,19,M,,M,,*61
05/28/2014	20:06:56.997	$GPGGA,200657,2552.0002,N,07954.7920,W,1,11,1.6,19,M,,M,,*68
05/28/2014	20:06:58.116	$GPGGA,200658,2552.0002,N,07954.7933,W,1,11,1.6,19,M,,M,,*65
05/28/2014	20:06:59.134	$GPGGA,200659,2552.0002,N,07954.7944,W,1,11,1.6,19,M,,M,,*64
05/28/2014	20:07:00.183	$GPGGA,200700,2552.0006,N,07954.7959,W,1,11,1.6,19,M,,M,,*61
05/28/2014	20:07:01.191	$GPGGA,200701,2552.0009,N,07954.7973,W,1,11,1.6,19,M,,M,,*67
05/28/2014	20:07:02.219	$GPGGA,200702,2552.0009,N,07954.7984,W,1,11,1.6,19,M,,M,,*6C
05/28/2014	20:07:03.247	$GPGGA,200703,2552.0011,N,07954.7995,W,1,11,1.6,19,M,,M,,*64
05/28/2014	20:07:04.286	$GPGGA,200704,2552.0015,N,07954.8010,W,1,11,1.6,19,M,,M,,*6C
05/28/2014	20:07:05.314	$GPGGA,200705,2552.0016,N,07954.8024,W,1,11,1.6,19,M,,M,,*69
05/28/2014	20:07:06.320	$GPGGA,200706,2552.0018,N,07954.8035,W,1,11,1.6,19,M,,M,,*64
05/28/2014	20:07:07.379	$GPGGA,200707,2552.0020,N,07954.8049,W,1,11,1.6,19,M,,M,,*65
05/28/2014	20:07:08.387	$GPGGA,200708,2552.0022,N,07954.8063,W,1,11,1.6,19,M,,M,,*60
05/28/2014	20:07:09.396	$GPGGA,200709,2552.0024,N,07954.8075,W,1,11,1.6,19,M,,M,,*60
05/28/2014	20:07:10.423	$GPGGA,200710,2552.0027,N,07954.8089,W,1,11,1.6,19,M,,M,,*68
05/28/2014	20:07:11.472	$GPGGA,200711,2552.0027,N,07954.8100,W,1,11,1.6,19,M,,M,,*69
05/28/2014	20:07:12.489	$GPGGA,200712,2552.0031,N,07954.8114,W,1,11,1.6,19,M,,M,,*68
05/28/2014	20:07:13.539	$GPGGA,200713,2552.0031,N,07954.8128,W,1,11,1.6,19,M,,M,,*66
05/28/2014	20:07:14.515	$GPGGA,200714,2552.0033,N,07954.8140,W,1,11,1.6,19,M,,M,,*6D
05/28/2014	20:07:15.553	$GPGGA,200715,2552.0034,N,07954.8154,W,1,11,1.6,19,M,,M,,*6E
05/28/2014	20:07:16.603	$GPGGA,200716,2552.0038,N,07954.8168,W,1,11,1.6,19,M,,M,,*6E
05/28/2014	20:07:17.630	$GPGGA,200717,2552.0040,N,07954.8180,W,1,11,1.6,19,M,,M,,*66
05/28/2014	20:07:18.638	$GPGGA,200718,2552.0041,N,07954.8194,W,1,11,1.6,19,M,,M,,*6D
05/28/2014	20:07:19.687	$GPGGA,200719,2552.0042,N,07954.8206,W,1,11,1.6,19,M,,M,,*67
05/28/2014	20:07:20.705	$GPGGA,200720,2552.0045,N,07954.8222,W,1,11,1.6,19,M,,M,,*6C
05/28/2014	20:07:21.702	$GPGGA,200721,2552.0045,N,07954.8233,W,1,11,1.6,19,M,,M,,*6D
05/28/2014	20:07:22.741	$GPGGA,200722,2552.0045,N,07954.8246,W,1,11,1.6,19,M,,M,,*6C
05/28/2014	20:07:23.789	$GPGGA,200723,2552.0049,N,07954.8262,W,1,11,1.6,19,M,,M,,*67
05/28/2014	20:07:24.796	$GPGGA,200724,2552.0051,N,07954.8275,W,1,11,1.6,19,M,,M,,*6F
05/28/2014	20:07:25.804	$GPGGA,200725,2552.0050,N,07954.8288,W,1,11,1.6,19,M,,M,,*6D
05/28/2014	20:07:26.832	$GPGGA,200726,2552.0052,N,07954.8300,W,1,11,1.6,19,M,,M,,*6D
05/28/2014	20:07:27.870	$GPGGA,200727,2552.0056,N,07954.8314,W,1,11,1.6,19,M,,M,,*6D
05/28/2014	20:07:28.909	$GPGGA,200728,2552.0058,N,07954.8327,W,1,11,1.6,19,M,,M,,*6C
05/28/2014	20:07:29.909	$GPGGA,200729,2552.0059,N,07954.8339,W,1,11,1.6,19,M,,M,,*63
05/28/2014	20:07:31.047	$GPGGA,200730,2552.0060,N,07954.8353,W,1,11,1.6,19,M,,M,,*6D
05/28/2014	20:07:31.973	$GPGGA,200731,2552.0063,N,07954.8367,W,1,11,1.6,19,M,,M,,*68
05/28/2014	20:07:33.128	$GPGGA,200732,2552.0063,N,07954.8381,W,1,11,1.6,19,M,,M,,*63
05/28/2014	20:07:34.032	$GPGGA,200733,2552.0063,N,07954.8393,W,1,10,1.6,19,M,,M,,*60
05/28/2014	20:07:35.037	$GPGGA,200734,2552.0066,N,07954.8407,W,1,10,1.6,19,M,,M,,*68
05/28/2014	20:07:36.075	$GPGGA,200735,2552.0067,N,07954.8419,W,1,11,1.6,19,M,,M,,*66
05/28/2014	20:07:37.207	$GPGGA,200736,2552.0069,N,07954.8432,W,1,11,1.6,19,M,,M,,*62
05/28/2014	20:07:38.224	$GPGGA,200737,2552.0070,N,07954.8444,W,1,11,1.6,19,M,,M,,*6A
05/28/2014	20:07:39.242	$GPGGA,200738,2552.0070,N,07954.8457,W,1,11,1.6,19,M,,M,,*67
05/28/2014	20:07:40.291	$GPGGA,200739,2552.0074,N,07954.8470,W,1,11,1.6,19,M,,M,,*67
05/28/2014	20:07:39.526	$GPGGA,200740,2552.0072,N,07954.8484,W,1,11,1.9,19,M,,M,,*6B
05/28/2014	20:07:40.656	$GPGGA,200741,2552.0073,N,07954.8493,W,1,11,1.6,19,M,,M,,*62
05/28/2014	20:07:41.655	$GPGGA,200742,2552.0074,N,07954.8506,W,1,11,1.6,19,M,,M,,*6B
05/28/2014	20:07:42.624	$GPGGA,200743,2552.0076,N,07954.8522,W,1,10,1.9,19,M,,M,,*60
05/28/2014	20:07:43.628	$GPGGA,200744,2552.0074,N,07954.8533,W,1,10,2.0,19,M,,M,,*6F
05/28/2014	20:07:44.646	$GPGGA,200745,2552.0074,N,07954.8544,W,1,9,2.0,19,M,,M,,*56
05/28/2014	20:07:45.766	$GPGGA,200746,2552.0076,N,07954.8559,W,1,9,1.9,19,M,,M,,*51
05/28/2014	20:07:46.826	$GPGGA,200747,2552.0077,N,07954.8573,W,1,11,1.6,19,M,,M,,*6F
05/28/2014	20:07:47.833	$GPGGA,200748,2552.0078,N,07954.8585,W,1,11,1.6,19,M,,M,,*66
05/28/2014	20:07:48.872	$GPGGA,200749,2552.0078,N,07954.8598,W,1,11,1.6,19,M,,M,,*6B
05/28/2014	20:07:49.879	$GPGGA,200750,2552.0080,N,07954.8610,W,1,11,1.6,19,M,,M,,*67
05/28/2014	20:07:50.918	$GPGGA,200751,2552.0081,N,07954.8625,W,1,10,1.9,19,M,,M,,*6F
05/28/2014	20:07:51.946	$GPGGA,200752,2552.0080,N,07954.8638,W,1,10,1.6,19,M,,M,,*6E
05/28/2014	20:07:52.954	$GPGGA,200753,2552.0081,N,07954.8650,W,1,11,1.6,19,M,,M,,*61
05/28/2014	20:07:53.983	$GPGGA,200754,2552.0081,N,07954.8663,W,1,11,1.6,19,M,,M,,*66
05/28/2014	20:07:55.031	$GPGGA,200755,2552.0083,N,07954.8678,W,1,11,1.6,19,M,,M,,*6F
05/28/2014	20:07:56.038	$GPGGA,200756,2552.0082,N,07954.8689,W,1,11,1.6,19,M,,M,,*63
05/28/2014	20:07:57.077	$GPGGA,200757,2552.0084,N,07954.8700,W,1,11,1.6,19,M,,M,,*64
05/28/2014	20:07:58.084	$GPGGA,200758,2552.0083,N,07954.8714,W,1,11,1.9,19,M,,M,,*66
05/28/2014	20:07:59.132	$GPGGA,200759,2552.0085,N,07954.8725,W,1,10,2.0,19,M,,M,,*68
05/28/2014	20:08:00.150	$GPGGA,200800,2552.0085,N,07954.8739,W,1,10,2.0,19,M,,M,,*66
05/28/2014	20:08:01.188	$GPGGA,200801,2552.0087,N,07954.8750,W,1,10,1.6,19,M,,M,,*6F
05/28/2014	20:08:02.197	$GPGGA,200802,2552.0089,N,07954.8764,W,1,10,1.6,19,M,,M,,*65
05/28/2014	20:08:03.246	$GPGGA,200803,2552.0089,N,07954.8779,W,1,11,1.6,19,M,,M,,*69
05/28/2014	20:08:04.263	$GPGGA,200804,2552.0089,N,07954.8790,W,1,11,1.6,19,M,,M,,*69
05/28/2014	20:08:05.270	$GPGGA,200805,2552.0091,N,07954.8804,W,1,11,1.6,19,M,,M,,*63
05/28/2014	20:08:06.288	$GPGGA,200806,2552.0092,N,07954.8819,W,1,11,1.6,19,M,,M,,*6F
05/28/2014	20:08:07.359	$GPGGA,200807,2552.0092,N,07954.8831,W,1,11,1.6,19,M,,M,,*64
05/28/2014	20:08:08.365	$GPGGA,200808,2552.0094,N,07954.8844,W,1,11,1.6,19,M,,M,,*6F
05/28/2014	20:08:09.373	$GPGGA,200809,2552.0096,N,07954.8858,W,1,11,1.6,19,M,,M,,*61
05/28/2014	20:08:10.401	$GPGGA,200810,2552.0098,N,07954.8871,W,1,11,1.6,19,M,,M,,*6C
05/28/2014	20:08:11.419	$GPGGA,200811,2552.0097,N,07954.8884,W,1,11,1.6,19,M,,M,,*68
05/28/2014	20:08:12.468	$GPGGA,200812,2552.0100,N,07954.8898,W,1,11,1.6,19,M,,M,,*69
05/28/2014	20:08:13.469	$GPGGA,200813,2552.0103,N,07954.8913,W,1,11,1.6,20,M,,M,,*63
05/28/2014	20:08:14.493	$GPGGA,200814,2552.0103,N,07954.8924,W,1,11,1.6,20,M,,M,,*60
05/28/2014	20:08:15.552	$GPGGA,200815,2552.0107,N,07954.8939,W,1,11,1.6,20,M,,M,,*69
05/28/2014	20:08:16.693	$GPGGA,200816,2552.0110,N,07954.8952,W,1,11,1.7,20,M,,M,,*60
05/28/2014	20:08:17.608	$GPGGA,200817,2552.0112,N,07954.8965,W,1,11,1.6,20,M,,M,,*66
05/28/2014	20:08:18.608	$GPGGA,200818,2552.0114,N,07954.8979,W,1,11,1.6,20,M,,M,,*62
05/28/2014	20:08:19.654	$GPGGA,200819,2552.0118,N,07954.8993,W,1,11,1.6,20,M,,M,,*6B
05/28/2014	20:08:20.672	$GPGGA,200820,2552.0121,N,07954.9006,W,1,11,2.0,20,M,,M,,*6A
05/28/2014	20:08:21.669	$GPGGA,200821,2552.0125,N,07954.9017,W,1,10,2.0,20,M,,M,,*6E
05/28/2014	20:08:22.800	$GPGGA,200822,2552.0128,N,07954.9032,W,1,10,2.0,20,M,,M,,*67
05/28/2014	20:08:23.859	$GPGGA,200823,2552.0132,N,07954.9044,W,1,10,2.0,20,M,,M,,*6C
05/28/2014	20:08:24.877	$GPGGA,200824,2552.0132,N,07954.9059,W,1,10,1.7,20,M,,M,,*63
05/28/2014	20:08:25.936	$GPGGA,200825,2552.0135,N,07954.9073,W,1,11,1.6,20,M,,M,,*6D
05/28/2014	20:08:26.820	$GPGGA,200826,2552.0139,N,07954.9089,W,1,11,1.7,20,M,,M,,*66
05/28/2014	20:08:27.951	$GPGGA,200827,2552.0143,N,07954.9104,W,1,10,1.7,20,M,,M,,*6F
05/28/2014	20:08:28.990	$GPGGA,200828,2552.0146,N,07954.9118,W,1,10,1.7,20,M,,M,,*68
05/28/2014	20:08:30.008	$GPGGA,200829,2552.0150,N,07954.9131,W,1,11,1.6,20,M,,M,,*65
05/28/2014	20:08:31.017	$GPGGA,200830,2552.0154,N,07954.9147,W,1,11,1.6,20,M,,M,,*68
05/28/2014	20:08:32.075	$GPGGA,200831,2552.0157,N,07954.9160,W,1,11,1.6,20,M,,M,,*6F
05/28/2014	20:08:32.979	$GPGGA,200832,2552.0161,N,07954.9174,W,1,11,2.0,20,M,,M,,*69
05/28/2014	20:08:34.121	$GPGGA,200833,2552.0164,N,07954.9187,W,1,11,1.6,20,M,,M,,*64
05/28/2014	20:08:35.117	$GPGGA,200834,2552.0168,N,07954.9202,W,1,11,1.6,20,M,,M,,*61
05/28/2014	20:08:36.199	$GPGGA,200835,2552.0172,N,07954.9216,W,1,11,1.6,20,M,,M,,*6E
05/28/2014	20:08:37.194	$GPGGA,200836,2552.0177,N,07954.9230,W,1,11,1.6,20,M,,M,,*6C
05/28/2014	20:08:38.202	$GPGGA,200837,2552.0181,N,07954.9245,W,1,11,1.6,20,M,,M,,*66
05/28/2014	20:08:39.220	$GPGGA,200838,2552.0183,N,07954.9259,W,1,11,1.6,20,M,,M,,*66
05/28/2014	20:08:40.268	$GPGGA,200839,2552.0188,N,07954.9274,W,1,11,1.6,20,M,,M,,*63
05/28/2014	20:08:39.596	$GPGGA,200840,2552.0192,N,07954.9288,W,1,11,1.6,20,M,,M,,*65
05/28/2014	20:08:40.614	$GPGGA,200841,2552.0195,N,07954.9303,W,1,11,1.6,20,M,,M,,*61
05/28/2014	20:08:41.632	$GPGGA,200842,2552.0197,N,07954.9317,W,1,11,1.6,20,M,,M,,*65
05/28/2014	20:08:42.681	$GPGGA,200843,2552.0201,N,07954.9332,W,1,11,1.6,20,M,,M,,*6F
05/28/2014	20:08:43.699	$GPGGA,200844,2552.0204,N,07954.9347,W,1,11,1.6,20,M,,M,,*6F
05/28/2014	20:08:44.738	$GPGGA,200845,2552.0208,N,07954.9362,W,1,11,1.6,20,M,,M,,*65
05/28/2014	20:08:45.745	$GPGGA,200846,2552.0211,N,07954.9378,W,1,11,1.6,20,M,,M,,*65
05/28/2014	20:08:46.783	$GPGGA,200847,2552.0217,N,07954.9393,W,1,10,1.7,21,M,,M,,*66
05/28/2014	20:08:47.812	$GPGGA,200848,2552.0219,N,07954.9408,W,1,10,1.6,21,M,,M,,*63
05/28/2014	20:08:48.829	$GPGGA,200849,2552.0224,N,07954.9422,W,1,11,1.6,21,M,,M,,*65
05/28/2014	20:08:49.847	$GPGGA,200850,2552.0228,N,07954.9436,W,1,11,1.6,21,M,,M,,*64
05/28/2014	20:08:50.866	$GPGGA,200851,2552.0230,N,07954.9451,W,1,11,1.6,21,M,,M,,*6D
05/28/2014	20:08:51.923	$GPGGA,200852,2552.0235,N,07954.9466,W,1,11,1.6,21,M,,M,,*6F
05/28/2014	20:08:52.913	$GPGGA,200853,2552.0240,N,07954.9483,W,1,10,1.7,21,M,,M,,*67
05/28/2014	20:08:53.959	$GPGGA,200854,2552.0244,N,07954.9498,W,1,10,1.6,21,M,,M,,*6F
05/28/2014	20:08:54.975	$GPGGA,200855,2552.0247,N,07954.9513,W,1,11,1.6,21,M,,M,,*6E
05/28/2014	20:08:56.016	$GPGGA,200856,2552.0250,N,07954.9527,W,1,11,1.6,21,M,,M,,*6C
05/28/2014	20:08:57.025	$GPGGA,200857,2552.0254,N,07954.9542,W,1,11,1.6,21,M,,M,,*6A
05/28/2014	20:08:58.073	$GPGGA,200858,2552.0258,N,07954.9557,W,1,11,1.6,21,M,,M,,*6D
05/28/2014	20:08:59.110	$GPGGA,200859,2552.0261,N,07954.9571,W,1,10,2.0,21,M,,M,,*66
05/28/2014	20:09:00.123	$GPGGA,200900,2552.0265,N,07954.9585,W,1,10,2.0,21,M,,M,,*64
05/28/2014	20:09:01.126	$GPGGA,200901,2552.0269,N,07954.9602,W,1,11,1.6,21,M,,M,,*61
05/28/2014	20:09:02.271	$GPGGA,200902,2552.0273,N,07954.9617,W,1,11,1.6,21,M,,M,,*6D
05/28/2014	20:09:03.305	$GPGGA,200903,2552.0275,N,07954.9632,W,1,11,1.6,21,M,,M,,*6D
05/28/2014	20:09:04.212	$GPGGA,200904,2552.0277,N,07954.9647,W,1,11,1.6,21,M,,M,,*6A
05/28/2014	20:09:05.341	$GPGGA,200905,2552.0283,N,07954.9662,W,1,11,1.6,21,M,,M,,*67
05/28/2014	20:09:06.377	$GPGGA,200906,2552.0286,N,07954.9678,W,1,11,1.6,21,M,,M,,*6A
05/28/2014	20:09:07.305	$GPGGA,200907,2552.0289,N,07954.9691,W,1,11,1.6,21,M,,M,,*63
05/28/2014	20:09:08.324	$GPGGA,200908,2552.0293,N,07954.9707,W,1,11,1.6,21,M,,M,,*69
05/28/2014	20:09:09.463	$GPGGA,200909,2552.0297,N,07954.9722,W,1,11,1.6,21,M,,M,,*6B
05/28/2014	20:09:10.461	$GPGGA,200910,2552.0300,N,07954.9736,W,1,11,1.6,21,M,,M,,*69
05/28/2014	20:09:11.499	$GPGGA,200911,2552.0302,N,07954.9751,W,1,11,1.6,21,M,,M,,*6B
05/28/2014	20:09:12.425	$GPGGA,200912,2552.0307,N,07954.9766,W,1,11,1.6,21,M,,M,,*69
05/28/2014	20:09:13.465	$GPGGA,200913,2552.0311,N,07954.9781,W,1,11,1.6,21,M,,M,,*66
05/28/2014	20:09:14.574	$GPGGA,200914,2552.0315,N,07954.9794,W,1,11,2.2,21,M,,M,,*66
05/28/2014	20:09:15.499	$GPGGA,200915,2552.0319,N,07954.9809,W,1,9,2.2,21,M,,M,,*59
05/28/2014	20:09:16.641	$GPGGA,200916,2552.0322,N,07954.9823,W,1,9,2.0,21,M,,M,,*58
05/28/2014	20:09:17.680	$GPGGA,200917,2552.0327,N,07954.9841,W,1,10,1.6,22,M,,M,,*66
05/28/2014	20:09:18.708	$GPGGA,200918,2552.0330,N,07954.9855,W,1,10,1.7,22,M,,M,,*6B
05/28/2014	20:09:19.715	$GPGGA,200919,2552.0331,N,07954.9867,W,1,10,2.0,22,M,,M,,*6E
05/28/2014	20:09:20.640	$GPGGA,200920,2552.0334,N,07954.9881,W,1,10,2.0,22,M,,M,,*69
05/28/2014	20:09:21.771	$GPGGA,200921,2552.0338,N,07954.9893,W,1,9,2.0,22,M,,M,,*5F
05/28/2014	20:09:22.768	$GPGGA,200922,2552.0341,N,07954.9907,W,1,9,1.6,22,M,,M,,*5B
05/28/2014	20:09:23.849	$GPGGA,200923,2552.0345,N,07954.9920,W,1,11,1.6,22,M,,M,,*62
05/28/2014	20:09:24.877	$GPGGA,200924,2552.0347,N,07954.9932,W,1,11,1.6,22,M,,M,,*64
05/28/2014	20:09:25.873	$GPGGA,200925,2552.0351,N,07954.9946,W,1,10,1.6,21,M,,M,,*63
05/28/2014	20:09:26.880	$GPGGA,200926,2552.0355,N,07954.9961,W,1,10,1.6,21,M,,M,,*61
05/28/2014	20:09:27.929	$GPGGA,200927,2552.0358,N,07954.9975,W,1,11,1.6,21,M,,M,,*69
05/28/2014	20:09:28.989	$GPGGA,200928,2552.0360,N,07954.9987,W,1,11,2.0,21,M,,M,,*65
05/28/2014	20:09:29.985	$GPGGA,200929,2552.0363,N,07955.0003,W,1,10,2.0,21,M,,M,,*6B
05/28/2014	20:09:30.983	$GPGGA,200930,2552.0367,N,07955.0018,W,1,10,1.6,21,M,,M,,*68
05/28/2014	20:09:32.042	$GPGGA,200931,2552.0369,N,07955.0033,W,1,11,1.6,21,M,,M,,*6F
05/28/2014	20:09:33.049	$GPGGA,200932,2552.0372,N,07955.0047,W,1,11,2.0,21,M,,M,,*60
05/28/2014	20:09:34.077	$GPGGA,200933,2552.0374,N,07955.0061,W,1,10,2.0,21,M,,M,,*62
05/28/2014	20:09:35.088	$GPGGA,200934,2552.0377,N,07955.0073,W,1,10,2.0,21,M,,M,,*65
05/28/2014	20:09:36.104	$GPGGA,200935,2552.0381,N,07955.0087,W,1,10,2.0,21,M,,M,,*66
05/28/2014	20:09:37.172	$GPGGA,200936,2552.0383,N,07955.0102,W,1,10,1.6,21,M,,M,,*6E
05/28/2014	20:09:38.160	$GPGGA,200937,2552.0385,N,07955.0117,W,1,11,1.6,21,M,,M,,*6C
05/28/2014	20:09:39.208	$GPGGA,200938,2552.0388,N,07955.0131,W,1,11,2.0,21,M,,M,,*6F
05/28/2014	20:09:40.257	$GPGGA,200939,2552.0391,N,07955.0148,W,1,10,1.7,21,M,,M,,*6D
05/28/2014	20:09:39.584	$GPGGA,200940,2552.0392,N,07955.0163,W,1,10,1.6,21,M,,M,,*68
05/28/2014	20:09:40.591	$GPGGA,200941,2552.0396,N,07955.0177,W,1,11,2.0,21,M,,M,,*6C
05/28/2014	20:09:41.620	$GPGGA,200942,2552.0399,N,07955.0191,W,1,11,2.0,21,M,,M,,*68
05/28/2014	20:09:42.658	$GPGGA,200943,2552.0403,N,07955.0203,W,1,10,1.6,21,M,,M,,*61
05/28/2014	20:09:43.665	$GPGGA,200944,2552.0406,N,07955.0218,W,1,10,1.6,21,M,,M,,*69
05/28/2014	20:09:44.703	$GPGGA,200945,2552.0407,N,07955.0232,W,1,11,1.6,21,M,,M,,*60
05/28/2014	20:09:45.721	$GPGGA,200946,2552.0410,N,07955.0246,W,1,11,1.6,22,M,,M,,*65
05/28/2014	20:09:46.780	$GPGGA,200947,2552.0414,N,07955.0261,W,1,11,1.6,22,M,,M,,*65
05/28/2014	20:09:47.788	$GPGGA,200948,2552.0417,N,07955.0275,W,1,11,1.6,22,M,,M,,*6C
05/28/2014	20:09:48.826	$GPGGA,200949,2552.0419,N,07955.0287,W,1,10,2.0,22,M,,M,,*6A
05/28/2014	20:09:49.844	$GPGGA,200950,2552.0423,N,07955.0300,W,1,10,2.2,22,M,,M,,*67
05/28/2014	20:09:50.860	$GPGGA,200951,2552.0430,N,07955.0316,W,1,9,2.0,22,M,,M,,*59
05/28/2014	20:09:51.993	$GPGGA,200952,2552.0432,N,07955.0332,W,1,9,1.6,22,M,,M,,*5B
05/28/2014	20:09:52.898	$GPGGA,200953,2552.0435,N,07955.0347,W,1,11,1.6,22,M,,M,,*66
05/28/2014	20:09:53.906	$GPGGA,200954,2552.0439,N,07955.0361,W,1,11,2.0,22,M,,M,,*6C
05/28/2014	20:09:54.975	$GPGGA,200955,2552.0443,N,07955.0376,W,1,10,2.0,22,M,,M,,*67
05/28/2014	20:09:56.003	$GPGGA,200956,2552.0446,N,07955.0388,W,1,10,2.0,22,M,,M,,*60
05/28/2014	20:09:57.033	$GPGGA,200957,2552.0449,N,07955.0402,W,1,10,1.6,22,M,,M,,*6E
05/28/2014	20:09:58.029	$GPGGA,200958,2552.0453,N,07955.0416,W,1,10,2.0,22,M,,M,,*6A
05/28/2014	20:09:59.191	$GPGGA,200959,2552.0457,N,07955.0430,W,1,10,2.2,22,M,,M,,*69
05/28/2014	20:10:00.199	$GPGGA,201000,2552.0460,N,07955.0444,W,1,10,1.6,22,M,,M,,*6D
05/28/2014	20:10:01.195	$GPGGA,201001,2552.0461,N,07955.0457,W,1,11,1.6,22,M,,M,,*6E
05/28/2014	20:10:02.214	$GPGGA,201002,2552.0466,N,07955.0473,W,1,11,1.6,23,M,,M,,*6D
05/28/2014	20:10:03.261	$GPGGA,201003,2552.0468,N,07955.0488,W,1,11,1.6,23,M,,M,,*66
05/28/2014	20:10:04.219	$GPGGA,201004,2552.0470,N,07955.0502,W,1,11,1.9,23,M,,M,,*64
05/28/2014	20:10:05.328	$GPGGA,201005,2552.0472,N,07955.0514,W,1,10,1.9,23,M,,M,,*61
05/28/2014	20:10:06.336	$GPGGA,201006,2552.0477,N,07955.0528,W,1,10,1.6,23,M,,M,,*67
05/28/2014	20:10:07.355	$GPGGA,201007,2552.0481,N,07955.0542,W,1,11,1.6,23,M,,M,,*62
05/28/2014	20:10:08.402	$GPGGA,201008,2552.0482,N,07955.0556,W,1,11,1.7,23,M,,M,,*6A
05/28/2014	20:10:09.401	$GPGGA,201009,2552.0486,N,07955.0569,W,1,10,1.7,23,M,,M,,*62
05/28/2014	20:10:10.439	$GPGGA,201010,2552.0490,N,07955.0583,W,1,10,1.6,23,M,,M,,*68
05/28/2014	20:10:11.477	$GPGGA,201011,2552.0495,N,07955.0598,W,1,11,1.7,23,M,,M,,*66
05/28/2014	20:10:12.494	$GPGGA,201012,2552.0497,N,07955.0614,W,1,11,1.6,24,M,,M,,*66
05/28/2014	20:10:13.533	$GPGGA,201013,2552.0497,N,07955.0614,W,1,11,1.6,24,M,,M,,*67
05/28/2014	20:10:14.541	$GPGGA,201014,2552.0504,N,07955.0641,W,1,11,1.6,24,M,,M,,*6B
05/28/2014	20:10:15.589	$GPGGA,201015,2552.0508,N,07955.0655,W,1,11,1.6,24,M,,M,,*63
05/28/2014	20:10:16.607	$GPGGA,201016,2552.0511,N,07955.0669,W,1,11,1.6,24,M,,M,,*67
05/28/2014	20:10:17.635	$GPGGA,201017,2552.0514,N,07955.0684,W,1,11,1.6,24,M,,M,,*60
05/28/2014	20:10:18.633	$GPGGA,201018,2552.0518,N,07955.0699,W,1,11,1.6,24,M,,M,,*6F
05/28/2014	20:10:19.691	$GPGGA,201019,2552.0522,N,07955.0713,W,1,11,1.6,24,M,,M,,*64
05/28/2014	20:10:20.698	$GPGGA,201020,2552.0526,N,07955.0727,W,1,11,1.6,24,M,,M,,*6D
05/28/2014	20:10:21.747	$GPGGA,201021,2552.0529,N,07955.0741,W,1,11,1.6,24,M,,M,,*63
05/28/2014	20:10:22.745	$GPGGA,201022,2552.0533,N,07955.0756,W,1,11,1.6,24,M,,M,,*6D
05/28/2014	20:10:23.804	$GPGGA,201023,2552.0536,N,07955.0771,W,1,11,1.6,24,M,,M,,*6C
05/28/2014	20:10:24.822	$GPGGA,201024,2552.0539,N,07955.0785,W,1,11,1.6,24,M,,M,,*6F
05/28/2014	20:10:25.839	$GPGGA,201025,2552.0542,N,07955.0799,W,1,11,1.6,24,M,,M,,*6F
05/28/2014	20:10:26.847	$GPGGA,201026,2552.0546,N,07955.0814,W,1,11,1.6,24,M,,M,,*62
05/28/2014	20:10:27.896	$GPGGA,201027,2552.0549,N,07955.0829,W,1,11,1.6,24,M,,M,,*62
05/28/2014	20:10:28.924	$GPGGA,201028,2552.0553,N,07955.0842,W,1,11,1.6,24,M,,M,,*6B
05/28/2014	20:10:29.964	$GPGGA,201029,2552.0555,N,07955.0857,W,1,10,2.0,24,M,,M,,*6C
05/28/2014	20:10:30.970	$GPGGA,201030,2552.0560,N,07955.0871,W,1,10,1.6,24,M,,M,,*63
05/28/2014	20:10:32.009	$GPGGA,201031,2552.0562,N,07955.0885,W,1,10,2.0,24,M,,M,,*6E
05/28/2014	20:10:33.027	$GPGGA,201032,2552.0565,N,07955.0900,W,1,10,1.6,24,M,,M,,*63
05/28/2014	20:10:34.148	$GPGGA,201033,2552.0569,N,07955.0914,W,1,11,1.6,24,M,,M,,*6A
05/28/2014	20:10:35.176	$GPGGA,201034,2552.0572,N,07955.0928,W,1,11,1.6,24,M,,M,,*68
05/28/2014	20:10:36.080	$GPGGA,201035,2552.0576,N,07955.0943,W,1,10,2.0,24,M,,M,,*64
05/28/2014	20:10:37.133	$GPGGA,201036,2552.0578,N,07955.0955,W,1,10,2.0,24,M,,M,,*6E
05/28/2014	20:10:38.156	$GPGGA,201037,2552.0580,N,07955.0968,W,1,9,2.2,24,M,,M,,*5C
05/28/2014	20:10:39.154	$GPGGA,201038,2552.0583,N,07955.0983,W,1,9,1.7,24,M,,M,,*53
05/28/2014	20:10:40.182	$GPGGA,201039,2552.0587,N,07955.0995,W,1,11,1.6,24,M,,M,,*69
05/28/2014	20:10:39.551	$GPGGA,201040,2552.0591,N,07955.1011,W,1,11,2.0,24,M,,M,,*61
05/28/2014	20:10:40.672	$GPGGA,201041,2552.0593,N,07955.1026,W,1,10,1.7,24,M,,M,,*63
05/28/2014	20:10:41.576	$GPGGA,201042,2552.0594,N,07955.1038,W,1,10,1.7,24,M,,M,,*68
05/28/2014	20:10:42.728	$GPGGA,201043,2552.0598,N,07955.1053,W,1,11,1.6,24,M,,M,,*68
05/28/2014	20:10:43.633	$GPGGA,201044,2552.0602,N,07955.1067,W,1,11,2.0,24,M,,M,,*6D
05/28/2014	20:10:44.754	$GPGGA,201045,2552.0605,N,07955.1081,W,1,10,2.0,23,M,,M,,*65
05/28/2014	20:10:45.689	$GPGGA,201046,2552.0607,N,07955.1095,W,1,10,1.7,23,M,,M,,*65
05/28/2014	20:10:46.811	$GPGGA,201047,2552.0609,N,07955.1109,W,1,11,1.6,23,M,,M,,*6E
05/28/2014	20:10:47.859	$GPGGA,201048,2552.0612,N,07955.1124,W,1,11,1.6,23,M,,M,,*64
05/28/2014	20:10:48.887	$GPGGA,201049,2552.0616,N,07955.1141,W,1,9,2.2,23,M,,M,,*5C
05/28/2014	20:10:49.895	$GPGGA,201050,2552.0619,N,07955.1153,W,1,9,1.6,23,M,,M,,*5F
05/28/2014	20:10:50.933	$GPGGA,201051,2552.0625,N,07955.1168,W,1,10,1.7,23,M,,M,,*60
05/28/2014	20:10:51.951	$GPGGA,201052,2552.0627,N,07955.1183,W,1,10,1.6,23,M,,M,,*65
05/28/2014	20:10:53.000	$GPGGA,201053,2552.0630,N,07955.1199,W,1,10,1.6,23,M,,M,,*69
05/28/2014	20:10:53.996	$GPGGA,201054,2552.0634,N,07955.1214,W,1,10,1.7,23,M,,M,,*6D
05/28/2014	20:10:55.011	$GPGGA,201055,2552.0636,N,07955.1226,W,1,11,1.6,23,M,,M,,*6F
05/28/2014	20:10:56.033	$GPGGA,201056,2552.0638,N,07955.1240,W,1,11,2.0,23,M,,M,,*67
05/28/2014	20:10:57.025	$GPGGA,201057,2552.0641,N,07955.1255,W,1,10,2.0,23,M,,M,,*6D
05/28/2014	20:10:58.046	$GPGGA,201058,2552.0645,N,07955.1270,W,1,10,1.6,23,M,,M,,*64
05/28/2014	20:10:59.068	$GPGGA,201059,2552.0648,N,07955.1284,W,1,11,1.6,23,M,,M,,*62
05/28/2014	20:11:00.080	$GPGGA,201100,2552.0649,N,07955.1298,W,1,11,1.7,23,M,,M,,*62
05/28/2014	20:11:01.092	$GPGGA,201101,2552.0652,N,07955.1313,W,1,11,1.6,23,M,,M,,*6A
05/28/2014	20:11:02.073	$GPGGA,201102,2552.0656,N,07955.1329,W,1,11,1.6,23,M,,M,,*64
05/28/2014	20:11:03.105	$GPGGA,201103,2552.0658,N,07955.1344,W,1,11,1.6,23,M,,M,,*60
05/28/2014	20:11:04.118	$GPGGA,201104,2552.0661,N,07955.1358,W,1,11,1.7,23,M,,M,,*61
05/28/2014	20:11:05.108	$GPGGA,201105,2552.0663,N,07955.1373,W,1,11,1.6,23,M,,M,,*6A
05/28/2014	20:11:06.120	$GPGGA,201106,2552.0667,N,07955.1384,W,1,11,1.7,23,M,,M,,*64
05/28/2014	20:11:07.116	$GPGGA,201107,2552.0669,N,07955.1398,W,1,10,2.0,23,M,,M,,*63
05/28/2014	20:11:08.143	$GPGGA,201108,2552.0672,N,07955.1409,W,1,10,2.0,23,M,,M,,*69
05/28/2014	20:11:09.165	$GPGGA,201109,2552.0676,N,07955.1423,W,1,11,1.6,23,M,,M,,*60
05/28/2014	20:11:10.167	$GPGGA,201110,2552.0677,N,07955.1438,W,1,11,1.6,23,M,,M,,*63
05/28/2014	20:11:11.157	$GPGGA,201111,2552.0681,N,07955.1452,W,1,11,1.6,23,M,,M,,*67
05/28/2014	20:11:12.189	$GPGGA,201112,2552.0684,N,07955.1467,W,1,11,1.6,23,M,,M,,*67
05/28/2014	20:11:13.221	$GPGGA,201113,2552.0685,N,07955.1482,W,1,11,1.6,23,M,,M,,*6C
05/28/2014	20:11:14.202	$GPGGA,201114,2552.0688,N,07955.1496,W,1,11,1.6,23,M,,M,,*63
05/28/2014	20:11:15.194	$GPGGA,201115,2552.0692,N,07955.1510,W,1,10,2.0,23,M,,M,,*62
05/28/2014	20:11:16.226	$GPGGA,201116,2552.0695,N,07955.1525,W,1,10,2.0,23,M,,M,,*60
05/28/2014	20:11:17.210	$GPGGA,201117,2552.0699,N,07955.1539,W,1,9,2.2,23,M,,M,,*5A
05/28/2014	20:11:18.224	$GPGGA,201118,2552.0703,N,07955.1553,W,1,9,1.6,23,M,,M,,*5C
05/28/2014	20:11:19.231	$GPGGA,201119,2552.0705,N,07955.1568,W,1,11,1.6,22,M,,M,,*6B
05/28/2014	20:11:20.262	$GPGGA,201120,2552.0709,N,07955.1584,W,1,11,1.6,22,M,,M,,*6F
05/28/2014	20:11:21.375	$GPGGA,201121,2552.0713,N,07955.1600,W,1,11,1.6,22,M,,M,,*6A
05/28/2014	20:11:22.255	$GPGGA,201122,2552.0714,N,07955.1612,W,1,11,1.6,22,M,,M,,*6D
05/28/2014	20:11:23.277	$GPGGA,201123,2552.0717,N,07955.1626,W,1,9,2.2,22,M,,M,,*56
05/28/2014	20:11:24.410	$GPGGA,201124,2552.0721,N,07955.1640,W,1,9,2.0,22,M,,M,,*56
05/28/2014	20:11:25.412	$GPGGA,201125,2552.0725,N,07955.1655,W,1,11,1.6,22,M,,M,,*6B
05/28/2014	20:11:26.424	$GPGGA,201126,2552.0730,N,07955.1669,W,1,11,1.6,22,M,,M,,*63
05/28/2014	20:11:27.415	$GPGGA,201127,2552.0732,N,07955.1687,W,1,10,2.0,22,M,,M,,*64
05/28/2014	20:11:28.437	$GPGGA,201128,2552.0735,N,07955.1702,W,1,10,1.6,22,M,,M,,*65
05/28/2014	20:11:29.450	$GPGGA,201129,2552.0739,N,07955.1717,W,1,11,1.6,22,M,,M,,*6D
05/28/2014	20:11:30.439	$GPGGA,201130,2552.0742,N,07955.1734,W,1,11,1.6,23,M,,M,,*69
05/28/2014	20:11:31.370	$GPGGA,201131,2552.0746,N,07955.1748,W,1,11,1.6,23,M,,M,,*67
05/28/2014	20:11:32.474	$GPGGA,201132,2552.0749,N,07955.1763,W,1,11,1.6,23,M,,M,,*62
05/28/2014	20:11:33.474	$GPGGA,201133,2552.0752,N,07955.1777,W,1,11,1.6,23,M,,M,,*6C
05/28/2014	20:11:34.486	$GPGGA,201134,2552.0757,N,07955.1792,W,1,11,1.7,23,M,,M,,*64
05/28/2014	20:11:35.528	$GPGGA,201135,2552.0760,N,07955.1806,W,1,11,1.6,23,M,,M,,*62
05/28/2014	20:11:36.519	$GPGGA,201136,2552.0763,N,07955.1821,W,1,11,1.6,23,M,,M,,*67
05/28/2014	20:11:37.511	$GPGGA,201137,2552.0768,N,07955.1835,W,1,11,1.6,24,M,,M,,*6F
05/28/2014	20:11:38.522	$GPGGA,201138,2552.0771,N,07955.1850,W,1,11,1.6,24,M,,M,,*6B
05/28/2014	20:11:39.524	$GPGGA,201139,2552.0775,N,07955.1862,W,1,11,1.6,24,M,,M,,*6F
05/28/2014	20:11:39.595	$GPGGA,201140,2552.0779,N,07955.1878,W,1,11,1.7,24,M,,M,,*67
05/28/2014	20:11:40.587	$GPGGA,201141,2552.0784,N,07955.1893,W,1,11,1.6,24,M,,M,,*60
05/28/2014	20:11:41.598	$GPGGA,201142,2552.0788,N,07955.1908,W,1,11,1.6,24,M,,M,,*6C
