Software Version Number: 1	Data File Format Number: 1	Build Version Number: 1	Error Count Since VI Started: 0	Manufacturer: Raytheon	 Model Number: RayMarine 120	 S/N: 	 Cal Date: 	 Wind Direction Offset: 0.00	 Slope (M)1: 0.00	 Offset (B)1: 0.00	 Slope (M)2: 0.00	 Offset (B)2: 0.00	 Slope (M)3: 0.00	 Offset (B)3: 0.00	 Slope (M)4: 0.00	 Offset (B)4: 0.00	 Slope (M)5: 0.00	 Offset (B)5: 0.00	 Slope (M)6: 0.00	 Offset (B)6: 0.00
Computer Date	Computer Time	GGA String
05/29/2014	18:00:01.039	$GPGGA,180006,2545.5481,N,07927.1303,W,1,10,1.4,20,M,,M,,*6D
05/29/2014	18:00:02.146	$GPGGA,180007,2545.5480,N,07927.1297,W,1,10,1.4,20,M,,M,,*61
05/29/2014	18:00:03.252	$GPGGA,180008,2545.5484,N,07927.1291,W,1,10,1.4,20,M,,M,,*6C
05/29/2014	18:00:04.314	$GPGGA,180009,2545.5485,N,07927.1286,W,1,10,1.4,20,M,,M,,*6A
05/29/2014	18:00:05.300	$GPGGA,180010,2545.5486,N,07927.1283,W,1,10,1.4,20,M,,M,,*64
05/29/2014	18:00:06.395	$GPGGA,180011,2545.5486,N,07927.1278,W,1,10,1.4,20,M,,M,,*61
05/29/2014	18:00:07.589	$GPGGA,180012,2545.5490,N,07927.1273,W,1,10,1.4,20,M,,M,,*6E
05/29/2014	18:00:08.586	$GPGGA,180013,2545.5490,N,07927.1269,W,1,10,1.4,20,M,,M,,*64
05/29/2014	18:00:09.769	$GPGGA,180014,2545.5492,N,07927.1266,W,1,10,1.4,20,M,,M,,*6E
05/29/2014	18:00:10.853	$GPGGA,180015,2545.5495,N,07927.1262,W,1,10,1.4,20,M,,M,,*6C
05/29/2014	18:00:11.960	$GPGGA,180016,2545.5497,N,07927.1257,W,1,10,1.4,20,M,,M,,*6B
05/29/2014	18:00:13.044	$GPGGA,180017,2545.5499,N,07927.1255,W,1,10,1.4,20,M,,M,,*66
05/29/2014	18:00:14.140	$GPGGA,180018,2545.5500,N,07927.1251,W,1,10,1.4,20,M,,M,,*6C
05/29/2014	18:00:15.245	$GPGGA,180019,2545.5504,N,07927.1247,W,1,10,1.4,20,M,,M,,*6E
05/29/2014	18:00:16.341	$GPGGA,180020,2545.5506,N,07927.1245,W,1,10,1.4,20,M,,M,,*64
05/29/2014	18:00:17.390	$GPGGA,180021,2545.5508,N,07927.1242,W,1,10,1.4,20,M,,M,,*6C
05/29/2014	18:00:18.394	$GPGGA,180022,2545.5511,N,07927.1238,W,1,10,1.4,20,M,,M,,*6A
05/29/2014	18:00:19.450	$GPGGA,180023,2545.5513,N,07927.1235,W,1,10,1.4,20,M,,M,,*64
05/29/2014	18:00:20.476	$GPGGA,180024,2545.5515,N,07927.1234,W,1,10,1.4,20,M,,M,,*64
05/29/2014	18:00:21.491	$GPGGA,180025,2545.5518,N,07927.1231,W,1,9,2.2,20,M,,M,,*50
05/29/2014	18:00:22.537	$GPGGA,180026,2545.5521,N,07927.1228,W,1,9,1.4,19,M,,M,,*5E
05/29/2014	18:00:23.584	$GPGGA,180027,2545.5522,N,07927.1226,W,1,10,1.4,19,M,,M,,*6A
05/29/2014	18:00:24.619	$GPGGA,180028,2545.5525,N,07927.1226,W,1,10,1.4,19,M,,M,,*62
05/29/2014	18:00:25.656	$GPGGA,180029,2545.5526,N,07927.1224,W,1,9,2.2,19,M,,M,,*5F
05/29/2014	18:00:26.671	$GPGGA,180030,2545.5531,N,07927.1222,W,1,9,2.2,19,M,,M,,*57
05/29/2014	18:00:27.695	$GPGGA,180031,2545.5533,N,07927.1221,W,1,9,2.2,19,M,,M,,*57
05/29/2014	18:00:28.741	$GPGGA,180032,2545.5536,N,07927.1222,W,1,9,1.4,19,M,,M,,*57
05/29/2014	18:00:29.777	$GPGGA,180033,2545.5540,N,07927.1220,W,1,10,1.4,19,M,,M,,*6D
05/29/2014	18:00:30.803	$GPGGA,180034,2545.5544,N,07927.1216,W,1,10,2.2,19,M,,M,,*6E
05/29/2014	18:00:31.869	$GPGGA,180035,2545.5547,N,07927.1215,W,1,10,1.4,19,M,,M,,*6A
05/29/2014	18:00:32.885	$GPGGA,180036,2545.5550,N,07927.1213,W,1,10,1.4,19,M,,M,,*69
05/29/2014	18:00:33.931	$GPGGA,180037,2545.5553,N,07927.1212,W,1,10,1.4,19,M,,M,,*6A
05/29/2014	18:00:34.946	$GPGGA,180038,2545.5557,N,07927.1210,W,1,10,2.2,19,M,,M,,*66
05/29/2014	18:00:36.002	$GPGGA,180039,2545.5558,N,07927.1212,W,1,9,2.2,19,M,,M,,*52
05/29/2014	18:00:37.016	$GPGGA,180040,2545.5562,N,07927.1210,W,1,9,1.4,19,M,,M,,*52
05/29/2014	18:00:33.519	$GPGGA,180041,2545.5565,N,07927.1210,W,1,9,2.2,19,M,,M,,*51
05/29/2014	18:00:34.555	$GPGGA,180042,2545.5569,N,07927.1208,W,1,9,2.2,19,M,,M,,*57
05/29/2014	18:00:35.622	$GPGGA,180043,2545.5573,N,07927.1206,W,1,9,2.2,19,M,,M,,*53
05/29/2014	18:00:36.638	$GPGGA,180044,2545.5576,N,07927.1204,W,1,9,1.4,19,M,,M,,*56
05/29/2014	18:00:37.704	$GPGGA,180045,2545.5580,N,07927.1204,W,1,10,1.4,19,M,,M,,*66
05/29/2014	18:00:38.688	$GPGGA,180046,2545.5584,N,07927.1201,W,1,10,2.2,19,M,,M,,*61
05/29/2014	18:00:39.734	$GPGGA,180047,2545.5587,N,07927.1201,W,1,10,1.4,19,M,,M,,*66
05/29/2014	18:00:40.770	$GPGGA,180048,2545.5591,N,07927.1201,W,1,10,1.4,19,M,,M,,*6E
05/29/2014	18:00:41.805	$GPGGA,180049,2545.5594,N,07927.1201,W,1,10,1.4,19,M,,M,,*6A
05/29/2014	18:00:42.831	$GPGGA,180050,2545.5598,N,07927.1200,W,1,10,1.4,19,M,,M,,*6F
05/29/2014	18:00:43.991	$GPGGA,180051,2545.5601,N,07927.1200,W,1,10,1.4,19,M,,M,,*6D
05/29/2014	18:00:44.913	$GPGGA,180052,2545.5604,N,07927.1199,W,1,10,1.4,19,M,,M,,*68
05/29/2014	18:00:46.073	$GPGGA,180053,2545.5607,N,07927.1198,W,1,10,1.4,19,M,,M,,*6B
05/29/2014	18:00:47.067	$GPGGA,180054,2545.5609,N,07927.1196,W,1,10,1.4,19,M,,M,,*6C
05/29/2014	18:00:48.020	$GPGGA,180055,2545.5609,N,07927.1194,W,1,10,1.4,19,M,,M,,*6F
05/29/2014	18:00:49.139	$GPGGA,180056,2545.5609,N,07927.1192,W,1,10,1.4,19,M,,M,,*6A
05/29/2014	18:00:50.070	$GPGGA,180057,2545.5611,N,07927.1190,W,1,10,1.4,19,M,,M,,*60
05/29/2014	18:00:51.096	$GPGGA,180058,2545.5610,N,07927.1188,W,1,10,1.4,19,M,,M,,*67
05/29/2014	18:00:52.225	$GPGGA,180059,2545.5609,N,07927.1185,W,1,10,1.4,19,M,,M,,*63
05/29/2014	18:00:53.281	$GPGGA,180100,2545.5607,N,07927.1182,W,1,10,1.4,19,M,,M,,*67
05/29/2014	18:00:54.296	$GPGGA,180101,2545.5605,N,07927.1179,W,1,10,1.4,19,M,,M,,*60
05/29/2014	18:00:55.342	$GPGGA,180102,2545.5602,N,07927.1176,W,1,10,1.4,19,M,,M,,*6B
05/29/2014	18:00:56.399	$GPGGA,180103,2545.5595,N,07927.1174,W,1,10,1.4,19,M,,M,,*65
05/29/2014	18:00:57.414	$GPGGA,180104,2545.5591,N,07927.1172,W,1,10,2.2,19,M,,M,,*65
05/29/2014	18:00:58.460	$GPGGA,180105,2545.5584,N,07927.1168,W,1,10,1.4,19,M,,M,,*6E
05/29/2014	18:00:59.475	$GPGGA,180106,2545.5576,N,07927.1164,W,1,10,1.4,19,M,,M,,*6C
05/29/2014	18:01:00.521	$GPGGA,180107,2545.5567,N,07927.1161,W,1,10,1.4,19,M,,M,,*68
05/29/2014	18:01:01.547	$GPGGA,180108,2545.5558,N,07927.1158,W,1,10,1.4,19,M,,M,,*61
05/29/2014	18:01:02.562	$GPGGA,180109,2545.5548,N,07927.1156,W,1,10,1.4,19,M,,M,,*6F
05/29/2014	18:01:03.598	$GPGGA,180110,2545.5535,N,07927.1155,W,1,10,1.5,19,M,,M,,*6F
05/29/2014	18:01:04.644	$GPGGA,180111,2545.5524,N,07927.1154,W,1,9,1.5,19,M,,M,,*57
05/29/2014	18:01:05.680	$GPGGA,180112,2545.5512,N,07927.1156,W,1,9,1.5,19,M,,M,,*53
05/29/2014	18:01:06.695	$GPGGA,180113,2545.5498,N,07927.1155,W,1,9,1.4,19,M,,M,,*53
05/29/2014	18:01:07.741	$GPGGA,180114,2545.5484,N,07927.1156,W,1,9,1.4,19,M,,M,,*5A
05/29/2014	18:01:08.796	$GPGGA,180115,2545.5469,N,07927.1156,W,1,9,1.4,19,M,,M,,*58
05/29/2014	18:01:09.824	$GPGGA,180116,2545.5453,N,07927.1157,W,1,9,1.4,19,M,,M,,*53
05/29/2014	18:01:10.828	$GPGGA,180117,2545.5439,N,07927.1157,W,1,9,1.5,19,M,,M,,*5F
05/29/2014	18:01:11.862	$GPGGA,180118,2545.5425,N,07927.1157,W,1,9,1.5,19,M,,M,,*5D
05/29/2014	18:01:12.929	$GPGGA,180119,2545.5410,N,07927.1156,W,1,10,1.4,19,M,,M,,*62
05/29/2014	18:01:13.956	$GPGGA,180120,2545.5396,N,07927.1156,W,1,10,1.4,19,M,,M,,*61
05/29/2014	18:01:14.970	$GPGGA,180121,2545.5379,N,07927.1156,W,1,10,1.4,18,M,,M,,*60
05/29/2014	18:01:16.016	$GPGGA,180122,2545.5363,N,07927.1156,W,1,10,1.5,18,M,,M,,*69
05/29/2014	18:01:17.062	$GPGGA,180123,2545.5347,N,07927.1156,W,1,9,1.5,18,M,,M,,*56
05/29/2014	18:01:18.077	$GPGGA,180124,2545.5329,N,07927.1157,W,1,9,1.5,18,M,,M,,*58
05/29/2014	18:01:19.113	$GPGGA,180125,2545.5316,N,07927.1158,W,1,9,1.5,18,M,,M,,*5A
05/29/2014	18:01:20.128	$GPGGA,180126,2545.5298,N,07927.1158,W,1,9,1.4,18,M,,M,,*5F
05/29/2014	18:01:21.174	$GPGGA,180127,2545.5282,N,07927.1161,W,1,9,1.4,18,M,,M,,*5F
05/29/2014	18:01:22.220	$GPGGA,180128,2545.5268,N,07927.1163,W,1,9,1.4,18,M,,M,,*56
05/29/2014	18:01:23.246	$GPGGA,180129,2545.5253,N,07927.1167,W,1,10,1.4,18,M,,M,,*63
05/29/2014	18:01:24.292	$GPGGA,180130,2545.5237,N,07927.1170,W,1,10,1.4,18,M,,M,,*6F
05/29/2014	18:01:25.317	$GPGGA,180131,2545.5222,N,07927.1174,W,1,10,1.4,18,M,,M,,*6E
05/29/2014	18:01:26.362	$GPGGA,180132,2545.5208,N,07927.1178,W,1,10,1.4,18,M,,M,,*69
05/29/2014	18:01:27.388	$GPGGA,180133,2545.5190,N,07927.1183,W,1,10,1.4,18,M,,M,,*6E
05/29/2014	18:01:28.527	$GPGGA,180134,2545.5174,N,07927.1189,W,1,10,1.4,18,M,,M,,*69
05/29/2014	18:01:29.460	$GPGGA,180135,2545.5159,N,07927.1193,W,1,10,1.4,18,M,,M,,*6C
05/29/2014	18:01:30.620	$GPGGA,180136,2545.5143,N,07927.1199,W,1,10,1.4,18,M,,M,,*6E
05/29/2014	18:01:31.531	$GPGGA,180137,2545.5126,N,07927.1203,W,1,10,1.4,18,M,,M,,*6C
05/29/2014	18:01:32.557	$GPGGA,180138,2545.5109,N,07927.1207,W,1,10,1.4,18,M,,M,,*6A
05/29/2014	18:01:33.717	$GPGGA,180139,2545.5092,N,07927.1210,W,1,10,1.4,18,M,,M,,*6E
05/29/2014	18:01:34.629	$GPGGA,180140,2545.5076,N,07927.1212,W,1,10,1.4,18,M,,M,,*68
05/29/2014	18:01:33.611	$GPGGA,180141,2545.5058,N,07927.1214,W,1,10,1.4,18,M,,M,,*63
05/29/2014	18:01:34.625	$GPGGA,180142,2545.5042,N,07927.1215,W,1,10,1.5,18,M,,M,,*6B
05/29/2014	18:01:35.589	$GPGGA,180143,2545.5028,N,07927.1215,W,1,10,1.4,18,M,,M,,*67
05/29/2014	18:01:36.707	$GPGGA,180144,2545.5013,N,07927.1213,W,1,10,1.4,18,M,,M,,*6E
05/29/2014	18:01:37.733	$GPGGA,180145,2545.4996,N,07927.1217,W,1,11,1.4,18,M,,M,,*6F
05/29/2014	18:01:38.768	$GPGGA,180146,2545.4980,N,07927.1216,W,1,11,2.0,18,M,,M,,*6D
05/29/2014	18:01:39.815	$GPGGA,180147,2545.4964,N,07927.1213,W,1,11,1.4,18,M,,M,,*64
05/29/2014	18:01:40.850	$GPGGA,180148,2545.4949,N,07927.1211,W,1,11,1.4,18,M,,M,,*66
05/29/2014	18:01:41.897	$GPGGA,180149,2545.4933,N,07927.1208,W,1,11,1.4,18,M,,M,,*62
05/29/2014	18:01:42.900	$GPGGA,180150,2545.4919,N,07927.1205,W,1,11,1.4,18,M,,M,,*6F
05/29/2014	18:01:43.978	$GPGGA,180151,2545.4903,N,07927.1201,W,1,11,1.4,18,M,,M,,*61
05/29/2014	18:01:44.982	$GPGGA,180152,2545.4887,N,07927.1196,W,1,11,1.4,18,M,,M,,*62
05/29/2014	18:01:46.008	$GPGGA,180153,2545.4874,N,07927.1189,W,1,10,2.0,18,M,,M,,*67
05/29/2014	18:01:47.046	$GPGGA,180154,2545.4859,N,07927.1180,W,1,10,1.4,18,M,,M,,*61
05/29/2014	18:01:48.090	$GPGGA,180155,2545.4846,N,07927.1172,W,1,11,1.4,18,M,,M,,*62
05/29/2014	18:01:49.115	$GPGGA,180156,2545.4833,N,07927.1163,W,1,11,1.4,18,M,,M,,*63
05/29/2014	18:01:50.151	$GPGGA,180157,2545.4820,N,07927.1153,W,1,11,1.4,18,M,,M,,*63
05/29/2014	18:01:51.166	$GPGGA,180158,2545.4808,N,07927.1141,W,1,11,1.4,18,M,,M,,*65
05/29/2014	18:01:52.233	$GPGGA,180159,2545.4796,N,07927.1128,W,1,11,1.4,18,M,,M,,*63
05/29/2014	18:01:53.269	$GPGGA,180200,2545.4785,N,07927.1115,W,1,11,1.4,19,M,,M,,*61
05/29/2014	18:01:54.274	$GPGGA,180201,2545.4773,N,07927.1102,W,1,11,1.4,19,M,,M,,*6F
05/29/2014	18:01:55.309	$GPGGA,180202,2545.4764,N,07927.1087,W,1,11,1.4,19,M,,M,,*66
05/29/2014	18:01:56.355	$GPGGA,180203,2545.4754,N,07927.1072,W,1,11,1.4,19,M,,M,,*6E
05/29/2014	18:01:57.381	$GPGGA,180204,2545.4744,N,07927.1058,W,1,11,1.4,19,M,,M,,*60
05/29/2014	18:01:58.437	$GPGGA,180205,2545.4736,N,07927.1040,W,1,10,2.0,19,M,,M,,*6B
05/29/2014	18:01:59.452	$GPGGA,180206,2545.4729,N,07927.1021,W,1,10,1.4,19,M,,M,,*66
05/29/2014	18:02:00.467	$GPGGA,180207,2545.4724,N,07927.1002,W,1,11,1.4,19,M,,M,,*6A
05/29/2014	18:02:01.533	$GPGGA,180208,2545.4715,N,07927.0984,W,1,11,1.4,19,M,,M,,*61
05/29/2014	18:02:02.579	$GPGGA,180209,2545.4710,N,07927.0965,W,1,11,1.4,19,M,,M,,*6A
05/29/2014	18:02:03.563	$GPGGA,180210,2545.4706,N,07927.0944,W,1,11,1.4,19,M,,M,,*66
05/29/2014	18:02:04.630	$GPGGA,180211,2545.4698,N,07927.0924,W,1,10,1.6,19,M,,M,,*64
05/29/2014	18:02:05.656	$GPGGA,180212,2545.4695,N,07927.0904,W,1,10,1.4,19,M,,M,,*6A
05/29/2014	18:02:06.681	$GPGGA,180213,2545.4691,N,07927.0883,W,1,11,1.4,19,M,,M,,*60
05/29/2014	18:02:07.696	$GPGGA,180214,2545.4686,N,07927.0863,W,1,11,1.4,19,M,,M,,*6F
05/29/2014	18:02:08.753	$GPGGA,180215,2545.4684,N,07927.0839,W,1,10,2.0,19,M,,M,,*65
05/29/2014	18:02:09.778	$GPGGA,180216,2545.4679,N,07927.0822,W,1,10,1.4,19,M,,M,,*69
05/29/2014	18:02:10.814	$GPGGA,180217,2545.4677,N,07927.0800,W,1,11,1.4,19,M,,M,,*67
05/29/2014	18:02:11.841	$GPGGA,180218,2545.4675,N,07927.0777,W,1,11,1.4,19,M,,M,,*65
05/29/2014	18:02:12.897	$GPGGA,180219,2545.4673,N,07927.0754,W,1,11,1.4,19,M,,M,,*63
05/29/2014	18:02:13.932	$GPGGA,180220,2545.4673,N,07927.0730,W,1,11,1.4,19,M,,M,,*6B
05/29/2014	18:02:14.957	$GPGGA,180221,2545.4673,N,07927.0705,W,1,11,1.4,20,M,,M,,*66
05/29/2014	18:02:15.983	$GPGGA,180222,2545.4673,N,07927.0680,W,1,11,1.4,20,M,,M,,*69
05/29/2014	18:02:17.029	$GPGGA,180223,2545.4671,N,07927.0655,W,1,11,1.4,20,M,,M,,*62
05/29/2014	18:02:18.065	$GPGGA,180224,2545.4675,N,07927.0629,W,1,11,1.4,20,M,,M,,*6A
05/29/2014	18:02:19.234	$GPGGA,180225,2545.4674,N,07927.0604,W,1,11,1.4,20,M,,M,,*65
05/29/2014	18:02:20.115	$GPGGA,180226,2545.4675,N,07927.0579,W,1,11,1.4,20,M,,M,,*6E
05/29/2014	18:02:21.161	$GPGGA,180227,2545.4677,N,07927.0553,W,1,11,1.4,20,M,,M,,*65
05/29/2014	18:02:22.186	$GPGGA,180228,2545.4679,N,07927.0526,W,1,11,1.4,20,M,,M,,*66
05/29/2014	18:02:23.222	$GPGGA,180229,2545.4680,N,07927.0501,W,1,11,1.3,20,M,,M,,*63
05/29/2014	18:02:24.258	$GPGGA,180230,2545.4683,N,07927.0476,W,1,11,1.3,20,M,,M,,*69
05/29/2014	18:02:25.407	$GPGGA,180231,2545.4684,N,07927.0452,W,1,10,1.3,20,M,,M,,*68
05/29/2014	18:02:26.319	$GPGGA,180232,2545.4686,N,07927.0427,W,1,10,1.3,20,M,,M,,*6B
05/29/2014	18:02:27.479	$GPGGA,180233,2545.4691,N,07927.0398,W,1,10,1.3,21,M,,M,,*6E
05/29/2014	18:02:28.473	$GPGGA,180234,2545.4693,N,07927.0373,W,1,10,1.3,21,M,,M,,*6E
05/29/2014	18:02:29.561	$GPGGA,180235,2545.4697,N,07927.0347,W,1,10,1.9,21,M,,M,,*66
05/29/2014	18:02:30.638	$GPGGA,180236,2545.4702,N,07927.0319,W,1,10,1.3,21,M,,M,,*69
05/29/2014	18:02:31.622	$GPGGA,180237,2545.4705,N,07927.0293,W,1,11,1.9,21,M,,M,,*67
05/29/2014	18:02:32.689	$GPGGA,180238,2545.4708,N,07927.0268,W,1,11,1.9,21,M,,M,,*61
05/29/2014	18:02:33.684	$GPGGA,180239,2545.4713,N,07927.0241,W,1,10,1.9,21,M,,M,,*60
05/29/2014	18:02:34.781	$GPGGA,180240,2545.4719,N,07927.0213,W,1,10,1.3,21,M,,M,,*69
05/29/2014	18:02:33.651	$GPGGA,180241,2545.4724,N,07927.0186,W,1,11,1.3,21,M,,M,,*68
05/29/2014	18:02:34.675	$GPGGA,180242,2545.4730,N,07927.0159,W,1,11,1.3,21,M,,M,,*6C
05/29/2014	18:02:35.721	$GPGGA,180243,2545.4734,N,07927.0131,W,1,11,1.3,21,M,,M,,*67
05/29/2014	18:02:36.684	$GPGGA,180244,2545.4741,N,07927.0105,W,1,11,1.3,21,M,,M,,*65
05/29/2014	18:02:37.751	$GPGGA,180245,2545.4745,N,07927.0078,W,1,11,1.3,21,M,,M,,*6B
05/29/2014	18:02:38.797	$GPGGA,180246,2545.4753,N,07927.0051,W,1,11,1.3,21,M,,M,,*64
05/29/2014	18:02:39.823	$GPGGA,180247,2545.4760,N,07927.0025,W,1,11,1.3,21,M,,M,,*66
05/29/2014	18:02:40.879	$GPGGA,180248,2545.4766,N,07926.9998,W,1,11,1.3,21,M,,M,,*68
05/29/2014	18:02:41.843	$GPGGA,180249,2545.4773,N,07926.9972,W,1,11,1.3,21,M,,M,,*69
05/29/2014	18:02:42.930	$GPGGA,180250,2545.4780,N,07926.9945,W,1,11,1.3,21,M,,M,,*69
05/29/2014	18:02:43.904	$GPGGA,180251,2545.4788,N,07926.9919,W,1,11,1.3,21,M,,M,,*69
05/29/2014	18:02:45.023	$GPGGA,180252,2545.4796,N,07926.9893,W,1,11,1.3,21,M,,M,,*66
05/29/2014	18:02:46.039	$GPGGA,180253,2545.4803,N,07926.9865,W,1,11,1.3,21,M,,M,,*6D
05/29/2014	18:02:47.063	$GPGGA,180254,2545.4810,N,07926.9839,W,1,11,1.3,21,M,,M,,*61
05/29/2014	18:02:48.100	$GPGGA,180255,2545.4821,N,07926.9813,W,1,11,1.3,21,M,,M,,*6A
05/29/2014	18:02:49.155	$GPGGA,180256,2545.4831,N,07926.9786,W,1,11,1.3,21,M,,M,,*6B
05/29/2014	18:02:50.160	$GPGGA,180257,2545.4838,N,07926.9760,W,1,11,1.3,21,M,,M,,*6B
05/29/2014	18:02:51.144	$GPGGA,180258,2545.4846,N,07926.9733,W,1,11,1.3,21,M,,M,,*6B
05/29/2014	18:02:52.170	$GPGGA,180259,2545.4857,N,07926.9707,W,1,11,1.3,21,M,,M,,*6D
05/29/2014	18:02:53.318	$GPGGA,180300,2545.4867,N,07926.9681,W,1,11,1.3,21,M,,M,,*6C
05/29/2014	18:02:54.240	$GPGGA,180301,2545.4875,N,07926.9654,W,1,11,1.3,21,M,,M,,*66
05/29/2014	18:02:55.350	$GPGGA,180302,2545.4883,N,07926.9628,W,1,11,1.3,20,M,,M,,*66
05/29/2014	18:02:56.353	$GPGGA,180303,2545.4893,N,07926.9602,W,1,11,1.3,20,M,,M,,*6E
05/29/2014	18:02:57.420	$GPGGA,180304,2545.4903,N,07926.9576,W,1,11,1.3,20,M,,M,,*61
05/29/2014	18:02:58.373	$GPGGA,180305,2545.4911,N,07926.9549,W,1,11,1.3,20,M,,M,,*6F
05/29/2014	18:02:59.471	$GPGGA,180306,2545.4919,N,07926.9523,W,1,11,1.3,20,M,,M,,*68
05/29/2014	18:03:00.477	$GPGGA,180307,2545.4930,N,07926.9497,W,1,11,1.3,20,M,,M,,*6C
05/29/2014	18:03:01.491	$GPGGA,180308,2545.4939,N,07926.9470,W,1,11,1.3,20,M,,M,,*63
05/29/2014	18:03:02.558	$GPGGA,180309,2545.4948,N,07926.9444,W,1,11,1.3,20,M,,M,,*63
05/29/2014	18:03:03.542	$GPGGA,180310,2545.4955,N,07926.9417,W,1,11,1.3,20,M,,M,,*61
05/29/2014	18:03:04.577	$GPGGA,180311,2545.4966,N,07926.9390,W,1,11,1.3,20,M,,M,,*68
05/29/2014	18:03:05.696	$GPGGA,180312,2545.4976,N,07926.9364,W,1,11,1.3,20,M,,M,,*61
05/29/2014	18:03:06.639	$GPGGA,180313,2545.4984,N,07926.9337,W,1,11,1.3,20,M,,M,,*6B
05/29/2014	18:03:07.747	$GPGGA,180314,2545.4991,N,07926.9310,W,1,11,1.3,20,M,,M,,*6D
05/29/2014	18:03:08.824	$GPGGA,180315,2545.5002,N,07926.9285,W,1,11,1.3,20,M,,M,,*63
05/29/2014	18:03:09.756	$GPGGA,180316,2545.5012,N,07926.9258,W,1,11,1.3,20,M,,M,,*61
05/29/2014	18:03:10.802	$GPGGA,180317,2545.5020,N,07926.9232,W,1,11,1.3,20,M,,M,,*6D
05/29/2014	18:03:13.246	$GPGGA,180319,2545.5040,N,07926.9179,W,1,11,1.3,20,M,,M,,*69
05/29/2014	18:03:14.002	$GPGGA,180320,2545.5049,N,07926.9152,W,1,11,1.3,19,M,,M,,*69
05/29/2014	18:03:15.060	$GPGGA,180321,2545.5056,N,07926.9125,W,1,11,1.4,19,M,,M,,*61
05/29/2014	18:03:16.023	$GPGGA,180322,2545.5063,N,07926.9100,W,1,11,1.3,19,M,,M,,*64
05/29/2014	18:03:17.120	$GPGGA,180323,2545.5074,N,07926.9075,W,1,11,1.4,19,M,,M,,*67
05/29/2014	18:03:18.145	$GPGGA,180324,2545.5081,N,07926.9050,W,1,11,1.3,19,M,,M,,*6A
05/29/2014	18:03:19.202	$GPGGA,180325,2545.5087,N,07926.9024,W,1,11,1.3,19,M,,M,,*6E
05/29/2014	18:03:20.186	$GPGGA,180326,2545.5096,N,07926.8999,W,1,11,1.3,19,M,,M,,*63
05/29/2014	18:03:21.244	$GPGGA,180327,2545.5105,N,07926.8972,W,1,11,1.3,19,M,,M,,*6C
05/29/2014	18:03:22.278	$GPGGA,180328,2545.5113,N,07926.8947,W,1,11,1.3,19,M,,M,,*62
05/29/2014	18:03:23.314	$GPGGA,180329,2545.5121,N,07926.8921,W,1,11,1.3,19,M,,M,,*62
05/29/2014	18:03:24.319	$GPGGA,180330,2545.5130,N,07926.8895,W,1,11,1.3,19,M,,M,,*64
05/29/2014	18:03:25.375	$GPGGA,180331,2545.5138,N,07926.8868,W,1,11,1.3,19,M,,M,,*6F
05/29/2014	18:03:26.421	$GPGGA,180332,2545.5146,N,07926.8842,W,1,11,1.3,19,M,,M,,*6D
05/29/2014	18:03:27.457	$GPGGA,180333,2545.5154,N,07926.8815,W,1,11,1.3,19,M,,M,,*6D
05/29/2014	18:03:28.461	$GPGGA,180334,2545.5154,N,07926.8815,W,1,11,1.3,19,M,,M,,*6A
05/29/2014	18:03:29.528	$GPGGA,180335,2545.5171,N,07926.8762,W,1,11,1.3,19,M,,M,,*63
05/29/2014	18:03:30.553	$GPGGA,180336,2545.5179,N,07926.8735,W,1,11,1.3,19,M,,M,,*6A
05/29/2014	18:03:31.580	$GPGGA,180337,2545.5186,N,07926.8708,W,1,11,1.3,19,M,,M,,*65
05/29/2014	18:03:32.594	$GPGGA,180338,2545.5195,N,07926.8682,W,1,11,1.3,19,M,,M,,*6B
05/29/2014	18:03:33.671	$GPGGA,180339,2545.5203,N,07926.8655,W,1,11,1.4,19,M,,M,,*6B
05/29/2014	18:03:34.686	$GPGGA,180340,2545.5210,N,07926.8628,W,1,11,1.3,19,M,,M,,*6A
05/29/2014	18:03:33.576	$GPGGA,180341,2545.5218,N,07926.8601,W,1,11,1.3,19,M,,M,,*68
05/29/2014	18:03:34.622	$GPGGA,180342,2545.5226,N,07926.8574,W,1,11,1.3,19,M,,M,,*67
05/29/2014	18:03:35.627	$GPGGA,180343,2545.5235,N,07926.8547,W,1,11,1.3,19,M,,M,,*64
05/29/2014	18:03:36.683	$GPGGA,180344,2545.5235,N,07926.8547,W,1,11,1.3,19,M,,M,,*63
05/29/2014	18:03:37.719	$GPGGA,180345,2545.5251,N,07926.8493,W,1,11,1.3,19,M,,M,,*68
05/29/2014	18:03:38.745	$GPGGA,180346,2545.5258,N,07926.8466,W,1,11,1.3,19,M,,M,,*68
05/29/2014	18:03:39.801	$GPGGA,180347,2545.5266,N,07926.8438,W,1,11,1.3,19,M,,M,,*6F
05/29/2014	18:03:40.827	$GPGGA,180348,2545.5275,N,07926.8411,W,1,11,1.3,19,M,,M,,*69
05/29/2014	18:03:41.875	$GPGGA,180349,2545.5283,N,07926.8384,W,1,11,1.3,19,M,,M,,*6A
05/29/2014	18:03:42.888	$GPGGA,180350,2545.5291,N,07926.8356,W,1,11,1.3,19,M,,M,,*6E
05/29/2014	18:03:43.893	$GPGGA,180351,2545.5298,N,07926.8329,W,1,11,1.3,19,M,,M,,*6E
05/29/2014	18:03:44.958	$GPGGA,180352,2545.5308,N,07926.8302,W,1,11,1.3,19,M,,M,,*6C
05/29/2014	18:03:45.984	$GPGGA,180353,2545.5308,N,07926.8302,W,1,11,1.3,19,M,,M,,*6D
05/29/2014	18:03:46.978	$GPGGA,180354,2545.5316,N,07926.8275,W,1,11,1.3,19,M,,M,,*64
05/29/2014	18:03:48.035	$GPGGA,180355,2545.5331,N,07926.8220,W,1,11,1.3,19,M,,M,,*60
05/29/2014	18:03:49.070	$GPGGA,180356,2545.5331,N,07926.8220,W,1,11,1.3,19,M,,M,,*63
05/29/2014	18:03:50.098	$GPGGA,180357,2545.5349,N,07926.8165,W,1,11,1.3,19,M,,M,,*6F
05/29/2014	18:03:51.164	$GPGGA,180358,2545.5358,N,07926.8138,W,1,11,1.3,19,M,,M,,*68
05/29/2014	18:03:52.157	$GPGGA,180359,2545.5367,N,07926.8111,W,1,11,1.3,19,M,,M,,*6E
05/29/2014	18:03:53.338	$GPGGA,180400,2545.5374,N,07926.8084,W,1,11,1.3,19,M,,M,,*6A
05/29/2014	18:03:54.239	$GPGGA,180401,2545.5385,N,07926.8056,W,1,10,1.4,19,M,,M,,*6C
05/29/2014	18:03:55.358	$GPGGA,180402,2545.5394,N,07926.8030,W,1,10,1.3,19,M,,M,,*68
05/29/2014	18:03:56.290	$GPGGA,180403,2545.5403,N,07926.8002,W,1,11,1.3,19,M,,M,,*60
05/29/2014	18:03:57.379	$GPGGA,180404,2545.5403,N,07926.8002,W,1,11,1.3,19,M,,M,,*67
05/29/2014	18:03:58.455	$GPGGA,180405,2545.5421,N,07926.7948,W,1,11,1.3,19,M,,M,,*6E
05/29/2014	18:03:59.441	$GPGGA,180406,2545.5421,N,07926.7948,W,1,11,1.3,19,M,,M,,*6D
05/29/2014	18:04:00.568	$GPGGA,180407,2545.5439,N,07926.7894,W,1,10,1.4,19,M,,M,,*63
05/29/2014	18:04:01.573	$GPGGA,180408,2545.5446,N,07926.7867,W,1,10,1.3,19,M,,M,,*6F
05/29/2014	18:04:02.597	$GPGGA,180409,2545.5457,N,07926.7840,W,1,11,1.3,19,M,,M,,*6A
05/29/2014	18:04:03.550	$GPGGA,180410,2545.5457,N,07926.7840,W,1,11,1.3,19,M,,M,,*62
05/29/2014	18:04:04.658	$GPGGA,180411,2545.5475,N,07926.7786,W,1,10,1.4,19,M,,M,,*60
05/29/2014	18:04:05.704	$GPGGA,180412,2545.5485,N,07926.7759,W,1,10,1.3,19,M,,M,,*69
05/29/2014	18:04:06.761	$GPGGA,180413,2545.5493,N,07926.7732,W,1,11,1.3,19,M,,M,,*63
05/29/2014	18:04:07.776	$GPGGA,180414,2545.5501,N,07926.7705,W,1,11,1.3,19,M,,M,,*6A
05/29/2014	18:04:08.801	$GPGGA,180415,2545.5511,N,07926.7678,W,1,11,1.3,19,M,,M,,*61
05/29/2014	18:04:09.848	$GPGGA,180416,2545.5521,N,07926.7651,W,1,11,1.3,19,M,,M,,*6A
05/29/2014	18:04:10.854	$GPGGA,180417,2545.5529,N,07926.7624,W,1,11,1.3,19,M,,M,,*61
05/29/2014	18:04:11.898	$GPGGA,180418,2545.5537,N,07926.7596,W,1,11,1.3,19,M,,M,,*6B
05/29/2014	18:04:12.955	$GPGGA,180419,2545.5547,N,07926.7569,W,1,11,1.3,19,M,,M,,*6D
05/29/2014	18:04:13.980	$GPGGA,180420,2545.5555,N,07926.7542,W,1,11,1.3,19,M,,M,,*6D
05/29/2014	18:04:15.016	$GPGGA,180421,2545.5565,N,07926.7515,W,1,11,1.3,19,M,,M,,*6D
05/29/2014	18:04:16.042	$GPGGA,180422,2545.5573,N,07926.7488,W,1,11,1.3,19,M,,M,,*6C
05/29/2014	18:04:17.088	$GPGGA,180423,2545.5583,N,07926.7462,W,1,11,1.3,19,M,,M,,*66
05/29/2014	18:04:18.113	$GPGGA,180424,2545.5591,N,07926.7435,W,1,11,1.3,19,M,,M,,*60
05/29/2014	18:04:19.149	$GPGGA,180425,2545.5598,N,07926.7407,W,1,11,1.3,19,M,,M,,*69
05/29/2014	18:04:20.175	$GPGGA,180426,2545.5609,N,07926.7380,W,1,11,1.3,19,M,,M,,*69
05/29/2014	18:04:21.220	$GPGGA,180427,2545.5619,N,07926.7353,W,1,11,1.3,19,M,,M,,*67
05/29/2014	18:04:22.255	$GPGGA,180428,2545.5625,N,07926.7326,W,1,11,1.3,19,M,,M,,*65
05/29/2014	18:04:23.260	$GPGGA,180429,2545.5634,N,07926.7299,W,1,11,1.3,19,M,,M,,*61
05/29/2014	18:04:24.306	$GPGGA,180430,2545.5644,N,07926.7272,W,1,11,1.3,19,M,,M,,*6B
05/29/2014	18:04:26.409	$GPGGA,180432,2545.5659,N,07926.7217,W,1,11,1.3,19,M,,M,,*66
05/29/2014	18:04:27.414	$GPGGA,180433,2545.5669,N,07926.7190,W,1,11,1.3,19,M,,M,,*68
05/29/2014	18:04:28.439	$GPGGA,180434,2545.5677,N,07926.7164,W,1,11,1.3,19,M,,M,,*6B
05/29/2014	18:04:29.465	$GPGGA,180435,2545.5685,N,07926.7137,W,1,11,1.3,19,M,,M,,*61
05/29/2014	18:04:30.521	$GPGGA,180436,2545.5694,N,07926.7110,W,1,11,1.3,19,M,,M,,*67
05/29/2014	18:04:31.547	$GPGGA,180437,2545.5703,N,07926.7083,W,1,11,1.3,19,M,,M,,*62
05/29/2014	18:04:32.563	$GPGGA,180438,2545.5710,N,07926.7055,W,1,11,1.3,19,M,,M,,*64
05/29/2014	18:04:33.618	$GPGGA,180439,2545.5719,N,07926.7028,W,1,11,1.3,19,M,,M,,*66
05/29/2014	18:04:34.654	$GPGGA,180440,2545.5728,N,07926.7001,W,1,11,1.3,19,M,,M,,*61
05/29/2014	18:04:33.553	$GPGGA,180441,2545.5735,N,07926.6974,W,1,11,1.3,19,M,,M,,*66
05/29/2014	18:04:34.569	$GPGGA,180442,2545.5743,N,07926.6948,W,1,11,1.3,19,M,,M,,*6B
05/29/2014	18:04:35.697	$GPGGA,180443,2545.5753,N,07926.6920,W,1,11,1.3,19,M,,M,,*65
05/29/2014	18:04:36.649	$GPGGA,180444,2545.5760,N,07926.6893,W,1,11,1.3,19,M,,M,,*6B
05/29/2014	18:04:37.664	$GPGGA,180445,2545.5768,N,07926.6866,W,1,11,1.3,19,M,,M,,*68
05/29/2014	18:04:38.690	$GPGGA,180446,2545.5775,N,07926.6839,W,1,11,1.3,19,M,,M,,*6D
05/29/2014	18:04:39.736	$GPGGA,180447,2545.5785,N,07926.6812,W,1,11,1.3,19,M,,M,,*6A
05/29/2014	18:04:40.896	$GPGGA,180448,2545.5793,N,07926.6785,W,1,11,1.3,19,M,,M,,*63
05/29/2014	18:04:41.911	$GPGGA,180449,2545.5800,N,07926.6759,W,1,11,1.3,19,M,,M,,*66
05/29/2014	18:04:42.843	$GPGGA,180450,2545.5808,N,07926.6731,W,1,11,1.3,19,M,,M,,*68
05/29/2014	18:04:43.962	$GPGGA,180451,2545.5817,N,07926.6704,W,1,11,1.3,19,M,,M,,*61
05/29/2014	18:04:44.915	$GPGGA,180452,2545.5826,N,07926.6677,W,1,11,1.3,19,M,,M,,*65
05/29/2014	18:04:45.940	$GPGGA,180453,2545.5833,N,07926.6651,W,1,11,1.3,19,M,,M,,*64
05/29/2014	18:04:47.059	$GPGGA,180454,2545.5842,N,07926.6624,W,1,11,1.3,19,M,,M,,*67
05/29/2014	18:04:48.126	$GPGGA,180455,2545.5851,N,07926.6598,W,1,11,1.3,19,M,,M,,*60
05/29/2014	18:04:49.141	$GPGGA,180456,2545.5858,N,07926.6571,W,1,11,1.3,19,M,,M,,*6D
05/29/2014	18:04:50.177	$GPGGA,180457,2545.5865,N,07926.6543,W,1,11,1.3,19,M,,M,,*63
05/29/2014	18:04:51.099	$GPGGA,180458,2545.5876,N,07926.6517,W,1,11,1.3,19,M,,M,,*6F
05/29/2014	18:04:52.134	$GPGGA,180459,2545.5885,N,07926.6490,W,1,11,1.3,19,M,,M,,*6C
05/29/2014	18:04:53.315	$GPGGA,180500,2545.5891,N,07926.6464,W,1,11,1.3,19,M,,M,,*6F
05/29/2014	18:04:54.299	$GPGGA,180501,2545.5901,N,07926.6438,W,1,11,1.3,19,M,,M,,*6F
05/29/2014	18:04:55.334	$GPGGA,180502,2545.5912,N,07926.6411,W,1,11,1.3,19,M,,M,,*65
05/29/2014	18:04:56.370	$GPGGA,180503,2545.5919,N,07926.6384,W,1,11,1.3,19,M,,M,,*64
05/29/2014	18:04:57.406	$GPGGA,180504,2545.5927,N,07926.6356,W,1,11,1.3,19,M,,M,,*61
05/29/2014	18:04:58.441	$GPGGA,180505,2545.5938,N,07926.6330,W,1,11,1.3,19,M,,M,,*6E
05/29/2014	18:04:59.467	$GPGGA,180506,2545.5945,N,07926.6302,W,1,11,1.3,19,M,,M,,*66
05/29/2014	18:05:00.534	$GPGGA,180507,2545.5954,N,07926.6276,W,1,11,1.3,19,M,,M,,*65
05/29/2014	18:05:01.549	$GPGGA,180508,2545.5963,N,07926.6249,W,1,11,1.3,19,M,,M,,*62
05/29/2014	18:05:02.585	$GPGGA,180509,2545.5970,N,07926.6221,W,1,11,1.3,19,M,,M,,*6F
05/29/2014	18:05:03.601	$GPGGA,180510,2545.5980,N,07926.6194,W,1,11,1.3,19,M,,M,,*65
05/29/2014	18:05:04.656	$GPGGA,180511,2545.5990,N,07926.6168,W,1,11,1.3,19,M,,M,,*66
05/29/2014	18:05:05.682	$GPGGA,180512,2545.5998,N,07926.6140,W,1,11,1.3,19,M,,M,,*67
05/29/2014	18:05:06.728	$GPGGA,180513,2545.6006,N,07926.6114,W,1,11,1.3,19,M,,M,,*6A
05/29/2014	18:05:07.732	$GPGGA,180514,2545.6016,N,07926.6087,W,1,11,1.3,19,M,,M,,*67
05/29/2014	18:05:08.768	$GPGGA,180515,2545.6024,N,07926.6060,W,1,11,1.3,19,M,,M,,*6E
05/29/2014	18:05:09.825	$GPGGA,180516,2545.6034,N,07926.6033,W,1,11,1.3,19,M,,M,,*6A
05/29/2014	18:05:10.861	$GPGGA,180517,2545.6042,N,07926.6005,W,1,11,1.3,19,M,,M,,*6F
05/29/2014	18:05:11.865	$GPGGA,180518,2545.6053,N,07926.5978,W,1,11,1.3,19,M,,M,,*60
05/29/2014	18:05:12.921	$GPGGA,180519,2545.6061,N,07926.5951,W,1,11,1.3,18,M,,M,,*6A
05/29/2014	18:05:13.957	$GPGGA,180520,2545.6070,N,07926.5923,W,1,11,1.6,18,M,,M,,*60
05/29/2014	18:05:14.942	$GPGGA,180521,2545.6079,N,07926.5896,W,1,11,1.3,18,M,,M,,*62
05/29/2014	18:05:15.967	$GPGGA,180522,2545.6089,N,07926.5870,W,1,11,1.6,18,M,,M,,*63
05/29/2014	18:05:16.971	$GPGGA,180523,2545.6097,N,07926.5842,W,1,10,1.6,18,M,,M,,*6D
05/29/2014	18:05:17.996	$GPGGA,180524,2545.6106,N,07926.5815,W,1,10,1.6,18,M,,M,,*61
05/29/2014	18:05:19.010	$GPGGA,180525,2545.6115,N,07926.5787,W,1,11,1.3,18,M,,M,,*62
05/29/2014	18:05:20.015	$GPGGA,180526,2545.6122,N,07926.5759,W,1,11,1.3,18,M,,M,,*66
05/29/2014	18:05:21.039	$GPGGA,180527,2545.6133,N,07926.5732,W,1,11,1.3,18,M,,M,,*6A
05/29/2014	18:05:22.044	$GPGGA,180528,2545.6142,N,07926.5704,W,1,11,1.3,18,M,,M,,*66
05/29/2014	18:05:23.078	$GPGGA,180529,2545.6151,N,07926.5678,W,1,11,1.3,18,M,,M,,*6F
05/29/2014	18:05:24.062	$GPGGA,180530,2545.6160,N,07926.5651,W,1,11,1.3,18,M,,M,,*6E
05/29/2014	18:05:25.087	$GPGGA,180531,2545.6169,N,07926.5624,W,1,11,1.3,18,M,,M,,*64
05/29/2014	18:05:26.102	$GPGGA,180532,2545.6178,N,07926.5597,W,1,11,1.3,18,M,,M,,*6C
05/29/2014	18:05:27.117	$GPGGA,180533,2545.6186,N,07926.5570,W,1,11,1.3,18,M,,M,,*65
05/29/2014	18:05:28.120	$GPGGA,180534,2545.6196,N,07926.5543,W,1,11,1.3,18,M,,M,,*63
05/29/2014	18:05:29.135	$GPGGA,180535,2545.6205,N,07926.5516,W,1,11,1.3,18,M,,M,,*6B
05/29/2014	18:05:30.271	$GPGGA,180536,2545.6212,N,07926.5489,W,1,11,1.3,18,M,,M,,*69
05/29/2014	18:05:31.264	$GPGGA,180537,2545.6219,N,07926.5463,W,1,11,1.3,18,M,,M,,*67
05/29/2014	18:05:32.167	$GPGGA,180538,2545.6229,N,07926.5436,W,1,11,1.3,18,M,,M,,*6B
05/29/2014	18:05:33.172	$GPGGA,180539,2545.6236,N,07926.5409,W,1,11,1.3,18,M,,M,,*68
05/29/2014	18:05:34.206	$GPGGA,180540,2545.6244,N,07926.5382,W,1,11,1.3,18,M,,M,,*67
05/29/2014	18:05:33.618	$GPGGA,180541,2545.6252,N,07926.5355,W,1,11,1.3,18,M,,M,,*6B
05/29/2014	18:05:34.602	$GPGGA,180542,2545.6259,N,07926.5328,W,1,11,1.3,18,M,,M,,*69
05/29/2014	18:05:35.606	$GPGGA,180543,2545.6266,N,07926.5300,W,1,11,1.3,18,M,,M,,*6E
05/29/2014	18:05:36.539	$GPGGA,180544,2545.6274,N,07926.5273,W,1,11,1.3,18,M,,M,,*6F
05/29/2014	18:05:37.665	$GPGGA,180545,2545.6281,N,07926.5246,W,1,11,1.3,18,M,,M,,*62
05/29/2014	18:05:38.650	$GPGGA,180546,2545.6288,N,07926.5219,W,1,11,1.3,18,M,,M,,*62
05/29/2014	18:05:39.654	$GPGGA,180547,2545.6295,N,07926.5192,W,1,11,1.3,18,M,,M,,*6F
05/29/2014	18:05:41.713	$GPGGA,180549,2545.6309,N,07926.5139,W,1,11,1.3,18,M,,M,,*64
05/29/2014	18:05:42.687	$GPGGA,180550,2545.6317,N,07926.5111,W,1,11,1.3,18,M,,M,,*69
05/29/2014	18:05:43.732	$GPGGA,180551,2545.6324,N,07926.5085,W,1,11,1.3,18,M,,M,,*64
05/29/2014	18:05:44.726	$GPGGA,180552,2545.6330,N,07926.5058,W,1,11,1.3,19,M,,M,,*63
05/29/2014	18:05:45.751	$GPGGA,180553,2545.6337,N,07926.5031,W,1,11,1.3,19,M,,M,,*6A
05/29/2014	18:05:46.744	$GPGGA,180554,2545.6344,N,07926.5004,W,1,11,1.3,19,M,,M,,*6F
05/29/2014	18:05:47.779	$GPGGA,180555,2545.6350,N,07926.4978,W,1,11,1.3,19,M,,M,,*68
05/29/2014	18:05:48.783	$GPGGA,180556,2545.6357,N,07926.4951,W,1,11,1.3,19,M,,M,,*67
05/29/2014	18:05:49.808	$GPGGA,180557,2545.6364,N,07926.4924,W,1,11,1.3,19,M,,M,,*64
05/29/2014	18:05:50.792	$GPGGA,180558,2545.6371,N,07926.4897,W,1,11,1.3,19,M,,M,,*66
05/29/2014	18:05:51.797	$GPGGA,180559,2545.6378,N,07926.4870,W,1,11,1.3,19,M,,M,,*67
05/29/2014	18:05:52.841	$GPGGA,180600,2545.6384,N,07926.4843,W,1,11,1.3,19,M,,M,,*6B
05/29/2014	18:05:53.846	$GPGGA,180601,2545.6392,N,07926.4816,W,1,11,1.3,19,M,,M,,*6D
05/29/2014	18:05:54.861	$GPGGA,180602,2545.6400,N,07926.4789,W,1,11,1.3,19,M,,M,,*6B
05/29/2014	18:05:55.854	$GPGGA,180603,2545.6407,N,07926.4762,W,1,11,1.3,19,M,,M,,*68
05/29/2014	18:05:56.879	$GPGGA,180604,2545.6414,N,07926.4735,W,1,11,1.3,19,M,,M,,*6F
05/29/2014	18:05:57.904	$GPGGA,180605,2545.6422,N,07926.4707,W,1,11,1.3,19,M,,M,,*6A
05/29/2014	18:05:58.898	$GPGGA,180606,2545.6429,N,07926.4681,W,1,11,1.3,19,M,,M,,*6D
05/29/2014	18:05:59.902	$GPGGA,180607,2545.6436,N,07926.4654,W,1,11,1.3,19,M,,M,,*6A
05/29/2014	18:06:00.937	$GPGGA,180608,2545.6443,N,07926.4627,W,1,11,1.3,19,M,,M,,*63
05/29/2014	18:06:01.921	$GPGGA,180609,2545.6451,N,07926.4600,W,1,11,1.3,19,M,,M,,*64
05/29/2014	18:06:02.946	$GPGGA,180610,2545.6458,N,07926.4573,W,1,11,1.3,19,M,,M,,*62
05/29/2014	18:06:03.971	$GPGGA,180611,2545.6467,N,07926.4545,W,1,11,1.3,19,M,,M,,*6A
05/29/2014	18:06:05.004	$GPGGA,180612,2545.6474,N,07926.4518,W,1,11,1.3,19,M,,M,,*63
05/29/2014	18:06:05.978	$GPGGA,180613,2545.6482,N,07926.4491,W,1,11,1.3,19,M,,M,,*6B
05/29/2014	18:06:06.982	$GPGGA,180614,2545.6490,N,07926.4464,W,1,11,1.3,19,M,,M,,*65
05/29/2014	18:06:08.017	$GPGGA,180615,2545.6498,N,07926.4437,W,1,11,1.3,19,M,,M,,*6A
05/29/2014	18:06:09.042	$GPGGA,180616,2545.6505,N,07926.4410,W,1,11,1.3,19,M,,M,,*69
05/29/2014	18:06:10.036	$GPGGA,180617,2545.6515,N,07926.4382,W,1,11,1.3,19,M,,M,,*65
05/29/2014	18:06:11.051	$GPGGA,180618,2545.6525,N,07926.4356,W,1,11,1.3,19,M,,M,,*60
05/29/2014	18:06:12.066	$GPGGA,180619,2545.6533,N,07926.4329,W,1,11,1.3,19,M,,M,,*6E
05/29/2014	18:06:13.201	$GPGGA,180620,2545.6540,N,07926.4302,W,1,11,1.3,19,M,,M,,*69
05/29/2014	18:06:14.074	$GPGGA,180621,2545.6550,N,07926.4275,W,1,11,1.3,19,M,,M,,*68
05/29/2014	18:06:15.099	$GPGGA,180622,2545.6559,N,07926.4249,W,1,11,1.3,18,M,,M,,*6C
05/29/2014	18:06:16.093	$GPGGA,180623,2545.6566,N,07926.4222,W,1,11,1.3,18,M,,M,,*6C
05/29/2014	18:06:17.138	$GPGGA,180624,2545.6576,N,07926.4195,W,1,11,1.3,18,M,,M,,*65
05/29/2014	18:06:18.132	$GPGGA,180625,2545.6586,N,07926.4169,W,1,9,1.5,18,M,,M,,*57
05/29/2014	18:06:19.136	$GPGGA,180626,2545.6594,N,07926.4142,W,1,9,1.4,18,M,,M,,*5F
05/29/2014	18:06:20.172	$GPGGA,180627,2545.6604,N,07926.4114,W,1,11,1.3,18,M,,M,,*69
05/29/2014	18:06:21.175	$GPGGA,180628,2545.6613,N,07926.4087,W,1,11,1.4,18,M,,M,,*6C
05/29/2014	18:06:22.281	$GPGGA,180629,2545.6622,N,07926.4060,W,1,11,1.3,18,M,,M,,*61
05/29/2014	18:06:23.305	$GPGGA,180630,2545.6631,N,07926.4034,W,1,11,1.3,18,M,,M,,*6A
05/29/2014	18:06:24.198	$GPGGA,180631,2545.6642,N,07926.4008,W,1,10,1.6,18,M,,M,,*64
05/29/2014	18:06:25.354	$GPGGA,180632,2545.6652,N,07926.3981,W,1,10,1.4,18,M,,M,,*6B
05/29/2014	18:06:26.328	$GPGGA,180633,2545.6660,N,07926.3955,W,1,11,1.3,18,M,,M,,*64
05/29/2014	18:06:27.251	$GPGGA,180634,2545.6670,N,07926.3928,W,1,11,1.3,18,M,,M,,*68
05/29/2014	18:06:28.377	$GPGGA,180635,2545.6680,N,07926.3901,W,1,11,1.3,18,M,,M,,*6D
05/29/2014	18:06:29.371	$GPGGA,180636,2545.6689,N,07926.3874,W,1,11,1.3,18,M,,M,,*64
05/29/2014	18:06:30.406	$GPGGA,180637,2545.6698,N,07926.3847,W,1,11,1.3,18,M,,M,,*65
05/29/2014	18:06:31.390	$GPGGA,180638,2545.6707,N,07926.3820,W,1,11,1.3,18,M,,M,,*6C
05/29/2014	18:06:32.425	$GPGGA,180639,2545.6718,N,07926.3793,W,1,11,1.3,18,M,,M,,*64
05/29/2014	18:06:33.429	$GPGGA,180640,2545.6725,N,07926.3766,W,1,11,1.3,18,M,,M,,*6E
05/29/2014	18:06:33.575	$GPGGA,180641,2545.6735,N,07926.3739,W,1,11,1.3,18,M,,M,,*64
05/29/2014	18:06:34.569	$GPGGA,180642,2545.6745,N,07926.3712,W,1,11,1.3,18,M,,M,,*69
05/29/2014	18:06:35.594	$GPGGA,180643,2545.6753,N,07926.3685,W,1,11,1.3,18,M,,M,,*60
05/29/2014	18:06:36.608	$GPGGA,180644,2545.6763,N,07926.3658,W,1,11,1.4,18,M,,M,,*63
05/29/2014	18:06:37.633	$GPGGA,180645,2545.6771,N,07926.3632,W,1,11,1.3,18,M,,M,,*6A
05/29/2014	18:06:38.627	$GPGGA,180646,2545.6779,N,07926.3604,W,1,11,1.3,18,M,,M,,*64
05/29/2014	18:06:39.652	$GPGGA,180647,2545.6789,N,07926.3577,W,1,11,1.3,18,M,,M,,*6D
05/29/2014	18:06:40.655	$GPGGA,180648,2545.6797,N,07926.3550,W,1,11,1.3,18,M,,M,,*68
05/29/2014	18:06:41.670	$GPGGA,180649,2545.6805,N,07926.3523,W,1,11,1.3,18,M,,M,,*69
05/29/2014	18:06:42.674	$GPGGA,180650,2545.6815,N,07926.3496,W,1,11,1.3,18,M,,M,,*6F
05/29/2014	18:06:43.678	$GPGGA,180651,2545.6823,N,07926.3470,W,1,11,1.3,18,M,,M,,*63
05/29/2014	18:06:44.713	$GPGGA,180652,2545.6830,N,07926.3442,W,1,11,1.3,18,M,,M,,*63
05/29/2014	18:06:45.697	$GPGGA,180653,2545.6839,N,07926.3415,W,1,11,1.3,18,M,,M,,*69
05/29/2014	18:06:46.722	$GPGGA,180654,2545.6848,N,07926.3388,W,1,11,1.3,18,M,,M,,*6B
05/29/2014	18:06:47.726	$GPGGA,180655,2545.6855,N,07926.3361,W,1,11,1.3,18,M,,M,,*61
05/29/2014	18:06:48.764	$GPGGA,180656,2545.6862,N,07926.3333,W,1,11,1.3,18,M,,M,,*61
05/29/2014	18:06:49.776	$GPGGA,180657,2545.6870,N,07926.3307,W,1,11,1.3,18,M,,M,,*64
05/29/2014	18:06:50.770	$GPGGA,180658,2545.6879,N,07926.3280,W,1,11,1.3,18,M,,M,,*6C
05/29/2014	18:06:51.784	$GPGGA,180659,2545.6884,N,07926.3253,W,1,11,1.3,18,M,,M,,*61
05/29/2014	18:06:52.809	$GPGGA,180700,2545.6891,N,07926.3226,W,1,11,1.3,18,M,,M,,*6A
05/29/2014	18:06:53.844	$GPGGA,180701,2545.6898,N,07926.3198,W,1,11,1.3,18,M,,M,,*64
05/29/2014	18:06:54.838	$GPGGA,180702,2545.6906,N,07926.3171,W,1,11,1.3,18,M,,M,,*66
05/29/2014	18:06:55.832	$GPGGA,180703,2545.6912,N,07926.3143,W,1,10,1.6,18,M,,M,,*67
05/29/2014	18:06:56.866	$GPGGA,180704,2545.6919,N,07926.3116,W,1,10,1.3,18,M,,M,,*6E
05/29/2014	18:06:57.851	$GPGGA,180705,2545.6927,N,07926.3089,W,1,11,1.3,18,M,,M,,*64
05/29/2014	18:06:58.986	$GPGGA,180706,2545.6935,N,07926.3062,W,1,11,1.3,18,M,,M,,*61
05/29/2014	18:06:59.899	$GPGGA,180707,2545.6942,N,07926.3034,W,1,11,1.3,18,M,,M,,*63
05/29/2014	18:07:00.904	$GPGGA,180708,2545.6949,N,07926.3007,W,1,11,1.3,18,M,,M,,*67
05/29/2014	18:07:01.919	$GPGGA,180709,2545.6956,N,07926.2980,W,1,11,1.3,18,M,,M,,*6F
05/29/2014	18:07:02.934	$GPGGA,180710,2545.6963,N,07926.2953,W,1,11,1.3,18,M,,M,,*6F
05/29/2014	18:07:04.059	$GPGGA,180711,2545.6971,N,07926.2926,W,1,11,1.3,18,M,,M,,*6F
05/29/2014	18:07:05.073	$GPGGA,180712,2545.6978,N,07926.2899,W,1,11,1.3,18,M,,M,,*60
05/29/2014	18:07:05.976	$GPGGA,180713,2545.6985,N,07926.2871,W,1,11,1.3,18,M,,M,,*65
05/29/2014	18:07:06.970	$GPGGA,180714,2545.6992,N,07926.2844,W,1,11,1.3,18,M,,M,,*62
05/29/2014	18:07:08.076	$GPGGA,180715,2545.7000,N,07926.2816,W,1,10,1.3,18,M,,M,,*66
05/29/2014	18:07:09.111	$GPGGA,180716,2545.7009,N,07926.2789,W,1,10,1.3,18,M,,M,,*65
05/29/2014	18:07:10.147	$GPGGA,180717,2545.7016,N,07926.2762,W,1,11,1.3,18,M,,M,,*6E
05/29/2014	18:07:11.130	$GPGGA,180718,2545.7024,N,07926.2735,W,1,11,1.3,18,M,,M,,*62
05/29/2014	18:07:12.134	$GPGGA,180719,2545.7032,N,07926.2708,W,1,11,1.3,18,M,,M,,*6A
05/29/2014	18:07:13.189	$GPGGA,180720,2545.7039,N,07926.2681,W,1,11,1.3,18,M,,M,,*6B
05/29/2014	18:07:14.163	$GPGGA,180721,2545.7047,N,07926.2653,W,1,11,1.3,18,M,,M,,*6C
05/29/2014	18:07:15.166	$GPGGA,180722,2545.7056,N,07926.2626,W,1,11,1.3,19,M,,M,,*6C
05/29/2014	18:07:16.211	$GPGGA,180723,2545.7065,N,07926.2599,W,1,11,1.3,19,M,,M,,*6A
05/29/2014	18:07:17.206	$GPGGA,180724,2545.7072,N,07926.2572,W,1,11,1.3,19,M,,M,,*6E
05/29/2014	18:07:18.230	$GPGGA,180725,2545.7081,N,07926.2546,W,1,11,1.3,19,M,,M,,*64
05/29/2014	18:07:19.214	$GPGGA,180726,2545.7090,N,07926.2519,W,1,11,1.3,19,M,,M,,*6D
05/29/2014	18:07:20.249	$GPGGA,180727,2545.7097,N,07926.2492,W,1,11,1.3,19,M,,M,,*69
05/29/2014	18:07:21.253	$GPGGA,180728,2545.7105,N,07926.2465,W,1,11,1.3,19,M,,M,,*64
05/29/2014	18:07:22.268	$GPGGA,180729,2545.7115,N,07926.2439,W,1,11,1.3,19,M,,M,,*6D
05/29/2014	18:07:23.262	$GPGGA,180730,2545.7123,N,07926.2412,W,1,11,1.3,19,M,,M,,*69
05/29/2014	18:07:24.297	$GPGGA,180731,2545.7132,N,07926.2385,W,1,11,1.3,19,M,,M,,*61
05/29/2014	18:07:25.301	$GPGGA,180732,2545.7141,N,07926.2359,W,1,11,1.3,19,M,,M,,*67
05/29/2014	18:07:26.326	$GPGGA,180733,2545.7148,N,07926.2332,W,1,11,1.3,19,M,,M,,*62
05/29/2014	18:07:27.320	$GPGGA,180734,2545.7158,N,07926.2305,W,1,11,1.6,19,M,,M,,*65
05/29/2014	18:07:28.355	$GPGGA,180735,2545.7166,N,07926.2278,W,1,10,1.3,19,M,,M,,*66
05/29/2014	18:07:29.359	$GPGGA,180736,2545.7173,N,07926.2252,W,1,10,1.3,19,M,,M,,*69
05/29/2014	18:07:30.364	$GPGGA,180737,2545.7183,N,07926.2225,W,1,11,1.3,19,M,,M,,*66
05/29/2014	18:07:32.432	$GPGGA,180739,2545.7199,N,07926.2171,W,1,11,1.3,19,M,,M,,*61
05/29/2014	18:07:33.406	$GPGGA,180740,2545.7209,N,07926.2143,W,1,11,1.3,19,M,,M,,*64
05/29/2014	18:07:33.553	$GPGGA,180741,2545.7216,N,07926.2116,W,1,11,1.4,19,M,,M,,*6C
05/29/2014	18:07:34.548	$GPGGA,180742,2545.7227,N,07926.2089,W,1,11,1.3,19,M,,M,,*6D
05/29/2014	18:07:35.582	$GPGGA,180743,2545.7237,N,07926.2062,W,1,11,1.3,19,M,,M,,*68
05/29/2014	18:07:36.606	$GPGGA,180744,2545.7247,N,07926.2036,W,1,11,1.3,19,M,,M,,*69
05/29/2014	18:07:37.611	$GPGGA,180745,2545.7255,N,07926.2008,W,1,11,1.3,19,M,,M,,*66
05/29/2014	18:07:38.595	$GPGGA,180746,2545.7263,N,07926.1981,W,1,11,1.3,19,M,,M,,*6B
05/29/2014	18:07:39.640	$GPGGA,180747,2545.7273,N,07926.1954,W,1,11,1.3,19,M,,M,,*63
05/29/2014	18:07:40.644	$GPGGA,180748,2545.7281,N,07926.1927,W,1,11,1.3,19,M,,M,,*65
05/29/2014	18:07:41.648	$GPGGA,180749,2545.7289,N,07926.1900,W,1,11,1.3,19,M,,M,,*69
05/29/2014	18:07:42.643	$GPGGA,180750,2545.7299,N,07926.1874,W,1,11,1.3,19,M,,M,,*62
05/29/2014	18:07:43.677	$GPGGA,180751,2545.7309,N,07926.1847,W,1,11,1.3,19,M,,M,,*6B
05/29/2014	18:07:44.692	$GPGGA,180752,2545.7317,N,07926.1820,W,1,11,1.3,19,M,,M,,*66
05/29/2014	18:07:45.696	$GPGGA,180753,2545.7325,N,07926.1793,W,1,11,1.3,19,M,,M,,*61
05/29/2014	18:07:46.690	$GPGGA,180754,2545.7334,N,07926.1767,W,1,11,1.3,19,M,,M,,*6D
05/29/2014	18:07:47.725	$GPGGA,180755,2545.7342,N,07926.1740,W,1,11,1.3,19,M,,M,,*68
05/29/2014	18:07:48.740	$GPGGA,180756,2545.7350,N,07926.1713,W,1,11,1.3,19,M,,M,,*6E
05/29/2014	18:07:49.753	$GPGGA,180757,2545.7360,N,07926.1687,W,1,11,1.3,19,M,,M,,*60
05/29/2014	18:07:50.747	$GPGGA,180758,2545.7367,N,07926.1660,W,1,11,1.3,19,M,,M,,*61
05/29/2014	18:07:51.884	$GPGGA,180759,2545.7376,N,07926.1634,W,1,11,1.3,19,M,,M,,*61
05/29/2014	18:07:52.807	$GPGGA,180800,2545.7386,N,07926.1607,W,1,11,1.3,19,M,,M,,*6D
05/29/2014	18:07:53.872	$GPGGA,180801,2545.7393,N,07926.1579,W,1,11,1.3,19,M,,M,,*62
05/29/2014	18:07:54.907	$GPGGA,180802,2545.7403,N,07926.1553,W,1,11,1.3,19,M,,M,,*67
05/29/2014	18:07:55.841	$GPGGA,180803,2545.7411,N,07926.1526,W,1,11,1.3,19,M,,M,,*67
05/29/2014	18:07:56.946	$GPGGA,180804,2545.7419,N,07926.1499,W,1,11,1.3,19,M,,M,,*6D
05/29/2014	18:07:57.950	$GPGGA,180805,2545.7428,N,07926.1473,W,1,11,1.3,19,M,,M,,*6A
05/29/2014	18:07:58.945	$GPGGA,180806,2545.7436,N,07926.1446,W,1,11,1.3,19,M,,M,,*60
05/29/2014	18:07:59.858	$GPGGA,180807,2545.7444,N,07926.1419,W,1,11,1.3,19,M,,M,,*6E
05/29/2014	18:08:00.994	$GPGGA,180808,2545.7451,N,07926.1392,W,1,11,1.3,19,M,,M,,*61
05/29/2014	18:08:01.988	$GPGGA,180809,2545.7459,N,07926.1365,W,1,11,1.3,19,M,,M,,*60
05/29/2014	18:08:02.901	$GPGGA,180810,2545.7468,N,07926.1338,W,1,11,1.3,19,M,,M,,*62
05/29/2014	18:08:04.017	$GPGGA,180811,2545.7476,N,07926.1311,W,1,11,1.3,19,M,,M,,*67
05/29/2014	18:08:05.032	$GPGGA,180812,2545.7483,N,07926.1285,W,1,11,1.3,19,M,,M,,*62
05/29/2014	18:08:06.056	$GPGGA,180813,2545.7491,N,07926.1258,W,1,11,1.3,19,M,,M,,*60
05/29/2014	18:08:07.049	$GPGGA,180814,2545.7498,N,07926.1231,W,1,11,1.3,19,M,,M,,*61
05/29/2014	18:08:08.084	$GPGGA,180815,2545.7505,N,07926.1204,W,1,11,1.3,19,M,,M,,*63
05/29/2014	18:08:09.078	$GPGGA,180816,2545.7513,N,07926.1177,W,1,11,1.3,19,M,,M,,*60
05/29/2014	18:08:10.113	$GPGGA,180817,2545.7522,N,07926.1150,W,1,11,1.3,19,M,,M,,*66
05/29/2014	18:08:11.097	$GPGGA,180818,2545.7530,N,07926.1122,W,1,11,1.3,19,M,,M,,*6F
05/29/2014	18:08:12.112	$GPGGA,180819,2545.7534,N,07926.1095,W,1,11,1.3,19,M,,M,,*67
05/29/2014	18:08:13.136	$GPGGA,180820,2545.7544,N,07926.1068,W,1,11,1.3,19,M,,M,,*68
05/29/2014	18:08:14.151	$GPGGA,180821,2545.7553,N,07926.1041,W,1,11,1.3,18,M,,M,,*65
05/29/2014	18:08:15.138	$GPGGA,180822,2545.7559,N,07926.1015,W,1,11,1.4,18,M,,M,,*6A
05/29/2014	18:08:16.170	$GPGGA,180823,2545.7566,N,07926.0989,W,1,11,1.3,18,M,,M,,*6D
05/29/2014	18:08:17.184	$GPGGA,180824,2545.7576,N,07926.0962,W,1,11,1.3,18,M,,M,,*6E
05/29/2014	18:08:18.199	$GPGGA,180825,2545.7583,N,07926.0935,W,1,11,1.3,18,M,,M,,*67
05/29/2014	18:08:19.203	$GPGGA,180826,2545.7589,N,07926.0908,W,1,11,1.3,18,M,,M,,*60
05/29/2014	18:08:20.197	$GPGGA,180827,2545.7598,N,07926.0882,W,1,11,1.3,18,M,,M,,*62
05/29/2014	18:08:21.223	$GPGGA,180828,2545.7607,N,07926.0855,W,1,11,1.3,18,M,,M,,*62
05/29/2014	18:08:22.257	$GPGGA,180829,2545.7614,N,07926.0829,W,1,11,1.3,18,M,,M,,*6A
05/29/2014	18:08:23.241	$GPGGA,180830,2545.7621,N,07926.0802,W,1,11,1.3,18,M,,M,,*6D
05/29/2014	18:08:24.245	$GPGGA,180831,2545.7631,N,07926.0775,W,1,11,1.3,18,M,,M,,*62
05/29/2014	18:08:25.279	$GPGGA,180832,2545.7639,N,07926.0748,W,1,11,1.3,18,M,,M,,*67
05/29/2014	18:08:26.314	$GPGGA,180833,2545.7646,N,07926.0721,W,1,11,1.3,18,M,,M,,*61
05/29/2014	18:08:27.288	$GPGGA,180834,2545.7654,N,07926.0694,W,1,11,1.3,18,M,,M,,*6A
05/29/2014	18:08:28.302	$GPGGA,180835,2545.7663,N,07926.0668,W,1,11,1.3,18,M,,M,,*6C
05/29/2014	18:08:29.337	$GPGGA,180836,2545.7670,N,07926.0641,W,1,11,1.3,18,M,,M,,*66
05/29/2014	18:08:30.351	$GPGGA,180837,2545.7679,N,07926.0614,W,1,11,1.3,18,M,,M,,*6E
05/29/2014	18:08:31.337	$GPGGA,180838,2545.7686,N,07926.0586,W,1,11,1.3,18,M,,M,,*69
05/29/2014	18:08:32.360	$GPGGA,180839,2545.7693,N,07926.0560,W,1,11,1.3,18,M,,M,,*64
05/29/2014	18:08:33.395	$GPGGA,180840,2545.7703,N,07926.0533,W,1,11,1.3,18,M,,M,,*64
05/29/2014	18:08:33.520	$GPGGA,180841,2545.7710,N,07926.0506,W,1,11,1.3,18,M,,M,,*61
05/29/2014	18:08:34.515	$GPGGA,180842,2545.7718,N,07926.0479,W,1,11,1.3,18,M,,M,,*63
05/29/2014	18:08:35.549	$GPGGA,180843,2545.7726,N,07926.0452,W,1,11,1.3,18,M,,M,,*66
05/29/2014	18:08:36.675	$GPGGA,180844,2545.7736,N,07926.0425,W,1,11,1.3,18,M,,M,,*60
05/29/2014	18:08:37.588	$GPGGA,180845,2545.7743,N,07926.0398,W,1,11,1.3,18,M,,M,,*62
05/29/2014	18:08:38.664	$GPGGA,180846,2545.7751,N,07926.0371,W,1,11,1.3,18,M,,M,,*65
05/29/2014	18:08:39.719	$GPGGA,180847,2545.7761,N,07926.0344,W,1,11,1.3,18,M,,M,,*61
05/29/2014	18:08:40.733	$GPGGA,180848,2545.7769,N,07926.0316,W,1,11,1.3,18,M,,M,,*61
05/29/2014	18:08:41.726	$GPGGA,180849,2545.7777,N,07926.0289,W,1,11,1.3,18,M,,M,,*68
05/29/2014	18:08:42.619	$GPGGA,180850,2545.7786,N,07926.0261,W,1,11,1.3,18,M,,M,,*68
05/29/2014	18:08:43.735	$GPGGA,180851,2545.7794,N,07926.0234,W,1,11,1.3,18,M,,M,,*6A
05/29/2014	18:08:44.669	$GPGGA,180852,2545.7802,N,07926.0208,W,1,11,1.3,18,M,,M,,*66
05/29/2014	18:08:45.683	$GPGGA,180853,2545.7811,N,07926.0181,W,1,10,1.6,18,M,,M,,*63
05/29/2014	18:08:46.667	$GPGGA,180854,2545.7820,N,07926.0154,W,1,10,1.3,18,M,,M,,*6B
05/29/2014	18:08:47.783	$GPGGA,180855,2545.7827,N,07926.0127,W,1,11,1.3,18,M,,M,,*68
05/29/2014	18:08:48.717	$GPGGA,180856,2545.7834,N,07926.0099,W,1,11,1.3,18,M,,M,,*6D
05/29/2014	18:08:49.832	$GPGGA,180857,2545.7842,N,07926.0072,W,1,11,1.3,18,M,,M,,*68
05/29/2014	18:08:50.816	$GPGGA,180858,2545.7852,N,07926.0045,W,1,11,1.3,18,M,,M,,*62
05/29/2014	18:08:51.740	$GPGGA,180859,2545.7859,N,07926.0017,W,1,11,1.3,18,M,,M,,*6F
05/29/2014	18:08:52.866	$GPGGA,180900,2545.7867,N,07925.9990,W,1,11,1.3,18,M,,M,,*63
05/29/2014	18:08:53.880	$GPGGA,180901,2545.7876,N,07925.9963,W,1,11,1.3,18,M,,M,,*6E
05/29/2014	18:08:54.874	$GPGGA,180902,2545.7885,N,07925.9936,W,1,11,1.3,18,M,,M,,*61
05/29/2014	18:08:55.879	$GPGGA,180903,2545.7892,N,07925.9908,W,1,11,1.3,18,M,,M,,*6B
05/29/2014	18:08:56.903	$GPGGA,180904,2545.7899,N,07925.9881,W,1,11,1.3,18,M,,M,,*67
05/29/2014	18:08:57.928	$GPGGA,180905,2545.7907,N,07925.9854,W,1,11,1.3,18,M,,M,,*68
05/29/2014	18:08:58.912	$GPGGA,180906,2545.7917,N,07925.9827,W,1,11,1.3,18,M,,M,,*6E
05/29/2014	18:08:59.946	$GPGGA,180907,2545.7924,N,07925.9799,W,1,11,1.3,18,M,,M,,*65
05/29/2014	18:09:00.960	$GPGGA,180908,2545.7932,N,07925.9772,W,1,11,1.3,18,M,,M,,*68
05/29/2014	18:09:01.955	$GPGGA,180909,2545.7941,N,07925.9744,W,1,11,1.3,18,M,,M,,*68
05/29/2014	18:09:02.979	$GPGGA,180910,2545.7950,N,07925.9717,W,1,11,1.3,18,M,,M,,*66
05/29/2014	18:09:03.994	$GPGGA,180911,2545.7957,N,07925.9690,W,1,11,1.3,18,M,,M,,*6E
05/29/2014	18:09:04.998	$GPGGA,180912,2545.7966,N,07925.9663,W,1,11,1.3,18,M,,M,,*63
05/29/2014	18:09:06.023	$GPGGA,180913,2545.7975,N,07925.9636,W,1,11,1.3,18,M,,M,,*60
05/29/2014	18:09:07.017	$GPGGA,180914,2545.7984,N,07925.9609,W,1,11,1.3,18,M,,M,,*65
05/29/2014	18:09:08.062	$GPGGA,180915,2545.7993,N,07925.9582,W,1,11,1.3,18,M,,M,,*62
05/29/2014	18:09:09.047	$GPGGA,180916,2545.8000,N,07925.9555,W,1,11,1.3,18,M,,M,,*67
05/29/2014	18:09:10.071	$GPGGA,180917,2545.8008,N,07925.9527,W,1,11,1.3,18,M,,M,,*6B
05/29/2014	18:09:11.065	$GPGGA,180918,2545.8017,N,07925.9501,W,1,11,1.3,18,M,,M,,*6E
05/29/2014	18:09:12.079	$GPGGA,180919,2545.8026,N,07925.9474,W,1,11,1.3,18,M,,M,,*6E
05/29/2014	18:09:13.114	$GPGGA,180920,2545.8033,N,07925.9448,W,1,11,1.3,18,M,,M,,*6F
05/29/2014	18:09:14.149	$GPGGA,180921,2545.8040,N,07925.9421,W,1,11,1.3,18,M,,M,,*65
05/29/2014	18:09:15.113	$GPGGA,180922,2545.8051,N,07925.9394,W,1,11,1.3,18,M,,M,,*6F
05/29/2014	18:09:16.168	$GPGGA,180923,2545.8058,N,07925.9367,W,1,11,1.3,18,M,,M,,*6B
05/29/2014	18:09:17.161	$GPGGA,180924,2545.8066,N,07925.9339,W,1,11,1.3,18,M,,M,,*6A
05/29/2014	18:09:18.186	$GPGGA,180925,2545.8073,N,07925.9312,W,1,11,1.3,18,M,,M,,*66
05/29/2014	18:09:19.171	$GPGGA,180926,2545.8083,N,07925.9285,W,1,11,1.3,18,M,,M,,*65
05/29/2014	18:09:20.204	$GPGGA,180927,2545.8091,N,07925.9258,W,1,11,1.3,18,M,,M,,*67
05/29/2014	18:09:21.209	$GPGGA,180928,2545.8098,N,07925.9230,W,1,11,1.3,18,M,,M,,*6F
05/29/2014	18:09:22.214	$GPGGA,180929,2545.8105,N,07925.9203,W,1,11,1.3,18,M,,M,,*6B
05/29/2014	18:09:23.229	$GPGGA,180930,2545.8116,N,07925.9175,W,1,11,1.3,18,M,,M,,*63
05/29/2014	18:09:24.242	$GPGGA,180931,2545.8123,N,07925.9148,W,1,11,1.3,18,M,,M,,*6A
05/29/2014	18:09:25.257	$GPGGA,180932,2545.8130,N,07925.9121,W,1,11,1.3,18,M,,M,,*64
05/29/2014	18:09:26.271	$GPGGA,180933,2545.8138,N,07925.9094,W,1,11,1.3,18,M,,M,,*62
05/29/2014	18:09:27.265	$GPGGA,180934,2545.8148,N,07925.9067,W,1,11,1.3,18,M,,M,,*6E
05/29/2014	18:09:28.271	$GPGGA,180935,2545.8155,N,07925.9039,W,1,11,1.3,18,M,,M,,*68
05/29/2014	18:09:29.315	$GPGGA,180936,2545.8162,N,07925.9012,W,1,11,1.3,18,M,,M,,*66
05/29/2014	18:09:30.410	$GPGGA,180937,2545.8170,N,07925.8985,W,1,11,1.3,18,M,,M,,*62
05/29/2014	18:09:31.323	$GPGGA,180938,2545.8178,N,07925.8957,W,1,11,1.3,18,M,,M,,*6A
05/29/2014	18:09:32.349	$GPGGA,180939,2545.8185,N,07925.8930,W,1,11,1.3,18,M,,M,,*68
05/29/2014	18:09:33.362	$GPGGA,180940,2545.8192,N,07925.8902,W,1,11,1.3,18,M,,M,,*61
05/29/2014	18:09:33.590	$GPGGA,180941,2545.8201,N,07925.8875,W,1,11,1.3,18,M,,M,,*68
05/29/2014	18:09:34.604	$GPGGA,180942,2545.8209,N,07925.8847,W,1,11,1.3,18,M,,M,,*62
05/29/2014	18:09:35.517	$GPGGA,180943,2545.8217,N,07925.8821,W,1,11,1.3,18,M,,M,,*6C
05/29/2014	18:09:36.541	$GPGGA,180944,2545.8224,N,07925.8793,W,1,11,1.3,18,M,,M,,*6D
05/29/2014	18:09:37.627	$GPGGA,180945,2545.8232,N,07925.8766,W,1,11,1.3,18,M,,M,,*61
05/29/2014	18:09:38.560	$GPGGA,180946,2545.8239,N,07925.8739,W,1,11,1.3,18,M,,M,,*63
05/29/2014	18:09:39.666	$GPGGA,180947,2545.8246,N,07925.8711,W,1,10,1.4,18,M,,M,,*66
05/29/2014	18:09:40.680	$GPGGA,180948,2545.8255,N,07925.8684,W,1,10,1.3,18,M,,M,,*61
05/29/2014	18:09:41.705	$GPGGA,180949,2545.8264,N,07925.8657,W,1,11,1.3,18,M,,M,,*6D
05/29/2014	18:09:42.699	$GPGGA,180950,2545.8271,N,07925.8630,W,1,11,1.3,18,M,,M,,*60
05/29/2014	18:09:43.714	$GPGGA,180951,2545.8278,N,07925.8603,W,1,11,1.3,18,M,,M,,*68
05/29/2014	18:09:44.738	$GPGGA,180952,2545.8286,N,07925.8576,W,1,11,1.3,18,M,,M,,*6B
05/29/2014	18:09:45.753	$GPGGA,180953,2545.8296,N,07925.8549,W,1,11,1.3,18,M,,M,,*67
05/29/2014	18:09:46.747	$GPGGA,180954,2545.8304,N,07925.8522,W,1,11,1.3,18,M,,M,,*67
05/29/2014	18:09:47.754	$GPGGA,180955,2545.8311,N,07925.8494,W,1,10,1.4,18,M,,M,,*68
05/29/2014	18:09:48.786	$GPGGA,180956,2545.8321,N,07925.8467,W,1,10,1.3,18,M,,M,,*63
05/29/2014	18:09:49.791	$GPGGA,180957,2545.8329,N,07925.8440,W,1,11,1.3,18,M,,M,,*6E
05/29/2014	18:09:50.805	$GPGGA,180958,2545.8336,N,07925.8413,W,1,11,1.3,18,M,,M,,*69
05/29/2014	18:09:51.809	$GPGGA,180959,2545.8344,N,07925.8386,W,1,11,1.3,18,M,,M,,*66
05/29/2014	18:09:52.843	$GPGGA,181000,2545.8353,N,07925.8360,W,1,11,1.3,18,M,,M,,*6C
05/29/2014	18:09:53.848	$GPGGA,181001,2545.8362,N,07925.8333,W,1,11,1.3,18,M,,M,,*69
05/29/2014	18:09:54.842	$GPGGA,181002,2545.8369,N,07925.8306,W,1,11,1.3,18,M,,M,,*67
05/29/2014	18:09:55.897	$GPGGA,181003,2545.8376,N,07925.8279,W,1,11,1.3,18,M,,M,,*61
05/29/2014	18:09:56.871	$GPGGA,181004,2545.8386,N,07925.8252,W,1,11,1.3,18,M,,M,,*60
05/29/2014	18:09:57.875	$GPGGA,181005,2545.8394,N,07925.8225,W,1,11,1.3,18,M,,M,,*62
05/29/2014	18:09:58.901	$GPGGA,181006,2545.8401,N,07925.8197,W,1,11,1.3,18,M,,M,,*60
05/29/2014	18:09:59.904	$GPGGA,181007,2545.8409,N,07925.8171,W,1,11,1.3,18,M,,M,,*61
05/29/2014	18:10:00.929	$GPGGA,181008,2545.8418,N,07925.8144,W,1,11,1.3,18,M,,M,,*68
05/29/2014	18:10:01.923	$GPGGA,181009,2545.8426,N,07925.8116,W,1,11,1.3,18,M,,M,,*63
05/29/2014	18:10:02.948	$GPGGA,181010,2545.8434,N,07925.8088,W,1,11,1.3,18,M,,M,,*6E
05/29/2014	18:10:03.953	$GPGGA,181011,2545.8443,N,07925.8061,W,1,11,1.3,18,M,,M,,*68
05/29/2014	18:10:04.988	$GPGGA,181012,2545.8451,N,07925.8033,W,1,11,1.3,18,M,,M,,*6F
05/29/2014	18:10:05.981	$GPGGA,181013,2545.8459,N,07925.8006,W,1,11,1.3,18,M,,M,,*60
05/29/2014	18:10:07.006	$GPGGA,181014,2545.8467,N,07925.7979,W,1,11,1.3,17,M,,M,,*6B
05/29/2014	18:10:08.030	$GPGGA,181015,2545.8476,N,07925.7952,W,1,11,1.3,17,M,,M,,*63
05/29/2014	18:10:09.025	$GPGGA,181016,2545.8484,N,07925.7925,W,1,11,1.3,17,M,,M,,*6D
05/29/2014	18:10:10.028	$GPGGA,181017,2545.8492,N,07925.7897,W,1,11,1.3,17,M,,M,,*63
05/29/2014	18:10:11.053	$GPGGA,181018,2545.8501,N,07925.7870,W,1,11,1.3,17,M,,M,,*6E
05/29/2014	18:10:12.098	$GPGGA,181019,2545.8510,N,07925.7842,W,1,11,1.3,17,M,,M,,*6E
05/29/2014	18:10:13.082	$GPGGA,181020,2545.8517,N,07925.7815,W,1,11,1.3,17,M,,M,,*61
05/29/2014	18:10:14.079	$GPGGA,181021,2545.8526,N,07925.7788,W,1,11,1.3,17,M,,M,,*69
05/29/2014	18:10:15.066	$GPGGA,181022,2545.8535,N,07925.7760,W,1,11,1.3,17,M,,M,,*6E
05/29/2014	18:10:16.093	$GPGGA,181023,2545.8542,N,07925.7733,W,1,11,1.3,17,M,,M,,*69
05/29/2014	18:10:17.110	$GPGGA,181024,2545.8550,N,07925.7705,W,1,11,1.3,17,M,,M,,*68
05/29/2014	18:10:18.277	$GPGGA,181025,2545.8560,N,07925.7678,W,1,11,1.3,17,M,,M,,*61
05/29/2014	18:10:19.103	$GPGGA,181026,2545.8568,N,07925.7650,W,1,11,1.3,17,M,,M,,*60
05/29/2014	18:10:20.120	$GPGGA,181027,2545.8575,N,07925.7622,W,1,10,1.6,17,M,,M,,*6C
05/29/2014	18:10:21.127	$GPGGA,181028,2545.8582,N,07925.7594,W,1,10,1.3,17,M,,M,,*60
05/29/2014	18:10:22.123	$GPGGA,181029,2545.8592,N,07925.7566,W,1,11,1.3,17,M,,M,,*6C
05/29/2014	18:10:23.231	$GPGGA,181030,2545.8600,N,07925.7539,W,1,11,1.3,17,M,,M,,*66
05/29/2014	18:10:24.137	$GPGGA,181031,2545.8607,N,07925.7511,W,1,11,1.3,17,M,,M,,*6A
05/29/2014	18:10:25.234	$GPGGA,181032,2545.8615,N,07925.7483,W,1,11,1.3,17,M,,M,,*60
05/29/2014	18:10:26.162	$GPGGA,181033,2545.8622,N,07925.7456,W,1,11,1.3,17,M,,M,,*6D
05/29/2014	18:10:27.277	$GPGGA,181034,2545.8632,N,07925.7428,W,1,11,1.3,17,M,,M,,*62
05/29/2014	18:10:28.345	$GPGGA,181035,2545.8639,N,07925.7400,W,1,11,1.3,17,M,,M,,*62
05/29/2014	18:10:29.301	$GPGGA,181036,2545.8646,N,07925.7374,W,1,11,1.3,17,M,,M,,*6D
05/29/2014	18:10:30.358	$GPGGA,181037,2545.8654,N,07925.7347,W,1,11,1.3,17,M,,M,,*6F
05/29/2014	18:10:31.274	$GPGGA,181038,2545.8661,N,07925.7319,W,1,11,1.3,17,M,,M,,*6D
05/29/2014	18:10:32.351	$GPGGA,181039,2545.8668,N,07925.7292,W,1,11,1.3,17,M,,M,,*67
05/29/2014	18:10:33.318	$GPGGA,181040,2545.8676,N,07925.7264,W,1,11,1.3,17,M,,M,,*6F
05/29/2014	18:10:33.663	$GPGGA,181041,2545.8683,N,07925.7236,W,1,11,1.3,17,M,,M,,*63
05/29/2014	18:10:34.559	$GPGGA,181042,2545.8690,N,07925.7209,W,1,11,1.3,17,M,,M,,*6E
05/29/2014	18:10:35.687	$GPGGA,181043,2545.8698,N,07925.7182,W,1,11,1.3,17,M,,M,,*67
05/29/2014	18:10:36.603	$GPGGA,181044,2545.8707,N,07925.7155,W,1,11,1.3,17,M,,M,,*6D
05/29/2014	18:10:37.680	$GPGGA,181045,2545.8714,N,07925.7127,W,1,11,1.3,17,M,,M,,*6B
05/29/2014	18:10:38.576	$GPGGA,181046,2545.8721,N,07925.7101,W,1,11,1.3,17,M,,M,,*6A
05/29/2014	18:10:39.684	$GPGGA,181047,2545.8730,N,07925.7073,W,1,11,1.3,17,M,,M,,*6F
05/29/2014	18:10:40.630	$GPGGA,181048,2545.8737,N,07925.7046,W,1,11,1.3,17,M,,M,,*61
05/29/2014	18:10:41.588	$GPGGA,181049,2545.8744,N,07925.7018,W,1,11,1.3,17,M,,M,,*6F
05/29/2014	18:10:42.624	$GPGGA,181050,2545.8752,N,07925.6990,W,1,11,1.3,17,M,,M,,*68
05/29/2014	18:10:43.690	$GPGGA,181051,2545.8761,N,07925.6962,W,1,11,1.4,17,M,,M,,*63
05/29/2014	18:10:44.646	$GPGGA,181052,2545.8768,N,07925.6936,W,1,11,1.4,17,M,,M,,*68
05/29/2014	18:10:45.643	$GPGGA,181053,2545.8777,N,07925.6908,W,1,11,1.3,17,M,,M,,*6D
05/29/2014	18:10:46.640	$GPGGA,181054,2545.8784,N,07925.6881,W,1,11,1.4,17,M,,M,,*61
05/29/2014	18:10:47.727	$GPGGA,181055,2545.8791,N,07925.6854,W,1,11,1.3,17,M,,M,,*6B
05/29/2014	18:10:48.663	$GPGGA,181056,2545.8798,N,07925.6827,W,1,11,1.3,17,M,,M,,*65
05/29/2014	18:10:49.630	$GPGGA,181057,2545.8806,N,07925.6801,W,1,11,1.3,17,M,,M,,*68
05/29/2014	18:10:50.628	$GPGGA,181058,2545.8813,N,07925.6774,W,1,11,1.3,17,M,,M,,*6E
05/29/2014	18:10:51.734	$GPGGA,181059,2545.8819,N,07925.6747,W,1,11,1.3,17,M,,M,,*65
05/29/2014	18:10:52.691	$GPGGA,181100,2545.8827,N,07925.6720,W,1,11,1.3,17,M,,M,,*64
05/29/2014	18:10:53.749	$GPGGA,181101,2545.8835,N,07925.6692,W,1,11,1.3,17,M,,M,,*6E
05/29/2014	18:10:54.684	$GPGGA,181102,2545.8842,N,07925.6666,W,1,11,1.3,17,M,,M,,*66
05/29/2014	18:10:55.761	$GPGGA,181103,2545.8849,N,07925.6639,W,1,11,1.3,17,M,,M,,*66
05/29/2014	18:10:56.708	$GPGGA,181104,2545.8857,N,07925.6612,W,1,11,1.3,17,M,,M,,*67
05/29/2014	18:10:57.735	$GPGGA,181105,2545.8864,N,07925.6586,W,1,11,1.3,17,M,,M,,*68
05/29/2014	18:10:58.793	$GPGGA,181106,2545.8873,N,07925.6559,W,1,11,1.3,17,M,,M,,*6F
05/29/2014	18:10:59.799	$GPGGA,181107,2545.8881,N,07925.6532,W,1,11,1.3,17,M,,M,,*6E
05/29/2014	18:11:00.685	$GPGGA,181108,2545.8886,N,07925.6503,W,1,11,1.3,17,M,,M,,*64
05/29/2014	18:11:01.781	$GPGGA,181109,2545.8893,N,07925.6475,W,1,10,1.3,17,M,,M,,*60
05/29/2014	18:11:02.717	$GPGGA,181110,2545.8902,N,07925.6448,W,1,10,1.3,17,M,,M,,*6F
05/29/2014	18:11:03.694	$GPGGA,181111,2545.8909,N,07925.6420,W,1,11,1.3,17,M,,M,,*6A
05/29/2014	18:11:04.741	$GPGGA,181112,2545.8915,N,07925.6393,W,1,11,1.3,17,M,,M,,*6B
05/29/2014	18:11:05.798	$GPGGA,181113,2545.8925,N,07925.6366,W,1,11,1.3,17,M,,M,,*63
05/29/2014	18:11:06.734	$GPGGA,181114,2545.8932,N,07925.6339,W,1,11,1.3,17,M,,M,,*68
05/29/2014	18:11:07.832	$GPGGA,181115,2545.8942,N,07925.6312,W,1,11,1.3,17,M,,M,,*67
05/29/2014	18:11:08.728	$GPGGA,181116,2545.8951,N,07925.6284,W,1,11,1.3,17,M,,M,,*68
05/29/2014	18:11:09.815	$GPGGA,181117,2545.8958,N,07925.6256,W,1,11,1.3,17,M,,M,,*6F
05/29/2014	18:11:10.763	$GPGGA,181118,2545.8965,N,07925.6230,W,1,11,1.6,17,M,,M,,*6B
05/29/2014	18:11:11.829	$GPGGA,181119,2545.8974,N,07925.6202,W,1,10,1.3,17,M,,M,,*6F
05/29/2014	18:11:12.846	$GPGGA,181120,2545.8982,N,07925.6175,W,1,10,1.3,17,M,,M,,*6F
05/29/2014	18:11:13.863	$GPGGA,181121,2545.8990,N,07925.6147,W,1,11,1.3,17,M,,M,,*6D
05/29/2014	18:11:14.849	$GPGGA,181122,2545.8996,N,07925.6119,W,1,11,1.4,17,M,,M,,*64
05/29/2014	18:11:15.876	$GPGGA,181123,2545.9005,N,07925.6092,W,1,10,1.3,17,M,,M,,*63
05/29/2014	18:11:16.883	$GPGGA,181124,2545.9014,N,07925.6065,W,1,10,1.3,17,M,,M,,*6C
05/29/2014	18:11:17.870	$GPGGA,181125,2545.9022,N,07925.6038,W,1,11,1.3,17,M,,M,,*61
05/29/2014	18:11:18.865	$GPGGA,181126,2545.9030,N,07925.6010,W,1,11,1.3,17,M,,M,,*6B
05/29/2014	18:11:19.912	$GPGGA,181127,2545.9040,N,07925.5983,W,1,11,1.3,17,M,,M,,*6D
05/29/2014	18:11:20.890	$GPGGA,181128,2545.9047,N,07925.5955,W,1,11,1.3,17,M,,M,,*6E
05/29/2014	18:11:21.916	$GPGGA,181129,2545.9055,N,07925.5927,W,1,11,1.3,17,M,,M,,*69
05/29/2014	18:11:22.893	$GPGGA,181130,2545.9063,N,07925.5900,W,1,11,1.3,17,M,,M,,*61
05/29/2014	18:11:23.899	$GPGGA,181131,2545.9070,N,07925.5873,W,1,11,1.6,17,M,,M,,*62
05/29/2014	18:11:24.906	$GPGGA,181132,2545.9079,N,07925.5845,W,1,11,1.3,17,M,,M,,*68
05/29/2014	18:11:25.953	$GPGGA,181133,2545.9090,N,07925.5818,W,1,11,1.3,17,M,,M,,*66
05/29/2014	18:11:26.910	$GPGGA,181134,2545.9097,N,07925.5790,W,1,11,1.3,17,M,,M,,*69
05/29/2014	18:11:27.948	$GPGGA,181135,2545.9105,N,07925.5762,W,1,11,1.3,17,M,,M,,*6F
05/29/2014	18:11:28.923	$GPGGA,181136,2545.9113,N,07925.5735,W,1,11,1.3,17,M,,M,,*69
05/29/2014	18:11:29.950	$GPGGA,181137,2545.9122,N,07925.5707,W,1,11,1.3,17,M,,M,,*6B
05/29/2014	18:11:30.917	$GPGGA,181138,2545.9128,N,07925.5680,W,1,11,1.3,17,M,,M,,*60
05/29/2014	18:11:31.954	$GPGGA,181139,2545.9128,N,07925.5680,W,1,11,1.3,17,M,,M,,*61
05/29/2014	18:11:32.940	$GPGGA,181140,2545.9145,N,07925.5625,W,1,11,1.3,17,M,,M,,*6B
05/29/2014	18:11:33.560	$GPGGA,181141,2545.9153,N,07925.5597,W,1,11,1.3,17,M,,M,,*67
05/29/2014	18:11:34.527	$GPGGA,181142,2545.9160,N,07925.5570,W,1,11,1.3,17,M,,M,,*6D
05/29/2014	18:11:35.574	$GPGGA,181143,2545.9169,N,07925.5542,W,1,11,1.3,17,M,,M,,*64
05/29/2014	18:11:36.560	$GPGGA,181144,2545.9175,N,07925.5515,W,1,11,1.3,17,M,,M,,*6C
05/29/2014	18:11:37.597	$GPGGA,181145,2545.9184,N,07925.5488,W,1,11,1.3,17,M,,M,,*66
05/29/2014	18:11:38.553	$GPGGA,181146,2545.9192,N,07925.5461,W,1,11,1.3,17,M,,M,,*65
05/29/2014	18:11:39.600	$GPGGA,181147,2545.9199,N,07925.5434,W,1,11,1.3,17,M,,M,,*6F
05/29/2014	18:11:40.587	$GPGGA,181148,2545.9207,N,07925.5407,W,1,11,1.3,17,M,,M,,*64
05/29/2014	18:11:41.634	$GPGGA,181149,2545.9207,N,07925.5407,W,1,11,1.3,17,M,,M,,*65
