Software Version Number: 1	Data File Format Number: 1	Build Version Number: 1	Error Count Since VI Started: 0	Manufacturer: Raytheon	 Model Number: RayMarine 120	 S/N: 	 Cal Date: 	 Wind Direction Offset: 0.00	 Slope (M)1: 0.00	 Offset (B)1: 0.00	 Slope (M)2: 0.00	 Offset (B)2: 0.00	 Slope (M)3: 0.00	 Offset (B)3: 0.00	 Slope (M)4: 0.00	 Offset (B)4: 0.00	 Slope (M)5: 0.00	 Offset (B)5: 0.00	 Slope (M)6: 0.00	 Offset (B)6: 0.00
Computer Date	Computer Time	GGA String
06/08/2014	05:00:00.830	$GPGGA,050001,2437.2807,N,08037.5683,W,1,9,1.8,14,M,,M,,*5A
06/08/2014	05:00:01.815	$GPGGA,050002,2437.2824,N,08037.5680,W,1,9,1.8,14,M,,M,,*5B
06/08/2014	05:00:02.809	$GPGGA,050003,2437.2842,N,08037.5678,W,1,9,1.8,14,M,,M,,*5D
06/08/2014	05:00:03.823	$GPGGA,050004,2437.2858,N,08037.5674,W,1,9,1.9,14,M,,M,,*5C
06/08/2014	05:00:04.808	$GPGGA,050005,2437.2876,N,08037.5672,W,1,9,1.8,14,M,,M,,*56
06/08/2014	05:00:05.823	$GPGGA,050006,2437.2894,N,08037.5667,W,1,9,1.8,14,M,,M,,*5D
06/08/2014	05:00:06.838	$GPGGA,050007,2437.2911,N,08037.5664,W,1,9,1.8,14,M,,M,,*53
06/08/2014	05:00:07.841	$GPGGA,050008,2437.2928,N,08037.5661,W,1,9,1.8,14,M,,M,,*53
06/08/2014	05:00:08.845	$GPGGA,050009,2437.2945,N,08037.5658,W,1,9,1.8,14,M,,M,,*53
06/08/2014	05:00:09.830	$GPGGA,050010,2437.2966,N,08037.5657,W,1,9,1.9,14,M,,M,,*54
06/08/2014	05:00:10.824	$GPGGA,050011,2437.2984,N,08037.5654,W,1,9,1.8,14,M,,M,,*5B
06/08/2014	05:00:11.849	$GPGGA,050012,2437.3002,N,08037.5652,W,1,9,1.8,14,M,,M,,*58
06/08/2014	05:00:12.854	$GPGGA,050013,2437.3017,N,08037.5648,W,1,9,1.8,14,M,,M,,*56
06/08/2014	05:00:13.838	$GPGGA,050014,2437.3035,N,08037.5644,W,1,9,1.8,14,M,,M,,*5D
06/08/2014	05:00:14.873	$GPGGA,050015,2437.3052,N,08037.5640,W,1,9,1.8,14,M,,M,,*59
06/08/2014	05:00:15.857	$GPGGA,050016,2437.3070,N,08037.5637,W,1,9,1.8,14,M,,M,,*5A
06/08/2014	05:00:16.852	$GPGGA,050017,2437.3087,N,08037.5633,W,1,9,1.8,14,M,,M,,*57
06/08/2014	05:00:17.836	$GPGGA,050018,2437.3105,N,08037.5631,W,1,9,1.8,14,M,,M,,*51
06/08/2014	05:00:18.871	$GPGGA,050019,2437.3122,N,08037.5628,W,1,8,1.9,14,M,,M,,*5D
06/08/2014	05:00:19.866	$GPGGA,050020,2437.3140,N,08037.5625,W,1,8,1.8,14,M,,M,,*5F
06/08/2014	05:00:20.880	$GPGGA,050021,2437.3158,N,08037.5622,W,1,9,1.8,14,M,,M,,*51
06/08/2014	05:00:21.855	$GPGGA,050022,2437.3176,N,08037.5619,W,1,9,1.8,14,M,,M,,*56
06/08/2014	05:00:22.849	$GPGGA,050023,2437.3193,N,08037.5616,W,1,9,1.8,14,M,,M,,*53
06/08/2014	05:00:23.884	$GPGGA,050024,2437.3211,N,08037.5613,W,1,9,1.8,14,M,,M,,*58
06/08/2014	05:00:24.889	$GPGGA,050025,2437.3229,N,08037.5610,W,1,8,1.9,14,M,,M,,*51
06/08/2014	05:00:25.872	$GPGGA,050026,2437.3244,N,08037.5607,W,1,8,1.8,14,M,,M,,*5E
06/08/2014	05:00:26.857	$GPGGA,050027,2437.3262,N,08037.5603,W,1,9,1.8,14,M,,M,,*5E
06/08/2014	05:00:27.891	$GPGGA,050028,2437.3277,N,08037.5599,W,1,9,1.8,14,M,,M,,*55
06/08/2014	05:00:28.866	$GPGGA,050029,2437.3295,N,08037.5595,W,1,9,1.8,14,M,,M,,*54
06/08/2014	05:00:29.881	$GPGGA,050030,2437.3312,N,08037.5592,W,1,9,1.8,14,M,,M,,*55
06/08/2014	05:00:30.895	$GPGGA,050031,2437.3327,N,08037.5589,W,1,9,1.8,14,M,,M,,*58
06/08/2014	05:00:31.890	$GPGGA,050032,2437.3345,N,08037.5585,W,1,9,1.8,14,M,,M,,*53
06/08/2014	05:00:32.884	$GPGGA,050033,2437.3362,N,08037.5582,W,1,9,1.8,14,M,,M,,*50
06/08/2014	05:00:33.882	$GPGGA,050034,2437.3378,N,08037.5579,W,1,9,1.8,14,M,,M,,*58
06/08/2014	05:00:34.915	$GPGGA,050035,2437.3396,N,08037.5576,W,1,9,1.8,14,M,,M,,*56
06/08/2014	05:00:36.086	$GPGGA,050036,2437.3411,N,08037.5572,W,1,9,1.9,14,M,,M,,*58
06/08/2014	05:00:36.996	$GPGGA,050037,2437.3429,N,08037.5570,W,1,9,1.8,14,M,,M,,*51
06/08/2014	05:00:38.157	$GPGGA,050038,2437.3447,N,08037.5567,W,1,9,1.9,14,M,,M,,*51
06/08/2014	05:00:38.764	$GPGGA,050039,2437.3465,N,08037.5565,W,1,8,1.9,14,M,,M,,*53
06/08/2014	05:00:39.726	$GPGGA,050040,2437.3483,N,08037.5562,W,1,8,1.8,14,M,,M,,*53
06/08/2014	05:00:40.851	$GPGGA,050041,2437.3499,N,08037.5558,W,1,8,1.9,14,M,,M,,*51
06/08/2014	05:00:41.796	$GPGGA,050042,2437.3515,N,08037.5555,W,1,8,1.8,14,M,,M,,*5B
06/08/2014	05:00:42.966	$GPGGA,050043,2437.3532,N,08037.5552,W,1,9,1.8,14,M,,M,,*59
06/08/2014	05:00:43.980	$GPGGA,050044,2437.3548,N,08037.5548,W,1,9,1.8,14,M,,M,,*58
06/08/2014	05:00:45.038	$GPGGA,050045,2437.3566,N,08037.5546,W,1,9,1.8,14,M,,M,,*5B
06/08/2014	05:00:45.977	$GPGGA,050046,2437.3584,N,08037.5544,W,1,9,1.9,14,M,,M,,*57
06/08/2014	05:00:47.138	$GPGGA,050047,2437.3602,N,08037.5542,W,1,8,1.9,14,M,,M,,*5C
06/08/2014	05:00:48.165	$GPGGA,050048,2437.3619,N,08037.5538,W,1,8,1.9,14,M,,M,,*54
06/08/2014	05:00:49.198	$GPGGA,050049,2437.3637,N,08037.5536,W,1,9,1.8,14,M,,M,,*57
06/08/2014	05:00:50.233	$GPGGA,050050,2437.3655,N,08037.5533,W,1,9,1.8,14,M,,M,,*5E
06/08/2014	05:00:51.310	$GPGGA,050051,2437.3671,N,08037.5531,W,1,8,1.9,14,M,,M,,*5B
06/08/2014	05:00:52.335	$GPGGA,050052,2437.3689,N,08037.5528,W,1,8,1.9,14,M,,M,,*57
06/08/2014	05:00:53.380	$GPGGA,050053,2437.3707,N,08037.5525,W,1,8,1.9,14,M,,M,,*5C
06/08/2014	05:00:54.405	$GPGGA,050054,2437.3723,N,08037.5522,W,1,8,1.8,14,M,,M,,*5B
06/08/2014	05:00:55.471	$GPGGA,050055,2437.3739,N,08037.5519,W,1,9,1.8,14,M,,M,,*58
06/08/2014	05:00:56.518	$GPGGA,050056,2437.3757,N,08037.5516,W,1,9,1.8,14,M,,M,,*5C
06/08/2014	05:00:57.564	$GPGGA,050057,2437.3774,N,08037.5511,W,1,8,1.9,14,M,,M,,*5B
06/08/2014	05:00:58.587	$GPGGA,050058,2437.3790,N,08037.5510,W,1,8,1.8,14,M,,M,,*5E
06/08/2014	05:00:59.622	$GPGGA,050059,2437.3807,N,08037.5505,W,1,8,1.9,14,M,,M,,*5B
06/08/2014	05:01:00.690	$GPGGA,050100,2437.3822,N,08037.5500,W,1,8,1.8,14,M,,M,,*55
06/08/2014	05:01:01.713	$GPGGA,050101,2437.3837,N,08037.5496,W,1,9,1.8,14,M,,M,,*5F
06/08/2014	05:01:02.758	$GPGGA,050102,2437.3855,N,08037.5493,W,1,9,1.8,14,M,,M,,*5D
06/08/2014	05:01:03.814	$GPGGA,050103,2437.3871,N,08037.5489,W,1,9,1.8,14,M,,M,,*51
06/08/2014	05:01:04.849	$GPGGA,050104,2437.3887,N,08037.5484,W,1,9,1.8,14,M,,M,,*52
06/08/2014	05:01:05.874	$GPGGA,050105,2437.3904,N,08037.5481,W,1,9,1.8,14,M,,M,,*5C
06/08/2014	05:01:06.930	$GPGGA,050106,2437.3920,N,08037.5479,W,1,9,1.8,14,M,,M,,*5E
06/08/2014	05:01:08.007	$GPGGA,050107,2437.3938,N,08037.5474,W,1,9,1.8,14,M,,M,,*5B
06/08/2014	05:01:09.032	$GPGGA,050108,2437.3956,N,08037.5472,W,1,9,1.8,14,M,,M,,*5A
06/08/2014	05:01:10.098	$GPGGA,050109,2437.3973,N,08037.5469,W,1,9,1.8,14,M,,M,,*56
06/08/2014	05:01:11.113	$GPGGA,050110,2437.3989,N,08037.5466,W,1,9,1.8,14,M,,M,,*54
06/08/2014	05:01:12.148	$GPGGA,050111,2437.4009,N,08037.5464,W,1,9,1.8,15,M,,M,,*50
06/08/2014	05:01:13.204	$GPGGA,050112,2437.4027,N,08037.5462,W,1,9,1.9,15,M,,M,,*58
06/08/2014	05:01:14.228	$GPGGA,050113,2437.4045,N,08037.5460,W,1,8,1.9,15,M,,M,,*5E
06/08/2014	05:01:15.285	$GPGGA,050114,2437.4063,N,08037.5456,W,1,8,1.8,15,M,,M,,*59
06/08/2014	05:01:16.341	$GPGGA,050115,2437.4079,N,08037.5453,W,1,9,1.8,15,M,,M,,*57
06/08/2014	05:01:17.376	$GPGGA,050116,2437.4097,N,08037.5450,W,1,9,1.8,15,M,,M,,*57
06/08/2014	05:01:18.443	$GPGGA,050117,2437.4115,N,08037.5448,W,1,9,1.8,15,M,,M,,*54
06/08/2014	05:01:19.445	$GPGGA,050118,2437.4136,N,08037.5446,W,1,9,1.9,15,M,,M,,*55
06/08/2014	05:01:20.628	$GPGGA,050119,2437.4154,N,08037.5445,W,1,9,1.8,15,M,,M,,*52
06/08/2014	05:01:21.672	$GPGGA,050120,2437.4173,N,08037.5442,W,1,9,1.8,15,M,,M,,*5A
06/08/2014	05:01:22.707	$GPGGA,050121,2437.4190,N,08037.5439,W,1,9,1.9,15,M,,M,,*5B
06/08/2014	05:01:23.617	$GPGGA,050122,2437.4208,N,08037.5437,W,1,9,1.9,15,M,,M,,*54
06/08/2014	05:01:24.715	$GPGGA,050123,2437.4226,N,08037.5434,W,1,8,1.9,15,M,,M,,*5B
06/08/2014	05:01:25.739	$GPGGA,050124,2437.4241,N,08037.5429,W,1,8,1.9,15,M,,M,,*51
06/08/2014	05:01:26.754	$GPGGA,050125,2437.4259,N,08037.5426,W,1,9,1.8,15,M,,M,,*56
06/08/2014	05:01:27.893	$GPGGA,050126,2437.4274,N,08037.5422,W,1,9,1.8,15,M,,M,,*5E
06/08/2014	05:01:28.834	$GPGGA,050127,2437.4294,N,08037.5420,W,1,9,1.8,15,M,,M,,*53
06/08/2014	05:01:30.026	$GPGGA,050128,2437.4312,N,08037.5417,W,1,9,1.9,15,M,,M,,*56
06/08/2014	05:01:31.049	$GPGGA,050129,2437.4328,N,08037.5414,W,1,8,1.8,15,M,,M,,*5D
06/08/2014	05:01:31.982	$GPGGA,050130,2437.4346,N,08037.5411,W,1,8,1.8,15,M,,M,,*58
06/08/2014	05:01:33.142	$GPGGA,050131,2437.4363,N,08037.5407,W,1,8,1.8,15,M,,M,,*59
06/08/2014	05:01:34.198	$GPGGA,050132,2437.4381,N,08037.5404,W,1,8,1.9,15,M,,M,,*54
06/08/2014	05:01:35.234	$GPGGA,050133,2437.4397,N,08037.5401,W,1,8,1.9,15,M,,M,,*57
06/08/2014	05:01:36.258	$GPGGA,050134,2437.4415,N,08037.5399,W,1,8,1.8,15,M,,M,,*5A
06/08/2014	05:01:37.313	$GPGGA,050135,2437.4435,N,08037.5397,W,1,9,1.8,15,M,,M,,*56
06/08/2014	05:01:38.348	$GPGGA,050136,2437.4451,N,08037.5394,W,1,9,1.8,15,M,,M,,*54
06/08/2014	05:01:39.395	$GPGGA,050137,2437.4469,N,08037.5392,W,1,9,1.8,15,M,,M,,*58
06/08/2014	05:01:40.429	$GPGGA,050138,2437.4487,N,08037.5390,W,1,9,1.8,15,M,,M,,*55
06/08/2014	05:01:38.743	$GPGGA,050139,2437.4505,N,08037.5387,W,1,9,1.8,15,M,,M,,*59
06/08/2014	05:01:39.808	$GPGGA,050140,2437.4523,N,08037.5384,W,1,9,1.8,15,M,,M,,*50
06/08/2014	05:01:40.833	$GPGGA,050141,2437.4541,N,08037.5381,W,1,9,1.8,15,M,,M,,*50
06/08/2014	05:01:41.868	$GPGGA,050142,2437.4558,N,08037.5378,W,1,9,1.8,15,M,,M,,*5D
06/08/2014	05:01:42.903	$GPGGA,050143,2437.4574,N,08037.5375,W,1,9,1.8,15,M,,M,,*5F
06/08/2014	05:01:43.970	$GPGGA,050144,2437.4592,N,08037.5372,W,1,9,1.8,15,M,,M,,*57
06/08/2014	05:01:45.031	$GPGGA,050145,2437.4609,N,08037.5369,W,1,9,1.9,15,M,,M,,*5C
06/08/2014	05:01:46.040	$GPGGA,050146,2437.4623,N,08037.5363,W,1,9,1.8,15,M,,M,,*5C
06/08/2014	05:01:47.107	$GPGGA,050147,2437.4638,N,08037.5359,W,1,9,1.8,15,M,,M,,*5E
06/08/2014	05:01:48.163	$GPGGA,050148,2437.4653,N,08037.5354,W,1,9,1.8,15,M,,M,,*51
06/08/2014	05:01:49.187	$GPGGA,050149,2437.4670,N,08037.5351,W,1,9,1.8,15,M,,M,,*54
06/08/2014	05:01:50.201	$GPGGA,050150,2437.4688,N,08037.5350,W,1,9,1.9,15,M,,M,,*5B
06/08/2014	05:01:51.280	$GPGGA,050151,2437.4704,N,08037.5347,W,1,8,1.8,15,M,,M,,*59
06/08/2014	05:01:52.325	$GPGGA,050152,2437.4722,N,08037.5344,W,1,8,1.8,15,M,,M,,*5D
06/08/2014	05:01:53.358	$GPGGA,050153,2437.4739,N,08037.5342,W,1,9,1.8,15,M,,M,,*51
06/08/2014	05:01:54.404	$GPGGA,050154,2437.4757,N,08037.5340,W,1,9,1.8,15,M,,M,,*5C
06/08/2014	05:01:55.428	$GPGGA,050155,2437.4775,N,08037.5338,W,1,9,1.8,15,M,,M,,*52
06/08/2014	05:01:56.495	$GPGGA,050156,2437.4791,N,08037.5335,W,1,9,1.8,15,M,,M,,*56
06/08/2014	05:01:57.552	$GPGGA,050157,2437.4809,N,08037.5333,W,1,9,1.8,15,M,,M,,*5F
06/08/2014	05:01:58.565	$GPGGA,050158,2437.4826,N,08037.5331,W,1,9,1.8,15,M,,M,,*5F
06/08/2014	05:01:59.653	$GPGGA,050159,2437.4843,N,08037.5328,W,1,9,1.8,15,M,,M,,*55
06/08/2014	05:02:00.667	$GPGGA,050200,2437.4859,N,08037.5326,W,1,9,1.8,15,M,,M,,*5F
06/08/2014	05:02:01.807	$GPGGA,050201,2437.4877,N,08037.5324,W,1,9,1.8,15,M,,M,,*50
06/08/2014	05:02:02.727	$GPGGA,050202,2437.4894,N,08037.5321,W,1,9,1.8,15,M,,M,,*5B
06/08/2014	05:02:03.793	$GPGGA,050203,2437.4910,N,08037.5319,W,1,9,1.8,15,M,,M,,*5C
06/08/2014	05:02:04.860	$GPGGA,050204,2437.4928,N,08037.5317,W,1,9,1.8,15,M,,M,,*5E
06/08/2014	05:02:05.989	$GPGGA,050205,2437.4946,N,08037.5315,W,1,9,1.8,15,M,,M,,*55
06/08/2014	05:02:07.035	$GPGGA,050206,2437.4963,N,08037.5313,W,1,9,1.8,15,M,,M,,*57
06/08/2014	05:02:07.944	$GPGGA,050207,2437.4980,N,08037.5311,W,1,9,1.8,15,M,,M,,*59
06/08/2014	05:02:09.136	$GPGGA,050208,2437.4996,N,08037.5308,W,1,9,1.8,15,M,,M,,*59
06/08/2014	05:02:10.140	$GPGGA,050209,2437.5014,N,08037.5306,W,1,9,1.8,15,M,,M,,*54
06/08/2014	05:02:11.101	$GPGGA,050210,2437.5031,N,08037.5304,W,1,9,1.8,15,M,,M,,*59
06/08/2014	05:02:12.136	$GPGGA,050211,2437.5047,N,08037.5302,W,1,9,1.8,15,M,,M,,*5F
06/08/2014	05:02:13.203	$GPGGA,050212,2437.5065,N,08037.5300,W,1,9,1.8,15,M,,M,,*5E
06/08/2014	05:02:14.321	$GPGGA,050213,2437.5082,N,08037.5297,W,1,9,1.8,15,M,,M,,*59
06/08/2014	05:02:15.346	$GPGGA,050214,2437.5098,N,08037.5295,W,1,9,1.8,15,M,,M,,*57
06/08/2014	05:02:16.434	$GPGGA,050215,2437.5116,N,08037.5293,W,1,9,1.8,15,M,,M,,*57
06/08/2014	05:02:17.469	$GPGGA,050216,2437.5133,N,08037.5291,W,1,9,1.8,15,M,,M,,*51
06/08/2014	05:02:18.525	$GPGGA,050217,2437.5150,N,08037.5289,W,1,9,1.8,15,M,,M,,*5C
06/08/2014	05:02:19.528	$GPGGA,050218,2437.5166,N,08037.5286,W,1,9,1.8,15,M,,M,,*59
06/08/2014	05:02:20.575	$GPGGA,050219,2437.5183,N,08037.5284,W,1,9,1.8,15,M,,M,,*51
06/08/2014	05:02:21.620	$GPGGA,050220,2437.5199,N,08037.5281,W,1,9,1.8,15,M,,M,,*55
06/08/2014	05:02:22.571	$GPGGA,050221,2437.5217,N,08037.5279,W,1,9,1.8,15,M,,M,,*56
06/08/2014	05:02:23.700	$GPGGA,050222,2437.5235,N,08037.5277,W,1,9,1.9,15,M,,M,,*5A
06/08/2014	05:02:24.736	$GPGGA,050223,2437.5251,N,08037.5274,W,1,8,1.9,15,M,,M,,*5B
06/08/2014	05:02:25.813	$GPGGA,050224,2437.5266,N,08037.5270,W,1,8,1.8,15,M,,M,,*5D
06/08/2014	05:02:26.849	$GPGGA,050225,2437.5282,N,08037.5267,W,1,9,1.8,15,M,,M,,*51
06/08/2014	05:02:27.872	$GPGGA,050226,2437.5300,N,08037.5265,W,1,9,1.9,15,M,,M,,*5A
06/08/2014	05:02:28.918	$GPGGA,050227,2437.5318,N,08037.5262,W,1,8,1.8,15,M,,M,,*55
06/08/2014	05:02:29.994	$GPGGA,050228,2437.5335,N,08037.5260,W,1,8,1.9,15,M,,M,,*56
06/08/2014	05:02:31.008	$GPGGA,050229,2437.5350,N,08037.5258,W,1,8,1.9,15,M,,M,,*5F
06/08/2014	05:02:32.043	$GPGGA,050230,2437.5368,N,08037.5254,W,1,8,1.8,14,M,,M,,*50
06/08/2014	05:02:33.110	$GPGGA,050231,2437.5383,N,08037.5251,W,1,9,1.8,14,M,,M,,*50
06/08/2014	05:02:34.146	$GPGGA,050232,2437.5401,N,08037.5249,W,1,9,1.9,14,M,,M,,*56
06/08/2014	05:02:35.201	$GPGGA,050233,2437.5418,N,08037.5246,W,1,8,1.9,14,M,,M,,*51
06/08/2014	05:02:36.236	$GPGGA,050234,2437.5434,N,08037.5243,W,1,8,1.8,14,M,,M,,*5C
06/08/2014	05:02:37.292	$GPGGA,050235,2437.5451,N,08037.5240,W,1,9,1.8,14,M,,M,,*5C
06/08/2014	05:02:38.317	$GPGGA,050236,2437.5466,N,08037.5236,W,1,9,1.8,14,M,,M,,*5A
06/08/2014	05:02:39.373	$GPGGA,050237,2437.5484,N,08037.5234,W,1,9,1.9,14,M,,M,,*54
06/08/2014	05:02:40.398	$GPGGA,050238,2437.5502,N,08037.5232,W,1,9,1.9,14,M,,M,,*52
06/08/2014	05:02:38.699	$GPGGA,050239,2437.5520,N,08037.5229,W,1,9,1.8,14,M,,M,,*58
06/08/2014	05:02:39.776	$GPGGA,050240,2437.5538,N,08037.5227,W,1,9,1.8,14,M,,M,,*51
06/08/2014	05:02:40.821	$GPGGA,050241,2437.5555,N,08037.5224,W,1,9,1.8,14,M,,M,,*58
06/08/2014	05:02:41.836	$GPGGA,050242,2437.5571,N,08037.5221,W,1,9,1.8,14,M,,M,,*58
06/08/2014	05:02:42.871	$GPGGA,050243,2437.5589,N,08037.5218,W,1,9,1.8,14,M,,M,,*54
06/08/2014	05:02:43.948	$GPGGA,050244,2437.5606,N,08037.5215,W,1,9,1.8,14,M,,M,,*5A
06/08/2014	05:02:44.961	$GPGGA,050245,2437.5622,N,08037.5212,W,1,9,1.8,14,M,,M,,*5A
06/08/2014	05:02:46.007	$GPGGA,050246,2437.5639,N,08037.5209,W,1,9,1.8,14,M,,M,,*59
06/08/2014	05:02:47.052	$GPGGA,050247,2437.5657,N,08037.5205,W,1,9,1.8,14,M,,M,,*5C
06/08/2014	05:02:48.119	$GPGGA,050248,2437.5674,N,08037.5204,W,1,9,1.8,14,M,,M,,*53
06/08/2014	05:02:49.175	$GPGGA,050249,2437.5690,N,08037.5201,W,1,8,1.9,14,M,,M,,*5D
06/08/2014	05:02:50.189	$GPGGA,050250,2437.5707,N,08037.5197,W,1,8,1.8,14,M,,M,,*57
06/08/2014	05:02:51.350	$GPGGA,050251,2437.5723,N,08037.5193,W,1,9,1.8,14,M,,M,,*55
06/08/2014	05:02:52.280	$GPGGA,050252,2437.5741,N,08037.5190,W,1,9,1.8,14,M,,M,,*51
06/08/2014	05:02:53.326	$GPGGA,050253,2437.5757,N,08037.5187,W,1,9,1.8,14,M,,M,,*51
06/08/2014	05:02:54.361	$GPGGA,050254,2437.5773,N,08037.5184,W,1,9,1.8,14,M,,M,,*53
06/08/2014	05:02:55.521	$GPGGA,050255,2437.5791,N,08037.5181,W,1,9,1.8,14,M,,M,,*5B
06/08/2014	05:02:56.463	$GPGGA,050256,2437.5806,N,08037.5178,W,1,9,1.8,14,M,,M,,*5F
06/08/2014	05:02:57.479	$GPGGA,050257,2437.5824,N,08037.5175,W,1,9,1.8,14,M,,M,,*53
06/08/2014	05:02:58.524	$GPGGA,050258,2437.5841,N,08037.5172,W,1,9,1.8,14,M,,M,,*58
06/08/2014	05:02:59.571	$GPGGA,050259,2437.5856,N,08037.5169,W,1,9,1.8,13,M,,M,,*52
06/08/2014	05:03:00.645	$GPGGA,050300,2437.5874,N,08037.5167,W,1,9,1.8,13,M,,M,,*51
06/08/2014	05:03:01.769	$GPGGA,050301,2437.5892,N,08037.5164,W,1,9,1.8,13,M,,M,,*5B
06/08/2014	05:03:02.715	$GPGGA,050302,2437.5909,N,08037.5161,W,1,9,1.8,13,M,,M,,*5E
06/08/2014	05:03:03.752	$GPGGA,050303,2437.5925,N,08037.5159,W,1,9,1.8,13,M,,M,,*5A
06/08/2014	05:03:04.906	$GPGGA,050304,2437.5943,N,08037.5156,W,1,9,1.8,13,M,,M,,*52
06/08/2014	05:03:05.966	$GPGGA,050305,2437.5960,N,08037.5153,W,1,9,1.8,13,M,,M,,*57
06/08/2014	05:03:06.998	$GPGGA,050306,2437.5976,N,08037.5151,W,1,9,1.8,13,M,,M,,*51
06/08/2014	05:03:08.039	$GPGGA,050307,2437.5993,N,08037.5149,W,1,9,1.8,13,M,,M,,*52
06/08/2014	05:03:09.090	$GPGGA,050308,2437.6011,N,08037.5146,W,1,9,1.8,13,M,,M,,*52
06/08/2014	05:03:10.142	$GPGGA,050309,2437.6029,N,08037.5145,W,1,9,1.8,13,M,,M,,*5B
06/08/2014	05:03:11.165	$GPGGA,050310,2437.6047,N,08037.5144,W,1,9,1.9,13,M,,M,,*5B
06/08/2014	05:03:12.231	$GPGGA,050311,2437.6062,N,08037.5141,W,1,8,1.9,13,M,,M,,*59
06/08/2014	05:03:13.256	$GPGGA,050312,2437.6079,N,08037.5138,W,1,8,1.8,13,M,,M,,*5F
06/08/2014	05:03:14.318	$GPGGA,050313,2437.6095,N,08037.5135,W,1,9,1.8,13,M,,M,,*50
06/08/2014	05:03:15.324	$GPGGA,050314,2437.6113,N,08037.5133,W,1,9,1.8,13,M,,M,,*5E
06/08/2014	05:03:16.408	$GPGGA,050315,2437.6130,N,08037.5131,W,1,9,1.8,13,M,,M,,*5C
06/08/2014	05:03:17.447	$GPGGA,050316,2437.6147,N,08037.5129,W,1,9,1.8,13,M,,M,,*56
06/08/2014	05:03:18.471	$GPGGA,050317,2437.6163,N,08037.5127,W,1,9,1.8,13,M,,M,,*5F
06/08/2014	05:03:19.506	$GPGGA,050318,2437.6181,N,08037.5125,W,1,9,1.8,13,M,,M,,*5E
06/08/2014	05:03:20.542	$GPGGA,050319,2437.6198,N,08037.5123,W,1,9,1.8,13,M,,M,,*51
06/08/2014	05:03:21.607	$GPGGA,050320,2437.6214,N,08037.5122,W,1,9,1.8,13,M,,M,,*5D
06/08/2014	05:03:22.642	$GPGGA,050321,2437.6232,N,08037.5119,W,1,9,1.8,13,M,,M,,*50
06/08/2014	05:03:23.677	$GPGGA,050322,2437.6249,N,08037.5118,W,1,9,1.8,13,M,,M,,*5E
06/08/2014	05:03:24.713	$GPGGA,050323,2437.6264,N,08037.5117,W,1,9,1.8,13,M,,M,,*5F
06/08/2014	05:03:25.779	$GPGGA,050324,2437.6282,N,08037.5114,W,1,9,1.8,13,M,,M,,*53
06/08/2014	05:03:26.825	$GPGGA,050325,2437.6299,N,08037.5113,W,1,9,1.8,13,M,,M,,*5F
06/08/2014	05:03:27.839	$GPGGA,050326,2437.6315,N,08037.5112,W,1,9,1.8,13,M,,M,,*58
06/08/2014	05:03:28.895	$GPGGA,050327,2437.6332,N,08037.5110,W,1,9,1.8,13,M,,M,,*5E
06/08/2014	05:03:29.961	$GPGGA,050328,2437.6348,N,08037.5109,W,1,9,1.8,13,M,,M,,*54
06/08/2014	05:03:30.997	$GPGGA,050329,2437.6365,N,08037.5108,W,1,9,1.8,13,M,,M,,*5B
06/08/2014	05:03:32.032	$GPGGA,050330,2437.6382,N,08037.5106,W,1,9,1.8,13,M,,M,,*54
06/08/2014	05:03:33.067	$GPGGA,050331,2437.6398,N,08037.5105,W,1,9,1.8,13,M,,M,,*5D
06/08/2014	05:03:34.112	$GPGGA,050332,2437.6415,N,08037.5104,W,1,9,1.8,13,M,,M,,*5D
06/08/2014	05:03:35.148	$GPGGA,050333,2437.6431,N,08037.5103,W,1,8,1.8,13,M,,M,,*5C
06/08/2014	05:03:36.193	$GPGGA,050334,2437.6449,N,08037.5101,W,1,8,1.8,13,M,,M,,*56
06/08/2014	05:03:37.239	$GPGGA,050335,2437.6466,N,08037.5100,W,1,9,1.8,13,M,,M,,*5A
06/08/2014	05:03:38.284	$GPGGA,050336,2437.6485,N,08037.5099,W,1,9,1.8,13,M,,M,,*55
06/08/2014	05:03:39.340	$GPGGA,050337,2437.6501,N,08037.5098,W,1,9,1.8,13,M,,M,,*58
06/08/2014	05:03:40.500	$GPGGA,050338,2437.6516,N,08037.5097,W,1,9,1.8,13,M,,M,,*5E
06/08/2014	05:03:38.708	$GPGGA,050339,2437.6532,N,08037.5096,W,1,9,1.8,13,M,,M,,*58
06/08/2014	05:03:39.743	$GPGGA,050340,2437.6550,N,08037.5095,W,1,9,1.8,13,M,,M,,*51
06/08/2014	05:03:40.768	$GPGGA,050341,2437.6570,N,08037.5095,W,1,9,1.8,13,M,,M,,*52
06/08/2014	05:03:41.908	$GPGGA,050342,2437.6589,N,08037.5093,W,1,9,1.8,13,M,,M,,*51
06/08/2014	05:03:42.849	$GPGGA,050343,2437.6604,N,08037.5092,W,1,9,1.8,13,M,,M,,*57
06/08/2014	05:03:44.009	$GPGGA,050344,2437.6622,N,08037.5092,W,1,9,1.8,13,M,,M,,*54
06/08/2014	05:03:45.086	$GPGGA,050345,2437.6639,N,08037.5090,W,1,9,1.8,13,M,,M,,*5D
06/08/2014	05:03:46.099	$GPGGA,050346,2437.6655,N,08037.5089,W,1,9,1.8,13,M,,M,,*5C
06/08/2014	05:03:47.041	$GPGGA,050347,2437.6671,N,08037.5088,W,1,9,1.8,13,M,,M,,*5A
06/08/2014	05:03:48.092	$GPGGA,050348,2437.6687,N,08037.5087,W,1,9,1.8,13,M,,M,,*53
06/08/2014	05:03:49.218	$GPGGA,050349,2437.6704,N,08037.5086,W,1,9,1.8,13,M,,M,,*59
06/08/2014	05:03:50.263	$GPGGA,050350,2437.6720,N,08037.5084,W,1,9,1.8,13,M,,M,,*55
06/08/2014	05:03:51.300	$GPGGA,050351,2437.6737,N,08037.5083,W,1,9,1.8,13,M,,M,,*55
06/08/2014	05:03:52.260	$GPGGA,050352,2437.6754,N,08037.5082,W,1,9,1.8,13,M,,M,,*52
06/08/2014	05:03:53.451	$GPGGA,050353,2437.6770,N,08037.5081,W,1,9,1.8,13,M,,M,,*56
06/08/2014	05:03:54.449	$GPGGA,050354,2437.6787,N,08037.5079,W,1,9,1.8,13,M,,M,,*5E
06/08/2014	05:03:55.510	$GPGGA,050355,2437.6803,N,08037.5078,W,1,9,1.8,13,M,,M,,*5D
06/08/2014	05:03:56.536	$GPGGA,050356,2437.6821,N,08037.5077,W,1,9,1.8,13,M,,M,,*51
06/08/2014	05:03:57.559	$GPGGA,050357,2437.6838,N,08037.5076,W,1,9,1.8,14,M,,M,,*5E
06/08/2014	05:03:58.605	$GPGGA,050358,2437.6855,N,08037.5075,W,1,9,1.8,14,M,,M,,*59
06/08/2014	05:03:59.650	$GPGGA,050359,2437.6871,N,08037.5074,W,1,9,1.8,14,M,,M,,*5F
06/08/2014	05:04:00.718	$GPGGA,050400,2437.6889,N,08037.5072,W,1,9,1.8,14,M,,M,,*55
06/08/2014	05:04:01.769	$GPGGA,050401,2437.6906,N,08037.5071,W,1,9,1.8,14,M,,M,,*51
06/08/2014	05:04:02.777	$GPGGA,050402,2437.6924,N,08037.5070,W,1,9,1.8,14,M,,M,,*53
06/08/2014	05:04:03.844	$GPGGA,050403,2437.6940,N,08037.5068,W,1,9,1.8,14,M,,M,,*59
06/08/2014	05:04:04.878	$GPGGA,050404,2437.6958,N,08037.5067,W,1,9,1.8,14,M,,M,,*58
06/08/2014	05:04:05.940	$GPGGA,050405,2437.6973,N,08037.5065,W,1,9,1.8,14,M,,M,,*52
06/08/2014	05:04:06.949	$GPGGA,050406,2437.6991,N,08037.5063,W,1,9,1.8,14,M,,M,,*5B
06/08/2014	05:04:08.015	$GPGGA,050407,2437.7009,N,08037.5062,W,1,9,1.8,14,M,,M,,*52
06/08/2014	05:04:09.061	$GPGGA,050408,2437.7026,N,08037.5061,W,1,9,1.8,14,M,,M,,*53
06/08/2014	05:04:10.106	$GPGGA,050409,2437.7043,N,08037.5059,W,1,9,1.8,14,M,,M,,*5A
06/08/2014	05:04:11.142	$GPGGA,050410,2437.7059,N,08037.5057,W,1,9,1.8,14,M,,M,,*57
06/08/2014	05:04:12.211	$GPGGA,050411,2437.7077,N,08037.5055,W,1,9,1.8,14,M,,M,,*58
06/08/2014	05:04:13.233	$GPGGA,050412,2437.7094,N,08037.5054,W,1,9,1.8,14,M,,M,,*57
06/08/2014	05:04:14.307	$GPGGA,050413,2437.7110,N,08037.5052,W,1,9,1.8,14,M,,M,,*5D
06/08/2014	05:04:15.312	$GPGGA,050414,2437.7128,N,08037.5051,W,1,9,1.8,14,M,,M,,*52
06/08/2014	05:04:16.396	$GPGGA,050415,2437.7145,N,08037.5049,W,1,9,1.8,15,M,,M,,*50
06/08/2014	05:04:17.404	$GPGGA,050416,2437.7163,N,08037.5047,W,1,9,1.8,15,M,,M,,*59
06/08/2014	05:04:18.428	$GPGGA,050417,2437.7179,N,08037.5045,W,1,9,1.8,15,M,,M,,*51
06/08/2014	05:04:19.484	$GPGGA,050418,2437.7197,N,08037.5044,W,1,9,1.8,15,M,,M,,*5F
06/08/2014	05:04:20.509	$GPGGA,050419,2437.7214,N,08037.5042,W,1,9,1.8,15,M,,M,,*50
06/08/2014	05:04:21.586	$GPGGA,050420,2437.7231,N,08037.5040,W,1,9,1.8,15,M,,M,,*5F
06/08/2014	05:04:22.621	$GPGGA,050421,2437.7247,N,08037.5038,W,1,9,1.8,15,M,,M,,*50
06/08/2014	05:04:23.646	$GPGGA,050422,2437.7264,N,08037.5037,W,1,9,1.8,15,M,,M,,*5D
06/08/2014	05:04:24.692	$GPGGA,050423,2437.7280,N,08037.5035,W,1,9,1.8,15,M,,M,,*54
06/08/2014	05:04:25.758	$GPGGA,050424,2437.7298,N,08037.5033,W,1,9,1.8,15,M,,M,,*5C
06/08/2014	05:04:26.793	$GPGGA,050425,2437.7315,N,08037.5032,W,1,9,1.8,15,M,,M,,*58
06/08/2014	05:04:27.840	$GPGGA,050426,2437.7332,N,08037.5030,W,1,9,1.8,15,M,,M,,*5C
06/08/2014	05:04:29.031	$GPGGA,050427,2437.7348,N,08037.5029,W,1,9,1.8,15,M,,M,,*58
06/08/2014	05:04:29.909	$GPGGA,050428,2437.7366,N,08037.5027,W,1,9,1.8,15,M,,M,,*55
06/08/2014	05:04:30.965	$GPGGA,050429,2437.7383,N,08037.5025,W,1,9,1.8,15,M,,M,,*5D
06/08/2014	05:04:32.105	$GPGGA,050430,2437.7399,N,08037.5024,W,1,9,1.8,15,M,,M,,*5F
06/08/2014	05:04:33.066	$GPGGA,050431,2437.7417,N,08037.5023,W,1,9,1.8,15,M,,M,,*58
06/08/2014	05:04:34.268	$GPGGA,050432,2437.7432,N,08037.5021,W,1,9,1.8,15,M,,M,,*5E
06/08/2014	05:04:35.304	$GPGGA,050433,2437.7449,N,08037.5020,W,1,9,1.8,15,M,,M,,*52
06/08/2014	05:04:36.267	$GPGGA,050434,2437.7467,N,08037.5018,W,1,9,1.8,15,M,,M,,*52
06/08/2014	05:04:37.209	$GPGGA,050435,2437.7482,N,08037.5017,W,1,9,1.8,15,M,,M,,*57
06/08/2014	05:04:38.273	$GPGGA,050436,2437.7500,N,08037.5015,W,1,9,1.8,15,M,,M,,*5D
06/08/2014	05:04:39.402	$GPGGA,050437,2437.7517,N,08037.5014,W,1,9,1.8,15,M,,M,,*5B
06/08/2014	05:04:40.531	$GPGGA,050438,2437.7533,N,08037.5012,W,1,9,1.8,15,M,,M,,*54
06/08/2014	05:04:38.843	$GPGGA,050439,2437.7550,N,08037.5011,W,1,9,1.8,15,M,,M,,*53
06/08/2014	05:04:39.889	$GPGGA,050440,2437.7567,N,08037.5009,W,1,9,1.8,15,M,,M,,*50
06/08/2014	05:04:40.861	$GPGGA,050441,2437.7583,N,08037.5008,W,1,9,1.8,15,M,,M,,*5A
06/08/2014	05:04:41.959	$GPGGA,050442,2437.7601,N,08037.5007,W,1,9,1.8,15,M,,M,,*5F
06/08/2014	05:04:43.015	$GPGGA,050443,2437.7618,N,08037.5005,W,1,9,1.8,15,M,,M,,*54
06/08/2014	05:04:43.977	$GPGGA,050444,2437.7634,N,08037.5004,W,1,9,1.8,15,M,,M,,*5C
06/08/2014	05:04:45.064	$GPGGA,050445,2437.7652,N,08037.5003,W,1,9,1.8,15,M,,M,,*5A
06/08/2014	05:04:46.131	$GPGGA,050446,2437.7668,N,08037.5001,W,1,9,1.7,15,M,,M,,*5D
06/08/2014	05:04:47.145	$GPGGA,050447,2437.7684,N,08037.5000,W,1,9,1.7,15,M,,M,,*5F
06/08/2014	05:04:48.242	$GPGGA,050448,2437.7702,N,08037.4998,W,1,9,1.7,15,M,,M,,*56
06/08/2014	05:04:49.225	$GPGGA,050449,2437.7719,N,08037.4997,W,1,9,1.7,15,M,,M,,*52
06/08/2014	05:04:50.302	$GPGGA,050450,2437.7735,N,08037.4996,W,1,9,1.7,15,M,,M,,*55
06/08/2014	05:04:51.326	$GPGGA,050451,2437.7753,N,08037.4995,W,1,9,1.7,15,M,,M,,*57
06/08/2014	05:04:52.414	$GPGGA,050452,2437.7770,N,08037.4994,W,1,9,1.7,15,M,,M,,*54
06/08/2014	05:04:53.459	$GPGGA,050453,2437.7786,N,08037.4993,W,1,9,1.7,15,M,,M,,*5B
06/08/2014	05:04:54.484	$GPGGA,050454,2437.7803,N,08037.4992,W,1,9,1.7,15,M,,M,,*5F
06/08/2014	05:04:55.446	$GPGGA,050455,2437.7820,N,08037.4990,W,1,9,1.7,15,M,,M,,*5D
06/08/2014	05:04:56.554	$GPGGA,050456,2437.7836,N,08037.4989,W,1,9,1.7,15,M,,M,,*51
06/08/2014	05:04:57.589	$GPGGA,050457,2437.7854,N,08037.4988,W,1,9,1.7,15,M,,M,,*55
06/08/2014	05:04:58.677	$GPGGA,050458,2437.7871,N,08037.4987,W,1,9,1.7,15,M,,M,,*52
06/08/2014	05:04:59.670	$GPGGA,050459,2437.7887,N,08037.4986,W,1,9,1.7,15,M,,M,,*5B
06/08/2014	05:05:00.779	$GPGGA,050500,2437.7903,N,08037.4985,W,1,9,1.7,15,M,,M,,*58
06/08/2014	05:05:01.709	$GPGGA,050501,2437.7919,N,08037.4984,W,1,9,1.7,15,M,,M,,*53
06/08/2014	05:05:02.817	$GPGGA,050502,2437.7936,N,08037.4982,W,1,9,1.7,16,M,,M,,*58
06/08/2014	05:05:03.853	$GPGGA,050503,2437.7952,N,08037.4981,W,1,9,1.7,16,M,,M,,*58
06/08/2014	05:05:04.930	$GPGGA,050504,2437.7969,N,08037.4980,W,1,9,1.7,16,M,,M,,*56
06/08/2014	05:05:05.964	$GPGGA,050505,2437.7986,N,08037.4979,W,1,9,1.7,16,M,,M,,*50
06/08/2014	05:05:06.926	$GPGGA,050506,2437.8002,N,08037.4978,W,1,9,1.7,16,M,,M,,*58
06/08/2014	05:05:08.049	$GPGGA,050507,2437.8019,N,08037.4977,W,1,9,1.7,16,M,,M,,*5C
06/08/2014	05:05:09.017	$GPGGA,050508,2437.8035,N,08037.4976,W,1,9,1.7,16,M,,M,,*5C
06/08/2014	05:05:10.177	$GPGGA,050509,2437.8052,N,08037.4975,W,1,9,1.7,16,M,,M,,*5F
06/08/2014	05:05:11.101	$GPGGA,050510,2437.8069,N,08037.4974,W,1,9,1.7,16,M,,M,,*5E
06/08/2014	05:05:12.195	$GPGGA,050511,2437.8085,N,08037.4973,W,1,9,1.7,16,M,,M,,*5A
06/08/2014	05:05:13.253	$GPGGA,050512,2437.8100,N,08037.4972,W,1,9,1.7,16,M,,M,,*54
06/08/2014	05:05:14.276	$GPGGA,050513,2437.8118,N,08037.4971,W,1,9,1.7,16,M,,M,,*5F
06/08/2014	05:05:15.343	$GPGGA,050514,2437.8134,N,08037.4969,W,1,9,1.7,16,M,,M,,*5F
06/08/2014	05:05:16.367	$GPGGA,050515,2437.8150,N,08037.4968,W,1,9,1.7,16,M,,M,,*5D
06/08/2014	05:05:17.444	$GPGGA,050516,2437.8168,N,08037.4969,W,1,9,1.7,16,M,,M,,*54
06/08/2014	05:05:18.521	$GPGGA,050517,2437.8185,N,08037.4969,W,1,9,1.7,16,M,,M,,*56
06/08/2014	05:05:19.441	$GPGGA,050518,2437.8201,N,08037.4968,W,1,9,1.7,16,M,,M,,*57
06/08/2014	05:05:20.498	$GPGGA,050519,2437.8219,N,08037.4968,W,1,9,1.7,16,M,,M,,*5F
06/08/2014	05:05:21.669	$GPGGA,050520,2437.8234,N,08037.4968,W,1,9,1.7,16,M,,M,,*5A
06/08/2014	05:05:22.683	$GPGGA,050521,2437.8251,N,08037.4967,W,1,9,1.7,16,M,,M,,*57
06/08/2014	05:05:23.616	$GPGGA,050522,2437.8269,N,08037.4967,W,1,9,1.7,16,M,,M,,*5F
06/08/2014	05:05:24.701	$GPGGA,050523,2437.8286,N,08037.4966,W,1,9,1.7,16,M,,M,,*5E
06/08/2014	05:05:25.829	$GPGGA,050524,2437.8302,N,08037.4967,W,1,9,1.7,16,M,,M,,*55
06/08/2014	05:05:26.864	$GPGGA,050525,2437.8319,N,08037.4965,W,1,9,1.7,16,M,,M,,*5C
06/08/2014	05:05:27.858	$GPGGA,050526,2437.8335,N,08037.4964,W,1,9,1.7,16,M,,M,,*50
06/08/2014	05:05:28.903	$GPGGA,050527,2437.8353,N,08037.4964,W,1,9,1.7,16,M,,M,,*51
06/08/2014	05:05:30.032	$GPGGA,050528,2437.8369,N,08037.4964,W,1,9,1.7,16,M,,M,,*57
06/08/2014	05:05:31.048	$GPGGA,050529,2437.8385,N,08037.4963,W,1,9,1.7,16,M,,M,,*53
06/08/2014	05:05:32.090	$GPGGA,050530,2437.8403,N,08037.4962,W,1,9,1.7,16,M,,M,,*53
06/08/2014	05:05:33.135	$GPGGA,050531,2437.8420,N,08037.4961,W,1,9,1.7,17,M,,M,,*51
06/08/2014	05:05:34.173	$GPGGA,050532,2437.8436,N,08037.4960,W,1,9,1.7,17,M,,M,,*54
06/08/2014	05:05:35.229	$GPGGA,050533,2437.8453,N,08037.4959,W,1,9,1.7,17,M,,M,,*5C
06/08/2014	05:05:36.264	$GPGGA,050534,2437.8470,N,08037.4958,W,1,9,1.7,17,M,,M,,*5B
06/08/2014	05:05:37.300	$GPGGA,050535,2437.8486,N,08037.4957,W,1,9,1.7,17,M,,M,,*5C
06/08/2014	05:05:38.338	$GPGGA,050536,2437.8503,N,08037.4955,W,1,9,1.7,17,M,,M,,*51
06/08/2014	05:05:39.336	$GPGGA,050537,2437.8519,N,08037.4954,W,1,9,1.7,17,M,,M,,*5A
06/08/2014	05:05:40.343	$GPGGA,050538,2437.8536,N,08037.4953,W,1,9,1.7,17,M,,M,,*5F
06/08/2014	05:05:38.706	$GPGGA,050539,2437.8553,N,08037.4952,W,1,9,1.7,17,M,,M,,*5C
06/08/2014	05:05:39.733	$GPGGA,050540,2437.8569,N,08037.4950,W,1,9,1.7,17,M,,M,,*59
06/08/2014	05:05:40.771	$GPGGA,050541,2437.8586,N,08037.4950,W,1,9,1.7,17,M,,M,,*59
06/08/2014	05:05:41.760	$GPGGA,050542,2437.8602,N,08037.4948,W,1,9,1.7,17,M,,M,,*5C
06/08/2014	05:05:42.807	$GPGGA,050543,2437.8619,N,08037.4947,W,1,9,1.7,17,M,,M,,*58
06/08/2014	05:05:43.825	$GPGGA,050544,2437.8635,N,08037.4946,W,1,9,1.7,17,M,,M,,*50
06/08/2014	05:05:44.834	$GPGGA,050545,2437.8652,N,08037.4944,W,1,9,1.7,18,M,,M,,*5D
06/08/2014	05:05:45.841	$GPGGA,050546,2437.8670,N,08037.4943,W,1,9,1.7,18,M,,M,,*59
06/08/2014	05:05:46.839	$GPGGA,050547,2437.8685,N,08037.4942,W,1,9,1.7,18,M,,M,,*53
06/08/2014	05:05:47.908	$GPGGA,050548,2437.8703,N,08037.4941,W,1,9,1.7,18,M,,M,,*50
06/08/2014	05:05:48.875	$GPGGA,050549,2437.8720,N,08037.4939,W,1,9,1.7,18,M,,M,,*5F
06/08/2014	05:05:49.913	$GPGGA,050550,2437.8720,N,08037.4939,W,1,9,1.7,18,M,,M,,*57
06/08/2014	05:05:50.941	$GPGGA,050551,2437.8754,N,08037.4937,W,1,9,1.7,18,M,,M,,*5B
06/08/2014	05:05:51.959	$GPGGA,050552,2437.8771,N,08037.4936,W,1,9,1.7,18,M,,M,,*5E
06/08/2014	05:05:52.936	$GPGGA,050553,2437.8788,N,08037.4934,W,1,9,1.7,18,M,,M,,*5B
06/08/2014	05:05:53.965	$GPGGA,050554,2437.8788,N,08037.4934,W,1,9,1.7,18,M,,M,,*5C
06/08/2014	05:05:54.972	$GPGGA,050555,2437.8822,N,08037.4932,W,1,9,1.7,18,M,,M,,*54
06/08/2014	05:05:56.021	$GPGGA,050556,2437.8839,N,08037.4930,W,1,9,1.7,18,M,,M,,*5F
06/08/2014	05:05:57.121	$GPGGA,050557,2437.8855,N,08037.4929,W,1,9,1.7,18,M,,M,,*5C
06/08/2014	05:05:58.046	$GPGGA,050558,2437.8873,N,08037.4928,W,1,9,1.7,18,M,,M,,*56
06/08/2014	05:05:59.034	$GPGGA,050559,2437.8889,N,08037.4927,W,1,9,1.7,18,M,,M,,*5D
06/08/2014	05:06:00.106	$GPGGA,050600,2437.8905,N,08037.4926,W,1,9,1.7,18,M,,M,,*56
06/08/2014	05:06:01.100	$GPGGA,050601,2437.8923,N,08037.4925,W,1,9,1.7,18,M,,M,,*50
06/08/2014	05:06:02.087	$GPGGA,050602,2437.8940,N,08037.4924,W,1,9,1.7,18,M,,M,,*57
06/08/2014	05:06:03.227	$GPGGA,050603,2437.8956,N,08037.4922,W,1,9,1.7,18,M,,M,,*57
06/08/2014	05:06:04.164	$GPGGA,050604,2437.8956,N,08037.4922,W,1,9,1.7,18,M,,M,,*50
06/08/2014	05:06:05.243	$GPGGA,050605,2437.8989,N,08037.4920,W,1,9,1.7,18,M,,M,,*51
06/08/2014	05:06:06.149	$GPGGA,050606,2437.8989,N,08037.4920,W,1,9,1.7,18,M,,M,,*52
06/08/2014	05:06:07.279	$GPGGA,050607,2437.9023,N,08037.4917,W,1,9,1.7,18,M,,M,,*5F
06/08/2014	05:06:08.195	$GPGGA,050608,2437.9023,N,08037.4917,W,1,9,1.7,18,M,,M,,*50
06/08/2014	05:06:09.193	$GPGGA,050609,2437.9057,N,08037.4915,W,1,9,1.7,18,M,,M,,*50
06/08/2014	05:06:10.252	$GPGGA,050610,2437.9072,N,08037.4914,W,1,9,1.7,18,M,,M,,*5E
06/08/2014	05:06:11.321	$GPGGA,050611,2437.9090,N,08037.4913,W,1,9,1.7,18,M,,M,,*54
06/08/2014	05:06:12.349	$GPGGA,050612,2437.9107,N,08037.4912,W,1,9,1.7,18,M,,M,,*59
06/08/2014	05:06:13.377	$GPGGA,050613,2437.9122,N,08037.4911,W,1,9,1.7,18,M,,M,,*5C
06/08/2014	05:06:14.293	$GPGGA,050614,2437.9122,N,08037.4911,W,1,9,1.7,18,M,,M,,*5B
06/08/2014	05:06:15.422	$GPGGA,050615,2437.9155,N,08037.4909,W,1,9,1.7,18,M,,M,,*53
06/08/2014	05:06:16.420	$GPGGA,050616,2437.9173,N,08037.4907,W,1,9,1.7,18,M,,M,,*5A
06/08/2014	05:06:17.417	$GPGGA,050617,2437.9189,N,08037.4906,W,1,9,1.7,18,M,,M,,*5F
06/08/2014	05:06:18.446	$GPGGA,050618,2437.9205,N,08037.4905,W,1,9,1.7,18,M,,M,,*54
06/08/2014	05:06:19.484	$GPGGA,050619,2437.9222,N,08037.4904,W,1,9,1.7,18,M,,M,,*51
06/08/2014	05:06:20.471	$GPGGA,050620,2437.9238,N,08037.4904,W,1,9,1.7,17,M,,M,,*5F
06/08/2014	05:06:21.500	$GPGGA,050621,2437.9255,N,08037.4903,W,1,9,1.7,17,M,,M,,*52
06/08/2014	05:06:22.487	$GPGGA,050622,2437.9272,N,08037.4902,W,1,9,1.7,17,M,,M,,*55
06/08/2014	05:06:23.546	$GPGGA,050623,2437.9288,N,08037.4901,W,1,9,1.7,17,M,,M,,*52
06/08/2014	05:06:24.533	$GPGGA,050624,2437.9305,N,08037.4900,W,1,9,1.7,17,M,,M,,*50
06/08/2014	05:06:25.561	$GPGGA,050625,2437.9321,N,08037.4899,W,1,9,1.7,17,M,,M,,*56
06/08/2014	05:06:26.550	$GPGGA,050626,2437.9338,N,08037.4898,W,1,9,1.7,17,M,,M,,*5C
06/08/2014	05:06:27.567	$GPGGA,050627,2437.9355,N,08037.4897,W,1,9,1.7,17,M,,M,,*59
06/08/2014	05:06:28.607	$GPGGA,050628,2437.9371,N,08037.4896,W,1,9,1.7,17,M,,M,,*51
06/08/2014	05:06:29.624	$GPGGA,050629,2437.9386,N,08037.4895,W,1,9,1.7,17,M,,M,,*5B
06/08/2014	05:06:30.621	$GPGGA,050630,2437.9404,N,08037.4894,W,1,9,1.7,17,M,,M,,*5F
06/08/2014	05:06:31.660	$GPGGA,050631,2437.9421,N,08037.4893,W,1,9,1.7,17,M,,M,,*5E
06/08/2014	05:06:32.667	$GPGGA,050632,2437.9436,N,08037.4892,W,1,9,1.7,17,M,,M,,*5A
06/08/2014	05:06:33.714	$GPGGA,050633,2437.9454,N,08037.4891,W,1,9,1.7,17,M,,M,,*5C
06/08/2014	05:06:34.692	$GPGGA,050634,2437.9469,N,08037.4892,W,1,9,1.7,17,M,,M,,*56
06/08/2014	05:06:35.721	$GPGGA,050635,2437.9487,N,08037.4889,W,1,9,1.7,17,M,,M,,*5D
06/08/2014	05:06:36.728	$GPGGA,050636,2437.9504,N,08037.4889,W,1,9,1.7,17,M,,M,,*54
06/08/2014	05:06:37.776	$GPGGA,050637,2437.9520,N,08037.4887,W,1,9,1.7,17,M,,M,,*5D
06/08/2014	05:06:38.743	$GPGGA,050638,2437.9537,N,08037.4886,W,1,9,1.7,17,M,,M,,*55
06/08/2014	05:06:38.724	$GPGGA,050639,2437.9554,N,08037.4885,W,1,9,1.7,17,M,,M,,*52
06/08/2014	05:06:39.712	$GPGGA,050640,2437.9570,N,08037.4884,W,1,9,1.7,17,M,,M,,*5B
06/08/2014	05:06:40.750	$GPGGA,050641,2437.9585,N,08037.4883,W,1,9,1.7,17,M,,M,,*57
06/08/2014	05:06:41.727	$GPGGA,050642,2437.9603,N,08037.4882,W,1,9,1.7,16,M,,M,,*59
06/08/2014	05:06:42.776	$GPGGA,050643,2437.9620,N,08037.4881,W,1,9,1.7,16,M,,M,,*5A
06/08/2014	05:06:43.774	$GPGGA,050644,2437.9637,N,08037.4880,W,1,9,1.7,16,M,,M,,*5A
06/08/2014	05:06:44.771	$GPGGA,050645,2437.9653,N,08037.4879,W,1,9,1.7,16,M,,M,,*5F
06/08/2014	05:06:45.820	$GPGGA,050646,2437.9670,N,08037.4878,W,1,9,1.7,16,M,,M,,*5C
06/08/2014	05:06:46.817	$GPGGA,050647,2437.9686,N,08037.4877,W,1,9,1.7,16,M,,M,,*5B
06/08/2014	05:06:47.845	$GPGGA,050648,2437.9703,N,08037.4875,W,1,9,1.7,16,M,,M,,*5A
06/08/2014	05:06:48.833	$GPGGA,050649,2437.9720,N,08037.4874,W,1,9,1.7,16,M,,M,,*5B
06/08/2014	05:06:49.871	$GPGGA,050650,2437.9736,N,08037.4873,W,1,9,1.7,16,M,,M,,*53
06/08/2014	05:06:50.980	$GPGGA,050651,2437.9753,N,08037.4872,W,1,9,1.7,16,M,,M,,*50
06/08/2014	05:06:51.916	$GPGGA,050652,2437.9769,N,08037.4871,W,1,9,1.7,16,M,,M,,*59
06/08/2014	05:06:53.016	$GPGGA,050653,2437.9786,N,08037.4870,W,1,9,1.7,16,M,,M,,*58
06/08/2014	05:06:53.932	$GPGGA,050654,2437.9803,N,08037.4869,W,1,9,2.0,16,M,,M,,*51
06/08/2014	05:06:54.940	$GPGGA,050655,2437.9819,N,08037.4868,W,1,9,1.7,15,M,,M,,*5D
06/08/2014	05:06:56.090	$GPGGA,050656,2437.9836,N,08037.4866,W,1,9,1.7,15,M,,M,,*5D
06/08/2014	05:06:57.098	$GPGGA,050657,2437.9852,N,08037.4865,W,1,9,1.7,15,M,,M,,*5D
06/08/2014	05:06:58.103	$GPGGA,050658,2437.9869,N,08037.4864,W,1,9,1.7,15,M,,M,,*5B
06/08/2014	05:06:59.105	$GPGGA,050659,2437.9885,N,08037.4863,W,1,9,1.7,15,M,,M,,*5F
06/08/2014	05:07:00.040	$GPGGA,050700,2437.9902,N,08037.4862,W,1,9,1.7,15,M,,M,,*5D
06/08/2014	05:07:01.059	$GPGGA,050701,2437.9919,N,08037.4861,W,1,9,1.7,15,M,,M,,*55
06/08/2014	05:07:02.157	$GPGGA,050702,2437.9935,N,08037.4859,W,1,9,1.7,15,M,,M,,*53
06/08/2014	05:07:03.186	$GPGGA,050703,2437.9953,N,08037.4858,W,1,9,1.7,15,M,,M,,*53
06/08/2014	05:07:04.193	$GPGGA,050704,2437.9968,N,08037.4857,W,1,9,1.7,15,M,,M,,*53
06/08/2014	05:07:05.206	$GPGGA,050705,2437.9986,N,08037.4857,W,1,9,1.7,15,M,,M,,*52
06/08/2014	05:07:06.212	$GPGGA,050706,2438.0003,N,08037.4855,W,1,9,1.7,15,M,,M,,*51
06/08/2014	05:07:07.241	$GPGGA,050707,2438.0020,N,08037.4855,W,1,9,1.7,15,M,,M,,*51
06/08/2014	05:07:08.264	$GPGGA,050708,2438.0036,N,08037.4854,W,1,9,1.7,15,M,,M,,*58
06/08/2014	05:07:09.282	$GPGGA,050709,2438.0053,N,08037.4853,W,1,9,1.7,15,M,,M,,*5D
06/08/2014	05:07:10.270	$GPGGA,050710,2438.0069,N,08037.4852,W,1,9,1.7,15,M,,M,,*5D
06/08/2014	05:07:11.308	$GPGGA,050711,2438.0086,N,08037.4851,W,1,9,1.7,15,M,,M,,*5E
06/08/2014	05:07:12.320	$GPGGA,050712,2438.0103,N,08037.4852,W,1,9,1.7,15,M,,M,,*52
06/08/2014	05:07:13.354	$GPGGA,050713,2438.0119,N,08037.4849,W,1,9,1.7,15,M,,M,,*52
06/08/2014	05:07:14.342	$GPGGA,050714,2438.0137,N,08037.4848,W,1,9,1.7,15,M,,M,,*58
06/08/2014	05:07:15.380	$GPGGA,050715,2438.0152,N,08037.4847,W,1,9,1.7,15,M,,M,,*55
06/08/2014	05:07:16.378	$GPGGA,050716,2438.0170,N,08037.4846,W,1,9,1.7,15,M,,M,,*57
06/08/2014	05:07:17.406	$GPGGA,050717,2438.0187,N,08037.4845,W,1,9,1.7,15,M,,M,,*5D
06/08/2014	05:07:18.414	$GPGGA,050718,2438.0202,N,08037.4843,W,1,9,1.7,15,M,,M,,*5A
06/08/2014	05:07:19.444	$GPGGA,050719,2438.0220,N,08037.4844,W,1,9,1.7,15,M,,M,,*5C
06/08/2014	05:07:20.440	$GPGGA,050720,2438.0237,N,08037.4842,W,1,9,1.7,15,M,,M,,*56
06/08/2014	05:07:21.478	$GPGGA,050721,2438.0253,N,08037.4840,W,1,9,1.7,15,M,,M,,*57
06/08/2014	05:07:22.455	$GPGGA,050722,2438.0270,N,08037.4839,W,1,9,1.7,15,M,,M,,*5B
06/08/2014	05:07:23.473	$GPGGA,050723,2438.0285,N,08037.4838,W,1,9,1.7,15,M,,M,,*51
06/08/2014	05:07:24.513	$GPGGA,050724,2438.0303,N,08037.4837,W,1,9,1.7,15,M,,M,,*56
06/08/2014	05:07:25.549	$GPGGA,050725,2438.0320,N,08037.4835,W,1,9,1.7,15,M,,M,,*54
06/08/2014	05:07:26.526	$GPGGA,050726,2438.0336,N,08037.4834,W,1,9,1.7,15,M,,M,,*51
06/08/2014	05:07:27.555	$GPGGA,050727,2438.0354,N,08037.4833,W,1,9,1.7,15,M,,M,,*53
06/08/2014	05:07:28.593	$GPGGA,050728,2438.0369,N,08037.4832,W,1,9,1.7,15,M,,M,,*53
06/08/2014	05:07:29.580	$GPGGA,050729,2438.0387,N,08037.4831,W,1,9,1.7,15,M,,M,,*51
06/08/2014	05:07:30.588	$GPGGA,050730,2438.0404,N,08037.4830,W,1,9,1.7,15,M,,M,,*54
06/08/2014	05:07:31.616	$GPGGA,050731,2438.0421,N,08037.4829,W,1,9,1.7,15,M,,M,,*5A
06/08/2014	05:07:32.634	$GPGGA,050732,2438.0437,N,08037.4828,W,1,9,1.7,15,M,,M,,*5F
06/08/2014	05:07:33.663	$GPGGA,050733,2438.0454,N,08037.4827,W,1,9,1.7,15,M,,M,,*54
06/08/2014	05:07:34.650	$GPGGA,050734,2438.0470,N,08037.4826,W,1,9,1.7,15,M,,M,,*54
06/08/2014	05:07:35.688	$GPGGA,050735,2438.0488,N,08037.4824,W,1,9,1.7,15,M,,M,,*50
06/08/2014	05:07:36.818	$GPGGA,050736,2438.0505,N,08037.4824,W,1,9,1.7,15,M,,M,,*57
06/08/2014	05:07:37.714	$GPGGA,050737,2438.0522,N,08037.4823,W,1,9,1.7,15,M,,M,,*54
06/08/2014	05:07:38.814	$GPGGA,050738,2438.0538,N,08037.4821,W,1,9,1.7,15,M,,M,,*52
06/08/2014	05:07:38.653	$GPGGA,050739,2438.0555,N,08037.4820,W,1,9,1.7,15,M,,M,,*59
06/08/2014	05:07:39.691	$GPGGA,050740,2438.0571,N,08037.4820,W,1,9,1.7,15,M,,M,,*51
06/08/2014	05:07:40.679	$GPGGA,050741,2438.0589,N,08037.4818,W,1,9,1.7,15,M,,M,,*5C
06/08/2014	05:07:41.717	$GPGGA,050742,2438.0605,N,08037.4817,W,1,9,1.7,15,M,,M,,*57
06/08/2014	05:07:42.866	$GPGGA,050743,2438.0621,N,08037.4816,W,1,9,1.7,15,M,,M,,*51
06/08/2014	05:07:43.762	$GPGGA,050744,2438.0639,N,08037.4815,W,1,9,1.7,15,M,,M,,*5C
06/08/2014	05:07:44.862	$GPGGA,050745,2438.0656,N,08037.4813,W,1,9,1.7,15,M,,M,,*52
06/08/2014	05:07:45.778	$GPGGA,050746,2438.0672,N,08037.4812,W,1,9,1.7,15,M,,M,,*56
06/08/2014	05:07:46.908	$GPGGA,050747,2438.0690,N,08037.4810,W,1,9,1.7,15,M,,M,,*59
06/08/2014	05:07:47.824	$GPGGA,050748,2438.0707,N,08037.4809,W,1,9,1.7,15,M,,M,,*51
06/08/2014	05:07:48.934	$GPGGA,050749,2438.0723,N,08037.4808,W,1,9,1.7,15,M,,M,,*57
06/08/2014	05:07:49.941	$GPGGA,050750,2438.0740,N,08037.4806,W,1,9,1.7,15,M,,M,,*54
06/08/2014	05:07:50.859	$GPGGA,050751,2438.0757,N,08037.4805,W,1,9,1.7,15,M,,M,,*50
06/08/2014	05:07:51.988	$GPGGA,050752,2438.0773,N,08037.4804,W,1,9,1.7,15,M,,M,,*54
06/08/2014	05:07:53.016	$GPGGA,050753,2438.0791,N,08037.4802,W,1,9,1.7,15,M,,M,,*5F
06/08/2014	05:07:53.994	$GPGGA,050754,2438.0808,N,08037.4800,W,1,9,1.7,15,M,,M,,*55
06/08/2014	05:07:55.037	$GPGGA,050755,2438.0824,N,08037.4799,W,1,9,1.7,16,M,,M,,*56
06/08/2014	05:07:56.048	$GPGGA,050756,2438.0842,N,08037.4798,W,1,9,1.7,16,M,,M,,*54
06/08/2014	05:07:57.040	$GPGGA,050757,2438.0859,N,08037.4796,W,1,9,1.7,16,M,,M,,*51
06/08/2014	05:07:58.076	$GPGGA,050758,2438.0876,N,08037.4794,W,1,9,1.7,16,M,,M,,*51
06/08/2014	05:07:59.075	$GPGGA,050759,2438.0892,N,08037.4792,W,1,9,1.7,16,M,,M,,*5C
06/08/2014	05:08:00.101	$GPGGA,050800,2438.0910,N,08037.4791,W,1,9,1.7,16,M,,M,,*57
06/08/2014	05:08:01.134	$GPGGA,050801,2438.0927,N,08037.4789,W,1,9,1.7,16,M,,M,,*5B
06/08/2014	05:08:02.141	$GPGGA,050802,2438.0943,N,08037.4787,W,1,9,1.7,16,M,,M,,*54
06/08/2014	05:08:03.134	$GPGGA,050803,2438.0960,N,08037.4786,W,1,9,1.7,16,M,,M,,*55
06/08/2014	05:08:04.162	$GPGGA,050804,2438.0976,N,08037.4785,W,1,9,1.7,16,M,,M,,*56
06/08/2014	05:08:05.199	$GPGGA,050805,2438.0993,N,08037.4783,W,1,9,1.7,16,M,,M,,*5A
06/08/2014	05:08:06.188	$GPGGA,050806,2438.1011,N,08037.4782,W,1,9,1.7,16,M,,M,,*5A
06/08/2014	05:08:07.216	$GPGGA,050807,2438.1028,N,08037.4781,W,1,9,1.7,16,M,,M,,*52
06/08/2014	05:08:08.246	$GPGGA,050808,2438.1044,N,08037.4780,W,1,9,1.7,16,M,,M,,*56
06/08/2014	05:08:09.262	$GPGGA,050809,2438.1061,N,08037.4779,W,1,9,1.7,16,M,,M,,*56
06/08/2014	05:08:10.270	$GPGGA,050810,2438.1077,N,08037.4778,W,1,9,1.7,16,M,,M,,*58
06/08/2014	05:08:11.257	$GPGGA,050811,2438.1095,N,08037.4776,W,1,9,1.7,16,M,,M,,*5B
06/08/2014	05:08:12.306	$GPGGA,050812,2438.1111,N,08037.4776,W,1,9,1.7,16,M,,M,,*55
06/08/2014	05:08:13.348	$GPGGA,050813,2438.1127,N,08037.4775,W,1,9,1.7,16,M,,M,,*52
06/08/2014	05:08:14.311	$GPGGA,050814,2438.1145,N,08037.4774,W,1,9,1.7,16,M,,M,,*50
06/08/2014	05:08:15.329	$GPGGA,050815,2438.1160,N,08037.4772,W,1,9,1.7,16,M,,M,,*50
06/08/2014	05:08:16.347	$GPGGA,050816,2438.1178,N,08037.4772,W,1,9,1.7,16,M,,M,,*5A
06/08/2014	05:08:17.402	$GPGGA,050817,2438.1195,N,08037.4770,W,1,9,1.7,16,M,,M,,*5A
06/08/2014	05:08:18.494	$GPGGA,050818,2438.1210,N,08037.4769,W,1,9,1.7,16,M,,M,,*53
06/08/2014	05:08:19.411	$GPGGA,050819,2438.1228,N,08037.4768,W,1,9,1.7,16,M,,M,,*58
06/08/2014	05:08:20.429	$GPGGA,050820,2438.1245,N,08037.4767,W,1,9,1.7,15,M,,M,,*55
06/08/2014	05:08:21.538	$GPGGA,050821,2438.1261,N,08037.4766,W,1,9,1.7,15,M,,M,,*53
06/08/2014	05:08:22.566	$GPGGA,050822,2438.1278,N,08037.4765,W,1,9,1.7,15,M,,M,,*5B
06/08/2014	05:08:23.503	$GPGGA,050823,2438.1293,N,08037.4764,W,1,9,1.7,15,M,,M,,*5E
06/08/2014	05:08:24.602	$GPGGA,050824,2438.1311,N,08037.4762,W,1,9,1.7,15,M,,M,,*54
06/08/2014	05:08:25.498	$GPGGA,050825,2438.1326,N,08037.4761,W,1,9,1.7,15,M,,M,,*52
06/08/2014	05:08:26.506	$GPGGA,050826,2438.1344,N,08037.4762,W,1,9,1.7,15,M,,M,,*56
06/08/2014	05:08:27.514	$GPGGA,050827,2438.1359,N,08037.4760,W,1,9,1.7,15,M,,M,,*59
06/08/2014	05:08:28.664	$GPGGA,050828,2438.1376,N,08037.4758,W,1,9,1.7,15,M,,M,,*50
06/08/2014	05:08:29.682	$GPGGA,050829,2438.1393,N,08037.4757,W,1,9,1.7,15,M,,M,,*55
06/08/2014	05:08:30.578	$GPGGA,050830,2438.1409,N,08037.4756,W,1,9,1.7,15,M,,M,,*58
06/08/2014	05:08:31.688	$GPGGA,050831,2438.1426,N,08037.4755,W,1,9,1.7,15,M,,M,,*57
06/08/2014	05:08:32.624	$GPGGA,050832,2438.1442,N,08037.4754,W,1,9,1.7,15,M,,M,,*57
06/08/2014	05:08:33.744	$GPGGA,050833,2438.1459,N,08037.4753,W,1,9,1.7,15,M,,M,,*5B
06/08/2014	05:08:34.731	$GPGGA,050834,2438.1476,N,08037.4752,W,1,9,1.7,15,M,,M,,*50
06/08/2014	05:08:35.647	$GPGGA,050835,2438.1492,N,08037.4751,W,1,9,1.7,15,M,,M,,*58
06/08/2014	05:08:36.675	$GPGGA,050836,2438.1509,N,08037.4750,W,1,9,1.7,15,M,,M,,*59
06/08/2014	05:08:37.776	$GPGGA,050837,2438.1525,N,08037.4748,W,1,9,1.7,15,M,,M,,*5F
06/08/2014	05:08:38.802	$GPGGA,050838,2438.1542,N,08037.4747,W,1,9,1.7,15,M,,M,,*5E
06/08/2014	05:08:38.641	$GPGGA,050839,2438.1559,N,08037.4746,W,1,9,1.7,15,M,,M,,*54
06/08/2014	05:08:39.771	$GPGGA,050840,2438.1575,N,08037.4745,W,1,9,1.7,15,M,,M,,*57
06/08/2014	05:08:40.809	$GPGGA,050841,2438.1590,N,08037.4744,W,1,9,1.7,15,M,,M,,*5C
06/08/2014	05:08:41.777	$GPGGA,050842,2438.1608,N,08037.4742,W,1,9,1.7,15,M,,M,,*5B
06/08/2014	05:08:42.809	$GPGGA,050843,2438.1624,N,08037.4743,W,1,9,1.7,15,M,,M,,*55
06/08/2014	05:08:43.832	$GPGGA,050844,2438.1640,N,08037.4740,W,1,9,1.7,15,M,,M,,*53
06/08/2014	05:08:44.845	$GPGGA,050845,2438.1657,N,08037.4739,W,1,9,1.7,15,M,,M,,*5A
06/08/2014	05:08:45.838	$GPGGA,050846,2438.1673,N,08037.4738,W,1,9,1.7,15,M,,M,,*5E
06/08/2014	05:08:46.877	$GPGGA,050847,2438.1691,N,08037.4736,W,1,8,2.0,15,M,,M,,*58
06/08/2014	05:08:47.894	$GPGGA,050848,2438.1708,N,08037.4735,W,1,8,1.7,15,M,,M,,*51
06/08/2014	05:08:48.882	$GPGGA,050849,2438.1725,N,08037.4734,W,1,9,1.7,15,M,,M,,*5F
06/08/2014	05:08:49.911	$GPGGA,050850,2438.1741,N,08037.4732,W,1,9,1.7,15,M,,M,,*53
06/08/2014	05:08:50.918	$GPGGA,050851,2438.1758,N,08037.4731,W,1,9,1.7,15,M,,M,,*59
06/08/2014	05:08:51.959	$GPGGA,050852,2438.1774,N,08037.4729,W,1,9,1.7,15,M,,M,,*5D
06/08/2014	05:08:52.993	$GPGGA,050853,2438.1792,N,08037.4728,W,1,9,1.7,15,M,,M,,*55
06/08/2014	05:08:53.962	$GPGGA,050854,2438.1807,N,08037.4727,W,1,9,1.7,15,M,,M,,*5E
06/08/2014	05:08:55.022	$GPGGA,050855,2438.1824,N,08037.4725,W,1,9,1.7,15,M,,M,,*5C
06/08/2014	05:08:56.032	$GPGGA,050856,2438.1841,N,08037.4724,W,1,9,1.7,15,M,,M,,*5D
06/08/2014	05:08:57.037	$GPGGA,050857,2438.1857,N,08037.4723,W,1,9,1.7,15,M,,M,,*5C
06/08/2014	05:08:58.032	$GPGGA,050858,2438.1875,N,08037.4721,W,1,9,1.7,15,M,,M,,*51
06/08/2014	05:08:59.087	$GPGGA,050859,2438.1890,N,08037.4720,W,1,9,1.7,15,M,,M,,*5A
06/08/2014	05:09:00.079	$GPGGA,050900,2438.1908,N,08037.4719,W,1,9,1.7,15,M,,M,,*5D
06/08/2014	05:09:01.119	$GPGGA,050901,2438.1924,N,08037.4717,W,1,9,1.7,15,M,,M,,*5C
06/08/2014	05:09:02.104	$GPGGA,050902,2438.1940,N,08037.4716,W,1,9,1.7,15,M,,M,,*5C
06/08/2014	05:09:03.143	$GPGGA,050903,2438.1958,N,08037.4714,W,1,9,1.7,15,M,,M,,*56
06/08/2014	05:09:04.151	$GPGGA,050904,2438.1973,N,08037.4713,W,1,9,1.7,15,M,,M,,*5F
06/08/2014	05:09:05.179	$GPGGA,050905,2438.1991,N,08037.4711,W,1,9,1.7,15,M,,M,,*50
06/08/2014	05:09:06.166	$GPGGA,050906,2438.2008,N,08037.4710,W,1,9,1.7,15,M,,M,,*58
06/08/2014	05:09:07.206	$GPGGA,050907,2438.2025,N,08037.4708,W,1,9,1.7,15,M,,M,,*5F
06/08/2014	05:09:08.202	$GPGGA,050908,2438.2041,N,08037.4706,W,1,9,1.7,15,M,,M,,*5C
06/08/2014	05:09:09.332	$GPGGA,050909,2438.2058,N,08037.4705,W,1,9,1.7,15,M,,M,,*56
06/08/2014	05:09:10.319	$GPGGA,050910,2438.2074,N,08037.4703,W,1,9,1.7,15,M,,M,,*56
06/08/2014	05:09:11.276	$GPGGA,050911,2438.2092,N,08037.4702,W,1,9,1.7,15,M,,M,,*5E
06/08/2014	05:09:12.263	$GPGGA,050912,2438.2109,N,08037.4700,W,1,9,1.7,15,M,,M,,*5C
06/08/2014	05:09:13.322	$GPGGA,050913,2438.2126,N,08037.4699,W,1,9,1.7,15,M,,M,,*51
06/08/2014	05:09:14.279	$GPGGA,050914,2438.2142,N,08037.4697,W,1,9,1.7,15,M,,M,,*5A
06/08/2014	05:09:15.439	$GPGGA,050915,2438.2160,N,08037.4696,W,1,9,1.7,15,M,,M,,*5A
06/08/2014	05:09:16.447	$GPGGA,050916,2438.2177,N,08037.4695,W,1,9,1.7,15,M,,M,,*5C
06/08/2014	05:09:17.446	$GPGGA,050917,2438.2193,N,08037.4693,W,1,9,1.7,15,M,,M,,*51
06/08/2014	05:09:18.473	$GPGGA,050918,2438.2210,N,08037.4692,W,1,9,1.7,15,M,,M,,*57
06/08/2014	05:09:19.501	$GPGGA,050919,2438.2226,N,08037.4691,W,1,9,1.7,15,M,,M,,*50
06/08/2014	05:09:20.397	$GPGGA,050920,2438.2243,N,08037.4690,W,1,9,1.7,15,M,,M,,*58
06/08/2014	05:09:21.425	$GPGGA,050921,2438.2261,N,08037.4688,W,1,9,1.7,15,M,,M,,*50
06/08/2014	05:09:22.413	$GPGGA,050922,2438.2278,N,08037.4687,W,1,9,1.7,15,M,,M,,*54
06/08/2014	05:09:23.451	$GPGGA,050923,2438.2294,N,08037.4686,W,1,9,1.7,15,M,,M,,*56
06/08/2014	05:09:24.581	$GPGGA,050924,2438.2311,N,08037.4684,W,1,9,1.7,15,M,,M,,*5F
06/08/2014	05:09:25.579	$GPGGA,050925,2438.2327,N,08037.4683,W,1,9,1.7,15,M,,M,,*5C
06/08/2014	05:09:26.485	$GPGGA,050926,2438.2345,N,08037.4682,W,1,9,1.7,15,M,,M,,*5A
06/08/2014	05:09:27.604	$GPGGA,050927,2438.2362,N,08037.4681,W,1,9,1.7,15,M,,M,,*5D
06/08/2014	05:09:28.642	$GPGGA,050928,2438.2377,N,08037.4680,W,1,9,1.7,15,M,,M,,*57
06/08/2014	05:09:29.660	$GPGGA,050929,2438.2395,N,08037.4679,W,1,9,1.7,15,M,,M,,*5C
06/08/2014	05:09:30.654	$GPGGA,050930,2438.2410,N,08037.4678,W,1,9,1.7,15,M,,M,,*5F
06/08/2014	05:09:31.675	$GPGGA,050931,2438.2428,N,08037.4677,W,1,9,1.7,15,M,,M,,*5A
06/08/2014	05:09:32.685	$GPGGA,050932,2438.2444,N,08037.4676,W,1,9,1.7,15,M,,M,,*52
06/08/2014	05:09:33.722	$GPGGA,050933,2438.2460,N,08037.4675,W,1,9,1.7,15,M,,M,,*56
06/08/2014	05:09:34.723	$GPGGA,050934,2438.2477,N,08037.4674,W,1,9,1.7,15,M,,M,,*56
06/08/2014	05:09:35.747	$GPGGA,050935,2438.2493,N,08037.4672,W,1,9,1.7,15,M,,M,,*5B
06/08/2014	05:09:36.756	$GPGGA,050936,2438.2510,N,08037.4672,W,1,9,1.7,15,M,,M,,*52
06/08/2014	05:09:37.779	$GPGGA,050937,2438.2527,N,08037.4671,W,1,9,1.7,15,M,,M,,*54
06/08/2014	05:09:38.784	$GPGGA,050938,2438.2543,N,08037.4670,W,1,9,1.7,15,M,,M,,*58
06/08/2014	05:09:38.722	$GPGGA,050939,2438.2560,N,08037.4668,W,1,9,1.7,15,M,,M,,*51
06/08/2014	05:09:39.740	$GPGGA,050940,2438.2576,N,08037.4668,W,1,9,1.7,15,M,,M,,*58
06/08/2014	05:09:40.760	$GPGGA,050941,2438.2593,N,08037.4666,W,1,9,1.7,15,M,,M,,*5C
06/08/2014	05:09:41.766	$GPGGA,050942,2438.2608,N,08037.4665,W,1,9,1.7,15,M,,M,,*5D
06/08/2014	05:09:42.774	$GPGGA,050943,2438.2626,N,08037.4664,W,1,9,1.7,15,M,,M,,*51
06/08/2014	05:09:43.803	$GPGGA,050944,2438.2641,N,08037.4664,W,1,9,1.7,15,M,,M,,*57
06/08/2014	05:09:44.849	$GPGGA,050945,2438.2658,N,08037.4662,W,1,9,1.7,15,M,,M,,*58
06/08/2014	05:09:45.816	$GPGGA,050946,2438.2674,N,08037.4661,W,1,9,1.7,15,M,,M,,*56
06/08/2014	05:09:46.845	$GPGGA,050947,2438.2691,N,08037.4661,W,1,9,1.7,15,M,,M,,*5C
06/08/2014	05:09:47.873	$GPGGA,050948,2438.2708,N,08037.4659,W,1,9,1.7,15,M,,M,,*59
06/08/2014	05:09:48.891	$GPGGA,050949,2438.2724,N,08037.4658,W,1,9,1.7,15,M,,M,,*57
06/08/2014	05:09:49.899	$GPGGA,050950,2438.2741,N,08037.4657,W,1,9,1.7,15,M,,M,,*53
06/08/2014	05:09:50.937	$GPGGA,050951,2438.2757,N,08037.4655,W,1,9,1.7,15,M,,M,,*57
06/08/2014	05:09:51.935	$GPGGA,050952,2438.2775,N,08037.4654,W,1,9,1.7,15,M,,M,,*55
06/08/2014	05:09:52.973	$GPGGA,050953,2438.2791,N,08037.4653,W,1,9,1.7,15,M,,M,,*59
06/08/2014	05:09:53.940	$GPGGA,050954,2438.2807,N,08037.4651,W,1,9,1.7,15,M,,M,,*5C
06/08/2014	05:09:55.000	$GPGGA,050955,2438.2824,N,08037.4650,W,1,9,1.7,15,M,,M,,*5D
06/08/2014	05:09:55.996	$GPGGA,050956,2438.2840,N,08037.4649,W,1,9,1.7,15,M,,M,,*54
06/08/2014	05:09:57.014	$GPGGA,050957,2438.2858,N,08037.4648,W,1,9,1.7,15,M,,M,,*5D
06/08/2014	05:09:58.053	$GPGGA,050958,2438.2875,N,08037.4646,W,1,9,1.7,15,M,,M,,*53
06/08/2014	05:09:59.020	$GPGGA,050959,2438.2892,N,08037.4645,W,1,9,1.7,15,M,,M,,*58
06/08/2014	05:10:00.068	$GPGGA,051000,2438.2908,N,08037.4643,W,1,9,1.7,15,M,,M,,*58
06/08/2014	05:10:01.178	$GPGGA,051001,2438.2926,N,08037.4642,W,1,9,1.7,15,M,,M,,*54
06/08/2014	05:10:02.074	$GPGGA,051002,2438.2941,N,08037.4640,W,1,9,1.7,15,M,,M,,*54
06/08/2014	05:10:03.091	$GPGGA,051003,2438.2959,N,08037.4639,W,1,9,1.7,15,M,,M,,*52
06/08/2014	05:10:04.231	$GPGGA,051004,2438.2976,N,08037.4638,W,1,9,1.7,15,M,,M,,*59
06/08/2014	05:10:05.137	$GPGGA,051005,2438.2991,N,08037.4636,W,1,9,1.7,15,M,,M,,*5F
06/08/2014	05:10:06.237	$GPGGA,051006,2438.3009,N,08037.4634,W,1,9,1.7,15,M,,M,,*57
06/08/2014	05:10:07.265	$GPGGA,051007,2438.3026,N,08037.4633,W,1,9,1.7,15,M,,M,,*5C
06/08/2014	05:10:08.222	$GPGGA,051008,2438.3042,N,08037.4632,W,1,9,1.7,15,M,,M,,*50
06/08/2014	05:10:09.301	$GPGGA,051009,2438.3059,N,08037.4630,W,1,9,1.7,15,M,,M,,*59
06/08/2014	05:10:10.217	$GPGGA,051010,2438.3075,N,08037.4629,W,1,9,1.7,15,M,,M,,*57
06/08/2014	05:10:11.316	$GPGGA,051011,2438.3092,N,08037.4627,W,1,9,1.7,15,M,,M,,*51
06/08/2014	05:10:12.263	$GPGGA,051012,2438.3110,N,08037.4625,W,1,9,1.7,15,M,,M,,*5B
06/08/2014	05:10:13.312	$GPGGA,051013,2438.3125,N,08037.4624,W,1,9,1.7,15,M,,M,,*5D
06/08/2014	05:10:14.360	$GPGGA,051014,2438.3143,N,08037.4623,W,1,9,1.7,15,M,,M,,*5D
06/08/2014	05:10:15.297	$GPGGA,051015,2438.3160,N,08037.4621,W,1,9,1.7,15,M,,M,,*5F
06/08/2014	05:10:16.417	$GPGGA,051016,2438.3176,N,08037.4620,W,1,9,1.7,15,M,,M,,*5A
06/08/2014	05:10:17.445	$GPGGA,051017,2438.3194,N,08037.4619,W,1,9,1.7,15,M,,M,,*5D
06/08/2014	05:10:18.432	$GPGGA,051018,2438.3210,N,08037.4618,W,1,9,1.7,15,M,,M,,*5C
06/08/2014	05:10:19.471	$GPGGA,051019,2438.3228,N,08037.4616,W,1,9,1.7,15,M,,M,,*58
06/08/2014	05:10:20.477	$GPGGA,051020,2438.3244,N,08037.4615,W,1,9,1.7,15,M,,M,,*5B
06/08/2014	05:10:21.465	$GPGGA,051021,2438.3261,N,08037.4614,W,1,9,1.7,15,M,,M,,*5C
06/08/2014	05:10:22.493	$GPGGA,051022,2438.3277,N,08037.4613,W,1,9,1.7,15,M,,M,,*5F
06/08/2014	05:10:23.531	$GPGGA,051023,2438.3294,N,08037.4611,W,1,9,1.7,15,M,,M,,*51
06/08/2014	05:10:24.539	$GPGGA,051024,2438.3311,N,08037.4610,W,1,9,1.7,15,M,,M,,*5B
06/08/2014	05:10:25.557	$GPGGA,051025,2438.3327,N,08037.4610,W,1,9,1.7,15,M,,M,,*5F
06/08/2014	05:10:26.555	$GPGGA,051026,2438.3345,N,08037.4609,W,1,9,1.7,15,M,,M,,*50
06/08/2014	05:10:27.583	$GPGGA,051027,2438.3360,N,08037.4607,W,1,9,1.7,15,M,,M,,*58
06/08/2014	05:10:28.611	$GPGGA,051028,2438.3378,N,08037.4606,W,1,9,1.7,15,M,,M,,*5F
06/08/2014	05:10:29.629	$GPGGA,051029,2438.3395,N,08037.4605,W,1,9,1.7,15,M,,M,,*5E
06/08/2014	05:10:30.617	$GPGGA,051030,2438.3410,N,08037.4604,W,1,9,1.7,15,M,,M,,*5D
06/08/2014	05:10:31.657	$GPGGA,051031,2438.3427,N,08037.4603,W,1,9,1.7,15,M,,M,,*5F
06/08/2014	05:10:32.663	$GPGGA,051032,2438.3443,N,08037.4602,W,1,9,1.7,15,M,,M,,*5F
06/08/2014	05:10:33.660	$GPGGA,051033,2438.3461,N,08037.4601,W,1,9,1.7,15,M,,M,,*5D
06/08/2014	05:10:34.689	$GPGGA,051034,2438.3478,N,08037.4600,W,1,9,1.7,15,M,,M,,*53
06/08/2014	05:10:35.713	$GPGGA,051035,2438.3493,N,08037.4599,W,1,9,1.7,15,M,,M,,*54
06/08/2014	05:10:36.711	$GPGGA,051036,2438.3511,N,08037.4598,W,1,9,1.7,15,M,,M,,*5D
06/08/2014	05:10:37.708	$GPGGA,051037,2438.3526,N,08037.4597,W,1,9,1.7,15,M,,M,,*57
06/08/2014	05:10:38.727	$GPGGA,051038,2438.3544,N,08037.4596,W,1,9,1.7,15,M,,M,,*5D
06/08/2014	05:10:38.712	$GPGGA,051039,2438.3561,N,08037.4596,W,1,9,1.7,15,M,,M,,*5B
06/08/2014	05:10:39.690	$GPGGA,051040,2438.3577,N,08037.4594,W,1,9,1.7,15,M,,M,,*50
06/08/2014	05:10:40.718	$GPGGA,051041,2438.3594,N,08037.4593,W,1,9,1.7,15,M,,M,,*5B
06/08/2014	05:10:41.686	$GPGGA,051042,2438.3609,N,08037.4593,W,1,9,1.7,15,M,,M,,*5F
06/08/2014	05:10:42.724	$GPGGA,051043,2438.3626,N,08037.4592,W,1,9,1.7,15,M,,M,,*52
06/08/2014	05:10:43.712	$GPGGA,051044,2438.3642,N,08037.4591,W,1,9,1.7,15,M,,M,,*54
06/08/2014	05:10:44.720	$GPGGA,051045,2438.3659,N,08037.4590,W,1,9,1.7,15,M,,M,,*5E
06/08/2014	05:10:45.718	$GPGGA,051046,2438.3674,N,08037.4589,W,1,9,1.7,15,M,,M,,*5A
06/08/2014	05:10:46.747	$GPGGA,051047,2438.3692,N,08037.4588,W,1,9,1.7,15,M,,M,,*52
06/08/2014	05:10:47.765	$GPGGA,051048,2438.3707,N,08037.4587,W,1,9,1.7,15,M,,M,,*5F
06/08/2014	05:10:48.733	$GPGGA,051049,2438.3724,N,08037.4586,W,1,9,1.7,15,M,,M,,*5E
06/08/2014	05:10:49.751	$GPGGA,051050,2438.3739,N,08037.4585,W,1,9,1.7,15,M,,M,,*59
06/08/2014	05:10:50.739	$GPGGA,051051,2438.3757,N,08037.4583,W,1,9,1.7,15,M,,M,,*56
06/08/2014	05:10:51.757	$GPGGA,051052,2438.3772,N,08037.4582,W,1,9,1.7,15,M,,M,,*53
06/08/2014	05:10:52.765	$GPGGA,051053,2438.3790,N,08037.4581,W,1,9,1.7,15,M,,M,,*5D
06/08/2014	05:10:53.884	$GPGGA,051054,2438.3806,N,08037.4580,W,1,9,1.7,15,M,,M,,*5B
06/08/2014	05:10:54.881	$GPGGA,051055,2438.3822,N,08037.4579,W,1,9,1.7,15,M,,M,,*5A
06/08/2014	05:10:55.909	$GPGGA,051056,2438.3839,N,08037.4577,W,1,9,1.7,15,M,,M,,*5D
06/08/2014	05:10:56.907	$GPGGA,051057,2438.3855,N,08037.4576,W,1,9,1.7,15,M,,M,,*57
06/08/2014	05:10:57.814	$GPGGA,051058,2438.3872,N,08037.4575,W,1,9,1.7,15,M,,M,,*5E
06/08/2014	05:10:58.792	$GPGGA,051059,2438.3889,N,08037.4574,W,1,9,1.7,15,M,,M,,*5A
06/08/2014	05:10:59.932	$GPGGA,051100,2438.3905,N,08037.4572,W,1,9,1.7,15,M,,M,,*54
06/08/2014	05:11:00.819	$GPGGA,051101,2438.3922,N,08037.4571,W,1,9,1.7,15,M,,M,,*53
06/08/2014	05:11:01.917	$GPGGA,051102,2438.3938,N,08037.4570,W,1,9,1.7,15,M,,M,,*5A
06/08/2014	05:11:02.915	$GPGGA,051103,2438.3955,N,08037.4568,W,1,9,1.7,15,M,,M,,*59
06/08/2014	05:11:03.843	$GPGGA,051104,2438.3971,N,08037.4567,W,1,9,1.7,15,M,,M,,*57
06/08/2014	05:11:04.932	$GPGGA,051105,2438.3988,N,08037.4565,W,1,9,1.7,15,M,,M,,*52
06/08/2014	05:11:05.940	$GPGGA,051106,2438.4005,N,08037.4564,W,1,9,1.7,15,M,,M,,*5B
06/08/2014	05:11:06.978	$GPGGA,051107,2438.4021,N,08037.4562,W,1,9,1.7,15,M,,M,,*5A
06/08/2014	05:11:07.956	$GPGGA,051108,2438.4038,N,08037.4561,W,1,9,1.7,15,M,,M,,*5E
06/08/2014	05:11:08.954	$GPGGA,051109,2438.4054,N,08037.4560,W,1,9,1.7,15,M,,M,,*54
06/08/2014	05:11:09.962	$GPGGA,051110,2438.4072,N,08037.4558,W,1,9,1.7,15,M,,M,,*53
06/08/2014	05:11:10.960	$GPGGA,051111,2438.4088,N,08037.4557,W,1,9,1.7,15,M,,M,,*58
06/08/2014	05:11:11.977	$GPGGA,051112,2438.4104,N,08037.4555,W,1,9,1.7,15,M,,M,,*5C
06/08/2014	05:11:12.995	$GPGGA,051113,2438.4122,N,08037.4554,W,1,9,1.7,15,M,,M,,*58
06/08/2014	05:11:13.983	$GPGGA,051114,2438.4139,N,08037.4553,W,1,9,1.7,15,M,,M,,*52
06/08/2014	05:11:15.012	$GPGGA,051115,2438.4155,N,08037.4551,W,1,9,1.7,15,M,,M,,*5B
06/08/2014	05:11:16.010	$GPGGA,051116,2438.4173,N,08037.4549,W,1,9,1.7,15,M,,M,,*55
06/08/2014	05:11:16.998	$GPGGA,051117,2438.4189,N,08037.4548,W,1,9,1.7,15,M,,M,,*50
06/08/2014	05:11:18.007	$GPGGA,051118,2438.4205,N,08037.4547,W,1,9,1.7,15,M,,M,,*57
06/08/2014	05:11:19.039	$GPGGA,051119,2438.4223,N,08037.4546,W,1,9,1.7,15,M,,M,,*53
06/08/2014	05:11:20.032	$GPGGA,051120,2438.4238,N,08037.4545,W,1,9,1.7,15,M,,M,,*50
06/08/2014	05:11:21.054	$GPGGA,051121,2438.4256,N,08037.4544,W,1,9,1.7,15,M,,M,,*58
06/08/2014	05:11:22.028	$GPGGA,051122,2438.4272,N,08037.4543,W,1,9,1.7,15,M,,M,,*5A
06/08/2014	05:11:23.056	$GPGGA,051123,2438.4288,N,08037.4542,W,1,9,1.7,15,M,,M,,*5F
06/08/2014	05:11:24.064	$GPGGA,051124,2438.4306,N,08037.4541,W,1,9,1.7,15,M,,M,,*5C
06/08/2014	05:11:25.073	$GPGGA,051125,2438.4321,N,08037.4540,W,1,9,1.7,15,M,,M,,*59
06/08/2014	05:11:26.050	$GPGGA,051126,2438.4339,N,08037.4539,W,1,9,1.7,15,M,,M,,*5D
06/08/2014	05:11:27.080	$GPGGA,051127,2438.4355,N,08037.4538,W,1,9,1.7,15,M,,M,,*57
06/08/2014	05:11:28.087	$GPGGA,051128,2438.4371,N,08037.4536,W,1,9,1.7,15,M,,M,,*50
06/08/2014	05:11:29.065	$GPGGA,051129,2438.4388,N,08037.4535,W,1,9,1.7,15,M,,M,,*54
06/08/2014	05:11:30.072	$GPGGA,051130,2438.4404,N,08037.4534,W,1,9,1.7,15,M,,M,,*5E
06/08/2014	05:11:31.090	$GPGGA,051131,2438.4422,N,08037.4533,W,1,9,1.7,15,M,,M,,*5C
06/08/2014	05:11:32.098	$GPGGA,051132,2438.4437,N,08037.4531,W,1,9,1.7,15,M,,M,,*59
06/08/2014	05:11:33.106	$GPGGA,051133,2438.4454,N,08037.4531,W,1,9,1.7,15,M,,M,,*5D
06/08/2014	05:11:34.114	$GPGGA,051134,2438.4471,N,08037.4530,W,1,9,1.7,15,M,,M,,*5C
06/08/2014	05:11:35.233	$GPGGA,051135,2438.4487,N,08037.4529,W,1,9,1.7,15,M,,M,,*5C
06/08/2014	05:11:36.141	$GPGGA,051136,2438.4504,N,08037.4528,W,1,9,1.7,15,M,,M,,*54
06/08/2014	05:11:37.118	$GPGGA,051137,2438.4520,N,08037.4527,W,1,9,1.7,15,M,,M,,*5C
06/08/2014	05:11:38.147	$GPGGA,051138,2438.4536,N,08037.4526,W,1,9,1.7,15,M,,M,,*55
06/08/2014	05:11:38.762	$GPGGA,051139,2438.4552,N,08037.4525,W,1,9,1.7,15,M,,M,,*55
06/08/2014	05:11:39.670	$GPGGA,051140,2438.4569,N,08037.4524,W,1,9,1.7,15,M,,M,,*52
06/08/2014	05:11:40.678	$GPGGA,051141,2438.4585,N,08037.4523,W,1,9,1.7,15,M,,M,,*56
06/08/2014	05:11:41.767	$GPGGA,051142,2438.4602,N,08037.4521,W,1,9,1.7,15,M,,M,,*5B
06/08/2014	05:11:42.775	$GPGGA,051143,2438.4617,N,08037.4520,W,1,9,1.7,15,M,,M,,*5F
06/08/2014	05:11:43.793	$GPGGA,051144,2438.4634,N,08037.4519,W,1,9,1.7,15,M,,M,,*53
06/08/2014	05:11:44.690	$GPGGA,051145,2438.4650,N,08037.4518,W,1,9,1.7,15,M,,M,,*51
06/08/2014	05:11:45.789	$GPGGA,051146,2438.4667,N,08037.4517,W,1,9,1.7,14,M,,M,,*58
06/08/2014	05:11:46.836	$GPGGA,051147,2438.4682,N,08037.4516,W,1,9,1.7,14,M,,M,,*53
06/08/2014	05:11:47.814	$GPGGA,051148,2438.4699,N,08037.4515,W,1,9,1.7,14,M,,M,,*55
