Software Version Number: 1	Data File Format Number: 1	Build Version Number: 1	Error Count Since VI Started: 0	Manufacturer: Raytheon	 Model Number: RayMarine 120	 S/N: 	 Cal Date: 	 Wind Direction Offset: 0.00	 Slope (M)1: 0.00	 Offset (B)1: 0.00	 Slope (M)2: 0.00	 Offset (B)2: 0.00	 Slope (M)3: 0.00	 Offset (B)3: 0.00	 Slope (M)4: 0.00	 Offset (B)4: 0.00	 Slope (M)5: 0.00	 Offset (B)5: 0.00	 Slope (M)6: 0.00	 Offset (B)6: 0.00
Computer Date	Computer Time	GGA String
06/09/2014	08:00:00.684	$GPGGA,080001,2508.6346,N,08009.4758,W,1,9,1.5,15,M,,M,,*57
06/09/2014	08:00:01.723	$GPGGA,080002,2508.6345,N,08009.4759,W,1,9,1.5,15,M,,M,,*56
06/09/2014	08:00:02.684	$GPGGA,080003,2508.6344,N,08009.4762,W,1,9,1.5,15,M,,M,,*5E
06/09/2014	08:00:03.679	$GPGGA,080004,2508.6342,N,08009.4763,W,1,9,1.5,15,M,,M,,*5E
06/09/2014	08:00:04.664	$GPGGA,080005,2508.6343,N,08009.4766,W,1,9,1.5,15,M,,M,,*5B
06/09/2014	08:00:05.679	$GPGGA,080006,2508.6341,N,08009.4769,W,1,9,1.7,15,M,,M,,*57
06/09/2014	08:00:06.704	$GPGGA,080007,2508.6340,N,08009.4772,W,1,9,1.5,15,M,,M,,*5F
06/09/2014	08:00:07.679	$GPGGA,080008,2508.6340,N,08009.4773,W,1,9,1.5,15,M,,M,,*51
06/09/2014	08:00:08.714	$GPGGA,080009,2508.6338,N,08009.4776,W,1,9,1.5,15,M,,M,,*5A
06/09/2014	08:00:09.679	$GPGGA,080010,2508.6337,N,08009.4777,W,1,9,1.5,15,M,,M,,*5C
06/09/2014	08:00:10.684	$GPGGA,080011,2508.6335,N,08009.4780,W,1,9,1.5,15,M,,M,,*57
06/09/2014	08:00:11.710	$GPGGA,080012,2508.6334,N,08009.4781,W,1,9,1.5,15,M,,M,,*54
06/09/2014	08:00:12.715	$GPGGA,080013,2508.6333,N,08009.4783,W,1,8,1.7,15,M,,M,,*53
06/09/2014	08:00:13.698	$GPGGA,080014,2508.6333,N,08009.4787,W,1,8,1.7,15,M,,M,,*50
06/09/2014	08:00:14.703	$GPGGA,080015,2508.6333,N,08009.4790,W,1,9,1.5,15,M,,M,,*54
06/09/2014	08:00:15.718	$GPGGA,080016,2508.6333,N,08009.4794,W,1,9,1.5,14,M,,M,,*52
06/09/2014	08:00:16.723	$GPGGA,080017,2508.6330,N,08009.4795,W,1,9,1.5,14,M,,M,,*51
06/09/2014	08:00:17.728	$GPGGA,080018,2508.6328,N,08009.4796,W,1,9,1.7,14,M,,M,,*56
06/09/2014	08:00:18.708	$GPGGA,080019,2508.6326,N,08009.4798,W,1,8,1.7,14,M,,M,,*56
06/09/2014	08:00:19.728	$GPGGA,080020,2508.6326,N,08009.4801,W,1,8,1.7,14,M,,M,,*53
06/09/2014	08:00:20.743	$GPGGA,080021,2508.6324,N,08009.4802,W,1,9,1.5,14,M,,M,,*50
06/09/2014	08:00:21.810	$GPGGA,080022,2508.6323,N,08009.4805,W,1,9,1.7,14,M,,M,,*51
06/09/2014	08:00:22.743	$GPGGA,080023,2508.6320,N,08009.4806,W,1,9,1.5,14,M,,M,,*52
06/09/2014	08:00:23.728	$GPGGA,080024,2508.6321,N,08009.4809,W,1,9,1.5,14,M,,M,,*5B
06/09/2014	08:00:24.743	$GPGGA,080025,2508.6319,N,08009.4810,W,1,9,1.5,14,M,,M,,*59
06/09/2014	08:00:25.718	$GPGGA,080026,2508.6316,N,08009.4812,W,1,9,1.5,14,M,,M,,*57
06/09/2014	08:00:26.853	$GPGGA,080027,2508.6315,N,08009.4813,W,1,8,1.7,14,M,,M,,*57
06/09/2014	08:00:27.738	$GPGGA,080028,2508.6315,N,08009.4816,W,1,8,1.7,14,M,,M,,*5D
06/09/2014	08:00:28.733	$GPGGA,080029,2508.6315,N,08009.4819,W,1,9,1.5,14,M,,M,,*50
06/09/2014	08:00:29.758	$GPGGA,080030,2508.6311,N,08009.4820,W,1,9,1.5,14,M,,M,,*56
06/09/2014	08:00:30.842	$GPGGA,080031,2508.6309,N,08009.4823,W,1,8,1.7,13,M,,M,,*59
06/09/2014	08:00:31.767	$GPGGA,080032,2508.6308,N,08009.4822,W,1,8,1.7,13,M,,M,,*5A
06/09/2014	08:00:32.752	$GPGGA,080033,2508.6305,N,08009.4824,W,1,9,1.5,13,M,,M,,*53
06/09/2014	08:00:33.858	$GPGGA,080034,2508.6306,N,08009.4827,W,1,9,1.7,13,M,,M,,*56
06/09/2014	08:00:34.862	$GPGGA,080035,2508.6303,N,08009.4828,W,1,9,1.5,13,M,,M,,*5F
06/09/2014	08:00:35.867	$GPGGA,080036,2508.6302,N,08009.4830,W,1,9,1.7,13,M,,M,,*56
06/09/2014	08:00:36.762	$GPGGA,080037,2508.6301,N,08009.4831,W,1,9,1.5,13,M,,M,,*57
06/09/2014	08:00:37.877	$GPGGA,080038,2508.6298,N,08009.4832,W,1,9,1.7,13,M,,M,,*58
06/09/2014	08:00:38.852	$GPGGA,080039,2508.6300,N,08009.4835,W,1,8,1.7,13,M,,M,,*5F
06/09/2014	08:00:39.579	$GPGGA,080040,2508.6299,N,08009.4838,W,1,8,1.5,13,M,,M,,*5F
06/09/2014	08:00:40.584	$GPGGA,080041,2508.6300,N,08009.4842,W,1,9,1.5,13,M,,M,,*53
06/09/2014	08:00:41.579	$GPGGA,080042,2508.6298,N,08009.4844,W,1,9,1.5,13,M,,M,,*56
06/09/2014	08:00:42.594	$GPGGA,080043,2508.6297,N,08009.4846,W,1,9,1.5,13,M,,M,,*5A
06/09/2014	08:00:43.599	$GPGGA,080044,2508.6294,N,08009.4846,W,1,9,1.5,13,M,,M,,*5E
06/09/2014	08:00:44.584	$GPGGA,080045,2508.6294,N,08009.4850,W,1,8,1.7,13,M,,M,,*5B
06/09/2014	08:00:45.599	$GPGGA,080046,2508.6293,N,08009.4853,W,1,8,1.5,13,M,,M,,*5E
06/09/2014	08:00:46.614	$GPGGA,080047,2508.6291,N,08009.4855,W,1,9,1.5,12,M,,M,,*5B
06/09/2014	08:00:47.609	$GPGGA,080048,2508.6290,N,08009.4857,W,1,9,1.5,12,M,,M,,*57
06/09/2014	08:00:48.593	$GPGGA,080049,2508.6288,N,08009.4859,W,1,9,1.5,12,M,,M,,*51
06/09/2014	08:00:49.598	$GPGGA,080050,2508.6286,N,08009.4860,W,1,9,1.5,12,M,,M,,*5D
06/09/2014	08:00:50.623	$GPGGA,080051,2508.6284,N,08009.4861,W,1,9,1.5,12,M,,M,,*5F
06/09/2014	08:00:51.628	$GPGGA,080052,2508.6283,N,08009.4863,W,1,9,1.5,12,M,,M,,*59
06/09/2014	08:00:52.643	$GPGGA,080053,2508.6281,N,08009.4866,W,1,9,1.5,12,M,,M,,*5F
06/09/2014	08:00:53.618	$GPGGA,080054,2508.6279,N,08009.4866,W,1,9,1.5,12,M,,M,,*5F
06/09/2014	08:00:54.643	$GPGGA,080055,2508.6277,N,08009.4867,W,1,9,1.5,12,M,,M,,*51
06/09/2014	08:00:55.628	$GPGGA,080056,2508.6275,N,08009.4870,W,1,9,1.5,11,M,,M,,*55
06/09/2014	08:00:56.613	$GPGGA,080057,2508.6272,N,08009.4870,W,1,9,1.5,11,M,,M,,*53
06/09/2014	08:00:57.618	$GPGGA,080058,2508.6270,N,08009.4871,W,1,9,1.5,11,M,,M,,*5F
06/09/2014	08:00:58.644	$GPGGA,080059,2508.6268,N,08009.4873,W,1,9,1.5,11,M,,M,,*55
06/09/2014	08:00:59.658	$GPGGA,080100,2508.6265,N,08009.4874,W,1,9,1.7,11,M,,M,,*50
06/09/2014	08:01:00.653	$GPGGA,080101,2508.6262,N,08009.4874,W,1,9,1.5,11,M,,M,,*54
06/09/2014	08:01:01.628	$GPGGA,080102,2508.6259,N,08009.4877,W,1,9,1.5,11,M,,M,,*5C
06/09/2014	08:01:02.764	$GPGGA,080103,2508.6257,N,08009.4878,W,1,9,1.5,11,M,,M,,*5C
06/09/2014	08:01:03.638	$GPGGA,080104,2508.6255,N,08009.4879,W,1,9,1.5,11,M,,M,,*58
06/09/2014	08:01:04.663	$GPGGA,080105,2508.6254,N,08009.4881,W,1,9,1.5,11,M,,M,,*5F
06/09/2014	08:01:05.637	$GPGGA,080106,2508.6251,N,08009.4881,W,1,9,1.5,11,M,,M,,*59
06/09/2014	08:01:06.642	$GPGGA,080107,2508.6248,N,08009.4881,W,1,9,1.5,11,M,,M,,*50
06/09/2014	08:01:07.777	$GPGGA,080108,2508.6245,N,08009.4882,W,1,9,1.5,11,M,,M,,*51
06/09/2014	08:01:08.783	$GPGGA,080109,2508.6243,N,08009.4884,W,1,9,1.5,11,M,,M,,*50
06/09/2014	08:01:09.667	$GPGGA,080110,2508.6241,N,08009.4884,W,1,9,1.5,11,M,,M,,*5A
06/09/2014	08:01:10.772	$GPGGA,080111,2508.6238,N,08009.4885,W,1,9,1.5,11,M,,M,,*54
06/09/2014	08:01:11.677	$GPGGA,080112,2508.6236,N,08009.4886,W,1,9,1.5,11,M,,M,,*5A
06/09/2014	08:01:12.682	$GPGGA,080113,2508.6234,N,08009.4886,W,1,8,1.7,11,M,,M,,*5A
06/09/2014	08:01:13.768	$GPGGA,080114,2508.6232,N,08009.4888,W,1,8,1.5,11,M,,M,,*57
06/09/2014	08:01:14.672	$GPGGA,080115,2508.6228,N,08009.4888,W,1,9,1.5,11,M,,M,,*5C
06/09/2014	08:01:15.677	$GPGGA,080116,2508.6225,N,08009.4889,W,1,9,1.5,12,M,,M,,*50
06/09/2014	08:01:16.673	$GPGGA,080117,2508.6221,N,08009.4891,W,1,9,1.5,12,M,,M,,*5C
06/09/2014	08:01:17.787	$GPGGA,080118,2508.6218,N,08009.4892,W,1,9,1.5,12,M,,M,,*5A
06/09/2014	08:01:18.802	$GPGGA,080119,2508.6216,N,08009.4891,W,1,9,1.5,12,M,,M,,*56
06/09/2014	08:01:19.809	$GPGGA,080120,2508.6214,N,08009.4892,W,1,9,1.8,12,M,,M,,*50
06/09/2014	08:01:20.802	$GPGGA,080121,2508.6211,N,08009.4892,W,1,8,1.8,12,M,,M,,*55
06/09/2014	08:01:21.787	$GPGGA,080122,2508.6208,N,08009.4892,W,1,8,1.5,12,M,,M,,*53
06/09/2014	08:01:22.801	$GPGGA,080123,2508.6205,N,08009.4892,W,1,9,1.5,12,M,,M,,*5E
06/09/2014	08:01:23.819	$GPGGA,080124,2508.6203,N,08009.4892,W,1,9,1.8,12,M,,M,,*52
06/09/2014	08:01:24.801	$GPGGA,080125,2508.6199,N,08009.4892,W,1,8,1.8,13,M,,M,,*53
06/09/2014	08:01:25.796	$GPGGA,080126,2508.6197,N,08009.4893,W,1,8,1.5,13,M,,M,,*52
06/09/2014	08:01:26.821	$GPGGA,080127,2508.6194,N,08009.4893,W,1,9,1.5,13,M,,M,,*51
06/09/2014	08:01:27.846	$GPGGA,080128,2508.6192,N,08009.4895,W,1,9,1.5,13,M,,M,,*5E
06/09/2014	08:01:28.833	$GPGGA,080129,2508.6190,N,08009.4894,W,1,9,1.5,13,M,,M,,*5C
06/09/2014	08:01:29.816	$GPGGA,080130,2508.6189,N,08009.4895,W,1,9,1.5,13,M,,M,,*5D
06/09/2014	08:01:30.831	$GPGGA,080131,2508.6185,N,08009.4895,W,1,9,1.5,13,M,,M,,*50
06/09/2014	08:01:31.826	$GPGGA,080132,2508.6183,N,08009.4895,W,1,9,1.5,13,M,,M,,*55
06/09/2014	08:01:32.831	$GPGGA,080133,2508.6181,N,08009.4895,W,1,9,1.5,14,M,,M,,*51
06/09/2014	08:01:33.826	$GPGGA,080134,2508.6178,N,08009.4895,W,1,9,1.5,14,M,,M,,*50
06/09/2014	08:01:34.841	$GPGGA,080135,2508.6176,N,08009.4895,W,1,9,1.5,14,M,,M,,*5F
06/09/2014	08:01:35.836	$GPGGA,080136,2508.6174,N,08009.4895,W,1,9,1.5,14,M,,M,,*5E
06/09/2014	08:01:36.851	$GPGGA,080137,2508.6171,N,08009.4894,W,1,9,1.5,14,M,,M,,*5B
06/09/2014	08:01:37.838	$GPGGA,080138,2508.6169,N,08009.4895,W,1,9,1.5,14,M,,M,,*5C
06/09/2014	08:01:38.891	$GPGGA,080139,2508.6167,N,08009.4894,W,1,9,1.5,14,M,,M,,*52
06/09/2014	08:01:39.583	$GPGGA,080140,2508.6164,N,08009.4895,W,1,9,1.5,14,M,,M,,*5E
06/09/2014	08:01:40.636	$GPGGA,080141,2508.6162,N,08009.4894,W,1,9,1.5,14,M,,M,,*58
06/09/2014	08:01:41.669	$GPGGA,080142,2508.6160,N,08009.4893,W,1,9,1.5,14,M,,M,,*5E
06/09/2014	08:01:42.703	$GPGGA,080143,2508.6157,N,08009.4893,W,1,9,1.5,14,M,,M,,*5B
06/09/2014	08:01:43.778	$GPGGA,080144,2508.6156,N,08009.4893,W,1,9,1.5,14,M,,M,,*5D
06/09/2014	08:01:44.864	$GPGGA,080145,2508.6152,N,08009.4893,W,1,9,1.5,14,M,,M,,*58
06/09/2014	08:01:45.981	$GPGGA,080146,2508.6150,N,08009.4893,W,1,9,1.5,15,M,,M,,*58
06/09/2014	08:01:46.951	$GPGGA,080147,2508.6147,N,08009.4893,W,1,9,1.5,15,M,,M,,*5F
06/09/2014	08:01:47.985	$GPGGA,080148,2508.6144,N,08009.4892,W,1,9,1.5,15,M,,M,,*52
06/09/2014	08:01:49.049	$GPGGA,080149,2508.6142,N,08009.4892,W,1,9,1.5,15,M,,M,,*55
06/09/2014	08:01:50.069	$GPGGA,080150,2508.6139,N,08009.4892,W,1,9,1.5,15,M,,M,,*51
06/09/2014	08:01:51.142	$GPGGA,080151,2508.6138,N,08009.4892,W,1,9,1.5,15,M,,M,,*51
06/09/2014	08:01:52.318	$GPGGA,080152,2508.6134,N,08009.4892,W,1,9,1.5,15,M,,M,,*5E
06/09/2014	08:01:53.338	$GPGGA,080153,2508.6132,N,08009.4892,W,1,9,1.5,15,M,,M,,*59
06/09/2014	08:01:54.383	$GPGGA,080154,2508.6129,N,08009.4892,W,1,9,1.5,15,M,,M,,*54
06/09/2014	08:01:55.460	$GPGGA,080155,2508.6127,N,08009.4892,W,1,9,1.5,15,M,,M,,*5B
06/09/2014	08:01:56.419	$GPGGA,080156,2508.6125,N,08009.4892,W,1,9,1.5,15,M,,M,,*5A
06/09/2014	08:01:57.443	$GPGGA,080157,2508.6122,N,08009.4891,W,1,9,1.5,15,M,,M,,*5F
06/09/2014	08:01:58.605	$GPGGA,080158,2508.6120,N,08009.4892,W,1,9,1.5,15,M,,M,,*51
06/09/2014	08:01:59.676	$GPGGA,080159,2508.6117,N,08009.4891,W,1,9,1.5,15,M,,M,,*57
06/09/2014	08:02:00.656	$GPGGA,080200,2508.6115,N,08009.4892,W,1,9,1.5,15,M,,M,,*59
06/09/2014	08:02:01.668	$GPGGA,080201,2508.6113,N,08009.4891,W,1,9,1.5,15,M,,M,,*5D
06/09/2014	08:02:02.796	$GPGGA,080202,2508.6110,N,08009.4892,W,1,9,1.5,15,M,,M,,*5E
06/09/2014	08:02:03.765	$GPGGA,080203,2508.6107,N,08009.4891,W,1,9,1.5,15,M,,M,,*5A
06/09/2014	08:02:04.921	$GPGGA,080204,2508.6104,N,08009.4892,W,1,9,1.5,15,M,,M,,*5D
06/09/2014	08:02:05.875	$GPGGA,080205,2508.6102,N,08009.4890,W,1,9,1.5,15,M,,M,,*58
06/09/2014	08:02:07.014	$GPGGA,080206,2508.6100,N,08009.4891,W,1,9,1.5,15,M,,M,,*58
06/09/2014	08:02:07.974	$GPGGA,080207,2508.6097,N,08009.4890,W,1,9,1.5,15,M,,M,,*57
06/09/2014	08:02:09.155	$GPGGA,080208,2508.6095,N,08009.4889,W,1,9,1.7,16,M,,M,,*53
06/09/2014	08:02:10.166	$GPGGA,080209,2508.6091,N,08009.4891,W,1,8,1.7,16,M,,M,,*5E
06/09/2014	08:02:11.220	$GPGGA,080210,2508.6087,N,08009.4890,W,1,8,1.5,16,M,,M,,*52
06/09/2014	08:02:12.264	$GPGGA,080211,2508.6084,N,08009.4892,W,1,9,1.5,16,M,,M,,*53
06/09/2014	08:02:13.339	$GPGGA,080212,2508.6082,N,08009.4890,W,1,9,1.5,16,M,,M,,*54
06/09/2014	08:02:14.383	$GPGGA,080213,2508.6079,N,08009.4891,W,1,9,1.5,16,M,,M,,*50
06/09/2014	08:02:15.438	$GPGGA,080214,2508.6077,N,08009.4889,W,1,9,1.5,16,M,,M,,*50
06/09/2014	08:02:16.503	$GPGGA,080215,2508.6074,N,08009.4889,W,1,9,1.5,16,M,,M,,*52
06/09/2014	08:02:17.556	$GPGGA,080216,2508.6073,N,08009.4888,W,1,9,1.5,16,M,,M,,*57
06/09/2014	08:02:18.610	$GPGGA,080217,2508.6070,N,08009.4887,W,1,9,1.5,16,M,,M,,*5A
06/09/2014	08:02:19.633	$GPGGA,080218,2508.6068,N,08009.4886,W,1,9,1.5,16,M,,M,,*5D
06/09/2014	08:02:20.708	$GPGGA,080219,2508.6066,N,08009.4885,W,1,9,1.5,16,M,,M,,*51
06/09/2014	08:02:21.762	$GPGGA,080220,2508.6064,N,08009.4884,W,1,9,1.7,16,M,,M,,*5A
06/09/2014	08:02:22.785	$GPGGA,080221,2508.6062,N,08009.4884,W,1,8,1.7,16,M,,M,,*5C
06/09/2014	08:02:23.850	$GPGGA,080222,2508.6060,N,08009.4883,W,1,8,1.7,16,M,,M,,*5A
06/09/2014	08:02:24.894	$GPGGA,080223,2508.6057,N,08009.4882,W,1,8,1.7,16,M,,M,,*5E
06/09/2014	08:02:25.958	$GPGGA,080224,2508.6055,N,08009.4881,W,1,8,1.7,16,M,,M,,*58
06/09/2014	08:02:27.023	$GPGGA,080225,2508.6053,N,08009.4880,W,1,7,2.0,16,M,,M,,*55
06/09/2014	08:02:28.056	$GPGGA,080226,2508.6050,N,08009.4878,W,1,7,2.0,16,M,,M,,*52
06/09/2014	08:02:29.142	$GPGGA,080227,2508.6048,N,08009.4877,W,1,9,1.5,16,M,,M,,*5D
06/09/2014	08:02:30.165	$GPGGA,080228,2508.6044,N,08009.4875,W,1,9,1.5,16,M,,M,,*5C
06/09/2014	08:02:31.230	$GPGGA,080229,2508.6041,N,08009.4875,W,1,9,1.5,16,M,,M,,*58
06/09/2014	08:02:32.253	$GPGGA,080230,2508.6038,N,08009.4873,W,1,9,1.5,16,M,,M,,*58
06/09/2014	08:02:33.328	$GPGGA,080231,2508.6035,N,08009.4872,W,1,9,1.5,16,M,,M,,*55
06/09/2014	08:02:34.372	$GPGGA,080232,2508.6033,N,08009.4871,W,1,9,1.5,16,M,,M,,*53
06/09/2014	08:02:35.435	$GPGGA,080233,2508.6030,N,08009.4870,W,1,9,1.5,16,M,,M,,*50
06/09/2014	08:02:36.456	$GPGGA,080234,2508.6027,N,08009.4869,W,1,9,1.5,16,M,,M,,*59
06/09/2014	08:02:37.534	$GPGGA,080235,2508.6024,N,08009.4868,W,1,9,1.5,17,M,,M,,*5B
06/09/2014	08:02:38.598	$GPGGA,080236,2508.6022,N,08009.4867,W,1,9,1.5,17,M,,M,,*51
06/09/2014	08:02:39.621	$GPGGA,080237,2508.6019,N,08009.4866,W,1,9,1.5,17,M,,M,,*59
06/09/2014	08:02:40.802	$GPGGA,080238,2508.6017,N,08009.4865,W,1,9,1.5,17,M,,M,,*5B
06/09/2014	08:02:41.846	$GPGGA,080239,2508.6015,N,08009.4864,W,1,9,1.5,17,M,,M,,*59
06/09/2014	08:02:39.539	$GPGGA,080240,2508.6012,N,08009.4863,W,1,9,1.5,17,M,,M,,*57
06/09/2014	08:02:40.603	$GPGGA,080241,2508.6010,N,08009.4862,W,1,9,1.5,17,M,,M,,*55
06/09/2014	08:02:41.731	$GPGGA,080242,2508.6008,N,08009.4861,W,1,9,1.5,17,M,,M,,*5C
06/09/2014	08:02:42.691	$GPGGA,080243,2508.6005,N,08009.4861,W,1,9,1.5,17,M,,M,,*50
06/09/2014	08:02:43.872	$GPGGA,080244,2508.6003,N,08009.4860,W,1,9,1.5,17,M,,M,,*50
06/09/2014	08:02:44.800	$GPGGA,080245,2508.6001,N,08009.4859,W,1,9,1.5,17,M,,M,,*59
06/09/2014	08:02:45.952	$GPGGA,080246,2508.5998,N,08009.4857,W,1,9,1.5,17,M,,M,,*5E
06/09/2014	08:02:46.982	$GPGGA,080247,2508.5997,N,08009.4856,W,1,9,1.5,17,M,,M,,*51
06/09/2014	08:02:48.085	$GPGGA,080248,2508.5993,N,08009.4855,W,1,9,1.5,17,M,,M,,*59
06/09/2014	08:02:49.107	$GPGGA,080249,2508.5991,N,08009.4853,W,1,9,1.5,17,M,,M,,*5C
06/09/2014	08:02:50.145	$GPGGA,080250,2508.5990,N,08009.4852,W,1,9,1.5,17,M,,M,,*54
06/09/2014	08:02:51.242	$GPGGA,080251,2508.5986,N,08009.4851,W,1,9,1.5,17,M,,M,,*51
06/09/2014	08:02:52.279	$GPGGA,080252,2508.5984,N,08009.4849,W,1,9,1.5,17,M,,M,,*59
06/09/2014	08:02:53.296	$GPGGA,080253,2508.5981,N,08009.4848,W,1,9,1.5,17,M,,M,,*5C
06/09/2014	08:02:54.361	$GPGGA,080254,2508.5979,N,08009.4847,W,1,9,1.5,17,M,,M,,*53
06/09/2014	08:02:55.443	$GPGGA,080255,2508.5975,N,08009.4846,W,1,9,1.5,17,M,,M,,*5F
06/09/2014	08:02:56.471	$GPGGA,080256,2508.5973,N,08009.4845,W,1,9,1.5,17,M,,M,,*59
06/09/2014	08:02:57.551	$GPGGA,080257,2508.5970,N,08009.4844,W,1,9,1.5,17,M,,M,,*5A
06/09/2014	08:02:58.557	$GPGGA,080258,2508.5967,N,08009.4843,W,1,9,1.5,17,M,,M,,*54
06/09/2014	08:02:59.645	$GPGGA,080259,2508.5965,N,08009.4842,W,1,9,1.5,17,M,,M,,*56
06/09/2014	08:03:00.676	$GPGGA,080300,2508.5962,N,08009.4840,W,1,9,1.5,17,M,,M,,*5E
06/09/2014	08:03:01.742	$GPGGA,080301,2508.5961,N,08009.4839,W,1,9,1.5,17,M,,M,,*52
06/09/2014	08:03:02.764	$GPGGA,080302,2508.5957,N,08009.4838,W,1,9,1.5,17,M,,M,,*55
06/09/2014	08:03:03.839	$GPGGA,080303,2508.5954,N,08009.4837,W,1,8,1.7,17,M,,M,,*5B
06/09/2014	08:03:04.893	$GPGGA,080304,2508.5951,N,08009.4835,W,1,8,1.7,17,M,,M,,*5B
06/09/2014	08:03:05.948	$GPGGA,080305,2508.5948,N,08009.4835,W,1,8,1.7,17,M,,M,,*52
06/09/2014	08:03:06.981	$GPGGA,080306,2508.5945,N,08009.4834,W,1,8,1.5,17,M,,M,,*5F
06/09/2014	08:03:08.056	$GPGGA,080307,2508.5943,N,08009.4833,W,1,9,1.5,17,M,,M,,*5E
06/09/2014	08:03:09.099	$GPGGA,080308,2508.5940,N,08009.4832,W,1,9,1.5,17,M,,M,,*53
06/09/2014	08:03:10.153	$GPGGA,080309,2508.5937,N,08009.4831,W,1,8,1.8,17,M,,M,,*5D
06/09/2014	08:03:11.187	$GPGGA,080310,2508.5936,N,08009.4831,W,1,8,1.8,17,M,,M,,*54
06/09/2014	08:03:12.241	$GPGGA,080311,2508.5932,N,08009.4830,W,1,9,1.5,17,M,,M,,*5C
06/09/2014	08:03:13.306	$GPGGA,080312,2508.5929,N,08009.4829,W,1,9,1.5,17,M,,M,,*5D
06/09/2014	08:03:14.371	$GPGGA,080313,2508.5927,N,08009.4828,W,1,9,1.5,17,M,,M,,*53
06/09/2014	08:03:15.404	$GPGGA,080314,2508.5925,N,08009.4827,W,1,9,1.5,17,M,,M,,*59
06/09/2014	08:03:16.469	$GPGGA,080315,2508.5921,N,08009.4827,W,1,9,1.5,17,M,,M,,*5C
06/09/2014	08:03:17.512	$GPGGA,080316,2508.5918,N,08009.4826,W,1,9,1.5,17,M,,M,,*54
06/09/2014	08:03:18.556	$GPGGA,080317,2508.5916,N,08009.4825,W,1,9,1.5,17,M,,M,,*58
06/09/2014	08:03:19.610	$GPGGA,080318,2508.5914,N,08009.4823,W,1,9,1.5,17,M,,M,,*53
06/09/2014	08:03:20.696	$GPGGA,080319,2508.5911,N,08009.4821,W,1,9,1.5,17,M,,M,,*55
06/09/2014	08:03:21.730	$GPGGA,080320,2508.5908,N,08009.4820,W,1,9,1.5,17,M,,M,,*56
06/09/2014	08:03:22.794	$GPGGA,080321,2508.5905,N,08009.4818,W,1,9,1.5,17,M,,M,,*51
06/09/2014	08:03:23.818	$GPGGA,080322,2508.5902,N,08009.4816,W,1,9,1.5,17,M,,M,,*5B
06/09/2014	08:03:24.882	$GPGGA,080323,2508.5898,N,08009.4815,W,1,7,1.9,17,M,,M,,*59
06/09/2014	08:03:25.926	$GPGGA,080324,2508.5896,N,08009.4816,W,1,7,1.7,18,M,,M,,*52
06/09/2014	08:03:26.969	$GPGGA,080325,2508.5894,N,08009.4813,W,1,9,1.5,18,M,,M,,*58
06/09/2014	08:03:28.033	$GPGGA,080326,2508.5893,N,08009.4812,W,1,9,1.7,18,M,,M,,*5F
06/09/2014	08:03:29.092	$GPGGA,080327,2508.5889,N,08009.4814,W,1,8,1.7,18,M,,M,,*52
06/09/2014	08:03:30.152	$GPGGA,080328,2508.5885,N,08009.4811,W,1,8,1.5,18,M,,M,,*56
06/09/2014	08:03:31.179	$GPGGA,080329,2508.5882,N,08009.4809,W,1,7,1.9,18,M,,M,,*5A
06/09/2014	08:03:32.345	$GPGGA,080330,2508.5880,N,08009.4807,W,1,7,1.7,18,M,,M,,*50
06/09/2014	08:03:33.284	$GPGGA,080331,2508.5878,N,08009.4806,W,1,8,1.7,18,M,,M,,*58
06/09/2014	08:03:34.475	$GPGGA,080332,2508.5876,N,08009.4804,W,1,8,1.5,18,M,,M,,*55
06/09/2014	08:03:35.403	$GPGGA,080333,2508.5873,N,08009.4802,W,1,9,1.5,18,M,,M,,*56
06/09/2014	08:03:36.555	$GPGGA,080334,2508.5871,N,08009.4800,W,1,9,1.5,18,M,,M,,*51
06/09/2014	08:03:37.501	$GPGGA,080335,2508.5868,N,08009.4798,W,1,9,1.5,18,M,,M,,*56
06/09/2014	08:03:38.665	$GPGGA,080336,2508.5867,N,08009.4796,W,1,9,1.5,18,M,,M,,*54
06/09/2014	08:03:39.725	$GPGGA,080337,2508.5863,N,08009.4794,W,1,9,1.5,18,M,,M,,*53
06/09/2014	08:03:40.762	$GPGGA,080338,2508.5860,N,08009.4792,W,1,9,1.5,18,M,,M,,*59
06/09/2014	08:03:41.802	$GPGGA,080339,2508.5857,N,08009.4790,W,1,9,1.5,18,M,,M,,*5E
06/09/2014	08:03:39.601	$GPGGA,080340,2508.5855,N,08009.4787,W,1,9,1.5,18,M,,M,,*54
06/09/2014	08:03:40.676	$GPGGA,080341,2508.5853,N,08009.4786,W,1,9,1.5,18,M,,M,,*52
06/09/2014	08:03:42.794	$GPGGA,080343,2508.5847,N,08009.4781,W,1,9,1.5,18,M,,M,,*52
06/09/2014	08:03:43.833	$GPGGA,080344,2508.5844,N,08009.4778,W,1,9,1.5,19,M,,M,,*51
06/09/2014	08:03:44.882	$GPGGA,080345,2508.5842,N,08009.4776,W,1,9,1.5,19,M,,M,,*58
06/09/2014	08:03:45.915	$GPGGA,080346,2508.5839,N,08009.4773,W,1,9,1.5,19,M,,M,,*52
06/09/2014	08:03:46.990	$GPGGA,080347,2508.5836,N,08009.4770,W,1,9,1.5,19,M,,M,,*5F
06/09/2014	08:03:48.034	$GPGGA,080348,2508.5835,N,08009.4768,W,1,9,1.5,19,M,,M,,*5A
06/09/2014	08:03:49.067	$GPGGA,080349,2508.5831,N,08009.4765,W,1,9,1.5,19,M,,M,,*52
06/09/2014	08:03:50.122	$GPGGA,080350,2508.5828,N,08009.4763,W,1,9,1.5,19,M,,M,,*54
06/09/2014	08:03:51.197	$GPGGA,080351,2508.5825,N,08009.4760,W,1,9,1.5,19,M,,M,,*5B
06/09/2014	08:03:52.241	$GPGGA,080352,2508.5824,N,08009.4757,W,1,9,1.5,19,M,,M,,*5D
06/09/2014	08:03:53.307	$GPGGA,080353,2508.5820,N,08009.4755,W,1,9,1.5,19,M,,M,,*5A
06/09/2014	08:03:54.318	$GPGGA,080354,2508.5818,N,08009.4751,W,1,9,1.5,18,M,,M,,*53
06/09/2014	08:03:55.372	$GPGGA,080355,2508.5816,N,08009.4749,W,1,9,1.5,18,M,,M,,*55
06/09/2014	08:03:56.447	$GPGGA,080356,2508.5813,N,08009.4746,W,1,9,1.5,18,M,,M,,*5C
06/09/2014	08:03:57.512	$GPGGA,080357,2508.5810,N,08009.4743,W,1,9,1.5,18,M,,M,,*5B
06/09/2014	08:03:58.546	$GPGGA,080358,2508.5808,N,08009.4740,W,1,9,1.5,18,M,,M,,*5E
06/09/2014	08:03:59.621	$GPGGA,080359,2508.5806,N,08009.4737,W,1,9,1.5,18,M,,M,,*51
06/09/2014	08:04:00.665	$GPGGA,080400,2508.5803,N,08009.4735,W,1,9,1.5,18,M,,M,,*5D
06/09/2014	08:04:01.687	$GPGGA,080401,2508.5800,N,08009.4732,W,1,9,1.5,18,M,,M,,*58
06/09/2014	08:04:02.762	$GPGGA,080402,2508.5797,N,08009.4729,W,1,9,1.5,18,M,,M,,*50
06/09/2014	08:04:03.826	$GPGGA,080403,2508.5795,N,08009.4726,W,1,9,1.5,18,M,,M,,*5C
06/09/2014	08:04:04.870	$GPGGA,080404,2508.5792,N,08009.4723,W,1,9,1.5,18,M,,M,,*59
06/09/2014	08:04:05.935	$GPGGA,080405,2508.5789,N,08009.4720,W,1,9,1.5,18,M,,M,,*51
06/09/2014	08:04:06.958	$GPGGA,080406,2508.5788,N,08009.4718,W,1,9,1.5,18,M,,M,,*58
06/09/2014	08:04:08.001	$GPGGA,080407,2508.5784,N,08009.4715,W,1,9,1.5,18,M,,M,,*58
06/09/2014	08:04:09.077	$GPGGA,080408,2508.5781,N,08009.4712,W,1,9,1.5,17,M,,M,,*5A
06/09/2014	08:04:10.131	$GPGGA,080409,2508.5778,N,08009.4709,W,1,9,1.5,17,M,,M,,*57
06/09/2014	08:04:11.175	$GPGGA,080410,2508.5777,N,08009.4706,W,1,9,1.5,17,M,,M,,*5F
06/09/2014	08:04:12.208	$GPGGA,080411,2508.5773,N,08009.4703,W,1,9,1.5,17,M,,M,,*5F
06/09/2014	08:04:13.283	$GPGGA,080412,2508.5770,N,08009.4700,W,1,9,1.5,17,M,,M,,*5C
06/09/2014	08:04:14.317	$GPGGA,080413,2508.5767,N,08009.4697,W,1,9,1.5,17,M,,M,,*54
06/09/2014	08:04:15.371	$GPGGA,080414,2508.5764,N,08009.4694,W,1,9,1.5,17,M,,M,,*53
06/09/2014	08:04:16.436	$GPGGA,080415,2508.5761,N,08009.4691,W,1,9,1.5,17,M,,M,,*52
06/09/2014	08:04:17.676	$GPGGA,080416,2508.5759,N,08009.4688,W,1,9,1.5,17,M,,M,,*52
06/09/2014	08:04:18.672	$GPGGA,080417,2508.5755,N,08009.4685,W,1,9,1.5,17,M,,M,,*52
06/09/2014	08:04:19.756	$GPGGA,080418,2508.5752,N,08009.4681,W,1,9,1.5,17,M,,M,,*5E
06/09/2014	08:04:20.631	$GPGGA,080419,2508.5750,N,08009.4678,W,1,9,1.5,17,M,,M,,*5B
06/09/2014	08:04:21.875	$GPGGA,080420,2508.5748,N,08009.4675,W,1,9,1.5,17,M,,M,,*55
06/09/2014	08:04:22.877	$GPGGA,080421,2508.5744,N,08009.4672,W,1,9,1.5,16,M,,M,,*5E
06/09/2014	08:04:23.785	$GPGGA,080422,2508.5742,N,08009.4669,W,1,9,1.5,16,M,,M,,*51
06/09/2014	08:04:24.838	$GPGGA,080423,2508.5739,N,08009.4665,W,1,9,1.5,16,M,,M,,*50
06/09/2014	08:04:26.071	$GPGGA,080424,2508.5737,N,08009.4662,W,1,9,1.5,16,M,,M,,*5E
06/09/2014	08:04:27.090	$GPGGA,080425,2508.5733,N,08009.4659,W,1,9,1.5,16,M,,M,,*53
06/09/2014	08:04:28.095	$GPGGA,080426,2508.5730,N,08009.4656,W,1,9,1.5,16,M,,M,,*5C
06/09/2014	08:04:29.202	$GPGGA,080427,2508.5728,N,08009.4653,W,1,9,1.5,16,M,,M,,*51
06/09/2014	08:04:30.288	$GPGGA,080428,2508.5724,N,08009.4649,W,1,9,1.5,16,M,,M,,*59
06/09/2014	08:04:31.290	$GPGGA,080429,2508.5723,N,08009.4646,W,1,9,1.5,16,M,,M,,*50
06/09/2014	08:04:32.376	$GPGGA,080430,2508.5719,N,08009.4643,W,1,9,1.5,16,M,,M,,*54
06/09/2014	08:04:33.398	$GPGGA,080431,2508.5717,N,08009.4639,W,1,9,1.5,16,M,,M,,*56
06/09/2014	08:04:34.421	$GPGGA,080432,2508.5714,N,08009.4636,W,1,9,1.5,16,M,,M,,*59
06/09/2014	08:04:35.507	$GPGGA,080433,2508.5712,N,08009.4633,W,1,9,1.5,16,M,,M,,*5B
06/09/2014	08:04:36.593	$GPGGA,080434,2508.5708,N,08009.4629,W,1,9,1.5,16,M,,M,,*5C
06/09/2014	08:04:37.616	$GPGGA,080435,2508.5705,N,08009.4625,W,1,9,1.5,15,M,,M,,*5F
06/09/2014	08:04:38.711	$GPGGA,080436,2508.5703,N,08009.4622,W,1,9,1.5,15,M,,M,,*5D
06/09/2014	08:04:39.713	$GPGGA,080437,2508.5701,N,08009.4618,W,1,9,1.5,15,M,,M,,*57
06/09/2014	08:04:40.767	$GPGGA,080438,2508.5697,N,08009.4615,W,1,9,1.5,15,M,,M,,*5B
06/09/2014	08:04:41.827	$GPGGA,080439,2508.5695,N,08009.4611,W,1,9,1.5,15,M,,M,,*5C
06/09/2014	08:04:39.650	$GPGGA,080440,2508.5692,N,08009.4607,W,1,9,1.5,15,M,,M,,*52
06/09/2014	08:04:40.662	$GPGGA,080441,2508.5690,N,08009.4604,W,1,9,1.5,15,M,,M,,*52
06/09/2014	08:04:41.738	$GPGGA,080442,2508.5687,N,08009.4600,W,1,9,1.5,15,M,,M,,*53
06/09/2014	08:04:42.718	$GPGGA,080443,2508.5684,N,08009.4596,W,1,9,1.5,15,M,,M,,*5D
06/09/2014	08:04:43.846	$GPGGA,080444,2508.5681,N,08009.4592,W,1,9,1.5,15,M,,M,,*5B
06/09/2014	08:04:44.901	$GPGGA,080445,2508.5679,N,08009.4588,W,1,9,1.5,15,M,,M,,*56
06/09/2014	08:04:45.944	$GPGGA,080446,2508.5676,N,08009.4584,W,1,9,1.5,15,M,,M,,*56
06/09/2014	08:04:46.967	$GPGGA,080447,2508.5674,N,08009.4580,W,1,9,1.5,15,M,,M,,*51
06/09/2014	08:04:47.990	$GPGGA,080448,2508.5672,N,08009.4576,W,1,9,1.5,14,M,,M,,*50
06/09/2014	08:04:49.076	$GPGGA,080449,2508.5669,N,08009.4572,W,1,9,1.5,14,M,,M,,*5F
06/09/2014	08:04:50.141	$GPGGA,080450,2508.5666,N,08009.4568,W,1,9,1.5,14,M,,M,,*53
06/09/2014	08:04:51.226	$GPGGA,080451,2508.5663,N,08009.4564,W,1,9,1.7,14,M,,M,,*59
06/09/2014	08:04:52.291	$GPGGA,080452,2508.5662,N,08009.4561,W,1,9,1.7,14,M,,M,,*5E
06/09/2014	08:04:53.303	$GPGGA,080453,2508.5661,N,08009.4558,W,1,9,1.5,14,M,,M,,*54
06/09/2014	08:04:54.293	$GPGGA,080454,2508.5658,N,08009.4553,W,1,9,1.5,14,M,,M,,*52
06/09/2014	08:04:55.400	$GPGGA,080455,2508.5654,N,08009.4549,W,1,8,1.7,14,M,,M,,*57
06/09/2014	08:04:56.476	$GPGGA,080456,2508.5651,N,08009.4544,W,1,8,1.7,14,M,,M,,*5C
06/09/2014	08:04:57.446	$GPGGA,080457,2508.5650,N,08009.4542,W,1,8,1.7,14,M,,M,,*5A
06/09/2014	08:04:58.637	$GPGGA,080458,2508.5648,N,08009.4538,W,1,8,1.5,14,M,,M,,*53
06/09/2014	08:04:59.597	$GPGGA,080459,2508.5644,N,08009.4534,W,1,9,1.7,14,M,,M,,*51
06/09/2014	08:05:00.756	$GPGGA,080500,2508.5643,N,08009.4530,W,1,9,1.5,13,M,,M,,*5A
06/09/2014	08:05:01.705	$GPGGA,080501,2508.5641,N,08009.4527,W,1,9,1.5,13,M,,M,,*5F
06/09/2014	08:05:02.781	$GPGGA,080502,2508.5640,N,08009.4524,W,1,9,1.5,13,M,,M,,*5E
06/09/2014	08:05:03.898	$GPGGA,080503,2508.5638,N,08009.4521,W,1,9,1.5,13,M,,M,,*55
06/09/2014	08:05:04.952	$GPGGA,080504,2508.5636,N,08009.4517,W,1,9,1.5,13,M,,M,,*59
06/09/2014	08:05:05.912	$GPGGA,080505,2508.5634,N,08009.4514,W,1,9,1.5,13,M,,M,,*59
06/09/2014	08:05:06.913	$GPGGA,080506,2508.5631,N,08009.4509,W,1,9,1.5,13,M,,M,,*53
06/09/2014	08:05:08.031	$GPGGA,080507,2508.5629,N,08009.4504,W,1,8,1.8,13,M,,M,,*5A
06/09/2014	08:05:09.170	$GPGGA,080508,2508.5626,N,08009.4500,W,1,8,1.5,13,M,,M,,*53
06/09/2014	08:05:10.213	$GPGGA,080509,2508.5625,N,08009.4497,W,1,9,1.5,12,M,,M,,*5E
06/09/2014	08:05:11.236	$GPGGA,080510,2508.5621,N,08009.4493,W,1,9,1.5,12,M,,M,,*56
06/09/2014	08:05:12.215	$GPGGA,080511,2508.5619,N,08009.4489,W,1,9,1.5,12,M,,M,,*57
06/09/2014	08:05:13.356	$GPGGA,080512,2508.5616,N,08009.4483,W,1,9,1.5,12,M,,M,,*51
06/09/2014	08:05:14.387	$GPGGA,080513,2508.5614,N,08009.4479,W,1,9,1.5,12,M,,M,,*57
06/09/2014	08:05:15.442	$GPGGA,080514,2508.5611,N,08009.4474,W,1,9,1.5,12,M,,M,,*58
06/09/2014	08:05:16.506	$GPGGA,080515,2508.5608,N,08009.4469,W,1,9,1.5,12,M,,M,,*5D
06/09/2014	08:05:17.561	$GPGGA,080516,2508.5605,N,08009.4464,W,1,9,1.5,12,M,,M,,*5E
06/09/2014	08:05:18.615	$GPGGA,080517,2508.5603,N,08009.4459,W,1,9,1.5,12,M,,M,,*57
06/09/2014	08:05:19.671	$GPGGA,080518,2508.5600,N,08009.4454,W,1,9,1.5,12,M,,M,,*56
06/09/2014	08:05:20.735	$GPGGA,080519,2508.5597,N,08009.4449,W,1,9,1.5,12,M,,M,,*56
06/09/2014	08:05:21.778	$GPGGA,080520,2508.5594,N,08009.4444,W,1,9,1.5,11,M,,M,,*51
06/09/2014	08:05:22.801	$GPGGA,080521,2508.5591,N,08009.4439,W,1,9,1.5,11,M,,M,,*5F
06/09/2014	08:05:23.865	$GPGGA,080522,2508.5589,N,08009.4434,W,1,9,1.5,11,M,,M,,*58
06/09/2014	08:05:24.930	$GPGGA,080523,2508.5585,N,08009.4429,W,1,9,1.5,11,M,,M,,*59
06/09/2014	08:05:25.996	$GPGGA,080524,2508.5583,N,08009.4424,W,1,9,1.5,11,M,,M,,*55
06/09/2014	08:05:27.059	$GPGGA,080525,2508.5580,N,08009.4419,W,1,9,1.5,11,M,,M,,*59
06/09/2014	08:05:28.062	$GPGGA,080526,2508.5578,N,08009.4414,W,1,9,1.5,11,M,,M,,*50
06/09/2014	08:05:29.137	$GPGGA,080527,2508.5574,N,08009.4409,W,1,9,1.5,11,M,,M,,*51
06/09/2014	08:05:30.213	$GPGGA,080528,2508.5572,N,08009.4404,W,1,9,1.5,11,M,,M,,*55
06/09/2014	08:05:31.278	$GPGGA,080529,2508.5569,N,08009.4399,W,1,9,1.5,11,M,,M,,*5D
06/09/2014	08:05:32.288	$GPGGA,080530,2508.5566,N,08009.4394,W,1,9,1.5,11,M,,M,,*57
06/09/2014	08:05:33.353	$GPGGA,080531,2508.5564,N,08009.4389,W,1,9,1.5,11,M,,M,,*58
06/09/2014	08:05:34.418	$GPGGA,080532,2508.5561,N,08009.4384,W,1,9,1.5,11,M,,M,,*53
06/09/2014	08:05:35.483	$GPGGA,080533,2508.5560,N,08009.4379,W,1,9,1.5,11,M,,M,,*51
06/09/2014	08:05:36.505	$GPGGA,080534,2508.5560,N,08009.4379,W,1,9,1.5,11,M,,M,,*56
06/09/2014	08:05:37.539	$GPGGA,080535,2508.5554,N,08009.4370,W,1,9,1.5,11,M,,M,,*59
06/09/2014	08:05:38.614	$GPGGA,080536,2508.5554,N,08009.4370,W,1,9,1.5,11,M,,M,,*5A
06/09/2014	08:05:39.648	$GPGGA,080537,2508.5549,N,08009.4359,W,1,9,1.5,11,M,,M,,*5C
06/09/2014	08:05:40.723	$GPGGA,080538,2508.5547,N,08009.4354,W,1,9,1.5,11,M,,M,,*50
06/09/2014	08:05:41.756	$GPGGA,080539,2508.5544,N,08009.4349,W,1,9,1.5,11,M,,M,,*5E
06/09/2014	08:05:39.565	$GPGGA,080540,2508.5544,N,08009.4349,W,1,9,1.5,11,M,,M,,*50
06/09/2014	08:05:40.609	$GPGGA,080541,2508.5538,N,08009.4338,W,1,9,1.5,11,M,,M,,*5C
06/09/2014	08:05:41.663	$GPGGA,080542,2508.5535,N,08009.4332,W,1,9,1.5,11,M,,M,,*58
06/09/2014	08:05:42.812	$GPGGA,080543,2508.5531,N,08009.4326,W,1,9,1.5,11,M,,M,,*58
06/09/2014	08:05:43.866	$GPGGA,080544,2508.5528,N,08009.4320,W,1,9,1.5,11,M,,M,,*51
06/09/2014	08:05:44.942	$GPGGA,080545,2508.5524,N,08009.4314,W,1,9,1.5,11,M,,M,,*5B
06/09/2014	08:05:45.858	$GPGGA,080546,2508.5524,N,08009.4314,W,1,9,1.5,11,M,,M,,*58
06/09/2014	08:05:46.933	$GPGGA,080547,2508.5517,N,08009.4302,W,1,9,1.5,11,M,,M,,*5E
06/09/2014	08:05:47.988	$GPGGA,080548,2508.5513,N,08009.4295,W,1,9,1.5,11,M,,M,,*5A
06/09/2014	08:05:49.132	$GPGGA,080549,2508.5510,N,08009.4289,W,1,8,1.8,11,M,,M,,*59
06/09/2014	08:05:50.107	$GPGGA,080550,2508.5506,N,08009.4283,W,1,8,1.5,11,M,,M,,*51
06/09/2014	08:05:51.119	$GPGGA,080551,2508.5503,N,08009.4277,W,1,9,1.5,11,M,,M,,*5F
06/09/2014	08:05:52.194	$GPGGA,080552,2508.5503,N,08009.4277,W,1,9,1.5,11,M,,M,,*5C
06/09/2014	08:05:53.333	$GPGGA,080553,2508.5495,N,08009.4265,W,1,9,1.5,11,M,,M,,*50
06/09/2014	08:05:54.282	$GPGGA,080554,2508.5491,N,08009.4258,W,1,9,1.5,11,M,,M,,*5D
06/09/2014	08:05:55.452	$GPGGA,080555,2508.5488,N,08009.4250,W,1,9,1.5,11,M,,M,,*5C
06/09/2014	08:05:56.385	$GPGGA,080556,2508.5484,N,08009.4243,W,1,9,1.5,11,M,,M,,*51
06/09/2014	08:05:57.561	$GPGGA,080557,2508.5479,N,08009.4235,W,1,9,1.5,11,M,,M,,*53
06/09/2014	08:05:58.584	$GPGGA,080558,2508.5473,N,08009.4227,W,1,9,1.7,12,M,,M,,*54
06/09/2014	08:05:59.532	$GPGGA,080559,2508.5470,N,08009.4219,W,1,9,1.5,12,M,,M,,*59
06/09/2014	08:06:00.706	$GPGGA,080600,2508.5466,N,08009.4210,W,1,9,1.5,12,M,,M,,*58
06/09/2014	08:06:01.767	$GPGGA,080601,2508.5463,N,08009.4200,W,1,9,1.5,12,M,,M,,*5D
06/09/2014	08:06:03.875	$GPGGA,080603,2508.5457,N,08009.4180,W,1,9,1.5,12,M,,M,,*53
06/09/2014	08:06:04.908	$GPGGA,080604,2508.5454,N,08009.4169,W,1,9,1.5,12,M,,M,,*50
06/09/2014	08:06:05.973	$GPGGA,080605,2508.5452,N,08009.4158,W,1,9,1.5,12,M,,M,,*55
06/09/2014	08:06:07.018	$GPGGA,080606,2508.5449,N,08009.4147,W,1,9,1.5,13,M,,M,,*53
06/09/2014	08:06:08.060	$GPGGA,080607,2508.5446,N,08009.4136,W,1,9,1.5,13,M,,M,,*5B
06/09/2014	08:06:09.115	$GPGGA,080608,2508.5444,N,08009.4124,W,1,9,1.5,13,M,,M,,*55
06/09/2014	08:06:10.180	$GPGGA,080609,2508.5442,N,08009.4112,W,1,9,1.5,13,M,,M,,*57
06/09/2014	08:06:11.202	$GPGGA,080610,2508.5441,N,08009.4098,W,1,9,1.5,13,M,,M,,*5F
06/09/2014	08:06:12.278	$GPGGA,080611,2508.5439,N,08009.4085,W,1,8,1.8,13,M,,M,,*51
06/09/2014	08:06:13.321	$GPGGA,080612,2508.5437,N,08009.4074,W,1,8,1.8,13,M,,M,,*52
06/09/2014	08:06:14.355	$GPGGA,080613,2508.5434,N,08009.4063,W,1,9,1.5,13,M,,M,,*5A
06/09/2014	08:06:15.419	$GPGGA,080614,2508.5434,N,08009.4049,W,1,9,1.7,13,M,,M,,*57
06/09/2014	08:06:16.453	$GPGGA,080615,2508.5432,N,08009.4038,W,1,7,3.3,13,M,,M,,*5E
06/09/2014	08:06:17.528	$GPGGA,080616,2508.5433,N,08009.4025,W,1,7,1.8,13,M,,M,,*59
06/09/2014	08:06:18.582	$GPGGA,080617,2508.5432,N,08009.4012,W,1,9,1.5,13,M,,M,,*5E
06/09/2014	08:06:19.637	$GPGGA,080618,2508.5431,N,08009.3998,W,1,9,1.5,14,M,,M,,*59
06/09/2014	08:06:20.670	$GPGGA,080619,2508.5433,N,08009.3984,W,1,9,1.5,14,M,,M,,*57
06/09/2014	08:06:21.746	$GPGGA,080620,2508.5432,N,08009.3970,W,1,9,1.5,14,M,,M,,*57
06/09/2014	08:06:22.809	$GPGGA,080621,2508.5433,N,08009.3956,W,1,9,1.5,14,M,,M,,*53
06/09/2014	08:06:23.832	$GPGGA,080622,2508.5434,N,08009.3941,W,1,9,1.5,14,M,,M,,*51
06/09/2014	08:06:24.918	$GPGGA,080623,2508.5437,N,08009.3926,W,1,9,1.5,14,M,,M,,*52
06/09/2014	08:06:25.951	$GPGGA,080624,2508.5437,N,08009.3912,W,1,9,1.8,14,M,,M,,*5F
06/09/2014	08:06:27.005	$GPGGA,080625,2508.5440,N,08009.3896,W,1,9,1.5,14,M,,M,,*5E
06/09/2014	08:06:28.049	$GPGGA,080626,2508.5443,N,08009.3881,W,1,9,1.5,14,M,,M,,*58
06/09/2014	08:06:29.103	$GPGGA,080627,2508.5444,N,08009.3867,W,1,8,1.8,14,M,,M,,*5A
06/09/2014	08:06:30.147	$GPGGA,080628,2508.5447,N,08009.3851,W,1,8,1.7,14,M,,M,,*5C
06/09/2014	08:06:31.212	$GPGGA,080629,2508.5450,N,08009.3835,W,1,8,1.8,14,M,,M,,*56
06/09/2014	08:06:32.245	$GPGGA,080630,2508.5454,N,08009.3820,W,1,8,1.5,14,M,,M,,*53
06/09/2014	08:06:33.310	$GPGGA,080631,2508.5457,N,08009.3805,W,1,9,1.5,15,M,,M,,*56
06/09/2014	08:06:34.480	$GPGGA,080632,2508.5462,N,08009.3790,W,1,9,1.5,15,M,,M,,*50
06/09/2014	08:06:35.513	$GPGGA,080633,2508.5466,N,08009.3775,W,1,9,1.5,15,M,,M,,*5E
06/09/2014	08:06:36.452	$GPGGA,080634,2508.5470,N,08009.3760,W,1,9,1.5,15,M,,M,,*5A
06/09/2014	08:06:37.506	$GPGGA,080635,2508.5477,N,08009.3745,W,1,9,1.5,15,M,,M,,*5B
06/09/2014	08:06:38.581	$GPGGA,080636,2508.5481,N,08009.3730,W,1,9,1.5,15,M,,M,,*53
06/09/2014	08:06:39.615	$GPGGA,080637,2508.5488,N,08009.3716,W,1,9,1.5,15,M,,M,,*5F
06/09/2014	08:06:40.671	$GPGGA,080638,2508.5494,N,08009.3702,W,1,9,1.5,15,M,,M,,*58
06/09/2014	08:06:41.795	$GPGGA,080639,2508.5499,N,08009.3686,W,1,8,1.7,15,M,,M,,*5A
06/09/2014	08:06:39.522	$GPGGA,080640,2508.5506,N,08009.3669,W,1,8,1.8,15,M,,M,,*5D
06/09/2014	08:06:40.615	$GPGGA,080641,2508.5513,N,08009.3656,W,1,9,1.5,15,M,,M,,*58
06/09/2014	08:06:41.656	$GPGGA,080642,2508.5520,N,08009.3642,W,1,9,1.5,15,M,,M,,*5E
06/09/2014	08:06:42.658	$GPGGA,080643,2508.5527,N,08009.3629,W,1,9,1.5,15,M,,M,,*55
06/09/2014	08:06:43.709	$GPGGA,080644,2508.5535,N,08009.3614,W,1,9,1.7,15,M,,M,,*5D
06/09/2014	08:06:44.730	$GPGGA,080645,2508.5545,N,08009.3600,W,1,9,1.5,15,M,,M,,*5C
06/09/2014	08:06:45.711	$GPGGA,080646,2508.5553,N,08009.3587,W,1,9,1.5,15,M,,M,,*54
06/09/2014	08:06:46.639	$GPGGA,080647,2508.5562,N,08009.3573,W,1,9,1.5,16,M,,M,,*5F
06/09/2014	08:06:47.773	$GPGGA,080648,2508.5570,N,08009.3559,W,1,9,1.5,16,M,,M,,*5B
06/09/2014	08:06:48.774	$GPGGA,080649,2508.5580,N,08009.3546,W,1,8,1.7,16,M,,M,,*58
06/09/2014	08:06:49.692	$GPGGA,080650,2508.5589,N,08009.3532,W,1,8,1.7,16,M,,M,,*5A
06/09/2014	08:06:50.836	$GPGGA,080651,2508.5600,N,08009.3518,W,1,8,1.7,16,M,,M,,*51
06/09/2014	08:06:51.857	$GPGGA,080652,2508.5611,N,08009.3505,W,1,8,1.5,16,M,,M,,*5C
06/09/2014	08:06:52.847	$GPGGA,080653,2508.5621,N,08009.3492,W,1,8,1.7,16,M,,M,,*53
06/09/2014	08:06:53.858	$GPGGA,080654,2508.5632,N,08009.3479,W,1,8,1.7,17,M,,M,,*52
06/09/2014	08:06:54.902	$GPGGA,080655,2508.5643,N,08009.3466,W,1,7,1.8,17,M,,M,,*5B
06/09/2014	08:06:55.920	$GPGGA,080656,2508.5654,N,08009.3453,W,1,7,1.7,17,M,,M,,*57
06/09/2014	08:06:56.921	$GPGGA,080657,2508.5667,N,08009.3441,W,1,8,1.7,17,M,,M,,*5A
06/09/2014	08:06:57.943	$GPGGA,080658,2508.5679,N,08009.3429,W,1,8,1.7,17,M,,M,,*54
06/09/2014	08:06:58.963	$GPGGA,080659,2508.5690,N,08009.3416,W,1,8,1.7,17,M,,M,,*5E
06/09/2014	08:07:00.004	$GPGGA,080700,2508.5704,N,08009.3404,W,1,8,1.7,17,M,,M,,*5C
06/09/2014	08:07:01.015	$GPGGA,080701,2508.5718,N,08009.3392,W,1,9,1.5,17,M,,M,,*5B
06/09/2014	08:07:02.016	$GPGGA,080702,2508.5730,N,08009.3381,W,1,9,1.7,17,M,,M,,*52
06/09/2014	08:07:03.047	$GPGGA,080703,2508.5746,N,08009.3369,W,1,9,1.5,17,M,,M,,*56
06/09/2014	08:07:04.068	$GPGGA,080704,2508.5759,N,08009.3358,W,1,9,1.5,18,M,,M,,*52
06/09/2014	08:07:05.100	$GPGGA,080705,2508.5775,N,08009.3347,W,1,9,1.5,18,M,,M,,*53
06/09/2014	08:07:06.100	$GPGGA,080706,2508.5788,N,08009.3336,W,1,9,1.7,18,M,,M,,*56
06/09/2014	08:07:07.142	$GPGGA,080707,2508.5802,N,08009.3326,W,1,9,1.5,18,M,,M,,*59
06/09/2014	08:07:08.154	$GPGGA,080708,2508.5817,N,08009.3316,W,1,9,1.5,18,M,,M,,*51
06/09/2014	08:07:09.143	$GPGGA,080709,2508.5831,N,08009.3306,W,1,9,1.5,18,M,,M,,*55
06/09/2014	08:07:10.176	$GPGGA,080710,2508.5846,N,08009.3297,W,1,9,1.5,18,M,,M,,*54
06/09/2014	08:07:11.216	$GPGGA,080711,2508.5863,N,08009.3287,W,1,9,1.5,18,M,,M,,*53
06/09/2014	08:07:12.227	$GPGGA,080712,2508.5878,N,08009.3279,W,1,9,1.5,19,M,,M,,*5A
06/09/2014	08:07:13.237	$GPGGA,080713,2508.5892,N,08009.3272,W,1,9,1.5,19,M,,M,,*54
06/09/2014	08:07:14.237	$GPGGA,080714,2508.5907,N,08009.3264,W,1,9,1.7,19,M,,M,,*5B
06/09/2014	08:07:15.259	$GPGGA,080715,2508.5921,N,08009.3257,W,1,8,1.7,19,M,,M,,*5F
06/09/2014	08:07:16.310	$GPGGA,080716,2508.5938,N,08009.3250,W,1,8,1.7,19,M,,M,,*53
06/09/2014	08:07:17.331	$GPGGA,080717,2508.5954,N,08009.3244,W,1,9,1.5,19,M,,M,,*5E
06/09/2014	08:07:18.312	$GPGGA,080718,2508.5970,N,08009.3238,W,1,9,1.5,19,M,,M,,*5C
06/09/2014	08:07:19.333	$GPGGA,080719,2508.5986,N,08009.3230,W,1,8,1.7,19,M,,M,,*5F
06/09/2014	08:07:20.507	$GPGGA,080720,2508.6003,N,08009.3224,W,1,8,1.5,19,M,,M,,*55
06/09/2014	08:07:21.477	$GPGGA,080721,2508.6019,N,08009.3219,W,1,9,1.5,19,M,,M,,*50
06/09/2014	08:07:22.396	$GPGGA,080722,2508.6036,N,08009.3213,W,1,9,1.5,19,M,,M,,*54
06/09/2014	08:07:23.427	$GPGGA,080723,2508.6053,N,08009.3208,W,1,9,1.5,20,M,,M,,*56
06/09/2014	08:07:24.459	$GPGGA,080724,2508.6069,N,08009.3202,W,1,9,1.5,20,M,,M,,*52
06/09/2014	08:07:25.470	$GPGGA,080725,2508.6084,N,08009.3196,W,1,8,1.8,20,M,,M,,*52
06/09/2014	08:07:26.470	$GPGGA,080726,2508.6102,N,08009.3194,W,1,8,1.8,20,M,,M,,*5C
06/09/2014	08:07:27.491	$GPGGA,080727,2508.6117,N,08009.3188,W,1,9,1.5,20,M,,M,,*58
06/09/2014	08:07:28.523	$GPGGA,080728,2508.6134,N,08009.3184,W,1,9,1.8,20,M,,M,,*57
06/09/2014	08:07:29.554	$GPGGA,080729,2508.6151,N,08009.3181,W,1,9,1.5,20,M,,M,,*5D
06/09/2014	08:07:30.657	$GPGGA,080730,2508.6167,N,08009.3178,W,1,9,1.5,20,M,,M,,*56
06/09/2014	08:07:31.687	$GPGGA,080731,2508.6184,N,08009.3176,W,1,9,1.5,20,M,,M,,*54
06/09/2014	08:07:32.708	$GPGGA,080732,2508.6200,N,08009.3173,W,1,9,1.5,20,M,,M,,*5D
06/09/2014	08:07:33.709	$GPGGA,080733,2508.6217,N,08009.3171,W,1,9,1.5,20,M,,M,,*58
06/09/2014	08:07:34.730	$GPGGA,080734,2508.6234,N,08009.3170,W,1,9,1.5,20,M,,M,,*5F
06/09/2014	08:07:35.762	$GPGGA,080735,2508.6250,N,08009.3169,W,1,9,1.5,20,M,,M,,*54
06/09/2014	08:07:36.762	$GPGGA,080736,2508.6265,N,08009.3169,W,1,9,1.5,21,M,,M,,*50
06/09/2014	08:07:37.803	$GPGGA,080737,2508.6282,N,08009.3170,W,1,9,1.5,21,M,,M,,*50
06/09/2014	08:07:38.804	$GPGGA,080738,2508.6297,N,08009.3172,W,1,9,1.5,21,M,,M,,*59
06/09/2014	08:07:39.836	$GPGGA,080739,2508.6314,N,08009.3172,W,1,9,1.5,21,M,,M,,*52
06/09/2014	08:07:39.592	$GPGGA,080740,2508.6329,N,08009.3173,W,1,9,1.5,21,M,,M,,*53
06/09/2014	08:07:40.613	$GPGGA,080741,2508.6346,N,08009.3176,W,1,9,1.5,21,M,,M,,*5E
06/09/2014	08:07:41.613	$GPGGA,080742,2508.6361,N,08009.3179,W,1,9,1.5,21,M,,M,,*57
06/09/2014	08:07:42.655	$GPGGA,080743,2508.6376,N,08009.3181,W,1,9,1.5,21,M,,M,,*57
06/09/2014	08:07:43.666	$GPGGA,080744,2508.6391,N,08009.3184,W,1,9,1.5,21,M,,M,,*5C
06/09/2014	08:07:44.688	$GPGGA,080745,2508.6408,N,08009.3187,W,1,9,1.5,21,M,,M,,*59
06/09/2014	08:07:45.698	$GPGGA,080746,2508.6422,N,08009.3191,W,1,9,1.5,21,M,,M,,*55
06/09/2014	08:07:46.709	$GPGGA,080747,2508.6437,N,08009.3195,W,1,9,1.5,21,M,,M,,*54
06/09/2014	08:07:47.739	$GPGGA,080748,2508.6452,N,08009.3199,W,1,9,1.5,21,M,,M,,*54
06/09/2014	08:07:48.785	$GPGGA,080749,2508.6467,N,08009.3204,W,1,9,1.5,21,M,,M,,*54
06/09/2014	08:07:49.750	$GPGGA,080750,2508.6480,N,08009.3209,W,1,9,1.5,21,M,,M,,*58
06/09/2014	08:07:50.814	$GPGGA,080751,2508.6495,N,08009.3215,W,1,9,1.5,20,M,,M,,*51
06/09/2014	08:07:51.813	$GPGGA,080752,2508.6507,N,08009.3219,W,1,9,1.5,20,M,,M,,*54
06/09/2014	08:07:52.814	$GPGGA,080753,2508.6521,N,08009.3226,W,1,9,1.5,20,M,,M,,*5D
06/09/2014	08:07:53.845	$GPGGA,080754,2508.6535,N,08009.3231,W,1,9,1.5,20,M,,M,,*59
06/09/2014	08:07:54.887	$GPGGA,080755,2508.6549,N,08009.3238,W,1,9,1.5,20,M,,M,,*5A
06/09/2014	08:07:55.898	$GPGGA,080756,2508.6561,N,08009.3245,W,1,9,1.5,20,M,,M,,*59
06/09/2014	08:07:56.929	$GPGGA,080757,2508.6574,N,08009.3252,W,1,8,1.7,20,M,,M,,*59
06/09/2014	08:07:57.919	$GPGGA,080758,2508.6586,N,08009.3259,W,1,8,1.7,20,M,,M,,*50
06/09/2014	08:07:58.971	$GPGGA,080759,2508.6599,N,08009.3266,W,1,8,1.7,20,M,,M,,*53
06/09/2014	08:07:59.972	$GPGGA,080800,2508.6611,N,08009.3273,W,1,8,1.5,20,M,,M,,*55
06/09/2014	08:08:02.393	$GPGGA,080802,2508.6635,N,08009.3289,W,1,9,1.5,20,M,,M,,*55
06/09/2014	08:08:03.035	$GPGGA,080803,2508.6644,N,08009.3298,W,1,8,1.7,20,M,,M,,*51
06/09/2014	08:08:04.056	$GPGGA,080804,2508.6655,N,08009.3306,W,1,8,1.7,20,M,,M,,*50
06/09/2014	08:08:05.067	$GPGGA,080805,2508.6666,N,08009.3316,W,1,8,1.7,19,M,,M,,*5A
06/09/2014	08:08:06.077	$GPGGA,080806,2508.6676,N,08009.3324,W,1,8,1.7,19,M,,M,,*59
06/09/2014	08:08:07.101	$GPGGA,080807,2508.6686,N,08009.3332,W,1,8,1.7,19,M,,M,,*50
06/09/2014	08:08:08.121	$GPGGA,080808,2508.6697,N,08009.3342,W,1,8,1.8,19,M,,M,,*57
06/09/2014	08:08:09.232	$GPGGA,080809,2508.6705,N,08009.3350,W,1,9,1.5,19,M,,M,,*53
06/09/2014	08:08:10.253	$GPGGA,080810,2508.6715,N,08009.3360,W,1,9,1.5,19,M,,M,,*59
06/09/2014	08:08:11.182	$GPGGA,080811,2508.6725,N,08009.3368,W,1,9,1.5,19,M,,M,,*53
06/09/2014	08:08:12.193	$GPGGA,080812,2508.6734,N,08009.3378,W,1,9,1.5,19,M,,M,,*51
06/09/2014	08:08:13.204	$GPGGA,080813,2508.6741,N,08009.3387,W,1,9,1.5,19,M,,M,,*52
06/09/2014	08:08:14.220	$GPGGA,080814,2508.6751,N,08009.3396,W,1,9,1.5,19,M,,M,,*54
06/09/2014	08:08:15.328	$GPGGA,080815,2508.6759,N,08009.3405,W,1,9,1.5,19,M,,M,,*50
06/09/2014	08:08:16.361	$GPGGA,080816,2508.6767,N,08009.3415,W,1,9,1.5,19,M,,M,,*5F
06/09/2014	08:08:17.381	$GPGGA,080817,2508.6776,N,08009.3425,W,1,9,1.5,19,M,,M,,*5D
06/09/2014	08:08:18.392	$GPGGA,080818,2508.6784,N,08009.3433,W,1,9,1.5,18,M,,M,,*59
06/09/2014	08:08:19.433	$GPGGA,080819,2508.6792,N,08009.3443,W,1,9,1.5,18,M,,M,,*58
06/09/2014	08:08:20.445	$GPGGA,080820,2508.6801,N,08009.3452,W,1,9,1.5,18,M,,M,,*57
06/09/2014	08:08:21.473	$GPGGA,080821,2508.6809,N,08009.3461,W,1,9,1.5,18,M,,M,,*5E
06/09/2014	08:08:22.467	$GPGGA,080822,2508.6817,N,08009.3470,W,1,9,1.5,18,M,,M,,*52
06/09/2014	08:08:23.496	$GPGGA,080823,2508.6827,N,08009.3479,W,1,9,1.5,18,M,,M,,*59
06/09/2014	08:08:24.529	$GPGGA,080824,2508.6835,N,08009.3490,W,1,9,1.5,18,M,,M,,*5A
06/09/2014	08:08:25.519	$GPGGA,080825,2508.6842,N,08009.3498,W,1,9,1.5,18,M,,M,,*53
06/09/2014	08:08:26.539	$GPGGA,080826,2508.6852,N,08009.3508,W,1,9,1.7,18,M,,M,,*5B
06/09/2014	08:08:27.591	$GPGGA,080827,2508.6861,N,08009.3517,W,1,8,1.7,18,M,,M,,*55
06/09/2014	08:08:28.591	$GPGGA,080828,2508.6870,N,08009.3527,W,1,8,1.7,18,M,,M,,*59
06/09/2014	08:08:29.625	$GPGGA,080829,2508.6879,N,08009.3537,W,1,8,1.7,18,M,,M,,*50
06/09/2014	08:08:30.633	$GPGGA,080830,2508.6888,N,08009.3546,W,1,8,1.7,18,M,,M,,*50
06/09/2014	08:08:31.675	$GPGGA,080831,2508.6899,N,08009.3555,W,1,8,1.7,18,M,,M,,*53
06/09/2014	08:08:32.665	$GPGGA,080832,2508.6908,N,08009.3563,W,1,8,1.5,18,M,,M,,*5E
06/09/2014	08:08:33.697	$GPGGA,080833,2508.6919,N,08009.3573,W,1,9,1.5,18,M,,M,,*5F
06/09/2014	08:08:34.697	$GPGGA,080834,2508.6931,N,08009.3581,W,1,9,1.8,18,M,,M,,*52
06/09/2014	08:08:35.751	$GPGGA,080835,2508.6940,N,08009.3591,W,1,9,1.5,18,M,,M,,*59
06/09/2014	08:08:36.750	$GPGGA,080836,2508.6950,N,08009.3602,W,1,9,1.5,18,M,,M,,*52
06/09/2014	08:08:37.761	$GPGGA,080837,2508.6961,N,08009.3610,W,1,9,1.5,18,M,,M,,*52
06/09/2014	08:08:38.782	$GPGGA,080838,2508.6972,N,08009.3620,W,1,9,1.5,18,M,,M,,*5C
06/09/2014	08:08:39.783	$GPGGA,080839,2508.6980,N,08009.3631,W,1,9,1.5,18,M,,M,,*50
06/09/2014	08:08:39.560	$GPGGA,080840,2508.6991,N,08009.3642,W,1,9,1.5,18,M,,M,,*5A
06/09/2014	08:08:40.590	$GPGGA,080841,2508.7001,N,08009.3652,W,1,9,1.5,18,M,,M,,*5B
06/09/2014	08:08:41.581	$GPGGA,080842,2508.7012,N,08009.3661,W,1,9,1.7,18,M,,M,,*58
06/09/2014	08:08:42.602	$GPGGA,080843,2508.7022,N,08009.3671,W,1,9,1.5,18,M,,M,,*59
06/09/2014	08:08:43.633	$GPGGA,080844,2508.7031,N,08009.3683,W,1,9,1.5,18,M,,M,,*51
06/09/2014	08:08:44.644	$GPGGA,080845,2508.7041,N,08009.3694,W,1,8,1.7,18,M,,M,,*52
06/09/2014	08:08:45.675	$GPGGA,080846,2508.7052,N,08009.3707,W,1,8,1.7,18,M,,M,,*58
06/09/2014	08:08:46.717	$GPGGA,080847,2508.7062,N,08009.3717,W,1,8,1.7,18,M,,M,,*5B
06/09/2014	08:08:47.717	$GPGGA,080848,2508.7072,N,08009.3728,W,1,8,1.7,18,M,,M,,*59
06/09/2014	08:08:48.708	$GPGGA,080849,2508.7081,N,08009.3739,W,1,8,1.7,18,M,,M,,*54
06/09/2014	08:08:49.739	$GPGGA,080850,2508.7092,N,08009.3750,W,1,8,1.7,18,M,,M,,*51
06/09/2014	08:08:50.791	$GPGGA,080851,2508.7103,N,08009.3761,W,1,9,1.5,18,M,,M,,*58
06/09/2014	08:08:51.793	$GPGGA,080852,2508.7113,N,08009.3772,W,1,9,1.7,18,M,,M,,*5A
06/09/2014	08:08:52.833	$GPGGA,080853,2508.7121,N,08009.3784,W,1,8,1.7,18,M,,M,,*52
06/09/2014	08:08:53.803	$GPGGA,080854,2508.7132,N,08009.3795,W,1,8,1.7,17,M,,M,,*58
06/09/2014	08:08:54.825	$GPGGA,080855,2508.7142,N,08009.3808,W,1,8,1.7,17,M,,M,,*55
06/09/2014	08:08:55.988	$GPGGA,080856,2508.7153,N,08009.3819,W,1,8,1.5,17,M,,M,,*54
06/09/2014	08:08:56.979	$GPGGA,080857,2508.7166,N,08009.3827,W,1,9,1.5,17,M,,M,,*5F
06/09/2014	08:08:57.897	$GPGGA,080858,2508.7177,N,08009.3838,W,1,9,1.5,17,M,,M,,*5E
06/09/2014	08:08:59.030	$GPGGA,080859,2508.7188,N,08009.3848,W,1,9,1.5,17,M,,M,,*58
06/09/2014	08:08:59.949	$GPGGA,080900,2508.7197,N,08009.3859,W,1,9,1.5,17,M,,M,,*5B
06/09/2014	08:09:01.079	$GPGGA,080901,2508.7207,N,08009.3870,W,1,9,1.5,17,M,,M,,*5B
06/09/2014	08:09:01.964	$GPGGA,080902,2508.7218,N,08009.3883,W,1,9,1.5,17,M,,M,,*5A
06/09/2014	08:09:03.090	$GPGGA,080903,2508.7229,N,08009.3894,W,1,8,1.5,17,M,,M,,*5E
06/09/2014	08:09:04.023	$GPGGA,080904,2508.7236,N,08009.3905,W,1,8,1.5,17,M,,M,,*5E
06/09/2014	08:09:05.025	$GPGGA,080905,2508.7247,N,08009.3917,W,1,8,1.7,17,M,,M,,*58
06/09/2014	08:09:06.053	$GPGGA,080906,2508.7257,N,08009.3928,W,1,8,1.5,17,M,,M,,*54
06/09/2014	08:09:07.189	$GPGGA,080907,2508.7267,N,08009.3939,W,1,8,1.7,17,M,,M,,*54
06/09/2014	08:09:08.090	$GPGGA,080908,2508.7276,N,08009.3952,W,1,8,1.7,17,M,,M,,*56
06/09/2014	08:09:09.115	$GPGGA,080909,2508.7287,N,08009.3963,W,1,8,1.7,17,M,,M,,*5B
06/09/2014	08:09:10.222	$GPGGA,080910,2508.7297,N,08009.3974,W,1,8,1.7,17,M,,M,,*54
06/09/2014	08:09:11.273	$GPGGA,080911,2508.7305,N,08009.3985,W,1,8,1.7,17,M,,M,,*51
06/09/2014	08:09:12.264	$GPGGA,080912,2508.7316,N,08009.3996,W,1,8,1.7,17,M,,M,,*52
06/09/2014	08:09:13.302	$GPGGA,080913,2508.7327,N,08009.4007,W,1,8,1.7,17,M,,M,,*57
06/09/2014	08:09:14.297	$GPGGA,080914,2508.7337,N,08009.4018,W,1,8,1.7,17,M,,M,,*5F
06/09/2014	08:09:15.337	$GPGGA,080915,2508.7348,N,08009.4028,W,1,8,1.5,17,M,,M,,*57
06/09/2014	08:09:16.337	$GPGGA,080916,2508.7361,N,08009.4037,W,1,8,1.5,17,M,,M,,*51
06/09/2014	08:09:17.369	$GPGGA,080917,2508.7372,N,08009.4048,W,1,9,1.5,17,M,,M,,*5B
06/09/2014	08:09:18.359	$GPGGA,080918,2508.7381,N,08009.4058,W,1,9,1.5,17,M,,M,,*59
06/09/2014	08:09:19.380	$GPGGA,080919,2508.7394,N,08009.4069,W,1,9,1.5,17,M,,M,,*5E
06/09/2014	08:09:20.411	$GPGGA,080920,2508.7405,N,08009.4079,W,1,9,1.5,17,M,,M,,*5A
06/09/2014	08:09:21.432	$GPGGA,080921,2508.7415,N,08009.4090,W,1,9,1.7,17,M,,M,,*5F
06/09/2014	08:09:22.444	$GPGGA,080922,2508.7424,N,08009.4101,W,1,9,1.7,17,M,,M,,*57
06/09/2014	08:09:23.496	$GPGGA,080923,2508.7437,N,08009.4111,W,1,8,1.5,17,M,,M,,*56
06/09/2014	08:09:24.495	$GPGGA,080924,2508.7449,N,08009.4120,W,1,8,1.5,17,M,,M,,*5A
06/09/2014	08:09:25.496	$GPGGA,080925,2508.7460,N,08009.4129,W,1,9,1.5,17,M,,M,,*58
06/09/2014	08:09:26.527	$GPGGA,080926,2508.7473,N,08009.4140,W,1,9,1.5,17,M,,M,,*56
06/09/2014	08:09:27.581	$GPGGA,080927,2508.7484,N,08009.4149,W,1,9,1.5,17,M,,M,,*56
06/09/2014	08:09:28.580	$GPGGA,080928,2508.7496,N,08009.4159,W,1,9,1.5,17,M,,M,,*5B
06/09/2014	08:09:29.612	$GPGGA,080929,2508.7507,N,08009.4169,W,1,9,1.5,17,M,,M,,*50
06/09/2014	08:09:30.581	$GPGGA,080930,2508.7520,N,08009.4180,W,1,9,1.5,17,M,,M,,*5A
06/09/2014	08:09:31.623	$GPGGA,080931,2508.7531,N,08009.4189,W,1,9,1.5,17,M,,M,,*52
06/09/2014	08:09:32.664	$GPGGA,080932,2508.7543,N,08009.4199,W,1,9,1.5,17,M,,M,,*55
06/09/2014	08:09:33.654	$GPGGA,080933,2508.7554,N,08009.4209,W,1,9,1.5,17,M,,M,,*58
06/09/2014	08:09:34.665	$GPGGA,080934,2508.7567,N,08009.4219,W,1,9,1.5,17,M,,M,,*5E
06/09/2014	08:09:35.716	$GPGGA,080935,2508.7578,N,08009.4230,W,1,9,1.5,17,M,,M,,*5A
06/09/2014	08:09:36.737	$GPGGA,080936,2508.7590,N,08009.4239,W,1,9,1.5,17,M,,M,,*56
06/09/2014	08:09:37.748	$GPGGA,080937,2508.7601,N,08009.4249,W,1,9,1.5,17,M,,M,,*5B
06/09/2014	08:09:38.749	$GPGGA,080938,2508.7614,N,08009.4259,W,1,9,1.5,17,M,,M,,*51
06/09/2014	08:09:39.801	$GPGGA,080939,2508.7626,N,08009.4270,W,1,9,1.5,17,M,,M,,*5A
06/09/2014	08:09:39.537	$GPGGA,080940,2508.7637,N,08009.4281,W,1,9,1.5,17,M,,M,,*5A
06/09/2014	08:09:40.558	$GPGGA,080941,2508.7648,N,08009.4290,W,1,9,1.7,18,M,,M,,*5E
06/09/2014	08:09:41.549	$GPGGA,080942,2508.7659,N,08009.4301,W,1,9,1.5,18,M,,M,,*56
06/09/2014	08:09:42.611	$GPGGA,080943,2508.7670,N,08009.4311,W,1,9,1.5,18,M,,M,,*5D
06/09/2014	08:09:43.724	$GPGGA,080944,2508.7683,N,08009.4321,W,1,9,1.5,18,M,,M,,*55
06/09/2014	08:09:44.643	$GPGGA,080945,2508.7695,N,08009.4331,W,1,9,1.5,18,M,,M,,*52
06/09/2014	08:09:45.728	$GPGGA,080946,2508.7706,N,08009.4340,W,1,9,1.5,18,M,,M,,*5C
06/09/2014	08:09:46.757	$GPGGA,080947,2508.7720,N,08009.4350,W,1,9,1.5,18,M,,M,,*58
06/09/2014	08:09:47.706	$GPGGA,080948,2508.7733,N,08009.4358,W,1,9,1.5,18,M,,M,,*5D
06/09/2014	08:09:48.686	$GPGGA,080949,2508.7744,N,08009.4368,W,1,9,1.5,18,M,,M,,*5F
06/09/2014	08:09:49.798	$GPGGA,080950,2508.7755,N,08009.4378,W,1,9,1.6,18,M,,M,,*55
06/09/2014	08:09:50.738	$GPGGA,080951,2508.7767,N,08009.4387,W,1,8,1.6,17,M,,M,,*5B
06/09/2014	08:09:51.881	$GPGGA,080952,2508.7778,N,08009.4398,W,1,8,1.6,17,M,,M,,*58
06/09/2014	08:09:52.780	$GPGGA,080953,2508.7789,N,08009.4408,W,1,8,1.6,17,M,,M,,*59
06/09/2014	08:09:53.873	$GPGGA,080954,2508.7800,N,08009.4418,W,1,8,1.6,17,M,,M,,*51
06/09/2014	08:09:54.935	$GPGGA,080955,2508.7814,N,08009.4426,W,1,8,1.5,17,M,,M,,*5B
06/09/2014	08:09:55.945	$GPGGA,080956,2508.7825,N,08009.4436,W,1,8,1.5,17,M,,M,,*5B
06/09/2014	08:09:56.987	$GPGGA,080957,2508.7838,N,08009.4447,W,1,9,1.5,17,M,,M,,*51
06/09/2014	08:09:57.957	$GPGGA,080958,2508.7850,N,08009.4455,W,1,9,1.6,17,M,,M,,*50
06/09/2014	08:09:58.999	$GPGGA,080959,2508.7861,N,08009.4466,W,1,8,1.6,17,M,,M,,*52
06/09/2014	08:10:00.024	$GPGGA,081000,2508.7875,N,08009.4474,W,1,8,1.5,17,M,,M,,*53
06/09/2014	08:10:01.023	$GPGGA,081001,2508.7887,N,08009.4483,W,1,9,1.6,17,M,,M,,*55
06/09/2014	08:10:02.041	$GPGGA,081002,2508.7900,N,08009.4492,W,1,9,1.6,17,M,,M,,*58
06/09/2014	08:10:03.074	$GPGGA,081003,2508.7912,N,08009.4502,W,1,8,1.6,17,M,,M,,*53
06/09/2014	08:10:04.084	$GPGGA,081004,2508.7925,N,08009.4512,W,1,8,1.5,16,M,,M,,*53
06/09/2014	08:10:05.119	$GPGGA,081005,2508.7939,N,08009.4520,W,1,9,1.5,16,M,,M,,*5F
06/09/2014	08:10:06.116	$GPGGA,081006,2508.7952,N,08009.4528,W,1,9,1.5,16,M,,M,,*59
06/09/2014	08:10:07.150	$GPGGA,081007,2508.7965,N,08009.4538,W,1,9,1.5,16,M,,M,,*5D
06/09/2014	08:10:08.157	$GPGGA,081008,2508.7977,N,08009.4546,W,1,9,1.5,16,M,,M,,*58
06/09/2014	08:10:10.607	$GPGGA,081009,2508.7991,N,08009.4555,W,1,9,1.5,16,M,,M,,*53
06/09/2014	08:10:10.628	$GPGGA,081010,2508.8005,N,08009.4563,W,1,9,1.5,16,M,,M,,*55
06/09/2014	08:10:11.200	$GPGGA,081011,2508.8017,N,08009.4572,W,1,9,1.5,16,M,,M,,*57
06/09/2014	08:10:12.241	$GPGGA,081012,2508.8030,N,08009.4581,W,1,9,1.5,16,M,,M,,*5D
06/09/2014	08:10:13.283	$GPGGA,081013,2508.8045,N,08009.4588,W,1,9,1.5,16,M,,M,,*57
06/09/2014	08:10:14.263	$GPGGA,081014,2508.8056,N,08009.4599,W,1,9,1.5,16,M,,M,,*52
06/09/2014	08:10:15.316	$GPGGA,081015,2508.8070,N,08009.4607,W,1,9,1.5,16,M,,M,,*53
06/09/2014	08:10:16.315	$GPGGA,081016,2508.8084,N,08009.4614,W,1,9,1.5,16,M,,M,,*59
06/09/2014	08:10:17.316	$GPGGA,081017,2508.8096,N,08009.4624,W,1,9,1.5,16,M,,M,,*58
06/09/2014	08:10:18.358	$GPGGA,081018,2508.8110,N,08009.4632,W,1,9,1.5,16,M,,M,,*5F
06/09/2014	08:10:19.348	$GPGGA,081019,2508.8124,N,08009.4640,W,1,9,1.5,16,M,,M,,*5C
06/09/2014	08:10:20.400	$GPGGA,081020,2508.8138,N,08009.4649,W,1,9,1.5,16,M,,M,,*52
06/09/2014	08:10:21.391	$GPGGA,081021,2508.8150,N,08009.4657,W,1,9,1.5,16,M,,M,,*52
06/09/2014	08:10:22.422	$GPGGA,081022,2508.8164,N,08009.4665,W,1,9,1.5,16,M,,M,,*57
06/09/2014	08:10:23.443	$GPGGA,081023,2508.8178,N,08009.4673,W,1,9,1.5,15,M,,M,,*5F
06/09/2014	08:10:24.576	$GPGGA,081024,2508.8192,N,08009.4682,W,1,9,1.5,15,M,,M,,*52
06/09/2014	08:10:25.463	$GPGGA,081025,2508.8204,N,08009.4689,W,1,9,1.5,15,M,,M,,*54
06/09/2014	08:10:26.495	$GPGGA,081026,2508.8219,N,08009.4697,W,1,9,1.5,15,M,,M,,*54
06/09/2014	08:10:27.628	$GPGGA,081027,2508.8233,N,08009.4707,W,1,9,1.5,15,M,,M,,*55
06/09/2014	08:10:28.547	$GPGGA,081028,2508.8247,N,08009.4714,W,1,9,1.5,15,M,,M,,*5B
06/09/2014	08:10:29.558	$GPGGA,081029,2508.8261,N,08009.4722,W,1,9,1.5,15,M,,M,,*5B
06/09/2014	08:10:30.569	$GPGGA,081030,2508.8273,N,08009.4729,W,1,9,1.5,15,M,,M,,*5B
06/09/2014	08:10:31.702	$GPGGA,081031,2508.8288,N,08009.4738,W,1,9,1.5,15,M,,M,,*5E
06/09/2014	08:10:32.621	$GPGGA,081032,2508.8302,N,08009.4745,W,1,9,1.5,15,M,,M,,*54
06/09/2014	08:10:33.642	$GPGGA,081033,2508.8316,N,08009.4754,W,1,9,1.5,15,M,,M,,*50
06/09/2014	08:10:34.643	$GPGGA,081034,2508.8330,N,08009.4762,W,1,9,1.5,15,M,,M,,*56
06/09/2014	08:10:35.674	$GPGGA,081035,2508.8344,N,08009.4769,W,1,9,1.5,15,M,,M,,*5F
06/09/2014	08:10:36.809	$GPGGA,081036,2508.8359,N,08009.4776,W,1,9,1.5,15,M,,M,,*5E
06/09/2014	08:10:37.717	$GPGGA,081037,2508.8373,N,08009.4784,W,1,9,1.5,15,M,,M,,*5A
06/09/2014	08:10:38.707	$GPGGA,081038,2508.8387,N,08009.4792,W,1,9,1.5,15,M,,M,,*59
06/09/2014	08:10:39.732	$GPGGA,081039,2508.8400,N,08009.4799,W,1,9,1.5,15,M,,M,,*5B
06/09/2014	08:10:39.618	$GPGGA,081040,2508.8416,N,08009.4806,W,1,9,1.5,15,M,,M,,*5B
06/09/2014	08:10:40.619	$GPGGA,081041,2508.8429,N,08009.4814,W,1,9,1.5,15,M,,M,,*55
06/09/2014	08:10:41.531	$GPGGA,081042,2508.8443,N,08009.4823,W,1,9,1.5,15,M,,M,,*5E
06/09/2014	08:10:42.661	$GPGGA,081043,2508.8458,N,08009.4830,W,1,9,1.5,15,M,,M,,*57
06/09/2014	08:10:43.681	$GPGGA,081044,2508.8472,N,08009.4837,W,1,9,1.5,15,M,,M,,*5F
06/09/2014	08:10:44.710	$GPGGA,081045,2508.8486,N,08009.4845,W,1,9,1.5,15,M,,M,,*50
06/09/2014	08:10:45.713	$GPGGA,081046,2508.8501,N,08009.4852,W,1,9,1.5,15,M,,M,,*5B
06/09/2014	08:10:46.755	$GPGGA,081047,2508.8515,N,08009.4860,W,1,9,1.5,15,M,,M,,*5E
06/09/2014	08:10:47.755	$GPGGA,081048,2508.8530,N,08009.4866,W,1,9,1.5,15,M,,M,,*50
06/09/2014	08:10:48.756	$GPGGA,081049,2508.8546,N,08009.4874,W,1,9,1.5,14,M,,M,,*52
06/09/2014	08:10:49.787	$GPGGA,081050,2508.8559,N,08009.4881,W,1,9,1.5,14,M,,M,,*5E
06/09/2014	08:10:50.831	$GPGGA,081051,2508.8575,N,08009.4888,W,1,9,1.5,14,M,,M,,*58
06/09/2014	08:10:51.842	$GPGGA,081052,2508.8590,N,08009.4895,W,1,9,1.5,14,M,,M,,*5C
06/09/2014	08:10:52.881	$GPGGA,081053,2508.8605,N,08009.4902,W,1,9,1.5,14,M,,M,,*5D
06/09/2014	08:10:53.851	$GPGGA,081054,2508.8620,N,08009.4908,W,1,9,1.8,14,M,,M,,*5A
06/09/2014	08:10:54.893	$GPGGA,081055,2508.8634,N,08009.4914,W,1,9,1.5,14,M,,M,,*5E
06/09/2014	08:10:55.914	$GPGGA,081056,2508.8649,N,08009.4921,W,1,9,1.5,14,M,,M,,*51
06/09/2014	08:10:56.904	$GPGGA,081057,2508.8663,N,08009.4928,W,1,9,1.5,14,M,,M,,*51
06/09/2014	08:10:57.937	$GPGGA,081058,2508.8678,N,08009.4935,W,1,9,1.5,14,M,,M,,*58
06/09/2014	08:10:58.969	$GPGGA,081059,2508.8694,N,08009.4942,W,1,8,1.6,14,M,,M,,*59
06/09/2014	08:10:59.997	$GPGGA,081100,2508.8709,N,08009.4949,W,1,8,1.5,14,M,,M,,*59
06/09/2014	08:11:00.988	$GPGGA,081101,2508.8725,N,08009.4956,W,1,9,1.5,14,M,,M,,*59
06/09/2014	08:11:02.009	$GPGGA,081102,2508.8739,N,08009.4961,W,1,9,1.5,14,M,,M,,*53
06/09/2014	08:11:03.040	$GPGGA,081103,2508.8754,N,08009.4968,W,1,9,1.5,14,M,,M,,*50
06/09/2014	08:11:04.062	$GPGGA,081104,2508.8770,N,08009.4975,W,1,9,1.5,14,M,,M,,*5D
06/09/2014	08:11:05.082	$GPGGA,081105,2508.8786,N,08009.4979,W,1,9,1.5,14,M,,M,,*59
06/09/2014	08:11:06.073	$GPGGA,081106,2508.8801,N,08009.4986,W,1,9,1.5,14,M,,M,,*5A
06/09/2014	08:11:07.091	$GPGGA,081107,2508.8815,N,08009.4993,W,1,9,1.5,14,M,,M,,*5A
06/09/2014	08:11:08.135	$GPGGA,081108,2508.8830,N,08009.4996,W,1,9,1.6,14,M,,M,,*54
06/09/2014	08:11:09.167	$GPGGA,081109,2508.8846,N,08009.5003,W,1,9,1.5,14,M,,M,,*53
06/09/2014	08:11:10.157	$GPGGA,081110,2508.8861,N,08009.5007,W,1,9,1.5,14,M,,M,,*5A
06/09/2014	08:11:11.178	$GPGGA,081111,2508.8876,N,08009.5014,W,1,9,1.5,14,M,,M,,*5F
06/09/2014	08:11:12.210	$GPGGA,081112,2508.8893,N,08009.5018,W,1,9,1.5,14,M,,M,,*5B
06/09/2014	08:11:13.210	$GPGGA,081113,2508.8908,N,08009.5022,W,1,8,1.8,14,M,,M,,*5C
06/09/2014	08:11:14.241	$GPGGA,081114,2508.8923,N,08009.5027,W,1,8,1.5,14,M,,M,,*5A
06/09/2014	08:11:15.274	$GPGGA,081115,2508.8940,N,08009.5034,W,1,9,1.5,14,M,,M,,*5D
06/09/2014	08:11:16.294	$GPGGA,081116,2508.8956,N,08009.5038,W,1,9,1.5,15,M,,M,,*54
06/09/2014	08:11:17.315	$GPGGA,081117,2508.8971,N,08009.5043,W,1,8,1.8,15,M,,M,,*50
06/09/2014	08:11:18.304	$GPGGA,081118,2508.8987,N,08009.5048,W,1,8,1.8,15,M,,M,,*5D
06/09/2014	08:11:19.315	$GPGGA,081119,2508.9003,N,08009.5052,W,1,9,1.5,14,M,,M,,*5E
06/09/2014	08:11:20.367	$GPGGA,081120,2508.9018,N,08009.5059,W,1,9,1.8,14,M,,M,,*58
06/09/2014	08:11:21.480	$GPGGA,081121,2508.9034,N,08009.5066,W,1,9,1.5,14,M,,M,,*56
06/09/2014	08:11:22.389	$GPGGA,081122,2508.9050,N,08009.5072,W,1,9,1.5,15,M,,M,,*53
06/09/2014	08:11:23.395	$GPGGA,081123,2508.9067,N,08009.5076,W,1,9,1.5,15,M,,M,,*52
06/09/2014	08:11:24.441	$GPGGA,081124,2508.9082,N,08009.5080,W,1,9,1.5,15,M,,M,,*57
06/09/2014	08:11:25.534	$GPGGA,081125,2508.9097,N,08009.5087,W,1,9,1.5,15,M,,M,,*55
06/09/2014	08:11:26.468	$GPGGA,081126,2508.9114,N,08009.5091,W,1,9,1.5,15,M,,M,,*5B
06/09/2014	08:11:27.480	$GPGGA,081127,2508.9130,N,08009.5097,W,1,9,1.5,15,M,,M,,*5A
06/09/2014	08:11:28.628	$GPGGA,081128,2508.9146,N,08009.5102,W,1,9,1.5,15,M,,M,,*59
06/09/2014	08:11:29.519	$GPGGA,081129,2508.9162,N,08009.5108,W,1,9,1.5,15,M,,M,,*54
06/09/2014	08:11:30.629	$GPGGA,081130,2508.9179,N,08009.5113,W,1,9,1.5,15,M,,M,,*5C
06/09/2014	08:11:31.661	$GPGGA,081131,2508.9194,N,08009.5119,W,1,9,1.5,15,M,,M,,*54
06/09/2014	08:11:32.693	$GPGGA,081132,2508.9211,N,08009.5123,W,1,9,1.5,15,M,,M,,*50
06/09/2014	08:11:33.692	$GPGGA,081133,2508.9227,N,08009.5130,W,1,9,1.5,15,M,,M,,*56
06/09/2014	08:11:34.725	$GPGGA,081134,2508.9244,N,08009.5134,W,1,9,1.5,15,M,,M,,*50
06/09/2014	08:11:35.746	$GPGGA,081135,2508.9259,N,08009.5139,W,1,9,1.5,15,M,,M,,*50
06/09/2014	08:11:37.288	$GPGGA,081136,2508.9277,N,08009.5144,W,1,9,1.5,15,M,,M,,*55
06/09/2014	08:11:37.776	$GPGGA,081137,2508.9294,N,08009.5148,W,1,9,1.5,15,M,,M,,*55
06/09/2014	08:11:38.794	$GPGGA,081138,2508.9310,N,08009.5153,W,1,9,1.5,15,M,,M,,*5D
06/09/2014	08:11:39.783	$GPGGA,081139,2508.9328,N,08009.5157,W,1,9,1.5,15,M,,M,,*53
06/09/2014	08:11:39.570	$GPGGA,081140,2508.9343,N,08009.5163,W,1,9,1.5,15,M,,M,,*57
06/09/2014	08:11:40.580	$GPGGA,081141,2508.9360,N,08009.5166,W,1,8,1.6,16,M,,M,,*53
06/09/2014	08:11:41.569	$GPGGA,081142,2508.9377,N,08009.5171,W,1,8,1.6,16,M,,M,,*50
06/09/2014	08:11:42.608	$GPGGA,081143,2508.9393,N,08009.5174,W,1,9,1.5,16,M,,M,,*5C
06/09/2014	08:11:43.610	$GPGGA,081144,2508.9411,N,08009.5178,W,1,9,1.5,16,M,,M,,*5A
06/09/2014	08:11:44.586	$GPGGA,081145,2508.9428,N,08009.5184,W,1,9,1.5,16,M,,M,,*52
06/09/2014	08:11:45.605	$GPGGA,081146,2508.9444,N,08009.5188,W,1,9,1.5,16,M,,M,,*57
06/09/2014	08:11:46.625	$GPGGA,081147,2508.9462,N,08009.5191,W,1,9,1.5,16,M,,M,,*5A
06/09/2014	08:11:47.614	$GPGGA,081148,2508.9478,N,08009.5195,W,1,9,1.5,16,M,,M,,*5A
06/09/2014	08:11:48.613	$GPGGA,081149,2508.9494,N,08009.5199,W,1,9,1.5,16,M,,M,,*55
06/09/2014	08:11:49.632	$GPGGA,081150,2508.9512,N,08009.5202,W,1,9,1.5,16,M,,M,,*53
06/09/2014	08:11:50.662	$GPGGA,081151,2508.9529,N,08009.5206,W,1,9,1.5,16,M,,M,,*5E
