Software Version Number: 1	Data File Format Number: 1	Build Version Number: 1	Error Count Since VI Started: 0	Manufacturer: Raytheon	 Model Number: RayMarine 120	 S/N: 	 Cal Date: 	 Wind Direction Offset: 0.00	 Slope (M)1: 0.00	 Offset (B)1: 0.00	 Slope (M)2: 0.00	 Offset (B)2: 0.00	 Slope (M)3: 0.00	 Offset (B)3: 0.00	 Slope (M)4: 0.00	 Offset (B)4: 0.00	 Slope (M)5: 0.00	 Offset (B)5: 0.00	 Slope (M)6: 0.00	 Offset (B)6: 0.00
Computer Date	Computer Time	GGA String
06/04/2014	18:00:00.700	$GPGGA,180001,2507.1165,N,08014.7218,W,1,10,1.4,18,M,,M,,*67
06/04/2014	18:00:01.573	$GPGGA,180002,2507.1174,N,08014.7225,W,1,10,1.4,18,M,,M,,*6A
06/04/2014	18:00:02.605	$GPGGA,180003,2507.1181,N,08014.7233,W,1,10,1.4,18,M,,M,,*66
06/04/2014	18:00:03.608	$GPGGA,180004,2507.1189,N,08014.7243,W,1,10,1.4,18,M,,M,,*6E
06/04/2014	18:00:04.700	$GPGGA,180005,2507.1198,N,08014.7249,W,1,10,1.4,18,M,,M,,*65
06/04/2014	18:00:05.571	$GPGGA,180006,2507.1207,N,08014.7256,W,1,10,1.4,18,M,,M,,*6D
06/04/2014	18:00:06.605	$GPGGA,180007,2507.1207,N,08014.7256,W,1,10,1.4,18,M,,M,,*6C
06/04/2014	18:00:07.687	$GPGGA,180008,2507.1224,N,08014.7272,W,1,10,1.4,18,M,,M,,*64
06/04/2014	18:00:08.699	$GPGGA,180009,2507.1232,N,08014.7280,W,1,10,1.4,18,M,,M,,*6F
06/04/2014	18:00:09.682	$GPGGA,180010,2507.1241,N,08014.7288,W,1,10,1.4,18,M,,M,,*6B
06/04/2014	18:00:10.584	$GPGGA,180011,2507.1241,N,08014.7288,W,1,10,1.4,18,M,,M,,*6A
06/04/2014	18:00:11.677	$GPGGA,180012,2507.1257,N,08014.7305,W,1,10,1.4,18,M,,M,,*6A
06/04/2014	18:00:12.689	$GPGGA,180013,2507.1265,N,08014.7312,W,1,10,1.4,18,M,,M,,*6C
06/04/2014	18:00:13.591	$GPGGA,180014,2507.1265,N,08014.7312,W,1,10,1.4,18,M,,M,,*6B
06/04/2014	18:00:14.674	$GPGGA,180015,2507.1283,N,08014.7327,W,1,10,1.4,18,M,,M,,*64
06/04/2014	18:00:15.697	$GPGGA,180016,2507.1292,N,08014.7334,W,1,10,1.4,18,M,,M,,*65
06/04/2014	18:00:16.719	$GPGGA,180017,2507.1300,N,08014.7342,W,1,10,1.4,18,M,,M,,*6F
06/04/2014	18:00:17.687	$GPGGA,180018,2507.1308,N,08014.7350,W,1,10,1.4,18,M,,M,,*6B
06/04/2014	18:00:18.684	$GPGGA,180019,2507.1318,N,08014.7357,W,1,10,1.4,18,M,,M,,*6C
06/04/2014	18:00:19.687	$GPGGA,180020,2507.1325,N,08014.7366,W,1,10,1.4,18,M,,M,,*6A
06/04/2014	18:00:20.699	$GPGGA,180021,2507.1333,N,08014.7374,W,1,10,1.4,18,M,,M,,*6F
06/04/2014	18:00:21.672	$GPGGA,180022,2507.1342,N,08014.7381,W,1,10,1.4,18,M,,M,,*60
06/04/2014	18:00:22.714	$GPGGA,180023,2507.1351,N,08014.7389,W,1,10,1.4,18,M,,M,,*6B
06/04/2014	18:00:23.686	$GPGGA,180024,2507.1359,N,08014.7397,W,1,10,1.4,18,M,,M,,*6B
06/04/2014	18:00:24.711	$GPGGA,180025,2507.1368,N,08014.7404,W,1,10,1.4,18,M,,M,,*65
06/04/2014	18:00:25.682	$GPGGA,180026,2507.1375,N,08014.7413,W,1,10,1.4,18,M,,M,,*6C
06/04/2014	18:00:26.703	$GPGGA,180027,2507.1383,N,08014.7421,W,1,10,1.4,18,M,,M,,*65
06/04/2014	18:00:27.686	$GPGGA,180028,2507.1393,N,08014.7428,W,1,10,1.4,18,M,,M,,*62
06/04/2014	18:00:28.718	$GPGGA,180029,2507.1401,N,08014.7436,W,1,10,1.4,18,M,,M,,*60
06/04/2014	18:00:29.682	$GPGGA,180030,2507.1408,N,08014.7444,W,1,10,1.4,18,M,,M,,*64
06/04/2014	18:00:30.703	$GPGGA,180031,2507.1416,N,08014.7453,W,1,10,1.4,18,M,,M,,*6C
06/04/2014	18:00:31.558	$GPGGA,180032,2507.1424,N,08014.7460,W,1,10,1.4,18,M,,M,,*6E
06/04/2014	18:00:32.530	$GPGGA,180033,2507.1433,N,08014.7467,W,1,10,1.4,18,M,,M,,*6E
06/04/2014	18:00:33.543	$GPGGA,180034,2507.1441,N,08014.7475,W,1,10,1.4,18,M,,M,,*6F
06/04/2014	18:00:34.555	$GPGGA,180035,2507.1449,N,08014.7483,W,1,10,1.4,18,M,,M,,*6F
06/04/2014	18:00:35.538	$GPGGA,180036,2507.1456,N,08014.7490,W,1,10,1.4,17,M,,M,,*6F
06/04/2014	18:00:36.580	$GPGGA,180037,2507.1466,N,08014.7497,W,1,10,1.4,17,M,,M,,*6A
06/04/2014	18:00:37.534	$GPGGA,180038,2507.1474,N,08014.7505,W,1,10,1.4,17,M,,M,,*6C
06/04/2014	18:00:38.545	$GPGGA,180039,2507.1481,N,08014.7512,W,1,10,1.4,17,M,,M,,*61
06/04/2014	18:00:39.558	$GPGGA,180040,2507.1489,N,08014.7519,W,1,10,1.4,17,M,,M,,*6C
06/04/2014	18:00:40.569	$GPGGA,180041,2507.1498,N,08014.7526,W,1,10,1.4,17,M,,M,,*61
06/04/2014	18:00:41.542	$GPGGA,180042,2507.1506,N,08014.7533,W,1,10,1.4,17,M,,M,,*60
06/04/2014	18:00:42.534	$GPGGA,180043,2507.1514,N,08014.7540,W,1,10,1.4,17,M,,M,,*66
06/04/2014	18:00:43.557	$GPGGA,180044,2507.1521,N,08014.7547,W,1,10,1.4,17,M,,M,,*60
06/04/2014	18:00:44.649	$GPGGA,180045,2507.1530,N,08014.7554,W,1,10,1.4,17,M,,M,,*63
06/04/2014	18:00:45.552	$GPGGA,180046,2507.1538,N,08014.7559,W,1,10,1.4,17,M,,M,,*65
06/04/2014	18:00:46.544	$GPGGA,180047,2507.1545,N,08014.7566,W,1,10,1.4,17,M,,M,,*62
06/04/2014	18:00:47.557	$GPGGA,180048,2507.1553,N,08014.7573,W,1,10,1.4,17,M,,M,,*6E
06/04/2014	18:00:48.539	$GPGGA,180049,2507.1561,N,08014.7579,W,1,10,1.4,17,M,,M,,*64
06/04/2014	18:00:49.542	$GPGGA,180050,2507.1568,N,08014.7587,W,1,10,1.4,17,M,,M,,*64
06/04/2014	18:00:50.554	$GPGGA,180051,2507.1577,N,08014.7592,W,1,10,1.4,17,M,,M,,*6F
06/04/2014	18:00:51.577	$GPGGA,180052,2507.1585,N,08014.7598,W,1,10,1.4,17,M,,M,,*6B
06/04/2014	18:00:52.539	$GPGGA,180053,2507.1593,N,08014.7605,W,1,9,1.7,17,M,,M,,*51
06/04/2014	18:00:53.531	$GPGGA,180054,2507.1599,N,08014.7609,W,1,9,1.7,17,M,,M,,*50
06/04/2014	18:00:54.684	$GPGGA,180055,2507.1607,N,08014.7613,W,1,10,1.4,17,M,,M,,*65
06/04/2014	18:00:55.557	$GPGGA,180056,2507.1613,N,08014.7619,W,1,10,1.4,17,M,,M,,*69
06/04/2014	18:00:56.659	$GPGGA,180057,2507.1619,N,08014.7626,W,1,10,1.4,17,M,,M,,*6E
06/04/2014	18:00:57.551	$GPGGA,180058,2507.1626,N,08014.7630,W,1,10,1.4,17,M,,M,,*6A
06/04/2014	18:00:58.643	$GPGGA,180059,2507.1636,N,08014.7637,W,1,10,1.4,17,M,,M,,*6D
06/04/2014	18:00:59.686	$GPGGA,180100,2507.1644,N,08014.7642,W,1,10,1.7,17,M,,M,,*64
06/04/2014	18:01:00.638	$GPGGA,180101,2507.1653,N,08014.7649,W,1,9,1.7,17,M,,M,,*50
06/04/2014	18:01:01.651	$GPGGA,180102,2507.1661,N,08014.7656,W,1,9,1.7,17,M,,M,,*5C
06/04/2014	18:01:02.654	$GPGGA,180103,2507.1669,N,08014.7663,W,1,9,1.7,17,M,,M,,*53
06/04/2014	18:01:03.666	$GPGGA,180104,2507.1679,N,08014.7668,W,1,9,1.7,17,M,,M,,*5E
06/04/2014	18:01:04.648	$GPGGA,180105,2507.1687,N,08014.7674,W,1,9,1.7,17,M,,M,,*53
06/04/2014	18:01:05.651	$GPGGA,180106,2507.1694,N,08014.7681,W,1,9,1.7,17,M,,M,,*58
06/04/2014	18:01:06.664	$GPGGA,180107,2507.1704,N,08014.7688,W,1,9,1.7,17,M,,M,,*58
06/04/2014	18:01:07.656	$GPGGA,180108,2507.1712,N,08014.7693,W,1,9,1.7,17,M,,M,,*5A
06/04/2014	18:01:08.658	$GPGGA,180109,2507.1722,N,08014.7699,W,1,9,1.7,17,M,,M,,*52
06/04/2014	18:01:09.641	$GPGGA,180110,2507.1730,N,08014.7704,W,1,9,1.7,17,M,,M,,*5C
06/04/2014	18:01:10.663	$GPGGA,180111,2507.1737,N,08014.7711,W,1,10,1.4,17,M,,M,,*65
06/04/2014	18:01:11.676	$GPGGA,180112,2507.1745,N,08014.7718,W,1,10,1.7,17,M,,M,,*69
06/04/2014	18:01:12.648	$GPGGA,180113,2507.1752,N,08014.7722,W,1,9,1.7,17,M,,M,,*5F
06/04/2014	18:01:13.651	$GPGGA,180114,2507.1762,N,08014.7728,W,1,9,1.4,17,M,,M,,*52
06/04/2014	18:01:14.673	$GPGGA,180115,2507.1769,N,08014.7732,W,1,10,1.4,17,M,,M,,*6B
06/04/2014	18:01:15.655	$GPGGA,180116,2507.1776,N,08014.7738,W,1,10,1.4,17,M,,M,,*6C
06/04/2014	18:01:16.687	$GPGGA,180117,2507.1784,N,08014.7743,W,1,10,1.4,17,M,,M,,*6C
06/04/2014	18:01:17.660	$GPGGA,180118,2507.1792,N,08014.7749,W,1,10,1.4,17,M,,M,,*6E
06/04/2014	18:01:18.672	$GPGGA,180119,2507.1801,N,08014.7753,W,1,10,1.4,17,M,,M,,*61
06/04/2014	18:01:19.665	$GPGGA,180120,2507.1809,N,08014.7760,W,1,10,1.4,17,M,,M,,*63
06/04/2014	18:01:20.667	$GPGGA,180121,2507.1816,N,08014.7765,W,1,9,1.7,17,M,,M,,*52
06/04/2014	18:01:21.660	$GPGGA,180122,2507.1825,N,08014.7771,W,1,9,1.4,17,M,,M,,*57
06/04/2014	18:01:22.682	$GPGGA,180123,2507.1834,N,08014.7775,W,1,10,1.4,17,M,,M,,*6A
06/04/2014	18:01:23.685	$GPGGA,180124,2507.1842,N,08014.7780,W,1,10,1.4,17,M,,M,,*66
06/04/2014	18:01:24.677	$GPGGA,180125,2507.1852,N,08014.7786,W,1,10,1.4,17,M,,M,,*60
06/04/2014	18:01:25.640	$GPGGA,180126,2507.1859,N,08014.7793,W,1,10,1.7,17,M,,M,,*6F
06/04/2014	18:01:26.692	$GPGGA,180127,2507.1866,N,08014.7797,W,1,10,1.4,17,M,,M,,*65
06/04/2014	18:01:27.665	$GPGGA,180128,2507.1875,N,08014.7803,W,1,10,1.4,17,M,,M,,*6A
06/04/2014	18:01:28.647	$GPGGA,180129,2507.1885,N,08014.7807,W,1,10,1.4,17,M,,M,,*60
06/04/2014	18:01:29.770	$GPGGA,180130,2507.1889,N,08014.7814,W,1,10,1.7,17,M,,M,,*65
06/04/2014	18:01:30.662	$GPGGA,180131,2507.1897,N,08014.7818,W,1,10,1.4,17,M,,M,,*64
06/04/2014	18:01:31.528	$GPGGA,180132,2507.1907,N,08014.7823,W,1,10,1.4,17,M,,M,,*67
06/04/2014	18:01:32.600	$GPGGA,180133,2507.1915,N,08014.7827,W,1,9,1.7,17,M,,M,,*5A
06/04/2014	18:01:33.512	$GPGGA,180134,2507.1924,N,08014.7833,W,1,9,1.4,17,M,,M,,*59
06/04/2014	18:01:34.524	$GPGGA,180135,2507.1931,N,08014.7840,W,1,9,1.7,17,M,,M,,*5B
06/04/2014	18:01:35.527	$GPGGA,180136,2507.1939,N,08014.7845,W,1,9,1.4,17,M,,M,,*56
06/04/2014	18:01:36.629	$GPGGA,180137,2507.1947,N,08014.7850,W,1,10,1.4,17,M,,M,,*62
06/04/2014	18:01:37.522	$GPGGA,180138,2507.1955,N,08014.7854,W,1,10,1.4,17,M,,M,,*6A
06/04/2014	18:01:38.524	$GPGGA,180139,2507.1962,N,08014.7861,W,1,10,1.4,17,M,,M,,*69
06/04/2014	18:01:39.517	$GPGGA,180140,2507.1972,N,08014.7868,W,1,10,1.4,18,M,,M,,*60
06/04/2014	18:01:40.519	$GPGGA,180141,2507.1980,N,08014.7870,W,1,10,1.4,18,M,,M,,*65
06/04/2014	18:01:41.511	$GPGGA,180142,2507.1990,N,08014.7876,W,1,10,1.4,18,M,,M,,*61
06/04/2014	18:01:42.634	$GPGGA,180143,2507.1997,N,08014.7883,W,1,10,1.4,18,M,,M,,*6D
06/04/2014	18:01:43.628	$GPGGA,180144,2507.2005,N,08014.7888,W,1,10,1.4,18,M,,M,,*60
06/04/2014	18:01:44.519	$GPGGA,180145,2507.2016,N,08014.7892,W,1,10,1.4,18,M,,M,,*68
06/04/2014	18:01:45.622	$GPGGA,180146,2507.2023,N,08014.7898,W,1,10,1.4,18,M,,M,,*67
06/04/2014	18:01:46.604	$GPGGA,180147,2507.2031,N,08014.7905,W,1,10,1.4,18,M,,M,,*60
06/04/2014	18:01:47.627	$GPGGA,180148,2507.2041,N,08014.7909,W,1,10,1.4,18,M,,M,,*64
06/04/2014	18:01:48.610	$GPGGA,180149,2507.2049,N,08014.7915,W,1,10,1.4,18,M,,M,,*60
06/04/2014	18:01:49.612	$GPGGA,180150,2507.2058,N,08014.7920,W,1,10,1.4,18,M,,M,,*6E
06/04/2014	18:01:50.623	$GPGGA,180151,2507.2066,N,08014.7926,W,1,10,1.4,18,M,,M,,*64
06/04/2014	18:01:51.626	$GPGGA,180152,2507.2074,N,08014.7931,W,1,10,1.4,18,M,,M,,*62
06/04/2014	18:01:52.608	$GPGGA,180153,2507.2083,N,08014.7937,W,1,10,1.4,18,M,,M,,*6D
06/04/2014	18:01:53.621	$GPGGA,180154,2507.2092,N,08014.7942,W,1,10,1.4,18,M,,M,,*68
06/04/2014	18:01:54.623	$GPGGA,180155,2507.2101,N,08014.7948,W,1,10,1.4,18,M,,M,,*68
06/04/2014	18:01:55.626	$GPGGA,180156,2507.2109,N,08014.7953,W,1,10,1.4,18,M,,M,,*69
06/04/2014	18:01:56.638	$GPGGA,180157,2507.2117,N,08014.7959,W,1,10,1.4,18,M,,M,,*6D
06/04/2014	18:01:57.611	$GPGGA,180158,2507.2127,N,08014.7964,W,1,10,1.4,18,M,,M,,*6F
06/04/2014	18:01:58.633	$GPGGA,180159,2507.2135,N,08014.7970,W,1,10,1.4,18,M,,M,,*68
06/04/2014	18:01:59.636	$GPGGA,180200,2507.2143,N,08014.7975,W,1,10,1.4,18,M,,M,,*63
06/04/2014	18:02:00.648	$GPGGA,180201,2507.2153,N,08014.7981,W,1,10,1.4,18,M,,M,,*68
06/04/2014	18:02:01.611	$GPGGA,180202,2507.2160,N,08014.7986,W,1,10,1.4,18,M,,M,,*6C
06/04/2014	18:02:02.613	$GPGGA,180203,2507.2170,N,08014.7992,W,1,10,1.4,18,M,,M,,*69
06/04/2014	18:02:03.636	$GPGGA,180204,2507.2178,N,08014.7998,W,1,10,1.4,18,M,,M,,*6C
06/04/2014	18:02:04.658	$GPGGA,180205,2507.2188,N,08014.8002,W,1,10,1.4,18,M,,M,,*67
06/04/2014	18:02:05.611	$GPGGA,180206,2507.2197,N,08014.8007,W,1,10,1.4,18,M,,M,,*6F
06/04/2014	18:02:06.633	$GPGGA,180207,2507.2204,N,08014.8013,W,1,10,1.4,18,M,,M,,*62
06/04/2014	18:02:07.636	$GPGGA,180208,2507.2214,N,08014.8018,W,1,10,1.4,18,M,,M,,*67
06/04/2014	18:02:08.647	$GPGGA,180209,2507.2224,N,08014.8024,W,1,10,1.4,18,M,,M,,*6A
06/04/2014	18:02:09.630	$GPGGA,180210,2507.2232,N,08014.8029,W,1,10,1.4,18,M,,M,,*68
06/04/2014	18:02:10.632	$GPGGA,180211,2507.2240,N,08014.8035,W,1,10,1.4,18,M,,M,,*61
06/04/2014	18:02:11.625	$GPGGA,180212,2507.2250,N,08014.8040,W,1,10,1.4,18,M,,M,,*61
06/04/2014	18:02:12.657	$GPGGA,180213,2507.2258,N,08014.8046,W,1,10,1.4,18,M,,M,,*6E
06/04/2014	18:02:13.630	$GPGGA,180214,2507.2268,N,08014.8051,W,1,10,1.4,18,M,,M,,*6C
06/04/2014	18:02:14.742	$GPGGA,180215,2507.2276,N,08014.8056,W,1,10,1.4,18,M,,M,,*65
06/04/2014	18:02:15.625	$GPGGA,180216,2507.2286,N,08014.8063,W,1,10,1.4,17,M,,M,,*60
06/04/2014	18:02:16.637	$GPGGA,180217,2507.2294,N,08014.8068,W,1,10,1.4,17,M,,M,,*69
06/04/2014	18:02:17.610	$GPGGA,180218,2507.2304,N,08014.8072,W,1,10,1.4,17,M,,M,,*65
06/04/2014	18:02:18.642	$GPGGA,180219,2507.2312,N,08014.8078,W,1,10,1.4,17,M,,M,,*69
06/04/2014	18:02:19.645	$GPGGA,180220,2507.2322,N,08014.8083,W,1,10,1.4,17,M,,M,,*64
06/04/2014	18:02:20.647	$GPGGA,180221,2507.2329,N,08014.8087,W,1,9,1.7,17,M,,M,,*51
06/04/2014	18:02:22.622	$GPGGA,180223,2507.2345,N,08014.8097,W,1,10,1.4,17,M,,M,,*63
06/04/2014	18:02:23.745	$GPGGA,180224,2507.2355,N,08014.8103,W,1,10,1.4,17,M,,M,,*69
06/04/2014	18:02:24.667	$GPGGA,180225,2507.2363,N,08014.8108,W,1,10,1.4,17,M,,M,,*66
06/04/2014	18:02:25.719	$GPGGA,180226,2507.2372,N,08014.8114,W,1,10,1.4,17,M,,M,,*68
06/04/2014	18:02:26.631	$GPGGA,180227,2507.2381,N,08014.8119,W,1,10,1.4,17,M,,M,,*68
06/04/2014	18:02:27.634	$GPGGA,180228,2507.2390,N,08014.8125,W,1,10,1.4,17,M,,M,,*68
06/04/2014	18:02:28.724	$GPGGA,180229,2507.2399,N,08014.8130,W,1,10,1.4,17,M,,M,,*64
06/04/2014	18:02:29.719	$GPGGA,180230,2507.2408,N,08014.8136,W,1,10,1.7,17,M,,M,,*66
06/04/2014	18:02:30.721	$GPGGA,180231,2507.2417,N,08014.8143,W,1,10,1.4,17,M,,M,,*68
06/04/2014	18:02:31.644	$GPGGA,180232,2507.2426,N,08014.8147,W,1,10,1.7,17,M,,M,,*6E
06/04/2014	18:02:32.579	$GPGGA,180233,2507.2434,N,08014.8152,W,1,10,1.4,17,M,,M,,*6B
06/04/2014	18:02:33.590	$GPGGA,180234,2507.2442,N,08014.8157,W,1,10,1.4,17,M,,M,,*68
06/04/2014	18:02:34.584	$GPGGA,180235,2507.2450,N,08014.8162,W,1,10,1.4,17,M,,M,,*6C
06/04/2014	18:02:35.595	$GPGGA,180236,2507.2459,N,08014.8168,W,1,10,1.4,17,M,,M,,*6C
06/04/2014	18:02:36.618	$GPGGA,180237,2507.2467,N,08014.8173,W,1,10,1.4,17,M,,M,,*6A
06/04/2014	18:02:37.581	$GPGGA,180238,2507.2477,N,08014.8179,W,1,10,1.7,17,M,,M,,*6D
06/04/2014	18:02:38.573	$GPGGA,180239,2507.2485,N,08014.8184,W,1,9,1.7,17,M,,M,,*5B
06/04/2014	18:02:39.599	$GPGGA,180240,2507.2489,N,08014.8186,W,1,9,1.4,17,M,,M,,*58
06/04/2014	18:02:40.601	$GPGGA,180241,2507.2496,N,08014.8190,W,1,10,1.4,17,M,,M,,*68
06/04/2014	18:02:41.581	$GPGGA,180242,2507.2506,N,08014.8197,W,1,10,1.4,17,M,,M,,*64
06/04/2014	18:02:42.611	$GPGGA,180243,2507.2514,N,08014.8201,W,1,10,1.4,17,M,,M,,*6A
06/04/2014	18:02:43.595	$GPGGA,180244,2507.2522,N,08014.8208,W,1,10,1.7,17,M,,M,,*62
06/04/2014	18:02:44.577	$GPGGA,180245,2507.2529,N,08014.8212,W,1,9,1.7,17,M,,M,,*5B
06/04/2014	18:02:45.580	$GPGGA,180246,2507.2538,N,08014.8217,W,1,9,1.7,17,M,,M,,*5D
06/04/2014	18:02:46.602	$GPGGA,180247,2507.2543,N,08014.8220,W,1,9,1.7,17,M,,M,,*54
06/04/2014	18:02:47.595	$GPGGA,180248,2507.2549,N,08014.8224,W,1,9,1.4,17,M,,M,,*56
06/04/2014	18:02:48.597	$GPGGA,180249,2507.2557,N,08014.8227,W,1,10,1.4,17,M,,M,,*63
06/04/2014	18:02:49.580	$GPGGA,180250,2507.2564,N,08014.8233,W,1,10,1.4,17,M,,M,,*6E
06/04/2014	18:02:50.602	$GPGGA,180251,2507.2569,N,08014.8237,W,1,9,1.7,17,M,,M,,*5D
06/04/2014	18:02:51.595	$GPGGA,180252,2507.2576,N,08014.8242,W,1,9,1.4,17,M,,M,,*51
06/04/2014	18:02:52.577	$GPGGA,180253,2507.2585,N,08014.8246,W,1,10,1.4,17,M,,M,,*60
06/04/2014	18:02:53.590	$GPGGA,180254,2507.2592,N,08014.8251,W,1,10,1.4,17,M,,M,,*67
06/04/2014	18:02:54.622	$GPGGA,180255,2507.2598,N,08014.8256,W,1,10,1.4,17,M,,M,,*6B
06/04/2014	18:02:55.595	$GPGGA,180256,2507.2607,N,08014.8262,W,1,10,1.4,17,M,,M,,*6A
06/04/2014	18:02:56.617	$GPGGA,180257,2507.2612,N,08014.8266,W,1,10,1.4,17,M,,M,,*6B
06/04/2014	18:02:57.590	$GPGGA,180258,2507.2619,N,08014.8270,W,1,10,1.4,17,M,,M,,*68
06/04/2014	18:02:58.613	$GPGGA,180259,2507.2626,N,08014.8273,W,1,10,1.4,17,M,,M,,*66
06/04/2014	18:02:59.606	$GPGGA,180300,2507.2633,N,08014.8277,W,1,10,1.4,17,M,,M,,*6B
06/04/2014	18:03:00.586	$GPGGA,180301,2507.2640,N,08014.8280,W,1,10,1.4,17,M,,M,,*66
06/04/2014	18:03:01.679	$GPGGA,180302,2507.2647,N,08014.8284,W,1,10,1.4,17,M,,M,,*66
06/04/2014	18:03:02.581	$GPGGA,180303,2507.2652,N,08014.8289,W,1,10,1.4,17,M,,M,,*6E
06/04/2014	18:03:03.614	$GPGGA,180304,2507.2659,N,08014.8292,W,1,10,1.4,18,M,,M,,*67
06/04/2014	18:03:04.626	$GPGGA,180305,2507.2666,N,08014.8298,W,1,10,1.4,18,M,,M,,*60
06/04/2014	18:03:05.599	$GPGGA,180306,2507.2673,N,08014.8302,W,1,10,1.4,18,M,,M,,*65
06/04/2014	18:03:06.711	$GPGGA,180307,2507.2679,N,08014.8306,W,1,10,1.4,18,M,,M,,*6A
06/04/2014	18:03:07.714	$GPGGA,180308,2507.2687,N,08014.8309,W,1,10,1.4,18,M,,M,,*6B
06/04/2014	18:03:08.616	$GPGGA,180309,2507.2694,N,08014.8313,W,1,10,1.4,18,M,,M,,*63
06/04/2014	18:03:09.599	$GPGGA,180310,2507.2699,N,08014.8318,W,1,10,1.4,18,M,,M,,*6D
06/04/2014	18:03:10.611	$GPGGA,180311,2507.2706,N,08014.8322,W,1,10,1.4,18,M,,M,,*62
06/04/2014	18:03:11.704	$GPGGA,180312,2507.2713,N,08014.8325,W,1,10,1.4,18,M,,M,,*62
06/04/2014	18:03:12.586	$GPGGA,180313,2507.2720,N,08014.8331,W,1,10,1.4,18,M,,M,,*66
06/04/2014	18:03:13.690	$GPGGA,180314,2507.2727,N,08014.8335,W,1,10,1.4,18,M,,M,,*62
06/04/2014	18:03:16.096	$GPGGA,180316,2507.2741,N,08014.8343,W,1,10,1.4,18,M,,M,,*61
06/04/2014	18:03:16.716	$GPGGA,180317,2507.2746,N,08014.8349,W,1,10,1.4,18,M,,M,,*6D
06/04/2014	18:03:17.689	$GPGGA,180318,2507.2755,N,08014.8352,W,1,10,1.4,18,M,,M,,*6A
06/04/2014	18:03:18.720	$GPGGA,180319,2507.2762,N,08014.8354,W,1,10,1.4,18,M,,M,,*69
06/04/2014	18:03:19.713	$GPGGA,180320,2507.2767,N,08014.8360,W,1,10,1.4,18,M,,M,,*61
06/04/2014	18:03:20.707	$GPGGA,180321,2507.2773,N,08014.8363,W,1,10,1.4,18,M,,M,,*66
06/04/2014	18:03:21.701	$GPGGA,180322,2507.2781,N,08014.8367,W,1,10,1.4,18,M,,M,,*6C
06/04/2014	18:03:22.720	$GPGGA,180323,2507.2788,N,08014.8371,W,1,10,1.4,18,M,,M,,*63
06/04/2014	18:03:23.723	$GPGGA,180324,2507.2793,N,08014.8375,W,1,10,1.4,18,M,,M,,*6A
06/04/2014	18:03:24.715	$GPGGA,180325,2507.2800,N,08014.8379,W,1,10,1.4,18,M,,M,,*62
06/04/2014	18:03:25.714	$GPGGA,180326,2507.2807,N,08014.8383,W,1,10,1.4,18,M,,M,,*63
06/04/2014	18:03:26.720	$GPGGA,180327,2507.2814,N,08014.8386,W,1,10,1.4,18,M,,M,,*65
06/04/2014	18:03:27.717	$GPGGA,180328,2507.2820,N,08014.8390,W,1,10,1.4,18,M,,M,,*6A
06/04/2014	18:03:28.715	$GPGGA,180329,2507.2827,N,08014.8394,W,1,10,1.4,17,M,,M,,*67
06/04/2014	18:03:29.688	$GPGGA,180330,2507.2832,N,08014.8399,W,1,10,1.4,17,M,,M,,*66
06/04/2014	18:03:30.730	$GPGGA,180331,2507.2839,N,08014.8403,W,1,10,1.4,17,M,,M,,*68
06/04/2014	18:03:31.565	$GPGGA,180332,2507.2846,N,08014.8407,W,1,10,1.4,17,M,,M,,*67
06/04/2014	18:03:32.568	$GPGGA,180333,2507.2851,N,08014.8410,W,1,10,1.4,17,M,,M,,*66
06/04/2014	18:03:33.550	$GPGGA,180334,2507.2858,N,08014.8412,W,1,10,1.4,17,M,,M,,*6A
06/04/2014	18:03:34.573	$GPGGA,180335,2507.2864,N,08014.8418,W,1,10,1.4,17,M,,M,,*6E
06/04/2014	18:03:35.564	$GPGGA,180336,2507.2869,N,08014.8421,W,1,10,1.4,17,M,,M,,*6A
06/04/2014	18:03:36.566	$GPGGA,180337,2507.2876,N,08014.8423,W,1,10,1.4,17,M,,M,,*67
06/04/2014	18:03:37.559	$GPGGA,180338,2507.2883,N,08014.8428,W,1,10,1.4,17,M,,M,,*69
06/04/2014	18:03:38.581	$GPGGA,180339,2507.2889,N,08014.8432,W,1,10,1.4,17,M,,M,,*69
06/04/2014	18:03:39.584	$GPGGA,180340,2507.2896,N,08014.8436,W,1,10,1.4,17,M,,M,,*6D
06/04/2014	18:03:40.588	$GPGGA,180341,2507.2903,N,08014.8439,W,1,10,1.4,17,M,,M,,*6E
06/04/2014	18:03:41.569	$GPGGA,180342,2507.2908,N,08014.8443,W,1,10,1.4,17,M,,M,,*6B
06/04/2014	18:03:42.581	$GPGGA,180343,2507.2915,N,08014.8446,W,1,10,1.4,17,M,,M,,*63
06/04/2014	18:03:43.574	$GPGGA,180344,2507.2921,N,08014.8450,W,1,10,1.4,17,M,,M,,*64
06/04/2014	18:03:44.586	$GPGGA,180345,2507.2926,N,08014.8452,W,1,10,1.4,17,M,,M,,*60
06/04/2014	18:03:45.569	$GPGGA,180346,2507.2933,N,08014.8457,W,1,10,1.4,17,M,,M,,*62
06/04/2014	18:03:46.581	$GPGGA,180347,2507.2940,N,08014.8459,W,1,10,1.4,17,M,,M,,*69
06/04/2014	18:03:47.574	$GPGGA,180348,2507.2945,N,08014.8462,W,1,10,1.4,17,M,,M,,*6B
06/04/2014	18:03:48.576	$GPGGA,180349,2507.2952,N,08014.8466,W,1,10,1.4,17,M,,M,,*68
06/04/2014	18:03:49.569	$GPGGA,180350,2507.2958,N,08014.8469,W,1,10,1.4,17,M,,M,,*65
06/04/2014	18:03:50.591	$GPGGA,180351,2507.2965,N,08014.8472,W,1,10,1.4,17,M,,M,,*60
06/04/2014	18:03:51.584	$GPGGA,180352,2507.2972,N,08014.8475,W,1,10,1.4,17,M,,M,,*62
06/04/2014	18:03:52.585	$GPGGA,180353,2507.2977,N,08014.8479,W,1,10,1.4,17,M,,M,,*6A
06/04/2014	18:03:53.648	$GPGGA,180354,2507.2983,N,08014.8483,W,1,10,1.7,17,M,,M,,*60
06/04/2014	18:03:54.550	$GPGGA,180355,2507.2991,N,08014.8486,W,1,8,1.4,17,M,,M,,*5D
06/04/2014	18:03:55.663	$GPGGA,180356,2507.2999,N,08014.8488,W,1,8,1.4,17,M,,M,,*58
06/04/2014	18:03:56.595	$GPGGA,180357,2507.3005,N,08014.8493,W,1,10,1.7,17,M,,M,,*64
06/04/2014	18:03:57.578	$GPGGA,180358,2507.3010,N,08014.8495,W,1,10,1.4,17,M,,M,,*6A
06/04/2014	18:03:58.570	$GPGGA,180359,2507.3017,N,08014.8497,W,1,10,1.4,17,M,,M,,*6E
06/04/2014	18:03:59.703	$GPGGA,180400,2507.3024,N,08014.8499,W,1,10,1.4,17,M,,M,,*6B
06/04/2014	18:04:00.675	$GPGGA,180401,2507.3028,N,08014.8502,W,1,10,1.4,17,M,,M,,*65
06/04/2014	18:04:01.649	$GPGGA,180402,2507.3035,N,08014.8505,W,1,10,1.4,17,M,,M,,*6D
06/04/2014	18:04:02.660	$GPGGA,180403,2507.3041,N,08014.8508,W,1,10,1.4,17,M,,M,,*62
06/04/2014	18:04:03.673	$GPGGA,180404,2507.3048,N,08014.8512,W,1,10,1.4,17,M,,M,,*67
06/04/2014	18:04:04.655	$GPGGA,180405,2507.3053,N,08014.8515,W,1,10,1.4,17,M,,M,,*6B
06/04/2014	18:04:05.658	$GPGGA,180406,2507.3060,N,08014.8516,W,1,10,1.4,17,M,,M,,*6B
06/04/2014	18:04:06.650	$GPGGA,180407,2507.3067,N,08014.8519,W,1,10,1.4,17,M,,M,,*62
06/04/2014	18:04:07.663	$GPGGA,180408,2507.3074,N,08014.8522,W,1,10,1.4,17,M,,M,,*67
06/04/2014	18:04:08.668	$GPGGA,180409,2507.3080,N,08014.8524,W,1,10,1.4,17,M,,M,,*6B
06/04/2014	18:04:09.669	$GPGGA,180410,2507.3085,N,08014.8527,W,1,10,1.4,17,M,,M,,*65
06/04/2014	18:04:10.659	$GPGGA,180411,2507.3092,N,08014.8530,W,1,10,1.4,17,M,,M,,*64
06/04/2014	18:04:11.672	$GPGGA,180412,2507.3100,N,08014.8533,W,1,10,1.4,17,M,,M,,*6E
06/04/2014	18:04:12.654	$GPGGA,180413,2507.3107,N,08014.8535,W,1,9,1.7,17,M,,M,,*55
06/04/2014	18:04:13.667	$GPGGA,180414,2507.3114,N,08014.8540,W,1,9,1.4,17,M,,M,,*51
06/04/2014	18:04:14.689	$GPGGA,180415,2507.3121,N,08014.8544,W,1,10,1.4,17,M,,M,,*6A
06/04/2014	18:04:15.672	$GPGGA,180416,2507.3131,N,08014.8546,W,1,10,1.4,17,M,,M,,*6A
06/04/2014	18:04:16.684	$GPGGA,180417,2507.3139,N,08014.8548,W,1,9,1.7,17,M,,M,,*56
06/04/2014	18:04:17.667	$GPGGA,180418,2507.3147,N,08014.8551,W,1,9,1.4,17,M,,M,,*5B
06/04/2014	18:04:18.679	$GPGGA,180419,2507.3154,N,08014.8555,W,1,9,1.7,17,M,,M,,*5F
06/04/2014	18:04:19.662	$GPGGA,180420,2507.3164,N,08014.8555,W,1,9,1.4,18,M,,M,,*5A
06/04/2014	18:04:20.685	$GPGGA,180421,2507.3175,N,08014.8555,W,1,10,1.4,18,M,,M,,*63
06/04/2014	18:04:21.657	$GPGGA,180422,2507.3183,N,08014.8559,W,1,10,1.4,18,M,,M,,*65
06/04/2014	18:04:22.699	$GPGGA,180423,2507.3193,N,08014.8562,W,1,10,1.4,18,M,,M,,*6D
06/04/2014	18:04:23.682	$GPGGA,180424,2507.3204,N,08014.8563,W,1,10,1.4,18,M,,M,,*66
06/04/2014	18:04:24.664	$GPGGA,180425,2507.3215,N,08014.8564,W,1,10,1.4,18,M,,M,,*60
06/04/2014	18:04:25.667	$GPGGA,180426,2507.3225,N,08014.8567,W,1,10,1.4,18,M,,M,,*63
06/04/2014	18:04:26.689	$GPGGA,180427,2507.3236,N,08014.8569,W,1,10,1.4,18,M,,M,,*6E
06/04/2014	18:04:27.681	$GPGGA,180428,2507.3247,N,08014.8568,W,1,10,1.4,18,M,,M,,*66
06/04/2014	18:04:28.693	$GPGGA,180429,2507.3258,N,08014.8570,W,1,10,1.4,18,M,,M,,*60
06/04/2014	18:04:29.686	$GPGGA,180430,2507.3266,N,08014.8571,W,1,10,1.9,18,M,,M,,*69
06/04/2014	18:04:30.698	$GPGGA,180431,2507.3277,N,08014.8570,W,1,10,1.4,18,M,,M,,*64
06/04/2014	18:04:31.543	$GPGGA,180432,2507.3288,N,08014.8569,W,1,10,1.4,18,M,,M,,*6F
06/04/2014	18:04:32.555	$GPGGA,180433,2507.3299,N,08014.8570,W,1,10,1.4,18,M,,M,,*66
06/04/2014	18:04:33.528	$GPGGA,180434,2507.3309,N,08014.8570,W,1,10,1.4,18,M,,M,,*69
06/04/2014	18:04:34.510	$GPGGA,180435,2507.3320,N,08014.8569,W,1,10,1.4,18,M,,M,,*6B
06/04/2014	18:04:35.543	$GPGGA,180436,2507.3334,N,08014.8568,W,1,10,1.4,18,M,,M,,*6C
06/04/2014	18:04:36.515	$GPGGA,180437,2507.3346,N,08014.8566,W,1,9,1.5,18,M,,M,,*5F
06/04/2014	18:04:37.608	$GPGGA,180438,2507.3360,N,08014.8563,W,1,9,1.4,18,M,,M,,*50
06/04/2014	18:04:38.510	$GPGGA,180439,2507.3373,N,08014.8560,W,1,10,1.4,18,M,,M,,*68
06/04/2014	18:04:39.653	$GPGGA,180440,2507.3387,N,08014.8558,W,1,10,1.4,18,M,,M,,*66
06/04/2014	18:04:40.645	$GPGGA,180441,2507.3400,N,08014.8555,W,1,9,1.4,18,M,,M,,*5A
06/04/2014	18:04:41.517	$GPGGA,180442,2507.3413,N,08014.8551,W,1,9,1.4,18,M,,M,,*5F
06/04/2014	18:04:42.650	$GPGGA,180443,2507.3425,N,08014.8549,W,1,10,1.4,18,M,,M,,*6A
06/04/2014	18:04:43.653	$GPGGA,180444,2507.3439,N,08014.8548,W,1,10,1.4,18,M,,M,,*61
06/04/2014	18:04:44.525	$GPGGA,180445,2507.3452,N,08014.8543,W,1,10,1.4,19,M,,M,,*67
06/04/2014	18:04:45.637	$GPGGA,180446,2507.3464,N,08014.8539,W,1,10,1.4,19,M,,M,,*6C
06/04/2014	18:04:46.629	$GPGGA,180447,2507.3476,N,08014.8537,W,1,10,1.4,19,M,,M,,*60
06/04/2014	18:04:47.542	$GPGGA,180448,2507.3489,N,08014.8535,W,1,10,1.8,19,M,,M,,*61
06/04/2014	18:04:48.615	$GPGGA,180449,2507.3501,N,08014.8528,W,1,10,1.4,19,M,,M,,*61
06/04/2014	18:04:49.617	$GPGGA,180450,2507.3512,N,08014.8525,W,1,10,1.5,19,M,,M,,*67
06/04/2014	18:04:50.619	$GPGGA,180451,2507.3526,N,08014.8524,W,1,10,1.4,19,M,,M,,*61
06/04/2014	18:04:51.652	$GPGGA,180452,2507.3537,N,08014.8519,W,1,10,1.4,19,M,,M,,*6C
06/04/2014	18:04:52.634	$GPGGA,180453,2507.3547,N,08014.8512,W,1,10,1.4,19,M,,M,,*61
06/04/2014	18:04:53.617	$GPGGA,180454,2507.3558,N,08014.8509,W,1,10,1.4,19,M,,M,,*62
06/04/2014	18:04:54.639	$GPGGA,180455,2507.3570,N,08014.8504,W,1,10,1.4,19,M,,M,,*64
06/04/2014	18:04:55.642	$GPGGA,180456,2507.3582,N,08014.8496,W,1,10,1.4,20,M,,M,,*6A
06/04/2014	18:04:56.624	$GPGGA,180457,2507.3591,N,08014.8489,W,1,10,1.4,20,M,,M,,*67
06/04/2014	18:04:57.627	$GPGGA,180458,2507.3600,N,08014.8483,W,1,10,1.4,20,M,,M,,*69
06/04/2014	18:04:58.619	$GPGGA,180459,2507.3612,N,08014.8477,W,1,9,1.7,20,M,,M,,*5B
06/04/2014	18:04:59.652	$GPGGA,180500,2507.3620,N,08014.8470,W,1,9,1.4,20,M,,M,,*53
06/04/2014	18:05:00.646	$GPGGA,180501,2507.3630,N,08014.8461,W,1,10,1.4,20,M,,M,,*6B
06/04/2014	18:05:01.627	$GPGGA,180502,2507.3640,N,08014.8454,W,1,10,1.4,20,M,,M,,*69
06/04/2014	18:05:02.638	$GPGGA,180503,2507.3649,N,08014.8448,W,1,10,1.4,20,M,,M,,*6C
06/04/2014	18:05:03.651	$GPGGA,180504,2507.3658,N,08014.8439,W,1,10,1.4,20,M,,M,,*6D
06/04/2014	18:05:04.623	$GPGGA,180505,2507.3667,N,08014.8429,W,1,10,1.4,20,M,,M,,*61
06/04/2014	18:05:05.626	$GPGGA,180506,2507.3674,N,08014.8421,W,1,10,1.4,20,M,,M,,*68
06/04/2014	18:05:06.628	$GPGGA,180507,2507.3682,N,08014.8412,W,1,10,1.4,20,M,,M,,*60
06/04/2014	18:05:07.661	$GPGGA,180508,2507.3692,N,08014.8402,W,1,10,1.4,20,M,,M,,*6F
06/04/2014	18:05:08.643	$GPGGA,180509,2507.3699,N,08014.8393,W,1,10,1.4,20,M,,M,,*6A
06/04/2014	18:05:09.636	$GPGGA,180510,2507.3706,N,08014.8384,W,1,10,1.4,20,M,,M,,*63
06/04/2014	18:05:10.658	$GPGGA,180511,2507.3713,N,08014.8373,W,1,10,1.4,20,M,,M,,*6E
06/04/2014	18:05:11.631	$GPGGA,180512,2507.3721,N,08014.8364,W,1,10,1.4,20,M,,M,,*6A
06/04/2014	18:05:12.665	$GPGGA,180513,2507.3728,N,08014.8353,W,1,10,1.4,20,M,,M,,*66
06/04/2014	18:05:13.636	$GPGGA,180514,2507.3734,N,08014.8342,W,1,10,1.4,20,M,,M,,*6C
06/04/2014	18:05:14.658	$GPGGA,180515,2507.3739,N,08014.8332,W,1,10,1.4,20,M,,M,,*67
06/04/2014	18:05:15.651	$GPGGA,180516,2507.3745,N,08014.8322,W,1,10,1.4,20,M,,M,,*6E
06/04/2014	18:05:16.623	$GPGGA,180517,2507.3749,N,08014.8311,W,1,10,1.4,20,M,,M,,*63
06/04/2014	18:05:17.636	$GPGGA,180518,2507.3754,N,08014.8301,W,1,10,1.4,20,M,,M,,*61
06/04/2014	18:05:18.658	$GPGGA,180519,2507.3760,N,08014.8290,W,1,10,1.4,20,M,,M,,*6E
06/04/2014	18:05:19.641	$GPGGA,180520,2507.3761,N,08014.8278,W,1,10,1.4,20,M,,M,,*63
06/04/2014	18:05:20.632	$GPGGA,180521,2507.3765,N,08014.8269,W,1,10,1.4,20,M,,M,,*66
06/04/2014	18:05:21.645	$GPGGA,180522,2507.3771,N,08014.8258,W,1,10,1.4,20,M,,M,,*62
06/04/2014	18:05:22.667	$GPGGA,180523,2507.3772,N,08014.8245,W,1,10,1.4,20,M,,M,,*6C
06/04/2014	18:05:23.650	$GPGGA,180524,2507.3772,N,08014.8237,W,1,10,1.4,20,M,,M,,*6E
06/04/2014	18:05:24.662	$GPGGA,180525,2507.3775,N,08014.8226,W,1,10,1.4,20,M,,M,,*68
06/04/2014	18:05:25.635	$GPGGA,180526,2507.3779,N,08014.8214,W,1,10,1.4,20,M,,M,,*66
06/04/2014	18:05:26.657	$GPGGA,180527,2507.3779,N,08014.8206,W,1,10,1.4,20,M,,M,,*64
06/04/2014	18:05:27.660	$GPGGA,180528,2507.3779,N,08014.8197,W,1,10,1.4,20,M,,M,,*60
06/04/2014	18:05:28.632	$GPGGA,180529,2507.3781,N,08014.8187,W,1,10,1.4,20,M,,M,,*67
06/04/2014	18:05:29.735	$GPGGA,180530,2507.3783,N,08014.8178,W,1,10,1.4,20,M,,M,,*6D
06/04/2014	18:05:30.767	$GPGGA,180531,2507.3783,N,08014.8169,W,1,10,1.4,20,M,,M,,*6C
06/04/2014	18:05:31.525	$GPGGA,180532,2507.3783,N,08014.8162,W,1,10,1.4,20,M,,M,,*64
06/04/2014	18:05:32.563	$GPGGA,180533,2507.3783,N,08014.8153,W,1,10,1.4,20,M,,M,,*67
06/04/2014	18:05:33.586	$GPGGA,180534,2507.3785,N,08014.8144,W,1,10,1.8,20,M,,M,,*6C
06/04/2014	18:05:34.598	$GPGGA,180535,2507.3786,N,08014.8137,W,1,8,2.0,20,M,,M,,*58
06/04/2014	18:05:35.511	$GPGGA,180536,2507.3786,N,08014.8130,W,1,8,1.7,20,M,,M,,*58
06/04/2014	18:05:36.584	$GPGGA,180537,2507.3786,N,08014.8123,W,1,9,1.7,20,M,,M,,*5A
06/04/2014	18:05:37.595	$GPGGA,180538,2507.3786,N,08014.8115,W,1,9,1.7,20,M,,M,,*50
06/04/2014	18:05:38.577	$GPGGA,180539,2507.3786,N,08014.8108,W,1,9,1.7,20,M,,M,,*5D
06/04/2014	18:05:39.590	$GPGGA,180540,2507.3784,N,08014.8103,W,1,9,1.7,20,M,,M,,*5A
06/04/2014	18:05:40.584	$GPGGA,180541,2507.3785,N,08014.8097,W,1,9,1.7,20,M,,M,,*56
06/04/2014	18:05:41.585	$GPGGA,180542,2507.3784,N,08014.8090,W,1,9,1.7,20,M,,M,,*53
06/04/2014	18:05:42.617	$GPGGA,180543,2507.3785,N,08014.8084,W,1,9,1.7,20,M,,M,,*56
06/04/2014	18:05:43.610	$GPGGA,180544,2507.3783,N,08014.8079,W,1,9,1.7,20,M,,M,,*55
06/04/2014	18:05:44.602	$GPGGA,180545,2507.3785,N,08014.8074,W,1,9,1.7,20,M,,M,,*5F
06/04/2014	18:05:45.595	$GPGGA,180546,2507.3784,N,08014.8070,W,1,9,1.4,20,M,,M,,*5A
06/04/2014	18:05:46.608	$GPGGA,180547,2507.3786,N,08014.8066,W,1,10,1.4,20,M,,M,,*66
06/04/2014	18:05:47.620	$GPGGA,180548,2507.3783,N,08014.8067,W,1,10,1.9,20,M,,M,,*60
06/04/2014	18:05:48.612	$GPGGA,180549,2507.3785,N,08014.8064,W,1,10,1.4,20,M,,M,,*69
06/04/2014	18:05:49.605	$GPGGA,180550,2507.3784,N,08014.8062,W,1,10,1.4,20,M,,M,,*66
06/04/2014	18:05:50.617	$GPGGA,180551,2507.3786,N,08014.8055,W,1,9,1.5,20,M,,M,,*58
06/04/2014	18:05:51.610	$GPGGA,180552,2507.3786,N,08014.8050,W,1,9,1.7,20,M,,M,,*5C
06/04/2014	18:05:52.602	$GPGGA,180553,2507.3786,N,08014.8047,W,1,10,1.4,20,M,,M,,*60
06/04/2014	18:05:53.605	$GPGGA,180554,2507.3788,N,08014.8044,W,1,10,1.4,20,M,,M,,*6A
06/04/2014	18:05:54.597	$GPGGA,180555,2507.3787,N,08014.8040,W,1,10,1.4,20,M,,M,,*60
06/04/2014	18:05:55.599	$GPGGA,180556,2507.3789,N,08014.8036,W,1,10,1.4,20,M,,M,,*6C
06/04/2014	18:05:56.621	$GPGGA,180557,2507.3788,N,08014.8033,W,1,10,1.4,20,M,,M,,*69
06/04/2014	18:05:57.594	$GPGGA,180558,2507.3790,N,08014.8029,W,1,10,1.5,20,M,,M,,*65
06/04/2014	18:05:58.596	$GPGGA,180559,2507.3790,N,08014.8026,W,1,10,1.4,20,M,,M,,*6A
06/04/2014	18:06:01.012	$GPGGA,180601,2507.3792,N,08014.8017,W,1,10,1.4,20,M,,M,,*64
06/04/2014	18:06:01.594	$GPGGA,180602,2507.3791,N,08014.8014,W,1,10,1.4,20,M,,M,,*67
06/04/2014	18:06:02.626	$GPGGA,180603,2507.3792,N,08014.8013,W,1,10,1.4,21,M,,M,,*63
06/04/2014	18:06:03.619	$GPGGA,180604,2507.3793,N,08014.8010,W,1,10,1.4,21,M,,M,,*66
06/04/2014	18:06:04.621	$GPGGA,180605,2507.3792,N,08014.8007,W,1,10,1.4,21,M,,M,,*60
06/04/2014	18:06:07.619	$GPGGA,180608,2507.3794,N,08014.8001,W,1,10,1.4,21,M,,M,,*6D
06/04/2014	18:06:08.742	$GPGGA,180609,2507.3796,N,08014.7999,W,1,10,1.4,21,M,,M,,*69
06/04/2014	18:06:09.604	$GPGGA,180610,2507.3797,N,08014.7997,W,1,10,1.4,21,M,,M,,*6E
06/04/2014	18:06:10.756	$GPGGA,180611,2507.3799,N,08014.7994,W,1,10,1.4,21,M,,M,,*62
06/04/2014	18:06:11.609	$GPGGA,180612,2507.3798,N,08014.7992,W,1,10,1.4,21,M,,M,,*66
06/04/2014	18:06:12.620	$GPGGA,180613,2507.3799,N,08014.7991,W,1,10,1.4,21,M,,M,,*65
06/04/2014	18:06:13.703	$GPGGA,180614,2507.3801,N,08014.7988,W,1,10,1.4,21,M,,M,,*64
06/04/2014	18:06:14.605	$GPGGA,180615,2507.3801,N,08014.7987,W,1,10,1.4,21,M,,M,,*6A
06/04/2014	18:06:15.788	$GPGGA,180616,2507.3801,N,08014.7988,W,1,10,1.4,21,M,,M,,*66
06/04/2014	18:06:16.770	$GPGGA,180617,2507.3803,N,08014.7985,W,1,10,1.4,21,M,,M,,*68
06/04/2014	18:06:17.793	$GPGGA,180618,2507.3806,N,08014.7981,W,1,10,1.4,21,M,,M,,*66
06/04/2014	18:06:18.605	$GPGGA,180619,2507.3807,N,08014.7980,W,1,10,1.4,21,M,,M,,*67
06/04/2014	18:06:19.607	$GPGGA,180620,2507.3806,N,08014.7980,W,1,10,1.4,21,M,,M,,*6C
06/04/2014	18:06:20.610	$GPGGA,180621,2507.3808,N,08014.7978,W,1,10,1.4,21,M,,M,,*64
06/04/2014	18:06:21.773	$GPGGA,180622,2507.3811,N,08014.7976,W,1,10,1.4,21,M,,M,,*61
06/04/2014	18:06:22.755	$GPGGA,180623,2507.3811,N,08014.7974,W,1,10,1.4,21,M,,M,,*62
06/04/2014	18:06:23.788	$GPGGA,180624,2507.3812,N,08014.7974,W,1,10,1.4,21,M,,M,,*66
06/04/2014	18:06:24.740	$GPGGA,180625,2507.3814,N,08014.7973,W,1,10,1.4,21,M,,M,,*66
06/04/2014	18:06:25.773	$GPGGA,180626,2507.3817,N,08014.7971,W,1,10,1.4,21,M,,M,,*64
06/04/2014	18:06:26.755	$GPGGA,180627,2507.3818,N,08014.7969,W,1,10,1.4,21,M,,M,,*63
06/04/2014	18:06:27.838	$GPGGA,180628,2507.3819,N,08014.7970,W,1,10,1.4,21,M,,M,,*65
06/04/2014	18:06:28.730	$GPGGA,180629,2507.3821,N,08014.7969,W,1,10,1.4,21,M,,M,,*67
06/04/2014	18:06:29.703	$GPGGA,180630,2507.3822,N,08014.7966,W,1,10,1.4,21,M,,M,,*63
06/04/2014	18:06:30.714	$GPGGA,180631,2507.3825,N,08014.7964,W,1,10,1.4,21,M,,M,,*67
06/04/2014	18:06:31.629	$GPGGA,180632,2507.3826,N,08014.7966,W,1,10,1.4,21,M,,M,,*65
06/04/2014	18:06:32.601	$GPGGA,180633,2507.3828,N,08014.7964,W,1,10,1.4,21,M,,M,,*68
06/04/2014	18:06:33.554	$GPGGA,180634,2507.3830,N,08014.7962,W,1,10,1.4,21,M,,M,,*60
06/04/2014	18:06:34.616	$GPGGA,180635,2507.3832,N,08014.7960,W,1,10,1.4,21,M,,M,,*61
06/04/2014	18:06:35.619	$GPGGA,180636,2507.3833,N,08014.7959,W,1,10,1.4,21,M,,M,,*69
06/04/2014	18:06:36.621	$GPGGA,180637,2507.3833,N,08014.7959,W,1,10,1.4,21,M,,M,,*68
06/04/2014	18:06:37.614	$GPGGA,180638,2507.3835,N,08014.7957,W,1,10,1.4,21,M,,M,,*6F
06/04/2014	18:06:38.637	$GPGGA,180639,2507.3836,N,08014.7954,W,1,10,1.4,21,M,,M,,*6E
06/04/2014	18:06:39.629	$GPGGA,180640,2507.3834,N,08014.7952,W,1,10,1.4,21,M,,M,,*64
06/04/2014	18:06:40.611	$GPGGA,180641,2507.3833,N,08014.7950,W,1,10,1.4,21,M,,M,,*60
06/04/2014	18:06:41.624	$GPGGA,180642,2507.3830,N,08014.7946,W,1,10,1.4,21,M,,M,,*67
06/04/2014	18:06:42.606	$GPGGA,180643,2507.3828,N,08014.7941,W,1,10,1.4,21,M,,M,,*68
06/04/2014	18:06:43.629	$GPGGA,180644,2507.3824,N,08014.7937,W,1,10,1.4,21,M,,M,,*62
06/04/2014	18:06:44.581	$GPGGA,180645,2507.3820,N,08014.7933,W,1,10,1.4,21,M,,M,,*63
06/04/2014	18:06:45.624	$GPGGA,180646,2507.3815,N,08014.7927,W,1,10,1.4,21,M,,M,,*63
06/04/2014	18:06:46.556	$GPGGA,180647,2507.3810,N,08014.7921,W,1,10,1.4,21,M,,M,,*61
06/04/2014	18:06:47.628	$GPGGA,180648,2507.3804,N,08014.7915,W,1,10,1.4,20,M,,M,,*6D
06/04/2014	18:06:48.611	$GPGGA,180649,2507.3798,N,08014.7909,W,1,10,1.4,20,M,,M,,*6B
06/04/2014	18:06:49.613	$GPGGA,180650,2507.3792,N,08014.7902,W,1,10,1.4,20,M,,M,,*62
06/04/2014	18:06:50.675	$GPGGA,180651,2507.3786,N,08014.7894,W,1,10,1.4,20,M,,M,,*68
06/04/2014	18:06:51.588	$GPGGA,180652,2507.3777,N,08014.7888,W,1,10,1.4,20,M,,M,,*68
06/04/2014	18:06:52.600	$GPGGA,180653,2507.3770,N,08014.7879,W,1,10,1.4,20,M,,M,,*60
06/04/2014	18:06:53.623	$GPGGA,180654,2507.3762,N,08014.7870,W,1,10,1.4,20,M,,M,,*6D
06/04/2014	18:06:54.705	$GPGGA,180655,2507.3754,N,08014.7862,W,1,10,1.4,20,M,,M,,*6A
06/04/2014	18:06:55.648	$GPGGA,180656,2507.3745,N,08014.7854,W,1,10,1.4,20,M,,M,,*6C
06/04/2014	18:06:56.600	$GPGGA,180657,2507.3738,N,08014.7844,W,1,10,1.4,20,M,,M,,*66
06/04/2014	18:06:57.663	$GPGGA,180658,2507.3729,N,08014.7834,W,1,10,1.4,20,M,,M,,*6E
06/04/2014	18:06:58.565	$GPGGA,180659,2507.3721,N,08014.7825,W,1,10,1.4,20,M,,M,,*67
06/04/2014	18:06:59.648	$GPGGA,180700,2507.3711,N,08014.7815,W,1,10,1.7,20,M,,M,,*69
06/04/2014	18:07:00.670	$GPGGA,180701,2507.3703,N,08014.7804,W,1,9,1.4,20,M,,M,,*50
06/04/2014	18:07:01.634	$GPGGA,180702,2507.3694,N,08014.7794,W,1,9,1.7,20,M,,M,,*59
06/04/2014	18:07:02.685	$GPGGA,180703,2507.3685,N,08014.7785,W,1,9,1.4,19,M,,M,,*51
06/04/2014	18:07:03.638	$GPGGA,180704,2507.3678,N,08014.7775,W,1,9,1.7,19,M,,M,,*58
06/04/2014	18:07:04.680	$GPGGA,180705,2507.3668,N,08014.7762,W,1,9,1.4,19,M,,M,,*5D
06/04/2014	18:07:05.622	$GPGGA,180706,2507.3660,N,08014.7750,W,1,9,1.4,19,M,,M,,*57
06/04/2014	18:07:06.674	$GPGGA,180707,2507.3651,N,08014.7738,W,1,10,1.4,19,M,,M,,*62
06/04/2014	18:07:07.687	$GPGGA,180708,2507.3643,N,08014.7727,W,1,10,1.4,19,M,,M,,*60
06/04/2014	18:07:08.669	$GPGGA,180709,2507.3635,N,08014.7713,W,1,10,1.7,19,M,,M,,*64
06/04/2014	18:07:09.682	$GPGGA,180710,2507.3631,N,08014.7697,W,1,10,1.7,19,M,,M,,*65
06/04/2014	18:07:10.664	$GPGGA,180711,2507.3625,N,08014.7681,W,1,9,1.7,19,M,,M,,*5E
06/04/2014	18:07:11.697	$GPGGA,180712,2507.3620,N,08014.7667,W,1,9,1.7,19,M,,M,,*50
06/04/2014	18:07:12.699	$GPGGA,180713,2507.3614,N,08014.7653,W,1,9,1.7,19,M,,M,,*51
06/04/2014	18:07:13.662	$GPGGA,180714,2507.3610,N,08014.7641,W,1,9,1.4,19,M,,M,,*52
06/04/2014	18:07:14.684	$GPGGA,180715,2507.3605,N,08014.7630,W,1,10,1.4,19,M,,M,,*69
06/04/2014	18:07:15.687	$GPGGA,180716,2507.3602,N,08014.7615,W,1,10,1.4,20,M,,M,,*60
06/04/2014	18:07:16.689	$GPGGA,180717,2507.3599,N,08014.7600,W,1,10,1.4,20,M,,M,,*64
06/04/2014	18:07:17.672	$GPGGA,180718,2507.3596,N,08014.7584,W,1,10,1.4,20,M,,M,,*6B
06/04/2014	18:07:18.694	$GPGGA,180719,2507.3595,N,08014.7569,W,1,10,1.4,20,M,,M,,*6A
06/04/2014	18:07:19.717	$GPGGA,180720,2507.3591,N,08014.7551,W,1,10,1.7,20,M,,M,,*6C
06/04/2014	18:07:20.690	$GPGGA,180721,2507.3591,N,08014.7532,W,1,9,1.4,20,M,,M,,*53
06/04/2014	18:07:21.702	$GPGGA,180722,2507.3591,N,08014.7515,W,1,9,1.4,20,M,,M,,*55
06/04/2014	18:07:22.693	$GPGGA,180723,2507.3588,N,08014.7497,W,1,10,1.4,20,M,,M,,*6F
06/04/2014	18:07:23.707	$GPGGA,180724,2507.3587,N,08014.7481,W,1,10,1.4,20,M,,M,,*60
06/04/2014	18:07:24.738	$GPGGA,180725,2507.3586,N,08014.7464,W,1,10,1.4,20,M,,M,,*6B
06/04/2014	18:07:25.691	$GPGGA,180726,2507.3585,N,08014.7446,W,1,10,1.4,20,M,,M,,*6B
06/04/2014	18:07:26.703	$GPGGA,180727,2507.3586,N,08014.7429,W,1,10,1.7,20,M,,M,,*63
06/04/2014	18:07:27.706	$GPGGA,180728,2507.3586,N,08014.7429,W,1,10,1.7,20,M,,M,,*6C
06/04/2014	18:07:28.700	$GPGGA,180729,2507.3582,N,08014.7398,W,1,10,1.4,20,M,,M,,*67
06/04/2014	18:07:29.721	$GPGGA,180730,2507.3581,N,08014.7383,W,1,10,1.4,20,M,,M,,*66
06/04/2014	18:07:30.703	$GPGGA,180731,2507.3583,N,08014.7367,W,1,10,1.4,20,M,,M,,*6F
06/04/2014	18:07:31.538	$GPGGA,180732,2507.3583,N,08014.7367,W,1,10,1.4,20,M,,M,,*6C
06/04/2014	18:07:32.560	$GPGGA,180733,2507.3577,N,08014.7335,W,1,10,1.4,20,M,,M,,*61
06/04/2014	18:07:33.575	$GPGGA,180734,2507.3575,N,08014.7318,W,1,10,1.4,20,M,,M,,*6B
06/04/2014	18:07:34.555	$GPGGA,180735,2507.3576,N,08014.7299,W,1,10,1.7,20,M,,M,,*62
06/04/2014	18:07:35.568	$GPGGA,180736,2507.3574,N,08014.7282,W,1,10,1.4,20,M,,M,,*6A
06/04/2014	18:07:36.540	$GPGGA,180737,2507.3571,N,08014.7264,W,1,10,1.4,20,M,,M,,*66
06/04/2014	18:07:37.563	$GPGGA,180738,2507.3569,N,08014.7245,W,1,10,1.7,20,M,,M,,*60
06/04/2014	18:07:38.565	$GPGGA,180739,2507.3566,N,08014.7228,W,1,9,1.4,20,M,,M,,*5E
06/04/2014	18:07:39.538	$GPGGA,180740,2507.3566,N,08014.7228,W,1,9,1.4,20,M,,M,,*50
06/04/2014	18:07:41.944	$GPGGA,180742,2507.3561,N,08014.7192,W,1,10,1.4,20,M,,M,,*6F
06/04/2014	18:07:42.554	$GPGGA,180743,2507.3555,N,08014.7154,W,1,10,1.4,20,M,,M,,*63
06/04/2014	18:07:43.587	$GPGGA,180744,2507.3555,N,08014.7154,W,1,10,1.4,20,M,,M,,*64
06/04/2014	18:07:44.579	$GPGGA,180745,2507.3548,N,08014.7120,W,1,10,1.4,20,M,,M,,*6A
06/04/2014	18:07:45.552	$GPGGA,180746,2507.3548,N,08014.7120,W,1,10,1.4,20,M,,M,,*69
06/04/2014	18:07:46.574	$GPGGA,180747,2507.3540,N,08014.7080,W,1,10,1.7,20,M,,M,,*68
06/04/2014	18:07:47.597	$GPGGA,180748,2507.3540,N,08014.7080,W,1,10,1.7,20,M,,M,,*67
06/04/2014	18:07:48.669	$GPGGA,180749,2507.3533,N,08014.7040,W,1,9,1.7,20,M,,M,,*56
06/04/2014	18:07:49.541	$GPGGA,180750,2507.3533,N,08014.7040,W,1,9,1.4,20,M,,M,,*5D
06/04/2014	18:07:50.634	$GPGGA,180751,2507.3526,N,08014.7001,W,1,10,1.4,20,M,,M,,*65
06/04/2014	18:07:51.677	$GPGGA,180752,2507.3524,N,08014.6978,W,1,10,1.4,20,M,,M,,*62
06/04/2014	18:07:52.559	$GPGGA,180753,2507.3520,N,08014.6957,W,1,9,1.7,20,M,,M,,*51
06/04/2014	18:07:53.632	$GPGGA,180754,2507.3516,N,08014.6934,W,1,9,1.7,20,M,,M,,*56
06/04/2014	18:07:54.544	$GPGGA,180755,2507.3515,N,08014.6914,W,1,10,1.4,20,M,,M,,*6D
06/04/2014	18:07:55.647	$GPGGA,180756,2507.3512,N,08014.6892,W,1,10,1.4,20,M,,M,,*66
06/04/2014	18:07:56.649	$GPGGA,180757,2507.3509,N,08014.6871,W,1,10,1.4,20,M,,M,,*60
06/04/2014	18:07:57.641	$GPGGA,180758,2507.3506,N,08014.6851,W,1,10,1.4,20,M,,M,,*62
06/04/2014	18:07:58.673	$GPGGA,180759,2507.3502,N,08014.6830,W,1,9,1.4,20,M,,M,,*58
06/04/2014	18:07:59.666	$GPGGA,180800,2507.3501,N,08014.6809,W,1,9,1.4,20,M,,M,,*52
06/04/2014	18:08:00.648	$GPGGA,180801,2507.3498,N,08014.6788,W,1,10,1.4,20,M,,M,,*6C
06/04/2014	18:08:01.642	$GPGGA,180802,2507.3494,N,08014.6768,W,1,10,1.4,20,M,,M,,*6D
06/04/2014	18:08:02.653	$GPGGA,180803,2507.3491,N,08014.6746,W,1,10,1.4,20,M,,M,,*65
06/04/2014	18:08:03.656	$GPGGA,180804,2507.3490,N,08014.6724,W,1,10,1.4,20,M,,M,,*67
06/04/2014	18:08:04.628	$GPGGA,180805,2507.3487,N,08014.6703,W,1,10,1.4,20,M,,M,,*65
06/04/2014	18:08:05.657	$GPGGA,180806,2507.3484,N,08014.6682,W,1,10,1.4,20,M,,M,,*6D
06/04/2014	18:08:06.643	$GPGGA,180807,2507.3481,N,08014.6659,W,1,10,1.4,20,M,,M,,*6F
06/04/2014	18:08:07.656	$GPGGA,180808,2507.3480,N,08014.6637,W,1,10,1.4,20,M,,M,,*69
06/04/2014	18:08:08.638	$GPGGA,180809,2507.3479,N,08014.6615,W,1,10,1.4,20,M,,M,,*6E
06/04/2014	18:08:09.641	$GPGGA,180810,2507.3474,N,08014.6594,W,1,10,1.4,20,M,,M,,*61
06/04/2014	18:08:10.653	$GPGGA,180811,2507.3472,N,08014.6571,W,1,10,1.4,20,M,,M,,*6D
06/04/2014	18:08:11.656	$GPGGA,180812,2507.3472,N,08014.6549,W,1,10,1.4,20,M,,M,,*65
06/04/2014	18:08:12.661	$GPGGA,180813,2507.3468,N,08014.6525,W,1,8,1.9,20,M,,M,,*51
06/04/2014	18:08:13.652	$GPGGA,180814,2507.3465,N,08014.6505,W,1,8,1.4,19,M,,M,,*5E
06/04/2014	18:08:14.673	$GPGGA,180815,2507.3463,N,08014.6484,W,1,10,1.4,19,M,,M,,*68
06/04/2014	18:08:15.655	$GPGGA,180816,2507.3462,N,08014.6461,W,1,10,1.4,19,M,,M,,*61
06/04/2014	18:08:16.667	$GPGGA,180817,2507.3461,N,08014.6438,W,1,10,1.4,19,M,,M,,*6F
06/04/2014	18:08:17.650	$GPGGA,180818,2507.3459,N,08014.6416,W,1,10,1.4,19,M,,M,,*67
06/04/2014	18:08:18.672	$GPGGA,180819,2507.3457,N,08014.6395,W,1,9,1.7,19,M,,M,,*5F
06/04/2014	18:08:19.665	$GPGGA,180820,2507.3455,N,08014.6370,W,1,9,1.4,19,M,,M,,*5F
06/04/2014	18:08:20.677	$GPGGA,180821,2507.3456,N,08014.6346,W,1,10,1.4,19,M,,M,,*60
06/04/2014	18:08:21.640	$GPGGA,180822,2507.3454,N,08014.6324,W,1,10,1.4,19,M,,M,,*65
06/04/2014	18:08:22.672	$GPGGA,180823,2507.3452,N,08014.6300,W,1,10,1.4,19,M,,M,,*64
06/04/2014	18:08:23.665	$GPGGA,180824,2507.3450,N,08014.6278,W,1,10,1.4,19,M,,M,,*6F
06/04/2014	18:08:24.667	$GPGGA,180825,2507.3449,N,08014.6257,W,1,9,1.7,19,M,,M,,*50
06/04/2014	18:08:25.650	$GPGGA,180826,2507.3448,N,08014.6234,W,1,9,1.4,19,M,,M,,*54
06/04/2014	18:08:26.652	$GPGGA,180827,2507.3447,N,08014.6211,W,1,10,1.4,19,M,,M,,*65
06/04/2014	18:08:27.765	$GPGGA,180828,2507.3445,N,08014.6189,W,1,10,1.4,19,M,,M,,*6A
06/04/2014	18:08:28.767	$GPGGA,180829,2507.3443,N,08014.6165,W,1,10,1.4,19,M,,M,,*6F
06/04/2014	18:08:29.639	$GPGGA,180830,2507.3441,N,08014.6143,W,1,10,1.7,19,M,,M,,*62
06/04/2014	18:08:30.663	$GPGGA,180831,2507.3442,N,08014.6120,W,1,10,1.4,19,M,,M,,*66
06/04/2014	18:08:31.530	$GPGGA,180832,2507.3440,N,08014.6097,W,1,10,1.7,19,M,,M,,*69
06/04/2014	18:08:32.518	$GPGGA,180833,2507.3436,N,08014.6075,W,1,9,1.5,19,M,,M,,*5F
06/04/2014	18:08:33.500	$GPGGA,180834,2507.3434,N,08014.6052,W,1,9,1.5,19,M,,M,,*5F
06/04/2014	18:08:34.493	$GPGGA,180835,2507.3435,N,08014.6027,W,1,9,1.7,19,M,,M,,*5F
06/04/2014	18:08:35.606	$GPGGA,180836,2507.3432,N,08014.6001,W,1,9,1.7,19,M,,M,,*5F
06/04/2014	18:08:36.498	$GPGGA,180837,2507.3429,N,08014.5977,W,1,9,1.5,19,M,,M,,*5D
06/04/2014	18:08:37.621	$GPGGA,180838,2507.3428,N,08014.5955,W,1,9,1.7,19,M,,M,,*51
06/04/2014	18:08:38.633	$GPGGA,180839,2507.3426,N,08014.5930,W,1,10,1.4,19,M,,M,,*66
06/04/2014	18:08:39.616	$GPGGA,180840,2507.3425,N,08014.5907,W,1,10,1.4,19,M,,M,,*6F
06/04/2014	18:08:40.608	$GPGGA,180841,2507.3422,N,08014.5884,W,1,10,1.4,19,M,,M,,*63
06/04/2014	18:08:41.510	$GPGGA,180842,2507.3420,N,08014.5860,W,1,10,1.4,19,M,,M,,*68
06/04/2014	18:08:42.634	$GPGGA,180843,2507.3418,N,08014.5838,W,1,9,1.5,19,M,,M,,*56
06/04/2014	18:08:43.616	$GPGGA,180844,2507.3414,N,08014.5815,W,1,9,1.4,19,M,,M,,*53
06/04/2014	18:08:44.608	$GPGGA,180845,2507.3412,N,08014.5791,W,1,10,1.4,19,M,,M,,*6F
06/04/2014	18:08:45.603	$GPGGA,180846,2507.3409,N,08014.5768,W,1,10,1.4,19,M,,M,,*60
06/04/2014	18:08:46.623	$GPGGA,180847,2507.3407,N,08014.5745,W,1,10,1.4,19,M,,M,,*60
06/04/2014	18:08:47.626	$GPGGA,180848,2507.3403,N,08014.5721,W,1,10,1.4,19,M,,M,,*69
06/04/2014	18:08:48.628	$GPGGA,180849,2507.3400,N,08014.5697,W,1,10,1.4,19,M,,M,,*67
06/04/2014	18:08:49.601	$GPGGA,180850,2507.3397,N,08014.5673,W,1,10,1.4,19,M,,M,,*6C
06/04/2014	18:08:50.602	$GPGGA,180851,2507.3393,N,08014.5650,W,1,10,1.4,19,M,,M,,*68
06/04/2014	18:08:51.615	$GPGGA,180852,2507.3389,N,08014.5627,W,1,10,1.4,19,M,,M,,*60
06/04/2014	18:08:52.627	$GPGGA,180853,2507.3385,N,08014.5603,W,1,10,1.4,20,M,,M,,*61
06/04/2014	18:08:53.620	$GPGGA,180854,2507.3382,N,08014.5579,W,1,10,1.4,20,M,,M,,*6F
06/04/2014	18:08:54.622	$GPGGA,180855,2507.3378,N,08014.5556,W,1,10,1.4,20,M,,M,,*66
06/04/2014	18:08:55.625	$GPGGA,180856,2507.3373,N,08014.5532,W,1,10,1.4,20,M,,M,,*6C
06/04/2014	18:08:56.597	$GPGGA,180857,2507.3371,N,08014.5507,W,1,10,1.4,20,M,,M,,*69
06/04/2014	18:08:57.610	$GPGGA,180858,2507.3367,N,08014.5482,W,1,10,1.4,20,M,,M,,*6D
06/04/2014	18:08:58.602	$GPGGA,180859,2507.3362,N,08014.5459,W,1,10,1.4,20,M,,M,,*6F
06/04/2014	18:08:59.636	$GPGGA,180900,2507.3358,N,08014.5434,W,1,10,1.4,20,M,,M,,*60
06/04/2014	18:09:00.637	$GPGGA,180901,2507.3355,N,08014.5409,W,1,10,1.4,20,M,,M,,*62
06/04/2014	18:09:01.610	$GPGGA,180902,2507.3353,N,08014.5385,W,1,10,1.4,20,M,,M,,*64
06/04/2014	18:09:02.652	$GPGGA,180903,2507.3347,N,08014.5360,W,1,10,1.4,20,M,,M,,*6B
06/04/2014	18:09:03.615	$GPGGA,180904,2507.3342,N,08014.5336,W,1,10,1.4,20,M,,M,,*6A
06/04/2014	18:09:04.607	$GPGGA,180905,2507.3339,N,08014.5311,W,1,10,1.4,20,M,,M,,*62
06/04/2014	18:09:05.620	$GPGGA,180906,2507.3336,N,08014.5285,W,1,10,1.4,20,M,,M,,*62
06/04/2014	18:09:06.602	$GPGGA,180907,2507.3331,N,08014.5260,W,1,10,1.4,20,M,,M,,*6F
06/04/2014	18:09:07.634	$GPGGA,180908,2507.3327,N,08014.5236,W,1,10,1.4,20,M,,M,,*64
06/04/2014	18:09:08.636	$GPGGA,180909,2507.3324,N,08014.5209,W,1,10,1.4,20,M,,M,,*6A
06/04/2014	18:09:09.609	$GPGGA,180910,2507.3320,N,08014.5183,W,1,10,1.4,20,M,,M,,*67
06/04/2014	18:09:10.721	$GPGGA,180911,2507.3316,N,08014.5159,W,1,10,1.4,20,M,,M,,*64
06/04/2014	18:09:11.624	$GPGGA,180912,2507.3313,N,08014.5133,W,1,10,1.4,20,M,,M,,*6E
06/04/2014	18:09:12.636	$GPGGA,180913,2507.3309,N,08014.5106,W,1,10,1.4,20,M,,M,,*62
06/04/2014	18:09:13.739	$GPGGA,180914,2507.3306,N,08014.5081,W,1,10,1.7,20,M,,M,,*67
06/04/2014	18:09:14.611	$GPGGA,180915,2507.3302,N,08014.5057,W,1,10,1.4,20,M,,M,,*6A
06/04/2014	18:09:15.614	$GPGGA,180916,2507.3298,N,08014.5029,W,1,10,1.4,20,M,,M,,*62
06/04/2014	18:09:16.706	$GPGGA,180917,2507.3295,N,08014.5005,W,1,9,1.7,20,M,,M,,*5B
06/04/2014	18:09:17.619	$GPGGA,180918,2507.3290,N,08014.4978,W,1,9,1.4,19,M,,M,,*5A
06/04/2014	18:09:18.721	$GPGGA,180919,2507.3286,N,08014.4952,W,1,9,1.7,19,M,,M,,*57
06/04/2014	18:09:19.624	$GPGGA,180920,2507.3284,N,08014.4925,W,1,9,1.7,19,M,,M,,*5F
06/04/2014	18:09:20.706	$GPGGA,180921,2507.3280,N,08014.4898,W,1,10,1.4,19,M,,M,,*66
06/04/2014	18:09:21.709	$GPGGA,180922,2507.3277,N,08014.4873,W,1,10,1.4,19,M,,M,,*68
06/04/2014	18:09:22.631	$GPGGA,180923,2507.3271,N,08014.4848,W,1,10,1.4,19,M,,M,,*67
06/04/2014	18:09:23.745	$GPGGA,180924,2507.3270,N,08014.4822,W,1,10,1.4,19,M,,M,,*6D
06/04/2014	18:09:24.607	$GPGGA,180925,2507.3266,N,08014.4797,W,1,10,1.4,19,M,,M,,*6A
06/04/2014	18:09:25.627	$GPGGA,180926,2507.3263,N,08014.4771,W,1,10,1.7,19,M,,M,,*67
06/04/2014	18:09:26.740	$GPGGA,180927,2507.3260,N,08014.4745,W,1,9,1.7,19,M,,M,,*5A
06/04/2014	18:09:27.733	$GPGGA,180928,2507.3256,N,08014.4719,W,1,9,1.7,19,M,,M,,*59
06/04/2014	18:09:28.715	$GPGGA,180929,2507.3252,N,08014.4694,W,1,9,1.7,19,M,,M,,*58
06/04/2014	18:09:29.718	$GPGGA,180930,2507.3250,N,08014.4670,W,1,9,1.7,19,M,,M,,*58
06/04/2014	18:09:30.730	$GPGGA,180931,2507.3248,N,08014.4644,W,1,9,1.5,19,M,,M,,*55
06/04/2014	18:09:31.585	$GPGGA,180932,2507.3245,N,08014.4619,W,1,9,1.4,19,M,,M,,*52
06/04/2014	18:09:32.587	$GPGGA,180933,2507.3241,N,08014.4592,W,1,10,1.4,18,M,,M,,*6E
06/04/2014	18:09:33.570	$GPGGA,180934,2507.3239,N,08014.4567,W,1,10,1.4,18,M,,M,,*6C
06/04/2014	18:09:34.592	$GPGGA,180935,2507.3237,N,08014.4541,W,1,10,1.4,18,M,,M,,*67
06/04/2014	18:09:35.585	$GPGGA,180936,2507.3235,N,08014.4514,W,1,10,1.5,18,M,,M,,*67
06/04/2014	18:09:36.569	$GPGGA,180937,2507.3233,N,08014.4489,W,1,10,1.4,18,M,,M,,*64
06/04/2014	18:09:37.560	$GPGGA,180938,2507.3230,N,08014.4464,W,1,10,1.4,18,M,,M,,*6B
06/04/2014	18:09:38.592	$GPGGA,180939,2507.3230,N,08014.4437,W,1,10,1.4,18,M,,M,,*6C
06/04/2014	18:09:39.585	$GPGGA,180940,2507.3227,N,08014.4411,W,1,10,1.4,18,M,,M,,*60
06/04/2014	18:09:40.588	$GPGGA,180941,2507.3224,N,08014.4386,W,1,10,1.4,18,M,,M,,*6B
06/04/2014	18:09:41.580	$GPGGA,180942,2507.3223,N,08014.4361,W,1,10,1.4,18,M,,M,,*66
06/04/2014	18:09:42.591	$GPGGA,180943,2507.3220,N,08014.4334,W,1,10,1.4,18,M,,M,,*64
06/04/2014	18:09:43.594	$GPGGA,180944,2507.3217,N,08014.4310,W,1,10,1.5,18,M,,M,,*60
06/04/2014	18:09:44.606	$GPGGA,180945,2507.3215,N,08014.4284,W,1,10,1.4,18,M,,M,,*6E
06/04/2014	18:09:45.579	$GPGGA,180946,2507.3213,N,08014.4256,W,1,10,1.7,18,M,,M,,*67
06/04/2014	18:09:46.601	$GPGGA,180947,2507.3210,N,08014.4233,W,1,10,1.4,18,M,,M,,*65
06/04/2014	18:09:47.584	$GPGGA,180948,2507.3208,N,08014.4208,W,1,10,1.4,18,M,,M,,*6B
06/04/2014	18:09:48.606	$GPGGA,180949,2507.3205,N,08014.4182,W,1,10,1.4,18,M,,M,,*66
06/04/2014	18:09:49.589	$GPGGA,180950,2507.3203,N,08014.4159,W,1,10,1.5,18,M,,M,,*6F
06/04/2014	18:09:50.591	$GPGGA,180951,2507.3199,N,08014.4133,W,1,10,1.4,18,M,,M,,*63
06/04/2014	18:09:51.594	$GPGGA,180952,2507.3197,N,08014.4108,W,1,10,1.7,18,M,,M,,*65
06/04/2014	18:09:52.586	$GPGGA,180953,2507.3196,N,08014.4082,W,1,9,1.7,18,M,,M,,*5E
06/04/2014	18:09:53.569	$GPGGA,180954,2507.3192,N,08014.4058,W,1,9,1.4,18,M,,M,,*59
06/04/2014	18:09:54.581	$GPGGA,180955,2507.3190,N,08014.4035,W,1,10,1.4,18,M,,M,,*69
06/04/2014	18:09:55.584	$GPGGA,180956,2507.3187,N,08014.4010,W,1,10,1.4,18,M,,M,,*6B
06/04/2014	18:09:56.616	$GPGGA,180957,2507.3184,N,08014.3985,W,1,10,1.4,18,M,,M,,*6B
06/04/2014	18:09:57.569	$GPGGA,180958,2507.3180,N,08014.3963,W,1,10,1.4,18,M,,M,,*68
06/04/2014	18:09:58.601	$GPGGA,180959,2507.3176,N,08014.3939,W,1,10,1.4,18,M,,M,,*6F
06/04/2014	18:09:59.614	$GPGGA,181000,2507.3172,N,08014.3913,W,1,10,1.4,18,M,,M,,*67
06/04/2014	18:10:00.575	$GPGGA,181001,2507.3170,N,08014.3887,W,1,10,1.4,19,M,,M,,*69
06/04/2014	18:10:01.698	$GPGGA,181002,2507.3165,N,08014.3861,W,1,10,1.7,19,M,,M,,*65
06/04/2014	18:10:02.590	$GPGGA,181003,2507.3161,N,08014.3838,W,1,10,1.4,19,M,,M,,*6F
06/04/2014	18:10:03.603	$GPGGA,181004,2507.3158,N,08014.3813,W,1,10,1.4,19,M,,M,,*6B
06/04/2014	18:10:04.675	$GPGGA,181005,2507.3154,N,08014.3787,W,1,10,1.4,19,M,,M,,*64
06/04/2014	18:10:05.588	$GPGGA,181006,2507.3151,N,08014.3764,W,1,10,1.4,19,M,,M,,*6F
06/04/2014	18:10:06.580	$GPGGA,181007,2507.3147,N,08014.3738,W,1,10,1.4,19,M,,M,,*60
06/04/2014	18:10:07.683	$GPGGA,181008,2507.3143,N,08014.3713,W,1,10,1.4,19,M,,M,,*62
06/04/2014	18:10:08.715	$GPGGA,181009,2507.3138,N,08014.3689,W,1,10,1.4,19,M,,M,,*6D
06/04/2014	18:10:09.598	$GPGGA,181010,2507.3134,N,08014.3663,W,1,10,1.4,19,M,,M,,*6D
06/04/2014	18:10:10.720	$GPGGA,181011,2507.3131,N,08014.3638,W,1,10,1.4,19,M,,M,,*67
06/04/2014	18:10:11.714	$GPGGA,181012,2507.3126,N,08014.3612,W,1,10,1.4,19,M,,M,,*6A
06/04/2014	18:10:12.595	$GPGGA,181013,2507.3121,N,08014.3587,W,1,10,1.4,19,M,,M,,*63
06/04/2014	18:10:13.688	$GPGGA,181014,2507.3118,N,08014.3561,W,1,10,1.4,19,M,,M,,*66
06/04/2014	18:10:14.700	$GPGGA,181015,2507.3114,N,08014.3536,W,1,10,1.4,19,M,,M,,*69
06/04/2014	18:10:15.703	$GPGGA,181016,2507.3108,N,08014.3513,W,1,10,1.4,19,M,,M,,*60
06/04/2014	18:10:16.735	$GPGGA,181017,2507.3104,N,08014.3487,W,1,10,1.4,19,M,,M,,*61
06/04/2014	18:10:17.677	$GPGGA,181018,2507.3100,N,08014.3461,W,1,10,1.4,19,M,,M,,*62
06/04/2014	18:10:18.709	$GPGGA,181019,2507.3094,N,08014.3436,W,1,10,1.4,19,M,,M,,*6D
06/04/2014	18:10:19.702	$GPGGA,181020,2507.3089,N,08014.3412,W,1,10,1.7,19,M,,M,,*6E
06/04/2014	18:10:20.694	$GPGGA,181021,2507.3084,N,08014.3389,W,1,10,1.4,19,M,,M,,*64
06/04/2014	18:10:21.687	$GPGGA,181022,2507.3078,N,08014.3367,W,1,10,1.4,19,M,,M,,*64
06/04/2014	18:10:22.699	$GPGGA,181023,2507.3072,N,08014.3343,W,1,10,1.4,19,M,,M,,*69
06/04/2014	18:10:23.693	$GPGGA,181024,2507.3067,N,08014.3319,W,1,10,1.4,19,M,,M,,*65
06/04/2014	18:10:24.674	$GPGGA,181025,2507.3062,N,08014.3295,W,1,10,1.4,19,M,,M,,*64
06/04/2014	18:10:25.687	$GPGGA,181026,2507.3057,N,08014.3269,W,1,10,1.4,19,M,,M,,*62
06/04/2014	18:10:26.679	$GPGGA,181027,2507.3051,N,08014.3243,W,1,9,1.7,19,M,,M,,*56
06/04/2014	18:10:27.702	$GPGGA,181028,2507.3046,N,08014.3218,W,1,9,1.4,19,M,,M,,*52
06/04/2014	18:10:28.704	$GPGGA,181029,2507.3040,N,08014.3193,W,1,10,1.4,19,M,,M,,*6D
06/04/2014	18:10:29.687	$GPGGA,181030,2507.3035,N,08014.3168,W,1,10,1.4,19,M,,M,,*63
06/04/2014	18:10:30.709	$GPGGA,181031,2507.3031,N,08014.3142,W,1,10,1.4,19,M,,M,,*6E
06/04/2014	18:10:31.553	$GPGGA,181032,2507.3024,N,08014.3118,W,1,10,1.7,19,M,,M,,*65
06/04/2014	18:10:32.535	$GPGGA,181033,2507.3018,N,08014.3093,W,1,10,1.4,19,M,,M,,*6A
06/04/2014	18:10:33.578	$GPGGA,181034,2507.3014,N,08014.3069,W,1,10,1.4,19,M,,M,,*64
06/04/2014	18:10:34.571	$GPGGA,181035,2507.3009,N,08014.3042,W,1,10,1.4,19,M,,M,,*60
06/04/2014	18:10:35.552	$GPGGA,181036,2507.3003,N,08014.3019,W,1,10,1.7,19,M,,M,,*64
06/04/2014	18:10:36.534	$GPGGA,181037,2507.2996,N,08014.2997,W,1,10,1.4,19,M,,M,,*6C
06/04/2014	18:10:37.547	$GPGGA,181038,2507.2992,N,08014.2971,W,1,10,1.4,19,M,,M,,*6F
06/04/2014	18:10:38.609	$GPGGA,181039,2507.2988,N,08014.2946,W,1,10,1.4,19,M,,M,,*61
06/04/2014	18:10:39.562	$GPGGA,181040,2507.2981,N,08014.2923,W,1,10,1.4,19,M,,M,,*65
06/04/2014	18:10:40.554	$GPGGA,181041,2507.2977,N,08014.2899,W,1,10,1.4,19,M,,M,,*6D
06/04/2014	18:10:41.557	$GPGGA,181042,2507.2971,N,08014.2872,W,1,10,1.4,19,M,,M,,*6D
06/04/2014	18:10:42.539	$GPGGA,181043,2507.2967,N,08014.2850,W,1,10,1.4,19,M,,M,,*6B
06/04/2014	18:10:43.562	$GPGGA,181044,2507.2962,N,08014.2825,W,1,10,1.4,19,M,,M,,*6B
06/04/2014	18:10:44.564	$GPGGA,181045,2507.2957,N,08014.2799,W,1,10,1.4,19,M,,M,,*64
06/04/2014	18:10:45.537	$GPGGA,181046,2507.2952,N,08014.2776,W,1,10,1.4,19,M,,M,,*63
06/04/2014	18:10:46.539	$GPGGA,181047,2507.2948,N,08014.2752,W,1,10,1.4,19,M,,M,,*6F
06/04/2014	18:10:47.572	$GPGGA,181048,2507.2943,N,08014.2726,W,1,10,1.4,19,M,,M,,*68
06/04/2014	18:10:48.534	$GPGGA,181049,2507.2938,N,08014.2702,W,1,10,1.4,19,M,,M,,*63
06/04/2014	18:10:49.547	$GPGGA,181050,2507.2932,N,08014.2680,W,1,10,1.4,19,M,,M,,*6A
06/04/2014	18:10:51.603	$GPGGA,181052,2507.2925,N,08014.2627,W,1,10,1.4,19,M,,M,,*63
06/04/2014	18:10:52.563	$GPGGA,181053,2507.2920,N,08014.2604,W,1,9,1.5,19,M,,M,,*5F
06/04/2014	18:10:53.636	$GPGGA,181054,2507.2914,N,08014.2580,W,1,9,1.4,19,M,,M,,*51
06/04/2014	18:10:54.568	$GPGGA,181055,2507.2912,N,08014.2552,W,1,10,1.4,19,M,,M,,*61
06/04/2014	18:10:55.681	$GPGGA,181056,2507.2910,N,08014.2527,W,1,10,1.4,19,M,,M,,*62
06/04/2014	18:10:56.673	$GPGGA,181057,2507.2903,N,08014.2502,W,1,10,1.4,19,M,,M,,*66
06/04/2014	18:10:57.646	$GPGGA,181058,2507.2901,N,08014.2477,W,1,10,1.4,19,M,,M,,*68
06/04/2014	18:10:58.719	$GPGGA,181059,2507.2899,N,08014.2449,W,1,10,1.7,19,M,,M,,*67
06/04/2014	18:10:59.671	$GPGGA,181100,2507.2894,N,08014.2424,W,1,10,1.7,19,M,,M,,*6C
06/04/2014	18:11:00.643	$GPGGA,181101,2507.2890,N,08014.2399,W,1,9,1.4,19,M,,M,,*53
06/04/2014	18:11:01.656	$GPGGA,181102,2507.2888,N,08014.2371,W,1,9,1.7,19,M,,M,,*5C
06/04/2014	18:11:02.658	$GPGGA,181103,2507.2885,N,08014.2345,W,1,9,1.4,19,M,,M,,*54
06/04/2014	18:11:03.661	$GPGGA,181104,2507.2881,N,08014.2321,W,1,9,1.4,19,M,,M,,*55
06/04/2014	18:11:04.644	$GPGGA,181105,2507.2877,N,08014.2295,W,1,10,1.4,19,M,,M,,*6B
06/04/2014	18:11:05.656	$GPGGA,181106,2507.2874,N,08014.2269,W,1,10,1.7,19,M,,M,,*6B
06/04/2014	18:11:06.658	$GPGGA,181107,2507.2872,N,08014.2242,W,1,9,1.7,19,M,,M,,*5D
06/04/2014	18:11:07.671	$GPGGA,181108,2507.2868,N,08014.2220,W,1,9,1.4,19,M,,M,,*5E
06/04/2014	18:11:08.663	$GPGGA,181109,2507.2865,N,08014.2193,W,1,10,1.7,19,M,,M,,*62
06/04/2014	18:11:09.656	$GPGGA,181110,2507.2861,N,08014.2167,W,1,10,1.7,19,M,,M,,*65
06/04/2014	18:11:10.667	$GPGGA,181111,2507.2859,N,08014.2143,W,1,9,1.4,19,M,,M,,*52
06/04/2014	18:11:11.661	$GPGGA,181112,2507.2855,N,08014.2116,W,1,9,1.7,19,M,,M,,*5E
06/04/2014	18:11:12.662	$GPGGA,181113,2507.2850,N,08014.2091,W,1,9,1.7,19,M,,M,,*54
06/04/2014	18:11:13.656	$GPGGA,181114,2507.2847,N,08014.2064,W,1,9,1.7,19,M,,M,,*5F
06/04/2014	18:11:14.667	$GPGGA,181115,2507.2845,N,08014.2038,W,1,9,1.7,19,M,,M,,*55
06/04/2014	18:11:15.670	$GPGGA,181116,2507.2841,N,08014.2012,W,1,9,1.7,19,M,,M,,*5A
06/04/2014	18:11:16.673	$GPGGA,181117,2507.2836,N,08014.1986,W,1,9,1.4,19,M,,M,,*5F
06/04/2014	18:11:17.655	$GPGGA,181118,2507.2833,N,08014.1960,W,1,9,1.4,19,M,,M,,*5D
06/04/2014	18:11:18.687	$GPGGA,181119,2507.2830,N,08014.1935,W,1,10,1.4,18,M,,M,,*66
06/04/2014	18:11:19.690	$GPGGA,181120,2507.2825,N,08014.1909,W,1,10,1.4,18,M,,M,,*67
06/04/2014	18:11:20.687	$GPGGA,181121,2507.2820,N,08014.1884,W,1,10,1.4,18,M,,M,,*67
06/04/2014	18:11:21.675	$GPGGA,181122,2507.2816,N,08014.1859,W,1,10,1.4,18,M,,M,,*61
06/04/2014	18:11:22.687	$GPGGA,181123,2507.2812,N,08014.1834,W,1,10,1.4,18,M,,M,,*6F
06/04/2014	18:11:23.690	$GPGGA,181124,2507.2808,N,08014.1808,W,1,10,1.4,18,M,,M,,*6C
06/04/2014	18:11:24.692	$GPGGA,181125,2507.2802,N,08014.1783,W,1,10,1.4,18,M,,M,,*6B
06/04/2014	18:11:25.675	$GPGGA,181126,2507.2798,N,08014.1760,W,1,10,1.4,18,M,,M,,*69
06/04/2014	18:11:26.687	$GPGGA,181127,2507.2794,N,08014.1735,W,1,10,1.4,18,M,,M,,*64
06/04/2014	18:11:27.689	$GPGGA,181128,2507.2789,N,08014.1709,W,1,10,1.4,18,M,,M,,*68
06/04/2014	18:11:28.682	$GPGGA,181129,2507.2783,N,08014.1688,W,1,10,1.4,18,M,,M,,*6B
06/04/2014	18:11:29.654	$GPGGA,181130,2507.2777,N,08014.1662,W,1,10,1.4,18,M,,M,,*6C
06/04/2014	18:11:30.676	$GPGGA,181131,2507.2773,N,08014.1638,W,1,10,1.4,18,M,,M,,*66
06/04/2014	18:11:31.551	$GPGGA,181132,2507.2769,N,08014.1613,W,1,10,1.4,18,M,,M,,*67
06/04/2014	18:11:32.543	$GPGGA,181133,2507.2762,N,08014.1589,W,1,10,1.4,18,M,,M,,*6D
06/04/2014	18:11:33.526	$GPGGA,181134,2507.2757,N,08014.1566,W,1,10,1.4,18,M,,M,,*6D
06/04/2014	18:11:34.528	$GPGGA,181135,2507.2751,N,08014.1541,W,1,10,1.4,18,M,,M,,*6F
06/04/2014	18:11:35.641	$GPGGA,181136,2507.2746,N,08014.1515,W,1,10,1.4,18,M,,M,,*6B
06/04/2014	18:11:36.503	$GPGGA,181137,2507.2740,N,08014.1490,W,1,9,1.4,18,M,,M,,*58
06/04/2014	18:11:37.616	$GPGGA,181138,2507.2735,N,08014.1468,W,1,9,1.4,18,M,,M,,*52
06/04/2014	18:11:38.648	$GPGGA,181139,2507.2730,N,08014.1444,W,1,10,1.4,18,M,,M,,*60
06/04/2014	18:11:39.621	$GPGGA,181140,2507.2725,N,08014.1420,W,1,10,1.4,18,M,,M,,*68
06/04/2014	18:11:40.523	$GPGGA,181141,2507.2720,N,08014.1396,W,1,10,1.4,18,M,,M,,*66
06/04/2014	18:11:41.606	$GPGGA,181142,2507.2712,N,08014.1372,W,1,10,1.4,18,M,,M,,*6E
06/04/2014	18:11:42.608	$GPGGA,181143,2507.2708,N,08014.1348,W,1,10,1.4,18,M,,M,,*6D
06/04/2014	18:11:43.561	$GPGGA,181144,2507.2706,N,08014.1321,W,1,10,1.7,18,M,,M,,*68
06/04/2014	18:11:44.642	$GPGGA,181145,2507.2699,N,08014.1294,W,1,9,1.7,18,M,,M,,*59
06/04/2014	18:11:45.615	$GPGGA,181146,2507.2693,N,08014.1271,W,1,9,1.4,18,M,,M,,*58
06/04/2014	18:11:46.627	$GPGGA,181147,2507.2688,N,08014.1245,W,1,10,1.4,18,M,,M,,*6C
06/04/2014	18:11:47.630	$GPGGA,181148,2507.2685,N,08014.1220,W,1,10,1.4,18,M,,M,,*6D
