Software Version Number: 1	Data File Format Number: 1	Build Version Number: 1	Error Count Since VI Started: 0	Manufacturer: Raytheon	 Model Number: RayMarine 120	 S/N: 	 Cal Date: 	 Wind Direction Offset: 0.00	 Slope (M)1: 0.00	 Offset (B)1: 0.00	 Slope (M)2: 0.00	 Offset (B)2: 0.00	 Slope (M)3: 0.00	 Offset (B)3: 0.00	 Slope (M)4: 0.00	 Offset (B)4: 0.00	 Slope (M)5: 0.00	 Offset (B)5: 0.00	 Slope (M)6: 0.00	 Offset (B)6: 0.00
Computer Date	Computer Time	GGA String
06/08/2014	10:00:00.183	$GPGGA,100000,2447.1524,N,08033.2713,W,1,9,1.5,11,M,,M,,*54
06/08/2014	10:00:01.261	$GPGGA,100001,2447.1539,N,08033.2720,W,1,9,1.5,11,M,,M,,*59
06/08/2014	10:00:02.149	$GPGGA,100002,2447.1553,N,08033.2725,W,1,9,1.6,11,M,,M,,*50
06/08/2014	10:00:03.196	$GPGGA,100003,2447.1568,N,08033.2731,W,1,8,1.6,11,M,,M,,*5D
06/08/2014	10:00:04.186	$GPGGA,100004,2447.1582,N,08033.2738,W,1,8,1.5,11,M,,M,,*54
06/08/2014	10:00:05.184	$GPGGA,100005,2447.1596,N,08033.2742,W,1,8,1.5,11,M,,M,,*5D
06/08/2014	10:00:06.180	$GPGGA,100006,2447.1611,N,08033.2749,W,1,8,1.5,11,M,,M,,*59
06/08/2014	10:00:07.185	$GPGGA,100007,2447.1625,N,08033.2753,W,1,9,1.5,11,M,,M,,*55
06/08/2014	10:00:08.218	$GPGGA,100008,2447.1639,N,08033.2758,W,1,9,1.5,11,M,,M,,*5C
06/08/2014	10:00:09.200	$GPGGA,100009,2447.1651,N,08033.2764,W,1,9,1.5,11,M,,M,,*5C
06/08/2014	10:00:10.208	$GPGGA,100010,2447.1666,N,08033.2769,W,1,9,1.6,11,M,,M,,*5E
06/08/2014	10:00:11.213	$GPGGA,100011,2447.1680,N,08033.2775,W,1,9,1.5,11,M,,M,,*59
06/08/2014	10:00:12.227	$GPGGA,100012,2447.1695,N,08033.2782,W,1,9,1.5,11,M,,M,,*56
06/08/2014	10:00:13.238	$GPGGA,100013,2447.1711,N,08033.2786,W,1,9,1.5,11,M,,M,,*5E
06/08/2014	10:00:14.230	$GPGGA,100014,2447.1725,N,08033.2793,W,1,9,1.5,11,M,,M,,*5A
06/08/2014	10:00:15.265	$GPGGA,100015,2447.1740,N,08033.2797,W,1,9,1.5,11,M,,M,,*5C
06/08/2014	10:00:16.259	$GPGGA,100016,2447.1755,N,08033.2803,W,1,9,1.5,11,M,,M,,*59
06/08/2014	10:00:17.261	$GPGGA,100017,2447.1769,N,08033.2809,W,1,9,1.5,11,M,,M,,*5D
06/08/2014	10:00:18.248	$GPGGA,100018,2447.1783,N,08033.2814,W,1,9,1.5,11,M,,M,,*5A
06/08/2014	10:00:19.268	$GPGGA,100019,2447.1796,N,08033.2821,W,1,9,1.5,11,M,,M,,*59
06/08/2014	10:00:20.284	$GPGGA,100020,2447.1812,N,08033.2826,W,1,9,1.5,11,M,,M,,*57
06/08/2014	10:00:21.262	$GPGGA,100021,2447.1825,N,08033.2833,W,1,9,1.5,11,M,,M,,*56
06/08/2014	10:00:22.280	$GPGGA,100022,2447.1839,N,08033.2840,W,1,9,1.7,11,M,,M,,*5E
06/08/2014	10:00:23.278	$GPGGA,100023,2447.1853,N,08033.2847,W,1,8,1.7,11,M,,M,,*55
06/08/2014	10:00:24.306	$GPGGA,100024,2447.1868,N,08033.2854,W,1,8,1.7,11,M,,M,,*58
06/08/2014	10:00:25.284	$GPGGA,100025,2447.1882,N,08033.2859,W,1,9,1.5,11,M,,M,,*53
06/08/2014	10:00:26.312	$GPGGA,100026,2447.1896,N,08033.2866,W,1,9,1.5,11,M,,M,,*59
06/08/2014	10:00:27.343	$GPGGA,100027,2447.1908,N,08033.2872,W,1,9,1.5,11,M,,M,,*5B
06/08/2014	10:00:28.341	$GPGGA,100028,2447.1922,N,08033.2879,W,1,9,1.7,11,M,,M,,*55
06/08/2014	10:00:29.360	$GPGGA,100029,2447.1936,N,08033.2886,W,1,8,1.7,11,M,,M,,*50
06/08/2014	10:00:30.314	$GPGGA,100030,2447.1950,N,08033.2892,W,1,8,1.7,12,M,,M,,*5E
06/08/2014	10:00:31.353	$GPGGA,100031,2447.1962,N,08033.2898,W,1,9,1.5,12,M,,M,,*57
06/08/2014	10:00:32.352	$GPGGA,100032,2447.1976,N,08033.2905,W,1,9,1.5,12,M,,M,,*54
06/08/2014	10:00:33.348	$GPGGA,100033,2447.1990,N,08033.2910,W,1,9,1.5,12,M,,M,,*59
06/08/2014	10:00:34.356	$GPGGA,100034,2447.2002,N,08033.2916,W,1,9,1.5,12,M,,M,,*59
06/08/2014	10:00:35.384	$GPGGA,100035,2447.2016,N,08033.2923,W,1,9,1.5,12,M,,M,,*5B
06/08/2014	10:00:36.372	$GPGGA,100036,2447.2027,N,08033.2928,W,1,9,1.6,12,M,,M,,*52
06/08/2014	10:00:37.370	$GPGGA,100037,2447.2041,N,08033.2934,W,1,8,1.6,12,M,,M,,*5F
06/08/2014	10:00:38.378	$GPGGA,100038,2447.2054,N,08033.2939,W,1,8,1.6,12,M,,M,,*59
06/08/2014	10:00:38.903	$GPGGA,100039,2447.2066,N,08033.2946,W,1,8,1.6,12,M,,M,,*51
06/08/2014	10:00:40.032	$GPGGA,100040,2447.2080,N,08033.2952,W,1,8,1.7,12,M,,M,,*53
06/08/2014	10:00:41.020	$GPGGA,100041,2447.2094,N,08033.2956,W,1,8,1.6,12,M,,M,,*52
06/08/2014	10:00:41.908	$GPGGA,100042,2447.2108,N,08033.2960,W,1,8,1.6,12,M,,M,,*50
06/08/2014	10:00:43.047	$GPGGA,100043,2447.2121,N,08033.2964,W,1,8,1.6,13,M,,M,,*5F
06/08/2014	10:00:43.934	$GPGGA,100044,2447.2135,N,08033.2970,W,1,8,1.6,13,M,,M,,*58
06/08/2014	10:00:45.043	$GPGGA,100045,2447.2149,N,08033.2974,W,1,9,1.5,13,M,,M,,*54
06/08/2014	10:00:45.970	$GPGGA,100046,2447.2164,N,08033.2980,W,1,9,1.5,13,M,,M,,*53
06/08/2014	10:00:46.948	$GPGGA,100047,2447.2178,N,08033.2984,W,1,9,1.5,13,M,,M,,*5B
06/08/2014	10:00:48.057	$GPGGA,100048,2447.2193,N,08033.2989,W,1,9,1.5,13,M,,M,,*5C
06/08/2014	10:00:49.085	$GPGGA,100049,2447.2207,N,08033.2995,W,1,9,1.5,13,M,,M,,*5E
06/08/2014	10:00:50.064	$GPGGA,100050,2447.2222,N,08033.2999,W,1,9,1.5,13,M,,M,,*5D
06/08/2014	10:00:51.077	$GPGGA,100051,2447.2236,N,08033.3006,W,1,9,1.5,13,M,,M,,*57
06/08/2014	10:00:52.091	$GPGGA,100052,2447.2250,N,08033.3010,W,1,9,1.5,13,M,,M,,*53
06/08/2014	10:00:53.092	$GPGGA,100053,2447.2265,N,08033.3016,W,1,9,1.5,13,M,,M,,*52
06/08/2014	10:00:54.086	$GPGGA,100054,2447.2279,N,08033.3020,W,1,9,1.5,13,M,,M,,*5D
06/08/2014	10:00:55.091	$GPGGA,100055,2447.2293,N,08033.3027,W,1,9,1.5,13,M,,M,,*5F
06/08/2014	10:00:56.133	$GPGGA,100056,2447.2307,N,08033.3031,W,1,9,1.5,13,M,,M,,*57
06/08/2014	10:00:57.125	$GPGGA,100057,2447.2322,N,08033.3038,W,1,9,1.5,13,M,,M,,*58
06/08/2014	10:00:58.101	$GPGGA,100058,2447.2336,N,08033.3043,W,1,9,1.5,13,M,,M,,*5E
06/08/2014	10:00:59.125	$GPGGA,100059,2447.2350,N,08033.3049,W,1,9,1.5,13,M,,M,,*55
06/08/2014	10:01:00.143	$GPGGA,100100,2447.2363,N,08033.3053,W,1,9,1.5,13,M,,M,,*53
06/08/2014	10:01:01.140	$GPGGA,100101,2447.2377,N,08033.3060,W,1,9,1.5,13,M,,M,,*57
06/08/2014	10:01:02.135	$GPGGA,100102,2447.2391,N,08033.3065,W,1,9,1.5,13,M,,M,,*59
06/08/2014	10:01:03.157	$GPGGA,100103,2447.2405,N,08033.3071,W,1,9,1.5,13,M,,M,,*57
06/08/2014	10:01:04.149	$GPGGA,100104,2447.2419,N,08033.3076,W,1,9,1.5,13,M,,M,,*5A
06/08/2014	10:01:05.166	$GPGGA,100105,2447.2432,N,08033.3082,W,1,9,1.5,13,M,,M,,*59
06/08/2014	10:01:06.151	$GPGGA,100106,2447.2446,N,08033.3087,W,1,9,1.5,13,M,,M,,*5C
06/08/2014	10:01:07.182	$GPGGA,100107,2447.2460,N,08033.3093,W,1,9,1.5,13,M,,M,,*5C
06/08/2014	10:01:08.181	$GPGGA,100108,2447.2475,N,08033.3098,W,1,9,1.5,13,M,,M,,*5C
06/08/2014	10:01:09.199	$GPGGA,100109,2447.2489,N,08033.3104,W,1,9,1.5,13,M,,M,,*5A
06/08/2014	10:01:10.173	$GPGGA,100110,2447.2503,N,08033.3111,W,1,9,1.5,13,M,,M,,*55
06/08/2014	10:01:11.205	$GPGGA,100111,2447.2517,N,08033.3115,W,1,9,1.5,13,M,,M,,*55
06/08/2014	10:01:12.199	$GPGGA,100112,2447.2531,N,08033.3121,W,1,9,1.5,13,M,,M,,*55
06/08/2014	10:01:13.207	$GPGGA,100113,2447.2543,N,08033.3126,W,1,9,1.5,13,M,,M,,*56
06/08/2014	10:01:14.205	$GPGGA,100114,2447.2558,N,08033.3132,W,1,9,1.5,13,M,,M,,*5E
06/08/2014	10:01:15.243	$GPGGA,100115,2447.2572,N,08033.3137,W,1,9,1.5,13,M,,M,,*52
06/08/2014	10:01:16.221	$GPGGA,100116,2447.2586,N,08033.3143,W,1,9,1.5,13,M,,M,,*59
06/08/2014	10:01:17.269	$GPGGA,100117,2447.2600,N,08033.3148,W,1,9,1.5,13,M,,M,,*5E
06/08/2014	10:01:18.227	$GPGGA,100118,2447.2614,N,08033.3154,W,1,9,1.5,13,M,,M,,*59
06/08/2014	10:01:19.256	$GPGGA,100119,2447.2627,N,08033.3159,W,1,9,1.5,13,M,,M,,*55
06/08/2014	10:01:20.264	$GPGGA,100120,2447.2641,N,08033.3165,W,1,9,1.5,13,M,,M,,*50
06/08/2014	10:01:21.262	$GPGGA,100121,2447.2655,N,08033.3170,W,1,9,1.5,13,M,,M,,*50
06/08/2014	10:01:22.240	$GPGGA,100122,2447.2669,N,08033.3176,W,1,9,1.5,13,M,,M,,*5A
06/08/2014	10:01:23.258	$GPGGA,100123,2447.2683,N,08033.3181,W,1,9,1.5,13,M,,M,,*57
06/08/2014	10:01:24.276	$GPGGA,100124,2447.2698,N,08033.3187,W,1,9,1.5,13,M,,M,,*5C
06/08/2014	10:01:25.285	$GPGGA,100125,2447.2712,N,08033.3193,W,1,9,1.5,13,M,,M,,*5B
06/08/2014	10:01:26.281	$GPGGA,100126,2447.2726,N,08033.3197,W,1,9,1.5,13,M,,M,,*5B
06/08/2014	10:01:27.390	$GPGGA,100127,2447.2739,N,08033.3204,W,1,9,1.5,13,M,,M,,*5D
06/08/2014	10:01:28.307	$GPGGA,100128,2447.2753,N,08033.3208,W,1,9,1.5,13,M,,M,,*52
06/08/2014	10:01:29.426	$GPGGA,100129,2447.2767,N,08033.3213,W,1,9,1.5,13,M,,M,,*5E
06/08/2014	10:01:30.394	$GPGGA,100130,2447.2782,N,08033.3219,W,1,9,1.5,13,M,,M,,*57
06/08/2014	10:01:31.428	$GPGGA,100131,2447.2796,N,08033.3224,W,1,9,1.5,13,M,,M,,*5D
06/08/2014	10:01:32.312	$GPGGA,100132,2447.2810,N,08033.3230,W,1,9,1.5,13,M,,M,,*5A
06/08/2014	10:01:33.417	$GPGGA,100133,2447.2824,N,08033.3235,W,1,9,1.5,13,M,,M,,*59
06/08/2014	10:01:34.412	$GPGGA,100134,2447.2838,N,08033.3241,W,1,9,1.5,13,M,,M,,*50
06/08/2014	10:01:35.416	$GPGGA,100135,2447.2851,N,08033.3246,W,1,9,1.5,13,M,,M,,*59
06/08/2014	10:01:36.331	$GPGGA,100136,2447.2865,N,08033.3251,W,1,9,1.5,13,M,,M,,*5B
06/08/2014	10:01:37.415	$GPGGA,100137,2447.2878,N,08033.3256,W,1,9,1.5,13,M,,M,,*51
06/08/2014	10:01:38.420	$GPGGA,100138,2447.2890,N,08033.3262,W,1,9,1.5,13,M,,M,,*5F
06/08/2014	10:01:38.971	$GPGGA,100139,2447.2904,N,08033.3269,W,1,9,1.5,13,M,,M,,*59
06/08/2014	10:01:39.975	$GPGGA,100140,2447.2916,N,08033.3273,W,1,9,1.5,13,M,,M,,*5F
06/08/2014	10:01:40.980	$GPGGA,100141,2447.2930,N,08033.3280,W,1,9,1.5,13,M,,M,,*56
06/08/2014	10:01:41.974	$GPGGA,100142,2447.2943,N,08033.3284,W,1,9,1.5,13,M,,M,,*55
06/08/2014	10:01:42.998	$GPGGA,100143,2447.2955,N,08033.3291,W,1,9,1.5,13,M,,M,,*57
06/08/2014	10:01:44.003	$GPGGA,100144,2447.2966,N,08033.3295,W,1,9,1.5,13,M,,M,,*54
06/08/2014	10:01:44.997	$GPGGA,100145,2447.2980,N,08033.3302,W,1,9,1.5,13,M,,M,,*52
06/08/2014	10:01:45.982	$GPGGA,100146,2447.2992,N,08033.3307,W,1,9,1.5,13,M,,M,,*57
06/08/2014	10:01:47.006	$GPGGA,100147,2447.3005,N,08033.3313,W,1,9,1.5,13,M,,M,,*55
06/08/2014	10:01:48.000	$GPGGA,100148,2447.3017,N,08033.3320,W,1,9,1.5,13,M,,M,,*59
06/08/2014	10:01:49.005	$GPGGA,100149,2447.3030,N,08033.3325,W,1,9,1.5,13,M,,M,,*58
06/08/2014	10:01:49.990	$GPGGA,100150,2447.3042,N,08033.3331,W,1,9,1.5,13,M,,M,,*50
06/08/2014	10:01:51.017	$GPGGA,100151,2447.3053,N,08033.3338,W,1,9,1.5,13,M,,M,,*58
06/08/2014	10:01:52.008	$GPGGA,100152,2447.3066,N,08033.3343,W,1,9,1.5,13,M,,M,,*51
06/08/2014	10:01:53.013	$GPGGA,100153,2447.3078,N,08033.3349,W,1,9,1.5,13,M,,M,,*55
06/08/2014	10:01:53.997	$GPGGA,100154,2447.3089,N,08033.3356,W,1,9,1.5,13,M,,M,,*52
06/08/2014	10:01:55.043	$GPGGA,100155,2447.3100,N,08033.3361,W,1,9,1.5,13,M,,M,,*57
06/08/2014	10:01:56.018	$GPGGA,100156,2447.3113,N,08033.3367,W,1,9,1.5,13,M,,M,,*50
06/08/2014	10:01:57.002	$GPGGA,100157,2447.3125,N,08033.3374,W,1,9,1.5,13,M,,M,,*56
06/08/2014	10:01:58.015	$GPGGA,100158,2447.3136,N,08033.3381,W,1,9,1.5,13,M,,M,,*51
06/08/2014	10:01:59.010	$GPGGA,100159,2447.3147,N,08033.3386,W,1,9,1.5,13,M,,M,,*51
06/08/2014	10:02:00.057	$GPGGA,100200,2447.3158,N,08033.3393,W,1,9,1.5,13,M,,M,,*54
06/08/2014	10:02:01.028	$GPGGA,100201,2447.3169,N,08033.3400,W,1,9,1.5,13,M,,M,,*5A
06/08/2014	10:02:02.012	$GPGGA,100202,2447.3181,N,08033.3407,W,1,9,1.5,13,M,,M,,*58
06/08/2014	10:02:03.070	$GPGGA,100203,2447.3192,N,08033.3414,W,1,9,1.5,13,M,,M,,*59
06/08/2014	10:02:04.041	$GPGGA,100204,2447.3203,N,08033.3421,W,1,9,1.5,13,M,,M,,*53
06/08/2014	10:02:05.036	$GPGGA,100205,2447.3214,N,08033.3428,W,1,9,1.5,13,M,,M,,*5D
06/08/2014	10:02:06.030	$GPGGA,100206,2447.3225,N,08033.3434,W,1,9,1.5,13,M,,M,,*51
06/08/2014	10:02:07.072	$GPGGA,100207,2447.3234,N,08033.3443,W,1,9,1.5,13,M,,M,,*50
06/08/2014	10:02:08.171	$GPGGA,100208,2447.3246,N,08033.3450,W,1,9,1.5,13,M,,M,,*58
06/08/2014	10:02:09.054	$GPGGA,100209,2447.3255,N,08033.3457,W,1,9,1.5,13,M,,M,,*5C
06/08/2014	10:02:10.048	$GPGGA,100210,2447.3266,N,08033.3465,W,1,9,1.5,13,M,,M,,*55
06/08/2014	10:02:11.043	$GPGGA,100211,2447.3277,N,08033.3472,W,1,9,1.5,13,M,,M,,*52
06/08/2014	10:02:12.168	$GPGGA,100212,2447.3287,N,08033.3479,W,1,9,1.5,13,M,,M,,*55
06/08/2014	10:02:13.062	$GPGGA,100213,2447.3298,N,08033.3486,W,1,9,1.5,13,M,,M,,*5A
06/08/2014	10:02:14.046	$GPGGA,100214,2447.3308,N,08033.3493,W,1,9,1.5,13,M,,M,,*51
06/08/2014	10:02:15.061	$GPGGA,100215,2447.3317,N,08033.3501,W,1,9,1.5,13,M,,M,,*54
06/08/2014	10:02:16.176	$GPGGA,100216,2447.3327,N,08033.3508,W,1,9,1.5,13,M,,M,,*5D
06/08/2014	10:02:17.153	$GPGGA,100217,2447.3338,N,08033.3515,W,1,9,1.5,13,M,,M,,*5E
06/08/2014	10:02:18.083	$GPGGA,100218,2447.3349,N,08033.3520,W,1,9,1.5,13,M,,M,,*51
06/08/2014	10:02:19.168	$GPGGA,100219,2447.3359,N,08033.3527,W,1,9,1.5,13,M,,M,,*56
06/08/2014	10:02:20.102	$GPGGA,100220,2447.3369,N,08033.3534,W,1,9,1.5,13,M,,M,,*5D
06/08/2014	10:02:21.077	$GPGGA,100221,2447.3380,N,08033.3540,W,1,9,1.5,13,M,,M,,*58
06/08/2014	10:02:22.154	$GPGGA,100222,2447.3389,N,08033.3548,W,1,9,1.5,13,M,,M,,*5A
06/08/2014	10:02:23.176	$GPGGA,100223,2447.3400,N,08033.3553,W,1,9,1.5,13,M,,M,,*57
06/08/2014	10:02:24.110	$GPGGA,100224,2447.3410,N,08033.3560,W,1,9,1.5,13,M,,M,,*51
06/08/2014	10:02:25.165	$GPGGA,100225,2447.3421,N,08033.3566,W,1,9,1.5,13,M,,M,,*54
06/08/2014	10:02:26.190	$GPGGA,100226,2447.3432,N,08033.3573,W,1,9,1.5,13,M,,M,,*51
06/08/2014	10:02:27.204	$GPGGA,100227,2447.3442,N,08033.3580,W,1,9,1.5,13,M,,M,,*5B
06/08/2014	10:02:28.188	$GPGGA,100228,2447.3453,N,08033.3585,W,1,9,1.5,13,M,,M,,*51
06/08/2014	10:02:29.193	$GPGGA,100229,2447.3463,N,08033.3592,W,1,9,1.5,13,M,,M,,*55
06/08/2014	10:02:30.192	$GPGGA,100230,2447.3474,N,08033.3598,W,1,9,1.5,13,M,,M,,*51
06/08/2014	10:02:31.212	$GPGGA,100231,2447.3483,N,08033.3605,W,1,9,1.5,13,M,,M,,*5F
06/08/2014	10:02:32.237	$GPGGA,100232,2447.3493,N,08033.3611,W,1,9,1.5,13,M,,M,,*58
06/08/2014	10:02:33.211	$GPGGA,100233,2447.3504,N,08033.3617,W,1,9,1.5,13,M,,M,,*50
06/08/2014	10:02:34.186	$GPGGA,100234,2447.3515,N,08033.3624,W,1,9,1.5,13,M,,M,,*57
06/08/2014	10:02:35.209	$GPGGA,100235,2447.3525,N,08033.3631,W,1,9,1.5,13,M,,M,,*51
06/08/2014	10:02:36.217	$GPGGA,100236,2447.3533,N,08033.3638,W,1,9,1.5,13,M,,M,,*5C
06/08/2014	10:02:37.228	$GPGGA,100237,2447.3547,N,08033.3646,W,1,7,1.7,13,M,,M,,*5B
06/08/2014	10:02:38.223	$GPGGA,100238,2447.3559,N,08033.3653,W,1,7,1.5,13,M,,M,,*5D
06/08/2014	10:02:38.960	$GPGGA,100239,2447.3569,N,08033.3661,W,1,8,1.5,13,M,,M,,*51
06/08/2014	10:02:39.954	$GPGGA,100240,2447.3577,N,08033.3667,W,1,8,1.5,13,M,,M,,*56
06/08/2014	10:02:40.962	$GPGGA,100241,2447.3586,N,08033.3674,W,1,8,1.6,13,M,,M,,*58
06/08/2014	10:02:41.956	$GPGGA,100242,2447.3597,N,08033.3681,W,1,8,1.6,13,M,,M,,*51
06/08/2014	10:02:42.948	$GPGGA,100243,2447.3608,N,08033.3688,W,1,9,1.5,13,M,,M,,*5E
06/08/2014	10:02:43.962	$GPGGA,100244,2447.3619,N,08033.3696,W,1,9,1.5,13,M,,M,,*56
06/08/2014	10:02:44.957	$GPGGA,100245,2447.3630,N,08033.3703,W,1,8,1.5,13,M,,M,,*50
06/08/2014	10:02:45.961	$GPGGA,100246,2447.3638,N,08033.3710,W,1,8,1.5,13,M,,M,,*59
06/08/2014	10:02:46.956	$GPGGA,100247,2447.3645,N,08033.3717,W,1,8,1.6,13,M,,M,,*56
06/08/2014	10:02:47.996	$GPGGA,100248,2447.3656,N,08033.3725,W,1,8,1.7,13,M,,M,,*5B
06/08/2014	10:02:48.965	$GPGGA,100249,2447.3666,N,08033.3732,W,1,8,1.5,13,M,,M,,*5D
06/08/2014	10:02:49.980	$GPGGA,100250,2447.3677,N,08033.3739,W,1,8,1.5,13,M,,M,,*5E
06/08/2014	10:02:50.984	$GPGGA,100251,2447.3685,N,08033.3746,W,1,9,1.5,13,M,,M,,*5B
06/08/2014	10:02:51.979	$GPGGA,100252,2447.3695,N,08033.3751,W,1,9,1.5,13,M,,M,,*5F
06/08/2014	10:02:52.982	$GPGGA,100253,2447.3703,N,08033.3758,W,1,8,1.6,13,M,,M,,*5B
06/08/2014	10:02:54.087	$GPGGA,100254,2447.3712,N,08033.3765,W,1,8,1.6,13,M,,M,,*52
06/08/2014	10:02:54.981	$GPGGA,100255,2447.3724,N,08033.3773,W,1,9,1.5,13,M,,M,,*53
06/08/2014	10:02:56.005	$GPGGA,100256,2447.3735,N,08033.3779,W,1,9,1.5,13,M,,M,,*5A
06/08/2014	10:02:56.980	$GPGGA,100257,2447.3745,N,08033.3786,W,1,9,1.5,13,M,,M,,*5C
06/08/2014	10:02:57.994	$GPGGA,100258,2447.3756,N,08033.3793,W,1,9,1.5,13,M,,M,,*55
06/08/2014	10:02:58.979	$GPGGA,100259,2447.3765,N,08033.3801,W,1,9,1.5,13,M,,M,,*50
06/08/2014	10:03:00.013	$GPGGA,100300,2447.3775,N,08033.3806,W,1,9,1.5,13,M,,M,,*5B
06/08/2014	10:03:00.978	$GPGGA,100301,2447.3786,N,08033.3813,W,1,9,1.5,13,M,,M,,*52
06/08/2014	10:03:02.002	$GPGGA,100302,2447.3797,N,08033.3819,W,1,9,1.5,13,M,,M,,*5B
06/08/2014	10:03:03.097	$GPGGA,100303,2447.3807,N,08033.3826,W,1,9,1.5,13,M,,M,,*50
06/08/2014	10:03:04.011	$GPGGA,100304,2447.3817,N,08033.3833,W,1,9,1.5,13,M,,M,,*52
06/08/2014	10:03:05.126	$GPGGA,100305,2447.3826,N,08033.3840,W,1,9,1.5,13,M,,M,,*55
06/08/2014	10:03:06.010	$GPGGA,100306,2447.3836,N,08033.3845,W,1,9,1.5,13,M,,M,,*52
06/08/2014	10:03:07.015	$GPGGA,100307,2447.3844,N,08033.3851,W,1,9,1.5,13,M,,M,,*53
06/08/2014	10:03:08.009	$GPGGA,100308,2447.3854,N,08033.3858,W,1,9,1.6,13,M,,M,,*57
06/08/2014	10:03:09.014	$GPGGA,100309,2447.3862,N,08033.3865,W,1,9,1.5,13,M,,M,,*5E
06/08/2014	10:03:10.115	$GPGGA,100310,2447.3869,N,08033.3870,W,1,9,1.5,13,M,,M,,*59
06/08/2014	10:03:11.125	$GPGGA,100311,2447.3880,N,08033.3876,W,1,9,1.5,13,M,,M,,*59
06/08/2014	10:03:12.036	$GPGGA,100312,2447.3889,N,08033.3881,W,1,9,1.5,13,M,,M,,*5B
06/08/2014	10:03:13.142	$GPGGA,100313,2447.3898,N,08033.3887,W,1,8,1.6,13,M,,M,,*5E
06/08/2014	10:03:14.126	$GPGGA,100314,2447.3909,N,08033.3895,W,1,8,1.6,13,M,,M,,*53
06/08/2014	10:03:15.152	$GPGGA,100315,2447.3920,N,08033.3899,W,1,9,1.5,13,M,,M,,*57
06/08/2014	10:03:16.149	$GPGGA,100316,2447.3934,N,08033.3906,W,1,9,1.5,13,M,,M,,*56
06/08/2014	10:03:17.159	$GPGGA,100317,2447.3945,N,08033.3913,W,1,9,1.5,13,M,,M,,*55
06/08/2014	10:03:18.132	$GPGGA,100318,2447.3956,N,08033.3918,W,1,9,1.5,13,M,,M,,*53
06/08/2014	10:03:19.158	$GPGGA,100319,2447.3967,N,08033.3924,W,1,9,1.5,13,M,,M,,*5F
06/08/2014	10:03:20.152	$GPGGA,100320,2447.3980,N,08033.3931,W,1,9,1.5,13,M,,M,,*58
06/08/2014	10:03:21.156	$GPGGA,100321,2447.3992,N,08033.3936,W,1,9,1.5,13,M,,M,,*5D
06/08/2014	10:03:22.130	$GPGGA,100322,2447.4003,N,08033.3941,W,1,9,1.5,13,M,,M,,*58
06/08/2014	10:03:23.155	$GPGGA,100323,2447.4014,N,08033.3947,W,1,9,1.5,13,M,,M,,*59
06/08/2014	10:03:24.153	$GPGGA,100324,2447.4021,N,08033.3952,W,1,9,1.5,13,M,,M,,*5C
06/08/2014	10:03:25.176	$GPGGA,100325,2447.4032,N,08033.3959,W,1,8,1.6,13,M,,M,,*56
06/08/2014	10:03:26.149	$GPGGA,100326,2447.4043,N,08033.3964,W,1,8,1.5,13,M,,M,,*5E
06/08/2014	10:03:27.140	$GPGGA,100327,2447.4053,N,08033.3970,W,1,9,1.5,13,M,,M,,*5A
06/08/2014	10:03:28.157	$GPGGA,100328,2447.4063,N,08033.3977,W,1,9,1.5,13,M,,M,,*51
06/08/2014	10:03:29.182	$GPGGA,100329,2447.4072,N,08033.3982,W,1,9,1.5,13,M,,M,,*5A
06/08/2014	10:03:30.179	$GPGGA,100330,2447.4082,N,08033.3989,W,1,9,1.5,13,M,,M,,*56
06/08/2014	10:03:31.156	$GPGGA,100331,2447.4092,N,08033.3996,W,1,9,1.5,13,M,,M,,*58
06/08/2014	10:03:32.185	$GPGGA,100332,2447.4101,N,08033.4001,W,1,9,1.5,13,M,,M,,*50
06/08/2014	10:03:33.154	$GPGGA,100333,2447.4110,N,08033.4007,W,1,9,1.5,13,M,,M,,*57
06/08/2014	10:03:34.168	$GPGGA,100334,2447.4118,N,08033.4014,W,1,9,1.6,13,M,,M,,*59
06/08/2014	10:03:35.184	$GPGGA,100335,2447.4126,N,08033.4021,W,1,9,1.5,13,M,,M,,*50
06/08/2014	10:03:36.188	$GPGGA,100336,2447.4133,N,08033.4028,W,1,9,1.5,13,M,,M,,*5E
06/08/2014	10:03:37.160	$GPGGA,100337,2447.4142,N,08033.4035,W,1,9,1.5,13,M,,M,,*55
06/08/2014	10:03:38.184	$GPGGA,100338,2447.4150,N,08033.4043,W,1,9,1.5,13,M,,M,,*58
06/08/2014	10:03:38.940	$GPGGA,100339,2447.4158,N,08033.4050,W,1,9,1.5,13,M,,M,,*53
06/08/2014	10:03:39.953	$GPGGA,100340,2447.4165,N,08033.4057,W,1,9,1.5,13,M,,M,,*54
06/08/2014	10:03:40.938	$GPGGA,100341,2447.4173,N,08033.4062,W,1,9,1.5,13,M,,M,,*54
06/08/2014	10:03:41.931	$GPGGA,100342,2447.4180,N,08033.4069,W,1,9,2.2,13,M,,M,,*54
06/08/2014	10:03:42.925	$GPGGA,100343,2447.4189,N,08033.4076,W,1,7,2.4,13,M,,M,,*5A
06/08/2014	10:03:43.929	$GPGGA,100344,2447.4197,N,08033.4084,W,1,7,2.2,13,M,,M,,*59
06/08/2014	10:03:44.913	$GPGGA,100345,2447.4204,N,08033.4093,W,1,9,1.5,13,M,,M,,*5D
06/08/2014	10:03:45.916	$GPGGA,100346,2447.4212,N,08033.4098,W,1,9,1.5,13,M,,M,,*52
06/08/2014	10:03:46.940	$GPGGA,100347,2447.4219,N,08033.4107,W,1,9,1.5,14,M,,M,,*58
06/08/2014	10:03:48.055	$GPGGA,100348,2447.4226,N,08033.4115,W,1,9,2.2,14,M,,M,,*5C
06/08/2014	10:03:48.948	$GPGGA,100349,2447.4234,N,08033.4124,W,1,8,2.2,14,M,,M,,*5D
06/08/2014	10:03:49.922	$GPGGA,100350,2447.4241,N,08033.4133,W,1,8,1.5,14,M,,M,,*55
06/08/2014	10:03:50.947	$GPGGA,100351,2447.4247,N,08033.4142,W,1,9,1.5,14,M,,M,,*55
06/08/2014	10:03:52.071	$GPGGA,100352,2447.4254,N,08033.4151,W,1,9,1.5,14,M,,M,,*56
06/08/2014	10:03:53.035	$GPGGA,100353,2447.4259,N,08033.4159,W,1,9,1.5,14,M,,M,,*52
06/08/2014	10:03:53.939	$GPGGA,100354,2447.4267,N,08033.4169,W,1,9,2.2,14,M,,M,,*5F
06/08/2014	10:03:54.953	$GPGGA,100355,2447.4272,N,08033.4178,W,1,8,2.2,14,M,,M,,*5B
06/08/2014	10:03:56.047	$GPGGA,100356,2447.4277,N,08033.4185,W,1,8,2.2,15,M,,M,,*5E
06/08/2014	10:03:57.051	$GPGGA,100357,2447.4283,N,08033.4195,W,1,9,1.5,15,M,,M,,*50
06/08/2014	10:03:57.955	$GPGGA,100358,2447.4288,N,08033.4205,W,1,9,2.2,15,M,,M,,*5A
06/08/2014	10:03:58.959	$GPGGA,100359,2447.4292,N,08033.4216,W,1,8,2.2,15,M,,M,,*53
06/08/2014	10:04:00.061	$GPGGA,100400,2447.4299,N,08033.4227,W,1,8,2.2,15,M,,M,,*51
06/08/2014	10:04:01.065	$GPGGA,100401,2447.4303,N,08033.4238,W,1,8,2.2,15,M,,M,,*5C
06/08/2014	10:04:02.069	$GPGGA,100402,2447.4307,N,08033.4248,W,1,8,1.5,16,M,,M,,*5B
06/08/2014	10:04:03.085	$GPGGA,100403,2447.4312,N,08033.4257,W,1,8,2.2,16,M,,M,,*54
06/08/2014	10:04:04.082	$GPGGA,100404,2447.4317,N,08033.4267,W,1,8,1.5,16,M,,M,,*51
06/08/2014	10:04:05.069	$GPGGA,100405,2447.4321,N,08033.4278,W,1,9,1.5,16,M,,M,,*5A
06/08/2014	10:04:06.071	$GPGGA,100406,2447.4324,N,08033.4289,W,1,9,2.2,16,M,,M,,*56
06/08/2014	10:04:07.069	$GPGGA,100407,2447.4328,N,08033.4301,W,1,8,2.2,16,M,,M,,*5B
06/08/2014	10:04:08.089	$GPGGA,100408,2447.4332,N,08033.4314,W,1,8,1.5,16,M,,M,,*5F
06/08/2014	10:04:09.096	$GPGGA,100409,2447.4337,N,08033.4324,W,1,8,1.5,16,M,,M,,*58
06/08/2014	10:04:10.070	$GPGGA,100410,2447.4341,N,08033.4335,W,1,8,1.5,16,M,,M,,*51
06/08/2014	10:04:11.109	$GPGGA,100411,2447.4343,N,08033.4346,W,1,8,1.5,16,M,,M,,*56
06/08/2014	10:04:12.091	$GPGGA,100412,2447.4348,N,08033.4357,W,1,8,1.5,16,M,,M,,*5E
06/08/2014	10:04:13.100	$GPGGA,100413,2447.4350,N,08033.4368,W,1,9,1.5,17,M,,M,,*5A
06/08/2014	10:04:14.072	$GPGGA,100414,2447.4353,N,08033.4379,W,1,9,1.5,17,M,,M,,*5E
06/08/2014	10:04:15.106	$GPGGA,100415,2447.4357,N,08033.4391,W,1,9,1.5,17,M,,M,,*5D
06/08/2014	10:04:16.089	$GPGGA,100416,2447.4361,N,08033.4404,W,1,9,1.5,17,M,,M,,*50
06/08/2014	10:04:17.119	$GPGGA,100417,2447.4364,N,08033.4418,W,1,9,1.5,17,M,,M,,*59
06/08/2014	10:04:18.086	$GPGGA,100418,2447.4366,N,08033.4429,W,1,9,1.5,17,M,,M,,*56
06/08/2014	10:04:19.109	$GPGGA,100419,2447.4368,N,08033.4443,W,1,9,1.5,17,M,,M,,*55
06/08/2014	10:04:20.121	$GPGGA,100420,2447.4371,N,08033.4455,W,1,9,1.5,17,M,,M,,*50
06/08/2014	10:04:21.086	$GPGGA,100421,2447.4374,N,08033.4467,W,1,9,1.5,17,M,,M,,*55
06/08/2014	10:04:22.100	$GPGGA,100422,2447.4375,N,08033.4480,W,1,9,2.2,17,M,,M,,*5A
06/08/2014	10:04:23.126	$GPGGA,100423,2447.4378,N,08033.4491,W,1,8,2.2,17,M,,M,,*57
06/08/2014	10:04:24.133	$GPGGA,100424,2447.4379,N,08033.4505,W,1,8,1.5,17,M,,M,,*59
06/08/2014	10:04:25.112	$GPGGA,100425,2447.4382,N,08033.4517,W,1,9,1.5,17,M,,M,,*5E
06/08/2014	10:04:26.096	$GPGGA,100426,2447.4382,N,08033.4530,W,1,9,1.5,17,M,,M,,*58
06/08/2014	10:04:27.100	$GPGGA,100427,2447.4385,N,08033.4542,W,1,9,1.5,17,M,,M,,*5B
06/08/2014	10:04:28.124	$GPGGA,100428,2447.4386,N,08033.4556,W,1,9,2.2,17,M,,M,,*56
06/08/2014	10:04:29.128	$GPGGA,100429,2447.4386,N,08033.4567,W,1,8,2.2,17,M,,M,,*54
06/08/2014	10:04:30.101	$GPGGA,100430,2447.4389,N,08033.4581,W,1,8,2.2,17,M,,M,,*5B
06/08/2014	10:04:31.115	$GPGGA,100431,2447.4389,N,08033.4593,W,1,8,2.2,17,M,,M,,*59
06/08/2014	10:04:32.119	$GPGGA,100432,2447.4390,N,08033.4606,W,1,8,2.2,17,M,,M,,*5D
06/08/2014	10:04:33.133	$GPGGA,100433,2447.4392,N,08033.4620,W,1,8,2.2,17,M,,M,,*5A
06/08/2014	10:04:34.107	$GPGGA,100434,2447.4393,N,08033.4632,W,1,8,2.2,17,M,,M,,*5F
06/08/2014	10:04:35.121	$GPGGA,100435,2447.4393,N,08033.4644,W,1,8,2.2,17,M,,M,,*5F
06/08/2014	10:04:36.146	$GPGGA,100436,2447.4395,N,08033.4657,W,1,8,2.2,17,M,,M,,*58
06/08/2014	10:04:37.119	$GPGGA,100437,2447.4394,N,08033.4671,W,1,8,2.2,17,M,,M,,*5C
06/08/2014	10:04:38.122	$GPGGA,100438,2447.4396,N,08033.4683,W,1,8,2.2,17,M,,M,,*5C
06/08/2014	10:04:39.028	$GPGGA,100439,2447.4395,N,08033.4697,W,1,8,2.2,16,M,,M,,*5A
06/08/2014	10:04:39.911	$GPGGA,100440,2447.4396,N,08033.4708,W,1,8,2.2,16,M,,M,,*50
06/08/2014	10:04:40.895	$GPGGA,100441,2447.4395,N,08033.4719,W,1,8,2.2,16,M,,M,,*52
06/08/2014	10:04:41.899	$GPGGA,100442,2447.4396,N,08033.4730,W,1,8,1.5,16,M,,M,,*5D
06/08/2014	10:04:42.903	$GPGGA,100443,2447.4395,N,08033.4743,W,1,9,1.5,16,M,,M,,*5A
06/08/2014	10:04:43.997	$GPGGA,100444,2447.4396,N,08033.4755,W,1,9,1.5,16,M,,M,,*59
06/08/2014	10:04:45.041	$GPGGA,100445,2447.4395,N,08033.4767,W,1,8,1.5,16,M,,M,,*5B
06/08/2014	10:04:45.995	$GPGGA,100446,2447.4396,N,08033.4780,W,1,8,1.5,16,M,,M,,*52
06/08/2014	10:04:46.999	$GPGGA,100447,2447.4395,N,08033.4792,W,1,9,1.5,16,M,,M,,*52
06/08/2014	10:04:48.091	$GPGGA,100448,2447.4396,N,08033.4805,W,1,9,1.5,16,M,,M,,*5F
06/08/2014	10:04:49.007	$GPGGA,100449,2447.4395,N,08033.4817,W,1,9,1.5,16,M,,M,,*5E
06/08/2014	10:04:50.071	$GPGGA,100450,2447.4396,N,08033.4830,W,1,9,1.5,16,M,,M,,*50
06/08/2014	10:04:51.055	$GPGGA,100451,2447.4394,N,08033.4841,W,1,9,1.5,16,M,,M,,*55
06/08/2014	10:04:52.101	$GPGGA,100452,2447.4395,N,08033.4855,W,1,9,1.5,16,M,,M,,*52
06/08/2014	10:04:53.052	$GPGGA,100453,2447.4393,N,08033.4866,W,1,9,1.5,16,M,,M,,*55
06/08/2014	10:04:54.076	$GPGGA,100454,2447.4393,N,08033.4879,W,1,9,1.5,16,M,,M,,*5C
06/08/2014	10:04:55.059	$GPGGA,100455,2447.4393,N,08033.4892,W,1,9,1.5,16,M,,M,,*58
06/08/2014	10:04:56.093	$GPGGA,100456,2447.4391,N,08033.4906,W,1,9,1.5,16,M,,M,,*55
06/08/2014	10:04:57.057	$GPGGA,100457,2447.4390,N,08033.4917,W,1,8,2.2,16,M,,M,,*50
06/08/2014	10:04:58.012	$GPGGA,100458,2447.4389,N,08033.4931,W,1,8,1.5,16,M,,M,,*57
06/08/2014	10:04:59.065	$GPGGA,100459,2447.4388,N,08033.4942,W,1,9,1.5,16,M,,M,,*52
06/08/2014	10:05:00.120	$GPGGA,100500,2447.4386,N,08033.4953,W,1,9,1.5,16,M,,M,,*51
06/08/2014	10:05:01.043	$GPGGA,100501,2447.4384,N,08033.4965,W,1,8,1.5,17,M,,M,,*57
06/08/2014	10:05:02.096	$GPGGA,100502,2447.4383,N,08033.4978,W,1,8,1.5,17,M,,M,,*5F
06/08/2014	10:05:03.021	$GPGGA,100503,2447.4381,N,08033.4989,W,1,8,1.5,17,M,,M,,*52
06/08/2014	10:05:04.095	$GPGGA,100504,2447.4380,N,08033.5004,W,1,8,1.5,17,M,,M,,*59
06/08/2014	10:05:05.028	$GPGGA,100505,2447.4379,N,08033.5015,W,1,9,1.5,17,M,,M,,*5F
06/08/2014	10:05:06.093	$GPGGA,100506,2447.4377,N,08033.5029,W,1,9,1.5,17,M,,M,,*5D
06/08/2014	10:05:07.026	$GPGGA,100507,2447.4376,N,08033.5043,W,1,9,1.5,17,M,,M,,*51
06/08/2014	10:05:08.110	$GPGGA,100508,2447.4375,N,08033.5055,W,1,9,1.5,17,M,,M,,*5A
06/08/2014	10:05:09.088	$GPGGA,100509,2447.4373,N,08033.5069,W,1,9,1.5,17,M,,M,,*52
06/08/2014	10:05:10.101	$GPGGA,100510,2447.4371,N,08033.5083,W,1,9,1.5,17,M,,M,,*5C
06/08/2014	10:05:11.101	$GPGGA,100511,2447.4368,N,08033.5095,W,1,9,1.7,17,M,,M,,*50
06/08/2014	10:05:12.125	$GPGGA,100512,2447.4365,N,08033.5108,W,1,9,1.7,17,M,,M,,*5B
06/08/2014	10:05:13.102	$GPGGA,100513,2447.4362,N,08033.5121,W,1,8,1.7,17,M,,M,,*57
06/08/2014	10:05:14.109	$GPGGA,100514,2447.4359,N,08033.5134,W,1,8,1.7,17,M,,M,,*5C
06/08/2014	10:05:15.115	$GPGGA,100515,2447.4354,N,08033.5148,W,1,8,1.7,17,M,,M,,*5B
06/08/2014	10:05:16.122	$GPGGA,100516,2447.4351,N,08033.5162,W,1,8,1.5,17,M,,M,,*57
06/08/2014	10:05:17.074	$GPGGA,100517,2447.4348,N,08033.5174,W,1,9,1.5,17,M,,M,,*58
06/08/2014	10:05:18.118	$GPGGA,100518,2447.4344,N,08033.5188,W,1,9,1.5,17,M,,M,,*58
06/08/2014	10:05:19.152	$GPGGA,100519,2447.4340,N,08033.5200,W,1,9,1.5,17,M,,M,,*5E
06/08/2014	10:05:20.129	$GPGGA,100520,2447.4337,N,08033.5213,W,1,9,1.5,17,M,,M,,*56
06/08/2014	10:05:21.049	$GPGGA,100521,2447.4334,N,08033.5227,W,1,9,1.5,17,M,,M,,*53
06/08/2014	10:05:22.147	$GPGGA,100522,2447.4330,N,08033.5238,W,1,9,1.4,18,M,,M,,*54
06/08/2014	10:05:23.057	$GPGGA,100523,2447.4326,N,08033.5250,W,1,9,1.4,18,M,,M,,*5C
06/08/2014	10:05:24.148	$GPGGA,100524,2447.4324,N,08033.5262,W,1,9,1.4,18,M,,M,,*58
06/08/2014	10:05:25.185	$GPGGA,100525,2447.4321,N,08033.5275,W,1,9,1.4,18,M,,M,,*5A
06/08/2014	10:05:26.179	$GPGGA,100526,2447.4316,N,08033.5286,W,1,9,1.4,18,M,,M,,*51
06/08/2014	10:05:27.093	$GPGGA,100527,2447.4314,N,08033.5298,W,1,9,1.4,18,M,,M,,*5D
06/08/2014	10:05:28.148	$GPGGA,100528,2447.4310,N,08033.5311,W,1,9,1.4,18,M,,M,,*56
06/08/2014	10:05:29.201	$GPGGA,100529,2447.4306,N,08033.5322,W,1,9,1.4,18,M,,M,,*50
06/08/2014	10:05:30.184	$GPGGA,100530,2447.4303,N,08033.5333,W,1,9,1.4,18,M,,M,,*5D
06/08/2014	10:05:31.198	$GPGGA,100531,2447.4299,N,08033.5344,W,1,9,1.4,18,M,,M,,*5E
06/08/2014	10:05:32.154	$GPGGA,100532,2447.4296,N,08033.5357,W,1,9,1.7,18,M,,M,,*53
06/08/2014	10:05:34.551	$GPGGA,100534,2447.4288,N,08033.5379,W,1,8,1.7,19,M,,M,,*56
06/08/2014	10:05:35.176	$GPGGA,100535,2447.4285,N,08033.5390,W,1,8,1.4,19,M,,M,,*5E
06/08/2014	10:05:36.197	$GPGGA,100536,2447.4281,N,08033.5401,W,1,8,1.4,19,M,,M,,*56
06/08/2014	10:05:37.221	$GPGGA,100537,2447.4277,N,08033.5410,W,1,9,1.4,19,M,,M,,*5F
06/08/2014	10:05:38.195	$GPGGA,100538,2447.4274,N,08033.5421,W,1,9,1.4,19,M,,M,,*51
06/08/2014	10:05:38.977	$GPGGA,100539,2447.4269,N,08033.5433,W,1,9,1.4,19,M,,M,,*5F
06/08/2014	10:05:39.971	$GPGGA,100540,2447.4265,N,08033.5442,W,1,9,1.4,19,M,,M,,*5B
06/08/2014	10:05:40.984	$GPGGA,100541,2447.4263,N,08033.5452,W,1,9,1.4,19,M,,M,,*5D
06/08/2014	10:05:41.958	$GPGGA,100542,2447.4258,N,08033.5463,W,1,9,1.4,19,M,,M,,*54
06/08/2014	10:05:42.982	$GPGGA,100543,2447.4254,N,08033.5474,W,1,9,1.4,19,M,,M,,*5F
06/08/2014	10:05:43.986	$GPGGA,100544,2447.4250,N,08033.5484,W,1,9,1.4,19,M,,M,,*53
06/08/2014	10:05:45.000	$GPGGA,100545,2447.4246,N,08033.5495,W,1,9,1.4,19,M,,M,,*55
06/08/2014	10:05:45.977	$GPGGA,100546,2447.4246,N,08033.5495,W,1,9,1.4,19,M,,M,,*56
06/08/2014	10:05:47.008	$GPGGA,100547,2447.4238,N,08033.5516,W,1,10,1.4,19,M,,M,,*6C
06/08/2014	10:05:48.021	$GPGGA,100548,2447.4238,N,08033.5516,W,1,10,1.4,19,M,,M,,*63
06/08/2014	10:05:48.974	$GPGGA,100549,2447.4234,N,08033.5525,W,1,10,1.4,19,M,,M,,*6E
06/08/2014	10:05:49.998	$GPGGA,100550,2447.4224,N,08033.5546,W,1,10,1.4,19,M,,M,,*62
06/08/2014	10:05:50.982	$GPGGA,100551,2447.4220,N,08033.5556,W,1,10,1.4,19,M,,M,,*66
06/08/2014	10:05:52.000	$GPGGA,100552,2447.4220,N,08033.5556,W,1,10,1.4,19,M,,M,,*65
06/08/2014	10:05:53.020	$GPGGA,100553,2447.4210,N,08033.5578,W,1,10,1.5,19,M,,M,,*6A
06/08/2014	10:05:54.014	$GPGGA,100554,2447.4205,N,08033.5587,W,1,10,1.5,19,M,,M,,*69
06/08/2014	10:05:55.009	$GPGGA,100555,2447.4200,N,08033.5597,W,1,9,1.5,19,M,,M,,*54
06/08/2014	10:05:56.014	$GPGGA,100556,2447.4195,N,08033.5607,W,1,9,1.5,19,M,,M,,*52
06/08/2014	10:05:57.016	$GPGGA,100557,2447.4191,N,08033.5618,W,1,9,1.5,19,M,,M,,*59
06/08/2014	10:05:58.038	$GPGGA,100558,2447.4191,N,08033.5618,W,1,9,1.5,19,M,,M,,*56
06/08/2014	10:05:59.013	$GPGGA,100559,2447.4182,N,08033.5636,W,1,10,1.4,19,M,,M,,*60
06/08/2014	10:06:00.032	$GPGGA,100600,2447.4182,N,08033.5636,W,1,10,1.4,19,M,,M,,*6F
06/08/2014	10:06:01.011	$GPGGA,100601,2447.4173,N,08033.5655,W,1,10,1.4,19,M,,M,,*65
06/08/2014	10:06:02.095	$GPGGA,100602,2447.4167,N,08033.5666,W,1,10,1.7,19,M,,M,,*60
06/08/2014	10:06:03.130	$GPGGA,100603,2447.4162,N,08033.5676,W,1,10,1.4,19,M,,M,,*66
06/08/2014	10:06:04.057	$GPGGA,100604,2447.4162,N,08033.5676,W,1,10,1.4,19,M,,M,,*61
06/08/2014	10:06:05.106	$GPGGA,100605,2447.4151,N,08033.5695,W,1,10,1.4,19,M,,M,,*6D
06/08/2014	10:06:06.021	$GPGGA,100606,2447.4151,N,08033.5695,W,1,10,1.4,19,M,,M,,*6E
06/08/2014	10:06:07.134	$GPGGA,100607,2447.4140,N,08033.5715,W,1,10,1.4,19,M,,M,,*66
06/08/2014	10:06:08.038	$GPGGA,100608,2447.4140,N,08033.5715,W,1,10,1.4,19,M,,M,,*69
06/08/2014	10:06:09.031	$GPGGA,100609,2447.4127,N,08033.5733,W,1,9,1.5,19,M,,M,,*54
06/08/2014	10:06:10.060	$GPGGA,100610,2447.4122,N,08033.5742,W,1,9,1.5,19,M,,M,,*5F
06/08/2014	10:06:11.009	$GPGGA,100611,2447.4115,N,08033.5752,W,1,9,1.5,19,M,,M,,*5B
06/08/2014	10:06:12.033	$GPGGA,100612,2447.4115,N,08033.5752,W,1,9,1.5,19,M,,M,,*58
06/08/2014	10:06:13.017	$GPGGA,100613,2447.4101,N,08033.5771,W,1,9,1.5,19,M,,M,,*5D
06/08/2014	10:06:14.121	$GPGGA,100614,2447.4097,N,08033.5780,W,1,9,1.5,19,M,,M,,*5A
06/08/2014	10:06:15.113	$GPGGA,100615,2447.4090,N,08033.5788,W,1,10,1.4,19,M,,M,,*6D
06/08/2014	10:06:16.139	$GPGGA,100616,2447.4084,N,08033.5798,W,1,10,1.4,19,M,,M,,*6A
06/08/2014	10:06:17.102	$GPGGA,100617,2447.4079,N,08033.5806,W,1,10,1.4,19,M,,M,,*61
06/08/2014	10:06:18.137	$GPGGA,100618,2447.4072,N,08033.5814,W,1,10,1.4,19,M,,M,,*66
06/08/2014	10:06:19.141	$GPGGA,100619,2447.4066,N,08033.5824,W,1,10,1.4,19,M,,M,,*61
06/08/2014	10:06:20.145	$GPGGA,100620,2447.4059,N,08033.5831,W,1,10,1.4,19,M,,M,,*63
06/08/2014	10:06:21.148	$GPGGA,100621,2447.4053,N,08033.5840,W,1,10,1.4,19,M,,M,,*6E
06/08/2014	10:06:22.142	$GPGGA,100622,2447.4046,N,08033.5849,W,1,10,1.4,19,M,,M,,*60
06/08/2014	10:06:23.165	$GPGGA,100623,2447.4040,N,08033.5857,W,1,10,1.4,19,M,,M,,*68
06/08/2014	10:06:24.159	$GPGGA,100624,2447.4033,N,08033.5867,W,1,10,1.4,19,M,,M,,*68
06/08/2014	10:06:25.140	$GPGGA,100625,2447.4027,N,08033.5874,W,1,10,1.4,19,M,,M,,*6E
06/08/2014	10:06:26.157	$GPGGA,100626,2447.4021,N,08033.5882,W,1,10,1.4,19,M,,M,,*62
06/08/2014	10:06:27.161	$GPGGA,100627,2447.4012,N,08033.5892,W,1,9,1.5,19,M,,M,,*5B
06/08/2014	10:06:28.165	$GPGGA,100628,2447.4005,N,08033.5900,W,1,9,1.5,19,M,,M,,*58
06/08/2014	10:06:29.159	$GPGGA,100629,2447.3999,N,08033.5908,W,1,9,1.5,19,M,,M,,*5A
06/08/2014	10:06:30.145	$GPGGA,100630,2447.3993,N,08033.5917,W,1,9,1.6,19,M,,M,,*55
06/08/2014	10:06:31.176	$GPGGA,100631,2447.3987,N,08033.5923,W,1,9,1.5,19,M,,M,,*55
06/08/2014	10:06:32.160	$GPGGA,100632,2447.3982,N,08033.5932,W,1,9,1.4,19,M,,M,,*52
06/08/2014	10:06:33.174	$GPGGA,100633,2447.3975,N,08033.5939,W,1,10,1.4,19,M,,M,,*68
06/08/2014	10:06:34.169	$GPGGA,100634,2447.3967,N,08033.5947,W,1,10,1.4,19,M,,M,,*65
06/08/2014	10:06:35.182	$GPGGA,100635,2447.3961,N,08033.5955,W,1,9,1.5,19,M,,M,,*58
06/08/2014	10:06:36.180	$GPGGA,100636,2447.3953,N,08033.5965,W,1,9,1.5,19,M,,M,,*59
06/08/2014	10:06:37.190	$GPGGA,100637,2447.3945,N,08033.5972,W,1,10,1.4,19,M,,M,,*60
06/08/2014	10:06:38.184	$GPGGA,100638,2447.3939,N,08033.5979,W,1,10,1.4,19,M,,M,,*6F
06/08/2014	10:06:38.927	$GPGGA,100639,2447.3934,N,08033.5988,W,1,9,1.5,19,M,,M,,*54
06/08/2014	10:06:39.959	$GPGGA,100640,2447.3927,N,08033.5997,W,1,9,1.5,19,M,,M,,*56
06/08/2014	10:06:40.957	$GPGGA,100641,2447.3920,N,08033.6004,W,1,10,1.4,19,M,,M,,*69
06/08/2014	10:06:41.949	$GPGGA,100642,2447.3911,N,08033.6012,W,1,10,1.4,19,M,,M,,*6F
06/08/2014	10:06:42.971	$GPGGA,100643,2447.3903,N,08033.6019,W,1,10,1.4,19,M,,M,,*66
06/08/2014	10:06:43.955	$GPGGA,100644,2447.3895,N,08033.6026,W,1,10,1.4,19,M,,M,,*63
06/08/2014	10:06:45.039	$GPGGA,100645,2447.3888,N,08033.6034,W,1,10,1.4,19,M,,M,,*6D
06/08/2014	10:06:45.965	$GPGGA,100646,2447.3880,N,08033.6041,W,1,10,1.4,19,M,,M,,*64
06/08/2014	10:06:46.986	$GPGGA,100647,2447.3873,N,08033.6048,W,1,10,1.4,19,M,,M,,*60
06/08/2014	10:06:47.981	$GPGGA,100648,2447.3864,N,08033.6055,W,1,10,1.4,19,M,,M,,*65
06/08/2014	10:06:48.977	$GPGGA,100649,2447.3855,N,08033.6062,W,1,9,1.5,19,M,,M,,*5B
06/08/2014	10:06:49.958	$GPGGA,100650,2447.3849,N,08033.6070,W,1,9,1.9,19,M,,M,,*51
06/08/2014	10:06:50.952	$GPGGA,100651,2447.3844,N,08033.6077,W,1,9,1.4,19,M,,M,,*57
06/08/2014	10:06:51.976	$GPGGA,100652,2447.3837,N,08033.6084,W,1,9,1.4,19,M,,M,,*5C
06/08/2014	10:06:53.050	$GPGGA,100653,2447.3828,N,08033.6089,W,1,9,1.5,19,M,,M,,*5F
06/08/2014	10:06:53.964	$GPGGA,100654,2447.3820,N,08033.6095,W,1,9,1.5,19,M,,M,,*5D
06/08/2014	10:06:54.968	$GPGGA,100655,2447.3813,N,08033.6100,W,1,9,1.5,19,M,,M,,*51
06/08/2014	10:06:55.993	$GPGGA,100656,2447.3805,N,08033.6106,W,1,9,1.5,19,M,,M,,*53
06/08/2014	10:06:56.986	$GPGGA,100657,2447.3798,N,08033.6113,W,1,8,1.6,19,M,,M,,*5F
06/08/2014	10:06:57.968	$GPGGA,100658,2447.3790,N,08033.6118,W,1,8,1.5,19,M,,M,,*50
06/08/2014	10:06:58.982	$GPGGA,100659,2447.3783,N,08033.6124,W,1,9,1.5,19,M,,M,,*5D
06/08/2014	10:06:59.986	$GPGGA,100700,2447.3776,N,08033.6131,W,1,9,1.5,19,M,,M,,*5E
06/08/2014	10:07:00.980	$GPGGA,100701,2447.3768,N,08033.6136,W,1,9,1.5,19,M,,M,,*57
06/08/2014	10:07:02.074	$GPGGA,100702,2447.3762,N,08033.6142,W,1,9,1.5,19,M,,M,,*5D
06/08/2014	10:07:03.064	$GPGGA,100703,2447.3754,N,08033.6149,W,1,10,1.4,19,M,,M,,*6B
06/08/2014	10:07:03.992	$GPGGA,100704,2447.3747,N,08033.6153,W,1,10,1.5,19,M,,M,,*64
06/08/2014	10:07:04.986	$GPGGA,100705,2447.3739,N,08033.6158,W,1,9,1.5,19,M,,M,,*5F
06/08/2014	10:07:05.990	$GPGGA,100706,2447.3728,N,08033.6167,W,1,9,1.7,19,M,,M,,*52
06/08/2014	10:07:07.104	$GPGGA,100707,2447.3721,N,08033.6172,W,1,9,1.5,19,M,,M,,*5C
06/08/2014	10:07:08.094	$GPGGA,100708,2447.3712,N,08033.6178,W,1,9,1.4,19,M,,M,,*58
06/08/2014	10:07:09.093	$GPGGA,100709,2447.3705,N,08033.6181,W,1,10,1.4,19,M,,M,,*61
06/08/2014	10:07:10.096	$GPGGA,100710,2447.3697,N,08033.6186,W,1,10,1.7,19,M,,M,,*67
06/08/2014	10:07:11.119	$GPGGA,100711,2447.3690,N,08033.6192,W,1,9,1.7,19,M,,M,,*5C
06/08/2014	10:07:12.105	$GPGGA,100712,2447.3682,N,08033.6196,W,1,9,1.7,19,M,,M,,*58
06/08/2014	10:07:13.110	$GPGGA,100713,2447.3672,N,08033.6203,W,1,10,1.4,19,M,,M,,*62
06/08/2014	10:07:14.104	$GPGGA,100714,2447.3665,N,08033.6207,W,1,10,1.4,19,M,,M,,*67
06/08/2014	10:07:15.128	$GPGGA,100715,2447.3660,N,08033.6210,W,1,10,1.4,19,M,,M,,*65
06/08/2014	10:07:16.118	$GPGGA,100716,2447.3651,N,08033.6214,W,1,10,1.4,19,M,,M,,*60
06/08/2014	10:07:17.122	$GPGGA,100717,2447.3644,N,08033.6218,W,1,10,1.4,19,M,,M,,*69
06/08/2014	10:07:18.104	$GPGGA,100718,2447.3638,N,08033.6222,W,1,10,1.4,19,M,,M,,*64
06/08/2014	10:07:19.131	$GPGGA,100719,2447.3629,N,08033.6228,W,1,10,1.4,19,M,,M,,*6F
06/08/2014	10:07:20.117	$GPGGA,100720,2447.3622,N,08033.6230,W,1,10,1.4,19,M,,M,,*67
06/08/2014	10:07:21.140	$GPGGA,100721,2447.3614,N,08033.6235,W,1,10,1.4,19,M,,M,,*66
06/08/2014	10:07:22.115	$GPGGA,100722,2447.3607,N,08033.6237,W,1,10,1.4,19,M,,M,,*65
06/08/2014	10:07:23.140	$GPGGA,100723,2447.3599,N,08033.6243,W,1,10,1.4,19,M,,M,,*63
06/08/2014	10:07:24.131	$GPGGA,100724,2447.3592,N,08033.6246,W,1,10,1.4,19,M,,M,,*6A
06/08/2014	10:07:25.133	$GPGGA,100725,2447.3585,N,08033.6248,W,1,10,1.4,19,M,,M,,*63
06/08/2014	10:07:26.120	$GPGGA,100726,2447.3577,N,08033.6253,W,1,10,1.5,19,M,,M,,*66
06/08/2014	10:07:27.151	$GPGGA,100727,2447.3569,N,08033.6257,W,1,9,1.5,19,M,,M,,*54
06/08/2014	10:07:28.128	$GPGGA,100728,2447.3561,N,08033.6259,W,1,9,1.5,19,M,,M,,*5D
06/08/2014	10:07:29.151	$GPGGA,100729,2447.3555,N,08033.6262,W,1,9,1.5,19,M,,M,,*53
06/08/2014	10:07:30.112	$GPGGA,100730,2447.3546,N,08033.6265,W,1,9,1.5,19,M,,M,,*5E
06/08/2014	10:07:31.139	$GPGGA,100731,2447.3538,N,08033.6268,W,1,9,1.5,19,M,,M,,*5B
06/08/2014	10:07:32.141	$GPGGA,100732,2447.3530,N,08033.6272,W,1,9,1.5,19,M,,M,,*5B
06/08/2014	10:07:33.163	$GPGGA,100733,2447.3522,N,08033.6275,W,1,9,1.5,19,M,,M,,*5E
06/08/2014	10:07:34.137	$GPGGA,100734,2447.3514,N,08033.6277,W,1,9,1.5,19,M,,M,,*5E
06/08/2014	10:07:35.131	$GPGGA,100735,2447.3506,N,08033.6282,W,1,9,1.5,19,M,,M,,*56
06/08/2014	10:07:36.184	$GPGGA,100736,2447.3498,N,08033.6284,W,1,9,1.5,18,M,,M,,*54
06/08/2014	10:07:37.129	$GPGGA,100737,2447.3490,N,08033.6287,W,1,9,1.5,18,M,,M,,*5E
06/08/2014	10:07:38.233	$GPGGA,100738,2447.3483,N,08033.6290,W,1,9,1.4,18,M,,M,,*54
06/08/2014	10:07:39.039	$GPGGA,100739,2447.3476,N,08033.6293,W,1,10,1.4,18,M,,M,,*64
06/08/2014	10:07:39.918	$GPGGA,100740,2447.3468,N,08033.6294,W,1,10,1.4,18,M,,M,,*62
06/08/2014	10:07:40.922	$GPGGA,100741,2447.3461,N,08033.6297,W,1,10,1.4,18,M,,M,,*69
06/08/2014	10:07:41.906	$GPGGA,100742,2447.3452,N,08033.6300,W,1,10,1.7,18,M,,M,,*66
06/08/2014	10:07:42.930	$GPGGA,100743,2447.3444,N,08033.6301,W,1,9,1.7,18,M,,M,,*59
06/08/2014	10:07:43.935	$GPGGA,100744,2447.3436,N,08033.6304,W,1,9,1.7,18,M,,M,,*5E
06/08/2014	10:07:45.028	$GPGGA,100745,2447.3428,N,08033.6305,W,1,9,1.7,18,M,,M,,*51
06/08/2014	10:07:46.033	$GPGGA,100746,2447.3420,N,08033.6306,W,1,9,1.7,18,M,,M,,*59
06/08/2014	10:07:47.016	$GPGGA,100747,2447.3412,N,08033.6306,W,1,9,1.7,18,M,,M,,*59
06/08/2014	10:07:48.040	$GPGGA,100748,2447.3403,N,08033.6308,W,1,9,1.4,18,M,,M,,*5B
06/08/2014	10:07:49.054	$GPGGA,100749,2447.3394,N,08033.6309,W,1,10,1.4,18,M,,M,,*6A
06/08/2014	10:07:50.027	$GPGGA,100750,2447.3386,N,08033.6311,W,1,10,1.4,18,M,,M,,*68
06/08/2014	10:07:51.040	$GPGGA,100751,2447.3378,N,08033.6311,W,1,10,1.4,18,M,,M,,*68
06/08/2014	10:07:51.944	$GPGGA,100752,2447.3369,N,08033.6313,W,1,10,1.4,18,M,,M,,*69
06/08/2014	10:07:53.068	$GPGGA,100753,2447.3362,N,08033.6313,W,1,9,1.5,18,M,,M,,*5A
06/08/2014	10:07:54.032	$GPGGA,100754,2447.3354,N,08033.6315,W,1,9,1.4,18,M,,M,,*5F
06/08/2014	10:07:55.056	$GPGGA,100755,2447.3345,N,08033.6315,W,1,10,1.4,18,M,,M,,*66
06/08/2014	10:07:56.050	$GPGGA,100756,2447.3336,N,08033.6318,W,1,10,1.4,18,M,,M,,*6C
06/08/2014	10:07:57.044	$GPGGA,100757,2447.3328,N,08033.6319,W,1,10,1.4,19,M,,M,,*62
06/08/2014	10:07:58.048	$GPGGA,100758,2447.3320,N,08033.6320,W,1,10,1.4,19,M,,M,,*6F
06/08/2014	10:07:59.038	$GPGGA,100759,2447.3311,N,08033.6322,W,1,10,1.4,19,M,,M,,*6E
06/08/2014	10:08:00.066	$GPGGA,100800,2447.3302,N,08033.6324,W,1,10,1.4,19,M,,M,,*69
06/08/2014	10:08:01.061	$GPGGA,100801,2447.3295,N,08033.6326,W,1,9,1.4,19,M,,M,,*5D
06/08/2014	10:08:02.053	$GPGGA,100802,2447.3286,N,08033.6327,W,1,9,1.4,19,M,,M,,*5D
06/08/2014	10:08:03.075	$GPGGA,100803,2447.3278,N,08033.6330,W,1,9,1.4,19,M,,M,,*5B
06/08/2014	10:08:04.076	$GPGGA,100804,2447.3270,N,08033.6333,W,1,9,1.4,19,M,,M,,*57
06/08/2014	10:08:05.067	$GPGGA,100805,2447.3262,N,08033.6335,W,1,10,1.4,19,M,,M,,*6B
06/08/2014	10:08:06.057	$GPGGA,100806,2447.3255,N,08033.6337,W,1,10,1.4,19,M,,M,,*6E
06/08/2014	10:08:07.088	$GPGGA,100807,2447.3246,N,08033.6340,W,1,10,1.4,19,M,,M,,*6D
06/08/2014	10:08:08.080	$GPGGA,100808,2447.3238,N,08033.6341,W,1,10,1.4,19,M,,M,,*6A
06/08/2014	10:08:09.058	$GPGGA,100809,2447.3230,N,08033.6342,W,1,10,1.4,19,M,,M,,*60
06/08/2014	10:08:10.098	$GPGGA,100810,2447.3221,N,08033.6344,W,1,10,1.4,19,M,,M,,*6E
06/08/2014	10:08:11.062	$GPGGA,100811,2447.3213,N,08033.6344,W,1,10,1.4,19,M,,M,,*6E
06/08/2014	10:08:12.108	$GPGGA,100812,2447.3205,N,08033.6347,W,1,10,1.4,19,M,,M,,*69
06/08/2014	10:08:13.091	$GPGGA,100813,2447.3198,N,08033.6348,W,1,9,1.5,19,M,,M,,*59
06/08/2014	10:08:14.059	$GPGGA,100814,2447.3190,N,08033.6348,W,1,9,1.4,19,M,,M,,*57
06/08/2014	10:08:15.085	$GPGGA,100815,2447.3181,N,08033.6349,W,1,10,1.4,19,M,,M,,*6F
06/08/2014	10:08:16.107	$GPGGA,100816,2447.3173,N,08033.6351,W,1,10,1.4,19,M,,M,,*68
06/08/2014	10:08:17.071	$GPGGA,100817,2447.3165,N,08033.6352,W,1,10,1.4,19,M,,M,,*6D
06/08/2014	10:08:18.205	$GPGGA,100818,2447.3158,N,08033.6352,W,1,10,1.4,19,M,,M,,*6C
06/08/2014	10:08:19.193	$GPGGA,100819,2447.3149,N,08033.6352,W,1,10,1.4,19,M,,M,,*6D
06/08/2014	10:08:20.082	$GPGGA,100820,2447.3140,N,08033.6355,W,1,10,1.4,19,M,,M,,*69
06/08/2014	10:08:21.137	$GPGGA,100821,2447.3132,N,08033.6353,W,1,10,1.4,19,M,,M,,*6B
06/08/2014	10:08:22.081	$GPGGA,100822,2447.3125,N,08033.6353,W,1,10,1.5,19,M,,M,,*6F
06/08/2014	10:08:23.121	$GPGGA,100823,2447.3116,N,08033.6353,W,1,10,1.4,19,M,,M,,*6F
06/08/2014	10:08:24.099	$GPGGA,100824,2447.3109,N,08033.6352,W,1,10,1.4,19,M,,M,,*67
06/08/2014	10:08:25.101	$GPGGA,100825,2447.3101,N,08033.6351,W,1,10,1.4,19,M,,M,,*6D
06/08/2014	10:08:26.085	$GPGGA,100826,2447.3093,N,08033.6351,W,1,10,1.4,19,M,,M,,*64
06/08/2014	10:08:27.121	$GPGGA,100827,2447.3084,N,08033.6350,W,1,9,1.4,19,M,,M,,*5A
06/08/2014	10:08:28.225	$GPGGA,100828,2447.3075,N,08033.6349,W,1,9,1.4,19,M,,M,,*53
06/08/2014	10:08:29.187	$GPGGA,100829,2447.3067,N,08033.6349,W,1,8,1.5,19,M,,M,,*51
06/08/2014	10:08:30.100	$GPGGA,100830,2447.3058,N,08033.6348,W,1,8,1.4,19,M,,M,,*55
06/08/2014	10:08:31.225	$GPGGA,100831,2447.3051,N,08033.6346,W,1,10,1.4,19,M,,M,,*6A
06/08/2014	10:08:32.218	$GPGGA,100832,2447.3043,N,08033.6345,W,1,10,1.4,19,M,,M,,*69
06/08/2014	10:08:33.102	$GPGGA,100833,2447.3035,N,08033.6345,W,1,10,1.4,19,M,,M,,*69
06/08/2014	10:08:34.196	$GPGGA,100834,2447.3026,N,08033.6343,W,1,10,1.4,19,M,,M,,*6A
06/08/2014	10:08:35.230	$GPGGA,100835,2447.3017,N,08033.6342,W,1,10,1.4,19,M,,M,,*68
06/08/2014	10:08:36.258	$GPGGA,100836,2447.3008,N,08033.6341,W,1,10,1.4,19,M,,M,,*66
06/08/2014	10:08:37.208	$GPGGA,100837,2447.3000,N,08033.6341,W,1,9,1.4,19,M,,M,,*57
06/08/2014	10:08:38.212	$GPGGA,100838,2447.2992,N,08033.6341,W,1,9,1.4,19,M,,M,,*5B
06/08/2014	10:08:38.985	$GPGGA,100839,2447.2984,N,08033.6341,W,1,10,1.4,19,M,,M,,*65
06/08/2014	10:08:39.999	$GPGGA,100840,2447.2975,N,08033.6340,W,1,10,1.4,19,M,,M,,*64
06/08/2014	10:08:41.050	$GPGGA,100841,2447.2967,N,08033.6340,W,1,10,1.4,19,M,,M,,*66
06/08/2014	10:08:41.986	$GPGGA,100842,2447.2959,N,08033.6339,W,1,10,1.4,19,M,,M,,*66
06/08/2014	10:08:43.009	$GPGGA,100843,2447.2950,N,08033.6337,W,1,10,1.4,19,M,,M,,*60
06/08/2014	10:08:44.004	$GPGGA,100844,2447.2941,N,08033.6336,W,1,10,1.4,19,M,,M,,*66
06/08/2014	10:08:45.017	$GPGGA,100845,2447.2934,N,08033.6335,W,1,10,1.4,19,M,,M,,*66
06/08/2014	10:08:45.991	$GPGGA,100846,2447.2924,N,08033.6333,W,1,10,1.4,19,M,,M,,*62
06/08/2014	10:08:46.995	$GPGGA,100847,2447.2916,N,08033.6332,W,1,10,1.4,19,M,,M,,*63
06/08/2014	10:08:48.009	$GPGGA,100848,2447.2907,N,08033.6330,W,1,10,1.4,19,M,,M,,*6E
06/08/2014	10:08:48.993	$GPGGA,100849,2447.2898,N,08033.6328,W,1,10,1.4,19,M,,M,,*61
06/08/2014	10:08:50.006	$GPGGA,100850,2447.2890,N,08033.6327,W,1,10,1.4,19,M,,M,,*6E
06/08/2014	10:08:51.030	$GPGGA,100851,2447.2881,N,08033.6325,W,1,10,1.4,19,M,,M,,*6D
06/08/2014	10:08:52.024	$GPGGA,100852,2447.2872,N,08033.6323,W,1,10,1.4,19,M,,M,,*64
06/08/2014	10:08:53.018	$GPGGA,100853,2447.2865,N,08033.6321,W,1,10,1.4,19,M,,M,,*61
06/08/2014	10:08:54.004	$GPGGA,100854,2447.2855,N,08033.6318,W,1,10,1.4,19,M,,M,,*6F
06/08/2014	10:08:55.026	$GPGGA,100855,2447.2847,N,08033.6316,W,1,9,1.5,18,M,,M,,*5B
06/08/2014	10:08:56.020	$GPGGA,100856,2447.2837,N,08033.6314,W,1,9,1.5,18,M,,M,,*5D
06/08/2014	10:08:57.044	$GPGGA,100857,2447.2829,N,08033.6312,W,1,9,1.5,18,M,,M,,*55
06/08/2014	10:08:58.008	$GPGGA,100858,2447.2820,N,08033.6310,W,1,9,1.4,18,M,,M,,*50
06/08/2014	10:08:59.042	$GPGGA,100859,2447.2812,N,08033.6307,W,1,10,1.4,18,M,,M,,*6E
06/08/2014	10:09:00.045	$GPGGA,100900,2447.2803,N,08033.6304,W,1,10,1.4,18,M,,M,,*60
06/08/2014	10:09:01.047	$GPGGA,100901,2447.2795,N,08033.6301,W,1,10,1.4,18,M,,M,,*64
06/08/2014	10:09:02.012	$GPGGA,100902,2447.2787,N,08033.6298,W,1,10,1.4,18,M,,M,,*65
06/08/2014	10:09:03.041	$GPGGA,100903,2447.2778,N,08033.6295,W,1,10,1.4,18,M,,M,,*69
06/08/2014	10:09:04.054	$GPGGA,100904,2447.2771,N,08033.6291,W,1,10,1.4,18,M,,M,,*63
06/08/2014	10:09:05.052	$GPGGA,100905,2447.2762,N,08033.6288,W,1,10,1.4,17,M,,M,,*67
06/08/2014	10:09:06.028	$GPGGA,100906,2447.2754,N,08033.6284,W,1,10,1.4,17,M,,M,,*6D
06/08/2014	10:09:07.076	$GPGGA,100907,2447.2746,N,08033.6281,W,1,10,1.4,17,M,,M,,*6A
06/08/2014	10:09:08.064	$GPGGA,100908,2447.2738,N,08033.6277,W,1,10,1.4,17,M,,M,,*65
06/08/2014	10:09:09.087	$GPGGA,100909,2447.2730,N,08033.6273,W,1,10,1.4,17,M,,M,,*68
06/08/2014	10:09:10.033	$GPGGA,100910,2447.2722,N,08033.6269,W,1,10,1.4,17,M,,M,,*68
06/08/2014	10:09:11.138	$GPGGA,100911,2447.2714,N,08033.6265,W,1,10,1.4,17,M,,M,,*60
06/08/2014	10:09:12.175	$GPGGA,100912,2447.2706,N,08033.6261,W,1,10,1.4,17,M,,M,,*64
06/08/2014	10:09:13.045	$GPGGA,100913,2447.2699,N,08033.6257,W,1,10,1.4,17,M,,M,,*67
06/08/2014	10:09:14.139	$GPGGA,100914,2447.2690,N,08033.6253,W,1,10,1.4,17,M,,M,,*6D
06/08/2014	10:09:15.174	$GPGGA,100915,2447.2682,N,08033.6248,W,1,10,1.4,17,M,,M,,*65
06/08/2014	10:09:16.065	$GPGGA,100916,2447.2674,N,08033.6244,W,1,10,1.4,17,M,,M,,*63
06/08/2014	10:09:17.058	$GPGGA,100917,2447.2667,N,08033.6241,W,1,10,1.4,17,M,,M,,*65
06/08/2014	10:09:18.151	$GPGGA,100918,2447.2659,N,08033.6236,W,1,10,1.4,16,M,,M,,*66
06/08/2014	10:09:19.164	$GPGGA,100919,2447.2652,N,08033.6232,W,1,10,1.4,16,M,,M,,*68
06/08/2014	10:09:20.066	$GPGGA,100920,2447.2645,N,08033.6228,W,1,10,1.4,16,M,,M,,*6F
06/08/2014	10:09:21.150	$GPGGA,100921,2447.2636,N,08033.6223,W,1,10,1.4,16,M,,M,,*61
06/08/2014	10:09:22.153	$GPGGA,100922,2447.2630,N,08033.6218,W,1,10,1.4,16,M,,M,,*6C
06/08/2014	10:09:23.186	$GPGGA,100923,2447.2621,N,08033.6214,W,1,10,1.4,16,M,,M,,*61
06/08/2014	10:09:24.169	$GPGGA,100924,2447.2613,N,08033.6209,W,1,10,1.4,16,M,,M,,*6B
06/08/2014	10:09:25.162	$GPGGA,100925,2447.2605,N,08033.6204,W,1,10,1.4,16,M,,M,,*60
06/08/2014	10:09:26.155	$GPGGA,100926,2447.2598,N,08033.6199,W,1,10,1.4,16,M,,M,,*63
06/08/2014	10:09:27.168	$GPGGA,100927,2447.2590,N,08033.6195,W,1,10,1.4,16,M,,M,,*66
06/08/2014	10:09:29.585	$GPGGA,100928,2447.2583,N,08033.6189,W,1,10,1.4,16,M,,M,,*66
06/08/2014	10:09:29.606	$GPGGA,100929,2447.2576,N,08033.6184,W,1,10,1.4,16,M,,M,,*60
06/08/2014	10:09:30.167	$GPGGA,100930,2447.2569,N,08033.6179,W,1,10,1.4,16,M,,M,,*64
06/08/2014	10:09:31.170	$GPGGA,100931,2447.2561,N,08033.6173,W,1,10,1.4,16,M,,M,,*67
06/08/2014	10:09:32.193	$GPGGA,100932,2447.2554,N,08033.6167,W,1,10,1.4,16,M,,M,,*67
06/08/2014	10:09:33.166	$GPGGA,100933,2447.2547,N,08033.6162,W,1,10,1.4,16,M,,M,,*61
06/08/2014	10:09:34.169	$GPGGA,100934,2447.2540,N,08033.6157,W,1,10,1.4,16,M,,M,,*67
06/08/2014	10:09:35.181	$GPGGA,100935,2447.2533,N,08033.6151,W,1,10,1.4,16,M,,M,,*64
06/08/2014	10:09:36.194	$GPGGA,100936,2447.2526,N,08033.6145,W,1,10,1.4,16,M,,M,,*66
06/08/2014	10:09:37.187	$GPGGA,100937,2447.2520,N,08033.6140,W,1,10,1.4,16,M,,M,,*64
06/08/2014	10:09:38.169	$GPGGA,100938,2447.2513,N,08033.6134,W,1,10,1.5,16,M,,M,,*69
06/08/2014	10:09:38.972	$GPGGA,100939,2447.2507,N,08033.6129,W,1,9,1.5,16,M,,M,,*59
06/08/2014	10:09:39.985	$GPGGA,100940,2447.2501,N,08033.6123,W,1,9,1.4,16,M,,M,,*5A
06/08/2014	10:09:40.978	$GPGGA,100941,2447.2496,N,08033.6118,W,1,10,1.4,16,M,,M,,*64
06/08/2014	10:09:41.961	$GPGGA,100942,2447.2490,N,08033.6113,W,1,10,1.4,16,M,,M,,*6A
06/08/2014	10:09:42.984	$GPGGA,100943,2447.2484,N,08033.6107,W,1,10,1.4,16,M,,M,,*6B
06/08/2014	10:09:43.977	$GPGGA,100944,2447.2478,N,08033.6102,W,1,10,1.4,16,M,,M,,*6A
06/08/2014	10:09:44.980	$GPGGA,100945,2447.2473,N,08033.6095,W,1,10,1.4,15,M,,M,,*6C
06/08/2014	10:09:45.953	$GPGGA,100946,2447.2467,N,08033.6089,W,1,10,1.4,15,M,,M,,*67
06/08/2014	10:09:46.956	$GPGGA,100947,2447.2462,N,08033.6084,W,1,10,1.4,15,M,,M,,*6E
06/08/2014	10:09:47.989	$GPGGA,100948,2447.2457,N,08033.6077,W,1,10,1.4,15,M,,M,,*6B
06/08/2014	10:09:48.962	$GPGGA,100949,2447.2450,N,08033.6071,W,1,10,1.4,15,M,,M,,*6B
06/08/2014	10:09:49.975	$GPGGA,100950,2447.2446,N,08033.6064,W,1,10,1.4,15,M,,M,,*60
06/08/2014	10:09:50.998	$GPGGA,100951,2447.2439,N,08033.6058,W,1,10,1.4,15,M,,M,,*66
06/08/2014	10:09:51.981	$GPGGA,100952,2447.2432,N,08033.6051,W,1,10,1.4,15,M,,M,,*67
06/08/2014	10:09:52.973	$GPGGA,100953,2447.2428,N,08033.6044,W,1,10,1.4,15,M,,M,,*69
06/08/2014	10:09:53.976	$GPGGA,100954,2447.2421,N,08033.6037,W,1,10,1.4,15,M,,M,,*63
06/08/2014	10:09:55.009	$GPGGA,100955,2447.2415,N,08033.6030,W,1,10,1.4,15,M,,M,,*62
06/08/2014	10:09:55.993	$GPGGA,100956,2447.2410,N,08033.6024,W,1,10,1.4,15,M,,M,,*61
06/08/2014	10:09:56.976	$GPGGA,100957,2447.2404,N,08033.6017,W,1,10,1.4,15,M,,M,,*65
06/08/2014	10:09:57.978	$GPGGA,100958,2447.2397,N,08033.6010,W,1,10,1.7,15,M,,M,,*63
06/08/2014	10:09:59.011	$GPGGA,100959,2447.2392,N,08033.6003,W,1,9,1.8,15,M,,M,,*52
06/08/2014	10:10:00.004	$GPGGA,101000,2447.2384,N,08033.5998,W,1,9,1.7,15,M,,M,,*56
06/08/2014	10:10:00.997	$GPGGA,101001,2447.2377,N,08033.5993,W,1,9,1.4,15,M,,M,,*53
06/08/2014	10:10:01.980	$GPGGA,101002,2447.2371,N,08033.5986,W,1,9,1.4,15,M,,M,,*52
06/08/2014	10:10:02.993	$GPGGA,101003,2447.2366,N,08033.5978,W,1,10,1.4,16,M,,M,,*6F
06/08/2014	10:10:04.107	$GPGGA,101004,2447.2360,N,08033.5970,W,1,10,1.4,16,M,,M,,*66
06/08/2014	10:10:04.969	$GPGGA,101005,2447.2355,N,08033.5965,W,1,9,1.4,16,M,,M,,*5D
06/08/2014	10:10:06.092	$GPGGA,101006,2447.2350,N,08033.5959,W,1,9,1.4,16,M,,M,,*54
06/08/2014	10:10:07.106	$GPGGA,101007,2447.2346,N,08033.5952,W,1,9,1.4,16,M,,M,,*59
06/08/2014	10:10:08.008	$GPGGA,101008,2447.2341,N,08033.5944,W,1,9,1.4,16,M,,M,,*56
06/08/2014	10:10:08.981	$GPGGA,101009,2447.2334,N,08033.5937,W,1,10,1.4,16,M,,M,,*69
06/08/2014	10:10:10.003	$GPGGA,101010,2447.2329,N,08033.5929,W,1,10,1.4,16,M,,M,,*62
06/08/2014	10:10:11.006	$GPGGA,101011,2447.2325,N,08033.5920,W,1,10,1.4,17,M,,M,,*67
06/08/2014	10:10:12.099	$GPGGA,101012,2447.2320,N,08033.5912,W,1,10,1.4,17,M,,M,,*60
06/08/2014	10:10:13.012	$GPGGA,101013,2447.2316,N,08033.5903,W,1,9,1.4,17,M,,M,,*5C
06/08/2014	10:10:13.995	$GPGGA,101014,2447.2316,N,08033.5903,W,1,9,1.4,17,M,,M,,*5B
06/08/2014	10:10:14.998	$GPGGA,101015,2447.2306,N,08033.5886,W,1,10,1.4,17,M,,M,,*6F
06/08/2014	10:10:16.101	$GPGGA,101016,2447.2301,N,08033.5877,W,1,10,1.4,17,M,,M,,*65
06/08/2014	10:10:17.094	$GPGGA,101017,2447.2298,N,08033.5869,W,1,9,1.4,17,M,,M,,*52
06/08/2014	10:10:18.087	$GPGGA,101018,2447.2294,N,08033.5862,W,1,9,1.4,17,M,,M,,*5A
06/08/2014	10:10:19.110	$GPGGA,101019,2447.2289,N,08033.5854,W,1,10,1.4,17,M,,M,,*6A
06/08/2014	10:10:20.103	$GPGGA,101020,2447.2285,N,08033.5845,W,1,10,1.4,18,M,,M,,*63
06/08/2014	10:10:21.116	$GPGGA,101021,2447.2281,N,08033.5836,W,1,9,1.5,18,M,,M,,*5B
06/08/2014	10:10:22.089	$GPGGA,101022,2447.2276,N,08033.5827,W,1,9,1.4,18,M,,M,,*51
06/08/2014	10:10:23.093	$GPGGA,101023,2447.2272,N,08033.5818,W,1,10,1.4,18,M,,M,,*60
06/08/2014	10:10:24.105	$GPGGA,101024,2447.2269,N,08033.5808,W,1,10,1.4,18,M,,M,,*6C
06/08/2014	10:10:25.118	$GPGGA,101025,2447.2263,N,08033.5799,W,1,10,1.4,18,M,,M,,*60
06/08/2014	10:10:26.098	$GPGGA,101026,2447.2259,N,08033.5790,W,1,10,1.4,18,M,,M,,*63
06/08/2014	10:10:27.123	$GPGGA,101027,2447.2255,N,08033.5781,W,1,10,1.4,18,M,,M,,*6E
06/08/2014	10:10:28.108	$GPGGA,101028,2447.2251,N,08033.5771,W,1,10,1.4,18,M,,M,,*6A
06/08/2014	10:10:29.111	$GPGGA,101029,2447.2247,N,08033.5761,W,1,10,1.4,18,M,,M,,*6D
06/08/2014	10:10:30.108	$GPGGA,101030,2447.2243,N,08033.5752,W,1,10,1.4,18,M,,M,,*61
06/08/2014	10:10:31.135	$GPGGA,101031,2447.2240,N,08033.5742,W,1,10,1.4,18,M,,M,,*62
06/08/2014	10:10:32.120	$GPGGA,101032,2447.2236,N,08033.5733,W,1,10,1.4,18,M,,M,,*66
06/08/2014	10:10:33.127	$GPGGA,101033,2447.2233,N,08033.5723,W,1,10,1.4,18,M,,M,,*63
06/08/2014	10:10:34.137	$GPGGA,101034,2447.2229,N,08033.5713,W,1,10,1.4,18,M,,M,,*6C
06/08/2014	10:10:35.098	$GPGGA,101035,2447.2226,N,08033.5704,W,1,10,1.4,18,M,,M,,*64
06/08/2014	10:10:36.124	$GPGGA,101036,2447.2222,N,08033.5694,W,1,10,1.4,18,M,,M,,*6B
06/08/2014	10:10:37.143	$GPGGA,101037,2447.2219,N,08033.5685,W,1,10,1.4,18,M,,M,,*62
06/08/2014	10:10:38.123	$GPGGA,101038,2447.2217,N,08033.5676,W,1,10,1.4,18,M,,M,,*6F
06/08/2014	10:10:38.962	$GPGGA,101039,2447.2213,N,08033.5666,W,1,10,1.4,18,M,,M,,*6B
06/08/2014	10:10:39.940	$GPGGA,101040,2447.2211,N,08033.5656,W,1,10,1.4,18,M,,M,,*64
06/08/2014	10:10:40.938	$GPGGA,101041,2447.2208,N,08033.5646,W,1,10,1.4,18,M,,M,,*6C
06/08/2014	10:10:41.943	$GPGGA,101042,2447.2205,N,08033.5636,W,1,10,1.5,18,M,,M,,*64
06/08/2014	10:10:42.964	$GPGGA,101043,2447.2204,N,08033.5626,W,1,10,1.4,18,M,,M,,*64
06/08/2014	10:10:43.957	$GPGGA,101044,2447.2201,N,08033.5616,W,1,10,1.4,18,M,,M,,*65
06/08/2014	10:10:44.929	$GPGGA,101045,2447.2199,N,08033.5606,W,1,10,1.4,18,M,,M,,*67
06/08/2014	10:10:45.932	$GPGGA,101046,2447.2197,N,08033.5596,W,1,10,1.4,18,M,,M,,*60
06/08/2014	10:10:46.935	$GPGGA,101047,2447.2194,N,08033.5586,W,1,10,1.4,18,M,,M,,*63
06/08/2014	10:10:48.091	$GPGGA,101048,2447.2193,N,08033.5576,W,1,10,1.4,18,M,,M,,*64
06/08/2014	10:10:48.951	$GPGGA,101049,2447.2189,N,08033.5567,W,1,10,1.4,18,M,,M,,*6E
06/08/2014	10:10:50.034	$GPGGA,101050,2447.2186,N,08033.5556,W,1,10,1.5,18,M,,M,,*6A
06/08/2014	10:10:50.937	$GPGGA,101051,2447.2184,N,08033.5546,W,1,10,1.4,18,M,,M,,*69
06/08/2014	10:10:51.960	$GPGGA,101052,2447.2182,N,08033.5536,W,1,10,1.4,18,M,,M,,*6B
06/08/2014	10:10:53.053	$GPGGA,101053,2447.2179,N,08033.5525,W,1,10,1.4,18,M,,M,,*6C
06/08/2014	10:10:53.956	$GPGGA,101054,2447.2176,N,08033.5515,W,1,10,1.4,18,M,,M,,*67
06/08/2014	10:10:54.939	$GPGGA,101055,2447.2173,N,08033.5505,W,1,10,1.4,18,M,,M,,*62
06/08/2014	10:10:56.072	$GPGGA,101056,2447.2170,N,08033.5494,W,1,10,1.4,18,M,,M,,*6B
06/08/2014	10:10:57.088	$GPGGA,101057,2447.2168,N,08033.5483,W,1,10,1.4,18,M,,M,,*65
06/08/2014	10:10:57.968	$GPGGA,101058,2447.2164,N,08033.5472,W,1,10,1.4,18,M,,M,,*68
06/08/2014	10:10:58.951	$GPGGA,101059,2447.2160,N,08033.5461,W,1,9,1.5,18,M,,M,,*56
06/08/2014	10:11:00.064	$GPGGA,101100,2447.2157,N,08033.5451,W,1,9,1.5,18,M,,M,,*5C
06/08/2014	10:11:01.078	$GPGGA,101101,2447.2153,N,08033.5439,W,1,10,1.4,18,M,,M,,*6E
06/08/2014	10:11:02.049	$GPGGA,101102,2447.2150,N,08033.5427,W,1,10,1.4,18,M,,M,,*61
06/08/2014	10:11:03.062	$GPGGA,101103,2447.2146,N,08033.5415,W,1,9,1.5,18,M,,M,,*5F
06/08/2014	10:11:04.055	$GPGGA,101104,2447.2143,N,08033.5403,W,1,9,1.4,18,M,,M,,*5B
06/08/2014	10:11:05.068	$GPGGA,101105,2447.2139,N,08033.5391,W,1,10,1.4,18,M,,M,,*63
06/08/2014	10:11:06.061	$GPGGA,101106,2447.2137,N,08033.5379,W,1,10,1.5,18,M,,M,,*69
06/08/2014	10:11:07.074	$GPGGA,101107,2447.2135,N,08033.5366,W,1,10,1.4,17,M,,M,,*6A
06/08/2014	10:11:08.067	$GPGGA,101108,2447.2130,N,08033.5353,W,1,10,1.4,17,M,,M,,*66
06/08/2014	10:11:09.052	$GPGGA,101109,2447.2126,N,08033.5341,W,1,10,1.4,17,M,,M,,*63
06/08/2014	10:11:10.066	$GPGGA,101110,2447.2123,N,08033.5328,W,1,10,1.5,17,M,,M,,*60
06/08/2014	10:11:11.076	$GPGGA,101111,2447.2118,N,08033.5316,W,1,10,1.4,17,M,,M,,*65
06/08/2014	10:11:12.063	$GPGGA,101112,2447.2114,N,08033.5303,W,1,10,1.4,17,M,,M,,*6E
06/08/2014	10:11:13.055	$GPGGA,101113,2447.2110,N,08033.5290,W,1,10,1.4,17,M,,M,,*60
06/08/2014	10:11:14.075	$GPGGA,101114,2447.2106,N,08033.5277,W,1,10,1.4,17,M,,M,,*69
06/08/2014	10:11:15.084	$GPGGA,101115,2447.2103,N,08033.5264,W,1,10,1.4,17,M,,M,,*6F
06/08/2014	10:11:16.074	$GPGGA,101116,2447.2099,N,08033.5251,W,1,10,1.4,17,M,,M,,*68
06/08/2014	10:11:17.079	$GPGGA,101117,2447.2094,N,08033.5238,W,1,10,1.4,17,M,,M,,*6B
06/08/2014	10:11:18.064	$GPGGA,101118,2447.2090,N,08033.5224,W,1,10,1.4,17,M,,M,,*6D
06/08/2014	10:11:19.100	$GPGGA,101119,2447.2086,N,08033.5211,W,1,10,1.4,16,M,,M,,*6C
06/08/2014	10:11:20.090	$GPGGA,101120,2447.2082,N,08033.5198,W,1,10,1.4,16,M,,M,,*60
06/08/2014	10:11:21.074	$GPGGA,101121,2447.2078,N,08033.5184,W,1,10,1.4,16,M,,M,,*69
06/08/2014	10:11:22.078	$GPGGA,101122,2447.2074,N,08033.5170,W,1,10,1.4,16,M,,M,,*6D
06/08/2014	10:11:23.083	$GPGGA,101123,2447.2070,N,08033.5156,W,1,10,1.4,16,M,,M,,*6C
06/08/2014	10:11:24.091	$GPGGA,101124,2447.2066,N,08033.5143,W,1,10,1.4,16,M,,M,,*68
06/08/2014	10:11:25.090	$GPGGA,101125,2447.2063,N,08033.5128,W,1,10,1.4,16,M,,M,,*61
06/08/2014	10:11:26.071	$GPGGA,101126,2447.2058,N,08033.5115,W,1,10,1.4,16,M,,M,,*64
06/08/2014	10:11:27.065	$GPGGA,101127,2447.2056,N,08033.5101,W,1,10,1.4,16,M,,M,,*6E
06/08/2014	10:11:28.094	$GPGGA,101128,2447.2052,N,08033.5086,W,1,10,1.4,16,M,,M,,*6B
06/08/2014	10:11:29.104	$GPGGA,101129,2447.2047,N,08033.5072,W,1,10,1.4,16,M,,M,,*65
06/08/2014	10:11:30.072	$GPGGA,101130,2447.2045,N,08033.5059,W,1,10,1.4,15,M,,M,,*65
06/08/2014	10:11:31.093	$GPGGA,101131,2447.2040,N,08033.5044,W,1,10,1.4,15,M,,M,,*6D
06/08/2014	10:11:32.178	$GPGGA,101132,2447.2036,N,08033.5030,W,1,10,1.4,15,M,,M,,*6C
06/08/2014	10:11:33.071	$GPGGA,101133,2447.2032,N,08033.5015,W,1,10,1.4,15,M,,M,,*6E
06/08/2014	10:11:34.085	$GPGGA,101134,2447.2028,N,08033.5001,W,1,10,1.4,15,M,,M,,*67
06/08/2014	10:11:35.177	$GPGGA,101135,2447.2025,N,08033.4986,W,1,10,1.4,15,M,,M,,*6C
06/08/2014	10:11:36.191	$GPGGA,101136,2447.2021,N,08033.4971,W,1,10,1.4,15,M,,M,,*63
06/08/2014	10:11:37.073	$GPGGA,101137,2447.2017,N,08033.4957,W,1,10,1.4,15,M,,M,,*63
06/08/2014	10:11:38.175	$GPGGA,101138,2447.2013,N,08033.4942,W,1,10,1.4,15,M,,M,,*6C
06/08/2014	10:11:39.010	$GPGGA,101139,2447.2009,N,08033.4928,W,1,9,1.4,15,M,,M,,*52
06/08/2014	10:11:40.033	$GPGGA,101140,2447.2005,N,08033.4914,W,1,9,1.4,15,M,,M,,*5F
06/08/2014	10:11:41.006	$GPGGA,101141,2447.2001,N,08033.4900,W,1,10,1.4,15,M,,M,,*67
06/08/2014	10:11:41.919	$GPGGA,101142,2447.1996,N,08033.4885,W,1,10,1.4,14,M,,M,,*6D
06/08/2014	10:11:43.023	$GPGGA,101143,2447.1993,N,08033.4871,W,1,10,1.4,14,M,,M,,*62
06/08/2014	10:11:44.015	$GPGGA,101144,2447.1988,N,08033.4857,W,1,10,1.4,14,M,,M,,*6B
06/08/2014	10:11:45.008	$GPGGA,101145,2447.1984,N,08033.4843,W,1,10,1.4,14,M,,M,,*63
