Software Version Number: 1	Data File Format Number: 1	Build Version Number: 1	Error Count Since VI Started: 0	Manufacturer: Raytheon	 Model Number: RayMarine 120	 S/N: 	 Cal Date: 	 Wind Direction Offset: 0.00	 Slope (M)1: 0.00	 Offset (B)1: 0.00	 Slope (M)2: 0.00	 Offset (B)2: 0.00	 Slope (M)3: 0.00	 Offset (B)3: 0.00	 Slope (M)4: 0.00	 Offset (B)4: 0.00	 Slope (M)5: 0.00	 Offset (B)5: 0.00	 Slope (M)6: 0.00	 Offset (B)6: 0.00
Computer Date	Computer Time	GGA String
06/08/2014	15:00:00.858	$GPGGA,150009,2451.2452,N,08030.3509,W,1,8,1.8,12,M,,M,,*58
06/08/2014	15:00:01.873	$GPGGA,150010,2451.2468,N,08030.3523,W,1,8,1.8,12,M,,M,,*51
06/08/2014	15:00:02.920	$GPGGA,150011,2451.2486,N,08030.3537,W,1,8,2.2,12,M,,M,,*5C
06/08/2014	15:00:05.341	$GPGGA,150013,2451.2521,N,08030.3563,W,1,7,1.8,12,M,,M,,*55
06/08/2014	15:00:05.946	$GPGGA,150014,2451.2536,N,08030.3577,W,1,7,1.8,12,M,,M,,*51
06/08/2014	15:00:06.992	$GPGGA,150015,2451.2554,N,08030.3589,W,1,8,1.8,12,M,,M,,*5A
06/08/2014	15:00:08.029	$GPGGA,150016,2451.2571,N,08030.3602,W,1,8,1.8,12,M,,M,,*5E
06/08/2014	15:00:09.034	$GPGGA,150017,2451.2587,N,08030.3614,W,1,8,1.8,12,M,,M,,*51
06/08/2014	15:00:10.049	$GPGGA,150018,2451.2601,N,08030.3627,W,1,8,1.8,12,M,,M,,*53
06/08/2014	15:00:11.081	$GPGGA,150019,2451.2618,N,08030.3639,W,1,8,1.8,12,M,,M,,*55
06/08/2014	15:00:12.102	$GPGGA,150020,2451.2633,N,08030.3650,W,1,8,1.8,12,M,,M,,*59
06/08/2014	15:00:13.158	$GPGGA,150021,2451.2648,N,08030.3663,W,1,8,1.8,12,M,,M,,*54
06/08/2014	15:00:14.153	$GPGGA,150022,2451.2663,N,08030.3672,W,1,8,2.6,12,M,,M,,*53
06/08/2014	15:00:15.157	$GPGGA,150023,2451.2681,N,08030.3683,W,1,7,1.8,12,M,,M,,*52
06/08/2014	15:00:16.203	$GPGGA,150024,2451.2698,N,08030.3693,W,1,7,1.8,12,M,,M,,*5C
06/08/2014	15:00:17.249	$GPGGA,150025,2451.2713,N,08030.3703,W,1,8,1.8,12,M,,M,,*58
06/08/2014	15:00:18.244	$GPGGA,150026,2451.2730,N,08030.3714,W,1,8,2.2,12,M,,M,,*55
06/08/2014	15:00:19.260	$GPGGA,150027,2451.2745,N,08030.3721,W,1,7,1.8,12,M,,M,,*56
06/08/2014	15:00:20.317	$GPGGA,150028,2451.2760,N,08030.3729,W,1,7,1.8,12,M,,M,,*56
06/08/2014	15:00:21.301	$GPGGA,150029,2451.2775,N,08030.3739,W,1,8,2.2,13,M,,M,,*55
06/08/2014	15:00:22.337	$GPGGA,150030,2451.2792,N,08030.3750,W,1,8,3.2,13,M,,M,,*5A
06/08/2014	15:00:23.394	$GPGGA,150031,2451.2807,N,08030.3755,W,1,6,2.2,13,M,,M,,*52
06/08/2014	15:00:24.389	$GPGGA,150032,2451.2822,N,08030.3764,W,1,6,2.2,13,M,,M,,*54
06/08/2014	15:00:25.419	$GPGGA,150033,2451.2838,N,08030.3773,W,1,7,3.2,14,M,,M,,*5F
06/08/2014	15:00:26.430	$GPGGA,150034,2451.2853,N,08030.3782,W,1,7,1.8,14,M,,M,,*53
06/08/2014	15:00:27.456	$GPGGA,150035,2451.2868,N,08030.3788,W,1,7,1.8,14,M,,M,,*50
06/08/2014	15:00:28.492	$GPGGA,150036,2451.2883,N,08030.3798,W,1,7,1.8,14,M,,M,,*57
06/08/2014	15:00:29.518	$GPGGA,150037,2451.2898,N,08030.3806,W,1,7,1.8,15,M,,M,,*55
06/08/2014	15:00:30.513	$GPGGA,150038,2451.2914,N,08030.3815,W,1,7,1.8,15,M,,M,,*5D
06/08/2014	15:00:30.121	$GPGGA,150039,2451.2929,N,08030.3823,W,1,7,1.8,15,M,,M,,*57
06/08/2014	15:00:31.080	$GPGGA,150040,2451.2944,N,08030.3831,W,1,7,1.8,15,M,,M,,*51
06/08/2014	15:00:32.072	$GPGGA,150041,2451.2961,N,08030.3840,W,1,8,1.8,15,M,,M,,*5E
06/08/2014	15:00:33.099	$GPGGA,150042,2451.2976,N,08030.3848,W,1,8,1.8,16,M,,M,,*50
06/08/2014	15:00:34.121	$GPGGA,150043,2451.2991,N,08030.3858,W,1,8,1.8,16,M,,M,,*59
06/08/2014	15:00:35.140	$GPGGA,150044,2451.3006,N,08030.3866,W,1,8,1.8,16,M,,M,,*55
06/08/2014	15:00:36.248	$GPGGA,150045,2451.3023,N,08030.3876,W,1,8,1.8,16,M,,M,,*52
06/08/2014	15:00:37.161	$GPGGA,150046,2451.3038,N,08030.3885,W,1,8,1.8,16,M,,M,,*57
06/08/2014	15:00:38.313	$GPGGA,150047,2451.3053,N,08030.3896,W,1,7,3.2,16,M,,M,,*5E
06/08/2014	15:00:39.336	$GPGGA,150048,2451.3070,N,08030.3907,W,1,7,2.2,16,M,,M,,*58
06/08/2014	15:00:40.259	$GPGGA,150049,2451.3082,N,08030.3913,W,1,7,2.2,16,M,,M,,*51
06/08/2014	15:00:41.357	$GPGGA,150050,2451.3096,N,08030.3918,W,1,7,2.2,16,M,,M,,*57
06/08/2014	15:00:42.300	$GPGGA,150051,2451.3111,N,08030.3928,W,1,7,3.2,17,M,,M,,*5B
06/08/2014	15:00:43.348	$GPGGA,150052,2451.3125,N,08030.3938,W,1,7,3.2,17,M,,M,,*5E
06/08/2014	15:00:44.424	$GPGGA,150053,2451.3139,N,08030.3942,W,1,6,1.8,17,M,,M,,*56
06/08/2014	15:00:45.450	$GPGGA,150054,2451.3152,N,08030.3950,W,1,6,1.8,17,M,,M,,*5F
06/08/2014	15:00:46.506	$GPGGA,150055,2451.3165,N,08030.3959,W,1,8,1.8,17,M,,M,,*5D
06/08/2014	15:00:47.532	$GPGGA,150056,2451.3179,N,08030.3965,W,1,8,1.8,17,M,,M,,*5C
06/08/2014	15:00:48.537	$GPGGA,150057,2451.3192,N,08030.3971,W,1,8,1.8,17,M,,M,,*5D
06/08/2014	15:00:49.542	$GPGGA,150058,2451.3204,N,08030.3978,W,1,8,1.8,17,M,,M,,*57
06/08/2014	15:00:50.578	$GPGGA,150059,2451.3219,N,08030.3985,W,1,7,1.8,17,M,,M,,*57
06/08/2014	15:00:51.614	$GPGGA,150100,2451.3230,N,08030.3990,W,1,7,1.8,17,M,,M,,*55
06/08/2014	15:00:52.610	$GPGGA,150101,2451.3244,N,08030.3996,W,1,7,2.2,17,M,,M,,*58
06/08/2014	15:00:53.645	$GPGGA,150102,2451.3255,N,08030.3999,W,1,7,1.8,17,M,,M,,*5D
06/08/2014	15:00:54.671	$GPGGA,150103,2451.3268,N,08030.4004,W,1,7,1.9,17,M,,M,,*59
06/08/2014	15:00:55.696	$GPGGA,150104,2451.3280,N,08030.4010,W,1,7,1.8,17,M,,M,,*5C
06/08/2014	15:00:56.722	$GPGGA,150105,2451.3293,N,08030.4014,W,1,8,1.8,17,M,,M,,*54
06/08/2014	15:00:57.738	$GPGGA,150106,2451.3306,N,08030.4017,W,1,8,1.8,17,M,,M,,*59
06/08/2014	15:00:58.774	$GPGGA,150107,2451.3319,N,08030.4021,W,1,8,1.8,17,M,,M,,*53
06/08/2014	15:00:59.789	$GPGGA,150108,2451.3331,N,08030.4025,W,1,8,1.8,17,M,,M,,*52
06/08/2014	15:01:00.825	$GPGGA,150109,2451.3344,N,08030.4028,W,1,8,1.8,18,M,,M,,*53
06/08/2014	15:01:01.831	$GPGGA,150110,2451.3356,N,08030.4030,W,1,8,1.8,18,M,,M,,*51
06/08/2014	15:01:02.887	$GPGGA,150111,2451.3370,N,08030.4032,W,1,8,1.8,18,M,,M,,*56
06/08/2014	15:01:03.892	$GPGGA,150112,2451.3382,N,08030.4033,W,1,8,1.8,18,M,,M,,*59
06/08/2014	15:01:04.918	$GPGGA,150113,2451.3396,N,08030.4035,W,1,7,2.2,18,M,,M,,*5D
06/08/2014	15:01:05.913	$GPGGA,150114,2451.3409,N,08030.4035,W,1,7,2.2,18,M,,M,,*5B
06/08/2014	15:01:06.939	$GPGGA,150115,2451.3421,N,08030.4037,W,1,8,1.8,18,M,,M,,*54
06/08/2014	15:01:07.984	$GPGGA,150116,2451.3435,N,08030.4037,W,1,8,1.8,18,M,,M,,*52
06/08/2014	15:01:09.031	$GPGGA,150117,2451.3447,N,08030.4036,W,1,8,1.8,18,M,,M,,*57
06/08/2014	15:01:10.026	$GPGGA,150118,2451.3461,N,08030.4036,W,1,8,1.8,18,M,,M,,*5C
06/08/2014	15:01:11.072	$GPGGA,150119,2451.3472,N,08030.4034,W,1,8,1.8,18,M,,M,,*5D
06/08/2014	15:01:12.074	$GPGGA,150120,2451.3485,N,08030.4033,W,1,8,1.8,18,M,,M,,*58
06/08/2014	15:01:13.103	$GPGGA,150121,2451.3497,N,08030.4031,W,1,8,1.8,18,M,,M,,*58
06/08/2014	15:01:14.128	$GPGGA,150122,2451.3508,N,08030.4028,W,1,8,1.8,18,M,,M,,*54
06/08/2014	15:01:15.155	$GPGGA,150123,2451.3521,N,08030.4026,W,1,8,1.8,18,M,,M,,*50
06/08/2014	15:01:16.172	$GPGGA,150124,2451.3533,N,08030.4023,W,1,8,1.8,18,M,,M,,*51
06/08/2014	15:01:17.187	$GPGGA,150125,2451.3544,N,08030.4019,W,1,8,1.8,18,M,,M,,*59
06/08/2014	15:01:18.191	$GPGGA,150126,2451.3555,N,08030.4015,W,1,8,1.8,18,M,,M,,*56
06/08/2014	15:01:19.217	$GPGGA,150127,2451.3566,N,08030.4012,W,1,8,1.8,18,M,,M,,*50
06/08/2014	15:01:20.279	$GPGGA,150128,2451.3577,N,08030.4007,W,1,8,1.8,18,M,,M,,*5B
06/08/2014	15:01:21.299	$GPGGA,150129,2451.3587,N,08030.4001,W,1,8,1.8,18,M,,M,,*53
06/08/2014	15:01:22.315	$GPGGA,150130,2451.3598,N,08030.3996,W,1,8,1.8,18,M,,M,,*55
06/08/2014	15:01:23.345	$GPGGA,150131,2451.3608,N,08030.3991,W,1,7,1.9,18,M,,M,,*57
06/08/2014	15:01:24.347	$GPGGA,150132,2451.3616,N,08030.3985,W,1,7,1.8,17,M,,M,,*50
06/08/2014	15:01:25.361	$GPGGA,150133,2451.3626,N,08030.3979,W,1,8,1.8,17,M,,M,,*5E
06/08/2014	15:01:26.509	$GPGGA,150134,2451.3634,N,08030.3974,W,1,8,1.8,17,M,,M,,*57
06/08/2014	15:01:27.515	$GPGGA,150135,2451.3644,N,08030.3967,W,1,8,1.8,17,M,,M,,*53
06/08/2014	15:01:28.458	$GPGGA,150136,2451.3652,N,08030.3960,W,1,8,1.8,17,M,,M,,*50
06/08/2014	15:01:29.464	$GPGGA,150137,2451.3660,N,08030.3952,W,1,8,1.8,17,M,,M,,*51
06/08/2014	15:01:30.583	$GPGGA,150138,2451.3669,N,08030.3945,W,1,8,1.8,17,M,,M,,*51
06/08/2014	15:01:30.082	$GPGGA,150139,2451.3676,N,08030.3938,W,1,8,1.8,17,M,,M,,*54
06/08/2014	15:01:31.108	$GPGGA,150140,2451.3682,N,08030.3930,W,1,8,1.8,17,M,,M,,*59
06/08/2014	15:01:32.144	$GPGGA,150141,2451.3689,N,08030.3922,W,1,8,1.8,17,M,,M,,*50
06/08/2014	15:01:33.139	$GPGGA,150142,2451.3696,N,08030.3914,W,1,8,1.8,17,M,,M,,*58
06/08/2014	15:01:34.196	$GPGGA,150143,2451.3703,N,08030.3905,W,1,8,1.8,17,M,,M,,*54
06/08/2014	15:01:35.201	$GPGGA,150144,2451.3709,N,08030.3896,W,1,8,1.8,17,M,,M,,*52
06/08/2014	15:01:36.227	$GPGGA,150145,2451.3714,N,08030.3887,W,1,8,1.8,17,M,,M,,*5F
06/08/2014	15:01:37.223	$GPGGA,150146,2451.3720,N,08030.3878,W,1,8,1.8,17,M,,M,,*5B
06/08/2014	15:01:38.278	$GPGGA,150147,2451.3724,N,08030.3868,W,1,8,1.8,16,M,,M,,*5E
06/08/2014	15:01:39.294	$GPGGA,150148,2451.3728,N,08030.3858,W,1,8,1.8,16,M,,M,,*5E
06/08/2014	15:01:40.309	$GPGGA,150149,2451.3732,N,08030.3849,W,1,8,1.8,16,M,,M,,*54
06/08/2014	15:01:41.334	$GPGGA,150150,2451.3736,N,08030.3839,W,1,8,1.8,16,M,,M,,*5F
06/08/2014	15:01:42.380	$GPGGA,150151,2451.3739,N,08030.3829,W,1,8,1.8,16,M,,M,,*50
06/08/2014	15:01:43.386	$GPGGA,150152,2451.3743,N,08030.3818,W,1,8,1.8,16,M,,M,,*5C
06/08/2014	15:01:44.411	$GPGGA,150153,2451.3746,N,08030.3808,W,1,8,1.8,16,M,,M,,*59
06/08/2014	15:01:45.417	$GPGGA,150154,2451.3747,N,08030.3797,W,1,8,1.8,16,M,,M,,*56
06/08/2014	15:01:46.453	$GPGGA,150155,2451.3750,N,08030.3786,W,1,8,1.8,16,M,,M,,*51
06/08/2014	15:01:47.499	$GPGGA,150156,2451.3752,N,08030.3776,W,1,8,1.8,16,M,,M,,*5F
06/08/2014	15:01:48.525	$GPGGA,150157,2451.3753,N,08030.3764,W,1,8,1.8,15,M,,M,,*5F
06/08/2014	15:01:49.510	$GPGGA,150158,2451.3754,N,08030.3754,W,1,8,1.8,15,M,,M,,*54
06/08/2014	15:01:50.525	$GPGGA,150159,2451.3754,N,08030.3744,W,1,8,1.8,15,M,,M,,*54
06/08/2014	15:01:51.582	$GPGGA,150200,2451.3754,N,08030.3733,W,1,8,1.8,15,M,,M,,*5B
06/08/2014	15:01:52.618	$GPGGA,150201,2451.3754,N,08030.3724,W,1,8,1.8,15,M,,M,,*5C
06/08/2014	15:01:53.623	$GPGGA,150202,2451.3751,N,08030.3715,W,1,8,1.8,15,M,,M,,*58
06/08/2014	15:01:54.669	$GPGGA,150203,2451.3750,N,08030.3706,W,1,7,2.1,15,M,,M,,*5F
06/08/2014	15:01:55.664	$GPGGA,150204,2451.3748,N,08030.3696,W,1,7,1.8,15,M,,M,,*53
06/08/2014	15:01:56.732	$GPGGA,150205,2451.3746,N,08030.3687,W,1,8,1.8,15,M,,M,,*53
06/08/2014	15:01:57.727	$GPGGA,150206,2451.3743,N,08030.3678,W,1,8,1.8,14,M,,M,,*54
06/08/2014	15:01:58.752	$GPGGA,150207,2451.3741,N,08030.3669,W,1,8,1.8,14,M,,M,,*57
06/08/2014	15:01:59.767	$GPGGA,150208,2451.3738,N,08030.3661,W,1,8,1.8,14,M,,M,,*5E
06/08/2014	15:02:00.792	$GPGGA,150209,2451.3734,N,08030.3652,W,1,8,1.8,14,M,,M,,*53
06/08/2014	15:02:01.787	$GPGGA,150210,2451.3732,N,08030.3644,W,1,8,1.8,14,M,,M,,*5A
06/08/2014	15:02:02.825	$GPGGA,150211,2451.3727,N,08030.3636,W,1,8,1.8,14,M,,M,,*5A
06/08/2014	15:02:03.972	$GPGGA,150212,2451.3723,N,08030.3628,W,1,8,1.8,13,M,,M,,*55
06/08/2014	15:02:04.988	$GPGGA,150213,2451.3719,N,08030.3620,W,1,8,1.8,13,M,,M,,*55
06/08/2014	15:02:05.891	$GPGGA,150214,2451.3714,N,08030.3613,W,1,8,1.8,13,M,,M,,*5F
06/08/2014	15:02:06.906	$GPGGA,150215,2451.3709,N,08030.3605,W,1,8,1.8,13,M,,M,,*55
06/08/2014	15:02:07.963	$GPGGA,150216,2451.3704,N,08030.3598,W,1,8,1.8,13,M,,M,,*5C
06/08/2014	15:02:09.128	$GPGGA,150217,2451.3698,N,08030.3591,W,1,8,1.8,13,M,,M,,*50
06/08/2014	15:02:09.995	$GPGGA,150218,2451.3693,N,08030.3584,W,1,8,1.8,12,M,,M,,*51
06/08/2014	15:02:10.999	$GPGGA,150219,2451.3689,N,08030.3578,W,1,8,1.8,12,M,,M,,*58
06/08/2014	15:02:12.035	$GPGGA,150220,2451.3682,N,08030.3572,W,1,8,1.8,12,M,,M,,*53
06/08/2014	15:02:13.051	$GPGGA,150221,2451.3678,N,08030.3566,W,1,8,1.8,12,M,,M,,*52
06/08/2014	15:02:14.077	$GPGGA,150222,2451.3674,N,08030.3558,W,1,8,1.8,12,M,,M,,*50
06/08/2014	15:02:15.241	$GPGGA,150223,2451.3669,N,08030.3551,W,1,7,1.6,12,M,,M,,*55
06/08/2014	15:02:16.252	$GPGGA,150224,2451.3663,N,08030.3544,W,1,7,1.6,12,M,,M,,*5C
06/08/2014	15:02:17.154	$GPGGA,150225,2451.3657,N,08030.3537,W,1,7,1.6,12,M,,M,,*5E
06/08/2014	15:02:18.272	$GPGGA,150226,2451.3651,N,08030.3529,W,1,7,1.6,12,M,,M,,*54
06/08/2014	15:02:19.307	$GPGGA,150227,2451.3644,N,08030.3521,W,1,7,1.6,12,M,,M,,*59
06/08/2014	15:02:20.333	$GPGGA,150228,2451.3638,N,08030.3514,W,1,7,1.6,12,M,,M,,*5B
06/08/2014	15:02:21.359	$GPGGA,150229,2451.3629,N,08030.3506,W,1,8,1.5,12,M,,M,,*55
06/08/2014	15:02:22.364	$GPGGA,150230,2451.3621,N,08030.3497,W,1,8,1.5,12,M,,M,,*5C
06/08/2014	15:02:23.421	$GPGGA,150231,2451.3613,N,08030.3489,W,1,8,1.5,12,M,,M,,*53
06/08/2014	15:02:24.436	$GPGGA,150232,2451.3603,N,08030.3480,W,1,8,1.5,12,M,,M,,*58
06/08/2014	15:02:25.462	$GPGGA,150233,2451.3595,N,08030.3472,W,1,8,1.5,12,M,,M,,*58
06/08/2014	15:02:26.467	$GPGGA,150234,2451.3584,N,08030.3463,W,1,8,1.5,12,M,,M,,*5F
06/08/2014	15:02:27.515	$GPGGA,150235,2451.3574,N,08030.3453,W,1,8,1.5,12,M,,M,,*52
06/08/2014	15:02:28.529	$GPGGA,150236,2451.3563,N,08030.3444,W,1,8,1.5,12,M,,M,,*51
06/08/2014	15:02:29.555	$GPGGA,150237,2451.3552,N,08030.3434,W,1,8,1.5,12,M,,M,,*55
06/08/2014	15:02:30.560	$GPGGA,150238,2451.3542,N,08030.3424,W,1,8,1.5,13,M,,M,,*5B
06/08/2014	15:02:30.060	$GPGGA,150239,2451.3531,N,08030.3413,W,1,8,1.5,13,M,,M,,*5A
06/08/2014	15:02:31.076	$GPGGA,150240,2451.3519,N,08030.3402,W,1,8,1.5,13,M,,M,,*5E
06/08/2014	15:02:32.122	$GPGGA,150241,2451.3508,N,08030.3392,W,1,8,1.5,13,M,,M,,*51
06/08/2014	15:02:33.107	$GPGGA,150242,2451.3497,N,08030.3380,W,1,8,1.5,13,M,,M,,*56
06/08/2014	15:02:34.163	$GPGGA,150243,2451.3485,N,08030.3369,W,1,8,1.5,13,M,,M,,*53
06/08/2014	15:02:35.178	$GPGGA,150244,2451.3474,N,08030.3357,W,1,8,1.5,13,M,,M,,*57
06/08/2014	15:02:36.214	$GPGGA,150245,2451.3462,N,08030.3345,W,1,8,1.5,13,M,,M,,*52
06/08/2014	15:02:37.230	$GPGGA,150246,2451.3450,N,08030.3333,W,1,8,1.5,13,M,,M,,*51
06/08/2014	15:02:38.219	$GPGGA,150247,2451.3439,N,08030.3320,W,1,9,1.5,13,M,,M,,*5C
06/08/2014	15:02:39.271	$GPGGA,150248,2451.3427,N,08030.3307,W,1,9,1.5,13,M,,M,,*59
06/08/2014	15:02:40.276	$GPGGA,150249,2451.3416,N,08030.3295,W,1,9,1.5,13,M,,M,,*50
06/08/2014	15:02:41.466	$GPGGA,150250,2451.3405,N,08030.3282,W,1,9,1.5,13,M,,M,,*5C
06/08/2014	15:02:42.359	$GPGGA,150251,2451.3394,N,08030.3271,W,1,9,1.5,13,M,,M,,*5E
06/08/2014	15:02:43.364	$GPGGA,150252,2451.3385,N,08030.3260,W,1,9,1.5,14,M,,M,,*5A
06/08/2014	15:02:44.372	$GPGGA,150253,2451.3374,N,08030.3249,W,1,9,1.5,14,M,,M,,*5E
06/08/2014	15:02:45.405	$GPGGA,150254,2451.3365,N,08030.3238,W,1,9,1.5,14,M,,M,,*5F
06/08/2014	15:02:46.421	$GPGGA,150255,2451.3355,N,08030.3228,W,1,9,1.5,14,M,,M,,*5C
06/08/2014	15:02:47.478	$GPGGA,150256,2451.3346,N,08030.3218,W,1,9,1.5,14,M,,M,,*5E
06/08/2014	15:02:48.452	$GPGGA,150257,2451.3337,N,08030.3208,W,1,9,1.5,14,M,,M,,*58
06/08/2014	15:02:49.493	$GPGGA,150258,2451.3329,N,08030.3198,W,1,9,1.5,14,M,,M,,*52
06/08/2014	15:02:50.658	$GPGGA,150259,2451.3321,N,08030.3190,W,1,9,1.5,14,M,,M,,*53
06/08/2014	15:02:51.569	$GPGGA,150300,2451.3313,N,08030.3181,W,1,9,1.5,14,M,,M,,*5F
06/08/2014	15:02:52.565	$GPGGA,150301,2451.3306,N,08030.3172,W,1,9,1.5,14,M,,M,,*56
06/08/2014	15:02:53.754	$GPGGA,150302,2451.3298,N,08030.3163,W,1,9,1.5,14,M,,M,,*53
06/08/2014	15:02:54.626	$GPGGA,150303,2451.3291,N,08030.3155,W,1,9,1.5,14,M,,M,,*5E
06/08/2014	15:02:55.744	$GPGGA,150304,2451.3284,N,08030.3146,W,1,9,1.5,14,M,,M,,*5F
06/08/2014	15:02:56.832	$GPGGA,150305,2451.3277,N,08030.3139,W,1,9,1.5,14,M,,M,,*5A
06/08/2014	15:02:57.684	$GPGGA,150306,2451.3271,N,08030.3131,W,1,9,1.5,14,M,,M,,*57
06/08/2014	15:02:58.873	$GPGGA,150307,2451.3264,N,08030.3123,W,1,9,1.5,14,M,,M,,*51
06/08/2014	15:02:59.735	$GPGGA,150308,2451.3259,N,08030.3115,W,1,9,1.5,14,M,,M,,*55
06/08/2014	15:03:00.750	$GPGGA,150309,2451.3251,N,08030.3107,W,1,9,1.5,14,M,,M,,*5F
06/08/2014	15:03:01.776	$GPGGA,150310,2451.3246,N,08030.3100,W,1,9,1.5,14,M,,M,,*56
06/08/2014	15:03:02.916	$GPGGA,150311,2451.3241,N,08030.3093,W,1,9,1.5,14,M,,M,,*5B
06/08/2014	15:03:04.002	$GPGGA,150312,2451.3234,N,08030.3085,W,1,9,1.5,14,M,,M,,*5D
06/08/2014	15:03:04.966	$GPGGA,150313,2451.3228,N,08030.3079,W,1,9,1.5,14,M,,M,,*52
06/08/2014	15:03:06.033	$GPGGA,150314,2451.3223,N,08030.3072,W,1,9,1.5,14,M,,M,,*55
06/08/2014	15:03:07.035	$GPGGA,150315,2451.3219,N,08030.3065,W,1,9,1.5,14,M,,M,,*5B
06/08/2014	15:03:08.095	$GPGGA,150316,2451.3212,N,08030.3059,W,1,9,1.5,14,M,,M,,*5C
06/08/2014	15:03:09.059	$GPGGA,150317,2451.3208,N,08030.3052,W,1,9,1.5,14,M,,M,,*5D
06/08/2014	15:03:10.146	$GPGGA,150318,2451.3202,N,08030.3046,W,1,9,1.5,14,M,,M,,*5D
06/08/2014	15:03:11.079	$GPGGA,150319,2451.3198,N,08030.3039,W,1,9,1.5,14,M,,M,,*54
06/08/2014	15:03:12.197	$GPGGA,150320,2451.3194,N,08030.3033,W,1,9,1.5,14,M,,M,,*58
06/08/2014	15:03:13.173	$GPGGA,150321,2451.3188,N,08030.3027,W,1,9,1.5,14,M,,M,,*51
06/08/2014	15:03:14.228	$GPGGA,150322,2451.3184,N,08030.3021,W,1,9,1.5,14,M,,M,,*58
06/08/2014	15:03:15.172	$GPGGA,150323,2451.3179,N,08030.3015,W,1,9,1.5,14,M,,M,,*5C
06/08/2014	15:03:16.290	$GPGGA,150324,2451.3176,N,08030.3009,W,1,9,1.5,14,M,,M,,*59
06/08/2014	15:03:17.213	$GPGGA,150325,2451.3172,N,08030.3004,W,1,9,1.5,14,M,,M,,*51
06/08/2014	15:03:18.324	$GPGGA,150326,2451.3166,N,08030.2998,W,1,9,1.5,14,M,,M,,*5A
06/08/2014	15:03:19.327	$GPGGA,150327,2451.3162,N,08030.2992,W,1,9,1.5,14,M,,M,,*55
06/08/2014	15:03:20.363	$GPGGA,150328,2451.3159,N,08030.2987,W,1,9,1.5,14,M,,M,,*56
06/08/2014	15:03:21.368	$GPGGA,150329,2451.3155,N,08030.2981,W,1,9,1.5,14,M,,M,,*5D
06/08/2014	15:03:22.332	$GPGGA,150330,2451.3151,N,08030.2976,W,1,9,1.5,14,M,,M,,*59
06/08/2014	15:03:23.358	$GPGGA,150331,2451.3148,N,08030.2971,W,1,9,1.5,14,M,,M,,*57
06/08/2014	15:03:24.467	$GPGGA,150332,2451.3145,N,08030.2966,W,1,9,1.5,13,M,,M,,*58
06/08/2014	15:03:25.495	$GPGGA,150333,2451.3141,N,08030.2961,W,1,9,1.5,13,M,,M,,*5A
06/08/2014	15:03:26.487	$GPGGA,150334,2451.3138,N,08030.2956,W,1,9,1.5,13,M,,M,,*57
06/08/2014	15:03:27.542	$GPGGA,150335,2451.3136,N,08030.2951,W,1,9,1.5,13,M,,M,,*5F
06/08/2014	15:03:28.570	$GPGGA,150336,2451.3131,N,08030.2946,W,1,9,1.5,13,M,,M,,*5D
06/08/2014	15:03:29.553	$GPGGA,150337,2451.3129,N,08030.2941,W,1,9,1.5,13,M,,M,,*52
06/08/2014	15:03:30.579	$GPGGA,150338,2451.3125,N,08030.2936,W,1,9,1.5,13,M,,M,,*51
06/08/2014	15:03:30.035	$GPGGA,150339,2451.3121,N,08030.2931,W,1,9,1.5,13,M,,M,,*53
06/08/2014	15:03:31.102	$GPGGA,150340,2451.3118,N,08030.2926,W,1,9,1.5,13,M,,M,,*51
06/08/2014	15:03:32.107	$GPGGA,150341,2451.3113,N,08030.2921,W,1,9,1.5,13,M,,M,,*5C
06/08/2014	15:03:33.077	$GPGGA,150342,2451.3111,N,08030.2916,W,1,9,1.5,13,M,,M,,*59
06/08/2014	15:03:34.169	$GPGGA,150343,2451.3107,N,08030.2910,W,1,9,1.5,13,M,,M,,*59
06/08/2014	15:03:35.256	$GPGGA,150344,2451.3101,N,08030.2905,W,1,9,1.5,13,M,,M,,*5C
06/08/2014	15:03:36.210	$GPGGA,150345,2451.3097,N,08030.2900,W,1,9,1.5,13,M,,M,,*56
06/08/2014	15:03:37.246	$GPGGA,150346,2451.3093,N,08030.2894,W,1,9,1.5,13,M,,M,,*5D
06/08/2014	15:03:38.231	$GPGGA,150347,2451.3089,N,08030.2888,W,1,9,1.5,13,M,,M,,*5A
06/08/2014	15:03:39.345	$GPGGA,150348,2451.3084,N,08030.2883,W,1,9,1.5,13,M,,M,,*53
06/08/2014	15:03:40.303	$GPGGA,150349,2451.3080,N,08030.2877,W,1,9,1.5,13,M,,M,,*5D
06/08/2014	15:03:41.386	$GPGGA,150350,2451.3075,N,08030.2871,W,1,9,1.5,13,M,,M,,*59
06/08/2014	15:03:42.365	$GPGGA,150351,2451.3071,N,08030.2866,W,1,9,1.5,13,M,,M,,*5A
06/08/2014	15:03:43.442	$GPGGA,150352,2451.3066,N,08030.2860,W,1,9,1.5,13,M,,M,,*59
06/08/2014	15:03:44.364	$GPGGA,150353,2451.3061,N,08030.2854,W,1,9,1.5,13,M,,M,,*58
06/08/2014	15:03:45.462	$GPGGA,150354,2451.3056,N,08030.2847,W,1,9,1.5,13,M,,M,,*59
06/08/2014	15:03:46.447	$GPGGA,150355,2451.3053,N,08030.2841,W,1,9,1.5,13,M,,M,,*5B
06/08/2014	15:03:47.544	$GPGGA,150356,2451.3047,N,08030.2835,W,1,9,1.5,13,M,,M,,*5E
06/08/2014	15:03:48.539	$GPGGA,150357,2451.3042,N,08030.2829,W,1,9,1.5,12,M,,M,,*56
06/08/2014	15:03:49.565	$GPGGA,150358,2451.3037,N,08030.2822,W,1,9,1.5,12,M,,M,,*50
06/08/2014	15:03:50.581	$GPGGA,150359,2451.3032,N,08030.2816,W,1,9,1.5,12,M,,M,,*53
06/08/2014	15:03:51.652	$GPGGA,150400,2451.3026,N,08030.2810,W,1,9,1.5,12,M,,M,,*5B
06/08/2014	15:03:52.653	$GPGGA,150401,2451.3021,N,08030.2803,W,1,9,1.5,12,M,,M,,*5F
06/08/2014	15:03:53.669	$GPGGA,150402,2451.3017,N,08030.2797,W,1,9,1.5,12,M,,M,,*5B
06/08/2014	15:03:54.704	$GPGGA,150403,2451.3010,N,08030.2790,W,1,9,1.5,12,M,,M,,*5A
06/08/2014	15:03:55.730	$GPGGA,150404,2451.3006,N,08030.2784,W,1,9,1.5,12,M,,M,,*5F
06/08/2014	15:03:56.715	$GPGGA,150405,2451.3000,N,08030.2777,W,1,9,1.5,12,M,,M,,*54
06/08/2014	15:03:57.795	$GPGGA,150406,2451.2995,N,08030.2770,W,1,9,1.5,12,M,,M,,*54
06/08/2014	15:03:58.787	$GPGGA,150407,2451.2988,N,08030.2764,W,1,9,1.5,12,M,,M,,*5C
06/08/2014	15:03:59.823	$GPGGA,150408,2451.2984,N,08030.2758,W,1,9,1.5,12,M,,M,,*50
06/08/2014	15:04:00.828	$GPGGA,150409,2451.2977,N,08030.2751,W,1,9,1.5,12,M,,M,,*54
06/08/2014	15:04:01.833	$GPGGA,150410,2451.2972,N,08030.2744,W,1,9,1.5,12,M,,M,,*5D
06/08/2014	15:04:02.912	$GPGGA,150411,2451.2966,N,08030.2738,W,1,9,1.5,12,M,,M,,*52
06/08/2014	15:04:03.905	$GPGGA,150412,2451.2960,N,08030.2731,W,1,9,1.5,12,M,,M,,*5E
06/08/2014	15:04:04.985	$GPGGA,150413,2451.2954,N,08030.2724,W,1,9,1.5,12,M,,M,,*5C
06/08/2014	15:04:05.956	$GPGGA,150414,2451.2949,N,08030.2717,W,1,9,1.5,12,M,,M,,*57
06/08/2014	15:04:06.992	$GPGGA,150415,2451.2943,N,08030.2710,W,1,9,1.5,12,M,,M,,*5B
06/08/2014	15:04:08.039	$GPGGA,150416,2451.2936,N,08030.2703,W,1,9,1.5,12,M,,M,,*58
06/08/2014	15:04:09.013	$GPGGA,150417,2451.2930,N,08030.2696,W,1,9,1.5,12,M,,M,,*52
06/08/2014	15:04:10.049	$GPGGA,150418,2451.2924,N,08030.2689,W,1,9,1.5,12,M,,M,,*56
06/08/2014	15:04:11.075	$GPGGA,150419,2451.2919,N,08030.2682,W,1,9,1.5,12,M,,M,,*52
06/08/2014	15:04:12.093	$GPGGA,150420,2451.2919,N,08030.2682,W,1,9,1.5,12,M,,M,,*58
06/08/2014	15:04:13.137	$GPGGA,150421,2451.2906,N,08030.2668,W,1,9,1.5,12,M,,M,,*53
06/08/2014	15:04:14.221	$GPGGA,150422,2451.2901,N,08030.2661,W,1,9,1.5,12,M,,M,,*5E
06/08/2014	15:04:15.158	$GPGGA,150423,2451.2894,N,08030.2654,W,1,9,1.5,12,M,,M,,*54
06/08/2014	15:04:16.214	$GPGGA,150424,2451.2887,N,08030.2648,W,1,9,1.5,11,M,,M,,*5F
06/08/2014	15:04:17.220	$GPGGA,150425,2451.2881,N,08030.2640,W,1,9,1.5,11,M,,M,,*50
06/08/2014	15:04:18.338	$GPGGA,150426,2451.2876,N,08030.2633,W,1,9,1.5,11,M,,M,,*5F
06/08/2014	15:04:19.261	$GPGGA,150427,2451.2869,N,08030.2626,W,1,9,1.5,11,M,,M,,*54
06/08/2014	15:04:20.316	$GPGGA,150428,2451.2869,N,08030.2626,W,1,9,1.5,11,M,,M,,*5B
06/08/2014	15:04:21.312	$GPGGA,150429,2451.2856,N,08030.2612,W,1,9,1.6,11,M,,M,,*52
06/08/2014	15:04:22.314	$GPGGA,150430,2451.2856,N,08030.2612,W,1,9,1.6,11,M,,M,,*5A
06/08/2014	15:04:23.394	$GPGGA,150431,2451.2844,N,08030.2598,W,1,9,1.6,11,M,,M,,*59
06/08/2014	15:04:24.409	$GPGGA,150432,2451.2838,N,08030.2591,W,1,9,1.6,11,M,,M,,*58
06/08/2014	15:04:25.489	$GPGGA,150433,2451.2832,N,08030.2584,W,1,9,1.6,11,M,,M,,*57
06/08/2014	15:04:26.500	$GPGGA,150434,2451.2826,N,08030.2576,W,1,9,1.6,11,M,,M,,*58
06/08/2014	15:04:27.481	$GPGGA,150435,2451.2819,N,08030.2569,W,1,9,1.6,11,M,,M,,*5B
06/08/2014	15:04:28.441	$GPGGA,150436,2451.2819,N,08030.2569,W,1,9,1.6,11,M,,M,,*58
06/08/2014	15:04:29.533	$GPGGA,150437,2451.2807,N,08030.2555,W,1,9,1.6,11,M,,M,,*59
06/08/2014	15:04:30.447	$GPGGA,150438,2451.2807,N,08030.2555,W,1,9,1.6,11,M,,M,,*56
06/08/2014	15:04:30.128	$GPGGA,150439,2451.2795,N,08030.2541,W,1,9,1.6,11,M,,M,,*56
06/08/2014	15:04:31.109	$GPGGA,150440,2451.2789,N,08030.2533,W,1,9,1.6,11,M,,M,,*50
06/08/2014	15:04:32.015	$GPGGA,150441,2451.2783,N,08030.2526,W,1,9,1.6,11,M,,M,,*5F
06/08/2014	15:04:33.016	$GPGGA,150442,2451.2783,N,08030.2526,W,1,9,1.6,11,M,,M,,*5C
06/08/2014	15:04:35.502	$GPGGA,150444,2451.2765,N,08030.2504,W,1,9,1.6,11,M,,M,,*52
06/08/2014	15:04:36.127	$GPGGA,150445,2451.2760,N,08030.2496,W,1,9,1.6,11,M,,M,,*5C
06/08/2014	15:04:37.100	$GPGGA,150446,2451.2760,N,08030.2496,W,1,9,1.6,11,M,,M,,*5F
06/08/2014	15:04:38.149	$GPGGA,150447,2451.2747,N,08030.2483,W,1,8,1.6,11,M,,M,,*5E
06/08/2014	15:04:39.170	$GPGGA,150448,2451.2742,N,08030.2475,W,1,8,1.6,11,M,,M,,*5D
06/08/2014	15:04:40.201	$GPGGA,150449,2451.2736,N,08030.2469,W,1,9,1.6,11,M,,M,,*53
06/08/2014	15:04:41.161	$GPGGA,150450,2451.2729,N,08030.2463,W,1,9,1.6,11,M,,M,,*5F
06/08/2014	15:04:42.182	$GPGGA,150451,2451.2724,N,08030.2455,W,1,9,1.6,11,M,,M,,*56
06/08/2014	15:04:43.203	$GPGGA,150452,2451.2717,N,08030.2448,W,1,9,1.6,11,M,,M,,*59
06/08/2014	15:04:44.244	$GPGGA,150453,2451.2711,N,08030.2442,W,1,9,1.6,11,M,,M,,*54
06/08/2014	15:04:45.215	$GPGGA,150454,2451.2706,N,08030.2435,W,1,9,1.6,11,M,,M,,*55
06/08/2014	15:04:46.206	$GPGGA,150455,2451.2699,N,08030.2428,W,1,9,1.6,11,M,,M,,*5F
06/08/2014	15:04:47.237	$GPGGA,150456,2451.2693,N,08030.2422,W,1,9,1.6,11,M,,M,,*5C
06/08/2014	15:04:48.248	$GPGGA,150457,2451.2688,N,08030.2414,W,1,9,1.6,11,M,,M,,*52
06/08/2014	15:04:49.248	$GPGGA,150458,2451.2681,N,08030.2407,W,1,9,1.6,10,M,,M,,*57
06/08/2014	15:04:50.269	$GPGGA,150459,2451.2674,N,08030.2400,W,1,9,1.6,10,M,,M,,*5B
06/08/2014	15:04:51.280	$GPGGA,150500,2451.2668,N,08030.2392,W,1,9,1.6,10,M,,M,,*57
06/08/2014	15:04:52.281	$GPGGA,150501,2451.2663,N,08030.2386,W,1,9,1.6,10,M,,M,,*58
06/08/2014	15:04:53.282	$GPGGA,150502,2451.2656,N,08030.2378,W,1,9,1.6,10,M,,M,,*5C
06/08/2014	15:04:54.312	$GPGGA,150503,2451.2650,N,08030.2371,W,1,9,1.6,10,M,,M,,*52
06/08/2014	15:04:55.313	$GPGGA,150504,2451.2645,N,08030.2364,W,1,9,1.6,10,M,,M,,*55
06/08/2014	15:04:56.334	$GPGGA,150505,2451.2637,N,08030.2357,W,1,9,1.6,10,M,,M,,*51
06/08/2014	15:04:57.324	$GPGGA,150506,2451.2631,N,08030.2349,W,1,9,1.6,10,M,,M,,*5B
06/08/2014	15:04:58.335	$GPGGA,150507,2451.2625,N,08030.2342,W,1,9,1.6,10,M,,M,,*54
06/08/2014	15:04:59.346	$GPGGA,150508,2451.2618,N,08030.2335,W,1,9,1.6,10,M,,M,,*55
06/08/2014	15:05:00.448	$GPGGA,150509,2451.2612,N,08030.2328,W,1,9,1.6,10,M,,M,,*52
06/08/2014	15:05:01.338	$GPGGA,150510,2451.2606,N,08030.2321,W,1,9,1.6,10,M,,M,,*56
06/08/2014	15:05:02.349	$GPGGA,150511,2451.2600,N,08030.2313,W,1,9,1.6,10,M,,M,,*50
06/08/2014	15:05:03.491	$GPGGA,150512,2451.2594,N,08030.2306,W,1,9,1.6,10,M,,M,,*59
06/08/2014	15:05:04.360	$GPGGA,150513,2451.2587,N,08030.2299,W,1,9,1.6,10,M,,M,,*5D
06/08/2014	15:05:05.402	$GPGGA,150514,2451.2581,N,08030.2291,W,1,9,1.6,10,M,,M,,*54
06/08/2014	15:05:06.386	$GPGGA,150515,2451.2576,N,08030.2284,W,1,9,1.6,10,M,,M,,*59
06/08/2014	15:05:07.535	$GPGGA,150516,2451.2569,N,08030.2276,W,1,9,1.6,10,M,,M,,*59
06/08/2014	15:05:08.434	$GPGGA,150517,2451.2562,N,08030.2269,W,1,9,1.6,10,M,,M,,*5D
06/08/2014	15:05:09.518	$GPGGA,150518,2451.2556,N,08030.2262,W,1,9,1.6,10,M,,M,,*5E
06/08/2014	15:05:10.432	$GPGGA,150519,2451.2549,N,08030.2254,W,1,9,1.6,10,M,,M,,*54
06/08/2014	15:05:11.466	$GPGGA,150520,2451.2543,N,08030.2247,W,1,9,1.6,10,M,,M,,*56
06/08/2014	15:05:12.458	$GPGGA,150521,2451.2537,N,08030.2239,W,1,9,1.6,10,M,,M,,*5D
06/08/2014	15:05:13.548	$GPGGA,150522,2451.2531,N,08030.2232,W,1,9,1.6,10,M,,M,,*53
06/08/2014	15:05:14.559	$GPGGA,150523,2451.2525,N,08030.2224,W,1,9,1.6,10,M,,M,,*50
06/08/2014	15:05:15.489	$GPGGA,150524,2451.2519,N,08030.2217,W,1,9,1.6,10,M,,M,,*58
06/08/2014	15:05:16.571	$GPGGA,150525,2451.2513,N,08030.2210,W,1,9,1.6,10,M,,M,,*54
06/08/2014	15:05:17.582	$GPGGA,150526,2451.2507,N,08030.2203,W,1,9,1.6,10,M,,M,,*50
06/08/2014	15:05:18.613	$GPGGA,150527,2451.2500,N,08030.2195,W,1,9,1.6,10,M,,M,,*5A
06/08/2014	15:05:19.614	$GPGGA,150528,2451.2494,N,08030.2188,W,1,9,1.6,10,M,,M,,*55
06/08/2014	15:05:20.604	$GPGGA,150529,2451.2488,N,08030.2181,W,1,9,1.6,10,M,,M,,*50
06/08/2014	15:05:21.625	$GPGGA,150530,2451.2482,N,08030.2173,W,1,9,1.6,10,M,,M,,*5F
06/08/2014	15:05:22.646	$GPGGA,150531,2451.2476,N,08030.2166,W,1,9,1.6,10,M,,M,,*51
06/08/2014	15:05:23.647	$GPGGA,150532,2451.2471,N,08030.2158,W,1,9,1.6,10,M,,M,,*58
06/08/2014	15:05:24.668	$GPGGA,150533,2451.2464,N,08030.2151,W,1,9,1.6,10,M,,M,,*54
06/08/2014	15:05:25.659	$GPGGA,150534,2451.2457,N,08030.2144,W,1,9,1.6,10,M,,M,,*57
06/08/2014	15:05:26.660	$GPGGA,150535,2451.2451,N,08030.2137,W,1,9,1.6,10,M,,M,,*54
06/08/2014	15:05:27.691	$GPGGA,150536,2451.2444,N,08030.2129,W,1,9,1.6,10,M,,M,,*5C
06/08/2014	15:05:28.702	$GPGGA,150537,2451.2439,N,08030.2122,W,1,9,1.6,10,M,,M,,*5C
06/08/2014	15:05:29.691	$GPGGA,150538,2451.2432,N,08030.2115,W,1,9,1.6,10,M,,M,,*5C
06/08/2014	15:05:30.059	$GPGGA,150539,2451.2426,N,08030.2107,W,1,9,1.6,10,M,,M,,*5B
06/08/2014	15:05:31.060	$GPGGA,150540,2451.2419,N,08030.2100,W,1,9,1.6,11,M,,M,,*5F
06/08/2014	15:05:32.081	$GPGGA,150541,2451.2413,N,08030.2093,W,1,9,1.6,11,M,,M,,*5F
06/08/2014	15:05:33.072	$GPGGA,150542,2451.2407,N,08030.2085,W,1,9,1.6,11,M,,M,,*5E
06/08/2014	15:05:34.103	$GPGGA,150543,2451.2400,N,08030.2078,W,1,9,1.6,11,M,,M,,*5A
06/08/2014	15:05:35.097	$GPGGA,150544,2451.2394,N,08030.2071,W,1,9,1.6,11,M,,M,,*5E
06/08/2014	15:05:36.135	$GPGGA,150545,2451.2388,N,08030.2063,W,1,9,1.6,11,M,,M,,*51
06/08/2014	15:05:37.102	$GPGGA,150546,2451.2382,N,08030.2056,W,1,9,1.6,11,M,,M,,*5E
06/08/2014	15:05:38.126	$GPGGA,150547,2451.2376,N,08030.2049,W,1,9,1.6,11,M,,M,,*5A
06/08/2014	15:05:39.137	$GPGGA,150548,2451.2370,N,08030.2041,W,1,9,1.6,11,M,,M,,*5B
06/08/2014	15:05:40.158	$GPGGA,150549,2451.2363,N,08030.2034,W,1,9,1.6,11,M,,M,,*5A
06/08/2014	15:05:41.149	$GPGGA,150550,2451.2357,N,08030.2027,W,1,9,1.6,11,M,,M,,*57
06/08/2014	15:05:42.261	$GPGGA,150551,2451.2350,N,08030.2019,W,1,9,1.6,11,M,,M,,*5C
06/08/2014	15:05:43.181	$GPGGA,150552,2451.2345,N,08030.2012,W,1,9,1.6,11,M,,M,,*50
06/08/2014	15:05:44.162	$GPGGA,150553,2451.2338,N,08030.2004,W,1,9,1.6,11,M,,M,,*5C
06/08/2014	15:05:45.274	$GPGGA,150554,2451.2331,N,08030.1998,W,1,9,1.6,11,M,,M,,*5D
06/08/2014	15:05:46.223	$GPGGA,150555,2451.2325,N,08030.1990,W,1,9,1.6,11,M,,M,,*51
06/08/2014	15:05:47.325	$GPGGA,150556,2451.2319,N,08030.1982,W,1,9,1.6,11,M,,M,,*5E
06/08/2014	15:05:48.234	$GPGGA,150557,2451.2312,N,08030.1975,W,1,9,1.6,11,M,,M,,*5C
06/08/2014	15:05:49.227	$GPGGA,150558,2451.2305,N,08030.1968,W,1,9,1.6,11,M,,M,,*59
06/08/2014	15:05:50.246	$GPGGA,150559,2451.2299,N,08030.1960,W,1,9,1.6,11,M,,M,,*54
06/08/2014	15:05:51.257	$GPGGA,150600,2451.2294,N,08030.1953,W,1,9,1.6,11,M,,M,,*56
06/08/2014	15:05:52.278	$GPGGA,150601,2451.2287,N,08030.1945,W,1,9,1.6,11,M,,M,,*52
06/08/2014	15:05:53.240	$GPGGA,150602,2451.2280,N,08030.1938,W,1,9,1.6,11,M,,M,,*5C
06/08/2014	15:05:54.255	$GPGGA,150603,2451.2274,N,08030.1930,W,1,9,1.6,11,M,,M,,*5E
06/08/2014	15:05:55.280	$GPGGA,150604,2451.2267,N,08030.1923,W,1,9,1.6,11,M,,M,,*59
06/08/2014	15:05:56.296	$GPGGA,150605,2451.2262,N,08030.1915,W,1,9,1.6,11,M,,M,,*58
06/08/2014	15:05:57.282	$GPGGA,150606,2451.2255,N,08030.1908,W,1,9,1.6,11,M,,M,,*53
06/08/2014	15:05:58.283	$GPGGA,150607,2451.2248,N,08030.1901,W,1,9,1.6,11,M,,M,,*57
06/08/2014	15:05:59.334	$GPGGA,150608,2451.2242,N,08030.1893,W,1,9,1.6,11,M,,M,,*58
06/08/2014	15:06:00.345	$GPGGA,150609,2451.2236,N,08030.1886,W,1,9,1.6,11,M,,M,,*5E
06/08/2014	15:06:01.322	$GPGGA,150610,2451.2229,N,08030.1879,W,1,9,1.6,11,M,,M,,*58
06/08/2014	15:06:02.367	$GPGGA,150611,2451.2223,N,08030.1872,W,1,9,1.6,11,M,,M,,*58
06/08/2014	15:06:03.338	$GPGGA,150612,2451.2217,N,08030.1864,W,1,9,1.6,11,M,,M,,*5B
06/08/2014	15:06:04.468	$GPGGA,150613,2451.2211,N,08030.1857,W,1,9,1.6,11,M,,M,,*5C
06/08/2014	15:06:05.358	$GPGGA,150614,2451.2204,N,08030.1850,W,1,9,1.6,11,M,,M,,*58
06/08/2014	15:06:06.369	$GPGGA,150615,2451.2198,N,08030.1842,W,1,9,1.6,11,M,,M,,*5C
06/08/2014	15:06:07.410	$GPGGA,150616,2451.2193,N,08030.1835,W,1,9,1.6,11,M,,M,,*54
06/08/2014	15:06:08.381	$GPGGA,150617,2451.2186,N,08030.1827,W,1,9,1.6,11,M,,M,,*52
06/08/2014	15:06:09.493	$GPGGA,150618,2451.2179,N,08030.1820,W,1,9,1.6,11,M,,M,,*5A
06/08/2014	15:06:10.504	$GPGGA,150619,2451.2173,N,08030.1813,W,1,9,1.6,11,M,,M,,*51
06/08/2014	15:06:11.514	$GPGGA,150620,2451.2166,N,08030.1805,W,1,9,1.6,11,M,,M,,*58
06/08/2014	15:06:12.505	$GPGGA,150621,2451.2160,N,08030.1798,W,1,9,1.6,11,M,,M,,*54
06/08/2014	15:06:13.526	$GPGGA,150622,2451.2154,N,08030.1791,W,1,9,1.6,11,M,,M,,*59
06/08/2014	15:06:14.557	$GPGGA,150623,2451.2148,N,08030.1783,W,1,9,1.6,11,M,,M,,*56
06/08/2014	15:06:15.558	$GPGGA,150624,2451.2142,N,08030.1776,W,1,9,1.6,11,M,,M,,*51
06/08/2014	15:06:16.539	$GPGGA,150625,2451.2135,N,08030.1769,W,1,9,1.6,11,M,,M,,*5E
06/08/2014	15:06:17.560	$GPGGA,150626,2451.2129,N,08030.1761,W,1,9,1.6,11,M,,M,,*58
06/08/2014	15:06:18.550	$GPGGA,150627,2451.2122,N,08030.1754,W,1,9,1.6,11,M,,M,,*54
06/08/2014	15:06:19.581	$GPGGA,150628,2451.2117,N,08030.1746,W,1,9,1.6,11,M,,M,,*5E
06/08/2014	15:06:20.582	$GPGGA,150629,2451.2110,N,08030.1738,W,1,9,1.6,11,M,,M,,*51
06/08/2014	15:06:21.592	$GPGGA,150630,2451.2103,N,08030.1731,W,1,9,1.6,11,M,,M,,*52
06/08/2014	15:06:22.613	$GPGGA,150631,2451.2097,N,08030.1724,W,1,9,1.6,11,M,,M,,*5B
06/08/2014	15:06:23.624	$GPGGA,150632,2451.2090,N,08030.1717,W,1,9,1.6,11,M,,M,,*5F
06/08/2014	15:06:24.635	$GPGGA,150633,2451.2085,N,08030.1710,W,1,9,1.6,11,M,,M,,*5D
06/08/2014	15:06:25.626	$GPGGA,150634,2451.2078,N,08030.1703,W,1,9,1.6,11,M,,M,,*5A
06/08/2014	15:06:26.647	$GPGGA,150635,2451.2072,N,08030.1696,W,1,9,1.6,11,M,,M,,*5C
06/08/2014	15:06:27.647	$GPGGA,150636,2451.2065,N,08030.1689,W,1,9,1.6,11,M,,M,,*57
06/08/2014	15:06:28.668	$GPGGA,150637,2451.2059,N,08030.1681,W,1,9,1.6,11,M,,M,,*51
06/08/2014	15:06:29.659	$GPGGA,150638,2451.2053,N,08030.1674,W,1,9,1.6,11,M,,M,,*5E
06/08/2014	15:06:30.028	$GPGGA,150639,2451.2046,N,08030.1666,W,1,9,1.6,11,M,,M,,*58
06/08/2014	15:06:31.039	$GPGGA,150640,2451.2039,N,08030.1659,W,1,9,1.6,11,M,,M,,*52
06/08/2014	15:06:32.060	$GPGGA,150641,2451.2034,N,08030.1652,W,1,8,1.9,11,M,,M,,*5B
06/08/2014	15:06:33.044	$GPGGA,150642,2451.2028,N,08030.1644,W,1,8,1.9,12,M,,M,,*51
06/08/2014	15:06:34.052	$GPGGA,150643,2451.2021,N,08030.1637,W,1,9,1.6,12,M,,M,,*53
06/08/2014	15:06:35.070	$GPGGA,150644,2451.2016,N,08030.1630,W,1,9,1.9,12,M,,M,,*58
06/08/2014	15:06:36.094	$GPGGA,150645,2451.2009,N,08030.1622,W,1,9,1.6,12,M,,M,,*5B
06/08/2014	15:06:37.082	$GPGGA,150646,2451.2003,N,08030.1615,W,1,9,1.6,12,M,,M,,*56
06/08/2014	15:06:38.080	$GPGGA,150647,2451.1998,N,08030.1608,W,1,8,1.9,12,M,,M,,*5D
06/08/2014	15:06:39.120	$GPGGA,150648,2451.1992,N,08030.1602,W,1,8,1.6,12,M,,M,,*5D
06/08/2014	15:06:40.101	$GPGGA,150649,2451.1987,N,08030.1596,W,1,9,1.6,12,M,,M,,*57
06/08/2014	15:06:41.120	$GPGGA,150650,2451.1980,N,08030.1589,W,1,9,1.6,12,M,,M,,*56
06/08/2014	15:06:42.148	$GPGGA,150651,2451.1975,N,08030.1580,W,1,9,1.6,12,M,,M,,*54
06/08/2014	15:06:43.159	$GPGGA,150652,2451.1969,N,08030.1574,W,1,9,1.6,12,M,,M,,*51
06/08/2014	15:06:44.129	$GPGGA,150653,2451.1964,N,08030.1567,W,1,9,1.6,12,M,,M,,*5F
06/08/2014	15:06:45.174	$GPGGA,150654,2451.1958,N,08030.1560,W,1,9,1.6,12,M,,M,,*50
06/08/2014	15:06:46.191	$GPGGA,150655,2451.1952,N,08030.1551,W,1,9,1.6,12,M,,M,,*59
06/08/2014	15:06:47.293	$GPGGA,150656,2451.1947,N,08030.1543,W,1,9,1.6,12,M,,M,,*5D
06/08/2014	15:06:48.185	$GPGGA,150657,2451.1941,N,08030.1537,W,1,8,1.6,12,M,,M,,*58
06/08/2014	15:06:49.295	$GPGGA,150658,2451.1936,N,08030.1530,W,1,8,1.6,12,M,,M,,*50
06/08/2014	15:06:50.286	$GPGGA,150659,2451.1930,N,08030.1524,W,1,9,1.6,13,M,,M,,*52
06/08/2014	15:06:51.347	$GPGGA,150700,2451.1926,N,08030.1517,W,1,9,1.6,13,M,,M,,*58
06/08/2014	15:06:52.358	$GPGGA,150701,2451.1919,N,08030.1511,W,1,9,1.6,13,M,,M,,*53
06/08/2014	15:06:53.227	$GPGGA,150702,2451.1913,N,08030.1503,W,1,9,1.6,13,M,,M,,*59
06/08/2014	15:06:54.339	$GPGGA,150703,2451.1908,N,08030.1498,W,1,9,1.6,13,M,,M,,*51
06/08/2014	15:06:55.239	$GPGGA,150704,2451.1901,N,08030.1491,W,1,9,1.6,13,M,,M,,*56
06/08/2014	15:06:56.269	$GPGGA,150705,2451.1895,N,08030.1482,W,1,9,1.6,13,M,,M,,*59
06/08/2014	15:06:57.351	$GPGGA,150706,2451.1889,N,08030.1473,W,1,9,1.6,13,M,,M,,*59
06/08/2014	15:06:59.890	$GPGGA,150708,2451.1877,N,08030.1459,W,1,9,1.6,13,M,,M,,*5E
06/08/2014	15:07:00.383	$GPGGA,150709,2451.1871,N,08030.1452,W,1,9,1.6,13,M,,M,,*52
06/08/2014	15:07:01.293	$GPGGA,150710,2451.1865,N,08030.1445,W,1,9,1.6,13,M,,M,,*59
06/08/2014	15:07:02.405	$GPGGA,150711,2451.1859,N,08030.1438,W,1,9,1.6,13,M,,M,,*5D
06/08/2014	15:07:03.426	$GPGGA,150712,2451.1853,N,08030.1431,W,1,9,1.6,14,M,,M,,*5A
06/08/2014	15:07:04.427	$GPGGA,150713,2451.1847,N,08030.1424,W,1,9,1.6,14,M,,M,,*5A
06/08/2014	15:07:05.428	$GPGGA,150714,2451.1841,N,08030.1417,W,1,9,1.6,14,M,,M,,*5B
06/08/2014	15:07:06.439	$GPGGA,150715,2451.1834,N,08030.1409,W,1,9,1.6,14,M,,M,,*57
06/08/2014	15:07:07.460	$GPGGA,150716,2451.1828,N,08030.1402,W,1,9,1.6,14,M,,M,,*52
06/08/2014	15:07:08.460	$GPGGA,150717,2451.1821,N,08030.1395,W,1,9,1.6,14,M,,M,,*53
06/08/2014	15:07:09.461	$GPGGA,150718,2451.1814,N,08030.1387,W,1,9,1.6,14,M,,M,,*59
06/08/2014	15:07:10.493	$GPGGA,150719,2451.1808,N,08030.1380,W,1,9,1.6,14,M,,M,,*52
06/08/2014	15:07:11.493	$GPGGA,150720,2451.1803,N,08030.1372,W,1,9,1.6,14,M,,M,,*5E
06/08/2014	15:07:12.474	$GPGGA,150721,2451.1796,N,08030.1365,W,1,9,1.6,14,M,,M,,*5A
06/08/2014	15:07:13.485	$GPGGA,150722,2451.1789,N,08030.1358,W,1,9,1.6,14,M,,M,,*59
06/08/2014	15:07:14.525	$GPGGA,150723,2451.1783,N,08030.1350,W,1,9,1.6,14,M,,M,,*5A
06/08/2014	15:07:15.536	$GPGGA,150724,2451.1776,N,08030.1343,W,1,9,1.6,14,M,,M,,*55
06/08/2014	15:07:16.526	$GPGGA,150725,2451.1770,N,08030.1335,W,1,9,1.6,14,M,,M,,*53
06/08/2014	15:07:17.537	$GPGGA,150726,2451.1764,N,08030.1328,W,1,9,1.6,14,M,,M,,*59
06/08/2014	15:07:18.568	$GPGGA,150727,2451.1757,N,08030.1321,W,1,9,1.6,14,M,,M,,*51
06/08/2014	15:07:19.560	$GPGGA,150728,2451.1751,N,08030.1313,W,1,9,1.6,14,M,,M,,*59
06/08/2014	15:07:20.540	$GPGGA,150729,2451.1745,N,08030.1306,W,1,9,1.6,14,M,,M,,*59
06/08/2014	15:07:21.561	$GPGGA,150730,2451.1738,N,08030.1298,W,1,9,1.6,14,M,,M,,*5D
06/08/2014	15:07:22.612	$GPGGA,150731,2451.1731,N,08030.1291,W,1,9,1.6,14,M,,M,,*5C
06/08/2014	15:07:23.593	$GPGGA,150732,2451.1725,N,08030.1284,W,1,9,1.6,14,M,,M,,*5E
06/08/2014	15:07:24.614	$GPGGA,150733,2451.1718,N,08030.1276,W,1,9,1.6,14,M,,M,,*5C
06/08/2014	15:07:25.594	$GPGGA,150734,2451.1711,N,08030.1269,W,1,9,1.6,14,M,,M,,*5C
06/08/2014	15:07:26.646	$GPGGA,150735,2451.1705,N,08030.1261,W,1,9,1.6,15,M,,M,,*51
06/08/2014	15:07:27.636	$GPGGA,150736,2451.1698,N,08030.1254,W,1,9,1.6,15,M,,M,,*51
06/08/2014	15:07:28.627	$GPGGA,150737,2451.1692,N,08030.1246,W,1,9,1.6,15,M,,M,,*59
06/08/2014	15:07:29.638	$GPGGA,150738,2451.1685,N,08030.1239,W,1,9,1.6,15,M,,M,,*58
06/08/2014	15:07:29.989	$GPGGA,150739,2451.1680,N,08030.1231,W,1,9,1.6,15,M,,M,,*54
06/08/2014	15:07:31.007	$GPGGA,150740,2451.1673,N,08030.1224,W,1,9,1.6,15,M,,M,,*52
06/08/2014	15:07:32.132	$GPGGA,150741,2451.1666,N,08030.1217,W,1,9,1.6,15,M,,M,,*57
06/08/2014	15:07:33.008	$GPGGA,150742,2451.1659,N,08030.1209,W,1,9,1.6,15,M,,M,,*57
06/08/2014	15:07:34.154	$GPGGA,150743,2451.1653,N,08030.1201,W,1,8,1.6,15,M,,M,,*55
06/08/2014	15:07:35.079	$GPGGA,150744,2451.1646,N,08030.1193,W,1,8,1.6,15,M,,M,,*5E
06/08/2014	15:07:36.061	$GPGGA,150745,2451.1640,N,08030.1186,W,1,8,1.6,15,M,,M,,*5D
06/08/2014	15:07:37.052	$GPGGA,150746,2451.1633,N,08030.1178,W,1,8,1.6,15,M,,M,,*5B
06/08/2014	15:07:38.054	$GPGGA,150747,2451.1627,N,08030.1170,W,1,9,1.6,15,M,,M,,*56
06/08/2014	15:07:39.074	$GPGGA,150748,2451.1622,N,08030.1163,W,1,9,1.6,15,M,,M,,*5E
06/08/2014	15:07:40.085	$GPGGA,150749,2451.1615,N,08030.1156,W,1,7,1.7,15,M,,M,,*52
06/08/2014	15:07:41.075	$GPGGA,150750,2451.1609,N,08030.1148,W,1,7,1.6,15,M,,M,,*59
06/08/2014	15:07:42.119	$GPGGA,150751,2451.1604,N,08030.1142,W,1,7,1.7,15,M,,M,,*5E
06/08/2014	15:07:43.243	$GPGGA,150752,2451.1598,N,08030.1134,W,1,7,1.6,15,M,,M,,*5B
06/08/2014	15:07:44.250	$GPGGA,150753,2451.1592,N,08030.1127,W,1,8,1.6,15,M,,M,,*5D
06/08/2014	15:07:45.129	$GPGGA,150754,2451.1586,N,08030.1120,W,1,8,1.6,15,M,,M,,*58
06/08/2014	15:07:46.140	$GPGGA,150755,2451.1580,N,08030.1112,W,1,8,1.6,15,M,,M,,*5E
06/08/2014	15:07:47.177	$GPGGA,150756,2451.1574,N,08030.1105,W,1,8,1.6,15,M,,M,,*50
06/08/2014	15:07:48.284	$GPGGA,150757,2451.1568,N,08030.1097,W,1,8,1.6,15,M,,M,,*56
06/08/2014	15:07:49.161	$GPGGA,150758,2451.1561,N,08030.1090,W,1,8,1.6,15,M,,M,,*57
06/08/2014	15:07:50.284	$GPGGA,150759,2451.1555,N,08030.1083,W,1,8,1.6,15,M,,M,,*53
06/08/2014	15:07:51.294	$GPGGA,150800,2451.1550,N,08030.1076,W,1,8,1.6,15,M,,M,,*5F
06/08/2014	15:07:52.315	$GPGGA,150801,2451.1544,N,08030.1070,W,1,9,1.6,15,M,,M,,*5C
06/08/2014	15:07:53.296	$GPGGA,150802,2451.1539,N,08030.1063,W,1,9,1.6,15,M,,M,,*57
06/08/2014	15:07:54.317	$GPGGA,150803,2451.1532,N,08030.1055,W,1,9,1.6,15,M,,M,,*58
06/08/2014	15:07:55.328	$GPGGA,150804,2451.1526,N,08030.1048,W,1,9,1.6,15,M,,M,,*56
06/08/2014	15:07:56.339	$GPGGA,150805,2451.1521,N,08030.1041,W,1,9,1.6,15,M,,M,,*59
06/08/2014	15:07:57.329	$GPGGA,150806,2451.1514,N,08030.1033,W,1,9,1.6,15,M,,M,,*59
06/08/2014	15:07:58.350	$GPGGA,150807,2451.1508,N,08030.1026,W,1,9,1.6,15,M,,M,,*51
06/08/2014	15:07:59.361	$GPGGA,150808,2451.1503,N,08030.1019,W,1,9,1.6,15,M,,M,,*59
06/08/2014	15:08:00.372	$GPGGA,150809,2451.1496,N,08030.1012,W,1,9,1.6,15,M,,M,,*5E
06/08/2014	15:08:01.363	$GPGGA,150810,2451.1489,N,08030.1005,W,1,9,1.6,15,M,,M,,*5E
06/08/2014	15:08:02.364	$GPGGA,150811,2451.1483,N,08030.0998,W,1,9,1.6,15,M,,M,,*59
06/08/2014	15:08:03.386	$GPGGA,150812,2451.1478,N,08030.0990,W,1,9,1.6,15,M,,M,,*56
06/08/2014	15:08:04.416	$GPGGA,150813,2451.1470,N,08030.0983,W,1,9,1.6,15,M,,M,,*5D
06/08/2014	15:08:05.388	$GPGGA,150814,2451.1464,N,08030.0975,W,1,9,1.6,15,M,,M,,*56
06/08/2014	15:08:06.406	$GPGGA,150815,2451.1457,N,08030.0968,W,1,9,1.6,15,M,,M,,*5B
06/08/2014	15:08:07.427	$GPGGA,150816,2451.1451,N,08030.0961,W,1,9,1.6,15,M,,M,,*57
06/08/2014	15:08:08.448	$GPGGA,150817,2451.1445,N,08030.0953,W,1,9,1.6,15,M,,M,,*52
06/08/2014	15:08:09.439	$GPGGA,150818,2451.1439,N,08030.0946,W,1,9,1.6,15,M,,M,,*52
06/08/2014	15:08:10.460	$GPGGA,150819,2451.1432,N,08030.0939,W,1,9,1.6,14,M,,M,,*51
06/08/2014	15:08:11.471	$GPGGA,150820,2451.1427,N,08030.0931,W,1,9,1.6,14,M,,M,,*57
06/08/2014	15:08:12.472	$GPGGA,150821,2451.1420,N,08030.0924,W,1,9,1.6,14,M,,M,,*55
06/08/2014	15:08:13.462	$GPGGA,150822,2451.1413,N,08030.0917,W,1,9,1.6,14,M,,M,,*56
06/08/2014	15:08:14.494	$GPGGA,150823,2451.1407,N,08030.0909,W,1,9,1.6,14,M,,M,,*5D
06/08/2014	15:08:15.525	$GPGGA,150824,2451.1400,N,08030.0902,W,1,9,1.6,14,M,,M,,*56
06/08/2014	15:08:16.536	$GPGGA,150825,2451.1395,N,08030.0895,W,1,9,1.6,14,M,,M,,*53
06/08/2014	15:08:17.506	$GPGGA,150826,2451.1387,N,08030.0888,W,1,9,1.6,14,M,,M,,*5F
06/08/2014	15:08:18.628	$GPGGA,150827,2451.1381,N,08030.0880,W,1,9,1.6,14,M,,M,,*50
06/08/2014	15:08:19.649	$GPGGA,150828,2451.1374,N,08030.0873,W,1,9,1.6,14,M,,M,,*59
06/08/2014	15:08:20.536	$GPGGA,150829,2451.1368,N,08030.0866,W,1,9,1.6,14,M,,M,,*51
06/08/2014	15:08:21.651	$GPGGA,150830,2451.1362,N,08030.0858,W,1,9,1.6,14,M,,M,,*5E
06/08/2014	15:08:22.656	$GPGGA,150831,2451.1355,N,08030.0851,W,1,9,1.6,14,M,,M,,*52
06/08/2014	15:08:23.683	$GPGGA,150832,2451.1348,N,08030.0844,W,1,9,1.6,14,M,,M,,*59
06/08/2014	15:08:24.652	$GPGGA,150833,2451.1341,N,08030.0836,W,1,9,1.6,14,M,,M,,*54
06/08/2014	15:08:25.592	$GPGGA,150834,2451.1335,N,08030.0829,W,1,9,1.6,14,M,,M,,*5E
06/08/2014	15:08:26.694	$GPGGA,150835,2451.1328,N,08030.0822,W,1,9,1.6,14,M,,M,,*58
06/08/2014	15:08:27.624	$GPGGA,150836,2451.1321,N,08030.0814,W,1,9,1.6,14,M,,M,,*57
06/08/2014	15:08:28.706	$GPGGA,150837,2451.1315,N,08030.0807,W,1,9,1.6,14,M,,M,,*53
06/08/2014	15:08:29.605	$GPGGA,150838,2451.1308,N,08030.0799,W,1,9,1.6,14,M,,M,,*58
06/08/2014	15:08:29.963	$GPGGA,150839,2451.1302,N,08030.0791,W,1,9,1.6,14,M,,M,,*5B
06/08/2014	15:08:31.099	$GPGGA,150840,2451.1295,N,08030.0784,W,1,9,1.6,14,M,,M,,*5E
06/08/2014	15:08:32.096	$GPGGA,150841,2451.1288,N,08030.0776,W,1,9,1.6,14,M,,M,,*5E
06/08/2014	15:08:32.996	$GPGGA,150842,2451.1283,N,08030.0768,W,1,9,1.7,14,M,,M,,*58
06/08/2014	15:08:33.997	$GPGGA,150843,2451.1275,N,08030.0761,W,1,8,1.9,14,M,,M,,*56
06/08/2014	15:08:35.109	$GPGGA,150844,2451.1270,N,08030.0753,W,1,8,1.9,14,M,,M,,*55
06/08/2014	15:08:36.130	$GPGGA,150845,2451.1264,N,08030.0745,W,1,9,1.6,14,M,,M,,*58
06/08/2014	15:08:37.110	$GPGGA,150846,2451.1258,N,08030.0737,W,1,9,1.6,14,M,,M,,*51
06/08/2014	15:08:38.153	$GPGGA,150847,2451.1252,N,08030.0731,W,1,8,1.9,14,M,,M,,*52
06/08/2014	15:08:39.152	$GPGGA,150848,2451.1246,N,08030.0725,W,1,8,1.6,14,M,,M,,*52
06/08/2014	15:08:40.163	$GPGGA,150849,2451.1240,N,08030.0719,W,1,9,1.6,14,M,,M,,*5B
06/08/2014	15:08:42.528	$GPGGA,150851,2451.1227,N,08030.0703,W,1,9,1.7,14,M,,M,,*59
06/08/2014	15:08:43.175	$GPGGA,150852,2451.1221,N,08030.0697,W,1,9,1.7,14,M,,M,,*50
06/08/2014	15:08:44.216	$GPGGA,150853,2451.1214,N,08030.0689,W,1,9,1.6,14,M,,M,,*59
06/08/2014	15:08:45.187	$GPGGA,150854,2451.1208,N,08030.0681,W,1,9,1.7,14,M,,M,,*5A
06/08/2014	15:08:46.208	$GPGGA,150855,2451.1201,N,08030.0672,W,1,8,1.7,14,M,,M,,*5F
06/08/2014	15:08:47.218	$GPGGA,150856,2451.1196,N,08030.0666,W,1,8,1.7,14,M,,M,,*54
06/08/2014	15:08:48.229	$GPGGA,150857,2451.1189,N,08030.0658,W,1,9,1.6,14,M,,M,,*56
06/08/2014	15:08:49.230	$GPGGA,150858,2451.1182,N,08030.0651,W,1,9,1.7,14,M,,M,,*5A
06/08/2014	15:08:50.261	$GPGGA,150859,2451.1176,N,08030.0645,W,1,9,1.6,14,M,,M,,*54
06/08/2014	15:08:51.262	$GPGGA,150900,2451.1171,N,08030.0638,W,1,9,1.6,14,M,,M,,*54
06/08/2014	15:08:52.283	$GPGGA,150901,2451.1164,N,08030.0632,W,1,9,1.6,14,M,,M,,*5B
06/08/2014	15:08:53.253	$GPGGA,150902,2451.1157,N,08030.0623,W,1,9,1.6,14,M,,M,,*58
06/08/2014	15:08:54.295	$GPGGA,150903,2451.1151,N,08030.0615,W,1,7,1.9,14,M,,M,,*5B
06/08/2014	15:08:55.296	$GPGGA,150904,2451.1145,N,08030.0605,W,1,7,1.7,14,M,,M,,*56
06/08/2014	15:08:56.317	$GPGGA,150905,2451.1139,N,08030.0596,W,1,9,1.6,14,M,,M,,*5A
06/08/2014	15:08:57.307	$GPGGA,150906,2451.1132,N,08030.0588,W,1,9,1.6,14,M,,M,,*5D
06/08/2014	15:08:58.298	$GPGGA,150907,2451.1126,N,08030.0580,W,1,9,1.6,14,M,,M,,*51
06/08/2014	15:08:59.328	$GPGGA,150908,2451.1120,N,08030.0575,W,1,9,1.7,14,M,,M,,*53
06/08/2014	15:09:00.350	$GPGGA,150909,2451.1113,N,08030.0568,W,1,9,1.6,15,M,,M,,*5E
06/08/2014	15:09:01.333	$GPGGA,150910,2451.1107,N,08030.0560,W,1,9,1.6,15,M,,M,,*5B
06/08/2014	15:09:02.342	$GPGGA,150911,2451.1100,N,08030.0553,W,1,8,1.7,15,M,,M,,*5D
06/08/2014	15:09:03.364	$GPGGA,150912,2451.1093,N,08030.0546,W,1,8,1.6,15,M,,M,,*50
06/08/2014	15:09:04.342	$GPGGA,150913,2451.1087,N,08030.0538,W,1,9,1.6,15,M,,M,,*5C
06/08/2014	15:09:05.471	$GPGGA,150914,2451.1080,N,08030.0530,W,1,9,1.6,15,M,,M,,*54
06/08/2014	15:09:06.387	$GPGGA,150915,2451.1073,N,08030.0522,W,1,9,1.6,15,M,,M,,*5A
06/08/2014	15:09:07.396	$GPGGA,150916,2451.1067,N,08030.0515,W,1,9,1.6,15,M,,M,,*58
06/08/2014	15:09:08.410	$GPGGA,150917,2451.1061,N,08030.0507,W,1,9,1.6,15,M,,M,,*5C
06/08/2014	15:09:09.397	$GPGGA,150918,2451.1055,N,08030.0500,W,1,9,1.6,15,M,,M,,*53
06/08/2014	15:09:10.448	$GPGGA,150919,2451.1048,N,08030.0492,W,1,9,1.6,15,M,,M,,*54
06/08/2014	15:09:11.428	$GPGGA,150920,2451.1041,N,08030.0484,W,1,9,1.6,15,M,,M,,*50
06/08/2014	15:09:12.541	$GPGGA,150921,2451.1035,N,08030.0477,W,1,9,1.6,15,M,,M,,*5E
06/08/2014	15:09:13.457	$GPGGA,150922,2451.1028,N,08030.0470,W,1,9,1.6,15,M,,M,,*56
06/08/2014	15:09:14.441	$GPGGA,150923,2451.1022,N,08030.0463,W,1,9,1.6,15,M,,M,,*5F
06/08/2014	15:09:15.452	$GPGGA,150924,2451.1015,N,08030.0455,W,1,9,1.6,15,M,,M,,*59
06/08/2014	15:09:16.472	$GPGGA,150925,2451.1008,N,08030.0448,W,1,9,1.6,15,M,,M,,*58
06/08/2014	15:09:17.474	$GPGGA,150926,2451.1002,N,08030.0441,W,1,9,1.6,15,M,,M,,*58
06/08/2014	15:09:18.605	$GPGGA,150927,2451.0995,N,08030.0434,W,1,9,1.6,15,M,,M,,*5D
06/08/2014	15:09:19.618	$GPGGA,150928,2451.0990,N,08030.0427,W,1,9,1.6,15,M,,M,,*55
06/08/2014	15:09:20.606	$GPGGA,150929,2451.0983,N,08030.0420,W,1,9,1.6,15,M,,M,,*51
06/08/2014	15:09:21.607	$GPGGA,150930,2451.0976,N,08030.0413,W,1,9,1.6,15,M,,M,,*53
06/08/2014	15:09:22.517	$GPGGA,150931,2451.0969,N,08030.0405,W,1,9,1.6,15,M,,M,,*5B
06/08/2014	15:09:23.629	$GPGGA,150932,2451.0963,N,08030.0398,W,1,9,1.6,15,M,,M,,*51
06/08/2014	15:09:24.658	$GPGGA,150933,2451.0957,N,08030.0392,W,1,9,1.6,15,M,,M,,*5D
06/08/2014	15:09:25.643	$GPGGA,150934,2451.0950,N,08030.0385,W,1,9,1.6,15,M,,M,,*5B
06/08/2014	15:09:26.658	$GPGGA,150935,2451.0944,N,08030.0377,W,1,9,1.6,15,M,,M,,*52
06/08/2014	15:09:27.664	$GPGGA,150936,2451.0938,N,08030.0370,W,1,9,1.6,15,M,,M,,*5D
06/08/2014	15:09:28.659	$GPGGA,150937,2451.0932,N,08030.0363,W,1,9,1.6,15,M,,M,,*54
06/08/2014	15:09:29.645	$GPGGA,150938,2451.0926,N,08030.0356,W,1,9,1.6,15,M,,M,,*58
06/08/2014	15:09:30.022	$GPGGA,150939,2451.0920,N,08030.0348,W,1,9,1.6,15,M,,M,,*50
06/08/2014	15:09:31.047	$GPGGA,150940,2451.0914,N,08030.0341,W,1,9,1.6,15,M,,M,,*50
06/08/2014	15:09:32.063	$GPGGA,150941,2451.0908,N,08030.0334,W,1,8,1.7,15,M,,M,,*5E
06/08/2014	15:09:33.038	$GPGGA,150942,2451.0902,N,08030.0327,W,1,8,1.6,15,M,,M,,*54
06/08/2014	15:09:34.063	$GPGGA,150943,2451.0896,N,08030.0320,W,1,9,1.6,15,M,,M,,*5F
06/08/2014	15:09:35.058	$GPGGA,150944,2451.0891,N,08030.0313,W,1,9,1.6,15,M,,M,,*5F
06/08/2014	15:09:36.064	$GPGGA,150945,2451.0885,N,08030.0305,W,1,9,1.6,15,M,,M,,*5C
06/08/2014	15:09:37.054	$GPGGA,150946,2451.0879,N,08030.0297,W,1,9,1.7,15,M,,M,,*57
06/08/2014	15:09:38.075	$GPGGA,150947,2451.0873,N,08030.0289,W,1,9,1.6,15,M,,M,,*52
06/08/2014	15:09:39.069	$GPGGA,150948,2451.0867,N,08030.0281,W,1,9,1.7,15,M,,M,,*51
06/08/2014	15:09:40.072	$GPGGA,150949,2451.0861,N,08030.0272,W,1,8,1.7,15,M,,M,,*5B
06/08/2014	15:09:41.061	$GPGGA,150950,2451.0854,N,08030.0265,W,1,8,1.6,15,M,,M,,*52
06/08/2014	15:09:42.065	$GPGGA,150951,2451.0849,N,08030.0257,W,1,9,1.6,15,M,,M,,*5F
06/08/2014	15:09:43.092	$GPGGA,150952,2451.0843,N,08030.0248,W,1,9,1.6,15,M,,M,,*58
06/08/2014	15:09:44.101	$GPGGA,150953,2451.0837,N,08030.0240,W,1,9,1.6,15,M,,M,,*52
06/08/2014	15:09:45.081	$GPGGA,150954,2451.0831,N,08030.0232,W,1,9,1.6,15,M,,M,,*56
06/08/2014	15:09:46.086	$GPGGA,150955,2451.0825,N,08030.0224,W,1,9,1.6,15,M,,M,,*55
06/08/2014	15:09:47.109	$GPGGA,150956,2451.0820,N,08030.0216,W,1,9,1.6,15,M,,M,,*52
06/08/2014	15:09:48.114	$GPGGA,150957,2451.0813,N,08030.0209,W,1,9,1.6,15,M,,M,,*5D
06/08/2014	15:09:49.086	$GPGGA,150958,2451.0808,N,08030.0201,W,1,9,1.6,15,M,,M,,*50
06/08/2014	15:09:50.137	$GPGGA,150959,2451.0802,N,08030.0192,W,1,9,1.6,15,M,,M,,*52
06/08/2014	15:09:51.134	$GPGGA,151000,2451.0796,N,08030.0184,W,1,9,1.7,15,M,,M,,*52
06/08/2014	15:09:52.116	$GPGGA,151001,2451.0790,N,08030.0177,W,1,9,1.6,15,M,,M,,*58
06/08/2014	15:09:53.125	$GPGGA,151002,2451.0785,N,08030.0169,W,1,9,1.6,15,M,,M,,*50
06/08/2014	15:09:54.232	$GPGGA,151003,2451.0779,N,08030.0162,W,1,9,1.6,15,M,,M,,*59
06/08/2014	15:09:55.133	$GPGGA,151004,2451.0773,N,08030.0154,W,1,9,1.6,14,M,,M,,*50
06/08/2014	15:09:56.143	$GPGGA,151005,2451.0767,N,08030.0145,W,1,9,1.6,14,M,,M,,*54
06/08/2014	15:09:57.138	$GPGGA,151006,2451.0762,N,08030.0138,W,1,9,1.6,14,M,,M,,*58
06/08/2014	15:09:58.264	$GPGGA,151007,2451.0756,N,08030.0129,W,1,9,1.6,14,M,,M,,*5E
06/08/2014	15:09:59.244	$GPGGA,151008,2451.0751,N,08030.0121,W,1,9,1.6,14,M,,M,,*5E
06/08/2014	15:10:00.225	$GPGGA,151009,2451.0745,N,08030.0112,W,1,9,1.6,14,M,,M,,*5A
06/08/2014	15:10:01.230	$GPGGA,151010,2451.0739,N,08030.0103,W,1,9,1.6,14,M,,M,,*59
06/08/2014	15:10:02.226	$GPGGA,151011,2451.0734,N,08030.0095,W,1,9,1.6,14,M,,M,,*5B
06/08/2014	15:10:03.141	$GPGGA,151012,2451.0728,N,08030.0085,W,1,9,1.6,14,M,,M,,*54
06/08/2014	15:10:04.247	$GPGGA,151013,2451.0723,N,08030.0075,W,1,8,1.7,14,M,,M,,*51
06/08/2014	15:10:05.142	$GPGGA,151014,2451.0717,N,08030.0065,W,1,8,1.7,14,M,,M,,*50
06/08/2014	15:10:06.167	$GPGGA,151015,2451.0712,N,08030.0056,W,1,8,1.7,14,M,,M,,*54
06/08/2014	15:10:07.286	$GPGGA,151016,2451.0706,N,08030.0046,W,1,8,1.7,14,M,,M,,*53
06/08/2014	15:10:08.308	$GPGGA,151017,2451.0701,N,08030.0036,W,1,8,1.7,14,M,,M,,*52
06/08/2014	15:10:09.253	$GPGGA,151018,2451.0695,N,08030.0026,W,1,8,1.7,14,M,,M,,*50
06/08/2014	15:10:10.269	$GPGGA,151019,2451.0690,N,08030.0017,W,1,8,1.7,14,M,,M,,*56
06/08/2014	15:10:11.274	$GPGGA,151020,2451.0684,N,08030.0006,W,1,8,1.6,13,M,,M,,*5F
06/08/2014	15:10:12.300	$GPGGA,151021,2451.0679,N,08029.9997,W,1,9,1.6,13,M,,M,,*5D
06/08/2014	15:10:13.265	$GPGGA,151022,2451.0674,N,08029.9989,W,1,9,1.6,13,M,,M,,*5C
06/08/2014	15:10:14.311	$GPGGA,151023,2451.0670,N,08029.9981,W,1,9,1.6,13,M,,M,,*51
06/08/2014	15:10:15.296	$GPGGA,151024,2451.0665,N,08029.9973,W,1,9,1.6,13,M,,M,,*5F
06/08/2014	15:10:16.302	$GPGGA,151025,2451.0661,N,08029.9964,W,1,9,1.6,13,M,,M,,*5C
06/08/2014	15:10:17.297	$GPGGA,151026,2451.0655,N,08029.9956,W,1,9,1.6,13,M,,M,,*59
06/08/2014	15:10:18.303	$GPGGA,151027,2451.0650,N,08029.9947,W,1,9,1.6,13,M,,M,,*5D
06/08/2014	15:10:19.309	$GPGGA,151028,2451.0645,N,08029.9939,W,1,9,1.6,13,M,,M,,*5F
06/08/2014	15:10:20.294	$GPGGA,151029,2451.0640,N,08029.9930,W,1,9,1.6,13,M,,M,,*52
06/08/2014	15:10:21.299	$GPGGA,151030,2451.0636,N,08029.9921,W,1,9,1.6,13,M,,M,,*5B
06/08/2014	15:10:22.325	$GPGGA,151031,2451.0630,N,08029.9913,W,1,9,1.6,13,M,,M,,*5D
06/08/2014	15:10:23.320	$GPGGA,151032,2451.0625,N,08029.9904,W,1,9,1.6,13,M,,M,,*5C
06/08/2014	15:10:24.306	$GPGGA,151033,2451.0620,N,08029.9895,W,1,9,1.6,13,M,,M,,*51
06/08/2014	15:10:25.321	$GPGGA,151034,2451.0616,N,08029.9886,W,1,9,1.6,13,M,,M,,*51
06/08/2014	15:10:26.306	$GPGGA,151035,2451.0611,N,08029.9875,W,1,9,1.6,13,M,,M,,*5B
06/08/2014	15:10:27.321	$GPGGA,151036,2451.0605,N,08029.9865,W,1,9,1.7,13,M,,M,,*5D
06/08/2014	15:10:28.347	$GPGGA,151037,2451.0600,N,08029.9855,W,1,8,1.7,13,M,,M,,*5B
06/08/2014	15:10:29.312	$GPGGA,151038,2451.0596,N,08029.9845,W,1,8,1.7,13,M,,M,,*59
06/08/2014	15:10:30.028	$GPGGA,151039,2451.0590,N,08029.9836,W,1,9,1.6,13,M,,M,,*5A
06/08/2014	15:10:31.023	$GPGGA,151040,2451.0585,N,08029.9826,W,1,9,1.6,13,M,,M,,*51
06/08/2014	15:10:32.029	$GPGGA,151041,2451.0580,N,08029.9815,W,1,8,1.7,13,M,,M,,*55
06/08/2014	15:10:33.004	$GPGGA,151042,2451.0575,N,08029.9806,W,1,8,1.7,13,M,,M,,*5E
06/08/2014	15:10:34.010	$GPGGA,151043,2451.0571,N,08029.9796,W,1,9,1.6,13,M,,M,,*5D
06/08/2014	15:10:35.035	$GPGGA,151044,2451.0564,N,08029.9786,W,1,9,1.7,13,M,,M,,*5E
06/08/2014	15:10:36.025	$GPGGA,151045,2451.0560,N,08029.9776,W,1,8,1.7,13,M,,M,,*55
06/08/2014	15:10:37.027	$GPGGA,151046,2451.0554,N,08029.9766,W,1,8,1.7,13,M,,M,,*50
06/08/2014	15:10:38.043	$GPGGA,151047,2451.0549,N,08029.9756,W,1,8,1.7,13,M,,M,,*5E
06/08/2014	15:10:39.045	$GPGGA,151048,2451.0542,N,08029.9746,W,1,8,1.7,13,M,,M,,*5B
06/08/2014	15:10:40.203	$GPGGA,151049,2451.0537,N,08029.9736,W,1,8,1.7,13,M,,M,,*5F
06/08/2014	15:10:41.054	$GPGGA,151050,2451.0532,N,08029.9727,W,1,8,1.7,13,M,,M,,*52
06/08/2014	15:10:42.225	$GPGGA,151051,2451.0526,N,08029.9718,W,1,9,1.6,13,M,,M,,*5A
06/08/2014	15:10:43.055	$GPGGA,151052,2451.0521,N,08029.9709,W,1,9,1.6,13,M,,M,,*5E
06/08/2014	15:10:44.067	$GPGGA,151053,2451.0515,N,08029.9699,W,1,9,1.6,13,M,,M,,*50
06/08/2014	15:10:45.139	$GPGGA,151054,2451.0510,N,08029.9689,W,1,9,1.6,13,M,,M,,*53
06/08/2014	15:10:46.235	$GPGGA,151055,2451.0504,N,08029.9679,W,1,9,1.6,13,M,,M,,*58
06/08/2014	15:10:47.079	$GPGGA,151056,2451.0499,N,08029.9669,W,1,9,1.6,13,M,,M,,*5F
06/08/2014	15:10:48.080	$GPGGA,151057,2451.0491,N,08029.9659,W,1,8,1.8,13,M,,M,,*5A
06/08/2014	15:10:49.196	$GPGGA,151058,2451.0485,N,08029.9649,W,1,8,1.6,14,M,,M,,*58
06/08/2014	15:10:50.247	$GPGGA,151059,2451.0478,N,08029.9639,W,1,9,1.6,14,M,,M,,*5D
06/08/2014	15:10:51.082	$GPGGA,151100,2451.0471,N,08029.9628,W,1,9,1.6,14,M,,M,,*59
06/08/2014	15:10:52.087	$GPGGA,151101,2451.0466,N,08029.9617,W,1,9,1.6,14,M,,M,,*52
06/08/2014	15:10:53.163	$GPGGA,151102,2451.0459,N,08029.9606,W,1,9,1.6,14,M,,M,,*5D
06/08/2014	15:10:54.279	$GPGGA,151103,2451.0454,N,08029.9593,W,1,9,1.8,14,M,,M,,*50
06/08/2014	15:10:55.224	$GPGGA,151104,2451.0448,N,08029.9582,W,1,9,1.8,14,M,,M,,*5A
06/08/2014	15:10:56.270	$GPGGA,151105,2451.0441,N,08029.9571,W,1,9,1.6,14,M,,M,,*50
06/08/2014	15:10:58.292	$GPGGA,151107,2451.0427,N,08029.9547,W,1,9,1.6,14,M,,M,,*57
06/08/2014	15:10:59.227	$GPGGA,151108,2451.0420,N,08029.9534,W,1,9,1.6,14,M,,M,,*5B
06/08/2014	15:11:00.292	$GPGGA,151109,2451.0414,N,08029.9522,W,1,9,1.6,14,M,,M,,*5A
06/08/2014	15:11:01.196	$GPGGA,151110,2451.0407,N,08029.9509,W,1,9,1.6,14,M,,M,,*59
06/08/2014	15:11:02.312	$GPGGA,151111,2451.0401,N,08029.9497,W,1,9,1.6,14,M,,M,,*58
06/08/2014	15:11:03.248	$GPGGA,151112,2451.0394,N,08029.9484,W,1,9,1.6,14,M,,M,,*52
06/08/2014	15:11:04.323	$GPGGA,151113,2451.0387,N,08029.9471,W,1,9,1.6,14,M,,M,,*5B
06/08/2014	15:11:05.238	$GPGGA,151114,2451.0380,N,08029.9458,W,1,9,1.6,14,M,,M,,*50
06/08/2014	15:11:06.275	$GPGGA,151115,2451.0373,N,08029.9445,W,1,9,1.6,14,M,,M,,*51
06/08/2014	15:11:07.259	$GPGGA,151116,2451.0366,N,08029.9432,W,1,9,1.6,14,M,,M,,*56
06/08/2014	15:11:08.325	$GPGGA,151117,2451.0359,N,08029.9419,W,1,9,1.6,14,M,,M,,*52
06/08/2014	15:11:09.260	$GPGGA,151118,2451.0352,N,08029.9406,W,1,9,1.6,14,M,,M,,*58
06/08/2014	15:11:10.326	$GPGGA,151119,2451.0345,N,08029.9393,W,1,9,1.6,15,M,,M,,*55
06/08/2014	15:11:11.271	$GPGGA,151120,2451.0340,N,08029.9380,W,1,9,1.6,15,M,,M,,*58
06/08/2014	15:11:12.297	$GPGGA,151121,2451.0332,N,08029.9366,W,1,9,1.6,15,M,,M,,*54
06/08/2014	15:11:13.272	$GPGGA,151122,2451.0325,N,08029.9353,W,1,9,1.6,15,M,,M,,*57
06/08/2014	15:11:14.238	$GPGGA,151123,2451.0319,N,08029.9340,W,1,9,1.6,15,M,,M,,*5B
06/08/2014	15:11:15.293	$GPGGA,151124,2451.0312,N,08029.9326,W,1,9,1.6,15,M,,M,,*57
06/08/2014	15:11:16.239	$GPGGA,151125,2451.0305,N,08029.9312,W,1,9,1.6,15,M,,M,,*57
06/08/2014	15:11:17.244	$GPGGA,151126,2451.0300,N,08029.9298,W,1,9,1.6,15,M,,M,,*52
06/08/2014	15:11:18.369	$GPGGA,151127,2451.0293,N,08029.9284,W,1,9,1.6,15,M,,M,,*55
06/08/2014	15:11:19.304	$GPGGA,151128,2451.0285,N,08029.9271,W,1,9,1.6,15,M,,M,,*57
06/08/2014	15:11:20.380	$GPGGA,151129,2451.0278,N,08029.9257,W,1,9,1.6,15,M,,M,,*50
06/08/2014	15:11:21.295	$GPGGA,151130,2451.0272,N,08029.9243,W,1,9,1.6,15,M,,M,,*57
06/08/2014	15:11:22.381	$GPGGA,151131,2451.0265,N,08029.9229,W,1,9,1.6,15,M,,M,,*5C
06/08/2014	15:11:23.276	$GPGGA,151132,2451.0258,N,08029.9215,W,1,9,1.6,15,M,,M,,*5E
06/08/2014	15:11:24.362	$GPGGA,151133,2451.0253,N,08029.9202,W,1,9,1.6,15,M,,M,,*52
06/08/2014	15:11:25.277	$GPGGA,151134,2451.0244,N,08029.9188,W,1,9,1.6,15,M,,M,,*52
06/08/2014	15:11:26.363	$GPGGA,151135,2451.0238,N,08029.9174,W,1,9,1.8,15,M,,M,,*55
06/08/2014	15:11:27.290	$GPGGA,151136,2451.0231,N,08029.9161,W,1,9,1.8,15,M,,M,,*5B
06/08/2014	15:11:28.283	$GPGGA,151137,2451.0225,N,08029.9146,W,1,9,1.6,15,M,,M,,*54
06/08/2014	15:11:29.289	$GPGGA,151138,2451.0218,N,08029.9132,W,1,9,1.6,15,M,,M,,*56
06/08/2014	15:11:29.978	$GPGGA,151139,2451.0211,N,08029.9118,W,1,8,1.8,15,M,,M,,*59
06/08/2014	15:11:31.023	$GPGGA,151140,2451.0206,N,08029.9104,W,1,8,1.8,15,M,,M,,*5C
06/08/2014	15:11:32.069	$GPGGA,151141,2451.0199,N,08029.9090,W,1,8,1.8,15,M,,M,,*54
06/08/2014	15:11:32.994	$GPGGA,151142,2451.0192,N,08029.9075,W,1,8,1.8,15,M,,M,,*57
06/08/2014	15:11:33.979	$GPGGA,151143,2451.0185,N,08029.9061,W,1,8,1.8,15,M,,M,,*55
06/08/2014	15:11:35.035	$GPGGA,151144,2451.0179,N,08029.9047,W,1,8,1.8,15,M,,M,,*55
06/08/2014	15:11:35.979	$GPGGA,151145,2451.0173,N,08029.9032,W,1,8,1.8,15,M,,M,,*5C
06/08/2014	15:11:37.105	$GPGGA,151146,2451.0166,N,08029.9018,W,1,8,1.6,15,M,,M,,*5D
06/08/2014	15:11:38.151	$GPGGA,151147,2451.0159,N,08029.9004,W,1,9,1.6,15,M,,M,,*5C
06/08/2014	15:11:39.106	$GPGGA,151148,2451.0152,N,08029.8991,W,1,9,1.6,14,M,,M,,*5D
06/08/2014	15:11:40.162	$GPGGA,151149,2451.0145,N,08029.8978,W,1,9,1.6,14,M,,M,,*5D
06/08/2014	15:11:41.107	$GPGGA,151150,2451.0138,N,08029.8965,W,1,9,1.6,14,M,,M,,*53
06/08/2014	15:11:42.123	$GPGGA,151151,2451.0130,N,08029.8952,W,1,9,1.6,14,M,,M,,*5E
06/08/2014	15:11:43.140	$GPGGA,151152,2451.0123,N,08029.8939,W,1,9,1.6,14,M,,M,,*52
06/08/2014	15:11:44.272	$GPGGA,151153,2451.0116,N,08029.8927,W,1,9,1.6,14,M,,M,,*5A
06/08/2014	15:11:45.265	$GPGGA,151154,2451.0107,N,08029.8914,W,1,9,1.6,14,M,,M,,*5D
06/08/2014	15:11:46.321	$GPGGA,151155,2451.0100,N,08029.8901,W,1,9,1.6,14,M,,M,,*5F
06/08/2014	15:11:47.399	$GPGGA,151156,2451.0092,N,08029.8888,W,1,9,1.6,14,M,,M,,*56
06/08/2014	15:11:48.510	$GPGGA,151157,2451.0084,N,08029.8875,W,1,9,1.6,14,M,,M,,*52
06/08/2014	15:11:49.523	$GPGGA,151158,2451.0076,N,08029.8863,W,1,9,1.6,14,M,,M,,*57
06/08/2014	15:11:50.622	$GPGGA,151159,2451.0069,N,08029.8850,W,1,9,1.6,14,M,,M,,*58
06/08/2014	15:11:51.668	$GPGGA,151200,2451.0060,N,08029.8837,W,1,9,1.6,14,M,,M,,*5F
06/08/2014	15:11:52.789	$GPGGA,151201,2451.0053,N,08029.8824,W,1,9,1.6,14,M,,M,,*5C
