Software Version Number: 1	Data File Format Number: 1	Build Version Number: 1	Error Count Since VI Started: 0	Manufacturer: Raytheon	 Model Number: RayMarine 120	 S/N: 	 Cal Date: 	 Wind Direction Offset: 0.00	 Slope (M)1: 0.00	 Offset (B)1: 0.00	 Slope (M)2: 0.00	 Offset (B)2: 0.00	 Slope (M)3: 0.00	 Offset (B)3: 0.00	 Slope (M)4: 0.00	 Offset (B)4: 0.00	 Slope (M)5: 0.00	 Offset (B)5: 0.00	 Slope (M)6: 0.00	 Offset (B)6: 0.00
Computer Date	Computer Time	GGA String
06/14/2014	10:00:00.627	$GPGGA,100000,2430.2957,N,08058.1507,W,1,10,3.0,22,M,,M,,*69
06/14/2014	10:00:01.684	$GPGGA,100001,2430.2953,N,08058.1511,W,1,7,1.4,22,M,,M,,*5B
06/14/2014	10:00:02.845	$GPGGA,100002,2430.2949,N,08058.1515,W,1,7,1.4,21,M,,M,,*54
06/14/2014	10:00:03.903	$GPGGA,100003,2430.2943,N,08058.1519,W,1,10,1.4,21,M,,M,,*65
06/14/2014	10:00:04.989	$GPGGA,100004,2430.2941,N,08058.1524,W,1,10,1.4,21,M,,M,,*6E
06/14/2014	10:00:06.014	$GPGGA,100005,2430.2941,N,08058.1528,W,1,9,2.3,21,M,,M,,*5F
06/14/2014	10:00:07.179	$GPGGA,100006,2430.2939,N,08058.1532,W,1,9,1.7,21,M,,M,,*5F
06/14/2014	10:00:08.291	$GPGGA,100007,2430.2937,N,08058.1535,W,1,9,1.7,21,M,,M,,*57
06/14/2014	10:00:09.338	$GPGGA,100008,2430.2934,N,08058.1539,W,1,9,1.7,21,M,,M,,*57
06/14/2014	10:00:10.374	$GPGGA,100009,2430.2932,N,08058.1542,W,1,9,1.7,21,M,,M,,*5C
06/14/2014	10:00:11.541	$GPGGA,100010,2430.2930,N,08058.1546,W,1,9,1.7,21,M,,M,,*52
06/14/2014	10:00:12.631	$GPGGA,100011,2430.2928,N,08058.1548,W,1,9,1.7,21,M,,M,,*54
06/14/2014	10:00:13.733	$GPGGA,100012,2430.2923,N,08058.1553,W,1,9,1.4,21,M,,M,,*55
06/14/2014	10:00:14.812	$GPGGA,100013,2430.2919,N,08058.1559,W,1,10,1.4,21,M,,M,,*6F
06/14/2014	10:00:15.903	$GPGGA,100014,2430.2915,N,08058.1566,W,1,10,1.4,21,M,,M,,*68
06/14/2014	10:00:17.015	$GPGGA,100015,2430.2909,N,08058.1572,W,1,10,1.4,21,M,,M,,*61
06/14/2014	10:00:18.095	$GPGGA,100016,2430.2906,N,08058.1576,W,1,10,1.4,21,M,,M,,*69
06/14/2014	10:00:19.207	$GPGGA,100017,2430.2905,N,08058.1582,W,1,10,1.4,21,M,,M,,*60
06/14/2014	10:00:20.259	$GPGGA,100018,2430.2901,N,08058.1587,W,1,10,1.4,21,M,,M,,*6E
06/14/2014	10:00:21.355	$GPGGA,100019,2430.2896,N,08058.1591,W,1,10,1.5,21,M,,M,,*66
06/14/2014	10:00:22.446	$GPGGA,100020,2430.2896,N,08058.1591,W,1,10,1.5,21,M,,M,,*6C
06/14/2014	10:00:23.546	$GPGGA,100021,2430.2890,N,08058.1602,W,1,10,1.4,21,M,,M,,*63
06/14/2014	10:00:24.604	$GPGGA,100022,2430.2887,N,08058.1608,W,1,10,1.4,21,M,,M,,*6C
06/14/2014	10:00:25.705	$GPGGA,100023,2430.2883,N,08058.1615,W,1,10,1.4,21,M,,M,,*65
06/14/2014	10:00:26.796	$GPGGA,100024,2430.2883,N,08058.1615,W,1,10,1.4,21,M,,M,,*62
06/14/2014	10:00:27.886	$GPGGA,100025,2430.2876,N,08058.1626,W,1,10,1.4,21,M,,M,,*69
06/14/2014	10:00:28.977	$GPGGA,100026,2430.2872,N,08058.1631,W,1,10,1.4,21,M,,M,,*68
06/14/2014	10:00:30.066	$GPGGA,100027,2430.2870,N,08058.1636,W,1,10,1.7,21,M,,M,,*6F
06/14/2014	10:00:31.150	$GPGGA,100028,2430.2868,N,08058.1640,W,1,10,1.4,21,M,,M,,*6B
06/14/2014	10:00:32.219	$GPGGA,100029,2430.2866,N,08058.1644,W,1,10,1.4,21,M,,M,,*60
06/14/2014	10:00:33.323	$GPGGA,100030,2430.2862,N,08058.1649,W,1,10,1.4,21,M,,M,,*61
06/14/2014	10:00:34.386	$GPGGA,100031,2430.2859,N,08058.1655,W,1,10,1.4,21,M,,M,,*65
06/14/2014	10:00:35.501	$GPGGA,100032,2430.2859,N,08058.1655,W,1,10,1.4,21,M,,M,,*66
06/14/2014	10:00:36.579	$GPGGA,100033,2430.2854,N,08058.1665,W,1,10,1.7,21,M,,M,,*6A
06/14/2014	10:00:37.670	$GPGGA,100034,2430.2851,N,08058.1669,W,1,10,1.7,21,M,,M,,*64
06/14/2014	10:00:38.737	$GPGGA,100035,2430.2849,N,08058.1673,W,1,9,1.7,21,M,,M,,*5F
06/14/2014	10:00:39.850	$GPGGA,100036,2430.2849,N,08058.1673,W,1,9,1.7,21,M,,M,,*5C
06/14/2014	10:00:40.953	$GPGGA,100037,2430.2847,N,08058.1678,W,1,10,1.4,21,M,,M,,*63
06/14/2014	10:00:42.037	$GPGGA,100038,2430.2842,N,08058.1684,W,1,10,1.4,21,M,,M,,*6A
06/14/2014	10:00:43.109	$GPGGA,100039,2430.2836,N,08058.1696,W,1,10,1.4,21,M,,M,,*6B
06/14/2014	10:00:44.226	$GPGGA,100040,2430.2836,N,08058.1696,W,1,10,1.4,21,M,,M,,*65
06/14/2014	10:00:45.425	$GPGGA,100041,2430.2829,N,08058.1705,W,1,9,1.8,21,M,,M,,*55
06/14/2014	10:00:46.380	$GPGGA,100042,2430.2829,N,08058.1705,W,1,9,1.4,21,M,,M,,*5A
06/14/2014	10:00:47.569	$GPGGA,100043,2430.2822,N,08058.1716,W,1,9,1.7,21,M,,M,,*51
06/14/2014	10:00:48.590	$GPGGA,100044,2430.2818,N,08058.1723,W,1,9,1.4,21,M,,M,,*5A
06/14/2014	10:00:49.750	$GPGGA,100045,2430.2813,N,08058.1727,W,1,10,1.4,21,M,,M,,*6C
06/14/2014	10:00:50.769	$GPGGA,100046,2430.2809,N,08058.1734,W,1,10,1.4,21,M,,M,,*66
06/14/2014	10:00:51.833	$GPGGA,100047,2430.2807,N,08058.1739,W,1,10,1.4,21,M,,M,,*64
06/14/2014	10:00:53.010	$GPGGA,100048,2430.2801,N,08058.1745,W,1,10,1.4,21,M,,M,,*66
06/14/2014	10:00:48.564	$GPGGA,100049,2430.2797,N,08058.1750,W,1,9,1.8,21,M,,M,,*57
06/14/2014	10:00:49.721	$GPGGA,100050,2430.2793,N,08058.1754,W,1,9,1.8,21,M,,M,,*5F
06/14/2014	10:00:50.641	$GPGGA,100051,2430.2789,N,08058.1759,W,1,10,1.4,21,M,,M,,*6C
06/14/2014	10:00:51.737	$GPGGA,100052,2430.2785,N,08058.1763,W,1,10,1.4,21,M,,M,,*6A
06/14/2014	10:00:52.699	$GPGGA,100053,2430.2782,N,08058.1770,W,1,10,1.4,21,M,,M,,*6E
06/14/2014	10:00:53.836	$GPGGA,100054,2430.2777,N,08058.1777,W,1,10,1.4,22,M,,M,,*67
06/14/2014	10:00:54.768	$GPGGA,100055,2430.2773,N,08058.1783,W,1,10,1.4,22,M,,M,,*69
06/14/2014	10:00:55.914	$GPGGA,100056,2430.2771,N,08058.1789,W,1,10,1.4,22,M,,M,,*62
06/14/2014	10:00:56.927	$GPGGA,100057,2430.2766,N,08058.1796,W,1,10,1.4,22,M,,M,,*6B
06/14/2014	10:00:57.972	$GPGGA,100058,2430.2764,N,08058.1800,W,1,10,1.4,22,M,,M,,*66
06/14/2014	10:00:58.995	$GPGGA,100059,2430.2760,N,08058.1806,W,1,10,1.4,22,M,,M,,*65
06/14/2014	10:01:00.050	$GPGGA,100100,2430.2757,N,08058.1810,W,1,10,1.4,22,M,,M,,*6B
06/14/2014	10:01:01.064	$GPGGA,100101,2430.2753,N,08058.1815,W,1,10,1.4,22,M,,M,,*6B
06/14/2014	10:01:02.098	$GPGGA,100102,2430.2750,N,08058.1821,W,1,10,1.4,22,M,,M,,*6C
06/14/2014	10:01:03.142	$GPGGA,100103,2430.2746,N,08058.1826,W,1,10,1.4,22,M,,M,,*6D
06/14/2014	10:01:04.177	$GPGGA,100104,2430.2740,N,08058.1829,W,1,10,1.8,22,M,,M,,*6F
06/14/2014	10:01:05.211	$GPGGA,100105,2430.2737,N,08058.1835,W,1,10,1.4,22,M,,M,,*6F
06/14/2014	10:01:06.224	$GPGGA,100106,2430.2735,N,08058.1839,W,1,10,1.4,22,M,,M,,*62
06/14/2014	10:01:07.268	$GPGGA,100107,2430.2730,N,08058.1842,W,1,10,1.4,22,M,,M,,*6A
06/14/2014	10:01:08.302	$GPGGA,100108,2430.2726,N,08058.1847,W,1,10,1.4,22,M,,M,,*67
06/14/2014	10:01:09.336	$GPGGA,100109,2430.2724,N,08058.1853,W,1,9,1.8,22,M,,M,,*55
06/14/2014	10:01:10.348	$GPGGA,100110,2430.2719,N,08058.1858,W,1,9,1.4,22,M,,M,,*54
06/14/2014	10:01:11.374	$GPGGA,100111,2430.2714,N,08058.1862,W,1,8,1.7,22,M,,M,,*53
06/14/2014	10:01:12.428	$GPGGA,100112,2430.2712,N,08058.1868,W,1,8,1.4,22,M,,M,,*5F
06/14/2014	10:01:13.462	$GPGGA,100113,2430.2715,N,08058.1872,W,1,10,1.4,22,M,,M,,*6B
06/14/2014	10:01:14.485	$GPGGA,100114,2430.2714,N,08058.1876,W,1,10,1.7,22,M,,M,,*6A
06/14/2014	10:01:15.540	$GPGGA,100115,2430.2712,N,08058.1882,W,1,9,1.7,22,M,,M,,*5E
06/14/2014	10:01:16.553	$GPGGA,100116,2430.2710,N,08058.1886,W,1,9,1.4,22,M,,M,,*58
06/14/2014	10:01:17.598	$GPGGA,100117,2430.2710,N,08058.1889,W,1,9,1.7,22,M,,M,,*55
06/14/2014	10:01:18.601	$GPGGA,100118,2430.2708,N,08058.1893,W,1,9,1.7,22,M,,M,,*58
06/14/2014	10:01:19.666	$GPGGA,100119,2430.2706,N,08058.1898,W,1,9,1.7,22,M,,M,,*5C
06/14/2014	10:01:20.673	$GPGGA,100120,2430.2704,N,08058.1904,W,1,9,1.7,22,M,,M,,*50
06/14/2014	10:01:21.703	$GPGGA,100121,2430.2702,N,08058.1908,W,1,9,1.7,22,M,,M,,*5B
06/14/2014	10:01:22.738	$GPGGA,100122,2430.2699,N,08058.1911,W,1,9,1.7,22,M,,M,,*53
06/14/2014	10:01:23.751	$GPGGA,100123,2430.2697,N,08058.1916,W,1,9,1.7,22,M,,M,,*5B
06/14/2014	10:01:24.817	$GPGGA,100124,2430.2695,N,08058.1922,W,1,9,1.7,21,M,,M,,*5A
06/14/2014	10:01:25.860	$GPGGA,100125,2430.2690,N,08058.1927,W,1,9,1.7,21,M,,M,,*5B
06/14/2014	10:01:26.866	$GPGGA,100126,2430.2688,N,08058.1931,W,1,9,2.1,21,M,,M,,*53
06/14/2014	10:01:27.897	$GPGGA,100127,2430.2684,N,08058.1936,W,1,9,1.7,21,M,,M,,*5C
06/14/2014	10:01:28.933	$GPGGA,100128,2430.2682,N,08058.1940,W,1,9,1.7,21,M,,M,,*54
06/14/2014	10:01:29.987	$GPGGA,100129,2430.2681,N,08058.1945,W,1,9,1.7,20,M,,M,,*52
06/14/2014	10:01:30.979	$GPGGA,100130,2430.2678,N,08058.1951,W,1,9,1.7,20,M,,M,,*59
06/14/2014	10:01:32.012	$GPGGA,100131,2430.2674,N,08058.1954,W,1,9,1.7,20,M,,M,,*51
06/14/2014	10:01:33.067	$GPGGA,100132,2430.2671,N,08058.1960,W,1,9,1.7,20,M,,M,,*50
06/14/2014	10:01:34.080	$GPGGA,100133,2430.2666,N,08058.1967,W,1,9,1.7,19,M,,M,,*5A
06/14/2014	10:01:35.229	$GPGGA,100134,2430.2661,N,08058.1973,W,1,9,2.1,19,M,,M,,*5A
06/14/2014	10:01:36.159	$GPGGA,100135,2430.2656,N,08058.1977,W,1,8,2.1,19,M,,M,,*5A
06/14/2014	10:01:37.307	$GPGGA,100136,2430.2654,N,08058.1983,W,1,8,1.7,19,M,,M,,*55
06/14/2014	10:01:38.331	$GPGGA,100137,2430.2652,N,08058.1987,W,1,9,1.7,19,M,,M,,*57
06/14/2014	10:01:39.354	$GPGGA,100138,2430.2648,N,08058.1992,W,1,9,1.7,19,M,,M,,*57
06/14/2014	10:01:40.285	$GPGGA,100139,2430.2645,N,08058.1998,W,1,9,1.7,19,M,,M,,*51
06/14/2014	10:01:41.319	$GPGGA,100140,2430.2641,N,08058.2005,W,1,9,1.7,18,M,,M,,*54
06/14/2014	10:01:42.467	$GPGGA,100141,2430.2637,N,08058.2009,W,1,8,2.1,18,M,,M,,*5C
06/14/2014	10:01:43.480	$GPGGA,100142,2430.2634,N,08058.2016,W,1,8,1.7,18,M,,M,,*57
06/14/2014	10:01:44.411	$GPGGA,100143,2430.2630,N,08058.2021,W,1,9,1.7,18,M,,M,,*57
06/14/2014	10:01:45.559	$GPGGA,100144,2430.2627,N,08058.2027,W,1,9,1.7,18,M,,M,,*50
06/14/2014	10:01:46.469	$GPGGA,100145,2430.2624,N,08058.2031,W,1,9,1.7,18,M,,M,,*55
06/14/2014	10:01:47.596	$GPGGA,100146,2430.2623,N,08058.2037,W,1,9,1.7,18,M,,M,,*57
06/14/2014	10:01:48.651	$GPGGA,100147,2430.2618,N,08058.2043,W,1,9,1.7,18,M,,M,,*5D
06/14/2014	10:01:49.582	$GPGGA,100148,2430.2616,N,08058.2048,W,1,9,1.7,17,M,,M,,*58
06/14/2014	10:01:48.492	$GPGGA,100149,2430.2612,N,08058.2055,W,1,9,1.7,17,M,,M,,*51
06/14/2014	10:01:49.619	$GPGGA,100150,2430.2607,N,08058.2060,W,1,9,1.7,17,M,,M,,*5B
06/14/2014	10:01:50.664	$GPGGA,100151,2430.2603,N,08058.2066,W,1,9,1.7,17,M,,M,,*58
06/14/2014	10:01:51.698	$GPGGA,100152,2430.2600,N,08058.2070,W,1,9,1.7,17,M,,M,,*5F
06/14/2014	10:01:52.742	$GPGGA,100153,2430.2598,N,08058.2077,W,1,9,1.7,17,M,,M,,*5B
06/14/2014	10:01:53.745	$GPGGA,100154,2430.2594,N,08058.2081,W,1,9,1.7,17,M,,M,,*59
06/14/2014	10:01:54.779	$GPGGA,100155,2430.2589,N,08058.2088,W,1,9,1.7,17,M,,M,,*5D
06/14/2014	10:01:55.824	$GPGGA,100156,2430.2583,N,08058.2095,W,1,9,2.1,16,M,,M,,*5C
06/14/2014	10:01:56.868	$GPGGA,100157,2430.2579,N,08058.2100,W,1,8,2.1,16,M,,M,,*54
06/14/2014	10:01:57.871	$GPGGA,100158,2430.2576,N,08058.2106,W,1,8,1.7,16,M,,M,,*57
06/14/2014	10:01:58.908	$GPGGA,100159,2430.2573,N,08058.2110,W,1,9,1.7,16,M,,M,,*55
06/14/2014	10:01:59.960	$GPGGA,100200,2430.2569,N,08058.2117,W,1,9,1.7,16,M,,M,,*56
06/14/2014	10:02:01.005	$GPGGA,100201,2430.2563,N,08058.2122,W,1,9,1.7,16,M,,M,,*5B
06/14/2014	10:02:02.008	$GPGGA,100202,2430.2560,N,08058.2128,W,1,9,2.1,16,M,,M,,*54
06/14/2014	10:02:03.034	$GPGGA,100203,2430.2555,N,08058.2133,W,1,9,1.7,16,M,,M,,*5C
06/14/2014	10:02:04.102	$GPGGA,100204,2430.2552,N,08058.2139,W,1,9,1.7,16,M,,M,,*56
06/14/2014	10:02:05.116	$GPGGA,100205,2430.2547,N,08058.2146,W,1,9,1.7,16,M,,M,,*5B
06/14/2014	10:02:06.122	$GPGGA,100206,2430.2542,N,08058.2151,W,1,9,2.1,16,M,,M,,*5E
06/14/2014	10:02:07.198	$GPGGA,100207,2430.2540,N,08058.2157,W,1,8,2.1,16,M,,M,,*5A
06/14/2014	10:02:08.202	$GPGGA,100208,2430.2536,N,08058.2161,W,1,8,1.7,16,M,,M,,*54
06/14/2014	10:02:09.256	$GPGGA,100209,2430.2533,N,08058.2168,W,1,9,1.7,16,M,,M,,*58
06/14/2014	10:02:10.269	$GPGGA,100210,2430.2529,N,08058.2173,W,1,9,2.1,16,M,,M,,*54
06/14/2014	10:02:11.293	$GPGGA,100211,2430.2524,N,08058.2178,W,1,9,1.7,16,M,,M,,*56
06/14/2014	10:02:12.337	$GPGGA,100212,2430.2520,N,08058.2184,W,1,9,1.7,16,M,,M,,*52
06/14/2014	10:02:13.372	$GPGGA,100213,2430.2515,N,08058.2190,W,1,9,1.7,16,M,,M,,*50
06/14/2014	10:02:14.385	$GPGGA,100214,2430.2515,N,08058.2198,W,1,9,2.1,16,M,,M,,*5A
06/14/2014	10:02:15.419	$GPGGA,100215,2430.2511,N,08058.2204,W,1,8,2.3,16,M,,M,,*5A
06/14/2014	10:02:16.463	$GPGGA,100216,2430.2508,N,08058.2208,W,1,8,1.7,16,M,,M,,*5A
06/14/2014	10:02:17.508	$GPGGA,100217,2430.2505,N,08058.2215,W,1,9,1.7,15,M,,M,,*58
06/14/2014	10:02:18.511	$GPGGA,100218,2430.2502,N,08058.2222,W,1,9,1.7,15,M,,M,,*54
06/14/2014	10:02:19.586	$GPGGA,100219,2430.2497,N,08058.2226,W,1,8,2.1,15,M,,M,,*58
06/14/2014	10:02:20.601	$GPGGA,100220,2430.2494,N,08058.2232,W,1,8,2.1,15,M,,M,,*54
06/14/2014	10:02:21.625	$GPGGA,100221,2430.2490,N,08058.2237,W,1,9,1.7,15,M,,M,,*50
06/14/2014	10:02:22.668	$GPGGA,100222,2430.2486,N,08058.2243,W,1,9,1.7,15,M,,M,,*57
06/14/2014	10:02:23.671	$GPGGA,100223,2430.2482,N,08058.2249,W,1,8,2.1,15,M,,M,,*5C
06/14/2014	10:02:24.840	$GPGGA,100224,2430.2477,N,08058.2254,W,1,8,3.1,15,M,,M,,*5C
06/14/2014	10:02:25.750	$GPGGA,100225,2430.2472,N,08058.2258,W,1,8,2.3,15,M,,M,,*57
06/14/2014	10:02:26.866	$GPGGA,100226,2430.2469,N,08058.2262,W,1,8,1.7,15,M,,M,,*50
06/14/2014	10:02:27.931	$GPGGA,100227,2430.2468,N,08058.2267,W,1,8,1.7,14,M,,M,,*54
06/14/2014	10:02:28.851	$GPGGA,100228,2430.2464,N,08058.2272,W,1,8,2.3,14,M,,M,,*54
06/14/2014	10:02:29.864	$GPGGA,100229,2430.2461,N,08058.2277,W,1,8,1.7,14,M,,M,,*52
06/14/2014	10:02:31.012	$GPGGA,100230,2430.2457,N,08058.2283,W,1,8,1.7,14,M,,M,,*54
06/14/2014	10:02:31.933	$GPGGA,100231,2430.2453,N,08058.2287,W,1,9,1.7,14,M,,M,,*54
06/14/2014	10:02:33.091	$GPGGA,100232,2430.2449,N,08058.2292,W,1,9,1.7,14,M,,M,,*58
06/14/2014	10:02:34.001	$GPGGA,100233,2430.2446,N,08058.2298,W,1,9,1.7,14,M,,M,,*5C
06/14/2014	10:02:35.128	$GPGGA,100234,2430.2442,N,08058.2303,W,1,9,1.7,14,M,,M,,*5C
06/14/2014	10:02:36.172	$GPGGA,100235,2430.2437,N,08058.2309,W,1,8,2.3,14,M,,M,,*53
06/14/2014	10:02:37.103	$GPGGA,100236,2430.2435,N,08058.2316,W,1,8,2.3,14,M,,M,,*5C
06/14/2014	10:02:38.127	$GPGGA,100237,2430.2432,N,08058.2323,W,1,8,2.3,14,M,,M,,*5C
06/14/2014	10:02:39.151	$GPGGA,100238,2430.2428,N,08058.2330,W,1,8,2.3,14,M,,M,,*5A
06/14/2014	10:02:40.298	$GPGGA,100239,2430.2422,N,08058.2337,W,1,7,3.1,14,M,,M,,*5A
06/14/2014	10:02:41.333	$GPGGA,100240,2430.2417,N,08058.2342,W,1,7,2.3,14,M,,M,,*53
06/14/2014	10:02:42.345	$GPGGA,100241,2430.2414,N,08058.2348,W,1,8,2.3,14,M,,M,,*54
06/14/2014	10:02:43.389	$GPGGA,100242,2430.2411,N,08058.2353,W,1,8,2.3,14,M,,M,,*58
06/14/2014	10:02:44.455	$GPGGA,100243,2430.2407,N,08058.2357,W,1,8,2.3,13,M,,M,,*5D
06/14/2014	10:02:45.468	$GPGGA,100244,2430.2403,N,08058.2363,W,1,8,2.3,13,M,,M,,*59
06/14/2014	10:02:46.502	$GPGGA,100245,2430.2399,N,08058.2368,W,1,8,2.3,13,M,,M,,*57
06/14/2014	10:02:47.505	$GPGGA,100246,2430.2396,N,08058.2375,W,1,8,2.3,13,M,,M,,*57
06/14/2014	10:02:48.550	$GPGGA,100247,2430.2392,N,08058.2381,W,1,8,2.3,13,M,,M,,*59
06/14/2014	10:02:49.594	$GPGGA,100248,2430.2386,N,08058.2386,W,1,8,2.3,13,M,,M,,*54
06/14/2014	10:02:48.584	$GPGGA,100249,2430.2383,N,08058.2392,W,1,8,2.3,13,M,,M,,*55
06/14/2014	10:02:49.587	$GPGGA,100250,2430.2379,N,08058.2395,W,1,8,2.3,12,M,,M,,*5E
06/14/2014	10:02:50.642	$GPGGA,100251,2430.2376,N,08058.2400,W,1,8,2.3,12,M,,M,,*5B
06/14/2014	10:02:51.676	$GPGGA,100252,2430.2374,N,08058.2406,W,1,8,2.3,12,M,,M,,*5C
06/14/2014	10:02:52.721	$GPGGA,100253,2430.2368,N,08058.2413,W,1,8,2.3,12,M,,M,,*54
06/14/2014	10:02:53.724	$GPGGA,100254,2430.2365,N,08058.2417,W,1,8,3.0,12,M,,M,,*58
06/14/2014	10:02:54.778	$GPGGA,100255,2430.2360,N,08058.2421,W,1,8,2.3,12,M,,M,,*5B
06/14/2014	10:02:55.794	$GPGGA,100256,2430.2357,N,08058.2426,W,1,8,3.1,12,M,,M,,*58
06/14/2014	10:02:56.816	$GPGGA,100257,2430.2354,N,08058.2431,W,1,8,2.3,12,M,,M,,*5F
06/14/2014	10:02:57.850	$GPGGA,100258,2430.2352,N,08058.2435,W,1,8,2.3,12,M,,M,,*52
06/14/2014	10:02:58.883	$GPGGA,100259,2430.2349,N,08058.2440,W,1,8,2.3,12,M,,M,,*5B
06/14/2014	10:02:59.948	$GPGGA,100300,2430.2345,N,08058.2447,W,1,8,3.0,12,M,,M,,*5F
06/14/2014	10:03:00.941	$GPGGA,100301,2430.2342,N,08058.2451,W,1,7,3.0,12,M,,M,,*51
06/14/2014	10:03:01.985	$GPGGA,100302,2430.2339,N,08058.2460,W,1,7,2.3,12,M,,M,,*5E
06/14/2014	10:03:03.019	$GPGGA,100303,2430.2335,N,08058.2464,W,1,8,2.3,12,M,,M,,*58
06/14/2014	10:03:04.069	$GPGGA,100304,2430.2332,N,08058.2469,W,1,8,3.1,12,M,,M,,*56
06/14/2014	10:03:05.117	$GPGGA,100305,2430.2328,N,08058.2475,W,1,8,2.3,12,M,,M,,*52
06/14/2014	10:03:06.102	$GPGGA,100306,2430.2327,N,08058.2479,W,1,8,3.1,12,M,,M,,*51
06/14/2014	10:03:07.135	$GPGGA,100307,2430.2323,N,08058.2485,W,1,8,2.3,12,M,,M,,*54
06/14/2014	10:03:08.190	$GPGGA,100308,2430.2319,N,08058.2490,W,1,8,3.0,11,M,,M,,*57
06/14/2014	10:03:09.236	$GPGGA,100309,2430.2316,N,08058.2496,W,1,7,3.0,11,M,,M,,*50
06/14/2014	10:03:10.227	$GPGGA,100310,2430.2311,N,08058.2504,W,1,7,3.0,11,M,,M,,*55
06/14/2014	10:03:11.271	$GPGGA,100311,2430.2306,N,08058.2511,W,1,6,3.5,11,M,,M,,*52
06/14/2014	10:03:12.316	$GPGGA,100312,2430.2301,N,08058.2514,W,1,6,2.3,11,M,,M,,*54
06/14/2014	10:03:13.339	$GPGGA,100313,2430.2298,N,08058.2519,W,1,8,2.3,11,M,,M,,*57
06/14/2014	10:03:14.353	$GPGGA,100314,2430.2294,N,08058.2525,W,1,8,3.1,11,M,,M,,*50
06/14/2014	10:03:15.387	$GPGGA,100315,2430.2292,N,08058.2529,W,1,7,3.1,11,M,,M,,*54
06/14/2014	10:03:16.554	$GPGGA,100316,2430.2289,N,08058.2536,W,1,7,2.3,11,M,,M,,*50
06/14/2014	10:03:17.464	$GPGGA,100317,2430.2287,N,08058.2541,W,1,7,3.0,11,M,,M,,*5D
06/14/2014	10:03:18.592	$GPGGA,100318,2430.2285,N,08058.2545,W,1,7,2.3,11,M,,M,,*56
06/14/2014	10:03:19.646	$GPGGA,100319,2430.2280,N,08058.2551,W,1,8,2.3,11,M,,M,,*58
06/14/2014	10:03:20.556	$GPGGA,100320,2430.2278,N,08058.2555,W,1,8,3.1,11,M,,M,,*52
06/14/2014	10:03:21.601	$GPGGA,100321,2430.2277,N,08058.2561,W,1,8,2.3,11,M,,M,,*58
06/14/2014	10:03:22.707	$GPGGA,100322,2430.2276,N,08058.2568,W,1,8,2.3,11,M,,M,,*53
06/14/2014	10:03:23.741	$GPGGA,100323,2430.2271,N,08058.2572,W,1,8,2.3,11,M,,M,,*5E
06/14/2014	10:03:24.807	$GPGGA,100324,2430.2269,N,08058.2574,W,1,8,3.0,11,M,,M,,*54
06/14/2014	10:03:25.810	$GPGGA,100325,2430.2266,N,08058.2577,W,1,8,2.3,11,M,,M,,*5B
06/14/2014	10:03:26.844	$GPGGA,100326,2430.2267,N,08058.2583,W,1,8,3.1,11,M,,M,,*51
06/14/2014	10:03:27.878	$GPGGA,100327,2430.2262,N,08058.2587,W,1,8,2.3,11,M,,M,,*52
06/14/2014	10:03:28.922	$GPGGA,100328,2430.2259,N,08058.2592,W,1,8,2.3,11,M,,M,,*51
06/14/2014	10:03:29.967	$GPGGA,100329,2430.2258,N,08058.2598,W,1,8,2.3,11,M,,M,,*5B
06/14/2014	10:03:30.980	$GPGGA,100330,2430.2255,N,08058.2603,W,1,8,2.3,11,M,,M,,*5F
06/14/2014	10:03:32.025	$GPGGA,100331,2430.2251,N,08058.2608,W,1,8,2.3,10,M,,M,,*50
06/14/2014	10:03:33.048	$GPGGA,100332,2430.2247,N,08058.2612,W,1,8,2.3,10,M,,M,,*5F
06/14/2014	10:03:34.078	$GPGGA,100333,2430.2243,N,08058.2619,W,1,8,2.3,10,M,,M,,*51
06/14/2014	10:03:35.101	$GPGGA,100334,2430.2238,N,08058.2624,W,1,8,2.3,10,M,,M,,*54
06/14/2014	10:03:36.150	$GPGGA,100335,2430.2233,N,08058.2630,W,1,8,2.3,10,M,,M,,*5B
06/14/2014	10:03:37.173	$GPGGA,100336,2430.2229,N,08058.2635,W,1,8,2.3,10,M,,M,,*56
06/14/2014	10:03:38.218	$GPGGA,100337,2430.2225,N,08058.2641,W,1,8,2.3,10,M,,M,,*58
06/14/2014	10:03:39.231	$GPGGA,100338,2430.2222,N,08058.2646,W,1,8,2.3,10,M,,M,,*57
06/14/2014	10:03:40.276	$GPGGA,100339,2430.2216,N,08058.2652,W,1,8,2.3,9,M,,M,,*6C
06/14/2014	10:03:41.310	$GPGGA,100340,2430.2212,N,08058.2656,W,1,8,2.3,9,M,,M,,*62
06/14/2014	10:03:42.313	$GPGGA,100341,2430.2206,N,08058.2662,W,1,8,2.3,9,M,,M,,*61
06/14/2014	10:03:43.359	$GPGGA,100342,2430.2204,N,08058.2667,W,1,8,3.1,9,M,,M,,*66
06/14/2014	10:03:44.412	$GPGGA,100343,2430.2198,N,08058.2673,W,1,8,2.3,9,M,,M,,*67
06/14/2014	10:03:45.446	$GPGGA,100344,2430.2193,N,08058.2680,W,1,8,2.3,9,M,,M,,*67
06/14/2014	10:03:46.480	$GPGGA,100345,2430.2190,N,08058.2684,W,1,8,2.3,9,M,,M,,*61
06/14/2014	10:03:47.483	$GPGGA,100346,2430.2186,N,08058.2691,W,1,8,2.3,9,M,,M,,*61
06/14/2014	10:03:48.539	$GPGGA,100347,2430.2180,N,08058.2695,W,1,8,2.3,9,M,,M,,*62
06/14/2014	10:03:49.552	$GPGGA,100348,2430.2178,N,08058.2702,W,1,8,3.1,9,M,,M,,*66
06/14/2014	10:03:48.541	$GPGGA,100349,2430.2175,N,08058.2706,W,1,8,2.3,9,M,,M,,*6D
06/14/2014	10:03:49.575	$GPGGA,100350,2430.2171,N,08058.2715,W,1,8,3.1,9,M,,M,,*60
06/14/2014	10:03:50.598	$GPGGA,100351,2430.2168,N,08058.2721,W,1,8,2.3,8,M,,M,,*6C
06/14/2014	10:03:51.652	$GPGGA,100352,2430.2164,N,08058.2728,W,1,8,2.3,8,M,,M,,*6A
06/14/2014	10:03:52.666	$GPGGA,100353,2430.2159,N,08058.2732,W,1,8,2.3,8,M,,M,,*6E
06/14/2014	10:03:53.689	$GPGGA,100354,2430.2155,N,08058.2738,W,1,8,2.3,8,M,,M,,*6F
06/14/2014	10:03:54.735	$GPGGA,100355,2430.2153,N,08058.2743,W,1,8,2.3,8,M,,M,,*64
06/14/2014	10:03:55.778	$GPGGA,100356,2430.2150,N,08058.2749,W,1,8,2.3,8,M,,M,,*6E
06/14/2014	10:03:56.792	$GPGGA,100357,2430.2146,N,08058.2754,W,1,8,2.3,8,M,,M,,*64
06/14/2014	10:03:57.816	$GPGGA,100358,2430.2141,N,08058.2760,W,1,8,2.3,8,M,,M,,*6B
06/14/2014	10:03:58.995	$GPGGA,100359,2430.2139,N,08058.2764,W,1,8,2.3,7,M,,M,,*6E
06/14/2014	10:04:00.038	$GPGGA,100400,2430.2135,N,08058.2768,W,1,8,2.3,7,M,,M,,*65
06/14/2014	10:04:00.928	$GPGGA,100401,2430.2130,N,08058.2775,W,1,8,2.3,7,M,,M,,*6D
06/14/2014	10:04:02.045	$GPGGA,100402,2430.2126,N,08058.2779,W,1,8,3.1,7,M,,M,,*66
06/14/2014	10:04:02.976	$GPGGA,100403,2430.2122,N,08058.2782,W,1,7,3.1,7,M,,M,,*68
06/14/2014	10:04:04.030	$GPGGA,100404,2430.2117,N,08058.2787,W,1,7,2.3,7,M,,M,,*6F
06/14/2014	10:04:05.044	$GPGGA,100405,2430.2117,N,08058.2793,W,1,7,3.0,7,M,,M,,*69
06/14/2014	10:04:06.171	$GPGGA,100406,2430.2113,N,08058.2798,W,1,7,3.1,7,M,,M,,*64
06/14/2014	10:04:07.112	$GPGGA,100407,2430.2111,N,08058.2803,W,1,7,3.1,7,M,,M,,*6A
06/14/2014	10:04:08.282	$GPGGA,100408,2430.2107,N,08058.2808,W,1,7,2.3,7,M,,M,,*6A
06/14/2014	10:04:09.179	$GPGGA,100409,2430.2104,N,08058.2814,W,1,8,2.3,7,M,,M,,*6A
06/14/2014	10:04:10.203	$GPGGA,100410,2430.2101,N,08058.2818,W,1,8,2.3,7,M,,M,,*6B
06/14/2014	10:04:11.361	$GPGGA,100411,2430.2094,N,08058.2823,W,1,8,3.0,6,M,,M,,*6C
06/14/2014	10:04:12.385	$GPGGA,100412,2430.2090,N,08058.2829,W,1,8,2.3,6,M,,M,,*63
06/14/2014	10:04:13.419	$GPGGA,100413,2430.2086,N,08058.2836,W,1,8,2.3,6,M,,M,,*6B
06/14/2014	10:04:14.432	$GPGGA,100414,2430.2082,N,08058.2841,W,1,8,2.3,6,M,,M,,*68
06/14/2014	10:04:15.487	$GPGGA,100415,2430.2077,N,08058.2847,W,1,8,2.3,6,M,,M,,*65
06/14/2014	10:04:16.511	$GPGGA,100416,2430.2072,N,08058.2851,W,1,8,2.3,6,M,,M,,*64
06/14/2014	10:04:17.545	$GPGGA,100417,2430.2070,N,08058.2855,W,1,8,2.3,6,M,,M,,*63
06/14/2014	10:04:18.569	$GPGGA,100418,2430.2063,N,08058.2859,W,1,8,3.0,6,M,,M,,*60
06/14/2014	10:04:19.624	$GPGGA,100419,2430.2058,N,08058.2865,W,1,7,3.0,6,M,,M,,*69
06/14/2014	10:04:20.658	$GPGGA,100420,2430.2053,N,08058.2869,W,1,7,3.0,6,M,,M,,*64
06/14/2014	10:04:21.682	$GPGGA,100421,2430.2052,N,08058.2874,W,1,7,2.3,6,M,,M,,*6A
06/14/2014	10:04:22.705	$GPGGA,100422,2430.2046,N,08058.2880,W,1,7,3.0,6,M,,M,,*65
06/14/2014	10:04:23.739	$GPGGA,100423,2430.2042,N,08058.2887,W,1,7,2.3,6,M,,M,,*65
06/14/2014	10:04:24.773	$GPGGA,100424,2430.2039,N,08058.2891,W,1,7,2.3,7,M,,M,,*68
06/14/2014	10:04:25.818	$GPGGA,100425,2430.2035,N,08058.2897,W,1,8,2.3,7,M,,M,,*6C
06/14/2014	10:04:26.811	$GPGGA,100426,2430.2030,N,08058.2902,W,1,8,3.4,7,M,,M,,*61
06/14/2014	10:04:27.895	$GPGGA,100427,2430.2027,N,08058.2908,W,1,6,3.1,7,M,,M,,*67
06/14/2014	10:04:28.899	$GPGGA,100428,2430.2023,N,08058.2915,W,1,6,3.1,7,M,,M,,*60
06/14/2014	10:04:29.913	$GPGGA,100429,2430.2020,N,08058.2920,W,1,7,2.3,7,M,,M,,*66
06/14/2014	10:04:30.946	$GPGGA,100430,2430.2016,N,08058.2926,W,1,7,2.3,7,M,,M,,*6D
06/14/2014	10:04:32.021	$GPGGA,100431,2430.2013,N,08058.2933,W,1,8,2.3,7,M,,M,,*62
06/14/2014	10:04:33.056	$GPGGA,100432,2430.2007,N,08058.2937,W,1,8,3.4,7,M,,M,,*66
06/14/2014	10:04:34.038	$GPGGA,100433,2430.2003,N,08058.2942,W,1,6,2.3,7,M,,M,,*69
06/14/2014	10:04:35.072	$GPGGA,100434,2430.2000,N,08058.2948,W,1,6,3.1,7,M,,M,,*64
06/14/2014	10:04:36.119	$GPGGA,100435,2430.1996,N,08058.2953,W,1,7,3.1,7,M,,M,,*6B
06/14/2014	10:04:37.163	$GPGGA,100436,2430.1989,N,08058.2956,W,1,7,2.3,8,M,,M,,*6F
06/14/2014	10:04:38.176	$GPGGA,100437,2430.1985,N,08058.2964,W,1,8,3.0,8,M,,M,,*6E
06/14/2014	10:04:39.210	$GPGGA,100438,2430.1983,N,08058.2970,W,1,8,3.1,8,M,,M,,*63
06/14/2014	10:04:40.267	$GPGGA,100439,2430.1982,N,08058.2970,W,1,7,2.3,8,M,,M,,*6F
06/14/2014	10:04:41.297	$GPGGA,100440,2430.1983,N,08058.2975,W,1,7,2.3,8,M,,M,,*65
06/14/2014	10:04:42.331	$GPGGA,100441,2430.1981,N,08058.2980,W,1,8,2.3,8,M,,M,,*63
06/14/2014	10:04:43.346	$GPGGA,100442,2430.1974,N,08058.2988,W,1,8,3.4,8,M,,M,,*64
06/14/2014	10:04:44.390	$GPGGA,100443,2430.1967,N,08058.2993,W,1,6,3.1,8,M,,M,,*66
06/14/2014	10:04:45.434	$GPGGA,100444,2430.1965,N,08058.2999,W,1,6,2.3,9,M,,M,,*6B
06/14/2014	10:04:46.425	$GPGGA,100445,2430.1962,N,08058.3006,W,1,8,2.3,9,M,,M,,*6D
06/14/2014	10:04:47.480	$GPGGA,100446,2430.1958,N,08058.3010,W,1,8,3.0,9,M,,M,,*62
06/14/2014	10:04:48.525	$GPGGA,100447,2430.1954,N,08058.3014,W,1,7,3.0,9,M,,M,,*64
06/14/2014	10:04:49.538	$GPGGA,100448,2430.1951,N,08058.3020,W,1,7,3.0,9,M,,M,,*69
06/14/2014	10:04:48.632	$GPGGA,100449,2430.1946,N,08058.3025,W,1,7,2.3,9,M,,M,,*69
06/14/2014	10:04:49.552	$GPGGA,100450,2430.1941,N,08058.3031,W,1,7,3.0,9,M,,M,,*61
06/14/2014	10:04:50.586	$GPGGA,100451,2430.1942,N,08058.3036,W,1,7,2.3,9,M,,M,,*66
06/14/2014	10:04:51.734	$GPGGA,100452,2430.1941,N,08058.3042,W,1,7,2.3,9,M,,M,,*65
06/14/2014	10:04:52.654	$GPGGA,100453,2430.1935,N,08058.3046,W,1,8,3.0,10,M,,M,,*56
06/14/2014	10:04:53.678	$GPGGA,100454,2430.1931,N,08058.3053,W,1,8,3.0,10,M,,M,,*51
06/14/2014	10:04:54.702	$GPGGA,100455,2430.1927,N,08058.3058,W,1,7,2.3,10,M,,M,,*51
06/14/2014	10:04:55.839	$GPGGA,100456,2430.1922,N,08058.3064,W,1,7,2.3,10,M,,M,,*58
06/14/2014	10:04:56.863	$GPGGA,100457,2430.1917,N,08058.3069,W,1,8,2.3,10,M,,M,,*5D
06/14/2014	10:04:57.814	$GPGGA,100458,2430.1913,N,08058.3075,W,1,8,2.3,10,M,,M,,*5B
06/14/2014	10:04:58.942	$GPGGA,100459,2430.1911,N,08058.3081,W,1,8,2.3,10,M,,M,,*53
06/14/2014	10:04:59.986	$GPGGA,100500,2430.1906,N,08058.3085,W,1,8,2.3,10,M,,M,,*5C
06/14/2014	10:05:01.029	$GPGGA,100501,2430.1901,N,08058.3090,W,1,8,2.3,10,M,,M,,*5E
06/14/2014	10:05:02.033	$GPGGA,100502,2430.1897,N,08058.3096,W,1,8,3.0,10,M,,M,,*57
06/14/2014	10:05:03.053	$GPGGA,100503,2430.1893,N,08058.3101,W,1,8,2.3,10,M,,M,,*5F
06/14/2014	10:05:04.101	$GPGGA,100504,2430.1887,N,08058.3107,W,1,8,2.3,11,M,,M,,*5A
06/14/2014	10:05:05.129	$GPGGA,100505,2430.1886,N,08058.3114,W,1,8,2.3,11,M,,M,,*58
06/14/2014	10:05:06.148	$GPGGA,100506,2430.1882,N,08058.3118,W,1,8,2.3,11,M,,M,,*53
06/14/2014	10:05:07.203	$GPGGA,100507,2430.1879,N,08058.3125,W,1,8,2.3,11,M,,M,,*58
06/14/2014	10:05:08.237	$GPGGA,100508,2430.1875,N,08058.3129,W,1,8,2.3,11,M,,M,,*57
06/14/2014	10:05:09.271	$GPGGA,100509,2430.1870,N,08058.3134,W,1,8,3.0,11,M,,M,,*5D
06/14/2014	10:05:10.283	$GPGGA,100510,2430.1868,N,08058.3140,W,1,8,3.0,11,M,,M,,*5F
06/14/2014	10:05:11.339	$GPGGA,100511,2430.1863,N,08058.3145,W,1,8,3.0,11,M,,M,,*50
06/14/2014	10:05:12.363	$GPGGA,100512,2430.1858,N,08058.3151,W,1,8,3.0,11,M,,M,,*5E
06/14/2014	10:05:13.387	$GPGGA,100513,2430.1857,N,08058.3159,W,1,8,2.3,11,M,,M,,*5A
06/14/2014	10:05:14.401	$GPGGA,100514,2430.1852,N,08058.3165,W,1,8,2.3,11,M,,M,,*57
06/14/2014	10:05:15.466	$GPGGA,100515,2430.1850,N,08058.3172,W,1,7,3.0,11,M,,M,,*5F
06/14/2014	10:05:16.489	$GPGGA,100516,2430.1844,N,08058.3179,W,1,7,2.3,10,M,,M,,*51
06/14/2014	10:05:17.523	$GPGGA,100517,2430.1841,N,08058.3180,W,1,7,3.1,10,M,,M,,*50
06/14/2014	10:05:18.538	$GPGGA,100518,2430.1839,N,08058.3186,W,1,7,2.3,11,M,,M,,*54
06/14/2014	10:05:19.570	$GPGGA,100519,2430.1837,N,08058.3190,W,1,8,2.3,11,M,,M,,*53
06/14/2014	10:05:20.617	$GPGGA,100520,2430.1834,N,08058.3197,W,1,8,2.3,11,M,,M,,*5D
06/14/2014	10:05:21.638	$GPGGA,100521,2430.1830,N,08058.3204,W,1,8,2.3,11,M,,M,,*51
06/14/2014	10:05:22.673	$GPGGA,100522,2430.1828,N,08058.3209,W,1,8,2.3,11,M,,M,,*56
06/14/2014	10:05:23.727	$GPGGA,100523,2430.1824,N,08058.3215,W,1,8,2.3,11,M,,M,,*56
06/14/2014	10:05:24.751	$GPGGA,100524,2430.1821,N,08058.3220,W,1,8,2.3,11,M,,M,,*52
06/14/2014	10:05:25.764	$GPGGA,100525,2430.1816,N,08058.3226,W,1,8,2.3,11,M,,M,,*51
06/14/2014	10:05:26.809	$GPGGA,100526,2430.1814,N,08058.3231,W,1,8,2.3,11,M,,M,,*56
06/14/2014	10:05:27.853	$GPGGA,100527,2430.1811,N,08058.3237,W,1,8,2.3,11,M,,M,,*54
06/14/2014	10:05:28.856	$GPGGA,100528,2430.1806,N,08058.3241,W,1,8,2.3,11,M,,M,,*5C
06/14/2014	10:05:29.880	$GPGGA,100529,2430.1801,N,08058.3246,W,1,7,3.0,11,M,,M,,*50
06/14/2014	10:05:30.935	$GPGGA,100530,2430.1799,N,08058.3252,W,1,7,3.0,11,M,,M,,*53
06/14/2014	10:05:32.072	$GPGGA,100531,2430.1796,N,08058.3259,W,1,7,3.1,11,M,,M,,*57
06/14/2014	10:05:32.992	$GPGGA,100532,2430.1793,N,08058.3264,W,1,7,2.3,11,M,,M,,*5C
06/14/2014	10:05:34.016	$GPGGA,100533,2430.1789,N,08058.3270,W,1,8,2.3,11,M,,M,,*5C
06/14/2014	10:05:35.164	$GPGGA,100534,2430.1785,N,08058.3274,W,1,8,2.3,11,M,,M,,*53
06/14/2014	10:05:36.074	$GPGGA,100535,2430.1781,N,08058.3280,W,1,8,2.3,11,M,,M,,*5D
06/14/2014	10:05:37.247	$GPGGA,100536,2430.1777,N,08058.3287,W,1,8,3.0,11,M,,M,,*52
06/14/2014	10:05:38.153	$GPGGA,100537,2430.1771,N,08058.3291,W,1,8,2.3,11,M,,M,,*50
06/14/2014	10:05:39.165	$GPGGA,100538,2430.1765,N,08058.3295,W,1,8,2.3,11,M,,M,,*5E
06/14/2014	10:05:40.199	$GPGGA,100539,2430.1763,N,08058.3302,W,1,8,2.3,11,M,,M,,*56
06/14/2014	10:05:41.368	$GPGGA,100540,2430.1758,N,08058.3307,W,1,8,2.3,11,M,,M,,*55
06/14/2014	10:05:42.371	$GPGGA,100541,2430.1754,N,08058.3314,W,1,8,2.3,11,M,,M,,*5A
06/14/2014	10:05:43.312	$GPGGA,100542,2430.1750,N,08058.3320,W,1,8,2.3,11,M,,M,,*5A
06/14/2014	10:05:44.439	$GPGGA,100543,2430.1745,N,08058.3324,W,1,8,2.3,11,M,,M,,*5B
06/14/2014	10:05:45.390	$GPGGA,100544,2430.1741,N,08058.3329,W,1,8,2.3,11,M,,M,,*55
06/14/2014	10:05:46.497	$GPGGA,100545,2430.1738,N,08058.3336,W,1,8,2.3,11,M,,M,,*54
06/14/2014	10:05:47.531	$GPGGA,100546,2430.1734,N,08058.3342,W,1,8,2.3,11,M,,M,,*58
06/14/2014	10:05:48.462	$GPGGA,100547,2430.1728,N,08058.3346,W,1,8,2.3,11,M,,M,,*50
06/14/2014	10:05:49.620	$GPGGA,100548,2430.1724,N,08058.3353,W,1,8,2.3,11,M,,M,,*57
06/14/2014	10:05:48.599	$GPGGA,100549,2430.1721,N,08058.3360,W,1,8,2.3,11,M,,M,,*53
06/14/2014	10:05:49.608	$GPGGA,100550,2430.1717,N,08058.3365,W,1,8,2.3,11,M,,M,,*5B
06/14/2014	10:05:50.642	$GPGGA,100551,2430.1712,N,08058.3370,W,1,8,2.3,11,M,,M,,*5B
06/14/2014	10:05:51.635	$GPGGA,100552,2430.1707,N,08058.3374,W,1,8,2.3,11,M,,M,,*58
06/14/2014	10:05:52.649	$GPGGA,100553,2430.1705,N,08058.3379,W,1,8,2.3,11,M,,M,,*56
06/14/2014	10:05:53.652	$GPGGA,100554,2430.1702,N,08058.3385,W,1,8,2.3,11,M,,M,,*55
06/14/2014	10:05:54.676	$GPGGA,100555,2430.1696,N,08058.3390,W,1,8,2.3,11,M,,M,,*5C
06/14/2014	10:05:55.690	$GPGGA,100556,2430.1691,N,08058.3396,W,1,8,2.3,11,M,,M,,*5E
06/14/2014	10:05:56.704	$GPGGA,100557,2430.1687,N,08058.3403,W,1,8,2.3,11,M,,M,,*53
06/14/2014	10:05:57.697	$GPGGA,100558,2430.1682,N,08058.3408,W,1,8,2.3,11,M,,M,,*52
06/14/2014	10:05:58.701	$GPGGA,100559,2430.1677,N,08058.3414,W,1,7,3.0,11,M,,M,,*59
06/14/2014	10:05:59.735	$GPGGA,100600,2430.1673,N,08058.3418,W,1,7,2.3,11,M,,M,,*5C
06/14/2014	10:06:00.749	$GPGGA,100601,2430.1670,N,08058.3422,W,1,8,2.3,11,M,,M,,*58
06/14/2014	10:06:01.745	$GPGGA,100602,2430.1669,N,08058.3428,W,1,8,2.3,11,M,,M,,*59
06/14/2014	10:06:02.777	$GPGGA,100603,2430.1665,N,08058.3433,W,1,8,2.3,11,M,,M,,*5E
06/14/2014	10:06:03.772	$GPGGA,100604,2430.1660,N,08058.3439,W,1,8,2.3,11,M,,M,,*56
06/14/2014	10:06:04.805	$GPGGA,100605,2430.1657,N,08058.3444,W,1,8,2.3,11,M,,M,,*59
06/14/2014	10:06:05.799	$GPGGA,100606,2430.1655,N,08058.3450,W,1,8,2.3,11,M,,M,,*5D
06/14/2014	10:06:06.823	$GPGGA,100607,2430.1651,N,08058.3457,W,1,8,2.3,11,M,,M,,*5F
06/14/2014	10:06:07.836	$GPGGA,100608,2430.1647,N,08058.3461,W,1,8,2.3,11,M,,M,,*52
06/14/2014	10:06:08.820	$GPGGA,100609,2430.1644,N,08058.3465,W,1,8,2.3,10,M,,M,,*55
06/14/2014	10:06:09.844	$GPGGA,100610,2430.1640,N,08058.3470,W,1,8,2.3,10,M,,M,,*5D
06/14/2014	10:06:11.901	$GPGGA,100612,2430.1629,N,08058.3483,W,1,8,2.3,10,M,,M,,*5C
06/14/2014	10:06:12.905	$GPGGA,100613,2430.1624,N,08058.3490,W,1,6,3.4,10,M,,M,,*5A
06/14/2014	10:06:13.888	$GPGGA,100614,2430.1622,N,08058.3493,W,1,6,3.4,10,M,,M,,*58
06/14/2014	10:06:14.923	$GPGGA,100615,2430.1622,N,08058.3498,W,1,8,2.3,10,M,,M,,*5A
06/14/2014	10:06:15.917	$GPGGA,100616,2430.1618,N,08058.3504,W,1,8,3.1,10,M,,M,,*57
06/14/2014	10:06:16.952	$GPGGA,100617,2430.1613,N,08058.3508,W,1,7,3.1,10,M,,M,,*5E
06/14/2014	10:06:17.934	$GPGGA,100618,2430.1610,N,08058.3515,W,1,7,3.0,10,M,,M,,*5F
06/14/2014	10:06:18.978	$GPGGA,100619,2430.1609,N,08058.3517,W,1,7,3.1,10,M,,M,,*55
06/14/2014	10:06:19.973	$GPGGA,100620,2430.1605,N,08058.3524,W,1,7,2.3,10,M,,M,,*50
06/14/2014	10:06:20.955	$GPGGA,100621,2430.1600,N,08058.3530,W,1,8,2.3,10,M,,M,,*5E
06/14/2014	10:06:21.990	$GPGGA,100622,2430.1594,N,08058.3535,W,1,8,2.3,10,M,,M,,*56
06/14/2014	10:06:23.115	$GPGGA,100623,2430.1591,N,08058.3541,W,1,8,2.3,10,M,,M,,*51
06/14/2014	10:06:24.017	$GPGGA,100624,2430.1587,N,08058.3548,W,1,8,2.3,10,M,,M,,*58
06/14/2014	10:06:25.133	$GPGGA,100625,2430.1582,N,08058.3555,W,1,7,3.1,10,M,,M,,*5C
06/14/2014	10:06:26.116	$GPGGA,100626,2430.1579,N,08058.3562,W,1,7,3.1,10,M,,M,,*5F
06/14/2014	10:06:27.140	$GPGGA,100627,2430.1576,N,08058.3567,W,1,7,3.1,10,M,,M,,*54
06/14/2014	10:06:28.154	$GPGGA,100628,2430.1573,N,08058.3573,W,1,7,2.3,10,M,,M,,*58
06/14/2014	10:06:29.197	$GPGGA,100629,2430.1569,N,08058.3580,W,1,8,2.3,10,M,,M,,*51
06/14/2014	10:06:30.079	$GPGGA,100630,2430.1565,N,08058.3587,W,1,8,3.1,10,M,,M,,*51
06/14/2014	10:06:31.083	$GPGGA,100631,2430.1563,N,08058.3595,W,1,7,3.1,10,M,,M,,*5A
06/14/2014	10:06:32.198	$GPGGA,100632,2430.1561,N,08058.3602,W,1,7,3.1,10,M,,M,,*56
06/14/2014	10:06:33.202	$GPGGA,100633,2430.1557,N,08058.3605,W,1,7,3.1,10,M,,M,,*55
06/14/2014	10:06:34.125	$GPGGA,100634,2430.1552,N,08058.3610,W,1,7,2.9,10,M,,M,,*5A
06/14/2014	10:06:35.139	$GPGGA,100635,2430.1553,N,08058.3616,W,1,7,3.1,10,M,,M,,*55
06/14/2014	10:06:36.254	$GPGGA,100636,2430.1550,N,08058.3620,W,1,7,2.3,10,M,,M,,*53
06/14/2014	10:06:37.258	$GPGGA,100637,2430.1547,N,08058.3625,W,1,8,2.3,10,M,,M,,*5E
06/14/2014	10:06:38.170	$GPGGA,100638,2430.1543,N,08058.3631,W,1,8,2.3,10,M,,M,,*50
06/14/2014	10:06:39.296	$GPGGA,100639,2430.1539,N,08058.3635,W,1,7,2.9,10,M,,M,,*5D
06/14/2014	10:06:40.310	$GPGGA,100640,2430.1537,N,08058.3642,W,1,7,2.3,10,M,,M,,*57
06/14/2014	10:06:41.313	$GPGGA,100641,2430.1535,N,08058.3646,W,1,8,2.3,10,M,,M,,*5F
06/14/2014	10:06:42.317	$GPGGA,100642,2430.1532,N,08058.3652,W,1,8,2.3,10,M,,M,,*5E
06/14/2014	10:06:43.341	$GPGGA,100643,2430.1529,N,08058.3660,W,1,8,2.3,10,M,,M,,*54
06/14/2014	10:06:44.356	$GPGGA,100644,2430.1526,N,08058.3663,W,1,8,2.3,10,M,,M,,*5F
06/14/2014	10:06:45.369	$GPGGA,100645,2430.1522,N,08058.3668,W,1,8,2.3,10,M,,M,,*51
06/14/2014	10:06:46.362	$GPGGA,100646,2430.1519,N,08058.3674,W,1,8,2.3,10,M,,M,,*57
06/14/2014	10:06:47.365	$GPGGA,100647,2430.1514,N,08058.3681,W,1,8,2.3,10,M,,M,,*51
06/14/2014	10:06:48.389	$GPGGA,100648,2430.1510,N,08058.3686,W,1,8,3.4,10,M,,M,,*5B
06/14/2014	10:06:48.551	$GPGGA,100649,2430.1507,N,08058.3693,W,1,8,2.3,10,M,,M,,*5E
06/14/2014	10:06:49.556	$GPGGA,100650,2430.1503,N,08058.3700,W,1,8,2.3,10,M,,M,,*59
06/14/2014	10:06:50.589	$GPGGA,100651,2430.1497,N,08058.3707,W,1,8,2.3,10,M,,M,,*53
06/14/2014	10:06:51.590	$GPGGA,100652,2430.1493,N,08058.3714,W,1,8,2.3,9,M,,M,,*6E
06/14/2014	10:06:52.617	$GPGGA,100653,2430.1488,N,08058.3718,W,1,8,2.3,9,M,,M,,*69
06/14/2014	10:06:53.618	$GPGGA,100654,2430.1485,N,08058.3723,W,1,8,2.3,9,M,,M,,*6B
06/14/2014	10:06:54.635	$GPGGA,100655,2430.1481,N,08058.3729,W,1,8,2.3,9,M,,M,,*64
06/14/2014	10:06:55.629	$GPGGA,100656,2430.1478,N,08058.3735,W,1,8,2.3,9,M,,M,,*6C
06/14/2014	10:06:56.642	$GPGGA,100657,2430.1472,N,08058.3740,W,1,8,2.3,9,M,,M,,*65
06/14/2014	10:06:57.657	$GPGGA,100658,2430.1468,N,08058.3746,W,1,8,2.3,9,M,,M,,*67
06/14/2014	10:06:58.671	$GPGGA,100659,2430.1467,N,08058.3754,W,1,8,2.4,9,M,,M,,*6D
06/14/2014	10:06:59.698	$GPGGA,100700,2430.1462,N,08058.3761,W,1,8,2.4,9,M,,M,,*63
06/14/2014	10:07:00.705	$GPGGA,100701,2430.1458,N,08058.3765,W,1,8,2.4,9,M,,M,,*6F
06/14/2014	10:07:01.702	$GPGGA,100702,2430.1456,N,08058.3770,W,1,8,2.4,8,M,,M,,*67
06/14/2014	10:07:02.737	$GPGGA,100703,2430.1452,N,08058.3775,W,1,8,2.4,8,M,,M,,*67
06/14/2014	10:07:03.728	$GPGGA,100704,2430.1449,N,08058.3779,W,1,8,2.4,8,M,,M,,*66
06/14/2014	10:07:04.766	$GPGGA,100705,2430.1445,N,08058.3786,W,1,8,2.4,8,M,,M,,*6B
06/14/2014	10:07:05.736	$GPGGA,100706,2430.1442,N,08058.3791,W,1,8,2.4,8,M,,M,,*69
06/14/2014	10:07:06.740	$GPGGA,100707,2430.1438,N,08058.3797,W,1,8,2.4,8,M,,M,,*63
06/14/2014	10:07:07.916	$GPGGA,100708,2430.1433,N,08058.3801,W,1,8,2.4,8,M,,M,,*67
06/14/2014	10:07:08.767	$GPGGA,100709,2430.1431,N,08058.3806,W,1,8,2.4,7,M,,M,,*6C
06/14/2014	10:07:09.903	$GPGGA,100710,2430.1428,N,08058.3811,W,1,8,2.4,7,M,,M,,*6A
06/14/2014	10:07:10.795	$GPGGA,100711,2430.1422,N,08058.3815,W,1,8,2.4,7,M,,M,,*65
06/14/2014	10:07:11.829	$GPGGA,100712,2430.1418,N,08058.3819,W,1,8,2.9,7,M,,M,,*6E
06/14/2014	10:07:12.823	$GPGGA,100713,2430.1415,N,08058.3826,W,1,8,2.4,7,M,,M,,*63
06/14/2014	10:07:13.928	$GPGGA,100714,2430.1413,N,08058.3830,W,1,8,2.4,7,M,,M,,*65
06/14/2014	10:07:14.871	$GPGGA,100715,2430.1409,N,08058.3835,W,1,8,2.4,7,M,,M,,*6A
06/14/2014	10:07:15.875	$GPGGA,100716,2430.1405,N,08058.3841,W,1,8,2.4,7,M,,M,,*66
06/14/2014	10:07:16.868	$GPGGA,100717,2430.1402,N,08058.3847,W,1,8,2.4,7,M,,M,,*66
06/14/2014	10:07:17.974	$GPGGA,100718,2430.1399,N,08058.3852,W,1,8,2.4,7,M,,M,,*68
06/14/2014	10:07:18.896	$GPGGA,100719,2430.1395,N,08058.3856,W,1,8,2.4,6,M,,M,,*60
06/14/2014	10:07:19.920	$GPGGA,100720,2430.1391,N,08058.3860,W,1,8,2.4,6,M,,M,,*6B
06/14/2014	10:07:21.116	$GPGGA,100721,2430.1385,N,08058.3866,W,1,8,2.9,6,M,,M,,*64
06/14/2014	10:07:21.937	$GPGGA,100722,2430.1384,N,08058.3871,W,1,8,2.9,6,M,,M,,*60
06/14/2014	10:07:23.136	$GPGGA,100723,2430.1381,N,08058.3877,W,1,8,2.4,6,M,,M,,*6F
06/14/2014	10:07:23.965	$GPGGA,100724,2430.1377,N,08058.3883,W,1,8,2.4,6,M,,M,,*6A
06/14/2014	10:07:25.161	$GPGGA,100725,2430.1374,N,08058.3885,W,1,7,2.4,6,M,,M,,*61
06/14/2014	10:07:26.104	$GPGGA,100726,2430.1373,N,08058.3888,W,1,7,2.4,6,M,,M,,*68
06/14/2014	10:07:27.138	$GPGGA,100727,2430.1369,N,08058.3894,W,1,8,3.1,7,M,,M,,*65
06/14/2014	10:07:28.111	$GPGGA,100728,2430.1366,N,08058.3898,W,1,8,3.1,7,M,,M,,*69
06/14/2014	10:07:29.101	$GPGGA,100729,2430.1362,N,08058.3903,W,1,8,2.4,7,M,,M,,*6B
06/14/2014	10:07:30.150	$GPGGA,100730,2430.1360,N,08058.3912,W,1,8,2.4,7,M,,M,,*61
06/14/2014	10:07:31.234	$GPGGA,100731,2430.1356,N,08058.3917,W,1,8,2.4,7,M,,M,,*60
06/14/2014	10:07:32.208	$GPGGA,100732,2430.1352,N,08058.3923,W,1,8,2.4,7,M,,M,,*60
06/14/2014	10:07:33.262	$GPGGA,100733,2430.1349,N,08058.3927,W,1,8,2.4,7,M,,M,,*6F
06/14/2014	10:07:34.172	$GPGGA,100734,2430.1348,N,08058.3932,W,1,8,3.1,7,M,,M,,*69
06/14/2014	10:07:35.239	$GPGGA,100735,2430.1344,N,08058.3935,W,1,7,3.1,7,M,,M,,*6C
06/14/2014	10:07:36.253	$GPGGA,100736,2430.1341,N,08058.3938,W,1,7,2.4,7,M,,M,,*63
06/14/2014	10:07:37.197	$GPGGA,100737,2430.1338,N,08058.3942,W,1,8,2.4,7,M,,M,,*6E
06/14/2014	10:07:38.250	$GPGGA,100738,2430.1335,N,08058.3946,W,1,8,2.4,7,M,,M,,*68
06/14/2014	10:07:39.225	$GPGGA,100739,2430.1331,N,08058.3950,W,1,8,2.4,7,M,,M,,*6A
06/14/2014	10:07:40.288	$GPGGA,100740,2430.1329,N,08058.3954,W,1,8,2.4,7,M,,M,,*69
06/14/2014	10:07:41.352	$GPGGA,100741,2430.1326,N,08058.3960,W,1,8,2.4,8,M,,M,,*6F
06/14/2014	10:07:42.285	$GPGGA,100742,2430.1321,N,08058.3967,W,1,8,2.4,8,M,,M,,*6C
06/14/2014	10:07:43.387	$GPGGA,100743,2430.1317,N,08058.3974,W,1,7,3.1,8,M,,M,,*61
06/14/2014	10:07:44.323	$GPGGA,100744,2430.1315,N,08058.3978,W,1,7,3.1,8,M,,M,,*68
06/14/2014	10:07:45.418	$GPGGA,100745,2430.1311,N,08058.3983,W,1,8,2.4,8,M,,M,,*62
06/14/2014	10:07:46.310	$GPGGA,100746,2430.1308,N,08058.3988,W,1,8,2.4,8,M,,M,,*62
06/14/2014	10:07:47.447	$GPGGA,100747,2430.1303,N,08058.3992,W,1,8,2.4,8,M,,M,,*63
06/14/2014	10:07:48.389	$GPGGA,100748,2430.1301,N,08058.3999,W,1,8,3.1,9,M,,M,,*60
06/14/2014	10:07:48.636	$GPGGA,100749,2430.1299,N,08058.4001,W,1,7,3.1,9,M,,M,,*61
06/14/2014	10:07:49.563	$GPGGA,100750,2430.1294,N,08058.4008,W,1,7,3.1,9,M,,M,,*6D
06/14/2014	10:07:50.618	$GPGGA,100751,2430.1291,N,08058.4014,W,1,7,3.1,9,M,,M,,*64
06/14/2014	10:07:51.591	$GPGGA,100752,2430.1287,N,08058.4021,W,1,7,2.4,9,M,,M,,*62
06/14/2014	10:07:52.554	$GPGGA,100753,2430.1283,N,08058.4025,W,1,8,2.4,9,M,,M,,*6C
06/14/2014	10:07:53.568	$GPGGA,100754,2430.1280,N,08058.4030,W,1,8,2.4,10,M,,M,,*54
06/14/2014	10:07:54.705	$GPGGA,100755,2430.1279,N,08058.4036,W,1,8,2.4,10,M,,M,,*55
06/14/2014	10:07:55.605	$GPGGA,100756,2430.1274,N,08058.4043,W,1,8,2.4,10,M,,M,,*59
06/14/2014	10:07:56.680	$GPGGA,100757,2430.1268,N,08058.4048,W,1,8,2.9,10,M,,M,,*53
06/14/2014	10:07:57.734	$GPGGA,100758,2430.1263,N,08058.4055,W,1,8,2.9,10,M,,M,,*5B
06/14/2014	10:07:58.686	$GPGGA,100759,2430.1261,N,08058.4062,W,1,7,2.4,10,M,,M,,*5E
06/14/2014	10:07:59.701	$GPGGA,100800,2430.1255,N,08058.4069,W,1,7,2.4,10,M,,M,,*51
06/14/2014	10:08:00.745	$GPGGA,100801,2430.1251,N,08058.4075,W,1,8,2.4,10,M,,M,,*56
06/14/2014	10:08:01.711	$GPGGA,100802,2430.1248,N,08058.4080,W,1,8,2.4,10,M,,M,,*57
06/14/2014	10:08:02.682	$GPGGA,100803,2430.1245,N,08058.4086,W,1,7,2.4,10,M,,M,,*52
06/14/2014	10:08:03.747	$GPGGA,100804,2430.1244,N,08058.4091,W,1,7,2.4,10,M,,M,,*52
06/14/2014	10:08:04.791	$GPGGA,100805,2430.1243,N,08058.4098,W,1,8,2.4,10,M,,M,,*52
06/14/2014	10:08:05.825	$GPGGA,100806,2430.1241,N,08058.4105,W,1,8,2.4,10,M,,M,,*56
06/14/2014	10:08:06.839	$GPGGA,100807,2430.1240,N,08058.4112,W,1,8,2.4,10,M,,M,,*50
06/14/2014	10:08:07.782	$GPGGA,100808,2430.1236,N,08058.4119,W,1,8,2.4,10,M,,M,,*55
06/14/2014	10:08:08.867	$GPGGA,100809,2430.1234,N,08058.4124,W,1,8,2.4,10,M,,M,,*58
06/14/2014	10:08:09.781	$GPGGA,100810,2430.1232,N,08058.4129,W,1,8,2.4,10,M,,M,,*5B
06/14/2014	10:08:10.884	$GPGGA,100811,2430.1229,N,08058.4133,W,1,8,2.4,10,M,,M,,*5B
06/14/2014	10:08:11.908	$GPGGA,100812,2430.1225,N,08058.4138,W,1,8,2.9,9,M,,M,,*6A
06/14/2014	10:08:12.901	$GPGGA,100813,2430.1221,N,08058.4145,W,1,7,2.4,9,M,,M,,*67
06/14/2014	10:08:13.915	$GPGGA,100814,2430.1215,N,08058.4151,W,1,7,2.4,9,M,,M,,*62
06/14/2014	10:08:14.980	$GPGGA,100815,2430.1212,N,08058.4158,W,1,8,2.4,9,M,,M,,*62
06/14/2014	10:08:15.933	$GPGGA,100816,2430.1208,N,08058.4165,W,1,8,2.4,9,M,,M,,*64
06/14/2014	10:08:16.957	$GPGGA,100817,2430.1204,N,08058.4169,W,1,8,2.9,9,M,,M,,*68
06/14/2014	10:08:17.960	$GPGGA,100818,2430.1200,N,08058.4173,W,1,8,2.4,9,M,,M,,*65
06/14/2014	10:08:18.995	$GPGGA,100819,2430.1197,N,08058.4177,W,1,8,2.4,9,M,,M,,*6D
06/14/2014	10:08:19.998	$GPGGA,100820,2430.1194,N,08058.4183,W,1,8,2.4,9,M,,M,,*6F
06/14/2014	10:08:21.022	$GPGGA,100821,2430.1190,N,08058.4188,W,1,8,3.1,9,M,,M,,*65
06/14/2014	10:08:22.016	$GPGGA,100822,2430.1190,N,08058.4188,W,1,8,3.1,9,M,,M,,*66
06/14/2014	10:08:23.040	$GPGGA,100823,2430.1182,N,08058.4198,W,1,8,2.4,9,M,,M,,*61
06/14/2014	10:08:24.042	$GPGGA,100824,2430.1178,N,08058.4203,W,1,8,2.9,9,M,,M,,*6F
06/14/2014	10:08:25.078	$GPGGA,100825,2430.1178,N,08058.4212,W,1,7,2.4,9,M,,M,,*6C
06/14/2014	10:08:26.077	$GPGGA,100826,2430.1174,N,08058.4216,W,1,7,2.9,9,M,,M,,*6A
06/14/2014	10:08:27.092	$GPGGA,100827,2430.1172,N,08058.4221,W,1,7,2.4,9,M,,M,,*64
06/14/2014	10:08:28.115	$GPGGA,100828,2430.1172,N,08058.4221,W,1,7,2.4,9,M,,M,,*6B
06/14/2014	10:08:29.134	$GPGGA,100829,2430.1162,N,08058.4230,W,1,8,2.4,9,M,,M,,*64
06/14/2014	10:08:30.102	$GPGGA,100830,2430.1158,N,08058.4236,W,1,8,3.1,9,M,,M,,*67
06/14/2014	10:08:31.140	$GPGGA,100831,2430.1158,N,08058.4236,W,1,7,3.1,9,M,,M,,*69
06/14/2014	10:08:32.140	$GPGGA,100832,2430.1147,N,08058.4252,W,1,7,2.4,10,M,,M,,*5A
06/14/2014	10:08:33.168	$GPGGA,100833,2430.1143,N,08058.4257,W,1,8,2.4,10,M,,M,,*55
06/14/2014	10:08:34.166	$GPGGA,100834,2430.1139,N,08058.4263,W,1,8,2.9,10,M,,M,,*55
06/14/2014	10:08:35.201	$GPGGA,100835,2430.1138,N,08058.4267,W,1,7,3.1,10,M,,M,,*57
06/14/2014	10:08:36.196	$GPGGA,100836,2430.1136,N,08058.4270,W,1,7,3.1,10,M,,M,,*5C
06/14/2014	10:08:37.224	$GPGGA,100837,2430.1136,N,08058.4270,W,1,7,3.1,10,M,,M,,*5D
06/14/2014	10:08:38.211	$GPGGA,100838,2430.1131,N,08058.4278,W,1,7,2.4,10,M,,M,,*59
06/14/2014	10:08:39.272	$GPGGA,100839,2430.1128,N,08058.4285,W,1,8,2.4,10,M,,M,,*5D
06/14/2014	10:08:40.225	$GPGGA,100840,2430.1128,N,08058.4285,W,1,8,2.4,10,M,,M,,*53
06/14/2014	10:08:41.299	$GPGGA,100841,2430.1120,N,08058.4297,W,1,7,3.1,10,M,,M,,*52
06/14/2014	10:08:42.242	$GPGGA,100842,2430.1117,N,08058.4303,W,1,7,3.1,10,M,,M,,*59
06/14/2014	10:08:43.327	$GPGGA,100843,2430.1117,N,08058.4307,W,1,7,2.4,10,M,,M,,*58
06/14/2014	10:08:44.394	$GPGGA,100844,2430.1115,N,08058.4311,W,1,7,2.4,10,M,,M,,*5A
06/14/2014	10:08:45.398	$GPGGA,100845,2430.1113,N,08058.4317,W,1,8,2.4,10,M,,M,,*54
06/14/2014	10:08:46.288	$GPGGA,100846,2430.1110,N,08058.4324,W,1,8,2.4,10,M,,M,,*54
06/14/2014	10:08:47.363	$GPGGA,100847,2430.1106,N,08058.4329,W,1,7,3.1,10,M,,M,,*54
06/14/2014	10:08:48.436	$GPGGA,100848,2430.1102,N,08058.4337,W,1,7,3.1,10,M,,M,,*50
06/14/2014	10:08:48.508	$GPGGA,100849,2430.1102,N,08058.4337,W,1,8,2.4,10,M,,M,,*5A
06/14/2014	10:08:49.500	$GPGGA,100850,2430.1092,N,08058.4350,W,1,8,2.4,10,M,,M,,*5B
06/14/2014	10:08:50.646	$GPGGA,100851,2430.1088,N,08058.4355,W,1,8,2.4,10,M,,M,,*54
06/14/2014	10:08:51.548	$GPGGA,100852,2430.1084,N,08058.4361,W,1,8,2.4,10,M,,M,,*5C
06/14/2014	10:08:52.653	$GPGGA,100853,2430.1081,N,08058.4365,W,1,8,2.4,10,M,,M,,*5C
06/14/2014	10:08:53.647	$GPGGA,100854,2430.1078,N,08058.4371,W,1,8,2.4,10,M,,M,,*58
06/14/2014	10:08:54.570	$GPGGA,100855,2430.1078,N,08058.4371,W,1,8,2.4,10,M,,M,,*59
06/14/2014	10:08:55.695	$GPGGA,100856,2430.1070,N,08058.4383,W,1,8,2.4,10,M,,M,,*5F
06/14/2014	10:08:56.699	$GPGGA,100857,2430.1066,N,08058.4389,W,1,8,2.4,10,M,,M,,*53
06/14/2014	10:08:57.713	$GPGGA,100858,2430.1062,N,08058.4395,W,1,8,2.4,10,M,,M,,*55
06/14/2014	10:08:58.717	$GPGGA,100859,2430.1059,N,08058.4400,W,1,8,2.4,10,M,,M,,*57
06/14/2014	10:08:59.730	$GPGGA,100900,2430.1055,N,08058.4405,W,1,8,2.4,10,M,,M,,*53
06/14/2014	10:09:00.765	$GPGGA,100901,2430.1051,N,08058.4411,W,1,8,2.4,10,M,,M,,*53
06/14/2014	10:09:01.738	$GPGGA,100902,2430.1048,N,08058.4415,W,1,8,2.4,10,M,,M,,*5C
06/14/2014	10:09:02.792	$GPGGA,100903,2430.1044,N,08058.4420,W,1,8,2.4,10,M,,M,,*57
06/14/2014	10:09:03.786	$GPGGA,100904,2430.1038,N,08058.4426,W,1,8,2.4,10,M,,M,,*5D
06/14/2014	10:09:04.800	$GPGGA,100905,2430.1034,N,08058.4431,W,1,8,2.4,10,M,,M,,*56
06/14/2014	10:09:05.793	$GPGGA,100906,2430.1031,N,08058.4436,W,1,8,2.4,10,M,,M,,*57
06/14/2014	10:09:06.817	$GPGGA,100907,2430.1027,N,08058.4441,W,1,8,2.4,11,M,,M,,*50
06/14/2014	10:09:09.088	$GPGGA,100908,2430.1022,N,08058.4447,W,1,8,2.4,11,M,,M,,*5C
06/14/2014	10:09:09.115	$GPGGA,100909,2430.1022,N,08058.4447,W,1,8,2.4,11,M,,M,,*5D
06/14/2014	10:09:09.831	$GPGGA,100910,2430.1016,N,08058.4456,W,1,8,2.4,11,M,,M,,*52
06/14/2014	10:09:10.843	$GPGGA,100911,2430.1012,N,08058.4462,W,1,8,2.4,11,M,,M,,*50
06/14/2014	10:09:11.876	$GPGGA,100912,2430.1006,N,08058.4466,W,1,8,2.4,11,M,,M,,*52
06/14/2014	10:09:12.910	$GPGGA,100913,2430.1003,N,08058.4473,W,1,8,2.4,11,M,,M,,*52
06/14/2014	10:09:13.892	$GPGGA,100914,2430.1001,N,08058.4478,W,1,8,2.4,11,M,,M,,*5C
06/14/2014	10:09:14.918	$GPGGA,100915,2430.0997,N,08058.4484,W,1,8,2.4,11,M,,M,,*59
06/14/2014	10:09:15.915	$GPGGA,100916,2430.0992,N,08058.4488,W,1,8,2.4,11,M,,M,,*53
06/14/2014	10:09:16.915	$GPGGA,100917,2430.0990,N,08058.4494,W,1,8,2.4,11,M,,M,,*5D
06/14/2014	10:09:17.929	$GPGGA,100918,2430.0985,N,08058.4499,W,1,8,2.4,11,M,,M,,*5B
06/14/2014	10:09:18.983	$GPGGA,100919,2430.0981,N,08058.4505,W,1,8,2.4,11,M,,M,,*5A
06/14/2014	10:09:19.972	$GPGGA,100920,2430.0976,N,08058.4509,W,1,8,2.4,11,M,,M,,*54
06/14/2014	10:09:20.962	$GPGGA,100921,2430.0975,N,08058.4516,W,1,7,2.8,11,M,,M,,*5B
06/14/2014	10:09:21.974	$GPGGA,100922,2430.0974,N,08058.4521,W,1,7,2.4,11,M,,M,,*51
06/14/2014	10:09:22.997	$GPGGA,100923,2430.0972,N,08058.4527,W,1,8,2.4,11,M,,M,,*5F
06/14/2014	10:09:24.011	$GPGGA,100924,2430.0969,N,08058.4531,W,1,8,2.4,11,M,,M,,*55
06/14/2014	10:09:25.005	$GPGGA,100925,2430.0966,N,08058.4537,W,1,8,2.4,11,M,,M,,*5D
06/14/2014	10:09:26.019	$GPGGA,100926,2430.0963,N,08058.4542,W,1,8,2.4,11,M,,M,,*59
06/14/2014	10:09:27.033	$GPGGA,100927,2430.0961,N,08058.4548,W,1,8,2.4,11,M,,M,,*50
06/14/2014	10:09:28.104	$GPGGA,100928,2430.0955,N,08058.4553,W,1,8,2.4,11,M,,M,,*52
06/14/2014	10:09:29.071	$GPGGA,100929,2430.0952,N,08058.4560,W,1,8,2.4,11,M,,M,,*54
06/14/2014	10:09:30.074	$GPGGA,100930,2430.0950,N,08058.4566,W,1,8,2.4,11,M,,M,,*58
06/14/2014	10:09:31.078	$GPGGA,100931,2430.0947,N,08058.4570,W,1,8,2.4,11,M,,M,,*58
06/14/2014	10:09:32.224	$GPGGA,100932,2430.0943,N,08058.4575,W,1,8,2.4,11,M,,M,,*5A
06/14/2014	10:09:33.106	$GPGGA,100933,2430.0940,N,08058.4581,W,1,8,2.4,10,M,,M,,*52
06/14/2014	10:09:34.140	$GPGGA,100934,2430.0938,N,08058.4586,W,1,8,2.4,10,M,,M,,*5D
06/14/2014	10:09:35.144	$GPGGA,100935,2430.0933,N,08058.4592,W,1,7,3.1,10,M,,M,,*59
06/14/2014	10:09:36.269	$GPGGA,100936,2430.0929,N,08058.4599,W,1,7,2.4,10,M,,M,,*5E
06/14/2014	10:09:37.253	$GPGGA,100937,2430.0926,N,08058.4603,W,1,8,2.4,10,M,,M,,*5F
06/14/2014	10:09:38.176	$GPGGA,100938,2430.0925,N,08058.4607,W,1,8,2.4,10,M,,M,,*57
06/14/2014	10:09:39.312	$GPGGA,100939,2430.0920,N,08058.4611,W,1,8,2.4,10,M,,M,,*54
06/14/2014	10:09:40.203	$GPGGA,100940,2430.0918,N,08058.4614,W,1,8,2.4,10,M,,M,,*54
06/14/2014	10:09:41.206	$GPGGA,100941,2430.0916,N,08058.4618,W,1,8,2.4,10,M,,M,,*57
06/14/2014	10:09:42.321	$GPGGA,100942,2430.0914,N,08058.4624,W,1,8,2.4,10,M,,M,,*59
06/14/2014	10:09:43.346	$GPGGA,100943,2430.0909,N,08058.4631,W,1,8,2.4,10,M,,M,,*50
06/14/2014	10:09:44.258	$GPGGA,100944,2430.0905,N,08058.4637,W,1,8,3.1,10,M,,M,,*59
06/14/2014	10:09:45.353	$GPGGA,100945,2430.0902,N,08058.4643,W,1,7,3.1,10,M,,M,,*53
06/14/2014	10:09:46.368	$GPGGA,100946,2430.0900,N,08058.4649,W,1,7,3.1,10,M,,M,,*58
06/14/2014	10:09:47.391	$GPGGA,100947,2430.0897,N,08058.4653,W,1,8,2.4,10,M,,M,,*56
06/14/2014	10:09:48.405	$GPGGA,100948,2430.0894,N,08058.4660,W,1,8,2.4,10,M,,M,,*5A
06/14/2014	10:09:48.576	$GPGGA,100949,2430.0891,N,08058.4664,W,1,7,3.1,10,M,,M,,*51
06/14/2014	10:09:49.579	$GPGGA,100950,2430.0886,N,08058.4669,W,1,7,2.4,10,M,,M,,*56
06/14/2014	10:09:50.603	$GPGGA,100951,2430.0882,N,08058.4675,W,1,7,2.8,10,M,,M,,*52
06/14/2014	10:09:51.617	$GPGGA,100952,2430.0876,N,08058.4682,W,1,7,2.4,10,M,,M,,*5E
06/14/2014	10:09:52.662	$GPGGA,100953,2430.0871,N,08058.4689,W,1,8,2.4,10,M,,M,,*5C
06/14/2014	10:09:53.635	$GPGGA,100954,2430.0867,N,08058.4696,W,1,8,3.1,10,M,,M,,*56
06/14/2014	10:09:54.649	$GPGGA,100955,2430.0867,N,08058.4700,W,1,6,3.3,10,M,,M,,*55
06/14/2014	10:09:55.673	$GPGGA,100956,2430.0865,N,08058.4707,W,1,6,2.4,10,M,,M,,*55
06/14/2014	10:09:56.677	$GPGGA,100957,2430.0863,N,08058.4711,W,1,8,2.4,10,M,,M,,*5B
06/14/2014	10:09:57.663	$GPGGA,100958,2430.0861,N,08058.4716,W,1,8,2.4,10,M,,M,,*51
06/14/2014	10:09:58.693	$GPGGA,100959,2430.0856,N,08058.4720,W,1,8,2.4,10,M,,M,,*51
06/14/2014	10:09:59.717	$GPGGA,101000,2430.0853,N,08058.4726,W,1,8,2.8,10,M,,M,,*5A
06/14/2014	10:10:00.741	$GPGGA,101001,2430.0849,N,08058.4733,W,1,8,2.4,10,M,,M,,*58
06/14/2014	10:10:01.722	$GPGGA,101002,2430.0843,N,08058.4738,W,1,8,2.4,10,M,,M,,*5A
06/14/2014	10:10:02.749	$GPGGA,101003,2430.0838,N,08058.4743,W,1,8,2.4,10,M,,M,,*5B
06/14/2014	10:10:03.745	$GPGGA,101004,2430.0835,N,08058.4749,W,1,8,2.4,10,M,,M,,*5B
06/14/2014	10:10:04.746	$GPGGA,101005,2430.0832,N,08058.4756,W,1,8,2.4,10,M,,M,,*53
06/14/2014	10:10:05.765	$GPGGA,101006,2430.0827,N,08058.4762,W,1,8,2.4,10,M,,M,,*53
06/14/2014	10:10:06.804	$GPGGA,101007,2430.0822,N,08058.4767,W,1,7,2.8,10,M,,M,,*51
06/14/2014	10:10:07.808	$GPGGA,101008,2430.0820,N,08058.4774,W,1,7,2.4,10,M,,M,,*52
06/14/2014	10:10:08.819	$GPGGA,101009,2430.0817,N,08058.4780,W,1,8,2.4,10,M,,M,,*53
06/14/2014	10:10:09.830	$GPGGA,101010,2430.0813,N,08058.4787,W,1,8,2.4,10,M,,M,,*58
06/14/2014	10:10:10.850	$GPGGA,101011,2430.0806,N,08058.4792,W,1,8,2.4,10,M,,M,,*59
06/14/2014	10:10:11.844	$GPGGA,101012,2430.0802,N,08058.4798,W,1,8,2.4,10,M,,M,,*54
06/14/2014	10:10:12.878	$GPGGA,101013,2430.0797,N,08058.4805,W,1,7,2.8,10,M,,M,,*5E
06/14/2014	10:10:13.852	$GPGGA,101014,2430.0795,N,08058.4809,W,1,7,2.8,10,M,,M,,*57
06/14/2014	10:10:14.878	$GPGGA,101015,2430.0793,N,08058.4816,W,1,8,2.4,10,M,,M,,*5D
06/14/2014	10:10:15.898	$GPGGA,101016,2430.0788,N,08058.4820,W,1,8,2.4,10,M,,M,,*51
06/14/2014	10:10:16.893	$GPGGA,101017,2430.0782,N,08058.4827,W,1,7,2.8,10,M,,M,,*5E
06/14/2014	10:10:18.017	$GPGGA,101018,2430.0777,N,08058.4832,W,1,7,2.8,10,M,,M,,*5F
06/14/2014	10:10:18.909	$GPGGA,101019,2430.0773,N,08058.4838,W,1,8,2.4,10,M,,M,,*53
06/14/2014	10:10:20.062	$GPGGA,101020,2430.0767,N,08058.4844,W,1,8,2.4,10,M,,M,,*57
06/14/2014	10:10:20.968	$GPGGA,101021,2430.0763,N,08058.4849,W,1,8,2.4,10,M,,M,,*5F
06/14/2014	10:10:21.951	$GPGGA,101022,2430.0759,N,08058.4855,W,1,8,2.4,10,M,,M,,*58
06/14/2014	10:10:23.087	$GPGGA,101023,2430.0755,N,08058.4859,W,1,8,2.4,10,M,,M,,*59
06/14/2014	10:10:23.989	$GPGGA,101024,2430.0750,N,08058.4866,W,1,8,2.4,10,M,,M,,*57
06/14/2014	10:10:24.983	$GPGGA,101025,2430.0746,N,08058.4870,W,1,8,2.4,10,M,,M,,*56
06/14/2014	10:10:26.118	$GPGGA,101026,2430.0741,N,08058.4875,W,1,8,2.4,10,M,,M,,*57
06/14/2014	10:10:27.102	$GPGGA,101027,2430.0737,N,08058.4881,W,1,7,2.8,10,M,,M,,*5F
06/14/2014	10:10:28.136	$GPGGA,101028,2430.0734,N,08058.4886,W,1,7,2.8,10,M,,M,,*54
06/14/2014	10:10:29.038	$GPGGA,101029,2430.0730,N,08058.4892,W,1,8,2.4,10,M,,M,,*57
06/14/2014	10:10:30.143	$GPGGA,101030,2430.0726,N,08058.4897,W,1,8,2.4,10,M,,M,,*5D
06/14/2014	10:10:31.056	$GPGGA,101031,2430.0723,N,08058.4903,W,1,8,2.4,10,M,,M,,*55
06/14/2014	10:10:32.181	$GPGGA,101032,2430.0720,N,08058.4908,W,1,8,2.4,10,M,,M,,*5E
06/14/2014	10:10:33.174	$GPGGA,101033,2430.0719,N,08058.4914,W,1,8,2.4,10,M,,M,,*58
06/14/2014	10:10:34.188	$GPGGA,101034,2430.0716,N,08058.4920,W,1,8,2.4,10,M,,M,,*57
06/14/2014	10:10:35.195	$GPGGA,101035,2430.0712,N,08058.4924,W,1,7,3.1,10,M,,M,,*5D
06/14/2014	10:10:36.226	$GPGGA,101036,2430.0709,N,08058.4928,W,1,7,2.4,10,M,,M,,*5C
06/14/2014	10:10:37.219	$GPGGA,101037,2430.0708,N,08058.4933,W,1,8,2.4,10,M,,M,,*59
06/14/2014	10:10:38.233	$GPGGA,101038,2430.0704,N,08058.4939,W,1,8,2.4,10,M,,M,,*50
06/14/2014	10:10:39.247	$GPGGA,101039,2430.0701,N,08058.4943,W,1,8,2.4,10,M,,M,,*59
06/14/2014	10:10:40.271	$GPGGA,101040,2430.0697,N,08058.4949,W,1,8,2.4,10,M,,M,,*53
06/14/2014	10:10:41.285	$GPGGA,101041,2430.0694,N,08058.4957,W,1,8,2.4,10,M,,M,,*5E
06/14/2014	10:10:42.289	$GPGGA,101042,2430.0690,N,08058.4961,W,1,8,3.1,10,M,,M,,*58
06/14/2014	10:10:43.313	$GPGGA,101043,2430.0686,N,08058.4968,W,1,7,3.1,10,M,,M,,*58
06/14/2014	10:10:44.327	$GPGGA,101044,2430.0683,N,08058.4973,W,1,7,2.4,10,M,,M,,*54
06/14/2014	10:10:45.341	$GPGGA,101045,2430.0680,N,08058.4979,W,1,8,2.4,10,M,,M,,*53
06/14/2014	10:10:46.334	$GPGGA,101046,2430.0676,N,08058.4986,W,1,8,3.1,10,M,,M,,*5D
06/14/2014	10:10:47.369	$GPGGA,101047,2430.0672,N,08058.4990,W,1,8,2.4,10,M,,M,,*5B
06/14/2014	10:10:48.362	$GPGGA,101048,2430.0669,N,08058.4996,W,1,8,2.4,10,M,,M,,*58
06/14/2014	10:10:48.564	$GPGGA,101049,2430.0667,N,08058.5004,W,1,8,2.4,10,M,,M,,*54
06/14/2014	10:10:49.543	$GPGGA,101050,2430.0663,N,08058.5007,W,1,8,2.4,10,M,,M,,*5B
06/14/2014	10:10:50.579	$GPGGA,101051,2430.0658,N,08058.5012,W,1,8,2.4,10,M,,M,,*56
06/14/2014	10:10:51.575	$GPGGA,101052,2430.0655,N,08058.5018,W,1,8,2.4,10,M,,M,,*52
06/14/2014	10:10:52.551	$GPGGA,101053,2430.0654,N,08058.5022,W,1,8,2.4,10,M,,M,,*5B
06/14/2014	10:10:53.558	$GPGGA,101054,2430.0649,N,08058.5026,W,1,8,2.4,10,M,,M,,*54
06/14/2014	10:10:54.595	$GPGGA,101055,2430.0645,N,08058.5032,W,1,8,2.4,10,M,,M,,*5C
06/14/2014	10:10:55.591	$GPGGA,101056,2430.0640,N,08058.5036,W,1,8,2.4,10,M,,M,,*5E
06/14/2014	10:10:56.568	$GPGGA,101057,2430.0637,N,08058.5043,W,1,8,2.4,10,M,,M,,*5D
06/14/2014	10:10:57.584	$GPGGA,101058,2430.0633,N,08058.5048,W,1,8,2.4,10,M,,M,,*5D
06/14/2014	10:10:58.611	$GPGGA,101059,2430.0629,N,08058.5054,W,1,8,2.4,10,M,,M,,*5A
06/14/2014	10:10:59.618	$GPGGA,101100,2430.0626,N,08058.5058,W,1,8,2.4,10,M,,M,,*54
06/14/2014	10:11:00.596	$GPGGA,101101,2430.0623,N,08058.5062,W,1,8,2.4,10,M,,M,,*59
06/14/2014	10:11:01.601	$GPGGA,101102,2430.0620,N,08058.5068,W,1,8,2.4,10,M,,M,,*53
06/14/2014	10:11:02.628	$GPGGA,101103,2430.0616,N,08058.5072,W,1,8,2.4,10,M,,M,,*5C
06/14/2014	10:11:03.624	$GPGGA,101104,2430.0613,N,08058.5079,W,1,8,2.4,10,M,,M,,*55
06/14/2014	10:11:04.600	$GPGGA,101105,2430.0607,N,08058.5084,W,1,8,2.4,10,M,,M,,*53
06/14/2014	10:11:05.729	$GPGGA,101106,2430.0603,N,08058.5090,W,1,8,2.8,10,M,,M,,*5D
06/14/2014	10:11:06.624	$GPGGA,101107,2430.0600,N,08058.5094,W,1,7,2.8,10,M,,M,,*54
06/14/2014	10:11:07.649	$GPGGA,101108,2430.0596,N,08058.5099,W,1,7,2.4,10,M,,M,,*56
06/14/2014	10:11:08.626	$GPGGA,101109,2430.0592,N,08058.5103,W,1,7,2.8,10,M,,M,,*5D
06/14/2014	10:11:09.632	$GPGGA,101110,2430.0589,N,08058.5109,W,1,7,2.4,10,M,,M,,*59
06/14/2014	10:11:10.629	$GPGGA,101111,2430.0586,N,08058.5116,W,1,8,2.4,11,M,,M,,*57
06/14/2014	10:11:11.781	$GPGGA,101112,2430.0583,N,08058.5123,W,1,8,2.4,11,M,,M,,*57
06/14/2014	10:11:12.642	$GPGGA,101113,2430.0579,N,08058.5127,W,1,8,2.4,11,M,,M,,*57
06/14/2014	10:11:13.749	$GPGGA,101114,2430.0578,N,08058.5134,W,1,8,2.4,11,M,,M,,*53
06/14/2014	10:11:14.665	$GPGGA,101115,2430.0574,N,08058.5138,W,1,8,2.4,11,M,,M,,*52
06/14/2014	10:11:15.763	$GPGGA,101116,2430.0571,N,08058.5142,W,1,8,2.4,11,M,,M,,*59
06/14/2014	10:11:16.759	$GPGGA,101117,2430.0567,N,08058.5146,W,1,8,2.4,10,M,,M,,*5A
06/14/2014	10:11:17.776	$GPGGA,101118,2430.0564,N,08058.5152,W,1,8,2.8,10,M,,M,,*5F
06/14/2014	10:11:18.772	$GPGGA,101119,2430.0560,N,08058.5159,W,1,8,2.4,10,M,,M,,*5D
06/14/2014	10:11:19.799	$GPGGA,101120,2430.0555,N,08058.5164,W,1,8,2.4,10,M,,M,,*5F
06/14/2014	10:11:20.786	$GPGGA,101121,2430.0551,N,08058.5170,W,1,7,2.8,10,M,,M,,*5C
06/14/2014	10:11:21.792	$GPGGA,101122,2430.0546,N,08058.5175,W,1,7,2.4,10,M,,M,,*50
06/14/2014	10:11:22.809	$GPGGA,101123,2430.0542,N,08058.5181,W,1,8,2.4,10,M,,M,,*51
06/14/2014	10:11:23.815	$GPGGA,101124,2430.0539,N,08058.5185,W,1,8,2.4,10,M,,M,,*5E
06/14/2014	10:11:24.823	$GPGGA,101125,2430.0536,N,08058.5191,W,1,8,2.4,10,M,,M,,*55
06/14/2014	10:11:25.808	$GPGGA,101126,2430.0532,N,08058.5195,W,1,8,2.4,10,M,,M,,*56
06/14/2014	10:11:26.824	$GPGGA,101127,2430.0528,N,08058.5202,W,1,8,2.4,10,M,,M,,*51
06/14/2014	10:11:27.831	$GPGGA,101128,2430.0524,N,08058.5207,W,1,8,2.4,10,M,,M,,*57
06/14/2014	10:11:28.837	$GPGGA,101129,2430.0520,N,08058.5213,W,1,8,2.4,10,M,,M,,*57
06/14/2014	10:11:29.824	$GPGGA,101130,2430.0517,N,08058.5217,W,1,8,2.4,10,M,,M,,*5F
06/14/2014	10:11:30.851	$GPGGA,101131,2430.0513,N,08058.5222,W,1,8,2.4,10,M,,M,,*5C
06/14/2014	10:11:31.847	$GPGGA,101132,2430.0510,N,08058.5228,W,1,8,2.4,10,M,,M,,*56
06/14/2014	10:11:32.854	$GPGGA,101133,2430.0506,N,08058.5232,W,1,8,2.4,10,M,,M,,*5B
06/14/2014	10:11:33.840	$GPGGA,101134,2430.0503,N,08058.5238,W,1,8,2.4,10,M,,M,,*53
06/14/2014	10:11:34.867	$GPGGA,101135,2430.0500,N,08058.5245,W,1,8,2.4,10,M,,M,,*5B
06/14/2014	10:11:35.863	$GPGGA,101136,2430.0496,N,08058.5250,W,1,8,2.4,10,M,,M,,*52
06/14/2014	10:11:36.880	$GPGGA,101137,2430.0491,N,08058.5254,W,1,8,2.4,10,M,,M,,*50
06/14/2014	10:11:37.867	$GPGGA,101138,2430.0488,N,08058.5260,W,1,8,2.4,10,M,,M,,*50
06/14/2014	10:11:38.893	$GPGGA,101139,2430.0486,N,08058.5264,W,1,8,2.4,10,M,,M,,*5B
06/14/2014	10:11:39.880	$GPGGA,101140,2430.0480,N,08058.5268,W,1,8,2.4,10,M,,M,,*5F
06/14/2014	10:11:40.886	$GPGGA,101141,2430.0475,N,08058.5274,W,1,7,2.8,10,M,,M,,*5A
06/14/2014	10:11:41.883	$GPGGA,101142,2430.0471,N,08058.5279,W,1,7,2.4,10,M,,M,,*5C
06/14/2014	10:11:42.909	$GPGGA,101143,2430.0468,N,08058.5285,W,1,8,2.4,11,M,,M,,*58
06/14/2014	10:11:43.895	$GPGGA,101144,2430.0462,N,08058.5290,W,1,8,2.4,11,M,,M,,*51
06/14/2014	10:11:44.882	$GPGGA,101145,2430.0459,N,08058.5296,W,1,8,2.4,11,M,,M,,*5E
06/14/2014	10:11:45.899	$GPGGA,101146,2430.0455,N,08058.5300,W,1,8,2.4,11,M,,M,,*5F
06/14/2014	10:11:46.925	$GPGGA,101147,2430.0452,N,08058.5304,W,1,8,2.4,11,M,,M,,*5D
06/14/2014	10:11:47.911	$GPGGA,101148,2430.0448,N,08058.5309,W,1,8,2.4,11,M,,M,,*54
06/14/2014	10:11:48.527	$GPGGA,101149,2430.0442,N,08058.5315,W,1,7,2.8,11,M,,M,,*51
