Software Version Number: 1	Data File Format Number: 1	Build Version Number: 1	Error Count Since VI Started: 0	Manufacturer: Raytheon	 Model Number: RayMarine 120	 S/N: 	 Cal Date: 	 Wind Direction Offset: 0.00	 Slope (M)1: 0.00	 Offset (B)1: 0.00	 Slope (M)2: 0.00	 Offset (B)2: 0.00	 Slope (M)3: 0.00	 Offset (B)3: 0.00	 Slope (M)4: 0.00	 Offset (B)4: 0.00	 Slope (M)5: 0.00	 Offset (B)5: 0.00	 Slope (M)6: 0.00	 Offset (B)6: 0.00
Computer Date	Computer Time	GGA String
06/06/2014	05:00:00.702	$GPGGA,050001,2441.1080,N,08107.5708,W,1,9,1.9,17,M,,M,,*5D
06/06/2014	05:00:01.669	$GPGGA,050002,2441.1079,N,08107.5707,W,1,9,1.9,17,M,,M,,*57
06/06/2014	05:00:02.694	$GPGGA,050003,2441.1080,N,08107.5708,W,1,9,1.9,17,M,,M,,*5F
06/06/2014	05:00:03.710	$GPGGA,050004,2441.1079,N,08107.5707,W,1,9,1.9,17,M,,M,,*51
06/06/2014	05:00:04.707	$GPGGA,050005,2441.1080,N,08107.5708,W,1,9,1.9,17,M,,M,,*59
06/06/2014	05:00:05.682	$GPGGA,050006,2441.1079,N,08107.5707,W,1,9,1.9,17,M,,M,,*53
06/06/2014	05:00:06.718	$GPGGA,050007,2441.1080,N,08107.5708,W,1,9,1.9,17,M,,M,,*5B
06/06/2014	05:00:07.694	$GPGGA,050008,2441.1078,N,08107.5707,W,1,9,1.9,17,M,,M,,*5C
06/06/2014	05:00:08.750	$GPGGA,050009,2441.1079,N,08107.5708,W,1,9,1.9,17,M,,M,,*53
06/06/2014	05:00:09.696	$GPGGA,050010,2441.1078,N,08107.5708,W,1,9,1.9,17,M,,M,,*5A
06/06/2014	05:00:10.743	$GPGGA,050011,2441.1077,N,08107.5708,W,1,9,1.9,17,M,,M,,*54
06/06/2014	05:00:11.719	$GPGGA,050012,2441.1077,N,08107.5708,W,1,9,2.1,17,M,,M,,*5C
06/06/2014	05:00:12.735	$GPGGA,050013,2441.1077,N,08107.5709,W,1,8,2.1,17,M,,M,,*5D
06/06/2014	05:00:13.721	$GPGGA,050014,2441.1077,N,08107.5709,W,1,8,2.1,17,M,,M,,*5A
06/06/2014	05:00:14.737	$GPGGA,050015,2441.1075,N,08107.5710,W,1,8,2.1,17,M,,M,,*51
06/06/2014	05:00:15.733	$GPGGA,050016,2441.1076,N,08107.5710,W,1,8,2.1,18,M,,M,,*5E
06/06/2014	05:00:16.770	$GPGGA,050017,2441.1075,N,08107.5712,W,1,8,2.1,18,M,,M,,*5E
06/06/2014	05:00:18.782	$GPGGA,050019,2441.1074,N,08107.5712,W,1,8,2.1,18,M,,M,,*51
06/06/2014	05:00:19.761	$GPGGA,050020,2441.1075,N,08107.5712,W,1,8,2.1,18,M,,M,,*5A
06/06/2014	05:00:20.885	$GPGGA,050021,2441.1073,N,08107.5712,W,1,8,2.1,18,M,,M,,*5D
06/06/2014	05:00:21.741	$GPGGA,050022,2441.1073,N,08107.5712,W,1,8,2.1,18,M,,M,,*5E
06/06/2014	05:00:22.879	$GPGGA,050023,2441.1073,N,08107.5712,W,1,8,2.1,18,M,,M,,*5F
06/06/2014	05:00:23.762	$GPGGA,050024,2441.1073,N,08107.5713,W,1,8,2.1,18,M,,M,,*59
06/06/2014	05:00:24.758	$GPGGA,050025,2441.1073,N,08107.5713,W,1,8,2.1,18,M,,M,,*58
06/06/2014	05:00:25.754	$GPGGA,050026,2441.1073,N,08107.5713,W,1,8,2.1,19,M,,M,,*5A
06/06/2014	05:00:26.901	$GPGGA,050027,2441.1073,N,08107.5713,W,1,8,2.1,19,M,,M,,*5B
06/06/2014	05:00:27.797	$GPGGA,050028,2441.1073,N,08107.5715,W,1,8,2.1,19,M,,M,,*52
06/06/2014	05:00:28.783	$GPGGA,050029,2441.1073,N,08107.5714,W,1,8,2.1,19,M,,M,,*52
06/06/2014	05:00:29.870	$GPGGA,050030,2441.1073,N,08107.5715,W,1,8,2.1,19,M,,M,,*5B
06/06/2014	05:00:30.896	$GPGGA,050031,2441.1073,N,08107.5714,W,1,8,2.1,19,M,,M,,*5B
06/06/2014	05:00:31.912	$GPGGA,050032,2441.1073,N,08107.5715,W,1,8,2.1,19,M,,M,,*59
06/06/2014	05:00:32.798	$GPGGA,050033,2441.1073,N,08107.5715,W,1,8,2.1,19,M,,M,,*58
06/06/2014	05:00:33.894	$GPGGA,050034,2441.1073,N,08107.5715,W,1,8,2.1,20,M,,M,,*55
06/06/2014	05:00:34.931	$GPGGA,050035,2441.1073,N,08107.5715,W,1,8,2.1,20,M,,M,,*54
06/06/2014	05:00:35.547	$GPGGA,050036,2441.1073,N,08107.5715,W,1,8,2.1,20,M,,M,,*57
06/06/2014	05:00:36.553	$GPGGA,050037,2441.1075,N,08107.5715,W,1,8,2.1,20,M,,M,,*50
06/06/2014	05:00:37.549	$GPGGA,050038,2441.1073,N,08107.5715,W,1,8,2.1,20,M,,M,,*59
06/06/2014	05:00:38.565	$GPGGA,050039,2441.1075,N,08107.5715,W,1,8,2.1,20,M,,M,,*5E
06/06/2014	05:00:39.562	$GPGGA,050040,2441.1074,N,08107.5716,W,1,8,2.1,20,M,,M,,*52
06/06/2014	05:00:40.547	$GPGGA,050041,2441.1075,N,08107.5716,W,1,8,2.1,20,M,,M,,*52
06/06/2014	05:00:41.573	$GPGGA,050042,2441.1074,N,08107.5716,W,1,8,2.1,20,M,,M,,*50
06/06/2014	05:00:42.579	$GPGGA,050043,2441.1076,N,08107.5716,W,1,8,2.1,20,M,,M,,*53
06/06/2014	05:00:43.586	$GPGGA,050044,2441.1075,N,08107.5716,W,1,8,2.1,20,M,,M,,*57
06/06/2014	05:00:44.592	$GPGGA,050045,2441.1076,N,08107.5716,W,1,8,2.1,20,M,,M,,*55
06/06/2014	05:00:45.578	$GPGGA,050046,2441.1077,N,08107.5716,W,1,8,2.1,20,M,,M,,*57
06/06/2014	05:00:46.614	$GPGGA,050047,2441.1077,N,08107.5716,W,1,8,2.1,21,M,,M,,*57
06/06/2014	05:00:47.600	$GPGGA,050048,2441.1077,N,08107.5716,W,1,8,2.1,21,M,,M,,*58
06/06/2014	05:00:48.606	$GPGGA,050049,2441.1077,N,08107.5716,W,1,8,2.1,21,M,,M,,*59
06/06/2014	05:00:49.592	$GPGGA,050050,2441.1077,N,08107.5716,W,1,8,2.1,21,M,,M,,*51
06/06/2014	05:00:50.629	$GPGGA,050051,2441.1077,N,08107.5716,W,1,8,2.1,21,M,,M,,*50
06/06/2014	05:00:51.635	$GPGGA,050052,2441.1077,N,08107.5715,W,1,8,2.1,21,M,,M,,*50
06/06/2014	05:00:52.601	$GPGGA,050053,2441.1077,N,08107.5715,W,1,8,2.1,21,M,,M,,*51
06/06/2014	05:00:53.617	$GPGGA,050054,2441.1077,N,08107.5715,W,1,8,2.1,21,M,,M,,*56
06/06/2014	05:00:54.644	$GPGGA,050055,2441.1077,N,08107.5715,W,1,8,2.1,21,M,,M,,*57
06/06/2014	05:00:55.640	$GPGGA,050056,2441.1077,N,08107.5715,W,1,8,2.1,21,M,,M,,*54
06/06/2014	05:00:56.617	$GPGGA,050057,2441.1077,N,08107.5715,W,1,8,1.9,21,M,,M,,*5E
06/06/2014	05:00:57.642	$GPGGA,050058,2441.1077,N,08107.5715,W,1,8,2.1,21,M,,M,,*5A
06/06/2014	05:00:58.748	$GPGGA,050059,2441.1077,N,08107.5714,W,1,8,1.9,21,M,,M,,*51
06/06/2014	05:00:59.684	$GPGGA,050100,2441.1077,N,08107.5715,W,1,8,1.9,21,M,,M,,*5D
06/06/2014	05:01:00.660	$GPGGA,050101,2441.1075,N,08107.5715,W,1,9,1.9,21,M,,M,,*5F
06/06/2014	05:01:01.736	$GPGGA,050102,2441.1076,N,08107.5715,W,1,9,1.9,21,M,,M,,*5F
06/06/2014	05:01:02.642	$GPGGA,050103,2441.1075,N,08107.5715,W,1,9,1.9,21,M,,M,,*5D
06/06/2014	05:01:03.678	$GPGGA,050104,2441.1074,N,08107.5715,W,1,9,1.9,21,M,,M,,*5B
06/06/2014	05:01:04.664	$GPGGA,050105,2441.1075,N,08107.5715,W,1,9,1.9,21,M,,M,,*5B
06/06/2014	05:01:05.751	$GPGGA,050106,2441.1074,N,08107.5715,W,1,9,1.9,21,M,,M,,*59
06/06/2014	05:01:06.747	$GPGGA,050107,2441.1075,N,08107.5714,W,1,9,1.9,21,M,,M,,*58
06/06/2014	05:01:07.703	$GPGGA,050108,2441.1074,N,08107.5715,W,1,9,1.9,21,M,,M,,*57
06/06/2014	05:01:08.770	$GPGGA,050109,2441.1075,N,08107.5714,W,1,9,1.9,21,M,,M,,*56
06/06/2014	05:01:09.766	$GPGGA,050110,2441.1074,N,08107.5715,W,1,9,1.9,21,M,,M,,*5E
06/06/2014	05:01:10.803	$GPGGA,050111,2441.1075,N,08107.5713,W,1,9,1.9,21,M,,M,,*58
06/06/2014	05:01:11.788	$GPGGA,050112,2441.1074,N,08107.5713,W,1,9,1.9,21,M,,M,,*5A
06/06/2014	05:01:12.804	$GPGGA,050113,2441.1076,N,08107.5713,W,1,9,1.9,22,M,,M,,*5A
06/06/2014	05:01:13.690	$GPGGA,050114,2441.1075,N,08107.5713,W,1,9,2.1,22,M,,M,,*55
06/06/2014	05:01:14.817	$GPGGA,050115,2441.1077,N,08107.5712,W,1,8,2.1,22,M,,M,,*56
06/06/2014	05:01:15.812	$GPGGA,050116,2441.1077,N,08107.5712,W,1,8,1.9,22,M,,M,,*5E
06/06/2014	05:01:16.718	$GPGGA,050117,2441.1077,N,08107.5711,W,1,9,2.1,22,M,,M,,*56
06/06/2014	05:01:17.804	$GPGGA,050118,2441.1077,N,08107.5712,W,1,9,2.1,22,M,,M,,*5A
06/06/2014	05:01:18.820	$GPGGA,050119,2441.1077,N,08107.5711,W,1,9,1.9,22,M,,M,,*53
06/06/2014	05:01:19.827	$GPGGA,050120,2441.1079,N,08107.5710,W,1,9,2.1,22,M,,M,,*5D
06/06/2014	05:01:20.813	$GPGGA,050121,2441.1078,N,08107.5710,W,1,8,2.1,22,M,,M,,*5C
06/06/2014	05:01:21.819	$GPGGA,050122,2441.1080,N,08107.5709,W,1,8,1.9,22,M,,M,,*5B
06/06/2014	05:01:22.845	$GPGGA,050123,2441.1080,N,08107.5708,W,1,9,1.9,22,M,,M,,*5A
06/06/2014	05:01:23.831	$GPGGA,050124,2441.1082,N,08107.5708,W,1,9,1.9,22,M,,M,,*5F
06/06/2014	05:01:24.859	$GPGGA,050125,2441.1081,N,08107.5708,W,1,9,1.9,22,M,,M,,*5D
06/06/2014	05:01:25.834	$GPGGA,050126,2441.1082,N,08107.5707,W,1,9,2.1,21,M,,M,,*5A
06/06/2014	05:01:26.860	$GPGGA,050127,2441.1081,N,08107.5708,W,1,8,2.1,21,M,,M,,*56
06/06/2014	05:01:27.856	$GPGGA,050128,2441.1082,N,08107.5708,W,1,8,1.9,21,M,,M,,*51
06/06/2014	05:01:28.872	$GPGGA,050129,2441.1080,N,08107.5708,W,1,9,1.9,21,M,,M,,*53
06/06/2014	05:01:29.848	$GPGGA,050130,2441.1080,N,08107.5707,W,1,9,1.9,21,M,,M,,*54
06/06/2014	05:01:30.875	$GPGGA,050131,2441.1080,N,08107.5708,W,1,9,1.9,21,M,,M,,*5A
06/06/2014	05:01:31.871	$GPGGA,050132,2441.1080,N,08107.5707,W,1,9,1.9,21,M,,M,,*56
06/06/2014	05:01:32.877	$GPGGA,050133,2441.1080,N,08107.5708,W,1,9,1.9,21,M,,M,,*58
06/06/2014	05:01:33.872	$GPGGA,050134,2441.1080,N,08107.5707,W,1,9,1.9,21,M,,M,,*50
06/06/2014	05:01:34.899	$GPGGA,050135,2441.1080,N,08107.5708,W,1,9,1.9,21,M,,M,,*5E
06/06/2014	05:01:35.524	$GPGGA,050136,2441.1082,N,08107.5706,W,1,9,1.9,21,M,,M,,*51
06/06/2014	05:01:36.501	$GPGGA,050137,2441.1081,N,08107.5705,W,1,9,1.9,21,M,,M,,*50
06/06/2014	05:01:37.516	$GPGGA,050138,2441.1083,N,08107.5705,W,1,9,1.9,21,M,,M,,*5D
06/06/2014	05:01:38.512	$GPGGA,050139,2441.1082,N,08107.5705,W,1,9,1.9,21,M,,M,,*5D
06/06/2014	05:01:39.538	$GPGGA,050140,2441.1083,N,08107.5704,W,1,9,1.9,21,M,,M,,*53
06/06/2014	05:01:40.575	$GPGGA,050141,2441.1082,N,08107.5704,W,1,9,1.9,21,M,,M,,*53
06/06/2014	05:01:41.521	$GPGGA,050142,2441.1084,N,08107.5703,W,1,9,1.9,21,M,,M,,*51
06/06/2014	05:01:42.527	$GPGGA,050143,2441.1082,N,08107.5704,W,1,9,1.9,21,M,,M,,*51
06/06/2014	05:01:43.543	$GPGGA,050144,2441.1083,N,08107.5704,W,1,9,1.9,21,M,,M,,*57
06/06/2014	05:01:44.539	$GPGGA,050145,2441.1084,N,08107.5703,W,1,9,1.9,21,M,,M,,*56
06/06/2014	05:01:45.535	$GPGGA,050146,2441.1084,N,08107.5702,W,1,9,1.9,21,M,,M,,*54
06/06/2014	05:01:46.562	$GPGGA,050147,2441.1084,N,08107.5702,W,1,8,2.1,21,M,,M,,*5F
06/06/2014	05:01:47.568	$GPGGA,050148,2441.1084,N,08107.5702,W,1,8,1.9,21,M,,M,,*5B
06/06/2014	05:01:48.554	$GPGGA,050149,2441.1084,N,08107.5702,W,1,9,1.9,21,M,,M,,*5B
06/06/2014	05:01:49.570	$GPGGA,050150,2441.1084,N,08107.5702,W,1,9,1.9,21,M,,M,,*53
06/06/2014	05:01:50.686	$GPGGA,050151,2441.1084,N,08107.5702,W,1,8,2.1,21,M,,M,,*58
06/06/2014	05:01:51.592	$GPGGA,050152,2441.1084,N,08107.5704,W,1,8,1.9,21,M,,M,,*56
06/06/2014	05:01:52.598	$GPGGA,050153,2441.1084,N,08107.5702,W,1,9,1.9,21,M,,M,,*50
06/06/2014	05:01:53.675	$GPGGA,050154,2441.1082,N,08107.5704,W,1,9,2.1,21,M,,M,,*5C
06/06/2014	05:01:54.570	$GPGGA,050155,2441.1081,N,08107.5704,W,1,9,1.9,21,M,,M,,*55
06/06/2014	05:01:55.707	$GPGGA,050156,2441.1082,N,08107.5704,W,1,9,1.9,21,M,,M,,*55
06/06/2014	05:01:56.693	$GPGGA,050157,2441.1081,N,08107.5705,W,1,9,1.9,22,M,,M,,*55
06/06/2014	05:01:57.599	$GPGGA,050158,2441.1083,N,08107.5704,W,1,9,1.9,22,M,,M,,*59
06/06/2014	05:01:58.695	$GPGGA,050159,2441.1084,N,08107.5704,W,1,8,2.1,22,M,,M,,*55
06/06/2014	05:01:59.722	$GPGGA,050200,2441.1084,N,08107.5704,W,1,8,1.9,22,M,,M,,*51
06/06/2014	05:02:00.708	$GPGGA,050201,2441.1086,N,08107.5703,W,1,9,1.9,22,M,,M,,*54
06/06/2014	05:02:01.624	$GPGGA,050202,2441.1085,N,08107.5702,W,1,9,2.1,22,M,,M,,*5E
06/06/2014	05:02:02.730	$GPGGA,050203,2441.1087,N,08107.5702,W,1,8,2.1,22,M,,M,,*5C
06/06/2014	05:02:03.726	$GPGGA,050204,2441.1087,N,08107.5702,W,1,8,2.1,22,M,,M,,*5B
06/06/2014	05:02:04.753	$GPGGA,050205,2441.1088,N,08107.5701,W,1,8,2.1,22,M,,M,,*56
06/06/2014	05:02:05.729	$GPGGA,050206,2441.1090,N,08107.5701,W,1,8,2.1,22,M,,M,,*5C
06/06/2014	05:02:06.735	$GPGGA,050207,2441.1089,N,08107.5701,W,1,8,2.1,22,M,,M,,*55
06/06/2014	05:02:07.761	$GPGGA,050208,2441.1091,N,08107.5700,W,1,8,2.1,22,M,,M,,*52
06/06/2014	05:02:08.746	$GPGGA,050209,2441.1091,N,08107.5701,W,1,8,2.1,22,M,,M,,*52
06/06/2014	05:02:09.743	$GPGGA,050210,2441.1093,N,08107.5700,W,1,8,2.1,22,M,,M,,*59
06/06/2014	05:02:10.779	$GPGGA,050211,2441.1092,N,08107.5699,W,1,8,2.1,22,M,,M,,*58
06/06/2014	05:02:11.765	$GPGGA,050212,2441.1094,N,08107.5699,W,1,8,2.1,21,M,,M,,*5E
06/06/2014	05:02:12.761	$GPGGA,050213,2441.1093,N,08107.5699,W,1,8,2.1,21,M,,M,,*58
06/06/2014	05:02:13.767	$GPGGA,050214,2441.1095,N,08107.5699,W,1,8,2.1,21,M,,M,,*59
06/06/2014	05:02:14.784	$GPGGA,050215,2441.1095,N,08107.5699,W,1,8,2.1,21,M,,M,,*58
06/06/2014	05:02:15.770	$GPGGA,050216,2441.1095,N,08107.5699,W,1,8,2.1,21,M,,M,,*5B
06/06/2014	05:02:16.787	$GPGGA,050217,2441.1095,N,08107.5699,W,1,8,2.1,21,M,,M,,*5A
06/06/2014	05:02:17.772	$GPGGA,050218,2441.1095,N,08107.5699,W,1,8,2.1,21,M,,M,,*55
06/06/2014	05:02:18.788	$GPGGA,050219,2441.1097,N,08107.5699,W,1,8,2.1,21,M,,M,,*56
06/06/2014	05:02:19.794	$GPGGA,050220,2441.1096,N,08107.5701,W,1,8,2.1,21,M,,M,,*5D
06/06/2014	05:02:20.801	$GPGGA,050221,2441.1098,N,08107.5700,W,1,8,2.1,21,M,,M,,*53
06/06/2014	05:02:21.787	$GPGGA,050222,2441.1097,N,08107.5701,W,1,8,2.1,21,M,,M,,*5E
06/06/2014	05:02:22.813	$GPGGA,050223,2441.1098,N,08107.5701,W,1,8,2.1,20,M,,M,,*51
06/06/2014	05:02:23.799	$GPGGA,050224,2441.1098,N,08107.5701,W,1,8,2.1,20,M,,M,,*56
06/06/2014	05:02:24.806	$GPGGA,050225,2441.1100,N,08107.5701,W,1,8,2.1,20,M,,M,,*57
06/06/2014	05:02:25.811	$GPGGA,050226,2441.1099,N,08107.5700,W,1,8,2.1,20,M,,M,,*54
06/06/2014	05:02:26.827	$GPGGA,050227,2441.1101,N,08107.5701,W,1,8,2.1,20,M,,M,,*54
06/06/2014	05:02:27.823	$GPGGA,050228,2441.1100,N,08107.5701,W,1,8,2.1,20,M,,M,,*5A
06/06/2014	05:02:28.819	$GPGGA,050229,2441.1101,N,08107.5701,W,1,8,2.1,20,M,,M,,*5A
06/06/2014	05:02:29.825	$GPGGA,050230,2441.1102,N,08107.5701,W,1,8,2.1,20,M,,M,,*51
06/06/2014	05:02:30.821	$GPGGA,050231,2441.1102,N,08107.5701,W,1,8,2.1,20,M,,M,,*50
06/06/2014	05:02:31.838	$GPGGA,050232,2441.1102,N,08107.5701,W,1,8,2.1,20,M,,M,,*53
06/06/2014	05:02:32.864	$GPGGA,050233,2441.1104,N,08107.5701,W,1,8,2.1,20,M,,M,,*54
06/06/2014	05:02:33.841	$GPGGA,050234,2441.1102,N,08107.5702,W,1,8,2.1,20,M,,M,,*56
06/06/2014	05:02:34.846	$GPGGA,050235,2441.1102,N,08107.5702,W,1,9,1.9,20,M,,M,,*5D
06/06/2014	05:02:35.503	$GPGGA,050236,2441.1100,N,08107.5704,W,1,9,1.9,20,M,,M,,*5A
06/06/2014	05:02:36.489	$GPGGA,050237,2441.1101,N,08107.5703,W,1,9,1.9,20,M,,M,,*5D
06/06/2014	05:02:37.575	$GPGGA,050238,2441.1100,N,08107.5704,W,1,9,1.9,20,M,,M,,*54
06/06/2014	05:02:38.602	$GPGGA,050239,2441.1102,N,08107.5703,W,1,9,1.9,20,M,,M,,*50
06/06/2014	05:02:39.598	$GPGGA,050240,2441.1102,N,08107.5704,W,1,9,1.9,20,M,,M,,*59
06/06/2014	05:02:41.590	$GPGGA,050242,2441.1102,N,08107.5704,W,1,9,1.9,20,M,,M,,*5B
06/06/2014	05:02:42.516	$GPGGA,050243,2441.1102,N,08107.5704,W,1,9,1.9,20,M,,M,,*5A
06/06/2014	05:02:43.511	$GPGGA,050244,2441.1102,N,08107.5703,W,1,9,1.9,20,M,,M,,*5A
06/06/2014	05:02:44.618	$GPGGA,050245,2441.1104,N,08107.5704,W,1,9,1.9,20,M,,M,,*5A
06/06/2014	05:02:45.523	$GPGGA,050246,2441.1103,N,08107.5704,W,1,9,1.9,20,M,,M,,*5E
06/06/2014	05:02:46.640	$GPGGA,050247,2441.1104,N,08107.5704,W,1,9,1.9,20,M,,M,,*58
06/06/2014	05:02:47.546	$GPGGA,050248,2441.1103,N,08107.5704,W,1,9,1.9,20,M,,M,,*50
06/06/2014	05:02:48.663	$GPGGA,050249,2441.1104,N,08107.5704,W,1,9,1.9,20,M,,M,,*56
06/06/2014	05:02:49.639	$GPGGA,050250,2441.1105,N,08107.5704,W,1,9,1.9,20,M,,M,,*5F
06/06/2014	05:02:50.665	$GPGGA,050251,2441.1104,N,08107.5704,W,1,9,1.9,20,M,,M,,*5F
06/06/2014	05:02:51.651	$GPGGA,050252,2441.1105,N,08107.5704,W,1,9,1.9,20,M,,M,,*5D
06/06/2014	05:02:52.657	$GPGGA,050253,2441.1104,N,08107.5704,W,1,9,1.9,20,M,,M,,*5D
06/06/2014	05:02:53.653	$GPGGA,050254,2441.1105,N,08107.5704,W,1,9,1.9,20,M,,M,,*5B
06/06/2014	05:02:54.668	$GPGGA,050255,2441.1105,N,08107.5703,W,1,9,1.9,20,M,,M,,*5D
06/06/2014	05:02:55.661	$GPGGA,050256,2441.1105,N,08107.5704,W,1,9,1.9,20,M,,M,,*59
06/06/2014	05:02:56.665	$GPGGA,050257,2441.1105,N,08107.5704,W,1,9,1.9,20,M,,M,,*58
06/06/2014	05:02:57.650	$GPGGA,050258,2441.1105,N,08107.5704,W,1,9,1.9,20,M,,M,,*57
06/06/2014	05:02:58.674	$GPGGA,050259,2441.1105,N,08107.5704,W,1,9,1.9,20,M,,M,,*56
06/06/2014	05:02:59.677	$GPGGA,050300,2441.1105,N,08107.5704,W,1,9,1.9,20,M,,M,,*5B
06/06/2014	05:03:00.680	$GPGGA,050301,2441.1106,N,08107.5704,W,1,9,1.9,20,M,,M,,*59
06/06/2014	05:03:01.654	$GPGGA,050302,2441.1106,N,08107.5704,W,1,9,1.9,20,M,,M,,*5A
06/06/2014	05:03:02.688	$GPGGA,050303,2441.1108,N,08107.5704,W,1,9,1.9,20,M,,M,,*55
06/06/2014	05:03:03.672	$GPGGA,050304,2441.1107,N,08107.5704,W,1,9,1.9,20,M,,M,,*5D
06/06/2014	05:03:04.696	$GPGGA,050305,2441.1108,N,08107.5703,W,1,9,1.9,20,M,,M,,*54
06/06/2014	05:03:05.679	$GPGGA,050306,2441.1107,N,08107.5704,W,1,9,1.9,20,M,,M,,*5F
06/06/2014	05:03:06.703	$GPGGA,050307,2441.1108,N,08107.5703,W,1,9,1.9,20,M,,M,,*56
06/06/2014	05:03:07.687	$GPGGA,050308,2441.1107,N,08107.5704,W,1,9,1.9,20,M,,M,,*51
06/06/2014	05:03:08.701	$GPGGA,050309,2441.1109,N,08107.5703,W,1,9,1.9,20,M,,M,,*59
06/06/2014	05:03:09.665	$GPGGA,050310,2441.1109,N,08107.5704,W,1,9,1.9,20,M,,M,,*56
06/06/2014	05:03:10.679	$GPGGA,050311,2441.1109,N,08107.5703,W,1,9,1.9,20,M,,M,,*50
06/06/2014	05:03:11.683	$GPGGA,050312,2441.1109,N,08107.5702,W,1,9,1.9,20,M,,M,,*52
06/06/2014	05:03:12.707	$GPGGA,050313,2441.1109,N,08107.5702,W,1,9,1.9,20,M,,M,,*53
06/06/2014	05:03:13.680	$GPGGA,050314,2441.1109,N,08107.5702,W,1,9,1.9,20,M,,M,,*54
06/06/2014	05:03:14.714	$GPGGA,050315,2441.1109,N,08107.5702,W,1,9,1.9,20,M,,M,,*55
06/06/2014	05:03:15.688	$GPGGA,050316,2441.1109,N,08107.5702,W,1,9,1.9,20,M,,M,,*56
06/06/2014	05:03:16.682	$GPGGA,050317,2441.1109,N,08107.5701,W,1,9,1.9,20,M,,M,,*54
06/06/2014	05:03:17.695	$GPGGA,050318,2441.1109,N,08107.5701,W,1,9,1.9,20,M,,M,,*5B
06/06/2014	05:03:18.709	$GPGGA,050319,2441.1109,N,08107.5701,W,1,9,1.9,20,M,,M,,*5A
06/06/2014	05:03:19.713	$GPGGA,050320,2441.1109,N,08107.5701,W,1,9,1.9,20,M,,M,,*50
06/06/2014	05:03:20.887	$GPGGA,050321,2441.1109,N,08107.5700,W,1,8,1.9,20,M,,M,,*51
06/06/2014	05:03:21.703	$GPGGA,050322,2441.1109,N,08107.5701,W,1,8,1.9,20,M,,M,,*53
06/06/2014	05:03:22.715	$GPGGA,050323,2441.1109,N,08107.5700,W,1,9,1.9,20,M,,M,,*52
06/06/2014	05:03:23.708	$GPGGA,050324,2441.1109,N,08107.5699,W,1,9,1.9,20,M,,M,,*54
06/06/2014	05:03:24.712	$GPGGA,050325,2441.1109,N,08107.5701,W,1,9,1.9,20,M,,M,,*55
06/06/2014	05:03:25.837	$GPGGA,050326,2441.1109,N,08107.5700,W,1,9,1.9,20,M,,M,,*57
06/06/2014	05:03:26.891	$GPGGA,050327,2441.1109,N,08107.5699,W,1,9,1.9,20,M,,M,,*57
06/06/2014	05:03:27.724	$GPGGA,050328,2441.1109,N,08107.5701,W,1,9,1.9,20,M,,M,,*58
06/06/2014	05:03:28.729	$GPGGA,050329,2441.1109,N,08107.5700,W,1,9,1.9,20,M,,M,,*58
06/06/2014	05:03:29.722	$GPGGA,050330,2441.1109,N,08107.5701,W,1,9,1.9,19,M,,M,,*5B
06/06/2014	05:03:30.906	$GPGGA,050331,2441.1107,N,08107.5701,W,1,9,1.9,19,M,,M,,*54
06/06/2014	05:03:31.730	$GPGGA,050332,2441.1108,N,08107.5701,W,1,9,1.9,19,M,,M,,*58
06/06/2014	05:03:32.904	$GPGGA,050333,2441.1107,N,08107.5701,W,1,9,1.9,19,M,,M,,*56
06/06/2014	05:03:33.850	$GPGGA,050334,2441.1106,N,08107.5701,W,1,9,1.9,19,M,,M,,*50
06/06/2014	05:03:34.922	$GPGGA,050335,2441.1106,N,08107.5702,W,1,9,1.8,19,M,,M,,*53
06/06/2014	05:03:35.581	$GPGGA,050336,2441.1105,N,08107.5702,W,1,9,1.8,19,M,,M,,*53
06/06/2014	05:03:36.634	$GPGGA,050337,2441.1105,N,08107.5702,W,1,9,1.8,19,M,,M,,*52
06/06/2014	05:03:37.578	$GPGGA,050338,2441.1105,N,08107.5704,W,1,9,1.8,19,M,,M,,*5B
06/06/2014	05:03:38.652	$GPGGA,050339,2441.1105,N,08107.5703,W,1,9,2.1,19,M,,M,,*57
06/06/2014	05:03:39.616	$GPGGA,050340,2441.1104,N,08107.5704,W,1,9,2.1,19,M,,M,,*5F
06/06/2014	05:03:40.640	$GPGGA,050341,2441.1103,N,08107.5704,W,1,9,1.8,19,M,,M,,*53
06/06/2014	05:03:41.604	$GPGGA,050342,2441.1102,N,08107.5704,W,1,9,1.8,19,M,,M,,*51
06/06/2014	05:03:42.658	$GPGGA,050343,2441.1102,N,08107.5705,W,1,9,1.8,19,M,,M,,*51
06/06/2014	05:03:43.621	$GPGGA,050344,2441.1102,N,08107.5705,W,1,9,1.8,19,M,,M,,*56
06/06/2014	05:03:44.665	$GPGGA,050345,2441.1100,N,08107.5706,W,1,9,1.8,19,M,,M,,*56
06/06/2014	05:03:45.589	$GPGGA,050346,2441.1101,N,08107.5706,W,1,9,1.8,19,M,,M,,*54
06/06/2014	05:03:46.663	$GPGGA,050347,2441.1099,N,08107.5706,W,1,9,1.8,19,M,,M,,*55
06/06/2014	05:03:47.627	$GPGGA,050348,2441.1100,N,08107.5708,W,1,9,1.8,19,M,,M,,*55
06/06/2014	05:03:48.671	$GPGGA,050349,2441.1099,N,08107.5707,W,1,9,1.8,19,M,,M,,*5A
06/06/2014	05:03:49.595	$GPGGA,050350,2441.1098,N,08107.5708,W,1,9,1.8,19,M,,M,,*5C
06/06/2014	05:03:50.568	$GPGGA,050351,2441.1098,N,08107.5707,W,1,9,1.8,19,M,,M,,*52
06/06/2014	05:03:51.612	$GPGGA,050352,2441.1097,N,08107.5708,W,1,9,1.8,19,M,,M,,*51
06/06/2014	05:03:52.635	$GPGGA,050353,2441.1098,N,08107.5707,W,1,9,1.8,19,M,,M,,*50
06/06/2014	05:03:53.609	$GPGGA,050354,2441.1097,N,08107.5708,W,1,9,1.8,19,M,,M,,*57
06/06/2014	05:03:54.683	$GPGGA,050355,2441.1096,N,08107.5707,W,1,9,1.8,19,M,,M,,*58
06/06/2014	05:03:55.618	$GPGGA,050356,2441.1097,N,08107.5708,W,1,9,1.8,19,M,,M,,*55
06/06/2014	05:03:56.641	$GPGGA,050357,2441.1095,N,08107.5707,W,1,9,1.8,19,M,,M,,*59
06/06/2014	05:03:57.585	$GPGGA,050358,2441.1095,N,08107.5708,W,1,9,1.8,19,M,,M,,*59
06/06/2014	05:03:58.679	$GPGGA,050359,2441.1095,N,08107.5707,W,1,8,1.8,19,M,,M,,*56
06/06/2014	05:03:59.633	$GPGGA,050400,2441.1093,N,08107.5708,W,1,8,1.8,19,M,,M,,*54
06/06/2014	05:04:02.002	$GPGGA,050402,2441.1093,N,08107.5708,W,1,9,1.8,19,M,,M,,*57
06/06/2014	05:04:02.664	$GPGGA,050403,2441.1092,N,08107.5708,W,1,9,1.8,19,M,,M,,*57
06/06/2014	05:04:03.648	$GPGGA,050404,2441.1091,N,08107.5708,W,1,9,1.8,19,M,,M,,*53
06/06/2014	05:04:04.592	$GPGGA,050405,2441.1091,N,08107.5708,W,1,9,1.8,19,M,,M,,*52
06/06/2014	05:04:05.716	$GPGGA,050406,2441.1091,N,08107.5707,W,1,9,1.8,19,M,,M,,*5E
06/06/2014	05:04:06.590	$GPGGA,050407,2441.1091,N,08107.5708,W,1,9,1.8,19,M,,M,,*50
06/06/2014	05:04:07.644	$GPGGA,050408,2441.1091,N,08107.5707,W,1,9,1.8,19,M,,M,,*50
06/06/2014	05:04:08.597	$GPGGA,050409,2441.1089,N,08107.5706,W,1,8,1.9,19,M,,M,,*59
06/06/2014	05:04:09.631	$GPGGA,050410,2441.1090,N,08107.5706,W,1,8,1.8,19,M,,M,,*58
06/06/2014	05:04:10.755	$GPGGA,050411,2441.1089,N,08107.5705,W,1,9,1.8,19,M,,M,,*53
06/06/2014	05:04:11.658	$GPGGA,050412,2441.1090,N,08107.5704,W,1,9,1.8,19,M,,M,,*59
06/06/2014	05:04:12.702	$GPGGA,050413,2441.1088,N,08107.5703,W,1,9,1.8,19,M,,M,,*56
06/06/2014	05:04:13.636	$GPGGA,050414,2441.1088,N,08107.5702,W,1,9,1.8,19,M,,M,,*50
06/06/2014	05:04:14.700	$GPGGA,050415,2441.1088,N,08107.5701,W,1,9,1.8,19,M,,M,,*52
06/06/2014	05:04:15.654	$GPGGA,050416,2441.1088,N,08107.5700,W,1,9,1.8,19,M,,M,,*50
06/06/2014	05:04:16.708	$GPGGA,050417,2441.1088,N,08107.5699,W,1,9,1.8,19,M,,M,,*50
06/06/2014	05:04:17.611	$GPGGA,050418,2441.1088,N,08107.5699,W,1,9,1.8,19,M,,M,,*5F
06/06/2014	05:04:18.706	$GPGGA,050419,2441.1088,N,08107.5698,W,1,9,1.8,19,M,,M,,*5F
06/06/2014	05:04:19.740	$GPGGA,050420,2441.1088,N,08107.5698,W,1,9,1.8,19,M,,M,,*55
06/06/2014	05:04:20.774	$GPGGA,050421,2441.1088,N,08107.5698,W,1,9,1.8,19,M,,M,,*54
06/06/2014	05:04:21.717	$GPGGA,050422,2441.1088,N,08107.5697,W,1,9,1.8,19,M,,M,,*58
06/06/2014	05:04:22.781	$GPGGA,050423,2441.1088,N,08107.5697,W,1,9,1.8,19,M,,M,,*59
06/06/2014	05:04:23.745	$GPGGA,050424,2441.1088,N,08107.5696,W,1,9,1.8,19,M,,M,,*5F
06/06/2014	05:04:24.771	$GPGGA,050425,2441.1088,N,08107.5697,W,1,9,1.8,19,M,,M,,*5F
06/06/2014	05:04:25.733	$GPGGA,050426,2441.1087,N,08107.5696,W,1,9,1.8,19,M,,M,,*52
06/06/2014	05:04:26.737	$GPGGA,050427,2441.1088,N,08107.5697,W,1,9,1.8,19,M,,M,,*5D
06/06/2014	05:04:27.750	$GPGGA,050428,2441.1088,N,08107.5696,W,1,9,1.8,19,M,,M,,*53
06/06/2014	05:04:28.794	$GPGGA,050429,2441.1087,N,08107.5697,W,1,9,1.8,19,M,,M,,*5C
06/06/2014	05:04:29.748	$GPGGA,050430,2441.1087,N,08107.5696,W,1,9,1.8,19,M,,M,,*55
06/06/2014	05:04:30.812	$GPGGA,050431,2441.1087,N,08107.5697,W,1,9,1.8,19,M,,M,,*55
06/06/2014	05:04:31.765	$GPGGA,050432,2441.1087,N,08107.5696,W,1,9,1.8,19,M,,M,,*57
06/06/2014	05:04:32.779	$GPGGA,050433,2441.1087,N,08107.5697,W,1,9,1.8,19,M,,M,,*57
06/06/2014	05:04:33.743	$GPGGA,050434,2441.1087,N,08107.5697,W,1,9,1.8,19,M,,M,,*50
06/06/2014	05:04:34.787	$GPGGA,050435,2441.1087,N,08107.5697,W,1,9,1.8,19,M,,M,,*51
06/06/2014	05:04:35.540	$GPGGA,050436,2441.1087,N,08107.5696,W,1,9,1.8,18,M,,M,,*52
06/06/2014	05:04:36.543	$GPGGA,050437,2441.1087,N,08107.5697,W,1,9,1.8,18,M,,M,,*52
06/06/2014	05:04:37.527	$GPGGA,050438,2441.1087,N,08107.5696,W,1,9,1.8,18,M,,M,,*5C
06/06/2014	05:04:38.561	$GPGGA,050439,2441.1087,N,08107.5697,W,1,9,1.8,18,M,,M,,*5C
06/06/2014	05:04:39.555	$GPGGA,050440,2441.1087,N,08107.5696,W,1,9,1.8,18,M,,M,,*53
06/06/2014	05:04:40.558	$GPGGA,050441,2441.1087,N,08107.5696,W,1,9,1.8,18,M,,M,,*52
06/06/2014	05:04:41.532	$GPGGA,050442,2441.1087,N,08107.5696,W,1,9,1.8,18,M,,M,,*51
06/06/2014	05:04:42.536	$GPGGA,050443,2441.1087,N,08107.5696,W,1,9,1.8,18,M,,M,,*50
06/06/2014	05:04:43.550	$GPGGA,050444,2441.1087,N,08107.5696,W,1,9,1.8,18,M,,M,,*57
06/06/2014	05:04:44.594	$GPGGA,050445,2441.1087,N,08107.5697,W,1,9,1.8,18,M,,M,,*57
06/06/2014	05:04:45.547	$GPGGA,050446,2441.1087,N,08107.5697,W,1,9,1.8,18,M,,M,,*54
06/06/2014	05:04:46.601	$GPGGA,050447,2441.1087,N,08107.5697,W,1,9,1.8,18,M,,M,,*55
06/06/2014	05:04:47.555	$GPGGA,050448,2441.1087,N,08107.5697,W,1,9,1.8,18,M,,M,,*5A
06/06/2014	05:04:48.611	$GPGGA,050449,2441.1087,N,08107.5697,W,1,9,1.8,18,M,,M,,*5B
06/06/2014	05:04:49.582	$GPGGA,050450,2441.1087,N,08107.5697,W,1,9,1.8,18,M,,M,,*53
06/06/2014	05:04:50.657	$GPGGA,050451,2441.1087,N,08107.5697,W,1,9,1.8,18,M,,M,,*52
06/06/2014	05:04:51.550	$GPGGA,050452,2441.1087,N,08107.5697,W,1,9,1.8,18,M,,M,,*51
06/06/2014	05:04:52.564	$GPGGA,050453,2441.1087,N,08107.5697,W,1,9,1.8,18,M,,M,,*50
06/06/2014	05:04:53.551	$GPGGA,050454,2441.1087,N,08107.5698,W,1,9,1.8,18,M,,M,,*58
06/06/2014	05:04:54.632	$GPGGA,050455,2441.1087,N,08107.5698,W,1,9,1.8,18,M,,M,,*59
06/06/2014	05:04:55.656	$GPGGA,050456,2441.1088,N,08107.5699,W,1,9,1.8,18,M,,M,,*54
06/06/2014	05:04:56.570	$GPGGA,050457,2441.1088,N,08107.5699,W,1,9,1.8,18,M,,M,,*55
06/06/2014	05:04:57.553	$GPGGA,050458,2441.1088,N,08107.5699,W,1,9,1.8,18,M,,M,,*5A
06/06/2014	05:04:58.609	$GPGGA,050459,2441.1088,N,08107.5699,W,1,9,1.8,18,M,,M,,*5B
06/06/2014	05:04:59.722	$GPGGA,050500,2441.1088,N,08107.5699,W,1,9,1.8,18,M,,M,,*56
06/06/2014	05:05:00.732	$GPGGA,050501,2441.1090,N,08107.5701,W,1,9,1.8,18,M,,M,,*5E
06/06/2014	05:05:01.773	$GPGGA,050502,2441.1089,N,08107.5700,W,1,9,1.8,18,M,,M,,*54
06/06/2014	05:05:02.710	$GPGGA,050503,2441.1089,N,08107.5700,W,1,9,1.8,18,M,,M,,*55
06/06/2014	05:05:03.741	$GPGGA,050504,2441.1089,N,08107.5701,W,1,9,1.8,18,M,,M,,*53
06/06/2014	05:05:04.751	$GPGGA,050505,2441.1089,N,08107.5701,W,1,9,1.8,18,M,,M,,*52
06/06/2014	05:05:05.895	$GPGGA,050506,2441.1091,N,08107.5701,W,1,9,1.8,18,M,,M,,*58
06/06/2014	05:05:06.905	$GPGGA,050507,2441.1091,N,08107.5701,W,1,9,1.8,18,M,,M,,*59
06/06/2014	05:05:07.956	$GPGGA,050508,2441.1091,N,08107.5702,W,1,9,1.8,18,M,,M,,*55
06/06/2014	05:05:08.997	$GPGGA,050509,2441.1091,N,08107.5702,W,1,9,1.8,18,M,,M,,*54
06/06/2014	05:05:10.038	$GPGGA,050510,2441.1091,N,08107.5702,W,1,9,1.8,18,M,,M,,*5C
06/06/2014	05:05:11.059	$GPGGA,050511,2441.1091,N,08107.5702,W,1,9,1.8,18,M,,M,,*5D
06/06/2014	05:05:12.069	$GPGGA,050512,2441.1091,N,08107.5702,W,1,9,1.8,18,M,,M,,*5E
06/06/2014	05:05:13.110	$GPGGA,050513,2441.1091,N,08107.5702,W,1,9,1.8,18,M,,M,,*5F
06/06/2014	05:05:14.099	$GPGGA,050514,2441.1091,N,08107.5702,W,1,9,1.8,18,M,,M,,*58
06/06/2014	05:05:15.161	$GPGGA,050515,2441.1091,N,08107.5702,W,1,9,1.8,18,M,,M,,*59
06/06/2014	05:05:16.181	$GPGGA,050516,2441.1091,N,08107.5702,W,1,9,1.8,18,M,,M,,*5A
06/06/2014	05:05:17.212	$GPGGA,050517,2441.1091,N,08107.5702,W,1,9,1.8,18,M,,M,,*5B
06/06/2014	05:05:18.222	$GPGGA,050518,2441.1091,N,08107.5702,W,1,9,1.8,18,M,,M,,*54
06/06/2014	05:05:19.263	$GPGGA,050519,2441.1093,N,08107.5702,W,1,9,1.8,18,M,,M,,*57
06/06/2014	05:05:20.284	$GPGGA,050520,2441.1092,N,08107.5702,W,1,9,1.8,18,M,,M,,*5C
06/06/2014	05:05:21.334	$GPGGA,050521,2441.1093,N,08107.5702,W,1,9,1.8,18,M,,M,,*5C
06/06/2014	05:05:22.344	$GPGGA,050522,2441.1092,N,08107.5702,W,1,9,1.8,18,M,,M,,*5E
06/06/2014	05:05:23.385	$GPGGA,050523,2441.1093,N,08107.5704,W,1,9,1.8,18,M,,M,,*58
06/06/2014	05:05:24.395	$GPGGA,050524,2441.1092,N,08107.5703,W,1,9,1.8,18,M,,M,,*59
06/06/2014	05:05:25.446	$GPGGA,050525,2441.1093,N,08107.5704,W,1,9,1.8,18,M,,M,,*5E
06/06/2014	05:05:26.456	$GPGGA,050526,2441.1092,N,08107.5703,W,1,9,1.8,18,M,,M,,*5B
06/06/2014	05:05:27.518	$GPGGA,050527,2441.1093,N,08107.5704,W,1,9,1.8,18,M,,M,,*5C
06/06/2014	05:05:28.518	$GPGGA,050528,2441.1092,N,08107.5703,W,1,9,1.8,18,M,,M,,*55
06/06/2014	05:05:29.528	$GPGGA,050529,2441.1094,N,08107.5702,W,1,9,1.8,18,M,,M,,*53
06/06/2014	05:05:30.569	$GPGGA,050530,2441.1093,N,08107.5702,W,1,9,1.8,18,M,,M,,*5C
06/06/2014	05:05:31.599	$GPGGA,050531,2441.1094,N,08107.5702,W,1,9,1.8,18,M,,M,,*5A
06/06/2014	05:05:32.640	$GPGGA,050532,2441.1093,N,08107.5702,W,1,9,1.8,18,M,,M,,*5E
06/06/2014	05:05:33.650	$GPGGA,050533,2441.1095,N,08107.5702,W,1,9,1.8,18,M,,M,,*59
06/06/2014	05:05:34.681	$GPGGA,050534,2441.1095,N,08107.5702,W,1,9,1.8,17,M,,M,,*51
06/06/2014	05:05:35.702	$GPGGA,050535,2441.1095,N,08107.5702,W,1,9,1.8,17,M,,M,,*50
06/06/2014	05:05:35.506	$GPGGA,050536,2441.1095,N,08107.5702,W,1,9,1.8,17,M,,M,,*53
06/06/2014	05:05:36.536	$GPGGA,050537,2441.1095,N,08107.5702,W,1,9,1.8,17,M,,M,,*52
06/06/2014	05:05:37.566	$GPGGA,050538,2441.1095,N,08107.5702,W,1,9,1.8,17,M,,M,,*5D
06/06/2014	05:05:38.576	$GPGGA,050539,2441.1095,N,08107.5702,W,1,9,1.8,17,M,,M,,*5C
06/06/2014	05:05:39.741	$GPGGA,050540,2441.1095,N,08107.5702,W,1,9,1.8,17,M,,M,,*52
06/06/2014	05:05:40.782	$GPGGA,050541,2441.1095,N,08107.5701,W,1,9,1.8,17,M,,M,,*50
06/06/2014	05:05:41.678	$GPGGA,050542,2441.1095,N,08107.5701,W,1,9,1.8,17,M,,M,,*53
06/06/2014	05:05:42.812	$GPGGA,050543,2441.1095,N,08107.5701,W,1,9,1.8,17,M,,M,,*52
06/06/2014	05:05:43.750	$GPGGA,050544,2441.1095,N,08107.5701,W,1,9,1.8,17,M,,M,,*55
06/06/2014	05:05:44.760	$GPGGA,050545,2441.1095,N,08107.5701,W,1,9,1.8,17,M,,M,,*54
06/06/2014	05:05:45.873	$GPGGA,050546,2441.1095,N,08107.5701,W,1,9,1.8,17,M,,M,,*57
06/06/2014	05:05:46.811	$GPGGA,050547,2441.1093,N,08107.5701,W,1,9,1.8,17,M,,M,,*50
06/06/2014	05:05:47.956	$GPGGA,050548,2441.1094,N,08107.5701,W,1,9,1.8,17,M,,M,,*58
06/06/2014	05:05:48.965	$GPGGA,050549,2441.1093,N,08107.5701,W,1,9,1.8,17,M,,M,,*5E
06/06/2014	05:05:49.903	$GPGGA,050550,2441.1094,N,08107.5701,W,1,9,1.8,17,M,,M,,*51
06/06/2014	05:05:50.934	$GPGGA,050551,2441.1093,N,08107.5701,W,1,9,1.8,17,M,,M,,*57
06/06/2014	05:05:52.068	$GPGGA,050552,2441.1094,N,08107.5702,W,1,9,1.8,17,M,,M,,*50
06/06/2014	05:05:53.099	$GPGGA,050553,2441.1095,N,08107.5702,W,1,9,1.8,17,M,,M,,*50
06/06/2014	05:05:54.110	$GPGGA,050554,2441.1095,N,08107.5702,W,1,9,1.8,17,M,,M,,*57
06/06/2014	05:05:55.140	$GPGGA,050555,2441.1095,N,08107.5702,W,1,9,1.8,17,M,,M,,*56
06/06/2014	05:05:56.190	$GPGGA,050556,2441.1095,N,08107.5702,W,1,9,1.8,17,M,,M,,*55
06/06/2014	05:05:57.200	$GPGGA,050557,2441.1095,N,08107.5702,W,1,9,1.8,17,M,,M,,*54
06/06/2014	05:05:58.220	$GPGGA,050558,2441.1095,N,08107.5702,W,1,9,1.8,17,M,,M,,*5B
06/06/2014	05:05:59.271	$GPGGA,050559,2441.1095,N,08107.5702,W,1,9,1.8,17,M,,M,,*5A
06/06/2014	05:06:00.302	$GPGGA,050600,2441.1095,N,08107.5702,W,1,9,1.8,17,M,,M,,*55
06/06/2014	05:06:01.302	$GPGGA,050601,2441.1095,N,08107.5702,W,1,9,1.8,17,M,,M,,*54
06/06/2014	05:06:02.343	$GPGGA,050602,2441.1095,N,08107.5702,W,1,9,1.8,17,M,,M,,*57
06/06/2014	05:06:03.363	$GPGGA,050603,2441.1095,N,08107.5702,W,1,9,1.8,17,M,,M,,*56
06/06/2014	05:06:04.415	$GPGGA,050604,2441.1095,N,08107.5702,W,1,9,1.8,17,M,,M,,*51
06/06/2014	05:06:05.456	$GPGGA,050605,2441.1095,N,08107.5702,W,1,9,1.8,17,M,,M,,*50
06/06/2014	05:06:06.466	$GPGGA,050606,2441.1095,N,08107.5702,W,1,9,1.8,17,M,,M,,*53
06/06/2014	05:06:07.496	$GPGGA,050607,2441.1095,N,08107.5702,W,1,9,1.8,17,M,,M,,*52
06/06/2014	05:06:08.517	$GPGGA,050608,2441.1095,N,08107.5702,W,1,9,1.8,17,M,,M,,*5D
06/06/2014	05:06:09.568	$GPGGA,050609,2441.1095,N,08107.5702,W,1,9,1.8,17,M,,M,,*5C
06/06/2014	05:06:10.568	$GPGGA,050610,2441.1095,N,08107.5702,W,1,9,1.8,17,M,,M,,*54
06/06/2014	05:06:11.588	$GPGGA,050611,2441.1095,N,08107.5702,W,1,9,1.8,17,M,,M,,*55
06/06/2014	05:06:12.630	$GPGGA,050612,2441.1095,N,08107.5702,W,1,9,1.8,17,M,,M,,*56
06/06/2014	05:06:13.649	$GPGGA,050613,2441.1095,N,08107.5702,W,1,9,1.8,17,M,,M,,*57
06/06/2014	05:06:14.679	$GPGGA,050614,2441.1095,N,08107.5704,W,1,9,1.8,17,M,,M,,*56
06/06/2014	05:06:15.710	$GPGGA,050615,2441.1095,N,08107.5703,W,1,9,1.8,17,M,,M,,*50
06/06/2014	05:06:16.751	$GPGGA,050616,2441.1095,N,08107.5704,W,1,9,1.8,17,M,,M,,*54
06/06/2014	05:06:17.782	$GPGGA,050617,2441.1095,N,08107.5703,W,1,9,1.8,17,M,,M,,*52
06/06/2014	05:06:18.792	$GPGGA,050618,2441.1095,N,08107.5704,W,1,9,1.8,17,M,,M,,*5A
06/06/2014	05:06:19.853	$GPGGA,050619,2441.1095,N,08107.5704,W,1,9,1.8,17,M,,M,,*5B
06/06/2014	05:06:20.864	$GPGGA,050620,2441.1095,N,08107.5704,W,1,9,1.8,17,M,,M,,*51
06/06/2014	05:06:21.997	$GPGGA,050621,2441.1097,N,08107.5705,W,1,9,1.8,17,M,,M,,*53
06/06/2014	05:06:22.915	$GPGGA,050622,2441.1096,N,08107.5705,W,1,9,1.8,17,M,,M,,*51
06/06/2014	05:06:23.935	$GPGGA,050623,2441.1097,N,08107.5705,W,1,9,1.8,17,M,,M,,*51
06/06/2014	05:06:24.986	$GPGGA,050624,2441.1096,N,08107.5705,W,1,9,1.8,17,M,,M,,*57
06/06/2014	05:06:26.110	$GPGGA,050625,2441.1097,N,08107.5706,W,1,9,1.8,17,M,,M,,*54
06/06/2014	05:06:27.019	$GPGGA,050626,2441.1096,N,08107.5706,W,1,9,1.8,17,M,,M,,*56
06/06/2014	05:06:28.068	$GPGGA,050627,2441.1097,N,08107.5706,W,1,9,1.8,17,M,,M,,*56
06/06/2014	05:06:29.109	$GPGGA,050628,2441.1096,N,08107.5706,W,1,9,1.8,17,M,,M,,*58
06/06/2014	05:06:30.113	$GPGGA,050629,2441.1097,N,08107.5708,W,1,9,1.8,17,M,,M,,*56
06/06/2014	05:06:31.232	$GPGGA,050630,2441.1096,N,08107.5707,W,1,9,1.8,17,M,,M,,*50
06/06/2014	05:06:32.190	$GPGGA,050631,2441.1097,N,08107.5708,W,1,9,1.8,17,M,,M,,*5F
06/06/2014	05:06:33.204	$GPGGA,050632,2441.1096,N,08107.5707,W,1,9,1.8,17,M,,M,,*52
06/06/2014	05:06:34.231	$GPGGA,050633,2441.1097,N,08107.5708,W,1,9,1.8,17,M,,M,,*5D
06/06/2014	05:06:35.344	$GPGGA,050634,2441.1096,N,08107.5707,W,1,9,1.8,17,M,,M,,*54
06/06/2014	05:06:36.395	$GPGGA,050635,2441.1097,N,08107.5708,W,1,9,1.8,17,M,,M,,*5B
06/06/2014	05:06:35.606	$GPGGA,050636,2441.1098,N,08107.5708,W,1,9,1.8,17,M,,M,,*57
06/06/2014	05:06:36.606	$GPGGA,050637,2441.1097,N,08107.5708,W,1,9,1.8,17,M,,M,,*59
06/06/2014	05:06:37.534	$GPGGA,050638,2441.1098,N,08107.5709,W,1,9,1.8,17,M,,M,,*58
06/06/2014	05:06:38.699	$GPGGA,050639,2441.1097,N,08107.5709,W,1,9,1.8,17,M,,M,,*56
06/06/2014	05:06:39.699	$GPGGA,050640,2441.1098,N,08107.5709,W,1,9,1.8,17,M,,M,,*57
06/06/2014	05:06:40.719	$GPGGA,050641,2441.1097,N,08107.5709,W,1,9,1.8,17,M,,M,,*59
06/06/2014	05:06:41.749	$GPGGA,050642,2441.1098,N,08107.5709,W,1,9,1.8,17,M,,M,,*55
06/06/2014	05:06:42.770	$GPGGA,050643,2441.1097,N,08107.5709,W,1,9,1.8,17,M,,M,,*5B
06/06/2014	05:06:43.811	$GPGGA,050644,2441.1098,N,08107.5710,W,1,9,1.8,17,M,,M,,*5B
06/06/2014	05:06:44.852	$GPGGA,050645,2441.1097,N,08107.5710,W,1,9,1.8,17,M,,M,,*55
06/06/2014	05:06:45.852	$GPGGA,050646,2441.1098,N,08107.5710,W,1,9,1.8,17,M,,M,,*59
06/06/2014	05:06:46.894	$GPGGA,050647,2441.1097,N,08107.5710,W,1,9,1.8,17,M,,M,,*57
06/06/2014	05:06:47.933	$GPGGA,050648,2441.1098,N,08107.5710,W,1,9,1.8,17,M,,M,,*57
06/06/2014	05:06:48.963	$GPGGA,050649,2441.1097,N,08107.5710,W,1,9,1.8,17,M,,M,,*59
06/06/2014	05:06:49.973	$GPGGA,050650,2441.1098,N,08107.5710,W,1,9,1.8,18,M,,M,,*51
06/06/2014	05:06:51.014	$GPGGA,050651,2441.1098,N,08107.5710,W,1,9,1.8,18,M,,M,,*50
06/06/2014	05:06:52.035	$GPGGA,050652,2441.1098,N,08107.5710,W,1,9,1.8,18,M,,M,,*53
06/06/2014	05:06:53.055	$GPGGA,050653,2441.1097,N,08107.5710,W,1,9,1.8,18,M,,M,,*5D
06/06/2014	05:06:54.086	$GPGGA,050654,2441.1098,N,08107.5710,W,1,9,1.8,18,M,,M,,*55
06/06/2014	05:06:55.127	$GPGGA,050655,2441.1098,N,08107.5710,W,1,9,1.8,18,M,,M,,*54
06/06/2014	05:06:56.158	$GPGGA,050656,2441.1098,N,08107.5710,W,1,9,1.8,18,M,,M,,*57
06/06/2014	05:06:57.157	$GPGGA,050657,2441.1098,N,08107.5710,W,1,9,1.8,18,M,,M,,*56
06/06/2014	05:06:58.198	$GPGGA,050658,2441.1100,N,08107.5709,W,1,9,1.8,18,M,,M,,*51
06/06/2014	05:06:59.229	$GPGGA,050659,2441.1099,N,08107.5709,W,1,9,1.8,18,M,,M,,*51
06/06/2014	05:07:00.270	$GPGGA,050700,2441.1100,N,08107.5709,W,1,9,1.8,18,M,,M,,*5D
06/06/2014	05:07:01.301	$GPGGA,050701,2441.1099,N,08107.5709,W,1,9,1.8,18,M,,M,,*5D
06/06/2014	05:07:02.311	$GPGGA,050702,2441.1100,N,08107.5710,W,1,9,1.8,18,M,,M,,*57
06/06/2014	05:07:03.342	$GPGGA,050703,2441.1099,N,08107.5710,W,1,9,1.8,18,M,,M,,*57
06/06/2014	05:07:04.383	$GPGGA,050704,2441.1100,N,08107.5710,W,1,9,1.8,18,M,,M,,*51
06/06/2014	05:07:05.403	$GPGGA,050705,2441.1099,N,08107.5710,W,1,9,1.8,18,M,,M,,*51
06/06/2014	05:07:06.422	$GPGGA,050706,2441.1100,N,08107.5710,W,1,9,1.8,18,M,,M,,*53
06/06/2014	05:07:07.463	$GPGGA,050707,2441.1099,N,08107.5709,W,1,9,1.8,18,M,,M,,*5B
06/06/2014	05:07:08.504	$GPGGA,050708,2441.1100,N,08107.5710,W,1,9,1.8,18,M,,M,,*5D
06/06/2014	05:07:09.514	$GPGGA,050709,2441.1099,N,08107.5710,W,1,9,1.8,18,M,,M,,*5D
06/06/2014	05:07:10.545	$GPGGA,050710,2441.1101,N,08107.5710,W,1,9,1.8,18,M,,M,,*55
06/06/2014	05:07:11.555	$GPGGA,050711,2441.1100,N,08107.5710,W,1,9,1.8,18,M,,M,,*55
06/06/2014	05:07:12.617	$GPGGA,050712,2441.1099,N,08107.5710,W,1,9,1.8,18,M,,M,,*57
06/06/2014	05:07:13.740	$GPGGA,050713,2441.1100,N,08107.5710,W,1,9,1.8,18,M,,M,,*57
06/06/2014	05:07:14.647	$GPGGA,050714,2441.1099,N,08107.5710,W,1,9,1.8,18,M,,M,,*51
06/06/2014	05:07:15.678	$GPGGA,050715,2441.1100,N,08107.5710,W,1,9,1.8,18,M,,M,,*51
06/06/2014	05:07:16.853	$GPGGA,050716,2441.1099,N,08107.5710,W,1,9,1.8,18,M,,M,,*53
06/06/2014	05:07:17.853	$GPGGA,050717,2441.1100,N,08107.5709,W,1,9,1.8,18,M,,M,,*5B
06/06/2014	05:07:18.760	$GPGGA,050718,2441.1099,N,08107.5709,W,1,9,1.8,18,M,,M,,*55
06/06/2014	05:07:19.791	$GPGGA,050719,2441.1100,N,08107.5710,W,1,9,1.8,18,M,,M,,*5D
06/06/2014	05:07:20.842	$GPGGA,050720,2441.1099,N,08107.5709,W,1,9,1.8,18,M,,M,,*5E
06/06/2014	05:07:21.862	$GPGGA,050721,2441.1101,N,08107.5709,W,1,9,1.8,18,M,,M,,*5F
06/06/2014	05:07:22.893	$GPGGA,050722,2441.1100,N,08107.5709,W,1,9,1.8,18,M,,M,,*5D
06/06/2014	05:07:24.005	$GPGGA,050723,2441.1101,N,08107.5709,W,1,9,1.8,18,M,,M,,*5D
06/06/2014	05:07:24.953	$GPGGA,050724,2441.1100,N,08107.5709,W,1,9,1.8,18,M,,M,,*5B
06/06/2014	05:07:26.066	$GPGGA,050725,2441.1099,N,08107.5709,W,1,9,1.8,18,M,,M,,*5B
06/06/2014	05:07:27.087	$GPGGA,050726,2441.1101,N,08107.5708,W,1,9,1.8,18,M,,M,,*59
06/06/2014	05:07:28.159	$GPGGA,050727,2441.1100,N,08107.5709,W,1,9,1.8,18,M,,M,,*58
06/06/2014	05:07:29.169	$GPGGA,050728,2441.1101,N,08107.5709,W,1,9,1.8,18,M,,M,,*56
06/06/2014	05:07:30.210	$GPGGA,050729,2441.1100,N,08107.5708,W,1,9,1.8,18,M,,M,,*57
06/06/2014	05:07:31.220	$GPGGA,050730,2441.1101,N,08107.5708,W,1,9,1.8,18,M,,M,,*5E
06/06/2014	05:07:32.251	$GPGGA,050731,2441.1100,N,08107.5708,W,1,9,1.8,18,M,,M,,*5E
06/06/2014	05:07:33.281	$GPGGA,050732,2441.1102,N,08107.5708,W,1,9,1.8,18,M,,M,,*5F
06/06/2014	05:07:34.302	$GPGGA,050733,2441.1102,N,08107.5708,W,1,9,1.8,18,M,,M,,*5E
06/06/2014	05:07:35.333	$GPGGA,050734,2441.1100,N,08107.5708,W,1,9,1.8,18,M,,M,,*5B
06/06/2014	05:07:36.363	$GPGGA,050735,2441.1101,N,08107.5708,W,1,9,1.8,18,M,,M,,*5B
06/06/2014	05:07:35.554	$GPGGA,050736,2441.1100,N,08107.5708,W,1,9,1.8,18,M,,M,,*59
06/06/2014	05:07:37.605	$GPGGA,050738,2441.1100,N,08107.5708,W,1,9,1.8,18,M,,M,,*57
06/06/2014	05:07:38.656	$GPGGA,050739,2441.1101,N,08107.5707,W,1,9,1.8,18,M,,M,,*58
06/06/2014	05:07:39.667	$GPGGA,050740,2441.1100,N,08107.5708,W,1,9,1.8,18,M,,M,,*58
06/06/2014	05:07:40.675	$GPGGA,050741,2441.1101,N,08107.5706,W,1,9,1.8,18,M,,M,,*56
06/06/2014	05:07:41.716	$GPGGA,050742,2441.1100,N,08107.5706,W,1,9,1.8,18,M,,M,,*54
06/06/2014	05:07:42.737	$GPGGA,050743,2441.1102,N,08107.5706,W,1,9,1.8,18,M,,M,,*57
06/06/2014	05:07:43.788	$GPGGA,050744,2441.1102,N,08107.5706,W,1,9,1.8,18,M,,M,,*50
06/06/2014	05:07:44.788	$GPGGA,050745,2441.1102,N,08107.5706,W,1,9,1.8,18,M,,M,,*51
06/06/2014	05:07:45.829	$GPGGA,050746,2441.1102,N,08107.5706,W,1,9,1.8,18,M,,M,,*52
06/06/2014	05:07:46.849	$GPGGA,050747,2441.1102,N,08107.5706,W,1,9,1.8,18,M,,M,,*53
06/06/2014	05:07:47.901	$GPGGA,050748,2441.1102,N,08107.5706,W,1,9,1.8,18,M,,M,,*5C
06/06/2014	05:07:48.911	$GPGGA,050749,2441.1102,N,08107.5706,W,1,9,1.8,18,M,,M,,*5D
06/06/2014	05:07:49.941	$GPGGA,050750,2441.1102,N,08107.5706,W,1,9,1.8,18,M,,M,,*55
06/06/2014	05:07:50.962	$GPGGA,050751,2441.1104,N,08107.5705,W,1,9,1.8,18,M,,M,,*51
06/06/2014	05:07:52.013	$GPGGA,050752,2441.1103,N,08107.5705,W,1,9,1.8,18,M,,M,,*55
06/06/2014	05:07:53.147	$GPGGA,050753,2441.1104,N,08107.5705,W,1,9,1.8,18,M,,M,,*53
06/06/2014	05:07:54.044	$GPGGA,050754,2441.1103,N,08107.5705,W,1,9,1.8,18,M,,M,,*53
06/06/2014	05:07:55.095	$GPGGA,050755,2441.1105,N,08107.5705,W,1,9,1.8,18,M,,M,,*54
06/06/2014	05:07:56.136	$GPGGA,050756,2441.1104,N,08107.5705,W,1,9,1.8,18,M,,M,,*56
06/06/2014	05:07:57.156	$GPGGA,050757,2441.1105,N,08107.5705,W,1,9,1.8,18,M,,M,,*56
06/06/2014	05:07:58.176	$GPGGA,050758,2441.1104,N,08107.5705,W,1,9,1.8,18,M,,M,,*58
06/06/2014	05:07:59.320	$GPGGA,050759,2441.1105,N,08107.5705,W,1,9,1.8,18,M,,M,,*58
06/06/2014	05:08:00.247	$GPGGA,050800,2441.1105,N,08107.5706,W,1,9,1.8,18,M,,M,,*58
06/06/2014	05:08:01.351	$GPGGA,050801,2441.1105,N,08107.5706,W,1,9,1.8,18,M,,M,,*59
06/06/2014	05:08:02.279	$GPGGA,050802,2441.1105,N,08107.5706,W,1,9,1.8,18,M,,M,,*5A
06/06/2014	05:08:03.309	$GPGGA,050803,2441.1105,N,08107.5706,W,1,9,1.8,18,M,,M,,*5B
06/06/2014	05:08:04.484	$GPGGA,050804,2441.1106,N,08107.5706,W,1,9,1.8,18,M,,M,,*5F
06/06/2014	05:08:05.504	$GPGGA,050805,2441.1106,N,08107.5708,W,1,9,1.8,18,M,,M,,*50
06/06/2014	05:08:06.514	$GPGGA,050806,2441.1106,N,08107.5707,W,1,9,1.8,18,M,,M,,*5C
06/06/2014	05:08:07.524	$GPGGA,050807,2441.1106,N,08107.5706,W,1,9,1.8,18,M,,M,,*5C
06/06/2014	05:08:08.472	$GPGGA,050808,2441.1106,N,08107.5708,W,1,9,1.8,18,M,,M,,*5D
06/06/2014	05:08:09.482	$GPGGA,050809,2441.1106,N,08107.5707,W,1,9,1.8,18,M,,M,,*53
06/06/2014	05:08:10.637	$GPGGA,050810,2441.1106,N,08107.5708,W,1,9,1.8,18,M,,M,,*54
06/06/2014	05:08:11.544	$GPGGA,050811,2441.1108,N,08107.5707,W,1,9,1.8,18,M,,M,,*54
06/06/2014	05:08:12.688	$GPGGA,050812,2441.1107,N,08107.5708,W,1,9,1.8,18,M,,M,,*57
06/06/2014	05:08:13.617	$GPGGA,050813,2441.1108,N,08107.5708,W,1,9,1.8,18,M,,M,,*59
06/06/2014	05:08:14.730	$GPGGA,050814,2441.1107,N,08107.5708,W,1,9,1.8,18,M,,M,,*51
06/06/2014	05:08:15.790	$GPGGA,050815,2441.1108,N,08107.5708,W,1,9,1.8,18,M,,M,,*5F
06/06/2014	05:08:16.799	$GPGGA,050816,2441.1107,N,08107.5708,W,1,9,1.8,18,M,,M,,*53
06/06/2014	05:08:17.799	$GPGGA,050817,2441.1108,N,08107.5708,W,1,9,1.8,18,M,,M,,*5D
06/06/2014	05:08:18.830	$GPGGA,050818,2441.1107,N,08107.5708,W,1,9,1.8,18,M,,M,,*5D
06/06/2014	05:08:19.891	$GPGGA,050819,2441.1109,N,08107.5708,W,1,9,1.8,18,M,,M,,*52
06/06/2014	05:08:20.943	$GPGGA,050820,2441.1107,N,08107.5707,W,1,9,1.8,18,M,,M,,*59
06/06/2014	05:08:21.922	$GPGGA,050821,2441.1109,N,08107.5708,W,1,9,1.8,18,M,,M,,*59
06/06/2014	05:08:22.963	$GPGGA,050822,2441.1107,N,08107.5708,W,1,9,1.8,18,M,,M,,*54
06/06/2014	05:08:23.994	$GPGGA,050823,2441.1109,N,08107.5708,W,1,9,1.8,18,M,,M,,*5B
06/06/2014	05:08:25.024	$GPGGA,050824,2441.1107,N,08107.5708,W,1,9,1.8,18,M,,M,,*52
06/06/2014	05:08:26.046	$GPGGA,050825,2441.1108,N,08107.5708,W,1,9,1.8,18,M,,M,,*5C
06/06/2014	05:08:27.075	$GPGGA,050826,2441.1107,N,08107.5708,W,1,9,1.8,18,M,,M,,*50
06/06/2014	05:08:28.137	$GPGGA,050827,2441.1108,N,08107.5708,W,1,9,1.8,18,M,,M,,*5E
06/06/2014	05:08:29.137	$GPGGA,050828,2441.1107,N,08107.5708,W,1,9,1.8,18,M,,M,,*5E
06/06/2014	05:08:30.178	$GPGGA,050829,2441.1108,N,08107.5708,W,1,9,1.8,18,M,,M,,*50
06/06/2014	05:08:31.198	$GPGGA,050830,2441.1107,N,08107.5708,W,1,9,1.8,18,M,,M,,*57
06/06/2014	05:08:32.250	$GPGGA,050831,2441.1108,N,08107.5708,W,1,9,1.8,18,M,,M,,*59
06/06/2014	05:08:33.250	$GPGGA,050832,2441.1107,N,08107.5708,W,1,9,1.8,18,M,,M,,*55
06/06/2014	05:08:34.300	$GPGGA,050833,2441.1108,N,08107.5708,W,1,9,1.8,17,M,,M,,*54
06/06/2014	05:08:35.289	$GPGGA,050834,2441.1107,N,08107.5708,W,1,9,1.8,17,M,,M,,*5C
06/06/2014	05:08:36.361	$GPGGA,050835,2441.1108,N,08107.5708,W,1,9,1.8,17,M,,M,,*52
06/06/2014	05:08:35.530	$GPGGA,050836,2441.1107,N,08107.5708,W,1,9,1.8,17,M,,M,,*5E
06/06/2014	05:08:36.561	$GPGGA,050837,2441.1108,N,08107.5708,W,1,9,1.8,17,M,,M,,*50
06/06/2014	05:08:37.581	$GPGGA,050838,2441.1107,N,08107.5708,W,1,9,1.8,17,M,,M,,*50
06/06/2014	05:08:38.633	$GPGGA,050839,2441.1108,N,08107.5708,W,1,9,1.8,17,M,,M,,*5E
06/06/2014	05:08:39.643	$GPGGA,050840,2441.1107,N,08107.5707,W,1,9,1.8,17,M,,M,,*50
06/06/2014	05:08:40.653	$GPGGA,050841,2441.1108,N,08107.5708,W,1,9,1.8,17,M,,M,,*51
06/06/2014	05:08:41.704	$GPGGA,050842,2441.1106,N,08107.5707,W,1,9,1.8,17,M,,M,,*53
06/06/2014	05:08:42.735	$GPGGA,050843,2441.1106,N,08107.5708,W,1,9,1.8,17,M,,M,,*5D
06/06/2014	05:08:43.777	$GPGGA,050844,2441.1108,N,08107.5707,W,1,9,1.8,17,M,,M,,*5B
06/06/2014	05:08:44.765	$GPGGA,050845,2441.1107,N,08107.5706,W,1,9,1.8,17,M,,M,,*54
06/06/2014	05:08:45.909	$GPGGA,050846,2441.1108,N,08107.5706,W,1,9,1.8,17,M,,M,,*58
06/06/2014	05:08:46.816	$GPGGA,050847,2441.1107,N,08107.5706,W,1,9,1.8,17,M,,M,,*56
06/06/2014	05:08:47.888	$GPGGA,050848,2441.1108,N,08107.5706,W,1,9,1.8,17,M,,M,,*56
06/06/2014	05:08:49.012	$GPGGA,050849,2441.1107,N,08107.5706,W,1,9,1.8,17,M,,M,,*58
06/06/2014	05:08:49.919	$GPGGA,050850,2441.1108,N,08107.5706,W,1,9,1.8,17,M,,M,,*5F
06/06/2014	05:08:50.969	$GPGGA,050851,2441.1107,N,08107.5706,W,1,9,1.8,17,M,,M,,*51
06/06/2014	05:08:52.092	$GPGGA,050852,2441.1108,N,08107.5706,W,1,9,1.8,17,M,,M,,*5D
06/06/2014	05:08:53.030	$GPGGA,050853,2441.1106,N,08107.5706,W,1,9,1.8,17,M,,M,,*52
06/06/2014	05:08:54.123	$GPGGA,050854,2441.1106,N,08107.5705,W,1,9,1.8,17,M,,M,,*56
06/06/2014	05:08:55.185	$GPGGA,050855,2441.1106,N,08107.5705,W,1,9,1.8,17,M,,M,,*57
06/06/2014	05:08:56.197	$GPGGA,050856,2441.1106,N,08107.5705,W,1,9,1.8,17,M,,M,,*54
06/06/2014	05:08:57.246	$GPGGA,050857,2441.1106,N,08107.5705,W,1,9,1.8,17,M,,M,,*55
06/06/2014	05:08:58.235	$GPGGA,050858,2441.1106,N,08107.5705,W,1,9,1.8,17,M,,M,,*5A
06/06/2014	05:08:59.297	$GPGGA,050859,2441.1106,N,08107.5705,W,1,9,1.8,17,M,,M,,*5B
06/06/2014	05:09:00.317	$GPGGA,050900,2441.1106,N,08107.5705,W,1,9,1.8,17,M,,M,,*56
06/06/2014	05:09:01.358	$GPGGA,050901,2441.1105,N,08107.5705,W,1,9,1.8,17,M,,M,,*54
06/06/2014	05:09:02.358	$GPGGA,050902,2441.1105,N,08107.5705,W,1,9,1.8,17,M,,M,,*57
06/06/2014	05:09:03.379	$GPGGA,050903,2441.1105,N,08107.5705,W,1,9,1.8,17,M,,M,,*56
06/06/2014	05:09:05.842	$GPGGA,050905,2441.1105,N,08107.5705,W,1,9,1.8,17,M,,M,,*50
06/06/2014	05:09:06.471	$GPGGA,050906,2441.1105,N,08107.5705,W,1,9,1.8,17,M,,M,,*53
06/06/2014	05:09:07.491	$GPGGA,050907,2441.1105,N,08107.5705,W,1,9,1.8,17,M,,M,,*52
06/06/2014	05:09:08.542	$GPGGA,050908,2441.1105,N,08107.5704,W,1,9,1.8,17,M,,M,,*5C
06/06/2014	05:09:09.572	$GPGGA,050909,2441.1105,N,08107.5704,W,1,9,1.8,17,M,,M,,*5D
06/06/2014	05:09:10.572	$GPGGA,050910,2441.1104,N,08107.5704,W,1,9,1.8,17,M,,M,,*54
06/06/2014	05:09:11.603	$GPGGA,050911,2441.1105,N,08107.5704,W,1,9,1.8,17,M,,M,,*54
06/06/2014	05:09:12.644	$GPGGA,050912,2441.1104,N,08107.5704,W,1,9,1.8,17,M,,M,,*56
06/06/2014	05:09:13.685	$GPGGA,050913,2441.1105,N,08107.5704,W,1,9,1.8,17,M,,M,,*56
06/06/2014	05:09:14.695	$GPGGA,050914,2441.1103,N,08107.5704,W,1,9,1.8,17,M,,M,,*57
06/06/2014	05:09:15.746	$GPGGA,050915,2441.1104,N,08107.5704,W,1,9,1.8,17,M,,M,,*51
06/06/2014	05:09:16.766	$GPGGA,050916,2441.1103,N,08107.5704,W,1,9,1.8,17,M,,M,,*55
06/06/2014	05:09:17.818	$GPGGA,050917,2441.1104,N,08107.5704,W,1,9,1.8,17,M,,M,,*53
06/06/2014	05:09:18.797	$GPGGA,050918,2441.1102,N,08107.5704,W,1,9,1.8,17,M,,M,,*5A
06/06/2014	05:09:19.869	$GPGGA,050919,2441.1102,N,08107.5704,W,1,9,1.8,17,M,,M,,*5B
06/06/2014	05:09:20.869	$GPGGA,050920,2441.1102,N,08107.5704,W,1,9,1.8,17,M,,M,,*51
06/06/2014	05:09:21.889	$GPGGA,050921,2441.1102,N,08107.5704,W,1,9,1.8,17,M,,M,,*50
06/06/2014	05:09:22.930	$GPGGA,050922,2441.1102,N,08107.5704,W,1,9,1.8,17,M,,M,,*53
06/06/2014	05:09:23.971	$GPGGA,050923,2441.1102,N,08107.5704,W,1,9,1.8,17,M,,M,,*52
06/06/2014	05:09:25.002	$GPGGA,050924,2441.1102,N,08107.5704,W,1,9,1.8,17,M,,M,,*55
06/06/2014	05:09:26.012	$GPGGA,050925,2441.1102,N,08107.5704,W,1,9,1.8,17,M,,M,,*54
06/06/2014	05:09:27.052	$GPGGA,050926,2441.1102,N,08107.5704,W,1,9,1.8,17,M,,M,,*57
06/06/2014	05:09:28.083	$GPGGA,050927,2441.1102,N,08107.5704,W,1,9,1.8,17,M,,M,,*56
06/06/2014	05:09:29.103	$GPGGA,050928,2441.1102,N,08107.5704,W,1,9,1.8,17,M,,M,,*59
06/06/2014	05:09:30.134	$GPGGA,050929,2441.1102,N,08107.5704,W,1,9,1.8,17,M,,M,,*58
06/06/2014	05:09:31.164	$GPGGA,050930,2441.1102,N,08107.5704,W,1,9,1.8,17,M,,M,,*50
06/06/2014	05:09:32.205	$GPGGA,050931,2441.1102,N,08107.5704,W,1,9,1.8,17,M,,M,,*51
06/06/2014	05:09:33.236	$GPGGA,050932,2441.1102,N,08107.5704,W,1,9,1.8,17,M,,M,,*52
06/06/2014	05:09:34.256	$GPGGA,050933,2441.1102,N,08107.5705,W,1,9,1.8,17,M,,M,,*52
06/06/2014	05:09:35.359	$GPGGA,050934,2441.1102,N,08107.5705,W,1,9,1.8,17,M,,M,,*55
06/06/2014	05:09:36.421	$GPGGA,050935,2441.1102,N,08107.5705,W,1,9,1.8,17,M,,M,,*54
06/06/2014	05:09:35.508	$GPGGA,050936,2441.1102,N,08107.5705,W,1,9,1.8,17,M,,M,,*57
06/06/2014	05:09:36.611	$GPGGA,050937,2441.1102,N,08107.5705,W,1,9,1.8,17,M,,M,,*56
06/06/2014	05:09:37.642	$GPGGA,050938,2441.1102,N,08107.5705,W,1,9,1.8,17,M,,M,,*59
06/06/2014	05:09:38.559	$GPGGA,050939,2441.1102,N,08107.5705,W,1,9,1.8,17,M,,M,,*58
06/06/2014	05:09:39.724	$GPGGA,050940,2441.1102,N,08107.5705,W,1,9,1.8,17,M,,M,,*56
06/06/2014	05:09:40.755	$GPGGA,050941,2441.1102,N,08107.5705,W,1,9,1.8,17,M,,M,,*57
06/06/2014	05:09:41.651	$GPGGA,050942,2441.1102,N,08107.5705,W,1,9,1.8,17,M,,M,,*54
06/06/2014	05:09:42.805	$GPGGA,050943,2441.1102,N,08107.5705,W,1,9,1.8,17,M,,M,,*55
06/06/2014	05:09:43.732	$GPGGA,050944,2441.1102,N,08107.5705,W,1,9,1.8,17,M,,M,,*52
06/06/2014	05:09:44.835	$GPGGA,050945,2441.1102,N,08107.5705,W,1,9,1.8,17,M,,M,,*53
06/06/2014	05:09:45.897	$GPGGA,050946,2441.1102,N,08107.5706,W,1,9,1.8,17,M,,M,,*53
06/06/2014	05:09:46.897	$GPGGA,050947,2441.1102,N,08107.5705,W,1,9,1.8,17,M,,M,,*51
06/06/2014	05:09:47.948	$GPGGA,050948,2441.1102,N,08107.5706,W,1,9,1.8,17,M,,M,,*5D
06/06/2014	05:09:48.948	$GPGGA,050949,2441.1102,N,08107.5706,W,1,9,1.8,17,M,,M,,*5C
06/06/2014	05:09:49.989	$GPGGA,050950,2441.1102,N,08107.5706,W,1,9,1.8,17,M,,M,,*54
06/06/2014	05:09:51.061	$GPGGA,050951,2441.1102,N,08107.5706,W,1,9,1.8,17,M,,M,,*55
06/06/2014	05:09:52.060	$GPGGA,050952,2441.1102,N,08107.5706,W,1,9,1.8,17,M,,M,,*56
06/06/2014	05:09:53.060	$GPGGA,050953,2441.1102,N,08107.5706,W,1,9,1.8,17,M,,M,,*57
06/06/2014	05:09:54.091	$GPGGA,050954,2441.1102,N,08107.5706,W,1,9,1.8,17,M,,M,,*50
06/06/2014	05:09:55.153	$GPGGA,050955,2441.1102,N,08107.5706,W,1,9,1.8,17,M,,M,,*51
06/06/2014	05:09:56.163	$GPGGA,050956,2441.1102,N,08107.5706,W,1,9,1.8,17,M,,M,,*52
06/06/2014	05:09:57.204	$GPGGA,050957,2441.1102,N,08107.5706,W,1,9,1.8,17,M,,M,,*53
06/06/2014	05:09:58.203	$GPGGA,050958,2441.1102,N,08107.5706,W,1,9,1.8,17,M,,M,,*5C
06/06/2014	05:09:59.250	$GPGGA,050959,2441.1102,N,08107.5706,W,1,9,1.8,17,M,,M,,*5D
06/06/2014	05:10:00.253	$GPGGA,051000,2441.1102,N,08107.5708,W,1,9,1.8,17,M,,M,,*57
06/06/2014	05:10:01.274	$GPGGA,051001,2441.1102,N,08107.5707,W,1,9,1.8,17,M,,M,,*59
06/06/2014	05:10:02.246	$GPGGA,051002,2441.1102,N,08107.5706,W,1,9,1.8,17,M,,M,,*5B
06/06/2014	05:10:03.269	$GPGGA,051003,2441.1102,N,08107.5708,W,1,9,1.8,17,M,,M,,*54
06/06/2014	05:10:04.292	$GPGGA,051004,2441.1102,N,08107.5707,W,1,9,1.8,17,M,,M,,*5C
06/06/2014	05:10:05.294	$GPGGA,051005,2441.1102,N,08107.5708,W,1,9,1.8,17,M,,M,,*52
06/06/2014	05:10:06.286	$GPGGA,051006,2441.1102,N,08107.5707,W,1,9,1.8,17,M,,M,,*5E
06/06/2014	05:10:07.329	$GPGGA,051007,2441.1102,N,08107.5708,W,1,9,1.8,17,M,,M,,*50
06/06/2014	05:10:08.332	$GPGGA,051008,2441.1102,N,08107.5707,W,1,9,1.8,17,M,,M,,*50
06/06/2014	05:10:09.324	$GPGGA,051009,2441.1102,N,08107.5708,W,1,9,1.8,17,M,,M,,*5E
06/06/2014	05:10:10.347	$GPGGA,051010,2441.1102,N,08107.5707,W,1,9,1.8,17,M,,M,,*59
06/06/2014	05:10:11.369	$GPGGA,051011,2441.1102,N,08107.5708,W,1,9,1.8,17,M,,M,,*57
06/06/2014	05:10:12.362	$GPGGA,051012,2441.1102,N,08107.5707,W,1,9,1.8,17,M,,M,,*5B
06/06/2014	05:10:13.415	$GPGGA,051013,2441.1102,N,08107.5708,W,1,9,1.8,17,M,,M,,*55
06/06/2014	05:10:14.377	$GPGGA,051014,2441.1104,N,08107.5707,W,1,9,1.8,17,M,,M,,*5B
06/06/2014	05:10:15.389	$GPGGA,051015,2441.1102,N,08107.5708,W,1,9,1.8,17,M,,M,,*53
06/06/2014	05:10:16.422	$GPGGA,051016,2441.1102,N,08107.5708,W,1,9,1.8,17,M,,M,,*50
06/06/2014	05:10:17.526	$GPGGA,051017,2441.1102,N,08107.5708,W,1,9,1.8,17,M,,M,,*51
06/06/2014	05:10:18.436	$GPGGA,051018,2441.1102,N,08107.5708,W,1,9,1.8,17,M,,M,,*5E
06/06/2014	05:10:19.429	$GPGGA,051019,2441.1102,N,08107.5708,W,1,9,1.8,17,M,,M,,*5F
06/06/2014	05:10:20.482	$GPGGA,051020,2441.1102,N,08107.5708,W,1,9,1.8,17,M,,M,,*55
06/06/2014	05:10:21.454	$GPGGA,051021,2441.1102,N,08107.5708,W,1,9,1.8,17,M,,M,,*54
06/06/2014	05:10:22.578	$GPGGA,051022,2441.1102,N,08107.5708,W,1,9,1.8,17,M,,M,,*57
06/06/2014	05:10:23.469	$GPGGA,051023,2441.1102,N,08107.5708,W,1,9,1.8,17,M,,M,,*56
06/06/2014	05:10:24.492	$GPGGA,051024,2441.1102,N,08107.5708,W,1,9,1.8,17,M,,M,,*51
06/06/2014	05:10:25.494	$GPGGA,051025,2441.1104,N,08107.5708,W,1,9,1.8,17,M,,M,,*56
06/06/2014	05:10:26.497	$GPGGA,051026,2441.1102,N,08107.5708,W,1,9,1.8,17,M,,M,,*53
06/06/2014	05:10:27.641	$GPGGA,051027,2441.1104,N,08107.5708,W,1,9,1.8,17,M,,M,,*54
06/06/2014	05:10:28.542	$GPGGA,051028,2441.1102,N,08107.5708,W,1,9,1.8,17,M,,M,,*5D
06/06/2014	05:10:29.666	$GPGGA,051029,2441.1104,N,08107.5708,W,1,9,1.8,17,M,,M,,*5A
06/06/2014	05:10:30.567	$GPGGA,051030,2441.1103,N,08107.5708,W,1,9,1.8,17,M,,M,,*55
06/06/2014	05:10:31.560	$GPGGA,051031,2441.1104,N,08107.5708,W,1,9,1.8,17,M,,M,,*53
06/06/2014	05:10:32.684	$GPGGA,051032,2441.1102,N,08107.5708,W,1,9,1.8,17,M,,M,,*56
06/06/2014	05:10:33.605	$GPGGA,051033,2441.1104,N,08107.5708,W,1,9,1.8,17,M,,M,,*51
06/06/2014	05:10:34.679	$GPGGA,051034,2441.1103,N,08107.5707,W,1,9,1.8,17,M,,M,,*5E
06/06/2014	05:10:35.720	$GPGGA,051035,2441.1104,N,08107.5708,W,1,9,1.8,17,M,,M,,*57
06/06/2014	05:10:35.571	$GPGGA,051036,2441.1103,N,08107.5707,W,1,9,1.8,17,M,,M,,*5C
06/06/2014	05:10:36.564	$GPGGA,051037,2441.1104,N,08107.5708,W,1,9,1.8,17,M,,M,,*55
06/06/2014	05:10:37.576	$GPGGA,051038,2441.1102,N,08107.5707,W,1,9,1.8,17,M,,M,,*53
06/06/2014	05:10:38.579	$GPGGA,051039,2441.1104,N,08107.5708,W,1,9,1.8,17,M,,M,,*5B
06/06/2014	05:10:39.602	$GPGGA,051040,2441.1103,N,08107.5707,W,1,9,1.8,17,M,,M,,*5D
06/06/2014	05:10:40.614	$GPGGA,051041,2441.1104,N,08107.5706,W,1,9,1.8,18,M,,M,,*55
06/06/2014	05:10:41.607	$GPGGA,051042,2441.1103,N,08107.5706,W,1,9,1.8,18,M,,M,,*51
06/06/2014	05:10:42.639	$GPGGA,051043,2441.1104,N,08107.5708,W,1,9,1.8,18,M,,M,,*59
06/06/2014	05:10:43.652	$GPGGA,051044,2441.1103,N,08107.5707,W,1,9,1.8,18,M,,M,,*56
06/06/2014	05:10:44.654	$GPGGA,051045,2441.1104,N,08107.5708,W,1,9,1.8,18,M,,M,,*5F
06/06/2014	05:10:45.657	$GPGGA,051046,2441.1103,N,08107.5707,W,1,9,1.8,18,M,,M,,*54
06/06/2014	05:10:46.659	$GPGGA,051047,2441.1104,N,08107.5708,W,1,9,1.8,18,M,,M,,*5D
06/06/2014	05:10:47.692	$GPGGA,051048,2441.1103,N,08107.5707,W,1,9,1.8,18,M,,M,,*5A
06/06/2014	05:10:48.705	$GPGGA,051049,2441.1104,N,08107.5708,W,1,9,1.8,18,M,,M,,*53
06/06/2014	05:10:49.687	$GPGGA,051050,2441.1103,N,08107.5707,W,1,9,1.8,18,M,,M,,*53
06/06/2014	05:10:50.720	$GPGGA,051051,2441.1104,N,08107.5708,W,1,9,1.8,18,M,,M,,*5A
06/06/2014	05:10:51.733	$GPGGA,051052,2441.1103,N,08107.5707,W,1,9,1.8,18,M,,M,,*51
06/06/2014	05:10:52.754	$GPGGA,051053,2441.1104,N,08107.5708,W,1,9,1.8,18,M,,M,,*58
06/06/2014	05:10:53.747	$GPGGA,051054,2441.1103,N,08107.5707,W,1,9,1.8,18,M,,M,,*57
06/06/2014	05:10:54.759	$GPGGA,051055,2441.1104,N,08107.5708,W,1,8,2.1,18,M,,M,,*55
06/06/2014	05:10:55.772	$GPGGA,051056,2441.1103,N,08107.5708,W,1,8,1.8,18,M,,M,,*5B
06/06/2014	05:10:56.795	$GPGGA,051057,2441.1104,N,08107.5709,W,1,9,1.8,18,M,,M,,*5D
06/06/2014	05:10:57.767	$GPGGA,051058,2441.1105,N,08107.5710,W,1,9,1.8,18,M,,M,,*5B
06/06/2014	05:10:58.820	$GPGGA,051059,2441.1103,N,08107.5712,W,1,9,1.8,19,M,,M,,*5F
06/06/2014	05:10:59.822	$GPGGA,051100,2441.1105,N,08107.5711,W,1,9,1.8,19,M,,M,,*57
06/06/2014	05:11:00.804	$GPGGA,051101,2441.1103,N,08107.5712,W,1,9,1.8,19,M,,M,,*53
06/06/2014	05:11:01.827	$GPGGA,051102,2441.1105,N,08107.5712,W,1,9,1.8,19,M,,M,,*56
06/06/2014	05:11:02.870	$GPGGA,051103,2441.1104,N,08107.5713,W,1,9,1.8,19,M,,M,,*57
06/06/2014	05:11:03.842	$GPGGA,051104,2441.1105,N,08107.5713,W,1,9,1.8,19,M,,M,,*51
06/06/2014	05:11:04.885	$GPGGA,051105,2441.1104,N,08107.5715,W,1,9,1.8,19,M,,M,,*57
06/06/2014	05:11:05.857	$GPGGA,051106,2441.1105,N,08107.5715,W,1,9,1.8,19,M,,M,,*55
06/06/2014	05:11:07.013	$GPGGA,051107,2441.1103,N,08107.5715,W,1,9,1.8,20,M,,M,,*58
06/06/2014	05:11:07.882	$GPGGA,051108,2441.1104,N,08107.5715,W,1,9,1.8,20,M,,M,,*50
06/06/2014	05:11:09.048	$GPGGA,051109,2441.1103,N,08107.5716,W,1,9,1.8,20,M,,M,,*55
06/06/2014	05:11:09.899	$GPGGA,051110,2441.1104,N,08107.5716,W,1,9,1.8,20,M,,M,,*5A
06/06/2014	05:11:10.929	$GPGGA,051111,2441.1105,N,08107.5717,W,1,9,1.8,20,M,,M,,*5B
06/06/2014	05:11:11.932	$GPGGA,051112,2441.1104,N,08107.5717,W,1,9,1.8,20,M,,M,,*59
06/06/2014	05:11:12.955	$GPGGA,051113,2441.1105,N,08107.5717,W,1,9,1.8,20,M,,M,,*59
06/06/2014	05:11:13.937	$GPGGA,051114,2441.1104,N,08107.5719,W,1,9,1.8,20,M,,M,,*51
06/06/2014	05:11:14.949	$GPGGA,051115,2441.1105,N,08107.5718,W,1,9,1.8,21,M,,M,,*51
06/06/2014	05:11:16.155	$GPGGA,051116,2441.1104,N,08107.5719,W,1,9,1.8,21,M,,M,,*52
06/06/2014	05:11:16.985	$GPGGA,051117,2441.1105,N,08107.5718,W,1,9,1.8,21,M,,M,,*53
06/06/2014	05:11:18.078	$GPGGA,051118,2441.1104,N,08107.5719,W,1,9,1.8,21,M,,M,,*5C
06/06/2014	05:11:19.142	$GPGGA,051119,2441.1105,N,08107.5719,W,1,9,1.8,21,M,,M,,*5C
06/06/2014	05:11:20.195	$GPGGA,051120,2441.1105,N,08107.5719,W,1,9,1.8,21,M,,M,,*56
06/06/2014	05:11:21.116	$GPGGA,051121,2441.1105,N,08107.5719,W,1,9,1.8,21,M,,M,,*57
06/06/2014	05:11:22.201	$GPGGA,051122,2441.1105,N,08107.5719,W,1,9,1.8,21,M,,M,,*54
06/06/2014	05:11:23.131	$GPGGA,051123,2441.1105,N,08107.5719,W,1,9,1.8,21,M,,M,,*55
06/06/2014	05:11:24.235	$GPGGA,051124,2441.1105,N,08107.5719,W,1,9,1.8,22,M,,M,,*51
06/06/2014	05:11:25.182	$GPGGA,051125,2441.1105,N,08107.5719,W,1,9,1.8,22,M,,M,,*50
06/06/2014	05:11:26.240	$GPGGA,051126,2441.1105,N,08107.5720,W,1,9,1.8,22,M,,M,,*59
06/06/2014	05:11:27.222	$GPGGA,051127,2441.1105,N,08107.5720,W,1,9,1.8,22,M,,M,,*58
06/06/2014	05:11:28.275	$GPGGA,051128,2441.1105,N,08107.5719,W,1,9,1.8,22,M,,M,,*5D
06/06/2014	05:11:29.246	$GPGGA,051129,2441.1104,N,08107.5719,W,1,9,1.8,22,M,,M,,*5D
06/06/2014	05:11:30.279	$GPGGA,051130,2441.1105,N,08107.5719,W,1,9,1.8,22,M,,M,,*54
06/06/2014	05:11:31.261	$GPGGA,051131,2441.1104,N,08107.5719,W,1,9,1.8,22,M,,M,,*54
06/06/2014	05:11:32.244	$GPGGA,051132,2441.1105,N,08107.5719,W,1,9,1.8,22,M,,M,,*56
06/06/2014	05:11:33.287	$GPGGA,051133,2441.1104,N,08107.5719,W,1,9,1.8,22,M,,M,,*56
06/06/2014	05:11:34.249	$GPGGA,051134,2441.1105,N,08107.5718,W,1,9,1.8,22,M,,M,,*51
06/06/2014	05:11:35.322	$GPGGA,051135,2441.1104,N,08107.5719,W,1,9,1.8,22,M,,M,,*50
06/06/2014	05:11:35.529	$GPGGA,051136,2441.1105,N,08107.5718,W,1,9,1.8,22,M,,M,,*53
06/06/2014	05:11:36.612	$GPGGA,051137,2441.1104,N,08107.5717,W,1,9,1.8,22,M,,M,,*5C
06/06/2014	05:11:37.595	$GPGGA,051138,2441.1105,N,08107.5717,W,1,9,1.8,22,M,,M,,*52
06/06/2014	05:11:38.597	$GPGGA,051139,2441.1104,N,08107.5717,W,1,9,1.8,22,M,,M,,*52
06/06/2014	05:11:39.640	$GPGGA,051140,2441.1105,N,08107.5717,W,1,9,1.8,22,M,,M,,*5D
06/06/2014	05:11:40.663	$GPGGA,051141,2441.1104,N,08107.5717,W,1,9,1.8,22,M,,M,,*5D
06/06/2014	05:11:41.649	$GPGGA,051142,2441.1105,N,08107.5719,W,1,9,1.8,22,M,,M,,*51
06/06/2014	05:11:42.647	$GPGGA,051143,2441.1104,N,08107.5718,W,1,9,1.8,22,M,,M,,*50
06/06/2014	05:11:43.671	$GPGGA,051144,2441.1105,N,08107.5719,W,1,9,1.8,22,M,,M,,*57
06/06/2014	05:11:44.651	$GPGGA,051145,2441.1104,N,08107.5718,W,1,9,1.8,22,M,,M,,*56
06/06/2014	05:11:45.613	$GPGGA,051146,2441.1105,N,08107.5719,W,1,9,1.8,22,M,,M,,*55
06/06/2014	05:11:46.626	$GPGGA,051147,2441.1104,N,08107.5718,W,1,9,1.8,22,M,,M,,*54
06/06/2014	05:11:47.720	$GPGGA,051148,2441.1105,N,08107.5719,W,1,9,1.8,22,M,,M,,*5B
06/06/2014	05:11:48.784	$GPGGA,051149,2441.1103,N,08107.5718,W,1,9,1.8,22,M,,M,,*5D
06/06/2014	05:11:49.725	$GPGGA,051150,2441.1104,N,08107.5719,W,1,9,1.8,22,M,,M,,*53
06/06/2014	05:11:50.727	$GPGGA,051151,2441.1103,N,08107.5717,W,1,9,1.8,22,M,,M,,*5B
06/06/2014	05:11:51.770	$GPGGA,051152,2441.1104,N,08107.5717,W,1,9,1.8,22,M,,M,,*5F
06/06/2014	05:11:52.732	$GPGGA,051153,2441.1103,N,08107.5717,W,1,9,1.8,22,M,,M,,*59
