Software Version Number: 1	Data File Format Number: 1	Build Version Number: 1	Error Count Since VI Started: 0	Manufacturer: Raytheon	 Model Number: RayMarine 120	 S/N: 	 Cal Date: 	 Wind Direction Offset: 0.00	 Slope (M)1: 0.00	 Offset (B)1: 0.00	 Slope (M)2: 0.00	 Offset (B)2: 0.00	 Slope (M)3: 0.00	 Offset (B)3: 0.00	 Slope (M)4: 0.00	 Offset (B)4: 0.00	 Slope (M)5: 0.00	 Offset (B)5: 0.00	 Slope (M)6: 0.00	 Offset (B)6: 0.00
Computer Date	Computer Time	GGA String
06/09/2014	19:00:00.734	$GPGGA,190001,2529.9910,N,08002.1805,W,1,11,1.4,17,M,,M,,*61
06/09/2014	19:00:01.751	$GPGGA,190002,2529.9945,N,08002.1801,W,1,11,1.4,18,M,,M,,*69
06/09/2014	19:00:02.749	$GPGGA,190003,2529.9978,N,08002.1798,W,1,11,1.4,18,M,,M,,*69
06/09/2014	19:00:03.760	$GPGGA,190004,2530.0013,N,08002.1794,W,1,11,1.4,18,M,,M,,*67
06/09/2014	19:00:04.891	$GPGGA,190005,2530.0047,N,08002.1790,W,1,11,1.4,18,M,,M,,*63
06/09/2014	19:00:05.759	$GPGGA,190006,2530.0080,N,08002.1786,W,1,11,1.4,18,M,,M,,*6C
06/09/2014	19:00:06.860	$GPGGA,190007,2530.0115,N,08002.1781,W,1,11,1.4,18,M,,M,,*67
06/09/2014	19:00:07.802	$GPGGA,190008,2530.0148,N,08002.1776,W,1,11,1.4,18,M,,M,,*68
06/09/2014	19:00:08.905	$GPGGA,190009,2530.0183,N,08002.1771,W,1,11,1.4,18,M,,M,,*69
06/09/2014	19:00:09.798	$GPGGA,190010,2530.0217,N,08002.1766,W,1,11,1.4,18,M,,M,,*69
06/09/2014	19:00:10.909	$GPGGA,190011,2530.0252,N,08002.1760,W,1,11,1.4,18,M,,M,,*6F
06/09/2014	19:00:11.830	$GPGGA,190012,2530.0285,N,08002.1755,W,1,11,1.4,18,M,,M,,*60
06/09/2014	19:00:12.917	$GPGGA,190013,2530.0320,N,08002.1749,W,1,11,1.4,18,M,,M,,*62
06/09/2014	19:00:13.927	$GPGGA,190014,2530.0354,N,08002.1743,W,1,11,1.4,18,M,,M,,*6C
06/09/2014	19:00:14.936	$GPGGA,190015,2530.0387,N,08002.1737,W,1,11,1.4,18,M,,M,,*60
06/09/2014	19:00:15.956	$GPGGA,190016,2530.0422,N,08002.1731,W,1,11,1.4,18,M,,M,,*6D
06/09/2014	19:00:16.956	$GPGGA,190017,2530.0455,N,08002.1725,W,1,11,1.4,18,M,,M,,*69
06/09/2014	19:00:17.955	$GPGGA,190018,2530.0490,N,08002.1718,W,1,11,1.4,18,M,,M,,*61
06/09/2014	19:00:18.975	$GPGGA,190019,2530.0523,N,08002.1711,W,1,11,1.4,18,M,,M,,*60
06/09/2014	19:00:19.996	$GPGGA,190020,2530.0556,N,08002.1705,W,1,11,1.4,18,M,,M,,*6D
06/09/2014	19:00:20.985	$GPGGA,190021,2530.0591,N,08002.1698,W,1,11,1.4,18,M,,M,,*62
06/09/2014	19:00:21.984	$GPGGA,190022,2530.0624,N,08002.1691,W,1,11,1.4,18,M,,M,,*65
06/09/2014	19:00:22.994	$GPGGA,190023,2530.0658,N,08002.1683,W,1,11,1.4,18,M,,M,,*6C
06/09/2014	19:00:24.014	$GPGGA,190024,2530.0692,N,08002.1676,W,1,11,1.4,17,M,,M,,*68
06/09/2014	19:00:25.056	$GPGGA,190025,2530.0726,N,08002.1668,W,1,11,1.4,17,M,,M,,*68
06/09/2014	19:00:26.013	$GPGGA,190026,2530.0759,N,08002.1661,W,1,11,1.4,17,M,,M,,*6A
06/09/2014	19:00:27.053	$GPGGA,190027,2530.0793,N,08002.1653,W,1,11,1.4,17,M,,M,,*6C
06/09/2014	19:00:28.042	$GPGGA,190028,2530.0826,N,08002.1645,W,1,11,1.4,17,M,,M,,*65
06/09/2014	19:00:29.052	$GPGGA,190029,2530.0860,N,08002.1637,W,1,11,1.4,17,M,,M,,*63
06/09/2014	19:00:30.051	$GPGGA,190030,2530.0892,N,08002.1630,W,1,11,1.4,17,M,,M,,*61
06/09/2014	19:00:31.070	$GPGGA,190031,2530.0927,N,08002.1622,W,1,11,1.4,17,M,,M,,*6C
06/09/2014	19:00:32.070	$GPGGA,190032,2530.0960,N,08002.1616,W,1,11,1.4,17,M,,M,,*6B
06/09/2014	19:00:33.090	$GPGGA,190033,2530.0993,N,08002.1610,W,1,11,1.4,17,M,,M,,*60
06/09/2014	19:00:34.063	$GPGGA,190034,2530.1026,N,08002.1605,W,1,11,1.4,17,M,,M,,*65
06/09/2014	19:00:35.078	$GPGGA,190035,2530.1059,N,08002.1601,W,1,11,1.4,17,M,,M,,*68
06/09/2014	19:00:36.109	$GPGGA,190036,2530.1091,N,08002.1597,W,1,11,1.5,17,M,,M,,*62
06/09/2014	19:00:37.129	$GPGGA,190037,2530.1124,N,08002.1594,W,1,11,1.4,17,M,,M,,*6E
06/09/2014	19:00:38.117	$GPGGA,190038,2530.1156,N,08002.1592,W,1,11,1.4,17,M,,M,,*62
06/09/2014	19:00:39.128	$GPGGA,190039,2530.1189,N,08002.1593,W,1,11,1.4,17,M,,M,,*60
06/09/2014	19:00:40.148	$GPGGA,190040,2530.1221,N,08002.1591,W,1,11,1.4,16,M,,M,,*6C
06/09/2014	19:00:40.577	$GPGGA,190041,2530.1254,N,08002.1593,W,1,11,1.4,16,M,,M,,*6D
06/09/2014	19:00:41.547	$GPGGA,190042,2530.1286,N,08002.1593,W,1,11,1.6,16,M,,M,,*63
06/09/2014	19:00:42.589	$GPGGA,190043,2530.1319,N,08002.1595,W,1,11,1.4,16,M,,M,,*61
06/09/2014	19:00:43.576	$GPGGA,190044,2530.1353,N,08002.1598,W,1,11,1.4,16,M,,M,,*65
06/09/2014	19:00:44.687	$GPGGA,190045,2530.1386,N,08002.1601,W,1,11,1.4,16,M,,M,,*6F
06/09/2014	19:00:45.575	$GPGGA,190046,2530.1420,N,08002.1604,W,1,11,1.4,16,M,,M,,*62
06/09/2014	19:00:46.615	$GPGGA,190047,2530.1452,N,08002.1608,W,1,11,1.4,16,M,,M,,*6A
06/09/2014	19:00:47.624	$GPGGA,190048,2530.1485,N,08002.1611,W,1,11,1.6,16,M,,M,,*65
06/09/2014	19:00:48.644	$GPGGA,190049,2530.1518,N,08002.1615,W,1,10,1.6,16,M,,M,,*64
06/09/2014	19:00:49.603	$GPGGA,190050,2530.1552,N,08002.1618,W,1,10,1.6,16,M,,M,,*6F
06/09/2014	19:00:50.623	$GPGGA,190051,2530.1586,N,08002.1623,W,1,11,1.4,16,M,,M,,*6C
06/09/2014	19:00:51.774	$GPGGA,190052,2530.1618,N,08002.1629,W,1,11,1.4,16,M,,M,,*61
06/09/2014	19:00:52.763	$GPGGA,190053,2530.1653,N,08002.1633,W,1,10,1.5,16,M,,M,,*64
06/09/2014	19:00:53.652	$GPGGA,190054,2530.1686,N,08002.1638,W,1,10,1.4,16,M,,M,,*61
06/09/2014	19:00:54.773	$GPGGA,190055,2530.1719,N,08002.1644,W,1,11,1.4,16,M,,M,,*6D
06/09/2014	19:00:55.681	$GPGGA,190056,2530.1751,N,08002.1649,W,1,11,1.4,15,M,,M,,*6C
06/09/2014	19:00:56.782	$GPGGA,190057,2530.1785,N,08002.1655,W,1,11,1.4,15,M,,M,,*69
06/09/2014	19:00:57.772	$GPGGA,190058,2530.1817,N,08002.1662,W,1,11,1.6,15,M,,M,,*64
06/09/2014	19:00:58.807	$GPGGA,190059,2530.1850,N,08002.1669,W,1,10,1.6,15,M,,M,,*6C
06/09/2014	19:00:59.730	$GPGGA,190100,2530.1882,N,08002.1677,W,1,10,1.7,15,M,,M,,*60
06/09/2014	19:01:00.730	$GPGGA,190101,2530.1915,N,08002.1687,W,1,11,1.4,15,M,,M,,*63
06/09/2014	19:01:01.709	$GPGGA,190102,2530.1947,N,08002.1695,W,1,11,1.4,15,M,,M,,*64
06/09/2014	19:01:02.810	$GPGGA,190103,2530.1978,N,08002.1703,W,1,11,1.4,15,M,,M,,*67
06/09/2014	19:01:03.830	$GPGGA,190104,2530.2011,N,08002.1713,W,1,11,1.5,15,M,,M,,*65
06/09/2014	19:01:04.748	$GPGGA,190105,2530.2041,N,08002.1721,W,1,11,1.4,15,M,,M,,*61
06/09/2014	19:01:05.838	$GPGGA,190106,2530.2072,N,08002.1730,W,1,11,1.4,15,M,,M,,*62
06/09/2014	19:01:06.838	$GPGGA,190107,2530.2105,N,08002.1739,W,1,11,1.4,15,M,,M,,*6B
06/09/2014	19:01:07.868	$GPGGA,190108,2530.2135,N,08002.1748,W,1,11,1.4,15,M,,M,,*61
06/09/2014	19:01:08.857	$GPGGA,190109,2530.2167,N,08002.1759,W,1,11,1.4,15,M,,M,,*67
06/09/2014	19:01:09.877	$GPGGA,190110,2530.2199,N,08002.1767,W,1,11,1.5,15,M,,M,,*62
06/09/2014	19:01:10.897	$GPGGA,190111,2530.2229,N,08002.1777,W,1,11,1.4,15,M,,M,,*6B
06/09/2014	19:01:11.795	$GPGGA,190112,2530.2262,N,08002.1788,W,1,11,1.5,15,M,,M,,*66
06/09/2014	19:01:12.886	$GPGGA,190113,2530.2293,N,08002.1796,W,1,9,2.2,15,M,,M,,*5B
06/09/2014	19:01:13.895	$GPGGA,190114,2530.2325,N,08002.1806,W,1,9,1.6,15,M,,M,,*51
06/09/2014	19:01:14.925	$GPGGA,190115,2530.2355,N,08002.1818,W,1,11,1.4,15,M,,M,,*63
06/09/2014	19:01:15.925	$GPGGA,190116,2530.2388,N,08002.1831,W,1,11,1.4,15,M,,M,,*6B
06/09/2014	19:01:16.914	$GPGGA,190117,2530.2419,N,08002.1843,W,1,11,1.4,15,M,,M,,*60
06/09/2014	19:01:17.934	$GPGGA,190118,2530.2449,N,08002.1855,W,1,11,1.4,15,M,,M,,*6D
06/09/2014	19:01:18.924	$GPGGA,190119,2530.2481,N,08002.1868,W,1,11,1.4,15,M,,M,,*66
06/09/2014	19:01:19.964	$GPGGA,190120,2530.2511,N,08002.1880,W,1,11,1.4,15,M,,M,,*62
06/09/2014	19:01:20.984	$GPGGA,190121,2530.2543,N,08002.1893,W,1,11,1.4,15,M,,M,,*66
06/09/2014	19:01:21.962	$GPGGA,190122,2530.2572,N,08002.1908,W,1,11,1.4,15,M,,M,,*64
06/09/2014	19:01:22.982	$GPGGA,190123,2530.2604,N,08002.1922,W,1,11,1.4,15,M,,M,,*6F
06/09/2014	19:01:23.991	$GPGGA,190124,2530.2634,N,08002.1936,W,1,11,1.4,15,M,,M,,*6E
06/09/2014	19:01:24.971	$GPGGA,190125,2530.2665,N,08002.1949,W,1,11,1.4,15,M,,M,,*63
06/09/2014	19:01:26.001	$GPGGA,190126,2530.2695,N,08002.1963,W,1,11,1.4,15,M,,M,,*67
06/09/2014	19:01:27.031	$GPGGA,190127,2530.2724,N,08002.1978,W,1,11,1.4,15,M,,M,,*67
06/09/2014	19:01:28.020	$GPGGA,190128,2530.2755,N,08002.1992,W,1,11,1.4,15,M,,M,,*6A
06/09/2014	19:01:29.040	$GPGGA,190129,2530.2785,N,08002.2009,W,1,11,1.5,15,M,,M,,*6F
06/09/2014	19:01:30.029	$GPGGA,190130,2530.2814,N,08002.2023,W,1,11,1.5,15,M,,M,,*68
06/09/2014	19:01:31.022	$GPGGA,190131,2530.2845,N,08002.2039,W,1,11,1.5,15,M,,M,,*66
06/09/2014	19:01:32.050	$GPGGA,190132,2530.2875,N,08002.2055,W,1,11,1.5,15,M,,M,,*6C
06/09/2014	19:01:33.063	$GPGGA,190133,2530.2905,N,08002.2070,W,1,11,1.5,16,M,,M,,*6F
06/09/2014	19:01:34.078	$GPGGA,190134,2530.2934,N,08002.2085,W,1,11,1.5,16,M,,M,,*60
06/09/2014	19:01:35.068	$GPGGA,190135,2530.2963,N,08002.2099,W,1,11,1.5,16,M,,M,,*6E
06/09/2014	19:01:36.093	$GPGGA,190136,2530.2992,N,08002.2115,W,1,11,1.5,16,M,,M,,*66
06/09/2014	19:01:37.082	$GPGGA,190137,2530.3023,N,08002.2132,W,1,11,1.5,16,M,,M,,*60
06/09/2014	19:01:38.106	$GPGGA,190138,2530.3053,N,08002.2146,W,1,11,1.5,16,M,,M,,*6B
06/09/2014	19:01:39.103	$GPGGA,190139,2530.3082,N,08002.2162,W,1,11,1.5,16,M,,M,,*60
06/09/2014	19:01:40.130	$GPGGA,190140,2530.3111,N,08002.2178,W,1,11,1.5,16,M,,M,,*6E
06/09/2014	19:01:41.109	$GPGGA,190141,2530.3140,N,08002.2193,W,1,11,1.5,16,M,,M,,*6E
06/09/2014	19:01:42.104	$GPGGA,190142,2530.3171,N,08002.2208,W,1,11,1.5,16,M,,M,,*6E
06/09/2014	19:01:43.245	$GPGGA,190143,2530.3201,N,08002.2225,W,1,11,1.5,16,M,,M,,*64
06/09/2014	19:01:44.255	$GPGGA,190144,2530.3230,N,08002.2240,W,1,11,1.5,16,M,,M,,*62
06/09/2014	19:01:45.259	$GPGGA,190145,2530.3259,N,08002.2255,W,1,11,1.5,16,M,,M,,*68
06/09/2014	19:01:46.145	$GPGGA,190146,2530.3288,N,08002.2272,W,1,11,1.5,16,M,,M,,*62
06/09/2014	19:01:47.143	$GPGGA,190147,2530.3319,N,08002.2287,W,1,11,1.5,16,M,,M,,*60
06/09/2014	19:01:48.264	$GPGGA,190148,2530.3349,N,08002.2301,W,1,11,1.5,16,M,,M,,*65
06/09/2014	19:01:49.283	$GPGGA,190149,2530.3378,N,08002.2316,W,1,11,1.5,16,M,,M,,*60
06/09/2014	19:01:50.182	$GPGGA,190150,2530.3409,N,08002.2331,W,1,11,1.5,16,M,,M,,*6C
06/09/2014	19:01:51.313	$GPGGA,190151,2530.3439,N,08002.2346,W,1,11,1.5,16,M,,M,,*6E
06/09/2014	19:01:52.302	$GPGGA,190152,2530.3468,N,08002.2363,W,1,11,1.5,16,M,,M,,*6E
06/09/2014	19:01:53.201	$GPGGA,190153,2530.3499,N,08002.2377,W,1,11,1.5,16,M,,M,,*64
06/09/2014	19:01:54.302	$GPGGA,190154,2530.3530,N,08002.2392,W,1,11,1.5,16,M,,M,,*6A
06/09/2014	19:01:55.220	$GPGGA,190155,2530.3559,N,08002.2406,W,1,11,1.5,16,M,,M,,*6E
06/09/2014	19:01:56.332	$GPGGA,190156,2530.3588,N,08002.2421,W,1,11,1.5,16,M,,M,,*64
06/09/2014	19:01:57.350	$GPGGA,190157,2530.3620,N,08002.2436,W,1,11,1.5,16,M,,M,,*62
06/09/2014	19:01:58.329	$GPGGA,190158,2530.3649,N,08002.2451,W,1,11,1.5,16,M,,M,,*63
06/09/2014	19:01:59.359	$GPGGA,190159,2530.3680,N,08002.2467,W,1,11,1.5,16,M,,M,,*62
06/09/2014	19:02:00.369	$GPGGA,190200,2530.3710,N,08002.2480,W,1,11,1.5,16,M,,M,,*6C
06/09/2014	19:02:01.369	$GPGGA,190201,2530.3739,N,08002.2496,W,1,11,1.5,16,M,,M,,*61
06/09/2014	19:02:02.358	$GPGGA,190202,2530.3770,N,08002.2511,W,1,11,1.5,16,M,,M,,*61
06/09/2014	19:02:03.388	$GPGGA,190203,2530.3800,N,08002.2525,W,1,11,1.5,16,M,,M,,*6F
06/09/2014	19:02:04.418	$GPGGA,190204,2530.3829,N,08002.2540,W,1,11,1.5,16,M,,M,,*60
06/09/2014	19:02:05.417	$GPGGA,190205,2530.3861,N,08002.2554,W,1,11,1.5,16,M,,M,,*68
06/09/2014	19:02:06.397	$GPGGA,190206,2530.3890,N,08002.2569,W,1,11,1.5,16,M,,M,,*6B
06/09/2014	19:02:07.386	$GPGGA,190207,2530.3920,N,08002.2584,W,1,11,1.5,16,M,,M,,*63
06/09/2014	19:02:08.426	$GPGGA,190208,2530.3949,N,08002.2599,W,1,11,1.5,16,M,,M,,*6F
06/09/2014	19:02:09.416	$GPGGA,190209,2530.3980,N,08002.2615,W,1,11,1.5,16,M,,M,,*6C
06/09/2014	19:02:10.415	$GPGGA,190210,2530.4010,N,08002.2630,W,1,11,1.5,16,M,,M,,*64
06/09/2014	19:02:11.435	$GPGGA,190211,2530.4039,N,08002.2645,W,1,11,1.5,16,M,,M,,*6C
06/09/2014	19:02:12.445	$GPGGA,190212,2530.4068,N,08002.2659,W,1,11,1.5,16,M,,M,,*66
06/09/2014	19:02:13.445	$GPGGA,190213,2530.4099,N,08002.2675,W,1,11,1.5,16,M,,M,,*67
06/09/2014	19:02:14.464	$GPGGA,190214,2530.4129,N,08002.2689,W,1,11,1.5,16,M,,M,,*69
06/09/2014	19:02:15.473	$GPGGA,190215,2530.4158,N,08002.2706,W,1,11,1.5,16,M,,M,,*68
06/09/2014	19:02:16.483	$GPGGA,190216,2530.4187,N,08002.2720,W,1,11,1.5,16,M,,M,,*6D
06/09/2014	19:02:17.483	$GPGGA,190217,2530.4218,N,08002.2736,W,1,11,1.5,16,M,,M,,*6E
06/09/2014	19:02:18.482	$GPGGA,190218,2530.4247,N,08002.2751,W,1,11,1.5,16,M,,M,,*6A
06/09/2014	19:02:19.502	$GPGGA,190219,2530.4277,N,08002.2767,W,1,11,1.5,16,M,,M,,*6D
06/09/2014	19:02:20.633	$GPGGA,190220,2530.4306,N,08002.2782,W,1,11,1.5,16,M,,M,,*6B
06/09/2014	19:02:21.511	$GPGGA,190221,2530.4335,N,08002.2798,W,1,11,1.5,16,M,,M,,*61
06/09/2014	19:02:22.622	$GPGGA,190222,2530.4364,N,08002.2814,W,1,11,1.5,15,M,,M,,*6E
06/09/2014	19:02:23.631	$GPGGA,190223,2530.4393,N,08002.2829,W,1,11,1.5,15,M,,M,,*69
06/09/2014	19:02:24.530	$GPGGA,190224,2530.4422,N,08002.2845,W,1,11,1.5,15,M,,M,,*69
06/09/2014	19:02:25.550	$GPGGA,190225,2530.4453,N,08002.2861,W,1,11,1.5,15,M,,M,,*68
06/09/2014	19:02:26.549	$GPGGA,190226,2530.4482,N,08002.2877,W,1,11,1.5,15,M,,M,,*60
06/09/2014	19:02:27.550	$GPGGA,190227,2530.4511,N,08002.2894,W,1,11,1.5,15,M,,M,,*67
06/09/2014	19:02:28.599	$GPGGA,190228,2530.4540,N,08002.2909,W,1,11,1.5,15,M,,M,,*69
06/09/2014	19:02:29.690	$GPGGA,190229,2530.4569,N,08002.2926,W,1,11,1.5,15,M,,M,,*6E
06/09/2014	19:02:30.589	$GPGGA,190230,2530.4598,N,08002.2941,W,1,11,1.5,15,M,,M,,*69
06/09/2014	19:02:31.699	$GPGGA,190231,2530.4627,N,08002.2957,W,1,11,1.5,15,M,,M,,*68
06/09/2014	19:02:32.627	$GPGGA,190232,2530.4656,N,08002.2973,W,1,11,1.5,15,M,,M,,*6B
06/09/2014	19:02:33.606	$GPGGA,190233,2530.4685,N,08002.2991,W,1,11,1.5,15,M,,M,,*68
06/09/2014	19:02:34.707	$GPGGA,190234,2530.4714,N,08002.3006,W,1,11,1.5,15,M,,M,,*60
06/09/2014	19:02:35.707	$GPGGA,190235,2530.4743,N,08002.3022,W,1,11,1.5,15,M,,M,,*65
06/09/2014	19:02:36.656	$GPGGA,190236,2530.4772,N,08002.3038,W,1,11,1.5,15,M,,M,,*6F
06/09/2014	19:02:37.746	$GPGGA,190237,2530.4800,N,08002.3056,W,1,11,1.5,15,M,,M,,*6C
06/09/2014	19:02:38.655	$GPGGA,190238,2530.4829,N,08002.3071,W,1,11,1.5,15,M,,M,,*6D
06/09/2014	19:02:39.776	$GPGGA,190239,2530.4858,N,08002.3087,W,1,11,1.5,15,M,,M,,*63
06/09/2014	19:02:40.769	$GPGGA,190240,2530.4887,N,08002.3104,W,1,11,1.5,14,M,,M,,*64
06/09/2014	19:02:41.765	$GPGGA,190241,2530.4916,N,08002.3121,W,1,11,1.5,14,M,,M,,*6B
06/09/2014	19:02:42.774	$GPGGA,190242,2530.4945,N,08002.3137,W,1,11,1.5,14,M,,M,,*69
06/09/2014	19:02:43.794	$GPGGA,190243,2530.4973,N,08002.3154,W,1,11,1.5,14,M,,M,,*68
06/09/2014	19:02:44.784	$GPGGA,190244,2530.5002,N,08002.3170,W,1,11,1.5,14,M,,M,,*67
06/09/2014	19:02:45.844	$GPGGA,190245,2530.5031,N,08002.3186,W,1,11,1.5,14,M,,M,,*6F
06/09/2014	19:02:46.793	$GPGGA,190246,2530.5060,N,08002.3202,W,1,11,1.5,14,M,,M,,*67
06/09/2014	19:02:47.814	$GPGGA,190247,2530.5087,N,08002.3219,W,1,11,1.5,14,M,,M,,*65
06/09/2014	19:02:48.822	$GPGGA,190248,2530.5118,N,08002.3234,W,1,11,1.5,14,M,,M,,*62
06/09/2014	19:02:49.842	$GPGGA,190249,2530.5147,N,08002.3251,W,1,11,1.5,14,M,,M,,*6A
06/09/2014	19:02:50.821	$GPGGA,190250,2530.5174,N,08002.3266,W,1,11,1.5,14,M,,M,,*66
06/09/2014	19:02:51.820	$GPGGA,190251,2530.5204,N,08002.3282,W,1,11,1.5,14,M,,M,,*69
06/09/2014	19:02:52.860	$GPGGA,190252,2530.5234,N,08002.3298,W,1,11,1.5,14,M,,M,,*62
06/09/2014	19:02:53.870	$GPGGA,190253,2530.5262,N,08002.3313,W,1,11,1.5,14,M,,M,,*62
06/09/2014	19:02:54.849	$GPGGA,190254,2530.5292,N,08002.3331,W,1,11,1.5,14,M,,M,,*6A
06/09/2014	19:02:55.859	$GPGGA,190255,2530.5321,N,08002.3345,W,1,11,1.5,14,M,,M,,*61
06/09/2014	19:02:56.889	$GPGGA,190256,2530.5350,N,08002.3361,W,1,11,1.5,14,M,,M,,*62
06/09/2014	19:02:57.889	$GPGGA,190257,2530.5379,N,08002.3378,W,1,11,1.5,13,M,,M,,*67
06/09/2014	19:02:58.889	$GPGGA,190258,2530.5408,N,08002.3392,W,1,11,1.5,13,M,,M,,*6D
06/09/2014	19:02:59.898	$GPGGA,190259,2530.5437,N,08002.3408,W,1,11,1.5,13,M,,M,,*64
06/09/2014	19:03:00.928	$GPGGA,190300,2530.5468,N,08002.3423,W,1,11,1.5,13,M,,M,,*6A
06/09/2014	19:03:01.917	$GPGGA,190301,2530.5497,N,08002.3439,W,1,11,1.5,13,M,,M,,*60
06/09/2014	19:03:02.917	$GPGGA,190302,2530.5526,N,08002.3454,W,1,11,1.5,13,M,,M,,*63
06/09/2014	19:03:03.947	$GPGGA,190303,2530.5556,N,08002.3469,W,1,11,1.5,13,M,,M,,*6B
06/09/2014	19:03:04.936	$GPGGA,190304,2530.5585,N,08002.3484,W,1,11,1.5,13,M,,M,,*61
06/09/2014	19:03:05.936	$GPGGA,190305,2530.5614,N,08002.3499,W,1,11,1.5,13,M,,M,,*67
06/09/2014	19:03:06.956	$GPGGA,190306,2530.5643,N,08002.3515,W,1,11,1.5,13,M,,M,,*63
06/09/2014	19:03:07.954	$GPGGA,190307,2530.5672,N,08002.3529,W,1,11,1.5,13,M,,M,,*6F
06/09/2014	19:03:08.984	$GPGGA,190308,2530.5703,N,08002.3544,W,1,11,1.5,13,M,,M,,*6C
06/09/2014	19:03:10.093	$GPGGA,190309,2530.5733,N,08002.3559,W,1,11,1.5,13,M,,M,,*62
06/09/2014	19:03:10.963	$GPGGA,190310,2530.5762,N,08002.3573,W,1,11,1.5,13,M,,M,,*66
06/09/2014	19:03:12.013	$GPGGA,190311,2530.5791,N,08002.3588,W,1,11,1.5,13,M,,M,,*6F
06/09/2014	19:03:13.003	$GPGGA,190312,2530.5822,N,08002.3602,W,1,11,1.5,12,M,,M,,*6B
06/09/2014	19:03:13.993	$GPGGA,190313,2530.5852,N,08002.3617,W,1,11,1.5,12,M,,M,,*69
06/09/2014	19:03:15.022	$GPGGA,190314,2530.5882,N,08002.3631,W,1,11,1.5,12,M,,M,,*67
06/09/2014	19:03:16.030	$GPGGA,190315,2530.5911,N,08002.3647,W,1,11,1.5,12,M,,M,,*6C
06/09/2014	19:03:17.035	$GPGGA,190316,2530.5942,N,08002.3661,W,1,11,1.5,12,M,,M,,*6D
06/09/2014	19:03:18.032	$GPGGA,190317,2530.5972,N,08002.3676,W,1,11,1.5,12,M,,M,,*69
06/09/2014	19:03:19.046	$GPGGA,190318,2530.6001,N,08002.3690,W,1,11,1.5,12,M,,M,,*60
06/09/2014	19:03:20.155	$GPGGA,190319,2530.6030,N,08002.3706,W,1,11,1.5,12,M,,M,,*6D
06/09/2014	19:03:21.066	$GPGGA,190320,2530.6061,N,08002.3721,W,1,11,1.5,12,M,,M,,*66
06/09/2014	19:03:22.087	$GPGGA,190321,2530.6091,N,08002.3735,W,1,11,1.5,12,M,,M,,*6D
06/09/2014	19:03:23.059	$GPGGA,190322,2530.6120,N,08002.3750,W,1,11,1.5,12,M,,M,,*66
06/09/2014	19:03:24.095	$GPGGA,190323,2530.6151,N,08002.3764,W,1,11,1.5,12,M,,M,,*66
06/09/2014	19:03:25.195	$GPGGA,190324,2530.6181,N,08002.3779,W,1,11,1.5,12,M,,M,,*60
06/09/2014	19:03:26.098	$GPGGA,190325,2530.6210,N,08002.3794,W,1,11,1.5,12,M,,M,,*69
06/09/2014	19:03:27.198	$GPGGA,190326,2530.6241,N,08002.3808,W,1,11,1.5,12,M,,M,,*64
06/09/2014	19:03:28.208	$GPGGA,190327,2530.6270,N,08002.3823,W,1,11,1.5,12,M,,M,,*6E
06/09/2014	19:03:29.229	$GPGGA,190328,2530.6300,N,08002.3838,W,1,11,1.5,12,M,,M,,*6D
06/09/2014	19:03:30.237	$GPGGA,190329,2530.6329,N,08002.3852,W,1,11,1.5,12,M,,M,,*6B
06/09/2014	19:03:31.227	$GPGGA,190330,2530.6359,N,08002.3869,W,1,11,1.5,12,M,,M,,*6C
06/09/2014	19:03:32.284	$GPGGA,190331,2530.6390,N,08002.3884,W,1,11,1.5,12,M,,M,,*6B
06/09/2014	19:03:33.256	$GPGGA,190332,2530.6419,N,08002.3898,W,1,11,1.5,12,M,,M,,*63
06/09/2014	19:03:34.266	$GPGGA,190333,2530.6448,N,08002.3914,W,1,11,1.5,12,M,,M,,*63
06/09/2014	19:03:35.255	$GPGGA,190334,2530.6478,N,08002.3930,W,1,11,1.5,12,M,,M,,*61
06/09/2014	19:03:36.295	$GPGGA,190335,2530.6507,N,08002.3945,W,1,11,1.5,12,M,,M,,*6B
06/09/2014	19:03:37.285	$GPGGA,190336,2530.6536,N,08002.3960,W,1,11,1.5,12,M,,M,,*6D
06/09/2014	19:03:38.274	$GPGGA,190337,2530.6567,N,08002.3977,W,1,11,1.5,12,M,,M,,*6E
06/09/2014	19:03:40.109	$GPGGA,190338,2530.6597,N,08002.3992,W,1,11,1.5,12,M,,M,,*65
06/09/2014	19:03:40.280	$GPGGA,190339,2530.6626,N,08002.4007,W,1,11,1.5,12,M,,M,,*6F
06/09/2014	19:03:41.316	$GPGGA,190340,2530.6655,N,08002.4022,W,1,11,1.5,12,M,,M,,*62
06/09/2014	19:03:42.330	$GPGGA,190341,2530.6684,N,08002.4039,W,1,11,1.5,12,M,,M,,*65
06/09/2014	19:03:43.294	$GPGGA,190342,2530.6713,N,08002.4053,W,1,11,1.5,12,M,,M,,*65
06/09/2014	19:03:44.299	$GPGGA,190343,2530.6742,N,08002.4071,W,1,11,1.5,12,M,,M,,*60
06/09/2014	19:03:45.325	$GPGGA,190344,2530.6772,N,08002.4086,W,1,11,1.5,12,M,,M,,*6C
06/09/2014	19:03:46.310	$GPGGA,190345,2530.6801,N,08002.4102,W,1,11,1.5,12,M,,M,,*6B
06/09/2014	19:03:47.305	$GPGGA,190346,2530.6830,N,08002.4118,W,1,11,1.5,12,M,,M,,*61
06/09/2014	19:03:48.320	$GPGGA,190347,2530.6859,N,08002.4134,W,1,11,1.5,12,M,,M,,*61
06/09/2014	19:03:49.335	$GPGGA,190348,2530.6888,N,08002.4151,W,1,11,1.5,12,M,,M,,*61
06/09/2014	19:03:50.310	$GPGGA,190349,2530.6917,N,08002.4167,W,1,11,1.5,12,M,,M,,*62
06/09/2014	19:03:51.315	$GPGGA,190350,2530.6946,N,08002.4184,W,1,11,1.5,12,M,,M,,*63
06/09/2014	19:03:52.320	$GPGGA,190351,2530.6973,N,08002.4201,W,1,11,1.5,12,M,,M,,*6A
06/09/2014	19:03:53.345	$GPGGA,190352,2530.7002,N,08002.4216,W,1,11,1.5,12,M,,M,,*61
06/09/2014	19:03:54.330	$GPGGA,190353,2530.7031,N,08002.4234,W,1,11,1.5,12,M,,M,,*60
06/09/2014	19:03:55.345	$GPGGA,190354,2530.7059,N,08002.4250,W,1,11,1.5,12,M,,M,,*6B
06/09/2014	19:03:56.381	$GPGGA,190355,2530.7088,N,08002.4267,W,1,11,1.5,12,M,,M,,*62
06/09/2014	19:03:57.466	$GPGGA,190356,2530.7117,N,08002.4282,W,1,11,1.5,12,M,,M,,*6D
06/09/2014	19:03:58.461	$GPGGA,190357,2530.7146,N,08002.4299,W,1,11,1.5,12,M,,M,,*62
06/09/2014	19:03:59.356	$GPGGA,190358,2530.7175,N,08002.4315,W,1,11,1.5,12,M,,M,,*68
06/09/2014	19:04:00.351	$GPGGA,190359,2530.7204,N,08002.4332,W,1,11,1.5,12,M,,M,,*69
06/09/2014	19:04:01.506	$GPGGA,190400,2530.7232,N,08002.4348,W,1,11,1.5,11,M,,M,,*69
06/09/2014	19:04:02.360	$GPGGA,190401,2530.7261,N,08002.4364,W,1,11,1.5,11,M,,M,,*60
06/09/2014	19:04:03.365	$GPGGA,190402,2530.7290,N,08002.4380,W,1,11,1.5,11,M,,M,,*67
06/09/2014	19:04:04.370	$GPGGA,190403,2530.7318,N,08002.4397,W,1,11,1.5,11,M,,M,,*61
06/09/2014	19:04:05.471	$GPGGA,190404,2530.7348,N,08002.4413,W,1,11,1.5,11,M,,M,,*68
06/09/2014	19:04:06.380	$GPGGA,190405,2530.7376,N,08002.4430,W,1,11,1.5,11,M,,M,,*65
06/09/2014	19:04:07.476	$GPGGA,190406,2530.7405,N,08002.4445,W,1,11,1.5,11,M,,M,,*67
06/09/2014	19:04:08.370	$GPGGA,190407,2530.7435,N,08002.4462,W,1,11,1.5,11,M,,M,,*60
06/09/2014	19:04:09.506	$GPGGA,190408,2530.7464,N,08002.4478,W,1,11,1.5,11,M,,M,,*60
06/09/2014	19:04:10.511	$GPGGA,190409,2530.7492,N,08002.4494,W,1,11,1.5,11,M,,M,,*6A
06/09/2014	19:04:11.476	$GPGGA,190410,2530.7521,N,08002.4510,W,1,11,1.5,11,M,,M,,*66
06/09/2014	19:04:12.511	$GPGGA,190411,2530.7550,N,08002.4525,W,1,11,1.5,11,M,,M,,*67
06/09/2014	19:04:13.507	$GPGGA,190412,2530.7579,N,08002.4542,W,1,11,1.5,11,M,,M,,*6E
06/09/2014	19:04:14.391	$GPGGA,190413,2530.7608,N,08002.4557,W,1,11,1.5,11,M,,M,,*6E
06/09/2014	19:04:15.487	$GPGGA,190414,2530.7637,N,08002.4572,W,1,11,1.5,11,M,,M,,*62
06/09/2014	19:04:16.512	$GPGGA,190415,2530.7666,N,08002.4588,W,1,11,1.5,11,M,,M,,*62
06/09/2014	19:04:17.416	$GPGGA,190416,2530.7695,N,08002.4603,W,1,11,1.5,11,M,,M,,*6D
06/09/2014	19:04:18.511	$GPGGA,190417,2530.7727,N,08002.4620,W,1,10,1.7,11,M,,M,,*66
06/09/2014	19:04:19.496	$GPGGA,190418,2530.7757,N,08002.4635,W,1,10,1.5,11,M,,M,,*68
06/09/2014	19:04:20.531	$GPGGA,190419,2530.7786,N,08002.4651,W,1,11,1.5,11,M,,M,,*66
06/09/2014	19:04:21.526	$GPGGA,190420,2530.7818,N,08002.4667,W,1,11,1.5,11,M,,M,,*61
06/09/2014	19:04:22.511	$GPGGA,190421,2530.7847,N,08002.4682,W,1,11,1.5,11,M,,M,,*61
06/09/2014	19:04:23.516	$GPGGA,190422,2530.7876,N,08002.4698,W,1,11,1.5,11,M,,M,,*6B
06/09/2014	19:04:24.542	$GPGGA,190423,2530.7907,N,08002.4714,W,1,11,1.5,11,M,,M,,*68
06/09/2014	19:04:25.537	$GPGGA,190424,2530.7936,N,08002.4727,W,1,11,1.5,12,M,,M,,*6E
06/09/2014	19:04:26.552	$GPGGA,190425,2530.7966,N,08002.4743,W,1,11,1.5,12,M,,M,,*68
06/09/2014	19:04:27.537	$GPGGA,190426,2530.7995,N,08002.4758,W,1,11,1.5,12,M,,M,,*6D
06/09/2014	19:04:28.522	$GPGGA,190427,2530.8026,N,08002.4772,W,1,11,1.5,12,M,,M,,*6A
06/09/2014	19:04:29.547	$GPGGA,190428,2530.8056,N,08002.4787,W,1,11,1.5,12,M,,M,,*68
06/09/2014	19:04:30.562	$GPGGA,190429,2530.8085,N,08002.4801,W,1,11,1.5,12,M,,M,,*66
06/09/2014	19:04:31.547	$GPGGA,190430,2530.8116,N,08002.4816,W,1,11,1.5,12,M,,M,,*63
06/09/2014	19:04:32.562	$GPGGA,190431,2530.8146,N,08002.4830,W,1,11,1.5,12,M,,M,,*63
06/09/2014	19:04:33.547	$GPGGA,190432,2530.8176,N,08002.4845,W,1,11,1.5,12,M,,M,,*61
06/09/2014	19:04:34.552	$GPGGA,190433,2530.8204,N,08002.4859,W,1,11,1.5,12,M,,M,,*6B
06/09/2014	19:04:35.558	$GPGGA,190434,2530.8234,N,08002.4874,W,1,11,1.5,12,M,,M,,*60
06/09/2014	19:04:36.602	$GPGGA,190435,2530.8266,N,08002.4888,W,1,11,1.5,12,M,,M,,*65
06/09/2014	19:04:37.567	$GPGGA,190436,2530.8295,N,08002.4902,W,1,11,1.5,12,M,,M,,*69
06/09/2014	19:04:38.562	$GPGGA,190437,2530.8324,N,08002.4917,W,1,11,1.5,12,M,,M,,*67
06/09/2014	19:04:39.578	$GPGGA,190438,2530.8355,N,08002.4931,W,1,11,1.5,12,M,,M,,*6A
06/09/2014	19:04:40.562	$GPGGA,190439,2530.8385,N,08002.4946,W,1,11,1.5,12,M,,M,,*66
06/09/2014	19:04:41.587	$GPGGA,190440,2530.8414,N,08002.4960,W,1,11,1.5,12,M,,M,,*63
06/09/2014	19:04:42.572	$GPGGA,190441,2530.8443,N,08002.4975,W,1,11,1.5,12,M,,M,,*64
06/09/2014	19:04:43.587	$GPGGA,190442,2530.8474,N,08002.4990,W,1,11,1.5,11,M,,M,,*6B
06/09/2014	19:04:44.572	$GPGGA,190443,2530.8504,N,08002.5004,W,1,11,1.5,11,M,,M,,*69
06/09/2014	19:04:45.587	$GPGGA,190444,2530.8533,N,08002.5019,W,1,11,1.5,11,M,,M,,*66
06/09/2014	19:04:46.592	$GPGGA,190445,2530.8562,N,08002.5034,W,1,11,1.5,11,M,,M,,*6C
06/09/2014	19:04:47.683	$GPGGA,190446,2530.8593,N,08002.5050,W,1,11,1.5,11,M,,M,,*63
06/09/2014	19:04:48.613	$GPGGA,190447,2530.8622,N,08002.5065,W,1,11,1.5,11,M,,M,,*6D
06/09/2014	19:04:49.608	$GPGGA,190448,2530.8652,N,08002.5079,W,1,11,1.5,11,M,,M,,*68
06/09/2014	19:04:50.613	$GPGGA,190449,2530.8681,N,08002.5094,W,1,11,1.5,11,M,,M,,*64
06/09/2014	19:04:51.618	$GPGGA,190450,2530.8710,N,08002.5110,W,1,11,1.5,11,M,,M,,*68
06/09/2014	19:04:52.623	$GPGGA,190451,2530.8739,N,08002.5126,W,1,11,1.5,11,M,,M,,*67
06/09/2014	19:04:53.710	$GPGGA,190452,2530.8770,N,08002.5141,W,1,11,1.7,11,M,,M,,*6A
06/09/2014	19:04:54.622	$GPGGA,190453,2530.8799,N,08002.5155,W,1,11,1.5,11,M,,M,,*6B
06/09/2014	19:04:55.788	$GPGGA,190454,2530.8828,N,08002.5171,W,1,11,1.5,11,M,,M,,*6F
06/09/2014	19:04:56.773	$GPGGA,190455,2530.8857,N,08002.5186,W,1,11,1.5,11,M,,M,,*6E
06/09/2014	19:04:57.798	$GPGGA,190456,2530.8887,N,08002.5202,W,1,11,1.5,11,M,,M,,*6F
06/09/2014	19:04:58.783	$GPGGA,190457,2530.8916,N,08002.5217,W,1,11,1.5,11,M,,M,,*63
06/09/2014	19:04:59.788	$GPGGA,190458,2530.8945,N,08002.5232,W,1,11,1.5,11,M,,M,,*6D
06/09/2014	19:05:00.723	$GPGGA,190459,2530.8974,N,08002.5247,W,1,11,1.5,11,M,,M,,*6C
06/09/2014	19:05:01.829	$GPGGA,190500,2530.9003,N,08002.5264,W,1,11,1.5,11,M,,M,,*68
06/09/2014	19:05:02.784	$GPGGA,190501,2530.9032,N,08002.5279,W,1,11,1.5,11,M,,M,,*67
06/09/2014	19:05:03.728	$GPGGA,190502,2530.9061,N,08002.5294,W,1,11,1.5,11,M,,M,,*61
06/09/2014	19:05:04.777	$GPGGA,190503,2530.9090,N,08002.5311,W,1,11,1.5,11,M,,M,,*62
06/09/2014	19:05:05.829	$GPGGA,190504,2530.9119,N,08002.5327,W,1,11,1.5,11,M,,M,,*60
06/09/2014	19:05:06.804	$GPGGA,190505,2530.9150,N,08002.5343,W,1,11,1.5,11,M,,M,,*6E
06/09/2014	19:05:07.799	$GPGGA,190506,2530.9178,N,08002.5359,W,1,11,1.5,11,M,,M,,*6C
06/09/2014	19:05:08.804	$GPGGA,190507,2530.9207,N,08002.5376,W,1,11,1.5,11,M,,M,,*6B
06/09/2014	19:05:09.759	$GPGGA,190508,2530.9237,N,08002.5392,W,1,11,1.5,11,M,,M,,*6D
06/09/2014	19:05:10.795	$GPGGA,190509,2530.9265,N,08002.5409,W,1,11,1.5,11,M,,M,,*6E
06/09/2014	19:05:11.849	$GPGGA,190510,2530.9295,N,08002.5426,W,1,11,1.5,11,M,,M,,*64
06/09/2014	19:05:12.813	$GPGGA,190511,2530.9323,N,08002.5441,W,1,11,1.5,11,M,,M,,*68
06/09/2014	19:05:13.849	$GPGGA,190512,2530.9352,N,08002.5459,W,1,11,1.5,11,M,,M,,*64
06/09/2014	19:05:14.820	$GPGGA,190513,2530.9381,N,08002.5475,W,1,11,1.5,11,M,,M,,*65
06/09/2014	19:05:15.829	$GPGGA,190514,2530.9410,N,08002.5491,W,1,11,1.5,11,M,,M,,*67
06/09/2014	19:05:16.864	$GPGGA,190515,2530.9439,N,08002.5507,W,1,11,1.5,11,M,,M,,*63
06/09/2014	19:05:17.849	$GPGGA,190516,2530.9467,N,08002.5524,W,1,11,1.5,11,M,,M,,*6A
06/09/2014	19:05:18.774	$GPGGA,190517,2530.9497,N,08002.5540,W,1,11,1.5,11,M,,M,,*66
06/09/2014	19:05:19.839	$GPGGA,190518,2530.9525,N,08002.5557,W,1,11,1.5,11,M,,M,,*67
06/09/2014	19:05:20.784	$GPGGA,190519,2530.9554,N,08002.5574,W,1,11,1.5,11,M,,M,,*61
06/09/2014	19:05:21.879	$GPGGA,190520,2530.9583,N,08002.5589,W,1,11,1.5,11,M,,M,,*63
06/09/2014	19:05:22.844	$GPGGA,190521,2530.9612,N,08002.5605,W,1,11,1.5,11,M,,M,,*6E
06/09/2014	19:05:23.849	$GPGGA,190522,2530.9641,N,08002.5621,W,1,11,1.5,11,M,,M,,*6D
06/09/2014	19:05:24.845	$GPGGA,190523,2530.9670,N,08002.5637,W,1,11,1.5,11,M,,M,,*69
06/09/2014	19:05:25.809	$GPGGA,190524,2530.9699,N,08002.5654,W,1,11,1.5,11,M,,M,,*6C
06/09/2014	19:05:26.804	$GPGGA,190525,2530.9728,N,08002.5670,W,1,11,1.5,11,M,,M,,*60
06/09/2014	19:05:27.870	$GPGGA,190526,2530.9757,N,08002.5686,W,1,11,1.5,11,M,,M,,*62
06/09/2014	19:05:28.834	$GPGGA,190527,2530.9786,N,08002.5701,W,1,11,1.5,11,M,,M,,*61
06/09/2014	19:05:29.879	$GPGGA,190528,2530.9816,N,08002.5717,W,1,11,1.5,11,M,,M,,*6F
06/09/2014	19:05:30.814	$GPGGA,190529,2530.9845,N,08002.5733,W,1,11,1.5,11,M,,M,,*6E
06/09/2014	19:05:31.809	$GPGGA,190530,2530.9874,N,08002.5748,W,1,11,1.5,11,M,,M,,*68
06/09/2014	19:05:32.874	$GPGGA,190531,2530.9902,N,08002.5764,W,1,11,1.5,11,M,,M,,*67
06/09/2014	19:05:33.889	$GPGGA,190532,2530.9931,N,08002.5778,W,1,11,1.5,11,M,,M,,*69
06/09/2014	19:05:34.884	$GPGGA,190533,2530.9960,N,08002.5795,W,1,11,1.5,11,M,,M,,*6F
06/09/2014	19:05:35.920	$GPGGA,190534,2530.9991,N,08002.5810,W,1,11,1.5,11,M,,M,,*64
06/09/2014	19:05:36.865	$GPGGA,190535,2531.0020,N,08002.5825,W,1,11,1.5,11,M,,M,,*68
06/09/2014	19:05:37.900	$GPGGA,190536,2531.0050,N,08002.5840,W,1,11,1.5,11,M,,M,,*6F
06/09/2014	19:05:38.855	$GPGGA,190537,2531.0079,N,08002.5856,W,1,11,1.5,11,M,,M,,*62
06/09/2014	19:05:39.942	$GPGGA,190538,2531.0109,N,08002.5871,W,1,11,1.5,11,M,,M,,*6E
06/09/2014	19:05:40.875	$GPGGA,190539,2531.0140,N,08002.5885,W,1,11,1.5,11,M,,M,,*69
06/09/2014	19:05:41.970	$GPGGA,190540,2531.0169,N,08002.5900,W,1,11,1.5,11,M,,M,,*60
06/09/2014	19:05:42.955	$GPGGA,190541,2531.0199,N,08002.5915,W,1,11,1.5,11,M,,M,,*6A
06/09/2014	19:05:44.008	$GPGGA,190542,2531.0228,N,08002.5929,W,1,11,1.5,11,M,,M,,*6F
06/09/2014	19:05:45.094	$GPGGA,190543,2531.0259,N,08002.5944,W,1,11,1.5,11,M,,M,,*63
06/09/2014	19:05:46.116	$GPGGA,190544,2531.0289,N,08002.5959,W,1,11,1.5,11,M,,M,,*65
06/09/2014	19:05:47.220	$GPGGA,190545,2531.0318,N,08002.5973,W,1,11,1.5,11,M,,M,,*65
06/09/2014	19:05:48.254	$GPGGA,190546,2531.0349,N,08002.5988,W,1,11,1.5,11,M,,M,,*66
06/09/2014	19:05:49.308	$GPGGA,190547,2531.0379,N,08002.6004,W,1,11,1.5,11,M,,M,,*6A
06/09/2014	19:05:50.374	$GPGGA,190548,2531.0410,N,08002.6017,W,1,11,1.5,11,M,,M,,*6F
06/09/2014	19:05:51.405	$GPGGA,190549,2531.0440,N,08002.6031,W,1,11,1.5,11,M,,M,,*6F
06/09/2014	19:05:52.470	$GPGGA,190550,2531.0470,N,08002.6045,W,1,11,1.5,11,M,,M,,*67
06/09/2014	19:05:53.503	$GPGGA,190551,2531.0499,N,08002.6059,W,1,11,1.5,11,M,,M,,*6C
06/09/2014	19:05:54.578	$GPGGA,190552,2531.0530,N,08002.6073,W,1,11,1.5,11,M,,M,,*65
06/09/2014	19:05:55.632	$GPGGA,190553,2531.0560,N,08002.6087,W,1,11,1.5,11,M,,M,,*6A
06/09/2014	19:05:56.692	$GPGGA,190554,2531.0591,N,08002.6102,W,1,11,1.5,11,M,,M,,*6F
06/09/2014	19:05:57.760	$GPGGA,190555,2531.0621,N,08002.6116,W,1,11,1.5,11,M,,M,,*63
06/09/2014	19:05:58.783	$GPGGA,190556,2531.0650,N,08002.6131,W,1,11,1.5,11,M,,M,,*63
06/09/2014	19:05:59.837	$GPGGA,190557,2531.0681,N,08002.6145,W,1,11,1.5,11,M,,M,,*6D
06/09/2014	19:06:00.869	$GPGGA,190558,2531.0711,N,08002.6158,W,1,11,1.5,11,M,,M,,*66
06/09/2014	19:06:01.955	$GPGGA,190559,2531.0741,N,08002.6174,W,1,11,1.5,11,M,,M,,*6C
06/09/2014	19:06:03.020	$GPGGA,190600,2531.0770,N,08002.6188,W,1,11,1.5,11,M,,M,,*62
06/09/2014	19:06:04.021	$GPGGA,190601,2531.0801,N,08002.6203,W,1,11,1.5,11,M,,M,,*6A
06/09/2014	19:06:05.094	$GPGGA,190602,2531.0831,N,08002.6217,W,1,11,1.5,11,M,,M,,*6F
06/09/2014	19:06:06.159	$GPGGA,190603,2531.0860,N,08002.6232,W,1,11,1.5,11,M,,M,,*6D
06/09/2014	19:06:07.234	$GPGGA,190604,2531.0891,N,08002.6247,W,1,11,1.5,11,M,,M,,*66
06/09/2014	19:06:08.277	$GPGGA,190605,2531.0920,N,08002.6261,W,1,11,1.5,11,M,,M,,*68
06/09/2014	19:06:09.300	$GPGGA,190606,2531.0950,N,08002.6276,W,1,11,1.5,11,M,,M,,*6A
06/09/2014	19:06:10.332	$GPGGA,190607,2531.0979,N,08002.6291,W,1,11,1.5,11,M,,M,,*69
06/09/2014	19:06:11.451	$GPGGA,190608,2531.1008,N,08002.6306,W,1,11,1.5,11,M,,M,,*67
06/09/2014	19:06:12.482	$GPGGA,190609,2531.1037,N,08002.6322,W,1,11,1.5,11,M,,M,,*6C
06/09/2014	19:06:13.526	$GPGGA,190610,2531.1068,N,08002.6337,W,1,11,1.5,11,M,,M,,*6A
06/09/2014	19:06:14.580	$GPGGA,190611,2531.1097,N,08002.6351,W,1,11,1.5,11,M,,M,,*6B
06/09/2014	19:06:15.623	$GPGGA,190612,2531.1097,N,08002.6351,W,1,11,1.5,11,M,,M,,*68
06/09/2014	19:06:16.656	$GPGGA,190613,2531.1156,N,08002.6384,W,1,11,1.5,11,M,,M,,*6D
06/09/2014	19:06:17.720	$GPGGA,190614,2531.1185,N,08002.6398,W,1,11,1.5,11,M,,M,,*69
06/09/2014	19:06:18.775	$GPGGA,190615,2531.1214,N,08002.6414,W,1,11,1.5,11,M,,M,,*60
06/09/2014	19:06:19.860	$GPGGA,190616,2531.1214,N,08002.6414,W,1,11,1.5,11,M,,M,,*63
06/09/2014	19:06:20.861	$GPGGA,190617,2531.1271,N,08002.6445,W,1,11,1.5,11,M,,M,,*65
06/09/2014	19:06:21.958	$GPGGA,190618,2531.1301,N,08002.6461,W,1,11,1.5,11,M,,M,,*6A
06/09/2014	19:06:23.095	$GPGGA,190619,2531.1329,N,08002.6478,W,1,11,1.5,11,M,,M,,*69
06/09/2014	19:06:24.021	$GPGGA,190620,2531.1329,N,08002.6478,W,1,11,1.5,11,M,,M,,*63
06/09/2014	19:06:25.061	$GPGGA,190621,2531.1387,N,08002.6510,W,1,11,1.5,11,M,,M,,*69
06/09/2014	19:06:26.161	$GPGGA,190622,2531.1416,N,08002.6525,W,1,11,1.5,11,M,,M,,*63
06/09/2014	19:06:27.257	$GPGGA,190623,2531.1445,N,08002.6542,W,1,11,1.5,11,M,,M,,*65
06/09/2014	19:06:28.248	$GPGGA,190624,2531.1474,N,08002.6557,W,1,11,1.5,11,M,,M,,*64
06/09/2014	19:06:29.365	$GPGGA,190625,2531.1503,N,08002.6575,W,1,11,1.5,11,M,,M,,*64
06/09/2014	19:06:30.366	$GPGGA,190626,2531.1503,N,08002.6575,W,1,11,1.5,11,M,,M,,*67
06/09/2014	19:06:31.494	$GPGGA,190627,2531.1560,N,08002.6607,W,1,11,1.5,11,M,,M,,*65
06/09/2014	19:06:32.442	$GPGGA,190628,2531.1588,N,08002.6622,W,1,11,1.5,11,M,,M,,*6B
06/09/2014	19:06:33.475	$GPGGA,190629,2531.1617,N,08002.6640,W,1,11,1.5,11,M,,M,,*6B
06/09/2014	19:06:34.624	$GPGGA,190630,2531.1646,N,08002.6655,W,1,11,1.5,11,M,,M,,*63
06/09/2014	19:06:35.583	$GPGGA,190631,2531.1673,N,08002.6671,W,1,11,1.5,11,M,,M,,*62
06/09/2014	19:06:36.742	$GPGGA,190632,2531.1702,N,08002.6687,W,1,11,1.5,11,M,,M,,*6F
06/09/2014	19:06:37.817	$GPGGA,190633,2531.1731,N,08002.6703,W,1,11,1.5,11,M,,M,,*63
06/09/2014	19:06:38.839	$GPGGA,190634,2531.1759,N,08002.6720,W,1,11,1.5,11,M,,M,,*6B
06/09/2014	19:06:39.904	$GPGGA,190635,2531.1788,N,08002.6735,W,1,11,1.5,11,M,,M,,*62
06/09/2014	19:06:40.959	$GPGGA,190636,2531.1817,N,08002.6750,W,1,11,1.5,11,M,,M,,*6B
06/09/2014	19:06:42.029	$GPGGA,190637,2531.1846,N,08002.6767,W,1,11,1.5,11,M,,M,,*6A
06/09/2014	19:06:43.043	$GPGGA,190638,2531.1875,N,08002.6781,W,1,11,1.5,11,M,,M,,*6D
06/09/2014	19:06:44.139	$GPGGA,190639,2531.1904,N,08002.6797,W,1,11,1.5,11,M,,M,,*6C
06/09/2014	19:06:45.151	$GPGGA,190640,2531.1933,N,08002.6814,W,1,11,1.5,11,M,,M,,*62
06/09/2014	19:06:46.184	$GPGGA,190641,2531.1962,N,08002.6828,W,1,11,1.5,11,M,,M,,*68
06/09/2014	19:06:47.248	$GPGGA,190642,2531.1991,N,08002.6844,W,1,11,1.5,11,M,,M,,*6D
06/09/2014	19:06:48.323	$GPGGA,190643,2531.2020,N,08002.6861,W,1,10,1.7,11,M,,M,,*68
06/09/2014	19:06:49.367	$GPGGA,190644,2531.2051,N,08002.6875,W,1,10,1.5,11,M,,M,,*6E
06/09/2014	19:06:50.421	$GPGGA,190645,2531.2079,N,08002.6890,W,1,11,1.5,11,M,,M,,*6F
06/09/2014	19:06:51.453	$GPGGA,190646,2531.2109,N,08002.6907,W,1,11,1.5,11,M,,M,,*65
06/09/2014	19:06:52.497	$GPGGA,190647,2531.2139,N,08002.6922,W,1,11,1.5,11,M,,M,,*60
06/09/2014	19:06:53.572	$GPGGA,190648,2531.2168,N,08002.6936,W,1,11,1.5,11,M,,M,,*6E
06/09/2014	19:06:54.606	$GPGGA,190649,2531.2197,N,08002.6951,W,1,11,1.5,11,M,,M,,*6E
06/09/2014	19:06:55.680	$GPGGA,190650,2531.2228,N,08002.6965,W,1,11,1.5,11,M,,M,,*66
06/09/2014	19:06:56.713	$GPGGA,190651,2531.2257,N,08002.6980,W,1,11,1.5,12,M,,M,,*67
06/09/2014	19:06:57.777	$GPGGA,190652,2531.2287,N,08002.6994,W,1,11,1.5,12,M,,M,,*6C
06/09/2014	19:06:58.810	$GPGGA,190653,2531.2316,N,08002.7009,W,1,11,1.5,12,M,,M,,*68
06/09/2014	19:06:59.874	$GPGGA,190654,2531.2347,N,08002.7023,W,1,11,1.5,12,M,,M,,*63
06/09/2014	19:07:00.916	$GPGGA,190655,2531.2376,N,08002.7037,W,1,11,1.5,12,M,,M,,*65
06/09/2014	19:07:01.991	$GPGGA,190656,2531.2406,N,08002.7052,W,1,11,1.5,12,M,,M,,*65
06/09/2014	19:07:03.056	$GPGGA,190657,2531.2435,N,08002.7064,W,1,11,1.5,12,M,,M,,*61
06/09/2014	19:07:04.087	$GPGGA,190658,2531.2464,N,08002.7079,W,1,11,1.5,12,M,,M,,*66
06/09/2014	19:07:05.132	$GPGGA,190659,2531.2496,N,08002.7093,W,1,11,1.5,12,M,,M,,*6E
06/09/2014	19:07:06.207	$GPGGA,190700,2531.2525,N,08002.7107,W,1,11,1.5,12,M,,M,,*66
06/09/2014	19:07:07.219	$GPGGA,190701,2531.2554,N,08002.7121,W,1,11,1.5,12,M,,M,,*65
06/09/2014	19:07:08.283	$GPGGA,190702,2531.2585,N,08002.7136,W,1,11,1.5,12,M,,M,,*6C
06/09/2014	19:07:09.442	$GPGGA,190703,2531.2615,N,08002.7150,W,1,11,1.5,12,M,,M,,*67
06/09/2014	19:07:10.391	$GPGGA,190704,2531.2645,N,08002.7164,W,1,11,1.5,12,M,,M,,*62
06/09/2014	19:07:11.455	$GPGGA,190705,2531.2674,N,08002.7178,W,1,11,1.5,12,M,,M,,*6C
06/09/2014	19:07:12.488	$GPGGA,190706,2531.2705,N,08002.7193,W,1,11,1.5,12,M,,M,,*6D
06/09/2014	19:07:13.669	$GPGGA,190707,2531.2734,N,08002.7207,W,1,11,1.5,12,M,,M,,*60
06/09/2014	19:07:14.607	$GPGGA,190708,2531.2764,N,08002.7222,W,1,11,1.5,12,M,,M,,*6D
06/09/2014	19:07:15.660	$GPGGA,190709,2531.2793,N,08002.7236,W,1,11,1.5,12,M,,M,,*61
06/09/2014	19:07:16.691	$GPGGA,190710,2531.2822,N,08002.7251,W,1,11,1.5,12,M,,M,,*6D
06/09/2014	19:07:17.758	$GPGGA,190711,2531.2854,N,08002.7265,W,1,11,1.5,13,M,,M,,*6B
06/09/2014	19:07:18.916	$GPGGA,190712,2531.2883,N,08002.7280,W,1,11,1.5,13,M,,M,,*69
06/09/2014	19:07:19.875	$GPGGA,190713,2531.2912,N,08002.7294,W,1,11,1.5,13,M,,M,,*64
06/09/2014	19:07:20.897	$GPGGA,190714,2531.2943,N,08002.7309,W,1,11,1.5,13,M,,M,,*62
06/09/2014	19:07:21.962	$GPGGA,190715,2531.2972,N,08002.7323,W,1,11,1.5,13,M,,M,,*69
06/09/2014	19:07:23.016	$GPGGA,190716,2531.3002,N,08002.7338,W,1,11,1.5,13,M,,M,,*6F
06/09/2014	19:07:24.050	$GPGGA,190717,2531.3031,N,08002.7353,W,1,11,1.5,13,M,,M,,*63
06/09/2014	19:07:25.221	$GPGGA,190718,2531.3060,N,08002.7368,W,1,11,1.5,13,M,,M,,*60
06/09/2014	19:07:26.273	$GPGGA,190719,2531.3089,N,08002.7384,W,1,11,1.5,13,M,,M,,*64
06/09/2014	19:07:27.326	$GPGGA,190720,2531.3118,N,08002.7397,W,1,11,1.5,13,M,,M,,*65
06/09/2014	19:07:28.394	$GPGGA,190721,2531.3147,N,08002.7413,W,1,11,1.5,13,M,,M,,*65
06/09/2014	19:07:29.413	$GPGGA,190722,2531.3176,N,08002.7428,W,1,11,1.5,13,M,,M,,*6C
06/09/2014	19:07:30.501	$GPGGA,190723,2531.3205,N,08002.7443,W,1,11,1.5,13,M,,M,,*67
06/09/2014	19:07:31.531	$GPGGA,190724,2531.3236,N,08002.7460,W,1,11,1.5,13,M,,M,,*61
06/09/2014	19:07:32.564	$GPGGA,190725,2531.3264,N,08002.7475,W,1,11,1.5,13,M,,M,,*63
06/09/2014	19:07:33.618	$GPGGA,190726,2531.3293,N,08002.7490,W,1,11,1.5,13,M,,M,,*63
06/09/2014	19:07:34.694	$GPGGA,190727,2531.3322,N,08002.7507,W,1,11,1.5,13,M,,M,,*66
06/09/2014	19:07:35.747	$GPGGA,190728,2531.3351,N,08002.7522,W,1,11,1.5,13,M,,M,,*6A
06/09/2014	19:07:36.769	$GPGGA,190729,2531.3378,N,08002.7537,W,1,11,1.5,13,M,,M,,*64
06/09/2014	19:07:37.832	$GPGGA,190730,2531.3407,N,08002.7554,W,1,11,1.5,13,M,,M,,*66
06/09/2014	19:07:38.897	$GPGGA,190731,2531.3436,N,08002.7569,W,1,11,1.5,13,M,,M,,*6B
06/09/2014	19:07:39.951	$GPGGA,190732,2531.3464,N,08002.7585,W,1,11,1.5,13,M,,M,,*6D
06/09/2014	19:07:41.016	$GPGGA,190733,2531.3493,N,08002.7601,W,1,11,1.5,13,M,,M,,*6B
06/09/2014	19:07:42.037	$GPGGA,190734,2531.3522,N,08002.7617,W,1,11,1.5,13,M,,M,,*60
06/09/2014	19:07:43.112	$GPGGA,190735,2531.3550,N,08002.7634,W,1,11,1.5,13,M,,M,,*65
06/09/2014	19:07:44.156	$GPGGA,190736,2531.3579,N,08002.7649,W,1,11,1.5,13,M,,M,,*67
06/09/2014	19:07:45.220	$GPGGA,190737,2531.3606,N,08002.7666,W,1,11,1.5,13,M,,M,,*60
06/09/2014	19:07:46.253	$GPGGA,190738,2531.3634,N,08002.7681,W,1,11,1.5,13,M,,M,,*67
06/09/2014	19:07:47.318	$GPGGA,190739,2531.3663,N,08002.7696,W,1,11,1.5,13,M,,M,,*62
06/09/2014	19:07:48.371	$GPGGA,190740,2531.3692,N,08002.7713,W,1,11,1.5,13,M,,M,,*6E
06/09/2014	19:07:49.394	$GPGGA,190741,2531.3721,N,08002.7728,W,1,11,1.5,13,M,,M,,*6E
06/09/2014	19:07:50.458	$GPGGA,190742,2531.3750,N,08002.7745,W,1,11,1.5,13,M,,M,,*60
06/09/2014	19:07:51.501	$GPGGA,190743,2531.3779,N,08002.7760,W,1,11,1.5,13,M,,M,,*6D
06/09/2014	19:07:52.576	$GPGGA,190744,2531.3807,N,08002.7776,W,1,11,1.5,13,M,,M,,*6B
06/09/2014	19:07:53.609	$GPGGA,190745,2531.3836,N,08002.7793,W,1,11,1.5,13,M,,M,,*63
06/09/2014	19:07:54.674	$GPGGA,190746,2531.3865,N,08002.7807,W,1,11,1.5,13,M,,M,,*64
06/09/2014	19:07:55.748	$GPGGA,190747,2531.3893,N,08002.7823,W,1,11,1.5,13,M,,M,,*6A
06/09/2014	19:07:56.780	$GPGGA,190748,2531.3922,N,08002.7840,W,1,11,1.5,13,M,,M,,*6B
06/09/2014	19:07:57.813	$GPGGA,190749,2531.3951,N,08002.7854,W,1,11,1.5,13,M,,M,,*6B
06/09/2014	19:07:58.878	$GPGGA,190750,2531.3978,N,08002.7870,W,1,11,1.5,13,M,,M,,*6E
06/09/2014	19:07:59.911	$GPGGA,190751,2531.4007,N,08002.7886,W,1,11,1.5,13,M,,M,,*60
06/09/2014	19:08:00.986	$GPGGA,190752,2531.4036,N,08002.7901,W,1,11,1.5,13,M,,M,,*6F
06/09/2014	19:08:02.008	$GPGGA,190753,2531.4064,N,08002.7915,W,1,11,1.5,13,M,,M,,*6C
06/09/2014	19:08:03.085	$GPGGA,190754,2531.4093,N,08002.7930,W,1,11,1.7,13,M,,M,,*66
06/09/2014	19:08:04.129	$GPGGA,190755,2531.4124,N,08002.7945,W,1,11,1.5,13,M,,M,,*6A
06/09/2014	19:08:05.285	$GPGGA,190756,2531.4153,N,08002.7962,W,1,11,1.5,13,M,,M,,*6C
06/09/2014	19:08:06.223	$GPGGA,190757,2531.4182,N,08002.7975,W,1,11,1.5,13,M,,M,,*67
06/09/2014	19:08:07.277	$GPGGA,190758,2531.4212,N,08002.7991,W,1,11,1.5,13,M,,M,,*68
06/09/2014	19:08:08.321	$GPGGA,190759,2531.4241,N,08002.8006,W,1,11,1.5,13,M,,M,,*67
06/09/2014	19:08:09.417	$GPGGA,190800,2531.4270,N,08002.8020,W,1,11,1.5,13,M,,M,,*62
06/09/2014	19:08:10.439	$GPGGA,190801,2531.4299,N,08002.8035,W,1,11,1.5,13,M,,M,,*60
06/09/2014	19:08:11.491	$GPGGA,190802,2531.4330,N,08002.8049,W,1,11,1.5,13,M,,M,,*6A
06/09/2014	19:08:12.663	$GPGGA,190803,2531.4360,N,08002.8064,W,1,11,1.5,13,M,,M,,*61
06/09/2014	19:08:13.707	$GPGGA,190804,2531.4389,N,08002.8078,W,1,11,1.5,13,M,,M,,*6C
06/09/2014	19:08:14.759	$GPGGA,190805,2531.4418,N,08002.8092,W,1,11,1.5,13,M,,M,,*66
06/09/2014	19:08:15.804	$GPGGA,190806,2531.4449,N,08002.8107,W,1,11,1.5,13,M,,M,,*6C
06/09/2014	19:08:16.888	$GPGGA,190807,2531.4480,N,08002.8121,W,1,11,1.5,13,M,,M,,*6C
06/09/2014	19:08:17.910	$GPGGA,190808,2531.4509,N,08002.8136,W,1,11,1.5,13,M,,M,,*65
06/09/2014	19:08:18.977	$GPGGA,190809,2531.4538,N,08002.8150,W,1,11,1.5,13,M,,M,,*66
06/09/2014	19:08:19.997	$GPGGA,190810,2531.4569,N,08002.8163,W,1,11,1.5,13,M,,M,,*6A
06/09/2014	19:08:21.109	$GPGGA,190811,2531.4599,N,08002.8177,W,1,11,1.5,13,M,,M,,*61
06/09/2014	19:08:22.116	$GPGGA,190812,2531.4628,N,08002.8191,W,1,11,1.5,13,M,,M,,*63
06/09/2014	19:08:23.181	$GPGGA,190813,2531.4659,N,08002.8205,W,1,11,1.5,13,M,,M,,*6A
06/09/2014	19:08:24.212	$GPGGA,190814,2531.4689,N,08002.8219,W,1,11,1.5,13,M,,M,,*6D
06/09/2014	19:08:25.277	$GPGGA,190815,2531.4718,N,08002.8234,W,1,11,1.5,13,M,,M,,*6A
06/09/2014	19:08:26.320	$GPGGA,190816,2531.4747,N,08002.8248,W,1,11,1.5,13,M,,M,,*68
06/09/2014	19:08:27.385	$GPGGA,190817,2531.4778,N,08002.8262,W,1,11,1.5,13,M,,M,,*6D
06/09/2014	19:08:28.418	$GPGGA,190818,2531.4808,N,08002.8277,W,1,11,1.5,13,M,,M,,*6E
06/09/2014	19:08:29.494	$GPGGA,190819,2531.4837,N,08002.8291,W,1,11,1.5,13,M,,M,,*6B
06/09/2014	19:08:30.536	$GPGGA,190820,2531.4867,N,08002.8305,W,1,11,1.5,13,M,,M,,*68
06/09/2014	19:08:31.600	$GPGGA,190821,2531.4898,N,08002.8320,W,1,11,1.5,13,M,,M,,*6E
06/09/2014	19:08:32.632	$GPGGA,190822,2531.4928,N,08002.8334,W,1,11,1.5,13,M,,M,,*62
06/09/2014	19:08:33.696	$GPGGA,190823,2531.4957,N,08002.8347,W,1,11,1.5,13,M,,M,,*6F
06/09/2014	19:08:34.729	$GPGGA,190824,2531.4986,N,08002.8363,W,1,11,1.5,13,M,,M,,*62
06/09/2014	19:08:35.804	$GPGGA,190825,2531.5015,N,08002.8376,W,1,11,1.5,13,M,,M,,*65
06/09/2014	19:08:36.837	$GPGGA,190826,2531.5046,N,08002.8392,W,1,11,1.5,13,M,,M,,*6A
06/09/2014	19:08:37.880	$GPGGA,190827,2531.5075,N,08002.8407,W,1,11,1.5,13,M,,M,,*60
06/09/2014	19:08:38.955	$GPGGA,190828,2531.5105,N,08002.8421,W,1,11,1.5,13,M,,M,,*6D
06/09/2014	19:08:39.988	$GPGGA,190829,2531.5134,N,08002.8436,W,1,11,1.5,13,M,,M,,*68
06/09/2014	19:08:41.042	$GPGGA,190830,2531.5163,N,08002.8450,W,1,11,1.5,13,M,,M,,*62
06/09/2014	19:08:42.079	$GPGGA,190831,2531.5191,N,08002.8465,W,1,11,1.5,13,M,,M,,*68
06/09/2014	19:08:43.161	$GPGGA,190832,2531.5220,N,08002.8479,W,1,11,1.7,13,M,,M,,*6D
06/09/2014	19:08:44.193	$GPGGA,190833,2531.5248,N,08002.8494,W,1,11,1.5,13,M,,M,,*63
06/09/2014	19:08:45.258	$GPGGA,190834,2531.5277,N,08002.8509,W,1,11,1.5,13,M,,M,,*6D
06/09/2014	19:08:46.301	$GPGGA,190835,2531.5306,N,08002.8524,W,1,11,1.5,13,M,,M,,*64
06/09/2014	19:08:47.376	$GPGGA,190836,2531.5333,N,08002.8540,W,1,11,1.5,12,M,,M,,*62
06/09/2014	19:08:48.430	$GPGGA,190837,2531.5363,N,08002.8555,W,1,11,1.5,12,M,,M,,*62
06/09/2014	19:08:49.485	$GPGGA,190838,2531.5393,N,08002.8571,W,1,11,1.5,12,M,,M,,*64
06/09/2014	19:08:50.506	$GPGGA,190839,2531.5421,N,08002.8587,W,1,11,1.5,12,M,,M,,*62
06/09/2014	19:08:51.696	$GPGGA,190840,2531.5450,N,08002.8603,W,1,11,1.5,12,M,,M,,*65
06/09/2014	19:08:52.623	$GPGGA,190841,2531.5479,N,08002.8620,W,1,11,1.5,12,M,,M,,*6E
06/09/2014	19:08:53.751	$GPGGA,190842,2531.5509,N,08002.8635,W,1,11,1.5,12,M,,M,,*6F
06/09/2014	19:08:54.721	$GPGGA,190843,2531.5537,N,08002.8652,W,1,11,1.5,12,M,,M,,*62
06/09/2014	19:08:55.880	$GPGGA,190844,2531.5566,N,08002.8667,W,1,11,1.5,12,M,,M,,*67
06/09/2014	19:08:56.944	$GPGGA,190845,2531.5595,N,08002.8685,W,1,11,1.5,12,M,,M,,*66
06/09/2014	19:08:57.872	$GPGGA,190846,2531.5624,N,08002.8700,W,1,11,1.5,12,M,,M,,*60
06/09/2014	19:08:59.042	$GPGGA,190847,2531.5653,N,08002.8717,W,1,11,1.5,12,M,,M,,*67
06/09/2014	19:08:59.990	$GPGGA,190848,2531.5682,N,08002.8732,W,1,11,1.5,12,M,,M,,*63
06/09/2014	19:09:01.139	$GPGGA,190849,2531.5710,N,08002.8748,W,1,11,1.5,12,M,,M,,*65
06/09/2014	19:09:02.090	$GPGGA,190850,2531.5739,N,08002.8764,W,1,11,1.5,12,M,,M,,*68
06/09/2014	19:09:03.237	$GPGGA,190851,2531.5768,N,08002.8782,W,1,11,1.5,12,M,,M,,*65
06/09/2014	19:09:04.197	$GPGGA,190852,2531.5795,N,08002.8797,W,1,11,1.5,12,M,,M,,*60
06/09/2014	19:09:05.323	$GPGGA,190853,2531.5824,N,08002.8813,W,1,11,1.5,12,M,,M,,*67
06/09/2014	19:09:06.387	$GPGGA,190854,2531.5853,N,08002.8829,W,1,11,1.5,12,M,,M,,*69
06/09/2014	19:09:07.420	$GPGGA,190855,2531.5882,N,08002.8845,W,1,11,1.5,12,M,,M,,*6E
06/09/2014	19:09:08.506	$GPGGA,190856,2531.5910,N,08002.8862,W,1,11,1.5,12,M,,M,,*62
06/09/2014	19:09:09.580	$GPGGA,190857,2531.5939,N,08002.8876,W,1,11,1.5,12,M,,M,,*6D
06/09/2014	19:09:10.595	$GPGGA,190858,2531.5968,N,08002.8892,W,1,11,1.5,12,M,,M,,*6C
06/09/2014	19:09:11.635	$GPGGA,190859,2531.5996,N,08002.8909,W,1,11,1.5,12,M,,M,,*6F
06/09/2014	19:09:12.720	$GPGGA,190900,2531.6025,N,08002.8923,W,1,11,1.5,13,M,,M,,*69
06/09/2014	19:09:13.753	$GPGGA,190901,2531.6054,N,08002.8939,W,1,11,1.5,13,M,,M,,*65
06/09/2014	19:09:14.807	$GPGGA,190902,2531.6082,N,08002.8954,W,1,11,1.5,13,M,,M,,*66
06/09/2014	19:09:15.840	$GPGGA,190903,2531.6111,N,08002.8970,W,1,10,1.7,13,M,,M,,*69
06/09/2014	19:09:16.915	$GPGGA,190904,2531.6140,N,08002.8985,W,1,10,1.7,13,M,,M,,*60
06/09/2014	19:09:17.969	$GPGGA,190905,2531.6170,N,08002.9001,W,1,11,1.5,13,M,,M,,*65
06/09/2014	19:09:19.002	$GPGGA,190906,2531.6199,N,08002.9017,W,1,11,1.5,13,M,,M,,*66
06/09/2014	19:09:20.077	$GPGGA,190907,2531.6228,N,08002.9032,W,1,11,1.5,13,M,,M,,*69
06/09/2014	19:09:21.120	$GPGGA,190908,2531.6257,N,08002.9046,W,1,11,1.5,13,M,,M,,*6D
06/09/2014	19:09:22.153	$GPGGA,190909,2531.6288,N,08002.9061,W,1,11,1.5,13,M,,M,,*6B
06/09/2014	19:09:23.196	$GPGGA,190910,2531.6317,N,08002.9075,W,1,11,1.5,13,M,,M,,*61
06/09/2014	19:09:24.292	$GPGGA,190911,2531.6346,N,08002.9090,W,1,11,1.5,13,M,,M,,*6F
06/09/2014	19:09:25.325	$GPGGA,190912,2531.6376,N,08002.9105,W,1,11,1.5,13,M,,M,,*62
06/09/2014	19:09:26.358	$GPGGA,190913,2531.6405,N,08002.9119,W,1,11,1.5,13,M,,M,,*6D
06/09/2014	19:09:27.412	$GPGGA,190914,2531.6434,N,08002.9133,W,1,11,1.5,13,M,,M,,*60
06/09/2014	19:09:28.475	$GPGGA,190915,2531.6463,N,08002.9148,W,1,11,1.5,13,M,,M,,*6F
06/09/2014	19:09:29.529	$GPGGA,190916,2531.6494,N,08002.9162,W,1,11,1.5,13,M,,M,,*6C
06/09/2014	19:09:30.562	$GPGGA,190917,2531.6524,N,08002.9176,W,1,11,1.5,14,M,,M,,*65
06/09/2014	19:09:31.637	$GPGGA,190918,2531.6553,N,08002.9191,W,1,11,1.5,14,M,,M,,*63
06/09/2014	19:09:32.659	$GPGGA,190919,2531.6582,N,08002.9205,W,1,11,1.5,14,M,,M,,*60
06/09/2014	19:09:33.745	$GPGGA,190920,2531.6611,N,08002.9219,W,1,11,1.5,14,M,,M,,*6E
06/09/2014	19:09:34.777	$GPGGA,190921,2531.6642,N,08002.9232,W,1,11,1.5,14,M,,M,,*60
06/09/2014	19:09:35.821	$GPGGA,190922,2531.6672,N,08002.9246,W,1,11,1.5,14,M,,M,,*63
06/09/2014	19:09:36.906	$GPGGA,190923,2531.6701,N,08002.9261,W,1,11,1.5,14,M,,M,,*62
06/09/2014	19:09:37.939	$GPGGA,190924,2531.6730,N,08002.9275,W,1,11,1.5,14,M,,M,,*62
06/09/2014	19:09:39.004	$GPGGA,190925,2531.6760,N,08002.9289,W,1,11,1.5,14,M,,M,,*65
06/09/2014	19:09:40.026	$GPGGA,190926,2531.6790,N,08002.9303,W,1,11,1.5,14,M,,M,,*6A
06/09/2014	19:09:41.217	$GPGGA,190927,2531.6820,N,08002.9317,W,1,11,1.5,14,M,,M,,*6A
06/09/2014	19:09:42.145	$GPGGA,190928,2531.6849,N,08002.9332,W,1,11,1.5,14,M,,M,,*6D
06/09/2014	19:09:43.314	$GPGGA,190929,2531.6879,N,08002.9346,W,1,11,1.5,14,M,,M,,*6C
06/09/2014	19:09:44.231	$GPGGA,190930,2531.6908,N,08002.9360,W,1,11,1.5,14,M,,M,,*67
06/09/2014	19:09:45.306	$GPGGA,190931,2531.6937,N,08002.9375,W,1,11,1.5,14,M,,M,,*6E
06/09/2014	19:09:46.369	$GPGGA,190932,2531.6968,N,08002.9389,W,1,11,1.5,13,M,,M,,*63
06/09/2014	19:09:47.413	$GPGGA,190933,2531.6998,N,08002.9402,W,1,11,1.5,13,M,,M,,*69
06/09/2014	19:09:48.445	$GPGGA,190934,2531.7027,N,08002.9416,W,1,11,1.5,13,M,,M,,*67
06/09/2014	19:09:49.510	$GPGGA,190935,2531.7056,N,08002.9431,W,1,11,1.5,13,M,,M,,*65
06/09/2014	19:09:50.680	$GPGGA,190936,2531.7085,N,08002.9447,W,1,11,1.5,13,M,,M,,*69
06/09/2014	19:09:51.628	$GPGGA,190937,2531.7114,N,08002.9462,W,1,11,1.5,13,M,,M,,*66
06/09/2014	19:09:52.650	$GPGGA,190938,2531.7145,N,08002.9476,W,1,11,1.5,13,M,,M,,*68
06/09/2014	19:09:53.704	$GPGGA,190939,2531.7175,N,08002.9491,W,1,11,1.5,13,M,,M,,*63
06/09/2014	19:09:54.885	$GPGGA,190940,2531.7203,N,08002.9506,W,1,11,1.5,13,M,,M,,*60
06/09/2014	19:09:55.928	$GPGGA,190941,2531.7232,N,08002.9521,W,1,11,1.5,13,M,,M,,*66
06/09/2014	19:09:56.961	$GPGGA,190942,2531.7262,N,08002.9538,W,1,11,1.5,13,M,,M,,*68
06/09/2014	19:09:58.059	$GPGGA,190943,2531.7290,N,08002.9552,W,1,11,1.5,13,M,,M,,*68
06/09/2014	19:09:59.087	$GPGGA,190944,2531.7319,N,08002.9568,W,1,11,1.5,13,M,,M,,*66
06/09/2014	19:10:00.144	$GPGGA,190945,2531.7348,N,08002.9585,W,1,11,1.5,13,M,,M,,*60
06/09/2014	19:10:01.166	$GPGGA,190946,2531.7377,N,08002.9599,W,1,11,1.5,13,M,,M,,*62
06/09/2014	19:10:02.242	$GPGGA,190947,2531.7406,N,08002.9615,W,1,11,1.5,13,M,,M,,*65
06/09/2014	19:10:03.284	$GPGGA,190948,2531.7434,N,08002.9632,W,1,11,1.5,13,M,,M,,*6E
06/09/2014	19:10:04.339	$GPGGA,190949,2531.7463,N,08002.9647,W,1,11,1.5,13,M,,M,,*6F
06/09/2014	19:10:05.395	$GPGGA,190950,2531.7492,N,08002.9662,W,1,11,1.5,13,M,,M,,*6E
06/09/2014	19:10:06.445	$GPGGA,190951,2531.7520,N,08002.9679,W,1,11,1.5,13,M,,M,,*6D
06/09/2014	19:10:07.499	$GPGGA,190952,2531.7549,N,08002.9696,W,1,11,1.5,13,M,,M,,*60
06/09/2014	19:10:08.532	$GPGGA,190953,2531.7578,N,08002.9711,W,1,11,1.5,13,M,,M,,*6D
06/09/2014	19:10:09.596	$GPGGA,190954,2531.7605,N,08002.9727,W,1,11,1.5,13,M,,M,,*66
06/09/2014	19:10:10.662	$GPGGA,190955,2531.7634,N,08002.9743,W,1,11,1.5,13,M,,M,,*67
06/09/2014	19:10:11.704	$GPGGA,190956,2531.7663,N,08002.9758,W,1,11,1.5,13,M,,M,,*6C
06/09/2014	19:10:12.758	$GPGGA,190957,2531.7691,N,08002.9774,W,1,11,1.5,13,M,,M,,*6E
06/09/2014	19:10:13.791	$GPGGA,190958,2531.7720,N,08002.9790,W,1,11,1.5,13,M,,M,,*60
06/09/2014	19:10:14.866	$GPGGA,190959,2531.7749,N,08002.9805,W,1,11,1.5,13,M,,M,,*6D
06/09/2014	19:10:15.920	$GPGGA,191000,2531.7777,N,08002.9823,W,1,11,1.5,13,M,,M,,*60
06/09/2014	19:10:16.985	$GPGGA,191001,2531.7806,N,08002.9837,W,1,11,1.5,13,M,,M,,*6D
06/09/2014	19:10:17.996	$GPGGA,191002,2531.7835,N,08002.9853,W,1,11,1.5,13,M,,M,,*6C
06/09/2014	19:10:19.081	$GPGGA,191003,2531.7863,N,08002.9868,W,1,11,1.5,13,M,,M,,*66
06/09/2014	19:10:20.125	$GPGGA,191004,2531.7892,N,08002.9884,W,1,11,1.5,13,M,,M,,*6D
06/09/2014	19:10:21.180	$GPGGA,191005,2531.7921,N,08002.9900,W,1,11,1.5,13,M,,M,,*68
06/09/2014	19:10:22.222	$GPGGA,191006,2531.7948,N,08002.9915,W,1,11,1.5,13,M,,M,,*60
06/09/2014	19:10:23.285	$GPGGA,191007,2531.7977,N,08002.9931,W,1,11,1.5,13,M,,M,,*6B
06/09/2014	19:10:24.330	$GPGGA,191008,2531.8006,N,08002.9946,W,1,11,1.5,13,M,,M,,*64
06/09/2014	19:10:25.393	$GPGGA,191009,2531.8035,N,08002.9961,W,1,11,1.5,13,M,,M,,*60
06/09/2014	19:10:26.415	$GPGGA,191010,2531.8064,N,08002.9976,W,1,11,1.5,13,M,,M,,*6A
06/09/2014	19:10:27.490	$GPGGA,191011,2531.8093,N,08002.9993,W,1,11,1.5,13,M,,M,,*68
06/09/2014	19:10:28.534	$GPGGA,191012,2531.8121,N,08003.0007,W,1,11,1.5,13,M,,M,,*6F
06/09/2014	19:10:29.682	$GPGGA,191013,2531.8150,N,08003.0022,W,1,11,1.5,12,M,,M,,*6E
06/09/2014	19:10:30.736	$GPGGA,191014,2531.8181,N,08003.0037,W,1,11,1.5,12,M,,M,,*61
06/09/2014	19:10:31.790	$GPGGA,191015,2531.8210,N,08003.0054,W,1,11,1.5,12,M,,M,,*6E
06/09/2014	19:10:32.770	$GPGGA,191016,2531.8239,N,08003.0069,W,1,11,1.5,12,M,,M,,*68
06/09/2014	19:10:33.871	$GPGGA,191017,2531.8268,N,08003.0083,W,1,11,1.5,12,M,,M,,*69
06/09/2014	19:10:34.836	$GPGGA,191018,2531.8297,N,08003.0098,W,1,11,1.5,12,M,,M,,*6C
06/09/2014	19:10:35.891	$GPGGA,191019,2531.8327,N,08003.0112,W,1,11,1.5,12,M,,M,,*64
06/09/2014	19:10:37.049	$GPGGA,191020,2531.8356,N,08003.0126,W,1,11,1.5,12,M,,M,,*6F
06/09/2014	19:10:38.106	$GPGGA,191021,2531.8385,N,08003.0141,W,1,11,1.5,12,M,,M,,*61
06/09/2014	19:10:39.051	$GPGGA,191022,2531.8414,N,08003.0155,W,1,11,1.5,12,M,,M,,*68
06/09/2014	19:10:40.202	$GPGGA,191023,2531.8443,N,08003.0170,W,1,11,1.5,12,M,,M,,*6C
06/09/2014	19:10:41.179	$GPGGA,191024,2531.8474,N,08003.0185,W,1,11,1.5,12,M,,M,,*65
06/09/2014	19:10:42.289	$GPGGA,191025,2531.8503,N,08003.0199,W,1,11,1.5,12,M,,M,,*68
06/09/2014	19:10:43.259	$GPGGA,191026,2531.8533,N,08003.0213,W,1,11,1.5,12,M,,M,,*69
06/09/2014	19:10:44.309	$GPGGA,191027,2531.8562,N,08003.0228,W,1,11,1.5,12,M,,M,,*64
06/09/2014	19:10:45.459	$GPGGA,191028,2531.8591,N,08003.0242,W,1,11,1.5,12,M,,M,,*6B
06/09/2014	19:10:46.523	$GPGGA,191029,2531.8620,N,08003.0257,W,1,11,1.5,12,M,,M,,*67
06/09/2014	19:10:47.547	$GPGGA,191030,2531.8651,N,08003.0271,W,1,11,1.5,12,M,,M,,*6D
06/09/2014	19:10:48.620	$GPGGA,191031,2531.8681,N,08003.0286,W,1,11,1.5,12,M,,M,,*69
06/09/2014	19:10:49.666	$GPGGA,191032,2531.8710,N,08003.0300,W,1,11,1.5,12,M,,M,,*6C
06/09/2014	19:10:50.707	$GPGGA,191033,2531.8739,N,08003.0315,W,1,11,1.5,12,M,,M,,*62
06/09/2014	19:10:51.761	$GPGGA,191034,2531.8770,N,08003.0329,W,1,11,1.5,12,M,,M,,*67
06/09/2014	19:10:52.804	$GPGGA,191035,2531.8800,N,08003.0343,W,1,11,1.5,12,M,,M,,*62
06/09/2014	19:10:53.879	$GPGGA,191036,2531.8829,N,08003.0358,W,1,11,1.5,12,M,,M,,*60
06/09/2014	19:10:54.922	$GPGGA,191037,2531.8858,N,08003.0372,W,1,11,1.5,11,M,,M,,*6C
06/09/2014	19:10:55.966	$GPGGA,191038,2531.8889,N,08003.0387,W,1,11,1.5,11,M,,M,,*65
06/09/2014	19:10:57.031	$GPGGA,191039,2531.8918,N,08003.0402,W,1,11,1.5,11,M,,M,,*67
06/09/2014	19:10:58.084	$GPGGA,191040,2531.8948,N,08003.0416,W,1,11,1.5,11,M,,M,,*69
06/09/2014	19:10:59.111	$GPGGA,191041,2531.8978,N,08003.0431,W,1,11,1.5,11,M,,M,,*6E
06/09/2014	19:11:00.111	$GPGGA,191042,2531.9007,N,08003.0446,W,1,11,1.5,11,M,,M,,*6D
06/09/2014	19:11:01.121	$GPGGA,191043,2531.9036,N,08003.0460,W,1,11,1.5,11,M,,M,,*6A
06/09/2014	19:11:02.162	$GPGGA,191044,2531.9066,N,08003.0475,W,1,11,1.5,11,M,,M,,*6C
06/09/2014	19:11:03.163	$GPGGA,191045,2531.9096,N,08003.0489,W,1,11,1.5,11,M,,M,,*61
06/09/2014	19:11:04.184	$GPGGA,191046,2531.9125,N,08003.0506,W,1,11,1.5,11,M,,M,,*6D
06/09/2014	19:11:05.236	$GPGGA,191047,2531.9155,N,08003.0520,W,1,11,1.5,11,M,,M,,*6F
06/09/2014	19:11:06.236	$GPGGA,191048,2531.9184,N,08003.0535,W,1,11,1.5,11,M,,M,,*68
06/09/2014	19:11:07.267	$GPGGA,191049,2531.9212,N,08003.0549,W,1,11,1.5,11,M,,M,,*6E
06/09/2014	19:11:08.258	$GPGGA,191050,2531.9242,N,08003.0564,W,1,11,1.5,11,M,,M,,*6C
06/09/2014	19:11:09.309	$GPGGA,191051,2531.9272,N,08003.0578,W,1,11,1.5,11,M,,M,,*63
06/09/2014	19:11:10.320	$GPGGA,191052,2531.9302,N,08003.0593,W,1,11,1.5,11,M,,M,,*63
06/09/2014	19:11:11.311	$GPGGA,191053,2531.9331,N,08003.0608,W,1,11,1.5,11,M,,M,,*63
06/09/2014	19:11:12.332	$GPGGA,191054,2531.9360,N,08003.0623,W,1,11,1.5,11,M,,M,,*69
06/09/2014	19:11:13.383	$GPGGA,191055,2531.9389,N,08003.0639,W,1,11,1.5,11,M,,M,,*64
06/09/2014	19:11:14.394	$GPGGA,191056,2531.9418,N,08003.0654,W,1,11,1.5,11,M,,M,,*63
06/09/2014	19:11:15.395	$GPGGA,191057,2531.9447,N,08003.0669,W,1,11,1.5,11,M,,M,,*66
06/09/2014	19:11:16.416	$GPGGA,191058,2531.9476,N,08003.0686,W,1,11,1.5,11,M,,M,,*6A
06/09/2014	19:11:17.425	$GPGGA,191059,2531.9505,N,08003.0701,W,1,11,1.5,11,M,,M,,*60
06/09/2014	19:11:18.477	$GPGGA,191100,2531.9534,N,08003.0716,W,1,11,1.5,11,M,,M,,*69
06/09/2014	19:11:19.498	$GPGGA,191101,2531.9563,N,08003.0731,W,1,11,1.5,11,M,,M,,*6F
06/09/2014	19:11:20.499	$GPGGA,191102,2531.9592,N,08003.0748,W,1,11,1.5,11,M,,M,,*6C
06/09/2014	19:11:21.520	$GPGGA,191103,2531.9620,N,08003.0764,W,1,11,1.5,11,M,,M,,*69
06/09/2014	19:11:22.551	$GPGGA,191104,2531.9649,N,08003.0780,W,1,11,1.5,11,M,,M,,*6B
06/09/2014	19:11:23.531	$GPGGA,191105,2531.9678,N,08003.0795,W,1,11,1.5,11,M,,M,,*6C
06/09/2014	19:11:24.552	$GPGGA,191106,2531.9706,N,08003.0811,W,1,11,1.5,11,M,,M,,*64
06/09/2014	19:11:25.716	$GPGGA,191107,2531.9736,N,08003.0827,W,1,11,1.5,11,M,,M,,*63
06/09/2014	19:11:26.625	$GPGGA,191108,2531.9764,N,08003.0843,W,1,11,1.5,11,M,,M,,*69
06/09/2014	19:11:27.758	$GPGGA,191109,2531.9793,N,08003.0860,W,1,11,1.5,11,M,,M,,*61
06/09/2014	19:11:28.646	$GPGGA,191110,2531.9822,N,08003.0875,W,1,11,1.5,11,M,,M,,*68
06/09/2014	19:11:29.677	$GPGGA,191111,2531.9851,N,08003.0890,W,1,11,1.5,11,M,,M,,*66
06/09/2014	19:11:30.780	$GPGGA,191112,2531.9880,N,08003.0907,W,1,11,1.5,11,M,,M,,*66
06/09/2014	19:11:31.699	$GPGGA,191113,2531.9909,N,08003.0922,W,1,11,1.5,11,M,,M,,*60
06/09/2014	19:11:32.802	$GPGGA,191114,2531.9937,N,08003.0937,W,1,11,1.5,11,M,,M,,*6E
06/09/2014	19:11:33.863	$GPGGA,191115,2531.9966,N,08003.0954,W,1,11,1.5,11,M,,M,,*6E
06/09/2014	19:11:34.854	$GPGGA,191116,2531.9995,N,08003.0968,W,1,11,1.5,11,M,,M,,*6E
06/09/2014	19:11:35.915	$GPGGA,191117,2532.0024,N,08003.0983,W,1,11,1.5,11,M,,M,,*63
06/09/2014	19:11:36.896	$GPGGA,191118,2532.0051,N,08003.0999,W,1,11,1.5,11,M,,M,,*65
06/09/2014	19:11:37.906	$GPGGA,191119,2532.0082,N,08003.1015,W,1,11,1.5,11,M,,M,,*66
06/09/2014	19:11:38.941	$GPGGA,191120,2532.0109,N,08003.1030,W,1,11,1.5,11,M,,M,,*69
06/09/2014	19:11:39.937	$GPGGA,191121,2532.0139,N,08003.1045,W,1,11,1.5,11,M,,M,,*69
06/09/2014	19:11:40.958	$GPGGA,191122,2532.0168,N,08003.1060,W,1,11,1.5,11,M,,M,,*69
06/09/2014	19:11:42.000	$GPGGA,191123,2532.0195,N,08003.1076,W,1,11,1.5,11,M,,M,,*6D
06/09/2014	19:11:43.024	$GPGGA,191124,2532.0224,N,08003.1091,W,1,11,1.5,11,M,,M,,*6A
06/09/2014	19:11:44.022	$GPGGA,191125,2532.0255,N,08003.1105,W,1,11,1.5,11,M,,M,,*61
06/09/2014	19:11:45.042	$GPGGA,191126,2532.0284,N,08003.1120,W,1,11,1.5,11,M,,M,,*69
06/09/2014	19:11:46.074	$GPGGA,191127,2532.0313,N,08003.1135,W,1,11,1.5,11,M,,M,,*63
06/09/2014	19:11:47.095	$GPGGA,191128,2532.0343,N,08003.1150,W,1,11,1.5,11,M,,M,,*6A
06/09/2014	19:11:48.116	$GPGGA,191129,2532.0372,N,08003.1165,W,1,11,1.5,11,M,,M,,*6F
06/09/2014	19:11:49.116	$GPGGA,191130,2532.0401,N,08003.1181,W,1,11,1.5,11,M,,M,,*6E
06/09/2014	19:11:50.162	$GPGGA,191131,2532.0430,N,08003.1196,W,1,11,1.5,11,M,,M,,*6B
06/09/2014	19:11:51.158	$GPGGA,191132,2532.0459,N,08003.1210,W,1,11,1.5,11,M,,M,,*6A
06/09/2014	19:11:52.169	$GPGGA,191133,2532.0488,N,08003.1225,W,1,11,1.5,11,M,,M,,*61
06/09/2014	19:11:53.189	$GPGGA,191134,2532.0517,N,08003.1239,W,1,11,1.5,11,M,,M,,*6C
06/09/2014	19:11:54.210	$GPGGA,191135,2532.0548,N,08003.1254,W,1,11,1.5,11,M,,M,,*6C
06/09/2014	19:11:55.284	$GPGGA,191136,2532.0577,N,08003.1268,W,1,11,1.5,11,M,,M,,*6C
06/09/2014	19:11:56.272	$GPGGA,191137,2532.0607,N,08003.1283,W,1,11,1.5,11,M,,M,,*6C
06/09/2014	19:11:57.263	$GPGGA,191138,2532.0636,N,08003.1297,W,1,11,1.5,11,M,,M,,*64
06/09/2014	19:11:58.314	$GPGGA,191139,2532.0665,N,08003.1311,W,1,11,1.5,11,M,,M,,*6C
06/09/2014	19:11:59.325	$GPGGA,191140,2532.0696,N,08003.1326,W,1,11,1.5,11,M,,M,,*6A
