Software Version Number: 1	Data File Format Number: 1	Build Version Number: 1	Error Count Since VI Started: 0	Manufacturer: Raytheon	 Model Number: RayMarine 120	 S/N: 	 Cal Date: 	 Wind Direction Offset: 0.00	 Slope (M)1: 0.00	 Offset (B)1: 0.00	 Slope (M)2: 0.00	 Offset (B)2: 0.00	 Slope (M)3: 0.00	 Offset (B)3: 0.00	 Slope (M)4: 0.00	 Offset (B)4: 0.00	 Slope (M)5: 0.00	 Offset (B)5: 0.00	 Slope (M)6: 0.00	 Offset (B)6: 0.00
Computer Date	Computer Time	GGA String
06/07/2014	12:00:00.247	$GPGGA,120009,2418.5499,N,08114.1007,W,1,9,1.5,17,M,,M,,*55
06/07/2014	12:00:01.149	$GPGGA,120010,2418.5523,N,08114.0991,W,1,9,1.5,17,M,,M,,*5A
06/07/2014	12:00:02.282	$GPGGA,120011,2418.5549,N,08114.0974,W,1,8,2.0,17,M,,M,,*5B
06/07/2014	12:00:03.265	$GPGGA,120012,2418.5574,N,08114.0957,W,1,8,1.5,17,M,,M,,*51
06/07/2014	12:00:04.287	$GPGGA,120013,2418.5598,N,08114.0941,W,1,9,1.5,17,M,,M,,*54
06/07/2014	12:00:05.260	$GPGGA,120014,2418.5621,N,08114.0924,W,1,9,2.0,17,M,,M,,*57
06/07/2014	12:00:06.243	$GPGGA,120015,2418.5650,N,08114.0906,W,1,8,2.0,17,M,,M,,*51
06/07/2014	12:00:07.255	$GPGGA,120016,2418.5676,N,08114.0890,W,1,8,1.5,17,M,,M,,*5E
06/07/2014	12:00:08.278	$GPGGA,120017,2418.5700,N,08114.0874,W,1,9,1.5,18,M,,M,,*5B
06/07/2014	12:00:09.249	$GPGGA,120018,2418.5723,N,08114.0857,W,1,9,2.0,18,M,,M,,*52
06/07/2014	12:00:10.282	$GPGGA,120019,2418.5747,N,08114.0840,W,1,8,2.0,18,M,,M,,*56
06/07/2014	12:00:11.275	$GPGGA,120020,2418.5772,N,08114.0823,W,1,8,1.5,18,M,,M,,*59
06/07/2014	12:00:12.267	$GPGGA,120021,2418.5797,N,08114.0806,W,1,9,1.5,18,M,,M,,*55
06/07/2014	12:00:13.260	$GPGGA,120022,2418.5822,N,08114.0789,W,1,9,1.5,18,M,,M,,*5F
06/07/2014	12:00:14.272	$GPGGA,120023,2418.5845,N,08114.0772,W,1,9,1.5,18,M,,M,,*5B
06/07/2014	12:00:15.265	$GPGGA,120024,2418.5871,N,08114.0755,W,1,9,1.5,18,M,,M,,*5E
06/07/2014	12:00:16.278	$GPGGA,120025,2418.5895,N,08114.0738,W,1,9,1.5,18,M,,M,,*5E
06/07/2014	12:00:17.270	$GPGGA,120026,2418.5917,N,08114.0722,W,1,9,1.5,18,M,,M,,*5D
06/07/2014	12:00:18.283	$GPGGA,120027,2418.5939,N,08114.0705,W,1,8,2.0,19,M,,M,,*53
06/07/2014	12:00:19.275	$GPGGA,120028,2418.5964,N,08114.0688,W,1,8,2.0,19,M,,M,,*50
06/07/2014	12:00:20.278	$GPGGA,120029,2418.5989,N,08114.0671,W,1,9,1.5,19,M,,M,,*53
06/07/2014	12:00:21.270	$GPGGA,120030,2418.6014,N,08114.0654,W,1,9,1.5,19,M,,M,,*52
06/07/2014	12:00:22.253	$GPGGA,120031,2418.6037,N,08114.0638,W,1,9,1.5,19,M,,M,,*58
06/07/2014	12:00:23.286	$GPGGA,120032,2418.6062,N,08114.0622,W,1,9,1.5,19,M,,M,,*50
06/07/2014	12:00:24.258	$GPGGA,120033,2418.6084,N,08114.0605,W,1,9,1.5,19,M,,M,,*5C
06/07/2014	12:00:25.261	$GPGGA,120034,2418.6109,N,08114.0589,W,1,9,1.6,19,M,,M,,*5B
06/07/2014	12:00:26.293	$GPGGA,120035,2418.6134,N,08114.0574,W,1,8,1.6,19,M,,M,,*57
06/07/2014	12:00:27.265	$GPGGA,120036,2418.6159,N,08114.0557,W,1,8,1.6,19,M,,M,,*5E
06/07/2014	12:00:28.258	$GPGGA,120037,2418.6182,N,08114.0541,W,1,8,1.6,19,M,,M,,*5E
06/07/2014	12:00:29.135	$GPGGA,120038,2418.6207,N,08114.0525,W,1,8,1.6,19,M,,M,,*5D
06/07/2014	12:00:30.106	$GPGGA,120039,2418.6232,N,08114.0510,W,1,8,1.6,19,M,,M,,*5C
06/07/2014	12:00:31.125	$GPGGA,120040,2418.6257,N,08114.0494,W,1,8,1.6,19,M,,M,,*5C
06/07/2014	12:00:32.144	$GPGGA,120041,2418.6282,N,08114.0478,W,1,8,1.6,19,M,,M,,*57
06/07/2014	12:00:33.113	$GPGGA,120042,2418.6306,N,08114.0463,W,1,8,1.6,19,M,,M,,*53
06/07/2014	12:00:34.131	$GPGGA,120043,2418.6329,N,08114.0449,W,1,8,1.6,19,M,,M,,*57
06/07/2014	12:00:35.119	$GPGGA,120044,2418.6355,N,08114.0432,W,1,8,1.6,19,M,,M,,*57
06/07/2014	12:00:36.157	$GPGGA,120045,2418.6380,N,08114.0416,W,1,8,1.6,19,M,,M,,*58
06/07/2014	12:00:37.127	$GPGGA,120046,2418.6404,N,08114.0402,W,1,8,1.5,19,M,,M,,*56
06/07/2014	12:00:38.119	$GPGGA,120047,2418.6427,N,08114.0386,W,1,9,1.5,19,M,,M,,*5C
06/07/2014	12:00:39.242	$GPGGA,120048,2418.6452,N,08114.0369,W,1,9,1.5,19,M,,M,,*50
06/07/2014	12:00:40.215	$GPGGA,120049,2418.6476,N,08114.0356,W,1,9,1.5,19,M,,M,,*5B
06/07/2014	12:00:41.111	$GPGGA,120050,2418.6501,N,08114.0341,W,1,9,1.6,19,M,,M,,*57
06/07/2014	12:00:42.112	$GPGGA,120051,2418.6525,N,08114.0326,W,1,8,1.6,19,M,,M,,*50
06/07/2014	12:00:43.252	$GPGGA,120052,2418.6549,N,08114.0311,W,1,8,1.6,19,M,,M,,*5D
06/07/2014	12:00:44.154	$GPGGA,120053,2418.6574,N,08114.0297,W,1,8,1.6,19,M,,M,,*5D
06/07/2014	12:00:45.217	$GPGGA,120054,2418.6597,N,08114.0282,W,1,8,1.6,19,M,,M,,*53
06/07/2014	12:00:46.130	$GPGGA,120055,2418.6622,N,08114.0266,W,1,8,1.6,19,M,,M,,*55
06/07/2014	12:00:47.122	$GPGGA,120056,2418.6646,N,08114.0250,W,1,8,1.6,19,M,,M,,*51
06/07/2014	12:00:48.126	$GPGGA,120057,2418.6671,N,08114.0236,W,1,8,1.6,19,M,,M,,*54
06/07/2014	12:00:49.117	$GPGGA,120058,2418.6695,N,08114.0221,W,1,8,1.6,19,M,,M,,*57
06/07/2014	12:00:50.220	$GPGGA,120059,2418.6720,N,08114.0204,W,1,8,1.6,19,M,,M,,*5E
06/07/2014	12:00:51.156	$GPGGA,120100,2418.6745,N,08114.0188,W,1,8,1.6,19,M,,M,,*57
06/07/2014	12:00:52.215	$GPGGA,120101,2418.6769,N,08114.0174,W,1,8,1.6,18,M,,M,,*5A
06/07/2014	12:00:53.218	$GPGGA,120102,2418.6794,N,08114.0157,W,1,8,1.6,18,M,,M,,*5A
06/07/2014	12:00:54.251	$GPGGA,120103,2418.6817,N,08114.0142,W,1,8,1.6,18,M,,M,,*5B
06/07/2014	12:00:55.243	$GPGGA,120104,2418.6842,N,08114.0127,W,1,8,1.6,18,M,,M,,*5F
06/07/2014	12:00:56.236	$GPGGA,120105,2418.6867,N,08114.0111,W,1,8,1.6,18,M,,M,,*5C
06/07/2014	12:00:57.228	$GPGGA,120106,2418.6892,N,08114.0094,W,1,8,1.6,18,M,,M,,*59
06/07/2014	12:00:58.231	$GPGGA,120107,2418.6915,N,08114.0079,W,1,8,1.6,18,M,,M,,*55
06/07/2014	12:00:59.233	$GPGGA,120108,2418.6940,N,08114.0063,W,1,8,1.6,18,M,,M,,*51
06/07/2014	12:01:00.246	$GPGGA,120109,2418.6965,N,08114.0047,W,1,8,1.6,18,M,,M,,*51
06/07/2014	12:01:01.228	$GPGGA,120110,2418.6990,N,08114.0031,W,1,8,1.6,18,M,,M,,*52
06/07/2014	12:01:02.240	$GPGGA,120111,2418.7015,N,08114.0016,W,1,8,1.6,18,M,,M,,*53
06/07/2014	12:01:03.223	$GPGGA,120112,2418.7038,N,08114.0000,W,1,8,1.6,18,M,,M,,*58
06/07/2014	12:01:04.245	$GPGGA,120113,2418.7063,N,08113.9984,W,1,8,1.6,18,M,,M,,*5C
06/07/2014	12:01:05.228	$GPGGA,120114,2418.7088,N,08113.9969,W,1,8,1.6,18,M,,M,,*5D
06/07/2014	12:01:06.251	$GPGGA,120115,2418.7112,N,08113.9952,W,1,8,1.6,18,M,,M,,*56
06/07/2014	12:01:07.233	$GPGGA,120116,2418.7135,N,08113.9936,W,1,8,1.6,18,M,,M,,*52
06/07/2014	12:01:08.246	$GPGGA,120117,2418.7160,N,08113.9920,W,1,8,1.6,17,M,,M,,*5B
06/07/2014	12:01:09.228	$GPGGA,120118,2418.7184,N,08113.9902,W,1,8,1.6,17,M,,M,,*5E
06/07/2014	12:01:10.221	$GPGGA,120119,2418.7207,N,08113.9886,W,1,9,1.5,17,M,,M,,*58
06/07/2014	12:01:11.243	$GPGGA,120120,2418.7232,N,08113.9870,W,1,9,1.6,17,M,,M,,*5E
06/07/2014	12:01:12.267	$GPGGA,120121,2418.7257,N,08113.9855,W,1,8,1.6,17,M,,M,,*5A
06/07/2014	12:01:13.229	$GPGGA,120122,2418.7280,N,08113.9838,W,1,8,1.5,17,M,,M,,*5B
06/07/2014	12:01:14.261	$GPGGA,120123,2418.7305,N,08113.9821,W,1,9,1.5,17,M,,M,,*5F
06/07/2014	12:01:15.244	$GPGGA,120124,2418.7329,N,08113.9805,W,1,9,1.5,17,M,,M,,*50
06/07/2014	12:01:16.256	$GPGGA,120125,2418.7352,N,08113.9790,W,1,9,1.5,17,M,,M,,*5E
06/07/2014	12:01:17.239	$GPGGA,120126,2418.7377,N,08113.9773,W,1,9,1.5,17,M,,M,,*57
06/07/2014	12:01:18.252	$GPGGA,120127,2418.7401,N,08113.9757,W,1,9,1.5,17,M,,M,,*56
06/07/2014	12:01:19.253	$GPGGA,120128,2418.7426,N,08113.9741,W,1,9,1.5,17,M,,M,,*5B
06/07/2014	12:01:20.246	$GPGGA,120129,2418.7449,N,08113.9725,W,1,9,1.5,17,M,,M,,*51
06/07/2014	12:01:21.228	$GPGGA,120130,2418.7474,N,08113.9709,W,1,9,1.5,17,M,,M,,*59
06/07/2014	12:01:22.251	$GPGGA,120131,2418.7499,N,08113.9692,W,1,9,1.5,17,M,,M,,*58
06/07/2014	12:01:23.254	$GPGGA,120132,2418.7522,N,08113.9676,W,1,9,1.6,17,M,,M,,*53
06/07/2014	12:01:24.266	$GPGGA,120133,2418.7547,N,08113.9660,W,1,9,1.5,17,M,,M,,*55
06/07/2014	12:01:25.349	$GPGGA,120134,2418.7572,N,08113.9643,W,1,9,1.5,17,M,,M,,*55
06/07/2014	12:01:26.342	$GPGGA,120135,2418.7596,N,08113.9627,W,1,9,1.5,17,M,,M,,*5C
06/07/2014	12:01:27.374	$GPGGA,120136,2418.7619,N,08113.9612,W,1,9,1.6,17,M,,M,,*5E
06/07/2014	12:01:28.246	$GPGGA,120137,2418.7645,N,08113.9596,W,1,9,1.5,17,M,,M,,*5A
06/07/2014	12:01:29.174	$GPGGA,120138,2418.7669,N,08113.9580,W,1,9,1.6,17,M,,M,,*5F
06/07/2014	12:01:30.177	$GPGGA,120139,2418.7692,N,08113.9564,W,1,8,1.6,17,M,,M,,*51
06/07/2014	12:01:31.097	$GPGGA,120140,2418.7717,N,08113.9548,W,1,8,1.6,17,M,,M,,*5D
06/07/2014	12:01:32.182	$GPGGA,120141,2418.7741,N,08113.9533,W,1,8,1.6,17,M,,M,,*53
06/07/2014	12:01:33.185	$GPGGA,120142,2418.7766,N,08113.9517,W,1,8,1.6,17,M,,M,,*53
06/07/2014	12:01:34.211	$GPGGA,120143,2418.7789,N,08113.9501,W,1,8,1.6,17,M,,M,,*54
06/07/2014	12:01:35.210	$GPGGA,120144,2418.7814,N,08113.9486,W,1,8,1.6,17,M,,M,,*56
06/07/2014	12:01:36.091	$GPGGA,120145,2418.7839,N,08113.9470,W,1,8,1.6,17,M,,M,,*51
06/07/2014	12:01:37.184	$GPGGA,120146,2418.7864,N,08113.9454,W,1,8,1.5,17,M,,M,,*5F
06/07/2014	12:01:38.207	$GPGGA,120147,2418.7887,N,08113.9438,W,1,9,1.5,17,M,,M,,*58
06/07/2014	12:01:39.199	$GPGGA,120148,2418.7912,N,08113.9424,W,1,9,1.5,17,M,,M,,*57
06/07/2014	12:01:40.212	$GPGGA,120149,2418.7937,N,08113.9410,W,1,8,1.6,16,M,,M,,*55
06/07/2014	12:01:41.195	$GPGGA,120150,2418.7962,N,08113.9395,W,1,8,1.6,16,M,,M,,*57
06/07/2014	12:01:42.197	$GPGGA,120151,2418.7986,N,08113.9381,W,1,8,1.6,16,M,,M,,*59
06/07/2014	12:01:43.201	$GPGGA,120152,2418.8010,N,08113.9367,W,1,8,1.5,16,M,,M,,*58
06/07/2014	12:01:44.202	$GPGGA,120153,2418.8037,N,08113.9353,W,1,9,1.5,16,M,,M,,*5A
06/07/2014	12:01:45.185	$GPGGA,120154,2418.8060,N,08113.9337,W,1,9,1.5,16,M,,M,,*5D
06/07/2014	12:01:46.198	$GPGGA,120155,2418.8084,N,08113.9324,W,1,9,1.5,16,M,,M,,*54
06/07/2014	12:01:47.200	$GPGGA,120156,2418.8107,N,08113.9310,W,1,9,2.0,16,M,,M,,*5C
06/07/2014	12:01:48.183	$GPGGA,120157,2418.8135,N,08113.9296,W,1,9,1.5,16,M,,M,,*55
06/07/2014	12:01:49.195	$GPGGA,120158,2418.8161,N,08113.9282,W,1,9,1.5,16,M,,M,,*5E
06/07/2014	12:01:50.208	$GPGGA,120159,2418.8185,N,08113.9266,W,1,8,1.5,16,M,,M,,*5E
06/07/2014	12:01:51.221	$GPGGA,120200,2418.8210,N,08113.9252,W,1,8,1.5,16,M,,M,,*59
06/07/2014	12:01:52.183	$GPGGA,120201,2418.8237,N,08113.9238,W,1,9,1.5,16,M,,M,,*50
06/07/2014	12:01:53.195	$GPGGA,120202,2418.8262,N,08113.9223,W,1,9,1.5,16,M,,M,,*59
06/07/2014	12:01:54.218	$GPGGA,120203,2418.8287,N,08113.9206,W,1,8,1.6,17,M,,M,,*57
06/07/2014	12:01:55.220	$GPGGA,120204,2418.8311,N,08113.9192,W,1,8,1.5,17,M,,M,,*53
06/07/2014	12:01:56.195	$GPGGA,120205,2418.8335,N,08113.9178,W,1,8,1.6,17,M,,M,,*53
06/07/2014	12:01:57.195	$GPGGA,120206,2418.8360,N,08113.9162,W,1,8,1.5,17,M,,M,,*58
06/07/2014	12:01:58.228	$GPGGA,120207,2418.8384,N,08113.9147,W,1,9,1.5,17,M,,M,,*55
06/07/2014	12:01:59.210	$GPGGA,120208,2418.8409,N,08113.9133,W,1,9,1.5,18,M,,M,,*54
06/07/2014	12:02:00.201	$GPGGA,120209,2418.8432,N,08113.9118,W,1,9,1.5,18,M,,M,,*54
06/07/2014	12:02:01.203	$GPGGA,120210,2418.8457,N,08113.9102,W,1,9,1.6,18,M,,M,,*57
06/07/2014	12:02:02.228	$GPGGA,120211,2418.8483,N,08113.9089,W,1,9,1.5,18,M,,M,,*5E
06/07/2014	12:02:03.209	$GPGGA,120212,2418.8507,N,08113.9074,W,1,9,1.5,18,M,,M,,*52
06/07/2014	12:02:04.223	$GPGGA,120213,2418.8530,N,08113.9059,W,1,9,1.5,19,M,,M,,*59
06/07/2014	12:02:05.200	$GPGGA,120214,2418.8554,N,08113.9046,W,1,9,1.6,19,M,,M,,*51
06/07/2014	12:02:06.200	$GPGGA,120215,2418.8577,N,08113.9033,W,1,9,1.5,19,M,,M,,*50
06/07/2014	12:02:07.212	$GPGGA,120216,2418.8602,N,08113.9018,W,1,9,1.6,19,M,,M,,*58
06/07/2014	12:02:09.301	$GPGGA,120218,2418.8651,N,08113.8988,W,1,8,1.5,19,M,,M,,*53
06/07/2014	12:02:10.196	$GPGGA,120219,2418.8674,N,08113.8974,W,1,8,1.6,19,M,,M,,*55
06/07/2014	12:02:11.216	$GPGGA,120220,2418.8699,N,08113.8959,W,1,8,1.6,19,M,,M,,*53
06/07/2014	12:02:12.215	$GPGGA,120221,2418.8723,N,08113.8942,W,1,8,1.6,19,M,,M,,*58
06/07/2014	12:02:13.197	$GPGGA,120222,2418.8747,N,08113.8928,W,1,8,1.6,20,M,,M,,*5F
06/07/2014	12:02:14.298	$GPGGA,120223,2418.8772,N,08113.8913,W,1,8,1.6,20,M,,M,,*50
06/07/2014	12:02:15.241	$GPGGA,120224,2418.8796,N,08113.8897,W,1,8,1.6,20,M,,M,,*50
06/07/2014	12:02:16.233	$GPGGA,120225,2418.8819,N,08113.8881,W,1,8,1.6,20,M,,M,,*5E
06/07/2014	12:02:17.213	$GPGGA,120226,2418.8844,N,08113.8867,W,1,8,1.6,20,M,,M,,*5D
06/07/2014	12:02:18.199	$GPGGA,120227,2418.8868,N,08113.8851,W,1,8,1.6,20,M,,M,,*57
06/07/2014	12:02:19.321	$GPGGA,120228,2418.8891,N,08113.8835,W,1,8,1.6,20,M,,M,,*5C
06/07/2014	12:02:20.304	$GPGGA,120229,2418.8916,N,08113.8820,W,1,8,1.6,20,M,,M,,*57
06/07/2014	12:02:21.317	$GPGGA,120230,2418.8941,N,08113.8805,W,1,8,1.6,20,M,,M,,*5A
06/07/2014	12:02:22.209	$GPGGA,120231,2418.8965,N,08113.8788,W,1,8,1.6,20,M,,M,,*57
06/07/2014	12:02:23.332	$GPGGA,120232,2418.8988,N,08113.8773,W,1,8,1.6,20,M,,M,,*53
06/07/2014	12:02:24.305	$GPGGA,120233,2418.9014,N,08113.8758,W,1,8,1.6,20,M,,M,,*56
06/07/2014	12:02:25.297	$GPGGA,120234,2418.9038,N,08113.8742,W,1,8,1.5,20,M,,M,,*57
06/07/2014	12:02:26.300	$GPGGA,120235,2418.9061,N,08113.8726,W,1,9,1.5,20,M,,M,,*59
06/07/2014	12:02:27.323	$GPGGA,120236,2418.9086,N,08113.8710,W,1,9,1.5,20,M,,M,,*56
06/07/2014	12:02:28.314	$GPGGA,120237,2418.9110,N,08113.8694,W,1,9,1.5,20,M,,M,,*54
06/07/2014	12:02:29.142	$GPGGA,120238,2418.9133,N,08113.8678,W,1,9,1.5,20,M,,M,,*58
06/07/2014	12:02:30.155	$GPGGA,120239,2418.9158,N,08113.8662,W,1,9,1.5,20,M,,M,,*5F
06/07/2014	12:02:31.158	$GPGGA,120240,2418.9182,N,08113.8647,W,1,9,1.6,20,M,,M,,*52
06/07/2014	12:02:32.150	$GPGGA,120241,2418.9205,N,08113.8632,W,1,9,1.5,20,M,,M,,*5E
06/07/2014	12:02:33.163	$GPGGA,120242,2418.9230,N,08113.8616,W,1,9,1.6,20,M,,M,,*5E
06/07/2014	12:02:34.236	$GPGGA,120243,2418.9252,N,08113.8600,W,1,8,1.6,20,M,,M,,*5D
06/07/2014	12:02:35.158	$GPGGA,120244,2418.9277,N,08113.8586,W,1,8,1.6,20,M,,M,,*50
06/07/2014	12:02:36.181	$GPGGA,120245,2418.9302,N,08113.8570,W,1,8,1.6,20,M,,M,,*5B
06/07/2014	12:02:37.163	$GPGGA,120246,2418.9327,N,08113.8556,W,1,8,1.6,20,M,,M,,*5B
06/07/2014	12:02:38.145	$GPGGA,120247,2418.9350,N,08113.8540,W,1,9,1.5,19,M,,M,,*55
06/07/2014	12:02:39.178	$GPGGA,120248,2418.9375,N,08113.8524,W,1,9,1.5,19,M,,M,,*5F
06/07/2014	12:02:40.151	$GPGGA,120249,2418.9400,N,08113.8508,W,1,9,1.5,19,M,,M,,*55
06/07/2014	12:02:41.153	$GPGGA,120250,2418.9424,N,08113.8494,W,1,9,1.5,19,M,,M,,*5F
06/07/2014	12:02:42.186	$GPGGA,120251,2418.9447,N,08113.8479,W,1,9,1.5,19,M,,M,,*58
06/07/2014	12:02:43.180	$GPGGA,120252,2418.9472,N,08113.8464,W,1,9,1.5,19,M,,M,,*51
06/07/2014	12:02:44.201	$GPGGA,120253,2418.9497,N,08113.8451,W,1,9,1.5,19,M,,M,,*5D
06/07/2014	12:02:45.164	$GPGGA,120254,2418.9520,N,08113.8437,W,1,9,1.5,19,M,,M,,*57
06/07/2014	12:02:46.196	$GPGGA,120255,2418.9545,N,08113.8422,W,1,9,1.5,19,M,,M,,*51
06/07/2014	12:02:47.178	$GPGGA,120256,2418.9569,N,08113.8408,W,1,9,1.5,19,M,,M,,*54
06/07/2014	12:02:48.191	$GPGGA,120257,2418.9592,N,08113.8395,W,1,8,1.6,19,M,,M,,*50
06/07/2014	12:02:49.163	$GPGGA,120258,2418.9617,N,08113.8381,W,1,8,1.5,19,M,,M,,*57
06/07/2014	12:02:50.176	$GPGGA,120259,2418.9641,N,08113.8366,W,1,8,1.6,19,M,,M,,*5F
06/07/2014	12:02:51.198	$GPGGA,120300,2418.9666,N,08113.8352,W,1,8,1.6,19,M,,M,,*50
06/07/2014	12:02:52.191	$GPGGA,120301,2418.9689,N,08113.8339,W,1,9,1.5,19,M,,M,,*5F
06/07/2014	12:02:53.154	$GPGGA,120302,2418.9715,N,08113.8326,W,1,9,1.5,19,M,,M,,*56
06/07/2014	12:02:54.176	$GPGGA,120303,2418.9740,N,08113.8311,W,1,9,1.5,19,M,,M,,*53
06/07/2014	12:02:55.179	$GPGGA,120304,2418.9764,N,08113.8296,W,1,9,1.5,19,M,,M,,*5C
06/07/2014	12:02:56.302	$GPGGA,120305,2418.9787,N,08113.8282,W,1,9,1.6,19,M,,M,,*56
06/07/2014	12:02:57.257	$GPGGA,120306,2418.9812,N,08113.8269,W,1,9,1.6,19,M,,M,,*53
06/07/2014	12:02:58.297	$GPGGA,120307,2418.9837,N,08113.8253,W,1,8,1.5,19,M,,M,,*5E
06/07/2014	12:02:59.189	$GPGGA,120308,2418.9861,N,08113.8239,W,1,8,1.5,19,M,,M,,*5E
06/07/2014	12:03:00.274	$GPGGA,120309,2418.9885,N,08113.8225,W,1,8,1.6,19,M,,M,,*5B
06/07/2014	12:03:01.182	$GPGGA,120310,2418.9910,N,08113.8211,W,1,8,1.6,19,M,,M,,*59
06/07/2014	12:03:02.180	$GPGGA,120311,2418.9934,N,08113.8196,W,1,8,1.6,19,M,,M,,*52
06/07/2014	12:03:03.190	$GPGGA,120312,2418.9959,N,08113.8181,W,1,8,1.6,19,M,,M,,*5C
06/07/2014	12:03:04.173	$GPGGA,120313,2418.9982,N,08113.8166,W,1,9,1.5,18,M,,M,,*51
06/07/2014	12:03:05.164	$GPGGA,120314,2419.0007,N,08113.8151,W,1,9,1.5,18,M,,M,,*5E
06/07/2014	12:03:06.267	$GPGGA,120315,2419.0032,N,08113.8136,W,1,9,1.5,18,M,,M,,*58
06/07/2014	12:03:07.309	$GPGGA,120316,2419.0056,N,08113.8122,W,1,9,1.5,18,M,,M,,*5C
06/07/2014	12:03:08.302	$GPGGA,120317,2419.0080,N,08113.8107,W,1,9,1.5,18,M,,M,,*51
06/07/2014	12:03:09.274	$GPGGA,120318,2419.0105,N,08113.8092,W,1,9,1.5,18,M,,M,,*5F
06/07/2014	12:03:10.279	$GPGGA,120319,2419.0129,N,08113.8077,W,1,9,1.5,18,M,,M,,*5B
06/07/2014	12:03:11.301	$GPGGA,120320,2419.0152,N,08113.8062,W,1,9,1.6,18,M,,M,,*5A
06/07/2014	12:03:12.297	$GPGGA,120321,2419.0177,N,08113.8048,W,1,8,1.6,18,M,,M,,*55
06/07/2014	12:03:13.275	$GPGGA,120322,2419.0202,N,08113.8032,W,1,8,1.5,18,M,,M,,*59
06/07/2014	12:03:14.302	$GPGGA,120323,2419.0226,N,08113.8017,W,1,9,1.5,18,M,,M,,*58
06/07/2014	12:03:15.310	$GPGGA,120324,2419.0251,N,08113.8000,W,1,9,1.5,18,M,,M,,*59
06/07/2014	12:03:16.305	$GPGGA,120325,2419.0275,N,08113.7984,W,1,9,1.5,18,M,,M,,*54
06/07/2014	12:03:17.285	$GPGGA,120326,2419.0300,N,08113.7969,W,1,9,1.5,18,M,,M,,*57
06/07/2014	12:03:18.299	$GPGGA,120327,2419.0324,N,08113.7954,W,1,9,1.5,18,M,,M,,*5E
06/07/2014	12:03:19.300	$GPGGA,120328,2419.0347,N,08113.7940,W,1,9,1.6,17,M,,M,,*5D
06/07/2014	12:03:20.293	$GPGGA,120329,2419.0372,N,08113.7923,W,1,8,1.5,17,M,,M,,*5D
06/07/2014	12:03:21.285	$GPGGA,120330,2419.0396,N,08113.7908,W,1,8,1.6,17,M,,M,,*55
06/07/2014	12:03:22.307	$GPGGA,120331,2419.0421,N,08113.7894,W,1,8,1.6,17,M,,M,,*5B
06/07/2014	12:03:23.290	$GPGGA,120332,2419.0444,N,08113.7879,W,1,8,1.6,17,M,,M,,*58
06/07/2014	12:03:24.337	$GPGGA,120333,2419.0469,N,08113.7863,W,1,8,1.6,17,M,,M,,*5D
06/07/2014	12:03:25.275	$GPGGA,120334,2419.0494,N,08113.7848,W,1,8,1.6,17,M,,M,,*51
06/07/2014	12:03:26.318	$GPGGA,120335,2419.0517,N,08113.7833,W,1,8,1.6,17,M,,M,,*56
06/07/2014	12:03:27.290	$GPGGA,120336,2419.0542,N,08113.7817,W,1,8,1.6,17,M,,M,,*53
06/07/2014	12:03:28.303	$GPGGA,120337,2419.0567,N,08113.7803,W,1,8,1.6,17,M,,M,,*50
06/07/2014	12:03:29.141	$GPGGA,120338,2419.0592,N,08113.7787,W,1,8,1.6,17,M,,M,,*56
06/07/2014	12:03:30.174	$GPGGA,120339,2419.0616,N,08113.7772,W,1,8,1.6,17,M,,M,,*52
06/07/2014	12:03:31.157	$GPGGA,120340,2419.0640,N,08113.7757,W,1,8,1.6,17,M,,M,,*58
06/07/2014	12:03:32.169	$GPGGA,120341,2419.0665,N,08113.7740,W,1,8,1.5,17,M,,M,,*5B
06/07/2014	12:03:33.142	$GPGGA,120342,2419.0689,N,08113.7724,W,1,8,1.5,17,M,,M,,*58
06/07/2014	12:03:34.164	$GPGGA,120343,2419.0712,N,08113.7708,W,1,9,1.5,17,M,,M,,*55
06/07/2014	12:03:35.137	$GPGGA,120344,2419.0737,N,08113.7692,W,1,9,1.5,17,M,,M,,*57
06/07/2014	12:03:36.135	$GPGGA,120345,2419.0761,N,08113.7677,W,1,9,1.5,17,M,,M,,*5E
06/07/2014	12:03:37.152	$GPGGA,120346,2419.0784,N,08113.7660,W,1,9,1.5,17,M,,M,,*50
06/07/2014	12:03:38.144	$GPGGA,120347,2419.0809,N,08113.7644,W,1,9,1.5,17,M,,M,,*5D
06/07/2014	12:03:39.146	$GPGGA,120348,2419.0834,N,08113.7628,W,1,9,1.5,17,M,,M,,*56
06/07/2014	12:03:40.159	$GPGGA,120349,2419.0858,N,08113.7613,W,1,9,1.6,17,M,,M,,*56
06/07/2014	12:03:41.148	$GPGGA,120350,2419.0882,N,08113.7598,W,1,9,1.6,16,M,,M,,*58
06/07/2014	12:03:42.164	$GPGGA,120351,2419.0907,N,08113.7582,W,1,8,1.6,16,M,,M,,*5F
06/07/2014	12:03:43.167	$GPGGA,120352,2419.0932,N,08113.7567,W,1,8,1.6,16,M,,M,,*51
06/07/2014	12:03:44.179	$GPGGA,120353,2419.0957,N,08113.7553,W,1,8,1.6,16,M,,M,,*54
06/07/2014	12:03:45.227	$GPGGA,120354,2419.0979,N,08113.7531,W,1,8,1.6,16,M,,M,,*5B
06/07/2014	12:03:46.154	$GPGGA,120355,2419.1004,N,08113.7515,W,1,9,1.6,16,M,,M,,*5F
06/07/2014	12:03:47.157	$GPGGA,120356,2419.1029,N,08113.7502,W,1,9,1.6,16,M,,M,,*55
06/07/2014	12:03:48.160	$GPGGA,120357,2419.1054,N,08113.7488,W,1,8,1.6,16,M,,M,,*5C
06/07/2014	12:03:49.152	$GPGGA,120358,2419.1079,N,08113.7472,W,1,8,1.6,16,M,,M,,*59
06/07/2014	12:03:50.165	$GPGGA,120359,2419.1102,N,08113.7457,W,1,8,1.6,16,M,,M,,*52
06/07/2014	12:03:51.177	$GPGGA,120400,2419.1127,N,08113.7444,W,1,8,1.6,16,M,,M,,*5C
06/07/2014	12:03:52.143	$GPGGA,120401,2419.1152,N,08113.7428,W,1,8,1.6,16,M,,M,,*55
06/07/2014	12:03:53.253	$GPGGA,120402,2419.1176,N,08113.7413,W,1,8,1.6,16,M,,M,,*58
06/07/2014	12:03:54.255	$GPGGA,120403,2419.1202,N,08113.7400,W,1,8,1.6,16,M,,M,,*5B
06/07/2014	12:03:55.268	$GPGGA,120404,2419.1225,N,08113.7385,W,1,8,1.6,16,M,,M,,*53
06/07/2014	12:03:56.253	$GPGGA,120405,2419.1250,N,08113.7370,W,1,8,1.5,16,M,,M,,*59
06/07/2014	12:03:57.242	$GPGGA,120406,2419.1275,N,08113.7354,W,1,8,1.5,16,M,,M,,*5B
06/07/2014	12:03:58.256	$GPGGA,120407,2419.1301,N,08113.7340,W,1,9,1.6,16,M,,M,,*5F
06/07/2014	12:03:59.267	$GPGGA,120408,2419.1326,N,08113.7323,W,1,9,1.5,16,M,,M,,*53
06/07/2014	12:04:00.240	$GPGGA,120409,2419.1350,N,08113.7306,W,1,9,1.5,16,M,,M,,*54
06/07/2014	12:04:01.243	$GPGGA,120410,2419.1375,N,08113.7293,W,1,9,1.5,16,M,,M,,*56
06/07/2014	12:04:02.275	$GPGGA,120411,2419.1398,N,08113.7278,W,1,9,1.5,16,M,,M,,*51
06/07/2014	12:04:03.248	$GPGGA,120412,2419.1423,N,08113.7263,W,1,9,1.6,16,M,,M,,*5C
06/07/2014	12:04:04.250	$GPGGA,120413,2419.1449,N,08113.7249,W,1,8,1.6,16,M,,M,,*58
06/07/2014	12:04:05.243	$GPGGA,120414,2419.1473,N,08113.7236,W,1,8,2.2,16,M,,M,,*59
06/07/2014	12:04:06.256	$GPGGA,120415,2419.1499,N,08113.7223,W,1,7,2.2,16,M,,M,,*57
06/07/2014	12:04:07.258	$GPGGA,120416,2419.1523,N,08113.7207,W,1,7,1.6,16,M,,M,,*55
06/07/2014	12:04:08.251	$GPGGA,120417,2419.1549,N,08113.7194,W,1,9,1.6,16,M,,M,,*5F
06/07/2014	12:04:09.243	$GPGGA,120418,2419.1575,N,08113.7180,W,1,9,1.6,16,M,,M,,*5A
06/07/2014	12:04:10.236	$GPGGA,120419,2419.1600,N,08113.7165,W,1,8,1.6,16,M,,M,,*50
06/07/2014	12:04:11.259	$GPGGA,120420,2419.1626,N,08113.7150,W,1,8,1.5,16,M,,M,,*5B
06/07/2014	12:04:12.272	$GPGGA,120421,2419.1651,N,08113.7135,W,1,9,1.5,16,M,,M,,*58
06/07/2014	12:04:13.253	$GPGGA,120422,2419.1676,N,08113.7120,W,1,9,1.5,16,M,,M,,*5A
06/07/2014	12:04:14.265	$GPGGA,120423,2419.1702,N,08113.7106,W,1,9,1.5,17,M,,M,,*5C
06/07/2014	12:04:15.258	$GPGGA,120424,2419.1727,N,08113.7091,W,1,9,1.5,17,M,,M,,*53
06/07/2014	12:04:16.250	$GPGGA,120425,2419.1752,N,08113.7076,W,1,8,1.6,17,M,,M,,*5B
06/07/2014	12:04:17.243	$GPGGA,120426,2419.1777,N,08113.7063,W,1,8,1.5,17,M,,M,,*58
06/07/2014	12:04:18.246	$GPGGA,120427,2419.1802,N,08113.7048,W,1,8,1.6,17,M,,M,,*5E
06/07/2014	12:04:19.268	$GPGGA,120428,2419.1827,N,08113.7032,W,1,8,1.6,17,M,,M,,*5B
06/07/2014	12:04:20.261	$GPGGA,120429,2419.1850,N,08113.7019,W,1,9,1.5,17,M,,M,,*51
06/07/2014	12:04:21.253	$GPGGA,120430,2419.1875,N,08113.7004,W,1,9,1.6,17,M,,M,,*51
06/07/2014	12:04:22.276	$GPGGA,120431,2419.1900,N,08113.6989,W,1,8,1.6,17,M,,M,,*5F
06/07/2014	12:04:23.270	$GPGGA,120432,2419.1926,N,08113.6975,W,1,8,1.6,17,M,,M,,*5B
06/07/2014	12:04:24.241	$GPGGA,120433,2419.1951,N,08113.6960,W,1,8,1.6,18,M,,M,,*51
06/07/2014	12:04:25.244	$GPGGA,120434,2419.1975,N,08113.6944,W,1,8,1.5,18,M,,M,,*55
06/07/2014	12:04:26.266	$GPGGA,120435,2419.1998,N,08113.6929,W,1,9,1.5,18,M,,M,,*5D
06/07/2014	12:04:27.269	$GPGGA,120436,2419.2023,N,08113.6915,W,1,9,1.5,18,M,,M,,*5B
06/07/2014	12:04:28.262	$GPGGA,120437,2419.2048,N,08113.6901,W,1,8,1.6,18,M,,M,,*50
06/07/2014	12:04:29.097	$GPGGA,120438,2419.2074,N,08113.6887,W,1,8,1.6,18,M,,M,,*5F
06/07/2014	12:04:30.131	$GPGGA,120439,2419.2099,N,08113.6874,W,1,8,1.6,18,M,,M,,*51
06/07/2014	12:04:31.106	$GPGGA,120440,2419.2124,N,08113.6860,W,1,8,1.6,18,M,,M,,*5D
06/07/2014	12:04:32.112	$GPGGA,120441,2419.2149,N,08113.6846,W,1,8,1.6,18,M,,M,,*53
06/07/2014	12:04:33.108	$GPGGA,120442,2419.2174,N,08113.6833,W,1,8,1.6,18,M,,M,,*5C
06/07/2014	12:04:34.190	$GPGGA,120443,2419.2199,N,08113.6819,W,1,8,1.6,18,M,,M,,*56
06/07/2014	12:04:35.122	$GPGGA,120444,2419.2224,N,08113.6805,W,1,8,1.6,18,M,,M,,*59
06/07/2014	12:04:36.226	$GPGGA,120445,2419.2249,N,08113.6792,W,1,8,1.6,18,M,,M,,*52
06/07/2014	12:04:37.198	$GPGGA,120446,2419.2272,N,08113.6778,W,1,8,1.6,18,M,,M,,*5D
06/07/2014	12:04:38.106	$GPGGA,120447,2419.2297,N,08113.6765,W,1,8,1.6,19,M,,M,,*5A
06/07/2014	12:04:39.243	$GPGGA,120448,2419.2322,N,08113.6751,W,1,8,1.6,19,M,,M,,*5D
06/07/2014	12:04:40.226	$GPGGA,120449,2419.2345,N,08113.6737,W,1,8,1.6,19,M,,M,,*5D
06/07/2014	12:04:41.126	$GPGGA,120450,2419.2369,N,08113.6725,W,1,8,1.6,19,M,,M,,*58
06/07/2014	12:04:42.129	$GPGGA,120451,2419.2394,N,08113.6711,W,1,8,1.6,19,M,,M,,*5C
06/07/2014	12:04:43.235	$GPGGA,120452,2419.2417,N,08113.6696,W,1,8,1.6,19,M,,M,,*5D
06/07/2014	12:04:44.207	$GPGGA,120453,2419.2441,N,08113.6684,W,1,9,1.5,19,M,,M,,*5E
06/07/2014	12:04:45.109	$GPGGA,120454,2419.2464,N,08113.6670,W,1,9,1.5,19,M,,M,,*55
06/07/2014	12:04:46.202	$GPGGA,120455,2419.2489,N,08113.6656,W,1,9,1.5,19,M,,M,,*53
06/07/2014	12:04:47.234	$GPGGA,120456,2419.2513,N,08113.6644,W,1,9,1.5,19,M,,M,,*51
06/07/2014	12:04:48.236	$GPGGA,120457,2419.2536,N,08113.6630,W,1,9,1.5,19,M,,M,,*54
06/07/2014	12:04:49.208	$GPGGA,120458,2419.2561,N,08113.6617,W,1,9,1.5,19,M,,M,,*5C
06/07/2014	12:04:50.211	$GPGGA,120459,2419.2586,N,08113.6604,W,1,9,1.5,19,M,,M,,*56
06/07/2014	12:04:51.234	$GPGGA,120500,2419.2611,N,08113.6591,W,1,9,1.5,19,M,,M,,*59
06/07/2014	12:04:52.238	$GPGGA,120501,2419.2636,N,08113.6577,W,1,9,1.5,19,M,,M,,*55
06/07/2014	12:04:53.209	$GPGGA,120502,2419.2659,N,08113.6565,W,1,9,1.5,19,M,,M,,*5C
06/07/2014	12:04:54.221	$GPGGA,120503,2419.2684,N,08113.6551,W,1,9,1.5,19,M,,M,,*5A
06/07/2014	12:04:55.225	$GPGGA,120504,2419.2709,N,08113.6539,W,1,9,1.5,19,M,,M,,*57
06/07/2014	12:04:56.227	$GPGGA,120505,2419.2733,N,08113.6526,W,1,9,1.5,19,M,,M,,*51
06/07/2014	12:04:57.199	$GPGGA,120506,2419.2757,N,08113.6512,W,1,9,1.5,19,M,,M,,*57
06/07/2014	12:04:58.232	$GPGGA,120507,2419.2782,N,08113.6500,W,1,9,1.5,19,M,,M,,*5D
06/07/2014	12:04:59.224	$GPGGA,120508,2419.2807,N,08113.6487,W,1,9,1.5,19,M,,M,,*5E
06/07/2014	12:05:00.208	$GPGGA,120509,2419.2832,N,08113.6474,W,1,9,1.5,19,M,,M,,*55
06/07/2014	12:05:01.209	$GPGGA,120510,2419.2856,N,08113.6460,W,1,9,1.5,19,M,,M,,*5A
06/07/2014	12:05:02.232	$GPGGA,120511,2419.2880,N,08113.6448,W,1,9,1.5,19,M,,M,,*5A
06/07/2014	12:05:03.215	$GPGGA,120512,2419.2905,N,08113.6435,W,1,9,1.6,19,M,,M,,*5C
06/07/2014	12:05:04.217	$GPGGA,120513,2419.2930,N,08113.6422,W,1,8,1.6,19,M,,M,,*5C
06/07/2014	12:05:05.220	$GPGGA,120514,2419.2955,N,08113.6409,W,1,8,1.6,19,M,,M,,*51
06/07/2014	12:05:06.242	$GPGGA,120515,2419.2980,N,08113.6396,W,1,8,1.6,19,M,,M,,*59
06/07/2014	12:05:07.234	$GPGGA,120516,2419.3005,N,08113.6383,W,1,8,1.6,19,M,,M,,*5B
06/07/2014	12:05:08.207	$GPGGA,120517,2419.3030,N,08113.6369,W,1,8,1.6,19,M,,M,,*58
06/07/2014	12:05:09.239	$GPGGA,120518,2419.3055,N,08113.6355,W,1,8,1.6,18,M,,M,,*5A
06/07/2014	12:05:10.212	$GPGGA,120519,2419.3078,N,08113.6340,W,1,7,2.1,18,M,,M,,*5B
06/07/2014	12:05:11.234	$GPGGA,120520,2419.3102,N,08113.6325,W,1,7,1.5,18,M,,M,,*59
06/07/2014	12:05:12.217	$GPGGA,120521,2419.3125,N,08113.6311,W,1,9,1.5,18,M,,M,,*54
06/07/2014	12:05:13.223	$GPGGA,120522,2419.3150,N,08113.6296,W,1,9,1.6,18,M,,M,,*58
06/07/2014	12:05:14.222	$GPGGA,120523,2419.3174,N,08113.6281,W,1,7,2.0,18,M,,M,,*52
06/07/2014	12:05:15.236	$GPGGA,120524,2419.3197,N,08113.6266,W,1,7,1.6,18,M,,M,,*54
06/07/2014	12:05:16.247	$GPGGA,120525,2419.3219,N,08113.6252,W,1,8,1.6,18,M,,M,,*58
06/07/2014	12:05:17.312	$GPGGA,120526,2419.3243,N,08113.6237,W,1,8,1.6,18,M,,M,,*57
06/07/2014	12:05:18.233	$GPGGA,120527,2419.3266,N,08113.6222,W,1,8,1.6,18,M,,M,,*55
06/07/2014	12:05:19.235	$GPGGA,120528,2419.3290,N,08113.6207,W,1,8,1.6,18,M,,M,,*54
06/07/2014	12:05:20.268	$GPGGA,120529,2419.3313,N,08113.6192,W,1,8,1.6,18,M,,M,,*50
06/07/2014	12:05:21.211	$GPGGA,120530,2419.3337,N,08113.6177,W,1,8,1.6,18,M,,M,,*55
06/07/2014	12:05:22.343	$GPGGA,120531,2419.3360,N,08113.6163,W,1,8,1.6,18,M,,M,,*53
06/07/2014	12:05:23.245	$GPGGA,120532,2419.3385,N,08113.6148,W,1,8,1.5,19,M,,M,,*50
06/07/2014	12:05:24.217	$GPGGA,120533,2419.3409,N,08113.6134,W,1,8,1.6,19,M,,M,,*5A
06/07/2014	12:05:25.340	$GPGGA,120534,2419.3432,N,08113.6119,W,1,8,1.6,19,M,,M,,*5A
06/07/2014	12:05:26.224	$GPGGA,120535,2419.3457,N,08113.6105,W,1,9,1.5,19,M,,M,,*57
06/07/2014	12:05:27.337	$GPGGA,120536,2419.3481,N,08113.6091,W,1,9,1.5,19,M,,M,,*53
06/07/2014	12:05:28.220	$GPGGA,120537,2419.3504,N,08113.6075,W,1,9,1.5,19,M,,M,,*54
06/07/2014	12:05:29.067	$GPGGA,120538,2419.3529,N,08113.6059,W,1,9,1.5,19,M,,M,,*5A
06/07/2014	12:05:30.160	$GPGGA,120539,2419.3554,N,08113.6044,W,1,7,2.0,19,M,,M,,*55
06/07/2014	12:05:31.184	$GPGGA,120540,2419.3580,N,08113.6034,W,1,7,1.5,19,M,,M,,*53
06/07/2014	12:05:32.086	$GPGGA,120541,2419.3605,N,08113.6021,W,1,8,1.6,19,M,,M,,*54
06/07/2014	12:05:33.169	$GPGGA,120542,2419.3630,N,08113.6007,W,1,8,1.6,19,M,,M,,*55
06/07/2014	12:05:34.170	$GPGGA,120543,2419.3656,N,08113.5994,W,1,8,1.6,19,M,,M,,*54
06/07/2014	12:05:35.194	$GPGGA,120544,2419.3680,N,08113.5980,W,1,8,2.1,19,M,,M,,*59
06/07/2014	12:05:36.187	$GPGGA,120545,2419.3705,N,08113.5966,W,1,8,1.6,19,M,,M,,*58
06/07/2014	12:05:37.178	$GPGGA,120546,2419.3730,N,08113.5952,W,1,8,1.6,19,M,,M,,*5A
06/07/2014	12:05:38.211	$GPGGA,120547,2419.3754,N,08113.5936,W,1,8,1.6,19,M,,M,,*5B
06/07/2014	12:05:39.183	$GPGGA,120548,2419.3779,N,08113.5924,W,1,8,1.6,19,M,,M,,*58
06/07/2014	12:05:40.197	$GPGGA,120549,2419.3804,N,08113.5911,W,1,8,1.6,19,M,,M,,*5A
06/07/2014	12:05:41.189	$GPGGA,120550,2419.3829,N,08113.5896,W,1,8,1.6,19,M,,M,,*53
06/07/2014	12:05:42.170	$GPGGA,120551,2419.3854,N,08113.5883,W,1,8,1.6,19,M,,M,,*5C
06/07/2014	12:05:43.193	$GPGGA,120552,2419.3880,N,08113.5871,W,1,8,1.6,19,M,,M,,*5B
06/07/2014	12:05:44.205	$GPGGA,120553,2419.3905,N,08113.5858,W,1,8,1.6,19,M,,M,,*5D
06/07/2014	12:05:45.178	$GPGGA,120554,2419.3930,N,08113.5843,W,1,8,1.6,19,M,,M,,*56
06/07/2014	12:05:46.191	$GPGGA,120555,2419.3955,N,08113.5830,W,1,9,1.5,19,M,,M,,*52
06/07/2014	12:05:47.183	$GPGGA,120556,2419.3980,N,08113.5818,W,1,9,1.5,19,M,,M,,*53
06/07/2014	12:05:48.196	$GPGGA,120557,2419.4003,N,08113.5804,W,1,8,1.6,19,M,,M,,*58
06/07/2014	12:05:49.188	$GPGGA,120558,2419.4027,N,08113.5792,W,1,8,1.6,19,M,,M,,*51
06/07/2014	12:05:50.201	$GPGGA,120559,2419.4053,N,08113.5779,W,1,7,2.3,19,M,,M,,*5F
06/07/2014	12:05:51.204	$GPGGA,120600,2419.4078,N,08113.5766,W,1,7,1.6,19,M,,M,,*51
06/07/2014	12:05:52.176	$GPGGA,120601,2419.4101,N,08113.5753,W,1,8,1.6,19,M,,M,,*56
06/07/2014	12:05:53.189	$GPGGA,120602,2419.4128,N,08113.5740,W,1,8,1.6,19,M,,M,,*5C
06/07/2014	12:05:54.211	$GPGGA,120603,2419.4151,N,08113.5727,W,1,8,1.6,19,M,,M,,*52
06/07/2014	12:05:55.184	$GPGGA,120604,2419.4178,N,08113.5714,W,1,8,2.3,19,M,,M,,*58
06/07/2014	12:05:56.186	$GPGGA,120605,2419.4205,N,08113.5701,W,1,8,1.6,19,M,,M,,*52
06/07/2014	12:05:57.179	$GPGGA,120606,2419.4230,N,08113.5688,W,1,8,1.5,19,M,,M,,*54
06/07/2014	12:05:58.222	$GPGGA,120607,2419.4256,N,08113.5675,W,1,9,1.5,19,M,,M,,*56
06/07/2014	12:05:59.193	$GPGGA,120608,2419.4281,N,08113.5662,W,1,9,1.6,19,M,,M,,*56
06/07/2014	12:06:00.206	$GPGGA,120609,2419.4303,N,08113.5649,W,1,8,1.6,19,M,,M,,*54
06/07/2014	12:06:01.188	$GPGGA,120610,2419.4327,N,08113.5637,W,1,8,2.3,19,M,,M,,*55
06/07/2014	12:06:02.201	$GPGGA,120611,2419.4350,N,08113.5624,W,1,7,2.3,19,M,,M,,*59
06/07/2014	12:06:03.204	$GPGGA,120612,2419.4375,N,08113.5611,W,1,7,2.3,19,M,,M,,*5B
06/07/2014	12:06:04.226	$GPGGA,120613,2419.4397,N,08113.5598,W,1,8,1.6,19,M,,M,,*5D
06/07/2014	12:06:05.189	$GPGGA,120614,2419.4421,N,08113.5585,W,1,8,2.3,19,M,,M,,*5A
06/07/2014	12:06:06.221	$GPGGA,120615,2419.4446,N,08113.5571,W,1,7,2.3,19,M,,M,,*5E
06/07/2014	12:06:07.214	$GPGGA,120616,2419.4469,N,08113.5558,W,1,7,1.6,19,M,,M,,*5D
06/07/2014	12:06:08.198	$GPGGA,120617,2419.4494,N,08113.5544,W,1,7,2.3,19,M,,M,,*55
06/07/2014	12:06:09.289	$GPGGA,120618,2419.4518,N,08113.5531,W,1,7,2.3,19,M,,M,,*5D
06/07/2014	12:06:10.212	$GPGGA,120619,2419.4545,N,08113.5517,W,1,8,1.6,19,M,,M,,*59
06/07/2014	12:06:11.375	$GPGGA,120620,2419.4567,N,08113.5504,W,1,8,1.6,19,M,,M,,*51
06/07/2014	12:06:12.357	$GPGGA,120621,2419.4592,N,08113.5491,W,1,7,1.6,19,M,,M,,*58
06/07/2014	12:06:13.350	$GPGGA,120622,2419.4617,N,08113.5477,W,1,7,1.6,19,M,,M,,*5D
06/07/2014	12:06:14.212	$GPGGA,120623,2419.4642,N,08113.5464,W,1,8,1.6,19,M,,M,,*51
06/07/2014	12:06:15.197	$GPGGA,120624,2419.4667,N,08113.5451,W,1,8,1.6,18,M,,M,,*56
06/07/2014	12:06:16.207	$GPGGA,120625,2419.4692,N,08113.5436,W,1,8,1.6,18,M,,M,,*5C
06/07/2014	12:06:17.189	$GPGGA,120626,2419.4715,N,08113.5423,W,1,8,1.6,18,M,,M,,*55
06/07/2014	12:06:18.191	$GPGGA,120627,2419.4739,N,08113.5411,W,1,8,1.6,18,M,,M,,*5B
06/07/2014	12:06:19.385	$GPGGA,120628,2419.4765,N,08113.5397,W,1,8,2.3,18,M,,M,,*52
06/07/2014	12:06:20.217	$GPGGA,120629,2419.4790,N,08113.5383,W,1,8,1.6,18,M,,M,,*5A
06/07/2014	12:06:21.360	$GPGGA,120630,2419.4812,N,08113.5371,W,1,8,1.6,18,M,,M,,*5A
06/07/2014	12:06:22.322	$GPGGA,120631,2419.4841,N,08113.5357,W,1,7,1.6,18,M,,M,,*56
06/07/2014	12:06:23.385	$GPGGA,120632,2419.4866,N,08113.5343,W,1,7,1.6,18,M,,M,,*55
06/07/2014	12:06:24.368	$GPGGA,120633,2419.4888,N,08113.5331,W,1,8,2.3,18,M,,M,,*58
06/07/2014	12:06:25.360	$GPGGA,120634,2419.4916,N,08113.5318,W,1,8,1.6,18,M,,M,,*54
06/07/2014	12:06:26.343	$GPGGA,120635,2419.4939,N,08113.5305,W,1,8,1.6,18,M,,M,,*54
06/07/2014	12:06:27.375	$GPGGA,120636,2419.4964,N,08113.5293,W,1,8,2.3,18,M,,M,,*57
06/07/2014	12:06:28.338	$GPGGA,120637,2419.4989,N,08113.5279,W,1,7,2.3,18,M,,M,,*5E
06/07/2014	12:06:29.226	$GPGGA,120638,2419.5014,N,08113.5265,W,1,7,1.6,18,M,,M,,*56
06/07/2014	12:06:30.188	$GPGGA,120639,2419.5040,N,08113.5252,W,1,8,1.6,18,M,,M,,*5D
06/07/2014	12:06:31.150	$GPGGA,120640,2419.5067,N,08113.5238,W,1,8,1.6,18,M,,M,,*5A
06/07/2014	12:06:32.184	$GPGGA,120641,2419.5092,N,08113.5225,W,1,8,1.6,18,M,,M,,*5D
06/07/2014	12:06:33.135	$GPGGA,120642,2419.5115,N,08113.5212,W,1,8,1.6,18,M,,M,,*54
06/07/2014	12:06:34.144	$GPGGA,120643,2419.5141,N,08113.5196,W,1,7,2.3,18,M,,M,,*52
06/07/2014	12:06:35.150	$GPGGA,120644,2419.5166,N,08113.5181,W,1,7,1.5,18,M,,M,,*53
06/07/2014	12:06:36.183	$GPGGA,120645,2419.5191,N,08113.5169,W,1,9,1.5,18,M,,M,,*52
06/07/2014	12:06:37.195	$GPGGA,120646,2419.5217,N,08113.5154,W,1,9,1.6,18,M,,M,,*51
06/07/2014	12:06:38.141	$GPGGA,120647,2419.5242,N,08113.5141,W,1,8,1.6,18,M,,M,,*55
06/07/2014	12:06:39.251	$GPGGA,120648,2419.5267,N,08113.5128,W,1,8,1.5,18,M,,M,,*51
06/07/2014	12:06:40.144	$GPGGA,120649,2419.5291,N,08113.5115,W,1,8,1.6,18,M,,M,,*54
06/07/2014	12:06:41.142	$GPGGA,120650,2419.5314,N,08113.5098,W,1,8,1.6,18,M,,M,,*54
06/07/2014	12:06:42.208	$GPGGA,120651,2419.5340,N,08113.5084,W,1,9,1.6,19,M,,M,,*59
06/07/2014	12:06:43.212	$GPGGA,120652,2419.5364,N,08113.5070,W,1,9,1.6,19,M,,M,,*57
06/07/2014	12:06:44.203	$GPGGA,120653,2419.5387,N,08113.5054,W,1,8,1.6,19,M,,M,,*5C
06/07/2014	12:06:45.206	$GPGGA,120654,2419.5411,N,08113.5039,W,1,8,1.6,19,M,,M,,*58
06/07/2014	12:06:46.178	$GPGGA,120655,2419.5434,N,08113.5025,W,1,8,1.6,19,M,,M,,*53
06/07/2014	12:06:47.211	$GPGGA,120656,2419.5459,N,08113.5010,W,1,8,1.6,19,M,,M,,*5D
06/07/2014	12:06:48.184	$GPGGA,120657,2419.5483,N,08113.4995,W,1,8,1.6,19,M,,M,,*5E
06/07/2014	12:06:49.151	$GPGGA,120658,2419.5506,N,08113.4981,W,1,8,1.6,19,M,,M,,*58
06/07/2014	12:06:50.199	$GPGGA,120659,2419.5531,N,08113.4966,W,1,8,1.6,19,M,,M,,*54
06/07/2014	12:06:51.261	$GPGGA,120700,2419.5555,N,08113.4951,W,1,8,1.6,19,M,,M,,*5F
06/07/2014	12:06:52.193	$GPGGA,120701,2419.5578,N,08113.4935,W,1,8,1.5,19,M,,M,,*50
06/07/2014	12:06:53.216	$GPGGA,120702,2419.5602,N,08113.4918,W,1,8,1.5,19,M,,M,,*52
06/07/2014	12:06:54.238	$GPGGA,120703,2419.5627,N,08113.4903,W,1,9,1.6,19,M,,M,,*5C
06/07/2014	12:06:55.221	$GPGGA,120704,2419.5650,N,08113.4888,W,1,9,1.6,19,M,,M,,*59
06/07/2014	12:06:56.284	$GPGGA,120705,2419.5675,N,08113.4874,W,1,8,1.6,19,M,,M,,*5D
06/07/2014	12:06:57.216	$GPGGA,120706,2419.5700,N,08113.4860,W,1,8,1.6,19,M,,M,,*58
06/07/2014	12:06:58.259	$GPGGA,120707,2419.5723,N,08113.4845,W,1,8,1.6,20,M,,M,,*55
06/07/2014	12:06:59.231	$GPGGA,120708,2419.5748,N,08113.4832,W,1,8,1.5,20,M,,M,,*54
06/07/2014	12:07:00.194	$GPGGA,120709,2419.5773,N,08113.4818,W,1,8,1.6,20,M,,M,,*56
06/07/2014	12:07:01.150	$GPGGA,120710,2419.5797,N,08113.4804,W,1,8,1.6,20,M,,M,,*59
06/07/2014	12:07:02.259	$GPGGA,120711,2419.5820,N,08113.4788,W,1,9,1.5,20,M,,M,,*52
06/07/2014	12:07:03.272	$GPGGA,120712,2419.5845,N,08113.4773,W,1,9,1.5,20,M,,M,,*56
06/07/2014	12:07:04.325	$GPGGA,120713,2419.5870,N,08113.4759,W,1,9,1.6,20,M,,M,,*5A
06/07/2014	12:07:05.257	$GPGGA,120714,2419.5895,N,08113.4745,W,1,9,1.6,20,M,,M,,*5B
06/07/2014	12:07:06.280	$GPGGA,120715,2419.5918,N,08113.4731,W,1,8,1.6,20,M,,M,,*5C
06/07/2014	12:07:07.242	$GPGGA,120716,2419.5943,N,08113.4717,W,1,8,1.6,20,M,,M,,*55
06/07/2014	12:07:08.274	$GPGGA,120717,2419.5968,N,08113.4704,W,1,8,1.6,20,M,,M,,*5F
06/07/2014	12:07:09.286	$GPGGA,120718,2419.5993,N,08113.4691,W,1,8,1.6,20,M,,M,,*59
06/07/2014	12:07:10.289	$GPGGA,120719,2419.6018,N,08113.4677,W,1,8,1.6,20,M,,M,,*59
06/07/2014	12:07:11.282	$GPGGA,120720,2419.6041,N,08113.4664,W,1,8,1.6,20,M,,M,,*5D
06/07/2014	12:07:12.274	$GPGGA,120721,2419.6066,N,08113.4651,W,1,8,1.6,20,M,,M,,*5F
06/07/2014	12:07:13.267	$GPGGA,120722,2419.6091,N,08113.4637,W,1,8,1.6,19,M,,M,,*5E
06/07/2014	12:07:14.309	$GPGGA,120723,2419.6116,N,08113.4624,W,1,8,1.6,19,M,,M,,*53
06/07/2014	12:07:15.282	$GPGGA,120724,2419.6141,N,08113.4611,W,1,8,1.6,19,M,,M,,*50
06/07/2014	12:07:16.809	$GPGGA,120725,2419.6166,N,08113.4599,W,1,8,1.6,19,M,,M,,*57
06/07/2014	12:07:17.257	$GPGGA,120726,2419.6191,N,08113.4585,W,1,8,1.6,19,M,,M,,*51
06/07/2014	12:07:18.300	$GPGGA,120727,2419.6216,N,08113.4572,W,1,8,1.6,19,M,,M,,*54
06/07/2014	12:07:19.373	$GPGGA,120728,2419.6242,N,08113.4560,W,1,8,1.6,19,M,,M,,*59
06/07/2014	12:07:20.285	$GPGGA,120729,2419.6267,N,08113.4547,W,1,8,1.6,19,M,,M,,*5A
06/07/2014	12:07:21.267	$GPGGA,120730,2419.6292,N,08113.4533,W,1,8,1.6,19,M,,M,,*5B
06/07/2014	12:07:22.280	$GPGGA,120731,2419.6317,N,08113.4521,W,1,8,1.6,19,M,,M,,*55
06/07/2014	12:07:23.294	$GPGGA,120732,2419.6340,N,08113.4508,W,1,8,1.6,19,M,,M,,*5F
06/07/2014	12:07:24.335	$GPGGA,120733,2419.6366,N,08113.4495,W,1,8,1.6,19,M,,M,,*5F
06/07/2014	12:07:25.268	$GPGGA,120734,2419.6391,N,08113.4482,W,1,8,1.4,19,M,,M,,*54
06/07/2014	12:07:26.300	$GPGGA,120735,2419.6416,N,08113.4469,W,1,9,1.6,19,M,,M,,*5B
06/07/2014	12:07:27.282	$GPGGA,120736,2419.6440,N,08113.4457,W,1,9,1.6,19,M,,M,,*56
06/07/2014	12:07:28.325	$GPGGA,120737,2419.6465,N,08113.4444,W,1,8,1.6,19,M,,M,,*53
06/07/2014	12:07:29.143	$GPGGA,120738,2419.6489,N,08113.4431,W,1,8,1.6,19,M,,M,,*5C
06/07/2014	12:07:30.126	$GPGGA,120739,2419.6514,N,08113.4418,W,1,8,1.6,19,M,,M,,*53
06/07/2014	12:07:31.138	$GPGGA,120740,2419.6538,N,08113.4405,W,1,8,1.6,19,M,,M,,*5F
06/07/2014	12:07:32.151	$GPGGA,120741,2419.6561,N,08113.4393,W,1,8,1.6,19,M,,M,,*5A
06/07/2014	12:07:33.164	$GPGGA,120742,2419.6586,N,08113.4379,W,1,8,1.6,19,M,,M,,*54
06/07/2014	12:07:34.156	$GPGGA,120743,2419.6611,N,08113.4366,W,1,8,1.6,19,M,,M,,*56
06/07/2014	12:07:35.139	$GPGGA,120744,2419.6636,N,08113.4353,W,1,8,1.6,19,M,,M,,*52
06/07/2014	12:07:36.131	$GPGGA,120745,2419.6660,N,08113.4340,W,1,8,1.6,19,M,,M,,*52
06/07/2014	12:07:37.154	$GPGGA,120746,2419.6684,N,08113.4326,W,1,8,1.6,19,M,,M,,*5B
06/07/2014	12:07:38.133	$GPGGA,120747,2419.6709,N,08113.4314,W,1,8,1.6,19,M,,M,,*5F
06/07/2014	12:07:39.189	$GPGGA,120748,2419.6734,N,08113.4300,W,1,8,1.6,19,M,,M,,*5B
06/07/2014	12:07:40.162	$GPGGA,120749,2419.6758,N,08113.4286,W,1,8,1.6,18,M,,M,,*5E
06/07/2014	12:07:41.226	$GPGGA,120750,2419.6781,N,08113.4273,W,1,8,1.6,18,M,,M,,*58
06/07/2014	12:07:42.129	$GPGGA,120751,2419.6807,N,08113.4259,W,1,7,1.4,18,M,,M,,*5D
06/07/2014	12:07:43.259	$GPGGA,120752,2419.6831,N,08113.4245,W,1,7,1.4,18,M,,M,,*56
06/07/2014	12:07:44.241	$GPGGA,120753,2419.6859,N,08113.4232,W,1,8,2.0,18,M,,M,,*51
06/07/2014	12:07:45.136	$GPGGA,120754,2419.6859,N,08113.4232,W,1,8,1.4,18,M,,M,,*51
06/07/2014	12:07:46.220	$GPGGA,120755,2419.6907,N,08113.4202,W,1,7,2.3,18,M,,M,,*52
06/07/2014	12:07:47.149	$GPGGA,120756,2419.6907,N,08113.4202,W,1,7,2.0,18,M,,M,,*52
06/07/2014	12:07:48.238	$GPGGA,120757,2419.6957,N,08113.4176,W,1,7,2.3,18,M,,M,,*55
06/07/2014	12:07:49.143	$GPGGA,120758,2419.6957,N,08113.4176,W,1,7,1.6,18,M,,M,,*5C
06/07/2014	12:07:50.139	$GPGGA,120759,2419.7005,N,08113.4147,W,1,8,1.6,18,M,,M,,*5F
06/07/2014	12:07:51.270	$GPGGA,120800,2419.7029,N,08113.4135,W,1,8,2.0,18,M,,M,,*52
06/07/2014	12:07:52.222	$GPGGA,120801,2419.7056,N,08113.4121,W,1,7,2.3,18,M,,M,,*52
06/07/2014	12:07:53.236	$GPGGA,120802,2419.7081,N,08113.4106,W,1,7,1.6,18,M,,M,,*58
06/07/2014	12:07:54.227	$GPGGA,120803,2419.7105,N,08113.4092,W,1,8,1.6,18,M,,M,,*57
06/07/2014	12:07:55.241	$GPGGA,120804,2419.7128,N,08113.4079,W,1,8,1.6,18,M,,M,,*5A
06/07/2014	12:07:56.253	$GPGGA,120805,2419.7150,N,08113.4065,W,1,8,1.6,18,M,,M,,*59
06/07/2014	12:07:57.236	$GPGGA,120806,2419.7175,N,08113.4050,W,1,8,1.6,18,M,,M,,*5B
06/07/2014	12:07:58.238	$GPGGA,120807,2419.7199,N,08113.4036,W,1,8,1.6,18,M,,M,,*58
06/07/2014	12:07:59.251	$GPGGA,120808,2419.7222,N,08113.4023,W,1,8,1.6,18,M,,M,,*50
06/07/2014	12:08:00.244	$GPGGA,120809,2419.7247,N,08113.4009,W,1,8,1.6,18,M,,M,,*5A
06/07/2014	12:08:01.224	$GPGGA,120810,2419.7269,N,08113.3994,W,1,8,1.6,18,M,,M,,*54
06/07/2014	12:08:02.247	$GPGGA,120811,2419.7296,N,08113.3979,W,1,7,2.3,18,M,,M,,*5F
06/07/2014	12:08:03.250	$GPGGA,120812,2419.7319,N,08113.3965,W,1,7,1.6,17,M,,M,,*5E
06/07/2014	12:08:04.222	$GPGGA,120813,2419.7345,N,08113.3951,W,1,8,1.6,17,M,,M,,*5E
06/07/2014	12:08:05.225	$GPGGA,120814,2419.7370,N,08113.3936,W,1,8,1.6,17,M,,M,,*5E
06/07/2014	12:08:06.248	$GPGGA,120815,2419.7392,N,08113.3922,W,1,8,1.6,17,M,,M,,*56
06/07/2014	12:08:07.250	$GPGGA,120816,2419.7416,N,08113.3908,W,1,8,2.3,17,M,,M,,*50
06/07/2014	12:08:08.253	$GPGGA,120817,2419.7442,N,08113.3893,W,1,8,1.6,17,M,,M,,*55
06/07/2014	12:08:09.245	$GPGGA,120818,2419.7467,N,08113.3878,W,1,8,1.6,17,M,,M,,*58
06/07/2014	12:08:10.258	$GPGGA,120819,2419.7495,N,08113.3864,W,1,8,1.6,17,M,,M,,*59
06/07/2014	12:08:11.240	$GPGGA,120820,2419.7521,N,08113.3849,W,1,8,1.6,17,M,,M,,*52
06/07/2014	12:08:12.254	$GPGGA,120821,2419.7547,N,08113.3835,W,1,8,1.6,17,M,,M,,*58
06/07/2014	12:08:13.236	$GPGGA,120822,2419.7572,N,08113.3821,W,1,8,1.6,17,M,,M,,*58
06/07/2014	12:08:14.268	$GPGGA,120823,2419.7597,N,08113.3807,W,1,8,1.6,17,M,,M,,*56
06/07/2014	12:08:15.241	$GPGGA,120824,2419.7622,N,08113.3794,W,1,8,1.6,17,M,,M,,*59
06/07/2014	12:08:16.233	$GPGGA,120825,2419.7645,N,08113.3780,W,1,8,1.6,17,M,,M,,*5C
06/07/2014	12:08:17.246	$GPGGA,120826,2419.7670,N,08113.3766,W,1,8,1.6,17,M,,M,,*51
06/07/2014	12:08:18.258	$GPGGA,120827,2419.7697,N,08113.3752,W,1,9,1.4,17,M,,M,,*5D
06/07/2014	12:08:19.250	$GPGGA,120828,2419.7721,N,08113.3738,W,1,9,1.6,17,M,,M,,*50
06/07/2014	12:08:20.233	$GPGGA,120829,2419.7746,N,08113.3724,W,1,8,1.6,17,M,,M,,*5C
06/07/2014	12:08:21.245	$GPGGA,120830,2419.7773,N,08113.3710,W,1,8,1.6,17,M,,M,,*55
06/07/2014	12:08:22.238	$GPGGA,120831,2419.7798,N,08113.3696,W,1,8,1.6,17,M,,M,,*5E
06/07/2014	12:08:23.270	$GPGGA,120832,2419.7822,N,08113.3682,W,1,8,1.6,17,M,,M,,*56
06/07/2014	12:08:24.253	$GPGGA,120833,2419.7847,N,08113.3667,W,1,8,1.6,17,M,,M,,*5F
06/07/2014	12:08:25.255	$GPGGA,120834,2419.7869,N,08113.3653,W,1,8,2.0,17,M,,M,,*56
06/07/2014	12:08:26.268	$GPGGA,120835,2419.7893,N,08113.3640,W,1,8,2.0,17,M,,M,,*50
06/07/2014	12:08:27.261	$GPGGA,120836,2419.7918,N,08113.3626,W,1,8,2.3,17,M,,M,,*52
06/07/2014	12:08:28.233	$GPGGA,120837,2419.7941,N,08113.3613,W,1,8,1.6,17,M,,M,,*5F
06/07/2014	12:08:29.202	$GPGGA,120838,2419.7966,N,08113.3601,W,1,8,1.6,17,M,,M,,*56
06/07/2014	12:08:30.117	$GPGGA,120839,2419.7991,N,08113.3588,W,1,7,2.3,17,M,,M,,*54
06/07/2014	12:08:31.112	$GPGGA,120840,2419.8016,N,08113.3575,W,1,7,1.6,17,M,,M,,*57
06/07/2014	12:08:32.102	$GPGGA,120841,2419.8042,N,08113.3562,W,1,8,1.6,17,M,,M,,*5E
06/07/2014	12:08:33.110	$GPGGA,120842,2419.8067,N,08113.3549,W,1,8,1.6,17,M,,M,,*53
06/07/2014	12:08:34.112	$GPGGA,120843,2419.8092,N,08113.3534,W,1,8,1.6,17,M,,M,,*52
06/07/2014	12:08:35.197	$GPGGA,120844,2419.8118,N,08113.3522,W,1,8,1.4,17,M,,M,,*53
06/07/2014	12:08:36.097	$GPGGA,120845,2419.8143,N,08113.3508,W,1,8,1.6,17,M,,M,,*56
06/07/2014	12:08:37.181	$GPGGA,120846,2419.8168,N,08113.3495,W,1,8,1.6,17,M,,M,,*59
06/07/2014	12:08:38.214	$GPGGA,120847,2419.8194,N,08113.3483,W,1,9,1.4,17,M,,M,,*5F
06/07/2014	12:08:39.208	$GPGGA,120848,2419.8219,N,08113.3467,W,1,9,1.6,17,M,,M,,*5E
06/07/2014	12:08:40.207	$GPGGA,120849,2419.8244,N,08113.3455,W,1,9,1.4,18,M,,M,,*5B
06/07/2014	12:08:41.102	$GPGGA,120850,2419.8270,N,08113.3443,W,1,9,1.6,18,M,,M,,*51
06/07/2014	12:08:42.184	$GPGGA,120851,2419.8295,N,08113.3430,W,1,8,1.6,18,M,,M,,*5E
06/07/2014	12:08:43.206	$GPGGA,120852,2419.8320,N,08113.3418,W,1,8,1.4,18,M,,M,,*5A
06/07/2014	12:08:44.210	$GPGGA,120853,2419.8345,N,08113.3406,W,1,9,1.4,18,M,,M,,*56
06/07/2014	12:08:45.191	$GPGGA,120854,2419.8367,N,08113.3393,W,1,9,1.6,18,M,,M,,*58
06/07/2014	12:08:46.216	$GPGGA,120855,2419.8395,N,08113.3380,W,1,8,2.0,18,M,,M,,*52
06/07/2014	12:08:47.221	$GPGGA,120856,2419.8421,N,08113.3367,W,1,8,1.4,18,M,,M,,*57
06/07/2014	12:08:48.209	$GPGGA,120857,2419.8447,N,08113.3355,W,1,9,1.4,18,M,,M,,*56
06/07/2014	12:08:49.211	$GPGGA,120858,2419.8471,N,08113.3340,W,1,9,1.6,18,M,,M,,*5A
06/07/2014	12:08:50.215	$GPGGA,120859,2419.8496,N,08113.3328,W,1,9,1.4,18,M,,M,,*5E
06/07/2014	12:08:51.216	$GPGGA,120900,2419.8519,N,08113.3315,W,1,9,1.6,18,M,,M,,*59
06/07/2014	12:08:52.220	$GPGGA,120901,2419.8544,N,08113.3303,W,1,9,1.4,18,M,,M,,*55
06/07/2014	12:08:53.200	$GPGGA,120902,2419.8569,N,08113.3289,W,1,9,1.6,18,M,,M,,*58
06/07/2014	12:08:54.235	$GPGGA,120903,2419.8594,N,08113.3275,W,1,9,1.4,19,M,,M,,*5B
06/07/2014	12:08:55.215	$GPGGA,120904,2419.8619,N,08113.3263,W,1,9,1.4,19,M,,M,,*5D
06/07/2014	12:08:56.218	$GPGGA,120905,2419.8642,N,08113.3250,W,1,8,1.6,19,M,,M,,*51
06/07/2014	12:08:57.211	$GPGGA,120906,2419.8667,N,08113.3236,W,1,8,1.6,19,M,,M,,*55
06/07/2014	12:08:58.223	$GPGGA,120907,2419.8692,N,08113.3223,W,1,8,1.6,19,M,,M,,*5A
06/07/2014	12:08:59.215	$GPGGA,120908,2419.8717,N,08113.3210,W,1,8,1.6,19,M,,M,,*59
06/07/2014	12:09:00.189	$GPGGA,120909,2419.8742,N,08113.3196,W,1,8,1.6,19,M,,M,,*55
06/07/2014	12:09:01.200	$GPGGA,120910,2419.8765,N,08113.3183,W,1,8,1.6,19,M,,M,,*5C
06/07/2014	12:09:02.233	$GPGGA,120911,2419.8790,N,08113.3169,W,1,8,1.6,19,M,,M,,*53
06/07/2014	12:09:03.205	$GPGGA,120912,2419.8815,N,08113.3155,W,1,8,1.6,19,M,,M,,*5D
06/07/2014	12:09:04.248	$GPGGA,120913,2419.8840,N,08113.3141,W,1,8,1.6,19,M,,M,,*59
06/07/2014	12:09:05.190	$GPGGA,120914,2419.8864,N,08113.3127,W,1,8,1.6,19,M,,M,,*58
06/07/2014	12:09:06.203	$GPGGA,120915,2419.8889,N,08113.3113,W,1,8,1.6,19,M,,M,,*5D
06/07/2014	12:09:07.225	$GPGGA,120916,2419.8913,N,08113.3098,W,1,8,1.6,19,M,,M,,*5E
06/07/2014	12:09:08.208	$GPGGA,120917,2419.8937,N,08113.3084,W,1,8,1.6,19,M,,M,,*54
06/07/2014	12:09:09.201	$GPGGA,120918,2419.8960,N,08113.3070,W,1,8,1.6,19,M,,M,,*52
06/07/2014	12:09:10.213	$GPGGA,120919,2419.8985,N,08113.3055,W,1,8,1.6,19,M,,M,,*5F
06/07/2014	12:09:11.224	$GPGGA,120920,2419.9010,N,08113.3041,W,1,8,1.6,19,M,,M,,*54
06/07/2014	12:09:12.198	$GPGGA,120921,2419.9032,N,08113.3027,W,1,8,1.6,19,M,,M,,*55
06/07/2014	12:09:13.319	$GPGGA,120922,2419.9057,N,08113.3013,W,1,8,1.6,19,M,,M,,*52
06/07/2014	12:09:14.232	$GPGGA,120923,2419.9082,N,08113.2998,W,1,8,1.6,19,M,,M,,*50
06/07/2014	12:09:15.224	$GPGGA,120924,2419.9106,N,08113.2984,W,1,8,1.6,19,M,,M,,*57
06/07/2014	12:09:16.307	$GPGGA,120925,2419.9130,N,08113.2971,W,1,8,1.6,18,M,,M,,*58
06/07/2014	12:09:17.211	$GPGGA,120926,2419.9155,N,08113.2956,W,1,8,1.6,18,M,,M,,*5D
06/07/2014	12:09:18.232	$GPGGA,120927,2419.9180,N,08113.2942,W,1,8,1.6,18,M,,M,,*51
06/07/2014	12:09:19.344	$GPGGA,120928,2419.9205,N,08113.2929,W,1,8,1.6,18,M,,M,,*5D
06/07/2014	12:09:20.197	$GPGGA,120929,2419.9229,N,08113.2914,W,1,8,1.6,18,M,,M,,*5C
06/07/2014	12:09:21.303	$GPGGA,120930,2419.9254,N,08113.2899,W,1,8,1.6,18,M,,M,,*5A
06/07/2014	12:09:22.227	$GPGGA,120931,2419.9277,N,08113.2887,W,1,8,1.6,18,M,,M,,*55
06/07/2014	12:09:23.314	$GPGGA,120932,2419.9303,N,08113.2874,W,1,8,1.6,18,M,,M,,*58
06/07/2014	12:09:24.219	$GPGGA,120933,2419.9327,N,08113.2859,W,1,9,1.4,18,M,,M,,*53
06/07/2014	12:09:25.209	$GPGGA,120934,2419.9350,N,08113.2845,W,1,9,1.4,18,M,,M,,*59
06/07/2014	12:09:26.315	$GPGGA,120935,2419.9375,N,08113.2831,W,1,9,1.4,18,M,,M,,*5C
06/07/2014	12:09:27.230	$GPGGA,120936,2419.9399,N,08113.2816,W,1,9,1.4,18,M,,M,,*58
06/07/2014	12:09:28.326	$GPGGA,120937,2419.9424,N,08113.2803,W,1,9,1.4,18,M,,M,,*5C
06/07/2014	12:09:29.169	$GPGGA,120938,2419.9447,N,08113.2790,W,1,9,1.6,18,M,,M,,*51
06/07/2014	12:09:30.152	$GPGGA,120939,2419.9472,N,08113.2776,W,1,8,1.6,17,M,,M,,*50
06/07/2014	12:09:31.174	$GPGGA,120940,2419.9497,N,08113.2761,W,1,8,1.4,17,M,,M,,*51
06/07/2014	12:09:32.157	$GPGGA,120941,2419.9520,N,08113.2749,W,1,9,1.4,17,M,,M,,*56
06/07/2014	12:09:33.159	$GPGGA,120942,2419.9545,N,08113.2735,W,1,9,1.6,17,M,,M,,*5F
06/07/2014	12:09:34.192	$GPGGA,120943,2419.9570,N,08113.2722,W,1,8,1.6,17,M,,M,,*5F
06/07/2014	12:09:35.174	$GPGGA,120944,2419.9595,N,08113.2709,W,1,8,1.6,17,M,,M,,*5A
06/07/2014	12:09:36.187	$GPGGA,120945,2419.9619,N,08113.2695,W,1,9,1.4,17,M,,M,,*5B
06/07/2014	12:09:37.169	$GPGGA,120946,2419.9643,N,08113.2680,W,1,9,1.4,17,M,,M,,*53
06/07/2014	12:09:38.162	$GPGGA,120947,2419.9668,N,08113.2667,W,1,9,1.4,17,M,,M,,*52
06/07/2014	12:09:39.184	$GPGGA,120948,2419.9692,N,08113.2653,W,1,9,1.4,17,M,,M,,*5F
06/07/2014	12:09:40.189	$GPGGA,120949,2419.9717,N,08113.2641,W,1,9,1.4,17,M,,M,,*51
06/07/2014	12:09:41.169	$GPGGA,120950,2419.9740,N,08113.2626,W,1,9,1.6,17,M,,M,,*58
06/07/2014	12:09:42.173	$GPGGA,120951,2419.9765,N,08113.2613,W,1,9,1.4,17,M,,M,,*5A
06/07/2014	12:09:43.175	$GPGGA,120952,2419.9790,N,08113.2600,W,1,9,1.4,17,M,,M,,*51
06/07/2014	12:09:44.197	$GPGGA,120953,2419.9814,N,08113.2587,W,1,9,1.4,17,M,,M,,*5F
06/07/2014	12:09:45.159	$GPGGA,120954,2419.9837,N,08113.2575,W,1,9,1.6,17,M,,M,,*56
06/07/2014	12:09:46.161	$GPGGA,120955,2419.9863,N,08113.2562,W,1,9,1.4,17,M,,M,,*52
06/07/2014	12:09:47.183	$GPGGA,120956,2419.9888,N,08113.2549,W,1,9,1.4,17,M,,M,,*5D
06/07/2014	12:09:48.166	$GPGGA,120957,2419.9912,N,08113.2537,W,1,8,1.6,17,M,,M,,*54
06/07/2014	12:09:49.188	$GPGGA,120958,2419.9937,N,08113.2523,W,1,8,1.6,17,M,,M,,*59
06/07/2014	12:09:50.181	$GPGGA,120959,2419.9960,N,08113.2510,W,1,8,1.6,17,M,,M,,*5A
06/07/2014	12:09:51.183	$GPGGA,121000,2419.9985,N,08113.2497,W,1,8,1.6,17,M,,M,,*5B
06/07/2014	12:09:52.186	$GPGGA,121001,2420.0010,N,08113.2484,W,1,8,1.6,17,M,,M,,*5E
06/07/2014	12:09:53.168	$GPGGA,121002,2420.0035,N,08113.2470,W,1,8,1.6,17,M,,M,,*51
06/07/2014	12:09:54.161	$GPGGA,121003,2420.0058,N,08113.2457,W,1,8,1.6,17,M,,M,,*5E
06/07/2014	12:09:55.203	$GPGGA,121004,2420.0080,N,08113.2444,W,1,8,2.3,17,M,,M,,*58
06/07/2014	12:09:56.196	$GPGGA,121005,2420.0105,N,08113.2430,W,1,7,2.3,16,M,,M,,*58
06/07/2014	12:09:57.178	$GPGGA,121006,2420.0127,N,08113.2416,W,1,7,2.3,16,M,,M,,*5F
06/07/2014	12:09:58.181	$GPGGA,121007,2420.0152,N,08113.2402,W,1,7,2.3,16,M,,M,,*59
06/07/2014	12:09:59.183	$GPGGA,121008,2420.0177,N,08113.2389,W,1,7,1.6,16,M,,M,,*53
06/07/2014	12:10:00.166	$GPGGA,121009,2420.0202,N,08113.2374,W,1,8,1.6,16,M,,M,,*5E
06/07/2014	12:10:01.168	$GPGGA,121010,2420.0226,N,08113.2359,W,1,8,1.6,16,M,,M,,*5F
06/07/2014	12:10:02.181	$GPGGA,121011,2420.0251,N,08113.2346,W,1,8,1.6,16,M,,M,,*50
06/07/2014	12:10:03.172	$GPGGA,121012,2420.0274,N,08113.2332,W,1,8,1.6,16,M,,M,,*57
06/07/2014	12:10:04.295	$GPGGA,121013,2420.0300,N,08113.2317,W,1,7,2.3,16,M,,M,,*5A
06/07/2014	12:10:05.167	$GPGGA,121014,2420.0324,N,08113.2303,W,1,7,1.6,16,M,,M,,*58
06/07/2014	12:10:06.280	$GPGGA,121015,2420.0349,N,08113.2290,W,1,8,1.6,16,M,,M,,*56
06/07/2014	12:10:07.192	$GPGGA,121016,2420.0372,N,08113.2275,W,1,8,1.6,16,M,,M,,*56
06/07/2014	12:10:08.165	$GPGGA,121017,2420.0397,N,08113.2261,W,1,7,2.3,16,M,,M,,*50
06/07/2014	12:10:09.287	$GPGGA,121018,2420.0421,N,08113.2248,W,1,7,2.3,16,M,,M,,*5E
06/07/2014	12:10:10.181	$GPGGA,121019,2420.0444,N,08113.2233,W,1,7,2.3,16,M,,M,,*50
06/07/2014	12:10:11.192	$GPGGA,121020,2420.0469,N,08113.2220,W,1,7,2.3,16,M,,M,,*57
06/07/2014	12:10:12.188	$GPGGA,121021,2420.0492,N,08113.2206,W,1,7,2.3,15,M,,M,,*55
06/07/2014	12:10:13.267	$GPGGA,121022,2420.0517,N,08113.2191,W,1,7,2.3,15,M,,M,,*57
06/07/2014	12:10:14.300	$GPGGA,121023,2420.0541,N,08113.2177,W,1,7,2.3,15,M,,M,,*5D
06/07/2014	12:10:15.192	$GPGGA,121024,2420.0566,N,08113.2163,W,1,7,2.3,15,M,,M,,*5A
06/07/2014	12:10:16.305	$GPGGA,121025,2420.0589,N,08113.2149,W,1,7,2.3,15,M,,M,,*52
06/07/2014	12:10:17.267	$GPGGA,121026,2420.0614,N,08113.2135,W,1,7,2.3,15,M,,M,,*5D
06/07/2014	12:10:18.300	$GPGGA,121027,2420.0638,N,08113.2121,W,1,7,2.3,15,M,,M,,*57
06/07/2014	12:10:19.302	$GPGGA,121028,2420.0663,N,08113.2107,W,1,7,2.3,15,M,,M,,*52
06/07/2014	12:10:20.295	$GPGGA,121029,2420.0686,N,08113.2093,W,1,7,2.3,15,M,,M,,*54
06/07/2014	12:10:21.276	$GPGGA,121030,2420.0712,N,08113.2079,W,1,7,2.3,14,M,,M,,*55
06/07/2014	12:10:22.289	$GPGGA,121031,2420.0736,N,08113.2065,W,1,7,2.3,14,M,,M,,*5F
06/07/2014	12:10:23.291	$GPGGA,121032,2420.0761,N,08113.2052,W,1,7,2.3,14,M,,M,,*5A
06/07/2014	12:10:24.294	$GPGGA,121033,2420.0784,N,08113.2037,W,1,7,2.3,14,M,,M,,*53
06/07/2014	12:10:25.298	$GPGGA,121034,2420.0809,N,08113.2024,W,1,7,2.3,14,M,,M,,*5C
06/07/2014	12:10:26.336	$GPGGA,121035,2420.0834,N,08113.2011,W,1,7,2.3,14,M,,M,,*55
06/07/2014	12:10:27.416	$GPGGA,121036,2420.0859,N,08113.1997,W,1,7,2.3,14,M,,M,,*59
06/07/2014	12:10:28.486	$GPGGA,121037,2420.0884,N,08113.1982,W,1,7,2.3,14,M,,M,,*5C
06/07/2014	12:10:29.177	$GPGGA,121038,2420.0909,N,08113.1968,W,1,7,2.3,14,M,,M,,*53
06/07/2014	12:10:30.257	$GPGGA,121039,2420.0936,N,08113.1953,W,1,8,2.0,14,M,,M,,*5A
06/07/2014	12:10:31.306	$GPGGA,121040,2420.0961,N,08113.1939,W,1,8,2.0,14,M,,M,,*5A
06/07/2014	12:10:32.365	$GPGGA,121041,2420.0985,N,08113.1926,W,1,7,2.3,14,M,,M,,*53
06/07/2014	12:10:33.403	$GPGGA,121042,2420.1010,N,08113.1914,W,1,7,2.0,14,M,,M,,*56
06/07/2014	12:10:34.494	$GPGGA,121043,2420.1035,N,08113.1899,W,1,7,2.3,14,M,,M,,*57
06/07/2014	12:10:35.522	$GPGGA,121044,2420.1059,N,08113.1884,W,1,7,2.0,14,M,,M,,*55
06/07/2014	12:10:36.602	$GPGGA,121045,2420.1084,N,08113.1873,W,1,8,2.0,14,M,,M,,*53
06/07/2014	12:10:37.619	$GPGGA,121046,2420.1108,N,08113.1859,W,1,8,2.3,14,M,,M,,*5E
06/07/2014	12:10:38.699	$GPGGA,121047,2420.1133,N,08113.1844,W,1,7,2.3,14,M,,M,,*54
06/07/2014	12:10:39.769	$GPGGA,121048,2420.1158,N,08113.1833,W,1,7,2.0,14,M,,M,,*55
06/07/2014	12:10:40.796	$GPGGA,121049,2420.1182,N,08113.1820,W,1,7,2.3,14,M,,M,,*52
06/07/2014	12:10:41.866	$GPGGA,121050,2420.1207,N,08113.1805,W,1,7,2.0,14,M,,M,,*50
06/07/2014	12:10:42.936	$GPGGA,121051,2420.1232,N,08113.1793,W,1,8,2.0,14,M,,M,,*58
06/07/2014	12:10:43.974	$GPGGA,121052,2420.1257,N,08113.1780,W,1,8,2.0,14,M,,M,,*5A
06/07/2014	12:10:45.055	$GPGGA,121053,2420.1283,N,08113.1765,W,1,8,2.0,14,M,,M,,*59
06/07/2014	12:10:46.086	$GPGGA,121054,2420.1308,N,08113.1752,W,1,8,2.0,14,M,,M,,*58
06/07/2014	12:10:47.152	$GPGGA,121055,2420.1332,N,08113.1740,W,1,8,2.0,14,M,,M,,*53
06/07/2014	12:10:48.222	$GPGGA,121056,2420.1357,N,08113.1726,W,1,8,2.3,14,M,,M,,*50
06/07/2014	12:10:49.271	$GPGGA,121057,2420.1380,N,08113.1714,W,1,8,2.0,14,M,,M,,*59
06/07/2014	12:10:50.330	$GPGGA,121058,2420.1405,N,08113.1701,W,1,8,2.0,14,M,,M,,*58
06/07/2014	12:10:51.389	$GPGGA,121059,2420.1431,N,08113.1688,W,1,8,2.0,14,M,,M,,*5E
06/07/2014	12:10:52.480	$GPGGA,121100,2420.1456,N,08113.1674,W,1,8,2.0,14,M,,M,,*51
06/07/2014	12:10:53.635	$GPGGA,121101,2420.1483,N,08113.1660,W,1,8,2.0,14,M,,M,,*5D
06/07/2014	12:10:54.641	$GPGGA,121102,2420.1507,N,08113.1647,W,1,8,2.0,14,M,,M,,*56
06/07/2014	12:10:55.590	$GPGGA,121103,2420.1532,N,08113.1634,W,1,8,2.0,14,M,,M,,*55
06/07/2014	12:10:56.664	$GPGGA,121104,2420.1556,N,08113.1621,W,1,8,2.3,14,M,,M,,*57
06/07/2014	12:10:57.724	$GPGGA,121105,2420.1579,N,08113.1608,W,1,7,2.3,14,M,,M,,*5F
06/07/2014	12:10:58.867	$GPGGA,121106,2420.1604,N,08113.1594,W,1,7,2.3,14,M,,M,,*53
06/07/2014	12:10:59.841	$GPGGA,121107,2420.1629,N,08113.1582,W,1,7,2.3,14,M,,M,,*5A
06/07/2014	12:11:00.911	$GPGGA,121108,2420.1653,N,08113.1568,W,1,7,2.3,14,M,,M,,*5C
06/07/2014	12:11:02.086	$GPGGA,121109,2420.1678,N,08113.1555,W,1,7,2.3,14,M,,M,,*5A
06/07/2014	12:11:03.123	$GPGGA,121110,2420.1702,N,08113.1542,W,1,7,2.3,14,M,,M,,*58
06/07/2014	12:11:04.164	$GPGGA,121111,2420.1727,N,08113.1528,W,1,7,2.3,14,M,,M,,*52
06/07/2014	12:11:05.244	$GPGGA,121112,2420.1751,N,08113.1515,W,1,7,2.3,14,M,,M,,*5E
06/07/2014	12:11:06.292	$GPGGA,121113,2420.1774,N,08113.1499,W,1,7,2.0,14,M,,M,,*5E
06/07/2014	12:11:07.331	$GPGGA,121114,2420.1798,N,08113.1486,W,1,7,2.3,14,M,,M,,*56
06/07/2014	12:11:08.379	$GPGGA,121115,2420.1820,N,08113.1473,W,1,7,2.0,14,M,,M,,*52
06/07/2014	12:11:09.468	$GPGGA,121116,2420.1842,N,08113.1461,W,1,7,2.0,14,M,,M,,*56
06/07/2014	12:11:10.519	$GPGGA,121117,2420.1864,N,08113.1448,W,1,8,2.0,14,M,,M,,*57
06/07/2014	12:11:11.568	$GPGGA,121118,2420.1885,N,08113.1436,W,1,8,2.3,14,M,,M,,*5D
06/07/2014	12:11:12.638	$GPGGA,121119,2420.1906,N,08113.1424,W,1,7,2.0,14,M,,M,,*59
06/07/2014	12:11:13.697	$GPGGA,121120,2420.1926,N,08113.1412,W,1,7,2.0,14,M,,M,,*54
06/07/2014	12:11:14.746	$GPGGA,121121,2420.1947,N,08113.1401,W,1,8,2.0,14,M,,M,,*5F
06/07/2014	12:11:15.793	$GPGGA,121122,2420.1968,N,08113.1390,W,1,8,2.0,14,M,,M,,*5E
06/07/2014	12:11:16.884	$GPGGA,121123,2420.1987,N,08113.1378,W,1,8,2.0,14,M,,M,,*58
06/07/2014	12:11:17.923	$GPGGA,121124,2420.2007,N,08113.1367,W,1,8,2.0,14,M,,M,,*53
06/07/2014	12:11:18.992	$GPGGA,121125,2420.2026,N,08113.1357,W,1,8,2.0,14,M,,M,,*52
06/07/2014	12:11:20.009	$GPGGA,121126,2420.2045,N,08113.1347,W,1,8,2.0,14,M,,M,,*55
06/07/2014	12:11:21.069	$GPGGA,121127,2420.2063,N,08113.1337,W,1,8,2.0,14,M,,M,,*57
06/07/2014	12:11:22.173	$GPGGA,121128,2420.2081,N,08113.1329,W,1,8,2.0,14,M,,M,,*5B
06/07/2014	12:11:23.208	$GPGGA,121129,2420.2101,N,08113.1320,W,1,7,2.0,14,M,,M,,*55
06/07/2014	12:11:24.247	$GPGGA,121130,2420.2119,N,08113.1310,W,1,7,2.0,14,M,,M,,*57
06/07/2014	12:11:25.327	$GPGGA,121131,2420.2135,N,08113.1303,W,1,8,2.0,14,M,,M,,*55
06/07/2014	12:11:26.386	$GPGGA,121132,2420.2153,N,08113.1295,W,1,8,2.0,14,M,,M,,*58
06/07/2014	12:11:27.414	$GPGGA,121133,2420.2171,N,08113.1287,W,1,8,2.0,14,M,,M,,*5A
06/07/2014	12:11:28.484	$GPGGA,121134,2420.2188,N,08113.1279,W,1,8,2.0,14,M,,M,,*5A
06/07/2014	12:11:29.575	$GPGGA,121135,2420.2204,N,08113.1272,W,1,8,2.0,14,M,,M,,*57
06/07/2014	12:11:30.602	$GPGGA,121136,2420.2222,N,08113.1265,W,1,8,2.0,14,M,,M,,*56
06/07/2014	12:11:31.640	$GPGGA,121137,2420.2240,N,08113.1258,W,1,7,2.0,14,M,,M,,*52
06/07/2014	12:11:29.164	$GPGGA,121138,2420.2258,N,08113.1248,W,1,7,2.0,14,M,,M,,*55
06/07/2014	12:11:30.190	$GPGGA,121139,2420.2276,N,08113.1240,W,1,8,2.0,14,M,,M,,*5F
06/07/2014	12:11:31.283	$GPGGA,121140,2420.2294,N,08113.1232,W,1,8,2.0,14,M,,M,,*58
06/07/2014	12:11:32.331	$GPGGA,121141,2420.2314,N,08113.1224,W,1,8,2.0,14,M,,M,,*57
06/07/2014	12:11:33.365	$GPGGA,121142,2420.2333,N,08113.1215,W,1,8,2.0,14,M,,M,,*53
06/07/2014	12:11:34.512	$GPGGA,121143,2420.2352,N,08113.1206,W,1,8,2.3,14,M,,M,,*54
06/07/2014	12:11:35.487	$GPGGA,121144,2420.2372,N,08113.1196,W,1,8,2.0,14,M,,M,,*58
06/07/2014	12:11:36.567	$GPGGA,121145,2420.2392,N,08113.1188,W,1,8,2.0,14,M,,M,,*58
06/07/2014	12:11:37.595	$GPGGA,121146,2420.2412,N,08113.1179,W,1,8,2.0,14,M,,M,,*5A
06/07/2014	12:11:38.657	$GPGGA,121147,2420.2431,N,08113.1169,W,1,8,2.0,15,M,,M,,*5A
06/07/2014	12:11:39.851	$GPGGA,121148,2420.2452,N,08113.1161,W,1,8,2.0,15,M,,M,,*58
06/07/2014	12:11:40.794	$GPGGA,121149,2420.2473,N,08113.1151,W,1,8,2.0,15,M,,M,,*59
06/07/2014	12:11:41.928	$GPGGA,121150,2420.2493,N,08113.1141,W,1,8,2.0,15,M,,M,,*5E
06/07/2014	12:11:42.913	$GPGGA,121151,2420.2514,N,08113.1132,W,1,8,2.0,15,M,,M,,*55
06/07/2014	12:11:44.070	$GPGGA,121152,2420.2535,N,08113.1122,W,1,8,2.0,15,M,,M,,*54
06/07/2014	12:11:45.130	$GPGGA,121153,2420.2554,N,08113.1112,W,1,8,2.0,15,M,,M,,*51
06/07/2014	12:11:46.091	$GPGGA,121154,2420.2576,N,08113.1102,W,1,8,2.0,15,M,,M,,*57
06/07/2014	12:11:47.133	$GPGGA,121155,2420.2598,N,08113.1092,W,1,8,2.0,15,M,,M,,*5E
06/07/2014	12:11:48.283	$GPGGA,121156,2420.2619,N,08113.1082,W,1,8,2.0,15,M,,M,,*56
06/07/2014	12:11:49.240	$GPGGA,121157,2420.2640,N,08113.1073,W,1,8,2.0,15,M,,M,,*55
