Software Version Number: 1	Data File Format Number: 1	Build Version Number: 1	Error Count Since VI Started: 0	Manufacturer: Raytheon	 Model Number: RayMarine 120	 S/N: 	 Cal Date: 	 Wind Direction Offset: 0.00	 Slope (M)1: 0.00	 Offset (B)1: 0.00	 Slope (M)2: 0.00	 Offset (B)2: 0.00	 Slope (M)3: 0.00	 Offset (B)3: 0.00	 Slope (M)4: 0.00	 Offset (B)4: 0.00	 Slope (M)5: 0.00	 Offset (B)5: 0.00	 Slope (M)6: 0.00	 Offset (B)6: 0.00
Computer Date	Computer Time	GGA String
06/04/2014	20:00:00.602	$GPGGA,200001,2506.8391,N,08009.6994,W,1,10,1.9,16,M,,M,,*6C
06/04/2014	20:00:01.624	$GPGGA,200002,2506.8392,N,08009.6972,W,1,10,1.6,16,M,,M,,*6B
06/04/2014	20:00:02.697	$GPGGA,200003,2506.8392,N,08009.6954,W,1,10,1.6,16,M,,M,,*6E
06/04/2014	20:00:03.619	$GPGGA,200004,2506.8391,N,08009.6933,W,1,10,1.6,16,M,,M,,*6B
06/04/2014	20:00:04.692	$GPGGA,200005,2506.8392,N,08009.6911,W,1,10,1.9,16,M,,M,,*66
06/04/2014	20:00:05.604	$GPGGA,200006,2506.8393,N,08009.6893,W,1,10,1.6,16,M,,M,,*60
06/04/2014	20:00:06.717	$GPGGA,200007,2506.8392,N,08009.6874,W,1,10,1.9,16,M,,M,,*66
06/04/2014	20:00:07.619	$GPGGA,200008,2506.8392,N,08009.6853,W,1,10,1.6,16,M,,M,,*63
06/04/2014	20:00:08.691	$GPGGA,200009,2506.8393,N,08009.6836,W,1,11,1.6,16,M,,M,,*61
06/04/2014	20:00:09.613	$GPGGA,200010,2506.8393,N,08009.6816,W,1,11,1.6,17,M,,M,,*6A
06/04/2014	20:00:10.596	$GPGGA,200011,2506.8393,N,08009.6796,W,1,10,1.9,17,M,,M,,*62
06/04/2014	20:00:11.729	$GPGGA,200012,2506.8395,N,08009.6779,W,1,10,1.6,17,M,,M,,*69
06/04/2014	20:00:12.611	$GPGGA,200013,2506.8396,N,08009.6759,W,1,10,1.9,17,M,,M,,*66
06/04/2014	20:00:13.714	$GPGGA,200014,2506.8396,N,08009.6740,W,1,10,1.6,17,M,,M,,*66
06/04/2014	20:00:14.726	$GPGGA,200015,2506.8396,N,08009.6723,W,1,11,1.6,17,M,,M,,*63
06/04/2014	20:00:15.719	$GPGGA,200016,2506.8396,N,08009.6702,W,1,11,1.6,17,M,,M,,*63
06/04/2014	20:00:16.751	$GPGGA,200017,2506.8396,N,08009.6683,W,1,11,1.6,17,M,,M,,*6A
06/04/2014	20:00:17.714	$GPGGA,200018,2506.8396,N,08009.6664,W,1,11,1.6,17,M,,M,,*6C
06/04/2014	20:00:18.696	$GPGGA,200019,2506.8396,N,08009.6644,W,1,11,1.6,17,M,,M,,*6F
06/04/2014	20:00:19.709	$GPGGA,200020,2506.8396,N,08009.6625,W,1,11,1.6,17,M,,M,,*62
06/04/2014	20:00:20.741	$GPGGA,200021,2506.8396,N,08009.6605,W,1,9,2.4,17,M,,M,,*59
06/04/2014	20:00:21.744	$GPGGA,200022,2506.8394,N,08009.6583,W,1,9,1.6,17,M,,M,,*54
06/04/2014	20:00:22.736	$GPGGA,200023,2506.8395,N,08009.6564,W,1,11,1.6,17,M,,M,,*64
06/04/2014	20:00:23.709	$GPGGA,200024,2506.8393,N,08009.6546,W,1,11,1.6,17,M,,M,,*65
06/04/2014	20:00:24.731	$GPGGA,200025,2506.8393,N,08009.6526,W,1,10,1.9,17,M,,M,,*6C
06/04/2014	20:00:25.714	$GPGGA,200026,2506.8395,N,08009.6507,W,1,10,1.6,17,M,,M,,*65
06/04/2014	20:00:26.725	$GPGGA,200027,2506.8393,N,08009.6488,W,1,11,1.6,17,M,,M,,*65
06/04/2014	20:00:27.708	$GPGGA,200028,2506.8393,N,08009.6468,W,1,11,1.6,17,M,,M,,*64
06/04/2014	20:00:28.710	$GPGGA,200029,2506.8393,N,08009.6447,W,1,11,1.6,17,M,,M,,*68
06/04/2014	20:00:29.713	$GPGGA,200030,2506.8395,N,08009.6427,W,1,11,1.6,18,M,,M,,*6F
06/04/2014	20:00:30.735	$GPGGA,200031,2506.8393,N,08009.6407,W,1,11,1.6,18,M,,M,,*6A
06/04/2014	20:00:31.590	$GPGGA,200032,2506.8393,N,08009.6385,W,1,11,1.6,18,M,,M,,*64
06/04/2014	20:00:32.561	$GPGGA,200033,2506.8393,N,08009.6366,W,1,11,1.6,18,M,,M,,*68
06/04/2014	20:00:33.563	$GPGGA,200034,2506.8395,N,08009.6346,W,1,11,1.6,18,M,,M,,*6B
06/04/2014	20:00:34.586	$GPGGA,200035,2506.8396,N,08009.6323,W,1,11,1.6,18,M,,M,,*6A
06/04/2014	20:00:35.578	$GPGGA,200036,2506.8396,N,08009.6303,W,1,11,1.6,18,M,,M,,*6B
06/04/2014	20:00:36.581	$GPGGA,200037,2506.8398,N,08009.6282,W,1,11,1.6,18,M,,M,,*6C
06/04/2014	20:00:37.573	$GPGGA,200038,2506.8399,N,08009.6260,W,1,11,1.9,18,M,,M,,*61
06/04/2014	20:00:38.556	$GPGGA,200039,2506.8402,N,08009.6238,W,1,11,1.6,18,M,,M,,*67
06/04/2014	20:00:39.579	$GPGGA,200040,2506.8403,N,08009.6217,W,1,11,1.6,18,M,,M,,*65
06/04/2014	20:00:40.581	$GPGGA,200041,2506.8402,N,08009.6195,W,1,11,1.6,18,M,,M,,*6C
06/04/2014	20:00:41.573	$GPGGA,200042,2506.8403,N,08009.6172,W,1,11,1.6,18,M,,M,,*67
06/04/2014	20:00:42.596	$GPGGA,200043,2506.8407,N,08009.6150,W,1,11,1.6,18,M,,M,,*62
06/04/2014	20:00:43.577	$GPGGA,200044,2506.8410,N,08009.6130,W,1,11,1.6,18,M,,M,,*65
06/04/2014	20:00:44.560	$GPGGA,200045,2506.8410,N,08009.6106,W,1,11,1.6,18,M,,M,,*61
06/04/2014	20:00:45.592	$GPGGA,200046,2506.8414,N,08009.6085,W,1,11,1.6,18,M,,M,,*6C
06/04/2014	20:00:46.555	$GPGGA,200047,2506.8418,N,08009.6065,W,1,11,1.6,18,M,,M,,*6F
06/04/2014	20:00:47.587	$GPGGA,200048,2506.8421,N,08009.6041,W,1,11,1.6,18,M,,M,,*6C
06/04/2014	20:00:48.680	$GPGGA,200049,2506.8423,N,08009.6020,W,1,11,1.6,18,M,,M,,*68
06/04/2014	20:00:49.562	$GPGGA,200050,2506.8425,N,08009.6001,W,1,11,1.6,18,M,,M,,*65
06/04/2014	20:00:50.575	$GPGGA,200051,2506.8428,N,08009.5977,W,1,11,1.6,18,M,,M,,*62
06/04/2014	20:00:51.577	$GPGGA,200052,2506.8432,N,08009.5956,W,1,11,1.6,18,M,,M,,*69
06/04/2014	20:00:52.570	$GPGGA,200053,2506.8435,N,08009.5936,W,1,11,1.6,18,M,,M,,*69
06/04/2014	20:00:53.663	$GPGGA,200054,2506.8439,N,08009.5915,W,1,11,1.6,18,M,,M,,*63
06/04/2014	20:00:54.675	$GPGGA,200055,2506.8443,N,08009.5892,W,1,11,1.6,18,M,,M,,*61
06/04/2014	20:00:55.567	$GPGGA,200056,2506.8447,N,08009.5871,W,1,11,1.6,18,M,,M,,*6B
06/04/2014	20:00:56.660	$GPGGA,200057,2506.8450,N,08009.5850,W,1,11,1.6,18,M,,M,,*6F
06/04/2014	20:00:57.663	$GPGGA,200058,2506.8452,N,08009.5828,W,1,11,1.6,18,M,,M,,*6D
06/04/2014	20:00:58.575	$GPGGA,200059,2506.8456,N,08009.5806,W,1,11,1.6,18,M,,M,,*64
06/04/2014	20:00:59.688	$GPGGA,200100,2506.8460,N,08009.5785,W,1,11,1.6,18,M,,M,,*68
06/04/2014	20:01:00.671	$GPGGA,200101,2506.8464,N,08009.5763,W,1,11,1.6,18,M,,M,,*65
06/04/2014	20:01:01.682	$GPGGA,200102,2506.8468,N,08009.5741,W,1,11,1.6,18,M,,M,,*6A
06/04/2014	20:01:02.694	$GPGGA,200103,2506.8471,N,08009.5720,W,1,11,1.6,18,M,,M,,*64
06/04/2014	20:01:03.677	$GPGGA,200104,2506.8474,N,08009.5700,W,1,11,1.6,18,M,,M,,*64
06/04/2014	20:01:04.669	$GPGGA,200105,2506.8479,N,08009.5678,W,1,11,1.6,18,M,,M,,*66
06/04/2014	20:01:05.672	$GPGGA,200106,2506.8482,N,08009.5655,W,1,11,1.6,18,M,,M,,*6E
06/04/2014	20:01:06.704	$GPGGA,200107,2506.8483,N,08009.5637,W,1,11,1.6,18,M,,M,,*6A
06/04/2014	20:01:07.687	$GPGGA,200108,2506.8486,N,08009.5615,W,1,11,1.6,17,M,,M,,*6F
06/04/2014	20:01:08.659	$GPGGA,200109,2506.8490,N,08009.5591,W,1,11,1.6,17,M,,M,,*66
06/04/2014	20:01:09.672	$GPGGA,200110,2506.8493,N,08009.5573,W,1,11,1.6,17,M,,M,,*61
06/04/2014	20:01:10.694	$GPGGA,200111,2506.8496,N,08009.5555,W,1,10,1.7,17,M,,M,,*61
06/04/2014	20:01:11.687	$GPGGA,200112,2506.8497,N,08009.5534,W,1,10,1.5,17,M,,M,,*66
06/04/2014	20:01:12.689	$GPGGA,200113,2506.8500,N,08009.5516,W,1,11,1.5,17,M,,M,,*69
06/04/2014	20:01:13.661	$GPGGA,200114,2506.8504,N,08009.5499,W,1,11,1.5,17,M,,M,,*6C
06/04/2014	20:01:14.674	$GPGGA,200115,2506.8505,N,08009.5477,W,1,11,1.5,17,M,,M,,*6C
06/04/2014	20:01:15.687	$GPGGA,200116,2506.8508,N,08009.5460,W,1,11,1.5,17,M,,M,,*64
06/04/2014	20:01:16.669	$GPGGA,200117,2506.8512,N,08009.5444,W,1,11,1.5,16,M,,M,,*69
06/04/2014	20:01:17.671	$GPGGA,200118,2506.8515,N,08009.5422,W,1,11,1.9,16,M,,M,,*6D
06/04/2014	20:01:18.673	$GPGGA,200119,2506.8518,N,08009.5404,W,1,11,1.5,16,M,,M,,*69
06/04/2014	20:01:19.685	$GPGGA,200120,2506.8519,N,08009.5390,W,1,11,1.5,16,M,,M,,*68
06/04/2014	20:01:20.688	$GPGGA,200121,2506.8521,N,08009.5369,W,1,9,2.4,16,M,,M,,*5F
06/04/2014	20:01:21.680	$GPGGA,200122,2506.8526,N,08009.5350,W,1,9,1.9,16,M,,M,,*5F
06/04/2014	20:01:22.703	$GPGGA,200123,2506.8530,N,08009.5332,W,1,11,1.5,16,M,,M,,*68
06/04/2014	20:01:23.695	$GPGGA,200124,2506.8530,N,08009.5314,W,1,11,1.5,15,M,,M,,*68
06/04/2014	20:01:24.678	$GPGGA,200125,2506.8533,N,08009.5295,W,1,10,1.9,15,M,,M,,*6F
06/04/2014	20:01:25.680	$GPGGA,200126,2506.8539,N,08009.5274,W,1,10,1.9,15,M,,M,,*69
06/04/2014	20:01:26.713	$GPGGA,200127,2506.8543,N,08009.5257,W,1,10,1.8,15,M,,M,,*65
06/04/2014	20:01:27.685	$GPGGA,200128,2506.8544,N,08009.5240,W,1,10,1.5,15,M,,M,,*66
06/04/2014	20:01:28.668	$GPGGA,200129,2506.8546,N,08009.5219,W,1,10,1.9,15,M,,M,,*65
06/04/2014	20:01:29.670	$GPGGA,200130,2506.8551,N,08009.5198,W,1,10,1.9,15,M,,M,,*61
06/04/2014	20:01:30.683	$GPGGA,200131,2506.8555,N,08009.5178,W,1,11,1.5,15,M,,M,,*67
06/04/2014	20:01:31.695	$GPGGA,200132,2506.8557,N,08009.5155,W,1,11,1.6,15,M,,M,,*6A
06/04/2014	20:01:32.520	$GPGGA,200133,2506.8561,N,08009.5135,W,1,10,1.9,15,M,,M,,*66
06/04/2014	20:01:33.521	$GPGGA,200134,2506.8566,N,08009.5116,W,1,10,2.1,15,M,,M,,*6C
06/04/2014	20:01:34.544	$GPGGA,200135,2506.8566,N,08009.5094,W,1,10,1.9,15,M,,M,,*6D
06/04/2014	20:01:35.558	$GPGGA,200136,2506.8569,N,08009.5074,W,1,10,1.9,15,M,,M,,*6F
06/04/2014	20:01:36.528	$GPGGA,200137,2506.8573,N,08009.5054,W,1,9,2.1,15,M,,M,,*54
06/04/2014	20:01:37.540	$GPGGA,200138,2506.8576,N,08009.5035,W,1,9,1.9,15,M,,M,,*52
06/04/2014	20:01:38.723	$GPGGA,200139,2506.8579,N,08009.5012,W,1,11,1.5,15,M,,M,,*6C
06/04/2014	20:01:39.555	$GPGGA,200140,2506.8582,N,08009.4992,W,1,11,1.5,15,M,,M,,*66
06/04/2014	20:01:40.718	$GPGGA,200141,2506.8584,N,08009.4975,W,1,10,1.5,16,M,,M,,*6A
06/04/2014	20:01:41.540	$GPGGA,200142,2506.8587,N,08009.4951,W,1,10,1.5,16,M,,M,,*6C
06/04/2014	20:01:42.543	$GPGGA,200143,2506.8591,N,08009.4933,W,1,11,1.5,16,M,,M,,*6F
06/04/2014	20:01:43.636	$GPGGA,200144,2506.8593,N,08009.4912,W,1,11,1.5,16,M,,M,,*69
06/04/2014	20:01:44.728	$GPGGA,200145,2506.8595,N,08009.4888,W,1,11,1.5,16,M,,M,,*6C
06/04/2014	20:01:45.540	$GPGGA,200146,2506.8598,N,08009.4869,W,1,11,1.5,16,M,,M,,*6D
06/04/2014	20:01:46.723	$GPGGA,200147,2506.8602,N,08009.4848,W,1,11,1.5,17,M,,M,,*6E
06/04/2014	20:01:47.696	$GPGGA,200148,2506.8605,N,08009.4825,W,1,11,1.5,17,M,,M,,*6D
06/04/2014	20:01:48.718	$GPGGA,200149,2506.8606,N,08009.4806,W,1,11,1.5,17,M,,M,,*6E
06/04/2014	20:01:49.632	$GPGGA,200150,2506.8609,N,08009.4786,W,1,11,1.5,17,M,,M,,*6E
06/04/2014	20:01:50.633	$GPGGA,200151,2506.8613,N,08009.4762,W,1,11,1.5,17,M,,M,,*6E
06/04/2014	20:01:51.646	$GPGGA,200152,2506.8616,N,08009.4741,W,1,11,1.5,17,M,,M,,*69
06/04/2014	20:01:52.548	$GPGGA,200153,2506.8616,N,08009.4724,W,1,10,1.8,18,M,,M,,*68
06/04/2014	20:01:53.660	$GPGGA,200154,2506.8620,N,08009.4701,W,1,10,1.5,18,M,,M,,*60
06/04/2014	20:01:54.742	$GPGGA,200155,2506.8624,N,08009.4679,W,1,11,1.5,18,M,,M,,*6A
06/04/2014	20:01:55.645	$GPGGA,200156,2506.8626,N,08009.4660,W,1,11,1.5,18,M,,M,,*63
06/04/2014	20:01:56.727	$GPGGA,200157,2506.8627,N,08009.4640,W,1,11,1.6,18,M,,M,,*62
06/04/2014	20:01:57.670	$GPGGA,200158,2506.8631,N,08009.4617,W,1,11,1.5,18,M,,M,,*6B
06/04/2014	20:01:58.742	$GPGGA,200159,2506.8634,N,08009.4596,W,1,11,1.5,18,M,,M,,*65
06/04/2014	20:01:59.685	$GPGGA,200200,2506.8635,N,08009.4576,W,1,11,1.5,18,M,,M,,*65
06/04/2014	20:02:00.747	$GPGGA,200201,2506.8638,N,08009.4554,W,1,11,1.5,18,M,,M,,*69
06/04/2014	20:02:01.639	$GPGGA,200202,2506.8642,N,08009.4532,W,1,11,1.5,18,M,,M,,*67
06/04/2014	20:02:02.752	$GPGGA,200203,2506.8645,N,08009.4512,W,1,11,1.5,18,M,,M,,*63
06/04/2014	20:02:03.675	$GPGGA,200204,2506.8648,N,08009.4489,W,1,11,1.5,18,M,,M,,*6A
06/04/2014	20:02:04.637	$GPGGA,200205,2506.8652,N,08009.4468,W,1,11,1.5,18,M,,M,,*6F
06/04/2014	20:02:05.660	$GPGGA,200206,2506.8655,N,08009.4447,W,1,11,1.5,18,M,,M,,*66
06/04/2014	20:02:06.762	$GPGGA,200207,2506.8658,N,08009.4426,W,1,11,1.5,18,M,,M,,*6D
06/04/2014	20:02:07.685	$GPGGA,200208,2506.8662,N,08009.4405,W,1,11,1.5,18,M,,M,,*6A
06/04/2014	20:02:08.638	$GPGGA,200209,2506.8665,N,08009.4383,W,1,11,1.5,18,M,,M,,*65
06/04/2014	20:02:09.659	$GPGGA,200210,2506.8667,N,08009.4360,W,1,11,1.5,18,M,,M,,*62
06/04/2014	20:02:10.632	$GPGGA,200211,2506.8671,N,08009.4340,W,1,11,1.5,18,M,,M,,*66
06/04/2014	20:02:11.694	$GPGGA,200212,2506.8674,N,08009.4317,W,1,11,1.5,18,M,,M,,*62
06/04/2014	20:02:12.706	$GPGGA,200213,2506.8678,N,08009.4295,W,1,11,1.5,18,M,,M,,*64
06/04/2014	20:02:13.668	$GPGGA,200214,2506.8681,N,08009.4275,W,1,11,1.5,18,M,,M,,*6B
06/04/2014	20:02:14.631	$GPGGA,200215,2506.8685,N,08009.4251,W,1,11,1.5,18,M,,M,,*68
06/04/2014	20:02:15.653	$GPGGA,200216,2506.8689,N,08009.4230,W,1,11,1.5,18,M,,M,,*60
06/04/2014	20:02:16.726	$GPGGA,200217,2506.8692,N,08009.4209,W,1,11,1.5,18,M,,M,,*61
06/04/2014	20:02:17.668	$GPGGA,200218,2506.8696,N,08009.4186,W,1,11,1.5,18,M,,M,,*6E
06/04/2014	20:02:18.751	$GPGGA,200219,2506.8699,N,08009.4165,W,1,11,1.5,18,M,,M,,*6D
06/04/2014	20:02:19.694	$GPGGA,200220,2506.8702,N,08009.4144,W,1,11,1.5,18,M,,M,,*67
06/04/2014	20:02:20.696	$GPGGA,200221,2506.8706,N,08009.4121,W,1,11,1.5,18,M,,M,,*61
06/04/2014	20:02:21.759	$GPGGA,200222,2506.8710,N,08009.4099,W,1,11,1.5,18,M,,M,,*67
06/04/2014	20:02:22.641	$GPGGA,200223,2506.8713,N,08009.4077,W,1,11,1.5,18,M,,M,,*65
06/04/2014	20:02:23.704	$GPGGA,200224,2506.8716,N,08009.4056,W,1,11,1.5,18,M,,M,,*64
06/04/2014	20:02:24.776	$GPGGA,200225,2506.8720,N,08009.4033,W,1,11,1.5,18,M,,M,,*63
06/04/2014	20:02:25.679	$GPGGA,200226,2506.8723,N,08009.4011,W,1,11,1.5,18,M,,M,,*63
06/04/2014	20:02:26.771	$GPGGA,200227,2506.8727,N,08009.3990,W,1,11,1.5,18,M,,M,,*61
06/04/2014	20:02:27.693	$GPGGA,200228,2506.8732,N,08009.3968,W,1,11,1.6,18,M,,M,,*6E
06/04/2014	20:02:28.785	$GPGGA,200229,2506.8734,N,08009.3945,W,1,10,1.5,18,M,,M,,*64
06/04/2014	20:02:29.677	$GPGGA,200230,2506.8736,N,08009.3925,W,1,10,1.6,18,M,,M,,*6B
06/04/2014	20:02:30.740	$GPGGA,200231,2506.8739,N,08009.3904,W,1,10,1.8,18,M,,M,,*68
06/04/2014	20:02:31.652	$GPGGA,200232,2506.8742,N,08009.3881,W,1,10,1.8,18,M,,M,,*6B
06/04/2014	20:02:32.607	$GPGGA,200233,2506.8745,N,08009.3860,W,1,11,1.8,18,M,,M,,*63
06/04/2014	20:02:33.529	$GPGGA,200234,2506.8747,N,08009.3840,W,1,11,1.8,18,M,,M,,*64
06/04/2014	20:02:34.602	$GPGGA,200235,2506.8752,N,08009.3816,W,1,10,1.5,18,M,,M,,*6E
06/04/2014	20:02:35.615	$GPGGA,200236,2506.8754,N,08009.3793,W,1,10,1.5,18,M,,M,,*69
06/04/2014	20:02:36.657	$GPGGA,200237,2506.8757,N,08009.3778,W,1,11,1.6,18,M,,M,,*6C
06/04/2014	20:02:37.600	$GPGGA,200238,2506.8761,N,08009.3757,W,1,11,1.8,18,M,,M,,*65
06/04/2014	20:02:38.592	$GPGGA,200239,2506.8764,N,08009.3736,W,1,10,1.8,18,M,,M,,*67
06/04/2014	20:02:39.625	$GPGGA,200240,2506.8764,N,08009.3722,W,1,10,1.5,18,M,,M,,*61
06/04/2014	20:02:40.627	$GPGGA,200241,2506.8767,N,08009.3703,W,1,11,1.5,18,M,,M,,*61
06/04/2014	20:02:41.600	$GPGGA,200242,2506.8772,N,08009.3683,W,1,11,1.5,18,M,,M,,*6F
06/04/2014	20:02:42.632	$GPGGA,200243,2506.8772,N,08009.3666,W,1,11,1.8,18,M,,M,,*68
06/04/2014	20:02:43.625	$GPGGA,200244,2506.8772,N,08009.3650,W,1,11,1.6,18,M,,M,,*64
06/04/2014	20:02:44.680	$GPGGA,200245,2506.8778,N,08009.3629,W,1,10,1.5,19,M,,M,,*62
06/04/2014	20:02:45.598	$GPGGA,200246,2506.8783,N,08009.3607,W,1,10,1.5,19,M,,M,,*69
06/04/2014	20:02:46.641	$GPGGA,200247,2506.8785,N,08009.3587,W,1,11,1.5,19,M,,M,,*64
06/04/2014	20:02:47.614	$GPGGA,200248,2506.8786,N,08009.3568,W,1,11,2.4,19,M,,M,,*6B
06/04/2014	20:02:48.636	$GPGGA,200249,2506.8790,N,08009.3548,W,1,9,1.8,19,M,,M,,*59
06/04/2014	20:02:49.598	$GPGGA,200250,2506.8796,N,08009.3528,W,1,9,1.8,19,M,,M,,*51
06/04/2014	20:02:50.691	$GPGGA,200251,2506.8797,N,08009.3511,W,1,10,1.5,19,M,,M,,*6E
06/04/2014	20:02:51.624	$GPGGA,200252,2506.8797,N,08009.3511,W,1,10,1.5,19,M,,M,,*6D
06/04/2014	20:02:52.676	$GPGGA,200253,2506.8801,N,08009.3466,W,1,9,1.5,19,M,,M,,*55
06/04/2014	20:02:53.608	$GPGGA,200254,2506.8807,N,08009.3447,W,1,9,1.5,19,M,,M,,*57
06/04/2014	20:02:54.641	$GPGGA,200255,2506.8810,N,08009.3428,W,1,11,1.5,19,M,,M,,*60
06/04/2014	20:02:55.634	$GPGGA,200256,2506.8812,N,08009.3406,W,1,11,1.5,19,M,,M,,*6D
06/04/2014	20:02:56.656	$GPGGA,200257,2506.8815,N,08009.3386,W,1,11,1.5,19,M,,M,,*64
06/04/2014	20:02:57.598	$GPGGA,200258,2506.8821,N,08009.3366,W,1,11,1.5,19,M,,M,,*62
06/04/2014	20:02:58.661	$GPGGA,200259,2506.8824,N,08009.3344,W,1,11,1.5,19,M,,M,,*66
06/04/2014	20:02:59.623	$GPGGA,200300,2506.8826,N,08009.3325,W,1,11,1.5,19,M,,M,,*6E
06/04/2014	20:03:00.686	$GPGGA,200301,2506.8829,N,08009.3305,W,1,11,1.5,19,M,,M,,*62
06/04/2014	20:03:01.619	$GPGGA,200302,2506.8833,N,08009.3282,W,1,11,1.5,19,M,,M,,*64
06/04/2014	20:03:02.671	$GPGGA,200303,2506.8837,N,08009.3263,W,1,11,1.5,19,M,,M,,*6E
06/04/2014	20:03:03.624	$GPGGA,200304,2506.8839,N,08009.3242,W,1,11,1.5,19,M,,M,,*64
06/04/2014	20:03:04.735	$GPGGA,200305,2506.8843,N,08009.3219,W,1,11,1.5,19,M,,M,,*66
06/04/2014	20:03:05.607	$GPGGA,200306,2506.8848,N,08009.3198,W,1,11,1.5,19,M,,M,,*64
06/04/2014	20:03:06.640	$GPGGA,200307,2506.8848,N,08009.3198,W,1,11,1.5,19,M,,M,,*65
06/04/2014	20:03:07.632	$GPGGA,200308,2506.8851,N,08009.3157,W,1,11,1.6,19,M,,M,,*62
06/04/2014	20:03:08.685	$GPGGA,200309,2506.8858,N,08009.3134,W,1,11,1.5,19,M,,M,,*6C
06/04/2014	20:03:09.657	$GPGGA,200310,2506.8862,N,08009.3115,W,1,11,1.5,19,M,,M,,*6E
06/04/2014	20:03:10.670	$GPGGA,200311,2506.8862,N,08009.3095,W,1,11,1.6,19,M,,M,,*65
06/04/2014	20:03:11.632	$GPGGA,200312,2506.8862,N,08009.3095,W,1,11,1.6,19,M,,M,,*66
06/04/2014	20:03:12.725	$GPGGA,200313,2506.8872,N,08009.3052,W,1,11,1.5,19,M,,M,,*6E
06/04/2014	20:03:13.627	$GPGGA,200314,2506.8873,N,08009.3032,W,1,11,1.5,19,M,,M,,*6E
06/04/2014	20:03:14.640	$GPGGA,200315,2506.8873,N,08009.3032,W,1,11,1.5,19,M,,M,,*6F
06/04/2014	20:03:15.713	$GPGGA,200316,2506.8882,N,08009.2991,W,1,11,1.5,20,M,,M,,*69
06/04/2014	20:03:16.713	$GPGGA,200317,2506.8887,N,08009.2969,W,1,11,1.5,20,M,,M,,*6A
06/04/2014	20:03:17.733	$GPGGA,200318,2506.8890,N,08009.2947,W,1,11,1.5,20,M,,M,,*6F
06/04/2014	20:03:18.732	$GPGGA,200319,2506.8890,N,08009.2947,W,1,11,1.5,20,M,,M,,*6E
06/04/2014	20:03:19.794	$GPGGA,200320,2506.8898,N,08009.2907,W,1,11,1.5,20,M,,M,,*68
06/04/2014	20:03:20.792	$GPGGA,200321,2506.8898,N,08009.2907,W,1,11,1.5,20,M,,M,,*69
06/04/2014	20:03:21.802	$GPGGA,200322,2506.8902,N,08009.2865,W,1,11,1.5,20,M,,M,,*6D
06/04/2014	20:03:22.842	$GPGGA,200323,2506.8906,N,08009.2844,W,1,11,1.5,20,M,,M,,*6B
06/04/2014	20:03:23.863	$GPGGA,200324,2506.8913,N,08009.2821,W,1,11,1.5,20,M,,M,,*6B
06/04/2014	20:03:24.893	$GPGGA,200325,2506.8916,N,08009.2798,W,1,11,1.5,20,M,,M,,*62
06/04/2014	20:03:25.801	$GPGGA,200326,2506.8919,N,08009.2778,W,1,11,1.8,20,M,,M,,*6D
06/04/2014	20:03:26.923	$GPGGA,200327,2506.8923,N,08009.2759,W,1,10,1.8,20,M,,M,,*67
06/04/2014	20:03:27.933	$GPGGA,200328,2506.8927,N,08009.2735,W,1,10,1.5,20,M,,M,,*6B
06/04/2014	20:03:28.963	$GPGGA,200329,2506.8931,N,08009.2714,W,1,11,1.5,20,M,,M,,*6F
06/04/2014	20:03:29.963	$GPGGA,200330,2506.8933,N,08009.2697,W,1,11,1.5,20,M,,M,,*6F
06/04/2014	20:03:30.973	$GPGGA,200331,2506.8936,N,08009.2675,W,1,11,1.5,20,M,,M,,*67
06/04/2014	20:03:31.591	$GPGGA,200332,2506.8940,N,08009.2652,W,1,11,1.8,20,M,,M,,*6D
06/04/2014	20:03:32.603	$GPGGA,200333,2506.8945,N,08009.2635,W,1,11,1.5,20,M,,M,,*65
06/04/2014	20:03:33.603	$GPGGA,200334,2506.8948,N,08009.2615,W,1,11,1.5,20,M,,M,,*6D
06/04/2014	20:03:34.643	$GPGGA,200335,2506.8952,N,08009.2593,W,1,11,1.5,20,M,,M,,*6A
06/04/2014	20:03:35.653	$GPGGA,200336,2506.8958,N,08009.2572,W,1,11,1.5,20,M,,M,,*6C
06/04/2014	20:03:36.653	$GPGGA,200337,2506.8962,N,08009.2554,W,1,11,1.5,20,M,,M,,*60
06/04/2014	20:03:37.683	$GPGGA,200338,2506.8965,N,08009.2533,W,1,11,1.5,20,M,,M,,*69
06/04/2014	20:03:38.733	$GPGGA,200339,2506.8970,N,08009.2512,W,1,11,1.5,20,M,,M,,*6F
06/04/2014	20:03:39.732	$GPGGA,200340,2506.8974,N,08009.2494,W,1,11,1.5,20,M,,M,,*6A
06/04/2014	20:03:40.722	$GPGGA,200341,2506.8976,N,08009.2473,W,1,11,1.5,20,M,,M,,*60
06/04/2014	20:03:41.752	$GPGGA,200342,2506.8978,N,08009.2452,W,1,11,1.5,20,M,,M,,*6E
06/04/2014	20:03:42.793	$GPGGA,200343,2506.8984,N,08009.2435,W,1,10,1.6,20,M,,M,,*6F
06/04/2014	20:03:43.813	$GPGGA,200344,2506.8987,N,08009.2415,W,1,10,1.8,20,M,,M,,*67
06/04/2014	20:03:44.792	$GPGGA,200345,2506.8989,N,08009.2396,W,1,11,1.5,20,M,,M,,*68
06/04/2014	20:03:45.822	$GPGGA,200346,2506.8995,N,08009.2380,W,1,11,1.5,20,M,,M,,*61
06/04/2014	20:03:46.873	$GPGGA,200347,2506.8996,N,08009.2361,W,1,9,2.4,20,M,,M,,*57
06/04/2014	20:03:47.852	$GPGGA,200348,2506.9002,N,08009.2341,W,1,9,1.8,20,M,,M,,*50
06/04/2014	20:03:48.913	$GPGGA,200349,2506.9007,N,08009.2323,W,1,11,1.5,20,M,,M,,*64
06/04/2014	20:03:49.892	$GPGGA,200350,2506.9010,N,08009.2306,W,1,11,1.6,20,M,,M,,*6E
06/04/2014	20:03:50.943	$GPGGA,200351,2506.9012,N,08009.2285,W,1,11,1.5,20,M,,M,,*64
06/04/2014	20:03:51.943	$GPGGA,200352,2506.9017,N,08009.2268,W,1,11,1.5,20,M,,M,,*61
06/04/2014	20:03:52.973	$GPGGA,200353,2506.9023,N,08009.2250,W,1,11,1.5,20,M,,M,,*6C
06/04/2014	20:03:54.054	$GPGGA,200354,2506.9025,N,08009.2230,W,1,11,1.5,20,M,,M,,*6B
06/04/2014	20:03:55.005	$GPGGA,200355,2506.9028,N,08009.2212,W,1,11,1.5,20,M,,M,,*67
06/04/2014	20:03:56.002	$GPGGA,200356,2506.9035,N,08009.2193,W,1,11,1.5,20,M,,M,,*62
06/04/2014	20:03:57.012	$GPGGA,200357,2506.9038,N,08009.2174,W,1,11,1.5,20,M,,M,,*67
06/04/2014	20:03:58.134	$GPGGA,200358,2506.9039,N,08009.2156,W,1,11,1.5,20,M,,M,,*69
06/04/2014	20:03:59.052	$GPGGA,200359,2506.9045,N,08009.2136,W,1,10,1.6,20,M,,M,,*67
06/04/2014	20:04:00.194	$GPGGA,200400,2506.9050,N,08009.2115,W,1,10,1.5,20,M,,M,,*6A
06/04/2014	20:04:01.215	$GPGGA,200401,2506.9052,N,08009.2097,W,1,11,1.5,20,M,,M,,*63
06/04/2014	20:04:02.102	$GPGGA,200402,2506.9054,N,08009.2076,W,1,11,1.8,20,M,,M,,*64
06/04/2014	20:04:03.122	$GPGGA,200403,2506.9061,N,08009.2055,W,1,9,2.4,20,M,,M,,*54
06/04/2014	20:04:04.244	$GPGGA,200404,2506.9064,N,08009.2035,W,1,9,1.5,20,M,,M,,*52
06/04/2014	20:04:05.275	$GPGGA,200405,2506.9066,N,08009.2013,W,1,11,1.5,20,M,,M,,*6C
06/04/2014	20:04:06.182	$GPGGA,200406,2506.9071,N,08009.1992,W,1,11,1.5,20,M,,M,,*6A
06/04/2014	20:04:07.305	$GPGGA,200407,2506.9075,N,08009.1972,W,1,11,1.5,20,M,,M,,*61
06/04/2014	20:04:08.325	$GPGGA,200408,2506.9078,N,08009.1952,W,1,11,1.5,20,M,,M,,*61
06/04/2014	20:04:09.365	$GPGGA,200409,2506.9081,N,08009.1930,W,1,11,1.5,20,M,,M,,*62
06/04/2014	20:04:10.365	$GPGGA,200410,2506.9086,N,08009.1908,W,1,11,1.8,19,M,,M,,*61
06/04/2014	20:04:11.395	$GPGGA,200411,2506.9089,N,08009.1888,W,1,11,1.5,19,M,,M,,*6B
06/04/2014	20:04:12.405	$GPGGA,200412,2506.9090,N,08009.1867,W,1,11,1.5,19,M,,M,,*61
06/04/2014	20:04:13.395	$GPGGA,200413,2506.9093,N,08009.1845,W,1,11,1.5,19,M,,M,,*63
06/04/2014	20:04:14.424	$GPGGA,200414,2506.9099,N,08009.1826,W,1,11,1.5,19,M,,M,,*6B
06/04/2014	20:04:15.464	$GPGGA,200415,2506.9101,N,08009.1804,W,1,11,1.5,19,M,,M,,*6A
06/04/2014	20:04:16.474	$GPGGA,200416,2506.9104,N,08009.1783,W,1,11,1.5,19,M,,M,,*6C
06/04/2014	20:04:17.382	$GPGGA,200417,2506.9108,N,08009.1764,W,1,10,1.8,19,M,,M,,*64
06/04/2014	20:04:18.494	$GPGGA,200418,2506.9108,N,08009.1744,W,1,10,2.4,19,M,,M,,*66
06/04/2014	20:04:19.535	$GPGGA,200419,2506.9111,N,08009.1723,W,1,11,1.5,19,M,,M,,*6D
06/04/2014	20:04:20.534	$GPGGA,200420,2506.9115,N,08009.1703,W,1,11,1.5,19,M,,M,,*61
06/04/2014	20:04:21.575	$GPGGA,200421,2506.9115,N,08009.1682,W,1,10,1.8,19,M,,M,,*64
06/04/2014	20:04:22.554	$GPGGA,200422,2506.9121,N,08009.1661,W,1,10,1.8,19,M,,M,,*6D
06/04/2014	20:04:23.574	$GPGGA,200423,2506.9126,N,08009.1639,W,1,10,1.8,19,M,,M,,*66
06/04/2014	20:04:24.604	$GPGGA,200424,2506.9126,N,08009.1618,W,1,10,1.5,19,M,,M,,*6F
06/04/2014	20:04:25.645	$GPGGA,200425,2506.9129,N,08009.1597,W,1,10,1.8,19,M,,M,,*68
06/04/2014	20:04:26.645	$GPGGA,200426,2506.9133,N,08009.1574,W,1,10,2.6,18,M,,M,,*61
06/04/2014	20:04:27.644	$GPGGA,200427,2506.9136,N,08009.1556,W,1,11,1.5,18,M,,M,,*64
06/04/2014	20:04:28.675	$GPGGA,200428,2506.9135,N,08009.1533,W,1,11,1.8,18,M,,M,,*66
06/04/2014	20:04:29.725	$GPGGA,200429,2506.9140,N,08009.1513,W,1,11,1.5,18,M,,M,,*6A
06/04/2014	20:04:30.705	$GPGGA,200430,2506.9144,N,08009.1496,W,1,11,1.5,18,M,,M,,*6A
06/04/2014	20:04:31.754	$GPGGA,200431,2506.9146,N,08009.1473,W,1,10,1.8,18,M,,M,,*6E
06/04/2014	20:04:32.744	$GPGGA,200432,2506.9151,N,08009.1453,W,1,10,1.5,18,M,,M,,*64
06/04/2014	20:04:32.570	$GPGGA,200433,2506.9155,N,08009.1438,W,1,11,1.5,18,M,,M,,*6D
06/04/2014	20:04:33.571	$GPGGA,200434,2506.9158,N,08009.1417,W,1,11,1.5,18,M,,M,,*6A
06/04/2014	20:04:34.631	$GPGGA,200435,2506.9162,N,08009.1396,W,1,11,1.5,18,M,,M,,*6C
06/04/2014	20:04:35.630	$GPGGA,200436,2506.9166,N,08009.1378,W,1,11,1.5,18,M,,M,,*6B
06/04/2014	20:04:36.620	$GPGGA,200437,2506.9169,N,08009.1359,W,1,11,1.5,18,M,,M,,*66
06/04/2014	20:04:37.671	$GPGGA,200438,2506.9173,N,08009.1339,W,1,11,1.5,18,M,,M,,*64
06/04/2014	20:04:38.681	$GPGGA,200439,2506.9178,N,08009.1318,W,1,11,1.5,18,M,,M,,*6D
06/04/2014	20:04:39.690	$GPGGA,200440,2506.9183,N,08009.1299,W,1,11,1.5,18,M,,M,,*6F
06/04/2014	20:04:40.741	$GPGGA,200441,2506.9184,N,08009.1280,W,1,11,1.5,18,M,,M,,*61
06/04/2014	20:04:41.812	$GPGGA,200442,2506.9187,N,08009.1258,W,1,11,1.5,18,M,,M,,*64
06/04/2014	20:04:42.832	$GPGGA,200443,2506.9194,N,08009.1238,W,1,11,1.5,18,M,,M,,*61
06/04/2014	20:04:43.781	$GPGGA,200444,2506.9198,N,08009.1220,W,1,11,1.5,18,M,,M,,*63
06/04/2014	20:04:44.893	$GPGGA,200445,2506.9202,N,08009.1199,W,1,11,1.5,18,M,,M,,*63
06/04/2014	20:04:45.893	$GPGGA,200446,2506.9207,N,08009.1178,W,1,11,1.5,18,M,,M,,*6A
06/04/2014	20:04:46.831	$GPGGA,200447,2506.9212,N,08009.1160,W,1,10,1.5,18,M,,M,,*67
06/04/2014	20:04:47.892	$GPGGA,200448,2506.9215,N,08009.1139,W,1,10,1.5,18,M,,M,,*63
06/04/2014	20:04:48.870	$GPGGA,200449,2506.9219,N,08009.1117,W,1,10,1.5,18,M,,M,,*62
06/04/2014	20:04:49.860	$GPGGA,200450,2506.9223,N,08009.1098,W,1,10,1.5,18,M,,M,,*65
06/04/2014	20:04:50.982	$GPGGA,200451,2506.9226,N,08009.1078,W,1,10,1.5,18,M,,M,,*6F
06/04/2014	20:04:51.931	$GPGGA,200452,2506.9230,N,08009.1056,W,1,10,1.5,18,M,,M,,*67
06/04/2014	20:04:53.032	$GPGGA,200453,2506.9236,N,08009.1037,W,1,10,1.5,18,M,,M,,*67
06/04/2014	20:04:53.940	$GPGGA,200454,2506.9240,N,08009.1017,W,1,10,1.5,18,M,,M,,*63
06/04/2014	20:04:55.042	$GPGGA,200455,2506.9244,N,08009.0995,W,1,10,1.5,18,M,,M,,*64
06/04/2014	20:04:56.082	$GPGGA,200456,2506.9249,N,08009.0974,W,1,10,1.5,18,M,,M,,*65
06/04/2014	20:04:57.092	$GPGGA,200457,2506.9252,N,08009.0954,W,1,10,1.5,18,M,,M,,*6C
06/04/2014	20:04:58.133	$GPGGA,200458,2506.9256,N,08009.0932,W,1,10,1.5,18,M,,M,,*67
06/04/2014	20:04:59.143	$GPGGA,200459,2506.9259,N,08009.0911,W,1,10,1.5,18,M,,M,,*68
06/04/2014	20:05:00.163	$GPGGA,200500,2506.9263,N,08009.0891,W,1,10,1.5,18,M,,M,,*65
06/04/2014	20:05:01.203	$GPGGA,200501,2506.9266,N,08009.0871,W,1,10,1.5,18,M,,M,,*6F
06/04/2014	20:05:02.172	$GPGGA,200502,2506.9269,N,08009.0848,W,1,10,1.6,18,M,,M,,*6A
06/04/2014	20:05:03.244	$GPGGA,200503,2506.9274,N,08009.0827,W,1,10,1.5,18,M,,M,,*6D
06/04/2014	20:05:04.223	$GPGGA,200504,2506.9277,N,08009.0810,W,1,10,1.5,18,M,,M,,*6D
06/04/2014	20:05:05.253	$GPGGA,200505,2506.9280,N,08009.0787,W,1,9,1.8,18,M,,M,,*50
06/04/2014	20:05:06.252	$GPGGA,200506,2506.9285,N,08009.0768,W,1,9,1.5,18,M,,M,,*5A
06/04/2014	20:05:07.272	$GPGGA,200507,2506.9288,N,08009.0750,W,1,10,1.8,18,M,,M,,*68
06/04/2014	20:05:08.302	$GPGGA,200508,2506.9288,N,08009.0728,W,1,10,1.8,18,M,,M,,*68
06/04/2014	20:05:09.322	$GPGGA,200509,2506.9292,N,08009.0707,W,1,8,2.4,18,M,,M,,*59
06/04/2014	20:05:10.322	$GPGGA,200510,2506.9296,N,08009.0691,W,1,8,1.5,18,M,,M,,*59
06/04/2014	20:05:11.363	$GPGGA,200511,2506.9298,N,08009.0672,W,1,10,1.5,18,M,,M,,*62
06/04/2014	20:05:12.383	$GPGGA,200512,2506.9299,N,08009.0653,W,1,10,1.8,18,M,,M,,*6E
06/04/2014	20:05:13.372	$GPGGA,200513,2506.9306,N,08009.0635,W,1,10,1.5,18,M,,M,,*65
06/04/2014	20:05:14.402	$GPGGA,200514,2506.9310,N,08009.0614,W,1,10,1.5,18,M,,M,,*66
06/04/2014	20:05:15.404	$GPGGA,200515,2506.9312,N,08009.0592,W,1,10,1.5,18,M,,M,,*68
06/04/2014	20:05:16.443	$GPGGA,200516,2506.9317,N,08009.0574,W,1,10,1.6,18,M,,M,,*65
06/04/2014	20:05:17.473	$GPGGA,200517,2506.9321,N,08009.0553,W,1,8,2.4,18,M,,M,,*5C
06/04/2014	20:05:18.473	$GPGGA,200518,2506.9324,N,08009.0534,W,1,8,1.5,18,M,,M,,*55
06/04/2014	20:05:19.472	$GPGGA,200519,2506.9328,N,08009.0518,W,1,10,1.5,18,M,,M,,*6F
06/04/2014	20:05:20.504	$GPGGA,200520,2506.9330,N,08009.0497,W,1,10,1.6,18,M,,M,,*69
06/04/2014	20:05:21.543	$GPGGA,200521,2506.9332,N,08009.0478,W,1,10,1.5,18,M,,M,,*68
06/04/2014	20:05:22.533	$GPGGA,200522,2506.9337,N,08009.0460,W,1,10,1.5,19,M,,M,,*66
06/04/2014	20:05:23.567	$GPGGA,200523,2506.9341,N,08009.0440,W,1,8,2.4,19,M,,M,,*5F
06/04/2014	20:05:24.592	$GPGGA,200524,2506.9343,N,08009.0421,W,1,8,1.5,19,M,,M,,*5F
06/04/2014	20:05:25.622	$GPGGA,200525,2506.9346,N,08009.0401,W,1,10,1.5,19,M,,M,,*60
06/04/2014	20:05:26.613	$GPGGA,200526,2506.9350,N,08009.0383,W,1,10,2.4,19,M,,M,,*6B
06/04/2014	20:05:27.734	$GPGGA,200527,2506.9353,N,08009.0362,W,1,10,1.5,19,M,,M,,*64
06/04/2014	20:05:28.662	$GPGGA,200528,2506.9356,N,08009.0344,W,1,10,1.5,19,M,,M,,*6A
06/04/2014	20:05:29.652	$GPGGA,200529,2506.9357,N,08009.0324,W,1,10,1.5,19,M,,M,,*6C
06/04/2014	20:05:30.692	$GPGGA,200530,2506.9361,N,08009.0303,W,1,10,1.6,19,M,,M,,*67
06/04/2014	20:05:31.794	$GPGGA,200531,2506.9366,N,08009.0283,W,1,10,1.5,20,M,,M,,*61
06/04/2014	20:05:32.733	$GPGGA,200532,2506.9368,N,08009.0261,W,1,10,1.5,20,M,,M,,*60
06/04/2014	20:05:32.538	$GPGGA,200533,2506.9371,N,08009.0240,W,1,10,1.5,20,M,,M,,*6A
06/04/2014	20:05:33.649	$GPGGA,200534,2506.9374,N,08009.0219,W,1,10,1.5,20,M,,M,,*64
06/04/2014	20:05:34.700	$GPGGA,200535,2506.9377,N,08009.0198,W,1,10,1.5,20,M,,M,,*6C
06/04/2014	20:05:35.608	$GPGGA,200536,2506.9379,N,08009.0176,W,1,10,1.5,20,M,,M,,*61
06/04/2014	20:05:36.608	$GPGGA,200537,2506.9382,N,08009.0154,W,1,10,1.5,20,M,,M,,*64
06/04/2014	20:05:37.721	$GPGGA,200538,2506.9386,N,08009.0132,W,1,10,1.5,20,M,,M,,*6F
06/04/2014	20:05:38.760	$GPGGA,200539,2506.9389,N,08009.0111,W,1,10,1.5,20,M,,M,,*60
06/04/2014	20:05:39.780	$GPGGA,200540,2506.9393,N,08009.0089,W,1,10,1.5,20,M,,M,,*65
06/04/2014	20:05:40.789	$GPGGA,200541,2506.9397,N,08009.0067,W,1,9,1.6,20,M,,M,,*5B
06/04/2014	20:05:41.789	$GPGGA,200542,2506.9400,N,08009.0044,W,1,9,1.5,20,M,,M,,*53
06/04/2014	20:05:42.809	$GPGGA,200543,2506.9403,N,08009.0023,W,1,10,1.5,20,M,,M,,*68
06/04/2014	20:05:43.747	$GPGGA,200544,2506.9404,N,08009.0002,W,1,10,1.6,20,M,,M,,*68
06/04/2014	20:05:44.859	$GPGGA,200545,2506.9410,N,08008.9978,W,1,8,2.4,20,M,,M,,*58
06/04/2014	20:05:45.849	$GPGGA,200546,2506.9413,N,08008.9956,W,1,8,1.5,20,M,,M,,*56
06/04/2014	20:05:46.910	$GPGGA,200547,2506.9414,N,08008.9936,W,1,10,1.5,20,M,,M,,*6F
06/04/2014	20:05:47.909	$GPGGA,200548,2506.9415,N,08008.9916,W,1,10,1.8,20,M,,M,,*6E
06/04/2014	20:05:48.919	$GPGGA,200549,2506.9421,N,08008.9894,W,1,9,1.8,20,M,,M,,*5B
06/04/2014	20:05:49.827	$GPGGA,200550,2506.9422,N,08008.9872,W,1,9,1.8,20,M,,M,,*58
06/04/2014	20:05:50.857	$GPGGA,200551,2506.9422,N,08008.9850,W,1,10,1.5,20,M,,M,,*6C
06/04/2014	20:05:51.990	$GPGGA,200552,2506.9426,N,08008.9829,W,1,10,1.8,20,M,,M,,*68
06/04/2014	20:05:52.989	$GPGGA,200553,2506.9431,N,08008.9807,W,1,10,1.5,20,M,,M,,*6E
06/04/2014	20:05:54.010	$GPGGA,200554,2506.9433,N,08008.9786,W,1,10,1.5,21,M,,M,,*6C
06/04/2014	20:05:54.928	$GPGGA,200555,2506.9436,N,08008.9765,W,1,10,1.5,21,M,,M,,*65
06/04/2014	20:05:56.050	$GPGGA,200556,2506.9440,N,08008.9742,W,1,10,1.6,21,M,,M,,*61
06/04/2014	20:05:57.070	$GPGGA,200557,2506.9444,N,08008.9722,W,1,10,1.5,21,M,,M,,*61
06/04/2014	20:05:58.080	$GPGGA,200558,2506.9446,N,08008.9699,W,1,10,1.5,21,M,,M,,*6D
06/04/2014	20:05:59.119	$GPGGA,200559,2506.9449,N,08008.9677,W,1,10,1.5,21,M,,M,,*63
06/04/2014	20:06:00.139	$GPGGA,200600,2506.9453,N,08008.9658,W,1,10,1.5,21,M,,M,,*6A
06/04/2014	20:06:01.149	$GPGGA,200601,2506.9455,N,08008.9635,W,1,10,1.5,21,M,,M,,*66
06/04/2014	20:06:02.141	$GPGGA,200602,2506.9458,N,08008.9614,W,1,10,1.5,21,M,,M,,*6B
06/04/2014	20:06:03.169	$GPGGA,200603,2506.9460,N,08008.9594,W,1,10,1.5,21,M,,M,,*6A
06/04/2014	20:06:04.199	$GPGGA,200604,2506.9465,N,08008.9570,W,1,10,1.8,21,M,,M,,*6F
06/04/2014	20:06:05.230	$GPGGA,200605,2506.9469,N,08008.9548,W,1,10,1.5,21,M,,M,,*64
06/04/2014	20:06:06.219	$GPGGA,200606,2506.9472,N,08008.9528,W,1,10,1.5,21,M,,M,,*6B
06/04/2014	20:06:07.239	$GPGGA,200607,2506.9473,N,08008.9507,W,1,10,1.5,21,M,,M,,*66
06/04/2014	20:06:08.270	$GPGGA,200608,2506.9479,N,08008.9485,W,1,10,1.5,21,M,,M,,*68
06/04/2014	20:06:09.300	$GPGGA,200609,2506.9483,N,08008.9464,W,1,10,1.5,21,M,,M,,*63
06/04/2014	20:06:10.300	$GPGGA,200610,2506.9483,N,08008.9444,W,1,10,1.5,21,M,,M,,*69
06/04/2014	20:06:11.340	$GPGGA,200611,2506.9487,N,08008.9421,W,1,10,1.5,21,M,,M,,*6F
06/04/2014	20:06:12.351	$GPGGA,200612,2506.9491,N,08008.9398,W,1,10,1.5,21,M,,M,,*6E
06/04/2014	20:06:13.380	$GPGGA,200613,2506.9494,N,08008.9379,W,1,10,1.5,21,M,,M,,*65
06/04/2014	20:06:14.380	$GPGGA,200614,2506.9497,N,08008.9358,W,1,10,1.5,21,M,,M,,*62
06/04/2014	20:06:15.410	$GPGGA,200615,2506.9502,N,08008.9334,W,1,10,1.5,21,M,,M,,*64
06/04/2014	20:06:16.399	$GPGGA,200616,2506.9507,N,08008.9314,W,1,10,1.5,21,M,,M,,*60
06/04/2014	20:06:17.439	$GPGGA,200617,2506.9508,N,08008.9293,W,1,10,1.5,21,M,,M,,*60
06/04/2014	20:06:18.439	$GPGGA,200618,2506.9509,N,08008.9271,W,1,10,1.5,21,M,,M,,*62
06/04/2014	20:06:19.459	$GPGGA,200619,2506.9516,N,08008.9249,W,1,10,1.5,21,M,,M,,*66
06/04/2014	20:06:20.489	$GPGGA,200620,2506.9519,N,08008.9227,W,1,10,1.5,21,M,,M,,*6B
06/04/2014	20:06:21.489	$GPGGA,200621,2506.9520,N,08008.9205,W,1,10,1.5,21,M,,M,,*60
06/04/2014	20:06:22.499	$GPGGA,200622,2506.9525,N,08008.9183,W,1,10,1.5,21,M,,M,,*6B
06/04/2014	20:06:23.539	$GPGGA,200623,2506.9529,N,08008.9164,W,1,9,1.6,21,M,,M,,*54
06/04/2014	20:06:24.539	$GPGGA,200624,2506.9530,N,08008.9139,W,1,9,1.5,21,M,,M,,*50
06/04/2014	20:06:25.692	$GPGGA,200625,2506.9536,N,08008.9120,W,1,10,1.7,21,M,,M,,*65
06/04/2014	20:06:26.570	$GPGGA,200626,2506.9540,N,08008.9102,W,1,10,1.7,21,M,,M,,*67
06/04/2014	20:06:27.712	$GPGGA,200627,2506.9541,N,08008.9079,W,1,10,1.5,21,M,,M,,*68
06/04/2014	20:06:28.620	$GPGGA,200628,2506.9545,N,08008.9060,W,1,10,1.5,21,M,,M,,*6B
06/04/2014	20:06:29.731	$GPGGA,200629,2506.9551,N,08008.9042,W,1,10,1.5,21,M,,M,,*6F
06/04/2014	20:06:30.752	$GPGGA,200630,2506.9555,N,08008.9020,W,1,10,1.5,21,M,,M,,*67
06/04/2014	20:06:31.792	$GPGGA,200631,2506.9559,N,08008.9000,W,1,10,1.5,21,M,,M,,*68
06/04/2014	20:06:31.607	$GPGGA,200632,2506.9562,N,08008.8982,W,1,10,1.5,21,M,,M,,*61
06/04/2014	20:06:32.505	$GPGGA,200633,2506.9566,N,08008.8960,W,1,10,1.5,21,M,,M,,*68
06/04/2014	20:06:33.616	$GPGGA,200634,2506.9573,N,08008.8939,W,1,10,1.5,21,M,,M,,*67
06/04/2014	20:06:34.636	$GPGGA,200635,2506.9576,N,08008.8921,W,1,10,1.5,21,M,,M,,*6A
06/04/2014	20:06:35.687	$GPGGA,200636,2506.9579,N,08008.8900,W,1,10,1.5,21,M,,M,,*65
06/04/2014	20:06:36.696	$GPGGA,200637,2506.9584,N,08008.8878,W,1,10,1.5,20,M,,M,,*69
06/04/2014	20:06:37.686	$GPGGA,200638,2506.9590,N,08008.8859,W,1,10,1.5,20,M,,M,,*60
06/04/2014	20:06:38.726	$GPGGA,200639,2506.9592,N,08008.8838,W,1,10,1.6,20,M,,M,,*67
06/04/2014	20:06:39.747	$GPGGA,200640,2506.9595,N,08008.8817,W,1,10,1.6,20,M,,M,,*63
06/04/2014	20:06:40.787	$GPGGA,200641,2506.9603,N,08008.8796,W,1,9,1.5,20,M,,M,,*53
06/04/2014	20:06:41.756	$GPGGA,200642,2506.9606,N,08008.8776,W,1,9,1.5,20,M,,M,,*5B
06/04/2014	20:06:42.797	$GPGGA,200643,2506.9606,N,08008.8756,W,1,10,1.6,20,M,,M,,*63
06/04/2014	20:06:43.827	$GPGGA,200644,2506.9612,N,08008.8735,W,1,10,1.5,20,M,,M,,*67
06/04/2014	20:06:44.837	$GPGGA,200645,2506.9619,N,08008.8714,W,1,10,1.5,20,M,,M,,*6E
06/04/2014	20:06:45.837	$GPGGA,200646,2506.9621,N,08008.8691,W,1,10,1.5,20,M,,M,,*6A
06/04/2014	20:06:46.857	$GPGGA,200647,2506.9624,N,08008.8672,W,1,10,1.6,20,M,,M,,*60
06/04/2014	20:06:47.887	$GPGGA,200648,2506.9628,N,08008.8653,W,1,10,1.8,20,M,,M,,*6E
06/04/2014	20:06:48.881	$GPGGA,200649,2506.9634,N,08008.8631,W,1,9,1.5,20,M,,M,,*53
06/04/2014	20:06:49.897	$GPGGA,200650,2506.9635,N,08008.8612,W,1,9,1.5,20,M,,M,,*5B
06/04/2014	20:06:50.946	$GPGGA,200651,2506.9635,N,08008.8593,W,1,10,2.3,20,M,,M,,*6D
06/04/2014	20:06:51.956	$GPGGA,200652,2506.9639,N,08008.8573,W,1,10,1.8,20,M,,M,,*64
06/04/2014	20:06:52.986	$GPGGA,200653,2506.9643,N,08008.8553,W,1,9,1.8,20,M,,M,,*52
06/04/2014	20:06:53.977	$GPGGA,200654,2506.9645,N,08008.8534,W,1,9,1.5,20,M,,M,,*5F
06/04/2014	20:06:55.006	$GPGGA,200655,2506.9643,N,08008.8515,W,1,10,1.5,20,M,,M,,*63
06/04/2014	20:06:56.047	$GPGGA,200656,2506.9649,N,08008.8494,W,1,10,1.6,20,M,,M,,*61
06/04/2014	20:06:57.026	$GPGGA,200657,2506.9653,N,08008.8471,W,1,9,1.5,20,M,,M,,*5B
06/04/2014	20:06:58.046	$GPGGA,200658,2506.9652,N,08008.8452,W,1,9,1.6,20,M,,M,,*57
06/04/2014	20:06:59.076	$GPGGA,200659,2506.9653,N,08008.8432,W,1,9,1.6,20,M,,M,,*51
06/04/2014	20:07:00.107	$GPGGA,200700,2506.9660,N,08008.8410,W,1,9,1.5,20,M,,M,,*5F
06/04/2014	20:07:01.096	$GPGGA,200701,2506.9661,N,08008.8388,W,1,10,1.5,20,M,,M,,*61
06/04/2014	20:07:02.116	$GPGGA,200702,2506.9660,N,08008.8371,W,1,10,1.5,20,M,,M,,*65
06/04/2014	20:07:03.147	$GPGGA,200703,2506.9663,N,08008.8350,W,1,10,1.5,20,M,,M,,*64
06/04/2014	20:07:04.167	$GPGGA,200704,2506.9666,N,08008.8327,W,1,10,1.5,20,M,,M,,*66
06/04/2014	20:07:05.177	$GPGGA,200705,2506.9665,N,08008.8309,W,1,10,1.5,21,M,,M,,*69
06/04/2014	20:07:06.217	$GPGGA,200706,2506.9667,N,08008.8289,W,1,10,1.5,21,M,,M,,*61
06/04/2014	20:07:07.227	$GPGGA,200707,2506.9670,N,08008.8267,W,1,10,1.5,21,M,,M,,*66
06/04/2014	20:07:08.359	$GPGGA,200708,2506.9674,N,08008.8247,W,1,10,1.5,21,M,,M,,*6F
06/04/2014	20:07:09.369	$GPGGA,200709,2506.9675,N,08008.8226,W,1,10,1.5,21,M,,M,,*68
06/04/2014	20:07:10.276	$GPGGA,200710,2506.9677,N,08008.8205,W,1,10,1.5,21,M,,M,,*63
06/04/2014	20:07:11.276	$GPGGA,200711,2506.9679,N,08008.8186,W,1,10,1.6,21,M,,M,,*67
06/04/2014	20:07:12.316	$GPGGA,200712,2506.9682,N,08008.8165,W,1,10,2.0,21,M,,M,,*68
06/04/2014	20:07:13.326	$GPGGA,200713,2506.9684,N,08008.8144,W,1,9,1.8,21,M,,M,,*5F
06/04/2014	20:07:14.326	$GPGGA,200714,2506.9685,N,08008.8122,W,1,9,1.8,21,M,,M,,*59
06/04/2014	20:07:15.438	$GPGGA,200715,2506.9688,N,08008.8098,W,1,9,1.5,21,M,,M,,*58
06/04/2014	20:07:16.407	$GPGGA,200716,2506.9691,N,08008.8074,W,1,9,1.5,21,M,,M,,*51
06/04/2014	20:07:17.407	$GPGGA,200717,2506.9693,N,08008.8053,W,1,10,1.5,21,M,,M,,*6F
06/04/2014	20:07:18.406	$GPGGA,200718,2506.9696,N,08008.8033,W,1,10,1.8,21,M,,M,,*6E
06/04/2014	20:07:19.437	$GPGGA,200719,2506.9697,N,08008.8009,W,1,9,1.5,21,M,,M,,*52
06/04/2014	20:07:20.477	$GPGGA,200720,2506.9700,N,08008.7988,W,1,9,1.5,21,M,,M,,*58
06/04/2014	20:07:21.558	$GPGGA,200721,2506.9704,N,08008.7970,W,1,10,1.5,21,M,,M,,*62
06/04/2014	20:07:22.487	$GPGGA,200722,2506.9706,N,08008.7948,W,1,10,1.5,21,M,,M,,*68
06/04/2014	20:07:23.507	$GPGGA,200723,2506.9708,N,08008.7926,W,1,10,1.6,21,M,,M,,*6C
06/04/2014	20:07:24.619	$GPGGA,200724,2506.9713,N,08008.7907,W,1,10,1.6,21,M,,M,,*62
06/04/2014	20:07:25.618	$GPGGA,200725,2506.9715,N,08008.7886,W,1,10,1.5,21,M,,M,,*6E
06/04/2014	20:07:26.648	$GPGGA,200726,2506.9718,N,08008.7864,W,1,10,1.5,21,M,,M,,*6C
06/04/2014	20:07:27.658	$GPGGA,200727,2506.9722,N,08008.7843,W,1,10,1.5,21,M,,M,,*61
06/04/2014	20:07:28.698	$GPGGA,200728,2506.9725,N,08008.7822,W,1,10,1.5,21,M,,M,,*6E
06/04/2014	20:07:29.708	$GPGGA,200729,2506.9728,N,08008.7802,W,1,10,1.5,21,M,,M,,*60
06/04/2014	20:07:30.728	$GPGGA,200730,2506.9732,N,08008.7779,W,1,10,1.5,21,M,,M,,*60
06/04/2014	20:07:31.748	$GPGGA,200731,2506.9738,N,08008.7759,W,1,10,1.5,21,M,,M,,*69
06/04/2014	20:07:32.758	$GPGGA,200732,2506.9740,N,08008.7738,W,1,10,1.5,21,M,,M,,*62
06/04/2014	20:07:32.564	$GPGGA,200733,2506.9742,N,08008.7717,W,1,10,1.5,21,M,,M,,*6C
06/04/2014	20:07:33.594	$GPGGA,200734,2506.9747,N,08008.7697,W,1,10,1.5,21,M,,M,,*67
06/04/2014	20:07:34.614	$GPGGA,200735,2506.9751,N,08008.7675,W,1,10,1.5,21,M,,M,,*6D
06/04/2014	20:07:35.635	$GPGGA,200736,2506.9754,N,08008.7654,W,1,10,1.5,21,M,,M,,*68
06/04/2014	20:07:36.675	$GPGGA,200737,2506.9758,N,08008.7633,W,1,10,1.5,21,M,,M,,*64
06/04/2014	20:07:37.654	$GPGGA,200738,2506.9765,N,08008.7611,W,1,10,1.5,21,M,,M,,*65
06/04/2014	20:07:38.705	$GPGGA,200739,2506.9769,N,08008.7590,W,1,10,1.5,21,M,,M,,*62
06/04/2014	20:07:39.715	$GPGGA,200740,2506.9772,N,08008.7568,W,1,10,1.5,21,M,,M,,*61
06/04/2014	20:07:40.706	$GPGGA,200741,2506.9776,N,08008.7546,W,1,9,1.8,21,M,,M,,*5D
06/04/2014	20:07:41.735	$GPGGA,200742,2506.9782,N,08008.7524,W,1,9,1.5,21,M,,M,,*5C
06/04/2014	20:07:42.765	$GPGGA,200743,2506.9785,N,08008.7503,W,1,9,1.8,21,M,,M,,*52
06/04/2014	20:07:43.784	$GPGGA,200744,2506.9789,N,08008.7480,W,1,9,1.5,21,M,,M,,*5E
06/04/2014	20:07:44.804	$GPGGA,200745,2506.9794,N,08008.7457,W,1,9,1.8,21,M,,M,,*54
06/04/2014	20:07:45.804	$GPGGA,200746,2506.9798,N,08008.7434,W,1,9,1.8,21,M,,M,,*5E
06/04/2014	20:07:46.844	$GPGGA,200747,2506.9801,N,08008.7412,W,1,9,1.8,21,M,,M,,*54
06/04/2014	20:07:47.844	$GPGGA,200748,2506.9805,N,08008.7388,W,1,9,1.8,21,M,,M,,*5B
06/04/2014	20:07:48.854	$GPGGA,200749,2506.9812,N,08008.7365,W,1,9,1.8,21,M,,M,,*5F
06/04/2014	20:07:49.874	$GPGGA,200750,2506.9816,N,08008.7342,W,1,9,1.8,21,M,,M,,*56
06/04/2014	20:07:50.915	$GPGGA,200751,2506.9820,N,08008.7318,W,1,9,1.8,21,M,,M,,*5D
06/04/2014	20:07:51.924	$GPGGA,200752,2506.9825,N,08008.7296,W,1,9,1.8,21,M,,M,,*5C
06/04/2014	20:07:52.924	$GPGGA,200753,2506.9830,N,08008.7274,W,1,9,1.8,21,M,,M,,*55
06/04/2014	20:07:53.954	$GPGGA,200754,2506.9834,N,08008.7251,W,1,9,1.8,21,M,,M,,*51
06/04/2014	20:07:54.985	$GPGGA,200755,2506.9837,N,08008.7228,W,1,9,1.8,21,M,,M,,*5D
06/04/2014	20:07:55.995	$GPGGA,200756,2506.9840,N,08008.7208,W,1,9,1.8,20,M,,M,,*5D
06/04/2014	20:07:57.025	$GPGGA,200757,2506.9845,N,08008.7187,W,1,9,1.8,20,M,,M,,*5D
06/04/2014	20:07:58.025	$GPGGA,200758,2506.9848,N,08008.7162,W,1,9,1.8,20,M,,M,,*54
06/04/2014	20:07:59.055	$GPGGA,200759,2506.9852,N,08008.7142,W,1,9,1.8,20,M,,M,,*5C
06/04/2014	20:08:00.085	$GPGGA,200800,2506.9856,N,08008.7122,W,1,9,1.8,20,M,,M,,*5D
06/04/2014	20:08:01.196	$GPGGA,200801,2506.9861,N,08008.7098,W,1,8,2.3,20,M,,M,,*51
06/04/2014	20:08:02.094	$GPGGA,200802,2506.9865,N,08008.7076,W,1,8,1.8,20,M,,M,,*5E
06/04/2014	20:08:03.114	$GPGGA,200803,2506.9870,N,08008.7056,W,1,9,1.8,20,M,,M,,*58
06/04/2014	20:08:04.134	$GPGGA,200804,2506.9872,N,08008.7035,W,1,9,1.8,20,M,,M,,*58
06/04/2014	20:08:05.145	$GPGGA,200805,2506.9874,N,08008.7015,W,1,8,2.3,19,M,,M,,*5E
06/04/2014	20:08:06.144	$GPGGA,200806,2506.9879,N,08008.6995,W,1,8,2.3,19,M,,M,,*50
06/04/2014	20:08:07.296	$GPGGA,200807,2506.9881,N,08008.6974,W,1,8,2.3,19,M,,M,,*59
06/04/2014	20:08:08.214	$GPGGA,200808,2506.9884,N,08008.6954,W,1,8,1.8,19,M,,M,,*59
06/04/2014	20:08:09.214	$GPGGA,200809,2506.9888,N,08008.6934,W,1,9,1.8,19,M,,M,,*53
06/04/2014	20:08:10.224	$GPGGA,200810,2506.9891,N,08008.6912,W,1,9,1.8,19,M,,M,,*57
06/04/2014	20:08:11.397	$GPGGA,200811,2506.9894,N,08008.6892,W,1,8,2.3,19,M,,M,,*53
06/04/2014	20:08:12.274	$GPGGA,200812,2506.9895,N,08008.6875,W,1,8,1.8,19,M,,M,,*50
06/04/2014	20:08:13.386	$GPGGA,200813,2506.9899,N,08008.6853,W,1,9,1.8,19,M,,M,,*58
06/04/2014	20:08:14.406	$GPGGA,200814,2506.9901,N,08008.6832,W,1,9,1.8,19,M,,M,,*58
06/04/2014	20:08:15.427	$GPGGA,200815,2506.9903,N,08008.6813,W,1,9,2.0,19,M,,M,,*53
06/04/2014	20:08:16.457	$GPGGA,200816,2506.9906,N,08008.6788,W,1,9,2.3,19,M,,M,,*5B
06/04/2014	20:08:17.462	$GPGGA,200817,2506.9910,N,08008.6766,W,1,9,1.8,19,M,,M,,*55
06/04/2014	20:08:18.461	$GPGGA,200818,2506.9913,N,08008.6747,W,1,9,1.8,19,M,,M,,*5A
06/04/2014	20:08:19.469	$GPGGA,200819,2506.9915,N,08008.6727,W,1,9,1.8,19,M,,M,,*5B
06/04/2014	20:08:20.487	$GPGGA,200820,2506.9917,N,08008.6706,W,1,9,1.8,19,M,,M,,*50
06/04/2014	20:08:21.496	$GPGGA,200821,2506.9921,N,08008.6687,W,1,9,2.0,19,M,,M,,*57
06/04/2014	20:08:22.495	$GPGGA,200822,2506.9923,N,08008.6666,W,1,9,1.8,19,M,,M,,*52
06/04/2014	20:08:23.514	$GPGGA,200823,2506.9924,N,08008.6644,W,1,9,1.8,19,M,,M,,*54
06/04/2014	20:08:24.513	$GPGGA,200824,2506.9926,N,08008.6626,W,1,9,2.3,18,M,,M,,*5C
06/04/2014	20:08:25.521	$GPGGA,200825,2506.9931,N,08008.6604,W,1,9,1.8,19,M,,M,,*52
06/04/2014	20:08:26.500	$GPGGA,200826,2506.9934,N,08008.6583,W,1,9,1.8,19,M,,M,,*58
06/04/2014	20:08:27.522	$GPGGA,200827,2506.9937,N,08008.6566,W,1,9,2.0,18,M,,M,,*5B
06/04/2014	20:08:28.538	$GPGGA,200828,2506.9941,N,08008.6547,W,1,9,1.8,18,M,,M,,*5D
06/04/2014	20:08:29.547	$GPGGA,200829,2506.9942,N,08008.6525,W,1,9,1.8,18,M,,M,,*5B
06/04/2014	20:08:30.545	$GPGGA,200830,2506.9944,N,08008.6507,W,1,9,2.3,18,M,,M,,*5D
06/04/2014	20:08:31.534	$GPGGA,200831,2506.9946,N,08008.6487,W,1,8,2.3,18,M,,M,,*56
06/04/2014	20:08:32.563	$GPGGA,200832,2506.9949,N,08008.6466,W,1,8,1.8,18,M,,M,,*5D
06/04/2014	20:08:32.521	$GPGGA,200833,2506.9949,N,08008.6447,W,1,9,1.8,18,M,,M,,*5E
06/04/2014	20:08:33.541	$GPGGA,200834,2506.9950,N,08008.6427,W,1,9,1.8,18,M,,M,,*57
06/04/2014	20:08:34.548	$GPGGA,200835,2506.9956,N,08008.6406,W,1,8,2.3,18,M,,M,,*5A
06/04/2014	20:08:35.556	$GPGGA,200836,2506.9960,N,08008.6386,W,1,8,1.8,18,M,,M,,*5B
06/04/2014	20:08:36.577	$GPGGA,200837,2506.9959,N,08008.6366,W,1,9,1.8,18,M,,M,,*5F
06/04/2014	20:08:37.554	$GPGGA,200838,2506.9960,N,08008.6351,W,1,9,1.8,18,M,,M,,*5E
06/04/2014	20:08:38.562	$GPGGA,200839,2506.9964,N,08008.6331,W,1,9,1.8,18,M,,M,,*5D
06/04/2014	20:08:39.581	$GPGGA,200840,2506.9967,N,08008.6310,W,1,9,1.8,18,M,,M,,*53
06/04/2014	20:08:40.600	$GPGGA,200841,2506.9970,N,08008.6291,W,1,9,1.8,18,M,,M,,*5C
06/04/2014	20:08:41.579	$GPGGA,200842,2506.9973,N,08008.6273,W,1,9,1.8,18,M,,M,,*50
06/04/2014	20:08:42.628	$GPGGA,200843,2506.9974,N,08008.6252,W,1,9,1.8,18,M,,M,,*55
06/04/2014	20:08:43.617	$GPGGA,200844,2506.9978,N,08008.6232,W,1,9,1.8,18,M,,M,,*58
06/04/2014	20:08:44.716	$GPGGA,200845,2506.9984,N,08008.6213,W,1,9,1.8,18,M,,M,,*59
06/04/2014	20:08:45.604	$GPGGA,200846,2506.9986,N,08008.6191,W,1,9,1.8,18,M,,M,,*51
06/04/2014	20:08:46.653	$GPGGA,200847,2506.9991,N,08008.6171,W,1,9,1.8,18,M,,M,,*58
06/04/2014	20:08:47.753	$GPGGA,200848,2506.9996,N,08008.6150,W,1,9,1.8,18,M,,M,,*53
06/04/2014	20:08:48.761	$GPGGA,200849,2507.0000,N,08008.6129,W,1,9,1.8,18,M,,M,,*52
06/04/2014	20:08:49.740	$GPGGA,200850,2507.0004,N,08008.6109,W,1,9,1.8,18,M,,M,,*5C
06/04/2014	20:08:50.658	$GPGGA,200851,2507.0010,N,08008.6087,W,1,9,1.8,18,M,,M,,*5F
06/04/2014	20:08:51.758	$GPGGA,200852,2507.0013,N,08008.6066,W,1,9,1.8,18,M,,M,,*50
06/04/2014	20:08:52.797	$GPGGA,200853,2507.0018,N,08008.6045,W,1,9,1.8,18,M,,M,,*5B
06/04/2014	20:08:53.764	$GPGGA,200854,2507.0022,N,08008.6024,W,1,9,1.8,18,M,,M,,*52
06/04/2014	20:08:54.813	$GPGGA,200855,2507.0027,N,08008.6002,W,1,9,1.8,18,M,,M,,*52
06/04/2014	20:08:55.792	$GPGGA,200856,2507.0029,N,08008.5982,W,1,9,1.8,18,M,,M,,*5D
06/04/2014	20:08:56.821	$GPGGA,200857,2507.0035,N,08008.5961,W,1,9,1.8,18,M,,M,,*5C
06/04/2014	20:08:57.789	$GPGGA,200858,2507.0040,N,08008.5937,W,1,9,1.8,18,M,,M,,*52
06/04/2014	20:08:58.838	$GPGGA,200859,2507.0046,N,08008.5917,W,1,9,1.8,18,M,,M,,*57
06/04/2014	20:08:59.736	$GPGGA,200900,2507.0050,N,08008.5899,W,1,9,1.8,18,M,,M,,*5A
06/04/2014	20:09:00.805	$GPGGA,200901,2507.0054,N,08008.5875,W,1,8,1.8,18,M,,M,,*5C
06/04/2014	20:09:01.824	$GPGGA,200902,2507.0060,N,08008.5854,W,1,8,1.8,18,M,,M,,*5B
06/04/2014	20:09:02.833	$GPGGA,200903,2507.0064,N,08008.5836,W,1,9,1.8,18,M,,M,,*5B
06/04/2014	20:09:03.842	$GPGGA,200904,2507.0068,N,08008.5815,W,1,9,1.8,18,M,,M,,*51
06/04/2014	20:09:04.881	$GPGGA,200905,2507.0072,N,08008.5793,W,1,9,1.8,18,M,,M,,*5A
06/04/2014	20:09:05.849	$GPGGA,200906,2507.0079,N,08008.5773,W,1,9,1.8,18,M,,M,,*5C
06/04/2014	20:09:06.868	$GPGGA,200907,2507.0083,N,08008.5754,W,1,9,1.8,18,M,,M,,*5D
06/04/2014	20:09:07.877	$GPGGA,200908,2507.0089,N,08008.5733,W,1,9,1.8,18,M,,M,,*59
06/04/2014	20:09:08.857	$GPGGA,200909,2507.0094,N,08008.5711,W,1,9,1.8,18,M,,M,,*54
06/04/2014	20:09:09.875	$GPGGA,200910,2507.0098,N,08008.5692,W,1,9,1.8,18,M,,M,,*5A
06/04/2014	20:09:10.882	$GPGGA,200911,2507.0101,N,08008.5672,W,1,9,1.8,18,M,,M,,*54
06/04/2014	20:09:11.901	$GPGGA,200912,2507.0105,N,08008.5651,W,1,9,1.8,18,M,,M,,*52
06/04/2014	20:09:12.900	$GPGGA,200913,2507.0109,N,08008.5630,W,1,9,1.8,18,M,,M,,*58
06/04/2014	20:09:13.899	$GPGGA,200914,2507.0115,N,08008.5610,W,1,9,1.8,18,M,,M,,*50
06/04/2014	20:09:14.897	$GPGGA,200915,2507.0119,N,08008.5588,W,1,9,1.8,18,M,,M,,*5F
06/04/2014	20:09:15.926	$GPGGA,200916,2507.0123,N,08008.5568,W,1,9,1.8,18,M,,M,,*5B
06/04/2014	20:09:16.915	$GPGGA,200917,2507.0127,N,08008.5547,W,1,9,1.8,18,M,,M,,*53
06/04/2014	20:09:17.924	$GPGGA,200918,2507.0133,N,08008.5525,W,1,9,1.8,18,M,,M,,*5D
06/04/2014	20:09:18.923	$GPGGA,200919,2507.0137,N,08008.5504,W,1,9,1.8,18,M,,M,,*5B
06/04/2014	20:09:19.954	$GPGGA,200920,2507.0139,N,08008.5484,W,1,9,1.8,17,M,,M,,*59
06/04/2014	20:09:20.950	$GPGGA,200921,2507.0143,N,08008.5462,W,1,8,2.3,17,M,,M,,*54
06/04/2014	20:09:21.939	$GPGGA,200922,2507.0147,N,08008.5441,W,1,8,1.8,17,M,,M,,*5A
06/04/2014	20:09:22.958	$GPGGA,200923,2507.0148,N,08008.5419,W,1,9,1.7,17,M,,M,,*57
06/04/2014	20:09:23.967	$GPGGA,200924,2507.0152,N,08008.5399,W,1,9,1.7,17,M,,M,,*54
06/04/2014	20:09:24.985	$GPGGA,200925,2507.0155,N,08008.5378,W,1,8,2.3,17,M,,M,,*5B
06/04/2014	20:09:25.974	$GPGGA,200926,2507.0159,N,08008.5356,W,1,8,1.7,17,M,,M,,*5F
06/04/2014	20:09:27.013	$GPGGA,200927,2507.0162,N,08008.5335,W,1,9,1.7,17,M,,M,,*52
06/04/2014	20:09:28.002	$GPGGA,200928,2507.0163,N,08008.5316,W,1,9,1.7,17,M,,M,,*5D
06/04/2014	20:09:29.161	$GPGGA,200929,2507.0166,N,08008.5294,W,1,9,1.7,17,M,,M,,*52
06/04/2014	20:09:30.008	$GPGGA,200930,2507.0169,N,08008.5272,W,1,9,1.7,17,M,,M,,*5D
06/04/2014	20:09:31.158	$GPGGA,200931,2507.0173,N,08008.5252,W,1,9,2.1,17,M,,M,,*50
06/04/2014	20:09:32.036	$GPGGA,200932,2507.0176,N,08008.5229,W,1,9,1.6,18,M,,M,,*51
06/04/2014	20:09:32.498	$GPGGA,200933,2507.0177,N,08008.5208,W,1,10,1.6,18,M,,M,,*6A
06/04/2014	20:09:33.547	$GPGGA,200934,2507.0179,N,08008.5188,W,1,10,1.6,18,M,,M,,*68
06/04/2014	20:09:34.515	$GPGGA,200935,2507.0183,N,08008.5166,W,1,9,2.1,18,M,,M,,*50
06/04/2014	20:09:35.695	$GPGGA,200936,2507.0184,N,08008.5144,W,1,9,1.6,18,M,,M,,*50
06/04/2014	20:09:36.523	$GPGGA,200937,2507.0187,N,08008.5124,W,1,10,1.6,18,M,,M,,*6C
06/04/2014	20:09:37.542	$GPGGA,200938,2507.0188,N,08008.5103,W,1,10,1.6,19,M,,M,,*68
06/04/2014	20:09:38.530	$GPGGA,200939,2507.0191,N,08008.5081,W,1,10,1.6,19,M,,M,,*6A
06/04/2014	20:09:39.569	$GPGGA,200940,2507.0195,N,08008.5059,W,1,10,2.1,19,M,,M,,*61
06/04/2014	20:09:40.558	$GPGGA,200941,2507.0199,N,08008.5037,W,1,9,2.1,19,M,,M,,*5C
06/04/2014	20:09:41.567	$GPGGA,200942,2507.0201,N,08008.5017,W,1,9,1.6,19,M,,M,,*5B
06/04/2014	20:09:42.717	$GPGGA,200943,2507.0202,N,08008.4995,W,1,9,2.1,20,M,,M,,*55
06/04/2014	20:09:43.756	$GPGGA,200944,2507.0205,N,08008.4973,W,1,9,2.1,20,M,,M,,*5D
06/04/2014	20:09:44.674	$GPGGA,200945,2507.0208,N,08008.4955,W,1,10,1.6,20,M,,M,,*69
06/04/2014	20:09:45.762	$GPGGA,200946,2507.0210,N,08008.4934,W,1,10,2.1,20,M,,M,,*60
06/04/2014	20:09:46.690	$GPGGA,200947,2507.0213,N,08008.4912,W,1,9,2.1,20,M,,M,,*5E
06/04/2014	20:09:47.760	$GPGGA,200948,2507.0217,N,08008.4893,W,1,9,1.6,21,M,,M,,*58
06/04/2014	20:09:48.768	$GPGGA,200949,2507.0219,N,08008.4872,W,1,10,2.1,21,M,,M,,*64
06/04/2014	20:09:49.616	$GPGGA,200950,2507.0220,N,08008.4850,W,1,10,2.1,21,M,,M,,*66
06/04/2014	20:09:50.766	$GPGGA,200951,2507.0226,N,08008.4829,W,1,9,2.1,21,M,,M,,*57
06/04/2014	20:09:51.785	$GPGGA,200952,2507.0227,N,08008.4809,W,1,9,1.6,21,M,,M,,*53
06/04/2014	20:09:52.763	$GPGGA,200953,2507.0228,N,08008.4789,W,1,10,1.6,21,M,,M,,*62
06/04/2014	20:09:53.823	$GPGGA,200954,2507.0231,N,08008.4767,W,1,10,1.6,21,M,,M,,*6D
06/04/2014	20:09:54.791	$GPGGA,200955,2507.0235,N,08008.4746,W,1,10,1.6,22,M,,M,,*68
06/04/2014	20:09:55.840	$GPGGA,200956,2507.0238,N,08008.4725,W,1,10,1.6,22,M,,M,,*63
06/04/2014	20:09:56.819	$GPGGA,200957,2507.0241,N,08008.4701,W,1,9,1.6,22,M,,M,,*52
06/04/2014	20:09:57.838	$GPGGA,200958,2507.0246,N,08008.4680,W,1,9,1.6,22,M,,M,,*52
06/04/2014	20:09:58.766	$GPGGA,200959,2507.0249,N,08008.4658,W,1,9,2.1,22,M,,M,,*5D
06/04/2014	20:09:59.866	$GPGGA,201000,2507.0252,N,08008.4635,W,1,9,2.1,22,M,,M,,*58
06/04/2014	20:10:00.784	$GPGGA,201001,2507.0255,N,08008.4613,W,1,9,2.1,22,M,,M,,*5A
06/04/2014	20:10:01.782	$GPGGA,201002,2507.0259,N,08008.4592,W,1,9,2.1,22,M,,M,,*5F
06/04/2014	20:10:02.841	$GPGGA,201003,2507.0260,N,08008.4570,W,1,10,1.6,22,M,,M,,*64
06/04/2014	20:10:03.859	$GPGGA,201004,2507.0263,N,08008.4549,W,1,10,1.6,22,M,,M,,*6A
06/04/2014	20:10:04.858	$GPGGA,201005,2507.0268,N,08008.4528,W,1,10,1.6,22,M,,M,,*67
06/04/2014	20:10:05.867	$GPGGA,201006,2507.0271,N,08008.4505,W,1,10,1.6,22,M,,M,,*63
06/04/2014	20:10:06.896	$GPGGA,201007,2507.0275,N,08008.4484,W,1,10,1.6,22,M,,M,,*6E
06/04/2014	20:10:07.894	$GPGGA,201008,2507.0278,N,08008.4463,W,1,10,1.6,22,M,,M,,*65
06/04/2014	20:10:08.853	$GPGGA,201009,2507.0285,N,08008.4440,W,1,10,1.6,22,M,,M,,*67
06/04/2014	20:10:09.912	$GPGGA,201010,2507.0289,N,08008.4418,W,1,10,1.6,22,M,,M,,*6E
06/04/2014	20:10:10.901	$GPGGA,201011,2507.0292,N,08008.4397,W,1,10,1.6,22,M,,M,,*65
06/04/2014	20:10:11.919	$GPGGA,201012,2507.0295,N,08008.4378,W,1,10,1.6,22,M,,M,,*60
06/04/2014	20:10:12.858	$GPGGA,201013,2507.0299,N,08008.4355,W,1,10,1.6,22,M,,M,,*62
06/04/2014	20:10:13.927	$GPGGA,201014,2507.0303,N,08008.4333,W,1,10,1.6,22,M,,M,,*67
06/04/2014	20:10:14.926	$GPGGA,201015,2507.0307,N,08008.4312,W,1,10,1.6,22,M,,M,,*61
06/04/2014	20:10:15.955	$GPGGA,201016,2507.0309,N,08008.4294,W,1,10,1.6,22,M,,M,,*63
06/04/2014	20:10:16.984	$GPGGA,201017,2507.0313,N,08008.4271,W,1,10,1.6,22,M,,M,,*62
06/04/2014	20:10:17.892	$GPGGA,201018,2507.0318,N,08008.4250,W,1,10,1.6,22,M,,M,,*65
06/04/2014	20:10:19.022	$GPGGA,201019,2507.0324,N,08008.4230,W,1,10,1.6,22,M,,M,,*6D
06/04/2014	20:10:19.970	$GPGGA,201020,2507.0325,N,08008.4210,W,1,10,1.6,22,M,,M,,*64
06/04/2014	20:10:20.988	$GPGGA,201021,2507.0329,N,08008.4189,W,1,9,1.6,22,M,,M,,*52
06/04/2014	20:10:21.986	$GPGGA,201022,2507.0335,N,08008.4169,W,1,9,1.6,22,M,,M,,*52
06/04/2014	20:10:22.965	$GPGGA,201023,2507.0338,N,08008.4149,W,1,10,1.6,22,M,,M,,*64
06/04/2014	20:10:24.014	$GPGGA,201024,2507.0340,N,08008.4129,W,1,10,1.6,22,M,,M,,*6A
06/04/2014	20:10:25.073	$GPGGA,201025,2507.0346,N,08008.4107,W,1,10,1.6,22,M,,M,,*61
06/04/2014	20:10:26.001	$GPGGA,201026,2507.0350,N,08008.4086,W,1,10,1.6,22,M,,M,,*6D
06/04/2014	20:10:27.081	$GPGGA,201027,2507.0356,N,08008.4064,W,1,10,1.6,22,M,,M,,*66
06/04/2014	20:10:27.968	$GPGGA,201028,2507.0360,N,08008.4042,W,1,10,1.6,22,M,,M,,*68
06/04/2014	20:10:29.008	$GPGGA,201029,2507.0365,N,08008.4021,W,1,10,1.6,22,M,,M,,*69
06/04/2014	20:10:30.036	$GPGGA,201030,2507.0368,N,08008.4000,W,1,10,2.1,22,M,,M,,*6B
06/04/2014	20:10:31.086	$GPGGA,201031,2507.0369,N,08008.3979,W,1,9,1.6,22,M,,M,,*57
06/04/2014	20:10:32.054	$GPGGA,201032,2507.0374,N,08008.3959,W,1,9,2.1,22,M,,M,,*5E
06/04/2014	20:10:32.567	$GPGGA,201033,2507.0376,N,08008.3937,W,1,9,1.6,22,M,,M,,*51
06/04/2014	20:10:33.586	$GPGGA,201034,2507.0380,N,08008.3916,W,1,9,1.6,22,M,,M,,*5C
06/04/2014	20:10:34.596	$GPGGA,201035,2507.0383,N,08008.3896,W,1,10,1.6,22,M,,M,,*6F
06/04/2014	20:10:35.604	$GPGGA,201036,2507.0387,N,08008.3874,W,1,10,1.6,22,M,,M,,*64
06/04/2014	20:10:36.612	$GPGGA,201037,2507.0392,N,08008.3853,W,1,10,1.6,22,M,,M,,*64
06/04/2014	20:10:37.601	$GPGGA,201038,2507.0394,N,08008.3830,W,1,10,2.0,22,M,,M,,*6D
06/04/2014	20:10:38.639	$GPGGA,201039,2507.0398,N,08008.3810,W,1,9,1.6,22,M,,M,,*5F
06/04/2014	20:10:39.658	$GPGGA,201040,2507.0403,N,08008.3787,W,1,9,1.6,22,M,,M,,*55
06/04/2014	20:10:40.647	$GPGGA,201041,2507.0405,N,08008.3766,W,1,10,2.0,22,M,,M,,*60
06/04/2014	20:10:41.635	$GPGGA,201042,2507.0408,N,08008.3745,W,1,10,2.0,22,M,,M,,*6F
06/04/2014	20:10:42.644	$GPGGA,201043,2507.0411,N,08008.3723,W,1,9,2.0,22,M,,M,,*5E
06/04/2014	20:10:43.643	$GPGGA,201044,2507.0415,N,08008.3701,W,1,9,2.0,22,M,,M,,*5D
06/04/2014	20:10:44.672	$GPGGA,201045,2507.0418,N,08008.3679,W,1,9,1.6,22,M,,M,,*5A
06/04/2014	20:10:45.670	$GPGGA,201046,2507.0418,N,08008.3679,W,1,9,1.6,22,M,,M,,*59
06/04/2014	20:10:46.679	$GPGGA,201047,2507.0423,N,08008.3638,W,1,10,2.0,22,M,,M,,*68
06/04/2014	20:10:47.688	$GPGGA,201048,2507.0426,N,08008.3615,W,1,10,2.0,22,M,,M,,*6D
06/04/2014	20:10:48.668	$GPGGA,201049,2507.0430,N,08008.3593,W,1,9,2.0,23,M,,M,,*5F
06/04/2014	20:10:49.685	$GPGGA,201050,2507.0434,N,08008.3573,W,1,9,2.0,23,M,,M,,*5D
06/04/2014	20:10:50.714	$GPGGA,201051,2507.0437,N,08008.3550,W,1,9,2.0,23,M,,M,,*5E
06/04/2014	20:10:51.743	$GPGGA,201052,2507.0441,N,08008.3528,W,1,9,2.0,23,M,,M,,*53
06/04/2014	20:10:52.732	$GPGGA,201053,2507.0443,N,08008.3509,W,1,9,1.6,23,M,,M,,*56
06/04/2014	20:10:53.701	$GPGGA,201054,2507.0443,N,08008.3509,W,1,9,1.6,23,M,,M,,*51
06/04/2014	20:10:54.740	$GPGGA,201055,2507.0448,N,08008.3469,W,1,10,1.6,23,M,,M,,*64
06/04/2014	20:10:55.737	$GPGGA,201056,2507.0448,N,08008.3469,W,1,10,1.6,23,M,,M,,*67
06/04/2014	20:10:56.756	$GPGGA,201057,2507.0452,N,08008.3429,W,1,10,1.6,23,M,,M,,*69
06/04/2014	20:10:57.785	$GPGGA,201058,2507.0455,N,08008.3407,W,1,10,2.0,23,M,,M,,*68
06/04/2014	20:10:58.764	$GPGGA,201059,2507.0457,N,08008.3385,W,1,9,1.6,23,M,,M,,*5B
06/04/2014	20:10:59.813	$GPGGA,201100,2507.0457,N,08008.3385,W,1,9,1.6,23,M,,M,,*56
06/04/2014	20:11:00.801	$GPGGA,201101,2507.0462,N,08008.3342,W,1,10,1.6,24,M,,M,,*65
06/04/2014	20:11:01.760	$GPGGA,201102,2507.0462,N,08008.3342,W,1,10,1.6,24,M,,M,,*66
06/04/2014	20:11:02.859	$GPGGA,201103,2507.0469,N,08008.3296,W,1,10,1.6,24,M,,M,,*64
06/04/2014	20:11:03.828	$GPGGA,201104,2507.0469,N,08008.3296,W,1,10,1.6,24,M,,M,,*63
06/04/2014	20:11:04.786	$GPGGA,201105,2507.0472,N,08008.3255,W,1,10,2.0,24,M,,M,,*62
06/04/2014	20:11:05.805	$GPGGA,201106,2507.0472,N,08008.3255,W,1,10,2.0,24,M,,M,,*61
06/04/2014	20:11:06.824	$GPGGA,201107,2507.0481,N,08008.3213,W,1,9,2.0,24,M,,M,,*56
06/04/2014	20:11:07.924	$GPGGA,201108,2507.0486,N,08008.3189,W,1,9,2.0,24,M,,M,,*5E
06/04/2014	20:11:08.821	$GPGGA,201109,2507.0488,N,08008.3169,W,1,10,1.6,24,M,,M,,*62
06/04/2014	20:11:09.911	$GPGGA,201110,2507.0490,N,08008.3153,W,1,10,2.0,24,M,,M,,*6F
06/04/2014	20:11:10.819	$GPGGA,201111,2507.0492,N,08008.3132,W,1,10,1.6,24,M,,M,,*6E
06/04/2014	20:11:11.949	$GPGGA,201112,2507.0495,N,08008.3112,W,1,10,1.6,25,M,,M,,*69
06/04/2014	20:11:12.857	$GPGGA,201113,2507.0499,N,08008.3091,W,1,10,1.6,25,M,,M,,*6E
06/04/2014	20:11:13.834	$GPGGA,201114,2507.0502,N,08008.3069,W,1,10,2.0,25,M,,M,,*68
06/04/2014	20:11:14.833	$GPGGA,201115,2507.0505,N,08008.3048,W,1,9,2.0,25,M,,M,,*55
06/04/2014	20:11:15.993	$GPGGA,201116,2507.0509,N,08008.3028,W,1,9,2.0,25,M,,M,,*5C
06/04/2014	20:11:16.982	$GPGGA,201117,2507.0513,N,08008.3007,W,1,9,2.0,25,M,,M,,*5B
06/04/2014	20:11:17.960	$GPGGA,201118,2507.0516,N,08008.2987,W,1,9,1.6,25,M,,M,,*54
06/04/2014	20:11:18.888	$GPGGA,201119,2507.0516,N,08008.2987,W,1,10,1.6,25,M,,M,,*6D
06/04/2014	20:11:19.998	$GPGGA,201120,2507.0523,N,08008.2945,W,1,10,2.0,25,M,,M,,*6A
06/04/2014	20:11:20.987	$GPGGA,201121,2507.0527,N,08008.2924,W,1,10,1.6,25,M,,M,,*6D
06/04/2014	20:11:21.985	$GPGGA,201122,2507.0528,N,08008.2902,W,1,10,1.6,25,M,,M,,*65
06/04/2014	20:11:23.004	$GPGGA,201123,2507.0531,N,08008.2883,W,1,9,2.0,25,M,,M,,*59
06/04/2014	20:11:24.023	$GPGGA,201124,2507.0535,N,08008.2862,W,1,9,1.6,26,M,,M,,*53
06/04/2014	20:11:25.022	$GPGGA,201125,2507.0537,N,08008.2841,W,1,10,1.6,26,M,,M,,*69
06/04/2014	20:11:26.020	$GPGGA,201126,2507.0541,N,08008.2821,W,1,10,1.6,26,M,,M,,*6D
06/04/2014	20:11:27.049	$GPGGA,201127,2507.0546,N,08008.2797,W,1,9,2.0,26,M,,M,,*54
06/04/2014	20:11:28.048	$GPGGA,201128,2507.0549,N,08008.2774,W,1,9,1.6,26,M,,M,,*5C
06/04/2014	20:11:29.057	$GPGGA,201129,2507.0553,N,08008.2754,W,1,10,1.6,26,M,,M,,*6C
06/04/2014	20:11:30.046	$GPGGA,201130,2507.0560,N,08008.2732,W,1,10,1.6,26,M,,M,,*64
06/04/2014	20:11:31.084	$GPGGA,201131,2507.0563,N,08008.2709,W,1,10,1.6,26,M,,M,,*6E
06/04/2014	20:11:32.072	$GPGGA,201132,2507.0567,N,08008.2688,W,1,10,1.6,26,M,,M,,*61
06/04/2014	20:11:32.564	$GPGGA,201133,2507.0573,N,08008.2666,W,1,10,1.6,26,M,,M,,*65
06/04/2014	20:11:33.543	$GPGGA,201134,2507.0577,N,08008.2644,W,1,10,1.6,25,M,,M,,*65
06/04/2014	20:11:34.582	$GPGGA,201135,2507.0580,N,08008.2623,W,1,10,1.6,25,M,,M,,*6D
06/04/2014	20:11:35.570	$GPGGA,201136,2507.0582,N,08008.2602,W,1,10,1.6,25,M,,M,,*6F
06/04/2014	20:11:36.589	$GPGGA,201137,2507.0588,N,08008.2581,W,1,10,1.6,25,M,,M,,*6C
06/04/2014	20:11:37.578	$GPGGA,201138,2507.0592,N,08008.2561,W,1,10,1.6,25,M,,M,,*66
06/04/2014	20:11:38.587	$GPGGA,201139,2507.0595,N,08008.2537,W,1,10,1.6,25,M,,M,,*63
06/04/2014	20:11:39.606	$GPGGA,201140,2507.0602,N,08008.2517,W,1,10,1.6,25,M,,M,,*62
06/04/2014	20:11:40.584	$GPGGA,201141,2507.0609,N,08008.2497,W,1,10,1.6,25,M,,M,,*61
06/04/2014	20:11:41.603	$GPGGA,201142,2507.0611,N,08008.2474,W,1,10,1.6,25,M,,M,,*66
