Software Version Number: 1	Data File Format Number: 1	Build Version Number: 1	Error Count Since VI Started: 0	Manufacturer: Raytheon	 Model Number: RayMarine 120	 S/N: 	 Cal Date: 	 Wind Direction Offset: 0.00	 Slope (M)1: 0.00	 Offset (B)1: 0.00	 Slope (M)2: 0.00	 Offset (B)2: 0.00	 Slope (M)3: 0.00	 Offset (B)3: 0.00	 Slope (M)4: 0.00	 Offset (B)4: 0.00	 Slope (M)5: 0.00	 Offset (B)5: 0.00	 Slope (M)6: 0.00	 Offset (B)6: 0.00
Computer Date	Computer Time	GGA String
05/31/2014	00:00:00.175	$GPGGA,000001,2523.5605,N,07940.6955,W,1,8,1.7,20,M,,M,,*58
05/31/2014	00:00:01.161	$GPGGA,000002,2523.5609,N,07940.6953,W,1,8,1.6,20,M,,M,,*50
05/31/2014	00:00:02.156	$GPGGA,000003,2523.5612,N,07940.6951,W,1,9,1.6,20,M,,M,,*58
05/31/2014	00:00:03.162	$GPGGA,000004,2523.5616,N,07940.6949,W,1,9,1.6,19,M,,M,,*58
05/31/2014	00:00:04.137	$GPGGA,000005,2523.5618,N,07940.6947,W,1,9,1.6,19,M,,M,,*59
05/31/2014	00:00:05.143	$GPGGA,000006,2523.5620,N,07940.6944,W,1,9,1.6,19,M,,M,,*52
05/31/2014	00:00:06.235	$GPGGA,000007,2523.5623,N,07940.6942,W,1,9,1.6,19,M,,M,,*56
05/31/2014	00:00:07.124	$GPGGA,000008,2523.5627,N,07940.6941,W,1,9,1.6,19,M,,M,,*5E
05/31/2014	00:00:08.120	$GPGGA,000009,2523.5630,N,07940.6938,W,1,8,1.7,19,M,,M,,*57
05/31/2014	00:00:09.095	$GPGGA,000010,2523.5634,N,07940.6936,W,1,8,1.7,19,M,,M,,*55
05/31/2014	00:00:10.190	$GPGGA,000011,2523.5637,N,07940.6934,W,1,9,1.6,19,M,,M,,*55
05/31/2014	00:00:11.106	$GPGGA,000012,2523.5640,N,07940.6931,W,1,9,1.7,19,M,,M,,*52
05/31/2014	00:00:12.221	$GPGGA,000013,2523.5643,N,07940.6928,W,1,8,1.7,19,M,,M,,*59
05/31/2014	00:00:13.091	$GPGGA,000014,2523.5645,N,07940.6927,W,1,8,1.7,19,M,,M,,*57
05/31/2014	00:00:14.069	$GPGGA,000015,2523.5648,N,07940.6924,W,1,9,1.6,19,M,,M,,*58
05/31/2014	00:00:15.178	$GPGGA,000016,2523.5652,N,07940.6921,W,1,9,1.6,19,M,,M,,*55
05/31/2014	00:00:16.082	$GPGGA,000017,2523.5654,N,07940.6919,W,1,8,1.7,19,M,,M,,*59
05/31/2014	00:00:17.158	$GPGGA,000018,2523.5658,N,07940.6917,W,1,8,1.7,19,M,,M,,*54
05/31/2014	00:00:18.174	$GPGGA,000019,2523.5662,N,07940.6916,W,1,8,1.7,19,M,,M,,*5D
05/31/2014	00:00:19.160	$GPGGA,000020,2523.5666,N,07940.6914,W,1,8,1.6,19,M,,M,,*50
05/31/2014	00:00:20.528	$GPGGA,000021,2523.5670,N,07940.6912,W,1,9,1.6,19,M,,M,,*51
05/31/2014	00:00:21.504	$GPGGA,000022,2523.5674,N,07940.6910,W,1,9,1.6,19,M,,M,,*54
05/31/2014	00:00:22.504	$GPGGA,000023,2523.5676,N,07940.6908,W,1,9,1.6,19,M,,M,,*5E
05/31/2014	00:00:23.495	$GPGGA,000024,2523.5678,N,07940.6905,W,1,9,1.7,20,M,,M,,*51
05/31/2014	00:00:24.478	$GPGGA,000025,2523.5681,N,07940.6903,W,1,8,1.7,20,M,,M,,*51
05/31/2014	00:00:25.476	$GPGGA,000026,2523.5685,N,07940.6900,W,1,8,1.7,20,M,,M,,*55
05/31/2014	00:00:26.472	$GPGGA,000027,2523.5687,N,07940.6897,W,1,8,1.7,20,M,,M,,*59
05/31/2014	00:00:27.477	$GPGGA,000028,2523.5691,N,07940.6895,W,1,8,1.7,20,M,,M,,*53
05/31/2014	00:00:28.472	$GPGGA,000029,2523.5692,N,07940.6892,W,1,8,1.7,20,M,,M,,*56
05/31/2014	00:00:29.462	$GPGGA,000030,2523.5695,N,07940.6889,W,1,8,1.6,20,M,,M,,*52
05/31/2014	00:00:30.463	$GPGGA,000031,2523.5699,N,07940.6887,W,1,9,1.6,20,M,,M,,*50
05/31/2014	00:00:31.449	$GPGGA,000032,2523.5703,N,07940.6885,W,1,9,1.6,20,M,,M,,*53
05/31/2014	00:00:32.453	$GPGGA,000033,2523.5706,N,07940.6883,W,1,9,1.6,20,M,,M,,*51
05/31/2014	00:00:33.420	$GPGGA,000034,2523.5710,N,07940.6881,W,1,9,1.6,20,M,,M,,*53
05/31/2014	00:00:34.436	$GPGGA,000035,2523.5713,N,07940.6879,W,1,9,1.6,20,M,,M,,*56
05/31/2014	00:00:35.414	$GPGGA,000036,2523.5716,N,07940.6876,W,1,9,1.6,20,M,,M,,*5F
05/31/2014	00:00:36.398	$GPGGA,000037,2523.5719,N,07940.6874,W,1,9,1.6,20,M,,M,,*53
05/31/2014	00:00:37.403	$GPGGA,000038,2523.5723,N,07940.6872,W,1,9,1.6,20,M,,M,,*53
05/31/2014	00:00:38.388	$GPGGA,000039,2523.5725,N,07940.6870,W,1,9,1.6,20,M,,M,,*56
05/31/2014	00:00:39.405	$GPGGA,000040,2523.5728,N,07940.6868,W,1,9,1.6,20,M,,M,,*5C
05/31/2014	00:00:40.409	$GPGGA,000041,2523.5731,N,07940.6866,W,1,9,1.6,20,M,,M,,*5B
05/31/2014	00:00:41.365	$GPGGA,000042,2523.5734,N,07940.6863,W,1,9,1.6,20,M,,M,,*58
05/31/2014	00:00:42.371	$GPGGA,000043,2523.5737,N,07940.6861,W,1,9,1.6,20,M,,M,,*58
05/31/2014	00:00:43.366	$GPGGA,000044,2523.5739,N,07940.6859,W,1,9,1.6,20,M,,M,,*5A
05/31/2014	00:00:44.372	$GPGGA,000045,2523.5742,N,07940.6857,W,1,9,1.6,20,M,,M,,*59
05/31/2014	00:00:45.368	$GPGGA,000046,2523.5745,N,07940.6854,W,1,9,1.6,20,M,,M,,*5E
05/31/2014	00:00:46.352	$GPGGA,000047,2523.5749,N,07940.6851,W,1,9,1.6,20,M,,M,,*56
05/31/2014	00:00:47.338	$GPGGA,000048,2523.5750,N,07940.6850,W,1,9,1.6,20,M,,M,,*50
05/31/2014	00:00:48.333	$GPGGA,000049,2523.5753,N,07940.6847,W,1,9,1.6,20,M,,M,,*54
05/31/2014	00:00:49.319	$GPGGA,000050,2523.5757,N,07940.6845,W,1,9,1.6,20,M,,M,,*5A
05/31/2014	00:00:50.484	$GPGGA,000051,2523.5760,N,07940.6843,W,1,9,1.6,20,M,,M,,*59
05/31/2014	00:00:51.330	$GPGGA,000052,2523.5763,N,07940.6841,W,1,9,1.6,20,M,,M,,*5B
05/31/2014	00:00:52.475	$GPGGA,000053,2523.5764,N,07940.6838,W,1,9,1.6,20,M,,M,,*53
05/31/2014	00:00:53.282	$GPGGA,000054,2523.5768,N,07940.6835,W,1,9,1.6,20,M,,M,,*55
05/31/2014	00:00:54.277	$GPGGA,000055,2523.5771,N,07940.6833,W,1,9,1.6,20,M,,M,,*5A
05/31/2014	00:00:55.303	$GPGGA,000056,2523.5773,N,07940.6830,W,1,9,1.6,20,M,,M,,*58
05/31/2014	00:00:56.268	$GPGGA,000057,2523.5777,N,07940.6829,W,1,9,1.6,20,M,,M,,*55
05/31/2014	00:00:57.264	$GPGGA,000058,2523.5779,N,07940.6826,W,1,9,1.6,20,M,,M,,*5B
05/31/2014	00:00:58.349	$GPGGA,000059,2523.5782,N,07940.6824,W,1,9,1.6,20,M,,M,,*5C
05/31/2014	00:00:59.414	$GPGGA,000100,2523.5786,N,07940.6821,W,1,9,1.6,20,M,,M,,*50
05/31/2014	00:01:00.440	$GPGGA,000101,2523.5788,N,07940.6818,W,1,9,1.6,20,M,,M,,*55
05/31/2014	00:01:01.246	$GPGGA,000102,2523.5790,N,07940.6816,W,1,9,1.6,20,M,,M,,*51
05/31/2014	00:01:02.420	$GPGGA,000103,2523.5793,N,07940.6814,W,1,9,1.9,20,M,,M,,*5E
05/31/2014	00:01:03.356	$GPGGA,000104,2523.5797,N,07940.6812,W,1,9,1.9,20,M,,M,,*5B
05/31/2014	00:01:04.236	$GPGGA,000105,2523.5800,N,07940.6810,W,1,9,1.6,20,M,,M,,*56
05/31/2014	00:01:05.337	$GPGGA,000106,2523.5802,N,07940.6807,W,1,9,1.6,20,M,,M,,*51
05/31/2014	00:01:06.385	$GPGGA,000107,2523.5804,N,07940.6803,W,1,9,1.6,20,M,,M,,*52
05/31/2014	00:01:07.219	$GPGGA,000108,2523.5807,N,07940.6800,W,1,9,1.6,20,M,,M,,*5D
05/31/2014	00:01:08.394	$GPGGA,000109,2523.5810,N,07940.6797,W,1,9,1.6,20,M,,M,,*5B
05/31/2014	00:01:09.310	$GPGGA,000110,2523.5811,N,07940.6793,W,1,9,1.6,20,M,,M,,*56
05/31/2014	00:01:10.275	$GPGGA,000111,2523.5815,N,07940.6790,W,1,9,1.6,20,M,,M,,*50
05/31/2014	00:01:11.331	$GPGGA,000112,2523.5818,N,07940.6787,W,1,9,1.6,20,M,,M,,*58
05/31/2014	00:01:12.336	$GPGGA,000113,2523.5820,N,07940.6783,W,1,9,1.6,20,M,,M,,*56
05/31/2014	00:01:13.252	$GPGGA,000114,2523.5822,N,07940.6782,W,1,9,1.6,20,M,,M,,*52
05/31/2014	00:01:14.367	$GPGGA,000115,2523.5826,N,07940.6778,W,1,9,1.6,20,M,,M,,*52
05/31/2014	00:01:15.283	$GPGGA,000116,2523.5829,N,07940.6776,W,1,9,1.6,20,M,,M,,*50
05/31/2014	00:01:16.299	$GPGGA,000117,2523.5832,N,07940.6773,W,1,9,1.6,20,M,,M,,*5E
05/31/2014	00:01:17.255	$GPGGA,000118,2523.5835,N,07940.6771,W,1,9,1.6,20,M,,M,,*54
05/31/2014	00:01:18.362	$GPGGA,000119,2523.5837,N,07940.6769,W,1,9,1.6,20,M,,M,,*5E
05/31/2014	00:01:19.295	$GPGGA,000120,2523.5840,N,07940.6766,W,1,9,1.6,20,M,,M,,*5B
05/31/2014	00:01:20.476	$GPGGA,000121,2523.5844,N,07940.6763,W,1,9,1.6,20,M,,M,,*5B
05/31/2014	00:01:21.500	$GPGGA,000122,2523.5847,N,07940.6761,W,1,9,1.6,21,M,,M,,*58
05/31/2014	00:01:22.525	$GPGGA,000123,2523.5850,N,07940.6758,W,1,9,1.6,21,M,,M,,*55
05/31/2014	00:01:23.501	$GPGGA,000124,2523.5853,N,07940.6755,W,1,9,1.6,21,M,,M,,*5C
05/31/2014	00:01:24.566	$GPGGA,000125,2523.5855,N,07940.6753,W,1,9,1.6,21,M,,M,,*5D
05/31/2014	00:01:25.443	$GPGGA,000126,2523.5858,N,07940.6751,W,1,9,1.6,21,M,,M,,*51
05/31/2014	00:01:26.538	$GPGGA,000127,2523.5861,N,07940.6749,W,1,8,1.7,21,M,,M,,*53
05/31/2014	00:01:27.474	$GPGGA,000128,2523.5864,N,07940.6746,W,1,8,1.6,21,M,,M,,*57
05/31/2014	00:01:28.529	$GPGGA,000129,2523.5865,N,07940.6744,W,1,9,1.6,21,M,,M,,*54
05/31/2014	00:01:29.415	$GPGGA,000130,2523.5869,N,07940.6742,W,1,9,1.6,21,M,,M,,*56
05/31/2014	00:01:30.411	$GPGGA,000131,2523.5872,N,07940.6740,W,1,8,1.7,21,M,,M,,*5F
05/31/2014	00:01:31.440	$GPGGA,000132,2523.5875,N,07940.6737,W,1,8,1.7,21,M,,M,,*5B
05/31/2014	00:01:32.472	$GPGGA,000133,2523.5879,N,07940.6735,W,1,8,1.7,21,M,,M,,*54
05/31/2014	00:01:33.428	$GPGGA,000134,2523.5880,N,07940.6734,W,1,8,1.6,21,M,,M,,*55
05/31/2014	00:01:34.383	$GPGGA,000135,2523.5883,N,07940.6732,W,1,9,1.6,21,M,,M,,*50
05/31/2014	00:01:35.389	$GPGGA,000136,2523.5887,N,07940.6730,W,1,9,1.7,22,M,,M,,*57
05/31/2014	00:01:36.494	$GPGGA,000137,2523.5890,N,07940.6728,W,1,9,1.6,22,M,,M,,*58
05/31/2014	00:01:37.478	$GPGGA,000138,2523.5893,N,07940.6726,W,1,9,1.6,22,M,,M,,*5A
05/31/2014	00:01:38.355	$GPGGA,000139,2523.5894,N,07940.6724,W,1,9,1.6,22,M,,M,,*5E
05/31/2014	00:01:39.400	$GPGGA,000140,2523.5898,N,07940.6722,W,1,9,1.6,22,M,,M,,*5A
05/31/2014	00:01:40.495	$GPGGA,000141,2523.5901,N,07940.6720,W,1,9,1.6,22,M,,M,,*58
05/31/2014	00:01:41.341	$GPGGA,000142,2523.5904,N,07940.6718,W,1,9,1.6,22,M,,M,,*55
05/31/2014	00:01:42.327	$GPGGA,000143,2523.5907,N,07940.6715,W,1,9,1.6,22,M,,M,,*5A
05/31/2014	00:01:43.442	$GPGGA,000144,2523.5911,N,07940.6713,W,1,9,1.6,22,M,,M,,*5C
05/31/2014	00:01:44.458	$GPGGA,000145,2523.5914,N,07940.6712,W,1,9,1.6,22,M,,M,,*59
05/31/2014	00:01:45.314	$GPGGA,000146,2523.5916,N,07940.6710,W,1,9,1.6,22,M,,M,,*5A
05/31/2014	00:01:46.299	$GPGGA,000147,2523.5919,N,07940.6708,W,1,9,1.6,23,M,,M,,*5C
05/31/2014	00:01:47.434	$GPGGA,000148,2523.5923,N,07940.6706,W,1,9,1.6,23,M,,M,,*54
05/31/2014	00:01:48.380	$GPGGA,000149,2523.5927,N,07940.6704,W,1,9,1.6,23,M,,M,,*53
05/31/2014	00:01:49.386	$GPGGA,000150,2523.5930,N,07940.6702,W,1,9,1.6,23,M,,M,,*5B
05/31/2014	00:01:50.391	$GPGGA,000151,2523.5932,N,07940.6700,W,1,9,1.6,23,M,,M,,*5A
05/31/2014	00:01:51.317	$GPGGA,000152,2523.5936,N,07940.6698,W,1,9,1.6,23,M,,M,,*5D
05/31/2014	00:01:52.402	$GPGGA,000153,2523.5938,N,07940.6696,W,1,9,1.6,23,M,,M,,*5C
05/31/2014	00:01:53.368	$GPGGA,000154,2523.5941,N,07940.6694,W,1,9,1.6,23,M,,M,,*57
05/31/2014	00:01:54.353	$GPGGA,000155,2523.5945,N,07940.6693,W,1,9,1.6,23,M,,M,,*55
05/31/2014	00:01:55.358	$GPGGA,000156,2523.5948,N,07940.6691,W,1,9,1.6,23,M,,M,,*59
05/31/2014	00:01:56.394	$GPGGA,000157,2523.5952,N,07940.6688,W,1,9,1.6,23,M,,M,,*5B
05/31/2014	00:01:57.340	$GPGGA,000158,2523.5955,N,07940.6687,W,1,9,1.6,23,M,,M,,*5C
05/31/2014	00:01:58.385	$GPGGA,000159,2523.5956,N,07940.6684,W,1,9,1.6,23,M,,M,,*5D
05/31/2014	00:01:59.351	$GPGGA,000200,2523.5959,N,07940.6682,W,1,9,1.6,23,M,,M,,*5B
05/31/2014	00:02:00.336	$GPGGA,000201,2523.5963,N,07940.6680,W,1,9,1.6,23,M,,M,,*51
05/31/2014	00:02:01.312	$GPGGA,000202,2523.5966,N,07940.6677,W,1,9,1.6,23,M,,M,,*5F
05/31/2014	00:02:02.338	$GPGGA,000203,2523.5969,N,07940.6675,W,1,9,1.6,23,M,,M,,*53
05/31/2014	00:02:03.323	$GPGGA,000204,2523.5970,N,07940.6673,W,1,9,1.6,23,M,,M,,*5A
05/31/2014	00:02:04.369	$GPGGA,000205,2523.5974,N,07940.6670,W,1,9,1.6,23,M,,M,,*5C
05/31/2014	00:02:05.285	$GPGGA,000206,2523.5977,N,07940.6668,W,1,9,1.6,23,M,,M,,*55
05/31/2014	00:02:06.290	$GPGGA,000207,2523.5980,N,07940.6666,W,1,9,1.6,23,M,,M,,*52
05/31/2014	00:02:07.276	$GPGGA,000208,2523.5983,N,07940.6665,W,1,9,1.6,23,M,,M,,*5D
05/31/2014	00:02:08.321	$GPGGA,000209,2523.5984,N,07940.6662,W,1,9,1.6,23,M,,M,,*5C
05/31/2014	00:02:09.258	$GPGGA,000210,2523.5988,N,07940.6661,W,1,9,1.6,22,M,,M,,*5A
05/31/2014	00:02:10.312	$GPGGA,000211,2523.5992,N,07940.6659,W,1,9,1.7,22,M,,M,,*5A
05/31/2014	00:02:11.278	$GPGGA,000212,2523.5994,N,07940.6657,W,1,9,1.6,22,M,,M,,*50
05/31/2014	00:02:12.283	$GPGGA,000213,2523.5997,N,07940.6656,W,1,9,1.7,22,M,,M,,*52
05/31/2014	00:02:13.241	$GPGGA,000214,2523.5999,N,07940.6654,W,1,9,1.7,22,M,,M,,*59
05/31/2014	00:02:14.324	$GPGGA,000215,2523.6003,N,07940.6652,W,1,8,1.6,22,M,,M,,*57
05/31/2014	00:02:15.261	$GPGGA,000216,2523.6006,N,07940.6651,W,1,8,1.6,22,M,,M,,*52
05/31/2014	00:02:16.265	$GPGGA,000217,2523.6010,N,07940.6649,W,1,9,1.6,22,M,,M,,*5C
05/31/2014	00:02:17.211	$GPGGA,000218,2523.6013,N,07940.6647,W,1,9,1.6,22,M,,M,,*5E
05/31/2014	00:02:18.266	$GPGGA,000219,2523.6017,N,07940.6646,W,1,9,1.6,22,M,,M,,*5A
05/31/2014	00:02:19.213	$GPGGA,000220,2523.6020,N,07940.6644,W,1,9,1.6,22,M,,M,,*56
05/31/2014	00:02:20.551	$GPGGA,000221,2523.6020,N,07940.6644,W,1,9,1.6,22,M,,M,,*57
05/31/2014	00:02:21.437	$GPGGA,000222,2523.6026,N,07940.6640,W,1,9,1.6,22,M,,M,,*56
05/31/2014	00:02:22.483	$GPGGA,000223,2523.6028,N,07940.6639,W,1,9,1.6,22,M,,M,,*57
05/31/2014	00:02:23.448	$GPGGA,000224,2523.6031,N,07940.6637,W,1,9,1.6,22,M,,M,,*56
05/31/2014	00:02:24.484	$GPGGA,000225,2523.6035,N,07940.6636,W,1,9,1.6,22,M,,M,,*52
05/31/2014	00:02:25.529	$GPGGA,000226,2523.6039,N,07940.6634,W,1,9,1.6,22,M,,M,,*5F
05/31/2014	00:02:26.425	$GPGGA,000227,2523.6041,N,07940.6631,W,1,9,1.6,22,M,,M,,*54
05/31/2014	00:02:27.431	$GPGGA,000228,2523.6044,N,07940.6630,W,1,9,1.6,22,M,,M,,*5F
05/31/2014	00:02:28.416	$GPGGA,000229,2523.6044,N,07940.6630,W,1,9,1.6,22,M,,M,,*5E
05/31/2014	00:02:29.501	$GPGGA,000230,2523.6049,N,07940.6626,W,1,9,1.6,22,M,,M,,*5C
05/31/2014	00:02:30.506	$GPGGA,000231,2523.6049,N,07940.6626,W,1,9,1.6,22,M,,M,,*5D
05/31/2014	00:02:31.392	$GPGGA,000232,2523.6056,N,07940.6622,W,1,9,1.6,22,M,,M,,*54
05/31/2014	00:02:32.408	$GPGGA,000233,2523.6056,N,07940.6622,W,1,9,1.6,22,M,,M,,*55
05/31/2014	00:02:33.453	$GPGGA,000234,2523.6063,N,07940.6617,W,1,9,1.6,22,M,,M,,*52
05/31/2014	00:02:34.379	$GPGGA,000235,2523.6063,N,07940.6617,W,1,9,1.6,22,M,,M,,*53
05/31/2014	00:02:36.779	$GPGGA,000237,2523.6068,N,07940.6613,W,1,9,1.6,22,M,,M,,*5E
05/31/2014	00:02:37.346	$GPGGA,000238,2523.6073,N,07940.6609,W,1,9,1.9,22,M,,M,,*5F
05/31/2014	00:02:38.451	$GPGGA,000239,2523.6075,N,07940.6608,W,1,9,1.6,22,M,,M,,*56
05/31/2014	00:02:39.337	$GPGGA,000240,2523.6078,N,07940.6605,W,1,9,1.6,22,M,,M,,*58
05/31/2014	00:02:40.442	$GPGGA,000241,2523.6081,N,07940.6603,W,1,9,1.6,22,M,,M,,*59
05/31/2014	00:02:41.418	$GPGGA,000242,2523.6084,N,07940.6602,W,1,9,1.6,22,M,,M,,*5E
05/31/2014	00:02:42.404	$GPGGA,000243,2523.6086,N,07940.6600,W,1,9,1.6,22,M,,M,,*5F
05/31/2014	00:02:43.399	$GPGGA,000244,2523.6089,N,07940.6598,W,1,9,1.6,22,M,,M,,*55
05/31/2014	00:02:44.425	$GPGGA,000245,2523.6091,N,07940.6596,W,1,9,1.9,22,M,,M,,*5C
05/31/2014	00:02:45.380	$GPGGA,000246,2523.6093,N,07940.6594,W,1,9,1.6,22,M,,M,,*50
05/31/2014	00:02:46.376	$GPGGA,000247,2523.6096,N,07940.6592,W,1,9,1.6,22,M,,M,,*52
05/31/2014	00:02:47.391	$GPGGA,000248,2523.6099,N,07940.6589,W,1,9,1.6,23,M,,M,,*59
05/31/2014	00:02:48.356	$GPGGA,000249,2523.6102,N,07940.6588,W,1,9,1.6,23,M,,M,,*5A
05/31/2014	00:02:49.352	$GPGGA,000250,2523.6104,N,07940.6587,W,1,9,1.7,23,M,,M,,*5A
05/31/2014	00:02:50.387	$GPGGA,000251,2523.6104,N,07940.6587,W,1,9,1.6,23,M,,M,,*5A
05/31/2014	00:02:51.379	$GPGGA,000252,2523.6111,N,07940.6583,W,1,9,1.6,23,M,,M,,*59
05/31/2014	00:02:52.329	$GPGGA,000253,2523.6115,N,07940.6581,W,1,9,1.9,23,M,,M,,*51
05/31/2014	00:02:53.324	$GPGGA,000254,2523.6118,N,07940.6579,W,1,9,1.6,23,M,,M,,*53
05/31/2014	00:02:54.350	$GPGGA,000255,2523.6122,N,07940.6577,W,1,9,1.6,23,M,,M,,*55
05/31/2014	00:02:55.335	$GPGGA,000256,2523.6125,N,07940.6576,W,1,9,1.6,23,M,,M,,*50
05/31/2014	00:02:56.318	$GPGGA,000257,2523.6128,N,07940.6573,W,1,9,1.6,23,M,,M,,*59
05/31/2014	00:02:57.311	$GPGGA,000258,2523.6131,N,07940.6572,W,1,9,1.6,23,M,,M,,*5F
05/31/2014	00:02:58.292	$GPGGA,000259,2523.6133,N,07940.6570,W,1,9,1.6,23,M,,M,,*5E
05/31/2014	00:02:59.318	$GPGGA,000300,2523.6136,N,07940.6568,W,1,9,1.6,23,M,,M,,*5F
05/31/2014	00:03:00.323	$GPGGA,000301,2523.6140,N,07940.6566,W,1,9,1.6,23,M,,M,,*51
05/31/2014	00:03:01.269	$GPGGA,000302,2523.6143,N,07940.6563,W,1,9,1.6,23,M,,M,,*54
05/31/2014	00:03:04.633	$GPGGA,000303,2523.6144,N,07940.6562,W,1,9,1.6,23,M,,M,,*53
05/31/2014	00:03:04.673	$GPGGA,000305,2523.6151,N,07940.6556,W,1,9,1.6,23,M,,M,,*56
05/31/2014	00:03:05.251	$GPGGA,000306,2523.6153,N,07940.6555,W,1,9,1.6,24,M,,M,,*53
05/31/2014	00:03:06.286	$GPGGA,000307,2523.6156,N,07940.6552,W,1,9,1.6,24,M,,M,,*50
05/31/2014	00:03:07.252	$GPGGA,000308,2523.6160,N,07940.6550,W,1,9,1.6,24,M,,M,,*58
05/31/2014	00:03:08.257	$GPGGA,000309,2523.6162,N,07940.6548,W,1,9,1.9,24,M,,M,,*5D
05/31/2014	00:03:09.243	$GPGGA,000310,2523.6165,N,07940.6546,W,1,9,1.6,24,M,,M,,*53
05/31/2014	00:03:10.219	$GPGGA,000311,2523.6168,N,07940.6544,W,1,9,1.6,24,M,,M,,*5D
05/31/2014	00:03:11.264	$GPGGA,000312,2523.6172,N,07940.6542,W,1,9,1.6,24,M,,M,,*53
05/31/2014	00:03:12.200	$GPGGA,000313,2523.6176,N,07940.6540,W,1,9,1.6,24,M,,M,,*54
05/31/2014	00:03:13.315	$GPGGA,000314,2523.6179,N,07940.6538,W,1,9,1.9,24,M,,M,,*5C
05/31/2014	00:03:14.211	$GPGGA,000315,2523.6182,N,07940.6536,W,1,9,1.6,24,M,,M,,*58
05/31/2014	00:03:15.207	$GPGGA,000316,2523.6183,N,07940.6534,W,1,9,1.6,24,M,,M,,*58
05/31/2014	00:03:16.182	$GPGGA,000317,2523.6187,N,07940.6532,W,1,9,1.6,24,M,,M,,*5B
05/31/2014	00:03:17.268	$GPGGA,000318,2523.6190,N,07940.6530,W,1,9,1.6,24,M,,M,,*50
05/31/2014	00:03:18.184	$GPGGA,000319,2523.6193,N,07940.6529,W,1,9,1.6,24,M,,M,,*5A
05/31/2014	00:03:19.169	$GPGGA,000320,2523.6196,N,07940.6526,W,1,9,1.6,24,M,,M,,*5A
05/31/2014	00:03:20.548	$GPGGA,000321,2523.6200,N,07940.6523,W,1,9,1.6,24,M,,M,,*52
05/31/2014	00:03:21.524	$GPGGA,000322,2523.6201,N,07940.6522,W,1,9,1.6,24,M,,M,,*51
05/31/2014	00:03:22.519	$GPGGA,000323,2523.6204,N,07940.6520,W,1,9,1.6,24,M,,M,,*57
05/31/2014	00:03:23.415	$GPGGA,000324,2523.6207,N,07940.6518,W,1,9,1.6,24,M,,M,,*58
05/31/2014	00:03:24.410	$GPGGA,000325,2523.6209,N,07940.6516,W,1,9,1.6,25,M,,M,,*58
05/31/2014	00:03:25.485	$GPGGA,000326,2523.6212,N,07940.6515,W,1,9,1.6,25,M,,M,,*52
05/31/2014	00:03:26.477	$GPGGA,000327,2523.6215,N,07940.6513,W,1,9,1.6,25,M,,M,,*52
05/31/2014	00:03:27.387	$GPGGA,000328,2523.6218,N,07940.6511,W,1,9,1.6,25,M,,M,,*52
05/31/2014	00:03:28.472	$GPGGA,000329,2523.6222,N,07940.6510,W,1,9,1.6,25,M,,M,,*5B
05/31/2014	00:03:29.468	$GPGGA,000330,2523.6225,N,07940.6508,W,1,9,1.6,25,M,,M,,*5D
05/31/2014	00:03:30.463	$GPGGA,000331,2523.6227,N,07940.6507,W,1,9,1.6,25,M,,M,,*51
05/31/2014	00:03:31.459	$GPGGA,000332,2523.6230,N,07940.6504,W,1,9,1.6,25,M,,M,,*57
05/31/2014	00:03:32.445	$GPGGA,000333,2523.6234,N,07940.6502,W,1,9,1.6,25,M,,M,,*54
05/31/2014	00:03:33.440	$GPGGA,000334,2523.6237,N,07940.6501,W,1,9,1.6,25,M,,M,,*53
05/31/2014	00:03:34.426	$GPGGA,000335,2523.6240,N,07940.6500,W,1,9,1.6,25,M,,M,,*53
05/31/2014	00:03:35.431	$GPGGA,000336,2523.6243,N,07940.6497,W,1,9,1.6,25,M,,M,,*5C
05/31/2014	00:03:36.408	$GPGGA,000337,2523.6247,N,07940.6496,W,1,9,1.6,25,M,,M,,*58
05/31/2014	00:03:37.408	$GPGGA,000338,2523.6248,N,07940.6494,W,1,9,1.6,25,M,,M,,*5A
05/31/2014	00:03:38.394	$GPGGA,000339,2523.6252,N,07940.6491,W,1,9,1.6,25,M,,M,,*55
05/31/2014	00:03:39.413	$GPGGA,000340,2523.6255,N,07940.6489,W,1,9,1.6,25,M,,M,,*55
05/31/2014	00:03:40.408	$GPGGA,000341,2523.6259,N,07940.6487,W,1,9,1.6,25,M,,M,,*56
05/31/2014	00:03:41.384	$GPGGA,000342,2523.6262,N,07940.6485,W,1,9,1.6,25,M,,M,,*5F
05/31/2014	00:03:42.370	$GPGGA,000343,2523.6266,N,07940.6483,W,1,9,1.6,25,M,,M,,*5C
05/31/2014	00:03:43.385	$GPGGA,000344,2523.6269,N,07940.6480,W,1,9,1.6,25,M,,M,,*57
05/31/2014	00:03:44.363	$GPGGA,000345,2523.6272,N,07940.6479,W,1,9,1.6,25,M,,M,,*5A
05/31/2014	00:03:45.368	$GPGGA,000346,2523.6276,N,07940.6477,W,1,9,1.6,25,M,,M,,*53
05/31/2014	00:03:46.372	$GPGGA,000347,2523.6279,N,07940.6474,W,1,9,1.6,25,M,,M,,*5E
05/31/2014	00:03:47.368	$GPGGA,000348,2523.6281,N,07940.6471,W,1,9,1.6,25,M,,M,,*53
05/31/2014	00:03:48.344	$GPGGA,000349,2523.6286,N,07940.6469,W,1,9,1.6,25,M,,M,,*5C
05/31/2014	00:03:49.329	$GPGGA,000350,2523.6288,N,07940.6467,W,1,9,1.6,25,M,,M,,*54
05/31/2014	00:03:50.316	$GPGGA,000351,2523.6291,N,07940.6464,W,1,9,1.6,25,M,,M,,*5E
05/31/2014	00:03:51.320	$GPGGA,000352,2523.6294,N,07940.6462,W,1,9,1.6,24,M,,M,,*5F
05/31/2014	00:03:52.346	$GPGGA,000353,2523.6298,N,07940.6460,W,1,9,1.6,24,M,,M,,*50
05/31/2014	00:03:53.321	$GPGGA,000354,2523.6301,N,07940.6459,W,1,9,1.6,24,M,,M,,*5C
05/31/2014	00:03:54.297	$GPGGA,000355,2523.6303,N,07940.6456,W,1,9,1.6,24,M,,M,,*50
05/31/2014	00:03:55.314	$GPGGA,000356,2523.6306,N,07940.6454,W,1,9,1.6,24,M,,M,,*54
05/31/2014	00:03:56.320	$GPGGA,000357,2523.6310,N,07940.6452,W,1,9,1.6,24,M,,M,,*54
05/31/2014	00:03:57.283	$GPGGA,000358,2523.6313,N,07940.6450,W,1,9,1.6,24,M,,M,,*5A
05/31/2014	00:03:58.269	$GPGGA,000359,2523.6315,N,07940.6448,W,1,9,1.6,24,M,,M,,*54
05/31/2014	00:03:59.303	$GPGGA,000400,2523.6317,N,07940.6445,W,1,9,1.7,24,M,,M,,*51
05/31/2014	00:04:00.250	$GPGGA,000401,2523.6321,N,07940.6443,W,1,9,1.6,24,M,,M,,*52
05/31/2014	00:04:01.245	$GPGGA,000402,2523.6324,N,07940.6441,W,1,9,1.6,23,M,,M,,*51
05/31/2014	00:04:02.251	$GPGGA,000403,2523.6328,N,07940.6438,W,1,9,1.6,23,M,,M,,*52
05/31/2014	00:04:03.237	$GPGGA,000404,2523.6331,N,07940.6437,W,1,9,1.6,23,M,,M,,*52
05/31/2014	00:04:04.332	$GPGGA,000405,2523.6335,N,07940.6435,W,1,8,1.7,23,M,,M,,*55
05/31/2014	00:04:05.238	$GPGGA,000406,2523.6339,N,07940.6432,W,1,8,1.6,23,M,,M,,*5C
05/31/2014	00:04:06.323	$GPGGA,000407,2523.6341,N,07940.6430,W,1,9,1.6,23,M,,M,,*51
05/31/2014	00:04:07.229	$GPGGA,000408,2523.6345,N,07940.6428,W,1,9,1.6,23,M,,M,,*53
05/31/2014	00:04:08.344	$GPGGA,000409,2523.6348,N,07940.6426,W,1,9,1.6,23,M,,M,,*51
05/31/2014	00:04:09.220	$GPGGA,000410,2523.6350,N,07940.6424,W,1,9,1.6,23,M,,M,,*52
05/31/2014	00:04:10.315	$GPGGA,000411,2523.6353,N,07940.6421,W,1,9,1.6,23,M,,M,,*55
05/31/2014	00:04:11.301	$GPGGA,000412,2523.6357,N,07940.6419,W,1,9,1.6,23,M,,M,,*59
05/31/2014	00:04:12.187	$GPGGA,000413,2523.6360,N,07940.6417,W,1,9,1.6,23,M,,M,,*52
05/31/2014	00:04:13.262	$GPGGA,000414,2523.6364,N,07940.6415,W,1,9,1.6,23,M,,M,,*53
05/31/2014	00:04:14.267	$GPGGA,000415,2523.6367,N,07940.6413,W,1,9,1.6,23,M,,M,,*57
05/31/2014	00:04:15.173	$GPGGA,000416,2523.6371,N,07940.6411,W,1,9,1.6,22,M,,M,,*50
05/31/2014	00:04:16.945	$GPGGA,000417,2523.6374,N,07940.6409,W,1,9,1.6,22,M,,M,,*5D
05/31/2014	00:04:17.244	$GPGGA,000418,2523.6377,N,07940.6408,W,1,9,1.6,22,M,,M,,*50
05/31/2014	00:04:18.239	$GPGGA,000419,2523.6380,N,07940.6405,W,1,9,1.6,22,M,,M,,*54
05/31/2014	00:04:19.245	$GPGGA,000420,2523.6384,N,07940.6403,W,1,9,1.6,22,M,,M,,*5C
05/31/2014	00:04:20.504	$GPGGA,000421,2523.6386,N,07940.6402,W,1,9,1.6,22,M,,M,,*5E
05/31/2014	00:04:21.490	$GPGGA,000422,2523.6391,N,07940.6399,W,1,9,1.6,22,M,,M,,*5E
05/31/2014	00:04:22.496	$GPGGA,000423,2523.6393,N,07940.6398,W,1,9,1.6,22,M,,M,,*5C
05/31/2014	00:04:23.492	$GPGGA,000424,2523.6396,N,07940.6396,W,1,9,1.6,22,M,,M,,*50
05/31/2014	00:04:24.477	$GPGGA,000425,2523.6400,N,07940.6394,W,1,9,1.6,22,M,,M,,*5B
05/31/2014	00:04:25.463	$GPGGA,000426,2523.6404,N,07940.6391,W,1,9,1.6,22,M,,M,,*59
05/31/2014	00:04:26.468	$GPGGA,000427,2523.6406,N,07940.6389,W,1,9,1.6,22,M,,M,,*53
05/31/2014	00:04:27.454	$GPGGA,000428,2523.6410,N,07940.6387,W,1,9,1.6,22,M,,M,,*55
05/31/2014	00:04:28.459	$GPGGA,000429,2523.6413,N,07940.6385,W,1,9,1.6,22,M,,M,,*55
05/31/2014	00:04:29.435	$GPGGA,000430,2523.6415,N,07940.6383,W,1,9,1.6,21,M,,M,,*5E
05/31/2014	00:04:30.438	$GPGGA,000431,2523.6418,N,07940.6381,W,1,9,1.6,21,M,,M,,*50
05/31/2014	00:04:31.436	$GPGGA,000432,2523.6422,N,07940.6379,W,1,9,1.6,21,M,,M,,*5D
05/31/2014	00:04:32.431	$GPGGA,000433,2523.6425,N,07940.6377,W,1,9,1.6,21,M,,M,,*55
05/31/2014	00:04:33.414	$GPGGA,000434,2523.6429,N,07940.6374,W,1,9,1.6,21,M,,M,,*5D
05/31/2014	00:04:34.402	$GPGGA,000435,2523.6432,N,07940.6371,W,1,9,1.6,21,M,,M,,*53
05/31/2014	00:04:35.400	$GPGGA,000436,2523.6433,N,07940.6369,W,1,9,1.6,21,M,,M,,*58
05/31/2014	00:04:36.383	$GPGGA,000437,2523.6438,N,07940.6366,W,1,9,1.6,21,M,,M,,*5D
05/31/2014	00:04:37.379	$GPGGA,000438,2523.6440,N,07940.6364,W,1,9,1.6,21,M,,M,,*5F
05/31/2014	00:04:38.414	$GPGGA,000439,2523.6443,N,07940.6362,W,1,9,1.6,21,M,,M,,*5B
05/31/2014	00:04:39.381	$GPGGA,000440,2523.6447,N,07940.6359,W,1,9,1.6,21,M,,M,,*59
05/31/2014	00:04:40.386	$GPGGA,000441,2523.6450,N,07940.6356,W,1,9,1.6,21,M,,M,,*51
05/31/2014	00:04:41.341	$GPGGA,000442,2523.6453,N,07940.6354,W,1,9,1.6,21,M,,M,,*53
05/31/2014	00:04:42.357	$GPGGA,000443,2523.6456,N,07940.6352,W,1,9,1.6,21,M,,M,,*51
05/31/2014	00:04:43.342	$GPGGA,000444,2523.6458,N,07940.6350,W,1,9,1.6,21,M,,M,,*5A
05/31/2014	00:04:44.328	$GPGGA,000445,2523.6462,N,07940.6348,W,1,9,1.6,21,M,,M,,*5B
05/31/2014	00:04:45.344	$GPGGA,000446,2523.6465,N,07940.6345,W,1,9,1.6,21,M,,M,,*52
05/31/2014	00:04:46.329	$GPGGA,000447,2523.6468,N,07940.6343,W,1,9,1.6,21,M,,M,,*58
05/31/2014	00:04:47.335	$GPGGA,000448,2523.6471,N,07940.6341,W,1,9,1.6,21,M,,M,,*5D
05/31/2014	00:04:48.301	$GPGGA,000449,2523.6474,N,07940.6338,W,1,9,1.6,20,M,,M,,*56
05/31/2014	00:04:49.415	$GPGGA,000450,2523.6478,N,07940.6336,W,1,9,1.7,20,M,,M,,*5D
05/31/2014	00:04:50.292	$GPGGA,000451,2523.6480,N,07940.6335,W,1,9,1.6,20,M,,M,,*59
05/31/2014	00:04:51.297	$GPGGA,000452,2523.6483,N,07940.6333,W,1,9,1.6,20,M,,M,,*5F
05/31/2014	00:04:52.394	$GPGGA,000453,2523.6489,N,07940.6330,W,1,9,1.6,20,M,,M,,*57
05/31/2014	00:04:53.281	$GPGGA,000454,2523.6490,N,07940.6328,W,1,9,1.6,21,M,,M,,*50
05/31/2014	00:04:54.367	$GPGGA,000455,2523.6494,N,07940.6326,W,1,8,1.7,21,M,,M,,*5B
05/31/2014	00:04:55.295	$GPGGA,000456,2523.6497,N,07940.6324,W,1,8,1.6,21,M,,M,,*58
05/31/2014	00:04:56.381	$GPGGA,000457,2523.6501,N,07940.6322,W,1,9,1.6,21,M,,M,,*50
05/31/2014	00:04:57.248	$GPGGA,000458,2523.6504,N,07940.6320,W,1,9,1.6,21,M,,M,,*58
05/31/2014	00:04:58.365	$GPGGA,000459,2523.6507,N,07940.6318,W,1,9,1.6,21,M,,M,,*51
05/31/2014	00:04:59.372	$GPGGA,000500,2523.6511,N,07940.6316,W,1,9,1.6,21,M,,M,,*55
05/31/2014	00:05:00.349	$GPGGA,000501,2523.6514,N,07940.6313,W,1,9,1.6,21,M,,M,,*54
05/31/2014	00:05:01.346	$GPGGA,000502,2523.6516,N,07940.6311,W,1,9,1.9,21,M,,M,,*58
05/31/2014	00:05:02.323	$GPGGA,000503,2523.6519,N,07940.6309,W,1,9,1.6,21,M,,M,,*50
05/31/2014	00:05:03.329	$GPGGA,000504,2523.6523,N,07940.6306,W,1,9,1.6,21,M,,M,,*51
05/31/2014	00:05:04.366	$GPGGA,000505,2523.6526,N,07940.6303,W,1,9,1.6,21,M,,M,,*50
05/31/2014	00:05:05.303	$GPGGA,000506,2523.6529,N,07940.6302,W,1,9,1.9,21,M,,M,,*52
05/31/2014	00:05:06.330	$GPGGA,000507,2523.6532,N,07940.6300,W,1,9,1.6,21,M,,M,,*54
05/31/2014	00:05:07.318	$GPGGA,000508,2523.6534,N,07940.6297,W,1,9,1.6,21,M,,M,,*52
05/31/2014	00:05:08.303	$GPGGA,000509,2523.6537,N,07940.6295,W,1,9,1.6,21,M,,M,,*52
05/31/2014	00:05:09.300	$GPGGA,000510,2523.6540,N,07940.6293,W,1,9,1.9,21,M,,M,,*53
05/31/2014	00:05:10.307	$GPGGA,000511,2523.6544,N,07940.6291,W,1,9,1.6,21,M,,M,,*5B
05/31/2014	00:05:11.294	$GPGGA,000512,2523.6547,N,07940.6288,W,1,9,1.7,21,M,,M,,*52
05/31/2014	00:05:12.291	$GPGGA,000513,2523.6550,N,07940.6286,W,1,9,1.6,21,M,,M,,*5A
05/31/2014	00:05:13.277	$GPGGA,000514,2523.6552,N,07940.6284,W,1,9,1.6,21,M,,M,,*5D
05/31/2014	00:05:14.294	$GPGGA,000515,2523.6555,N,07940.6282,W,1,9,1.6,21,M,,M,,*5D
05/31/2014	00:05:15.281	$GPGGA,000516,2523.6558,N,07940.6279,W,1,9,1.6,21,M,,M,,*57
05/31/2014	00:05:16.258	$GPGGA,000517,2523.6561,N,07940.6277,W,1,9,1.6,21,M,,M,,*52
05/31/2014	00:05:17.261	$GPGGA,000518,2523.6563,N,07940.6276,W,1,9,1.9,21,M,,M,,*51
05/31/2014	00:05:18.269	$GPGGA,000519,2523.6566,N,07940.6273,W,1,9,1.6,21,M,,M,,*5F
05/31/2014	00:05:19.249	$GPGGA,000520,2523.6569,N,07940.6271,W,1,9,1.6,21,M,,M,,*58
05/31/2014	00:05:20.452	$GPGGA,000521,2523.6572,N,07940.6269,W,1,9,1.6,21,M,,M,,*5A
05/31/2014	00:05:21.449	$GPGGA,000522,2523.6573,N,07940.6267,W,1,9,1.6,21,M,,M,,*56
05/31/2014	00:05:22.486	$GPGGA,000523,2523.6576,N,07940.6265,W,1,9,1.6,21,M,,M,,*50
05/31/2014	00:05:23.463	$GPGGA,000524,2523.6579,N,07940.6263,W,1,9,1.6,22,M,,M,,*5D
05/31/2014	00:05:24.479	$GPGGA,000525,2523.6581,N,07940.6262,W,1,9,1.6,22,M,,M,,*5A
05/31/2014	00:05:25.437	$GPGGA,000526,2523.6584,N,07940.6260,W,1,9,1.6,22,M,,M,,*5E
05/31/2014	00:05:26.453	$GPGGA,000527,2523.6587,N,07940.6258,W,1,9,1.6,22,M,,M,,*57
05/31/2014	00:05:27.429	$GPGGA,000528,2523.6591,N,07940.6256,W,1,9,1.6,22,M,,M,,*51
05/31/2014	00:05:28.456	$GPGGA,000529,2523.6594,N,07940.6254,W,1,9,1.6,22,M,,M,,*57
05/31/2014	00:05:29.413	$GPGGA,000530,2523.6597,N,07940.6252,W,1,9,1.6,22,M,,M,,*5A
05/31/2014	00:05:32.090	$GPGGA,000532,2523.6604,N,07940.6250,W,1,9,1.6,22,M,,M,,*53
05/31/2014	00:05:32.404	$GPGGA,000533,2523.6606,N,07940.6247,W,1,9,1.6,22,M,,M,,*56
05/31/2014	00:05:33.411	$GPGGA,000534,2523.6609,N,07940.6245,W,1,9,1.6,22,M,,M,,*5C
05/31/2014	00:05:34.388	$GPGGA,000535,2523.6612,N,07940.6243,W,1,9,1.6,22,M,,M,,*51
05/31/2014	00:05:35.405	$GPGGA,000536,2523.6615,N,07940.6241,W,1,9,1.6,22,M,,M,,*57
05/31/2014	00:05:36.382	$GPGGA,000537,2523.6617,N,07940.6239,W,1,9,1.6,22,M,,M,,*5B
05/31/2014	00:05:37.488	$GPGGA,000538,2523.6620,N,07940.6237,W,1,9,1.6,22,M,,M,,*5E
05/31/2014	00:05:38.485	$GPGGA,000539,2523.6624,N,07940.6235,W,1,9,1.6,22,M,,M,,*59
05/31/2014	00:05:39.382	$GPGGA,000540,2523.6628,N,07940.6233,W,1,9,1.6,22,M,,M,,*5D
05/31/2014	00:05:40.489	$GPGGA,000541,2523.6631,N,07940.6232,W,1,9,1.6,23,M,,M,,*54
05/31/2014	00:05:41.356	$GPGGA,000542,2523.6634,N,07940.6230,W,1,9,1.6,23,M,,M,,*50
05/31/2014	00:05:42.462	$GPGGA,000543,2523.6637,N,07940.6228,W,1,9,1.6,23,M,,M,,*5B
05/31/2014	00:05:43.349	$GPGGA,000544,2523.6639,N,07940.6226,W,1,9,1.6,23,M,,M,,*5C
05/31/2014	00:05:44.336	$GPGGA,000545,2523.6644,N,07940.6224,W,1,9,1.6,23,M,,M,,*55
05/31/2014	00:05:45.423	$GPGGA,000546,2523.6646,N,07940.6222,W,1,9,1.6,23,M,,M,,*52
05/31/2014	00:05:46.429	$GPGGA,000547,2523.6651,N,07940.6220,W,1,9,1.6,23,M,,M,,*57
05/31/2014	00:05:47.337	$GPGGA,000548,2523.6653,N,07940.6218,W,1,9,1.6,23,M,,M,,*51
05/31/2014	00:05:48.423	$GPGGA,000549,2523.6656,N,07940.6217,W,1,9,1.6,23,M,,M,,*5A
05/31/2014	00:05:49.400	$GPGGA,000550,2523.6660,N,07940.6214,W,1,9,1.6,23,M,,M,,*54
05/31/2014	00:05:50.437	$GPGGA,000551,2523.6663,N,07940.6212,W,1,9,1.7,23,M,,M,,*51
05/31/2014	00:05:51.414	$GPGGA,000552,2523.6667,N,07940.6210,W,1,9,1.6,23,M,,M,,*55
05/31/2014	00:05:52.431	$GPGGA,000553,2523.6670,N,07940.6208,W,1,9,1.6,23,M,,M,,*5B
05/31/2014	00:05:53.390	$GPGGA,000554,2523.6674,N,07940.6206,W,1,9,1.6,23,M,,M,,*56
05/31/2014	00:05:54.405	$GPGGA,000555,2523.6677,N,07940.6205,W,1,9,1.6,23,M,,M,,*57
05/31/2014	00:05:55.392	$GPGGA,000556,2523.6681,N,07940.6202,W,1,9,1.6,23,M,,M,,*5A
05/31/2014	00:05:56.398	$GPGGA,000557,2523.6684,N,07940.6200,W,1,9,1.6,23,M,,M,,*5C
05/31/2014	00:05:57.363	$GPGGA,000558,2523.6686,N,07940.6199,W,1,9,1.6,23,M,,M,,*52
05/31/2014	00:05:58.392	$GPGGA,000559,2523.6691,N,07940.6196,W,1,9,1.6,23,M,,M,,*5A
05/31/2014	00:05:59.388	$GPGGA,000600,2523.6693,N,07940.6194,W,1,9,1.6,23,M,,M,,*55
05/31/2014	00:06:00.346	$GPGGA,000601,2523.6696,N,07940.6192,W,1,9,1.6,23,M,,M,,*57
05/31/2014	00:06:01.342	$GPGGA,000602,2523.6700,N,07940.6190,W,1,9,1.6,22,M,,M,,*59
05/31/2014	00:06:02.349	$GPGGA,000603,2523.6703,N,07940.6188,W,1,9,1.6,22,M,,M,,*52
05/31/2014	00:06:03.346	$GPGGA,000604,2523.6707,N,07940.6186,W,1,9,1.6,22,M,,M,,*5F
05/31/2014	00:06:04.338	$GPGGA,000605,2523.6711,N,07940.6184,W,1,9,1.6,22,M,,M,,*5B
05/31/2014	00:06:05.334	$GPGGA,000606,2523.6714,N,07940.6181,W,1,9,1.7,22,M,,M,,*59
05/31/2014	00:06:06.341	$GPGGA,000607,2523.6717,N,07940.6178,W,1,8,1.7,22,M,,M,,*5C
05/31/2014	00:06:07.333	$GPGGA,000608,2523.6720,N,07940.6177,W,1,8,2.0,22,M,,M,,*5C
05/31/2014	00:06:08.310	$GPGGA,000609,2523.6722,N,07940.6175,W,1,7,1.6,22,M,,M,,*57
05/31/2014	00:06:09.310	$GPGGA,000610,2523.6725,N,07940.6172,W,1,7,1.6,22,M,,M,,*5F
05/31/2014	00:06:10.334	$GPGGA,000611,2523.6729,N,07940.6168,W,1,9,1.6,22,M,,M,,*57
05/31/2014	00:06:11.321	$GPGGA,000612,2523.6731,N,07940.6167,W,1,9,1.6,22,M,,M,,*52
05/31/2014	00:06:12.328	$GPGGA,000613,2523.6735,N,07940.6164,W,1,9,1.6,22,M,,M,,*54
05/31/2014	00:06:13.275	$GPGGA,000614,2523.6738,N,07940.6161,W,1,9,1.6,22,M,,M,,*5B
05/31/2014	00:06:14.295	$GPGGA,000615,2523.6740,N,07940.6158,W,1,9,1.6,22,M,,M,,*5F
05/31/2014	00:06:15.305	$GPGGA,000616,2523.6743,N,07940.6157,W,1,9,1.6,22,M,,M,,*50
05/31/2014	00:06:16.266	$GPGGA,000617,2523.6747,N,07940.6155,W,1,9,1.6,22,M,,M,,*57
05/31/2014	00:06:17.272	$GPGGA,000618,2523.6750,N,07940.6151,W,1,9,1.6,22,M,,M,,*5A
05/31/2014	00:06:18.268	$GPGGA,000619,2523.6754,N,07940.6150,W,1,9,1.6,22,M,,M,,*5E
05/31/2014	00:06:19.305	$GPGGA,000620,2523.6757,N,07940.6147,W,1,9,1.7,22,M,,M,,*50
05/31/2014	00:06:20.448	$GPGGA,000621,2523.6758,N,07940.6144,W,1,8,1.6,22,M,,M,,*5D
05/31/2014	00:06:21.425	$GPGGA,000622,2523.6761,N,07940.6141,W,1,8,1.6,22,M,,M,,*51
05/31/2014	00:06:22.422	$GPGGA,000623,2523.6765,N,07940.6139,W,1,9,1.6,22,M,,M,,*5A
05/31/2014	00:06:23.463	$GPGGA,000624,2523.6767,N,07940.6136,W,1,9,1.7,22,M,,M,,*51
05/31/2014	00:06:24.436	$GPGGA,000625,2523.6769,N,07940.6134,W,1,8,1.7,22,M,,M,,*5D
05/31/2014	00:06:25.424	$GPGGA,000626,2523.6772,N,07940.6131,W,1,8,1.7,22,M,,M,,*51
05/31/2014	00:06:26.420	$GPGGA,000627,2523.6778,N,07940.6130,W,1,8,1.6,22,M,,M,,*5A
05/31/2014	00:06:27.417	$GPGGA,000628,2523.6779,N,07940.6127,W,1,8,1.7,22,M,,M,,*53
05/31/2014	00:06:28.513	$GPGGA,000629,2523.6783,N,07940.6125,W,1,8,1.6,22,M,,M,,*54
05/31/2014	00:06:29.410	$GPGGA,000630,2523.6787,N,07940.6124,W,1,8,1.6,22,M,,M,,*59
05/31/2014	00:06:30.507	$GPGGA,000631,2523.6792,N,07940.6123,W,1,9,1.6,22,M,,M,,*5A
05/31/2014	00:06:31.504	$GPGGA,000632,2523.6794,N,07940.6121,W,1,9,1.6,22,M,,M,,*5D
05/31/2014	00:06:32.511	$GPGGA,000633,2523.6797,N,07940.6119,W,1,9,1.6,22,M,,M,,*54
05/31/2014	00:06:33.468	$GPGGA,000634,2523.6801,N,07940.6117,W,1,9,1.6,22,M,,M,,*5D
05/31/2014	00:06:34.464	$GPGGA,000635,2523.6804,N,07940.6115,W,1,9,1.6,22,M,,M,,*5B
05/31/2014	00:06:35.461	$GPGGA,000636,2523.6808,N,07940.6113,W,1,9,1.6,22,M,,M,,*52
05/31/2014	00:06:36.437	$GPGGA,000637,2523.6811,N,07940.6111,W,1,9,1.6,22,M,,M,,*59
05/31/2014	00:06:37.355	$GPGGA,000638,2523.6814,N,07940.6110,W,1,9,1.6,22,M,,M,,*52
05/31/2014	00:06:38.471	$GPGGA,000639,2523.6816,N,07940.6108,W,1,9,1.6,22,M,,M,,*58
05/31/2014	00:06:39.448	$GPGGA,000640,2523.6819,N,07940.6105,W,1,9,1.6,22,M,,M,,*54
05/31/2014	00:06:40.455	$GPGGA,000641,2523.6822,N,07940.6103,W,1,9,1.6,22,M,,M,,*5B
05/31/2014	00:06:41.422	$GPGGA,000642,2523.6825,N,07940.6102,W,1,9,1.6,22,M,,M,,*5E
05/31/2014	00:06:42.429	$GPGGA,000643,2523.6828,N,07940.6100,W,1,9,1.6,22,M,,M,,*50
05/31/2014	00:06:43.426	$GPGGA,000644,2523.6832,N,07940.6098,W,1,9,1.6,22,M,,M,,*5C
05/31/2014	00:06:44.433	$GPGGA,000645,2523.6833,N,07940.6097,W,1,9,1.6,22,M,,M,,*53
05/31/2014	00:06:45.410	$GPGGA,000646,2523.6837,N,07940.6094,W,1,9,1.6,22,M,,M,,*57
05/31/2014	00:06:46.387	$GPGGA,000647,2523.6840,N,07940.6093,W,1,9,1.6,22,M,,M,,*51
05/31/2014	00:06:47.405	$GPGGA,000648,2523.6843,N,07940.6092,W,1,9,1.6,22,M,,M,,*5C
05/31/2014	00:06:48.368	$GPGGA,000649,2523.6844,N,07940.6089,W,1,9,1.6,22,M,,M,,*50
05/31/2014	00:06:49.360	$GPGGA,000650,2523.6848,N,07940.6088,W,1,9,1.6,22,M,,M,,*55
05/31/2014	00:06:50.343	$GPGGA,000651,2523.6851,N,07940.6086,W,1,9,1.6,22,M,,M,,*52
05/31/2014	00:06:51.323	$GPGGA,000652,2523.6854,N,07940.6084,W,1,9,1.6,22,M,,M,,*56
05/31/2014	00:06:52.317	$GPGGA,000653,2523.6857,N,07940.6082,W,1,9,1.6,22,M,,M,,*52
05/31/2014	00:06:53.280	$GPGGA,000654,2523.6859,N,07940.6081,W,1,9,1.6,22,M,,M,,*58
05/31/2014	00:06:54.262	$GPGGA,000655,2523.6862,N,07940.6078,W,1,9,1.6,22,M,,M,,*57
05/31/2014	00:06:55.245	$GPGGA,000656,2523.6865,N,07940.6076,W,1,9,1.6,22,M,,M,,*5D
05/31/2014	00:06:56.217	$GPGGA,000657,2523.6868,N,07940.6074,W,1,9,1.6,22,M,,M,,*53
05/31/2014	00:06:57.191	$GPGGA,000658,2523.6870,N,07940.6072,W,1,9,1.6,22,M,,M,,*53
05/31/2014	00:06:58.163	$GPGGA,000659,2523.6873,N,07940.6069,W,1,9,1.6,22,M,,M,,*5B
05/31/2014	00:06:59.204	$GPGGA,000700,2523.6876,N,07940.6067,W,1,9,1.6,22,M,,M,,*5D
05/31/2014	00:07:00.118	$GPGGA,000701,2523.6879,N,07940.6065,W,1,9,1.6,22,M,,M,,*51
05/31/2014	00:07:02.145	$GPGGA,000703,2523.6884,N,07940.6061,W,1,9,1.6,22,M,,M,,*55
05/31/2014	00:07:03.075	$GPGGA,000704,2523.6888,N,07940.6058,W,1,9,1.6,22,M,,M,,*54
05/31/2014	00:07:04.058	$GPGGA,000705,2523.6891,N,07940.6056,W,1,9,1.6,22,M,,M,,*53
05/31/2014	00:07:05.040	$GPGGA,000706,2523.6894,N,07940.6054,W,1,9,1.6,22,M,,M,,*57
05/31/2014	00:07:06.062	$GPGGA,000707,2523.6897,N,07940.6051,W,1,9,1.6,22,M,,M,,*50
05/31/2014	00:07:06.995	$GPGGA,000708,2523.6898,N,07940.6050,W,1,9,1.6,22,M,,M,,*51
05/31/2014	00:07:08.007	$GPGGA,000709,2523.6902,N,07940.6047,W,1,9,1.6,22,M,,M,,*54
05/31/2014	00:07:08.949	$GPGGA,000710,2523.6905,N,07940.6044,W,1,9,1.6,22,M,,M,,*58
05/31/2014	00:07:09.922	$GPGGA,000711,2523.6908,N,07940.6042,W,1,9,1.6,22,M,,M,,*52
05/31/2014	00:07:11.043	$GPGGA,000712,2523.6911,N,07940.6040,W,1,9,1.6,22,M,,M,,*5B
05/31/2014	00:07:11.897	$GPGGA,000713,2523.6913,N,07940.6037,W,1,9,1.6,22,M,,M,,*58
05/31/2014	00:07:12.968	$GPGGA,000714,2523.6916,N,07940.6035,W,1,9,1.6,22,M,,M,,*58
05/31/2014	00:07:14.001	$GPGGA,000715,2523.6920,N,07940.6033,W,1,9,1.6,22,M,,M,,*5A
05/31/2014	00:07:14.943	$GPGGA,000716,2523.6922,N,07940.6031,W,1,9,1.6,21,M,,M,,*5A
05/31/2014	00:07:15.945	$GPGGA,000717,2523.6924,N,07940.6029,W,1,9,1.6,21,M,,M,,*54
05/31/2014	00:07:16.800	$GPGGA,000718,2523.6927,N,07940.6026,W,1,9,1.6,21,M,,M,,*57
05/31/2014	00:07:17.900	$GPGGA,000719,2523.6931,N,07940.6024,W,1,9,1.6,21,M,,M,,*53
05/31/2014	00:07:18.853	$GPGGA,000720,2523.6934,N,07940.6022,W,1,9,1.6,21,M,,M,,*5A
05/31/2014	00:07:20.410	$GPGGA,000721,2523.6937,N,07940.6019,W,1,9,1.6,21,M,,M,,*50
05/31/2014	00:07:21.471	$GPGGA,000722,2523.6940,N,07940.6017,W,1,9,1.6,21,M,,M,,*5D
05/31/2014	00:07:22.375	$GPGGA,000723,2523.6942,N,07940.6014,W,1,9,1.6,21,M,,M,,*5D
05/31/2014	00:07:23.446	$GPGGA,000724,2523.6945,N,07940.6012,W,1,9,1.6,21,M,,M,,*5B
05/31/2014	00:07:24.428	$GPGGA,000725,2523.6949,N,07940.6010,W,1,9,1.6,21,M,,M,,*54
05/31/2014	00:07:25.401	$GPGGA,000726,2523.6952,N,07940.6007,W,1,9,1.6,21,M,,M,,*5B
05/31/2014	00:07:26.373	$GPGGA,000727,2523.6956,N,07940.6005,W,1,9,1.6,21,M,,M,,*5C
05/31/2014	00:07:27.365	$GPGGA,000728,2523.6958,N,07940.6002,W,1,9,1.9,21,M,,M,,*55
05/31/2014	00:07:28.338	$GPGGA,000729,2523.6960,N,07940.5998,W,1,9,1.6,21,M,,M,,*59
05/31/2014	00:07:29.330	$GPGGA,000730,2523.6964,N,07940.5996,W,1,9,1.6,20,M,,M,,*5A
05/31/2014	00:07:30.312	$GPGGA,000731,2523.6967,N,07940.5993,W,1,9,1.6,20,M,,M,,*5D
05/31/2014	00:07:31.295	$GPGGA,000732,2523.6970,N,07940.5991,W,1,9,1.6,20,M,,M,,*5A
05/31/2014	00:07:32.287	$GPGGA,000733,2523.6973,N,07940.5989,W,1,9,1.6,20,M,,M,,*51
05/31/2014	00:07:33.250	$GPGGA,000734,2523.6975,N,07940.5987,W,1,9,1.9,20,M,,M,,*51
05/31/2014	00:07:34.242	$GPGGA,000735,2523.6978,N,07940.5985,W,1,9,1.6,20,M,,M,,*50
05/31/2014	00:07:35.215	$GPGGA,000736,2523.6982,N,07940.5982,W,1,9,1.6,20,M,,M,,*51
05/31/2014	00:07:36.217	$GPGGA,000737,2523.6985,N,07940.5978,W,1,9,1.6,20,M,,M,,*52
05/31/2014	00:07:37.164	$GPGGA,000738,2523.6988,N,07940.5975,W,1,9,1.6,20,M,,M,,*5D
05/31/2014	00:07:38.163	$GPGGA,000739,2523.6991,N,07940.5971,W,1,9,1.6,20,M,,M,,*50
05/31/2014	00:07:39.145	$GPGGA,000740,2523.6993,N,07940.5969,W,1,9,1.6,20,M,,M,,*55
05/31/2014	00:07:40.101	$GPGGA,000741,2523.6996,N,07940.5967,W,1,9,1.6,20,M,,M,,*5F
05/31/2014	00:07:41.097	$GPGGA,000742,2523.7000,N,07940.5962,W,1,9,1.9,20,M,,M,,*51
05/31/2014	00:07:42.095	$GPGGA,000743,2523.7002,N,07940.5959,W,1,9,1.6,20,M,,M,,*55
05/31/2014	00:07:43.075	$GPGGA,000744,2523.7005,N,07940.5957,W,1,9,1.6,20,M,,M,,*5B
05/31/2014	00:07:44.059	$GPGGA,000745,2523.7009,N,07940.5954,W,1,9,1.6,20,M,,M,,*55
05/31/2014	00:07:45.001	$GPGGA,000746,2523.7011,N,07940.5953,W,1,9,1.6,20,M,,M,,*58
05/31/2014	00:07:46.002	$GPGGA,000747,2523.7014,N,07940.5951,W,1,9,1.6,20,M,,M,,*5E
05/31/2014	00:07:46.986	$GPGGA,000748,2523.7018,N,07940.5949,W,1,9,1.6,20,M,,M,,*54
05/31/2014	00:07:47.957	$GPGGA,000749,2523.7021,N,07940.5945,W,1,8,1.9,20,M,,M,,*5D
05/31/2014	00:07:48.930	$GPGGA,000750,2523.7025,N,07940.5943,W,1,8,1.6,20,M,,M,,*58
05/31/2014	00:07:49.912	$GPGGA,000751,2523.7029,N,07940.5942,W,1,8,1.9,20,M,,M,,*5B
05/31/2014	00:07:50.907	$GPGGA,000752,2523.7032,N,07940.5940,W,1,8,1.6,20,M,,M,,*5F
05/31/2014	00:07:51.878	$GPGGA,000753,2523.7035,N,07940.5936,W,1,9,1.6,20,M,,M,,*59
05/31/2014	00:07:52.840	$GPGGA,000754,2523.7038,N,07940.5934,W,1,9,1.6,20,M,,M,,*51
05/31/2014	00:07:53.862	$GPGGA,000755,2523.7040,N,07940.5932,W,1,9,1.6,20,M,,M,,*59
05/31/2014	00:07:54.835	$GPGGA,000756,2523.7043,N,07940.5928,W,1,9,1.6,20,M,,M,,*52
05/31/2014	00:07:55.905	$GPGGA,000757,2523.7047,N,07940.5926,W,1,9,1.6,20,M,,M,,*59
05/31/2014	00:07:56.770	$GPGGA,000758,2523.7050,N,07940.5923,W,1,9,1.6,20,M,,M,,*55
05/31/2014	00:07:57.743	$GPGGA,000759,2523.7052,N,07940.5920,W,1,9,1.6,20,M,,M,,*55
05/31/2014	00:07:58.769	$GPGGA,000800,2523.7054,N,07940.5917,W,1,9,1.6,20,M,,M,,*54
05/31/2014	00:07:59.727	$GPGGA,000801,2523.7057,N,07940.5914,W,1,9,1.6,20,M,,M,,*55
05/31/2014	00:08:00.690	$GPGGA,000802,2523.7061,N,07940.5911,W,1,9,1.6,19,M,,M,,*5C
05/31/2014	00:08:01.672	$GPGGA,000803,2523.7064,N,07940.5908,W,1,9,1.6,19,M,,M,,*50
05/31/2014	00:08:02.782	$GPGGA,000804,2523.7067,N,07940.5905,W,1,9,1.6,19,M,,M,,*59
05/31/2014	00:08:03.637	$GPGGA,000805,2523.7070,N,07940.5903,W,1,9,1.6,19,M,,M,,*58
05/31/2014	00:08:04.708	$GPGGA,000806,2523.7072,N,07940.5900,W,1,9,1.6,19,M,,M,,*5A
05/31/2014	00:08:05.700	$GPGGA,000807,2523.7075,N,07940.5897,W,1,9,1.6,19,M,,M,,*53
05/31/2014	00:08:06.702	$GPGGA,000808,2523.7078,N,07940.5894,W,1,9,1.6,19,M,,M,,*52
05/31/2014	00:08:07.557	$GPGGA,000809,2523.7081,N,07940.5892,W,1,9,1.6,19,M,,M,,*53
05/31/2014	00:08:08.638	$GPGGA,000810,2523.7083,N,07940.5889,W,1,9,1.6,19,M,,M,,*53
05/31/2014	00:08:09.522	$GPGGA,000811,2523.7086,N,07940.5886,W,1,9,1.6,19,M,,M,,*58
05/31/2014	00:08:10.603	$GPGGA,000812,2523.7089,N,07940.5883,W,1,9,1.6,19,M,,M,,*51
05/31/2014	00:08:11.595	$GPGGA,000813,2523.7092,N,07940.5880,W,1,9,1.6,19,M,,M,,*59
05/31/2014	00:08:12.548	$GPGGA,000814,2523.7094,N,07940.5877,W,1,9,1.6,19,M,,M,,*50
05/31/2014	00:08:13.531	$GPGGA,000815,2523.7097,N,07940.5874,W,1,9,1.6,19,M,,M,,*51
05/31/2014	00:08:14.526	$GPGGA,000816,2523.7100,N,07940.5872,W,1,9,1.6,19,M,,M,,*5B
05/31/2014	00:08:15.515	$GPGGA,000817,2523.7103,N,07940.5870,W,1,9,1.6,19,M,,M,,*5B
05/31/2014	00:08:16.478	$GPGGA,000818,2523.7104,N,07940.5867,W,1,9,1.6,19,M,,M,,*55
05/31/2014	00:08:17.451	$GPGGA,000819,2523.7108,N,07940.5863,W,1,9,1.6,19,M,,M,,*5C
05/31/2014	00:08:18.452	$GPGGA,000820,2523.7111,N,07940.5861,W,1,9,1.6,19,M,,M,,*5C
05/31/2014	00:08:20.484	$GPGGA,000821,2523.7114,N,07940.5859,W,1,9,1.6,19,M,,M,,*53
05/31/2014	00:08:21.457	$GPGGA,000822,2523.7117,N,07940.5855,W,1,9,1.6,19,M,,M,,*5F
05/31/2014	00:08:22.448	$GPGGA,000823,2523.7119,N,07940.5853,W,1,9,1.6,19,M,,M,,*56
05/31/2014	00:08:23.425	$GPGGA,000824,2523.7122,N,07940.5851,W,1,9,1.6,19,M,,M,,*5B
05/31/2014	00:08:24.405	$GPGGA,000825,2523.7126,N,07940.5848,W,1,9,1.6,19,M,,M,,*56
05/31/2014	00:08:25.377	$GPGGA,000826,2523.7128,N,07940.5845,W,1,9,1.6,19,M,,M,,*56
05/31/2014	00:08:26.360	$GPGGA,000827,2523.7130,N,07940.5843,W,1,9,1.6,19,M,,M,,*58
05/31/2014	00:08:27.352	$GPGGA,000828,2523.7135,N,07940.5841,W,1,9,1.6,19,M,,M,,*50
05/31/2014	00:08:28.325	$GPGGA,000829,2523.7137,N,07940.5839,W,1,9,1.6,19,M,,M,,*5C
05/31/2014	00:08:29.306	$GPGGA,000830,2523.7141,N,07940.5836,W,1,9,1.6,19,M,,M,,*5A
05/31/2014	00:08:30.270	$GPGGA,000831,2523.7144,N,07940.5833,W,1,9,1.6,19,M,,M,,*5B
05/31/2014	00:08:31.272	$GPGGA,000832,2523.7147,N,07940.5830,W,1,9,1.6,19,M,,M,,*58
05/31/2014	00:08:32.255	$GPGGA,000833,2523.7150,N,07940.5828,W,1,9,1.6,19,M,,M,,*56
05/31/2014	00:08:33.208	$GPGGA,000834,2523.7152,N,07940.5826,W,1,9,1.6,19,M,,M,,*5D
05/31/2014	00:08:34.205	$GPGGA,000835,2523.7157,N,07940.5823,W,1,9,1.6,19,M,,M,,*5C
05/31/2014	00:08:35.194	$GPGGA,000836,2523.7161,N,07940.5820,W,1,9,1.6,19,M,,M,,*59
05/31/2014	00:08:36.155	$GPGGA,000837,2523.7162,N,07940.5818,W,1,9,1.6,19,M,,M,,*50
05/31/2014	00:08:37.147	$GPGGA,000838,2523.7166,N,07940.5816,W,1,9,1.6,19,M,,M,,*55
05/31/2014	00:08:38.109	$GPGGA,000839,2523.7169,N,07940.5814,W,1,9,1.6,19,M,,M,,*59
05/31/2014	00:08:39.117	$GPGGA,000840,2523.7173,N,07940.5811,W,1,9,1.6,19,M,,M,,*59
05/31/2014	00:08:40.075	$GPGGA,000841,2523.7176,N,07940.5810,W,1,9,1.6,19,M,,M,,*5C
05/31/2014	00:08:41.067	$GPGGA,000842,2523.7177,N,07940.5807,W,1,9,1.6,19,M,,M,,*58
05/31/2014	00:08:42.073	$GPGGA,000843,2523.7182,N,07940.5803,W,1,9,1.6,19,M,,M,,*57
05/31/2014	00:08:43.032	$GPGGA,000844,2523.7184,N,07940.5801,W,1,9,1.6,19,M,,M,,*54
05/31/2014	00:08:44.134	$GPGGA,000845,2523.7188,N,07940.5798,W,1,9,1.6,19,M,,M,,*56
05/31/2014	00:08:44.987	$GPGGA,000846,2523.7191,N,07940.5796,W,1,9,1.6,19,M,,M,,*53
05/31/2014	00:08:45.950	$GPGGA,000847,2523.7194,N,07940.5793,W,1,9,1.6,19,M,,M,,*52
05/31/2014	00:08:46.962	$GPGGA,000848,2523.7195,N,07940.5789,W,1,9,1.9,19,M,,M,,*58
05/31/2014	00:08:47.934	$GPGGA,000849,2523.7199,N,07940.5786,W,1,9,1.6,19,M,,M,,*55
05/31/2014	00:08:48.897	$GPGGA,000850,2523.7202,N,07940.5784,W,1,9,1.6,19,M,,M,,*5E
05/31/2014	00:08:49.870	$GPGGA,000851,2523.7205,N,07940.5780,W,1,9,1.6,19,M,,M,,*5C
05/31/2014	00:08:50.872	$GPGGA,000852,2523.7208,N,07940.5777,W,1,9,1.6,19,M,,M,,*5A
05/31/2014	00:08:51.855	$GPGGA,000853,2523.7212,N,07940.5774,W,1,9,1.6,19,M,,M,,*53
05/31/2014	00:08:52.984	$GPGGA,000854,2523.7213,N,07940.5771,W,1,9,1.6,19,M,,M,,*50
05/31/2014	00:08:53.976	$GPGGA,000855,2523.7216,N,07940.5767,W,1,9,1.6,19,M,,M,,*53
05/31/2014	00:08:54.801	$GPGGA,000856,2523.7220,N,07940.5764,W,1,9,1.6,19,M,,M,,*56
05/31/2014	00:08:55.938	$GPGGA,000857,2523.7223,N,07940.5761,W,1,9,1.6,19,M,,M,,*51
05/31/2014	00:08:56.835	$GPGGA,000858,2523.7226,N,07940.5759,W,1,9,1.6,19,M,,M,,*50
05/31/2014	00:08:57.876	$GPGGA,000859,2523.7229,N,07940.5756,W,1,9,1.6,19,M,,M,,*51
05/31/2014	00:08:58.888	$GPGGA,000900,2523.7231,N,07940.5753,W,1,9,1.6,19,M,,M,,*50
05/31/2014	00:08:59.812	$GPGGA,000901,2523.7234,N,07940.5750,W,1,9,1.6,19,M,,M,,*57
05/31/2014	00:09:00.824	$GPGGA,000902,2523.7238,N,07940.5748,W,1,9,1.6,19,M,,M,,*51
05/31/2014	00:09:01.787	$GPGGA,000903,2523.7241,N,07940.5745,W,1,9,1.6,19,M,,M,,*53
05/31/2014	00:09:02.730	$GPGGA,000904,2523.7244,N,07940.5742,W,1,9,1.6,19,M,,M,,*56
05/31/2014	00:09:03.742	$GPGGA,000905,2523.7247,N,07940.5740,W,1,9,1.6,19,M,,M,,*56
05/31/2014	00:09:04.755	$GPGGA,000906,2523.7249,N,07940.5737,W,1,9,1.6,19,M,,M,,*5B
05/31/2014	00:09:05.707	$GPGGA,000907,2523.7253,N,07940.5735,W,1,9,1.6,19,M,,M,,*53
05/31/2014	00:09:06.736	$GPGGA,000908,2523.7255,N,07940.5732,W,1,9,1.6,19,M,,M,,*5D
05/31/2014	00:09:07.652	$GPGGA,000909,2523.7259,N,07940.5731,W,1,9,1.6,19,M,,M,,*53
05/31/2014	00:09:08.654	$GPGGA,000910,2523.7262,N,07940.5728,W,1,9,1.6,19,M,,M,,*5B
05/31/2014	00:09:09.667	$GPGGA,000911,2523.7263,N,07940.5725,W,1,9,1.6,19,M,,M,,*56
05/31/2014	00:09:10.638	$GPGGA,000912,2523.7267,N,07940.5722,W,1,9,1.6,19,M,,M,,*56
05/31/2014	00:09:11.582	$GPGGA,000913,2523.7270,N,07940.5720,W,1,9,1.6,19,M,,M,,*53
05/31/2014	00:09:12.593	$GPGGA,000914,2523.7273,N,07940.5717,W,1,9,1.6,19,M,,M,,*53
05/31/2014	00:09:13.499	$GPGGA,000915,2523.7276,N,07940.5714,W,1,9,1.6,19,M,,M,,*54
05/31/2014	00:09:14.558	$GPGGA,000916,2523.7278,N,07940.5712,W,1,9,1.6,19,M,,M,,*5F
05/31/2014	00:09:15.471	$GPGGA,000917,2523.7281,N,07940.5710,W,1,9,1.6,19,M,,M,,*5A
05/31/2014	00:09:16.446	$GPGGA,000918,2523.7284,N,07940.5707,W,1,9,1.6,19,M,,M,,*56
05/31/2014	00:09:17.517	$GPGGA,000919,2523.7287,N,07940.5704,W,1,9,1.6,19,M,,M,,*57
05/31/2014	00:09:18.478	$GPGGA,000920,2523.7289,N,07940.5702,W,1,9,1.6,19,M,,M,,*55
05/31/2014	00:09:20.491	$GPGGA,000921,2523.7292,N,07940.5698,W,1,9,1.6,19,M,,M,,*5C
05/31/2014	00:09:21.484	$GPGGA,000922,2523.7296,N,07940.5696,W,1,9,1.6,19,M,,M,,*55
05/31/2014	00:09:22.446	$GPGGA,000923,2523.7298,N,07940.5693,W,1,9,1.6,19,M,,M,,*5F
05/31/2014	00:09:23.449	$GPGGA,000924,2523.7300,N,07940.5690,W,1,9,1.6,19,M,,M,,*5B
05/31/2014	00:09:24.352	$GPGGA,000925,2523.7303,N,07940.5687,W,1,9,1.6,19,M,,M,,*5F
05/31/2014	00:09:25.414	$GPGGA,000926,2523.7307,N,07940.5685,W,1,9,1.6,19,M,,M,,*5A
05/31/2014	00:09:26.376	$GPGGA,000927,2523.7310,N,07940.5682,W,1,9,1.6,19,M,,M,,*5A
05/31/2014	00:09:27.388	$GPGGA,000928,2523.7313,N,07940.5679,W,1,9,1.6,19,M,,M,,*52
05/31/2014	00:09:28.341	$GPGGA,000929,2523.7314,N,07940.5676,W,1,9,1.6,19,M,,M,,*5B
05/31/2014	00:09:29.323	$GPGGA,000930,2523.7318,N,07940.5674,W,1,9,1.6,19,M,,M,,*5D
05/31/2014	00:09:30.305	$GPGGA,000931,2523.7321,N,07940.5670,W,1,9,1.6,19,M,,M,,*52
05/31/2014	00:09:31.298	$GPGGA,000932,2523.7325,N,07940.5668,W,1,9,1.6,19,M,,M,,*5C
05/31/2014	00:09:32.203	$GPGGA,000933,2523.7327,N,07940.5665,W,1,8,1.9,19,M,,M,,*5C
05/31/2014	00:09:33.253	$GPGGA,000934,2523.7328,N,07940.5661,W,1,8,1.6,19,M,,M,,*5F
05/31/2014	00:09:34.229	$GPGGA,000935,2523.7332,N,07940.5658,W,1,9,1.6,19,M,,M,,*5E
05/31/2014	00:09:35.159	$GPGGA,000936,2523.7336,N,07940.5655,W,1,9,1.6,19,M,,M,,*54
05/31/2014	00:09:36.230	$GPGGA,000937,2523.7338,N,07940.5651,W,1,9,1.6,19,M,,M,,*5F
05/31/2014	00:09:37.104	$GPGGA,000938,2523.7341,N,07940.5648,W,1,9,1.6,19,M,,M,,*56
05/31/2014	00:09:38.088	$GPGGA,000939,2523.7343,N,07940.5644,W,1,9,1.6,19,M,,M,,*59
05/31/2014	00:09:39.197	$GPGGA,000940,2523.7346,N,07940.5641,W,1,9,1.6,19,M,,M,,*57
05/31/2014	00:09:40.180	$GPGGA,000941,2523.7349,N,07940.5638,W,1,9,1.6,19,M,,M,,*57
05/31/2014	00:09:41.133	$GPGGA,000942,2523.7352,N,07940.5635,W,1,9,1.6,19,M,,M,,*53
05/31/2014	00:09:42.135	$GPGGA,000943,2523.7354,N,07940.5632,W,1,9,1.6,19,M,,M,,*53
05/31/2014	00:09:43.117	$GPGGA,000944,2523.7357,N,07940.5630,W,1,9,1.9,19,M,,M,,*5A
05/31/2014	00:09:44.001	$GPGGA,000945,2523.7360,N,07940.5627,W,1,8,1.6,19,M,,M,,*57
05/31/2014	00:09:45.043	$GPGGA,000946,2523.7363,N,07940.5624,W,1,8,1.6,19,M,,M,,*54
05/31/2014	00:09:46.054	$GPGGA,000947,2523.7365,N,07940.5621,W,1,9,1.6,19,M,,M,,*57
05/31/2014	00:09:47.027	$GPGGA,000948,2523.7368,N,07940.5617,W,1,9,1.6,19,M,,M,,*50
05/31/2014	00:09:48.029	$GPGGA,000949,2523.7371,N,07940.5614,W,1,9,1.6,19,M,,M,,*5A
05/31/2014	00:09:48.962	$GPGGA,000950,2523.7372,N,07940.5611,W,1,9,1.6,19,M,,M,,*54
05/31/2014	00:09:49.974	$GPGGA,000951,2523.7375,N,07940.5607,W,1,9,1.6,19,M,,M,,*55
05/31/2014	00:09:50.937	$GPGGA,000952,2523.7379,N,07940.5603,W,1,9,1.6,19,M,,M,,*5E
05/31/2014	00:09:51.939	$GPGGA,000953,2523.7381,N,07940.5601,W,1,9,1.7,19,M,,M,,*5B
05/31/2014	00:09:52.892	$GPGGA,000954,2523.7383,N,07940.5597,W,1,9,1.6,19,M,,M,,*53
05/31/2014	00:09:53.884	$GPGGA,000955,2523.7386,N,07940.5594,W,1,9,1.6,19,M,,M,,*54
05/31/2014	00:09:54.877	$GPGGA,000956,2523.7389,N,07940.5591,W,1,9,1.6,19,M,,M,,*5D
05/31/2014	00:09:55.841	$GPGGA,000957,2523.7393,N,07940.5588,W,1,9,1.6,19,M,,M,,*5F
05/31/2014	00:09:56.822	$GPGGA,000958,2523.7397,N,07940.5585,W,1,9,1.6,19,M,,M,,*59
05/31/2014	00:09:57.805	$GPGGA,000959,2523.7400,N,07940.5582,W,1,9,1.6,20,M,,M,,*5C
05/31/2014	00:09:58.797	$GPGGA,001000,2523.7400,N,07940.5582,W,1,9,1.6,20,M,,M,,*58
05/31/2014	00:09:59.779	$GPGGA,001001,2523.7406,N,07940.5577,W,1,9,1.6,20,M,,M,,*55
05/31/2014	00:10:00.772	$GPGGA,001002,2523.7410,N,07940.5574,W,1,9,1.6,20,M,,M,,*52
05/31/2014	00:10:01.744	$GPGGA,001003,2523.7414,N,07940.5572,W,1,9,1.6,20,M,,M,,*51
05/31/2014	00:10:02.747	$GPGGA,001004,2523.7415,N,07940.5569,W,1,9,1.6,20,M,,M,,*5D
05/31/2014	00:10:03.699	$GPGGA,001005,2523.7419,N,07940.5566,W,1,9,1.6,20,M,,M,,*5F
05/31/2014	00:10:04.671	$GPGGA,001006,2523.7422,N,07940.5564,W,1,9,1.6,20,M,,M,,*56
05/31/2014	00:10:05.644	$GPGGA,001007,2523.7426,N,07940.5560,W,1,9,1.6,20,M,,M,,*57
05/31/2014	00:10:06.645	$GPGGA,001008,2523.7430,N,07940.5557,W,1,9,1.6,20,M,,M,,*5B
05/31/2014	00:10:07.619	$GPGGA,001009,2523.7432,N,07940.5555,W,1,9,1.7,20,M,,M,,*5B
05/31/2014	00:10:08.611	$GPGGA,001010,2523.7436,N,07940.5552,W,1,9,1.6,20,M,,M,,*51
05/31/2014	00:10:09.584	$GPGGA,001011,2523.7439,N,07940.5549,W,1,9,1.6,19,M,,M,,*5F
                                                                                     05/31/2014	00:53:49.555	$GPGGA,005350,2529.7465,N,07937.5487,W,1,7,2.2,20,M,,M,,*5E
05/31/2014	00:53:50.459	$GPGGA,005351,2529.7494,N,07937.5479,W,1,7,1.7,20,M,,M,,*56
05/31/2014	00:53:51.579	$GPGGA,005352,2529.7524,N,07937.5473,W,1,7,2.2,20,M,,M,,*53
05/31/2014	00:53:52.489	$GPGGA,005353,2529.7556,N,07937.5467,W,1,7,2.2,20,M,,M,,*52
05/31/2014	00:53:53.615	$GPGGA,005354,2529.7589,N,07937.5462,W,1,7,2.2,20,M,,M,,*52
05/31/2014	00:53:54.469	$GPGGA,005355,2529.7620,N,07937.5456,W,1,8,2.2,20,M,,M,,*5B
05/31/2014	00:53:55.821	$GPGGA,005356,2529.7650,N,07937.5450,W,1,8,2.2,20,M,,M,,*59
05/31/2014	00:53:56.539	$GPGGA,005357,2529.7682,N,07937.5445,W,1,7,2.2,20,M,,M,,*5C
05/31/2014	00:53:57.459	$GPGGA,005358,2529.7712,N,07937.5440,W,1,7,2.2,20,M,,M,,*5E
05/31/2014	00:53:58.569	$GPGGA,005359,2529.7744,N,07937.5434,W,1,7,2.2,20,M,,M,,*5F
05/31/2014	00:53:59.569	$GPGGA,005400,2529.7775,N,07937.5428,W,1,7,2.2,20,M,,M,,*5B
05/31/2014	00:54:00.540	$GPGGA,005401,2529.7805,N,07937.5423,W,1,7,2.2,20,M,,M,,*59
05/31/2014	00:54:01.540	$GPGGA,005402,2529.7836,N,07937.5416,W,1,7,2.2,20,M,,M,,*5C
05/31/2014	00:54:02.540	$GPGGA,005403,2529.7867,N,07937.5411,W,1,7,2.2,20,M,,M,,*5E
05/31/2014	00:54:03.565	$GPGGA,005404,2529.7867,N,07937.5411,W,1,7,2.2,20,M,,M,,*59
05/31/2014	00:54:04.539	$GPGGA,005405,2529.7928,N,07937.5398,W,1,7,1.7,20,M,,M,,*52
05/31/2014	00:54:05.529	$GPGGA,005406,2529.7959,N,07937.5392,W,1,7,1.7,20,M,,M,,*5D
05/31/2014	00:54:06.529	$GPGGA,005407,2529.7990,N,07937.5387,W,1,7,2.2,19,M,,M,,*51
05/31/2014	00:54:07.529	$GPGGA,005408,2529.8022,N,07937.5382,W,1,7,2.2,19,M,,M,,*54
05/31/2014	00:54:08.539	$GPGGA,005409,2529.8053,N,07937.5376,W,1,7,2.2,19,M,,M,,*58
05/31/2014	00:54:09.509	$GPGGA,005410,2529.8083,N,07937.5370,W,1,7,2.2,19,M,,M,,*5B
05/31/2014	00:54:10.529	$GPGGA,005411,2529.8115,N,07937.5365,W,1,7,2.2,19,M,,M,,*50
05/31/2014	00:54:11.519	$GPGGA,005412,2529.8145,N,07937.5360,W,1,7,2.2,19,M,,M,,*53
05/31/2014	00:54:12.509	$GPGGA,005413,2529.8176,N,07937.5353,W,1,7,2.2,19,M,,M,,*52
05/31/2014	00:54:13.679	$GPGGA,005414,2529.8206,N,07937.5349,W,1,7,2.2,19,M,,M,,*5A
05/31/2014	00:54:14.499	$GPGGA,005415,2529.8238,N,07937.5343,W,1,7,2.2,19,M,,M,,*5C
05/31/2014	00:54:15.509	$GPGGA,005416,2529.8268,N,07937.5338,W,1,7,2.2,19,M,,M,,*56
05/31/2014	00:54:16.529	$GPGGA,005417,2529.8300,N,07937.5332,W,1,7,2.2,19,M,,M,,*52
05/31/2014	00:54:17.500	$GPGGA,005418,2529.8331,N,07937.5326,W,1,7,2.2,19,M,,M,,*5A
05/31/2014	00:54:18.520	$GPGGA,005419,2529.8362,N,07937.5320,W,1,7,2.2,19,M,,M,,*5B
05/31/2014	00:54:19.700	$GPGGA,005420,2529.8394,N,07937.5314,W,1,7,2.2,19,M,,M,,*5F
05/31/2014	00:54:20.521	$GPGGA,005421,2529.8425,N,07937.5308,W,1,7,2.2,19,M,,M,,*5E
05/31/2014	00:54:21.499	$GPGGA,005422,2529.8456,N,07937.5304,W,1,7,2.2,19,M,,M,,*55
05/31/2014	00:54:22.489	$GPGGA,005423,2529.8485,N,07937.5298,W,1,7,2.2,19,M,,M,,*5E
05/31/2014	00:54:23.509	$GPGGA,005424,2529.8517,N,07937.5294,W,1,7,1.7,19,M,,M,,*59
05/31/2014	00:54:24.479	$GPGGA,005425,2529.8546,N,07937.5290,W,1,8,1.7,19,M,,M,,*57
05/31/2014	00:54:25.489	$GPGGA,005426,2529.8578,N,07937.5286,W,1,8,1.7,19,M,,M,,*5E
05/31/2014	00:54:26.499	$GPGGA,005427,2529.8610,N,07937.5282,W,1,8,1.7,19,M,,M,,*56
05/31/2014	00:54:27.499	$GPGGA,005428,2529.8640,N,07937.5278,W,1,8,1.7,19,M,,M,,*59
05/31/2014	00:54:28.499	$GPGGA,005429,2529.8671,N,07937.5276,W,1,8,1.7,19,M,,M,,*54
05/31/2014	00:54:29.469	$GPGGA,005430,2529.8701,N,07937.5273,W,1,8,1.7,19,M,,M,,*5F
05/31/2014	00:54:30.589	$GPGGA,005431,2529.8733,N,07937.5271,W,1,8,1.7,19,M,,M,,*5D
05/31/2014	00:54:31.599	$GPGGA,005432,2529.8763,N,07937.5270,W,1,8,1.7,19,M,,M,,*5A
05/31/2014	00:54:32.599	$GPGGA,005433,2529.8795,N,07937.5269,W,1,8,1.7,19,M,,M,,*5A
05/31/2014	00:54:33.459	$GPGGA,005434,2529.8826,N,07937.5269,W,1,8,1.7,19,M,,M,,*5A
05/31/2014	00:54:34.469	$GPGGA,005435,2529.8857,N,07937.5268,W,1,8,1.7,19,M,,M,,*5C
05/31/2014	00:54:35.480	$GPGGA,005436,2529.8888,N,07937.5268,W,1,8,1.7,19,M,,M,,*5D
05/31/2014	00:54:36.460	$GPGGA,005437,2529.8918,N,07937.5269,W,1,8,1.7,19,M,,M,,*55
05/31/2014	00:54:37.450	$GPGGA,005438,2529.8950,N,07937.5271,W,1,8,1.7,19,M,,M,,*5F
05/31/2014	00:54:38.550	$GPGGA,005439,2529.8982,N,07937.5271,W,1,8,1.7,19,M,,M,,*51
05/31/2014	00:54:39.579	$GPGGA,005440,2529.9014,N,07937.5272,W,1,8,1.7,19,M,,M,,*5B
05/31/2014	00:54:40.459	$GPGGA,005441,2529.9045,N,07937.5275,W,1,8,1.7,19,M,,M,,*59
05/31/2014	00:54:41.539	$GPGGA,005442,2529.9077,N,07937.5276,W,1,8,1.7,19,M,,M,,*58
05/31/2014	00:54:42.569	$GPGGA,005443,2529.9109,N,07937.5278,W,1,8,1.7,19,M,,M,,*5F
05/31/2014	00:54:43.549	$GPGGA,005444,2529.9139,N,07937.5279,W,1,8,1.7,19,M,,M,,*5A
05/31/2014	00:54:44.549	$GPGGA,005445,2529.9171,N,07937.5282,W,1,8,1.7,19,M,,M,,*53
05/31/2014	00:54:45.539	$GPGGA,005446,2529.9203,N,07937.5285,W,1,8,1.7,20,M,,M,,*5B
05/31/2014	00:54:46.579	$GPGGA,005447,2529.9235,N,07937.5285,W,1,8,1.7,20,M,,M,,*5F
05/31/2014	00:54:47.539	$GPGGA,005448,2529.9268,N,07937.5289,W,1,8,1.7,20,M,,M,,*54
05/31/2014	00:54:48.549	$GPGGA,005449,2529.9299,N,07937.5290,W,1,8,1.7,20,M,,M,,*53
05/31/2014	00:54:49.529	$GPGGA,005450,2529.9332,N,07937.5293,W,1,8,1.7,20,M,,M,,*58
05/31/2014	00:54:50.539	$GPGGA,005451,2529.9362,N,07937.5296,W,1,8,1.7,20,M,,M,,*59
05/31/2014	00:54:51.529	$GPGGA,005452,2529.9394,N,07937.5300,W,1,8,1.7,20,M,,M,,*5D
05/31/2014	00:54:52.540	$GPGGA,005453,2529.9426,N,07937.5303,W,1,8,1.7,20,M,,M,,*51
05/31/2014	00:54:53.530	$GPGGA,005454,2529.9456,N,07937.5305,W,1,8,1.7,19,M,,M,,*5D
05/31/2014	00:54:54.540	$GPGGA,005455,2529.9487,N,07937.5308,W,1,8,1.7,19,M,,M,,*5D
05/31/2014	00:54:55.540	$GPGGA,005456,2529.9518,N,07937.5311,W,1,8,1.7,19,M,,M,,*51
05/31/2014	00:54:56.509	$GPGGA,005457,2529.9550,N,07937.5312,W,1,8,1.7,19,M,,M,,*5F
05/31/2014	00:54:57.519	$GPGGA,005458,2529.9581,N,07937.5314,W,1,8,1.7,19,M,,M,,*5A
05/31/2014	00:54:58.529	$GPGGA,005459,2529.9612,N,07937.5315,W,1,8,1.7,19,M,,M,,*53
05/31/2014	00:54:59.529	$GPGGA,005500,2529.9643,N,07937.5315,W,1,8,1.7,19,M,,M,,*5A
05/31/2014	00:55:00.549	$GPGGA,005501,2529.9673,N,07937.5316,W,1,8,1.7,19,M,,M,,*5B
05/31/2014	00:55:01.499	$GPGGA,005502,2529.9705,N,07937.5315,W,1,8,1.7,19,M,,M,,*5B
05/31/2014	00:55:02.509	$GPGGA,005503,2529.9735,N,07937.5314,W,1,8,1.7,19,M,,M,,*58
05/31/2014	00:55:03.519	$GPGGA,005504,2529.9766,N,07937.5313,W,1,8,1.7,19,M,,M,,*5E
05/31/2014	00:55:04.523	$GPGGA,005505,2529.9796,N,07937.5311,W,1,8,1.7,19,M,,M,,*52
05/31/2014	00:55:05.499	$GPGGA,005506,2529.9828,N,07937.5309,W,1,8,1.7,19,M,,M,,*52
05/31/2014	00:55:06.489	$GPGGA,005507,2529.9857,N,07937.5307,W,1,8,1.7,19,M,,M,,*55
05/31/2014	00:55:07.509	$GPGGA,005508,2529.9890,N,07937.5304,W,1,8,1.7,19,M,,M,,*52
05/31/2014	00:55:08.489	$GPGGA,005509,2529.9919,N,07937.5300,W,1,8,1.7,19,M,,M,,*57
05/31/2014	00:55:09.499	$GPGGA,005510,2529.9951,N,07937.5297,W,1,8,2.0,19,M,,M,,*58
05/31/2014	00:55:10.520	$GPGGA,005511,2529.9983,N,07937.5293,W,1,7,2.1,19,M,,M,,*5C
05/31/2014	00:55:11.490	$GPGGA,005512,2530.0013,N,07937.5289,W,1,7,2.1,19,M,,M,,*55
05/31/2014	00:55:12.510	$GPGGA,005513,2530.0045,N,07937.5284,W,1,7,2.1,19,M,,M,,*5A
05/31/2014	00:55:13.490	$GPGGA,005514,2530.0076,N,07937.5279,W,1,7,2.1,19,M,,M,,*5F
05/31/2014	00:55:14.469	$GPGGA,005515,2530.0107,N,07937.5274,W,1,7,2.1,19,M,,M,,*54
05/31/2014	00:55:15.509	$GPGGA,005516,2530.0135,N,07937.5268,W,1,7,2.1,19,M,,M,,*5B
05/31/2014	00:55:16.509	$GPGGA,005517,2530.0168,N,07937.5262,W,1,8,1.6,19,M,,M,,*53
05/31/2014	00:55:17.569	$GPGGA,005518,2530.0197,N,07937.5256,W,1,8,1.6,19,M,,M,,*5B
05/31/2014	00:55:18.509	$GPGGA,005519,2530.0228,N,07937.5249,W,1,7,2.1,19,M,,M,,*58
05/31/2014	00:55:19.479	$GPGGA,005520,2530.0257,N,07937.5240,W,1,7,1.6,19,M,,M,,*57
05/31/2014	00:55:20.470	$GPGGA,005521,2530.0287,N,07937.5233,W,1,8,1.6,19,M,,M,,*50
