Software Version Number: 1	Data File Format Number: 1	Build Version Number: 1	Error Count Since VI Started: 0	Manufacturer: Raytheon	 Model Number: RayMarine 120	 S/N: 	 Cal Date: 	 Wind Direction Offset: 0.00	 Slope (M)1: 0.00	 Offset (B)1: 0.00	 Slope (M)2: 0.00	 Offset (B)2: 0.00	 Slope (M)3: 0.00	 Offset (B)3: 0.00	 Slope (M)4: 0.00	 Offset (B)4: 0.00	 Slope (M)5: 0.00	 Offset (B)5: 0.00	 Slope (M)6: 0.00	 Offset (B)6: 0.00
Computer Date	Computer Time	GGA String
06/09/2014	06:00:00.777	$GPGGA,060001,2506.6008,N,08012.7705,W,1,9,1.7,17,M,,M,,*5F
06/09/2014	06:00:01.786	$GPGGA,060002,2506.6008,N,08012.7699,W,1,9,1.7,17,M,,M,,*58
06/09/2014	06:00:02.795	$GPGGA,060003,2506.6006,N,08012.7694,W,1,9,1.7,17,M,,M,,*5A
06/09/2014	06:00:03.810	$GPGGA,060004,2506.6005,N,08012.7688,W,1,9,1.7,17,M,,M,,*53
06/09/2014	06:00:04.839	$GPGGA,060005,2506.6005,N,08012.7681,W,1,9,1.7,17,M,,M,,*5B
06/09/2014	06:00:05.802	$GPGGA,060006,2506.6003,N,08012.7675,W,1,9,1.7,17,M,,M,,*55
06/09/2014	06:00:06.817	$GPGGA,060007,2506.6002,N,08012.7669,W,1,9,1.7,17,M,,M,,*58
06/09/2014	06:00:07.822	$GPGGA,060008,2506.6001,N,08012.7663,W,1,9,1.7,17,M,,M,,*5E
06/09/2014	06:00:08.827	$GPGGA,060009,2506.6001,N,08012.7657,W,1,9,1.7,17,M,,M,,*58
06/09/2014	06:00:09.802	$GPGGA,060010,2506.5998,N,08012.7651,W,1,9,1.7,17,M,,M,,*5C
06/09/2014	06:00:10.836	$GPGGA,060011,2506.5997,N,08012.7644,W,1,9,1.7,17,M,,M,,*56
06/09/2014	06:00:11.831	$GPGGA,060012,2506.5997,N,08012.7638,W,1,9,1.7,17,M,,M,,*5E
06/09/2014	06:00:12.816	$GPGGA,060013,2506.5995,N,08012.7632,W,1,9,1.7,17,M,,M,,*57
06/09/2014	06:00:13.821	$GPGGA,060014,2506.5993,N,08012.7626,W,1,9,1.7,17,M,,M,,*53
06/09/2014	06:00:14.846	$GPGGA,060015,2506.5992,N,08012.7620,W,1,9,1.7,17,M,,M,,*55
06/09/2014	06:00:15.851	$GPGGA,060016,2506.5991,N,08012.7613,W,1,9,1.7,17,M,,M,,*55
06/09/2014	06:00:16.826	$GPGGA,060017,2506.5990,N,08012.7607,W,1,9,1.7,17,M,,M,,*50
06/09/2014	06:00:17.841	$GPGGA,060018,2506.5988,N,08012.7601,W,1,9,1.7,17,M,,M,,*50
06/09/2014	06:00:18.866	$GPGGA,060019,2506.5989,N,08012.7595,W,1,9,1.7,17,M,,M,,*5E
06/09/2014	06:00:19.851	$GPGGA,060020,2506.5986,N,08012.7588,W,1,9,1.7,17,M,,M,,*57
06/09/2014	06:00:20.836	$GPGGA,060021,2506.5985,N,08012.7582,W,1,9,1.7,17,M,,M,,*5F
06/09/2014	06:00:21.851	$GPGGA,060022,2506.5984,N,08012.7575,W,1,9,1.7,17,M,,M,,*55
06/09/2014	06:00:22.847	$GPGGA,060023,2506.5983,N,08012.7569,W,1,9,1.7,17,M,,M,,*5E
06/09/2014	06:00:23.871	$GPGGA,060024,2506.5981,N,08012.7563,W,1,9,1.7,17,M,,M,,*51
06/09/2014	06:00:24.876	$GPGGA,060025,2506.5980,N,08012.7557,W,1,9,1.7,17,M,,M,,*56
06/09/2014	06:00:25.852	$GPGGA,060026,2506.5979,N,08012.7550,W,1,9,1.7,17,M,,M,,*54
06/09/2014	06:00:26.876	$GPGGA,060027,2506.5977,N,08012.7544,W,1,9,1.7,17,M,,M,,*5E
06/09/2014	06:00:27.881	$GPGGA,060028,2506.5976,N,08012.7538,W,1,9,1.7,17,M,,M,,*5B
06/09/2014	06:00:28.887	$GPGGA,060029,2506.5975,N,08012.7531,W,1,9,1.7,17,M,,M,,*50
06/09/2014	06:00:29.871	$GPGGA,060030,2506.5973,N,08012.7524,W,1,9,1.7,17,M,,M,,*5A
06/09/2014	06:00:30.865	$GPGGA,060031,2506.5972,N,08012.7519,W,1,9,1.7,17,M,,M,,*54
06/09/2014	06:00:32.000	$GPGGA,060032,2506.5970,N,08012.7513,W,1,9,1.7,17,M,,M,,*5F
06/09/2014	06:00:33.010	$GPGGA,060033,2506.5969,N,08012.7506,W,1,9,1.7,17,M,,M,,*52
06/09/2014	06:00:33.890	$GPGGA,060034,2506.5967,N,08012.7500,W,1,9,1.7,17,M,,M,,*5D
06/09/2014	06:00:34.985	$GPGGA,060035,2506.5965,N,08012.7494,W,1,9,1.7,17,M,,M,,*52
06/09/2014	06:00:35.920	$GPGGA,060036,2506.5965,N,08012.7486,W,1,9,1.7,17,M,,M,,*52
06/09/2014	06:00:36.906	$GPGGA,060037,2506.5962,N,08012.7480,W,1,9,1.7,17,M,,M,,*52
06/09/2014	06:00:37.990	$GPGGA,060038,2506.5961,N,08012.7474,W,1,9,1.7,17,M,,M,,*55
06/09/2014	06:00:38.905	$GPGGA,060039,2506.5958,N,08012.7467,W,1,9,1.7,17,M,,M,,*5C
06/09/2014	06:00:39.511	$GPGGA,060040,2506.5957,N,08012.7460,W,1,9,1.7,17,M,,M,,*5A
06/09/2014	06:00:40.598	$GPGGA,060041,2506.5955,N,08012.7454,W,1,9,1.7,17,M,,M,,*5E
06/09/2014	06:00:41.501	$GPGGA,060042,2506.5954,N,08012.7448,W,1,9,1.7,17,M,,M,,*51
06/09/2014	06:00:42.496	$GPGGA,060043,2506.5951,N,08012.7441,W,1,9,1.7,17,M,,M,,*5C
06/09/2014	06:00:43.612	$GPGGA,060044,2506.5949,N,08012.7434,W,1,9,1.7,17,M,,M,,*50
06/09/2014	06:00:44.598	$GPGGA,060045,2506.5948,N,08012.7427,W,1,9,1.7,17,M,,M,,*52
06/09/2014	06:00:45.641	$GPGGA,060046,2506.5947,N,08012.7421,W,1,9,1.7,17,M,,M,,*58
06/09/2014	06:00:46.636	$GPGGA,060047,2506.5945,N,08012.7414,W,1,9,1.7,17,M,,M,,*5D
06/09/2014	06:00:47.621	$GPGGA,060048,2506.5943,N,08012.7407,W,1,9,1.7,17,M,,M,,*56
06/09/2014	06:00:48.626	$GPGGA,060049,2506.5941,N,08012.7401,W,1,9,1.7,17,M,,M,,*53
06/09/2014	06:00:49.621	$GPGGA,060050,2506.5939,N,08012.7394,W,1,9,1.7,17,M,,M,,*5F
06/09/2014	06:00:50.626	$GPGGA,060051,2506.5937,N,08012.7388,W,1,9,1.7,17,M,,M,,*5D
06/09/2014	06:00:51.641	$GPGGA,060052,2506.5936,N,08012.7381,W,1,9,1.7,17,M,,M,,*56
06/09/2014	06:00:52.646	$GPGGA,060053,2506.5933,N,08012.7374,W,1,9,1.7,17,M,,M,,*58
06/09/2014	06:00:53.631	$GPGGA,060054,2506.5932,N,08012.7367,W,1,9,1.7,17,M,,M,,*5C
06/09/2014	06:00:54.646	$GPGGA,060055,2506.5929,N,08012.7360,W,1,9,1.7,17,M,,M,,*50
06/09/2014	06:00:55.641	$GPGGA,060056,2506.5927,N,08012.7354,W,1,9,1.7,17,M,,M,,*5A
06/09/2014	06:00:56.625	$GPGGA,060057,2506.5925,N,08012.7346,W,1,9,1.7,17,M,,M,,*5A
06/09/2014	06:00:57.641	$GPGGA,060058,2506.5922,N,08012.7339,W,1,9,1.7,17,M,,M,,*5A
06/09/2014	06:00:58.667	$GPGGA,060059,2506.5920,N,08012.7333,W,1,9,1.7,17,M,,M,,*53
06/09/2014	06:00:59.671	$GPGGA,060100,2506.5918,N,08012.7326,W,1,9,1.7,17,M,,M,,*51
06/09/2014	06:01:00.676	$GPGGA,060101,2506.5915,N,08012.7319,W,1,9,1.7,17,M,,M,,*51
06/09/2014	06:01:01.650	$GPGGA,060102,2506.5914,N,08012.7312,W,1,9,1.7,17,M,,M,,*58
06/09/2014	06:01:02.675	$GPGGA,060103,2506.5911,N,08012.7305,W,1,9,1.7,17,M,,M,,*5A
06/09/2014	06:01:03.670	$GPGGA,060104,2506.5908,N,08012.7298,W,1,9,1.7,17,M,,M,,*50
06/09/2014	06:01:04.685	$GPGGA,060105,2506.5907,N,08012.7290,W,1,9,1.7,17,M,,M,,*56
06/09/2014	06:01:05.655	$GPGGA,060106,2506.5905,N,08012.7286,W,1,9,1.9,17,M,,M,,*5E
06/09/2014	06:01:06.685	$GPGGA,060107,2506.5903,N,08012.7282,W,1,9,1.7,17,M,,M,,*53
06/09/2014	06:01:07.679	$GPGGA,060108,2506.5901,N,08012.7276,W,1,9,1.7,17,M,,M,,*55
06/09/2014	06:01:08.674	$GPGGA,060109,2506.5900,N,08012.7271,W,1,9,1.7,17,M,,M,,*52
06/09/2014	06:01:09.684	$GPGGA,060110,2506.5898,N,08012.7265,W,1,9,1.7,17,M,,M,,*5F
06/09/2014	06:01:10.689	$GPGGA,060111,2506.5896,N,08012.7259,W,1,9,1.7,17,M,,M,,*5F
06/09/2014	06:01:11.710	$GPGGA,060112,2506.5894,N,08012.7254,W,1,9,1.7,17,M,,M,,*53
06/09/2014	06:01:12.725	$GPGGA,060113,2506.5893,N,08012.7249,W,1,9,1.7,17,M,,M,,*59
06/09/2014	06:01:13.701	$GPGGA,060114,2506.5892,N,08012.7242,W,1,9,1.7,18,M,,M,,*5B
06/09/2014	06:01:14.696	$GPGGA,060115,2506.5890,N,08012.7235,W,1,9,1.7,18,M,,M,,*58
06/09/2014	06:01:15.710	$GPGGA,060116,2506.5889,N,08012.7229,W,1,9,1.7,18,M,,M,,*5E
06/09/2014	06:01:16.709	$GPGGA,060117,2506.5887,N,08012.7223,W,1,9,1.7,18,M,,M,,*5B
06/09/2014	06:01:17.689	$GPGGA,060118,2506.5885,N,08012.7215,W,1,9,1.7,18,M,,M,,*53
06/09/2014	06:01:18.825	$GPGGA,060119,2506.5883,N,08012.7205,W,1,9,1.7,18,M,,M,,*55
06/09/2014	06:01:19.724	$GPGGA,060120,2506.5882,N,08012.7197,W,1,9,1.9,18,M,,M,,*58
06/09/2014	06:01:20.838	$GPGGA,060121,2506.5879,N,08012.7188,W,1,9,1.7,18,M,,M,,*5D
06/09/2014	06:01:21.708	$GPGGA,060122,2506.5878,N,08012.7179,W,1,9,1.7,18,M,,M,,*51
06/09/2014	06:01:22.748	$GPGGA,060123,2506.5876,N,08012.7170,W,1,8,1.9,18,M,,M,,*58
06/09/2014	06:01:23.718	$GPGGA,060124,2506.5873,N,08012.7167,W,1,8,1.9,18,M,,M,,*5C
06/09/2014	06:01:24.713	$GPGGA,060125,2506.5871,N,08012.7157,W,1,9,1.7,18,M,,M,,*53
06/09/2014	06:01:25.718	$GPGGA,060126,2506.5871,N,08012.7148,W,1,9,1.9,18,M,,M,,*50
06/09/2014	06:01:26.733	$GPGGA,060127,2506.5867,N,08012.7139,W,1,8,1.9,18,M,,M,,*51
06/09/2014	06:01:27.748	$GPGGA,060128,2506.5865,N,08012.7130,W,1,8,1.9,18,M,,M,,*55
06/09/2014	06:01:28.834	$GPGGA,060129,2506.5864,N,08012.7122,W,1,8,1.9,18,M,,M,,*56
06/09/2014	06:01:29.738	$GPGGA,060130,2506.5863,N,08012.7118,W,1,8,1.9,18,M,,M,,*50
06/09/2014	06:01:30.824	$GPGGA,060131,2506.5862,N,08012.7117,W,1,9,1.7,18,M,,M,,*50
06/09/2014	06:01:31.748	$GPGGA,060132,2506.5860,N,08012.7107,W,1,9,1.7,18,M,,M,,*50
06/09/2014	06:01:32.834	$GPGGA,060133,2506.5858,N,08012.7098,W,1,8,1.9,18,M,,M,,*52
06/09/2014	06:01:33.849	$GPGGA,060134,2506.5856,N,08012.7088,W,1,8,1.9,18,M,,M,,*5A
06/09/2014	06:01:34.874	$GPGGA,060135,2506.5855,N,08012.7082,W,1,7,2.1,18,M,,M,,*56
06/09/2014	06:01:35.869	$GPGGA,060136,2506.5853,N,08012.7072,W,1,7,1.9,18,M,,M,,*57
06/09/2014	06:01:36.854	$GPGGA,060137,2506.5850,N,08012.7066,W,1,8,1.9,18,M,,M,,*5F
06/09/2014	06:01:37.859	$GPGGA,060138,2506.5849,N,08012.7058,W,1,8,1.7,18,M,,M,,*5B
06/09/2014	06:01:38.863	$GPGGA,060139,2506.5846,N,08012.7051,W,1,9,1.7,18,M,,M,,*5D
06/09/2014	06:01:39.610	$GPGGA,060140,2506.5843,N,08012.7042,W,1,9,1.7,18,M,,M,,*54
06/09/2014	06:01:40.565	$GPGGA,060141,2506.5842,N,08012.7034,W,1,8,1.9,18,M,,M,,*5A
06/09/2014	06:01:41.559	$GPGGA,060142,2506.5839,N,08012.7027,W,1,8,1.7,18,M,,M,,*59
06/09/2014	06:01:42.585	$GPGGA,060143,2506.5837,N,08012.7022,W,1,9,1.7,18,M,,M,,*52
06/09/2014	06:01:43.590	$GPGGA,060144,2506.5835,N,08012.7011,W,1,9,1.7,18,M,,M,,*57
06/09/2014	06:01:44.595	$GPGGA,060145,2506.5832,N,08012.7001,W,1,8,1.9,18,M,,M,,*5F
06/09/2014	06:01:45.579	$GPGGA,060146,2506.5831,N,08012.6992,W,1,8,1.9,18,M,,M,,*5D
06/09/2014	06:01:46.615	$GPGGA,060147,2506.5828,N,08012.6983,W,1,8,1.9,18,M,,M,,*54
06/09/2014	06:01:47.600	$GPGGA,060148,2506.5827,N,08012.6978,W,1,8,1.9,18,M,,M,,*50
06/09/2014	06:01:48.615	$GPGGA,060149,2506.5825,N,08012.6970,W,1,9,1.7,18,M,,M,,*54
06/09/2014	06:01:49.589	$GPGGA,060150,2506.5824,N,08012.6961,W,1,9,1.7,18,M,,M,,*5D
06/09/2014	06:01:50.604	$GPGGA,060151,2506.5824,N,08012.6955,W,1,8,1.9,18,M,,M,,*54
06/09/2014	06:01:51.620	$GPGGA,060152,2506.5821,N,08012.6947,W,1,8,1.7,18,M,,M,,*5F
06/09/2014	06:01:52.594	$GPGGA,060153,2506.5822,N,08012.6943,W,1,7,1.7,18,M,,M,,*56
06/09/2014	06:01:53.609	$GPGGA,060154,2506.5820,N,08012.6934,W,1,7,1.5,18,M,,M,,*51
06/09/2014	06:01:54.623	$GPGGA,060155,2506.5820,N,08012.6929,W,1,8,1.6,19,M,,M,,*51
06/09/2014	06:01:55.628	$GPGGA,060156,2506.5820,N,08012.6922,W,1,8,1.6,19,M,,M,,*59
06/09/2014	06:01:56.603	$GPGGA,060157,2506.5818,N,08012.6914,W,1,8,1.6,19,M,,M,,*56
06/09/2014	06:01:57.618	$GPGGA,060158,2506.5817,N,08012.6907,W,1,8,1.6,19,M,,M,,*54
06/09/2014	06:01:58.643	$GPGGA,060159,2506.5817,N,08012.6899,W,1,7,1.7,19,M,,M,,*5D
06/09/2014	06:01:59.648	$GPGGA,060200,2506.5816,N,08012.6893,W,1,7,1.6,19,M,,M,,*58
06/09/2014	06:02:00.653	$GPGGA,060201,2506.5814,N,08012.6886,W,1,9,1.5,19,M,,M,,*52
06/09/2014	06:02:01.618	$GPGGA,060202,2506.5813,N,08012.6878,W,1,9,1.5,19,M,,M,,*57
06/09/2014	06:02:02.643	$GPGGA,060203,2506.5813,N,08012.6870,W,1,8,1.6,19,M,,M,,*5C
06/09/2014	06:02:03.648	$GPGGA,060204,2506.5811,N,08012.6862,W,1,8,1.6,19,M,,M,,*5A
06/09/2014	06:02:04.623	$GPGGA,060205,2506.5809,N,08012.6855,W,1,8,1.6,20,M,,M,,*5C
06/09/2014	06:02:05.648	$GPGGA,060206,2506.5808,N,08012.6847,W,1,8,1.7,20,M,,M,,*5C
06/09/2014	06:02:06.653	$GPGGA,060207,2506.5809,N,08012.6840,W,1,8,1.6,20,M,,M,,*5A
06/09/2014	06:02:07.668	$GPGGA,060208,2506.5806,N,08012.6833,W,1,8,1.6,20,M,,M,,*5E
06/09/2014	06:02:08.653	$GPGGA,060209,2506.5806,N,08012.6826,W,1,8,1.6,20,M,,M,,*5B
06/09/2014	06:02:09.652	$GPGGA,060210,2506.5804,N,08012.6819,W,1,8,1.5,20,M,,M,,*5E
06/09/2014	06:02:10.800	$GPGGA,060211,2506.5802,N,08012.6811,W,1,8,1.6,20,M,,M,,*52
06/09/2014	06:02:11.770	$GPGGA,060212,2506.5799,N,08012.6803,W,1,8,1.6,20,M,,M,,*5F
06/09/2014	06:02:12.917	$GPGGA,060213,2506.5797,N,08012.6798,W,1,8,1.9,20,M,,M,,*52
06/09/2014	06:02:13.866	$GPGGA,060214,2506.5795,N,08012.6790,W,1,8,1.5,21,M,,M,,*52
06/09/2014	06:02:15.015	$GPGGA,060215,2506.5792,N,08012.6782,W,1,8,1.6,21,M,,M,,*54
06/09/2014	06:02:16.090	$GPGGA,060216,2506.5790,N,08012.6774,W,1,8,1.6,21,M,,M,,*5C
06/09/2014	06:02:17.145	$GPGGA,060217,2506.5788,N,08012.6766,W,1,8,1.6,21,M,,M,,*57
06/09/2014	06:02:18.071	$GPGGA,060218,2506.5786,N,08012.6758,W,1,8,1.6,21,M,,M,,*5B
06/09/2014	06:02:19.230	$GPGGA,060219,2506.5784,N,08012.6752,W,1,8,1.6,21,M,,M,,*52
06/09/2014	06:02:20.295	$GPGGA,060220,2506.5782,N,08012.6748,W,1,8,1.5,21,M,,M,,*56
06/09/2014	06:02:21.317	$GPGGA,060221,2506.5780,N,08012.6740,W,1,9,1.5,21,M,,M,,*5C
06/09/2014	06:02:22.371	$GPGGA,060222,2506.5778,N,08012.6735,W,1,9,1.6,21,M,,M,,*59
06/09/2014	06:02:23.425	$GPGGA,060223,2506.5777,N,08012.6726,W,1,9,1.5,21,M,,M,,*56
06/09/2014	06:02:24.479	$GPGGA,060224,2506.5775,N,08012.6718,W,1,9,1.7,21,M,,M,,*5C
06/09/2014	06:02:25.554	$GPGGA,060225,2506.5773,N,08012.6711,W,1,8,1.6,21,M,,M,,*52
06/09/2014	06:02:26.576	$GPGGA,060226,2506.5770,N,08012.6704,W,1,8,1.6,21,M,,M,,*56
06/09/2014	06:02:27.651	$GPGGA,060227,2506.5770,N,08012.6697,W,1,9,1.5,21,M,,M,,*5E
06/09/2014	06:02:28.705	$GPGGA,060228,2506.5766,N,08012.6689,W,1,9,1.5,21,M,,M,,*59
06/09/2014	06:02:29.759	$GPGGA,060229,2506.5766,N,08012.6681,W,1,8,1.6,21,M,,M,,*52
06/09/2014	06:02:30.780	$GPGGA,060230,2506.5763,N,08012.6676,W,1,8,1.6,21,M,,M,,*57
06/09/2014	06:02:31.834	$GPGGA,060231,2506.5762,N,08012.6670,W,1,9,1.5,21,M,,M,,*53
06/09/2014	06:02:32.909	$GPGGA,060232,2506.5761,N,08012.6663,W,1,9,1.5,21,M,,M,,*51
06/09/2014	06:02:33.963	$GPGGA,060233,2506.5760,N,08012.6655,W,1,9,1.5,21,M,,M,,*54
06/09/2014	06:02:35.006	$GPGGA,060234,2506.5759,N,08012.6646,W,1,9,1.6,21,M,,M,,*58
06/09/2014	06:02:36.070	$GPGGA,060235,2506.5757,N,08012.6638,W,1,8,1.6,22,M,,M,,*5C
06/09/2014	06:02:37.114	$GPGGA,060236,2506.5756,N,08012.6631,W,1,8,1.6,22,M,,M,,*57
06/09/2014	06:02:38.178	$GPGGA,060237,2506.5753,N,08012.6623,W,1,8,1.8,22,M,,M,,*5E
06/09/2014	06:02:39.201	$GPGGA,060238,2506.5751,N,08012.6615,W,1,8,1.5,22,M,,M,,*5B
06/09/2014	06:02:40.102	$GPGGA,060240,2506.5748,N,08012.6594,W,1,8,1.7,22,M,,M,,*54
06/09/2014	06:02:40.642	$GPGGA,060241,2506.5743,N,08012.6588,W,1,7,1.7,22,M,,M,,*5C
06/09/2014	06:02:41.656	$GPGGA,060242,2506.5741,N,08012.6575,W,1,7,1.5,22,M,,M,,*5D
06/09/2014	06:02:42.750	$GPGGA,060243,2506.5738,N,08012.6565,W,1,8,1.6,22,M,,M,,*5F
06/09/2014	06:02:43.782	$GPGGA,060244,2506.5735,N,08012.6557,W,1,8,1.6,22,M,,M,,*54
06/09/2014	06:02:44.857	$GPGGA,060245,2506.5733,N,08012.6549,W,1,9,1.5,22,M,,M,,*5E
06/09/2014	06:02:45.874	$GPGGA,060246,2506.5732,N,08012.6541,W,1,9,1.5,22,M,,M,,*54
06/09/2014	06:02:46.955	$GPGGA,060247,2506.5730,N,08012.6534,W,1,10,1.5,22,M,,M,,*6D
06/09/2014	06:02:47.997	$GPGGA,060248,2506.5727,N,08012.6527,W,1,10,1.5,22,M,,M,,*66
06/09/2014	06:02:49.039	$GPGGA,060249,2506.5728,N,08012.6519,W,1,10,1.5,22,M,,M,,*65
06/09/2014	06:02:50.095	$GPGGA,060250,2506.5725,N,08012.6512,W,1,10,1.5,22,M,,M,,*6B
06/09/2014	06:02:51.117	$GPGGA,060251,2506.5724,N,08012.6505,W,1,10,1.5,22,M,,M,,*6D
06/09/2014	06:02:52.203	$GPGGA,060252,2506.5723,N,08012.6497,W,1,10,1.5,22,M,,M,,*63
06/09/2014	06:02:53.235	$GPGGA,060253,2506.5721,N,08012.6490,W,1,10,1.5,22,M,,M,,*67
06/09/2014	06:02:54.384	$GPGGA,060254,2506.5720,N,08012.6483,W,1,10,1.7,22,M,,M,,*61
06/09/2014	06:02:55.332	$GPGGA,060255,2506.5719,N,08012.6476,W,1,9,1.7,22,M,,M,,*58
06/09/2014	06:02:56.404	$GPGGA,060256,2506.5719,N,08012.6469,W,1,9,1.7,22,M,,M,,*55
06/09/2014	06:02:57.429	$GPGGA,060257,2506.5716,N,08012.6461,W,1,9,1.7,22,M,,M,,*53
06/09/2014	06:02:58.589	$GPGGA,060258,2506.5715,N,08012.6454,W,1,9,1.6,22,M,,M,,*58
06/09/2014	06:02:59.685	$GPGGA,060259,2506.5715,N,08012.6447,W,1,9,1.6,22,M,,M,,*5B
06/09/2014	06:03:00.728	$GPGGA,060300,2506.5714,N,08012.6441,W,1,9,1.6,22,M,,M,,*51
06/09/2014	06:03:01.634	$GPGGA,060301,2506.5713,N,08012.6434,W,1,9,1.6,22,M,,M,,*55
06/09/2014	06:03:02.688	$GPGGA,060302,2506.5712,N,08012.6427,W,1,9,1.6,22,M,,M,,*55
06/09/2014	06:03:03.859	$GPGGA,060303,2506.5712,N,08012.6420,W,1,10,1.6,23,M,,M,,*6A
06/09/2014	06:03:04.933	$GPGGA,060304,2506.5710,N,08012.6413,W,1,10,1.6,23,M,,M,,*6F
06/09/2014	06:03:05.977	$GPGGA,060305,2506.5709,N,08012.6405,W,1,9,1.5,23,M,,M,,*5A
06/09/2014	06:03:06.998	$GPGGA,060306,2506.5708,N,08012.6397,W,1,9,1.6,23,M,,M,,*57
06/09/2014	06:03:08.073	$GPGGA,060307,2506.5706,N,08012.6387,W,1,9,1.5,23,M,,M,,*5A
06/09/2014	06:03:09.116	$GPGGA,060308,2506.5707,N,08012.6382,W,1,9,1.5,23,M,,M,,*51
06/09/2014	06:03:10.170	$GPGGA,060309,2506.5705,N,08012.6375,W,1,10,1.6,23,M,,M,,*61
06/09/2014	06:03:11.213	$GPGGA,060310,2506.5704,N,08012.6367,W,1,10,1.5,23,M,,M,,*68
06/09/2014	06:03:12.257	$GPGGA,060311,2506.5703,N,08012.6359,W,1,10,1.5,23,M,,M,,*63
06/09/2014	06:03:13.332	$GPGGA,060312,2506.5702,N,08012.6351,W,1,10,1.6,23,M,,M,,*6A
06/09/2014	06:03:14.386	$GPGGA,060313,2506.5701,N,08012.6344,W,1,9,1.6,23,M,,M,,*54
06/09/2014	06:03:15.429	$GPGGA,060314,2506.5699,N,08012.6335,W,1,9,1.5,23,M,,M,,*56
06/09/2014	06:03:16.493	$GPGGA,060315,2506.5697,N,08012.6327,W,1,10,1.5,23,M,,M,,*62
06/09/2014	06:03:17.537	$GPGGA,060316,2506.5697,N,08012.6319,W,1,10,1.5,23,M,,M,,*6C
06/09/2014	06:03:18.601	$GPGGA,060317,2506.5695,N,08012.6310,W,1,10,1.5,23,M,,M,,*66
06/09/2014	06:03:19.623	$GPGGA,060318,2506.5694,N,08012.6302,W,1,10,1.5,23,M,,M,,*6B
06/09/2014	06:03:20.720	$GPGGA,060319,2506.5694,N,08012.6294,W,1,10,1.8,23,M,,M,,*69
06/09/2014	06:03:21.752	$GPGGA,060320,2506.5692,N,08012.6286,W,1,10,1.5,23,M,,M,,*6B
06/09/2014	06:03:22.796	$GPGGA,060321,2506.5690,N,08012.6277,W,1,10,1.5,23,M,,M,,*66
06/09/2014	06:03:23.829	$GPGGA,060322,2506.5687,N,08012.6268,W,1,10,1.5,22,M,,M,,*6C
06/09/2014	06:03:24.881	$GPGGA,060323,2506.5686,N,08012.6260,W,1,10,1.5,22,M,,M,,*64
06/09/2014	06:03:25.956	$GPGGA,060324,2506.5685,N,08012.6252,W,1,10,1.5,22,M,,M,,*61
06/09/2014	06:03:27.021	$GPGGA,060325,2506.5683,N,08012.6243,W,1,10,1.5,22,M,,M,,*66
06/09/2014	06:03:28.054	$GPGGA,060326,2506.5683,N,08012.6234,W,1,10,1.5,22,M,,M,,*65
06/09/2014	06:03:29.118	$GPGGA,060327,2506.5680,N,08012.6226,W,1,10,1.5,22,M,,M,,*64
06/09/2014	06:03:30.151	$GPGGA,060328,2506.5678,N,08012.6217,W,1,10,1.5,22,M,,M,,*6E
06/09/2014	06:03:31.226	$GPGGA,060329,2506.5679,N,08012.6209,W,1,10,1.8,22,M,,M,,*6C
06/09/2014	06:03:32.280	$GPGGA,060330,2506.5677,N,08012.6200,W,1,10,1.5,22,M,,M,,*6E
06/09/2014	06:03:33.295	$GPGGA,060331,2506.5676,N,08012.6191,W,1,10,1.9,22,M,,M,,*69
06/09/2014	06:03:34.366	$GPGGA,060332,2506.5676,N,08012.6183,W,1,10,1.9,22,M,,M,,*69
06/09/2014	06:03:35.431	$GPGGA,060333,2506.5672,N,08012.6175,W,1,8,1.5,22,M,,M,,*50
06/09/2014	06:03:36.457	$GPGGA,060334,2506.5672,N,08012.6165,W,1,8,1.6,22,M,,M,,*55
06/09/2014	06:03:37.518	$GPGGA,060335,2506.5672,N,08012.6156,W,1,9,1.9,22,M,,M,,*5A
06/09/2014	06:03:38.564	$GPGGA,060336,2506.5667,N,08012.6146,W,1,9,1.5,22,M,,M,,*50
06/09/2014	06:03:39.636	$GPGGA,060337,2506.5668,N,08012.6138,W,1,10,1.9,22,M,,M,,*63
06/09/2014	06:03:40.660	$GPGGA,060338,2506.5667,N,08012.6129,W,1,10,1.8,22,M,,M,,*62
06/09/2014	06:03:41.733	$GPGGA,060339,2506.5668,N,08012.6122,W,1,9,1.8,22,M,,M,,*5F
06/09/2014	06:03:39.565	$GPGGA,060340,2506.5667,N,08012.6116,W,1,9,1.9,22,M,,M,,*58
06/09/2014	06:03:40.608	$GPGGA,060341,2506.5668,N,08012.6108,W,1,8,1.9,22,M,,M,,*58
06/09/2014	06:03:41.757	$GPGGA,060342,2506.5668,N,08012.6101,W,1,8,1.9,22,M,,M,,*52
06/09/2014	06:03:42.711	$GPGGA,060343,2506.5667,N,08012.6093,W,1,7,1.9,22,M,,M,,*59
06/09/2014	06:03:43.751	$GPGGA,060344,2506.5666,N,08012.6085,W,1,7,1.8,22,M,,M,,*59
06/09/2014	06:03:44.897	$GPGGA,060345,2506.5667,N,08012.6077,W,1,8,1.8,22,M,,M,,*5B
06/09/2014	06:03:45.856	$GPGGA,060346,2506.5665,N,08012.6070,W,1,8,1.8,22,M,,M,,*5D
06/09/2014	06:03:46.995	$GPGGA,060347,2506.5665,N,08012.6062,W,1,9,1.8,22,M,,M,,*5E
06/09/2014	06:03:47.980	$GPGGA,060348,2506.5665,N,08012.6053,W,1,9,1.8,21,M,,M,,*50
06/09/2014	06:03:48.997	$GPGGA,060349,2506.5665,N,08012.6045,W,1,9,1.8,21,M,,M,,*56
06/09/2014	06:03:50.167	$GPGGA,060350,2506.5665,N,08012.6037,W,1,9,1.9,21,M,,M,,*5A
06/09/2014	06:03:51.236	$GPGGA,060351,2506.5665,N,08012.6028,W,1,8,1.9,21,M,,M,,*54
06/09/2014	06:03:52.264	$GPGGA,060352,2506.5665,N,08012.6020,W,1,8,1.9,21,M,,M,,*5F
06/09/2014	06:03:53.297	$GPGGA,060353,2506.5665,N,08012.6013,W,1,8,1.8,21,M,,M,,*5F
06/09/2014	06:03:54.351	$GPGGA,060354,2506.5665,N,08012.6004,W,1,8,1.9,21,M,,M,,*5F
06/09/2014	06:03:55.320	$GPGGA,060355,2506.5665,N,08012.5995,W,1,8,1.9,21,M,,M,,*5C
06/09/2014	06:03:56.480	$GPGGA,060356,2506.5663,N,08012.5987,W,1,8,1.9,21,M,,M,,*5A
06/09/2014	06:03:57.545	$GPGGA,060357,2506.5662,N,08012.5979,W,1,8,1.8,21,M,,M,,*5A
06/09/2014	06:03:58.555	$GPGGA,060358,2506.5663,N,08012.5970,W,1,8,1.8,21,M,,M,,*5D
06/09/2014	06:03:59.640	$GPGGA,060359,2506.5662,N,08012.5961,W,1,9,1.8,21,M,,M,,*5C
06/09/2014	06:04:00.684	$GPGGA,060400,2506.5665,N,08012.5955,W,1,9,1.9,21,M,,M,,*56
06/09/2014	06:04:01.706	$GPGGA,060401,2506.5663,N,08012.5946,W,1,9,1.8,21,M,,M,,*52
06/09/2014	06:04:02.771	$GPGGA,060402,2506.5662,N,08012.5937,W,1,9,1.9,21,M,,M,,*57
06/09/2014	06:04:03.814	$GPGGA,060403,2506.5661,N,08012.5928,W,1,8,1.9,21,M,,M,,*5A
06/09/2014	06:04:04.890	$GPGGA,060404,2506.5661,N,08012.5919,W,1,8,1.9,21,M,,M,,*5F
06/09/2014	06:04:05.943	$GPGGA,060405,2506.5659,N,08012.5910,W,1,8,1.9,21,M,,M,,*5C
06/09/2014	06:04:06.986	$GPGGA,060406,2506.5658,N,08012.5900,W,1,8,1.9,21,M,,M,,*5F
06/09/2014	06:04:08.019	$GPGGA,060407,2506.5656,N,08012.5892,W,1,9,1.8,21,M,,M,,*5A
06/09/2014	06:04:09.094	$GPGGA,060408,2506.5658,N,08012.5884,W,1,9,1.8,21,M,,M,,*5C
06/09/2014	06:04:10.148	$GPGGA,060409,2506.5656,N,08012.5873,W,1,9,1.8,21,M,,M,,*5B
06/09/2014	06:04:11.181	$GPGGA,060410,2506.5654,N,08012.5865,W,1,9,2.1,21,M,,M,,*5C
06/09/2014	06:04:12.266	$GPGGA,060411,2506.5652,N,08012.5856,W,1,9,1.8,20,M,,M,,*50
06/09/2014	06:04:13.299	$GPGGA,060412,2506.5651,N,08012.5847,W,1,9,1.9,20,M,,M,,*51
06/09/2014	06:04:14.332	$GPGGA,060413,2506.5648,N,08012.5838,W,1,8,1.9,20,M,,M,,*51
06/09/2014	06:04:15.396	$GPGGA,060414,2506.5647,N,08012.5825,W,1,8,1.9,20,M,,M,,*55
06/09/2014	06:04:16.428	$GPGGA,060415,2506.5643,N,08012.5813,W,1,7,2.0,20,M,,M,,*50
06/09/2014	06:04:17.514	$GPGGA,060416,2506.5641,N,08012.5802,W,1,7,1.9,20,M,,M,,*5B
06/09/2014	06:04:18.546	$GPGGA,060417,2506.5638,N,08012.5789,W,1,8,1.9,20,M,,M,,*57
06/09/2014	06:04:19.594	$GPGGA,060418,2506.5636,N,08012.5777,W,1,8,1.9,20,M,,M,,*57
06/09/2014	06:04:20.686	$GPGGA,060419,2506.5631,N,08012.5764,W,1,9,1.8,20,M,,M,,*53
06/09/2014	06:04:21.701	$GPGGA,060420,2506.5629,N,08012.5750,W,1,9,1.9,20,M,,M,,*56
06/09/2014	06:04:22.742	$GPGGA,060421,2506.5625,N,08012.5737,W,1,8,1.9,20,M,,M,,*5B
06/09/2014	06:04:23.797	$GPGGA,060422,2506.5621,N,08012.5724,W,1,8,1.8,20,M,,M,,*5F
06/09/2014	06:04:24.880	$GPGGA,060423,2506.5618,N,08012.5710,W,1,9,1.8,20,M,,M,,*52
06/09/2014	06:04:26.040	$GPGGA,060424,2506.5613,N,08012.5696,W,1,9,1.8,20,M,,M,,*51
06/09/2014	06:04:26.988	$GPGGA,060425,2506.5609,N,08012.5681,W,1,9,1.8,20,M,,M,,*5D
06/09/2014	06:04:28.026	$GPGGA,060426,2506.5605,N,08012.5670,W,1,9,2.0,20,M,,M,,*57
06/09/2014	06:04:29.185	$GPGGA,060427,2506.5601,N,08012.5658,W,1,9,1.8,20,M,,M,,*53
06/09/2014	06:04:30.137	$GPGGA,060428,2506.5597,N,08012.5645,W,1,9,1.8,19,M,,M,,*56
06/09/2014	06:04:31.174	$GPGGA,060429,2506.5593,N,08012.5631,W,1,9,1.8,19,M,,M,,*50
06/09/2014	06:04:32.240	$GPGGA,060430,2506.5587,N,08012.5617,W,1,9,1.8,19,M,,M,,*59
06/09/2014	06:04:33.412	$GPGGA,060431,2506.5583,N,08012.5603,W,1,10,1.5,19,M,,M,,*6C
06/09/2014	06:04:34.352	$GPGGA,060432,2506.5579,N,08012.5589,W,1,10,1.8,19,M,,M,,*66
06/09/2014	06:04:35.471	$GPGGA,060433,2506.5573,N,08012.5573,W,1,9,1.8,19,M,,M,,*50
06/09/2014	06:04:36.430	$GPGGA,060434,2506.5568,N,08012.5558,W,1,9,1.5,19,M,,M,,*59
06/09/2014	06:04:37.484	$GPGGA,060435,2506.5564,N,08012.5541,W,1,9,1.6,19,M,,M,,*5F
06/09/2014	06:04:38.538	$GPGGA,060436,2506.5556,N,08012.5525,W,1,9,1.5,19,M,,M,,*5C
06/09/2014	06:04:39.687	$GPGGA,060437,2506.5549,N,08012.5509,W,1,10,1.5,19,M,,M,,*65
06/09/2014	06:04:40.730	$GPGGA,060438,2506.5543,N,08012.5491,W,1,10,1.5,19,M,,M,,*60
06/09/2014	06:04:41.826	$GPGGA,060439,2506.5537,N,08012.5474,W,1,10,1.5,19,M,,M,,*69
06/09/2014	06:04:39.627	$GPGGA,060440,2506.5531,N,08012.5458,W,1,10,1.6,19,M,,M,,*6C
06/09/2014	06:04:40.670	$GPGGA,060441,2506.5525,N,08012.5441,W,1,10,1.5,19,M,,M,,*63
06/09/2014	06:04:41.714	$GPGGA,060442,2506.5519,N,08012.5423,W,1,10,1.5,19,M,,M,,*6B
06/09/2014	06:04:42.757	$GPGGA,060443,2506.5514,N,08012.5407,W,1,10,1.5,19,M,,M,,*61
06/09/2014	06:04:43.832	$GPGGA,060444,2506.5509,N,08012.5390,W,1,10,1.8,19,M,,M,,*6E
06/09/2014	06:04:44.886	$GPGGA,060445,2506.5503,N,08012.5372,W,1,9,1.8,19,M,,M,,*51
06/09/2014	06:04:45.919	$GPGGA,060446,2506.5497,N,08012.5356,W,1,9,1.6,20,M,,M,,*5C
06/09/2014	06:04:46.962	$GPGGA,060447,2506.5491,N,08012.5338,W,1,10,1.5,20,M,,M,,*68
06/09/2014	06:04:48.026	$GPGGA,060448,2506.5486,N,08012.5320,W,1,10,1.5,20,M,,M,,*68
06/09/2014	06:04:49.102	$GPGGA,060449,2506.5480,N,08012.5303,W,1,10,1.5,20,M,,M,,*6E
06/09/2014	06:04:50.133	$GPGGA,060450,2506.5475,N,08012.5285,W,1,10,1.5,20,M,,M,,*63
06/09/2014	06:04:51.198	$GPGGA,060451,2506.5472,N,08012.5267,W,1,10,1.5,20,M,,M,,*69
06/09/2014	06:04:52.251	$GPGGA,060452,2506.5468,N,08012.5250,W,1,10,1.8,20,M,,M,,*68
06/09/2014	06:04:53.295	$GPGGA,060453,2506.5463,N,08012.5233,W,1,8,1.8,20,M,,M,,*5E
06/09/2014	06:04:54.328	$GPGGA,060454,2506.5459,N,08012.5214,W,1,8,2.1,20,M,,M,,*5F
06/09/2014	06:04:55.403	$GPGGA,060455,2506.5453,N,08012.5196,W,1,7,2.1,20,M,,M,,*52
06/09/2014	06:04:56.446	$GPGGA,060456,2506.5448,N,08012.5178,W,1,7,2.1,20,M,,M,,*5B
06/09/2014	06:04:57.500	$GPGGA,060457,2506.5441,N,08012.5159,W,1,7,2.1,20,M,,M,,*50
06/09/2014	06:04:58.543	$GPGGA,060458,2506.5434,N,08012.5139,W,1,7,1.8,20,M,,M,,*51
06/09/2014	06:04:59.608	$GPGGA,060459,2506.5430,N,08012.5121,W,1,8,1.8,20,M,,M,,*52
06/09/2014	06:05:00.651	$GPGGA,060500,2506.5424,N,08012.5101,W,1,8,1.8,20,M,,M,,*58
06/09/2014	06:05:01.684	$GPGGA,060501,2506.5419,N,08012.5081,W,1,7,1.9,20,M,,M,,*50
06/09/2014	06:05:02.738	$GPGGA,060502,2506.5413,N,08012.5061,W,1,7,1.8,20,M,,M,,*56
06/09/2014	06:05:03.823	$GPGGA,060503,2506.5407,N,08012.5042,W,1,8,1.8,20,M,,M,,*5C
06/09/2014	06:05:04.867	$GPGGA,060504,2506.5403,N,08012.5022,W,1,8,1.8,20,M,,M,,*59
06/09/2014	06:05:05.931	$GPGGA,060505,2506.5398,N,08012.5003,W,1,8,1.8,20,M,,M,,*5E
06/09/2014	06:05:06.943	$GPGGA,060506,2506.5394,N,08012.4984,W,1,8,2.1,20,M,,M,,*5C
06/09/2014	06:05:08.028	$GPGGA,060507,2506.5388,N,08012.4964,W,1,7,2.1,20,M,,M,,*51
06/09/2014	06:05:09.075	$GPGGA,060508,2506.5383,N,08012.4945,W,1,7,1.6,20,M,,M,,*52
06/09/2014	06:05:10.109	$GPGGA,060509,2506.5376,N,08012.4925,W,1,9,1.6,20,M,,M,,*51
06/09/2014	06:05:11.158	$GPGGA,060510,2506.5372,N,08012.4905,W,1,9,1.6,20,M,,M,,*5F
06/09/2014	06:05:12.243	$GPGGA,060511,2506.5366,N,08012.4885,W,1,8,1.8,20,M,,M,,*5D
06/09/2014	06:05:13.276	$GPGGA,060512,2506.5360,N,08012.4864,W,1,8,1.6,20,M,,M,,*59
06/09/2014	06:05:14.443	$GPGGA,060513,2506.5355,N,08012.4844,W,1,9,1.6,20,M,,M,,*5D
06/09/2014	06:05:15.352	$GPGGA,060514,2506.5352,N,08012.4823,W,1,9,1.6,20,M,,M,,*5C
06/09/2014	06:05:16.427	$GPGGA,060515,2506.5348,N,08012.4803,W,1,9,1.6,20,M,,M,,*54
06/09/2014	06:05:17.470	$GPGGA,060516,2506.5344,N,08012.4783,W,1,9,1.6,20,M,,M,,*5C
06/09/2014	06:05:18.524	$GPGGA,060517,2506.5341,N,08012.4762,W,1,9,1.6,20,M,,M,,*57
06/09/2014	06:05:19.673	$GPGGA,060518,2506.5340,N,08012.4742,W,1,9,1.6,20,M,,M,,*5B
06/09/2014	06:05:20.727	$GPGGA,060519,2506.5336,N,08012.4721,W,1,9,1.6,20,M,,M,,*5E
06/09/2014	06:05:21.696	$GPGGA,060520,2506.5334,N,08012.4701,W,1,9,1.6,20,M,,M,,*54
06/09/2014	06:05:22.847	$GPGGA,060521,2506.5332,N,08012.4681,W,1,9,1.6,20,M,,M,,*5A
06/09/2014	06:05:23.773	$GPGGA,060522,2506.5330,N,08012.4660,W,1,9,1.6,20,M,,M,,*54
06/09/2014	06:05:24.921	$GPGGA,060523,2506.5329,N,08012.4639,W,1,9,1.6,20,M,,M,,*51
06/09/2014	06:05:25.880	$GPGGA,060524,2506.5327,N,08012.4618,W,1,9,1.6,20,M,,M,,*5B
06/09/2014	06:05:27.028	$GPGGA,060525,2506.5326,N,08012.4597,W,1,9,1.6,20,M,,M,,*5F
06/09/2014	06:05:27.987	$GPGGA,060526,2506.5325,N,08012.4576,W,1,9,1.6,20,M,,M,,*50
06/09/2014	06:05:29.170	$GPGGA,060527,2506.5323,N,08012.4555,W,1,9,1.6,20,M,,M,,*56
06/09/2014	06:05:30.095	$GPGGA,060528,2506.5322,N,08012.4533,W,1,9,1.6,20,M,,M,,*58
06/09/2014	06:05:31.138	$GPGGA,060529,2506.5322,N,08012.4512,W,1,9,1.6,20,M,,M,,*5A
06/09/2014	06:05:32.298	$GPGGA,060530,2506.5322,N,08012.4490,W,1,9,1.6,21,M,,M,,*58
06/09/2014	06:05:33.362	$GPGGA,060531,2506.5320,N,08012.4468,W,1,9,1.6,21,M,,M,,*5C
06/09/2014	06:05:34.416	$GPGGA,060532,2506.5321,N,08012.4447,W,1,9,1.6,21,M,,M,,*53
06/09/2014	06:05:35.459	$GPGGA,060533,2506.5320,N,08012.4426,W,1,9,1.6,21,M,,M,,*54
06/09/2014	06:05:36.503	$GPGGA,060534,2506.5322,N,08012.4405,W,1,9,1.8,21,M,,M,,*5E
06/09/2014	06:05:37.546	$GPGGA,060535,2506.5319,N,08012.4382,W,1,8,1.8,21,M,,M,,*5E
06/09/2014	06:05:38.610	$GPGGA,060536,2506.5318,N,08012.4359,W,1,8,1.6,21,M,,M,,*54
06/09/2014	06:05:39.675	$GPGGA,060537,2506.5318,N,08012.4336,W,1,9,1.6,21,M,,M,,*5D
06/09/2014	06:05:40.708	$GPGGA,060538,2506.5320,N,08012.4313,W,1,9,1.6,21,M,,M,,*5E
06/09/2014	06:05:41.783	$GPGGA,060539,2506.5319,N,08012.4291,W,1,9,1.6,21,M,,M,,*5E
06/09/2014	06:05:39.594	$GPGGA,060540,2506.5321,N,08012.4269,W,1,9,1.6,21,M,,M,,*5C
06/09/2014	06:05:40.648	$GPGGA,060541,2506.5322,N,08012.4247,W,1,9,1.6,21,M,,M,,*52
06/09/2014	06:05:41.670	$GPGGA,060542,2506.5325,N,08012.4224,W,1,9,1.6,21,M,,M,,*53
06/09/2014	06:05:42.755	$GPGGA,060543,2506.5325,N,08012.4202,W,1,8,1.8,21,M,,M,,*59
06/09/2014	06:05:43.798	$GPGGA,060544,2506.5328,N,08012.4180,W,1,8,1.8,21,M,,M,,*5A
06/09/2014	06:05:44.852	$GPGGA,060545,2506.5329,N,08012.4157,W,1,9,1.6,21,M,,M,,*5F
06/09/2014	06:05:45.885	$GPGGA,060546,2506.5331,N,08012.4134,W,1,9,1.6,21,M,,M,,*50
06/09/2014	06:05:46.970	$GPGGA,060547,2506.5330,N,08012.4112,W,1,9,1.6,21,M,,M,,*54
06/09/2014	06:05:48.014	$GPGGA,060548,2506.5332,N,08012.4090,W,1,9,1.6,21,M,,M,,*52
06/09/2014	06:05:49.047	$GPGGA,060549,2506.5332,N,08012.4067,W,1,9,1.6,21,M,,M,,*5B
06/09/2014	06:05:50.094	$GPGGA,060550,2506.5332,N,08012.4046,W,1,9,1.7,21,M,,M,,*51
06/09/2014	06:05:51.135	$GPGGA,060551,2506.5333,N,08012.4025,W,1,9,1.6,21,M,,M,,*55
06/09/2014	06:05:52.219	$GPGGA,060552,2506.5336,N,08012.4003,W,1,9,1.7,21,M,,M,,*56
06/09/2014	06:05:53.304	$GPGGA,060553,2506.5336,N,08012.3980,W,1,8,1.7,21,M,,M,,*53
06/09/2014	06:05:54.295	$GPGGA,060554,2506.5338,N,08012.3959,W,1,8,1.6,21,M,,M,,*5F
06/09/2014	06:05:55.349	$GPGGA,060555,2506.5337,N,08012.3937,W,1,9,1.6,21,M,,M,,*58
06/09/2014	06:05:56.424	$GPGGA,060556,2506.5338,N,08012.3916,W,1,9,1.6,22,M,,M,,*54
06/09/2014	06:05:57.457	$GPGGA,060557,2506.5337,N,08012.3895,W,1,9,1.6,22,M,,M,,*50
06/09/2014	06:05:58.511	$GPGGA,060558,2506.5340,N,08012.3872,W,1,9,1.6,22,M,,M,,*56
06/09/2014	06:05:59.744	$GPGGA,060559,2506.5343,N,08012.3850,W,1,8,1.6,22,M,,M,,*55
06/09/2014	06:06:00.628	$GPGGA,060600,2506.5346,N,08012.3827,W,1,8,1.6,22,M,,M,,*5F
06/09/2014	06:06:01.703	$GPGGA,060601,2506.5347,N,08012.3804,W,1,9,1.6,22,M,,M,,*5F
06/09/2014	06:06:02.725	$GPGGA,060602,2506.5349,N,08012.3782,W,1,9,1.6,22,M,,M,,*53
06/09/2014	06:06:03.758	$GPGGA,060603,2506.5350,N,08012.3759,W,1,8,1.8,22,M,,M,,*53
06/09/2014	06:06:04.822	$GPGGA,060604,2506.5353,N,08012.3737,W,1,8,1.6,22,M,,M,,*51
06/09/2014	06:06:05.887	$GPGGA,060605,2506.5354,N,08012.3715,W,1,9,1.6,22,M,,M,,*56
06/09/2014	06:06:07.069	$GPGGA,060606,2506.5356,N,08012.3693,W,1,9,1.8,22,M,,M,,*56
06/09/2014	06:06:08.163	$GPGGA,060607,2506.5357,N,08012.3670,W,1,8,1.8,22,M,,M,,*5A
06/09/2014	06:06:09.185	$GPGGA,060608,2506.5360,N,08012.3649,W,1,8,1.8,22,M,,M,,*5B
06/09/2014	06:06:10.282	$GPGGA,060609,2506.5361,N,08012.3627,W,1,9,1.6,22,M,,M,,*5C
06/09/2014	06:06:11.125	$GPGGA,060610,2506.5364,N,08012.3605,W,1,9,1.6,22,M,,M,,*51
06/09/2014	06:06:12.400	$GPGGA,060611,2506.5365,N,08012.3583,W,1,9,1.6,22,M,,M,,*5C
06/09/2014	06:06:13.391	$GPGGA,060612,2506.5367,N,08012.3560,W,1,9,1.6,22,M,,M,,*50
06/09/2014	06:06:14.476	$GPGGA,060613,2506.5368,N,08012.3538,W,1,9,1.6,22,M,,M,,*53
06/09/2014	06:06:15.361	$GPGGA,060614,2506.5368,N,08012.3516,W,1,9,1.6,22,M,,M,,*58
06/09/2014	06:06:16.394	$GPGGA,060615,2506.5369,N,08012.3493,W,1,9,1.6,22,M,,M,,*54
06/09/2014	06:06:17.606	$GPGGA,060616,2506.5371,N,08012.3471,W,1,9,1.6,22,M,,M,,*52
06/09/2014	06:06:18.703	$GPGGA,060617,2506.5372,N,08012.3449,W,1,9,1.6,22,M,,M,,*5B
06/09/2014	06:06:19.671	$GPGGA,060618,2506.5372,N,08012.3426,W,1,9,1.6,23,M,,M,,*5C
06/09/2014	06:06:20.788	$GPGGA,060619,2506.5374,N,08012.3404,W,1,9,1.6,23,M,,M,,*5B
06/09/2014	06:06:21.810	$GPGGA,060620,2506.5375,N,08012.3381,W,1,9,1.6,23,M,,M,,*5A
06/09/2014	06:06:22.906	$GPGGA,060621,2506.5376,N,08012.3359,W,1,9,1.6,23,M,,M,,*5D
06/09/2014	06:06:23.876	$GPGGA,060622,2506.5378,N,08012.3336,W,1,9,1.6,23,M,,M,,*59
06/09/2014	06:06:25.003	$GPGGA,060623,2506.5379,N,08012.3314,W,1,9,1.6,23,M,,M,,*59
06/09/2014	06:06:26.026	$GPGGA,060624,2506.5380,N,08012.3291,W,1,9,1.6,23,M,,M,,*54
06/09/2014	06:06:26.995	$GPGGA,060625,2506.5383,N,08012.3269,W,1,9,1.6,23,M,,M,,*51
06/09/2014	06:06:28.091	$GPGGA,060626,2506.5385,N,08012.3247,W,1,9,1.6,23,M,,M,,*58
06/09/2014	06:06:29.231	$GPGGA,060627,2506.5387,N,08012.3225,W,1,9,1.6,23,M,,M,,*5F
06/09/2014	06:06:31.738	$GPGGA,060629,2506.5390,N,08012.3180,W,1,9,1.6,23,M,,M,,*5B
06/09/2014	06:06:32.265	$GPGGA,060630,2506.5392,N,08012.3158,W,1,9,1.6,23,M,,M,,*54
06/09/2014	06:06:33.414	$GPGGA,060631,2506.5393,N,08012.3136,W,1,9,1.6,23,M,,M,,*5C
06/09/2014	06:06:34.425	$GPGGA,060632,2506.5394,N,08012.3113,W,1,9,1.6,23,M,,M,,*5F
06/09/2014	06:06:35.416	$GPGGA,060633,2506.5397,N,08012.3091,W,1,9,1.6,23,M,,M,,*56
06/09/2014	06:06:36.503	$GPGGA,060634,2506.5397,N,08012.3069,W,1,9,1.6,23,M,,M,,*56
06/09/2014	06:06:37.628	$GPGGA,060635,2506.5398,N,08012.3047,W,1,9,1.6,23,M,,M,,*54
06/09/2014	06:06:38.619	$GPGGA,060636,2506.5401,N,08012.3025,W,1,9,1.6,23,M,,M,,*54
06/09/2014	06:06:39.694	$GPGGA,060637,2506.5403,N,08012.3002,W,1,9,1.6,23,M,,M,,*52
06/09/2014	06:06:40.716	$GPGGA,060638,2506.5405,N,08012.2980,W,1,9,1.6,23,M,,M,,*59
06/09/2014	06:06:41.844	$GPGGA,060639,2506.5405,N,08012.2958,W,1,9,1.6,23,M,,M,,*5D
06/09/2014	06:06:39.593	$GPGGA,060640,2506.5408,N,08012.2936,W,1,9,1.6,23,M,,M,,*56
06/09/2014	06:06:40.604	$GPGGA,060641,2506.5410,N,08012.2913,W,1,9,1.6,23,M,,M,,*59
06/09/2014	06:06:41.647	$GPGGA,060642,2506.5411,N,08012.2891,W,1,9,1.6,23,M,,M,,*50
06/09/2014	06:06:42.775	$GPGGA,060643,2506.5412,N,08012.2869,W,1,9,1.6,23,M,,M,,*55
06/09/2014	06:06:43.808	$GPGGA,060644,2506.5414,N,08012.2846,W,1,9,1.6,23,M,,M,,*59
06/09/2014	06:06:44.883	$GPGGA,060645,2506.5415,N,08012.2824,W,1,9,1.6,23,M,,M,,*5D
06/09/2014	06:06:45.884	$GPGGA,060646,2506.5416,N,08012.2802,W,1,9,1.6,23,M,,M,,*59
06/09/2014	06:06:47.025	$GPGGA,060647,2506.5419,N,08012.2779,W,1,9,1.6,23,M,,M,,*54
06/09/2014	06:06:47.970	$GPGGA,060648,2506.5419,N,08012.2757,W,1,9,1.6,23,M,,M,,*57
06/09/2014	06:06:49.124	$GPGGA,060649,2506.5422,N,08012.2734,W,1,9,1.6,23,M,,M,,*5B
06/09/2014	06:06:50.094	$GPGGA,060650,2506.5423,N,08012.2712,W,1,9,1.6,23,M,,M,,*56
06/09/2014	06:06:51.113	$GPGGA,060651,2506.5425,N,08012.2689,W,1,9,1.6,23,M,,M,,*52
06/09/2014	06:06:52.228	$GPGGA,060652,2506.5426,N,08012.2667,W,1,9,1.6,23,M,,M,,*52
06/09/2014	06:06:53.323	$GPGGA,060653,2506.5426,N,08012.2644,W,1,9,1.6,22,M,,M,,*53
06/09/2014	06:06:54.303	$GPGGA,060654,2506.5429,N,08012.2622,W,1,9,1.6,22,M,,M,,*5B
06/09/2014	06:06:55.433	$GPGGA,060655,2506.5430,N,08012.2599,W,1,9,1.6,22,M,,M,,*51
06/09/2014	06:06:56.422	$GPGGA,060656,2506.5432,N,08012.2577,W,1,9,1.6,22,M,,M,,*50
06/09/2014	06:06:57.423	$GPGGA,060657,2506.5434,N,08012.2554,W,1,9,1.6,22,M,,M,,*56
06/09/2014	06:06:58.582	$GPGGA,060658,2506.5436,N,08012.2531,W,1,9,1.6,22,M,,M,,*58
06/09/2014	06:06:59.626	$GPGGA,060659,2506.5437,N,08012.2509,W,1,9,1.6,22,M,,M,,*53
06/09/2014	06:07:00.732	$GPGGA,060700,2506.5437,N,08012.2486,W,1,9,1.6,22,M,,M,,*58
06/09/2014	06:07:01.786	$GPGGA,060701,2506.5439,N,08012.2463,W,1,9,1.6,22,M,,M,,*5C
06/09/2014	06:07:02.713	$GPGGA,060702,2506.5441,N,08012.2441,W,1,9,1.6,22,M,,M,,*50
06/09/2014	06:07:03.852	$GPGGA,060703,2506.5441,N,08012.2418,W,1,9,1.8,22,M,,M,,*53
06/09/2014	06:07:04.916	$GPGGA,060704,2506.5444,N,08012.2397,W,1,9,1.6,22,M,,M,,*5F
06/09/2014	06:07:05.982	$GPGGA,060705,2506.5447,N,08012.2374,W,1,9,1.8,22,M,,M,,*5E
06/09/2014	06:07:07.003	$GPGGA,060706,2506.5448,N,08012.2351,W,1,9,1.8,22,M,,M,,*55
06/09/2014	06:07:08.046	$GPGGA,060707,2506.5448,N,08012.2328,W,1,8,1.8,22,M,,M,,*5B
06/09/2014	06:07:09.122	$GPGGA,060708,2506.5457,N,08012.2308,W,1,8,1.6,22,M,,M,,*56
06/09/2014	06:07:10.165	$GPGGA,060709,2506.5456,N,08012.2285,W,1,9,1.8,22,M,,M,,*5D
06/09/2014	06:07:11.202	$GPGGA,060710,2506.5458,N,08012.2262,W,1,9,2.0,22,M,,M,,*59
06/09/2014	06:07:12.266	$GPGGA,060711,2506.5459,N,08012.2239,W,1,7,1.8,22,M,,M,,*52
06/09/2014	06:07:13.255	$GPGGA,060712,2506.5459,N,08012.2217,W,1,7,1.8,22,M,,M,,*5D
06/09/2014	06:07:14.306	$GPGGA,060713,2506.5459,N,08012.2195,W,1,8,1.8,22,M,,M,,*5A
06/09/2014	06:07:15.276	$GPGGA,060714,2506.5459,N,08012.2172,W,1,8,2.0,22,M,,M,,*5F
06/09/2014	06:07:16.389	$GPGGA,060715,2506.5462,N,08012.2149,W,1,7,2.0,22,M,,M,,*51
06/09/2014	06:07:17.338	$GPGGA,060716,2506.5465,N,08012.2125,W,1,7,1.8,22,M,,M,,*54
06/09/2014	06:07:18.410	$GPGGA,060717,2506.5466,N,08012.2103,W,1,8,1.8,22,M,,M,,*5D
06/09/2014	06:07:19.350	$GPGGA,060718,2506.5468,N,08012.2080,W,1,8,1.8,21,M,,M,,*55
06/09/2014	06:07:20.401	$GPGGA,060719,2506.5469,N,08012.2057,W,1,8,1.8,21,M,,M,,*5F
06/09/2014	06:07:21.412	$GPGGA,060720,2506.5470,N,08012.2035,W,1,8,2.0,21,M,,M,,*52
06/09/2014	06:07:22.443	$GPGGA,060721,2506.5470,N,08012.2013,W,1,7,1.8,21,M,,M,,*53
06/09/2014	06:07:23.424	$GPGGA,060722,2506.5468,N,08012.1991,W,1,7,1.8,21,M,,M,,*59
06/09/2014	06:07:24.496	$GPGGA,060723,2506.5469,N,08012.1969,W,1,8,1.8,21,M,,M,,*51
06/09/2014	06:07:25.476	$GPGGA,060724,2506.5468,N,08012.1948,W,1,8,1.8,21,M,,M,,*54
06/09/2014	06:07:26.527	$GPGGA,060725,2506.5467,N,08012.1926,W,1,8,1.8,21,M,,M,,*52
06/09/2014	06:07:27.508	$GPGGA,060726,2506.5470,N,08012.1903,W,1,8,2.0,21,M,,M,,*5B
06/09/2014	06:07:28.610	$GPGGA,060727,2506.5470,N,08012.1882,W,1,7,1.8,21,M,,M,,*56
06/09/2014	06:07:29.559	$GPGGA,060728,2506.5472,N,08012.1860,W,1,7,1.8,21,M,,M,,*57
06/09/2014	06:07:30.610	$GPGGA,060729,2506.5476,N,08012.1836,W,1,8,2.0,21,M,,M,,*55
06/09/2014	06:07:31.591	$GPGGA,060730,2506.5479,N,08012.1813,W,1,8,2.0,21,M,,M,,*55
06/09/2014	06:07:32.612	$GPGGA,060731,2506.5479,N,08012.1813,W,1,7,2.0,21,M,,M,,*5B
06/09/2014	06:07:33.622	$GPGGA,060732,2506.5484,N,08012.1767,W,1,7,2.0,21,M,,M,,*56
06/09/2014	06:07:34.674	$GPGGA,060733,2506.5484,N,08012.1767,W,1,8,1.8,21,M,,M,,*53
06/09/2014	06:07:35.648	$GPGGA,060734,2506.5491,N,08012.1721,W,1,8,1.8,21,M,,M,,*52
06/09/2014	06:07:36.716	$GPGGA,060735,2506.5491,N,08012.1721,W,1,8,1.8,21,M,,M,,*53
06/09/2014	06:07:37.691	$GPGGA,060736,2506.5495,N,08012.1677,W,1,8,1.8,21,M,,M,,*56
06/09/2014	06:07:38.829	$GPGGA,060737,2506.5493,N,08012.1654,W,1,8,1.8,21,M,,M,,*50
06/09/2014	06:07:39.748	$GPGGA,060738,2506.5495,N,08012.1632,W,1,8,1.8,21,M,,M,,*59
06/09/2014	06:07:40.769	$GPGGA,060739,2506.5495,N,08012.1632,W,1,8,1.8,21,M,,M,,*58
06/09/2014	06:07:39.547	$GPGGA,060740,2506.5498,N,08012.1588,W,1,8,1.8,21,M,,M,,*59
06/09/2014	06:07:40.599	$GPGGA,060741,2506.5497,N,08012.1565,W,1,8,2.0,21,M,,M,,*5F
06/09/2014	06:07:41.578	$GPGGA,060742,2506.5502,N,08012.1543,W,1,8,1.8,21,M,,M,,*5E
06/09/2014	06:07:42.640	$GPGGA,060743,2506.5504,N,08012.1521,W,1,8,1.8,21,M,,M,,*5D
06/09/2014	06:07:43.714	$GPGGA,060744,2506.5506,N,08012.1499,W,1,8,1.8,21,M,,M,,*5A
06/09/2014	06:07:44.732	$GPGGA,060745,2506.5509,N,08012.1477,W,1,8,1.8,20,M,,M,,*55
06/09/2014	06:07:45.620	$GPGGA,060746,2506.5513,N,08012.1455,W,1,8,1.6,20,M,,M,,*53
06/09/2014	06:07:46.652	$GPGGA,060747,2506.5513,N,08012.1455,W,1,9,1.6,20,M,,M,,*53
06/09/2014	06:07:47.775	$GPGGA,060748,2506.5517,N,08012.1412,W,1,9,1.6,20,M,,M,,*5B
06/09/2014	06:07:48.807	$GPGGA,060749,2506.5520,N,08012.1390,W,1,9,1.6,21,M,,M,,*52
06/09/2014	06:07:49.796	$GPGGA,060750,2506.5523,N,08012.1368,W,1,9,1.6,21,M,,M,,*5E
06/09/2014	06:07:50.725	$GPGGA,060751,2506.5523,N,08012.1368,W,1,9,1.6,21,M,,M,,*5F
06/09/2014	06:07:51.859	$GPGGA,060752,2506.5527,N,08012.1324,W,1,9,1.6,21,M,,M,,*50
06/09/2014	06:07:52.881	$GPGGA,060753,2506.5525,N,08012.1304,W,1,8,1.7,21,M,,M,,*51
06/09/2014	06:07:53.870	$GPGGA,060754,2506.5527,N,08012.1283,W,1,8,1.6,21,M,,M,,*5B
06/09/2014	06:07:54.934	$GPGGA,060755,2506.5527,N,08012.1261,W,1,9,1.6,21,M,,M,,*57
06/09/2014	06:07:55.933	$GPGGA,060756,2506.5528,N,08012.1239,W,1,9,1.6,21,M,,M,,*56
06/09/2014	06:07:56.954	$GPGGA,060757,2506.5531,N,08012.1217,W,1,9,1.6,21,M,,M,,*53
06/09/2014	06:07:57.954	$GPGGA,060758,2506.5533,N,08012.1195,W,1,9,1.6,21,M,,M,,*57
06/09/2014	06:07:58.965	$GPGGA,060759,2506.5535,N,08012.1173,W,1,9,1.6,21,M,,M,,*58
06/09/2014	06:08:00.007	$GPGGA,060800,2506.5535,N,08012.1151,W,1,9,1.6,21,M,,M,,*5B
06/09/2014	06:08:01.027	$GPGGA,060801,2506.5540,N,08012.1128,W,1,9,1.6,21,M,,M,,*56
06/09/2014	06:08:02.029	$GPGGA,060802,2506.5541,N,08012.1105,W,1,9,1.7,21,M,,M,,*5A
06/09/2014	06:08:03.038	$GPGGA,060803,2506.5544,N,08012.1082,W,1,9,1.6,21,M,,M,,*51
06/09/2014	06:08:04.079	$GPGGA,060804,2506.5545,N,08012.1060,W,1,9,1.6,21,M,,M,,*5B
06/09/2014	06:08:05.110	$GPGGA,060805,2506.5546,N,08012.1038,W,1,9,1.6,21,M,,M,,*54
06/09/2014	06:08:06.101	$GPGGA,060806,2506.5549,N,08012.1015,W,1,9,1.6,21,M,,M,,*57
06/09/2014	06:08:07.152	$GPGGA,060807,2506.5553,N,08012.0990,W,1,8,1.7,21,M,,M,,*58
06/09/2014	06:08:08.163	$GPGGA,060808,2506.5556,N,08012.0968,W,1,8,1.6,21,M,,M,,*54
06/09/2014	06:08:09.174	$GPGGA,060809,2506.5557,N,08012.0944,W,1,9,1.6,21,M,,M,,*5B
06/09/2014	06:08:10.175	$GPGGA,060810,2506.5560,N,08012.0921,W,1,9,1.7,21,M,,M,,*55
06/09/2014	06:08:11.206	$GPGGA,060811,2506.5560,N,08012.0900,W,1,9,1.6,21,M,,M,,*56
06/09/2014	06:08:12.227	$GPGGA,060812,2506.5562,N,08012.0877,W,1,9,1.6,21,M,,M,,*56
06/09/2014	06:08:13.258	$GPGGA,060813,2506.5561,N,08012.0855,W,1,9,1.6,21,M,,M,,*54
06/09/2014	06:08:14.248	$GPGGA,060814,2506.5563,N,08012.0833,W,1,9,1.6,21,M,,M,,*51
06/09/2014	06:08:15.310	$GPGGA,060815,2506.5562,N,08012.0811,W,1,9,1.6,21,M,,M,,*51
06/09/2014	06:08:16.311	$GPGGA,060816,2506.5564,N,08012.0788,W,1,9,1.6,21,M,,M,,*5B
06/09/2014	06:08:17.306	$GPGGA,060817,2506.5566,N,08012.0766,W,1,9,1.6,21,M,,M,,*58
06/09/2014	06:08:18.354	$GPGGA,060818,2506.5565,N,08012.0744,W,1,9,1.6,21,M,,M,,*54
06/09/2014	06:08:19.364	$GPGGA,060819,2506.5567,N,08012.0721,W,1,9,1.6,21,M,,M,,*54
06/09/2014	06:08:20.373	$GPGGA,060820,2506.5569,N,08012.0698,W,1,9,1.6,21,M,,M,,*53
06/09/2014	06:08:21.425	$GPGGA,060821,2506.5570,N,08012.0676,W,1,9,1.6,21,M,,M,,*5A
06/09/2014	06:08:22.405	$GPGGA,060822,2506.5571,N,08012.0653,W,1,9,1.6,21,M,,M,,*5F
06/09/2014	06:08:23.569	$GPGGA,060823,2506.5573,N,08012.0631,W,1,9,1.6,21,M,,M,,*58
06/09/2014	06:08:24.452	$GPGGA,060824,2506.5574,N,08012.0608,W,1,9,1.6,21,M,,M,,*52
06/09/2014	06:08:25.561	$GPGGA,060825,2506.5575,N,08012.0585,W,1,9,1.6,21,M,,M,,*54
06/09/2014	06:08:26.479	$GPGGA,060826,2506.5577,N,08012.0562,W,1,9,1.6,21,M,,M,,*5C
06/09/2014	06:08:27.520	$GPGGA,060827,2506.5581,N,08012.0539,W,1,9,1.6,21,M,,M,,*5A
06/09/2014	06:08:28.531	$GPGGA,060828,2506.5582,N,08012.0516,W,1,9,1.7,21,M,,M,,*5A
06/09/2014	06:08:29.664	$GPGGA,060829,2506.5585,N,08012.0492,W,1,9,1.6,21,M,,M,,*50
06/09/2014	06:08:30.563	$GPGGA,060830,2506.5589,N,08012.0469,W,1,9,1.7,21,M,,M,,*51
06/09/2014	06:08:31.679	$GPGGA,060831,2506.5591,N,08012.0445,W,1,7,2.4,21,M,,M,,*59
06/09/2014	06:08:32.615	$GPGGA,060832,2506.5592,N,08012.0422,W,1,7,1.6,21,M,,M,,*59
06/09/2014	06:08:33.616	$GPGGA,060833,2506.5592,N,08012.0400,W,1,8,1.8,21,M,,M,,*59
06/09/2014	06:08:34.729	$GPGGA,060834,2506.5596,N,08012.0377,W,1,8,1.6,21,M,,M,,*53
06/09/2014	06:08:35.661	$GPGGA,060835,2506.5600,N,08012.0353,W,1,8,1.7,21,M,,M,,*59
06/09/2014	06:08:36.806	$GPGGA,060836,2506.5596,N,08012.0333,W,1,8,1.9,21,M,,M,,*5E
06/09/2014	06:08:37.710	$GPGGA,060837,2506.5594,N,08012.0311,W,1,8,1.8,21,M,,M,,*5C
06/09/2014	06:08:38.812	$GPGGA,060838,2506.5599,N,08012.0287,W,1,8,1.8,21,M,,M,,*50
06/09/2014	06:08:39.761	$GPGGA,060839,2506.5602,N,08012.0264,W,1,8,1.7,21,M,,M,,*52
06/09/2014	06:08:39.504	$GPGGA,060840,2506.5600,N,08012.0241,W,1,8,1.9,21,M,,M,,*57
06/09/2014	06:08:40.514	$GPGGA,060841,2506.5602,N,08012.0218,W,1,8,1.8,21,M,,M,,*59
06/09/2014	06:08:41.627	$GPGGA,060842,2506.5603,N,08012.0196,W,1,8,1.8,21,M,,M,,*5E
06/09/2014	06:08:42.669	$GPGGA,060843,2506.5605,N,08012.0173,W,1,8,1.8,21,M,,M,,*52
06/09/2014	06:08:43.680	$GPGGA,060844,2506.5604,N,08012.0151,W,1,8,1.9,21,M,,M,,*55
06/09/2014	06:08:44.670	$GPGGA,060845,2506.5610,N,08012.0127,W,1,8,1.8,21,M,,M,,*51
06/09/2014	06:08:45.701	$GPGGA,060846,2506.5613,N,08012.0104,W,1,8,1.9,21,M,,M,,*51
06/09/2014	06:08:46.712	$GPGGA,060847,2506.5614,N,08012.0082,W,1,8,1.7,21,M,,M,,*56
06/09/2014	06:08:47.753	$GPGGA,060848,2506.5618,N,08012.0059,W,1,8,1.6,21,M,,M,,*52
06/09/2014	06:08:48.754	$GPGGA,060849,2506.5621,N,08012.0036,W,1,9,1.6,21,M,,M,,*51
06/09/2014	06:08:49.775	$GPGGA,060850,2506.5622,N,08012.0014,W,1,9,1.6,21,M,,M,,*5A
06/09/2014	06:08:50.796	$GPGGA,060851,2506.5625,N,08011.9991,W,1,9,1.6,21,M,,M,,*52
06/09/2014	06:08:51.827	$GPGGA,060852,2506.5629,N,08011.9968,W,1,9,1.6,21,M,,M,,*5B
06/09/2014	06:08:52.848	$GPGGA,060853,2506.5632,N,08011.9946,W,1,9,1.6,21,M,,M,,*5C
06/09/2014	06:08:53.849	$GPGGA,060854,2506.5635,N,08011.9924,W,1,9,1.6,20,M,,M,,*59
06/09/2014	06:08:54.889	$GPGGA,060855,2506.5639,N,08011.9900,W,1,9,1.6,20,M,,M,,*52
06/09/2014	06:08:55.901	$GPGGA,060856,2506.5643,N,08011.9878,W,1,9,1.7,20,M,,M,,*53
06/09/2014	06:08:56.921	$GPGGA,060857,2506.5647,N,08011.9855,W,1,8,1.7,20,M,,M,,*58
06/09/2014	06:08:57.921	$GPGGA,060858,2506.5649,N,08011.9832,W,1,8,1.7,20,M,,M,,*58
06/09/2014	06:08:58.983	$GPGGA,060859,2506.5652,N,08011.9809,W,1,8,1.8,20,M,,M,,*54
06/09/2014	06:08:59.984	$GPGGA,060900,2506.5654,N,08011.9786,W,1,8,1.8,20,M,,M,,*57
06/09/2014	06:09:01.005	$GPGGA,060901,2506.5658,N,08011.9763,W,1,8,1.8,20,M,,M,,*51
06/09/2014	06:09:02.005	$GPGGA,060902,2506.5658,N,08011.9742,W,1,8,1.9,20,M,,M,,*50
06/09/2014	06:09:03.057	$GPGGA,060903,2506.5661,N,08011.9719,W,1,9,1.6,20,M,,M,,*5B
06/09/2014	06:09:04.058	$GPGGA,060904,2506.5665,N,08011.9696,W,1,9,1.7,20,M,,M,,*5F
06/09/2014	06:09:05.055	$GPGGA,060905,2506.5671,N,08011.9674,W,1,8,1.7,20,M,,M,,*56
06/09/2014	06:09:06.084	$GPGGA,060906,2506.5676,N,08011.9651,W,1,8,1.7,20,M,,M,,*55
06/09/2014	06:09:07.121	$GPGGA,060907,2506.5678,N,08011.9629,W,1,8,1.7,20,M,,M,,*55
06/09/2014	06:09:08.127	$GPGGA,060908,2506.5681,N,08011.9607,W,1,8,1.6,20,M,,M,,*51
06/09/2014	06:09:09.144	$GPGGA,060909,2506.5682,N,08011.9585,W,1,8,1.7,20,M,,M,,*5B
06/09/2014	06:09:10.266	$GPGGA,060910,2506.5681,N,08011.9563,W,1,8,1.6,20,M,,M,,*59
06/09/2014	06:09:11.286	$GPGGA,060911,2506.5686,N,08011.9540,W,1,9,1.6,20,M,,M,,*5F
06/09/2014	06:09:12.215	$GPGGA,060912,2506.5687,N,08011.9517,W,1,9,1.7,20,M,,M,,*5E
06/09/2014	06:09:13.225	$GPGGA,060913,2506.5690,N,08011.9495,W,1,8,1.7,20,M,,M,,*53
06/09/2014	06:09:14.216	$GPGGA,060914,2506.5692,N,08011.9473,W,1,8,1.6,20,M,,M,,*5F
06/09/2014	06:09:15.267	$GPGGA,060915,2506.5691,N,08011.9451,W,1,9,1.6,20,M,,M,,*5C
06/09/2014	06:09:16.278	$GPGGA,060916,2506.5694,N,08011.9428,W,1,9,1.6,20,M,,M,,*54
06/09/2014	06:09:17.299	$GPGGA,060917,2506.5696,N,08011.9405,W,1,8,1.7,20,M,,M,,*58
06/09/2014	06:09:18.402	$GPGGA,060918,2506.5697,N,08011.9382,W,1,8,1.6,20,M,,M,,*5F
06/09/2014	06:09:19.341	$GPGGA,060919,2506.5699,N,08011.9360,W,1,9,1.6,20,M,,M,,*5D
06/09/2014	06:09:20.466	$GPGGA,060920,2506.5698,N,08011.9339,W,1,9,1.6,20,M,,M,,*5A
06/09/2014	06:09:21.363	$GPGGA,060921,2506.5700,N,08011.9317,W,1,9,1.6,20,M,,M,,*57
06/09/2014	06:09:22.475	$GPGGA,060922,2506.5699,N,08011.9295,W,1,9,1.6,20,M,,M,,*5E
06/09/2014	06:09:23.496	$GPGGA,060923,2506.5701,N,08011.9273,W,1,9,1.6,20,M,,M,,*57
06/09/2014	06:09:24.528	$GPGGA,060924,2506.5703,N,08011.9251,W,1,9,1.6,20,M,,M,,*52
06/09/2014	06:09:25.528	$GPGGA,060925,2506.5704,N,08011.9229,W,1,9,1.6,20,M,,M,,*5B
06/09/2014	06:09:26.549	$GPGGA,060926,2506.5705,N,08011.9207,W,1,9,1.6,21,M,,M,,*54
06/09/2014	06:09:27.591	$GPGGA,060927,2506.5707,N,08011.9184,W,1,9,1.6,21,M,,M,,*5F
06/09/2014	06:09:28.612	$GPGGA,060928,2506.5708,N,08011.9163,W,1,9,1.6,21,M,,M,,*56
06/09/2014	06:09:29.624	$GPGGA,060929,2506.5710,N,08011.9141,W,1,9,1.6,21,M,,M,,*5E
06/09/2014	06:09:30.632	$GPGGA,060930,2506.5712,N,08011.9118,W,1,9,1.6,21,M,,M,,*58
06/09/2014	06:09:31.653	$GPGGA,060931,2506.5715,N,08011.9096,W,1,8,1.7,21,M,,M,,*59
06/09/2014	06:09:32.684	$GPGGA,060932,2506.5717,N,08011.9073,W,1,8,1.6,21,M,,M,,*52
06/09/2014	06:09:33.726	$GPGGA,060933,2506.5718,N,08011.9050,W,1,9,1.6,21,M,,M,,*5C
06/09/2014	06:09:34.716	$GPGGA,060934,2506.5721,N,08011.9027,W,1,9,1.6,21,M,,M,,*51
06/09/2014	06:09:35.717	$GPGGA,060935,2506.5723,N,08011.9005,W,1,8,1.7,21,M,,M,,*52
06/09/2014	06:09:36.758	$GPGGA,060936,2506.5723,N,08011.8983,W,1,8,1.6,21,M,,M,,*56
06/09/2014	06:09:37.800	$GPGGA,060937,2506.5726,N,08011.8960,W,1,9,1.6,21,M,,M,,*5E
06/09/2014	06:09:38.770	$GPGGA,060938,2506.5728,N,08011.8938,W,1,9,1.7,21,M,,M,,*53
06/09/2014	06:09:39.821	$GPGGA,060939,2506.5730,N,08011.8915,W,1,9,1.6,21,M,,M,,*55
06/09/2014	06:09:39.574	$GPGGA,060940,2506.5730,N,08011.8892,W,1,9,1.6,21,M,,M,,*55
06/09/2014	06:09:40.585	$GPGGA,060941,2506.5733,N,08011.8870,W,1,9,1.6,21,M,,M,,*5B
06/09/2014	06:09:41.606	$GPGGA,060942,2506.5733,N,08011.8848,W,1,9,1.6,21,M,,M,,*53
06/09/2014	06:09:42.617	$GPGGA,060943,2506.5736,N,08011.8826,W,1,9,1.6,21,M,,M,,*5F
06/09/2014	06:09:43.648	$GPGGA,060944,2506.5737,N,08011.8803,W,1,9,1.6,21,M,,M,,*5E
06/09/2014	06:09:44.648	$GPGGA,060945,2506.5739,N,08011.8781,W,1,9,1.6,21,M,,M,,*54
06/09/2014	06:09:45.680	$GPGGA,060946,2506.5741,N,08011.8758,W,1,9,1.6,21,M,,M,,*5C
06/09/2014	06:09:46.711	$GPGGA,060947,2506.5743,N,08011.8736,W,1,9,1.6,21,M,,M,,*57
06/09/2014	06:09:47.721	$GPGGA,060948,2506.5744,N,08011.8714,W,1,9,1.6,21,M,,M,,*5F
06/09/2014	06:09:48.721	$GPGGA,060949,2506.5748,N,08011.8690,W,1,9,1.6,21,M,,M,,*5F
06/09/2014	06:09:49.752	$GPGGA,060950,2506.5751,N,08011.8667,W,1,9,1.7,21,M,,M,,*56
06/09/2014	06:09:50.763	$GPGGA,060951,2506.5755,N,08011.8643,W,1,8,1.7,21,M,,M,,*54
06/09/2014	06:09:51.805	$GPGGA,060952,2506.5757,N,08011.8621,W,1,8,1.6,21,M,,M,,*50
06/09/2014	06:09:52.795	$GPGGA,060953,2506.5759,N,08011.8598,W,1,9,1.6,21,M,,M,,*5F
06/09/2014	06:09:53.836	$GPGGA,060954,2506.5761,N,08011.8576,W,1,9,1.7,21,M,,M,,*52
06/09/2014	06:09:54.857	$GPGGA,060955,2506.5765,N,08011.8552,W,1,9,1.6,21,M,,M,,*50
06/09/2014	06:09:55.878	$GPGGA,060956,2506.5768,N,08011.8529,W,1,9,1.7,21,M,,M,,*53
06/09/2014	06:09:56.993	$GPGGA,060957,2506.5766,N,08011.8508,W,1,8,1.7,20,M,,M,,*5F
06/09/2014	06:09:57.900	$GPGGA,060958,2506.5766,N,08011.8486,W,1,8,1.6,20,M,,M,,*56
06/09/2014	06:09:58.921	$GPGGA,060959,2506.5770,N,08011.8463,W,1,9,1.6,20,M,,M,,*5A
06/09/2014	06:10:00.070	$GPGGA,061000,2506.5770,N,08011.8441,W,1,9,1.7,20,M,,M,,*5F
06/09/2014	06:10:00.961	$GPGGA,061001,2506.5770,N,08011.8420,W,1,9,1.6,20,M,,M,,*58
06/09/2014	06:10:02.094	$GPGGA,061002,2506.5770,N,08011.8398,W,1,9,1.6,20,M,,M,,*5F
06/09/2014	06:10:03.109	$GPGGA,061003,2506.5770,N,08011.8377,W,1,9,1.6,20,M,,M,,*5F
06/09/2014	06:10:04.031	$GPGGA,061004,2506.5773,N,08011.8353,W,1,9,1.8,20,M,,M,,*53
06/09/2014	06:10:05.052	$GPGGA,061005,2506.5776,N,08011.8331,W,1,7,1.9,20,M,,M,,*5C
06/09/2014	06:10:06.047	$GPGGA,061006,2506.5780,N,08011.8307,W,1,7,1.8,20,M,,M,,*52
06/09/2014	06:10:07.097	$GPGGA,061007,2506.5780,N,08011.8285,W,1,9,1.6,20,M,,M,,*58
06/09/2014	06:10:08.242	$GPGGA,061008,2506.5781,N,08011.8262,W,1,9,1.8,20,M,,M,,*51
06/09/2014	06:10:09.132	$GPGGA,061009,2506.5788,N,08011.8240,W,1,8,1.8,20,M,,M,,*58
06/09/2014	06:10:10.131	$GPGGA,061010,2506.5791,N,08011.8217,W,1,8,1.6,20,M,,M,,*54
06/09/2014	06:10:11.254	$GPGGA,061011,2506.5795,N,08011.8193,W,1,7,1.9,20,M,,M,,*5E
06/09/2014	06:10:12.184	$GPGGA,061012,2506.5797,N,08011.8170,W,1,7,1.8,20,M,,M,,*53
06/09/2014	06:10:13.296	$GPGGA,061013,2506.5801,N,08011.8147,W,1,8,1.8,20,M,,M,,*59
06/09/2014	06:10:14.306	$GPGGA,061014,2506.5802,N,08011.8124,W,1,8,1.8,20,M,,M,,*58
06/09/2014	06:10:15.327	$GPGGA,061015,2506.5806,N,08011.8101,W,1,8,1.8,20,M,,M,,*5A
06/09/2014	06:10:16.359	$GPGGA,061016,2506.5808,N,08011.8079,W,1,8,1.8,20,M,,M,,*59
06/09/2014	06:10:17.380	$GPGGA,061017,2506.5811,N,08011.8056,W,1,8,1.8,20,M,,M,,*5D
06/09/2014	06:10:18.380	$GPGGA,061018,2506.5815,N,08011.8034,W,1,8,1.8,20,M,,M,,*52
06/09/2014	06:10:19.411	$GPGGA,061019,2506.5817,N,08011.8011,W,1,9,1.6,20,M,,M,,*59
06/09/2014	06:10:20.433	$GPGGA,061020,2506.5824,N,08011.7989,W,1,9,1.8,20,M,,M,,*5A
06/09/2014	06:10:21.454	$GPGGA,061021,2506.5824,N,08011.7967,W,1,8,1.7,20,M,,M,,*55
06/09/2014	06:10:22.464	$GPGGA,061022,2506.5827,N,08011.7944,W,1,8,1.6,20,M,,M,,*55
06/09/2014	06:10:23.505	$GPGGA,061023,2506.5831,N,08011.7922,W,1,9,1.6,20,M,,M,,*52
06/09/2014	06:10:24.505	$GPGGA,061024,2506.5837,N,08011.7899,W,1,9,1.7,20,M,,M,,*53
06/09/2014	06:10:25.516	$GPGGA,061025,2506.5838,N,08011.7877,W,1,8,1.7,20,M,,M,,*5C
06/09/2014	06:10:26.527	$GPGGA,061026,2506.5838,N,08011.7856,W,1,8,1.6,20,M,,M,,*5D
06/09/2014	06:10:27.569	$GPGGA,061027,2506.5840,N,08011.7834,W,1,8,1.8,20,M,,M,,*59
06/09/2014	06:10:28.580	$GPGGA,061028,2506.5838,N,08011.7812,W,1,8,1.6,20,M,,M,,*53
06/09/2014	06:10:29.580	$GPGGA,061029,2506.5840,N,08011.7790,W,1,9,1.6,20,M,,M,,*59
06/09/2014	06:10:30.611	$GPGGA,061030,2506.5842,N,08011.7768,W,1,9,1.6,20,M,,M,,*54
06/09/2014	06:10:31.622	$GPGGA,061031,2506.5845,N,08011.7746,W,1,9,1.6,20,M,,M,,*5E
06/09/2014	06:10:32.653	$GPGGA,061032,2506.5845,N,08011.7724,W,1,9,1.6,20,M,,M,,*59
06/09/2014	06:10:33.694	$GPGGA,061033,2506.5848,N,08011.7702,W,1,9,1.6,20,M,,M,,*51
06/09/2014	06:10:34.685	$GPGGA,061034,2506.5849,N,08011.7680,W,1,9,1.6,20,M,,M,,*5C
06/09/2014	06:10:35.695	$GPGGA,061035,2506.5852,N,08011.7657,W,1,9,1.6,20,M,,M,,*5D
06/09/2014	06:10:36.737	$GPGGA,061036,2506.5853,N,08011.7634,W,1,9,1.7,20,M,,M,,*5B
06/09/2014	06:10:37.727	$GPGGA,061037,2506.5858,N,08011.7611,W,1,9,1.6,20,M,,M,,*57
06/09/2014	06:10:38.769	$GPGGA,061038,2506.5854,N,08011.7592,W,1,9,1.7,20,M,,M,,*5D
06/09/2014	06:10:39.801	$GPGGA,061039,2506.5850,N,08011.7572,W,1,9,1.6,20,M,,M,,*57
06/09/2014	06:10:39.552	$GPGGA,061040,2506.5855,N,08011.7549,W,1,9,1.6,20,M,,M,,*54
06/09/2014	06:10:40.593	$GPGGA,061041,2506.5860,N,08011.7525,W,1,8,1.7,20,M,,M,,*59
06/09/2014	06:10:41.565	$GPGGA,061042,2506.5864,N,08011.7502,W,1,8,2.5,20,M,,M,,*5A
06/09/2014	06:10:42.594	$GPGGA,061043,2506.5869,N,08011.7479,W,1,7,2.5,20,M,,M,,*54
06/09/2014	06:10:43.615	$GPGGA,061044,2506.5867,N,08011.7457,W,1,7,2.5,20,M,,M,,*51
06/09/2014	06:10:44.626	$GPGGA,061045,2506.5865,N,08011.7433,W,1,8,1.8,20,M,,M,,*51
06/09/2014	06:10:45.657	$GPGGA,061046,2506.5869,N,08011.7409,W,1,8,1.6,20,M,,M,,*59
06/09/2014	06:10:46.660	$GPGGA,061047,2506.5871,N,08011.7388,W,1,7,2.5,20,M,,M,,*50
06/09/2014	06:10:47.811	$GPGGA,061048,2506.5873,N,08011.7366,W,1,7,1.6,20,M,,M,,*5D
06/09/2014	06:10:48.832	$GPGGA,061049,2506.5874,N,08011.7343,W,1,9,1.7,20,M,,M,,*53
06/09/2014	06:10:49.711	$GPGGA,061050,2506.5874,N,08011.7320,W,1,9,1.7,20,M,,M,,*5E
06/09/2014	06:10:50.762	$GPGGA,061051,2506.5877,N,08011.7297,W,1,8,1.7,20,M,,M,,*50
06/09/2014	06:10:51.783	$GPGGA,061052,2506.5878,N,08011.7273,W,1,8,1.7,20,M,,M,,*56
06/09/2014	06:10:52.804	$GPGGA,061053,2506.5878,N,08011.7249,W,1,9,1.6,20,M,,M,,*5E
06/09/2014	06:10:53.810	$GPGGA,061054,2506.5878,N,08011.7226,W,1,9,1.6,20,M,,M,,*50
06/09/2014	06:10:54.939	$GPGGA,061055,2506.5878,N,08011.7204,W,1,8,1.7,20,M,,M,,*51
06/09/2014	06:10:55.857	$GPGGA,061056,2506.5878,N,08011.7181,W,1,8,1.7,20,M,,M,,*5C
06/09/2014	06:10:56.867	$GPGGA,061057,2506.5880,N,08011.7158,W,1,9,1.6,20,M,,M,,*5E
06/09/2014	06:10:57.980	$GPGGA,061058,2506.5878,N,08011.7136,W,1,9,1.6,20,M,,M,,*5E
06/09/2014	06:10:59.035	$GPGGA,061059,2506.5878,N,08011.7113,W,1,9,1.6,20,M,,M,,*58
06/09/2014	06:10:59.940	$GPGGA,061100,2506.5878,N,08011.7090,W,1,9,1.6,20,M,,M,,*5F
06/09/2014	06:11:01.043	$GPGGA,061101,2506.5880,N,08011.7067,W,1,9,1.6,20,M,,M,,*51
06/09/2014	06:11:01.951	$GPGGA,061102,2506.5881,N,08011.7044,W,1,9,1.6,20,M,,M,,*52
06/09/2014	06:11:03.074	$GPGGA,061103,2506.5882,N,08011.7021,W,1,9,1.6,20,M,,M,,*53
06/09/2014	06:11:04.106	$GPGGA,061104,2506.5882,N,08011.6999,W,1,9,1.6,20,M,,M,,*5F
06/09/2014	06:11:05.116	$GPGGA,061105,2506.5882,N,08011.6976,W,1,9,1.7,19,M,,M,,*54
06/09/2014	06:11:06.128	$GPGGA,061106,2506.5882,N,08011.6954,W,1,9,1.6,19,M,,M,,*56
06/09/2014	06:11:07.158	$GPGGA,061107,2506.5882,N,08011.6932,W,1,9,1.6,19,M,,M,,*57
06/09/2014	06:11:08.179	$GPGGA,061108,2506.5880,N,08011.6909,W,1,9,1.6,19,M,,M,,*52
06/09/2014	06:11:09.200	$GPGGA,061109,2506.5881,N,08011.6887,W,1,9,1.7,19,M,,M,,*54
06/09/2014	06:11:10.201	$GPGGA,061110,2506.5880,N,08011.6865,W,1,9,1.8,19,M,,M,,*5E
06/09/2014	06:11:11.232	$GPGGA,061111,2506.5881,N,08011.6842,W,1,8,1.8,19,M,,M,,*5A
06/09/2014	06:11:12.253	$GPGGA,061112,2506.5882,N,08011.6819,W,1,8,2.5,19,M,,M,,*5A
06/09/2014	06:11:13.284	$GPGGA,061113,2506.5879,N,08011.6798,W,1,7,1.8,19,M,,M,,*58
06/09/2014	06:11:14.285	$GPGGA,061114,2506.5882,N,08011.6775,W,1,7,2.5,19,M,,M,,*56
06/09/2014	06:11:15.325	$GPGGA,061115,2506.5885,N,08011.6752,W,1,7,2.5,19,M,,M,,*55
06/09/2014	06:11:16.326	$GPGGA,061116,2506.5887,N,08011.6729,W,1,7,2.5,19,M,,M,,*58
06/09/2014	06:11:17.347	$GPGGA,061117,2506.5886,N,08011.6706,W,1,7,1.6,19,M,,M,,*55
06/09/2014	06:11:18.358	$GPGGA,061118,2506.5888,N,08011.6684,W,1,7,1.6,19,M,,M,,*5F
06/09/2014	06:11:19.369	$GPGGA,061119,2506.5886,N,08011.6663,W,1,9,1.6,19,M,,M,,*57
06/09/2014	06:11:20.410	$GPGGA,061120,2506.5888,N,08011.6640,W,1,9,1.6,19,M,,M,,*52
06/09/2014	06:11:21.400	$GPGGA,061121,2506.5889,N,08011.6617,W,1,9,1.7,19,M,,M,,*51
06/09/2014	06:11:22.421	$GPGGA,061122,2506.5891,N,08011.6594,W,1,9,1.6,19,M,,M,,*52
06/09/2014	06:11:23.483	$GPGGA,061123,2506.5892,N,08011.6572,W,1,9,1.6,19,M,,M,,*58
06/09/2014	06:11:24.514	$GPGGA,061124,2506.5892,N,08011.6549,W,1,9,1.6,19,M,,M,,*57
06/09/2014	06:11:25.484	$GPGGA,061125,2506.5895,N,08011.6526,W,1,9,1.7,19,M,,M,,*59
06/09/2014	06:11:26.516	$GPGGA,061126,2506.5894,N,08011.6504,W,1,9,1.6,19,M,,M,,*5A
06/09/2014	06:11:27.516	$GPGGA,061127,2506.5898,N,08011.6480,W,1,9,1.7,19,M,,M,,*5B
06/09/2014	06:11:28.558	$GPGGA,061128,2506.5900,N,08011.6456,W,1,9,1.7,19,M,,M,,*5F
06/09/2014	06:11:29.579	$GPGGA,061129,2506.5900,N,08011.6434,W,1,8,1.6,19,M,,M,,*5A
06/09/2014	06:11:30.589	$GPGGA,061130,2506.5903,N,08011.6411,W,1,8,1.7,19,M,,M,,*57
06/09/2014	06:11:31.631	$GPGGA,061131,2506.5902,N,08011.6388,W,1,8,1.6,19,M,,M,,*51
06/09/2014	06:11:32.651	$GPGGA,061132,2506.5903,N,08011.6367,W,1,8,1.6,19,M,,M,,*52
06/09/2014	06:11:33.753	$GPGGA,061133,2506.5906,N,08011.6344,W,1,9,1.6,19,M,,M,,*56
06/09/2014	06:11:34.774	$GPGGA,061134,2506.5907,N,08011.6321,W,1,9,1.6,19,M,,M,,*53
06/09/2014	06:11:35.673	$GPGGA,061135,2506.5907,N,08011.6299,W,1,9,1.6,19,M,,M,,*50
06/09/2014	06:11:36.827	$GPGGA,061136,2506.5910,N,08011.6276,W,1,9,1.6,19,M,,M,,*54
06/09/2014	06:11:37.848	$GPGGA,061137,2506.5911,N,08011.6254,W,1,9,1.6,19,M,,M,,*54
06/09/2014	06:11:38.736	$GPGGA,061138,2506.5914,N,08011.6232,W,1,9,1.6,19,M,,M,,*5E
06/09/2014	06:11:39.777	$GPGGA,061139,2506.5916,N,08011.6208,W,1,9,1.6,19,M,,M,,*54
06/09/2014	06:11:39.532	$GPGGA,061140,2506.5918,N,08011.6186,W,1,9,1.6,19,M,,M,,*51
06/09/2014	06:11:40.643	$GPGGA,061141,2506.5921,N,08011.6162,W,1,9,1.7,19,M,,M,,*51
06/09/2014	06:11:41.562	$GPGGA,061142,2506.5924,N,08011.6139,W,1,9,1.6,19,M,,M,,*58
06/09/2014	06:11:42.705	$GPGGA,061143,2506.5925,N,08011.6116,W,1,9,1.6,19,M,,M,,*55
06/09/2014	06:11:43.614	$GPGGA,061144,2506.5928,N,08011.6092,W,1,9,1.6,19,M,,M,,*52
06/09/2014	06:11:44.727	$GPGGA,061145,2506.5932,N,08011.6070,W,1,9,1.6,19,M,,M,,*54
06/09/2014	06:11:45.646	$GPGGA,061146,2506.5934,N,08011.6047,W,1,9,1.6,19,M,,M,,*55
06/09/2014	06:11:46.738	$GPGGA,061147,2506.5936,N,08011.6023,W,1,9,1.6,19,M,,M,,*54
06/09/2014	06:11:47.783	$GPGGA,061148,2506.5939,N,08011.6000,W,1,9,1.6,19,M,,M,,*55
06/09/2014	06:11:48.792	$GPGGA,061149,2506.5943,N,08011.5977,W,1,9,1.7,19,M,,M,,*52
06/09/2014	06:11:49.790	$GPGGA,061150,2506.5941,N,08011.5956,W,1,9,1.7,19,M,,M,,*5B
