Software Version Number: 1	Data File Format Number: 1	Build Version Number: 1	Error Count Since VI Started: 0	Manufacturer: Raytheon	 Model Number: RayMarine 120	 S/N: 	 Cal Date: 	 Wind Direction Offset: 0.00	 Slope (M)1: 0.00	 Offset (B)1: 0.00	 Slope (M)2: 0.00	 Offset (B)2: 0.00	 Slope (M)3: 0.00	 Offset (B)3: 0.00	 Slope (M)4: 0.00	 Offset (B)4: 0.00	 Slope (M)5: 0.00	 Offset (B)5: 0.00	 Slope (M)6: 0.00	 Offset (B)6: 0.00
Computer Date	Computer Time	GGA String
06/06/2014	17:00:00.898	$GPGGA,170001,2419.2882,N,08142.9939,W,1,9,1.9,11,M,,M,,*5D
06/06/2014	17:00:01.836	$GPGGA,170002,2419.2892,N,08142.9946,W,1,9,1.9,11,M,,M,,*57
06/06/2014	17:00:02.807	$GPGGA,170003,2419.2901,N,08142.9950,W,1,9,1.9,11,M,,M,,*5A
06/06/2014	17:00:03.781	$GPGGA,170004,2419.2911,N,08142.9956,W,1,9,1.9,11,M,,M,,*5A
06/06/2014	17:00:04.803	$GPGGA,170005,2419.2919,N,08142.9960,W,1,9,1.9,11,M,,M,,*56
06/06/2014	17:00:05.826	$GPGGA,170006,2419.2930,N,08142.9965,W,1,9,1.9,11,M,,M,,*5B
06/06/2014	17:00:06.807	$GPGGA,170007,2419.2940,N,08142.9971,W,1,9,1.9,11,M,,M,,*58
06/06/2014	17:00:07.769	$GPGGA,170008,2419.2948,N,08142.9976,W,1,9,1.9,11,M,,M,,*58
06/06/2014	17:00:08.812	$GPGGA,170009,2419.2959,N,08142.9982,W,1,9,1.9,11,M,,M,,*52
06/06/2014	17:00:09.758	$GPGGA,170010,2419.2969,N,08142.9986,W,1,9,1.9,11,M,,M,,*5D
06/06/2014	17:00:10.807	$GPGGA,170011,2419.2977,N,08142.9993,W,1,9,1.9,11,M,,M,,*57
06/06/2014	17:00:11.852	$GPGGA,170012,2419.2987,N,08142.9998,W,1,9,1.9,11,M,,M,,*50
06/06/2014	17:00:12.804	$GPGGA,170013,2419.2997,N,08143.0004,W,1,9,1.9,11,M,,M,,*54
06/06/2014	17:00:13.772	$GPGGA,170014,2419.3006,N,08143.0008,W,1,9,1.9,11,M,,M,,*5F
06/06/2014	17:00:14.828	$GPGGA,170015,2419.3015,N,08143.0014,W,1,9,1.9,11,M,,M,,*51
06/06/2014	17:00:15.851	$GPGGA,170016,2419.3024,N,08143.0020,W,1,9,1.9,11,M,,M,,*57
06/06/2014	17:00:16.814	$GPGGA,170017,2419.3035,N,08143.0025,W,1,9,1.9,11,M,,M,,*53
06/06/2014	17:00:17.846	$GPGGA,170018,2419.3044,N,08143.0030,W,1,9,1.9,11,M,,M,,*5E
06/06/2014	17:00:18.777	$GPGGA,170019,2419.3053,N,08143.0036,W,1,9,1.9,11,M,,M,,*5F
06/06/2014	17:00:19.832	$GPGGA,170020,2419.3064,N,08143.0041,W,1,9,1.9,11,M,,M,,*51
06/06/2014	17:00:20.804	$GPGGA,170021,2419.3074,N,08143.0047,W,1,9,1.9,10,M,,M,,*56
06/06/2014	17:00:21.818	$GPGGA,170022,2419.3082,N,08143.0051,W,1,9,1.9,10,M,,M,,*5B
06/06/2014	17:00:22.810	$GPGGA,170023,2419.3092,N,08143.0058,W,1,9,1.9,10,M,,M,,*52
06/06/2014	17:00:23.772	$GPGGA,170024,2419.3103,N,08143.0061,W,1,9,1.9,10,M,,M,,*56
06/06/2014	17:00:24.855	$GPGGA,170025,2419.3111,N,08143.0068,W,1,9,1.9,10,M,,M,,*5D
06/06/2014	17:00:25.827	$GPGGA,170026,2419.3121,N,08143.0072,W,1,9,1.9,10,M,,M,,*56
06/06/2014	17:00:26.820	$GPGGA,170027,2419.3131,N,08143.0077,W,1,9,1.9,10,M,,M,,*53
06/06/2014	17:00:27.772	$GPGGA,170028,2419.3140,N,08143.0083,W,1,9,1.9,10,M,,M,,*51
06/06/2014	17:00:28.835	$GPGGA,170029,2419.3150,N,08143.0088,W,1,9,1.9,10,M,,M,,*5A
06/06/2014	17:00:29.828	$GPGGA,170030,2419.3160,N,08143.0094,W,1,9,1.9,10,M,,M,,*5C
06/06/2014	17:00:30.814	$GPGGA,170031,2419.3169,N,08143.0099,W,1,9,1.9,10,M,,M,,*59
06/06/2014	17:00:31.783	$GPGGA,170032,2419.3179,N,08143.0105,W,1,9,1.9,10,M,,M,,*5F
06/06/2014	17:00:32.766	$GPGGA,170033,2419.3189,N,08143.0109,W,1,9,1.9,10,M,,M,,*5D
06/06/2014	17:00:33.828	$GPGGA,170034,2419.3199,N,08143.0115,W,1,9,1.9,10,M,,M,,*56
06/06/2014	17:00:34.801	$GPGGA,170035,2419.3208,N,08143.0120,W,1,9,1.9,10,M,,M,,*5A
06/06/2014	17:00:35.904	$GPGGA,170036,2419.3218,N,08143.0126,W,1,9,1.9,10,M,,M,,*5E
06/06/2014	17:00:36.776	$GPGGA,170037,2419.3228,N,08143.0130,W,1,9,1.9,10,M,,M,,*5B
06/06/2014	17:00:37.839	$GPGGA,170038,2419.3237,N,08143.0137,W,1,9,1.9,10,M,,M,,*5D
06/06/2014	17:00:38.825	$GPGGA,170039,2419.3247,N,08143.0141,W,1,9,1.9,10,M,,M,,*5A
06/06/2014	17:00:39.847	$GPGGA,170040,2419.3257,N,08143.0146,W,1,9,1.9,10,M,,M,,*52
06/06/2014	17:00:40.767	$GPGGA,170041,2419.3266,N,08143.0152,W,1,9,1.9,10,M,,M,,*54
06/06/2014	17:00:41.899	$GPGGA,170042,2419.3276,N,08143.0157,W,1,9,1.9,10,M,,M,,*53
06/06/2014	17:00:42.825	$GPGGA,170043,2419.3286,N,08143.0162,W,1,9,1.9,10,M,,M,,*5B
06/06/2014	17:00:43.885	$GPGGA,170044,2419.3295,N,08143.0167,W,1,9,1.9,9,M,,M,,*63
06/06/2014	17:00:44.907	$GPGGA,170045,2419.3305,N,08143.0173,W,1,9,1.9,9,M,,M,,*6F
06/06/2014	17:00:45.870	$GPGGA,170046,2419.3315,N,08143.0177,W,1,9,1.9,9,M,,M,,*69
06/06/2014	17:00:46.873	$GPGGA,170047,2419.3326,N,08143.0181,W,1,9,1.9,9,M,,M,,*61
06/06/2014	17:00:47.895	$GPGGA,170048,2419.3335,N,08143.0188,W,1,9,1.9,9,M,,M,,*65
06/06/2014	17:00:48.908	$GPGGA,170049,2419.3342,N,08143.0193,W,1,9,1.9,9,M,,M,,*6E
06/06/2014	17:00:49.881	$GPGGA,170050,2419.3353,N,08143.0199,W,1,9,1.9,9,M,,M,,*6C
06/06/2014	17:00:50.883	$GPGGA,170051,2419.3363,N,08143.0203,W,1,9,1.9,9,M,,M,,*6E
06/06/2014	17:00:51.906	$GPGGA,170052,2419.3373,N,08143.0210,W,1,9,2.0,9,M,,M,,*64
06/06/2014	17:00:52.889	$GPGGA,170053,2419.3382,N,08143.0213,W,1,8,1.9,9,M,,M,,*63
06/06/2014	17:00:53.891	$GPGGA,170054,2419.3392,N,08143.0218,W,1,8,1.9,9,M,,M,,*6E
06/06/2014	17:00:54.904	$GPGGA,170055,2419.3403,N,08143.0224,W,1,9,1.9,9,M,,M,,*6E
06/06/2014	17:00:55.897	$GPGGA,170056,2419.3411,N,08143.0228,W,1,9,1.9,9,M,,M,,*62
06/06/2014	17:00:56.900	$GPGGA,170057,2419.3421,N,08143.0233,W,1,9,1.9,9,M,,M,,*6A
06/06/2014	17:00:57.892	$GPGGA,170058,2419.3432,N,08143.0238,W,1,9,1.9,9,M,,M,,*6C
06/06/2014	17:00:58.904	$GPGGA,170059,2419.3441,N,08143.0243,W,1,9,1.9,9,M,,M,,*65
06/06/2014	17:00:59.937	$GPGGA,170100,2419.3450,N,08143.0249,W,1,9,1.9,9,M,,M,,*62
06/06/2014	17:01:00.929	$GPGGA,170101,2419.3461,N,08143.0253,W,1,9,2.0,9,M,,M,,*60
06/06/2014	17:01:01.893	$GPGGA,170102,2419.3470,N,08143.0258,W,1,9,1.9,9,M,,M,,*62
06/06/2014	17:01:02.925	$GPGGA,170103,2419.3479,N,08143.0262,W,1,9,1.9,9,M,,M,,*63
06/06/2014	17:01:03.948	$GPGGA,170104,2419.3479,N,08143.0262,W,1,9,1.9,9,M,,M,,*64
06/06/2014	17:01:04.920	$GPGGA,170105,2419.3500,N,08143.0272,W,1,9,1.9,9,M,,M,,*6B
06/06/2014	17:01:05.896	$GPGGA,170106,2419.3510,N,08143.0276,W,1,9,1.9,9,M,,M,,*6D
06/06/2014	17:01:06.916	$GPGGA,170107,2419.3519,N,08143.0280,W,1,9,1.9,9,M,,M,,*6C
06/06/2014	17:01:07.928	$GPGGA,170108,2419.3530,N,08143.0286,W,1,9,1.9,9,M,,M,,*6E
06/06/2014	17:01:08.922	$GPGGA,170109,2419.3539,N,08143.0292,W,1,9,1.9,9,M,,M,,*63
06/06/2014	17:01:09.904	$GPGGA,170110,2419.3548,N,08143.0297,W,1,9,1.9,9,M,,M,,*68
06/06/2014	17:01:10.906	$GPGGA,170111,2419.3558,N,08143.0303,W,1,9,1.9,9,M,,M,,*64
06/06/2014	17:01:11.939	$GPGGA,170112,2419.3568,N,08143.0307,W,1,9,1.9,10,M,,M,,*58
06/06/2014	17:01:12.915	$GPGGA,170113,2419.3577,N,08143.0312,W,1,9,1.9,10,M,,M,,*53
06/06/2014	17:01:13.934	$GPGGA,170114,2419.3587,N,08143.0318,W,1,9,2.0,10,M,,M,,*5B
06/06/2014	17:01:14.907	$GPGGA,170115,2419.3597,N,08143.0322,W,1,8,1.9,10,M,,M,,*59
06/06/2014	17:01:15.900	$GPGGA,170116,2419.3597,N,08143.0322,W,1,8,1.9,10,M,,M,,*5A
06/06/2014	17:01:16.891	$GPGGA,170117,2419.3616,N,08143.0332,W,1,9,1.9,10,M,,M,,*51
06/06/2014	17:01:17.924	$GPGGA,170118,2419.3616,N,08143.0332,W,1,9,1.9,10,M,,M,,*5E
06/06/2014	17:01:18.917	$GPGGA,170119,2419.3637,N,08143.0340,W,1,9,1.9,10,M,,M,,*59
06/06/2014	17:01:19.950	$GPGGA,170120,2419.3647,N,08143.0347,W,1,9,1.9,10,M,,M,,*53
06/06/2014	17:01:20.892	$GPGGA,170121,2419.3656,N,08143.0350,W,1,9,1.9,10,M,,M,,*54
06/06/2014	17:01:21.905	$GPGGA,170122,2419.3656,N,08143.0350,W,1,9,1.9,10,M,,M,,*57
06/06/2014	17:01:22.908	$GPGGA,170123,2419.3677,N,08143.0361,W,1,9,1.9,10,M,,M,,*57
06/06/2014	17:01:23.910	$GPGGA,170124,2419.3677,N,08143.0361,W,1,9,1.9,10,M,,M,,*50
06/06/2014	17:01:25.023	$GPGGA,170125,2419.3696,N,08143.0370,W,1,9,1.9,10,M,,M,,*5E
06/06/2014	17:01:25.996	$GPGGA,170126,2419.3706,N,08143.0374,W,1,9,1.9,10,M,,M,,*51
06/06/2014	17:01:27.019	$GPGGA,170127,2419.3717,N,08143.0379,W,1,9,1.9,10,M,,M,,*5D
06/06/2014	17:01:27.921	$GPGGA,170128,2419.3717,N,08143.0379,W,1,9,1.9,10,M,,M,,*52
06/06/2014	17:01:28.994	$GPGGA,170129,2419.3736,N,08143.0390,W,1,9,1.9,10,M,,M,,*57
06/06/2014	17:01:30.007	$GPGGA,170130,2419.3746,N,08143.0394,W,1,9,1.9,10,M,,M,,*5C
06/06/2014	17:01:30.899	$GPGGA,170131,2419.3756,N,08143.0398,W,1,9,1.9,10,M,,M,,*50
06/06/2014	17:01:32.003	$GPGGA,170132,2419.3765,N,08143.0404,W,1,9,1.9,10,M,,M,,*51
06/06/2014	17:01:33.035	$GPGGA,170133,2419.3775,N,08143.0408,W,1,9,1.9,10,M,,M,,*5D
06/06/2014	17:01:33.996	$GPGGA,170134,2419.3786,N,08143.0412,W,1,9,1.9,10,M,,M,,*5D
06/06/2014	17:01:35.019	$GPGGA,170135,2419.3796,N,08143.0415,W,1,9,1.6,10,M,,M,,*55
06/06/2014	17:01:36.022	$GPGGA,170136,2419.3804,N,08143.0419,W,1,9,1.6,10,M,,M,,*5E
06/06/2014	17:01:36.995	$GPGGA,170137,2419.3815,N,08143.0423,W,1,9,1.6,10,M,,M,,*56
06/06/2014	17:01:38.007	$GPGGA,170138,2419.3826,N,08143.0427,W,1,9,1.6,10,M,,M,,*5D
06/06/2014	17:01:39.000	$GPGGA,170139,2419.3835,N,08143.0431,W,1,9,1.9,10,M,,M,,*56
06/06/2014	17:01:40.023	$GPGGA,170140,2419.3844,N,08143.0435,W,1,9,1.6,11,M,,M,,*54
06/06/2014	17:01:41.015	$GPGGA,170141,2419.3855,N,08143.0439,W,1,9,1.6,11,M,,M,,*59
06/06/2014	17:01:42.007	$GPGGA,170142,2419.3865,N,08143.0444,W,1,9,1.6,11,M,,M,,*53
06/06/2014	17:01:43.021	$GPGGA,170143,2419.3875,N,08143.0448,W,1,9,1.6,11,M,,M,,*5F
06/06/2014	17:01:44.023	$GPGGA,170144,2419.3884,N,08143.0452,W,1,9,1.6,11,M,,M,,*5D
06/06/2014	17:01:45.006	$GPGGA,170145,2419.3895,N,08143.0456,W,1,9,1.6,11,M,,M,,*58
06/06/2014	17:01:46.012	$GPGGA,170146,2419.3905,N,08143.0460,W,1,9,1.6,11,M,,M,,*56
06/06/2014	17:01:47.019	$GPGGA,170147,2419.3916,N,08143.0464,W,1,10,1.6,11,M,,M,,*69
06/06/2014	17:01:48.024	$GPGGA,170148,2419.3926,N,08143.0469,W,1,10,1.6,11,M,,M,,*68
06/06/2014	17:01:49.047	$GPGGA,170149,2419.3936,N,08143.0473,W,1,10,1.6,11,M,,M,,*63
06/06/2014	17:01:50.010	$GPGGA,170150,2419.3945,N,08143.0478,W,1,10,1.6,11,M,,M,,*64
06/06/2014	17:01:51.027	$GPGGA,170151,2419.3956,N,08143.0482,W,1,10,1.6,11,M,,M,,*62
06/06/2014	17:01:52.021	$GPGGA,170152,2419.3967,N,08143.0488,W,1,10,1.6,11,M,,M,,*69
06/06/2014	17:01:53.055	$GPGGA,170153,2419.3977,N,08143.0491,W,1,10,1.6,11,M,,M,,*61
06/06/2014	17:01:54.010	$GPGGA,170154,2419.3988,N,08143.0495,W,1,10,1.6,11,M,,M,,*62
06/06/2014	17:01:55.046	$GPGGA,170155,2419.3998,N,08143.0502,W,1,10,1.6,11,M,,M,,*6D
06/06/2014	17:01:56.027	$GPGGA,170156,2419.4007,N,08143.0506,W,1,10,1.6,12,M,,M,,*61
06/06/2014	17:01:57.028	$GPGGA,170157,2419.4018,N,08143.0509,W,1,10,1.6,12,M,,M,,*61
06/06/2014	17:01:58.010	$GPGGA,170158,2419.4028,N,08143.0514,W,1,10,1.6,12,M,,M,,*61
06/06/2014	17:01:59.043	$GPGGA,170159,2419.4039,N,08143.0520,W,1,10,1.6,12,M,,M,,*67
06/06/2014	17:02:00.061	$GPGGA,170200,2419.4050,N,08143.0524,W,1,10,1.6,12,M,,M,,*63
06/06/2014	17:02:01.129	$GPGGA,170201,2419.4060,N,08143.0528,W,1,10,1.6,12,M,,M,,*6D
06/06/2014	17:02:02.131	$GPGGA,170202,2419.4071,N,08143.0533,W,1,10,1.6,12,M,,M,,*64
06/06/2014	17:02:03.024	$GPGGA,170203,2419.4081,N,08143.0538,W,1,10,1.6,12,M,,M,,*61
06/06/2014	17:02:04.026	$GPGGA,170204,2419.4090,N,08143.0542,W,1,10,1.6,12,M,,M,,*6B
06/06/2014	17:02:05.019	$GPGGA,170205,2419.4100,N,08143.0547,W,1,10,1.6,12,M,,M,,*67
06/06/2014	17:02:06.133	$GPGGA,170206,2419.4111,N,08143.0553,W,1,10,1.6,12,M,,M,,*61
06/06/2014	17:02:07.149	$GPGGA,170207,2419.4122,N,08143.0556,W,1,10,1.6,12,M,,M,,*65
06/06/2014	17:02:08.053	$GPGGA,170208,2419.4132,N,08143.0561,W,1,10,1.6,12,M,,M,,*6F
06/06/2014	17:02:09.029	$GPGGA,170209,2419.4142,N,08143.0565,W,1,10,1.6,12,M,,M,,*6D
06/06/2014	17:02:10.031	$GPGGA,170210,2419.4153,N,08143.0571,W,1,10,1.6,12,M,,M,,*60
06/06/2014	17:02:11.015	$GPGGA,170211,2419.4162,N,08143.0574,W,1,10,1.6,12,M,,M,,*66
06/06/2014	17:02:12.137	$GPGGA,170212,2419.4173,N,08143.0579,W,1,10,1.6,12,M,,M,,*68
06/06/2014	17:02:13.160	$GPGGA,170213,2419.4184,N,08143.0585,W,1,10,1.6,12,M,,M,,*62
06/06/2014	17:02:14.112	$GPGGA,170214,2419.4194,N,08143.0589,W,1,10,1.6,12,M,,M,,*68
06/06/2014	17:02:15.126	$GPGGA,170215,2419.4205,N,08143.0593,W,1,10,1.6,12,M,,M,,*69
06/06/2014	17:02:16.138	$GPGGA,170216,2419.4216,N,08143.0598,W,1,10,1.6,12,M,,M,,*63
06/06/2014	17:02:17.151	$GPGGA,170217,2419.4227,N,08143.0603,W,1,10,1.6,12,M,,M,,*61
06/06/2014	17:02:18.120	$GPGGA,170218,2419.4237,N,08143.0607,W,1,10,1.6,12,M,,M,,*6B
06/06/2014	17:02:19.136	$GPGGA,170219,2419.4247,N,08143.0612,W,1,10,1.6,12,M,,M,,*69
06/06/2014	17:02:20.135	$GPGGA,170220,2419.4259,N,08143.0616,W,1,10,1.6,12,M,,M,,*68
06/06/2014	17:02:21.161	$GPGGA,170221,2419.4270,N,08143.0621,W,1,10,1.6,12,M,,M,,*66
06/06/2014	17:02:22.146	$GPGGA,170222,2419.4280,N,08143.0626,W,1,10,1.6,12,M,,M,,*6D
06/06/2014	17:02:23.143	$GPGGA,170223,2419.4291,N,08143.0632,W,1,9,1.9,12,M,,M,,*5E
06/06/2014	17:02:24.156	$GPGGA,170224,2419.4302,N,08143.0634,W,1,9,1.6,12,M,,M,,*5B
06/06/2014	17:02:25.126	$GPGGA,170225,2419.4312,N,08143.0639,W,1,10,1.6,12,M,,M,,*6E
06/06/2014	17:02:26.124	$GPGGA,170226,2419.4323,N,08143.0643,W,1,10,1.6,12,M,,M,,*62
06/06/2014	17:02:27.147	$GPGGA,170227,2419.4332,N,08143.0647,W,1,9,1.9,12,M,,M,,*50
06/06/2014	17:02:28.142	$GPGGA,170228,2419.4343,N,08143.0650,W,1,9,1.6,12,M,,M,,*50
06/06/2014	17:02:29.147	$GPGGA,170229,2419.4353,N,08143.0654,W,1,10,1.6,12,M,,M,,*6C
06/06/2014	17:02:30.131	$GPGGA,170230,2419.4364,N,08143.0659,W,1,10,1.6,12,M,,M,,*6D
06/06/2014	17:02:31.124	$GPGGA,170231,2419.4375,N,08143.0663,W,1,9,1.9,12,M,,M,,*52
06/06/2014	17:02:32.142	$GPGGA,170232,2419.4386,N,08143.0668,W,1,9,1.6,12,M,,M,,*59
06/06/2014	17:02:33.139	$GPGGA,170233,2419.4397,N,08143.0672,W,1,10,1.6,12,M,,M,,*6B
06/06/2014	17:02:34.136	$GPGGA,170234,2419.4407,N,08143.0676,W,1,10,1.9,12,M,,M,,*69
06/06/2014	17:02:35.127	$GPGGA,170235,2419.4418,N,08143.0680,W,1,10,1.6,11,M,,M,,*63
06/06/2014	17:02:36.150	$GPGGA,170236,2419.4429,N,08143.0686,W,1,10,1.6,11,M,,M,,*64
06/06/2014	17:02:37.165	$GPGGA,170237,2419.4439,N,08143.0690,W,1,10,1.6,11,M,,M,,*63
06/06/2014	17:02:38.125	$GPGGA,170238,2419.4450,N,08143.0695,W,1,10,1.6,11,M,,M,,*66
06/06/2014	17:02:39.158	$GPGGA,170239,2419.4461,N,08143.0699,W,1,9,1.9,11,M,,M,,*5E
06/06/2014	17:02:40.151	$GPGGA,170240,2419.4472,N,08143.0704,W,1,9,1.6,11,M,,M,,*58
06/06/2014	17:02:41.168	$GPGGA,170241,2419.4483,N,08143.0709,W,1,10,1.6,11,M,,M,,*62
06/06/2014	17:02:42.125	$GPGGA,170242,2419.4494,N,08143.0715,W,1,10,1.6,11,M,,M,,*6A
06/06/2014	17:02:43.158	$GPGGA,170243,2419.4504,N,08143.0719,W,1,10,1.6,11,M,,M,,*6F
06/06/2014	17:02:44.142	$GPGGA,170244,2419.4515,N,08143.0723,W,1,10,1.9,11,M,,M,,*6E
06/06/2014	17:02:45.244	$GPGGA,170245,2419.4526,N,08143.0728,W,1,9,1.9,11,M,,M,,*5C
06/06/2014	17:02:46.126	$GPGGA,170246,2419.4536,N,08143.0733,W,1,9,1.9,11,M,,M,,*54
06/06/2014	17:02:47.147	$GPGGA,170247,2419.4547,N,08143.0735,W,1,10,1.6,10,M,,M,,*63
06/06/2014	17:02:48.151	$GPGGA,170248,2419.4556,N,08143.0741,W,1,10,1.6,10,M,,M,,*6F
06/06/2014	17:02:49.143	$GPGGA,170249,2419.4567,N,08143.0745,W,1,10,1.6,10,M,,M,,*68
06/06/2014	17:02:50.135	$GPGGA,170250,2419.4577,N,08143.0749,W,1,10,1.9,10,M,,M,,*62
06/06/2014	17:02:51.238	$GPGGA,170251,2419.4588,N,08143.0753,W,1,9,1.9,10,M,,M,,*50
06/06/2014	17:02:52.251	$GPGGA,170252,2419.4599,N,08143.0758,W,1,9,1.6,10,M,,M,,*57
06/06/2014	17:02:53.133	$GPGGA,170253,2419.4610,N,08143.0762,W,1,10,1.6,10,M,,M,,*65
06/06/2014	17:02:54.236	$GPGGA,170254,2419.4620,N,08143.0764,W,1,10,1.9,10,M,,M,,*68
06/06/2014	17:02:55.128	$GPGGA,170255,2419.4630,N,08143.0769,W,1,10,1.6,10,M,,M,,*6A
06/06/2014	17:02:56.151	$GPGGA,170256,2419.4639,N,08143.0771,W,1,10,1.6,10,M,,M,,*69
06/06/2014	17:02:57.143	$GPGGA,170257,2419.4650,N,08143.0775,W,1,10,1.6,10,M,,M,,*63
06/06/2014	17:02:58.226	$GPGGA,170258,2419.4660,N,08143.0778,W,1,10,1.6,10,M,,M,,*62
06/06/2014	17:02:59.269	$GPGGA,170259,2419.4671,N,08143.0784,W,1,10,1.6,10,M,,M,,*60
06/06/2014	17:03:00.251	$GPGGA,170300,2419.4684,N,08143.0788,W,1,10,1.9,10,M,,M,,*64
06/06/2014	17:03:01.274	$GPGGA,170301,2419.4695,N,08143.0793,W,1,9,1.9,10,M,,M,,*57
06/06/2014	17:03:02.235	$GPGGA,170302,2419.4706,N,08143.0798,W,1,9,1.9,10,M,,M,,*54
06/06/2014	17:03:03.278	$GPGGA,170303,2419.4717,N,08143.0802,W,1,10,1.6,10,M,,M,,*6E
06/06/2014	17:03:04.251	$GPGGA,170304,2419.4728,N,08143.0806,W,1,10,1.6,10,M,,M,,*61
06/06/2014	17:03:05.233	$GPGGA,170305,2419.4740,N,08143.0810,W,1,10,1.6,10,M,,M,,*69
06/06/2014	17:03:06.256	$GPGGA,170306,2419.4750,N,08143.0816,W,1,10,1.9,10,M,,M,,*62
06/06/2014	17:03:07.259	$GPGGA,170307,2419.4761,N,08143.0820,W,1,9,1.9,10,M,,M,,*5C
06/06/2014	17:03:08.251	$GPGGA,170308,2419.4772,N,08143.0824,W,1,9,1.9,10,M,,M,,*55
06/06/2014	17:03:09.264	$GPGGA,170309,2419.4783,N,08143.0827,W,1,10,1.6,10,M,,M,,*6E
06/06/2014	17:03:10.246	$GPGGA,170310,2419.4793,N,08143.0831,W,1,10,1.6,10,M,,M,,*60
06/06/2014	17:03:11.259	$GPGGA,170311,2419.4804,N,08143.0835,W,1,10,1.6,10,M,,M,,*64
06/06/2014	17:03:12.252	$GPGGA,170312,2419.4814,N,08143.0838,W,1,10,1.6,10,M,,M,,*6B
06/06/2014	17:03:13.254	$GPGGA,170313,2419.4823,N,08143.0842,W,1,10,1.6,10,M,,M,,*63
06/06/2014	17:03:14.247	$GPGGA,170314,2419.4834,N,08143.0845,W,1,10,1.6,10,M,,M,,*65
06/06/2014	17:03:15.230	$GPGGA,170315,2419.4845,N,08143.0849,W,1,9,1.9,10,M,,M,,*59
06/06/2014	17:03:16.269	$GPGGA,170316,2419.4854,N,08143.0852,W,1,9,1.6,9,M,,M,,*67
06/06/2014	17:03:17.265	$GPGGA,170317,2419.4863,N,08143.0853,W,1,10,1.6,9,M,,M,,*5B
06/06/2014	17:03:18.239	$GPGGA,170318,2419.4874,N,08143.0856,W,1,10,1.6,9,M,,M,,*57
06/06/2014	17:03:19.240	$GPGGA,170319,2419.4883,N,08143.0860,W,1,10,1.6,9,M,,M,,*5B
06/06/2014	17:03:20.241	$GPGGA,170320,2419.4894,N,08143.0863,W,1,10,1.6,9,M,,M,,*54
06/06/2014	17:03:21.270	$GPGGA,170321,2419.4903,N,08143.0867,W,1,9,1.9,9,M,,M,,*69
06/06/2014	17:03:22.249	$GPGGA,170322,2419.4913,N,08143.0871,W,1,9,1.9,9,M,,M,,*6C
06/06/2014	17:03:23.273	$GPGGA,170323,2419.4921,N,08143.0872,W,1,9,1.9,9,M,,M,,*6F
06/06/2014	17:03:24.272	$GPGGA,170324,2419.4931,N,08143.0874,W,1,9,1.6,9,M,,M,,*60
06/06/2014	17:03:25.268	$GPGGA,170325,2419.4939,N,08143.0878,W,1,10,1.6,9,M,,M,,*5D
06/06/2014	17:03:26.247	$GPGGA,170326,2419.4948,N,08143.0881,W,1,10,1.6,10,M,,M,,*66
06/06/2014	17:03:27.363	$GPGGA,170327,2419.4957,N,08143.0882,W,1,10,1.6,10,M,,M,,*6A
06/06/2014	17:03:28.252	$GPGGA,170328,2419.4967,N,08143.0885,W,1,10,1.6,10,M,,M,,*61
06/06/2014	17:03:29.268	$GPGGA,170329,2419.4975,N,08143.0889,W,1,10,1.6,10,M,,M,,*6F
06/06/2014	17:03:30.347	$GPGGA,170330,2419.4984,N,08143.0892,W,1,10,1.6,10,M,,M,,*63
06/06/2014	17:03:31.240	$GPGGA,170331,2419.4993,N,08143.0894,W,1,10,1.6,10,M,,M,,*62
06/06/2014	17:03:32.288	$GPGGA,170332,2419.5003,N,08143.0897,W,1,10,1.6,10,M,,M,,*63
06/06/2014	17:03:33.265	$GPGGA,170333,2419.5011,N,08143.0901,W,1,10,1.6,10,M,,M,,*6F
06/06/2014	17:03:34.248	$GPGGA,170334,2419.5021,N,08143.0903,W,1,10,1.6,10,M,,M,,*69
06/06/2014	17:03:35.270	$GPGGA,170335,2419.5029,N,08143.0907,W,1,10,1.5,11,M,,M,,*66
06/06/2014	17:03:36.272	$GPGGA,170336,2419.5039,N,08143.0911,W,1,10,1.5,11,M,,M,,*63
06/06/2014	17:03:37.244	$GPGGA,170337,2419.5049,N,08143.0915,W,1,9,1.9,11,M,,M,,*55
06/06/2014	17:03:38.337	$GPGGA,170338,2419.5058,N,08143.0919,W,1,9,1.9,11,M,,M,,*56
06/06/2014	17:03:39.360	$GPGGA,170339,2419.5067,N,08143.0922,W,1,9,1.9,11,M,,M,,*53
06/06/2014	17:03:40.383	$GPGGA,170340,2419.5076,N,08143.0926,W,1,9,1.9,11,M,,M,,*59
06/06/2014	17:03:41.245	$GPGGA,170341,2419.5085,N,08143.0930,W,1,9,1.9,11,M,,M,,*53
06/06/2014	17:03:42.358	$GPGGA,170342,2419.5094,N,08143.0933,W,1,9,1.9,11,M,,M,,*53
06/06/2014	17:03:43.380	$GPGGA,170343,2419.5103,N,08143.0936,W,1,9,1.9,10,M,,M,,*59
06/06/2014	17:03:44.373	$GPGGA,170344,2419.5112,N,08143.0939,W,1,9,1.9,10,M,,M,,*51
06/06/2014	17:03:45.375	$GPGGA,170345,2419.5119,N,08143.0943,W,1,9,1.9,10,M,,M,,*56
06/06/2014	17:03:46.348	$GPGGA,170346,2419.5127,N,08143.0944,W,1,9,1.9,10,M,,M,,*5F
06/06/2014	17:03:47.401	$GPGGA,170347,2419.5136,N,08143.0947,W,1,9,1.9,10,M,,M,,*5D
06/06/2014	17:03:48.363	$GPGGA,170348,2419.5143,N,08143.0950,W,1,9,1.9,10,M,,M,,*56
06/06/2014	17:03:49.396	$GPGGA,170349,2419.5151,N,08143.0951,W,1,9,1.9,10,M,,M,,*55
06/06/2014	17:03:50.358	$GPGGA,170350,2419.5159,N,08143.0951,W,1,9,1.9,10,M,,M,,*55
06/06/2014	17:03:51.371	$GPGGA,170351,2419.5166,N,08143.0954,W,1,9,1.9,10,M,,M,,*5D
06/06/2014	17:03:52.374	$GPGGA,170352,2419.5173,N,08143.0955,W,1,9,1.9,9,M,,M,,*63
06/06/2014	17:03:53.386	$GPGGA,170353,2419.5180,N,08143.0957,W,1,9,1.8,9,M,,M,,*6D
06/06/2014	17:03:54.353	$GPGGA,170354,2419.5188,N,08143.0956,W,1,9,1.8,9,M,,M,,*63
06/06/2014	17:03:55.370	$GPGGA,170355,2419.5194,N,08143.0957,W,1,9,1.8,9,M,,M,,*6E
06/06/2014	17:03:56.363	$GPGGA,170356,2419.5201,N,08143.0958,W,1,9,1.8,9,M,,M,,*6D
06/06/2014	17:03:57.366	$GPGGA,170357,2419.5206,N,08143.0958,W,1,9,1.8,9,M,,M,,*6B
06/06/2014	17:03:58.359	$GPGGA,170358,2419.5213,N,08143.0958,W,1,9,1.8,9,M,,M,,*60
06/06/2014	17:03:59.371	$GPGGA,170359,2419.5219,N,08143.0958,W,1,9,1.8,9,M,,M,,*6B
06/06/2014	17:04:00.363	$GPGGA,170400,2419.5224,N,08143.0958,W,1,9,1.8,9,M,,M,,*6E
06/06/2014	17:04:01.386	$GPGGA,170401,2419.5231,N,08143.0958,W,1,9,1.8,8,M,,M,,*6A
06/06/2014	17:04:02.367	$GPGGA,170402,2419.5237,N,08143.0957,W,1,9,1.8,8,M,,M,,*60
06/06/2014	17:04:03.341	$GPGGA,170403,2419.5242,N,08143.0957,W,1,9,1.8,8,M,,M,,*63
06/06/2014	17:04:04.358	$GPGGA,170404,2419.5248,N,08143.0956,W,1,9,1.8,8,M,,M,,*6F
06/06/2014	17:04:05.346	$GPGGA,170405,2419.5253,N,08143.0955,W,1,9,1.8,8,M,,M,,*67
06/06/2014	17:04:06.360	$GPGGA,170406,2419.5259,N,08143.0953,W,1,9,1.8,8,M,,M,,*68
06/06/2014	17:04:07.392	$GPGGA,170407,2419.5264,N,08143.0954,W,1,9,1.8,8,M,,M,,*60
06/06/2014	17:04:08.390	$GPGGA,170408,2419.5268,N,08143.0952,W,1,9,1.8,8,M,,M,,*65
06/06/2014	17:04:09.347	$GPGGA,170409,2419.5274,N,08143.0949,W,1,9,1.8,8,M,,M,,*63
06/06/2014	17:04:10.360	$GPGGA,170410,2419.5278,N,08143.0948,W,1,9,1.8,8,M,,M,,*66
06/06/2014	17:04:11.351	$GPGGA,170411,2419.5282,N,08143.0947,W,1,9,1.8,8,M,,M,,*6D
06/06/2014	17:04:12.363	$GPGGA,170412,2419.5289,N,08143.0944,W,1,9,1.8,8,M,,M,,*66
06/06/2014	17:04:13.476	$GPGGA,170413,2419.5293,N,08143.0942,W,1,9,1.8,8,M,,M,,*6A
06/06/2014	17:04:14.359	$GPGGA,170414,2419.5298,N,08143.0941,W,1,9,1.8,8,M,,M,,*65
06/06/2014	17:04:15.483	$GPGGA,170415,2419.5302,N,08143.0939,W,1,9,1.8,7,M,,M,,*66
06/06/2014	17:04:16.374	$GPGGA,170416,2419.5307,N,08143.0937,W,1,9,1.8,7,M,,M,,*6E
06/06/2014	17:04:17.376	$GPGGA,170417,2419.5311,N,08143.0935,W,1,9,1.8,7,M,,M,,*6A
06/06/2014	17:04:18.359	$GPGGA,170418,2419.5316,N,08143.0934,W,1,9,1.5,7,M,,M,,*6E
06/06/2014	17:04:19.372	$GPGGA,170419,2419.5321,N,08143.0932,W,1,10,1.5,7,M,,M,,*55
06/06/2014	17:04:20.485	$GPGGA,170420,2419.5325,N,08143.0931,W,1,10,1.5,7,M,,M,,*58
06/06/2014	17:04:21.487	$GPGGA,170421,2419.5331,N,08143.0932,W,1,10,1.8,7,M,,M,,*52
06/06/2014	17:04:22.369	$GPGGA,170422,2419.5336,N,08143.0931,W,1,10,1.8,7,M,,M,,*55
06/06/2014	17:04:23.482	$GPGGA,170423,2419.5342,N,08143.0930,W,1,9,1.5,8,M,,M,,*6C
06/06/2014	17:04:24.375	$GPGGA,170424,2419.5346,N,08143.0930,W,1,9,1.5,8,M,,M,,*6F
06/06/2014	17:04:25.368	$GPGGA,170425,2419.5350,N,08143.0930,W,1,10,1.5,8,M,,M,,*51
06/06/2014	17:04:26.460	$GPGGA,170426,2419.5357,N,08143.0929,W,1,10,1.5,8,M,,M,,*5D
06/06/2014	17:04:27.474	$GPGGA,170427,2419.5361,N,08143.0932,W,1,10,1.5,8,M,,M,,*53
06/06/2014	17:04:28.485	$GPGGA,170428,2419.5367,N,08143.0932,W,1,10,1.5,8,M,,M,,*5A
06/06/2014	17:04:29.507	$GPGGA,170429,2419.5372,N,08143.0933,W,1,10,1.5,8,M,,M,,*5E
06/06/2014	17:04:30.459	$GPGGA,170430,2419.5378,N,08143.0934,W,1,10,1.5,8,M,,M,,*5B
06/06/2014	17:04:31.482	$GPGGA,170431,2419.5382,N,08143.0936,W,1,10,1.5,8,M,,M,,*5D
06/06/2014	17:04:32.475	$GPGGA,170432,2419.5387,N,08143.0936,W,1,10,1.5,8,M,,M,,*5B
06/06/2014	17:04:33.487	$GPGGA,170433,2419.5392,N,08143.0936,W,1,10,1.5,9,M,,M,,*5F
06/06/2014	17:04:34.470	$GPGGA,170434,2419.5394,N,08143.0937,W,1,10,1.5,9,M,,M,,*5F
06/06/2014	17:04:35.462	$GPGGA,170435,2419.5400,N,08143.0939,W,1,10,1.5,9,M,,M,,*5A
06/06/2014	17:04:36.485	$GPGGA,170436,2419.5404,N,08143.0938,W,1,10,1.5,9,M,,M,,*5C
06/06/2014	17:04:37.488	$GPGGA,170437,2419.5407,N,08143.0939,W,1,10,1.5,9,M,,M,,*5F
06/06/2014	17:04:38.460	$GPGGA,170438,2419.5411,N,08143.0939,W,1,10,1.5,9,M,,M,,*57
06/06/2014	17:04:39.483	$GPGGA,170439,2419.5415,N,08143.0939,W,1,10,1.5,9,M,,M,,*52
06/06/2014	17:04:40.485	$GPGGA,170440,2419.5419,N,08143.0939,W,1,10,1.8,9,M,,M,,*5D
06/06/2014	17:04:41.464	$GPGGA,170441,2419.5422,N,08143.0940,W,1,9,1.8,9,M,,M,,*62
06/06/2014	17:04:42.474	$GPGGA,170442,2419.5426,N,08143.0941,W,1,9,1.5,9,M,,M,,*69
06/06/2014	17:04:43.469	$GPGGA,170443,2419.5430,N,08143.0940,W,1,10,1.8,9,M,,M,,*5B
06/06/2014	17:04:44.486	$GPGGA,170444,2419.5433,N,08143.0940,W,1,10,2.0,9,M,,M,,*54
06/06/2014	17:04:45.479	$GPGGA,170445,2419.5437,N,08143.0937,W,1,8,1.8,9,M,,M,,*63
06/06/2014	17:04:46.478	$GPGGA,170446,2419.5440,N,08143.0936,W,1,8,2.0,9,M,,M,,*6A
06/06/2014	17:04:47.483	$GPGGA,170447,2419.5443,N,08143.0936,W,1,8,2.0,9,M,,M,,*68
06/06/2014	17:04:48.495	$GPGGA,170448,2419.5445,N,08143.0935,W,1,8,1.8,9,M,,M,,*69
06/06/2014	17:04:49.491	$GPGGA,170449,2419.5448,N,08143.0934,W,1,9,1.8,9,M,,M,,*65
06/06/2014	17:04:50.473	$GPGGA,170450,2419.5452,N,08143.0934,W,1,9,2.0,9,M,,M,,*6D
06/06/2014	17:04:51.490	$GPGGA,170451,2419.5455,N,08143.0932,W,1,8,1.8,9,M,,M,,*67
06/06/2014	17:04:52.486	$GPGGA,170452,2419.5458,N,08143.0931,W,1,8,1.8,9,M,,M,,*6A
06/06/2014	17:04:53.493	$GPGGA,170453,2419.5461,N,08143.0929,W,1,9,1.8,9,M,,M,,*69
06/06/2014	17:04:54.461	$GPGGA,170454,2419.5463,N,08143.0926,W,1,9,1.8,9,M,,M,,*63
06/06/2014	17:04:55.473	$GPGGA,170455,2419.5466,N,08143.0925,W,1,9,1.8,9,M,,M,,*64
06/06/2014	17:04:56.488	$GPGGA,170456,2419.5469,N,08143.0923,W,1,9,1.8,9,M,,M,,*6E
06/06/2014	17:04:57.504	$GPGGA,170457,2419.5472,N,08143.0922,W,1,9,1.8,9,M,,M,,*64
06/06/2014	17:04:58.481	$GPGGA,170458,2419.5476,N,08143.0921,W,1,9,1.8,9,M,,M,,*6C
06/06/2014	17:04:59.604	$GPGGA,170459,2419.5477,N,08143.0921,W,1,9,2.0,9,M,,M,,*67
06/06/2014	17:05:00.516	$GPGGA,170500,2419.5480,N,08143.0920,W,1,9,1.8,9,M,,M,,*68
06/06/2014	17:05:01.528	$GPGGA,170501,2419.5484,N,08143.0921,W,1,9,1.8,9,M,,M,,*6C
06/06/2014	17:05:02.481	$GPGGA,170502,2419.5487,N,08143.0919,W,1,9,1.8,9,M,,M,,*67
06/06/2014	17:05:03.504	$GPGGA,170503,2419.5490,N,08143.0919,W,1,9,1.8,9,M,,M,,*60
06/06/2014	17:05:04.476	$GPGGA,170504,2419.5492,N,08143.0918,W,1,9,1.8,9,M,,M,,*64
06/06/2014	17:05:05.489	$GPGGA,170505,2419.5497,N,08143.0918,W,1,9,1.8,9,M,,M,,*60
06/06/2014	17:05:06.571	$GPGGA,170506,2419.5501,N,08143.0919,W,1,9,1.8,9,M,,M,,*6C
06/06/2014	17:05:07.607	$GPGGA,170507,2419.5504,N,08143.0919,W,1,8,2.0,9,M,,M,,*62
06/06/2014	17:05:08.506	$GPGGA,170508,2419.5506,N,08143.0919,W,1,8,1.8,9,M,,M,,*64
06/06/2014	17:05:09.569	$GPGGA,170509,2419.5510,N,08143.0921,W,1,9,1.8,9,M,,M,,*68
06/06/2014	17:05:10.481	$GPGGA,170510,2419.5515,N,08143.0920,W,1,9,1.8,9,M,,M,,*64
06/06/2014	17:05:11.604	$GPGGA,170511,2419.5519,N,08143.0921,W,1,9,1.8,9,M,,M,,*68
06/06/2014	17:05:12.516	$GPGGA,170512,2419.5523,N,08143.0921,W,1,9,1.8,9,M,,M,,*62
06/06/2014	17:05:13.489	$GPGGA,170513,2419.5526,N,08143.0922,W,1,9,1.8,9,M,,M,,*65
06/06/2014	17:05:14.572	$GPGGA,170514,2419.5530,N,08143.0923,W,1,9,1.8,9,M,,M,,*64
06/06/2014	17:05:15.594	$GPGGA,170515,2419.5534,N,08143.0925,W,1,9,1.8,9,M,,M,,*67
06/06/2014	17:05:16.587	$GPGGA,170516,2419.5535,N,08143.0925,W,1,9,1.8,9,M,,M,,*65
06/06/2014	17:05:17.570	$GPGGA,170517,2419.5540,N,08143.0928,W,1,9,1.8,9,M,,M,,*6B
06/06/2014	17:05:18.582	$GPGGA,170518,2419.5542,N,08143.0926,W,1,9,1.8,9,M,,M,,*68
06/06/2014	17:05:19.605	$GPGGA,170519,2419.5545,N,08143.0926,W,1,10,1.5,9,M,,M,,*5B
06/06/2014	17:05:20.587	$GPGGA,170520,2419.5548,N,08143.0928,W,1,10,1.5,9,M,,M,,*52
06/06/2014	17:05:21.599	$GPGGA,170521,2419.5551,N,08143.0927,W,1,10,1.5,9,M,,M,,*54
06/06/2014	17:05:22.592	$GPGGA,170522,2419.5553,N,08143.0928,W,1,10,1.5,9,M,,M,,*5A
06/06/2014	17:05:23.604	$GPGGA,170523,2419.5556,N,08143.0929,W,1,10,1.5,9,M,,M,,*5F
06/06/2014	17:05:24.597	$GPGGA,170524,2419.5560,N,08143.0930,W,1,10,1.5,10,M,,M,,*6D
06/06/2014	17:05:25.599	$GPGGA,170525,2419.5563,N,08143.0932,W,1,10,1.5,10,M,,M,,*6D
06/06/2014	17:05:26.579	$GPGGA,170526,2419.5566,N,08143.0933,W,1,10,1.5,10,M,,M,,*6A
06/06/2014	17:05:27.595	$GPGGA,170527,2419.5569,N,08143.0934,W,1,10,1.6,10,M,,M,,*60
06/06/2014	17:05:28.597	$GPGGA,170528,2419.5571,N,08143.0936,W,1,10,1.6,10,M,,M,,*64
06/06/2014	17:05:29.610	$GPGGA,170529,2419.5574,N,08143.0936,W,1,10,1.5,10,M,,M,,*63
06/06/2014	17:05:30.573	$GPGGA,170530,2419.5578,N,08143.0937,W,1,10,1.5,10,M,,M,,*66
06/06/2014	17:05:31.615	$GPGGA,170531,2419.5581,N,08143.0939,W,1,10,1.5,10,M,,M,,*6F
06/06/2014	17:05:32.597	$GPGGA,170532,2419.5582,N,08143.0940,W,1,10,1.5,10,M,,M,,*61
06/06/2014	17:05:33.620	$GPGGA,170533,2419.5585,N,08143.0941,W,1,10,1.5,10,M,,M,,*66
06/06/2014	17:05:34.597	$GPGGA,170534,2419.5588,N,08143.0943,W,1,10,1.5,10,M,,M,,*6E
06/06/2014	17:05:35.625	$GPGGA,170535,2419.5589,N,08143.0943,W,1,9,1.6,10,M,,M,,*55
06/06/2014	17:05:36.606	$GPGGA,170536,2419.5592,N,08143.0944,W,1,9,1.6,10,M,,M,,*5B
06/06/2014	17:05:37.621	$GPGGA,170537,2419.5593,N,08143.0944,W,1,10,1.5,10,M,,M,,*60
06/06/2014	17:05:38.584	$GPGGA,170538,2419.5596,N,08143.0944,W,1,10,1.5,10,M,,M,,*6A
06/06/2014	17:05:39.585	$GPGGA,170539,2419.5599,N,08143.0946,W,1,10,1.5,10,M,,M,,*66
06/06/2014	17:05:40.617	$GPGGA,170540,2419.5600,N,08143.0945,W,1,10,1.5,10,M,,M,,*68
06/06/2014	17:05:41.700	$GPGGA,170541,2419.5603,N,08143.0946,W,1,10,1.5,10,M,,M,,*69
06/06/2014	17:05:42.602	$GPGGA,170542,2419.5606,N,08143.0945,W,1,10,1.5,10,M,,M,,*6C
06/06/2014	17:05:43.605	$GPGGA,170543,2419.5607,N,08143.0947,W,1,10,1.5,10,M,,M,,*6E
06/06/2014	17:05:44.598	$GPGGA,170544,2419.5609,N,08143.0947,W,1,10,1.5,10,M,,M,,*67
06/06/2014	17:05:45.701	$GPGGA,170545,2419.5611,N,08143.0947,W,1,9,1.6,10,M,,M,,*54
06/06/2014	17:05:46.593	$GPGGA,170546,2419.5613,N,08143.0947,W,1,9,1.5,10,M,,M,,*56
06/06/2014	17:05:47.585	$GPGGA,170547,2419.5614,N,08143.0947,W,1,10,1.5,10,M,,M,,*68
06/06/2014	17:05:48.598	$GPGGA,170548,2419.5617,N,08143.0946,W,1,10,1.5,10,M,,M,,*65
06/06/2014	17:05:49.701	$GPGGA,170549,2419.5618,N,08143.0947,W,1,10,1.5,10,M,,M,,*6A
06/06/2014	17:05:50.603	$GPGGA,170550,2419.5620,N,08143.0948,W,1,10,1.5,10,M,,M,,*66
06/06/2014	17:05:51.728	$GPGGA,170551,2419.5621,N,08143.0947,W,1,9,1.6,10,M,,M,,*52
06/06/2014	17:05:52.608	$GPGGA,170552,2419.5622,N,08143.0947,W,1,9,1.5,10,M,,M,,*51
06/06/2014	17:05:53.591	$GPGGA,170553,2419.5625,N,08143.0947,W,1,10,1.5,10,M,,M,,*6F
06/06/2014	17:05:54.695	$GPGGA,170554,2419.5625,N,08143.0946,W,1,10,1.5,10,M,,M,,*69
06/06/2014	17:05:55.706	$GPGGA,170555,2419.5627,N,08143.0947,W,1,10,1.5,10,M,,M,,*6B
06/06/2014	17:05:56.608	$GPGGA,170556,2419.5626,N,08143.0948,W,1,10,1.5,10,M,,M,,*66
06/06/2014	17:05:57.691	$GPGGA,170557,2419.5629,N,08143.0947,W,1,9,1.6,10,M,,M,,*5C
06/06/2014	17:05:58.693	$GPGGA,170558,2419.5629,N,08143.0948,W,1,9,1.5,10,M,,M,,*5F
06/06/2014	17:05:59.696	$GPGGA,170559,2419.5629,N,08143.0950,W,1,10,1.5,11,M,,M,,*6E
06/06/2014	17:06:00.718	$GPGGA,170600,2419.5629,N,08143.0949,W,1,10,1.5,11,M,,M,,*69
06/06/2014	17:06:01.691	$GPGGA,170601,2419.5632,N,08143.0950,W,1,10,1.5,11,M,,M,,*6A
06/06/2014	17:06:02.704	$GPGGA,170602,2419.5632,N,08143.0949,W,1,10,1.5,11,M,,M,,*61
06/06/2014	17:06:03.716	$GPGGA,170603,2419.5634,N,08143.0950,W,1,10,1.5,11,M,,M,,*6E
06/06/2014	17:06:04.709	$GPGGA,170604,2419.5635,N,08143.0950,W,1,10,1.5,11,M,,M,,*68
06/06/2014	17:06:05.701	$GPGGA,170605,2419.5636,N,08143.0951,W,1,10,1.5,11,M,,M,,*6B
06/06/2014	17:06:06.704	$GPGGA,170606,2419.5636,N,08143.0952,W,1,10,1.5,11,M,,M,,*6B
06/06/2014	17:06:07.690	$GPGGA,170607,2419.5636,N,08143.0952,W,1,10,1.5,11,M,,M,,*6A
06/06/2014	17:06:08.709	$GPGGA,170608,2419.5639,N,08143.0954,W,1,10,1.5,11,M,,M,,*6C
06/06/2014	17:06:09.712	$GPGGA,170609,2419.5639,N,08143.0953,W,1,10,1.5,11,M,,M,,*6A
06/06/2014	17:06:10.704	$GPGGA,170610,2419.5639,N,08143.0954,W,1,10,1.5,11,M,,M,,*65
06/06/2014	17:06:11.707	$GPGGA,170611,2419.5640,N,08143.0957,W,1,10,1.5,11,M,,M,,*69
06/06/2014	17:06:12.720	$GPGGA,170612,2419.5642,N,08143.0957,W,1,10,1.5,11,M,,M,,*68
06/06/2014	17:06:13.696	$GPGGA,170613,2419.5643,N,08143.0958,W,1,10,1.5,11,M,,M,,*67
06/06/2014	17:06:14.714	$GPGGA,170614,2419.5643,N,08143.0961,W,1,10,1.5,11,M,,M,,*6A
06/06/2014	17:06:15.736	$GPGGA,170615,2419.5645,N,08143.0961,W,1,10,1.5,11,M,,M,,*6D
06/06/2014	17:06:16.719	$GPGGA,170616,2419.5646,N,08143.0964,W,1,10,1.5,11,M,,M,,*68
06/06/2014	17:06:17.704	$GPGGA,170617,2419.5647,N,08143.0965,W,1,10,1.5,11,M,,M,,*69
06/06/2014	17:06:18.714	$GPGGA,170618,2419.5649,N,08143.0966,W,1,10,1.5,11,M,,M,,*6B
06/06/2014	17:06:19.737	$GPGGA,170619,2419.5650,N,08143.0968,W,1,10,1.5,11,M,,M,,*6C
06/06/2014	17:06:20.717	$GPGGA,170620,2419.5650,N,08143.0969,W,1,10,1.5,11,M,,M,,*67
06/06/2014	17:06:21.742	$GPGGA,170621,2419.5653,N,08143.0972,W,1,10,1.5,11,M,,M,,*6F
06/06/2014	17:06:22.694	$GPGGA,170622,2419.5654,N,08143.0972,W,1,10,1.5,11,M,,M,,*6B
06/06/2014	17:06:23.697	$GPGGA,170623,2419.5654,N,08143.0975,W,1,10,1.5,11,M,,M,,*6D
06/06/2014	17:06:24.730	$GPGGA,170624,2419.5656,N,08143.0979,W,1,10,1.6,11,M,,M,,*67
06/06/2014	17:06:25.724	$GPGGA,170625,2419.5658,N,08143.0980,W,1,9,1.6,11,M,,M,,*56
06/06/2014	17:06:26.706	$GPGGA,170626,2419.5660,N,08143.0982,W,1,9,1.5,11,M,,M,,*5F
06/06/2014	17:06:27.822	$GPGGA,170627,2419.5661,N,08143.0983,W,1,10,1.5,11,M,,M,,*66
06/06/2014	17:06:28.722	$GPGGA,170628,2419.5664,N,08143.0986,W,1,10,1.5,11,M,,M,,*69
06/06/2014	17:06:29.704	$GPGGA,170629,2419.5663,N,08143.0988,W,1,10,1.5,11,M,,M,,*61
06/06/2014	17:06:30.716	$GPGGA,170630,2419.5665,N,08143.0991,W,1,10,1.6,11,M,,M,,*64
06/06/2014	17:06:31.841	$GPGGA,170631,2419.5668,N,08143.0993,W,1,10,1.5,11,M,,M,,*69
06/06/2014	17:06:32.734	$GPGGA,170632,2419.5669,N,08143.0994,W,1,10,1.5,11,M,,M,,*6C
06/06/2014	17:06:33.834	$GPGGA,170633,2419.5672,N,08143.0997,W,1,10,1.5,11,M,,M,,*64
06/06/2014	17:06:34.705	$GPGGA,170634,2419.5674,N,08143.0998,W,1,10,1.5,11,M,,M,,*6A
06/06/2014	17:06:35.718	$GPGGA,170635,2419.5676,N,08143.0999,W,1,10,1.5,11,M,,M,,*68
06/06/2014	17:06:36.730	$GPGGA,170636,2419.5678,N,08143.1001,W,1,10,1.5,11,M,,M,,*6C
06/06/2014	17:06:37.803	$GPGGA,170637,2419.5679,N,08143.1004,W,1,10,1.5,11,M,,M,,*69
06/06/2014	17:06:38.795	$GPGGA,170638,2419.5682,N,08143.1005,W,1,10,1.5,11,M,,M,,*63
06/06/2014	17:06:39.809	$GPGGA,170639,2419.5683,N,08143.1008,W,1,10,1.5,11,M,,M,,*6E
06/06/2014	17:06:40.820	$GPGGA,170640,2419.5686,N,08143.1009,W,1,10,1.5,11,M,,M,,*64
06/06/2014	17:06:41.713	$GPGGA,170641,2419.5687,N,08143.1012,W,1,10,1.5,11,M,,M,,*6E
06/06/2014	17:06:42.806	$GPGGA,170642,2419.5690,N,08143.1015,W,1,10,1.5,11,M,,M,,*6C
06/06/2014	17:06:43.818	$GPGGA,170643,2419.5692,N,08143.1016,W,1,10,1.5,11,M,,M,,*6C
06/06/2014	17:06:44.821	$GPGGA,170644,2419.5694,N,08143.1019,W,1,10,1.5,11,M,,M,,*62
06/06/2014	17:06:45.833	$GPGGA,170645,2419.5696,N,08143.1020,W,1,10,1.5,11,M,,M,,*6B
06/06/2014	17:06:46.806	$GPGGA,170646,2419.5699,N,08143.1023,W,1,10,1.5,11,M,,M,,*64
06/06/2014	17:06:47.839	$GPGGA,170647,2419.5701,N,08143.1026,W,1,10,1.5,11,M,,M,,*60
06/06/2014	17:06:48.831	$GPGGA,170648,2419.5703,N,08143.1029,W,1,10,1.5,11,M,,M,,*62
06/06/2014	17:06:49.823	$GPGGA,170649,2419.5705,N,08143.1030,W,1,10,1.5,11,M,,M,,*6D
06/06/2014	17:06:50.815	$GPGGA,170650,2419.5708,N,08143.1033,W,1,10,1.5,11,M,,M,,*6B
06/06/2014	17:06:51.819	$GPGGA,170651,2419.5711,N,08143.1035,W,1,10,1.5,11,M,,M,,*64
06/06/2014	17:06:52.831	$GPGGA,170652,2419.5712,N,08143.1037,W,1,10,1.5,11,M,,M,,*66
06/06/2014	17:06:53.853	$GPGGA,170653,2419.5715,N,08143.1040,W,1,10,1.5,11,M,,M,,*60
06/06/2014	17:06:54.801	$GPGGA,170654,2419.5718,N,08143.1042,W,1,10,1.6,11,M,,M,,*6B
06/06/2014	17:06:55.807	$GPGGA,170655,2419.5719,N,08143.1044,W,1,9,1.6,11,M,,M,,*55
06/06/2014	17:06:56.821	$GPGGA,170656,2419.5723,N,08143.1046,W,1,9,1.5,11,M,,M,,*5E
06/06/2014	17:06:57.809	$GPGGA,170657,2419.5726,N,08143.1048,W,1,10,1.5,11,M,,M,,*6C
06/06/2014	17:06:58.816	$GPGGA,170658,2419.5729,N,08143.1049,W,1,10,1.5,11,M,,M,,*6D
06/06/2014	17:06:59.839	$GPGGA,170659,2419.5730,N,08143.1051,W,1,10,1.5,11,M,,M,,*6D
06/06/2014	17:07:00.821	$GPGGA,170700,2419.5733,N,08143.1055,W,1,10,1.5,11,M,,M,,*67
06/06/2014	17:07:01.805	$GPGGA,170701,2419.5737,N,08143.1056,W,1,10,1.5,11,M,,M,,*61
06/06/2014	17:07:02.818	$GPGGA,170702,2419.5739,N,08143.1058,W,1,10,1.5,11,M,,M,,*62
06/06/2014	17:07:03.839	$GPGGA,170703,2419.5741,N,08143.1059,W,1,10,1.5,11,M,,M,,*6D
06/06/2014	17:07:04.832	$GPGGA,170704,2419.5744,N,08143.1062,W,1,10,1.5,11,M,,M,,*67
06/06/2014	17:07:05.844	$GPGGA,170705,2419.5747,N,08143.1063,W,1,10,1.5,11,M,,M,,*64
06/06/2014	17:07:06.829	$GPGGA,170706,2419.5750,N,08143.1066,W,1,10,1.5,11,M,,M,,*64
06/06/2014	17:07:07.808	$GPGGA,170707,2419.5752,N,08143.1067,W,1,10,1.5,11,M,,M,,*66
06/06/2014	17:07:08.841	$GPGGA,170708,2419.5755,N,08143.1069,W,1,10,1.5,11,M,,M,,*60
06/06/2014	17:07:09.844	$GPGGA,170709,2419.5759,N,08143.1071,W,1,10,1.5,11,M,,M,,*64
06/06/2014	17:07:10.816	$GPGGA,170710,2419.5762,N,08143.1073,W,1,10,1.5,11,M,,M,,*66
06/06/2014	17:07:11.989	$GPGGA,170711,2419.5766,N,08143.1074,W,1,10,1.5,11,M,,M,,*64
06/06/2014	17:07:12.822	$GPGGA,170712,2419.5768,N,08143.1077,W,1,10,1.5,11,M,,M,,*6A
06/06/2014	17:07:13.849	$GPGGA,170713,2419.5770,N,08143.1078,W,1,10,1.5,11,M,,M,,*6D
06/06/2014	17:07:14.817	$GPGGA,170714,2419.5773,N,08143.1080,W,1,10,1.5,11,M,,M,,*6E
06/06/2014	17:07:15.819	$GPGGA,170715,2419.5776,N,08143.1082,W,1,10,1.5,11,M,,M,,*68
06/06/2014	17:07:16.972	$GPGGA,170716,2419.5779,N,08143.1085,W,1,10,1.6,11,M,,M,,*60
06/06/2014	17:07:18.015	$GPGGA,170717,2419.5781,N,08143.1087,W,1,10,1.8,11,M,,M,,*6A
06/06/2014	17:07:18.827	$GPGGA,170718,2419.5786,N,08143.1089,W,1,10,1.8,11,M,,M,,*6C
06/06/2014	17:07:19.820	$GPGGA,170719,2419.5788,N,08143.1091,W,1,9,1.8,10,M,,M,,*53
06/06/2014	17:07:20.843	$GPGGA,170720,2419.5791,N,08143.1095,W,1,9,1.8,10,M,,M,,*55
06/06/2014	17:07:21.848	$GPGGA,170721,2419.5795,N,08143.1096,W,1,9,1.8,10,M,,M,,*53
06/06/2014	17:07:22.909	$GPGGA,170722,2419.5799,N,08143.1098,W,1,9,2.0,10,M,,M,,*59
06/06/2014	17:07:23.820	$GPGGA,170723,2419.5802,N,08143.1099,W,1,9,1.8,10,M,,M,,*5F
06/06/2014	17:07:24.932	$GPGGA,170724,2419.5806,N,08143.1100,W,1,9,1.8,10,M,,M,,*5D
06/06/2014	17:07:25.824	$GPGGA,170725,2419.5811,N,08143.1102,W,1,9,1.8,10,M,,M,,*58
06/06/2014	17:07:26.917	$GPGGA,170726,2419.5815,N,08143.1102,W,1,9,1.8,10,M,,M,,*5F
06/06/2014	17:07:28.010	$GPGGA,170727,2419.5817,N,08143.1103,W,1,9,1.8,10,M,,M,,*5D
06/06/2014	17:07:28.832	$GPGGA,170728,2419.5822,N,08143.1105,W,1,9,1.8,10,M,,M,,*52
06/06/2014	17:07:30.015	$GPGGA,170729,2419.5826,N,08143.1105,W,1,9,1.8,10,M,,M,,*57
06/06/2014	17:07:30.917	$GPGGA,170730,2419.5830,N,08143.1106,W,1,9,1.8,10,M,,M,,*5B
06/06/2014	17:07:31.920	$GPGGA,170731,2419.5834,N,08143.1107,W,1,9,1.8,10,M,,M,,*5F
06/06/2014	17:07:32.923	$GPGGA,170732,2419.5837,N,08143.1109,W,1,9,1.8,10,M,,M,,*51
06/06/2014	17:07:33.915	$GPGGA,170733,2419.5841,N,08143.1109,W,1,9,1.8,10,M,,M,,*51
06/06/2014	17:07:34.918	$GPGGA,170734,2419.5845,N,08143.1110,W,1,9,1.8,10,M,,M,,*5A
06/06/2014	17:07:36.031	$GPGGA,170735,2419.5849,N,08143.1111,W,1,9,1.8,10,M,,M,,*56
06/06/2014	17:07:36.933	$GPGGA,170736,2419.5853,N,08143.1113,W,1,9,1.8,10,M,,M,,*5C
06/06/2014	17:07:28.294	$GPGGA,170737,2419.5856,N,08143.1114,W,1,9,1.8,10,M,,M,,*5F
06/06/2014	17:07:29.226	$GPGGA,170738,2419.5860,N,08143.1114,W,1,9,1.8,10,M,,M,,*55
06/06/2014	17:07:30.309	$GPGGA,170739,2419.5864,N,08143.1116,W,1,9,1.8,10,M,,M,,*52
06/06/2014	17:07:31.211	$GPGGA,170740,2419.5869,N,08143.1115,W,1,9,1.8,10,M,,M,,*52
06/06/2014	17:07:32.313	$GPGGA,170741,2419.5873,N,08143.1116,W,1,10,1.5,10,M,,M,,*6E
06/06/2014	17:07:33.206	$GPGGA,170742,2419.5878,N,08143.1118,W,1,10,1.5,10,M,,M,,*68
06/06/2014	17:07:34.288	$GPGGA,170743,2419.5882,N,08143.1120,W,1,10,1.5,10,M,,M,,*67
06/06/2014	17:07:35.251	$GPGGA,170744,2419.5887,N,08143.1120,W,1,10,1.5,10,M,,M,,*65
06/06/2014	17:07:36.303	$GPGGA,170745,2419.5892,N,08143.1123,W,1,10,1.5,10,M,,M,,*63
06/06/2014	17:07:37.226	$GPGGA,170746,2419.5896,N,08143.1124,W,1,10,1.5,10,M,,M,,*63
06/06/2014	17:07:38.329	$GPGGA,170747,2419.5900,N,08143.1124,W,1,10,1.5,10,M,,M,,*6C
06/06/2014	17:07:39.241	$GPGGA,170748,2419.5905,N,08143.1127,W,1,10,1.5,10,M,,M,,*65
06/06/2014	17:07:40.274	$GPGGA,170749,2419.5909,N,08143.1127,W,1,10,1.5,10,M,,M,,*68
06/06/2014	17:07:41.236	$GPGGA,170750,2419.5914,N,08143.1128,W,1,10,1.5,10,M,,M,,*63
06/06/2014	17:07:42.319	$GPGGA,170751,2419.5918,N,08143.1129,W,1,10,1.5,10,M,,M,,*6F
06/06/2014	17:07:43.261	$GPGGA,170752,2419.5923,N,08143.1131,W,1,10,1.5,9,M,,M,,*55
06/06/2014	17:07:44.274	$GPGGA,170753,2419.5927,N,08143.1131,W,1,10,1.5,9,M,,M,,*50
06/06/2014	17:07:45.232	$GPGGA,170754,2419.5931,N,08143.1132,W,1,10,1.5,9,M,,M,,*53
06/06/2014	17:07:46.299	$GPGGA,170755,2419.5936,N,08143.1134,W,1,10,1.6,9,M,,M,,*50
06/06/2014	17:07:47.242	$GPGGA,170756,2419.5939,N,08143.1135,W,1,10,1.6,9,M,,M,,*5D
06/06/2014	17:07:48.285	$GPGGA,170757,2419.5945,N,08143.1138,W,1,8,2.0,9,M,,M,,*66
06/06/2014	17:07:49.297	$GPGGA,170758,2419.5950,N,08143.1138,W,1,8,1.5,9,M,,M,,*6B
06/06/2014	17:07:50.289	$GPGGA,170759,2419.5954,N,08143.1139,W,1,10,1.5,9,M,,M,,*56
06/06/2014	17:07:51.351	$GPGGA,170800,2419.5958,N,08143.1141,W,1,10,1.5,9,M,,M,,*56
06/06/2014	17:07:52.294	$GPGGA,170801,2419.5963,N,08143.1142,W,1,10,1.6,9,M,,M,,*5F
06/06/2014	17:07:53.307	$GPGGA,170802,2419.5970,N,08143.1139,W,1,10,1.5,9,M,,M,,*51
06/06/2014	17:07:54.344	$GPGGA,170803,2419.5974,N,08143.1141,W,1,10,1.5,9,M,,M,,*5B
06/06/2014	17:07:55.342	$GPGGA,170804,2419.5979,N,08143.1139,W,1,10,1.5,9,M,,M,,*5E
06/06/2014	17:07:56.204	$GPGGA,170805,2419.5985,N,08143.1141,W,1,10,1.5,9,M,,M,,*53
06/06/2014	17:07:57.307	$GPGGA,170806,2419.5989,N,08143.1142,W,1,10,1.5,9,M,,M,,*5F
06/06/2014	17:07:58.353	$GPGGA,170807,2419.5994,N,08143.1141,W,1,10,1.5,9,M,,M,,*51
06/06/2014	17:07:59.322	$GPGGA,170808,2419.6000,N,08143.1143,W,1,10,1.6,9,M,,M,,*58
06/06/2014	17:08:00.305	$GPGGA,170809,2419.6004,N,08143.1143,W,1,9,1.5,9,M,,M,,*66
06/06/2014	17:08:01.307	$GPGGA,170810,2419.6008,N,08143.1145,W,1,9,1.5,9,M,,M,,*64
06/06/2014	17:08:02.350	$GPGGA,170811,2419.6015,N,08143.1144,W,1,10,1.5,9,M,,M,,*50
06/06/2014	17:08:03.323	$GPGGA,170812,2419.6019,N,08143.1145,W,1,10,1.5,9,M,,M,,*5E
06/06/2014	17:08:04.335	$GPGGA,170813,2419.6025,N,08143.1145,W,1,10,1.5,9,M,,M,,*50
06/06/2014	17:08:05.308	$GPGGA,170814,2419.6030,N,08143.1146,W,1,10,1.5,9,M,,M,,*50
06/06/2014	17:08:06.320	$GPGGA,170815,2419.6036,N,08143.1146,W,1,10,1.5,9,M,,M,,*57
06/06/2014	17:08:07.332	$GPGGA,170816,2419.6040,N,08143.1147,W,1,10,1.5,10,M,,M,,*6C
06/06/2014	17:08:08.335	$GPGGA,170817,2419.6046,N,08143.1149,W,1,10,1.5,10,M,,M,,*65
06/06/2014	17:08:09.317	$GPGGA,170818,2419.6050,N,08143.1149,W,1,10,1.5,10,M,,M,,*6D
06/06/2014	17:08:10.350	$GPGGA,170819,2419.6055,N,08143.1150,W,1,10,1.5,10,M,,M,,*61
06/06/2014	17:08:11.332	$GPGGA,170820,2419.6062,N,08143.1152,W,1,10,1.5,10,M,,M,,*6D
06/06/2014	17:08:12.346	$GPGGA,170821,2419.6066,N,08143.1151,W,1,10,1.5,10,M,,M,,*6B
06/06/2014	17:08:13.307	$GPGGA,170822,2419.6070,N,08143.1152,W,1,10,1.5,10,M,,M,,*6C
06/06/2014	17:08:14.350	$GPGGA,170823,2419.6076,N,08143.1152,W,1,10,1.5,10,M,,M,,*6B
06/06/2014	17:08:15.353	$GPGGA,170824,2419.6080,N,08143.1153,W,1,10,1.5,10,M,,M,,*64
06/06/2014	17:08:16.355	$GPGGA,170825,2419.6086,N,08143.1154,W,1,10,1.5,10,M,,M,,*64
06/06/2014	17:08:17.318	$GPGGA,170826,2419.6091,N,08143.1154,W,1,10,1.5,10,M,,M,,*61
06/06/2014	17:08:18.371	$GPGGA,170827,2419.6097,N,08143.1156,W,1,10,1.5,10,M,,M,,*64
06/06/2014	17:08:19.343	$GPGGA,170828,2419.6102,N,08143.1155,W,1,10,1.5,10,M,,M,,*65
06/06/2014	17:08:20.376	$GPGGA,170829,2419.6105,N,08143.1157,W,1,10,1.5,10,M,,M,,*61
06/06/2014	17:08:21.339	$GPGGA,170830,2419.6112,N,08143.1157,W,1,10,1.5,10,M,,M,,*6F
06/06/2014	17:08:22.351	$GPGGA,170831,2419.6117,N,08143.1157,W,1,10,1.5,10,M,,M,,*6B
06/06/2014	17:08:23.333	$GPGGA,170832,2419.6122,N,08143.1158,W,1,10,1.5,10,M,,M,,*61
06/06/2014	17:08:24.387	$GPGGA,170833,2419.6127,N,08143.1158,W,1,10,1.5,10,M,,M,,*65
06/06/2014	17:08:25.338	$GPGGA,170834,2419.6127,N,08143.1158,W,1,10,1.5,10,M,,M,,*62
06/06/2014	17:08:26.360	$GPGGA,170835,2419.6133,N,08143.1160,W,1,10,1.5,10,M,,M,,*6D
06/06/2014	17:08:27.343	$GPGGA,170836,2419.6138,N,08143.1161,W,1,10,1.6,10,M,,M,,*67
06/06/2014	17:08:28.232	$GPGGA,170837,2419.6148,N,08143.1161,W,1,10,1.5,10,M,,M,,*62
06/06/2014	17:08:29.186	$GPGGA,170838,2419.6153,N,08143.1163,W,1,10,1.5,10,M,,M,,*65
06/06/2014	17:08:30.297	$GPGGA,170839,2419.6160,N,08143.1161,W,1,10,1.5,10,M,,M,,*66
06/06/2014	17:08:31.194	$GPGGA,170840,2419.6160,N,08143.1161,W,1,10,1.5,10,M,,M,,*68
06/06/2014	17:08:32.199	$GPGGA,170841,2419.6170,N,08143.1162,W,1,10,1.5,10,M,,M,,*6B
06/06/2014	17:08:33.174	$GPGGA,170842,2419.6176,N,08143.1163,W,1,10,1.5,10,M,,M,,*6F
06/06/2014	17:08:34.307	$GPGGA,170843,2419.6176,N,08143.1163,W,1,10,1.5,10,M,,M,,*6E
06/06/2014	17:08:35.201	$GPGGA,170844,2419.6181,N,08143.1163,W,1,10,1.5,10,M,,M,,*61
06/06/2014	17:08:36.194	$GPGGA,170845,2419.6185,N,08143.1164,W,1,10,1.5,10,M,,M,,*63
06/06/2014	17:08:37.265	$GPGGA,170846,2419.6198,N,08143.1165,W,1,10,1.5,10,M,,M,,*6D
06/06/2014	17:08:38.268	$GPGGA,170847,2419.6203,N,08143.1165,W,1,10,1.5,10,M,,M,,*6D
06/06/2014	17:08:39.280	$GPGGA,170848,2419.6207,N,08143.1167,W,1,10,1.5,10,M,,M,,*64
06/06/2014	17:08:40.182	$GPGGA,170849,2419.6207,N,08143.1167,W,1,10,1.5,10,M,,M,,*65
06/06/2014	17:08:41.165	$GPGGA,170850,2419.6214,N,08143.1166,W,1,10,1.5,10,M,,M,,*6E
06/06/2014	17:08:42.197	$GPGGA,170851,2419.6225,N,08143.1167,W,1,10,1.5,10,M,,M,,*6C
06/06/2014	17:08:43.189	$GPGGA,170852,2419.6230,N,08143.1168,W,1,10,1.5,10,M,,M,,*64
06/06/2014	17:08:44.192	$GPGGA,170853,2419.6230,N,08143.1168,W,1,9,1.8,10,M,,M,,*50
06/06/2014	17:08:45.275	$GPGGA,170854,2419.6241,N,08143.1169,W,1,9,1.8,10,M,,M,,*50
06/06/2014	17:08:46.197	$GPGGA,170855,2419.6241,N,08143.1169,W,1,9,1.8,10,M,,M,,*51
06/06/2014	17:08:47.190	$GPGGA,170856,2419.6252,N,08143.1171,W,1,9,1.8,10,M,,M,,*59
06/06/2014	17:08:48.303	$GPGGA,170857,2419.6257,N,08143.1170,W,1,9,1.8,10,M,,M,,*5C
06/06/2014	17:08:49.275	$GPGGA,170858,2419.6264,N,08143.1171,W,1,9,1.8,10,M,,M,,*52
06/06/2014	17:08:50.308	$GPGGA,170859,2419.6270,N,08143.1170,W,1,9,1.8,10,M,,M,,*57
06/06/2014	17:08:51.320	$GPGGA,170900,2419.6275,N,08143.1171,W,1,9,1.8,10,M,,M,,*5E
06/06/2014	17:08:52.273	$GPGGA,170901,2419.6282,N,08143.1170,W,1,9,1.8,10,M,,M,,*56
06/06/2014	17:08:53.275	$GPGGA,170902,2419.6286,N,08143.1171,W,1,9,1.5,10,M,,M,,*5D
06/06/2014	17:08:54.288	$GPGGA,170903,2419.6292,N,08143.1171,W,1,10,1.5,10,M,,M,,*61
06/06/2014	17:08:55.291	$GPGGA,170904,2419.6299,N,08143.1170,W,1,10,1.8,10,M,,M,,*61
06/06/2014	17:08:56.273	$GPGGA,170905,2419.6304,N,08143.1171,W,1,9,1.8,10,M,,M,,*5C
06/06/2014	17:08:57.276	$GPGGA,170906,2419.6310,N,08143.1171,W,1,9,1.5,10,M,,M,,*57
06/06/2014	17:08:58.298	$GPGGA,170907,2419.6317,N,08143.1171,W,1,9,1.8,10,M,,M,,*5C
06/06/2014	17:08:59.291	$GPGGA,170908,2419.6322,N,08143.1171,W,1,9,1.8,10,M,,M,,*55
06/06/2014	17:09:00.303	$GPGGA,170909,2419.6329,N,08143.1171,W,1,9,1.8,10,M,,M,,*5F
06/06/2014	17:09:01.277	$GPGGA,170910,2419.6333,N,08143.1171,W,1,9,1.8,10,M,,M,,*5C
06/06/2014	17:09:02.298	$GPGGA,170911,2419.6340,N,08143.1171,W,1,9,1.8,10,M,,M,,*59
06/06/2014	17:09:03.290	$GPGGA,170912,2419.6346,N,08143.1170,W,1,9,1.8,10,M,,M,,*5D
06/06/2014	17:09:04.276	$GPGGA,170913,2419.6353,N,08143.1171,W,1,9,1.8,10,M,,M,,*59
06/06/2014	17:09:05.286	$GPGGA,170914,2419.6358,N,08143.1171,W,1,9,1.5,10,M,,M,,*58
06/06/2014	17:09:06.318	$GPGGA,170915,2419.6362,N,08143.1169,W,1,10,1.5,10,M,,M,,*61
06/06/2014	17:09:07.311	$GPGGA,170916,2419.6369,N,08143.1170,W,1,10,1.5,10,M,,M,,*61
06/06/2014	17:09:08.313	$GPGGA,170917,2419.6373,N,08143.1167,W,1,10,1.5,10,M,,M,,*6D
06/06/2014	17:09:09.296	$GPGGA,170918,2419.6380,N,08143.1167,W,1,10,1.5,10,M,,M,,*6E
06/06/2014	17:09:10.319	$GPGGA,170919,2419.6386,N,08143.1167,W,1,10,1.5,10,M,,M,,*69
06/06/2014	17:09:11.294	$GPGGA,170920,2419.6391,N,08143.1167,W,1,10,1.5,10,M,,M,,*65
06/06/2014	17:09:12.307	$GPGGA,170921,2419.6398,N,08143.1166,W,1,10,1.5,10,M,,M,,*6C
06/06/2014	17:09:13.276	$GPGGA,170922,2419.6405,N,08143.1167,W,1,10,1.5,11,M,,M,,*6C
06/06/2014	17:09:14.301	$GPGGA,170923,2419.6412,N,08143.1166,W,1,9,1.8,11,M,,M,,*5F
06/06/2014	17:09:15.412	$GPGGA,170924,2419.6416,N,08143.1167,W,1,9,1.8,11,M,,M,,*5D
06/06/2014	17:09:16.304	$GPGGA,170925,2419.6423,N,08143.1168,W,1,9,1.8,11,M,,M,,*55
06/06/2014	17:09:17.276	$GPGGA,170926,2419.6431,N,08143.1167,W,1,9,1.8,11,M,,M,,*5A
06/06/2014	17:09:18.289	$GPGGA,170927,2419.6438,N,08143.1167,W,1,9,1.8,11,M,,M,,*52
06/06/2014	17:09:19.411	$GPGGA,170928,2419.6444,N,08143.1168,W,1,9,1.8,11,M,,M,,*59
06/06/2014	17:09:20.394	$GPGGA,170929,2419.6451,N,08143.1167,W,1,9,1.8,11,M,,M,,*53
06/06/2014	17:09:21.286	$GPGGA,170930,2419.6458,N,08143.1168,W,1,9,1.8,11,M,,M,,*5D
06/06/2014	17:09:22.279	$GPGGA,170931,2419.6463,N,08143.1166,W,1,9,1.8,11,M,,M,,*5A
06/06/2014	17:09:23.315	$GPGGA,170932,2419.6469,N,08143.1164,W,1,9,1.5,11,M,,M,,*5C
06/06/2014	17:09:24.315	$GPGGA,170933,2419.6474,N,08143.1164,W,1,10,1.5,11,M,,M,,*69
06/06/2014	17:09:25.286	$GPGGA,170934,2419.6481,N,08143.1165,W,1,10,1.8,11,M,,M,,*68
06/06/2014	17:09:26.289	$GPGGA,170935,2419.6488,N,08143.1164,W,1,9,1.8,11,M,,M,,*59
06/06/2014	17:09:27.292	$GPGGA,170936,2419.6496,N,08143.1164,W,1,9,1.8,11,M,,M,,*55
06/06/2014	17:09:28.150	$GPGGA,170937,2419.6501,N,08143.1163,W,1,9,1.8,11,M,,M,,*5C
06/06/2014	17:09:29.233	$GPGGA,170938,2419.6507,N,08143.1164,W,1,9,1.5,11,M,,M,,*5F
06/06/2014	17:09:30.146	$GPGGA,170939,2419.6516,N,08143.1164,W,1,9,1.8,11,M,,M,,*53
06/06/2014	17:09:31.238	$GPGGA,170940,2419.6523,N,08143.1165,W,1,9,1.8,11,M,,M,,*5A
06/06/2014	17:09:32.231	$GPGGA,170941,2419.6528,N,08143.1165,W,1,9,1.8,11,M,,M,,*50
06/06/2014	17:09:33.245	$GPGGA,170942,2419.6535,N,08143.1167,W,1,9,1.8,11,M,,M,,*5D
06/06/2014	17:09:34.256	$GPGGA,170943,2419.6543,N,08143.1166,W,1,9,1.8,11,M,,M,,*5C
06/06/2014	17:09:35.248	$GPGGA,170944,2419.6550,N,08143.1167,W,1,9,1.8,11,M,,M,,*58
06/06/2014	17:09:36.240	$GPGGA,170945,2419.6557,N,08143.1167,W,1,9,1.8,11,M,,M,,*5E
06/06/2014	17:09:37.233	$GPGGA,170946,2419.6564,N,08143.1168,W,1,9,1.8,11,M,,M,,*52
06/06/2014	17:09:38.255	$GPGGA,170947,2419.6571,N,08143.1168,W,1,9,1.8,11,M,,M,,*57
06/06/2014	17:09:39.248	$GPGGA,170948,2419.6578,N,08143.1168,W,1,9,1.8,11,M,,M,,*51
06/06/2014	17:09:40.251	$GPGGA,170949,2419.6585,N,08143.1170,W,1,9,1.8,11,M,,M,,*5B
06/06/2014	17:09:41.233	$GPGGA,170950,2419.6592,N,08143.1169,W,1,9,1.8,11,M,,M,,*5D
06/06/2014	17:09:42.256	$GPGGA,170951,2419.6599,N,08143.1171,W,1,9,1.8,11,M,,M,,*5E
06/06/2014	17:09:43.241	$GPGGA,170952,2419.6606,N,08143.1171,W,1,9,1.8,11,M,,M,,*58
06/06/2014	17:09:44.261	$GPGGA,170953,2419.6614,N,08143.1171,W,1,9,1.8,11,M,,M,,*5A
06/06/2014	17:09:45.244	$GPGGA,170954,2419.6619,N,08143.1172,W,1,9,1.8,11,M,,M,,*53
06/06/2014	17:09:46.266	$GPGGA,170955,2419.6626,N,08143.1174,W,1,9,1.8,11,M,,M,,*58
06/06/2014	17:09:47.249	$GPGGA,170956,2419.6633,N,08143.1173,W,1,9,1.8,11,M,,M,,*58
06/06/2014	17:09:48.271	$GPGGA,170957,2419.6640,N,08143.1174,W,1,9,1.8,11,M,,M,,*5A
06/06/2014	17:09:49.234	$GPGGA,170958,2419.6647,N,08143.1175,W,1,9,1.8,11,M,,M,,*53
06/06/2014	17:09:50.243	$GPGGA,170959,2419.6655,N,08143.1175,W,1,9,1.8,11,M,,M,,*51
06/06/2014	17:09:51.269	$GPGGA,171000,2419.6662,N,08143.1176,W,1,9,1.8,10,M,,M,,*53
06/06/2014	17:09:52.250	$GPGGA,171001,2419.6669,N,08143.1178,W,1,9,1.8,10,M,,M,,*57
06/06/2014	17:09:53.245	$GPGGA,171002,2419.6676,N,08143.1177,W,1,9,1.8,10,M,,M,,*55
06/06/2014	17:09:54.266	$GPGGA,171003,2419.6684,N,08143.1178,W,1,9,1.8,10,M,,M,,*56
06/06/2014	17:09:55.259	$GPGGA,171004,2419.6690,N,08143.1178,W,1,9,1.8,10,M,,M,,*54
06/06/2014	17:09:56.231	$GPGGA,171005,2419.6695,N,08143.1178,W,1,9,1.8,10,M,,M,,*50
06/06/2014	17:09:57.266	$GPGGA,171006,2419.6702,N,08143.1178,W,1,9,1.8,10,M,,M,,*5C
06/06/2014	17:09:58.276	$GPGGA,171007,2419.6709,N,08143.1178,W,1,9,1.8,10,M,,M,,*56
06/06/2014	17:09:59.267	$GPGGA,171008,2419.6715,N,08143.1178,W,1,9,1.8,10,M,,M,,*54
06/06/2014	17:10:00.352	$GPGGA,171009,2419.6720,N,08143.1177,W,1,9,1.8,10,M,,M,,*5C
06/06/2014	17:10:01.254	$GPGGA,171010,2419.6726,N,08143.1178,W,1,9,1.5,10,M,,M,,*50
06/06/2014	17:10:02.269	$GPGGA,171011,2419.6731,N,08143.1176,W,1,10,1.5,10,M,,M,,*61
06/06/2014	17:10:03.379	$GPGGA,171012,2419.6737,N,08143.1174,W,1,10,1.5,10,M,,M,,*66
06/06/2014	17:10:04.242	$GPGGA,171013,2419.6742,N,08143.1175,W,1,10,1.5,10,M,,M,,*64
06/06/2014	17:10:05.266	$GPGGA,171014,2419.6749,N,08143.1176,W,1,10,1.8,10,M,,M,,*66
06/06/2014	17:10:06.373	$GPGGA,171015,2419.6756,N,08143.1178,W,1,10,1.5,10,M,,M,,*6A
06/06/2014	17:10:07.270	$GPGGA,171016,2419.6762,N,08143.1177,W,1,10,1.8,10,M,,M,,*6C
06/06/2014	17:10:08.377	$GPGGA,171017,2419.6767,N,08143.1178,W,1,9,1.8,10,M,,M,,*5F
06/06/2014	17:10:09.245	$GPGGA,171018,2419.6774,N,08143.1178,W,1,9,1.5,10,M,,M,,*5F
06/06/2014	17:10:10.267	$GPGGA,171019,2419.6780,N,08143.1179,W,1,9,1.8,10,M,,M,,*59
06/06/2014	17:10:11.349	$GPGGA,171020,2419.6784,N,08143.1178,W,1,9,1.8,10,M,,M,,*56
06/06/2014	17:10:12.352	$GPGGA,171021,2419.6790,N,08143.1178,W,1,10,1.5,10,M,,M,,*67
06/06/2014	17:10:13.254	$GPGGA,171022,2419.6795,N,08143.1178,W,1,10,1.5,10,M,,M,,*61
06/06/2014	17:10:14.388	$GPGGA,171023,2419.6799,N,08143.1178,W,1,10,1.5,10,M,,M,,*6C
06/06/2014	17:10:15.350	$GPGGA,171024,2419.6803,N,08143.1177,W,1,10,1.5,10,M,,M,,*68
06/06/2014	17:10:16.362	$GPGGA,171025,2419.6809,N,08143.1176,W,1,10,1.5,10,M,,M,,*62
06/06/2014	17:10:17.345	$GPGGA,171026,2419.6813,N,08143.1175,W,1,10,1.5,10,M,,M,,*69
06/06/2014	17:10:18.347	$GPGGA,171027,2419.6817,N,08143.1174,W,1,10,1.5,10,M,,M,,*6D
06/06/2014	17:10:19.370	$GPGGA,171028,2419.6821,N,08143.1173,W,1,10,1.5,10,M,,M,,*60
06/06/2014	17:10:20.343	$GPGGA,171029,2419.6825,N,08143.1170,W,1,9,1.6,10,M,,M,,*5D
06/06/2014	17:10:21.355	$GPGGA,171030,2419.6831,N,08143.1168,W,1,9,1.5,10,M,,M,,*5A
06/06/2014	17:10:22.369	$GPGGA,171031,2419.6834,N,08143.1164,W,1,9,1.8,10,M,,M,,*5F
06/06/2014	17:10:23.370	$GPGGA,171032,2419.6837,N,08143.1161,W,1,9,1.6,10,M,,M,,*54
06/06/2014	17:10:24.353	$GPGGA,171033,2419.6839,N,08143.1160,W,1,9,1.6,10,M,,M,,*5A
06/06/2014	17:10:25.346	$GPGGA,171034,2419.6843,N,08143.1159,W,1,9,1.6,10,M,,M,,*5A
06/06/2014	17:10:26.368	$GPGGA,171035,2419.6848,N,08143.1157,W,1,9,1.6,11,M,,M,,*5F
06/06/2014	17:10:27.370	$GPGGA,171036,2419.6852,N,08143.1156,W,1,9,1.5,11,M,,M,,*55
06/06/2014	17:10:28.188	$GPGGA,171037,2419.6855,N,08143.1155,W,1,9,1.6,11,M,,M,,*53
06/06/2014	17:10:29.201	$GPGGA,171038,2419.6859,N,08143.1153,W,1,9,1.5,11,M,,M,,*55
06/06/2014	17:10:30.214	$GPGGA,171039,2419.6861,N,08143.1153,W,1,10,1.5,11,M,,M,,*67
06/06/2014	17:10:31.226	$GPGGA,171040,2419.6864,N,08143.1148,W,1,10,1.9,11,M,,M,,*6A
06/06/2014	17:10:32.219	$GPGGA,171041,2419.6868,N,08143.1146,W,1,9,1.6,11,M,,M,,*5E
06/06/2014	17:10:33.201	$GPGGA,171042,2419.6871,N,08143.1145,W,1,9,1.5,11,M,,M,,*55
06/06/2014	17:10:34.224	$GPGGA,171043,2419.6875,N,08143.1142,W,1,9,1.8,11,M,,M,,*5A
06/06/2014	17:10:35.217	$GPGGA,171044,2419.6878,N,08143.1141,W,1,9,1.5,11,M,,M,,*5E
06/06/2014	17:10:36.191	$GPGGA,171045,2419.6882,N,08143.1138,W,1,8,1.9,11,M,,M,,*59
06/06/2014	17:10:37.212	$GPGGA,171046,2419.6885,N,08143.1137,W,1,8,1.8,11,M,,M,,*53
06/06/2014	17:10:38.244	$GPGGA,171047,2419.6889,N,08143.1136,W,1,10,1.5,11,M,,M,,*6B
06/06/2014	17:10:39.227	$GPGGA,171048,2419.6892,N,08143.1135,W,1,10,1.5,11,M,,M,,*6D
06/06/2014	17:10:40.213	$GPGGA,171049,2419.6896,N,08143.1135,W,1,10,1.5,11,M,,M,,*68
06/06/2014	17:10:41.212	$GPGGA,171050,2419.6900,N,08143.1135,W,1,10,1.8,11,M,,M,,*63
06/06/2014	17:10:42.196	$GPGGA,171051,2419.6904,N,08143.1135,W,1,9,1.8,11,M,,M,,*5E
06/06/2014	17:10:43.227	$GPGGA,171052,2419.6908,N,08143.1136,W,1,9,1.8,11,M,,M,,*52
06/06/2014	17:10:44.230	$GPGGA,171053,2419.6911,N,08143.1138,W,1,9,1.8,11,M,,M,,*55
06/06/2014	17:10:45.322	$GPGGA,171054,2419.6915,N,08143.1137,W,1,9,1.8,11,M,,M,,*59
06/06/2014	17:10:46.324	$GPGGA,171055,2419.6919,N,08143.1138,W,1,9,1.8,11,M,,M,,*5B
06/06/2014	17:10:47.337	$GPGGA,171056,2419.6922,N,08143.1141,W,1,9,1.8,11,M,,M,,*5E
06/06/2014	17:10:48.300	$GPGGA,171057,2419.6926,N,08143.1140,W,1,9,1.8,11,M,,M,,*5A
06/06/2014	17:10:49.202	$GPGGA,171058,2419.6931,N,08143.1142,W,1,9,1.8,11,M,,M,,*51
06/06/2014	17:10:50.295	$GPGGA,171059,2419.6933,N,08143.1143,W,1,9,1.8,11,M,,M,,*53
06/06/2014	17:10:51.240	$GPGGA,171100,2419.6936,N,08143.1143,W,1,9,1.8,11,M,,M,,*5B
06/06/2014	17:10:52.220	$GPGGA,171101,2419.6940,N,08143.1146,W,1,10,1.5,11,M,,M,,*6B
06/06/2014	17:10:53.222	$GPGGA,171102,2419.6944,N,08143.1146,W,1,10,1.8,11,M,,M,,*61
06/06/2014	17:10:54.305	$GPGGA,171103,2419.6947,N,08143.1149,W,1,10,1.5,11,M,,M,,*61
06/06/2014	17:10:55.318	$GPGGA,171104,2419.6951,N,08143.1150,W,1,10,1.5,11,M,,M,,*69
06/06/2014	17:10:56.220	$GPGGA,171105,2419.6954,N,08143.1152,W,1,10,1.5,11,M,,M,,*6F
06/06/2014	17:10:57.313	$GPGGA,171106,2419.6958,N,08143.1156,W,1,10,1.5,11,M,,M,,*64
06/06/2014	17:10:58.225	$GPGGA,171107,2419.6962,N,08143.1157,W,1,9,1.8,11,M,,M,,*58
06/06/2014	17:10:59.228	$GPGGA,171108,2419.6965,N,08143.1160,W,1,9,1.5,11,M,,M,,*59
06/06/2014	17:11:00.301	$GPGGA,171109,2419.6969,N,08143.1163,W,1,10,1.5,11,M,,M,,*6F
06/06/2014	17:11:01.313	$GPGGA,171110,2419.6973,N,08143.1165,W,1,10,1.5,12,M,,M,,*69
06/06/2014	17:11:02.315	$GPGGA,171111,2419.6976,N,08143.1168,W,1,10,1.5,12,M,,M,,*60
06/06/2014	17:11:03.328	$GPGGA,171112,2419.6979,N,08143.1171,W,1,10,1.5,12,M,,M,,*64
06/06/2014	17:11:04.340	$GPGGA,171113,2419.6983,N,08143.1174,W,1,10,1.5,12,M,,M,,*65
06/06/2014	17:11:05.313	$GPGGA,171114,2419.6987,N,08143.1178,W,1,10,1.5,12,M,,M,,*6A
06/06/2014	17:11:06.325	$GPGGA,171115,2419.6991,N,08143.1181,W,1,10,1.5,12,M,,M,,*6A
06/06/2014	17:11:07.328	$GPGGA,171116,2419.6994,N,08143.1185,W,1,10,1.5,12,M,,M,,*68
06/06/2014	17:11:08.320	$GPGGA,171117,2419.6998,N,08143.1189,W,1,10,1.5,12,M,,M,,*69
06/06/2014	17:11:09.323	$GPGGA,171118,2419.7001,N,08143.1192,W,1,10,1.5,12,M,,M,,*64
06/06/2014	17:11:10.336	$GPGGA,171119,2419.7005,N,08143.1196,W,1,10,1.5,12,M,,M,,*65
06/06/2014	17:11:11.318	$GPGGA,171120,2419.7009,N,08143.1199,W,1,10,1.5,12,M,,M,,*6C
06/06/2014	17:11:12.341	$GPGGA,171121,2419.7012,N,08143.1203,W,1,10,1.5,12,M,,M,,*67
06/06/2014	17:11:13.313	$GPGGA,171122,2419.7016,N,08143.1207,W,1,10,1.5,12,M,,M,,*64
06/06/2014	17:11:14.326	$GPGGA,171123,2419.7020,N,08143.1210,W,1,10,1.5,12,M,,M,,*66
06/06/2014	17:11:15.349	$GPGGA,171124,2419.7023,N,08143.1212,W,1,10,1.5,12,M,,M,,*60
06/06/2014	17:11:16.342	$GPGGA,171125,2419.7027,N,08143.1214,W,1,10,1.5,12,M,,M,,*63
06/06/2014	17:11:17.314	$GPGGA,171126,2419.7030,N,08143.1217,W,1,10,1.5,12,M,,M,,*65
06/06/2014	17:11:18.316	$GPGGA,171127,2419.7033,N,08143.1218,W,1,10,1.5,13,M,,M,,*69
06/06/2014	17:11:19.338	$GPGGA,171128,2419.7036,N,08143.1219,W,1,10,1.5,13,M,,M,,*62
06/06/2014	17:11:20.331	$GPGGA,171129,2419.7038,N,08143.1221,W,1,10,1.5,13,M,,M,,*66
06/06/2014	17:11:21.323	$GPGGA,171130,2419.7041,N,08143.1222,W,1,10,1.5,13,M,,M,,*63
06/06/2014	17:11:22.336	$GPGGA,171131,2419.7044,N,08143.1222,W,1,10,1.5,13,M,,M,,*67
06/06/2014	17:11:23.338	$GPGGA,171132,2419.7047,N,08143.1223,W,1,10,1.5,13,M,,M,,*66
06/06/2014	17:11:24.321	$GPGGA,171133,2419.7048,N,08143.1223,W,1,10,1.5,13,M,,M,,*68
06/06/2014	17:11:25.328	$GPGGA,171134,2419.7052,N,08143.1223,W,1,10,1.5,13,M,,M,,*64
06/06/2014	17:11:26.316	$GPGGA,171135,2419.7055,N,08143.1223,W,1,10,1.5,13,M,,M,,*62
06/06/2014	17:11:27.330	$GPGGA,171136,2419.7056,N,08143.1222,W,1,10,1.5,13,M,,M,,*63
06/06/2014	17:11:28.287	$GPGGA,171137,2419.7059,N,08143.1222,W,1,10,1.5,13,M,,M,,*6D
06/06/2014	17:11:29.184	$GPGGA,171138,2419.7061,N,08143.1221,W,1,10,1.5,13,M,,M,,*6A
06/06/2014	17:11:30.292	$GPGGA,171139,2419.7063,N,08143.1220,W,1,10,1.5,13,M,,M,,*68
06/06/2014	17:11:31.177	$GPGGA,171140,2419.7065,N,08143.1219,W,1,10,1.5,13,M,,M,,*6A
06/06/2014	17:11:32.280	$GPGGA,171141,2419.7067,N,08143.1217,W,1,10,1.5,13,M,,M,,*67
06/06/2014	17:11:33.199	$GPGGA,171142,2419.7070,N,08143.1216,W,1,10,1.5,13,M,,M,,*63
06/06/2014	17:11:34.202	$GPGGA,171143,2419.7072,N,08143.1215,W,1,10,1.5,13,M,,M,,*63
06/06/2014	17:11:35.295	$GPGGA,171144,2419.7074,N,08143.1212,W,1,10,1.5,13,M,,M,,*65
06/06/2014	17:11:36.307	$GPGGA,171145,2419.7076,N,08143.1210,W,1,10,1.5,13,M,,M,,*64
06/06/2014	17:11:37.159	$GPGGA,171146,2419.7077,N,08143.1208,W,1,10,1.5,13,M,,M,,*6F
