Software Version Number: 1	Data File Format Number: 1	Build Version Number: 1	Error Count Since VI Started: 0	Manufacturer: Raytheon	 Model Number: RayMarine 120	 S/N: 	 Cal Date: 	 Wind Direction Offset: 0.00	 Slope (M)1: 0.00	 Offset (B)1: 0.00	 Slope (M)2: 0.00	 Offset (B)2: 0.00	 Slope (M)3: 0.00	 Offset (B)3: 0.00	 Slope (M)4: 0.00	 Offset (B)4: 0.00	 Slope (M)5: 0.00	 Offset (B)5: 0.00	 Slope (M)6: 0.00	 Offset (B)6: 0.00
Computer Date	Computer Time	GGA String
06/02/2014	11:00:00.572	$GPGGA,110001,2435.0224,N,08051.4217,W,1,8,2.3,13,M,,M,,*52
06/02/2014	11:00:01.562	$GPGGA,110002,2435.0251,N,08051.4221,W,1,8,2.3,13,M,,M,,*56
06/02/2014	11:00:02.572	$GPGGA,110003,2435.0277,N,08051.4221,W,1,8,2.3,13,M,,M,,*53
06/02/2014	11:00:03.572	$GPGGA,110004,2435.0305,N,08051.4220,W,1,8,2.3,13,M,,M,,*51
06/02/2014	11:00:04.592	$GPGGA,110005,2435.0331,N,08051.4223,W,1,8,2.3,13,M,,M,,*54
06/02/2014	11:00:05.542	$GPGGA,110006,2435.0355,N,08051.4224,W,1,8,2.3,13,M,,M,,*52
06/02/2014	11:00:06.572	$GPGGA,110007,2435.0381,N,08051.4227,W,1,8,2.3,13,M,,M,,*59
06/02/2014	11:00:07.562	$GPGGA,110008,2435.0407,N,08051.4226,W,1,8,2.3,13,M,,M,,*5E
06/02/2014	11:00:08.572	$GPGGA,110009,2435.0434,N,08051.4227,W,1,8,2.3,13,M,,M,,*5E
06/02/2014	11:00:09.542	$GPGGA,110010,2435.0461,N,08051.4231,W,1,8,2.3,13,M,,M,,*51
06/02/2014	11:00:10.571	$GPGGA,110011,2435.0486,N,08051.4234,W,1,7,2.4,13,M,,M,,*54
06/02/2014	11:00:11.561	$GPGGA,110012,2435.0514,N,08051.4232,W,1,7,2.3,13,M,,M,,*5C
06/02/2014	11:00:12.531	$GPGGA,110013,2435.0540,N,08051.4231,W,1,8,2.3,13,M,,M,,*50
06/02/2014	11:00:13.541	$GPGGA,110014,2435.0562,N,08051.4238,W,1,8,2.3,13,M,,M,,*5E
06/02/2014	11:00:14.541	$GPGGA,110015,2435.0589,N,08051.4241,W,1,8,2.3,13,M,,M,,*54
06/02/2014	11:00:15.541	$GPGGA,110016,2435.0616,N,08051.4239,W,1,8,2.3,13,M,,M,,*5D
06/02/2014	11:00:16.541	$GPGGA,110017,2435.0640,N,08051.4241,W,1,8,2.3,13,M,,M,,*50
06/02/2014	11:00:17.541	$GPGGA,110018,2435.0665,N,08051.4246,W,1,8,2.3,13,M,,M,,*5F
06/02/2014	11:00:18.521	$GPGGA,110019,2435.0692,N,08051.4248,W,1,8,2.3,13,M,,M,,*58
06/02/2014	11:00:19.531	$GPGGA,110020,2435.0719,N,08051.4249,W,1,8,2.3,13,M,,M,,*51
06/02/2014	11:00:20.531	$GPGGA,110021,2435.0745,N,08051.4252,W,1,8,2.3,13,M,,M,,*53
06/02/2014	11:00:21.611	$GPGGA,110022,2435.0771,N,08051.4254,W,1,8,2.3,12,M,,M,,*50
06/02/2014	11:00:22.521	$GPGGA,110023,2435.0797,N,08051.4259,W,1,8,2.3,12,M,,M,,*54
06/02/2014	11:00:23.521	$GPGGA,110024,2435.0822,N,08051.4261,W,1,8,2.3,12,M,,M,,*59
06/02/2014	11:00:24.531	$GPGGA,110025,2435.0847,N,08051.4263,W,1,8,2.3,12,M,,M,,*59
06/02/2014	11:00:25.511	$GPGGA,110026,2435.0873,N,08051.4264,W,1,8,2.3,12,M,,M,,*5A
06/02/2014	11:00:26.511	$GPGGA,110027,2435.0900,N,08051.4270,W,1,8,2.3,12,M,,M,,*5B
06/02/2014	11:00:27.631	$GPGGA,110028,2435.0926,N,08051.4274,W,1,8,2.3,12,M,,M,,*54
06/02/2014	11:00:28.520	$GPGGA,110029,2435.0954,N,08051.4277,W,1,8,2.3,12,M,,M,,*53
06/02/2014	11:00:29.500	$GPGGA,110030,2435.0981,N,08051.4278,W,1,8,2.3,12,M,,M,,*5C
06/02/2014	11:00:30.510	$GPGGA,110031,2435.1006,N,08051.4281,W,1,8,2.3,12,M,,M,,*5C
06/02/2014	11:00:31.640	$GPGGA,110032,2435.1031,N,08051.4285,W,1,8,2.3,12,M,,M,,*5F
06/02/2014	11:00:32.510	$GPGGA,110033,2435.1057,N,08051.4286,W,1,8,2.3,12,M,,M,,*5D
06/02/2014	11:00:33.500	$GPGGA,110034,2435.1082,N,08051.4288,W,1,8,2.3,12,M,,M,,*5C
06/02/2014	11:00:34.610	$GPGGA,110035,2435.1109,N,08051.4292,W,1,8,2.3,12,M,,M,,*54
06/02/2014	11:00:35.610	$GPGGA,110036,2435.1135,N,08051.4296,W,1,8,2.4,12,M,,M,,*5B
06/02/2014	11:00:36.630	$GPGGA,110037,2435.1161,N,08051.4300,W,1,7,2.3,12,M,,M,,*5D
06/02/2014	11:00:37.590	$GPGGA,110038,2435.1187,N,08051.4299,W,1,7,2.3,12,M,,M,,*5B
06/02/2014	11:00:38.620	$GPGGA,110039,2435.1214,N,08051.4301,W,1,8,2.3,12,M,,M,,*5C
06/02/2014	11:00:39.600	$GPGGA,110040,2435.1240,N,08051.4304,W,1,8,2.3,12,M,,M,,*56
06/02/2014	11:00:40.620	$GPGGA,110041,2435.1265,N,08051.4310,W,1,8,2.3,12,M,,M,,*55
06/02/2014	11:00:41.590	$GPGGA,110042,2435.1292,N,08051.4313,W,1,8,2.3,12,M,,M,,*5D
06/02/2014	11:00:42.600	$GPGGA,110043,2435.1320,N,08051.4314,W,1,8,2.3,12,M,,M,,*53
06/02/2014	11:00:43.590	$GPGGA,110044,2435.1345,N,08051.4317,W,1,8,2.3,12,M,,M,,*54
06/02/2014	11:00:44.600	$GPGGA,110045,2435.1371,N,08051.4322,W,1,8,2.3,12,M,,M,,*54
06/02/2014	11:00:45.579	$GPGGA,110046,2435.1396,N,08051.4324,W,1,8,2.3,12,M,,M,,*58
06/02/2014	11:00:46.589	$GPGGA,110047,2435.1422,N,08051.4325,W,1,8,2.3,12,M,,M,,*50
06/02/2014	11:00:47.589	$GPGGA,110048,2435.1447,N,08051.4328,W,1,8,2.3,12,M,,M,,*51
06/02/2014	11:00:48.589	$GPGGA,110049,2435.1472,N,08051.4332,W,1,8,2.3,12,M,,M,,*5D
06/02/2014	11:00:49.569	$GPGGA,110050,2435.1500,N,08051.4335,W,1,8,2.3,12,M,,M,,*56
06/02/2014	11:00:50.559	$GPGGA,110051,2435.1526,N,08051.4336,W,1,8,2.3,12,M,,M,,*50
06/02/2014	11:00:51.589	$GPGGA,110052,2435.1552,N,08051.4340,W,1,8,2.3,12,M,,M,,*51
06/02/2014	11:00:52.549	$GPGGA,110053,2435.1580,N,08051.4343,W,1,8,2.4,12,M,,M,,*5B
06/02/2014	11:00:53.569	$GPGGA,110054,2435.1605,N,08051.4343,W,1,8,2.3,12,M,,M,,*55
06/02/2014	11:00:54.569	$GPGGA,110055,2435.1630,N,08051.4344,W,1,8,2.3,12,M,,M,,*55
06/02/2014	11:00:55.579	$GPGGA,110056,2435.1656,N,08051.4346,W,1,8,2.3,12,M,,M,,*54
06/02/2014	11:00:56.549	$GPGGA,110057,2435.1682,N,08051.4350,W,1,8,2.4,12,M,,M,,*5C
06/02/2014	11:00:57.569	$GPGGA,110058,2435.1707,N,08051.4354,W,1,8,2.4,12,M,,M,,*5B
06/02/2014	11:00:58.579	$GPGGA,110059,2435.1732,N,08051.4353,W,1,7,2.3,12,M,,M,,*53
06/02/2014	11:00:59.589	$GPGGA,110100,2435.1758,N,08051.4352,W,1,7,2.3,12,M,,M,,*53
06/02/2014	11:01:00.540	$GPGGA,110101,2435.1786,N,08051.4355,W,1,8,2.3,12,M,,M,,*59
06/02/2014	11:01:01.552	$GPGGA,110102,2435.1812,N,08051.4361,W,1,8,2.3,12,M,,M,,*5F
06/02/2014	11:01:02.567	$GPGGA,110103,2435.1840,N,08051.4362,W,1,8,2.3,12,M,,M,,*5A
06/02/2014	11:01:03.568	$GPGGA,110104,2435.1868,N,08051.4362,W,1,8,2.4,12,M,,M,,*50
06/02/2014	11:01:04.558	$GPGGA,110105,2435.1894,N,08051.4362,W,1,8,2.4,12,M,,M,,*52
06/02/2014	11:01:05.538	$GPGGA,110106,2435.1917,N,08051.4366,W,1,8,2.4,12,M,,M,,*5F
06/02/2014	11:01:06.528	$GPGGA,110107,2435.1942,N,08051.4369,W,1,8,2.4,12,M,,M,,*51
06/02/2014	11:01:07.568	$GPGGA,110108,2435.1969,N,08051.4368,W,1,8,2.4,12,M,,M,,*56
06/02/2014	11:01:08.558	$GPGGA,110109,2435.1993,N,08051.4367,W,1,8,2.4,12,M,,M,,*5D
06/02/2014	11:01:09.618	$GPGGA,110110,2435.2018,N,08051.4371,W,1,8,2.4,12,M,,M,,*5B
06/02/2014	11:01:10.548	$GPGGA,110111,2435.2045,N,08051.4375,W,1,8,2.4,12,M,,M,,*56
06/02/2014	11:01:11.548	$GPGGA,110112,2435.2072,N,08051.4374,W,1,8,2.4,12,M,,M,,*50
06/02/2014	11:01:12.528	$GPGGA,110113,2435.2100,N,08051.4372,W,1,8,2.4,12,M,,M,,*53
06/02/2014	11:01:13.608	$GPGGA,110114,2435.2126,N,08051.4378,W,1,8,2.4,12,M,,M,,*5A
06/02/2014	11:01:14.538	$GPGGA,110115,2435.2151,N,08051.4382,W,1,8,2.4,12,M,,M,,*5E
06/02/2014	11:01:15.618	$GPGGA,110116,2435.2177,N,08051.4379,W,1,8,2.4,12,M,,M,,*5D
06/02/2014	11:01:16.628	$GPGGA,110117,2435.2202,N,08051.4378,W,1,8,2.4,12,M,,M,,*5C
06/02/2014	11:01:17.518	$GPGGA,110118,2435.2227,N,08051.4383,W,1,8,2.4,12,M,,M,,*50
06/02/2014	11:01:18.608	$GPGGA,110119,2435.2253,N,08051.4386,W,1,8,2.4,12,M,,M,,*57
06/02/2014	11:01:19.548	$GPGGA,110120,2435.2281,N,08051.4387,W,1,8,2.4,12,M,,M,,*53
06/02/2014	11:01:20.517	$GPGGA,110121,2435.2307,N,08051.4389,W,1,8,2.4,12,M,,M,,*53
06/02/2014	11:01:21.597	$GPGGA,110122,2435.2335,N,08051.4393,W,1,8,2.4,12,M,,M,,*5A
06/02/2014	11:01:22.597	$GPGGA,110123,2435.2361,N,08051.4395,W,1,8,2.4,12,M,,M,,*5C
06/02/2014	11:01:23.607	$GPGGA,110124,2435.2388,N,08051.4397,W,1,8,2.4,12,M,,M,,*5E
06/02/2014	11:01:24.607	$GPGGA,110125,2435.2411,N,08051.4398,W,1,8,2.4,12,M,,M,,*57
06/02/2014	11:01:25.587	$GPGGA,110126,2435.2437,N,08051.4402,W,1,8,2.4,12,M,,M,,*54
06/02/2014	11:01:26.597	$GPGGA,110127,2435.2464,N,08051.4404,W,1,8,2.4,12,M,,M,,*55
06/02/2014	11:01:27.597	$GPGGA,110128,2435.2491,N,08051.4408,W,1,8,2.4,12,M,,M,,*5C
06/02/2014	11:01:28.577	$GPGGA,110129,2435.2516,N,08051.4411,W,1,7,2.4,12,M,,M,,*54
06/02/2014	11:01:29.587	$GPGGA,110130,2435.2544,N,08051.4413,W,1,7,2.4,12,M,,M,,*59
06/02/2014	11:01:30.597	$GPGGA,110131,2435.2570,N,08051.4416,W,1,8,2.4,12,M,,M,,*55
06/02/2014	11:01:31.577	$GPGGA,110132,2435.2596,N,08051.4419,W,1,8,2.4,12,M,,M,,*51
06/02/2014	11:01:32.587	$GPGGA,110133,2435.2623,N,08051.4422,W,1,8,2.4,12,M,,M,,*55
06/02/2014	11:01:33.577	$GPGGA,110134,2435.2649,N,08051.4426,W,1,8,2.4,12,M,,M,,*5A
06/02/2014	11:01:34.597	$GPGGA,110135,2435.2674,N,08051.4430,W,1,8,2.4,12,M,,M,,*52
06/02/2014	11:01:35.577	$GPGGA,110136,2435.2700,N,08051.4433,W,1,8,2.4,12,M,,M,,*50
06/02/2014	11:01:36.587	$GPGGA,110137,2435.2726,N,08051.4436,W,1,8,2.4,12,M,,M,,*50
06/02/2014	11:01:37.563	$GPGGA,110138,2435.2751,N,08051.4440,W,1,8,2.4,12,M,,M,,*5E
06/02/2014	11:01:38.586	$GPGGA,110139,2435.2776,N,08051.4444,W,1,8,2.4,12,M,,M,,*5E
06/02/2014	11:01:39.566	$GPGGA,110140,2435.2802,N,08051.4449,W,1,8,2.4,12,M,,M,,*51
06/02/2014	11:01:40.586	$GPGGA,110141,2435.2831,N,08051.4451,W,1,8,2.4,12,M,,M,,*59
06/02/2014	11:01:41.546	$GPGGA,110142,2435.2856,N,08051.4454,W,1,8,2.4,12,M,,M,,*5E
06/02/2014	11:01:42.566	$GPGGA,110143,2435.2881,N,08051.4460,W,1,8,2.4,12,M,,M,,*52
06/02/2014	11:01:43.566	$GPGGA,110144,2435.2906,N,08051.4463,W,1,8,2.4,12,M,,M,,*58
06/02/2014	11:01:44.586	$GPGGA,110145,2435.2932,N,08051.4463,W,1,8,2.4,12,M,,M,,*5E
06/02/2014	11:01:45.556	$GPGGA,110146,2435.2957,N,08051.4467,W,1,8,2.4,12,M,,M,,*5A
06/02/2014	11:01:46.546	$GPGGA,110147,2435.2982,N,08051.4473,W,1,8,2.4,12,M,,M,,*56
06/02/2014	11:01:47.546	$GPGGA,110148,2435.3008,N,08051.4476,W,1,8,2.4,12,M,,M,,*56
06/02/2014	11:01:48.536	$GPGGA,110149,2435.3035,N,08051.4476,W,1,8,2.4,12,M,,M,,*59
06/02/2014	11:01:49.536	$GPGGA,110150,2435.3060,N,08051.4480,W,1,8,2.4,12,M,,M,,*58
06/02/2014	11:01:50.546	$GPGGA,110151,2435.3086,N,08051.4485,W,1,8,2.4,12,M,,M,,*54
06/02/2014	11:01:51.556	$GPGGA,110152,2435.3112,N,08051.4488,W,1,8,2.4,12,M,,M,,*56
06/02/2014	11:01:52.556	$GPGGA,110153,2435.3137,N,08051.4492,W,1,8,2.4,12,M,,M,,*5B
06/02/2014	11:01:53.537	$GPGGA,110154,2435.3162,N,08051.4494,W,1,8,2.4,11,M,,M,,*59
06/02/2014	11:01:54.537	$GPGGA,110155,2435.3187,N,08051.4498,W,1,8,2.4,11,M,,M,,*5F
06/02/2014	11:01:55.535	$GPGGA,110156,2435.3210,N,08051.4502,W,1,8,2.4,11,M,,M,,*53
06/02/2014	11:01:56.535	$GPGGA,110157,2435.3235,N,08051.4505,W,1,8,2.4,11,M,,M,,*52
06/02/2014	11:01:57.525	$GPGGA,110158,2435.3261,N,08051.4509,W,1,8,2.4,11,M,,M,,*50
06/02/2014	11:01:58.655	$GPGGA,110159,2435.3288,N,08051.4512,W,1,8,2.4,11,M,,M,,*5C
06/02/2014	11:01:59.535	$GPGGA,110200,2435.3314,N,08051.4514,W,1,8,2.4,11,M,,M,,*51
06/02/2014	11:02:00.635	$GPGGA,110201,2435.3340,N,08051.4517,W,1,8,2.4,11,M,,M,,*52
06/02/2014	11:02:01.515	$GPGGA,110202,2435.3365,N,08051.4521,W,1,8,2.4,11,M,,M,,*53
06/02/2014	11:02:02.625	$GPGGA,110203,2435.3391,N,08051.4524,W,1,8,2.4,11,M,,M,,*5C
06/02/2014	11:02:03.525	$GPGGA,110204,2435.3416,N,08051.4525,W,1,8,2.4,11,M,,M,,*52
06/02/2014	11:02:04.605	$GPGGA,110205,2435.3443,N,08051.4527,W,1,8,2.4,11,M,,M,,*51
06/02/2014	11:02:05.506	$GPGGA,110206,2435.3467,N,08051.4530,W,1,8,2.4,11,M,,M,,*52
06/02/2014	11:02:06.505	$GPGGA,110207,2435.3495,N,08051.4531,W,1,8,2.4,11,M,,M,,*5F
06/02/2014	11:02:07.625	$GPGGA,110208,2435.3523,N,08051.4531,W,1,8,2.4,11,M,,M,,*5C
06/02/2014	11:02:08.635	$GPGGA,110209,2435.3549,N,08051.4532,W,1,8,2.4,11,M,,M,,*52
06/02/2014	11:02:09.595	$GPGGA,110210,2435.3575,N,08051.4538,W,1,8,2.4,11,M,,M,,*5F
06/02/2014	11:02:10.615	$GPGGA,110211,2435.3603,N,08051.4539,W,1,8,2.4,11,M,,M,,*5D
06/02/2014	11:02:11.605	$GPGGA,110212,2435.3628,N,08051.4536,W,1,8,2.4,11,M,,M,,*58
06/02/2014	11:02:12.605	$GPGGA,110213,2435.3651,N,08051.4538,W,1,8,2.4,11,M,,M,,*59
06/02/2014	11:02:13.584	$GPGGA,110214,2435.3676,N,08051.4541,W,1,8,2.4,11,M,,M,,*55
06/02/2014	11:02:14.584	$GPGGA,110215,2435.3703,N,08051.4540,W,1,8,2.4,11,M,,M,,*56
06/02/2014	11:02:15.584	$GPGGA,110216,2435.3727,N,08051.4541,W,1,8,2.4,11,M,,M,,*52
06/02/2014	11:02:16.604	$GPGGA,110217,2435.3752,N,08051.4545,W,1,8,2.4,11,M,,M,,*55
06/02/2014	11:02:17.574	$GPGGA,110218,2435.3781,N,08051.4544,W,1,8,2.4,11,M,,M,,*55
06/02/2014	11:02:18.584	$GPGGA,110219,2435.3806,N,08051.4546,W,1,8,2.4,12,M,,M,,*55
06/02/2014	11:02:19.584	$GPGGA,110220,2435.3831,N,08051.4550,W,1,8,2.4,12,M,,M,,*5C
06/02/2014	11:02:20.594	$GPGGA,110221,2435.3857,N,08051.4552,W,1,8,2.4,12,M,,M,,*5F
06/02/2014	11:02:21.574	$GPGGA,110222,2435.3884,N,08051.4551,W,1,8,2.4,12,M,,M,,*51
06/02/2014	11:02:22.584	$GPGGA,110223,2435.3907,N,08051.4553,W,1,8,2.4,12,M,,M,,*58
06/02/2014	11:02:23.574	$GPGGA,110224,2435.3932,N,08051.4556,W,1,8,2.4,12,M,,M,,*5C
06/02/2014	11:02:26.226	$GPGGA,110225,2435.3958,N,08051.4557,W,1,8,2.4,12,M,,M,,*50
06/02/2014	11:02:26.584	$GPGGA,110227,2435.4012,N,08051.4563,W,1,8,2.4,12,M,,M,,*55
06/02/2014	11:02:27.574	$GPGGA,110228,2435.4039,N,08051.4564,W,1,8,2.4,12,M,,M,,*54
06/02/2014	11:02:28.574	$GPGGA,110229,2435.4065,N,08051.4566,W,1,8,2.4,12,M,,M,,*5E
06/02/2014	11:02:29.544	$GPGGA,110230,2435.4090,N,08051.4568,W,1,8,2.4,12,M,,M,,*52
06/02/2014	11:02:30.543	$GPGGA,110231,2435.4116,N,08051.4570,W,1,8,2.4,12,M,,M,,*55
06/02/2014	11:02:31.553	$GPGGA,110232,2435.4142,N,08051.4570,W,1,8,2.4,12,M,,M,,*57
06/02/2014	11:02:32.533	$GPGGA,110233,2435.4167,N,08051.4574,W,1,8,2.4,12,M,,M,,*55
06/02/2014	11:02:33.533	$GPGGA,110234,2435.4193,N,08051.4579,W,1,8,2.4,12,M,,M,,*54
06/02/2014	11:02:34.543	$GPGGA,110235,2435.4221,N,08051.4579,W,1,8,2.4,12,M,,M,,*5F
06/02/2014	11:02:35.563	$GPGGA,110236,2435.4247,N,08051.4579,W,1,8,2.4,12,M,,M,,*5C
06/02/2014	11:02:36.643	$GPGGA,110237,2435.4272,N,08051.4585,W,1,8,2.4,12,M,,M,,*58
06/02/2014	11:02:37.523	$GPGGA,110238,2435.4294,N,08051.4589,W,1,8,2.4,12,M,,M,,*53
06/02/2014	11:02:38.653	$GPGGA,110239,2435.4321,N,08051.4587,W,1,8,2.4,12,M,,M,,*53
06/02/2014	11:02:39.553	$GPGGA,110240,2435.4346,N,08051.4586,W,1,8,2.4,12,M,,M,,*5D
06/02/2014	11:02:40.543	$GPGGA,110241,2435.4369,N,08051.4592,W,1,8,2.4,12,M,,M,,*54
06/02/2014	11:02:41.513	$GPGGA,110242,2435.4395,N,08051.4596,W,1,8,2.4,12,M,,M,,*50
06/02/2014	11:02:42.533	$GPGGA,110243,2435.4423,N,08051.4594,W,1,8,2.4,12,M,,M,,*59
06/02/2014	11:02:43.653	$GPGGA,110244,2435.4448,N,08051.4593,W,1,8,2.4,12,M,,M,,*54
06/02/2014	11:02:44.653	$GPGGA,110245,2435.4471,N,08051.4599,W,1,8,2.4,12,M,,M,,*55
06/02/2014	11:02:45.523	$GPGGA,110246,2435.4498,N,08051.4599,W,1,8,2.4,12,M,,M,,*51
06/02/2014	11:02:46.654	$GPGGA,110247,2435.4524,N,08051.4597,W,1,8,2.4,12,M,,M,,*58
06/02/2014	11:02:47.513	$GPGGA,110248,2435.4550,N,08051.4599,W,1,8,2.4,12,M,,M,,*5A
06/02/2014	11:02:48.502	$GPGGA,110249,2435.4576,N,08051.4602,W,1,8,2.4,12,M,,M,,*5E
06/02/2014	11:02:49.502	$GPGGA,110250,2435.4601,N,08051.4604,W,1,8,2.4,12,M,,M,,*53
06/02/2014	11:02:50.612	$GPGGA,110251,2435.4628,N,08051.4606,W,1,8,2.4,12,M,,M,,*5B
06/02/2014	11:02:51.632	$GPGGA,110252,2435.4654,N,08051.4603,W,1,8,2.4,12,M,,M,,*56
06/02/2014	11:02:52.602	$GPGGA,110253,2435.4680,N,08051.4607,W,1,8,2.4,12,M,,M,,*5A
06/02/2014	11:02:53.612	$GPGGA,110254,2435.4705,N,08051.4613,W,1,8,2.4,12,M,,M,,*54
06/02/2014	11:02:54.612	$GPGGA,110255,2435.4731,N,08051.4613,W,1,8,2.4,12,M,,M,,*52
06/02/2014	11:02:55.632	$GPGGA,110256,2435.4759,N,08051.4613,W,1,8,2.4,12,M,,M,,*5F
06/02/2014	11:02:56.582	$GPGGA,110257,2435.4784,N,08051.4617,W,1,8,2.4,12,M,,M,,*5A
06/02/2014	11:02:57.582	$GPGGA,110258,2435.4810,N,08051.4621,W,1,8,2.4,12,M,,M,,*52
06/02/2014	11:02:58.612	$GPGGA,110259,2435.4836,N,08051.4624,W,1,8,2.4,12,M,,M,,*52
06/02/2014	11:02:59.622	$GPGGA,110300,2435.4861,N,08051.4626,W,1,8,2.4,12,M,,M,,*5F
06/02/2014	11:03:00.612	$GPGGA,110301,2435.4886,N,08051.4629,W,1,8,2.4,12,M,,M,,*58
06/02/2014	11:03:01.582	$GPGGA,110302,2435.4912,N,08051.4632,W,1,8,2.4,12,M,,M,,*5D
06/02/2014	11:03:02.582	$GPGGA,110303,2435.4937,N,08051.4637,W,1,8,2.4,12,M,,M,,*5E
06/02/2014	11:03:03.592	$GPGGA,110304,2435.4964,N,08051.4642,W,1,8,2.4,12,M,,M,,*5D
06/02/2014	11:03:04.572	$GPGGA,110305,2435.4991,N,08051.4643,W,1,8,2.4,12,M,,M,,*57
06/02/2014	11:03:05.571	$GPGGA,110306,2435.5015,N,08051.4649,W,1,8,2.4,12,M,,M,,*5A
06/02/2014	11:03:06.561	$GPGGA,110307,2435.5041,N,08051.4654,W,1,8,2.4,12,M,,M,,*56
06/02/2014	11:03:07.581	$GPGGA,110308,2435.5067,N,08051.4658,W,1,8,2.4,12,M,,M,,*51
06/02/2014	11:03:08.571	$GPGGA,110309,2435.5092,N,08051.4661,W,1,8,2.4,12,M,,M,,*50
06/02/2014	11:03:09.571	$GPGGA,110310,2435.5118,N,08051.4665,W,1,8,2.4,12,M,,M,,*5F
06/02/2014	11:03:10.581	$GPGGA,110311,2435.5143,N,08051.4669,W,1,8,2.4,12,M,,M,,*5C
06/02/2014	11:03:11.581	$GPGGA,110312,2435.5168,N,08051.4673,W,1,8,2.4,12,M,,M,,*5D
06/02/2014	11:03:12.581	$GPGGA,110313,2435.5193,N,08051.4678,W,1,8,2.4,12,M,,M,,*53
06/02/2014	11:03:13.561	$GPGGA,110314,2435.5219,N,08051.4683,W,1,8,2.4,12,M,,M,,*51
06/02/2014	11:03:14.561	$GPGGA,110315,2435.5246,N,08051.4687,W,1,8,2.4,12,M,,M,,*5E
06/02/2014	11:03:15.551	$GPGGA,110316,2435.5272,N,08051.4691,W,1,8,2.4,12,M,,M,,*5D
06/02/2014	11:03:16.542	$GPGGA,110317,2435.5297,N,08051.4697,W,1,8,2.4,12,M,,M,,*51
06/02/2014	11:03:17.541	$GPGGA,110318,2435.5323,N,08051.4700,W,1,8,2.4,12,M,,M,,*5F
06/02/2014	11:03:18.551	$GPGGA,110319,2435.5347,N,08051.4705,W,1,8,2.4,12,M,,M,,*59
06/02/2014	11:03:19.561	$GPGGA,110320,2435.5372,N,08051.4711,W,1,8,2.4,12,M,,M,,*50
06/02/2014	11:03:20.571	$GPGGA,110321,2435.5398,N,08051.4712,W,1,8,2.4,12,M,,M,,*56
06/02/2014	11:03:21.541	$GPGGA,110322,2435.5423,N,08051.4715,W,1,8,2.4,12,M,,M,,*55
06/02/2014	11:03:22.551	$GPGGA,110323,2435.5448,N,08051.4722,W,1,8,2.4,11,M,,M,,*5E
06/02/2014	11:03:23.550	$GPGGA,110324,2435.5474,N,08051.4725,W,1,8,2.4,11,M,,M,,*51
06/02/2014	11:03:24.541	$GPGGA,110325,2435.5500,N,08051.4727,W,1,8,2.4,11,M,,M,,*50
06/02/2014	11:03:25.560	$GPGGA,110326,2435.5526,N,08051.4730,W,1,8,2.4,11,M,,M,,*51
06/02/2014	11:03:26.680	$GPGGA,110327,2435.5553,N,08051.4733,W,1,7,2.4,11,M,,M,,*5E
06/02/2014	11:03:27.550	$GPGGA,110328,2435.5578,N,08051.4736,W,1,7,2.4,11,M,,M,,*5D
06/02/2014	11:03:28.530	$GPGGA,110329,2435.5602,N,08051.4737,W,1,8,2.4,11,M,,M,,*5C
06/02/2014	11:03:29.510	$GPGGA,110330,2435.5629,N,08051.4736,W,1,8,2.4,11,M,,M,,*5C
06/02/2014	11:03:30.660	$GPGGA,110331,2435.5654,N,08051.4738,W,1,8,2.4,11,M,,M,,*59
06/02/2014	11:03:31.530	$GPGGA,110332,2435.5680,N,08051.4743,W,1,8,2.4,11,M,,M,,*5F
06/02/2014	11:03:32.510	$GPGGA,110333,2435.5706,N,08051.4743,W,1,8,2.4,11,M,,M,,*51
06/02/2014	11:03:33.690	$GPGGA,110334,2435.5732,N,08051.4744,W,1,8,2.4,11,M,,M,,*56
06/02/2014	11:03:34.510	$GPGGA,110335,2435.5757,N,08051.4745,W,1,8,2.4,11,M,,M,,*55
06/02/2014	11:03:35.680	$GPGGA,110336,2435.5784,N,08051.4747,W,1,8,2.4,11,M,,M,,*5A
06/02/2014	11:03:36.520	$GPGGA,110337,2435.5811,N,08051.4751,W,1,8,2.4,11,M,,M,,*5F
06/02/2014	11:03:37.590	$GPGGA,110338,2435.5837,N,08051.4752,W,1,8,2.4,11,M,,M,,*57
06/02/2014	11:03:38.600	$GPGGA,110339,2435.5865,N,08051.4752,W,1,8,2.4,11,M,,M,,*51
06/02/2014	11:03:39.680	$GPGGA,110340,2435.5891,N,08051.4754,W,1,8,2.4,11,M,,M,,*52
06/02/2014	11:03:40.679	$GPGGA,110341,2435.5916,N,08051.4756,W,1,8,2.4,11,M,,M,,*5F
06/02/2014	11:03:41.599	$GPGGA,110342,2435.5941,N,08051.4759,W,1,8,2.4,11,M,,M,,*51
06/02/2014	11:03:42.639	$GPGGA,110343,2435.5969,N,08051.4759,W,1,8,2.4,11,M,,M,,*5A
06/02/2014	11:03:43.699	$GPGGA,110344,2435.5995,N,08051.4758,W,1,8,2.4,11,M,,M,,*5F
06/02/2014	11:03:44.579	$GPGGA,110345,2435.6021,N,08051.4762,W,1,8,2.4,11,M,,M,,*52
06/02/2014	11:03:45.579	$GPGGA,110346,2435.6046,N,08051.4767,W,1,8,2.4,11,M,,M,,*55
06/02/2014	11:03:46.639	$GPGGA,110347,2435.6075,N,08051.4769,W,1,8,2.4,11,M,,M,,*5A
06/02/2014	11:03:47.669	$GPGGA,110348,2435.6102,N,08051.4766,W,1,8,2.4,11,M,,M,,*5B
06/02/2014	11:03:48.655	$GPGGA,110349,2435.6126,N,08051.4770,W,1,8,2.4,11,M,,M,,*5B
06/02/2014	11:03:49.639	$GPGGA,110350,2435.6153,N,08051.4774,W,1,8,2.4,11,M,,M,,*55
06/02/2014	11:03:50.609	$GPGGA,110351,2435.6180,N,08051.4773,W,1,8,2.4,11,M,,M,,*5D
06/02/2014	11:03:51.649	$GPGGA,110352,2435.6205,N,08051.4773,W,1,8,2.4,11,M,,M,,*50
06/02/2014	11:03:52.649	$GPGGA,110353,2435.6229,N,08051.4776,W,1,8,2.4,11,M,,M,,*5A
06/02/2014	11:03:53.649	$GPGGA,110354,2435.6255,N,08051.4780,W,1,8,2.4,11,M,,M,,*5F
06/02/2014	11:03:54.599	$GPGGA,110355,2435.6281,N,08051.4780,W,1,8,2.4,11,M,,M,,*57
06/02/2014	11:03:55.659	$GPGGA,110356,2435.6306,N,08051.4783,W,1,8,2.4,11,M,,M,,*59
06/02/2014	11:03:56.610	$GPGGA,110357,2435.6333,N,08051.4784,W,1,8,2.4,11,M,,M,,*59
06/02/2014	11:03:57.549	$GPGGA,110358,2435.6360,N,08051.4787,W,1,8,2.4,11,M,,M,,*53
06/02/2014	11:03:58.598	$GPGGA,110359,2435.6385,N,08051.4790,W,1,8,2.4,11,M,,M,,*5F
06/02/2014	11:03:59.648	$GPGGA,110400,2435.6411,N,08051.4791,W,1,8,2.4,11,M,,M,,*5F
06/02/2014	11:04:00.548	$GPGGA,110401,2435.6438,N,08051.4792,W,1,8,2.4,11,M,,M,,*56
06/02/2014	11:04:01.598	$GPGGA,110402,2435.6461,N,08051.4795,W,1,8,2.4,11,M,,M,,*5E
06/02/2014	11:04:02.568	$GPGGA,110403,2435.6486,N,08051.4798,W,1,8,2.4,11,M,,M,,*5B
06/02/2014	11:04:03.648	$GPGGA,110404,2435.6511,N,08051.4801,W,1,8,2.4,11,M,,M,,*5C
06/02/2014	11:04:04.568	$GPGGA,110405,2435.6537,N,08051.4802,W,1,8,2.4,11,M,,M,,*5A
06/02/2014	11:04:05.598	$GPGGA,110406,2435.6563,N,08051.4808,W,1,8,2.4,11,M,,M,,*52
06/02/2014	11:04:06.539	$GPGGA,110407,2435.6592,N,08051.4812,W,1,8,2.4,11,M,,M,,*56
06/02/2014	11:04:07.608	$GPGGA,110408,2435.6620,N,08051.4817,W,1,8,2.4,11,M,,M,,*56
06/02/2014	11:04:08.578	$GPGGA,110409,2435.6646,N,08051.4823,W,1,8,2.4,11,M,,M,,*50
06/02/2014	11:04:09.528	$GPGGA,110410,2435.6673,N,08051.4827,W,1,8,2.4,11,M,,M,,*5A
06/02/2014	11:04:10.528	$GPGGA,110411,2435.6696,N,08051.4828,W,1,8,2.4,11,M,,M,,*5F
06/02/2014	11:04:11.598	$GPGGA,110412,2435.6721,N,08051.4832,W,1,8,2.4,11,M,,M,,*5A
06/02/2014	11:04:12.556	$GPGGA,110413,2435.6746,N,08051.4837,W,1,8,2.4,11,M,,M,,*5F
06/02/2014	11:04:13.588	$GPGGA,110414,2435.6771,N,08051.4838,W,1,8,2.4,11,M,,M,,*53
06/02/2014	11:04:14.650	$GPGGA,110415,2435.6797,N,08051.4841,W,1,8,2.4,11,M,,M,,*54
06/02/2014	11:04:15.587	$GPGGA,110416,2435.6823,N,08051.4845,W,1,8,2.4,11,M,,M,,*53
06/02/2014	11:04:16.508	$GPGGA,110417,2435.6850,N,08051.4852,W,1,8,2.4,11,M,,M,,*50
06/02/2014	11:04:17.577	$GPGGA,110418,2435.6877,N,08051.4852,W,1,8,2.4,10,M,,M,,*5B
06/02/2014	11:04:18.567	$GPGGA,110419,2435.6902,N,08051.4855,W,1,8,2.4,10,M,,M,,*5E
06/02/2014	11:04:19.617	$GPGGA,110420,2435.6927,N,08051.4860,W,1,8,2.4,10,M,,M,,*55
06/02/2014	11:04:20.537	$GPGGA,110421,2435.6953,N,08051.4863,W,1,8,2.4,10,M,,M,,*54
06/02/2014	11:04:21.577	$GPGGA,110422,2435.6978,N,08051.4864,W,1,8,2.4,10,M,,M,,*59
06/02/2014	11:04:22.538	$GPGGA,110423,2435.7003,N,08051.4870,W,1,8,2.4,10,M,,M,,*59
06/02/2014	11:04:23.577	$GPGGA,110424,2435.7029,N,08051.4874,W,1,8,2.4,10,M,,M,,*52
06/02/2014	11:04:24.557	$GPGGA,110425,2435.7056,N,08051.4877,W,1,8,2.4,10,M,,M,,*58
06/02/2014	11:04:25.597	$GPGGA,110426,2435.7081,N,08051.4881,W,1,8,2.4,10,M,,M,,*58
06/02/2014	11:04:26.597	$GPGGA,110427,2435.7107,N,08051.4886,W,1,8,2.4,10,M,,M,,*51
06/02/2014	11:04:27.567	$GPGGA,110428,2435.7133,N,08051.4892,W,1,8,2.4,10,M,,M,,*5C
06/02/2014	11:04:28.647	$GPGGA,110429,2435.7158,N,08051.4892,W,1,8,2.4,10,M,,M,,*50
06/02/2014	11:04:29.587	$GPGGA,110430,2435.7184,N,08051.4893,W,1,8,2.4,10,M,,M,,*58
06/02/2014	11:04:30.597	$GPGGA,110431,2435.7208,N,08051.4899,W,1,8,2.4,10,M,,M,,*54
06/02/2014	11:04:31.597	$GPGGA,110432,2435.7233,N,08051.4902,W,1,8,2.4,10,M,,M,,*5C
06/02/2014	11:04:32.586	$GPGGA,110433,2435.7259,N,08051.4906,W,1,8,2.4,10,M,,M,,*55
06/02/2014	11:04:33.576	$GPGGA,110434,2435.7287,N,08051.4908,W,1,8,2.4,10,M,,M,,*5F
06/02/2014	11:04:34.596	$GPGGA,110435,2435.7313,N,08051.4910,W,1,8,2.4,10,M,,M,,*5B
06/02/2014	11:04:35.596	$GPGGA,110436,2435.7338,N,08051.4913,W,1,8,2.4,10,M,,M,,*52
06/02/2014	11:04:36.586	$GPGGA,110437,2435.7361,N,08051.4917,W,1,8,2.4,10,M,,M,,*5B
06/02/2014	11:04:37.586	$GPGGA,110438,2435.7385,N,08051.4917,W,1,8,2.4,10,M,,M,,*5E
06/02/2014	11:04:38.586	$GPGGA,110439,2435.7410,N,08051.4916,W,1,8,2.4,10,M,,M,,*55
06/02/2014	11:04:39.596	$GPGGA,110440,2435.7433,N,08051.4921,W,1,8,2.4,10,M,,M,,*5E
06/02/2014	11:04:40.596	$GPGGA,110441,2435.7458,N,08051.4924,W,1,8,2.4,10,M,,M,,*57
06/02/2014	11:04:41.596	$GPGGA,110442,2435.7487,N,08051.4924,W,1,8,2.4,10,M,,M,,*56
06/02/2014	11:04:42.596	$GPGGA,110443,2435.7513,N,08051.4928,W,1,8,2.4,10,M,,M,,*57
06/02/2014	11:04:43.606	$GPGGA,110444,2435.7538,N,08051.4931,W,1,8,2.4,10,M,,M,,*51
06/02/2014	11:04:44.606	$GPGGA,110445,2435.7566,N,08051.4932,W,1,8,2.4,10,M,,M,,*58
06/02/2014	11:04:45.566	$GPGGA,110446,2435.7566,N,08051.4932,W,1,8,2.4,10,M,,M,,*5B
06/02/2014	11:04:46.576	$GPGGA,110447,2435.7614,N,08051.4935,W,1,8,2.4,10,M,,M,,*5B
06/02/2014	11:04:47.596	$GPGGA,110448,2435.7639,N,08051.4936,W,1,8,2.4,10,M,,M,,*58
06/02/2014	11:04:48.566	$GPGGA,110449,2435.7664,N,08051.4938,W,1,8,2.4,10,M,,M,,*5F
06/02/2014	11:04:49.596	$GPGGA,110450,2435.7688,N,08051.4940,W,1,8,2.4,10,M,,M,,*5A
06/02/2014	11:04:50.555	$GPGGA,110451,2435.7715,N,08051.4942,W,1,8,2.4,10,M,,M,,*5C
06/02/2014	11:04:51.575	$GPGGA,110452,2435.7742,N,08051.4941,W,1,8,2.4,10,M,,M,,*5E
06/02/2014	11:04:52.545	$GPGGA,110453,2435.7768,N,08051.4944,W,1,8,2.4,10,M,,M,,*52
06/02/2014	11:04:53.565	$GPGGA,110454,2435.7768,N,08051.4944,W,1,8,2.4,10,M,,M,,*55
06/02/2014	11:04:54.535	$GPGGA,110455,2435.7820,N,08051.4945,W,1,8,2.4,10,M,,M,,*56
06/02/2014	11:04:55.575	$GPGGA,110456,2435.7820,N,08051.4945,W,1,8,2.4,10,M,,M,,*55
06/02/2014	11:04:56.525	$GPGGA,110457,2435.7870,N,08051.4950,W,1,8,2.4,10,M,,M,,*55
06/02/2014	11:04:57.555	$GPGGA,110458,2435.7870,N,08051.4950,W,1,8,2.4,10,M,,M,,*5A
06/02/2014	11:04:58.541	$GPGGA,110459,2435.7919,N,08051.4954,W,1,8,2.4,10,M,,M,,*51
06/02/2014	11:04:59.596	$GPGGA,110500,2435.7946,N,08051.4957,W,1,8,2.4,10,M,,M,,*55
06/02/2014	11:05:00.575	$GPGGA,110501,2435.7972,N,08051.4957,W,1,8,2.4,10,M,,M,,*53
06/02/2014	11:05:01.525	$GPGGA,110502,2435.7997,N,08051.4960,W,1,8,2.4,10,M,,M,,*5F
06/02/2014	11:05:02.516	$GPGGA,110503,2435.8024,N,08051.4964,W,1,8,2.4,10,M,,M,,*54
06/02/2014	11:05:03.536	$GPGGA,110504,2435.8050,N,08051.4964,W,1,8,2.4,10,M,,M,,*50
06/02/2014	11:05:04.506	$GPGGA,110505,2435.8076,N,08051.4965,W,1,8,2.4,10,M,,M,,*54
06/02/2014	11:05:05.626	$GPGGA,110506,2435.8101,N,08051.4971,W,1,8,2.4,10,M,,M,,*53
06/02/2014	11:05:06.526	$GPGGA,110507,2435.8126,N,08051.4971,W,1,7,2.4,10,M,,M,,*58
06/02/2014	11:05:07.616	$GPGGA,110508,2435.8152,N,08051.4973,W,1,7,2.4,10,M,,M,,*56
06/02/2014	11:05:08.516	$GPGGA,110509,2435.8177,N,08051.4975,W,1,8,2.4,10,M,,M,,*59
06/02/2014	11:05:09.516	$GPGGA,110510,2435.8177,N,08051.4975,W,1,8,2.4,10,M,,M,,*51
06/02/2014	11:05:10.627	$GPGGA,110511,2435.8228,N,08051.4979,W,1,8,2.4,10,M,,M,,*55
06/02/2014	11:05:11.626	$GPGGA,110512,2435.8255,N,08051.4983,W,1,8,2.4,10,M,,M,,*59
06/02/2014	11:05:12.507	$GPGGA,110513,2435.8281,N,08051.4986,W,1,8,2.4,10,M,,M,,*54
06/02/2014	11:05:13.607	$GPGGA,110514,2435.8307,N,08051.4989,W,1,8,2.4,10,M,,M,,*53
06/02/2014	11:05:14.618	$GPGGA,110515,2435.8333,N,08051.4991,W,1,8,2.4,10,M,,M,,*5C
06/02/2014	11:05:15.607	$GPGGA,110516,2435.8360,N,08051.4996,W,1,8,2.4,10,M,,M,,*5E
06/02/2014	11:05:16.627	$GPGGA,110517,2435.8387,N,08051.5000,W,1,8,2.4,10,M,,M,,*51
06/02/2014	11:05:17.598	$GPGGA,110518,2435.8412,N,08051.5001,W,1,8,2.4,10,M,,M,,*54
06/02/2014	11:05:18.638	$GPGGA,110519,2435.8438,N,08051.5004,W,1,8,2.4,10,M,,M,,*58
06/02/2014	11:05:19.588	$GPGGA,110520,2435.8463,N,08051.5007,W,1,8,2.4,10,M,,M,,*5F
06/02/2014	11:05:20.598	$GPGGA,110521,2435.8485,N,08051.5011,W,1,8,2.4,10,M,,M,,*51
06/02/2014	11:05:21.578	$GPGGA,110522,2435.8510,N,08051.5014,W,1,8,2.4,10,M,,M,,*5A
06/02/2014	11:05:22.599	$GPGGA,110523,2435.8534,N,08051.5016,W,1,8,2.4,10,M,,M,,*5F
06/02/2014	11:05:23.589	$GPGGA,110524,2435.8557,N,08051.5019,W,1,8,2.4,10,M,,M,,*52
06/02/2014	11:05:24.599	$GPGGA,110525,2435.8581,N,08051.5025,W,1,8,2.4,10,M,,M,,*57
06/02/2014	11:05:25.568	$GPGGA,110526,2435.8603,N,08051.5032,W,1,8,2.4,10,M,,M,,*5B
06/02/2014	11:05:26.568	$GPGGA,110527,2435.8625,N,08051.5033,W,1,8,2.4,10,M,,M,,*5F
06/02/2014	11:05:27.589	$GPGGA,110528,2435.8649,N,08051.5036,W,1,8,2.4,10,M,,M,,*5F
06/02/2014	11:05:28.559	$GPGGA,110529,2435.8668,N,08051.5041,W,1,8,2.4,10,M,,M,,*5D
06/02/2014	11:05:29.569	$GPGGA,110530,2435.8687,N,08051.5047,W,1,8,2.4,10,M,,M,,*52
06/02/2014	11:05:30.589	$GPGGA,110531,2435.8708,N,08051.5051,W,1,8,2.4,10,M,,M,,*52
06/02/2014	11:05:31.579	$GPGGA,110532,2435.8727,N,08051.5052,W,1,8,2.4,10,M,,M,,*5F
06/02/2014	11:05:32.580	$GPGGA,110533,2435.8747,N,08051.5059,W,1,8,2.4,10,M,,M,,*53
06/02/2014	11:05:33.560	$GPGGA,110534,2435.8765,N,08051.5066,W,1,8,2.4,10,M,,M,,*58
06/02/2014	11:05:34.550	$GPGGA,110535,2435.8784,N,08051.5072,W,1,8,2.4,10,M,,M,,*53
06/02/2014	11:05:35.580	$GPGGA,110536,2435.8802,N,08051.5076,W,1,8,2.4,10,M,,M,,*55
06/02/2014	11:05:36.550	$GPGGA,110537,2435.8820,N,08051.5083,W,1,8,2.4,10,M,,M,,*5E
06/02/2014	11:05:37.561	$GPGGA,110538,2435.8837,N,08051.5090,W,1,8,2.4,10,M,,M,,*55
06/02/2014	11:05:38.541	$GPGGA,110539,2435.8853,N,08051.5098,W,1,8,2.4,10,M,,M,,*5E
06/02/2014	11:05:39.571	$GPGGA,110540,2435.8870,N,08051.5105,W,1,8,2.4,10,M,,M,,*54
06/02/2014	11:05:40.571	$GPGGA,110541,2435.8886,N,08051.5109,W,1,8,2.4,10,M,,M,,*50
06/02/2014	11:05:41.531	$GPGGA,110542,2435.8902,N,08051.5117,W,1,8,2.4,10,M,,M,,*51
06/02/2014	11:05:42.561	$GPGGA,110543,2435.8915,N,08051.5127,W,1,8,2.4,10,M,,M,,*55
06/02/2014	11:05:43.551	$GPGGA,110544,2435.8932,N,08051.5135,W,1,8,2.4,10,M,,M,,*54
06/02/2014	11:05:44.531	$GPGGA,110545,2435.8947,N,08051.5145,W,1,8,2.4,10,M,,M,,*50
06/02/2014	11:05:45.651	$GPGGA,110546,2435.8960,N,08051.5155,W,1,8,2.4,10,M,,M,,*57
06/02/2014	11:05:46.551	$GPGGA,110547,2435.8972,N,08051.5164,W,1,8,2.4,10,M,,M,,*57
06/02/2014	11:05:47.542	$GPGGA,110548,2435.8985,N,08051.5171,W,1,8,2.4,10,M,,M,,*54
06/02/2014	11:05:48.532	$GPGGA,110549,2435.8997,N,08051.5182,W,1,8,2.4,10,M,,M,,*5A
06/02/2014	11:05:49.622	$GPGGA,110550,2435.9007,N,08051.5193,W,1,8,2.4,10,M,,M,,*53
06/02/2014	11:05:50.522	$GPGGA,110551,2435.9019,N,08051.5204,W,1,8,2.4,10,M,,M,,*50
06/02/2014	11:05:51.652	$GPGGA,110552,2435.9032,N,08051.5217,W,1,8,2.4,10,M,,M,,*58
06/02/2014	11:05:52.543	$GPGGA,110553,2435.9040,N,08051.5228,W,1,8,2.4,10,M,,M,,*50
06/02/2014	11:05:53.513	$GPGGA,110554,2435.9050,N,08051.5238,W,1,8,2.4,10,M,,M,,*57
06/02/2014	11:05:54.613	$GPGGA,110555,2435.9059,N,08051.5249,W,1,8,2.4,10,M,,M,,*59
06/02/2014	11:05:55.543	$GPGGA,110556,2435.9065,N,08051.5260,W,1,8,2.4,10,M,,M,,*5E
06/02/2014	11:05:56.513	$GPGGA,110557,2435.9073,N,08051.5271,W,1,8,2.4,10,M,,M,,*58
06/02/2014	11:05:57.524	$GPGGA,110558,2435.9083,N,08051.5283,W,1,8,2.4,10,M,,M,,*55
06/02/2014	11:05:58.664	$GPGGA,110559,2435.9090,N,08051.5296,W,1,8,2.4,10,M,,M,,*52
06/02/2014	11:05:59.544	$GPGGA,110600,2435.9095,N,08051.5309,W,1,8,2.4,10,M,,M,,*5F
06/02/2014	11:06:00.613	$GPGGA,110601,2435.9102,N,08051.5322,W,1,8,2.4,10,M,,M,,*58
06/02/2014	11:06:01.603	$GPGGA,110602,2435.9109,N,08051.5333,W,1,8,2.4,10,M,,M,,*50
06/02/2014	11:06:02.624	$GPGGA,110603,2435.9113,N,08051.5344,W,1,8,2.4,10,M,,M,,*5A
06/02/2014	11:06:03.614	$GPGGA,110604,2435.9119,N,08051.5357,W,1,8,2.4,10,M,,M,,*55
06/02/2014	11:06:04.604	$GPGGA,110605,2435.9124,N,08051.5369,W,1,8,2.4,10,M,,M,,*57
06/02/2014	11:06:05.604	$GPGGA,110606,2435.9128,N,08051.5386,W,1,8,2.5,10,M,,M,,*58
06/02/2014	11:06:06.604	$GPGGA,110607,2435.9133,N,08051.5401,W,1,8,2.4,10,M,,M,,*5A
06/02/2014	11:06:07.615	$GPGGA,110608,2435.9137,N,08051.5415,W,1,8,2.4,10,M,,M,,*54
06/02/2014	11:06:08.615	$GPGGA,110609,2435.9141,N,08051.5430,W,1,8,2.4,11,M,,M,,*52
06/02/2014	11:06:09.585	$GPGGA,110610,2435.9144,N,08051.5444,W,1,8,2.4,11,M,,M,,*5C
06/02/2014	11:06:10.595	$GPGGA,110611,2435.9146,N,08051.5457,W,1,8,2.4,11,M,,M,,*5D
06/02/2014	11:06:11.595	$GPGGA,110612,2435.9149,N,08051.5471,W,1,8,2.4,11,M,,M,,*55
06/02/2014	11:06:12.596	$GPGGA,110613,2435.9153,N,08051.5486,W,1,8,2.4,11,M,,M,,*57
06/02/2014	11:06:13.586	$GPGGA,110614,2435.9155,N,08051.5502,W,1,8,2.4,11,M,,M,,*5B
06/02/2014	11:06:14.597	$GPGGA,110615,2435.9159,N,08051.5517,W,1,8,2.4,11,M,,M,,*52
06/02/2014	11:06:15.586	$GPGGA,110616,2435.9160,N,08051.5531,W,1,8,2.4,11,M,,M,,*5F
06/02/2014	11:06:16.606	$GPGGA,110617,2435.9163,N,08051.5546,W,1,8,2.4,12,M,,M,,*5E
06/02/2014	11:06:17.566	$GPGGA,110618,2435.9164,N,08051.5561,W,1,8,2.4,12,M,,M,,*53
06/02/2014	11:06:18.566	$GPGGA,110619,2435.9167,N,08051.5575,W,1,8,2.4,12,M,,M,,*54
06/02/2014	11:06:19.586	$GPGGA,110620,2435.9170,N,08051.5589,W,1,8,2.4,12,M,,M,,*5B
06/02/2014	11:06:20.566	$GPGGA,110621,2435.9171,N,08051.5603,W,1,8,2.4,12,M,,M,,*5A
06/02/2014	11:06:21.562	$GPGGA,110622,2435.9173,N,08051.5614,W,1,8,2.4,12,M,,M,,*5D
06/02/2014	11:06:22.597	$GPGGA,110623,2435.9175,N,08051.5628,W,1,7,3.0,12,M,,M,,*5F
06/02/2014	11:06:23.577	$GPGGA,110624,2435.9177,N,08051.5641,W,1,7,3.0,12,M,,M,,*55
06/02/2014	11:06:24.587	$GPGGA,110625,2435.9178,N,08051.5654,W,1,7,3.0,13,M,,M,,*5E
06/02/2014	11:06:25.547	$GPGGA,110626,2435.9182,N,08051.5668,W,1,7,2.4,13,M,,M,,*52
06/02/2014	11:06:26.547	$GPGGA,110627,2435.9184,N,08051.5683,W,1,8,2.4,13,M,,M,,*5F
06/02/2014	11:06:27.578	$GPGGA,110628,2435.9185,N,08051.5695,W,1,8,2.4,13,M,,M,,*56
06/02/2014	11:06:28.578	$GPGGA,110629,2435.9185,N,08051.5708,W,1,8,2.4,13,M,,M,,*52
06/02/2014	11:06:29.538	$GPGGA,110630,2435.9189,N,08051.5719,W,1,8,2.4,14,M,,M,,*51
06/02/2014	11:06:30.578	$GPGGA,110631,2435.9189,N,08051.5730,W,1,8,2.4,14,M,,M,,*5B
06/02/2014	11:06:31.668	$GPGGA,110632,2435.9191,N,08051.5744,W,1,8,2.4,14,M,,M,,*52
06/02/2014	11:06:32.551	$GPGGA,110633,2435.9192,N,08051.5760,W,1,8,2.4,14,M,,M,,*56
06/02/2014	11:06:33.539	$GPGGA,110634,2435.9193,N,08051.5774,W,1,8,3.0,15,M,,M,,*51
06/02/2014	11:06:34.549	$GPGGA,110635,2435.9195,N,08051.5789,W,1,8,2.4,15,M,,M,,*51
06/02/2014	11:06:35.658	$GPGGA,110636,2435.9196,N,08051.5802,W,1,8,2.4,15,M,,M,,*5D
06/02/2014	11:06:36.538	$GPGGA,110637,2435.9198,N,08051.5814,W,1,8,2.4,15,M,,M,,*55
06/02/2014	11:06:37.539	$GPGGA,110638,2435.9200,N,08051.5824,W,1,8,2.4,16,M,,M,,*58
06/02/2014	11:06:38.530	$GPGGA,110639,2435.9202,N,08051.5836,W,1,8,2.4,16,M,,M,,*58
06/02/2014	11:06:39.529	$GPGGA,110640,2435.9204,N,08051.5850,W,1,8,2.4,16,M,,M,,*50
06/02/2014	11:06:40.519	$GPGGA,110641,2435.9207,N,08051.5867,W,1,8,2.4,16,M,,M,,*56
06/02/2014	11:06:41.619	$GPGGA,110642,2435.9209,N,08051.5882,W,1,8,2.4,16,M,,M,,*50
06/02/2014	11:06:42.640	$GPGGA,110643,2435.9211,N,08051.5896,W,1,8,2.4,17,M,,M,,*5C
06/02/2014	11:06:43.540	$GPGGA,110644,2435.9213,N,08051.5910,W,1,8,2.4,17,M,,M,,*56
06/02/2014	11:06:44.530	$GPGGA,110645,2435.9216,N,08051.5921,W,1,8,2.4,17,M,,M,,*50
06/02/2014	11:06:45.520	$GPGGA,110646,2435.9217,N,08051.5932,W,1,8,2.4,17,M,,M,,*50
06/02/2014	11:06:46.610	$GPGGA,110647,2435.9218,N,08051.5943,W,1,8,2.4,17,M,,M,,*58
06/02/2014	11:06:47.621	$GPGGA,110648,2435.9221,N,08051.5957,W,1,8,2.4,17,M,,M,,*58
06/02/2014	11:06:48.631	$GPGGA,110649,2435.9222,N,08051.5970,W,1,8,2.4,17,M,,M,,*5F
06/02/2014	11:06:49.611	$GPGGA,110650,2435.9224,N,08051.5986,W,1,8,2.4,18,M,,M,,*57
06/02/2014	11:06:50.621	$GPGGA,110651,2435.9227,N,08051.6001,W,1,8,2.4,18,M,,M,,*50
06/02/2014	11:06:51.611	$GPGGA,110652,2435.9229,N,08051.6013,W,1,8,2.4,18,M,,M,,*5E
06/02/2014	11:06:52.631	$GPGGA,110653,2435.9229,N,08051.6026,W,1,8,2.4,18,M,,M,,*59
06/02/2014	11:06:53.611	$GPGGA,110654,2435.9232,N,08051.6037,W,1,8,2.4,18,M,,M,,*54
06/02/2014	11:06:54.621	$GPGGA,110655,2435.9235,N,08051.6049,W,1,8,2.4,18,M,,M,,*5B
06/02/2014	11:06:55.611	$GPGGA,110656,2435.9236,N,08051.6062,W,1,8,2.4,18,M,,M,,*52
06/02/2014	11:06:56.611	$GPGGA,110657,2435.9238,N,08051.6076,W,1,8,2.4,18,M,,M,,*58
06/02/2014	11:06:57.592	$GPGGA,110658,2435.9239,N,08051.6091,W,1,8,2.4,18,M,,M,,*5F
06/02/2014	11:06:58.632	$GPGGA,110659,2435.9240,N,08051.6105,W,1,8,2.4,18,M,,M,,*5C
06/02/2014	11:06:59.612	$GPGGA,110700,2435.9243,N,08051.6117,W,1,8,2.4,18,M,,M,,*51
06/02/2014	11:07:00.612	$GPGGA,110701,2435.9243,N,08051.6129,W,1,8,2.4,19,M,,M,,*5C
06/02/2014	11:07:01.572	$GPGGA,110702,2435.9246,N,08051.6142,W,1,8,2.4,19,M,,M,,*57
06/02/2014	11:07:02.573	$GPGGA,110703,2435.9247,N,08051.6156,W,1,8,2.4,19,M,,M,,*52
06/02/2014	11:07:03.593	$GPGGA,110704,2435.9249,N,08051.6170,W,1,8,2.4,19,M,,M,,*5F
06/02/2014	11:07:04.573	$GPGGA,110705,2435.9251,N,08051.6183,W,1,8,2.4,19,M,,M,,*5B
06/02/2014	11:07:05.583	$GPGGA,110706,2435.9253,N,08051.6197,W,1,8,2.4,19,M,,M,,*5F
06/02/2014	11:07:06.563	$GPGGA,110707,2435.9252,N,08051.6210,W,1,8,2.4,19,M,,M,,*53
06/02/2014	11:07:07.594	$GPGGA,110708,2435.9256,N,08051.6223,W,1,8,2.4,19,M,,M,,*58
06/02/2014	11:07:08.604	$GPGGA,110709,2435.9257,N,08051.6236,W,1,8,2.4,19,M,,M,,*5C
06/02/2014	11:07:09.555	$GPGGA,110710,2435.9258,N,08051.6250,W,1,8,2.4,19,M,,M,,*5B
06/02/2014	11:07:10.573	$GPGGA,110711,2435.9260,N,08051.6262,W,1,8,2.4,19,M,,M,,*50
06/02/2014	11:07:11.583	$GPGGA,110712,2435.9261,N,08051.6275,W,1,8,2.4,19,M,,M,,*54
06/02/2014	11:07:12.554	$GPGGA,110713,2435.9261,N,08051.6288,W,1,8,2.4,18,M,,M,,*56
06/02/2014	11:07:13.574	$GPGGA,110714,2435.9263,N,08051.6301,W,1,8,2.4,18,M,,M,,*53
06/02/2014	11:07:14.584	$GPGGA,110715,2435.9265,N,08051.6312,W,1,8,2.4,18,M,,M,,*56
06/02/2014	11:07:15.574	$GPGGA,110716,2435.9265,N,08051.6326,W,1,8,2.4,18,M,,M,,*52
06/02/2014	11:07:16.584	$GPGGA,110717,2435.9268,N,08051.6340,W,1,8,2.4,18,M,,M,,*5E
06/02/2014	11:07:17.565	$GPGGA,110718,2435.9268,N,08051.6352,W,1,8,2.4,18,M,,M,,*52
06/02/2014	11:07:18.545	$GPGGA,110719,2435.9269,N,08051.6366,W,1,8,2.4,18,M,,M,,*55
06/02/2014	11:07:19.675	$GPGGA,110720,2435.9271,N,08051.6378,W,1,8,2.4,18,M,,M,,*59
06/02/2014	11:07:20.545	$GPGGA,110721,2435.9272,N,08051.6391,W,1,8,2.4,18,M,,M,,*5C
06/02/2014	11:07:21.535	$GPGGA,110722,2435.9275,N,08051.6403,W,1,8,2.4,18,M,,M,,*54
06/02/2014	11:07:22.536	$GPGGA,110723,2435.9274,N,08051.6416,W,1,8,2.4,18,M,,M,,*50
06/02/2014	11:07:23.566	$GPGGA,110724,2435.9276,N,08051.6428,W,1,8,2.4,18,M,,M,,*58
06/02/2014	11:07:24.526	$GPGGA,110725,2435.9278,N,08051.6441,W,1,8,2.4,18,M,,M,,*58
06/02/2014	11:07:25.546	$GPGGA,110726,2435.9279,N,08051.6456,W,1,8,2.4,18,M,,M,,*5C
06/02/2014	11:07:26.526	$GPGGA,110727,2435.9279,N,08051.6468,W,1,8,2.4,18,M,,M,,*50
06/02/2014	11:07:27.556	$GPGGA,110728,2435.9282,N,08051.6482,W,1,8,2.4,17,M,,M,,*50
06/02/2014	11:07:28.536	$GPGGA,110729,2435.9283,N,08051.6496,W,1,8,2.4,17,M,,M,,*55
06/02/2014	11:07:29.619	$GPGGA,110730,2435.9286,N,08051.6507,W,1,8,2.4,17,M,,M,,*51
06/02/2014	11:07:30.619	$GPGGA,110731,2435.9286,N,08051.6519,W,1,8,2.4,17,M,,M,,*5F
06/02/2014	11:07:31.529	$GPGGA,110732,2435.9287,N,08051.6532,W,1,8,3.0,17,M,,M,,*51
06/02/2014	11:07:32.509	$GPGGA,110733,2435.9289,N,08051.6546,W,1,8,2.4,17,M,,M,,*58
06/02/2014	11:07:33.599	$GPGGA,110734,2435.9290,N,08051.6557,W,1,8,2.4,17,M,,M,,*57
06/02/2014	11:07:34.620	$GPGGA,110735,2435.9294,N,08051.6571,W,1,8,2.4,17,M,,M,,*56
06/02/2014	11:07:35.610	$GPGGA,110736,2435.9296,N,08051.6582,W,1,8,2.4,17,M,,M,,*5B
06/02/2014	11:07:36.620	$GPGGA,110737,2435.9297,N,08051.6594,W,1,8,2.4,17,M,,M,,*5C
06/02/2014	11:07:37.600	$GPGGA,110738,2435.9299,N,08051.6604,W,1,8,2.4,17,M,,M,,*57
06/02/2014	11:07:38.650	$GPGGA,110739,2435.9300,N,08051.6616,W,1,8,2.4,17,M,,M,,*54
06/02/2014	11:07:39.601	$GPGGA,110740,2435.9304,N,08051.6627,W,1,8,2.4,17,M,,M,,*5C
06/02/2014	11:07:40.601	$GPGGA,110741,2435.9305,N,08051.6640,W,1,8,2.4,17,M,,M,,*5D
06/02/2014	11:07:41.591	$GPGGA,110742,2435.9307,N,08051.6651,W,1,8,2.4,17,M,,M,,*5C
06/02/2014	11:07:42.601	$GPGGA,110743,2435.9308,N,08051.6665,W,1,8,2.4,17,M,,M,,*55
06/02/2014	11:07:43.611	$GPGGA,110744,2435.9310,N,08051.6677,W,1,8,2.4,17,M,,M,,*58
06/02/2014	11:07:44.602	$GPGGA,110745,2435.9311,N,08051.6691,W,1,8,2.4,17,M,,M,,*50
06/02/2014	11:07:45.581	$GPGGA,110746,2435.9312,N,08051.6703,W,1,8,2.4,17,M,,M,,*5A
06/02/2014	11:07:46.601	$GPGGA,110747,2435.9314,N,08051.6716,W,1,8,2.4,17,M,,M,,*59
06/02/2014	11:07:47.591	$GPGGA,110748,2435.9315,N,08051.6730,W,1,8,2.4,17,M,,M,,*53
06/02/2014	11:07:48.601	$GPGGA,110749,2435.9316,N,08051.6741,W,1,8,2.4,17,M,,M,,*57
06/02/2014	11:07:49.572	$GPGGA,110750,2435.9319,N,08051.6754,W,1,8,2.4,17,M,,M,,*54
06/02/2014	11:07:50.602	$GPGGA,110751,2435.9321,N,08051.6767,W,1,8,2.4,17,M,,M,,*5E
06/02/2014	11:07:51.582	$GPGGA,110752,2435.9323,N,08051.6782,W,1,8,2.4,17,M,,M,,*54
06/02/2014	11:07:52.572	$GPGGA,110753,2435.9323,N,08051.6796,W,1,8,2.4,17,M,,M,,*50
06/02/2014	11:07:53.582	$GPGGA,110754,2435.9323,N,08051.6810,W,1,8,2.4,17,M,,M,,*56
06/02/2014	11:07:54.593	$GPGGA,110755,2435.9326,N,08051.6822,W,1,8,2.4,17,M,,M,,*53
06/02/2014	11:07:55.563	$GPGGA,110756,2435.9330,N,08051.6835,W,1,8,2.4,17,M,,M,,*51
06/02/2014	11:07:56.563	$GPGGA,110757,2435.9332,N,08051.6847,W,1,8,2.4,17,M,,M,,*57
06/02/2014	11:07:57.563	$GPGGA,110758,2435.9331,N,08051.6861,W,1,8,2.4,17,M,,M,,*5F
06/02/2014	11:07:58.563	$GPGGA,110759,2435.9333,N,08051.6875,W,1,8,2.3,17,M,,M,,*5E
06/02/2014	11:07:59.584	$GPGGA,110800,2435.9334,N,08051.6889,W,1,8,2.3,17,M,,M,,*59
06/02/2014	11:08:00.564	$GPGGA,110801,2435.9336,N,08051.6902,W,1,8,2.3,17,M,,M,,*58
06/02/2014	11:08:01.555	$GPGGA,110802,2435.9337,N,08051.6915,W,1,8,2.3,17,M,,M,,*5C
06/02/2014	11:08:02.553	$GPGGA,110803,2435.9339,N,08051.6929,W,1,8,2.3,17,M,,M,,*5C
06/02/2014	11:08:03.673	$GPGGA,110804,2435.9340,N,08051.6941,W,1,8,2.4,17,M,,M,,*5C
06/02/2014	11:08:04.564	$GPGGA,110805,2435.9341,N,08051.6954,W,1,8,2.4,17,M,,M,,*58
06/02/2014	11:08:05.534	$GPGGA,110806,2435.9343,N,08051.6965,W,1,8,2.4,17,M,,M,,*5B
06/02/2014	11:08:06.564	$GPGGA,110807,2435.9344,N,08051.6977,W,1,8,2.4,17,M,,M,,*5E
06/02/2014	11:08:07.544	$GPGGA,110808,2435.9344,N,08051.6990,W,1,8,2.4,17,M,,M,,*58
06/02/2014	11:08:08.534	$GPGGA,110809,2435.9347,N,08051.6996,W,1,7,3.0,17,M,,M,,*56
06/02/2014	11:08:09.535	$GPGGA,110810,2435.9348,N,08051.7005,W,1,7,2.4,17,M,,M,,*56
06/02/2014	11:08:10.535	$GPGGA,110811,2435.9351,N,08051.7014,W,1,8,2.3,17,M,,M,,*57
06/02/2014	11:08:11.575	$GPGGA,110812,2435.9352,N,08051.7023,W,1,8,2.3,17,M,,M,,*53
06/02/2014	11:08:12.545	$GPGGA,110813,2435.9355,N,08051.7030,W,1,8,2.3,17,M,,M,,*57
06/02/2014	11:08:13.625	$GPGGA,110814,2435.9357,N,08051.7038,W,1,8,2.3,17,M,,M,,*5A
06/02/2014	11:08:14.516	$GPGGA,110815,2435.9359,N,08051.7046,W,1,8,2.3,17,M,,M,,*5C
06/02/2014	11:08:15.536	$GPGGA,110816,2435.9361,N,08051.7055,W,1,8,2.3,17,M,,M,,*56
06/02/2014	11:08:16.526	$GPGGA,110817,2435.9362,N,08051.7063,W,1,8,2.3,17,M,,M,,*51
06/02/2014	11:08:17.676	$GPGGA,110818,2435.9366,N,08051.7071,W,1,8,2.3,17,M,,M,,*59
06/02/2014	11:08:18.656	$GPGGA,110819,2435.9369,N,08051.7077,W,1,8,2.3,17,M,,M,,*51
06/02/2014	11:08:19.637	$GPGGA,110820,2435.9370,N,08051.7084,W,1,8,2.3,17,M,,M,,*5F
06/02/2014	11:08:20.636	$GPGGA,110821,2435.9373,N,08051.7088,W,1,8,2.3,17,M,,M,,*51
06/02/2014	11:08:21.626	$GPGGA,110822,2435.9376,N,08051.7095,W,1,8,2.3,17,M,,M,,*5B
06/02/2014	11:08:22.606	$GPGGA,110823,2435.9379,N,08051.7102,W,1,8,2.3,17,M,,M,,*5A
06/02/2014	11:08:23.646	$GPGGA,110824,2435.9381,N,08051.7107,W,1,8,2.3,17,M,,M,,*5F
06/02/2014	11:08:24.627	$GPGGA,110825,2435.9384,N,08051.7113,W,1,8,2.3,17,M,,M,,*5E
06/02/2014	11:08:25.597	$GPGGA,110826,2435.9387,N,08051.7117,W,1,8,3.0,17,M,,M,,*58
06/02/2014	11:08:26.597	$GPGGA,110827,2435.9390,N,08051.7121,W,1,7,2.3,17,M,,M,,*57
06/02/2014	11:08:27.607	$GPGGA,110828,2435.9391,N,08051.7125,W,1,7,2.3,17,M,,M,,*5D
06/02/2014	11:08:28.627	$GPGGA,110829,2435.9395,N,08051.7131,W,1,8,2.3,17,M,,M,,*52
06/02/2014	11:08:29.598	$GPGGA,110830,2435.9398,N,08051.7135,W,1,8,2.3,17,M,,M,,*53
06/02/2014	11:08:30.618	$GPGGA,110831,2435.9401,N,08051.7139,W,1,8,2.3,17,M,,M,,*59
06/02/2014	11:08:31.608	$GPGGA,110832,2435.9402,N,08051.7142,W,1,8,2.3,17,M,,M,,*55
06/02/2014	11:08:32.608	$GPGGA,110833,2435.9406,N,08051.7146,W,1,8,2.3,17,M,,M,,*54
06/02/2014	11:08:33.578	$GPGGA,110834,2435.9409,N,08051.7149,W,1,8,2.3,17,M,,M,,*53
06/02/2014	11:08:34.579	$GPGGA,110835,2435.9412,N,08051.7151,W,1,8,2.3,16,M,,M,,*50
06/02/2014	11:08:35.589	$GPGGA,110836,2435.9413,N,08051.7153,W,1,8,2.3,16,M,,M,,*50
06/02/2014	11:08:36.609	$GPGGA,110837,2435.9417,N,08051.7157,W,1,8,2.3,16,M,,M,,*51
06/02/2014	11:08:37.588	$GPGGA,110838,2435.9420,N,08051.7160,W,1,8,2.3,16,M,,M,,*5E
06/02/2014	11:08:38.618	$GPGGA,110839,2435.9422,N,08051.7164,W,1,8,2.3,16,M,,M,,*59
06/02/2014	11:08:39.599	$GPGGA,110840,2435.9424,N,08051.7165,W,1,8,2.3,16,M,,M,,*50
06/02/2014	11:08:40.599	$GPGGA,110841,2435.9427,N,08051.7168,W,1,8,2.3,16,M,,M,,*5F
06/02/2014	11:08:41.579	$GPGGA,110842,2435.9430,N,08051.7169,W,1,8,2.3,16,M,,M,,*5B
06/02/2014	11:08:42.589	$GPGGA,110843,2435.9433,N,08051.7171,W,1,8,2.3,16,M,,M,,*50
06/02/2014	11:08:43.609	$GPGGA,110844,2435.9435,N,08051.7173,W,1,8,2.3,16,M,,M,,*53
06/02/2014	11:08:44.590	$GPGGA,110845,2435.9438,N,08051.7175,W,1,8,2.3,16,M,,M,,*59
06/02/2014	11:08:45.570	$GPGGA,110846,2435.9441,N,08051.7176,W,1,8,2.3,16,M,,M,,*57
06/02/2014	11:08:46.580	$GPGGA,110847,2435.9444,N,08051.7178,W,1,8,2.3,16,M,,M,,*5D
06/02/2014	11:08:47.570	$GPGGA,110848,2435.9445,N,08051.7178,W,1,8,2.3,16,M,,M,,*53
06/02/2014	11:08:48.590	$GPGGA,110849,2435.9448,N,08051.7180,W,1,8,2.3,16,M,,M,,*58
06/02/2014	11:08:49.671	$GPGGA,110850,2435.9452,N,08051.7182,W,1,8,2.3,16,M,,M,,*59
06/02/2014	11:08:50.591	$GPGGA,110851,2435.9453,N,08051.7184,W,1,8,2.3,16,M,,M,,*5F
06/02/2014	11:08:51.591	$GPGGA,110852,2435.9456,N,08051.7186,W,1,8,2.3,16,M,,M,,*5B
06/02/2014	11:08:52.561	$GPGGA,110853,2435.9459,N,08051.7186,W,1,8,2.3,15,M,,M,,*56
06/02/2014	11:08:53.662	$GPGGA,110854,2435.9462,N,08051.7187,W,1,8,2.3,15,M,,M,,*58
06/02/2014	11:08:54.543	$GPGGA,110855,2435.9464,N,08051.7190,W,1,7,2.3,15,M,,M,,*56
06/02/2014	11:08:55.671	$GPGGA,110856,2435.9464,N,08051.7193,W,1,7,2.3,15,M,,M,,*56
06/02/2014	11:08:56.541	$GPGGA,110857,2435.9467,N,08051.7196,W,1,8,2.3,15,M,,M,,*5E
06/02/2014	11:08:57.631	$GPGGA,110858,2435.9471,N,08051.7197,W,1,8,2.3,15,M,,M,,*57
06/02/2014	11:08:58.551	$GPGGA,110859,2435.9473,N,08051.7198,W,1,8,2.3,16,M,,M,,*58
06/02/2014	11:08:59.672	$GPGGA,110900,2435.9474,N,08051.7198,W,1,8,2.3,16,M,,M,,*52
06/02/2014	11:09:00.562	$GPGGA,110901,2435.9478,N,08051.7200,W,1,8,2.3,16,M,,M,,*5D
06/02/2014	11:09:01.622	$GPGGA,110902,2435.9481,N,08051.7200,W,1,8,2.3,16,M,,M,,*58
06/02/2014	11:09:02.532	$GPGGA,110903,2435.9482,N,08051.7201,W,1,8,2.3,16,M,,M,,*5B
06/02/2014	11:09:03.572	$GPGGA,110904,2435.9482,N,08051.7204,W,1,8,3.0,16,M,,M,,*5B
06/02/2014	11:09:04.613	$GPGGA,110905,2435.9485,N,08051.7207,W,1,7,3.0,16,M,,M,,*51
06/02/2014	11:09:05.533	$GPGGA,110906,2435.9488,N,08051.7206,W,1,7,3.0,16,M,,M,,*5E
06/02/2014	11:09:06.533	$GPGGA,110907,2435.9491,N,08051.7207,W,1,7,3.0,16,M,,M,,*56
06/02/2014	11:09:07.563	$GPGGA,110908,2435.9492,N,08051.7208,W,1,7,2.3,16,M,,M,,*57
06/02/2014	11:09:08.653	$GPGGA,110909,2435.9495,N,08051.7207,W,1,8,2.3,16,M,,M,,*51
06/02/2014	11:09:09.604	$GPGGA,110910,2435.9498,N,08051.7206,W,1,8,2.3,16,M,,M,,*55
06/02/2014	11:09:10.604	$GPGGA,110911,2435.9500,N,08051.7207,W,1,8,3.0,16,M,,M,,*57
06/02/2014	11:09:11.624	$GPGGA,110912,2435.9503,N,08051.7206,W,1,8,3.0,16,M,,M,,*56
06/02/2014	11:09:12.603	$GPGGA,110913,2435.9506,N,08051.7204,W,1,6,2.3,16,M,,M,,*5C
06/02/2014	11:09:13.614	$GPGGA,110914,2435.9505,N,08051.7207,W,1,6,2.3,16,M,,M,,*5B
06/02/2014	11:09:14.604	$GPGGA,110915,2435.9507,N,08051.7208,W,1,7,2.3,16,M,,M,,*56
06/02/2014	11:09:15.614	$GPGGA,110916,2435.9510,N,08051.7211,W,1,7,2.3,16,M,,M,,*5B
06/02/2014	11:09:16.614	$GPGGA,110917,2435.9511,N,08051.7212,W,1,8,2.3,16,M,,M,,*57
06/02/2014	11:09:17.604	$GPGGA,110918,2435.9514,N,08051.7214,W,1,8,3.0,16,M,,M,,*59
06/02/2014	11:09:18.614	$GPGGA,110919,2435.9518,N,08051.7205,W,1,7,2.3,16,M,,M,,*59
06/02/2014	11:09:19.605	$GPGGA,110920,2435.9520,N,08051.7205,W,1,7,2.3,16,M,,M,,*58
06/02/2014	11:09:20.605	$GPGGA,110921,2435.9523,N,08051.7205,W,1,8,2.3,16,M,,M,,*55
06/02/2014	11:09:21.585	$GPGGA,110922,2435.9525,N,08051.7207,W,1,8,2.3,16,M,,M,,*52
06/02/2014	11:09:22.605	$GPGGA,110923,2435.9525,N,08051.7211,W,1,8,2.3,16,M,,M,,*54
06/02/2014	11:09:23.605	$GPGGA,110924,2435.9525,N,08051.7212,W,1,8,3.0,16,M,,M,,*52
06/02/2014	11:09:24.596	$GPGGA,110925,2435.9528,N,08051.7215,W,1,8,2.3,16,M,,M,,*5B
06/02/2014	11:09:25.586	$GPGGA,110926,2435.9529,N,08051.7218,W,1,8,3.0,16,M,,M,,*56
06/02/2014	11:09:26.606	$GPGGA,110927,2435.9529,N,08051.7223,W,1,7,3.0,16,M,,M,,*50
06/02/2014	11:09:27.596	$GPGGA,110928,2435.9531,N,08051.7229,W,1,7,3.0,16,M,,M,,*5C
06/02/2014	11:09:28.626	$GPGGA,110929,2435.9532,N,08051.7233,W,1,7,3.0,16,M,,M,,*55
06/02/2014	11:09:29.557	$GPGGA,110930,2435.9532,N,08051.7236,W,1,7,3.0,16,M,,M,,*58
06/02/2014	11:09:30.586	$GPGGA,110931,2435.9535,N,08051.7240,W,1,7,3.0,16,M,,M,,*5F
06/02/2014	11:09:31.566	$GPGGA,110932,2435.9536,N,08051.7243,W,1,7,3.0,16,M,,M,,*5C
06/02/2014	11:09:32.586	$GPGGA,110933,2435.9536,N,08051.7243,W,1,7,3.0,16,M,,M,,*5D
06/02/2014	11:09:33.556	$GPGGA,110934,2435.9539,N,08051.7245,W,1,7,2.3,15,M,,M,,*52
06/02/2014	11:09:34.537	$GPGGA,110935,2435.9542,N,08051.7248,W,1,8,2.3,15,M,,M,,*5D
06/02/2014	11:09:35.577	$GPGGA,110936,2435.9543,N,08051.7251,W,1,8,2.3,15,M,,M,,*57
06/02/2014	11:09:36.547	$GPGGA,110937,2435.9543,N,08051.7252,W,1,8,2.3,15,M,,M,,*55
06/02/2014	11:09:37.547	$GPGGA,110938,2435.9545,N,08051.7254,W,1,8,2.3,15,M,,M,,*5A
06/02/2014	11:09:38.577	$GPGGA,110939,2435.9547,N,08051.7258,W,1,8,2.3,15,M,,M,,*55
06/02/2014	11:09:39.548	$GPGGA,110940,2435.9550,N,08051.7261,W,1,8,2.3,15,M,,M,,*57
06/02/2014	11:09:40.558	$GPGGA,110941,2435.9550,N,08051.7262,W,1,8,2.3,15,M,,M,,*55
06/02/2014	11:09:41.528	$GPGGA,110942,2435.9553,N,08051.7266,W,1,8,2.4,15,M,,M,,*56
06/02/2014	11:09:42.548	$GPGGA,110943,2435.9554,N,08051.7270,W,1,7,2.4,15,M,,M,,*58
06/02/2014	11:09:43.558	$GPGGA,110944,2435.9554,N,08051.7274,W,1,7,2.3,15,M,,M,,*5C
06/02/2014	11:09:44.640	$GPGGA,110945,2435.9557,N,08051.7279,W,1,8,2.3,15,M,,M,,*5C
06/02/2014	11:09:45.619	$GPGGA,110946,2435.9556,N,08051.7281,W,1,8,2.3,15,M,,M,,*59
06/02/2014	11:09:46.529	$GPGGA,110947,2435.9557,N,08051.7285,W,1,8,2.3,15,M,,M,,*5D
06/02/2014	11:09:47.518	$GPGGA,110948,2435.9560,N,08051.7290,W,1,8,2.3,15,M,,M,,*52
06/02/2014	11:09:48.518	$GPGGA,110949,2435.9561,N,08051.7295,W,1,8,2.3,15,M,,M,,*57
06/02/2014	11:09:49.609	$GPGGA,110950,2435.9561,N,08051.7301,W,1,8,2.3,15,M,,M,,*53
06/02/2014	11:09:50.609	$GPGGA,110951,2435.9561,N,08051.7306,W,1,8,2.3,15,M,,M,,*55
06/02/2014	11:09:51.529	$GPGGA,110952,2435.9563,N,08051.7309,W,1,8,3.0,15,M,,M,,*59
06/02/2014	11:09:52.529	$GPGGA,110953,2435.9565,N,08051.7312,W,1,8,2.3,15,M,,M,,*56
06/02/2014	11:09:53.609	$GPGGA,110954,2435.9563,N,08051.7320,W,1,8,2.3,15,M,,M,,*56
06/02/2014	11:09:54.510	$GPGGA,110955,2435.9565,N,08051.7323,W,1,7,3.0,15,M,,M,,*5F
06/02/2014	11:09:55.520	$GPGGA,110956,2435.9567,N,08051.7331,W,1,7,2.3,15,M,,M,,*5F
06/02/2014	11:09:56.600	$GPGGA,110957,2435.9568,N,08051.7337,W,1,7,3.0,15,M,,M,,*55
06/02/2014	11:09:57.600	$GPGGA,110958,2435.9566,N,08051.7344,W,1,7,3.0,15,M,,M,,*50
06/02/2014	11:09:58.600	$GPGGA,110959,2435.9567,N,08051.7346,W,1,7,3.0,15,M,,M,,*52
06/02/2014	11:09:59.621	$GPGGA,111000,2435.9568,N,08051.7353,W,1,7,2.3,15,M,,M,,*5F
06/02/2014	11:10:00.611	$GPGGA,111001,2435.9570,N,08051.7359,W,1,7,3.0,15,M,,M,,*5F
06/02/2014	11:10:01.591	$GPGGA,111002,2435.9568,N,08051.7366,W,1,7,2.3,15,M,,M,,*5B
06/02/2014	11:10:02.601	$GPGGA,111003,2435.9570,N,08051.7368,W,1,7,3.0,15,M,,M,,*5F
06/02/2014	11:10:03.611	$GPGGA,111004,2435.9572,N,08051.7374,W,1,7,2.3,15,M,,M,,*55
06/02/2014	11:10:04.612	$GPGGA,111005,2435.9572,N,08051.7381,W,1,7,3.0,15,M,,M,,*5C
06/02/2014	11:10:05.591	$GPGGA,111006,2435.9572,N,08051.7388,W,1,7,3.0,15,M,,M,,*56
06/02/2014	11:10:06.591	$GPGGA,111007,2435.9572,N,08051.7393,W,1,7,3.0,15,M,,M,,*5D
06/02/2014	11:10:07.581	$GPGGA,111008,2435.9574,N,08051.7393,W,1,7,3.0,15,M,,M,,*54
06/02/2014	11:10:08.601	$GPGGA,111009,2435.9576,N,08051.7400,W,1,8,2.3,15,M,,M,,*57
06/02/2014	11:10:09.582	$GPGGA,111010,2435.9576,N,08051.7406,W,1,8,3.0,15,M,,M,,*5B
06/02/2014	11:10:10.562	$GPGGA,111011,2435.9576,N,08051.7413,W,1,7,3.0,15,M,,M,,*51
06/02/2014	11:10:11.582	$GPGGA,111012,2435.9576,N,08051.7420,W,1,7,3.0,15,M,,M,,*52
06/02/2014	11:10:12.592	$GPGGA,111013,2435.9576,N,08051.7425,W,1,7,3.0,15,M,,M,,*56
06/02/2014	11:10:13.582	$GPGGA,111014,2435.9576,N,08051.7428,W,1,7,3.0,15,M,,M,,*5C
06/02/2014	11:10:14.563	$GPGGA,111015,2435.9576,N,08051.7435,W,1,8,2.3,15,M,,M,,*5C
06/02/2014	11:10:15.583	$GPGGA,111016,2435.9578,N,08051.7440,W,1,8,3.0,15,M,,M,,*51
06/02/2014	11:10:16.583	$GPGGA,111017,2435.9579,N,08051.7446,W,1,7,3.0,15,M,,M,,*58
06/02/2014	11:10:17.553	$GPGGA,111018,2435.9579,N,08051.7453,W,1,7,3.0,15,M,,M,,*53
06/02/2014	11:10:18.593	$GPGGA,111019,2435.9579,N,08051.7457,W,1,7,3.0,15,M,,M,,*56
06/02/2014	11:10:19.564	$GPGGA,111020,2435.9579,N,08051.7462,W,1,7,2.3,15,M,,M,,*58
06/02/2014	11:10:20.574	$GPGGA,111021,2435.9581,N,08051.7467,W,1,8,2.3,14,M,,M,,*55
06/02/2014	11:10:21.564	$GPGGA,111022,2435.9580,N,08051.7471,W,1,8,2.3,14,M,,M,,*50
06/02/2014	11:10:22.573	$GPGGA,111023,2435.9582,N,08051.7475,W,1,8,2.3,14,M,,M,,*57
06/02/2014	11:10:23.553	$GPGGA,111024,2435.9583,N,08051.7479,W,1,8,2.3,14,M,,M,,*5D
06/02/2014	11:10:24.544	$GPGGA,111025,2435.9586,N,08051.7483,W,1,8,2.3,14,M,,M,,*5C
06/02/2014	11:10:25.554	$GPGGA,111026,2435.9586,N,08051.7486,W,1,8,2.3,14,M,,M,,*5A
06/02/2014	11:10:26.555	$GPGGA,111027,2435.9586,N,08051.7491,W,1,7,2.4,14,M,,M,,*55
06/02/2014	11:10:27.674	$GPGGA,111028,2435.9589,N,08051.7496,W,1,7,2.3,15,M,,M,,*54
06/02/2014	11:10:28.554	$GPGGA,111029,2435.9590,N,08051.7503,W,1,8,2.3,15,M,,M,,*5F
06/02/2014	11:10:29.524	$GPGGA,111030,2435.9590,N,08051.7507,W,1,8,2.3,15,M,,M,,*53
06/02/2014	11:10:30.634	$GPGGA,111031,2435.9593,N,08051.7511,W,1,8,2.3,15,M,,M,,*56
06/02/2014	11:10:31.544	$GPGGA,111032,2435.9594,N,08051.7514,W,1,8,2.4,15,M,,M,,*50
06/02/2014	11:10:32.524	$GPGGA,111033,2435.9594,N,08051.7518,W,1,7,2.4,15,M,,M,,*52
06/02/2014	11:10:33.614	$GPGGA,111034,2435.9594,N,08051.7525,W,1,7,2.4,15,M,,M,,*5B
06/02/2014	11:10:34.505	$GPGGA,111035,2435.9597,N,08051.7529,W,1,8,2.3,15,M,,M,,*5D
06/02/2014	11:10:35.645	$GPGGA,111036,2435.9597,N,08051.7534,W,1,8,2.3,15,M,,M,,*52
06/02/2014	11:10:36.525	$GPGGA,111037,2435.9599,N,08051.7540,W,1,8,2.3,15,M,,M,,*5E
06/02/2014	11:10:37.606	$GPGGA,111038,2435.9600,N,08051.7544,W,1,8,2.3,15,M,,M,,*56
06/02/2014	11:10:38.635	$GPGGA,111039,2435.9601,N,08051.7548,W,1,8,2.3,15,M,,M,,*5A
06/02/2014	11:10:39.607	$GPGGA,111040,2435.9603,N,08051.7556,W,1,8,2.4,15,M,,M,,*5E
06/02/2014	11:10:40.605	$GPGGA,111041,2435.9604,N,08051.7562,W,1,8,2.3,15,M,,M,,*58
06/02/2014	11:10:41.605	$GPGGA,111042,2435.9603,N,08051.7568,W,1,8,2.3,15,M,,M,,*56
06/02/2014	11:10:42.595	$GPGGA,111043,2435.9604,N,08051.7572,W,1,8,2.3,15,M,,M,,*5B
06/02/2014	11:10:43.635	$GPGGA,111044,2435.9607,N,08051.7577,W,1,8,2.3,15,M,,M,,*5A
06/02/2014	11:10:44.606	$GPGGA,111045,2435.9608,N,08051.7583,W,1,8,2.3,15,M,,M,,*5F
06/02/2014	11:10:45.596	$GPGGA,111046,2435.9608,N,08051.7588,W,1,8,2.3,15,M,,M,,*57
06/02/2014	11:10:46.596	$GPGGA,111047,2435.9610,N,08051.7594,W,1,8,2.3,15,M,,M,,*52
06/02/2014	11:10:47.606	$GPGGA,111048,2435.9612,N,08051.7599,W,1,8,2.3,15,M,,M,,*52
06/02/2014	11:10:48.606	$GPGGA,111049,2435.9612,N,08051.7605,W,1,8,2.3,15,M,,M,,*55
06/02/2014	11:10:49.587	$GPGGA,111050,2435.9612,N,08051.7609,W,1,8,2.3,15,M,,M,,*51
06/02/2014	11:10:50.597	$GPGGA,111051,2435.9615,N,08051.7615,W,1,8,2.3,15,M,,M,,*5A
06/02/2014	11:10:51.597	$GPGGA,111052,2435.9617,N,08051.7619,W,1,8,2.3,15,M,,M,,*57
06/02/2014	11:10:52.597	$GPGGA,111053,2435.9616,N,08051.7626,W,1,8,2.3,15,M,,M,,*5B
06/02/2014	11:10:53.587	$GPGGA,111054,2435.9618,N,08051.7634,W,1,8,2.3,15,M,,M,,*51
06/02/2014	11:10:54.568	$GPGGA,111055,2435.9617,N,08051.7641,W,1,7,2.9,15,M,,M,,*58
06/02/2014	11:10:55.588	$GPGGA,111056,2435.9618,N,08051.7646,W,1,7,2.9,15,M,,M,,*53
06/02/2014	11:10:56.589	$GPGGA,111057,2435.9619,N,08051.7652,W,1,7,2.9,15,M,,M,,*56
06/02/2014	11:10:57.567	$GPGGA,111058,2435.9619,N,08051.7660,W,1,7,2.9,15,M,,M,,*58
06/02/2014	11:10:58.597	$GPGGA,111059,2435.9621,N,08051.7666,W,1,7,2.9,15,M,,M,,*54
06/02/2014	11:10:59.588	$GPGGA,111100,2435.9620,N,08051.7673,W,1,7,2.3,15,M,,M,,*56
06/02/2014	11:11:00.588	$GPGGA,111101,2435.9621,N,08051.7678,W,1,7,2.9,15,M,,M,,*57
06/02/2014	11:11:01.568	$GPGGA,111102,2435.9622,N,08051.7684,W,1,7,2.9,14,M,,M,,*55
06/02/2014	11:11:02.558	$GPGGA,111103,2435.9621,N,08051.7691,W,1,7,2.9,14,M,,M,,*53
06/02/2014	11:11:03.589	$GPGGA,111104,2435.9622,N,08051.7691,W,1,7,2.9,14,M,,M,,*57
06/02/2014	11:11:04.559	$GPGGA,111105,2435.9625,N,08051.7693,W,1,8,2.3,14,M,,M,,*56
06/02/2014	11:11:05.549	$GPGGA,111106,2435.9626,N,08051.7700,W,1,8,2.3,14,M,,M,,*5D
06/02/2014	11:11:06.549	$GPGGA,111107,2435.9624,N,08051.7707,W,1,7,2.9,14,M,,M,,*5C
06/02/2014	11:11:07.559	$GPGGA,111108,2435.9626,N,08051.7713,W,1,7,2.9,14,M,,M,,*54
06/02/2014	11:11:08.729	$GPGGA,111109,2435.9626,N,08051.7717,W,1,8,2.3,14,M,,M,,*54
06/02/2014	11:11:09.550	$GPGGA,111110,2435.9626,N,08051.7722,W,1,8,2.3,14,M,,M,,*5A
06/02/2014	11:11:10.570	$GPGGA,111111,2435.9628,N,08051.7727,W,1,7,2.9,14,M,,M,,*55
06/02/2014	11:11:11.556	$GPGGA,111112,2435.9630,N,08051.7729,W,1,7,2.3,14,M,,M,,*5B
06/02/2014	11:11:12.530	$GPGGA,111113,2435.9630,N,08051.7733,W,1,8,2.3,14,M,,M,,*5E
06/02/2014	11:11:13.560	$GPGGA,111114,2435.9630,N,08051.7740,W,1,8,2.3,14,M,,M,,*5D
06/02/2014	11:11:14.541	$GPGGA,111115,2435.9630,N,08051.7746,W,1,7,2.9,14,M,,M,,*5F
06/02/2014	11:11:15.550	$GPGGA,111116,2435.9632,N,08051.7753,W,1,7,2.3,14,M,,M,,*50
06/02/2014	11:11:16.630	$GPGGA,111117,2435.9633,N,08051.7758,W,1,7,2.9,14,M,,M,,*51
06/02/2014	11:11:17.540	$GPGGA,111118,2435.9632,N,08051.7764,W,1,7,2.9,14,M,,M,,*50
06/02/2014	11:11:18.710	$GPGGA,111119,2435.9633,N,08051.7772,W,1,7,2.9,14,M,,M,,*57
06/02/2014	11:11:19.551	$GPGGA,111120,2435.9633,N,08051.7776,W,1,7,2.9,14,M,,M,,*59
06/02/2014	11:11:20.541	$GPGGA,111121,2435.9633,N,08051.7783,W,1,8,2.3,14,M,,M,,*57
06/02/2014	11:11:21.531	$GPGGA,111122,2435.9633,N,08051.7789,W,1,8,2.9,14,M,,M,,*54
06/02/2014	11:11:22.541	$GPGGA,111123,2435.9635,N,08051.7796,W,1,7,2.9,14,M,,M,,*52
06/02/2014	11:11:23.552	$GPGGA,111124,2435.9634,N,08051.7801,W,1,7,2.9,14,M,,M,,*55
06/02/2014	11:11:24.712	$GPGGA,111125,2435.9636,N,08051.7803,W,1,7,2.3,14,M,,M,,*5E
06/02/2014	11:11:25.662	$GPGGA,111126,2435.9637,N,08051.7805,W,1,7,2.3,14,M,,M,,*5A
06/02/2014	11:11:26.692	$GPGGA,111127,2435.9639,N,08051.7809,W,1,8,2.3,14,M,,M,,*56
06/02/2014	11:11:27.612	$GPGGA,111128,2435.9638,N,08051.7818,W,1,8,2.3,14,M,,M,,*58
06/02/2014	11:11:28.692	$GPGGA,111129,2435.9640,N,08051.7818,W,1,7,2.3,14,M,,M,,*59
06/02/2014	11:11:29.646	$GPGGA,111130,2435.9639,N,08051.7825,W,1,7,2.3,14,M,,M,,*51
06/02/2014	11:11:30.693	$GPGGA,111131,2435.9640,N,08051.7829,W,1,7,2.9,14,M,,M,,*58
06/02/2014	11:11:31.644	$GPGGA,111132,2435.9641,N,08051.7833,W,1,7,2.9,14,M,,M,,*51
06/02/2014	11:11:32.692	$GPGGA,111133,2435.9643,N,08051.7839,W,1,8,2.3,14,M,,M,,*5D
06/02/2014	11:11:33.602	$GPGGA,111134,2435.9642,N,08051.7845,W,1,8,2.3,14,M,,M,,*50
06/02/2014	11:11:34.694	$GPGGA,111135,2435.9643,N,08051.7851,W,1,8,2.9,14,M,,M,,*5F
06/02/2014	11:11:35.653	$GPGGA,111136,2435.9644,N,08051.7854,W,1,8,2.3,14,M,,M,,*54
06/02/2014	11:11:36.703	$GPGGA,111137,2435.9643,N,08051.7858,W,1,8,2.4,14,M,,M,,*59
06/02/2014	11:11:37.613	$GPGGA,111138,2435.9644,N,08051.7863,W,1,8,2.4,14,M,,M,,*59
06/02/2014	11:11:38.693	$GPGGA,111139,2435.9647,N,08051.7868,W,1,8,2.4,14,M,,M,,*50
06/02/2014	11:11:39.644	$GPGGA,111140,2435.9648,N,08051.7872,W,1,8,2.4,14,M,,M,,*5A
06/02/2014	11:11:40.584	$GPGGA,111141,2435.9648,N,08051.7879,W,1,8,2.3,14,M,,M,,*57
06/02/2014	11:11:41.604	$GPGGA,111142,2435.9650,N,08051.7883,W,1,8,2.3,14,M,,M,,*58
06/02/2014	11:11:42.684	$GPGGA,111143,2435.9651,N,08051.7887,W,1,8,2.3,14,M,,M,,*5C
06/02/2014	11:11:43.615	$GPGGA,111144,2435.9650,N,08051.7894,W,1,8,2.3,14,M,,M,,*58
06/02/2014	11:11:44.635	$GPGGA,111145,2435.9652,N,08051.7899,W,1,8,2.3,14,M,,M,,*56
06/02/2014	11:11:45.565	$GPGGA,111146,2435.9655,N,08051.7905,W,1,8,2.3,14,M,,M,,*56
06/02/2014	11:11:46.565	$GPGGA,111147,2435.9655,N,08051.7910,W,1,7,2.4,14,M,,M,,*5B
06/02/2014	11:11:47.605	$GPGGA,111148,2435.9655,N,08051.7916,W,1,7,2.3,15,M,,M,,*54
06/02/2014	11:11:48.695	$GPGGA,111149,2435.9658,N,08051.7923,W,1,8,2.3,15,M,,M,,*51
