Software Version Number: 1	Data File Format Number: 1	Build Version Number: 1	Error Count Since VI Started: 0	Manufacturer: Raytheon	 Model Number: RayMarine 120	 S/N: 	 Cal Date: 	 Wind Direction Offset: 0.00	 Slope (M)1: 0.00	 Offset (B)1: 0.00	 Slope (M)2: 0.00	 Offset (B)2: 0.00	 Slope (M)3: 0.00	 Offset (B)3: 0.00	 Slope (M)4: 0.00	 Offset (B)4: 0.00	 Slope (M)5: 0.00	 Offset (B)5: 0.00	 Slope (M)6: 0.00	 Offset (B)6: 0.00
Computer Date	Computer Time	GGA String
06/09/2014	05:00:00.021	$GPGGA,050000,2505.2586,N,08014.5209,W,1,9,1.8,16,M,,M,,*5A
06/09/2014	05:00:01.037	$GPGGA,050001,2505.2598,N,08014.5218,W,1,9,1.8,16,M,,M,,*54
06/09/2014	05:00:02.097	$GPGGA,050002,2505.2609,N,08014.5229,W,1,9,1.8,16,M,,M,,*5E
06/09/2014	05:00:03.072	$GPGGA,050003,2505.2621,N,08014.5239,W,1,9,1.8,16,M,,M,,*54
06/09/2014	05:00:04.101	$GPGGA,050004,2505.2633,N,08014.5251,W,1,9,1.8,16,M,,M,,*5E
06/09/2014	05:00:05.094	$GPGGA,050005,2505.2644,N,08014.5262,W,1,9,1.8,16,M,,M,,*5F
06/09/2014	05:00:06.120	$GPGGA,050006,2505.2655,N,08014.5274,W,1,9,1.8,16,M,,M,,*5B
06/09/2014	05:00:07.134	$GPGGA,050007,2505.2666,N,08014.5285,W,1,9,1.8,16,M,,M,,*54
06/09/2014	05:00:08.162	$GPGGA,050008,2505.2679,N,08014.5296,W,1,9,1.8,16,M,,M,,*57
06/09/2014	05:00:09.176	$GPGGA,050009,2505.2691,N,08014.5307,W,1,9,1.8,16,M,,M,,*59
06/09/2014	05:00:10.203	$GPGGA,050010,2505.2702,N,08014.5318,W,1,9,1.8,16,M,,M,,*54
06/09/2014	05:00:11.233	$GPGGA,050011,2505.2713,N,08014.5329,W,1,9,1.8,16,M,,M,,*57
06/09/2014	05:00:12.240	$GPGGA,050012,2505.2724,N,08014.5340,W,1,9,1.8,16,M,,M,,*5F
06/09/2014	05:00:13.256	$GPGGA,050013,2505.2737,N,08014.5351,W,1,9,1.8,16,M,,M,,*5C
06/09/2014	05:00:14.246	$GPGGA,050014,2505.2748,N,08014.5363,W,1,9,1.8,16,M,,M,,*52
06/09/2014	05:00:15.297	$GPGGA,050015,2505.2760,N,08014.5374,W,1,9,1.8,16,M,,M,,*5F
06/09/2014	05:00:16.320	$GPGGA,050016,2505.2771,N,08014.5387,W,1,9,1.8,16,M,,M,,*50
06/09/2014	05:00:17.433	$GPGGA,050017,2505.2782,N,08014.5399,W,1,9,1.8,16,M,,M,,*52
06/09/2014	05:00:18.340	$GPGGA,050018,2505.2793,N,08014.5410,W,1,9,1.8,16,M,,M,,*5B
06/09/2014	05:00:19.350	$GPGGA,050019,2505.2804,N,08014.5423,W,1,9,1.8,16,M,,M,,*5B
06/09/2014	05:00:20.404	$GPGGA,050020,2505.2816,N,08014.5434,W,1,9,1.8,16,M,,M,,*54
06/09/2014	05:00:21.404	$GPGGA,050021,2505.2827,N,08014.5448,W,1,9,1.9,16,M,,M,,*5D
06/09/2014	05:00:22.495	$GPGGA,050022,2505.2838,N,08014.5459,W,1,9,1.8,16,M,,M,,*51
06/09/2014	05:00:23.434	$GPGGA,050023,2505.2850,N,08014.5470,W,1,9,1.8,16,M,,M,,*55
06/09/2014	05:00:24.583	$GPGGA,050024,2505.2860,N,08014.5481,W,1,9,1.8,16,M,,M,,*5F
06/09/2014	05:00:25.599	$GPGGA,050025,2505.2871,N,08014.5492,W,1,9,1.8,16,M,,M,,*5C
06/09/2014	05:00:26.578	$GPGGA,050026,2505.2882,N,08014.5503,W,1,9,1.8,16,M,,M,,*5A
06/09/2014	05:00:27.608	$GPGGA,050027,2505.2893,N,08014.5516,W,1,9,1.8,16,M,,M,,*5F
06/09/2014	05:00:28.559	$GPGGA,050028,2505.2904,N,08014.5527,W,1,9,1.8,16,M,,M,,*5D
06/09/2014	05:00:29.640	$GPGGA,050029,2505.2915,N,08014.5538,W,1,9,1.8,16,M,,M,,*52
06/09/2014	05:00:30.651	$GPGGA,050030,2505.2926,N,08014.5549,W,1,9,1.8,17,M,,M,,*5D
06/09/2014	05:00:31.702	$GPGGA,050031,2505.2937,N,08014.5564,W,1,9,1.8,17,M,,M,,*53
06/09/2014	05:00:32.645	$GPGGA,050032,2505.2948,N,08014.5574,W,1,9,1.8,17,M,,M,,*59
06/09/2014	05:00:33.703	$GPGGA,050033,2505.2959,N,08014.5587,W,1,9,1.8,17,M,,M,,*54
06/09/2014	05:00:34.724	$GPGGA,050034,2505.2972,N,08014.5598,W,1,9,1.8,17,M,,M,,*54
06/09/2014	05:00:35.765	$GPGGA,050035,2505.2983,N,08014.5611,W,1,9,1.8,17,M,,M,,*59
06/09/2014	05:00:36.776	$GPGGA,050036,2505.2994,N,08014.5622,W,1,9,1.8,17,M,,M,,*5C
06/09/2014	05:00:37.817	$GPGGA,050037,2505.3005,N,08014.5634,W,1,9,1.8,17,M,,M,,*5A
06/09/2014	05:00:38.798	$GPGGA,050038,2505.3016,N,08014.5647,W,1,9,1.8,17,M,,M,,*53
06/09/2014	05:00:39.840	$GPGGA,050039,2505.3027,N,08014.5659,W,1,9,1.8,17,M,,M,,*5F
06/09/2014	05:00:39.598	$GPGGA,050040,2505.3038,N,08014.5672,W,1,9,1.8,17,M,,M,,*56
06/09/2014	05:00:40.629	$GPGGA,050041,2505.3049,N,08014.5683,W,1,9,1.7,17,M,,M,,*50
06/09/2014	05:00:41.619	$GPGGA,050042,2505.3060,N,08014.5697,W,1,9,1.7,17,M,,M,,*5D
06/09/2014	05:00:42.650	$GPGGA,050043,2505.3071,N,08014.5708,W,1,9,1.7,17,M,,M,,*5B
06/09/2014	05:00:43.680	$GPGGA,050044,2505.3084,N,08014.5720,W,1,9,1.7,17,M,,M,,*5C
06/09/2014	05:00:44.711	$GPGGA,050045,2505.3095,N,08014.5733,W,1,9,1.7,17,M,,M,,*5F
06/09/2014	05:00:45.702	$GPGGA,050046,2505.3106,N,08014.5744,W,1,9,1.7,17,M,,M,,*57
06/09/2014	05:00:46.743	$GPGGA,050047,2505.3117,N,08014.5756,W,1,9,1.7,17,M,,M,,*55
06/09/2014	05:00:47.764	$GPGGA,050048,2505.3128,N,08014.5770,W,1,9,1.7,17,M,,M,,*52
06/09/2014	05:00:48.795	$GPGGA,050049,2505.3139,N,08014.5780,W,1,8,1.9,17,M,,M,,*53
06/09/2014	05:00:49.785	$GPGGA,050050,2505.3150,N,08014.5793,W,1,8,1.7,17,M,,M,,*58
06/09/2014	05:00:50.826	$GPGGA,050051,2505.3161,N,08014.5805,W,1,9,1.7,17,M,,M,,*5A
06/09/2014	05:00:51.827	$GPGGA,050052,2505.3174,N,08014.5816,W,1,9,1.7,17,M,,M,,*5F
06/09/2014	05:00:52.848	$GPGGA,050053,2505.3185,N,08014.5827,W,1,9,1.7,17,M,,M,,*52
06/09/2014	05:00:53.859	$GPGGA,050054,2505.3194,N,08014.5838,W,1,9,1.7,17,M,,M,,*5B
06/09/2014	05:00:54.869	$GPGGA,050055,2505.3207,N,08014.5849,W,1,9,1.7,17,M,,M,,*55
06/09/2014	05:00:55.903	$GPGGA,050056,2505.3219,N,08014.5860,W,1,9,1.7,17,M,,M,,*52
06/09/2014	05:00:57.026	$GPGGA,050057,2505.3229,N,08014.5871,W,1,9,1.7,17,M,,M,,*50
06/09/2014	05:00:57.942	$GPGGA,050058,2505.3241,N,08014.5882,W,1,9,1.7,17,M,,M,,*5D
06/09/2014	05:00:58.943	$GPGGA,050059,2505.3251,N,08014.5894,W,1,9,1.7,17,M,,M,,*5A
06/09/2014	05:00:59.994	$GPGGA,050100,2505.3262,N,08014.5905,W,1,9,1.7,17,M,,M,,*5E
06/09/2014	05:01:01.025	$GPGGA,050101,2505.3275,N,08014.5917,W,1,9,1.7,17,M,,M,,*5A
06/09/2014	05:01:02.004	$GPGGA,050102,2505.3286,N,08014.5928,W,1,9,1.7,17,M,,M,,*59
06/09/2014	05:01:03.015	$GPGGA,050103,2505.3298,N,08014.5939,W,1,9,1.7,17,M,,M,,*57
06/09/2014	05:01:04.169	$GPGGA,050104,2505.3309,N,08014.5950,W,1,9,1.7,17,M,,M,,*56
06/09/2014	05:01:05.079	$GPGGA,050105,2505.3320,N,08014.5962,W,1,9,1.7,17,M,,M,,*5D
06/09/2014	05:01:06.124	$GPGGA,050106,2505.3331,N,08014.5973,W,1,9,1.7,17,M,,M,,*5E
06/09/2014	05:01:07.088	$GPGGA,050107,2505.3342,N,08014.5986,W,1,9,1.7,17,M,,M,,*51
06/09/2014	05:01:08.141	$GPGGA,050108,2505.3355,N,08014.5997,W,1,9,1.7,17,M,,M,,*58
06/09/2014	05:01:09.232	$GPGGA,050109,2505.3367,N,08014.6008,W,1,9,1.7,17,M,,M,,*54
06/09/2014	05:01:10.161	$GPGGA,050110,2505.3378,N,08014.6019,W,1,9,1.7,17,M,,M,,*52
06/09/2014	05:01:11.262	$GPGGA,050111,2505.3389,N,08014.6031,W,1,9,1.7,17,M,,M,,*57
06/09/2014	05:01:12.191	$GPGGA,050112,2505.3402,N,08014.6044,W,1,9,1.7,17,M,,M,,*52
06/09/2014	05:01:13.200	$GPGGA,050113,2505.3413,N,08014.6055,W,1,9,1.7,17,M,,M,,*53
06/09/2014	05:01:14.290	$GPGGA,050114,2505.3425,N,08014.6066,W,1,9,1.7,17,M,,M,,*51
06/09/2014	05:01:15.289	$GPGGA,050115,2505.3436,N,08014.6077,W,1,9,1.7,17,M,,M,,*52
06/09/2014	05:01:16.268	$GPGGA,050116,2505.3449,N,08014.6089,W,1,9,1.7,17,M,,M,,*58
06/09/2014	05:01:17.207	$GPGGA,050117,2505.3461,N,08014.6102,W,1,9,1.7,17,M,,M,,*51
06/09/2014	05:01:18.205	$GPGGA,050118,2505.3472,N,08014.6113,W,1,9,1.7,17,M,,M,,*5C
06/09/2014	05:01:19.324	$GPGGA,050119,2505.3485,N,08014.6124,W,1,9,1.7,16,M,,M,,*50
06/09/2014	05:01:20.334	$GPGGA,050120,2505.3497,N,08014.6135,W,1,9,1.7,16,M,,M,,*59
06/09/2014	05:01:21.352	$GPGGA,050121,2505.3508,N,08014.6147,W,1,9,1.7,16,M,,M,,*5A
06/09/2014	05:01:22.341	$GPGGA,050122,2505.3521,N,08014.6160,W,1,9,1.7,16,M,,M,,*57
06/09/2014	05:01:23.340	$GPGGA,050123,2505.3533,N,08014.6172,W,1,8,1.9,16,M,,M,,*59
06/09/2014	05:01:24.360	$GPGGA,050124,2505.3544,N,08014.6185,W,1,8,1.7,16,M,,M,,*58
06/09/2014	05:01:25.379	$GPGGA,050125,2505.3557,N,08014.6196,W,1,9,1.7,16,M,,M,,*58
06/09/2014	05:01:26.398	$GPGGA,050126,2505.3569,N,08014.6208,W,1,9,1.7,16,M,,M,,*52
06/09/2014	05:01:27.367	$GPGGA,050127,2505.3580,N,08014.6221,W,1,9,1.7,16,M,,M,,*5F
06/09/2014	05:01:28.396	$GPGGA,050128,2505.3591,N,08014.6232,W,1,9,1.9,16,M,,M,,*5C
06/09/2014	05:01:29.395	$GPGGA,050129,2505.3604,N,08014.6241,W,1,9,1.7,16,M,,M,,*58
06/09/2014	05:01:30.394	$GPGGA,050130,2505.3615,N,08014.6254,W,1,9,1.7,16,M,,M,,*54
06/09/2014	05:01:31.433	$GPGGA,050131,2505.3627,N,08014.6265,W,1,9,1.7,16,M,,M,,*56
06/09/2014	05:01:32.412	$GPGGA,050132,2505.3638,N,08014.6276,W,1,9,1.7,16,M,,M,,*59
06/09/2014	05:01:33.411	$GPGGA,050133,2505.3651,N,08014.6287,W,1,9,1.7,16,M,,M,,*59
06/09/2014	05:01:34.430	$GPGGA,050134,2505.3662,N,08014.6298,W,1,9,1.7,16,M,,M,,*50
06/09/2014	05:01:35.419	$GPGGA,050135,2505.3673,N,08014.6311,W,1,9,1.7,16,M,,M,,*51
06/09/2014	05:01:36.458	$GPGGA,050136,2505.3685,N,08014.6322,W,1,9,1.7,16,M,,M,,*5B
06/09/2014	05:01:37.467	$GPGGA,050137,2505.3696,N,08014.6333,W,1,9,1.7,16,M,,M,,*58
06/09/2014	05:01:38.447	$GPGGA,050138,2505.3709,N,08014.6344,W,1,9,1.7,16,M,,M,,*50
06/09/2014	05:01:39.457	$GPGGA,050139,2505.3720,N,08014.6356,W,1,9,1.7,16,M,,M,,*59
06/09/2014	05:01:39.580	$GPGGA,050140,2505.3732,N,08014.6369,W,1,9,1.7,16,M,,M,,*58
06/09/2014	05:01:40.560	$GPGGA,050141,2505.3743,N,08014.6380,W,1,9,1.7,16,M,,M,,*58
06/09/2014	05:01:41.568	$GPGGA,050142,2505.3754,N,08014.6392,W,1,9,1.7,16,M,,M,,*5E
06/09/2014	05:01:42.587	$GPGGA,050143,2505.3765,N,08014.6405,W,1,9,1.7,16,M,,M,,*54
06/09/2014	05:01:43.598	$GPGGA,050144,2505.3778,N,08014.6416,W,1,9,1.7,16,M,,M,,*5D
06/09/2014	05:01:44.625	$GPGGA,050145,2505.3789,N,08014.6430,W,1,9,1.7,16,M,,M,,*56
06/09/2014	05:01:45.594	$GPGGA,050146,2505.3801,N,08014.6442,W,1,9,1.9,16,M,,M,,*51
06/09/2014	05:01:46.623	$GPGGA,050147,2505.3811,N,08014.6454,W,1,9,1.7,16,M,,M,,*58
06/09/2014	05:01:47.743	$GPGGA,050148,2505.3822,N,08014.6467,W,1,9,1.7,16,M,,M,,*57
06/09/2014	05:01:48.621	$GPGGA,050149,2505.3835,N,08014.6478,W,1,9,1.7,16,M,,M,,*5E
06/09/2014	05:01:49.620	$GPGGA,050150,2505.3846,N,08014.6492,W,1,9,1.7,16,M,,M,,*56
06/09/2014	05:01:50.730	$GPGGA,050151,2505.3857,N,08014.6503,W,1,9,1.7,16,M,,M,,*5E
06/09/2014	05:01:51.674	$GPGGA,050152,2505.3868,N,08014.6514,W,1,9,1.7,16,M,,M,,*57
06/09/2014	05:01:52.688	$GPGGA,050153,2505.3880,N,08014.6525,W,1,9,1.7,16,M,,M,,*52
06/09/2014	05:01:53.747	$GPGGA,050154,2505.3891,N,08014.6537,W,1,9,1.7,16,M,,M,,*56
06/09/2014	05:01:54.675	$GPGGA,050155,2505.3902,N,08014.6548,W,1,9,1.7,16,M,,M,,*54
06/09/2014	05:01:55.684	$GPGGA,050156,2505.3913,N,08014.6561,W,1,9,1.7,16,M,,M,,*5C
06/09/2014	05:01:56.774	$GPGGA,050157,2505.3924,N,08014.6572,W,1,9,1.7,16,M,,M,,*5B
06/09/2014	05:01:57.803	$GPGGA,050158,2505.3936,N,08014.6584,W,1,9,1.7,16,M,,M,,*5E
06/09/2014	05:01:58.792	$GPGGA,050159,2505.3947,N,08014.6597,W,1,9,1.7,16,M,,M,,*5B
06/09/2014	05:01:59.730	$GPGGA,050200,2505.3958,N,08014.6609,W,1,9,1.7,16,M,,M,,*5E
06/09/2014	05:02:00.810	$GPGGA,050201,2505.3969,N,08014.6622,W,1,9,1.7,16,M,,M,,*54
06/09/2014	05:02:01.819	$GPGGA,050202,2505.3981,N,08014.6633,W,1,9,1.7,16,M,,M,,*51
06/09/2014	05:02:02.839	$GPGGA,050203,2505.3992,N,08014.6647,W,1,9,1.7,16,M,,M,,*51
06/09/2014	05:02:03.838	$GPGGA,050204,2505.4003,N,08014.6658,W,1,9,1.7,16,M,,M,,*5E
06/09/2014	05:02:04.838	$GPGGA,050205,2505.4014,N,08014.6670,W,1,9,1.7,16,M,,M,,*53
06/09/2014	05:02:05.846	$GPGGA,050206,2505.4025,N,08014.6683,W,1,9,1.7,16,M,,M,,*5E
06/09/2014	05:02:06.845	$GPGGA,050207,2505.4036,N,08014.6694,W,1,9,1.7,16,M,,M,,*5B
06/09/2014	05:02:07.864	$GPGGA,050208,2505.4048,N,08014.6706,W,1,9,1.7,16,M,,M,,*57
06/09/2014	05:02:08.883	$GPGGA,050209,2505.4060,N,08014.6719,W,1,9,1.7,16,M,,M,,*52
06/09/2014	05:02:09.862	$GPGGA,050210,2505.4071,N,08014.6730,W,1,9,1.7,16,M,,M,,*51
06/09/2014	05:02:10.901	$GPGGA,050211,2505.4082,N,08014.6743,W,1,9,1.7,16,M,,M,,*58
06/09/2014	05:02:11.899	$GPGGA,050212,2505.4093,N,08014.6756,W,1,9,1.7,16,M,,M,,*5F
06/09/2014	05:02:12.898	$GPGGA,050213,2505.4104,N,08014.6767,W,1,9,1.7,16,M,,M,,*53
06/09/2014	05:02:13.897	$GPGGA,050214,2505.4117,N,08014.6779,W,1,9,1.7,16,M,,M,,*59
06/09/2014	05:02:14.927	$GPGGA,050215,2505.4128,N,08014.6792,W,1,9,1.7,16,M,,M,,*51
06/09/2014	05:02:15.926	$GPGGA,050216,2505.4140,N,08014.6803,W,1,9,1.7,16,M,,M,,*5B
06/09/2014	05:02:16.925	$GPGGA,050217,2505.4151,N,08014.6815,W,1,9,1.7,16,M,,M,,*5D
06/09/2014	05:02:17.924	$GPGGA,050218,2505.4162,N,08014.6828,W,1,9,1.7,16,M,,M,,*5C
06/09/2014	05:02:18.953	$GPGGA,050219,2505.4173,N,08014.6839,W,1,9,1.7,16,M,,M,,*5D
06/09/2014	05:02:19.942	$GPGGA,050220,2505.4186,N,08014.6851,W,1,9,1.7,16,M,,M,,*53
06/09/2014	05:02:20.981	$GPGGA,050221,2505.4197,N,08014.6864,W,1,9,1.7,16,M,,M,,*54
06/09/2014	05:02:21.941	$GPGGA,050222,2505.4209,N,08014.6875,W,1,9,1.7,16,M,,M,,*53
06/09/2014	05:02:22.979	$GPGGA,050223,2505.4220,N,08014.6886,W,1,9,1.7,16,M,,M,,*55
06/09/2014	05:02:23.978	$GPGGA,050224,2505.4231,N,08014.6898,W,1,9,1.7,16,M,,M,,*5D
06/09/2014	05:02:24.971	$GPGGA,050225,2505.4244,N,08014.6911,W,1,9,1.7,16,M,,M,,*5E
06/09/2014	05:02:25.996	$GPGGA,050226,2505.4255,N,08014.6922,W,1,9,1.7,16,M,,M,,*5D
06/09/2014	05:02:27.027	$GPGGA,050227,2505.4267,N,08014.6933,W,1,9,1.7,16,M,,M,,*5D
06/09/2014	05:02:28.015	$GPGGA,050228,2505.4278,N,08014.6945,W,1,9,1.7,16,M,,M,,*5D
06/09/2014	05:02:29.002	$GPGGA,050229,2505.4291,N,08014.6958,W,1,9,1.7,16,M,,M,,*57
06/09/2014	05:02:30.013	$GPGGA,050230,2505.4302,N,08014.6969,W,1,9,1.7,16,M,,M,,*56
06/09/2014	05:02:31.182	$GPGGA,050231,2505.4314,N,08014.6980,W,1,9,1.7,16,M,,M,,*57
06/09/2014	05:02:32.054	$GPGGA,050232,2505.4327,N,08014.6991,W,1,9,1.7,16,M,,M,,*54
06/09/2014	05:02:33.200	$GPGGA,050233,2505.4338,N,08014.7003,W,1,9,1.7,16,M,,M,,*58
06/09/2014	05:02:34.050	$GPGGA,050234,2505.4350,N,08014.7014,W,1,9,1.7,16,M,,M,,*57
06/09/2014	05:02:35.037	$GPGGA,050235,2505.4363,N,08014.7027,W,1,9,1.7,16,M,,M,,*56
06/09/2014	05:02:36.076	$GPGGA,050236,2505.4375,N,08014.7038,W,1,9,1.7,16,M,,M,,*5C
06/09/2014	05:02:37.079	$GPGGA,050237,2505.4386,N,08014.7049,W,1,9,1.7,16,M,,M,,*57
06/09/2014	05:02:38.054	$GPGGA,050238,2505.4399,N,08014.7061,W,1,9,1.7,16,M,,M,,*5C
06/09/2014	05:02:39.073	$GPGGA,050239,2505.4411,N,08014.7074,W,1,9,1.7,16,M,,M,,*5E
06/09/2014	05:02:39.548	$GPGGA,050240,2505.4422,N,08014.7085,W,1,9,1.7,16,M,,M,,*5E
06/09/2014	05:02:40.719	$GPGGA,050241,2505.4435,N,08014.7096,W,1,9,1.7,16,M,,M,,*5B
06/09/2014	05:02:41.557	$GPGGA,050242,2505.4447,N,08014.7108,W,1,9,1.7,16,M,,M,,*5B
06/09/2014	05:02:42.546	$GPGGA,050243,2505.4458,N,08014.7121,W,1,9,1.7,16,M,,M,,*5F
06/09/2014	05:02:43.706	$GPGGA,050244,2505.4471,N,08014.7132,W,1,9,1.7,16,M,,M,,*51
06/09/2014	05:02:44.574	$GPGGA,050245,2505.4483,N,08014.7144,W,1,9,1.7,16,M,,M,,*5C
06/09/2014	05:02:45.562	$GPGGA,050246,2505.4496,N,08014.7155,W,1,9,1.7,16,M,,M,,*5B
06/09/2014	05:02:46.763	$GPGGA,050247,2505.4508,N,08014.7168,W,1,9,1.7,16,M,,M,,*52
06/09/2014	05:02:47.741	$GPGGA,050248,2505.4519,N,08014.7179,W,1,9,1.7,15,M,,M,,*5E
06/09/2014	05:02:48.791	$GPGGA,050249,2505.4530,N,08014.7191,W,1,9,1.7,15,M,,M,,*52
06/09/2014	05:02:49.747	$GPGGA,050250,2505.4544,N,08014.7204,W,1,9,1.7,15,M,,M,,*56
06/09/2014	05:02:50.809	$GPGGA,050251,2505.4555,N,08014.7215,W,1,9,1.7,15,M,,M,,*57
06/09/2014	05:02:51.636	$GPGGA,050252,2505.4566,N,08014.7226,W,1,9,1.7,15,M,,M,,*54
06/09/2014	05:02:52.716	$GPGGA,050253,2505.4579,N,08014.7238,W,1,9,1.7,15,M,,M,,*54
06/09/2014	05:02:53.725	$GPGGA,050254,2505.4591,N,08014.7251,W,1,9,1.7,15,M,,M,,*5A
06/09/2014	05:02:54.635	$GPGGA,050255,2505.4603,N,08014.7262,W,1,9,1.7,15,M,,M,,*53
06/09/2014	05:02:55.794	$GPGGA,050256,2505.4614,N,08014.7273,W,1,9,1.7,15,M,,M,,*56
06/09/2014	05:02:56.743	$GPGGA,050257,2505.4627,N,08014.7285,W,1,9,1.7,15,M,,M,,*5E
06/09/2014	05:02:57.752	$GPGGA,050258,2505.4638,N,08014.7298,W,1,9,1.7,15,M,,M,,*53
06/09/2014	05:02:58.872	$GPGGA,050259,2505.4650,N,08014.7309,W,1,9,1.7,15,M,,M,,*55
06/09/2014	05:02:59.780	$GPGGA,050300,2505.4661,N,08014.7320,W,1,9,1.7,15,M,,M,,*51
06/09/2014	05:03:00.870	$GPGGA,050301,2505.4674,N,08014.7332,W,1,9,1.7,15,M,,M,,*57
06/09/2014	05:03:01.808	$GPGGA,050302,2505.4685,N,08014.7345,W,1,9,1.7,15,M,,M,,*5A
06/09/2014	05:03:02.898	$GPGGA,050303,2505.4697,N,08014.7357,W,1,9,1.7,15,M,,M,,*5B
06/09/2014	05:03:03.836	$GPGGA,050304,2505.4708,N,08014.7370,W,1,9,1.7,15,M,,M,,*5E
06/09/2014	05:03:04.905	$GPGGA,050305,2505.4720,N,08014.7381,W,1,9,1.7,15,M,,M,,*5B
06/09/2014	05:03:05.844	$GPGGA,050306,2505.4732,N,08014.7393,W,1,9,1.7,15,M,,M,,*58
06/09/2014	05:03:06.812	$GPGGA,050307,2505.4743,N,08014.7406,W,1,9,1.7,15,M,,M,,*54
06/09/2014	05:03:07.882	$GPGGA,050308,2505.4754,N,08014.7417,W,1,9,1.7,15,M,,M,,*5D
06/09/2014	05:03:08.891	$GPGGA,050309,2505.4767,N,08014.7429,W,1,9,1.7,15,M,,M,,*51
06/09/2014	05:03:09.860	$GPGGA,050310,2505.4779,N,08014.7442,W,1,9,1.7,15,M,,M,,*5B
06/09/2014	05:03:10.950	$GPGGA,050311,2505.4790,N,08014.7453,W,1,9,1.7,15,M,,M,,*5D
06/09/2014	05:03:11.888	$GPGGA,050312,2505.4801,N,08014.7465,W,1,9,1.7,15,M,,M,,*5C
06/09/2014	05:03:12.978	$GPGGA,050313,2505.4812,N,08014.7478,W,1,9,1.7,15,M,,M,,*53
06/09/2014	05:03:13.886	$GPGGA,050314,2505.4823,N,08014.7489,W,1,9,1.7,15,M,,M,,*58
06/09/2014	05:03:14.936	$GPGGA,050315,2505.4836,N,08014.7501,W,1,9,1.7,15,M,,M,,*5C
06/09/2014	05:03:15.925	$GPGGA,050316,2505.4847,N,08014.7514,W,1,9,1.7,15,M,,M,,*5D
06/09/2014	05:03:16.994	$GPGGA,050317,2505.4859,N,08014.7525,W,1,9,1.7,15,M,,M,,*51
06/09/2014	05:03:17.923	$GPGGA,050318,2505.4870,N,08014.7537,W,1,9,1.7,15,M,,M,,*56
06/09/2014	05:03:19.012	$GPGGA,050319,2505.4881,N,08014.7550,W,1,9,1.7,15,M,,M,,*58
06/09/2014	05:03:19.961	$GPGGA,050320,2505.4892,N,08014.7562,W,1,9,1.7,15,M,,M,,*51
06/09/2014	05:03:21.024	$GPGGA,050321,2505.4903,N,08014.7573,W,1,9,1.7,15,M,,M,,*59
06/09/2014	05:03:21.958	$GPGGA,050322,2505.4915,N,08014.7587,W,1,9,1.7,15,M,,M,,*56
06/09/2014	05:03:23.046	$GPGGA,050323,2505.4927,N,08014.7598,W,1,9,1.7,15,M,,M,,*58
06/09/2014	05:03:23.948	$GPGGA,050324,2505.4938,N,08014.7610,W,1,9,1.7,15,M,,M,,*52
06/09/2014	05:03:25.026	$GPGGA,050325,2505.4949,N,08014.7623,W,1,9,1.7,15,M,,M,,*55
06/09/2014	05:03:25.974	$GPGGA,050326,2505.4960,N,08014.7634,W,1,9,1.7,15,M,,M,,*5B
06/09/2014	05:03:27.118	$GPGGA,050327,2505.4971,N,08014.7646,W,1,9,1.7,15,M,,M,,*5F
06/09/2014	05:03:28.002	$GPGGA,050328,2505.4984,N,08014.7659,W,1,9,1.7,15,M,,M,,*54
06/09/2014	05:03:28.971	$GPGGA,050329,2505.4996,N,08014.7671,W,1,9,1.7,15,M,,M,,*5C
06/09/2014	05:03:30.094	$GPGGA,050330,2505.5007,N,08014.7684,W,1,9,1.7,15,M,,M,,*5E
06/09/2014	05:03:31.113	$GPGGA,050331,2505.5018,N,08014.7695,W,1,9,1.7,15,M,,M,,*51
06/09/2014	05:03:32.035	$GPGGA,050332,2505.5029,N,08014.7707,W,1,9,1.7,15,M,,M,,*5A
06/09/2014	05:03:33.119	$GPGGA,050333,2505.5040,N,08014.7720,W,1,9,1.7,15,M,,M,,*51
06/09/2014	05:03:34.109	$GPGGA,050334,2505.5053,N,08014.7731,W,1,9,1.7,15,M,,M,,*54
06/09/2014	05:03:35.117	$GPGGA,050335,2505.5064,N,08014.7743,W,1,9,1.7,15,M,,M,,*54
06/09/2014	05:03:36.071	$GPGGA,050336,2505.5076,N,08014.7756,W,1,9,1.7,15,M,,M,,*50
06/09/2014	05:03:37.136	$GPGGA,050337,2505.5087,N,08014.7768,W,1,9,1.7,15,M,,M,,*52
06/09/2014	05:03:38.093	$GPGGA,050338,2505.5098,N,08014.7780,W,1,9,1.7,15,M,,M,,*55
06/09/2014	05:03:39.194	$GPGGA,050339,2505.5111,N,08014.7793,W,1,9,1.7,15,M,,M,,*56
06/09/2014	05:03:39.627	$GPGGA,050340,2505.5122,N,08014.7804,W,1,9,1.7,15,M,,M,,*59
06/09/2014	05:03:40.606	$GPGGA,050341,2505.5134,N,08014.7816,W,1,9,1.7,15,M,,M,,*5C
06/09/2014	05:03:41.615	$GPGGA,050342,2505.5145,N,08014.7829,W,1,9,1.7,15,M,,M,,*55
06/09/2014	05:03:42.665	$GPGGA,050343,2505.5155,N,08014.7840,W,1,9,1.7,15,M,,M,,*5A
06/09/2014	05:03:43.643	$GPGGA,050344,2505.5168,N,08014.7852,W,1,9,1.7,15,M,,M,,*50
06/09/2014	05:03:44.653	$GPGGA,050345,2505.5179,N,08014.7865,W,1,9,1.7,15,M,,M,,*55
06/09/2014	05:03:45.641	$GPGGA,050346,2505.5191,N,08014.7877,W,1,9,1.7,15,M,,M,,*53
06/09/2014	05:03:46.651	$GPGGA,050347,2505.5202,N,08014.7890,W,1,9,1.7,15,M,,M,,*52
06/09/2014	05:03:47.680	$GPGGA,050348,2505.5213,N,08014.7901,W,1,9,1.7,15,M,,M,,*54
06/09/2014	05:03:48.709	$GPGGA,050349,2505.5226,N,08014.7913,W,1,9,1.7,15,M,,M,,*50
06/09/2014	05:03:49.668	$GPGGA,050350,2505.5237,N,08014.7926,W,1,9,1.7,15,M,,M,,*5E
06/09/2014	05:03:50.707	$GPGGA,050351,2505.5249,N,08014.7937,W,1,9,1.7,15,M,,M,,*56
06/09/2014	05:03:51.706	$GPGGA,050352,2505.5260,N,08014.7949,W,1,9,1.7,15,M,,M,,*57
06/09/2014	05:03:52.715	$GPGGA,050353,2505.5271,N,08014.7962,W,1,9,1.7,15,M,,M,,*5F
06/09/2014	05:03:53.704	$GPGGA,050354,2505.5284,N,08014.7973,W,1,9,1.7,15,M,,M,,*52
06/09/2014	05:03:54.774	$GPGGA,050355,2505.5296,N,08014.7985,W,1,9,1.7,15,M,,M,,*59
06/09/2014	05:03:55.731	$GPGGA,050356,2505.5307,N,08014.7996,W,1,9,1.7,15,M,,M,,*51
06/09/2014	05:03:56.801	$GPGGA,050357,2505.5320,N,08014.8009,W,1,9,1.7,15,M,,M,,*55
06/09/2014	05:03:57.740	$GPGGA,050358,2505.5332,N,08014.8020,W,1,9,1.7,15,M,,M,,*52
06/09/2014	05:03:58.769	$GPGGA,050359,2505.5343,N,08014.8032,W,1,9,1.7,15,M,,M,,*56
06/09/2014	05:03:59.788	$GPGGA,050400,2505.5354,N,08014.8045,W,1,9,1.7,15,M,,M,,*5B
06/09/2014	05:04:00.777	$GPGGA,050401,2505.5367,N,08014.8056,W,1,9,1.7,15,M,,M,,*58
06/09/2014	05:04:01.756	$GPGGA,050402,2505.5379,N,08014.8068,W,1,9,1.7,15,M,,M,,*59
06/09/2014	05:04:02.775	$GPGGA,050403,2505.5390,N,08014.8081,W,1,9,1.7,15,M,,M,,*58
06/09/2014	05:04:03.774	$GPGGA,050404,2505.5401,N,08014.8092,W,1,9,2.0,15,M,,M,,*56
06/09/2014	05:04:04.793	$GPGGA,050405,2505.5401,N,08014.8092,W,1,9,1.7,15,M,,M,,*53
06/09/2014	05:04:05.903	$GPGGA,050406,2505.5423,N,08014.8118,W,1,9,1.7,15,M,,M,,*53
06/09/2014	05:04:06.842	$GPGGA,050407,2505.5434,N,08014.8129,W,1,9,1.7,15,M,,M,,*56
06/09/2014	05:04:07.820	$GPGGA,050408,2505.5447,N,08014.8141,W,1,9,1.7,15,M,,M,,*53
06/09/2014	05:04:08.870	$GPGGA,050409,2505.5459,N,08014.8154,W,1,9,1.7,15,M,,M,,*59
06/09/2014	05:04:09.829	$GPGGA,050410,2505.5470,N,08014.8165,W,1,9,1.7,15,M,,M,,*58
06/09/2014	05:04:10.868	$GPGGA,050411,2505.5481,N,08014.8177,W,1,9,1.7,15,M,,M,,*54
06/09/2014	05:04:11.847	$GPGGA,050412,2505.5494,N,08014.8190,W,1,9,1.7,15,M,,M,,*5A
06/09/2014	05:04:12.957	$GPGGA,050413,2505.5506,N,08014.8201,W,1,9,1.7,15,M,,M,,*5A
06/09/2014	05:04:13.858	$GPGGA,050414,2505.5517,N,08014.8213,W,1,9,1.7,16,M,,M,,*5D
06/09/2014	05:04:14.883	$GPGGA,050415,2505.5517,N,08014.8213,W,1,9,1.7,16,M,,M,,*5C
06/09/2014	05:04:15.862	$GPGGA,050416,2505.5541,N,08014.8237,W,1,9,1.7,16,M,,M,,*5A
06/09/2014	05:04:16.943	$GPGGA,050417,2505.5553,N,08014.8249,W,1,9,1.7,16,M,,M,,*51
06/09/2014	05:04:17.870	$GPGGA,050418,2505.5564,N,08014.8262,W,1,9,1.7,16,M,,M,,*53
06/09/2014	05:04:18.960	$GPGGA,050419,2505.5577,N,08014.8273,W,1,9,1.7,16,M,,M,,*50
06/09/2014	05:04:19.919	$GPGGA,050420,2505.5577,N,08014.8273,W,1,9,1.7,16,M,,M,,*5A
06/09/2014	05:04:20.968	$GPGGA,050421,2505.5589,N,08014.8285,W,1,9,1.7,16,M,,M,,*53
06/09/2014	05:04:22.007	$GPGGA,050422,2505.5613,N,08014.8309,W,1,9,1.7,16,M,,M,,*55
06/09/2014	05:04:23.006	$GPGGA,050423,2505.5624,N,08014.8321,W,1,9,1.7,16,M,,M,,*5A
06/09/2014	05:04:23.915	$GPGGA,050424,2505.5636,N,08014.8335,W,1,9,1.7,17,M,,M,,*5A
06/09/2014	05:04:24.934	$GPGGA,050425,2505.5636,N,08014.8335,W,1,9,1.7,17,M,,M,,*5B
06/09/2014	05:04:26.024	$GPGGA,050426,2505.5660,N,08014.8358,W,1,9,1.7,17,M,,M,,*50
06/09/2014	05:04:27.043	$GPGGA,050427,2505.5672,N,08014.8371,W,1,9,1.7,17,M,,M,,*59
06/09/2014	05:04:27.951	$GPGGA,050428,2505.5683,N,08014.8383,W,1,9,1.7,17,M,,M,,*55
06/09/2014	05:04:29.071	$GPGGA,050429,2505.5694,N,08014.8396,W,1,9,1.7,17,M,,M,,*56
06/09/2014	05:04:30.050	$GPGGA,050430,2505.5705,N,08014.8407,W,1,9,1.7,17,M,,M,,*58
06/09/2014	05:04:31.088	$GPGGA,050431,2505.5718,N,08014.8419,W,1,9,1.7,17,M,,M,,*5A
06/09/2014	05:04:32.067	$GPGGA,050432,2505.5729,N,08014.8432,W,1,9,1.7,17,M,,M,,*52
06/09/2014	05:04:33.086	$GPGGA,050433,2505.5741,N,08014.8443,W,1,9,1.7,17,M,,M,,*5B
06/09/2014	05:04:34.085	$GPGGA,050434,2505.5751,N,08014.8457,W,1,9,1.7,17,M,,M,,*58
06/09/2014	05:04:35.115	$GPGGA,050435,2505.5751,N,08014.8457,W,1,9,1.7,17,M,,M,,*59
06/09/2014	05:04:36.114	$GPGGA,050436,2505.5775,N,08014.8480,W,1,9,1.7,17,M,,M,,*56
06/09/2014	05:04:37.123	$GPGGA,050437,2505.5786,N,08014.8493,W,1,9,1.7,17,M,,M,,*59
06/09/2014	05:04:38.103	$GPGGA,050438,2505.5798,N,08014.8505,W,1,9,1.7,17,M,,M,,*57
06/09/2014	05:04:39.121	$GPGGA,050439,2505.5809,N,08014.8519,W,1,9,1.7,17,M,,M,,*5C
06/09/2014	05:04:39.596	$GPGGA,050440,2505.5820,N,08014.8531,W,1,9,1.7,17,M,,M,,*53
06/09/2014	05:04:40.615	$GPGGA,050441,2505.5820,N,08014.8531,W,1,9,1.7,17,M,,M,,*52
06/09/2014	05:04:41.594	$GPGGA,050442,2505.5842,N,08014.8556,W,1,9,1.7,17,M,,M,,*54
06/09/2014	05:04:42.623	$GPGGA,050443,2505.5855,N,08014.8569,W,1,9,1.7,17,M,,M,,*5F
06/09/2014	05:04:43.612	$GPGGA,050444,2505.5866,N,08014.8581,W,1,9,1.7,17,M,,M,,*5E
06/09/2014	05:04:44.642	$GPGGA,050445,2505.5878,N,08014.8595,W,1,9,1.7,17,M,,M,,*55
06/09/2014	05:04:45.620	$GPGGA,050446,2505.5889,N,08014.8607,W,1,9,1.7,17,M,,M,,*50
06/09/2014	05:04:46.650	$GPGGA,050447,2505.5900,N,08014.8620,W,1,9,1.7,17,M,,M,,*54
06/09/2014	05:04:47.659	$GPGGA,050448,2505.5910,N,08014.8632,W,1,9,1.7,17,M,,M,,*59
06/09/2014	05:04:48.647	$GPGGA,050449,2505.5923,N,08014.8645,W,1,9,1.7,17,M,,M,,*58
06/09/2014	05:04:49.646	$GPGGA,050450,2505.5934,N,08014.8658,W,1,9,1.7,17,M,,M,,*5A
06/09/2014	05:04:50.685	$GPGGA,050451,2505.5945,N,08014.8671,W,1,9,1.7,17,M,,M,,*56
06/09/2014	05:04:51.684	$GPGGA,050452,2505.5957,N,08014.8683,W,1,9,1.7,17,M,,M,,*5B
06/09/2014	05:04:52.703	$GPGGA,050453,2505.5968,N,08014.8696,W,1,9,1.7,17,M,,M,,*52
06/09/2014	05:04:53.675	$GPGGA,050454,2505.5979,N,08014.8708,W,1,9,1.7,17,M,,M,,*53
06/09/2014	05:04:54.684	$GPGGA,050455,2505.5990,N,08014.8721,W,1,9,1.7,17,M,,M,,*5E
06/09/2014	05:04:55.710	$GPGGA,050456,2505.6003,N,08014.8733,W,1,9,1.7,17,M,,M,,*5E
06/09/2014	05:04:56.729	$GPGGA,050457,2505.6014,N,08014.8746,W,1,9,1.7,17,M,,M,,*5B
06/09/2014	05:04:57.721	$GPGGA,050458,2505.6025,N,08014.8758,W,1,9,1.7,17,M,,M,,*59
06/09/2014	05:04:58.708	$GPGGA,050459,2505.6037,N,08014.8772,W,1,9,1.7,17,M,,M,,*53
06/09/2014	05:04:59.745	$GPGGA,050500,2505.6048,N,08014.8783,W,1,9,1.7,17,M,,M,,*58
06/09/2014	05:05:00.738	$GPGGA,050501,2505.6059,N,08014.8795,W,1,9,1.7,17,M,,M,,*5E
06/09/2014	05:05:01.735	$GPGGA,050502,2505.6072,N,08014.8808,W,1,9,1.7,17,M,,M,,*5F
06/09/2014	05:05:02.846	$GPGGA,050503,2505.6083,N,08014.8820,W,1,9,1.7,17,M,,M,,*5A
06/09/2014	05:05:03.773	$GPGGA,050504,2505.6095,N,08014.8833,W,1,9,1.7,17,M,,M,,*58
06/09/2014	05:05:04.782	$GPGGA,050505,2505.6105,N,08014.8844,W,1,9,1.7,17,M,,M,,*51
06/09/2014	05:05:05.770	$GPGGA,050506,2505.6117,N,08014.8858,W,1,9,1.7,17,M,,M,,*5C
06/09/2014	05:05:06.902	$GPGGA,050507,2505.6130,N,08014.8869,W,1,9,1.7,17,M,,M,,*5A
06/09/2014	05:05:07.788	$GPGGA,050508,2505.6141,N,08014.8881,W,1,9,1.7,17,M,,M,,*55
06/09/2014	05:05:08.898	$GPGGA,050509,2505.6152,N,08014.8894,W,1,9,1.7,17,M,,M,,*52
06/09/2014	05:05:09.877	$GPGGA,050510,2505.6165,N,08014.8906,W,1,9,1.7,17,M,,M,,*54
06/09/2014	05:05:10.916	$GPGGA,050511,2505.6177,N,08014.8918,W,1,9,1.7,17,M,,M,,*59
06/09/2014	05:05:11.814	$GPGGA,050512,2505.6189,N,08014.8931,W,1,9,1.7,17,M,,M,,*50
06/09/2014	05:05:12.904	$GPGGA,050513,2505.6200,N,08014.8942,W,1,9,1.7,17,M,,M,,*57
06/09/2014	05:05:13.923	$GPGGA,050514,2505.6212,N,08014.8956,W,1,9,1.7,17,M,,M,,*56
06/09/2014	05:05:14.832	$GPGGA,050515,2505.6224,N,08014.8967,W,1,9,1.7,17,M,,M,,*50
06/09/2014	05:05:15.962	$GPGGA,050516,2505.6236,N,08014.8979,W,1,9,1.7,17,M,,M,,*5F
06/09/2014	05:05:16.850	$GPGGA,050517,2505.6247,N,08014.8992,W,1,9,1.7,17,M,,M,,*5D
06/09/2014	05:05:17.950	$GPGGA,050518,2505.6260,N,08014.9003,W,1,9,1.7,17,M,,M,,*57
06/09/2014	05:05:18.989	$GPGGA,050519,2505.6272,N,08014.9015,W,1,9,1.7,17,M,,M,,*52
06/09/2014	05:05:19.979	$GPGGA,050520,2505.6283,N,08014.9028,W,1,9,1.7,17,M,,M,,*58
06/09/2014	05:05:20.968	$GPGGA,050521,2505.6296,N,08014.9040,W,1,9,1.7,17,M,,M,,*53
06/09/2014	05:05:21.976	$GPGGA,050522,2505.6308,N,08014.9053,W,1,9,1.7,17,M,,M,,*54
06/09/2014	05:05:22.975	$GPGGA,050523,2505.6319,N,08014.9064,W,1,9,1.7,17,M,,M,,*51
06/09/2014	05:05:23.993	$GPGGA,050524,2505.6332,N,08014.9076,W,1,9,1.7,17,M,,M,,*5C
06/09/2014	05:05:25.012	$GPGGA,050525,2505.6344,N,08014.9089,W,1,9,1.7,17,M,,M,,*5C
06/09/2014	05:05:25.991	$GPGGA,050526,2505.6355,N,08014.9100,W,1,9,1.7,17,M,,M,,*5F
06/09/2014	05:05:27.021	$GPGGA,050527,2505.6368,N,08014.9112,W,1,9,1.7,17,M,,M,,*53
06/09/2014	05:05:28.020	$GPGGA,050528,2505.6380,N,08014.9124,W,1,9,1.7,17,M,,M,,*5F
06/09/2014	05:05:29.039	$GPGGA,050529,2505.6393,N,08014.9137,W,1,9,1.7,17,M,,M,,*5E
06/09/2014	05:05:30.018	$GPGGA,050530,2505.6404,N,08014.9148,W,1,9,1.7,17,M,,M,,*57
06/09/2014	05:05:31.057	$GPGGA,050531,2505.6416,N,08014.9160,W,1,9,1.7,17,M,,M,,*5F
06/09/2014	05:05:32.056	$GPGGA,050532,2505.6429,N,08014.9173,W,1,9,1.7,17,M,,M,,*52
06/09/2014	05:05:33.075	$GPGGA,050533,2505.6441,N,08014.9185,W,1,9,1.7,17,M,,M,,*54
06/09/2014	05:05:34.060	$GPGGA,050534,2505.6452,N,08014.9198,W,1,9,1.7,17,M,,M,,*5D
06/09/2014	05:05:35.082	$GPGGA,050535,2505.6465,N,08014.9209,W,1,9,1.7,17,M,,M,,*53
06/09/2014	05:05:36.092	$GPGGA,050536,2505.6477,N,08014.9221,W,1,9,1.7,17,M,,M,,*59
06/09/2014	05:05:37.076	$GPGGA,050537,2505.6488,N,08014.9234,W,1,9,1.7,17,M,,M,,*5C
06/09/2014	05:05:38.091	$GPGGA,050538,2505.6501,N,08014.9246,W,1,9,1.7,17,M,,M,,*56
06/09/2014	05:05:39.130	$GPGGA,050539,2505.6513,N,08014.9259,W,1,9,1.7,17,M,,M,,*5A
06/09/2014	05:05:39.565	$GPGGA,050540,2505.6525,N,08014.9270,W,1,9,1.7,17,M,,M,,*5A
06/09/2014	05:05:40.593	$GPGGA,050541,2505.6538,N,08014.9282,W,1,9,1.7,17,M,,M,,*5A
06/09/2014	05:05:41.573	$GPGGA,050542,2505.6550,N,08014.9296,W,1,9,1.7,17,M,,M,,*52
06/09/2014	05:05:42.601	$GPGGA,050543,2505.6561,N,08014.9307,W,1,9,1.7,17,M,,M,,*58
06/09/2014	05:05:43.610	$GPGGA,050544,2505.6574,N,08014.9319,W,1,9,1.7,17,M,,M,,*54
06/09/2014	05:05:44.594	$GPGGA,050545,2505.6586,N,08014.9332,W,1,9,1.7,17,M,,M,,*51
06/09/2014	05:05:45.608	$GPGGA,050546,2505.6597,N,08014.9343,W,1,9,1.7,17,M,,M,,*54
06/09/2014	05:05:46.708	$GPGGA,050547,2505.6610,N,08014.9355,W,1,9,1.7,17,M,,M,,*5E
06/09/2014	05:05:47.620	$GPGGA,050548,2505.6622,N,08014.9368,W,1,9,1.7,17,M,,M,,*5E
06/09/2014	05:05:48.605	$GPGGA,050549,2505.6635,N,08014.9380,W,1,9,1.7,17,M,,M,,*5F
06/09/2014	05:05:49.614	$GPGGA,050550,2505.6646,N,08014.9393,W,1,9,1.7,17,M,,M,,*51
06/09/2014	05:05:50.623	$GPGGA,050551,2505.6658,N,08014.9405,W,1,9,1.7,17,M,,M,,*57
06/09/2014	05:05:51.744	$GPGGA,050552,2505.6669,N,08014.9418,W,1,9,1.7,17,M,,M,,*5A
06/09/2014	05:05:52.672	$GPGGA,050553,2505.6682,N,08014.9430,W,1,9,1.7,17,M,,M,,*54
06/09/2014	05:05:53.651	$GPGGA,050554,2505.6694,N,08014.9444,W,1,9,1.7,17,M,,M,,*57
06/09/2014	05:05:54.650	$GPGGA,050555,2505.6705,N,08014.9455,W,1,9,1.7,17,M,,M,,*5F
06/09/2014	05:05:55.689	$GPGGA,050556,2505.6718,N,08014.9469,W,1,9,1.7,16,M,,M,,*5E
06/09/2014	05:05:56.708	$GPGGA,050557,2505.6730,N,08014.9481,W,1,9,1.7,16,M,,M,,*53
06/09/2014	05:05:57.778	$GPGGA,050558,2505.6741,N,08014.9494,W,1,9,1.7,16,M,,M,,*5E
06/09/2014	05:05:58.685	$GPGGA,050559,2505.6752,N,08014.9506,W,1,9,1.7,16,M,,M,,*57
06/09/2014	05:05:59.805	$GPGGA,050600,2505.6765,N,08014.9520,W,1,9,1.7,16,M,,M,,*58
06/09/2014	05:06:00.825	$GPGGA,050601,2505.6776,N,08014.9531,W,1,9,1.7,16,M,,M,,*5B
06/09/2014	05:06:01.712	$GPGGA,050602,2505.6788,N,08014.9545,W,1,9,1.7,16,M,,M,,*5A
06/09/2014	05:06:02.721	$GPGGA,050603,2505.6799,N,08014.9557,W,1,9,1.7,16,M,,M,,*58
06/09/2014	05:06:03.731	$GPGGA,050604,2505.6810,N,08014.9570,W,1,9,1.7,16,M,,M,,*54
06/09/2014	05:06:04.820	$GPGGA,050605,2505.6821,N,08014.9582,W,1,9,1.7,16,M,,M,,*5A
06/09/2014	05:06:05.840	$GPGGA,050606,2505.6834,N,08014.9595,W,1,9,1.7,16,M,,M,,*5B
06/09/2014	05:06:06.849	$GPGGA,050607,2505.6845,N,08014.9608,W,1,9,1.7,16,M,,M,,*5B
06/09/2014	05:06:07.858	$GPGGA,050608,2505.6857,N,08014.9621,W,1,9,1.7,16,M,,M,,*5C
06/09/2014	05:06:08.887	$GPGGA,050609,2505.6868,N,08014.9635,W,1,9,1.7,16,M,,M,,*54
06/09/2014	05:06:09.856	$GPGGA,050610,2505.6879,N,08014.9647,W,1,9,1.7,16,M,,M,,*59
06/09/2014	05:06:10.881	$GPGGA,050611,2505.6889,N,08014.9660,W,1,9,1.7,16,M,,M,,*52
06/09/2014	05:06:11.906	$GPGGA,050612,2505.6902,N,08014.9672,W,1,9,1.7,16,M,,M,,*50
06/09/2014	05:06:12.891	$GPGGA,050613,2505.6913,N,08014.9686,W,1,9,1.7,16,M,,M,,*5A
06/09/2014	05:06:13.876	$GPGGA,050614,2505.6925,N,08014.9698,W,1,9,1.7,16,M,,M,,*57
06/09/2014	05:06:14.870	$GPGGA,050615,2505.6936,N,08014.9711,W,1,9,1.7,16,M,,M,,*54
06/09/2014	05:06:15.894	$GPGGA,050616,2505.6947,N,08014.9723,W,1,9,1.7,16,M,,M,,*50
06/09/2014	05:06:16.939	$GPGGA,050617,2505.6958,N,08014.9736,W,1,9,1.7,16,M,,M,,*5B
06/09/2014	05:06:17.884	$GPGGA,050618,2505.6971,N,08014.9749,W,1,9,1.7,16,M,,M,,*57
06/09/2014	05:06:18.909	$GPGGA,050619,2505.6982,N,08014.9762,W,1,9,1.7,16,M,,M,,*53
06/09/2014	05:06:19.894	$GPGGA,050620,2505.6994,N,08014.9774,W,1,9,1.7,16,M,,M,,*59
06/09/2014	05:06:20.919	$GPGGA,050621,2505.7005,N,08014.9787,W,1,9,1.7,16,M,,M,,*54
06/09/2014	05:06:21.894	$GPGGA,050622,2505.7016,N,08014.9801,W,1,9,1.7,16,M,,M,,*54
06/09/2014	05:06:22.899	$GPGGA,050623,2505.7029,N,08014.9812,W,1,9,1.7,16,M,,M,,*5B
06/09/2014	05:06:23.924	$GPGGA,050624,2505.7040,N,08014.9826,W,1,9,1.7,16,M,,M,,*54
06/09/2014	05:06:24.938	$GPGGA,050625,2505.7051,N,08014.9838,W,1,9,1.7,16,M,,M,,*5A
06/09/2014	05:06:25.903	$GPGGA,050626,2505.7063,N,08014.9852,W,1,9,1.7,16,M,,M,,*54
06/09/2014	05:06:26.918	$GPGGA,050627,2505.7074,N,08014.9864,W,1,9,1.7,16,M,,M,,*56
06/09/2014	05:06:27.943	$GPGGA,050628,2505.7087,N,08014.9877,W,1,9,1.7,16,M,,M,,*57
06/09/2014	05:06:28.948	$GPGGA,050629,2505.7099,N,08014.9889,W,1,9,1.7,16,M,,M,,*58
06/09/2014	05:06:29.923	$GPGGA,050630,2505.7110,N,08014.9902,W,1,9,1.7,16,M,,M,,*52
06/09/2014	05:06:30.948	$GPGGA,050631,2505.7121,N,08014.9915,W,1,9,1.7,16,M,,M,,*57
06/09/2014	05:06:31.943	$GPGGA,050632,2505.7134,N,08014.9928,W,1,9,1.7,16,M,,M,,*5E
06/09/2014	05:06:32.958	$GPGGA,050633,2505.7146,N,08014.9940,W,1,9,1.7,16,M,,M,,*54
06/09/2014	05:06:33.941	$GPGGA,050634,2505.7157,N,08014.9953,W,1,9,1.7,16,M,,M,,*51
06/09/2014	05:06:34.936	$GPGGA,050635,2505.7170,N,08014.9965,W,1,9,1.7,16,M,,M,,*50
06/09/2014	05:06:35.951	$GPGGA,050636,2505.7181,N,08014.9978,W,1,9,1.7,16,M,,M,,*51
06/09/2014	05:06:37.117	$GPGGA,050637,2505.7193,N,08014.9990,W,1,9,1.7,16,M,,M,,*55
06/09/2014	05:06:37.931	$GPGGA,050638,2505.7204,N,08015.0004,W,1,9,1.7,16,M,,M,,*5B
06/09/2014	05:06:38.936	$GPGGA,050639,2505.7217,N,08015.0015,W,1,9,1.7,16,M,,M,,*58
06/09/2014	05:06:39.652	$GPGGA,050640,2505.7229,N,08015.0027,W,1,9,1.7,16,M,,M,,*5A
06/09/2014	05:06:40.526	$GPGGA,050641,2505.7240,N,08015.0040,W,1,9,1.7,16,M,,M,,*55
06/09/2014	05:06:41.652	$GPGGA,050642,2505.7253,N,08015.0052,W,1,9,1.7,16,M,,M,,*57
06/09/2014	05:06:42.637	$GPGGA,050643,2505.7265,N,08015.0065,W,1,9,1.7,16,M,,M,,*57
06/09/2014	05:06:43.541	$GPGGA,050644,2505.7276,N,08015.0077,W,1,9,1.7,16,M,,M,,*51
06/09/2014	05:06:44.536	$GPGGA,050645,2505.7289,N,08015.0090,W,1,9,1.7,16,M,,M,,*59
06/09/2014	05:06:45.661	$GPGGA,050646,2505.7301,N,08015.0102,W,1,9,1.7,16,M,,M,,*51
06/09/2014	05:06:46.566	$GPGGA,050647,2505.7314,N,08015.0115,W,1,9,1.7,16,M,,M,,*52
06/09/2014	05:06:47.661	$GPGGA,050648,2505.7326,N,08015.0127,W,1,9,1.7,16,M,,M,,*5D
06/09/2014	05:06:48.556	$GPGGA,050649,2505.7337,N,08015.0141,W,1,9,1.7,16,M,,M,,*5C
06/09/2014	05:06:49.662	$GPGGA,050650,2505.7350,N,08015.0152,W,1,9,1.7,16,M,,M,,*57
06/09/2014	05:06:50.655	$GPGGA,050651,2505.7363,N,08015.0166,W,1,9,1.7,16,M,,M,,*51
06/09/2014	05:06:51.579	$GPGGA,050652,2505.7374,N,08015.0177,W,1,9,1.7,16,M,,M,,*54
06/09/2014	05:06:52.655	$GPGGA,050653,2505.7387,N,08015.0189,W,1,9,1.7,16,M,,M,,*58
06/09/2014	05:06:53.660	$GPGGA,050654,2505.7399,N,08015.0202,W,1,9,1.7,16,M,,M,,*50
06/09/2014	05:06:54.674	$GPGGA,050655,2505.7413,N,08015.0215,W,1,9,1.7,16,M,,M,,*52
06/09/2014	05:06:55.689	$GPGGA,050656,2505.7424,N,08015.0225,W,1,9,1.8,16,M,,M,,*59
06/09/2014	05:06:56.684	$GPGGA,050657,2505.7437,N,08015.0236,W,1,9,1.7,16,M,,M,,*57
06/09/2014	05:06:57.679	$GPGGA,050658,2505.7449,N,08015.0249,W,1,9,1.7,16,M,,M,,*59
06/09/2014	05:06:58.674	$GPGGA,050659,2505.7460,N,08015.0260,W,1,9,1.7,16,M,,M,,*58
06/09/2014	05:06:59.709	$GPGGA,050700,2505.7474,N,08015.0272,W,1,9,1.7,16,M,,M,,*53
06/09/2014	05:07:00.674	$GPGGA,050701,2505.7486,N,08015.0283,W,1,9,1.7,16,M,,M,,*51
06/09/2014	05:07:01.679	$GPGGA,050702,2505.7497,N,08015.0296,W,1,9,1.7,16,M,,M,,*56
06/09/2014	05:07:02.704	$GPGGA,050703,2505.7510,N,08015.0308,W,1,9,1.7,16,M,,M,,*5F
06/09/2014	05:07:03.708	$GPGGA,050704,2505.7522,N,08015.0321,W,1,9,1.7,16,M,,M,,*52
06/09/2014	05:07:04.693	$GPGGA,050705,2505.7535,N,08015.0332,W,1,9,1.7,16,M,,M,,*57
06/09/2014	05:07:05.698	$GPGGA,050706,2505.7547,N,08015.0344,W,1,9,1.7,16,M,,M,,*50
06/09/2014	05:07:06.723	$GPGGA,050707,2505.7558,N,08015.0358,W,1,9,1.7,16,M,,M,,*52
06/09/2014	05:07:07.718	$GPGGA,050708,2505.7571,N,08015.0369,W,1,9,1.7,16,M,,M,,*54
06/09/2014	05:07:08.732	$GPGGA,050709,2505.7583,N,08015.0383,W,1,9,1.7,16,M,,M,,*5C
06/09/2014	05:07:09.707	$GPGGA,050710,2505.7594,N,08015.0395,W,1,9,1.7,16,M,,M,,*55
06/09/2014	05:07:10.712	$GPGGA,050711,2505.7607,N,08015.0408,W,1,9,1.7,16,M,,M,,*5E
06/09/2014	05:07:11.737	$GPGGA,050712,2505.7619,N,08015.0419,W,1,9,1.7,16,M,,M,,*52
06/09/2014	05:07:12.713	$GPGGA,050713,2505.7630,N,08015.0433,W,1,9,1.7,16,M,,M,,*50
06/09/2014	05:07:13.726	$GPGGA,050714,2505.7643,N,08015.0445,W,1,9,1.7,16,M,,M,,*52
06/09/2014	05:07:14.731	$GPGGA,050715,2505.7655,N,08015.0459,W,1,9,1.7,17,M,,M,,*58
06/09/2014	05:07:15.736	$GPGGA,050716,2505.7666,N,08015.0470,W,1,9,1.7,17,M,,M,,*50
06/09/2014	05:07:16.852	$GPGGA,050717,2505.7679,N,08015.0484,W,1,9,1.7,17,M,,M,,*54
06/09/2014	05:07:17.846	$GPGGA,050718,2505.7691,N,08015.0496,W,1,9,1.7,17,M,,M,,*5E
06/09/2014	05:07:18.861	$GPGGA,050719,2505.7702,N,08015.0509,W,1,9,1.7,17,M,,M,,*53
06/09/2014	05:07:19.766	$GPGGA,050720,2505.7715,N,08015.0524,W,1,9,1.7,17,M,,M,,*50
06/09/2014	05:07:20.871	$GPGGA,050721,2505.7726,N,08015.0536,W,1,9,1.7,17,M,,M,,*52
06/09/2014	05:07:21.757	$GPGGA,050722,2505.7738,N,08015.0549,W,1,9,1.7,17,M,,M,,*56
06/09/2014	05:07:22.841	$GPGGA,050723,2505.7749,N,08015.0564,W,1,9,1.7,17,M,,M,,*5E
06/09/2014	05:07:23.876	$GPGGA,050724,2505.7762,N,08015.0576,W,1,9,1.7,17,M,,M,,*53
06/09/2014	05:07:24.761	$GPGGA,050725,2505.7774,N,08015.0589,W,1,9,1.7,17,M,,M,,*55
06/09/2014	05:07:25.854	$GPGGA,050726,2505.7785,N,08015.0603,W,1,9,1.7,17,M,,M,,*59
06/09/2014	05:07:26.759	$GPGGA,050727,2505.7796,N,08015.0616,W,1,9,1.7,17,M,,M,,*5E
06/09/2014	05:07:27.764	$GPGGA,050728,2505.7809,N,08015.0629,W,1,9,1.7,17,M,,M,,*54
06/09/2014	05:07:28.869	$GPGGA,050729,2505.7821,N,08015.0643,W,1,9,1.7,17,M,,M,,*53
06/09/2014	05:07:29.763	$GPGGA,050730,2505.7832,N,08015.0657,W,1,9,1.7,17,M,,M,,*5C
06/09/2014	05:07:30.900	$GPGGA,050731,2505.7843,N,08015.0669,W,1,9,1.7,17,M,,M,,*56
06/09/2014	05:07:31.884	$GPGGA,050732,2505.7854,N,08015.0683,W,1,9,1.7,17,M,,M,,*57
06/09/2014	05:07:32.905	$GPGGA,050733,2505.7867,N,08015.0695,W,1,9,1.7,17,M,,M,,*51
06/09/2014	05:07:33.783	$GPGGA,050734,2505.7878,N,08015.0708,W,1,9,1.7,17,M,,M,,*5D
06/09/2014	05:07:34.788	$GPGGA,050735,2505.7890,N,08015.0723,W,1,9,1.7,17,M,,M,,*53
06/09/2014	05:07:35.793	$GPGGA,050736,2505.7901,N,08015.0735,W,1,9,1.7,17,M,,M,,*5E
06/09/2014	05:07:36.918	$GPGGA,050737,2505.7912,N,08015.0749,W,1,9,1.7,17,M,,M,,*56
06/09/2014	05:07:37.893	$GPGGA,050738,2505.7923,N,08015.0762,W,1,9,1.7,17,M,,M,,*52
06/09/2014	05:07:38.908	$GPGGA,050739,2505.7934,N,08015.0775,W,1,9,1.7,17,M,,M,,*53
06/09/2014	05:07:39.631	$GPGGA,050740,2505.7947,N,08015.0789,W,1,9,1.7,17,M,,M,,*5A
06/09/2014	05:07:40.626	$GPGGA,050741,2505.7958,N,08015.0802,W,1,9,1.7,17,M,,M,,*59
06/09/2014	05:07:41.601	$GPGGA,050742,2505.7969,N,08015.0816,W,1,9,1.7,17,M,,M,,*5D
06/09/2014	05:07:42.627	$GPGGA,050743,2505.7980,N,08015.0829,W,1,9,1.7,17,M,,M,,*57
06/09/2014	05:07:43.619	$GPGGA,050744,2505.7991,N,08015.0843,W,1,9,1.7,17,M,,M,,*5C
06/09/2014	05:07:44.634	$GPGGA,050745,2505.8002,N,08015.0856,W,1,9,1.7,17,M,,M,,*55
06/09/2014	05:07:45.619	$GPGGA,050746,2505.8015,N,08015.0871,W,1,9,1.7,17,M,,M,,*55
06/09/2014	05:07:46.644	$GPGGA,050747,2505.8027,N,08015.0883,W,1,9,1.7,17,M,,M,,*58
06/09/2014	05:07:47.639	$GPGGA,050748,2505.8038,N,08015.0897,W,1,9,1.7,17,M,,M,,*5C
06/09/2014	05:07:48.654	$GPGGA,050749,2505.8049,N,08015.0910,W,1,9,1.7,17,M,,M,,*55
06/09/2014	05:07:49.639	$GPGGA,050750,2505.8062,N,08015.0923,W,1,9,1.7,17,M,,M,,*54
06/09/2014	05:07:50.654	$GPGGA,050751,2505.8074,N,08015.0937,W,1,9,1.7,17,M,,M,,*57
06/09/2014	05:07:51.649	$GPGGA,050752,2505.8085,N,08015.0950,W,1,9,1.7,17,M,,M,,*5B
06/09/2014	05:07:52.664	$GPGGA,050753,2505.8096,N,08015.0965,W,1,9,1.7,17,M,,M,,*5E
06/09/2014	05:07:53.628	$GPGGA,050754,2505.8109,N,08015.0977,W,1,9,1.7,17,M,,M,,*5D
06/09/2014	05:07:54.683	$GPGGA,050755,2505.8121,N,08015.0990,W,1,9,1.7,17,M,,M,,*5F
06/09/2014	05:07:55.658	$GPGGA,050756,2505.8132,N,08015.1004,W,1,9,1.7,17,M,,M,,*5B
06/09/2014	05:07:56.643	$GPGGA,050757,2505.8143,N,08015.1016,W,1,9,1.7,17,M,,M,,*5F
06/09/2014	05:07:57.668	$GPGGA,050758,2505.8156,N,08015.1030,W,1,9,1.7,17,M,,M,,*50
06/09/2014	05:07:58.693	$GPGGA,050759,2505.8168,N,08015.1042,W,1,9,1.7,17,M,,M,,*59
06/09/2014	05:07:59.698	$GPGGA,050800,2505.8179,N,08015.1055,W,1,9,1.7,17,M,,M,,*5C
06/09/2014	05:08:00.692	$GPGGA,050801,2505.8190,N,08015.1069,W,1,9,1.7,17,M,,M,,*55
06/09/2014	05:08:01.657	$GPGGA,050802,2505.8203,N,08015.1081,W,1,9,1.7,17,M,,M,,*59
06/09/2014	05:08:02.671	$GPGGA,050803,2505.8215,N,08015.1095,W,1,9,1.7,17,M,,M,,*5A
06/09/2014	05:08:03.686	$GPGGA,050804,2505.8226,N,08015.1106,W,1,9,1.7,17,M,,M,,*56
06/09/2014	05:08:04.681	$GPGGA,050805,2505.8239,N,08015.1120,W,1,9,1.7,17,M,,M,,*5D
06/09/2014	05:08:05.696	$GPGGA,050806,2505.8250,N,08015.1132,W,1,9,1.7,17,M,,M,,*52
06/09/2014	05:08:06.711	$GPGGA,050807,2505.8262,N,08015.1145,W,1,9,1.7,17,M,,M,,*52
06/09/2014	05:08:07.706	$GPGGA,050808,2505.8273,N,08015.1157,W,1,9,1.7,17,M,,M,,*5E
06/09/2014	05:08:08.711	$GPGGA,050809,2505.8286,N,08015.1171,W,1,9,1.7,17,M,,M,,*51
06/09/2014	05:08:09.696	$GPGGA,050810,2505.8298,N,08015.1182,W,1,9,1.7,17,M,,M,,*5A
06/09/2014	05:08:10.694	$GPGGA,050811,2505.8309,N,08015.1196,W,1,9,1.7,17,M,,M,,*57
06/09/2014	05:08:11.715	$GPGGA,050812,2505.8322,N,08015.1208,W,1,9,1.7,17,M,,M,,*59
06/09/2014	05:08:12.801	$GPGGA,050813,2505.8334,N,08015.1221,W,1,9,1.7,17,M,,M,,*54
06/09/2014	05:08:13.796	$GPGGA,050814,2505.8345,N,08015.1233,W,1,9,1.7,17,M,,M,,*56
06/09/2014	05:08:14.873	$GPGGA,050815,2505.8358,N,08015.1246,W,1,9,1.7,17,M,,M,,*59
06/09/2014	05:08:15.840	$GPGGA,050816,2505.8370,N,08015.1258,W,1,9,1.7,17,M,,M,,*5F
06/09/2014	05:08:16.978	$GPGGA,050817,2505.8382,N,08015.1270,W,1,9,1.7,17,M,,M,,*59
06/09/2014	05:08:17.922	$GPGGA,050818,2505.8393,N,08015.1283,W,1,9,1.7,17,M,,M,,*5A
06/09/2014	05:08:19.123	$GPGGA,050819,2505.8407,N,08015.1297,W,1,9,1.7,17,M,,M,,*54
06/09/2014	05:08:20.057	$GPGGA,050820,2505.8418,N,08015.1308,W,1,9,1.7,17,M,,M,,*57
06/09/2014	05:08:21.196	$GPGGA,050821,2505.8431,N,08015.1322,W,1,9,1.7,17,M,,M,,*55
06/09/2014	05:08:22.131	$GPGGA,050822,2505.8443,N,08015.1334,W,1,9,1.7,17,M,,M,,*54
06/09/2014	05:08:23.246	$GPGGA,050823,2505.8454,N,08015.1347,W,1,9,1.7,17,M,,M,,*57
06/09/2014	05:08:24.247	$GPGGA,050824,2505.8467,N,08015.1359,W,1,9,1.7,17,M,,M,,*5F
06/09/2014	05:08:25.374	$GPGGA,050825,2505.8479,N,08015.1371,W,1,9,1.7,17,M,,M,,*5B
06/09/2014	05:08:26.406	$GPGGA,050826,2505.8490,N,08015.1384,W,1,9,1.7,17,M,,M,,*55
06/09/2014	05:08:27.492	$GPGGA,050827,2505.8503,N,08015.1396,W,1,9,1.7,17,M,,M,,*5C
06/09/2014	05:08:28.535	$GPGGA,050828,2505.8515,N,08015.1409,W,1,9,1.7,17,M,,M,,*55
06/09/2014	05:08:29.557	$GPGGA,050829,2505.8526,N,08015.1423,W,1,9,1.7,17,M,,M,,*5C
06/09/2014	05:08:30.621	$GPGGA,050830,2505.8539,N,08015.1434,W,1,9,1.7,17,M,,M,,*5C
06/09/2014	05:08:31.683	$GPGGA,050831,2505.8551,N,08015.1447,W,1,9,1.7,17,M,,M,,*57
06/09/2014	05:08:32.769	$GPGGA,050832,2505.8562,N,08015.1460,W,1,9,1.7,17,M,,M,,*51
06/09/2014	05:08:33.787	$GPGGA,050833,2505.8573,N,08015.1474,W,1,9,1.7,17,M,,M,,*55
06/09/2014	05:08:34.807	$GPGGA,050834,2505.8586,N,08015.1485,W,1,9,1.7,17,M,,M,,*56
06/09/2014	05:08:35.880	$GPGGA,050835,2505.8598,N,08015.1499,W,1,9,1.7,17,M,,M,,*55
06/09/2014	05:08:36.920	$GPGGA,050836,2505.8609,N,08015.1511,W,1,9,1.7,17,M,,M,,*5C
06/09/2014	05:08:37.983	$GPGGA,050837,2505.8620,N,08015.1524,W,1,9,1.7,17,M,,M,,*50
06/09/2014	05:08:39.003	$GPGGA,050838,2505.8633,N,08015.1536,W,1,9,1.7,17,M,,M,,*5E
06/09/2014	05:08:40.086	$GPGGA,050839,2505.8644,N,08015.1550,W,1,9,1.7,17,M,,M,,*5F
06/09/2014	05:08:39.611	$GPGGA,050840,2505.8656,N,08015.1562,W,1,9,1.7,17,M,,M,,*53
06/09/2014	05:08:40.642	$GPGGA,050841,2505.8667,N,08015.1575,W,1,9,1.7,17,M,,M,,*56
06/09/2014	05:08:41.704	$GPGGA,050842,2505.8678,N,08015.1589,W,1,9,1.7,17,M,,M,,*58
06/09/2014	05:08:42.745	$GPGGA,050843,2505.8689,N,08015.1601,W,1,9,1.7,17,M,,M,,*54
06/09/2014	05:08:43.818	$GPGGA,050844,2505.8702,N,08015.1615,W,1,9,1.7,17,M,,M,,*54
06/09/2014	05:08:44.880	$GPGGA,050845,2505.8713,N,08015.1626,W,1,9,1.7,17,M,,M,,*55
06/09/2014	05:08:45.901	$GPGGA,050846,2505.8725,N,08015.1640,W,1,9,1.7,17,M,,M,,*53
06/09/2014	05:08:46.942	$GPGGA,050847,2505.8736,N,08015.1652,W,1,9,1.7,17,M,,M,,*53
06/09/2014	05:08:48.015	$GPGGA,050848,2505.8747,N,08015.1665,W,1,9,1.7,17,M,,M,,*5E
06/09/2014	05:08:49.067	$GPGGA,050849,2505.8759,N,08015.1678,W,1,9,1.7,17,M,,M,,*5C
06/09/2014	05:08:50.114	$GPGGA,050850,2505.8770,N,08015.1691,W,1,9,1.7,17,M,,M,,*58
06/09/2014	05:08:51.151	$GPGGA,050851,2505.8782,N,08015.1705,W,1,9,1.7,17,M,,M,,*58
06/09/2014	05:08:52.222	$GPGGA,050852,2505.8793,N,08015.1717,W,1,9,1.7,17,M,,M,,*58
06/09/2014	05:08:53.253	$GPGGA,050853,2505.8804,N,08015.1730,W,1,9,1.7,17,M,,M,,*5D
06/09/2014	05:08:54.285	$GPGGA,050854,2505.8815,N,08015.1743,W,1,9,1.7,17,M,,M,,*5E
06/09/2014	05:08:55.355	$GPGGA,050855,2505.8826,N,08015.1756,W,1,9,1.7,17,M,,M,,*5B
06/09/2014	05:08:56.397	$GPGGA,050856,2505.8837,N,08015.1770,W,1,9,1.7,17,M,,M,,*5C
06/09/2014	05:08:57.441	$GPGGA,050857,2505.8848,N,08015.1782,W,1,9,1.7,17,M,,M,,*58
06/09/2014	05:08:58.605	$GPGGA,050858,2505.8859,N,08015.1796,W,1,9,1.7,17,M,,M,,*52
06/09/2014	05:08:59.573	$GPGGA,050859,2505.8871,N,08015.1808,W,1,9,1.7,17,M,,M,,*51
06/09/2014	05:09:00.625	$GPGGA,050900,2505.8882,N,08015.1821,W,1,9,1.7,16,M,,M,,*5A
06/09/2014	05:09:01.666	$GPGGA,050901,2505.8893,N,08015.1835,W,1,9,1.7,16,M,,M,,*5E
06/09/2014	05:09:02.686	$GPGGA,050902,2505.8905,N,08015.1847,W,1,9,1.7,16,M,,M,,*56
06/09/2014	05:09:03.728	$GPGGA,050903,2505.8916,N,08015.1860,W,1,9,1.7,16,M,,M,,*50
06/09/2014	05:09:04.801	$GPGGA,050904,2505.8927,N,08015.1872,W,1,9,1.7,16,M,,M,,*56
06/09/2014	05:09:05.831	$GPGGA,050905,2505.8938,N,08015.1886,W,1,9,1.7,16,M,,M,,*52
06/09/2014	05:09:06.999	$GPGGA,050906,2505.8949,N,08015.1898,W,1,9,1.7,16,M,,M,,*58
06/09/2014	05:09:07.945	$GPGGA,050907,2505.8960,N,08015.1911,W,1,9,1.7,16,M,,M,,*52
06/09/2014	05:09:09.092	$GPGGA,050908,2505.8971,N,08015.1925,W,1,9,1.7,16,M,,M,,*5A
06/09/2014	05:09:10.028	$GPGGA,050909,2505.8984,N,08015.1937,W,1,9,1.7,16,M,,M,,*52
06/09/2014	05:09:11.195	$GPGGA,050910,2505.8995,N,08015.1951,W,1,9,1.7,16,M,,M,,*5A
06/09/2014	05:09:12.141	$GPGGA,050911,2505.9007,N,08015.1962,W,1,9,1.7,16,M,,M,,*58
06/09/2014	05:09:13.203	$GPGGA,050912,2505.9017,N,08015.1976,W,1,9,1.7,16,M,,M,,*5F
06/09/2014	05:09:14.245	$GPGGA,050913,2505.9028,N,08015.1988,W,1,9,1.7,16,M,,M,,*53
06/09/2014	05:09:15.391	$GPGGA,050914,2505.9041,N,08015.2001,W,1,9,1.7,16,M,,M,,*50
06/09/2014	05:09:16.464	$GPGGA,050915,2505.9053,N,08015.2014,W,1,9,1.7,16,M,,M,,*56
06/09/2014	05:09:17.495	$GPGGA,050916,2505.9064,N,08015.2027,W,1,9,1.7,16,M,,M,,*51
06/09/2014	05:09:18.525	$GPGGA,050917,2505.9075,N,08015.2041,W,1,9,1.7,16,M,,M,,*50
06/09/2014	05:09:19.577	$GPGGA,050918,2505.9086,N,08015.2053,W,1,9,1.7,16,M,,M,,*50
06/09/2014	05:09:20.673	$GPGGA,050919,2505.9099,N,08015.2066,W,1,9,1.7,16,M,,M,,*59
06/09/2014	05:09:21.702	$GPGGA,050920,2505.9110,N,08015.2078,W,1,9,1.7,16,M,,M,,*5C
06/09/2014	05:09:22.743	$GPGGA,050921,2505.9122,N,08015.2092,W,1,9,1.7,16,M,,M,,*58
06/09/2014	05:09:23.784	$GPGGA,050922,2505.9133,N,08015.2103,W,1,9,1.7,16,M,,M,,*52
06/09/2014	05:09:24.826	$GPGGA,050923,2505.9146,N,08015.2117,W,1,9,1.7,16,M,,M,,*54
06/09/2014	05:09:25.888	$GPGGA,050924,2505.9157,N,08015.2129,W,1,9,1.7,16,M,,M,,*5E
06/09/2014	05:09:26.950	$GPGGA,050925,2505.9169,N,08015.2142,W,1,9,1.7,16,M,,M,,*5F
06/09/2014	05:09:27.971	$GPGGA,050926,2505.9180,N,08015.2154,W,1,9,1.7,16,M,,M,,*5C
06/09/2014	05:09:29.022	$GPGGA,050927,2505.9193,N,08015.2168,W,1,9,1.7,16,M,,M,,*50
06/09/2014	05:09:30.095	$GPGGA,050928,2505.9205,N,08015.2180,W,1,9,1.7,16,M,,M,,*55
06/09/2014	05:09:31.157	$GPGGA,050929,2505.9216,N,08015.2193,W,1,9,1.7,16,M,,M,,*54
06/09/2014	05:09:32.177	$GPGGA,050930,2505.9227,N,08015.2205,W,1,9,1.7,16,M,,M,,*52
06/09/2014	05:09:33.250	$GPGGA,050931,2505.9240,N,08015.2218,W,1,9,1.7,16,M,,M,,*5E
06/09/2014	05:09:34.291	$GPGGA,050932,2505.9251,N,08015.2232,W,1,9,1.7,16,M,,M,,*55
06/09/2014	05:09:35.353	$GPGGA,050933,2505.9263,N,08015.2244,W,1,9,1.7,16,M,,M,,*54
06/09/2014	05:09:36.384	$GPGGA,050934,2505.9274,N,08015.2256,W,1,9,1.7,16,M,,M,,*56
06/09/2014	05:09:37.415	$GPGGA,050935,2505.9287,N,08015.2269,W,1,9,1.7,16,M,,M,,*57
06/09/2014	05:09:38.488	$GPGGA,050936,2505.9298,N,08015.2283,W,1,9,1.7,16,M,,M,,*5E
06/09/2014	05:09:39.560	$GPGGA,050937,2505.9310,N,08015.2294,W,1,9,1.7,16,M,,M,,*58
06/09/2014	05:09:40.591	$GPGGA,050938,2505.9323,N,08015.2308,W,1,9,1.7,16,M,,M,,*53
06/09/2014	05:09:41.653	$GPGGA,050939,2505.9334,N,08015.2319,W,1,9,1.7,16,M,,M,,*54
06/09/2014	05:09:39.589	$GPGGA,050940,2505.9346,N,08015.2332,W,1,9,1.7,16,M,,M,,*56
06/09/2014	05:09:40.609	$GPGGA,050941,2505.9357,N,08015.2345,W,1,9,1.6,16,M,,M,,*56
06/09/2014	05:09:41.682	$GPGGA,050942,2505.9370,N,08015.2357,W,1,9,1.6,16,M,,M,,*53
06/09/2014	05:09:42.714	$GPGGA,050943,2505.9382,N,08015.2370,W,1,9,1.6,16,M,,M,,*5A
06/09/2014	05:09:43.771	$GPGGA,050944,2505.9393,N,08015.2382,W,1,9,1.6,16,M,,M,,*50
06/09/2014	05:09:44.816	$GPGGA,050945,2505.9406,N,08015.2395,W,1,9,1.6,16,M,,M,,*5C
06/09/2014	05:09:45.873	$GPGGA,050946,2505.9418,N,08015.2408,W,1,9,1.6,16,M,,M,,*53
06/09/2014	05:09:46.932	$GPGGA,050947,2505.9429,N,08015.2421,W,1,9,1.6,16,M,,M,,*5B
06/09/2014	05:09:48.086	$GPGGA,050948,2505.9442,N,08015.2433,W,1,9,1.6,16,M,,M,,*5A
06/09/2014	05:09:49.038	$GPGGA,050949,2505.9454,N,08015.2446,W,1,9,1.6,16,M,,M,,*5E
06/09/2014	05:09:50.064	$GPGGA,050950,2505.9465,N,08015.2460,W,1,9,1.6,16,M,,M,,*50
06/09/2014	05:09:51.221	$GPGGA,050951,2505.9478,N,08015.2472,W,1,9,1.6,16,M,,M,,*5E
06/09/2014	05:09:52.188	$GPGGA,050952,2505.9490,N,08015.2486,W,1,9,1.6,15,M,,M,,*53
06/09/2014	05:09:53.209	$GPGGA,050953,2505.9501,N,08015.2498,W,1,9,1.6,15,M,,M,,*54
06/09/2014	05:09:54.260	$GPGGA,050954,2505.9512,N,08015.2511,W,1,9,1.6,15,M,,M,,*51
06/09/2014	05:09:55.333	$GPGGA,050955,2505.9525,N,08015.2525,W,1,9,1.6,15,M,,M,,*53
06/09/2014	05:09:56.374	$GPGGA,050956,2505.9537,N,08015.2537,W,1,9,1.6,15,M,,M,,*50
06/09/2014	05:09:57.510	$GPGGA,050957,2505.9548,N,08015.2550,W,1,9,1.6,15,M,,M,,*58
06/09/2014	05:09:58.468	$GPGGA,050958,2505.9559,N,08015.2563,W,1,9,1.6,15,M,,M,,*57
06/09/2014	05:09:59.614	$GPGGA,050959,2505.9570,N,08015.2576,W,1,9,1.6,15,M,,M,,*59
06/09/2014	05:10:00.602	$GPGGA,051000,2505.9583,N,08015.2590,W,1,9,1.6,15,M,,M,,*59
06/09/2014	05:10:01.728	$GPGGA,051001,2505.9594,N,08015.2601,W,1,9,1.6,15,M,,M,,*55
06/09/2014	05:10:02.759	$GPGGA,051002,2505.9605,N,08015.2616,W,1,9,1.6,15,M,,M,,*5B
06/09/2014	05:10:03.820	$GPGGA,051003,2505.9616,N,08015.2628,W,1,9,1.6,15,M,,M,,*55
06/09/2014	05:10:04.883	$GPGGA,051004,2505.9628,N,08015.2641,W,1,9,1.6,15,M,,M,,*50
06/09/2014	05:10:05.913	$GPGGA,051005,2505.9639,N,08015.2655,W,1,9,1.6,15,M,,M,,*54
06/09/2014	05:10:06.955	$GPGGA,051006,2505.9650,N,08015.2667,W,1,9,1.6,15,M,,M,,*59
06/09/2014	05:10:08.027	$GPGGA,051007,2505.9660,N,08015.2681,W,1,9,1.6,15,M,,M,,*53
06/09/2014	05:10:09.079	$GPGGA,051008,2505.9673,N,08015.2693,W,1,9,1.6,15,M,,M,,*5D
06/09/2014	05:10:10.131	$GPGGA,051009,2505.9684,N,08015.2706,W,1,9,1.6,15,M,,M,,*59
06/09/2014	05:10:11.162	$GPGGA,051010,2505.9695,N,08015.2720,W,1,9,1.6,15,M,,M,,*55
06/09/2014	05:10:12.245	$GPGGA,051011,2505.9706,N,08015.2733,W,1,9,1.6,15,M,,M,,*5D
06/09/2014	05:10:13.276	$GPGGA,051012,2505.9717,N,08015.2746,W,1,9,1.6,15,M,,M,,*5C
06/09/2014	05:10:14.338	$GPGGA,051013,2505.9728,N,08015.2760,W,1,9,1.6,15,M,,M,,*55
06/09/2014	05:10:15.358	$GPGGA,051014,2505.9739,N,08015.2772,W,1,9,1.6,15,M,,M,,*51
06/09/2014	05:10:16.431	$GPGGA,051015,2505.9750,N,08015.2786,W,1,9,1.6,15,M,,M,,*54
06/09/2014	05:10:17.462	$GPGGA,051016,2505.9760,N,08015.2800,W,1,9,1.6,15,M,,M,,*55
06/09/2014	05:10:18.524	$GPGGA,051017,2505.9771,N,08015.2812,W,1,9,1.6,15,M,,M,,*57
06/09/2014	05:10:19.555	$GPGGA,051018,2505.9782,N,08015.2825,W,1,9,1.6,15,M,,M,,*50
06/09/2014	05:10:20.638	$GPGGA,051019,2505.9791,N,08015.2839,W,1,9,1.6,15,M,,M,,*5E
06/09/2014	05:10:21.680	$GPGGA,051020,2505.9804,N,08015.2851,W,1,9,1.6,15,M,,M,,*59
06/09/2014	05:10:22.741	$GPGGA,051021,2505.9814,N,08015.2865,W,1,9,1.6,15,M,,M,,*5E
06/09/2014	05:10:23.751	$GPGGA,051022,2505.9826,N,08015.2877,W,1,9,1.6,15,M,,M,,*5F
06/09/2014	05:10:24.803	$GPGGA,051023,2505.9837,N,08015.2891,W,1,9,1.6,15,M,,M,,*56
06/09/2014	05:10:25.865	$GPGGA,051024,2505.9848,N,08015.2905,W,1,9,1.6,15,M,,M,,*55
06/09/2014	05:10:26.927	$GPGGA,051025,2505.9859,N,08015.2916,W,1,9,1.6,15,M,,M,,*56
06/09/2014	05:10:27.958	$GPGGA,051026,2505.9870,N,08015.2930,W,1,9,1.6,15,M,,M,,*5A
06/09/2014	05:10:29.010	$GPGGA,051027,2505.9881,N,08015.2942,W,1,9,1.6,15,M,,M,,*50
06/09/2014	05:10:30.077	$GPGGA,051028,2505.9892,N,08015.2955,W,1,9,1.6,15,M,,M,,*5B
06/09/2014	05:10:31.109	$GPGGA,051029,2505.9902,N,08015.2969,W,1,9,1.6,15,M,,M,,*5D
06/09/2014	05:10:32.144	$GPGGA,051030,2505.9915,N,08015.2981,W,1,9,1.6,15,M,,M,,*55
06/09/2014	05:10:33.238	$GPGGA,051031,2505.9926,N,08015.2995,W,1,9,1.6,15,M,,M,,*51
06/09/2014	05:10:34.269	$GPGGA,051032,2505.9938,N,08015.3007,W,1,9,1.6,15,M,,M,,*5E
06/09/2014	05:10:35.289	$GPGGA,051033,2505.9949,N,08015.3020,W,1,9,1.6,15,M,,M,,*5C
06/09/2014	05:10:36.362	$GPGGA,051034,2505.9960,N,08015.3033,W,1,9,1.6,15,M,,M,,*52
06/09/2014	05:10:37.435	$GPGGA,051035,2505.9973,N,08015.3046,W,1,9,1.6,15,M,,M,,*53
06/09/2014	05:10:38.460	$GPGGA,051036,2505.9984,N,08015.3060,W,1,9,1.6,15,M,,M,,*5C
06/09/2014	05:10:39.497	$GPGGA,051037,2505.9995,N,08015.3072,W,1,9,1.6,15,M,,M,,*5E
06/09/2014	05:10:40.557	$GPGGA,051038,2506.0006,N,08015.3085,W,1,9,1.6,15,M,,M,,*50
06/09/2014	05:10:41.693	$GPGGA,051039,2506.0018,N,08015.3098,W,1,9,1.6,15,M,,M,,*52
06/09/2014	05:10:39.566	$GPGGA,051040,2506.0029,N,08015.3111,W,1,9,1.6,15,M,,M,,*5E
06/09/2014	05:10:40.586	$GPGGA,051041,2506.0040,N,08015.3125,W,1,9,1.6,15,M,,M,,*57
06/09/2014	05:10:41.755	$GPGGA,051042,2506.0053,N,08015.3137,W,1,9,1.6,15,M,,M,,*55
06/09/2014	05:10:42.731	$GPGGA,051043,2506.0064,N,08015.3150,W,1,9,1.6,15,M,,M,,*51
06/09/2014	05:10:43.762	$GPGGA,051044,2506.0076,N,08015.3163,W,1,9,1.6,15,M,,M,,*55
06/09/2014	05:10:44.919	$GPGGA,051045,2506.0087,N,08015.3176,W,1,9,1.6,15,M,,M,,*5E
06/09/2014	05:10:45.939	$GPGGA,051046,2506.0100,N,08015.3188,W,1,9,1.6,15,M,,M,,*52
06/09/2014	05:10:46.991	$GPGGA,051047,2506.0111,N,08015.3201,W,1,9,1.6,15,M,,M,,*51
06/09/2014	05:10:48.054	$GPGGA,051048,2506.0122,N,08015.3215,W,1,9,1.6,15,M,,M,,*5B
06/09/2014	05:10:49.126	$GPGGA,051049,2506.0134,N,08015.3226,W,1,9,1.6,15,M,,M,,*5D
06/09/2014	05:10:50.210	$GPGGA,051050,2506.0145,N,08015.3240,W,1,9,1.6,15,M,,M,,*53
06/09/2014	05:10:51.220	$GPGGA,051051,2506.0156,N,08015.3252,W,1,9,1.6,15,M,,M,,*53
06/09/2014	05:10:52.324	$GPGGA,051052,2506.0169,N,08015.3266,W,1,9,1.6,15,M,,M,,*5B
06/09/2014	05:10:53.355	$GPGGA,051053,2506.0180,N,08015.3278,W,1,9,1.6,15,M,,M,,*52
06/09/2014	05:10:54.406	$GPGGA,051054,2506.0191,N,08015.3291,W,1,9,1.6,15,M,,M,,*52
06/09/2014	05:10:55.437	$GPGGA,051055,2506.0202,N,08015.3303,W,1,9,1.6,15,M,,M,,*50
06/09/2014	05:10:56.530	$GPGGA,051056,2506.0215,N,08015.3316,W,1,9,1.6,15,M,,M,,*51
06/09/2014	05:10:57.529	$GPGGA,051057,2506.0226,N,08015.3329,W,1,9,1.6,15,M,,M,,*5C
06/09/2014	05:10:58.561	$GPGGA,051058,2506.0238,N,08015.3342,W,1,9,1.6,15,M,,M,,*51
06/09/2014	05:10:59.675	$GPGGA,051059,2506.0249,N,08015.3356,W,1,9,1.6,15,M,,M,,*53
06/09/2014	05:11:00.737	$GPGGA,051100,2506.0260,N,08015.3368,W,1,9,1.6,15,M,,M,,*58
06/09/2014	05:11:01.768	$GPGGA,051101,2506.0273,N,08015.3381,W,1,9,1.6,15,M,,M,,*5C
06/09/2014	05:11:02.736	$GPGGA,051102,2506.0284,N,08015.3393,W,1,9,1.6,15,M,,M,,*54
06/09/2014	05:11:03.830	$GPGGA,051103,2506.0296,N,08015.3407,W,1,9,1.6,15,M,,M,,*5C
06/09/2014	05:11:04.923	$GPGGA,051104,2506.0307,N,08015.3419,W,1,9,1.6,15,M,,M,,*5D
06/09/2014	05:11:05.923	$GPGGA,051105,2506.0318,N,08015.3432,W,1,9,1.6,15,M,,M,,*5B
06/09/2014	05:11:06.995	$GPGGA,051106,2506.0329,N,08015.3446,W,1,9,1.6,15,M,,M,,*59
06/09/2014	05:11:08.061	$GPGGA,051107,2506.0342,N,08015.3458,W,1,9,1.6,15,M,,M,,*5A
06/09/2014	05:11:09.112	$GPGGA,051108,2506.0354,N,08015.3472,W,1,9,1.6,15,M,,M,,*5A
06/09/2014	05:11:10.130	$GPGGA,051109,2506.0365,N,08015.3484,W,1,9,1.6,15,M,,M,,*50
06/09/2014	05:11:11.192	$GPGGA,051110,2506.0376,N,08015.3497,W,1,9,1.6,15,M,,M,,*58
06/09/2014	05:11:12.276	$GPGGA,051111,2506.0389,N,08015.3512,W,1,9,1.6,15,M,,M,,*55
06/09/2014	05:11:13.243	$GPGGA,051112,2506.0400,N,08015.3524,W,1,9,1.6,15,M,,M,,*55
06/09/2014	05:11:14.305	$GPGGA,051113,2506.0412,N,08015.3537,W,1,9,1.6,15,M,,M,,*55
06/09/2014	05:11:15.398	$GPGGA,051114,2506.0423,N,08015.3551,W,1,9,1.6,15,M,,M,,*50
06/09/2014	05:11:16.503	$GPGGA,051115,2506.0434,N,08015.3564,W,1,9,1.6,15,M,,M,,*51
06/09/2014	05:11:17.439	$GPGGA,051116,2506.0445,N,08015.3577,W,1,9,1.6,15,M,,M,,*56
06/09/2014	05:11:18.543	$GPGGA,051117,2506.0458,N,08015.3591,W,1,9,1.6,15,M,,M,,*53
06/09/2014	05:11:19.584	$GPGGA,051118,2506.0469,N,08015.3603,W,1,9,2.0,15,M,,M,,*53
06/09/2014	05:11:20.699	$GPGGA,051119,2506.0480,N,08015.3617,W,1,8,1.6,15,M,,M,,*54
06/09/2014	05:11:21.646	$GPGGA,051120,2506.0491,N,08015.3631,W,1,8,1.6,15,M,,M,,*5A
06/09/2014	05:11:22.719	$GPGGA,051121,2506.0501,N,08015.3645,W,1,9,1.6,15,M,,M,,*51
06/09/2014	05:11:23.792	$GPGGA,051122,2506.0512,N,08015.3658,W,1,9,2.0,15,M,,M,,*59
06/09/2014	05:11:24.812	$GPGGA,051123,2506.0524,N,08015.3671,W,1,8,2.0,15,M,,M,,*57
06/09/2014	05:11:25.958	$GPGGA,051124,2506.0534,N,08015.3685,W,1,8,1.6,16,M,,M,,*5C
06/09/2014	05:11:26.916	$GPGGA,051125,2506.0545,N,08015.3699,W,1,9,1.6,16,M,,M,,*57
06/09/2014	05:11:27.915	$GPGGA,051126,2506.0556,N,08015.3712,W,1,9,1.6,16,M,,M,,*54
06/09/2014	05:11:29.106	$GPGGA,051127,2506.0567,N,08015.3726,W,1,9,1.6,16,M,,M,,*50
06/09/2014	05:11:30.102	$GPGGA,051128,2506.0577,N,08015.3739,W,1,9,1.6,16,M,,M,,*50
06/09/2014	05:11:31.196	$GPGGA,051129,2506.0588,N,08015.3754,W,1,9,1.6,16,M,,M,,*5A
06/09/2014	05:11:32.196	$GPGGA,051130,2506.0599,N,08015.3768,W,1,9,1.6,16,M,,M,,*5D
06/09/2014	05:11:33.278	$GPGGA,051131,2506.0609,N,08015.3780,W,1,9,1.6,17,M,,M,,*51
06/09/2014	05:11:34.309	$GPGGA,051132,2506.0620,N,08015.3794,W,1,9,1.6,17,M,,M,,*5C
06/09/2014	05:11:35.424	$GPGGA,051133,2506.0629,N,08015.3808,W,1,9,1.6,17,M,,M,,*5E
06/09/2014	05:11:36.423	$GPGGA,051134,2506.0640,N,08015.3822,W,1,9,1.6,17,M,,M,,*5E
06/09/2014	05:11:37.475	$GPGGA,051135,2506.0650,N,08015.3835,W,1,9,1.6,17,M,,M,,*58
06/09/2014	05:11:38.558	$GPGGA,051136,2506.0661,N,08015.3848,W,1,9,1.6,17,M,,M,,*53
06/09/2014	05:11:39.568	$GPGGA,051137,2506.0672,N,08015.3862,W,1,9,1.6,17,M,,M,,*58
06/09/2014	05:11:40.619	$GPGGA,051138,2506.0683,N,08015.3876,W,1,9,1.6,18,M,,M,,*53
06/09/2014	05:11:41.692	$GPGGA,051139,2506.0694,N,08015.3889,W,1,9,1.6,18,M,,M,,*54
06/09/2014	05:11:39.641	$GPGGA,051140,2506.0704,N,08015.3903,W,1,9,1.6,18,M,,M,,*51
06/09/2014	05:11:40.721	$GPGGA,051141,2506.0715,N,08015.3916,W,1,9,1.6,18,M,,M,,*54
06/09/2014	05:11:41.710	$GPGGA,051142,2506.0726,N,08015.3931,W,1,9,1.6,18,M,,M,,*52
06/09/2014	05:11:42.793	$GPGGA,051143,2506.0737,N,08015.3943,W,1,9,1.6,18,M,,M,,*56
06/09/2014	05:11:43.835	$GPGGA,051144,2506.0748,N,08015.3956,W,1,9,1.6,18,M,,M,,*5D
06/09/2014	05:11:44.876	$GPGGA,051145,2506.0759,N,08015.3970,W,1,9,1.6,18,M,,M,,*58
06/09/2014	05:11:45.928	$GPGGA,051146,2506.0769,N,08015.3983,W,1,9,1.6,18,M,,M,,*54
06/09/2014	05:11:46.980	$GPGGA,051147,2506.0780,N,08015.3997,W,1,9,1.6,19,M,,M,,*56
