Software Version Number: 1	Data File Format Number: 1	Build Version Number: 1	Error Count Since VI Started: 0	Manufacturer: Raytheon	 Model Number: RayMarine 120	 S/N: 	 Cal Date: 	 Wind Direction Offset: 0.00	 Slope (M)1: 0.00	 Offset (B)1: 0.00	 Slope (M)2: 0.00	 Offset (B)2: 0.00	 Slope (M)3: 0.00	 Offset (B)3: 0.00	 Slope (M)4: 0.00	 Offset (B)4: 0.00	 Slope (M)5: 0.00	 Offset (B)5: 0.00	 Slope (M)6: 0.00	 Offset (B)6: 0.00
Computer Date	Computer Time	GGA String
06/07/2014	22:00:00.825	$GPGGA,220001,2432.7677,N,08045.7171,W,1,10,1.3,20,M,,M,,*6F
06/07/2014	22:00:01.747	$GPGGA,220002,2432.7692,N,08045.7165,W,1,10,1.3,20,M,,M,,*62
06/07/2014	22:00:02.670	$GPGGA,220003,2432.7708,N,08045.7158,W,1,10,1.3,20,M,,M,,*6F
06/07/2014	22:00:03.682	$GPGGA,220004,2432.7724,N,08045.7151,W,1,10,1.5,20,M,,M,,*69
06/07/2014	22:00:04.685	$GPGGA,220005,2432.7738,N,08045.7143,W,1,10,1.7,20,M,,M,,*64
06/07/2014	22:00:05.748	$GPGGA,220006,2432.7753,N,08045.7136,W,1,10,1.7,20,M,,M,,*68
06/07/2014	22:00:06.750	$GPGGA,220007,2432.7770,N,08045.7130,W,1,10,1.3,20,M,,M,,*6A
06/07/2014	22:00:07.774	$GPGGA,220008,2432.7785,N,08045.7124,W,1,10,1.3,20,M,,M,,*6A
06/07/2014	22:00:08.776	$GPGGA,220009,2432.7800,N,08045.7117,W,1,10,1.3,20,M,,M,,*69
06/07/2014	22:00:09.758	$GPGGA,220010,2432.7814,N,08045.7111,W,1,10,1.3,20,M,,M,,*62
06/07/2014	22:00:10.751	$GPGGA,220011,2432.7829,N,08045.7104,W,1,10,1.3,20,M,,M,,*69
06/07/2014	22:00:11.773	$GPGGA,220012,2432.7845,N,08045.7098,W,1,10,1.3,20,M,,M,,*64
06/07/2014	22:00:12.756	$GPGGA,220013,2432.7861,N,08045.7092,W,1,10,1.3,20,M,,M,,*69
06/07/2014	22:00:13.760	$GPGGA,220014,2432.7876,N,08045.7085,W,1,10,1.3,20,M,,M,,*6E
06/07/2014	22:00:14.780	$GPGGA,220015,2432.7892,N,08045.7078,W,1,10,1.3,20,M,,M,,*67
06/07/2014	22:00:15.773	$GPGGA,220016,2432.7907,N,08045.7072,W,1,10,1.3,20,M,,M,,*63
06/07/2014	22:00:16.775	$GPGGA,220017,2432.7921,N,08045.7065,W,1,10,1.3,20,M,,M,,*60
06/07/2014	22:00:17.768	$GPGGA,220018,2432.7937,N,08045.7059,W,1,10,1.3,20,M,,M,,*67
06/07/2014	22:00:18.801	$GPGGA,220019,2432.7952,N,08045.7052,W,1,10,1.3,21,M,,M,,*6F
06/07/2014	22:00:19.773	$GPGGA,220020,2432.7966,N,08045.7045,W,1,10,1.3,21,M,,M,,*64
06/07/2014	22:00:20.786	$GPGGA,220021,2432.7981,N,08045.7038,W,1,10,1.3,21,M,,M,,*66
06/07/2014	22:00:21.768	$GPGGA,220022,2432.7997,N,08045.7032,W,1,10,1.3,21,M,,M,,*68
06/07/2014	22:00:22.791	$GPGGA,220023,2432.8010,N,08045.7025,W,1,10,1.3,21,M,,M,,*66
06/07/2014	22:00:23.763	$GPGGA,220024,2432.8026,N,08045.7018,W,1,10,1.5,21,M,,M,,*6C
06/07/2014	22:00:24.796	$GPGGA,220025,2432.8040,N,08045.7012,W,1,9,1.5,21,M,,M,,*5F
06/07/2014	22:00:25.759	$GPGGA,220026,2432.8055,N,08045.7005,W,1,9,1.3,21,M,,M,,*58
06/07/2014	22:00:26.781	$GPGGA,220027,2432.8069,N,08045.6998,W,1,9,1.5,21,M,,M,,*5C
06/07/2014	22:00:27.774	$GPGGA,220028,2432.8084,N,08045.6992,W,1,9,1.5,21,M,,M,,*5A
06/07/2014	22:00:28.756	$GPGGA,220029,2432.8099,N,08045.6984,W,1,9,1.5,20,M,,M,,*51
06/07/2014	22:00:29.772	$GPGGA,220030,2432.8114,N,08045.6977,W,1,9,1.5,20,M,,M,,*51
06/07/2014	22:00:30.792	$GPGGA,220031,2432.8131,N,08045.6970,W,1,10,1.3,20,M,,M,,*6E
06/07/2014	22:00:31.781	$GPGGA,220032,2432.8147,N,08045.6963,W,1,10,1.3,20,M,,M,,*6E
06/07/2014	22:00:32.868	$GPGGA,220033,2432.8161,N,08045.6956,W,1,10,1.3,20,M,,M,,*6D
06/07/2014	22:00:33.768	$GPGGA,220034,2432.8178,N,08045.6949,W,1,10,1.3,20,M,,M,,*6C
06/07/2014	22:00:34.871	$GPGGA,220035,2432.8193,N,08045.6942,W,1,10,1.3,20,M,,M,,*63
06/07/2014	22:00:35.774	$GPGGA,220036,2432.8208,N,08045.6935,W,1,10,1.3,20,M,,M,,*61
06/07/2014	22:00:36.756	$GPGGA,220037,2432.8223,N,08045.6928,W,1,10,1.3,20,M,,M,,*65
06/07/2014	22:00:37.736	$GPGGA,220038,2432.8237,N,08045.6922,W,1,10,1.3,20,M,,M,,*65
06/07/2014	22:00:38.618	$GPGGA,220039,2432.8252,N,08045.6915,W,1,10,1.3,20,M,,M,,*63
06/07/2014	22:00:39.641	$GPGGA,220040,2432.8268,N,08045.6908,W,1,10,1.3,20,M,,M,,*68
06/07/2014	22:00:40.614	$GPGGA,220041,2432.8283,N,08045.6901,W,1,10,1.3,20,M,,M,,*65
06/07/2014	22:00:41.726	$GPGGA,220042,2432.8298,N,08045.6894,W,1,10,1.3,20,M,,M,,*61
06/07/2014	22:00:42.739	$GPGGA,220043,2432.8313,N,08045.6888,W,1,10,1.3,20,M,,M,,*6F
06/07/2014	22:00:43.641	$GPGGA,220044,2432.8327,N,08045.6881,W,1,10,1.3,20,M,,M,,*66
06/07/2014	22:00:44.614	$GPGGA,220045,2432.8342,N,08045.6874,W,1,10,1.3,20,M,,M,,*6E
06/07/2014	22:00:45.618	$GPGGA,220046,2432.8358,N,08045.6868,W,1,10,1.3,20,M,,M,,*6B
06/07/2014	22:00:46.739	$GPGGA,220047,2432.8373,N,08045.6861,W,1,10,1.3,20,M,,M,,*6A
06/07/2014	22:00:47.732	$GPGGA,220048,2432.8389,N,08045.6854,W,1,10,1.3,20,M,,M,,*66
06/07/2014	22:00:48.725	$GPGGA,220049,2432.8403,N,08045.6848,W,1,10,1.3,20,M,,M,,*6F
06/07/2014	22:00:49.726	$GPGGA,220050,2432.8418,N,08045.6841,W,1,10,1.3,20,M,,M,,*64
06/07/2014	22:00:50.709	$GPGGA,220051,2432.8434,N,08045.6835,W,1,10,1.3,20,M,,M,,*68
06/07/2014	22:00:51.742	$GPGGA,220052,2432.8449,N,08045.6828,W,1,10,1.3,20,M,,M,,*6D
06/07/2014	22:00:52.714	$GPGGA,220053,2432.8464,N,08045.6822,W,1,10,1.3,20,M,,M,,*69
06/07/2014	22:00:53.727	$GPGGA,220054,2432.8479,N,08045.6816,W,1,10,1.3,20,M,,M,,*65
06/07/2014	22:00:54.749	$GPGGA,220055,2432.8494,N,08045.6809,W,1,10,1.3,20,M,,M,,*69
06/07/2014	22:00:55.732	$GPGGA,220056,2432.8510,N,08045.6803,W,1,10,1.3,20,M,,M,,*6D
06/07/2014	22:00:56.724	$GPGGA,220057,2432.8525,N,08045.6797,W,1,10,1.3,20,M,,M,,*68
06/07/2014	22:00:57.727	$GPGGA,220058,2432.8540,N,08045.6790,W,1,10,1.3,20,M,,M,,*63
06/07/2014	22:00:58.730	$GPGGA,220059,2432.8555,N,08045.6784,W,1,10,1.3,20,M,,M,,*63
06/07/2014	22:00:59.752	$GPGGA,220100,2432.8569,N,08045.6777,W,1,10,1.3,20,M,,M,,*6D
06/07/2014	22:01:00.725	$GPGGA,220101,2432.8586,N,08045.6770,W,1,10,1.3,20,M,,M,,*6A
06/07/2014	22:01:01.727	$GPGGA,220102,2432.8601,N,08045.6764,W,1,10,1.3,20,M,,M,,*60
06/07/2014	22:01:02.740	$GPGGA,220103,2432.8616,N,08045.6758,W,1,10,1.3,20,M,,M,,*68
06/07/2014	22:01:03.733	$GPGGA,220104,2432.8631,N,08045.6751,W,1,10,1.3,20,M,,M,,*63
06/07/2014	22:01:04.745	$GPGGA,220105,2432.8645,N,08045.6745,W,1,10,1.3,20,M,,M,,*64
06/07/2014	22:01:05.728	$GPGGA,220106,2432.8660,N,08045.6738,W,1,10,1.3,20,M,,M,,*6A
06/07/2014	22:01:06.750	$GPGGA,220107,2432.8676,N,08045.6732,W,1,10,1.3,20,M,,M,,*66
06/07/2014	22:01:07.742	$GPGGA,220108,2432.8691,N,08045.6726,W,1,10,1.3,20,M,,M,,*65
06/07/2014	22:01:08.745	$GPGGA,220109,2432.8706,N,08045.6719,W,1,10,1.3,20,M,,M,,*67
06/07/2014	22:01:09.717	$GPGGA,220110,2432.8721,N,08045.6713,W,1,10,1.3,20,M,,M,,*60
06/07/2014	22:01:10.730	$GPGGA,220111,2432.8736,N,08045.6707,W,1,10,1.3,20,M,,M,,*62
06/07/2014	22:01:11.752	$GPGGA,220112,2432.8750,N,08045.6701,W,1,10,1.3,20,M,,M,,*67
06/07/2014	22:01:12.735	$GPGGA,220113,2432.8764,N,08045.6694,W,1,10,1.3,20,M,,M,,*6C
06/07/2014	22:01:13.727	$GPGGA,220114,2432.8779,N,08045.6688,W,1,10,1.3,20,M,,M,,*6A
06/07/2014	22:01:14.760	$GPGGA,220115,2432.8794,N,08045.6681,W,1,10,1.3,20,M,,M,,*61
06/07/2014	22:01:15.743	$GPGGA,220116,2432.8810,N,08045.6675,W,1,10,1.3,20,M,,M,,*6A
06/07/2014	22:01:16.765	$GPGGA,220117,2432.8826,N,08045.6668,W,1,10,1.3,20,M,,M,,*62
06/07/2014	22:01:17.728	$GPGGA,220118,2432.8840,N,08045.6661,W,1,10,1.3,20,M,,M,,*64
06/07/2014	22:01:18.740	$GPGGA,220119,2432.8855,N,08045.6654,W,1,10,1.3,20,M,,M,,*67
06/07/2014	22:01:19.753	$GPGGA,220120,2432.8871,N,08045.6648,W,1,10,1.3,20,M,,M,,*66
06/07/2014	22:01:20.726	$GPGGA,220121,2432.8886,N,08045.6641,W,1,10,1.3,20,M,,M,,*66
06/07/2014	22:01:21.751	$GPGGA,220122,2432.8900,N,08045.6634,W,1,10,1.3,20,M,,M,,*68
06/07/2014	22:01:22.741	$GPGGA,220123,2432.8915,N,08045.6627,W,1,9,1.5,20,M,,M,,*51
06/07/2014	22:01:23.734	$GPGGA,220124,2432.8931,N,08045.6620,W,1,9,1.3,20,M,,M,,*51
06/07/2014	22:01:24.845	$GPGGA,220125,2432.8947,N,08045.6612,W,1,10,1.3,20,M,,M,,*68
06/07/2014	22:01:25.728	$GPGGA,220126,2432.8962,N,08045.6605,W,1,10,1.3,20,M,,M,,*6A
06/07/2014	22:01:26.750	$GPGGA,220127,2432.8977,N,08045.6598,W,1,10,1.3,20,M,,M,,*68
06/07/2014	22:01:27.864	$GPGGA,220128,2432.8992,N,08045.6591,W,1,10,1.3,20,M,,M,,*65
06/07/2014	22:01:28.755	$GPGGA,220129,2432.9007,N,08045.6584,W,1,10,1.3,20,M,,M,,*64
06/07/2014	22:01:29.838	$GPGGA,220130,2432.9023,N,08045.6577,W,1,10,1.3,20,M,,M,,*66
06/07/2014	22:01:30.741	$GPGGA,220131,2432.9038,N,08045.6569,W,1,10,1.3,20,M,,M,,*62
06/07/2014	22:01:31.877	$GPGGA,220132,2432.9053,N,08045.6562,W,1,10,1.3,20,M,,M,,*67
06/07/2014	22:01:32.836	$GPGGA,220133,2432.9068,N,08045.6556,W,1,10,1.3,20,M,,M,,*69
06/07/2014	22:01:33.738	$GPGGA,220134,2432.9083,N,08045.6548,W,1,10,1.3,20,M,,M,,*64
06/07/2014	22:01:34.841	$GPGGA,220135,2432.9097,N,08045.6541,W,1,10,1.3,20,M,,M,,*69
06/07/2014	22:01:35.854	$GPGGA,220136,2432.9114,N,08045.6534,W,1,10,1.3,20,M,,M,,*62
06/07/2014	22:01:36.846	$GPGGA,220137,2432.9128,N,08045.6527,W,1,10,1.3,20,M,,M,,*6E
06/07/2014	22:01:37.687	$GPGGA,220138,2432.9143,N,08045.6520,W,1,10,1.3,20,M,,M,,*6B
06/07/2014	22:01:38.680	$GPGGA,220139,2432.9158,N,08045.6513,W,1,10,1.3,20,M,,M,,*60
06/07/2014	22:01:39.692	$GPGGA,220140,2432.9173,N,08045.6506,W,1,10,1.3,20,M,,M,,*63
06/07/2014	22:01:40.695	$GPGGA,220141,2432.9187,N,08045.6499,W,1,10,1.3,20,M,,M,,*6E
06/07/2014	22:01:41.696	$GPGGA,220142,2432.9202,N,08045.6493,W,1,10,1.3,20,M,,M,,*69
06/07/2014	22:01:42.689	$GPGGA,220143,2432.9216,N,08045.6486,W,1,10,1.3,20,M,,M,,*69
06/07/2014	22:01:43.702	$GPGGA,220144,2432.9231,N,08045.6479,W,1,10,1.3,20,M,,M,,*6B
06/07/2014	22:01:44.714	$GPGGA,220145,2432.9247,N,08045.6472,W,1,10,1.3,20,M,,M,,*60
06/07/2014	22:01:45.687	$GPGGA,220146,2432.9260,N,08045.6465,W,1,10,1.3,20,M,,M,,*60
06/07/2014	22:01:46.689	$GPGGA,220147,2432.9276,N,08045.6459,W,1,10,1.3,20,M,,M,,*69
06/07/2014	22:01:47.702	$GPGGA,220148,2432.9291,N,08045.6452,W,1,10,1.3,20,M,,M,,*64
06/07/2014	22:01:48.715	$GPGGA,220149,2432.9306,N,08045.6445,W,1,10,1.3,20,M,,M,,*6C
06/07/2014	22:01:49.687	$GPGGA,220150,2432.9321,N,08045.6439,W,1,10,1.3,20,M,,M,,*6A
06/07/2014	22:01:50.720	$GPGGA,220151,2432.9335,N,08045.6432,W,1,10,1.3,20,M,,M,,*65
06/07/2014	22:01:51.702	$GPGGA,220152,2432.9350,N,08045.6426,W,1,10,1.3,20,M,,M,,*60
06/07/2014	22:01:52.687	$GPGGA,220153,2432.9364,N,08045.6419,W,1,10,1.3,20,M,,M,,*6A
06/07/2014	22:01:53.697	$GPGGA,220154,2432.9379,N,08045.6412,W,1,10,1.3,20,M,,M,,*6A
06/07/2014	22:01:54.680	$GPGGA,220155,2432.9395,N,08045.6406,W,1,10,1.3,20,M,,M,,*6C
06/07/2014	22:01:55.713	$GPGGA,220156,2432.9411,N,08045.6399,W,1,10,1.3,20,M,,M,,*65
06/07/2014	22:01:56.692	$GPGGA,220157,2432.9426,N,08045.6392,W,1,10,1.3,20,M,,M,,*6B
06/07/2014	22:01:57.699	$GPGGA,220158,2432.9440,N,08045.6385,W,1,10,1.3,20,M,,M,,*62
06/07/2014	22:01:58.690	$GPGGA,220159,2432.9455,N,08045.6379,W,1,10,1.3,20,M,,M,,*64
06/07/2014	22:01:59.712	$GPGGA,220200,2432.9471,N,08045.6372,W,1,10,1.3,20,M,,M,,*66
06/07/2014	22:02:00.705	$GPGGA,220201,2432.9486,N,08045.6366,W,1,10,1.3,20,M,,M,,*6A
06/07/2014	22:02:01.707	$GPGGA,220202,2432.9501,N,08045.6359,W,1,10,1.3,20,M,,M,,*6B
06/07/2014	22:02:02.712	$GPGGA,220203,2432.9516,N,08045.6353,W,1,10,1.3,20,M,,M,,*66
06/07/2014	22:02:03.712	$GPGGA,220204,2432.9530,N,08045.6346,W,1,10,1.3,20,M,,M,,*61
06/07/2014	22:02:04.705	$GPGGA,220205,2432.9547,N,08045.6340,W,1,10,1.3,20,M,,M,,*66
06/07/2014	22:02:05.688	$GPGGA,220206,2432.9562,N,08045.6333,W,1,10,1.3,20,M,,M,,*66
06/07/2014	22:02:06.700	$GPGGA,220207,2432.9577,N,08045.6326,W,1,10,1.3,20,M,,M,,*67
06/07/2014	22:02:07.723	$GPGGA,220208,2432.9592,N,08045.6320,W,1,10,1.3,20,M,,M,,*65
06/07/2014	22:02:08.715	$GPGGA,220209,2432.9608,N,08045.6313,W,1,10,1.3,20,M,,M,,*64
06/07/2014	22:02:09.868	$GPGGA,220210,2432.9623,N,08045.6307,W,1,10,1.3,20,M,,M,,*60
06/07/2014	22:02:10.726	$GPGGA,220211,2432.9638,N,08045.6300,W,1,10,1.3,20,M,,M,,*6C
06/07/2014	22:02:11.723	$GPGGA,220212,2432.9653,N,08045.6293,W,1,10,1.3,20,M,,M,,*69
06/07/2014	22:02:12.738	$GPGGA,220213,2432.9668,N,08045.6287,W,1,10,1.3,20,M,,M,,*65
06/07/2014	22:02:13.698	$GPGGA,220214,2432.9682,N,08045.6280,W,1,10,1.3,20,M,,M,,*61
06/07/2014	22:02:14.821	$GPGGA,220215,2432.9697,N,08045.6273,W,1,10,1.3,20,M,,M,,*68
06/07/2014	22:02:15.704	$GPGGA,220216,2432.9714,N,08045.6267,W,1,10,1.3,20,M,,M,,*64
06/07/2014	22:02:16.815	$GPGGA,220217,2432.9729,N,08045.6260,W,1,10,1.3,20,M,,M,,*6C
06/07/2014	22:02:17.718	$GPGGA,220218,2432.9743,N,08045.6254,W,1,10,1.3,20,M,,M,,*68
06/07/2014	22:02:18.881	$GPGGA,220219,2432.9758,N,08045.6247,W,1,10,1.3,20,M,,M,,*61
06/07/2014	22:02:19.724	$GPGGA,220220,2432.9773,N,08045.6240,W,1,10,1.3,20,M,,M,,*65
06/07/2014	22:02:20.846	$GPGGA,220221,2432.9789,N,08045.6234,W,1,10,1.3,20,M,,M,,*62
06/07/2014	22:02:21.798	$GPGGA,220222,2432.9805,N,08045.6228,W,1,10,1.3,20,M,,M,,*67
06/07/2014	22:02:22.891	$GPGGA,220223,2432.9819,N,08045.6221,W,1,10,1.3,20,M,,M,,*62
06/07/2014	22:02:23.894	$GPGGA,220224,2432.9834,N,08045.6214,W,1,10,1.3,20,M,,M,,*6C
06/07/2014	22:02:24.836	$GPGGA,220225,2432.9850,N,08045.6208,W,1,10,1.3,20,M,,M,,*62
06/07/2014	22:02:25.869	$GPGGA,220226,2432.9865,N,08045.6201,W,1,10,1.3,20,M,,M,,*6E
06/07/2014	22:02:26.852	$GPGGA,220227,2432.9880,N,08045.6194,W,1,10,1.3,20,M,,M,,*6B
06/07/2014	22:02:27.884	$GPGGA,220228,2432.9895,N,08045.6187,W,1,10,1.3,20,M,,M,,*62
06/07/2014	22:02:28.857	$GPGGA,220229,2432.9910,N,08045.6181,W,1,10,1.3,20,M,,M,,*69
06/07/2014	22:02:29.799	$GPGGA,220230,2432.9926,N,08045.6174,W,1,10,1.3,20,M,,M,,*6E
06/07/2014	22:02:30.843	$GPGGA,220231,2432.9939,N,08045.6167,W,1,10,1.3,20,M,,M,,*63
06/07/2014	22:02:31.875	$GPGGA,220232,2432.9956,N,08045.6160,W,1,10,1.3,20,M,,M,,*6E
06/07/2014	22:02:32.838	$GPGGA,220233,2432.9971,N,08045.6153,W,1,10,1.3,20,M,,M,,*6A
06/07/2014	22:02:33.860	$GPGGA,220234,2432.9986,N,08045.6147,W,1,10,1.3,20,M,,M,,*60
06/07/2014	22:02:34.851	$GPGGA,220235,2433.0000,N,08045.6140,W,1,10,1.3,20,M,,M,,*69
06/07/2014	22:02:35.814	$GPGGA,220236,2433.0015,N,08045.6133,W,1,10,1.3,20,M,,M,,*6A
06/07/2014	22:02:36.846	$GPGGA,220237,2433.0032,N,08045.6127,W,1,10,1.3,20,M,,M,,*6B
06/07/2014	22:02:37.706	$GPGGA,220238,2433.0047,N,08045.6120,W,1,10,1.3,20,M,,M,,*61
06/07/2014	22:02:38.729	$GPGGA,220239,2433.0061,N,08045.6114,W,1,10,1.3,20,M,,M,,*63
06/07/2014	22:02:39.721	$GPGGA,220240,2433.0076,N,08045.6106,W,1,10,1.3,20,M,,M,,*68
06/07/2014	22:02:40.704	$GPGGA,220241,2433.0092,N,08045.6099,W,1,10,1.3,20,M,,M,,*64
06/07/2014	22:02:41.726	$GPGGA,220242,2433.0107,N,08045.6093,W,1,10,1.3,20,M,,M,,*60
06/07/2014	22:02:42.699	$GPGGA,220243,2433.0122,N,08045.6086,W,1,10,1.3,20,M,,M,,*62
06/07/2014	22:02:43.722	$GPGGA,220244,2433.0137,N,08045.6079,W,1,10,1.3,20,M,,M,,*61
06/07/2014	22:02:44.734	$GPGGA,220245,2433.0152,N,08045.6073,W,1,10,1.3,20,M,,M,,*69
06/07/2014	22:02:45.659	$GPGGA,220246,2433.0166,N,08045.6065,W,1,10,1.3,20,M,,M,,*6A
06/07/2014	22:02:46.709	$GPGGA,220247,2433.0181,N,08045.6059,W,1,10,1.3,20,M,,M,,*6D
06/07/2014	22:02:47.672	$GPGGA,220248,2433.0197,N,08045.6052,W,1,10,1.3,20,M,,M,,*6E
06/07/2014	22:02:48.654	$GPGGA,220249,2433.0210,N,08045.6045,W,1,10,1.3,20,M,,M,,*65
06/07/2014	22:02:49.657	$GPGGA,220250,2433.0226,N,08045.6038,W,1,10,1.3,20,M,,M,,*62
06/07/2014	22:02:50.700	$GPGGA,220251,2433.0241,N,08045.6031,W,1,10,1.3,20,M,,M,,*6B
06/07/2014	22:02:51.721	$GPGGA,220252,2433.0256,N,08045.6024,W,1,10,1.3,20,M,,M,,*6A
06/07/2014	22:02:52.714	$GPGGA,220253,2433.0271,N,08045.6017,W,1,10,1.3,20,M,,M,,*6E
06/07/2014	22:02:53.706	$GPGGA,220254,2433.0285,N,08045.6010,W,1,10,1.3,20,M,,M,,*65
06/07/2014	22:02:54.699	$GPGGA,220255,2433.0300,N,08045.6003,W,1,10,1.3,19,M,,M,,*60
06/07/2014	22:02:55.732	$GPGGA,220256,2433.0316,N,08045.5997,W,1,10,1.3,19,M,,M,,*63
06/07/2014	22:02:56.684	$GPGGA,220257,2433.0329,N,08045.5991,W,1,10,1.3,19,M,,M,,*68
06/07/2014	22:02:57.757	$GPGGA,220258,2433.0346,N,08045.5984,W,1,10,1.3,19,M,,M,,*6A
06/07/2014	22:02:58.780	$GPGGA,220259,2433.0361,N,08045.5977,W,1,10,1.3,19,M,,M,,*62
06/07/2014	22:02:59.772	$GPGGA,220300,2433.0376,N,08045.5971,W,1,10,1.5,19,M,,M,,*69
06/07/2014	22:03:00.765	$GPGGA,220301,2433.0390,N,08045.5964,W,1,9,1.3,19,M,,M,,*5A
06/07/2014	22:03:01.727	$GPGGA,220302,2433.0405,N,08045.5958,W,1,9,1.3,19,M,,M,,*5D
06/07/2014	22:03:02.702	$GPGGA,220303,2433.0421,N,08045.5951,W,1,10,1.3,19,M,,M,,*6B
06/07/2014	22:03:03.672	$GPGGA,220304,2433.0436,N,08045.5944,W,1,10,1.3,19,M,,M,,*6E
06/07/2014	22:03:04.766	$GPGGA,220305,2433.0452,N,08045.5937,W,1,10,1.3,19,M,,M,,*69
06/07/2014	22:03:05.738	$GPGGA,220306,2433.0468,N,08045.5931,W,1,10,1.3,19,M,,M,,*65
06/07/2014	22:03:06.730	$GPGGA,220307,2433.0483,N,08045.5923,W,1,10,1.3,19,M,,M,,*62
06/07/2014	22:03:07.783	$GPGGA,220308,2433.0499,N,08045.5917,W,1,10,1.3,19,M,,M,,*61
06/07/2014	22:03:08.766	$GPGGA,220309,2433.0513,N,08045.5911,W,1,10,1.3,19,M,,M,,*65
06/07/2014	22:03:09.767	$GPGGA,220310,2433.0528,N,08045.5904,W,1,10,1.3,19,M,,M,,*61
06/07/2014	22:03:10.760	$GPGGA,220311,2433.0545,N,08045.5898,W,1,10,1.3,19,M,,M,,*6F
06/07/2014	22:03:11.782	$GPGGA,220312,2433.0560,N,08045.5891,W,1,10,1.3,19,M,,M,,*62
06/07/2014	22:03:12.795	$GPGGA,220313,2433.0575,N,08045.5885,W,1,10,1.3,19,M,,M,,*62
06/07/2014	22:03:15.201	$GPGGA,220315,2433.0606,N,08045.5872,W,1,10,1.3,19,M,,M,,*6B
06/07/2014	22:03:15.793	$GPGGA,220316,2433.0621,N,08045.5866,W,1,10,1.3,19,M,,M,,*68
06/07/2014	22:03:16.785	$GPGGA,220317,2433.0636,N,08045.5859,W,1,10,1.3,19,M,,M,,*63
06/07/2014	22:03:17.788	$GPGGA,220318,2433.0652,N,08045.5852,W,1,10,1.3,19,M,,M,,*65
06/07/2014	22:03:18.791	$GPGGA,220319,2433.0668,N,08045.5846,W,1,10,1.3,19,M,,M,,*68
06/07/2014	22:03:19.803	$GPGGA,220320,2433.0683,N,08045.5839,W,1,10,1.3,19,M,,M,,*6F
06/07/2014	22:03:20.776	$GPGGA,220321,2433.0699,N,08045.5833,W,1,10,1.3,19,M,,M,,*6F
06/07/2014	22:03:21.788	$GPGGA,220322,2433.0699,N,08045.5833,W,1,10,1.3,19,M,,M,,*6C
06/07/2014	22:03:22.811	$GPGGA,220323,2433.0728,N,08045.5819,W,1,10,1.3,20,M,,M,,*64
06/07/2014	22:03:23.804	$GPGGA,220324,2433.0743,N,08045.5813,W,1,10,1.3,20,M,,M,,*64
06/07/2014	22:03:24.806	$GPGGA,220325,2433.0758,N,08045.5807,W,1,10,1.3,20,M,,M,,*6A
06/07/2014	22:03:25.819	$GPGGA,220326,2433.0773,N,08045.5800,W,1,10,1.3,20,M,,M,,*67
06/07/2014	22:03:26.810	$GPGGA,220327,2433.0788,N,08045.5794,W,1,10,1.3,20,M,,M,,*60
06/07/2014	22:03:27.813	$GPGGA,220328,2433.0802,N,08045.5788,W,1,10,1.3,20,M,,M,,*6F
06/07/2014	22:03:28.775	$GPGGA,220329,2433.0817,N,08045.5781,W,1,10,1.3,20,M,,M,,*63
06/07/2014	22:03:29.788	$GPGGA,220330,2433.0834,N,08045.5774,W,1,10,1.3,20,M,,M,,*60
06/07/2014	22:03:30.791	$GPGGA,220331,2433.0849,N,08045.5768,W,1,10,1.3,20,M,,M,,*66
06/07/2014	22:03:31.823	$GPGGA,220332,2433.0863,N,08045.5762,W,1,10,1.3,20,M,,M,,*67
06/07/2014	22:03:32.796	$GPGGA,220333,2433.0877,N,08045.5755,W,1,10,1.3,20,M,,M,,*67
06/07/2014	22:03:33.798	$GPGGA,220334,2433.0892,N,08045.5749,W,1,10,1.5,20,M,,M,,*60
06/07/2014	22:03:34.801	$GPGGA,220335,2433.0906,N,08045.5743,W,1,9,1.5,20,M,,M,,*5F
06/07/2014	22:03:35.794	$GPGGA,220336,2433.0906,N,08045.5743,W,1,9,1.5,20,M,,M,,*5C
06/07/2014	22:03:36.816	$GPGGA,220337,2433.0935,N,08045.5730,W,1,9,1.3,20,M,,M,,*5F
06/07/2014	22:03:38.979	$GPGGA,220339,2433.0965,N,08045.5717,W,1,10,1.3,20,M,,M,,*69
06/07/2014	22:03:39.681	$GPGGA,220340,2433.0981,N,08045.5711,W,1,10,1.3,20,M,,M,,*6B
06/07/2014	22:03:40.645	$GPGGA,220341,2433.0996,N,08045.5704,W,1,10,1.3,20,M,,M,,*68
06/07/2014	22:03:41.676	$GPGGA,220342,2433.0996,N,08045.5704,W,1,10,1.3,20,M,,M,,*6B
06/07/2014	22:03:42.629	$GPGGA,220343,2433.1026,N,08045.5690,W,1,10,1.3,20,M,,M,,*65
06/07/2014	22:03:43.762	$GPGGA,220344,2433.1040,N,08045.5683,W,1,10,1.3,20,M,,M,,*60
06/07/2014	22:03:44.623	$GPGGA,220345,2433.1055,N,08045.5677,W,1,10,1.3,20,M,,M,,*6E
06/07/2014	22:03:45.636	$GPGGA,220346,2433.1055,N,08045.5677,W,1,10,1.3,20,M,,M,,*6D
06/07/2014	22:03:46.668	$GPGGA,220347,2433.1070,N,08045.5670,W,1,10,1.3,20,M,,M,,*6C
06/07/2014	22:03:47.691	$GPGGA,220348,2433.1101,N,08045.5656,W,1,10,1.3,20,M,,M,,*60
06/07/2014	22:03:48.643	$GPGGA,220349,2433.1116,N,08045.5649,W,1,10,1.3,20,M,,M,,*69
06/07/2014	22:03:49.636	$GPGGA,220350,2433.1116,N,08045.5649,W,1,10,1.3,20,M,,M,,*61
06/07/2014	22:03:50.749	$GPGGA,220351,2433.1147,N,08045.5635,W,1,10,1.3,20,M,,M,,*6F
06/07/2014	22:03:51.661	$GPGGA,220352,2433.1147,N,08045.5635,W,1,10,1.3,20,M,,M,,*6C
06/07/2014	22:03:52.735	$GPGGA,220353,2433.1177,N,08045.5622,W,1,10,1.3,20,M,,M,,*68
06/07/2014	22:03:53.727	$GPGGA,220354,2433.1192,N,08045.5615,W,1,10,1.3,20,M,,M,,*60
06/07/2014	22:03:54.739	$GPGGA,220355,2433.1207,N,08045.5608,W,1,10,1.3,20,M,,M,,*62
06/07/2014	22:03:55.752	$GPGGA,220356,2433.1221,N,08045.5601,W,1,10,1.3,20,M,,M,,*6C
06/07/2014	22:03:56.754	$GPGGA,220357,2433.1236,N,08045.5595,W,1,10,1.3,20,M,,M,,*65
06/07/2014	22:03:57.737	$GPGGA,220358,2433.1236,N,08045.5595,W,1,10,1.3,20,M,,M,,*6A
06/07/2014	22:03:58.760	$GPGGA,220359,2433.1267,N,08045.5581,W,1,10,1.3,20,M,,M,,*6A
06/07/2014	22:03:59.762	$GPGGA,220400,2433.1283,N,08045.5574,W,1,10,1.3,20,M,,M,,*61
06/07/2014	22:04:00.735	$GPGGA,220401,2433.1297,N,08045.5568,W,1,10,1.3,20,M,,M,,*68
06/07/2014	22:04:01.736	$GPGGA,220402,2433.1314,N,08045.5561,W,1,10,1.3,20,M,,M,,*68
06/07/2014	22:04:02.759	$GPGGA,220403,2433.1329,N,08045.5554,W,1,10,1.3,20,M,,M,,*61
06/07/2014	22:04:03.762	$GPGGA,220404,2433.1344,N,08045.5548,W,1,10,1.3,20,M,,M,,*60
06/07/2014	22:04:04.754	$GPGGA,220405,2433.1358,N,08045.5541,W,1,10,1.3,20,M,,M,,*65
06/07/2014	22:04:05.737	$GPGGA,220406,2433.1373,N,08045.5535,W,1,10,1.3,20,M,,M,,*6C
06/07/2014	22:04:06.759	$GPGGA,220407,2433.1389,N,08045.5529,W,1,10,1.3,20,M,,M,,*65
06/07/2014	22:04:07.752	$GPGGA,220408,2433.1404,N,08045.5522,W,1,10,1.3,20,M,,M,,*63
06/07/2014	22:04:08.732	$GPGGA,220409,2433.1419,N,08045.5516,W,1,10,1.3,20,M,,M,,*69
06/07/2014	22:04:09.737	$GPGGA,220410,2433.1434,N,08045.5510,W,1,10,1.3,20,M,,M,,*68
06/07/2014	22:04:10.760	$GPGGA,220411,2433.1448,N,08045.5503,W,1,10,1.3,20,M,,M,,*60
06/07/2014	22:04:11.742	$GPGGA,220412,2433.1463,N,08045.5497,W,1,10,1.3,20,M,,M,,*66
06/07/2014	22:04:12.765	$GPGGA,220413,2433.1478,N,08045.5491,W,1,10,1.3,20,M,,M,,*6B
06/07/2014	22:04:13.737	$GPGGA,220414,2433.1492,N,08045.5485,W,1,10,1.3,20,M,,M,,*6D
06/07/2014	22:04:14.750	$GPGGA,220415,2433.1507,N,08045.5478,W,1,10,1.3,20,M,,M,,*63
06/07/2014	22:04:15.763	$GPGGA,220416,2433.1523,N,08045.5472,W,1,10,1.3,20,M,,M,,*6C
06/07/2014	22:04:16.738	$GPGGA,220417,2433.1538,N,08045.5466,W,1,10,1.3,20,M,,M,,*62
06/07/2014	22:04:17.748	$GPGGA,220418,2433.1553,N,08045.5460,W,1,10,1.3,20,M,,M,,*66
06/07/2014	22:04:18.770	$GPGGA,220419,2433.1568,N,08045.5454,W,1,10,1.3,20,M,,M,,*68
06/07/2014	22:04:19.762	$GPGGA,220420,2433.1582,N,08045.5447,W,1,10,1.3,20,M,,M,,*64
06/07/2014	22:04:20.759	$GPGGA,220421,2433.1597,N,08045.5440,W,1,10,1.3,20,M,,M,,*66
06/07/2014	22:04:21.737	$GPGGA,220422,2433.1613,N,08045.5434,W,1,10,1.3,20,M,,M,,*69
06/07/2014	22:04:22.790	$GPGGA,220423,2433.1628,N,08045.5429,W,1,10,1.3,20,M,,M,,*6C
06/07/2014	22:04:23.762	$GPGGA,220424,2433.1643,N,08045.5422,W,1,10,1.3,20,M,,M,,*6D
06/07/2014	22:04:24.755	$GPGGA,220425,2433.1658,N,08045.5416,W,1,10,1.3,20,M,,M,,*61
06/07/2014	22:04:25.858	$GPGGA,220426,2433.1673,N,08045.5410,W,1,10,1.3,20,M,,M,,*6D
06/07/2014	22:04:26.870	$GPGGA,220427,2433.1687,N,08045.5404,W,1,10,1.3,20,M,,M,,*62
06/07/2014	22:04:27.777	$GPGGA,220428,2433.1702,N,08045.5398,W,1,10,1.3,20,M,,M,,*63
06/07/2014	22:04:28.767	$GPGGA,220429,2433.1716,N,08045.5392,W,1,10,1.3,20,M,,M,,*6D
06/07/2014	22:04:29.748	$GPGGA,220430,2433.1731,N,08045.5386,W,1,10,1.3,20,M,,M,,*65
06/07/2014	22:04:30.741	$GPGGA,220431,2433.1747,N,08045.5380,W,1,10,1.3,20,M,,M,,*63
06/07/2014	22:04:31.863	$GPGGA,220432,2433.1762,N,08045.5374,W,1,10,1.3,20,M,,M,,*6C
06/07/2014	22:04:32.766	$GPGGA,220433,2433.1777,N,08045.5367,W,1,10,1.3,20,M,,M,,*6B
06/07/2014	22:04:33.748	$GPGGA,220434,2433.1792,N,08045.5361,W,1,10,1.3,20,M,,M,,*61
06/07/2014	22:04:34.851	$GPGGA,220435,2433.1806,N,08045.5355,W,1,10,1.3,20,M,,M,,*65
06/07/2014	22:04:35.774	$GPGGA,220436,2433.1821,N,08045.5349,W,1,10,1.3,20,M,,M,,*6E
06/07/2014	22:04:36.855	$GPGGA,220437,2433.1837,N,08045.5342,W,1,10,1.3,20,M,,M,,*63
06/07/2014	22:04:37.605	$GPGGA,220438,2433.1852,N,08045.5336,W,1,10,1.3,20,M,,M,,*6C
06/07/2014	22:04:38.728	$GPGGA,220439,2433.1867,N,08045.5330,W,1,10,1.3,20,M,,M,,*6D
06/07/2014	22:04:39.710	$GPGGA,220440,2433.1882,N,08045.5323,W,1,10,1.3,20,M,,M,,*6A
06/07/2014	22:04:40.693	$GPGGA,220441,2433.1896,N,08045.5317,W,1,10,1.3,20,M,,M,,*69
06/07/2014	22:04:41.695	$GPGGA,220442,2433.1911,N,08045.5311,W,1,10,1.3,20,M,,M,,*62
06/07/2014	22:04:42.738	$GPGGA,220443,2433.1926,N,08045.5304,W,1,9,1.5,20,M,,M,,*5D
06/07/2014	22:04:43.711	$GPGGA,220444,2433.1940,N,08045.5298,W,1,9,1.3,20,M,,M,,*58
06/07/2014	22:04:44.723	$GPGGA,220445,2433.1954,N,08045.5292,W,1,10,1.3,20,M,,M,,*6E
06/07/2014	22:04:45.716	$GPGGA,220446,2433.1969,N,08045.5286,W,1,10,1.3,20,M,,M,,*66
06/07/2014	22:04:46.718	$GPGGA,220447,2433.1984,N,08045.5279,W,1,10,1.3,20,M,,M,,*64
06/07/2014	22:04:47.721	$GPGGA,220448,2433.2000,N,08045.5273,W,1,10,1.3,20,M,,M,,*67
06/07/2014	22:04:48.724	$GPGGA,220449,2433.2015,N,08045.5266,W,1,10,1.3,20,M,,M,,*66
06/07/2014	22:04:49.696	$GPGGA,220450,2433.2029,N,08045.5259,W,1,10,1.3,20,M,,M,,*6D
06/07/2014	22:04:50.719	$GPGGA,220451,2433.2044,N,08045.5253,W,1,10,1.3,20,M,,M,,*6D
06/07/2014	22:04:51.712	$GPGGA,220452,2433.2059,N,08045.5247,W,1,10,1.3,19,M,,M,,*6D
06/07/2014	22:04:52.694	$GPGGA,220453,2433.2074,N,08045.5239,W,1,10,1.3,19,M,,M,,*6A
06/07/2014	22:04:53.706	$GPGGA,220454,2433.2090,N,08045.5233,W,1,10,1.3,19,M,,M,,*6D
06/07/2014	22:04:54.698	$GPGGA,220455,2433.2105,N,08045.5226,W,1,10,1.3,19,M,,M,,*65
06/07/2014	22:04:55.721	$GPGGA,220456,2433.2120,N,08045.5220,W,1,10,1.3,19,M,,M,,*67
06/07/2014	22:04:56.713	$GPGGA,220457,2433.2135,N,08045.5213,W,1,10,1.3,19,M,,M,,*62
06/07/2014	22:04:57.706	$GPGGA,220458,2433.2150,N,08045.5206,W,1,10,1.3,19,M,,M,,*6A
06/07/2014	22:04:58.718	$GPGGA,220459,2433.2164,N,08045.5200,W,1,10,1.3,19,M,,M,,*6A
06/07/2014	22:04:59.741	$GPGGA,220500,2433.2181,N,08045.5193,W,1,10,1.3,19,M,,M,,*65
06/07/2014	22:05:00.706	$GPGGA,220501,2433.2196,N,08045.5186,W,1,10,1.3,19,M,,M,,*66
06/07/2014	22:05:01.706	$GPGGA,220502,2433.2211,N,08045.5179,W,1,10,1.3,19,M,,M,,*69
06/07/2014	22:05:02.739	$GPGGA,220503,2433.2225,N,08045.5172,W,1,10,1.3,19,M,,M,,*64
06/07/2014	22:05:03.721	$GPGGA,220504,2433.2240,N,08045.5166,W,1,10,1.3,19,M,,M,,*65
06/07/2014	22:05:04.714	$GPGGA,220505,2433.2257,N,08045.5160,W,1,10,1.3,19,M,,M,,*64
06/07/2014	22:05:05.717	$GPGGA,220506,2433.2271,N,08045.5153,W,1,10,1.3,19,M,,M,,*63
06/07/2014	22:05:06.729	$GPGGA,220507,2433.2286,N,08045.5147,W,1,10,1.3,19,M,,M,,*6F
06/07/2014	22:05:07.742	$GPGGA,220508,2433.2301,N,08045.5140,W,1,10,1.3,19,M,,M,,*69
06/07/2014	22:05:08.714	$GPGGA,220509,2433.2316,N,08045.5134,W,1,10,1.3,19,M,,M,,*6D
06/07/2014	22:05:09.721	$GPGGA,220510,2433.2330,N,08045.5128,W,1,10,1.3,19,M,,M,,*6C
06/07/2014	22:05:10.740	$GPGGA,220511,2433.2345,N,08045.5121,W,1,10,1.3,19,M,,M,,*66
06/07/2014	22:05:11.721	$GPGGA,220512,2433.2359,N,08045.5115,W,1,10,1.3,19,M,,M,,*6F
06/07/2014	22:05:12.704	$GPGGA,220513,2433.2374,N,08045.5108,W,1,10,1.3,19,M,,M,,*6D
06/07/2014	22:05:13.706	$GPGGA,220514,2433.2390,N,08045.5102,W,1,10,1.3,19,M,,M,,*6A
06/07/2014	22:05:14.729	$GPGGA,220515,2433.2403,N,08045.5095,W,1,10,1.3,19,M,,M,,*69
06/07/2014	22:05:15.732	$GPGGA,220516,2433.2419,N,08045.5089,W,1,10,1.3,19,M,,M,,*6C
06/07/2014	22:05:16.704	$GPGGA,220517,2433.2434,N,08045.5083,W,1,10,1.3,19,M,,M,,*68
06/07/2014	22:05:17.817	$GPGGA,220518,2433.2449,N,08045.5076,W,1,10,1.3,19,M,,M,,*67
06/07/2014	22:05:18.719	$GPGGA,220519,2433.2464,N,08045.5070,W,1,10,1.3,19,M,,M,,*6F
06/07/2014	22:05:19.722	$GPGGA,220520,2433.2480,N,08045.5064,W,1,10,1.3,19,M,,M,,*6A
06/07/2014	22:05:20.725	$GPGGA,220521,2433.2495,N,08045.5057,W,1,10,1.3,19,M,,M,,*6F
06/07/2014	22:05:21.807	$GPGGA,220522,2433.2510,N,08045.5050,W,1,10,1.3,19,M,,M,,*67
06/07/2014	22:05:22.810	$GPGGA,220523,2433.2525,N,08045.5044,W,1,10,1.3,19,M,,M,,*65
06/07/2014	22:05:23.833	$GPGGA,220524,2433.2540,N,08045.5037,W,1,10,1.3,19,M,,M,,*65
06/07/2014	22:05:24.725	$GPGGA,220525,2433.2554,N,08045.5031,W,1,10,1.3,19,M,,M,,*67
06/07/2014	22:05:25.818	$GPGGA,220526,2433.2569,N,08045.5024,W,1,10,1.3,19,M,,M,,*6E
06/07/2014	22:05:26.810	$GPGGA,220527,2433.2585,N,08045.5018,W,1,10,1.3,19,M,,M,,*62
06/07/2014	22:05:27.834	$GPGGA,220528,2433.2600,N,08045.5011,W,1,10,1.3,19,M,,M,,*6A
06/07/2014	22:05:28.836	$GPGGA,220529,2433.2615,N,08045.5005,W,1,10,1.3,19,M,,M,,*6A
06/07/2014	22:05:29.817	$GPGGA,220530,2433.2630,N,08045.4999,W,1,10,1.3,19,M,,M,,*68
06/07/2014	22:05:30.820	$GPGGA,220531,2433.2645,N,08045.4992,W,1,10,1.3,19,M,,M,,*60
06/07/2014	22:05:31.833	$GPGGA,220532,2433.2659,N,08045.4986,W,1,10,1.3,19,M,,M,,*6B
06/07/2014	22:05:32.815	$GPGGA,220533,2433.2674,N,08045.4980,W,1,10,1.3,19,M,,M,,*63
06/07/2014	22:05:33.828	$GPGGA,220534,2433.2690,N,08045.4973,W,1,10,1.3,19,M,,M,,*62
06/07/2014	22:05:34.840	$GPGGA,220535,2433.2705,N,08045.4968,W,1,10,1.3,19,M,,M,,*64
06/07/2014	22:05:35.833	$GPGGA,220536,2433.2720,N,08045.4961,W,1,10,1.3,19,M,,M,,*69
06/07/2014	22:05:36.825	$GPGGA,220537,2433.2735,N,08045.4955,W,1,10,1.3,19,M,,M,,*6B
06/07/2014	22:05:37.675	$GPGGA,220538,2433.2749,N,08045.4949,W,1,10,1.3,19,M,,M,,*62
06/07/2014	22:05:38.688	$GPGGA,220539,2433.2764,N,08045.4943,W,1,10,1.3,19,M,,M,,*66
06/07/2014	22:05:39.670	$GPGGA,220540,2433.2780,N,08045.4936,W,1,10,1.3,19,M,,M,,*60
06/07/2014	22:05:40.693	$GPGGA,220541,2433.2795,N,08045.4930,W,1,10,1.3,19,M,,M,,*63
06/07/2014	22:05:41.675	$GPGGA,220542,2433.2811,N,08045.4924,W,1,10,1.3,19,M,,M,,*66
06/07/2014	22:05:42.698	$GPGGA,220543,2433.2825,N,08045.4918,W,1,10,1.3,19,M,,M,,*6F
06/07/2014	22:05:43.691	$GPGGA,220544,2433.2840,N,08045.4911,W,1,10,1.3,19,M,,M,,*62
06/07/2014	22:05:44.693	$GPGGA,220545,2433.2856,N,08045.4905,W,1,10,1.3,19,M,,M,,*61
06/07/2014	22:05:45.667	$GPGGA,220546,2433.2871,N,08045.4899,W,1,10,1.3,19,M,,M,,*63
06/07/2014	22:05:46.687	$GPGGA,220547,2433.2886,N,08045.4893,W,1,10,1.3,19,M,,M,,*60
06/07/2014	22:05:47.690	$GPGGA,220548,2433.2901,N,08045.4886,W,1,10,1.3,19,M,,M,,*65
06/07/2014	22:05:48.703	$GPGGA,220549,2433.2915,N,08045.4880,W,1,10,1.3,19,M,,M,,*67
06/07/2014	22:05:49.665	$GPGGA,220550,2433.2930,N,08045.4874,W,1,10,1.3,19,M,,M,,*63
06/07/2014	22:05:50.698	$GPGGA,220551,2433.2945,N,08045.4868,W,1,10,1.3,19,M,,M,,*6D
06/07/2014	22:05:51.680	$GPGGA,220552,2433.2961,N,08045.4862,W,1,10,1.3,19,M,,M,,*62
06/07/2014	22:05:52.713	$GPGGA,220553,2433.2976,N,08045.4855,W,1,10,1.3,19,M,,M,,*61
06/07/2014	22:05:53.685	$GPGGA,220554,2433.2991,N,08045.4848,W,1,10,1.3,19,M,,M,,*63
06/07/2014	22:05:54.668	$GPGGA,220555,2433.3006,N,08045.4842,W,1,10,1.3,19,M,,M,,*6E
06/07/2014	22:05:55.691	$GPGGA,220556,2433.3020,N,08045.4836,W,1,10,1.3,19,M,,M,,*6A
06/07/2014	22:05:56.683	$GPGGA,220557,2433.3035,N,08045.4830,W,1,10,1.3,19,M,,M,,*69
06/07/2014	22:05:57.687	$GPGGA,220558,2433.3051,N,08045.4823,W,1,10,1.3,19,M,,M,,*66
06/07/2014	22:05:58.668	$GPGGA,220559,2433.3066,N,08045.4817,W,1,10,1.3,19,M,,M,,*64
06/07/2014	22:05:59.791	$GPGGA,220600,2433.3081,N,08045.4811,W,1,10,1.3,19,M,,M,,*64
06/07/2014	22:06:00.784	$GPGGA,220601,2433.3096,N,08045.4804,W,1,10,1.3,19,M,,M,,*67
06/07/2014	22:06:01.686	$GPGGA,220602,2433.3111,N,08045.4797,W,1,10,1.3,19,M,,M,,*6F
06/07/2014	22:06:02.679	$GPGGA,220603,2433.3125,N,08045.4791,W,1,10,1.3,19,M,,M,,*6F
06/07/2014	22:06:03.691	$GPGGA,220604,2433.3140,N,08045.4785,W,1,10,1.3,19,M,,M,,*6E
06/07/2014	22:06:04.803	$GPGGA,220605,2433.3156,N,08045.4778,W,1,10,1.3,19,M,,M,,*6A
06/07/2014	22:06:05.686	$GPGGA,220606,2433.3171,N,08045.4772,W,1,10,1.3,19,M,,M,,*66
06/07/2014	22:06:06.698	$GPGGA,220607,2433.3186,N,08045.4765,W,1,10,1.3,19,M,,M,,*69
06/07/2014	22:06:07.801	$GPGGA,220608,2433.3201,N,08045.4759,W,1,10,1.3,19,M,,M,,*65
06/07/2014	22:06:08.784	$GPGGA,220609,2433.3215,N,08045.4753,W,1,10,1.3,19,M,,M,,*6B
06/07/2014	22:06:09.786	$GPGGA,220610,2433.3230,N,08045.4746,W,1,10,1.3,19,M,,M,,*60
06/07/2014	22:06:10.779	$GPGGA,220611,2433.3246,N,08045.4740,W,1,10,1.3,19,M,,M,,*66
06/07/2014	22:06:11.801	$GPGGA,220612,2433.3261,N,08045.4734,W,1,10,1.3,19,M,,M,,*63
06/07/2014	22:06:12.774	$GPGGA,220613,2433.3277,N,08045.4727,W,1,10,1.3,19,M,,M,,*67
06/07/2014	22:06:13.787	$GPGGA,220614,2433.3291,N,08045.4721,W,1,10,1.3,19,M,,M,,*6E
06/07/2014	22:06:14.779	$GPGGA,220615,2433.3306,N,08045.4714,W,1,10,1.3,19,M,,M,,*66
06/07/2014	22:06:15.802	$GPGGA,220616,2433.3322,N,08045.4708,W,1,10,1.3,19,M,,M,,*6E
06/07/2014	22:06:16.804	$GPGGA,220617,2433.3335,N,08045.4701,W,1,10,1.3,19,M,,M,,*60
06/07/2014	22:06:17.777	$GPGGA,220618,2433.3351,N,08045.4695,W,1,10,1.3,19,M,,M,,*61
06/07/2014	22:06:18.800	$GPGGA,220619,2433.3366,N,08045.4689,W,1,10,1.3,19,M,,M,,*69
06/07/2014	22:06:19.802	$GPGGA,220620,2433.3382,N,08045.4682,W,1,10,1.3,19,M,,M,,*62
06/07/2014	22:06:20.815	$GPGGA,220621,2433.3396,N,08045.4676,W,1,10,1.3,19,M,,M,,*6D
06/07/2014	22:06:21.776	$GPGGA,220622,2433.3411,N,08045.4670,W,1,10,1.3,19,M,,M,,*60
06/07/2014	22:06:22.799	$GPGGA,220623,2433.3427,N,08045.4663,W,1,10,1.3,19,M,,M,,*66
06/07/2014	22:06:23.803	$GPGGA,220624,2433.3442,N,08045.4657,W,1,10,1.3,19,M,,M,,*65
06/07/2014	22:06:24.784	$GPGGA,220625,2433.3457,N,08045.4650,W,1,10,1.3,19,M,,M,,*67
06/07/2014	22:06:25.787	$GPGGA,220626,2433.3472,N,08045.4644,W,1,10,1.3,19,M,,M,,*66
06/07/2014	22:06:26.809	$GPGGA,220627,2433.3486,N,08045.4637,W,1,10,1.5,19,M,,M,,*6E
06/07/2014	22:06:27.792	$GPGGA,220628,2433.3501,N,08045.4632,W,1,10,1.5,19,M,,M,,*6A
06/07/2014	22:06:28.804	$GPGGA,220629,2433.3517,N,08045.4626,W,1,10,1.3,19,M,,M,,*6F
06/07/2014	22:06:29.797	$GPGGA,220630,2433.3532,N,08045.4621,W,1,10,1.3,19,M,,M,,*67
06/07/2014	22:06:30.820	$GPGGA,220631,2433.3547,N,08045.4616,W,1,10,1.3,19,M,,M,,*60
06/07/2014	22:06:31.802	$GPGGA,220632,2433.3562,N,08045.4609,W,1,10,1.3,19,M,,M,,*6A
06/07/2014	22:06:32.786	$GPGGA,220633,2433.3577,N,08045.4603,W,1,10,1.3,19,M,,M,,*65
06/07/2014	22:06:33.797	$GPGGA,220634,2433.3591,N,08045.4597,W,1,10,1.3,19,M,,M,,*64
06/07/2014	22:06:34.780	$GPGGA,220635,2433.3606,N,08045.4591,W,1,10,1.3,19,M,,M,,*6E
06/07/2014	22:06:35.813	$GPGGA,220636,2433.3622,N,08045.4585,W,1,10,1.3,19,M,,M,,*6E
06/07/2014	22:06:36.825	$GPGGA,220637,2433.3637,N,08045.4579,W,1,10,1.3,19,M,,M,,*68
06/07/2014	22:06:37.738	$GPGGA,220638,2433.3652,N,08045.4573,W,1,10,1.3,19,M,,M,,*6E
06/07/2014	22:06:38.628	$GPGGA,220639,2433.3667,N,08045.4566,W,1,10,1.3,19,M,,M,,*6D
06/07/2014	22:06:39.660	$GPGGA,220640,2433.3681,N,08045.4560,W,1,10,1.3,19,M,,M,,*6D
06/07/2014	22:06:40.661	$GPGGA,220641,2433.3696,N,08045.4554,W,1,10,1.3,19,M,,M,,*6D
06/07/2014	22:06:41.657	$GPGGA,220642,2433.3712,N,08045.4548,W,1,10,1.3,19,M,,M,,*6E
06/07/2014	22:06:42.761	$GPGGA,220643,2433.3727,N,08045.4542,W,1,10,1.3,19,M,,M,,*63
06/07/2014	22:06:43.660	$GPGGA,220644,2433.3742,N,08045.4536,W,1,10,1.3,19,M,,M,,*64
06/07/2014	22:06:44.664	$GPGGA,220645,2433.3757,N,08045.4529,W,1,10,1.3,19,M,,M,,*6F
06/07/2014	22:06:45.646	$GPGGA,220646,2433.3772,N,08045.4523,W,1,10,1.3,19,M,,M,,*61
06/07/2014	22:06:46.671	$GPGGA,220647,2433.3786,N,08045.4517,W,1,10,1.3,19,M,,M,,*6C
06/07/2014	22:06:47.663	$GPGGA,220648,2433.3801,N,08045.4510,W,1,10,1.5,19,M,,M,,*62
06/07/2014	22:06:48.664	$GPGGA,220649,2433.3817,N,08045.4504,W,1,10,1.3,19,M,,M,,*67
06/07/2014	22:06:49.646	$GPGGA,220650,2433.3830,N,08045.4498,W,1,10,1.3,19,M,,M,,*6E
06/07/2014	22:06:50.739	$GPGGA,220651,2433.3846,N,08045.4492,W,1,10,1.3,19,M,,M,,*64
06/07/2014	22:06:51.785	$GPGGA,220652,2433.3861,N,08045.4486,W,1,10,1.3,19,M,,M,,*67
06/07/2014	22:06:52.784	$GPGGA,220653,2433.3876,N,08045.4479,W,1,10,1.5,19,M,,M,,*66
06/07/2014	22:06:54.037	$GPGGA,220654,2433.3891,N,08045.4471,W,1,10,1.5,19,M,,M,,*60
06/07/2014	22:06:54.785	$GPGGA,220655,2433.3905,N,08045.4465,W,1,10,1.5,19,M,,M,,*68
06/07/2014	22:06:55.762	$GPGGA,220656,2433.3920,N,08045.4459,W,1,10,1.3,19,M,,M,,*65
06/07/2014	22:06:56.753	$GPGGA,220657,2433.3936,N,08045.4454,W,1,10,1.3,19,M,,M,,*6E
06/07/2014	22:06:57.766	$GPGGA,220658,2433.3949,N,08045.4448,W,1,10,1.3,19,M,,M,,*64
06/07/2014	22:06:58.648	$GPGGA,220659,2433.3965,N,08045.4442,W,1,10,1.3,19,M,,M,,*61
06/07/2014	22:06:59.772	$GPGGA,220700,2433.3980,N,08045.4435,W,1,10,1.5,19,M,,M,,*61
06/07/2014	22:07:00.765	$GPGGA,220701,2433.3995,N,08045.4429,W,1,10,1.3,19,M,,M,,*6F
06/07/2014	22:07:01.746	$GPGGA,220702,2433.4010,N,08045.4424,W,1,10,1.3,20,M,,M,,*68
06/07/2014	22:07:02.769	$GPGGA,220703,2433.4025,N,08045.4418,W,1,10,1.3,20,M,,M,,*60
06/07/2014	22:07:03.802	$GPGGA,220704,2433.4039,N,08045.4411,W,1,10,1.5,20,M,,M,,*65
06/07/2014	22:07:04.784	$GPGGA,220705,2433.4054,N,08045.4404,W,1,10,1.5,20,M,,M,,*6B
06/07/2014	22:07:05.747	$GPGGA,220706,2433.4070,N,08045.4398,W,1,10,1.5,20,M,,M,,*6C
06/07/2014	22:07:06.769	$GPGGA,220707,2433.4085,N,08045.4391,W,1,10,1.3,20,M,,M,,*68
06/07/2014	22:07:07.772	$GPGGA,220708,2433.4100,N,08045.4386,W,1,10,1.3,20,M,,M,,*6D
06/07/2014	22:07:08.775	$GPGGA,220709,2433.4115,N,08045.4380,W,1,10,1.3,20,M,,M,,*6E
06/07/2014	22:07:09.757	$GPGGA,220710,2433.4129,N,08045.4374,W,1,10,1.3,20,M,,M,,*62
06/07/2014	22:07:10.790	$GPGGA,220711,2433.4144,N,08045.4369,W,1,10,1.3,20,M,,M,,*64
06/07/2014	22:07:11.762	$GPGGA,220712,2433.4158,N,08045.4364,W,1,10,1.3,20,M,,M,,*67
06/07/2014	22:07:12.745	$GPGGA,220713,2433.4175,N,08045.4358,W,1,10,1.3,20,M,,M,,*66
06/07/2014	22:07:13.748	$GPGGA,220714,2433.4189,N,08045.4352,W,1,10,1.3,20,M,,M,,*68
06/07/2014	22:07:14.789	$GPGGA,220715,2433.4204,N,08045.4347,W,1,10,1.3,20,M,,M,,*6B
06/07/2014	22:07:15.772	$GPGGA,220716,2433.4219,N,08045.4341,W,1,10,1.3,20,M,,M,,*62
06/07/2014	22:07:16.784	$GPGGA,220717,2433.4234,N,08045.4335,W,1,10,1.3,20,M,,M,,*6F
06/07/2014	22:07:17.767	$GPGGA,220718,2433.4249,N,08045.4329,W,1,10,1.3,20,M,,M,,*67
06/07/2014	22:07:18.779	$GPGGA,220719,2433.4263,N,08045.4323,W,1,10,1.3,20,M,,M,,*64
06/07/2014	22:07:19.762	$GPGGA,220720,2433.4278,N,08045.4317,W,1,10,1.3,20,M,,M,,*63
06/07/2014	22:07:20.755	$GPGGA,220721,2433.4294,N,08045.4311,W,1,10,1.3,20,M,,M,,*66
06/07/2014	22:07:21.767	$GPGGA,220722,2433.4309,N,08045.4305,W,1,10,1.3,20,M,,M,,*65
06/07/2014	22:07:22.790	$GPGGA,220723,2433.4324,N,08045.4299,W,1,10,1.3,20,M,,M,,*6F
06/07/2014	22:07:23.792	$GPGGA,220724,2433.4339,N,08045.4293,W,1,10,1.3,20,M,,M,,*6E
06/07/2014	22:07:24.785	$GPGGA,220725,2433.4353,N,08045.4287,W,1,10,1.3,20,M,,M,,*66
06/07/2014	22:07:25.773	$GPGGA,220726,2433.4368,N,08045.4281,W,1,10,1.3,20,M,,M,,*6B
06/07/2014	22:07:26.790	$GPGGA,220727,2433.4384,N,08045.4274,W,1,10,1.3,20,M,,M,,*62
06/07/2014	22:07:27.773	$GPGGA,220728,2433.4399,N,08045.4268,W,1,10,1.3,20,M,,M,,*6C
06/07/2014	22:07:28.765	$GPGGA,220729,2433.4414,N,08045.4262,W,1,10,1.3,20,M,,M,,*65
06/07/2014	22:07:29.780	$GPGGA,220730,2433.4429,N,08045.4256,W,1,10,1.3,20,M,,M,,*64
06/07/2014	22:07:30.881	$GPGGA,220731,2433.4444,N,08045.4250,W,1,10,1.3,20,M,,M,,*68
06/07/2014	22:07:31.782	$GPGGA,220732,2433.4458,N,08045.4244,W,1,10,1.3,20,M,,M,,*63
06/07/2014	22:07:32.755	$GPGGA,220733,2433.4473,N,08045.4238,W,1,10,1.3,21,M,,M,,*61
06/07/2014	22:07:33.777	$GPGGA,220734,2433.4489,N,08045.4231,W,1,10,1.3,21,M,,M,,*6A
06/07/2014	22:07:34.770	$GPGGA,220735,2433.4505,N,08045.4225,W,1,10,1.3,21,M,,M,,*6B
06/07/2014	22:07:35.793	$GPGGA,220736,2433.4520,N,08045.4219,W,1,10,1.3,21,M,,M,,*60
06/07/2014	22:07:36.775	$GPGGA,220737,2433.4534,N,08045.4213,W,1,10,1.3,21,M,,M,,*6E
06/07/2014	22:07:37.705	$GPGGA,220738,2433.4549,N,08045.4207,W,1,10,1.3,21,M,,M,,*6E
06/07/2014	22:07:38.728	$GPGGA,220739,2433.4565,N,08045.4200,W,1,10,1.3,21,M,,M,,*66
06/07/2014	22:07:39.650	$GPGGA,220740,2433.4580,N,08045.4193,W,1,10,1.3,21,M,,M,,*6A
06/07/2014	22:07:40.723	$GPGGA,220741,2433.4595,N,08045.4187,W,1,10,1.3,21,M,,M,,*6A
06/07/2014	22:07:41.625	$GPGGA,220742,2433.4595,N,08045.4187,W,1,10,1.3,21,M,,M,,*69
06/07/2014	22:07:42.628	$GPGGA,220743,2433.4624,N,08045.4175,W,1,10,1.3,21,M,,M,,*6C
06/07/2014	22:07:43.650	$GPGGA,220744,2433.4639,N,08045.4168,W,1,10,1.5,21,M,,M,,*6D
06/07/2014	22:07:44.733	$GPGGA,220745,2433.4655,N,08045.4161,W,1,10,1.5,21,M,,M,,*6F
06/07/2014	22:07:45.716	$GPGGA,220746,2433.4670,N,08045.4154,W,1,10,1.3,21,M,,M,,*6B
06/07/2014	22:07:46.628	$GPGGA,220747,2433.4685,N,08045.4148,W,1,10,1.5,21,M,,M,,*6B
06/07/2014	22:07:47.721	$GPGGA,220748,2433.4700,N,08045.4140,W,1,10,1.5,21,M,,M,,*60
06/07/2014	22:07:48.744	$GPGGA,220749,2433.4715,N,08045.4133,W,1,10,1.5,21,M,,M,,*61
06/07/2014	22:07:49.705	$GPGGA,220750,2433.4729,N,08045.4125,W,1,10,1.5,21,M,,M,,*61
06/07/2014	22:07:50.719	$GPGGA,220751,2433.4744,N,08045.4119,W,1,10,1.3,20,M,,M,,*63
06/07/2014	22:07:51.720	$GPGGA,220752,2433.4761,N,08045.4112,W,1,10,1.5,20,M,,M,,*6A
06/07/2014	22:07:52.723	$GPGGA,220753,2433.4776,N,08045.4106,W,1,10,1.5,20,M,,M,,*68
06/07/2014	22:07:53.715	$GPGGA,220754,2433.4790,N,08045.4099,W,1,10,1.5,20,M,,M,,*60
06/07/2014	22:07:54.738	$GPGGA,220755,2433.4805,N,08045.4092,W,1,10,1.3,20,M,,M,,*6F
06/07/2014	22:07:55.731	$GPGGA,220756,2433.4820,N,08045.4086,W,1,10,1.3,20,M,,M,,*6E
06/07/2014	22:07:56.713	$GPGGA,220757,2433.4836,N,08045.4080,W,1,10,1.3,20,M,,M,,*6E
06/07/2014	22:07:57.727	$GPGGA,220758,2433.4851,N,08045.4074,W,1,10,1.3,20,M,,M,,*6B
06/07/2014	22:07:58.739	$GPGGA,220759,2433.4866,N,08045.4069,W,1,10,1.3,20,M,,M,,*62
06/07/2014	22:07:59.741	$GPGGA,220800,2433.4881,N,08045.4063,W,1,10,1.3,19,M,,M,,*68
06/07/2014	22:08:00.744	$GPGGA,220801,2433.4895,N,08045.4058,W,1,10,1.3,19,M,,M,,*64
06/07/2014	22:08:01.726	$GPGGA,220802,2433.4910,N,08045.4053,W,1,10,1.3,19,M,,M,,*60
06/07/2014	22:08:02.749	$GPGGA,220803,2433.4924,N,08045.4047,W,1,10,1.3,19,M,,M,,*63
06/07/2014	22:08:03.742	$GPGGA,220804,2433.4939,N,08045.4041,W,1,10,1.3,19,M,,M,,*6E
06/07/2014	22:08:04.734	$GPGGA,220805,2433.4955,N,08045.4036,W,1,10,1.3,19,M,,M,,*65
06/07/2014	22:08:05.713	$GPGGA,220806,2433.4970,N,08045.4030,W,1,10,1.3,19,M,,M,,*67
06/07/2014	22:08:06.748	$GPGGA,220807,2433.4984,N,08045.4024,W,1,10,1.3,19,M,,M,,*68
06/07/2014	22:08:07.741	$GPGGA,220808,2433.4999,N,08045.4018,W,1,10,1.3,19,M,,M,,*64
06/07/2014	22:08:08.753	$GPGGA,220809,2433.5014,N,08045.4012,W,1,10,1.3,19,M,,M,,*62
06/07/2014	22:08:09.736	$GPGGA,220810,2433.5029,N,08045.4006,W,1,10,1.3,19,M,,M,,*61
06/07/2014	22:08:10.729	$GPGGA,220811,2433.5043,N,08045.4000,W,1,10,1.3,19,M,,M,,*6A
06/07/2014	22:08:11.741	$GPGGA,220812,2433.5058,N,08045.3994,W,1,10,1.3,19,M,,M,,*60
06/07/2014	22:08:12.744	$GPGGA,220813,2433.5074,N,08045.3986,W,1,10,1.5,19,M,,M,,*6A
06/07/2014	22:08:13.746	$GPGGA,220814,2433.5089,N,08045.3981,W,1,10,1.5,19,M,,M,,*68
06/07/2014	22:08:14.749	$GPGGA,220815,2433.5104,N,08045.3976,W,1,10,1.3,19,M,,M,,*63
06/07/2014	22:08:15.852	$GPGGA,220816,2433.5118,N,08045.3970,W,1,10,1.3,19,M,,M,,*6B
06/07/2014	22:08:16.744	$GPGGA,220817,2433.5133,N,08045.3965,W,1,10,1.3,19,M,,M,,*67
06/07/2014	22:08:17.818	$GPGGA,220818,2433.5148,N,08045.3959,W,1,10,1.3,19,M,,M,,*6B
06/07/2014	22:08:18.729	$GPGGA,220819,2433.5163,N,08045.3953,W,1,10,1.3,19,M,,M,,*69
06/07/2014	22:08:19.832	$GPGGA,220820,2433.5177,N,08045.3947,W,1,10,1.3,19,M,,M,,*63
06/07/2014	22:08:20.744	$GPGGA,220821,2433.5192,N,08045.3941,W,1,10,1.3,19,M,,M,,*6F
06/07/2014	22:08:21.726	$GPGGA,220822,2433.5206,N,08045.3936,W,1,10,1.3,19,M,,M,,*62
06/07/2014	22:08:22.719	$GPGGA,220823,2433.5221,N,08045.3930,W,1,10,1.3,19,M,,M,,*60
06/07/2014	22:08:23.741	$GPGGA,220824,2433.5237,N,08045.3924,W,1,10,1.3,19,M,,M,,*65
06/07/2014	22:08:24.723	$GPGGA,220825,2433.5252,N,08045.3918,W,1,10,1.3,19,M,,M,,*68
06/07/2014	22:08:25.826	$GPGGA,220826,2433.5267,N,08045.3912,W,1,10,1.3,19,M,,M,,*67
06/07/2014	22:08:26.728	$GPGGA,220827,2433.5282,N,08045.3906,W,1,10,1.3,19,M,,M,,*68
06/07/2014	22:08:27.841	$GPGGA,220828,2433.5296,N,08045.3900,W,1,10,1.3,19,M,,M,,*64
06/07/2014	22:08:28.843	$GPGGA,220829,2433.5311,N,08045.3894,W,1,10,1.3,19,M,,M,,*67
06/07/2014	22:08:29.836	$GPGGA,220830,2433.5327,N,08045.3888,W,1,10,1.3,19,M,,M,,*67
06/07/2014	22:08:30.868	$GPGGA,220831,2433.5340,N,08045.3882,W,1,10,1.3,20,M,,M,,*67
06/07/2014	22:08:31.841	$GPGGA,220832,2433.5356,N,08045.3876,W,1,10,1.3,20,M,,M,,*68
06/07/2014	22:08:32.833	$GPGGA,220833,2433.5371,N,08045.3870,W,1,10,1.3,20,M,,M,,*6A
06/07/2014	22:08:33.836	$GPGGA,220834,2433.5386,N,08045.3863,W,1,10,1.3,20,M,,M,,*67
06/07/2014	22:08:34.828	$GPGGA,220835,2433.5401,N,08045.3857,W,1,10,1.3,20,M,,M,,*69
06/07/2014	22:08:35.841	$GPGGA,220836,2433.5415,N,08045.3851,W,1,10,1.3,20,M,,M,,*69
06/07/2014	22:08:36.863	$GPGGA,220837,2433.5430,N,08045.3845,W,1,10,1.3,20,M,,M,,*6A
06/07/2014	22:08:37.675	$GPGGA,220838,2433.5444,N,08045.3838,W,1,10,1.3,20,M,,M,,*6C
06/07/2014	22:08:38.687	$GPGGA,220839,2433.5459,N,08045.3832,W,1,10,1.3,20,M,,M,,*6B
06/07/2014	22:08:39.700	$GPGGA,220840,2433.5473,N,08045.3826,W,1,10,1.3,20,M,,M,,*68
06/07/2014	22:08:40.692	$GPGGA,220841,2433.5488,N,08045.3819,W,1,10,1.3,20,M,,M,,*61
06/07/2014	22:08:41.684	$GPGGA,220842,2433.5502,N,08045.3813,W,1,10,1.3,20,M,,M,,*6B
06/07/2014	22:08:42.676	$GPGGA,220843,2433.5517,N,08045.3807,W,1,10,1.3,20,M,,M,,*6B
06/07/2014	22:08:43.699	$GPGGA,220844,2433.5533,N,08045.3801,W,1,10,1.3,20,M,,M,,*6C
06/07/2014	22:08:44.681	$GPGGA,220845,2433.5546,N,08045.3794,W,1,10,1.3,20,M,,M,,*6C
06/07/2014	22:08:45.684	$GPGGA,220846,2433.5562,N,08045.3788,W,1,10,1.3,20,M,,M,,*64
06/07/2014	22:08:46.676	$GPGGA,220847,2433.5577,N,08045.3782,W,1,10,1.3,20,M,,M,,*6B
06/07/2014	22:08:47.699	$GPGGA,220848,2433.5591,N,08045.3776,W,1,10,1.3,20,M,,M,,*67
06/07/2014	22:08:48.680	$GPGGA,220849,2433.5606,N,08045.3770,W,1,10,1.3,20,M,,M,,*6D
06/07/2014	22:08:49.694	$GPGGA,220850,2433.5621,N,08045.3763,W,1,10,1.3,20,M,,M,,*62
06/07/2014	22:08:50.736	$GPGGA,220851,2433.5636,N,08045.3757,W,1,10,1.3,20,M,,M,,*62
06/07/2014	22:08:51.699	$GPGGA,220852,2433.5650,N,08045.3752,W,1,10,1.3,20,M,,M,,*64
06/07/2014	22:08:52.711	$GPGGA,220853,2433.5665,N,08045.3745,W,1,10,1.3,20,M,,M,,*65
06/07/2014	22:08:53.694	$GPGGA,220854,2433.5679,N,08045.3739,W,1,10,1.3,20,M,,M,,*64
06/07/2014	22:08:54.681	$GPGGA,220855,2433.5694,N,08045.3733,W,1,10,1.3,20,M,,M,,*6C
06/07/2014	22:08:55.709	$GPGGA,220856,2433.5710,N,08045.3727,W,1,10,1.3,20,M,,M,,*67
06/07/2014	22:08:56.695	$GPGGA,220857,2433.5725,N,08045.3721,W,1,10,1.3,20,M,,M,,*66
06/07/2014	22:08:57.704	$GPGGA,220858,2433.5740,N,08045.3715,W,1,10,1.3,20,M,,M,,*6D
06/07/2014	22:08:58.686	$GPGGA,220859,2433.5754,N,08045.3708,W,1,10,1.3,20,M,,M,,*65
06/07/2014	22:08:59.708	$GPGGA,220900,2433.5769,N,08045.3702,W,1,10,1.3,20,M,,M,,*6C
06/07/2014	22:09:00.680	$GPGGA,220901,2433.5784,N,08045.3696,W,1,10,1.3,20,M,,M,,*62
06/07/2014	22:09:01.803	$GPGGA,220902,2433.5798,N,08045.3690,W,1,10,1.3,20,M,,M,,*6A
06/07/2014	22:09:02.685	$GPGGA,220903,2433.5813,N,08045.3684,W,1,10,1.3,20,M,,M,,*62
06/07/2014	22:09:03.710	$GPGGA,220904,2433.5827,N,08045.3678,W,1,10,1.3,20,M,,M,,*61
06/07/2014	22:09:04.817	$GPGGA,220905,2433.5842,N,08045.3672,W,1,10,1.3,20,M,,M,,*69
06/07/2014	22:09:05.701	$GPGGA,220906,2433.5856,N,08045.3666,W,1,10,1.3,20,M,,M,,*6A
06/07/2014	22:09:06.795	$GPGGA,220907,2433.5871,N,08045.3660,W,1,10,1.3,20,M,,M,,*68
06/07/2014	22:09:07.713	$GPGGA,220908,2433.5887,N,08045.3654,W,1,10,1.3,20,M,,M,,*69
06/07/2014	22:09:08.700	$GPGGA,220909,2433.5902,N,08045.3649,W,1,10,1.3,20,M,,M,,*68
06/07/2014	22:09:09.703	$GPGGA,220910,2433.5916,N,08045.3643,W,1,10,1.3,20,M,,M,,*6F
06/07/2014	22:09:10.705	$GPGGA,220911,2433.5931,N,08045.3636,W,1,10,1.3,20,M,,M,,*69
06/07/2014	22:09:11.798	$GPGGA,220912,2433.5946,N,08045.3629,W,1,10,1.3,20,M,,M,,*64
06/07/2014	22:09:12.701	$GPGGA,220913,2433.5961,N,08045.3623,W,1,10,1.5,20,M,,M,,*6C
06/07/2014	22:09:13.783	$GPGGA,220914,2433.5975,N,08045.3618,W,1,10,1.3,20,M,,M,,*60
06/07/2014	22:09:14.836	$GPGGA,220915,2433.5990,N,08045.3612,W,1,10,1.3,20,M,,M,,*60
06/07/2014	22:09:15.808	$GPGGA,220916,2433.6004,N,08045.3607,W,1,10,1.3,20,M,,M,,*60
06/07/2014	22:09:16.799	$GPGGA,220917,2433.6019,N,08045.3601,W,1,10,1.3,20,M,,M,,*6B
06/07/2014	22:09:17.792	$GPGGA,220918,2433.6033,N,08045.3596,W,1,10,1.3,20,M,,M,,*61
06/07/2014	22:09:18.835	$GPGGA,220919,2433.6048,N,08045.3589,W,1,10,1.3,20,M,,M,,*62
06/07/2014	22:09:19.807	$GPGGA,220920,2433.6062,N,08045.3583,W,1,10,1.3,20,M,,M,,*6A
06/07/2014	22:09:20.809	$GPGGA,220921,2433.6077,N,08045.3577,W,1,10,1.3,20,M,,M,,*64
06/07/2014	22:09:21.792	$GPGGA,220922,2433.6093,N,08045.3571,W,1,10,1.3,20,M,,M,,*6B
06/07/2014	22:09:22.814	$GPGGA,220923,2433.6106,N,08045.3566,W,1,10,1.3,20,M,,M,,*61
06/07/2014	22:09:23.817	$GPGGA,220924,2433.6122,N,08045.3559,W,1,10,1.3,20,M,,M,,*6C
06/07/2014	22:09:24.809	$GPGGA,220925,2433.6135,N,08045.3553,W,1,10,1.3,20,M,,M,,*61
06/07/2014	22:09:27.235	$GPGGA,220927,2433.6166,N,08045.3542,W,1,10,1.3,20,M,,M,,*65
06/07/2014	22:09:27.807	$GPGGA,220928,2433.6181,N,08045.3535,W,1,10,1.3,19,M,,M,,*69
06/07/2014	22:09:28.789	$GPGGA,220929,2433.6196,N,08045.3530,W,1,10,1.3,19,M,,M,,*6B
06/07/2014	22:09:29.792	$GPGGA,220930,2433.6210,N,08045.3524,W,1,10,1.3,19,M,,M,,*6B
06/07/2014	22:09:30.824	$GPGGA,220931,2433.6225,N,08045.3518,W,1,10,1.3,19,M,,M,,*63
06/07/2014	22:09:31.817	$GPGGA,220932,2433.6239,N,08045.3512,W,1,10,1.3,19,M,,M,,*67
06/07/2014	22:09:32.830	$GPGGA,220933,2433.6254,N,08045.3506,W,1,10,1.3,19,M,,M,,*68
06/07/2014	22:09:33.802	$GPGGA,220934,2433.6268,N,08045.3500,W,1,10,1.3,19,M,,M,,*66
06/07/2014	22:09:34.833	$GPGGA,220935,2433.6283,N,08045.3494,W,1,10,1.3,19,M,,M,,*6E
06/07/2014	22:09:35.816	$GPGGA,220936,2433.6297,N,08045.3487,W,1,10,1.3,19,M,,M,,*6A
06/07/2014	22:09:36.793	$GPGGA,220937,2433.6312,N,08045.3482,W,1,10,1.3,19,M,,M,,*62
06/07/2014	22:09:37.664	$GPGGA,220938,2433.6326,N,08045.3476,W,1,10,1.3,19,M,,M,,*61
06/07/2014	22:09:38.686	$GPGGA,220939,2433.6342,N,08045.3470,W,1,10,1.3,19,M,,M,,*64
06/07/2014	22:09:39.659	$GPGGA,220940,2433.6357,N,08045.3463,W,1,10,1.3,19,M,,M,,*6C
06/07/2014	22:09:40.651	$GPGGA,220941,2433.6371,N,08045.3457,W,1,10,1.3,19,M,,M,,*6E
06/07/2014	22:09:41.664	$GPGGA,220942,2433.6386,N,08045.3451,W,1,10,1.3,19,M,,M,,*63
06/07/2014	22:09:42.646	$GPGGA,220943,2433.6400,N,08045.3445,W,1,10,1.3,19,M,,M,,*6E
06/07/2014	22:09:43.679	$GPGGA,220944,2433.6415,N,08045.3438,W,1,10,1.3,19,M,,M,,*67
06/07/2014	22:09:44.681	$GPGGA,220945,2433.6430,N,08045.3432,W,1,10,1.3,19,M,,M,,*6B
06/07/2014	22:09:45.654	$GPGGA,220946,2433.6444,N,08045.3426,W,1,10,1.3,19,M,,M,,*6E
06/07/2014	22:09:46.666	$GPGGA,220947,2433.6458,N,08045.3420,W,1,10,1.3,19,M,,M,,*64
06/07/2014	22:09:47.799	$GPGGA,220948,2433.6473,N,08045.3413,W,1,10,1.3,19,M,,M,,*62
06/07/2014	22:09:48.651	$GPGGA,220949,2433.6488,N,08045.3407,W,1,10,1.3,19,M,,M,,*62
06/07/2014	22:09:49.755	$GPGGA,220950,2433.6502,N,08045.3401,W,1,10,1.3,19,M,,M,,*6F
06/07/2014	22:09:50.656	$GPGGA,220951,2433.6517,N,08045.3394,W,1,10,1.3,19,M,,M,,*61
06/07/2014	22:09:51.688	$GPGGA,220952,2433.6532,N,08045.3389,W,1,10,1.3,19,M,,M,,*69
06/07/2014	22:09:52.841	$GPGGA,220953,2433.6546,N,08045.3382,W,1,10,1.3,19,M,,M,,*60
06/07/2014	22:09:53.653	$GPGGA,220954,2433.6561,N,08045.3376,W,1,10,1.3,19,M,,M,,*69
06/07/2014	22:09:54.675	$GPGGA,220955,2433.6575,N,08045.3370,W,1,10,1.3,19,M,,M,,*6B
06/07/2014	22:09:55.669	$GPGGA,220956,2433.6590,N,08045.3364,W,1,10,1.3,19,M,,M,,*66
06/07/2014	22:09:56.861	$GPGGA,220957,2433.6604,N,08045.3358,W,1,10,1.3,19,M,,M,,*66
06/07/2014	22:09:57.663	$GPGGA,220958,2433.6618,N,08045.3352,W,1,10,1.3,19,M,,M,,*6E
06/07/2014	22:09:58.665	$GPGGA,220959,2433.6633,N,08045.3346,W,1,10,1.3,19,M,,M,,*63
06/07/2014	22:09:59.828	$GPGGA,221000,2433.6648,N,08045.3340,W,1,10,1.3,19,M,,M,,*6D
06/07/2014	22:10:00.861	$GPGGA,221001,2433.6662,N,08045.3334,W,1,10,1.3,19,M,,M,,*67
06/07/2014	22:10:01.754	$GPGGA,221002,2433.6678,N,08045.3328,W,1,10,1.3,19,M,,M,,*62
06/07/2014	22:10:02.856	$GPGGA,221003,2433.6693,N,08045.3322,W,1,10,1.3,19,M,,M,,*6C
06/07/2014	22:10:03.828	$GPGGA,221004,2433.6707,N,08045.3316,W,1,10,1.3,19,M,,M,,*60
06/07/2014	22:10:04.852	$GPGGA,221005,2433.6722,N,08045.3310,W,1,10,1.3,19,M,,M,,*60
06/07/2014	22:10:05.763	$GPGGA,221006,2433.6737,N,08045.3304,W,1,10,1.3,19,M,,M,,*62
06/07/2014	22:10:06.866	$GPGGA,221007,2433.6751,N,08045.3298,W,1,10,1.3,19,M,,M,,*67
06/07/2014	22:10:07.801	$GPGGA,221008,2433.6766,N,08045.3292,W,1,10,1.3,19,M,,M,,*66
06/07/2014	22:10:08.870	$GPGGA,221009,2433.6781,N,08045.3286,W,1,10,1.3,19,M,,M,,*6B
06/07/2014	22:10:09.782	$GPGGA,221010,2433.6795,N,08045.3280,W,1,10,1.3,19,M,,M,,*60
06/07/2014	22:10:10.754	$GPGGA,221011,2433.6810,N,08045.3274,W,1,10,1.3,19,M,,M,,*68
06/07/2014	22:10:11.797	$GPGGA,221012,2433.6824,N,08045.3268,W,1,10,1.3,19,M,,M,,*61
06/07/2014	22:10:12.880	$GPGGA,221013,2433.6839,N,08045.3262,W,1,10,1.3,19,M,,M,,*66
06/07/2014	22:10:13.752	$GPGGA,221014,2433.6855,N,08045.3256,W,1,10,1.3,19,M,,M,,*6C
06/07/2014	22:10:14.845	$GPGGA,221015,2433.6868,N,08045.3250,W,1,10,1.3,19,M,,M,,*65
06/07/2014	22:10:15.797	$GPGGA,221016,2433.6884,N,08045.3244,W,1,10,1.3,19,M,,M,,*61
06/07/2014	22:10:16.850	$GPGGA,221017,2433.6899,N,08045.3238,W,1,10,1.3,19,M,,M,,*67
06/07/2014	22:10:17.792	$GPGGA,221018,2433.6913,N,08045.3232,W,1,10,1.3,19,M,,M,,*61
06/07/2014	22:10:18.875	$GPGGA,221019,2433.6928,N,08045.3226,W,1,10,1.3,19,M,,M,,*6D
06/07/2014	22:10:19.807	$GPGGA,221020,2433.6943,N,08045.3220,W,1,10,1.3,19,M,,M,,*6C
06/07/2014	22:10:20.759	$GPGGA,221021,2433.6958,N,08045.3214,W,1,10,1.3,19,M,,M,,*60
06/07/2014	22:10:21.762	$GPGGA,221022,2433.6972,N,08045.3209,W,1,10,1.3,19,M,,M,,*67
06/07/2014	22:10:22.875	$GPGGA,221023,2433.6987,N,08045.3203,W,1,10,1.4,19,M,,M,,*61
06/07/2014	22:10:23.817	$GPGGA,221024,2433.7001,N,08045.3197,W,1,10,1.4,19,M,,M,,*6E
06/07/2014	22:10:24.758	$GPGGA,221025,2433.7016,N,08045.3191,W,1,10,1.4,19,M,,M,,*6F
06/07/2014	22:10:25.793	$GPGGA,221026,2433.7030,N,08045.3186,W,1,10,1.4,19,M,,M,,*6E
06/07/2014	22:10:26.843	$GPGGA,221027,2433.7045,N,08045.3180,W,1,10,1.4,19,M,,M,,*6B
06/07/2014	22:10:27.796	$GPGGA,221028,2433.7059,N,08045.3174,W,1,10,1.4,19,M,,M,,*62
06/07/2014	22:10:28.828	$GPGGA,221029,2433.7074,N,08045.3168,W,1,10,1.4,19,M,,M,,*61
06/07/2014	22:10:29.791	$GPGGA,221030,2433.7088,N,08045.3162,W,1,10,1.4,19,M,,M,,*60
06/07/2014	22:10:30.763	$GPGGA,221031,2433.7103,N,08045.3156,W,1,10,1.4,19,M,,M,,*64
06/07/2014	22:10:31.776	$GPGGA,221032,2433.7117,N,08045.3150,W,1,10,1.4,19,M,,M,,*64
06/07/2014	22:10:32.860	$GPGGA,221033,2433.7132,N,08045.3144,W,1,10,1.4,19,M,,M,,*67
06/07/2014	22:10:33.791	$GPGGA,221034,2433.7146,N,08045.3138,W,1,10,1.4,19,M,,M,,*68
06/07/2014	22:10:34.877	$GPGGA,221035,2433.7160,N,08045.3133,W,1,10,1.4,19,M,,M,,*66
06/07/2014	22:10:35.816	$GPGGA,221036,2433.7175,N,08045.3126,W,1,10,1.4,19,M,,M,,*65
06/07/2014	22:10:36.858	$GPGGA,221037,2433.7189,N,08045.3120,W,1,10,1.4,19,M,,M,,*61
06/07/2014	22:10:37.654	$GPGGA,221038,2433.7204,N,08045.3114,W,1,10,1.4,19,M,,M,,*6F
06/07/2014	22:10:38.726	$GPGGA,221039,2433.7218,N,08045.3108,W,1,10,1.4,19,M,,M,,*6E
06/07/2014	22:10:39.729	$GPGGA,221040,2433.7233,N,08045.3101,W,1,10,1.4,19,M,,M,,*60
06/07/2014	22:10:40.731	$GPGGA,221041,2433.7247,N,08045.3095,W,1,10,1.4,19,M,,M,,*6E
06/07/2014	22:10:41.664	$GPGGA,221042,2433.7262,N,08045.3089,W,1,10,1.4,19,M,,M,,*67
06/07/2014	22:10:42.747	$GPGGA,221043,2433.7276,N,08045.3083,W,1,10,1.4,19,M,,M,,*69
06/07/2014	22:10:43.688	$GPGGA,221044,2433.7290,N,08045.3076,W,1,10,1.4,19,M,,M,,*6C
06/07/2014	22:10:44.720	$GPGGA,221045,2433.7305,N,08045.3070,W,1,10,1.4,19,M,,M,,*66
06/07/2014	22:10:45.673	$GPGGA,221046,2433.7319,N,08045.3064,W,1,10,1.4,19,M,,M,,*6D
06/07/2014	22:10:46.756	$GPGGA,221047,2433.7334,N,08045.3057,W,1,10,1.4,19,M,,M,,*63
06/07/2014	22:10:47.738	$GPGGA,221048,2433.7348,N,08045.3051,W,1,10,1.4,19,M,,M,,*61
06/07/2014	22:10:48.740	$GPGGA,221049,2433.7363,N,08045.3044,W,1,10,1.4,19,M,,M,,*6D
06/07/2014	22:10:49.724	$GPGGA,221050,2433.7377,N,08045.3037,W,1,10,1.4,19,M,,M,,*64
06/07/2014	22:10:50.755	$GPGGA,221051,2433.7392,N,08045.3031,W,1,10,1.4,19,M,,M,,*68
06/07/2014	22:10:51.748	$GPGGA,221052,2433.7406,N,08045.3024,W,1,10,1.4,19,M,,M,,*65
06/07/2014	22:10:52.784	$GPGGA,221053,2433.7421,N,08045.3018,W,1,10,1.4,19,M,,M,,*6E
06/07/2014	22:10:53.773	$GPGGA,221054,2433.7435,N,08045.3010,W,1,10,1.4,19,M,,M,,*64
06/07/2014	22:10:54.755	$GPGGA,221055,2433.7449,N,08045.3004,W,1,10,1.4,19,M,,M,,*6B
06/07/2014	22:10:55.748	$GPGGA,221056,2433.7464,N,08045.2998,W,1,10,1.4,19,M,,M,,*6A
06/07/2014	22:10:56.760	$GPGGA,221057,2433.7478,N,08045.2991,W,1,10,1.4,19,M,,M,,*6F
06/07/2014	22:10:57.733	$GPGGA,221058,2433.7493,N,08045.2984,W,1,10,1.4,19,M,,M,,*61
06/07/2014	22:10:58.806	$GPGGA,221059,2433.7507,N,08045.2978,W,1,10,1.4,19,M,,M,,*6F
06/07/2014	22:10:59.758	$GPGGA,221100,2433.7521,N,08045.2971,W,1,10,1.4,19,M,,M,,*6F
06/07/2014	22:11:00.760	$GPGGA,221101,2433.7536,N,08045.2964,W,1,10,1.4,19,M,,M,,*6C
06/07/2014	22:11:01.732	$GPGGA,221102,2433.7550,N,08045.2957,W,1,10,1.4,19,M,,M,,*6F
06/07/2014	22:11:02.754	$GPGGA,221103,2433.7550,N,08045.2957,W,1,10,1.4,19,M,,M,,*6E
06/07/2014	22:11:03.737	$GPGGA,221104,2433.7579,N,08045.2944,W,1,10,1.4,19,M,,M,,*60
06/07/2014	22:11:04.759	$GPGGA,221105,2433.7593,N,08045.2937,W,1,10,1.4,19,M,,M,,*61
06/07/2014	22:11:05.742	$GPGGA,221106,2433.7608,N,08045.2930,W,1,10,1.4,19,M,,M,,*64
06/07/2014	22:11:06.794	$GPGGA,221107,2433.7622,N,08045.2923,W,1,10,1.4,19,M,,M,,*6F
06/07/2014	22:11:07.747	$GPGGA,221108,2433.7637,N,08045.2916,W,1,10,1.4,19,M,,M,,*62
06/07/2014	22:11:08.779	$GPGGA,221109,2433.7651,N,08045.2909,W,1,10,1.4,19,M,,M,,*6D
06/07/2014	22:11:09.752	$GPGGA,221110,2433.7665,N,08045.2903,W,1,10,1.4,19,M,,M,,*68
06/07/2014	22:11:10.784	$GPGGA,221111,2433.7680,N,08045.2896,W,1,10,1.4,19,M,,M,,*6F
06/07/2014	22:11:11.757	$GPGGA,221112,2433.7694,N,08045.2890,W,1,10,1.4,19,M,,M,,*6F
06/07/2014	22:11:12.749	$GPGGA,221113,2433.7708,N,08045.2883,W,1,10,1.4,19,M,,M,,*68
06/07/2014	22:11:13.742	$GPGGA,221114,2433.7723,N,08045.2876,W,1,10,1.4,19,M,,M,,*6C
06/07/2014	22:11:14.744	$GPGGA,221115,2433.7723,N,08045.2876,W,1,10,1.4,19,M,,M,,*6D
06/07/2014	22:11:15.767	$GPGGA,221116,2433.7752,N,08045.2864,W,1,10,1.4,19,M,,M,,*6B
06/07/2014	22:11:16.799	$GPGGA,221117,2433.7752,N,08045.2864,W,1,10,1.4,19,M,,M,,*6A
06/07/2014	22:11:17.738	$GPGGA,221118,2433.7780,N,08045.2850,W,1,10,1.4,19,M,,M,,*6D
06/07/2014	22:11:18.763	$GPGGA,221119,2433.7795,N,08045.2845,W,1,10,1.4,19,M,,M,,*6C
06/07/2014	22:11:19.756	$GPGGA,221120,2433.7795,N,08045.2845,W,1,10,1.4,19,M,,M,,*66
06/07/2014	22:11:20.798	$GPGGA,221121,2433.7824,N,08045.2832,W,1,10,1.4,19,M,,M,,*62
06/07/2014	22:11:21.741	$GPGGA,221122,2433.7838,N,08045.2825,W,1,10,1.4,19,M,,M,,*6A
06/07/2014	22:11:22.864	$GPGGA,221123,2433.7851,N,08045.2819,W,1,10,1.4,19,M,,M,,*6B
06/07/2014	22:11:23.836	$GPGGA,221124,2433.7867,N,08045.2813,W,1,10,1.4,19,M,,M,,*63
06/07/2014	22:11:24.758	$GPGGA,221125,2433.7867,N,08045.2813,W,1,10,1.4,19,M,,M,,*62
06/07/2014	22:11:25.831	$GPGGA,221126,2433.7896,N,08045.2800,W,1,10,1.4,19,M,,M,,*6D
06/07/2014	22:11:26.854	$GPGGA,221127,2433.7911,N,08045.2794,W,1,10,1.4,19,M,,M,,*60
06/07/2014	22:11:27.756	$GPGGA,221128,2433.7925,N,08045.2787,W,1,10,1.4,19,M,,M,,*6A
06/07/2014	22:11:28.838	$GPGGA,221129,2433.7940,N,08045.2781,W,1,10,1.4,19,M,,M,,*6E
06/07/2014	22:11:29.751	$GPGGA,221130,2433.7954,N,08045.2775,W,1,10,1.4,19,M,,M,,*68
06/07/2014	22:11:30.843	$GPGGA,221131,2433.7968,N,08045.2769,W,1,10,1.4,19,M,,M,,*6B
06/07/2014	22:11:31.856	$GPGGA,221132,2433.7981,N,08045.2763,W,1,10,1.4,19,M,,M,,*65
06/07/2014	22:11:32.838	$GPGGA,221133,2433.7997,N,08045.2756,W,1,10,1.4,19,M,,M,,*65
06/07/2014	22:11:33.841	$GPGGA,221134,2433.8010,N,08045.2750,W,1,10,1.4,19,M,,M,,*6D
06/07/2014	22:11:34.843	$GPGGA,221135,2433.8026,N,08045.2744,W,1,10,1.4,19,M,,M,,*6C
06/07/2014	22:11:35.846	$GPGGA,221136,2433.8040,N,08045.2738,W,1,10,1.4,19,M,,M,,*64
06/07/2014	22:11:36.867	$GPGGA,221137,2433.8053,N,08045.2733,W,1,10,1.4,19,M,,M,,*6C
06/07/2014	22:11:37.694	$GPGGA,221138,2433.8069,N,08045.2727,W,1,10,1.4,19,M,,M,,*6F
06/07/2014	22:11:38.747	$GPGGA,221139,2433.8082,N,08045.2720,W,1,10,1.4,19,M,,M,,*6C
06/07/2014	22:11:39.710	$GPGGA,221140,2433.8098,N,08045.2714,W,1,10,1.4,19,M,,M,,*6E
06/07/2014	22:11:40.711	$GPGGA,221141,2433.8111,N,08045.2708,W,1,10,1.4,19,M,,M,,*62
06/07/2014	22:11:41.694	$GPGGA,221142,2433.8125,N,08045.2702,W,1,10,1.4,19,M,,M,,*6C
06/07/2014	22:11:42.716	$GPGGA,221143,2433.8140,N,08045.2696,W,1,10,1.4,19,M,,M,,*62
