Software Version Number: 1	Data File Format Number: 1	Build Version Number: 1	Error Count Since VI Started: 0	Manufacturer: Raytheon	 Model Number: RayMarine 120	 S/N: 	 Cal Date: 	 Wind Direction Offset: 0.00	 Slope (M)1: 0.00	 Offset (B)1: 0.00	 Slope (M)2: 0.00	 Offset (B)2: 0.00	 Slope (M)3: 0.00	 Offset (B)3: 0.00	 Slope (M)4: 0.00	 Offset (B)4: 0.00	 Slope (M)5: 0.00	 Offset (B)5: 0.00	 Slope (M)6: 0.00	 Offset (B)6: 0.00
Computer Date	Computer Time	GGA String
06/05/2014	17:00:00.826	$GPGGA,170001,2423.9112,N,08125.1488,W,1,9,1.9,12,M,,M,,*52
06/05/2014	17:00:01.792	$GPGGA,170002,2423.9108,N,08125.1487,W,1,9,1.9,12,M,,M,,*55
06/05/2014	17:00:02.827	$GPGGA,170003,2423.9104,N,08125.1486,W,1,9,1.9,12,M,,M,,*59
06/05/2014	17:00:03.823	$GPGGA,170004,2423.9098,N,08125.1486,W,1,9,1.9,12,M,,M,,*5A
06/05/2014	17:00:04.829	$GPGGA,170005,2423.9094,N,08125.1486,W,1,9,1.9,12,M,,M,,*57
06/05/2014	17:00:05.813	$GPGGA,170006,2423.9090,N,08125.1485,W,1,9,1.9,12,M,,M,,*53
06/05/2014	17:00:06.849	$GPGGA,170007,2423.9086,N,08125.1483,W,1,9,1.9,12,M,,M,,*53
06/05/2014	17:00:07.835	$GPGGA,170008,2423.9081,N,08125.1483,W,1,9,1.9,12,M,,M,,*5B
06/05/2014	17:00:08.891	$GPGGA,170009,2423.9076,N,08125.1483,W,1,9,1.9,12,M,,M,,*52
06/05/2014	17:00:09.846	$GPGGA,170010,2423.9072,N,08125.1482,W,1,9,1.9,12,M,,M,,*5F
06/05/2014	17:00:10.872	$GPGGA,170011,2423.9068,N,08125.1481,W,1,9,1.9,12,M,,M,,*56
06/05/2014	17:00:11.848	$GPGGA,170012,2423.9062,N,08125.1481,W,1,9,1.9,12,M,,M,,*5F
06/05/2014	17:00:12.873	$GPGGA,170013,2423.9058,N,08125.1480,W,1,9,1.9,12,M,,M,,*56
06/05/2014	17:00:13.839	$GPGGA,170014,2423.9053,N,08125.1481,W,1,9,1.9,12,M,,M,,*5B
06/05/2014	17:00:14.915	$GPGGA,170015,2423.9050,N,08125.1479,W,1,9,1.9,12,M,,M,,*5E
06/05/2014	17:00:15.850	$GPGGA,170016,2423.9050,N,08125.1479,W,1,9,1.9,12,M,,M,,*5D
06/05/2014	17:00:16.896	$GPGGA,170017,2423.9040,N,08125.1478,W,1,9,1.9,12,M,,M,,*5C
06/05/2014	17:00:17.862	$GPGGA,170018,2423.9036,N,08125.1479,W,1,9,1.9,12,M,,M,,*53
06/05/2014	17:00:18.908	$GPGGA,170019,2423.9036,N,08125.1479,W,1,9,1.9,12,M,,M,,*52
06/05/2014	17:00:19.893	$GPGGA,170020,2423.9026,N,08125.1476,W,1,9,1.9,12,M,,M,,*56
06/05/2014	17:00:20.939	$GPGGA,170021,2423.9022,N,08125.1477,W,1,9,1.9,12,M,,M,,*52
06/05/2014	17:00:21.985	$GPGGA,170022,2423.9018,N,08125.1476,W,1,9,1.9,12,M,,M,,*59
06/05/2014	17:00:22.889	$GPGGA,170023,2423.9018,N,08125.1476,W,1,9,1.9,12,M,,M,,*58
06/05/2014	17:00:23.905	$GPGGA,170024,2423.9008,N,08125.1474,W,1,9,1.9,12,M,,M,,*5C
06/05/2014	17:00:24.951	$GPGGA,170025,2423.9004,N,08125.1474,W,1,9,1.9,12,M,,M,,*51
06/05/2014	17:00:26.007	$GPGGA,170026,2423.9000,N,08125.1474,W,1,9,1.9,12,M,,M,,*56
06/05/2014	17:00:26.972	$GPGGA,170027,2423.8996,N,08125.1473,W,1,9,1.9,12,M,,M,,*57
06/05/2014	17:00:27.938	$GPGGA,170028,2423.8990,N,08125.1474,W,1,9,1.9,12,M,,M,,*59
06/05/2014	17:00:28.923	$GPGGA,170029,2423.8986,N,08125.1472,W,1,9,1.9,12,M,,M,,*59
06/05/2014	17:00:29.899	$GPGGA,170030,2423.8982,N,08125.1472,W,1,9,1.9,12,M,,M,,*55
06/05/2014	17:00:31.005	$GPGGA,170031,2423.8978,N,08125.1471,W,1,9,1.9,12,M,,M,,*52
06/05/2014	17:00:31.910	$GPGGA,170032,2423.8974,N,08125.1471,W,1,9,1.9,12,M,,M,,*5D
06/05/2014	17:00:32.926	$GPGGA,170033,2423.8974,N,08125.1471,W,1,9,1.9,12,M,,M,,*5C
06/05/2014	17:00:33.912	$GPGGA,170034,2423.8965,N,08125.1470,W,1,9,1.9,12,M,,M,,*5A
06/05/2014	17:00:34.917	$GPGGA,170035,2423.8965,N,08125.1470,W,1,9,1.9,12,M,,M,,*5B
06/05/2014	17:00:35.505	$GPGGA,170036,2423.8956,N,08125.1469,W,1,9,1.9,12,M,,M,,*50
06/05/2014	17:00:36.500	$GPGGA,170037,2423.8956,N,08125.1469,W,1,9,1.9,12,M,,M,,*51
06/05/2014	17:00:37.496	$GPGGA,170038,2423.8949,N,08125.1469,W,1,9,1.9,11,M,,M,,*53
06/05/2014	17:00:38.632	$GPGGA,170039,2423.8943,N,08125.1468,W,1,9,1.9,11,M,,M,,*59
06/05/2014	17:00:39.608	$GPGGA,170040,2423.8939,N,08125.1467,W,1,9,1.9,11,M,,M,,*55
06/05/2014	17:00:40.633	$GPGGA,170041,2423.8935,N,08125.1468,W,1,9,1.9,11,M,,M,,*57
06/05/2014	17:00:41.598	$GPGGA,170042,2423.8931,N,08125.1468,W,1,9,1.9,11,M,,M,,*50
06/05/2014	17:00:42.634	$GPGGA,170043,2423.8927,N,08125.1467,W,1,9,1.9,11,M,,M,,*59
06/05/2014	17:00:43.630	$GPGGA,170044,2423.8922,N,08125.1466,W,1,9,1.9,11,M,,M,,*5A
06/05/2014	17:00:44.615	$GPGGA,170045,2423.8918,N,08125.1467,W,1,9,1.9,11,M,,M,,*53
06/05/2014	17:00:45.631	$GPGGA,170046,2423.8914,N,08125.1467,W,1,9,1.9,11,M,,M,,*5C
06/05/2014	17:00:46.647	$GPGGA,170047,2423.8909,N,08125.1466,W,1,9,1.9,11,M,,M,,*50
06/05/2014	17:00:47.642	$GPGGA,170048,2423.8905,N,08125.1467,W,1,9,1.9,11,M,,M,,*52
06/05/2014	17:00:48.658	$GPGGA,170049,2423.8902,N,08125.1465,W,1,9,1.9,11,M,,M,,*56
06/05/2014	17:00:49.634	$GPGGA,170050,2423.8896,N,08125.1464,W,1,9,1.9,11,M,,M,,*53
06/05/2014	17:00:50.660	$GPGGA,170051,2423.8893,N,08125.1464,W,1,9,1.9,11,M,,M,,*57
06/05/2014	17:00:51.655	$GPGGA,170052,2423.8889,N,08125.1465,W,1,9,1.9,11,M,,M,,*5E
06/05/2014	17:00:52.661	$GPGGA,170053,2423.8884,N,08125.1463,W,1,9,1.9,11,M,,M,,*54
06/05/2014	17:00:53.657	$GPGGA,170054,2423.8880,N,08125.1462,W,1,9,1.9,11,M,,M,,*56
06/05/2014	17:00:54.682	$GPGGA,170055,2423.8875,N,08125.1463,W,1,9,1.9,11,M,,M,,*5C
06/05/2014	17:00:55.678	$GPGGA,170056,2423.8871,N,08125.1463,W,1,9,1.9,11,M,,M,,*5B
06/05/2014	17:00:56.654	$GPGGA,170057,2423.8867,N,08125.1461,W,1,9,1.9,11,M,,M,,*5F
06/05/2014	17:00:57.669	$GPGGA,170058,2423.8863,N,08125.1460,W,1,9,1.9,11,M,,M,,*55
06/05/2014	17:00:58.664	$GPGGA,170059,2423.8859,N,08125.1461,W,1,9,1.9,11,M,,M,,*5C
06/05/2014	17:00:59.710	$GPGGA,170100,2423.8855,N,08125.1461,W,1,9,1.9,11,M,,M,,*5D
06/05/2014	17:01:00.705	$GPGGA,170101,2423.8850,N,08125.1460,W,1,9,1.9,11,M,,M,,*58
06/05/2014	17:01:01.671	$GPGGA,170102,2423.8846,N,08125.1459,W,1,9,1.9,11,M,,M,,*56
06/05/2014	17:01:02.687	$GPGGA,170103,2423.8842,N,08125.1460,W,1,9,1.9,11,M,,M,,*59
06/05/2014	17:01:03.703	$GPGGA,170104,2423.8838,N,08125.1459,W,1,9,1.9,11,M,,M,,*59
06/05/2014	17:01:04.688	$GPGGA,170105,2423.8834,N,08125.1460,W,1,9,1.9,11,M,,M,,*5E
06/05/2014	17:01:05.694	$GPGGA,170106,2423.8830,N,08125.1458,W,1,9,1.9,11,M,,M,,*52
06/05/2014	17:01:06.730	$GPGGA,170107,2423.8826,N,08125.1457,W,1,9,1.9,11,M,,M,,*5B
06/05/2014	17:01:07.715	$GPGGA,170108,2423.8822,N,08125.1457,W,1,9,1.9,11,M,,M,,*50
06/05/2014	17:01:08.741	$GPGGA,170109,2423.8819,N,08125.1457,W,1,9,1.9,11,M,,M,,*59
06/05/2014	17:01:09.717	$GPGGA,170110,2423.8813,N,08125.1456,W,1,9,1.9,11,M,,M,,*5A
06/05/2014	17:01:10.833	$GPGGA,170111,2423.8810,N,08125.1456,W,1,9,1.9,11,M,,M,,*58
06/05/2014	17:01:11.728	$GPGGA,170112,2423.8805,N,08125.1456,W,1,9,1.9,11,M,,M,,*5F
06/05/2014	17:01:12.744	$GPGGA,170113,2423.8802,N,08125.1456,W,1,9,1.9,11,M,,M,,*59
06/05/2014	17:01:13.725	$GPGGA,170114,2423.8798,N,08125.1455,W,1,9,1.9,11,M,,M,,*51
06/05/2014	17:01:14.746	$GPGGA,170115,2423.8793,N,08125.1454,W,1,9,1.9,11,M,,M,,*5A
06/05/2014	17:01:15.750	$GPGGA,170116,2423.8790,N,08125.1456,W,1,9,1.9,11,M,,M,,*58
06/05/2014	17:01:16.856	$GPGGA,170117,2423.8786,N,08125.1455,W,1,9,1.9,11,M,,M,,*5D
06/05/2014	17:01:17.741	$GPGGA,170118,2423.8781,N,08125.1453,W,1,9,1.9,11,M,,M,,*53
06/05/2014	17:01:18.767	$GPGGA,170119,2423.8777,N,08125.1453,W,1,9,1.9,11,M,,M,,*5B
06/05/2014	17:01:19.752	$GPGGA,170120,2423.8773,N,08125.1454,W,1,9,1.9,10,M,,M,,*53
06/05/2014	17:01:20.768	$GPGGA,170121,2423.8769,N,08125.1453,W,1,9,1.9,10,M,,M,,*5E
06/05/2014	17:01:21.744	$GPGGA,170122,2423.8765,N,08125.1452,W,1,9,1.9,10,M,,M,,*50
06/05/2014	17:01:22.860	$GPGGA,170123,2423.8761,N,08125.1452,W,1,9,1.9,10,M,,M,,*55
06/05/2014	17:01:23.783	$GPGGA,170124,2423.8757,N,08125.1452,W,1,9,1.9,10,M,,M,,*57
06/05/2014	17:01:24.781	$GPGGA,170125,2423.8754,N,08125.1452,W,1,9,1.9,10,M,,M,,*55
06/05/2014	17:01:25.867	$GPGGA,170126,2423.8750,N,08125.1452,W,1,9,1.9,10,M,,M,,*52
06/05/2014	17:01:26.903	$GPGGA,170127,2423.8745,N,08125.1451,W,1,9,1.9,10,M,,M,,*54
06/05/2014	17:01:27.878	$GPGGA,170128,2423.8741,N,08125.1452,W,1,9,1.9,10,M,,M,,*5C
06/05/2014	17:01:28.914	$GPGGA,170129,2423.8737,N,08125.1451,W,1,9,1.9,10,M,,M,,*5F
06/05/2014	17:01:29.890	$GPGGA,170130,2423.8732,N,08125.1452,W,1,9,1.9,10,M,,M,,*51
06/05/2014	17:01:30.886	$GPGGA,170131,2423.8728,N,08125.1451,W,1,9,1.9,10,M,,M,,*58
06/05/2014	17:01:31.901	$GPGGA,170132,2423.8725,N,08125.1452,W,1,9,1.9,10,M,,M,,*55
06/05/2014	17:01:32.927	$GPGGA,170133,2423.8721,N,08125.1451,W,1,9,1.9,10,M,,M,,*53
06/05/2014	17:01:33.902	$GPGGA,170134,2423.8715,N,08125.1450,W,1,9,1.9,10,M,,M,,*52
06/05/2014	17:01:34.917	$GPGGA,170135,2423.8711,N,08125.1450,W,1,9,1.9,11,M,,M,,*56
06/05/2014	17:01:35.583	$GPGGA,170136,2423.8708,N,08125.1450,W,1,9,1.9,11,M,,M,,*5D
06/05/2014	17:01:36.599	$GPGGA,170137,2423.8703,N,08125.1450,W,1,9,1.9,11,M,,M,,*57
06/05/2014	17:01:37.574	$GPGGA,170138,2423.8700,N,08125.1449,W,1,9,1.9,11,M,,M,,*53
06/05/2014	17:01:38.580	$GPGGA,170139,2423.8696,N,08125.1450,W,1,9,1.9,11,M,,M,,*54
06/05/2014	17:01:39.596	$GPGGA,170140,2423.8691,N,08125.1450,W,1,9,1.9,11,M,,M,,*5D
06/05/2014	17:01:40.612	$GPGGA,170141,2423.8687,N,08125.1449,W,1,9,1.9,11,M,,M,,*53
06/05/2014	17:01:41.577	$GPGGA,170142,2423.8683,N,08125.1449,W,1,9,1.9,11,M,,M,,*54
06/05/2014	17:01:42.613	$GPGGA,170143,2423.8679,N,08125.1450,W,1,9,1.9,11,M,,M,,*58
06/05/2014	17:01:43.599	$GPGGA,170144,2423.8675,N,08125.1449,W,1,9,1.9,11,M,,M,,*5B
06/05/2014	17:01:44.614	$GPGGA,170145,2423.8671,N,08125.1449,W,1,9,1.9,11,M,,M,,*5E
06/05/2014	17:01:45.600	$GPGGA,170146,2423.8667,N,08125.1449,W,1,9,1.9,11,M,,M,,*5A
06/05/2014	17:01:46.626	$GPGGA,170147,2423.8663,N,08125.1449,W,1,9,1.9,11,M,,M,,*5F
06/05/2014	17:01:47.621	$GPGGA,170148,2423.8660,N,08125.1448,W,1,9,1.9,11,M,,M,,*52
06/05/2014	17:01:48.647	$GPGGA,170149,2423.8656,N,08125.1449,W,1,9,1.9,11,M,,M,,*57
06/05/2014	17:01:49.633	$GPGGA,170150,2423.8651,N,08125.1449,W,1,9,1.9,11,M,,M,,*58
06/05/2014	17:01:50.637	$GPGGA,170151,2423.8647,N,08125.1449,W,1,9,1.9,11,M,,M,,*5E
06/05/2014	17:01:51.643	$GPGGA,170152,2423.8643,N,08125.1448,W,1,9,1.9,11,M,,M,,*58
06/05/2014	17:01:52.619	$GPGGA,170153,2423.8639,N,08125.1449,W,1,9,1.9,11,M,,M,,*55
06/05/2014	17:01:53.634	$GPGGA,170154,2423.8635,N,08125.1449,W,1,9,1.9,11,M,,M,,*5E
06/05/2014	17:01:54.660	$GPGGA,170155,2423.8632,N,08125.1448,W,1,9,1.9,11,M,,M,,*59
06/05/2014	17:01:55.646	$GPGGA,170156,2423.8628,N,08125.1449,W,1,9,1.9,11,M,,M,,*50
06/05/2014	17:01:56.641	$GPGGA,170157,2423.8624,N,08125.1449,W,1,9,1.9,11,M,,M,,*5D
06/05/2014	17:01:57.657	$GPGGA,170158,2423.8620,N,08125.1449,W,1,9,1.9,11,M,,M,,*56
06/05/2014	17:01:58.683	$GPGGA,170159,2423.8616,N,08125.1449,W,1,9,1.9,11,M,,M,,*52
06/05/2014	17:01:59.679	$GPGGA,170200,2423.8613,N,08125.1450,W,1,9,1.9,11,M,,M,,*50
06/05/2014	17:02:00.654	$GPGGA,170201,2423.8609,N,08125.1450,W,1,9,1.9,11,M,,M,,*5A
06/05/2014	17:02:01.670	$GPGGA,170202,2423.8604,N,08125.1449,W,1,9,1.9,11,M,,M,,*5C
06/05/2014	17:02:02.776	$GPGGA,170203,2423.8602,N,08125.1449,W,1,9,1.9,11,M,,M,,*5B
06/05/2014	17:02:03.671	$GPGGA,170204,2423.8597,N,08125.1450,W,1,9,1.9,11,M,,M,,*5B
06/05/2014	17:02:04.687	$GPGGA,170205,2423.8593,N,08125.1450,W,1,9,1.9,11,M,,M,,*5E
06/05/2014	17:02:05.693	$GPGGA,170206,2423.8589,N,08125.1452,W,1,9,1.9,11,M,,M,,*54
06/05/2014	17:02:06.809	$GPGGA,170207,2423.8585,N,08125.1450,W,1,9,1.9,12,M,,M,,*58
06/05/2014	17:02:07.703	$GPGGA,170208,2423.8581,N,08125.1450,W,1,9,1.9,12,M,,M,,*53
06/05/2014	17:02:08.699	$GPGGA,170209,2423.8578,N,08125.1452,W,1,9,1.9,12,M,,M,,*56
06/05/2014	17:02:09.704	$GPGGA,170210,2423.8574,N,08125.1452,W,1,9,1.9,12,M,,M,,*52
06/05/2014	17:02:10.710	$GPGGA,170211,2423.8570,N,08125.1452,W,1,9,1.9,12,M,,M,,*57
06/05/2014	17:02:11.716	$GPGGA,170212,2423.8566,N,08125.1451,W,1,9,1.9,12,M,,M,,*50
06/05/2014	17:02:12.802	$GPGGA,170213,2423.8562,N,08125.1452,W,1,9,1.9,12,M,,M,,*56
06/05/2014	17:02:13.798	$GPGGA,170214,2423.8559,N,08125.1453,W,1,9,1.9,12,M,,M,,*58
06/05/2014	17:02:14.703	$GPGGA,170215,2423.8555,N,08125.1452,W,1,9,1.9,12,M,,M,,*54
06/05/2014	17:02:15.829	$GPGGA,170216,2423.8550,N,08125.1451,W,1,9,1.9,12,M,,M,,*51
06/05/2014	17:02:16.724	$GPGGA,170217,2423.8548,N,08125.1452,W,1,9,1.9,12,M,,M,,*5A
06/05/2014	17:02:17.810	$GPGGA,170218,2423.8544,N,08125.1453,W,1,9,1.9,12,M,,M,,*58
06/05/2014	17:02:18.846	$GPGGA,170219,2423.8539,N,08125.1452,W,1,9,1.9,12,M,,M,,*52
06/05/2014	17:02:19.852	$GPGGA,170220,2423.8535,N,08125.1452,W,1,9,1.9,12,M,,M,,*54
06/05/2014	17:02:20.868	$GPGGA,170221,2423.8531,N,08125.1453,W,1,9,1.9,12,M,,M,,*50
06/05/2014	17:02:21.843	$GPGGA,170222,2423.8527,N,08125.1454,W,1,9,1.9,12,M,,M,,*53
06/05/2014	17:02:22.839	$GPGGA,170223,2423.8523,N,08125.1453,W,1,9,1.9,12,M,,M,,*51
06/05/2014	17:02:23.856	$GPGGA,170224,2423.8519,N,08125.1452,W,1,9,1.9,12,M,,M,,*5E
06/05/2014	17:02:24.890	$GPGGA,170225,2423.8515,N,08125.1454,W,1,9,1.9,12,M,,M,,*55
06/05/2014	17:02:25.855	$GPGGA,170226,2423.8512,N,08125.1454,W,1,9,1.9,12,M,,M,,*51
06/05/2014	17:02:26.851	$GPGGA,170227,2423.8508,N,08125.1454,W,1,9,1.9,12,M,,M,,*5B
06/05/2014	17:02:27.876	$GPGGA,170228,2423.8504,N,08125.1453,W,1,9,1.9,12,M,,M,,*5F
06/05/2014	17:02:28.852	$GPGGA,170229,2423.8501,N,08125.1453,W,1,9,1.9,12,M,,M,,*5B
06/05/2014	17:02:29.858	$GPGGA,170230,2423.8497,N,08125.1454,W,1,9,1.9,12,M,,M,,*5A
06/05/2014	17:02:30.884	$GPGGA,170231,2423.8493,N,08125.1454,W,1,9,1.9,12,M,,M,,*5F
06/05/2014	17:02:31.889	$GPGGA,170232,2423.8488,N,08125.1454,W,1,9,1.9,12,M,,M,,*56
06/05/2014	17:02:32.895	$GPGGA,170233,2423.8484,N,08125.1453,W,1,9,1.9,12,M,,M,,*5C
06/05/2014	17:02:33.881	$GPGGA,170234,2423.8481,N,08125.1454,W,1,9,1.9,12,M,,M,,*59
06/05/2014	17:02:34.906	$GPGGA,170235,2423.8477,N,08125.1456,W,1,9,1.9,12,M,,M,,*53
06/05/2014	17:02:35.562	$GPGGA,170236,2423.8473,N,08125.1454,W,1,9,1.9,12,M,,M,,*56
06/05/2014	17:02:36.578	$GPGGA,170237,2423.8468,N,08125.1454,W,1,9,1.9,12,M,,M,,*5D
06/05/2014	17:02:37.553	$GPGGA,170238,2423.8465,N,08125.1454,W,1,9,1.9,12,M,,M,,*5F
06/05/2014	17:02:38.589	$GPGGA,170239,2423.8461,N,08125.1454,W,1,9,1.9,12,M,,M,,*5A
06/05/2014	17:02:39.575	$GPGGA,170240,2423.8456,N,08125.1454,W,1,9,1.9,12,M,,M,,*50
06/05/2014	17:02:40.560	$GPGGA,170241,2423.8451,N,08125.1454,W,1,9,1.9,12,M,,M,,*56
06/05/2014	17:02:41.566	$GPGGA,170242,2423.8447,N,08125.1454,W,1,9,1.9,12,M,,M,,*52
06/05/2014	17:02:42.591	$GPGGA,170243,2423.8443,N,08125.1454,W,1,9,1.9,12,M,,M,,*57
06/05/2014	17:02:43.586	$GPGGA,170244,2423.8439,N,08125.1454,W,1,9,1.9,12,M,,M,,*5D
06/05/2014	17:02:44.592	$GPGGA,170245,2423.8434,N,08125.1453,W,1,9,1.9,12,M,,M,,*56
06/05/2014	17:02:45.578	$GPGGA,170246,2423.8430,N,08125.1454,W,1,9,1.9,12,M,,M,,*56
06/05/2014	17:02:46.583	$GPGGA,170247,2423.8425,N,08125.1456,W,1,9,1.9,12,M,,M,,*51
06/05/2014	17:02:47.609	$GPGGA,170248,2423.8420,N,08125.1454,W,1,9,1.9,12,M,,M,,*59
06/05/2014	17:02:48.625	$GPGGA,170249,2423.8415,N,08125.1453,W,1,9,1.9,12,M,,M,,*59
06/05/2014	17:02:49.611	$GPGGA,170250,2423.8411,N,08125.1454,W,1,9,1.9,12,M,,M,,*52
06/05/2014	17:02:50.626	$GPGGA,170251,2423.8407,N,08125.1456,W,1,9,1.9,12,M,,M,,*56
06/05/2014	17:02:51.632	$GPGGA,170252,2423.8403,N,08125.1454,W,1,9,1.9,12,M,,M,,*53
06/05/2014	17:02:52.648	$GPGGA,170253,2423.8398,N,08125.1453,W,1,9,1.9,12,M,,M,,*50
06/05/2014	17:02:53.613	$GPGGA,170254,2423.8393,N,08125.1453,W,1,9,1.9,12,M,,M,,*5C
06/05/2014	17:02:54.629	$GPGGA,170255,2423.8389,N,08125.1453,W,1,9,1.9,12,M,,M,,*56
06/05/2014	17:02:55.635	$GPGGA,170256,2423.8385,N,08125.1453,W,1,9,1.9,12,M,,M,,*59
06/05/2014	17:02:56.640	$GPGGA,170257,2423.8380,N,08125.1452,W,1,9,1.9,12,M,,M,,*5C
06/05/2014	17:02:57.717	$GPGGA,170258,2423.8375,N,08125.1453,W,1,9,1.9,12,M,,M,,*58
06/05/2014	17:02:58.632	$GPGGA,170259,2423.8371,N,08125.1452,W,1,9,1.9,12,M,,M,,*5C
06/05/2014	17:02:59.667	$GPGGA,170300,2423.8367,N,08125.1451,W,1,9,1.9,12,M,,M,,*55
06/05/2014	17:03:00.662	$GPGGA,170301,2423.8361,N,08125.1452,W,1,9,1.9,12,M,,M,,*51
06/05/2014	17:03:01.758	$GPGGA,170302,2423.8356,N,08125.1451,W,1,9,1.9,12,M,,M,,*55
06/05/2014	17:03:02.664	$GPGGA,170303,2423.8353,N,08125.1452,W,1,9,1.9,12,M,,M,,*52
06/05/2014	17:03:03.649	$GPGGA,170304,2423.8347,N,08125.1451,W,1,9,1.9,12,M,,M,,*53
06/05/2014	17:03:04.665	$GPGGA,170305,2423.8342,N,08125.1450,W,1,9,1.9,12,M,,M,,*56
06/05/2014	17:03:05.761	$GPGGA,170306,2423.8337,N,08125.1450,W,1,9,1.9,12,M,,M,,*57
06/05/2014	17:03:06.681	$GPGGA,170307,2423.8333,N,08125.1450,W,1,9,1.9,12,M,,M,,*52
06/05/2014	17:03:07.682	$GPGGA,170308,2423.8328,N,08125.1449,W,1,9,1.9,12,M,,M,,*5F
06/05/2014	17:03:08.798	$GPGGA,170309,2423.8324,N,08125.1449,W,1,9,1.9,12,M,,M,,*52
06/05/2014	17:03:09.774	$GPGGA,170310,2423.8318,N,08125.1448,W,1,9,1.9,12,M,,M,,*54
06/05/2014	17:03:10.810	$GPGGA,170311,2423.8313,N,08125.1449,W,1,9,1.9,11,M,,M,,*5C
06/05/2014	17:03:11.795	$GPGGA,170312,2423.8308,N,08125.1449,W,1,9,1.9,11,M,,M,,*55
06/05/2014	17:03:12.791	$GPGGA,170313,2423.8303,N,08125.1448,W,1,9,1.9,11,M,,M,,*5E
06/05/2014	17:03:13.787	$GPGGA,170314,2423.8298,N,08125.1447,W,1,9,1.9,11,M,,M,,*55
06/05/2014	17:03:14.792	$GPGGA,170315,2423.8293,N,08125.1449,W,1,9,1.9,11,M,,M,,*51
06/05/2014	17:03:15.808	$GPGGA,170316,2423.8288,N,08125.1447,W,1,9,1.9,11,M,,M,,*56
06/05/2014	17:03:16.794	$GPGGA,170317,2423.8284,N,08125.1447,W,1,9,1.9,11,M,,M,,*5B
06/05/2014	17:03:17.809	$GPGGA,170318,2423.8278,N,08125.1447,W,1,9,1.9,11,M,,M,,*57
06/05/2014	17:03:18.824	$GPGGA,170319,2423.8273,N,08125.1447,W,1,9,1.9,11,M,,M,,*5D
06/05/2014	17:03:19.830	$GPGGA,170320,2423.8268,N,08125.1446,W,1,9,1.9,11,M,,M,,*5C
06/05/2014	17:03:20.806	$GPGGA,170321,2423.8263,N,08125.1446,W,1,9,1.9,11,M,,M,,*56
06/05/2014	17:03:21.821	$GPGGA,170322,2423.8259,N,08125.1446,W,1,9,1.9,11,M,,M,,*5C
06/05/2014	17:03:22.837	$GPGGA,170323,2423.8253,N,08125.1446,W,1,9,1.9,11,M,,M,,*57
06/05/2014	17:03:23.843	$GPGGA,170324,2423.8249,N,08125.1446,W,1,9,1.9,11,M,,M,,*5B
06/05/2014	17:03:24.838	$GPGGA,170325,2423.8244,N,08125.1445,W,1,9,1.9,11,M,,M,,*54
06/05/2014	17:03:25.824	$GPGGA,170326,2423.8238,N,08125.1444,W,1,9,1.9,11,M,,M,,*5D
06/05/2014	17:03:26.840	$GPGGA,170327,2423.8234,N,08125.1445,W,1,9,1.9,11,M,,M,,*51
06/05/2014	17:03:27.855	$GPGGA,170328,2423.8230,N,08125.1444,W,1,9,1.9,11,M,,M,,*5B
06/05/2014	17:03:28.861	$GPGGA,170329,2423.8224,N,08125.1445,W,1,9,1.9,11,M,,M,,*5E
06/05/2014	17:03:29.837	$GPGGA,170330,2423.8219,N,08125.1444,W,1,9,1.9,11,M,,M,,*59
06/05/2014	17:03:30.862	$GPGGA,170331,2423.8214,N,08125.1445,W,1,9,1.9,11,M,,M,,*54
06/05/2014	17:03:31.868	$GPGGA,170332,2423.8209,N,08125.1443,W,1,9,1.9,11,M,,M,,*5D
06/05/2014	17:03:32.874	$GPGGA,170333,2423.8203,N,08125.1443,W,1,9,1.9,11,M,,M,,*56
06/05/2014	17:03:33.869	$GPGGA,170334,2423.8198,N,08125.1442,W,1,9,1.9,11,M,,M,,*51
06/05/2014	17:03:34.894	$GPGGA,170335,2423.8194,N,08125.1442,W,1,9,1.9,11,M,,M,,*5C
06/05/2014	17:03:35.540	$GPGGA,170336,2423.8187,N,08125.1442,W,1,9,1.9,11,M,,M,,*5D
06/05/2014	17:03:36.525	$GPGGA,170337,2423.8183,N,08125.1442,W,1,9,1.9,11,M,,M,,*58
06/05/2014	17:03:37.531	$GPGGA,170338,2423.8177,N,08125.1441,W,1,9,1.9,11,M,,M,,*5F
06/05/2014	17:03:38.547	$GPGGA,170339,2423.8172,N,08125.1441,W,1,9,1.9,11,M,,M,,*5B
06/05/2014	17:03:39.563	$GPGGA,170340,2423.8166,N,08125.1440,W,1,9,1.9,11,M,,M,,*51
06/05/2014	17:03:40.548	$GPGGA,170341,2423.8161,N,08125.1439,W,1,9,1.9,11,M,,M,,*59
06/05/2014	17:03:41.554	$GPGGA,170342,2423.8156,N,08125.1439,W,1,9,1.9,11,M,,M,,*5E
06/05/2014	17:03:42.570	$GPGGA,170343,2423.8150,N,08125.1438,W,1,9,1.9,11,M,,M,,*58
06/05/2014	17:03:43.565	$GPGGA,170344,2423.8145,N,08125.1438,W,1,9,1.9,11,M,,M,,*5B
06/05/2014	17:03:44.562	$GPGGA,170345,2423.8140,N,08125.1438,W,1,9,1.9,11,M,,M,,*5F
06/05/2014	17:03:45.577	$GPGGA,170346,2423.8136,N,08125.1437,W,1,9,1.9,11,M,,M,,*52
06/05/2014	17:03:46.693	$GPGGA,170347,2423.8129,N,08125.1435,W,1,9,1.9,11,M,,M,,*5F
06/05/2014	17:03:47.598	$GPGGA,170348,2423.8125,N,08125.1436,W,1,9,1.9,11,M,,M,,*5F
06/05/2014	17:03:48.694	$GPGGA,170349,2423.8119,N,08125.1436,W,1,9,1.9,11,M,,M,,*51
06/05/2014	17:03:49.583	$GPGGA,170350,2423.8114,N,08125.1434,W,1,9,1.9,11,M,,M,,*56
06/05/2014	17:03:50.605	$GPGGA,170351,2423.8108,N,08125.1433,W,1,9,1.9,11,M,,M,,*5D
06/05/2014	17:03:51.711	$GPGGA,170352,2423.8103,N,08125.1434,W,1,9,1.9,11,M,,M,,*52
06/05/2014	17:03:52.616	$GPGGA,170353,2423.8098,N,08125.1433,W,1,9,1.9,11,M,,M,,*57
06/05/2014	17:03:53.581	$GPGGA,170354,2423.8093,N,08125.1432,W,1,9,1.9,11,M,,M,,*5A
06/05/2014	17:03:54.697	$GPGGA,170355,2423.8087,N,08125.1431,W,1,9,1.9,11,M,,M,,*5D
06/05/2014	17:03:55.743	$GPGGA,170356,2423.8082,N,08125.1431,W,1,9,1.9,11,M,,M,,*5B
06/05/2014	17:03:56.729	$GPGGA,170357,2423.8078,N,08125.1430,W,1,9,1.9,11,M,,M,,*5E
06/05/2014	17:03:57.715	$GPGGA,170358,2423.8071,N,08125.1429,W,1,9,1.9,11,M,,M,,*50
06/05/2014	17:03:58.731	$GPGGA,170359,2423.8066,N,08125.1430,W,1,9,1.9,11,M,,M,,*5F
06/05/2014	17:03:59.736	$GPGGA,170400,2423.8061,N,08125.1428,W,1,9,1.9,11,M,,M,,*5A
06/05/2014	17:04:00.732	$GPGGA,170401,2423.8056,N,08125.1426,W,1,9,1.9,11,M,,M,,*51
06/05/2014	17:04:01.727	$GPGGA,170402,2423.8050,N,08125.1425,W,1,9,1.9,11,M,,M,,*57
06/05/2014	17:04:02.762	$GPGGA,170403,2423.8046,N,08125.1427,W,1,9,1.9,11,M,,M,,*53
06/05/2014	17:04:03.749	$GPGGA,170404,2423.8040,N,08125.1424,W,1,9,1.9,11,M,,M,,*51
06/05/2014	17:04:04.734	$GPGGA,170405,2423.8035,N,08125.1423,W,1,9,1.9,11,M,,M,,*55
06/05/2014	17:04:05.750	$GPGGA,170406,2423.8031,N,08125.1423,W,1,9,1.9,11,M,,M,,*52
06/05/2014	17:04:06.766	$GPGGA,170407,2423.8024,N,08125.1422,W,1,9,1.9,11,M,,M,,*56
06/05/2014	17:04:07.761	$GPGGA,170408,2423.8019,N,08125.1420,W,1,9,1.9,11,M,,M,,*55
06/05/2014	17:04:08.767	$GPGGA,170409,2423.8014,N,08125.1420,W,1,9,1.9,11,M,,M,,*59
06/05/2014	17:04:09.752	$GPGGA,170410,2423.8009,N,08125.1420,W,1,9,1.9,11,M,,M,,*5D
06/05/2014	17:04:10.778	$GPGGA,170411,2423.8003,N,08125.1418,W,1,9,1.9,11,M,,M,,*5D
06/05/2014	17:04:11.773	$GPGGA,170412,2423.7999,N,08125.1417,W,1,9,1.9,11,M,,M,,*54
06/05/2014	17:04:12.779	$GPGGA,170413,2423.7993,N,08125.1417,W,1,9,1.9,11,M,,M,,*5F
06/05/2014	17:04:13.775	$GPGGA,170414,2423.7988,N,08125.1417,W,1,9,1.9,11,M,,M,,*52
06/05/2014	17:04:14.810	$GPGGA,170415,2423.7982,N,08125.1414,W,1,9,1.9,11,M,,M,,*5A
06/05/2014	17:04:15.786	$GPGGA,170416,2423.7977,N,08125.1413,W,1,9,1.9,11,M,,M,,*54
06/05/2014	17:04:16.812	$GPGGA,170417,2423.7972,N,08125.1413,W,1,9,1.9,11,M,,M,,*50
06/05/2014	17:04:17.787	$GPGGA,170418,2423.7967,N,08125.1413,W,1,9,1.9,11,M,,M,,*5B
06/05/2014	17:04:18.813	$GPGGA,170419,2423.7961,N,08125.1411,W,1,9,1.9,11,M,,M,,*5E
06/05/2014	17:04:19.809	$GPGGA,170420,2423.7956,N,08125.1409,W,1,9,1.9,11,M,,M,,*59
06/05/2014	17:04:20.784	$GPGGA,170421,2423.7952,N,08125.1409,W,1,9,1.9,11,M,,M,,*5C
06/05/2014	17:04:21.800	$GPGGA,170422,2423.7946,N,08125.1408,W,1,9,1.9,11,M,,M,,*5B
06/05/2014	17:04:22.806	$GPGGA,170423,2423.7941,N,08125.1407,W,1,9,1.9,11,M,,M,,*52
06/05/2014	17:04:23.821	$GPGGA,170424,2423.7936,N,08125.1405,W,1,9,1.9,12,M,,M,,*54
06/05/2014	17:04:24.847	$GPGGA,170425,2423.7930,N,08125.1403,W,1,9,1.9,12,M,,M,,*55
06/05/2014	17:04:25.823	$GPGGA,170426,2423.7925,N,08125.1403,W,1,9,1.9,12,M,,M,,*52
06/05/2014	17:04:26.829	$GPGGA,170427,2423.7920,N,08125.1402,W,1,9,1.9,12,M,,M,,*57
06/05/2014	17:04:27.834	$GPGGA,170428,2423.7915,N,08125.1400,W,1,9,1.9,12,M,,M,,*5C
06/05/2014	17:04:28.819	$GPGGA,170429,2423.7910,N,08125.1398,W,1,9,1.9,12,M,,M,,*5E
06/05/2014	17:04:29.835	$GPGGA,170430,2423.7906,N,08125.1397,W,1,9,1.9,12,M,,M,,*5E
06/05/2014	17:04:30.860	$GPGGA,170431,2423.7901,N,08125.1396,W,1,9,1.9,12,M,,M,,*59
06/05/2014	17:04:31.866	$GPGGA,170432,2423.7896,N,08125.1395,W,1,9,1.9,12,M,,M,,*56
06/05/2014	17:04:32.832	$GPGGA,170433,2423.7891,N,08125.1393,W,1,8,1.9,12,M,,M,,*57
06/05/2014	17:04:33.938	$GPGGA,170434,2423.7887,N,08125.1392,W,1,8,1.9,12,M,,M,,*56
06/05/2014	17:04:34.843	$GPGGA,170435,2423.7883,N,08125.1390,W,1,9,1.9,12,M,,M,,*50
06/05/2014	17:04:35.539	$GPGGA,170436,2423.7877,N,08125.1389,W,1,9,1.9,12,M,,M,,*50
06/05/2014	17:04:36.635	$GPGGA,170437,2423.7872,N,08125.1388,W,1,9,1.9,12,M,,M,,*55
06/05/2014	17:04:37.540	$GPGGA,170438,2423.7867,N,08125.1386,W,1,9,1.9,12,M,,M,,*50
06/05/2014	17:04:38.546	$GPGGA,170439,2423.7862,N,08125.1384,W,1,9,1.9,12,M,,M,,*56
06/05/2014	17:04:39.562	$GPGGA,170440,2423.7858,N,08125.1383,W,1,9,1.9,12,M,,M,,*56
06/05/2014	17:04:40.529	$GPGGA,170441,2423.7854,N,08125.1381,W,1,9,1.9,12,M,,M,,*59
06/05/2014	17:04:41.533	$GPGGA,170442,2423.7847,N,08125.1380,W,1,9,1.9,12,M,,M,,*59
06/05/2014	17:04:42.569	$GPGGA,170443,2423.7843,N,08125.1378,W,1,9,1.9,12,M,,M,,*5B
06/05/2014	17:04:43.564	$GPGGA,170444,2423.7838,N,08125.1376,W,1,9,1.9,12,M,,M,,*5E
06/05/2014	17:04:44.559	$GPGGA,170445,2423.7833,N,08125.1375,W,1,9,1.9,12,M,,M,,*57
06/05/2014	17:04:45.645	$GPGGA,170446,2423.7829,N,08125.1373,W,1,9,1.9,12,M,,M,,*59
06/05/2014	17:04:46.681	$GPGGA,170447,2423.7824,N,08125.1372,W,1,9,1.9,12,M,,M,,*54
06/05/2014	17:04:47.667	$GPGGA,170448,2423.7819,N,08125.1370,W,1,9,1.9,12,M,,M,,*57
06/05/2014	17:04:48.692	$GPGGA,170449,2423.7814,N,08125.1368,W,1,9,1.9,12,M,,M,,*52
06/05/2014	17:04:49.668	$GPGGA,170450,2423.7809,N,08125.1366,W,1,9,1.9,12,M,,M,,*58
06/05/2014	17:04:50.664	$GPGGA,170451,2423.7804,N,08125.1364,W,1,9,1.9,12,M,,M,,*56
06/05/2014	17:04:51.689	$GPGGA,170452,2423.7798,N,08125.1362,W,1,9,1.9,12,M,,M,,*59
06/05/2014	17:04:52.664	$GPGGA,170453,2423.7793,N,08125.1361,W,1,9,1.9,12,M,,M,,*50
06/05/2014	17:04:53.668	$GPGGA,170454,2423.7789,N,08125.1358,W,1,9,1.9,12,M,,M,,*56
06/05/2014	17:04:54.682	$GPGGA,170455,2423.7783,N,08125.1356,W,1,9,1.9,12,M,,M,,*53
06/05/2014	17:04:55.685	$GPGGA,170456,2423.7778,N,08125.1354,W,1,9,1.9,12,M,,M,,*56
06/05/2014	17:04:56.709	$GPGGA,170457,2423.7773,N,08125.1353,W,1,9,1.9,12,M,,M,,*5B
06/05/2014	17:04:57.684	$GPGGA,170458,2423.7768,N,08125.1351,W,1,9,1.9,12,M,,M,,*5C
06/05/2014	17:04:58.676	$GPGGA,170459,2423.7764,N,08125.1348,W,1,9,1.9,12,M,,M,,*59
06/05/2014	17:04:59.700	$GPGGA,170500,2423.7758,N,08125.1346,W,1,9,1.9,12,M,,M,,*55
06/05/2014	17:05:00.705	$GPGGA,170501,2423.7753,N,08125.1345,W,1,9,1.9,12,M,,M,,*5C
06/05/2014	17:05:01.687	$GPGGA,170502,2423.7748,N,08125.1342,W,1,9,1.9,12,M,,M,,*52
06/05/2014	17:05:02.710	$GPGGA,170503,2423.7743,N,08125.1339,W,1,9,1.9,12,M,,M,,*54
06/05/2014	17:05:03.694	$GPGGA,170504,2423.7737,N,08125.1337,W,1,9,1.9,12,M,,M,,*5E
06/05/2014	17:05:04.677	$GPGGA,170505,2423.7732,N,08125.1335,W,1,9,1.9,12,M,,M,,*58
06/05/2014	17:05:05.691	$GPGGA,170506,2423.7728,N,08125.1332,W,1,9,1.9,12,M,,M,,*57
06/05/2014	17:05:06.715	$GPGGA,170507,2423.7722,N,08125.1331,W,1,9,1.9,12,M,,M,,*5F
06/05/2014	17:05:07.709	$GPGGA,170508,2423.7717,N,08125.1329,W,1,9,1.9,12,M,,M,,*5F
06/05/2014	17:05:08.692	$GPGGA,170509,2423.7711,N,08125.1325,W,1,9,1.9,12,M,,M,,*54
06/05/2014	17:05:09.707	$GPGGA,170510,2423.7706,N,08125.1323,W,1,9,1.9,12,M,,M,,*5C
06/05/2014	17:05:10.720	$GPGGA,170511,2423.7700,N,08125.1322,W,1,9,1.9,12,M,,M,,*5A
06/05/2014	17:05:11.713	$GPGGA,170512,2423.7695,N,08125.1319,W,1,9,1.9,12,M,,M,,*5C
06/05/2014	17:05:12.727	$GPGGA,170513,2423.7689,N,08125.1315,W,1,9,1.9,12,M,,M,,*5C
06/05/2014	17:05:13.711	$GPGGA,170514,2423.7684,N,08125.1314,W,1,9,1.9,12,M,,M,,*57
06/05/2014	17:05:14.714	$GPGGA,170515,2423.7679,N,08125.1313,W,1,9,1.9,12,M,,M,,*53
06/05/2014	17:05:15.718	$GPGGA,170516,2423.7673,N,08125.1309,W,1,9,1.9,12,M,,M,,*51
06/05/2014	17:05:16.702	$GPGGA,170517,2423.7668,N,08125.1306,W,1,9,1.9,12,M,,M,,*55
06/05/2014	17:05:17.715	$GPGGA,170518,2423.7663,N,08125.1306,W,1,9,1.9,12,M,,M,,*51
06/05/2014	17:05:18.749	$GPGGA,170519,2423.7657,N,08125.1304,W,1,9,1.9,12,M,,M,,*55
06/05/2014	17:05:19.722	$GPGGA,170520,2423.7652,N,08125.1301,W,1,9,1.9,12,M,,M,,*5F
06/05/2014	17:05:20.726	$GPGGA,170521,2423.7646,N,08125.1298,W,1,9,1.9,12,M,,M,,*5A
06/05/2014	17:05:21.719	$GPGGA,170522,2423.7641,N,08125.1297,W,1,9,1.9,12,M,,M,,*51
06/05/2014	17:05:22.743	$GPGGA,170523,2423.7635,N,08125.1296,W,1,9,1.9,12,M,,M,,*52
06/05/2014	17:05:23.747	$GPGGA,170524,2423.7630,N,08125.1294,W,1,9,1.9,12,M,,M,,*52
06/05/2014	17:05:24.811	$GPGGA,170525,2423.7624,N,08125.1291,W,1,9,1.9,12,M,,M,,*53
06/05/2014	17:05:25.724	$GPGGA,170526,2423.7618,N,08125.1289,W,1,9,1.9,12,M,,M,,*56
06/05/2014	17:05:26.738	$GPGGA,170527,2423.7613,N,08125.1288,W,1,9,1.9,12,M,,M,,*5D
06/05/2014	17:05:27.731	$GPGGA,170528,2423.7607,N,08125.1287,W,1,9,1.9,12,M,,M,,*58
06/05/2014	17:05:28.745	$GPGGA,170529,2423.7602,N,08125.1284,W,1,9,1.9,12,M,,M,,*5F
06/05/2014	17:05:29.729	$GPGGA,170530,2423.7596,N,08125.1282,W,1,9,1.9,12,M,,M,,*5F
06/05/2014	17:05:30.752	$GPGGA,170531,2423.7590,N,08125.1281,W,1,9,1.9,12,M,,M,,*5B
06/05/2014	17:05:31.847	$GPGGA,170532,2423.7585,N,08125.1279,W,1,9,1.9,12,M,,M,,*5B
06/05/2014	17:05:32.760	$GPGGA,170533,2423.7580,N,08125.1278,W,1,9,1.9,12,M,,M,,*5E
06/05/2014	17:05:33.733	$GPGGA,170534,2423.7574,N,08125.1275,W,1,9,1.9,12,M,,M,,*5F
06/05/2014	17:05:34.628	$GPGGA,170535,2423.7569,N,08125.1272,W,1,9,1.9,12,M,,M,,*55
06/05/2014	17:05:35.506	$GPGGA,170536,2423.7563,N,08125.1271,W,1,9,1.9,12,M,,M,,*5F
06/05/2014	17:05:36.489	$GPGGA,170537,2423.7558,N,08125.1270,W,1,9,1.9,12,M,,M,,*57
06/05/2014	17:05:37.593	$GPGGA,170538,2423.7551,N,08125.1267,W,1,9,1.9,12,M,,M,,*57
06/05/2014	17:05:38.496	$GPGGA,170539,2423.7547,N,08125.1266,W,1,9,1.9,12,M,,M,,*50
06/05/2014	17:05:39.600	$GPGGA,170540,2423.7540,N,08125.1265,W,1,9,1.9,12,M,,M,,*5A
06/05/2014	17:05:40.624	$GPGGA,170541,2423.7534,N,08125.1262,W,1,9,1.9,12,M,,M,,*5F
06/05/2014	17:05:41.597	$GPGGA,170542,2423.7529,N,08125.1260,W,1,9,1.9,12,M,,M,,*52
06/05/2014	17:05:42.631	$GPGGA,170543,2423.7524,N,08125.1259,W,1,9,1.9,12,M,,M,,*54
06/05/2014	17:05:43.615	$GPGGA,170544,2423.7519,N,08125.1258,W,1,9,1.9,12,M,,M,,*5C
06/05/2014	17:05:44.628	$GPGGA,170545,2423.7513,N,08125.1255,W,1,9,1.9,12,M,,M,,*5A
06/05/2014	17:05:45.602	$GPGGA,170546,2423.7507,N,08125.1253,W,1,9,1.9,12,M,,M,,*5A
06/05/2014	17:05:46.626	$GPGGA,170547,2423.7502,N,08125.1252,W,1,9,1.9,12,M,,M,,*5F
06/05/2014	17:05:47.619	$GPGGA,170548,2423.7496,N,08125.1251,W,1,9,1.9,12,M,,M,,*5F
06/05/2014	17:05:48.603	$GPGGA,170549,2423.7491,N,08125.1248,W,1,9,1.9,12,M,,M,,*51
06/05/2014	17:05:49.607	$GPGGA,170550,2423.7486,N,08125.1246,W,1,9,1.9,12,M,,M,,*51
06/05/2014	17:05:50.631	$GPGGA,170551,2423.7480,N,08125.1245,W,1,9,1.9,12,M,,M,,*55
06/05/2014	17:05:51.625	$GPGGA,170552,2423.7475,N,08125.1246,W,1,9,1.9,12,M,,M,,*5F
06/05/2014	17:05:52.608	$GPGGA,170553,2423.7468,N,08125.1242,W,1,9,1.9,12,M,,M,,*56
06/05/2014	17:05:53.613	$GPGGA,170554,2423.7464,N,08125.1240,W,1,9,1.9,12,M,,M,,*5F
06/05/2014	17:05:54.614	$GPGGA,170555,2423.7457,N,08125.1239,W,1,9,1.9,12,M,,M,,*50
06/05/2014	17:05:55.628	$GPGGA,170556,2423.7453,N,08125.1239,W,1,9,1.9,12,M,,M,,*57
06/05/2014	17:05:56.652	$GPGGA,170557,2423.7446,N,08125.1236,W,1,9,1.9,12,M,,M,,*5D
06/05/2014	17:05:57.625	$GPGGA,170558,2423.7441,N,08125.1233,W,1,9,1.9,12,M,,M,,*50
06/05/2014	17:05:58.619	$GPGGA,170559,2423.7435,N,08125.1233,W,1,9,1.9,12,M,,M,,*52
06/05/2014	17:05:59.663	$GPGGA,170600,2423.7430,N,08125.1232,W,1,9,1.9,12,M,,M,,*59
06/05/2014	17:06:00.667	$GPGGA,170601,2423.7424,N,08125.1230,W,1,9,1.9,12,M,,M,,*5F
06/05/2014	17:06:01.620	$GPGGA,170602,2423.7419,N,08125.1228,W,1,9,1.9,12,M,,M,,*5B
06/05/2014	17:06:02.624	$GPGGA,170603,2423.7413,N,08125.1227,W,1,9,1.9,12,M,,M,,*5F
06/05/2014	17:06:03.658	$GPGGA,170604,2423.7408,N,08125.1226,W,1,9,1.9,12,M,,M,,*53
06/05/2014	17:06:04.631	$GPGGA,170605,2423.7402,N,08125.1225,W,1,9,1.9,12,M,,M,,*5B
06/05/2014	17:06:05.635	$GPGGA,170606,2423.7397,N,08125.1223,W,1,9,1.9,12,M,,M,,*55
06/05/2014	17:06:06.629	$GPGGA,170607,2423.7392,N,08125.1221,W,1,9,1.9,12,M,,M,,*53
06/05/2014	17:06:07.662	$GPGGA,170608,2423.7386,N,08125.1220,W,1,9,1.9,12,M,,M,,*58
06/05/2014	17:06:08.656	$GPGGA,170609,2423.7381,N,08125.1219,W,1,9,1.9,12,M,,M,,*54
06/05/2014	17:06:09.760	$GPGGA,170610,2423.7374,N,08125.1218,W,1,9,1.9,12,M,,M,,*57
06/05/2014	17:06:10.643	$GPGGA,170611,2423.7368,N,08125.1217,W,1,9,1.9,12,M,,M,,*54
06/05/2014	17:06:11.778	$GPGGA,170612,2423.7363,N,08125.1215,W,1,9,1.9,12,M,,M,,*5E
06/05/2014	17:06:12.770	$GPGGA,170613,2423.7357,N,08125.1213,W,1,9,1.9,12,M,,M,,*5E
06/05/2014	17:06:13.663	$GPGGA,170614,2423.7352,N,08125.1214,W,1,9,1.9,12,M,,M,,*5B
06/05/2014	17:06:14.667	$GPGGA,170615,2423.7345,N,08125.1212,W,1,9,1.9,12,M,,M,,*5A
06/05/2014	17:06:15.671	$GPGGA,170616,2423.7339,N,08125.1209,W,1,9,1.9,12,M,,M,,*58
06/05/2014	17:06:16.655	$GPGGA,170617,2423.7334,N,08125.1208,W,1,9,1.9,12,M,,M,,*55
06/05/2014	17:06:17.769	$GPGGA,170618,2423.7329,N,08125.1208,W,1,9,1.9,12,M,,M,,*56
06/05/2014	17:06:18.653	$GPGGA,170619,2423.7323,N,08125.1206,W,1,9,1.9,12,M,,M,,*53
06/05/2014	17:06:19.786	$GPGGA,170620,2423.7317,N,08125.1204,W,1,9,1.9,12,M,,M,,*5C
06/05/2014	17:06:20.689	$GPGGA,170621,2423.7312,N,08125.1203,W,1,9,1.9,12,M,,M,,*5F
06/05/2014	17:06:21.664	$GPGGA,170622,2423.7307,N,08125.1202,W,1,9,1.9,12,M,,M,,*59
06/05/2014	17:06:22.668	$GPGGA,170623,2423.7301,N,08125.1200,W,1,9,1.9,12,M,,M,,*5C
06/05/2014	17:06:23.670	$GPGGA,170624,2423.7296,N,08125.1199,W,1,9,1.9,12,M,,M,,*57
06/05/2014	17:06:24.677	$GPGGA,170625,2423.7291,N,08125.1197,W,1,9,1.9,12,M,,M,,*5F
06/05/2014	17:06:25.768	$GPGGA,170626,2423.7285,N,08125.1195,W,1,9,1.9,12,M,,M,,*5B
06/05/2014	17:06:26.682	$GPGGA,170627,2423.7280,N,08125.1194,W,1,9,1.9,12,M,,M,,*5E
06/05/2014	17:06:27.806	$GPGGA,170628,2423.7274,N,08125.1192,W,1,9,1.9,12,M,,M,,*5C
06/05/2014	17:06:28.769	$GPGGA,170629,2423.7269,N,08125.1190,W,1,9,1.9,12,M,,M,,*53
06/05/2014	17:06:29.782	$GPGGA,170630,2423.7263,N,08125.1189,W,1,9,1.9,12,M,,M,,*59
06/05/2014	17:06:30.806	$GPGGA,170631,2423.7258,N,08125.1188,W,1,9,1.9,12,M,,M,,*51
06/05/2014	17:06:31.789	$GPGGA,170632,2423.7252,N,08125.1186,W,1,9,1.9,12,M,,M,,*56
06/05/2014	17:06:32.783	$GPGGA,170633,2423.7247,N,08125.1184,W,1,9,1.9,12,M,,M,,*51
06/05/2014	17:06:33.787	$GPGGA,170634,2423.7241,N,08125.1185,W,1,9,1.9,12,M,,M,,*51
06/05/2014	17:06:34.820	$GPGGA,170635,2423.7236,N,08125.1184,W,1,9,1.9,12,M,,M,,*51
06/05/2014	17:06:35.574	$GPGGA,170636,2423.7230,N,08125.1182,W,1,9,1.9,12,M,,M,,*52
06/05/2014	17:06:36.578	$GPGGA,170637,2423.7224,N,08125.1179,W,1,9,1.9,12,M,,M,,*52
06/05/2014	17:06:37.571	$GPGGA,170638,2423.7218,N,08125.1177,W,1,9,1.9,12,M,,M,,*5C
06/05/2014	17:06:38.595	$GPGGA,170639,2423.7213,N,08125.1178,W,1,9,1.9,12,M,,M,,*59
06/05/2014	17:06:39.579	$GPGGA,170640,2423.7207,N,08125.1175,W,1,9,1.9,12,M,,M,,*5F
06/05/2014	17:06:40.593	$GPGGA,170641,2423.7201,N,08125.1172,W,1,9,1.6,12,M,,M,,*50
06/05/2014	17:06:41.576	$GPGGA,170642,2423.7195,N,08125.1170,W,1,9,1.6,12,M,,M,,*5F
06/05/2014	17:06:42.580	$GPGGA,170643,2423.7190,N,08125.1171,W,1,9,1.6,12,M,,M,,*5A
06/05/2014	17:06:43.594	$GPGGA,170644,2423.7184,N,08125.1169,W,1,9,1.6,12,M,,M,,*51
06/05/2014	17:06:44.597	$GPGGA,170645,2423.7179,N,08125.1166,W,1,9,1.6,12,M,,M,,*5D
06/05/2014	17:06:45.591	$GPGGA,170646,2423.7173,N,08125.1164,W,1,9,1.6,12,M,,M,,*56
06/05/2014	17:06:46.585	$GPGGA,170647,2423.7168,N,08125.1167,W,1,10,1.6,12,M,,M,,*66
06/05/2014	17:06:47.607	$GPGGA,170648,2423.7162,N,08125.1164,W,1,10,1.6,12,M,,M,,*60
06/05/2014	17:06:48.621	$GPGGA,170649,2423.7157,N,08125.1160,W,1,10,1.6,12,M,,M,,*63
06/05/2014	17:06:49.595	$GPGGA,170650,2423.7151,N,08125.1159,W,1,10,1.6,12,M,,M,,*67
06/05/2014	17:06:50.609	$GPGGA,170651,2423.7146,N,08125.1160,W,1,10,1.6,12,M,,M,,*6A
06/05/2014	17:06:51.612	$GPGGA,170652,2423.7140,N,08125.1157,W,1,10,1.6,12,M,,M,,*6B
06/05/2014	17:06:52.596	$GPGGA,170653,2423.7135,N,08125.1155,W,1,10,1.6,13,M,,M,,*6B
06/05/2014	17:06:53.600	$GPGGA,170654,2423.7129,N,08125.1154,W,1,10,1.6,13,M,,M,,*60
06/05/2014	17:06:54.633	$GPGGA,170655,2423.7123,N,08125.1152,W,1,10,1.6,13,M,,M,,*6D
06/05/2014	17:06:55.627	$GPGGA,170656,2423.7118,N,08125.1150,W,1,10,1.6,13,M,,M,,*64
06/05/2014	17:06:56.641	$GPGGA,170657,2423.7112,N,08125.1150,W,1,10,1.6,13,M,,M,,*6F
06/05/2014	17:06:57.614	$GPGGA,170658,2423.7107,N,08125.1149,W,1,10,1.6,13,M,,M,,*6C
06/05/2014	17:06:58.607	$GPGGA,170659,2423.7101,N,08125.1146,W,1,10,1.6,13,M,,M,,*64
06/05/2014	17:06:59.631	$GPGGA,170700,2423.7096,N,08125.1145,W,1,10,1.6,13,M,,M,,*65
06/05/2014	17:07:00.634	$GPGGA,170701,2423.7090,N,08125.1145,W,1,10,1.6,13,M,,M,,*62
06/05/2014	17:07:01.607	$GPGGA,170702,2423.7085,N,08125.1143,W,1,10,1.6,13,M,,M,,*63
06/05/2014	17:07:02.631	$GPGGA,170703,2423.7079,N,08125.1141,W,1,10,1.6,13,M,,M,,*63
06/05/2014	17:07:03.624	$GPGGA,170704,2423.7074,N,08125.1140,W,1,10,1.6,13,M,,M,,*68
06/05/2014	17:07:04.607	$GPGGA,170705,2423.7070,N,08125.1138,W,1,10,1.6,13,M,,M,,*62
06/05/2014	17:07:05.781	$GPGGA,170706,2423.7064,N,08125.1137,W,1,10,1.6,13,M,,M,,*6B
06/05/2014	17:07:06.623	$GPGGA,170707,2423.7058,N,08125.1136,W,1,10,1.6,13,M,,M,,*64
06/05/2014	17:07:07.637	$GPGGA,170708,2423.7053,N,08125.1134,W,1,10,1.6,13,M,,M,,*62
06/05/2014	17:07:08.771	$GPGGA,170709,2423.7048,N,08125.1133,W,1,10,1.6,13,M,,M,,*6E
06/05/2014	17:07:09.622	$GPGGA,170710,2423.7042,N,08125.1132,W,1,10,1.6,13,M,,M,,*6D
06/05/2014	17:07:10.798	$GPGGA,170711,2423.7038,N,08125.1130,W,1,10,1.6,13,M,,M,,*63
06/05/2014	17:07:11.650	$GPGGA,170712,2423.7031,N,08125.1129,W,1,10,1.6,13,M,,M,,*61
06/05/2014	17:07:12.734	$GPGGA,170713,2423.7027,N,08125.1128,W,1,10,1.6,13,M,,M,,*66
06/05/2014	17:07:13.761	$GPGGA,170714,2423.7020,N,08125.1126,W,1,10,1.6,13,M,,M,,*68
06/05/2014	17:07:14.818	$GPGGA,170715,2423.7016,N,08125.1124,W,1,10,1.6,13,M,,M,,*6E
06/05/2014	17:07:15.814	$GPGGA,170716,2423.7009,N,08125.1124,W,1,10,1.6,13,M,,M,,*63
06/05/2014	17:07:16.742	$GPGGA,170717,2423.7005,N,08125.1122,W,1,10,1.6,13,M,,M,,*68
06/05/2014	17:07:17.765	$GPGGA,170718,2423.6998,N,08125.1119,W,1,10,1.6,13,M,,M,,*63
06/05/2014	17:07:18.915	$GPGGA,170719,2423.6993,N,08125.1120,W,1,10,1.6,13,M,,M,,*63
06/05/2014	17:07:19.993	$GPGGA,170720,2423.6987,N,08125.1117,W,1,10,1.6,13,M,,M,,*68
06/05/2014	17:07:20.927	$GPGGA,170721,2423.6981,N,08125.1115,W,1,10,1.6,13,M,,M,,*6D
06/05/2014	17:07:21.954	$GPGGA,170722,2423.6976,N,08125.1114,W,1,10,1.6,13,M,,M,,*67
06/05/2014	17:07:23.041	$GPGGA,170723,2423.6970,N,08125.1113,W,1,10,1.6,13,M,,M,,*67
06/05/2014	17:07:24.016	$GPGGA,170724,2423.6965,N,08125.1111,W,1,10,1.6,13,M,,M,,*66
06/05/2014	17:07:25.074	$GPGGA,170725,2423.6959,N,08125.1109,W,1,10,1.6,13,M,,M,,*61
06/05/2014	17:07:26.121	$GPGGA,170726,2423.6953,N,08125.1108,W,1,10,1.6,13,M,,M,,*69
06/05/2014	17:07:27.086	$GPGGA,170727,2423.6948,N,08125.1107,W,1,10,1.6,13,M,,M,,*6D
06/05/2014	17:07:28.185	$GPGGA,170728,2423.6944,N,08125.1105,W,1,10,1.6,13,M,,M,,*6C
06/05/2014	17:07:29.191	$GPGGA,170729,2423.6937,N,08125.1104,W,1,10,1.6,13,M,,M,,*68
06/05/2014	17:07:30.228	$GPGGA,170730,2423.6933,N,08125.1103,W,1,10,1.6,13,M,,M,,*63
06/05/2014	17:07:31.172	$GPGGA,170731,2423.6926,N,08125.1101,W,1,10,1.6,13,M,,M,,*64
06/05/2014	17:07:32.302	$GPGGA,170732,2423.6922,N,08125.1099,W,1,10,1.6,13,M,,M,,*63
06/05/2014	17:07:33.267	$GPGGA,170733,2423.6916,N,08125.1099,W,1,10,1.6,13,M,,M,,*65
06/05/2014	17:07:34.324	$GPGGA,170734,2423.6911,N,08125.1098,W,1,10,1.6,13,M,,M,,*64
06/05/2014	17:07:35.269	$GPGGA,170735,2423.6905,N,08125.1096,W,1,10,1.5,13,M,,M,,*6D
06/05/2014	17:07:35.657	$GPGGA,170736,2423.6899,N,08125.1095,W,1,10,1.5,13,M,,M,,*69
06/05/2014	17:07:36.653	$GPGGA,170737,2423.6894,N,08125.1093,W,1,10,1.5,13,M,,M,,*63
06/05/2014	17:07:37.669	$GPGGA,170738,2423.6888,N,08125.1091,W,1,10,1.6,13,M,,M,,*60
06/05/2014	17:07:38.686	$GPGGA,170739,2423.6884,N,08125.1090,W,1,9,1.5,13,M,,M,,*57
06/05/2014	17:07:39.742	$GPGGA,170740,2423.6879,N,08125.1088,W,1,9,1.5,13,M,,M,,*52
06/05/2014	17:07:40.738	$GPGGA,170741,2423.6873,N,08125.1086,W,1,10,1.5,13,M,,M,,*6F
06/05/2014	17:07:41.785	$GPGGA,170742,2423.6868,N,08125.1085,W,1,10,1.5,13,M,,M,,*65
06/05/2014	17:07:42.832	$GPGGA,170743,2423.6863,N,08125.1083,W,1,10,1.5,13,M,,M,,*69
06/05/2014	17:07:43.839	$GPGGA,170744,2423.6857,N,08125.1082,W,1,10,1.5,13,M,,M,,*68
06/05/2014	17:07:44.845	$GPGGA,170745,2423.6852,N,08125.1082,W,1,10,1.5,13,M,,M,,*6C
06/05/2014	17:07:45.892	$GPGGA,170746,2423.6848,N,08125.1080,W,1,10,1.5,13,M,,M,,*66
06/05/2014	17:07:46.867	$GPGGA,170747,2423.6842,N,08125.1078,W,1,10,1.5,13,M,,M,,*6A
06/05/2014	17:07:47.945	$GPGGA,170748,2423.6837,N,08125.1076,W,1,10,1.5,13,M,,M,,*69
06/05/2014	17:07:48.931	$GPGGA,170749,2423.6832,N,08125.1075,W,1,10,1.5,13,M,,M,,*6E
06/05/2014	17:07:49.968	$GPGGA,170750,2423.6828,N,08125.1074,W,1,10,1.5,13,M,,M,,*6C
06/05/2014	17:07:50.984	$GPGGA,170751,2423.6822,N,08125.1073,W,1,10,1.5,13,M,,M,,*60
06/05/2014	17:07:51.970	$GPGGA,170752,2423.6817,N,08125.1071,W,1,10,1.5,13,M,,M,,*67
06/05/2014	17:07:53.110	$GPGGA,170753,2423.6812,N,08125.1069,W,1,10,1.5,13,M,,M,,*6A
06/05/2014	17:07:54.013	$GPGGA,170754,2423.6807,N,08125.1068,W,1,10,1.5,13,M,,M,,*68
06/05/2014	17:07:55.071	$GPGGA,170755,2423.6803,N,08125.1067,W,1,10,1.5,13,M,,M,,*62
06/05/2014	17:07:56.077	$GPGGA,170756,2423.6797,N,08125.1066,W,1,10,1.5,13,M,,M,,*62
06/05/2014	17:07:57.087	$GPGGA,170757,2423.6792,N,08125.1064,W,1,10,1.5,13,M,,M,,*64
06/05/2014	17:07:58.181	$GPGGA,170758,2423.6786,N,08125.1063,W,1,10,1.5,13,M,,M,,*69
06/05/2014	17:07:59.135	$GPGGA,170759,2423.6782,N,08125.1062,W,1,10,1.5,13,M,,M,,*6D
06/05/2014	17:08:00.306	$GPGGA,170800,2423.6777,N,08125.1061,W,1,10,1.5,13,M,,M,,*67
06/05/2014	17:08:01.230	$GPGGA,170801,2423.6772,N,08125.1059,W,1,10,1.5,13,M,,M,,*68
06/05/2014	17:08:02.206	$GPGGA,170802,2423.6767,N,08125.1058,W,1,10,1.5,13,M,,M,,*6E
06/05/2014	17:08:03.233	$GPGGA,170803,2423.6763,N,08125.1057,W,1,10,1.5,13,M,,M,,*64
06/05/2014	17:08:04.269	$GPGGA,170804,2423.6758,N,08125.1056,W,1,10,1.5,13,M,,M,,*6A
06/05/2014	17:08:05.419	$GPGGA,170805,2423.6752,N,08125.1054,W,1,10,1.5,13,M,,M,,*63
06/05/2014	17:08:06.415	$GPGGA,170806,2423.6747,N,08125.1053,W,1,10,1.5,13,M,,M,,*63
06/05/2014	17:08:07.482	$GPGGA,170807,2423.6742,N,08125.1053,W,1,10,1.5,13,M,,M,,*67
06/05/2014	17:08:08.478	$GPGGA,170808,2423.6738,N,08125.1050,W,1,10,1.5,13,M,,M,,*66
06/05/2014	17:08:09.505	$GPGGA,170809,2423.6732,N,08125.1049,W,1,10,1.5,13,M,,M,,*65
06/05/2014	17:08:10.525	$GPGGA,170810,2423.6727,N,08125.1049,W,1,10,1.5,13,M,,M,,*69
06/05/2014	17:08:11.538	$GPGGA,170811,2423.6722,N,08125.1048,W,1,10,1.5,13,M,,M,,*6C
06/05/2014	17:08:12.585	$GPGGA,170812,2423.6717,N,08125.1047,W,1,10,1.5,13,M,,M,,*66
06/05/2014	17:08:13.622	$GPGGA,170813,2423.6712,N,08125.1046,W,1,10,1.5,13,M,,M,,*63
06/05/2014	17:08:14.609	$GPGGA,170814,2423.6707,N,08125.1044,W,1,10,1.5,13,M,,M,,*62
06/05/2014	17:08:15.654	$GPGGA,170815,2423.6702,N,08125.1043,W,1,10,1.5,13,M,,M,,*61
06/05/2014	17:08:16.701	$GPGGA,170816,2423.6698,N,08125.1044,W,1,10,1.5,13,M,,M,,*67
06/05/2014	17:08:17.697	$GPGGA,170817,2423.6691,N,08125.1042,W,1,10,1.5,13,M,,M,,*69
06/05/2014	17:08:18.703	$GPGGA,170818,2423.6686,N,08125.1040,W,1,10,1.5,13,M,,M,,*62
06/05/2014	17:08:19.761	$GPGGA,170819,2423.6681,N,08125.1039,W,1,10,1.5,13,M,,M,,*6A
06/05/2014	17:08:20.767	$GPGGA,170820,2423.6676,N,08125.1040,W,1,10,1.5,13,M,,M,,*66
06/05/2014	17:08:21.804	$GPGGA,170821,2423.6671,N,08125.1038,W,1,10,1.5,13,M,,M,,*6F
06/05/2014	17:08:22.810	$GPGGA,170822,2423.6666,N,08125.1036,W,1,10,1.5,13,M,,M,,*64
06/05/2014	17:08:23.868	$GPGGA,170823,2423.6662,N,08125.1035,W,1,10,1.5,13,M,,M,,*62
06/05/2014	17:08:24.874	$GPGGA,170824,2423.6662,N,08125.1035,W,1,10,1.5,13,M,,M,,*65
06/05/2014	17:08:25.890	$GPGGA,170825,2423.6651,N,08125.1034,W,1,10,1.5,13,M,,M,,*65
06/05/2014	17:08:26.917	$GPGGA,170826,2423.6645,N,08125.1032,W,1,10,1.5,13,M,,M,,*65
06/05/2014	17:08:27.933	$GPGGA,170827,2423.6640,N,08125.1031,W,1,10,1.5,13,M,,M,,*62
06/05/2014	17:08:29.001	$GPGGA,170828,2423.6637,N,08125.1031,W,1,10,1.5,13,M,,M,,*6D
06/05/2014	17:08:30.031	$GPGGA,170829,2423.6631,N,08125.1030,W,1,10,1.5,13,M,,M,,*6B
06/05/2014	17:08:31.013	$GPGGA,170830,2423.6626,N,08125.1028,W,1,10,1.5,13,M,,M,,*6C
06/05/2014	17:08:32.061	$GPGGA,170831,2423.6620,N,08125.1027,W,1,10,1.5,13,M,,M,,*64
06/05/2014	17:08:33.068	$GPGGA,170832,2423.6615,N,08125.1026,W,1,10,1.5,13,M,,M,,*60
06/05/2014	17:08:34.103	$GPGGA,170833,2423.6611,N,08125.1026,W,1,10,1.5,13,M,,M,,*65
06/05/2014	17:08:35.109	$GPGGA,170834,2423.6611,N,08125.1026,W,1,10,1.5,13,M,,M,,*62
06/05/2014	17:08:36.146	$GPGGA,170835,2423.6600,N,08125.1024,W,1,10,1.5,13,M,,M,,*61
06/05/2014	17:08:35.573	$GPGGA,170836,2423.6600,N,08125.1024,W,1,10,1.5,13,M,,M,,*62
06/05/2014	17:08:36.610	$GPGGA,170837,2423.6591,N,08125.1022,W,1,10,1.5,13,M,,M,,*6E
06/05/2014	17:08:39.043	$GPGGA,170839,2423.6581,N,08125.1019,W,1,10,1.5,13,M,,M,,*69
06/05/2014	17:08:39.710	$GPGGA,170840,2423.6576,N,08125.1019,W,1,10,1.5,13,M,,M,,*6F
06/05/2014	17:08:40.788	$GPGGA,170841,2423.6572,N,08125.1020,W,1,10,1.5,13,M,,M,,*60
06/05/2014	17:08:41.733	$GPGGA,170842,2423.6568,N,08125.1018,W,1,10,1.5,13,M,,M,,*63
06/05/2014	17:08:42.729	$GPGGA,170843,2423.6562,N,08125.1015,W,1,10,1.5,13,M,,M,,*65
06/05/2014	17:08:43.807	$GPGGA,170844,2423.6557,N,08125.1015,W,1,10,1.5,13,M,,M,,*64
06/05/2014	17:08:44.905	$GPGGA,170845,2423.6553,N,08125.1016,W,1,10,1.5,13,M,,M,,*62
06/05/2014	17:08:45.809	$GPGGA,170846,2423.6553,N,08125.1016,W,1,10,1.5,13,M,,M,,*61
06/05/2014	17:08:46.825	$GPGGA,170847,2423.6543,N,08125.1012,W,1,10,1.5,13,M,,M,,*65
06/05/2014	17:08:47.862	$GPGGA,170848,2423.6543,N,08125.1012,W,1,10,1.5,13,M,,M,,*6A
06/05/2014	17:08:48.961	$GPGGA,170849,2423.6532,N,08125.1011,W,1,9,1.8,13,M,,M,,*5B
06/05/2014	17:08:49.904	$GPGGA,170850,2423.6532,N,08125.1011,W,1,9,1.5,13,M,,M,,*5E
06/05/2014	17:08:51.044	$GPGGA,170851,2423.6523,N,08125.1008,W,1,10,1.5,13,M,,M,,*6F
06/05/2014	17:08:52.091	$GPGGA,170852,2423.6518,N,08125.1008,W,1,10,1.5,13,M,,M,,*64
06/05/2014	17:08:53.067	$GPGGA,170853,2423.6514,N,08125.1008,W,1,10,1.5,13,M,,M,,*69
06/05/2014	17:08:54.104	$GPGGA,170854,2423.6510,N,08125.1007,W,1,10,1.5,13,M,,M,,*65
06/05/2014	17:08:55.110	$GPGGA,170855,2423.6504,N,08125.1005,W,1,10,1.5,13,M,,M,,*63
06/05/2014	17:08:56.157	$GPGGA,170856,2423.6499,N,08125.1005,W,1,10,1.5,13,M,,M,,*65
06/05/2014	17:08:57.083	$GPGGA,170857,2423.6494,N,08125.1004,W,1,10,1.5,13,M,,M,,*68
06/05/2014	17:08:58.200	$GPGGA,170858,2423.6489,N,08125.1002,W,1,10,1.5,13,M,,M,,*6D
06/05/2014	17:08:59.237	$GPGGA,170859,2423.6485,N,08125.1001,W,1,10,1.5,13,M,,M,,*63
06/05/2014	17:09:00.274	$GPGGA,170900,2423.6480,N,08125.1000,W,1,10,1.5,13,M,,M,,*6A
06/05/2014	17:09:01.301	$GPGGA,170901,2423.6474,N,08125.0999,W,1,10,1.5,13,M,,M,,*68
06/05/2014	17:09:02.297	$GPGGA,170902,2423.6469,N,08125.0999,W,1,10,1.5,13,M,,M,,*67
06/05/2014	17:09:03.354	$GPGGA,170903,2423.6465,N,08125.0998,W,1,10,1.5,13,M,,M,,*6B
06/05/2014	17:09:04.360	$GPGGA,170904,2423.6460,N,08125.0997,W,1,10,1.5,13,M,,M,,*66
06/05/2014	17:09:05.377	$GPGGA,170905,2423.6456,N,08125.0995,W,1,10,1.5,13,M,,M,,*60
06/05/2014	17:09:06.403	$GPGGA,170906,2423.6450,N,08125.0995,W,1,10,1.5,13,M,,M,,*65
06/05/2014	17:09:07.431	$GPGGA,170907,2423.6445,N,08125.0995,W,1,10,1.5,13,M,,M,,*60
06/05/2014	17:09:08.466	$GPGGA,170908,2423.6440,N,08125.0993,W,1,10,1.5,13,M,,M,,*6C
06/05/2014	17:09:09.483	$GPGGA,170909,2423.6436,N,08125.0993,W,1,10,1.5,13,M,,M,,*6C
06/05/2014	17:09:10.509	$GPGGA,170910,2423.6431,N,08125.0994,W,1,10,1.5,13,M,,M,,*64
06/05/2014	17:09:11.505	$GPGGA,170911,2423.6425,N,08125.0992,W,1,9,1.8,13,M,,M,,*53
06/05/2014	17:09:12.563	$GPGGA,170912,2423.6420,N,08125.0990,W,1,9,1.5,13,M,,M,,*5A
06/05/2014	17:09:13.589	$GPGGA,170913,2423.6415,N,08125.0990,W,1,10,1.5,14,M,,M,,*62
06/05/2014	17:09:14.595	$GPGGA,170914,2423.6410,N,08125.0990,W,1,10,1.5,14,M,,M,,*60
06/05/2014	17:09:15.643	$GPGGA,170915,2423.6404,N,08125.0987,W,1,9,1.8,14,M,,M,,*57
06/05/2014	17:09:16.659	$GPGGA,170916,2423.6400,N,08125.0988,W,1,9,1.5,14,M,,M,,*52
06/05/2014	17:09:17.676	$GPGGA,170917,2423.6395,N,08125.0988,W,1,10,1.5,14,M,,M,,*60
06/05/2014	17:09:18.702	$GPGGA,170918,2423.6391,N,08125.0987,W,1,10,1.6,14,M,,M,,*67
06/05/2014	17:09:19.729	$GPGGA,170919,2423.6385,N,08125.0986,W,1,10,1.5,14,M,,M,,*61
06/05/2014	17:09:20.745	$GPGGA,170920,2423.6381,N,08125.0986,W,1,10,1.5,14,M,,M,,*6F
06/05/2014	17:09:21.772	$GPGGA,170921,2423.6377,N,08125.0986,W,1,10,1.5,14,M,,M,,*67
06/05/2014	17:09:22.788	$GPGGA,170922,2423.6373,N,08125.0986,W,1,10,1.5,14,M,,M,,*60
06/05/2014	17:09:23.805	$GPGGA,170923,2423.6368,N,08125.0983,W,1,10,1.5,14,M,,M,,*6E
06/05/2014	17:09:24.842	$GPGGA,170924,2423.6363,N,08125.0983,W,1,10,1.5,14,M,,M,,*62
06/05/2014	17:09:25.888	$GPGGA,170925,2423.6359,N,08125.0984,W,1,10,1.5,14,M,,M,,*6D
06/05/2014	17:09:26.894	$GPGGA,170926,2423.6355,N,08125.0982,W,1,10,1.5,14,M,,M,,*64
06/05/2014	17:09:27.921	$GPGGA,170927,2423.6349,N,08125.0981,W,1,10,1.5,15,M,,M,,*6A
06/05/2014	17:09:28.948	$GPGGA,170928,2423.6345,N,08125.0983,W,1,10,1.5,15,M,,M,,*6B
06/05/2014	17:09:29.964	$GPGGA,170929,2423.6341,N,08125.0983,W,1,9,1.8,15,M,,M,,*5B
06/05/2014	17:09:30.991	$GPGGA,170930,2423.6337,N,08125.0981,W,1,9,1.5,15,M,,M,,*5D
06/05/2014	17:09:32.028	$GPGGA,170931,2423.6331,N,08125.0982,W,1,10,1.5,15,M,,M,,*61
06/05/2014	17:09:33.054	$GPGGA,170932,2423.6327,N,08125.0983,W,1,10,1.5,15,M,,M,,*64
06/05/2014	17:09:34.071	$GPGGA,170933,2423.6322,N,08125.0981,W,1,10,1.5,15,M,,M,,*62
06/05/2014	17:09:35.087	$GPGGA,170934,2423.6317,N,08125.0980,W,1,10,1.5,15,M,,M,,*62
06/05/2014	17:09:34.632	$GPGGA,170935,2423.6313,N,08125.0980,W,1,10,1.5,15,M,,M,,*67
06/05/2014	17:09:35.663	$GPGGA,170936,2423.6309,N,08125.0980,W,1,10,1.5,15,M,,M,,*6F
06/05/2014	17:09:36.700	$GPGGA,170937,2423.6304,N,08125.0979,W,1,10,1.5,15,M,,M,,*65
06/05/2014	17:09:37.593	$GPGGA,170938,2423.6299,N,08125.0979,W,1,10,1.5,15,M,,M,,*6F
06/05/2014	17:09:38.712	$GPGGA,170939,2423.6295,N,08125.0980,W,1,9,1.6,15,M,,M,,*5F
06/05/2014	17:09:39.657	$GPGGA,170940,2423.6291,N,08125.0979,W,1,9,1.5,15,M,,M,,*50
06/05/2014	17:09:40.755	$GPGGA,170941,2423.6287,N,08125.0978,W,1,10,1.5,15,M,,M,,*6F
06/05/2014	17:09:41.690	$GPGGA,170942,2423.6284,N,08125.0979,W,1,10,1.5,15,M,,M,,*6E
06/05/2014	17:09:42.695	$GPGGA,170943,2423.6279,N,08125.0979,W,1,10,1.5,15,M,,M,,*6D
06/05/2014	17:09:43.865	$GPGGA,170944,2423.6274,N,08125.0978,W,1,10,1.5,15,M,,M,,*66
06/05/2014	17:09:44.871	$GPGGA,170945,2423.6269,N,08125.0979,W,1,9,1.6,15,M,,M,,*51
06/05/2014	17:09:45.785	$GPGGA,170946,2423.6264,N,08125.0979,W,1,9,1.5,15,M,,M,,*5C
06/05/2014	17:09:46.814	$GPGGA,170947,2423.6261,N,08125.0979,W,1,10,1.5,15,M,,M,,*60
06/05/2014	17:09:47.849	$GPGGA,170948,2423.6256,N,08125.0979,W,1,10,1.5,15,M,,M,,*6B
06/05/2014	17:09:48.978	$GPGGA,170949,2423.6251,N,08125.0979,W,1,10,1.5,15,M,,M,,*6D
06/05/2014	17:09:49.882	$GPGGA,170950,2423.6247,N,08125.0979,W,1,10,1.5,15,M,,M,,*62
06/05/2014	17:09:51.011	$GPGGA,170951,2423.6244,N,08125.0979,W,1,10,1.5,15,M,,M,,*60
06/05/2014	17:09:52.048	$GPGGA,170952,2423.6240,N,08125.0979,W,1,10,1.5,15,M,,M,,*67
06/05/2014	17:09:53.054	$GPGGA,170953,2423.6236,N,08125.0979,W,1,10,1.5,15,M,,M,,*67
06/05/2014	17:09:54.071	$GPGGA,170954,2423.6230,N,08125.0978,W,1,10,1.5,15,M,,M,,*67
06/05/2014	17:09:55.108	$GPGGA,170955,2423.6225,N,08125.0979,W,1,9,1.6,15,M,,M,,*58
06/05/2014	17:09:56.146	$GPGGA,170956,2423.6221,N,08125.0979,W,1,9,1.5,15,M,,M,,*5C
06/05/2014	17:09:57.151	$GPGGA,170957,2423.6215,N,08125.0977,W,1,10,1.5,15,M,,M,,*6C
06/05/2014	17:09:58.177	$GPGGA,170958,2423.6210,N,08125.0977,W,1,10,1.5,15,M,,M,,*66
06/05/2014	17:09:59.235	$GPGGA,170959,2423.6205,N,08125.0977,W,1,10,1.5,15,M,,M,,*63
06/05/2014	17:10:00.240	$GPGGA,171000,2423.6201,N,08125.0979,W,1,10,1.6,15,M,,M,,*6E
06/05/2014	17:10:01.267	$GPGGA,171001,2423.6197,N,08125.0978,W,1,10,1.5,15,M,,M,,*61
06/05/2014	17:10:02.273	$GPGGA,171002,2423.6194,N,08125.0977,W,1,10,1.5,15,M,,M,,*6E
06/05/2014	17:10:03.320	$GPGGA,171003,2423.6189,N,08125.0979,W,1,10,1.5,15,M,,M,,*6D
06/05/2014	17:10:04.337	$GPGGA,171004,2423.6185,N,08125.0978,W,1,10,1.5,15,M,,M,,*67
06/05/2014	17:10:05.363	$GPGGA,171005,2423.6180,N,08125.0979,W,1,10,1.5,15,M,,M,,*62
06/05/2014	17:10:06.380	$GPGGA,171006,2423.6176,N,08125.0978,W,1,10,1.5,14,M,,M,,*68
06/05/2014	17:10:07.396	$GPGGA,171007,2423.6172,N,08125.0979,W,1,10,1.5,14,M,,M,,*6C
06/05/2014	17:10:08.433	$GPGGA,171008,2423.6167,N,08125.0978,W,1,10,1.5,14,M,,M,,*66
06/05/2014	17:10:09.470	$GPGGA,171009,2423.6162,N,08125.0977,W,1,10,1.5,14,M,,M,,*6D
06/05/2014	17:10:10.466	$GPGGA,171010,2423.6157,N,08125.0977,W,1,10,1.5,14,M,,M,,*63
06/05/2014	17:10:11.544	$GPGGA,171011,2423.6153,N,08125.0979,W,1,10,1.5,14,M,,M,,*68
06/05/2014	17:10:12.540	$GPGGA,171012,2423.6149,N,08125.0978,W,1,10,1.5,14,M,,M,,*61
06/05/2014	17:10:13.537	$GPGGA,171013,2423.6144,N,08125.0977,W,1,10,1.5,14,M,,M,,*62
06/05/2014	17:10:14.573	$GPGGA,171014,2423.6139,N,08125.0977,W,1,10,1.5,14,M,,M,,*6F
06/05/2014	17:10:15.631	$GPGGA,171015,2423.6135,N,08125.0977,W,1,10,1.5,14,M,,M,,*62
06/05/2014	17:10:16.636	$GPGGA,171016,2423.6129,N,08125.0977,W,1,10,1.6,14,M,,M,,*6F
06/05/2014	17:10:17.653	$GPGGA,171017,2423.6125,N,08125.0977,W,1,10,1.5,14,M,,M,,*61
06/05/2014	17:10:18.658	$GPGGA,171018,2423.6121,N,08125.0977,W,1,10,1.5,14,M,,M,,*6A
06/05/2014	17:10:19.705	$GPGGA,171019,2423.6117,N,08125.0979,W,1,10,1.5,14,M,,M,,*60
06/05/2014	17:10:20.732	$GPGGA,171020,2423.6113,N,08125.0977,W,1,10,1.6,14,M,,M,,*63
06/05/2014	17:10:21.769	$GPGGA,171021,2423.6110,N,08125.0977,W,1,10,1.5,14,M,,M,,*62
06/05/2014	17:10:22.765	$GPGGA,171022,2423.6105,N,08125.0979,W,1,10,1.5,14,M,,M,,*6B
06/05/2014	17:10:23.812	$GPGGA,171023,2423.6102,N,08125.0978,W,1,9,1.6,14,M,,M,,*57
06/05/2014	17:10:24.818	$GPGGA,171024,2423.6097,N,08125.0979,W,1,9,1.6,14,M,,M,,*5C
06/05/2014	17:10:25.835	$GPGGA,171025,2423.6093,N,08125.0978,W,1,9,1.6,14,M,,M,,*58
06/05/2014	17:10:26.872	$GPGGA,171026,2423.6087,N,08125.0979,W,1,9,1.6,14,M,,M,,*5F
06/05/2014	17:10:27.991	$GPGGA,171027,2423.6084,N,08125.0979,W,1,8,1.7,14,M,,M,,*5D
06/05/2014	17:10:29.038	$GPGGA,171028,2423.6079,N,08125.0978,W,1,8,1.6,13,M,,M,,*57
06/05/2014	17:10:30.054	$GPGGA,171029,2423.6074,N,08125.0979,W,1,9,1.6,13,M,,M,,*5B
06/05/2014	17:10:31.061	$GPGGA,171030,2423.6069,N,08125.0980,W,1,9,1.6,13,M,,M,,*59
06/05/2014	17:10:31.995	$GPGGA,171031,2423.6066,N,08125.0980,W,1,9,1.6,13,M,,M,,*57
06/05/2014	17:10:33.155	$GPGGA,171032,2423.6061,N,08125.0980,W,1,9,1.6,13,M,,M,,*53
06/05/2014	17:10:34.172	$GPGGA,171033,2423.6056,N,08125.0980,W,1,9,1.6,13,M,,M,,*56
06/05/2014	17:10:35.068	$GPGGA,171034,2423.6051,N,08125.0980,W,1,9,1.6,13,M,,M,,*56
06/05/2014	17:10:36.194	$GPGGA,171035,2423.6046,N,08125.0983,W,1,9,1.6,13,M,,M,,*52
06/05/2014	17:10:35.517	$GPGGA,171036,2423.6040,N,08125.0983,W,1,9,1.6,13,M,,M,,*57
06/05/2014	17:10:36.544	$GPGGA,171037,2423.6037,N,08125.0982,W,1,8,1.7,13,M,,M,,*57
06/05/2014	17:10:37.653	$GPGGA,171038,2423.6034,N,08125.0983,W,1,8,1.6,13,M,,M,,*5B
06/05/2014	17:10:38.720	$GPGGA,171039,2423.6030,N,08125.0983,W,1,10,1.5,13,M,,M,,*64
06/05/2014	17:10:39.716	$GPGGA,171040,2423.6024,N,08125.0984,W,1,10,1.6,13,M,,M,,*6B
06/05/2014	17:10:40.774	$GPGGA,171041,2423.6019,N,08125.0984,W,1,10,1.5,13,M,,M,,*67
06/05/2014	17:10:41.759	$GPGGA,171042,2423.6013,N,08125.0986,W,1,10,1.5,13,M,,M,,*6C
06/05/2014	17:10:42.786	$GPGGA,171043,2423.6008,N,08125.0986,W,1,10,1.5,13,M,,M,,*67
06/05/2014	17:10:43.823	$GPGGA,171044,2423.6004,N,08125.0987,W,1,10,1.6,13,M,,M,,*6E
06/05/2014	17:10:44.860	$GPGGA,171045,2423.5999,N,08125.0987,W,1,10,1.5,13,M,,M,,*62
06/05/2014	17:10:45.856	$GPGGA,171046,2423.5994,N,08125.0988,W,1,10,1.5,13,M,,M,,*63
06/05/2014	17:10:46.904	$GPGGA,171047,2423.5990,N,08125.0990,W,1,10,1.5,13,M,,M,,*6F
06/05/2014	17:10:47.931	$GPGGA,171048,2423.5984,N,08125.0990,W,1,10,1.5,13,M,,M,,*65
06/05/2014	17:10:48.926	$GPGGA,171049,2423.5980,N,08125.0990,W,1,10,1.5,13,M,,M,,*60
06/05/2014	17:10:49.963	$GPGGA,171050,2423.5975,N,08125.0991,W,1,10,1.5,13,M,,M,,*63
06/05/2014	17:10:50.979	$GPGGA,171051,2423.5970,N,08125.0991,W,1,10,1.5,13,M,,M,,*67
06/05/2014	17:10:52.048	$GPGGA,171052,2423.5965,N,08125.0993,W,1,10,1.5,13,M,,M,,*62
06/05/2014	17:10:53.052	$GPGGA,171053,2423.5958,N,08125.0993,W,1,10,1.5,13,M,,M,,*6D
06/05/2014	17:10:54.058	$GPGGA,171054,2423.5954,N,08125.0994,W,1,10,1.5,13,M,,M,,*61
06/05/2014	17:10:55.116	$GPGGA,171055,2423.5947,N,08125.0994,W,1,10,1.5,13,M,,M,,*62
06/05/2014	17:10:56.122	$GPGGA,171056,2423.5943,N,08125.0995,W,1,10,1.5,13,M,,M,,*64
06/05/2014	17:10:57.160	$GPGGA,171057,2423.5938,N,08125.0997,W,1,10,1.5,13,M,,M,,*6B
06/05/2014	17:10:58.165	$GPGGA,171058,2423.5932,N,08125.0997,W,1,10,1.5,13,M,,M,,*6E
06/05/2014	17:10:59.171	$GPGGA,171059,2423.5926,N,08125.0996,W,1,10,1.5,13,M,,M,,*6B
06/05/2014	17:11:00.229	$GPGGA,171100,2423.5921,N,08125.0997,W,1,10,1.5,13,M,,M,,*60
06/05/2014	17:11:01.266	$GPGGA,171101,2423.5916,N,08125.0998,W,1,10,1.5,13,M,,M,,*6A
06/05/2014	17:11:02.251	$GPGGA,171102,2423.5910,N,08125.0998,W,1,10,1.5,13,M,,M,,*6F
06/05/2014	17:11:03.299	$GPGGA,171103,2423.5904,N,08125.0996,W,1,9,1.6,13,M,,M,,*5E
06/05/2014	17:11:04.315	$GPGGA,171104,2423.5898,N,08125.0998,W,1,9,1.5,13,M,,M,,*50
06/05/2014	17:11:05.321	$GPGGA,171105,2423.5892,N,08125.0999,W,1,10,1.5,13,M,,M,,*62
06/05/2014	17:11:06.358	$GPGGA,171106,2423.5887,N,08125.0998,W,1,10,1.5,13,M,,M,,*64
06/05/2014	17:11:07.395	$GPGGA,171107,2423.5880,N,08125.0997,W,1,10,1.5,13,M,,M,,*6D
06/05/2014	17:11:08.412	$GPGGA,171108,2423.5875,N,08125.0999,W,1,10,1.5,13,M,,M,,*66
06/05/2014	17:11:09.428	$GPGGA,171109,2423.5869,N,08125.0999,W,1,10,1.5,13,M,,M,,*6A
06/05/2014	17:11:10.577	$GPGGA,171110,2423.5863,N,08125.0998,W,1,10,1.6,13,M,,M,,*6A
06/05/2014	17:11:11.480	$GPGGA,171111,2423.5858,N,08125.0998,W,1,10,1.5,13,M,,M,,*60
06/05/2014	17:11:12.548	$GPGGA,171112,2423.5853,N,08125.0998,W,1,10,1.5,13,M,,M,,*68
06/05/2014	17:11:13.524	$GPGGA,171113,2423.5847,N,08125.0999,W,1,10,1.5,13,M,,M,,*6D
06/05/2014	17:11:14.643	$GPGGA,171114,2423.5842,N,08125.0998,W,1,10,1.5,13,M,,M,,*6E
06/05/2014	17:11:15.587	$GPGGA,171115,2423.5836,N,08125.0998,W,1,10,1.5,13,M,,M,,*6C
06/05/2014	17:11:16.624	$GPGGA,171116,2423.5831,N,08125.0999,W,1,10,1.5,13,M,,M,,*69
06/05/2014	17:11:17.630	$GPGGA,171117,2423.5824,N,08125.0999,W,1,10,1.5,13,M,,M,,*6C
06/05/2014	17:11:18.770	$GPGGA,171118,2423.5820,N,08125.0998,W,1,10,1.5,13,M,,M,,*66
06/05/2014	17:11:19.684	$GPGGA,171119,2423.5813,N,08125.0998,W,1,10,1.5,13,M,,M,,*67
06/05/2014	17:11:20.710	$GPGGA,171120,2423.5807,N,08125.0999,W,1,10,1.5,13,M,,M,,*69
06/05/2014	17:11:21.747	$GPGGA,171121,2423.5802,N,08125.1001,W,1,10,1.5,13,M,,M,,*64
06/05/2014	17:11:22.764	$GPGGA,171122,2423.5796,N,08125.0999,W,1,10,1.5,13,M,,M,,*6C
06/05/2014	17:11:23.791	$GPGGA,171123,2423.5790,N,08125.0999,W,1,10,1.5,13,M,,M,,*6B
06/05/2014	17:11:24.807	$GPGGA,171124,2423.5784,N,08125.0999,W,1,10,1.5,13,M,,M,,*69
06/05/2014	17:11:25.834	$GPGGA,171125,2423.5778,N,08125.1001,W,1,10,1.5,13,M,,M,,*62
06/05/2014	17:11:26.942	$GPGGA,171126,2423.5773,N,08125.1000,W,1,10,1.5,13,M,,M,,*6B
06/05/2014	17:11:27.978	$GPGGA,171127,2423.5767,N,08125.0999,W,1,10,1.5,13,M,,M,,*67
06/05/2014	17:11:29.036	$GPGGA,171128,2423.5761,N,08125.0998,W,1,10,1.5,13,M,,M,,*6F
06/05/2014	17:11:30.052	$GPGGA,171129,2423.5756,N,08125.0999,W,1,10,1.5,13,M,,M,,*6B
06/05/2014	17:11:31.049	$GPGGA,171130,2423.5750,N,08125.1001,W,1,10,1.5,13,M,,M,,*6C
06/05/2014	17:11:32.106	$GPGGA,171131,2423.5744,N,08125.0998,W,1,10,1.5,13,M,,M,,*60
06/05/2014	17:11:33.153	$GPGGA,171132,2423.5739,N,08125.0996,W,1,10,1.5,13,M,,M,,*67
06/05/2014	17:11:34.119	$GPGGA,171133,2423.5733,N,08125.0997,W,1,10,1.5,13,M,,M,,*6D
06/05/2014	17:11:35.145	$GPGGA,171134,2423.5728,N,08125.0998,W,1,10,1.5,13,M,,M,,*6F
06/05/2014	17:11:36.192	$GPGGA,171135,2423.5723,N,08125.0996,W,1,10,1.5,13,M,,M,,*6B
06/05/2014	17:11:35.608	$GPGGA,171136,2423.5716,N,08125.0994,W,1,10,1.5,13,M,,M,,*6C
06/05/2014	17:11:36.645	$GPGGA,171137,2423.5712,N,08125.0994,W,1,10,1.5,13,M,,M,,*69
06/05/2014	17:11:37.641	$GPGGA,171138,2423.5705,N,08125.0994,W,1,10,1.5,13,M,,M,,*60
06/05/2014	17:11:38.658	$GPGGA,171139,2423.5701,N,08125.0993,W,1,10,1.5,13,M,,M,,*62
06/05/2014	17:11:39.716	$GPGGA,171140,2423.5694,N,08125.0992,W,1,10,1.5,13,M,,M,,*60
06/05/2014	17:11:40.711	$GPGGA,171141,2423.5688,N,08125.0993,W,1,10,1.5,13,M,,M,,*6D
06/05/2014	17:11:41.758	$GPGGA,171142,2423.5683,N,08125.0991,W,1,10,1.5,13,M,,M,,*67
06/05/2014	17:11:42.785	$GPGGA,171143,2423.5677,N,08125.0989,W,1,10,1.5,13,M,,M,,*64
06/05/2014	17:11:43.803	$GPGGA,171144,2423.5672,N,08125.0988,W,1,10,1.5,13,M,,M,,*67
06/05/2014	17:11:44.848	$GPGGA,171145,2423.5666,N,08125.0988,W,1,10,1.5,13,M,,M,,*63
06/05/2014	17:11:45.844	$GPGGA,171146,2423.5661,N,08125.0986,W,1,10,1.5,13,M,,M,,*69
