Software Version Number: 1	Data File Format Number: 1	Build Version Number: 1	Error Count Since VI Started: 0	Manufacturer: Raytheon	 Model Number: RayMarine 120	 S/N: 	 Cal Date: 	 Wind Direction Offset: 0.00	 Slope (M)1: 0.00	 Offset (B)1: 0.00	 Slope (M)2: 0.00	 Offset (B)2: 0.00	 Slope (M)3: 0.00	 Offset (B)3: 0.00	 Slope (M)4: 0.00	 Offset (B)4: 0.00	 Slope (M)5: 0.00	 Offset (B)5: 0.00	 Slope (M)6: 0.00	 Offset (B)6: 0.00
Computer Date	Computer Time	GGA String
06/14/2014	08:00:00.618	$GPGGA,080009,2432.3993,N,08054.1136,W,1,7,1.8,18,M,,M,,*5D
06/14/2014	08:00:01.491	$GPGGA,080010,2432.3992,N,08054.1141,W,1,7,1.8,18,M,,M,,*54
06/14/2014	08:00:02.617	$GPGGA,080011,2432.3992,N,08054.1145,W,1,8,1.7,18,M,,M,,*51
06/14/2014	08:00:03.584	$GPGGA,080012,2432.3990,N,08054.1146,W,1,8,1.7,18,M,,M,,*53
06/14/2014	08:00:04.659	$GPGGA,080013,2432.3989,N,08054.1149,W,1,7,3.0,18,M,,M,,*5F
06/14/2014	08:00:05.618	$GPGGA,080014,2432.3987,N,08054.1152,W,1,7,3.0,18,M,,M,,*5C
06/14/2014	08:00:06.661	$GPGGA,080015,2432.3985,N,08054.1154,W,1,6,3.1,18,M,,M,,*59
06/14/2014	08:00:07.706	$GPGGA,080016,2432.3983,N,08054.1157,W,1,6,3.0,18,M,,M,,*5E
06/14/2014	08:00:08.809	$GPGGA,080017,2432.3978,N,08054.1161,W,1,7,3.0,18,M,,M,,*5F
06/14/2014	08:00:09.808	$GPGGA,080018,2432.3976,N,08054.1167,W,1,7,1.8,18,M,,M,,*52
06/14/2014	08:00:10.810	$GPGGA,080019,2432.3975,N,08054.1171,W,1,7,1.8,18,M,,M,,*57
06/14/2014	08:00:11.935	$GPGGA,080020,2432.3974,N,08054.1172,W,1,7,1.7,17,M,,M,,*5F
06/14/2014	08:00:12.895	$GPGGA,080021,2432.3971,N,08054.1176,W,1,7,3.0,17,M,,M,,*5A
06/14/2014	08:00:13.969	$GPGGA,080022,2432.3967,N,08054.1183,W,1,7,1.7,17,M,,M,,*51
06/14/2014	08:00:15.094	$GPGGA,080023,2432.3965,N,08054.1186,W,1,8,3.0,17,M,,M,,*5D
06/14/2014	08:00:16.072	$GPGGA,080024,2432.3963,N,08054.1189,W,1,8,3.0,17,M,,M,,*53
06/14/2014	08:00:17.138	$GPGGA,080025,2432.3960,N,08054.1192,W,1,7,3.0,17,M,,M,,*54
06/14/2014	08:00:18.152	$GPGGA,080026,2432.3958,N,08054.1194,W,1,7,3.0,17,M,,M,,*5A
06/14/2014	08:00:19.254	$GPGGA,080027,2432.3954,N,08054.1201,W,1,7,1.7,17,M,,M,,*5D
06/14/2014	08:00:20.225	$GPGGA,080028,2432.3952,N,08054.1204,W,1,7,1.7,17,M,,M,,*51
06/14/2014	08:00:21.329	$GPGGA,080029,2432.3949,N,08054.1210,W,1,8,1.8,17,M,,M,,*5F
06/14/2014	08:00:22.257	$GPGGA,080030,2432.3946,N,08054.1217,W,1,8,1.8,17,M,,M,,*5F
06/14/2014	08:00:23.425	$GPGGA,080031,2432.3942,N,08054.1218,W,1,7,1.8,18,M,,M,,*55
06/14/2014	08:00:24.353	$GPGGA,080032,2432.3940,N,08054.1221,W,1,7,3.0,18,M,,M,,*54
06/14/2014	08:00:25.500	$GPGGA,080033,2432.3941,N,08054.1225,W,1,7,1.7,18,M,,M,,*55
06/14/2014	08:00:26.428	$GPGGA,080034,2432.3938,N,08054.1228,W,1,7,1.7,18,M,,M,,*51
06/14/2014	08:00:27.543	$GPGGA,080035,2432.3938,N,08054.1230,W,1,7,3.0,18,M,,M,,*5C
06/14/2014	08:00:28.647	$GPGGA,080036,2432.3935,N,08054.1232,W,1,7,3.0,18,M,,M,,*50
06/14/2014	08:00:29.638	$GPGGA,080037,2432.3934,N,08054.1239,W,1,6,1.7,18,M,,M,,*5F
06/14/2014	08:00:30.586	$GPGGA,080038,2432.3932,N,08054.1244,W,1,6,1.7,18,M,,M,,*5C
06/14/2014	08:00:31.712	$GPGGA,080039,2432.3931,N,08054.1250,W,1,8,1.7,18,M,,M,,*55
06/14/2014	08:00:32.714	$GPGGA,080040,2432.3931,N,08054.1254,W,1,8,1.7,18,M,,M,,*5F
06/14/2014	08:00:33.725	$GPGGA,080041,2432.3927,N,08054.1258,W,1,8,1.7,18,M,,M,,*55
06/14/2014	08:00:34.851	$GPGGA,080042,2432.3924,N,08054.1264,W,1,8,1.7,18,M,,M,,*5A
06/14/2014	08:00:35.935	$GPGGA,080043,2432.3923,N,08054.1268,W,1,8,1.7,18,M,,M,,*50
06/14/2014	08:00:36.884	$GPGGA,080044,2432.3922,N,08054.1272,W,1,8,1.7,18,M,,M,,*5D
06/14/2014	08:00:37.958	$GPGGA,080045,2432.3920,N,08054.1277,W,1,8,1.7,18,M,,M,,*5B
06/14/2014	08:00:39.011	$GPGGA,080046,2432.3916,N,08054.1282,W,1,8,1.8,18,M,,M,,*58
06/14/2014	08:00:40.095	$GPGGA,080047,2432.3914,N,08054.1287,W,1,7,1.8,19,M,,M,,*50
06/14/2014	08:00:41.106	$GPGGA,080048,2432.3916,N,08054.1291,W,1,7,1.7,19,M,,M,,*55
06/14/2014	08:00:39.585	$GPGGA,080049,2432.3914,N,08054.1295,W,1,8,1.7,19,M,,M,,*5D
06/14/2014	08:00:40.627	$GPGGA,080050,2432.3913,N,08054.1298,W,1,8,1.7,19,M,,M,,*5F
06/14/2014	08:00:41.670	$GPGGA,080051,2432.3913,N,08054.1302,W,1,8,1.7,19,M,,M,,*5C
06/14/2014	08:00:42.723	$GPGGA,080052,2432.3913,N,08054.1306,W,1,8,1.7,19,M,,M,,*5B
06/14/2014	08:00:43.796	$GPGGA,080053,2432.3911,N,08054.1311,W,1,8,1.7,19,M,,M,,*5E
06/14/2014	08:00:44.783	$GPGGA,080054,2432.3912,N,08054.1315,W,1,8,1.7,19,M,,M,,*5E
06/14/2014	08:00:45.819	$GPGGA,080055,2432.3911,N,08054.1318,W,1,8,3.0,19,M,,M,,*54
06/14/2014	08:00:46.882	$GPGGA,080056,2432.3909,N,08054.1322,W,1,8,1.7,19,M,,M,,*52
06/14/2014	08:00:47.924	$GPGGA,080057,2432.3912,N,08054.1321,W,1,8,1.7,19,M,,M,,*5A
06/14/2014	08:00:48.947	$GPGGA,080058,2432.3913,N,08054.1323,W,1,8,3.0,19,M,,M,,*53
06/14/2014	08:00:50.009	$GPGGA,080059,2432.3911,N,08054.1327,W,1,7,1.7,19,M,,M,,*5E
06/14/2014	08:00:51.060	$GPGGA,080100,2432.3909,N,08054.1330,W,1,7,1.7,19,M,,M,,*5C
06/14/2014	08:00:52.126	$GPGGA,080101,2432.3907,N,08054.1337,W,1,8,1.7,19,M,,M,,*5B
06/14/2014	08:00:53.110	$GPGGA,080102,2432.3905,N,08054.1341,W,1,8,1.8,19,M,,M,,*54
06/14/2014	08:00:54.176	$GPGGA,080103,2432.3900,N,08054.1347,W,1,7,1.8,19,M,,M,,*59
06/14/2014	08:00:55.210	$GPGGA,080104,2432.3898,N,08054.1349,W,1,7,1.7,19,M,,M,,*5F
06/14/2014	08:00:56.296	$GPGGA,080105,2432.3900,N,08054.1351,W,1,8,3.0,19,M,,M,,*5D
06/14/2014	08:00:57.318	$GPGGA,080106,2432.3899,N,08054.1355,W,1,8,1.7,19,M,,M,,*5E
06/14/2014	08:00:58.340	$GPGGA,080107,2432.3896,N,08054.1358,W,1,8,1.8,19,M,,M,,*52
06/14/2014	08:00:59.366	$GPGGA,080108,2432.3892,N,08054.1362,W,1,8,1.7,19,M,,M,,*5F
06/14/2014	08:01:00.425	$GPGGA,080109,2432.3891,N,08054.1365,W,1,8,3.0,19,M,,M,,*5F
06/14/2014	08:01:01.437	$GPGGA,080110,2432.3889,N,08054.1366,W,1,8,3.0,19,M,,M,,*5D
06/14/2014	08:01:02.520	$GPGGA,080111,2432.3889,N,08054.1366,W,1,7,3.0,19,M,,M,,*53
06/14/2014	08:01:03.543	$GPGGA,080112,2432.3885,N,08054.1373,W,1,7,1.7,19,M,,M,,*5D
06/14/2014	08:01:04.594	$GPGGA,080113,2432.3878,N,08054.1384,W,1,8,1.7,19,M,,M,,*59
06/14/2014	08:01:05.606	$GPGGA,080114,2432.3875,N,08054.1387,W,1,8,1.7,19,M,,M,,*50
06/14/2014	08:01:06.678	$GPGGA,080115,2432.3871,N,08054.1391,W,1,8,1.7,19,M,,M,,*52
06/14/2014	08:01:07.722	$GPGGA,080116,2432.3869,N,08054.1394,W,1,8,3.0,19,M,,M,,*58
06/14/2014	08:01:08.765	$GPGGA,080117,2432.3866,N,08054.1398,W,1,6,1.8,19,M,,M,,*5E
06/14/2014	08:01:09.755	$GPGGA,080118,2432.3866,N,08054.1402,W,1,6,1.8,19,M,,M,,*55
06/14/2014	08:01:10.850	$GPGGA,080119,2432.3866,N,08054.1402,W,1,8,1.7,19,M,,M,,*55
06/14/2014	08:01:11.877	$GPGGA,080120,2432.3860,N,08054.1409,W,1,8,1.7,20,M,,M,,*58
06/14/2014	08:01:12.925	$GPGGA,080121,2432.3860,N,08054.1409,W,1,8,1.7,20,M,,M,,*59
06/14/2014	08:01:13.936	$GPGGA,080122,2432.3858,N,08054.1412,W,1,8,1.7,20,M,,M,,*5B
06/14/2014	08:01:15.031	$GPGGA,080123,2432.3855,N,08054.1417,W,1,8,1.7,20,M,,M,,*52
06/14/2014	08:01:16.105	$GPGGA,080124,2432.3850,N,08054.1420,W,1,8,1.7,20,M,,M,,*54
06/14/2014	08:01:17.126	$GPGGA,080125,2432.3849,N,08054.1424,W,1,8,1.7,20,M,,M,,*59
06/14/2014	08:01:18.221	$GPGGA,080126,2432.3846,N,08054.1428,W,1,8,1.7,20,M,,M,,*59
06/14/2014	08:01:19.140	$GPGGA,080127,2432.3846,N,08054.1428,W,1,8,1.7,20,M,,M,,*58
06/14/2014	08:01:20.170	$GPGGA,080128,2432.3839,N,08054.1434,W,1,8,1.7,20,M,,M,,*52
06/14/2014	08:01:21.273	$GPGGA,080129,2432.3837,N,08054.1438,W,1,8,1.7,20,M,,M,,*51
06/14/2014	08:01:22.359	$GPGGA,080130,2432.3833,N,08054.1441,W,1,8,1.7,20,M,,M,,*53
06/14/2014	08:01:23.308	$GPGGA,080131,2432.3833,N,08054.1441,W,1,8,1.7,20,M,,M,,*52
06/14/2014	08:01:24.434	$GPGGA,080132,2432.3828,N,08054.1446,W,1,8,1.7,20,M,,M,,*5C
06/14/2014	08:01:25.497	$GPGGA,080133,2432.3826,N,08054.1449,W,1,8,1.7,20,M,,M,,*5C
06/14/2014	08:01:26.405	$GPGGA,080134,2432.3822,N,08054.1452,W,1,8,1.7,20,M,,M,,*55
06/14/2014	08:01:27.447	$GPGGA,080135,2432.3822,N,08054.1452,W,1,8,1.7,20,M,,M,,*54
06/14/2014	08:01:28.490	$GPGGA,080136,2432.3815,N,08054.1459,W,1,8,1.7,20,M,,M,,*58
06/14/2014	08:01:29.532	$GPGGA,080137,2432.3815,N,08054.1459,W,1,8,1.7,20,M,,M,,*59
06/14/2014	08:01:30.679	$GPGGA,080138,2432.3809,N,08054.1463,W,1,8,1.7,20,M,,M,,*52
06/14/2014	08:01:31.732	$GPGGA,080139,2432.3806,N,08054.1467,W,1,7,3.0,20,M,,M,,*52
06/14/2014	08:01:32.775	$GPGGA,080140,2432.3805,N,08054.1467,W,1,7,1.7,20,M,,M,,*5A
06/14/2014	08:01:33.786	$GPGGA,080141,2432.3802,N,08054.1468,W,1,8,1.7,20,M,,M,,*5C
06/14/2014	08:01:34.839	$GPGGA,080142,2432.3799,N,08054.1470,W,1,8,1.7,20,M,,M,,*5B
06/14/2014	08:01:35.893	$GPGGA,080143,2432.3797,N,08054.1475,W,1,8,1.7,20,M,,M,,*51
06/14/2014	08:01:36.924	$GPGGA,080144,2432.3795,N,08054.1479,W,1,8,1.7,20,M,,M,,*58
06/14/2014	08:01:37.988	$GPGGA,080145,2432.3790,N,08054.1482,W,1,8,1.7,20,M,,M,,*58
06/14/2014	08:01:38.994	$GPGGA,080146,2432.3787,N,08054.1485,W,1,8,1.7,20,M,,M,,*5A
06/14/2014	08:01:40.063	$GPGGA,080147,2432.3786,N,08054.1488,W,1,8,1.7,19,M,,M,,*5D
06/14/2014	08:01:41.110	$GPGGA,080148,2432.3784,N,08054.1492,W,1,8,1.7,19,M,,M,,*5B
06/14/2014	08:01:39.572	$GPGGA,080149,2432.3780,N,08054.1496,W,1,8,1.7,19,M,,M,,*5A
06/14/2014	08:01:40.604	$GPGGA,080150,2432.3777,N,08054.1499,W,1,8,1.7,19,M,,M,,*55
06/14/2014	08:01:41.657	$GPGGA,080151,2432.3775,N,08054.1503,W,1,8,1.7,19,M,,M,,*54
06/14/2014	08:01:42.690	$GPGGA,080152,2432.3774,N,08054.1504,W,1,8,1.7,19,M,,M,,*51
06/14/2014	08:01:43.714	$GPGGA,080153,2432.3772,N,08054.1507,W,1,7,2.9,19,M,,M,,*57
06/14/2014	08:01:44.768	$GPGGA,080154,2432.3769,N,08054.1508,W,1,7,1.7,19,M,,M,,*58
06/14/2014	08:01:45.817	$GPGGA,080155,2432.3770,N,08054.1512,W,1,7,1.8,19,M,,M,,*55
06/14/2014	08:01:46.860	$GPGGA,080156,2432.3768,N,08054.1517,W,1,7,1.7,19,M,,M,,*55
06/14/2014	08:01:47.904	$GPGGA,080157,2432.3766,N,08054.1521,W,1,8,1.7,19,M,,M,,*50
06/14/2014	08:01:48.924	$GPGGA,080158,2432.3765,N,08054.1526,W,1,8,1.7,19,M,,M,,*5B
06/14/2014	08:01:49.991	$GPGGA,080159,2432.3764,N,08054.1530,W,1,8,1.7,19,M,,M,,*5C
06/14/2014	08:01:51.009	$GPGGA,080200,2432.3763,N,08054.1535,W,1,8,1.7,19,M,,M,,*51
06/14/2014	08:01:52.085	$GPGGA,080201,2432.3761,N,08054.1539,W,1,8,1.7,19,M,,M,,*5E
06/14/2014	08:01:53.084	$GPGGA,080202,2432.3761,N,08054.1543,W,1,8,1.7,19,M,,M,,*50
06/14/2014	08:01:54.146	$GPGGA,080203,2432.3761,N,08054.1546,W,1,8,1.7,19,M,,M,,*54
06/14/2014	08:01:55.180	$GPGGA,080204,2432.3758,N,08054.1550,W,1,8,1.7,19,M,,M,,*5E
06/14/2014	08:01:56.200	$GPGGA,080205,2432.3756,N,08054.1553,W,1,8,1.7,19,M,,M,,*52
06/14/2014	08:01:57.253	$GPGGA,080206,2432.3755,N,08054.1557,W,1,8,1.7,19,M,,M,,*56
06/14/2014	08:01:58.317	$GPGGA,080207,2432.3754,N,08054.1561,W,1,8,1.7,19,M,,M,,*53
06/14/2014	08:01:59.328	$GPGGA,080208,2432.3750,N,08054.1564,W,1,8,1.7,19,M,,M,,*5D
06/14/2014	08:02:00.485	$GPGGA,080209,2432.3750,N,08054.1569,W,1,8,1.7,19,M,,M,,*51
06/14/2014	08:02:01.403	$GPGGA,080210,2432.3748,N,08054.1573,W,1,8,1.7,19,M,,M,,*5B
06/14/2014	08:02:02.457	$GPGGA,080211,2432.3746,N,08054.1577,W,1,8,1.7,19,M,,M,,*50
06/14/2014	08:02:03.488	$GPGGA,080212,2432.3745,N,08054.1582,W,1,8,1.7,20,M,,M,,*50
06/14/2014	08:02:04.520	$GPGGA,080213,2432.3744,N,08054.1586,W,1,8,1.7,20,M,,M,,*54
06/14/2014	08:02:05.688	$GPGGA,080214,2432.3743,N,08054.1589,W,1,8,1.7,20,M,,M,,*5B
06/14/2014	08:02:06.751	$GPGGA,080215,2432.3743,N,08054.1593,W,1,8,1.7,20,M,,M,,*51
06/14/2014	08:02:07.669	$GPGGA,080216,2432.3741,N,08054.1597,W,1,8,1.7,20,M,,M,,*54
06/14/2014	08:02:08.712	$GPGGA,080217,2432.3739,N,08054.1600,W,1,8,1.7,20,M,,M,,*57
06/14/2014	08:02:09.723	$GPGGA,080218,2432.3738,N,08054.1604,W,1,8,1.7,20,M,,M,,*5D
06/14/2014	08:02:10.766	$GPGGA,080219,2432.3739,N,08054.1609,W,1,8,1.7,20,M,,M,,*50
06/14/2014	08:02:11.944	$GPGGA,080220,2432.3737,N,08054.1612,W,1,8,1.7,20,M,,M,,*5E
06/14/2014	08:02:12.881	$GPGGA,080221,2432.3734,N,08054.1615,W,1,8,1.7,20,M,,M,,*5B
06/14/2014	08:02:13.882	$GPGGA,080222,2432.3735,N,08054.1619,W,1,8,1.7,20,M,,M,,*55
06/14/2014	08:02:15.060	$GPGGA,080223,2432.3734,N,08054.1623,W,1,8,1.7,20,M,,M,,*5C
06/14/2014	08:02:15.988	$GPGGA,080224,2432.3732,N,08054.1627,W,1,8,1.7,20,M,,M,,*59
06/14/2014	08:02:17.108	$GPGGA,080225,2432.3730,N,08054.1630,W,1,8,1.7,20,M,,M,,*5C
06/14/2014	08:02:18.064	$GPGGA,080226,2432.3729,N,08054.1636,W,1,8,1.8,20,M,,M,,*5E
06/14/2014	08:02:20.492	$GPGGA,080228,2432.3729,N,08054.1640,W,1,7,1.7,20,M,,M,,*51
06/14/2014	08:02:21.316	$GPGGA,080229,2432.3728,N,08054.1647,W,1,7,2.9,20,M,,M,,*5B
06/14/2014	08:02:22.316	$GPGGA,080230,2432.3728,N,08054.1652,W,1,7,1.7,20,M,,M,,*5A
06/14/2014	08:02:23.369	$GPGGA,080231,2432.3725,N,08054.1655,W,1,8,1.7,20,M,,M,,*5E
06/14/2014	08:02:24.412	$GPGGA,080232,2432.3723,N,08054.1659,W,1,8,1.7,20,M,,M,,*57
06/14/2014	08:02:25.444	$GPGGA,080233,2432.3724,N,08054.1665,W,1,8,1.7,20,M,,M,,*5E
06/14/2014	08:02:26.482	$GPGGA,080234,2432.3723,N,08054.1669,W,1,8,1.7,20,M,,M,,*52
06/14/2014	08:02:27.522	$GPGGA,080235,2432.3721,N,08054.1673,W,1,8,1.7,20,M,,M,,*5A
06/14/2014	08:02:28.572	$GPGGA,080236,2432.3719,N,08054.1673,W,1,8,1.7,20,M,,M,,*52
06/14/2014	08:02:29.625	$GPGGA,080237,2432.3720,N,08054.1676,W,1,7,2.9,20,M,,M,,*5E
06/14/2014	08:02:30.650	$GPGGA,080238,2432.3718,N,08054.1680,W,1,7,1.8,20,M,,M,,*51
06/14/2014	08:02:31.702	$GPGGA,080239,2432.3715,N,08054.1683,W,1,7,1.8,20,M,,M,,*5E
06/14/2014	08:02:32.741	$GPGGA,080240,2432.3714,N,08054.1687,W,1,7,1.8,20,M,,M,,*55
06/14/2014	08:02:33.790	$GPGGA,080241,2432.3712,N,08054.1691,W,1,7,1.8,20,M,,M,,*55
06/14/2014	08:02:34.795	$GPGGA,080242,2432.3710,N,08054.1694,W,1,7,1.8,20,M,,M,,*51
06/14/2014	08:02:35.880	$GPGGA,080243,2432.3707,N,08054.1696,W,1,8,1.7,20,M,,M,,*54
06/14/2014	08:02:36.908	$GPGGA,080244,2432.3707,N,08054.1699,W,1,8,1.7,20,M,,M,,*5C
06/14/2014	08:02:37.913	$GPGGA,080245,2432.3705,N,08054.1702,W,1,7,1.8,20,M,,M,,*5C
06/14/2014	08:02:38.966	$GPGGA,080246,2432.3703,N,08054.1703,W,1,7,1.7,20,M,,M,,*57
06/14/2014	08:02:40.042	$GPGGA,080247,2432.3703,N,08054.1707,W,1,7,1.8,20,M,,M,,*5D
06/14/2014	08:02:41.066	$GPGGA,080248,2432.3700,N,08054.1712,W,1,7,1.8,20,M,,M,,*55
06/14/2014	08:02:39.528	$GPGGA,080249,2432.3698,N,08054.1716,W,1,7,1.8,20,M,,M,,*50
06/14/2014	08:02:40.571	$GPGGA,080250,2432.3696,N,08054.1719,W,1,7,1.7,20,M,,M,,*56
06/14/2014	08:02:41.604	$GPGGA,080251,2432.3693,N,08054.1723,W,1,8,1.7,20,M,,M,,*54
06/14/2014	08:02:42.666	$GPGGA,080252,2432.3689,N,08054.1727,W,1,8,1.8,20,M,,M,,*57
06/14/2014	08:02:43.710	$GPGGA,080253,2432.3689,N,08054.1727,W,1,8,1.7,19,M,,M,,*53
06/14/2014	08:02:44.731	$GPGGA,080254,2432.3689,N,08054.1731,W,1,8,3.0,19,M,,M,,*56
06/14/2014	08:02:45.812	$GPGGA,080255,2432.3685,N,08054.1735,W,1,7,1.8,19,M,,M,,*5A
06/14/2014	08:02:46.825	$GPGGA,080256,2432.3683,N,08054.1738,W,1,7,1.8,19,M,,M,,*52
06/14/2014	08:02:47.878	$GPGGA,080257,2432.3681,N,08054.1743,W,1,7,1.8,19,M,,M,,*5D
06/14/2014	08:02:48.900	$GPGGA,080258,2432.3685,N,08054.1749,W,1,7,1.8,19,M,,M,,*5C
06/14/2014	08:02:49.943	$GPGGA,080259,2432.3687,N,08054.1750,W,1,8,1.7,19,M,,M,,*57
06/14/2014	08:02:50.996	$GPGGA,080300,2432.3688,N,08054.1754,W,1,8,2.9,19,M,,M,,*5C
06/14/2014	08:02:52.028	$GPGGA,080301,2432.3689,N,08054.1760,W,1,8,1.7,19,M,,M,,*56
06/14/2014	08:02:53.050	$GPGGA,080302,2432.3689,N,08054.1764,W,1,8,1.7,19,M,,M,,*51
06/14/2014	08:02:54.092	$GPGGA,080303,2432.3691,N,08054.1767,W,1,8,1.7,19,M,,M,,*5A
06/14/2014	08:02:55.145	$GPGGA,080304,2432.3687,N,08054.1768,W,1,8,2.9,19,M,,M,,*58
06/14/2014	08:02:56.292	$GPGGA,080305,2432.3688,N,08054.1771,W,1,6,3.0,19,M,,M,,*58
06/14/2014	08:02:57.335	$GPGGA,080306,2432.3685,N,08054.1777,W,1,6,2.9,19,M,,M,,*58
06/14/2014	08:02:58.252	$GPGGA,080307,2432.3681,N,08054.1781,W,1,8,1.7,19,M,,M,,*57
06/14/2014	08:02:59.430	$GPGGA,080308,2432.3679,N,08054.1783,W,1,8,1.7,19,M,,M,,*5D
06/14/2014	08:03:00.337	$GPGGA,080309,2432.3675,N,08054.1788,W,1,6,3.0,19,M,,M,,*50
06/14/2014	08:03:01.380	$GPGGA,080310,2432.3674,N,08054.1792,W,1,6,1.8,18,M,,M,,*59
06/14/2014	08:03:02.558	$GPGGA,080311,2432.3672,N,08054.1795,W,1,8,1.7,18,M,,M,,*58
06/14/2014	08:03:03.476	$GPGGA,080312,2432.3669,N,08054.1800,W,1,8,2.9,18,M,,M,,*5F
06/14/2014	08:03:04.632	$GPGGA,080313,2432.3667,N,08054.1806,W,1,8,1.7,18,M,,M,,*5B
06/14/2014	08:03:05.643	$GPGGA,080314,2432.3664,N,08054.1810,W,1,8,1.7,18,M,,M,,*58
06/14/2014	08:03:06.675	$GPGGA,080315,2432.3661,N,08054.1817,W,1,8,1.7,18,M,,M,,*5B
06/14/2014	08:03:07.739	$GPGGA,080316,2432.3660,N,08054.1821,W,1,8,1.7,19,M,,M,,*5D
06/14/2014	08:03:08.771	$GPGGA,080317,2432.3657,N,08054.1825,W,1,8,1.7,19,M,,M,,*5C
06/14/2014	08:03:09.814	$GPGGA,080318,2432.3658,N,08054.1829,W,1,8,1.8,19,M,,M,,*5F
06/14/2014	08:03:10.846	$GPGGA,080319,2432.3657,N,08054.1832,W,1,8,1.7,19,M,,M,,*54
06/14/2014	08:03:11.909	$GPGGA,080320,2432.3658,N,08054.1836,W,1,8,1.7,19,M,,M,,*55
06/14/2014	08:03:12.941	$GPGGA,080321,2432.3657,N,08054.1842,W,1,8,1.7,19,M,,M,,*58
06/14/2014	08:03:13.967	$GPGGA,080322,2432.3653,N,08054.1846,W,1,8,1.7,19,M,,M,,*5B
06/14/2014	08:03:15.027	$GPGGA,080323,2432.3652,N,08054.1850,W,1,7,1.8,19,M,,M,,*5C
06/14/2014	08:03:16.060	$GPGGA,080324,2432.3652,N,08054.1853,W,1,7,1.7,19,M,,M,,*57
06/14/2014	08:03:17.101	$GPGGA,080325,2432.3651,N,08054.1857,W,1,8,1.7,19,M,,M,,*5E
06/14/2014	08:03:18.149	$GPGGA,080326,2432.3649,N,08054.1861,W,1,8,1.7,20,M,,M,,*5B
06/14/2014	08:03:19.187	$GPGGA,080327,2432.3649,N,08054.1864,W,1,8,1.7,20,M,,M,,*5F
06/14/2014	08:03:20.222	$GPGGA,080328,2432.3645,N,08054.1868,W,1,8,1.7,20,M,,M,,*50
06/14/2014	08:03:21.272	$GPGGA,080329,2432.3642,N,08054.1872,W,1,8,1.7,20,M,,M,,*5D
06/14/2014	08:03:22.295	$GPGGA,080330,2432.3642,N,08054.1878,W,1,8,1.7,20,M,,M,,*5F
06/14/2014	08:03:23.356	$GPGGA,080331,2432.3642,N,08054.1880,W,1,8,1.7,20,M,,M,,*59
06/14/2014	08:03:24.379	$GPGGA,080332,2432.3638,N,08054.1883,W,1,8,1.7,20,M,,M,,*54
06/14/2014	08:03:25.438	$GPGGA,080333,2432.3636,N,08054.1886,W,1,8,1.7,20,M,,M,,*5E
06/14/2014	08:03:26.454	$GPGGA,080334,2432.3635,N,08054.1890,W,1,8,1.8,20,M,,M,,*52
06/14/2014	08:03:27.518	$GPGGA,080335,2432.3638,N,08054.1893,W,1,8,1.7,20,M,,M,,*52
06/14/2014	08:03:28.538	$GPGGA,080336,2432.3638,N,08054.1897,W,1,8,2.9,20,M,,M,,*58
06/14/2014	08:03:29.595	$GPGGA,080337,2432.3636,N,08054.1900,W,1,7,2.9,20,M,,M,,*57
06/14/2014	08:03:30.623	$GPGGA,080338,2432.3635,N,08054.1905,W,1,7,1.7,20,M,,M,,*53
06/14/2014	08:03:31.645	$GPGGA,080339,2432.3634,N,08054.1909,W,1,8,1.7,20,M,,M,,*50
06/14/2014	08:03:32.708	$GPGGA,080340,2432.3634,N,08054.1911,W,1,8,1.8,20,M,,M,,*58
06/14/2014	08:03:33.755	$GPGGA,080341,2432.3633,N,08054.1911,W,1,7,2.9,20,M,,M,,*53
06/14/2014	08:03:34.772	$GPGGA,080342,2432.3631,N,08054.1919,W,1,7,2.9,20,M,,M,,*5A
06/14/2014	08:03:35.815	$GPGGA,080343,2432.3631,N,08054.1923,W,1,8,1.7,20,M,,M,,*50
06/14/2014	08:03:36.880	$GPGGA,080344,2432.3628,N,08054.1929,W,1,8,1.7,20,M,,M,,*55
06/14/2014	08:03:37.890	$GPGGA,080345,2432.3626,N,08054.1933,W,1,8,1.7,20,M,,M,,*51
06/14/2014	08:03:38.932	$GPGGA,080346,2432.3625,N,08054.1936,W,1,8,1.7,20,M,,M,,*54
06/14/2014	08:03:39.996	$GPGGA,080347,2432.3622,N,08054.1938,W,1,8,1.7,20,M,,M,,*5C
06/14/2014	08:03:41.017	$GPGGA,080348,2432.3620,N,08054.1940,W,1,8,1.8,20,M,,M,,*51
06/14/2014	08:03:39.495	$GPGGA,080349,2432.3617,N,08054.1944,W,1,7,2.9,20,M,,M,,*5D
06/14/2014	08:03:40.558	$GPGGA,080350,2432.3615,N,08054.1948,W,1,7,1.8,20,M,,M,,*59
06/14/2014	08:03:41.590	$GPGGA,080351,2432.3614,N,08054.1951,W,1,8,1.7,20,M,,M,,*51
06/14/2014	08:03:42.758	$GPGGA,080352,2432.3615,N,08054.1954,W,1,8,2.9,20,M,,M,,*5B
06/14/2014	08:03:43.665	$GPGGA,080353,2432.3613,N,08054.1956,W,1,7,2.9,20,M,,M,,*51
06/14/2014	08:03:44.802	$GPGGA,080354,2432.3611,N,08054.1960,W,1,7,1.7,20,M,,M,,*5C
06/14/2014	08:03:45.772	$GPGGA,080355,2432.3607,N,08054.1965,W,1,8,1.7,20,M,,M,,*50
06/14/2014	08:03:46.803	$GPGGA,080356,2432.3606,N,08054.1970,W,1,8,1.7,20,M,,M,,*56
06/14/2014	08:03:47.825	$GPGGA,080357,2432.3603,N,08054.1976,W,1,8,1.7,20,M,,M,,*54
06/14/2014	08:03:48.972	$GPGGA,080358,2432.3600,N,08054.1980,W,1,8,1.7,20,M,,M,,*51
06/14/2014	08:03:50.056	$GPGGA,080359,2432.3596,N,08054.1983,W,1,8,1.7,20,M,,M,,*5F
06/14/2014	08:03:51.068	$GPGGA,080400,2432.3597,N,08054.1987,W,1,8,1.7,20,M,,M,,*51
06/14/2014	08:03:53.227	$GPGGA,080402,2432.3591,N,08054.1994,W,1,8,1.7,20,M,,M,,*57
06/14/2014	08:03:54.168	$GPGGA,080403,2432.3588,N,08054.1998,W,1,8,1.7,20,M,,M,,*52
06/14/2014	08:03:55.228	$GPGGA,080404,2432.3584,N,08054.2002,W,1,8,1.7,20,M,,M,,*50
06/14/2014	08:03:56.291	$GPGGA,080405,2432.3584,N,08054.2005,W,1,8,1.7,20,M,,M,,*56
06/14/2014	08:03:57.287	$GPGGA,080406,2432.3581,N,08054.2008,W,1,8,2.9,20,M,,M,,*50
06/14/2014	08:03:58.354	$GPGGA,080407,2432.3578,N,08054.2010,W,1,7,2.9,20,M,,M,,*51
06/14/2014	08:03:59.386	$GPGGA,080408,2432.3574,N,08054.2014,W,1,7,1.7,20,M,,M,,*5B
06/14/2014	08:04:00.411	$GPGGA,080409,2432.3571,N,08054.2020,W,1,8,1.7,20,M,,M,,*57
06/14/2014	08:04:01.461	$GPGGA,080410,2432.3568,N,08054.2024,W,1,8,1.7,20,M,,M,,*53
06/14/2014	08:04:02.514	$GPGGA,080411,2432.3564,N,08054.2027,W,1,8,1.7,20,M,,M,,*5D
06/14/2014	08:04:03.557	$GPGGA,080412,2432.3561,N,08054.2031,W,1,8,1.7,20,M,,M,,*5C
06/14/2014	08:04:04.599	$GPGGA,080413,2432.3557,N,08054.2034,W,1,8,1.7,20,M,,M,,*5D
06/14/2014	08:04:05.635	$GPGGA,080414,2432.3558,N,08054.2038,W,1,8,1.8,20,M,,M,,*56
06/14/2014	08:04:06.674	$GPGGA,080415,2432.3555,N,08054.2039,W,1,8,1.7,21,M,,M,,*55
06/14/2014	08:04:07.705	$GPGGA,080416,2432.3550,N,08054.2041,W,1,8,2.9,21,M,,M,,*51
06/14/2014	08:04:08.723	$GPGGA,080417,2432.3546,N,08054.2045,W,1,8,1.7,20,M,,M,,*5F
06/14/2014	08:04:09.712	$GPGGA,080418,2432.3544,N,08054.2049,W,1,8,1.7,20,M,,M,,*5E
06/14/2014	08:04:10.754	$GPGGA,080419,2432.3540,N,08054.2056,W,1,8,1.7,20,M,,M,,*55
06/14/2014	08:04:11.757	$GPGGA,080420,2432.3537,N,08054.2061,W,1,8,1.7,20,M,,M,,*5B
06/14/2014	08:04:12.793	$GPGGA,080421,2432.3535,N,08054.2067,W,1,8,1.7,20,M,,M,,*5E
06/14/2014	08:04:13.769	$GPGGA,080422,2432.3532,N,08054.2071,W,1,8,1.7,20,M,,M,,*5D
06/14/2014	08:04:14.809	$GPGGA,080423,2432.3530,N,08054.2075,W,1,8,1.7,21,M,,M,,*5B
06/14/2014	08:04:15.812	$GPGGA,080424,2432.3528,N,08054.2078,W,1,8,1.7,21,M,,M,,*58
06/14/2014	08:04:16.840	$GPGGA,080425,2432.3526,N,08054.2084,W,1,6,2.9,21,M,,M,,*57
06/14/2014	08:04:17.836	$GPGGA,080426,2432.3522,N,08054.2088,W,1,6,1.8,21,M,,M,,*5E
06/14/2014	08:04:18.893	$GPGGA,080427,2432.3519,N,08054.2088,W,1,7,1.8,21,M,,M,,*56
06/14/2014	08:04:19.870	$GPGGA,080428,2432.3517,N,08054.2092,W,1,7,2.9,21,M,,M,,*5E
06/14/2014	08:04:20.920	$GPGGA,080429,2432.3519,N,08054.2097,W,1,6,2.9,21,M,,M,,*55
06/14/2014	08:04:21.893	$GPGGA,080430,2432.3515,N,08054.2102,W,1,6,1.7,21,M,,M,,*51
06/14/2014	08:04:22.921	$GPGGA,080431,2432.3512,N,08054.2104,W,1,8,1.7,21,M,,M,,*5F
06/14/2014	08:04:23.948	$GPGGA,080432,2432.3512,N,08054.2108,W,1,8,1.8,21,M,,M,,*5F
06/14/2014	08:04:24.954	$GPGGA,080433,2432.3512,N,08054.2113,W,1,8,1.7,21,M,,M,,*5B
06/14/2014	08:04:25.951	$GPGGA,080434,2432.3509,N,08054.2117,W,1,8,1.7,21,M,,M,,*52
06/14/2014	08:04:27.024	$GPGGA,080435,2432.3508,N,08054.2120,W,1,6,2.9,20,M,,M,,*54
06/14/2014	08:04:28.005	$GPGGA,080436,2432.3505,N,08054.2121,W,1,6,2.9,20,M,,M,,*5B
06/14/2014	08:04:28.991	$GPGGA,080437,2432.3502,N,08054.2125,W,1,7,1.8,20,M,,M,,*5A
06/14/2014	08:04:30.029	$GPGGA,080438,2432.3501,N,08054.2132,W,1,7,1.8,20,M,,M,,*50
06/14/2014	08:04:31.026	$GPGGA,080439,2432.3501,N,08054.2136,W,1,8,1.7,20,M,,M,,*55
06/14/2014	08:04:32.174	$GPGGA,080440,2432.3499,N,08054.2139,W,1,8,2.8,20,M,,M,,*58
06/14/2014	08:04:33.068	$GPGGA,080441,2432.3498,N,08054.2142,W,1,7,2.8,20,M,,M,,*5B
06/14/2014	08:04:34.166	$GPGGA,080442,2432.3500,N,08054.2146,W,1,7,2.8,20,M,,M,,*5C
06/14/2014	08:04:35.102	$GPGGA,080443,2432.3497,N,08054.2153,W,1,7,2.8,20,M,,M,,*56
06/14/2014	08:04:36.109	$GPGGA,080444,2432.3495,N,08054.2157,W,1,7,1.7,19,M,,M,,*51
06/14/2014	08:04:37.115	$GPGGA,080445,2432.3496,N,08054.2160,W,1,8,1.7,19,M,,M,,*58
06/14/2014	08:04:38.235	$GPGGA,080446,2432.3492,N,08054.2167,W,1,8,1.7,19,M,,M,,*58
06/14/2014	08:04:39.159	$GPGGA,080447,2432.3491,N,08054.2169,W,1,8,1.7,19,M,,M,,*54
06/14/2014	08:04:40.298	$GPGGA,080448,2432.3488,N,08054.2173,W,1,8,1.8,19,M,,M,,*57
06/14/2014	08:04:39.565	$GPGGA,080449,2432.3487,N,08054.2178,W,1,7,1.7,19,M,,M,,*52
06/14/2014	08:04:40.561	$GPGGA,080450,2432.3485,N,08054.2182,W,1,7,1.7,19,M,,M,,*5D
06/14/2014	08:04:41.487	$GPGGA,080451,2432.3483,N,08054.2183,W,1,8,1.7,19,M,,M,,*54
06/14/2014	08:04:42.615	$GPGGA,080452,2432.3483,N,08054.2187,W,1,8,2.8,19,M,,M,,*5F
06/14/2014	08:04:43.632	$GPGGA,080453,2432.3485,N,08054.2193,W,1,7,1.7,19,M,,M,,*5E
06/14/2014	08:04:44.629	$GPGGA,080454,2432.3483,N,08054.2196,W,1,7,1.7,19,M,,M,,*5A
06/14/2014	08:04:45.666	$GPGGA,080455,2432.3477,N,08054.2200,W,1,8,1.8,19,M,,M,,*5C
06/14/2014	08:04:46.673	$GPGGA,080456,2432.3474,N,08054.2205,W,1,8,1.8,19,M,,M,,*59
06/14/2014	08:04:47.690	$GPGGA,080457,2432.3472,N,08054.2211,W,1,7,1.7,19,M,,M,,*5B
06/14/2014	08:04:48.696	$GPGGA,080458,2432.3468,N,08054.2215,W,1,7,1.7,19,M,,M,,*5B
06/14/2014	08:04:49.723	$GPGGA,080459,2432.3465,N,08054.2218,W,1,8,1.8,19,M,,M,,*5A
06/14/2014	08:04:50.739	$GPGGA,080500,2432.3462,N,08054.2223,W,1,8,1.8,19,M,,M,,*58
06/14/2014	08:04:51.736	$GPGGA,080501,2432.3461,N,08054.2229,W,1,7,1.7,19,M,,M,,*50
06/14/2014	08:04:52.763	$GPGGA,080502,2432.3458,N,08054.2232,W,1,7,1.7,19,M,,M,,*53
06/14/2014	08:04:53.790	$GPGGA,080503,2432.3455,N,08054.2236,W,1,8,1.7,19,M,,M,,*54
06/14/2014	08:04:54.789	$GPGGA,080504,2432.3452,N,08054.2240,W,1,8,1.8,19,M,,M,,*5A
06/14/2014	08:04:55.814	$GPGGA,080505,2432.3454,N,08054.2245,W,1,7,1.7,19,M,,M,,*58
06/14/2014	08:04:56.821	$GPGGA,080506,2432.3452,N,08054.2249,W,1,7,1.7,19,M,,M,,*51
06/14/2014	08:04:57.858	$GPGGA,080507,2432.3448,N,08054.2254,W,1,8,1.8,19,M,,M,,*57
06/14/2014	08:04:58.854	$GPGGA,080508,2432.3447,N,08054.2258,W,1,8,1.7,19,M,,M,,*54
06/14/2014	08:04:59.881	$GPGGA,080509,2432.3447,N,08054.2263,W,1,8,1.7,19,M,,M,,*5D
06/14/2014	08:05:00.868	$GPGGA,080510,2432.3444,N,08054.2267,W,1,8,1.8,19,M,,M,,*5D
06/14/2014	08:05:01.915	$GPGGA,080511,2432.3440,N,08054.2270,W,1,7,1.8,19,M,,M,,*51
06/14/2014	08:05:02.913	$GPGGA,080512,2432.3437,N,08054.2274,W,1,7,1.7,19,M,,M,,*59
06/14/2014	08:05:03.939	$GPGGA,080513,2432.3438,N,08054.2280,W,1,8,1.7,19,M,,M,,*53
06/14/2014	08:05:04.950	$GPGGA,080514,2432.3436,N,08054.2284,W,1,8,1.7,19,M,,M,,*5E
06/14/2014	08:05:05.952	$GPGGA,080515,2432.3432,N,08054.2288,W,1,8,1.7,19,M,,M,,*57
06/14/2014	08:05:06.980	$GPGGA,080516,2432.3430,N,08054.2294,W,1,8,1.7,19,M,,M,,*5B
06/14/2014	08:05:07.975	$GPGGA,080517,2432.3429,N,08054.2296,W,1,8,2.9,19,M,,M,,*5D
06/14/2014	08:05:08.993	$GPGGA,080518,2432.3425,N,08054.2301,W,1,8,1.8,19,M,,M,,*53
06/14/2014	08:05:10.009	$GPGGA,080519,2432.3421,N,08054.2303,W,1,7,1.7,19,M,,M,,*54
06/14/2014	08:05:11.050	$GPGGA,080520,2432.3419,N,08054.2308,W,1,7,1.7,19,M,,M,,*5E
06/14/2014	08:05:12.064	$GPGGA,080521,2432.3418,N,08054.2312,W,1,8,1.7,19,M,,M,,*5A
06/14/2014	08:05:13.049	$GPGGA,080522,2432.3418,N,08054.2316,W,1,8,1.7,19,M,,M,,*5D
06/14/2014	08:05:14.077	$GPGGA,080523,2432.3414,N,08054.2320,W,1,8,1.7,19,M,,M,,*55
06/14/2014	08:05:15.093	$GPGGA,080524,2432.3411,N,08054.2324,W,1,8,1.7,19,M,,M,,*53
06/14/2014	08:05:16.080	$GPGGA,080525,2432.3411,N,08054.2330,W,1,8,1.7,19,M,,M,,*57
06/14/2014	08:05:17.127	$GPGGA,080526,2432.3408,N,08054.2332,W,1,8,1.7,19,M,,M,,*5E
06/14/2014	08:05:18.144	$GPGGA,080527,2432.3404,N,08054.2335,W,1,8,1.7,19,M,,M,,*54
06/14/2014	08:05:19.263	$GPGGA,080528,2432.3402,N,08054.2341,W,1,8,1.7,19,M,,M,,*5E
06/14/2014	08:05:20.157	$GPGGA,080529,2432.3400,N,08054.2345,W,1,8,1.7,19,M,,M,,*59
06/14/2014	08:05:21.276	$GPGGA,080530,2432.3397,N,08054.2349,W,1,8,1.7,19,M,,M,,*54
06/14/2014	08:05:22.181	$GPGGA,080531,2432.3394,N,08054.2353,W,1,8,1.7,19,M,,M,,*5D
06/14/2014	08:05:23.320	$GPGGA,080532,2432.3392,N,08054.2357,W,1,8,1.7,19,M,,M,,*5C
06/14/2014	08:05:24.224	$GPGGA,080533,2432.3390,N,08054.2361,W,1,8,1.7,19,M,,M,,*5A
06/14/2014	08:05:25.332	$GPGGA,080534,2432.3389,N,08054.2366,W,1,8,1.7,19,M,,M,,*52
06/14/2014	08:05:26.248	$GPGGA,080535,2432.3389,N,08054.2370,W,1,8,1.7,19,M,,M,,*54
06/14/2014	08:05:27.285	$GPGGA,080536,2432.3385,N,08054.2374,W,1,8,1.8,19,M,,M,,*50
06/14/2014	08:05:28.303	$GPGGA,080537,2432.3380,N,08054.2377,W,1,7,1.8,19,M,,M,,*58
06/14/2014	08:05:29.369	$GPGGA,080538,2432.3378,N,08054.2382,W,1,7,1.8,19,M,,M,,*5A
06/14/2014	08:05:30.427	$GPGGA,080539,2432.3375,N,08054.2386,W,1,7,1.8,19,M,,M,,*52
06/14/2014	08:05:31.444	$GPGGA,080540,2432.3373,N,08054.2389,W,1,7,2.8,19,M,,M,,*56
06/14/2014	08:05:32.420	$GPGGA,080541,2432.3369,N,08054.2395,W,1,7,1.7,18,M,,M,,*5C
06/14/2014	08:05:33.457	$GPGGA,080542,2432.3367,N,08054.2399,W,1,7,1.7,18,M,,M,,*5D
06/14/2014	08:05:34.474	$GPGGA,080543,2432.3367,N,08054.2404,W,1,7,1.8,18,M,,M,,*50
06/14/2014	08:05:35.481	$GPGGA,080544,2432.3362,N,08054.2410,W,1,7,1.7,18,M,,M,,*58
06/14/2014	08:05:36.478	$GPGGA,080545,2432.3360,N,08054.2415,W,1,8,1.7,18,M,,M,,*51
06/14/2014	08:05:37.495	$GPGGA,080546,2432.3360,N,08054.2418,W,1,8,1.7,18,M,,M,,*5F
06/14/2014	08:05:38.522	$GPGGA,080547,2432.3360,N,08054.2421,W,1,7,2.8,18,M,,M,,*57
06/14/2014	08:05:39.549	$GPGGA,080548,2432.3358,N,08054.2424,W,1,7,2.8,18,M,,M,,*56
06/14/2014	08:05:39.554	$GPGGA,080549,2432.3356,N,08054.2429,W,1,7,2.8,18,M,,M,,*54
06/14/2014	08:05:40.550	$GPGGA,080550,2432.3356,N,08054.2431,W,1,7,1.7,18,M,,M,,*59
06/14/2014	08:05:41.576	$GPGGA,080551,2432.3355,N,08054.2435,W,1,7,2.8,18,M,,M,,*53
06/14/2014	08:05:42.654	$GPGGA,080552,2432.3354,N,08054.2439,W,1,7,2.8,18,M,,M,,*5D
06/14/2014	08:05:43.610	$GPGGA,080553,2432.3353,N,08054.2442,W,1,7,2.8,18,M,,M,,*57
06/14/2014	08:05:44.608	$GPGGA,080554,2432.3351,N,08054.2446,W,1,7,2.8,18,M,,M,,*56
06/14/2014	08:05:45.644	$GPGGA,080555,2432.3349,N,08054.2449,W,1,8,1.7,18,M,,M,,*52
06/14/2014	08:05:46.640	$GPGGA,080556,2432.3352,N,08054.2453,W,1,8,2.9,18,M,,M,,*5D
06/14/2014	08:05:47.708	$GPGGA,080557,2432.3349,N,08054.2456,W,1,7,2.8,18,M,,M,,*5D
06/14/2014	08:05:48.674	$GPGGA,080558,2432.3349,N,08054.2460,W,1,7,2.9,17,M,,M,,*59
06/14/2014	08:05:49.701	$GPGGA,080559,2432.3349,N,08054.2464,W,1,8,1.7,17,M,,M,,*5E
06/14/2014	08:05:50.728	$GPGGA,080600,2432.3345,N,08054.2468,W,1,8,2.8,17,M,,M,,*5D
06/14/2014	08:05:51.704	$GPGGA,080601,2432.3344,N,08054.2472,W,1,7,1.8,17,M,,M,,*5A
06/14/2014	08:05:52.732	$GPGGA,080602,2432.3342,N,08054.2478,W,1,7,2.8,17,M,,M,,*56
06/14/2014	08:05:53.759	$GPGGA,080603,2432.3342,N,08054.2482,W,1,8,1.7,17,M,,M,,*51
06/14/2014	08:05:54.765	$GPGGA,080604,2432.3339,N,08054.2487,W,1,8,1.7,17,M,,M,,*5F
06/14/2014	08:05:55.798	$GPGGA,080605,2432.3338,N,08054.2490,W,1,8,1.7,17,M,,M,,*59
06/14/2014	08:05:56.789	$GPGGA,080606,2432.3335,N,08054.2500,W,1,8,2.8,17,M,,M,,*53
06/14/2014	08:05:57.808	$GPGGA,080607,2432.3332,N,08054.2507,W,1,8,1.7,17,M,,M,,*5E
06/14/2014	08:05:58.823	$GPGGA,080608,2432.3331,N,08054.2511,W,1,8,1.7,17,M,,M,,*55
06/14/2014	08:05:59.940	$GPGGA,080609,2432.3328,N,08054.2515,W,1,7,2.8,17,M,,M,,*5B
06/14/2014	08:06:00.835	$GPGGA,080610,2432.3326,N,08054.2518,W,1,7,1.7,17,M,,M,,*5C
06/14/2014	08:06:01.974	$GPGGA,080611,2432.3327,N,08054.2525,W,1,8,1.7,17,M,,M,,*5D
06/14/2014	08:06:02.889	$GPGGA,080612,2432.3325,N,08054.2529,W,1,8,1.7,17,M,,M,,*50
06/14/2014	08:06:03.876	$GPGGA,080613,2432.3322,N,08054.2533,W,1,8,1.7,17,M,,M,,*5D
06/14/2014	08:06:04.893	$GPGGA,080614,2432.3317,N,08054.2537,W,1,8,1.7,17,M,,M,,*58
06/14/2014	08:06:05.910	$GPGGA,080615,2432.3313,N,08054.2541,W,1,7,1.8,18,M,,M,,*53
06/14/2014	08:06:06.957	$GPGGA,080616,2432.3309,N,08054.2547,W,1,7,1.7,18,M,,M,,*52
06/14/2014	08:06:07.943	$GPGGA,080617,2432.3312,N,08054.2551,W,1,7,1.8,18,M,,M,,*51
06/14/2014	08:06:08.950	$GPGGA,080618,2432.3307,N,08054.2554,W,1,7,1.7,18,M,,M,,*50
06/14/2014	08:06:10.120	$GPGGA,080619,2432.3306,N,08054.2558,W,1,7,1.8,18,M,,M,,*53
06/14/2014	08:06:11.004	$GPGGA,080620,2432.3306,N,08054.2561,W,1,7,1.7,18,M,,M,,*5C
06/14/2014	08:06:12.143	$GPGGA,080621,2432.3304,N,08054.2566,W,1,8,1.7,18,M,,M,,*57
06/14/2014	08:06:13.115	$GPGGA,080622,2432.3302,N,08054.2570,W,1,8,1.7,18,M,,M,,*55
06/14/2014	08:06:14.035	$GPGGA,080623,2432.3302,N,08054.2576,W,1,8,1.7,18,M,,M,,*52
06/14/2014	08:06:15.163	$GPGGA,080624,2432.3300,N,08054.2579,W,1,8,1.7,18,M,,M,,*58
06/14/2014	08:06:16.062	$GPGGA,080625,2432.3295,N,08054.2583,W,1,8,1.7,18,M,,M,,*51
06/14/2014	08:06:17.176	$GPGGA,080626,2432.3290,N,08054.2587,W,1,8,1.8,18,M,,M,,*5C
06/14/2014	08:06:18.193	$GPGGA,080627,2432.3288,N,08054.2590,W,1,8,1.7,19,M,,M,,*5C
06/14/2014	08:06:19.220	$GPGGA,080628,2432.3285,N,08054.2594,W,1,8,1.7,19,M,,M,,*5A
06/14/2014	08:06:20.216	$GPGGA,080629,2432.3281,N,08054.2599,W,1,8,1.7,19,M,,M,,*52
06/14/2014	08:06:21.243	$GPGGA,080630,2432.3283,N,08054.2603,W,1,8,1.8,19,M,,M,,*57
06/14/2014	08:06:22.270	$GPGGA,080631,2432.3280,N,08054.2608,W,1,8,1.7,19,M,,M,,*51
06/14/2014	08:06:23.277	$GPGGA,080632,2432.3278,N,08054.2612,W,1,8,1.7,19,M,,M,,*5E
06/14/2014	08:06:24.294	$GPGGA,080633,2432.3277,N,08054.2615,W,1,8,1.7,19,M,,M,,*57
06/14/2014	08:06:25.301	$GPGGA,080634,2432.3275,N,08054.2619,W,1,8,1.7,19,M,,M,,*5E
06/14/2014	08:06:26.328	$GPGGA,080635,2432.3274,N,08054.2623,W,1,8,1.7,19,M,,M,,*57
06/14/2014	08:06:27.335	$GPGGA,080636,2432.3273,N,08054.2627,W,1,8,1.7,19,M,,M,,*57
06/14/2014	08:06:28.362	$GPGGA,080637,2432.3270,N,08054.2631,W,1,8,1.7,19,M,,M,,*52
06/14/2014	08:06:29.358	$GPGGA,080638,2432.3268,N,08054.2635,W,1,8,1.7,19,M,,M,,*50
06/14/2014	08:06:30.396	$GPGGA,080639,2432.3266,N,08054.2641,W,1,8,1.7,19,M,,M,,*5C
06/14/2014	08:06:31.392	$GPGGA,080640,2432.3264,N,08054.2645,W,1,8,1.7,19,M,,M,,*54
06/14/2014	08:06:32.409	$GPGGA,080641,2432.3263,N,08054.2648,W,1,8,1.7,19,M,,M,,*5F
06/14/2014	08:06:33.418	$GPGGA,080642,2432.3259,N,08054.2652,W,1,8,1.7,19,M,,M,,*5E
06/14/2014	08:06:34.462	$GPGGA,080643,2432.3255,N,08054.2656,W,1,7,1.8,19,M,,M,,*57
06/14/2014	08:06:35.459	$GPGGA,080644,2432.3252,N,08054.2662,W,1,7,1.8,19,M,,M,,*50
06/14/2014	08:06:36.455	$GPGGA,080645,2432.3254,N,08054.2666,W,1,8,1.7,19,M,,M,,*53
06/14/2014	08:06:37.482	$GPGGA,080646,2432.3249,N,08054.2670,W,1,8,2.8,19,M,,M,,*57
06/14/2014	08:06:38.520	$GPGGA,080647,2432.3248,N,08054.2671,W,1,8,1.7,19,M,,M,,*5A
06/14/2014	08:06:39.526	$GPGGA,080648,2432.3248,N,08054.2675,W,1,8,1.7,19,M,,M,,*51
06/14/2014	08:06:39.552	$GPGGA,080649,2432.3248,N,08054.2680,W,1,8,1.7,19,M,,M,,*5A
06/14/2014	08:06:40.518	$GPGGA,080650,2432.3244,N,08054.2681,W,1,8,2.8,19,M,,M,,*53
06/14/2014	08:06:41.565	$GPGGA,080651,2432.3241,N,08054.2684,W,1,8,1.7,19,M,,M,,*5E
06/14/2014	08:06:42.562	$GPGGA,080652,2432.3239,N,08054.2689,W,1,8,1.8,19,M,,M,,*50
06/14/2014	08:06:43.578	$GPGGA,080653,2432.3238,N,08054.2695,W,1,8,1.7,19,M,,M,,*52
06/14/2014	08:06:44.585	$GPGGA,080654,2432.3235,N,08054.2699,W,1,8,1.7,19,M,,M,,*54
06/14/2014	08:06:45.633	$GPGGA,080655,2432.3233,N,08054.2702,W,1,8,1.7,19,M,,M,,*50
06/14/2014	08:06:46.619	$GPGGA,080656,2432.3230,N,08054.2707,W,1,8,1.7,19,M,,M,,*55
06/14/2014	08:06:47.626	$GPGGA,080657,2432.3226,N,08054.2711,W,1,8,1.7,19,M,,M,,*54
06/14/2014	08:06:48.755	$GPGGA,080658,2432.3228,N,08054.2715,W,1,8,1.8,19,M,,M,,*5E
06/14/2014	08:06:49.649	$GPGGA,080659,2432.3226,N,08054.2720,W,1,8,1.7,19,M,,M,,*58
06/14/2014	08:06:50.810	$GPGGA,080700,2432.3224,N,08054.2724,W,1,8,1.7,19,M,,M,,*53
06/14/2014	08:06:51.682	$GPGGA,080701,2432.3223,N,08054.2728,W,1,8,1.7,19,M,,M,,*59
06/14/2014	08:06:52.699	$GPGGA,080702,2432.3219,N,08054.2732,W,1,8,1.7,19,M,,M,,*58
06/14/2014	08:06:53.849	$GPGGA,080703,2432.3216,N,08054.2736,W,1,7,1.8,19,M,,M,,*52
06/14/2014	08:06:54.855	$GPGGA,080704,2432.3214,N,08054.2740,W,1,7,1.7,19,M,,M,,*59
06/14/2014	08:06:55.740	$GPGGA,080705,2432.3212,N,08054.2745,W,1,8,1.7,19,M,,M,,*54
06/14/2014	08:06:56.858	$GPGGA,080706,2432.3209,N,08054.2749,W,1,8,1.7,19,M,,M,,*51
06/14/2014	08:06:57.875	$GPGGA,080707,2432.3208,N,08054.2753,W,1,8,1.7,19,M,,M,,*5A
06/14/2014	08:06:58.790	$GPGGA,080708,2432.3205,N,08054.2757,W,1,8,1.7,19,M,,M,,*5C
06/14/2014	08:06:59.807	$GPGGA,080709,2432.3201,N,08054.2760,W,1,7,1.8,19,M,,M,,*5D
06/14/2014	08:07:00.916	$GPGGA,080710,2432.3199,N,08054.2764,W,1,7,1.7,19,M,,M,,*5C
06/14/2014	08:07:01.963	$GPGGA,080711,2432.3197,N,08054.2768,W,1,8,1.7,19,M,,M,,*50
06/14/2014	08:07:02.949	$GPGGA,080712,2432.3195,N,08054.2772,W,1,8,1.7,19,M,,M,,*5A
06/14/2014	08:07:03.966	$GPGGA,080713,2432.3191,N,08054.2776,W,1,8,1.7,19,M,,M,,*5B
06/14/2014	08:07:04.973	$GPGGA,080714,2432.3190,N,08054.2782,W,1,8,1.7,19,M,,M,,*56
06/14/2014	08:07:05.990	$GPGGA,080715,2432.3186,N,08054.2786,W,1,8,1.7,19,M,,M,,*54
06/14/2014	08:07:07.027	$GPGGA,080716,2432.3184,N,08054.2790,W,1,8,1.8,19,M,,M,,*5D
06/14/2014	08:07:08.034	$GPGGA,080717,2432.3185,N,08054.2793,W,1,8,1.7,19,M,,M,,*51
06/14/2014	08:07:09.040	$GPGGA,080718,2432.3186,N,08054.2797,W,1,8,1.7,19,M,,M,,*59
06/14/2014	08:07:10.066	$GPGGA,080719,2432.3183,N,08054.2801,W,1,8,1.7,19,M,,M,,*5D
06/14/2014	08:07:11.079	$GPGGA,080720,2432.3178,N,08054.2807,W,1,8,1.8,19,M,,M,,*5A
06/14/2014	08:07:12.107	$GPGGA,080721,2432.3176,N,08054.2811,W,1,7,1.8,19,M,,M,,*5D
06/14/2014	08:07:13.107	$GPGGA,080722,2432.3174,N,08054.2815,W,1,7,1.7,19,M,,M,,*57
06/14/2014	08:07:14.111	$GPGGA,080723,2432.3172,N,08054.2819,W,1,8,1.5,19,M,,M,,*51
06/14/2014	08:07:15.135	$GPGGA,080724,2432.3172,N,08054.2823,W,1,8,1.5,19,M,,M,,*5F
06/14/2014	08:07:16.148	$GPGGA,080725,2432.3168,N,08054.2827,W,1,8,1.5,19,M,,M,,*51
06/14/2014	08:07:17.161	$GPGGA,080726,2432.3165,N,08054.2832,W,1,8,1.7,19,M,,M,,*59
06/14/2014	08:07:18.192	$GPGGA,080727,2432.3165,N,08054.2836,W,1,7,1.7,19,M,,M,,*53
06/14/2014	08:07:19.197	$GPGGA,080728,2432.3163,N,08054.2840,W,1,7,1.5,19,M,,M,,*59
06/14/2014	08:07:20.236	$GPGGA,080729,2432.3161,N,08054.2845,W,1,8,1.5,20,M,,M,,*5A
06/14/2014	08:07:21.214	$GPGGA,080730,2432.3159,N,08054.2850,W,1,8,1.5,20,M,,M,,*5D
06/14/2014	08:07:22.236	$GPGGA,080731,2432.3156,N,08054.2852,W,1,8,1.5,20,M,,M,,*51
06/14/2014	08:07:23.248	$GPGGA,080732,2432.3155,N,08054.2854,W,1,8,2.3,20,M,,M,,*52
06/14/2014	08:07:24.252	$GPGGA,080733,2432.3154,N,08054.2858,W,1,6,2.3,20,M,,M,,*50
06/14/2014	08:07:25.269	$GPGGA,080734,2432.3149,N,08054.2865,W,1,6,2.2,20,M,,M,,*54
06/14/2014	08:07:26.326	$GPGGA,080735,2432.3147,N,08054.2870,W,1,7,1.7,20,M,,M,,*58
06/14/2014	08:07:27.312	$GPGGA,080736,2432.3147,N,08054.2876,W,1,7,1.7,20,M,,M,,*5D
06/14/2014	08:07:28.349	$GPGGA,080737,2432.3147,N,08054.2880,W,1,8,1.5,20,M,,M,,*58
06/14/2014	08:07:29.326	$GPGGA,080738,2432.3147,N,08054.2883,W,1,8,2.2,20,M,,M,,*50
06/14/2014	08:07:30.475	$GPGGA,080739,2432.3145,N,08054.2888,W,1,7,1.5,20,M,,M,,*53
06/14/2014	08:07:31.370	$GPGGA,080740,2432.3146,N,08054.2892,W,1,7,1.5,20,M,,M,,*55
06/14/2014	08:07:32.407	$GPGGA,080741,2432.3145,N,08054.2897,W,1,8,1.5,20,M,,M,,*5D
06/14/2014	08:07:33.403	$GPGGA,080742,2432.3143,N,08054.2902,W,1,8,2.2,20,M,,M,,*51
06/14/2014	08:07:34.421	$GPGGA,080743,2432.3140,N,08054.2908,W,1,8,1.5,20,M,,M,,*5D
06/14/2014	08:07:35.427	$GPGGA,080744,2432.3139,N,08054.2913,W,1,8,1.5,20,M,,M,,*5E
06/14/2014	08:07:36.567	$GPGGA,080745,2432.3137,N,08054.2919,W,1,8,1.5,21,M,,M,,*5A
06/14/2014	08:07:37.441	$GPGGA,080746,2432.3136,N,08054.2923,W,1,8,1.5,21,M,,M,,*51
06/14/2014	08:07:38.457	$GPGGA,080747,2432.3134,N,08054.2926,W,1,9,1.5,21,M,,M,,*56
06/14/2014	08:07:39.505	$GPGGA,080748,2432.3135,N,08054.2927,W,1,9,2.2,21,M,,M,,*5D
06/14/2014	08:07:39.631	$GPGGA,080749,2432.3131,N,08054.2930,W,1,9,1.7,21,M,,M,,*58
06/14/2014	08:07:40.485	$GPGGA,080750,2432.3126,N,08054.2934,W,1,9,1.7,21,M,,M,,*52
06/14/2014	08:07:41.665	$GPGGA,080751,2432.3127,N,08054.2941,W,1,8,1.5,21,M,,M,,*53
06/14/2014	08:07:42.529	$GPGGA,080752,2432.3129,N,08054.2945,W,1,8,1.5,21,M,,M,,*5A
06/14/2014	08:07:43.697	$GPGGA,080753,2432.3127,N,08054.2951,W,1,9,1.5,21,M,,M,,*51
06/14/2014	08:07:44.653	$GPGGA,080754,2432.3126,N,08054.2955,W,1,9,1.5,21,M,,M,,*53
06/14/2014	08:07:45.692	$GPGGA,080755,2432.3125,N,08054.2959,W,1,9,2.2,21,M,,M,,*59
06/14/2014	08:07:46.779	$GPGGA,080756,2432.3125,N,08054.2966,W,1,9,1.5,21,M,,M,,*52
06/14/2014	08:07:47.745	$GPGGA,080757,2432.3123,N,08054.2970,W,1,9,1.5,21,M,,M,,*52
06/14/2014	08:07:48.711	$GPGGA,080758,2432.3121,N,08054.2973,W,1,9,1.5,21,M,,M,,*5C
06/14/2014	08:07:49.778	$GPGGA,080759,2432.3116,N,08054.2975,W,1,9,1.5,21,M,,M,,*5F
06/14/2014	08:07:50.765	$GPGGA,080800,2432.3114,N,08054.2980,W,1,9,1.7,21,M,,M,,*56
06/14/2014	08:07:51.782	$GPGGA,080801,2432.3112,N,08054.2984,W,1,9,2.2,21,M,,M,,*53
06/14/2014	08:07:52.768	$GPGGA,080802,2432.3108,N,08054.2986,W,1,9,2.2,21,M,,M,,*59
06/14/2014	08:07:53.826	$GPGGA,080803,2432.3105,N,08054.2991,W,1,7,1.5,21,M,,M,,*59
06/14/2014	08:07:54.893	$GPGGA,080804,2432.3107,N,08054.2995,W,1,7,1.5,21,M,,M,,*58
06/14/2014	08:07:55.870	$GPGGA,080805,2432.3103,N,08054.2999,W,1,9,1.5,21,M,,M,,*5F
06/14/2014	08:07:56.898	$GPGGA,080806,2432.3100,N,08054.3002,W,1,9,1.7,21,M,,M,,*57
06/14/2014	08:07:57.883	$GPGGA,080807,2432.3098,N,08054.3004,W,1,8,2.1,21,M,,M,,*54
06/14/2014	08:07:58.950	$GPGGA,080808,2432.3096,N,08054.3009,W,1,8,2.1,21,M,,M,,*58
06/14/2014	08:07:59.917	$GPGGA,080809,2432.3092,N,08054.3013,W,1,8,2.1,21,M,,M,,*56
06/14/2014	08:08:00.892	$GPGGA,080810,2432.3089,N,08054.3018,W,1,8,1.5,21,M,,M,,*58
06/14/2014	08:08:01.960	$GPGGA,080811,2432.3085,N,08054.3021,W,1,9,1.5,21,M,,M,,*5E
06/14/2014	08:08:03.007	$GPGGA,080812,2432.3083,N,08054.3025,W,1,9,1.5,21,M,,M,,*5F
06/14/2014	08:08:03.973	$GPGGA,080813,2432.3082,N,08054.3029,W,1,9,1.5,21,M,,M,,*53
06/14/2014	08:08:05.000	$GPGGA,080814,2432.3079,N,08054.3033,W,1,9,1.5,21,M,,M,,*5B
06/14/2014	08:08:06.007	$GPGGA,080815,2432.3075,N,08054.3038,W,1,9,1.5,21,M,,M,,*5D
06/14/2014	08:08:07.065	$GPGGA,080816,2432.3071,N,08054.3042,W,1,9,1.5,21,M,,M,,*57
06/14/2014	08:08:08.031	$GPGGA,080817,2432.3069,N,08054.3047,W,1,9,1.5,21,M,,M,,*5A
06/14/2014	08:08:08.997	$GPGGA,080818,2432.3065,N,08054.3053,W,1,9,1.7,21,M,,M,,*5E
06/14/2014	08:08:10.075	$GPGGA,080819,2432.3064,N,08054.3056,W,1,8,1.5,20,M,,M,,*59
06/14/2014	08:08:11.043	$GPGGA,080820,2432.3064,N,08054.3061,W,1,8,1.5,20,M,,M,,*57
06/14/2014	08:08:12.084	$GPGGA,080821,2432.3064,N,08054.3065,W,1,9,1.5,20,M,,M,,*53
06/14/2014	08:08:13.064	$GPGGA,080822,2432.3060,N,08054.3069,W,1,9,1.5,20,M,,M,,*58
06/14/2014	08:08:14.139	$GPGGA,080823,2432.3057,N,08054.3074,W,1,9,1.5,20,M,,M,,*51
06/14/2014	08:08:15.169	$GPGGA,080824,2432.3056,N,08054.3078,W,1,9,1.7,20,M,,M,,*59
06/14/2014	08:08:16.106	$GPGGA,080825,2432.3056,N,08054.3083,W,1,9,1.5,20,M,,M,,*5E
06/14/2014	08:08:17.193	$GPGGA,080826,2432.3055,N,08054.3087,W,1,9,1.5,20,M,,M,,*5A
06/14/2014	08:08:18.179	$GPGGA,080827,2432.3053,N,08054.3092,W,1,9,1.5,20,M,,M,,*59
06/14/2014	08:08:19.236	$GPGGA,080828,2432.3050,N,08054.3096,W,1,9,1.5,20,M,,M,,*51
06/14/2014	08:08:20.161	$GPGGA,080829,2432.3047,N,08054.3101,W,1,8,1.7,20,M,,M,,*5A
06/14/2014	08:08:21.249	$GPGGA,080830,2432.3049,N,08054.3105,W,1,8,1.7,20,M,,M,,*58
06/14/2014	08:08:22.317	$GPGGA,080831,2432.3047,N,08054.3111,W,1,9,1.5,20,M,,M,,*51
06/14/2014	08:08:23.293	$GPGGA,080832,2432.3046,N,08054.3115,W,1,9,1.5,20,M,,M,,*57
06/14/2014	08:08:24.341	$GPGGA,080833,2432.3043,N,08054.3121,W,1,9,1.5,20,M,,M,,*54
06/14/2014	08:08:25.307	$GPGGA,080834,2432.3039,N,08054.3125,W,1,9,1.7,20,M,,M,,*58
06/14/2014	08:08:26.294	$GPGGA,080835,2432.3035,N,08054.3130,W,1,8,1.7,20,M,,M,,*50
06/14/2014	08:08:27.351	$GPGGA,080836,2432.3035,N,08054.3136,W,1,8,1.7,20,M,,M,,*55
06/14/2014	08:08:28.328	$GPGGA,080837,2432.3033,N,08054.3139,W,1,9,2.1,20,M,,M,,*59
06/14/2014	08:08:29.354	$GPGGA,080838,2432.3032,N,08054.3141,W,1,9,1.5,20,M,,M,,*5F
06/14/2014	08:08:30.361	$GPGGA,080839,2432.3031,N,08054.3147,W,1,9,1.5,19,M,,M,,*51
06/14/2014	08:08:31.337	$GPGGA,080840,2432.3031,N,08054.3151,W,1,9,1.5,19,M,,M,,*58
06/14/2014	08:08:32.344	$GPGGA,080841,2432.3025,N,08054.3157,W,1,9,1.5,19,M,,M,,*5A
06/14/2014	08:08:33.422	$GPGGA,080842,2432.3024,N,08054.3161,W,1,9,1.5,19,M,,M,,*5D
06/14/2014	08:08:34.500	$GPGGA,080843,2432.3021,N,08054.3166,W,1,9,1.5,19,M,,M,,*5E
06/14/2014	08:08:35.469	$GPGGA,080844,2432.3018,N,08054.3172,W,1,9,1.5,19,M,,M,,*56
06/14/2014	08:08:36.502	$GPGGA,080845,2432.3017,N,08054.3177,W,1,9,1.5,19,M,,M,,*5D
06/14/2014	08:08:37.529	$GPGGA,080846,2432.3013,N,08054.3183,W,1,9,1.7,19,M,,M,,*53
06/14/2014	08:08:38.502	$GPGGA,080847,2432.3011,N,08054.3186,W,1,8,1.7,19,M,,M,,*54
06/14/2014	08:08:39.573	$GPGGA,080848,2432.3012,N,08054.3193,W,1,8,1.5,19,M,,M,,*5E
06/14/2014	08:08:39.588	$GPGGA,080849,2432.3011,N,08054.3198,W,1,9,1.5,19,M,,M,,*56
06/14/2014	08:08:40.564	$GPGGA,080850,2432.3009,N,08054.3202,W,1,9,1.5,19,M,,M,,*57
06/14/2014	08:08:41.602	$GPGGA,080851,2432.3006,N,08054.3205,W,1,9,2.1,19,M,,M,,*59
06/14/2014	08:08:42.618	$GPGGA,080852,2432.3004,N,08054.3210,W,1,9,1.5,19,M,,M,,*5B
06/14/2014	08:08:43.635	$GPGGA,080853,2432.3002,N,08054.3215,W,1,9,1.5,19,M,,M,,*59
06/14/2014	08:08:44.632	$GPGGA,080854,2432.2999,N,08054.3219,W,1,9,1.5,19,M,,M,,*58
06/14/2014	08:08:45.660	$GPGGA,080855,2432.2999,N,08054.3223,W,1,9,1.5,19,M,,M,,*50
06/14/2014	08:08:46.706	$GPGGA,080856,2432.2995,N,08054.3226,W,1,9,1.5,19,M,,M,,*5A
06/14/2014	08:08:47.693	$GPGGA,080857,2432.2993,N,08054.3231,W,1,9,1.5,19,M,,M,,*5B
06/14/2014	08:08:48.710	$GPGGA,080858,2432.2991,N,08054.3237,W,1,9,1.5,18,M,,M,,*51
06/14/2014	08:08:49.748	$GPGGA,080859,2432.2989,N,08054.3241,W,1,9,1.5,18,M,,M,,*58
06/14/2014	08:08:50.755	$GPGGA,080900,2432.2986,N,08054.3244,W,1,9,1.5,18,M,,M,,*5F
06/14/2014	08:08:51.730	$GPGGA,080901,2432.2984,N,08054.3248,W,1,9,1.5,18,M,,M,,*50
06/14/2014	08:08:52.747	$GPGGA,080902,2432.2984,N,08054.3248,W,1,9,1.5,18,M,,M,,*53
06/14/2014	08:08:53.763	$GPGGA,080903,2432.2980,N,08054.3258,W,1,9,1.5,18,M,,M,,*57
06/14/2014	08:08:54.811	$GPGGA,080904,2432.2977,N,08054.3262,W,1,9,1.5,18,M,,M,,*51
06/14/2014	08:08:55.837	$GPGGA,080905,2432.2975,N,08054.3266,W,1,9,1.7,18,M,,M,,*54
06/14/2014	08:08:56.824	$GPGGA,080906,2432.2976,N,08054.3270,W,1,9,1.5,18,M,,M,,*51
06/14/2014	08:08:57.851	$GPGGA,080907,2432.2972,N,08054.3273,W,1,9,1.7,18,M,,M,,*55
06/14/2014	08:08:58.845	$GPGGA,080908,2432.2972,N,08054.3273,W,1,9,1.7,18,M,,M,,*5A
06/14/2014	08:08:59.884	$GPGGA,080909,2432.2972,N,08054.3281,W,1,9,1.5,17,M,,M,,*5B
06/14/2014	08:09:00.882	$GPGGA,080910,2432.2972,N,08054.3281,W,1,9,1.5,17,M,,M,,*53
06/14/2014	08:09:01.908	$GPGGA,080911,2432.2970,N,08054.3291,W,1,9,1.5,17,M,,M,,*51
06/14/2014	08:09:02.907	$GPGGA,080912,2432.2970,N,08054.3291,W,1,9,1.5,17,M,,M,,*52
06/14/2014	08:09:03.911	$GPGGA,080913,2432.2970,N,08054.3299,W,1,8,1.7,17,M,,M,,*58
06/14/2014	08:09:04.939	$GPGGA,080914,2432.2970,N,08054.3299,W,1,8,1.7,17,M,,M,,*5F
06/14/2014	08:09:05.935	$GPGGA,080915,2432.2961,N,08054.3306,W,1,8,1.7,17,M,,M,,*59
06/14/2014	08:09:07.010	$GPGGA,080916,2432.2961,N,08054.3306,W,1,8,1.7,17,M,,M,,*5A
06/14/2014	08:09:07.957	$GPGGA,080917,2432.2956,N,08054.3313,W,1,9,2.7,17,M,,M,,*59
06/14/2014	08:09:08.995	$GPGGA,080918,2432.2953,N,08054.3316,W,1,9,2.1,17,M,,M,,*50
06/14/2014	08:09:09.994	$GPGGA,080919,2432.2950,N,08054.3321,W,1,8,2.1,17,M,,M,,*57
06/14/2014	08:09:10.989	$GPGGA,080920,2432.2946,N,08054.3325,W,1,8,2.3,17,M,,M,,*5C
06/14/2014	08:09:12.088	$GPGGA,080921,2432.2944,N,08054.3331,W,1,8,1.7,17,M,,M,,*5D
06/14/2014	08:09:13.085	$GPGGA,080922,2432.2944,N,08054.3338,W,1,8,1.5,17,M,,M,,*55
06/14/2014	08:09:14.083	$GPGGA,080923,2432.2941,N,08054.3342,W,1,9,1.5,17,M,,M,,*5D
06/14/2014	08:09:15.000	$GPGGA,080924,2432.2941,N,08054.3342,W,1,9,1.7,17,M,,M,,*58
06/14/2014	08:09:16.008	$GPGGA,080925,2432.2935,N,08054.3350,W,1,9,1.7,17,M,,M,,*59
06/14/2014	08:09:17.096	$GPGGA,080926,2432.2937,N,08054.3357,W,1,9,1.7,17,M,,M,,*5F
06/14/2014	08:09:18.013	$GPGGA,080927,2432.2935,N,08054.3363,W,1,9,1.5,17,M,,M,,*59
06/14/2014	08:09:19.152	$GPGGA,080928,2432.2934,N,08054.3367,W,1,9,1.5,17,M,,M,,*53
06/14/2014	08:09:20.038	$GPGGA,080929,2432.2932,N,08054.3371,W,1,8,1.7,17,M,,M,,*50
06/14/2014	08:09:21.026	$GPGGA,080930,2432.2932,N,08054.3371,W,1,8,1.7,17,M,,M,,*58
06/14/2014	08:09:22.176	$GPGGA,080931,2432.2930,N,08054.3378,W,1,7,2.3,18,M,,M,,*55
06/14/2014	08:09:23.162	$GPGGA,080932,2432.2928,N,08054.3382,W,1,7,1.5,18,M,,M,,*5F
06/14/2014	08:09:24.180	$GPGGA,080933,2432.2926,N,08054.3387,W,1,9,1.5,18,M,,M,,*5B
06/14/2014	08:09:25.057	$GPGGA,080934,2432.2926,N,08054.3387,W,1,9,1.5,18,M,,M,,*5C
06/14/2014	08:09:26.165	$GPGGA,080935,2432.2920,N,08054.3396,W,1,9,1.5,18,M,,M,,*5B
06/14/2014	08:09:27.183	$GPGGA,080936,2432.2917,N,08054.3400,W,1,9,1.5,18,M,,M,,*54
06/14/2014	08:09:28.201	$GPGGA,080937,2432.2916,N,08054.3404,W,1,9,1.5,18,M,,M,,*50
06/14/2014	08:09:29.167	$GPGGA,080938,2432.2913,N,08054.3408,W,1,9,1.5,18,M,,M,,*56
06/14/2014	08:09:30.175	$GPGGA,080939,2432.2912,N,08054.3412,W,1,9,1.5,18,M,,M,,*5D
06/14/2014	08:09:31.203	$GPGGA,080940,2432.2908,N,08054.3417,W,1,9,1.5,19,M,,M,,*5C
06/14/2014	08:09:32.190	$GPGGA,080941,2432.2906,N,08054.3421,W,1,9,1.5,19,M,,M,,*56
06/14/2014	08:09:33.208	$GPGGA,080942,2432.2905,N,08054.3426,W,1,9,2.1,19,M,,M,,*56
06/14/2014	08:09:34.195	$GPGGA,080943,2432.2903,N,08054.3430,W,1,8,2.1,19,M,,M,,*57
06/14/2014	08:09:35.213	$GPGGA,080944,2432.2899,N,08054.3437,W,1,8,1.5,19,M,,M,,*52
06/14/2014	08:09:36.231	$GPGGA,080945,2432.2898,N,08054.3443,W,1,9,1.5,19,M,,M,,*50
06/14/2014	08:09:37.219	$GPGGA,080946,2432.2897,N,08054.3447,W,1,9,1.5,19,M,,M,,*58
06/14/2014	08:09:38.219	$GPGGA,080947,2432.2895,N,08054.3450,W,1,8,2.1,19,M,,M,,*5B
06/14/2014	08:09:39.244	$GPGGA,080948,2432.2894,N,08054.3455,W,1,8,2.1,19,M,,M,,*50
06/14/2014	08:09:39.558	$GPGGA,080949,2432.2891,N,08054.3459,W,1,9,1.5,19,M,,M,,*5E
06/14/2014	08:09:40.525	$GPGGA,080950,2432.2890,N,08054.3465,W,1,9,2.1,19,M,,M,,*5F
06/14/2014	08:09:41.543	$GPGGA,080951,2432.2889,N,08054.3468,W,1,8,2.1,19,M,,M,,*5A
06/14/2014	08:09:42.551	$GPGGA,080952,2432.2885,N,08054.3475,W,1,8,1.5,19,M,,M,,*5E
06/14/2014	08:09:43.579	$GPGGA,080953,2432.2881,N,08054.3484,W,1,9,1.5,19,M,,M,,*54
06/14/2014	08:09:44.548	$GPGGA,080954,2432.2882,N,08054.3488,W,1,9,1.7,19,M,,M,,*5E
06/14/2014	08:09:45.583	$GPGGA,080955,2432.2880,N,08054.3493,W,1,8,2.1,19,M,,M,,*53
06/14/2014	08:09:46.572	$GPGGA,080956,2432.2879,N,08054.3495,W,1,8,2.1,19,M,,M,,*50
06/14/2014	08:09:47.571	$GPGGA,080957,2432.2876,N,08054.3504,W,1,8,2.1,19,M,,M,,*57
06/14/2014	08:09:48.578	$GPGGA,080958,2432.2876,N,08054.3512,W,1,8,1.5,19,M,,M,,*58
06/14/2014	08:09:49.604	$GPGGA,080959,2432.2874,N,08054.3515,W,1,9,1.5,19,M,,M,,*5D
06/14/2014	08:09:50.611	$GPGGA,081000,2432.2872,N,08054.3520,W,1,9,2.1,20,M,,M,,*54
06/14/2014	08:09:51.619	$GPGGA,081001,2432.2872,N,08054.3524,W,1,9,1.5,20,M,,M,,*56
06/14/2014	08:09:52.587	$GPGGA,081002,2432.2872,N,08054.3529,W,1,9,2.1,20,M,,M,,*5F
06/14/2014	08:09:53.604	$GPGGA,081003,2432.2867,N,08054.3531,W,1,8,2.1,20,M,,M,,*52
06/14/2014	08:09:54.613	$GPGGA,081004,2432.2865,N,08054.3537,W,1,8,1.7,20,M,,M,,*54
06/14/2014	08:09:55.623	$GPGGA,081005,2432.2867,N,08054.3541,W,1,8,1.7,20,M,,M,,*56
06/14/2014	08:09:56.617	$GPGGA,081006,2432.2866,N,08054.3548,W,1,8,1.5,20,M,,M,,*5F
06/14/2014	08:09:57.638	$GPGGA,081007,2432.2865,N,08054.3551,W,1,9,1.5,20,M,,M,,*54
06/14/2014	08:09:58.754	$GPGGA,081008,2432.2861,N,08054.3555,W,1,9,1.5,20,M,,M,,*5B
06/14/2014	08:09:59.741	$GPGGA,081009,2432.2861,N,08054.3560,W,1,9,1.5,20,M,,M,,*5C
06/14/2014	08:10:00.648	$GPGGA,081010,2432.2859,N,08054.3566,W,1,9,1.5,20,M,,M,,*59
06/14/2014	08:10:01.669	$GPGGA,081011,2432.2856,N,08054.3569,W,1,9,1.5,20,M,,M,,*58
06/14/2014	08:10:02.665	$GPGGA,081012,2432.2854,N,08054.3574,W,1,9,2.3,20,M,,M,,*50
06/14/2014	08:10:03.660	$GPGGA,081013,2432.2854,N,08054.3578,W,1,9,1.5,20,M,,M,,*58
06/14/2014	08:10:04.779	$GPGGA,081014,2432.2852,N,08054.3582,W,1,9,1.5,20,M,,M,,*5C
06/14/2014	08:10:05.686	$GPGGA,081015,2432.2850,N,08054.3585,W,1,7,2.3,20,M,,M,,*53
06/14/2014	08:10:06.784	$GPGGA,081016,2432.2847,N,08054.3587,W,1,7,2.3,20,M,,M,,*54
06/14/2014	08:10:07.812	$GPGGA,081017,2432.2845,N,08054.3591,W,1,7,2.3,20,M,,M,,*50
06/14/2014	08:10:08.779	$GPGGA,081018,2432.2844,N,08054.3596,W,1,7,1.5,20,M,,M,,*5C
06/14/2014	08:10:09.787	$GPGGA,081019,2432.2842,N,08054.3602,W,1,9,1.5,20,M,,M,,*5B
06/14/2014	08:10:10.714	$GPGGA,081020,2432.2840,N,08054.3605,W,1,9,1.5,20,M,,M,,*54
06/14/2014	08:10:11.843	$GPGGA,081021,2432.2838,N,08054.3607,W,1,9,1.5,20,M,,M,,*58
06/14/2014	08:10:12.719	$GPGGA,081022,2432.2836,N,08054.3611,W,1,9,2.1,20,M,,M,,*55
06/14/2014	08:10:13.727	$GPGGA,081023,2432.2832,N,08054.3616,W,1,7,2.3,20,M,,M,,*5B
06/14/2014	08:10:14.826	$GPGGA,081024,2432.2829,N,08054.3620,W,1,7,1.7,20,M,,M,,*54
06/14/2014	08:10:15.813	$GPGGA,081025,2432.2826,N,08054.3624,W,1,9,1.5,20,M,,M,,*52
06/14/2014	08:10:16.831	$GPGGA,081026,2432.2824,N,08054.3628,W,1,9,1.5,20,M,,M,,*5F
06/14/2014	08:10:17.828	$GPGGA,081027,2432.2823,N,08054.3634,W,1,9,1.5,19,M,,M,,*5E
06/14/2014	08:10:18.856	$GPGGA,081028,2432.2822,N,08054.3636,W,1,9,1.5,19,M,,M,,*52
06/14/2014	08:10:19.875	$GPGGA,081029,2432.2820,N,08054.3639,W,1,8,2.1,19,M,,M,,*58
06/14/2014	08:10:20.840	$GPGGA,081030,2432.2819,N,08054.3643,W,1,8,1.5,19,M,,M,,*50
06/14/2014	08:10:21.858	$GPGGA,081031,2432.2818,N,08054.3649,W,1,9,1.5,19,M,,M,,*5B
06/14/2014	08:10:22.876	$GPGGA,081032,2432.2815,N,08054.3652,W,1,9,1.5,19,M,,M,,*5F
06/14/2014	08:10:23.914	$GPGGA,081033,2432.2814,N,08054.3656,W,1,9,1.5,19,M,,M,,*5B
06/14/2014	08:10:24.891	$GPGGA,081034,2432.2812,N,08054.3660,W,1,9,1.5,19,M,,M,,*5F
06/14/2014	08:10:25.889	$GPGGA,081035,2432.2809,N,08054.3664,W,1,9,1.5,19,M,,M,,*50
06/14/2014	08:10:26.897	$GPGGA,081036,2432.2807,N,08054.3670,W,1,9,1.5,19,M,,M,,*58
06/14/2014	08:10:27.891	$GPGGA,081037,2432.2805,N,08054.3675,W,1,9,1.5,19,M,,M,,*5E
06/14/2014	08:10:28.912	$GPGGA,081038,2432.2802,N,08054.3681,W,1,9,1.5,19,M,,M,,*5D
06/14/2014	08:10:29.920	$GPGGA,081039,2432.2800,N,08054.3683,W,1,9,1.5,19,M,,M,,*5C
06/14/2014	08:10:30.917	$GPGGA,081040,2432.2797,N,08054.3689,W,1,9,2.1,19,M,,M,,*5E
06/14/2014	08:10:31.925	$GPGGA,081041,2432.2794,N,08054.3693,W,1,9,1.5,19,M,,M,,*50
06/14/2014	08:10:32.921	$GPGGA,081042,2432.2795,N,08054.3699,W,1,9,1.5,19,M,,M,,*58
06/14/2014	08:10:33.923	$GPGGA,081043,2432.2791,N,08054.3703,W,1,9,1.5,19,M,,M,,*5F
06/14/2014	08:10:34.947	$GPGGA,081044,2432.2787,N,08054.3708,W,1,9,1.5,19,M,,M,,*54
06/14/2014	08:10:35.966	$GPGGA,081045,2432.2785,N,08054.3714,W,1,9,1.5,19,M,,M,,*5A
06/14/2014	08:10:36.959	$GPGGA,081046,2432.2784,N,08054.3721,W,1,9,1.5,19,M,,M,,*5E
06/14/2014	08:10:37.971	$GPGGA,081047,2432.2783,N,08054.3725,W,1,8,1.7,20,M,,M,,*55
06/14/2014	08:10:39.018	$GPGGA,081048,2432.2782,N,08054.3728,W,1,8,1.5,20,M,,M,,*54
06/14/2014	08:10:39.526	$GPGGA,081049,2432.2780,N,08054.3732,W,1,9,1.5,20,M,,M,,*5D
06/14/2014	08:10:40.513	$GPGGA,081050,2432.2779,N,08054.3736,W,1,9,1.5,20,M,,M,,*57
06/14/2014	08:10:41.533	$GPGGA,081051,2432.2777,N,08054.3740,W,1,9,1.5,20,M,,M,,*59
06/14/2014	08:10:42.529	$GPGGA,081052,2432.2775,N,08054.3746,W,1,9,1.5,20,M,,M,,*5E
06/14/2014	08:10:43.516	$GPGGA,081053,2432.2773,N,08054.3750,W,1,9,1.5,20,M,,M,,*5E
06/14/2014	08:10:44.534	$GPGGA,081054,2432.2771,N,08054.3757,W,1,9,1.5,20,M,,M,,*5C
06/14/2014	08:10:45.653	$GPGGA,081055,2432.2769,N,08054.3761,W,1,9,1.5,20,M,,M,,*51
06/14/2014	08:10:46.549	$GPGGA,081056,2432.2768,N,08054.3764,W,1,9,1.5,20,M,,M,,*56
06/14/2014	08:10:47.547	$GPGGA,081057,2432.2767,N,08054.3768,W,1,9,1.5,20,M,,M,,*54
06/14/2014	08:10:48.686	$GPGGA,081058,2432.2766,N,08054.3769,W,1,9,1.5,20,M,,M,,*5B
06/14/2014	08:10:49.673	$GPGGA,081059,2432.2764,N,08054.3772,W,1,8,2.1,20,M,,M,,*54
06/14/2014	08:10:50.580	$GPGGA,081100,2432.2764,N,08054.3776,W,1,8,2.3,20,M,,M,,*5F
06/14/2014	08:10:51.679	$GPGGA,081101,2432.2762,N,08054.3780,W,1,8,2.1,20,M,,M,,*53
06/14/2014	08:10:52.565	$GPGGA,081102,2432.2760,N,08054.3783,W,1,8,2.1,20,M,,M,,*51
06/14/2014	08:10:53.563	$GPGGA,081103,2432.2760,N,08054.3786,W,1,7,2.3,20,M,,M,,*58
06/14/2014	08:10:54.712	$GPGGA,081104,2432.2760,N,08054.3790,W,1,7,2.1,20,M,,M,,*5A
06/14/2014	08:10:55.598	$GPGGA,081105,2432.2758,N,08054.3793,W,1,7,2.6,20,M,,M,,*54
06/14/2014	08:10:56.696	$GPGGA,081106,2432.2757,N,08054.3795,W,1,7,2.1,20,M,,M,,*59
06/14/2014	08:10:57.704	$GPGGA,081107,2432.2755,N,08054.3800,W,1,8,2.1,19,M,,M,,*5C
06/14/2014	08:10:58.621	$GPGGA,081108,2432.2753,N,08054.3804,W,1,8,2.1,19,M,,M,,*51
06/14/2014	08:10:59.699	$GPGGA,081109,2432.2751,N,08054.3809,W,1,8,2.1,19,M,,M,,*5F
06/14/2014	08:11:00.707	$GPGGA,081110,2432.2753,N,08054.3812,W,1,8,2.3,19,M,,M,,*5D
06/14/2014	08:11:01.755	$GPGGA,081111,2432.2753,N,08054.3815,W,1,8,2.1,19,M,,M,,*59
06/14/2014	08:11:02.742	$GPGGA,081112,2432.2753,N,08054.3819,W,1,8,2.1,19,M,,M,,*56
06/14/2014	08:11:03.750	$GPGGA,081113,2432.2751,N,08054.3822,W,1,8,2.1,19,M,,M,,*5D
06/14/2014	08:11:04.737	$GPGGA,081114,2432.2750,N,08054.3826,W,1,8,2.1,19,M,,M,,*5F
06/14/2014	08:11:05.775	$GPGGA,081115,2432.2751,N,08054.3831,W,1,8,2.1,18,M,,M,,*58
06/14/2014	08:11:06.773	$GPGGA,081116,2432.2749,N,08054.3835,W,1,8,2.1,18,M,,M,,*56
06/14/2014	08:11:07.771	$GPGGA,081117,2432.2747,N,08054.3840,W,1,8,2.1,18,M,,M,,*5B
06/14/2014	08:11:08.758	$GPGGA,081118,2432.2748,N,08054.3842,W,1,8,2.1,18,M,,M,,*59
06/14/2014	08:11:09.777	$GPGGA,081119,2432.2746,N,08054.3847,W,1,8,2.1,18,M,,M,,*53
06/14/2014	08:11:10.819	$GPGGA,081120,2432.2744,N,08054.3851,W,1,8,2.1,18,M,,M,,*5C
06/14/2014	08:11:11.932	$GPGGA,081121,2432.2742,N,08054.3853,W,1,8,2.1,18,M,,M,,*59
06/14/2014	08:11:13.034	$GPGGA,081122,2432.2742,N,08054.3858,W,1,8,2.1,18,M,,M,,*51
06/14/2014	08:11:14.166	$GPGGA,081123,2432.2739,N,08054.3862,W,1,8,2.1,18,M,,M,,*55
06/14/2014	08:11:15.247	$GPGGA,081124,2432.2737,N,08054.3866,W,1,8,2.1,18,M,,M,,*58
06/14/2014	08:11:16.349	$GPGGA,081125,2432.2735,N,08054.3870,W,1,8,2.1,18,M,,M,,*5C
06/14/2014	08:11:17.463	$GPGGA,081126,2432.2735,N,08054.3874,W,1,8,2.3,18,M,,M,,*59
06/14/2014	08:11:18.572	$GPGGA,081127,2432.2732,N,08054.3878,W,1,8,2.1,18,M,,M,,*51
06/14/2014	08:11:19.696	$GPGGA,081128,2432.2731,N,08054.3881,W,1,8,2.1,18,M,,M,,*5B
06/14/2014	08:11:20.830	$GPGGA,081129,2432.2728,N,08054.3885,W,1,8,2.1,17,M,,M,,*59
06/14/2014	08:11:21.898	$GPGGA,081130,2432.2725,N,08054.3889,W,1,8,2.1,17,M,,M,,*50
06/14/2014	08:11:23.000	$GPGGA,081131,2432.2724,N,08054.3895,W,1,8,2.1,17,M,,M,,*5D
06/14/2014	08:11:24.146	$GPGGA,081132,2432.2724,N,08054.3898,W,1,8,2.1,17,M,,M,,*53
06/14/2014	08:11:25.262	$GPGGA,081133,2432.2721,N,08054.3902,W,1,8,2.1,17,M,,M,,*55
06/14/2014	08:11:26.337	$GPGGA,081134,2432.2719,N,08054.3905,W,1,8,2.1,17,M,,M,,*5E
06/14/2014	08:11:27.461	$GPGGA,081135,2432.2718,N,08054.3909,W,1,8,2.1,17,M,,M,,*52
06/14/2014	08:11:28.584	$GPGGA,081136,2432.2717,N,08054.3913,W,1,8,2.1,17,M,,M,,*55
06/14/2014	08:11:29.664	$GPGGA,081137,2432.2714,N,08054.3917,W,1,8,2.1,17,M,,M,,*53
06/14/2014	08:11:30.789	$GPGGA,081138,2432.2711,N,08054.3921,W,1,8,2.1,17,M,,M,,*5C
06/14/2014	08:11:31.889	$GPGGA,081139,2432.2708,N,08054.3925,W,1,8,2.1,17,M,,M,,*51
06/14/2014	08:11:33.029	$GPGGA,081140,2432.2707,N,08054.3930,W,1,8,2.3,17,M,,M,,*56
06/14/2014	08:11:34.112	$GPGGA,081141,2432.2706,N,08054.3934,W,1,7,2.3,17,M,,M,,*5D
06/14/2014	08:11:35.236	$GPGGA,081142,2432.2701,N,08054.3934,W,1,7,2.1,17,M,,M,,*5B
06/14/2014	08:11:36.460	$GPGGA,081143,2432.2700,N,08054.3939,W,1,8,2.1,17,M,,M,,*59
06/14/2014	08:11:37.461	$GPGGA,081144,2432.2701,N,08054.3945,W,1,8,2.1,17,M,,M,,*54
06/14/2014	08:11:38.551	$GPGGA,081145,2432.2700,N,08054.3949,W,1,8,2.1,16,M,,M,,*59
06/14/2014	08:11:39.821	$GPGGA,081146,2432.2695,N,08054.3952,W,1,8,2.1,16,M,,M,,*5D
06/14/2014	08:11:40.787	$GPGGA,081147,2432.2695,N,08054.3954,W,1,7,2.3,16,M,,M,,*57
06/14/2014	08:11:41.911	$GPGGA,081148,2432.2693,N,08054.3960,W,1,7,2.3,16,M,,M,,*59
06/14/2014	08:11:39.653	$GPGGA,081149,2432.2690,N,08054.3963,W,1,8,2.1,16,M,,M,,*55
06/14/2014	08:11:40.655	$GPGGA,081150,2432.2688,N,08054.3965,W,1,8,2.1,16,M,,M,,*52
06/14/2014	08:11:41.934	$GPGGA,081151,2432.2686,N,08054.3970,W,1,8,2.1,16,M,,M,,*59
06/14/2014	08:11:42.902	$GPGGA,081152,2432.2685,N,08054.3975,W,1,8,2.1,16,M,,M,,*5C
06/14/2014	08:11:44.003	$GPGGA,081153,2432.2684,N,08054.3979,W,1,7,2.3,16,M,,M,,*5D
06/14/2014	08:11:45.217	$GPGGA,081154,2432.2682,N,08054.3982,W,1,7,2.1,16,M,,M,,*5A
06/14/2014	08:11:46.317	$GPGGA,081155,2432.2683,N,08054.3986,W,1,8,2.1,16,M,,M,,*51
06/14/2014	08:11:47.352	$GPGGA,081156,2432.2681,N,08054.3992,W,1,8,2.1,16,M,,M,,*55
06/14/2014	08:11:48.553	$GPGGA,081157,2432.2679,N,08054.3995,W,1,8,2.1,16,M,,M,,*54
06/14/2014	08:11:49.542	$GPGGA,081158,2432.2678,N,08054.3999,W,1,8,2.1,16,M,,M,,*56
