Software Version Number: 1	Data File Format Number: 1	Build Version Number: 1	Error Count Since VI Started: 0	Manufacturer: Raytheon	 Model Number: RayMarine 120	 S/N: 	 Cal Date: 	 Wind Direction Offset: 0.00	 Slope (M)1: 0.00	 Offset (B)1: 0.00	 Slope (M)2: 0.00	 Offset (B)2: 0.00	 Slope (M)3: 0.00	 Offset (B)3: 0.00	 Slope (M)4: 0.00	 Offset (B)4: 0.00	 Slope (M)5: 0.00	 Offset (B)5: 0.00	 Slope (M)6: 0.00	 Offset (B)6: 0.00
Computer Date	Computer Time	GGA String
06/10/2014	19:00:00.955	$GPGGA,190008,2546.2699,N,08005.1788,W,1,11,1.5,17,M,,M,,*68
06/10/2014	19:00:02.029	$GPGGA,190009,2546.2688,N,08005.1803,W,1,11,1.5,17,M,,M,,*65
06/10/2014	19:00:03.124	$GPGGA,190010,2546.2675,N,08005.1817,W,1,11,1.5,17,M,,M,,*6A
06/10/2014	19:00:04.208	$GPGGA,190011,2546.2663,N,08005.1831,W,1,11,1.5,17,M,,M,,*68
06/10/2014	19:00:05.279	$GPGGA,190012,2546.2652,N,08005.1846,W,1,11,1.5,17,M,,M,,*69
06/10/2014	19:00:06.388	$GPGGA,190013,2546.2641,N,08005.1861,W,1,11,1.5,17,M,,M,,*6F
06/10/2014	19:00:07.430	$GPGGA,190014,2546.2630,N,08005.1875,W,1,11,1.5,17,M,,M,,*6B
06/10/2014	19:00:08.536	$GPGGA,190015,2546.2617,N,08005.1889,W,1,11,1.5,17,M,,M,,*6C
06/10/2014	19:00:09.599	$GPGGA,190016,2546.2606,N,08005.1904,W,1,11,1.5,17,M,,M,,*6B
06/10/2014	19:00:10.705	$GPGGA,190017,2546.2594,N,08005.1918,W,1,11,1.5,17,M,,M,,*6F
06/10/2014	19:00:11.758	$GPGGA,190018,2546.2583,N,08005.1933,W,1,11,1.5,17,M,,M,,*6F
06/10/2014	19:00:12.864	$GPGGA,190019,2546.2571,N,08005.1948,W,1,11,1.5,17,M,,M,,*6F
06/10/2014	19:00:13.938	$GPGGA,190020,2546.2571,N,08005.1948,W,1,11,1.5,17,M,,M,,*65
06/10/2014	19:00:15.044	$GPGGA,190021,2546.2547,N,08005.1977,W,1,11,1.5,17,M,,M,,*6D
06/10/2014	19:00:16.089	$GPGGA,190022,2546.2547,N,08005.1977,W,1,11,1.5,17,M,,M,,*6E
06/10/2014	19:00:17.159	$GPGGA,190023,2546.2525,N,08005.2009,W,1,11,1.5,17,M,,M,,*68
06/10/2014	19:00:18.309	$GPGGA,190024,2546.2513,N,08005.2021,W,1,11,1.5,17,M,,M,,*60
06/10/2014	19:00:19.353	$GPGGA,190025,2546.2501,N,08005.2037,W,1,11,1.5,17,M,,M,,*65
06/10/2014	19:00:20.435	$GPGGA,190026,2546.2490,N,08005.2052,W,1,11,1.5,17,M,,M,,*6C
06/10/2014	19:00:21.498	$GPGGA,190027,2546.2478,N,08005.2067,W,1,11,1.5,17,M,,M,,*6D
06/10/2014	19:00:22.617	$GPGGA,190028,2546.2478,N,08005.2067,W,1,11,1.5,17,M,,M,,*62
06/10/2014	19:00:23.690	$GPGGA,190029,2546.2457,N,08005.2097,W,1,11,1.5,17,M,,M,,*61
06/10/2014	19:00:24.763	$GPGGA,190030,2546.2444,N,08005.2113,W,1,11,1.8,17,M,,M,,*6B
06/10/2014	19:00:25.859	$GPGGA,190031,2546.2432,N,08005.2126,W,1,10,1.8,17,M,,M,,*6C
06/10/2014	19:00:26.931	$GPGGA,190032,2546.2432,N,08005.2126,W,1,10,1.8,17,M,,M,,*6F
06/10/2014	19:00:28.057	$GPGGA,190033,2546.2410,N,08005.2157,W,1,10,1.8,17,M,,M,,*68
06/10/2014	19:00:29.113	$GPGGA,190034,2546.2399,N,08005.2171,W,1,10,1.8,17,M,,M,,*6D
06/10/2014	19:00:30.211	$GPGGA,190035,2546.2386,N,08005.2186,W,1,10,1.8,17,M,,M,,*6A
06/10/2014	19:00:31.261	$GPGGA,190036,2546.2386,N,08005.2186,W,1,10,1.8,17,M,,M,,*69
06/10/2014	19:00:32.355	$GPGGA,190037,2546.2363,N,08005.2215,W,1,10,1.8,17,M,,M,,*6A
06/10/2014	19:00:33.407	$GPGGA,190038,2546.2363,N,08005.2215,W,1,10,1.8,17,M,,M,,*65
06/10/2014	19:00:34.503	$GPGGA,190039,2546.2341,N,08005.2245,W,1,10,1.8,17,M,,M,,*61
06/10/2014	19:00:35.598	$GPGGA,190040,2546.2341,N,08005.2245,W,1,10,1.8,17,M,,M,,*6F
06/10/2014	19:00:36.770	$GPGGA,190041,2546.2317,N,08005.2277,W,1,10,1.8,17,M,,M,,*6C
06/10/2014	19:00:37.833	$GPGGA,190042,2546.2305,N,08005.2294,W,1,10,1.5,17,M,,M,,*6C
06/10/2014	19:00:38.809	$GPGGA,190043,2546.2294,N,08005.2312,W,1,11,1.5,17,M,,M,,*6A
06/10/2014	19:00:34.856	$GPGGA,190044,2546.2282,N,08005.2327,W,1,11,1.5,17,M,,M,,*6C
06/10/2014	19:00:36.017	$GPGGA,190045,2546.2270,N,08005.2341,W,1,11,1.5,17,M,,M,,*60
06/10/2014	19:00:36.993	$GPGGA,190046,2546.2270,N,08005.2341,W,1,11,1.5,17,M,,M,,*63
06/10/2014	19:00:38.057	$GPGGA,190047,2546.2248,N,08005.2374,W,1,11,1.5,17,M,,M,,*6F
06/10/2014	19:00:39.270	$GPGGA,190048,2546.2237,N,08005.2388,W,1,11,1.5,17,M,,M,,*6B
06/10/2014	19:00:40.365	$GPGGA,190049,2546.2226,N,08005.2403,W,1,10,1.5,18,M,,M,,*60
06/10/2014	19:00:41.428	$GPGGA,190050,2546.2215,N,08005.2418,W,1,10,1.5,18,M,,M,,*62
06/10/2014	19:00:42.502	$GPGGA,190051,2546.2205,N,08005.2435,W,1,11,1.5,18,M,,M,,*6C
06/10/2014	19:00:43.598	$GPGGA,190052,2546.2195,N,08005.2451,W,1,11,1.5,18,M,,M,,*67
06/10/2014	19:00:44.693	$GPGGA,190053,2546.2184,N,08005.2465,W,1,11,1.5,18,M,,M,,*61
06/10/2014	19:00:45.756	$GPGGA,190054,2546.2175,N,08005.2482,W,1,11,1.5,18,M,,M,,*61
06/10/2014	19:00:46.841	$GPGGA,190055,2546.2168,N,08005.2498,W,1,11,1.5,18,M,,M,,*67
06/10/2014	19:00:47.936	$GPGGA,190056,2546.2158,N,08005.2515,W,1,11,1.5,18,M,,M,,*63
06/10/2014	19:00:48.999	$GPGGA,190057,2546.2147,N,08005.2530,W,1,11,1.5,18,M,,M,,*6B
06/10/2014	19:00:50.086	$GPGGA,190058,2546.2139,N,08005.2547,W,1,11,1.5,18,M,,M,,*6D
06/10/2014	19:00:51.163	$GPGGA,190059,2546.2130,N,08005.2565,W,1,10,1.7,18,M,,M,,*66
06/10/2014	19:00:52.275	$GPGGA,190100,2546.2121,N,08005.2579,W,1,10,1.7,18,M,,M,,*66
06/10/2014	19:00:53.349	$GPGGA,190101,2546.2115,N,08005.2595,W,1,9,2.2,18,M,,M,,*5C
06/10/2014	19:00:54.415	$GPGGA,190102,2546.2110,N,08005.2613,W,1,9,1.5,18,M,,M,,*53
06/10/2014	19:00:55.508	$GPGGA,190103,2546.2099,N,08005.2631,W,1,11,1.5,18,M,,M,,*6B
06/10/2014	19:00:56.583	$GPGGA,190104,2546.2090,N,08005.2648,W,1,11,1.5,18,M,,M,,*6B
06/10/2014	19:00:57.662	$GPGGA,190105,2546.2083,N,08005.2666,W,1,10,1.5,18,M,,M,,*65
06/10/2014	19:00:58.743	$GPGGA,190106,2546.2075,N,08005.2684,W,1,10,1.5,19,M,,M,,*62
06/10/2014	19:00:59.856	$GPGGA,190107,2546.2066,N,08005.2700,W,1,11,1.5,19,M,,M,,*6D
06/10/2014	19:01:00.921	$GPGGA,190108,2546.2057,N,08005.2717,W,1,11,1.5,19,M,,M,,*66
06/10/2014	19:01:02.008	$GPGGA,190109,2546.2049,N,08005.2735,W,1,11,1.5,19,M,,M,,*68
06/10/2014	19:01:03.067	$GPGGA,190110,2546.2041,N,08005.2751,W,1,11,1.8,19,M,,M,,*67
06/10/2014	19:01:04.178	$GPGGA,190111,2546.2034,N,08005.2767,W,1,10,1.8,19,M,,M,,*60
06/10/2014	19:01:05.252	$GPGGA,190112,2546.2025,N,08005.2785,W,1,10,1.8,19,M,,M,,*6F
06/10/2014	19:01:06.310	$GPGGA,190113,2546.2018,N,08005.2801,W,1,10,1.8,19,M,,M,,*63
06/10/2014	19:01:07.427	$GPGGA,190114,2546.2011,N,08005.2818,W,1,10,1.8,19,M,,M,,*65
06/10/2014	19:01:08.480	$GPGGA,190115,2546.2003,N,08005.2836,W,1,10,1.8,19,M,,M,,*6B
06/10/2014	19:01:09.590	$GPGGA,190116,2546.1995,N,08005.2854,W,1,10,1.5,20,M,,M,,*6E
06/10/2014	19:01:10.684	$GPGGA,190117,2546.1988,N,08005.2870,W,1,10,1.8,20,M,,M,,*68
06/10/2014	19:01:11.723	$GPGGA,190118,2546.1981,N,08005.2888,W,1,10,1.8,20,M,,M,,*69
06/10/2014	19:01:12.840	$GPGGA,190119,2546.1973,N,08005.2908,W,1,10,1.8,20,M,,M,,*6C
06/10/2014	19:01:13.914	$GPGGA,190120,2546.1964,N,08005.2928,W,1,10,1.7,20,M,,M,,*6D
06/10/2014	19:01:15.000	$GPGGA,190121,2546.1958,N,08005.2946,W,1,11,1.5,20,M,,M,,*68
06/10/2014	19:01:16.051	$GPGGA,190122,2546.1951,N,08005.2964,W,1,11,1.7,20,M,,M,,*60
06/10/2014	19:01:17.134	$GPGGA,190123,2546.1944,N,08005.2984,W,1,10,1.8,20,M,,M,,*65
06/10/2014	19:01:18.252	$GPGGA,190124,2546.1938,N,08005.3002,W,1,10,1.7,20,M,,M,,*60
06/10/2014	19:01:19.336	$GPGGA,190125,2546.1931,N,08005.3018,W,1,10,1.7,20,M,,M,,*63
06/10/2014	19:01:20.519	$GPGGA,190126,2546.1924,N,08005.3035,W,1,10,1.7,20,M,,M,,*6B
06/10/2014	19:01:21.506	$GPGGA,190127,2546.1918,N,08005.3053,W,1,10,1.7,20,M,,M,,*65
06/10/2014	19:01:22.569	$GPGGA,190128,2546.1911,N,08005.3071,W,1,10,1.5,20,M,,M,,*61
06/10/2014	19:01:23.664	$GPGGA,190129,2546.1904,N,08005.3090,W,1,10,1.5,20,M,,M,,*6B
06/10/2014	19:01:24.717	$GPGGA,190130,2546.1898,N,08005.3110,W,1,10,1.5,20,M,,M,,*6E
06/10/2014	19:01:25.812	$GPGGA,190131,2546.1891,N,08005.3129,W,1,11,1.5,20,M,,M,,*6D
06/10/2014	19:01:26.908	$GPGGA,190132,2546.1883,N,08005.3147,W,1,11,1.5,20,M,,M,,*65
06/10/2014	19:01:27.960	$GPGGA,190133,2546.1877,N,08005.3165,W,1,11,1.5,20,M,,M,,*6F
06/10/2014	19:01:29.146	$GPGGA,190134,2546.1871,N,08005.3184,W,1,11,1.5,20,M,,M,,*61
06/10/2014	19:01:30.136	$GPGGA,190135,2546.1864,N,08005.3204,W,1,11,1.5,20,M,,M,,*6F
06/10/2014	19:01:31.344	$GPGGA,190136,2546.1857,N,08005.3223,W,1,11,1.5,20,M,,M,,*69
06/10/2014	19:01:32.429	$GPGGA,190137,2546.1851,N,08005.3241,W,1,11,1.5,20,M,,M,,*6A
06/10/2014	19:01:33.394	$GPGGA,190138,2546.1846,N,08005.3260,W,1,11,1.5,20,M,,M,,*60
06/10/2014	19:01:34.468	$GPGGA,190139,2546.1839,N,08005.3277,W,1,10,1.7,20,M,,M,,*6C
06/10/2014	19:01:35.650	$GPGGA,190140,2546.1832,N,08005.3295,W,1,10,1.5,20,M,,M,,*67
06/10/2014	19:01:36.756	$GPGGA,190141,2546.1826,N,08005.3316,W,1,10,1.7,20,M,,M,,*6B
06/10/2014	19:01:37.808	$GPGGA,190142,2546.1821,N,08005.3334,W,1,10,1.5,20,M,,M,,*6D
06/10/2014	19:01:38.925	$GPGGA,190143,2546.1814,N,08005.3352,W,1,10,1.7,20,M,,M,,*68
06/10/2014	19:01:34.908	$GPGGA,190144,2546.1805,N,08005.3370,W,1,10,1.7,20,M,,M,,*6F
06/10/2014	19:01:35.993	$GPGGA,190145,2546.1799,N,08005.3389,W,1,11,1.5,20,M,,M,,*61
06/10/2014	19:01:36.969	$GPGGA,190146,2546.1793,N,08005.3407,W,1,11,1.7,20,M,,M,,*6B
06/10/2014	19:01:38.173	$GPGGA,190147,2546.1786,N,08005.3428,W,1,9,2.2,20,M,,M,,*5C
06/10/2014	19:01:39.236	$GPGGA,190148,2546.1778,N,08005.3447,W,1,9,1.7,20,M,,M,,*5D
06/10/2014	19:01:40.331	$GPGGA,190149,2546.1772,N,08005.3466,W,1,10,1.7,20,M,,M,,*6D
06/10/2014	19:01:41.396	$GPGGA,190150,2546.1764,N,08005.3486,W,1,10,1.5,20,M,,M,,*6E
06/10/2014	19:01:42.490	$GPGGA,190151,2546.1757,N,08005.3504,W,1,11,1.5,20,M,,M,,*65
06/10/2014	19:01:43.575	$GPGGA,190152,2546.1752,N,08005.3523,W,1,11,1.7,20,M,,M,,*64
06/10/2014	19:01:44.670	$GPGGA,190153,2546.1745,N,08005.3540,W,1,9,1.8,21,M,,M,,*51
06/10/2014	19:01:45.712	$GPGGA,190154,2546.1736,N,08005.3559,W,1,9,1.8,21,M,,M,,*5A
06/10/2014	19:01:46.796	$GPGGA,190155,2546.1730,N,08005.3576,W,1,11,1.5,21,M,,M,,*64
06/10/2014	19:01:47.903	$GPGGA,190156,2546.1722,N,08005.3592,W,1,11,1.8,21,M,,M,,*63
06/10/2014	19:01:48.987	$GPGGA,190157,2546.1716,N,08005.3610,W,1,11,1.5,20,M,,M,,*60
06/10/2014	19:01:50.038	$GPGGA,190158,2546.1709,N,08005.3628,W,1,11,1.5,20,M,,M,,*6A
06/10/2014	19:01:51.156	$GPGGA,190159,2546.1700,N,08005.3645,W,1,10,1.8,20,M,,M,,*65
06/10/2014	19:01:52.240	$GPGGA,190200,2546.1693,N,08005.3663,W,1,10,1.8,20,M,,M,,*65
06/10/2014	19:01:53.325	$GPGGA,190201,2546.1685,N,08005.3682,W,1,10,1.8,20,M,,M,,*6C
06/10/2014	19:01:54.388	$GPGGA,190202,2546.1677,N,08005.3699,W,1,10,1.8,20,M,,M,,*68
06/10/2014	19:01:55.486	$GPGGA,190203,2546.1669,N,08005.3718,W,1,10,1.8,20,M,,M,,*6E
06/10/2014	19:01:56.568	$GPGGA,190204,2546.1660,N,08005.3736,W,1,10,1.6,20,M,,M,,*62
06/10/2014	19:01:57.631	$GPGGA,190205,2546.1652,N,08005.3754,W,1,11,1.5,20,M,,M,,*64
06/10/2014	19:01:58.727	$GPGGA,190206,2546.1642,N,08005.3772,W,1,11,1.5,20,M,,M,,*62
06/10/2014	19:01:59.822	$GPGGA,190207,2546.1633,N,08005.3790,W,1,11,1.5,20,M,,M,,*69
06/10/2014	19:02:00.907	$GPGGA,190208,2546.1626,N,08005.3808,W,1,11,1.6,20,M,,M,,*6F
06/10/2014	19:02:01.948	$GPGGA,190209,2546.1616,N,08005.3826,W,1,11,1.5,20,M,,M,,*62
06/10/2014	19:02:03.142	$GPGGA,190210,2546.1608,N,08005.3845,W,1,11,1.5,20,M,,M,,*60
06/10/2014	19:02:04.150	$GPGGA,190211,2546.1597,N,08005.3862,W,1,11,1.5,20,M,,M,,*61
06/10/2014	19:02:05.235	$GPGGA,190212,2546.1588,N,08005.3880,W,1,11,1.5,20,M,,M,,*60
06/10/2014	19:02:06.288	$GPGGA,190213,2546.1579,N,08005.3898,W,1,11,1.5,20,M,,M,,*66
06/10/2014	19:02:07.361	$GPGGA,190214,2546.1570,N,08005.3916,W,1,11,1.5,20,M,,M,,*6F
06/10/2014	19:02:08.446	$GPGGA,190215,2546.1561,N,08005.3934,W,1,11,1.5,20,M,,M,,*6E
06/10/2014	19:02:09.562	$GPGGA,190216,2546.1551,N,08005.3952,W,1,11,1.5,20,M,,M,,*6E
06/10/2014	19:02:10.766	$GPGGA,190217,2546.1543,N,08005.3968,W,1,10,1.5,20,M,,M,,*64
06/10/2014	19:02:11.710	$GPGGA,190218,2546.1534,N,08005.3985,W,1,10,1.5,20,M,,M,,*68
06/10/2014	19:02:12.935	$GPGGA,190219,2546.1525,N,08005.4003,W,1,11,1.5,20,M,,M,,*68
06/10/2014	19:02:13.988	$GPGGA,190220,2546.1516,N,08005.4019,W,1,11,1.5,20,M,,M,,*69
06/10/2014	19:02:15.061	$GPGGA,190221,2546.1507,N,08005.4036,W,1,11,1.5,20,M,,M,,*65
06/10/2014	19:02:16.038	$GPGGA,190222,2546.1498,N,08005.4054,W,1,11,1.5,20,M,,M,,*65
06/10/2014	19:02:17.253	$GPGGA,190223,2546.1490,N,08005.4072,W,1,11,1.5,20,M,,M,,*68
06/10/2014	19:02:18.316	$GPGGA,190224,2546.1480,N,08005.4089,W,1,11,1.5,20,M,,M,,*6A
06/10/2014	19:02:19.411	$GPGGA,190225,2546.1471,N,08005.4104,W,1,11,1.5,20,M,,M,,*61
06/10/2014	19:02:20.366	$GPGGA,190226,2546.1463,N,08005.4122,W,1,11,1.8,20,M,,M,,*68
06/10/2014	19:02:21.559	$GPGGA,190227,2546.1454,N,08005.4138,W,1,10,1.8,20,M,,M,,*67
06/10/2014	19:02:22.654	$GPGGA,190228,2546.1445,N,08005.4155,W,1,10,1.5,20,M,,M,,*6E
06/10/2014	19:02:23.717	$GPGGA,190229,2546.1436,N,08005.4171,W,1,11,1.5,20,M,,M,,*6C
06/10/2014	19:02:24.802	$GPGGA,190230,2546.1428,N,08005.4188,W,1,11,1.5,19,M,,M,,*67
06/10/2014	19:02:25.910	$GPGGA,190231,2546.1420,N,08005.4205,W,1,11,1.5,19,M,,M,,*68
06/10/2014	19:02:26.971	$GPGGA,190232,2546.1411,N,08005.4223,W,1,11,1.5,19,M,,M,,*6D
06/10/2014	19:02:28.066	$GPGGA,190233,2546.1402,N,08005.4241,W,1,11,1.5,19,M,,M,,*6A
06/10/2014	19:02:29.134	$GPGGA,190234,2546.1393,N,08005.4257,W,1,11,1.5,19,M,,M,,*65
06/10/2014	19:02:30.214	$GPGGA,190235,2546.1385,N,08005.4274,W,1,11,1.5,19,M,,M,,*62
06/10/2014	19:02:31.309	$GPGGA,190236,2546.1376,N,08005.4293,W,1,11,1.5,19,M,,M,,*64
06/10/2014	19:02:32.394	$GPGGA,190237,2546.1368,N,08005.4310,W,1,11,1.5,19,M,,M,,*60
06/10/2014	19:02:33.446	$GPGGA,190238,2546.1359,N,08005.4328,W,1,11,1.5,19,M,,M,,*66
06/10/2014	19:02:34.563	$GPGGA,190239,2546.1352,N,08005.4346,W,1,11,1.5,19,M,,M,,*64
06/10/2014	19:02:35.648	$GPGGA,190240,2546.1344,N,08005.4364,W,1,11,1.8,19,M,,M,,*60
06/10/2014	19:02:36.722	$GPGGA,190241,2546.1337,N,08005.4380,W,1,11,1.5,19,M,,M,,*62
06/10/2014	19:02:37.785	$GPGGA,190242,2546.1328,N,08005.4397,W,1,11,1.8,18,M,,M,,*65
06/10/2014	19:02:38.860	$GPGGA,190243,2546.1320,N,08005.4415,W,1,10,1.8,18,M,,M,,*60
06/10/2014	19:02:34.885	$GPGGA,190244,2546.1312,N,08005.4433,W,1,10,1.8,18,M,,M,,*62
06/10/2014	19:02:35.959	$GPGGA,190245,2546.1304,N,08005.4451,W,1,10,1.8,18,M,,M,,*60
06/10/2014	19:02:37.049	$GPGGA,190246,2546.1297,N,08005.4469,W,1,10,1.5,18,M,,M,,*6E
06/10/2014	19:02:38.107	$GPGGA,190247,2546.1290,N,08005.4487,W,1,11,1.5,18,M,,M,,*69
06/10/2014	19:02:39.235	$GPGGA,190248,2546.1281,N,08005.4506,W,1,11,1.5,18,M,,M,,*6E
06/10/2014	19:02:40.276	$GPGGA,190249,2546.1273,N,08005.4524,W,1,11,1.5,18,M,,M,,*62
06/10/2014	19:02:41.373	$GPGGA,190250,2546.1265,N,08005.4543,W,1,11,1.5,18,M,,M,,*6C
06/10/2014	19:02:42.488	$GPGGA,190251,2546.1257,N,08005.4563,W,1,11,1.5,18,M,,M,,*6E
06/10/2014	19:02:43.551	$GPGGA,190252,2546.1250,N,08005.4579,W,1,11,1.5,18,M,,M,,*61
06/10/2014	19:02:44.625	$GPGGA,190253,2546.1243,N,08005.4597,W,1,10,1.8,18,M,,M,,*6E
06/10/2014	19:02:45.688	$GPGGA,190254,2546.1236,N,08005.4617,W,1,10,1.5,18,M,,M,,*6D
06/10/2014	19:02:46.772	$GPGGA,190255,2546.1227,N,08005.4635,W,1,11,1.5,18,M,,M,,*6D
06/10/2014	19:02:47.879	$GPGGA,190256,2546.1221,N,08005.4653,W,1,11,1.8,18,M,,M,,*65
06/10/2014	19:02:48.931	$GPGGA,190257,2546.1212,N,08005.4671,W,1,10,1.8,18,M,,M,,*65
06/10/2014	19:02:50.037	$GPGGA,190258,2546.1205,N,08005.4689,W,1,10,1.8,18,M,,M,,*6B
06/10/2014	19:02:51.100	$GPGGA,190259,2546.1198,N,08005.4707,W,1,10,1.8,18,M,,M,,*6A
06/10/2014	19:02:52.218	$GPGGA,190300,2546.1190,N,08005.4725,W,1,10,1.8,18,M,,M,,*6F
06/10/2014	19:02:53.302	$GPGGA,190301,2546.1182,N,08005.4743,W,1,10,1.8,18,M,,M,,*6D
06/10/2014	19:02:54.365	$GPGGA,190302,2546.1175,N,08005.4762,W,1,10,2.2,18,M,,M,,*6C
06/10/2014	19:02:55.428	$GPGGA,190303,2546.1169,N,08005.4781,W,1,11,1.5,18,M,,M,,*68
06/10/2014	19:02:56.546	$GPGGA,190304,2546.1162,N,08005.4801,W,1,11,1.5,18,M,,M,,*63
06/10/2014	19:02:57.599	$GPGGA,190305,2546.1154,N,08005.4819,W,1,10,1.8,18,M,,M,,*62
06/10/2014	19:02:58.813	$GPGGA,190306,2546.1149,N,08005.4838,W,1,10,2.2,18,M,,M,,*67
06/10/2014	19:02:59.789	$GPGGA,190307,2546.1142,N,08005.4855,W,1,10,1.8,18,M,,M,,*6F
06/10/2014	19:03:00.872	$GPGGA,190308,2546.1134,N,08005.4874,W,1,10,2.2,18,M,,M,,*6B
06/10/2014	19:03:01.929	$GPGGA,190309,2546.1127,N,08005.4893,W,1,9,1.8,18,M,,M,,*50
06/10/2014	19:03:02.941	$GPGGA,190310,2546.1120,N,08005.4911,W,1,9,2.2,18,M,,M,,*5D
06/10/2014	19:03:03.993	$GPGGA,190311,2546.1113,N,08005.4929,W,1,10,1.8,18,M,,M,,*66
06/10/2014	19:03:05.026	$GPGGA,190312,2546.1105,N,08005.4947,W,1,10,1.8,18,M,,M,,*6A
06/10/2014	19:03:06.058	$GPGGA,190313,2546.1098,N,08005.4964,W,1,10,1.8,18,M,,M,,*6F
06/10/2014	19:03:07.067	$GPGGA,190314,2546.1089,N,08005.4982,W,1,10,2.2,18,M,,M,,*69
06/10/2014	19:03:08.194	$GPGGA,190315,2546.1082,N,08005.5000,W,1,10,1.8,18,M,,M,,*68
06/10/2014	19:03:09.144	$GPGGA,190316,2546.1074,N,08005.5018,W,1,10,2.2,18,M,,M,,*62
06/10/2014	19:03:10.269	$GPGGA,190317,2546.1067,N,08005.5036,W,1,10,1.8,18,M,,M,,*64
06/10/2014	19:03:11.187	$GPGGA,190318,2546.1061,N,08005.5054,W,1,10,1.5,18,M,,M,,*64
06/10/2014	19:03:12.333	$GPGGA,190319,2546.1055,N,08005.5076,W,1,10,1.8,18,M,,M,,*6F
06/10/2014	19:03:13.357	$GPGGA,190320,2546.1048,N,08005.5094,W,1,10,1.5,18,M,,M,,*68
06/10/2014	19:03:14.397	$GPGGA,190321,2546.1040,N,08005.5112,W,1,10,1.7,18,M,,M,,*6C
06/10/2014	19:03:15.408	$GPGGA,190322,2546.1032,N,08005.5130,W,1,10,1.7,17,M,,M,,*65
06/10/2014	19:03:16.441	$GPGGA,190323,2546.1026,N,08005.5148,W,1,10,1.7,17,M,,M,,*6E
06/10/2014	19:03:17.483	$GPGGA,190324,2546.1017,N,08005.5166,W,1,10,1.7,17,M,,M,,*67
06/10/2014	19:03:18.515	$GPGGA,190325,2546.1010,N,08005.5184,W,1,10,1.7,17,M,,M,,*6D
06/10/2014	19:03:19.526	$GPGGA,190326,2546.1003,N,08005.5203,W,1,10,1.7,17,M,,M,,*60
06/10/2014	19:03:20.569	$GPGGA,190327,2546.0995,N,08005.5221,W,1,10,1.7,17,M,,M,,*66
06/10/2014	19:03:21.610	$GPGGA,190328,2546.0988,N,08005.5240,W,1,10,1.7,17,M,,M,,*62
06/10/2014	19:03:22.632	$GPGGA,190329,2546.0981,N,08005.5258,W,1,10,1.7,17,M,,M,,*63
06/10/2014	19:03:23.644	$GPGGA,190330,2546.0974,N,08005.5276,W,1,10,1.7,17,M,,M,,*6D
06/10/2014	19:03:24.676	$GPGGA,190331,2546.0966,N,08005.5296,W,1,10,1.7,17,M,,M,,*61
06/10/2014	19:03:25.718	$GPGGA,190332,2546.0961,N,08005.5314,W,1,10,1.7,17,M,,M,,*6E
06/10/2014	19:03:26.761	$GPGGA,190333,2546.0954,N,08005.5332,W,1,10,1.7,17,M,,M,,*6D
06/10/2014	19:03:27.762	$GPGGA,190334,2546.0945,N,08005.5350,W,1,10,1.7,17,M,,M,,*6E
06/10/2014	19:03:28.794	$GPGGA,190335,2546.0938,N,08005.5368,W,1,10,1.7,17,M,,M,,*6E
06/10/2014	19:03:29.836	$GPGGA,190336,2546.0932,N,08005.5387,W,1,10,1.7,17,M,,M,,*66
06/10/2014	19:03:30.868	$GPGGA,190337,2546.0925,N,08005.5405,W,1,11,1.5,17,M,,M,,*6F
06/10/2014	19:03:31.880	$GPGGA,190338,2546.0920,N,08005.5426,W,1,11,1.5,17,M,,M,,*64
06/10/2014	19:03:33.049	$GPGGA,190339,2546.0914,N,08005.5444,W,1,11,1.5,18,M,,M,,*69
06/10/2014	19:03:33.969	$GPGGA,190340,2546.0908,N,08005.5462,W,1,11,1.5,18,M,,M,,*6E
06/10/2014	19:03:34.976	$GPGGA,190341,2546.0901,N,08005.5481,W,1,11,1.5,18,M,,M,,*6B
06/10/2014	19:03:36.020	$GPGGA,190342,2546.0896,N,08005.5499,W,1,11,1.5,18,M,,M,,*6E
06/10/2014	19:03:37.073	$GPGGA,190343,2546.0889,N,08005.5517,W,1,11,1.5,18,M,,M,,*66
06/10/2014	19:03:34.851	$GPGGA,190344,2546.0882,N,08005.5535,W,1,11,1.5,18,M,,M,,*6A
06/10/2014	19:03:35.862	$GPGGA,190345,2546.0876,N,08005.5553,W,1,11,1.5,18,M,,M,,*60
06/10/2014	19:03:36.874	$GPGGA,190346,2546.0869,N,08005.5571,W,1,11,1.5,18,M,,M,,*6D
06/10/2014	19:03:38.040	$GPGGA,190347,2546.0862,N,08005.5589,W,1,11,1.5,19,M,,M,,*61
06/10/2014	19:03:38.969	$GPGGA,190348,2546.0855,N,08005.5607,W,1,11,1.5,19,M,,M,,*6F
06/10/2014	19:03:40.084	$GPGGA,190349,2546.0849,N,08005.5625,W,1,11,1.5,19,M,,M,,*63
06/10/2014	19:03:41.012	$GPGGA,190350,2546.0843,N,08005.5643,W,1,11,1.5,19,M,,M,,*61
06/10/2014	19:03:42.024	$GPGGA,190351,2546.0837,N,08005.5661,W,1,11,1.5,19,M,,M,,*63
06/10/2014	19:03:43.087	$GPGGA,190352,2546.0831,N,08005.5679,W,1,11,1.5,19,M,,M,,*6F
06/10/2014	19:03:44.098	$GPGGA,190353,2546.0825,N,08005.5697,W,1,11,1.5,19,M,,M,,*6B
06/10/2014	19:03:45.234	$GPGGA,190354,2546.0820,N,08005.5715,W,1,11,1.5,19,M,,M,,*62
06/10/2014	19:03:46.256	$GPGGA,190355,2546.0813,N,08005.5733,W,1,10,1.5,19,M,,M,,*66
06/10/2014	19:03:47.329	$GPGGA,190356,2546.0807,N,08005.5751,W,1,10,1.5,20,M,,M,,*6E
06/10/2014	19:03:48.330	$GPGGA,190357,2546.0802,N,08005.5770,W,1,11,1.5,20,M,,M,,*68
06/10/2014	19:03:49.249	$GPGGA,190358,2546.0795,N,08005.5788,W,1,11,1.5,20,M,,M,,*61
06/10/2014	19:03:50.261	$GPGGA,190359,2546.0789,N,08005.5806,W,1,10,1.5,20,M,,M,,*65
06/10/2014	19:03:51.344	$GPGGA,190400,2546.0784,N,08005.5824,W,1,10,1.5,20,M,,M,,*63
06/10/2014	19:03:52.458	$GPGGA,190401,2546.0777,N,08005.5842,W,1,11,1.5,20,M,,M,,*6F
06/10/2014	19:03:53.470	$GPGGA,190402,2546.0770,N,08005.5860,W,1,11,1.5,20,M,,M,,*6B
06/10/2014	19:03:54.398	$GPGGA,190403,2546.0764,N,08005.5878,W,1,10,1.5,20,M,,M,,*67
06/10/2014	19:03:55.554	$GPGGA,190404,2546.0757,N,08005.5896,W,1,10,1.5,20,M,,M,,*60
06/10/2014	19:03:56.576	$GPGGA,190405,2546.0750,N,08005.5914,W,1,11,1.5,20,M,,M,,*6C
06/10/2014	19:03:57.587	$GPGGA,190406,2546.0744,N,08005.5932,W,1,11,1.5,20,M,,M,,*6E
06/10/2014	19:03:58.619	$GPGGA,190407,2546.0737,N,08005.5950,W,1,11,1.5,20,M,,M,,*6F
06/10/2014	19:03:59.661	$GPGGA,190408,2546.0730,N,08005.5968,W,1,11,1.5,20,M,,M,,*6C
06/10/2014	19:04:00.704	$GPGGA,190409,2546.0724,N,08005.5986,W,1,11,1.5,20,M,,M,,*68
06/10/2014	19:04:01.715	$GPGGA,190410,2546.0717,N,08005.6004,W,1,11,1.5,20,M,,M,,*60
06/10/2014	19:04:02.758	$GPGGA,190411,2546.0712,N,08005.6022,W,1,11,1.5,20,M,,M,,*60
06/10/2014	19:04:03.780	$GPGGA,190412,2546.0704,N,08005.6040,W,1,11,1.7,20,M,,M,,*62
06/10/2014	19:04:04.822	$GPGGA,190413,2546.0698,N,08005.6058,W,1,10,1.7,20,M,,M,,*6F
06/10/2014	19:04:05.833	$GPGGA,190414,2546.0692,N,08005.6076,W,1,10,1.7,20,M,,M,,*6E
06/10/2014	19:04:06.876	$GPGGA,190415,2546.0685,N,08005.6094,W,1,10,1.7,20,M,,M,,*65
06/10/2014	19:04:07.898	$GPGGA,190416,2546.0681,N,08005.6113,W,1,10,1.5,20,M,,M,,*6E
06/10/2014	19:04:08.930	$GPGGA,190417,2546.0673,N,08005.6131,W,1,11,1.5,20,M,,M,,*63
06/10/2014	19:04:09.950	$GPGGA,190418,2546.0666,N,08005.6149,W,1,11,1.7,20,M,,M,,*65
06/10/2014	19:04:10.993	$GPGGA,190419,2546.0661,N,08005.6165,W,1,10,1.7,20,M,,M,,*6C
06/10/2014	19:04:12.025	$GPGGA,190420,2546.0652,N,08005.6183,W,1,10,1.5,20,M,,M,,*6C
06/10/2014	19:04:13.051	$GPGGA,190421,2546.0645,N,08005.6201,W,1,11,1.7,20,M,,M,,*61
06/10/2014	19:04:14.080	$GPGGA,190422,2546.0638,N,08005.6218,W,1,11,1.7,19,M,,M,,*6A
06/10/2014	19:04:15.142	$GPGGA,190423,2546.0631,N,08005.6236,W,1,10,1.7,19,M,,M,,*6F
06/10/2014	19:04:16.143	$GPGGA,190424,2546.0625,N,08005.6255,W,1,10,1.7,19,M,,M,,*68
06/10/2014	19:04:17.186	$GPGGA,190425,2546.0616,N,08005.6272,W,1,10,1.7,19,M,,M,,*6C
06/10/2014	19:04:18.187	$GPGGA,190426,2546.0609,N,08005.6290,W,1,10,1.7,19,M,,M,,*6D
06/10/2014	19:04:19.229	$GPGGA,190427,2546.0603,N,08005.6309,W,1,10,1.5,19,M,,M,,*65
06/10/2014	19:04:20.251	$GPGGA,190428,2546.0596,N,08005.6326,W,1,10,1.7,19,M,,M,,*6A
06/10/2014	19:04:21.396	$GPGGA,190429,2546.0589,N,08005.6344,W,1,10,1.5,19,M,,M,,*63
06/10/2014	19:04:22.316	$GPGGA,190430,2546.0582,N,08005.6362,W,1,10,1.5,19,M,,M,,*64
06/10/2014	19:04:23.368	$GPGGA,190431,2546.0575,N,08005.6380,W,1,11,1.5,19,M,,M,,*60
06/10/2014	19:04:24.493	$GPGGA,190432,2546.0569,N,08005.6398,W,1,11,1.5,19,M,,M,,*67
06/10/2014	19:04:25.422	$GPGGA,190433,2546.0562,N,08005.6417,W,1,11,1.5,19,M,,M,,*6D
06/10/2014	19:04:26.423	$GPGGA,190434,2546.0554,N,08005.6435,W,1,11,1.8,19,M,,M,,*62
06/10/2014	19:04:27.486	$GPGGA,190435,2546.0546,N,08005.6453,W,1,10,1.8,19,M,,M,,*61
06/10/2014	19:04:28.527	$GPGGA,190436,2546.0539,N,08005.6470,W,1,10,1.8,19,M,,M,,*6B
06/10/2014	19:04:29.508	$GPGGA,190437,2546.0531,N,08005.6488,W,1,10,1.5,19,M,,M,,*68
06/10/2014	19:04:30.560	$GPGGA,190438,2546.0524,N,08005.6504,W,1,10,1.5,19,M,,M,,*66
06/10/2014	19:04:31.665	$GPGGA,190439,2546.0517,N,08005.6522,W,1,11,1.5,19,M,,M,,*62
06/10/2014	19:04:32.728	$GPGGA,190440,2546.0509,N,08005.6539,W,1,11,1.5,19,M,,M,,*69
06/10/2014	19:04:33.770	$GPGGA,190441,2546.0501,N,08005.6557,W,1,11,1.5,19,M,,M,,*68
06/10/2014	19:04:34.761	$GPGGA,190442,2546.0495,N,08005.6575,W,1,11,1.5,19,M,,M,,*67
06/10/2014	19:04:35.804	$GPGGA,190443,2546.0486,N,08005.6593,W,1,11,1.5,19,M,,M,,*6C
06/10/2014	19:04:34.900	$GPGGA,190444,2546.0479,N,08005.6611,W,1,11,1.5,19,M,,M,,*62
06/10/2014	19:04:35.953	$GPGGA,190445,2546.0471,N,08005.6629,W,1,11,1.5,19,M,,M,,*60
06/10/2014	19:04:36.954	$GPGGA,190446,2546.0463,N,08005.6647,W,1,11,1.5,19,M,,M,,*68
06/10/2014	19:04:37.976	$GPGGA,190447,2546.0455,N,08005.6665,W,1,11,1.5,19,M,,M,,*6C
06/10/2014	19:04:39.029	$GPGGA,190448,2546.0448,N,08005.6683,W,1,11,1.5,19,M,,M,,*67
06/10/2014	19:04:40.051	$GPGGA,190449,2546.0441,N,08005.6701,W,1,11,1.5,19,M,,M,,*64
06/10/2014	19:04:41.083	$GPGGA,190450,2546.0432,N,08005.6719,W,1,11,1.5,19,M,,M,,*61
06/10/2014	19:04:42.102	$GPGGA,190451,2546.0425,N,08005.6736,W,1,11,1.5,19,M,,M,,*6B
06/10/2014	19:04:43.157	$GPGGA,190452,2546.0417,N,08005.6754,W,1,11,1.5,19,M,,M,,*6D
06/10/2014	19:04:44.157	$GPGGA,190453,2546.0408,N,08005.6771,W,1,10,1.5,19,M,,M,,*64
06/10/2014	19:04:45.200	$GPGGA,190454,2546.0401,N,08005.6788,W,1,10,1.5,19,M,,M,,*6C
06/10/2014	19:04:46.242	$GPGGA,190455,2546.0392,N,08005.6806,W,1,11,2.2,19,M,,M,,*6C
06/10/2014	19:04:47.274	$GPGGA,190456,2546.0387,N,08005.6824,W,1,11,1.8,19,M,,M,,*62
06/10/2014	19:04:48.296	$GPGGA,190457,2546.0378,N,08005.6843,W,1,10,1.7,19,M,,M,,*6C
06/10/2014	19:04:49.318	$GPGGA,190458,2546.0372,N,08005.6864,W,1,10,1.7,19,M,,M,,*6C
06/10/2014	19:04:50.371	$GPGGA,190459,2546.0365,N,08005.6882,W,1,10,1.7,19,M,,M,,*63
06/10/2014	19:04:51.403	$GPGGA,190500,2546.0356,N,08005.6900,W,1,10,1.7,19,M,,M,,*65
06/10/2014	19:04:52.414	$GPGGA,190501,2546.0349,N,08005.6918,W,1,10,1.7,19,M,,M,,*63
06/10/2014	19:04:53.439	$GPGGA,190502,2546.0342,N,08005.6936,W,1,10,1.7,19,M,,M,,*67
06/10/2014	19:04:54.478	$GPGGA,190503,2546.0336,N,08005.6954,W,1,10,1.7,19,M,,M,,*61
06/10/2014	19:04:55.500	$GPGGA,190504,2546.0330,N,08005.6973,W,1,10,1.7,19,M,,M,,*65
06/10/2014	19:04:56.522	$GPGGA,190505,2546.0325,N,08005.6991,W,1,11,1.5,19,M,,M,,*6F
06/10/2014	19:04:57.559	$GPGGA,190506,2546.0319,N,08005.7010,W,1,11,1.5,19,M,,M,,*62
06/10/2014	19:04:58.596	$GPGGA,190507,2546.0313,N,08005.7027,W,1,11,1.5,19,M,,M,,*6D
06/10/2014	19:04:59.628	$GPGGA,190508,2546.0307,N,08005.7045,W,1,11,1.5,19,M,,M,,*63
06/10/2014	19:05:00.681	$GPGGA,190509,2546.0301,N,08005.7064,W,1,10,1.5,19,M,,M,,*66
06/10/2014	19:05:01.713	$GPGGA,190510,2546.0295,N,08005.7084,W,1,10,1.5,19,M,,M,,*6C
06/10/2014	19:05:02.704	$GPGGA,190511,2546.0289,N,08005.7102,W,1,11,1.5,20,M,,M,,*64
06/10/2014	19:05:03.766	$GPGGA,190512,2546.0282,N,08005.7121,W,1,11,1.5,20,M,,M,,*6D
06/10/2014	19:05:04.809	$GPGGA,190513,2546.0275,N,08005.7139,W,1,11,1.5,20,M,,M,,*6D
06/10/2014	19:05:05.789	$GPGGA,190514,2546.0271,N,08005.7157,W,1,11,1.5,20,M,,M,,*66
06/10/2014	19:05:06.935	$GPGGA,190515,2546.0264,N,08005.7173,W,1,11,1.5,20,M,,M,,*65
06/10/2014	19:05:07.864	$GPGGA,190516,2546.0257,N,08005.7191,W,1,11,1.5,20,M,,M,,*6A
06/10/2014	19:05:08.906	$GPGGA,190517,2546.0251,N,08005.7209,W,1,11,1.5,20,M,,M,,*6F
06/10/2014	19:05:09.917	$GPGGA,190518,2546.0244,N,08005.7227,W,1,11,1.5,20,M,,M,,*68
06/10/2014	19:05:11.074	$GPGGA,190519,2546.0238,N,08005.7245,W,1,11,1.5,20,M,,M,,*66
06/10/2014	19:05:11.993	$GPGGA,190520,2546.0231,N,08005.7263,W,1,11,1.5,20,M,,M,,*61
06/10/2014	19:05:13.139	$GPGGA,190521,2546.0225,N,08005.7281,W,1,11,1.5,20,M,,M,,*69
06/10/2014	19:05:14.046	$GPGGA,190522,2546.0218,N,08005.7299,W,1,11,1.5,20,M,,M,,*6D
06/10/2014	19:05:15.057	$GPGGA,190523,2546.0210,N,08005.7317,W,1,11,1.5,20,M,,M,,*63
06/10/2014	19:05:16.203	$GPGGA,190524,2546.0204,N,08005.7335,W,1,11,1.5,20,M,,M,,*61
06/10/2014	19:05:17.132	$GPGGA,190525,2546.0197,N,08005.7353,W,1,11,1.5,20,M,,M,,*69
06/10/2014	19:05:18.247	$GPGGA,190526,2546.0190,N,08005.7371,W,1,11,1.5,20,M,,M,,*6D
06/10/2014	19:05:19.197	$GPGGA,190527,2546.0183,N,08005.7389,W,1,11,1.5,20,M,,M,,*69
06/10/2014	19:05:20.218	$GPGGA,190528,2546.0177,N,08005.7407,W,1,11,1.5,20,M,,M,,*6C
06/10/2014	19:05:21.373	$GPGGA,190529,2546.0170,N,08005.7425,W,1,11,1.5,20,M,,M,,*6A
06/10/2014	19:05:22.374	$GPGGA,190530,2546.0163,N,08005.7443,W,1,11,1.5,20,M,,M,,*60
06/10/2014	19:05:23.396	$GPGGA,190531,2546.0159,N,08005.7462,W,1,11,1.5,20,M,,M,,*6B
06/10/2014	19:05:24.345	$GPGGA,190532,2546.0152,N,08005.7480,W,1,11,1.5,20,M,,M,,*6F
06/10/2014	19:05:25.460	$GPGGA,190533,2546.0145,N,08005.7497,W,1,11,1.5,20,M,,M,,*6E
06/10/2014	19:05:26.502	$GPGGA,190534,2546.0138,N,08005.7516,W,1,11,1.5,20,M,,M,,*6B
06/10/2014	19:05:27.534	$GPGGA,190535,2546.0131,N,08005.7533,W,1,11,1.5,20,M,,M,,*64
06/10/2014	19:05:28.566	$GPGGA,190536,2546.0124,N,08005.7551,W,1,11,1.5,20,M,,M,,*67
06/10/2014	19:05:29.619	$GPGGA,190537,2546.0117,N,08005.7569,W,1,11,1.5,20,M,,M,,*6D
06/10/2014	19:05:30.620	$GPGGA,190538,2546.0112,N,08005.7588,W,1,11,1.5,20,M,,M,,*68
06/10/2014	19:05:31.652	$GPGGA,190539,2546.0105,N,08005.7606,W,1,11,1.5,20,M,,M,,*6A
06/10/2014	19:05:32.696	$GPGGA,190540,2546.0098,N,08005.7624,W,1,11,1.5,20,M,,M,,*61
06/10/2014	19:05:33.727	$GPGGA,190541,2546.0090,N,08005.7644,W,1,11,1.5,20,M,,M,,*6E
06/10/2014	19:05:34.738	$GPGGA,190542,2546.0083,N,08005.7662,W,1,11,1.5,20,M,,M,,*6B
06/10/2014	19:05:35.791	$GPGGA,190543,2546.0076,N,08005.7680,W,1,11,1.5,20,M,,M,,*6C
06/10/2014	19:05:34.878	$GPGGA,190544,2546.0069,N,08005.7697,W,1,11,1.5,20,M,,M,,*63
06/10/2014	19:05:35.920	$GPGGA,190545,2546.0062,N,08005.7715,W,1,11,1.5,20,M,,M,,*62
06/10/2014	19:05:36.941	$GPGGA,190546,2546.0055,N,08005.7733,W,1,11,1.7,20,M,,M,,*63
06/10/2014	19:05:37.983	$GPGGA,190547,2546.0048,N,08005.7751,W,1,11,1.5,20,M,,M,,*68
06/10/2014	19:05:38.995	$GPGGA,190548,2546.0041,N,08005.7769,W,1,11,1.5,20,M,,M,,*65
06/10/2014	19:05:40.058	$GPGGA,190549,2546.0033,N,08005.7787,W,1,11,1.5,19,M,,M,,*6B
06/10/2014	19:05:41.038	$GPGGA,190550,2546.0025,N,08005.7805,W,1,11,1.7,19,M,,M,,*63
06/10/2014	19:05:42.103	$GPGGA,190551,2546.0019,N,08005.7825,W,1,11,1.5,19,M,,M,,*6D
06/10/2014	19:05:43.127	$GPGGA,190552,2546.0011,N,08005.7843,W,1,11,1.5,19,M,,M,,*66
06/10/2014	19:05:44.155	$GPGGA,190553,2546.0005,N,08005.7863,W,1,10,1.7,19,M,,M,,*63
06/10/2014	19:05:45.156	$GPGGA,190554,2546.0000,N,08005.7884,W,1,10,1.8,19,M,,M,,*67
06/10/2014	19:05:46.219	$GPGGA,190555,2545.9991,N,08005.7902,W,1,10,1.7,19,M,,M,,*6D
06/10/2014	19:05:47.241	$GPGGA,190556,2545.9984,N,08005.7921,W,1,10,1.7,19,M,,M,,*6B
06/10/2014	19:05:48.284	$GPGGA,190557,2545.9976,N,08005.7937,W,1,10,1.7,19,M,,M,,*60
06/10/2014	19:05:49.287	$GPGGA,190558,2545.9969,N,08005.7955,W,1,10,2.2,19,M,,M,,*63
06/10/2014	19:05:50.337	$GPGGA,190559,2545.9962,N,08005.7977,W,1,9,2.2,19,M,,M,,*51
06/10/2014	19:05:51.381	$GPGGA,190600,2545.9954,N,08005.7995,W,1,9,1.7,19,M,,M,,*51
06/10/2014	19:05:52.412	$GPGGA,190601,2545.9947,N,08005.8013,W,1,11,1.5,19,M,,M,,*61
06/10/2014	19:05:53.413	$GPGGA,190602,2545.9939,N,08005.8029,W,1,11,1.7,19,M,,M,,*60
06/10/2014	19:05:54.570	$GPGGA,190603,2545.9932,N,08005.8046,W,1,10,1.7,19,M,,M,,*62
06/10/2014	19:05:55.487	$GPGGA,190604,2545.9925,N,08005.8064,W,1,10,1.5,19,M,,M,,*61
06/10/2014	19:05:56.498	$GPGGA,190605,2545.9917,N,08005.8082,W,1,10,1.7,19,M,,M,,*6B
06/10/2014	19:05:57.541	$GPGGA,190606,2545.9910,N,08005.8098,W,1,10,1.7,19,M,,M,,*64
06/10/2014	19:05:58.573	$GPGGA,190607,2545.9901,N,08005.8115,W,1,11,1.5,19,M,,M,,*62
06/10/2014	19:05:59.605	$GPGGA,190608,2545.9897,N,08005.8134,W,1,11,1.5,19,M,,M,,*60
06/10/2014	19:06:00.657	$GPGGA,190609,2545.9888,N,08005.8152,W,1,11,1.5,19,M,,M,,*6F
06/10/2014	19:06:01.669	$GPGGA,190610,2545.9881,N,08005.8169,W,1,11,1.7,19,M,,M,,*64
06/10/2014	19:06:02.711	$GPGGA,190611,2545.9874,N,08005.8187,W,1,10,1.7,19,M,,M,,*6E
06/10/2014	19:06:03.723	$GPGGA,190612,2545.9865,N,08005.8206,W,1,10,1.7,19,M,,M,,*67
06/10/2014	19:06:04.858	$GPGGA,190613,2545.9857,N,08005.8224,W,1,10,1.7,19,M,,M,,*67
06/10/2014	19:06:05.890	$GPGGA,190614,2545.9850,N,08005.8242,W,1,10,1.7,19,M,,M,,*67
06/10/2014	19:06:06.829	$GPGGA,190615,2545.9842,N,08005.8260,W,1,10,1.7,19,M,,M,,*65
06/10/2014	19:06:07.842	$GPGGA,190616,2545.9834,N,08005.8278,W,1,10,1.7,19,M,,M,,*6E
06/10/2014	19:06:08.976	$GPGGA,190617,2545.9828,N,08005.8298,W,1,10,1.7,19,M,,M,,*6C
06/10/2014	19:06:09.884	$GPGGA,190618,2545.9821,N,08005.8316,W,1,10,1.5,19,M,,M,,*6F
06/10/2014	19:06:11.051	$GPGGA,190619,2545.9813,N,08005.8332,W,1,9,2.2,19,M,,M,,*55
06/10/2014	19:06:11.959	$GPGGA,190620,2545.9806,N,08005.8349,W,1,9,2.2,19,M,,M,,*57
06/10/2014	19:06:12.980	$GPGGA,190621,2545.9801,N,08005.8371,W,1,9,2.2,19,M,,M,,*5A
06/10/2014	19:06:14.105	$GPGGA,190622,2545.9795,N,08005.8390,W,1,9,1.5,19,M,,M,,*50
06/10/2014	19:06:15.054	$GPGGA,190623,2545.9787,N,08005.8407,W,1,10,1.9,19,M,,M,,*6F
06/10/2014	19:06:16.179	$GPGGA,190624,2545.9780,N,08005.8425,W,1,10,2.2,19,M,,M,,*67
06/10/2014	19:06:17.108	$GPGGA,190625,2545.9772,N,08005.8443,W,1,9,2.2,19,M,,M,,*53
06/10/2014	19:06:18.233	$GPGGA,190626,2545.9765,N,08005.8461,W,1,9,1.9,19,M,,M,,*5E
06/10/2014	19:06:19.265	$GPGGA,190627,2545.9758,N,08005.8479,W,1,11,1.5,19,M,,M,,*6D
06/10/2014	19:06:20.297	$GPGGA,190628,2545.9751,N,08005.8497,W,1,11,1.5,19,M,,M,,*6B
06/10/2014	19:06:21.329	$GPGGA,190629,2545.9744,N,08005.8515,W,1,11,1.5,19,M,,M,,*65
06/10/2014	19:06:22.248	$GPGGA,190630,2545.9736,N,08005.8531,W,1,11,1.5,19,M,,M,,*6E
06/10/2014	19:06:23.394	$GPGGA,190631,2545.9729,N,08005.8551,W,1,9,2.2,19,M,,M,,*5A
06/10/2014	19:06:24.426	$GPGGA,190632,2545.9722,N,08005.8569,W,1,9,1.5,19,M,,M,,*5D
06/10/2014	19:06:25.468	$GPGGA,190633,2545.9715,N,08005.8589,W,1,11,1.5,19,M,,M,,*6F
06/10/2014	19:06:26.469	$GPGGA,190634,2545.9707,N,08005.8607,W,1,11,1.5,19,M,,M,,*6E
06/10/2014	19:06:27.522	$GPGGA,190635,2545.9700,N,08005.8624,W,1,11,1.5,19,M,,M,,*69
06/10/2014	19:06:28.544	$GPGGA,190636,2545.9693,N,08005.8643,W,1,11,1.9,19,M,,M,,*6C
06/10/2014	19:06:29.566	$GPGGA,190637,2545.9686,N,08005.8663,W,1,11,1.5,19,M,,M,,*67
06/10/2014	19:06:30.597	$GPGGA,190638,2545.9679,N,08005.8681,W,1,11,1.5,19,M,,M,,*64
06/10/2014	19:06:31.639	$GPGGA,190639,2545.9673,N,08005.8700,W,1,11,1.5,19,M,,M,,*67
06/10/2014	19:06:32.650	$GPGGA,190640,2545.9668,N,08005.8718,W,1,11,1.5,19,M,,M,,*6A
06/10/2014	19:06:33.703	$GPGGA,190641,2545.9661,N,08005.8736,W,1,11,1.5,19,M,,M,,*6E
06/10/2014	19:06:34.715	$GPGGA,190642,2545.9655,N,08005.8754,W,1,11,1.5,19,M,,M,,*6E
06/10/2014	19:06:35.747	$GPGGA,190643,2545.9648,N,08005.8772,W,1,11,1.5,19,M,,M,,*67
06/10/2014	19:06:34.844	$GPGGA,190644,2545.9643,N,08005.8790,W,1,11,1.5,19,M,,M,,*67
06/10/2014	19:06:35.878	$GPGGA,190645,2545.9637,N,08005.8808,W,1,10,1.9,19,M,,M,,*66
06/10/2014	19:06:36.910	$GPGGA,190646,2545.9632,N,08005.8826,W,1,10,1.5,19,M,,M,,*60
06/10/2014	19:06:37.930	$GPGGA,190647,2545.9625,N,08005.8844,W,1,11,1.5,19,M,,M,,*62
06/10/2014	19:06:38.982	$GPGGA,190648,2545.9619,N,08005.8863,W,1,11,1.5,19,M,,M,,*67
06/10/2014	19:06:40.024	$GPGGA,190649,2545.9614,N,08005.8881,W,1,11,1.5,19,M,,M,,*67
06/10/2014	19:06:41.040	$GPGGA,190650,2545.9608,N,08005.8900,W,1,11,1.5,19,M,,M,,*6A
06/10/2014	19:06:42.060	$GPGGA,190651,2545.9603,N,08005.8918,W,1,11,1.5,19,M,,M,,*69
06/10/2014	19:06:43.091	$GPGGA,190652,2545.9596,N,08005.8936,W,1,11,1.5,19,M,,M,,*69
06/10/2014	19:06:44.102	$GPGGA,190653,2545.9592,N,08005.8954,W,1,11,1.5,19,M,,M,,*68
06/10/2014	19:06:45.134	$GPGGA,190654,2545.9585,N,08005.8974,W,1,11,1.5,19,M,,M,,*6B
06/10/2014	19:06:46.166	$GPGGA,190655,2545.9578,N,08005.8992,W,1,11,1.5,19,M,,M,,*60
06/10/2014	19:06:47.207	$GPGGA,190656,2545.9572,N,08005.9010,W,1,11,1.5,19,M,,M,,*6B
06/10/2014	19:06:48.229	$GPGGA,190657,2545.9565,N,08005.9028,W,1,11,1.5,20,M,,M,,*6D
06/10/2014	19:06:49.271	$GPGGA,190658,2545.9558,N,08005.9046,W,1,11,1.5,20,M,,M,,*64
06/10/2014	19:06:50.293	$GPGGA,190659,2545.9552,N,08005.9064,W,1,10,1.5,20,M,,M,,*6E
06/10/2014	19:06:51.490	$GPGGA,190700,2545.9546,N,08005.9082,W,1,10,1.5,20,M,,M,,*6E
06/10/2014	19:06:52.368	$GPGGA,190701,2545.9538,N,08005.9100,W,1,11,1.5,20,M,,M,,*6C
06/10/2014	19:06:53.379	$GPGGA,190702,2545.9531,N,08005.9118,W,1,11,1.5,20,M,,M,,*6F
06/10/2014	19:06:54.576	$GPGGA,190703,2545.9524,N,08005.9137,W,1,11,1.5,20,M,,M,,*67
06/10/2014	19:06:55.608	$GPGGA,190704,2545.9518,N,08005.9155,W,1,11,1.5,20,M,,M,,*6B
06/10/2014	19:06:56.671	$GPGGA,190705,2545.9511,N,08005.9173,W,1,11,1.5,20,M,,M,,*67
06/10/2014	19:06:57.600	$GPGGA,190706,2545.9505,N,08005.9191,W,1,11,1.5,20,M,,M,,*6D
06/10/2014	19:06:58.736	$GPGGA,190707,2545.9498,N,08005.9209,W,1,11,1.5,20,M,,M,,*6B
06/10/2014	19:06:59.582	$GPGGA,190708,2545.9492,N,08005.9227,W,1,11,1.5,20,M,,M,,*62
06/10/2014	19:07:00.707	$GPGGA,190709,2545.9485,N,08005.9243,W,1,10,1.9,20,M,,M,,*6A
06/10/2014	19:07:01.718	$GPGGA,190710,2545.9478,N,08005.9263,W,1,10,1.5,20,M,,M,,*6E
06/10/2014	19:07:02.843	$GPGGA,190711,2545.9471,N,08005.9278,W,1,11,1.5,20,M,,M,,*6D
06/10/2014	19:07:03.824	$GPGGA,190712,2545.9465,N,08005.9296,W,1,11,1.9,20,M,,M,,*67
06/10/2014	19:07:04.907	$GPGGA,190713,2545.9459,N,08005.9314,W,1,11,1.5,20,M,,M,,*6E
06/10/2014	19:07:05.836	$GPGGA,190714,2545.9452,N,08005.9331,W,1,11,1.9,20,M,,M,,*69
06/10/2014	19:07:06.775	$GPGGA,190715,2545.9446,N,08005.9347,W,1,10,1.9,20,M,,M,,*6D
06/10/2014	19:07:07.941	$GPGGA,190716,2545.9440,N,08005.9366,W,1,10,1.9,20,M,,M,,*6B
06/10/2014	19:07:09.035	$GPGGA,190717,2545.9433,N,08005.9383,W,1,11,1.5,20,M,,M,,*68
06/10/2014	19:07:09.985	$GPGGA,190718,2545.9427,N,08005.9401,W,1,11,1.9,20,M,,M,,*63
06/10/2014	19:07:11.089	$GPGGA,190719,2545.9420,N,08005.9419,W,1,10,1.9,20,M,,M,,*6D
06/10/2014	19:07:12.080	$GPGGA,190720,2545.9413,N,08005.9436,W,1,10,1.9,20,M,,M,,*6A
06/10/2014	19:07:13.167	$GPGGA,190721,2545.9408,N,08005.9455,W,1,10,1.5,20,M,,M,,*68
06/10/2014	19:07:14.113	$GPGGA,190722,2545.9401,N,08005.9473,W,1,10,1.5,20,M,,M,,*66
06/10/2014	19:07:15.106	$GPGGA,190723,2545.9394,N,08005.9491,W,1,10,1.9,20,M,,M,,*6C
06/10/2014	19:07:16.177	$GPGGA,190724,2545.9387,N,08005.9509,W,1,10,1.9,20,M,,M,,*69
06/10/2014	19:07:17.230	$GPGGA,190725,2545.9380,N,08005.9527,W,1,10,1.9,19,M,,M,,*69
06/10/2014	19:07:18.231	$GPGGA,190726,2545.9373,N,08005.9542,W,1,10,2.2,19,M,,M,,*6D
06/10/2014	19:07:19.335	$GPGGA,190727,2545.9366,N,08005.9563,W,1,9,2.2,19,M,,M,,*53
06/10/2014	19:07:20.267	$GPGGA,190728,2545.9361,N,08005.9584,W,1,9,1.9,19,M,,M,,*5A
06/10/2014	19:07:21.369	$GPGGA,190729,2545.9352,N,08005.9599,W,1,11,1.5,19,M,,M,,*62
06/10/2014	19:07:22.319	$GPGGA,190730,2545.9346,N,08005.9617,W,1,11,2.2,19,M,,M,,*6E
06/10/2014	19:07:23.411	$GPGGA,190731,2545.9336,N,08005.9632,W,1,9,1.9,19,M,,M,,*5E
06/10/2014	19:07:24.423	$GPGGA,190732,2545.9329,N,08005.9650,W,1,9,1.9,19,M,,M,,*57
06/10/2014	19:07:25.403	$GPGGA,190733,2545.9321,N,08005.9668,W,1,10,1.9,19,M,,M,,*6D
06/10/2014	19:07:26.435	$GPGGA,190734,2545.9314,N,08005.9684,W,1,10,1.9,19,M,,M,,*6E
06/10/2014	19:07:27.604	$GPGGA,190735,2545.9307,N,08005.9701,W,1,10,1.9,19,M,,M,,*61
06/10/2014	19:07:28.541	$GPGGA,190736,2545.9300,N,08005.9719,W,1,10,1.9,19,M,,M,,*6C
06/10/2014	19:07:29.624	$GPGGA,190737,2545.9294,N,08005.9737,W,1,10,1.9,19,M,,M,,*6D
06/10/2014	19:07:30.553	$GPGGA,190738,2545.9286,N,08005.9754,W,1,10,1.9,19,M,,M,,*64
06/10/2014	19:07:31.709	$GPGGA,190739,2545.9279,N,08005.9772,W,1,10,1.9,19,M,,M,,*61
06/10/2014	19:07:32.679	$GPGGA,190740,2545.9274,N,08005.9790,W,1,10,1.9,19,M,,M,,*6E
06/10/2014	19:07:33.722	$GPGGA,190741,2545.9265,N,08005.9809,W,1,9,1.9,18,M,,M,,*59
06/10/2014	19:07:34.702	$GPGGA,190742,2545.9257,N,08005.9827,W,1,9,1.9,18,M,,M,,*57
06/10/2014	19:07:35.786	$GPGGA,190743,2545.9251,N,08005.9845,W,1,10,1.9,18,M,,M,,*6C
06/10/2014	19:07:34.852	$GPGGA,190744,2545.9243,N,08005.9863,W,1,10,1.9,18,M,,M,,*6C
06/10/2014	19:07:35.936	$GPGGA,190745,2545.9236,N,08005.9881,W,1,10,1.9,18,M,,M,,*63
06/10/2014	19:07:36.864	$GPGGA,190746,2545.9230,N,08005.9899,W,1,10,1.9,18,M,,M,,*6F
06/10/2014	19:07:37.980	$GPGGA,190747,2545.9222,N,08005.9917,W,1,10,1.9,18,M,,M,,*6A
06/10/2014	19:07:38.979	$GPGGA,190748,2545.9216,N,08005.9935,W,1,10,1.9,18,M,,M,,*62
06/10/2014	19:07:40.085	$GPGGA,190749,2545.9209,N,08005.9951,W,1,10,1.9,18,M,,M,,*6F
06/10/2014	19:07:40.992	$GPGGA,190750,2545.9200,N,08005.9969,W,1,10,1.9,18,M,,M,,*65
06/10/2014	19:07:42.103	$GPGGA,190751,2545.9193,N,08005.9987,W,1,10,1.9,18,M,,M,,*6D
06/10/2014	19:07:43.106	$GPGGA,190752,2545.9187,N,08006.0005,W,1,10,1.9,18,M,,M,,*62
06/10/2014	19:07:44.181	$GPGGA,190753,2545.9180,N,08006.0025,W,1,9,1.9,18,M,,M,,*5E
06/10/2014	19:07:45.131	$GPGGA,190754,2545.9173,N,08006.0043,W,1,9,1.9,18,M,,M,,*55
06/10/2014	19:07:46.225	$GPGGA,190755,2545.9167,N,08006.0061,W,1,10,1.9,18,M,,M,,*69
06/10/2014	19:07:47.215	$GPGGA,190756,2545.9159,N,08006.0077,W,1,10,2.4,18,M,,M,,*6E
06/10/2014	19:07:48.375	$GPGGA,190757,2545.9149,N,08006.0094,W,1,8,1.9,18,M,,M,,*54
06/10/2014	19:07:49.352	$GPGGA,190758,2545.9142,N,08006.0113,W,1,8,1.9,18,M,,M,,*5E
06/10/2014	19:07:50.353	$GPGGA,190759,2545.9134,N,08006.0131,W,1,10,2.2,18,M,,M,,*6F
06/10/2014	19:07:51.426	$GPGGA,190800,2545.9126,N,08006.0148,W,1,10,2.2,18,M,,M,,*61
06/10/2014	19:07:52.417	$GPGGA,190801,2545.9120,N,08006.0166,W,1,9,1.9,18,M,,M,,*5A
06/10/2014	19:07:53.449	$GPGGA,190802,2545.9113,N,08006.0184,W,1,9,1.9,18,M,,M,,*55
06/10/2014	19:07:54.502	$GPGGA,190803,2545.9106,N,08006.0202,W,1,10,1.7,18,M,,M,,*6B
06/10/2014	19:07:56.577	$GPGGA,190805,2545.9093,N,08006.0239,W,1,10,1.9,18,M,,M,,*66
06/10/2014	19:07:57.515	$GPGGA,190806,2545.9086,N,08006.0256,W,1,10,2.4,18,M,,M,,*66
06/10/2014	19:07:58.609	$GPGGA,190807,2545.9079,N,08006.0272,W,1,8,1.9,18,M,,M,,*56
06/10/2014	19:07:59.652	$GPGGA,190808,2545.9072,N,08006.0289,W,1,8,1.9,18,M,,M,,*56
06/10/2014	19:08:00.665	$GPGGA,190809,2545.9066,N,08006.0307,W,1,10,1.5,18,M,,M,,*60
06/10/2014	19:08:01.679	$GPGGA,190810,2545.9061,N,08006.0325,W,1,10,1.9,18,M,,M,,*63
06/10/2014	19:08:02.692	$GPGGA,190811,2545.9053,N,08006.0343,W,1,10,1.9,18,M,,M,,*63
06/10/2014	19:08:03.705	$GPGGA,190812,2545.9047,N,08006.0361,W,1,10,1.9,18,M,,M,,*65
06/10/2014	19:08:04.718	$GPGGA,190813,2545.9041,N,08006.0379,W,1,9,1.9,18,M,,M,,*53
06/10/2014	19:08:05.711	$GPGGA,190814,2545.9034,N,08006.0397,W,1,9,1.9,18,M,,M,,*56
06/10/2014	19:08:06.764	$GPGGA,190815,2545.9027,N,08006.0413,W,1,10,1.9,18,M,,M,,*66
06/10/2014	19:08:07.747	$GPGGA,190816,2545.9021,N,08006.0433,W,1,10,1.9,18,M,,M,,*61
06/10/2014	19:08:08.780	$GPGGA,190817,2545.9014,N,08006.0451,W,1,10,1.9,18,M,,M,,*62
06/10/2014	19:08:09.755	$GPGGA,190818,2545.9007,N,08006.0469,W,1,10,1.9,18,M,,M,,*64
06/10/2014	19:08:10.847	$GPGGA,190819,2545.8999,N,08006.0486,W,1,10,1.9,18,M,,M,,*6B
06/10/2014	19:08:11.789	$GPGGA,190820,2545.8993,N,08006.0504,W,1,10,1.9,18,M,,M,,*60
06/10/2014	19:08:12.833	$GPGGA,190821,2545.8986,N,08006.0524,W,1,10,1.5,18,M,,M,,*6B
06/10/2014	19:08:13.812	$GPGGA,190822,2545.8979,N,08006.0542,W,1,10,1.5,18,M,,M,,*68
06/10/2014	19:08:14.868	$GPGGA,190823,2545.8971,N,08006.0560,W,1,11,1.5,18,M,,M,,*60
06/10/2014	19:08:15.845	$GPGGA,190824,2545.8965,N,08006.0579,W,1,11,1.5,18,M,,M,,*6A
06/10/2014	19:08:16.894	$GPGGA,190825,2545.8960,N,08006.0597,W,1,11,1.9,18,M,,M,,*62
06/10/2014	19:08:17.837	$GPGGA,190826,2545.8953,N,08006.0614,W,1,11,1.9,18,M,,M,,*69
06/10/2014	19:08:18.991	$GPGGA,190827,2545.8953,N,08006.0614,W,1,11,1.5,18,M,,M,,*64
06/10/2014	19:08:19.873	$GPGGA,190828,2545.8941,N,08006.0652,W,1,11,1.5,18,M,,M,,*6A
06/10/2014	19:08:20.904	$GPGGA,190829,2545.8941,N,08006.0652,W,1,11,1.5,18,M,,M,,*6B
06/10/2014	19:08:21.889	$GPGGA,190830,2545.8929,N,08006.0688,W,1,11,1.5,18,M,,M,,*6A
06/10/2014	19:08:23.026	$GPGGA,190831,2545.8922,N,08006.0706,W,1,11,1.5,18,M,,M,,*67
06/10/2014	19:08:24.044	$GPGGA,190832,2545.8914,N,08006.0723,W,1,11,1.5,18,M,,M,,*66
06/10/2014	19:08:25.060	$GPGGA,190833,2545.8907,N,08006.0741,W,1,11,1.5,18,M,,M,,*61
06/10/2014	19:08:25.941	$GPGGA,190834,2545.8900,N,08006.0759,W,1,11,1.5,18,M,,M,,*68
06/10/2014	19:08:27.046	$GPGGA,190835,2545.8895,N,08006.0777,W,1,11,1.5,18,M,,M,,*68
06/10/2014	19:08:27.957	$GPGGA,190836,2545.8887,N,08006.0795,W,1,11,1.5,18,M,,M,,*64
06/10/2014	19:08:29.072	$GPGGA,190837,2545.8880,N,08006.0813,W,1,11,1.5,18,M,,M,,*63
06/10/2014	19:08:30.085	$GPGGA,190838,2545.8874,N,08006.0832,W,1,11,1.5,18,M,,M,,*64
06/10/2014	19:08:31.088	$GPGGA,190839,2545.8869,N,08006.0850,W,1,11,1.5,18,M,,M,,*6D
06/10/2014	19:08:32.001	$GPGGA,190840,2545.8862,N,08006.0868,W,1,11,1.5,19,M,,M,,*62
06/10/2014	19:08:33.012	$GPGGA,190841,2545.8855,N,08006.0886,W,1,10,1.5,19,M,,M,,*66
06/10/2014	19:08:34.116	$GPGGA,190842,2545.8848,N,08006.0904,W,1,10,1.5,19,M,,M,,*62
06/10/2014	19:08:35.149	$GPGGA,190843,2545.8840,N,08006.0922,W,1,11,1.5,19,M,,M,,*6E
06/10/2014	19:08:34.893	$GPGGA,190844,2545.8834,N,08006.0940,W,1,11,1.5,19,M,,M,,*6E
06/10/2014	19:08:35.937	$GPGGA,190845,2545.8834,N,08006.0940,W,1,11,1.5,19,M,,M,,*6F
06/10/2014	19:08:36.808	$GPGGA,190846,2545.8821,N,08006.0975,W,1,11,1.9,19,M,,M,,*62
06/10/2014	19:08:37.932	$GPGGA,190847,2545.8813,N,08006.0993,W,1,10,1.9,19,M,,M,,*6B
06/10/2014	19:08:38.946	$GPGGA,190848,2545.8806,N,08006.1012,W,1,10,1.5,19,M,,M,,*6D
06/10/2014	19:08:39.979	$GPGGA,190849,2545.8806,N,08006.1012,W,1,11,1.5,19,M,,M,,*6D
06/10/2014	19:08:40.952	$GPGGA,190850,2545.8792,N,08006.1048,W,1,11,1.9,19,M,,M,,*64
06/10/2014	19:08:41.954	$GPGGA,190851,2545.8786,N,08006.1064,W,1,10,1.9,19,M,,M,,*6F
06/10/2014	19:08:42.988	$GPGGA,190852,2545.8779,N,08006.1081,W,1,10,1.9,19,M,,M,,*67
06/10/2014	19:08:44.001	$GPGGA,190853,2545.8772,N,08006.1099,W,1,11,1.5,19,M,,M,,*69
06/10/2014	19:08:44.994	$GPGGA,190854,2545.8765,N,08006.1118,W,1,11,1.9,19,M,,M,,*6C
06/10/2014	19:08:46.017	$GPGGA,190855,2545.8758,N,08006.1135,W,1,10,1.9,19,M,,M,,*6D
06/10/2014	19:08:47.031	$GPGGA,190856,2545.8750,N,08006.1153,W,1,10,1.9,19,M,,M,,*66
06/10/2014	19:08:48.027	$GPGGA,190857,2545.8745,N,08006.1171,W,1,9,1.9,19,M,,M,,*5B
06/10/2014	19:08:49.037	$GPGGA,190858,2545.8738,N,08006.1189,W,1,9,1.9,19,M,,M,,*59
06/10/2014	19:08:50.089	$GPGGA,190859,2545.8732,N,08006.1207,W,1,9,1.9,19,M,,M,,*57
06/10/2014	19:08:51.072	$GPGGA,190900,2545.8723,N,08006.1225,W,1,9,1.9,19,M,,M,,*5A
06/10/2014	19:08:52.084	$GPGGA,190901,2545.8717,N,08006.1241,W,1,9,1.9,19,M,,M,,*5E
06/10/2014	19:08:53.097	$GPGGA,190902,2545.8710,N,08006.1259,W,1,9,1.9,19,M,,M,,*53
06/10/2014	19:08:54.111	$GPGGA,190903,2545.8703,N,08006.1277,W,1,9,1.9,19,M,,M,,*5C
06/10/2014	19:08:55.112	$GPGGA,190904,2545.8696,N,08006.1295,W,1,9,1.9,19,M,,M,,*5A
06/10/2014	19:08:56.123	$GPGGA,190905,2545.8689,N,08006.1313,W,1,9,1.9,19,M,,M,,*5A
06/10/2014	19:08:57.121	$GPGGA,190906,2545.8681,N,08006.1330,W,1,9,1.9,19,M,,M,,*50
06/10/2014	19:08:58.153	$GPGGA,190907,2545.8676,N,08006.1349,W,1,10,1.9,19,M,,M,,*6F
06/10/2014	19:08:59.156	$GPGGA,190908,2545.8668,N,08006.1366,W,1,10,1.9,19,M,,M,,*62
06/10/2014	19:09:00.179	$GPGGA,190909,2545.8660,N,08006.1384,W,1,9,1.9,19,M,,M,,*5F
06/10/2014	19:09:01.172	$GPGGA,190910,2545.8653,N,08006.1402,W,1,9,1.9,19,M,,M,,*5E
06/10/2014	19:09:02.176	$GPGGA,190911,2545.8647,N,08006.1420,W,1,9,1.9,19,M,,M,,*5A
06/10/2014	19:09:03.208	$GPGGA,190912,2545.8639,N,08006.1438,W,1,9,1.9,19,M,,M,,*59
06/10/2014	19:09:04.232	$GPGGA,190913,2545.8633,N,08006.1456,W,1,10,1.9,19,M,,M,,*62
06/10/2014	19:09:05.214	$GPGGA,190914,2545.8627,N,08006.1474,W,1,10,1.9,19,M,,M,,*60
06/10/2014	19:09:06.257	$GPGGA,190915,2545.8620,N,08006.1492,W,1,10,1.9,19,M,,M,,*6E
06/10/2014	19:09:07.250	$GPGGA,190916,2545.8613,N,08006.1511,W,1,10,1.9,19,M,,M,,*67
06/10/2014	19:09:08.273	$GPGGA,190917,2545.8605,N,08006.1529,W,1,11,1.5,19,M,,M,,*67
06/10/2014	19:09:09.245	$GPGGA,190918,2545.8597,N,08006.1548,W,1,11,1.9,19,M,,M,,*6B
06/10/2014	19:09:10.258	$GPGGA,190919,2545.8591,N,08006.1565,W,1,9,1.8,19,M,,M,,*5B
06/10/2014	19:09:11.292	$GPGGA,190920,2545.8584,N,08006.1583,W,1,9,1.5,19,M,,M,,*50
06/10/2014	19:09:12.285	$GPGGA,190921,2545.8577,N,08006.1601,W,1,10,1.9,19,M,,M,,*60
06/10/2014	19:09:13.308	$GPGGA,190922,2545.8570,N,08006.1619,W,1,10,1.9,19,M,,M,,*6D
06/10/2014	19:09:14.344	$GPGGA,190923,2545.8566,N,08006.1637,W,1,9,1.9,19,M,,M,,*5F
06/10/2014	19:09:15.335	$GPGGA,190924,2545.8559,N,08006.1655,W,1,9,1.9,19,M,,M,,*50
06/10/2014	19:09:16.449	$GPGGA,190925,2545.8551,N,08006.1673,W,1,10,1.9,19,M,,M,,*65
06/10/2014	19:09:17.441	$GPGGA,190926,2545.8544,N,08006.1691,W,1,10,1.9,19,M,,M,,*6E
06/10/2014	19:09:18.444	$GPGGA,190927,2545.8537,N,08006.1709,W,1,11,1.5,19,M,,M,,*66
06/10/2014	19:09:19.478	$GPGGA,190928,2545.8530,N,08006.1727,W,1,11,1.5,19,M,,M,,*62
06/10/2014	19:09:20.481	$GPGGA,190929,2545.8523,N,08006.1745,W,1,11,1.5,20,M,,M,,*6F
06/10/2014	19:09:21.383	$GPGGA,190930,2545.8516,N,08006.1761,W,1,11,1.9,20,M,,M,,*6B
06/10/2014	19:09:22.416	$GPGGA,190931,2545.8510,N,08006.1781,W,1,9,2.2,20,M,,M,,*53
06/10/2014	19:09:23.408	$GPGGA,190932,2545.8503,N,08006.1799,W,1,9,1.9,20,M,,M,,*53
06/10/2014	19:09:24.421	$GPGGA,190933,2545.8497,N,08006.1815,W,1,10,1.9,20,M,,M,,*6D
06/10/2014	19:09:25.525	$GPGGA,190934,2545.8488,N,08006.1832,W,1,10,1.9,20,M,,M,,*61
06/10/2014	19:09:26.548	$GPGGA,190935,2545.8480,N,08006.1851,W,1,9,2.2,20,M,,M,,*5D
06/10/2014	19:09:27.460	$GPGGA,190936,2545.8472,N,08006.1868,W,1,9,1.7,20,M,,M,,*5F
06/10/2014	19:09:28.595	$GPGGA,190937,2545.8465,N,08006.1886,W,1,10,1.9,20,M,,M,,*6E
06/10/2014	19:09:29.577	$GPGGA,190938,2545.8457,N,08006.1904,W,1,10,1.9,20,M,,M,,*6B
06/10/2014	19:09:30.580	$GPGGA,190939,2545.8449,N,08006.1920,W,1,10,1.9,20,M,,M,,*63
06/10/2014	19:09:31.614	$GPGGA,190940,2545.8443,N,08006.1937,W,1,10,1.9,21,M,,M,,*60
06/10/2014	19:09:32.606	$GPGGA,190941,2545.8436,N,08006.1954,W,1,10,1.9,21,M,,M,,*66
06/10/2014	19:09:33.620	$GPGGA,190942,2545.8427,N,08006.1972,W,1,10,1.9,21,M,,M,,*61
06/10/2014	19:09:34.643	$GPGGA,190943,2545.8421,N,08006.1988,W,1,10,1.9,21,M,,M,,*63
06/10/2014	19:09:34.871	$GPGGA,190944,2545.8414,N,08006.2008,W,1,10,1.9,20,M,,M,,*61
06/10/2014	19:09:35.884	$GPGGA,190945,2545.8409,N,08006.2023,W,1,9,1.9,20,M,,M,,*5D
06/10/2014	19:09:36.907	$GPGGA,190946,2545.8403,N,08006.2041,W,1,9,1.9,20,M,,M,,*50
06/10/2014	19:09:37.890	$GPGGA,190947,2545.8397,N,08006.2060,W,1,10,1.9,20,M,,M,,*60
06/10/2014	19:09:38.913	$GPGGA,190948,2545.8389,N,08006.2077,W,1,10,1.9,20,M,,M,,*66
06/10/2014	19:09:39.936	$GPGGA,190949,2545.8382,N,08006.2095,W,1,9,1.9,20,M,,M,,*58
06/10/2014	19:09:40.918	$GPGGA,190950,2545.8378,N,08006.2114,W,1,9,1.9,20,M,,M,,*5D
06/10/2014	19:09:41.982	$GPGGA,190951,2545.8369,N,08006.2132,W,1,10,1.9,20,M,,M,,*60
06/10/2014	19:09:42.954	$GPGGA,190952,2545.8363,N,08006.2150,W,1,10,1.9,20,M,,M,,*6D
06/10/2014	19:09:43.988	$GPGGA,190953,2545.8357,N,08006.2168,W,1,10,1.9,20,M,,M,,*60
06/10/2014	19:09:44.972	$GPGGA,190954,2545.8349,N,08006.2186,W,1,10,1.9,21,M,,M,,*69
06/10/2014	19:09:45.994	$GPGGA,190955,2545.8342,N,08006.2205,W,1,9,1.9,21,M,,M,,*53
06/10/2014	19:09:46.988	$GPGGA,190956,2545.8335,N,08006.2223,W,1,9,1.9,21,M,,M,,*54
06/10/2014	19:09:48.030	$GPGGA,190957,2545.8328,N,08006.2241,W,1,9,1.9,21,M,,M,,*5D
06/10/2014	19:09:49.003	$GPGGA,190958,2545.8322,N,08006.2259,W,1,9,1.9,21,M,,M,,*51
06/10/2014	19:09:50.016	$GPGGA,190959,2545.8314,N,08006.2277,W,1,10,1.9,21,M,,M,,*61
06/10/2014	19:09:51.057	$GPGGA,191000,2545.8307,N,08006.2295,W,1,10,1.9,21,M,,M,,*6B
06/10/2014	19:09:52.077	$GPGGA,191001,2545.8300,N,08006.2314,W,1,9,1.9,21,M,,M,,*5D
06/10/2014	19:09:53.045	$GPGGA,191002,2545.8293,N,08006.2331,W,1,9,1.9,21,M,,M,,*52
06/10/2014	19:09:54.079	$GPGGA,191003,2545.8288,N,08006.2349,W,1,9,1.9,21,M,,M,,*56
06/10/2014	19:09:55.111	$GPGGA,191004,2545.8280,N,08006.2371,W,1,9,1.9,21,M,,M,,*52
06/10/2014	19:09:56.084	$GPGGA,191005,2545.8273,N,08006.2389,W,1,10,1.6,21,M,,M,,*6F
06/10/2014	19:09:57.097	$GPGGA,191006,2545.8266,N,08006.2408,W,1,10,1.9,21,M,,M,,*69
06/10/2014	19:09:58.100	$GPGGA,191007,2545.8259,N,08006.2426,W,1,9,1.9,21,M,,M,,*50
06/10/2014	19:09:59.133	$GPGGA,191008,2545.8253,N,08006.2444,W,1,9,1.9,21,M,,M,,*51
06/10/2014	19:10:00.157	$GPGGA,191009,2545.8248,N,08006.2462,W,1,10,1.9,21,M,,M,,*66
06/10/2014	19:10:01.149	$GPGGA,191010,2545.8239,N,08006.2479,W,1,10,1.9,21,M,,M,,*62
06/10/2014	19:10:02.183	$GPGGA,191011,2545.8233,N,08006.2497,W,1,10,1.9,21,M,,M,,*69
06/10/2014	19:10:03.286	$GPGGA,191012,2545.8225,N,08006.2516,W,1,10,1.9,21,M,,M,,*65
06/10/2014	19:10:04.188	$GPGGA,191013,2545.8219,N,08006.2534,W,1,10,1.9,21,M,,M,,*6B
06/10/2014	19:10:05.272	$GPGGA,191014,2545.8212,N,08006.2554,W,1,10,1.9,21,M,,M,,*61
06/10/2014	19:10:06.204	$GPGGA,191015,2545.8203,N,08006.2572,W,1,10,1.9,21,M,,M,,*64
06/10/2014	19:10:07.339	$GPGGA,191016,2545.8196,N,08006.2591,W,1,10,1.9,21,M,,M,,*65
06/10/2014	19:10:08.230	$GPGGA,191017,2545.8190,N,08006.2610,W,1,10,1.9,21,M,,M,,*68
06/10/2014	19:10:09.223	$GPGGA,191018,2545.8181,N,08006.2630,W,1,10,1.9,21,M,,M,,*65
06/10/2014	19:10:10.246	$GPGGA,191019,2545.8173,N,08006.2650,W,1,10,1.9,21,M,,M,,*6F
06/10/2014	19:10:11.361	$GPGGA,191020,2545.8167,N,08006.2670,W,1,10,1.9,21,M,,M,,*62
06/10/2014	19:10:12.273	$GPGGA,191021,2545.8158,N,08006.2691,W,1,10,1.9,21,M,,M,,*60
06/10/2014	19:10:13.265	$GPGGA,191022,2545.8150,N,08006.2710,W,1,10,1.9,21,M,,M,,*63
06/10/2014	19:10:14.289	$GPGGA,191023,2545.8143,N,08006.2731,W,1,9,1.9,21,M,,M,,*5B
06/10/2014	19:10:15.403	$GPGGA,191024,2545.8134,N,08006.2751,W,1,9,1.9,21,M,,M,,*5A
06/10/2014	19:10:16.405	$GPGGA,191025,2545.8125,N,08006.2772,W,1,9,1.9,21,M,,M,,*5A
06/10/2014	19:10:17.317	$GPGGA,191026,2545.8118,N,08006.2793,W,1,9,1.9,21,M,,M,,*58
06/10/2014	19:10:18.431	$GPGGA,191027,2545.8108,N,08006.2816,W,1,9,1.9,21,M,,M,,*5A
06/10/2014	19:10:19.454	$GPGGA,191028,2545.8100,N,08006.2840,W,1,9,1.6,21,M,,M,,*51
06/10/2014	19:10:20.467	$GPGGA,191029,2545.8093,N,08006.2859,W,1,10,1.6,21,M,,M,,*6B
06/10/2014	19:10:21.450	$GPGGA,191030,2545.8085,N,08006.2880,W,1,10,1.9,21,M,,M,,*6F
06/10/2014	19:10:22.463	$GPGGA,191031,2545.8078,N,08006.2901,W,1,10,1.9,21,M,,M,,*64
06/10/2014	19:10:23.497	$GPGGA,191032,2545.8069,N,08006.2921,W,1,10,1.5,21,M,,M,,*69
06/10/2014	19:10:24.479	$GPGGA,191033,2545.8061,N,08006.2944,W,1,9,1.9,21,M,,M,,*57
06/10/2014	19:10:25.503	$GPGGA,191034,2545.8053,N,08006.2964,W,1,9,1.5,21,M,,M,,*5F
06/10/2014	19:10:26.536	$GPGGA,191035,2545.8046,N,08006.2985,W,1,10,1.9,21,M,,M,,*61
06/10/2014	19:10:27.539	$GPGGA,191036,2545.8036,N,08006.3006,W,1,10,1.9,21,M,,M,,*66
06/10/2014	19:10:28.552	$GPGGA,191037,2545.8028,N,08006.3028,W,1,10,1.6,21,M,,M,,*6B
06/10/2014	19:10:29.545	$GPGGA,191038,2545.8022,N,08006.3050,W,1,10,1.9,21,M,,M,,*6E
06/10/2014	19:10:30.559	$GPGGA,191039,2545.8014,N,08006.3072,W,1,11,1.5,21,M,,M,,*67
06/10/2014	19:10:31.581	$GPGGA,191040,2545.8006,N,08006.3096,W,1,11,1.5,21,M,,M,,*60
06/10/2014	19:10:32.575	$GPGGA,191041,2545.7996,N,08006.3118,W,1,10,1.6,21,M,,M,,*6B
06/10/2014	19:10:33.599	$GPGGA,191042,2545.7988,N,08006.3139,W,1,10,1.9,21,M,,M,,*6B
06/10/2014	19:10:34.589	$GPGGA,191043,2545.7979,N,08006.3162,W,1,9,1.9,21,M,,M,,*52
06/10/2014	19:10:34.848	$GPGGA,191044,2545.7971,N,08006.3183,W,1,9,1.5,21,M,,M,,*5E
06/10/2014	19:10:35.840	$GPGGA,191045,2545.7962,N,08006.3206,W,1,10,1.9,21,M,,M,,*67
06/10/2014	19:10:36.859	$GPGGA,191046,2545.7953,N,08006.3228,W,1,10,1.6,21,M,,M,,*65
06/10/2014	19:10:37.869	$GPGGA,191047,2545.7945,N,08006.3251,W,1,10,1.6,21,M,,M,,*6D
06/10/2014	19:10:38.890	$GPGGA,191048,2545.7937,N,08006.3271,W,1,10,1.5,21,M,,M,,*66
06/10/2014	19:10:39.894	$GPGGA,191049,2545.7927,N,08006.3295,W,1,10,1.9,21,M,,M,,*60
06/10/2014	19:10:40.886	$GPGGA,191050,2545.7920,N,08006.3316,W,1,10,1.6,21,M,,M,,*6A
06/10/2014	19:10:41.929	$GPGGA,191051,2545.7912,N,08006.3338,W,1,11,1.5,21,M,,M,,*64
06/10/2014	19:10:42.922	$GPGGA,191052,2545.7903,N,08006.3360,W,1,11,1.5,21,M,,M,,*6A
06/10/2014	19:10:44.036	$GPGGA,191053,2545.7895,N,08006.3382,W,1,11,1.5,21,M,,M,,*69
06/10/2014	19:10:45.049	$GPGGA,191054,2545.7887,N,08006.3403,W,1,11,1.5,21,M,,M,,*63
06/10/2014	19:10:46.093	$GPGGA,191055,2545.7879,N,08006.3425,W,1,10,1.9,21,M,,M,,*6A
06/10/2014	19:10:46.974	$GPGGA,191056,2545.7869,N,08006.3446,W,1,10,1.5,21,M,,M,,*61
06/10/2014	19:10:48.079	$GPGGA,191057,2545.7859,N,08006.3466,W,1,10,1.6,21,M,,M,,*62
06/10/2014	19:10:48.980	$GPGGA,191058,2545.7851,N,08006.3487,W,1,10,1.6,21,M,,M,,*6A
06/10/2014	19:10:50.004	$GPGGA,191059,2545.7841,N,08006.3508,W,1,11,1.5,21,M,,M,,*6E
06/10/2014	19:10:51.130	$GPGGA,191100,2545.7833,N,08006.3530,W,1,11,1.5,21,M,,M,,*6D
06/10/2014	19:10:52.110	$GPGGA,191101,2545.7824,N,08006.3551,W,1,11,1.5,21,M,,M,,*6D
06/10/2014	19:10:53.123	$GPGGA,191102,2545.7815,N,08006.3573,W,1,11,1.5,21,M,,M,,*6C
06/10/2014	19:10:54.126	$GPGGA,191103,2545.7807,N,08006.3595,W,1,11,1.5,21,M,,M,,*66
06/10/2014	19:10:55.048	$GPGGA,191104,2545.7797,N,08006.3616,W,1,11,1.5,21,M,,M,,*6F
06/10/2014	19:10:56.182	$GPGGA,191105,2545.7787,N,08006.3638,W,1,9,1.9,21,M,,M,,*56
06/10/2014	19:10:57.185	$GPGGA,191106,2545.7778,N,08006.3661,W,1,9,1.9,21,M,,M,,*59
06/10/2014	19:10:58.209	$GPGGA,191107,2545.7768,N,08006.3682,W,1,11,1.5,21,M,,M,,*61
06/10/2014	19:10:59.212	$GPGGA,191108,2545.7760,N,08006.3706,W,1,11,1.5,21,M,,M,,*6B
06/10/2014	19:11:00.225	$GPGGA,191109,2545.7750,N,08006.3728,W,1,11,1.5,21,M,,M,,*65
06/10/2014	19:11:01.207	$GPGGA,191110,2545.7742,N,08006.3748,W,1,11,1.5,21,M,,M,,*68
06/10/2014	19:11:02.241	$GPGGA,191111,2545.7731,N,08006.3775,W,1,10,1.9,21,M,,M,,*6E
06/10/2014	19:11:03.244	$GPGGA,191112,2545.7724,N,08006.3797,W,1,10,1.6,21,M,,M,,*6A
06/10/2014	19:11:04.237	$GPGGA,191113,2545.7717,N,08006.3818,W,1,11,1.5,21,M,,M,,*61
06/10/2014	19:11:05.250	$GPGGA,191114,2545.7707,N,08006.3837,W,1,11,1.5,21,M,,M,,*6A
06/10/2014	19:11:06.293	$GPGGA,191115,2545.7699,N,08006.3858,W,1,11,1.5,21,M,,M,,*64
06/10/2014	19:11:07.286	$GPGGA,191116,2545.7690,N,08006.3880,W,1,11,1.5,21,M,,M,,*6B
06/10/2014	19:11:08.309	$GPGGA,191117,2545.7681,N,08006.3902,W,1,11,1.5,21,M,,M,,*61
06/10/2014	19:11:09.291	$GPGGA,191118,2545.7673,N,08006.3923,W,1,11,1.5,21,M,,M,,*60
06/10/2014	19:11:10.324	$GPGGA,191119,2545.7664,N,08006.3943,W,1,11,1.5,21,M,,M,,*61
06/10/2014	19:11:11.327	$GPGGA,191120,2545.7655,N,08006.3964,W,1,11,1.5,21,M,,M,,*6C
06/10/2014	19:11:12.371	$GPGGA,191121,2545.7648,N,08006.3986,W,1,11,1.5,21,M,,M,,*6D
06/10/2014	19:11:13.343	$GPGGA,191122,2545.7637,N,08006.4007,W,1,11,1.5,21,M,,M,,*61
06/10/2014	19:11:14.378	$GPGGA,191123,2545.7628,N,08006.4025,W,1,9,1.9,21,M,,M,,*5B
06/10/2014	19:11:15.380	$GPGGA,191124,2545.7619,N,08006.4050,W,1,9,1.5,21,M,,M,,*50
06/10/2014	19:11:16.393	$GPGGA,191125,2545.7610,N,08006.4072,W,1,11,1.5,21,M,,M,,*61
06/10/2014	19:11:17.386	$GPGGA,191126,2545.7600,N,08006.4093,W,1,11,1.5,21,M,,M,,*6C
06/10/2014	19:11:18.419	$GPGGA,191127,2545.7591,N,08006.4115,W,1,11,1.5,21,M,,M,,*69
06/10/2014	19:11:19.432	$GPGGA,191128,2545.7583,N,08006.4137,W,1,11,1.9,21,M,,M,,*69
06/10/2014	19:11:20.420	$GPGGA,191129,2545.7574,N,08006.4158,W,1,11,1.5,21,M,,M,,*65
06/10/2014	19:11:21.443	$GPGGA,191130,2545.7565,N,08006.4180,W,1,11,1.5,21,M,,M,,*68
06/10/2014	19:11:22.441	$GPGGA,191131,2545.7556,N,08006.4201,W,1,11,1.5,21,M,,M,,*63
06/10/2014	19:11:23.474	$GPGGA,191132,2545.7548,N,08006.4221,W,1,11,1.5,21,M,,M,,*6D
06/10/2014	19:11:24.458	$GPGGA,191133,2545.7540,N,08006.4242,W,1,11,1.5,21,M,,M,,*61
06/10/2014	19:11:25.490	$GPGGA,191134,2545.7530,N,08006.4264,W,1,11,1.5,21,M,,M,,*65
06/10/2014	19:11:26.503	$GPGGA,191135,2545.7522,N,08006.4286,W,1,11,1.5,21,M,,M,,*6B
06/10/2014	19:11:27.516	$GPGGA,191136,2545.7513,N,08006.4308,W,1,11,1.5,20,M,,M,,*6C
06/10/2014	19:11:28.637	$GPGGA,191137,2545.7504,N,08006.4332,W,1,11,1.5,20,M,,M,,*62
06/10/2014	19:11:29.623	$GPGGA,191138,2545.7495,N,08006.4353,W,1,11,1.5,20,M,,M,,*63
06/10/2014	19:11:30.525	$GPGGA,191139,2545.7487,N,08006.4375,W,1,11,1.5,20,M,,M,,*65
06/10/2014	19:11:31.678	$GPGGA,191140,2545.7479,N,08006.4397,W,1,11,1.5,20,M,,M,,*66
06/10/2014	19:11:32.551	$GPGGA,191141,2545.7471,N,08006.4419,W,1,11,1.5,20,M,,M,,*6E
06/10/2014	19:11:33.574	$GPGGA,191142,2545.7461,N,08006.4441,W,1,11,1.9,20,M,,M,,*6D
06/10/2014	19:11:34.567	$GPGGA,191143,2545.7453,N,08006.4465,W,1,10,1.6,20,M,,M,,*65
06/10/2014	19:11:34.826	$GPGGA,191144,2545.7442,N,08006.4487,W,1,10,1.5,20,M,,M,,*6D
06/10/2014	19:11:35.829	$GPGGA,191145,2545.7435,N,08006.4510,W,1,11,1.5,20,M,,M,,*62
06/10/2014	19:11:36.812	$GPGGA,191146,2545.7428,N,08006.4532,W,1,11,1.5,20,M,,M,,*6D
06/10/2014	19:11:37.845	$GPGGA,191147,2545.7419,N,08006.4556,W,1,10,1.9,20,M,,M,,*61
06/10/2014	19:11:38.879	$GPGGA,191148,2545.7410,N,08006.4578,W,1,10,1.5,20,M,,M,,*67
06/10/2014	19:11:39.985	$GPGGA,191149,2545.7401,N,08006.4603,W,1,10,1.5,20,M,,M,,*69
