Software Version Number: 1	Data File Format Number: 1	Build Version Number: 1	Error Count Since VI Started: 0	Manufacturer: Raytheon	 Model Number: RayMarine 120	 S/N: 	 Cal Date: 	 Wind Direction Offset: 0.00	 Slope (M)1: 0.00	 Offset (B)1: 0.00	 Slope (M)2: 0.00	 Offset (B)2: 0.00	 Slope (M)3: 0.00	 Offset (B)3: 0.00	 Slope (M)4: 0.00	 Offset (B)4: 0.00	 Slope (M)5: 0.00	 Offset (B)5: 0.00	 Slope (M)6: 0.00	 Offset (B)6: 0.00
Computer Date	Computer Time	GGA String
06/07/2014	20:00:00.907	$GPGGA,200001,2425.1155,N,08055.3116,W,1,10,1.5,17,M,,M,,*6C
06/07/2014	20:00:01.895	$GPGGA,200002,2425.1167,N,08055.3108,W,1,10,1.5,17,M,,M,,*61
06/07/2014	20:00:02.925	$GPGGA,200003,2425.1180,N,08055.3100,W,1,10,1.5,17,M,,M,,*61
06/07/2014	20:00:03.939	$GPGGA,200004,2425.1192,N,08055.3093,W,1,10,1.5,17,M,,M,,*6E
06/07/2014	20:00:04.926	$GPGGA,200005,2425.1206,N,08055.3085,W,1,10,1.5,17,M,,M,,*66
06/07/2014	20:00:05.953	$GPGGA,200006,2425.1218,N,08055.3076,W,1,10,1.5,17,M,,M,,*66
06/07/2014	20:00:06.960	$GPGGA,200007,2425.1232,N,08055.3068,W,1,10,1.5,17,M,,M,,*60
06/07/2014	20:00:07.998	$GPGGA,200008,2425.1245,N,08055.3061,W,1,10,1.5,17,M,,M,,*66
06/07/2014	20:00:08.995	$GPGGA,200009,2425.1259,N,08055.3053,W,1,10,1.5,17,M,,M,,*6B
06/07/2014	20:00:10.013	$GPGGA,200010,2425.1271,N,08055.3045,W,1,10,1.5,17,M,,M,,*6E
06/07/2014	20:00:11.040	$GPGGA,200011,2425.1283,N,08055.3036,W,1,10,1.5,17,M,,M,,*66
06/07/2014	20:00:12.065	$GPGGA,200012,2425.1297,N,08055.3028,W,1,10,1.5,17,M,,M,,*6F
06/07/2014	20:00:13.067	$GPGGA,200013,2425.1310,N,08055.3021,W,1,10,1.5,17,M,,M,,*69
06/07/2014	20:00:14.079	$GPGGA,200014,2425.1322,N,08055.3013,W,1,10,1.5,17,M,,M,,*6E
06/07/2014	20:00:15.081	$GPGGA,200015,2425.1336,N,08055.3005,W,1,10,1.5,17,M,,M,,*6D
06/07/2014	20:00:16.115	$GPGGA,200016,2425.1348,N,08055.2997,W,1,10,1.5,17,M,,M,,*64
06/07/2014	20:00:17.121	$GPGGA,200017,2425.1362,N,08055.2990,W,1,10,1.5,17,M,,M,,*6A
06/07/2014	20:00:18.136	$GPGGA,200018,2425.1375,N,08055.2981,W,1,10,1.5,16,M,,M,,*62
06/07/2014	20:00:19.170	$GPGGA,200019,2425.1387,N,08055.2974,W,1,10,1.5,16,M,,M,,*64
06/07/2014	20:00:20.183	$GPGGA,200020,2425.1401,N,08055.2966,W,1,10,1.5,16,M,,M,,*64
06/07/2014	20:00:21.189	$GPGGA,200021,2425.1413,N,08055.2958,W,1,10,1.5,16,M,,M,,*6B
06/07/2014	20:00:22.190	$GPGGA,200022,2425.1426,N,08055.2950,W,1,10,1.5,16,M,,M,,*66
06/07/2014	20:00:23.228	$GPGGA,200023,2425.1438,N,08055.2943,W,1,10,1.5,16,M,,M,,*6A
06/07/2014	20:00:24.253	$GPGGA,200024,2425.1452,N,08055.2935,W,1,10,1.5,16,M,,M,,*60
06/07/2014	20:00:25.232	$GPGGA,200025,2425.1465,N,08055.2927,W,1,10,1.5,16,M,,M,,*66
06/07/2014	20:00:26.249	$GPGGA,200026,2425.1478,N,08055.2919,W,1,10,1.5,16,M,,M,,*64
06/07/2014	20:00:27.277	$GPGGA,200027,2425.1491,N,08055.2912,W,1,10,1.5,16,M,,M,,*69
06/07/2014	20:00:28.294	$GPGGA,200028,2425.1503,N,08055.2904,W,1,10,1.5,16,M,,M,,*6B
06/07/2014	20:00:29.484	$GPGGA,200029,2425.1517,N,08055.2897,W,1,10,1.5,16,M,,M,,*64
06/07/2014	20:00:30.328	$GPGGA,200030,2425.1530,N,08055.2889,W,1,10,1.5,16,M,,M,,*66
06/07/2014	20:00:31.325	$GPGGA,200031,2425.1543,N,08055.2881,W,1,10,1.5,16,M,,M,,*6B
06/07/2014	20:00:32.363	$GPGGA,200032,2425.1556,N,08055.2874,W,1,10,1.5,16,M,,M,,*66
06/07/2014	20:00:33.513	$GPGGA,200033,2425.1568,N,08055.2866,W,1,10,1.5,16,M,,M,,*69
06/07/2014	20:00:34.377	$GPGGA,200034,2425.1581,N,08055.2858,W,1,10,1.5,16,M,,M,,*64
06/07/2014	20:00:35.405	$GPGGA,200035,2425.1593,N,08055.2851,W,1,10,1.5,16,M,,M,,*6F
06/07/2014	20:00:36.437	$GPGGA,200036,2425.1607,N,08055.2843,W,1,10,1.5,16,M,,M,,*61
06/07/2014	20:00:37.983	$GPGGA,200038,2425.1633,N,08055.2827,W,1,10,1.5,16,M,,M,,*6A
06/07/2014	20:00:38.400	$GPGGA,200039,2425.1646,N,08055.2819,W,1,10,1.5,16,M,,M,,*64
06/07/2014	20:00:39.448	$GPGGA,200040,2425.1658,N,08055.2811,W,1,10,1.5,16,M,,M,,*6D
06/07/2014	20:00:40.465	$GPGGA,200041,2425.1672,N,08055.2804,W,1,10,1.5,16,M,,M,,*60
06/07/2014	20:00:41.462	$GPGGA,200042,2425.1684,N,08055.2795,W,1,10,1.5,16,M,,M,,*6D
06/07/2014	20:00:42.638	$GPGGA,200043,2425.1697,N,08055.2788,W,1,10,1.5,16,M,,M,,*62
06/07/2014	20:00:43.670	$GPGGA,200044,2425.1709,N,08055.2780,W,1,10,1.5,16,M,,M,,*6B
06/07/2014	20:00:44.659	$GPGGA,200045,2425.1723,N,08055.2772,W,1,10,1.5,16,M,,M,,*6F
06/07/2014	20:00:45.603	$GPGGA,200046,2425.1736,N,08055.2764,W,1,10,1.5,16,M,,M,,*6F
06/07/2014	20:00:46.650	$GPGGA,200047,2425.1749,N,08055.2756,W,1,10,1.5,16,M,,M,,*67
06/07/2014	20:00:47.732	$GPGGA,200048,2425.1762,N,08055.2749,W,1,10,1.5,16,M,,M,,*6F
06/07/2014	20:00:48.654	$GPGGA,200049,2425.1776,N,08055.2741,W,1,10,1.5,16,M,,M,,*63
06/07/2014	20:00:49.753	$GPGGA,200050,2425.1788,N,08055.2733,W,1,10,1.5,16,M,,M,,*6F
06/07/2014	20:00:50.770	$GPGGA,200051,2425.1802,N,08055.2725,W,1,10,1.5,16,M,,M,,*64
06/07/2014	20:00:51.802	$GPGGA,200052,2425.1814,N,08055.2718,W,1,10,1.5,16,M,,M,,*6E
06/07/2014	20:00:52.775	$GPGGA,200053,2425.1828,N,08055.2710,W,1,10,1.5,16,M,,M,,*68
06/07/2014	20:00:53.731	$GPGGA,200054,2425.1841,N,08055.2702,W,1,10,1.5,16,M,,M,,*63
06/07/2014	20:00:54.749	$GPGGA,200055,2425.1853,N,08055.2695,W,1,10,1.5,16,M,,M,,*6E
06/07/2014	20:00:55.776	$GPGGA,200056,2425.1867,N,08055.2687,W,1,10,1.5,16,M,,M,,*69
06/07/2014	20:00:56.863	$GPGGA,200057,2425.1879,N,08055.2679,W,1,10,1.5,16,M,,M,,*66
06/07/2014	20:00:57.852	$GPGGA,200058,2425.1893,N,08055.2672,W,1,10,1.5,16,M,,M,,*66
06/07/2014	20:00:58.813	$GPGGA,200059,2425.1906,N,08055.2664,W,1,10,1.5,16,M,,M,,*6D
06/07/2014	20:00:59.836	$GPGGA,200100,2425.1918,N,08055.2656,W,1,10,1.5,16,M,,M,,*6E
06/07/2014	20:01:00.914	$GPGGA,200101,2425.1932,N,08055.2648,W,1,10,1.5,16,M,,M,,*68
06/07/2014	20:01:01.854	$GPGGA,200102,2425.1944,N,08055.2641,W,1,10,1.5,16,M,,M,,*63
06/07/2014	20:01:02.879	$GPGGA,200103,2425.1958,N,08055.2633,W,1,10,1.5,16,M,,M,,*6A
06/07/2014	20:01:03.955	$GPGGA,200104,2425.1969,N,08055.2624,W,1,10,1.5,16,M,,M,,*69
06/07/2014	20:01:04.952	$GPGGA,200105,2425.1983,N,08055.2617,W,1,10,1.5,16,M,,M,,*6C
06/07/2014	20:01:05.970	$GPGGA,200106,2425.1996,N,08055.2609,W,1,10,1.5,16,M,,M,,*64
06/07/2014	20:01:06.977	$GPGGA,200107,2425.2009,N,08055.2601,W,1,10,1.5,16,M,,M,,*61
06/07/2014	20:01:07.957	$GPGGA,200108,2425.2022,N,08055.2594,W,1,10,1.5,16,M,,M,,*68
06/07/2014	20:01:09.012	$GPGGA,200109,2425.2036,N,08055.2586,W,1,10,1.5,16,M,,M,,*6F
06/07/2014	20:01:09.968	$GPGGA,200110,2425.2048,N,08055.2578,W,1,10,1.5,16,M,,M,,*6F
06/07/2014	20:01:11.046	$GPGGA,200111,2425.2061,N,08055.2570,W,1,10,1.5,16,M,,M,,*6D
06/07/2014	20:01:12.013	$GPGGA,200112,2425.2074,N,08055.2562,W,1,10,1.5,16,M,,M,,*69
06/07/2014	20:01:13.061	$GPGGA,200113,2425.2087,N,08055.2555,W,1,10,1.5,16,M,,M,,*60
06/07/2014	20:01:14.038	$GPGGA,200114,2425.2099,N,08055.2548,W,1,10,1.5,16,M,,M,,*64
06/07/2014	20:01:15.096	$GPGGA,200115,2425.2113,N,08055.2539,W,1,10,1.5,16,M,,M,,*60
06/07/2014	20:01:16.134	$GPGGA,200116,2425.2126,N,08055.2532,W,1,10,1.5,16,M,,M,,*6E
06/07/2014	20:01:17.242	$GPGGA,200117,2425.2139,N,08055.2525,W,1,10,1.5,16,M,,M,,*67
06/07/2014	20:01:18.189	$GPGGA,200118,2425.2150,N,08055.2517,W,1,10,1.5,16,M,,M,,*66
06/07/2014	20:01:19.114	$GPGGA,200119,2425.2164,N,08055.2510,W,1,10,1.5,16,M,,M,,*67
06/07/2014	20:01:20.254	$GPGGA,200120,2425.2177,N,08055.2502,W,1,10,1.5,16,M,,M,,*6C
06/07/2014	20:01:21.278	$GPGGA,200121,2425.2189,N,08055.2494,W,1,10,1.5,16,M,,M,,*62
06/07/2014	20:01:22.227	$GPGGA,200122,2425.2203,N,08055.2487,W,1,10,1.5,16,M,,M,,*62
06/07/2014	20:01:23.285	$GPGGA,200123,2425.2215,N,08055.2479,W,1,10,1.5,16,M,,M,,*65
06/07/2014	20:01:24.272	$GPGGA,200124,2425.2229,N,08055.2472,W,1,10,1.5,16,M,,M,,*66
06/07/2014	20:01:25.319	$GPGGA,200125,2425.2242,N,08055.2465,W,1,10,1.5,16,M,,M,,*6C
06/07/2014	20:01:26.279	$GPGGA,200126,2425.2254,N,08055.2457,W,1,10,1.5,16,M,,M,,*69
06/07/2014	20:01:27.364	$GPGGA,200127,2425.2268,N,08055.2450,W,1,10,1.5,16,M,,M,,*60
06/07/2014	20:01:28.331	$GPGGA,200128,2425.2280,N,08055.2443,W,1,10,1.5,16,M,,M,,*6B
06/07/2014	20:01:29.389	$GPGGA,200129,2425.2294,N,08055.2435,W,1,10,1.5,16,M,,M,,*6E
06/07/2014	20:01:30.386	$GPGGA,200130,2425.2307,N,08055.2427,W,1,10,1.5,16,M,,M,,*6E
06/07/2014	20:01:31.425	$GPGGA,200131,2425.2319,N,08055.2420,W,1,10,1.5,16,M,,M,,*67
06/07/2014	20:01:32.431	$GPGGA,200132,2425.2319,N,08055.2420,W,1,10,1.5,16,M,,M,,*64
06/07/2014	20:01:33.418	$GPGGA,200133,2425.2345,N,08055.2404,W,1,10,1.5,16,M,,M,,*6A
06/07/2014	20:01:34.446	$GPGGA,200134,2425.2359,N,08055.2397,W,1,10,1.5,16,M,,M,,*6D
06/07/2014	20:01:35.493	$GPGGA,200135,2425.2372,N,08055.2389,W,1,10,1.5,16,M,,M,,*6A
06/07/2014	20:01:36.480	$GPGGA,200136,2425.2384,N,08055.2382,W,1,10,1.5,16,M,,M,,*6B
06/07/2014	20:01:37.488	$GPGGA,200137,2425.2398,N,08055.2375,W,1,10,1.5,16,M,,M,,*6F
06/07/2014	20:01:37.471	$GPGGA,200138,2425.2410,N,08055.2367,W,1,10,1.5,16,M,,M,,*64
06/07/2014	20:01:38.498	$GPGGA,200139,2425.2424,N,08055.2359,W,1,10,1.5,16,M,,M,,*6F
06/07/2014	20:01:39.515	$GPGGA,200140,2425.2437,N,08055.2352,W,1,10,1.5,16,M,,M,,*68
06/07/2014	20:01:40.512	$GPGGA,200141,2425.2449,N,08055.2345,W,1,10,1.5,16,M,,M,,*66
06/07/2014	20:01:41.530	$GPGGA,200142,2425.2463,N,08055.2337,W,1,10,1.5,16,M,,M,,*68
06/07/2014	20:01:42.537	$GPGGA,200143,2425.2475,N,08055.2330,W,1,10,1.5,16,M,,M,,*69
06/07/2014	20:01:43.575	$GPGGA,200144,2425.2489,N,08055.2322,W,1,10,1.5,16,M,,M,,*6E
06/07/2014	20:01:44.602	$GPGGA,200145,2425.2502,N,08055.2314,W,1,10,1.5,16,M,,M,,*68
06/07/2014	20:01:45.609	$GPGGA,200146,2425.2514,N,08055.2308,W,1,10,1.5,16,M,,M,,*61
06/07/2014	20:01:46.606	$GPGGA,200147,2425.2528,N,08055.2300,W,1,10,1.5,16,M,,M,,*67
06/07/2014	20:01:47.645	$GPGGA,200148,2425.2540,N,08055.2292,W,1,10,1.5,16,M,,M,,*6C
06/07/2014	20:01:48.651	$GPGGA,200149,2425.2540,N,08055.2292,W,1,10,1.5,16,M,,M,,*6D
06/07/2014	20:01:49.689	$GPGGA,200150,2425.2565,N,08055.2278,W,1,10,1.5,16,M,,M,,*66
06/07/2014	20:01:50.686	$GPGGA,200151,2425.2565,N,08055.2278,W,1,10,1.5,16,M,,M,,*67
06/07/2014	20:01:51.693	$GPGGA,200152,2425.2579,N,08055.2271,W,1,10,1.5,16,M,,M,,*60
06/07/2014	20:01:52.721	$GPGGA,200153,2425.2605,N,08055.2256,W,1,10,1.5,16,M,,M,,*6C
06/07/2014	20:01:53.759	$GPGGA,200154,2425.2618,N,08055.2250,W,1,10,1.5,16,M,,M,,*61
06/07/2014	20:01:54.740	$GPGGA,200155,2425.2632,N,08055.2243,W,1,10,1.5,16,M,,M,,*6A
06/07/2014	20:01:55.865	$GPGGA,200156,2425.2645,N,08055.2235,W,1,10,1.5,16,M,,M,,*68
06/07/2014	20:01:56.790	$GPGGA,200157,2425.2658,N,08055.2229,W,1,10,1.7,17,M,,M,,*6B
06/07/2014	20:01:57.807	$GPGGA,200158,2425.2658,N,08055.2229,W,1,10,1.7,17,M,,M,,*64
06/07/2014	20:01:58.804	$GPGGA,200159,2425.2683,N,08055.2213,W,1,10,1.5,17,M,,M,,*68
06/07/2014	20:01:59.862	$GPGGA,200200,2425.2697,N,08055.2206,W,1,10,1.5,17,M,,M,,*66
06/07/2014	20:02:01.704	$GPGGA,200201,2425.2710,N,08055.2199,W,1,10,1.5,17,M,,M,,*6C
06/07/2014	20:02:01.839	$GPGGA,200202,2425.2710,N,08055.2199,W,1,10,1.5,17,M,,M,,*6F
06/07/2014	20:02:02.853	$GPGGA,200203,2425.2735,N,08055.2184,W,1,10,1.5,17,M,,M,,*65
06/07/2014	20:02:03.984	$GPGGA,200204,2425.2748,N,08055.2176,W,1,10,1.5,17,M,,M,,*65
06/07/2014	20:02:04.868	$GPGGA,200205,2425.2760,N,08055.2168,W,1,9,1.7,17,M,,M,,*5B
06/07/2014	20:02:05.977	$GPGGA,200206,2425.2774,N,08055.2160,W,1,9,1.7,17,M,,M,,*55
06/07/2014	20:02:06.913	$GPGGA,200207,2425.2786,N,08055.2152,W,1,9,1.7,17,M,,M,,*58
06/07/2014	20:02:07.961	$GPGGA,200208,2425.2786,N,08055.2152,W,1,9,1.7,17,M,,M,,*57
06/07/2014	20:02:09.029	$GPGGA,200209,2425.2813,N,08055.2137,W,1,9,1.7,17,M,,M,,*56
06/07/2014	20:02:10.067	$GPGGA,200210,2425.2825,N,08055.2128,W,1,9,1.7,17,M,,M,,*55
06/07/2014	20:02:10.973	$GPGGA,200211,2425.2839,N,08055.2121,W,1,9,1.7,17,M,,M,,*50
06/07/2014	20:02:11.979	$GPGGA,200212,2425.2839,N,08055.2121,W,1,9,1.7,17,M,,M,,*53
06/07/2014	20:02:13.082	$GPGGA,200213,2425.2865,N,08055.2106,W,1,9,1.7,17,M,,M,,*5E
06/07/2014	20:02:14.004	$GPGGA,200214,2425.2865,N,08055.2106,W,1,9,1.7,17,M,,M,,*59
06/07/2014	20:02:15.153	$GPGGA,200215,2425.2890,N,08055.2092,W,1,9,1.7,17,M,,M,,*5E
06/07/2014	20:02:16.150	$GPGGA,200216,2425.2904,N,08055.2084,W,1,9,1.7,17,M,,M,,*56
06/07/2014	20:02:17.177	$GPGGA,200217,2425.2916,N,08055.2077,W,1,9,1.7,17,M,,M,,*58
06/07/2014	20:02:18.164	$GPGGA,200218,2425.2930,N,08055.2070,W,1,9,1.7,17,M,,M,,*54
06/07/2014	20:02:19.171	$GPGGA,200219,2425.2941,N,08055.2063,W,1,9,1.7,17,M,,M,,*51
06/07/2014	20:02:20.210	$GPGGA,200220,2425.2955,N,08055.2055,W,1,9,1.7,17,M,,M,,*5B
06/07/2014	20:02:21.226	$GPGGA,200221,2425.2968,N,08055.2050,W,1,9,1.7,17,M,,M,,*51
06/07/2014	20:02:22.224	$GPGGA,200222,2425.2980,N,08055.2045,W,1,9,1.7,17,M,,M,,*50
06/07/2014	20:02:23.261	$GPGGA,200223,2425.2994,N,08055.2034,W,1,9,1.9,17,M,,M,,*5C
06/07/2014	20:02:24.269	$GPGGA,200224,2425.3006,N,08055.2028,W,1,9,1.7,17,M,,M,,*5B
06/07/2014	20:02:25.286	$GPGGA,200225,2425.3019,N,08055.2023,W,1,9,1.7,17,M,,M,,*5F
06/07/2014	20:02:26.293	$GPGGA,200226,2425.3031,N,08055.2017,W,1,9,1.7,17,M,,M,,*51
06/07/2014	20:02:27.321	$GPGGA,200227,2425.3045,N,08055.2011,W,1,9,1.7,17,M,,M,,*55
06/07/2014	20:02:28.328	$GPGGA,200228,2425.3059,N,08055.2005,W,1,9,1.7,17,M,,M,,*52
06/07/2014	20:02:29.356	$GPGGA,200229,2425.3071,N,08055.1999,W,1,9,1.7,17,M,,M,,*56
06/07/2014	20:02:30.353	$GPGGA,200230,2425.3084,N,08055.1992,W,1,9,1.7,17,M,,M,,*5F
06/07/2014	20:02:31.358	$GPGGA,200231,2425.3096,N,08055.1986,W,1,9,1.7,17,M,,M,,*58
06/07/2014	20:02:32.407	$GPGGA,200232,2425.3110,N,08055.1979,W,1,9,1.7,17,M,,M,,*54
06/07/2014	20:02:33.397	$GPGGA,200233,2425.3122,N,08055.1972,W,1,9,1.7,17,M,,M,,*5F
06/07/2014	20:02:34.415	$GPGGA,200234,2425.3135,N,08055.1966,W,1,9,1.7,17,M,,M,,*5B
06/07/2014	20:02:35.449	$GPGGA,200235,2425.3147,N,08055.1959,W,1,9,1.7,16,M,,M,,*52
06/07/2014	20:02:36.456	$GPGGA,200236,2425.3161,N,08055.1952,W,1,9,1.7,16,M,,M,,*5E
06/07/2014	20:02:37.443	$GPGGA,200237,2425.3174,N,08055.1946,W,1,9,1.7,16,M,,M,,*5E
06/07/2014	20:02:37.428	$GPGGA,200238,2425.3186,N,08055.1939,W,1,9,1.7,16,M,,M,,*54
06/07/2014	20:02:38.454	$GPGGA,200239,2425.3199,N,08055.1933,W,1,9,1.7,16,M,,M,,*51
06/07/2014	20:02:39.492	$GPGGA,200240,2425.3212,N,08055.1926,W,1,9,1.7,16,M,,M,,*5B
06/07/2014	20:02:40.499	$GPGGA,200241,2425.3225,N,08055.1920,W,1,9,1.7,16,M,,M,,*58
06/07/2014	20:02:41.496	$GPGGA,200242,2425.3237,N,08055.1913,W,1,9,1.7,16,M,,M,,*58
06/07/2014	20:02:42.503	$GPGGA,200243,2425.3250,N,08055.1905,W,1,9,1.7,16,M,,M,,*5F
06/07/2014	20:02:43.542	$GPGGA,200244,2425.3262,N,08055.1899,W,1,9,1.7,16,M,,M,,*5D
06/07/2014	20:02:44.528	$GPGGA,200245,2425.3276,N,08055.1893,W,1,9,1.7,16,M,,M,,*53
06/07/2014	20:02:45.556	$GPGGA,200246,2425.3288,N,08055.1885,W,1,9,1.7,16,M,,M,,*56
06/07/2014	20:02:46.563	$GPGGA,200247,2425.3301,N,08055.1877,W,1,10,1.7,16,M,,M,,*62
06/07/2014	20:02:47.590	$GPGGA,200248,2425.3313,N,08055.1872,W,1,10,1.7,16,M,,M,,*6B
06/07/2014	20:02:48.630	$GPGGA,200249,2425.3327,N,08055.1865,W,1,10,1.7,16,M,,M,,*6B
06/07/2014	20:02:49.614	$GPGGA,200250,2425.3338,N,08055.1855,W,1,10,1.7,16,M,,M,,*6E
06/07/2014	20:02:50.713	$GPGGA,200251,2425.3352,N,08055.1847,W,1,10,1.7,16,M,,M,,*60
06/07/2014	20:02:51.674	$GPGGA,200252,2425.3363,N,08055.1841,W,1,10,1.7,16,M,,M,,*67
06/07/2014	20:02:52.778	$GPGGA,200253,2425.3377,N,08055.1833,W,1,10,1.7,16,M,,M,,*66
06/07/2014	20:02:53.785	$GPGGA,200254,2425.3389,N,08055.1825,W,1,10,1.7,16,M,,M,,*67
06/07/2014	20:02:54.813	$GPGGA,200255,2425.3403,N,08055.1819,W,1,10,1.7,16,M,,M,,*6C
06/07/2014	20:02:55.718	$GPGGA,200256,2425.3414,N,08055.1812,W,1,10,1.7,16,M,,M,,*62
06/07/2014	20:02:56.837	$GPGGA,200257,2425.3428,N,08055.1804,W,1,10,1.7,16,M,,M,,*6B
06/07/2014	20:02:57.845	$GPGGA,200258,2425.3441,N,08055.1798,W,1,10,1.7,16,M,,M,,*61
06/07/2014	20:02:58.852	$GPGGA,200259,2425.3454,N,08055.1792,W,1,9,1.9,16,M,,M,,*58
06/07/2014	20:02:59.778	$GPGGA,200300,2425.3467,N,08055.1785,W,1,9,1.9,16,M,,M,,*53
06/07/2014	20:03:00.876	$GPGGA,200301,2425.3479,N,08055.1778,W,1,10,1.7,16,M,,M,,*69
06/07/2014	20:03:01.894	$GPGGA,200302,2425.3493,N,08055.1773,W,1,10,1.9,16,M,,M,,*6B
06/07/2014	20:03:02.901	$GPGGA,200303,2425.3505,N,08055.1765,W,1,10,1.7,16,M,,M,,*6D
06/07/2014	20:03:03.838	$GPGGA,200304,2425.3519,N,08055.1758,W,1,10,1.7,16,M,,M,,*69
06/07/2014	20:03:04.926	$GPGGA,200305,2425.3530,N,08055.1751,W,1,10,1.7,16,M,,M,,*6A
06/07/2014	20:03:05.953	$GPGGA,200306,2425.3544,N,08055.1743,W,1,10,1.7,16,M,,M,,*69
06/07/2014	20:03:06.970	$GPGGA,200307,2425.3557,N,08055.1735,W,1,10,1.7,16,M,,M,,*6B
06/07/2014	20:03:07.998	$GPGGA,200308,2425.3569,N,08055.1727,W,1,10,1.7,16,M,,M,,*6A
06/07/2014	20:03:09.004	$GPGGA,200309,2425.3582,N,08055.1720,W,1,10,1.7,16,M,,M,,*69
06/07/2014	20:03:10.012	$GPGGA,200310,2425.3595,N,08055.1713,W,1,10,1.7,16,M,,M,,*67
06/07/2014	20:03:11.049	$GPGGA,200311,2425.3608,N,08055.1705,W,1,10,1.7,16,M,,M,,*66
06/07/2014	20:03:12.057	$GPGGA,200312,2425.3620,N,08055.1698,W,1,10,1.7,16,M,,M,,*6A
06/07/2014	20:03:13.074	$GPGGA,200313,2425.3634,N,08055.1692,W,1,10,1.7,16,M,,M,,*64
06/07/2014	20:03:14.069	$GPGGA,200314,2425.3647,N,08055.1685,W,1,10,1.7,16,M,,M,,*61
06/07/2014	20:03:15.109	$GPGGA,200315,2425.3660,N,08055.1678,W,1,10,1.7,16,M,,M,,*67
06/07/2014	20:03:16.125	$GPGGA,200316,2425.3673,N,08055.1670,W,1,10,1.7,16,M,,M,,*6E
06/07/2014	20:03:17.144	$GPGGA,200317,2425.3685,N,08055.1664,W,1,10,1.7,16,M,,M,,*63
06/07/2014	20:03:18.134	$GPGGA,200318,2425.3698,N,08055.1657,W,1,10,1.7,16,M,,M,,*60
06/07/2014	20:03:19.168	$GPGGA,200319,2425.3710,N,08055.1650,W,1,10,1.7,16,M,,M,,*67
06/07/2014	20:03:20.176	$GPGGA,200320,2425.3724,N,08055.1642,W,1,10,1.7,16,M,,M,,*69
06/07/2014	20:03:21.187	$GPGGA,200321,2425.3736,N,08055.1634,W,1,10,1.7,16,M,,M,,*6A
06/07/2014	20:03:22.201	$GPGGA,200322,2425.3750,N,08055.1627,W,1,10,1.7,16,M,,M,,*6B
06/07/2014	20:03:23.210	$GPGGA,200323,2425.3763,N,08055.1620,W,1,10,1.7,16,M,,M,,*6D
06/07/2014	20:03:24.244	$GPGGA,200324,2425.3775,N,08055.1613,W,1,10,1.7,16,M,,M,,*6D
06/07/2014	20:03:25.251	$GPGGA,200325,2425.3789,N,08055.1605,W,1,10,1.7,16,M,,M,,*68
06/07/2014	20:03:26.248	$GPGGA,200326,2425.3801,N,08055.1599,W,1,10,1.7,16,M,,M,,*62
06/07/2014	20:03:27.398	$GPGGA,200327,2425.3814,N,08055.1592,W,1,10,1.7,16,M,,M,,*6C
06/07/2014	20:03:28.408	$GPGGA,200328,2425.3828,N,08055.1584,W,1,10,1.7,16,M,,M,,*6B
06/07/2014	20:03:29.331	$GPGGA,200329,2425.3840,N,08055.1577,W,1,10,1.7,16,M,,M,,*68
06/07/2014	20:03:30.331	$GPGGA,200330,2425.3854,N,08055.1569,W,1,10,1.7,16,M,,M,,*6A
06/07/2014	20:03:31.449	$GPGGA,200331,2425.3866,N,08055.1562,W,1,11,1.5,16,M,,M,,*62
06/07/2014	20:03:32.354	$GPGGA,200332,2425.3880,N,08055.1554,W,1,11,1.5,16,M,,M,,*6C
06/07/2014	20:03:33.492	$GPGGA,200333,2425.3893,N,08055.1546,W,1,11,1.5,16,M,,M,,*6C
06/07/2014	20:03:34.377	$GPGGA,200334,2425.3906,N,08055.1539,W,1,11,1.5,16,M,,M,,*6E
06/07/2014	20:03:35.518	$GPGGA,200335,2425.3920,N,08055.1532,W,1,11,1.5,16,M,,M,,*60
06/07/2014	20:03:36.437	$GPGGA,200336,2425.3933,N,08055.1524,W,1,11,1.5,16,M,,M,,*66
06/07/2014	20:03:37.542	$GPGGA,200337,2425.3947,N,08055.1517,W,1,11,1.5,16,M,,M,,*64
06/07/2014	20:03:37.404	$GPGGA,200338,2425.3960,N,08055.1511,W,1,11,1.5,16,M,,M,,*68
06/07/2014	20:03:38.411	$GPGGA,200339,2425.3973,N,08055.1503,W,1,11,1.5,16,M,,M,,*68
06/07/2014	20:03:39.530	$GPGGA,200340,2425.3985,N,08055.1495,W,1,11,1.5,16,M,,M,,*61
06/07/2014	20:03:40.548	$GPGGA,200341,2425.3999,N,08055.1489,W,1,11,1.5,16,M,,M,,*60
06/07/2014	20:03:41.554	$GPGGA,200342,2425.4012,N,08055.1482,W,1,11,1.5,16,M,,M,,*65
06/07/2014	20:03:42.602	$GPGGA,200343,2425.4025,N,08055.1474,W,1,11,1.5,16,M,,M,,*69
06/07/2014	20:03:43.599	$GPGGA,200344,2425.4038,N,08055.1468,W,1,11,1.5,16,M,,M,,*6F
06/07/2014	20:03:44.606	$GPGGA,200345,2425.4050,N,08055.1460,W,1,11,1.5,16,M,,M,,*68
06/07/2014	20:03:45.624	$GPGGA,200346,2425.4064,N,08055.1453,W,1,11,1.5,16,M,,M,,*6C
06/07/2014	20:03:46.631	$GPGGA,200347,2425.4077,N,08055.1446,W,1,11,1.5,16,M,,M,,*6B
06/07/2014	20:03:47.658	$GPGGA,200348,2425.4090,N,08055.1440,W,1,11,1.5,16,M,,M,,*6B
06/07/2014	20:03:48.655	$GPGGA,200349,2425.4103,N,08055.1432,W,1,11,1.5,16,M,,M,,*64
06/07/2014	20:03:49.673	$GPGGA,200350,2425.4115,N,08055.1425,W,1,11,1.5,16,M,,M,,*6D
06/07/2014	20:03:50.711	$GPGGA,200351,2425.4129,N,08055.1418,W,1,11,1.5,16,M,,M,,*6D
06/07/2014	20:03:51.728	$GPGGA,200352,2425.4142,N,08055.1411,W,1,11,1.5,16,M,,M,,*6A
06/07/2014	20:03:52.715	$GPGGA,200353,2425.4155,N,08055.1404,W,1,11,1.5,16,M,,M,,*69
06/07/2014	20:03:53.732	$GPGGA,200354,2425.4169,N,08055.1397,W,1,11,1.5,16,M,,M,,*6C
06/07/2014	20:03:54.780	$GPGGA,200355,2425.4182,N,08055.1390,W,1,11,1.5,16,M,,M,,*6F
06/07/2014	20:03:55.787	$GPGGA,200356,2425.4194,N,08055.1383,W,1,11,1.5,16,M,,M,,*69
06/07/2014	20:03:56.774	$GPGGA,200357,2425.4208,N,08055.1376,W,1,11,1.5,16,M,,M,,*64
06/07/2014	20:03:57.792	$GPGGA,200358,2425.4220,N,08055.1369,W,1,11,1.5,16,M,,M,,*6F
06/07/2014	20:03:58.828	$GPGGA,200359,2425.4234,N,08055.1362,W,1,11,1.5,16,M,,M,,*60
06/07/2014	20:03:59.836	$GPGGA,200400,2425.4247,N,08055.1355,W,1,11,1.5,16,M,,M,,*6B
06/07/2014	20:04:00.833	$GPGGA,200401,2425.4259,N,08055.1349,W,1,11,1.5,16,M,,M,,*68
06/07/2014	20:04:01.860	$GPGGA,200402,2425.4273,N,08055.1341,W,1,11,1.5,16,M,,M,,*6B
06/07/2014	20:04:02.898	$GPGGA,200403,2425.4285,N,08055.1334,W,1,11,1.5,16,M,,M,,*61
06/07/2014	20:04:03.905	$GPGGA,200404,2425.4299,N,08055.1328,W,1,11,1.5,16,M,,M,,*66
06/07/2014	20:04:04.943	$GPGGA,200405,2425.4312,N,08055.1320,W,1,11,1.5,16,M,,M,,*6D
06/07/2014	20:04:05.918	$GPGGA,200406,2425.4324,N,08055.1313,W,1,11,1.5,16,M,,M,,*6B
06/07/2014	20:04:06.927	$GPGGA,200407,2425.4338,N,08055.1307,W,1,11,1.5,16,M,,M,,*62
06/07/2014	20:04:07.955	$GPGGA,200408,2425.4350,N,08055.1299,W,1,11,1.5,16,M,,M,,*65
06/07/2014	20:04:08.972	$GPGGA,200409,2425.4364,N,08055.1291,W,1,11,1.5,16,M,,M,,*6B
06/07/2014	20:04:09.969	$GPGGA,200410,2425.4377,N,08055.1285,W,1,11,1.5,16,M,,M,,*64
06/07/2014	20:04:10.986	$GPGGA,200411,2425.4389,N,08055.1278,W,1,11,1.5,16,M,,M,,*66
06/07/2014	20:04:12.028	$GPGGA,200412,2425.4404,N,08055.1270,W,1,11,1.5,16,M,,M,,*6F
06/07/2014	20:04:13.124	$GPGGA,200413,2425.4417,N,08055.1263,W,1,11,1.5,16,M,,M,,*6E
06/07/2014	20:04:14.051	$GPGGA,200414,2425.4429,N,08055.1256,W,1,11,1.5,16,M,,M,,*62
06/07/2014	20:04:15.046	$GPGGA,200415,2425.4443,N,08055.1249,W,1,11,1.5,16,M,,M,,*61
06/07/2014	20:04:16.216	$GPGGA,200416,2425.4454,N,08055.1241,W,1,11,1.5,16,M,,M,,*6C
06/07/2014	20:04:17.090	$GPGGA,200417,2425.4468,N,08055.1234,W,1,11,1.5,16,M,,M,,*60
06/07/2014	20:04:18.199	$GPGGA,200418,2425.4480,N,08055.1227,W,1,11,1.5,16,M,,M,,*6B
06/07/2014	20:04:19.206	$GPGGA,200419,2425.4494,N,08055.1220,W,1,11,1.5,16,M,,M,,*68
06/07/2014	20:04:20.274	$GPGGA,200420,2425.4507,N,08055.1212,W,1,11,1.5,16,M,,M,,*68
06/07/2014	20:04:21.149	$GPGGA,200421,2425.4520,N,08055.1205,W,1,11,1.5,16,M,,M,,*6A
06/07/2014	20:04:22.156	$GPGGA,200422,2425.4533,N,08055.1198,W,1,11,1.5,16,M,,M,,*6C
06/07/2014	20:04:23.174	$GPGGA,200423,2425.4545,N,08055.1190,W,1,11,1.5,16,M,,M,,*64
06/07/2014	20:04:24.303	$GPGGA,200424,2425.4559,N,08055.1183,W,1,11,1.5,16,M,,M,,*6C
06/07/2014	20:04:25.310	$GPGGA,200425,2425.4572,N,08055.1175,W,1,11,1.5,16,M,,M,,*6D
06/07/2014	20:04:26.226	$GPGGA,200426,2425.4585,N,08055.1168,W,1,11,1.5,16,M,,M,,*6A
06/07/2014	20:04:27.380	$GPGGA,200427,2425.4598,N,08055.1160,W,1,11,1.5,16,M,,M,,*6F
06/07/2014	20:04:28.363	$GPGGA,200428,2425.4610,N,08055.1153,W,1,11,1.5,16,M,,M,,*63
06/07/2014	20:04:29.370	$GPGGA,200429,2425.4624,N,08055.1146,W,1,11,1.5,16,M,,M,,*61
06/07/2014	20:04:30.398	$GPGGA,200430,2425.4637,N,08055.1139,W,1,11,1.5,16,M,,M,,*63
06/07/2014	20:04:31.375	$GPGGA,200431,2425.4650,N,08055.1131,W,1,11,1.5,16,M,,M,,*6B
06/07/2014	20:04:32.403	$GPGGA,200432,2425.4663,N,08055.1124,W,1,11,1.5,16,M,,M,,*6C
06/07/2014	20:04:33.412	$GPGGA,200433,2425.4677,N,08055.1118,W,1,11,1.5,16,M,,M,,*67
06/07/2014	20:04:34.388	$GPGGA,200434,2425.4689,N,08055.1110,W,1,11,1.5,16,M,,M,,*69
06/07/2014	20:04:35.416	$GPGGA,200435,2425.4703,N,08055.1103,W,1,11,1.5,16,M,,M,,*69
06/07/2014	20:04:36.424	$GPGGA,200436,2425.4715,N,08055.1096,W,1,11,1.5,16,M,,M,,*60
06/07/2014	20:04:37.412	$GPGGA,200437,2425.4729,N,08055.1089,W,1,11,1.5,16,M,,M,,*60
06/07/2014	20:04:37.459	$GPGGA,200438,2425.4742,N,08055.1081,W,1,11,1.5,16,M,,M,,*6A
06/07/2014	20:04:38.487	$GPGGA,200439,2425.4754,N,08055.1074,W,1,11,1.5,16,M,,M,,*66
06/07/2014	20:04:39.474	$GPGGA,200440,2425.4768,N,08055.1066,W,1,11,1.5,16,M,,M,,*64
06/07/2014	20:04:40.462	$GPGGA,200441,2425.4780,N,08055.1059,W,1,11,1.5,16,M,,M,,*6F
06/07/2014	20:04:41.490	$GPGGA,200442,2425.4794,N,08055.1052,W,1,11,1.5,16,M,,M,,*62
06/07/2014	20:04:42.478	$GPGGA,200443,2425.4807,N,08055.1044,W,1,11,1.5,16,M,,M,,*61
06/07/2014	20:04:43.506	$GPGGA,200444,2425.4819,N,08055.1037,W,1,11,1.5,16,M,,M,,*6D
06/07/2014	20:04:44.524	$GPGGA,200445,2425.4833,N,08055.1030,W,1,11,1.5,16,M,,M,,*63
06/07/2014	20:04:45.492	$GPGGA,200446,2425.4845,N,08055.1021,W,1,11,1.5,16,M,,M,,*61
06/07/2014	20:04:46.540	$GPGGA,200447,2425.4859,N,08055.1014,W,1,11,1.5,16,M,,M,,*6B
06/07/2014	20:04:47.517	$GPGGA,200448,2425.4873,N,08055.1007,W,1,11,1.5,16,M,,M,,*6E
06/07/2014	20:04:48.515	$GPGGA,200449,2425.4885,N,08055.1000,W,1,11,1.5,16,M,,M,,*61
06/07/2014	20:04:49.534	$GPGGA,200450,2425.4899,N,08055.0992,W,1,11,1.5,16,M,,M,,*67
06/07/2014	20:04:50.521	$GPGGA,200451,2425.4912,N,08055.0985,W,1,11,1.5,16,M,,M,,*62
06/07/2014	20:04:51.558	$GPGGA,200452,2425.4924,N,08055.0977,W,1,11,1.5,16,M,,M,,*69
06/07/2014	20:04:52.576	$GPGGA,200453,2425.4938,N,08055.0970,W,1,11,1.5,16,M,,M,,*62
06/07/2014	20:04:53.554	$GPGGA,200454,2425.4952,N,08055.0962,W,1,11,1.5,16,M,,M,,*6A
06/07/2014	20:04:54.582	$GPGGA,200455,2425.4964,N,08055.0955,W,1,11,1.5,16,M,,M,,*6A
06/07/2014	20:04:55.580	$GPGGA,200456,2425.4978,N,08055.0947,W,1,11,1.5,16,M,,M,,*67
06/07/2014	20:04:56.567	$GPGGA,200457,2425.4991,N,08055.0940,W,1,11,1.5,16,M,,M,,*66
06/07/2014	20:04:57.575	$GPGGA,200458,2425.5004,N,08055.0932,W,1,11,1.5,16,M,,M,,*68
06/07/2014	20:04:58.593	$GPGGA,200459,2425.5018,N,08055.0924,W,1,11,1.5,16,M,,M,,*63
06/07/2014	20:04:59.601	$GPGGA,200500,2425.5031,N,08055.0917,W,1,11,1.5,16,M,,M,,*65
06/07/2014	20:05:00.690	$GPGGA,200501,2425.5043,N,08055.0909,W,1,11,1.5,16,M,,M,,*6E
06/07/2014	20:05:01.587	$GPGGA,200502,2425.5058,N,08055.0902,W,1,11,1.5,16,M,,M,,*6C
06/07/2014	20:05:02.718	$GPGGA,200503,2425.5071,N,08055.0895,W,1,10,1.5,16,M,,M,,*68
06/07/2014	20:05:03.623	$GPGGA,200504,2425.5085,N,08055.0888,W,1,10,1.5,16,M,,M,,*68
06/07/2014	20:05:04.641	$GPGGA,200505,2425.5098,N,08055.0880,W,1,10,1.6,16,M,,M,,*6E
06/07/2014	20:05:05.608	$GPGGA,200506,2425.5112,N,08055.0872,W,1,10,1.6,16,M,,M,,*63
06/07/2014	20:05:06.636	$GPGGA,200507,2425.5123,N,08055.0864,W,1,11,1.5,16,M,,M,,*65
06/07/2014	20:05:07.775	$GPGGA,200508,2425.5137,N,08055.0856,W,1,11,1.5,16,M,,M,,*6E
06/07/2014	20:05:08.742	$GPGGA,200509,2425.5151,N,08055.0849,W,1,11,1.5,16,M,,M,,*61
06/07/2014	20:05:09.649	$GPGGA,200510,2425.5165,N,08055.0842,W,1,11,1.5,16,M,,M,,*65
06/07/2014	20:05:10.768	$GPGGA,200511,2425.5177,N,08055.0835,W,1,11,1.5,16,M,,M,,*67
06/07/2014	20:05:11.776	$GPGGA,200512,2425.5191,N,08055.0828,W,1,11,1.5,15,M,,M,,*63
06/07/2014	20:05:12.811	$GPGGA,200513,2425.5205,N,08055.0821,W,1,11,1.5,15,M,,M,,*65
06/07/2014	20:05:13.761	$GPGGA,200514,2425.5217,N,08055.0813,W,1,11,1.5,15,M,,M,,*60
06/07/2014	20:05:14.769	$GPGGA,200515,2425.5231,N,08055.0805,W,1,11,1.5,15,M,,M,,*62
06/07/2014	20:05:15.787	$GPGGA,200516,2425.5245,N,08055.0798,W,1,11,1.5,15,M,,M,,*69
06/07/2014	20:05:16.805	$GPGGA,200517,2425.5257,N,08055.0791,W,1,11,1.5,15,M,,M,,*62
06/07/2014	20:05:17.783	$GPGGA,200518,2425.5271,N,08055.0782,W,1,11,1.5,15,M,,M,,*6B
06/07/2014	20:05:18.821	$GPGGA,200519,2425.5284,N,08055.0774,W,1,11,1.5,15,M,,M,,*69
06/07/2014	20:05:19.809	$GPGGA,200520,2425.5296,N,08055.0766,W,1,11,1.5,15,M,,M,,*63
06/07/2014	20:05:20.826	$GPGGA,200521,2425.5311,N,08055.0759,W,1,11,1.6,15,M,,M,,*63
06/07/2014	20:05:21.814	$GPGGA,200522,2425.5324,N,08055.0750,W,1,11,1.5,15,M,,M,,*6C
06/07/2014	20:05:22.832	$GPGGA,200523,2425.5336,N,08055.0742,W,1,11,1.5,15,M,,M,,*6D
06/07/2014	20:05:23.830	$GPGGA,200524,2425.5350,N,08055.0735,W,1,11,1.5,15,M,,M,,*6A
06/07/2014	20:05:24.838	$GPGGA,200525,2425.5363,N,08055.0725,W,1,11,1.5,15,M,,M,,*6A
06/07/2014	20:05:25.837	$GPGGA,200526,2425.5375,N,08055.0716,W,1,11,1.5,15,M,,M,,*6E
06/07/2014	20:05:26.853	$GPGGA,200527,2425.5387,N,08055.0708,W,1,11,1.5,15,M,,M,,*6D
06/07/2014	20:05:27.851	$GPGGA,200528,2425.5401,N,08055.0701,W,1,11,1.5,15,M,,M,,*62
06/07/2014	20:05:28.858	$GPGGA,200529,2425.5415,N,08055.0692,W,1,11,1.5,15,M,,M,,*6D
06/07/2014	20:05:29.856	$GPGGA,200530,2425.5428,N,08055.0684,W,1,11,1.5,15,M,,M,,*6C
06/07/2014	20:05:30.854	$GPGGA,200531,2425.5441,N,08055.0678,W,1,11,1.5,15,M,,M,,*61
06/07/2014	20:05:31.892	$GPGGA,200532,2425.5455,N,08055.0670,W,1,11,1.6,15,M,,M,,*6C
06/07/2014	20:05:32.900	$GPGGA,200533,2425.5468,N,08055.0662,W,1,10,1.5,15,M,,M,,*62
06/07/2014	20:05:33.888	$GPGGA,200534,2425.5481,N,08055.0655,W,1,10,1.5,15,M,,M,,*66
06/07/2014	20:05:34.886	$GPGGA,200535,2425.5495,N,08055.0649,W,1,11,1.5,15,M,,M,,*6E
06/07/2014	20:05:35.914	$GPGGA,200536,2425.5509,N,08055.0641,W,1,11,1.5,15,M,,M,,*61
06/07/2014	20:05:36.891	$GPGGA,200537,2425.5522,N,08055.0633,W,1,11,1.5,15,M,,M,,*6C
06/07/2014	20:05:37.415	$GPGGA,200538,2425.5535,N,08055.0626,W,1,11,1.5,15,M,,M,,*61
06/07/2014	20:05:38.453	$GPGGA,200539,2425.5549,N,08055.0618,W,1,11,1.5,15,M,,M,,*66
06/07/2014	20:05:39.481	$GPGGA,200540,2425.5563,N,08055.0611,W,1,11,1.6,15,M,,M,,*6A
06/07/2014	20:05:40.469	$GPGGA,200541,2425.5575,N,08055.0601,W,1,10,1.5,15,M,,M,,*6F
06/07/2014	20:05:41.447	$GPGGA,200542,2425.5589,N,08055.0593,W,1,10,1.5,15,M,,M,,*67
06/07/2014	20:05:42.455	$GPGGA,200543,2425.5603,N,08055.0586,W,1,11,1.5,15,M,,M,,*62
06/07/2014	20:05:43.502	$GPGGA,200544,2425.5616,N,08055.0579,W,1,11,1.5,15,M,,M,,*61
06/07/2014	20:05:44.500	$GPGGA,200545,2425.5629,N,08055.0572,W,1,11,1.6,15,M,,M,,*64
06/07/2014	20:05:45.488	$GPGGA,200546,2425.5643,N,08055.0565,W,1,11,1.6,15,M,,M,,*6D
06/07/2014	20:05:46.485	$GPGGA,200547,2425.5657,N,08055.0557,W,1,10,1.5,15,M,,M,,*6A
06/07/2014	20:05:47.513	$GPGGA,200548,2425.5671,N,08055.0552,W,1,10,1.5,15,M,,M,,*64
06/07/2014	20:05:48.491	$GPGGA,200549,2425.5683,N,08055.0545,W,1,11,1.5,14,M,,M,,*6E
06/07/2014	20:05:49.590	$GPGGA,200550,2425.5697,N,08055.0537,W,1,11,1.5,14,M,,M,,*66
06/07/2014	20:05:50.507	$GPGGA,200551,2425.5711,N,08055.0531,W,1,11,1.5,14,M,,M,,*6E
06/07/2014	20:05:51.636	$GPGGA,200552,2425.5725,N,08055.0523,W,1,11,1.5,14,M,,M,,*69
06/07/2014	20:05:52.513	$GPGGA,200553,2425.5736,N,08055.0511,W,1,10,1.5,14,M,,M,,*6A
06/07/2014	20:05:53.621	$GPGGA,200554,2425.5748,N,08055.0502,W,1,10,1.5,14,M,,M,,*66
06/07/2014	20:05:54.619	$GPGGA,200555,2425.5762,N,08055.0492,W,1,11,1.5,14,M,,M,,*66
06/07/2014	20:05:55.556	$GPGGA,200556,2425.5775,N,08055.0486,W,1,11,1.6,14,M,,M,,*65
06/07/2014	20:05:56.625	$GPGGA,200557,2425.5788,N,08055.0476,W,1,10,1.5,14,M,,M,,*6B
06/07/2014	20:05:57.643	$GPGGA,200558,2425.5801,N,08055.0466,W,1,10,1.5,14,M,,M,,*6B
06/07/2014	20:05:58.651	$GPGGA,200559,2425.5813,N,08055.0458,W,1,11,1.5,14,M,,M,,*65
06/07/2014	20:05:59.669	$GPGGA,200600,2425.5827,N,08055.0450,W,1,11,1.5,14,M,,M,,*65
06/07/2014	20:06:00.556	$GPGGA,200601,2425.5840,N,08055.0442,W,1,11,1.6,14,M,,M,,*65
06/07/2014	20:06:01.653	$GPGGA,200602,2425.5852,N,08055.0430,W,1,11,1.6,14,M,,M,,*60
06/07/2014	20:06:02.661	$GPGGA,200603,2425.5863,N,08055.0420,W,1,11,1.5,14,M,,M,,*61
06/07/2014	20:06:03.689	$GPGGA,200604,2425.5877,N,08055.0412,W,1,11,1.5,14,M,,M,,*62
06/07/2014	20:06:04.707	$GPGGA,200605,2425.5891,N,08055.0403,W,1,11,1.5,14,M,,M,,*6B
06/07/2014	20:06:05.676	$GPGGA,200606,2425.5903,N,08055.0396,W,1,11,1.5,14,M,,M,,*69
06/07/2014	20:06:06.703	$GPGGA,200607,2425.5917,N,08055.0388,W,1,11,1.5,14,M,,M,,*62
06/07/2014	20:06:07.711	$GPGGA,200608,2425.5931,N,08055.0381,W,1,11,1.5,14,M,,M,,*60
06/07/2014	20:06:08.719	$GPGGA,200609,2425.5943,N,08055.0374,W,1,11,1.5,14,M,,M,,*6E
06/07/2014	20:06:09.706	$GPGGA,200610,2425.5957,N,08055.0367,W,1,11,1.5,14,M,,M,,*61
06/07/2014	20:06:10.704	$GPGGA,200611,2425.5971,N,08055.0359,W,1,11,1.5,14,M,,M,,*69
06/07/2014	20:06:11.732	$GPGGA,200612,2425.5985,N,08055.0351,W,1,11,1.5,14,M,,M,,*69
06/07/2014	20:06:12.730	$GPGGA,200613,2425.5997,N,08055.0344,W,1,11,1.5,14,M,,M,,*6F
06/07/2014	20:06:13.728	$GPGGA,200614,2425.6010,N,08055.0335,W,1,11,1.5,14,M,,M,,*6B
06/07/2014	20:06:14.756	$GPGGA,200615,2425.6022,N,08055.0326,W,1,11,1.5,14,M,,M,,*69
06/07/2014	20:06:15.744	$GPGGA,200616,2425.6037,N,08055.0319,W,1,11,1.5,14,M,,M,,*62
06/07/2014	20:06:16.752	$GPGGA,200617,2425.6050,N,08055.0311,W,1,11,1.5,14,M,,M,,*6A
06/07/2014	20:06:17.749	$GPGGA,200618,2425.6062,N,08055.0302,W,1,11,1.5,14,M,,M,,*66
06/07/2014	20:06:18.797	$GPGGA,200619,2425.6076,N,08055.0294,W,1,11,1.5,14,M,,M,,*6C
06/07/2014	20:06:19.774	$GPGGA,200620,2425.6088,N,08055.0287,W,1,11,1.5,14,M,,M,,*65
06/07/2014	20:06:20.802	$GPGGA,200621,2425.6102,N,08055.0278,W,1,11,1.5,14,M,,M,,*67
06/07/2014	20:06:21.770	$GPGGA,200622,2425.6115,N,08055.0269,W,1,11,1.5,14,M,,M,,*62
06/07/2014	20:06:22.808	$GPGGA,200623,2425.6127,N,08055.0262,W,1,11,1.5,14,M,,M,,*69
06/07/2014	20:06:23.806	$GPGGA,200624,2425.6141,N,08055.0253,W,1,11,1.5,14,M,,M,,*6C
06/07/2014	20:06:24.796	$GPGGA,200625,2425.6155,N,08055.0244,W,1,11,1.5,14,M,,M,,*6E
06/07/2014	20:06:25.801	$GPGGA,200626,2425.6167,N,08055.0237,W,1,11,1.5,14,M,,M,,*68
06/07/2014	20:06:26.830	$GPGGA,200627,2425.6181,N,08055.0230,W,1,11,1.5,14,M,,M,,*66
06/07/2014	20:06:27.827	$GPGGA,200628,2425.6195,N,08055.0221,W,1,11,1.5,14,M,,M,,*6C
06/07/2014	20:06:28.825	$GPGGA,200629,2425.6207,N,08055.0213,W,1,11,1.5,14,M,,M,,*64
06/07/2014	20:06:29.834	$GPGGA,200630,2425.6221,N,08055.0206,W,1,11,1.5,14,M,,M,,*6C
06/07/2014	20:06:30.821	$GPGGA,200631,2425.6234,N,08055.0197,W,1,11,1.5,14,M,,M,,*62
06/07/2014	20:06:31.960	$GPGGA,200632,2425.6247,N,08055.0190,W,1,11,1.5,14,M,,M,,*62
06/07/2014	20:06:32.857	$GPGGA,200633,2425.6261,N,08055.0183,W,1,11,1.5,14,M,,M,,*65
06/07/2014	20:06:33.855	$GPGGA,200634,2425.6274,N,08055.0175,W,1,11,1.6,14,M,,M,,*6C
06/07/2014	20:06:34.842	$GPGGA,200635,2425.6288,N,08055.0167,W,1,11,1.5,14,M,,M,,*6E
06/07/2014	20:06:35.861	$GPGGA,200636,2425.6300,N,08055.0157,W,1,11,1.5,14,M,,M,,*6F
06/07/2014	20:06:36.847	$GPGGA,200637,2425.6312,N,08055.0148,W,1,11,1.5,14,M,,M,,*63
06/07/2014	20:06:37.381	$GPGGA,200638,2425.6325,N,08055.0138,W,1,11,1.5,14,M,,M,,*6F
06/07/2014	20:06:38.501	$GPGGA,200639,2425.6337,N,08055.0131,W,1,11,1.5,14,M,,M,,*64
06/07/2014	20:06:39.418	$GPGGA,200640,2425.6351,N,08055.0122,W,1,11,1.5,14,M,,M,,*68
06/07/2014	20:06:40.505	$GPGGA,200641,2425.6365,N,08055.0113,W,1,11,1.5,14,M,,M,,*6C
06/07/2014	20:06:41.513	$GPGGA,200642,2425.6377,N,08055.0105,W,1,11,1.5,15,M,,M,,*6A
06/07/2014	20:06:42.531	$GPGGA,200643,2425.6391,N,08055.0098,W,1,11,1.5,15,M,,M,,*66
06/07/2014	20:06:43.449	$GPGGA,200644,2425.6405,N,08055.0091,W,1,11,1.5,15,M,,M,,*62
06/07/2014	20:06:44.547	$GPGGA,200645,2425.6419,N,08055.0083,W,1,10,1.6,15,M,,M,,*6F
06/07/2014	20:06:45.535	$GPGGA,200646,2425.6431,N,08055.0076,W,1,10,1.5,15,M,,M,,*6F
06/07/2014	20:06:46.452	$GPGGA,200647,2425.6445,N,08055.0069,W,1,11,1.5,15,M,,M,,*62
06/07/2014	20:06:47.571	$GPGGA,200648,2425.6459,N,08055.0060,W,1,11,1.6,15,M,,M,,*6A
06/07/2014	20:06:48.579	$GPGGA,200649,2425.6471,N,08055.0050,W,1,11,1.5,15,M,,M,,*61
06/07/2014	20:06:49.556	$GPGGA,200650,2425.6485,N,08055.0041,W,1,11,1.5,15,M,,M,,*62
06/07/2014	20:06:50.564	$GPGGA,200651,2425.6499,N,08055.0033,W,1,11,1.5,15,M,,M,,*6B
06/07/2014	20:06:51.572	$GPGGA,200652,2425.6512,N,08055.0026,W,1,11,1.6,15,M,,M,,*6D
06/07/2014	20:06:52.590	$GPGGA,200653,2425.6525,N,08055.0019,W,1,11,1.5,15,M,,M,,*67
06/07/2014	20:06:53.597	$GPGGA,200654,2425.6539,N,08055.0012,W,1,11,1.5,15,M,,M,,*66
06/07/2014	20:06:54.595	$GPGGA,200655,2425.6553,N,08055.0004,W,1,10,1.6,15,M,,M,,*6E
06/07/2014	20:06:55.603	$GPGGA,200656,2425.6566,N,08054.9997,W,1,10,1.6,15,M,,M,,*60
06/07/2014	20:06:56.611	$GPGGA,200657,2425.6579,N,08054.9990,W,1,10,1.6,15,M,,M,,*68
06/07/2014	20:06:57.609	$GPGGA,200658,2425.6593,N,08054.9982,W,1,10,1.6,15,M,,M,,*60
06/07/2014	20:06:58.606	$GPGGA,200659,2425.6607,N,08054.9974,W,1,10,1.6,15,M,,M,,*66
06/07/2014	20:06:59.644	$GPGGA,200700,2425.6619,N,08054.9967,W,1,10,1.6,15,M,,M,,*66
06/07/2014	20:07:00.642	$GPGGA,200701,2425.6633,N,08054.9958,W,1,10,1.6,15,M,,M,,*63
06/07/2014	20:07:01.630	$GPGGA,200702,2425.6644,N,08054.9950,W,1,10,1.9,15,M,,M,,*67
06/07/2014	20:07:02.648	$GPGGA,200703,2425.6658,N,08054.9943,W,1,11,1.5,15,M,,M,,*64
06/07/2014	20:07:03.646	$GPGGA,200704,2425.6672,N,08054.9936,W,1,11,1.6,15,M,,M,,*6A
06/07/2014	20:07:04.634	$GPGGA,200705,2425.6684,N,08054.9927,W,1,10,1.6,15,M,,M,,*63
06/07/2014	20:07:05.662	$GPGGA,200706,2425.6698,N,08054.9921,W,1,10,1.5,15,M,,M,,*68
06/07/2014	20:07:06.649	$GPGGA,200707,2425.6711,N,08054.9913,W,1,11,1.5,15,M,,M,,*69
06/07/2014	20:07:07.688	$GPGGA,200708,2425.6723,N,08054.9903,W,1,11,1.6,15,M,,M,,*65
06/07/2014	20:07:08.656	$GPGGA,200709,2425.6738,N,08054.9896,W,1,11,1.5,15,M,,M,,*60
06/07/2014	20:07:09.683	$GPGGA,200710,2425.6751,N,08054.9887,W,1,11,1.6,15,M,,M,,*64
06/07/2014	20:07:10.691	$GPGGA,200711,2425.6763,N,08054.9879,W,1,11,1.5,15,M,,M,,*66
06/07/2014	20:07:11.698	$GPGGA,200712,2425.6777,N,08054.9870,W,1,11,1.6,15,M,,M,,*6A
06/07/2014	20:07:12.676	$GPGGA,200713,2425.6791,N,08054.9862,W,1,11,1.5,15,M,,M,,*63
06/07/2014	20:07:13.694	$GPGGA,200714,2425.6803,N,08054.9853,W,1,11,1.6,15,M,,M,,*61
06/07/2014	20:07:14.814	$GPGGA,200715,2425.6817,N,08054.9845,W,1,11,1.5,15,M,,M,,*61
06/07/2014	20:07:15.709	$GPGGA,200716,2425.6831,N,08054.9838,W,1,11,1.5,15,M,,M,,*6C
06/07/2014	20:07:16.727	$GPGGA,200717,2425.6842,N,08054.9828,W,1,10,1.6,15,M,,M,,*6A
06/07/2014	20:07:17.705	$GPGGA,200718,2425.6857,N,08054.9819,W,1,10,1.5,16,M,,M,,*63
06/07/2014	20:07:18.837	$GPGGA,200719,2425.6870,N,08054.9813,W,1,11,1.5,16,M,,M,,*6C
06/07/2014	20:07:19.854	$GPGGA,200720,2425.6884,N,08054.9804,W,1,11,1.6,16,M,,M,,*68
06/07/2014	20:07:20.864	$GPGGA,200721,2425.6896,N,08054.9793,W,1,11,1.5,16,M,,M,,*68
06/07/2014	20:07:21.747	$GPGGA,200722,2425.6910,N,08054.9786,W,1,11,1.5,16,M,,M,,*60
06/07/2014	20:07:22.879	$GPGGA,200723,2425.6922,N,08054.9777,W,1,10,1.6,16,M,,M,,*6C
06/07/2014	20:07:23.773	$GPGGA,200724,2425.6936,N,08054.9769,W,1,10,1.5,16,M,,M,,*62
06/07/2014	20:07:24.882	$GPGGA,200725,2425.6949,N,08054.9762,W,1,10,1.6,16,M,,M,,*63
06/07/2014	20:07:25.758	$GPGGA,200726,2425.6962,N,08054.9755,W,1,10,1.6,16,M,,M,,*6D
06/07/2014	20:07:26.897	$GPGGA,200727,2425.6976,N,08054.9747,W,1,10,1.6,16,M,,M,,*6A
06/07/2014	20:07:27.795	$GPGGA,200728,2425.6990,N,08054.9739,W,1,10,1.6,16,M,,M,,*64
06/07/2014	20:07:28.882	$GPGGA,200729,2425.7004,N,08054.9732,W,1,10,1.6,16,M,,M,,*6B
06/07/2014	20:07:29.779	$GPGGA,200730,2425.7018,N,08054.9724,W,1,10,1.6,16,M,,M,,*69
06/07/2014	20:07:30.887	$GPGGA,200731,2425.7030,N,08054.9717,W,1,10,1.6,16,M,,M,,*62
06/07/2014	20:07:31.915	$GPGGA,200732,2425.7045,N,08054.9710,W,1,10,1.5,16,M,,M,,*67
06/07/2014	20:07:32.923	$GPGGA,200733,2425.7059,N,08054.9702,W,1,10,1.6,16,M,,M,,*6B
06/07/2014	20:07:33.800	$GPGGA,200734,2425.7072,N,08054.9694,W,1,10,1.5,16,M,,M,,*68
06/07/2014	20:07:34.939	$GPGGA,200735,2425.7085,N,08054.9684,W,1,10,1.6,16,M,,M,,*63
06/07/2014	20:07:35.937	$GPGGA,200736,2425.7098,N,08054.9676,W,1,10,1.5,16,M,,M,,*62
06/07/2014	20:07:36.945	$GPGGA,200737,2425.7112,N,08054.9669,W,1,11,1.5,16,M,,M,,*6F
06/07/2014	20:07:37.449	$GPGGA,200738,2425.7126,N,08054.9661,W,1,11,1.5,16,M,,M,,*6F
06/07/2014	20:07:38.466	$GPGGA,200739,2425.7139,N,08054.9654,W,1,10,1.6,16,M,,M,,*64
06/07/2014	20:07:39.474	$GPGGA,200740,2425.7153,N,08054.9647,W,1,10,1.6,16,M,,M,,*64
06/07/2014	20:07:40.492	$GPGGA,200741,2425.7167,N,08054.9639,W,1,11,1.5,16,M,,M,,*69
06/07/2014	20:07:41.470	$GPGGA,200742,2425.7179,N,08054.9631,W,1,11,1.5,16,M,,M,,*6D
06/07/2014	20:07:42.508	$GPGGA,200743,2425.7193,N,08054.9622,W,1,10,1.6,16,M,,M,,*68
06/07/2014	20:07:43.506	$GPGGA,200744,2425.7207,N,08054.9613,W,1,10,1.5,16,M,,M,,*60
06/07/2014	20:07:44.534	$GPGGA,200745,2425.7221,N,08054.9605,W,1,11,1.5,16,M,,M,,*63
06/07/2014	20:07:45.502	$GPGGA,200746,2425.7233,N,08054.9598,W,1,11,1.6,16,M,,M,,*67
06/07/2014	20:07:46.519	$GPGGA,200747,2425.7247,N,08054.9591,W,1,10,1.6,16,M,,M,,*6D
06/07/2014	20:07:47.526	$GPGGA,200748,2425.7262,N,08054.9583,W,1,10,1.5,16,M,,M,,*65
06/07/2014	20:07:48.534	$GPGGA,200749,2425.7275,N,08054.9576,W,1,10,1.6,16,M,,M,,*6B
06/07/2014	20:07:49.513	$GPGGA,200750,2425.7289,N,08054.9569,W,1,10,1.5,16,M,,M,,*6D
06/07/2014	20:07:50.550	$GPGGA,200751,2425.7303,N,08054.9561,W,1,10,1.6,16,M,,M,,*64
06/07/2014	20:07:51.548	$GPGGA,200752,2425.7316,N,08054.9554,W,1,10,1.6,16,M,,M,,*65
06/07/2014	20:07:52.556	$GPGGA,200753,2425.7330,N,08054.9545,W,1,9,1.8,16,M,,M,,*56
06/07/2014	20:07:53.554	$GPGGA,200754,2425.7344,N,08054.9535,W,1,9,1.6,16,M,,M,,*5B
06/07/2014	20:07:54.572	$GPGGA,200755,2425.7358,N,08054.9525,W,1,11,1.5,16,M,,M,,*6C
06/07/2014	20:07:55.580	$GPGGA,200756,2425.7372,N,08054.9516,W,1,11,1.6,16,M,,M,,*64
06/07/2014	20:07:56.568	$GPGGA,200757,2425.7385,N,08054.9508,W,1,11,1.5,16,M,,M,,*61
06/07/2014	20:07:57.577	$GPGGA,200758,2425.7399,N,08054.9500,W,1,11,1.6,16,M,,M,,*68
06/07/2014	20:07:58.573	$GPGGA,200759,2425.7413,N,08054.9490,W,1,11,1.5,16,M,,M,,*67
06/07/2014	20:07:59.591	$GPGGA,200800,2425.7427,N,08054.9482,W,1,11,1.6,16,M,,M,,*63
06/07/2014	20:08:00.609	$GPGGA,200801,2425.7441,N,08054.9472,W,1,10,1.6,16,M,,M,,*6C
06/07/2014	20:08:01.588	$GPGGA,200802,2425.7453,N,08054.9463,W,1,10,1.5,17,M,,M,,*6E
06/07/2014	20:08:02.596	$GPGGA,200803,2425.7467,N,08054.9455,W,1,11,1.5,17,M,,M,,*6C
06/07/2014	20:08:03.613	$GPGGA,200804,2425.7481,N,08054.9446,W,1,11,1.6,17,M,,M,,*62
06/07/2014	20:08:04.619	$GPGGA,200805,2425.7493,N,08054.9434,W,1,10,1.6,17,M,,M,,*64
06/07/2014	20:08:05.758	$GPGGA,200806,2425.7507,N,08054.9426,W,1,10,1.5,17,M,,M,,*6B
06/07/2014	20:08:06.615	$GPGGA,200807,2425.7520,N,08054.9419,W,1,10,1.6,17,M,,M,,*60
06/07/2014	20:08:07.764	$GPGGA,200808,2425.7533,N,08054.9408,W,1,10,1.8,17,M,,M,,*63
06/07/2014	20:08:08.651	$GPGGA,200809,2425.7547,N,08054.9401,W,1,11,1.5,17,M,,M,,*64
06/07/2014	20:08:09.750	$GPGGA,200810,2425.7561,N,08054.9394,W,1,11,1.5,17,M,,M,,*63
06/07/2014	20:08:10.838	$GPGGA,200811,2425.7575,N,08054.9386,W,1,11,1.5,17,M,,M,,*64
06/07/2014	20:08:11.665	$GPGGA,200812,2425.7589,N,08054.9379,W,1,11,1.5,17,M,,M,,*64
06/07/2014	20:08:12.743	$GPGGA,200813,2425.7601,N,08054.9371,W,1,10,1.6,17,M,,M,,*6C
06/07/2014	20:08:13.781	$GPGGA,200814,2425.7616,N,08054.9364,W,1,10,1.5,17,M,,M,,*6A
06/07/2014	20:08:14.850	$GPGGA,200815,2425.7630,N,08054.9356,W,1,11,1.6,17,M,,M,,*6C
06/07/2014	20:08:15.696	$GPGGA,200816,2425.7643,N,08054.9350,W,1,11,1.6,17,M,,M,,*6D
06/07/2014	20:08:16.775	$GPGGA,200817,2425.7655,N,08054.9341,W,1,9,1.8,17,M,,M,,*5C
06/07/2014	20:08:17.783	$GPGGA,200818,2425.7670,N,08054.9335,W,1,9,1.5,17,M,,M,,*5A
06/07/2014	20:08:18.882	$GPGGA,200819,2425.7683,N,08054.9324,W,1,9,1.6,18,M,,M,,*5B
06/07/2014	20:08:19.830	$GPGGA,200820,2425.7695,N,08054.9316,W,1,9,1.6,18,M,,M,,*57
06/07/2014	20:08:20.906	$GPGGA,200821,2425.7709,N,08054.9306,W,1,11,1.5,18,M,,M,,*69
06/07/2014	20:08:21.833	$GPGGA,200822,2425.7723,N,08054.9298,W,1,11,1.5,18,M,,M,,*64
06/07/2014	20:08:22.922	$GPGGA,200823,2425.7735,N,08054.9288,W,1,10,1.5,18,M,,M,,*62
06/07/2014	20:08:23.875	$GPGGA,200824,2425.7749,N,08054.9283,W,1,10,1.5,18,M,,M,,*65
06/07/2014	20:08:24.817	$GPGGA,200825,2425.7763,N,08054.9275,W,1,10,1.6,18,M,,M,,*66
06/07/2014	20:08:25.825	$GPGGA,200826,2425.7777,N,08054.9267,W,1,10,1.5,18,M,,M,,*60
06/07/2014	20:08:26.943	$GPGGA,200827,2425.7791,N,08054.9261,W,1,10,1.6,18,M,,M,,*6C
06/07/2014	20:08:27.871	$GPGGA,200828,2425.7804,N,08054.9254,W,1,10,1.6,18,M,,M,,*66
06/07/2014	20:08:28.838	$GPGGA,200829,2425.7818,N,08054.9247,W,1,11,1.5,18,M,,M,,*6A
06/07/2014	20:08:29.846	$GPGGA,200830,2425.7832,N,08054.9238,W,1,11,1.8,18,M,,M,,*6F
06/07/2014	20:08:30.965	$GPGGA,200831,2425.7845,N,08054.9230,W,1,11,1.5,18,M,,M,,*6B
06/07/2014	20:08:31.872	$GPGGA,200832,2425.7858,N,08054.9221,W,1,11,1.5,18,M,,M,,*64
06/07/2014	20:08:32.991	$GPGGA,200833,2425.7872,N,08054.9212,W,1,11,1.5,18,M,,M,,*6D
06/07/2014	20:08:33.868	$GPGGA,200834,2425.7887,N,08054.9204,W,1,11,1.5,18,M,,M,,*67
06/07/2014	20:08:34.936	$GPGGA,200835,2425.7900,N,08054.9198,W,1,10,1.6,18,M,,M,,*6C
06/07/2014	20:08:35.925	$GPGGA,200836,2425.7912,N,08054.9189,W,1,10,1.5,18,M,,M,,*6F
06/07/2014	20:08:37.002	$GPGGA,200837,2425.7926,N,08054.9180,W,1,11,1.5,18,M,,M,,*61
06/07/2014	20:08:37.416	$GPGGA,200838,2425.7941,N,08054.9173,W,1,11,1.5,18,M,,M,,*63
06/07/2014	20:08:38.554	$GPGGA,200839,2425.7955,N,08054.9165,W,1,10,1.6,18,M,,M,,*62
06/07/2014	20:08:39.481	$GPGGA,200840,2425.7966,N,08054.9153,W,1,10,1.5,18,M,,M,,*6A
06/07/2014	20:08:40.509	$GPGGA,200841,2425.7980,N,08054.9142,W,1,11,1.5,18,M,,M,,*62
06/07/2014	20:08:41.467	$GPGGA,200842,2425.7994,N,08054.9135,W,1,11,1.5,18,M,,M,,*64
06/07/2014	20:08:42.525	$GPGGA,200843,2425.8008,N,08054.9128,W,1,10,1.5,18,M,,M,,*6B
06/07/2014	20:08:43.513	$GPGGA,200844,2425.8022,N,08054.9120,W,1,10,1.6,18,M,,M,,*6F
06/07/2014	20:08:44.591	$GPGGA,200845,2425.8035,N,08054.9113,W,1,10,1.5,18,M,,M,,*6B
06/07/2014	20:08:45.489	$GPGGA,200846,2425.8049,N,08054.9106,W,1,10,1.5,18,M,,M,,*67
06/07/2014	20:08:46.579	$GPGGA,200847,2425.8063,N,08054.9099,W,1,11,1.5,18,M,,M,,*68
06/07/2014	20:08:47.605	$GPGGA,200848,2425.8077,N,08054.9091,W,1,11,1.5,18,M,,M,,*6A
06/07/2014	20:08:48.608	$GPGGA,200849,2425.8089,N,08054.9083,W,1,10,1.5,18,M,,M,,*68
06/07/2014	20:08:49.510	$GPGGA,200850,2425.8103,N,08054.9075,W,1,10,1.5,18,M,,M,,*6A
06/07/2014	20:08:50.579	$GPGGA,200851,2425.8117,N,08054.9065,W,1,10,1.5,18,M,,M,,*6F
06/07/2014	20:08:51.618	$GPGGA,200852,2425.8129,N,08054.9056,W,1,10,1.5,18,M,,M,,*61
06/07/2014	20:08:52.636	$GPGGA,200853,2425.8143,N,08054.9048,W,1,11,1.5,18,M,,M,,*62
06/07/2014	20:08:53.511	$GPGGA,200854,2425.8157,N,08054.9037,W,1,11,1.5,18,M,,M,,*68
06/07/2014	20:08:54.660	$GPGGA,200855,2425.8169,N,08054.9028,W,1,11,1.5,18,M,,M,,*6A
06/07/2014	20:08:55.578	$GPGGA,200856,2425.8183,N,08054.9020,W,1,11,1.5,18,M,,M,,*65
06/07/2014	20:08:56.685	$GPGGA,200857,2425.8197,N,08054.9013,W,1,10,1.5,18,M,,M,,*60
06/07/2014	20:08:57.633	$GPGGA,200858,2425.8211,N,08054.9005,W,1,10,1.5,18,M,,M,,*65
06/07/2014	20:08:58.641	$GPGGA,200859,2425.8225,N,08054.8998,W,1,10,1.5,18,M,,M,,*6F
06/07/2014	20:08:59.690	$GPGGA,200900,2425.8239,N,08054.8990,W,1,10,1.5,18,M,,M,,*67
06/07/2014	20:09:00.646	$GPGGA,200901,2425.8251,N,08054.8982,W,1,11,1.5,18,M,,M,,*6A
06/07/2014	20:09:01.654	$GPGGA,200902,2425.8266,N,08054.8975,W,1,11,1.8,18,M,,M,,*68
06/07/2014	20:09:02.561	$GPGGA,200903,2425.8279,N,08054.8967,W,1,9,1.8,18,M,,M,,*5D
06/07/2014	20:09:03.680	$GPGGA,200904,2425.8291,N,08054.8960,W,1,9,1.5,18,M,,M,,*56
06/07/2014	20:09:04.698	$GPGGA,200905,2425.8306,N,08054.8951,W,1,11,1.5,18,M,,M,,*63
06/07/2014	20:09:05.676	$GPGGA,200906,2425.8317,N,08054.8944,W,1,11,1.5,18,M,,M,,*64
06/07/2014	20:09:06.694	$GPGGA,200907,2425.8331,N,08054.8936,W,1,10,1.5,19,M,,M,,*64
06/07/2014	20:09:07.712	$GPGGA,200908,2425.8342,N,08054.8927,W,1,10,1.5,19,M,,M,,*6F
06/07/2014	20:09:08.774	$GPGGA,200909,2425.8353,N,08054.8918,W,1,11,1.5,19,M,,M,,*63
06/07/2014	20:09:09.707	$GPGGA,200910,2425.8364,N,08054.8910,W,1,11,1.5,19,M,,M,,*67
06/07/2014	20:09:10.757	$GPGGA,200911,2425.8377,N,08054.8901,W,1,11,1.5,19,M,,M,,*64
06/07/2014	20:09:11.723	$GPGGA,200912,2425.8388,N,08054.8894,W,1,11,1.5,19,M,,M,,*6A
06/07/2014	20:09:12.751	$GPGGA,200913,2425.8388,N,08054.8894,W,1,10,1.5,19,M,,M,,*6A
06/07/2014	20:09:13.728	$GPGGA,200914,2425.8409,N,08054.8876,W,1,10,1.6,19,M,,M,,*6C
06/07/2014	20:09:14.746	$GPGGA,200915,2425.8420,N,08054.8869,W,1,10,1.6,19,M,,M,,*68
06/07/2014	20:09:15.755	$GPGGA,200916,2425.8431,N,08054.8861,W,1,10,1.5,19,M,,M,,*60
06/07/2014	20:09:16.752	$GPGGA,200917,2425.8441,N,08054.8853,W,1,10,1.5,19,M,,M,,*67
06/07/2014	20:09:17.760	$GPGGA,200918,2425.8449,N,08054.8841,W,1,10,1.5,19,M,,M,,*63
06/07/2014	20:09:18.788	$GPGGA,200919,2425.8458,N,08054.8833,W,1,11,1.5,19,M,,M,,*66
06/07/2014	20:09:19.785	$GPGGA,200920,2425.8468,N,08054.8826,W,1,11,1.5,19,M,,M,,*6B
06/07/2014	20:09:20.813	$GPGGA,200921,2425.8479,N,08054.8817,W,1,10,1.5,19,M,,M,,*69
06/07/2014	20:09:21.781	$GPGGA,200922,2425.8488,N,08054.8809,W,1,10,1.5,19,M,,M,,*6B
06/07/2014	20:09:22.819	$GPGGA,200923,2425.8497,N,08054.8801,W,1,10,1.5,19,M,,M,,*6C
06/07/2014	20:09:23.787	$GPGGA,200924,2425.8508,N,08054.8795,W,1,10,1.5,19,M,,M,,*6E
06/07/2014	20:09:24.835	$GPGGA,200925,2425.8517,N,08054.8787,W,1,11,1.5,19,M,,M,,*63
06/07/2014	20:09:25.803	$GPGGA,200926,2425.8526,N,08054.8781,W,1,11,1.6,19,M,,M,,*67
06/07/2014	20:09:26.941	$GPGGA,200927,2425.8536,N,08054.8773,W,1,10,1.6,19,M,,M,,*6B
06/07/2014	20:09:27.818	$GPGGA,200928,2425.8544,N,08054.8767,W,1,10,1.6,19,M,,M,,*64
06/07/2014	20:09:28.826	$GPGGA,200929,2425.8554,N,08054.8759,W,1,10,1.6,19,M,,M,,*69
06/07/2014	20:09:29.821	$GPGGA,200930,2425.8562,N,08054.8752,W,1,10,1.5,19,M,,M,,*6C
06/07/2014	20:09:30.885	$GPGGA,200931,2425.8570,N,08054.8743,W,1,11,1.5,19,M,,M,,*6F
06/07/2014	20:09:31.949	$GPGGA,200932,2425.8579,N,08054.8734,W,1,11,1.5,19,M,,M,,*65
06/07/2014	20:09:32.964	$GPGGA,200933,2425.8587,N,08054.8726,W,1,10,1.5,19,M,,M,,*67
06/07/2014	20:09:33.832	$GPGGA,200934,2425.8595,N,08054.8717,W,1,10,1.5,19,M,,M,,*61
06/07/2014	20:09:34.852	$GPGGA,200935,2425.8595,N,08054.8717,W,1,11,1.5,19,M,,M,,*61
06/07/2014	20:09:35.837	$GPGGA,200936,2425.8613,N,08054.8702,W,1,11,1.5,19,M,,M,,*6B
06/07/2014	20:09:36.957	$GPGGA,200937,2425.8622,N,08054.8694,W,1,10,1.5,19,M,,M,,*67
06/07/2014	20:09:37.403	$GPGGA,200938,2425.8630,N,08054.8688,W,1,10,1.5,19,M,,M,,*66
06/07/2014	20:09:38.496	$GPGGA,200939,2425.8638,N,08054.8680,W,1,11,1.5,19,M,,M,,*66
06/07/2014	20:09:39.413	$GPGGA,200940,2425.8645,N,08054.8672,W,1,11,1.5,19,M,,M,,*6F
06/07/2014	20:09:40.495	$GPGGA,200941,2425.8653,N,08054.8665,W,1,11,1.5,19,M,,M,,*6F
06/07/2014	20:09:41.400	$GPGGA,200942,2425.8653,N,08054.8665,W,1,11,1.5,19,M,,M,,*6C
06/07/2014	20:09:42.404	$GPGGA,200943,2425.8669,N,08054.8650,W,1,11,1.5,19,M,,M,,*62
06/07/2014	20:09:43.519	$GPGGA,200944,2425.8677,N,08054.8643,W,1,11,1.5,19,M,,M,,*68
06/07/2014	20:09:44.533	$GPGGA,200945,2425.8685,N,08054.8635,W,1,11,1.5,19,M,,M,,*65
06/07/2014	20:09:45.417	$GPGGA,200946,2425.8692,N,08054.8628,W,1,11,1.5,19,M,,M,,*6C
06/07/2014	20:09:46.543	$GPGGA,200947,2425.8692,N,08054.8628,W,1,10,1.5,19,M,,M,,*6C
06/07/2014	20:09:47.527	$GPGGA,200948,2425.8707,N,08054.8613,W,1,10,1.5,19,M,,M,,*66
06/07/2014	20:09:48.480	$GPGGA,200949,2425.8707,N,08054.8613,W,1,11,1.5,19,M,,M,,*66
06/07/2014	20:09:49.424	$GPGGA,200950,2425.8721,N,08054.8598,W,1,11,1.5,19,M,,M,,*6A
06/07/2014	20:09:50.539	$GPGGA,200951,2425.8730,N,08054.8591,W,1,10,1.5,19,M,,M,,*63
06/07/2014	20:09:51.534	$GPGGA,200952,2425.8736,N,08054.8582,W,1,10,1.5,19,M,,M,,*64
06/07/2014	20:09:52.538	$GPGGA,200953,2425.8743,N,08054.8574,W,1,11,1.5,18,M,,M,,*6E
06/07/2014	20:09:53.533	$GPGGA,200954,2425.8750,N,08054.8568,W,1,11,1.5,18,M,,M,,*66
06/07/2014	20:09:54.527	$GPGGA,200955,2425.8757,N,08054.8561,W,1,10,1.5,18,M,,M,,*68
06/07/2014	20:09:55.533	$GPGGA,200956,2425.8764,N,08054.8554,W,1,10,1.5,18,M,,M,,*6D
06/07/2014	20:09:56.556	$GPGGA,200957,2425.8772,N,08054.8548,W,1,10,1.5,18,M,,M,,*66
06/07/2014	20:09:57.541	$GPGGA,200958,2425.8779,N,08054.8541,W,1,10,1.5,18,M,,M,,*6B
06/07/2014	20:09:58.575	$GPGGA,200959,2425.8786,N,08054.8534,W,1,11,1.5,18,M,,M,,*69
06/07/2014	20:09:59.560	$GPGGA,201000,2425.8793,N,08054.8526,W,1,11,1.5,18,M,,M,,*6A
06/07/2014	20:10:00.564	$GPGGA,201001,2425.8799,N,08054.8517,W,1,10,1.5,18,M,,M,,*62
06/07/2014	20:10:01.539	$GPGGA,201002,2425.8804,N,08054.8509,W,1,10,1.5,18,M,,M,,*65
06/07/2014	20:10:02.554	$GPGGA,201003,2425.8811,N,08054.8501,W,1,11,1.5,18,M,,M,,*69
06/07/2014	20:10:03.568	$GPGGA,201004,2425.8818,N,08054.8493,W,1,11,1.5,18,M,,M,,*6D
06/07/2014	20:10:04.562	$GPGGA,201005,2425.8824,N,08054.8486,W,1,11,1.5,18,M,,M,,*67
06/07/2014	20:10:05.556	$GPGGA,201006,2425.8830,N,08054.8479,W,1,11,1.5,18,M,,M,,*61
06/07/2014	20:10:06.590	$GPGGA,201007,2425.8837,N,08054.8473,W,1,10,1.5,18,M,,M,,*6C
06/07/2014	20:10:07.575	$GPGGA,201008,2425.8844,N,08054.8467,W,1,10,1.5,18,M,,M,,*62
06/07/2014	20:10:08.550	$GPGGA,201009,2425.8851,N,08054.8460,W,1,11,1.5,18,M,,M,,*61
06/07/2014	20:10:09.574	$GPGGA,201010,2425.8857,N,08054.8453,W,1,11,1.5,18,M,,M,,*6F
06/07/2014	20:10:10.568	$GPGGA,201011,2425.8862,N,08054.8446,W,1,11,1.5,18,M,,M,,*6C
06/07/2014	20:10:11.583	$GPGGA,201012,2425.8869,N,08054.8439,W,1,11,1.5,18,M,,M,,*6C
06/07/2014	20:10:12.597	$GPGGA,201013,2425.8875,N,08054.8431,W,1,11,1.5,18,M,,M,,*68
06/07/2014	20:10:13.561	$GPGGA,201014,2425.8880,N,08054.8424,W,1,11,1.5,18,M,,M,,*61
06/07/2014	20:10:14.686	$GPGGA,201015,2425.8887,N,08054.8418,W,1,11,1.5,18,M,,M,,*68
06/07/2014	20:10:15.581	$GPGGA,201016,2425.8894,N,08054.8410,W,1,11,1.5,18,M,,M,,*61
06/07/2014	20:10:16.589	$GPGGA,201017,2425.8898,N,08054.8402,W,1,11,1.5,18,M,,M,,*6F
06/07/2014	20:10:17.680	$GPGGA,201018,2425.8905,N,08054.8394,W,1,11,1.5,18,M,,M,,*6D
06/07/2014	20:10:18.604	$GPGGA,201019,2425.8912,N,08054.8386,W,1,11,1.5,18,M,,M,,*69
06/07/2014	20:10:19.591	$GPGGA,201020,2425.8916,N,08054.8378,W,1,11,1.5,18,M,,M,,*66
06/07/2014	20:10:20.593	$GPGGA,201021,2425.8923,N,08054.8371,W,1,11,1.5,18,M,,M,,*68
06/07/2014	20:10:21.587	$GPGGA,201022,2425.8929,N,08054.8364,W,1,11,1.5,18,M,,M,,*65
06/07/2014	20:10:22.593	$GPGGA,201023,2425.8934,N,08054.8356,W,1,11,1.5,18,M,,M,,*69
06/07/2014	20:10:23.726	$GPGGA,201024,2425.8941,N,08054.8349,W,1,11,1.5,18,M,,M,,*62
06/07/2014	20:10:24.622	$GPGGA,201025,2425.8947,N,08054.8343,W,1,11,1.5,18,M,,M,,*6F
06/07/2014	20:10:25.695	$GPGGA,201026,2425.8952,N,08054.8335,W,1,11,1.5,18,M,,M,,*69
06/07/2014	20:10:26.729	$GPGGA,201027,2425.8958,N,08054.8327,W,1,11,1.5,18,M,,M,,*61
06/07/2014	20:10:27.724	$GPGGA,201028,2425.8963,N,08054.8321,W,1,11,1.5,18,M,,M,,*60
06/07/2014	20:10:28.619	$GPGGA,201029,2425.8969,N,08054.8314,W,1,11,1.5,18,M,,M,,*6D
06/07/2014	20:10:29.713	$GPGGA,201030,2425.8974,N,08054.8306,W,1,11,1.5,18,M,,M,,*6A
06/07/2014	20:10:30.747	$GPGGA,201031,2425.8981,N,08054.8299,W,1,11,1.5,18,M,,M,,*66
06/07/2014	20:10:31.732	$GPGGA,201032,2425.8985,N,08054.8292,W,1,11,1.5,18,M,,M,,*6A
06/07/2014	20:10:32.750	$GPGGA,201033,2425.8992,N,08054.8285,W,1,11,1.5,18,M,,M,,*6B
06/07/2014	20:10:33.721	$GPGGA,201034,2425.8996,N,08054.8278,W,1,11,1.5,18,M,,M,,*6A
06/07/2014	20:10:34.726	$GPGGA,201035,2425.9003,N,08054.8270,W,1,11,1.5,18,M,,M,,*67
06/07/2014	20:10:35.740	$GPGGA,201036,2425.9007,N,08054.8264,W,1,11,1.5,18,M,,M,,*65
06/07/2014	20:10:36.734	$GPGGA,201037,2425.9013,N,08054.8257,W,1,11,1.5,18,M,,M,,*61
06/07/2014	20:10:37.459	$GPGGA,201038,2425.9018,N,08054.8250,W,1,11,1.5,18,M,,M,,*62
06/07/2014	20:10:38.463	$GPGGA,201039,2425.9024,N,08054.8243,W,1,11,1.5,18,M,,M,,*6E
06/07/2014	20:10:39.478	$GPGGA,201040,2425.9030,N,08054.8237,W,1,11,1.5,18,M,,M,,*66
06/07/2014	20:10:40.481	$GPGGA,201041,2425.9035,N,08054.8230,W,1,11,1.5,18,M,,M,,*65
06/07/2014	20:10:41.456	$GPGGA,201042,2425.9039,N,08054.8223,W,1,11,1.5,18,M,,M,,*68
06/07/2014	20:10:42.490	$GPGGA,201043,2425.9046,N,08054.8216,W,1,11,1.5,18,M,,M,,*67
06/07/2014	20:10:43.485	$GPGGA,201044,2425.9050,N,08054.8209,W,1,11,1.5,18,M,,M,,*69
06/07/2014	20:10:44.469	$GPGGA,201045,2425.9056,N,08054.8203,W,1,11,1.5,18,M,,M,,*64
06/07/2014	20:10:45.474	$GPGGA,201046,2425.9061,N,08054.8197,W,1,11,1.5,18,M,,M,,*6D
06/07/2014	20:10:46.508	$GPGGA,201047,2425.9066,N,08054.8189,W,1,11,1.4,18,M,,M,,*65
06/07/2014	20:10:47.483	$GPGGA,201048,2425.9071,N,08054.8182,W,1,11,1.4,18,M,,M,,*67
06/07/2014	20:10:48.497	$GPGGA,201049,2425.9077,N,08054.8176,W,1,11,1.4,18,M,,M,,*6B
06/07/2014	20:10:49.472	$GPGGA,201050,2425.9082,N,08054.8169,W,1,11,1.4,18,M,,M,,*67
06/07/2014	20:10:50.486	$GPGGA,201051,2425.9086,N,08054.8161,W,1,11,1.4,18,M,,M,,*6A
06/07/2014	20:10:51.501	$GPGGA,201052,2425.9092,N,08054.8155,W,1,11,1.4,18,M,,M,,*6B
06/07/2014	20:10:52.495	$GPGGA,201053,2425.9097,N,08054.8148,W,1,11,1.4,18,M,,M,,*63
06/07/2014	20:10:53.479	$GPGGA,201054,2425.9101,N,08054.8140,W,1,11,1.4,18,M,,M,,*62
06/07/2014	20:10:54.486	$GPGGA,201055,2425.9107,N,08054.8133,W,1,11,1.4,18,M,,M,,*61
06/07/2014	20:10:55.519	$GPGGA,201056,2425.9111,N,08054.8127,W,1,11,1.4,18,M,,M,,*60
06/07/2014	20:10:56.503	$GPGGA,201057,2425.9117,N,08054.8119,W,1,11,1.4,18,M,,M,,*6A
06/07/2014	20:10:57.508	$GPGGA,201058,2425.9122,N,08054.8112,W,1,11,1.4,17,M,,M,,*67
06/07/2014	20:10:58.511	$GPGGA,201059,2425.9126,N,08054.8106,W,1,11,1.4,17,M,,M,,*67
06/07/2014	20:10:59.526	$GPGGA,201100,2425.9132,N,08054.8099,W,1,11,1.4,17,M,,M,,*68
06/07/2014	20:11:00.510	$GPGGA,201101,2425.9137,N,08054.8091,W,1,11,1.4,17,M,,M,,*64
06/07/2014	20:11:01.625	$GPGGA,201102,2425.9140,N,08054.8085,W,1,11,1.4,17,M,,M,,*62
06/07/2014	20:11:02.599	$GPGGA,201103,2425.9147,N,08054.8078,W,1,11,1.4,17,M,,M,,*66
06/07/2014	20:11:03.528	$GPGGA,201104,2425.9151,N,08054.8070,W,1,11,1.4,17,M,,M,,*6E
06/07/2014	20:11:04.520	$GPGGA,201105,2425.9155,N,08054.8063,W,1,11,1.4,17,M,,M,,*69
06/07/2014	20:11:05.533	$GPGGA,201106,2425.9161,N,08054.8057,W,1,11,1.4,17,M,,M,,*6A
06/07/2014	20:11:06.538	$GPGGA,201107,2425.9165,N,08054.8050,W,1,11,1.4,17,M,,M,,*68
06/07/2014	20:11:07.543	$GPGGA,201108,2425.9171,N,08054.8043,W,1,11,1.4,17,M,,M,,*60
06/07/2014	20:11:08.626	$GPGGA,201109,2425.9175,N,08054.8036,W,1,11,1.4,17,M,,M,,*67
06/07/2014	20:11:09.540	$GPGGA,201110,2425.9180,N,08054.8030,W,1,11,1.4,17,M,,M,,*63
06/07/2014	20:11:10.649	$GPGGA,201111,2425.9184,N,08054.8022,W,1,11,1.4,17,M,,M,,*65
06/07/2014	20:11:11.651	$GPGGA,201112,2425.9190,N,08054.8015,W,1,11,1.4,17,M,,M,,*67
06/07/2014	20:11:12.635	$GPGGA,201113,2425.9194,N,08054.8009,W,1,11,1.4,17,M,,M,,*6F
06/07/2014	20:11:13.548	$GPGGA,201114,2425.9198,N,08054.8002,W,1,11,1.4,17,M,,M,,*6F
06/07/2014	20:11:14.666	$GPGGA,201115,2425.9204,N,08054.7995,W,1,11,1.4,17,M,,M,,*60
06/07/2014	20:11:15.647	$GPGGA,201116,2425.9208,N,08054.7987,W,1,11,1.4,17,M,,M,,*6C
06/07/2014	20:11:16.641	$GPGGA,201117,2425.9212,N,08054.7980,W,1,11,1.4,17,M,,M,,*61
06/07/2014	20:11:17.555	$GPGGA,201118,2425.9216,N,08054.7974,W,1,11,1.4,17,M,,M,,*61
06/07/2014	20:11:18.682	$GPGGA,201119,2425.9220,N,08054.7967,W,1,10,1.5,17,M,,M,,*67
06/07/2014	20:11:19.665	$GPGGA,201120,2425.9226,N,08054.7959,W,1,10,1.4,17,M,,M,,*67
06/07/2014	20:11:20.669	$GPGGA,201121,2425.9230,N,08054.7953,W,1,11,1.4,17,M,,M,,*6A
06/07/2014	20:11:21.664	$GPGGA,201122,2425.9234,N,08054.7946,W,1,11,1.4,17,M,,M,,*69
06/07/2014	20:11:22.658	$GPGGA,201123,2425.9238,N,08054.7938,W,1,10,1.5,17,M,,M,,*6D
06/07/2014	20:11:23.673	$GPGGA,201124,2425.9242,N,08054.7931,W,1,10,1.6,17,M,,M,,*6D
06/07/2014	20:11:24.657	$GPGGA,201125,2425.9248,N,08054.7922,W,1,11,1.4,17,M,,M,,*67
06/07/2014	20:11:25.652	$GPGGA,201126,2425.9252,N,08054.7912,W,1,11,1.5,17,M,,M,,*6D
06/07/2014	20:11:26.666	$GPGGA,201127,2425.9256,N,08054.7905,W,1,11,1.4,17,M,,M,,*6F
06/07/2014	20:11:27.681	$GPGGA,201128,2425.9259,N,08054.7900,W,1,11,1.6,17,M,,M,,*68
06/07/2014	20:11:28.695	$GPGGA,201129,2425.9266,N,08054.7891,W,1,11,1.4,17,M,,M,,*6E
06/07/2014	20:11:29.671	$GPGGA,201130,2425.9270,N,08054.7885,W,1,11,1.4,17,M,,M,,*64
06/07/2014	20:11:30.694	$GPGGA,201131,2425.9274,N,08054.7874,W,1,9,1.6,17,M,,M,,*54
06/07/2014	20:11:31.689	$GPGGA,201132,2425.9278,N,08054.7866,W,1,9,1.4,18,M,,M,,*55
06/07/2014	20:11:32.725	$GPGGA,201133,2425.9283,N,08054.7859,W,1,11,1.4,18,M,,M,,*65
06/07/2014	20:11:33.725	$GPGGA,201134,2425.9287,N,08054.7852,W,1,11,1.4,18,M,,M,,*6D
06/07/2014	20:11:34.779	$GPGGA,201135,2425.9292,N,08054.7845,W,1,10,1.5,18,M,,M,,*6E
06/07/2014	20:11:35.802	$GPGGA,201136,2425.9296,N,08054.7839,W,1,10,1.5,18,M,,M,,*62
06/07/2014	20:11:36.877	$GPGGA,201137,2425.9301,N,08054.7832,W,1,10,1.5,18,M,,M,,*67
06/07/2014	20:11:37.434	$GPGGA,201138,2425.9305,N,08054.7825,W,1,10,1.4,18,M,,M,,*6B
06/07/2014	20:11:38.498	$GPGGA,201139,2425.9310,N,08054.7819,W,1,10,1.5,18,M,,M,,*60
06/07/2014	20:11:39.531	$GPGGA,201140,2425.9314,N,08054.7811,W,1,10,1.5,18,M,,M,,*62
06/07/2014	20:11:40.585	$GPGGA,201141,2425.9317,N,08054.7803,W,1,11,1.4,18,M,,M,,*63
