Software Version Number: 1	Data File Format Number: 1	Build Version Number: 1	Error Count Since VI Started: 0	Manufacturer: Raytheon	 Model Number: RayMarine 120	 S/N: 	 Cal Date: 	 Wind Direction Offset: 0.00	 Slope (M)1: 0.00	 Offset (B)1: 0.00	 Slope (M)2: 0.00	 Offset (B)2: 0.00	 Slope (M)3: 0.00	 Offset (B)3: 0.00	 Slope (M)4: 0.00	 Offset (B)4: 0.00	 Slope (M)5: 0.00	 Offset (B)5: 0.00	 Slope (M)6: 0.00	 Offset (B)6: 0.00
Computer Date	Computer Time	GGA String
06/10/2014	00:00:01.162	$GPGGA,000008,2550.9534,N,08002.3684,W,1,9,1.7,17,M,,M,,*5B
06/10/2014	00:00:02.199	$GPGGA,000009,2550.9544,N,08002.3677,W,1,9,1.7,17,M,,M,,*51
06/10/2014	00:00:03.286	$GPGGA,000010,2550.9552,N,08002.3670,W,1,9,1.6,17,M,,M,,*58
06/10/2014	00:00:04.356	$GPGGA,000011,2550.9559,N,08002.3663,W,1,9,1.6,17,M,,M,,*50
06/10/2014	00:00:05.466	$GPGGA,000012,2550.9567,N,08002.3657,W,1,9,1.6,17,M,,M,,*59
06/10/2014	00:00:06.400	$GPGGA,000013,2550.9577,N,08002.3650,W,1,9,1.6,17,M,,M,,*5E
06/10/2014	00:00:07.570	$GPGGA,000014,2550.9585,N,08002.3643,W,1,9,1.6,17,M,,M,,*56
06/10/2014	00:00:08.648	$GPGGA,000015,2550.9592,N,08002.3636,W,1,9,1.6,17,M,,M,,*53
06/10/2014	00:00:09.770	$GPGGA,000016,2550.9602,N,08002.3629,W,1,9,1.6,17,M,,M,,*54
06/10/2014	00:00:10.807	$GPGGA,000017,2550.9610,N,08002.3622,W,1,9,1.6,17,M,,M,,*5D
06/10/2014	00:00:11.864	$GPGGA,000018,2550.9619,N,08002.3615,W,1,9,1.6,17,M,,M,,*5F
06/10/2014	00:00:12.974	$GPGGA,000019,2550.9627,N,08002.3609,W,1,9,1.6,17,M,,M,,*5E
06/10/2014	00:00:14.041	$GPGGA,000020,2550.9635,N,08002.3602,W,1,9,1.6,17,M,,M,,*5C
06/10/2014	00:00:15.099	$GPGGA,000021,2550.9643,N,08002.3595,W,1,9,1.6,17,M,,M,,*51
06/10/2014	00:00:16.177	$GPGGA,000022,2550.9652,N,08002.3588,W,1,9,1.6,17,M,,M,,*5E
06/10/2014	00:00:17.245	$GPGGA,000023,2550.9660,N,08002.3581,W,1,9,1.6,17,M,,M,,*57
06/10/2014	00:00:18.346	$GPGGA,000024,2550.9668,N,08002.3574,W,1,9,1.4,16,M,,M,,*51
06/10/2014	00:00:19.414	$GPGGA,000025,2550.9677,N,08002.3567,W,1,10,1.4,16,M,,M,,*64
06/10/2014	00:00:20.494	$GPGGA,000026,2550.9686,N,08002.3560,W,1,10,1.4,16,M,,M,,*6E
06/10/2014	00:00:21.593	$GPGGA,000027,2550.9693,N,08002.3552,W,1,10,1.4,16,M,,M,,*6A
06/10/2014	00:00:22.650	$GPGGA,000028,2550.9703,N,08002.3545,W,1,10,1.4,16,M,,M,,*6B
06/10/2014	00:00:23.783	$GPGGA,000029,2550.9711,N,08002.3538,W,1,10,1.4,16,M,,M,,*63
06/10/2014	00:00:24.797	$GPGGA,000030,2550.9720,N,08002.3531,W,1,10,1.4,16,M,,M,,*60
06/10/2014	00:00:25.887	$GPGGA,000031,2550.9728,N,08002.3523,W,1,10,1.4,16,M,,M,,*6A
06/10/2014	00:00:26.965	$GPGGA,000032,2550.9735,N,08002.3516,W,1,10,1.4,16,M,,M,,*63
06/10/2014	00:00:28.044	$GPGGA,000033,2550.9743,N,08002.3509,W,1,10,1.4,16,M,,M,,*6D
06/10/2014	00:00:29.101	$GPGGA,000034,2550.9751,N,08002.3502,W,1,10,1.4,16,M,,M,,*62
06/10/2014	00:00:30.203	$GPGGA,000035,2550.9761,N,08002.3496,W,1,10,1.4,16,M,,M,,*6C
06/10/2014	00:00:31.271	$GPGGA,000036,2550.9769,N,08002.3489,W,1,10,1.4,16,M,,M,,*69
06/10/2014	00:00:32.349	$GPGGA,000037,2550.9776,N,08002.3481,W,1,10,1.4,16,M,,M,,*6E
06/10/2014	00:00:33.416	$GPGGA,000038,2550.9783,N,08002.3475,W,1,10,1.6,16,M,,M,,*62
06/10/2014	00:00:34.473	$GPGGA,000039,2550.9793,N,08002.3468,W,1,9,1.4,16,M,,M,,*54
06/10/2014	00:00:35.584	$GPGGA,000040,2550.9800,N,08002.3461,W,1,9,1.4,16,M,,M,,*56
06/10/2014	00:00:31.936	$GPGGA,000041,2550.9807,N,08002.3455,W,1,10,1.4,16,M,,M,,*6F
06/10/2014	00:00:32.993	$GPGGA,000042,2550.9815,N,08002.3448,W,1,10,1.4,16,M,,M,,*63
06/10/2014	00:00:34.083	$GPGGA,000043,2550.9823,N,08002.3441,W,1,10,1.4,16,M,,M,,*6E
06/10/2014	00:00:35.183	$GPGGA,000044,2550.9830,N,08002.3434,W,1,10,1.4,16,M,,M,,*69
06/10/2014	00:00:36.208	$GPGGA,000045,2550.9838,N,08002.3427,W,1,10,1.6,16,M,,M,,*60
06/10/2014	00:00:37.287	$GPGGA,000046,2550.9847,N,08002.3421,W,1,10,1.6,16,M,,M,,*6D
06/10/2014	00:00:38.398	$GPGGA,000047,2550.9855,N,08002.3413,W,1,9,1.4,16,M,,M,,*54
06/10/2014	00:00:39.455	$GPGGA,000048,2550.9862,N,08002.3407,W,1,9,1.4,16,M,,M,,*5A
06/10/2014	00:00:40.512	$GPGGA,000049,2550.9870,N,08002.3400,W,1,10,1.4,16,M,,M,,*67
06/10/2014	00:00:41.623	$GPGGA,000050,2550.9877,N,08002.3393,W,1,10,1.4,16,M,,M,,*65
06/10/2014	00:00:42.670	$GPGGA,000051,2550.9885,N,08002.3386,W,1,10,1.4,16,M,,M,,*6D
06/10/2014	00:00:43.792	$GPGGA,000052,2550.9894,N,08002.3380,W,1,10,1.4,16,M,,M,,*68
06/10/2014	00:00:44.860	$GPGGA,000053,2550.9902,N,08002.3372,W,1,10,1.4,16,M,,M,,*6A
06/10/2014	00:00:45.906	$GPGGA,000054,2550.9910,N,08002.3366,W,1,10,1.4,16,M,,M,,*6B
06/10/2014	00:00:47.118	$GPGGA,000055,2550.9917,N,08002.3359,W,1,10,1.4,16,M,,M,,*61
06/10/2014	00:00:48.095	$GPGGA,000056,2550.9926,N,08002.3352,W,1,10,1.4,16,M,,M,,*6B
06/10/2014	00:00:49.260	$GPGGA,000057,2550.9934,N,08002.3345,W,1,10,1.4,16,M,,M,,*6F
06/10/2014	00:00:50.231	$GPGGA,000058,2550.9942,N,08002.3337,W,1,10,1.4,16,M,,M,,*64
06/10/2014	00:00:51.310	$GPGGA,000059,2550.9949,N,08002.3330,W,1,10,1.4,16,M,,M,,*69
06/10/2014	00:00:52.518	$GPGGA,000100,2550.9959,N,08002.3323,W,1,10,1.4,16,M,,M,,*67
06/10/2014	00:00:53.586	$GPGGA,000101,2550.9966,N,08002.3316,W,1,10,1.4,16,M,,M,,*6C
06/10/2014	00:00:54.622	$GPGGA,000102,2550.9975,N,08002.3309,W,1,10,1.4,16,M,,M,,*63
06/10/2014	00:00:55.733	$GPGGA,000103,2550.9982,N,08002.3303,W,1,10,1.4,16,M,,M,,*60
06/10/2014	00:00:56.823	$GPGGA,000104,2550.9992,N,08002.3296,W,1,10,1.4,16,M,,M,,*6B
06/10/2014	00:00:57.848	$GPGGA,000105,2551.0000,N,08002.3289,W,1,10,1.4,16,M,,M,,*6E
06/10/2014	00:00:58.926	$GPGGA,000106,2551.0007,N,08002.3282,W,1,10,1.4,16,M,,M,,*61
06/10/2014	00:01:00.041	$GPGGA,000107,2551.0015,N,08002.3275,W,1,10,1.4,16,M,,M,,*6B
06/10/2014	00:01:01.097	$GPGGA,000108,2551.0024,N,08002.3268,W,1,10,1.4,16,M,,M,,*6A
06/10/2014	00:01:02.174	$GPGGA,000109,2551.0032,N,08002.3261,W,1,10,1.4,16,M,,M,,*65
06/10/2014	00:01:03.242	$GPGGA,000110,2551.0032,N,08002.3261,W,1,10,1.4,16,M,,M,,*6D
06/10/2014	00:01:04.343	$GPGGA,000111,2551.0049,N,08002.3247,W,1,10,1.4,16,M,,M,,*64
06/10/2014	00:01:05.398	$GPGGA,000112,2551.0057,N,08002.3240,W,1,10,1.4,16,M,,M,,*6F
06/10/2014	00:01:06.477	$GPGGA,000113,2551.0065,N,08002.3233,W,1,10,1.4,16,M,,M,,*6B
06/10/2014	00:01:07.556	$GPGGA,000114,2551.0072,N,08002.3226,W,1,10,1.4,16,M,,M,,*6E
06/10/2014	00:01:08.645	$GPGGA,000115,2551.0082,N,08002.3219,W,1,10,1.4,16,M,,M,,*6C
06/10/2014	00:01:09.724	$GPGGA,000116,2551.0090,N,08002.3211,W,1,10,1.4,16,M,,M,,*64
06/10/2014	00:01:10.803	$GPGGA,000117,2551.0098,N,08002.3205,W,1,10,1.4,16,M,,M,,*68
06/10/2014	00:01:11.860	$GPGGA,000118,2551.0105,N,08002.3198,W,1,10,1.4,16,M,,M,,*65
06/10/2014	00:01:12.960	$GPGGA,000119,2551.0115,N,08002.3191,W,1,10,1.4,16,M,,M,,*6C
06/10/2014	00:01:14.018	$GPGGA,000120,2551.0123,N,08002.3183,W,1,10,1.4,16,M,,M,,*60
06/10/2014	00:01:15.098	$GPGGA,000121,2551.0130,N,08002.3177,W,1,10,1.4,16,M,,M,,*68
06/10/2014	00:01:16.164	$GPGGA,000122,2551.0139,N,08002.3169,W,1,10,1.4,16,M,,M,,*6D
06/10/2014	00:01:17.276	$GPGGA,000123,2551.0147,N,08002.3163,W,1,10,1.4,16,M,,M,,*6F
06/10/2014	00:01:18.333	$GPGGA,000124,2551.0155,N,08002.3155,W,1,10,1.4,16,M,,M,,*6E
06/10/2014	00:01:19.412	$GPGGA,000125,2551.0163,N,08002.3148,W,1,10,1.4,16,M,,M,,*66
06/10/2014	00:01:20.480	$GPGGA,000126,2551.0172,N,08002.3141,W,1,10,1.4,16,M,,M,,*6C
06/10/2014	00:01:21.558	$GPGGA,000127,2551.0180,N,08002.3134,W,1,10,1.4,16,M,,M,,*62
06/10/2014	00:01:22.637	$GPGGA,000128,2551.0188,N,08002.3127,W,1,10,1.4,16,M,,M,,*67
06/10/2014	00:01:23.684	$GPGGA,000129,2551.0197,N,08002.3120,W,1,10,1.4,16,M,,M,,*6F
06/10/2014	00:01:24.783	$GPGGA,000130,2551.0205,N,08002.3113,W,1,10,1.4,16,M,,M,,*6F
06/10/2014	00:01:25.883	$GPGGA,000131,2551.0213,N,08002.3106,W,1,10,1.4,16,M,,M,,*6D
06/10/2014	00:01:26.941	$GPGGA,000132,2551.0220,N,08002.3099,W,1,10,1.4,16,M,,M,,*69
06/10/2014	00:01:28.009	$GPGGA,000133,2551.0228,N,08002.3092,W,1,10,1.4,16,M,,M,,*6B
06/10/2014	00:01:29.076	$GPGGA,000134,2551.0237,N,08002.3085,W,1,10,1.4,16,M,,M,,*64
06/10/2014	00:01:30.166	$GPGGA,000135,2551.0245,N,08002.3078,W,1,10,1.4,16,M,,M,,*62
06/10/2014	00:01:31.234	$GPGGA,000136,2551.0253,N,08002.3070,W,1,10,1.4,16,M,,M,,*6E
06/10/2014	00:01:32.410	$GPGGA,000137,2551.0260,N,08002.3064,W,1,10,1.4,16,M,,M,,*6A
06/10/2014	00:01:33.381	$GPGGA,000138,2551.0268,N,08002.3057,W,1,10,1.4,16,M,,M,,*6D
06/10/2014	00:01:34.589	$GPGGA,000139,2551.0278,N,08002.3050,W,1,10,1.4,16,M,,M,,*6A
06/10/2014	00:01:35.549	$GPGGA,000140,2551.0285,N,08002.3043,W,1,10,1.4,16,M,,M,,*64
06/10/2014	00:01:31.881	$GPGGA,000141,2551.0293,N,08002.3036,W,1,10,1.4,16,M,,M,,*60
06/10/2014	00:01:32.970	$GPGGA,000142,2551.0300,N,08002.3029,W,1,10,1.4,16,M,,M,,*66
06/10/2014	00:01:34.168	$GPGGA,000143,2551.0309,N,08002.3024,W,1,9,1.5,16,M,,M,,*5A
06/10/2014	00:01:35.142	$GPGGA,000144,2551.0317,N,08002.3018,W,1,9,1.4,16,M,,M,,*5C
06/10/2014	00:01:36.198	$GPGGA,000145,2551.0324,N,08002.3012,W,1,10,1.4,16,M,,M,,*6F
06/10/2014	00:01:37.383	$GPGGA,000146,2551.0332,N,08002.3005,W,1,10,1.6,16,M,,M,,*6F
06/10/2014	00:01:38.344	$GPGGA,000147,2551.0340,N,08002.2999,W,1,10,1.4,16,M,,M,,*64
06/10/2014	00:01:39.550	$GPGGA,000148,2551.0349,N,08002.2991,W,1,10,1.4,16,M,,M,,*6A
06/10/2014	00:01:40.607	$GPGGA,000149,2551.0357,N,08002.2985,W,1,10,1.4,16,M,,M,,*61
06/10/2014	00:01:41.686	$GPGGA,000150,2551.0365,N,08002.2978,W,1,10,1.4,16,M,,M,,*6A
06/10/2014	00:01:42.673	$GPGGA,000151,2551.0371,N,08002.2973,W,1,10,1.4,16,M,,M,,*65
06/10/2014	00:01:43.757	$GPGGA,000152,2551.0379,N,08002.2967,W,1,10,1.6,16,M,,M,,*69
06/10/2014	00:01:44.912	$GPGGA,000153,2551.0386,N,08002.2961,W,1,9,1.6,16,M,,M,,*56
06/10/2014	00:01:45.980	$GPGGA,000154,2551.0394,N,08002.2954,W,1,9,1.6,16,M,,M,,*54
06/10/2014	00:01:47.069	$GPGGA,000155,2551.0401,N,08002.2949,W,1,9,1.6,16,M,,M,,*52
06/10/2014	00:01:48.159	$GPGGA,000156,2551.0408,N,08002.2942,W,1,9,1.4,16,M,,M,,*51
06/10/2014	00:01:49.248	$GPGGA,000157,2551.0415,N,08002.2936,W,1,10,1.4,16,M,,M,,*67
06/10/2014	00:01:50.295	$GPGGA,000158,2551.0423,N,08002.2929,W,1,10,1.6,16,M,,M,,*61
06/10/2014	00:01:51.395	$GPGGA,000159,2551.0432,N,08002.2922,W,1,9,1.6,16,M,,M,,*53
06/10/2014	00:01:52.474	$GPGGA,000200,2551.0440,N,08002.2916,W,1,9,1.6,16,M,,M,,*5E
06/10/2014	00:01:53.542	$GPGGA,000201,2551.0448,N,08002.2910,W,1,9,1.6,16,M,,M,,*51
06/10/2014	00:01:54.600	$GPGGA,000202,2551.0455,N,08002.2904,W,1,9,1.4,16,M,,M,,*59
06/10/2014	00:01:55.689	$GPGGA,000203,2551.0462,N,08002.2897,W,1,10,1.4,16,M,,M,,*6F
06/10/2014	00:01:56.768	$GPGGA,000204,2551.0470,N,08002.2891,W,1,10,1.4,16,M,,M,,*6D
06/10/2014	00:01:57.836	$GPGGA,000205,2551.0477,N,08002.2884,W,1,10,1.4,16,M,,M,,*6F
06/10/2014	00:01:58.913	$GPGGA,000206,2551.0486,N,08002.2877,W,1,10,1.4,16,M,,M,,*6E
06/10/2014	00:02:00.003	$GPGGA,000207,2551.0492,N,08002.2871,W,1,10,1.4,17,M,,M,,*6D
06/10/2014	00:02:01.082	$GPGGA,000208,2551.0501,N,08002.2865,W,1,10,1.4,17,M,,M,,*6C
06/10/2014	00:02:02.150	$GPGGA,000209,2551.0509,N,08002.2858,W,1,10,1.4,17,M,,M,,*6B
06/10/2014	00:02:03.229	$GPGGA,000210,2551.0517,N,08002.2851,W,1,10,1.4,17,M,,M,,*65
06/10/2014	00:02:04.286	$GPGGA,000211,2551.0524,N,08002.2844,W,1,10,1.4,17,M,,M,,*60
06/10/2014	00:02:05.397	$GPGGA,000212,2551.0533,N,08002.2837,W,1,10,1.4,17,M,,M,,*61
06/10/2014	00:02:06.486	$GPGGA,000213,2551.0541,N,08002.2830,W,1,10,1.4,17,M,,M,,*62
06/10/2014	00:02:07.522	$GPGGA,000214,2551.0549,N,08002.2823,W,1,10,1.4,17,M,,M,,*6F
06/10/2014	00:02:08.624	$GPGGA,000215,2551.0556,N,08002.2816,W,1,10,1.4,17,M,,M,,*66
06/10/2014	00:02:09.691	$GPGGA,000216,2551.0564,N,08002.2809,W,1,10,1.4,17,M,,M,,*6A
06/10/2014	00:02:10.791	$GPGGA,000217,2551.0573,N,08002.2802,W,1,10,1.4,17,M,,M,,*66
06/10/2014	00:02:11.848	$GPGGA,000218,2551.0581,N,08002.2795,W,1,10,1.4,17,M,,M,,*65
06/10/2014	00:02:12.938	$GPGGA,000219,2551.0589,N,08002.2787,W,1,10,1.4,17,M,,M,,*6F
06/10/2014	00:02:14.006	$GPGGA,000220,2551.0599,N,08002.2780,W,1,10,1.6,17,M,,M,,*61
06/10/2014	00:02:15.085	$GPGGA,000221,2551.0607,N,08002.2772,W,1,9,1.6,17,M,,M,,*51
06/10/2014	00:02:16.151	$GPGGA,000222,2551.0614,N,08002.2765,W,1,9,1.6,17,M,,M,,*56
06/10/2014	00:02:17.208	$GPGGA,000223,2551.0622,N,08002.2758,W,1,9,1.6,17,M,,M,,*5C
06/10/2014	00:02:18.309	$GPGGA,000224,2551.0632,N,08002.2751,W,1,9,1.6,17,M,,M,,*53
06/10/2014	00:02:19.366	$GPGGA,000225,2551.0639,N,08002.2744,W,1,9,1.6,17,M,,M,,*5D
06/10/2014	00:02:20.434	$GPGGA,000226,2551.0649,N,08002.2735,W,1,9,1.6,17,M,,M,,*5F
06/10/2014	00:02:21.535	$GPGGA,000227,2551.0657,N,08002.2729,W,1,8,2.0,17,M,,M,,*58
06/10/2014	00:02:22.613	$GPGGA,000228,2551.0665,N,08002.2720,W,1,8,1.6,17,M,,M,,*5A
06/10/2014	00:02:23.703	$GPGGA,000229,2551.0674,N,08002.2712,W,1,8,2.0,17,M,,M,,*5F
06/10/2014	00:02:24.749	$GPGGA,000230,2551.0681,N,08002.2708,W,1,8,2.0,17,M,,M,,*56
06/10/2014	00:02:25.839	$GPGGA,000231,2551.0690,N,08002.2700,W,1,9,1.6,17,M,,M,,*5B
06/10/2014	00:02:27.047	$GPGGA,000232,2551.0697,N,08002.2692,W,1,9,1.6,17,M,,M,,*55
06/10/2014	00:02:28.121	$GPGGA,000233,2551.0707,N,08002.2684,W,1,8,2.0,17,M,,M,,*5F
06/10/2014	00:02:29.093	$GPGGA,000234,2551.0715,N,08002.2676,W,1,8,1.6,17,M,,M,,*53
06/10/2014	00:02:30.138	$GPGGA,000235,2551.0723,N,08002.2668,W,1,9,1.6,17,M,,M,,*59
06/10/2014	00:02:31.341	$GPGGA,000236,2551.0733,N,08002.2659,W,1,9,2.0,17,M,,M,,*5C
06/10/2014	00:02:32.280	$GPGGA,000237,2551.0741,N,08002.2651,W,1,8,2.0,17,M,,M,,*51
06/10/2014	00:02:33.467	$GPGGA,000238,2551.0748,N,08002.2646,W,1,8,2.0,17,M,,M,,*51
06/10/2014	00:02:34.588	$GPGGA,000239,2551.0755,N,08002.2641,W,1,9,1.4,17,M,,M,,*5D
06/10/2014	00:02:35.526	$GPGGA,000240,2551.0762,N,08002.2636,W,1,9,1.4,17,M,,M,,*57
06/10/2014	00:02:31.879	$GPGGA,000241,2551.0770,N,08002.2630,W,1,10,1.4,17,M,,M,,*6B
06/10/2014	00:02:33.044	$GPGGA,000242,2551.0777,N,08002.2623,W,1,10,1.4,17,M,,M,,*6D
06/10/2014	00:02:34.122	$GPGGA,000243,2551.0786,N,08002.2617,W,1,9,1.4,17,M,,M,,*5D
06/10/2014	00:02:35.201	$GPGGA,000244,2551.0794,N,08002.2611,W,1,9,1.4,17,M,,M,,*5F
06/10/2014	00:02:36.302	$GPGGA,000245,2551.0802,N,08002.2605,W,1,10,1.4,17,M,,M,,*63
06/10/2014	00:02:37.359	$GPGGA,000246,2551.0809,N,08002.2598,W,1,10,1.4,17,M,,M,,*6C
06/10/2014	00:02:38.470	$GPGGA,000247,2551.0817,N,08002.2592,W,1,10,1.4,17,M,,M,,*68
06/10/2014	00:02:39.527	$GPGGA,000248,2551.0826,N,08002.2586,W,1,10,1.4,17,M,,M,,*60
06/10/2014	00:02:40.607	$GPGGA,000249,2551.0833,N,08002.2579,W,1,10,1.4,17,M,,M,,*65
06/10/2014	00:02:41.663	$GPGGA,000250,2551.0841,N,08002.2573,W,1,10,1.4,17,M,,M,,*62
06/10/2014	00:02:42.731	$GPGGA,000251,2551.0849,N,08002.2566,W,1,10,1.4,17,M,,M,,*6F
06/10/2014	00:02:43.832	$GPGGA,000252,2551.0856,N,08002.2560,W,1,10,1.4,17,M,,M,,*64
06/10/2014	00:02:44.910	$GPGGA,000253,2551.0864,N,08002.2553,W,1,10,1.4,17,M,,M,,*64
06/10/2014	00:02:45.989	$GPGGA,000254,2551.0871,N,08002.2547,W,1,10,1.4,17,M,,M,,*62
06/10/2014	00:02:47.068	$GPGGA,000255,2551.0880,N,08002.2540,W,1,10,1.4,17,M,,M,,*6A
06/10/2014	00:02:48.137	$GPGGA,000256,2551.0888,N,08002.2534,W,1,10,1.4,17,M,,M,,*62
06/10/2014	00:02:49.215	$GPGGA,000257,2551.0896,N,08002.2527,W,1,10,1.4,17,M,,M,,*6E
06/10/2014	00:02:50.282	$GPGGA,000258,2551.0903,N,08002.2520,W,1,10,1.4,17,M,,M,,*6B
06/10/2014	00:02:51.382	$GPGGA,000259,2551.0911,N,08002.2513,W,1,10,1.4,17,M,,M,,*69
06/10/2014	00:02:52.441	$GPGGA,000300,2551.0921,N,08002.2506,W,1,10,1.4,17,M,,M,,*63
06/10/2014	00:02:53.440	$GPGGA,000301,2551.0928,N,08002.2500,W,1,10,1.4,17,M,,M,,*6D
06/10/2014	00:02:54.470	$GPGGA,000302,2551.0936,N,08002.2493,W,1,10,1.4,17,M,,M,,*6A
06/10/2014	00:02:55.531	$GPGGA,000303,2551.0943,N,08002.2486,W,1,10,1.4,17,M,,M,,*6D
06/10/2014	00:02:56.530	$GPGGA,000304,2551.0952,N,08002.2478,W,1,10,1.4,17,M,,M,,*6B
06/10/2014	00:02:57.550	$GPGGA,000305,2551.0960,N,08002.2471,W,1,10,1.4,17,M,,M,,*62
06/10/2014	00:02:58.569	$GPGGA,000306,2551.0968,N,08002.2464,W,1,10,1.4,17,M,,M,,*6D
06/10/2014	00:02:59.640	$GPGGA,000307,2551.0976,N,08002.2457,W,1,10,1.4,17,M,,M,,*63
06/10/2014	00:03:00.650	$GPGGA,000308,2551.0985,N,08002.2450,W,1,10,1.4,17,M,,M,,*67
06/10/2014	00:03:01.659	$GPGGA,000309,2551.0993,N,08002.2443,W,1,10,1.4,17,M,,M,,*63
06/10/2014	00:03:02.700	$GPGGA,000310,2551.1000,N,08002.2435,W,1,10,1.4,17,M,,M,,*68
06/10/2014	00:03:03.729	$GPGGA,000311,2551.1008,N,08002.2428,W,1,10,1.4,17,M,,M,,*6D
06/10/2014	00:03:04.759	$GPGGA,000312,2551.1017,N,08002.2420,W,1,10,1.4,17,M,,M,,*68
06/10/2014	00:03:05.779	$GPGGA,000313,2551.1025,N,08002.2413,W,1,10,1.4,17,M,,M,,*68
06/10/2014	00:03:06.809	$GPGGA,000314,2551.1033,N,08002.2406,W,1,10,1.4,17,M,,M,,*6C
06/10/2014	00:03:07.868	$GPGGA,000315,2551.1041,N,08002.2399,W,1,10,1.4,17,M,,M,,*69
06/10/2014	00:03:08.867	$GPGGA,000316,2551.1050,N,08002.2391,W,1,10,1.4,17,M,,M,,*62
06/10/2014	00:03:09.918	$GPGGA,000317,2551.1058,N,08002.2384,W,1,10,1.4,17,M,,M,,*6F
06/10/2014	00:03:10.927	$GPGGA,000318,2551.1066,N,08002.2377,W,1,10,1.4,17,M,,M,,*61
06/10/2014	00:03:11.957	$GPGGA,000319,2551.1075,N,08002.2370,W,1,10,1.4,17,M,,M,,*65
06/10/2014	00:03:12.997	$GPGGA,000320,2551.1083,N,08002.2363,W,1,10,1.4,17,M,,M,,*64
06/10/2014	00:03:13.996	$GPGGA,000321,2551.1091,N,08002.2356,W,1,10,1.4,17,M,,M,,*60
06/10/2014	00:03:15.129	$GPGGA,000322,2551.1098,N,08002.2349,W,1,10,1.4,17,M,,M,,*64
06/10/2014	00:03:16.241	$GPGGA,000323,2551.1108,N,08002.2342,W,1,10,1.4,17,M,,M,,*66
06/10/2014	00:03:17.108	$GPGGA,000324,2551.1116,N,08002.2335,W,1,10,1.4,17,M,,M,,*6E
06/10/2014	00:03:18.301	$GPGGA,000325,2551.1124,N,08002.2328,W,1,10,1.4,17,M,,M,,*62
06/10/2014	00:03:19.243	$GPGGA,000326,2551.1131,N,08002.2321,W,1,10,1.4,17,M,,M,,*6C
06/10/2014	00:03:20.365	$GPGGA,000327,2551.1140,N,08002.2314,W,1,10,1.4,17,M,,M,,*6D
06/10/2014	00:03:21.197	$GPGGA,000328,2551.1148,N,08002.2307,W,1,10,1.4,17,M,,M,,*68
06/10/2014	00:03:22.422	$GPGGA,000329,2551.1156,N,08002.2300,W,1,10,1.4,17,M,,M,,*61
06/10/2014	00:03:23.245	$GPGGA,000330,2551.1163,N,08002.2294,W,1,10,1.4,17,M,,M,,*63
06/10/2014	00:03:24.485	$GPGGA,000331,2551.1171,N,08002.2287,W,1,10,1.4,17,M,,M,,*63
06/10/2014	00:03:25.448	$GPGGA,000332,2551.1180,N,08002.2280,W,1,10,1.4,16,M,,M,,*68
06/10/2014	00:03:26.539	$GPGGA,000333,2551.1188,N,08002.2273,W,1,10,1.4,16,M,,M,,*6D
06/10/2014	00:03:27.456	$GPGGA,000334,2551.1196,N,08002.2266,W,1,10,1.4,16,M,,M,,*61
06/10/2014	00:03:28.601	$GPGGA,000335,2551.1203,N,08002.2259,W,1,10,1.4,16,M,,M,,*63
06/10/2014	00:03:29.516	$GPGGA,000336,2551.1212,N,08002.2253,W,1,10,1.4,16,M,,M,,*6A
06/10/2014	00:03:30.649	$GPGGA,000337,2551.1221,N,08002.2245,W,1,10,1.4,16,M,,M,,*6C
06/10/2014	00:03:31.597	$GPGGA,000338,2551.1228,N,08002.2239,W,1,10,1.4,16,M,,M,,*61
06/10/2014	00:03:32.708	$GPGGA,000339,2551.1236,N,08002.2232,W,1,10,1.4,16,M,,M,,*64
06/10/2014	00:03:33.635	$GPGGA,000340,2551.1245,N,08002.2225,W,1,10,1.4,16,M,,M,,*68
06/10/2014	00:03:31.932	$GPGGA,000341,2551.1253,N,08002.2218,W,1,10,1.4,16,M,,M,,*60
06/10/2014	00:03:32.993	$GPGGA,000342,2551.1261,N,08002.2211,W,1,10,1.4,16,M,,M,,*6B
06/10/2014	00:03:34.095	$GPGGA,000343,2551.1268,N,08002.2204,W,1,10,1.4,16,M,,M,,*67
06/10/2014	00:03:35.080	$GPGGA,000344,2551.1278,N,08002.2197,W,1,10,1.4,16,M,,M,,*68
06/10/2014	00:03:36.145	$GPGGA,000345,2551.1285,N,08002.2190,W,1,10,1.4,16,M,,M,,*6C
06/10/2014	00:03:37.104	$GPGGA,000346,2551.1293,N,08002.2183,W,1,10,1.4,16,M,,M,,*6A
06/10/2014	00:03:38.102	$GPGGA,000347,2551.1301,N,08002.2176,W,1,10,1.4,16,M,,M,,*6B
06/10/2014	00:03:39.177	$GPGGA,000348,2551.1310,N,08002.2169,W,1,10,1.4,16,M,,M,,*6A
06/10/2014	00:03:40.275	$GPGGA,000349,2551.1318,N,08002.2162,W,1,10,1.4,16,M,,M,,*68
06/10/2014	00:03:41.180	$GPGGA,000350,2551.1326,N,08002.2155,W,1,10,1.4,16,M,,M,,*69
06/10/2014	00:03:42.313	$GPGGA,000351,2551.1333,N,08002.2148,W,1,10,1.4,16,M,,M,,*60
06/10/2014	00:03:43.240	$GPGGA,000352,2551.1342,N,08002.2141,W,1,10,1.4,16,M,,M,,*6C
06/10/2014	00:03:44.259	$GPGGA,000353,2551.1350,N,08002.2134,W,1,10,1.4,16,M,,M,,*6C
06/10/2014	00:03:45.320	$GPGGA,000354,2551.1358,N,08002.2127,W,1,10,1.4,16,M,,M,,*61
06/10/2014	00:03:46.319	$GPGGA,000355,2551.1365,N,08002.2120,W,1,10,1.4,16,M,,M,,*69
06/10/2014	00:03:47.400	$GPGGA,000356,2551.1373,N,08002.2113,W,1,10,1.4,16,M,,M,,*6D
06/10/2014	00:03:48.492	$GPGGA,000357,2551.1380,N,08002.2106,W,1,10,1.4,16,M,,M,,*64
06/10/2014	00:03:49.440	$GPGGA,000358,2551.1389,N,08002.2098,W,1,10,1.4,16,M,,M,,*64
06/10/2014	00:03:50.428	$GPGGA,000359,2551.1397,N,08002.2091,W,1,10,1.4,16,M,,M,,*63
06/10/2014	00:03:51.520	$GPGGA,000400,2551.1405,N,08002.2084,W,1,10,1.4,16,M,,M,,*60
06/10/2014	00:03:52.488	$GPGGA,000401,2551.1413,N,08002.2077,W,1,10,1.4,16,M,,M,,*6A
06/10/2014	00:03:53.549	$GPGGA,000402,2551.1420,N,08002.2070,W,1,10,1.4,16,M,,M,,*6E
06/10/2014	00:03:54.661	$GPGGA,000403,2551.1429,N,08002.2063,W,1,10,1.4,17,M,,M,,*65
06/10/2014	00:03:55.578	$GPGGA,000404,2551.1437,N,08002.2056,W,1,10,1.4,17,M,,M,,*6B
06/10/2014	00:03:56.711	$GPGGA,000405,2551.1445,N,08002.2049,W,1,10,1.4,17,M,,M,,*61
06/10/2014	00:03:57.648	$GPGGA,000406,2551.1454,N,08002.2042,W,1,10,1.4,17,M,,M,,*69
06/10/2014	00:03:58.728	$GPGGA,000407,2551.1462,N,08002.2035,W,1,10,1.4,17,M,,M,,*6D
06/10/2014	00:03:59.820	$GPGGA,000408,2551.1470,N,08002.2028,W,1,10,1.4,17,M,,M,,*6D
06/10/2014	00:04:00.850	$GPGGA,000409,2551.1478,N,08002.2021,W,1,10,1.4,17,M,,M,,*6D
06/10/2014	00:04:01.767	$GPGGA,000410,2551.1485,N,08002.2013,W,1,10,1.4,17,M,,M,,*66
06/10/2014	00:04:02.910	$GPGGA,000411,2551.1494,N,08002.2006,W,1,10,1.4,17,M,,M,,*63
06/10/2014	00:04:03.837	$GPGGA,000412,2551.1503,N,08002.1999,W,1,10,1.4,17,M,,M,,*63
06/10/2014	00:04:04.949	$GPGGA,000413,2551.1510,N,08002.1992,W,1,10,1.4,17,M,,M,,*6B
06/10/2014	00:04:05.855	$GPGGA,000414,2551.1518,N,08002.1985,W,1,10,1.4,17,M,,M,,*62
06/10/2014	00:04:06.876	$GPGGA,000415,2551.1527,N,08002.1978,W,1,10,1.4,17,M,,M,,*6D
06/10/2014	00:04:08.018	$GPGGA,000416,2551.1534,N,08002.1972,W,1,10,1.4,17,M,,M,,*66
06/10/2014	00:04:09.057	$GPGGA,000417,2551.1541,N,08002.1965,W,1,10,1.4,17,M,,M,,*63
06/10/2014	00:04:10.006	$GPGGA,000418,2551.1549,N,08002.1958,W,1,10,1.4,17,M,,M,,*6A
06/10/2014	00:04:11.077	$GPGGA,000419,2551.1557,N,08002.1951,W,1,10,1.4,17,M,,M,,*6D
06/10/2014	00:04:12.076	$GPGGA,000420,2551.1564,N,08002.1945,W,1,10,1.4,17,M,,M,,*62
06/10/2014	00:04:13.158	$GPGGA,000421,2551.1571,N,08002.1938,W,1,10,1.4,17,M,,M,,*6D
06/10/2014	00:04:14.115	$GPGGA,000422,2551.1579,N,08002.1931,W,1,10,1.4,17,M,,M,,*6F
06/10/2014	00:04:15.214	$GPGGA,000423,2551.1588,N,08002.1924,W,1,10,1.4,17,M,,M,,*64
06/10/2014	00:04:16.247	$GPGGA,000424,2551.1595,N,08002.1917,W,1,10,1.4,17,M,,M,,*6F
06/10/2014	00:04:17.327	$GPGGA,000425,2551.1603,N,08002.1910,W,1,10,1.4,17,M,,M,,*65
06/10/2014	00:04:18.285	$GPGGA,000426,2551.1611,N,08002.1903,W,1,10,1.4,17,M,,M,,*67
06/10/2014	00:04:19.377	$GPGGA,000427,2551.1619,N,08002.1895,W,1,10,1.6,17,M,,M,,*62
06/10/2014	00:04:20.355	$GPGGA,000428,2551.1628,N,08002.1887,W,1,10,1.4,17,M,,M,,*6E
06/10/2014	00:04:21.385	$GPGGA,000429,2551.1636,N,08002.1881,W,1,10,1.4,17,M,,M,,*66
06/10/2014	00:04:22.394	$GPGGA,000430,2551.1643,N,08002.1874,W,1,10,1.4,17,M,,M,,*66
06/10/2014	00:04:23.435	$GPGGA,000431,2551.1650,N,08002.1867,W,1,10,1.4,18,M,,M,,*68
06/10/2014	00:04:24.465	$GPGGA,000432,2551.1658,N,08002.1860,W,1,10,1.4,18,M,,M,,*64
06/10/2014	00:04:25.515	$GPGGA,000433,2551.1665,N,08002.1854,W,1,10,1.4,18,M,,M,,*6C
06/10/2014	00:04:26.514	$GPGGA,000434,2551.1673,N,08002.1847,W,1,10,1.4,18,M,,M,,*6E
06/10/2014	00:04:27.565	$GPGGA,000435,2551.1682,N,08002.1839,W,1,10,1.4,18,M,,M,,*68
06/10/2014	00:04:28.584	$GPGGA,000436,2551.1690,N,08002.1832,W,1,10,1.4,18,M,,M,,*63
06/10/2014	00:04:29.625	$GPGGA,000437,2551.1698,N,08002.1826,W,1,10,1.4,18,M,,M,,*6F
06/10/2014	00:04:30.634	$GPGGA,000438,2551.1705,N,08002.1819,W,1,10,1.4,18,M,,M,,*69
06/10/2014	00:04:31.684	$GPGGA,000439,2551.1713,N,08002.1812,W,1,10,1.4,18,M,,M,,*64
06/10/2014	00:04:32.683	$GPGGA,000440,2551.1713,N,08002.1812,W,1,10,1.4,18,M,,M,,*6A
06/10/2014	00:04:31.962	$GPGGA,000441,2551.1729,N,08002.1798,W,1,10,1.4,18,M,,M,,*6F
06/10/2014	00:04:32.950	$GPGGA,000442,2551.1738,N,08002.1791,W,1,10,1.4,18,M,,M,,*65
06/10/2014	00:04:34.000	$GPGGA,000443,2551.1745,N,08002.1784,W,1,10,1.4,18,M,,M,,*6A
06/10/2014	00:04:35.021	$GPGGA,000444,2551.1752,N,08002.1777,W,1,10,1.4,18,M,,M,,*67
06/10/2014	00:04:36.072	$GPGGA,000445,2551.1760,N,08002.1770,W,1,10,1.4,18,M,,M,,*60
06/10/2014	00:04:37.059	$GPGGA,000446,2551.1769,N,08002.1763,W,1,10,1.4,18,M,,M,,*68
06/10/2014	00:04:38.120	$GPGGA,000447,2551.1777,N,08002.1756,W,1,10,1.4,18,M,,M,,*60
06/10/2014	00:04:39.109	$GPGGA,000448,2551.1785,N,08002.1748,W,1,10,1.4,18,M,,M,,*6D
06/10/2014	00:04:40.191	$GPGGA,000449,2551.1794,N,08002.1741,W,1,10,1.4,18,M,,M,,*65
06/10/2014	00:04:41.179	$GPGGA,000450,2551.1802,N,08002.1734,W,1,10,1.4,18,M,,M,,*6F
06/10/2014	00:04:42.240	$GPGGA,000451,2551.1809,N,08002.1727,W,1,10,1.4,18,M,,M,,*67
06/10/2014	00:04:43.239	$GPGGA,000452,2551.1817,N,08002.1719,W,1,10,1.4,18,M,,M,,*66
06/10/2014	00:04:44.269	$GPGGA,000453,2551.1817,N,08002.1719,W,1,10,1.4,18,M,,M,,*67
06/10/2014	00:04:45.288	$GPGGA,000454,2551.1834,N,08002.1705,W,1,10,1.4,18,M,,M,,*6C
06/10/2014	00:04:46.318	$GPGGA,000455,2551.1834,N,08002.1705,W,1,10,1.4,18,M,,M,,*6D
06/10/2014	00:04:47.338	$GPGGA,000456,2551.1850,N,08002.1691,W,1,10,1.4,18,M,,M,,*60
06/10/2014	00:04:48.501	$GPGGA,000457,2551.1857,N,08002.1684,W,1,10,1.4,18,M,,M,,*62
06/10/2014	00:04:49.408	$GPGGA,000458,2551.1857,N,08002.1684,W,1,10,1.4,18,M,,M,,*6D
06/10/2014	00:04:50.427	$GPGGA,000459,2551.1866,N,08002.1677,W,1,10,1.4,18,M,,M,,*62
06/10/2014	00:04:51.559	$GPGGA,000500,2551.1882,N,08002.1663,W,1,10,1.4,18,M,,M,,*60
06/10/2014	00:04:52.527	$GPGGA,000501,2551.1882,N,08002.1663,W,1,10,1.4,18,M,,M,,*61
06/10/2014	00:04:53.619	$GPGGA,000502,2551.1897,N,08002.1648,W,1,10,1.4,18,M,,M,,*6F
06/10/2014	00:04:54.639	$GPGGA,000503,2551.1906,N,08002.1641,W,1,10,1.4,18,M,,M,,*6E
06/10/2014	00:04:55.565	$GPGGA,000504,2551.1914,N,08002.1634,W,1,10,1.4,18,M,,M,,*68
06/10/2014	00:04:56.688	$GPGGA,000505,2551.1922,N,08002.1627,W,1,10,1.4,18,M,,M,,*6E
06/10/2014	00:04:57.615	$GPGGA,000506,2551.1929,N,08002.1620,W,1,10,1.4,18,M,,M,,*61
06/10/2014	00:04:58.655	$GPGGA,000507,2551.1929,N,08002.1620,W,1,10,1.4,18,M,,M,,*60
06/10/2014	00:04:59.685	$GPGGA,000508,2551.1939,N,08002.1613,W,1,10,1.4,18,M,,M,,*6E
06/10/2014	00:05:00.828	$GPGGA,000509,2551.1954,N,08002.1598,W,1,10,1.4,18,M,,M,,*64
06/10/2014	00:05:01.817	$GPGGA,000510,2551.1962,N,08002.1591,W,1,10,1.4,18,M,,M,,*60
06/10/2014	00:05:02.867	$GPGGA,000511,2551.1969,N,08002.1585,W,1,10,1.4,18,M,,M,,*6F
06/10/2014	00:05:03.897	$GPGGA,000512,2551.1978,N,08002.1578,W,1,10,1.4,18,M,,M,,*6E
06/10/2014	00:05:04.917	$GPGGA,000513,2551.1986,N,08002.1571,W,1,10,1.4,18,M,,M,,*67
06/10/2014	00:05:05.926	$GPGGA,000514,2551.1994,N,08002.1564,W,1,10,1.4,18,M,,M,,*67
06/10/2014	00:05:06.997	$GPGGA,000515,2551.2002,N,08002.1556,W,1,10,1.4,18,M,,M,,*62
06/10/2014	00:05:07.996	$GPGGA,000516,2551.2011,N,08002.1549,W,1,10,1.4,18,M,,M,,*6D
06/10/2014	00:05:09.056	$GPGGA,000517,2551.2011,N,08002.1549,W,1,10,1.4,18,M,,M,,*6C
06/10/2014	00:05:10.046	$GPGGA,000518,2551.2027,N,08002.1536,W,1,10,1.4,18,M,,M,,*6E
06/10/2014	00:05:11.097	$GPGGA,000519,2551.2034,N,08002.1529,W,1,10,1.4,18,M,,M,,*63
06/10/2014	00:05:12.105	$GPGGA,000520,2551.2041,N,08002.1522,W,1,10,1.4,18,M,,M,,*60
06/10/2014	00:05:13.161	$GPGGA,000521,2551.2049,N,08002.1515,W,1,10,1.4,18,M,,M,,*6D
06/10/2014	00:05:14.164	$GPGGA,000522,2551.2058,N,08002.1508,W,1,10,1.4,18,M,,M,,*62
06/10/2014	00:05:15.174	$GPGGA,000523,2551.2066,N,08002.1501,W,1,10,1.4,18,M,,M,,*67
06/10/2014	00:05:16.224	$GPGGA,000524,2551.2074,N,08002.1493,W,1,10,1.4,18,M,,M,,*69
06/10/2014	00:05:17.257	$GPGGA,000525,2551.2083,N,08002.1486,W,1,10,1.4,18,M,,M,,*64
06/10/2014	00:05:18.274	$GPGGA,000526,2551.2091,N,08002.1479,W,1,10,1.4,18,M,,M,,*64
06/10/2014	00:05:19.317	$GPGGA,000527,2551.2099,N,08002.1472,W,1,10,1.4,18,M,,M,,*66
06/10/2014	00:05:20.347	$GPGGA,000528,2551.2106,N,08002.1465,W,1,10,1.4,18,M,,M,,*68
06/10/2014	00:05:21.374	$GPGGA,000529,2551.2113,N,08002.1458,W,1,10,1.4,18,M,,M,,*63
06/10/2014	00:05:22.383	$GPGGA,000530,2551.2121,N,08002.1450,W,1,10,1.4,18,M,,M,,*62
06/10/2014	00:05:23.444	$GPGGA,000531,2551.2130,N,08002.1443,W,1,10,1.4,17,M,,M,,*6E
06/10/2014	00:05:24.453	$GPGGA,000532,2551.2138,N,08002.1436,W,1,10,1.4,17,M,,M,,*67
06/10/2014	00:05:25.463	$GPGGA,000533,2551.2146,N,08002.1429,W,1,10,1.4,17,M,,M,,*61
06/10/2014	00:05:26.492	$GPGGA,000534,2551.2153,N,08002.1421,W,1,10,1.4,17,M,,M,,*6A
06/10/2014	00:05:27.552	$GPGGA,000535,2551.2161,N,08002.1414,W,1,10,1.4,17,M,,M,,*6C
06/10/2014	00:05:28.551	$GPGGA,000536,2551.2170,N,08002.1407,W,1,10,1.4,17,M,,M,,*6D
06/10/2014	00:05:29.612	$GPGGA,000537,2551.2177,N,08002.1400,W,1,10,1.4,17,M,,M,,*6C
06/10/2014	00:05:30.590	$GPGGA,000538,2551.2185,N,08002.1393,W,1,10,1.4,17,M,,M,,*63
06/10/2014	00:05:31.641	$GPGGA,000539,2551.2193,N,08002.1386,W,1,10,1.4,17,M,,M,,*61
06/10/2014	00:05:32.672	$GPGGA,000540,2551.2202,N,08002.1379,W,1,10,1.4,17,M,,M,,*64
06/10/2014	00:05:31.928	$GPGGA,000541,2551.2210,N,08002.1371,W,1,10,1.4,17,M,,M,,*6E
06/10/2014	00:05:32.927	$GPGGA,000542,2551.2218,N,08002.1365,W,1,10,1.4,17,M,,M,,*60
06/10/2014	00:05:33.988	$GPGGA,000543,2551.2225,N,08002.1358,W,1,10,1.4,17,M,,M,,*61
06/10/2014	00:05:34.987	$GPGGA,000544,2551.2233,N,08002.1351,W,1,10,1.4,17,M,,M,,*68
06/10/2014	00:05:36.027	$GPGGA,000545,2551.2242,N,08002.1343,W,1,10,1.4,17,M,,M,,*6C
06/10/2014	00:05:37.037	$GPGGA,000546,2551.2250,N,08002.1336,W,1,10,1.4,17,M,,M,,*6E
06/10/2014	00:05:38.075	$GPGGA,000547,2551.2258,N,08002.1329,W,1,10,1.4,17,M,,M,,*69
06/10/2014	00:05:39.220	$GPGGA,000548,2551.2265,N,08002.1322,W,1,10,1.4,17,M,,M,,*63
06/10/2014	00:05:40.127	$GPGGA,000549,2551.2273,N,08002.1315,W,1,10,1.4,17,M,,M,,*61
06/10/2014	00:05:41.138	$GPGGA,000550,2551.2282,N,08002.1307,W,1,10,1.4,17,M,,M,,*64
06/10/2014	00:05:42.299	$GPGGA,000551,2551.2290,N,08002.1300,W,1,10,1.4,17,M,,M,,*61
06/10/2014	00:05:43.205	$GPGGA,000552,2551.2298,N,08002.1293,W,1,10,1.4,17,M,,M,,*61
06/10/2014	00:05:44.224	$GPGGA,000553,2551.2305,N,08002.1286,W,1,10,1.4,17,M,,M,,*61
06/10/2014	00:05:45.264	$GPGGA,000554,2551.2314,N,08002.1279,W,1,10,1.4,17,M,,M,,*66
06/10/2014	00:05:46.397	$GPGGA,000555,2551.2323,N,08002.1272,W,1,10,1.4,17,M,,M,,*68
06/10/2014	00:05:47.314	$GPGGA,000556,2551.2330,N,08002.1264,W,1,10,1.4,17,M,,M,,*6E
06/10/2014	00:05:48.437	$GPGGA,000557,2551.2337,N,08002.1257,W,1,10,1.4,17,M,,M,,*68
06/10/2014	00:05:49.466	$GPGGA,000558,2551.2345,N,08002.1250,W,1,10,1.4,17,M,,M,,*65
06/10/2014	00:05:50.400	$GPGGA,000559,2551.2354,N,08002.1243,W,1,10,1.4,17,M,,M,,*66
06/10/2014	00:05:51.547	$GPGGA,000600,2551.2362,N,08002.1236,W,1,10,1.4,17,M,,M,,*6E
06/10/2014	00:05:52.457	$GPGGA,000601,2551.2370,N,08002.1229,W,1,10,1.4,17,M,,M,,*62
06/10/2014	00:05:53.485	$GPGGA,000602,2551.2377,N,08002.1222,W,1,10,1.4,17,M,,M,,*6D
06/10/2014	00:05:54.606	$GPGGA,000603,2551.2385,N,08002.1214,W,1,10,1.4,17,M,,M,,*64
06/10/2014	00:05:55.656	$GPGGA,000604,2551.2394,N,08002.1208,W,1,10,1.4,17,M,,M,,*6E
06/10/2014	00:05:56.676	$GPGGA,000605,2551.2402,N,08002.1201,W,1,10,1.4,17,M,,M,,*6E
06/10/2014	00:05:57.695	$GPGGA,000606,2551.2410,N,08002.1194,W,1,10,1.4,17,M,,M,,*61
06/10/2014	00:05:58.756	$GPGGA,000607,2551.2417,N,08002.1186,W,1,10,1.4,17,M,,M,,*64
06/10/2014	00:05:59.760	$GPGGA,000608,2551.2426,N,08002.1179,W,1,10,1.4,17,M,,M,,*69
06/10/2014	00:06:00.795	$GPGGA,000609,2551.2434,N,08002.1172,W,1,10,1.4,17,M,,M,,*60
06/10/2014	00:06:01.804	$GPGGA,000610,2551.2442,N,08002.1164,W,1,10,1.4,17,M,,M,,*6E
06/10/2014	00:06:02.823	$GPGGA,000611,2551.2449,N,08002.1157,W,1,10,1.4,17,M,,M,,*64
06/10/2014	00:06:03.874	$GPGGA,000612,2551.2457,N,08002.1150,W,1,10,1.4,17,M,,M,,*6F
06/10/2014	00:06:04.924	$GPGGA,000613,2551.2467,N,08002.1143,W,1,10,1.4,17,M,,M,,*6F
06/10/2014	00:06:05.903	$GPGGA,000614,2551.2475,N,08002.1136,W,1,10,1.4,17,M,,M,,*69
06/10/2014	00:06:06.932	$GPGGA,000615,2551.2482,N,08002.1129,W,1,10,1.4,17,M,,M,,*6E
06/10/2014	00:06:07.983	$GPGGA,000616,2551.2492,N,08002.1122,W,1,10,1.4,17,M,,M,,*67
06/10/2014	00:06:08.992	$GPGGA,000617,2551.2500,N,08002.1114,W,1,10,1.4,17,M,,M,,*69
06/10/2014	00:06:10.022	$GPGGA,000618,2551.2506,N,08002.1108,W,1,10,1.6,17,M,,M,,*6F
06/10/2014	00:06:11.042	$GPGGA,000619,2551.2514,N,08002.1101,W,1,10,1.4,17,M,,M,,*66
06/10/2014	00:06:12.092	$GPGGA,000620,2551.2522,N,08002.1094,W,1,10,1.4,17,M,,M,,*64
06/10/2014	00:06:13.112	$GPGGA,000621,2551.2529,N,08002.1088,W,1,10,1.4,17,M,,M,,*63
06/10/2014	00:06:14.142	$GPGGA,000622,2551.2536,N,08002.1081,W,1,10,1.4,17,M,,M,,*67
06/10/2014	00:06:15.173	$GPGGA,000623,2551.2544,N,08002.1074,W,1,10,1.4,17,M,,M,,*69
06/10/2014	00:06:16.212	$GPGGA,000624,2551.2551,N,08002.1067,W,1,10,1.4,17,M,,M,,*68
06/10/2014	00:06:17.252	$GPGGA,000625,2551.2560,N,08002.1060,W,1,10,1.4,17,M,,M,,*6C
06/10/2014	00:06:18.261	$GPGGA,000626,2551.2568,N,08002.1053,W,1,10,1.4,17,M,,M,,*67
06/10/2014	00:06:19.301	$GPGGA,000627,2551.2576,N,08002.1046,W,1,9,1.6,17,M,,M,,*57
06/10/2014	00:06:20.321	$GPGGA,000628,2551.2585,N,08002.1038,W,1,9,1.4,17,M,,M,,*5F
06/10/2014	00:06:21.360	$GPGGA,000629,2551.2593,N,08002.1031,W,1,10,1.4,17,M,,M,,*68
06/10/2014	00:06:22.370	$GPGGA,000630,2551.2601,N,08002.1024,W,1,10,1.4,17,M,,M,,*6C
06/10/2014	00:06:23.400	$GPGGA,000631,2551.2608,N,08002.1017,W,1,10,1.4,17,M,,M,,*64
06/10/2014	00:06:24.429	$GPGGA,000632,2551.2616,N,08002.1010,W,1,10,1.4,17,M,,M,,*6F
06/10/2014	00:06:25.470	$GPGGA,000633,2551.2623,N,08002.1003,W,1,10,1.4,17,M,,M,,*6A
06/10/2014	00:06:26.458	$GPGGA,000634,2551.2633,N,08002.0996,W,1,10,1.4,17,M,,M,,*68
06/10/2014	00:06:27.612	$GPGGA,000635,2551.2641,N,08002.0989,W,1,10,1.4,17,M,,M,,*62
06/10/2014	00:06:28.539	$GPGGA,000636,2551.2648,N,08002.0982,W,1,10,1.4,17,M,,M,,*63
06/10/2014	00:06:29.589	$GPGGA,000637,2551.2656,N,08002.0975,W,1,10,1.4,17,M,,M,,*65
06/10/2014	00:06:30.702	$GPGGA,000638,2551.2665,N,08002.0968,W,1,10,1.4,17,M,,M,,*66
06/10/2014	00:06:31.701	$GPGGA,000639,2551.2673,N,08002.0961,W,1,10,1.4,17,M,,M,,*69
06/10/2014	00:06:32.648	$GPGGA,000640,2551.2681,N,08002.0954,W,1,10,1.4,17,M,,M,,*6C
06/10/2014	00:06:31.886	$GPGGA,000641,2551.2688,N,08002.0947,W,1,10,1.4,17,M,,M,,*66
06/10/2014	00:06:33.019	$GPGGA,000642,2551.2697,N,08002.0940,W,1,10,1.4,17,M,,M,,*6C
06/10/2014	00:06:33.946	$GPGGA,000643,2551.2705,N,08002.0933,W,1,10,1.4,17,M,,M,,*63
06/10/2014	00:06:34.976	$GPGGA,000644,2551.2713,N,08002.0926,W,1,10,1.4,17,M,,M,,*67
06/10/2014	00:06:36.081	$GPGGA,000645,2551.2721,N,08002.0919,W,1,10,1.4,17,M,,M,,*6B
06/10/2014	00:06:37.024	$GPGGA,000646,2551.2730,N,08002.0912,W,1,10,1.4,17,M,,M,,*63
06/10/2014	00:06:38.157	$GPGGA,000647,2551.2738,N,08002.0904,W,1,10,1.4,17,M,,M,,*6D
06/10/2014	00:06:39.208	$GPGGA,000648,2551.2746,N,08002.0897,W,1,10,1.4,17,M,,M,,*60
06/10/2014	00:06:40.196	$GPGGA,000649,2551.2753,N,08002.0891,W,1,10,1.4,17,M,,M,,*63
06/10/2014	00:06:41.130	$GPGGA,000650,2551.2763,N,08002.0884,W,1,10,1.4,17,M,,M,,*6C
06/10/2014	00:06:42.256	$GPGGA,000651,2551.2771,N,08002.0877,W,1,10,1.4,17,M,,M,,*62
06/10/2014	00:06:43.286	$GPGGA,000652,2551.2778,N,08002.0869,W,1,10,1.4,17,M,,M,,*67
06/10/2014	00:06:44.226	$GPGGA,000653,2551.2786,N,08002.0862,W,1,10,1.4,17,M,,M,,*6C
06/10/2014	00:06:45.335	$GPGGA,000654,2551.2795,N,08002.0855,W,1,10,1.4,17,M,,M,,*6D
06/10/2014	00:06:46.355	$GPGGA,000655,2551.2803,N,08002.0848,W,1,10,1.4,17,M,,M,,*60
06/10/2014	00:06:47.406	$GPGGA,000656,2551.2811,N,08002.0841,W,1,10,1.4,17,M,,M,,*69
06/10/2014	00:06:48.448	$GPGGA,000657,2551.2818,N,08002.0834,W,1,10,1.4,17,M,,M,,*63
06/10/2014	00:06:49.434	$GPGGA,000658,2551.2827,N,08002.0827,W,1,10,1.4,17,M,,M,,*62
06/10/2014	00:06:50.495	$GPGGA,000659,2551.2836,N,08002.0821,W,1,10,1.4,17,M,,M,,*65
06/10/2014	00:06:51.525	$GPGGA,000700,2551.2843,N,08002.0814,W,1,10,1.4,17,M,,M,,*6C
06/10/2014	00:06:52.565	$GPGGA,000701,2551.2850,N,08002.0807,W,1,10,1.4,17,M,,M,,*6D
06/10/2014	00:06:53.563	$GPGGA,000702,2551.2858,N,08002.0799,W,1,10,1.4,17,M,,M,,*6E
06/10/2014	00:06:54.607	$GPGGA,000703,2551.2868,N,08002.0793,W,1,10,1.4,17,M,,M,,*66
06/10/2014	00:06:55.623	$GPGGA,000704,2551.2876,N,08002.0786,W,1,10,1.4,17,M,,M,,*6A
06/10/2014	00:06:56.663	$GPGGA,000705,2551.2883,N,08002.0779,W,1,10,1.4,17,M,,M,,*61
06/10/2014	00:06:57.662	$GPGGA,000706,2551.2892,N,08002.0772,W,1,10,1.4,17,M,,M,,*69
06/10/2014	00:06:58.729	$GPGGA,000707,2551.2900,N,08002.0765,W,1,10,1.4,17,M,,M,,*64
06/10/2014	00:06:59.732	$GPGGA,000708,2551.2908,N,08002.0759,W,1,10,1.4,17,M,,M,,*6C
06/10/2014	00:07:00.774	$GPGGA,000709,2551.2915,N,08002.0751,W,1,10,1.4,17,M,,M,,*69
06/10/2014	00:07:01.782	$GPGGA,000710,2551.2923,N,08002.0745,W,1,10,1.4,17,M,,M,,*61
06/10/2014	00:07:02.812	$GPGGA,000711,2551.2933,N,08002.0738,W,1,10,1.4,17,M,,M,,*6B
06/10/2014	00:07:03.852	$GPGGA,000712,2551.2941,N,08002.0731,W,1,10,1.4,17,M,,M,,*64
06/10/2014	00:07:04.861	$GPGGA,000713,2551.2948,N,08002.0724,W,1,10,1.4,17,M,,M,,*68
06/10/2014	00:07:05.902	$GPGGA,000714,2551.2957,N,08002.0718,W,1,10,1.4,17,M,,M,,*6E
06/10/2014	00:07:06.931	$GPGGA,000715,2551.2965,N,08002.0710,W,1,10,1.4,17,M,,M,,*66
06/10/2014	00:07:07.961	$GPGGA,000716,2551.2973,N,08002.0703,W,1,10,1.4,17,M,,M,,*60
06/10/2014	00:07:08.971	$GPGGA,000717,2551.2981,N,08002.0696,W,1,10,1.4,17,M,,M,,*61
06/10/2014	00:07:10.011	$GPGGA,000718,2551.2988,N,08002.0689,W,1,10,1.4,17,M,,M,,*69
06/10/2014	00:07:11.072	$GPGGA,000719,2551.2997,N,08002.0682,W,1,10,1.4,17,M,,M,,*6D
06/10/2014	00:07:12.080	$GPGGA,000720,2551.3006,N,08002.0675,W,1,10,1.4,17,M,,M,,*6F
06/10/2014	00:07:13.120	$GPGGA,000721,2551.3013,N,08002.0668,W,1,10,1.4,17,M,,M,,*66
06/10/2014	00:07:14.109	$GPGGA,000722,2551.3022,N,08002.0661,W,1,10,1.4,17,M,,M,,*6E
06/10/2014	00:07:15.181	$GPGGA,000723,2551.3028,N,08002.0653,W,1,10,1.4,17,M,,M,,*64
06/10/2014	00:07:16.200	$GPGGA,000724,2551.3038,N,08002.0646,W,1,10,1.4,17,M,,M,,*66
06/10/2014	00:07:17.199	$GPGGA,000725,2551.3046,N,08002.0639,W,1,10,1.4,17,M,,M,,*66
06/10/2014	00:07:18.239	$GPGGA,000726,2551.3053,N,08002.0631,W,1,10,1.4,17,M,,M,,*69
06/10/2014	00:07:19.258	$GPGGA,000727,2551.3062,N,08002.0625,W,1,10,1.4,17,M,,M,,*6F
06/10/2014	00:07:20.288	$GPGGA,000728,2551.3070,N,08002.0617,W,1,10,1.4,17,M,,M,,*62
06/10/2014	00:07:21.483	$GPGGA,000729,2551.3077,N,08002.0610,W,1,10,1.4,17,M,,M,,*63
06/10/2014	00:07:22.358	$GPGGA,000730,2551.3085,N,08002.0603,W,1,10,1.4,17,M,,M,,*64
06/10/2014	00:07:23.502	$GPGGA,000731,2551.3092,N,08002.0595,W,1,10,1.4,17,M,,M,,*6F
06/10/2014	00:07:24.418	$GPGGA,000732,2551.3102,N,08002.0588,W,1,10,1.4,17,M,,M,,*68
06/10/2014	00:07:25.448	$GPGGA,000733,2551.3109,N,08002.0581,W,1,10,1.4,17,M,,M,,*6B
06/10/2014	00:07:26.550	$GPGGA,000734,2551.3118,N,08002.0573,W,1,10,1.4,17,M,,M,,*61
06/10/2014	00:07:27.611	$GPGGA,000735,2551.3125,N,08002.0566,W,1,10,1.4,17,M,,M,,*6A
06/10/2014	00:07:28.610	$GPGGA,000736,2551.3134,N,08002.0559,W,1,10,1.4,17,M,,M,,*65
06/10/2014	00:07:29.649	$GPGGA,000737,2551.3142,N,08002.0552,W,1,10,1.4,17,M,,M,,*6E
06/10/2014	00:07:30.576	$GPGGA,000738,2551.3150,N,08002.0544,W,1,10,1.4,17,M,,M,,*65
06/10/2014	00:07:32.121	$GPGGA,000739,2551.3158,N,08002.0537,W,1,10,1.4,17,M,,M,,*68
06/10/2014	00:07:32.739	$GPGGA,000740,2551.3167,N,08002.0529,W,1,10,1.4,17,M,,M,,*65
06/10/2014	00:07:31.966	$GPGGA,000741,2551.3175,N,08002.0522,W,1,10,1.4,17,M,,M,,*6C
06/10/2014	00:07:32.977	$GPGGA,000742,2551.3183,N,08002.0514,W,1,10,1.4,17,M,,M,,*63
06/10/2014	00:07:34.006	$GPGGA,000743,2551.3190,N,08002.0507,W,1,10,1.4,17,M,,M,,*62
06/10/2014	00:07:35.053	$GPGGA,000744,2551.3199,N,08002.0500,W,1,10,1.4,17,M,,M,,*6B
06/10/2014	00:07:36.066	$GPGGA,000745,2551.3208,N,08002.0493,W,1,10,1.4,17,M,,M,,*6A
06/10/2014	00:07:37.085	$GPGGA,000746,2551.3215,N,08002.0485,W,1,10,1.4,17,M,,M,,*62
06/10/2014	00:07:38.146	$GPGGA,000747,2551.3223,N,08002.0478,W,1,10,1.4,17,M,,M,,*64
06/10/2014	00:07:39.155	$GPGGA,000748,2551.3232,N,08002.0470,W,1,10,1.4,17,M,,M,,*63
06/10/2014	00:07:40.211	$GPGGA,000749,2551.3240,N,08002.0462,W,1,10,1.4,17,M,,M,,*64
06/10/2014	00:07:41.205	$GPGGA,000750,2551.3248,N,08002.0454,W,1,10,1.6,17,M,,M,,*63
06/10/2014	00:07:42.257	$GPGGA,000751,2551.3255,N,08002.0448,W,1,10,1.4,17,M,,M,,*61
06/10/2014	00:07:43.283	$GPGGA,000752,2551.3262,N,08002.0440,W,1,10,1.4,17,M,,M,,*6E
06/10/2014	00:07:44.285	$GPGGA,000753,2551.3272,N,08002.0433,W,1,9,1.6,17,M,,M,,*50
06/10/2014	00:07:45.314	$GPGGA,000754,2551.3280,N,08002.0425,W,1,9,1.6,17,M,,M,,*5D
06/10/2014	00:07:46.363	$GPGGA,000755,2551.3288,N,08002.0417,W,1,9,1.6,17,M,,M,,*55
06/10/2014	00:07:47.383	$GPGGA,000756,2551.3295,N,08002.0409,W,1,9,1.6,17,M,,M,,*55
06/10/2014	00:07:48.423	$GPGGA,000757,2551.3305,N,08002.0402,W,1,9,1.6,17,M,,M,,*57
06/10/2014	00:07:49.432	$GPGGA,000758,2551.3312,N,08002.0394,W,1,9,1.6,17,M,,M,,*56
06/10/2014	00:07:50.442	$GPGGA,000759,2551.3320,N,08002.0386,W,1,9,1.6,17,M,,M,,*55
06/10/2014	00:07:51.506	$GPGGA,000800,2551.3329,N,08002.0379,W,1,9,1.6,17,M,,M,,*5F
06/10/2014	00:07:52.477	$GPGGA,000801,2551.3337,N,08002.0371,W,1,9,1.6,17,M,,M,,*59
06/10/2014	00:07:53.490	$GPGGA,000802,2551.3345,N,08002.0364,W,1,9,1.6,17,M,,M,,*5B
06/10/2014	00:07:54.502	$GPGGA,000803,2551.3353,N,08002.0356,W,1,9,1.6,17,M,,M,,*5C
06/10/2014	00:07:55.535	$GPGGA,000804,2551.3360,N,08002.0349,W,1,9,1.6,17,M,,M,,*55
06/10/2014	00:07:56.517	$GPGGA,000805,2551.3369,N,08002.0341,W,1,9,1.6,17,M,,M,,*55
06/10/2014	00:07:57.550	$GPGGA,000806,2551.3376,N,08002.0334,W,1,9,1.6,17,M,,M,,*5A
06/10/2014	00:07:58.562	$GPGGA,000807,2551.3384,N,08002.0326,W,1,9,1.6,17,M,,M,,*55
06/10/2014	00:07:59.585	$GPGGA,000808,2551.3392,N,08002.0318,W,1,9,1.6,17,M,,M,,*50
06/10/2014	00:08:00.567	$GPGGA,000809,2551.3400,N,08002.0311,W,1,9,1.6,17,M,,M,,*54
06/10/2014	00:08:01.579	$GPGGA,000810,2551.3409,N,08002.0303,W,1,9,1.6,17,M,,M,,*56
06/10/2014	00:08:02.581	$GPGGA,000811,2551.3417,N,08002.0296,W,1,9,1.6,17,M,,M,,*55
06/10/2014	00:08:03.613	$GPGGA,000812,2551.3425,N,08002.0289,W,1,9,1.6,17,M,,M,,*59
06/10/2014	00:08:04.646	$GPGGA,000813,2551.3432,N,08002.0281,W,1,9,1.6,17,M,,M,,*56
06/10/2014	00:08:05.618	$GPGGA,000814,2551.3441,N,08002.0274,W,1,9,1.6,17,M,,M,,*5F
06/10/2014	00:08:06.640	$GPGGA,000815,2551.3450,N,08002.0267,W,1,9,1.6,17,M,,M,,*5C
06/10/2014	00:08:07.662	$GPGGA,000816,2551.3457,N,08002.0259,W,1,9,1.6,17,M,,M,,*55
06/10/2014	00:08:08.777	$GPGGA,000817,2551.3465,N,08002.0251,W,1,10,1.4,17,M,,M,,*67
06/10/2014	00:08:09.657	$GPGGA,000818,2551.3474,N,08002.0244,W,1,10,1.4,17,M,,M,,*6C
06/10/2014	00:08:10.710	$GPGGA,000819,2551.3482,N,08002.0237,W,1,10,1.4,17,M,,M,,*60
06/10/2014	00:08:11.692	$GPGGA,000820,2551.3490,N,08002.0229,W,1,10,1.6,17,M,,M,,*64
06/10/2014	00:08:12.826	$GPGGA,000821,2551.3497,N,08002.0222,W,1,9,1.6,17,M,,M,,*51
06/10/2014	00:08:13.707	$GPGGA,000822,2551.3504,N,08002.0216,W,1,9,1.6,17,M,,M,,*5E
06/10/2014	00:08:14.820	$GPGGA,000823,2551.3512,N,08002.0208,W,1,10,1.4,17,M,,M,,*6D
06/10/2014	00:08:15.863	$GPGGA,000824,2551.3519,N,08002.0201,W,1,10,1.4,17,M,,M,,*68
06/10/2014	00:08:16.845	$GPGGA,000825,2551.3528,N,08002.0194,W,1,10,1.4,17,M,,M,,*64
06/10/2014	00:08:17.857	$GPGGA,000826,2551.3536,N,08002.0187,W,1,10,1.4,17,M,,M,,*6A
06/10/2014	00:08:18.870	$GPGGA,000827,2551.3544,N,08002.0179,W,1,10,1.6,17,M,,M,,*6D
06/10/2014	00:08:19.771	$GPGGA,000828,2551.3551,N,08002.0173,W,1,10,1.6,17,M,,M,,*6C
06/10/2014	00:08:20.895	$GPGGA,000829,2551.3559,N,08002.0165,W,1,9,1.4,17,M,,M,,*58
06/10/2014	00:08:21.886	$GPGGA,000830,2551.3566,N,08002.0158,W,1,9,1.4,17,M,,M,,*52
06/10/2014	00:08:22.929	$GPGGA,000831,2551.3573,N,08002.0150,W,1,10,2.0,17,M,,M,,*60
06/10/2014	00:08:23.941	$GPGGA,000832,2551.3583,N,08002.0142,W,1,10,2.0,17,M,,M,,*6F
06/10/2014	00:08:24.943	$GPGGA,000833,2551.3591,N,08002.0135,W,1,8,1.4,17,M,,M,,*53
06/10/2014	00:08:25.927	$GPGGA,000834,2551.3600,N,08002.0127,W,1,8,1.4,17,M,,M,,*5C
06/10/2014	00:08:26.948	$GPGGA,000835,2551.3606,N,08002.0119,W,1,10,1.4,17,M,,M,,*6F
06/10/2014	00:08:27.960	$GPGGA,000836,2551.3616,N,08002.0110,W,1,10,1.4,17,M,,M,,*64
06/10/2014	00:08:28.983	$GPGGA,000837,2551.3624,N,08002.0104,W,1,10,1.4,17,M,,M,,*61
06/10/2014	00:08:29.975	$GPGGA,000838,2551.3633,N,08002.0097,W,1,10,1.4,17,M,,M,,*63
06/10/2014	00:08:30.997	$GPGGA,000839,2551.3641,N,08002.0090,W,1,10,1.4,17,M,,M,,*60
06/10/2014	00:08:32.003	$GPGGA,000840,2551.3649,N,08002.0082,W,1,10,1.4,17,M,,M,,*65
06/10/2014	00:08:31.941	$GPGGA,000841,2551.3656,N,08002.0075,W,1,10,1.4,17,M,,M,,*62
06/10/2014	00:08:32.939	$GPGGA,000842,2551.3665,N,08002.0068,W,1,10,1.4,17,M,,M,,*6D
06/10/2014	00:08:33.972	$GPGGA,000843,2551.3673,N,08002.0060,W,1,10,1.4,17,M,,M,,*63
06/10/2014	00:08:34.976	$GPGGA,000844,2551.3681,N,08002.0054,W,1,10,1.4,17,M,,M,,*6E
06/10/2014	00:08:35.986	$GPGGA,000845,2551.3688,N,08002.0046,W,1,10,1.4,17,M,,M,,*65
06/10/2014	00:08:36.988	$GPGGA,000846,2551.3696,N,08002.0037,W,1,10,2.0,17,M,,M,,*68
06/10/2014	00:08:38.010	$GPGGA,000847,2551.3703,N,08002.0031,W,1,8,1.6,17,M,,M,,*5E
06/10/2014	00:08:39.012	$GPGGA,000848,2551.3710,N,08002.0024,W,1,8,1.6,18,M,,M,,*58
06/10/2014	00:08:40.004	$GPGGA,000849,2551.3717,N,08002.0018,W,1,9,1.6,18,M,,M,,*50
06/10/2014	00:08:41.028	$GPGGA,000850,2551.3725,N,08002.0012,W,1,9,1.6,18,M,,M,,*53
06/10/2014	00:08:42.049	$GPGGA,000851,2551.3735,N,08002.0004,W,1,9,1.6,18,M,,M,,*54
06/10/2014	00:08:43.062	$GPGGA,000852,2551.3743,N,08001.9996,W,1,9,1.6,18,M,,M,,*5E
06/10/2014	00:08:44.103	$GPGGA,000853,2551.3752,N,08001.9987,W,1,9,1.6,18,M,,M,,*5F
06/10/2014	00:08:45.076	$GPGGA,000854,2551.3760,N,08001.9978,W,1,9,2.0,18,M,,M,,*5C
06/10/2014	00:08:46.069	$GPGGA,000855,2551.3768,N,08001.9970,W,1,8,1.6,18,M,,M,,*59
06/10/2014	00:08:47.101	$GPGGA,000856,2551.3778,N,08001.9961,W,1,8,1.6,18,M,,M,,*5B
06/10/2014	00:08:48.093	$GPGGA,000857,2551.3786,N,08001.9954,W,1,9,1.6,18,M,,M,,*5C
06/10/2014	00:08:49.106	$GPGGA,000858,2551.3793,N,08001.9945,W,1,9,1.6,18,M,,M,,*57
06/10/2014	00:08:50.138	$GPGGA,000859,2551.3804,N,08001.9936,W,1,9,2.0,18,M,,M,,*56
06/10/2014	00:08:51.151	$GPGGA,000900,2551.3810,N,08001.9931,W,1,9,1.6,18,M,,M,,*5C
06/10/2014	00:08:52.153	$GPGGA,000901,2551.3817,N,08001.9925,W,1,9,1.6,18,M,,M,,*5F
06/10/2014	00:08:53.133	$GPGGA,000902,2551.3826,N,08001.9916,W,1,9,1.6,18,M,,M,,*5E
06/10/2014	00:08:54.178	$GPGGA,000903,2551.3833,N,08001.9909,W,1,9,1.6,18,M,,M,,*55
06/10/2014	00:08:55.180	$GPGGA,000904,2551.3842,N,08001.9901,W,1,9,1.6,18,M,,M,,*5C
06/10/2014	00:08:56.222	$GPGGA,000905,2551.3850,N,08001.9892,W,1,9,2.0,18,M,,M,,*50
06/10/2014	00:08:57.194	$GPGGA,000906,2551.3855,N,08001.9887,W,1,9,1.6,18,M,,M,,*57
06/10/2014	00:08:58.237	$GPGGA,000907,2551.3865,N,08001.9879,W,1,9,1.6,18,M,,M,,*54
06/10/2014	00:08:59.219	$GPGGA,000908,2551.3875,N,08001.9870,W,1,9,1.6,18,M,,M,,*53
06/10/2014	00:09:00.241	$GPGGA,000909,2551.3883,N,08001.9861,W,1,9,1.6,18,M,,M,,*5B
06/10/2014	00:09:01.254	$GPGGA,000910,2551.3891,N,08001.9851,W,1,9,2.0,18,M,,M,,*56
06/10/2014	00:09:02.337	$GPGGA,000911,2551.3898,N,08001.9845,W,1,8,1.6,19,M,,M,,*5E
06/10/2014	00:09:03.268	$GPGGA,000912,2551.3905,N,08001.9837,W,1,8,1.6,19,M,,M,,*5D
06/10/2014	00:09:04.271	$GPGGA,000913,2551.3913,N,08001.9829,W,1,9,1.6,19,M,,M,,*55
06/10/2014	00:09:05.263	$GPGGA,000914,2551.3920,N,08001.9821,W,1,9,1.6,19,M,,M,,*5A
06/10/2014	00:09:06.305	$GPGGA,000915,2551.3930,N,08001.9813,W,1,9,1.6,19,M,,M,,*5B
06/10/2014	00:09:07.308	$GPGGA,000916,2551.3938,N,08001.9805,W,1,9,1.6,19,M,,M,,*57
06/10/2014	00:09:08.300	$GPGGA,000917,2551.3947,N,08001.9795,W,1,9,2.0,19,M,,M,,*5D
06/10/2014	00:09:09.333	$GPGGA,000918,2551.3956,N,08001.9786,W,1,9,2.0,19,M,,M,,*50
06/10/2014	00:09:10.416	$GPGGA,000919,2551.3965,N,08001.9777,W,1,8,2.0,19,M,,M,,*5E
06/10/2014	00:09:11.459	$GPGGA,000920,2551.3973,N,08001.9769,W,1,8,1.6,19,M,,M,,*59
06/10/2014	00:09:12.360	$GPGGA,000921,2551.3981,N,08001.9760,W,1,9,1.6,19,M,,M,,*5D
06/10/2014	00:09:13.371	$GPGGA,000922,2551.3988,N,08001.9752,W,1,9,1.6,19,M,,M,,*56
06/10/2014	00:09:14.383	$GPGGA,000923,2551.3998,N,08001.9742,W,1,9,2.0,19,M,,M,,*52
06/10/2014	00:09:15.497	$GPGGA,000924,2551.4006,N,08001.9736,W,1,9,1.6,19,M,,M,,*5A
06/10/2014	00:09:16.520	$GPGGA,000925,2551.4014,N,08001.9726,W,1,9,2.0,19,M,,M,,*5C
06/10/2014	00:09:17.495	$GPGGA,000926,2551.4024,N,08001.9716,W,1,9,2.0,19,M,,M,,*5F
06/10/2014	00:09:18.519	$GPGGA,000927,2551.4034,N,08001.9705,W,1,8,2.0,19,M,,M,,*5C
06/10/2014	00:09:19.537	$GPGGA,000928,2551.4043,N,08001.9695,W,1,8,1.6,19,M,,M,,*5E
06/10/2014	00:09:20.519	$GPGGA,000929,2551.4050,N,08001.9685,W,1,9,2.0,19,M,,M,,*58
06/10/2014	00:09:21.550	$GPGGA,000930,2551.4060,N,08001.9675,W,1,9,2.0,19,M,,M,,*5C
06/10/2014	00:09:22.584	$GPGGA,000931,2551.4068,N,08001.9666,W,1,8,2.0,19,M,,M,,*56
06/10/2014	00:09:23.576	$GPGGA,000932,2551.4077,N,08001.9658,W,1,8,2.0,19,M,,M,,*56
06/10/2014	00:09:24.558	$GPGGA,000933,2551.4086,N,08001.9649,W,1,9,1.6,19,M,,M,,*5D
06/10/2014	00:09:25.581	$GPGGA,000934,2551.4095,N,08001.9639,W,1,9,2.0,19,M,,M,,*5A
06/10/2014	00:09:26.613	$GPGGA,000935,2551.4104,N,08001.9629,W,1,8,1.9,19,M,,M,,*58
06/10/2014	00:09:27.617	$GPGGA,000936,2551.4110,N,08001.9624,W,1,8,1.9,19,M,,M,,*53
06/10/2014	00:09:28.598	$GPGGA,000937,2551.4118,N,08001.9614,W,1,9,1.6,19,M,,M,,*57
06/10/2014	00:09:29.621	$GPGGA,000938,2551.4126,N,08001.9604,W,1,9,1.9,19,M,,M,,*5B
06/10/2014	00:09:30.621	$GPGGA,000939,2551.4133,N,08001.9598,W,1,8,1.9,19,M,,M,,*59
06/10/2014	00:09:31.654	$GPGGA,000940,2551.4142,N,08001.9589,W,1,8,1.6,19,M,,M,,*5E
06/10/2014	00:09:31.903	$GPGGA,000941,2551.4150,N,08001.9579,W,1,9,1.6,19,M,,M,,*52
06/10/2014	00:09:32.905	$GPGGA,000942,2551.4158,N,08001.9571,W,1,9,1.9,19,M,,M,,*5E
06/10/2014	00:09:33.958	$GPGGA,000943,2551.4165,N,08001.9563,W,1,9,1.6,19,M,,M,,*5D
06/10/2014	00:09:34.950	$GPGGA,000944,2551.4175,N,08001.9553,W,1,9,1.6,19,M,,M,,*58
06/10/2014	00:09:35.953	$GPGGA,000945,2551.4183,N,08001.9543,W,1,9,1.6,19,M,,M,,*51
06/10/2014	00:09:36.965	$GPGGA,000946,2551.4191,N,08001.9533,W,1,9,1.9,19,M,,M,,*59
06/10/2014	00:09:37.957	$GPGGA,000947,2551.4201,N,08001.9524,W,1,9,1.6,19,M,,M,,*5B
06/10/2014	00:09:39.000	$GPGGA,000948,2551.4209,N,08001.9515,W,1,9,1.6,19,M,,M,,*5E
06/10/2014	00:09:39.992	$GPGGA,000949,2551.4216,N,08001.9505,W,1,9,1.6,19,M,,M,,*50
06/10/2014	00:09:41.015	$GPGGA,000950,2551.4227,N,08001.9495,W,1,9,1.6,19,M,,M,,*52
06/10/2014	00:09:42.037	$GPGGA,000951,2551.4234,N,08001.9485,W,1,8,1.9,19,M,,M,,*5E
06/10/2014	00:09:43.040	$GPGGA,000952,2551.4242,N,08001.9477,W,1,8,1.6,19,M,,M,,*5E
06/10/2014	00:09:44.062	$GPGGA,000953,2551.4251,N,08001.9468,W,1,9,1.6,19,M,,M,,*52
06/10/2014	00:09:45.034	$GPGGA,000954,2551.4259,N,08001.9458,W,1,9,1.6,19,M,,M,,*5E
06/10/2014	00:09:46.056	$GPGGA,000955,2551.4269,N,08001.9448,W,1,8,1.9,19,M,,M,,*53
06/10/2014	00:09:47.079	$GPGGA,000956,2551.4278,N,08001.9438,W,1,8,1.9,19,M,,M,,*57
06/10/2014	00:09:48.071	$GPGGA,000957,2551.4288,N,08001.9428,W,1,8,1.9,19,M,,M,,*58
06/10/2014	00:09:49.093	$GPGGA,000958,2551.4296,N,08001.9417,W,1,8,1.9,19,M,,M,,*54
06/10/2014	00:09:50.206	$GPGGA,000959,2551.4305,N,08001.9408,W,1,9,1.6,19,M,,M,,*5E
06/10/2014	00:09:51.239	$GPGGA,001000,2551.4313,N,08001.9400,W,1,9,1.6,19,M,,M,,*55
06/10/2014	00:09:52.130	$GPGGA,001001,2551.4321,N,08001.9390,W,1,9,1.6,19,M,,M,,*5B
06/10/2014	00:09:53.126	$GPGGA,001002,2551.4331,N,08001.9380,W,1,9,1.9,19,M,,M,,*57
06/10/2014	00:09:54.246	$GPGGA,001003,2551.4341,N,08001.9369,W,1,8,1.9,19,M,,M,,*57
06/10/2014	00:09:55.168	$GPGGA,001004,2551.4349,N,08001.9359,W,1,8,1.6,19,M,,M,,*54
06/10/2014	00:09:56.169	$GPGGA,001005,2551.4357,N,08001.9349,W,1,8,1.9,19,M,,M,,*54
06/10/2014	00:09:57.182	$GPGGA,001006,2551.4367,N,08001.9338,W,1,8,1.9,19,M,,M,,*52
06/10/2014	00:09:58.194	$GPGGA,001007,2551.4375,N,08001.9328,W,1,9,1.6,19,M,,M,,*5F
06/10/2014	00:09:59.207	$GPGGA,001008,2551.4382,N,08001.9322,W,1,9,1.9,19,M,,M,,*5D
06/10/2014	00:10:00.330	$GPGGA,001009,2551.4389,N,08001.9316,W,1,9,1.6,19,M,,M,,*5F
06/10/2014	00:10:01.231	$GPGGA,001010,2551.4397,N,08001.9305,W,1,9,1.6,19,M,,M,,*5A
06/10/2014	00:10:02.355	$GPGGA,001011,2551.4407,N,08001.9294,W,1,8,1.9,19,M,,M,,*52
06/10/2014	00:10:03.247	$GPGGA,001012,2551.4415,N,08001.9283,W,1,8,1.9,19,M,,M,,*54
06/10/2014	00:10:04.339	$GPGGA,001013,2551.4425,N,08001.9273,W,1,8,1.9,19,M,,M,,*59
06/10/2014	00:10:05.351	$GPGGA,001014,2551.4433,N,08001.9262,W,1,8,1.9,19,M,,M,,*59
06/10/2014	00:10:06.360	$GPGGA,001015,2551.4443,N,08001.9251,W,1,8,1.9,19,M,,M,,*5F
06/10/2014	00:10:07.377	$GPGGA,001016,2551.4451,N,08001.9243,W,1,8,1.9,19,M,,M,,*5C
06/10/2014	00:10:08.398	$GPGGA,001017,2551.4460,N,08001.9233,W,1,9,1.6,19,M,,M,,*56
06/10/2014	00:10:09.391	$GPGGA,001018,2551.4468,N,08001.9222,W,1,9,1.9,19,M,,M,,*5E
06/10/2014	00:10:10.403	$GPGGA,001019,2551.4476,N,08001.9212,W,1,8,1.9,19,M,,M,,*52
06/10/2014	00:10:11.427	$GPGGA,001020,2551.4486,N,08001.9202,W,1,8,1.9,19,M,,M,,*56
06/10/2014	00:10:12.427	$GPGGA,001021,2551.4496,N,08001.9190,W,1,8,1.9,19,M,,M,,*5E
06/10/2014	00:10:13.442	$GPGGA,001022,2551.4504,N,08001.9180,W,1,8,1.6,19,M,,M,,*59
06/10/2014	00:10:14.463	$GPGGA,001023,2551.4511,N,08001.9173,W,1,8,1.9,18,M,,M,,*5E
06/10/2014	00:10:15.475	$GPGGA,001024,2551.4520,N,08001.9163,W,1,8,1.6,18,M,,M,,*55
06/10/2014	00:10:16.488	$GPGGA,001025,2551.4527,N,08001.9152,W,1,8,1.9,18,M,,M,,*5E
06/10/2014	00:10:17.460	$GPGGA,001026,2551.4536,N,08001.9142,W,1,8,1.9,18,M,,M,,*5C
06/10/2014	00:10:18.502	$GPGGA,001027,2551.4544,N,08001.9134,W,1,9,1.6,18,M,,M,,*57
06/10/2014	00:10:19.504	$GPGGA,001028,2551.4552,N,08001.9123,W,1,9,1.6,18,M,,M,,*59
06/10/2014	00:10:20.517	$GPGGA,001029,2551.4561,N,08001.9113,W,1,8,1.9,18,M,,M,,*55
06/10/2014	00:10:21.519	$GPGGA,001030,2551.4570,N,08001.9102,W,1,8,1.9,18,M,,M,,*5D
06/10/2014	00:10:22.564	$GPGGA,001031,2551.4579,N,08001.9092,W,1,8,1.9,18,M,,M,,*5D
06/10/2014	00:10:23.543	$GPGGA,001032,2551.4588,N,08001.9082,W,1,8,1.9,18,M,,M,,*51
06/10/2014	00:10:24.565	$GPGGA,001033,2551.4596,N,08001.9072,W,1,8,1.9,18,M,,M,,*50
06/10/2014	00:10:25.557	$GPGGA,001034,2551.4603,N,08001.9065,W,1,8,1.9,18,M,,M,,*5E
06/10/2014	00:10:26.560	$GPGGA,001035,2551.4609,N,08001.9059,W,1,9,1.6,17,M,,M,,*5B
06/10/2014	00:10:27.582	$GPGGA,001036,2551.4614,N,08001.9052,W,1,9,1.6,17,M,,M,,*5F
06/10/2014	00:10:28.615	$GPGGA,001037,2551.4624,N,08001.9041,W,1,9,1.6,17,M,,M,,*5F
06/10/2014	00:10:29.597	$GPGGA,001038,2551.4631,N,08001.9036,W,1,9,1.9,17,M,,M,,*5B
06/10/2014	00:10:30.640	$GPGGA,001039,2551.4639,N,08001.9027,W,1,9,1.6,17,M,,M,,*5D
06/10/2014	00:10:31.633	$GPGGA,001040,2551.4646,N,08001.9019,W,1,9,1.6,17,M,,M,,*56
06/10/2014	00:10:33.289	$GPGGA,001042,2551.4664,N,08001.8999,W,1,9,1.6,18,M,,M,,*5B
06/10/2014	00:10:33.937	$GPGGA,001043,2551.4673,N,08001.8988,W,1,9,1.6,18,M,,M,,*5C
06/10/2014	00:10:34.939	$GPGGA,001044,2551.4682,N,08001.8978,W,1,9,1.9,18,M,,M,,*55
06/10/2014	00:10:35.921	$GPGGA,001045,2551.4692,N,08001.8967,W,1,9,1.6,18,M,,M,,*54
06/10/2014	00:10:37.055	$GPGGA,001046,2551.4700,N,08001.8958,W,1,9,1.9,18,M,,M,,*5E
06/10/2014	00:10:37.946	$GPGGA,001047,2551.4707,N,08001.8950,W,1,9,1.6,18,M,,M,,*5F
06/10/2014	00:10:39.090	$GPGGA,001048,2551.4718,N,08001.8938,W,1,9,1.6,18,M,,M,,*50
06/10/2014	00:10:39.970	$GPGGA,001049,2551.4726,N,08001.8927,W,1,8,1.9,18,M,,M,,*5C
06/10/2014	00:10:40.992	$GPGGA,001050,2551.4736,N,08001.8915,W,1,8,1.9,18,M,,M,,*54
06/10/2014	00:10:42.005	$GPGGA,001051,2551.4743,N,08001.8906,W,1,8,1.9,17,M,,M,,*5A
06/10/2014	00:10:43.018	$GPGGA,001052,2551.4754,N,08001.8896,W,1,8,1.6,17,M,,M,,*58
06/10/2014	00:10:44.131	$GPGGA,001053,2551.4762,N,08001.8884,W,1,8,1.9,17,M,,M,,*50
06/10/2014	00:10:45.010	$GPGGA,001054,2551.4772,N,08001.8874,W,1,8,1.9,17,M,,M,,*59
06/10/2014	00:10:46.054	$GPGGA,001055,2551.4779,N,08001.8866,W,1,8,1.9,17,M,,M,,*50
06/10/2014	00:10:47.058	$GPGGA,001056,2551.4789,N,08001.8856,W,1,8,1.6,17,M,,M,,*50
06/10/2014	00:10:48.170	$GPGGA,001057,2551.4798,N,08001.8845,W,1,8,1.9,17,M,,M,,*5C
06/10/2014	00:10:49.083	$GPGGA,001058,2551.4805,N,08001.8836,W,1,8,1.9,17,M,,M,,*5C
06/10/2014	00:10:50.195	$GPGGA,001059,2551.4814,N,08001.8828,W,1,9,1.6,17,M,,M,,*5C
06/10/2014	00:10:51.116	$GPGGA,001100,2551.4823,N,08001.8817,W,1,9,1.6,17,M,,M,,*59
06/10/2014	00:10:52.190	$GPGGA,001101,2551.4832,N,08001.8806,W,1,8,1.9,17,M,,M,,*56
06/10/2014	00:10:53.202	$GPGGA,001102,2551.4841,N,08001.8795,W,1,8,1.9,17,M,,M,,*54
06/10/2014	00:10:54.131	$GPGGA,001103,2551.4851,N,08001.8784,W,1,8,1.9,17,M,,M,,*54
06/10/2014	00:10:55.257	$GPGGA,001104,2551.4858,N,08001.8776,W,1,8,1.9,17,M,,M,,*57
06/10/2014	00:10:56.249	$GPGGA,001105,2551.4866,N,08001.8765,W,1,9,1.6,17,M,,M,,*57
06/10/2014	00:10:57.150	$GPGGA,001106,2551.4876,N,08001.8754,W,1,9,1.9,17,M,,M,,*58
06/10/2014	00:10:58.283	$GPGGA,001107,2551.4881,N,08001.8751,W,1,8,1.9,17,M,,M,,*55
06/10/2014	00:10:59.275	$GPGGA,001108,2551.4888,N,08001.8743,W,1,8,1.6,17,M,,M,,*5F
06/10/2014	00:11:00.298	$GPGGA,001109,2551.4898,N,08001.8731,W,1,9,1.6,17,M,,M,,*5B
06/10/2014	00:11:01.280	$GPGGA,001110,2551.4908,N,08001.8720,W,1,9,1.9,17,M,,M,,*54
06/10/2014	00:11:02.323	$GPGGA,001111,2551.4917,N,08001.8710,W,1,8,1.9,17,M,,M,,*59
06/10/2014	00:11:03.325	$GPGGA,001112,2551.4924,N,08001.8703,W,1,8,1.6,17,M,,M,,*57
06/10/2014	00:11:04.337	$GPGGA,001113,2551.4932,N,08001.8694,W,1,9,1.6,17,M,,M,,*5F
06/10/2014	00:11:05.319	$GPGGA,001114,2551.4939,N,08001.8686,W,1,9,1.6,17,M,,M,,*50
06/10/2014	00:11:06.362	$GPGGA,001115,2551.4949,N,08001.8674,W,1,9,1.6,17,M,,M,,*5B
06/10/2014	00:11:07.364	$GPGGA,001116,2551.4959,N,08001.8664,W,1,9,1.9,17,M,,M,,*57
06/10/2014	00:11:08.367	$GPGGA,001117,2551.4964,N,08001.8658,W,1,9,1.6,17,M,,M,,*58
06/10/2014	00:11:09.369	$GPGGA,001118,2551.4973,N,08001.8648,W,1,9,1.6,17,M,,M,,*50
06/10/2014	00:11:10.402	$GPGGA,001119,2551.4982,N,08001.8638,W,1,9,1.6,17,M,,M,,*58
06/10/2014	00:11:11.415	$GPGGA,001120,2551.4993,N,08001.8627,W,1,9,1.6,17,M,,M,,*5C
06/10/2014	00:11:12.417	$GPGGA,001121,2551.5000,N,08001.8619,W,1,8,1.9,17,M,,M,,*5C
06/10/2014	00:11:13.398	$GPGGA,001122,2551.5007,N,08001.8610,W,1,8,1.6,17,M,,M,,*5E
06/10/2014	00:11:14.421	$GPGGA,001123,2551.5018,N,08001.8600,W,1,9,1.6,17,M,,M,,*51
06/10/2014	00:11:15.442	$GPGGA,001124,2551.5024,N,08001.8593,W,1,9,1.9,17,M,,M,,*5F
06/10/2014	00:11:16.435	$GPGGA,001125,2551.5032,N,08001.8584,W,1,9,1.6,17,M,,M,,*50
06/10/2014	00:11:17.467	$GPGGA,001126,2551.5042,N,08001.8574,W,1,9,1.6,17,M,,M,,*5B
06/10/2014	00:11:18.492	$GPGGA,001127,2551.5049,N,08001.8566,W,1,8,1.9,17,M,,M,,*5C
06/10/2014	00:11:19.492	$GPGGA,001128,2551.5057,N,08001.8556,W,1,8,1.6,17,M,,M,,*50
06/10/2014	00:11:20.484	$GPGGA,001129,2551.5065,N,08001.8547,W,1,9,1.6,17,M,,M,,*51
06/10/2014	00:11:21.507	$GPGGA,001130,2551.5075,N,08001.8537,W,1,9,1.6,17,M,,M,,*5F
06/10/2014	00:11:22.499	$GPGGA,001131,2551.5083,N,08001.8527,W,1,9,1.6,17,M,,M,,*56
06/10/2014	00:11:23.542	$GPGGA,001132,2551.5092,N,08001.8517,W,1,9,1.6,17,M,,M,,*56
06/10/2014	00:11:24.554	$GPGGA,001133,2551.5101,N,08001.8508,W,1,9,1.6,17,M,,M,,*52
06/10/2014	00:11:25.536	$GPGGA,001134,2551.5109,N,08001.8497,W,1,9,1.6,17,M,,M,,*5A
06/10/2014	00:11:26.559	$GPGGA,001135,2551.5118,N,08001.8487,W,1,8,1.9,17,M,,M,,*54
06/10/2014	00:11:27.581	$GPGGA,001136,2551.5126,N,08001.8477,W,1,8,1.6,17,M,,M,,*5A
06/10/2014	00:11:28.563	$GPGGA,001137,2551.5136,N,08001.8467,W,1,9,1.6,17,M,,M,,*5A
06/10/2014	00:11:29.743	$GPGGA,001138,2551.5144,N,08001.8458,W,1,9,1.6,17,M,,M,,*5C
06/10/2014	00:11:30.740	$GPGGA,001139,2551.5152,N,08001.8448,W,1,9,1.6,18,M,,M,,*54
06/10/2014	00:11:31.610	$GPGGA,001140,2551.5161,N,08001.8439,W,1,9,1.6,18,M,,M,,*5C
06/10/2014	00:11:31.882	$GPGGA,001141,2551.5170,N,08001.8428,W,1,9,1.6,18,M,,M,,*5D
06/10/2014	00:11:32.872	$GPGGA,001142,2551.5177,N,08001.8420,W,1,9,1.9,18,M,,M,,*5E
06/10/2014	00:11:33.905	$GPGGA,001143,2551.5186,N,08001.8411,W,1,9,1.6,18,M,,M,,*5C
06/10/2014	00:11:35.087	$GPGGA,001144,2551.5195,N,08001.8401,W,1,9,1.6,18,M,,M,,*58
06/10/2014	00:11:35.929	$GPGGA,001145,2551.5202,N,08001.8392,W,1,9,1.6,18,M,,M,,*59
06/10/2014	00:11:36.911	$GPGGA,001146,2551.5213,N,08001.8381,W,1,9,1.6,18,M,,M,,*58
06/10/2014	00:11:37.924	$GPGGA,001147,2551.5220,N,08001.8373,W,1,8,1.9,18,M,,M,,*5A
06/10/2014	00:11:39.051	$GPGGA,001148,2551.5228,N,08001.8364,W,1,8,1.6,18,M,,M,,*54
06/10/2014	00:11:40.068	$GPGGA,001149,2551.5238,N,08001.8355,W,1,9,1.6,18,M,,M,,*57
06/10/2014	00:11:41.062	$GPGGA,001150,2551.5246,N,08001.8344,W,1,9,1.6,18,M,,M,,*56
06/10/2014	00:11:42.072	$GPGGA,001151,2551.5253,N,08001.8334,W,1,9,1.6,18,M,,M,,*54
