Software Version Number: 1	Data File Format Number: 1	Build Version Number: 1	Error Count Since VI Started: 0	Manufacturer: Raytheon	 Model Number: RayMarine 120	 S/N: 	 Cal Date: 	 Wind Direction Offset: 0.00	 Slope (M)1: 0.00	 Offset (B)1: 0.00	 Slope (M)2: 0.00	 Offset (B)2: 0.00	 Slope (M)3: 0.00	 Offset (B)3: 0.00	 Slope (M)4: 0.00	 Offset (B)4: 0.00	 Slope (M)5: 0.00	 Offset (B)5: 0.00	 Slope (M)6: 0.00	 Offset (B)6: 0.00
Computer Date	Computer Time	GGA String
06/06/2014	09:00:00.563	$GPGGA,090001,2441.1095,N,08107.5496,W,1,8,1.9,19,M,,M,,*5E
06/06/2014	09:00:01.600	$GPGGA,090002,2441.1095,N,08107.5498,W,1,8,1.9,19,M,,M,,*53
06/06/2014	09:00:02.696	$GPGGA,090003,2441.1097,N,08107.5499,W,1,8,1.9,19,M,,M,,*51
06/06/2014	09:00:03.582	$GPGGA,090004,2441.1098,N,08107.5498,W,1,8,2.2,19,M,,M,,*50
06/06/2014	09:00:04.699	$GPGGA,090005,2441.1095,N,08107.5499,W,1,7,2.2,19,M,,M,,*52
06/06/2014	09:00:05.685	$GPGGA,090006,2441.1095,N,08107.5502,W,1,7,1.9,19,M,,M,,*5A
06/06/2014	09:00:06.681	$GPGGA,090007,2441.1097,N,08107.5499,W,1,7,2.3,19,M,,M,,*53
06/06/2014	09:00:07.697	$GPGGA,090008,2441.1098,N,08107.5498,W,1,7,2.2,19,M,,M,,*53
06/06/2014	09:00:08.683	$GPGGA,090009,2441.1100,N,08107.5499,W,1,8,1.9,19,M,,M,,*54
06/06/2014	09:00:09.700	$GPGGA,090010,2441.1101,N,08107.5499,W,1,8,1.9,19,M,,M,,*5D
06/06/2014	09:00:10.706	$GPGGA,090011,2441.1100,N,08107.5499,W,1,8,1.9,19,M,,M,,*5D
06/06/2014	09:00:11.712	$GPGGA,090012,2441.1102,N,08107.5500,W,1,8,1.9,19,M,,M,,*5D
06/06/2014	09:00:12.738	$GPGGA,090013,2441.1102,N,08107.5500,W,1,8,1.9,19,M,,M,,*5C
06/06/2014	09:00:13.704	$GPGGA,090014,2441.1104,N,08107.5500,W,1,8,1.9,19,M,,M,,*5D
06/06/2014	09:00:14.740	$GPGGA,090015,2441.1105,N,08107.5500,W,1,8,1.9,19,M,,M,,*5D
06/06/2014	09:00:15.737	$GPGGA,090016,2441.1105,N,08107.5502,W,1,8,1.9,19,M,,M,,*5C
06/06/2014	09:00:16.753	$GPGGA,090017,2441.1105,N,08107.5501,W,1,8,1.9,19,M,,M,,*5E
06/06/2014	09:00:19.118	$GPGGA,090019,2441.1107,N,08107.5503,W,1,7,2.2,18,M,,M,,*56
06/06/2014	09:00:19.752	$GPGGA,090020,2441.1108,N,08107.5503,W,1,7,2.3,18,M,,M,,*52
06/06/2014	09:00:20.768	$GPGGA,090021,2441.1107,N,08107.5504,W,1,8,1.9,18,M,,M,,*5D
06/06/2014	09:00:21.754	$GPGGA,090022,2441.1108,N,08107.5503,W,1,8,1.9,18,M,,M,,*56
06/06/2014	09:00:22.740	$GPGGA,090023,2441.1109,N,08107.5503,W,1,8,1.9,18,M,,M,,*56
06/06/2014	09:00:23.767	$GPGGA,090024,2441.1109,N,08107.5503,W,1,8,1.9,18,M,,M,,*51
06/06/2014	09:00:24.773	$GPGGA,090025,2441.1109,N,08107.5503,W,1,8,1.9,18,M,,M,,*50
06/06/2014	09:00:25.759	$GPGGA,090026,2441.1109,N,08107.5503,W,1,8,1.9,18,M,,M,,*53
06/06/2014	09:00:26.796	$GPGGA,090027,2441.1109,N,08107.5503,W,1,8,1.9,18,M,,M,,*52
06/06/2014	09:00:27.792	$GPGGA,090028,2441.1109,N,08107.5503,W,1,8,1.9,18,M,,M,,*5D
06/06/2014	09:00:28.778	$GPGGA,090029,2441.1109,N,08107.5502,W,1,8,1.9,18,M,,M,,*5D
06/06/2014	09:00:29.794	$GPGGA,090030,2441.1107,N,08107.5502,W,1,8,1.9,18,M,,M,,*5B
06/06/2014	09:00:30.780	$GPGGA,090031,2441.1109,N,08107.5502,W,1,8,1.9,18,M,,M,,*54
06/06/2014	09:00:31.816	$GPGGA,090032,2441.1109,N,08107.5501,W,1,8,2.2,18,M,,M,,*5C
06/06/2014	09:00:32.792	$GPGGA,090033,2441.1109,N,08107.5502,W,1,7,2.2,17,M,,M,,*5E
06/06/2014	09:00:33.799	$GPGGA,090034,2441.1111,N,08107.5501,W,1,7,2.2,17,M,,M,,*53
06/06/2014	09:00:34.835	$GPGGA,090035,2441.1110,N,08107.5502,W,1,8,1.9,17,M,,M,,*57
06/06/2014	09:00:35.445	$GPGGA,090036,2441.1111,N,08107.5500,W,1,8,1.9,17,M,,M,,*57
06/06/2014	09:00:36.442	$GPGGA,090037,2441.1110,N,08107.5499,W,1,8,1.9,17,M,,M,,*56
06/06/2014	09:00:37.438	$GPGGA,090038,2441.1112,N,08107.5498,W,1,8,1.9,17,M,,M,,*5A
06/06/2014	09:00:38.565	$GPGGA,090039,2441.1111,N,08107.5497,W,1,8,1.9,17,M,,M,,*57
06/06/2014	09:00:39.571	$GPGGA,090040,2441.1113,N,08107.5496,W,1,8,1.9,17,M,,M,,*5A
06/06/2014	09:00:40.467	$GPGGA,090041,2441.1113,N,08107.5494,W,1,8,1.9,17,M,,M,,*59
06/06/2014	09:00:41.564	$GPGGA,090042,2441.1115,N,08107.5492,W,1,8,1.9,17,M,,M,,*5A
06/06/2014	09:00:42.469	$GPGGA,090043,2441.1116,N,08107.5492,W,1,8,1.9,17,M,,M,,*58
06/06/2014	09:00:43.586	$GPGGA,090044,2441.1115,N,08107.5490,W,1,8,1.9,17,M,,M,,*5E
06/06/2014	09:00:44.472	$GPGGA,090045,2441.1116,N,08107.5489,W,1,8,1.9,17,M,,M,,*54
06/06/2014	09:00:45.569	$GPGGA,090046,2441.1116,N,08107.5488,W,1,8,2.2,17,M,,M,,*5E
06/06/2014	09:00:46.473	$GPGGA,090047,2441.1115,N,08107.5487,W,1,8,1.9,17,M,,M,,*5B
06/06/2014	09:00:47.590	$GPGGA,090048,2441.1114,N,08107.5485,W,1,8,1.9,17,M,,M,,*57
06/06/2014	09:00:48.597	$GPGGA,090049,2441.1115,N,08107.5484,W,1,8,1.9,17,M,,M,,*56
06/06/2014	09:00:49.482	$GPGGA,090050,2441.1116,N,08107.5483,W,1,8,1.9,17,M,,M,,*5A
06/06/2014	09:00:50.609	$GPGGA,090051,2441.1115,N,08107.5482,W,1,8,1.9,17,M,,M,,*59
06/06/2014	09:00:51.606	$GPGGA,090052,2441.1116,N,08107.5481,W,1,8,1.9,17,M,,M,,*5A
06/06/2014	09:00:52.602	$GPGGA,090053,2441.1116,N,08107.5480,W,1,8,1.9,17,M,,M,,*5A
06/06/2014	09:00:53.598	$GPGGA,090054,2441.1117,N,08107.5479,W,1,8,1.9,17,M,,M,,*5A
06/06/2014	09:00:54.604	$GPGGA,090055,2441.1120,N,08107.5480,W,1,8,1.9,17,M,,M,,*59
06/06/2014	09:00:55.621	$GPGGA,090056,2441.1120,N,08107.5479,W,1,8,1.9,17,M,,M,,*5C
06/06/2014	09:00:56.607	$GPGGA,090057,2441.1120,N,08107.5480,W,1,7,2.3,17,M,,M,,*5D
06/06/2014	09:00:57.613	$GPGGA,090058,2441.1122,N,08107.5479,W,1,7,2.3,18,M,,M,,*59
06/06/2014	09:00:58.619	$GPGGA,090059,2441.1123,N,08107.5478,W,1,8,1.9,18,M,,M,,*5E
06/06/2014	09:00:59.656	$GPGGA,090100,2441.1124,N,08107.5477,W,1,8,1.9,18,M,,M,,*5B
06/06/2014	09:01:00.662	$GPGGA,090101,2441.1124,N,08107.5477,W,1,8,1.9,18,M,,M,,*5A
06/06/2014	09:01:01.628	$GPGGA,090102,2441.1127,N,08107.5476,W,1,8,1.9,18,M,,M,,*5B
06/06/2014	09:01:02.655	$GPGGA,090103,2441.1129,N,08107.5477,W,1,8,1.9,18,M,,M,,*55
06/06/2014	09:01:03.661	$GPGGA,090104,2441.1131,N,08107.5475,W,1,8,1.9,18,M,,M,,*59
06/06/2014	09:01:04.676	$GPGGA,090105,2441.1133,N,08107.5473,W,1,8,1.9,18,M,,M,,*5C
06/06/2014	09:01:05.652	$GPGGA,090106,2441.1134,N,08107.5472,W,1,8,2.2,18,M,,M,,*51
06/06/2014	09:01:06.669	$GPGGA,090107,2441.1137,N,08107.5471,W,1,8,1.9,19,M,,M,,*59
06/06/2014	09:01:07.665	$GPGGA,090108,2441.1138,N,08107.5470,W,1,8,1.9,19,M,,M,,*58
06/06/2014	09:01:08.651	$GPGGA,090109,2441.1142,N,08107.5469,W,1,8,1.9,19,M,,M,,*5C
06/06/2014	09:01:09.668	$GPGGA,090110,2441.1145,N,08107.5468,W,1,8,1.9,19,M,,M,,*52
06/06/2014	09:01:10.664	$GPGGA,090111,2441.1148,N,08107.5466,W,1,8,1.9,19,M,,M,,*50
06/06/2014	09:01:11.700	$GPGGA,090112,2441.1151,N,08107.5465,W,1,8,1.9,19,M,,M,,*58
06/06/2014	09:01:12.717	$GPGGA,090113,2441.1153,N,08107.5463,W,1,8,1.9,19,M,,M,,*5D
06/06/2014	09:01:13.673	$GPGGA,090114,2441.1158,N,08107.5462,W,1,8,1.9,19,M,,M,,*50
06/06/2014	09:01:14.719	$GPGGA,090115,2441.1162,N,08107.5460,W,1,8,1.9,19,M,,M,,*5A
06/06/2014	09:01:15.705	$GPGGA,090116,2441.1166,N,08107.5459,W,1,8,1.9,19,M,,M,,*57
06/06/2014	09:01:16.692	$GPGGA,090117,2441.1170,N,08107.5458,W,1,8,1.9,19,M,,M,,*50
06/06/2014	09:01:17.698	$GPGGA,090118,2441.1174,N,08107.5457,W,1,8,1.9,19,M,,M,,*54
06/06/2014	09:01:18.704	$GPGGA,090119,2441.1178,N,08107.5455,W,1,8,1.9,19,M,,M,,*5B
06/06/2014	09:01:19.731	$GPGGA,090120,2441.1181,N,08107.5454,W,1,8,1.9,19,M,,M,,*56
06/06/2014	09:01:20.707	$GPGGA,090121,2441.1187,N,08107.5453,W,1,8,1.9,19,M,,M,,*56
06/06/2014	09:01:21.722	$GPGGA,090122,2441.1191,N,08107.5452,W,1,8,1.9,19,M,,M,,*53
06/06/2014	09:01:22.718	$GPGGA,090123,2441.1196,N,08107.5451,W,1,8,1.9,18,M,,M,,*57
06/06/2014	09:01:23.755	$GPGGA,090124,2441.1200,N,08107.5450,W,1,8,2.4,18,M,,M,,*53
06/06/2014	09:01:24.741	$GPGGA,090125,2441.1205,N,08107.5449,W,1,7,2.2,18,M,,M,,*56
06/06/2014	09:01:25.727	$GPGGA,090126,2441.1209,N,08107.5449,W,1,7,1.9,18,M,,M,,*51
06/06/2014	09:01:26.733	$GPGGA,090127,2441.1216,N,08107.5448,W,1,8,1.9,18,M,,M,,*50
06/06/2014	09:01:27.881	$GPGGA,090128,2441.1221,N,08107.5448,W,1,8,1.9,18,M,,M,,*5B
06/06/2014	09:01:28.756	$GPGGA,090129,2441.1225,N,08107.5448,W,1,8,1.9,18,M,,M,,*5E
06/06/2014	09:01:29.843	$GPGGA,090130,2441.1232,N,08107.5448,W,1,8,1.9,18,M,,M,,*50
06/06/2014	09:01:30.749	$GPGGA,090131,2441.1238,N,08107.5448,W,1,8,1.9,18,M,,M,,*5B
06/06/2014	09:01:31.886	$GPGGA,090132,2441.1243,N,08107.5448,W,1,8,1.9,18,M,,M,,*54
06/06/2014	09:01:32.872	$GPGGA,090133,2441.1247,N,08107.5449,W,1,8,1.9,18,M,,M,,*50
06/06/2014	09:01:33.868	$GPGGA,090134,2441.1254,N,08107.5449,W,1,8,1.9,18,M,,M,,*55
06/06/2014	09:01:34.774	$GPGGA,090135,2441.1259,N,08107.5451,W,1,8,1.9,18,M,,M,,*50
06/06/2014	09:01:35.514	$GPGGA,090136,2441.1264,N,08107.5450,W,1,8,1.9,18,M,,M,,*5C
06/06/2014	09:01:36.510	$GPGGA,090137,2441.1270,N,08107.5452,W,1,8,1.9,18,M,,M,,*5A
06/06/2014	09:01:37.506	$GPGGA,090138,2441.1275,N,08107.5452,W,1,8,1.9,18,M,,M,,*50
06/06/2014	09:01:38.523	$GPGGA,090139,2441.1281,N,08107.5453,W,1,8,1.9,18,M,,M,,*5B
06/06/2014	09:01:39.568	$GPGGA,090140,2441.1286,N,08107.5455,W,1,8,2.4,18,M,,M,,*5A
06/06/2014	09:01:40.544	$GPGGA,090141,2441.1293,N,08107.5457,W,1,7,1.9,18,M,,M,,*5C
06/06/2014	09:01:41.530	$GPGGA,090142,2441.1297,N,08107.5459,W,1,7,2.4,18,M,,M,,*5B
06/06/2014	09:01:42.547	$GPGGA,090143,2441.1301,N,08107.5459,W,1,7,1.9,18,M,,M,,*5A
06/06/2014	09:01:43.563	$GPGGA,090144,2441.1308,N,08107.5462,W,1,7,1.9,18,M,,M,,*5C
06/06/2014	09:01:44.539	$GPGGA,090145,2441.1312,N,08107.5464,W,1,8,2.2,18,M,,M,,*57
06/06/2014	09:01:45.536	$GPGGA,090146,2441.1318,N,08107.5466,W,1,8,1.9,18,M,,M,,*54
06/06/2014	09:01:46.562	$GPGGA,090147,2441.1324,N,08107.5469,W,1,8,2.2,18,M,,M,,*5D
06/06/2014	09:01:47.558	$GPGGA,090148,2441.1329,N,08107.5470,W,1,8,1.9,18,M,,M,,*5F
06/06/2014	09:01:48.565	$GPGGA,090149,2441.1335,N,08107.5474,W,1,8,1.9,18,M,,M,,*57
06/06/2014	09:01:49.551	$GPGGA,090150,2441.1340,N,08107.5477,W,1,8,1.9,18,M,,M,,*5E
06/06/2014	09:01:50.577	$GPGGA,090151,2441.1344,N,08107.5480,W,1,8,2.2,18,M,,M,,*5B
06/06/2014	09:01:51.583	$GPGGA,090152,2441.1350,N,08107.5484,W,1,8,2.2,18,M,,M,,*59
06/06/2014	09:01:52.590	$GPGGA,090153,2441.1355,N,08107.5488,W,1,7,2.2,17,M,,M,,*51
06/06/2014	09:01:53.576	$GPGGA,090154,2441.1361,N,08107.5491,W,1,7,1.9,17,M,,M,,*51
06/06/2014	09:01:54.613	$GPGGA,090155,2441.1365,N,08107.5495,W,1,8,1.9,17,M,,M,,*5F
06/06/2014	09:01:55.599	$GPGGA,090156,2441.1369,N,08107.5499,W,1,8,2.2,17,M,,M,,*54
06/06/2014	09:01:56.614	$GPGGA,090157,2441.1373,N,08107.5502,W,1,7,1.9,17,M,,M,,*5A
06/06/2014	09:01:57.600	$GPGGA,090158,2441.1376,N,08107.5506,W,1,7,1.9,17,M,,M,,*54
06/06/2014	09:01:58.586	$GPGGA,090159,2441.1382,N,08107.5509,W,1,8,2.2,17,M,,M,,*56
06/06/2014	09:01:59.633	$GPGGA,090200,2441.1386,N,08107.5513,W,1,8,1.9,17,M,,M,,*5E
06/06/2014	09:02:00.629	$GPGGA,090201,2441.1390,N,08107.5516,W,1,8,1.9,17,M,,M,,*5D
06/06/2014	09:02:01.615	$GPGGA,090202,2441.1394,N,08107.5520,W,1,8,1.9,17,M,,M,,*5F
06/06/2014	09:02:02.642	$GPGGA,090203,2441.1398,N,08107.5522,W,1,8,1.9,17,M,,M,,*50
06/06/2014	09:02:03.638	$GPGGA,090204,2441.1401,N,08107.5527,W,1,8,1.9,17,M,,M,,*55
06/06/2014	09:02:04.634	$GPGGA,090205,2441.1405,N,08107.5529,W,1,8,1.9,17,M,,M,,*5E
06/06/2014	09:02:05.630	$GPGGA,090206,2441.1409,N,08107.5532,W,1,8,1.9,17,M,,M,,*5B
06/06/2014	09:02:06.647	$GPGGA,090207,2441.1412,N,08107.5535,W,1,8,1.9,17,M,,M,,*57
06/06/2014	09:02:07.643	$GPGGA,090208,2441.1415,N,08107.5538,W,1,8,1.9,16,M,,M,,*53
06/06/2014	09:02:08.659	$GPGGA,090209,2441.1418,N,08107.5542,W,1,8,2.2,16,M,,M,,*5A
06/06/2014	09:02:09.645	$GPGGA,090210,2441.1419,N,08107.5545,W,1,8,1.9,16,M,,M,,*5C
06/06/2014	09:02:10.642	$GPGGA,090211,2441.1420,N,08107.5546,W,1,8,1.9,16,M,,M,,*54
06/06/2014	09:02:11.759	$GPGGA,090212,2441.1423,N,08107.5549,W,1,8,1.9,16,M,,M,,*5B
06/06/2014	09:02:12.654	$GPGGA,090213,2441.1424,N,08107.5553,W,1,8,1.9,16,M,,M,,*56
06/06/2014	09:02:13.664	$GPGGA,090214,2441.1427,N,08107.5554,W,1,8,1.9,16,M,,M,,*55
06/06/2014	09:02:14.656	$GPGGA,090215,2441.1431,N,08107.5558,W,1,8,2.2,16,M,,M,,*57
06/06/2014	09:02:15.773	$GPGGA,090216,2441.1434,N,08107.5561,W,1,8,2.2,16,M,,M,,*5B
06/06/2014	09:02:16.699	$GPGGA,090217,2441.1438,N,08107.5564,W,1,7,2.2,16,M,,M,,*5C
06/06/2014	09:02:17.695	$GPGGA,090218,2441.1441,N,08107.5567,W,1,7,2.2,16,M,,M,,*5E
06/06/2014	09:02:18.802	$GPGGA,090219,2441.1445,N,08107.5571,W,1,7,2.2,16,M,,M,,*5C
06/06/2014	09:02:19.707	$GPGGA,090220,2441.1447,N,08107.5574,W,1,7,2.2,16,M,,M,,*51
06/06/2014	09:02:20.694	$GPGGA,090221,2441.1449,N,08107.5576,W,1,7,2.2,16,M,,M,,*5C
06/06/2014	09:02:21.791	$GPGGA,090222,2441.1454,N,08107.5579,W,1,7,1.9,16,M,,M,,*54
06/06/2014	09:02:22.787	$GPGGA,090223,2441.1455,N,08107.5581,W,1,8,1.9,16,M,,M,,*5C
06/06/2014	09:02:23.803	$GPGGA,090224,2441.1458,N,08107.5585,W,1,8,1.9,16,M,,M,,*52
06/06/2014	09:02:24.800	$GPGGA,090225,2441.1460,N,08107.5586,W,1,8,1.9,16,M,,M,,*5B
06/06/2014	09:02:25.816	$GPGGA,090226,2441.1463,N,08107.5589,W,1,8,1.9,16,M,,M,,*54
06/06/2014	09:02:26.822	$GPGGA,090227,2441.1465,N,08107.5592,W,1,8,1.9,16,M,,M,,*59
06/06/2014	09:02:27.828	$GPGGA,090228,2441.1467,N,08107.5594,W,1,8,1.9,16,M,,M,,*52
06/06/2014	09:02:28.804	$GPGGA,090229,2441.1470,N,08107.5597,W,1,8,2.2,15,M,,M,,*5D
06/06/2014	09:02:29.821	$GPGGA,090230,2441.1474,N,08107.5600,W,1,8,2.2,15,M,,M,,*5C
06/06/2014	09:02:30.817	$GPGGA,090231,2441.1476,N,08107.5603,W,1,7,2.2,15,M,,M,,*53
06/06/2014	09:02:31.832	$GPGGA,090232,2441.1478,N,08107.5605,W,1,7,2.2,15,M,,M,,*58
06/06/2014	09:02:32.829	$GPGGA,090233,2441.1481,N,08107.5608,W,1,7,2.2,15,M,,M,,*52
06/06/2014	09:02:33.835	$GPGGA,090234,2441.1483,N,08107.5611,W,1,7,2.2,15,M,,M,,*5F
06/06/2014	09:02:34.861	$GPGGA,090235,2441.1485,N,08107.5614,W,1,7,2.2,15,M,,M,,*5D
06/06/2014	09:02:35.481	$GPGGA,090236,2441.1488,N,08107.5616,W,1,7,2.2,15,M,,M,,*51
06/06/2014	09:02:36.497	$GPGGA,090237,2441.1491,N,08107.5618,W,1,7,2.2,15,M,,M,,*56
06/06/2014	09:02:37.473	$GPGGA,090238,2441.1492,N,08107.5621,W,1,7,2.2,15,M,,M,,*50
06/06/2014	09:02:38.479	$GPGGA,090239,2441.1496,N,08107.5623,W,1,7,2.2,15,M,,M,,*57
06/06/2014	09:02:39.496	$GPGGA,090240,2441.1498,N,08107.5626,W,1,7,2.2,15,M,,M,,*52
06/06/2014	09:02:40.482	$GPGGA,090241,2441.1501,N,08107.5629,W,1,7,2.2,14,M,,M,,*5C
06/06/2014	09:02:41.498	$GPGGA,090242,2441.1502,N,08107.5630,W,1,7,2.2,14,M,,M,,*54
06/06/2014	09:02:42.525	$GPGGA,090243,2441.1505,N,08107.5633,W,1,7,2.2,14,M,,M,,*51
06/06/2014	09:02:43.511	$GPGGA,090244,2441.1507,N,08107.5636,W,1,7,2.2,14,M,,M,,*51
06/06/2014	09:02:44.537	$GPGGA,090245,2441.1509,N,08107.5639,W,1,7,2.2,14,M,,M,,*51
06/06/2014	09:02:45.503	$GPGGA,090246,2441.1510,N,08107.5640,W,1,7,2.2,14,M,,M,,*54
06/06/2014	09:02:46.508	$GPGGA,090247,2441.1513,N,08107.5643,W,1,7,2.2,14,M,,M,,*55
06/06/2014	09:02:47.542	$GPGGA,090248,2441.1514,N,08107.5645,W,1,7,2.2,14,M,,M,,*5B
06/06/2014	09:02:48.555	$GPGGA,090249,2441.1517,N,08107.5647,W,1,7,2.2,14,M,,M,,*5B
06/06/2014	09:02:49.519	$GPGGA,090250,2441.1518,N,08107.5650,W,1,7,2.2,14,M,,M,,*5A
06/06/2014	09:02:50.553	$GPGGA,090251,2441.1520,N,08107.5651,W,1,7,2.2,13,M,,M,,*56
06/06/2014	09:02:51.527	$GPGGA,090252,2441.1521,N,08107.5654,W,1,7,2.2,13,M,,M,,*51
06/06/2014	09:02:52.521	$GPGGA,090253,2441.1524,N,08107.5657,W,1,7,2.2,13,M,,M,,*56
06/06/2014	09:02:53.525	$GPGGA,090254,2441.1525,N,08107.5658,W,1,7,2.2,13,M,,M,,*5F
06/06/2014	09:02:54.528	$GPGGA,090255,2441.1528,N,08107.5661,W,1,7,2.2,13,M,,M,,*59
06/06/2014	09:02:55.552	$GPGGA,090256,2441.1528,N,08107.5662,W,1,7,2.2,13,M,,M,,*59
06/06/2014	09:02:56.526	$GPGGA,090257,2441.1531,N,08107.5665,W,1,7,2.2,13,M,,M,,*57
06/06/2014	09:02:57.550	$GPGGA,090258,2441.1532,N,08107.5668,W,1,7,2.2,13,M,,M,,*56
06/06/2014	09:02:58.654	$GPGGA,090259,2441.1535,N,08107.5670,W,1,7,2.2,13,M,,M,,*59
06/06/2014	09:02:59.558	$GPGGA,090300,2441.1535,N,08107.5672,W,1,7,2.2,13,M,,M,,*56
06/06/2014	09:03:00.532	$GPGGA,090301,2441.1538,N,08107.5675,W,1,7,2.2,13,M,,M,,*5D
06/06/2014	09:03:01.556	$GPGGA,090302,2441.1539,N,08107.5677,W,1,7,2.2,13,M,,M,,*5D
06/06/2014	09:03:02.540	$GPGGA,090303,2441.1542,N,08107.5679,W,1,7,2.2,13,M,,M,,*5E
06/06/2014	09:03:03.564	$GPGGA,090304,2441.1543,N,08107.5681,W,1,7,2.2,13,M,,M,,*5F
06/06/2014	09:03:04.538	$GPGGA,090305,2441.1543,N,08107.5683,W,1,7,2.2,13,M,,M,,*5C
06/06/2014	09:03:05.542	$GPGGA,090306,2441.1546,N,08107.5686,W,1,7,2.2,13,M,,M,,*5F
06/06/2014	09:03:06.657	$GPGGA,090307,2441.1548,N,08107.5688,W,1,7,2.2,13,M,,M,,*5E
06/06/2014	09:03:07.558	$GPGGA,090308,2441.1549,N,08107.5691,W,1,7,2.2,13,M,,M,,*58
06/06/2014	09:03:08.562	$GPGGA,090309,2441.1550,N,08107.5694,W,1,7,2.2,13,M,,M,,*54
06/06/2014	09:03:09.566	$GPGGA,090310,2441.1552,N,08107.5695,W,1,7,2.2,13,M,,M,,*5F
06/06/2014	09:03:10.690	$GPGGA,090311,2441.1553,N,08107.5697,W,1,7,2.2,13,M,,M,,*5D
06/06/2014	09:03:11.664	$GPGGA,090312,2441.1556,N,08107.5701,W,1,7,2.2,13,M,,M,,*55
06/06/2014	09:03:12.658	$GPGGA,090313,2441.1557,N,08107.5702,W,1,7,2.2,13,M,,M,,*56
06/06/2014	09:03:13.662	$GPGGA,090314,2441.1557,N,08107.5705,W,1,7,2.2,13,M,,M,,*56
06/06/2014	09:03:14.696	$GPGGA,090315,2441.1560,N,08107.5708,W,1,8,1.9,12,M,,M,,*58
06/06/2014	09:03:15.671	$GPGGA,090316,2441.1559,N,08107.5708,W,1,8,2.2,12,M,,M,,*59
06/06/2014	09:03:16.684	$GPGGA,090317,2441.1560,N,08107.5710,W,1,8,1.9,12,M,,M,,*53
06/06/2014	09:03:17.667	$GPGGA,090318,2441.1561,N,08107.5712,W,1,8,1.9,12,M,,M,,*5F
06/06/2014	09:03:18.681	$GPGGA,090319,2441.1561,N,08107.5715,W,1,8,1.9,13,M,,M,,*58
06/06/2014	09:03:19.685	$GPGGA,090320,2441.1563,N,08107.5716,W,1,8,1.9,13,M,,M,,*53
06/06/2014	09:03:20.679	$GPGGA,090321,2441.1564,N,08107.5719,W,1,8,1.9,13,M,,M,,*5A
06/06/2014	09:03:21.683	$GPGGA,090322,2441.1567,N,08107.5720,W,1,8,1.9,13,M,,M,,*50
06/06/2014	09:03:22.697	$GPGGA,090323,2441.1572,N,08107.5724,W,1,7,2.4,13,M,,M,,*50
06/06/2014	09:03:23.690	$GPGGA,090324,2441.1572,N,08107.5726,W,1,7,1.9,13,M,,M,,*5B
06/06/2014	09:03:24.694	$GPGGA,090325,2441.1575,N,08107.5730,W,1,7,2.4,13,M,,M,,*54
06/06/2014	09:03:25.688	$GPGGA,090326,2441.1577,N,08107.5731,W,1,7,2.7,13,M,,M,,*57
06/06/2014	09:03:26.701	$GPGGA,090327,2441.1579,N,08107.5733,W,1,8,1.9,14,M,,M,,*5F
06/06/2014	09:03:27.695	$GPGGA,090328,2441.1579,N,08107.5737,W,1,8,1.9,14,M,,M,,*54
06/06/2014	09:03:28.709	$GPGGA,090329,2441.1582,N,08107.5738,W,1,8,1.9,14,M,,M,,*5E
06/06/2014	09:03:29.683	$GPGGA,090330,2441.1583,N,08107.5741,W,1,8,1.9,14,M,,M,,*59
06/06/2014	09:03:30.717	$GPGGA,090331,2441.1585,N,08107.5742,W,1,7,2.4,14,M,,M,,*5C
06/06/2014	09:03:31.711	$GPGGA,090332,2441.1589,N,08107.5745,W,1,7,2.4,14,M,,M,,*54
06/06/2014	09:03:32.715	$GPGGA,090333,2441.1588,N,08107.5748,W,1,8,1.9,14,M,,M,,*58
06/06/2014	09:03:33.699	$GPGGA,090334,2441.1590,N,08107.5749,W,1,8,2.4,15,M,,M,,*58
06/06/2014	09:03:34.743	$GPGGA,090335,2441.1590,N,08107.5751,W,1,7,2.4,15,M,,M,,*5F
06/06/2014	09:03:35.459	$GPGGA,090336,2441.1592,N,08107.5753,W,1,7,2.4,15,M,,M,,*5C
06/06/2014	09:03:36.453	$GPGGA,090337,2441.1597,N,08107.5758,W,1,7,2.4,15,M,,M,,*53
06/06/2014	09:03:37.437	$GPGGA,090338,2441.1600,N,08107.5760,W,1,7,1.9,15,M,,M,,*54
06/06/2014	09:03:38.441	$GPGGA,090339,2441.1603,N,08107.5762,W,1,8,1.9,15,M,,M,,*5B
06/06/2014	09:03:39.465	$GPGGA,090340,2441.1604,N,08107.5766,W,1,8,1.9,16,M,,M,,*55
06/06/2014	09:03:40.479	$GPGGA,090341,2441.1607,N,08107.5769,W,1,8,1.9,16,M,,M,,*58
06/06/2014	09:03:41.451	$GPGGA,090342,2441.1608,N,08107.5770,W,1,8,1.9,16,M,,M,,*5C
06/06/2014	09:03:42.445	$GPGGA,090343,2441.1610,N,08107.5773,W,1,8,1.9,16,M,,M,,*57
06/06/2014	09:03:43.590	$GPGGA,090344,2441.1611,N,08107.5775,W,1,8,1.9,16,M,,M,,*57
06/06/2014	09:03:44.443	$GPGGA,090345,2441.1611,N,08107.5778,W,1,8,1.9,17,M,,M,,*5A
06/06/2014	09:03:45.447	$GPGGA,090346,2441.1614,N,08107.5780,W,1,8,1.9,17,M,,M,,*5B
06/06/2014	09:03:46.451	$GPGGA,090347,2441.1615,N,08107.5782,W,1,8,1.9,17,M,,M,,*59
06/06/2014	09:03:47.605	$GPGGA,090348,2441.1615,N,08107.5785,W,1,8,1.9,17,M,,M,,*51
06/06/2014	09:03:48.459	$GPGGA,090349,2441.1618,N,08107.5788,W,1,8,1.9,17,M,,M,,*50
06/06/2014	09:03:49.583	$GPGGA,090350,2441.1619,N,08107.5791,W,1,8,1.9,17,M,,M,,*51
06/06/2014	09:03:50.466	$GPGGA,090351,2441.1621,N,08107.5795,W,1,8,1.9,17,M,,M,,*5F
06/06/2014	09:03:51.480	$GPGGA,090352,2441.1620,N,08107.5796,W,1,8,1.9,17,M,,M,,*5E
06/06/2014	09:03:52.465	$GPGGA,090353,2441.1622,N,08107.5799,W,1,8,1.9,17,M,,M,,*52
06/06/2014	09:03:53.478	$GPGGA,090354,2441.1626,N,08107.5802,W,1,8,1.9,17,M,,M,,*5C
06/06/2014	09:03:54.602	$GPGGA,090355,2441.1626,N,08107.5803,W,1,7,2.1,17,M,,M,,*58
06/06/2014	09:03:55.596	$GPGGA,090356,2441.1626,N,08107.5806,W,1,7,1.9,18,M,,M,,*5A
06/06/2014	09:03:56.600	$GPGGA,090357,2441.1629,N,08107.5809,W,1,8,1.9,18,M,,M,,*54
06/06/2014	09:03:57.574	$GPGGA,090358,2441.1632,N,08107.5813,W,1,8,1.9,18,M,,M,,*5A
06/06/2014	09:03:58.607	$GPGGA,090359,2441.1633,N,08107.5816,W,1,8,1.9,18,M,,M,,*5F
06/06/2014	09:03:59.591	$GPGGA,090400,2441.1636,N,08107.5820,W,1,8,1.9,18,M,,M,,*54
06/06/2014	09:04:00.605	$GPGGA,090401,2441.1637,N,08107.5824,W,1,8,1.9,18,M,,M,,*50
06/06/2014	09:04:01.579	$GPGGA,090402,2441.1639,N,08107.5827,W,1,8,1.9,18,M,,M,,*5E
06/06/2014	09:04:02.592	$GPGGA,090403,2441.1640,N,08107.5831,W,1,8,1.9,18,M,,M,,*56
06/06/2014	09:04:03.606	$GPGGA,090404,2441.1642,N,08107.5835,W,1,8,1.9,18,M,,M,,*57
06/06/2014	09:04:04.620	$GPGGA,090405,2441.1644,N,08107.5838,W,1,8,1.9,17,M,,M,,*52
06/06/2014	09:04:05.584	$GPGGA,090406,2441.1644,N,08107.5842,W,1,8,1.9,17,M,,M,,*5C
06/06/2014	09:04:06.608	$GPGGA,090407,2441.1647,N,08107.5847,W,1,8,1.9,17,M,,M,,*5B
06/06/2014	09:04:07.612	$GPGGA,090408,2441.1647,N,08107.5852,W,1,8,1.9,17,M,,M,,*50
06/06/2014	09:04:08.616	$GPGGA,090409,2441.1648,N,08107.5856,W,1,8,1.9,17,M,,M,,*5A
06/06/2014	09:04:09.590	$GPGGA,090410,2441.1650,N,08107.5860,W,1,8,1.9,17,M,,M,,*5E
06/06/2014	09:04:10.624	$GPGGA,090411,2441.1651,N,08107.5864,W,1,8,1.9,17,M,,M,,*5A
06/06/2014	09:04:11.618	$GPGGA,090412,2441.1651,N,08107.5868,W,1,8,1.9,17,M,,M,,*55
06/06/2014	09:04:12.621	$GPGGA,090413,2441.1653,N,08107.5874,W,1,7,2.4,17,M,,M,,*5A
06/06/2014	09:04:13.605	$GPGGA,090414,2441.1654,N,08107.5878,W,1,7,2.4,17,M,,M,,*56
06/06/2014	09:04:14.630	$GPGGA,090415,2441.1653,N,08107.5882,W,1,7,2.4,17,M,,M,,*55
06/06/2014	09:04:15.623	$GPGGA,090416,2441.1655,N,08107.5887,W,1,7,2.4,17,M,,M,,*55
06/06/2014	09:04:16.637	$GPGGA,090417,2441.1658,N,08107.5893,W,1,8,1.9,17,M,,M,,*5D
06/06/2014	09:04:17.610	$GPGGA,090418,2441.1656,N,08107.5897,W,1,8,1.9,17,M,,M,,*58
06/06/2014	09:04:18.624	$GPGGA,090419,2441.1655,N,08107.5901,W,1,8,1.9,17,M,,M,,*54
06/06/2014	09:04:19.638	$GPGGA,090420,2441.1655,N,08107.5907,W,1,8,1.9,16,M,,M,,*59
06/06/2014	09:04:20.632	$GPGGA,090421,2441.1658,N,08107.5912,W,1,7,2.4,16,M,,M,,*50
06/06/2014	09:04:21.625	$GPGGA,090422,2441.1658,N,08107.5918,W,1,7,1.9,16,M,,M,,*57
06/06/2014	09:04:22.639	$GPGGA,090423,2441.1657,N,08107.5922,W,1,7,2.4,16,M,,M,,*5E
06/06/2014	09:04:23.643	$GPGGA,090424,2441.1658,N,08107.5928,W,1,7,2.4,16,M,,M,,*5C
06/06/2014	09:04:24.617	$GPGGA,090425,2441.1657,N,08107.5932,W,1,8,1.9,16,M,,M,,*58
06/06/2014	09:04:25.641	$GPGGA,090426,2441.1658,N,08107.5937,W,1,8,1.9,16,M,,M,,*51
06/06/2014	09:04:26.625	$GPGGA,090427,2441.1660,N,08107.5943,W,1,8,1.9,16,M,,M,,*58
06/06/2014	09:04:27.649	$GPGGA,090428,2441.1658,N,08107.5948,W,1,8,1.9,16,M,,M,,*57
06/06/2014	09:04:28.673	$GPGGA,090429,2441.1657,N,08107.5952,W,1,7,2.4,16,M,,M,,*53
06/06/2014	09:04:29.637	$GPGGA,090430,2441.1656,N,08107.5958,W,1,7,1.9,16,M,,M,,*5E
06/06/2014	09:04:30.650	$GPGGA,090431,2441.1655,N,08107.5964,W,1,8,1.9,16,M,,M,,*5C
06/06/2014	09:04:31.654	$GPGGA,090432,2441.1655,N,08107.5968,W,1,8,1.9,16,M,,M,,*53
06/06/2014	09:04:32.628	$GPGGA,090433,2441.1653,N,08107.5972,W,1,8,1.9,16,M,,M,,*5F
06/06/2014	09:04:33.651	$GPGGA,090434,2441.1652,N,08107.5979,W,1,8,1.9,16,M,,M,,*52
06/06/2014	09:04:34.645	$GPGGA,090435,2441.1651,N,08107.5983,W,1,8,1.9,16,M,,M,,*55
06/06/2014	09:04:35.597	$GPGGA,090436,2441.1649,N,08107.5987,W,1,8,1.9,16,M,,M,,*5B
06/06/2014	09:04:36.410	$GPGGA,090437,2441.1648,N,08107.5993,W,1,8,1.9,15,M,,M,,*5D
06/06/2014	09:04:37.414	$GPGGA,090438,2441.1646,N,08107.5997,W,1,8,1.9,15,M,,M,,*58
06/06/2014	09:04:38.418	$GPGGA,090439,2441.1644,N,08107.6002,W,1,8,1.9,15,M,,M,,*5D
06/06/2014	09:04:39.522	$GPGGA,090440,2441.1644,N,08107.6006,W,1,8,1.9,15,M,,M,,*57
06/06/2014	09:04:40.435	$GPGGA,090441,2441.1641,N,08107.6012,W,1,8,1.9,15,M,,M,,*56
06/06/2014	09:04:41.590	$GPGGA,090442,2441.1640,N,08107.6015,W,1,8,1.9,15,M,,M,,*53
06/06/2014	09:04:42.433	$GPGGA,090443,2441.1637,N,08107.6020,W,1,8,1.9,15,M,,M,,*54
06/06/2014	09:04:43.448	$GPGGA,090444,2441.1635,N,08107.6024,W,1,8,1.9,15,M,,M,,*55
06/06/2014	09:04:44.431	$GPGGA,090445,2441.1633,N,08107.6030,W,1,8,1.9,15,M,,M,,*57
06/06/2014	09:04:45.595	$GPGGA,090446,2441.1630,N,08107.6034,W,1,8,1.9,15,M,,M,,*53
06/06/2014	09:04:46.579	$GPGGA,090447,2441.1627,N,08107.6038,W,1,8,1.9,15,M,,M,,*58
06/06/2014	09:04:47.613	$GPGGA,090448,2441.1626,N,08107.6042,W,1,8,1.9,15,M,,M,,*5B
06/06/2014	09:04:48.567	$GPGGA,090449,2441.1622,N,08107.6046,W,1,8,1.9,15,M,,M,,*5A
06/06/2014	09:04:49.601	$GPGGA,090450,2441.1619,N,08107.6051,W,1,8,1.9,15,M,,M,,*5C
06/06/2014	09:04:50.597	$GPGGA,090451,2441.1616,N,08107.6055,W,1,8,1.9,15,M,,M,,*56
06/06/2014	09:04:51.668	$GPGGA,090452,2441.1612,N,08107.6058,W,1,8,1.9,15,M,,M,,*5C
06/06/2014	09:04:52.658	$GPGGA,090453,2441.1610,N,08107.6062,W,1,8,1.9,15,M,,M,,*56
06/06/2014	09:04:53.648	$GPGGA,090454,2441.1606,N,08107.6066,W,1,8,1.9,15,M,,M,,*52
06/06/2014	09:04:54.721	$GPGGA,090455,2441.1604,N,08107.6069,W,1,7,2.4,14,M,,M,,*5E
06/06/2014	09:04:55.794	$GPGGA,090456,2441.1601,N,08107.6073,W,1,7,1.9,14,M,,M,,*5D
06/06/2014	09:04:56.733	$GPGGA,090457,2441.1599,N,08107.6077,W,1,8,1.9,14,M,,M,,*55
06/06/2014	09:04:57.836	$GPGGA,090458,2441.1595,N,08107.6080,W,1,8,1.9,14,M,,M,,*5E
06/06/2014	09:04:58.826	$GPGGA,090459,2441.1590,N,08107.6082,W,1,7,2.4,14,M,,M,,*59
06/06/2014	09:04:59.919	$GPGGA,090500,2441.1587,N,08107.6085,W,1,7,2.4,14,M,,M,,*55
06/06/2014	09:05:00.900	$GPGGA,090501,2441.1582,N,08107.6088,W,1,8,1.9,14,M,,M,,*5D
06/06/2014	09:05:01.951	$GPGGA,090502,2441.1577,N,08107.6091,W,1,8,1.9,14,M,,M,,*5C
06/06/2014	09:05:02.962	$GPGGA,090503,2441.1573,N,08107.6094,W,1,8,1.9,14,M,,M,,*5C
06/06/2014	09:05:04.024	$GPGGA,090504,2441.1569,N,08107.6096,W,1,8,1.9,14,M,,M,,*52
06/06/2014	09:05:05.027	$GPGGA,090505,2441.1566,N,08107.6099,W,1,8,1.9,14,M,,M,,*53
06/06/2014	09:05:06.057	$GPGGA,090506,2441.1562,N,08107.6102,W,1,8,1.9,14,M,,M,,*57
06/06/2014	09:05:07.046	$GPGGA,090507,2441.1558,N,08107.6105,W,1,8,1.9,14,M,,M,,*58
06/06/2014	09:05:08.057	$GPGGA,090508,2441.1555,N,08107.6106,W,1,8,1.9,14,M,,M,,*59
06/06/2014	09:05:09.139	$GPGGA,090509,2441.1552,N,08107.6109,W,1,8,1.9,14,M,,M,,*50
06/06/2014	09:05:10.192	$GPGGA,090510,2441.1548,N,08107.6111,W,1,8,1.8,14,M,,M,,*5B
06/06/2014	09:05:11.171	$GPGGA,090511,2441.1545,N,08107.6113,W,1,8,1.8,14,M,,M,,*55
06/06/2014	09:05:12.233	$GPGGA,090512,2441.1541,N,08107.6114,W,1,8,2.4,14,M,,M,,*5A
06/06/2014	09:05:13.223	$GPGGA,090513,2441.1539,N,08107.6116,W,1,7,1.8,14,M,,M,,*56
06/06/2014	09:05:14.286	$GPGGA,090514,2441.1536,N,08107.6118,W,1,7,1.8,14,M,,M,,*50
06/06/2014	09:05:15.255	$GPGGA,090515,2441.1532,N,08107.6120,W,1,8,1.8,14,M,,M,,*51
06/06/2014	09:05:16.359	$GPGGA,090516,2441.1529,N,08107.6121,W,1,8,1.8,14,M,,M,,*59
06/06/2014	09:05:17.370	$GPGGA,090517,2441.1525,N,08107.6124,W,1,8,1.8,14,M,,M,,*51
06/06/2014	09:05:18.339	$GPGGA,090518,2441.1521,N,08107.6124,W,1,8,1.8,14,M,,M,,*5A
06/06/2014	09:05:19.432	$GPGGA,090519,2441.1518,N,08107.6127,W,1,8,1.8,14,M,,M,,*52
06/06/2014	09:05:20.546	$GPGGA,090520,2441.1515,N,08107.6126,W,1,8,1.8,14,M,,M,,*54
06/06/2014	09:05:21.557	$GPGGA,090521,2441.1511,N,08107.6127,W,1,8,1.8,14,M,,M,,*50
06/06/2014	09:05:22.457	$GPGGA,090522,2441.1507,N,08107.6127,W,1,8,1.8,14,M,,M,,*54
06/06/2014	09:05:23.537	$GPGGA,090523,2441.1503,N,08107.6128,W,1,8,1.8,14,M,,M,,*5E
06/06/2014	09:05:24.589	$GPGGA,090524,2441.1500,N,08107.6128,W,1,8,1.8,14,M,,M,,*5A
06/06/2014	09:05:25.683	$GPGGA,090525,2441.1496,N,08107.6128,W,1,8,1.8,14,M,,M,,*55
06/06/2014	09:05:26.652	$GPGGA,090526,2441.1492,N,08107.6129,W,1,8,1.8,14,M,,M,,*53
06/06/2014	09:05:27.600	$GPGGA,090527,2441.1489,N,08107.6129,W,1,8,1.8,14,M,,M,,*58
06/06/2014	09:05:28.724	$GPGGA,090528,2441.1485,N,08107.6129,W,1,8,1.8,14,M,,M,,*5B
06/06/2014	09:05:29.797	$GPGGA,090529,2441.1482,N,08107.6129,W,1,8,1.8,14,M,,M,,*5D
06/06/2014	09:05:30.808	$GPGGA,090530,2441.1478,N,08107.6129,W,1,8,2.4,14,M,,M,,*5F
06/06/2014	09:05:31.860	$GPGGA,090531,2441.1474,N,08107.6129,W,1,7,1.8,14,M,,M,,*52
06/06/2014	09:05:32.881	$GPGGA,090532,2441.1472,N,08107.6129,W,1,7,1.8,13,M,,M,,*50
06/06/2014	09:05:33.881	$GPGGA,090533,2441.1469,N,08107.6129,W,1,8,1.8,13,M,,M,,*54
06/06/2014	09:05:34.933	$GPGGA,090534,2441.1467,N,08107.6131,W,1,8,1.8,13,M,,M,,*54
06/06/2014	09:05:35.955	$GPGGA,090535,2441.1465,N,08107.6130,W,1,8,1.8,13,M,,M,,*56
06/06/2014	09:05:35.511	$GPGGA,090536,2441.1463,N,08107.6131,W,1,8,1.8,13,M,,M,,*52
06/06/2014	09:05:36.542	$GPGGA,090537,2441.1461,N,08107.6132,W,1,8,1.8,13,M,,M,,*52
06/06/2014	09:05:37.553	$GPGGA,090538,2441.1458,N,08107.6132,W,1,8,1.8,13,M,,M,,*57
06/06/2014	09:05:38.584	$GPGGA,090539,2441.1456,N,08107.6132,W,1,8,1.8,13,M,,M,,*58
06/06/2014	09:05:39.616	$GPGGA,090540,2441.1454,N,08107.6134,W,1,8,1.8,13,M,,M,,*52
06/06/2014	09:05:40.647	$GPGGA,090541,2441.1453,N,08107.6133,W,1,8,1.8,13,M,,M,,*53
06/06/2014	09:05:41.658	$GPGGA,090542,2441.1451,N,08107.6134,W,1,8,1.8,13,M,,M,,*55
06/06/2014	09:05:42.711	$GPGGA,090543,2441.1449,N,08107.6133,W,1,8,1.8,13,M,,M,,*5A
06/06/2014	09:05:43.750	$GPGGA,090544,2441.1447,N,08107.6134,W,1,8,1.8,13,M,,M,,*54
06/06/2014	09:05:44.772	$GPGGA,090545,2441.1445,N,08107.6133,W,1,8,1.8,13,M,,M,,*50
06/06/2014	09:05:45.793	$GPGGA,090546,2441.1442,N,08107.6134,W,1,8,1.8,13,M,,M,,*53
06/06/2014	09:05:46.814	$GPGGA,090547,2441.1440,N,08107.6133,W,1,8,1.8,13,M,,M,,*57
06/06/2014	09:05:47.855	$GPGGA,090548,2441.1438,N,08107.6132,W,1,8,1.8,13,M,,M,,*56
06/06/2014	09:05:48.866	$GPGGA,090549,2441.1435,N,08107.6132,W,1,8,1.8,13,M,,M,,*5A
06/06/2014	09:05:49.898	$GPGGA,090550,2441.1433,N,08107.6132,W,1,8,1.8,13,M,,M,,*54
06/06/2014	09:05:50.981	$GPGGA,090551,2441.1431,N,08107.6132,W,1,8,1.8,13,M,,M,,*57
06/06/2014	09:05:52.002	$GPGGA,090552,2441.1429,N,08107.6132,W,1,8,1.8,13,M,,M,,*5D
06/06/2014	09:05:53.002	$GPGGA,090553,2441.1427,N,08107.6132,W,1,8,1.8,13,M,,M,,*52
06/06/2014	09:05:54.023	$GPGGA,090554,2441.1425,N,08107.6132,W,1,8,1.8,13,M,,M,,*57
06/06/2014	09:05:55.075	$GPGGA,090555,2441.1423,N,08107.6132,W,1,8,1.8,13,M,,M,,*50
06/06/2014	09:05:56.117	$GPGGA,090556,2441.1421,N,08107.6131,W,1,8,1.8,13,M,,M,,*52
06/06/2014	09:05:57.138	$GPGGA,090557,2441.1420,N,08107.6131,W,1,8,1.8,13,M,,M,,*52
06/06/2014	09:05:58.169	$GPGGA,090558,2441.1418,N,08107.6131,W,1,8,1.8,13,M,,M,,*56
06/06/2014	09:05:59.160	$GPGGA,090559,2441.1416,N,08107.6131,W,1,8,1.8,13,M,,M,,*59
06/06/2014	09:06:00.266	$GPGGA,090600,2441.1416,N,08107.6131,W,1,8,1.8,13,M,,M,,*56
06/06/2014	09:06:01.243	$GPGGA,090601,2441.1413,N,08107.6131,W,1,8,1.8,13,M,,M,,*52
06/06/2014	09:06:02.346	$GPGGA,090602,2441.1411,N,08107.6131,W,1,8,1.8,13,M,,M,,*53
06/06/2014	09:06:03.387	$GPGGA,090603,2441.1410,N,08107.6131,W,1,8,1.8,12,M,,M,,*52
06/06/2014	09:06:04.316	$GPGGA,090604,2441.1410,N,08107.6131,W,1,8,1.8,12,M,,M,,*55
06/06/2014	09:06:05.347	$GPGGA,090605,2441.1405,N,08107.6131,W,1,8,1.8,12,M,,M,,*50
06/06/2014	09:06:06.461	$GPGGA,090606,2441.1402,N,08107.6130,W,1,8,1.8,12,M,,M,,*55
06/06/2014	09:06:07.389	$GPGGA,090607,2441.1400,N,08107.6129,W,1,8,1.8,12,M,,M,,*5E
06/06/2014	09:06:08.451	$GPGGA,090608,2441.1398,N,08107.6128,W,1,8,1.8,12,M,,M,,*56
06/06/2014	09:06:09.452	$GPGGA,090609,2441.1393,N,08107.6127,W,1,8,1.8,12,M,,M,,*53
06/06/2014	09:06:10.586	$GPGGA,090610,2441.1389,N,08107.6125,W,1,8,1.8,12,M,,M,,*52
06/06/2014	09:06:11.680	$GPGGA,090611,2441.1385,N,08107.6124,W,1,8,1.8,12,M,,M,,*5E
06/06/2014	09:06:12.598	$GPGGA,090612,2441.1385,N,08107.6124,W,1,8,1.8,12,M,,M,,*5D
06/06/2014	09:06:13.577	$GPGGA,090613,2441.1376,N,08107.6121,W,1,8,1.8,12,M,,M,,*55
06/06/2014	09:06:14.599	$GPGGA,090614,2441.1373,N,08107.6119,W,1,8,1.8,12,M,,M,,*5C
06/06/2014	09:06:15.640	$GPGGA,090615,2441.1367,N,08107.6116,W,1,8,1.8,12,M,,M,,*57
06/06/2014	09:06:16.682	$GPGGA,090616,2441.1363,N,08107.6114,W,1,8,1.8,12,M,,M,,*52
06/06/2014	09:06:17.693	$GPGGA,090617,2441.1358,N,08107.6112,W,1,8,1.8,12,M,,M,,*5D
06/06/2014	09:06:18.808	$GPGGA,090618,2441.1355,N,08107.6109,W,1,8,1.8,12,M,,M,,*55
06/06/2014	09:06:19.837	$GPGGA,090619,2441.1349,N,08107.6106,W,1,8,1.8,12,M,,M,,*56
06/06/2014	09:06:20.899	$GPGGA,090620,2441.1344,N,08107.6104,W,1,8,1.8,12,M,,M,,*53
06/06/2014	09:06:21.900	$GPGGA,090621,2441.1339,N,08107.6101,W,1,8,1.8,12,M,,M,,*5D
06/06/2014	09:06:22.931	$GPGGA,090622,2441.1334,N,08107.6098,W,1,8,1.8,12,M,,M,,*52
06/06/2014	09:06:23.973	$GPGGA,090623,2441.1329,N,08107.6096,W,1,8,1.8,12,M,,M,,*51
06/06/2014	09:06:25.004	$GPGGA,090624,2441.1323,N,08107.6093,W,1,8,1.8,12,M,,M,,*59
06/06/2014	09:06:26.050	$GPGGA,090625,2441.1317,N,08107.6091,W,1,8,1.8,12,M,,M,,*5D
06/06/2014	09:06:27.047	$GPGGA,090626,2441.1312,N,08107.6088,W,1,8,1.8,12,M,,M,,*53
06/06/2014	09:06:28.068	$GPGGA,090627,2441.1306,N,08107.6085,W,1,8,1.8,12,M,,M,,*5A
06/06/2014	09:06:29.130	$GPGGA,090628,2441.1301,N,08107.6083,W,1,8,1.8,12,M,,M,,*54
06/06/2014	09:06:30.161	$GPGGA,090629,2441.1293,N,08107.6080,W,1,8,1.8,12,M,,M,,*5C
06/06/2014	09:06:31.172	$GPGGA,090630,2441.1287,N,08107.6078,W,1,8,1.8,12,M,,M,,*56
06/06/2014	09:06:32.215	$GPGGA,090631,2441.1281,N,08107.6075,W,1,8,1.8,12,M,,M,,*5C
06/06/2014	09:06:33.256	$GPGGA,090632,2441.1274,N,08107.6073,W,1,8,1.8,12,M,,M,,*53
06/06/2014	09:06:34.277	$GPGGA,090633,2441.1268,N,08107.6070,W,1,8,1.8,12,M,,M,,*5C
06/06/2014	09:06:35.277	$GPGGA,090634,2441.1259,N,08107.6068,W,1,8,1.8,12,M,,M,,*50
06/06/2014	09:06:36.329	$GPGGA,090635,2441.1252,N,08107.6066,W,1,8,1.8,12,M,,M,,*54
06/06/2014	09:06:35.478	$GPGGA,090636,2441.1244,N,08107.6064,W,1,8,1.8,12,M,,M,,*52
06/06/2014	09:06:36.518	$GPGGA,090637,2441.1236,N,08107.6063,W,1,8,1.8,11,M,,M,,*52
06/06/2014	09:06:37.519	$GPGGA,090638,2441.1228,N,08107.6061,W,1,8,1.8,11,M,,M,,*50
06/06/2014	09:06:38.581	$GPGGA,090639,2441.1221,N,08107.6060,W,1,8,1.8,11,M,,M,,*59
06/06/2014	09:06:39.592	$GPGGA,090640,2441.1212,N,08107.6059,W,1,8,1.8,11,M,,M,,*5D
06/06/2014	09:06:40.634	$GPGGA,090641,2441.1204,N,08107.6058,W,1,8,1.8,11,M,,M,,*5A
06/06/2014	09:06:41.634	$GPGGA,090642,2441.1196,N,08107.6059,W,1,8,1.8,11,M,,M,,*50
06/06/2014	09:06:42.665	$GPGGA,090643,2441.1187,N,08107.6058,W,1,8,1.8,11,M,,M,,*50
06/06/2014	09:06:43.707	$GPGGA,090644,2441.1178,N,08107.6059,W,1,8,1.8,11,M,,M,,*56
06/06/2014	09:06:44.759	$GPGGA,090645,2441.1171,N,08107.6059,W,1,8,1.8,11,M,,M,,*5E
06/06/2014	09:06:45.760	$GPGGA,090646,2441.1161,N,08107.6059,W,1,8,1.8,11,M,,M,,*5C
06/06/2014	09:06:46.781	$GPGGA,090647,2441.1152,N,08107.6060,W,1,8,1.8,11,M,,M,,*57
06/06/2014	09:06:47.843	$GPGGA,090648,2441.1144,N,08107.6062,W,1,8,1.8,11,M,,M,,*5D
06/06/2014	09:06:48.854	$GPGGA,090649,2441.1135,N,08107.6063,W,1,8,1.8,11,M,,M,,*5B
06/06/2014	09:06:49.875	$GPGGA,090650,2441.1126,N,08107.6064,W,1,8,1.8,11,M,,M,,*56
06/06/2014	09:06:50.917	$GPGGA,090651,2441.1116,N,08107.6066,W,1,8,1.8,11,M,,M,,*56
06/06/2014	09:06:51.948	$GPGGA,090652,2441.1109,N,08107.6069,W,1,8,1.8,11,M,,M,,*54
06/06/2014	09:06:52.948	$GPGGA,090653,2441.1098,N,08107.6071,W,1,8,1.8,11,M,,M,,*55
06/06/2014	09:06:54.103	$GPGGA,090654,2441.1089,N,08107.6073,W,1,8,1.8,11,M,,M,,*50
06/06/2014	09:06:55.021	$GPGGA,090655,2441.1080,N,08107.6077,W,1,8,1.8,11,M,,M,,*5C
06/06/2014	09:06:56.177	$GPGGA,090656,2441.1071,N,08107.6080,W,1,8,1.8,11,M,,M,,*59
06/06/2014	09:06:57.083	$GPGGA,090657,2441.1062,N,08107.6084,W,1,8,1.8,11,M,,M,,*5E
06/06/2014	09:06:58.105	$GPGGA,090658,2441.1053,N,08107.6087,W,1,8,1.8,11,M,,M,,*50
06/06/2014	09:06:59.126	$GPGGA,090659,2441.1044,N,08107.6091,W,1,8,1.8,11,M,,M,,*50
06/06/2014	09:07:00.301	$GPGGA,090700,2441.1035,N,08107.6095,W,1,8,1.8,11,M,,M,,*5F
06/06/2014	09:07:01.219	$GPGGA,090701,2441.1026,N,08107.6099,W,1,8,1.8,11,M,,M,,*50
06/06/2014	09:07:02.230	$GPGGA,090702,2441.1016,N,08107.6103,W,1,8,1.8,11,M,,M,,*52
06/06/2014	09:07:03.261	$GPGGA,090703,2441.1006,N,08107.6109,W,1,8,1.8,11,M,,M,,*58
06/06/2014	09:07:04.406	$GPGGA,090704,2441.0997,N,08107.6113,W,1,8,1.8,11,M,,M,,*54
06/06/2014	09:07:05.315	$GPGGA,090705,2441.0987,N,08107.6120,W,1,8,1.8,11,M,,M,,*54
06/06/2014	09:07:06.448	$GPGGA,090706,2441.0977,N,08107.6124,W,1,8,1.8,11,M,,M,,*5C
06/06/2014	09:07:07.490	$GPGGA,090707,2441.0967,N,08107.6131,W,1,8,1.8,11,M,,M,,*58
06/06/2014	09:07:08.511	$GPGGA,090708,2441.0957,N,08107.6135,W,1,8,1.8,11,M,,M,,*50
06/06/2014	09:07:09.532	$GPGGA,090709,2441.0947,N,08107.6142,W,1,8,1.8,11,M,,M,,*50
06/06/2014	09:07:10.553	$GPGGA,090710,2441.0936,N,08107.6147,W,1,8,1.8,11,M,,M,,*5B
06/06/2014	09:07:11.606	$GPGGA,090711,2441.0926,N,08107.6153,W,1,8,1.8,11,M,,M,,*5E
06/06/2014	09:07:12.615	$GPGGA,090712,2441.0915,N,08107.6160,W,1,8,1.8,11,M,,M,,*5D
06/06/2014	09:07:13.657	$GPGGA,090713,2441.0904,N,08107.6165,W,1,8,1.8,11,M,,M,,*59
06/06/2014	09:07:14.678	$GPGGA,090714,2441.0893,N,08107.6172,W,1,8,1.8,11,M,,M,,*57
06/06/2014	09:07:15.720	$GPGGA,090715,2441.0882,N,08107.6178,W,1,8,1.8,11,M,,M,,*5C
06/06/2014	09:07:16.741	$GPGGA,090716,2441.0871,N,08107.6185,W,1,8,1.8,11,M,,M,,*51
06/06/2014	09:07:17.782	$GPGGA,090717,2441.0860,N,08107.6192,W,1,8,1.8,11,M,,M,,*56
06/06/2014	09:07:18.793	$GPGGA,090718,2441.0849,N,08107.6197,W,1,8,1.8,11,M,,M,,*57
06/06/2014	09:07:19.835	$GPGGA,090719,2441.0838,N,08107.6204,W,1,8,1.8,11,M,,M,,*59
06/06/2014	09:07:20.866	$GPGGA,090720,2441.0826,N,08107.6210,W,1,8,1.8,11,M,,M,,*59
06/06/2014	09:07:21.898	$GPGGA,090721,2441.0814,N,08107.6217,W,1,8,1.8,11,M,,M,,*5E
06/06/2014	09:07:22.909	$GPGGA,090722,2441.0803,N,08107.6223,W,1,8,1.8,11,M,,M,,*5C
06/06/2014	09:07:23.961	$GPGGA,090723,2441.0792,N,08107.6230,W,1,8,1.8,11,M,,M,,*58
06/06/2014	09:07:24.982	$GPGGA,090724,2441.0780,N,08107.6236,W,1,8,1.8,11,M,,M,,*5A
06/06/2014	09:07:26.013	$GPGGA,090725,2441.0768,N,08107.6243,W,1,8,1.8,11,M,,M,,*5F
06/06/2014	09:07:27.015	$GPGGA,090726,2441.0757,N,08107.6250,W,1,8,1.8,11,M,,M,,*52
06/06/2014	09:07:28.045	$GPGGA,090727,2441.0745,N,08107.6257,W,1,8,1.8,11,M,,M,,*57
06/06/2014	09:07:29.097	$GPGGA,090728,2441.0734,N,08107.6264,W,1,8,1.8,11,M,,M,,*5E
06/06/2014	09:07:30.138	$GPGGA,090729,2441.0723,N,08107.6270,W,1,8,1.8,11,M,,M,,*5C
06/06/2014	09:07:31.128	$GPGGA,090730,2441.0710,N,08107.6277,W,1,8,1.8,11,M,,M,,*53
06/06/2014	09:07:32.200	$GPGGA,090731,2441.0698,N,08107.6283,W,1,8,1.8,11,M,,M,,*58
06/06/2014	09:07:33.211	$GPGGA,090732,2441.0686,N,08107.6290,W,1,8,1.8,11,M,,M,,*56
06/06/2014	09:07:34.222	$GPGGA,090733,2441.0676,N,08107.6297,W,1,8,1.8,11,M,,M,,*5F
06/06/2014	09:07:35.264	$GPGGA,090734,2441.0665,N,08107.6304,W,1,8,1.8,11,M,,M,,*51
06/06/2014	09:07:36.305	$GPGGA,090735,2441.0652,N,08107.6311,W,1,8,1.8,11,M,,M,,*50
06/06/2014	09:07:35.444	$GPGGA,090736,2441.0640,N,08107.6318,W,1,8,1.8,11,M,,M,,*59
06/06/2014	09:07:36.588	$GPGGA,090737,2441.0629,N,08107.6324,W,1,8,1.8,11,M,,M,,*58
06/06/2014	09:07:37.486	$GPGGA,090738,2441.0616,N,08107.6331,W,1,8,1.8,11,M,,M,,*5F
06/06/2014	09:07:38.620	$GPGGA,090739,2441.0604,N,08107.6337,W,1,8,1.8,11,M,,M,,*5B
06/06/2014	09:07:39.569	$GPGGA,090740,2441.0592,N,08107.6344,W,1,8,1.8,11,M,,M,,*5D
06/06/2014	09:07:40.570	$GPGGA,090741,2441.0580,N,08107.6351,W,1,8,1.8,11,M,,M,,*5B
06/06/2014	09:07:41.725	$GPGGA,090742,2441.0568,N,08107.6358,W,1,8,1.8,11,M,,M,,*57
06/06/2014	09:07:42.643	$GPGGA,090743,2441.0556,N,08107.6366,W,1,8,1.8,11,M,,M,,*56
06/06/2014	09:07:43.684	$GPGGA,090744,2441.0544,N,08107.6371,W,1,8,1.8,11,M,,M,,*54
06/06/2014	09:07:44.685	$GPGGA,090745,2441.0532,N,08107.6378,W,1,8,1.8,11,M,,M,,*5D
06/06/2014	09:07:45.841	$GPGGA,090746,2441.0520,N,08107.6385,W,1,8,1.8,11,M,,M,,*5F
06/06/2014	09:07:46.860	$GPGGA,090747,2441.0508,N,08107.6391,W,1,8,1.8,11,M,,M,,*51
06/06/2014	09:07:47.809	$GPGGA,090748,2441.0496,N,08107.6398,W,1,8,1.8,11,M,,M,,*51
06/06/2014	09:07:48.820	$GPGGA,090749,2441.0484,N,08107.6405,W,1,8,1.8,11,M,,M,,*50
06/06/2014	09:07:49.934	$GPGGA,090750,2441.0471,N,08107.6413,W,1,8,1.8,11,M,,M,,*55
06/06/2014	09:07:50.872	$GPGGA,090751,2441.0459,N,08107.6418,W,1,8,1.8,11,M,,M,,*55
06/06/2014	09:07:51.904	$GPGGA,090752,2441.0448,N,08107.6425,W,1,8,1.8,11,M,,M,,*58
06/06/2014	09:07:53.048	$GPGGA,090753,2441.0435,N,08107.6431,W,1,8,1.8,11,M,,M,,*56
06/06/2014	09:07:54.070	$GPGGA,090754,2441.0423,N,08107.6438,W,1,8,1.8,11,M,,M,,*5F
06/06/2014	09:07:55.080	$GPGGA,090755,2441.0412,N,08107.6445,W,1,8,1.8,11,M,,M,,*56
06/06/2014	09:07:56.132	$GPGGA,090756,2441.0399,N,08107.6450,W,1,8,1.8,11,M,,M,,*55
06/06/2014	09:07:57.153	$GPGGA,090757,2441.0387,N,08107.6456,W,1,8,1.8,11,M,,M,,*5D
06/06/2014	09:07:58.185	$GPGGA,090758,2441.0376,N,08107.6463,W,1,8,1.8,11,M,,M,,*5A
06/06/2014	09:07:59.227	$GPGGA,090759,2441.0363,N,08107.6470,W,1,8,1.8,11,M,,M,,*5D
06/06/2014	09:08:00.264	$GPGGA,090800,2441.0351,N,08107.6475,W,1,8,1.8,11,M,,M,,*5A
06/06/2014	09:08:01.289	$GPGGA,090801,2441.0340,N,08107.6481,W,1,8,1.8,11,M,,M,,*50
06/06/2014	09:08:02.291	$GPGGA,090802,2441.0326,N,08107.6488,W,1,8,1.8,11,M,,M,,*5A
06/06/2014	09:08:03.353	$GPGGA,090803,2441.0314,N,08107.6495,W,1,8,1.8,11,M,,M,,*56
06/06/2014	09:08:04.362	$GPGGA,090804,2441.0302,N,08107.6500,W,1,8,1.8,11,M,,M,,*5B
06/06/2014	09:08:05.418	$GPGGA,090805,2441.0290,N,08107.6507,W,1,8,1.8,11,M,,M,,*57
06/06/2014	09:08:06.404	$GPGGA,090806,2441.0278,N,08107.6514,W,1,8,1.8,11,M,,M,,*50
06/06/2014	09:08:07.456	$GPGGA,090807,2441.0265,N,08107.6519,W,1,8,1.8,11,M,,M,,*50
06/06/2014	09:08:08.477	$GPGGA,090808,2441.0253,N,08107.6525,W,1,8,1.8,11,M,,M,,*55
06/06/2014	09:08:09.509	$GPGGA,090809,2441.0242,N,08107.6532,W,1,8,1.8,11,M,,M,,*52
06/06/2014	09:08:10.530	$GPGGA,090810,2441.0228,N,08107.6537,W,1,8,1.8,11,M,,M,,*53
06/06/2014	09:08:11.551	$GPGGA,090811,2441.0217,N,08107.6543,W,1,8,1.8,11,M,,M,,*5D
06/06/2014	09:08:12.603	$GPGGA,090812,2441.0203,N,08107.6550,W,1,8,1.8,11,M,,M,,*59
06/06/2014	09:08:13.645	$GPGGA,090813,2441.0190,N,08107.6555,W,1,8,1.8,11,M,,M,,*54
06/06/2014	09:08:14.666	$GPGGA,090814,2441.0178,N,08107.6561,W,1,8,1.8,11,M,,M,,*52
06/06/2014	09:08:15.707	$GPGGA,090815,2441.0165,N,08107.6568,W,1,8,1.8,11,M,,M,,*56
06/06/2014	09:08:16.728	$GPGGA,090816,2441.0153,N,08107.6575,W,1,8,1.8,11,M,,M,,*5C
06/06/2014	09:08:17.739	$GPGGA,090817,2441.0141,N,08107.6580,W,1,8,1.8,11,M,,M,,*54
06/06/2014	09:08:18.771	$GPGGA,090818,2441.0128,N,08107.6587,W,1,8,1.8,11,M,,M,,*53
06/06/2014	09:08:19.781	$GPGGA,090819,2441.0116,N,08107.6593,W,1,8,1.8,11,M,,M,,*5A
06/06/2014	09:08:20.833	$GPGGA,090820,2441.0105,N,08107.6600,W,1,8,1.8,11,M,,M,,*5B
06/06/2014	09:08:21.854	$GPGGA,090821,2441.0091,N,08107.6608,W,1,8,1.8,11,M,,M,,*5E
06/06/2014	09:08:22.875	$GPGGA,090822,2441.0079,N,08107.6613,W,1,8,1.8,11,M,,M,,*51
06/06/2014	09:08:24.019	$GPGGA,090823,2441.0067,N,08107.6620,W,1,8,1.8,11,M,,M,,*5F
06/06/2014	09:08:24.937	$GPGGA,090824,2441.0054,N,08107.6627,W,1,8,1.8,11,M,,M,,*5F
06/06/2014	09:08:25.969	$GPGGA,090825,2441.0042,N,08107.6633,W,1,8,1.8,11,M,,M,,*5C
06/06/2014	09:08:27.000	$GPGGA,090826,2441.0030,N,08107.6640,W,1,8,1.8,11,M,,M,,*5E
06/06/2014	09:08:28.114	$GPGGA,090827,2441.0018,N,08107.6647,W,1,8,1.8,11,M,,M,,*52
06/06/2014	09:08:29.073	$GPGGA,090828,2441.0005,N,08107.6654,W,1,8,1.8,11,M,,M,,*53
06/06/2014	09:08:30.074	$GPGGA,090829,2440.9994,N,08107.6660,W,1,8,1.8,11,M,,M,,*5C
06/06/2014	09:08:31.126	$GPGGA,090830,2440.9982,N,08107.6667,W,1,8,1.8,11,M,,M,,*54
06/06/2014	09:08:32.157	$GPGGA,090831,2440.9969,N,08107.6674,W,1,8,1.8,11,M,,M,,*52
06/06/2014	09:08:33.199	$GPGGA,090832,2440.9957,N,08107.6681,W,1,8,1.8,11,M,,M,,*56
06/06/2014	09:08:34.189	$GPGGA,090833,2440.9946,N,08107.6688,W,1,8,1.8,11,M,,M,,*5E
06/06/2014	09:08:35.241	$GPGGA,090834,2440.9933,N,08107.6694,W,1,8,1.8,11,M,,M,,*56
06/06/2014	09:08:36.272	$GPGGA,090835,2440.9921,N,08107.6702,W,1,8,1.8,11,M,,M,,*5A
06/06/2014	09:08:35.422	$GPGGA,090836,2440.9908,N,08107.6709,W,1,8,1.8,11,M,,M,,*59
06/06/2014	09:08:36.435	$GPGGA,090837,2440.9896,N,08107.6716,W,1,8,1.8,11,M,,M,,*50
06/06/2014	09:08:37.558	$GPGGA,090838,2440.9884,N,08107.6723,W,1,8,2.5,11,M,,M,,*54
06/06/2014	09:08:38.494	$GPGGA,090839,2440.9875,N,08107.6732,W,1,7,2.5,11,M,,M,,*54
06/06/2014	09:08:39.639	$GPGGA,090840,2440.9865,N,08107.6739,W,1,7,1.8,11,M,,M,,*5E
06/06/2014	09:08:40.665	$GPGGA,090841,2440.9854,N,08107.6749,W,1,8,1.8,11,M,,M,,*55
06/06/2014	09:08:41.681	$GPGGA,090842,2440.9845,N,08107.6756,W,1,8,1.8,11,M,,M,,*58
06/06/2014	09:08:42.713	$GPGGA,090843,2440.9831,N,08107.6763,W,1,8,1.8,11,M,,M,,*5C
06/06/2014	09:08:43.755	$GPGGA,090844,2440.9820,N,08107.6770,W,1,8,1.8,11,M,,M,,*59
06/06/2014	09:08:44.776	$GPGGA,090845,2440.9809,N,08107.6777,W,1,8,1.8,11,M,,M,,*54
06/06/2014	09:08:45.797	$GPGGA,090846,2440.9796,N,08107.6785,W,1,8,1.8,11,M,,M,,*53
06/06/2014	09:08:46.838	$GPGGA,090847,2440.9784,N,08107.6793,W,1,8,1.8,11,M,,M,,*56
06/06/2014	09:08:47.871	$GPGGA,090848,2440.9773,N,08107.6800,W,1,8,1.8,11,M,,M,,*54
06/06/2014	09:08:48.891	$GPGGA,090849,2440.9762,N,08107.6807,W,1,8,1.8,11,M,,M,,*52
06/06/2014	09:08:49.912	$GPGGA,090850,2440.9749,N,08107.6815,W,1,8,1.8,11,M,,M,,*50
06/06/2014	09:08:50.964	$GPGGA,090851,2440.9737,N,08107.6824,W,1,8,1.8,11,M,,M,,*5A
06/06/2014	09:08:51.986	$GPGGA,090852,2440.9725,N,08107.6831,W,1,8,1.8,11,M,,M,,*5E
06/06/2014	09:08:52.996	$GPGGA,090853,2440.9715,N,08107.6839,W,1,8,1.8,12,M,,M,,*57
06/06/2014	09:08:54.038	$GPGGA,090854,2440.9701,N,08107.6846,W,1,8,1.8,12,M,,M,,*5D
06/06/2014	09:08:55.090	$GPGGA,090855,2440.9689,N,08107.6853,W,1,8,1.8,12,M,,M,,*59
06/06/2014	09:08:56.100	$GPGGA,090856,2440.9678,N,08107.6861,W,1,8,1.8,12,M,,M,,*55
06/06/2014	09:08:57.141	$GPGGA,090857,2440.9666,N,08107.6869,W,1,8,1.8,12,M,,M,,*53
06/06/2014	09:08:58.152	$GPGGA,090858,2440.9654,N,08107.6876,W,1,8,1.8,12,M,,M,,*53
06/06/2014	09:08:59.204	$GPGGA,090859,2440.9642,N,08107.6884,W,1,8,1.8,12,M,,M,,*58
06/06/2014	09:09:00.225	$GPGGA,090900,2440.9630,N,08107.6893,W,1,8,1.8,12,M,,M,,*56
06/06/2014	09:09:01.225	$GPGGA,090901,2440.9618,N,08107.6900,W,1,8,1.8,12,M,,M,,*56
06/06/2014	09:09:02.277	$GPGGA,090902,2440.9607,N,08107.6908,W,1,8,1.8,12,M,,M,,*53
06/06/2014	09:09:03.329	$GPGGA,090903,2440.9594,N,08107.6915,W,1,8,1.8,12,M,,M,,*57
06/06/2014	09:09:04.330	$GPGGA,090904,2440.9582,N,08107.6922,W,1,8,1.8,12,M,,M,,*53
06/06/2014	09:09:05.372	$GPGGA,090905,2440.9571,N,08107.6930,W,1,8,1.8,12,M,,M,,*5D
06/06/2014	09:09:06.372	$GPGGA,090906,2440.9559,N,08107.6937,W,1,8,1.8,12,M,,M,,*53
06/06/2014	09:09:07.445	$GPGGA,090907,2440.9547,N,08107.6945,W,1,8,1.8,12,M,,M,,*58
06/06/2014	09:09:08.456	$GPGGA,090908,2440.9534,N,08107.6954,W,1,8,1.8,12,M,,M,,*53
06/06/2014	09:09:09.477	$GPGGA,090909,2440.9523,N,08107.6962,W,1,8,1.8,12,M,,M,,*51
06/06/2014	09:09:10.498	$GPGGA,090910,2440.9509,N,08107.6969,W,1,8,1.8,12,M,,M,,*5A
06/06/2014	09:09:11.529	$GPGGA,090911,2440.9496,N,08107.6977,W,1,8,1.8,12,M,,M,,*53
06/06/2014	09:09:12.571	$GPGGA,090912,2440.9482,N,08107.6985,W,1,8,1.8,12,M,,M,,*58
06/06/2014	09:09:13.582	$GPGGA,090913,2440.9469,N,08107.6994,W,1,8,1.8,12,M,,M,,*5C
06/06/2014	09:09:14.736	$GPGGA,090914,2440.9456,N,08107.7002,W,1,8,1.8,12,M,,M,,*50
06/06/2014	09:09:15.664	$GPGGA,090915,2440.9442,N,08107.7010,W,1,8,1.8,12,M,,M,,*57
06/06/2014	09:09:16.706	$GPGGA,090916,2440.9427,N,08107.7020,W,1,8,1.8,12,M,,M,,*54
06/06/2014	09:09:17.727	$GPGGA,090917,2440.9413,N,08107.7027,W,1,8,1.8,12,M,,M,,*55
06/06/2014	09:09:18.738	$GPGGA,090918,2440.9399,N,08107.7035,W,1,8,1.8,12,M,,M,,*5C
06/06/2014	09:09:19.759	$GPGGA,090919,2440.9384,N,08107.7045,W,1,8,1.8,12,M,,M,,*56
06/06/2014	09:09:20.914	$GPGGA,090920,2440.9369,N,08107.7053,W,1,8,1.8,12,M,,M,,*58
06/06/2014	09:09:21.811	$GPGGA,090921,2440.9354,N,08107.7061,W,1,8,1.8,12,M,,M,,*56
06/06/2014	09:09:22.958	$GPGGA,090922,2440.9339,N,08107.7070,W,1,8,1.8,12,M,,M,,*5E
06/06/2014	09:09:23.977	$GPGGA,090923,2440.9323,N,08107.7078,W,1,8,1.8,12,M,,M,,*5C
06/06/2014	09:09:24.916	$GPGGA,090924,2440.9308,N,08107.7086,W,1,8,1.8,12,M,,M,,*53
06/06/2014	09:09:26.051	$GPGGA,090925,2440.9292,N,08107.7095,W,1,8,1.8,12,M,,M,,*52
06/06/2014	09:09:26.968	$GPGGA,090926,2440.9276,N,08107.7103,W,1,8,1.8,12,M,,M,,*55
06/06/2014	09:09:28.123	$GPGGA,090927,2440.9261,N,08107.7110,W,1,8,1.8,12,M,,M,,*50
06/06/2014	09:09:29.144	$GPGGA,090928,2440.9245,N,08107.7120,W,1,8,1.8,12,M,,M,,*5A
06/06/2014	09:09:30.182	$GPGGA,090929,2440.9228,N,08107.7128,W,1,8,1.8,12,M,,M,,*58
06/06/2014	09:09:31.187	$GPGGA,090930,2440.9212,N,08107.7135,W,1,8,1.8,12,M,,M,,*55
06/06/2014	09:09:32.218	$GPGGA,090931,2440.9195,N,08107.7143,W,1,8,1.8,12,M,,M,,*59
06/06/2014	09:09:33.279	$GPGGA,090932,2440.9180,N,08107.7151,W,1,8,1.8,12,M,,M,,*5D
06/06/2014	09:09:34.290	$GPGGA,090933,2440.9162,N,08107.7158,W,1,8,1.8,12,M,,M,,*59
06/06/2014	09:09:35.311	$GPGGA,090934,2440.9145,N,08107.7167,W,1,8,1.8,12,M,,M,,*57
06/06/2014	09:09:36.354	$GPGGA,090935,2440.9128,N,08107.7173,W,1,8,1.8,12,M,,M,,*58
06/06/2014	09:09:35.501	$GPGGA,090936,2440.9112,N,08107.7182,W,1,8,1.8,12,M,,M,,*5C
06/06/2014	09:09:36.522	$GPGGA,090937,2440.9095,N,08107.7189,W,1,8,1.8,12,M,,M,,*58
06/06/2014	09:09:37.533	$GPGGA,090938,2440.9079,N,08107.7197,W,1,8,1.8,12,M,,M,,*5A
06/06/2014	09:09:38.586	$GPGGA,090939,2440.9061,N,08107.7205,W,1,8,1.8,12,M,,M,,*5A
06/06/2014	09:09:39.606	$GPGGA,090940,2440.9045,N,08107.7212,W,1,8,1.8,12,M,,M,,*54
06/06/2014	09:09:40.648	$GPGGA,090941,2440.9028,N,08107.7220,W,1,8,1.8,12,M,,M,,*5F
06/06/2014	09:09:41.659	$GPGGA,090942,2440.9011,N,08107.7229,W,1,8,1.8,12,M,,M,,*5F
06/06/2014	09:09:42.712	$GPGGA,090943,2440.8994,N,08107.7236,W,1,8,1.8,12,M,,M,,*55
06/06/2014	09:09:43.732	$GPGGA,090944,2440.8978,N,08107.7243,W,1,8,1.8,12,M,,M,,*52
06/06/2014	09:09:44.763	$GPGGA,090945,2440.8960,N,08107.7251,W,1,8,1.8,12,M,,M,,*59
06/06/2014	09:09:45.774	$GPGGA,090946,2440.8945,N,08107.7259,W,1,8,1.8,12,M,,M,,*55
06/06/2014	09:09:46.795	$GPGGA,090947,2440.8927,N,08107.7267,W,1,8,1.8,12,M,,M,,*5D
06/06/2014	09:09:47.838	$GPGGA,090948,2440.8910,N,08107.7276,W,1,8,1.8,12,M,,M,,*56
06/06/2014	09:09:48.889	$GPGGA,090949,2440.8893,N,08107.7283,W,1,8,1.8,12,M,,M,,*57
06/06/2014	09:09:49.878	$GPGGA,090950,2440.8876,N,08107.7291,W,1,8,1.8,11,M,,M,,*54
06/06/2014	09:09:50.926	$GPGGA,090951,2440.8860,N,08107.7299,W,1,8,1.8,11,M,,M,,*5A
06/06/2014	09:09:51.929	$GPGGA,090952,2440.8844,N,08107.7308,W,1,8,1.8,11,M,,M,,*56
06/06/2014	09:09:52.922	$GPGGA,090953,2440.8826,N,08107.7316,W,1,8,1.8,11,M,,M,,*5C
06/06/2014	09:09:53.955	$GPGGA,090954,2440.8809,N,08107.7326,W,1,8,1.8,11,M,,M,,*55
06/06/2014	09:09:54.948	$GPGGA,090955,2440.8792,N,08107.7334,W,1,8,1.8,11,M,,M,,*5A
06/06/2014	09:09:56.102	$GPGGA,090956,2440.8775,N,08107.7342,W,1,8,1.8,11,M,,M,,*51
06/06/2014	09:09:56.973	$GPGGA,090957,2440.8758,N,08107.7352,W,1,8,1.8,11,M,,M,,*5E
06/06/2014	09:09:58.088	$GPGGA,090958,2440.8743,N,08107.7361,W,1,8,1.8,11,M,,M,,*5B
06/06/2014	09:09:59.020	$GPGGA,090959,2440.8725,N,08107.7370,W,1,8,1.8,11,M,,M,,*5A
06/06/2014	09:10:00.043	$GPGGA,091000,2440.8708,N,08107.7381,W,1,8,1.8,11,M,,M,,*5F
06/06/2014	09:10:01.025	$GPGGA,091001,2440.8691,N,08107.7391,W,1,8,1.8,11,M,,M,,*5E
06/06/2014	09:10:02.139	$GPGGA,091002,2440.8674,N,08107.7402,W,1,8,1.8,11,M,,M,,*5B
06/06/2014	09:10:03.162	$GPGGA,091003,2440.8657,N,08107.7411,W,1,8,1.8,11,M,,M,,*59
06/06/2014	09:10:04.084	$GPGGA,091004,2440.8640,N,08107.7422,W,1,8,1.8,11,M,,M,,*58
06/06/2014	09:10:05.056	$GPGGA,091005,2440.8624,N,08107.7433,W,1,8,1.8,11,M,,M,,*5B
06/06/2014	09:10:06.180	$GPGGA,091006,2440.8607,N,08107.7444,W,1,8,1.8,11,M,,M,,*59
06/06/2014	09:10:07.091	$GPGGA,091007,2440.8591,N,08107.7456,W,1,8,1.8,11,M,,M,,*57
06/06/2014	09:10:08.216	$GPGGA,091008,2440.8573,N,08107.7467,W,1,8,1.8,11,M,,M,,*56
06/06/2014	09:10:09.208	$GPGGA,091009,2440.8556,N,08107.7478,W,1,8,1.8,11,M,,M,,*5E
06/06/2014	09:10:10.120	$GPGGA,091010,2440.8539,N,08107.7489,W,1,8,1.8,11,M,,M,,*51
06/06/2014	09:10:11.133	$GPGGA,091011,2440.8523,N,08107.7500,W,1,8,1.8,11,M,,M,,*5B
06/06/2014	09:10:12.247	$GPGGA,091012,2440.8506,N,08107.7511,W,1,8,1.8,11,M,,M,,*5F
06/06/2014	09:10:13.148	$GPGGA,091013,2440.8488,N,08107.7522,W,1,8,1.8,11,M,,M,,*59
06/06/2014	09:10:14.242	$GPGGA,091014,2440.8472,N,08107.7533,W,1,8,1.8,11,M,,M,,*5B
06/06/2014	09:10:15.255	$GPGGA,091015,2440.8454,N,08107.7545,W,1,8,1.8,11,M,,M,,*5F
06/06/2014	09:10:16.278	$GPGGA,091016,2440.8436,N,08107.7556,W,1,8,1.8,11,M,,M,,*5A
06/06/2014	09:10:17.281	$GPGGA,091017,2440.8419,N,08107.7568,W,1,8,1.8,11,M,,M,,*5B
06/06/2014	09:10:18.294	$GPGGA,091018,2440.8401,N,08107.7579,W,1,8,1.8,11,M,,M,,*5D
06/06/2014	09:10:19.297	$GPGGA,091019,2440.8385,N,08107.7591,W,1,8,1.8,11,M,,M,,*51
06/06/2014	09:10:20.330	$GPGGA,091020,2440.8367,N,08107.7602,W,1,8,1.8,11,M,,M,,*5E
06/06/2014	09:10:21.344	$GPGGA,091021,2440.8349,N,08107.7613,W,1,8,1.8,11,M,,M,,*53
06/06/2014	09:10:22.335	$GPGGA,091022,2440.8332,N,08107.7626,W,1,8,1.8,11,M,,M,,*5A
06/06/2014	09:10:23.369	$GPGGA,091023,2440.8314,N,08107.7637,W,1,8,1.8,11,M,,M,,*5F
06/06/2014	09:10:24.371	$GPGGA,091024,2440.8297,N,08107.7648,W,1,8,1.8,11,M,,M,,*5A
06/06/2014	09:10:25.383	$GPGGA,091025,2440.8280,N,08107.7659,W,1,8,1.8,11,M,,M,,*5D
06/06/2014	09:10:26.376	$GPGGA,091026,2440.8262,N,08107.7670,W,1,8,1.8,11,M,,M,,*59
06/06/2014	09:10:27.409	$GPGGA,091027,2440.8245,N,08107.7682,W,1,8,1.8,11,M,,M,,*50
06/06/2014	09:10:28.412	$GPGGA,091028,2440.8228,N,08107.7693,W,1,8,1.8,11,M,,M,,*54
06/06/2014	09:10:29.435	$GPGGA,091029,2440.8210,N,08107.7704,W,1,8,1.8,11,M,,M,,*51
06/06/2014	09:10:30.428	$GPGGA,091030,2440.8192,N,08107.7715,W,1,8,1.8,11,M,,M,,*50
06/06/2014	09:10:31.461	$GPGGA,091031,2440.8174,N,08107.7727,W,1,8,1.8,11,M,,M,,*58
06/06/2014	09:10:32.484	$GPGGA,091032,2440.8158,N,08107.7738,W,1,8,1.8,11,M,,M,,*5B
06/06/2014	09:10:33.446	$GPGGA,091033,2440.8139,N,08107.7749,W,1,8,1.8,11,M,,M,,*5B
06/06/2014	09:10:34.469	$GPGGA,091034,2440.8122,N,08107.7760,W,1,8,1.8,11,M,,M,,*5D
06/06/2014	09:10:35.462	$GPGGA,091035,2440.8104,N,08107.7771,W,1,8,1.8,11,M,,M,,*58
06/06/2014	09:10:35.455	$GPGGA,091036,2440.8086,N,08107.7782,W,1,8,1.8,11,M,,M,,*5C
06/06/2014	09:10:36.458	$GPGGA,091037,2440.8068,N,08107.7792,W,1,8,1.8,11,M,,M,,*5C
06/06/2014	09:10:37.471	$GPGGA,091038,2440.8051,N,08107.7803,W,1,8,1.8,11,M,,M,,*5E
06/06/2014	09:10:38.504	$GPGGA,091039,2440.8033,N,08107.7812,W,1,8,1.8,11,M,,M,,*5B
06/06/2014	09:10:39.497	$GPGGA,091040,2440.8015,N,08107.7823,W,1,8,1.8,11,M,,M,,*53
06/06/2014	09:10:40.489	$GPGGA,091041,2440.7997,N,08107.7833,W,1,8,1.8,11,M,,M,,*5F
06/06/2014	09:10:41.522	$GPGGA,091042,2440.7980,N,08107.7844,W,1,8,1.8,11,M,,M,,*5A
06/06/2014	09:10:42.524	$GPGGA,091043,2440.7962,N,08107.7854,W,1,8,1.8,11,M,,M,,*56
06/06/2014	09:10:43.659	$GPGGA,091044,2440.7944,N,08107.7865,W,1,8,1.8,11,M,,M,,*57
06/06/2014	09:10:44.651	$GPGGA,091045,2440.7926,N,08107.7874,W,1,8,1.8,11,M,,M,,*52
06/06/2014	09:10:45.553	$GPGGA,091046,2440.7908,N,08107.7884,W,1,8,1.8,11,M,,M,,*52
06/06/2014	09:10:46.566	$GPGGA,091047,2440.7890,N,08107.7894,W,1,8,1.8,11,M,,M,,*52
06/06/2014	09:10:47.589	$GPGGA,091048,2440.7872,N,08107.7905,W,1,8,1.8,11,M,,M,,*58
06/06/2014	09:10:48.592	$GPGGA,091049,2440.7854,N,08107.7915,W,1,8,1.8,11,M,,M,,*5C
06/06/2014	09:10:49.706	$GPGGA,091050,2440.7836,N,08107.7923,W,1,8,1.8,11,M,,M,,*55
06/06/2014	09:10:50.597	$GPGGA,091051,2440.7818,N,08107.7934,W,1,8,1.8,11,M,,M,,*5E
06/06/2014	09:10:51.772	$GPGGA,091052,2440.7800,N,08107.7944,W,1,8,1.8,11,M,,M,,*53
06/06/2014	09:10:52.624	$GPGGA,091053,2440.7782,N,08107.7952,W,1,8,1.8,11,M,,M,,*50
06/06/2014	09:10:53.646	$GPGGA,091054,2440.7762,N,08107.7962,W,1,8,1.8,11,M,,M,,*5A
06/06/2014	09:10:54.659	$GPGGA,091055,2440.7744,N,08107.7973,W,1,8,1.8,11,M,,M,,*5F
06/06/2014	09:10:55.773	$GPGGA,091056,2440.7725,N,08107.7981,W,1,8,1.8,11,M,,M,,*56
06/06/2014	09:10:56.786	$GPGGA,091057,2440.7707,N,08107.7991,W,1,8,1.8,11,M,,M,,*56
06/06/2014	09:10:57.692	$GPGGA,091058,2440.7688,N,08107.8000,W,1,8,1.8,11,M,,M,,*51
06/06/2014	09:10:58.821	$GPGGA,091059,2440.7670,N,08107.8009,W,1,8,1.8,11,M,,M,,*5E
06/06/2014	09:10:59.743	$GPGGA,091100,2440.7652,N,08107.8018,W,1,8,1.8,11,M,,M,,*53
06/06/2014	09:11:00.837	$GPGGA,091101,2440.7634,N,08107.8028,W,1,8,1.8,11,M,,M,,*51
06/06/2014	09:11:01.829	$GPGGA,091102,2440.7616,N,08107.8038,W,1,8,1.8,11,M,,M,,*53
06/06/2014	09:11:02.832	$GPGGA,091103,2440.7598,N,08107.8046,W,1,8,1.8,11,M,,M,,*5E
06/06/2014	09:11:03.865	$GPGGA,091104,2440.7579,N,08107.8056,W,1,8,1.8,11,M,,M,,*57
06/06/2014	09:11:04.868	$GPGGA,091105,2440.7560,N,08107.8065,W,1,8,1.8,11,M,,M,,*5E
06/06/2014	09:11:05.871	$GPGGA,091106,2440.7542,N,08107.8074,W,1,8,1.8,11,M,,M,,*5D
06/06/2014	09:11:06.894	$GPGGA,091107,2440.7524,N,08107.8083,W,1,8,1.8,11,M,,M,,*54
06/06/2014	09:11:07.907	$GPGGA,091108,2440.7505,N,08107.8093,W,1,8,1.8,11,M,,M,,*59
06/06/2014	09:11:08.920	$GPGGA,091109,2440.7487,N,08107.8103,W,1,8,1.8,11,M,,M,,*5B
06/06/2014	09:11:09.912	$GPGGA,091110,2440.7468,N,08107.8112,W,1,8,1.8,11,M,,M,,*52
06/06/2014	09:11:10.935	$GPGGA,091111,2440.7450,N,08107.8121,W,1,8,1.8,11,M,,M,,*58
06/06/2014	09:11:11.948	$GPGGA,091112,2440.7431,N,08107.8132,W,1,8,1.8,11,M,,M,,*5E
06/06/2014	09:11:12.961	$GPGGA,091113,2440.7413,N,08107.8141,W,1,8,1.8,11,M,,M,,*5B
06/06/2014	09:11:13.954	$GPGGA,091114,2440.7395,N,08107.8150,W,1,8,1.8,11,M,,M,,*55
06/06/2014	09:11:14.987	$GPGGA,091115,2440.7376,N,08107.8159,W,1,8,1.8,11,M,,M,,*50
06/06/2014	09:11:15.989	$GPGGA,091116,2440.7359,N,08107.8169,W,1,8,1.8,11,M,,M,,*5D
06/06/2014	09:11:17.001	$GPGGA,091117,2440.7341,N,08107.8179,W,1,8,1.8,11,M,,M,,*54
06/06/2014	09:11:17.994	$GPGGA,091118,2440.7323,N,08107.8188,W,1,8,1.8,11,M,,M,,*51
06/06/2014	09:11:18.997	$GPGGA,091119,2440.7305,N,08107.8198,W,1,8,1.8,11,M,,M,,*55
06/06/2014	09:11:20.040	$GPGGA,091120,2440.7287,N,08107.8208,W,1,8,1.8,11,M,,M,,*5E
06/06/2014	09:11:21.023	$GPGGA,091121,2440.7269,N,08107.8217,W,1,8,1.8,11,M,,M,,*51
06/06/2014	09:11:22.036	$GPGGA,091122,2440.7251,N,08107.8227,W,1,8,1.8,11,M,,M,,*5A
06/06/2014	09:11:23.089	$GPGGA,091123,2440.7233,N,08107.8237,W,1,8,1.8,11,M,,M,,*5E
06/06/2014	09:11:24.071	$GPGGA,091124,2440.7215,N,08107.8248,W,1,8,1.8,11,M,,M,,*55
06/06/2014	09:11:25.074	$GPGGA,091125,2440.7197,N,08107.8256,W,1,8,1.8,11,M,,M,,*52
06/06/2014	09:11:26.077	$GPGGA,091126,2440.7178,N,08107.8267,W,1,8,1.8,11,M,,M,,*52
06/06/2014	09:11:27.120	$GPGGA,091127,2440.7160,N,08107.8277,W,1,8,1.8,11,M,,M,,*5B
06/06/2014	09:11:28.123	$GPGGA,091128,2440.7142,N,08107.8287,W,1,8,1.8,11,M,,M,,*5B
06/06/2014	09:11:29.116	$GPGGA,091129,2440.7124,N,08107.8298,W,1,8,1.8,11,M,,M,,*54
06/06/2014	09:11:30.241	$GPGGA,091130,2440.7106,N,08107.8307,W,1,8,1.8,11,M,,M,,*5B
06/06/2014	09:11:31.142	$GPGGA,091131,2440.7089,N,08107.8317,W,1,8,1.8,11,M,,M,,*5D
06/06/2014	09:11:32.277	$GPGGA,091132,2440.7071,N,08107.8328,W,1,8,1.8,11,M,,M,,*55
06/06/2014	09:11:33.167	$GPGGA,091133,2440.7053,N,08107.8339,W,1,8,1.8,11,M,,M,,*54
06/06/2014	09:11:34.169	$GPGGA,091134,2440.7035,N,08107.8350,W,1,8,1.8,11,M,,M,,*5C
06/06/2014	09:11:35.304	$GPGGA,091135,2440.7020,N,08107.8361,W,1,7,2.5,11,M,,M,,*5A
06/06/2014	09:11:35.433	$GPGGA,091136,2440.7001,N,08107.8374,W,1,7,1.8,11,M,,M,,*50
06/06/2014	09:11:36.426	$GPGGA,091137,2440.6984,N,08107.8385,W,1,8,1.8,11,M,,M,,*55
06/06/2014	09:11:37.551	$GPGGA,091138,2440.6969,N,08107.8396,W,1,8,1.8,11,M,,M,,*5B
06/06/2014	09:11:38.472	$GPGGA,091139,2440.6951,N,08107.8407,W,1,8,1.8,11,M,,M,,*5E
06/06/2014	09:11:39.464	$GPGGA,091140,2440.6934,N,08107.8418,W,1,8,1.8,11,M,,M,,*5D
06/06/2014	09:11:40.457	$GPGGA,091141,2440.6916,N,08107.8429,W,1,8,1.8,11,M,,M,,*5E
06/06/2014	09:11:41.571	$GPGGA,091142,2440.6899,N,08107.8440,W,1,8,1.8,11,M,,M,,*54
06/06/2014	09:11:42.513	$GPGGA,091143,2440.6883,N,08107.8451,W,1,8,1.8,11,M,,M,,*5E
06/06/2014	09:11:43.526	$GPGGA,091144,2440.6865,N,08107.8462,W,1,8,1.8,11,M,,M,,*51
06/06/2014	09:11:44.640	$GPGGA,091145,2440.6848,N,08107.8473,W,1,8,1.8,11,M,,M,,*5F
06/06/2014	09:11:45.532	$GPGGA,091146,2440.6830,N,08107.8484,W,1,8,1.8,11,M,,M,,*5B
06/06/2014	09:11:46.636	$GPGGA,091147,2440.6814,N,08107.8497,W,1,8,1.8,12,M,,M,,*5D
06/06/2014	09:11:47.650	$GPGGA,091148,2440.6796,N,08107.8508,W,1,8,1.8,12,M,,M,,*50
06/06/2014	09:11:48.682	$GPGGA,091149,2440.6778,N,08107.8519,W,1,8,1.8,12,M,,M,,*51
