Software Version Number: 1	Data File Format Number: 1	Build Version Number: 1	Error Count Since VI Started: 0	Manufacturer: Raytheon	 Model Number: RayMarine 120	 S/N: 	 Cal Date: 	 Wind Direction Offset: 0.00	 Slope (M)1: 0.00	 Offset (B)1: 0.00	 Slope (M)2: 0.00	 Offset (B)2: 0.00	 Slope (M)3: 0.00	 Offset (B)3: 0.00	 Slope (M)4: 0.00	 Offset (B)4: 0.00	 Slope (M)5: 0.00	 Offset (B)5: 0.00	 Slope (M)6: 0.00	 Offset (B)6: 0.00
Computer Date	Computer Time	GGA String
06/01/2014	19:00:00.526	$GPGGA,190001,2440.3105,N,07954.4256,W,1,11,1.4,23,M,,M,,*62
06/01/2014	19:00:01.515	$GPGGA,190002,2440.3109,N,07954.4237,W,1,11,1.4,23,M,,M,,*6A
06/01/2014	19:00:02.513	$GPGGA,190003,2440.3111,N,07954.4218,W,1,11,1.4,23,M,,M,,*6F
06/01/2014	19:00:03.533	$GPGGA,190004,2440.3112,N,07954.4200,W,1,11,1.4,22,M,,M,,*63
06/01/2014	19:00:04.490	$GPGGA,190005,2440.3115,N,07954.4181,W,1,10,1.4,22,M,,M,,*6E
06/01/2014	19:00:05.508	$GPGGA,190006,2440.3118,N,07954.4162,W,1,10,1.4,22,M,,M,,*6D
06/01/2014	19:00:06.507	$GPGGA,190007,2440.3119,N,07954.4142,W,1,11,1.4,22,M,,M,,*6E
06/01/2014	19:00:07.595	$GPGGA,190008,2440.3120,N,07954.4122,W,1,11,1.6,22,M,,M,,*6F
06/01/2014	19:00:08.484	$GPGGA,190009,2440.3122,N,07954.4102,W,1,11,1.4,22,M,,M,,*6C
06/01/2014	19:00:09.483	$GPGGA,190010,2440.3126,N,07954.4084,W,1,11,1.6,22,M,,M,,*6D
06/01/2014	19:00:10.471	$GPGGA,190011,2440.3129,N,07954.4064,W,1,11,1.4,22,M,,M,,*6F
06/01/2014	19:00:11.600	$GPGGA,190012,2440.3130,N,07954.4045,W,1,11,1.4,22,M,,M,,*67
06/01/2014	19:00:12.608	$GPGGA,190013,2440.3133,N,07954.4026,W,1,11,1.4,22,M,,M,,*60
06/01/2014	19:00:13.477	$GPGGA,190014,2440.3137,N,07954.4006,W,1,11,1.6,22,M,,M,,*63
06/01/2014	19:00:14.576	$GPGGA,190015,2440.3136,N,07954.3987,W,1,11,1.4,22,M,,M,,*66
06/01/2014	19:00:15.484	$GPGGA,190016,2440.3138,N,07954.3968,W,1,11,1.6,22,M,,M,,*68
06/01/2014	19:00:16.573	$GPGGA,190017,2440.3141,N,07954.3947,W,1,10,1.6,22,M,,M,,*6B
06/01/2014	19:00:17.561	$GPGGA,190018,2440.3141,N,07954.3929,W,1,10,1.7,22,M,,M,,*6D
06/01/2014	19:00:18.460	$GPGGA,190019,2440.3143,N,07954.3909,W,1,10,1.6,22,M,,M,,*6D
06/01/2014	19:00:19.559	$GPGGA,190020,2440.3145,N,07954.3890,W,1,10,1.6,21,M,,M,,*63
06/01/2014	19:00:20.547	$GPGGA,190021,2440.3148,N,07954.3871,W,1,10,1.6,21,M,,M,,*60
06/01/2014	19:00:21.545	$GPGGA,190022,2440.3149,N,07954.3851,W,1,10,1.4,21,M,,M,,*62
06/01/2014	19:00:22.553	$GPGGA,190023,2440.3152,N,07954.3832,W,1,11,1.4,21,M,,M,,*6D
06/01/2014	19:00:23.542	$GPGGA,190024,2440.3156,N,07954.3812,W,1,11,1.4,21,M,,M,,*6C
06/01/2014	19:00:24.551	$GPGGA,190025,2440.3159,N,07954.3793,W,1,11,1.4,21,M,,M,,*64
06/01/2014	19:00:25.519	$GPGGA,190026,2440.3159,N,07954.3774,W,1,11,1.4,21,M,,M,,*6E
06/01/2014	19:00:26.538	$GPGGA,190027,2440.3165,N,07954.3754,W,1,10,1.6,21,M,,M,,*61
06/01/2014	19:00:27.527	$GPGGA,190028,2440.3169,N,07954.3735,W,1,10,1.4,20,M,,M,,*66
06/01/2014	19:00:28.625	$GPGGA,190029,2440.3172,N,07954.3715,W,1,11,1.4,20,M,,M,,*6E
06/01/2014	19:00:29.614	$GPGGA,190030,2440.3174,N,07954.3695,W,1,11,1.4,20,M,,M,,*69
06/01/2014	19:00:30.612	$GPGGA,190031,2440.3176,N,07954.3675,W,1,10,1.4,20,M,,M,,*65
06/01/2014	19:00:31.611	$GPGGA,190032,2440.3178,N,07954.3657,W,1,10,1.7,20,M,,M,,*6B
06/01/2014	19:00:32.619	$GPGGA,190033,2440.3183,N,07954.3637,W,1,11,1.4,20,M,,M,,*6A
06/01/2014	19:00:33.588	$GPGGA,190034,2440.3185,N,07954.3618,W,1,11,1.4,20,M,,M,,*66
06/01/2014	19:00:34.607	$GPGGA,190035,2440.3185,N,07954.3598,W,1,11,1.4,20,M,,M,,*6C
06/01/2014	19:00:35.595	$GPGGA,190036,2440.3190,N,07954.3577,W,1,11,1.4,20,M,,M,,*6A
06/01/2014	19:00:36.564	$GPGGA,190037,2440.3192,N,07954.3555,W,1,11,1.4,20,M,,M,,*69
06/01/2014	19:00:37.583	$GPGGA,190038,2440.3194,N,07954.3534,W,1,11,1.4,20,M,,M,,*67
06/01/2014	19:00:38.601	$GPGGA,190039,2440.3195,N,07954.3512,W,1,11,1.4,20,M,,M,,*63
06/01/2014	19:00:39.579	$GPGGA,190040,2440.3199,N,07954.3491,W,1,11,1.4,20,M,,M,,*6B
06/01/2014	19:00:40.587	$GPGGA,190041,2440.3203,N,07954.3473,W,1,11,1.4,20,M,,M,,*66
06/01/2014	19:00:41.567	$GPGGA,190042,2440.3205,N,07954.3452,W,1,11,1.4,20,M,,M,,*60
06/01/2014	19:00:42.554	$GPGGA,190043,2440.3208,N,07954.3432,W,1,11,1.4,20,M,,M,,*6A
06/01/2014	19:00:43.563	$GPGGA,190044,2440.3212,N,07954.3413,W,1,11,1.4,20,M,,M,,*65
06/01/2014	19:00:44.552	$GPGGA,190045,2440.3214,N,07954.3391,W,1,11,1.4,20,M,,M,,*6F
06/01/2014	19:00:45.640	$GPGGA,190046,2440.3219,N,07954.3372,W,1,11,1.4,20,M,,M,,*6C
06/01/2014	19:00:46.539	$GPGGA,190047,2440.3221,N,07954.3354,W,1,11,1.4,20,M,,M,,*62
06/01/2014	19:00:47.667	$GPGGA,190048,2440.3224,N,07954.3336,W,1,11,1.7,20,M,,M,,*6F
06/01/2014	19:00:48.556	$GPGGA,190049,2440.3228,N,07954.3318,W,1,11,1.4,20,M,,M,,*6D
06/01/2014	19:00:49.526	$GPGGA,190050,2440.3232,N,07954.3300,W,1,11,1.7,20,M,,M,,*64
06/01/2014	19:00:50.533	$GPGGA,190051,2440.3235,N,07954.3283,W,1,11,1.4,20,M,,M,,*6B
06/01/2014	19:00:51.532	$GPGGA,190052,2440.3239,N,07954.3265,W,1,11,1.4,20,M,,M,,*6C
06/01/2014	19:00:52.630	$GPGGA,190053,2440.3242,N,07954.3247,W,1,11,1.4,20,M,,M,,*61
06/01/2014	19:00:53.521	$GPGGA,190054,2440.3245,N,07954.3229,W,1,11,1.4,20,M,,M,,*69
06/01/2014	19:00:54.618	$GPGGA,190055,2440.3249,N,07954.3211,W,1,10,1.4,20,M,,M,,*6E
06/01/2014	19:00:55.516	$GPGGA,190056,2440.3252,N,07954.3191,W,1,10,1.4,21,M,,M,,*6D
06/01/2014	19:00:56.634	$GPGGA,190057,2440.3255,N,07954.3173,W,1,11,1.4,21,M,,M,,*66
06/01/2014	19:00:57.592	$GPGGA,190058,2440.3260,N,07954.3153,W,1,11,1.4,21,M,,M,,*6D
06/01/2014	19:00:58.591	$GPGGA,190059,2440.3267,N,07954.3134,W,1,11,1.4,21,M,,M,,*6A
06/01/2014	19:00:59.530	$GPGGA,190100,2440.3270,N,07954.3114,W,1,11,1.4,21,M,,M,,*63
06/01/2014	19:01:00.498	$GPGGA,190101,2440.3274,N,07954.3094,W,1,10,1.7,21,M,,M,,*6D
06/01/2014	19:01:01.487	$GPGGA,190102,2440.3279,N,07954.3074,W,1,10,1.7,21,M,,M,,*6D
06/01/2014	19:01:02.575	$GPGGA,190103,2440.3285,N,07954.3054,W,1,11,1.4,22,M,,M,,*6C
06/01/2014	19:01:03.594	$GPGGA,190104,2440.3289,N,07954.3034,W,1,11,1.4,22,M,,M,,*61
06/01/2014	19:01:04.603	$GPGGA,190105,2440.3295,N,07954.3013,W,1,11,1.4,22,M,,M,,*68
06/01/2014	19:01:05.571	$GPGGA,190106,2440.3300,N,07954.2993,W,1,11,1.7,22,M,,M,,*65
06/01/2014	19:01:06.560	$GPGGA,190107,2440.3306,N,07954.2973,W,1,10,1.7,22,M,,M,,*6D
06/01/2014	19:01:07.568	$GPGGA,190108,2440.3311,N,07954.2952,W,1,10,1.4,22,M,,M,,*64
06/01/2014	19:01:08.577	$GPGGA,190109,2440.3315,N,07954.2933,W,1,11,1.4,22,M,,M,,*67
06/01/2014	19:01:09.556	$GPGGA,190110,2440.3320,N,07954.2914,W,1,11,1.4,22,M,,M,,*6C
06/01/2014	19:01:10.574	$GPGGA,190111,2440.3325,N,07954.2894,W,1,11,1.4,22,M,,M,,*61
06/01/2014	19:01:11.563	$GPGGA,190112,2440.3329,N,07954.2873,W,1,11,1.4,22,M,,M,,*67
06/01/2014	19:01:12.571	$GPGGA,190113,2440.3335,N,07954.2853,W,1,10,1.7,22,M,,M,,*6B
06/01/2014	19:01:13.545	$GPGGA,190114,2440.3339,N,07954.2834,W,1,10,1.4,22,M,,M,,*62
06/01/2014	19:01:14.568	$GPGGA,190115,2440.3343,N,07954.2813,W,1,11,1.4,22,M,,M,,*6A
06/01/2014	19:01:15.546	$GPGGA,190116,2440.3347,N,07954.2792,W,1,11,1.7,22,M,,M,,*68
06/01/2014	19:01:16.555	$GPGGA,190117,2440.3354,N,07954.2771,W,1,10,1.7,22,M,,M,,*67
06/01/2014	19:01:17.533	$GPGGA,190118,2440.3358,N,07954.2751,W,1,10,1.4,22,M,,M,,*65
06/01/2014	19:01:18.522	$GPGGA,190119,2440.3362,N,07954.2730,W,1,11,1.4,22,M,,M,,*6B
06/01/2014	19:01:19.531	$GPGGA,190120,2440.3368,N,07954.2709,W,1,11,1.7,22,M,,M,,*62
06/01/2014	19:01:20.519	$GPGGA,190121,2440.3372,N,07954.2687,W,1,10,1.7,22,M,,M,,*6E
06/01/2014	19:01:21.509	$GPGGA,190122,2440.3376,N,07954.2665,W,1,10,1.4,22,M,,M,,*66
06/01/2014	19:01:22.517	$GPGGA,190123,2440.3380,N,07954.2644,W,1,11,1.3,22,M,,M,,*6B
06/01/2014	19:01:23.525	$GPGGA,190124,2440.3385,N,07954.2620,W,1,11,1.3,22,M,,M,,*6B
06/01/2014	19:01:24.504	$GPGGA,190125,2440.3391,N,07954.2596,W,1,10,1.6,22,M,,M,,*65
06/01/2014	19:01:25.512	$GPGGA,190126,2440.3394,N,07954.2574,W,1,10,1.3,22,M,,M,,*6A
06/01/2014	19:01:26.491	$GPGGA,190127,2440.3398,N,07954.2552,W,1,10,1.6,22,M,,M,,*66
06/01/2014	19:01:27.510	$GPGGA,190128,2440.3404,N,07954.2530,W,1,10,1.6,22,M,,M,,*6F
06/01/2014	19:01:28.577	$GPGGA,190129,2440.3408,N,07954.2507,W,1,11,1.3,22,M,,M,,*62
06/01/2014	19:01:29.596	$GPGGA,190130,2440.3409,N,07954.2487,W,1,11,1.6,22,M,,M,,*67
06/01/2014	19:01:30.565	$GPGGA,190131,2440.3415,N,07954.2465,W,1,11,1.3,22,M,,M,,*62
06/01/2014	19:01:31.702	$GPGGA,190132,2440.3418,N,07954.2443,W,1,11,1.3,22,M,,M,,*68
06/01/2014	19:01:32.570	$GPGGA,190133,2440.3420,N,07954.2421,W,1,11,1.3,22,M,,M,,*66
06/01/2014	19:01:33.579	$GPGGA,190134,2440.3423,N,07954.2400,W,1,11,1.3,22,M,,M,,*61
06/01/2014	19:01:34.588	$GPGGA,190135,2440.3427,N,07954.2378,W,1,11,1.3,22,M,,M,,*6C
06/01/2014	19:01:35.576	$GPGGA,190136,2440.3430,N,07954.2356,W,1,11,1.3,22,M,,M,,*65
06/01/2014	19:01:36.565	$GPGGA,190137,2440.3434,N,07954.2334,W,1,11,1.3,22,M,,M,,*64
06/01/2014	19:01:37.543	$GPGGA,190138,2440.3438,N,07954.2312,W,1,11,1.3,22,M,,M,,*63
06/01/2014	19:01:38.652	$GPGGA,190139,2440.3441,N,07954.2290,W,1,11,1.3,22,M,,M,,*67
06/01/2014	19:01:39.541	$GPGGA,190140,2440.3445,N,07954.2268,W,1,11,1.3,22,M,,M,,*6A
06/01/2014	19:01:40.529	$GPGGA,190141,2440.3448,N,07954.2246,W,1,11,1.3,22,M,,M,,*6A
06/01/2014	19:01:41.628	$GPGGA,190142,2440.3449,N,07954.2224,W,1,11,1.3,22,M,,M,,*6C
06/01/2014	19:01:42.626	$GPGGA,190143,2440.3452,N,07954.2203,W,1,11,1.3,22,M,,M,,*62
06/01/2014	19:01:43.635	$GPGGA,190144,2440.3455,N,07954.2181,W,1,11,1.3,22,M,,M,,*6B
06/01/2014	19:01:44.524	$GPGGA,190145,2440.3456,N,07954.2159,W,1,11,1.3,22,M,,M,,*6C
06/01/2014	19:01:45.622	$GPGGA,190146,2440.3459,N,07954.2138,W,1,11,1.5,22,M,,M,,*61
06/01/2014	19:01:46.621	$GPGGA,190147,2440.3463,N,07954.2116,W,1,12,1.3,22,M,,M,,*60
06/01/2014	19:01:47.529	$GPGGA,190148,2440.3466,N,07954.2094,W,1,12,1.5,22,M,,M,,*67
06/01/2014	19:01:48.608	$GPGGA,190149,2440.3470,N,07954.2074,W,1,12,1.3,22,M,,M,,*69
06/01/2014	19:01:49.606	$GPGGA,190150,2440.3473,N,07954.2052,W,1,12,1.3,22,M,,M,,*66
06/01/2014	19:01:50.614	$GPGGA,190151,2440.3477,N,07954.2032,W,1,12,1.3,22,M,,M,,*65
06/01/2014	19:01:51.613	$GPGGA,190152,2440.3479,N,07954.2011,W,1,12,1.3,22,M,,M,,*69
06/01/2014	19:01:52.591	$GPGGA,190153,2440.3481,N,07954.1990,W,1,12,1.3,22,M,,M,,*6C
06/01/2014	19:01:53.590	$GPGGA,190154,2440.3484,N,07954.1969,W,1,12,1.3,22,M,,M,,*68
06/01/2014	19:01:54.579	$GPGGA,190155,2440.3487,N,07954.1948,W,1,12,1.3,22,M,,M,,*69
06/01/2014	19:01:55.607	$GPGGA,190156,2440.3488,N,07954.1927,W,1,12,1.3,23,M,,M,,*6D
06/01/2014	19:01:56.596	$GPGGA,190157,2440.3491,N,07954.1905,W,1,11,1.5,23,M,,M,,*61
06/01/2014	19:01:57.574	$GPGGA,190158,2440.3494,N,07954.1883,W,1,11,1.3,23,M,,M,,*62
06/01/2014	19:01:58.593	$GPGGA,190159,2440.3498,N,07954.1863,W,1,12,1.3,23,M,,M,,*62
06/01/2014	19:01:59.592	$GPGGA,190200,2440.3499,N,07954.1842,W,1,12,1.3,23,M,,M,,*6F
06/01/2014	19:02:00.580	$GPGGA,190201,2440.3503,N,07954.1820,W,1,12,1.3,23,M,,M,,*68
06/01/2014	19:02:01.559	$GPGGA,190202,2440.3508,N,07954.1801,W,1,12,1.3,23,M,,M,,*63
06/01/2014	19:02:02.577	$GPGGA,190203,2440.3510,N,07954.1781,W,1,12,1.3,23,M,,M,,*6C
06/01/2014	19:02:03.566	$GPGGA,190204,2440.3512,N,07954.1760,W,1,12,1.3,23,M,,M,,*66
06/01/2014	19:02:04.565	$GPGGA,190205,2440.3517,N,07954.1740,W,1,11,1.4,23,M,,M,,*64
06/01/2014	19:02:05.544	$GPGGA,190206,2440.3521,N,07954.1719,W,1,11,1.3,23,M,,M,,*69
06/01/2014	19:02:06.561	$GPGGA,190207,2440.3523,N,07954.1699,W,1,11,1.6,23,M,,M,,*66
06/01/2014	19:02:07.549	$GPGGA,190208,2440.3524,N,07954.1682,W,1,11,1.3,23,M,,M,,*61
06/01/2014	19:02:08.528	$GPGGA,190209,2440.3528,N,07954.1661,W,1,12,1.3,23,M,,M,,*62
06/01/2014	19:02:09.527	$GPGGA,190210,2440.3531,N,07954.1643,W,1,12,1.6,23,M,,M,,*67
06/01/2014	19:02:10.555	$GPGGA,190211,2440.3532,N,07954.1623,W,1,12,1.3,23,M,,M,,*66
06/01/2014	19:02:11.534	$GPGGA,190212,2440.3535,N,07954.1604,W,1,12,1.3,23,M,,M,,*67
06/01/2014	19:02:12.562	$GPGGA,190213,2440.3539,N,07954.1584,W,1,12,1.3,23,M,,M,,*61
06/01/2014	19:02:13.531	$GPGGA,190214,2440.3541,N,07954.1566,W,1,12,1.3,23,M,,M,,*65
06/01/2014	19:02:14.510	$GPGGA,190215,2440.3545,N,07954.1543,W,1,12,1.3,23,M,,M,,*67
06/01/2014	19:02:15.538	$GPGGA,190216,2440.3549,N,07954.1523,W,1,12,1.6,23,M,,M,,*6B
06/01/2014	19:02:16.547	$GPGGA,190217,2440.3552,N,07954.1504,W,1,12,1.3,23,M,,M,,*60
06/01/2014	19:02:17.505	$GPGGA,190218,2440.3555,N,07954.1483,W,1,12,1.3,23,M,,M,,*66
06/01/2014	19:02:18.524	$GPGGA,190219,2440.3560,N,07954.1461,W,1,12,1.3,23,M,,M,,*6D
06/01/2014	19:02:19.503	$GPGGA,190220,2440.3566,N,07954.1439,W,1,12,1.6,23,M,,M,,*69
06/01/2014	19:02:20.501	$GPGGA,190221,2440.3568,N,07954.1417,W,1,12,1.3,24,M,,M,,*68
06/01/2014	19:02:21.490	$GPGGA,190222,2440.3574,N,07954.1394,W,1,12,1.3,24,M,,M,,*6A
06/01/2014	19:02:22.479	$GPGGA,190223,2440.3578,N,07954.1371,W,1,11,1.6,24,M,,M,,*6A
06/01/2014	19:02:23.508	$GPGGA,190224,2440.3582,N,07954.1352,W,1,11,1.6,24,M,,M,,*69
06/01/2014	19:02:24.605	$GPGGA,190225,2440.3586,N,07954.1329,W,1,12,1.3,24,M,,M,,*66
06/01/2014	19:02:25.493	$GPGGA,190226,2440.3592,N,07954.1306,W,1,12,1.3,24,M,,M,,*6D
06/01/2014	19:02:26.592	$GPGGA,190227,2440.3596,N,07954.1284,W,1,11,1.3,24,M,,M,,*60
06/01/2014	19:02:27.500	$GPGGA,190228,2440.3600,N,07954.1262,W,1,11,1.3,24,M,,M,,*6B
06/01/2014	19:02:28.688	$GPGGA,190229,2440.3607,N,07954.1239,W,1,12,1.3,24,M,,M,,*60
06/01/2014	19:02:29.567	$GPGGA,190230,2440.3611,N,07954.1217,W,1,12,1.3,24,M,,M,,*63
06/01/2014	19:02:30.685	$GPGGA,190231,2440.3615,N,07954.1195,W,1,12,1.3,24,M,,M,,*6F
06/01/2014	19:02:31.564	$GPGGA,190232,2440.3621,N,07954.1173,W,1,12,1.3,24,M,,M,,*63
06/01/2014	19:02:32.543	$GPGGA,190233,2440.3625,N,07954.1151,W,1,12,1.3,24,M,,M,,*66
06/01/2014	19:02:33.631	$GPGGA,190234,2440.3629,N,07954.1129,W,1,12,1.6,23,M,,M,,*60
06/01/2014	19:02:34.660	$GPGGA,190235,2440.3633,N,07954.1107,W,1,11,1.3,23,M,,M,,*60
06/01/2014	19:02:35.648	$GPGGA,190236,2440.3639,N,07954.1086,W,1,11,1.3,23,M,,M,,*61
06/01/2014	19:02:36.647	$GPGGA,190237,2440.3643,N,07954.1065,W,1,12,1.3,23,M,,M,,*63
06/01/2014	19:02:37.625	$GPGGA,190238,2440.3647,N,07954.1043,W,1,12,1.3,23,M,,M,,*6C
06/01/2014	19:02:38.634	$GPGGA,190239,2440.3651,N,07954.1023,W,1,12,1.3,23,M,,M,,*6C
06/01/2014	19:02:39.663	$GPGGA,190240,2440.3656,N,07954.1001,W,1,12,1.3,23,M,,M,,*65
06/01/2014	19:02:40.611	$GPGGA,190241,2440.3661,N,07954.0981,W,1,12,1.3,23,M,,M,,*60
06/01/2014	19:02:41.609	$GPGGA,190242,2440.3665,N,07954.0960,W,1,12,1.3,23,M,,M,,*68
06/01/2014	19:02:42.627	$GPGGA,190243,2440.3668,N,07954.0939,W,1,12,1.6,23,M,,M,,*6D
06/01/2014	19:02:43.626	$GPGGA,190244,2440.3672,N,07954.0920,W,1,12,1.6,23,M,,M,,*69
06/01/2014	19:02:44.625	$GPGGA,190245,2440.3676,N,07954.0900,W,1,11,1.3,23,M,,M,,*68
06/01/2014	19:02:45.603	$GPGGA,190246,2440.3679,N,07954.0882,W,1,11,1.3,23,M,,M,,*6F
06/01/2014	19:02:46.622	$GPGGA,190247,2440.3682,N,07954.0863,W,1,12,1.3,23,M,,M,,*66
06/01/2014	19:02:47.600	$GPGGA,190248,2440.3686,N,07954.0844,W,1,12,1.3,23,M,,M,,*68
06/01/2014	19:02:48.599	$GPGGA,190249,2440.3690,N,07954.0822,W,1,12,1.6,23,M,,M,,*6B
06/01/2014	19:02:49.579	$GPGGA,190250,2440.3694,N,07954.0801,W,1,12,1.6,23,M,,M,,*66
06/01/2014	19:02:50.616	$GPGGA,190251,2440.3698,N,07954.0780,W,1,11,1.3,23,M,,M,,*6B
06/01/2014	19:02:51.595	$GPGGA,190252,2440.3701,N,07954.0759,W,1,11,1.3,23,M,,M,,*6D
06/01/2014	19:02:52.603	$GPGGA,190253,2440.3705,N,07954.0738,W,1,12,1.6,23,M,,M,,*69
06/01/2014	19:02:53.562	$GPGGA,190254,2440.3709,N,07954.0717,W,1,12,1.6,23,M,,M,,*6F
06/01/2014	19:02:54.574	$GPGGA,190255,2440.3712,N,07954.0697,W,1,11,1.3,23,M,,M,,*6B
06/01/2014	19:02:55.569	$GPGGA,190256,2440.3716,N,07954.0676,W,1,11,1.6,23,M,,M,,*66
06/01/2014	19:02:56.598	$GPGGA,190257,2440.3721,N,07954.0654,W,1,11,1.6,22,M,,M,,*62
06/01/2014	19:02:57.556	$GPGGA,190258,2440.3723,N,07954.0634,W,1,11,1.3,22,M,,M,,*6C
06/01/2014	19:02:58.565	$GPGGA,190259,2440.3727,N,07954.0613,W,1,12,1.3,22,M,,M,,*6F
06/01/2014	19:02:59.583	$GPGGA,190300,2440.3730,N,07954.0593,W,1,12,1.3,22,M,,M,,*6F
06/01/2014	19:03:00.541	$GPGGA,190301,2440.3733,N,07954.0572,W,1,12,1.3,22,M,,M,,*62
06/01/2014	19:03:01.550	$GPGGA,190302,2440.3737,N,07954.0551,W,1,12,1.3,22,M,,M,,*64
06/01/2014	19:03:02.548	$GPGGA,190303,2440.3738,N,07954.0531,W,1,12,1.3,22,M,,M,,*6C
06/01/2014	19:03:03.547	$GPGGA,190304,2440.3741,N,07954.0509,W,1,12,1.3,22,M,,M,,*6E
06/01/2014	19:03:04.516	$GPGGA,190305,2440.3745,N,07954.0488,W,1,12,1.3,22,M,,M,,*63
06/01/2014	19:03:05.524	$GPGGA,190306,2440.3750,N,07954.0467,W,1,12,1.3,22,M,,M,,*65
06/01/2014	19:03:06.533	$GPGGA,190307,2440.3752,N,07954.0446,W,1,11,1.3,22,M,,M,,*66
06/01/2014	19:03:07.531	$GPGGA,190308,2440.3754,N,07954.0424,W,1,11,1.3,22,M,,M,,*6B
06/01/2014	19:03:08.510	$GPGGA,190309,2440.3758,N,07954.0403,W,1,12,1.3,22,M,,M,,*60
06/01/2014	19:03:09.529	$GPGGA,190310,2440.3761,N,07954.0381,W,1,12,1.3,22,M,,M,,*6F
06/01/2014	19:03:10.617	$GPGGA,190311,2440.3763,N,07954.0361,W,1,12,1.3,22,M,,M,,*62
06/01/2014	19:03:11.546	$GPGGA,190312,2440.3766,N,07954.0338,W,1,12,1.5,22,M,,M,,*6E
06/01/2014	19:03:12.604	$GPGGA,190313,2440.3770,N,07954.0318,W,1,11,1.4,22,M,,M,,*68
06/01/2014	19:03:13.503	$GPGGA,190314,2440.3774,N,07954.0298,W,1,11,1.3,22,M,,M,,*65
06/01/2014	19:03:14.512	$GPGGA,190315,2440.3779,N,07954.0276,W,1,12,1.3,22,M,,M,,*6A
06/01/2014	19:03:15.590	$GPGGA,190316,2440.3781,N,07954.0256,W,1,12,1.3,22,M,,M,,*6C
06/01/2014	19:03:16.528	$GPGGA,190317,2440.3784,N,07954.0234,W,1,12,1.4,22,M,,M,,*6B
06/01/2014	19:03:17.586	$GPGGA,190318,2440.3788,N,07954.0214,W,1,12,1.3,22,M,,M,,*6D
06/01/2014	19:03:18.585	$GPGGA,190319,2440.3792,N,07954.0194,W,1,12,1.6,22,M,,M,,*69
06/01/2014	19:03:19.514	$GPGGA,190320,2440.3795,N,07954.0170,W,1,12,1.3,22,M,,M,,*6B
06/01/2014	19:03:20.572	$GPGGA,190321,2440.3799,N,07954.0150,W,1,12,1.3,22,M,,M,,*64
06/01/2014	19:03:21.481	$GPGGA,190322,2440.3802,N,07954.0129,W,1,12,1.3,22,M,,M,,*64
06/01/2014	19:03:22.589	$GPGGA,190323,2440.3806,N,07954.0108,W,1,12,1.6,22,M,,M,,*67
06/01/2014	19:03:23.578	$GPGGA,190324,2440.3810,N,07954.0088,W,1,12,1.6,22,M,,M,,*6E
06/01/2014	19:03:24.597	$GPGGA,190325,2440.3815,N,07954.0066,W,1,12,1.3,22,M,,M,,*6F
06/01/2014	19:03:25.555	$GPGGA,190326,2440.3820,N,07954.0045,W,1,12,1.6,22,M,,M,,*6E
06/01/2014	19:03:26.554	$GPGGA,190327,2440.3824,N,07954.0023,W,1,12,1.3,22,M,,M,,*6E
06/01/2014	19:03:27.563	$GPGGA,190328,2440.3828,N,07954.0002,W,1,12,1.3,22,M,,M,,*6E
06/01/2014	19:03:28.629	$GPGGA,190329,2440.3831,N,07953.9981,W,1,11,1.6,22,M,,M,,*6D
06/01/2014	19:03:29.628	$GPGGA,190330,2440.3837,N,07953.9958,W,1,11,1.3,22,M,,M,,*62
06/01/2014	19:03:30.646	$GPGGA,190331,2440.3842,N,07953.9936,W,1,12,1.3,22,M,,M,,*6A
06/01/2014	19:03:31.665	$GPGGA,190332,2440.3846,N,07953.9917,W,1,12,1.6,22,M,,M,,*6B
06/01/2014	19:03:32.623	$GPGGA,190333,2440.3849,N,07953.9896,W,1,12,1.6,22,M,,M,,*6D
06/01/2014	19:03:33.602	$GPGGA,190334,2440.3853,N,07953.9876,W,1,12,1.6,22,M,,M,,*6F
06/01/2014	19:03:34.630	$GPGGA,190335,2440.3857,N,07953.9857,W,1,12,1.3,22,M,,M,,*6C
06/01/2014	19:03:35.638	$GPGGA,190336,2440.3862,N,07953.9835,W,1,12,1.3,22,M,,M,,*6D
06/01/2014	19:03:36.657	$GPGGA,190337,2440.3866,N,07953.9814,W,1,11,1.6,22,M,,M,,*6D
06/01/2014	19:03:37.615	$GPGGA,190338,2440.3871,N,07953.9793,W,1,11,1.3,22,M,,M,,*61
06/01/2014	19:03:38.584	$GPGGA,190339,2440.3875,N,07953.9772,W,1,12,1.3,23,M,,M,,*69
06/01/2014	19:03:39.593	$GPGGA,190340,2440.3880,N,07953.9751,W,1,12,1.3,23,M,,M,,*6C
06/01/2014	19:03:40.611	$GPGGA,190341,2440.3884,N,07953.9730,W,1,11,1.3,23,M,,M,,*6D
06/01/2014	19:03:41.591	$GPGGA,190342,2440.3889,N,07953.9709,W,1,11,1.3,23,M,,M,,*69
06/01/2014	19:03:42.598	$GPGGA,190343,2440.3893,N,07953.9690,W,1,11,1.3,23,M,,M,,*62
06/01/2014	19:03:43.577	$GPGGA,190344,2440.3896,N,07953.9669,W,1,11,1.3,23,M,,M,,*66
06/01/2014	19:03:44.586	$GPGGA,190345,2440.3900,N,07953.9647,W,1,12,1.3,23,M,,M,,*66
06/01/2014	19:03:45.564	$GPGGA,190346,2440.3904,N,07953.9626,W,1,12,1.6,23,M,,M,,*63
06/01/2014	19:03:46.593	$GPGGA,190347,2440.3909,N,07953.9606,W,1,11,1.6,23,M,,M,,*6E
06/01/2014	19:03:47.581	$GPGGA,190348,2440.3913,N,07953.9586,W,1,11,1.3,23,M,,M,,*64
06/01/2014	19:03:48.570	$GPGGA,190349,2440.3917,N,07953.9565,W,1,12,1.3,23,M,,M,,*6F
06/01/2014	19:03:49.549	$GPGGA,190350,2440.3922,N,07953.9543,W,1,12,1.3,23,M,,M,,*65
06/01/2014	19:03:50.557	$GPGGA,190351,2440.3925,N,07953.9522,W,1,12,1.3,23,M,,M,,*64
06/01/2014	19:03:51.555	$GPGGA,190352,2440.3929,N,07953.9501,W,1,12,1.3,23,M,,M,,*6A
06/01/2014	19:03:52.583	$GPGGA,190353,2440.3932,N,07953.9480,W,1,12,1.3,23,M,,M,,*69
06/01/2014	19:03:53.542	$GPGGA,190354,2440.3936,N,07953.9459,W,1,12,1.3,23,M,,M,,*6E
06/01/2014	19:03:54.631	$GPGGA,190355,2440.3940,N,07953.9439,W,1,12,1.3,23,M,,M,,*68
06/01/2014	19:03:55.550	$GPGGA,190356,2440.3945,N,07953.9417,W,1,12,1.3,23,M,,M,,*62
06/01/2014	19:03:56.698	$GPGGA,190357,2440.3946,N,07953.9397,W,1,11,1.6,23,M,,M,,*69
06/01/2014	19:03:57.656	$GPGGA,190358,2440.3950,N,07953.9377,W,1,11,1.3,23,M,,M,,*6A
06/01/2014	19:03:58.515	$GPGGA,190359,2440.3956,N,07953.9355,W,1,12,1.3,23,M,,M,,*6E
06/01/2014	19:03:59.564	$GPGGA,190400,2440.3958,N,07953.9331,W,1,12,1.6,23,M,,M,,*6C
06/01/2014	19:04:00.632	$GPGGA,190401,2440.3961,N,07953.9308,W,1,11,1.6,23,M,,M,,*6E
06/01/2014	19:04:01.511	$GPGGA,190402,2440.3965,N,07953.9287,W,1,11,1.5,23,M,,M,,*6C
06/01/2014	19:04:02.639	$GPGGA,190403,2440.3969,N,07953.9265,W,1,12,1.3,23,M,,M,,*68
06/01/2014	19:04:03.528	$GPGGA,190404,2440.3972,N,07953.9243,W,1,12,1.3,23,M,,M,,*61
06/01/2014	19:04:04.617	$GPGGA,190405,2440.3976,N,07953.9222,W,1,11,1.6,23,M,,M,,*65
06/01/2014	19:04:05.595	$GPGGA,190406,2440.3979,N,07953.9199,W,1,11,1.3,23,M,,M,,*6F
06/01/2014	19:04:06.594	$GPGGA,190407,2440.3983,N,07953.9178,W,1,12,1.3,23,M,,M,,*67
06/01/2014	19:04:07.503	$GPGGA,190408,2440.3987,N,07953.9157,W,1,12,1.3,23,M,,M,,*61
06/01/2014	19:04:08.590	$GPGGA,190409,2440.3992,N,07953.9134,W,1,12,1.3,23,M,,M,,*61
06/01/2014	19:04:09.489	$GPGGA,190410,2440.3994,N,07953.9112,W,1,12,1.3,23,M,,M,,*6B
06/01/2014	19:04:10.577	$GPGGA,190411,2440.3997,N,07953.9089,W,1,11,1.5,23,M,,M,,*6F
06/01/2014	19:04:11.596	$GPGGA,190412,2440.3998,N,07953.9066,W,1,11,1.3,23,M,,M,,*64
06/01/2014	19:04:12.604	$GPGGA,190413,2440.4001,N,07953.9042,W,1,11,1.4,23,M,,M,,*6A
06/01/2014	19:04:13.583	$GPGGA,190414,2440.4004,N,07953.9019,W,1,11,1.6,23,M,,M,,*64
06/01/2014	19:04:14.582	$GPGGA,190415,2440.4008,N,07953.8996,W,1,12,1.3,23,M,,M,,*60
06/01/2014	19:04:15.580	$GPGGA,190416,2440.4011,N,07953.8973,W,1,12,1.6,23,M,,M,,*65
06/01/2014	19:04:16.569	$GPGGA,190417,2440.4015,N,07953.8950,W,1,11,1.6,22,M,,M,,*63
06/01/2014	19:04:17.557	$GPGGA,190418,2440.4019,N,07953.8927,W,1,11,1.3,22,M,,M,,*65
06/01/2014	19:04:18.606	$GPGGA,190419,2440.4023,N,07953.8904,W,1,12,1.3,22,M,,M,,*6F
06/01/2014	19:04:19.565	$GPGGA,190420,2440.4026,N,07953.8882,W,1,12,1.6,22,M,,M,,*6A
06/01/2014	19:04:20.563	$GPGGA,190421,2440.4029,N,07953.8858,W,1,12,1.3,22,M,,M,,*66
06/01/2014	19:04:21.542	$GPGGA,190422,2440.4034,N,07953.8836,W,1,12,1.3,22,M,,M,,*61
06/01/2014	19:04:22.560	$GPGGA,190423,2440.4037,N,07953.8815,W,1,12,1.3,22,M,,M,,*62
06/01/2014	19:04:23.540	$GPGGA,190424,2440.4040,N,07953.8792,W,1,12,1.3,22,M,,M,,*65
06/01/2014	19:04:24.548	$GPGGA,190425,2440.4044,N,07953.8769,W,1,11,1.6,22,M,,M,,*62
06/01/2014	19:04:25.526	$GPGGA,190426,2440.4048,N,07953.8747,W,1,11,1.6,22,M,,M,,*61
06/01/2014	19:04:26.524	$GPGGA,190427,2440.4052,N,07953.8724,W,1,12,1.3,22,M,,M,,*68
06/01/2014	19:04:27.532	$GPGGA,190428,2440.4057,N,07953.8701,W,1,12,1.3,22,M,,M,,*65
06/01/2014	19:04:28.600	$GPGGA,190429,2440.4062,N,07953.8677,W,1,12,1.3,22,M,,M,,*62
06/01/2014	19:04:29.609	$GPGGA,190430,2440.4065,N,07953.8655,W,1,12,1.6,22,M,,M,,*68
06/01/2014	19:04:30.597	$GPGGA,190431,2440.4066,N,07953.8634,W,1,12,1.3,22,M,,M,,*68
06/01/2014	19:04:31.606	$GPGGA,190432,2440.4070,N,07953.8609,W,1,12,1.3,22,M,,M,,*62
06/01/2014	19:04:32.624	$GPGGA,190433,2440.4073,N,07953.8586,W,1,11,1.6,22,M,,M,,*62
06/01/2014	19:04:33.583	$GPGGA,190434,2440.4077,N,07953.8562,W,1,11,1.3,22,M,,M,,*6E
06/01/2014	19:04:34.612	$GPGGA,190435,2440.4081,N,07953.8538,W,1,11,1.6,22,M,,M,,*6C
06/01/2014	19:04:35.600	$GPGGA,190436,2440.4084,N,07953.8515,W,1,11,1.3,22,M,,M,,*60
06/01/2014	19:04:36.569	$GPGGA,190437,2440.4088,N,07953.8490,W,1,12,1.3,22,M,,M,,*62
06/01/2014	19:04:37.587	$GPGGA,190438,2440.4091,N,07953.8468,W,1,12,1.3,22,M,,M,,*62
06/01/2014	19:04:38.596	$GPGGA,190439,2440.4095,N,07953.8444,W,1,12,1.3,22,M,,M,,*69
06/01/2014	19:04:39.585	$GPGGA,190440,2440.4099,N,07953.8421,W,1,12,1.3,22,M,,M,,*68
06/01/2014	19:04:40.673	$GPGGA,190441,2440.4102,N,07953.8398,W,1,11,1.6,22,M,,M,,*69
06/01/2014	19:04:41.552	$GPGGA,190442,2440.4105,N,07953.8375,W,1,11,1.3,22,M,,M,,*6B
06/01/2014	19:04:42.650	$GPGGA,190443,2440.4109,N,07953.8354,W,1,12,1.3,22,M,,M,,*66
06/01/2014	19:04:43.558	$GPGGA,190444,2440.4112,N,07953.8330,W,1,12,1.3,22,M,,M,,*69
06/01/2014	19:04:44.547	$GPGGA,190445,2440.4115,N,07953.8307,W,1,11,1.6,22,M,,M,,*6D
06/01/2014	19:04:45.665	$GPGGA,190446,2440.4120,N,07953.8284,W,1,11,1.3,21,M,,M,,*64
06/01/2014	19:04:46.544	$GPGGA,190447,2440.4124,N,07953.8261,W,1,12,1.3,21,M,,M,,*69
06/01/2014	19:04:47.642	$GPGGA,190448,2440.4126,N,07953.8240,W,1,12,1.6,21,M,,M,,*62
06/01/2014	19:04:48.531	$GPGGA,190449,2440.4130,N,07953.8218,W,1,12,1.3,21,M,,M,,*6C
06/01/2014	19:04:49.630	$GPGGA,190450,2440.4134,N,07953.8194,W,1,12,1.3,21,M,,M,,*67
06/01/2014	19:04:50.518	$GPGGA,190451,2440.4137,N,07953.8170,W,1,12,1.3,21,M,,M,,*6F
06/01/2014	19:04:51.637	$GPGGA,190452,2440.4139,N,07953.8147,W,1,12,1.3,21,M,,M,,*66
06/01/2014	19:04:52.625	$GPGGA,190453,2440.4144,N,07953.8124,W,1,12,1.3,21,M,,M,,*68
06/01/2014	19:04:53.524	$GPGGA,190454,2440.4148,N,07953.8099,W,1,12,1.3,21,M,,M,,*64
06/01/2014	19:04:54.644	$GPGGA,190455,2440.4152,N,07953.8075,W,1,11,1.6,21,M,,M,,*6A
06/01/2014	19:04:55.621	$GPGGA,190456,2440.4153,N,07953.8053,W,1,11,1.6,21,M,,M,,*6C
06/01/2014	19:04:56.640	$GPGGA,190457,2440.4156,N,07953.8030,W,1,12,1.3,21,M,,M,,*6B
06/01/2014	19:04:57.509	$GPGGA,190458,2440.4162,N,07953.8005,W,1,12,1.3,21,M,,M,,*65
06/01/2014	19:04:58.637	$GPGGA,190459,2440.4166,N,07953.7981,W,1,11,1.6,21,M,,M,,*6C
06/01/2014	19:04:59.617	$GPGGA,190500,2440.4170,N,07953.7957,W,1,11,1.3,21,M,,M,,*68
06/01/2014	19:05:00.614	$GPGGA,190501,2440.4174,N,07953.7932,W,1,12,1.3,21,M,,M,,*6D
06/01/2014	19:05:01.592	$GPGGA,190502,2440.4177,N,07953.7910,W,1,12,1.6,21,M,,M,,*68
06/01/2014	19:05:02.580	$GPGGA,190503,2440.4178,N,07953.7888,W,1,12,1.3,21,M,,M,,*63
06/01/2014	19:05:03.599	$GPGGA,190504,2440.4184,N,07953.7863,W,1,12,1.3,21,M,,M,,*62
06/01/2014	19:05:04.598	$GPGGA,190505,2440.4186,N,07953.7838,W,1,11,1.6,21,M,,M,,*69
06/01/2014	19:05:05.576	$GPGGA,190506,2440.4191,N,07953.7813,W,1,11,1.6,21,M,,M,,*65
06/01/2014	19:05:06.585	$GPGGA,190507,2440.4193,N,07953.7788,W,1,12,1.3,21,M,,M,,*6D
06/01/2014	19:05:07.583	$GPGGA,190508,2440.4199,N,07953.7763,W,1,12,1.3,21,M,,M,,*6D
06/01/2014	19:05:08.554	$GPGGA,190509,2440.4202,N,07953.7740,W,1,11,1.6,21,M,,M,,*6A
06/01/2014	19:05:09.561	$GPGGA,190510,2440.4206,N,07953.7715,W,1,11,1.3,21,M,,M,,*63
06/01/2014	19:05:10.549	$GPGGA,190511,2440.4210,N,07953.7691,W,1,12,1.3,21,M,,M,,*6B
06/01/2014	19:05:11.568	$GPGGA,190512,2440.4213,N,07953.7667,W,1,12,1.3,21,M,,M,,*62
06/01/2014	19:05:12.546	$GPGGA,190513,2440.4217,N,07953.7642,W,1,12,1.3,21,M,,M,,*60
06/01/2014	19:05:13.545	$GPGGA,190514,2440.4221,N,07953.7617,W,1,12,1.6,21,M,,M,,*67
06/01/2014	19:05:14.544	$GPGGA,190515,2440.4224,N,07953.7593,W,1,11,1.6,21,M,,M,,*6F
06/01/2014	19:05:15.552	$GPGGA,190516,2440.4228,N,07953.7568,W,1,11,1.3,21,M,,M,,*61
06/01/2014	19:05:16.531	$GPGGA,190517,2440.4232,N,07953.7543,W,1,12,1.3,20,M,,M,,*60
06/01/2014	19:05:17.539	$GPGGA,190518,2440.4236,N,07953.7519,W,1,12,1.6,20,M,,M,,*61
06/01/2014	19:05:18.537	$GPGGA,190519,2440.4239,N,07953.7495,W,1,11,1.6,20,M,,M,,*69
06/01/2014	19:05:19.546	$GPGGA,190520,2440.4242,N,07953.7472,W,1,11,1.3,20,M,,M,,*63
06/01/2014	19:05:20.514	$GPGGA,190521,2440.4246,N,07953.7448,W,1,12,1.3,20,M,,M,,*6C
06/01/2014	19:05:21.513	$GPGGA,190522,2440.4250,N,07953.7422,W,1,12,1.6,20,M,,M,,*61
06/01/2014	19:05:22.511	$GPGGA,190523,2440.4254,N,07953.7400,W,1,12,1.3,20,M,,M,,*61
06/01/2014	19:05:23.520	$GPGGA,190524,2440.4256,N,07953.7377,W,1,12,1.3,20,M,,M,,*63
06/01/2014	19:05:24.499	$GPGGA,190525,2440.4260,N,07953.7354,W,1,12,1.3,20,M,,M,,*66
06/01/2014	19:05:25.507	$GPGGA,190526,2440.4263,N,07953.7331,W,1,12,1.3,20,M,,M,,*65
06/01/2014	19:05:26.676	$GPGGA,190527,2440.4265,N,07953.7307,W,1,12,1.3,20,M,,M,,*67
06/01/2014	19:05:27.504	$GPGGA,190528,2440.4268,N,07953.7283,W,1,12,1.3,20,M,,M,,*68
06/01/2014	19:05:28.751	$GPGGA,190529,2440.4272,N,07953.7259,W,1,11,1.3,19,M,,M,,*6C
06/01/2014	19:05:29.570	$GPGGA,190530,2440.4274,N,07953.7237,W,1,11,1.3,19,M,,M,,*6A
06/01/2014	19:05:30.588	$GPGGA,190531,2440.4278,N,07953.7212,W,1,12,1.3,19,M,,M,,*63
06/01/2014	19:05:31.717	$GPGGA,190532,2440.4281,N,07953.7188,W,1,12,1.6,19,M,,M,,*63
06/01/2014	19:05:32.565	$GPGGA,190533,2440.4283,N,07953.7165,W,1,11,1.6,19,M,,M,,*60
06/01/2014	19:05:33.564	$GPGGA,190534,2440.4287,N,07953.7141,W,1,11,1.3,19,M,,M,,*60
06/01/2014	19:05:34.553	$GPGGA,190535,2440.4290,N,07953.7117,W,1,12,1.3,19,M,,M,,*67
06/01/2014	19:05:35.692	$GPGGA,190536,2440.4294,N,07953.7093,W,1,12,1.3,19,M,,M,,*6D
06/01/2014	19:05:36.749	$GPGGA,190537,2440.4297,N,07953.7070,W,1,12,1.3,19,M,,M,,*62
06/01/2014	19:05:37.557	$GPGGA,190538,2440.4299,N,07953.7048,W,1,12,1.3,19,M,,M,,*68
06/01/2014	19:05:38.636	$GPGGA,190539,2440.4301,N,07953.7024,W,1,12,1.3,19,M,,M,,*63
06/01/2014	19:05:39.565	$GPGGA,190540,2440.4305,N,07953.7001,W,1,12,1.6,19,M,,M,,*6B
06/01/2014	19:05:40.753	$GPGGA,190541,2440.4308,N,07953.6976,W,1,12,1.3,19,M,,M,,*6A
06/01/2014	19:05:41.632	$GPGGA,190542,2440.4312,N,07953.6954,W,1,12,1.3,19,M,,M,,*62
06/01/2014	19:05:42.730	$GPGGA,190543,2440.4316,N,07953.6930,W,1,12,1.3,19,M,,M,,*65
06/01/2014	19:05:43.549	$GPGGA,190544,2440.4321,N,07953.6906,W,1,12,1.3,19,M,,M,,*63
06/01/2014	19:05:44.717	$GPGGA,190545,2440.4323,N,07953.6884,W,1,11,1.6,19,M,,M,,*6D
06/01/2014	19:05:45.616	$GPGGA,190546,2440.4325,N,07953.6861,W,1,11,1.3,19,M,,M,,*66
06/01/2014	19:05:46.725	$GPGGA,190547,2440.4329,N,07953.6838,W,1,12,1.3,19,M,,M,,*64
06/01/2014	19:05:47.653	$GPGGA,190548,2440.4332,N,07953.6816,W,1,12,1.3,19,M,,M,,*6D
06/01/2014	19:05:48.712	$GPGGA,190549,2440.4336,N,07953.6792,W,1,12,1.6,19,M,,M,,*6E
06/01/2014	19:05:49.631	$GPGGA,190550,2440.4340,N,07953.6768,W,1,12,1.3,19,M,,M,,*67
06/01/2014	19:05:50.709	$GPGGA,190551,2440.4343,N,07953.6744,W,1,12,1.3,19,M,,M,,*6B
06/01/2014	19:05:51.608	$GPGGA,190552,2440.4348,N,07953.6720,W,1,12,1.3,19,M,,M,,*61
06/01/2014	19:05:52.696	$GPGGA,190553,2440.4352,N,07953.6695,W,1,11,1.3,19,M,,M,,*67
06/01/2014	19:05:53.614	$GPGGA,190554,2440.4355,N,07953.6671,W,1,11,1.3,19,M,,M,,*6D
06/01/2014	19:05:54.692	$GPGGA,190555,2440.4361,N,07953.6647,W,1,12,1.3,19,M,,M,,*6D
06/01/2014	19:05:55.631	$GPGGA,190556,2440.4366,N,07953.6623,W,1,12,1.3,19,M,,M,,*6B
06/01/2014	19:05:56.580	$GPGGA,190557,2440.4368,N,07953.6601,W,1,11,1.6,19,M,,M,,*62
06/01/2014	19:05:57.598	$GPGGA,190558,2440.4370,N,07953.6578,W,1,11,1.3,19,M,,M,,*6C
06/01/2014	19:05:58.637	$GPGGA,190559,2440.4376,N,07953.6556,W,1,12,1.3,19,M,,M,,*64
06/01/2014	19:05:59.616	$GPGGA,190600,2440.4380,N,07953.6534,W,1,12,1.3,19,M,,M,,*66
06/01/2014	19:06:00.564	$GPGGA,190601,2440.4381,N,07953.6510,W,1,12,1.3,19,M,,M,,*60
06/01/2014	19:06:01.583	$GPGGA,190602,2440.4388,N,07953.6487,W,1,12,1.3,19,M,,M,,*65
06/01/2014	19:06:02.551	$GPGGA,190603,2440.4391,N,07953.6464,W,1,12,1.3,19,M,,M,,*61
06/01/2014	19:06:03.560	$GPGGA,190604,2440.4395,N,07953.6440,W,1,12,1.3,19,M,,M,,*64
06/01/2014	19:06:04.549	$GPGGA,190605,2440.4399,N,07953.6419,W,1,12,1.3,19,M,,M,,*65
06/01/2014	19:06:05.587	$GPGGA,190606,2440.4404,N,07953.6395,W,1,12,1.3,19,M,,M,,*66
06/01/2014	19:06:06.666	$GPGGA,190607,2440.4406,N,07953.6373,W,1,12,1.3,19,M,,M,,*6D
06/01/2014	19:06:07.594	$GPGGA,190608,2440.4412,N,07953.6348,W,1,12,1.6,19,M,,M,,*6A
06/01/2014	19:06:08.623	$GPGGA,190609,2440.4417,N,07953.6324,W,1,11,1.3,20,M,,M,,*68
06/01/2014	19:06:09.522	$GPGGA,190610,2440.4419,N,07953.6300,W,1,11,1.3,20,M,,M,,*68
06/01/2014	19:06:10.640	$GPGGA,190611,2440.4424,N,07953.6275,W,1,12,1.6,20,M,,M,,*62
06/01/2014	19:06:11.568	$GPGGA,190612,2440.4427,N,07953.6254,W,1,12,1.4,20,M,,M,,*63
06/01/2014	19:06:12.636	$GPGGA,190613,2440.4431,N,07953.6230,W,1,11,1.3,20,M,,M,,*63
06/01/2014	19:06:13.515	$GPGGA,190614,2440.4437,N,07953.6207,W,1,11,1.3,20,M,,M,,*66
06/01/2014	19:06:14.504	$GPGGA,190615,2440.4440,N,07953.6183,W,1,11,1.4,20,M,,M,,*6F
06/01/2014	19:06:15.552	$GPGGA,190616,2440.4444,N,07953.6159,W,1,11,1.6,20,M,,M,,*6D
06/01/2014	19:06:16.651	$GPGGA,190617,2440.4446,N,07953.6136,W,1,11,1.3,20,M,,M,,*62
06/01/2014	19:06:17.529	$GPGGA,190618,2440.4452,N,07953.6112,W,1,11,1.3,20,M,,M,,*6E
06/01/2014	19:06:18.498	$GPGGA,190619,2440.4456,N,07953.6087,W,1,12,1.3,20,M,,M,,*65
06/01/2014	19:06:19.507	$GPGGA,190620,2440.4459,N,07953.6063,W,1,12,1.6,20,M,,M,,*6F
06/01/2014	19:06:20.625	$GPGGA,190621,2440.4464,N,07953.6037,W,1,11,1.3,20,M,,M,,*67
06/01/2014	19:06:21.524	$GPGGA,190622,2440.4467,N,07953.6012,W,1,11,1.3,20,M,,M,,*60
06/01/2014	19:06:22.572	$GPGGA,190623,2440.4470,N,07953.5988,W,1,12,1.6,20,M,,M,,*68
06/01/2014	19:06:23.491	$GPGGA,190624,2440.4475,N,07953.5965,W,1,12,1.6,20,M,,M,,*69
06/01/2014	19:06:24.600	$GPGGA,190625,2440.4480,N,07953.5942,W,1,12,1.3,20,M,,M,,*62
06/01/2014	19:06:25.518	$GPGGA,190626,2440.4482,N,07953.5919,W,1,12,1.3,20,M,,M,,*6D
06/01/2014	19:06:26.567	$GPGGA,190627,2440.4488,N,07953.5897,W,1,12,1.3,20,M,,M,,*61
06/01/2014	19:06:27.575	$GPGGA,190628,2440.4492,N,07953.5873,W,1,12,1.6,20,M,,M,,*6A
06/01/2014	19:06:28.701	$GPGGA,190629,2440.4495,N,07953.5852,W,1,11,1.3,20,M,,M,,*69
06/01/2014	19:06:29.640	$GPGGA,190630,2440.4498,N,07953.5827,W,1,11,1.3,20,M,,M,,*6E
06/01/2014	19:06:30.708	$GPGGA,190631,2440.4500,N,07953.5803,W,1,12,1.3,20,M,,M,,*6A
06/01/2014	19:06:31.657	$GPGGA,190632,2440.4505,N,07953.5779,W,1,12,1.3,20,M,,M,,*6E
06/01/2014	19:06:32.655	$GPGGA,190633,2440.4510,N,07953.5756,W,1,12,1.3,20,M,,M,,*66
06/01/2014	19:06:33.644	$GPGGA,190634,2440.4511,N,07953.5732,W,1,12,1.3,20,M,,M,,*62
06/01/2014	19:06:34.633	$GPGGA,190635,2440.4516,N,07953.5710,W,1,12,1.3,20,M,,M,,*64
06/01/2014	19:06:35.641	$GPGGA,190636,2440.4521,N,07953.5686,W,1,12,1.3,20,M,,M,,*6D
06/01/2014	19:06:36.690	$GPGGA,190637,2440.4524,N,07953.5664,W,1,12,1.3,20,M,,M,,*65
06/01/2014	19:06:37.628	$GPGGA,190638,2440.4527,N,07953.5641,W,1,12,1.3,20,M,,M,,*6E
06/01/2014	19:06:38.647	$GPGGA,190639,2440.4531,N,07953.5618,W,1,12,1.3,20,M,,M,,*64
06/01/2014	19:06:39.626	$GPGGA,190640,2440.4535,N,07953.5595,W,1,12,1.3,20,M,,M,,*68
06/01/2014	19:06:40.654	$GPGGA,190641,2440.4538,N,07953.5572,W,1,12,1.3,20,M,,M,,*6D
06/01/2014	19:06:41.607	$GPGGA,190642,2440.4542,N,07953.5550,W,1,12,1.3,20,M,,M,,*63
06/01/2014	19:06:42.641	$GPGGA,190643,2440.4546,N,07953.5526,W,1,12,1.3,20,M,,M,,*67
06/01/2014	19:06:43.620	$GPGGA,190644,2440.4547,N,07953.5503,W,1,12,1.6,20,M,,M,,*63
06/01/2014	19:06:44.629	$GPGGA,190645,2440.4550,N,07953.5480,W,1,11,1.6,20,M,,M,,*6D
06/01/2014	19:06:45.597	$GPGGA,190646,2440.4554,N,07953.5456,W,1,11,1.3,20,M,,M,,*64
06/01/2014	19:06:46.695	$GPGGA,190647,2440.4554,N,07953.5456,W,1,12,1.3,20,M,,M,,*66
06/01/2014	19:06:47.613	$GPGGA,190648,2440.4558,N,07953.5409,W,1,12,1.6,20,M,,M,,*6A
06/01/2014	19:06:48.622	$GPGGA,190649,2440.4563,N,07953.5385,W,1,11,1.3,20,M,,M,,*66
06/01/2014	19:06:49.571	$GPGGA,190650,2440.4565,N,07953.5361,W,1,11,1.3,20,M,,M,,*62
06/01/2014	19:06:50.609	$GPGGA,190651,2440.4570,N,07953.5337,W,1,11,1.6,20,M,,M,,*61
06/01/2014	19:06:51.588	$GPGGA,190652,2440.4574,N,07953.5315,W,1,11,1.6,20,M,,M,,*66
06/01/2014	19:06:52.606	$GPGGA,190653,2440.4576,N,07953.5290,W,1,12,1.6,20,M,,M,,*6A
06/01/2014	19:06:53.555	$GPGGA,190654,2440.4579,N,07953.5267,W,1,12,1.6,20,M,,M,,*6A
06/01/2014	19:06:54.614	$GPGGA,190655,2440.4585,N,07953.5243,W,1,12,1.6,20,M,,M,,*6E
06/01/2014	19:06:55.580	$GPGGA,190656,2440.4586,N,07953.5220,W,1,12,1.3,20,M,,M,,*6E
06/01/2014	19:06:56.571	$GPGGA,190657,2440.4586,N,07953.5220,W,1,12,1.3,20,M,,M,,*6F
06/01/2014	19:06:57.549	$GPGGA,190658,2440.4594,N,07953.5173,W,1,12,1.6,20,M,,M,,*63
06/01/2014	19:06:58.598	$GPGGA,190659,2440.4597,N,07953.5149,W,1,12,1.6,19,M,,M,,*62
06/01/2014	19:06:59.567	$GPGGA,190700,2440.4597,N,07953.5149,W,1,12,1.6,19,M,,M,,*6F
06/01/2014	19:07:00.605	$GPGGA,190701,2440.4605,N,07953.5102,W,1,12,1.3,19,M,,M,,*6C
06/01/2014	19:07:01.634	$GPGGA,190702,2440.4610,N,07953.5077,W,1,12,1.3,19,M,,M,,*68
06/01/2014	19:07:02.662	$GPGGA,190703,2440.4615,N,07953.5055,W,1,12,1.3,19,M,,M,,*6C
06/01/2014	19:07:03.570	$GPGGA,190704,2440.4619,N,07953.5031,W,1,12,1.4,19,M,,M,,*62
06/01/2014	19:07:04.668	$GPGGA,190705,2440.4623,N,07953.5008,W,1,11,1.4,19,M,,M,,*63
06/01/2014	19:07:05.527	$GPGGA,190706,2440.4626,N,07953.4987,W,1,11,1.6,19,M,,M,,*68
06/01/2014	19:07:06.626	$GPGGA,190707,2440.4630,N,07953.4964,W,1,12,1.3,19,M,,M,,*65
06/01/2014	19:07:07.544	$GPGGA,190708,2440.4633,N,07953.4942,W,1,12,1.3,19,M,,M,,*6D
06/01/2014	19:07:08.653	$GPGGA,190709,2440.4633,N,07953.4942,W,1,12,1.3,19,M,,M,,*6C
06/01/2014	19:07:09.522	$GPGGA,190710,2440.4641,N,07953.4896,W,1,12,1.3,19,M,,M,,*69
06/01/2014	19:07:10.590	$GPGGA,190711,2440.4641,N,07953.4896,W,1,12,1.3,19,M,,M,,*68
06/01/2014	19:07:11.509	$GPGGA,190712,2440.4650,N,07953.4850,W,1,12,1.3,19,M,,M,,*61
06/01/2014	19:07:12.607	$GPGGA,190713,2440.4654,N,07953.4827,W,1,11,1.4,19,M,,M,,*60
06/01/2014	19:07:13.506	$GPGGA,190714,2440.4658,N,07953.4805,W,1,11,1.3,19,M,,M,,*6C
06/01/2014	19:07:14.585	$GPGGA,190715,2440.4662,N,07953.4780,W,1,12,1.3,19,M,,M,,*65
06/01/2014	19:07:15.503	$GPGGA,190716,2440.4666,N,07953.4759,W,1,12,1.6,19,M,,M,,*63
06/01/2014	19:07:16.582	$GPGGA,190717,2440.4670,N,07953.4736,W,1,11,1.4,19,M,,M,,*6D
06/01/2014	19:07:17.580	$GPGGA,190718,2440.4673,N,07953.4713,W,1,11,1.3,19,M,,M,,*61
06/01/2014	19:07:18.589	$GPGGA,190719,2440.4677,N,07953.4691,W,1,11,1.4,19,M,,M,,*68
06/01/2014	19:07:19.588	$GPGGA,190720,2440.4682,N,07953.4668,W,1,11,1.3,19,M,,M,,*69
06/01/2014	19:07:20.596	$GPGGA,190721,2440.4686,N,07953.4644,W,1,12,1.3,19,M,,M,,*61
06/01/2014	19:07:21.574	$GPGGA,190722,2440.4688,N,07953.4622,W,1,12,1.3,19,M,,M,,*6C
06/01/2014	19:07:22.924	$GPGGA,190723,2440.4691,N,07953.4599,W,1,12,1.3,19,M,,M,,*66
06/01/2014	19:07:23.571	$GPGGA,190724,2440.4695,N,07953.4575,W,1,12,1.3,19,M,,M,,*67
06/01/2014	19:07:24.580	$GPGGA,190725,2440.4698,N,07953.4553,W,1,11,1.6,19,M,,M,,*69
06/01/2014	19:07:25.548	$GPGGA,190726,2440.4702,N,07953.4529,W,1,11,1.3,19,M,,M,,*60
06/01/2014	19:07:26.547	$GPGGA,190727,2440.4708,N,07953.4504,W,1,12,1.3,19,M,,M,,*67
06/01/2014	19:07:27.555	$GPGGA,190728,2440.4711,N,07953.4479,W,1,12,1.3,19,M,,M,,*6B
06/01/2014	19:07:28.621	$GPGGA,190729,2440.4713,N,07953.4454,W,1,12,1.3,19,M,,M,,*67
06/01/2014	19:07:29.630	$GPGGA,190730,2440.4717,N,07953.4430,W,1,12,1.3,19,M,,M,,*69
06/01/2014	19:07:30.618	$GPGGA,190731,2440.4722,N,07953.4407,W,1,12,1.3,19,M,,M,,*6A
06/01/2014	19:07:31.637	$GPGGA,190732,2440.4724,N,07953.4383,W,1,12,1.3,19,M,,M,,*64
06/01/2014	19:07:32.635	$GPGGA,190733,2440.4726,N,07953.4359,W,1,11,1.6,19,M,,M,,*66
06/01/2014	19:07:33.604	$GPGGA,190734,2440.4731,N,07953.4334,W,1,11,1.6,19,M,,M,,*6C
06/01/2014	19:07:34.603	$GPGGA,190735,2440.4734,N,07953.4312,W,1,11,1.6,19,M,,M,,*6C
06/01/2014	19:07:35.621	$GPGGA,190736,2440.4737,N,07953.4288,W,1,11,1.3,19,M,,M,,*6B
06/01/2014	19:07:36.610	$GPGGA,190737,2440.4740,N,07953.4263,W,1,11,1.6,19,M,,M,,*6A
06/01/2014	19:07:37.608	$GPGGA,190738,2440.4745,N,07953.4240,W,1,11,1.6,19,M,,M,,*61
06/01/2014	19:07:38.616	$GPGGA,190739,2440.4749,N,07953.4217,W,1,12,1.3,19,M,,M,,*68
06/01/2014	19:07:39.595	$GPGGA,190740,2440.4749,N,07953.4194,W,1,12,1.3,19,M,,M,,*6E
06/01/2014	19:07:40.583	$GPGGA,190741,2440.4753,N,07953.4170,W,1,11,1.6,19,M,,M,,*68
06/01/2014	19:07:41.592	$GPGGA,190742,2440.4758,N,07953.4146,W,1,11,1.6,19,M,,M,,*65
06/01/2014	19:07:42.570	$GPGGA,190743,2440.4760,N,07953.4122,W,1,11,1.6,19,M,,M,,*6D
06/01/2014	19:07:43.599	$GPGGA,190744,2440.4763,N,07953.4096,W,1,11,1.3,19,M,,M,,*62
06/01/2014	19:07:44.608	$GPGGA,190745,2440.4767,N,07953.4073,W,1,11,1.6,19,M,,M,,*69
06/01/2014	19:07:45.576	$GPGGA,190746,2440.4771,N,07953.4048,W,1,11,1.3,19,M,,M,,*60
06/01/2014	19:07:46.595	$GPGGA,190747,2440.4774,N,07953.4024,W,1,12,1.3,19,M,,M,,*6D
06/01/2014	19:07:47.563	$GPGGA,190748,2440.4778,N,07953.4001,W,1,12,1.6,19,M,,M,,*6C
06/01/2014	19:07:48.572	$GPGGA,190749,2440.4781,N,07953.3977,W,1,11,1.6,19,M,,M,,*67
06/01/2014	19:07:49.551	$GPGGA,190750,2440.4787,N,07953.3956,W,1,11,1.3,19,M,,M,,*6F
06/01/2014	19:07:50.589	$GPGGA,190751,2440.4788,N,07953.3933,W,1,12,1.3,18,M,,M,,*60
06/01/2014	19:07:51.568	$GPGGA,190752,2440.4792,N,07953.3909,W,1,12,1.6,18,M,,M,,*64
06/01/2014	19:07:52.666	$GPGGA,190753,2440.4796,N,07953.3887,W,1,12,1.3,18,M,,M,,*63
06/01/2014	19:07:53.545	$GPGGA,190754,2440.4800,N,07953.3865,W,1,12,1.3,18,M,,M,,*68
06/01/2014	19:07:54.644	$GPGGA,190755,2440.4803,N,07953.3841,W,1,12,1.3,18,M,,M,,*6C
06/01/2014	19:07:55.552	$GPGGA,190756,2440.4807,N,07953.3819,W,1,12,1.3,18,M,,M,,*66
06/01/2014	19:07:56.530	$GPGGA,190757,2440.4811,N,07953.3796,W,1,12,1.3,18,M,,M,,*68
06/01/2014	19:07:57.618	$GPGGA,190758,2440.4816,N,07953.3774,W,1,12,1.3,18,M,,M,,*6C
06/01/2014	19:07:58.537	$GPGGA,190759,2440.4820,N,07953.3752,W,1,12,1.3,19,M,,M,,*6D
06/01/2014	19:07:59.546	$GPGGA,190800,2440.4824,N,07953.3728,W,1,12,1.3,19,M,,M,,*67
06/01/2014	19:08:00.534	$GPGGA,190801,2440.4827,N,07953.3709,W,1,11,1.6,19,M,,M,,*60
06/01/2014	19:08:01.513	$GPGGA,190802,2440.4829,N,07953.3687,W,1,11,1.3,19,M,,M,,*6F
06/01/2014	19:08:02.611	$GPGGA,190803,2440.4834,N,07953.3663,W,1,12,1.3,19,M,,M,,*6B
06/01/2014	19:08:03.620	$GPGGA,190804,2440.4838,N,07953.3639,W,1,12,1.4,19,M,,M,,*68
06/01/2014	19:08:04.599	$GPGGA,190805,2440.4841,N,07953.3616,W,1,12,1.3,19,M,,M,,*6D
06/01/2014	19:08:05.587	$GPGGA,190806,2440.4843,N,07953.3593,W,1,12,1.3,19,M,,M,,*62
06/01/2014	19:08:06.596	$GPGGA,190807,2440.4849,N,07953.3570,W,1,12,1.3,19,M,,M,,*64
06/01/2014	19:08:07.594	$GPGGA,190808,2440.4852,N,07953.3546,W,1,12,1.3,19,M,,M,,*64
06/01/2014	19:08:08.583	$GPGGA,190809,2440.4856,N,07953.3523,W,1,12,1.3,19,M,,M,,*62
06/01/2014	19:08:09.582	$GPGGA,190810,2440.4859,N,07953.3499,W,1,12,1.3,19,M,,M,,*65
06/01/2014	19:08:10.600	$GPGGA,190811,2440.4864,N,07953.3475,W,1,12,1.3,19,M,,M,,*68
06/01/2014	19:08:11.589	$GPGGA,190812,2440.4868,N,07953.3451,W,1,12,1.3,19,M,,M,,*61
06/01/2014	19:08:12.607	$GPGGA,190813,2440.4872,N,07953.3427,W,1,12,1.3,19,M,,M,,*6A
06/01/2014	19:08:13.565	$GPGGA,190814,2440.4875,N,07953.3403,W,1,12,1.3,19,M,,M,,*6C
06/01/2014	19:08:14.584	$GPGGA,190815,2440.4882,N,07953.3379,W,1,12,1.3,19,M,,M,,*6F
06/01/2014	19:08:15.582	$GPGGA,190816,2440.4886,N,07953.3355,W,1,12,1.3,19,M,,M,,*66
06/01/2014	19:08:16.551	$GPGGA,190817,2440.4890,N,07953.3332,W,1,12,1.3,19,M,,M,,*61
06/01/2014	19:08:17.579	$GPGGA,190818,2440.4893,N,07953.3308,W,1,12,1.3,20,M,,M,,*6E
06/01/2014	19:08:18.568	$GPGGA,190819,2440.4897,N,07953.3284,W,1,12,1.3,20,M,,M,,*6E
06/01/2014	19:08:19.557	$GPGGA,190820,2440.4903,N,07953.3262,W,1,12,1.3,20,M,,M,,*60
06/01/2014	19:08:20.575	$GPGGA,190821,2440.4907,N,07953.3238,W,1,12,1.3,20,M,,M,,*6A
06/01/2014	19:08:21.534	$GPGGA,190822,2440.4911,N,07953.3214,W,1,12,1.3,20,M,,M,,*60
06/01/2014	19:08:22.582	$GPGGA,190823,2440.4915,N,07953.3191,W,1,12,1.3,20,M,,M,,*6B
06/01/2014	19:08:23.551	$GPGGA,190824,2440.4921,N,07953.3167,W,1,12,1.3,20,M,,M,,*62
06/01/2014	19:08:24.560	$GPGGA,190825,2440.4924,N,07953.3143,W,1,12,1.3,20,M,,M,,*60
06/01/2014	19:08:25.518	$GPGGA,190826,2440.4928,N,07953.3119,W,1,12,1.3,20,M,,M,,*60
06/01/2014	19:08:26.547	$GPGGA,190827,2440.4932,N,07953.3096,W,1,12,1.3,20,M,,M,,*6C
06/01/2014	19:08:27.525	$GPGGA,190828,2440.4937,N,07953.3072,W,1,12,1.3,20,M,,M,,*6C
06/01/2014	19:08:28.632	$GPGGA,190829,2440.4940,N,07953.3050,W,1,11,1.6,20,M,,M,,*6B
06/01/2014	19:08:29.592	$GPGGA,190830,2440.4944,N,07953.3026,W,1,11,1.4,20,M,,M,,*64
06/01/2014	19:08:30.629	$GPGGA,190831,2440.4948,N,07953.3002,W,1,12,1.3,20,M,,M,,*6B
06/01/2014	19:08:31.597	$GPGGA,190832,2440.4951,N,07953.2978,W,1,12,1.3,20,M,,M,,*65
06/01/2014	19:08:32.625	$GPGGA,190833,2440.4954,N,07953.2953,W,1,12,1.3,20,M,,M,,*68
06/01/2014	19:08:33.584	$GPGGA,190834,2440.4957,N,07953.2930,W,1,12,1.6,20,M,,M,,*6C
06/01/2014	19:08:34.613	$GPGGA,190835,2440.4959,N,07953.2905,W,1,12,1.3,20,M,,M,,*60
06/01/2014	19:08:35.591	$GPGGA,190836,2440.4962,N,07953.2880,W,1,12,1.6,20,M,,M,,*62
06/01/2014	19:08:36.570	$GPGGA,190837,2440.4966,N,07953.2858,W,1,11,1.6,20,M,,M,,*61
06/01/2014	19:08:37.568	$GPGGA,190838,2440.4969,N,07953.2834,W,1,11,1.3,20,M,,M,,*6E
06/01/2014	19:08:38.567	$GPGGA,190839,2440.4972,N,07953.2810,W,1,11,1.6,20,M,,M,,*66
06/01/2014	19:08:39.696	$GPGGA,190840,2440.4975,N,07953.2786,W,1,11,1.6,20,M,,M,,*6F
06/01/2014	19:08:40.684	$GPGGA,190841,2440.4977,N,07953.2762,W,1,11,1.6,20,M,,M,,*66
06/01/2014	19:08:41.663	$GPGGA,190842,2440.4980,N,07953.2739,W,1,11,1.6,20,M,,M,,*63
06/01/2014	19:08:42.552	$GPGGA,190843,2440.4984,N,07953.2714,W,1,12,1.3,20,M,,M,,*6F
06/01/2014	19:08:43.680	$GPGGA,190844,2440.4986,N,07953.2691,W,1,12,1.6,20,M,,M,,*63
06/01/2014	19:08:44.549	$GPGGA,190845,2440.4988,N,07953.2668,W,1,12,1.3,20,M,,M,,*6F
06/01/2014	19:08:45.637	$GPGGA,190846,2440.4993,N,07953.2645,W,1,12,1.3,19,M,,M,,*63
06/01/2014	19:08:46.636	$GPGGA,190847,2440.4997,N,07953.2622,W,1,12,1.3,19,M,,M,,*67
06/01/2014	19:08:47.644	$GPGGA,190848,2440.4998,N,07953.2599,W,1,12,1.3,19,M,,M,,*64
06/01/2014	19:08:48.643	$GPGGA,190849,2440.5002,N,07953.2577,W,1,12,1.3,19,M,,M,,*6E
06/01/2014	19:08:49.631	$GPGGA,190850,2440.5006,N,07953.2554,W,1,12,1.3,19,M,,M,,*63
06/01/2014	19:08:50.619	$GPGGA,190851,2440.5009,N,07953.2531,W,1,12,1.3,19,M,,M,,*6E
06/01/2014	19:08:51.638	$GPGGA,190852,2440.5013,N,07953.2507,W,1,12,1.6,19,M,,M,,*66
06/01/2014	19:08:52.636	$GPGGA,190853,2440.5016,N,07953.2483,W,1,11,1.6,19,M,,M,,*6C
06/01/2014	19:08:53.605	$GPGGA,190854,2440.5019,N,07953.2461,W,1,11,1.6,19,M,,M,,*68
06/01/2014	19:08:54.644	$GPGGA,190855,2440.5022,N,07953.2437,W,1,11,1.6,19,M,,M,,*62
06/01/2014	19:08:55.613	$GPGGA,190856,2440.5024,N,07953.2414,W,1,11,1.6,19,M,,M,,*66
06/01/2014	19:08:56.621	$GPGGA,190857,2440.5027,N,07953.2392,W,1,11,1.6,19,M,,M,,*6D
06/01/2014	19:08:57.609	$GPGGA,190858,2440.5031,N,07953.2369,W,1,11,1.3,19,M,,M,,*64
06/01/2014	19:08:58.608	$GPGGA,190859,2440.5034,N,07953.2346,W,1,11,1.6,19,M,,M,,*68
06/01/2014	19:08:59.617	$GPGGA,190900,2440.5037,N,07953.2323,W,1,11,1.3,19,M,,M,,*60
06/01/2014	19:09:00.625	$GPGGA,190901,2440.5040,N,07953.2299,W,1,11,1.6,19,M,,M,,*64
06/01/2014	19:09:01.594	$GPGGA,190902,2440.5042,N,07953.2275,W,1,11,1.6,19,M,,M,,*67
06/01/2014	19:09:02.602	$GPGGA,190903,2440.5045,N,07953.2252,W,1,12,1.3,19,M,,M,,*62
06/01/2014	19:09:03.601	$GPGGA,190904,2440.5048,N,07953.2228,W,1,12,1.6,19,M,,M,,*60
06/01/2014	19:09:04.590	$GPGGA,190905,2440.5052,N,07953.2205,W,1,11,1.6,19,M,,M,,*66
06/01/2014	19:09:05.568	$GPGGA,190906,2440.5056,N,07953.2183,W,1,11,1.6,19,M,,M,,*6C
06/01/2014	19:09:06.596	$GPGGA,190907,2440.5062,N,07953.2161,W,1,12,1.3,19,M,,M,,*60
06/01/2014	19:09:07.584	$GPGGA,190908,2440.5066,N,07953.2139,W,1,12,1.3,19,M,,M,,*66
06/01/2014	19:09:08.583	$GPGGA,190909,2440.5070,N,07953.2115,W,1,12,1.3,19,M,,M,,*6E
06/01/2014	19:09:09.562	$GPGGA,190910,2440.5074,N,07953.2093,W,1,12,1.3,19,M,,M,,*6D
06/01/2014	19:09:10.590	$GPGGA,190911,2440.5078,N,07953.2070,W,1,12,1.3,19,M,,M,,*6D
06/01/2014	19:09:11.569	$GPGGA,190912,2440.5081,N,07953.2046,W,1,12,1.3,19,M,,M,,*6D
06/01/2014	19:09:12.567	$GPGGA,190913,2440.5085,N,07953.2025,W,1,12,1.3,19,M,,M,,*6D
06/01/2014	19:09:13.536	$GPGGA,190914,2440.5089,N,07953.2002,W,1,12,1.3,19,M,,M,,*63
06/01/2014	19:09:14.565	$GPGGA,190915,2440.5092,N,07953.1978,W,1,12,1.3,19,M,,M,,*6F
06/01/2014	19:09:15.543	$GPGGA,190916,2440.5096,N,07953.1955,W,1,12,1.6,19,M,,M,,*62
06/01/2014	19:09:16.562	$GPGGA,190917,2440.5099,N,07953.1932,W,1,12,1.3,19,M,,M,,*68
06/01/2014	19:09:17.540	$GPGGA,190918,2440.5103,N,07953.1909,W,1,12,1.3,19,M,,M,,*6D
06/01/2014	19:09:18.520	$GPGGA,190919,2440.5107,N,07953.1887,W,1,12,1.3,19,M,,M,,*6F
06/01/2014	19:09:19.546	$GPGGA,190920,2440.5112,N,07953.1863,W,1,12,1.3,19,M,,M,,*6B
06/01/2014	19:09:20.526	$GPGGA,190921,2440.5117,N,07953.1841,W,1,12,1.3,19,M,,M,,*6F
06/01/2014	19:09:21.525	$GPGGA,190922,2440.5121,N,07953.1818,W,1,12,1.3,19,M,,M,,*65
06/01/2014	19:09:22.504	$GPGGA,190923,2440.5125,N,07953.1795,W,1,12,1.3,19,M,,M,,*6A
06/01/2014	19:09:23.651	$GPGGA,190924,2440.5128,N,07953.1772,W,1,12,1.3,19,M,,M,,*69
06/01/2014	19:09:24.621	$GPGGA,190925,2440.5132,N,07953.1750,W,1,12,1.3,19,M,,M,,*63
06/01/2014	19:09:25.528	$GPGGA,190926,2440.5136,N,07953.1726,W,1,12,1.3,19,M,,M,,*65
06/01/2014	19:09:27.785	$GPGGA,190928,2440.5143,N,07953.1680,W,1,12,1.3,19,M,,M,,*64
06/01/2014	19:09:28.592	$GPGGA,190929,2440.5148,N,07953.1656,W,1,11,1.6,19,M,,M,,*63
06/01/2014	19:09:29.571	$GPGGA,190930,2440.5152,N,07953.1632,W,1,11,1.3,19,M,,M,,*67
06/01/2014	19:09:30.700	$GPGGA,190931,2440.5153,N,07953.1609,W,1,12,1.3,19,M,,M,,*6C
06/01/2014	19:09:31.588	$GPGGA,190932,2440.5156,N,07953.1584,W,1,12,1.3,18,M,,M,,*6D
06/01/2014	19:09:32.576	$GPGGA,190933,2440.5161,N,07953.1563,W,1,11,1.6,18,M,,M,,*67
06/01/2014	19:09:33.565	$GPGGA,190934,2440.5167,N,07953.1541,W,1,11,1.3,18,M,,M,,*63
06/01/2014	19:09:34.684	$GPGGA,190935,2440.5171,N,07953.1518,W,1,12,1.3,18,M,,M,,*6A
06/01/2014	19:09:35.572	$GPGGA,190936,2440.5174,N,07953.1497,W,1,12,1.3,18,M,,M,,*6A
06/01/2014	19:09:36.651	$GPGGA,190937,2440.5179,N,07953.1474,W,1,11,1.6,18,M,,M,,*6D
06/01/2014	19:09:37.550	$GPGGA,190938,2440.5182,N,07953.1450,W,1,11,1.3,18,M,,M,,*65
06/01/2014	19:09:38.658	$GPGGA,190939,2440.5186,N,07953.1429,W,1,12,1.3,18,M,,M,,*6D
06/01/2014	19:09:39.657	$GPGGA,190940,2440.5190,N,07953.1406,W,1,12,1.3,18,M,,M,,*69
06/01/2014	19:09:40.635	$GPGGA,190941,2440.5193,N,07953.1383,W,1,12,1.3,18,M,,M,,*61
06/01/2014	19:09:41.623	$GPGGA,190942,2440.5197,N,07953.1362,W,1,12,1.3,18,M,,M,,*69
06/01/2014	19:09:42.651	$GPGGA,190943,2440.5201,N,07953.1339,W,1,12,1.3,18,M,,M,,*6A
06/01/2014	19:09:43.640	$GPGGA,190944,2440.5206,N,07953.1317,W,1,12,1.3,18,M,,M,,*66
06/01/2014	19:09:44.639	$GPGGA,190945,2440.5210,N,07953.1295,W,1,12,1.3,18,M,,M,,*6B
06/01/2014	19:09:45.617	$GPGGA,190946,2440.5214,N,07953.1274,W,1,12,1.3,18,M,,M,,*63
06/01/2014	19:09:46.636	$GPGGA,190947,2440.5218,N,07953.1251,W,1,12,1.3,18,M,,M,,*69
06/01/2014	19:09:47.614	$GPGGA,190948,2440.5222,N,07953.1228,W,1,12,1.3,18,M,,M,,*61
06/01/2014	19:09:48.623	$GPGGA,190949,2440.5226,N,07953.1205,W,1,11,1.6,18,M,,M,,*6D
06/01/2014	19:09:49.602	$GPGGA,190950,2440.5228,N,07953.1182,W,1,11,1.3,18,M,,M,,*62
06/01/2014	19:09:50.600	$GPGGA,190951,2440.5229,N,07953.1159,W,1,11,1.6,17,M,,M,,*6E
06/01/2014	19:09:51.619	$GPGGA,190952,2440.5235,N,07953.1138,W,1,11,1.6,17,M,,M,,*67
06/01/2014	19:09:52.587	$GPGGA,190953,2440.5240,N,07953.1116,W,1,12,1.3,17,M,,M,,*6E
06/01/2014	19:09:53.586	$GPGGA,190954,2440.5243,N,07953.1094,W,1,12,1.3,17,M,,M,,*61
06/01/2014	19:09:54.615	$GPGGA,190955,2440.5246,N,07953.1072,W,1,12,1.3,17,M,,M,,*6D
06/01/2014	19:09:55.593	$GPGGA,190956,2440.5250,N,07953.1049,W,1,12,1.3,17,M,,M,,*61
06/01/2014	19:09:56.602	$GPGGA,190957,2440.5253,N,07953.1025,W,1,12,1.3,17,M,,M,,*69
06/01/2014	19:09:57.570	$GPGGA,190958,2440.5255,N,07953.1001,W,1,12,1.6,17,M,,M,,*63
06/01/2014	19:09:58.598	$GPGGA,190959,2440.5257,N,07953.0979,W,1,12,1.3,17,M,,M,,*62
06/01/2014	19:09:59.587	$GPGGA,191000,2440.5261,N,07953.0956,W,1,12,1.4,17,M,,M,,*69
06/01/2014	19:10:00.595	$GPGGA,191001,2440.5262,N,07953.0932,W,1,12,1.3,17,M,,M,,*6E
06/01/2014	19:10:01.564	$GPGGA,191002,2440.5264,N,07953.0909,W,1,12,1.6,17,M,,M,,*66
06/01/2014	19:10:02.592	$GPGGA,191003,2440.5265,N,07953.0885,W,1,11,1.6,17,M,,M,,*60
06/01/2014	19:10:03.561	$GPGGA,191004,2440.5268,N,07953.0861,W,1,11,1.4,17,M,,M,,*62
06/01/2014	19:10:04.570	$GPGGA,191005,2440.5269,N,07953.0840,W,1,12,1.3,17,M,,M,,*65
06/01/2014	19:10:05.538	$GPGGA,191006,2440.5272,N,07953.0819,W,1,12,1.3,17,M,,M,,*60
06/01/2014	19:10:06.557	$GPGGA,191007,2440.5273,N,07953.0796,W,1,12,1.3,17,M,,M,,*68
06/01/2014	19:10:07.555	$GPGGA,191008,2440.5277,N,07953.0774,W,1,12,1.3,17,M,,M,,*6F
06/01/2014	19:10:08.544	$GPGGA,191009,2440.5279,N,07953.0751,W,1,12,1.3,17,M,,M,,*67
06/01/2014	19:10:09.523	$GPGGA,191010,2440.5280,N,07953.0728,W,1,12,1.6,17,M,,M,,*62
06/01/2014	19:10:10.651	$GPGGA,191011,2440.5284,N,07953.0708,W,1,11,1.3,17,M,,M,,*63
06/01/2014	19:10:11.543	$GPGGA,191012,2440.5284,N,07953.0685,W,1,11,1.3,17,M,,M,,*64
06/01/2014	19:10:12.519	$GPGGA,191013,2440.5287,N,07953.0664,W,1,12,1.3,17,M,,M,,*6A
06/01/2014	19:10:13.527	$GPGGA,191014,2440.5289,N,07953.0641,W,1,12,1.6,17,M,,M,,*61
06/01/2014	19:10:14.648	$GPGGA,191015,2440.5291,N,07953.0618,W,1,11,1.6,17,M,,M,,*66
06/01/2014	19:10:15.534	$GPGGA,191016,2440.5297,N,07953.0597,W,1,11,1.6,17,M,,M,,*67
06/01/2014	19:10:16.622	$GPGGA,191017,2440.5300,N,07953.0574,W,1,12,1.3,17,M,,M,,*62
06/01/2014	19:10:17.511	$GPGGA,191018,2440.5302,N,07953.0551,W,1,12,1.3,17,M,,M,,*68
06/01/2014	19:10:18.619	$GPGGA,191019,2440.5305,N,07953.0528,W,1,11,1.6,17,M,,M,,*66
06/01/2014	19:10:19.498	$GPGGA,191020,2440.5308,N,07953.0505,W,1,11,1.6,17,M,,M,,*6E
06/01/2014	19:10:20.606	$GPGGA,191021,2440.5311,N,07953.0483,W,1,11,1.3,17,M,,M,,*6D
06/01/2014	19:10:21.585	$GPGGA,191022,2440.5315,N,07953.0462,W,1,11,1.3,17,M,,M,,*65
06/01/2014	19:10:22.583	$GPGGA,191023,2440.5318,N,07953.0439,W,1,12,1.6,17,M,,M,,*61
06/01/2014	19:10:23.622	$GPGGA,191024,2440.5320,N,07953.0416,W,1,12,1.6,17,M,,M,,*60
06/01/2014	19:10:24.611	$GPGGA,191025,2440.5323,N,07953.0393,W,1,11,1.3,17,M,,M,,*6E
06/01/2014	19:10:25.579	$GPGGA,191026,2440.5329,N,07953.0371,W,1,11,1.3,17,M,,M,,*6B
06/01/2014	19:10:26.598	$GPGGA,191027,2440.5331,N,07953.0348,W,1,12,1.6,17,M,,M,,*6F
06/01/2014	19:10:27.576	$GPGGA,191028,2440.5334,N,07953.0326,W,1,12,1.6,17,M,,M,,*6D
06/01/2014	19:10:28.595	$GPGGA,191029,2440.5340,N,07953.0304,W,1,11,1.3,17,M,,M,,*69
06/01/2014	19:10:29.564	$GPGGA,191030,2440.5342,N,07953.0281,W,1,11,1.4,17,M,,M,,*68
06/01/2014	19:10:30.572	$GPGGA,191031,2440.5345,N,07953.0260,W,1,11,1.3,17,M,,M,,*66
06/01/2014	19:10:31.571	$GPGGA,191032,2440.5351,N,07953.0238,W,1,11,1.3,17,M,,M,,*6D
06/01/2014	19:10:32.579	$GPGGA,191033,2440.5352,N,07953.0215,W,1,12,1.3,17,M,,M,,*63
06/01/2014	19:10:33.557	$GPGGA,191034,2440.5356,N,07953.0193,W,1,12,1.3,17,M,,M,,*6D
06/01/2014	19:10:34.546	$GPGGA,191035,2440.5362,N,07953.0170,W,1,12,1.3,17,M,,M,,*66
06/01/2014	19:10:35.554	$GPGGA,191036,2440.5366,N,07953.0149,W,1,12,1.6,17,M,,M,,*6E
06/01/2014	19:10:36.553	$GPGGA,191037,2440.5367,N,07953.0128,W,1,11,1.6,17,M,,M,,*6A
06/01/2014	19:10:37.521	$GPGGA,191038,2440.5370,N,07953.0105,W,1,11,2.0,17,M,,M,,*69
06/01/2014	19:10:38.560	$GPGGA,191039,2440.5376,N,07953.0085,W,1,10,1.3,18,M,,M,,*69
06/01/2014	19:10:39.539	$GPGGA,191040,2440.5378,N,07953.0063,W,1,10,1.3,18,M,,M,,*61
06/01/2014	19:10:40.537	$GPGGA,191041,2440.5381,N,07953.0043,W,1,12,1.3,18,M,,M,,*66
06/01/2014	19:10:41.516	$GPGGA,191042,2440.5385,N,07953.0021,W,1,12,1.3,18,M,,M,,*65
06/01/2014	19:10:42.524	$GPGGA,191043,2440.5388,N,07952.9999,W,1,12,1.3,18,M,,M,,*6B
06/01/2014	19:10:43.523	$GPGGA,191044,2440.5392,N,07952.9978,W,1,12,1.3,18,M,,M,,*68
06/01/2014	19:10:44.522	$GPGGA,191045,2440.5396,N,07952.9956,W,1,12,1.3,18,M,,M,,*61
06/01/2014	19:10:45.520	$GPGGA,191046,2440.5402,N,07952.9934,W,1,12,1.3,18,M,,M,,*6C
06/01/2014	19:10:46.509	$GPGGA,191047,2440.5406,N,07952.9911,W,1,12,1.4,19,M,,M,,*68
06/01/2014	19:10:47.527	$GPGGA,191048,2440.5410,N,07952.9890,W,1,12,1.3,19,M,,M,,*6F
06/01/2014	19:10:48.496	$GPGGA,191049,2440.5414,N,07952.9867,W,1,12,1.3,19,M,,M,,*62
06/01/2014	19:10:49.515	$GPGGA,191050,2440.5419,N,07952.9845,W,1,12,1.3,19,M,,M,,*67
06/01/2014	19:10:50.496	$GPGGA,191051,2440.5423,N,07952.9823,W,1,12,1.6,19,M,,M,,*6A
06/01/2014	19:10:51.531	$GPGGA,191052,2440.5425,N,07952.9799,W,1,12,1.3,19,M,,M,,*64
06/01/2014	19:10:52.481	$GPGGA,191053,2440.5431,N,07952.9778,W,1,12,1.6,19,M,,M,,*6A
06/01/2014	19:10:53.498	$GPGGA,191054,2440.5435,N,07952.9756,W,1,12,1.3,19,M,,M,,*60
06/01/2014	19:10:54.498	$GPGGA,191055,2440.5439,N,07952.9733,W,1,12,1.3,20,M,,M,,*64
06/01/2014	19:10:55.495	$GPGGA,191056,2440.5445,N,07952.9714,W,1,12,1.3,20,M,,M,,*69
06/01/2014	19:10:56.495	$GPGGA,191057,2440.5449,N,07952.9693,W,1,12,1.3,20,M,,M,,*6A
06/01/2014	19:10:57.472	$GPGGA,191058,2440.5453,N,07952.9673,W,1,12,1.3,20,M,,M,,*60
06/01/2014	19:10:58.491	$GPGGA,191059,2440.5457,N,07952.9651,W,1,12,1.6,20,M,,M,,*60
06/01/2014	19:10:59.490	$GPGGA,191100,2440.5464,N,07952.9628,W,1,12,1.3,20,M,,M,,*66
06/01/2014	19:11:00.578	$GPGGA,191101,2440.5468,N,07952.9606,W,1,12,1.6,20,M,,M,,*62
06/01/2014	19:11:01.537	$GPGGA,191102,2440.5472,N,07952.9584,W,1,12,1.6,20,M,,M,,*63
06/01/2014	19:11:02.446	$GPGGA,191103,2440.5478,N,07952.9562,W,1,11,1.6,20,M,,M,,*63
06/01/2014	19:11:03.564	$GPGGA,191104,2440.5482,N,07952.9540,W,1,11,1.6,20,M,,M,,*61
06/01/2014	19:11:04.453	$GPGGA,191105,2440.5489,N,07952.9517,W,1,12,1.3,21,M,,M,,*6E
06/01/2014	19:11:05.521	$GPGGA,191106,2440.5493,N,07952.9494,W,1,12,1.3,21,M,,M,,*6C
06/01/2014	19:11:06.430	$GPGGA,191107,2440.5497,N,07952.9472,W,1,12,1.6,21,M,,M,,*64
06/01/2014	19:11:07.538	$GPGGA,191108,2440.5503,N,07952.9449,W,1,12,1.3,21,M,,M,,*6A
06/01/2014	19:11:08.546	$GPGGA,191109,2440.5508,N,07952.9427,W,1,12,1.3,21,M,,M,,*68
06/01/2014	19:11:09.525	$GPGGA,191110,2440.5513,N,07952.9404,W,1,12,1.3,21,M,,M,,*6B
06/01/2014	19:11:10.513	$GPGGA,191111,2440.5515,N,07952.9382,W,1,12,1.3,21,M,,M,,*65
06/01/2014	19:11:11.522	$GPGGA,191112,2440.5521,N,07952.9360,W,1,12,1.3,21,M,,M,,*6D
06/01/2014	19:11:12.510	$GPGGA,191113,2440.5526,N,07952.9339,W,1,11,1.4,21,M,,M,,*63
06/01/2014	19:11:13.509	$GPGGA,191114,2440.5526,N,07952.9316,W,1,11,1.4,21,M,,M,,*69
06/01/2014	19:11:14.498	$GPGGA,191115,2440.5531,N,07952.9294,W,1,12,1.3,21,M,,M,,*61
06/01/2014	19:11:15.516	$GPGGA,191116,2440.5537,N,07952.9271,W,1,12,1.3,21,M,,M,,*6F
06/01/2014	19:11:16.515	$GPGGA,191117,2440.5543,N,07952.9248,W,1,11,1.6,21,M,,M,,*61
06/01/2014	19:11:17.493	$GPGGA,191118,2440.5544,N,07952.9227,W,1,11,1.3,21,M,,M,,*65
06/01/2014	19:11:18.492	$GPGGA,191119,2440.5550,N,07952.9205,W,1,12,1.6,22,M,,M,,*64
06/01/2014	19:11:19.501	$GPGGA,191120,2440.5555,N,07952.9182,W,1,12,1.6,22,M,,M,,*67
06/01/2014	19:11:20.499	$GPGGA,191121,2440.5561,N,07952.9159,W,1,12,1.4,22,M,,M,,*65
06/01/2014	19:11:21.488	$GPGGA,191122,2440.5565,N,07952.9137,W,1,12,1.4,22,M,,M,,*6A
06/01/2014	19:11:22.466	$GPGGA,191123,2440.5569,N,07952.9114,W,1,11,1.6,22,M,,M,,*67
06/01/2014	19:11:23.485	$GPGGA,191124,2440.5575,N,07952.9093,W,1,11,1.3,22,M,,M,,*66
06/01/2014	19:11:24.484	$GPGGA,191125,2440.5579,N,07952.9071,W,1,12,1.3,22,M,,M,,*64
06/01/2014	19:11:25.462	$GPGGA,191126,2440.5583,N,07952.9049,W,1,12,1.3,22,M,,M,,*69
06/01/2014	19:11:26.460	$GPGGA,191127,2440.5587,N,07952.9026,W,1,12,1.3,22,M,,M,,*65
06/01/2014	19:11:27.468	$GPGGA,191128,2440.5590,N,07952.9003,W,1,12,2.0,22,M,,M,,*6B
06/01/2014	19:11:20.684	$GPGGA,191129,2440.5596,N,07952.8982,W,1,11,1.6,22,M,,M,,*6B
06/01/2014	19:11:21.633	$GPGGA,191130,2440.5602,N,07952.8961,W,1,11,1.3,22,M,,M,,*65
06/01/2014	19:11:22.671	$GPGGA,191131,2440.5605,N,07952.8939,W,1,12,1.3,22,M,,M,,*6D
06/01/2014	19:11:23.640	$GPGGA,191132,2440.5608,N,07952.8917,W,1,12,1.3,22,M,,M,,*6F
06/01/2014	19:11:24.618	$GPGGA,191133,2440.5615,N,07952.8896,W,1,11,1.6,22,M,,M,,*6C
06/01/2014	19:11:25.617	$GPGGA,191134,2440.5618,N,07952.8873,W,1,11,1.3,22,M,,M,,*68
06/01/2014	19:11:26.636	$GPGGA,191135,2440.5619,N,07952.8849,W,1,11,1.6,22,M,,M,,*64
06/01/2014	19:11:27.624	$GPGGA,191136,2440.5623,N,07952.8827,W,1,11,1.3,22,M,,M,,*63
06/01/2014	19:11:28.613	$GPGGA,191137,2440.5627,N,07952.8804,W,1,11,1.6,22,M,,M,,*62
06/01/2014	19:11:29.611	$GPGGA,191138,2440.5629,N,07952.8782,W,1,11,1.3,22,M,,M,,*67
06/01/2014	19:11:30.630	$GPGGA,191139,2440.5631,N,07952.8759,W,1,11,1.6,22,M,,M,,*6C
06/01/2014	19:11:31.619	$GPGGA,191140,2440.5637,N,07952.8737,W,1,11,1.6,21,M,,M,,*6F
06/01/2014	19:11:32.627	$GPGGA,191141,2440.5641,N,07952.8714,W,1,11,1.6,21,M,,M,,*6E
