Software Version Number: 1	Data File Format Number: 1	Build Version Number: 1	Error Count Since VI Started: 0	Manufacturer: Raytheon	 Model Number: RayMarine 120	 S/N: 	 Cal Date: 	 Wind Direction Offset: 0.00	 Slope (M)1: 0.00	 Offset (B)1: 0.00	 Slope (M)2: 0.00	 Offset (B)2: 0.00	 Slope (M)3: 0.00	 Offset (B)3: 0.00	 Slope (M)4: 0.00	 Offset (B)4: 0.00	 Slope (M)5: 0.00	 Offset (B)5: 0.00	 Slope (M)6: 0.00	 Offset (B)6: 0.00
Computer Date	Computer Time	GGA String
06/11/2014	11:00:00.598	$GPGGA,110001,2543.8839,N,08009.7276,W,1,8,2.1,13,M,,M,,*57
06/11/2014	11:00:01.578	$GPGGA,110002,2543.8842,N,08009.7274,W,1,8,2.1,13,M,,M,,*5A
06/11/2014	11:00:02.610	$GPGGA,110003,2543.8844,N,08009.7273,W,1,8,2.1,13,M,,M,,*5A
06/11/2014	11:00:03.592	$GPGGA,110004,2543.8844,N,08009.7272,W,1,8,2.1,13,M,,M,,*5C
06/11/2014	11:00:04.586	$GPGGA,110005,2543.8844,N,08009.7272,W,1,8,2.1,13,M,,M,,*5D
06/11/2014	11:00:05.589	$GPGGA,110006,2543.8846,N,08009.7272,W,1,8,2.1,13,M,,M,,*5C
06/11/2014	11:00:06.570	$GPGGA,110007,2543.8845,N,08009.7272,W,1,8,2.1,14,M,,M,,*59
06/11/2014	11:00:07.612	$GPGGA,110008,2543.8847,N,08009.7271,W,1,8,2.1,14,M,,M,,*57
06/11/2014	11:00:08.575	$GPGGA,110009,2543.8848,N,08009.7272,W,1,8,2.1,14,M,,M,,*5A
06/11/2014	11:00:09.597	$GPGGA,110010,2543.8848,N,08009.7271,W,1,8,2.1,14,M,,M,,*51
06/11/2014	11:00:10.590	$GPGGA,110011,2543.8850,N,08009.7270,W,1,8,2.1,14,M,,M,,*58
06/11/2014	11:00:11.603	$GPGGA,110012,2543.8849,N,08009.7270,W,1,8,2.1,15,M,,M,,*52
06/11/2014	11:00:12.595	$GPGGA,110013,2543.8851,N,08009.7270,W,1,8,2.1,15,M,,M,,*5A
06/11/2014	11:00:13.678	$GPGGA,110014,2543.8851,N,08009.7270,W,1,8,2.1,15,M,,M,,*5D
06/11/2014	11:00:14.580	$GPGGA,110015,2543.8851,N,08009.7270,W,1,8,2.1,15,M,,M,,*5C
06/11/2014	11:00:15.713	$GPGGA,110016,2543.8851,N,08009.7270,W,1,8,2.1,15,M,,M,,*5F
06/11/2014	11:00:16.595	$GPGGA,110017,2543.8851,N,08009.7270,W,1,8,2.1,15,M,,M,,*5E
06/11/2014	11:00:17.698	$GPGGA,110018,2543.8853,N,08009.7270,W,1,8,2.1,16,M,,M,,*50
06/11/2014	11:00:18.600	$GPGGA,110019,2543.8852,N,08009.7270,W,1,8,2.1,16,M,,M,,*50
06/11/2014	11:00:19.611	$GPGGA,110020,2543.8854,N,08009.7270,W,1,8,2.1,16,M,,M,,*5C
06/11/2014	11:00:20.595	$GPGGA,110021,2543.8853,N,08009.7270,W,1,8,2.1,16,M,,M,,*5A
06/11/2014	11:00:21.676	$GPGGA,110022,2543.8855,N,08009.7272,W,1,8,2.1,16,M,,M,,*5D
06/11/2014	11:00:22.589	$GPGGA,110023,2543.8855,N,08009.7271,W,1,8,2.1,16,M,,M,,*5F
06/11/2014	11:00:23.702	$GPGGA,110024,2543.8855,N,08009.7272,W,1,8,2.1,17,M,,M,,*5A
06/11/2014	11:00:24.594	$GPGGA,110025,2543.8853,N,08009.7271,W,1,8,2.1,17,M,,M,,*5E
06/11/2014	11:00:25.686	$GPGGA,110026,2543.8855,N,08009.7272,W,1,8,2.1,17,M,,M,,*58
06/11/2014	11:00:26.699	$GPGGA,110027,2543.8853,N,08009.7272,W,1,8,2.1,17,M,,M,,*5F
06/11/2014	11:00:27.722	$GPGGA,110028,2543.8854,N,08009.7271,W,1,8,2.1,17,M,,M,,*54
06/11/2014	11:00:28.684	$GPGGA,110029,2543.8850,N,08009.7272,W,1,8,2.1,17,M,,M,,*52
06/11/2014	11:00:29.696	$GPGGA,110030,2543.8848,N,08009.7273,W,1,8,2.2,17,M,,M,,*51
06/11/2014	11:00:30.709	$GPGGA,110031,2543.8846,N,08009.7274,W,1,8,2.1,17,M,,M,,*5A
06/11/2014	11:00:31.701	$GPGGA,110032,2543.8845,N,08009.7276,W,1,8,2.1,18,M,,M,,*57
06/11/2014	11:00:32.694	$GPGGA,110033,2543.8844,N,08009.7275,W,1,8,2.1,18,M,,M,,*54
06/11/2014	11:00:33.696	$GPGGA,110034,2543.8842,N,08009.7276,W,1,8,2.1,18,M,,M,,*56
06/11/2014	11:00:34.689	$GPGGA,110035,2543.8841,N,08009.7276,W,1,8,2.1,18,M,,M,,*54
06/11/2014	11:00:35.701	$GPGGA,110036,2543.8840,N,08009.7277,W,1,8,2.1,18,M,,M,,*57
06/11/2014	11:00:36.703	$GPGGA,110037,2543.8839,N,08009.7277,W,1,8,2.1,17,M,,M,,*57
06/11/2014	11:00:37.695	$GPGGA,110038,2543.8840,N,08009.7277,W,1,8,2.1,17,M,,M,,*56
06/11/2014	11:00:38.709	$GPGGA,110039,2543.8838,N,08009.7277,W,1,8,2.1,17,M,,M,,*58
06/11/2014	11:00:39.700	$GPGGA,110040,2543.8840,N,08009.7277,W,1,8,2.1,17,M,,M,,*59
06/11/2014	11:00:40.713	$GPGGA,110041,2543.8839,N,08009.7277,W,1,8,2.1,17,M,,M,,*56
06/11/2014	11:00:41.685	$GPGGA,110042,2543.8840,N,08009.7276,W,1,8,2.1,17,M,,M,,*5A
06/11/2014	11:00:42.708	$GPGGA,110043,2543.8838,N,08009.7276,W,1,8,2.1,17,M,,M,,*54
06/11/2014	11:00:43.710	$GPGGA,110044,2543.8839,N,08009.7276,W,1,8,2.1,17,M,,M,,*52
06/11/2014	11:00:44.575	$GPGGA,110045,2543.8838,N,08009.7276,W,1,8,2.1,17,M,,M,,*52
06/11/2014	11:00:45.547	$GPGGA,110046,2543.8839,N,08009.7276,W,1,8,2.1,17,M,,M,,*50
06/11/2014	11:00:46.580	$GPGGA,110047,2543.8838,N,08009.7276,W,1,8,2.1,17,M,,M,,*50
06/11/2014	11:00:47.552	$GPGGA,110048,2543.8840,N,08009.7276,W,1,8,2.1,17,M,,M,,*50
06/11/2014	11:00:48.555	$GPGGA,110049,2543.8839,N,08009.7275,W,1,8,2.1,17,M,,M,,*5C
06/11/2014	11:00:49.537	$GPGGA,110050,2543.8840,N,08009.7276,W,1,8,2.1,17,M,,M,,*59
06/11/2014	11:00:50.540	$GPGGA,110051,2543.8839,N,08009.7276,W,1,8,2.1,17,M,,M,,*56
06/11/2014	11:00:51.564	$GPGGA,110052,2543.8838,N,08009.7276,W,1,8,2.1,16,M,,M,,*55
06/11/2014	11:00:52.585	$GPGGA,110053,2543.8839,N,08009.7276,W,1,8,2.1,16,M,,M,,*55
06/11/2014	11:00:53.559	$GPGGA,110054,2543.8838,N,08009.7276,W,1,8,2.1,16,M,,M,,*53
06/11/2014	11:00:54.579	$GPGGA,110055,2543.8837,N,08009.7276,W,1,8,2.1,16,M,,M,,*5D
06/11/2014	11:00:55.561	$GPGGA,110056,2543.8837,N,08009.7276,W,1,8,2.1,16,M,,M,,*5E
06/11/2014	11:00:56.544	$GPGGA,110057,2543.8837,N,08009.7276,W,1,8,2.1,16,M,,M,,*5F
06/11/2014	11:00:57.567	$GPGGA,110058,2543.8837,N,08009.7276,W,1,8,2.1,16,M,,M,,*50
06/11/2014	11:00:58.569	$GPGGA,110059,2543.8837,N,08009.7275,W,1,8,2.1,16,M,,M,,*52
06/11/2014	11:00:59.561	$GPGGA,110100,2543.8835,N,08009.7276,W,1,8,2.1,16,M,,M,,*5E
06/11/2014	11:01:00.577	$GPGGA,110101,2543.8836,N,08009.7275,W,1,8,2.1,16,M,,M,,*5F
06/11/2014	11:01:01.647	$GPGGA,110102,2543.8835,N,08009.7276,W,1,8,2.1,16,M,,M,,*5C
06/11/2014	11:01:02.569	$GPGGA,110103,2543.8836,N,08009.7274,W,1,8,2.1,16,M,,M,,*5C
06/11/2014	11:01:03.571	$GPGGA,110104,2543.8835,N,08009.7274,W,1,8,2.1,16,M,,M,,*58
06/11/2014	11:01:04.574	$GPGGA,110105,2543.8836,N,08009.7274,W,1,8,2.1,16,M,,M,,*5A
06/11/2014	11:01:05.667	$GPGGA,110106,2543.8835,N,08009.7273,W,1,8,2.1,16,M,,M,,*5D
06/11/2014	11:01:06.579	$GPGGA,110107,2543.8836,N,08009.7273,W,1,8,2.1,16,M,,M,,*5F
06/11/2014	11:01:07.672	$GPGGA,110108,2543.8835,N,08009.7273,W,1,8,2.1,16,M,,M,,*53
06/11/2014	11:01:08.674	$GPGGA,110109,2543.8836,N,08009.7274,W,1,8,2.1,16,M,,M,,*56
06/11/2014	11:01:09.556	$GPGGA,110110,2543.8835,N,08009.7273,W,1,8,2.1,16,M,,M,,*5A
06/11/2014	11:01:10.699	$GPGGA,110111,2543.8836,N,08009.7273,W,1,8,2.1,16,M,,M,,*58
06/11/2014	11:01:11.570	$GPGGA,110112,2543.8835,N,08009.7273,W,1,8,2.1,16,M,,M,,*58
06/11/2014	11:01:12.563	$GPGGA,110113,2543.8836,N,08009.7273,W,1,8,2.1,16,M,,M,,*5A
06/11/2014	11:01:13.645	$GPGGA,110114,2543.8835,N,08009.7273,W,1,8,2.1,16,M,,M,,*5E
06/11/2014	11:01:14.658	$GPGGA,110115,2543.8834,N,08009.7274,W,1,8,2.1,15,M,,M,,*5A
06/11/2014	11:01:15.670	$GPGGA,110116,2543.8837,N,08009.7273,W,1,8,2.2,15,M,,M,,*5E
06/11/2014	11:01:16.673	$GPGGA,110117,2543.8837,N,08009.7272,W,1,8,2.1,15,M,,M,,*5D
06/11/2014	11:01:17.665	$GPGGA,110118,2543.8839,N,08009.7271,W,1,8,2.1,15,M,,M,,*5F
06/11/2014	11:01:18.658	$GPGGA,110119,2543.8840,N,08009.7272,W,1,8,2.1,15,M,,M,,*53
06/11/2014	11:01:19.670	$GPGGA,110120,2543.8840,N,08009.7270,W,1,8,2.1,16,M,,M,,*58
06/11/2014	11:01:20.653	$GPGGA,110121,2543.8843,N,08009.7270,W,1,8,2.1,16,M,,M,,*5A
06/11/2014	11:01:21.665	$GPGGA,110122,2543.8844,N,08009.7268,W,1,8,2.1,16,M,,M,,*57
06/11/2014	11:01:22.688	$GPGGA,110123,2543.8846,N,08009.7269,W,1,8,2.1,16,M,,M,,*55
06/11/2014	11:01:23.680	$GPGGA,110124,2543.8847,N,08009.7267,W,1,8,2.1,16,M,,M,,*5D
06/11/2014	11:01:24.673	$GPGGA,110125,2543.8848,N,08009.7266,W,1,8,2.1,16,M,,M,,*52
06/11/2014	11:01:25.645	$GPGGA,110126,2543.8848,N,08009.7266,W,1,8,2.1,16,M,,M,,*51
06/11/2014	11:01:26.688	$GPGGA,110127,2543.8848,N,08009.7266,W,1,8,2.1,16,M,,M,,*50
06/11/2014	11:01:27.670	$GPGGA,110128,2543.8848,N,08009.7266,W,1,8,2.1,16,M,,M,,*5F
06/11/2014	11:01:28.683	$GPGGA,110129,2543.8850,N,08009.7266,W,1,8,2.1,17,M,,M,,*56
06/11/2014	11:01:29.664	$GPGGA,110130,2543.8851,N,08009.7264,W,1,8,2.1,17,M,,M,,*5D
06/11/2014	11:01:30.657	$GPGGA,110131,2543.8848,N,08009.7265,W,1,8,2.1,17,M,,M,,*55
06/11/2014	11:01:31.669	$GPGGA,110132,2543.8848,N,08009.7265,W,1,8,2.2,17,M,,M,,*55
06/11/2014	11:01:32.692	$GPGGA,110133,2543.8848,N,08009.7265,W,1,8,2.1,17,M,,M,,*57
06/11/2014	11:01:33.665	$GPGGA,110134,2543.8848,N,08009.7266,W,1,8,2.1,17,M,,M,,*53
06/11/2014	11:01:34.697	$GPGGA,110135,2543.8850,N,08009.7264,W,1,7,2.2,17,M,,M,,*55
06/11/2014	11:01:35.679	$GPGGA,110136,2543.8848,N,08009.7265,W,1,7,2.1,17,M,,M,,*5D
06/11/2014	11:01:36.662	$GPGGA,110137,2543.8846,N,08009.7265,W,1,7,2.2,17,M,,M,,*51
06/11/2014	11:01:37.674	$GPGGA,110138,2543.8848,N,08009.7265,W,1,7,2.2,17,M,,M,,*50
06/11/2014	11:01:38.697	$GPGGA,110139,2543.8848,N,08009.7265,W,1,8,2.1,17,M,,M,,*5D
06/11/2014	11:01:39.680	$GPGGA,110140,2543.8848,N,08009.7265,W,1,8,2.1,17,M,,M,,*53
06/11/2014	11:01:40.652	$GPGGA,110141,2543.8848,N,08009.7265,W,1,8,2.1,18,M,,M,,*5D
06/11/2014	11:01:41.674	$GPGGA,110142,2543.8845,N,08009.7266,W,1,8,2.2,18,M,,M,,*53
06/11/2014	11:01:42.697	$GPGGA,110143,2543.8844,N,08009.7266,W,1,7,2.2,18,M,,M,,*5C
06/11/2014	11:01:43.792	$GPGGA,110144,2543.8844,N,08009.7267,W,1,7,2.1,18,M,,M,,*59
06/11/2014	11:01:44.634	$GPGGA,110145,2543.8842,N,08009.7269,W,1,7,2.2,18,M,,M,,*53
06/11/2014	11:01:45.505	$GPGGA,110146,2543.8841,N,08009.7269,W,1,7,2.2,18,M,,M,,*53
06/11/2014	11:01:46.507	$GPGGA,110147,2543.8842,N,08009.7269,W,1,7,2.2,18,M,,M,,*51
06/11/2014	11:01:47.621	$GPGGA,110148,2543.8840,N,08009.7270,W,1,7,2.0,17,M,,M,,*59
06/11/2014	11:01:48.532	$GPGGA,110149,2543.8843,N,08009.7269,W,1,7,2.2,17,M,,M,,*51
06/11/2014	11:01:49.504	$GPGGA,110150,2543.8846,N,08009.7269,W,1,7,2.0,17,M,,M,,*5E
06/11/2014	11:01:50.647	$GPGGA,110151,2543.8844,N,08009.7269,W,1,8,2.0,17,M,,M,,*52
06/11/2014	11:01:51.539	$GPGGA,110152,2543.8848,N,08009.7269,W,1,8,2.2,17,M,,M,,*5F
06/11/2014	11:01:52.542	$GPGGA,110153,2543.8848,N,08009.7269,W,1,8,2.0,17,M,,M,,*5C
06/11/2014	11:01:53.534	$GPGGA,110154,2543.8850,N,08009.7268,W,1,8,2.0,17,M,,M,,*53
06/11/2014	11:01:54.517	$GPGGA,110155,2543.8851,N,08009.7269,W,1,8,2.0,17,M,,M,,*52
06/11/2014	11:01:55.660	$GPGGA,110156,2543.8853,N,08009.7266,W,1,8,2.0,17,M,,M,,*5C
06/11/2014	11:01:56.532	$GPGGA,110157,2543.8855,N,08009.7266,W,1,8,2.0,17,M,,M,,*5B
06/11/2014	11:01:57.614	$GPGGA,110158,2543.8855,N,08009.7265,W,1,8,2.0,18,M,,M,,*58
06/11/2014	11:01:58.657	$GPGGA,110159,2543.8855,N,08009.7265,W,1,8,2.0,18,M,,M,,*59
06/11/2014	11:01:59.670	$GPGGA,110200,2543.8855,N,08009.7265,W,1,8,2.0,18,M,,M,,*56
06/11/2014	11:02:00.652	$GPGGA,110201,2543.8858,N,08009.7264,W,1,8,2.0,18,M,,M,,*5B
06/11/2014	11:02:01.614	$GPGGA,110202,2543.8858,N,08009.7263,W,1,8,2.0,18,M,,M,,*5F
06/11/2014	11:02:02.667	$GPGGA,110203,2543.8858,N,08009.7263,W,1,8,2.0,18,M,,M,,*5E
06/11/2014	11:02:03.629	$GPGGA,110204,2543.8858,N,08009.7265,W,1,8,2.0,18,M,,M,,*5F
06/11/2014	11:02:04.631	$GPGGA,110205,2543.8858,N,08009.7264,W,1,8,2.0,18,M,,M,,*5F
06/11/2014	11:02:05.623	$GPGGA,110206,2543.8859,N,08009.7263,W,1,8,2.0,18,M,,M,,*5A
06/11/2014	11:02:06.636	$GPGGA,110207,2543.8859,N,08009.7262,W,1,8,2.0,18,M,,M,,*5A
06/11/2014	11:02:07.638	$GPGGA,110208,2543.8858,N,08009.7263,W,1,8,2.0,19,M,,M,,*54
06/11/2014	11:02:08.661	$GPGGA,110209,2543.8858,N,08009.7263,W,1,8,2.0,19,M,,M,,*55
06/11/2014	11:02:09.623	$GPGGA,110210,2543.8857,N,08009.7265,W,1,8,2.0,19,M,,M,,*54
06/11/2014	11:02:10.646	$GPGGA,110211,2543.8858,N,08009.7262,W,1,8,2.0,19,M,,M,,*5D
06/11/2014	11:02:11.648	$GPGGA,110212,2543.8856,N,08009.7263,W,1,8,2.3,19,M,,M,,*52
06/11/2014	11:02:12.625	$GPGGA,110213,2543.8855,N,08009.7265,W,1,8,2.0,19,M,,M,,*55
06/11/2014	11:02:13.633	$GPGGA,110214,2543.8855,N,08009.7267,W,1,8,2.0,19,M,,M,,*50
06/11/2014	11:02:14.646	$GPGGA,110215,2543.8853,N,08009.7269,W,1,8,2.0,19,M,,M,,*59
06/11/2014	11:02:15.648	$GPGGA,110216,2543.8855,N,08009.7266,W,1,8,2.0,19,M,,M,,*53
06/11/2014	11:02:16.621	$GPGGA,110217,2543.8855,N,08009.7262,W,1,7,2.3,19,M,,M,,*5A
06/11/2014	11:02:17.627	$GPGGA,110218,2543.8857,N,08009.7261,W,1,7,2.2,19,M,,M,,*55
06/11/2014	11:02:18.656	$GPGGA,110219,2543.8858,N,08009.7262,W,1,8,2.0,19,M,,M,,*55
06/11/2014	11:02:19.640	$GPGGA,110220,2543.8857,N,08009.7261,W,1,8,2.0,19,M,,M,,*53
06/11/2014	11:02:20.646	$GPGGA,110221,2543.8861,N,08009.7256,W,1,8,2.0,19,M,,M,,*53
06/11/2014	11:02:21.622	$GPGGA,110222,2543.8864,N,08009.7252,W,1,8,2.3,20,M,,M,,*58
06/11/2014	11:02:22.651	$GPGGA,110223,2543.8866,N,08009.7250,W,1,8,2.0,20,M,,M,,*5A
06/11/2014	11:02:23.650	$GPGGA,110224,2543.8866,N,08009.7248,W,1,8,2.0,20,M,,M,,*54
06/11/2014	11:02:24.660	$GPGGA,110225,2543.8866,N,08009.7248,W,1,8,2.0,20,M,,M,,*55
06/11/2014	11:02:25.632	$GPGGA,110226,2543.8866,N,08009.7246,W,1,8,2.0,20,M,,M,,*58
06/11/2014	11:02:26.625	$GPGGA,110227,2543.8862,N,08009.7251,W,1,7,2.2,21,M,,M,,*57
06/11/2014	11:02:27.662	$GPGGA,110228,2543.8859,N,08009.7254,W,1,7,4.4,21,M,,M,,*55
06/11/2014	11:02:28.640	$GPGGA,110229,2543.8855,N,08009.7258,W,1,8,2.0,21,M,,M,,*59
06/11/2014	11:02:29.632	$GPGGA,110230,2543.8853,N,08009.7259,W,1,8,2.0,21,M,,M,,*56
06/11/2014	11:02:30.645	$GPGGA,110231,2543.8851,N,08009.7261,W,1,7,2.2,21,M,,M,,*53
06/11/2014	11:02:31.637	$GPGGA,110232,2543.8848,N,08009.7263,W,1,7,2.0,21,M,,M,,*58
06/11/2014	11:02:32.640	$GPGGA,110233,2543.8850,N,08009.7261,W,1,6,4.4,21,M,,M,,*51
06/11/2014	11:02:33.622	$GPGGA,110234,2543.8848,N,08009.7262,W,1,6,2.0,21,M,,M,,*5E
06/11/2014	11:02:34.645	$GPGGA,110235,2543.8848,N,08009.7261,W,1,8,2.0,21,M,,M,,*52
06/11/2014	11:02:35.647	$GPGGA,110236,2543.8844,N,08009.7262,W,1,8,2.2,21,M,,M,,*5C
06/11/2014	11:02:36.650	$GPGGA,110237,2543.8844,N,08009.7263,W,1,8,2.0,20,M,,M,,*5F
06/11/2014	11:02:37.632	$GPGGA,110238,2543.8844,N,08009.7262,W,1,8,4.4,20,M,,M,,*53
06/11/2014	11:02:38.626	$GPGGA,110239,2543.8844,N,08009.7262,W,1,7,2.2,20,M,,M,,*5D
06/11/2014	11:02:39.767	$GPGGA,110240,2543.8844,N,08009.7263,W,1,7,2.2,20,M,,M,,*52
06/11/2014	11:02:40.649	$GPGGA,110241,2543.8844,N,08009.7263,W,1,7,2.2,20,M,,M,,*53
06/11/2014	11:02:41.631	$GPGGA,110242,2543.8844,N,08009.7265,W,1,7,2.2,20,M,,M,,*56
06/11/2014	11:02:42.734	$GPGGA,110243,2543.8841,N,08009.7266,W,1,6,2.2,20,M,,M,,*50
06/11/2014	11:02:43.636	$GPGGA,110244,2543.8840,N,08009.7267,W,1,6,2.2,20,M,,M,,*57
06/11/2014	11:02:44.501	$GPGGA,110245,2543.8840,N,08009.7267,W,1,7,2.2,20,M,,M,,*57
06/11/2014	11:02:45.493	$GPGGA,110246,2543.8839,N,08009.7267,W,1,7,2.2,19,M,,M,,*50
06/11/2014	11:02:46.596	$GPGGA,110247,2543.8840,N,08009.7266,W,1,7,2.2,19,M,,M,,*5E
06/11/2014	11:02:47.508	$GPGGA,110248,2543.8842,N,08009.7265,W,1,7,2.2,19,M,,M,,*50
06/11/2014	11:02:48.611	$GPGGA,110249,2543.8841,N,08009.7265,W,1,7,2.2,19,M,,M,,*52
06/11/2014	11:02:49.603	$GPGGA,110250,2543.8843,N,08009.7264,W,1,7,2.2,19,M,,M,,*59
06/11/2014	11:02:50.596	$GPGGA,110251,2543.8842,N,08009.7265,W,1,7,2.2,19,M,,M,,*58
06/11/2014	11:02:51.598	$GPGGA,110252,2543.8843,N,08009.7263,W,1,7,2.2,19,M,,M,,*5C
06/11/2014	11:02:52.621	$GPGGA,110253,2543.8841,N,08009.7263,W,1,7,4.5,19,M,,M,,*5E
06/11/2014	11:02:53.593	$GPGGA,110254,2543.8844,N,08009.7260,W,1,7,2.2,19,M,,M,,*5E
06/11/2014	11:02:54.606	$GPGGA,110255,2543.8846,N,08009.7258,W,1,7,2.2,19,M,,M,,*56
06/11/2014	11:02:55.608	$GPGGA,110256,2543.8847,N,08009.7257,W,1,7,2.2,19,M,,M,,*5B
06/11/2014	11:02:56.611	$GPGGA,110257,2543.8846,N,08009.7258,W,1,7,2.2,19,M,,M,,*54
06/11/2014	11:02:57.592	$GPGGA,110258,2543.8847,N,08009.7256,W,1,7,2.2,19,M,,M,,*54
06/11/2014	11:02:58.615	$GPGGA,110259,2543.8846,N,08009.7256,W,1,7,2.2,19,M,,M,,*54
06/11/2014	11:02:59.617	$GPGGA,110300,2543.8847,N,08009.7256,W,1,7,2.2,19,M,,M,,*58
06/11/2014	11:03:00.620	$GPGGA,110301,2543.8846,N,08009.7256,W,1,7,2.2,19,M,,M,,*58
06/11/2014	11:03:01.593	$GPGGA,110302,2543.8847,N,08009.7255,W,1,7,2.2,19,M,,M,,*59
06/11/2014	11:03:02.615	$GPGGA,110303,2543.8846,N,08009.7255,W,1,7,2.2,19,M,,M,,*59
06/11/2014	11:03:03.617	$GPGGA,110304,2543.8847,N,08009.7255,W,1,7,2.2,19,M,,M,,*5F
06/11/2014	11:03:04.610	$GPGGA,110305,2543.8846,N,08009.7255,W,1,7,2.2,19,M,,M,,*5F
06/11/2014	11:03:05.612	$GPGGA,110306,2543.8845,N,08009.7255,W,1,7,2.2,19,M,,M,,*5F
06/11/2014	11:03:06.636	$GPGGA,110307,2543.8848,N,08009.7255,W,1,7,2.0,19,M,,M,,*51
06/11/2014	11:03:07.617	$GPGGA,110308,2543.8848,N,08009.7256,W,1,7,2.2,19,M,,M,,*5F
06/11/2014	11:03:08.601	$GPGGA,110309,2543.8846,N,08009.7256,W,1,7,2.2,19,M,,M,,*50
06/11/2014	11:03:09.606	$GPGGA,110310,2543.8847,N,08009.7258,W,1,7,2.2,19,M,,M,,*57
06/11/2014	11:03:10.635	$GPGGA,110311,2543.8845,N,08009.7258,W,1,7,2.2,19,M,,M,,*54
06/11/2014	11:03:11.637	$GPGGA,110312,2543.8846,N,08009.7258,W,1,7,2.2,19,M,,M,,*54
06/11/2014	11:03:12.601	$GPGGA,110313,2543.8845,N,08009.7259,W,1,7,2.0,19,M,,M,,*55
06/11/2014	11:03:13.603	$GPGGA,110314,2543.8844,N,08009.7261,W,1,7,2.2,18,M,,M,,*5B
06/11/2014	11:03:14.616	$GPGGA,110315,2543.8844,N,08009.7260,W,1,7,2.2,18,M,,M,,*5B
06/11/2014	11:03:15.626	$GPGGA,110316,2543.8844,N,08009.7262,W,1,7,2.2,18,M,,M,,*5A
06/11/2014	11:03:16.629	$GPGGA,110317,2543.8842,N,08009.7262,W,1,7,2.2,18,M,,M,,*5D
06/11/2014	11:03:17.611	$GPGGA,110318,2543.8841,N,08009.7263,W,1,7,2.0,18,M,,M,,*52
06/11/2014	11:03:18.624	$GPGGA,110319,2543.8842,N,08009.7263,W,1,8,2.2,18,M,,M,,*5D
06/11/2014	11:03:19.616	$GPGGA,110320,2543.8841,N,08009.7265,W,1,8,2.2,18,M,,M,,*52
06/11/2014	11:03:20.631	$GPGGA,110321,2543.8842,N,08009.7263,W,1,7,2.0,18,M,,M,,*5B
06/11/2014	11:03:21.602	$GPGGA,110322,2543.8841,N,08009.7263,W,1,7,2.2,18,M,,M,,*59
06/11/2014	11:03:22.625	$GPGGA,110323,2543.8840,N,08009.7265,W,1,7,2.2,18,M,,M,,*5F
06/11/2014	11:03:23.637	$GPGGA,110324,2543.8839,N,08009.7264,W,1,7,2.2,18,M,,M,,*57
06/11/2014	11:03:24.630	$GPGGA,110325,2543.8838,N,08009.7265,W,1,7,2.2,18,M,,M,,*56
06/11/2014	11:03:25.691	$GPGGA,110326,2543.8837,N,08009.7266,W,1,7,2.2,18,M,,M,,*59
06/11/2014	11:03:26.614	$GPGGA,110327,2543.8837,N,08009.7267,W,1,7,2.2,17,M,,M,,*56
06/11/2014	11:03:27.729	$GPGGA,110328,2543.8840,N,08009.7263,W,1,7,2.2,17,M,,M,,*5D
06/11/2014	11:03:28.619	$GPGGA,110329,2543.8837,N,08009.7266,W,1,7,4.5,17,M,,M,,*58
06/11/2014	11:03:29.601	$GPGGA,110330,2543.8837,N,08009.7265,W,1,7,2.2,17,M,,M,,*52
06/11/2014	11:03:30.714	$GPGGA,110331,2543.8837,N,08009.7266,W,1,7,2.0,17,M,,M,,*52
06/11/2014	11:03:31.645	$GPGGA,110332,2543.8837,N,08009.7265,W,1,7,2.0,17,M,,M,,*52
06/11/2014	11:03:32.718	$GPGGA,110333,2543.8837,N,08009.7262,W,1,8,2.0,17,M,,M,,*5B
06/11/2014	11:03:33.620	$GPGGA,110334,2543.8840,N,08009.7258,W,1,8,2.0,17,M,,M,,*55
06/11/2014	11:03:34.733	$GPGGA,110335,2543.8839,N,08009.7256,W,1,8,2.0,17,M,,M,,*54
06/11/2014	11:03:35.725	$GPGGA,110336,2543.8840,N,08009.7258,W,1,8,2.2,17,M,,M,,*55
06/11/2014	11:03:36.728	$GPGGA,110337,2543.8838,N,08009.7256,W,1,8,2.0,18,M,,M,,*58
06/11/2014	11:03:37.730	$GPGGA,110338,2543.8837,N,08009.7255,W,1,8,2.0,18,M,,M,,*5B
06/11/2014	11:03:38.733	$GPGGA,110339,2543.8837,N,08009.7255,W,1,7,2.2,18,M,,M,,*57
06/11/2014	11:03:39.715	$GPGGA,110340,2543.8835,N,08009.7255,W,1,7,2.0,18,M,,M,,*59
06/11/2014	11:03:40.708	$GPGGA,110341,2543.8834,N,08009.7256,W,1,8,2.0,18,M,,M,,*55
06/11/2014	11:03:41.620	$GPGGA,110342,2543.8833,N,08009.7258,W,1,8,2.0,18,M,,M,,*5F
06/11/2014	11:03:42.743	$GPGGA,110343,2543.8831,N,08009.7256,W,1,8,2.0,18,M,,M,,*52
06/11/2014	11:03:43.725	$GPGGA,110344,2543.8830,N,08009.7256,W,1,8,2.0,18,M,,M,,*54
06/11/2014	11:03:44.569	$GPGGA,110345,2543.8829,N,08009.7255,W,1,8,2.0,18,M,,M,,*5E
06/11/2014	11:03:45.554	$GPGGA,110346,2543.8827,N,08009.7255,W,1,8,2.0,18,M,,M,,*53
06/11/2014	11:03:46.574	$GPGGA,110347,2543.8826,N,08009.7255,W,1,8,2.0,18,M,,M,,*53
06/11/2014	11:03:47.576	$GPGGA,110348,2543.8826,N,08009.7255,W,1,8,2.0,18,M,,M,,*5C
06/11/2014	11:03:48.579	$GPGGA,110349,2543.8824,N,08009.7254,W,1,8,2.0,18,M,,M,,*5E
06/11/2014	11:03:49.570	$GPGGA,110350,2543.8823,N,08009.7254,W,1,8,2.0,18,M,,M,,*51
06/11/2014	11:03:50.566	$GPGGA,110351,2543.8821,N,08009.7253,W,1,8,2.0,18,M,,M,,*55
06/11/2014	11:03:51.575	$GPGGA,110352,2543.8820,N,08009.7252,W,1,8,2.2,18,M,,M,,*54
06/11/2014	11:03:52.578	$GPGGA,110353,2543.8819,N,08009.7252,W,1,7,2.2,18,M,,M,,*50
06/11/2014	11:03:53.558	$GPGGA,110354,2543.8816,N,08009.7254,W,1,7,2.2,18,M,,M,,*5E
06/11/2014	11:03:54.569	$GPGGA,110355,2543.8813,N,08009.7256,W,1,6,4.6,18,M,,M,,*5B
06/11/2014	11:03:55.583	$GPGGA,110356,2543.8810,N,08009.7258,W,1,6,4.6,18,M,,M,,*55
06/11/2014	11:03:56.580	$GPGGA,110357,2543.8811,N,08009.7257,W,1,7,2.2,18,M,,M,,*59
06/11/2014	11:03:57.575	$GPGGA,110358,2543.8808,N,08009.7258,W,1,7,2.2,18,M,,M,,*51
06/11/2014	11:03:58.589	$GPGGA,110359,2543.8805,N,08009.7259,W,1,6,4.6,18,M,,M,,*5F
06/11/2014	11:03:59.591	$GPGGA,110400,2543.8811,N,08009.7251,W,1,6,4.6,18,M,,M,,*59
06/11/2014	11:04:00.568	$GPGGA,110401,2543.8814,N,08009.7246,W,1,7,2.2,18,M,,M,,*58
06/11/2014	11:04:01.570	$GPGGA,110402,2543.8817,N,08009.7243,W,1,7,2.2,18,M,,M,,*5D
06/11/2014	11:04:02.563	$GPGGA,110403,2543.8812,N,08009.7245,W,1,7,2.2,18,M,,M,,*5F
06/11/2014	11:04:03.603	$GPGGA,110404,2543.8810,N,08009.7248,W,1,7,4.6,18,M,,M,,*55
06/11/2014	11:04:04.604	$GPGGA,110405,2543.8809,N,08009.7247,W,1,6,4.6,18,M,,M,,*52
06/11/2014	11:04:05.571	$GPGGA,110406,2543.8811,N,08009.7244,W,1,6,2.2,18,M,,M,,*59
06/11/2014	11:04:06.606	$GPGGA,110407,2543.8811,N,08009.7241,W,1,7,2.2,18,M,,M,,*5C
06/11/2014	11:04:07.584	$GPGGA,110408,2543.8808,N,08009.7244,W,1,7,2.2,18,M,,M,,*5E
06/11/2014	11:04:08.557	$GPGGA,110409,2543.8805,N,08009.7247,W,1,6,4.6,18,M,,M,,*52
06/11/2014	11:04:09.569	$GPGGA,110410,2543.8811,N,08009.7238,W,1,6,4.6,18,M,,M,,*57
06/11/2014	11:04:10.608	$GPGGA,110411,2543.8814,N,08009.7233,W,1,7,2.2,18,M,,M,,*5B
06/11/2014	11:04:11.594	$GPGGA,110412,2543.8813,N,08009.7232,W,1,7,2.2,18,M,,M,,*5E
06/11/2014	11:04:12.567	$GPGGA,110413,2543.8814,N,08009.7233,W,1,7,2.2,18,M,,M,,*59
06/11/2014	11:04:13.579	$GPGGA,110414,2543.8812,N,08009.7231,W,1,7,2.2,18,M,,M,,*5A
06/11/2014	11:04:14.572	$GPGGA,110415,2543.8809,N,08009.7236,W,1,7,2.2,19,M,,M,,*57
06/11/2014	11:04:15.584	$GPGGA,110416,2543.8805,N,08009.7238,W,1,7,4.6,19,M,,M,,*54
06/11/2014	11:04:16.607	$GPGGA,110417,2543.8803,N,08009.7240,W,1,6,4.6,19,M,,M,,*5D
06/11/2014	11:04:17.569	$GPGGA,110418,2543.8804,N,08009.7238,W,1,6,4.6,19,M,,M,,*5A
06/11/2014	11:04:18.582	$GPGGA,110419,2543.8802,N,08009.7240,W,1,7,2.2,19,M,,M,,*51
06/11/2014	11:04:19.594	$GPGGA,110420,2543.8803,N,08009.7238,W,1,7,2.2,19,M,,M,,*55
06/11/2014	11:04:20.587	$GPGGA,110421,2543.8801,N,08009.7240,W,1,8,2.0,19,M,,M,,*54
06/11/2014	11:04:21.689	$GPGGA,110422,2543.8801,N,08009.7240,W,1,8,2.0,19,M,,M,,*57
06/11/2014	11:04:22.593	$GPGGA,110423,2543.8798,N,08009.7240,W,1,8,2.0,19,M,,M,,*59
06/11/2014	11:04:23.594	$GPGGA,110424,2543.8799,N,08009.7240,W,1,8,2.0,19,M,,M,,*5F
06/11/2014	11:04:24.576	$GPGGA,110425,2543.8797,N,08009.7240,W,1,8,2.0,19,M,,M,,*50
06/11/2014	11:04:25.668	$GPGGA,110426,2543.8797,N,08009.7241,W,1,8,2.2,19,M,,M,,*50
06/11/2014	11:04:26.691	$GPGGA,110427,2543.8797,N,08009.7240,W,1,7,2.2,19,M,,M,,*5F
06/11/2014	11:04:27.703	$GPGGA,110428,2543.8795,N,08009.7240,W,1,7,2.2,19,M,,M,,*52
06/11/2014	11:04:28.696	$GPGGA,110429,2543.8796,N,08009.7238,W,1,7,2.2,19,M,,M,,*5F
06/11/2014	11:04:29.668	$GPGGA,110430,2543.8795,N,08009.7237,W,1,7,2.2,19,M,,M,,*5B
06/11/2014	11:04:30.671	$GPGGA,110431,2543.8796,N,08009.7236,W,1,7,2.2,19,M,,M,,*58
06/11/2014	11:04:31.704	$GPGGA,110432,2543.8797,N,08009.7235,W,1,7,2.2,19,M,,M,,*59
06/11/2014	11:04:32.586	$GPGGA,110433,2543.8794,N,08009.7238,W,1,7,2.2,19,M,,M,,*56
06/11/2014	11:04:33.688	$GPGGA,110434,2543.8793,N,08009.7238,W,1,7,4.7,19,M,,M,,*55
06/11/2014	11:04:34.691	$GPGGA,110435,2543.8794,N,08009.7235,W,1,7,2.2,19,M,,M,,*5D
06/11/2014	11:04:35.693	$GPGGA,110436,2543.8794,N,08009.7234,W,1,7,2.0,19,M,,M,,*5D
06/11/2014	11:04:36.696	$GPGGA,110437,2543.8793,N,08009.7234,W,1,8,2.0,19,M,,M,,*54
06/11/2014	11:04:37.689	$GPGGA,110438,2543.8793,N,08009.7234,W,1,8,2.0,19,M,,M,,*5B
06/11/2014	11:04:38.701	$GPGGA,110439,2543.8792,N,08009.7234,W,1,8,2.0,19,M,,M,,*5B
06/11/2014	11:04:39.685	$GPGGA,110440,2543.8791,N,08009.7236,W,1,8,2.0,19,M,,M,,*54
06/11/2014	11:04:40.692	$GPGGA,110441,2543.8790,N,08009.7236,W,1,8,2.0,19,M,,M,,*54
06/11/2014	11:04:41.683	$GPGGA,110442,2543.8790,N,08009.7235,W,1,8,2.0,19,M,,M,,*54
06/11/2014	11:04:42.695	$GPGGA,110443,2543.8790,N,08009.7236,W,1,8,2.0,19,M,,M,,*56
06/11/2014	11:04:43.685	$GPGGA,110444,2543.8790,N,08009.7234,W,1,8,2.0,19,M,,M,,*53
06/11/2014	11:04:44.547	$GPGGA,110445,2543.8790,N,08009.7233,W,1,8,2.0,19,M,,M,,*55
06/11/2014	11:04:45.529	$GPGGA,110446,2543.8788,N,08009.7231,W,1,8,2.0,19,M,,M,,*5D
06/11/2014	11:04:46.554	$GPGGA,110447,2543.8787,N,08009.7230,W,1,8,2.0,19,M,,M,,*52
06/11/2014	11:04:47.544	$GPGGA,110448,2543.8786,N,08009.7230,W,1,8,2.0,20,M,,M,,*56
06/11/2014	11:04:49.529	$GPGGA,110450,2543.8783,N,08009.7229,W,1,8,2.0,20,M,,M,,*52
06/11/2014	11:04:50.562	$GPGGA,110451,2543.8783,N,08009.7229,W,1,8,2.0,20,M,,M,,*53
06/11/2014	11:04:51.545	$GPGGA,110452,2543.8780,N,08009.7228,W,1,8,2.0,20,M,,M,,*52
06/11/2014	11:04:52.577	$GPGGA,110453,2543.8779,N,08009.7229,W,1,8,2.0,20,M,,M,,*54
06/11/2014	11:04:53.529	$GPGGA,110454,2543.8779,N,08009.7228,W,1,8,2.0,20,M,,M,,*52
06/11/2014	11:04:54.564	$GPGGA,110455,2543.8776,N,08009.7227,W,1,8,2.0,20,M,,M,,*53
06/11/2014	11:04:55.555	$GPGGA,110456,2543.8775,N,08009.7227,W,1,8,2.0,20,M,,M,,*53
06/11/2014	11:04:56.537	$GPGGA,110457,2543.8774,N,08009.7229,W,1,8,2.0,20,M,,M,,*5D
06/11/2014	11:04:57.529	$GPGGA,110458,2543.8772,N,08009.7229,W,1,8,2.0,20,M,,M,,*54
06/11/2014	11:04:58.542	$GPGGA,110459,2543.8772,N,08009.7229,W,1,8,2.0,20,M,,M,,*55
06/11/2014	11:04:59.553	$GPGGA,110500,2543.8770,N,08009.7230,W,1,8,2.0,20,M,,M,,*52
06/11/2014	11:05:00.536	$GPGGA,110501,2543.8768,N,08009.7232,W,1,8,2.0,19,M,,M,,*52
06/11/2014	11:05:01.659	$GPGGA,110502,2543.8768,N,08009.7231,W,1,8,2.0,19,M,,M,,*52
06/11/2014	11:05:02.551	$GPGGA,110503,2543.8765,N,08009.7233,W,1,8,2.0,19,M,,M,,*5C
06/11/2014	11:05:03.553	$GPGGA,110504,2543.8764,N,08009.7233,W,1,8,2.0,19,M,,M,,*5A
06/11/2014	11:05:04.556	$GPGGA,110505,2543.8762,N,08009.7234,W,1,8,2.0,19,M,,M,,*5A
06/11/2014	11:05:05.538	$GPGGA,110506,2543.8761,N,08009.7234,W,1,8,2.0,19,M,,M,,*5A
06/11/2014	11:05:06.541	$GPGGA,110507,2543.8759,N,08009.7234,W,1,8,2.0,19,M,,M,,*50
06/11/2014	11:05:07.643	$GPGGA,110508,2543.8757,N,08009.7234,W,1,8,2.0,19,M,,M,,*51
06/11/2014	11:05:08.556	$GPGGA,110509,2543.8756,N,08009.7234,W,1,8,2.0,19,M,,M,,*51
06/11/2014	11:05:09.639	$GPGGA,110510,2543.8755,N,08009.7233,W,1,8,2.0,19,M,,M,,*5D
06/11/2014	11:05:10.681	$GPGGA,110511,2543.8754,N,08009.7232,W,1,8,2.0,19,M,,M,,*5C
06/11/2014	11:05:11.674	$GPGGA,110512,2543.8754,N,08009.7230,W,1,8,2.0,19,M,,M,,*5D
06/11/2014	11:05:12.676	$GPGGA,110513,2543.8754,N,08009.7228,W,1,8,2.0,19,M,,M,,*55
06/11/2014	11:05:13.658	$GPGGA,110514,2543.8752,N,08009.7226,W,1,8,2.0,19,M,,M,,*5A
06/11/2014	11:05:14.651	$GPGGA,110515,2543.8753,N,08009.7223,W,1,8,2.0,19,M,,M,,*5F
06/11/2014	11:05:15.563	$GPGGA,110516,2543.8751,N,08009.7220,W,1,8,2.0,19,M,,M,,*5D
06/11/2014	11:05:16.655	$GPGGA,110517,2543.8752,N,08009.7216,W,1,8,2.0,19,M,,M,,*5A
06/11/2014	11:05:17.647	$GPGGA,110518,2543.8751,N,08009.7212,W,1,8,2.0,19,M,,M,,*52
06/11/2014	11:05:18.660	$GPGGA,110519,2543.8750,N,08009.7208,W,1,8,2.0,19,M,,M,,*59
06/11/2014	11:05:19.652	$GPGGA,110520,2543.8750,N,08009.7204,W,1,8,2.0,19,M,,M,,*5F
06/11/2014	11:05:20.655	$GPGGA,110521,2543.8750,N,08009.7200,W,1,8,2.0,18,M,,M,,*5B
06/11/2014	11:05:21.647	$GPGGA,110522,2543.8750,N,08009.7195,W,1,8,2.0,18,M,,M,,*57
06/11/2014	11:05:22.650	$GPGGA,110523,2543.8750,N,08009.7190,W,1,8,2.0,18,M,,M,,*53
06/11/2014	11:05:23.652	$GPGGA,110524,2543.8750,N,08009.7185,W,1,8,2.0,18,M,,M,,*50
06/11/2014	11:05:24.665	$GPGGA,110525,2543.8750,N,08009.7179,W,1,8,2.0,18,M,,M,,*52
06/11/2014	11:05:25.647	$GPGGA,110526,2543.8750,N,08009.7173,W,1,8,2.0,18,M,,M,,*5B
06/11/2014	11:05:26.670	$GPGGA,110527,2543.8750,N,08009.7167,W,1,8,2.0,18,M,,M,,*5F
06/11/2014	11:05:27.652	$GPGGA,110528,2543.8750,N,08009.7161,W,1,8,2.0,18,M,,M,,*56
06/11/2014	11:05:28.675	$GPGGA,110529,2543.8750,N,08009.7155,W,1,8,2.0,18,M,,M,,*50
06/11/2014	11:05:29.647	$GPGGA,110530,2543.8750,N,08009.7148,W,1,8,2.0,18,M,,M,,*54
06/11/2014	11:05:30.680	$GPGGA,110531,2543.8750,N,08009.7140,W,1,8,2.0,18,M,,M,,*5D
06/11/2014	11:05:31.662	$GPGGA,110532,2543.8750,N,08009.7133,W,1,8,2.0,18,M,,M,,*5A
06/11/2014	11:05:32.665	$GPGGA,110533,2543.8750,N,08009.7125,W,1,8,2.0,18,M,,M,,*5C
06/11/2014	11:05:33.677	$GPGGA,110534,2543.8750,N,08009.7117,W,1,8,2.0,18,M,,M,,*5A
06/11/2014	11:05:34.679	$GPGGA,110535,2543.8750,N,08009.7109,W,1,8,2.0,18,M,,M,,*54
06/11/2014	11:05:35.651	$GPGGA,110536,2543.8750,N,08009.7101,W,1,8,2.0,18,M,,M,,*5F
06/11/2014	11:05:36.644	$GPGGA,110537,2543.8752,N,08009.7093,W,1,8,2.0,18,M,,M,,*56
06/11/2014	11:05:37.656	$GPGGA,110538,2543.8751,N,08009.7084,W,1,8,2.0,17,M,,M,,*53
06/11/2014	11:05:38.679	$GPGGA,110539,2543.8752,N,08009.7076,W,1,8,2.0,17,M,,M,,*5C
06/11/2014	11:05:39.661	$GPGGA,110540,2543.8751,N,08009.7067,W,1,8,2.0,17,M,,M,,*51
06/11/2014	11:05:40.684	$GPGGA,110541,2543.8752,N,08009.7058,W,1,8,2.0,17,M,,M,,*5F
06/11/2014	11:05:41.646	$GPGGA,110542,2543.8751,N,08009.7049,W,1,8,2.0,17,M,,M,,*5F
06/11/2014	11:05:42.679	$GPGGA,110543,2543.8752,N,08009.7041,W,1,8,2.0,17,M,,M,,*55
06/11/2014	11:05:43.672	$GPGGA,110544,2543.8751,N,08009.7032,W,1,8,2.0,17,M,,M,,*55
06/11/2014	11:05:44.506	$GPGGA,110545,2543.8752,N,08009.7024,W,1,8,2.0,17,M,,M,,*50
06/11/2014	11:05:45.518	$GPGGA,110546,2543.8751,N,08009.7016,W,1,8,2.0,17,M,,M,,*51
06/11/2014	11:05:46.511	$GPGGA,110547,2543.8753,N,08009.7008,W,1,8,2.0,17,M,,M,,*5D
06/11/2014	11:05:47.664	$GPGGA,110548,2543.8752,N,08009.6999,W,1,8,2.0,17,M,,M,,*53
06/11/2014	11:05:48.506	$GPGGA,110549,2543.8753,N,08009.6991,W,1,8,2.0,17,M,,M,,*5B
06/11/2014	11:05:49.651	$GPGGA,110550,2543.8752,N,08009.6983,W,1,8,2.0,17,M,,M,,*51
06/11/2014	11:05:50.511	$GPGGA,110551,2543.8753,N,08009.6975,W,1,8,2.0,17,M,,M,,*58
06/11/2014	11:05:51.532	$GPGGA,110552,2543.8752,N,08009.6967,W,1,8,2.0,17,M,,M,,*59
06/11/2014	11:05:52.525	$GPGGA,110553,2543.8753,N,08009.6958,W,1,8,2.0,17,M,,M,,*55
06/11/2014	11:05:53.507	$GPGGA,110554,2543.8752,N,08009.6950,W,1,8,2.0,17,M,,M,,*5B
06/11/2014	11:05:54.530	$GPGGA,110555,2543.8754,N,08009.6942,W,1,8,2.0,17,M,,M,,*5F
06/11/2014	11:05:55.532	$GPGGA,110556,2543.8754,N,08009.6933,W,1,8,2.0,17,M,,M,,*5A
06/11/2014	11:05:56.516	$GPGGA,110557,2543.8754,N,08009.6924,W,1,7,2.2,17,M,,M,,*50
06/11/2014	11:05:57.597	$GPGGA,110558,2543.8756,N,08009.6917,W,1,7,2.2,17,M,,M,,*5D
06/11/2014	11:05:58.500	$GPGGA,110559,2543.8757,N,08009.6907,W,1,8,2.0,17,M,,M,,*51
06/11/2014	11:05:59.552	$GPGGA,110600,2543.8757,N,08009.6898,W,1,8,2.0,17,M,,M,,*59
06/11/2014	11:06:00.695	$GPGGA,110601,2543.8759,N,08009.6890,W,1,8,2.0,17,M,,M,,*5E
06/11/2014	11:06:01.607	$GPGGA,110602,2543.8758,N,08009.6884,W,1,8,2.0,16,M,,M,,*58
06/11/2014	11:06:02.520	$GPGGA,110603,2543.8759,N,08009.6879,W,1,8,2.0,16,M,,M,,*5A
06/11/2014	11:06:03.663	$GPGGA,110604,2543.8760,N,08009.6873,W,1,8,2.2,16,M,,M,,*5F
06/11/2014	11:06:04.705	$GPGGA,110605,2543.8763,N,08009.6866,W,1,7,2.2,16,M,,M,,*56
06/11/2014	11:06:05.637	$GPGGA,110606,2543.8761,N,08009.6863,W,1,7,2.0,16,M,,M,,*50
06/11/2014	11:06:06.710	$GPGGA,110607,2543.8761,N,08009.6860,W,1,7,2.2,16,M,,M,,*50
06/11/2014	11:06:07.652	$GPGGA,110608,2543.8759,N,08009.6859,W,1,7,2.2,16,M,,M,,*5E
06/11/2014	11:06:08.725	$GPGGA,110609,2543.8758,N,08009.6858,W,1,8,2.0,17,M,,M,,*53
06/11/2014	11:06:09.656	$GPGGA,110610,2543.8757,N,08009.6858,W,1,8,2.0,17,M,,M,,*54
06/11/2014	11:06:10.719	$GPGGA,110611,2543.8756,N,08009.6858,W,1,8,2.0,17,M,,M,,*54
06/11/2014	11:06:11.671	$GPGGA,110612,2543.8754,N,08009.6860,W,1,8,2.0,17,M,,M,,*5E
06/11/2014	11:06:12.724	$GPGGA,110613,2543.8752,N,08009.6862,W,1,8,2.0,17,M,,M,,*5B
06/11/2014	11:06:13.636	$GPGGA,110614,2543.8750,N,08009.6864,W,1,8,2.0,17,M,,M,,*58
06/11/2014	11:06:14.719	$GPGGA,110615,2543.8745,N,08009.6868,W,1,8,2.0,17,M,,M,,*51
06/11/2014	11:06:15.661	$GPGGA,110616,2543.8741,N,08009.6871,W,1,8,2.0,17,M,,M,,*5E
06/11/2014	11:06:16.724	$GPGGA,110617,2543.8737,N,08009.6875,W,1,8,2.0,17,M,,M,,*5A
06/11/2014	11:06:17.606	$GPGGA,110618,2543.8732,N,08009.6879,W,1,8,2.2,17,M,,M,,*5E
06/11/2014	11:06:18.679	$GPGGA,110619,2543.8727,N,08009.6882,W,1,8,2.0,17,M,,M,,*5D
06/11/2014	11:06:19.621	$GPGGA,110620,2543.8722,N,08009.6886,W,1,8,2.0,17,M,,M,,*56
06/11/2014	11:06:20.714	$GPGGA,110621,2543.8716,N,08009.6891,W,1,8,3.0,17,M,,M,,*57
06/11/2014	11:06:21.646	$GPGGA,110622,2543.8711,N,08009.6894,W,1,8,3.0,17,M,,M,,*56
06/11/2014	11:06:22.729	$GPGGA,110623,2543.8704,N,08009.6898,W,1,8,2.0,17,M,,M,,*5E
06/11/2014	11:06:23.661	$GPGGA,110624,2543.8698,N,08009.6901,W,1,8,2.0,17,M,,M,,*5C
06/11/2014	11:06:24.614	$GPGGA,110625,2543.8689,N,08009.6905,W,1,8,2.0,17,M,,M,,*59
06/11/2014	11:06:25.646	$GPGGA,110626,2543.8679,N,08009.6909,W,1,8,2.0,17,M,,M,,*59
06/11/2014	11:06:26.728	$GPGGA,110627,2543.8668,N,08009.6913,W,1,8,2.0,17,M,,M,,*53
06/11/2014	11:06:27.620	$GPGGA,110628,2543.8656,N,08009.6918,W,1,8,2.0,17,M,,M,,*5A
06/11/2014	11:06:28.693	$GPGGA,110629,2543.8643,N,08009.6922,W,1,8,2.0,18,M,,M,,*59
06/11/2014	11:06:29.665	$GPGGA,110630,2543.8629,N,08009.6925,W,1,8,2.0,18,M,,M,,*5A
06/11/2014	11:06:30.688	$GPGGA,110631,2543.8616,N,08009.6927,W,1,8,2.0,18,M,,M,,*55
06/11/2014	11:06:31.670	$GPGGA,110632,2543.8602,N,08009.6930,W,1,8,2.0,18,M,,M,,*55
06/11/2014	11:06:32.733	$GPGGA,110633,2543.8587,N,08009.6933,W,1,8,2.0,18,M,,M,,*59
06/11/2014	11:06:33.645	$GPGGA,110634,2543.8571,N,08009.6936,W,1,8,2.0,18,M,,M,,*52
06/11/2014	11:06:34.688	$GPGGA,110635,2543.8555,N,08009.6937,W,1,8,2.0,19,M,,M,,*55
06/11/2014	11:06:35.751	$GPGGA,110636,2543.8537,N,08009.6940,W,1,8,2.0,19,M,,M,,*52
06/11/2014	11:06:36.703	$GPGGA,110637,2543.8519,N,08009.6944,W,1,8,2.1,19,M,,M,,*5A
06/11/2014	11:06:37.645	$GPGGA,110638,2543.8501,N,08009.6945,W,1,8,2.0,19,M,,M,,*5C
06/11/2014	11:06:38.618	$GPGGA,110639,2543.8483,N,08009.6949,W,1,8,2.0,19,M,,M,,*5A
06/11/2014	11:06:39.670	$GPGGA,110640,2543.8463,N,08009.6952,W,1,8,2.0,19,M,,M,,*50
06/11/2014	11:06:40.703	$GPGGA,110641,2543.8444,N,08009.6954,W,1,8,2.0,19,M,,M,,*52
06/11/2014	11:06:41.615	$GPGGA,110642,2543.8423,N,08009.6956,W,1,8,2.0,19,M,,M,,*52
06/11/2014	11:06:42.739	$GPGGA,110643,2543.8403,N,08009.6958,W,1,8,2.0,19,M,,M,,*5F
06/11/2014	11:06:43.630	$GPGGA,110644,2543.8382,N,08009.6958,W,1,8,2.0,19,M,,M,,*56
06/11/2014	11:06:44.563	$GPGGA,110645,2543.8360,N,08009.6957,W,1,8,2.0,19,M,,M,,*54
06/11/2014	11:06:45.475	$GPGGA,110646,2543.8339,N,08009.6958,W,1,8,2.0,19,M,,M,,*54
06/11/2014	11:06:46.568	$GPGGA,110647,2543.8318,N,08009.6957,W,1,8,2.0,19,M,,M,,*59
06/11/2014	11:06:47.480	$GPGGA,110648,2543.8296,N,08009.6956,W,1,8,2.0,19,M,,M,,*50
06/11/2014	11:06:48.573	$GPGGA,110649,2543.8274,N,08009.6955,W,1,7,2.0,19,M,,M,,*51
06/11/2014	11:06:49.505	$GPGGA,110650,2543.8253,N,08009.6954,W,1,7,2.2,19,M,,M,,*5F
06/11/2014	11:06:50.528	$GPGGA,110651,2543.8231,N,08009.6953,W,1,7,2.2,18,M,,M,,*5C
06/11/2014	11:06:51.580	$GPGGA,110652,2543.8209,N,08009.6952,W,1,7,2.0,18,M,,M,,*57
06/11/2014	11:06:52.583	$GPGGA,110653,2543.8187,N,08009.6950,W,1,8,2.0,18,M,,M,,*5E
06/11/2014	11:06:53.575	$GPGGA,110654,2543.8165,N,08009.6948,W,1,8,2.0,18,M,,M,,*5C
06/11/2014	11:06:54.588	$GPGGA,110655,2543.8143,N,08009.6946,W,1,8,2.0,18,M,,M,,*57
06/11/2014	11:06:55.590	$GPGGA,110656,2543.8121,N,08009.6943,W,1,8,2.0,18,M,,M,,*55
06/11/2014	11:06:56.623	$GPGGA,110657,2543.8098,N,08009.6940,W,1,8,2.0,18,M,,M,,*54
06/11/2014	11:06:57.578	$GPGGA,110658,2543.8076,N,08009.6937,W,1,8,2.0,18,M,,M,,*5B
06/11/2014	11:06:58.608	$GPGGA,110659,2543.8054,N,08009.6934,W,1,8,2.0,18,M,,M,,*59
06/11/2014	11:06:59.600	$GPGGA,110700,2543.8031,N,08009.6931,W,1,8,2.0,18,M,,M,,*52
06/11/2014	11:07:00.599	$GPGGA,110701,2543.8009,N,08009.6927,W,1,8,2.0,18,M,,M,,*5F
06/11/2014	11:07:01.589	$GPGGA,110702,2543.7986,N,08009.6924,W,1,8,2.0,18,M,,M,,*5E
06/11/2014	11:07:02.667	$GPGGA,110703,2543.7963,N,08009.6920,W,1,8,2.0,18,M,,M,,*50
06/11/2014	11:07:03.599	$GPGGA,110704,2543.7941,N,08009.6916,W,1,8,2.0,18,M,,M,,*52
06/11/2014	11:07:04.682	$GPGGA,110705,2543.7919,N,08009.6913,W,1,8,2.0,18,M,,M,,*5B
06/11/2014	11:07:05.598	$GPGGA,110706,2543.7919,N,08009.6913,W,1,8,2.0,18,M,,M,,*58
06/11/2014	11:07:06.627	$GPGGA,110707,2543.7872,N,08009.6905,W,1,8,2.0,18,M,,M,,*52
06/11/2014	11:07:07.602	$GPGGA,110708,2543.7849,N,08009.6902,W,1,8,2.0,18,M,,M,,*52
06/11/2014	11:07:08.632	$GPGGA,110709,2543.7825,N,08009.6897,W,1,8,2.1,18,M,,M,,*55
06/11/2014	11:07:09.596	$GPGGA,110710,2543.7803,N,08009.6894,W,1,8,2.0,18,M,,M,,*5B
06/11/2014	11:07:10.657	$GPGGA,110711,2543.7782,N,08009.6892,W,1,8,2.0,17,M,,M,,*55
06/11/2014	11:07:11.610	$GPGGA,110712,2543.7758,N,08009.6888,W,1,8,2.0,17,M,,M,,*5A
06/11/2014	11:07:12.642	$GPGGA,110713,2543.7735,N,08009.6884,W,1,8,2.0,17,M,,M,,*5C
06/11/2014	11:07:13.594	$GPGGA,110714,2543.7711,N,08009.6879,W,1,8,2.1,17,M,,M,,*5E
06/11/2014	11:07:14.627	$GPGGA,110715,2543.7688,N,08009.6876,W,1,7,2.1,17,M,,M,,*5E
06/11/2014	11:07:15.618	$GPGGA,110716,2543.7688,N,08009.6876,W,1,7,2.0,17,M,,M,,*5C
06/11/2014	11:07:16.642	$GPGGA,110717,2543.7641,N,08009.6868,W,1,8,2.0,17,M,,M,,*58
06/11/2014	11:07:17.594	$GPGGA,110718,2543.7618,N,08009.6865,W,1,8,2.0,17,M,,M,,*56
06/11/2014	11:07:18.611	$GPGGA,110719,2543.7618,N,08009.6865,W,1,8,2.0,17,M,,M,,*57
06/11/2014	11:07:19.608	$GPGGA,110720,2543.7570,N,08009.6857,W,1,8,2.0,17,M,,M,,*51
06/11/2014	11:07:20.651	$GPGGA,110721,2543.7547,N,08009.6854,W,1,8,2.0,17,M,,M,,*57
06/11/2014	11:07:21.704	$GPGGA,110722,2543.7522,N,08009.6851,W,1,8,2.0,17,M,,M,,*52
06/11/2014	11:07:22.646	$GPGGA,110723,2543.7498,N,08009.6849,W,1,8,2.0,17,M,,M,,*5A
06/11/2014	11:07:23.608	$GPGGA,110724,2543.7475,N,08009.6845,W,1,8,2.0,16,M,,M,,*53
06/11/2014	11:07:24.654	$GPGGA,110725,2543.7449,N,08009.6843,W,1,8,2.0,16,M,,M,,*5B
06/11/2014	11:07:25.683	$GPGGA,110726,2543.7425,N,08009.6840,W,1,8,2.0,16,M,,M,,*51
06/11/2014	11:07:26.616	$GPGGA,110727,2543.7425,N,08009.6840,W,1,8,2.0,16,M,,M,,*50
06/11/2014	11:07:27.608	$GPGGA,110728,2543.7375,N,08009.6835,W,1,8,2.0,16,M,,M,,*5F
06/11/2014	11:07:30.082	$GPGGA,110730,2543.7327,N,08009.6831,W,1,8,2.0,16,M,,M,,*55
06/11/2014	11:07:31.628	$GPGGA,110732,2543.7283,N,08009.6828,W,1,8,2.0,16,M,,M,,*50
06/11/2014	11:07:32.611	$GPGGA,110733,2543.7283,N,08009.6828,W,1,8,2.0,16,M,,M,,*51
06/11/2014	11:07:33.683	$GPGGA,110734,2543.7240,N,08009.6824,W,1,8,2.0,16,M,,M,,*55
06/11/2014	11:07:34.696	$GPGGA,110735,2543.7219,N,08009.6823,W,1,8,2.0,16,M,,M,,*5F
06/11/2014	11:07:35.608	$GPGGA,110736,2543.7198,N,08009.6821,W,1,8,2.0,16,M,,M,,*54
06/11/2014	11:07:36.721	$GPGGA,110737,2543.7177,N,08009.6819,W,1,8,2.0,16,M,,M,,*5F
06/11/2014	11:07:37.592	$GPGGA,110738,2543.7155,N,08009.6817,W,1,8,2.0,16,M,,M,,*5E
06/11/2014	11:07:38.705	$GPGGA,110739,2543.7135,N,08009.6815,W,1,8,2.0,16,M,,M,,*5B
06/11/2014	11:07:39.697	$GPGGA,110740,2543.7113,N,08009.6813,W,1,8,2.0,16,M,,M,,*57
06/11/2014	11:07:40.710	$GPGGA,110741,2543.7092,N,08009.6812,W,1,8,2.0,16,M,,M,,*5F
06/11/2014	11:07:41.702	$GPGGA,110742,2543.7070,N,08009.6810,W,1,8,2.0,16,M,,M,,*52
06/11/2014	11:07:42.725	$GPGGA,110743,2543.7049,N,08009.6808,W,1,8,2.0,16,M,,M,,*50
06/11/2014	11:07:43.707	$GPGGA,110744,2543.7028,N,08009.6807,W,1,8,2.0,15,M,,M,,*5C
06/11/2014	11:07:44.552	$GPGGA,110745,2543.7007,N,08009.6805,W,1,8,2.0,15,M,,M,,*52
06/11/2014	11:07:45.544	$GPGGA,110746,2543.6985,N,08009.6804,W,1,8,2.0,15,M,,M,,*52
06/11/2014	11:07:46.567	$GPGGA,110747,2543.6964,N,08009.6803,W,1,8,2.0,15,M,,M,,*5B
06/11/2014	11:07:47.569	$GPGGA,110748,2543.6944,N,08009.6802,W,1,8,2.0,15,M,,M,,*57
06/11/2014	11:07:48.572	$GPGGA,110749,2543.6922,N,08009.6801,W,1,8,2.0,15,M,,M,,*55
06/11/2014	11:07:49.554	$GPGGA,110750,2543.6899,N,08009.6799,W,1,8,2.0,15,M,,M,,*52
06/11/2014	11:07:50.550	$GPGGA,110751,2543.6877,N,08009.6797,W,1,8,2.0,15,M,,M,,*5D
06/11/2014	11:07:51.569	$GPGGA,110752,2543.6857,N,08009.6796,W,1,8,2.0,15,M,,M,,*5D
06/11/2014	11:07:52.572	$GPGGA,110753,2543.6833,N,08009.6796,W,1,8,2.0,15,M,,M,,*5E
06/11/2014	11:07:53.545	$GPGGA,110754,2543.6811,N,08009.6796,W,1,8,2.0,15,M,,M,,*59
06/11/2014	11:07:54.576	$GPGGA,110755,2543.6788,N,08009.6795,W,1,8,2.0,15,M,,M,,*54
06/11/2014	11:07:55.568	$GPGGA,110756,2543.6765,N,08009.6796,W,1,8,2.0,15,M,,M,,*57
06/11/2014	11:07:56.581	$GPGGA,110757,2543.6741,N,08009.6795,W,1,8,2.0,15,M,,M,,*53
06/11/2014	11:07:57.543	$GPGGA,110758,2543.6718,N,08009.6796,W,1,8,2.0,15,M,,M,,*53
06/11/2014	11:07:58.576	$GPGGA,110759,2543.6694,N,08009.6796,W,1,8,2.0,15,M,,M,,*57
06/11/2014	11:07:59.588	$GPGGA,110800,2543.6670,N,08009.6797,W,1,8,2.0,15,M,,M,,*5F
06/11/2014	11:08:00.551	$GPGGA,110801,2543.6646,N,08009.6797,W,1,8,2.0,15,M,,M,,*5B
06/11/2014	11:08:01.563	$GPGGA,110802,2543.6622,N,08009.6799,W,1,8,2.0,15,M,,M,,*54
06/11/2014	11:08:02.586	$GPGGA,110803,2543.6597,N,08009.6801,W,1,8,2.0,15,M,,M,,*56
06/11/2014	11:08:03.568	$GPGGA,110804,2543.6572,N,08009.6803,W,1,8,2.0,15,M,,M,,*58
06/11/2014	11:08:04.561	$GPGGA,110805,2543.6548,N,08009.6806,W,1,8,2.0,15,M,,M,,*55
06/11/2014	11:08:05.573	$GPGGA,110806,2543.6523,N,08009.6808,W,1,8,2.0,15,M,,M,,*55
06/11/2014	11:08:06.596	$GPGGA,110807,2543.6499,N,08009.6811,W,1,8,2.0,15,M,,M,,*5C
06/11/2014	11:08:07.578	$GPGGA,110808,2543.6474,N,08009.6817,W,1,8,2.0,15,M,,M,,*56
06/11/2014	11:08:08.561	$GPGGA,110809,2543.6449,N,08009.6821,W,1,8,2.0,15,M,,M,,*5C
06/11/2014	11:08:09.674	$GPGGA,110810,2543.6423,N,08009.6826,W,1,8,2.1,15,M,,M,,*5E
06/11/2014	11:08:10.677	$GPGGA,110811,2543.6399,N,08009.6832,W,1,7,2.1,15,M,,M,,*53
06/11/2014	11:08:11.577	$GPGGA,110812,2543.6374,N,08009.6836,W,1,7,2.0,14,M,,M,,*57
06/11/2014	11:08:12.570	$GPGGA,110813,2543.6349,N,08009.6842,W,1,8,2.0,14,M,,M,,*54
06/11/2014	11:08:13.572	$GPGGA,110814,2543.6324,N,08009.6848,W,1,8,2.0,14,M,,M,,*52
06/11/2014	11:08:14.675	$GPGGA,110815,2543.6299,N,08009.6854,W,1,8,2.0,14,M,,M,,*59
06/11/2014	11:08:15.577	$GPGGA,110816,2543.6274,N,08009.6861,W,1,8,2.8,14,M,,M,,*57
06/11/2014	11:08:16.580	$GPGGA,110817,2543.6250,N,08009.6868,W,1,7,2.8,14,M,,M,,*56
06/11/2014	11:08:17.572	$GPGGA,110818,2543.6223,N,08009.6875,W,1,7,2.8,14,M,,M,,*51
06/11/2014	11:08:18.695	$GPGGA,110819,2543.6197,N,08009.6882,W,1,7,2.8,14,M,,M,,*54
06/11/2014	11:08:19.687	$GPGGA,110820,2543.6171,N,08009.6890,W,1,7,2.0,14,M,,M,,*5D
06/11/2014	11:08:20.660	$GPGGA,110821,2543.6147,N,08009.6898,W,1,8,2.0,14,M,,M,,*5E
06/11/2014	11:08:21.562	$GPGGA,110822,2543.6121,N,08009.6905,W,1,8,2.0,14,M,,M,,*58
06/11/2014	11:08:22.655	$GPGGA,110823,2543.6096,N,08009.6915,W,1,7,2.2,14,M,,M,,*58
06/11/2014	11:08:23.687	$GPGGA,110824,2543.6071,N,08009.6922,W,1,7,2.2,15,M,,M,,*53
06/11/2014	11:08:24.580	$GPGGA,110825,2543.6046,N,08009.6931,W,1,7,2.2,15,M,,M,,*54
06/11/2014	11:08:25.562	$GPGGA,110826,2543.6021,N,08009.6940,W,1,7,3.0,15,M,,M,,*53
06/11/2014	11:08:26.695	$GPGGA,110827,2543.5994,N,08009.6948,W,1,6,3.0,15,M,,M,,*5F
06/11/2014	11:08:27.677	$GPGGA,110828,2543.5967,N,08009.6956,W,1,6,2.2,15,M,,M,,*50
06/11/2014	11:08:28.779	$GPGGA,110829,2543.5941,N,08009.6965,W,1,7,2.2,15,M,,M,,*54
06/11/2014	11:08:29.787	$GPGGA,110830,2543.5915,N,08009.6973,W,1,7,2.2,15,M,,M,,*5A
06/11/2014	11:08:30.881	$GPGGA,110831,2543.5889,N,08009.6983,W,1,8,2.0,15,M,,M,,*5D
06/11/2014	11:08:31.953	$GPGGA,110832,2543.5863,N,08009.6991,W,1,8,2.2,15,M,,M,,*5B
06/11/2014	11:08:33.015	$GPGGA,110833,2543.5837,N,08009.6999,W,1,7,2.2,16,M,,M,,*5F
06/11/2014	11:08:34.087	$GPGGA,110834,2543.5811,N,08009.7009,W,1,7,2.2,16,M,,M,,*5D
06/11/2014	11:08:35.159	$GPGGA,110835,2543.5786,N,08009.7019,W,1,7,2.2,16,M,,M,,*5C
06/11/2014	11:08:36.223	$GPGGA,110836,2543.5761,N,08009.7028,W,1,7,2.2,16,M,,M,,*54
06/11/2014	11:08:37.304	$GPGGA,110837,2543.5737,N,08009.7038,W,1,7,2.2,17,M,,M,,*56
06/11/2014	11:08:38.362	$GPGGA,110838,2543.5712,N,08009.7048,W,1,7,2.2,17,M,,M,,*59
06/11/2014	11:08:39.449	$GPGGA,110839,2543.5688,N,08009.7059,W,1,8,2.0,17,M,,M,,*57
06/11/2014	11:08:40.511	$GPGGA,110840,2543.5667,N,08009.7070,W,1,8,2.1,17,M,,M,,*52
06/11/2014	11:08:41.572	$GPGGA,110841,2543.5647,N,08009.7081,W,1,7,2.8,18,M,,M,,*56
06/11/2014	11:08:42.623	$GPGGA,110842,2543.5622,N,08009.7090,W,1,7,2.8,18,M,,M,,*56
06/11/2014	11:08:43.696	$GPGGA,110843,2543.5600,N,08009.7103,W,1,8,2.0,18,M,,M,,*5B
06/11/2014	11:08:44.779	$GPGGA,110844,2543.5576,N,08009.7113,W,1,8,2.0,18,M,,M,,*5F
06/11/2014	11:08:44.546	$GPGGA,110845,2543.5553,N,08009.7125,W,1,8,2.0,18,M,,M,,*5C
06/11/2014	11:08:45.630	$GPGGA,110846,2543.5531,N,08009.7139,W,1,8,2.0,18,M,,M,,*56
06/11/2014	11:08:46.717	$GPGGA,110847,2543.5507,N,08009.7150,W,1,8,2.0,19,M,,M,,*5C
06/11/2014	11:08:47.794	$GPGGA,110848,2543.5484,N,08009.7164,W,1,8,2.0,19,M,,M,,*5E
06/11/2014	11:08:48.824	$GPGGA,110849,2543.5461,N,08009.7178,W,1,8,2.0,19,M,,M,,*59
06/11/2014	11:08:49.896	$GPGGA,110850,2543.5439,N,08009.7191,W,1,8,2.0,19,M,,M,,*5B
06/11/2014	11:08:51.016	$GPGGA,110851,2543.5416,N,08009.7204,W,1,8,2.0,19,M,,M,,*58
06/11/2014	11:08:52.065	$GPGGA,110852,2543.5394,N,08009.7218,W,1,8,2.0,19,M,,M,,*5B
06/11/2014	11:08:53.113	$GPGGA,110853,2543.5372,N,08009.7233,W,1,8,2.0,19,M,,M,,*5B
06/11/2014	11:08:54.196	$GPGGA,110854,2543.5349,N,08009.7247,W,1,8,2.0,19,M,,M,,*57
06/11/2014	11:08:55.258	$GPGGA,110855,2543.5329,N,08009.7262,W,1,8,2.0,20,M,,M,,*5D
06/11/2014	11:08:56.352	$GPGGA,110856,2543.5307,N,08009.7277,W,1,8,2.0,20,M,,M,,*56
06/11/2014	11:08:57.452	$GPGGA,110857,2543.5284,N,08009.7292,W,1,8,2.0,20,M,,M,,*56
06/11/2014	11:08:58.475	$GPGGA,110858,2543.5264,N,08009.7308,W,1,8,2.0,20,M,,M,,*55
06/11/2014	11:08:59.644	$GPGGA,110859,2543.5242,N,08009.7323,W,1,8,2.0,20,M,,M,,*59
06/11/2014	11:09:00.631	$GPGGA,110900,2543.5220,N,08009.7338,W,1,8,2.0,20,M,,M,,*5A
06/11/2014	11:09:01.703	$GPGGA,110901,2543.5199,N,08009.7355,W,1,8,2.0,20,M,,M,,*51
06/11/2014	11:09:02.754	$GPGGA,110902,2543.5177,N,08009.7371,W,1,8,2.2,20,M,,M,,*56
06/11/2014	11:09:03.816	$GPGGA,110903,2543.5159,N,08009.7388,W,1,7,2.2,20,M,,M,,*52
06/11/2014	11:09:04.910	$GPGGA,110904,2543.5139,N,08009.7403,W,1,7,2.0,20,M,,M,,*55
06/11/2014	11:09:05.970	$GPGGA,110905,2543.5119,N,08009.7421,W,1,8,2.0,20,M,,M,,*59
06/11/2014	11:09:07.021	$GPGGA,110906,2543.5099,N,08009.7438,W,1,8,2.0,20,M,,M,,*5B
06/11/2014	11:09:08.201	$GPGGA,110907,2543.5079,N,08009.7454,W,1,8,2.0,20,M,,M,,*5E
06/11/2014	11:09:09.295	$GPGGA,110908,2543.5059,N,08009.7471,W,1,8,2.0,20,M,,M,,*54
06/11/2014	11:09:10.356	$GPGGA,110909,2543.5038,N,08009.7486,W,1,8,2.0,20,M,,M,,*5A
06/11/2014	11:09:11.311	$GPGGA,110910,2543.5018,N,08009.7504,W,1,8,2.0,21,M,,M,,*5A
06/11/2014	11:09:12.490	$GPGGA,110911,2543.4996,N,08009.7520,W,1,8,2.0,21,M,,M,,*53
06/11/2014	11:09:13.466	$GPGGA,110912,2543.4975,N,08009.7536,W,1,8,2.0,21,M,,M,,*5A
06/11/2014	11:09:14.635	$GPGGA,110913,2543.4953,N,08009.7554,W,1,7,2.2,21,M,,M,,*56
06/11/2014	11:09:15.697	$GPGGA,110914,2543.4932,N,08009.7569,W,1,7,2.0,21,M,,M,,*5A
06/11/2014	11:09:16.759	$GPGGA,110915,2543.4912,N,08009.7587,W,1,8,2.0,21,M,,M,,*56
06/11/2014	11:09:17.842	$GPGGA,110916,2543.4892,N,08009.7603,W,1,8,2.0,21,M,,M,,*53
06/11/2014	11:09:18.914	$GPGGA,110917,2543.4870,N,08009.7620,W,1,8,2.0,21,M,,M,,*5F
06/11/2014	11:09:19.976	$GPGGA,110918,2543.4850,N,08009.7637,W,1,8,2.2,21,M,,M,,*56
06/11/2014	11:09:21.070	$GPGGA,110919,2543.4828,N,08009.7652,W,1,7,2.1,21,M,,M,,*57
06/11/2014	11:09:22.128	$GPGGA,110920,2543.4807,N,08009.7670,W,1,7,2.0,21,M,,M,,*51
06/11/2014	11:09:23.197	$GPGGA,110921,2543.4787,N,08009.7686,W,1,8,2.0,21,M,,M,,*51
06/11/2014	11:09:24.257	$GPGGA,110922,2543.4769,N,08009.7702,W,1,8,2.2,21,M,,M,,*5D
06/11/2014	11:09:25.347	$GPGGA,110923,2543.4751,N,08009.7718,W,1,8,2.0,21,M,,M,,*5E
06/11/2014	11:09:26.409	$GPGGA,110924,2543.4731,N,08009.7736,W,1,8,2.0,21,M,,M,,*53
06/11/2014	11:09:27.481	$GPGGA,110925,2543.4711,N,08009.7754,W,1,6,3.0,21,M,,M,,*5B
06/11/2014	11:09:28.547	$GPGGA,110926,2543.4691,N,08009.7772,W,1,6,3.0,21,M,,M,,*55
06/11/2014	11:09:29.595	$GPGGA,110927,2543.4676,N,08009.7789,W,1,7,2.2,21,M,,M,,*5B
06/11/2014	11:09:30.700	$GPGGA,110928,2543.4655,N,08009.7807,W,1,7,2.0,21,M,,M,,*5E
06/11/2014	11:09:31.771	$GPGGA,110929,2543.4633,N,08009.7825,W,1,7,2.2,21,M,,M,,*5D
06/11/2014	11:09:32.825	$GPGGA,110930,2543.4612,N,08009.7844,W,1,7,2.2,21,M,,M,,*51
06/11/2014	11:09:33.913	$GPGGA,110931,2543.4590,N,08009.7862,W,1,7,2.2,21,M,,M,,*5D
06/11/2014	11:09:34.976	$GPGGA,110932,2543.4570,N,08009.7881,W,1,7,2.2,21,M,,M,,*5D
06/11/2014	11:09:36.061	$GPGGA,110933,2543.4549,N,08009.7899,W,1,7,2.2,21,M,,M,,*5F
06/11/2014	11:09:37.090	$GPGGA,110934,2543.4529,N,08009.7919,W,1,7,2.2,20,M,,M,,*56
06/11/2014	11:09:38.163	$GPGGA,110935,2543.4509,N,08009.7937,W,1,7,2.2,20,M,,M,,*59
06/11/2014	11:09:39.263	$GPGGA,110936,2543.4491,N,08009.7955,W,1,7,2.2,20,M,,M,,*5E
06/11/2014	11:09:40.347	$GPGGA,110937,2543.4473,N,08009.7973,W,1,8,1.9,20,M,,M,,*50
06/11/2014	11:09:41.390	$GPGGA,110938,2543.4454,N,08009.7989,W,1,8,1.9,20,M,,M,,*5F
06/11/2014	11:09:42.486	$GPGGA,110939,2543.4435,N,08009.8007,W,1,8,1.9,20,M,,M,,*59
06/11/2014	11:09:43.552	$GPGGA,110940,2543.4416,N,08009.8025,W,1,8,1.9,20,M,,M,,*56
06/11/2014	11:09:44.574	$GPGGA,110941,2543.4395,N,08009.8045,W,1,8,1.9,20,M,,M,,*5D
06/11/2014	11:09:45.668	$GPGGA,110942,2543.4375,N,08009.8064,W,1,8,2.2,20,M,,M,,*5B
06/11/2014	11:09:46.741	$GPGGA,110943,2543.4357,N,08009.8082,W,1,7,2.2,20,M,,M,,*5D
06/11/2014	11:09:47.824	$GPGGA,110944,2543.4335,N,08009.8100,W,1,7,1.9,20,M,,M,,*5D
06/11/2014	11:09:44.532	$GPGGA,110945,2543.4315,N,08009.8118,W,1,8,1.9,20,M,,M,,*58
06/11/2014	11:09:45.594	$GPGGA,110946,2543.4296,N,08009.8137,W,1,8,1.9,20,M,,M,,*5C
06/11/2014	11:09:46.655	$GPGGA,110947,2543.4275,N,08009.8155,W,1,7,2.2,20,M,,M,,*53
06/11/2014	11:09:47.760	$GPGGA,110948,2543.4256,N,08009.8175,W,1,7,2.2,20,M,,M,,*5F
06/11/2014	11:09:48.800	$GPGGA,110949,2543.4236,N,08009.8194,W,1,7,2.2,20,M,,M,,*57
06/11/2014	11:09:49.872	$GPGGA,110950,2543.4217,N,08009.8212,W,1,7,2.2,20,M,,M,,*51
06/11/2014	11:09:50.945	$GPGGA,110951,2543.4198,N,08009.8230,W,1,7,2.2,20,M,,M,,*54
06/11/2014	11:09:52.146	$GPGGA,110952,2543.4178,N,08009.8249,W,1,7,2.2,19,M,,M,,*5D
06/11/2014	11:09:53.186	$GPGGA,110953,2543.4159,N,08009.8267,W,1,7,2.2,19,M,,M,,*53
06/11/2014	11:09:54.156	$GPGGA,110954,2543.4140,N,08009.8287,W,1,7,2.2,19,M,,M,,*52
06/11/2014	11:09:55.363	$GPGGA,110955,2543.4122,N,08009.8305,W,1,7,2.2,19,M,,M,,*5C
06/11/2014	11:09:56.320	$GPGGA,110956,2543.4102,N,08009.8324,W,1,7,2.2,19,M,,M,,*5E
06/11/2014	11:09:57.378	$GPGGA,110957,2543.4082,N,08009.8342,W,1,7,2.2,19,M,,M,,*56
06/11/2014	11:09:58.440	$GPGGA,110958,2543.4063,N,08009.8360,W,1,7,2.2,19,M,,M,,*56
06/11/2014	11:09:59.630	$GPGGA,110959,2543.4044,N,08009.8378,W,1,7,2.2,19,M,,M,,*5B
06/11/2014	11:10:00.595	$GPGGA,111000,2543.4025,N,08009.8396,W,1,7,2.2,19,M,,M,,*58
06/11/2014	11:10:01.786	$GPGGA,111001,2543.4007,N,08009.8415,W,1,7,2.2,18,M,,M,,*54
06/11/2014	11:10:02.826	$GPGGA,111002,2543.3987,N,08009.8433,W,1,7,2.2,18,M,,M,,*55
06/11/2014	11:10:03.898	$GPGGA,111003,2543.3968,N,08009.8451,W,1,7,2.2,18,M,,M,,*51
06/11/2014	11:10:04.981	$GPGGA,111004,2543.3949,N,08009.8469,W,1,7,2.2,18,M,,M,,*5E
06/11/2014	11:10:06.053	$GPGGA,111005,2543.3929,N,08009.8486,W,1,7,2.2,18,M,,M,,*58
06/11/2014	11:10:07.116	$GPGGA,111006,2543.3910,N,08009.8504,W,1,7,2.2,18,M,,M,,*5A
06/11/2014	11:10:08.170	$GPGGA,111007,2543.3891,N,08009.8522,W,1,7,2.2,18,M,,M,,*57
06/11/2014	11:10:09.260	$GPGGA,111008,2543.3873,N,08009.8540,W,1,7,2.2,18,M,,M,,*50
06/11/2014	11:10:10.333	$GPGGA,111009,2543.3852,N,08009.8558,W,1,7,2.2,18,M,,M,,*5B
06/11/2014	11:10:11.400	$GPGGA,111010,2543.3833,N,08009.8576,W,1,7,2.2,18,M,,M,,*58
06/11/2014	11:10:12.451	$GPGGA,111011,2543.3815,N,08009.8592,W,1,7,2.2,18,M,,M,,*57
06/11/2014	11:10:13.541	$GPGGA,111012,2543.3794,N,08009.8610,W,1,7,2.2,18,M,,M,,*5B
06/11/2014	11:10:14.604	$GPGGA,111013,2543.3775,N,08009.8627,W,1,8,1.9,18,M,,M,,*56
06/11/2014	11:10:15.667	$GPGGA,111014,2543.3756,N,08009.8645,W,1,8,2.2,18,M,,M,,*5C
06/11/2014	11:10:16.755	$GPGGA,111015,2543.3738,N,08009.8663,W,1,7,2.2,17,M,,M,,*51
06/11/2014	11:10:17.818	$GPGGA,111016,2543.3721,N,08009.8679,W,1,7,3.0,17,M,,M,,*52
06/11/2014	11:10:18.899	$GPGGA,111017,2543.3704,N,08009.8696,W,1,7,2.8,17,M,,M,,*5C
06/11/2014	11:10:19.959	$GPGGA,111018,2543.3685,N,08009.8714,W,1,7,2.8,17,M,,M,,*50
06/11/2014	11:10:21.059	$GPGGA,111019,2543.3668,N,08009.8729,W,1,6,3.0,17,M,,M,,*54
06/11/2014	11:10:22.101	$GPGGA,111020,2543.3649,N,08009.8746,W,1,6,2.8,17,M,,M,,*5D
06/11/2014	11:10:23.192	$GPGGA,111021,2543.3631,N,08009.8761,W,1,8,1.9,17,M,,M,,*5A
06/11/2014	11:10:24.230	$GPGGA,111022,2543.3610,N,08009.8777,W,1,8,1.9,17,M,,M,,*5D
06/11/2014	11:10:25.335	$GPGGA,111023,2543.3589,N,08009.8794,W,1,8,1.9,17,M,,M,,*52
06/11/2014	11:10:26.389	$GPGGA,111024,2543.3568,N,08009.8811,W,1,8,1.9,17,M,,M,,*58
06/11/2014	11:10:27.470	$GPGGA,111025,2543.3548,N,08009.8826,W,1,7,2.2,17,M,,M,,*58
06/11/2014	11:10:28.498	$GPGGA,111026,2543.3528,N,08009.8842,W,1,7,1.9,17,M,,M,,*57
06/11/2014	11:10:29.570	$GPGGA,111027,2543.3508,N,08009.8858,W,1,8,1.9,17,M,,M,,*50
06/11/2014	11:10:30.669	$GPGGA,111028,2543.3488,N,08009.8874,W,1,8,1.9,17,M,,M,,*58
06/11/2014	11:10:31.739	$GPGGA,111029,2543.3468,N,08009.8891,W,1,8,1.9,17,M,,M,,*5C
06/11/2014	11:10:32.798	$GPGGA,111030,2543.3449,N,08009.8906,W,1,8,1.9,17,M,,M,,*58
06/11/2014	11:10:33.871	$GPGGA,111031,2543.3429,N,08009.8923,W,1,8,1.9,17,M,,M,,*58
06/11/2014	11:10:34.942	$GPGGA,111032,2543.3411,N,08009.8941,W,1,8,1.9,17,M,,M,,*54
06/11/2014	11:10:36.016	$GPGGA,111033,2543.3393,N,08009.8957,W,1,6,3.0,17,M,,M,,*5A
06/11/2014	11:10:37.076	$GPGGA,111034,2543.3374,N,08009.8974,W,1,6,3.0,17,M,,M,,*55
06/11/2014	11:10:38.170	$GPGGA,111035,2543.3355,N,08009.8992,W,1,6,3.0,17,M,,M,,*5F
06/11/2014	11:10:39.232	$GPGGA,111036,2543.3337,N,08009.9008,W,1,6,3.0,17,M,,M,,*53
06/11/2014	11:10:40.411	$GPGGA,111037,2543.3317,N,08009.9025,W,1,6,2.2,17,M,,M,,*5C
06/11/2014	11:10:41.344	$GPGGA,111038,2543.3298,N,08009.9043,W,1,6,2.2,17,M,,M,,*55
06/11/2014	11:10:42.535	$GPGGA,111039,2543.3279,N,08009.9059,W,1,7,2.2,17,M,,M,,*51
06/11/2014	11:10:43.489	$GPGGA,111040,2543.3260,N,08009.9076,W,1,7,2.2,17,M,,M,,*5A
06/11/2014	11:10:44.551	$GPGGA,111041,2543.3241,N,08009.9093,W,1,7,2.2,17,M,,M,,*53
06/11/2014	11:10:45.730	$GPGGA,111042,2543.3221,N,08009.9109,W,1,7,2.2,16,M,,M,,*55
06/11/2014	11:10:46.717	$GPGGA,111043,2543.3201,N,08009.9127,W,1,7,2.2,16,M,,M,,*5A
06/11/2014	11:10:47.918	$GPGGA,111044,2543.3183,N,08009.9144,W,1,7,2.2,16,M,,M,,*51
06/11/2014	11:10:44.616	$GPGGA,111045,2543.3163,N,08009.9160,W,1,7,2.2,16,M,,M,,*58
06/11/2014	11:10:45.667	$GPGGA,111046,2543.3144,N,08009.9177,W,1,7,2.2,16,M,,M,,*58
06/11/2014	11:10:46.751	$GPGGA,111047,2543.3125,N,08009.9194,W,1,7,2.2,16,M,,M,,*53
06/11/2014	11:10:47.855	$GPGGA,111048,2543.3107,N,08009.9210,W,1,7,2.2,16,M,,M,,*53
06/11/2014	11:10:48.917	$GPGGA,111049,2543.3087,N,08009.9227,W,1,7,2.2,16,M,,M,,*5F
06/11/2014	11:10:49.967	$GPGGA,111050,2543.3067,N,08009.9245,W,1,7,2.2,16,M,,M,,*5D
06/11/2014	11:10:51.028	$GPGGA,111051,2543.3049,N,08009.9260,W,1,7,2.2,16,M,,M,,*57
06/11/2014	11:10:52.122	$GPGGA,111052,2543.3031,N,08009.9277,W,1,7,2.2,16,M,,M,,*5D
06/11/2014	11:10:53.159	$GPGGA,111053,2543.3014,N,08009.9292,W,1,7,1.9,16,M,,M,,*58
06/11/2014	11:10:54.240	$GPGGA,111054,2543.2995,N,08009.9310,W,1,7,2.2,16,M,,M,,*5D
06/11/2014	11:10:55.329	$GPGGA,111055,2543.2977,N,08009.9326,W,1,7,2.2,16,M,,M,,*55
06/11/2014	11:10:56.390	$GPGGA,111056,2543.2957,N,08009.9344,W,1,7,2.2,16,M,,M,,*50
06/11/2014	11:10:57.463	$GPGGA,111057,2543.2938,N,08009.9361,W,1,7,1.9,16,M,,M,,*57
06/11/2014	11:10:58.518	$GPGGA,111058,2543.2920,N,08009.9379,W,1,7,2.2,16,M,,M,,*50
06/11/2014	11:10:59.608	$GPGGA,111059,2543.2901,N,08009.9395,W,1,7,2.2,16,M,,M,,*50
06/11/2014	11:11:00.680	$GPGGA,111100,2543.2883,N,08009.9412,W,1,7,2.2,16,M,,M,,*5E
06/11/2014	11:11:01.742	$GPGGA,111101,2543.2863,N,08009.9429,W,1,7,2.2,16,M,,M,,*59
06/11/2014	11:11:02.812	$GPGGA,111102,2543.2847,N,08009.9445,W,1,7,1.9,16,M,,M,,*5E
06/11/2014	11:11:03.897	$GPGGA,111103,2543.2827,N,08009.9462,W,1,8,2.2,16,M,,M,,*5B
06/11/2014	11:11:04.953	$GPGGA,111104,2543.2809,N,08009.9480,W,1,8,2.2,16,M,,M,,*5C
06/11/2014	11:11:06.032	$GPGGA,111105,2543.2793,N,08009.9495,W,1,7,1.9,16,M,,M,,*52
06/11/2014	11:11:07.094	$GPGGA,111106,2543.2775,N,08009.9512,W,1,7,2.2,16,M,,M,,*5F
06/11/2014	11:11:08.174	$GPGGA,111107,2543.2755,N,08009.9530,W,1,7,2.2,16,M,,M,,*5C
06/11/2014	11:11:09.244	$GPGGA,111108,2543.2736,N,08009.9548,W,1,7,2.2,16,M,,M,,*59
06/11/2014	11:11:10.320	$GPGGA,111109,2543.2717,N,08009.9563,W,1,7,2.2,16,M,,M,,*52
06/11/2014	11:11:11.360	$GPGGA,111110,2543.2699,N,08009.9581,W,1,7,2.2,16,M,,M,,*51
06/11/2014	11:11:12.458	$GPGGA,111111,2543.2679,N,08009.9599,W,1,7,2.2,16,M,,M,,*57
06/11/2014	11:11:13.537	$GPGGA,111112,2543.2661,N,08009.9615,W,1,7,2.2,16,M,,M,,*5A
06/11/2014	11:11:14.586	$GPGGA,111113,2543.2645,N,08009.9632,W,1,7,1.9,16,M,,M,,*50
06/11/2014	11:11:15.639	$GPGGA,111114,2543.2630,N,08009.9646,W,1,7,1.9,16,M,,M,,*56
06/11/2014	11:11:16.734	$GPGGA,111115,2543.2614,N,08009.9664,W,1,8,1.9,16,M,,M,,*5E
06/11/2014	11:11:17.812	$GPGGA,111116,2543.2598,N,08009.9680,W,1,8,1.9,16,M,,M,,*50
06/11/2014	11:11:18.881	$GPGGA,111117,2543.2581,N,08009.9697,W,1,8,1.9,16,M,,M,,*5F
06/11/2014	11:11:19.928	$GPGGA,111118,2543.2565,N,08009.9715,W,1,8,1.9,16,M,,M,,*51
06/11/2014	11:11:21.012	$GPGGA,111119,2543.2548,N,08009.9732,W,1,8,1.9,17,M,,M,,*5B
06/11/2014	11:11:22.085	$GPGGA,111120,2543.2533,N,08009.9749,W,1,8,2.8,17,M,,M,,*53
06/11/2014	11:11:23.254	$GPGGA,111121,2543.2518,N,08009.9766,W,1,7,2.8,17,M,,M,,*59
06/11/2014	11:11:24.208	$GPGGA,111122,2543.2501,N,08009.9785,W,1,7,2.8,17,M,,M,,*5F
06/11/2014	11:11:25.280	$GPGGA,111123,2543.2486,N,08009.9803,W,1,7,2.8,17,M,,M,,*51
06/11/2014	11:11:26.469	$GPGGA,111124,2543.2464,N,08009.9821,W,1,7,2.8,17,M,,M,,*5A
06/11/2014	11:11:27.445	$GPGGA,111125,2543.2447,N,08009.9839,W,1,8,1.9,17,M,,M,,*5E
06/11/2014	11:11:28.582	$GPGGA,111126,2543.2429,N,08009.9857,W,1,8,1.9,17,M,,M,,*5D
06/11/2014	11:11:29.654	$GPGGA,111127,2543.2410,N,08009.9875,W,1,8,1.9,17,M,,M,,*56
06/11/2014	11:11:30.662	$GPGGA,111128,2543.2395,N,08009.9895,W,1,8,1.9,18,M,,M,,*52
06/11/2014	11:11:31.713	$GPGGA,111129,2543.2379,N,08009.9913,W,1,8,2.8,18,M,,M,,*5C
06/11/2014	11:11:32.775	$GPGGA,111130,2543.2365,N,08009.9931,W,1,8,1.9,18,M,,M,,*5B
06/11/2014	11:11:35.263	$GPGGA,111132,2543.2332,N,08009.9967,W,1,8,1.9,18,M,,M,,*58
06/11/2014	11:11:36.081	$GPGGA,111133,2543.2316,N,08009.9985,W,1,8,1.9,18,M,,M,,*53
06/11/2014	11:11:37.161	$GPGGA,111134,2543.2298,N,08010.0003,W,1,8,1.9,18,M,,M,,*55
06/11/2014	11:11:38.233	$GPGGA,111135,2543.2282,N,08010.0022,W,1,8,1.9,18,M,,M,,*5C
06/11/2014	11:11:39.306	$GPGGA,111136,2543.2266,N,08010.0040,W,1,8,2.8,18,M,,M,,*53
06/11/2014	11:11:40.378	$GPGGA,111137,2543.2251,N,08010.0058,W,1,7,2.8,18,M,,M,,*50
06/11/2014	11:11:41.429	$GPGGA,111138,2543.2234,N,08010.0076,W,1,7,1.9,18,M,,M,,*52
06/11/2014	11:11:42.501	$GPGGA,111139,2543.2217,N,08010.0095,W,1,8,1.9,18,M,,M,,*50
06/11/2014	11:11:43.585	$GPGGA,111140,2543.2201,N,08010.0113,W,1,8,1.9,18,M,,M,,*56
06/11/2014	11:11:44.657	$GPGGA,111141,2543.2186,N,08010.0133,W,1,8,1.9,18,M,,M,,*59
06/11/2014	11:11:45.707	$GPGGA,111142,2543.2168,N,08010.0152,W,1,8,1.9,18,M,,M,,*5D
06/11/2014	11:11:46.790	$GPGGA,111143,2543.2152,N,08010.0170,W,1,8,1.9,18,M,,M,,*55
06/11/2014	11:11:47.862	$GPGGA,111144,2543.2135,N,08010.0189,W,1,8,1.9,18,M,,M,,*55
06/11/2014	11:11:44.564	$GPGGA,111145,2543.2118,N,08010.0209,W,1,8,1.9,18,M,,M,,*50
06/11/2014	11:11:45.643	$GPGGA,111146,2543.2103,N,08010.0228,W,1,8,1.9,18,M,,M,,*5A
06/11/2014	11:11:46.737	$GPGGA,111147,2543.2086,N,08010.0247,W,1,8,1.9,18,M,,M,,*5E
06/11/2014	11:11:47.809	$GPGGA,111148,2543.2070,N,08010.0267,W,1,8,1.9,18,M,,M,,*5A
06/11/2014	11:11:48.892	$GPGGA,111149,2543.2053,N,08010.0286,W,1,8,1.9,18,M,,M,,*55
06/11/2014	11:11:49.923	$GPGGA,111150,2543.2038,N,08010.0307,W,1,8,1.9,18,M,,M,,*58
06/11/2014	11:11:50.998	$GPGGA,111151,2543.2021,N,08010.0326,W,1,8,1.9,18,M,,M,,*52
06/11/2014	11:11:52.077	$GPGGA,111152,2543.2005,N,08010.0345,W,1,8,1.9,18,M,,M,,*52
