Software Version Number: 1	Data File Format Number: 1	Build Version Number: 1	Error Count Since VI Started: 0	Manufacturer: Raytheon	 Model Number: RayMarine 120	 S/N: 	 Cal Date: 	 Wind Direction Offset: 0.00	 Slope (M)1: 0.00	 Offset (B)1: 0.00	 Slope (M)2: 0.00	 Offset (B)2: 0.00	 Slope (M)3: 0.00	 Offset (B)3: 0.00	 Slope (M)4: 0.00	 Offset (B)4: 0.00	 Slope (M)5: 0.00	 Offset (B)5: 0.00	 Slope (M)6: 0.00	 Offset (B)6: 0.00
Computer Date	Computer Time	GGA String
06/05/2014	02:00:00.504	$GPGGA,020001,2512.7545,N,08010.0155,W,1,9,1.5,20,M,,M,,*53
06/05/2014	02:00:01.499	$GPGGA,020002,2512.7530,N,08010.0167,W,1,9,1.5,20,M,,M,,*53
06/05/2014	02:00:02.594	$GPGGA,020003,2512.7511,N,08010.0175,W,1,9,1.5,20,M,,M,,*52
06/05/2014	02:00:03.509	$GPGGA,020004,2512.7493,N,08010.0184,W,1,9,1.5,20,M,,M,,*50
06/05/2014	02:00:04.604	$GPGGA,020005,2512.7477,N,08010.0197,W,1,9,1.5,20,M,,M,,*59
06/05/2014	02:00:05.509	$GPGGA,020006,2512.7460,N,08010.0209,W,1,9,1.5,20,M,,M,,*58
06/05/2014	02:00:06.514	$GPGGA,020007,2512.7441,N,08010.0217,W,1,9,1.5,20,M,,M,,*55
06/05/2014	02:00:07.610	$GPGGA,020008,2512.7424,N,08010.0227,W,1,9,1.5,20,M,,M,,*5A
06/05/2014	02:00:08.635	$GPGGA,020009,2512.7408,N,08010.0238,W,1,9,1.5,20,M,,M,,*5B
06/05/2014	02:00:09.610	$GPGGA,020010,2512.7392,N,08010.0249,W,1,9,1.5,20,M,,M,,*51
06/05/2014	02:00:10.635	$GPGGA,020011,2512.7374,N,08010.0257,W,1,9,1.5,20,M,,M,,*57
06/05/2014	02:00:11.630	$GPGGA,020012,2512.7357,N,08010.0267,W,1,9,1.5,20,M,,M,,*56
06/05/2014	02:00:12.645	$GPGGA,020013,2512.7339,N,08010.0278,W,1,9,1.5,20,M,,M,,*51
06/05/2014	02:00:13.630	$GPGGA,020014,2512.7323,N,08010.0287,W,1,9,1.5,20,M,,M,,*5D
06/05/2014	02:00:14.625	$GPGGA,020015,2512.7306,N,08010.0298,W,1,9,1.5,20,M,,M,,*55
06/05/2014	02:00:15.640	$GPGGA,020016,2512.7289,N,08010.0307,W,1,9,1.5,20,M,,M,,*57
06/05/2014	02:00:16.655	$GPGGA,020017,2512.7272,N,08010.0318,W,1,9,1.5,20,M,,M,,*5C
06/05/2014	02:00:17.629	$GPGGA,020018,2512.7254,N,08010.0327,W,1,9,1.5,20,M,,M,,*5B
06/05/2014	02:00:18.655	$GPGGA,020019,2512.7236,N,08010.0336,W,1,9,1.5,20,M,,M,,*5E
06/05/2014	02:00:19.660	$GPGGA,020020,2512.7220,N,08010.0345,W,1,9,1.5,20,M,,M,,*57
06/05/2014	02:00:20.665	$GPGGA,020021,2512.7202,N,08010.0357,W,1,8,2.2,20,M,,M,,*50
06/05/2014	02:00:21.650	$GPGGA,020022,2512.7184,N,08010.0363,W,1,8,1.5,20,M,,M,,*5D
06/05/2014	02:00:22.665	$GPGGA,020023,2512.7168,N,08010.0373,W,1,9,1.5,20,M,,M,,*5E
06/05/2014	02:00:23.670	$GPGGA,020024,2512.7151,N,08010.0387,W,1,9,1.5,20,M,,M,,*58
06/05/2014	02:00:24.685	$GPGGA,020025,2512.7132,N,08010.0395,W,1,9,1.5,20,M,,M,,*5F
06/05/2014	02:00:25.670	$GPGGA,020026,2512.7112,N,08010.0405,W,1,9,1.5,20,M,,M,,*50
06/05/2014	02:00:26.665	$GPGGA,020027,2512.7095,N,08010.0416,W,1,9,1.5,20,M,,M,,*5D
06/05/2014	02:00:27.690	$GPGGA,020028,2512.7077,N,08010.0428,W,1,9,1.5,20,M,,M,,*53
06/05/2014	02:00:28.665	$GPGGA,020029,2512.7059,N,08010.0437,W,1,9,1.5,20,M,,M,,*50
06/05/2014	02:00:29.681	$GPGGA,020030,2512.7042,N,08010.0446,W,1,9,1.5,20,M,,M,,*54
06/05/2014	02:00:30.706	$GPGGA,020031,2512.7025,N,08010.0459,W,1,9,1.5,20,M,,M,,*5A
06/05/2014	02:00:31.691	$GPGGA,020032,2512.7009,N,08010.0467,W,1,9,1.5,20,M,,M,,*5A
06/05/2014	02:00:32.382	$GPGGA,020033,2512.6991,N,08010.0475,W,1,9,1.5,20,M,,M,,*51
06/05/2014	02:00:33.388	$GPGGA,020034,2512.6974,N,08010.0488,W,1,9,1.5,20,M,,M,,*5F
06/05/2014	02:00:34.402	$GPGGA,020035,2512.6956,N,08010.0498,W,1,9,1.5,20,M,,M,,*5F
06/05/2014	02:00:35.396	$GPGGA,020036,2512.6940,N,08010.0506,W,1,9,1.5,20,M,,M,,*5D
06/05/2014	02:00:36.492	$GPGGA,020037,2512.6922,N,08010.0517,W,1,9,1.5,20,M,,M,,*58
06/05/2014	02:00:37.406	$GPGGA,020038,2512.6905,N,08010.0527,W,1,9,1.5,20,M,,M,,*51
06/05/2014	02:00:38.512	$GPGGA,020039,2512.6888,N,08010.0538,W,1,9,1.5,20,M,,M,,*5A
06/05/2014	02:00:39.396	$GPGGA,020040,2512.6871,N,08010.0550,W,1,9,1.5,20,M,,M,,*5C
06/05/2014	02:00:40.502	$GPGGA,020041,2512.6855,N,08010.0560,W,1,9,1.5,20,M,,M,,*58
06/05/2014	02:00:41.497	$GPGGA,020042,2512.6837,N,08010.0569,W,1,9,1.5,20,M,,M,,*56
06/05/2014	02:00:42.402	$GPGGA,020043,2512.6821,N,08010.0579,W,1,9,1.5,20,M,,M,,*51
06/05/2014	02:00:43.427	$GPGGA,020044,2512.6805,N,08010.0592,W,1,9,1.5,20,M,,M,,*55
06/05/2014	02:00:44.412	$GPGGA,020045,2512.6789,N,08010.0603,W,1,9,1.5,20,M,,M,,*54
06/05/2014	02:00:45.427	$GPGGA,020046,2512.6772,N,08010.0611,W,1,9,1.5,20,M,,M,,*50
06/05/2014	02:00:46.513	$GPGGA,020047,2512.6754,N,08010.0618,W,1,9,1.5,20,M,,M,,*5C
06/05/2014	02:00:47.447	$GPGGA,020048,2512.6738,N,08010.0630,W,1,9,1.5,20,M,,M,,*53
06/05/2014	02:00:48.523	$GPGGA,020049,2512.6721,N,08010.0643,W,1,9,1.5,20,M,,M,,*5E
06/05/2014	02:00:49.417	$GPGGA,020050,2512.6704,N,08010.0651,W,1,9,1.5,20,M,,M,,*52
06/05/2014	02:00:50.533	$GPGGA,020051,2512.6685,N,08010.0659,W,1,9,1.5,20,M,,M,,*53
06/05/2014	02:00:51.448	$GPGGA,020052,2512.6669,N,08010.0669,W,1,9,1.5,20,M,,M,,*51
06/05/2014	02:00:52.552	$GPGGA,020053,2512.6651,N,08010.0681,W,1,9,1.5,20,M,,M,,*5D
06/05/2014	02:00:53.537	$GPGGA,020054,2512.6635,N,08010.0688,W,1,9,1.5,20,M,,M,,*51
06/05/2014	02:00:54.552	$GPGGA,020055,2512.6618,N,08010.0695,W,1,9,1.5,20,M,,M,,*53
06/05/2014	02:00:55.578	$GPGGA,020056,2512.6602,N,08010.0705,W,1,9,1.5,20,M,,M,,*53
06/05/2014	02:00:56.583	$GPGGA,020057,2512.6586,N,08010.0715,W,1,9,1.5,20,M,,M,,*5C
06/05/2014	02:00:57.578	$GPGGA,020058,2512.6569,N,08010.0723,W,1,9,1.5,20,M,,M,,*57
06/05/2014	02:00:58.553	$GPGGA,020059,2512.6552,N,08010.0733,W,1,9,1.5,20,M,,M,,*5F
06/05/2014	02:00:59.578	$GPGGA,020100,2512.6535,N,08010.0744,W,1,9,1.5,20,M,,M,,*53
06/05/2014	02:01:00.573	$GPGGA,020101,2512.6517,N,08010.0755,W,1,9,1.5,20,M,,M,,*52
06/05/2014	02:01:01.568	$GPGGA,020102,2512.6499,N,08010.0764,W,1,9,1.5,20,M,,M,,*54
06/05/2014	02:01:02.563	$GPGGA,020103,2512.6482,N,08010.0774,W,1,9,1.5,20,M,,M,,*5E
06/05/2014	02:01:03.588	$GPGGA,020104,2512.6465,N,08010.0785,W,1,9,1.5,20,M,,M,,*5E
06/05/2014	02:01:04.573	$GPGGA,020105,2512.6449,N,08010.0795,W,1,9,1.5,20,M,,M,,*50
06/05/2014	02:01:05.578	$GPGGA,020106,2512.6431,N,08010.0805,W,1,9,1.5,20,M,,M,,*5A
06/05/2014	02:01:06.593	$GPGGA,020107,2512.6413,N,08010.0816,W,1,9,1.5,20,M,,M,,*59
06/05/2014	02:01:07.599	$GPGGA,020108,2512.6396,N,08010.0827,W,1,9,1.5,20,M,,M,,*5E
06/05/2014	02:01:08.604	$GPGGA,020109,2512.6378,N,08010.0836,W,1,9,1.5,20,M,,M,,*5F
06/05/2014	02:01:09.589	$GPGGA,020110,2512.6362,N,08010.0846,W,1,9,1.5,20,M,,M,,*5B
06/05/2014	02:01:10.583	$GPGGA,020111,2512.6344,N,08010.0857,W,1,9,1.5,20,M,,M,,*5E
06/05/2014	02:01:11.598	$GPGGA,020112,2512.6327,N,08010.0868,W,1,9,1.5,20,M,,M,,*54
06/05/2014	02:01:12.603	$GPGGA,020113,2512.6310,N,08010.0878,W,1,9,1.5,20,M,,M,,*50
06/05/2014	02:01:13.588	$GPGGA,020114,2512.6292,N,08010.0887,W,1,9,1.5,20,M,,M,,*5C
06/05/2014	02:01:14.633	$GPGGA,020115,2512.6275,N,08010.0899,W,1,9,1.5,20,M,,M,,*5B
06/05/2014	02:01:15.618	$GPGGA,020116,2512.6259,N,08010.0910,W,1,9,1.5,20,M,,M,,*56
06/05/2014	02:01:16.623	$GPGGA,020117,2512.6241,N,08010.0921,W,1,9,1.5,20,M,,M,,*5C
06/05/2014	02:01:17.618	$GPGGA,020118,2512.6223,N,08010.0929,W,1,9,1.5,20,M,,M,,*5F
06/05/2014	02:01:18.644	$GPGGA,020119,2512.6207,N,08010.0939,W,1,9,1.5,20,M,,M,,*59
06/05/2014	02:01:19.639	$GPGGA,020120,2512.6189,N,08010.0950,W,1,9,1.5,20,M,,M,,*59
06/05/2014	02:01:20.644	$GPGGA,020121,2512.6171,N,08010.0958,W,1,9,1.5,20,M,,M,,*57
06/05/2014	02:01:21.619	$GPGGA,020122,2512.6153,N,08010.0968,W,1,9,1.5,19,M,,M,,*5D
06/05/2014	02:01:22.624	$GPGGA,020123,2512.6136,N,08010.0979,W,1,9,1.5,19,M,,M,,*5F
06/05/2014	02:01:23.649	$GPGGA,020124,2512.6120,N,08010.0988,W,1,9,1.5,19,M,,M,,*51
06/05/2014	02:01:24.805	$GPGGA,020125,2512.6102,N,08010.0997,W,1,9,1.5,19,M,,M,,*5E
06/05/2014	02:01:25.770	$GPGGA,020126,2512.6085,N,08010.1008,W,1,9,1.5,19,M,,M,,*5D
06/05/2014	02:01:26.815	$GPGGA,020127,2512.6068,N,08010.1017,W,1,9,1.5,19,M,,M,,*51
06/05/2014	02:01:27.648	$GPGGA,020128,2512.6050,N,08010.1027,W,1,9,1.5,19,M,,M,,*56
06/05/2014	02:01:28.653	$GPGGA,020129,2512.6032,N,08010.1037,W,1,9,1.5,19,M,,M,,*52
06/05/2014	02:01:29.739	$GPGGA,020130,2512.6015,N,08010.1048,W,1,9,1.5,19,M,,M,,*57
06/05/2014	02:01:30.653	$GPGGA,020131,2512.5997,N,08010.1058,W,1,9,1.5,19,M,,M,,*57
06/05/2014	02:01:31.679	$GPGGA,020132,2512.5979,N,08010.1067,W,1,9,1.5,19,M,,M,,*58
06/05/2014	02:01:32.349	$GPGGA,020133,2512.5961,N,08010.1077,W,1,9,1.5,19,M,,M,,*51
06/05/2014	02:01:33.344	$GPGGA,020134,2512.5944,N,08010.1087,W,1,9,1.5,19,M,,M,,*5E
06/05/2014	02:01:34.550	$GPGGA,020135,2512.5929,N,08010.1096,W,1,8,1.5,19,M,,M,,*55
06/05/2014	02:01:35.384	$GPGGA,020136,2512.5912,N,08010.1107,W,1,8,1.5,19,M,,M,,*57
06/05/2014	02:01:36.550	$GPGGA,020137,2512.5896,N,08010.1117,W,1,9,1.5,19,M,,M,,*5B
06/05/2014	02:01:37.374	$GPGGA,020138,2512.5878,N,08010.1127,W,1,9,1.5,19,M,,M,,*57
06/05/2014	02:01:38.560	$GPGGA,020139,2512.5862,N,08010.1138,W,1,9,1.5,19,M,,M,,*53
06/05/2014	02:01:39.384	$GPGGA,020140,2512.5844,N,08010.1147,W,1,9,1.5,19,M,,M,,*51
06/05/2014	02:01:40.379	$GPGGA,020141,2512.5827,N,08010.1156,W,1,9,1.5,19,M,,M,,*55
06/05/2014	02:01:41.475	$GPGGA,020142,2512.5810,N,08010.1167,W,1,9,1.5,19,M,,M,,*50
06/05/2014	02:01:42.582	$GPGGA,020143,2512.5793,N,08010.1178,W,1,9,1.5,19,M,,M,,*5B
06/05/2014	02:01:43.516	$GPGGA,020144,2512.5775,N,08010.1188,W,1,9,1.5,19,M,,M,,*5B
06/05/2014	02:01:44.580	$GPGGA,020145,2512.5757,N,08010.1197,W,1,9,1.5,19,M,,M,,*54
06/05/2014	02:01:45.514	$GPGGA,020146,2512.5739,N,08010.1208,W,1,9,1.5,19,M,,M,,*5A
06/05/2014	02:01:46.611	$GPGGA,020147,2512.5720,N,08010.1219,W,1,9,1.5,19,M,,M,,*53
06/05/2014	02:01:47.535	$GPGGA,020148,2512.5702,N,08010.1229,W,1,9,1.5,19,M,,M,,*5F
06/05/2014	02:01:48.600	$GPGGA,020149,2512.5684,N,08010.1241,W,1,9,1.5,19,M,,M,,*5F
06/05/2014	02:01:49.536	$GPGGA,020150,2512.5665,N,08010.1250,W,1,9,1.5,19,M,,M,,*58
06/05/2014	02:01:50.610	$GPGGA,020151,2512.5648,N,08010.1261,W,1,9,1.5,19,M,,M,,*54
06/05/2014	02:01:51.525	$GPGGA,020152,2512.5631,N,08010.1272,W,1,9,1.5,19,M,,M,,*5B
06/05/2014	02:01:52.600	$GPGGA,020153,2512.5614,N,08010.1282,W,1,9,1.5,19,M,,M,,*52
06/05/2014	02:01:53.535	$GPGGA,020154,2512.5596,N,08010.1290,W,1,9,1.5,19,M,,M,,*5F
06/05/2014	02:01:54.601	$GPGGA,020155,2512.5579,N,08010.1301,W,1,9,1.5,19,M,,M,,*56
06/05/2014	02:01:55.576	$GPGGA,020156,2512.5561,N,08010.1313,W,1,9,1.5,19,M,,M,,*5F
06/05/2014	02:01:56.530	$GPGGA,020157,2512.5542,N,08010.1320,W,1,9,1.5,19,M,,M,,*5F
06/05/2014	02:01:57.556	$GPGGA,020158,2512.5525,N,08010.1331,W,1,9,1.5,19,M,,M,,*51
06/05/2014	02:01:58.631	$GPGGA,020159,2512.5509,N,08010.1342,W,1,9,1.5,19,M,,M,,*5A
06/05/2014	02:01:59.546	$GPGGA,020200,2512.5493,N,08010.1352,W,1,9,1.6,19,M,,M,,*55
06/05/2014	02:02:00.631	$GPGGA,020201,2512.5477,N,08010.1362,W,1,9,1.5,19,M,,M,,*5E
06/05/2014	02:02:01.566	$GPGGA,020202,2512.5460,N,08010.1373,W,1,9,1.5,19,M,,M,,*5B
06/05/2014	02:02:02.540	$GPGGA,020203,2512.5443,N,08010.1384,W,1,9,1.5,19,M,,M,,*53
06/05/2014	02:02:03.545	$GPGGA,020204,2512.5426,N,08010.1395,W,1,9,1.5,19,M,,M,,*57
06/05/2014	02:02:04.659	$GPGGA,020205,2512.5409,N,08010.1405,W,1,9,1.5,18,M,,M,,*54
06/05/2014	02:02:05.542	$GPGGA,020206,2512.5392,N,08010.1414,W,1,9,1.5,18,M,,M,,*52
06/05/2014	02:02:06.545	$GPGGA,020207,2512.5376,N,08010.1424,W,1,9,1.5,18,M,,M,,*5A
06/05/2014	02:02:07.589	$GPGGA,020208,2512.5359,N,08010.1436,W,1,9,1.5,18,M,,M,,*5B
06/05/2014	02:02:08.653	$GPGGA,020209,2512.5342,N,08010.1446,W,1,9,1.5,18,M,,M,,*57
06/05/2014	02:02:09.576	$GPGGA,020210,2512.5324,N,08010.1454,W,1,9,1.5,18,M,,M,,*5C
06/05/2014	02:02:10.549	$GPGGA,020211,2512.5307,N,08010.1465,W,1,9,1.5,18,M,,M,,*5E
06/05/2014	02:02:11.683	$GPGGA,020212,2512.5289,N,08010.1477,W,1,9,1.5,18,M,,M,,*59
06/05/2014	02:02:12.546	$GPGGA,020213,2512.5271,N,08010.1485,W,1,9,1.5,18,M,,M,,*52
06/05/2014	02:02:13.669	$GPGGA,020214,2512.5253,N,08010.1495,W,1,9,1.5,18,M,,M,,*54
06/05/2014	02:02:14.673	$GPGGA,020215,2512.5235,N,08010.1506,W,1,9,1.5,18,M,,M,,*5E
06/05/2014	02:02:15.596	$GPGGA,020216,2512.5218,N,08010.1515,W,1,9,1.5,18,M,,M,,*50
06/05/2014	02:02:16.660	$GPGGA,020217,2512.5201,N,08010.1525,W,1,9,1.5,18,M,,M,,*5A
06/05/2014	02:02:17.553	$GPGGA,020218,2512.5183,N,08010.1533,W,1,9,1.5,18,M,,M,,*5B
06/05/2014	02:02:18.646	$GPGGA,020219,2512.5167,N,08010.1544,W,1,9,1.5,18,M,,M,,*50
06/05/2014	02:02:19.569	$GPGGA,020220,2512.5150,N,08010.1554,W,1,9,1.5,18,M,,M,,*5F
06/05/2014	02:02:20.562	$GPGGA,020221,2512.5131,N,08010.1562,W,1,9,1.5,18,M,,M,,*5C
06/05/2014	02:02:21.686	$GPGGA,020222,2512.5113,N,08010.1572,W,1,9,1.5,18,M,,M,,*5E
06/05/2014	02:02:22.649	$GPGGA,020223,2512.5096,N,08010.1584,W,1,9,1.5,18,M,,M,,*5A
06/05/2014	02:02:23.682	$GPGGA,020224,2512.5079,N,08010.1597,W,1,9,1.5,18,M,,M,,*5E
06/05/2014	02:02:24.706	$GPGGA,020225,2512.5060,N,08010.1604,W,1,9,1.5,18,M,,M,,*5E
06/05/2014	02:02:25.599	$GPGGA,020226,2512.5041,N,08010.1611,W,1,9,1.5,18,M,,M,,*5A
06/05/2014	02:02:26.713	$GPGGA,020227,2512.5024,N,08010.1624,W,1,9,1.5,18,M,,M,,*5E
06/05/2014	02:02:27.686	$GPGGA,020228,2512.5008,N,08010.1634,W,1,9,1.5,18,M,,M,,*5E
06/05/2014	02:02:28.669	$GPGGA,020229,2512.4989,N,08010.1640,W,1,9,1.5,18,M,,M,,*5D
06/05/2014	02:02:29.673	$GPGGA,020230,2512.4972,N,08010.1649,W,1,9,1.5,18,M,,M,,*58
06/05/2014	02:02:30.716	$GPGGA,020231,2512.4955,N,08010.1660,W,1,9,1.5,18,M,,M,,*57
06/05/2014	02:02:31.700	$GPGGA,020232,2512.4939,N,08010.1669,W,1,9,1.5,18,M,,M,,*57
06/05/2014	02:02:32.436	$GPGGA,020233,2512.4919,N,08010.1676,W,1,9,1.5,18,M,,M,,*5A
06/05/2014	02:02:33.429	$GPGGA,020234,2512.4902,N,08010.1687,W,1,9,1.5,18,M,,M,,*59
06/05/2014	02:02:34.483	$GPGGA,020235,2512.4886,N,08010.1696,W,1,9,1.5,18,M,,M,,*55
06/05/2014	02:02:35.436	$GPGGA,020236,2512.4868,N,08010.1703,W,1,9,1.5,18,M,,M,,*5B
06/05/2014	02:02:36.490	$GPGGA,020237,2512.4850,N,08010.1710,W,1,9,1.5,18,M,,M,,*53
06/05/2014	02:02:37.422	$GPGGA,020238,2512.4834,N,08010.1721,W,1,9,1.5,18,M,,M,,*5C
06/05/2014	02:02:38.465	$GPGGA,020239,2512.4817,N,08010.1730,W,1,9,1.5,17,M,,M,,*53
06/05/2014	02:02:39.439	$GPGGA,020240,2512.4800,N,08010.1739,W,1,9,1.5,17,M,,M,,*52
06/05/2014	02:02:40.452	$GPGGA,020241,2512.4782,N,08010.1749,W,1,9,1.5,17,M,,M,,*51
06/05/2014	02:02:41.435	$GPGGA,020242,2512.4765,N,08010.1757,W,1,9,1.5,17,M,,M,,*54
06/05/2014	02:02:42.459	$GPGGA,020243,2512.4748,N,08010.1768,W,1,9,1.5,17,M,,M,,*56
06/05/2014	02:02:43.452	$GPGGA,020244,2512.4730,N,08010.1781,W,1,9,1.5,17,M,,M,,*59
06/05/2014	02:02:44.476	$GPGGA,020245,2512.4711,N,08010.1788,W,1,9,1.5,17,M,,M,,*52
06/05/2014	02:02:45.439	$GPGGA,020246,2512.4694,N,08010.1797,W,1,9,1.5,17,M,,M,,*53
06/05/2014	02:02:46.472	$GPGGA,020247,2512.4677,N,08010.1810,W,1,9,1.5,17,M,,M,,*5F
06/05/2014	02:02:47.466	$GPGGA,020248,2512.4660,N,08010.1819,W,1,9,1.5,17,M,,M,,*5F
06/05/2014	02:02:48.479	$GPGGA,020249,2512.4642,N,08010.1828,W,1,9,1.5,17,M,,M,,*5C
06/05/2014	02:02:49.443	$GPGGA,020250,2512.4625,N,08010.1839,W,1,9,1.5,17,M,,M,,*55
06/05/2014	02:02:50.486	$GPGGA,020251,2512.4608,N,08010.1850,W,1,9,1.5,17,M,,M,,*54
06/05/2014	02:02:51.459	$GPGGA,020252,2512.4592,N,08010.1860,W,1,9,1.5,17,M,,M,,*54
06/05/2014	02:02:52.533	$GPGGA,020253,2512.4574,N,08010.1869,W,1,9,1.5,17,M,,M,,*54
06/05/2014	02:02:53.446	$GPGGA,020254,2512.4556,N,08010.1879,W,1,9,1.5,17,M,,M,,*52
06/05/2014	02:02:54.489	$GPGGA,020255,2512.4538,N,08010.1889,W,1,9,1.5,17,M,,M,,*54
06/05/2014	02:02:55.482	$GPGGA,020256,2512.4520,N,08010.1900,W,1,9,1.5,17,M,,M,,*5E
06/05/2014	02:02:56.505	$GPGGA,020257,2512.4520,N,08010.1900,W,1,9,1.5,17,M,,M,,*5F
06/05/2014	02:02:57.479	$GPGGA,020258,2512.4484,N,08010.1922,W,1,9,1.5,17,M,,M,,*5F
06/05/2014	02:02:58.522	$GPGGA,020259,2512.4466,N,08010.1933,W,1,9,1.5,17,M,,M,,*52
06/05/2014	02:02:59.496	$GPGGA,020300,2512.4449,N,08010.1944,W,1,9,1.5,17,M,,M,,*52
06/05/2014	02:03:00.539	$GPGGA,020301,2512.4431,N,08010.1954,W,1,9,1.5,17,M,,M,,*5D
06/05/2014	02:03:01.472	$GPGGA,020302,2512.4415,N,08010.1962,W,1,9,1.5,17,M,,M,,*5D
06/05/2014	02:03:02.486	$GPGGA,020303,2512.4415,N,08010.1962,W,1,9,1.5,17,M,,M,,*5C
06/05/2014	02:03:03.489	$GPGGA,020304,2512.4383,N,08010.1983,W,1,9,1.5,17,M,,M,,*5C
06/05/2014	02:03:04.462	$GPGGA,020305,2512.4383,N,08010.1983,W,1,9,1.5,17,M,,M,,*5D
06/05/2014	02:03:05.466	$GPGGA,020306,2512.4346,N,08010.2002,W,1,9,1.5,17,M,,M,,*54
06/05/2014	02:03:06.580	$GPGGA,020307,2512.4329,N,08010.2014,W,1,9,1.5,17,M,,M,,*5B
06/05/2014	02:03:07.483	$GPGGA,020308,2512.4311,N,08010.2027,W,1,9,1.5,17,M,,M,,*5F
06/05/2014	02:03:08.486	$GPGGA,020309,2512.4311,N,08010.2027,W,1,9,1.5,17,M,,M,,*5E
06/05/2014	02:03:09.479	$GPGGA,020310,2512.4292,N,08010.2037,W,1,9,1.5,17,M,,M,,*5D
06/05/2014	02:03:10.593	$GPGGA,020311,2512.4257,N,08010.2057,W,1,9,1.5,17,M,,M,,*53
06/05/2014	02:03:11.496	$GPGGA,020312,2512.4257,N,08010.2057,W,1,9,1.5,17,M,,M,,*50
06/05/2014	02:03:12.500	$GPGGA,020313,2512.4240,N,08010.2066,W,1,9,1.5,17,M,,M,,*55
06/05/2014	02:03:13.572	$GPGGA,020314,2512.4207,N,08010.2090,W,1,9,1.5,17,M,,M,,*58
06/05/2014	02:03:14.576	$GPGGA,020315,2512.4189,N,08010.2099,W,1,9,1.5,17,M,,M,,*55
06/05/2014	02:03:15.579	$GPGGA,020316,2512.4173,N,08010.2108,W,1,9,1.5,17,M,,M,,*5A
06/05/2014	02:03:16.572	$GPGGA,020317,2512.4155,N,08010.2121,W,1,9,1.5,17,M,,M,,*54
06/05/2014	02:03:17.506	$GPGGA,020318,2512.4138,N,08010.2131,W,1,9,1.5,17,M,,M,,*51
06/05/2014	02:03:18.619	$GPGGA,020319,2512.4120,N,08010.2139,W,1,9,1.5,17,M,,M,,*51
06/05/2014	02:03:19.593	$GPGGA,020320,2512.4104,N,08010.2150,W,1,9,1.5,17,M,,M,,*52
06/05/2014	02:03:20.606	$GPGGA,020321,2512.4086,N,08010.2160,W,1,9,1.5,17,M,,M,,*5B
06/05/2014	02:03:21.579	$GPGGA,020322,2512.4069,N,08010.2171,W,1,9,1.5,17,M,,M,,*59
06/05/2014	02:03:22.613	$GPGGA,020323,2512.4051,N,08010.2180,W,1,9,1.5,17,M,,M,,*5D
06/05/2014	02:03:23.606	$GPGGA,020324,2512.4035,N,08010.2190,W,1,9,1.5,17,M,,M,,*59
06/05/2014	02:03:24.610	$GPGGA,020325,2512.4019,N,08010.2200,W,1,9,1.5,17,M,,M,,*5C
06/05/2014	02:03:25.593	$GPGGA,020326,2512.4003,N,08010.2208,W,1,9,1.5,17,M,,M,,*5C
06/05/2014	02:03:26.616	$GPGGA,020327,2512.3985,N,08010.2220,W,1,9,1.5,17,M,,M,,*57
06/05/2014	02:03:27.620	$GPGGA,020328,2512.3968,N,08010.2232,W,1,9,1.5,17,M,,M,,*58
06/05/2014	02:03:28.613	$GPGGA,020329,2512.3949,N,08010.2241,W,1,9,1.5,17,M,,M,,*5E
06/05/2014	02:03:29.606	$GPGGA,020330,2512.3932,N,08010.2252,W,1,9,1.5,17,M,,M,,*58
06/05/2014	02:03:30.609	$GPGGA,020331,2512.3916,N,08010.2262,W,1,9,1.5,17,M,,M,,*5C
06/05/2014	02:03:31.612	$GPGGA,020332,2512.3899,N,08010.2272,W,1,9,1.5,17,M,,M,,*58
06/05/2014	02:03:32.393	$GPGGA,020333,2512.3884,N,08010.2283,W,1,9,1.5,17,M,,M,,*5B
06/05/2014	02:03:33.396	$GPGGA,020334,2512.3866,N,08010.2294,W,1,9,1.5,17,M,,M,,*56
06/05/2014	02:03:34.420	$GPGGA,020335,2512.3849,N,08010.2302,W,1,9,1.5,17,M,,M,,*54
06/05/2014	02:03:35.413	$GPGGA,020336,2512.3831,N,08010.2310,W,1,9,1.5,17,M,,M,,*5B
06/05/2014	02:03:36.426	$GPGGA,020337,2512.3815,N,08010.2323,W,1,9,1.5,17,M,,M,,*5C
06/05/2014	02:03:37.400	$GPGGA,020338,2512.3797,N,08010.2334,W,1,9,1.5,17,M,,M,,*50
06/05/2014	02:03:38.433	$GPGGA,020339,2512.3779,N,08010.2342,W,1,9,1.5,17,M,,M,,*50
06/05/2014	02:03:39.427	$GPGGA,020340,2512.3761,N,08010.2352,W,1,9,1.5,17,M,,M,,*56
06/05/2014	02:03:40.440	$GPGGA,020341,2512.3743,N,08010.2361,W,1,9,1.5,17,M,,M,,*57
06/05/2014	02:03:41.403	$GPGGA,020342,2512.3726,N,08010.2371,W,1,9,1.5,17,M,,M,,*56
06/05/2014	02:03:42.417	$GPGGA,020343,2512.3709,N,08010.2381,W,1,9,1.5,17,M,,M,,*55
06/05/2014	02:03:43.420	$GPGGA,020344,2512.3692,N,08010.2391,W,1,9,1.5,17,M,,M,,*50
06/05/2014	02:03:44.434	$GPGGA,020345,2512.3674,N,08010.2400,W,1,9,1.5,17,M,,M,,*56
06/05/2014	02:03:45.418	$GPGGA,020346,2512.3657,N,08010.2410,W,1,9,1.5,17,M,,M,,*55
06/05/2014	02:03:46.424	$GPGGA,020347,2512.3639,N,08010.2418,W,1,9,1.5,17,M,,M,,*54
06/05/2014	02:03:47.423	$GPGGA,020348,2512.3622,N,08010.2428,W,1,9,1.5,17,M,,M,,*52
06/05/2014	02:03:48.446	$GPGGA,020349,2512.3605,N,08010.2439,W,1,9,1.5,17,M,,M,,*56
06/05/2014	02:03:49.429	$GPGGA,020350,2512.3586,N,08010.2449,W,1,9,1.6,17,M,,M,,*52
06/05/2014	02:03:50.443	$GPGGA,020351,2512.3569,N,08010.2457,W,1,9,1.5,17,M,,M,,*5E
06/05/2014	02:03:51.436	$GPGGA,020352,2512.3552,N,08010.2465,W,1,9,1.5,17,M,,M,,*54
06/05/2014	02:03:52.530	$GPGGA,020353,2512.3537,N,08010.2476,W,1,9,1.5,17,M,,M,,*54
06/05/2014	02:03:53.433	$GPGGA,020354,2512.3519,N,08010.2487,W,1,9,1.5,17,M,,M,,*51
06/05/2014	02:03:54.446	$GPGGA,020355,2512.3501,N,08010.2496,W,1,9,1.5,17,M,,M,,*59
06/05/2014	02:03:55.440	$GPGGA,020356,2512.3485,N,08010.2505,W,1,9,1.5,17,M,,M,,*5C
06/05/2014	02:03:56.554	$GPGGA,020357,2512.3468,N,08010.2518,W,1,9,1.5,17,M,,M,,*52
06/05/2014	02:03:57.427	$GPGGA,020358,2512.3451,N,08010.2525,W,1,9,1.5,17,M,,M,,*59
06/05/2014	02:03:58.560	$GPGGA,020359,2512.3434,N,08010.2534,W,1,9,1.5,17,M,,M,,*5B
06/05/2014	02:03:59.564	$GPGGA,020400,2512.3419,N,08010.2548,W,1,9,1.5,17,M,,M,,*54
06/05/2014	02:04:00.457	$GPGGA,020401,2512.3402,N,08010.2558,W,1,9,1.5,17,M,,M,,*5E
06/05/2014	02:04:01.530	$GPGGA,020402,2512.3383,N,08010.2565,W,1,9,1.5,17,M,,M,,*5D
06/05/2014	02:04:02.544	$GPGGA,020403,2512.3367,N,08010.2576,W,1,9,1.5,17,M,,M,,*54
06/05/2014	02:04:03.458	$GPGGA,020404,2512.3351,N,08010.2588,W,1,9,1.5,17,M,,M,,*57
06/05/2014	02:04:04.450	$GPGGA,020405,2512.3333,N,08010.2598,W,1,9,1.5,17,M,,M,,*53
06/05/2014	02:04:05.543	$GPGGA,020406,2512.3315,N,08010.2605,W,1,9,1.5,17,M,,M,,*53
06/05/2014	02:04:06.546	$GPGGA,020407,2512.3299,N,08010.2613,W,1,9,1.5,17,M,,M,,*50
06/05/2014	02:04:07.550	$GPGGA,020408,2512.3284,N,08010.2624,W,1,9,1.5,17,M,,M,,*57
06/05/2014	02:04:08.591	$GPGGA,020409,2512.3266,N,08010.2634,W,1,8,1.6,17,M,,M,,*59
06/05/2014	02:04:09.582	$GPGGA,020410,2512.3248,N,08010.2642,W,1,8,1.5,17,M,,M,,*5F
06/05/2014	02:04:10.594	$GPGGA,020411,2512.3231,N,08010.2650,W,1,9,1.5,17,M,,M,,*52
06/05/2014	02:04:11.626	$GPGGA,020412,2512.3214,N,08010.2660,W,1,9,1.5,17,M,,M,,*55
06/05/2014	02:04:12.648	$GPGGA,020413,2512.3197,N,08010.2670,W,1,9,1.5,17,M,,M,,*5D
06/05/2014	02:04:13.670	$GPGGA,020414,2512.3180,N,08010.2680,W,1,9,1.5,17,M,,M,,*53
06/05/2014	02:04:14.703	$GPGGA,020415,2512.3162,N,08010.2689,W,1,9,1.5,17,M,,M,,*57
06/05/2014	02:04:15.714	$GPGGA,020416,2512.3145,N,08010.2700,W,1,9,1.5,17,M,,M,,*51
06/05/2014	02:04:16.726	$GPGGA,020417,2512.3129,N,08010.2710,W,1,9,1.5,17,M,,M,,*5B
06/05/2014	02:04:17.748	$GPGGA,020418,2512.3111,N,08010.2718,W,1,9,1.5,17,M,,M,,*57
06/05/2014	02:04:18.781	$GPGGA,020419,2512.3093,N,08010.2728,W,1,9,1.5,17,M,,M,,*5E
06/05/2014	02:04:19.792	$GPGGA,020420,2512.3076,N,08010.2739,W,1,9,1.5,17,M,,M,,*5F
06/05/2014	02:04:20.824	$GPGGA,020421,2512.3058,N,08010.2750,W,1,9,1.5,17,M,,M,,*5D
06/05/2014	02:04:21.816	$GPGGA,020422,2512.3040,N,08010.2760,W,1,9,1.5,17,M,,M,,*54
06/05/2014	02:04:22.867	$GPGGA,020423,2512.3022,N,08010.2769,W,1,9,1.5,17,M,,M,,*58
06/05/2014	02:04:23.879	$GPGGA,020424,2512.3006,N,08010.2780,W,1,9,1.5,17,M,,M,,*5E
06/05/2014	02:04:24.881	$GPGGA,020425,2512.2988,N,08010.2790,W,1,9,1.5,17,M,,M,,*50
06/05/2014	02:04:25.903	$GPGGA,020426,2512.2972,N,08010.2801,W,1,9,1.5,17,M,,M,,*51
06/05/2014	02:04:26.945	$GPGGA,020427,2512.2955,N,08010.2811,W,1,9,1.5,17,M,,M,,*54
06/05/2014	02:04:27.947	$GPGGA,020428,2512.2938,N,08010.2819,W,1,9,1.5,17,M,,M,,*58
06/05/2014	02:04:28.959	$GPGGA,020429,2512.2921,N,08010.2832,W,1,9,1.5,17,M,,M,,*58
06/05/2014	02:04:29.991	$GPGGA,020430,2512.2903,N,08010.2843,W,1,9,1.5,17,M,,M,,*56
06/05/2014	02:04:31.033	$GPGGA,020431,2512.2884,N,08010.2854,W,1,9,1.5,17,M,,M,,*5F
06/05/2014	02:04:32.027	$GPGGA,020432,2512.2866,N,08010.2865,W,1,9,1.5,17,M,,M,,*52
06/05/2014	02:04:32.414	$GPGGA,020433,2512.2848,N,08010.2876,W,1,9,1.5,17,M,,M,,*5D
06/05/2014	02:04:33.416	$GPGGA,020434,2512.2831,N,08010.2886,W,1,9,1.5,17,M,,M,,*5B
06/05/2014	02:04:34.448	$GPGGA,020435,2512.2814,N,08010.2895,W,1,9,1.5,17,M,,M,,*5F
06/05/2014	02:04:35.470	$GPGGA,020436,2512.2797,N,08010.2906,W,1,9,1.5,17,M,,M,,*53
06/05/2014	02:04:36.492	$GPGGA,020437,2512.2779,N,08010.2916,W,1,9,1.5,17,M,,M,,*53
06/05/2014	02:04:37.483	$GPGGA,020438,2512.2764,N,08010.2926,W,1,9,1.5,17,M,,M,,*53
06/05/2014	02:04:38.536	$GPGGA,020439,2512.2746,N,08010.2935,W,1,9,1.5,17,M,,M,,*50
06/05/2014	02:04:39.526	$GPGGA,020440,2512.2728,N,08010.2945,W,1,9,1.5,17,M,,M,,*51
06/05/2014	02:04:40.559	$GPGGA,020441,2512.2711,N,08010.2957,W,1,9,1.5,17,M,,M,,*59
06/05/2014	02:04:41.662	$GPGGA,020442,2512.2693,N,08010.2966,W,1,9,1.5,17,M,,M,,*53
06/05/2014	02:04:42.603	$GPGGA,020443,2512.2675,N,08010.2973,W,1,9,1.5,17,M,,M,,*5E
06/05/2014	02:04:43.626	$GPGGA,020444,2512.2659,N,08010.2984,W,1,9,1.5,17,M,,M,,*5F
06/05/2014	02:04:44.759	$GPGGA,020445,2512.2641,N,08010.2996,W,1,9,1.5,17,M,,M,,*54
06/05/2014	02:04:45.638	$GPGGA,020446,2512.2620,N,08010.3004,W,1,9,1.5,17,M,,M,,*53
06/05/2014	02:04:46.660	$GPGGA,020447,2512.2602,N,08010.3013,W,1,9,1.5,17,M,,M,,*54
06/05/2014	02:04:47.692	$GPGGA,020448,2512.2587,N,08010.3024,W,1,9,1.5,17,M,,M,,*51
06/05/2014	02:04:48.806	$GPGGA,020449,2512.2569,N,08010.3035,W,1,9,1.5,17,M,,M,,*50
06/05/2014	02:04:49.726	$GPGGA,020450,2512.2551,N,08010.3040,W,1,9,1.5,17,M,,M,,*51
06/05/2014	02:04:50.840	$GPGGA,020451,2512.2536,N,08010.3050,W,1,9,1.5,17,M,,M,,*50
06/05/2014	02:04:51.894	$GPGGA,020452,2512.2518,N,08010.3061,W,1,9,1.5,17,M,,M,,*5D
06/05/2014	02:04:52.884	$GPGGA,020453,2512.2500,N,08010.3071,W,1,9,1.5,17,M,,M,,*54
06/05/2014	02:04:53.814	$GPGGA,020454,2512.2479,N,08010.3079,W,1,9,1.5,17,M,,M,,*54
06/05/2014	02:04:54.836	$GPGGA,020455,2512.2461,N,08010.3089,W,1,9,1.5,17,M,,M,,*53
06/05/2014	02:04:55.960	$GPGGA,020456,2512.2444,N,08010.3103,W,1,9,1.5,17,M,,M,,*54
06/05/2014	02:04:56.982	$GPGGA,020457,2512.2426,N,08010.3111,W,1,9,1.5,17,M,,M,,*52
06/05/2014	02:04:57.993	$GPGGA,020458,2512.2407,N,08010.3118,W,1,9,1.5,17,M,,M,,*57
06/05/2014	02:04:58.994	$GPGGA,020459,2512.2392,N,08010.3130,W,1,9,1.5,17,M,,M,,*57
06/05/2014	02:05:00.047	$GPGGA,020500,2512.2376,N,08010.3141,W,1,9,1.5,17,M,,M,,*56
06/05/2014	02:05:01.038	$GPGGA,020501,2512.2357,N,08010.3150,W,1,9,1.5,17,M,,M,,*54
06/05/2014	02:05:02.061	$GPGGA,020502,2512.2341,N,08010.3158,W,1,9,1.5,17,M,,M,,*58
06/05/2014	02:05:03.093	$GPGGA,020503,2512.2324,N,08010.3170,W,1,9,1.5,17,M,,M,,*50
06/05/2014	02:05:04.115	$GPGGA,020504,2512.2307,N,08010.3179,W,1,9,1.5,17,M,,M,,*5F
06/05/2014	02:05:05.147	$GPGGA,020505,2512.2289,N,08010.3190,W,1,8,1.6,17,M,,M,,*5C
06/05/2014	02:05:06.138	$GPGGA,020506,2512.2272,N,08010.3202,W,1,8,1.5,17,M,,M,,*50
06/05/2014	02:05:07.150	$GPGGA,020507,2512.2254,N,08010.3213,W,1,9,1.5,17,M,,M,,*54
06/05/2014	02:05:08.192	$GPGGA,020508,2512.2236,N,08010.3220,W,1,9,1.5,17,M,,M,,*5F
06/05/2014	02:05:09.204	$GPGGA,020509,2512.2219,N,08010.3231,W,1,9,1.5,17,M,,M,,*53
06/05/2014	02:05:10.226	$GPGGA,020510,2512.2205,N,08010.3244,W,1,9,1.5,17,M,,M,,*54
06/05/2014	02:05:11.258	$GPGGA,020511,2512.2188,N,08010.3252,W,1,9,1.5,17,M,,M,,*54
06/05/2014	02:05:12.280	$GPGGA,020512,2512.2170,N,08010.3259,W,1,9,1.5,17,M,,M,,*5B
06/05/2014	02:05:13.302	$GPGGA,020513,2512.2153,N,08010.3270,W,1,9,1.5,17,M,,M,,*50
06/05/2014	02:05:14.304	$GPGGA,020514,2512.2137,N,08010.3281,W,1,9,1.5,17,M,,M,,*5B
06/05/2014	02:05:15.345	$GPGGA,020515,2512.2118,N,08010.3291,W,1,9,1.5,17,M,,M,,*56
06/05/2014	02:05:16.357	$GPGGA,020516,2512.2101,N,08010.3298,W,1,9,1.5,17,M,,M,,*54
06/05/2014	02:05:17.379	$GPGGA,020517,2512.2085,N,08010.3309,W,1,9,1.5,17,M,,M,,*51
06/05/2014	02:05:18.370	$GPGGA,020518,2512.2067,N,08010.3317,W,1,9,1.5,17,M,,M,,*5D
06/05/2014	02:05:19.433	$GPGGA,020519,2512.2049,N,08010.3327,W,1,9,1.5,17,M,,M,,*53
06/05/2014	02:05:20.435	$GPGGA,020520,2512.2034,N,08010.3338,W,1,9,1.5,17,M,,M,,*5D
06/05/2014	02:05:21.436	$GPGGA,020521,2512.2016,N,08010.3345,W,1,9,1.5,17,M,,M,,*56
06/05/2014	02:05:22.448	$GPGGA,020522,2512.1998,N,08010.3354,W,1,9,1.5,17,M,,M,,*59
06/05/2014	02:05:23.511	$GPGGA,020523,2512.1980,N,08010.3364,W,1,9,1.5,17,M,,M,,*52
06/05/2014	02:05:24.523	$GPGGA,020524,2512.1963,N,08010.3374,W,1,9,1.5,17,M,,M,,*59
06/05/2014	02:05:25.514	$GPGGA,020525,2512.1945,N,08010.3382,W,1,9,1.5,17,M,,M,,*55
06/05/2014	02:05:26.546	$GPGGA,020526,2512.1926,N,08010.3392,W,1,9,1.5,17,M,,M,,*52
06/05/2014	02:05:27.671	$GPGGA,020527,2512.1911,N,08010.3403,W,1,8,1.6,17,M,,M,,*5A
06/05/2014	02:05:28.601	$GPGGA,020528,2512.1893,N,08010.3414,W,1,8,1.5,17,M,,M,,*5B
06/05/2014	02:05:29.602	$GPGGA,020529,2512.1875,N,08010.3421,W,1,9,1.5,17,M,,M,,*55
06/05/2014	02:05:30.614	$GPGGA,020530,2512.1857,N,08010.3430,W,1,9,1.5,17,M,,M,,*5D
06/05/2014	02:05:31.657	$GPGGA,020531,2512.1841,N,08010.3440,W,1,9,1.5,17,M,,M,,*5C
06/05/2014	02:05:32.761	$GPGGA,020532,2512.1824,N,08010.3450,W,1,9,1.5,17,M,,M,,*5D
06/05/2014	02:05:32.360	$GPGGA,020533,2512.1807,N,08010.3461,W,1,9,1.5,17,M,,M,,*5F
06/05/2014	02:05:33.474	$GPGGA,020534,2512.1789,N,08010.3469,W,1,9,1.5,17,M,,M,,*59
06/05/2014	02:05:34.394	$GPGGA,020535,2512.1771,N,08010.3479,W,1,9,1.5,17,M,,M,,*5E
06/05/2014	02:05:35.426	$GPGGA,020536,2512.1753,N,08010.3491,W,1,9,1.5,17,M,,M,,*5B
06/05/2014	02:05:36.458	$GPGGA,020537,2512.1736,N,08010.3501,W,1,9,1.5,17,M,,M,,*51
06/05/2014	02:05:37.552	$GPGGA,020538,2512.1718,N,08010.3511,W,1,9,1.5,17,M,,M,,*53
06/05/2014	02:05:38.625	$GPGGA,020539,2512.1702,N,08010.3519,W,1,9,1.5,17,M,,M,,*51
06/05/2014	02:05:39.616	$GPGGA,020540,2512.1685,N,08010.3531,W,1,9,1.5,17,M,,M,,*5B
06/05/2014	02:05:40.618	$GPGGA,020541,2512.1669,N,08010.3540,W,1,9,1.5,17,M,,M,,*5E
06/05/2014	02:05:41.640	$GPGGA,020542,2512.1651,N,08010.3548,W,1,9,1.5,17,M,,M,,*5E
06/05/2014	02:05:42.693	$GPGGA,020543,2512.1633,N,08010.3559,W,1,9,1.5,17,M,,M,,*5B
06/05/2014	02:05:43.714	$GPGGA,020544,2512.1616,N,08010.3570,W,1,9,1.5,17,M,,M,,*50
06/05/2014	02:05:44.696	$GPGGA,020545,2512.1598,N,08010.3578,W,1,9,1.5,17,M,,M,,*5C
06/05/2014	02:05:45.719	$GPGGA,020546,2512.1580,N,08010.3587,W,1,9,1.6,17,M,,M,,*55
06/05/2014	02:05:46.760	$GPGGA,020547,2512.1564,N,08010.3599,W,1,9,1.5,17,M,,M,,*52
06/05/2014	02:05:47.762	$GPGGA,020548,2512.1548,N,08010.3609,W,1,9,1.5,17,M,,M,,*59
06/05/2014	02:05:48.835	$GPGGA,020549,2512.1530,N,08010.3616,W,1,9,1.5,17,M,,M,,*59
06/05/2014	02:05:49.805	$GPGGA,020550,2512.1514,N,08010.3627,W,1,9,1.5,17,M,,M,,*55
06/05/2014	02:05:50.827	$GPGGA,020551,2512.1496,N,08010.3638,W,1,9,1.5,17,M,,M,,*51
06/05/2014	02:05:51.849	$GPGGA,020552,2512.1478,N,08010.3649,W,1,9,1.5,17,M,,M,,*54
06/05/2014	02:05:52.871	$GPGGA,020553,2512.1460,N,08010.3657,W,1,9,1.5,17,M,,M,,*53
06/05/2014	02:05:53.872	$GPGGA,020554,2512.1442,N,08010.3667,W,1,9,1.5,17,M,,M,,*57
06/05/2014	02:05:54.894	$GPGGA,020555,2512.1425,N,08010.3678,W,1,9,1.5,17,M,,M,,*59
06/05/2014	02:05:55.927	$GPGGA,020556,2512.1409,N,08010.3688,W,1,9,1.5,17,M,,M,,*5B
06/05/2014	02:05:56.959	$GPGGA,020557,2512.1391,N,08010.3697,W,1,9,1.5,17,M,,M,,*52
06/05/2014	02:05:57.950	$GPGGA,020558,2512.1374,N,08010.3707,W,1,9,1.5,17,M,,M,,*5E
06/05/2014	02:05:58.982	$GPGGA,020559,2512.1356,N,08010.3715,W,1,9,1.5,17,M,,M,,*5C
06/05/2014	02:06:00.025	$GPGGA,020600,2512.1338,N,08010.3726,W,1,9,1.5,17,M,,M,,*5B
06/05/2014	02:06:01.047	$GPGGA,020601,2512.1320,N,08010.3736,W,1,9,1.5,17,M,,M,,*52
06/05/2014	02:06:02.038	$GPGGA,020602,2512.1301,N,08010.3746,W,1,9,1.5,17,M,,M,,*55
06/05/2014	02:06:03.080	$GPGGA,020603,2512.1283,N,08010.3757,W,1,9,1.5,17,M,,M,,*5F
06/05/2014	02:06:04.092	$GPGGA,020604,2512.1268,N,08010.3768,W,1,9,1.5,17,M,,M,,*51
06/05/2014	02:06:05.096	$GPGGA,020605,2512.1250,N,08010.3776,W,1,9,1.5,17,M,,M,,*54
06/05/2014	02:06:06.126	$GPGGA,020606,2512.1232,N,08010.3786,W,1,9,1.5,17,M,,M,,*5C
06/05/2014	02:06:07.168	$GPGGA,020607,2512.1215,N,08010.3797,W,1,9,1.5,17,M,,M,,*58
06/05/2014	02:06:08.169	$GPGGA,020608,2512.1197,N,08010.3808,W,1,9,1.5,17,M,,M,,*57
06/05/2014	02:06:09.191	$GPGGA,020609,2512.1178,N,08010.3816,W,1,9,1.5,17,M,,M,,*58
06/05/2014	02:06:10.197	$GPGGA,020610,2512.1160,N,08010.3826,W,1,9,1.6,17,M,,M,,*59
06/05/2014	02:06:11.245	$GPGGA,020611,2512.1143,N,08010.3837,W,1,9,1.5,17,M,,M,,*5A
06/05/2014	02:06:12.247	$GPGGA,020612,2512.1126,N,08010.3848,W,1,9,1.5,17,M,,M,,*52
06/05/2014	02:06:13.258	$GPGGA,020613,2512.1109,N,08010.3855,W,1,9,1.5,17,M,,M,,*52
06/05/2014	02:06:14.270	$GPGGA,020614,2512.1091,N,08010.3865,W,1,9,1.5,17,M,,M,,*56
06/05/2014	02:06:15.313	$GPGGA,020615,2512.1073,N,08010.3874,W,1,9,1.5,17,M,,M,,*5B
06/05/2014	02:06:16.335	$GPGGA,020616,2512.1056,N,08010.3885,W,1,9,1.5,17,M,,M,,*51
06/05/2014	02:06:17.326	$GPGGA,020617,2512.1037,N,08010.3894,W,1,9,1.5,17,M,,M,,*57
06/05/2014	02:06:18.450	$GPGGA,020618,2512.1020,N,08010.3903,W,1,9,1.5,17,M,,M,,*51
06/05/2014	02:06:19.370	$GPGGA,020619,2512.1002,N,08010.3913,W,1,9,1.5,17,M,,M,,*51
06/05/2014	02:06:20.402	$GPGGA,020620,2512.0985,N,08010.3923,W,1,9,1.5,17,M,,M,,*5F
06/05/2014	02:06:21.538	$GPGGA,020621,2512.0967,N,08010.3934,W,1,9,1.5,17,M,,M,,*54
06/05/2014	02:06:22.446	$GPGGA,020622,2512.0949,N,08010.3942,W,1,9,1.5,17,M,,M,,*5A
06/05/2014	02:06:23.468	$GPGGA,020623,2512.0932,N,08010.3954,W,1,9,1.5,17,M,,M,,*50
06/05/2014	02:06:24.480	$GPGGA,020624,2512.0914,N,08010.3964,W,1,9,1.5,17,M,,M,,*50
06/05/2014	02:06:25.511	$GPGGA,020625,2512.0896,N,08010.3972,W,1,9,1.5,17,M,,M,,*5D
06/05/2014	02:06:26.615	$GPGGA,020626,2512.0879,N,08010.3983,W,1,9,1.6,17,M,,M,,*52
06/05/2014	02:06:27.647	$GPGGA,020627,2512.0863,N,08010.3993,W,1,8,1.5,17,M,,M,,*5B
06/05/2014	02:06:28.669	$GPGGA,020628,2512.0847,N,08010.4003,W,1,8,1.5,17,M,,M,,*55
06/05/2014	02:06:30.100	$GPGGA,020629,2512.0829,N,08010.4010,W,1,9,1.5,17,M,,M,,*5F
06/05/2014	02:06:30.693	$GPGGA,020630,2512.0813,N,08010.4022,W,1,9,1.5,17,M,,M,,*5F
06/05/2014	02:06:31.735	$GPGGA,020631,2512.0796,N,08010.4035,W,1,9,1.5,17,M,,M,,*5A
06/05/2014	02:06:32.788	$GPGGA,020632,2512.0777,N,08010.4043,W,1,9,1.5,17,M,,M,,*57
06/05/2014	02:06:32.440	$GPGGA,020633,2512.0760,N,08010.4053,W,1,9,1.6,17,M,,M,,*52
06/05/2014	02:06:33.463	$GPGGA,020634,2512.0743,N,08010.4062,W,1,9,1.5,17,M,,M,,*55
06/05/2014	02:06:34.484	$GPGGA,020635,2512.0725,N,08010.4072,W,1,9,1.5,17,M,,M,,*55
06/05/2014	02:06:35.526	$GPGGA,020636,2512.0708,N,08010.4080,W,1,9,1.5,16,M,,M,,*55
06/05/2014	02:06:36.538	$GPGGA,020637,2512.0690,N,08010.4090,W,1,9,1.5,16,M,,M,,*55
06/05/2014	02:06:37.540	$GPGGA,020638,2512.0673,N,08010.4097,W,1,9,1.5,16,M,,M,,*50
06/05/2014	02:06:38.592	$GPGGA,020639,2512.0656,N,08010.4109,W,1,9,1.5,16,M,,M,,*50
06/05/2014	02:06:39.584	$GPGGA,020640,2512.0639,N,08010.4118,W,1,9,1.5,16,M,,M,,*57
06/05/2014	02:06:40.627	$GPGGA,020641,2512.0620,N,08010.4126,W,1,9,1.5,16,M,,M,,*53
06/05/2014	02:06:41.617	$GPGGA,020642,2512.0602,N,08010.4136,W,1,9,1.5,16,M,,M,,*51
06/05/2014	02:06:42.659	$GPGGA,020643,2512.0584,N,08010.4147,W,1,9,1.5,16,M,,M,,*5B
06/05/2014	02:06:43.692	$GPGGA,020644,2512.0566,N,08010.4158,W,1,9,1.5,16,M,,M,,*5E
06/05/2014	02:06:44.693	$GPGGA,020645,2512.0549,N,08010.4166,W,1,9,1.5,16,M,,M,,*5F
06/05/2014	02:06:45.694	$GPGGA,020646,2512.0531,N,08010.4174,W,1,9,1.5,16,M,,M,,*50
06/05/2014	02:06:46.706	$GPGGA,020647,2512.0513,N,08010.4184,W,1,9,1.5,16,M,,M,,*5E
06/05/2014	02:06:47.748	$GPGGA,020648,2512.0496,N,08010.4194,W,1,9,1.5,16,M,,M,,*5C
06/05/2014	02:06:48.770	$GPGGA,020649,2512.0479,N,08010.4205,W,1,9,1.5,16,M,,M,,*57
06/05/2014	02:06:49.772	$GPGGA,020650,2512.0461,N,08010.4212,W,1,9,1.5,16,M,,M,,*50
06/05/2014	02:06:50.794	$GPGGA,020651,2512.0442,N,08010.4220,W,1,9,1.5,16,M,,M,,*51
06/05/2014	02:06:51.826	$GPGGA,020652,2512.0425,N,08010.4232,W,1,9,1.5,16,M,,M,,*50
06/05/2014	02:06:52.838	$GPGGA,020653,2512.0408,N,08010.4241,W,1,9,1.5,16,M,,M,,*5A
06/05/2014	02:06:53.850	$GPGGA,020654,2512.0389,N,08010.4249,W,1,9,1.5,16,M,,M,,*5B
06/05/2014	02:06:54.902	$GPGGA,020655,2512.0372,N,08010.4259,W,1,9,1.5,16,M,,M,,*5F
06/05/2014	02:06:55.914	$GPGGA,020656,2512.0355,N,08010.4270,W,1,9,1.5,16,M,,M,,*52
06/05/2014	02:06:56.946	$GPGGA,020657,2512.0338,N,08010.4279,W,1,9,1.5,16,M,,M,,*51
06/05/2014	02:06:57.927	$GPGGA,020658,2512.0319,N,08010.4285,W,1,9,1.5,16,M,,M,,*5E
06/05/2014	02:06:58.980	$GPGGA,020659,2512.0302,N,08010.4296,W,1,9,1.5,16,M,,M,,*57
06/05/2014	02:07:00.001	$GPGGA,020700,2512.0287,N,08010.4307,W,1,9,1.5,16,M,,M,,*5F
06/05/2014	02:07:01.013	$GPGGA,020701,2512.0271,N,08010.4315,W,1,9,1.5,16,M,,M,,*54
06/05/2014	02:07:02.014	$GPGGA,020702,2512.0253,N,08010.4322,W,1,9,1.5,16,M,,M,,*53
06/05/2014	02:07:03.058	$GPGGA,020703,2512.0235,N,08010.4332,W,1,9,1.5,16,M,,M,,*53
06/05/2014	02:07:04.058	$GPGGA,020704,2512.0218,N,08010.4344,W,1,9,1.5,16,M,,M,,*5A
06/05/2014	02:07:05.100	$GPGGA,020705,2512.0200,N,08010.4354,W,1,9,1.5,16,M,,M,,*53
06/05/2014	02:07:06.082	$GPGGA,020706,2512.0182,N,08010.4364,W,1,9,1.5,16,M,,M,,*5A
06/05/2014	02:07:07.104	$GPGGA,020707,2512.0164,N,08010.4375,W,1,9,1.5,16,M,,M,,*53
06/05/2014	02:07:08.269	$GPGGA,020708,2512.0148,N,08010.4384,W,1,9,1.5,16,M,,M,,*5C
06/05/2014	02:07:09.260	$GPGGA,020709,2512.0130,N,08010.4395,W,1,9,1.5,16,M,,M,,*52
06/05/2014	02:07:10.180	$GPGGA,020710,2512.0113,N,08010.4405,W,1,9,1.5,16,M,,M,,*55
06/05/2014	02:07:11.192	$GPGGA,020711,2512.0096,N,08010.4413,W,1,9,1.5,16,M,,M,,*5F
06/05/2014	02:07:12.337	$GPGGA,020712,2512.0079,N,08010.4426,W,1,9,1.5,16,M,,M,,*5B
06/05/2014	02:07:13.348	$GPGGA,020713,2512.0062,N,08010.4437,W,1,9,1.5,16,M,,M,,*50
06/05/2014	02:07:14.268	$GPGGA,020714,2512.0044,N,08010.4447,W,1,9,1.5,16,M,,M,,*54
06/05/2014	02:07:15.363	$GPGGA,020715,2512.0026,N,08010.4458,W,1,9,1.5,16,M,,M,,*5F
06/05/2014	02:07:16.394	$GPGGA,020716,2512.0009,N,08010.4469,W,1,9,1.5,16,M,,M,,*53
06/05/2014	02:07:17.416	$GPGGA,020717,2511.9993,N,08010.4480,W,1,9,1.5,16,M,,M,,*55
06/05/2014	02:07:18.427	$GPGGA,020718,2511.9975,N,08010.4488,W,1,9,1.5,16,M,,M,,*5A
06/05/2014	02:07:19.469	$GPGGA,020719,2511.9958,N,08010.4501,W,1,9,1.5,16,M,,M,,*54
06/05/2014	02:07:20.481	$GPGGA,020720,2511.9940,N,08010.4512,W,1,9,1.5,16,M,,M,,*55
06/05/2014	02:07:21.514	$GPGGA,020721,2511.9922,N,08010.4520,W,1,9,1.5,16,M,,M,,*51
06/05/2014	02:07:22.504	$GPGGA,020722,2511.9906,N,08010.4530,W,1,9,1.5,16,M,,M,,*55
06/05/2014	02:07:23.526	$GPGGA,020723,2511.9888,N,08010.4541,W,1,9,1.5,16,M,,M,,*55
06/05/2014	02:07:24.559	$GPGGA,020724,2511.9870,N,08010.4550,W,1,9,1.5,16,M,,M,,*55
06/05/2014	02:07:25.591	$GPGGA,020725,2511.9853,N,08010.4560,W,1,9,1.5,16,M,,M,,*56
06/05/2014	02:07:26.582	$GPGGA,020726,2511.9836,N,08010.4570,W,1,9,1.5,16,M,,M,,*57
06/05/2014	02:07:27.625	$GPGGA,020727,2511.9817,N,08010.4578,W,1,9,1.5,16,M,,M,,*5D
06/05/2014	02:07:28.636	$GPGGA,020728,2511.9801,N,08010.4588,W,1,9,1.5,16,M,,M,,*5A
06/05/2014	02:07:29.648	$GPGGA,020729,2511.9785,N,08010.4599,W,1,9,1.5,16,M,,M,,*58
06/05/2014	02:07:30.670	$GPGGA,020730,2511.9767,N,08010.4607,W,1,9,1.6,16,M,,M,,*5B
06/05/2014	02:07:31.713	$GPGGA,020731,2511.9748,N,08010.4614,W,1,9,1.5,16,M,,M,,*56
06/05/2014	02:07:32.724	$GPGGA,020732,2511.9733,N,08010.4624,W,1,9,1.5,16,M,,M,,*5A
06/05/2014	02:07:32.418	$GPGGA,020733,2511.9715,N,08010.4635,W,1,8,1.6,16,M,,M,,*5D
06/05/2014	02:07:33.440	$GPGGA,020734,2511.9697,N,08010.4644,W,1,8,1.5,16,M,,M,,*54
06/05/2014	02:07:34.441	$GPGGA,020735,2511.9680,N,08010.4651,W,1,9,1.5,16,M,,M,,*56
06/05/2014	02:07:35.483	$GPGGA,020736,2511.9664,N,08010.4661,W,1,9,1.5,16,M,,M,,*5C
06/05/2014	02:07:36.505	$GPGGA,020737,2511.9646,N,08010.4671,W,1,9,1.5,16,M,,M,,*5C
06/05/2014	02:07:37.507	$GPGGA,020738,2511.9628,N,08010.4679,W,1,9,1.5,16,M,,M,,*53
06/05/2014	02:07:38.519	$GPGGA,020739,2511.9611,N,08010.4687,W,1,9,1.5,16,M,,M,,*59
06/05/2014	02:07:39.561	$GPGGA,020740,2511.9593,N,08010.4697,W,1,9,1.5,16,M,,M,,*5F
06/05/2014	02:07:40.563	$GPGGA,020741,2511.9575,N,08010.4707,W,1,9,1.5,16,M,,M,,*5E
06/05/2014	02:07:41.595	$GPGGA,020742,2511.9557,N,08010.4715,W,1,9,1.5,16,M,,M,,*5E
06/05/2014	02:07:42.607	$GPGGA,020743,2511.9539,N,08010.4726,W,1,9,1.5,16,M,,M,,*57
06/05/2014	02:07:43.649	$GPGGA,020744,2511.9521,N,08010.4736,W,1,9,1.5,16,M,,M,,*58
06/05/2014	02:07:44.640	$GPGGA,020745,2511.9502,N,08010.4743,W,1,9,1.5,16,M,,M,,*5A
06/05/2014	02:07:45.673	$GPGGA,020746,2511.9483,N,08010.4754,W,1,9,1.5,16,M,,M,,*57
06/05/2014	02:07:46.705	$GPGGA,020747,2511.9469,N,08010.4765,W,1,9,1.5,16,M,,M,,*50
06/05/2014	02:07:47.727	$GPGGA,020748,2511.9451,N,08010.4776,W,1,9,1.5,16,M,,M,,*56
06/05/2014	02:07:48.841	$GPGGA,020749,2511.9431,N,08010.4781,W,1,9,1.5,16,M,,M,,*59
06/05/2014	02:07:49.744	$GPGGA,020750,2511.9415,N,08010.4791,W,1,9,1.5,16,M,,M,,*56
06/05/2014	02:07:50.788	$GPGGA,020751,2511.9399,N,08010.4803,W,1,9,1.5,16,M,,M,,*50
06/05/2014	02:07:51.794	$GPGGA,020752,2511.9381,N,08010.4813,W,1,9,1.5,16,M,,M,,*5B
06/05/2014	02:07:52.928	$GPGGA,020753,2511.9364,N,08010.4823,W,1,9,1.5,16,M,,M,,*52
06/05/2014	02:07:53.827	$GPGGA,020754,2511.9346,N,08010.4831,W,1,9,1.5,16,M,,M,,*56
06/05/2014	02:07:54.849	$GPGGA,020755,2511.9329,N,08010.4841,W,1,9,1.5,16,M,,M,,*59
06/05/2014	02:07:55.871	$GPGGA,020756,2511.9314,N,08010.4852,W,1,9,1.5,16,M,,M,,*56
06/05/2014	02:07:56.985	$GPGGA,020757,2511.9299,N,08010.4861,W,1,9,1.5,16,M,,M,,*53
06/05/2014	02:07:57.905	$GPGGA,020758,2511.9281,N,08010.4870,W,1,9,1.5,16,M,,M,,*55
06/05/2014	02:07:58.927	$GPGGA,020759,2511.9265,N,08010.4879,W,1,9,1.5,16,M,,M,,*57
06/05/2014	02:08:00.084	$GPGGA,020800,2511.9249,N,08010.4889,W,1,9,1.5,16,M,,M,,*55
06/05/2014	02:08:00.971	$GPGGA,020801,2511.9231,N,08010.4899,W,1,9,1.5,16,M,,M,,*5A
06/05/2014	02:08:02.105	$GPGGA,020802,2511.9214,N,08010.4910,W,1,9,1.5,16,M,,M,,*5E
06/05/2014	02:08:03.097	$GPGGA,020803,2511.9198,N,08010.4920,W,1,9,1.5,16,M,,M,,*5B
06/05/2014	02:08:04.047	$GPGGA,020804,2511.9180,N,08010.4929,W,1,9,1.5,16,M,,M,,*5C
06/05/2014	02:08:05.171	$GPGGA,020805,2511.9162,N,08010.4939,W,1,9,1.5,16,M,,M,,*50
06/05/2014	02:08:06.173	$GPGGA,020806,2511.9146,N,08010.4949,W,1,9,1.5,16,M,,M,,*52
06/05/2014	02:08:07.185	$GPGGA,020807,2511.9129,N,08010.4960,W,1,9,1.5,16,M,,M,,*51
06/05/2014	02:08:08.207	$GPGGA,020808,2511.9112,N,08010.4969,W,1,9,1.5,16,M,,M,,*5F
06/05/2014	02:08:09.239	$GPGGA,020809,2511.9095,N,08010.4980,W,1,9,1.5,16,M,,M,,*57
06/05/2014	02:08:10.250	$GPGGA,020810,2511.9079,N,08010.4990,W,1,9,1.5,16,M,,M,,*5C
06/05/2014	02:08:11.282	$GPGGA,020811,2511.9061,N,08010.5000,W,1,9,1.6,16,M,,M,,*56
06/05/2014	02:08:12.304	$GPGGA,020812,2511.9044,N,08010.5011,W,1,9,1.6,16,M,,M,,*52
06/05/2014	02:08:13.326	$GPGGA,020813,2511.9028,N,08010.5022,W,1,9,1.6,16,M,,M,,*59
06/05/2014	02:08:14.317	$GPGGA,020814,2511.9011,N,08010.5030,W,1,9,1.6,16,M,,M,,*57
06/05/2014	02:08:15.360	$GPGGA,020815,2511.8994,N,08010.5040,W,1,9,1.6,16,M,,M,,*54
06/05/2014	02:08:16.371	$GPGGA,020816,2511.8978,N,08010.5051,W,1,9,1.6,16,M,,M,,*55
06/05/2014	02:08:17.373	$GPGGA,020817,2511.8961,N,08010.5062,W,1,9,1.5,16,M,,M,,*5F
06/05/2014	02:08:18.405	$GPGGA,020818,2511.8942,N,08010.5072,W,1,9,1.5,16,M,,M,,*50
06/05/2014	02:08:19.427	$GPGGA,020819,2511.8925,N,08010.5081,W,1,9,1.5,16,M,,M,,*5C
06/05/2014	02:08:20.459	$GPGGA,020820,2511.8909,N,08010.5092,W,1,9,1.5,16,M,,M,,*5A
06/05/2014	02:08:21.461	$GPGGA,020821,2511.8891,N,08010.5102,W,1,9,1.5,16,M,,M,,*53
06/05/2014	02:08:22.503	$GPGGA,020822,2511.8873,N,08010.5112,W,1,9,1.5,16,M,,M,,*5D
06/05/2014	02:08:23.536	$GPGGA,020823,2511.8856,N,08010.5121,W,1,9,1.6,16,M,,M,,*58
06/05/2014	02:08:24.537	$GPGGA,020824,2511.8838,N,08010.5133,W,1,9,1.6,16,M,,M,,*54
06/05/2014	02:08:25.569	$GPGGA,020825,2511.8821,N,08010.5142,W,1,9,1.6,16,M,,M,,*5B
06/05/2014	02:08:26.561	$GPGGA,020826,2511.8804,N,08010.5153,W,1,9,1.6,16,M,,M,,*5F
06/05/2014	02:08:27.603	$GPGGA,020827,2511.8786,N,08010.5163,W,1,9,1.6,16,M,,M,,*58
06/05/2014	02:08:28.624	$GPGGA,020828,2511.8768,N,08010.5173,W,1,9,1.6,16,M,,M,,*56
06/05/2014	02:08:29.626	$GPGGA,020829,2511.8751,N,08010.5185,W,1,9,1.6,16,M,,M,,*54
06/05/2014	02:08:30.658	$GPGGA,020830,2511.8733,N,08010.5195,W,1,9,1.6,16,M,,M,,*59
06/05/2014	02:08:31.670	$GPGGA,020831,2511.8716,N,08010.5206,W,1,9,1.6,16,M,,M,,*56
06/05/2014	02:08:32.702	$GPGGA,020832,2511.8698,N,08010.5217,W,1,9,1.6,16,M,,M,,*52
06/05/2014	02:08:32.425	$GPGGA,020833,2511.8679,N,08010.5227,W,1,9,1.6,16,M,,M,,*5F
06/05/2014	02:08:33.407	$GPGGA,020834,2511.8662,N,08010.5236,W,1,9,1.6,16,M,,M,,*52
06/05/2014	02:08:34.449	$GPGGA,020835,2511.8644,N,08010.5249,W,1,9,1.6,16,M,,M,,*5F
06/05/2014	02:08:35.451	$GPGGA,020836,2511.8625,N,08010.5257,W,1,9,1.6,16,M,,M,,*54
06/05/2014	02:08:36.462	$GPGGA,020837,2511.8609,N,08010.5267,W,1,9,1.6,16,M,,M,,*58
06/05/2014	02:08:37.474	$GPGGA,020838,2511.8591,N,08010.5278,W,1,9,1.6,16,M,,M,,*5B
06/05/2014	02:08:38.506	$GPGGA,020839,2511.8573,N,08010.5287,W,1,9,1.6,16,M,,M,,*56
06/05/2014	02:08:39.651	$GPGGA,020840,2511.8556,N,08010.5296,W,1,9,1.6,16,M,,M,,*5F
06/05/2014	02:08:40.673	$GPGGA,020841,2511.8539,N,08010.5307,W,1,9,1.6,16,M,,M,,*5E
06/05/2014	02:08:41.562	$GPGGA,020842,2511.8522,N,08010.5318,W,1,9,1.6,16,M,,M,,*59
06/05/2014	02:08:42.699	$GPGGA,020843,2511.8504,N,08010.5326,W,1,9,1.6,16,M,,M,,*51
06/05/2014	02:08:43.616	$GPGGA,020844,2511.8486,N,08010.5336,W,1,9,1.6,16,M,,M,,*5C
06/05/2014	02:08:44.627	$GPGGA,020845,2511.8469,N,08010.5347,W,1,9,1.6,16,M,,M,,*5A
06/05/2014	02:08:45.649	$GPGGA,020846,2511.8450,N,08010.5357,W,1,9,1.6,16,M,,M,,*52
06/05/2014	02:08:46.681	$GPGGA,020847,2511.8432,N,08010.5366,W,1,9,1.6,16,M,,M,,*55
06/05/2014	02:08:47.795	$GPGGA,020848,2511.8414,N,08010.5377,W,1,9,1.6,16,M,,M,,*5E
06/05/2014	02:08:48.797	$GPGGA,020849,2511.8394,N,08010.5387,W,1,9,1.6,16,M,,M,,*5F
06/05/2014	02:08:49.727	$GPGGA,020850,2511.8376,N,08010.5397,W,1,9,1.6,16,M,,M,,*5A
06/05/2014	02:08:50.851	$GPGGA,020851,2511.8360,N,08010.5406,W,1,9,1.6,16,M,,M,,*53
06/05/2014	02:08:51.781	$GPGGA,020852,2511.8342,N,08010.5415,W,1,9,1.6,16,M,,M,,*52
06/05/2014	02:08:52.875	$GPGGA,020853,2511.8324,N,08010.5423,W,1,8,1.8,16,M,,M,,*59
06/05/2014	02:08:53.897	$GPGGA,020854,2511.8306,N,08010.5434,W,1,8,1.6,16,M,,M,,*56
06/05/2014	02:08:54.919	$GPGGA,020855,2511.8288,N,08010.5442,W,1,9,1.6,16,M,,M,,*50
06/05/2014	02:08:55.951	$GPGGA,020856,2511.8270,N,08010.5449,W,1,9,1.6,16,M,,M,,*5F
06/05/2014	02:08:56.993	$GPGGA,020857,2511.8252,N,08010.5459,W,1,9,1.6,16,M,,M,,*5F
06/05/2014	02:08:57.985	$GPGGA,020858,2511.8235,N,08010.5470,W,1,9,1.6,16,M,,M,,*5A
06/05/2014	02:08:59.027	$GPGGA,020859,2511.8217,N,08010.5480,W,1,9,1.6,16,M,,M,,*54
06/05/2014	02:09:00.039	$GPGGA,020900,2511.8199,N,08010.5488,W,1,9,1.6,16,M,,M,,*54
06/05/2014	02:09:01.071	$GPGGA,020901,2511.8183,N,08010.5498,W,1,9,1.6,16,M,,M,,*5F
06/05/2014	02:09:02.052	$GPGGA,020902,2511.8165,N,08010.5507,W,1,9,1.6,16,M,,M,,*53
06/05/2014	02:09:03.104	$GPGGA,020903,2511.8147,N,08010.5517,W,1,9,1.6,16,M,,M,,*53
06/05/2014	02:09:04.116	$GPGGA,020904,2511.8129,N,08010.5527,W,1,9,1.6,16,M,,M,,*5F
06/05/2014	02:09:05.138	$GPGGA,020905,2511.8111,N,08010.5538,W,1,9,1.6,16,M,,M,,*5B
06/05/2014	02:09:06.139	$GPGGA,020906,2511.8092,N,08010.5546,W,1,9,1.6,16,M,,M,,*5B
06/05/2014	02:09:07.151	$GPGGA,020907,2511.8074,N,08010.5556,W,1,9,1.6,16,M,,M,,*53
06/05/2014	02:09:08.193	$GPGGA,020908,2511.8058,N,08010.5568,W,1,9,1.6,17,M,,M,,*5E
06/05/2014	02:09:09.224	$GPGGA,020909,2511.8040,N,08010.5578,W,1,9,1.6,17,M,,M,,*57
06/05/2014	02:09:10.203	$GPGGA,020910,2511.8022,N,08010.5586,W,1,9,1.6,17,M,,M,,*5A
06/05/2014	02:09:11.223	$GPGGA,020911,2511.8004,N,08010.5596,W,1,9,1.6,17,M,,M,,*5E
06/05/2014	02:09:12.232	$GPGGA,020912,2511.7988,N,08010.5607,W,1,9,1.6,17,M,,M,,*54
06/05/2014	02:09:13.222	$GPGGA,020913,2511.7970,N,08010.5616,W,1,9,1.6,17,M,,M,,*52
06/05/2014	02:09:14.241	$GPGGA,020914,2511.7952,N,08010.5626,W,1,9,1.6,17,M,,M,,*56
06/05/2014	02:09:15.261	$GPGGA,020915,2511.7934,N,08010.5636,W,1,9,1.6,17,M,,M,,*56
06/05/2014	02:09:16.250	$GPGGA,020916,2511.7914,N,08010.5647,W,1,9,1.6,17,M,,M,,*51
06/05/2014	02:09:17.250	$GPGGA,020917,2511.7897,N,08010.5657,W,1,9,1.6,17,M,,M,,*5B
06/05/2014	02:09:18.269	$GPGGA,020918,2511.7879,N,08010.5666,W,1,9,1.6,17,M,,M,,*56
06/05/2014	02:09:19.259	$GPGGA,020919,2511.7861,N,08010.5676,W,1,9,1.6,17,M,,M,,*5F
06/05/2014	02:09:20.287	$GPGGA,020920,2511.7844,N,08010.5687,W,1,9,1.6,17,M,,M,,*5C
06/05/2014	02:09:21.277	$GPGGA,020921,2511.7825,N,08010.5697,W,1,9,1.6,17,M,,M,,*5B
06/05/2014	02:09:22.286	$GPGGA,020922,2511.7808,N,08010.5706,W,1,9,1.6,17,M,,M,,*5E
06/05/2014	02:09:23.306	$GPGGA,020923,2511.7791,N,08010.5719,W,1,8,1.8,17,M,,M,,*51
06/05/2014	02:09:24.315	$GPGGA,020924,2511.7773,N,08010.5727,W,1,8,1.6,17,M,,M,,*59
06/05/2014	02:09:25.315	$GPGGA,020925,2511.7755,N,08010.5737,W,1,9,1.6,17,M,,M,,*5C
06/05/2014	02:09:26.475	$GPGGA,020926,2511.7736,N,08010.5746,W,1,9,1.6,17,M,,M,,*5C
06/05/2014	02:09:27.354	$GPGGA,020927,2511.7718,N,08010.5756,W,1,9,1.6,17,M,,M,,*50
06/05/2014	02:09:28.343	$GPGGA,020928,2511.7699,N,08010.5766,W,1,9,1.6,17,M,,M,,*54
06/05/2014	02:09:29.353	$GPGGA,020929,2511.7681,N,08010.5773,W,1,9,1.6,17,M,,M,,*58
06/05/2014	02:09:30.342	$GPGGA,020930,2511.7663,N,08010.5784,W,1,9,1.6,17,M,,M,,*54
06/05/2014	02:09:31.351	$GPGGA,020931,2511.7646,N,08010.5795,W,1,9,1.6,17,M,,M,,*52
06/05/2014	02:09:32.543	$GPGGA,020932,2511.7628,N,08010.5803,W,1,9,1.6,17,M,,M,,*59
06/05/2014	02:09:32.373	$GPGGA,020933,2511.7612,N,08010.5811,W,1,9,1.6,17,M,,M,,*52
06/05/2014	02:09:33.456	$GPGGA,020934,2511.7594,N,08010.5820,W,1,9,1.6,17,M,,M,,*5A
06/05/2014	02:09:34.383	$GPGGA,020935,2511.7577,N,08010.5831,W,1,9,1.6,17,M,,M,,*56
06/05/2014	02:09:35.474	$GPGGA,020936,2511.7560,N,08010.5840,W,1,9,1.6,17,M,,M,,*55
06/05/2014	02:09:36.372	$GPGGA,020937,2511.7542,N,08010.5849,W,1,9,1.6,17,M,,M,,*5D
06/05/2014	02:09:37.391	$GPGGA,020938,2511.7524,N,08010.5858,W,1,9,1.6,17,M,,M,,*52
06/05/2014	02:09:38.491	$GPGGA,020939,2511.7506,N,08010.5868,W,1,9,1.6,17,M,,M,,*50
06/05/2014	02:09:39.410	$GPGGA,020940,2511.7488,N,08010.5878,W,1,9,1.6,17,M,,M,,*58
06/05/2014	02:09:40.500	$GPGGA,020941,2511.7471,N,08010.5889,W,1,9,1.6,17,M,,M,,*51
06/05/2014	02:09:41.590	$GPGGA,020942,2511.7453,N,08010.5897,W,1,9,1.6,17,M,,M,,*5D
06/05/2014	02:09:42.569	$GPGGA,020943,2511.7435,N,08010.5907,W,1,9,1.6,17,M,,M,,*54
06/05/2014	02:09:43.619	$GPGGA,020944,2511.7421,N,08010.5918,W,1,9,1.6,17,M,,M,,*58
06/05/2014	02:09:44.568	$GPGGA,020945,2511.7403,N,08010.5926,W,1,9,1.6,17,M,,M,,*54
06/05/2014	02:09:45.618	$GPGGA,020946,2511.7385,N,08010.5934,W,1,9,1.6,17,M,,M,,*5D
06/05/2014	02:09:46.628	$GPGGA,020947,2511.7370,N,08010.5947,W,1,9,1.6,17,M,,M,,*52
06/05/2014	02:09:47.567	$GPGGA,020948,2511.7353,N,08010.5958,W,1,9,1.6,17,M,,M,,*52
06/05/2014	02:09:48.667	$GPGGA,020949,2511.7335,N,08010.5966,W,1,9,1.6,17,M,,M,,*5E
06/05/2014	02:09:49.646	$GPGGA,020950,2511.7317,N,08010.5977,W,1,9,1.6,17,M,,M,,*56
06/05/2014	02:09:50.636	$GPGGA,020951,2511.7300,N,08010.5990,W,1,9,1.6,17,M,,M,,*58
06/05/2014	02:09:51.655	$GPGGA,020952,2511.7282,N,08010.6001,W,1,9,1.6,17,M,,M,,*52
06/05/2014	02:09:52.634	$GPGGA,020953,2511.7265,N,08010.6012,W,1,9,1.6,17,M,,M,,*58
06/05/2014	02:09:53.593	$GPGGA,020954,2511.7247,N,08010.6022,W,1,9,1.6,17,M,,M,,*5C
06/05/2014	02:09:54.662	$GPGGA,020955,2511.7230,N,08010.6030,W,1,9,1.6,17,M,,M,,*5E
06/05/2014	02:09:55.712	$GPGGA,020956,2511.7213,N,08010.6042,W,1,9,1.6,17,M,,M,,*59
06/05/2014	02:09:56.681	$GPGGA,020957,2511.7198,N,08010.6055,W,1,9,1.6,17,M,,M,,*5E
06/05/2014	02:09:57.640	$GPGGA,020958,2511.7182,N,08010.6062,W,1,9,1.6,17,M,,M,,*5E
06/05/2014	02:09:58.700	$GPGGA,020959,2511.7164,N,08010.6073,W,1,9,1.6,17,M,,M,,*57
06/05/2014	02:09:59.720	$GPGGA,021000,2511.7147,N,08010.6085,W,1,9,1.6,17,M,,M,,*5B
06/05/2014	02:10:00.699	$GPGGA,021001,2511.7129,N,08010.6096,W,1,9,1.6,17,M,,M,,*50
06/05/2014	02:10:01.658	$GPGGA,021002,2511.7111,N,08010.6107,W,1,9,1.6,17,M,,M,,*51
06/05/2014	02:10:02.668	$GPGGA,021003,2511.7094,N,08010.6118,W,1,9,1.6,17,M,,M,,*52
06/05/2014	02:10:03.687	$GPGGA,021004,2511.7077,N,08010.6128,W,1,9,1.6,17,M,,M,,*5B
06/05/2014	02:10:04.717	$GPGGA,021005,2511.7060,N,08010.6139,W,1,9,1.6,17,M,,M,,*5C
06/05/2014	02:10:05.757	$GPGGA,021006,2511.7043,N,08010.6152,W,1,9,1.6,17,M,,M,,*53
06/05/2014	02:10:06.726	$GPGGA,021007,2511.7027,N,08010.6163,W,1,9,1.6,17,M,,M,,*52
06/05/2014	02:10:07.786	$GPGGA,021008,2511.7009,N,08010.6172,W,1,9,1.6,17,M,,M,,*51
06/05/2014	02:10:08.735	$GPGGA,021009,2511.6991,N,08010.6182,W,1,9,1.6,17,M,,M,,*56
06/05/2014	02:10:09.734	$GPGGA,021010,2511.6975,N,08010.6196,W,1,9,1.6,17,M,,M,,*51
06/05/2014	02:10:10.774	$GPGGA,021011,2511.6958,N,08010.6206,W,1,9,1.6,17,M,,M,,*55
06/05/2014	02:10:11.804	$GPGGA,021012,2511.6938,N,08010.6215,W,1,9,1.6,17,M,,M,,*52
06/05/2014	02:10:12.741	$GPGGA,021013,2511.6922,N,08010.6225,W,1,9,1.6,17,M,,M,,*5B
06/05/2014	02:10:13.801	$GPGGA,021014,2511.6902,N,08010.6236,W,1,9,1.6,17,M,,M,,*5C
06/05/2014	02:10:14.892	$GPGGA,021015,2511.6884,N,08010.6246,W,1,9,1.6,17,M,,M,,*55
06/05/2014	02:10:15.830	$GPGGA,021016,2511.6868,N,08010.6255,W,1,9,1.6,17,M,,M,,*56
06/05/2014	02:10:16.769	$GPGGA,021017,2511.6850,N,08010.6265,W,1,9,1.6,17,M,,M,,*5F
06/05/2014	02:10:17.779	$GPGGA,021018,2511.6832,N,08010.6273,W,1,9,1.6,17,M,,M,,*53
06/05/2014	02:10:18.788	$GPGGA,021019,2511.6814,N,08010.6283,W,1,9,1.6,17,M,,M,,*59
06/05/2014	02:10:19.879	$GPGGA,021020,2511.6796,N,08010.6294,W,1,9,1.6,17,M,,M,,*50
06/05/2014	02:10:20.898	$GPGGA,021021,2511.6779,N,08010.6304,W,1,9,1.6,17,M,,M,,*58
06/05/2014	02:10:21.877	$GPGGA,021022,2511.6761,N,08010.6311,W,1,9,1.6,17,M,,M,,*56
06/05/2014	02:10:22.947	$GPGGA,021023,2511.6743,N,08010.6322,W,1,9,1.6,17,M,,M,,*57
06/05/2014	02:10:23.917	$GPGGA,021024,2511.6727,N,08010.6333,W,1,9,1.6,17,M,,M,,*52
06/05/2014	02:10:24.936	$GPGGA,021025,2511.6709,N,08010.6341,W,1,9,1.6,17,M,,M,,*5A
06/05/2014	02:10:25.946	$GPGGA,021026,2511.6691,N,08010.6349,W,1,9,1.6,17,M,,M,,*51
06/05/2014	02:10:26.905	$GPGGA,021027,2511.6674,N,08010.6360,W,1,9,1.6,17,M,,M,,*50
06/05/2014	02:10:27.975	$GPGGA,021028,2511.6657,N,08010.6370,W,1,9,1.6,17,M,,M,,*5F
06/05/2014	02:10:28.924	$GPGGA,021029,2511.6639,N,08010.6377,W,1,9,1.6,17,M,,M,,*51
06/05/2014	02:10:29.983	$GPGGA,021030,2511.6622,N,08010.6387,W,1,9,1.6,17,M,,M,,*5C
06/05/2014	02:10:30.972	$GPGGA,021031,2511.6605,N,08010.6398,W,1,9,1.6,17,M,,M,,*56
06/05/2014	02:10:32.002	$GPGGA,021032,2511.6588,N,08010.6407,W,1,9,1.6,17,M,,M,,*52
06/05/2014	02:10:32.433	$GPGGA,021033,2511.6570,N,08010.6416,W,1,9,1.6,17,M,,M,,*54
06/05/2014	02:10:33.443	$GPGGA,021034,2511.6552,N,08010.6427,W,1,9,1.6,17,M,,M,,*51
06/05/2014	02:10:34.462	$GPGGA,021035,2511.6534,N,08010.6436,W,1,9,1.6,17,M,,M,,*50
06/05/2014	02:10:35.462	$GPGGA,021036,2511.6517,N,08010.6447,W,1,9,1.6,17,M,,M,,*54
06/05/2014	02:10:36.451	$GPGGA,021037,2511.6499,N,08010.6456,W,1,9,1.6,17,M,,M,,*52
06/05/2014	02:10:37.470	$GPGGA,021038,2511.6481,N,08010.6467,W,1,9,1.6,17,M,,M,,*56
06/05/2014	02:10:38.490	$GPGGA,021039,2511.6464,N,08010.6478,W,1,9,1.6,17,M,,M,,*52
06/05/2014	02:10:39.489	$GPGGA,021040,2511.6447,N,08010.6486,W,1,9,1.6,17,M,,M,,*5C
06/05/2014	02:10:40.509	$GPGGA,021041,2511.6428,N,08010.6496,W,1,9,1.6,17,M,,M,,*55
06/05/2014	02:10:41.498	$GPGGA,021042,2511.6411,N,08010.6507,W,1,9,1.6,17,M,,M,,*55
06/05/2014	02:10:42.518	$GPGGA,021043,2511.6395,N,08010.6517,W,1,9,1.6,17,M,,M,,*5E
06/05/2014	02:10:43.518	$GPGGA,021044,2511.6375,N,08010.6528,W,1,9,1.6,17,M,,M,,*5B
06/05/2014	02:10:44.547	$GPGGA,021045,2511.6358,N,08010.6537,W,1,9,1.6,17,M,,M,,*5B
06/05/2014	02:10:45.568	$GPGGA,021046,2511.6340,N,08010.6547,W,1,9,1.6,17,M,,M,,*56
06/05/2014	02:10:46.557	$GPGGA,021047,2511.6322,N,08010.6557,W,1,9,1.6,17,M,,M,,*52
06/05/2014	02:10:47.585	$GPGGA,021048,2511.6304,N,08010.6568,W,1,9,1.6,17,M,,M,,*55
06/05/2014	02:10:48.564	$GPGGA,021049,2511.6286,N,08010.6576,W,1,9,1.6,17,M,,M,,*50
06/05/2014	02:10:49.583	$GPGGA,021050,2511.6269,N,08010.6586,W,1,9,1.6,17,M,,M,,*56
06/05/2014	02:10:50.583	$GPGGA,021051,2511.6251,N,08010.6597,W,1,9,1.6,17,M,,M,,*5C
06/05/2014	02:10:51.613	$GPGGA,021052,2511.6234,N,08010.6607,W,1,9,1.6,17,M,,M,,*56
06/05/2014	02:10:52.582	$GPGGA,021053,2511.6217,N,08010.6615,W,1,9,1.6,17,M,,M,,*55
06/05/2014	02:10:53.591	$GPGGA,021054,2511.6217,N,08010.6615,W,1,9,1.6,17,M,,M,,*52
06/05/2014	02:10:54.671	$GPGGA,021055,2511.6185,N,08010.6637,W,1,9,1.6,17,M,,M,,*5B
06/05/2014	02:10:55.641	$GPGGA,021056,2511.6167,N,08010.6647,W,1,9,1.6,17,M,,M,,*53
06/05/2014	02:10:56.610	$GPGGA,021057,2511.6167,N,08010.6647,W,1,9,1.6,17,M,,M,,*52
06/05/2014	02:10:57.629	$GPGGA,021058,2511.6132,N,08010.6665,W,1,9,1.6,17,M,,M,,*5D
06/05/2014	02:10:58.619	$GPGGA,021059,2511.6116,N,08010.6678,W,1,9,1.6,17,M,,M,,*56
06/05/2014	02:10:59.668	$GPGGA,021100,2511.6116,N,08010.6678,W,1,9,1.6,17,M,,M,,*5B
06/05/2014	02:11:00.668	$GPGGA,021101,2511.6079,N,08010.6695,W,1,9,1.6,17,M,,M,,*51
06/05/2014	02:11:01.657	$GPGGA,021102,2511.6079,N,08010.6695,W,1,9,1.6,17,M,,M,,*52
06/05/2014	02:11:02.687	$GPGGA,021103,2511.6044,N,08010.6717,W,1,9,1.6,17,M,,M,,*56
06/05/2014	02:11:03.716	$GPGGA,021104,2511.6044,N,08010.6717,W,1,9,1.6,17,M,,M,,*51
06/05/2014	02:11:04.775	$GPGGA,021105,2511.6009,N,08010.6736,W,1,9,1.6,17,M,,M,,*5A
06/05/2014	02:11:05.664	$GPGGA,021106,2511.6009,N,08010.6736,W,1,9,1.6,17,M,,M,,*59
06/05/2014	02:11:06.697	$GPGGA,021107,2511.5974,N,08010.6756,W,1,9,1.6,17,M,,M,,*5E
06/05/2014	02:11:07.814	$GPGGA,021108,2511.5956,N,08010.6766,W,1,9,1.6,17,M,,M,,*52
06/05/2014	02:11:08.713	$GPGGA,021109,2511.5939,N,08010.6777,W,1,9,1.6,17,M,,M,,*5A
06/05/2014	02:11:09.702	$GPGGA,021110,2511.5939,N,08010.6777,W,1,9,1.6,17,M,,M,,*52
06/05/2014	02:11:10.843	$GPGGA,021111,2511.5905,N,08010.6795,W,1,9,1.6,17,M,,M,,*50
06/05/2014	02:11:11.781	$GPGGA,021112,2511.5905,N,08010.6795,W,1,9,1.6,17,M,,M,,*53
06/05/2014	02:11:12.821	$GPGGA,021113,2511.5871,N,08010.6814,W,1,9,1.6,17,M,,M,,*56
06/05/2014	02:11:13.746	$GPGGA,021114,2511.5853,N,08010.6824,W,1,9,1.6,17,M,,M,,*52
06/05/2014	02:11:14.881	$GPGGA,021115,2511.5835,N,08010.6835,W,1,9,1.6,17,M,,M,,*53
06/05/2014	02:11:15.860	$GPGGA,021116,2511.5816,N,08010.6842,W,1,9,1.6,17,M,,M,,*51
06/05/2014	02:11:16.758	$GPGGA,021117,2511.5798,N,08010.6853,W,1,9,1.6,17,M,,M,,*59
06/05/2014	02:11:17.859	$GPGGA,021118,2511.5782,N,08010.6865,W,1,9,1.6,17,M,,M,,*58
06/05/2014	02:11:20.090	$GPGGA,021120,2511.5745,N,08010.6882,W,1,9,1.6,17,M,,M,,*51
06/05/2014	02:11:20.897	$GPGGA,021121,2511.5728,N,08010.6893,W,1,9,1.6,17,M,,M,,*5B
06/05/2014	02:11:21.886	$GPGGA,021122,2511.5712,N,08010.6902,W,1,9,1.6,17,M,,M,,*58
06/05/2014	02:11:22.905	$GPGGA,021123,2511.5694,N,08010.6911,W,1,9,1.6,17,M,,M,,*54
06/05/2014	02:11:23.915	$GPGGA,021124,2511.5676,N,08010.6919,W,1,9,1.6,17,M,,M,,*57
06/05/2014	02:11:24.924	$GPGGA,021125,2511.5659,N,08010.6930,W,1,9,1.6,17,M,,M,,*50
06/05/2014	02:11:25.923	$GPGGA,021126,2511.5643,N,08010.6940,W,1,9,1.6,17,M,,M,,*5F
06/05/2014	02:11:26.943	$GPGGA,021127,2511.5625,N,08010.6948,W,1,9,1.6,17,M,,M,,*56
06/05/2014	02:11:27.942	$GPGGA,021128,2511.5607,N,08010.6958,W,1,9,1.6,17,M,,M,,*58
06/05/2014	02:11:28.952	$GPGGA,021129,2511.5590,N,08010.6969,W,1,9,1.6,17,M,,M,,*56
06/05/2014	02:11:29.951	$GPGGA,021130,2511.5572,N,08010.6978,W,1,9,1.6,17,M,,M,,*52
06/05/2014	02:11:30.951	$GPGGA,021131,2511.5554,N,08010.6987,W,1,9,1.6,17,M,,M,,*57
06/05/2014	02:11:31.960	$GPGGA,021132,2511.5537,N,08010.6998,W,1,9,1.6,17,M,,M,,*5F
06/05/2014	02:11:32.421	$GPGGA,021133,2511.5519,N,08010.7008,W,1,9,1.6,17,M,,M,,*53
06/05/2014	02:11:33.420	$GPGGA,021134,2511.5503,N,08010.7017,W,1,9,1.6,17,M,,M,,*51
06/05/2014	02:11:34.440	$GPGGA,021135,2511.5486,N,08010.7027,W,1,9,1.6,17,M,,M,,*5F
06/05/2014	02:11:35.439	$GPGGA,021136,2511.5470,N,08010.7037,W,1,9,1.6,17,M,,M,,*54
06/05/2014	02:11:36.449	$GPGGA,021137,2511.5452,N,08010.7048,W,1,9,1.6,17,M,,M,,*5D
06/05/2014	02:11:37.428	$GPGGA,021138,2511.5435,N,08010.7059,W,1,9,1.6,17,M,,M,,*53
06/05/2014	02:11:38.438	$GPGGA,021139,2511.5419,N,08010.7070,W,1,9,1.6,17,M,,M,,*57
06/05/2014	02:11:39.476	$GPGGA,021140,2511.5401,N,08010.7082,W,1,9,1.6,17,M,,M,,*5D
06/05/2014	02:11:40.456	$GPGGA,021141,2511.5384,N,08010.7093,W,1,9,1.6,17,M,,M,,*56
06/05/2014	02:11:41.576	$GPGGA,021142,2511.5366,N,08010.7104,W,1,9,1.6,17,M,,M,,*56
06/05/2014	02:11:42.464	$GPGGA,021143,2511.5350,N,08010.7117,W,1,9,1.6,17,M,,M,,*50
06/05/2014	02:11:43.505	$GPGGA,021144,2511.5334,N,08010.7131,W,1,9,1.6,17,M,,M,,*51
06/05/2014	02:11:44.514	$GPGGA,021145,2511.5316,N,08010.7142,W,1,9,1.6,17,M,,M,,*54
06/05/2014	02:11:45.513	$GPGGA,021146,2511.5300,N,08010.7153,W,1,9,1.6,17,M,,M,,*50
06/05/2014	02:11:46.543	$GPGGA,021147,2511.5283,N,08010.7167,W,1,9,1.6,17,M,,M,,*5C
06/05/2014	02:11:47.643	$GPGGA,021148,2511.5268,N,08010.7180,W,1,9,1.6,17,M,,M,,*5F
06/05/2014	02:11:48.532	$GPGGA,021149,2511.5251,N,08010.7190,W,1,9,1.6,17,M,,M,,*55
