Software Version Number: 1	Data File Format Number: 1	Build Version Number: 1	Error Count Since VI Started: 0	Manufacturer: Raytheon	 Model Number: RayMarine 120	 S/N: 	 Cal Date: 	 Wind Direction Offset: 0.00	 Slope (M)1: 0.00	 Offset (B)1: 0.00	 Slope (M)2: 0.00	 Offset (B)2: 0.00	 Slope (M)3: 0.00	 Offset (B)3: 0.00	 Slope (M)4: 0.00	 Offset (B)4: 0.00	 Slope (M)5: 0.00	 Offset (B)5: 0.00	 Slope (M)6: 0.00	 Offset (B)6: 0.00
Computer Date	Computer Time	GGA String
06/06/2014	03:00:00.567	$GPGGA,030001,2441.0945,N,08107.5709,W,1,8,2.0,12,M,,M,,*55
06/06/2014	03:00:01.445	$GPGGA,030002,2441.0946,N,08107.5708,W,1,8,2.3,12,M,,M,,*57
06/06/2014	03:00:02.447	$GPGGA,030003,2441.0945,N,08107.5709,W,1,8,2.0,12,M,,M,,*57
06/06/2014	03:00:03.470	$GPGGA,030004,2441.0946,N,08107.5709,W,1,8,2.0,12,M,,M,,*53
06/06/2014	03:00:04.452	$GPGGA,030005,2441.0946,N,08107.5709,W,1,8,2.0,12,M,,M,,*52
06/06/2014	03:00:05.535	$GPGGA,030006,2441.0946,N,08107.5712,W,1,8,2.0,12,M,,M,,*5B
06/06/2014	03:00:06.447	$GPGGA,030007,2441.0946,N,08107.5712,W,1,8,2.0,12,M,,M,,*5A
06/06/2014	03:00:07.570	$GPGGA,030008,2441.0947,N,08107.5709,W,1,8,2.3,12,M,,M,,*5D
06/06/2014	03:00:08.542	$GPGGA,030009,2441.0947,N,08107.5707,W,1,7,2.3,12,M,,M,,*5D
06/06/2014	03:00:09.444	$GPGGA,030010,2441.0947,N,08107.5706,W,1,7,2.3,12,M,,M,,*54
06/06/2014	03:00:10.457	$GPGGA,030011,2441.0947,N,08107.5706,W,1,7,2.3,12,M,,M,,*55
06/06/2014	03:00:11.560	$GPGGA,030012,2441.0948,N,08107.5705,W,1,7,2.3,12,M,,M,,*5A
06/06/2014	03:00:12.552	$GPGGA,030013,2441.0950,N,08107.5704,W,1,7,2.3,12,M,,M,,*53
06/06/2014	03:00:13.545	$GPGGA,030014,2441.0949,N,08107.5704,W,1,7,2.3,12,M,,M,,*5C
06/06/2014	03:00:14.577	$GPGGA,030015,2441.0950,N,08107.5704,W,1,7,2.3,12,M,,M,,*55
06/06/2014	03:00:15.550	$GPGGA,030016,2441.0950,N,08107.5703,W,1,7,2.3,12,M,,M,,*51
06/06/2014	03:00:16.572	$GPGGA,030017,2441.0952,N,08107.5704,W,1,7,2.3,12,M,,M,,*55
06/06/2014	03:00:17.555	$GPGGA,030018,2441.0951,N,08107.5702,W,1,7,2.3,12,M,,M,,*5F
06/06/2014	03:00:18.577	$GPGGA,030019,2441.0952,N,08107.5702,W,1,7,2.3,11,M,,M,,*5E
06/06/2014	03:00:19.550	$GPGGA,030020,2441.0953,N,08107.5701,W,1,7,2.3,11,M,,M,,*56
06/06/2014	03:00:20.571	$GPGGA,030021,2441.0952,N,08107.5701,W,1,7,2.3,11,M,,M,,*56
06/06/2014	03:00:21.564	$GPGGA,030022,2441.0953,N,08107.5704,W,1,7,2.3,11,M,,M,,*51
06/06/2014	03:00:22.566	$GPGGA,030023,2441.0952,N,08107.5704,W,1,8,2.0,11,M,,M,,*5D
06/06/2014	03:00:23.569	$GPGGA,030024,2441.0954,N,08107.5704,W,1,8,2.0,11,M,,M,,*5C
06/06/2014	03:00:24.581	$GPGGA,030025,2441.0954,N,08107.5704,W,1,8,2.0,11,M,,M,,*5D
06/06/2014	03:00:25.554	$GPGGA,030026,2441.0954,N,08107.5704,W,1,8,2.0,11,M,,M,,*5E
06/06/2014	03:00:26.546	$GPGGA,030027,2441.0954,N,08107.5705,W,1,8,2.0,11,M,,M,,*5E
06/06/2014	03:00:27.569	$GPGGA,030028,2441.0956,N,08107.5706,W,1,8,2.0,11,M,,M,,*50
06/06/2014	03:00:28.581	$GPGGA,030029,2441.0955,N,08107.5706,W,1,8,2.0,11,M,,M,,*52
06/06/2014	03:00:29.544	$GPGGA,030030,2441.0957,N,08107.5708,W,1,8,2.0,11,M,,M,,*56
06/06/2014	03:00:30.586	$GPGGA,030031,2441.0955,N,08107.5707,W,1,8,2.0,11,M,,M,,*5A
06/06/2014	03:00:31.572	$GPGGA,030032,2441.0957,N,08107.5708,W,1,8,2.0,11,M,,M,,*54
06/06/2014	03:00:32.591	$GPGGA,030033,2441.0957,N,08107.5708,W,1,8,2.0,11,M,,M,,*55
06/06/2014	03:00:33.554	$GPGGA,030034,2441.0957,N,08107.5709,W,1,8,2.0,11,M,,M,,*53
06/06/2014	03:00:34.596	$GPGGA,030035,2441.0958,N,08107.5709,W,1,8,2.0,11,M,,M,,*5D
06/06/2014	03:00:35.420	$GPGGA,030036,2441.0958,N,08107.5710,W,1,8,2.0,11,M,,M,,*56
06/06/2014	03:00:36.402	$GPGGA,030037,2441.0960,N,08107.5710,W,1,8,2.0,11,M,,M,,*5C
06/06/2014	03:00:37.414	$GPGGA,030038,2441.0959,N,08107.5710,W,1,8,2.0,11,M,,M,,*59
06/06/2014	03:00:38.446	$GPGGA,030039,2441.0961,N,08107.5712,W,1,8,2.0,11,M,,M,,*51
06/06/2014	03:00:39.419	$GPGGA,030040,2441.0961,N,08107.5711,W,1,8,2.0,11,M,,M,,*5C
06/06/2014	03:00:40.421	$GPGGA,030041,2441.0963,N,08107.5712,W,1,8,2.0,11,M,,M,,*5C
06/06/2014	03:00:41.524	$GPGGA,030042,2441.0961,N,08107.5712,W,1,8,2.0,11,M,,M,,*5D
06/06/2014	03:00:42.406	$GPGGA,030043,2441.0963,N,08107.5712,W,1,8,2.0,11,M,,M,,*5E
06/06/2014	03:00:43.429	$GPGGA,030044,2441.0962,N,08107.5712,W,1,8,2.0,11,M,,M,,*58
06/06/2014	03:00:44.521	$GPGGA,030045,2441.0964,N,08107.5712,W,1,8,2.0,12,M,,M,,*5C
06/06/2014	03:00:45.424	$GPGGA,030046,2441.0965,N,08107.5713,W,1,8,2.0,12,M,,M,,*5F
06/06/2014	03:00:46.536	$GPGGA,030047,2441.0965,N,08107.5713,W,1,8,2.0,12,M,,M,,*5E
06/06/2014	03:00:47.429	$GPGGA,030048,2441.0965,N,08107.5713,W,1,8,2.0,12,M,,M,,*51
06/06/2014	03:00:48.421	$GPGGA,030049,2441.0965,N,08107.5713,W,1,8,2.0,12,M,,M,,*50
06/06/2014	03:00:49.504	$GPGGA,030050,2441.0965,N,08107.5713,W,1,8,2.0,12,M,,M,,*58
06/06/2014	03:00:50.536	$GPGGA,030051,2441.0967,N,08107.5713,W,1,8,2.0,12,M,,M,,*5B
06/06/2014	03:00:51.428	$GPGGA,030052,2441.0966,N,08107.5713,W,1,8,2.0,12,M,,M,,*59
06/06/2014	03:00:52.411	$GPGGA,030053,2441.0968,N,08107.5713,W,1,8,2.0,12,M,,M,,*56
06/06/2014	03:00:53.504	$GPGGA,030054,2441.0967,N,08107.5713,W,1,8,2.0,12,M,,M,,*5E
06/06/2014	03:00:54.536	$GPGGA,030055,2441.0968,N,08107.5713,W,1,8,2.0,12,M,,M,,*50
06/06/2014	03:00:55.538	$GPGGA,030056,2441.0968,N,08107.5712,W,1,8,2.0,12,M,,M,,*52
06/06/2014	03:00:56.510	$GPGGA,030057,2441.0970,N,08107.5712,W,1,8,2.0,12,M,,M,,*5A
06/06/2014	03:00:57.412	$GPGGA,030058,2441.0971,N,08107.5711,W,1,8,2.0,12,M,,M,,*57
06/06/2014	03:00:58.545	$GPGGA,030059,2441.0970,N,08107.5712,W,1,8,2.0,12,M,,M,,*54
06/06/2014	03:00:59.548	$GPGGA,030100,2441.0972,N,08107.5710,W,1,8,2.0,12,M,,M,,*59
06/06/2014	03:01:00.540	$GPGGA,030101,2441.0972,N,08107.5710,W,1,7,2.3,12,M,,M,,*54
06/06/2014	03:01:01.523	$GPGGA,030102,2441.0972,N,08107.5709,W,1,7,2.0,12,M,,M,,*5C
06/06/2014	03:01:02.555	$GPGGA,030103,2441.0974,N,08107.5707,W,1,7,2.3,12,M,,M,,*56
06/06/2014	03:01:03.548	$GPGGA,030104,2441.0975,N,08107.5706,W,1,7,2.3,12,M,,M,,*51
06/06/2014	03:01:04.520	$GPGGA,030105,2441.0974,N,08107.5705,W,1,7,2.3,12,M,,M,,*52
06/06/2014	03:01:05.523	$GPGGA,030106,2441.0975,N,08107.5704,W,1,7,2.3,12,M,,M,,*51
06/06/2014	03:01:06.535	$GPGGA,030107,2441.0976,N,08107.5703,W,1,7,2.3,12,M,,M,,*54
06/06/2014	03:01:07.538	$GPGGA,030108,2441.0978,N,08107.5702,W,1,7,2.3,12,M,,M,,*54
06/06/2014	03:01:08.540	$GPGGA,030109,2441.0979,N,08107.5702,W,1,7,2.3,12,M,,M,,*54
06/06/2014	03:01:09.513	$GPGGA,030110,2441.0979,N,08107.5701,W,1,7,2.3,12,M,,M,,*5F
06/06/2014	03:01:10.525	$GPGGA,030111,2441.0979,N,08107.5700,W,1,7,2.3,12,M,,M,,*5F
06/06/2014	03:01:11.528	$GPGGA,030112,2441.0981,N,08107.5701,W,1,7,2.3,12,M,,M,,*5A
06/06/2014	03:01:12.539	$GPGGA,030113,2441.0980,N,08107.5699,W,1,7,2.3,12,M,,M,,*5A
06/06/2014	03:01:13.522	$GPGGA,030114,2441.0982,N,08107.5699,W,1,7,2.3,12,M,,M,,*5F
06/06/2014	03:01:14.514	$GPGGA,030115,2441.0981,N,08107.5699,W,1,7,2.3,11,M,,M,,*5E
06/06/2014	03:01:15.537	$GPGGA,030116,2441.0983,N,08107.5698,W,1,7,2.3,11,M,,M,,*5E
06/06/2014	03:01:16.539	$GPGGA,030117,2441.0983,N,08107.5698,W,1,7,2.3,11,M,,M,,*5F
06/06/2014	03:01:17.522	$GPGGA,030118,2441.0983,N,08107.5697,W,1,7,2.3,11,M,,M,,*5F
06/06/2014	03:01:18.535	$GPGGA,030119,2441.0985,N,08107.5697,W,1,7,2.3,11,M,,M,,*58
06/06/2014	03:01:19.557	$GPGGA,030120,2441.0984,N,08107.5697,W,1,7,2.3,11,M,,M,,*53
06/06/2014	03:01:20.519	$GPGGA,030121,2441.0986,N,08107.5697,W,1,7,2.3,11,M,,M,,*50
06/06/2014	03:01:21.532	$GPGGA,030122,2441.0985,N,08107.5696,W,1,7,2.3,11,M,,M,,*51
06/06/2014	03:01:22.514	$GPGGA,030123,2441.0986,N,08107.5697,W,1,7,2.3,10,M,,M,,*53
06/06/2014	03:01:23.537	$GPGGA,030124,2441.0988,N,08107.5696,W,1,7,2.3,10,M,,M,,*5B
06/06/2014	03:01:24.529	$GPGGA,030125,2441.0987,N,08107.5695,W,1,7,2.3,10,M,,M,,*56
06/06/2014	03:01:25.522	$GPGGA,030126,2441.0989,N,08107.5695,W,1,7,2.3,10,M,,M,,*5B
06/06/2014	03:01:26.544	$GPGGA,030127,2441.0988,N,08107.5695,W,1,7,2.3,10,M,,M,,*5B
06/06/2014	03:01:27.527	$GPGGA,030128,2441.0990,N,08107.5695,W,1,7,2.3,10,M,,M,,*5D
06/06/2014	03:01:28.560	$GPGGA,030129,2441.0990,N,08107.5695,W,1,7,2.3,10,M,,M,,*5C
06/06/2014	03:01:29.521	$GPGGA,030130,2441.0990,N,08107.5694,W,1,7,2.3,10,M,,M,,*55
06/06/2014	03:01:30.533	$GPGGA,030131,2441.0992,N,08107.5694,W,1,7,2.3,10,M,,M,,*56
06/06/2014	03:01:31.536	$GPGGA,030132,2441.0993,N,08107.5694,W,1,7,2.3,10,M,,M,,*54
06/06/2014	03:01:32.528	$GPGGA,030133,2441.0992,N,08107.5694,W,1,7,2.3,10,M,,M,,*54
06/06/2014	03:01:33.641	$GPGGA,030134,2441.0993,N,08107.5695,W,1,7,2.3,10,M,,M,,*53
06/06/2014	03:01:34.543	$GPGGA,030135,2441.0993,N,08107.5695,W,1,8,2.0,9,M,,M,,*66
06/06/2014	03:01:35.397	$GPGGA,030136,2441.0993,N,08107.5695,W,1,8,2.3,9,M,,M,,*66
06/06/2014	03:01:36.369	$GPGGA,030137,2441.0994,N,08107.5698,W,1,7,2.3,9,M,,M,,*62
06/06/2014	03:01:37.381	$GPGGA,030138,2441.0994,N,08107.5698,W,1,7,2.0,9,M,,M,,*6E
06/06/2014	03:01:38.394	$GPGGA,030139,2441.0996,N,08107.5697,W,1,7,2.3,9,M,,M,,*61
06/06/2014	03:01:39.487	$GPGGA,030140,2441.0995,N,08107.5699,W,1,7,2.3,9,M,,M,,*62
06/06/2014	03:01:40.389	$GPGGA,030141,2441.0997,N,08107.5698,W,1,8,2.0,9,M,,M,,*6C
06/06/2014	03:01:41.472	$GPGGA,030142,2441.0997,N,08107.5697,W,1,8,2.3,10,M,,M,,*5B
06/06/2014	03:01:42.374	$GPGGA,030143,2441.0997,N,08107.5697,W,1,7,2.3,10,M,,M,,*55
06/06/2014	03:01:43.406	$GPGGA,030144,2441.0997,N,08107.5696,W,1,7,2.3,10,M,,M,,*53
06/06/2014	03:01:44.390	$GPGGA,030145,2441.0999,N,08107.5697,W,1,7,2.3,10,M,,M,,*5D
06/06/2014	03:01:45.492	$GPGGA,030146,2441.1000,N,08107.5695,W,1,7,2.3,10,M,,M,,*54
06/06/2014	03:01:46.384	$GPGGA,030147,2441.0999,N,08107.5695,W,1,7,2.3,10,M,,M,,*5D
06/06/2014	03:01:47.496	$GPGGA,030148,2441.1001,N,08107.5697,W,1,7,2.3,10,M,,M,,*59
06/06/2014	03:01:48.508	$GPGGA,030149,2441.1001,N,08107.5697,W,1,8,2.0,10,M,,M,,*54
06/06/2014	03:01:49.481	$GPGGA,030150,2441.1001,N,08107.5696,W,1,8,2.3,10,M,,M,,*5E
06/06/2014	03:01:50.503	$GPGGA,030151,2441.1001,N,08107.5697,W,1,7,2.3,10,M,,M,,*51
06/06/2014	03:01:51.497	$GPGGA,030152,2441.1001,N,08107.5695,W,1,7,2.0,10,M,,M,,*53
06/06/2014	03:01:52.508	$GPGGA,030153,2441.1001,N,08107.5695,W,1,7,2.3,10,M,,M,,*51
06/06/2014	03:01:53.481	$GPGGA,030154,2441.1003,N,08107.5694,W,1,7,2.3,10,M,,M,,*55
06/06/2014	03:01:54.493	$GPGGA,030155,2441.1002,N,08107.5694,W,1,7,2.3,10,M,,M,,*55
06/06/2014	03:01:55.496	$GPGGA,030156,2441.1003,N,08107.5694,W,1,7,2.3,10,M,,M,,*57
06/06/2014	03:01:56.488	$GPGGA,030157,2441.1004,N,08107.5694,W,1,7,2.3,10,M,,M,,*51
06/06/2014	03:01:57.491	$GPGGA,030158,2441.1003,N,08107.5694,W,1,7,2.3,10,M,,M,,*59
06/06/2014	03:01:58.493	$GPGGA,030159,2441.1004,N,08107.5694,W,1,7,2.3,10,M,,M,,*5F
06/06/2014	03:01:59.496	$GPGGA,030200,2441.1004,N,08107.5694,W,1,7,2.3,10,M,,M,,*50
06/06/2014	03:02:00.508	$GPGGA,030201,2441.1004,N,08107.5694,W,1,7,2.3,10,M,,M,,*51
06/06/2014	03:02:01.495	$GPGGA,030202,2441.1005,N,08107.5694,W,1,7,2.3,10,M,,M,,*53
06/06/2014	03:02:02.503	$GPGGA,030203,2441.1005,N,08107.5694,W,1,8,2.0,10,M,,M,,*5E
06/06/2014	03:02:03.506	$GPGGA,030204,2441.1004,N,08107.5695,W,1,8,2.0,10,M,,M,,*59
06/06/2014	03:02:04.518	$GPGGA,030205,2441.1005,N,08107.5697,W,1,8,2.0,10,M,,M,,*5B
06/06/2014	03:02:05.480	$GPGGA,030206,2441.1005,N,08107.5696,W,1,8,2.0,10,M,,M,,*59
06/06/2014	03:02:06.492	$GPGGA,030207,2441.1005,N,08107.5697,W,1,8,2.0,10,M,,M,,*59
06/06/2014	03:02:07.505	$GPGGA,030208,2441.1005,N,08107.5697,W,1,8,2.0,10,M,,M,,*56
06/06/2014	03:02:08.517	$GPGGA,030209,2441.1005,N,08107.5698,W,1,8,2.0,10,M,,M,,*58
06/06/2014	03:02:09.490	$GPGGA,030210,2441.1005,N,08107.5699,W,1,8,2.0,10,M,,M,,*51
06/06/2014	03:02:10.512	$GPGGA,030211,2441.1005,N,08107.5699,W,1,8,2.0,10,M,,M,,*50
06/06/2014	03:02:11.495	$GPGGA,030212,2441.1005,N,08107.5701,W,1,8,2.0,10,M,,M,,*53
06/06/2014	03:02:12.497	$GPGGA,030213,2441.1005,N,08107.5700,W,1,8,2.0,10,M,,M,,*53
06/06/2014	03:02:13.490	$GPGGA,030214,2441.1005,N,08107.5701,W,1,8,2.0,11,M,,M,,*54
06/06/2014	03:02:14.492	$GPGGA,030215,2441.1005,N,08107.5701,W,1,8,2.0,11,M,,M,,*55
06/06/2014	03:02:15.515	$GPGGA,030216,2441.1007,N,08107.5702,W,1,8,2.0,11,M,,M,,*57
06/06/2014	03:02:16.487	$GPGGA,030217,2441.1006,N,08107.5702,W,1,8,2.0,11,M,,M,,*57
06/06/2014	03:02:17.510	$GPGGA,030218,2441.1007,N,08107.5702,W,1,8,2.0,11,M,,M,,*59
06/06/2014	03:02:18.492	$GPGGA,030219,2441.1008,N,08107.5701,W,1,8,2.0,11,M,,M,,*54
06/06/2014	03:02:19.625	$GPGGA,030220,2441.1008,N,08107.5700,W,1,8,2.3,11,M,,M,,*5C
06/06/2014	03:02:20.487	$GPGGA,030221,2441.1008,N,08107.5701,W,1,7,2.3,11,M,,M,,*53
06/06/2014	03:02:21.520	$GPGGA,030222,2441.1008,N,08107.5700,W,1,7,2.3,11,M,,M,,*51
06/06/2014	03:02:22.611	$GPGGA,030223,2441.1008,N,08107.5701,W,1,7,2.3,11,M,,M,,*51
06/06/2014	03:02:23.524	$GPGGA,030224,2441.1008,N,08107.5701,W,1,7,2.3,11,M,,M,,*56
06/06/2014	03:02:24.506	$GPGGA,030225,2441.1008,N,08107.5701,W,1,8,2.0,11,M,,M,,*5B
06/06/2014	03:02:25.498	$GPGGA,030226,2441.1008,N,08107.5702,W,1,8,2.0,11,M,,M,,*5B
06/06/2014	03:02:26.511	$GPGGA,030227,2441.1008,N,08107.5702,W,1,8,2.0,11,M,,M,,*5A
06/06/2014	03:02:27.614	$GPGGA,030228,2441.1008,N,08107.5704,W,1,8,2.0,11,M,,M,,*53
06/06/2014	03:02:28.626	$GPGGA,030229,2441.1008,N,08107.5704,W,1,8,2.0,12,M,,M,,*51
06/06/2014	03:02:29.589	$GPGGA,030230,2441.1006,N,08107.5705,W,1,8,2.0,12,M,,M,,*56
06/06/2014	03:02:30.601	$GPGGA,030231,2441.1007,N,08107.5706,W,1,8,2.0,12,M,,M,,*55
06/06/2014	03:02:31.523	$GPGGA,030232,2441.1008,N,08107.5706,W,1,8,2.0,12,M,,M,,*59
06/06/2014	03:02:32.606	$GPGGA,030233,2441.1006,N,08107.5706,W,1,8,2.0,12,M,,M,,*56
06/06/2014	03:02:33.508	$GPGGA,030234,2441.1007,N,08107.5708,W,1,8,2.0,12,M,,M,,*5E
06/06/2014	03:02:34.611	$GPGGA,030235,2441.1006,N,08107.5707,W,1,8,2.0,12,M,,M,,*51
06/06/2014	03:02:35.466	$GPGGA,030236,2441.1007,N,08107.5708,W,1,8,2.0,12,M,,M,,*5C
06/06/2014	03:02:36.478	$GPGGA,030237,2441.1005,N,08107.5709,W,1,8,2.0,12,M,,M,,*5E
06/06/2014	03:02:37.451	$GPGGA,030238,2441.1005,N,08107.5709,W,1,8,2.0,13,M,,M,,*50
06/06/2014	03:02:38.473	$GPGGA,030239,2441.1005,N,08107.5709,W,1,8,2.0,13,M,,M,,*51
06/06/2014	03:02:39.455	$GPGGA,030240,2441.1007,N,08107.5708,W,1,8,2.0,13,M,,M,,*5C
06/06/2014	03:02:40.477	$GPGGA,030241,2441.1006,N,08107.5709,W,1,8,2.0,13,M,,M,,*5D
06/06/2014	03:02:41.470	$GPGGA,030242,2441.1008,N,08107.5708,W,1,8,2.0,13,M,,M,,*51
06/06/2014	03:02:42.472	$GPGGA,030243,2441.1008,N,08107.5709,W,1,7,2.3,13,M,,M,,*5D
06/06/2014	03:02:43.465	$GPGGA,030244,2441.1008,N,08107.5709,W,1,7,2.0,13,M,,M,,*59
06/06/2014	03:02:44.447	$GPGGA,030245,2441.1006,N,08107.5710,W,1,8,2.0,13,M,,M,,*51
06/06/2014	03:02:45.460	$GPGGA,030246,2441.1008,N,08107.5710,W,1,8,2.0,13,M,,M,,*5C
06/06/2014	03:02:46.482	$GPGGA,030247,2441.1008,N,08107.5710,W,1,8,2.0,14,M,,M,,*5A
06/06/2014	03:02:47.475	$GPGGA,030248,2441.1006,N,08107.5710,W,1,8,2.0,14,M,,M,,*5B
06/06/2014	03:02:48.477	$GPGGA,030249,2441.1007,N,08107.5712,W,1,8,2.0,14,M,,M,,*59
06/06/2014	03:02:49.460	$GPGGA,030250,2441.1008,N,08107.5712,W,1,8,2.0,14,M,,M,,*5E
06/06/2014	03:02:50.452	$GPGGA,030251,2441.1006,N,08107.5712,W,1,8,2.0,14,M,,M,,*51
06/06/2014	03:02:51.465	$GPGGA,030252,2441.1007,N,08107.5712,W,1,8,2.0,14,M,,M,,*53
06/06/2014	03:02:52.487	$GPGGA,030253,2441.1008,N,08107.5712,W,1,8,2.0,14,M,,M,,*5D
06/06/2014	03:02:53.451	$GPGGA,030254,2441.1006,N,08107.5712,W,1,8,2.0,14,M,,M,,*54
06/06/2014	03:02:54.482	$GPGGA,030255,2441.1007,N,08107.5712,W,1,8,2.0,14,M,,M,,*54
06/06/2014	03:02:55.478	$GPGGA,030256,2441.1006,N,08107.5713,W,1,8,2.0,14,M,,M,,*57
06/06/2014	03:02:56.457	$GPGGA,030257,2441.1005,N,08107.5713,W,1,8,2.0,14,M,,M,,*55
06/06/2014	03:02:57.580	$GPGGA,030258,2441.1005,N,08107.5713,W,1,8,2.0,14,M,,M,,*5A
06/06/2014	03:02:58.461	$GPGGA,030259,2441.1005,N,08107.5713,W,1,8,2.0,14,M,,M,,*5B
06/06/2014	03:02:59.494	$GPGGA,030300,2441.1005,N,08107.5713,W,1,8,2.0,14,M,,M,,*56
06/06/2014	03:03:00.506	$GPGGA,030301,2441.1004,N,08107.5715,W,1,8,2.0,15,M,,M,,*51
06/06/2014	03:03:01.469	$GPGGA,030302,2441.1005,N,08107.5714,W,1,8,2.0,15,M,,M,,*52
06/06/2014	03:03:02.471	$GPGGA,030303,2441.1004,N,08107.5715,W,1,8,2.0,15,M,,M,,*53
06/06/2014	03:03:03.484	$GPGGA,030304,2441.1004,N,08107.5715,W,1,8,2.0,15,M,,M,,*54
06/06/2014	03:03:04.476	$GPGGA,030305,2441.1004,N,08107.5715,W,1,8,2.0,15,M,,M,,*55
06/06/2014	03:03:05.469	$GPGGA,030306,2441.1004,N,08107.5715,W,1,8,2.0,15,M,,M,,*56
06/06/2014	03:03:06.601	$GPGGA,030307,2441.1004,N,08107.5716,W,1,8,2.0,15,M,,M,,*54
06/06/2014	03:03:07.484	$GPGGA,030308,2441.1004,N,08107.5716,W,1,8,2.0,15,M,,M,,*5B
06/06/2014	03:03:08.596	$GPGGA,030309,2441.1003,N,08107.5716,W,1,8,2.0,15,M,,M,,*5D
06/06/2014	03:03:09.458	$GPGGA,030310,2441.1004,N,08107.5716,W,1,8,2.0,15,M,,M,,*52
06/06/2014	03:03:10.481	$GPGGA,030311,2441.1003,N,08107.5716,W,1,8,2.0,15,M,,M,,*54
06/06/2014	03:03:11.494	$GPGGA,030312,2441.1004,N,08107.5717,W,1,8,2.0,15,M,,M,,*51
06/06/2014	03:03:12.466	$GPGGA,030313,2441.1002,N,08107.5719,W,1,7,2.1,15,M,,M,,*56
06/06/2014	03:03:13.478	$GPGGA,030314,2441.1001,N,08107.5718,W,1,7,2.0,15,M,,M,,*52
06/06/2014	03:03:14.580	$GPGGA,030315,2441.1001,N,08107.5719,W,1,7,2.1,14,M,,M,,*52
06/06/2014	03:03:15.493	$GPGGA,030316,2441.0999,N,08107.5722,W,1,7,2.1,14,M,,M,,*50
06/06/2014	03:03:16.475	$GPGGA,030317,2441.1000,N,08107.5723,W,1,8,2.0,14,M,,M,,*56
06/06/2014	03:03:17.477	$GPGGA,030318,2441.0999,N,08107.5722,W,1,8,2.1,14,M,,M,,*51
06/06/2014	03:03:18.480	$GPGGA,030319,2441.1000,N,08107.5723,W,1,7,2.1,14,M,,M,,*56
06/06/2014	03:03:19.492	$GPGGA,030320,2441.0999,N,08107.5723,W,1,7,2.0,14,M,,M,,*55
06/06/2014	03:03:20.475	$GPGGA,030321,2441.1000,N,08107.5723,W,1,7,2.1,14,M,,M,,*5D
06/06/2014	03:03:21.578	$GPGGA,030322,2441.0997,N,08107.5726,W,1,7,2.0,14,M,,M,,*5C
06/06/2014	03:03:22.600	$GPGGA,030323,2441.0997,N,08107.5725,W,1,8,2.1,14,M,,M,,*50
06/06/2014	03:03:23.613	$GPGGA,030324,2441.0997,N,08107.5726,W,1,8,2.1,14,M,,M,,*54
06/06/2014	03:03:24.575	$GPGGA,030325,2441.0997,N,08107.5725,W,1,7,2.0,14,M,,M,,*58
06/06/2014	03:03:25.578	$GPGGA,030326,2441.0997,N,08107.5726,W,1,7,2.1,14,M,,M,,*59
06/06/2014	03:03:26.600	$GPGGA,030327,2441.0992,N,08107.5728,W,1,7,2.0,14,M,,M,,*52
06/06/2014	03:03:27.583	$GPGGA,030328,2441.0993,N,08107.5728,W,1,7,2.0,14,M,,M,,*5C
06/06/2014	03:03:28.565	$GPGGA,030329,2441.0992,N,08107.5728,W,1,8,2.0,14,M,,M,,*53
06/06/2014	03:03:29.588	$GPGGA,030330,2441.0991,N,08107.5730,W,1,8,2.0,14,M,,M,,*51
06/06/2014	03:03:30.600	$GPGGA,030331,2441.0990,N,08107.5729,W,1,8,2.0,13,M,,M,,*5E
06/06/2014	03:03:31.593	$GPGGA,030332,2441.0990,N,08107.5730,W,1,8,2.0,13,M,,M,,*55
06/06/2014	03:03:32.604	$GPGGA,030333,2441.0990,N,08107.5729,W,1,8,2.0,13,M,,M,,*5C
06/06/2014	03:03:33.567	$GPGGA,030334,2441.0990,N,08107.5730,W,1,8,2.0,13,M,,M,,*53
06/06/2014	03:03:34.599	$GPGGA,030335,2441.0990,N,08107.5730,W,1,8,2.0,13,M,,M,,*52
06/06/2014	03:03:35.433	$GPGGA,030336,2441.0990,N,08107.5730,W,1,8,2.0,13,M,,M,,*51
06/06/2014	03:03:36.455	$GPGGA,030337,2441.0990,N,08107.5729,W,1,8,2.0,13,M,,M,,*58
06/06/2014	03:03:37.438	$GPGGA,030338,2441.0990,N,08107.5730,W,1,8,2.0,13,M,,M,,*5F
06/06/2014	03:03:38.460	$GPGGA,030339,2441.0992,N,08107.5728,W,1,8,2.3,13,M,,M,,*56
06/06/2014	03:03:39.453	$GPGGA,030340,2441.0990,N,08107.5730,W,1,8,2.0,13,M,,M,,*50
06/06/2014	03:03:40.455	$GPGGA,030341,2441.0990,N,08107.5731,W,1,8,2.0,13,M,,M,,*50
06/06/2014	03:03:41.418	$GPGGA,030342,2441.0990,N,08107.5731,W,1,8,2.0,13,M,,M,,*53
06/06/2014	03:03:42.420	$GPGGA,030343,2441.0988,N,08107.5733,W,1,8,2.1,13,M,,M,,*58
06/06/2014	03:03:43.453	$GPGGA,030344,2441.0987,N,08107.5733,W,1,8,2.0,13,M,,M,,*51
06/06/2014	03:03:44.435	$GPGGA,030345,2441.0988,N,08107.5734,W,1,8,2.0,13,M,,M,,*58
06/06/2014	03:03:45.428	$GPGGA,030346,2441.0989,N,08107.5734,W,1,8,2.0,13,M,,M,,*5A
06/06/2014	03:03:46.460	$GPGGA,030347,2441.0990,N,08107.5733,W,1,8,2.0,13,M,,M,,*54
06/06/2014	03:03:47.463	$GPGGA,030348,2441.0990,N,08107.5733,W,1,8,2.0,13,M,,M,,*5B
06/06/2014	03:03:48.445	$GPGGA,030349,2441.0990,N,08107.5732,W,1,8,2.0,13,M,,M,,*5B
06/06/2014	03:03:49.426	$GPGGA,030350,2441.0992,N,08107.5733,W,1,8,2.0,13,M,,M,,*50
06/06/2014	03:03:50.469	$GPGGA,030351,2441.0993,N,08107.5732,W,1,8,2.0,13,M,,M,,*51
06/06/2014	03:03:51.462	$GPGGA,030352,2441.0994,N,08107.5731,W,1,8,2.0,13,M,,M,,*56
06/06/2014	03:03:52.544	$GPGGA,030353,2441.0996,N,08107.5731,W,1,8,2.0,13,M,,M,,*55
06/06/2014	03:03:53.458	$GPGGA,030354,2441.0997,N,08107.5731,W,1,8,2.0,14,M,,M,,*54
06/06/2014	03:03:54.539	$GPGGA,030355,2441.0997,N,08107.5730,W,1,8,2.0,14,M,,M,,*54
06/06/2014	03:03:55.462	$GPGGA,030356,2441.0999,N,08107.5730,W,1,8,2.0,14,M,,M,,*59
06/06/2014	03:03:56.464	$GPGGA,030357,2441.0998,N,08107.5730,W,1,8,2.0,14,M,,M,,*59
06/06/2014	03:03:57.426	$GPGGA,030358,2441.1000,N,08107.5730,W,1,8,2.0,14,M,,M,,*5F
06/06/2014	03:03:58.439	$GPGGA,030359,2441.1001,N,08107.5730,W,1,8,2.0,14,M,,M,,*5F
06/06/2014	03:03:59.572	$GPGGA,030400,2441.1001,N,08107.5729,W,1,8,2.0,14,M,,M,,*5C
06/06/2014	03:04:00.544	$GPGGA,030401,2441.1001,N,08107.5730,W,1,8,2.0,14,M,,M,,*55
06/06/2014	03:04:01.527	$GPGGA,030402,2441.1001,N,08107.5729,W,1,8,2.0,14,M,,M,,*5E
06/06/2014	03:04:02.460	$GPGGA,030403,2441.1001,N,08107.5730,W,1,8,2.0,14,M,,M,,*57
06/06/2014	03:04:03.562	$GPGGA,030404,2441.1001,N,08107.5729,W,1,8,2.0,14,M,,M,,*58
06/06/2014	03:04:04.454	$GPGGA,030405,2441.1001,N,08107.5730,W,1,8,2.0,15,M,,M,,*50
06/06/2014	03:04:05.537	$GPGGA,030406,2441.1001,N,08107.5729,W,1,8,2.0,15,M,,M,,*5B
06/06/2014	03:04:06.559	$GPGGA,030407,2441.1001,N,08107.5730,W,1,8,2.0,15,M,,M,,*52
06/06/2014	03:04:07.561	$GPGGA,030408,2441.1001,N,08107.5730,W,1,8,2.0,15,M,,M,,*5D
06/06/2014	03:04:08.573	$GPGGA,030409,2441.1001,N,08107.5730,W,1,8,2.0,15,M,,M,,*5C
06/06/2014	03:04:09.536	$GPGGA,030410,2441.1001,N,08107.5730,W,1,8,2.0,15,M,,M,,*54
06/06/2014	03:04:10.568	$GPGGA,030411,2441.1001,N,08107.5730,W,1,8,2.0,15,M,,M,,*55
06/06/2014	03:04:11.551	$GPGGA,030412,2441.1001,N,08107.5730,W,1,8,2.0,15,M,,M,,*56
06/06/2014	03:04:12.573	$GPGGA,030413,2441.1001,N,08107.5730,W,1,8,2.0,15,M,,M,,*57
06/06/2014	03:04:13.536	$GPGGA,030414,2441.1001,N,08107.5729,W,1,8,2.0,16,M,,M,,*5B
06/06/2014	03:04:14.538	$GPGGA,030415,2441.1001,N,08107.5730,W,1,8,2.0,16,M,,M,,*52
06/06/2014	03:04:15.561	$GPGGA,030416,2441.1001,N,08107.5729,W,1,8,2.0,16,M,,M,,*59
06/06/2014	03:04:16.543	$GPGGA,030417,2441.1001,N,08107.5730,W,1,8,2.0,16,M,,M,,*50
06/06/2014	03:04:17.546	$GPGGA,030418,2441.1001,N,08107.5729,W,1,8,2.0,16,M,,M,,*57
06/06/2014	03:04:18.558	$GPGGA,030419,2441.0999,N,08107.5728,W,1,8,2.0,16,M,,M,,*5E
06/06/2014	03:04:19.561	$GPGGA,030420,2441.1000,N,08107.5728,W,1,8,2.0,16,M,,M,,*5C
06/06/2014	03:04:20.563	$GPGGA,030421,2441.0999,N,08107.5727,W,1,8,2.0,16,M,,M,,*5A
06/06/2014	03:04:21.546	$GPGGA,030422,2441.1000,N,08107.5727,W,1,8,2.0,16,M,,M,,*51
06/06/2014	03:04:22.558	$GPGGA,030423,2441.0998,N,08107.5727,W,1,8,2.0,16,M,,M,,*59
06/06/2014	03:04:23.551	$GPGGA,030424,2441.0999,N,08107.5727,W,1,8,2.0,16,M,,M,,*5F
06/06/2014	03:04:24.562	$GPGGA,030425,2441.0998,N,08107.5727,W,1,8,2.0,16,M,,M,,*5F
06/06/2014	03:04:25.535	$GPGGA,030426,2441.0999,N,08107.5726,W,1,8,2.0,16,M,,M,,*5C
06/06/2014	03:04:26.537	$GPGGA,030427,2441.0998,N,08107.5726,W,1,8,2.0,16,M,,M,,*5C
06/06/2014	03:04:27.550	$GPGGA,030428,2441.0999,N,08107.5726,W,1,8,2.0,16,M,,M,,*52
06/06/2014	03:04:28.542	$GPGGA,030429,2441.0998,N,08107.5725,W,1,8,2.0,16,M,,M,,*51
06/06/2014	03:04:29.555	$GPGGA,030430,2441.0999,N,08107.5726,W,1,8,2.0,16,M,,M,,*5B
06/06/2014	03:04:30.537	$GPGGA,030431,2441.0997,N,08107.5724,W,1,8,2.0,16,M,,M,,*56
06/06/2014	03:04:31.570	$GPGGA,030432,2441.0999,N,08107.5724,W,1,8,2.0,16,M,,M,,*5B
06/06/2014	03:04:32.582	$GPGGA,030433,2441.0998,N,08107.5724,W,1,8,2.0,16,M,,M,,*5B
06/06/2014	03:04:33.545	$GPGGA,030434,2441.0999,N,08107.5723,W,1,8,2.0,16,M,,M,,*5A
06/06/2014	03:04:34.547	$GPGGA,030435,2441.0998,N,08107.5723,W,1,7,2.6,16,M,,M,,*53
06/06/2014	03:04:35.421	$GPGGA,030436,2441.0999,N,08107.5722,W,1,7,2.6,16,M,,M,,*50
06/06/2014	03:04:36.433	$GPGGA,030437,2441.1000,N,08107.5723,W,1,7,2.6,17,M,,M,,*59
06/06/2014	03:04:37.416	$GPGGA,030438,2441.0999,N,08107.5722,W,1,7,2.6,17,M,,M,,*5F
06/06/2014	03:04:38.518	$GPGGA,030439,2441.1000,N,08107.5721,W,1,7,2.6,17,M,,M,,*55
06/06/2014	03:04:39.400	$GPGGA,030440,2441.0999,N,08107.5722,W,1,7,2.6,17,M,,M,,*50
06/06/2014	03:04:40.403	$GPGGA,030441,2441.1000,N,08107.5721,W,1,7,2.6,17,M,,M,,*5A
06/06/2014	03:04:41.517	$GPGGA,030442,2441.0998,N,08107.5722,W,1,7,2.6,17,M,,M,,*53
06/06/2014	03:04:42.397	$GPGGA,030443,2441.1000,N,08107.5721,W,1,7,2.6,17,M,,M,,*58
06/06/2014	03:04:43.421	$GPGGA,030444,2441.0999,N,08107.5722,W,1,7,2.6,17,M,,M,,*54
06/06/2014	03:04:44.412	$GPGGA,030445,2441.1000,N,08107.5721,W,1,7,2.6,17,M,,M,,*5E
06/06/2014	03:04:45.414	$GPGGA,030446,2441.0999,N,08107.5720,W,1,7,2.6,17,M,,M,,*54
06/06/2014	03:04:46.427	$GPGGA,030447,2441.1000,N,08107.5720,W,1,7,2.6,17,M,,M,,*5D
06/06/2014	03:04:47.410	$GPGGA,030448,2441.0999,N,08107.5720,W,1,7,2.6,17,M,,M,,*5A
06/06/2014	03:04:48.845	$GPGGA,030449,2441.1000,N,08107.5719,W,1,7,2.6,17,M,,M,,*59
06/06/2014	03:04:49.394	$GPGGA,030450,2441.0999,N,08107.5719,W,1,7,2.6,17,M,,M,,*59
06/06/2014	03:04:50.398	$GPGGA,030451,2441.1000,N,08107.5719,W,1,7,2.6,17,M,,M,,*50
06/06/2014	03:04:51.510	$GPGGA,030452,2441.0999,N,08107.5719,W,1,7,2.6,17,M,,M,,*5B
06/06/2014	03:04:52.402	$GPGGA,030453,2441.1000,N,08107.5719,W,1,7,2.6,17,M,,M,,*52
06/06/2014	03:04:53.414	$GPGGA,030454,2441.0999,N,08107.5719,W,1,7,2.6,17,M,,M,,*5D
06/06/2014	03:04:54.497	$GPGGA,030455,2441.1000,N,08107.5718,W,1,7,2.6,17,M,,M,,*55
06/06/2014	03:04:55.419	$GPGGA,030456,2441.0999,N,08107.5719,W,1,7,2.6,17,M,,M,,*5F
06/06/2014	03:04:56.502	$GPGGA,030457,2441.1001,N,08107.5718,W,1,7,2.6,17,M,,M,,*56
06/06/2014	03:04:57.505	$GPGGA,030458,2441.1001,N,08107.5717,W,1,7,2.6,16,M,,M,,*57
06/06/2014	03:04:58.537	$GPGGA,030459,2441.1001,N,08107.5716,W,1,8,2.0,16,M,,M,,*5E
06/06/2014	03:04:59.529	$GPGGA,030500,2441.0999,N,08107.5715,W,1,8,2.0,16,M,,M,,*59
06/06/2014	03:05:00.531	$GPGGA,030501,2441.0998,N,08107.5714,W,1,8,2.0,16,M,,M,,*58
06/06/2014	03:05:01.514	$GPGGA,030502,2441.0999,N,08107.5712,W,1,8,2.0,16,M,,M,,*5C
06/06/2014	03:05:02.506	$GPGGA,030503,2441.0998,N,08107.5711,W,1,8,2.0,17,M,,M,,*5E
06/06/2014	03:05:03.529	$GPGGA,030504,2441.0999,N,08107.5712,W,1,8,2.0,17,M,,M,,*5B
06/06/2014	03:05:04.531	$GPGGA,030505,2441.0997,N,08107.5710,W,1,8,2.0,17,M,,M,,*56
06/06/2014	03:05:05.514	$GPGGA,030506,2441.0997,N,08107.5710,W,1,8,2.0,17,M,,M,,*55
06/06/2014	03:05:06.526	$GPGGA,030507,2441.0997,N,08107.5709,W,1,8,2.0,17,M,,M,,*5C
06/06/2014	03:05:07.529	$GPGGA,030508,2441.0997,N,08107.5709,W,1,8,2.0,17,M,,M,,*53
06/06/2014	03:05:08.501	$GPGGA,030509,2441.0997,N,08107.5708,W,1,8,2.0,17,M,,M,,*53
06/06/2014	03:05:09.504	$GPGGA,030510,2441.0997,N,08107.5708,W,1,8,2.0,17,M,,M,,*5B
06/06/2014	03:05:10.536	$GPGGA,030511,2441.0997,N,08107.5708,W,1,8,2.0,17,M,,M,,*5A
06/06/2014	03:05:11.529	$GPGGA,030512,2441.0997,N,08107.5708,W,1,8,2.0,17,M,,M,,*59
06/06/2014	03:05:12.531	$GPGGA,030513,2441.0997,N,08107.5708,W,1,8,2.0,17,M,,M,,*58
06/06/2014	03:05:13.514	$GPGGA,030514,2441.0997,N,08107.5707,W,1,8,2.0,17,M,,M,,*50
06/06/2014	03:05:14.506	$GPGGA,030515,2441.0997,N,08107.5708,W,1,8,2.0,17,M,,M,,*5E
06/06/2014	03:05:15.529	$GPGGA,030516,2441.0997,N,08107.5707,W,1,8,2.0,17,M,,M,,*52
06/06/2014	03:05:16.511	$GPGGA,030517,2441.0997,N,08107.5708,W,1,8,2.0,17,M,,M,,*5C
06/06/2014	03:05:17.513	$GPGGA,030518,2441.0997,N,08107.5707,W,1,8,2.0,17,M,,M,,*5C
06/06/2014	03:05:18.555	$GPGGA,030519,2441.0997,N,08107.5708,W,1,8,2.0,17,M,,M,,*52
06/06/2014	03:05:19.518	$GPGGA,030520,2441.0995,N,08107.5707,W,1,8,2.0,17,M,,M,,*55
06/06/2014	03:05:20.540	$GPGGA,030521,2441.0996,N,08107.5708,W,1,8,2.0,18,M,,M,,*57
06/06/2014	03:05:21.513	$GPGGA,030522,2441.0997,N,08107.5707,W,1,8,2.0,18,M,,M,,*5A
06/06/2014	03:05:22.515	$GPGGA,030523,2441.0997,N,08107.5708,W,1,8,2.0,18,M,,M,,*54
06/06/2014	03:05:23.538	$GPGGA,030524,2441.0997,N,08107.5707,W,1,8,2.0,18,M,,M,,*5C
06/06/2014	03:05:24.520	$GPGGA,030525,2441.0997,N,08107.5706,W,1,8,2.0,18,M,,M,,*5C
06/06/2014	03:05:25.533	$GPGGA,030526,2441.0997,N,08107.5708,W,1,8,2.0,18,M,,M,,*51
06/06/2014	03:05:26.535	$GPGGA,030527,2441.0997,N,08107.5707,W,1,8,2.0,18,M,,M,,*5F
06/06/2014	03:05:27.528	$GPGGA,030528,2441.0997,N,08107.5708,W,1,8,2.0,18,M,,M,,*5F
06/06/2014	03:05:28.530	$GPGGA,030529,2441.0997,N,08107.5707,W,1,8,2.0,18,M,,M,,*51
06/06/2014	03:05:29.533	$GPGGA,030530,2441.0997,N,08107.5708,W,1,8,2.0,18,M,,M,,*56
06/06/2014	03:05:30.549	$GPGGA,030531,2441.0997,N,08107.5707,W,1,8,2.0,18,M,,M,,*58
06/06/2014	03:05:31.703	$GPGGA,030532,2441.0997,N,08107.5708,W,1,8,2.0,18,M,,M,,*54
06/06/2014	03:05:32.620	$GPGGA,030533,2441.0997,N,08107.5707,W,1,8,2.0,18,M,,M,,*5A
06/06/2014	03:05:33.631	$GPGGA,030534,2441.0997,N,08107.5708,W,1,8,2.0,18,M,,M,,*52
06/06/2014	03:05:34.670	$GPGGA,030535,2441.0997,N,08107.5708,W,1,8,2.0,18,M,,M,,*53
06/06/2014	03:05:35.492	$GPGGA,030536,2441.0999,N,08107.5708,W,1,8,2.0,18,M,,M,,*5E
06/06/2014	03:05:36.533	$GPGGA,030537,2441.0998,N,08107.5709,W,1,8,2.0,18,M,,M,,*5F
06/06/2014	03:05:37.450	$GPGGA,030538,2441.0999,N,08107.5709,W,1,8,2.0,18,M,,M,,*51
06/06/2014	03:05:38.470	$GPGGA,030539,2441.0997,N,08107.5710,W,1,8,2.0,18,M,,M,,*56
06/06/2014	03:05:39.531	$GPGGA,030540,2441.0999,N,08107.5710,W,1,8,2.0,18,M,,M,,*56
06/06/2014	03:05:40.531	$GPGGA,030541,2441.0997,N,08107.5712,W,1,8,2.0,18,M,,M,,*5B
06/06/2014	03:05:41.664	$GPGGA,030542,2441.0997,N,08107.5711,W,1,8,2.6,18,M,,M,,*5D
06/06/2014	03:05:42.684	$GPGGA,030543,2441.0997,N,08107.5712,W,1,8,2.0,18,M,,M,,*59
06/06/2014	03:05:43.725	$GPGGA,030544,2441.0997,N,08107.5712,W,1,8,2.0,18,M,,M,,*5E
06/06/2014	03:05:44.776	$GPGGA,030545,2441.0997,N,08107.5712,W,1,8,2.0,18,M,,M,,*5F
06/06/2014	03:05:45.776	$GPGGA,030546,2441.0997,N,08107.5712,W,1,8,2.0,18,M,,M,,*5C
06/06/2014	03:05:46.827	$GPGGA,030547,2441.0997,N,08107.5711,W,1,8,2.0,18,M,,M,,*5E
06/06/2014	03:05:47.836	$GPGGA,030548,2441.0997,N,08107.5712,W,1,8,2.0,18,M,,M,,*52
06/06/2014	03:05:48.846	$GPGGA,030549,2441.0997,N,08107.5711,W,1,8,2.0,18,M,,M,,*50
06/06/2014	03:05:49.887	$GPGGA,030550,2441.0995,N,08107.5712,W,1,8,2.0,18,M,,M,,*59
06/06/2014	03:05:50.928	$GPGGA,030551,2441.0996,N,08107.5710,W,1,8,2.0,18,M,,M,,*59
06/06/2014	03:05:51.948	$GPGGA,030552,2441.0995,N,08107.5710,W,1,8,2.0,18,M,,M,,*59
06/06/2014	03:05:52.987	$GPGGA,030553,2441.0996,N,08107.5709,W,1,8,2.0,18,M,,M,,*53
06/06/2014	03:05:53.997	$GPGGA,030554,2441.0994,N,08107.5709,W,1,8,2.0,18,M,,M,,*56
06/06/2014	03:05:55.048	$GPGGA,030555,2441.0994,N,08107.5709,W,1,8,2.0,18,M,,M,,*57
06/06/2014	03:05:56.058	$GPGGA,030556,2441.0994,N,08107.5709,W,1,8,2.0,18,M,,M,,*54
06/06/2014	03:05:57.109	$GPGGA,030557,2441.0993,N,08107.5709,W,1,8,2.0,19,M,,M,,*53
06/06/2014	03:05:58.098	$GPGGA,030558,2441.0993,N,08107.5709,W,1,8,2.0,19,M,,M,,*5C
06/06/2014	03:05:59.159	$GPGGA,030559,2441.0993,N,08107.5709,W,1,8,2.0,19,M,,M,,*5D
06/06/2014	03:06:00.190	$GPGGA,030600,2441.0992,N,08107.5709,W,1,8,2.0,19,M,,M,,*53
06/06/2014	03:06:01.220	$GPGGA,030601,2441.0993,N,08107.5709,W,1,8,2.0,19,M,,M,,*53
06/06/2014	03:06:02.230	$GPGGA,030602,2441.0992,N,08107.5709,W,1,8,2.0,19,M,,M,,*51
06/06/2014	03:06:03.240	$GPGGA,030603,2441.0993,N,08107.5709,W,1,8,2.0,19,M,,M,,*51
06/06/2014	03:06:04.281	$GPGGA,030604,2441.0992,N,08107.5710,W,1,8,2.0,19,M,,M,,*5F
06/06/2014	03:06:05.342	$GPGGA,030605,2441.0993,N,08107.5710,W,1,8,2.0,19,M,,M,,*5F
06/06/2014	03:06:06.321	$GPGGA,030606,2441.0991,N,08107.5710,W,1,8,2.0,19,M,,M,,*5E
06/06/2014	03:06:07.372	$GPGGA,030607,2441.0992,N,08107.5710,W,1,8,2.0,19,M,,M,,*5C
06/06/2014	03:06:09.597	$GPGGA,030609,2441.0992,N,08107.5711,W,1,8,2.0,19,M,,M,,*53
06/06/2014	03:06:11.904	$GPGGA,030611,2441.0992,N,08107.5711,W,1,8,2.0,19,M,,M,,*5A
06/06/2014	03:06:12.533	$GPGGA,030612,2441.0991,N,08107.5712,W,1,8,2.0,19,M,,M,,*59
06/06/2014	03:06:13.522	$GPGGA,030613,2441.0992,N,08107.5712,W,1,8,2.0,19,M,,M,,*5B
06/06/2014	03:06:14.573	$GPGGA,030614,2441.0991,N,08107.5712,W,1,8,2.0,19,M,,M,,*5F
06/06/2014	03:06:15.593	$GPGGA,030615,2441.0990,N,08107.5712,W,1,8,2.0,19,M,,M,,*5F
06/06/2014	03:06:16.624	$GPGGA,030616,2441.0990,N,08107.5712,W,1,8,2.0,19,M,,M,,*5C
06/06/2014	03:06:17.644	$GPGGA,030617,2441.0990,N,08107.5713,W,1,8,2.0,18,M,,M,,*5D
06/06/2014	03:06:18.674	$GPGGA,030618,2441.0990,N,08107.5713,W,1,8,2.0,18,M,,M,,*52
06/06/2014	03:06:19.797	$GPGGA,030619,2441.0990,N,08107.5713,W,1,8,2.0,18,M,,M,,*53
06/06/2014	03:06:20.746	$GPGGA,030620,2441.0990,N,08107.5713,W,1,8,2.0,18,M,,M,,*59
06/06/2014	03:06:21.755	$GPGGA,030621,2441.0990,N,08107.5715,W,1,8,2.0,18,M,,M,,*5E
06/06/2014	03:06:22.950	$GPGGA,030622,2441.0990,N,08107.5714,W,1,8,2.0,18,M,,M,,*5C
06/06/2014	03:06:23.940	$GPGGA,030623,2441.0990,N,08107.5715,W,1,8,2.0,18,M,,M,,*5C
06/06/2014	03:06:24.846	$GPGGA,030624,2441.0990,N,08107.5714,W,1,8,2.0,18,M,,M,,*5A
06/06/2014	03:06:25.866	$GPGGA,030625,2441.0990,N,08107.5715,W,1,8,2.0,18,M,,M,,*5A
06/06/2014	03:06:26.897	$GPGGA,030626,2441.0990,N,08107.5714,W,1,8,2.0,18,M,,M,,*58
06/06/2014	03:06:27.927	$GPGGA,030627,2441.0990,N,08107.5715,W,1,8,2.0,18,M,,M,,*58
06/06/2014	03:06:29.142	$GPGGA,030628,2441.0990,N,08107.5715,W,1,8,2.0,18,M,,M,,*57
06/06/2014	03:06:30.131	$GPGGA,030629,2441.0992,N,08107.5714,W,1,8,1.5,18,M,,M,,*53
06/06/2014	03:06:31.192	$GPGGA,030630,2441.0994,N,08107.5715,W,1,8,1.5,18,M,,M,,*5C
06/06/2014	03:06:32.223	$GPGGA,030631,2441.0997,N,08107.5714,W,1,8,1.5,18,M,,M,,*5F
06/06/2014	03:06:33.253	$GPGGA,030632,2441.0999,N,08107.5715,W,1,8,1.5,18,M,,M,,*53
06/06/2014	03:06:34.232	$GPGGA,030633,2441.1000,N,08107.5714,W,1,8,1.5,18,M,,M,,*5B
06/06/2014	03:06:35.293	$GPGGA,030634,2441.1001,N,08107.5713,W,1,8,1.5,18,M,,M,,*5A
06/06/2014	03:06:36.293	$GPGGA,030635,2441.1004,N,08107.5713,W,1,8,1.5,18,M,,M,,*5E
06/06/2014	03:06:35.470	$GPGGA,030636,2441.1003,N,08107.5713,W,1,8,1.5,18,M,,M,,*5A
06/06/2014	03:06:36.542	$GPGGA,030637,2441.1004,N,08107.5713,W,1,8,1.5,18,M,,M,,*5C
06/06/2014	03:06:37.511	$GPGGA,030638,2441.1005,N,08107.5712,W,1,8,1.5,18,M,,M,,*53
06/06/2014	03:06:38.582	$GPGGA,030639,2441.1005,N,08107.5712,W,1,8,1.5,18,M,,M,,*52
06/06/2014	03:06:39.644	$GPGGA,030640,2441.1007,N,08107.5712,W,1,8,1.5,18,M,,M,,*5E
06/06/2014	03:06:40.633	$GPGGA,030641,2441.1008,N,08107.5712,W,1,8,1.5,19,M,,M,,*51
06/06/2014	03:06:41.684	$GPGGA,030642,2441.1008,N,08107.5712,W,1,8,1.5,19,M,,M,,*52
06/06/2014	03:06:42.704	$GPGGA,030643,2441.1008,N,08107.5712,W,1,8,1.5,19,M,,M,,*53
06/06/2014	03:06:43.776	$GPGGA,030644,2441.1010,N,08107.5712,W,1,8,1.5,19,M,,M,,*5D
06/06/2014	03:06:44.774	$GPGGA,030645,2441.1009,N,08107.5712,W,1,8,1.5,19,M,,M,,*54
06/06/2014	03:06:45.815	$GPGGA,030646,2441.1010,N,08107.5712,W,1,8,1.5,19,M,,M,,*5F
06/06/2014	03:06:46.814	$GPGGA,030647,2441.1009,N,08107.5712,W,1,9,1.5,19,M,,M,,*57
06/06/2014	03:06:47.875	$GPGGA,030648,2441.1011,N,08107.5712,W,1,9,1.5,19,M,,M,,*51
06/06/2014	03:06:48.875	$GPGGA,030649,2441.1010,N,08107.5711,W,1,9,1.5,19,M,,M,,*52
06/06/2014	03:06:49.916	$GPGGA,030650,2441.1011,N,08107.5712,W,1,9,1.5,20,M,,M,,*52
06/06/2014	03:06:50.915	$GPGGA,030651,2441.1009,N,08107.5711,W,1,9,1.5,20,M,,M,,*59
06/06/2014	03:06:51.925	$GPGGA,030652,2441.1010,N,08107.5712,W,1,9,1.5,20,M,,M,,*51
06/06/2014	03:06:52.997	$GPGGA,030653,2441.1009,N,08107.5711,W,1,9,1.5,20,M,,M,,*5B
06/06/2014	03:06:54.037	$GPGGA,030654,2441.1010,N,08107.5710,W,1,9,1.5,20,M,,M,,*55
06/06/2014	03:06:54.996	$GPGGA,030655,2441.1009,N,08107.5712,W,1,9,1.5,20,M,,M,,*5E
06/06/2014	03:06:56.088	$GPGGA,030656,2441.1010,N,08107.5711,W,1,9,1.5,20,M,,M,,*56
06/06/2014	03:06:57.108	$GPGGA,030657,2441.1009,N,08107.5712,W,1,9,1.5,20,M,,M,,*5C
06/06/2014	03:06:58.128	$GPGGA,030658,2441.1010,N,08107.5711,W,1,9,2.0,20,M,,M,,*5E
06/06/2014	03:06:59.148	$GPGGA,030659,2441.1009,N,08107.5712,W,1,8,2.0,20,M,,M,,*55
06/06/2014	03:07:00.150	$GPGGA,030700,2441.1010,N,08107.5710,W,1,8,2.0,20,M,,M,,*52
06/06/2014	03:07:01.209	$GPGGA,030701,2441.1009,N,08107.5710,W,1,9,2.0,21,M,,M,,*5B
06/06/2014	03:07:02.261	$GPGGA,030702,2441.1010,N,08107.5710,W,1,9,2.0,21,M,,M,,*50
06/06/2014	03:07:03.341	$GPGGA,030703,2441.1011,N,08107.5712,W,1,8,1.5,21,M,,M,,*55
06/06/2014	03:07:04.320	$GPGGA,030704,2441.1010,N,08107.5711,W,1,8,1.5,21,M,,M,,*50
06/06/2014	03:07:05.278	$GPGGA,030705,2441.1011,N,08107.5712,W,1,9,1.5,21,M,,M,,*52
06/06/2014	03:07:06.370	$GPGGA,030706,2441.1012,N,08107.5712,W,1,9,1.5,21,M,,M,,*52
06/06/2014	03:07:07.452	$GPGGA,030707,2441.1010,N,08107.5712,W,1,9,1.5,21,M,,M,,*51
06/06/2014	03:07:08.441	$GPGGA,030708,2441.1011,N,08107.5711,W,1,9,1.5,21,M,,M,,*5C
06/06/2014	03:07:09.523	$GPGGA,030709,2441.1010,N,08107.5712,W,1,9,1.5,21,M,,M,,*5F
06/06/2014	03:07:10.471	$GPGGA,030710,2441.1011,N,08107.5711,W,1,9,1.5,21,M,,M,,*55
06/06/2014	03:07:11.440	$GPGGA,030711,2441.1010,N,08107.5710,W,1,9,1.5,21,M,,M,,*54
06/06/2014	03:07:12.583	$GPGGA,030712,2441.1009,N,08107.5710,W,1,9,1.5,21,M,,M,,*5F
06/06/2014	03:07:13.634	$GPGGA,030713,2441.1010,N,08107.5710,W,1,9,1.5,21,M,,M,,*56
06/06/2014	03:07:14.593	$GPGGA,030714,2441.1008,N,08107.5710,W,1,9,1.5,21,M,,M,,*58
06/06/2014	03:07:15.623	$GPGGA,030715,2441.1008,N,08107.5710,W,1,9,1.5,21,M,,M,,*59
06/06/2014	03:07:16.726	$GPGGA,030716,2441.1008,N,08107.5710,W,1,9,1.5,21,M,,M,,*5A
06/06/2014	03:07:17.756	$GPGGA,030717,2441.1008,N,08107.5710,W,1,9,1.5,21,M,,M,,*5B
06/06/2014	03:07:18.766	$GPGGA,030718,2441.1008,N,08107.5710,W,1,9,1.5,21,M,,M,,*54
06/06/2014	03:07:19.765	$GPGGA,030719,2441.1008,N,08107.5710,W,1,9,1.5,21,M,,M,,*55
06/06/2014	03:07:20.815	$GPGGA,030720,2441.1006,N,08107.5710,W,1,9,1.5,21,M,,M,,*51
06/06/2014	03:07:21.856	$GPGGA,030721,2441.1007,N,08107.5710,W,1,9,1.5,21,M,,M,,*51
06/06/2014	03:07:22.866	$GPGGA,030722,2441.1006,N,08107.5710,W,1,9,1.5,22,M,,M,,*50
06/06/2014	03:07:23.886	$GPGGA,030723,2441.1005,N,08107.5709,W,1,9,1.5,22,M,,M,,*5A
06/06/2014	03:07:24.937	$GPGGA,030724,2441.1005,N,08107.5709,W,1,9,1.5,22,M,,M,,*5D
06/06/2014	03:07:25.978	$GPGGA,030725,2441.1005,N,08107.5709,W,1,9,1.5,22,M,,M,,*5C
06/06/2014	03:07:26.967	$GPGGA,030726,2441.1005,N,08107.5709,W,1,9,1.5,22,M,,M,,*5F
06/06/2014	03:07:27.997	$GPGGA,030727,2441.1004,N,08107.5709,W,1,9,1.5,22,M,,M,,*5F
06/06/2014	03:07:29.048	$GPGGA,030728,2441.1004,N,08107.5708,W,1,9,1.5,22,M,,M,,*51
06/06/2014	03:07:30.089	$GPGGA,030729,2441.1004,N,08107.5708,W,1,9,1.5,22,M,,M,,*50
06/06/2014	03:07:31.088	$GPGGA,030730,2441.1004,N,08107.5708,W,1,9,1.5,22,M,,M,,*58
06/06/2014	03:07:32.150	$GPGGA,030731,2441.1004,N,08107.5708,W,1,9,1.5,22,M,,M,,*59
06/06/2014	03:07:33.190	$GPGGA,030732,2441.1004,N,08107.5708,W,1,9,1.5,22,M,,M,,*5A
06/06/2014	03:07:34.190	$GPGGA,030733,2441.1004,N,08107.5708,W,1,9,1.5,22,M,,M,,*5B
06/06/2014	03:07:35.210	$GPGGA,030734,2441.1003,N,08107.5708,W,1,9,1.5,22,M,,M,,*5B
06/06/2014	03:07:36.251	$GPGGA,030735,2441.1004,N,08107.5708,W,1,9,1.5,22,M,,M,,*5D
06/06/2014	03:07:35.481	$GPGGA,030736,2441.1004,N,08107.5708,W,1,9,1.5,22,M,,M,,*5E
06/06/2014	03:07:36.480	$GPGGA,030737,2441.1003,N,08107.5708,W,1,9,1.5,22,M,,M,,*58
06/06/2014	03:07:37.520	$GPGGA,030738,2441.1004,N,08107.5708,W,1,9,1.5,22,M,,M,,*50
06/06/2014	03:07:38.561	$GPGGA,030739,2441.1003,N,08107.5708,W,1,9,1.5,22,M,,M,,*56
06/06/2014	03:07:39.581	$GPGGA,030740,2441.1004,N,08107.5708,W,1,9,1.5,22,M,,M,,*5F
06/06/2014	03:07:40.601	$GPGGA,030741,2441.1003,N,08107.5708,W,1,9,1.5,22,M,,M,,*59
06/06/2014	03:07:41.611	$GPGGA,030742,2441.1003,N,08107.5708,W,1,9,1.5,22,M,,M,,*5A
06/06/2014	03:07:42.682	$GPGGA,030743,2441.1003,N,08107.5709,W,1,9,1.5,22,M,,M,,*5A
06/06/2014	03:07:43.692	$GPGGA,030744,2441.1004,N,08107.5709,W,1,9,1.5,22,M,,M,,*5A
06/06/2014	03:07:44.733	$GPGGA,030745,2441.1002,N,08107.5708,W,1,9,1.5,22,M,,M,,*5C
06/06/2014	03:07:45.742	$GPGGA,030746,2441.1002,N,08107.5708,W,1,9,1.5,22,M,,M,,*5F
06/06/2014	03:07:46.742	$GPGGA,030747,2441.1002,N,08107.5708,W,1,9,1.5,22,M,,M,,*5E
06/06/2014	03:07:47.803	$GPGGA,030748,2441.1002,N,08107.5708,W,1,9,1.5,22,M,,M,,*51
06/06/2014	03:07:48.823	$GPGGA,030749,2441.1002,N,08107.5708,W,1,9,1.5,22,M,,M,,*50
06/06/2014	03:07:49.874	$GPGGA,030750,2441.1003,N,08107.5707,W,1,9,1.5,22,M,,M,,*56
06/06/2014	03:07:50.864	$GPGGA,030751,2441.1002,N,08107.5708,W,1,9,1.5,22,M,,M,,*59
06/06/2014	03:07:51.894	$GPGGA,030752,2441.1002,N,08107.5708,W,1,9,1.5,22,M,,M,,*5A
06/06/2014	03:07:53.028	$GPGGA,030753,2441.1002,N,08107.5708,W,1,9,1.5,22,M,,M,,*5B
06/06/2014	03:07:53.955	$GPGGA,030754,2441.1003,N,08107.5707,W,1,9,1.5,22,M,,M,,*52
06/06/2014	03:07:55.077	$GPGGA,030755,2441.1002,N,08107.5706,W,1,9,1.5,22,M,,M,,*53
06/06/2014	03:07:56.015	$GPGGA,030756,2441.1002,N,08107.5706,W,1,9,1.5,22,M,,M,,*50
06/06/2014	03:07:57.024	$GPGGA,030757,2441.1002,N,08107.5706,W,1,9,1.5,22,M,,M,,*51
06/06/2014	03:07:58.065	$GPGGA,030758,2441.1001,N,08107.5705,W,1,9,1.5,22,M,,M,,*5E
06/06/2014	03:07:59.106	$GPGGA,030759,2441.1003,N,08107.5705,W,1,9,1.5,22,M,,M,,*5D
06/06/2014	03:08:00.260	$GPGGA,030800,2441.1001,N,08107.5705,W,1,9,1.5,22,M,,M,,*5C
06/06/2014	03:08:01.270	$GPGGA,030801,2441.1003,N,08107.5704,W,1,9,1.5,21,M,,M,,*5D
06/06/2014	03:08:02.176	$GPGGA,030802,2441.1003,N,08107.5704,W,1,9,1.5,21,M,,M,,*5E
06/06/2014	03:08:03.196	$GPGGA,030803,2441.1003,N,08107.5704,W,1,9,1.5,21,M,,M,,*5F
06/06/2014	03:08:04.247	$GPGGA,030804,2441.1002,N,08107.5704,W,1,9,1.5,21,M,,M,,*59
06/06/2014	03:08:05.257	$GPGGA,030805,2441.1003,N,08107.5704,W,1,9,1.5,21,M,,M,,*59
06/06/2014	03:08:06.380	$GPGGA,030806,2441.1002,N,08107.5704,W,1,9,1.5,21,M,,M,,*5B
06/06/2014	03:08:07.431	$GPGGA,030807,2441.1003,N,08107.5704,W,1,9,1.5,21,M,,M,,*5B
06/06/2014	03:08:08.462	$GPGGA,030808,2441.1001,N,08107.5703,W,1,9,1.5,21,M,,M,,*51
06/06/2014	03:08:09.502	$GPGGA,030809,2441.1001,N,08107.5704,W,1,9,1.5,21,M,,M,,*57
06/06/2014	03:08:10.523	$GPGGA,030810,2441.1001,N,08107.5703,W,1,9,1.5,21,M,,M,,*58
06/06/2014	03:08:11.553	$GPGGA,030811,2441.1001,N,08107.5704,W,1,9,1.5,21,M,,M,,*5E
06/06/2014	03:08:12.563	$GPGGA,030812,2441.1001,N,08107.5703,W,1,9,1.5,21,M,,M,,*5A
06/06/2014	03:08:13.602	$GPGGA,030813,2441.1001,N,08107.5704,W,1,9,1.5,21,M,,M,,*5C
06/06/2014	03:08:14.612	$GPGGA,030814,2441.1001,N,08107.5703,W,1,9,1.5,21,M,,M,,*5C
06/06/2014	03:08:15.653	$GPGGA,030815,2441.1001,N,08107.5702,W,1,9,1.5,21,M,,M,,*5C
06/06/2014	03:08:16.683	$GPGGA,030816,2441.1001,N,08107.5702,W,1,9,1.5,21,M,,M,,*5F
06/06/2014	03:08:17.714	$GPGGA,030817,2441.0999,N,08107.5702,W,1,9,1.5,21,M,,M,,*57
06/06/2014	03:08:18.713	$GPGGA,030818,2441.1000,N,08107.5702,W,1,9,1.5,20,M,,M,,*51
06/06/2014	03:08:19.775	$GPGGA,030819,2441.0999,N,08107.5701,W,1,9,1.5,20,M,,M,,*5B
06/06/2014	03:08:20.795	$GPGGA,030820,2441.0998,N,08107.5701,W,1,9,1.5,20,M,,M,,*50
06/06/2014	03:08:21.825	$GPGGA,030821,2441.1000,N,08107.5701,W,1,9,1.5,20,M,,M,,*58
06/06/2014	03:08:22.845	$GPGGA,030822,2441.0998,N,08107.5701,W,1,9,1.5,20,M,,M,,*52
06/06/2014	03:08:23.896	$GPGGA,030823,2441.0999,N,08107.5700,W,1,9,1.5,20,M,,M,,*53
06/06/2014	03:08:24.906	$GPGGA,030824,2441.0998,N,08107.5701,W,1,9,1.5,20,M,,M,,*54
06/06/2014	03:08:25.947	$GPGGA,030825,2441.1000,N,08107.5699,W,1,9,1.5,20,M,,M,,*5C
06/06/2014	03:08:26.946	$GPGGA,030826,2441.0998,N,08107.5699,W,1,9,1.5,20,M,,M,,*56
06/06/2014	03:08:27.978	$GPGGA,030827,2441.0999,N,08107.5699,W,1,9,1.5,20,M,,M,,*56
06/06/2014	03:08:29.038	$GPGGA,030828,2441.0998,N,08107.5698,W,1,9,1.5,20,M,,M,,*59
06/06/2014	03:08:30.068	$GPGGA,030829,2441.0999,N,08107.5698,W,1,9,1.5,20,M,,M,,*59
06/06/2014	03:08:31.068	$GPGGA,030830,2441.0998,N,08107.5698,W,1,9,1.5,20,M,,M,,*50
06/06/2014	03:08:32.118	$GPGGA,030831,2441.0999,N,08107.5698,W,1,9,1.5,20,M,,M,,*50
06/06/2014	03:08:33.127	$GPGGA,030832,2441.0998,N,08107.5698,W,1,9,1.5,20,M,,M,,*52
06/06/2014	03:08:34.158	$GPGGA,030833,2441.0999,N,08107.5698,W,1,9,1.5,20,M,,M,,*52
06/06/2014	03:08:35.178	$GPGGA,030834,2441.0998,N,08107.5697,W,1,9,1.5,20,M,,M,,*5B
06/06/2014	03:08:36.229	$GPGGA,030835,2441.0999,N,08107.5698,W,1,9,1.5,20,M,,M,,*54
06/06/2014	03:08:35.428	$GPGGA,030836,2441.0998,N,08107.5698,W,1,9,1.5,20,M,,M,,*56
06/06/2014	03:08:36.428	$GPGGA,030837,2441.0999,N,08107.5697,W,1,9,1.5,19,M,,M,,*53
06/06/2014	03:08:37.479	$GPGGA,030838,2441.0998,N,08107.5697,W,1,9,1.5,19,M,,M,,*5D
06/06/2014	03:08:38.509	$GPGGA,030839,2441.0999,N,08107.5697,W,1,9,1.5,19,M,,M,,*5D
06/06/2014	03:08:39.653	$GPGGA,030840,2441.0998,N,08107.5697,W,1,9,1.5,19,M,,M,,*52
06/06/2014	03:08:40.549	$GPGGA,030841,2441.1000,N,08107.5697,W,1,9,1.5,19,M,,M,,*5A
06/06/2014	03:08:41.672	$GPGGA,030842,2441.0998,N,08107.5697,W,1,9,1.5,19,M,,M,,*50
06/06/2014	03:08:42.620	$GPGGA,030843,2441.0999,N,08107.5696,W,1,9,1.5,19,M,,M,,*51
06/06/2014	03:08:43.775	$GPGGA,030844,2441.1000,N,08107.5697,W,1,9,1.5,19,M,,M,,*5F
06/06/2014	03:08:44.662	$GPGGA,030845,2441.0998,N,08107.5697,W,1,9,1.5,19,M,,M,,*57
06/06/2014	03:08:45.784	$GPGGA,030846,2441.0999,N,08107.5696,W,1,9,1.5,19,M,,M,,*54
06/06/2014	03:08:46.732	$GPGGA,030847,2441.0998,N,08107.5697,W,1,9,1.5,19,M,,M,,*55
06/06/2014	03:08:47.854	$GPGGA,030848,2441.0999,N,08107.5696,W,1,9,1.5,19,M,,M,,*5A
06/06/2014	03:08:48.791	$GPGGA,030849,2441.0998,N,08107.5697,W,1,9,1.5,19,M,,M,,*5B
06/06/2014	03:08:49.904	$GPGGA,030850,2441.0999,N,08107.5696,W,1,9,1.5,19,M,,M,,*53
06/06/2014	03:08:50.852	$GPGGA,030851,2441.0998,N,08107.5697,W,1,9,1.5,19,M,,M,,*52
06/06/2014	03:08:51.975	$GPGGA,030852,2441.0997,N,08107.5696,W,1,9,1.5,19,M,,M,,*5F
06/06/2014	03:08:52.892	$GPGGA,030853,2441.0999,N,08107.5697,W,1,9,1.5,19,M,,M,,*51
06/06/2014	03:08:54.016	$GPGGA,030854,2441.0998,N,08107.5697,W,1,9,1.5,19,M,,M,,*57
06/06/2014	03:08:55.067	$GPGGA,030855,2441.0999,N,08107.5697,W,1,9,1.5,19,M,,M,,*57
06/06/2014	03:08:56.097	$GPGGA,030856,2441.0998,N,08107.5697,W,1,9,1.5,18,M,,M,,*54
06/06/2014	03:08:57.107	$GPGGA,030857,2441.0999,N,08107.5698,W,1,9,1.5,18,M,,M,,*5B
06/06/2014	03:08:58.127	$GPGGA,030858,2441.0998,N,08107.5698,W,1,9,1.5,18,M,,M,,*55
06/06/2014	03:08:59.178	$GPGGA,030859,2441.0999,N,08107.5698,W,1,9,1.5,18,M,,M,,*55
06/06/2014	03:09:00.219	$GPGGA,030900,2441.0998,N,08107.5698,W,1,9,1.5,18,M,,M,,*59
06/06/2014	03:09:01.208	$GPGGA,030901,2441.0999,N,08107.5699,W,1,9,1.5,18,M,,M,,*58
06/06/2014	03:09:02.248	$GPGGA,030902,2441.0998,N,08107.5699,W,1,9,1.5,18,M,,M,,*5A
06/06/2014	03:09:03.299	$GPGGA,030903,2441.1000,N,08107.5699,W,1,9,1.5,18,M,,M,,*52
06/06/2014	03:09:04.320	$GPGGA,030904,2441.0999,N,08107.5699,W,1,9,1.5,18,M,,M,,*5D
06/06/2014	03:09:05.328	$GPGGA,030905,2441.0998,N,08107.5698,W,1,9,1.5,18,M,,M,,*5C
06/06/2014	03:09:06.359	$GPGGA,030906,2441.0999,N,08107.5699,W,1,9,2.0,18,M,,M,,*59
06/06/2014	03:09:07.399	$GPGGA,030907,2441.0998,N,08107.5698,W,1,9,1.5,18,M,,M,,*5E
06/06/2014	03:09:08.430	$GPGGA,030908,2441.0999,N,08107.5698,W,1,9,2.0,18,M,,M,,*56
06/06/2014	03:09:09.460	$GPGGA,030909,2441.0997,N,08107.5697,W,1,8,2.0,18,M,,M,,*57
06/06/2014	03:09:10.470	$GPGGA,030910,2441.0997,N,08107.5697,W,1,8,2.0,18,M,,M,,*5F
06/06/2014	03:09:11.531	$GPGGA,030911,2441.0999,N,08107.5697,W,1,8,2.0,18,M,,M,,*50
06/06/2014	03:09:12.551	$GPGGA,030912,2441.0997,N,08107.5696,W,1,8,1.5,18,M,,M,,*5A
06/06/2014	03:09:13.561	$GPGGA,030913,2441.0997,N,08107.5697,W,1,8,2.0,18,M,,M,,*5C
06/06/2014	03:09:14.582	$GPGGA,030914,2441.0995,N,08107.5694,W,1,8,2.0,18,M,,M,,*5A
06/06/2014	03:09:15.653	$GPGGA,030915,2441.0994,N,08107.5693,W,1,9,1.5,18,M,,M,,*5A
06/06/2014	03:09:16.652	$GPGGA,030916,2441.0994,N,08107.5692,W,1,9,1.5,18,M,,M,,*58
06/06/2014	03:09:17.703	$GPGGA,030917,2441.0993,N,08107.5693,W,1,9,1.5,18,M,,M,,*5F
06/06/2014	03:09:18.693	$GPGGA,030918,2441.0994,N,08107.5692,W,1,9,1.5,18,M,,M,,*56
06/06/2014	03:09:19.745	$GPGGA,030919,2441.0993,N,08107.5691,W,1,9,1.5,18,M,,M,,*53
06/06/2014	03:09:20.774	$GPGGA,030920,2441.0993,N,08107.5691,W,1,9,1.5,18,M,,M,,*59
06/06/2014	03:09:21.804	$GPGGA,030921,2441.0993,N,08107.5691,W,1,9,1.5,18,M,,M,,*58
06/06/2014	03:09:22.804	$GPGGA,030922,2441.0993,N,08107.5691,W,1,9,1.5,18,M,,M,,*5B
06/06/2014	03:09:23.854	$GPGGA,030923,2441.0993,N,08107.5691,W,1,9,1.5,18,M,,M,,*5A
06/06/2014	03:09:24.874	$GPGGA,030924,2441.0993,N,08107.5691,W,1,9,1.5,19,M,,M,,*5C
06/06/2014	03:09:25.904	$GPGGA,030925,2441.0993,N,08107.5691,W,1,9,1.5,19,M,,M,,*5D
06/06/2014	03:09:26.935	$GPGGA,030926,2441.0992,N,08107.5691,W,1,9,1.5,19,M,,M,,*5F
06/06/2014	03:09:27.945	$GPGGA,030927,2441.0993,N,08107.5691,W,1,9,1.5,19,M,,M,,*5F
06/06/2014	03:09:29.583	$GPGGA,030928,2441.0992,N,08107.5691,W,1,9,1.5,19,M,,M,,*51
06/06/2014	03:09:30.026	$GPGGA,030929,2441.0993,N,08107.5691,W,1,9,1.5,19,M,,M,,*51
06/06/2014	03:09:31.025	$GPGGA,030930,2441.0992,N,08107.5691,W,1,9,1.5,19,M,,M,,*58
06/06/2014	03:09:32.066	$GPGGA,030931,2441.0993,N,08107.5691,W,1,9,1.5,19,M,,M,,*58
06/06/2014	03:09:33.128	$GPGGA,030932,2441.0992,N,08107.5691,W,1,9,1.5,19,M,,M,,*5A
06/06/2014	03:09:34.220	$GPGGA,030933,2441.0993,N,08107.5691,W,1,9,1.5,19,M,,M,,*5A
06/06/2014	03:09:35.157	$GPGGA,030934,2441.0993,N,08107.5691,W,1,9,1.5,19,M,,M,,*5D
06/06/2014	03:09:36.311	$GPGGA,030935,2441.0993,N,08107.5691,W,1,8,2.0,19,M,,M,,*5B
06/06/2014	03:09:35.406	$GPGGA,030936,2441.0993,N,08107.5693,W,1,8,2.0,20,M,,M,,*50
06/06/2014	03:09:36.427	$GPGGA,030937,2441.0993,N,08107.5691,W,1,8,2.0,20,M,,M,,*53
06/06/2014	03:09:37.550	$GPGGA,030938,2441.0993,N,08107.5693,W,1,8,1.5,20,M,,M,,*58
06/06/2014	03:09:38.477	$GPGGA,030939,2441.0993,N,08107.5692,W,1,9,1.5,20,M,,M,,*59
06/06/2014	03:09:39.609	$GPGGA,030940,2441.0994,N,08107.5694,W,1,9,1.5,20,M,,M,,*56
06/06/2014	03:09:40.640	$GPGGA,030941,2441.0994,N,08107.5693,W,1,9,1.5,20,M,,M,,*50
06/06/2014	03:09:41.650	$GPGGA,030942,2441.0994,N,08107.5694,W,1,9,1.5,20,M,,M,,*54
06/06/2014	03:09:42.690	$GPGGA,030943,2441.0994,N,08107.5693,W,1,9,1.5,20,M,,M,,*52
06/06/2014	03:09:43.731	$GPGGA,030944,2441.0996,N,08107.5694,W,1,9,1.5,20,M,,M,,*50
06/06/2014	03:09:44.731	$GPGGA,030945,2441.0995,N,08107.5693,W,1,9,1.5,20,M,,M,,*55
06/06/2014	03:09:45.761	$GPGGA,030946,2441.0996,N,08107.5694,W,1,9,1.5,20,M,,M,,*52
06/06/2014	03:09:46.812	$GPGGA,030947,2441.0995,N,08107.5694,W,1,9,1.5,20,M,,M,,*50
06/06/2014	03:09:47.832	$GPGGA,030948,2441.0996,N,08107.5694,W,1,9,1.5,20,M,,M,,*5C
06/06/2014	03:09:48.842	$GPGGA,030949,2441.0997,N,08107.5695,W,1,9,1.5,20,M,,M,,*5D
06/06/2014	03:09:49.872	$GPGGA,030950,2441.0997,N,08107.5695,W,1,9,1.5,20,M,,M,,*55
06/06/2014	03:09:50.913	$GPGGA,030951,2441.0997,N,08107.5695,W,1,9,1.5,20,M,,M,,*54
06/06/2014	03:09:51.964	$GPGGA,030952,2441.0997,N,08107.5695,W,1,9,1.5,20,M,,M,,*57
06/06/2014	03:09:52.984	$GPGGA,030953,2441.0997,N,08107.5695,W,1,9,1.5,20,M,,M,,*56
06/06/2014	03:09:54.004	$GPGGA,030954,2441.0999,N,08107.5695,W,1,9,1.5,20,M,,M,,*5F
06/06/2014	03:09:55.035	$GPGGA,030955,2441.0998,N,08107.5695,W,1,9,1.5,20,M,,M,,*5F
06/06/2014	03:09:56.065	$GPGGA,030956,2441.0999,N,08107.5695,W,1,9,1.5,20,M,,M,,*5D
06/06/2014	03:09:57.106	$GPGGA,030957,2441.0998,N,08107.5697,W,1,9,1.5,20,M,,M,,*5F
06/06/2014	03:09:58.106	$GPGGA,030958,2441.0999,N,08107.5695,W,1,9,1.5,20,M,,M,,*53
06/06/2014	03:09:59.124	$GPGGA,030959,2441.1000,N,08107.5697,W,1,9,1.5,20,M,,M,,*58
06/06/2014	03:10:00.175	$GPGGA,031000,2441.0998,N,08107.5696,W,1,9,1.5,20,M,,M,,*54
06/06/2014	03:10:01.216	$GPGGA,031001,2441.0999,N,08107.5697,W,1,9,1.5,20,M,,M,,*55
06/06/2014	03:10:02.226	$GPGGA,031002,2441.0998,N,08107.5697,W,1,9,1.5,20,M,,M,,*57
06/06/2014	03:10:03.246	$GPGGA,031003,2441.0999,N,08107.5697,W,1,9,1.5,20,M,,M,,*57
06/06/2014	03:10:04.287	$GPGGA,031004,2441.0997,N,08107.5697,W,1,9,1.5,20,M,,M,,*5E
06/06/2014	03:10:05.317	$GPGGA,031005,2441.0997,N,08107.5697,W,1,9,1.5,20,M,,M,,*5F
06/06/2014	03:10:06.337	$GPGGA,031006,2441.0997,N,08107.5698,W,1,9,1.5,20,M,,M,,*53
06/06/2014	03:10:07.367	$GPGGA,031007,2441.0997,N,08107.5697,W,1,9,1.5,20,M,,M,,*5D
06/06/2014	03:10:08.408	$GPGGA,031008,2441.0997,N,08107.5698,W,1,9,1.5,20,M,,M,,*5D
06/06/2014	03:10:09.542	$GPGGA,031009,2441.0997,N,08107.5698,W,1,9,1.5,20,M,,M,,*5C
06/06/2014	03:10:10.459	$GPGGA,031010,2441.0995,N,08107.5698,W,1,9,1.5,20,M,,M,,*56
06/06/2014	03:10:11.593	$GPGGA,031011,2441.0994,N,08107.5698,W,1,9,1.5,20,M,,M,,*56
06/06/2014	03:10:12.519	$GPGGA,031012,2441.0994,N,08107.5698,W,1,9,1.5,20,M,,M,,*55
06/06/2014	03:10:13.560	$GPGGA,031013,2441.0994,N,08107.5698,W,1,9,1.5,20,M,,M,,*54
06/06/2014	03:10:14.571	$GPGGA,031014,2441.0993,N,08107.5697,W,1,9,1.5,20,M,,M,,*5B
06/06/2014	03:10:15.589	$GPGGA,031015,2441.0992,N,08107.5698,W,1,8,2.0,20,M,,M,,*53
06/06/2014	03:10:16.640	$GPGGA,031016,2441.0993,N,08107.5698,W,1,8,2.0,20,M,,M,,*51
06/06/2014	03:10:17.650	$GPGGA,031017,2441.0991,N,08107.5698,W,1,8,2.0,20,M,,M,,*52
06/06/2014	03:10:18.773	$GPGGA,031018,2441.0992,N,08107.5698,W,1,8,2.0,20,M,,M,,*5E
06/06/2014	03:10:19.834	$GPGGA,031019,2441.0990,N,08107.5696,W,1,8,2.0,20,M,,M,,*53
06/06/2014	03:10:20.751	$GPGGA,031020,2441.0990,N,08107.5697,W,1,8,1.5,20,M,,M,,*5E
06/06/2014	03:10:21.761	$GPGGA,031021,2441.0988,N,08107.5696,W,1,9,1.5,20,M,,M,,*56
06/06/2014	03:10:22.874	$GPGGA,031022,2441.0989,N,08107.5697,W,1,9,1.5,20,M,,M,,*55
06/06/2014	03:10:23.801	$GPGGA,031023,2441.0988,N,08107.5698,W,1,9,1.5,21,M,,M,,*5B
06/06/2014	03:10:24.945	$GPGGA,031024,2441.0989,N,08107.5698,W,1,9,1.5,21,M,,M,,*5D
06/06/2014	03:10:25.996	$GPGGA,031025,2441.0988,N,08107.5699,W,1,9,1.5,21,M,,M,,*5C
06/06/2014	03:10:26.913	$GPGGA,031026,2441.0989,N,08107.5699,W,1,9,1.5,21,M,,M,,*5E
06/06/2014	03:10:27.923	$GPGGA,031027,2441.0988,N,08107.5701,W,1,9,1.5,21,M,,M,,*5E
06/06/2014	03:10:29.056	$GPGGA,031028,2441.0989,N,08107.5701,W,1,9,1.5,21,M,,M,,*50
06/06/2014	03:10:30.097	$GPGGA,031029,2441.0987,N,08107.5701,W,1,9,1.5,21,M,,M,,*5F
06/06/2014	03:10:31.127	$GPGGA,031030,2441.0988,N,08107.5701,W,1,9,1.5,21,M,,M,,*58
06/06/2014	03:10:32.141	$GPGGA,031031,2441.0987,N,08107.5701,W,1,9,1.5,21,M,,M,,*56
06/06/2014	03:10:33.152	$GPGGA,031032,2441.0986,N,08107.5701,W,1,9,1.5,21,M,,M,,*54
06/06/2014	03:10:34.195	$GPGGA,031033,2441.0985,N,08107.5702,W,1,9,1.5,21,M,,M,,*55
06/06/2014	03:10:36.514	$GPGGA,031035,2441.0985,N,08107.5702,W,1,9,1.5,21,M,,M,,*53
06/06/2014	03:10:35.469	$GPGGA,031036,2441.0984,N,08107.5704,W,1,9,1.5,21,M,,M,,*57
06/06/2014	03:10:36.462	$GPGGA,031037,2441.0985,N,08107.5702,W,1,9,1.5,21,M,,M,,*51
06/06/2014	03:10:37.474	$GPGGA,031038,2441.0983,N,08107.5704,W,1,9,1.5,21,M,,M,,*5E
06/06/2014	03:10:38.497	$GPGGA,031039,2441.0983,N,08107.5703,W,1,9,1.5,21,M,,M,,*58
06/06/2014	03:10:39.510	$GPGGA,031040,2441.0983,N,08107.5704,W,1,9,1.5,21,M,,M,,*51
06/06/2014	03:10:40.532	$GPGGA,031041,2441.0983,N,08107.5704,W,1,9,1.5,21,M,,M,,*50
06/06/2014	03:10:41.504	$GPGGA,031042,2441.0983,N,08107.5704,W,1,9,1.5,21,M,,M,,*53
06/06/2014	03:10:42.547	$GPGGA,031043,2441.0983,N,08107.5704,W,1,9,1.5,22,M,,M,,*51
06/06/2014	03:10:43.540	$GPGGA,031044,2441.0983,N,08107.5705,W,1,9,1.5,22,M,,M,,*57
06/06/2014	03:10:44.573	$GPGGA,031045,2441.0981,N,08107.5705,W,1,9,1.5,22,M,,M,,*54
06/06/2014	03:10:45.565	$GPGGA,031046,2441.0982,N,08107.5705,W,1,9,1.5,22,M,,M,,*54
06/06/2014	03:10:46.588	$GPGGA,031047,2441.0979,N,08107.5706,W,1,9,1.5,22,M,,M,,*52
06/06/2014	03:10:47.590	$GPGGA,031048,2441.0982,N,08107.5706,W,1,9,2.0,22,M,,M,,*5F
06/06/2014	03:10:48.603	$GPGGA,031049,2441.0979,N,08107.5706,W,1,9,1.5,22,M,,M,,*5C
06/06/2014	03:10:49.594	$GPGGA,031050,2441.0981,N,08107.5706,W,1,9,2.0,22,M,,M,,*55
06/06/2014	03:10:50.657	$GPGGA,031051,2441.0980,N,08107.5706,W,1,9,1.5,22,M,,M,,*53
06/06/2014	03:10:51.629	$GPGGA,031052,2441.0979,N,08107.5706,W,1,9,1.5,22,M,,M,,*56
06/06/2014	03:10:52.622	$GPGGA,031053,2441.0979,N,08107.5708,W,1,9,1.5,22,M,,M,,*59
06/06/2014	03:10:53.665	$GPGGA,031054,2441.0981,N,08107.5706,W,1,9,1.5,22,M,,M,,*57
06/06/2014	03:10:54.667	$GPGGA,031055,2441.0980,N,08107.5706,W,1,9,1.5,22,M,,M,,*57
06/06/2014	03:10:55.680	$GPGGA,031056,2441.0981,N,08107.5708,W,1,9,1.5,22,M,,M,,*5B
06/06/2014	03:10:56.713	$GPGGA,031057,2441.0980,N,08107.5707,W,1,9,1.5,22,M,,M,,*54
06/06/2014	03:10:57.685	$GPGGA,031058,2441.0982,N,08107.5708,W,1,9,1.5,22,M,,M,,*56
06/06/2014	03:10:58.708	$GPGGA,031059,2441.0979,N,08107.5707,W,1,9,1.5,22,M,,M,,*5C
06/06/2014	03:10:59.720	$GPGGA,031100,2441.0979,N,08107.5708,W,1,9,2.0,22,M,,M,,*58
06/06/2014	03:11:00.734	$GPGGA,031101,2441.0977,N,08107.5708,W,1,8,2.0,22,M,,M,,*56
06/06/2014	03:11:01.725	$GPGGA,031102,2441.0976,N,08107.5708,W,1,8,2.0,22,M,,M,,*54
06/06/2014	03:11:02.748	$GPGGA,031103,2441.0976,N,08107.5708,W,1,8,2.0,22,M,,M,,*55
06/06/2014	03:11:03.872	$GPGGA,031104,2441.0974,N,08107.5708,W,1,8,1.5,22,M,,M,,*56
06/06/2014	03:11:04.753	$GPGGA,031105,2441.0973,N,08107.5708,W,1,9,1.5,22,M,,M,,*51
06/06/2014	03:11:05.765	$GPGGA,031106,2441.0974,N,08107.5708,W,1,9,1.5,22,M,,M,,*55
06/06/2014	03:11:06.778	$GPGGA,031107,2441.0973,N,08107.5708,W,1,9,1.5,22,M,,M,,*53
06/06/2014	03:11:07.810	$GPGGA,031108,2441.0972,N,08107.5708,W,1,9,2.0,21,M,,M,,*58
06/06/2014	03:11:08.792	$GPGGA,031109,2441.0972,N,08107.5708,W,1,9,1.5,21,M,,M,,*5F
06/06/2014	03:11:09.916	$GPGGA,031110,2441.0972,N,08107.5708,W,1,9,2.0,21,M,,M,,*51
06/06/2014	03:11:10.939	$GPGGA,031111,2441.0972,N,08107.5707,W,1,8,1.5,21,M,,M,,*58
06/06/2014	03:11:11.850	$GPGGA,031112,2441.0972,N,08107.5708,W,1,8,1.5,21,M,,M,,*54
06/06/2014	03:11:12.852	$GPGGA,031113,2441.0972,N,08107.5707,W,1,9,1.5,21,M,,M,,*5B
06/06/2014	03:11:13.976	$GPGGA,031114,2441.0972,N,08107.5708,W,1,9,2.0,21,M,,M,,*55
06/06/2014	03:11:14.868	$GPGGA,031115,2441.0970,N,08107.5707,W,1,8,2.0,21,M,,M,,*58
06/06/2014	03:11:15.880	$GPGGA,031116,2441.0971,N,08107.5708,W,1,8,2.0,21,M,,M,,*55
06/06/2014	03:11:16.994	$GPGGA,031117,2441.0969,N,08107.5707,W,1,8,1.5,21,M,,M,,*54
06/06/2014	03:11:17.986	$GPGGA,031118,2441.0970,N,08107.5708,W,1,8,2.0,21,M,,M,,*5A
06/06/2014	03:11:18.999	$GPGGA,031119,2441.0967,N,08107.5708,W,1,8,2.1,20,M,,M,,*5D
06/06/2014	03:11:20.062	$GPGGA,031120,2441.0965,N,08107.5709,W,1,8,2.0,20,M,,M,,*55
06/06/2014	03:11:21.044	$GPGGA,031121,2441.0963,N,08107.5709,W,1,8,2.0,20,M,,M,,*52
06/06/2014	03:11:22.037	$GPGGA,031122,2441.0964,N,08107.5710,W,1,8,2.0,20,M,,M,,*5E
06/06/2014	03:11:23.050	$GPGGA,031123,2441.0962,N,08107.5710,W,1,8,2.0,20,M,,M,,*59
06/06/2014	03:11:24.082	$GPGGA,031124,2441.0963,N,08107.5709,W,1,8,2.0,20,M,,M,,*57
06/06/2014	03:11:25.085	$GPGGA,031125,2441.0961,N,08107.5710,W,1,8,2.0,20,M,,M,,*5C
06/06/2014	03:11:26.076	$GPGGA,031126,2441.0961,N,08107.5710,W,1,8,2.0,20,M,,M,,*5F
06/06/2014	03:11:27.109	$GPGGA,031127,2441.0961,N,08107.5710,W,1,8,2.0,20,M,,M,,*5E
06/06/2014	03:11:28.111	$GPGGA,031128,2441.0961,N,08107.5710,W,1,8,1.5,20,M,,M,,*57
06/06/2014	03:11:29.144	$GPGGA,031129,2441.0964,N,08107.5709,W,1,9,2.0,19,M,,M,,*56
06/06/2014	03:11:30.126	$GPGGA,031130,2441.0963,N,08107.5708,W,1,9,2.0,19,M,,M,,*58
06/06/2014	03:11:31.159	$GPGGA,031131,2441.0965,N,08107.5708,W,1,8,2.0,19,M,,M,,*5E
06/06/2014	03:11:32.172	$GPGGA,031132,2441.0965,N,08107.5706,W,1,8,1.5,19,M,,M,,*55
06/06/2014	03:11:33.174	$GPGGA,031133,2441.0967,N,08107.5708,W,1,9,1.5,19,M,,M,,*59
06/06/2014	03:11:34.167	$GPGGA,031134,2441.0968,N,08107.5707,W,1,9,1.5,19,M,,M,,*5E
06/06/2014	03:11:35.220	$GPGGA,031135,2441.0968,N,08107.5708,W,1,9,1.5,19,M,,M,,*50
06/06/2014	03:11:35.439	$GPGGA,031136,2441.0970,N,08107.5706,W,1,9,1.5,19,M,,M,,*54
06/06/2014	03:11:36.461	$GPGGA,031137,2441.0971,N,08107.5705,W,1,9,1.5,19,M,,M,,*57
06/06/2014	03:11:37.464	$GPGGA,031138,2441.0970,N,08107.5704,W,1,9,1.5,19,M,,M,,*58
06/06/2014	03:11:38.477	$GPGGA,031139,2441.0972,N,08107.5703,W,1,9,1.5,19,M,,M,,*5C
06/06/2014	03:11:39.479	$GPGGA,031140,2441.0972,N,08107.5702,W,1,9,2.0,20,M,,M,,*5F
06/06/2014	03:11:40.492	$GPGGA,031141,2441.0974,N,08107.5702,W,1,8,2.0,20,M,,M,,*59
06/06/2014	03:11:41.484	$GPGGA,031142,2441.0972,N,08107.5701,W,1,8,1.5,20,M,,M,,*59
06/06/2014	03:11:42.526	$GPGGA,031143,2441.0974,N,08107.5701,W,1,9,2.0,20,M,,M,,*59
06/06/2014	03:11:43.528	$GPGGA,031144,2441.0973,N,08107.5701,W,1,9,1.5,20,M,,M,,*5F
06/06/2014	03:11:44.511	$GPGGA,031145,2441.0975,N,08107.5701,W,1,9,1.5,20,M,,M,,*58
06/06/2014	03:11:45.554	$GPGGA,031146,2441.0975,N,08107.5702,W,1,9,1.5,20,M,,M,,*58
06/06/2014	03:11:46.576	$GPGGA,031147,2441.0976,N,08107.5704,W,1,9,1.5,20,M,,M,,*5C
06/06/2014	03:11:47.599	$GPGGA,031148,2441.0978,N,08107.5703,W,1,9,1.5,20,M,,M,,*5A
06/06/2014	03:11:48.581	$GPGGA,031149,2441.0979,N,08107.5704,W,1,9,1.8,20,M,,M,,*50
06/06/2014	03:11:49.574	$GPGGA,031150,2441.0979,N,08107.5703,W,1,9,1.5,20,M,,M,,*52
06/06/2014	03:11:50.606	$GPGGA,031151,2441.0979,N,08107.5704,W,1,9,1.5,20,M,,M,,*54
