Software Version Number: 1	Data File Format Number: 1	Build Version Number: 1	Error Count Since VI Started: 0	Manufacturer: Raytheon	 Model Number: RayMarine 120	 S/N: 	 Cal Date: 	 Wind Direction Offset: 0.00	 Slope (M)1: 0.00	 Offset (B)1: 0.00	 Slope (M)2: 0.00	 Offset (B)2: 0.00	 Slope (M)3: 0.00	 Offset (B)3: 0.00	 Slope (M)4: 0.00	 Offset (B)4: 0.00	 Slope (M)5: 0.00	 Offset (B)5: 0.00	 Slope (M)6: 0.00	 Offset (B)6: 0.00
Computer Date	Computer Time	GGA String
06/13/2014	04:00:00.614	$GPGGA,040001,2510.4693,N,08006.9805,W,1,8,1.9,14,M,,M,,*54
06/13/2014	04:00:01.611	$GPGGA,040002,2510.4686,N,08006.9809,W,1,8,1.9,14,M,,M,,*5F
06/13/2014	04:00:02.688	$GPGGA,040003,2510.4679,N,08006.9813,W,1,8,1.9,14,M,,M,,*55
06/13/2014	04:00:03.604	$GPGGA,040004,2510.4672,N,08006.9816,W,1,8,1.9,14,M,,M,,*5C
06/13/2014	04:00:04.626	$GPGGA,040005,2510.4665,N,08006.9820,W,1,8,1.9,15,M,,M,,*5F
06/13/2014	04:00:05.599	$GPGGA,040006,2510.4658,N,08006.9826,W,1,8,1.9,15,M,,M,,*54
06/13/2014	04:00:06.621	$GPGGA,040007,2510.4650,N,08006.9828,W,1,9,1.9,15,M,,M,,*52
06/13/2014	04:00:07.634	$GPGGA,040008,2510.4642,N,08006.9831,W,1,9,1.9,15,M,,M,,*56
06/13/2014	04:00:08.616	$GPGGA,040009,2510.4635,N,08006.9835,W,1,8,1.9,15,M,,M,,*52
06/13/2014	04:00:09.602	$GPGGA,040010,2510.4628,N,08006.9841,W,1,8,1.9,15,M,,M,,*55
06/13/2014	04:00:10.600	$GPGGA,040011,2510.4621,N,08006.9842,W,1,9,1.9,15,M,,M,,*5F
06/13/2014	04:00:11.614	$GPGGA,040012,2510.4613,N,08006.9846,W,1,9,1.9,15,M,,M,,*59
06/13/2014	04:00:12.616	$GPGGA,040013,2510.4606,N,08006.9852,W,1,8,1.9,15,M,,M,,*58
06/13/2014	04:00:13.598	$GPGGA,040014,2510.4600,N,08006.9856,W,1,8,1.9,15,M,,M,,*5D
06/13/2014	04:00:14.622	$GPGGA,040015,2510.4593,N,08006.9860,W,1,9,1.9,15,M,,M,,*51
06/13/2014	04:00:15.623	$GPGGA,040016,2510.4587,N,08006.9866,W,1,9,1.9,15,M,,M,,*51
06/13/2014	04:00:16.627	$GPGGA,040017,2510.4581,N,08006.9870,W,1,9,1.9,15,M,,M,,*51
06/13/2014	04:00:17.598	$GPGGA,040018,2510.4575,N,08006.9875,W,1,9,1.9,15,M,,M,,*50
06/13/2014	04:00:18.610	$GPGGA,040019,2510.4570,N,08006.9879,W,1,9,1.9,14,M,,M,,*59
06/13/2014	04:00:19.623	$GPGGA,040020,2510.4563,N,08006.9884,W,1,9,1.9,14,M,,M,,*53
06/13/2014	04:00:20.625	$GPGGA,040021,2510.4558,N,08006.9888,W,1,9,1.9,14,M,,M,,*56
06/13/2014	04:00:21.608	$GPGGA,040022,2510.4552,N,08006.9893,W,1,9,2.1,14,M,,M,,*5E
06/13/2014	04:00:22.610	$GPGGA,040023,2510.4545,N,08006.9897,W,1,8,2.1,14,M,,M,,*5C
06/13/2014	04:00:23.623	$GPGGA,040024,2510.4538,N,08006.9902,W,1,8,2.1,14,M,,M,,*5C
06/13/2014	04:00:24.615	$GPGGA,040025,2510.4534,N,08006.9908,W,1,8,2.1,14,M,,M,,*5B
06/13/2014	04:00:25.598	$GPGGA,040026,2510.4528,N,08006.9913,W,1,8,1.9,14,M,,M,,*54
06/13/2014	04:00:26.643	$GPGGA,040027,2510.4523,N,08006.9917,W,1,9,1.9,14,M,,M,,*5B
06/13/2014	04:00:27.623	$GPGGA,040028,2510.4517,N,08006.9921,W,1,9,2.1,14,M,,M,,*5D
06/13/2014	04:00:28.634	$GPGGA,040029,2510.4510,N,08006.9925,W,1,8,2.1,14,M,,M,,*5E
06/13/2014	04:00:29.617	$GPGGA,040030,2510.4505,N,08006.9929,W,1,8,1.9,14,M,,M,,*55
06/13/2014	04:00:30.639	$GPGGA,040031,2510.4498,N,08006.9935,W,1,9,2.1,14,M,,M,,*56
06/13/2014	04:00:31.622	$GPGGA,040032,2510.4491,N,08006.9940,W,1,9,2.1,14,M,,M,,*5E
06/13/2014	04:00:32.634	$GPGGA,040033,2510.4484,N,08006.9944,W,1,8,2.1,14,M,,M,,*5E
06/13/2014	04:00:33.607	$GPGGA,040034,2510.4480,N,08006.9949,W,1,8,1.9,14,M,,M,,*5B
06/13/2014	04:00:34.599	$GPGGA,040035,2510.4473,N,08006.9953,W,1,9,1.9,14,M,,M,,*5C
06/13/2014	04:00:35.632	$GPGGA,040036,2510.4466,N,08006.9958,W,1,9,2.1,14,M,,M,,*5B
06/13/2014	04:00:36.604	$GPGGA,040037,2510.4458,N,08006.9961,W,1,8,2.1,14,M,,M,,*5C
06/13/2014	04:00:37.717	$GPGGA,040038,2510.4451,N,08006.9965,W,1,8,2.1,14,M,,M,,*5E
06/13/2014	04:00:38.629	$GPGGA,040039,2510.4444,N,08006.9971,W,1,9,2.1,14,M,,M,,*5F
06/13/2014	04:00:39.632	$GPGGA,040040,2510.4437,N,08006.9976,W,1,9,2.1,14,M,,M,,*52
06/13/2014	04:00:40.614	$GPGGA,040041,2510.4429,N,08006.9979,W,1,8,2.1,14,M,,M,,*52
06/13/2014	04:00:41.717	$GPGGA,040042,2510.4422,N,08006.9985,W,1,8,2.1,14,M,,M,,*59
06/13/2014	04:00:42.719	$GPGGA,040043,2510.4417,N,08006.9990,W,1,8,1.9,14,M,,M,,*51
06/13/2014	04:00:43.722	$GPGGA,040044,2510.4411,N,08006.9996,W,1,8,1.9,14,M,,M,,*56
06/13/2014	04:00:44.624	$GPGGA,040045,2510.4404,N,08006.9998,W,1,9,1.9,14,M,,M,,*5C
06/13/2014	04:00:45.706	$GPGGA,040046,2510.4397,N,08007.0004,W,1,9,1.9,14,M,,M,,*56
06/13/2014	04:00:46.580	$GPGGA,040047,2510.4393,N,08007.0011,W,1,9,1.9,14,M,,M,,*57
06/13/2014	04:00:47.573	$GPGGA,040048,2510.4386,N,08007.0014,W,1,9,1.9,14,M,,M,,*59
06/13/2014	04:00:48.586	$GPGGA,040049,2510.4377,N,08007.0018,W,1,9,1.9,14,M,,M,,*5A
06/13/2014	04:00:49.643	$GPGGA,040050,2510.4371,N,08007.0025,W,1,9,2.1,14,M,,M,,*51
06/13/2014	04:00:50.735	$GPGGA,040051,2510.4363,N,08007.0029,W,1,8,2.1,14,M,,M,,*5E
06/13/2014	04:00:51.816	$GPGGA,040052,2510.4355,N,08007.0033,W,1,8,2.1,14,M,,M,,*53
06/13/2014	04:00:52.928	$GPGGA,040053,2510.4348,N,08007.0037,W,1,8,2.1,14,M,,M,,*5A
06/13/2014	04:00:53.991	$GPGGA,040054,2510.4341,N,08007.0044,W,1,8,2.1,14,M,,M,,*50
06/13/2014	04:00:55.082	$GPGGA,040055,2510.4333,N,08007.0048,W,1,8,2.1,14,M,,M,,*58
06/13/2014	04:00:56.167	$GPGGA,040056,2510.4328,N,08007.0052,W,1,8,1.9,14,M,,M,,*51
06/13/2014	04:00:57.217	$GPGGA,040057,2510.4319,N,08007.0058,W,1,9,1.9,14,M,,M,,*59
06/13/2014	04:00:58.319	$GPGGA,040058,2510.4314,N,08007.0063,W,1,9,2.1,14,M,,M,,*58
06/13/2014	04:00:59.420	$GPGGA,040059,2510.4306,N,08007.0066,W,1,9,1.9,14,M,,M,,*54
06/13/2014	04:01:00.507	$GPGGA,040100,2510.4299,N,08007.0072,W,1,9,2.1,14,M,,M,,*50
06/13/2014	04:01:01.592	$GPGGA,040101,2510.4292,N,08007.0076,W,1,8,2.1,14,M,,M,,*5F
06/13/2014	04:01:02.645	$GPGGA,040102,2510.4285,N,08007.0081,W,1,8,2.1,14,M,,M,,*52
06/13/2014	04:01:03.746	$GPGGA,040103,2510.4276,N,08007.0085,W,1,8,2.1,14,M,,M,,*5B
06/13/2014	04:01:04.828	$GPGGA,040104,2510.4271,N,08007.0090,W,1,8,2.1,14,M,,M,,*5F
06/13/2014	04:01:05.905	$GPGGA,040105,2510.4265,N,08007.0095,W,1,9,1.9,14,M,,M,,*54
06/13/2014	04:01:06.976	$GPGGA,040106,2510.4257,N,08007.0101,W,1,9,2.1,13,M,,M,,*56
06/13/2014	04:01:08.062	$GPGGA,040107,2510.4253,N,08007.0105,W,1,8,2.1,13,M,,M,,*56
06/13/2014	04:01:09.159	$GPGGA,040108,2510.4245,N,08007.0108,W,1,8,1.9,13,M,,M,,*58
06/13/2014	04:01:10.223	$GPGGA,040109,2510.4238,N,08007.0115,W,1,8,2.1,13,M,,M,,*54
06/13/2014	04:01:11.308	$GPGGA,040110,2510.4230,N,08007.0119,W,1,8,2.1,13,M,,M,,*58
06/13/2014	04:01:12.394	$GPGGA,040111,2510.4224,N,08007.0123,W,1,8,2.1,13,M,,M,,*55
06/13/2014	04:01:13.501	$GPGGA,040112,2510.4220,N,08007.0128,W,1,8,1.9,13,M,,M,,*52
06/13/2014	04:01:14.565	$GPGGA,040113,2510.4213,N,08007.0134,W,1,8,2.1,13,M,,M,,*55
06/13/2014	04:01:15.662	$GPGGA,040114,2510.4207,N,08007.0137,W,1,8,2.1,13,M,,M,,*54
06/13/2014	04:01:16.758	$GPGGA,040115,2510.4202,N,08007.0142,W,1,9,1.9,13,M,,M,,*58
06/13/2014	04:01:17.833	$GPGGA,040116,2510.4196,N,08007.0148,W,1,9,1.9,13,M,,M,,*5F
06/13/2014	04:01:18.919	$GPGGA,040117,2510.4191,N,08007.0153,W,1,9,1.9,13,M,,M,,*53
06/13/2014	04:01:19.994	$GPGGA,040118,2510.4184,N,08007.0157,W,1,9,1.9,13,M,,M,,*5C
06/13/2014	04:01:21.080	$GPGGA,040119,2510.4178,N,08007.0163,W,1,8,1.9,13,M,,M,,*58
06/13/2014	04:01:22.165	$GPGGA,040120,2510.4171,N,08007.0168,W,1,8,1.9,14,M,,M,,*57
06/13/2014	04:01:23.239	$GPGGA,040121,2510.4163,N,08007.0171,W,1,9,1.9,14,M,,M,,*5C
06/13/2014	04:01:24.433	$GPGGA,040122,2510.4156,N,08007.0177,W,1,9,1.9,14,M,,M,,*5F
06/13/2014	04:01:25.389	$GPGGA,040123,2510.4151,N,08007.0182,W,1,9,1.9,14,M,,M,,*53
06/13/2014	04:01:26.507	$GPGGA,040124,2510.4144,N,08007.0186,W,1,9,1.9,14,M,,M,,*54
06/13/2014	04:01:27.571	$GPGGA,040125,2510.4137,N,08007.0189,W,1,9,1.9,14,M,,M,,*5E
06/13/2014	04:01:28.646	$GPGGA,040126,2510.4130,N,08007.0195,W,1,9,1.9,14,M,,M,,*57
06/13/2014	04:01:29.742	$GPGGA,040127,2510.4122,N,08007.0200,W,1,9,1.9,14,M,,M,,*5A
06/13/2014	04:01:30.839	$GPGGA,040128,2510.4116,N,08007.0202,W,1,9,2.1,14,M,,M,,*5B
06/13/2014	04:01:32.033	$GPGGA,040129,2510.4109,N,08007.0206,W,1,9,1.9,14,M,,M,,*5B
06/13/2014	04:01:33.105	$GPGGA,040130,2510.4104,N,08007.0213,W,1,9,1.9,14,M,,M,,*5A
06/13/2014	04:01:34.066	$GPGGA,040131,2510.4097,N,08007.0217,W,1,9,1.9,14,M,,M,,*54
06/13/2014	04:01:35.171	$GPGGA,040132,2510.4090,N,08007.0220,W,1,9,1.9,14,M,,M,,*54
06/13/2014	04:01:36.365	$GPGGA,040133,2510.4083,N,08007.0225,W,1,9,1.9,14,M,,M,,*52
06/13/2014	04:01:37.321	$GPGGA,040134,2510.4077,N,08007.0231,W,1,9,1.9,15,M,,M,,*5A
06/13/2014	04:01:38.537	$GPGGA,040135,2510.4068,N,08007.0232,W,1,9,1.9,15,M,,M,,*56
06/13/2014	04:01:39.611	$GPGGA,040136,2510.4061,N,08007.0236,W,1,9,1.9,15,M,,M,,*58
06/13/2014	04:01:40.568	$GPGGA,040137,2510.4055,N,08007.0242,W,1,8,1.9,15,M,,M,,*5C
06/13/2014	04:01:41.761	$GPGGA,040138,2510.4047,N,08007.0246,W,1,8,2.1,15,M,,M,,*5F
06/13/2014	04:01:42.837	$GPGGA,040139,2510.4043,N,08007.0250,W,1,8,1.9,15,M,,M,,*56
06/13/2014	04:01:43.931	$GPGGA,040140,2510.4037,N,08007.0256,W,1,8,1.9,15,M,,M,,*5D
06/13/2014	04:01:45.020	$GPGGA,040141,2510.4028,N,08007.0258,W,1,9,1.9,15,M,,M,,*5D
06/13/2014	04:01:46.130	$GPGGA,040142,2510.4021,N,08007.0262,W,1,9,2.1,15,M,,M,,*55
06/13/2014	04:01:47.193	$GPGGA,040143,2510.4012,N,08007.0267,W,1,8,2.1,15,M,,M,,*50
06/13/2014	04:01:48.272	$GPGGA,040144,2510.4004,N,08007.0272,W,1,8,2.1,15,M,,M,,*54
06/13/2014	04:01:49.371	$GPGGA,040145,2510.3996,N,08007.0276,W,1,8,2.1,15,M,,M,,*54
06/13/2014	04:01:50.417	$GPGGA,040146,2510.3988,N,08007.0282,W,1,8,2.1,15,M,,M,,*53
06/13/2014	04:01:46.599	$GPGGA,040147,2510.3980,N,08007.0285,W,1,8,2.1,15,M,,M,,*5D
06/13/2014	04:01:47.663	$GPGGA,040148,2510.3974,N,08007.0289,W,1,8,2.1,15,M,,M,,*55
06/13/2014	04:01:48.771	$GPGGA,040149,2510.3965,N,08007.0293,W,1,9,1.9,15,M,,M,,*55
06/13/2014	04:01:49.813	$GPGGA,040150,2510.3957,N,08007.0298,W,1,9,2.1,15,M,,M,,*5C
06/13/2014	04:01:50.921	$GPGGA,040151,2510.3950,N,08007.0304,W,1,8,2.1,15,M,,M,,*5F
06/13/2014	04:01:52.006	$GPGGA,040152,2510.3942,N,08007.0308,W,1,8,2.1,15,M,,M,,*53
06/13/2014	04:01:53.117	$GPGGA,040153,2510.3934,N,08007.0312,W,1,8,2.1,14,M,,M,,*59
06/13/2014	04:01:54.145	$GPGGA,040154,2510.3927,N,08007.0318,W,1,8,2.1,14,M,,M,,*56
06/13/2014	04:01:55.264	$GPGGA,040155,2510.3920,N,08007.0323,W,1,8,2.1,14,M,,M,,*58
06/13/2014	04:01:56.326	$GPGGA,040156,2510.3913,N,08007.0327,W,1,8,2.1,14,M,,M,,*5F
06/13/2014	04:01:57.434	$GPGGA,040157,2510.3904,N,08007.0332,W,1,8,2.1,14,M,,M,,*5C
06/13/2014	04:01:58.487	$GPGGA,040158,2510.3899,N,08007.0337,W,1,8,2.1,14,M,,M,,*53
06/13/2014	04:01:59.583	$GPGGA,040159,2510.3891,N,08007.0341,W,1,9,1.9,14,M,,M,,*51
06/13/2014	04:02:00.658	$GPGGA,040200,2510.3884,N,08007.0347,W,1,9,2.1,14,M,,M,,*57
06/13/2014	04:02:01.766	$GPGGA,040201,2510.3876,N,08007.0351,W,1,8,2.1,14,M,,M,,*5D
06/13/2014	04:02:02.819	$GPGGA,040202,2510.3869,N,08007.0355,W,1,8,2.1,14,M,,M,,*54
06/13/2014	04:02:03.926	$GPGGA,040203,2510.3862,N,08007.0361,W,1,8,2.1,14,M,,M,,*59
06/13/2014	04:02:05.001	$GPGGA,040204,2510.3855,N,08007.0365,W,1,8,2.1,14,M,,M,,*5E
06/13/2014	04:02:06.098	$GPGGA,040205,2510.3848,N,08007.0370,W,1,8,2.1,14,M,,M,,*57
06/13/2014	04:02:07.162	$GPGGA,040206,2510.3841,N,08007.0376,W,1,8,2.1,14,M,,M,,*5B
06/13/2014	04:02:08.259	$GPGGA,040207,2510.3834,N,08007.0380,W,1,8,2.1,13,M,,M,,*56
06/13/2014	04:02:09.322	$GPGGA,040208,2510.3827,N,08007.0386,W,1,8,2.1,13,M,,M,,*5D
06/13/2014	04:02:10.408	$GPGGA,040209,2510.3820,N,08007.0392,W,1,8,2.1,13,M,,M,,*5E
06/13/2014	04:02:11.483	$GPGGA,040210,2510.3813,N,08007.0397,W,1,8,2.1,13,M,,M,,*53
06/13/2014	04:02:12.579	$GPGGA,040211,2510.3805,N,08007.0401,W,1,8,2.1,13,M,,M,,*5D
06/13/2014	04:02:13.665	$GPGGA,040212,2510.3799,N,08007.0406,W,1,8,1.9,13,M,,M,,*58
06/13/2014	04:02:14.848	$GPGGA,040213,2510.3795,N,08007.0413,W,1,8,2.1,13,M,,M,,*5A
06/13/2014	04:02:15.813	$GPGGA,040214,2510.3788,N,08007.0417,W,1,8,1.9,13,M,,M,,*5E
06/13/2014	04:02:17.040	$GPGGA,040215,2510.3783,N,08007.0421,W,1,8,2.1,13,M,,M,,*5A
06/13/2014	04:02:18.007	$GPGGA,040216,2510.3779,N,08007.0427,W,1,8,1.9,13,M,,M,,*51
06/13/2014	04:02:19.201	$GPGGA,040217,2510.3775,N,08007.0434,W,1,9,1.9,13,M,,M,,*5F
06/13/2014	04:02:20.254	$GPGGA,040218,2510.3770,N,08007.0438,W,1,9,1.9,13,M,,M,,*59
06/13/2014	04:02:21.233	$GPGGA,040219,2510.3764,N,08007.0442,W,1,9,1.9,13,M,,M,,*50
06/13/2014	04:02:22.328	$GPGGA,040220,2510.3759,N,08007.0446,W,1,9,1.9,14,M,,M,,*57
06/13/2014	04:02:23.413	$GPGGA,040221,2510.3756,N,08007.0453,W,1,8,1.9,14,M,,M,,*5C
06/13/2014	04:02:24.488	$GPGGA,040222,2510.3748,N,08007.0459,W,1,8,1.9,14,M,,M,,*5A
06/13/2014	04:02:25.715	$GPGGA,040223,2510.3740,N,08007.0462,W,1,8,2.1,14,M,,M,,*50
06/13/2014	04:02:26.801	$GPGGA,040224,2510.3736,N,08007.0469,W,1,8,1.9,14,M,,M,,*56
06/13/2014	04:02:27.832	$GPGGA,040225,2510.3730,N,08007.0475,W,1,9,1.9,14,M,,M,,*5D
06/13/2014	04:02:28.918	$GPGGA,040226,2510.3721,N,08007.0478,W,1,9,1.9,14,M,,M,,*53
06/13/2014	04:02:30.014	$GPGGA,040227,2510.3714,N,08007.0482,W,1,9,1.9,14,M,,M,,*51
06/13/2014	04:02:31.103	$GPGGA,040228,2510.3707,N,08007.0489,W,1,9,2.1,14,M,,M,,*5C
06/13/2014	04:02:32.197	$GPGGA,040229,2510.3701,N,08007.0495,W,1,9,1.9,14,M,,M,,*5D
06/13/2014	04:02:33.250	$GPGGA,040230,2510.3694,N,08007.0498,W,1,9,1.9,15,M,,M,,*54
06/13/2014	04:02:34.378	$GPGGA,040231,2510.3686,N,08007.0502,W,1,8,1.9,15,M,,M,,*55
06/13/2014	04:02:35.442	$GPGGA,040232,2510.3679,N,08007.0506,W,1,8,1.9,15,M,,M,,*52
06/13/2014	04:02:36.513	$GPGGA,040233,2510.3674,N,08007.0511,W,1,9,1.9,15,M,,M,,*59
06/13/2014	04:02:37.602	$GPGGA,040234,2510.3665,N,08007.0514,W,1,9,1.9,15,M,,M,,*5B
06/13/2014	04:02:38.699	$GPGGA,040235,2510.3657,N,08007.0520,W,1,8,1.9,15,M,,M,,*5D
06/13/2014	04:02:39.785	$GPGGA,040236,2510.3651,N,08007.0525,W,1,8,1.9,15,M,,M,,*5D
06/13/2014	04:02:40.838	$GPGGA,040237,2510.3643,N,08007.0528,W,1,9,1.9,15,M,,M,,*53
06/13/2014	04:02:41.934	$GPGGA,040238,2510.3635,N,08007.0532,W,1,9,1.9,15,M,,M,,*56
06/13/2014	04:02:43.044	$GPGGA,040239,2510.3628,N,08007.0538,W,1,8,1.9,15,M,,M,,*50
06/13/2014	04:02:44.123	$GPGGA,040240,2510.3622,N,08007.0543,W,1,8,1.9,15,M,,M,,*58
06/13/2014	04:02:45.181	$GPGGA,040241,2510.3617,N,08007.0549,W,1,9,1.9,15,M,,M,,*54
06/13/2014	04:02:46.266	$GPGGA,040242,2510.3609,N,08007.0553,W,1,9,1.9,15,M,,M,,*53
06/13/2014	04:02:47.363	$GPGGA,040243,2510.3602,N,08007.0558,W,1,9,1.9,15,M,,M,,*52
06/13/2014	04:02:48.438	$GPGGA,040244,2510.3595,N,08007.0563,W,1,9,1.9,15,M,,M,,*50
06/13/2014	04:02:49.545	$GPGGA,040245,2510.3586,N,08007.0567,W,1,9,1.9,15,M,,M,,*57
06/13/2014	04:02:50.610	$GPGGA,040246,2510.3579,N,08007.0571,W,1,9,1.9,15,M,,M,,*53
06/13/2014	04:02:46.572	$GPGGA,040247,2510.3573,N,08007.0576,W,1,9,1.9,15,M,,M,,*5F
06/13/2014	04:02:47.641	$GPGGA,040248,2510.3566,N,08007.0582,W,1,9,1.9,15,M,,M,,*5F
06/13/2014	04:02:48.747	$GPGGA,040249,2510.3559,N,08007.0585,W,1,8,2.1,15,M,,M,,*5F
06/13/2014	04:02:49.789	$GPGGA,040250,2510.3553,N,08007.0590,W,1,8,1.9,15,M,,M,,*52
06/13/2014	04:02:50.875	$GPGGA,040251,2510.3548,N,08007.0596,W,1,9,1.9,15,M,,M,,*5E
06/13/2014	04:02:51.982	$GPGGA,040252,2510.3540,N,08007.0600,W,1,9,1.9,15,M,,M,,*59
06/13/2014	04:02:53.046	$GPGGA,040253,2510.3533,N,08007.0604,W,1,8,2.1,15,M,,M,,*52
06/13/2014	04:02:54.121	$GPGGA,040254,2510.3526,N,08007.0608,W,1,8,1.9,15,M,,M,,*56
06/13/2014	04:02:55.218	$GPGGA,040255,2510.3521,N,08007.0614,W,1,8,2.1,15,M,,M,,*56
06/13/2014	04:02:56.314	$GPGGA,040256,2510.3512,N,08007.0618,W,1,8,1.9,15,M,,M,,*52
06/13/2014	04:02:57.411	$GPGGA,040257,2510.3503,N,08007.0622,W,1,8,2.1,15,M,,M,,*51
06/13/2014	04:02:58.464	$GPGGA,040258,2510.3497,N,08007.0629,W,1,8,2.1,15,M,,M,,*59
06/13/2014	04:02:59.560	$GPGGA,040259,2510.3488,N,08007.0632,W,1,8,2.1,15,M,,M,,*5C
06/13/2014	04:03:00.646	$GPGGA,040300,2510.3480,N,08007.0637,W,1,8,2.1,15,M,,M,,*5C
06/13/2014	04:03:01.906	$GPGGA,040301,2510.3473,N,08007.0643,W,1,8,2.1,15,M,,M,,*52
06/13/2014	04:03:02.785	$GPGGA,040302,2510.3466,N,08007.0648,W,1,8,2.1,15,M,,M,,*5E
06/13/2014	04:03:04.072	$GPGGA,040303,2510.3458,N,08007.0652,W,1,8,2.1,15,M,,M,,*59
06/13/2014	04:03:04.978	$GPGGA,040304,2510.3449,N,08007.0657,W,1,8,2.1,15,M,,M,,*5B
06/13/2014	04:03:06.238	$GPGGA,040305,2510.3443,N,08007.0661,W,1,8,2.1,15,M,,M,,*55
06/13/2014	04:03:07.257	$GPGGA,040306,2510.3436,N,08007.0668,W,1,8,2.1,15,M,,M,,*5D
06/13/2014	04:03:08.234	$GPGGA,040307,2510.3426,N,08007.0672,W,1,8,2.1,15,M,,M,,*56
06/13/2014	04:03:09.320	$GPGGA,040308,2510.3420,N,08007.0676,W,1,8,2.1,14,M,,M,,*5A
06/13/2014	04:03:10.384	$GPGGA,040309,2510.3414,N,08007.0683,W,1,8,2.1,14,M,,M,,*56
06/13/2014	04:03:11.556	$GPGGA,040310,2510.3405,N,08007.0686,W,1,8,2.1,14,M,,M,,*5B
06/13/2014	04:03:12.751	$GPGGA,040311,2510.3398,N,08007.0691,W,1,8,2.1,14,M,,M,,*5F
06/13/2014	04:03:13.641	$GPGGA,040312,2510.3391,N,08007.0697,W,1,8,2.1,14,M,,M,,*53
06/13/2014	04:03:14.705	$GPGGA,040313,2510.3385,N,08007.0701,W,1,8,2.1,14,M,,M,,*59
06/13/2014	04:03:15.899	$GPGGA,040314,2510.3378,N,08007.0706,W,1,8,2.1,14,M,,M,,*5B
06/13/2014	04:03:18.147	$GPGGA,040316,2510.3363,N,08007.0715,W,1,8,2.1,14,M,,M,,*51
06/13/2014	04:03:19.265	$GPGGA,040317,2510.3356,N,08007.0722,W,1,8,2.1,14,M,,M,,*52
06/13/2014	04:03:20.253	$GPGGA,040318,2510.3349,N,08007.0726,W,1,8,2.1,14,M,,M,,*57
06/13/2014	04:03:21.426	$GPGGA,040319,2510.3342,N,08007.0730,W,1,8,2.1,14,M,,M,,*5A
06/13/2014	04:03:22.435	$GPGGA,040320,2510.3335,N,08007.0737,W,1,8,2.1,14,M,,M,,*57
06/13/2014	04:03:23.598	$GPGGA,040321,2510.3327,N,08007.0744,W,1,8,2.1,13,M,,M,,*56
06/13/2014	04:03:24.565	$GPGGA,040322,2510.3320,N,08007.0745,W,1,8,2.1,13,M,,M,,*53
06/13/2014	04:03:25.760	$GPGGA,040323,2510.3313,N,08007.0751,W,1,8,2.1,13,M,,M,,*57
06/13/2014	04:03:26.800	$GPGGA,040324,2510.3306,N,08007.0759,W,1,8,2.1,13,M,,M,,*5C
06/13/2014	04:03:27.943	$GPGGA,040325,2510.3299,N,08007.0762,W,1,8,2.1,13,M,,M,,*52
06/13/2014	04:03:28.926	$GPGGA,040326,2510.3291,N,08007.0766,W,1,8,2.1,13,M,,M,,*5D
06/13/2014	04:03:30.056	$GPGGA,040327,2510.3285,N,08007.0773,W,1,8,2.1,13,M,,M,,*5D
06/13/2014	04:03:31.109	$GPGGA,040328,2510.3279,N,08007.0778,W,1,8,2.1,13,M,,M,,*5A
06/13/2014	04:03:32.249	$GPGGA,040329,2510.3271,N,08007.0782,W,1,8,2.1,13,M,,M,,*56
06/13/2014	04:03:33.280	$GPGGA,040330,2510.3264,N,08007.0787,W,1,8,2.1,13,M,,M,,*5F
06/13/2014	04:03:34.444	$GPGGA,040331,2510.3259,N,08007.0792,W,1,8,2.1,13,M,,M,,*54
06/13/2014	04:03:35.445	$GPGGA,040332,2510.3251,N,08007.0798,W,1,8,2.1,13,M,,M,,*55
06/13/2014	04:03:36.570	$GPGGA,040333,2510.3248,N,08007.0802,W,1,8,1.9,13,M,,M,,*5B
06/13/2014	04:03:37.590	$GPGGA,040334,2510.3242,N,08007.0806,W,1,8,1.9,13,M,,M,,*52
06/13/2014	04:03:38.644	$GPGGA,040335,2510.3235,N,08007.0813,W,1,9,1.9,13,M,,M,,*56
06/13/2014	04:03:39.783	$GPGGA,040336,2510.3228,N,08007.0816,W,1,9,1.9,13,M,,M,,*5C
06/13/2014	04:03:40.935	$GPGGA,040337,2510.3221,N,08007.0820,W,1,9,1.9,13,M,,M,,*51
06/13/2014	04:03:41.890	$GPGGA,040338,2510.3216,N,08007.0827,W,1,9,1.9,13,M,,M,,*5D
06/13/2014	04:03:42.975	$GPGGA,040339,2510.3208,N,08007.0832,W,1,9,1.9,13,M,,M,,*57
06/13/2014	04:03:44.120	$GPGGA,040340,2510.3201,N,08007.0835,W,1,9,2.1,13,M,,M,,*5C
06/13/2014	04:03:45.312	$GPGGA,040341,2510.3194,N,08007.0840,W,1,9,1.9,13,M,,M,,*5B
06/13/2014	04:03:46.231	$GPGGA,040342,2510.3188,N,08007.0846,W,1,9,1.9,13,M,,M,,*53
06/13/2014	04:03:47.404	$GPGGA,040343,2510.3183,N,08007.0850,W,1,8,1.9,14,M,,M,,*58
06/13/2014	04:03:48.464	$GPGGA,040344,2510.3176,N,08007.0854,W,1,8,1.9,14,M,,M,,*51
06/13/2014	04:03:49.575	$GPGGA,040345,2510.3172,N,08007.0860,W,1,9,1.9,14,M,,M,,*52
06/13/2014	04:03:50.574	$GPGGA,040346,2510.3166,N,08007.0867,W,1,9,1.9,14,M,,M,,*53
06/13/2014	04:03:46.618	$GPGGA,040347,2510.3158,N,08007.0871,W,1,8,1.9,14,M,,M,,*59
06/13/2014	04:03:47.714	$GPGGA,040348,2510.3154,N,08007.0876,W,1,8,1.9,14,M,,M,,*5D
06/13/2014	04:03:48.767	$GPGGA,040349,2510.3147,N,08007.0882,W,1,9,2.1,14,M,,M,,*5F
06/13/2014	04:03:49.799	$GPGGA,040350,2510.3138,N,08007.0886,W,1,9,1.9,14,M,,M,,*50
06/13/2014	04:03:50.939	$GPGGA,040351,2510.3131,N,08007.0892,W,1,9,2.1,14,M,,M,,*56
06/13/2014	04:03:52.068	$GPGGA,040352,2510.3126,N,08007.0897,W,1,9,1.9,14,M,,M,,*5D
06/13/2014	04:03:53.165	$GPGGA,040353,2510.3118,N,08007.0901,W,1,9,2.1,14,M,,M,,*54
06/13/2014	04:03:54.131	$GPGGA,040354,2510.3112,N,08007.0907,W,1,9,1.9,15,M,,M,,*55
06/13/2014	04:03:55.282	$GPGGA,040355,2510.3105,N,08007.0911,W,1,9,1.9,15,M,,M,,*55
06/13/2014	04:03:56.389	$GPGGA,040356,2510.3100,N,08007.0917,W,1,9,1.9,15,M,,M,,*55
06/13/2014	04:03:57.442	$GPGGA,040357,2510.3091,N,08007.0921,W,1,9,1.9,15,M,,M,,*58
06/13/2014	04:03:58.550	$GPGGA,040358,2510.3084,N,08007.0926,W,1,9,1.9,15,M,,M,,*54
06/13/2014	04:03:59.678	$GPGGA,040359,2510.3078,N,08007.0932,W,1,9,1.9,15,M,,M,,*53
06/13/2014	04:04:00.752	$GPGGA,040400,2510.3071,N,08007.0936,W,1,9,1.9,15,M,,M,,*55
06/13/2014	04:04:01.816	$GPGGA,040401,2510.3064,N,08007.0940,W,1,9,1.9,15,M,,M,,*51
06/13/2014	04:04:02.870	$GPGGA,040402,2510.3057,N,08007.0946,W,1,9,2.0,15,M,,M,,*5E
06/13/2014	04:04:03.955	$GPGGA,040403,2510.3050,N,08007.0950,W,1,8,1.9,15,M,,M,,*54
06/13/2014	04:04:05.054	$GPGGA,040404,2510.3043,N,08007.0954,W,1,8,1.9,15,M,,M,,*55
06/13/2014	04:04:06.192	$GPGGA,040405,2510.3035,N,08007.0957,W,1,9,1.9,15,M,,M,,*57
06/13/2014	04:04:07.204	$GPGGA,040406,2510.3028,N,08007.0962,W,1,9,1.9,15,M,,M,,*5E
06/13/2014	04:04:08.309	$GPGGA,040407,2510.3021,N,08007.0968,W,1,9,1.9,16,M,,M,,*5F
06/13/2014	04:04:09.406	$GPGGA,040408,2510.3013,N,08007.0972,W,1,9,1.9,16,M,,M,,*5A
06/13/2014	04:04:10.535	$GPGGA,040409,2510.3006,N,08007.0975,W,1,9,1.9,16,M,,M,,*58
06/13/2014	04:04:11.533	$GPGGA,040410,2510.2999,N,08007.0980,W,1,9,1.9,16,M,,M,,*54
06/13/2014	04:04:12.641	$GPGGA,040411,2510.2989,N,08007.0984,W,1,9,2.1,16,M,,M,,*5B
06/13/2014	04:04:13.727	$GPGGA,040412,2510.2981,N,08007.0987,W,1,9,1.9,16,M,,M,,*58
06/13/2014	04:04:14.823	$GPGGA,040413,2510.2975,N,08007.0993,W,1,9,1.9,16,M,,M,,*57
06/13/2014	04:04:15.865	$GPGGA,040414,2510.2970,N,08007.0999,W,1,9,1.9,16,M,,M,,*5F
06/13/2014	04:04:17.060	$GPGGA,040415,2510.2962,N,08007.1002,W,1,9,1.9,16,M,,M,,*57
06/13/2014	04:04:18.065	$GPGGA,040416,2510.2956,N,08007.1008,W,1,9,1.9,16,M,,M,,*59
06/13/2014	04:04:19.187	$GPGGA,040417,2510.2950,N,08007.1013,W,1,9,1.9,16,M,,M,,*54
06/13/2014	04:04:20.218	$GPGGA,040418,2510.2943,N,08007.1017,W,1,9,1.9,16,M,,M,,*5D
06/13/2014	04:04:21.325	$GPGGA,040419,2510.2936,N,08007.1022,W,1,9,1.9,16,M,,M,,*58
06/13/2014	04:04:22.390	$GPGGA,040420,2510.2931,N,08007.1027,W,1,9,1.9,16,M,,M,,*50
06/13/2014	04:04:23.497	$GPGGA,040421,2510.2923,N,08007.1033,W,1,9,2.1,16,M,,M,,*5C
06/13/2014	04:04:24.561	$GPGGA,040422,2510.2914,N,08007.1037,W,1,9,2.1,16,M,,M,,*5F
06/13/2014	04:04:25.679	$GPGGA,040423,2510.2907,N,08007.1040,W,1,8,1.9,16,M,,M,,*56
06/13/2014	04:04:26.721	$GPGGA,040424,2510.2901,N,08007.1048,W,1,8,2.0,16,M,,M,,*55
06/13/2014	04:04:27.840	$GPGGA,040425,2510.2901,N,08007.1048,W,1,8,2.0,16,M,,M,,*54
06/13/2014	04:04:28.882	$GPGGA,040426,2510.2889,N,08007.1055,W,1,8,1.9,17,M,,M,,*51
06/13/2014	04:04:29.978	$GPGGA,040427,2510.2889,N,08007.1055,W,1,9,1.9,17,M,,M,,*51
06/13/2014	04:04:31.075	$GPGGA,040428,2510.2876,N,08007.1067,W,1,9,1.9,17,M,,M,,*5F
06/13/2014	04:04:32.175	$GPGGA,040429,2510.2867,N,08007.1070,W,1,9,2.1,17,M,,M,,*53
06/13/2014	04:04:33.214	$GPGGA,040430,2510.2859,N,08007.1076,W,1,9,2.1,17,M,,M,,*50
06/13/2014	04:04:34.341	$GPGGA,040431,2510.2859,N,08007.1076,W,1,8,2.1,17,M,,M,,*50
06/13/2014	04:04:35.408	$GPGGA,040432,2510.2845,N,08007.1085,W,1,8,1.9,16,M,,M,,*58
06/13/2014	04:04:36.547	$GPGGA,040433,2510.2845,N,08007.1085,W,1,9,1.9,16,M,,M,,*58
06/13/2014	04:04:37.556	$GPGGA,040434,2510.2832,N,08007.1096,W,1,9,2.1,16,M,,M,,*56
06/13/2014	04:04:38.641	$GPGGA,040435,2510.2832,N,08007.1096,W,1,8,2.1,16,M,,M,,*56
06/13/2014	04:04:39.738	$GPGGA,040436,2510.2819,N,08007.1105,W,1,8,1.9,16,M,,M,,*5C
06/13/2014	04:04:40.813	$GPGGA,040437,2510.2819,N,08007.1105,W,1,9,1.9,16,M,,M,,*5C
06/13/2014	04:04:41.877	$GPGGA,040438,2510.2804,N,08007.1116,W,1,9,2.1,16,M,,M,,*56
06/13/2014	04:04:43.047	$GPGGA,040439,2510.2796,N,08007.1120,W,1,8,2.1,16,M,,M,,*57
06/13/2014	04:04:44.178	$GPGGA,040440,2510.2789,N,08007.1125,W,1,8,2.1,16,M,,M,,*52
06/13/2014	04:04:45.155	$GPGGA,040441,2510.2789,N,08007.1125,W,1,8,2.1,16,M,,M,,*53
06/13/2014	04:04:46.317	$GPGGA,040442,2510.2775,N,08007.1134,W,1,8,2.1,16,M,,M,,*53
06/13/2014	04:04:47.437	$GPGGA,040443,2510.2767,N,08007.1139,W,1,8,2.1,16,M,,M,,*5C
06/13/2014	04:04:48.402	$GPGGA,040444,2510.2761,N,08007.1146,W,1,8,1.9,16,M,,M,,*5E
06/13/2014	04:04:49.607	$GPGGA,040445,2510.2754,N,08007.1150,W,1,8,2.1,16,M,,M,,*55
06/13/2014	04:04:50.551	$GPGGA,040446,2510.2754,N,08007.1150,W,1,8,2.1,16,M,,M,,*56
06/13/2014	04:04:46.595	$GPGGA,040447,2510.2739,N,08007.1160,W,1,8,2.1,16,M,,M,,*5F
06/13/2014	04:04:47.702	$GPGGA,040448,2510.2732,N,08007.1165,W,1,8,2.1,15,M,,M,,*5D
06/13/2014	04:04:48.777	$GPGGA,040449,2510.2725,N,08007.1171,W,1,8,2.1,15,M,,M,,*5F
06/13/2014	04:04:49.852	$GPGGA,040450,2510.2718,N,08007.1176,W,1,8,2.1,15,M,,M,,*5E
06/13/2014	04:04:50.937	$GPGGA,040451,2510.2711,N,08007.1181,W,1,8,2.1,15,M,,M,,*5E
06/13/2014	04:04:52.044	$GPGGA,040452,2510.2704,N,08007.1186,W,1,8,2.1,15,M,,M,,*5E
06/13/2014	04:04:53.110	$GPGGA,040453,2510.2699,N,08007.1193,W,1,8,2.1,15,M,,M,,*5E
06/13/2014	04:04:54.184	$GPGGA,040454,2510.2695,N,08007.1199,W,1,8,1.9,15,M,,M,,*54
06/13/2014	04:04:55.258	$GPGGA,040455,2510.2686,N,08007.1203,W,1,9,1.9,15,M,,M,,*56
06/13/2014	04:04:56.355	$GPGGA,040456,2510.2681,N,08007.1210,W,1,9,2.1,15,M,,M,,*5B
06/13/2014	04:04:57.462	$GPGGA,040457,2510.2675,N,08007.1217,W,1,8,2.1,15,M,,M,,*57
06/13/2014	04:04:58.510	$GPGGA,040458,2510.2667,N,08007.1221,W,1,8,1.9,15,M,,M,,*55
06/13/2014	04:04:59.622	$GPGGA,040459,2510.2661,N,08007.1225,W,1,8,2.1,15,M,,M,,*5D
06/13/2014	04:05:00.697	$GPGGA,040500,2510.2654,N,08007.1232,W,1,8,1.9,14,M,,M,,*5A
06/13/2014	04:05:01.783	$GPGGA,040501,2510.2648,N,08007.1237,W,1,8,2.1,14,M,,M,,*58
06/13/2014	04:05:02.851	$GPGGA,040502,2510.2639,N,08007.1241,W,1,8,2.1,14,M,,M,,*5C
06/13/2014	04:05:03.925	$GPGGA,040503,2510.2632,N,08007.1246,W,1,8,2.1,14,M,,M,,*51
06/13/2014	04:05:05.022	$GPGGA,040504,2510.2625,N,08007.1253,W,1,8,2.1,14,M,,M,,*54
06/13/2014	04:05:06.120	$GPGGA,040505,2510.2618,N,08007.1257,W,1,8,2.1,14,M,,M,,*5F
06/13/2014	04:05:07.182	$GPGGA,040506,2510.2610,N,08007.1261,W,1,8,2.1,14,M,,M,,*51
06/13/2014	04:05:08.287	$GPGGA,040507,2510.2605,N,08007.1266,W,1,8,2.1,14,M,,M,,*53
06/13/2014	04:05:09.370	$GPGGA,040508,2510.2599,N,08007.1272,W,1,8,1.9,14,M,,M,,*54
06/13/2014	04:05:10.467	$GPGGA,040509,2510.2592,N,08007.1277,W,1,9,1.9,14,M,,M,,*5A
06/13/2014	04:05:11.524	$GPGGA,040510,2510.2587,N,08007.1283,W,1,9,1.9,14,M,,M,,*5D
06/13/2014	04:05:12.606	$GPGGA,040511,2510.2579,N,08007.1286,W,1,9,1.9,14,M,,M,,*58
06/13/2014	04:05:13.708	$GPGGA,040512,2510.2573,N,08007.1293,W,1,9,1.9,14,M,,M,,*55
06/13/2014	04:05:14.799	$GPGGA,040513,2510.2565,N,08007.1297,W,1,9,1.9,14,M,,M,,*57
06/13/2014	04:05:15.863	$GPGGA,040514,2510.2558,N,08007.1301,W,1,9,1.9,14,M,,M,,*50
06/13/2014	04:05:16.971	$GPGGA,040515,2510.2551,N,08007.1305,W,1,9,1.9,14,M,,M,,*5C
06/13/2014	04:05:18.024	$GPGGA,040516,2510.2544,N,08007.1311,W,1,9,1.9,14,M,,M,,*5E
06/13/2014	04:05:19.099	$GPGGA,040517,2510.2536,N,08007.1315,W,1,9,1.9,14,M,,M,,*5E
06/13/2014	04:05:20.195	$GPGGA,040518,2510.2527,N,08007.1318,W,1,9,1.9,15,M,,M,,*5D
06/13/2014	04:05:21.270	$GPGGA,040519,2510.2523,N,08007.1323,W,1,8,2.1,15,M,,M,,*5A
06/13/2014	04:05:22.367	$GPGGA,040520,2510.2518,N,08007.1329,W,1,8,2.0,15,M,,M,,*53
06/13/2014	04:05:23.432	$GPGGA,040521,2510.2509,N,08007.1330,W,1,9,1.9,15,M,,M,,*51
06/13/2014	04:05:24.646	$GPGGA,040522,2510.2501,N,08007.1335,W,1,9,2.1,15,M,,M,,*54
06/13/2014	04:05:25.732	$GPGGA,040523,2510.2495,N,08007.1342,W,1,8,2.1,15,M,,M,,*58
06/13/2014	04:05:26.688	$GPGGA,040524,2510.2487,N,08007.1344,W,1,8,1.9,15,M,,M,,*51
06/13/2014	04:05:27.784	$GPGGA,040525,2510.2480,N,08007.1348,W,1,9,1.9,15,M,,M,,*5A
06/13/2014	04:05:28.956	$GPGGA,040526,2510.2475,N,08007.1355,W,1,9,2.1,15,M,,M,,*54
06/13/2014	04:05:29.922	$GPGGA,040527,2510.2468,N,08007.1358,W,1,9,1.9,15,M,,M,,*5F
06/13/2014	04:05:31.040	$GPGGA,040528,2510.2460,N,08007.1360,W,1,9,2.1,15,M,,M,,*58
06/13/2014	04:05:32.245	$GPGGA,040529,2510.2455,N,08007.1367,W,1,8,2.0,15,M,,M,,*58
06/13/2014	04:05:33.288	$GPGGA,040530,2510.2449,N,08007.1373,W,1,8,1.9,15,M,,M,,*52
06/13/2014	04:05:34.407	$GPGGA,040531,2510.2442,N,08007.1376,W,1,9,1.9,15,M,,M,,*5C
06/13/2014	04:05:35.372	$GPGGA,040532,2510.2435,N,08007.1380,W,1,9,1.9,15,M,,M,,*56
06/13/2014	04:05:36.556	$GPGGA,040533,2510.2429,N,08007.1387,W,1,9,1.9,15,M,,M,,*5D
06/13/2014	04:05:37.522	$GPGGA,040534,2510.2422,N,08007.1391,W,1,9,1.9,15,M,,M,,*56
06/13/2014	04:05:38.608	$GPGGA,040535,2510.2415,N,08007.1394,W,1,9,1.9,15,M,,M,,*56
06/13/2014	04:05:39.802	$GPGGA,040536,2510.2408,N,08007.1398,W,1,9,2.0,15,M,,M,,*5F
06/13/2014	04:05:40.779	$GPGGA,040537,2510.2400,N,08007.1403,W,1,9,1.9,15,M,,M,,*59
06/13/2014	04:05:41.951	$GPGGA,040538,2510.2392,N,08007.1406,W,1,9,2.1,15,M,,M,,*54
06/13/2014	04:05:43.042	$GPGGA,040539,2510.2384,N,08007.1410,W,1,9,1.9,15,M,,M,,*5E
06/13/2014	04:05:44.128	$GPGGA,040540,2510.2376,N,08007.1416,W,1,9,1.9,15,M,,M,,*5B
06/13/2014	04:05:45.241	$GPGGA,040541,2510.2370,N,08007.1420,W,1,9,1.9,15,M,,M,,*59
06/13/2014	04:05:46.294	$GPGGA,040542,2510.2363,N,08007.1424,W,1,9,2.1,15,M,,M,,*57
06/13/2014	04:05:47.380	$GPGGA,040543,2510.2356,N,08007.1430,W,1,9,1.9,15,M,,M,,*5E
06/13/2014	04:05:48.475	$GPGGA,040544,2510.2352,N,08007.1436,W,1,9,1.9,15,M,,M,,*5B
06/13/2014	04:05:49.572	$GPGGA,040545,2510.2345,N,08007.1441,W,1,9,1.9,15,M,,M,,*5C
06/13/2014	04:05:50.625	$GPGGA,040546,2510.2337,N,08007.1445,W,1,9,2.1,15,M,,M,,*55
06/13/2014	04:05:46.581	$GPGGA,040547,2510.2329,N,08007.1450,W,1,9,1.9,16,M,,M,,*57
06/13/2014	04:05:47.666	$GPGGA,040548,2510.2323,N,08007.1456,W,1,9,2.1,16,M,,M,,*5F
06/13/2014	04:05:48.741	$GPGGA,040549,2510.2316,N,08007.1460,W,1,8,2.1,16,M,,M,,*5C
06/13/2014	04:05:49.786	$GPGGA,040550,2510.2310,N,08007.1465,W,1,8,2.1,16,M,,M,,*57
06/13/2014	04:05:50.787	$GPGGA,040551,2510.2305,N,08007.1470,W,1,9,1.9,16,M,,M,,*5C
06/13/2014	04:05:51.840	$GPGGA,040552,2510.2298,N,08007.1475,W,1,9,2.1,16,M,,M,,*54
06/13/2014	04:05:52.883	$GPGGA,040553,2510.2289,N,08007.1481,W,1,8,2.1,16,M,,M,,*5F
06/13/2014	04:05:53.884	$GPGGA,040554,2510.2282,N,08007.1485,W,1,8,2.1,16,M,,M,,*57
06/13/2014	04:05:54.929	$GPGGA,040555,2510.2276,N,08007.1492,W,1,8,2.1,16,M,,M,,*5B
06/13/2014	04:05:55.970	$GPGGA,040556,2510.2269,N,08007.1496,W,1,8,2.1,16,M,,M,,*52
06/13/2014	04:05:57.012	$GPGGA,040557,2510.2262,N,08007.1500,W,1,8,2.1,16,M,,M,,*56
06/13/2014	04:05:58.015	$GPGGA,040558,2510.2254,N,08007.1506,W,1,8,2.1,16,M,,M,,*5A
06/13/2014	04:05:59.036	$GPGGA,040559,2510.2248,N,08007.1511,W,1,8,2.1,15,M,,M,,*53
06/13/2014	04:06:00.106	$GPGGA,040600,2510.2241,N,08007.1515,W,1,8,2.1,15,M,,M,,*51
06/13/2014	04:06:01.135	$GPGGA,040601,2510.2235,N,08007.1519,W,1,8,2.1,15,M,,M,,*5F
06/13/2014	04:06:02.142	$GPGGA,040602,2510.2229,N,08007.1525,W,1,8,1.9,15,M,,M,,*55
06/13/2014	04:06:03.175	$GPGGA,040603,2510.2222,N,08007.1530,W,1,9,1.9,15,M,,M,,*5A
06/13/2014	04:06:04.207	$GPGGA,040604,2510.2215,N,08007.1535,W,1,9,2.1,15,M,,M,,*57
06/13/2014	04:06:05.260	$GPGGA,040605,2510.2208,N,08007.1540,W,1,8,2.1,15,M,,M,,*59
06/13/2014	04:06:06.241	$GPGGA,040606,2510.2201,N,08007.1544,W,1,8,1.9,15,M,,M,,*5C
06/13/2014	04:06:07.315	$GPGGA,040607,2510.2193,N,08007.1550,W,1,9,1.9,15,M,,M,,*51
06/13/2014	04:06:08.347	$GPGGA,040608,2510.2187,N,08007.1554,W,1,9,2.1,15,M,,M,,*54
06/13/2014	04:06:09.359	$GPGGA,040609,2510.2179,N,08007.1559,W,1,9,1.9,15,M,,M,,*52
06/13/2014	04:06:10.381	$GPGGA,040610,2510.2172,N,08007.1564,W,1,9,2.1,15,M,,M,,*54
06/13/2014	04:06:11.496	$GPGGA,040611,2510.2168,N,08007.1569,W,1,8,2.1,15,M,,M,,*52
06/13/2014	04:06:12.456	$GPGGA,040612,2510.2160,N,08007.1575,W,1,8,1.9,15,M,,M,,*5F
06/13/2014	04:06:13.881	$GPGGA,040613,2510.2154,N,08007.1579,W,1,9,1.9,15,M,,M,,*54
06/13/2014	04:06:14.614	$GPGGA,040614,2510.2147,N,08007.1582,W,1,9,1.9,15,M,,M,,*55
06/13/2014	04:06:15.543	$GPGGA,040615,2510.2141,N,08007.1587,W,1,9,1.9,15,M,,M,,*57
06/13/2014	04:06:16.565	$GPGGA,040616,2510.2135,N,08007.1593,W,1,9,1.9,15,M,,M,,*52
06/13/2014	04:06:17.597	$GPGGA,040617,2510.2128,N,08007.1597,W,1,9,1.9,15,M,,M,,*5B
06/13/2014	04:06:18.712	$GPGGA,040618,2510.2121,N,08007.1600,W,1,9,1.9,15,M,,M,,*50
06/13/2014	04:06:19.651	$GPGGA,040619,2510.2115,N,08007.1607,W,1,9,1.9,15,M,,M,,*51
06/13/2014	04:06:20.786	$GPGGA,040620,2510.2110,N,08007.1611,W,1,9,1.9,15,M,,M,,*59
06/13/2014	04:06:21.829	$GPGGA,040621,2510.2101,N,08007.1615,W,1,9,1.9,15,M,,M,,*5C
06/13/2014	04:06:22.748	$GPGGA,040622,2510.2095,N,08007.1619,W,1,9,1.9,15,M,,M,,*5F
06/13/2014	04:06:23.770	$GPGGA,040623,2510.2089,N,08007.1626,W,1,9,1.9,15,M,,M,,*5F
06/13/2014	04:06:24.916	$GPGGA,040624,2510.2082,N,08007.1629,W,1,9,1.9,15,M,,M,,*5C
06/13/2014	04:06:25.948	$GPGGA,040625,2510.2075,N,08007.1633,W,1,9,1.9,15,M,,M,,*5E
06/13/2014	04:06:26.960	$GPGGA,040626,2510.2070,N,08007.1637,W,1,9,1.9,15,M,,M,,*5C
06/13/2014	04:06:28.003	$GPGGA,040627,2510.2063,N,08007.1642,W,1,9,1.9,15,M,,M,,*5D
06/13/2014	04:06:29.035	$GPGGA,040628,2510.2056,N,08007.1645,W,1,9,1.9,15,M,,M,,*53
06/13/2014	04:06:30.052	$GPGGA,040629,2510.2048,N,08007.1651,W,1,9,1.9,15,M,,M,,*58
06/13/2014	04:06:31.095	$GPGGA,040630,2510.2041,N,08007.1655,W,1,9,1.9,15,M,,M,,*5D
06/13/2014	04:06:32.133	$GPGGA,040631,2510.2034,N,08007.1658,W,1,9,1.9,15,M,,M,,*53
06/13/2014	04:06:33.186	$GPGGA,040632,2510.2027,N,08007.1663,W,1,9,1.9,15,M,,M,,*5A
06/13/2014	04:06:34.166	$GPGGA,040633,2510.2021,N,08007.1669,W,1,9,1.9,15,M,,M,,*57
06/13/2014	04:06:35.202	$GPGGA,040634,2510.2014,N,08007.1671,W,1,9,1.9,15,M,,M,,*5F
06/13/2014	04:06:36.262	$GPGGA,040635,2510.2007,N,08007.1676,W,1,9,1.9,15,M,,M,,*5B
06/13/2014	04:06:37.273	$GPGGA,040636,2510.1999,N,08007.1680,W,1,9,1.9,15,M,,M,,*5C
06/13/2014	04:06:38.316	$GPGGA,040637,2510.1992,N,08007.1684,W,1,9,1.9,15,M,,M,,*52
06/13/2014	04:06:39.317	$GPGGA,040638,2510.1984,N,08007.1687,W,1,9,1.9,15,M,,M,,*59
06/13/2014	04:06:40.349	$GPGGA,040639,2510.1977,N,08007.1691,W,1,9,1.9,15,M,,M,,*53
06/13/2014	04:06:41.385	$GPGGA,040640,2510.1970,N,08007.1696,W,1,9,1.9,15,M,,M,,*5D
06/13/2014	04:06:42.404	$GPGGA,040641,2510.1963,N,08007.1701,W,1,9,1.9,15,M,,M,,*51
06/13/2014	04:06:43.465	$GPGGA,040642,2510.1955,N,08007.1703,W,1,9,1.9,15,M,,M,,*55
06/13/2014	04:06:44.469	$GPGGA,040643,2510.1948,N,08007.1709,W,1,9,1.9,15,M,,M,,*52
06/13/2014	04:06:45.522	$GPGGA,040644,2510.1940,N,08007.1713,W,1,9,1.9,15,M,,M,,*56
06/13/2014	04:06:46.523	$GPGGA,040645,2510.1933,N,08007.1717,W,1,8,2.1,15,M,,M,,*5D
06/13/2014	04:06:47.566	$GPGGA,040646,2510.1926,N,08007.1723,W,1,8,1.9,15,M,,M,,*56
06/13/2014	04:06:46.530	$GPGGA,040647,2510.1916,N,08007.1725,W,1,9,1.9,15,M,,M,,*53
06/13/2014	04:06:47.573	$GPGGA,040648,2510.1909,N,08007.1730,W,1,9,2.3,15,M,,M,,*5F
06/13/2014	04:06:48.626	$GPGGA,040649,2510.1904,N,08007.1736,W,1,9,1.9,15,M,,M,,*5C
06/13/2014	04:06:49.617	$GPGGA,040650,2510.1897,N,08007.1741,W,1,9,2.1,15,M,,M,,*54
06/13/2014	04:06:50.649	$GPGGA,040651,2510.1893,N,08007.1746,W,1,8,2.1,15,M,,M,,*57
06/13/2014	04:06:51.693	$GPGGA,040652,2510.1886,N,08007.1752,W,1,8,1.9,15,M,,M,,*5E
06/13/2014	04:06:52.704	$GPGGA,040653,2510.1881,N,08007.1756,W,1,8,2.1,15,M,,M,,*57
06/13/2014	04:06:53.756	$GPGGA,040654,2510.1875,N,08007.1761,W,1,8,1.9,15,M,,M,,*54
06/13/2014	04:06:54.767	$GPGGA,040655,2510.1866,N,08007.1767,W,1,8,2.1,15,M,,M,,*5A
06/13/2014	04:06:55.810	$GPGGA,040656,2510.1859,N,08007.1771,W,1,8,2.1,15,M,,M,,*52
06/13/2014	04:06:56.853	$GPGGA,040657,2510.1852,N,08007.1775,W,1,9,1.9,15,M,,M,,*56
06/13/2014	04:06:57.865	$GPGGA,040658,2510.1844,N,08007.1781,W,1,9,1.9,15,M,,M,,*55
06/13/2014	04:06:58.919	$GPGGA,040659,2510.1837,N,08007.1785,W,1,8,2.1,15,M,,M,,*5E
06/13/2014	04:06:59.940	$GPGGA,040700,2510.1829,N,08007.1788,W,1,8,2.1,15,M,,M,,*51
06/13/2014	04:07:01.055	$GPGGA,040701,2510.1822,N,08007.1793,W,1,8,2.1,15,M,,M,,*51
06/13/2014	04:07:01.974	$GPGGA,040702,2510.1815,N,08007.1799,W,1,8,1.9,15,M,,M,,*57
06/13/2014	04:07:03.006	$GPGGA,040703,2510.1808,N,08007.1803,W,1,8,2.1,15,M,,M,,*5D
06/13/2014	04:07:04.173	$GPGGA,040704,2510.1801,N,08007.1807,W,1,8,2.1,15,M,,M,,*57
06/13/2014	04:07:05.071	$GPGGA,040705,2510.1794,N,08007.1811,W,1,9,1.9,15,M,,M,,*58
06/13/2014	04:07:06.093	$GPGGA,040706,2510.1787,N,08007.1817,W,1,9,1.9,15,M,,M,,*5F
06/13/2014	04:07:07.125	$GPGGA,040707,2510.1779,N,08007.1821,W,1,8,2.1,14,M,,M,,*51
06/13/2014	04:07:08.178	$GPGGA,040708,2510.1774,N,08007.1824,W,1,8,1.9,14,M,,M,,*5D
06/13/2014	04:07:09.293	$GPGGA,040709,2510.1769,N,08007.1831,W,1,9,1.9,14,M,,M,,*55
06/13/2014	04:07:10.233	$GPGGA,040710,2510.1761,N,08007.1835,W,1,9,1.9,14,M,,M,,*51
06/13/2014	04:07:11.254	$GPGGA,040711,2510.1756,N,08007.1839,W,1,8,2.1,14,M,,M,,*52
06/13/2014	04:07:12.307	$GPGGA,040712,2510.1749,N,08007.1842,W,1,8,1.9,15,M,,M,,*59
06/13/2014	04:07:13.412	$GPGGA,040713,2510.1739,N,08007.1846,W,1,9,1.9,15,M,,M,,*5A
06/13/2014	04:07:14.341	$GPGGA,040714,2510.1732,N,08007.1851,W,1,9,1.9,15,M,,M,,*50
06/13/2014	04:07:15.528	$GPGGA,040715,2510.1727,N,08007.1855,W,1,8,2.1,15,M,,M,,*5B
06/13/2014	04:07:16.509	$GPGGA,040716,2510.1718,N,08007.1858,W,1,8,1.9,15,M,,M,,*52
06/13/2014	04:07:17.582	$GPGGA,040717,2510.1713,N,08007.1864,W,1,9,1.9,15,M,,M,,*56
06/13/2014	04:07:18.574	$GPGGA,040718,2510.1707,N,08007.1869,W,1,9,1.9,15,M,,M,,*51
06/13/2014	04:07:19.596	$GPGGA,040719,2510.1702,N,08007.1872,W,1,9,1.9,15,M,,M,,*5F
06/13/2014	04:07:20.649	$GPGGA,040720,2510.1695,N,08007.1878,W,1,9,1.9,15,M,,M,,*50
06/13/2014	04:07:21.660	$GPGGA,040721,2510.1687,N,08007.1882,W,1,9,1.9,15,M,,M,,*57
06/13/2014	04:07:22.693	$GPGGA,040722,2510.1680,N,08007.1887,W,1,9,2.1,15,M,,M,,*5D
06/13/2014	04:07:23.736	$GPGGA,040723,2510.1673,N,08007.1891,W,1,9,1.9,15,M,,M,,*5C
06/13/2014	04:07:24.768	$GPGGA,040724,2510.1666,N,08007.1895,W,1,9,1.9,15,M,,M,,*5B
06/13/2014	04:07:25.790	$GPGGA,040725,2510.1658,N,08007.1900,W,1,9,1.9,15,M,,M,,*5A
06/13/2014	04:07:26.813	$GPGGA,040726,2510.1651,N,08007.1905,W,1,9,1.9,15,M,,M,,*55
06/13/2014	04:07:27.851	$GPGGA,040727,2510.1644,N,08007.1909,W,1,9,1.9,15,M,,M,,*5C
06/13/2014	04:07:28.877	$GPGGA,040728,2510.1637,N,08007.1915,W,1,9,1.9,15,M,,M,,*5A
06/13/2014	04:07:29.929	$GPGGA,040729,2510.1630,N,08007.1918,W,1,9,1.9,15,M,,M,,*51
06/13/2014	04:07:30.930	$GPGGA,040730,2510.1623,N,08007.1923,W,1,9,1.9,15,M,,M,,*53
06/13/2014	04:07:31.973	$GPGGA,040731,2510.1615,N,08007.1927,W,1,9,1.9,15,M,,M,,*53
06/13/2014	04:07:32.996	$GPGGA,040732,2510.1608,N,08007.1931,W,1,9,1.9,15,M,,M,,*5B
06/13/2014	04:07:34.050	$GPGGA,040733,2510.1600,N,08007.1936,W,1,9,1.9,15,M,,M,,*55
06/13/2014	04:07:35.039	$GPGGA,040734,2510.1593,N,08007.1940,W,1,9,1.9,15,M,,M,,*5A
06/13/2014	04:07:36.119	$GPGGA,040735,2510.1586,N,08007.1944,W,1,9,1.9,15,M,,M,,*5B
06/13/2014	04:07:37.125	$GPGGA,040736,2510.1579,N,08007.1948,W,1,9,1.9,15,M,,M,,*54
06/13/2014	04:07:38.159	$GPGGA,040737,2510.1572,N,08007.1954,W,1,9,1.9,15,M,,M,,*53
06/13/2014	04:07:39.169	$GPGGA,040738,2510.1563,N,08007.1958,W,1,9,2.1,15,M,,M,,*5B
06/13/2014	04:07:40.223	$GPGGA,040739,2510.1554,N,08007.1962,W,1,9,1.9,15,M,,M,,*5C
06/13/2014	04:07:41.254	$GPGGA,040740,2510.1546,N,08007.1965,W,1,9,1.9,15,M,,M,,*56
06/13/2014	04:07:42.257	$GPGGA,040741,2510.1539,N,08007.1970,W,1,9,1.9,15,M,,M,,*5B
06/13/2014	04:07:43.309	$GPGGA,040742,2510.1532,N,08007.1976,W,1,9,1.9,15,M,,M,,*55
06/13/2014	04:07:44.321	$GPGGA,040743,2510.1523,N,08007.1978,W,1,9,1.9,15,M,,M,,*5A
06/13/2014	04:07:45.491	$GPGGA,040744,2510.1515,N,08007.1983,W,1,9,1.9,15,M,,M,,*5C
06/13/2014	04:07:46.427	$GPGGA,040745,2510.1508,N,08007.1987,W,1,9,1.9,15,M,,M,,*55
06/13/2014	04:07:47.417	$GPGGA,040746,2510.1501,N,08007.1991,W,1,9,1.9,14,M,,M,,*59
06/13/2014	04:07:46.508	$GPGGA,040747,2510.1493,N,08007.1995,W,1,9,1.9,14,M,,M,,*56
06/13/2014	04:07:47.529	$GPGGA,040748,2510.1487,N,08007.2001,W,1,9,1.9,14,M,,M,,*5B
06/13/2014	04:07:48.572	$GPGGA,040749,2510.1480,N,08007.2005,W,1,9,1.9,14,M,,M,,*59
06/13/2014	04:07:49.708	$GPGGA,040750,2510.1471,N,08007.2009,W,1,9,1.9,14,M,,M,,*53
06/13/2014	04:07:50.730	$GPGGA,040751,2510.1465,N,08007.2013,W,1,9,1.9,14,M,,M,,*5C
06/13/2014	04:07:51.669	$GPGGA,040752,2510.1457,N,08007.2019,W,1,9,1.9,14,M,,M,,*54
06/13/2014	04:07:52.691	$GPGGA,040753,2510.1450,N,08007.2021,W,1,8,2.1,14,M,,M,,*53
06/13/2014	04:07:53.817	$GPGGA,040754,2510.1445,N,08007.2025,W,1,8,1.9,14,M,,M,,*5F
06/13/2014	04:07:54.735	$GPGGA,040755,2510.1438,N,08007.2031,W,1,9,1.9,14,M,,M,,*50
06/13/2014	04:07:55.788	$GPGGA,040756,2510.1431,N,08007.2035,W,1,9,1.9,14,M,,M,,*5E
06/13/2014	04:07:56.811	$GPGGA,040757,2510.1423,N,08007.2038,W,1,9,1.9,14,M,,M,,*51
06/13/2014	04:07:57.936	$GPGGA,040758,2510.1417,N,08007.2043,W,1,9,2.0,14,M,,M,,*5F
06/13/2014	04:07:58.999	$GPGGA,040759,2510.1411,N,08007.2049,W,1,8,1.9,14,M,,M,,*59
06/13/2014	04:08:00.021	$GPGGA,040800,2510.1404,N,08007.2052,W,1,8,1.9,14,M,,M,,*54
06/13/2014	04:08:00.930	$GPGGA,040801,2510.1398,N,08007.2055,W,1,9,1.9,14,M,,M,,*51
06/13/2014	04:08:02.065	$GPGGA,040802,2510.1393,N,08007.2061,W,1,9,1.9,14,M,,M,,*5E
06/13/2014	04:08:03.078	$GPGGA,040803,2510.1386,N,08007.2067,W,1,9,1.9,14,M,,M,,*5D
06/13/2014	04:08:04.161	$GPGGA,040804,2510.1378,N,08007.2068,W,1,9,1.9,14,M,,M,,*54
06/13/2014	04:08:05.162	$GPGGA,040805,2510.1373,N,08007.2072,W,1,9,1.9,14,M,,M,,*55
06/13/2014	04:08:06.184	$GPGGA,040806,2510.1366,N,08007.2079,W,1,9,2.1,14,M,,M,,*52
06/13/2014	04:08:07.206	$GPGGA,040807,2510.1366,N,08007.2084,W,1,8,1.9,15,M,,M,,*5A
06/13/2014	04:08:08.248	$GPGGA,040808,2510.1356,N,08007.2085,W,1,8,1.9,15,M,,M,,*57
06/13/2014	04:08:09.291	$GPGGA,040809,2510.1351,N,08007.2093,W,1,9,1.9,15,M,,M,,*57
06/13/2014	04:08:10.303	$GPGGA,040810,2510.1345,N,08007.2099,W,1,9,1.9,15,M,,M,,*50
06/13/2014	04:08:11.346	$GPGGA,040811,2510.1337,N,08007.2100,W,1,9,1.9,15,M,,M,,*55
06/13/2014	04:08:12.378	$GPGGA,040812,2510.1331,N,08007.2104,W,1,9,1.9,15,M,,M,,*54
06/13/2014	04:08:13.410	$GPGGA,040813,2510.1326,N,08007.2111,W,1,9,1.9,15,M,,M,,*57
06/13/2014	04:08:14.422	$GPGGA,040814,2510.1319,N,08007.2115,W,1,9,1.9,15,M,,M,,*58
06/13/2014	04:08:15.465	$GPGGA,040815,2510.1311,N,08007.2117,W,1,9,1.9,15,M,,M,,*53
06/13/2014	04:08:16.497	$GPGGA,040816,2510.1305,N,08007.2124,W,1,9,1.9,15,M,,M,,*55
06/13/2014	04:08:17.540	$GPGGA,040817,2510.1298,N,08007.2129,W,1,9,2.1,15,M,,M,,*57
06/13/2014	04:08:18.542	$GPGGA,040818,2510.1290,N,08007.2132,W,1,9,1.9,15,M,,M,,*51
06/13/2014	04:08:19.605	$GPGGA,040819,2510.1283,N,08007.2135,W,1,9,1.9,15,M,,M,,*55
06/13/2014	04:08:20.617	$GPGGA,040820,2510.1277,N,08007.2142,W,1,9,1.9,15,M,,M,,*54
06/13/2014	04:08:21.627	$GPGGA,040821,2510.1269,N,08007.2146,W,1,9,1.9,15,M,,M,,*5E
06/13/2014	04:08:22.670	$GPGGA,040822,2510.1262,N,08007.2150,W,1,9,1.9,15,M,,M,,*51
06/13/2014	04:08:23.708	$GPGGA,040823,2510.1256,N,08007.2155,W,1,9,1.9,15,M,,M,,*52
06/13/2014	04:08:24.745	$GPGGA,040824,2510.1250,N,08007.2160,W,1,9,1.9,15,M,,M,,*55
06/13/2014	04:08:25.778	$GPGGA,040825,2510.1243,N,08007.2164,W,1,9,1.9,15,M,,M,,*52
06/13/2014	04:08:26.800	$GPGGA,040826,2510.1236,N,08007.2168,W,1,9,1.9,15,M,,M,,*5F
06/13/2014	04:08:27.801	$GPGGA,040827,2510.1232,N,08007.2175,W,1,9,1.9,15,M,,M,,*56
06/13/2014	04:08:28.867	$GPGGA,040828,2510.1222,N,08007.2178,W,1,9,2.1,15,M,,M,,*5E
06/13/2014	04:08:30.010	$GPGGA,040829,2510.1215,N,08007.2182,W,1,8,1.9,15,M,,M,,*54
06/13/2014	04:08:30.909	$GPGGA,040830,2510.1208,N,08007.2187,W,1,8,2.1,15,M,,M,,*5E
06/13/2014	04:08:31.972	$GPGGA,040831,2510.1201,N,08007.2193,W,1,8,2.1,15,M,,M,,*53
06/13/2014	04:08:32.973	$GPGGA,040832,2510.1193,N,08007.2196,W,1,8,1.9,15,M,,M,,*56
06/13/2014	04:08:34.016	$GPGGA,040833,2510.1185,N,08007.2200,W,1,9,1.9,15,M,,M,,*5D
06/13/2014	04:08:35.028	$GPGGA,040834,2510.1180,N,08007.2207,W,1,9,1.9,15,M,,M,,*58
06/13/2014	04:08:36.072	$GPGGA,040835,2510.1174,N,08007.2211,W,1,9,2.1,14,M,,M,,*5F
06/13/2014	04:08:37.219	$GPGGA,040836,2510.1167,N,08007.2214,W,1,9,1.9,14,M,,M,,*50
06/13/2014	04:08:38.150	$GPGGA,040837,2510.1160,N,08007.2219,W,1,9,1.9,14,M,,M,,*5B
06/13/2014	04:08:39.239	$GPGGA,040838,2510.1152,N,08007.2225,W,1,9,1.9,14,M,,M,,*5A
06/13/2014	04:08:40.282	$GPGGA,040839,2510.1143,N,08007.2229,W,1,8,1.9,14,M,,M,,*56
06/13/2014	04:08:41.314	$GPGGA,040840,2510.1138,N,08007.2233,W,1,8,1.9,14,M,,M,,*5F
06/13/2014	04:08:42.367	$GPGGA,040841,2510.1131,N,08007.2240,W,1,9,2.1,14,M,,M,,*59
06/13/2014	04:08:43.286	$GPGGA,040842,2510.1124,N,08007.2243,W,1,9,2.1,14,M,,M,,*5D
06/13/2014	04:08:44.401	$GPGGA,040843,2510.1115,N,08007.2247,W,1,8,2.1,14,M,,M,,*5B
06/13/2014	04:08:45.351	$GPGGA,040844,2510.1109,N,08007.2252,W,1,8,1.9,14,M,,M,,*5E
06/13/2014	04:08:46.373	$GPGGA,040845,2510.1102,N,08007.2258,W,1,9,2.1,14,M,,M,,*54
06/13/2014	04:08:47.405	$GPGGA,040846,2510.1095,N,08007.2262,W,1,9,2.1,14,M,,M,,*51
06/13/2014	04:08:46.484	$GPGGA,040847,2510.1086,N,08007.2266,W,1,8,1.9,14,M,,M,,*5C
06/13/2014	04:08:47.610	$GPGGA,040848,2510.1080,N,08007.2272,W,1,8,1.9,14,M,,M,,*50
06/13/2014	04:08:48.550	$GPGGA,040849,2510.1073,N,08007.2277,W,1,9,2.1,14,M,,M,,*52
06/13/2014	04:08:49.675	$GPGGA,040850,2510.1066,N,08007.2280,W,1,9,2.1,14,M,,M,,*56
06/13/2014	04:08:50.697	$GPGGA,040851,2510.1059,N,08007.2285,W,1,9,1.9,14,M,,M,,*55
06/13/2014	04:08:51.760	$GPGGA,040852,2510.1052,N,08007.2291,W,1,9,2.1,14,M,,M,,*53
06/13/2014	04:08:52.772	$GPGGA,040853,2510.1044,N,08007.2295,W,1,8,2.1,14,M,,M,,*50
06/13/2014	04:08:53.804	$GPGGA,040854,2510.1037,N,08007.2298,W,1,8,2.1,14,M,,M,,*5E
06/13/2014	04:08:54.816	$GPGGA,040855,2510.1031,N,08007.2305,W,1,9,2.1,14,M,,M,,*5D
06/13/2014	04:08:55.859	$GPGGA,040856,2510.1023,N,08007.2309,W,1,9,2.1,14,M,,M,,*51
06/13/2014	04:08:56.900	$GPGGA,040857,2510.1016,N,08007.2312,W,1,8,2.1,14,M,,M,,*5D
06/13/2014	04:08:57.902	$GPGGA,040858,2510.1012,N,08007.2319,W,1,8,1.9,14,M,,M,,*56
06/13/2014	04:08:58.965	$GPGGA,040859,2510.1004,N,08007.2323,W,1,9,1.9,14,M,,M,,*58
06/13/2014	04:09:00.008	$GPGGA,040900,2510.0997,N,08007.2327,W,1,9,2.1,14,M,,M,,*58
06/13/2014	04:09:01.020	$GPGGA,040901,2510.0991,N,08007.2330,W,1,9,1.9,14,M,,M,,*52
06/13/2014	04:09:02.025	$GPGGA,040902,2510.0985,N,08007.2337,W,1,9,1.9,14,M,,M,,*53
06/13/2014	04:09:03.081	$GPGGA,040903,2510.0979,N,08007.2341,W,1,9,1.9,14,M,,M,,*50
06/13/2014	04:09:04.103	$GPGGA,040904,2510.0972,N,08007.2345,W,1,9,1.9,14,M,,M,,*58
06/13/2014	04:09:05.137	$GPGGA,040905,2510.0966,N,08007.2350,W,1,9,1.9,14,M,,M,,*58
06/13/2014	04:09:06.154	$GPGGA,040906,2510.0959,N,08007.2355,W,1,9,1.9,14,M,,M,,*52
06/13/2014	04:09:07.214	$GPGGA,040907,2510.0952,N,08007.2359,W,1,9,1.9,14,M,,M,,*54
06/13/2014	04:09:08.228	$GPGGA,040908,2510.0945,N,08007.2364,W,1,9,1.9,14,M,,M,,*53
06/13/2014	04:09:09.268	$GPGGA,040909,2510.0939,N,08007.2368,W,1,9,1.9,14,M,,M,,*55
06/13/2014	04:09:10.270	$GPGGA,040910,2510.0932,N,08007.2373,W,1,9,1.9,14,M,,M,,*5C
06/13/2014	04:09:11.323	$GPGGA,040911,2510.0925,N,08007.2377,W,1,9,1.9,14,M,,M,,*5F
06/13/2014	04:09:12.346	$GPGGA,040912,2510.0918,N,08007.2381,W,1,9,1.9,14,M,,M,,*5B
06/13/2014	04:09:13.367	$GPGGA,040913,2510.0910,N,08007.2385,W,1,9,1.9,14,M,,M,,*56
06/13/2014	04:09:14.398	$GPGGA,040914,2510.0903,N,08007.2388,W,1,9,1.9,14,M,,M,,*5E
06/13/2014	04:09:15.453	$GPGGA,040915,2510.0896,N,08007.2393,W,1,9,1.9,14,M,,M,,*58
06/13/2014	04:09:16.478	$GPGGA,040916,2510.0889,N,08007.2399,W,1,9,1.9,14,M,,M,,*5F
06/13/2014	04:09:17.475	$GPGGA,040917,2510.0882,N,08007.2402,W,1,9,2.0,14,M,,M,,*5A
06/13/2014	04:09:18.539	$GPGGA,040918,2510.0874,N,08007.2404,W,1,9,2.0,14,M,,M,,*5A
06/13/2014	04:09:19.560	$GPGGA,040919,2510.0867,N,08007.2410,W,1,9,2.0,14,M,,M,,*5C
06/13/2014	04:09:20.583	$GPGGA,040920,2510.0860,N,08007.2413,W,1,9,2.0,14,M,,M,,*52
06/13/2014	04:09:21.605	$GPGGA,040921,2510.0853,N,08007.2417,W,1,9,2.0,14,M,,M,,*57
06/13/2014	04:09:22.751	$GPGGA,040922,2510.0845,N,08007.2421,W,1,9,2.0,14,M,,M,,*56
06/13/2014	04:09:23.680	$GPGGA,040923,2510.0837,N,08007.2425,W,1,9,2.0,14,M,,M,,*56
06/13/2014	04:09:24.712	$GPGGA,040924,2510.0829,N,08007.2429,W,1,9,2.0,14,M,,M,,*52
06/13/2014	04:09:25.714	$GPGGA,040925,2510.0822,N,08007.2433,W,1,9,2.0,14,M,,M,,*53
06/13/2014	04:09:26.777	$GPGGA,040926,2510.0814,N,08007.2436,W,1,9,2.0,14,M,,M,,*50
06/13/2014	04:09:27.789	$GPGGA,040927,2510.0806,N,08007.2442,W,1,9,2.0,14,M,,M,,*51
06/13/2014	04:09:28.842	$GPGGA,040928,2510.0799,N,08007.2444,W,1,9,2.0,14,M,,M,,*51
06/13/2014	04:09:29.988	$GPGGA,040929,2510.0791,N,08007.2447,W,1,9,2.0,14,M,,M,,*5B
06/13/2014	04:09:30.886	$GPGGA,040930,2510.0784,N,08007.2453,W,1,9,2.0,14,M,,M,,*52
06/13/2014	04:09:31.917	$GPGGA,040931,2510.0777,N,08007.2457,W,1,9,2.0,14,M,,M,,*5B
06/13/2014	04:09:32.950	$GPGGA,040932,2510.0770,N,08007.2460,W,1,9,2.0,14,M,,M,,*5B
06/13/2014	04:09:34.085	$GPGGA,040933,2510.0761,N,08007.2465,W,1,9,2.0,14,M,,M,,*5F
06/13/2014	04:09:35.097	$GPGGA,040934,2510.0755,N,08007.2469,W,1,9,2.0,14,M,,M,,*53
06/13/2014	04:09:36.129	$GPGGA,040935,2510.0748,N,08007.2473,W,1,9,2.0,14,M,,M,,*55
06/13/2014	04:09:37.172	$GPGGA,040936,2510.0741,N,08007.2478,W,1,9,2.0,14,M,,M,,*54
06/13/2014	04:09:38.194	$GPGGA,040937,2510.0733,N,08007.2482,W,1,9,2.0,14,M,,M,,*55
06/13/2014	04:09:39.216	$GPGGA,040938,2510.0726,N,08007.2486,W,1,9,2.0,14,M,,M,,*5A
06/13/2014	04:09:40.280	$GPGGA,040939,2510.0719,N,08007.2490,W,1,9,2.0,14,M,,M,,*50
06/13/2014	04:09:41.302	$GPGGA,040940,2510.0712,N,08007.2494,W,1,9,2.0,14,M,,M,,*51
06/13/2014	04:09:42.303	$GPGGA,040941,2510.0705,N,08007.2501,W,1,9,2.0,13,M,,M,,*5C
06/13/2014	04:09:43.346	$GPGGA,040942,2510.0698,N,08007.2504,W,1,9,2.0,13,M,,M,,*5F
06/13/2014	04:09:44.389	$GPGGA,040943,2510.0690,N,08007.2508,W,1,9,2.0,13,M,,M,,*5A
06/13/2014	04:09:45.421	$GPGGA,040944,2510.0683,N,08007.2514,W,1,9,2.0,13,M,,M,,*52
06/13/2014	04:09:46.453	$GPGGA,040945,2510.0676,N,08007.2519,W,1,9,2.0,13,M,,M,,*54
06/13/2014	04:09:47.465	$GPGGA,040946,2510.0669,N,08007.2522,W,1,9,2.1,13,M,,M,,*50
06/13/2014	04:09:46.576	$GPGGA,040947,2510.0665,N,08007.2527,W,1,9,2.0,13,M,,M,,*59
06/13/2014	04:09:47.597	$GPGGA,040948,2510.0658,N,08007.2533,W,1,9,2.0,13,M,,M,,*5D
06/13/2014	04:09:48.630	$GPGGA,040949,2510.0648,N,08007.2537,W,1,8,2.1,13,M,,M,,*59
06/13/2014	04:09:49.641	$GPGGA,040950,2510.0641,N,08007.2543,W,1,8,2.1,13,M,,M,,*5B
06/13/2014	04:09:50.695	$GPGGA,040951,2510.0633,N,08007.2547,W,1,8,2.1,13,M,,M,,*5B
06/13/2014	04:09:51.717	$GPGGA,040952,2510.0625,N,08007.2552,W,1,8,2.1,13,M,,M,,*5B
06/13/2014	04:09:52.749	$GPGGA,040953,2510.0618,N,08007.2558,W,1,8,2.1,13,M,,M,,*5E
06/13/2014	04:09:53.771	$GPGGA,040954,2510.0612,N,08007.2562,W,1,8,2.1,13,M,,M,,*5A
06/13/2014	04:09:54.803	$GPGGA,040955,2510.0607,N,08007.2566,W,1,9,2.0,13,M,,M,,*5B
06/13/2014	04:09:55.846	$GPGGA,040956,2510.0598,N,08007.2572,W,1,9,2.0,13,M,,M,,*58
06/13/2014	04:09:56.889	$GPGGA,040957,2510.0590,N,08007.2577,W,1,8,2.1,13,M,,M,,*54
06/13/2014	04:09:57.880	$GPGGA,040958,2510.0583,N,08007.2581,W,1,8,2.1,13,M,,M,,*50
06/13/2014	04:09:58.912	$GPGGA,040959,2510.0576,N,08007.2587,W,1,8,2.1,13,M,,M,,*5D
06/13/2014	04:09:59.976	$GPGGA,041000,2510.0569,N,08007.2591,W,1,8,2.0,13,M,,M,,*51
06/13/2014	04:10:00.967	$GPGGA,041001,2510.0562,N,08007.2598,W,1,9,2.0,13,M,,M,,*53
06/13/2014	04:10:02.010	$GPGGA,041002,2510.0554,N,08007.2602,W,1,9,2.1,13,M,,M,,*54
06/13/2014	04:10:03.032	$GPGGA,041003,2510.0546,N,08007.2606,W,1,8,2.1,13,M,,M,,*53
06/13/2014	04:10:04.095	$GPGGA,041004,2510.0539,N,08007.2612,W,1,8,2.0,13,M,,M,,*58
06/13/2014	04:10:05.118	$GPGGA,041005,2510.0533,N,08007.2617,W,1,9,2.0,13,M,,M,,*57
06/13/2014	04:10:06.128	$GPGGA,041006,2510.0526,N,08007.2623,W,1,9,2.0,13,M,,M,,*57
06/13/2014	04:10:07.181	$GPGGA,041007,2510.0519,N,08007.2627,W,1,9,2.0,13,M,,M,,*5E
06/13/2014	04:10:08.203	$GPGGA,041008,2510.0513,N,08007.2633,W,1,9,2.0,13,M,,M,,*5E
06/13/2014	04:10:09.215	$GPGGA,041009,2510.0504,N,08007.2637,W,1,9,2.0,14,M,,M,,*5A
06/13/2014	04:10:10.257	$GPGGA,041010,2510.0497,N,08007.2641,W,1,9,2.0,14,M,,M,,*58
06/13/2014	04:10:11.372	$GPGGA,041011,2510.0489,N,08007.2646,W,1,9,2.0,14,M,,M,,*51
06/13/2014	04:10:12.322	$GPGGA,041012,2510.0482,N,08007.2650,W,1,9,2.0,14,M,,M,,*5E
06/13/2014	04:10:13.468	$GPGGA,041013,2510.0475,N,08007.2655,W,1,9,2.0,14,M,,M,,*52
06/13/2014	04:10:14.377	$GPGGA,041014,2510.0467,N,08007.2660,W,1,9,2.0,14,M,,M,,*50
06/13/2014	04:10:15.502	$GPGGA,041015,2510.0460,N,08007.2664,W,1,9,2.0,14,M,,M,,*52
06/13/2014	04:10:16.565	$GPGGA,041016,2510.0453,N,08007.2670,W,1,9,2.0,14,M,,M,,*54
06/13/2014	04:10:17.474	$GPGGA,041017,2510.0445,N,08007.2675,W,1,9,2.0,14,M,,M,,*57
06/13/2014	04:10:18.486	$GPGGA,041018,2510.0438,N,08007.2680,W,1,9,2.0,14,M,,M,,*58
06/13/2014	04:10:19.652	$GPGGA,041019,2510.0430,N,08007.2684,W,1,9,2.0,14,M,,M,,*55
06/13/2014	04:10:20.571	$GPGGA,041020,2510.0423,N,08007.2688,W,1,9,2.0,14,M,,M,,*51
06/13/2014	04:10:21.696	$GPGGA,041021,2510.0416,N,08007.2692,W,1,9,2.0,14,M,,M,,*5D
06/13/2014	04:10:22.708	$GPGGA,041022,2510.0408,N,08007.2696,W,1,9,2.0,14,M,,M,,*55
06/13/2014	04:10:23.657	$GPGGA,041023,2510.0401,N,08007.2700,W,1,9,2.0,14,M,,M,,*53
06/13/2014	04:10:24.782	$GPGGA,041024,2510.0394,N,08007.2706,W,1,9,2.0,14,M,,M,,*59
06/13/2014	04:10:25.825	$GPGGA,041025,2510.0387,N,08007.2710,W,1,9,2.0,14,M,,M,,*5D
06/13/2014	04:10:26.826	$GPGGA,041026,2510.0379,N,08007.2714,W,1,9,2.0,14,M,,M,,*5B
06/13/2014	04:10:27.859	$GPGGA,041027,2510.0372,N,08007.2717,W,1,9,2.0,14,M,,M,,*52
06/13/2014	04:10:28.902	$GPGGA,041028,2510.0365,N,08007.2724,W,1,9,2.0,14,M,,M,,*5B
06/13/2014	04:10:29.965	$GPGGA,041029,2510.0358,N,08007.2728,W,1,9,2.0,14,M,,M,,*58
06/13/2014	04:10:30.956	$GPGGA,041030,2510.0350,N,08007.2731,W,1,9,2.0,14,M,,M,,*50
06/13/2014	04:10:32.030	$GPGGA,041031,2510.0343,N,08007.2736,W,1,9,2.0,14,M,,M,,*54
06/13/2014	04:10:33.031	$GPGGA,041032,2510.0336,N,08007.2740,W,1,9,2.0,14,M,,M,,*54
06/13/2014	04:10:34.053	$GPGGA,041033,2510.0329,N,08007.2745,W,1,9,2.0,14,M,,M,,*5E
06/13/2014	04:10:35.071	$GPGGA,041034,2510.0322,N,08007.2749,W,1,9,2.0,14,M,,M,,*5E
06/13/2014	04:10:36.128	$GPGGA,041035,2510.0314,N,08007.2754,W,1,9,2.0,14,M,,M,,*56
06/13/2014	04:10:37.150	$GPGGA,041036,2510.0307,N,08007.2758,W,1,9,2.0,14,M,,M,,*5B
06/13/2014	04:10:38.193	$GPGGA,041037,2510.0300,N,08007.2764,W,1,9,2.0,14,M,,M,,*52
06/13/2014	04:10:39.195	$GPGGA,041038,2510.0293,N,08007.2768,W,1,9,2.0,14,M,,M,,*5A
06/13/2014	04:10:40.218	$GPGGA,041039,2510.0285,N,08007.2772,W,1,9,2.0,14,M,,M,,*57
06/13/2014	04:10:41.270	$GPGGA,041040,2510.0278,N,08007.2778,W,1,9,2.0,14,M,,M,,*51
06/13/2014	04:10:42.311	$GPGGA,041041,2510.0271,N,08007.2785,W,1,9,2.0,14,M,,M,,*5B
06/13/2014	04:10:43.323	$GPGGA,041042,2510.0264,N,08007.2787,W,1,9,2.0,14,M,,M,,*5E
06/13/2014	04:10:44.345	$GPGGA,041043,2510.0257,N,08007.2793,W,1,9,2.0,14,M,,M,,*5A
06/13/2014	04:10:45.400	$GPGGA,041044,2510.0249,N,08007.2798,W,1,9,2.0,14,M,,M,,*59
06/13/2014	04:10:46.410	$GPGGA,041045,2510.0242,N,08007.2803,W,1,8,2.1,14,M,,M,,*5E
06/13/2014	04:10:47.432	$GPGGA,041046,2510.0236,N,08007.2807,W,1,8,2.0,14,M,,M,,*5B
06/13/2014	04:10:46.523	$GPGGA,041047,2510.0229,N,08007.2811,W,1,9,2.0,14,M,,M,,*52
06/13/2014	04:10:47.565	$GPGGA,041048,2510.0224,N,08007.2816,W,1,9,2.0,14,M,,M,,*57
06/13/2014	04:10:48.616	$GPGGA,041049,2510.0217,N,08007.2822,W,1,9,2.0,14,M,,M,,*51
06/13/2014	04:10:49.613	$GPGGA,041050,2510.0208,N,08007.2825,W,1,9,2.0,14,M,,M,,*50
06/13/2014	04:10:50.605	$GPGGA,041051,2510.0202,N,08007.2830,W,1,9,2.0,14,M,,M,,*5F
06/13/2014	04:10:51.638	$GPGGA,041052,2510.0195,N,08007.2836,W,1,9,2.0,14,M,,M,,*57
06/13/2014	04:10:52.631	$GPGGA,041053,2510.0188,N,08007.2840,W,1,9,2.0,14,M,,M,,*5B
06/13/2014	04:10:53.665	$GPGGA,041054,2510.0182,N,08007.2844,W,1,9,2.0,14,M,,M,,*52
06/13/2014	04:10:54.689	$GPGGA,041055,2510.0175,N,08007.2850,W,1,9,2.0,14,M,,M,,*5E
06/13/2014	04:10:55.844	$GPGGA,041056,2510.0168,N,08007.2855,W,1,9,2.0,14,M,,M,,*54
06/13/2014	04:10:56.714	$GPGGA,041057,2510.0161,N,08007.2859,W,1,9,2.0,14,M,,M,,*50
06/13/2014	04:10:57.697	$GPGGA,041058,2510.0154,N,08007.2863,W,1,9,2.0,14,M,,M,,*50
06/13/2014	04:10:58.801	$GPGGA,041059,2510.0148,N,08007.2869,W,1,9,2.0,14,M,,M,,*56
06/13/2014	04:10:59.744	$GPGGA,041100,2510.0141,N,08007.2874,W,1,9,2.0,14,M,,M,,*5E
06/13/2014	04:11:00.737	$GPGGA,041101,2510.0134,N,08007.2879,W,1,9,2.0,14,M,,M,,*50
06/13/2014	04:11:01.730	$GPGGA,041102,2510.0126,N,08007.2883,W,1,9,2.0,14,M,,M,,*55
06/13/2014	04:11:02.733	$GPGGA,041103,2510.0119,N,08007.2887,W,1,9,2.0,14,M,,M,,*5C
06/13/2014	04:11:03.939	$GPGGA,041104,2510.0112,N,08007.2892,W,1,9,2.0,14,M,,M,,*54
06/13/2014	04:11:04.790	$GPGGA,041105,2510.0105,N,08007.2897,W,1,9,2.0,14,M,,M,,*56
06/13/2014	04:11:05.773	$GPGGA,041106,2510.0098,N,08007.2902,W,1,9,2.0,14,M,,M,,*5D
06/13/2014	04:11:06.786	$GPGGA,041107,2510.0090,N,08007.2908,W,1,9,2.0,14,M,,M,,*5E
06/13/2014	04:11:07.982	$GPGGA,041108,2510.0084,N,08007.2912,W,1,9,2.0,14,M,,M,,*5F
06/13/2014	04:11:08.823	$GPGGA,041109,2510.0077,N,08007.2917,W,1,9,2.0,14,M,,M,,*57
06/13/2014	04:11:09.992	$GPGGA,041110,2510.0069,N,08007.2921,W,1,9,2.0,14,M,,M,,*55
06/13/2014	04:11:10.998	$GPGGA,041111,2510.0062,N,08007.2927,W,1,9,2.0,14,M,,M,,*59
06/13/2014	04:11:11.964	$GPGGA,041112,2510.0054,N,08007.2933,W,1,9,2.0,14,M,,M,,*5A
06/13/2014	04:11:13.010	$GPGGA,041113,2510.0045,N,08007.2937,W,1,8,2.1,14,M,,M,,*5F
06/13/2014	04:11:13.991	$GPGGA,041114,2510.0038,N,08007.2941,W,1,8,2.0,14,M,,M,,*52
06/13/2014	04:11:15.004	$GPGGA,041115,2510.0030,N,08007.2946,W,1,9,2.0,14,M,,M,,*5D
06/13/2014	04:11:16.082	$GPGGA,041116,2510.0022,N,08007.2952,W,1,9,2.0,14,M,,M,,*58
06/13/2014	04:11:17.065	$GPGGA,041117,2510.0014,N,08007.2955,W,1,9,2.0,14,M,,M,,*5B
06/13/2014	04:11:18.023	$GPGGA,041118,2510.0007,N,08007.2960,W,1,9,2.0,14,M,,M,,*50
06/13/2014	04:11:19.103	$GPGGA,041119,2510.0000,N,08007.2966,W,1,9,2.0,13,M,,M,,*57
06/13/2014	04:11:21.508	$GPGGA,041121,2509.9986,N,08007.2974,W,1,9,2.0,13,M,,M,,*59
06/13/2014	04:11:22.127	$GPGGA,041122,2509.9978,N,08007.2980,W,1,9,2.0,13,M,,M,,*50
06/13/2014	04:11:23.109	$GPGGA,041123,2509.9971,N,08007.2984,W,1,9,2.0,13,M,,M,,*5C
06/13/2014	04:11:24.171	$GPGGA,041124,2509.9964,N,08007.2988,W,1,9,2.0,13,M,,M,,*53
06/13/2014	04:11:25.093	$GPGGA,041125,2509.9957,N,08007.2993,W,1,9,2.0,13,M,,M,,*58
06/13/2014	04:11:26.149	$GPGGA,041126,2509.9949,N,08007.2999,W,1,9,2.0,13,M,,M,,*5E
06/13/2014	04:11:27.173	$GPGGA,041127,2509.9942,N,08007.3003,W,1,9,2.0,13,M,,M,,*5F
06/13/2014	04:11:28.186	$GPGGA,041128,2509.9935,N,08007.3009,W,1,9,2.0,13,M,,M,,*5A
06/13/2014	04:11:30.628	$GPGGA,041130,2509.9921,N,08007.3017,W,1,9,2.0,13,M,,M,,*59
06/13/2014	04:11:31.196	$GPGGA,041131,2509.9915,N,08007.3022,W,1,9,2.0,13,M,,M,,*59
06/13/2014	04:11:32.180	$GPGGA,041132,2509.9907,N,08007.3027,W,1,9,2.0,13,M,,M,,*5C
06/13/2014	04:11:33.231	$GPGGA,041133,2509.9900,N,08007.3031,W,1,9,2.0,13,M,,M,,*5D
06/13/2014	04:11:34.245	$GPGGA,041134,2509.9893,N,08007.3036,W,1,9,2.0,13,M,,M,,*56
06/13/2014	04:11:35.248	$GPGGA,041135,2509.9886,N,08007.3042,W,1,9,2.0,12,M,,M,,*51
06/13/2014	04:11:36.281	$GPGGA,041136,2509.9879,N,08007.3046,W,1,9,2.0,12,M,,M,,*56
06/13/2014	04:11:37.274	$GPGGA,041137,2509.9871,N,08007.3049,W,1,9,2.0,12,M,,M,,*50
06/13/2014	04:11:38.227	$GPGGA,041138,2509.9864,N,08007.3054,W,1,9,2.0,12,M,,M,,*57
06/13/2014	04:11:39.281	$GPGGA,041139,2509.9857,N,08007.3058,W,1,9,2.0,12,M,,M,,*5A
06/13/2014	04:11:40.324	$GPGGA,041140,2509.9850,N,08007.3063,W,1,9,2.0,12,M,,M,,*5B
06/13/2014	04:11:41.297	$GPGGA,041141,2509.9842,N,08007.3067,W,1,9,2.0,12,M,,M,,*5D
06/13/2014	04:11:42.351	$GPGGA,041142,2509.9835,N,08007.3071,W,1,9,2.0,12,M,,M,,*59
06/13/2014	04:11:43.344	$GPGGA,041143,2509.9828,N,08007.3076,W,1,9,2.0,12,M,,M,,*53
06/13/2014	04:11:44.378	$GPGGA,041144,2509.9821,N,08007.3079,W,1,9,2.0,12,M,,M,,*52
06/13/2014	04:11:45.431	$GPGGA,041145,2509.9813,N,08007.3085,W,1,9,2.0,12,M,,M,,*51
06/13/2014	04:11:46.447	$GPGGA,041146,2509.9807,N,08007.3089,W,1,9,2.0,12,M,,M,,*5B
06/13/2014	04:11:46.626	$GPGGA,041147,2509.9799,N,08007.3093,W,1,9,2.2,12,M,,M,,*5B
06/13/2014	04:11:47.579	$GPGGA,041148,2509.9789,N,08007.3096,W,1,9,2.2,12,M,,M,,*50
06/13/2014	04:11:48.612	$GPGGA,041149,2509.9781,N,08007.3100,W,1,9,2.0,13,M,,M,,*54
06/13/2014	04:11:49.524	$GPGGA,041150,2509.9773,N,08007.3103,W,1,9,2.0,13,M,,M,,*52
06/13/2014	04:11:50.668	$GPGGA,041151,2509.9764,N,08007.3107,W,1,9,2.0,13,M,,M,,*51
