Software Version Number: 1	Data File Format Number: 1	Build Version Number: 1	Error Count Since VI Started: 0	Manufacturer: Raytheon	 Model Number: RayMarine 120	 S/N: 	 Cal Date: 	 Wind Direction Offset: 0.00	 Slope (M)1: 0.00	 Offset (B)1: 0.00	 Slope (M)2: 0.00	 Offset (B)2: 0.00	 Slope (M)3: 0.00	 Offset (B)3: 0.00	 Slope (M)4: 0.00	 Offset (B)4: 0.00	 Slope (M)5: 0.00	 Offset (B)5: 0.00	 Slope (M)6: 0.00	 Offset (B)6: 0.00
Computer Date	Computer Time	GGA String
05/29/2014	02:00:00.614	$GPGGA,020001,2604.5341,N,07950.7477,W,1,9,1.5,19,M,,M,,*5D
05/29/2014	02:00:01.596	$GPGGA,020002,2604.5333,N,07950.7459,W,1,9,1.5,19,M,,M,,*57
05/29/2014	02:00:02.599	$GPGGA,020003,2604.5325,N,07950.7441,W,1,9,1.5,19,M,,M,,*58
05/29/2014	02:00:03.622	$GPGGA,020004,2604.5316,N,07950.7425,W,1,9,1.5,19,M,,M,,*5D
05/29/2014	02:00:04.624	$GPGGA,020005,2604.5309,N,07950.7408,W,1,9,1.5,19,M,,M,,*5D
05/29/2014	02:00:05.597	$GPGGA,020006,2604.5302,N,07950.7389,W,1,9,1.5,19,M,,M,,*5B
05/29/2014	02:00:06.595	$GPGGA,020007,2604.5293,N,07950.7373,W,1,9,1.5,19,M,,M,,*56
05/29/2014	02:00:07.612	$GPGGA,020008,2604.5285,N,07950.7356,W,1,9,1.5,19,M,,M,,*59
05/29/2014	02:00:08.685	$GPGGA,020009,2604.5277,N,07950.7338,W,1,9,1.5,19,M,,M,,*5D
05/29/2014	02:00:09.687	$GPGGA,020010,2604.5269,N,07950.7321,W,1,9,1.5,19,M,,M,,*52
05/29/2014	02:00:10.590	$GPGGA,020011,2604.5262,N,07950.7303,W,1,9,1.5,19,M,,M,,*58
05/29/2014	02:00:11.612	$GPGGA,020012,2604.5253,N,07950.7285,W,1,9,1.5,19,M,,M,,*56
05/29/2014	02:00:12.595	$GPGGA,020013,2604.5244,N,07950.7268,W,1,9,1.5,19,M,,M,,*52
05/29/2014	02:00:13.691	$GPGGA,020014,2604.5235,N,07950.7251,W,1,9,1.5,19,M,,M,,*59
05/29/2014	02:00:14.730	$GPGGA,020015,2604.5227,N,07950.7233,W,1,9,1.5,19,M,,M,,*5F
05/29/2014	02:00:15.612	$GPGGA,020016,2604.5220,N,07950.7216,W,1,9,1.5,19,M,,M,,*5C
05/29/2014	02:00:16.606	$GPGGA,020017,2604.5212,N,07950.7200,W,1,9,1.5,19,M,,M,,*5B
05/29/2014	02:00:17.687	$GPGGA,020018,2604.5204,N,07950.7182,W,1,9,1.5,19,M,,M,,*5A
05/29/2014	02:00:18.611	$GPGGA,020019,2604.5197,N,07950.7166,W,1,9,1.5,19,M,,M,,*58
05/29/2014	02:00:19.722	$GPGGA,020020,2604.5190,N,07950.7150,W,1,9,1.5,18,M,,M,,*51
05/29/2014	02:00:20.605	$GPGGA,020021,2604.5181,N,07950.7132,W,1,9,1.5,18,M,,M,,*54
05/29/2014	02:00:21.697	$GPGGA,020022,2604.5172,N,07950.7115,W,1,9,1.5,18,M,,M,,*5E
05/29/2014	02:00:22.700	$GPGGA,020023,2604.5163,N,07950.7098,W,1,9,1.5,18,M,,M,,*5B
05/29/2014	02:00:23.713	$GPGGA,020024,2604.5155,N,07950.7081,W,1,9,1.5,18,M,,M,,*51
05/29/2014	02:00:24.706	$GPGGA,020025,2604.5146,N,07950.7064,W,1,9,1.5,18,M,,M,,*59
05/29/2014	02:00:25.708	$GPGGA,020026,2604.5139,N,07950.7048,W,1,9,1.5,18,M,,M,,*5C
05/29/2014	02:00:26.690	$GPGGA,020027,2604.5130,N,07950.7030,W,1,9,1.5,18,M,,M,,*5B
05/29/2014	02:00:27.713	$GPGGA,020028,2604.5122,N,07950.7014,W,1,9,1.5,18,M,,M,,*51
05/29/2014	02:00:28.716	$GPGGA,020029,2604.5114,N,07950.6998,W,1,9,1.5,18,M,,M,,*59
05/29/2014	02:00:29.698	$GPGGA,020030,2604.5105,N,07950.6980,W,1,9,1.5,18,M,,M,,*58
05/29/2014	02:00:30.721	$GPGGA,020031,2604.5097,N,07950.6964,W,1,9,1.5,18,M,,M,,*59
05/29/2014	02:00:32.695	$GPGGA,020033,2604.5080,N,07950.6930,W,1,9,1.5,18,M,,M,,*5C
05/29/2014	02:00:33.707	$GPGGA,020034,2604.5072,N,07950.6914,W,1,9,1.5,18,M,,M,,*50
05/29/2014	02:00:34.730	$GPGGA,020035,2604.5063,N,07950.6897,W,1,9,1.5,18,M,,M,,*5B
05/29/2014	02:00:35.714	$GPGGA,020036,2604.5056,N,07950.6880,W,1,9,1.5,18,M,,M,,*58
05/29/2014	02:00:36.725	$GPGGA,020037,2604.5046,N,07950.6862,W,1,9,1.5,18,M,,M,,*54
05/29/2014	02:00:37.708	$GPGGA,020038,2604.5038,N,07950.6846,W,1,9,1.5,18,M,,M,,*54
05/29/2014	02:00:38.732	$GPGGA,020039,2604.5031,N,07950.6829,W,1,9,1.5,18,M,,M,,*55
05/29/2014	02:00:39.568	$GPGGA,020040,2604.5021,N,07950.6813,W,1,9,1.5,18,M,,M,,*53
05/29/2014	02:00:40.581	$GPGGA,020041,2604.5013,N,07950.6795,W,1,9,1.5,18,M,,M,,*52
05/29/2014	02:00:41.563	$GPGGA,020042,2604.5005,N,07950.6778,W,1,9,1.5,18,M,,M,,*55
05/29/2014	02:00:42.576	$GPGGA,020043,2604.4996,N,07950.6762,W,1,9,1.5,18,M,,M,,*5D
05/29/2014	02:00:43.568	$GPGGA,020044,2604.4988,N,07950.6746,W,1,9,1.5,18,M,,M,,*53
05/29/2014	02:00:44.561	$GPGGA,020045,2604.4980,N,07950.6728,W,1,9,1.5,18,M,,M,,*52
05/29/2014	02:00:45.554	$GPGGA,020046,2604.4973,N,07950.6711,W,1,9,1.5,18,M,,M,,*57
05/29/2014	02:00:46.586	$GPGGA,020047,2604.4963,N,07950.6694,W,1,9,1.5,18,M,,M,,*5B
05/29/2014	02:00:47.569	$GPGGA,020048,2604.4955,N,07950.6677,W,1,9,1.5,18,M,,M,,*5C
05/29/2014	02:00:48.581	$GPGGA,020049,2604.4946,N,07950.6661,W,1,9,1.5,18,M,,M,,*58
05/29/2014	02:00:49.554	$GPGGA,020050,2604.4938,N,07950.6644,W,1,9,1.5,18,M,,M,,*5E
05/29/2014	02:00:50.566	$GPGGA,020051,2604.4930,N,07950.6627,W,1,9,1.5,18,M,,M,,*52
05/29/2014	02:00:51.588	$GPGGA,020052,2604.4920,N,07950.6611,W,1,9,1.5,18,M,,M,,*55
05/29/2014	02:00:52.561	$GPGGA,020053,2604.4913,N,07950.6594,W,1,9,1.5,18,M,,M,,*5A
05/29/2014	02:00:53.553	$GPGGA,020054,2604.4904,N,07950.6577,W,1,9,1.5,18,M,,M,,*56
05/29/2014	02:00:54.597	$GPGGA,020055,2604.4897,N,07950.6560,W,1,9,1.5,18,M,,M,,*5A
05/29/2014	02:00:55.580	$GPGGA,020056,2604.4888,N,07950.6543,W,1,9,1.5,18,M,,M,,*56
05/29/2014	02:00:56.681	$GPGGA,020057,2604.4879,N,07950.6526,W,1,9,1.5,18,M,,M,,*5A
05/29/2014	02:00:57.564	$GPGGA,020058,2604.4870,N,07950.6509,W,1,9,1.5,18,M,,M,,*51
05/29/2014	02:00:58.576	$GPGGA,020059,2604.4862,N,07950.6491,W,1,9,1.5,18,M,,M,,*53
05/29/2014	02:00:59.599	$GPGGA,020100,2604.4854,N,07950.6474,W,1,9,1.5,18,M,,M,,*50
05/29/2014	02:01:00.582	$GPGGA,020101,2604.4845,N,07950.6457,W,1,9,1.5,18,M,,M,,*50
05/29/2014	02:01:01.554	$GPGGA,020102,2604.4837,N,07950.6440,W,1,9,1.5,18,M,,M,,*50
05/29/2014	02:01:02.567	$GPGGA,020103,2604.4830,N,07950.6423,W,1,9,1.5,18,M,,M,,*53
05/29/2014	02:01:03.569	$GPGGA,020104,2604.4822,N,07950.6406,W,1,9,1.5,18,M,,M,,*50
05/29/2014	02:01:04.582	$GPGGA,020105,2604.4814,N,07950.6389,W,1,9,1.5,18,M,,M,,*54
05/29/2014	02:01:05.554	$GPGGA,020106,2604.4805,N,07950.6371,W,1,9,2.0,18,M,,M,,*56
05/29/2014	02:01:06.697	$GPGGA,020107,2604.4796,N,07950.6355,W,1,8,2.0,18,M,,M,,*55
05/29/2014	02:01:07.689	$GPGGA,020108,2604.4789,N,07950.6338,W,1,8,1.5,18,M,,M,,*59
05/29/2014	02:01:08.682	$GPGGA,020109,2604.4779,N,07950.6321,W,1,9,1.5,18,M,,M,,*5E
05/29/2014	02:01:09.664	$GPGGA,020110,2604.4771,N,07950.6304,W,1,9,1.5,18,M,,M,,*59
05/29/2014	02:01:10.567	$GPGGA,020111,2604.4764,N,07950.6287,W,1,8,2.0,18,M,,M,,*51
05/29/2014	02:01:11.669	$GPGGA,020112,2604.4756,N,07950.6269,W,1,8,2.0,18,M,,M,,*53
05/29/2014	02:01:12.702	$GPGGA,020113,2604.4749,N,07950.6252,W,1,9,1.5,18,M,,M,,*53
05/29/2014	02:01:13.665	$GPGGA,020114,2604.4740,N,07950.6235,W,1,9,1.5,18,M,,M,,*5C
05/29/2014	02:01:14.687	$GPGGA,020115,2604.4732,N,07950.6218,W,1,8,2.0,18,M,,M,,*50
05/29/2014	02:01:15.681	$GPGGA,020116,2604.4724,N,07950.6201,W,1,8,1.5,18,M,,M,,*5A
05/29/2014	02:01:16.692	$GPGGA,020117,2604.4716,N,07950.6183,W,1,9,1.5,18,M,,M,,*52
05/29/2014	02:01:17.675	$GPGGA,020118,2604.4708,N,07950.6166,W,1,9,2.0,18,M,,M,,*5F
05/29/2014	02:01:18.657	$GPGGA,020119,2604.4700,N,07950.6150,W,1,8,2.0,18,M,,M,,*52
05/29/2014	02:01:19.680	$GPGGA,020120,2604.4693,N,07950.6133,W,1,8,1.5,18,M,,M,,*50
05/29/2014	02:01:20.711	$GPGGA,020121,2604.4685,N,07950.6115,W,1,9,1.5,18,M,,M,,*53
05/29/2014	02:01:21.675	$GPGGA,020122,2604.4677,N,07950.6099,W,1,9,1.5,19,M,,M,,*59
05/29/2014	02:01:22.688	$GPGGA,020123,2604.4670,N,07950.6082,W,1,9,1.5,19,M,,M,,*55
05/29/2014	02:01:23.681	$GPGGA,020124,2604.4662,N,07950.6064,W,1,9,1.5,19,M,,M,,*59
05/29/2014	02:01:24.693	$GPGGA,020125,2604.4652,N,07950.6048,W,1,9,1.5,19,M,,M,,*55
05/29/2014	02:01:25.665	$GPGGA,020126,2604.4645,N,07950.6030,W,1,9,1.5,19,M,,M,,*5F
05/29/2014	02:01:26.677	$GPGGA,020127,2604.4637,N,07950.6013,W,1,9,1.5,19,M,,M,,*5A
05/29/2014	02:01:27.690	$GPGGA,020128,2604.4628,N,07950.5996,W,1,9,1.5,19,M,,M,,*5C
05/29/2014	02:01:28.672	$GPGGA,020129,2604.4621,N,07950.5979,W,1,9,1.5,19,M,,M,,*55
05/29/2014	02:01:29.685	$GPGGA,020130,2604.4613,N,07950.5962,W,1,9,1.5,19,M,,M,,*56
05/29/2014	02:01:30.668	$GPGGA,020131,2604.4605,N,07950.5945,W,1,9,1.5,19,M,,M,,*55
05/29/2014	02:01:31.710	$GPGGA,020132,2604.4597,N,07950.5929,W,1,9,1.5,19,M,,M,,*54
05/29/2014	02:01:32.673	$GPGGA,020133,2604.4590,N,07950.5912,W,1,9,1.5,19,M,,M,,*5A
05/29/2014	02:01:33.666	$GPGGA,020134,2604.4580,N,07950.5895,W,1,9,1.5,19,M,,M,,*52
05/29/2014	02:01:34.708	$GPGGA,020135,2604.4572,N,07950.5877,W,1,9,1.5,19,M,,M,,*52
05/29/2014	02:01:35.691	$GPGGA,020136,2604.4563,N,07950.5861,W,1,9,1.5,19,M,,M,,*56
05/29/2014	02:01:36.713	$GPGGA,020137,2604.4555,N,07950.5843,W,1,9,1.5,19,M,,M,,*52
05/29/2014	02:01:37.676	$GPGGA,020138,2604.4547,N,07950.5827,W,1,9,1.5,19,M,,M,,*5C
05/29/2014	02:01:38.719	$GPGGA,020139,2604.4538,N,07950.5812,W,1,8,1.6,19,M,,M,,*51
05/29/2014	02:01:39.548	$GPGGA,020140,2604.4532,N,07950.5795,W,1,8,1.6,19,M,,M,,*55
05/29/2014	02:01:40.690	$GPGGA,020141,2604.4522,N,07950.5778,W,1,9,1.5,19,M,,M,,*54
05/29/2014	02:01:41.532	$GPGGA,020142,2604.4512,N,07950.5762,W,1,9,1.5,19,M,,M,,*5F
05/29/2014	02:01:42.524	$GPGGA,020143,2604.4503,N,07950.5744,W,1,9,1.5,19,M,,M,,*5A
05/29/2014	02:01:43.546	$GPGGA,020144,2604.4493,N,07950.5727,W,1,9,1.5,19,M,,M,,*50
05/29/2014	02:01:44.549	$GPGGA,020145,2604.4484,N,07950.5711,W,1,9,1.5,19,M,,M,,*52
05/29/2014	02:01:45.522	$GPGGA,020146,2604.4475,N,07950.5693,W,1,9,1.5,19,M,,M,,*54
05/29/2014	02:01:46.535	$GPGGA,020147,2604.4465,N,07950.5677,W,1,9,1.5,19,M,,M,,*5E
05/29/2014	02:01:47.707	$GPGGA,020148,2604.4456,N,07950.5660,W,1,9,1.5,19,M,,M,,*57
05/29/2014	02:01:48.623	$GPGGA,020149,2604.4449,N,07950.5643,W,1,9,1.5,19,M,,M,,*59
05/29/2014	02:01:49.543	$GPGGA,020150,2604.4442,N,07950.5627,W,1,9,1.5,19,M,,M,,*58
05/29/2014	02:01:50.665	$GPGGA,020151,2604.4432,N,07950.5611,W,1,8,1.5,19,M,,M,,*5A
05/29/2014	02:01:51.548	$GPGGA,020152,2604.4422,N,07950.5593,W,1,8,1.5,19,M,,M,,*51
05/29/2014	02:01:52.650	$GPGGA,020153,2604.4413,N,07950.5576,W,1,9,1.5,19,M,,M,,*58
05/29/2014	02:01:53.703	$GPGGA,020154,2604.4403,N,07950.5559,W,1,9,1.5,19,M,,M,,*53
05/29/2014	02:01:54.655	$GPGGA,020155,2604.4395,N,07950.5541,W,1,9,1.5,19,M,,M,,*53
05/29/2014	02:01:55.557	$GPGGA,020156,2604.4386,N,07950.5524,W,1,9,1.5,19,M,,M,,*51
05/29/2014	02:01:56.660	$GPGGA,020157,2604.4377,N,07950.5508,W,1,9,1.5,19,M,,M,,*50
05/29/2014	02:01:57.703	$GPGGA,020158,2604.4370,N,07950.5491,W,1,9,1.5,19,M,,M,,*59
05/29/2014	02:01:58.669	$GPGGA,020159,2604.4361,N,07950.5474,W,1,9,1.5,19,M,,M,,*53
05/29/2014	02:01:59.737	$GPGGA,020200,2604.4352,N,07950.5457,W,1,9,1.5,19,M,,M,,*5D
05/29/2014	02:02:00.670	$GPGGA,020201,2604.4344,N,07950.5440,W,1,9,1.5,19,M,,M,,*5D
05/29/2014	02:02:01.633	$GPGGA,020202,2604.4335,N,07950.5421,W,1,9,1.5,19,M,,M,,*5F
05/29/2014	02:02:02.685	$GPGGA,020203,2604.4327,N,07950.5405,W,1,9,1.5,19,M,,M,,*5B
05/29/2014	02:02:03.718	$GPGGA,020204,2604.4319,N,07950.5389,W,1,9,1.5,19,M,,M,,*52
05/29/2014	02:02:04.672	$GPGGA,020205,2604.4312,N,07950.5371,W,1,9,1.5,19,M,,M,,*5F
05/29/2014	02:02:05.713	$GPGGA,020206,2604.4305,N,07950.5354,W,1,9,1.5,19,M,,M,,*5D
05/29/2014	02:02:06.677	$GPGGA,020207,2604.4296,N,07950.5336,W,1,9,1.5,19,M,,M,,*53
05/29/2014	02:02:07.649	$GPGGA,020208,2604.4288,N,07950.5319,W,1,9,1.5,19,M,,M,,*5E
05/29/2014	02:02:08.671	$GPGGA,020209,2604.4279,N,07950.5301,W,1,9,1.5,19,M,,M,,*58
05/29/2014	02:02:09.693	$GPGGA,020210,2604.4272,N,07950.5284,W,1,9,1.5,19,M,,M,,*57
05/29/2014	02:02:10.636	$GPGGA,020211,2604.4263,N,07950.5266,W,1,9,1.5,19,M,,M,,*5A
05/29/2014	02:02:11.708	$GPGGA,020212,2604.4255,N,07950.5249,W,1,9,1.5,19,M,,M,,*51
05/29/2014	02:02:12.681	$GPGGA,020213,2604.4247,N,07950.5232,W,1,9,1.5,19,M,,M,,*5F
05/29/2014	02:02:13.633	$GPGGA,020214,2604.4240,N,07950.5215,W,1,9,1.5,19,M,,M,,*5A
05/29/2014	02:02:14.706	$GPGGA,020215,2604.4232,N,07950.5199,W,1,9,1.5,19,M,,M,,*59
05/29/2014	02:02:15.709	$GPGGA,020216,2604.4225,N,07950.5181,W,1,9,1.5,19,M,,M,,*55
05/29/2014	02:02:16.641	$GPGGA,020217,2604.4215,N,07950.5164,W,1,9,1.5,19,M,,M,,*5C
05/29/2014	02:02:17.704	$GPGGA,020218,2604.4208,N,07950.5147,W,1,9,1.5,19,M,,M,,*5E
05/29/2014	02:02:18.635	$GPGGA,020219,2604.4200,N,07950.5129,W,1,9,1.5,19,M,,M,,*5F
05/29/2014	02:02:19.711	$GPGGA,020220,2604.4190,N,07950.5111,W,1,9,1.5,19,M,,M,,*54
05/29/2014	02:02:20.701	$GPGGA,020221,2604.4183,N,07950.5093,W,1,9,1.5,19,M,,M,,*5C
05/29/2014	02:02:21.643	$GPGGA,020222,2604.4174,N,07950.5076,W,1,9,1.5,19,M,,M,,*5C
05/29/2014	02:02:22.676	$GPGGA,020223,2604.4166,N,07950.5059,W,1,9,1.5,19,M,,M,,*53
05/29/2014	02:02:23.719	$GPGGA,020224,2604.4158,N,07950.5041,W,1,9,1.5,19,M,,M,,*50
05/29/2014	02:02:24.671	$GPGGA,020225,2604.4150,N,07950.5023,W,1,9,1.5,19,M,,M,,*5D
05/29/2014	02:02:25.704	$GPGGA,020226,2604.4142,N,07950.5007,W,1,9,1.5,19,M,,M,,*5B
05/29/2014	02:02:26.706	$GPGGA,020227,2604.4135,N,07950.4989,W,1,9,1.5,19,M,,M,,*54
05/29/2014	02:02:27.720	$GPGGA,020228,2604.4128,N,07950.4971,W,1,9,1.5,19,M,,M,,*50
05/29/2014	02:02:28.642	$GPGGA,020229,2604.4118,N,07950.4954,W,1,9,1.5,19,M,,M,,*55
05/29/2014	02:02:29.744	$GPGGA,020230,2604.4109,N,07950.4935,W,1,9,1.5,19,M,,M,,*5A
05/29/2014	02:02:30.697	$GPGGA,020231,2604.4101,N,07950.4917,W,1,9,2.0,19,M,,M,,*55
05/29/2014	02:02:31.729	$GPGGA,020232,2604.4092,N,07950.4899,W,1,9,2.0,19,M,,M,,*5A
05/29/2014	02:02:32.692	$GPGGA,020233,2604.4083,N,07950.4882,W,1,8,1.5,19,M,,M,,*56
05/29/2014	02:02:33.715	$GPGGA,020234,2604.4075,N,07950.4864,W,1,8,1.5,19,M,,M,,*50
05/29/2014	02:02:34.707	$GPGGA,020235,2604.4067,N,07950.4846,W,1,9,1.5,19,M,,M,,*53
05/29/2014	02:02:35.789	$GPGGA,020236,2604.4059,N,07950.4830,W,1,9,1.5,19,M,,M,,*5C
05/29/2014	02:02:36.711	$GPGGA,020237,2604.4052,N,07950.4814,W,1,9,1.5,19,M,,M,,*50
05/29/2014	02:02:37.644	$GPGGA,020238,2604.4043,N,07950.4797,W,1,9,1.5,19,M,,M,,*5B
05/29/2014	02:02:38.647	$GPGGA,020239,2604.4034,N,07950.4780,W,1,9,1.5,19,M,,M,,*5C
05/29/2014	02:02:39.505	$GPGGA,020240,2604.4025,N,07950.4763,W,1,9,1.5,19,M,,M,,*5F
05/29/2014	02:02:40.539	$GPGGA,020241,2604.4016,N,07950.4746,W,1,9,1.5,19,M,,M,,*59
05/29/2014	02:02:41.571	$GPGGA,020242,2604.4007,N,07950.4730,W,1,9,1.5,19,M,,M,,*5B
05/29/2014	02:02:42.593	$GPGGA,020243,2604.3998,N,07950.4712,W,1,9,1.5,19,M,,M,,*52
05/29/2014	02:02:43.606	$GPGGA,020244,2604.3989,N,07950.4696,W,1,9,1.5,19,M,,M,,*58
05/29/2014	02:02:44.609	$GPGGA,020245,2604.3980,N,07950.4680,W,1,9,1.5,19,M,,M,,*57
05/29/2014	02:02:45.591	$GPGGA,020246,2604.3973,N,07950.4662,W,1,9,1.5,19,M,,M,,*54
05/29/2014	02:02:46.633	$GPGGA,020247,2604.3965,N,07950.4646,W,1,9,1.5,19,M,,M,,*54
05/29/2014	02:02:47.627	$GPGGA,020248,2604.3955,N,07950.4629,W,1,9,1.5,19,M,,M,,*51
05/29/2014	02:02:48.619	$GPGGA,020249,2604.3947,N,07950.4612,W,1,9,1.5,19,M,,M,,*5B
05/29/2014	02:02:49.611	$GPGGA,020250,2604.3938,N,07950.4595,W,1,9,1.5,19,M,,M,,*57
05/29/2014	02:02:50.624	$GPGGA,020251,2604.3929,N,07950.4578,W,1,9,1.5,19,M,,M,,*55
05/29/2014	02:02:51.646	$GPGGA,020252,2604.3920,N,07950.4560,W,1,9,1.5,19,M,,M,,*56
05/29/2014	02:02:52.628	$GPGGA,020253,2604.3911,N,07950.4542,W,1,9,1.5,19,M,,M,,*55
05/29/2014	02:02:53.621	$GPGGA,020254,2604.3902,N,07950.4525,W,1,9,1.5,19,M,,M,,*51
05/29/2014	02:02:54.623	$GPGGA,020255,2604.3893,N,07950.4508,W,1,9,1.5,19,M,,M,,*56
05/29/2014	02:02:55.651	$GPGGA,020256,2604.3885,N,07950.4490,W,1,9,1.5,19,M,,M,,*52
05/29/2014	02:02:56.628	$GPGGA,020257,2604.3877,N,07950.4473,W,1,9,1.5,19,M,,M,,*53
05/29/2014	02:02:57.612	$GPGGA,020258,2604.3869,N,07950.4457,W,1,9,1.5,19,M,,M,,*55
05/29/2014	02:02:58.634	$GPGGA,020259,2604.3860,N,07950.4440,W,1,9,1.5,19,M,,M,,*5B
05/29/2014	02:02:59.656	$GPGGA,020300,2604.3853,N,07950.4422,W,1,9,1.5,19,M,,M,,*52
05/29/2014	02:03:00.663	$GPGGA,020301,2604.3843,N,07950.4405,W,1,9,1.5,19,M,,M,,*57
05/29/2014	02:03:01.642	$GPGGA,020302,2604.3835,N,07950.4387,W,1,9,1.5,19,M,,M,,*58
05/29/2014	02:03:02.614	$GPGGA,020303,2604.3826,N,07950.4370,W,1,9,1.5,19,M,,M,,*53
05/29/2014	02:03:03.637	$GPGGA,020304,2604.3817,N,07950.4352,W,1,9,1.5,19,M,,M,,*56
05/29/2014	02:03:04.639	$GPGGA,020305,2604.3808,N,07950.4335,W,1,9,1.5,19,M,,M,,*58
05/29/2014	02:03:05.622	$GPGGA,020306,2604.3808,N,07950.4335,W,1,9,1.5,19,M,,M,,*5B
05/29/2014	02:03:06.654	$GPGGA,020307,2604.3792,N,07950.4299,W,1,9,1.5,19,M,,M,,*51
05/29/2014	02:03:07.647	$GPGGA,020308,2604.3783,N,07950.4283,W,1,9,1.5,19,M,,M,,*55
05/29/2014	02:03:08.619	$GPGGA,020309,2604.3775,N,07950.4266,W,1,9,1.5,19,M,,M,,*56
05/29/2014	02:03:09.633	$GPGGA,020310,2604.3767,N,07950.4249,W,1,9,1.5,19,M,,M,,*50
05/29/2014	02:03:10.624	$GPGGA,020311,2604.3759,N,07950.4231,W,1,9,1.5,19,M,,M,,*53
05/29/2014	02:03:11.636	$GPGGA,020312,2604.3749,N,07950.4214,W,1,9,1.5,19,M,,M,,*56
05/29/2014	02:03:12.729	$GPGGA,020313,2604.3741,N,07950.4197,W,1,9,1.5,19,M,,M,,*57
05/29/2014	02:03:13.662	$GPGGA,020314,2604.3731,N,07950.4180,W,1,9,1.5,19,M,,M,,*51
05/29/2014	02:03:14.635	$GPGGA,020315,2604.3723,N,07950.4163,W,1,9,1.5,19,M,,M,,*5E
05/29/2014	02:03:15.677	$GPGGA,020316,2604.3716,N,07950.4147,W,1,9,1.6,19,M,,M,,*5E
05/29/2014	02:03:16.649	$GPGGA,020317,2604.3707,N,07950.4130,W,1,8,1.6,19,M,,M,,*5E
05/29/2014	02:03:17.622	$GPGGA,020318,2604.3707,N,07950.4130,W,1,8,1.6,19,M,,M,,*51
05/29/2014	02:03:18.655	$GPGGA,020319,2604.3691,N,07950.4097,W,1,8,1.6,19,M,,M,,*52
05/29/2014	02:03:19.747	$GPGGA,020320,2604.3681,N,07950.4079,W,1,8,1.6,19,M,,M,,*59
05/29/2014	02:03:20.740	$GPGGA,020321,2604.3673,N,07950.4062,W,1,9,1.5,19,M,,M,,*5D
05/29/2014	02:03:21.632	$GPGGA,020322,2604.3673,N,07950.4062,W,1,9,1.6,19,M,,M,,*5D
05/29/2014	02:03:22.655	$GPGGA,020323,2604.3665,N,07950.4045,W,1,8,1.6,19,M,,M,,*5F
05/29/2014	02:03:23.637	$GPGGA,020324,2604.3656,N,07950.4029,W,1,8,1.6,18,M,,M,,*53
05/29/2014	02:03:24.730	$GPGGA,020325,2604.3637,N,07950.3996,W,1,9,1.5,18,M,,M,,*5D
05/29/2014	02:03:25.633	$GPGGA,020326,2604.3637,N,07950.3996,W,1,9,1.6,18,M,,M,,*5D
05/29/2014	02:03:26.755	$GPGGA,020327,2604.3620,N,07950.3962,W,1,8,1.6,18,M,,M,,*50
05/29/2014	02:03:27.647	$GPGGA,020328,2604.3620,N,07950.3962,W,1,8,1.6,18,M,,M,,*5F
05/29/2014	02:03:28.720	$GPGGA,020329,2604.3602,N,07950.3928,W,1,9,1.5,18,M,,M,,*52
05/29/2014	02:03:29.722	$GPGGA,020330,2604.3593,N,07950.3912,W,1,9,1.6,18,M,,M,,*5B
05/29/2014	02:03:30.635	$GPGGA,020331,2604.3586,N,07950.3895,W,1,9,1.5,18,M,,M,,*53
05/29/2014	02:03:31.757	$GPGGA,020332,2604.3575,N,07950.3877,W,1,9,1.5,18,M,,M,,*50
05/29/2014	02:03:32.770	$GPGGA,020333,2604.3568,N,07950.3861,W,1,9,1.5,18,M,,M,,*5A
05/29/2014	02:03:33.733	$GPGGA,020334,2604.3557,N,07950.3843,W,1,9,1.5,18,M,,M,,*51
05/29/2014	02:03:34.725	$GPGGA,020335,2604.3548,N,07950.3825,W,1,9,1.5,18,M,,M,,*5E
05/29/2014	02:03:35.748	$GPGGA,020336,2604.3539,N,07950.3808,W,1,9,1.5,18,M,,M,,*54
05/29/2014	02:03:36.720	$GPGGA,020337,2604.3530,N,07950.3791,W,1,9,1.5,18,M,,M,,*53
05/29/2014	02:03:37.724	$GPGGA,020338,2604.3521,N,07950.3773,W,1,9,1.5,18,M,,M,,*50
05/29/2014	02:03:38.737	$GPGGA,020339,2604.3512,N,07950.3755,W,1,9,1.5,18,M,,M,,*55
05/29/2014	02:03:39.585	$GPGGA,020340,2604.3503,N,07950.3738,W,1,9,1.5,18,M,,M,,*50
05/29/2014	02:03:40.596	$GPGGA,020341,2604.3494,N,07950.3721,W,1,9,1.5,18,M,,M,,*56
05/29/2014	02:03:41.569	$GPGGA,020342,2604.3486,N,07950.3703,W,1,9,1.5,18,M,,M,,*56
05/29/2014	02:03:42.591	$GPGGA,020343,2604.3478,N,07950.3686,W,1,9,1.5,18,M,,M,,*5A
05/29/2014	02:03:43.595	$GPGGA,020344,2604.3468,N,07950.3669,W,1,9,1.5,18,M,,M,,*5D
05/29/2014	02:03:44.595	$GPGGA,020345,2604.3459,N,07950.3652,W,1,9,1.5,18,M,,M,,*56
05/29/2014	02:03:45.568	$GPGGA,020346,2604.3452,N,07950.3634,W,1,9,1.5,18,M,,M,,*5E
05/29/2014	02:03:46.600	$GPGGA,020347,2604.3442,N,07950.3617,W,1,9,1.5,18,M,,M,,*5F
05/29/2014	02:03:47.583	$GPGGA,020348,2604.3432,N,07950.3599,W,1,9,1.5,18,M,,M,,*52
05/29/2014	02:03:48.565	$GPGGA,020349,2604.3424,N,07950.3582,W,1,9,1.5,18,M,,M,,*5E
05/29/2014	02:03:49.588	$GPGGA,020350,2604.3416,N,07950.3565,W,1,9,1.5,18,M,,M,,*5E
05/29/2014	02:03:50.571	$GPGGA,020351,2604.3409,N,07950.3547,W,1,9,1.5,18,M,,M,,*51
05/29/2014	02:03:51.603	$GPGGA,020352,2604.3400,N,07950.3531,W,1,9,1.5,18,M,,M,,*5A
05/29/2014	02:03:52.606	$GPGGA,020353,2604.3392,N,07950.3513,W,1,9,1.5,18,M,,M,,*57
05/29/2014	02:03:53.588	$GPGGA,020354,2604.3384,N,07950.3496,W,1,9,1.5,18,M,,M,,*5B
05/29/2014	02:03:54.581	$GPGGA,020355,2604.3376,N,07950.3479,W,1,8,2.0,18,M,,M,,*51
05/29/2014	02:03:55.604	$GPGGA,020356,2604.3367,N,07950.3462,W,1,8,2.0,18,M,,M,,*58
05/29/2014	02:03:56.596	$GPGGA,020357,2604.3359,N,07950.3444,W,1,8,2.0,18,M,,M,,*50
05/29/2014	02:03:57.579	$GPGGA,020358,2604.3351,N,07950.3427,W,1,8,2.0,18,M,,M,,*52
05/29/2014	02:03:58.623	$GPGGA,020359,2604.3342,N,07950.3409,W,1,9,1.5,18,M,,M,,*5A
05/29/2014	02:03:59.614	$GPGGA,020400,2604.3334,N,07950.3392,W,1,9,2.0,18,M,,M,,*53
05/29/2014	02:04:00.597	$GPGGA,020401,2604.3326,N,07950.3375,W,1,8,2.0,18,M,,M,,*59
05/29/2014	02:04:01.590	$GPGGA,020402,2604.3317,N,07950.3358,W,1,8,2.0,18,M,,M,,*57
05/29/2014	02:04:02.711	$GPGGA,020403,2604.3309,N,07950.3341,W,1,9,1.5,18,M,,M,,*56
05/29/2014	02:04:03.603	$GPGGA,020404,2604.3299,N,07950.3325,W,1,9,1.5,18,M,,M,,*5B
05/29/2014	02:04:04.606	$GPGGA,020405,2604.3291,N,07950.3306,W,1,9,1.5,18,M,,M,,*53
05/29/2014	02:04:05.699	$GPGGA,020406,2604.3283,N,07950.3289,W,1,9,2.0,18,M,,M,,*53
05/29/2014	02:04:06.681	$GPGGA,020407,2604.3275,N,07950.3271,W,1,9,1.5,18,M,,M,,*5A
05/29/2014	02:04:07.594	$GPGGA,020408,2604.3268,N,07950.3252,W,1,9,1.5,18,M,,M,,*58
05/29/2014	02:04:08.596	$GPGGA,020409,2604.3260,N,07950.3235,W,1,9,1.5,18,M,,M,,*50
05/29/2014	02:04:09.589	$GPGGA,020410,2604.3252,N,07950.3216,W,1,9,1.5,18,M,,M,,*58
05/29/2014	02:04:10.592	$GPGGA,020411,2604.3244,N,07950.3198,W,1,9,1.5,18,M,,M,,*5B
05/29/2014	02:04:11.724	$GPGGA,020412,2604.3236,N,07950.3181,W,1,9,1.5,18,M,,M,,*55
05/29/2014	02:04:12.587	$GPGGA,020413,2604.3228,N,07950.3163,W,1,9,1.5,18,M,,M,,*57
05/29/2014	02:04:13.599	$GPGGA,020414,2604.3219,N,07950.3146,W,1,9,1.5,18,M,,M,,*55
05/29/2014	02:04:14.722	$GPGGA,020415,2604.3211,N,07950.3130,W,1,9,1.5,18,M,,M,,*5D
05/29/2014	02:04:15.715	$GPGGA,020416,2604.3203,N,07950.3113,W,1,9,1.5,17,M,,M,,*53
05/29/2014	02:04:16.591	$GPGGA,020417,2604.3194,N,07950.3096,W,1,9,1.5,17,M,,M,,*53
05/29/2014	02:04:17.696	$GPGGA,020418,2604.3186,N,07950.3080,W,1,9,1.5,17,M,,M,,*58
05/29/2014	02:04:18.683	$GPGGA,020419,2604.3177,N,07950.3063,W,1,9,1.5,17,M,,M,,*5A
05/29/2014	02:04:19.614	$GPGGA,020420,2604.3169,N,07950.3046,W,1,9,1.6,17,M,,M,,*5B
05/29/2014	02:04:20.607	$GPGGA,020421,2604.3161,N,07950.3030,W,1,8,1.6,17,M,,M,,*52
05/29/2014	02:04:21.689	$GPGGA,020422,2604.3152,N,07950.3013,W,1,8,1.6,17,M,,M,,*50
05/29/2014	02:04:22.722	$GPGGA,020423,2604.3140,N,07950.2994,W,1,8,1.6,17,M,,M,,*55
05/29/2014	02:04:23.705	$GPGGA,020424,2604.3131,N,07950.2977,W,1,8,1.5,17,M,,M,,*5A
05/29/2014	02:04:24.688	$GPGGA,020425,2604.3121,N,07950.2960,W,1,9,1.5,17,M,,M,,*5D
05/29/2014	02:04:25.700	$GPGGA,020426,2604.3113,N,07950.2944,W,1,9,1.5,17,M,,M,,*59
05/29/2014	02:04:26.692	$GPGGA,020427,2604.3105,N,07950.2927,W,1,8,1.6,17,M,,M,,*58
05/29/2014	02:04:27.745	$GPGGA,020428,2604.3098,N,07950.2911,W,1,8,1.6,17,M,,M,,*57
05/29/2014	02:04:28.728	$GPGGA,020429,2604.3088,N,07950.2895,W,1,8,1.6,17,M,,M,,*5A
05/29/2014	02:04:29.700	$GPGGA,020430,2604.3081,N,07950.2878,W,1,8,1.6,17,M,,M,,*58
05/29/2014	02:04:30.715	$GPGGA,020431,2604.3073,N,07950.2862,W,1,8,1.6,17,M,,M,,*5F
05/29/2014	02:04:31.715	$GPGGA,020432,2604.3063,N,07950.2846,W,1,8,1.6,17,M,,M,,*5B
05/29/2014	02:04:32.718	$GPGGA,020433,2604.3055,N,07950.2829,W,1,8,1.6,17,M,,M,,*56
05/29/2014	02:04:33.700	$GPGGA,020434,2604.3046,N,07950.2812,W,1,8,1.6,17,M,,M,,*5B
05/29/2014	02:04:34.723	$GPGGA,020435,2604.3037,N,07950.2796,W,1,8,1.6,17,M,,M,,*5F
05/29/2014	02:04:35.716	$GPGGA,020436,2604.3029,N,07950.2780,W,1,8,1.6,17,M,,M,,*54
05/29/2014	02:04:36.718	$GPGGA,020437,2604.3020,N,07950.2764,W,1,8,1.6,17,M,,M,,*56
05/29/2014	02:04:37.700	$GPGGA,020438,2604.3011,N,07950.2746,W,1,8,1.6,17,M,,M,,*5B
05/29/2014	02:04:38.733	$GPGGA,020439,2604.3001,N,07950.2731,W,1,9,1.5,17,M,,M,,*59
05/29/2014	02:04:39.551	$GPGGA,020440,2604.2993,N,07950.2714,W,1,9,1.5,17,M,,M,,*53
05/29/2014	02:04:40.554	$GPGGA,020441,2604.2986,N,07950.2697,W,1,8,1.6,17,M,,M,,*5E
05/29/2014	02:04:41.548	$GPGGA,020442,2604.2976,N,07950.2682,W,1,8,1.6,17,M,,M,,*56
05/29/2014	02:04:42.539	$GPGGA,020443,2604.2968,N,07950.2665,W,1,8,1.6,17,M,,M,,*51
05/29/2014	02:04:43.571	$GPGGA,020444,2604.2958,N,07950.2648,W,1,8,1.6,17,M,,M,,*5A
05/29/2014	02:04:44.575	$GPGGA,020445,2604.2950,N,07950.2632,W,1,8,1.6,16,M,,M,,*5F
05/29/2014	02:04:45.557	$GPGGA,020446,2604.2941,N,07950.2615,W,1,8,1.6,16,M,,M,,*59
05/29/2014	02:04:46.579	$GPGGA,020447,2604.2932,N,07950.2598,W,1,8,1.6,16,M,,M,,*5A
05/29/2014	02:04:47.572	$GPGGA,020448,2604.2922,N,07950.2581,W,1,8,1.6,16,M,,M,,*5C
05/29/2014	02:04:48.584	$GPGGA,020449,2604.2914,N,07950.2564,W,1,9,1.5,16,M,,M,,*51
05/29/2014	02:04:49.557	$GPGGA,020450,2604.2906,N,07950.2547,W,1,9,1.6,16,M,,M,,*58
05/29/2014	02:04:50.670	$GPGGA,020451,2604.2896,N,07950.2530,W,1,8,1.6,16,M,,M,,*50
05/29/2014	02:04:51.582	$GPGGA,020452,2604.2886,N,07950.2512,W,1,8,1.5,16,M,,M,,*51
05/29/2014	02:04:52.575	$GPGGA,020453,2604.2878,N,07950.2494,W,1,9,1.5,16,M,,M,,*5F
05/29/2014	02:04:53.547	$GPGGA,020454,2604.2867,N,07950.2477,W,1,9,1.5,16,M,,M,,*5B
05/29/2014	02:04:54.569	$GPGGA,020455,2604.2858,N,07950.2460,W,1,9,1.5,16,M,,M,,*50
05/29/2014	02:04:55.572	$GPGGA,020456,2604.2849,N,07950.2442,W,1,9,1.5,16,M,,M,,*53
05/29/2014	02:04:56.564	$GPGGA,020457,2604.2840,N,07950.2425,W,1,9,1.5,17,M,,M,,*5B
05/29/2014	02:04:57.557	$GPGGA,020458,2604.2832,N,07950.2409,W,1,9,1.5,17,M,,M,,*5F
05/29/2014	02:04:58.579	$GPGGA,020459,2604.2823,N,07950.2392,W,1,9,1.5,17,M,,M,,*5B
05/29/2014	02:04:59.582	$GPGGA,020500,2604.2816,N,07950.2375,W,1,9,1.5,17,M,,M,,*59
05/29/2014	02:05:00.685	$GPGGA,020501,2604.2807,N,07950.2359,W,1,9,1.5,17,M,,M,,*56
05/29/2014	02:05:01.648	$GPGGA,020502,2604.2798,N,07950.2341,W,1,9,1.5,17,M,,M,,*55
05/29/2014	02:05:02.550	$GPGGA,020503,2604.2791,N,07950.2324,W,1,9,1.5,17,M,,M,,*5E
05/29/2014	02:05:03.673	$GPGGA,020504,2604.2780,N,07950.2307,W,1,9,1.5,17,M,,M,,*58
05/29/2014	02:05:04.655	$GPGGA,020505,2604.2771,N,07950.2290,W,1,9,1.5,17,M,,M,,*58
05/29/2014	02:05:05.564	$GPGGA,020506,2604.2762,N,07950.2273,W,1,9,1.5,17,M,,M,,*54
05/29/2014	02:05:06.570	$GPGGA,020507,2604.2753,N,07950.2257,W,1,9,1.5,17,M,,M,,*51
05/29/2014	02:05:07.683	$GPGGA,020508,2604.2745,N,07950.2240,W,1,9,1.5,17,M,,M,,*5F
05/29/2014	02:05:09.939	$GPGGA,020510,2604.2729,N,07950.2207,W,1,9,1.6,17,M,,M,,*5C
05/29/2014	02:05:10.691	$GPGGA,020511,2604.2721,N,07950.2190,W,1,9,1.5,17,M,,M,,*5B
05/29/2014	02:05:11.673	$GPGGA,020512,2604.2711,N,07950.2172,W,1,9,1.5,17,M,,M,,*57
05/29/2014	02:05:12.665	$GPGGA,020513,2604.2702,N,07950.2153,W,1,9,1.5,17,M,,M,,*57
05/29/2014	02:05:13.668	$GPGGA,020514,2604.2693,N,07950.2137,W,1,9,1.5,17,M,,M,,*5B
05/29/2014	02:05:14.680	$GPGGA,020515,2604.2684,N,07950.2119,W,1,9,1.5,17,M,,M,,*50
05/29/2014	02:05:15.684	$GPGGA,020516,2604.2676,N,07950.2101,W,1,9,1.5,17,M,,M,,*57
05/29/2014	02:05:16.691	$GPGGA,020517,2604.2668,N,07950.2084,W,1,9,1.5,17,M,,M,,*55
05/29/2014	02:05:17.668	$GPGGA,020518,2604.2659,N,07950.2068,W,1,9,1.5,17,M,,M,,*5A
05/29/2014	02:05:18.670	$GPGGA,020519,2604.2651,N,07950.2051,W,1,9,1.5,17,M,,M,,*59
05/29/2014	02:05:19.683	$GPGGA,020520,2604.2644,N,07950.2033,W,1,9,1.5,17,M,,M,,*53
05/29/2014	02:05:20.686	$GPGGA,020521,2604.2635,N,07950.2016,W,1,9,1.5,17,M,,M,,*53
05/29/2014	02:05:21.668	$GPGGA,020522,2604.2627,N,07950.2000,W,1,9,1.5,17,M,,M,,*54
05/29/2014	02:05:22.691	$GPGGA,020523,2604.2619,N,07950.1982,W,1,9,1.5,17,M,,M,,*58
05/29/2014	02:05:23.694	$GPGGA,020524,2604.2611,N,07950.1964,W,1,9,1.5,17,M,,M,,*5F
05/29/2014	02:05:24.667	$GPGGA,020525,2604.2603,N,07950.1948,W,1,9,1.5,17,M,,M,,*53
05/29/2014	02:05:25.679	$GPGGA,020526,2604.2594,N,07950.1931,W,1,9,1.5,17,M,,M,,*53
05/29/2014	02:05:26.691	$GPGGA,020527,2604.2586,N,07950.1913,W,1,9,1.5,17,M,,M,,*51
05/29/2014	02:05:27.684	$GPGGA,020528,2604.2578,N,07950.1898,W,1,9,1.5,17,M,,M,,*5D
05/29/2014	02:05:28.696	$GPGGA,020529,2604.2570,N,07950.1881,W,1,9,1.5,17,M,,M,,*5C
05/29/2014	02:05:29.678	$GPGGA,020530,2604.2561,N,07950.1863,W,1,9,1.5,17,M,,M,,*58
05/29/2014	02:05:30.661	$GPGGA,020531,2604.2553,N,07950.1846,W,1,9,1.5,17,M,,M,,*5F
05/29/2014	02:05:31.683	$GPGGA,020532,2604.2544,N,07950.1829,W,1,9,1.5,17,M,,M,,*53
05/29/2014	02:05:32.716	$GPGGA,020533,2604.2536,N,07950.1811,W,1,9,1.5,17,M,,M,,*5C
05/29/2014	02:05:33.668	$GPGGA,020534,2604.2527,N,07950.1793,W,1,9,1.5,17,M,,M,,*5E
05/29/2014	02:05:34.681	$GPGGA,020535,2604.2518,N,07950.1776,W,1,9,1.5,17,M,,M,,*58
05/29/2014	02:05:35.704	$GPGGA,020536,2604.2510,N,07950.1758,W,1,9,1.5,17,M,,M,,*5F
05/29/2014	02:05:36.786	$GPGGA,020537,2604.2502,N,07950.1741,W,1,9,1.5,17,M,,M,,*55
05/29/2014	02:05:37.689	$GPGGA,020538,2604.2495,N,07950.1725,W,1,9,1.5,17,M,,M,,*57
05/29/2014	02:05:38.671	$GPGGA,020539,2604.2487,N,07950.1708,W,1,9,1.5,17,M,,M,,*5A
05/29/2014	02:05:39.530	$GPGGA,020540,2604.2478,N,07950.1691,W,1,9,1.5,17,M,,M,,*55
05/29/2014	02:05:40.543	$GPGGA,020541,2604.2469,N,07950.1674,W,1,9,1.5,17,M,,M,,*5F
05/29/2014	02:05:41.635	$GPGGA,020542,2604.2462,N,07950.1656,W,1,9,1.5,17,M,,M,,*57
05/29/2014	02:05:42.648	$GPGGA,020543,2604.2453,N,07950.1639,W,1,9,1.5,17,M,,M,,*5D
05/29/2014	02:05:43.552	$GPGGA,020544,2604.2444,N,07950.1622,W,1,9,1.5,17,M,,M,,*56
05/29/2014	02:05:44.517	$GPGGA,020545,2604.2438,N,07950.1605,W,1,9,1.5,17,M,,M,,*59
05/29/2014	02:05:45.536	$GPGGA,020546,2604.2430,N,07950.1589,W,1,9,1.6,17,M,,M,,*56
05/29/2014	02:05:46.628	$GPGGA,020547,2604.2420,N,07950.1571,W,1,8,1.6,17,M,,M,,*50
05/29/2014	02:05:47.550	$GPGGA,020548,2604.2410,N,07950.1553,W,1,8,1.5,17,M,,M,,*5F
05/29/2014	02:05:48.626	$GPGGA,020549,2604.2401,N,07950.1537,W,1,9,1.5,17,M,,M,,*5D
05/29/2014	02:05:49.635	$GPGGA,020550,2604.2394,N,07950.1520,W,1,9,1.5,17,M,,M,,*58
05/29/2014	02:05:50.538	$GPGGA,020551,2604.2385,N,07950.1503,W,1,9,1.5,17,M,,M,,*58
05/29/2014	02:05:51.640	$GPGGA,020552,2604.2376,N,07950.1487,W,1,9,1.5,17,M,,M,,*5A
05/29/2014	02:05:52.653	$GPGGA,020553,2604.2369,N,07950.1470,W,1,9,1.5,17,M,,M,,*5D
05/29/2014	02:05:53.652	$GPGGA,020554,2604.2362,N,07950.1454,W,1,9,1.6,17,M,,M,,*54
05/29/2014	02:05:54.545	$GPGGA,020555,2604.2351,N,07950.1437,W,1,8,1.6,17,M,,M,,*51
05/29/2014	02:05:55.647	$GPGGA,020556,2604.2344,N,07950.1420,W,1,8,1.5,17,M,,M,,*53
05/29/2014	02:05:56.653	$GPGGA,020557,2604.2336,N,07950.1404,W,1,8,1.6,17,M,,M,,*52
05/29/2014	02:05:57.626	$GPGGA,020558,2604.2325,N,07950.1387,W,1,8,1.6,17,M,,M,,*53
05/29/2014	02:05:58.646	$GPGGA,020559,2604.2318,N,07950.1369,W,1,9,1.5,17,M,,M,,*5E
05/29/2014	02:05:59.652	$GPGGA,020600,2604.2309,N,07950.1354,W,1,9,1.5,17,M,,M,,*5F
05/29/2014	02:06:00.648	$GPGGA,020601,2604.2301,N,07950.1339,W,1,8,1.6,16,M,,M,,*5E
05/29/2014	02:06:01.636	$GPGGA,020602,2604.2293,N,07950.1322,W,1,8,1.6,16,M,,M,,*5D
05/29/2014	02:06:02.639	$GPGGA,020603,2604.2285,N,07950.1306,W,1,8,1.6,16,M,,M,,*5D
05/29/2014	02:06:03.652	$GPGGA,020604,2604.2276,N,07950.1289,W,1,8,1.6,16,M,,M,,*50
05/29/2014	02:06:04.673	$GPGGA,020605,2604.2267,N,07950.1272,W,1,9,1.5,16,M,,M,,*57
05/29/2014	02:06:05.626	$GPGGA,020606,2604.2258,N,07950.1254,W,1,9,1.5,16,M,,M,,*5C
05/29/2014	02:06:06.649	$GPGGA,020607,2604.2249,N,07950.1237,W,1,9,1.5,16,M,,M,,*58
05/29/2014	02:06:07.651	$GPGGA,020608,2604.2240,N,07950.1221,W,1,9,1.5,16,M,,M,,*59
05/29/2014	02:06:08.655	$GPGGA,020609,2604.2232,N,07950.1204,W,1,9,1.5,16,M,,M,,*5A
05/29/2014	02:06:09.636	$GPGGA,020610,2604.2224,N,07950.1187,W,1,9,1.5,16,M,,M,,*5D
05/29/2014	02:06:10.650	$GPGGA,020611,2604.2215,N,07950.1171,W,1,9,1.5,16,M,,M,,*57
05/29/2014	02:06:11.651	$GPGGA,020612,2604.2207,N,07950.1154,W,1,9,1.5,16,M,,M,,*50
05/29/2014	02:06:12.655	$GPGGA,020613,2604.2198,N,07950.1137,W,1,9,1.5,16,M,,M,,*51
05/29/2014	02:06:13.636	$GPGGA,020614,2604.2191,N,07950.1120,W,1,9,1.5,16,M,,M,,*59
05/29/2014	02:06:14.629	$GPGGA,020615,2604.2181,N,07950.1102,W,1,9,1.5,16,M,,M,,*59
05/29/2014	02:06:15.652	$GPGGA,020616,2604.2173,N,07950.1085,W,1,9,1.5,16,M,,M,,*59
05/29/2014	02:06:16.634	$GPGGA,020617,2604.2164,N,07950.1068,W,1,9,1.5,16,M,,M,,*5D
05/29/2014	02:06:17.637	$GPGGA,020618,2604.2156,N,07950.1051,W,1,9,1.5,16,M,,M,,*59
05/29/2014	02:06:18.650	$GPGGA,020619,2604.2148,N,07950.1034,W,1,9,1.5,16,M,,M,,*54
05/29/2014	02:06:19.652	$GPGGA,020620,2604.2141,N,07950.1017,W,1,9,1.5,16,M,,M,,*56
05/29/2014	02:06:20.655	$GPGGA,020621,2604.2131,N,07950.1000,W,1,9,1.5,16,M,,M,,*56
05/29/2014	02:06:21.637	$GPGGA,020622,2604.2123,N,07950.0984,W,1,9,1.5,16,M,,M,,*52
05/29/2014	02:06:22.639	$GPGGA,020623,2604.2114,N,07950.0966,W,1,9,1.5,16,M,,M,,*5B
05/29/2014	02:06:23.672	$GPGGA,020624,2604.2106,N,07950.0949,W,1,9,1.5,16,M,,M,,*52
05/29/2014	02:06:24.706	$GPGGA,020625,2604.2097,N,07950.0931,W,1,9,1.5,16,M,,M,,*55
05/29/2014	02:06:25.657	$GPGGA,020626,2604.2088,N,07950.0914,W,1,9,1.5,16,M,,M,,*5F
05/29/2014	02:06:26.639	$GPGGA,020627,2604.2080,N,07950.0897,W,1,9,1.5,16,M,,M,,*5C
05/29/2014	02:06:27.672	$GPGGA,020628,2604.2072,N,07950.0879,W,1,9,1.5,16,M,,M,,*5E
05/29/2014	02:06:28.644	$GPGGA,020629,2604.2065,N,07950.0863,W,1,9,1.5,16,M,,M,,*52
05/29/2014	02:06:29.747	$GPGGA,020630,2604.2055,N,07950.0846,W,1,9,1.5,16,M,,M,,*5E
05/29/2014	02:06:30.640	$GPGGA,020631,2604.2048,N,07950.0828,W,1,9,1.5,16,M,,M,,*5B
05/29/2014	02:06:31.773	$GPGGA,020632,2604.2039,N,07950.0812,W,1,9,1.5,16,M,,M,,*57
05/29/2014	02:06:32.638	$GPGGA,020633,2604.2030,N,07950.0795,W,1,9,1.5,16,M,,M,,*5F
05/29/2014	02:06:33.768	$GPGGA,020634,2604.2022,N,07950.0777,W,1,9,1.5,16,M,,M,,*57
05/29/2014	02:06:34.770	$GPGGA,020635,2604.2014,N,07950.0760,W,1,9,1.5,16,M,,M,,*55
05/29/2014	02:06:35.653	$GPGGA,020636,2604.2004,N,07950.0742,W,1,9,1.5,16,M,,M,,*57
05/29/2014	02:06:36.765	$GPGGA,020637,2604.1996,N,07950.0725,W,1,9,1.5,16,M,,M,,*56
05/29/2014	02:06:37.768	$GPGGA,020638,2604.1987,N,07950.0707,W,1,9,1.5,16,M,,M,,*59
05/29/2014	02:06:38.761	$GPGGA,020639,2604.1978,N,07950.0690,W,1,9,1.5,16,M,,M,,*57
05/29/2014	02:06:39.607	$GPGGA,020640,2604.1971,N,07950.0673,W,1,9,1.5,16,M,,M,,*5D
05/29/2014	02:06:40.590	$GPGGA,020641,2604.1961,N,07950.0657,W,1,9,1.5,16,M,,M,,*5B
05/29/2014	02:06:41.602	$GPGGA,020642,2604.1954,N,07950.0640,W,1,9,1.5,16,M,,M,,*58
05/29/2014	02:06:42.625	$GPGGA,020643,2604.1946,N,07950.0623,W,1,9,1.5,16,M,,M,,*5F
05/29/2014	02:06:43.613	$GPGGA,020644,2604.1937,N,07950.0606,W,1,9,1.5,16,M,,M,,*59
05/29/2014	02:06:44.610	$GPGGA,020645,2604.1929,N,07950.0589,W,1,9,1.5,16,M,,M,,*53
05/29/2014	02:06:45.603	$GPGGA,020646,2604.1920,N,07950.0570,W,1,9,1.5,16,M,,M,,*5F
05/29/2014	02:06:46.615	$GPGGA,020647,2604.1911,N,07950.0553,W,1,9,1.5,16,M,,M,,*5D
05/29/2014	02:06:47.638	$GPGGA,020648,2604.1902,N,07950.0535,W,1,9,1.5,16,M,,M,,*50
05/29/2014	02:06:48.621	$GPGGA,020649,2604.1893,N,07950.0517,W,1,9,1.5,16,M,,M,,*58
05/29/2014	02:06:49.603	$GPGGA,020650,2604.1885,N,07950.0501,W,1,9,1.5,16,M,,M,,*50
05/29/2014	02:06:50.630	$GPGGA,020651,2604.1878,N,07950.0484,W,1,9,1.5,16,M,,M,,*5F
05/29/2014	02:06:51.618	$GPGGA,020652,2604.1870,N,07950.0467,W,1,9,1.5,16,M,,M,,*59
05/29/2014	02:06:52.632	$GPGGA,020653,2604.1861,N,07950.0451,W,1,9,1.5,16,M,,M,,*5D
05/29/2014	02:06:53.603	$GPGGA,020654,2604.1853,N,07950.0434,W,1,9,1.5,15,M,,M,,*5B
05/29/2014	02:06:54.626	$GPGGA,020655,2604.1845,N,07950.0417,W,1,9,1.5,15,M,,M,,*5C
05/29/2014	02:06:55.619	$GPGGA,020656,2604.1837,N,07950.0401,W,1,9,1.5,15,M,,M,,*5D
05/29/2014	02:06:56.632	$GPGGA,020657,2604.1827,N,07950.0383,W,1,9,1.5,15,M,,M,,*50
05/29/2014	02:06:57.613	$GPGGA,020658,2604.1819,N,07950.0366,W,1,9,1.5,15,M,,M,,*59
05/29/2014	02:06:58.636	$GPGGA,020659,2604.1809,N,07950.0349,W,1,9,1.5,15,M,,M,,*54
05/29/2014	02:06:59.628	$GPGGA,020700,2604.1801,N,07950.0332,W,1,9,1.5,15,M,,M,,*5D
05/29/2014	02:07:00.643	$GPGGA,020701,2604.1794,N,07950.0315,W,1,9,1.5,15,M,,M,,*5A
05/29/2014	02:07:01.614	$GPGGA,020702,2604.1784,N,07950.0298,W,1,9,1.5,15,M,,M,,*5C
05/29/2014	02:07:04.140	$GPGGA,020704,2604.1768,N,07950.0264,W,1,9,1.5,15,M,,M,,*5B
05/29/2014	02:07:04.611	$GPGGA,020705,2604.1759,N,07950.0247,W,1,9,1.5,15,M,,M,,*59
05/29/2014	02:07:05.614	$GPGGA,020706,2604.1750,N,07950.0230,W,1,9,1.5,15,M,,M,,*53
05/29/2014	02:07:06.636	$GPGGA,020707,2604.1742,N,07950.0213,W,1,9,1.5,15,M,,M,,*50
05/29/2014	02:07:07.649	$GPGGA,020708,2604.1733,N,07950.0195,W,1,9,1.5,15,M,,M,,*54
05/29/2014	02:07:08.652	$GPGGA,020709,2604.1725,N,07950.0178,W,1,9,1.5,15,M,,M,,*51
05/29/2014	02:07:09.604	$GPGGA,020710,2604.1716,N,07950.0160,W,1,9,1.5,15,M,,M,,*50
05/29/2014	02:07:10.647	$GPGGA,020711,2604.1708,N,07950.0143,W,1,9,1.5,15,M,,M,,*5F
05/29/2014	02:07:11.619	$GPGGA,020712,2604.1700,N,07950.0126,W,1,9,1.5,15,M,,M,,*57
05/29/2014	02:07:12.675	$GPGGA,020713,2604.1693,N,07950.0108,W,1,9,1.5,15,M,,M,,*51
05/29/2014	02:07:13.624	$GPGGA,020714,2604.1683,N,07950.0091,W,1,9,1.5,15,M,,M,,*56
05/29/2014	02:07:14.656	$GPGGA,020715,2604.1675,N,07950.0073,W,1,9,1.5,15,M,,M,,*52
05/29/2014	02:07:15.639	$GPGGA,020716,2604.1667,N,07950.0056,W,1,9,1.5,15,M,,M,,*55
05/29/2014	02:07:16.642	$GPGGA,020717,2604.1658,N,07950.0038,W,1,9,1.5,15,M,,M,,*50
05/29/2014	02:07:17.614	$GPGGA,020718,2604.1650,N,07950.0020,W,1,9,1.5,15,M,,M,,*5E
05/29/2014	02:07:18.646	$GPGGA,020719,2604.1642,N,07950.0003,W,1,9,1.5,15,M,,M,,*5D
05/29/2014	02:07:19.649	$GPGGA,020720,2604.1632,N,07949.9985,W,1,9,1.5,15,M,,M,,*56
05/29/2014	02:07:20.722	$GPGGA,020721,2604.1624,N,07949.9966,W,1,9,1.5,15,M,,M,,*5D
05/29/2014	02:07:21.714	$GPGGA,020722,2604.1617,N,07949.9949,W,1,9,1.5,15,M,,M,,*53
05/29/2014	02:07:22.617	$GPGGA,020723,2604.1607,N,07949.9931,W,1,9,1.5,15,M,,M,,*5C
05/29/2014	02:07:24.439	$GPGGA,020724,2604.1599,N,07949.9913,W,1,9,1.5,15,M,,M,,*5F
05/29/2014	02:07:24.712	$GPGGA,020725,2604.1591,N,07949.9895,W,1,9,1.5,15,M,,M,,*59
05/29/2014	02:07:25.716	$GPGGA,020726,2604.1583,N,07949.9878,W,1,9,1.5,15,M,,M,,*5A
05/29/2014	02:07:26.718	$GPGGA,020727,2604.1575,N,07949.9860,W,1,8,1.5,15,M,,M,,*5A
05/29/2014	02:07:27.660	$GPGGA,020728,2604.1566,N,07949.9841,W,1,8,1.5,15,M,,M,,*54
05/29/2014	02:07:28.723	$GPGGA,020729,2604.1556,N,07949.9823,W,1,9,1.5,15,M,,M,,*53
05/29/2014	02:07:29.725	$GPGGA,020730,2604.1548,N,07949.9804,W,1,9,1.5,15,M,,M,,*51
05/29/2014	02:07:30.709	$GPGGA,020731,2604.1538,N,07949.9786,W,1,9,1.5,15,M,,M,,*52
05/29/2014	02:07:31.730	$GPGGA,020732,2604.1530,N,07949.9768,W,1,9,1.5,15,M,,M,,*59
05/29/2014	02:07:32.732	$GPGGA,020733,2604.1523,N,07949.9750,W,1,9,1.5,15,M,,M,,*51
05/29/2014	02:07:33.725	$GPGGA,020734,2604.1513,N,07949.9732,W,1,9,1.5,15,M,,M,,*51
05/29/2014	02:07:34.745	$GPGGA,020735,2604.1505,N,07949.9714,W,1,9,1.5,15,M,,M,,*53
05/29/2014	02:07:35.741	$GPGGA,020736,2604.1497,N,07949.9698,W,1,9,1.5,15,M,,M,,*5F
05/29/2014	02:07:36.752	$GPGGA,020737,2604.1490,N,07949.9682,W,1,8,1.5,15,M,,M,,*53
05/29/2014	02:07:37.725	$GPGGA,020738,2604.1483,N,07949.9666,W,1,8,1.5,15,M,,M,,*54
05/29/2014	02:07:38.728	$GPGGA,020739,2604.1476,N,07949.9648,W,1,9,1.5,15,M,,M,,*52
05/29/2014	02:07:39.590	$GPGGA,020740,2604.1467,N,07949.9632,W,1,9,1.5,15,M,,M,,*51
05/29/2014	02:07:40.599	$GPGGA,020741,2604.1458,N,07949.9615,W,1,9,1.5,15,M,,M,,*59
05/29/2014	02:07:41.571	$GPGGA,020742,2604.1449,N,07949.9596,W,1,9,1.5,15,M,,M,,*52
05/29/2014	02:07:42.594	$GPGGA,020743,2604.1440,N,07949.9579,W,1,9,1.5,15,M,,M,,*5B
05/29/2014	02:07:43.597	$GPGGA,020744,2604.1430,N,07949.9562,W,1,9,1.5,15,M,,M,,*51
05/29/2014	02:07:44.604	$GPGGA,020745,2604.1422,N,07949.9545,W,1,9,1.5,15,M,,M,,*56
05/29/2014	02:07:45.582	$GPGGA,020746,2604.1413,N,07949.9528,W,1,9,1.5,15,M,,M,,*5C
05/29/2014	02:07:46.566	$GPGGA,020747,2604.1405,N,07949.9511,W,1,9,1.5,15,M,,M,,*50
05/29/2014	02:07:47.598	$GPGGA,020748,2604.1398,N,07949.9495,W,1,9,1.5,15,M,,M,,*51
05/29/2014	02:07:48.570	$GPGGA,020749,2604.1390,N,07949.9479,W,1,9,1.5,15,M,,M,,*5A
05/29/2014	02:07:49.581	$GPGGA,020750,2604.1382,N,07949.9462,W,1,9,1.5,15,M,,M,,*5B
05/29/2014	02:07:50.564	$GPGGA,020751,2604.1375,N,07949.9444,W,1,9,1.5,15,M,,M,,*56
05/29/2014	02:07:51.586	$GPGGA,020752,2604.1365,N,07949.9427,W,1,9,1.5,15,M,,M,,*51
05/29/2014	02:07:52.589	$GPGGA,020753,2604.1357,N,07949.9410,W,1,9,1.5,15,M,,M,,*55
05/29/2014	02:07:53.571	$GPGGA,020754,2604.1347,N,07949.9393,W,1,9,1.5,15,M,,M,,*5F
05/29/2014	02:07:54.614	$GPGGA,020755,2604.1339,N,07949.9376,W,1,9,1.5,15,M,,M,,*5C
05/29/2014	02:07:55.597	$GPGGA,020756,2604.1330,N,07949.9359,W,1,9,1.5,15,M,,M,,*5B
05/29/2014	02:07:56.609	$GPGGA,020757,2604.1322,N,07949.9343,W,1,9,1.5,15,M,,M,,*52
05/29/2014	02:07:57.582	$GPGGA,020758,2604.1313,N,07949.9327,W,1,9,1.5,15,M,,M,,*5D
05/29/2014	02:07:58.604	$GPGGA,020759,2604.1306,N,07949.9309,W,1,9,1.5,15,M,,M,,*54
05/29/2014	02:07:59.598	$GPGGA,020800,2604.1296,N,07949.9292,W,1,9,1.5,15,M,,M,,*5C
05/29/2014	02:08:00.581	$GPGGA,020801,2604.1288,N,07949.9275,W,1,9,1.5,15,M,,M,,*5B
05/29/2014	02:08:01.592	$GPGGA,020802,2604.1278,N,07949.9258,W,1,9,1.5,15,M,,M,,*58
05/29/2014	02:08:02.605	$GPGGA,020803,2604.1270,N,07949.9241,W,1,9,1.5,15,M,,M,,*59
05/29/2014	02:08:03.597	$GPGGA,020804,2604.1261,N,07949.9223,W,1,9,1.5,15,M,,M,,*5A
05/29/2014	02:08:04.590	$GPGGA,020805,2604.1253,N,07949.9206,W,1,9,1.5,15,M,,M,,*5D
05/29/2014	02:08:05.583	$GPGGA,020806,2604.1245,N,07949.9190,W,1,9,1.5,15,M,,M,,*55
05/29/2014	02:08:06.605	$GPGGA,020807,2604.1236,N,07949.9173,W,1,9,1.5,15,M,,M,,*5D
05/29/2014	02:08:07.607	$GPGGA,020808,2604.1230,N,07949.9156,W,1,9,1.5,15,M,,M,,*53
05/29/2014	02:08:08.609	$GPGGA,020809,2604.1221,N,07949.9140,W,1,9,1.5,15,M,,M,,*55
05/29/2014	02:08:09.682	$GPGGA,020810,2604.1213,N,07949.9122,W,1,9,1.5,15,M,,M,,*58
05/29/2014	02:08:10.706	$GPGGA,020811,2604.1205,N,07949.9106,W,1,9,1.5,15,M,,M,,*58
05/29/2014	02:08:11.607	$GPGGA,020812,2604.1196,N,07949.9088,W,1,9,1.5,15,M,,M,,*55
05/29/2014	02:08:12.580	$GPGGA,020813,2604.1188,N,07949.9071,W,1,9,1.5,15,M,,M,,*5D
05/29/2014	02:08:13.683	$GPGGA,020814,2604.1180,N,07949.9054,W,1,9,1.5,15,M,,M,,*55
05/29/2014	02:08:14.726	$GPGGA,020815,2604.1172,N,07949.9036,W,1,9,1.5,15,M,,M,,*5D
05/29/2014	02:08:15.698	$GPGGA,020816,2604.1165,N,07949.9019,W,1,9,1.5,15,M,,M,,*55
05/29/2014	02:08:16.690	$GPGGA,020817,2604.1158,N,07949.9002,W,1,9,1.5,15,M,,M,,*50
05/29/2014	02:08:17.593	$GPGGA,020818,2604.1149,N,07949.8985,W,1,9,1.5,15,M,,M,,*58
05/29/2014	02:08:18.687	$GPGGA,020819,2604.1141,N,07949.8967,W,1,9,1.5,15,M,,M,,*5D
05/29/2014	02:08:19.708	$GPGGA,020820,2604.1134,N,07949.8949,W,1,9,1.5,15,M,,M,,*59
05/29/2014	02:08:20.711	$GPGGA,020821,2604.1125,N,07949.8931,W,1,9,1.5,15,M,,M,,*57
05/29/2014	02:08:21.694	$GPGGA,020822,2604.1118,N,07949.8913,W,1,9,1.5,15,M,,M,,*5A
05/29/2014	02:08:22.696	$GPGGA,020823,2604.1111,N,07949.8894,W,1,9,1.5,15,M,,M,,*5C
05/29/2014	02:08:23.709	$GPGGA,020824,2604.1102,N,07949.8876,W,1,9,1.5,15,M,,M,,*55
05/29/2014	02:08:24.710	$GPGGA,020825,2604.1095,N,07949.8858,W,1,9,1.5,15,M,,M,,*57
05/29/2014	02:08:25.693	$GPGGA,020826,2604.1088,N,07949.8840,W,1,9,1.5,15,M,,M,,*51
05/29/2014	02:08:26.715	$GPGGA,020827,2604.1080,N,07949.8823,W,1,9,1.5,15,M,,M,,*5D
05/29/2014	02:08:27.699	$GPGGA,020828,2604.1072,N,07949.8805,W,1,9,1.5,15,M,,M,,*5B
05/29/2014	02:08:28.721	$GPGGA,020829,2604.1065,N,07949.8787,W,1,9,1.5,15,M,,M,,*59
05/29/2014	02:08:29.703	$GPGGA,020830,2604.1057,N,07949.8769,W,1,9,1.5,15,M,,M,,*50
05/29/2014	02:08:30.716	$GPGGA,020831,2604.1049,N,07949.8751,W,1,9,1.5,15,M,,M,,*55
05/29/2014	02:08:31.708	$GPGGA,020832,2604.1042,N,07949.8734,W,1,9,1.5,15,M,,M,,*5E
05/29/2014	02:08:32.728	$GPGGA,020833,2604.1033,N,07949.8716,W,1,9,1.5,15,M,,M,,*59
05/29/2014	02:08:33.703	$GPGGA,020834,2604.1025,N,07949.8698,W,1,9,1.5,15,M,,M,,*5E
05/29/2014	02:08:34.706	$GPGGA,020835,2604.1018,N,07949.8681,W,1,9,1.5,15,M,,M,,*59
05/29/2014	02:08:35.709	$GPGGA,020836,2604.1010,N,07949.8664,W,1,9,1.5,15,M,,M,,*59
05/29/2014	02:08:36.701	$GPGGA,020837,2604.1003,N,07949.8646,W,1,9,1.5,15,M,,M,,*5A
05/29/2014	02:08:37.705	$GPGGA,020838,2604.0995,N,07949.8629,W,1,9,1.5,15,M,,M,,*5B
05/29/2014	02:08:38.696	$GPGGA,020839,2604.0988,N,07949.8612,W,1,9,1.5,15,M,,M,,*5E
05/29/2014	02:08:39.565	$GPGGA,020840,2604.0981,N,07949.8595,W,1,9,1.5,15,M,,M,,*55
05/29/2014	02:08:40.558	$GPGGA,020841,2604.0972,N,07949.8578,W,1,9,1.5,15,M,,M,,*5B
05/29/2014	02:08:41.550	$GPGGA,020842,2604.0964,N,07949.8561,W,1,9,1.5,15,M,,M,,*57
05/29/2014	02:08:42.562	$GPGGA,020843,2604.0957,N,07949.8544,W,1,9,1.5,15,M,,M,,*51
05/29/2014	02:08:43.564	$GPGGA,020844,2604.0949,N,07949.8526,W,1,9,1.5,15,M,,M,,*5D
05/29/2014	02:08:44.568	$GPGGA,020845,2604.0941,N,07949.8509,W,1,9,1.5,14,M,,M,,*58
05/29/2014	02:08:45.561	$GPGGA,020846,2604.0932,N,07949.8492,W,1,9,1.5,14,M,,M,,*5C
05/29/2014	02:08:46.562	$GPGGA,020847,2604.0925,N,07949.8475,W,1,9,1.5,14,M,,M,,*52
05/29/2014	02:08:47.675	$GPGGA,020848,2604.0916,N,07949.8458,W,1,9,1.5,14,M,,M,,*52
05/29/2014	02:08:48.537	$GPGGA,020849,2604.0909,N,07949.8442,W,1,9,1.5,14,M,,M,,*56
05/29/2014	02:08:49.560	$GPGGA,020850,2604.0900,N,07949.8425,W,1,9,1.5,14,M,,M,,*56
05/29/2014	02:08:50.563	$GPGGA,020851,2604.0892,N,07949.8408,W,1,9,1.5,14,M,,M,,*52
05/29/2014	02:08:51.675	$GPGGA,020852,2604.0884,N,07949.8391,W,1,9,1.5,14,M,,M,,*51
05/29/2014	02:08:52.668	$GPGGA,020853,2604.0876,N,07949.8375,W,1,9,1.5,14,M,,M,,*57
05/29/2014	02:08:53.671	$GPGGA,020854,2604.0867,N,07949.8358,W,1,9,1.5,14,M,,M,,*5F
05/29/2014	02:08:54.674	$GPGGA,020855,2604.0858,N,07949.8342,W,1,9,1.5,14,M,,M,,*59
05/29/2014	02:08:55.576	$GPGGA,020856,2604.0851,N,07949.8325,W,1,9,1.5,14,M,,M,,*52
05/29/2014	02:08:56.668	$GPGGA,020857,2604.0841,N,07949.8308,W,1,9,1.5,14,M,,M,,*5D
05/29/2014	02:08:57.651	$GPGGA,020858,2604.0833,N,07949.8292,W,1,9,1.5,14,M,,M,,*55
05/29/2014	02:08:58.553	$GPGGA,020859,2604.0826,N,07949.8275,W,1,9,1.5,14,M,,M,,*59
05/29/2014	02:08:59.595	$GPGGA,020900,2604.0816,N,07949.8258,W,1,9,1.5,14,M,,M,,*58
05/29/2014	02:09:00.558	$GPGGA,020901,2604.0807,N,07949.8242,W,1,9,1.5,14,M,,M,,*52
05/29/2014	02:09:01.660	$GPGGA,020902,2604.0799,N,07949.8225,W,1,9,1.5,14,M,,M,,*58
05/29/2014	02:09:02.563	$GPGGA,020903,2604.0790,N,07949.8209,W,1,9,1.5,14,M,,M,,*5E
05/29/2014	02:09:03.666	$GPGGA,020904,2604.0782,N,07949.8192,W,1,9,1.5,14,M,,M,,*5B
05/29/2014	02:09:04.568	$GPGGA,020905,2604.0775,N,07949.8175,W,1,9,1.5,14,M,,M,,*5B
05/29/2014	02:09:05.652	$GPGGA,020906,2604.0766,N,07949.8159,W,1,9,1.5,14,M,,M,,*54
05/29/2014	02:09:06.683	$GPGGA,020907,2604.0757,N,07949.8143,W,1,9,1.5,14,M,,M,,*5C
05/29/2014	02:09:07.676	$GPGGA,020908,2604.0750,N,07949.8126,W,1,9,1.5,14,M,,M,,*57
05/29/2014	02:09:08.690	$GPGGA,020909,2604.0741,N,07949.8109,W,1,9,1.5,14,M,,M,,*5B
05/29/2014	02:09:09.651	$GPGGA,020910,2604.0732,N,07949.8092,W,1,9,1.5,14,M,,M,,*54
05/29/2014	02:09:10.674	$GPGGA,020911,2604.0724,N,07949.8075,W,1,9,1.5,14,M,,M,,*5B
05/29/2014	02:09:11.676	$GPGGA,020912,2604.0717,N,07949.8059,W,1,9,1.5,14,M,,M,,*56
05/29/2014	02:09:12.659	$GPGGA,020913,2604.0708,N,07949.8043,W,1,9,1.5,14,M,,M,,*52
05/29/2014	02:09:13.661	$GPGGA,020914,2604.0700,N,07949.8026,W,1,9,1.5,14,M,,M,,*5E
05/29/2014	02:09:14.674	$GPGGA,020915,2604.0692,N,07949.8009,W,1,9,1.5,14,M,,M,,*58
05/29/2014	02:09:15.678	$GPGGA,020916,2604.0685,N,07949.7993,W,1,9,1.5,14,M,,M,,*58
05/29/2014	02:09:16.680	$GPGGA,020917,2604.0676,N,07949.7975,W,1,9,1.5,14,M,,M,,*5D
05/29/2014	02:09:17.671	$GPGGA,020918,2604.0668,N,07949.7958,W,1,9,1.5,14,M,,M,,*52
05/29/2014	02:09:18.663	$GPGGA,020919,2604.0660,N,07949.7941,W,1,9,1.5,14,M,,M,,*53
05/29/2014	02:09:19.688	$GPGGA,020920,2604.0652,N,07949.7924,W,1,9,1.5,14,M,,M,,*5B
05/29/2014	02:09:20.659	$GPGGA,020921,2604.0645,N,07949.7906,W,1,9,1.5,14,M,,M,,*5C
05/29/2014	02:09:21.671	$GPGGA,020922,2604.0635,N,07949.7889,W,1,9,1.5,14,M,,M,,*5E
05/29/2014	02:09:22.684	$GPGGA,020923,2604.0627,N,07949.7872,W,1,9,1.5,14,M,,M,,*58
05/29/2014	02:09:23.676	$GPGGA,020924,2604.0620,N,07949.7854,W,1,9,1.5,14,M,,M,,*5C
05/29/2014	02:09:24.659	$GPGGA,020925,2604.0611,N,07949.7837,W,1,9,1.5,14,M,,M,,*5A
05/29/2014	02:09:25.672	$GPGGA,020926,2604.0603,N,07949.7821,W,1,9,1.5,14,M,,M,,*5D
05/29/2014	02:09:26.684	$GPGGA,020927,2604.0596,N,07949.7803,W,1,9,1.5,14,M,,M,,*53
05/29/2014	02:09:27.677	$GPGGA,020928,2604.0588,N,07949.7786,W,1,9,1.5,14,M,,M,,*51
05/29/2014	02:09:28.689	$GPGGA,020929,2604.0580,N,07949.7769,W,1,9,1.5,14,M,,M,,*59
05/29/2014	02:09:29.672	$GPGGA,020930,2604.0573,N,07949.7751,W,1,9,1.5,14,M,,M,,*56
05/29/2014	02:09:30.695	$GPGGA,020931,2604.0564,N,07949.7734,W,1,9,1.5,14,M,,M,,*52
05/29/2014	02:09:31.697	$GPGGA,020932,2604.0556,N,07949.7716,W,1,9,1.5,14,M,,M,,*50
05/29/2014	02:09:32.670	$GPGGA,020933,2604.0548,N,07949.7699,W,1,9,1.5,14,M,,M,,*58
05/29/2014	02:09:33.663	$GPGGA,020934,2604.0540,N,07949.7682,W,1,9,1.5,14,M,,M,,*5D
05/29/2014	02:09:34.684	$GPGGA,020935,2604.0533,N,07949.7665,W,1,9,1.5,14,M,,M,,*51
05/29/2014	02:09:35.700	$GPGGA,020936,2604.0526,N,07949.7648,W,1,9,1.5,14,M,,M,,*59
05/29/2014	02:09:36.679	$GPGGA,020937,2604.0518,N,07949.7630,W,1,9,1.5,14,M,,M,,*5A
05/29/2014	02:09:37.662	$GPGGA,020938,2604.0510,N,07949.7612,W,1,9,1.5,14,M,,M,,*5D
05/29/2014	02:09:38.845	$GPGGA,020939,2604.0504,N,07949.7595,W,1,9,1.5,14,M,,M,,*55
05/29/2014	02:09:39.532	$GPGGA,020940,2604.0495,N,07949.7578,W,1,9,1.5,14,M,,M,,*51
05/29/2014	02:09:40.515	$GPGGA,020941,2604.0487,N,07949.7559,W,1,9,1.5,14,M,,M,,*50
05/29/2014	02:09:41.617	$GPGGA,020942,2604.0479,N,07949.7541,W,1,9,1.5,14,M,,M,,*5B
05/29/2014	02:09:42.540	$GPGGA,020943,2604.0472,N,07949.7524,W,1,9,1.5,14,M,,M,,*52
05/29/2014	02:09:43.522	$GPGGA,020944,2604.0464,N,07949.7506,W,1,9,1.5,14,M,,M,,*52
05/29/2014	02:09:44.515	$GPGGA,020945,2604.0457,N,07949.7489,W,1,9,1.5,14,M,,M,,*55
05/29/2014	02:09:45.518	$GPGGA,020946,2604.0450,N,07949.7473,W,1,9,1.5,14,M,,M,,*54
05/29/2014	02:09:46.540	$GPGGA,020947,2604.0443,N,07949.7455,W,1,9,1.5,14,M,,M,,*53
05/29/2014	02:09:47.543	$GPGGA,020948,2604.0434,N,07949.7438,W,1,9,1.5,14,M,,M,,*57
05/29/2014	02:09:48.712	$GPGGA,020949,2604.0428,N,07949.7421,W,1,9,1.5,14,M,,M,,*53
05/29/2014	02:09:49.563	$GPGGA,020950,2604.0419,N,07949.7403,W,1,9,1.5,14,M,,M,,*59
05/29/2014	02:09:50.723	$GPGGA,020951,2604.0411,N,07949.7386,W,1,9,1.5,14,M,,M,,*5A
05/29/2014	02:09:51.664	$GPGGA,020952,2604.0403,N,07949.7368,W,1,9,1.5,14,M,,M,,*5A
05/29/2014	02:09:52.716	$GPGGA,020953,2604.0394,N,07949.7351,W,1,9,1.5,14,M,,M,,*58
05/29/2014	02:09:53.648	$GPGGA,020954,2604.0386,N,07949.7333,W,1,9,1.5,14,M,,M,,*58
05/29/2014	02:09:54.680	$GPGGA,020955,2604.0378,N,07949.7317,W,1,9,1.5,14,M,,M,,*5E
05/29/2014	02:09:55.818	$GPGGA,020956,2604.0371,N,07949.7300,W,1,9,1.5,14,M,,M,,*52
05/29/2014	02:09:56.984	$GPGGA,020957,2604.0363,N,07949.7284,W,1,9,1.5,14,M,,M,,*5D
05/29/2014	02:09:57.618	$GPGGA,020958,2604.0356,N,07949.7266,W,1,9,1.5,14,M,,M,,*58
05/29/2014	02:09:58.732	$GPGGA,020959,2604.0349,N,07949.7249,W,1,9,1.5,14,M,,M,,*5A
05/29/2014	02:09:59.643	$GPGGA,021000,2604.0339,N,07949.7232,W,1,9,1.5,15,M,,M,,*54
05/29/2014	02:10:00.830	$GPGGA,021001,2604.0331,N,07949.7215,W,1,9,1.5,15,M,,M,,*58
05/29/2014	02:10:01.629	$GPGGA,021002,2604.0321,N,07949.7198,W,1,9,1.5,15,M,,M,,*5C
05/29/2014	02:10:02.681	$GPGGA,021003,2604.0313,N,07949.7182,W,1,9,1.5,15,M,,M,,*57
05/29/2014	02:10:03.898	$GPGGA,021004,2604.0305,N,07949.7165,W,1,9,1.5,15,M,,M,,*5E
05/29/2014	02:10:04.736	$GPGGA,021005,2604.0298,N,07949.7149,W,1,9,1.5,15,M,,M,,*54
05/29/2014	02:10:05.619	$GPGGA,021006,2604.0291,N,07949.7133,W,1,9,1.5,15,M,,M,,*53
05/29/2014	02:10:06.732	$GPGGA,021007,2604.0282,N,07949.7116,W,1,9,1.5,15,M,,M,,*57
05/29/2014	02:10:09.098	$GPGGA,021008,2604.0273,N,07949.7100,W,1,9,1.5,15,M,,M,,*51
05/29/2014	02:10:09.118	$GPGGA,021009,2604.0264,N,07949.7082,W,1,8,1.5,15,M,,M,,*5C
05/29/2014	02:10:09.658	$GPGGA,021010,2604.0256,N,07949.7065,W,1,8,1.5,15,M,,M,,*5C
05/29/2014	02:10:10.751	$GPGGA,021011,2604.0247,N,07949.7048,W,1,9,1.5,15,M,,M,,*53
05/29/2014	02:10:11.633	$GPGGA,021012,2604.0238,N,07949.7031,W,1,9,1.5,15,M,,M,,*56
05/29/2014	02:10:12.756	$GPGGA,021013,2604.0229,N,07949.7014,W,1,9,1.5,15,M,,M,,*50
05/29/2014	02:10:13.709	$GPGGA,021014,2604.0221,N,07949.6997,W,1,9,1.5,15,M,,M,,*5C
05/29/2014	02:10:14.631	$GPGGA,021015,2604.0212,N,07949.6981,W,1,9,1.5,15,M,,M,,*5A
05/29/2014	02:10:15.682	$GPGGA,021016,2604.0204,N,07949.6964,W,1,9,1.5,15,M,,M,,*55
05/29/2014	02:10:16.859	$GPGGA,021017,2604.0197,N,07949.6947,W,1,9,1.5,15,M,,M,,*5C
05/29/2014	02:10:17.669	$GPGGA,021018,2604.0188,N,07949.6932,W,1,9,1.5,15,M,,M,,*5F
05/29/2014	02:10:18.712	$GPGGA,021019,2604.0179,N,07949.6915,W,1,9,1.5,15,M,,M,,*55
05/29/2014	02:10:19.832	$GPGGA,021020,2604.0172,N,07949.6898,W,1,9,1.5,15,M,,M,,*50
05/29/2014	02:10:20.638	$GPGGA,021021,2604.0163,N,07949.6881,W,1,9,1.5,15,M,,M,,*59
05/29/2014	02:10:21.629	$GPGGA,021022,2604.0154,N,07949.6864,W,1,9,1.5,15,M,,M,,*55
05/29/2014	02:10:22.752	$GPGGA,021023,2604.0144,N,07949.6847,W,1,9,1.5,15,M,,M,,*54
05/29/2014	02:10:25.049	$GPGGA,021024,2604.0136,N,07949.6830,W,1,9,1.5,15,M,,M,,*56
05/29/2014	02:10:25.068	$GPGGA,021025,2604.0127,N,07949.6814,W,1,9,1.5,15,M,,M,,*51
05/29/2014	02:10:25.670	$GPGGA,021026,2604.0119,N,07949.6798,W,1,9,1.5,15,M,,M,,*54
05/29/2014	02:10:26.632	$GPGGA,021027,2604.0111,N,07949.6781,W,1,9,1.5,15,M,,M,,*55
05/29/2014	02:10:27.694	$GPGGA,021028,2604.0103,N,07949.6765,W,1,9,1.5,15,M,,M,,*53
05/29/2014	02:10:28.901	$GPGGA,021029,2604.0093,N,07949.6748,W,1,9,1.5,15,M,,M,,*55
05/29/2014	02:10:29.639	$GPGGA,021030,2604.0085,N,07949.6731,W,1,9,1.5,15,M,,M,,*54
05/29/2014	02:10:30.645	$GPGGA,021031,2604.0076,N,07949.6713,W,1,9,1.5,15,M,,M,,*59
05/29/2014	02:10:31.704	$GPGGA,021032,2604.0068,N,07949.6696,W,1,9,1.5,15,M,,M,,*59
05/29/2014	02:10:32.737	$GPGGA,021033,2604.0060,N,07949.6679,W,1,9,1.5,15,M,,M,,*51
05/29/2014	02:10:33.740	$GPGGA,021034,2604.0052,N,07949.6663,W,1,9,1.5,15,M,,M,,*5C
05/29/2014	02:10:34.642	$GPGGA,021035,2604.0044,N,07949.6646,W,1,9,1.5,15,M,,M,,*5D
05/29/2014	02:10:35.775	$GPGGA,021036,2604.0036,N,07949.6629,W,1,9,1.5,15,M,,M,,*52
05/29/2014	02:10:36.737	$GPGGA,021037,2604.0027,N,07949.6612,W,1,9,1.5,15,M,,M,,*5B
05/29/2014	02:10:37.740	$GPGGA,021038,2604.0020,N,07949.6595,W,1,9,1.5,15,M,,M,,*5F
05/29/2014	02:10:38.793	$GPGGA,021039,2604.0010,N,07949.6578,W,1,9,1.5,15,M,,M,,*5E
05/29/2014	02:10:39.631	$GPGGA,021040,2604.0002,N,07949.6561,W,1,9,1.5,15,M,,M,,*5B
05/29/2014	02:10:40.604	$GPGGA,021041,2603.9995,N,07949.6543,W,1,9,1.5,15,M,,M,,*53
05/29/2014	02:10:41.596	$GPGGA,021042,2603.9987,N,07949.6526,W,1,9,1.5,15,M,,M,,*50
05/29/2014	02:10:42.640	$GPGGA,021043,2603.9980,N,07949.6509,W,1,9,1.5,15,M,,M,,*5B
05/29/2014	02:10:43.612	$GPGGA,021044,2603.9971,N,07949.6492,W,1,9,1.5,15,M,,M,,*51
05/29/2014	02:10:44.653	$GPGGA,021045,2603.9963,N,07949.6476,W,1,9,1.5,15,M,,M,,*59
05/29/2014	02:10:45.586	$GPGGA,021046,2603.9955,N,07949.6459,W,1,9,1.5,15,M,,M,,*52
05/29/2014	02:10:46.618	$GPGGA,021047,2603.9948,N,07949.6442,W,1,9,1.5,15,M,,M,,*55
05/29/2014	02:10:47.611	$GPGGA,021048,2603.9938,N,07949.6424,W,1,9,1.5,15,M,,M,,*5D
05/29/2014	02:10:48.664	$GPGGA,021049,2603.9930,N,07949.6407,W,1,9,1.5,15,M,,M,,*55
05/29/2014	02:10:50.649	$GPGGA,021050,2603.9922,N,07949.6389,W,1,9,1.5,15,M,,M,,*5F
05/29/2014	02:10:50.669	$GPGGA,021051,2603.9913,N,07949.6373,W,1,9,1.5,15,M,,M,,*59
05/29/2014	02:10:51.621	$GPGGA,021052,2603.9905,N,07949.6355,W,1,9,1.5,15,M,,M,,*59
05/29/2014	02:10:52.674	$GPGGA,021053,2603.9898,N,07949.6337,W,1,9,1.5,15,M,,M,,*59
05/29/2014	02:10:53.606	$GPGGA,021054,2603.9890,N,07949.6321,W,1,9,1.5,15,M,,M,,*51
05/29/2014	02:10:54.639	$GPGGA,021055,2603.9883,N,07949.6304,W,1,9,1.5,15,M,,M,,*55
05/29/2014	02:10:55.612	$GPGGA,021056,2603.9875,N,07949.6286,W,1,9,1.5,15,M,,M,,*54
05/29/2014	02:10:56.635	$GPGGA,021057,2603.9867,N,07949.6269,W,1,9,1.5,15,M,,M,,*57
05/29/2014	02:10:57.607	$GPGGA,021058,2603.9858,N,07949.6252,W,1,9,1.5,15,M,,M,,*5C
05/29/2014	02:10:58.691	$GPGGA,021059,2603.9850,N,07949.6234,W,1,9,1.5,15,M,,M,,*55
05/29/2014	02:10:59.632	$GPGGA,021100,2603.9843,N,07949.6217,W,1,9,1.5,15,M,,M,,*5B
05/29/2014	02:11:00.645	$GPGGA,021101,2603.9833,N,07949.6199,W,1,9,1.5,15,M,,M,,*58
05/29/2014	02:11:01.607	$GPGGA,021102,2603.9825,N,07949.6182,W,1,9,1.5,15,M,,M,,*56
05/29/2014	02:11:02.629	$GPGGA,021103,2603.9825,N,07949.6182,W,1,9,1.5,15,M,,M,,*57
05/29/2014	02:11:03.621	$GPGGA,021104,2603.9810,N,07949.6147,W,1,9,1.5,15,M,,M,,*5F
05/29/2014	02:11:04.634	$GPGGA,021105,2603.9810,N,07949.6147,W,1,9,1.5,15,M,,M,,*5E
05/29/2014	02:11:05.607	$GPGGA,021106,2603.9796,N,07949.6113,W,1,9,1.5,15,M,,M,,*5D
05/29/2014	02:11:06.669	$GPGGA,021107,2603.9787,N,07949.6096,W,1,9,1.5,15,M,,M,,*50
05/29/2014	02:11:07.632	$GPGGA,021108,2603.9780,N,07949.6078,W,1,9,1.5,15,M,,M,,*58
05/29/2014	02:11:08.685	$GPGGA,021109,2603.9772,N,07949.6060,W,1,9,1.5,15,M,,M,,*5D
05/29/2014	02:11:09.617	$GPGGA,021110,2603.9764,N,07949.6043,W,1,9,1.5,15,M,,M,,*53
05/29/2014	02:11:10.660	$GPGGA,021111,2603.9756,N,07949.6025,W,1,8,2.1,15,M,,M,,*55
05/29/2014	02:11:11.632	$GPGGA,021112,2603.9749,N,07949.6007,W,1,8,2.1,15,M,,M,,*58
05/29/2014	02:11:12.665	$GPGGA,021113,2603.9740,N,07949.5990,W,1,8,2.1,15,M,,M,,*54
05/29/2014	02:11:13.617	$GPGGA,021114,2603.9732,N,07949.5972,W,1,8,2.1,15,M,,M,,*5A
05/29/2014	02:11:14.630	$GPGGA,021115,2603.9725,N,07949.5955,W,1,8,2.1,15,M,,M,,*58
05/29/2014	02:11:15.613	$GPGGA,021116,2603.9717,N,07949.5938,W,1,8,2.1,15,M,,M,,*51
05/29/2014	02:11:16.685	$GPGGA,021117,2603.9710,N,07949.5920,W,1,8,2.1,15,M,,M,,*5E
05/29/2014	02:11:17.728	$GPGGA,021118,2603.9702,N,07949.5903,W,1,8,2.1,15,M,,M,,*53
05/29/2014	02:11:18.731	$GPGGA,021119,2603.9695,N,07949.5886,W,1,8,2.1,15,M,,M,,*51
05/29/2014	02:11:19.662	$GPGGA,021120,2603.9688,N,07949.5868,W,1,8,2.1,15,M,,M,,*57
05/29/2014	02:11:20.705	$GPGGA,021121,2603.9678,N,07949.5851,W,1,8,2.1,15,M,,M,,*53
05/29/2014	02:11:21.617	$GPGGA,021122,2603.9670,N,07949.5834,W,1,8,2.1,15,M,,M,,*5B
05/29/2014	02:11:22.700	$GPGGA,021123,2603.9662,N,07949.5817,W,1,8,2.1,15,M,,M,,*58
05/29/2014	02:11:23.653	$GPGGA,021124,2603.9655,N,07949.5800,W,1,8,2.1,15,M,,M,,*5D
05/29/2014	02:11:24.635	$GPGGA,021125,2603.9648,N,07949.5783,W,1,8,2.1,15,M,,M,,*54
05/29/2014	02:11:25.708	$GPGGA,021126,2603.9637,N,07949.5766,W,1,8,2.6,15,M,,M,,*53
05/29/2014	02:11:26.710	$GPGGA,021127,2603.9627,N,07949.5750,W,1,8,2.1,15,M,,M,,*51
05/29/2014	02:11:27.723	$GPGGA,021128,2603.9619,N,07949.5733,W,1,8,2.1,15,M,,M,,*56
05/29/2014	02:11:28.746	$GPGGA,021129,2603.9608,N,07949.5716,W,1,8,2.1,15,M,,M,,*50
05/29/2014	02:11:29.718	$GPGGA,021130,2603.9599,N,07949.5700,W,1,8,2.1,15,M,,M,,*54
05/29/2014	02:11:30.711	$GPGGA,021131,2603.9590,N,07949.5684,W,1,8,2.1,16,M,,M,,*52
05/29/2014	02:11:31.743	$GPGGA,021132,2603.9583,N,07949.5667,W,1,8,2.1,16,M,,M,,*5E
05/29/2014	02:11:32.722	$GPGGA,021133,2603.9576,N,07949.5650,W,1,7,2.6,16,M,,M,,*59
05/29/2014	02:11:33.708	$GPGGA,021134,2603.9567,N,07949.5632,W,1,7,2.1,16,M,,M,,*5D
05/29/2014	02:11:34.741	$GPGGA,021135,2603.9559,N,07949.5616,W,1,8,2.1,16,M,,M,,*58
05/29/2014	02:11:35.735	$GPGGA,021136,2603.9551,N,07949.5599,W,1,8,2.1,16,M,,M,,*57
05/29/2014	02:11:36.726	$GPGGA,021137,2603.9543,N,07949.5582,W,1,8,2.1,16,M,,M,,*5F
05/29/2014	02:11:37.718	$GPGGA,021138,2603.9533,N,07949.5566,W,1,8,2.1,16,M,,M,,*5D
05/29/2014	02:11:38.720	$GPGGA,021139,2603.9525,N,07949.5549,W,1,8,2.1,16,M,,M,,*56
05/29/2014	02:11:39.579	$GPGGA,021140,2603.9516,N,07949.5532,W,1,8,2.1,16,M,,M,,*54
05/29/2014	02:11:40.562	$GPGGA,021141,2603.9507,N,07949.5516,W,1,8,2.1,16,M,,M,,*53
05/29/2014	02:11:42.645	$GPGGA,021143,2603.9489,N,07949.5483,W,1,8,2.1,16,M,,M,,*5B
05/29/2014	02:11:43.579	$GPGGA,021144,2603.9482,N,07949.5466,W,1,8,2.1,16,M,,M,,*5C
05/29/2014	02:11:44.645	$GPGGA,021145,2603.9471,N,07949.5451,W,1,8,2.1,16,M,,M,,*55
05/29/2014	02:11:45.645	$GPGGA,021146,2603.9464,N,07949.5434,W,1,8,2.1,16,M,,M,,*51
05/29/2014	02:11:46.588	$GPGGA,021147,2603.9455,N,07949.5417,W,1,8,2.1,16,M,,M,,*53
05/29/2014	02:11:47.590	$GPGGA,021148,2603.9446,N,07949.5400,W,1,8,2.1,16,M,,M,,*58
05/29/2014	02:11:48.573	$GPGGA,021149,2603.9437,N,07949.5384,W,1,8,2.1,16,M,,M,,*54
05/29/2014	02:11:49.575	$GPGGA,021150,2603.9429,N,07949.5367,W,1,8,2.1,16,M,,M,,*5E
05/29/2014	02:11:50.568	$GPGGA,021151,2603.9421,N,07949.5350,W,1,8,2.1,16,M,,M,,*53
05/29/2014	02:11:51.590	$GPGGA,021152,2603.9413,N,07949.5332,W,1,8,2.1,16,M,,M,,*55
