Software Version Number: 1	Data File Format Number: 1	Build Version Number: 1	Error Count Since VI Started: 0	Manufacturer: Raytheon	 Model Number: RayMarine 120	 S/N: 	 Cal Date: 	 Wind Direction Offset: 0.00	 Slope (M)1: 0.00	 Offset (B)1: 0.00	 Slope (M)2: 0.00	 Offset (B)2: 0.00	 Slope (M)3: 0.00	 Offset (B)3: 0.00	 Slope (M)4: 0.00	 Offset (B)4: 0.00	 Slope (M)5: 0.00	 Offset (B)5: 0.00	 Slope (M)6: 0.00	 Offset (B)6: 0.00
Computer Date	Computer Time	GGA String
06/03/2014	17:00:00.674	$GPGGA,170009,2543.8851,N,08009.7261,W,1,9,2.0,15,M,,M,,*57
06/03/2014	17:00:01.596	$GPGGA,170010,2543.8852,N,08009.7262,W,1,9,2.0,15,M,,M,,*5F
06/03/2014	17:00:02.548	$GPGGA,170011,2543.8851,N,08009.7261,W,1,9,2.0,15,M,,M,,*5E
06/03/2014	17:00:04.955	$GPGGA,170013,2543.8851,N,08009.7261,W,1,9,2.0,15,M,,M,,*5C
06/03/2014	17:00:05.546	$GPGGA,170014,2543.8852,N,08009.7260,W,1,9,2.0,15,M,,M,,*59
06/03/2014	17:00:06.659	$GPGGA,170015,2543.8851,N,08009.7261,W,1,9,2.0,15,M,,M,,*5A
06/03/2014	17:00:07.602	$GPGGA,170016,2543.8850,N,08009.7260,W,1,9,2.0,15,M,,M,,*59
06/03/2014	17:00:08.674	$GPGGA,170017,2543.8850,N,08009.7261,W,1,9,2.0,15,M,,M,,*59
06/03/2014	17:00:09.587	$GPGGA,170018,2543.8850,N,08009.7260,W,1,9,2.0,15,M,,M,,*57
06/03/2014	17:00:10.549	$GPGGA,170019,2543.8850,N,08009.7259,W,1,9,2.0,15,M,,M,,*5C
06/03/2014	17:00:11.612	$GPGGA,170020,2543.8850,N,08009.7259,W,1,9,2.0,14,M,,M,,*57
06/03/2014	17:00:12.644	$GPGGA,170021,2543.8850,N,08009.7259,W,1,9,2.0,14,M,,M,,*56
06/03/2014	17:00:13.546	$GPGGA,170022,2543.8850,N,08009.7259,W,1,9,2.0,14,M,,M,,*55
06/03/2014	17:00:14.649	$GPGGA,170023,2543.8849,N,08009.7259,W,1,9,2.0,14,M,,M,,*5C
06/03/2014	17:00:15.613	$GPGGA,170024,2543.8849,N,08009.7259,W,1,9,2.0,14,M,,M,,*5B
06/03/2014	17:00:16.674	$GPGGA,170025,2543.8849,N,08009.7258,W,1,9,2.0,14,M,,M,,*5B
06/03/2014	17:00:17.546	$GPGGA,170026,2543.8849,N,08009.7259,W,1,9,2.0,14,M,,M,,*59
06/03/2014	17:00:18.649	$GPGGA,170027,2543.8849,N,08009.7258,W,1,9,2.0,14,M,,M,,*59
06/03/2014	17:00:19.612	$GPGGA,170028,2543.8848,N,08009.7258,W,1,9,2.0,14,M,,M,,*57
06/03/2014	17:00:20.664	$GPGGA,170029,2543.8849,N,08009.7258,W,1,9,2.0,14,M,,M,,*57
06/03/2014	17:00:21.657	$GPGGA,170030,2543.8848,N,08009.7258,W,1,9,2.0,14,M,,M,,*5E
06/03/2014	17:00:22.506	$GPGGA,170031,2543.8849,N,08009.7258,W,1,9,2.0,14,M,,M,,*5E
06/03/2014	17:00:23.458	$GPGGA,170032,2543.8848,N,08009.7258,W,1,9,2.0,14,M,,M,,*5C
06/03/2014	17:00:24.511	$GPGGA,170033,2543.8849,N,08009.7258,W,1,9,2.0,14,M,,M,,*5C
06/03/2014	17:00:25.503	$GPGGA,170034,2543.8849,N,08009.7258,W,1,9,2.0,14,M,,M,,*5B
06/03/2014	17:00:26.566	$GPGGA,170035,2543.8849,N,08009.7258,W,1,9,2.0,14,M,,M,,*5A
06/03/2014	17:00:27.519	$GPGGA,170036,2543.8849,N,08009.7258,W,1,9,2.0,14,M,,M,,*59
06/03/2014	17:00:28.521	$GPGGA,170037,2543.8849,N,08009.7258,W,1,9,2.0,14,M,,M,,*58
06/03/2014	17:00:29.514	$GPGGA,170038,2543.8849,N,08009.7258,W,1,9,2.0,14,M,,M,,*57
06/03/2014	17:00:30.535	$GPGGA,170039,2543.8849,N,08009.7258,W,1,9,2.0,14,M,,M,,*56
06/03/2014	17:00:31.518	$GPGGA,170040,2543.8849,N,08009.7257,W,1,9,2.0,14,M,,M,,*57
06/03/2014	17:00:32.581	$GPGGA,170041,2543.8849,N,08009.7258,W,1,9,2.0,14,M,,M,,*59
06/03/2014	17:00:33.513	$GPGGA,170042,2543.8849,N,08009.7257,W,1,9,2.0,14,M,,M,,*55
06/03/2014	17:00:34.536	$GPGGA,170043,2543.8849,N,08009.7258,W,1,9,2.0,14,M,,M,,*5B
06/03/2014	17:00:35.528	$GPGGA,170044,2543.8849,N,08009.7257,W,1,9,2.0,14,M,,M,,*53
06/03/2014	17:00:36.541	$GPGGA,170045,2543.8849,N,08009.7258,W,1,9,2.0,14,M,,M,,*5D
06/03/2014	17:00:37.514	$GPGGA,170046,2543.8849,N,08009.7258,W,1,9,2.0,14,M,,M,,*5E
06/03/2014	17:00:38.556	$GPGGA,170047,2543.8849,N,08009.7258,W,1,9,2.0,14,M,,M,,*5F
06/03/2014	17:00:39.519	$GPGGA,170048,2543.8849,N,08009.7259,W,1,9,2.0,14,M,,M,,*51
06/03/2014	17:00:40.561	$GPGGA,170049,2543.8849,N,08009.7259,W,1,9,2.0,14,M,,M,,*50
06/03/2014	17:00:41.514	$GPGGA,170050,2543.8848,N,08009.7259,W,1,9,2.0,14,M,,M,,*59
06/03/2014	17:00:42.577	$GPGGA,170051,2543.8849,N,08009.7259,W,1,9,2.0,14,M,,M,,*59
06/03/2014	17:00:43.529	$GPGGA,170052,2543.8848,N,08009.7259,W,1,9,2.0,14,M,,M,,*5B
06/03/2014	17:00:44.592	$GPGGA,170053,2543.8849,N,08009.7259,W,1,9,2.0,14,M,,M,,*5B
06/03/2014	17:00:45.535	$GPGGA,170054,2543.8848,N,08009.7259,W,1,9,2.0,14,M,,M,,*5D
06/03/2014	17:00:46.547	$GPGGA,170055,2543.8848,N,08009.7259,W,1,9,2.0,14,M,,M,,*5C
06/03/2014	17:00:47.549	$GPGGA,170056,2543.8848,N,08009.7259,W,1,9,2.0,14,M,,M,,*5F
06/03/2014	17:00:48.571	$GPGGA,170057,2543.8849,N,08009.7259,W,1,9,2.0,14,M,,M,,*5F
06/03/2014	17:00:49.514	$GPGGA,170058,2543.8849,N,08009.7259,W,1,9,2.0,14,M,,M,,*50
06/03/2014	17:00:50.576	$GPGGA,170059,2543.8849,N,08009.7259,W,1,9,2.0,14,M,,M,,*51
06/03/2014	17:00:51.549	$GPGGA,170100,2543.8849,N,08009.7259,W,1,9,2.0,14,M,,M,,*5C
06/03/2014	17:00:52.531	$GPGGA,170101,2543.8849,N,08009.7259,W,1,9,2.0,14,M,,M,,*5D
06/03/2014	17:00:53.524	$GPGGA,170102,2543.8850,N,08009.7259,W,1,9,2.0,14,M,,M,,*56
06/03/2014	17:00:54.647	$GPGGA,170103,2543.8850,N,08009.7259,W,1,9,2.0,14,M,,M,,*57
06/03/2014	17:00:55.539	$GPGGA,170104,2543.8850,N,08009.7259,W,1,9,2.0,14,M,,M,,*50
06/03/2014	17:00:56.602	$GPGGA,170105,2543.8850,N,08009.7259,W,1,9,2.0,14,M,,M,,*51
06/03/2014	17:00:57.534	$GPGGA,170106,2543.8850,N,08009.7259,W,1,9,2.0,14,M,,M,,*52
06/03/2014	17:00:58.557	$GPGGA,170107,2543.8850,N,08009.7259,W,1,9,2.0,14,M,,M,,*53
06/03/2014	17:00:59.570	$GPGGA,170108,2543.8852,N,08009.7259,W,1,9,2.0,14,M,,M,,*5E
06/03/2014	17:01:00.552	$GPGGA,170109,2543.8852,N,08009.7259,W,1,9,2.0,14,M,,M,,*5F
06/03/2014	17:01:01.645	$GPGGA,170110,2543.8852,N,08009.7258,W,1,9,2.0,14,M,,M,,*56
06/03/2014	17:01:02.598	$GPGGA,170111,2543.8851,N,08009.7258,W,1,9,2.0,14,M,,M,,*54
06/03/2014	17:01:03.650	$GPGGA,170112,2543.8852,N,08009.7258,W,1,9,2.0,14,M,,M,,*54
06/03/2014	17:01:04.663	$GPGGA,170113,2543.8851,N,08009.7257,W,1,9,2.0,14,M,,M,,*59
06/03/2014	17:01:05.544	$GPGGA,170114,2543.8851,N,08009.7257,W,1,9,2.0,14,M,,M,,*5E
06/03/2014	17:01:06.617	$GPGGA,170115,2543.8851,N,08009.7257,W,1,9,2.0,14,M,,M,,*5F
06/03/2014	17:01:07.640	$GPGGA,170116,2543.8852,N,08009.7256,W,1,9,2.0,14,M,,M,,*5E
06/03/2014	17:01:08.542	$GPGGA,170117,2543.8852,N,08009.7256,W,1,9,2.0,15,M,,M,,*5E
06/03/2014	17:01:09.625	$GPGGA,170118,2543.8850,N,08009.7257,W,1,9,2.0,15,M,,M,,*52
06/03/2014	17:01:10.668	$GPGGA,170119,2543.8850,N,08009.7258,W,1,9,2.0,15,M,,M,,*5C
06/03/2014	17:01:11.640	$GPGGA,170120,2543.8850,N,08009.7257,W,1,9,2.0,15,M,,M,,*59
06/03/2014	17:01:12.673	$GPGGA,170121,2543.8850,N,08009.7258,W,1,9,2.0,15,M,,M,,*57
06/03/2014	17:01:13.635	$GPGGA,170122,2543.8850,N,08009.7258,W,1,9,2.0,15,M,,M,,*54
06/03/2014	17:01:14.648	$GPGGA,170123,2543.8849,N,08009.7258,W,1,9,2.0,15,M,,M,,*5D
06/03/2014	17:01:15.640	$GPGGA,170124,2543.8849,N,08009.7258,W,1,9,2.0,15,M,,M,,*5A
06/03/2014	17:01:16.663	$GPGGA,170125,2543.8849,N,08009.7259,W,1,9,2.0,15,M,,M,,*5A
06/03/2014	17:01:17.626	$GPGGA,170126,2543.8848,N,08009.7259,W,1,9,2.0,15,M,,M,,*58
06/03/2014	17:01:18.638	$GPGGA,170127,2543.8849,N,08009.7258,W,1,8,2.0,15,M,,M,,*58
06/03/2014	17:01:19.651	$GPGGA,170128,2543.8848,N,08009.7258,W,1,8,2.0,15,M,,M,,*56
06/03/2014	17:01:20.653	$GPGGA,170129,2543.8849,N,08009.7258,W,1,8,2.0,15,M,,M,,*56
06/03/2014	17:01:21.626	$GPGGA,170130,2543.8852,N,08009.7256,W,1,8,2.0,15,M,,M,,*5A
06/03/2014	17:01:22.503	$GPGGA,170131,2543.8850,N,08009.7258,W,1,9,2.0,15,M,,M,,*56
06/03/2014	17:01:23.495	$GPGGA,170132,2543.8850,N,08009.7258,W,1,9,2.0,15,M,,M,,*55
06/03/2014	17:01:24.484	$GPGGA,170133,2543.8850,N,08009.7258,W,1,8,2.0,15,M,,M,,*55
06/03/2014	17:01:25.470	$GPGGA,170134,2543.8850,N,08009.7258,W,1,8,2.0,15,M,,M,,*52
06/03/2014	17:01:26.513	$GPGGA,170135,2543.8850,N,08009.7258,W,1,9,2.0,15,M,,M,,*52
06/03/2014	17:01:27.486	$GPGGA,170136,2543.8849,N,08009.7259,W,1,9,2.0,15,M,,M,,*58
06/03/2014	17:01:28.498	$GPGGA,170137,2543.8849,N,08009.7259,W,1,9,2.0,15,M,,M,,*59
06/03/2014	17:01:29.481	$GPGGA,170138,2543.8849,N,08009.7259,W,1,9,2.0,15,M,,M,,*56
06/03/2014	17:01:30.483	$GPGGA,170139,2543.8849,N,08009.7259,W,1,9,2.0,15,M,,M,,*57
06/03/2014	17:01:31.526	$GPGGA,170140,2543.8849,N,08009.7259,W,1,9,2.0,15,M,,M,,*59
06/03/2014	17:01:32.478	$GPGGA,170141,2543.8848,N,08009.7261,W,1,9,2.0,15,M,,M,,*52
06/03/2014	17:01:33.491	$GPGGA,170142,2543.8849,N,08009.7260,W,1,9,2.0,15,M,,M,,*51
06/03/2014	17:01:34.514	$GPGGA,170143,2543.8848,N,08009.7262,W,1,9,2.0,15,M,,M,,*53
06/03/2014	17:01:35.496	$GPGGA,170144,2543.8847,N,08009.7261,W,1,9,2.0,15,M,,M,,*58
06/03/2014	17:01:36.539	$GPGGA,170145,2543.8848,N,08009.7262,W,1,8,2.0,15,M,,M,,*54
06/03/2014	17:01:37.481	$GPGGA,170146,2543.8846,N,08009.7262,W,1,8,2.0,15,M,,M,,*59
06/03/2014	17:01:38.494	$GPGGA,170147,2543.8846,N,08009.7262,W,1,9,2.0,15,M,,M,,*59
06/03/2014	17:01:39.507	$GPGGA,170148,2543.8846,N,08009.7262,W,1,9,2.0,15,M,,M,,*56
06/03/2014	17:01:40.478	$GPGGA,170149,2543.8846,N,08009.7262,W,1,9,2.0,15,M,,M,,*57
06/03/2014	17:01:41.491	$GPGGA,170150,2543.8848,N,08009.7261,W,1,9,2.0,15,M,,M,,*52
06/03/2014	17:01:42.483	$GPGGA,170151,2543.8847,N,08009.7262,W,1,9,2.0,15,M,,M,,*5F
06/03/2014	17:01:43.506	$GPGGA,170152,2543.8849,N,08009.7261,W,1,9,2.0,15,M,,M,,*51
06/03/2014	17:01:44.499	$GPGGA,170153,2543.8848,N,08009.7262,W,1,9,2.0,15,M,,M,,*52
06/03/2014	17:01:45.491	$GPGGA,170154,2543.8849,N,08009.7261,W,1,9,2.0,15,M,,M,,*57
06/03/2014	17:01:46.624	$GPGGA,170155,2543.8848,N,08009.7262,W,1,9,2.0,15,M,,M,,*54
06/03/2014	17:01:47.506	$GPGGA,170156,2543.8849,N,08009.7261,W,1,9,2.0,15,M,,M,,*55
06/03/2014	17:01:48.519	$GPGGA,170157,2543.8848,N,08009.7262,W,1,9,2.0,15,M,,M,,*56
06/03/2014	17:01:49.492	$GPGGA,170158,2543.8849,N,08009.7261,W,1,9,2.0,15,M,,M,,*5B
06/03/2014	17:01:50.625	$GPGGA,170159,2543.8847,N,08009.7262,W,1,9,2.0,15,M,,M,,*57
06/03/2014	17:01:51.527	$GPGGA,170200,2543.8848,N,08009.7262,W,1,9,2.0,15,M,,M,,*57
06/03/2014	17:01:52.519	$GPGGA,170201,2543.8847,N,08009.7262,W,1,9,2.0,15,M,,M,,*59
06/03/2014	17:01:53.492	$GPGGA,170202,2543.8848,N,08009.7262,W,1,9,2.0,15,M,,M,,*55
06/03/2014	17:01:54.625	$GPGGA,170203,2543.8847,N,08009.7262,W,1,9,2.0,14,M,,M,,*5A
06/03/2014	17:01:55.617	$GPGGA,170204,2543.8846,N,08009.7262,W,1,9,2.0,14,M,,M,,*5C
06/03/2014	17:01:56.590	$GPGGA,170205,2543.8846,N,08009.7263,W,1,9,2.0,14,M,,M,,*5C
06/03/2014	17:01:57.491	$GPGGA,170206,2543.8846,N,08009.7263,W,1,9,2.0,14,M,,M,,*5F
06/03/2014	17:01:58.634	$GPGGA,170207,2543.8846,N,08009.7265,W,1,9,2.0,14,M,,M,,*58
06/03/2014	17:01:59.607	$GPGGA,170208,2543.8846,N,08009.7264,W,1,9,2.0,14,M,,M,,*56
06/03/2014	17:02:00.619	$GPGGA,170209,2543.8846,N,08009.7265,W,1,9,2.0,14,M,,M,,*56
06/03/2014	17:02:01.602	$GPGGA,170210,2543.8846,N,08009.7264,W,1,9,2.0,14,M,,M,,*5F
06/03/2014	17:02:02.595	$GPGGA,170211,2543.8848,N,08009.7265,W,1,9,2.0,14,M,,M,,*51
06/03/2014	17:02:03.607	$GPGGA,170212,2543.8847,N,08009.7264,W,1,9,2.0,14,M,,M,,*5C
06/03/2014	17:02:04.590	$GPGGA,170213,2543.8846,N,08009.7265,W,1,9,2.0,14,M,,M,,*5D
06/03/2014	17:02:05.602	$GPGGA,170214,2543.8846,N,08009.7265,W,1,9,2.0,14,M,,M,,*5A
06/03/2014	17:02:06.625	$GPGGA,170215,2543.8848,N,08009.7265,W,1,9,2.0,14,M,,M,,*55
06/03/2014	17:02:07.608	$GPGGA,170216,2543.8847,N,08009.7265,W,1,9,2.0,14,M,,M,,*59
06/03/2014	17:02:08.590	$GPGGA,170217,2543.8848,N,08009.7265,W,1,9,2.0,14,M,,M,,*57
06/03/2014	17:02:09.603	$GPGGA,170218,2543.8847,N,08009.7265,W,1,9,2.0,14,M,,M,,*57
06/03/2014	17:02:10.615	$GPGGA,170219,2543.8848,N,08009.7265,W,1,9,2.0,14,M,,M,,*59
06/03/2014	17:02:11.608	$GPGGA,170220,2543.8847,N,08009.7265,W,1,9,2.0,13,M,,M,,*5B
06/03/2014	17:02:12.591	$GPGGA,170221,2543.8848,N,08009.7265,W,1,9,2.0,13,M,,M,,*55
06/03/2014	17:02:13.593	$GPGGA,170222,2543.8847,N,08009.7265,W,1,9,2.0,13,M,,M,,*59
06/03/2014	17:02:14.626	$GPGGA,170223,2543.8848,N,08009.7266,W,1,9,2.0,13,M,,M,,*54
06/03/2014	17:02:15.617	$GPGGA,170224,2543.8847,N,08009.7265,W,1,9,2.0,13,M,,M,,*5F
06/03/2014	17:02:16.620	$GPGGA,170225,2543.8848,N,08009.7265,W,1,9,2.0,13,M,,M,,*51
06/03/2014	17:02:17.592	$GPGGA,170226,2543.8849,N,08009.7266,W,1,9,2.0,13,M,,M,,*50
06/03/2014	17:02:18.621	$GPGGA,170227,2543.8848,N,08009.7266,W,1,9,2.0,13,M,,M,,*50
06/03/2014	17:02:19.618	$GPGGA,170228,2543.8849,N,08009.7265,W,1,9,2.0,13,M,,M,,*5D
06/03/2014	17:02:20.640	$GPGGA,170229,2543.8848,N,08009.7266,W,1,9,2.0,13,M,,M,,*5E
06/03/2014	17:02:21.603	$GPGGA,170230,2543.8849,N,08009.7266,W,1,9,2.0,13,M,,M,,*57
06/03/2014	17:02:22.460	$GPGGA,170231,2543.8848,N,08009.7266,W,1,9,2.0,13,M,,M,,*57
06/03/2014	17:02:23.474	$GPGGA,170232,2543.8849,N,08009.7267,W,1,9,2.0,13,M,,M,,*54
06/03/2014	17:02:24.446	$GPGGA,170233,2543.8847,N,08009.7267,W,1,9,2.0,13,M,,M,,*5B
06/03/2014	17:02:25.448	$GPGGA,170234,2543.8848,N,08009.7267,W,1,9,2.0,13,M,,M,,*53
06/03/2014	17:02:26.451	$GPGGA,170235,2543.8849,N,08009.7267,W,1,9,2.0,13,M,,M,,*53
06/03/2014	17:02:27.484	$GPGGA,170236,2543.8848,N,08009.7267,W,1,9,2.0,13,M,,M,,*51
06/03/2014	17:02:28.456	$GPGGA,170237,2543.8849,N,08009.7267,W,1,9,2.0,13,M,,M,,*51
06/03/2014	17:02:29.459	$GPGGA,170238,2543.8847,N,08009.7267,W,1,9,2.0,13,M,,M,,*50
06/03/2014	17:02:30.471	$GPGGA,170239,2543.8849,N,08009.7267,W,1,9,2.0,13,M,,M,,*5F
06/03/2014	17:02:31.454	$GPGGA,170240,2543.8848,N,08009.7267,W,1,9,2.0,13,M,,M,,*50
06/03/2014	17:02:32.475	$GPGGA,170241,2543.8849,N,08009.7267,W,1,9,2.0,13,M,,M,,*50
06/03/2014	17:02:33.448	$GPGGA,170242,2543.8848,N,08009.7267,W,1,9,2.0,13,M,,M,,*52
06/03/2014	17:02:34.471	$GPGGA,170243,2543.8849,N,08009.7267,W,1,9,2.0,13,M,,M,,*52
06/03/2014	17:02:35.463	$GPGGA,170244,2543.8848,N,08009.7269,W,1,9,2.0,13,M,,M,,*5A
06/03/2014	17:02:36.546	$GPGGA,170245,2543.8849,N,08009.7268,W,1,9,2.0,13,M,,M,,*5B
06/03/2014	17:02:37.458	$GPGGA,170246,2543.8848,N,08009.7269,W,1,9,2.0,13,M,,M,,*58
06/03/2014	17:02:38.561	$GPGGA,170247,2543.8849,N,08009.7268,W,1,9,2.0,13,M,,M,,*59
06/03/2014	17:02:39.584	$GPGGA,170248,2543.8848,N,08009.7269,W,1,9,2.0,13,M,,M,,*56
06/03/2014	17:02:40.476	$GPGGA,170249,2543.8847,N,08009.7269,W,1,9,2.0,13,M,,M,,*58
06/03/2014	17:02:41.559	$GPGGA,170250,2543.8848,N,08009.7269,W,1,9,2.0,13,M,,M,,*5F
06/03/2014	17:02:42.552	$GPGGA,170251,2543.8847,N,08009.7269,W,1,9,2.0,13,M,,M,,*51
06/03/2014	17:02:43.574	$GPGGA,170252,2543.8848,N,08009.7270,W,1,9,2.0,13,M,,M,,*55
06/03/2014	17:02:44.557	$GPGGA,170253,2543.8847,N,08009.7270,W,1,9,2.0,13,M,,M,,*5B
06/03/2014	17:02:45.559	$GPGGA,170254,2543.8848,N,08009.7269,W,1,9,2.0,13,M,,M,,*5B
06/03/2014	17:02:46.552	$GPGGA,170255,2543.8847,N,08009.7270,W,1,9,2.0,13,M,,M,,*5D
06/03/2014	17:02:47.575	$GPGGA,170256,2543.8848,N,08009.7269,W,1,9,2.0,13,M,,M,,*59
06/03/2014	17:02:48.587	$GPGGA,170257,2543.8846,N,08009.7270,W,1,9,2.0,13,M,,M,,*5E
06/03/2014	17:02:49.560	$GPGGA,170258,2543.8846,N,08009.7270,W,1,9,2.0,13,M,,M,,*51
06/03/2014	17:02:50.591	$GPGGA,170259,2543.8846,N,08009.7270,W,1,9,2.0,14,M,,M,,*57
06/03/2014	17:02:51.594	$GPGGA,170300,2543.8846,N,08009.7270,W,1,9,2.0,14,M,,M,,*5A
06/03/2014	17:02:52.577	$GPGGA,170301,2543.8846,N,08009.7270,W,1,9,2.0,14,M,,M,,*5B
06/03/2014	17:02:53.559	$GPGGA,170302,2543.8846,N,08009.7270,W,1,9,2.0,14,M,,M,,*58
06/03/2014	17:02:54.582	$GPGGA,170303,2543.8846,N,08009.7270,W,1,9,2.0,14,M,,M,,*59
06/03/2014	17:02:55.584	$GPGGA,170304,2543.8846,N,08009.7270,W,1,9,2.0,14,M,,M,,*5E
06/03/2014	17:02:56.567	$GPGGA,170305,2543.8846,N,08009.7270,W,1,9,2.0,14,M,,M,,*5F
06/03/2014	17:02:57.560	$GPGGA,170306,2543.8844,N,08009.7272,W,1,9,2.0,14,M,,M,,*5C
06/03/2014	17:02:58.582	$GPGGA,170307,2543.8843,N,08009.7271,W,1,9,2.0,14,M,,M,,*59
06/03/2014	17:02:59.585	$GPGGA,170308,2543.8844,N,08009.7272,W,1,9,2.0,14,M,,M,,*52
06/03/2014	17:03:00.587	$GPGGA,170309,2543.8843,N,08009.7271,W,1,9,2.0,14,M,,M,,*57
06/03/2014	17:03:01.570	$GPGGA,170310,2543.8844,N,08009.7272,W,1,9,2.0,14,M,,M,,*5B
06/03/2014	17:03:02.593	$GPGGA,170311,2543.8843,N,08009.7271,W,1,9,2.0,14,M,,M,,*5E
06/03/2014	17:03:03.575	$GPGGA,170312,2543.8844,N,08009.7272,W,1,9,2.0,14,M,,M,,*59
06/03/2014	17:03:04.588	$GPGGA,170313,2543.8842,N,08009.7271,W,1,9,2.0,14,M,,M,,*5D
06/03/2014	17:03:05.580	$GPGGA,170314,2543.8842,N,08009.7272,W,1,9,2.0,14,M,,M,,*59
06/03/2014	17:03:06.588	$GPGGA,170315,2543.8842,N,08009.7271,W,1,9,2.0,14,M,,M,,*5B
06/03/2014	17:03:07.574	$GPGGA,170316,2543.8842,N,08009.7272,W,1,9,2.0,14,M,,M,,*5B
06/03/2014	17:03:08.567	$GPGGA,170317,2543.8842,N,08009.7271,W,1,9,2.0,14,M,,M,,*59
06/03/2014	17:03:09.580	$GPGGA,170318,2543.8842,N,08009.7272,W,1,9,2.0,14,M,,M,,*55
06/03/2014	17:03:10.572	$GPGGA,170319,2543.8842,N,08009.7271,W,1,9,2.0,14,M,,M,,*57
06/03/2014	17:03:11.585	$GPGGA,170320,2543.8842,N,08009.7272,W,1,9,2.0,14,M,,M,,*5E
06/03/2014	17:03:12.567	$GPGGA,170321,2543.8842,N,08009.7271,W,1,9,2.0,14,M,,M,,*5C
06/03/2014	17:03:13.580	$GPGGA,170322,2543.8842,N,08009.7270,W,1,9,2.0,14,M,,M,,*5E
06/03/2014	17:03:14.593	$GPGGA,170323,2543.8842,N,08009.7270,W,1,9,1.9,14,M,,M,,*55
06/03/2014	17:03:15.595	$GPGGA,170324,2543.8842,N,08009.7270,W,1,9,1.9,14,M,,M,,*52
06/03/2014	17:03:16.608	$GPGGA,170325,2543.8842,N,08009.7270,W,1,9,1.9,14,M,,M,,*53
06/03/2014	17:03:17.691	$GPGGA,170326,2543.8840,N,08009.7270,W,1,9,1.9,14,M,,M,,*52
06/03/2014	17:03:18.663	$GPGGA,170327,2543.8841,N,08009.7270,W,1,9,1.9,14,M,,M,,*52
06/03/2014	17:03:19.576	$GPGGA,170328,2543.8840,N,08009.7272,W,1,9,1.9,14,M,,M,,*5E
06/03/2014	17:03:20.588	$GPGGA,170329,2543.8841,N,08009.7270,W,1,8,2.0,14,M,,M,,*57
06/03/2014	17:03:21.571	$GPGGA,170330,2543.8842,N,08009.7269,W,1,8,1.9,14,M,,M,,*5E
06/03/2014	17:03:22.420	$GPGGA,170331,2543.8842,N,08009.7269,W,1,9,1.9,14,M,,M,,*5E
06/03/2014	17:03:23.443	$GPGGA,170332,2543.8845,N,08009.7268,W,1,9,1.9,14,M,,M,,*5B
06/03/2014	17:03:24.555	$GPGGA,170333,2543.8846,N,08009.7267,W,1,9,1.9,14,M,,M,,*56
06/03/2014	17:03:25.427	$GPGGA,170334,2543.8844,N,08009.7267,W,1,9,1.9,14,M,,M,,*53
06/03/2014	17:03:26.520	$GPGGA,170335,2543.8843,N,08009.7269,W,1,8,2.0,14,M,,M,,*50
06/03/2014	17:03:27.432	$GPGGA,170336,2543.8844,N,08009.7268,W,1,8,2.0,14,M,,M,,*55
06/03/2014	17:03:28.415	$GPGGA,170337,2543.8843,N,08009.7269,W,1,8,2.0,14,M,,M,,*52
06/03/2014	17:03:29.518	$GPGGA,170338,2543.8845,N,08009.7267,W,1,8,2.0,14,M,,M,,*55
06/03/2014	17:03:30.540	$GPGGA,170339,2543.8846,N,08009.7267,W,1,9,1.9,14,M,,M,,*5C
06/03/2014	17:03:31.443	$GPGGA,170340,2543.8844,N,08009.7269,W,1,9,1.9,15,M,,M,,*5F
06/03/2014	17:03:32.536	$GPGGA,170341,2543.8845,N,08009.7268,W,1,8,2.0,15,M,,M,,*55
06/03/2014	17:03:33.528	$GPGGA,170342,2543.8843,N,08009.7269,W,1,8,1.9,15,M,,M,,*5B
06/03/2014	17:03:34.531	$GPGGA,170343,2543.8845,N,08009.7268,W,1,9,1.9,15,M,,M,,*5C
06/03/2014	17:03:35.543	$GPGGA,170344,2543.8846,N,08009.7267,W,1,9,1.9,15,M,,M,,*57
06/03/2014	17:03:36.536	$GPGGA,170345,2543.8846,N,08009.7267,W,1,9,1.9,15,M,,M,,*56
06/03/2014	17:03:37.539	$GPGGA,170346,2543.8846,N,08009.7269,W,1,9,1.9,15,M,,M,,*5B
06/03/2014	17:03:38.521	$GPGGA,170347,2543.8846,N,08009.7268,W,1,8,2.0,15,M,,M,,*50
06/03/2014	17:03:39.544	$GPGGA,170348,2543.8844,N,08009.7269,W,1,8,1.9,15,M,,M,,*56
06/03/2014	17:03:40.556	$GPGGA,170349,2543.8846,N,08009.7268,W,1,9,1.9,15,M,,M,,*55
06/03/2014	17:03:41.539	$GPGGA,170350,2543.8846,N,08009.7269,W,1,9,1.9,15,M,,M,,*5C
06/03/2014	17:03:42.523	$GPGGA,170351,2543.8846,N,08009.7267,W,1,9,1.9,15,M,,M,,*53
06/03/2014	17:03:43.553	$GPGGA,170352,2543.8846,N,08009.7267,W,1,9,1.9,15,M,,M,,*50
06/03/2014	17:03:44.556	$GPGGA,170353,2543.8848,N,08009.7267,W,1,9,1.9,15,M,,M,,*5F
06/03/2014	17:03:45.538	$GPGGA,170354,2543.8846,N,08009.7269,W,1,9,1.9,15,M,,M,,*58
06/03/2014	17:03:46.551	$GPGGA,170355,2543.8846,N,08009.7269,W,1,8,2.0,16,M,,M,,*51
06/03/2014	17:03:47.545	$GPGGA,170356,2543.8846,N,08009.7269,W,1,8,2.0,16,M,,M,,*52
06/03/2014	17:03:48.556	$GPGGA,170357,2543.8846,N,08009.7270,W,1,8,2.0,16,M,,M,,*5B
06/03/2014	17:03:49.529	$GPGGA,170358,2543.8846,N,08009.7270,W,1,8,1.9,16,M,,M,,*5E
06/03/2014	17:03:50.552	$GPGGA,170359,2543.8846,N,08009.7272,W,1,9,1.9,16,M,,M,,*5C
06/03/2014	17:03:51.574	$GPGGA,170400,2543.8844,N,08009.7271,W,1,9,2.0,16,M,,M,,*5C
06/03/2014	17:03:52.536	$GPGGA,170401,2543.8845,N,08009.7272,W,1,8,2.0,16,M,,M,,*5E
06/03/2014	17:03:53.550	$GPGGA,170402,2543.8844,N,08009.7272,W,1,8,1.9,16,M,,M,,*56
06/03/2014	17:03:54.532	$GPGGA,170403,2543.8843,N,08009.7272,W,1,8,2.0,16,M,,M,,*5A
06/03/2014	17:03:55.554	$GPGGA,170404,2543.8844,N,08009.7273,W,1,8,1.9,16,M,,M,,*51
06/03/2014	17:03:56.537	$GPGGA,170405,2543.8842,N,08009.7274,W,1,9,1.9,16,M,,M,,*50
06/03/2014	17:03:57.539	$GPGGA,170406,2543.8842,N,08009.7274,W,1,9,1.9,15,M,,M,,*50
06/03/2014	17:03:58.542	$GPGGA,170407,2543.8842,N,08009.7274,W,1,9,1.9,15,M,,M,,*51
06/03/2014	17:03:59.544	$GPGGA,170408,2543.8842,N,08009.7276,W,1,9,1.9,15,M,,M,,*5C
06/03/2014	17:04:00.546	$GPGGA,170409,2543.8842,N,08009.7275,W,1,9,1.9,15,M,,M,,*5E
06/03/2014	17:04:01.549	$GPGGA,170410,2543.8842,N,08009.7276,W,1,9,1.9,15,M,,M,,*55
06/03/2014	17:04:02.573	$GPGGA,170411,2543.8840,N,08009.7276,W,1,9,1.9,15,M,,M,,*56
06/03/2014	17:04:03.564	$GPGGA,170412,2543.8841,N,08009.7276,W,1,9,1.9,15,M,,M,,*54
06/03/2014	17:04:04.590	$GPGGA,170413,2543.8840,N,08009.7276,W,1,9,1.9,15,M,,M,,*54
06/03/2014	17:04:05.539	$GPGGA,170414,2543.8839,N,08009.7276,W,1,9,1.9,14,M,,M,,*5C
06/03/2014	17:04:06.562	$GPGGA,170415,2543.8841,N,08009.7276,W,1,9,1.9,14,M,,M,,*52
06/03/2014	17:04:07.655	$GPGGA,170416,2543.8840,N,08009.7276,W,1,9,1.9,14,M,,M,,*50
06/03/2014	17:04:08.677	$GPGGA,170417,2543.8839,N,08009.7276,W,1,9,1.9,14,M,,M,,*5F
06/03/2014	17:04:09.560	$GPGGA,170418,2543.8841,N,08009.7275,W,1,9,1.9,14,M,,M,,*5C
06/03/2014	17:04:10.562	$GPGGA,170419,2543.8840,N,08009.7276,W,1,9,1.9,14,M,,M,,*5F
06/03/2014	17:04:11.675	$GPGGA,170420,2543.8841,N,08009.7275,W,1,9,1.9,14,M,,M,,*57
06/03/2014	17:04:12.567	$GPGGA,170421,2543.8840,N,08009.7276,W,1,9,1.9,14,M,,M,,*54
06/03/2014	17:04:13.550	$GPGGA,170422,2543.8841,N,08009.7275,W,1,9,1.9,14,M,,M,,*55
06/03/2014	17:04:14.543	$GPGGA,170423,2543.8840,N,08009.7276,W,1,9,1.9,14,M,,M,,*56
06/03/2014	17:04:15.665	$GPGGA,170424,2543.8842,N,08009.7274,W,1,9,1.9,14,M,,M,,*51
06/03/2014	17:04:16.678	$GPGGA,170425,2543.8842,N,08009.7274,W,1,9,1.9,14,M,,M,,*50
06/03/2014	17:04:17.650	$GPGGA,170426,2543.8842,N,08009.7274,W,1,9,1.9,14,M,,M,,*53
06/03/2014	17:04:18.652	$GPGGA,170427,2543.8842,N,08009.7274,W,1,9,1.9,14,M,,M,,*52
06/03/2014	17:04:19.565	$GPGGA,170428,2543.8842,N,08009.7273,W,1,9,1.9,14,M,,M,,*5A
06/03/2014	17:04:20.657	$GPGGA,170429,2543.8842,N,08009.7273,W,1,9,1.9,14,M,,M,,*5B
06/03/2014	17:04:21.660	$GPGGA,170430,2543.8844,N,08009.7273,W,1,9,1.9,14,M,,M,,*55
06/03/2014	17:04:22.528	$GPGGA,170431,2543.8843,N,08009.7272,W,1,9,1.9,14,M,,M,,*52
06/03/2014	17:04:23.540	$GPGGA,170432,2543.8844,N,08009.7273,W,1,9,1.9,14,M,,M,,*57
06/03/2014	17:04:24.523	$GPGGA,170433,2543.8843,N,08009.7273,W,1,9,1.9,14,M,,M,,*51
06/03/2014	17:04:25.495	$GPGGA,170434,2543.8844,N,08009.7272,W,1,9,1.9,14,M,,M,,*50
06/03/2014	17:04:26.528	$GPGGA,170435,2543.8843,N,08009.7272,W,1,9,1.9,14,M,,M,,*56
06/03/2014	17:04:27.511	$GPGGA,170436,2543.8844,N,08009.7272,W,1,9,1.9,14,M,,M,,*52
06/03/2014	17:04:28.523	$GPGGA,170437,2543.8843,N,08009.7272,W,1,9,1.9,14,M,,M,,*54
06/03/2014	17:04:29.516	$GPGGA,170438,2543.8844,N,08009.7272,W,1,9,1.9,14,M,,M,,*5C
06/03/2014	17:04:30.498	$GPGGA,170439,2543.8845,N,08009.7272,W,1,9,1.9,14,M,,M,,*5C
06/03/2014	17:04:31.511	$GPGGA,170440,2543.8844,N,08009.7272,W,1,9,1.9,14,M,,M,,*53
06/03/2014	17:04:32.534	$GPGGA,170441,2543.8845,N,08009.7272,W,1,9,1.9,14,M,,M,,*53
06/03/2014	17:04:33.501	$GPGGA,170442,2543.8844,N,08009.7271,W,1,9,1.9,14,M,,M,,*52
06/03/2014	17:04:34.528	$GPGGA,170443,2543.8845,N,08009.7272,W,1,9,1.9,14,M,,M,,*51
06/03/2014	17:04:35.520	$GPGGA,170444,2543.8844,N,08009.7271,W,1,9,1.9,14,M,,M,,*54
06/03/2014	17:04:36.513	$GPGGA,170445,2543.8845,N,08009.7272,W,1,9,1.9,14,M,,M,,*57
06/03/2014	17:04:37.526	$GPGGA,170446,2543.8844,N,08009.7271,W,1,9,1.9,14,M,,M,,*56
06/03/2014	17:04:38.498	$GPGGA,170447,2543.8845,N,08009.7272,W,1,9,1.9,14,M,,M,,*55
06/03/2014	17:04:39.521	$GPGGA,170448,2543.8843,N,08009.7271,W,1,9,1.9,14,M,,M,,*5F
06/03/2014	17:04:40.523	$GPGGA,170449,2543.8844,N,08009.7272,W,1,9,1.9,14,M,,M,,*5A
06/03/2014	17:04:41.516	$GPGGA,170450,2543.8843,N,08009.7271,W,1,9,1.9,14,M,,M,,*56
06/03/2014	17:04:42.539	$GPGGA,170451,2543.8842,N,08009.7270,W,1,9,1.9,14,M,,M,,*57
06/03/2014	17:04:43.521	$GPGGA,170452,2543.8842,N,08009.7270,W,1,9,1.9,14,M,,M,,*54
06/03/2014	17:04:44.504	$GPGGA,170453,2543.8842,N,08009.7272,W,1,9,1.9,14,M,,M,,*57
06/03/2014	17:04:45.526	$GPGGA,170454,2543.8842,N,08009.7271,W,1,9,1.9,14,M,,M,,*53
06/03/2014	17:04:46.539	$GPGGA,170455,2543.8842,N,08009.7272,W,1,9,1.9,14,M,,M,,*51
06/03/2014	17:04:47.511	$GPGGA,170456,2543.8842,N,08009.7271,W,1,9,1.9,14,M,,M,,*51
06/03/2014	17:04:48.534	$GPGGA,170457,2543.8840,N,08009.7270,W,1,9,2.0,14,M,,M,,*59
06/03/2014	17:04:49.539	$GPGGA,170458,2543.8841,N,08009.7272,W,1,9,2.0,14,M,,M,,*55
06/03/2014	17:04:50.509	$GPGGA,170459,2543.8839,N,08009.7272,W,1,8,1.9,14,M,,M,,*50
06/03/2014	17:04:51.552	$GPGGA,170500,2543.8839,N,08009.7272,W,1,8,2.0,14,M,,M,,*57
06/03/2014	17:04:52.552	$GPGGA,170501,2543.8839,N,08009.7272,W,1,8,1.9,14,M,,M,,*5C
06/03/2014	17:04:53.536	$GPGGA,170502,2543.8839,N,08009.7272,W,1,8,1.9,14,M,,M,,*5F
06/03/2014	17:04:54.599	$GPGGA,170503,2543.8839,N,08009.7272,W,1,9,1.9,14,M,,M,,*5F
06/03/2014	17:04:55.541	$GPGGA,170504,2543.8839,N,08009.7272,W,1,9,1.9,14,M,,M,,*58
06/03/2014	17:04:56.614	$GPGGA,170505,2543.8839,N,08009.7272,W,1,9,1.9,14,M,,M,,*59
06/03/2014	17:04:57.607	$GPGGA,170506,2543.8839,N,08009.7271,W,1,9,1.9,14,M,,M,,*59
06/03/2014	17:04:58.629	$GPGGA,170507,2543.8839,N,08009.7272,W,1,9,2.0,14,M,,M,,*51
06/03/2014	17:04:59.552	$GPGGA,170508,2543.8839,N,08009.7272,W,1,9,2.0,14,M,,M,,*5E
06/03/2014	17:05:00.544	$GPGGA,170509,2543.8839,N,08009.7272,W,1,8,2.0,14,M,,M,,*5E
06/03/2014	17:05:01.607	$GPGGA,170510,2543.8841,N,08009.7271,W,1,8,2.0,14,M,,M,,*5A
06/03/2014	17:05:02.640	$GPGGA,170511,2543.8840,N,08009.7272,W,1,9,2.0,14,M,,M,,*58
06/03/2014	17:05:03.642	$GPGGA,170512,2543.8841,N,08009.7271,W,1,9,2.0,14,M,,M,,*59
06/03/2014	17:05:04.545	$GPGGA,170513,2543.8842,N,08009.7270,W,1,8,1.9,14,M,,M,,*51
06/03/2014	17:05:05.617	$GPGGA,170514,2543.8842,N,08009.7269,W,1,8,1.9,14,M,,M,,*5E
06/03/2014	17:05:06.610	$GPGGA,170515,2543.8842,N,08009.7269,W,1,9,1.9,14,M,,M,,*5E
06/03/2014	17:05:07.633	$GPGGA,170516,2543.8842,N,08009.7269,W,1,9,1.9,14,M,,M,,*5D
06/03/2014	17:05:08.615	$GPGGA,170517,2543.8842,N,08009.7269,W,1,9,1.9,14,M,,M,,*5C
06/03/2014	17:05:09.617	$GPGGA,170518,2543.8844,N,08009.7269,W,1,9,1.9,14,M,,M,,*55
06/03/2014	17:05:10.629	$GPGGA,170519,2543.8843,N,08009.7269,W,1,9,1.9,14,M,,M,,*53
06/03/2014	17:05:11.632	$GPGGA,170520,2543.8844,N,08009.7269,W,1,9,1.9,14,M,,M,,*5E
06/03/2014	17:05:12.665	$GPGGA,170521,2543.8843,N,08009.7269,W,1,9,1.9,14,M,,M,,*58
06/03/2014	17:05:13.637	$GPGGA,170522,2543.8845,N,08009.7269,W,1,9,1.9,14,M,,M,,*5D
06/03/2014	17:05:14.640	$GPGGA,170523,2543.8843,N,08009.7269,W,1,9,1.9,14,M,,M,,*5A
06/03/2014	17:05:15.632	$GPGGA,170524,2543.8844,N,08009.7270,W,1,9,2.0,14,M,,M,,*58
06/03/2014	17:05:16.615	$GPGGA,170525,2543.8843,N,08009.7272,W,1,8,2.0,14,M,,M,,*5D
06/03/2014	17:05:17.618	$GPGGA,170526,2543.8842,N,08009.7271,W,1,8,2.0,14,M,,M,,*5C
06/03/2014	17:05:18.621	$GPGGA,170527,2543.8842,N,08009.7272,W,1,8,2.0,14,M,,M,,*5E
06/03/2014	17:05:19.633	$GPGGA,170528,2543.8842,N,08009.7273,W,1,8,2.0,14,M,,M,,*50
06/03/2014	17:05:20.615	$GPGGA,170529,2543.8842,N,08009.7273,W,1,8,2.0,14,M,,M,,*51
06/03/2014	17:05:21.619	$GPGGA,170530,2543.8842,N,08009.7273,W,1,8,2.0,14,M,,M,,*59
06/03/2014	17:05:22.467	$GPGGA,170531,2543.8842,N,08009.7273,W,1,8,2.0,14,M,,M,,*58
06/03/2014	17:05:23.479	$GPGGA,170532,2543.8842,N,08009.7273,W,1,8,2.0,14,M,,M,,*5B
06/03/2014	17:05:24.492	$GPGGA,170533,2543.8842,N,08009.7274,W,1,8,2.0,14,M,,M,,*5D
06/03/2014	17:05:25.474	$GPGGA,170534,2543.8842,N,08009.7274,W,1,8,2.0,14,M,,M,,*5A
06/03/2014	17:05:26.467	$GPGGA,170535,2543.8842,N,08009.7276,W,1,8,2.0,14,M,,M,,*59
06/03/2014	17:05:27.489	$GPGGA,170536,2543.8840,N,08009.7275,W,1,8,2.0,14,M,,M,,*5B
06/03/2014	17:05:28.471	$GPGGA,170537,2543.8841,N,08009.7274,W,1,8,2.0,14,M,,M,,*5A
06/03/2014	17:05:29.464	$GPGGA,170538,2543.8840,N,08009.7274,W,1,8,2.0,14,M,,M,,*54
06/03/2014	17:05:30.506	$GPGGA,170539,2543.8841,N,08009.7276,W,1,8,2.0,14,M,,M,,*56
06/03/2014	17:05:31.479	$GPGGA,170540,2543.8840,N,08009.7275,W,1,8,2.0,14,M,,M,,*5A
06/03/2014	17:05:32.471	$GPGGA,170541,2543.8841,N,08009.7274,W,1,8,2.0,14,M,,M,,*5B
06/03/2014	17:05:33.484	$GPGGA,170542,2543.8840,N,08009.7274,W,1,8,2.0,14,M,,M,,*59
06/03/2014	17:05:34.477	$GPGGA,170543,2543.8841,N,08009.7274,W,1,8,2.0,14,M,,M,,*59
06/03/2014	17:05:35.502	$GPGGA,170544,2543.8840,N,08009.7276,W,1,8,2.0,14,M,,M,,*5D
06/03/2014	17:05:36.512	$GPGGA,170545,2543.8841,N,08009.7275,W,1,8,2.0,14,M,,M,,*5E
06/03/2014	17:05:37.484	$GPGGA,170546,2543.8840,N,08009.7276,W,1,8,2.0,14,M,,M,,*5F
06/03/2014	17:05:38.467	$GPGGA,170547,2543.8839,N,08009.7275,W,1,8,2.0,14,M,,M,,*53
06/03/2014	17:05:39.611	$GPGGA,170548,2543.8839,N,08009.7276,W,1,8,2.0,14,M,,M,,*5F
06/03/2014	17:05:40.492	$GPGGA,170549,2543.8839,N,08009.7276,W,1,8,2.0,14,M,,M,,*5E
06/03/2014	17:05:41.475	$GPGGA,170550,2543.8839,N,08009.7276,W,1,8,2.0,14,M,,M,,*56
06/03/2014	17:05:42.487	$GPGGA,170551,2543.8839,N,08009.7276,W,1,8,2.0,14,M,,M,,*57
06/03/2014	17:05:43.490	$GPGGA,170552,2543.8839,N,08009.7276,W,1,8,2.0,14,M,,M,,*54
06/03/2014	17:05:44.502	$GPGGA,170553,2543.8839,N,08009.7277,W,1,8,2.0,14,M,,M,,*54
06/03/2014	17:05:45.484	$GPGGA,170554,2543.8839,N,08009.7277,W,1,8,2.0,14,M,,M,,*53
06/03/2014	17:05:46.597	$GPGGA,170555,2543.8839,N,08009.7277,W,1,8,2.0,14,M,,M,,*52
06/03/2014	17:05:47.610	$GPGGA,170556,2543.8837,N,08009.7277,W,1,8,2.0,14,M,,M,,*5F
06/03/2014	17:05:48.502	$GPGGA,170557,2543.8838,N,08009.7277,W,1,8,2.0,14,M,,M,,*51
06/03/2014	17:05:49.485	$GPGGA,170558,2543.8837,N,08009.7277,W,1,8,2.0,14,M,,M,,*51
06/03/2014	17:05:50.477	$GPGGA,170559,2543.8838,N,08009.7276,W,1,8,2.0,14,M,,M,,*5E
06/03/2014	17:05:51.520	$GPGGA,170600,2543.8837,N,08009.7277,W,1,8,2.0,14,M,,M,,*5F
06/03/2014	17:05:52.613	$GPGGA,170601,2543.8838,N,08009.7277,W,1,8,2.0,14,M,,M,,*51
06/03/2014	17:05:53.595	$GPGGA,170602,2543.8837,N,08009.7277,W,1,8,2.0,14,M,,M,,*5D
06/03/2014	17:05:54.598	$GPGGA,170603,2543.8838,N,08009.7277,W,1,8,2.0,14,M,,M,,*53
06/03/2014	17:05:55.600	$GPGGA,170604,2543.8837,N,08009.7277,W,1,8,1.9,14,M,,M,,*51
06/03/2014	17:05:56.603	$GPGGA,170605,2543.8839,N,08009.7276,W,1,8,2.0,14,M,,M,,*55
06/03/2014	17:05:57.586	$GPGGA,170606,2543.8841,N,08009.7275,W,1,8,1.9,14,M,,M,,*50
06/03/2014	17:05:58.608	$GPGGA,170607,2543.8842,N,08009.7276,W,1,9,1.9,14,M,,M,,*50
06/03/2014	17:05:59.601	$GPGGA,170608,2543.8842,N,08009.7275,W,1,9,1.9,14,M,,M,,*5C
06/03/2014	17:06:00.603	$GPGGA,170609,2543.8842,N,08009.7274,W,1,9,1.9,14,M,,M,,*5C
06/03/2014	17:06:01.586	$GPGGA,170610,2543.8844,N,08009.7274,W,1,9,1.9,14,M,,M,,*52
06/03/2014	17:06:02.608	$GPGGA,170611,2543.8843,N,08009.7274,W,1,9,1.9,14,M,,M,,*54
06/03/2014	17:06:03.600	$GPGGA,170612,2543.8845,N,08009.7273,W,1,9,1.9,14,M,,M,,*56
06/03/2014	17:06:04.603	$GPGGA,170613,2543.8846,N,08009.7273,W,1,9,1.9,14,M,,M,,*54
06/03/2014	17:06:05.585	$GPGGA,170614,2543.8846,N,08009.7273,W,1,9,1.9,14,M,,M,,*53
06/03/2014	17:06:06.618	$GPGGA,170615,2543.8846,N,08009.7272,W,1,9,1.9,14,M,,M,,*53
06/03/2014	17:06:07.601	$GPGGA,170616,2543.8848,N,08009.7271,W,1,9,1.9,15,M,,M,,*5C
06/03/2014	17:06:08.603	$GPGGA,170617,2543.8849,N,08009.7272,W,1,9,1.9,15,M,,M,,*5F
06/03/2014	17:06:09.586	$GPGGA,170618,2543.8848,N,08009.7271,W,1,9,1.9,15,M,,M,,*52
06/03/2014	17:06:10.588	$GPGGA,170619,2543.8849,N,08009.7270,W,1,9,1.9,15,M,,M,,*53
06/03/2014	17:06:11.611	$GPGGA,170620,2543.8849,N,08009.7270,W,1,9,1.9,15,M,,M,,*59
06/03/2014	17:06:12.614	$GPGGA,170621,2543.8849,N,08009.7270,W,1,9,1.9,15,M,,M,,*58
06/03/2014	17:06:13.605	$GPGGA,170622,2543.8850,N,08009.7269,W,1,9,1.9,15,M,,M,,*5B
06/03/2014	17:06:14.609	$GPGGA,170623,2543.8850,N,08009.7269,W,1,9,1.9,15,M,,M,,*5A
06/03/2014	17:06:15.611	$GPGGA,170624,2543.8849,N,08009.7269,W,1,9,1.9,15,M,,M,,*55
06/03/2014	17:06:16.584	$GPGGA,170625,2543.8849,N,08009.7269,W,1,9,1.9,16,M,,M,,*57
06/03/2014	17:06:17.610	$GPGGA,170626,2543.8849,N,08009.7269,W,1,9,1.9,16,M,,M,,*54
06/03/2014	17:06:18.589	$GPGGA,170627,2543.8849,N,08009.7269,W,1,9,1.9,16,M,,M,,*55
06/03/2014	17:06:19.601	$GPGGA,170628,2543.8848,N,08009.7270,W,1,9,1.9,16,M,,M,,*53
06/03/2014	17:06:20.615	$GPGGA,170629,2543.8849,N,08009.7270,W,1,9,1.9,16,M,,M,,*53
06/03/2014	17:06:21.606	$GPGGA,170630,2543.8848,N,08009.7270,W,1,9,1.9,16,M,,M,,*5A
06/03/2014	17:06:22.504	$GPGGA,170631,2543.8849,N,08009.7270,W,1,9,1.9,16,M,,M,,*5A
06/03/2014	17:06:23.456	$GPGGA,170632,2543.8848,N,08009.7270,W,1,9,1.9,16,M,,M,,*58
06/03/2014	17:06:24.572	$GPGGA,170633,2543.8847,N,08009.7272,W,1,9,1.9,16,M,,M,,*54
06/03/2014	17:06:25.431	$GPGGA,170634,2543.8848,N,08009.7271,W,1,9,1.9,16,M,,M,,*5F
06/03/2014	17:06:26.454	$GPGGA,170635,2543.8846,N,08009.7272,W,1,8,2.0,16,M,,M,,*58
06/03/2014	17:06:27.456	$GPGGA,170636,2543.8846,N,08009.7271,W,1,8,1.9,16,M,,M,,*52
06/03/2014	17:06:28.439	$GPGGA,170637,2543.8846,N,08009.7272,W,1,9,1.9,16,M,,M,,*51
06/03/2014	17:06:29.542	$GPGGA,170638,2543.8846,N,08009.7272,W,1,9,1.9,16,M,,M,,*5E
06/03/2014	17:06:30.434	$GPGGA,170639,2543.8846,N,08009.7272,W,1,9,1.9,16,M,,M,,*5F
06/03/2014	17:06:31.467	$GPGGA,170640,2543.8846,N,08009.7272,W,1,9,2.0,16,M,,M,,*5B
06/03/2014	17:06:32.570	$GPGGA,170641,2543.8846,N,08009.7271,W,1,9,1.9,15,M,,M,,*50
06/03/2014	17:06:33.542	$GPGGA,170642,2543.8846,N,08009.7272,W,1,9,1.9,15,M,,M,,*50
06/03/2014	17:06:34.545	$GPGGA,170643,2543.8846,N,08009.7271,W,1,9,1.9,15,M,,M,,*52
06/03/2014	17:06:35.467	$GPGGA,170644,2543.8848,N,08009.7272,W,1,9,1.9,15,M,,M,,*58
06/03/2014	17:06:36.560	$GPGGA,170645,2543.8847,N,08009.7271,W,1,9,1.9,15,M,,M,,*55
06/03/2014	17:06:37.461	$GPGGA,170646,2543.8846,N,08009.7272,W,1,9,1.9,15,M,,M,,*54
06/03/2014	17:06:38.564	$GPGGA,170647,2543.8846,N,08009.7271,W,1,8,2.0,15,M,,M,,*5D
06/03/2014	17:06:39.567	$GPGGA,170648,2543.8846,N,08009.7272,W,1,8,1.9,15,M,,M,,*5B
06/03/2014	17:06:40.459	$GPGGA,170649,2543.8846,N,08009.7272,W,1,9,1.9,15,M,,M,,*5B
06/03/2014	17:06:41.552	$GPGGA,170650,2543.8846,N,08009.7273,W,1,9,2.0,15,M,,M,,*58
06/03/2014	17:06:42.625	$GPGGA,170651,2543.8843,N,08009.7274,W,1,8,2.0,15,M,,M,,*5A
06/03/2014	17:06:43.557	$GPGGA,170652,2543.8844,N,08009.7274,W,1,8,1.9,15,M,,M,,*54
06/03/2014	17:06:44.590	$GPGGA,170653,2543.8843,N,08009.7274,W,1,8,2.0,15,M,,M,,*58
06/03/2014	17:06:45.562	$GPGGA,170654,2543.8842,N,08009.7276,W,1,8,1.9,15,M,,M,,*56
06/03/2014	17:06:46.545	$GPGGA,170655,2543.8842,N,08009.7275,W,1,8,2.0,15,M,,M,,*5E
06/03/2014	17:06:47.568	$GPGGA,170656,2543.8842,N,08009.7274,W,1,8,2.0,15,M,,M,,*5C
06/03/2014	17:06:48.570	$GPGGA,170657,2543.8845,N,08009.7271,W,1,9,1.9,15,M,,M,,*54
06/03/2014	17:06:49.553	$GPGGA,170658,2543.8844,N,08009.7272,W,1,9,2.0,15,M,,M,,*53
06/03/2014	17:06:50.565	$GPGGA,170659,2543.8846,N,08009.7269,W,1,8,2.0,15,M,,M,,*5B
06/03/2014	17:06:51.578	$GPGGA,170700,2543.8846,N,08009.7269,W,1,8,1.9,15,M,,M,,*5C
06/03/2014	17:06:52.571	$GPGGA,170701,2543.8844,N,08009.7270,W,1,8,2.0,15,M,,M,,*5D
06/03/2014	17:06:53.553	$GPGGA,170702,2543.8846,N,08009.7268,W,1,8,2.0,15,M,,M,,*55
06/03/2014	17:06:54.546	$GPGGA,170703,2543.8846,N,08009.7269,W,1,9,1.9,15,M,,M,,*5E
06/03/2014	17:06:55.577	$GPGGA,170704,2543.8846,N,08009.7269,W,1,9,2.0,15,M,,M,,*53
06/03/2014	17:06:56.570	$GPGGA,170705,2543.8844,N,08009.7270,W,1,8,2.0,15,M,,M,,*59
06/03/2014	17:06:57.563	$GPGGA,170706,2543.8843,N,08009.7270,W,1,8,2.0,15,M,,M,,*5D
06/03/2014	17:06:58.575	$GPGGA,170707,2543.8844,N,08009.7270,W,1,8,2.0,15,M,,M,,*5B
06/03/2014	17:06:59.568	$GPGGA,170708,2543.8842,N,08009.7270,W,1,8,2.0,15,M,,M,,*52
06/03/2014	17:07:00.580	$GPGGA,170709,2543.8842,N,08009.7270,W,1,8,2.0,15,M,,M,,*53
06/03/2014	17:07:01.564	$GPGGA,170710,2543.8842,N,08009.7270,W,1,8,2.0,15,M,,M,,*5B
06/03/2014	17:07:02.586	$GPGGA,170711,2543.8842,N,08009.7270,W,1,8,2.0,15,M,,M,,*5A
06/03/2014	17:07:03.568	$GPGGA,170712,2543.8842,N,08009.7272,W,1,8,2.0,15,M,,M,,*5B
06/03/2014	17:07:04.591	$GPGGA,170713,2543.8842,N,08009.7271,W,1,8,2.0,15,M,,M,,*59
06/03/2014	17:07:05.553	$GPGGA,170714,2543.8842,N,08009.7272,W,1,8,2.0,14,M,,M,,*5C
06/03/2014	17:07:06.596	$GPGGA,170715,2543.8842,N,08009.7271,W,1,8,2.0,14,M,,M,,*5E
06/03/2014	17:07:07.568	$GPGGA,170716,2543.8842,N,08009.7272,W,1,8,2.0,14,M,,M,,*5E
06/03/2014	17:07:08.601	$GPGGA,170717,2543.8842,N,08009.7271,W,1,8,2.0,14,M,,M,,*5C
06/03/2014	17:07:09.554	$GPGGA,170718,2543.8842,N,08009.7272,W,1,8,2.0,14,M,,M,,*50
06/03/2014	17:07:10.556	$GPGGA,170719,2543.8842,N,08009.7272,W,1,8,2.0,14,M,,M,,*51
06/03/2014	17:07:11.589	$GPGGA,170720,2543.8842,N,08009.7272,W,1,8,2.0,14,M,,M,,*5B
06/03/2014	17:07:12.581	$GPGGA,170721,2543.8842,N,08009.7272,W,1,8,2.0,14,M,,M,,*5A
06/03/2014	17:07:13.563	$GPGGA,170722,2543.8842,N,08009.7272,W,1,8,2.0,14,M,,M,,*59
06/03/2014	17:07:14.576	$GPGGA,170723,2543.8842,N,08009.7272,W,1,8,2.0,14,M,,M,,*58
06/03/2014	17:07:15.578	$GPGGA,170724,2543.8842,N,08009.7272,W,1,8,2.0,14,M,,M,,*5F
06/03/2014	17:07:16.592	$GPGGA,170725,2543.8842,N,08009.7272,W,1,8,2.0,14,M,,M,,*5E
06/03/2014	17:07:17.563	$GPGGA,170726,2543.8842,N,08009.7272,W,1,8,2.0,14,M,,M,,*5D
06/03/2014	17:07:18.556	$GPGGA,170727,2543.8842,N,08009.7272,W,1,8,2.0,14,M,,M,,*5C
06/03/2014	17:07:19.749	$GPGGA,170728,2543.8842,N,08009.7273,W,1,8,2.0,14,M,,M,,*52
06/03/2014	17:07:20.712	$GPGGA,170729,2543.8842,N,08009.7272,W,1,8,2.0,14,M,,M,,*52
06/03/2014	17:07:21.584	$GPGGA,170730,2543.8842,N,08009.7273,W,1,8,2.0,14,M,,M,,*5B
06/03/2014	17:07:22.432	$GPGGA,170731,2543.8842,N,08009.7273,W,1,8,2.0,14,M,,M,,*5A
06/03/2014	17:07:23.425	$GPGGA,170732,2543.8842,N,08009.7273,W,1,8,2.0,13,M,,M,,*5E
06/03/2014	17:07:24.428	$GPGGA,170733,2543.8842,N,08009.7273,W,1,8,2.0,13,M,,M,,*5F
06/03/2014	17:07:25.420	$GPGGA,170734,2543.8842,N,08009.7273,W,1,8,2.0,13,M,,M,,*58
06/03/2014	17:07:26.603	$GPGGA,170735,2543.8842,N,08009.7273,W,1,8,2.0,13,M,,M,,*59
06/03/2014	17:07:27.596	$GPGGA,170736,2543.8842,N,08009.7273,W,1,8,2.0,13,M,,M,,*5A
06/03/2014	17:07:28.428	$GPGGA,170737,2543.8842,N,08009.7273,W,1,8,2.0,13,M,,M,,*5B
06/03/2014	17:07:29.580	$GPGGA,170738,2543.8842,N,08009.7274,W,1,8,2.0,13,M,,M,,*53
06/03/2014	17:07:30.542	$GPGGA,170739,2543.8842,N,08009.7276,W,1,7,2.0,13,M,,M,,*5F
06/03/2014	17:07:31.595	$GPGGA,170740,2543.8842,N,08009.7275,W,1,7,2.0,13,M,,M,,*52
06/03/2014	17:07:32.581	$GPGGA,170741,2543.8842,N,08009.7274,W,1,8,2.0,13,M,,M,,*5D
06/03/2014	17:07:33.590	$GPGGA,170742,2543.8842,N,08009.7273,W,1,8,2.0,13,M,,M,,*59
06/03/2014	17:07:34.513	$GPGGA,170743,2543.8844,N,08009.7272,W,1,8,2.0,13,M,,M,,*5F
06/03/2014	17:07:35.596	$GPGGA,170744,2543.8843,N,08009.7270,W,1,8,2.0,13,M,,M,,*5D
06/03/2014	17:07:36.568	$GPGGA,170745,2543.8845,N,08009.7268,W,1,8,2.0,13,M,,M,,*53
06/03/2014	17:07:37.511	$GPGGA,170746,2543.8846,N,08009.7267,W,1,8,2.0,13,M,,M,,*5C
06/03/2014	17:07:38.543	$GPGGA,170747,2543.8846,N,08009.7266,W,1,8,2.0,13,M,,M,,*5C
06/03/2014	17:07:39.606	$GPGGA,170748,2543.8846,N,08009.7264,W,1,8,2.0,13,M,,M,,*51
06/03/2014	17:07:40.548	$GPGGA,170749,2543.8848,N,08009.7265,W,1,8,2.0,14,M,,M,,*58
06/03/2014	17:07:41.591	$GPGGA,170750,2543.8847,N,08009.7262,W,1,8,2.0,14,M,,M,,*58
06/03/2014	17:07:42.564	$GPGGA,170751,2543.8849,N,08009.7261,W,1,8,2.0,14,M,,M,,*54
06/03/2014	17:07:43.606	$GPGGA,170752,2543.8848,N,08009.7262,W,1,8,2.0,14,M,,M,,*55
06/03/2014	17:07:44.609	$GPGGA,170753,2543.8849,N,08009.7261,W,1,8,2.0,14,M,,M,,*56
06/03/2014	17:07:45.571	$GPGGA,170754,2543.8848,N,08009.7262,W,1,8,2.0,14,M,,M,,*53
06/03/2014	17:07:46.574	$GPGGA,170755,2543.8849,N,08009.7261,W,1,8,2.0,14,M,,M,,*50
06/03/2014	17:07:47.596	$GPGGA,170756,2543.8849,N,08009.7260,W,1,8,2.0,14,M,,M,,*52
06/03/2014	17:07:48.568	$GPGGA,170757,2543.8848,N,08009.7262,W,1,8,2.0,14,M,,M,,*50
06/03/2014	17:07:49.581	$GPGGA,170758,2543.8849,N,08009.7261,W,1,8,2.0,14,M,,M,,*5D
06/03/2014	17:07:50.613	$GPGGA,170759,2543.8849,N,08009.7260,W,1,8,2.0,14,M,,M,,*5D
06/03/2014	17:07:52.579	$GPGGA,170801,2543.8849,N,08009.7260,W,1,8,2.0,14,M,,M,,*5F
06/03/2014	17:07:53.581	$GPGGA,170802,2543.8849,N,08009.7261,W,1,8,2.0,14,M,,M,,*5D
06/03/2014	17:07:54.524	$GPGGA,170803,2543.8849,N,08009.7260,W,1,8,2.0,14,M,,M,,*5D
06/03/2014	17:07:55.596	$GPGGA,170804,2543.8849,N,08009.7262,W,1,8,2.0,14,M,,M,,*58
06/03/2014	17:07:56.589	$GPGGA,170805,2543.8848,N,08009.7261,W,1,8,2.0,14,M,,M,,*5B
06/03/2014	17:07:57.521	$GPGGA,170806,2543.8849,N,08009.7262,W,1,8,2.0,14,M,,M,,*5A
06/03/2014	17:07:58.594	$GPGGA,170807,2543.8848,N,08009.7262,W,1,8,2.0,14,M,,M,,*5A
06/03/2014	17:07:59.537	$GPGGA,170808,2543.8849,N,08009.7262,W,1,8,2.0,14,M,,M,,*54
06/03/2014	17:08:00.670	$GPGGA,170809,2543.8848,N,08009.7262,W,1,8,2.0,14,M,,M,,*54
06/03/2014	17:08:01.582	$GPGGA,170810,2543.8849,N,08009.7262,W,1,8,2.0,14,M,,M,,*5D
06/03/2014	17:08:02.564	$GPGGA,170811,2543.8848,N,08009.7262,W,1,8,2.0,14,M,,M,,*5D
06/03/2014	17:08:03.607	$GPGGA,170812,2543.8849,N,08009.7263,W,1,8,2.0,14,M,,M,,*5E
06/03/2014	17:08:04.649	$GPGGA,170813,2543.8848,N,08009.7263,W,1,8,2.0,14,M,,M,,*5E
06/03/2014	17:08:05.651	$GPGGA,170814,2543.8849,N,08009.7262,W,1,8,2.0,14,M,,M,,*59
06/03/2014	17:08:06.524	$GPGGA,170815,2543.8849,N,08009.7263,W,1,8,2.0,14,M,,M,,*59
06/03/2014	17:08:07.617	$GPGGA,170816,2543.8849,N,08009.7263,W,1,8,2.0,14,M,,M,,*5A
06/03/2014	17:08:08.659	$GPGGA,170817,2543.8849,N,08009.7263,W,1,8,2.0,14,M,,M,,*5B
06/03/2014	17:08:09.592	$GPGGA,170818,2543.8849,N,08009.7263,W,1,8,2.0,14,M,,M,,*54
06/03/2014	17:08:10.604	$GPGGA,170819,2543.8849,N,08009.7265,W,1,8,2.0,14,M,,M,,*53
06/03/2014	17:08:11.647	$GPGGA,170820,2543.8849,N,08009.7264,W,1,8,2.0,14,M,,M,,*58
06/03/2014	17:08:12.589	$GPGGA,170821,2543.8849,N,08009.7265,W,1,8,2.0,14,M,,M,,*58
06/03/2014	17:08:13.642	$GPGGA,170822,2543.8853,N,08009.7262,W,1,8,1.9,14,M,,M,,*5D
06/03/2014	17:08:14.665	$GPGGA,170823,2543.8851,N,08009.7262,W,1,9,1.9,14,M,,M,,*5F
06/03/2014	17:08:15.667	$GPGGA,170824,2543.8853,N,08009.7261,W,1,9,1.9,14,M,,M,,*59
06/03/2014	17:08:16.640	$GPGGA,170825,2543.8853,N,08009.7260,W,1,9,1.9,14,M,,M,,*59
06/03/2014	17:08:17.663	$GPGGA,170826,2543.8855,N,08009.7259,W,1,9,1.9,14,M,,M,,*56
06/03/2014	17:08:18.655	$GPGGA,170827,2543.8856,N,08009.7259,W,1,9,1.9,14,M,,M,,*54
06/03/2014	17:08:19.668	$GPGGA,170828,2543.8857,N,08009.7258,W,1,9,1.9,15,M,,M,,*5A
06/03/2014	17:08:20.670	$GPGGA,170829,2543.8857,N,08009.7257,W,1,9,1.9,15,M,,M,,*54
06/03/2014	17:08:21.653	$GPGGA,170830,2543.8857,N,08009.7258,W,1,9,1.9,15,M,,M,,*53
06/03/2014	17:08:22.501	$GPGGA,170831,2543.8859,N,08009.7257,W,1,9,1.9,15,M,,M,,*53
06/03/2014	17:08:23.503	$GPGGA,170832,2543.8858,N,08009.7258,W,1,9,1.9,15,M,,M,,*5E
06/03/2014	17:08:24.496	$GPGGA,170833,2543.8859,N,08009.7257,W,1,9,1.9,15,M,,M,,*51
06/03/2014	17:08:25.498	$GPGGA,170834,2543.8857,N,08009.7258,W,1,9,2.0,15,M,,M,,*5D
06/03/2014	17:08:26.481	$GPGGA,170835,2543.8857,N,08009.7258,W,1,8,2.0,15,M,,M,,*5D
06/03/2014	17:08:27.504	$GPGGA,170836,2543.8857,N,08009.7259,W,1,8,1.9,15,M,,M,,*55
06/03/2014	17:08:28.516	$GPGGA,170837,2543.8857,N,08009.7258,W,1,9,1.9,15,M,,M,,*54
06/03/2014	17:08:29.488	$GPGGA,170838,2543.8857,N,08009.7257,W,1,9,1.9,15,M,,M,,*54
06/03/2014	17:08:30.501	$GPGGA,170839,2543.8857,N,08009.7258,W,1,9,2.0,15,M,,M,,*50
06/03/2014	17:08:31.514	$GPGGA,170840,2543.8855,N,08009.7258,W,1,9,2.0,15,M,,M,,*5C
06/03/2014	17:08:32.537	$GPGGA,170841,2543.8856,N,08009.7258,W,1,8,2.0,15,M,,M,,*5F
06/03/2014	17:08:33.494	$GPGGA,170842,2543.8856,N,08009.7258,W,1,8,2.0,15,M,,M,,*5C
06/03/2014	17:08:34.502	$GPGGA,170843,2543.8855,N,08009.7259,W,1,8,2.0,15,M,,M,,*5F
06/03/2014	17:08:35.524	$GPGGA,170844,2543.8853,N,08009.7261,W,1,8,2.0,15,M,,M,,*55
06/03/2014	17:08:36.487	$GPGGA,170845,2543.8853,N,08009.7259,W,1,8,2.0,15,M,,M,,*5F
06/03/2014	17:08:37.530	$GPGGA,170846,2543.8853,N,08009.7259,W,1,8,2.0,15,M,,M,,*5C
06/03/2014	17:08:38.532	$GPGGA,170847,2543.8853,N,08009.7260,W,1,8,2.0,15,M,,M,,*57
06/03/2014	17:08:39.554	$GPGGA,170848,2543.8853,N,08009.7260,W,1,8,2.0,15,M,,M,,*58
06/03/2014	17:08:40.526	$GPGGA,170849,2543.8853,N,08009.7260,W,1,8,2.0,15,M,,M,,*59
06/03/2014	17:08:41.512	$GPGGA,170850,2543.8853,N,08009.7260,W,1,8,2.0,15,M,,M,,*51
06/03/2014	17:08:42.522	$GPGGA,170851,2543.8853,N,08009.7260,W,1,8,2.0,15,M,,M,,*50
06/03/2014	17:08:43.504	$GPGGA,170852,2543.8853,N,08009.7260,W,1,8,2.0,15,M,,M,,*53
06/03/2014	17:08:44.507	$GPGGA,170853,2543.8853,N,08009.7261,W,1,8,2.0,15,M,,M,,*53
06/03/2014	17:08:45.539	$GPGGA,170854,2543.8853,N,08009.7261,W,1,8,2.0,15,M,,M,,*54
06/03/2014	17:08:46.524	$GPGGA,170855,2543.8853,N,08009.7262,W,1,8,2.0,14,M,,M,,*57
06/03/2014	17:08:47.545	$GPGGA,170856,2543.8853,N,08009.7261,W,1,8,2.0,14,M,,M,,*57
06/03/2014	17:08:48.507	$GPGGA,170857,2543.8853,N,08009.7262,W,1,8,2.0,14,M,,M,,*55
06/03/2014	17:08:49.510	$GPGGA,170858,2543.8853,N,08009.7262,W,1,8,2.0,14,M,,M,,*5A
06/03/2014	17:08:50.522	$GPGGA,170859,2543.8852,N,08009.7262,W,1,8,2.0,14,M,,M,,*5A
06/03/2014	17:08:51.565	$GPGGA,170900,2543.8851,N,08009.7261,W,1,8,2.0,14,M,,M,,*57
06/03/2014	17:08:52.507	$GPGGA,170901,2543.8852,N,08009.7262,W,1,8,2.0,14,M,,M,,*56
06/03/2014	17:08:53.531	$GPGGA,170902,2543.8852,N,08009.7262,W,1,8,2.0,14,M,,M,,*55
06/03/2014	17:08:54.623	$GPGGA,170903,2543.8850,N,08009.7262,W,1,8,2.0,14,M,,M,,*56
06/03/2014	17:08:55.525	$GPGGA,170904,2543.8850,N,08009.7262,W,1,8,2.0,14,M,,M,,*51
06/03/2014	17:08:56.498	$GPGGA,170905,2543.8850,N,08009.7262,W,1,8,2.0,14,M,,M,,*50
06/03/2014	17:08:57.600	$GPGGA,170906,2543.8853,N,08009.7259,W,1,8,2.0,14,M,,M,,*58
06/03/2014	17:08:58.522	$GPGGA,170907,2543.8856,N,08009.7258,W,1,9,1.9,14,M,,M,,*56
06/03/2014	17:08:59.615	$GPGGA,170908,2543.8855,N,08009.7257,W,1,9,1.9,14,M,,M,,*55
06/03/2014	17:09:00.627	$GPGGA,170909,2543.8856,N,08009.7258,W,1,9,1.9,14,M,,M,,*58
06/03/2014	17:09:01.510	$GPGGA,170910,2543.8856,N,08009.7258,W,1,9,2.0,14,M,,M,,*5A
06/03/2014	17:09:02.643	$GPGGA,170911,2543.8859,N,08009.7256,W,1,9,1.9,14,M,,M,,*50
06/03/2014	17:09:03.625	$GPGGA,170912,2543.8859,N,08009.7256,W,1,9,1.9,15,M,,M,,*52
06/03/2014	17:09:04.618	$GPGGA,170913,2543.8860,N,08009.7255,W,1,9,1.9,15,M,,M,,*5A
06/03/2014	17:09:05.600	$GPGGA,170914,2543.8860,N,08009.7255,W,1,9,1.9,15,M,,M,,*5D
06/03/2014	17:09:06.633	$GPGGA,170915,2543.8862,N,08009.7254,W,1,9,1.9,15,M,,M,,*5F
06/03/2014	17:09:07.626	$GPGGA,170916,2543.8859,N,08009.7255,W,1,9,1.9,15,M,,M,,*55
06/03/2014	17:09:08.618	$GPGGA,170917,2543.8858,N,08009.7256,W,1,8,2.0,16,M,,M,,*5E
06/03/2014	17:09:09.611	$GPGGA,170918,2543.8857,N,08009.7258,W,1,8,2.0,16,M,,M,,*50
06/03/2014	17:09:10.623	$GPGGA,170919,2543.8857,N,08009.7259,W,1,8,2.0,16,M,,M,,*50
06/03/2014	17:09:11.626	$GPGGA,170920,2543.8855,N,08009.7259,W,1,8,2.0,16,M,,M,,*58
06/03/2014	17:09:12.629	$GPGGA,170921,2543.8856,N,08009.7261,W,1,8,2.0,16,M,,M,,*51
06/03/2014	17:09:13.605	$GPGGA,170922,2543.8854,N,08009.7260,W,1,8,2.0,16,M,,M,,*51
06/03/2014	17:09:14.613	$GPGGA,170923,2543.8853,N,08009.7262,W,1,8,2.0,16,M,,M,,*55
06/03/2014	17:09:15.615	$GPGGA,170924,2543.8853,N,08009.7261,W,1,8,2.0,16,M,,M,,*51
06/03/2014	17:09:16.611	$GPGGA,170925,2543.8853,N,08009.7262,W,1,8,2.0,16,M,,M,,*53
06/03/2014	17:09:17.612	$GPGGA,170926,2543.8853,N,08009.7262,W,1,8,2.0,16,M,,M,,*50
06/03/2014	17:09:18.633	$GPGGA,170927,2543.8853,N,08009.7262,W,1,8,2.0,16,M,,M,,*51
06/03/2014	17:09:19.618	$GPGGA,170928,2543.8851,N,08009.7262,W,1,8,2.0,16,M,,M,,*5C
06/03/2014	17:09:20.638	$GPGGA,170929,2543.8852,N,08009.7262,W,1,8,2.0,16,M,,M,,*5E
06/03/2014	17:09:21.624	$GPGGA,170930,2543.8851,N,08009.7262,W,1,8,2.0,16,M,,M,,*55
06/03/2014	17:09:22.499	$GPGGA,170931,2543.8852,N,08009.7263,W,1,8,2.0,16,M,,M,,*56
06/03/2014	17:09:23.474	$GPGGA,170932,2543.8851,N,08009.7263,W,1,8,2.0,16,M,,M,,*56
06/03/2014	17:09:24.454	$GPGGA,170933,2543.8850,N,08009.7263,W,1,8,2.0,16,M,,M,,*56
06/03/2014	17:09:25.476	$GPGGA,170934,2543.8852,N,08009.7265,W,1,8,2.0,16,M,,M,,*55
06/03/2014	17:09:26.489	$GPGGA,170935,2543.8851,N,08009.7264,W,1,8,2.0,16,M,,M,,*56
06/03/2014	17:09:27.484	$GPGGA,170936,2543.8850,N,08009.7265,W,1,8,2.0,16,M,,M,,*55
06/03/2014	17:09:28.494	$GPGGA,170937,2543.8850,N,08009.7265,W,1,8,2.0,15,M,,M,,*57
06/03/2014	17:09:29.467	$GPGGA,170938,2543.8850,N,08009.7266,W,1,8,2.0,15,M,,M,,*5B
06/03/2014	17:09:30.469	$GPGGA,170939,2543.8850,N,08009.7266,W,1,8,2.0,15,M,,M,,*5A
06/03/2014	17:09:31.494	$GPGGA,170940,2543.8850,N,08009.7267,W,1,8,2.0,15,M,,M,,*55
06/03/2014	17:09:32.495	$GPGGA,170941,2543.8850,N,08009.7269,W,1,8,2.0,15,M,,M,,*5A
06/03/2014	17:09:33.456	$GPGGA,170942,2543.8853,N,08009.7265,W,1,8,2.0,15,M,,M,,*56
06/03/2014	17:09:34.479	$GPGGA,170943,2543.8853,N,08009.7265,W,1,9,1.9,15,M,,M,,*5C
06/03/2014	17:09:35.481	$GPGGA,170944,2543.8853,N,08009.7264,W,1,9,1.9,15,M,,M,,*5A
06/03/2014	17:09:36.464	$GPGGA,170945,2543.8853,N,08009.7265,W,1,9,1.9,15,M,,M,,*5A
06/03/2014	17:09:37.577	$GPGGA,170946,2543.8853,N,08009.7265,W,1,9,2.0,15,M,,M,,*53
06/03/2014	17:09:38.589	$GPGGA,170947,2543.8853,N,08009.7264,W,1,8,2.0,15,M,,M,,*52
06/03/2014	17:09:39.592	$GPGGA,170948,2543.8855,N,08009.7265,W,1,8,1.9,15,M,,M,,*50
06/03/2014	17:09:40.474	$GPGGA,170949,2543.8854,N,08009.7264,W,1,9,1.9,15,M,,M,,*50
06/03/2014	17:09:41.477	$GPGGA,170950,2543.8856,N,08009.7263,W,1,9,1.9,15,M,,M,,*5D
06/03/2014	17:09:42.580	$GPGGA,170951,2543.8855,N,08009.7263,W,1,9,1.9,15,M,,M,,*5F
06/03/2014	17:09:43.502	$GPGGA,170952,2543.8857,N,08009.7263,W,1,9,1.9,15,M,,M,,*5E
06/03/2014	17:09:44.485	$GPGGA,170953,2543.8857,N,08009.7263,W,1,9,1.9,15,M,,M,,*5F
06/03/2014	17:09:45.557	$GPGGA,170954,2543.8857,N,08009.7262,W,1,9,1.9,15,M,,M,,*59
06/03/2014	17:09:46.480	$GPGGA,170955,2543.8857,N,08009.7262,W,1,9,1.9,15,M,,M,,*58
06/03/2014	17:09:47.492	$GPGGA,170956,2543.8857,N,08009.7263,W,1,9,1.9,15,M,,M,,*5A
06/03/2014	17:09:48.475	$GPGGA,170957,2543.8857,N,08009.7262,W,1,8,2.0,15,M,,M,,*51
06/03/2014	17:09:49.567	$GPGGA,170958,2543.8857,N,08009.7263,W,1,8,1.9,15,M,,M,,*55
06/03/2014	17:09:50.609	$GPGGA,170959,2543.8857,N,08009.7263,W,1,8,2.0,15,M,,M,,*5E
06/03/2014	17:09:51.612	$GPGGA,171000,2543.8857,N,08009.7265,W,1,8,2.0,15,M,,M,,*5C
06/03/2014	17:09:52.595	$GPGGA,171001,2543.8857,N,08009.7263,W,1,8,2.0,15,M,,M,,*5B
06/03/2014	17:09:53.577	$GPGGA,171002,2543.8857,N,08009.7265,W,1,8,1.9,15,M,,M,,*54
06/03/2014	17:09:54.580	$GPGGA,171003,2543.8857,N,08009.7264,W,1,9,1.9,15,M,,M,,*55
06/03/2014	17:09:55.592	$GPGGA,171004,2543.8855,N,08009.7265,W,1,9,1.9,15,M,,M,,*51
06/03/2014	17:09:56.595	$GPGGA,171005,2543.8854,N,08009.7266,W,1,9,1.9,15,M,,M,,*52
06/03/2014	17:09:57.568	$GPGGA,171006,2543.8855,N,08009.7266,W,1,9,1.9,15,M,,M,,*50
06/03/2014	17:09:58.600	$GPGGA,171007,2543.8853,N,08009.7267,W,1,9,1.9,15,M,,M,,*56
06/03/2014	17:09:59.583	$GPGGA,171008,2543.8853,N,08009.7267,W,1,9,1.9,15,M,,M,,*59
06/03/2014	17:10:00.595	$GPGGA,171009,2543.8853,N,08009.7269,W,1,9,1.9,15,M,,M,,*56
06/03/2014	17:10:01.566	$GPGGA,171010,2543.8853,N,08009.7268,W,1,9,1.9,15,M,,M,,*5F
06/03/2014	17:10:02.591	$GPGGA,171011,2543.8853,N,08009.7269,W,1,9,1.9,15,M,,M,,*5F
06/03/2014	17:10:03.593	$GPGGA,171012,2543.8851,N,08009.7269,W,1,9,1.9,15,M,,M,,*5E
06/03/2014	17:10:04.576	$GPGGA,171013,2543.8852,N,08009.7269,W,1,9,1.9,15,M,,M,,*5C
06/03/2014	17:10:05.581	$GPGGA,171014,2543.8851,N,08009.7269,W,1,9,1.9,15,M,,M,,*58
06/03/2014	17:10:06.611	$GPGGA,171015,2543.8852,N,08009.7270,W,1,9,1.9,15,M,,M,,*52
06/03/2014	17:10:07.593	$GPGGA,171016,2543.8851,N,08009.7270,W,1,9,1.9,15,M,,M,,*52
06/03/2014	17:10:08.585	$GPGGA,171017,2543.8852,N,08009.7270,W,1,9,1.9,15,M,,M,,*50
06/03/2014	17:10:09.568	$GPGGA,171018,2543.8851,N,08009.7270,W,1,9,1.9,15,M,,M,,*5C
06/03/2014	17:10:10.610	$GPGGA,171019,2543.8852,N,08009.7270,W,1,9,1.9,15,M,,M,,*5E
06/03/2014	17:10:11.603	$GPGGA,171020,2543.8851,N,08009.7270,W,1,9,1.9,15,M,,M,,*57
06/03/2014	17:10:12.606	$GPGGA,171021,2543.8852,N,08009.7270,W,1,9,1.9,14,M,,M,,*54
06/03/2014	17:10:13.598	$GPGGA,171022,2543.8851,N,08009.7270,W,1,9,1.9,14,M,,M,,*54
06/03/2014	17:10:14.611	$GPGGA,171023,2543.8853,N,08009.7269,W,1,9,1.9,14,M,,M,,*5F
06/03/2014	17:10:15.607	$GPGGA,171024,2543.8853,N,08009.7269,W,1,9,1.9,14,M,,M,,*58
06/03/2014	17:10:16.576	$GPGGA,171025,2543.8853,N,08009.7269,W,1,9,1.9,14,M,,M,,*59
06/03/2014	17:10:17.591	$GPGGA,171026,2543.8853,N,08009.7268,W,1,9,1.9,14,M,,M,,*5B
06/03/2014	17:10:18.601	$GPGGA,171027,2543.8853,N,08009.7269,W,1,9,1.9,14,M,,M,,*5B
06/03/2014	17:10:19.594	$GPGGA,171028,2543.8853,N,08009.7268,W,1,9,1.9,14,M,,M,,*55
06/03/2014	17:10:20.607	$GPGGA,171029,2543.8851,N,08009.7269,W,1,9,1.9,14,M,,M,,*57
06/03/2014	17:10:21.579	$GPGGA,171030,2543.8852,N,08009.7268,W,1,9,1.9,14,M,,M,,*5D
06/03/2014	17:10:22.447	$GPGGA,171031,2543.8851,N,08009.7269,W,1,9,1.9,14,M,,M,,*5E
06/03/2014	17:10:23.440	$GPGGA,171032,2543.8852,N,08009.7268,W,1,9,1.9,14,M,,M,,*5F
06/03/2014	17:10:24.552	$GPGGA,171033,2543.8853,N,08009.7269,W,1,9,1.9,14,M,,M,,*5E
06/03/2014	17:10:25.444	$GPGGA,171034,2543.8851,N,08009.7268,W,1,9,1.9,14,M,,M,,*5A
06/03/2014	17:10:26.457	$GPGGA,171035,2543.8852,N,08009.7269,W,1,9,1.9,14,M,,M,,*59
06/03/2014	17:10:27.439	$GPGGA,171036,2543.8851,N,08009.7268,W,1,9,1.9,14,M,,M,,*58
06/03/2014	17:10:28.552	$GPGGA,171037,2543.8852,N,08009.7269,W,1,9,1.9,14,M,,M,,*5B
06/03/2014	17:10:29.435	$GPGGA,171038,2543.8851,N,08009.7267,W,1,9,1.9,14,M,,M,,*59
06/03/2014	17:10:30.527	$GPGGA,171039,2543.8852,N,08009.7267,W,1,9,1.9,14,M,,M,,*5B
06/03/2014	17:10:31.540	$GPGGA,171040,2543.8851,N,08009.7267,W,1,9,1.9,14,M,,M,,*56
06/03/2014	17:10:32.573	$GPGGA,171041,2543.8852,N,08009.7269,W,1,9,1.9,14,M,,M,,*5A
06/03/2014	17:10:33.535	$GPGGA,171042,2543.8851,N,08009.7268,W,1,9,1.9,14,M,,M,,*5B
06/03/2014	17:10:34.448	$GPGGA,171043,2543.8852,N,08009.7269,W,1,9,1.9,14,M,,M,,*58
06/03/2014	17:10:35.450	$GPGGA,171044,2543.8851,N,08009.7268,W,1,9,1.9,14,M,,M,,*5D
06/03/2014	17:10:36.443	$GPGGA,171045,2543.8852,N,08009.7269,W,1,9,1.9,14,M,,M,,*5E
06/03/2014	17:10:37.546	$GPGGA,171046,2543.8851,N,08009.7268,W,1,9,1.9,14,M,,M,,*5F
06/03/2014	17:10:38.538	$GPGGA,171047,2543.8852,N,08009.7269,W,1,9,1.9,14,M,,M,,*5C
06/03/2014	17:10:39.551	$GPGGA,171048,2543.8851,N,08009.7268,W,1,9,1.9,14,M,,M,,*51
06/03/2014	17:10:40.563	$GPGGA,171049,2543.8853,N,08009.7269,W,1,9,1.9,14,M,,M,,*53
06/03/2014	17:10:41.536	$GPGGA,171050,2543.8853,N,08009.7268,W,1,9,1.9,14,M,,M,,*5A
06/03/2014	17:10:42.548	$GPGGA,171051,2543.8853,N,08009.7269,W,1,9,1.9,14,M,,M,,*5A
06/03/2014	17:10:43.560	$GPGGA,171052,2543.8853,N,08009.7268,W,1,9,1.9,14,M,,M,,*58
06/03/2014	17:10:44.563	$GPGGA,171053,2543.8853,N,08009.7269,W,1,9,1.9,14,M,,M,,*58
06/03/2014	17:10:45.545	$GPGGA,171054,2543.8853,N,08009.7268,W,1,9,1.9,14,M,,M,,*5E
06/03/2014	17:10:46.558	$GPGGA,171055,2543.8853,N,08009.7269,W,1,9,1.9,15,M,,M,,*5F
06/03/2014	17:10:47.561	$GPGGA,171056,2543.8853,N,08009.7268,W,1,9,1.9,15,M,,M,,*5D
06/03/2014	17:10:48.563	$GPGGA,171057,2543.8853,N,08009.7269,W,1,9,1.9,15,M,,M,,*5D
06/03/2014	17:10:49.556	$GPGGA,171058,2543.8853,N,08009.7268,W,1,9,1.9,15,M,,M,,*53
06/03/2014	17:10:50.568	$GPGGA,171059,2543.8853,N,08009.7269,W,1,9,1.9,15,M,,M,,*53
06/03/2014	17:10:51.581	$GPGGA,171100,2543.8853,N,08009.7268,W,1,9,1.9,15,M,,M,,*5F
06/03/2014	17:10:52.533	$GPGGA,171101,2543.8851,N,08009.7269,W,1,9,1.9,15,M,,M,,*5D
06/03/2014	17:10:53.556	$GPGGA,171102,2543.8852,N,08009.7268,W,1,9,1.9,15,M,,M,,*5C
06/03/2014	17:10:54.569	$GPGGA,171103,2543.8851,N,08009.7269,W,1,9,1.9,15,M,,M,,*5F
06/03/2014	17:10:55.561	$GPGGA,171104,2543.8852,N,08009.7268,W,1,9,1.9,15,M,,M,,*5A
06/03/2014	17:10:56.554	$GPGGA,171105,2543.8851,N,08009.7269,W,1,9,1.9,15,M,,M,,*59
06/03/2014	17:10:57.536	$GPGGA,171106,2543.8852,N,08009.7268,W,1,9,1.9,15,M,,M,,*58
06/03/2014	17:10:58.589	$GPGGA,171107,2543.8851,N,08009.7269,W,1,9,1.9,15,M,,M,,*5B
06/03/2014	17:10:59.571	$GPGGA,171108,2543.8852,N,08009.7267,W,1,9,1.9,15,M,,M,,*59
06/03/2014	17:11:00.573	$GPGGA,171109,2543.8851,N,08009.7267,W,1,9,1.9,15,M,,M,,*5B
06/03/2014	17:11:01.568	$GPGGA,171110,2543.8852,N,08009.7267,W,1,9,1.9,15,M,,M,,*50
06/03/2014	17:11:02.548	$GPGGA,171111,2543.8850,N,08009.7269,W,1,9,1.9,15,M,,M,,*5D
06/03/2014	17:11:03.601	$GPGGA,171112,2543.8852,N,08009.7268,W,1,9,1.9,15,M,,M,,*5D
06/03/2014	17:11:04.554	$GPGGA,171113,2543.8850,N,08009.7267,W,1,9,1.9,15,M,,M,,*51
06/03/2014	17:11:05.556	$GPGGA,171114,2543.8852,N,08009.7267,W,1,9,1.9,15,M,,M,,*54
06/03/2014	17:11:06.589	$GPGGA,171115,2543.8851,N,08009.7267,W,1,9,1.9,15,M,,M,,*56
06/03/2014	17:11:07.561	$GPGGA,171116,2543.8852,N,08009.7267,W,1,9,1.9,14,M,,M,,*57
06/03/2014	17:11:08.604	$GPGGA,171117,2543.8850,N,08009.7267,W,1,9,1.9,14,M,,M,,*54
06/03/2014	17:11:09.547	$GPGGA,171118,2543.8850,N,08009.7267,W,1,9,1.9,14,M,,M,,*5B
06/03/2014	17:11:10.549	$GPGGA,171119,2543.8850,N,08009.7266,W,1,9,1.9,14,M,,M,,*5B
06/03/2014	17:11:11.662	$GPGGA,171120,2543.8850,N,08009.7266,W,1,9,1.9,14,M,,M,,*51
06/03/2014	17:11:12.554	$GPGGA,171121,2543.8849,N,08009.7266,W,1,9,1.9,14,M,,M,,*58
06/03/2014	17:11:13.677	$GPGGA,171122,2543.8849,N,08009.7266,W,1,9,1.9,14,M,,M,,*5B
06/03/2014	17:11:14.570	$GPGGA,171123,2543.8849,N,08009.7266,W,1,9,1.9,14,M,,M,,*5A
06/03/2014	17:11:15.572	$GPGGA,171124,2543.8849,N,08009.7266,W,1,9,1.9,14,M,,M,,*5D
06/03/2014	17:11:16.645	$GPGGA,171125,2543.8848,N,08009.7266,W,1,9,1.9,14,M,,M,,*5D
06/03/2014	17:11:17.546	$GPGGA,171126,2543.8849,N,08009.7266,W,1,9,1.9,14,M,,M,,*5F
06/03/2014	17:11:18.549	$GPGGA,171127,2543.8848,N,08009.7266,W,1,9,1.9,14,M,,M,,*5F
06/03/2014	17:11:19.662	$GPGGA,171128,2543.8849,N,08009.7266,W,1,9,1.9,14,M,,M,,*51
06/03/2014	17:11:20.674	$GPGGA,171129,2543.8848,N,08009.7266,W,1,9,1.9,14,M,,M,,*51
06/03/2014	17:11:21.567	$GPGGA,171130,2543.8847,N,08009.7266,W,1,9,1.9,14,M,,M,,*56
06/03/2014	17:11:22.506	$GPGGA,171131,2543.8848,N,08009.7266,W,1,9,1.9,14,M,,M,,*58
06/03/2014	17:11:23.428	$GPGGA,171132,2543.8847,N,08009.7266,W,1,9,1.9,14,M,,M,,*54
06/03/2014	17:11:24.511	$GPGGA,171133,2543.8849,N,08009.7266,W,1,9,1.9,14,M,,M,,*5B
06/03/2014	17:11:25.513	$GPGGA,171134,2543.8848,N,08009.7266,W,1,9,1.9,14,M,,M,,*5D
06/03/2014	17:11:26.496	$GPGGA,171135,2543.8849,N,08009.7266,W,1,9,1.9,14,M,,M,,*5D
06/03/2014	17:11:27.519	$GPGGA,171136,2543.8848,N,08009.7266,W,1,9,1.9,14,M,,M,,*5F
06/03/2014	17:11:28.501	$GPGGA,171137,2543.8849,N,08009.7266,W,1,9,1.9,14,M,,M,,*5F
06/03/2014	17:11:29.514	$GPGGA,171138,2543.8848,N,08009.7267,W,1,9,1.9,14,M,,M,,*50
06/03/2014	17:11:30.526	$GPGGA,171139,2543.8849,N,08009.7267,W,1,9,1.9,14,M,,M,,*50
06/03/2014	17:11:31.529	$GPGGA,171140,2543.8848,N,08009.7269,W,1,9,1.9,14,M,,M,,*51
06/03/2014	17:11:32.502	$GPGGA,171141,2543.8847,N,08009.7268,W,1,9,1.9,14,M,,M,,*5E
06/03/2014	17:11:33.514	$GPGGA,171142,2543.8848,N,08009.7269,W,1,9,1.9,14,M,,M,,*53
06/03/2014	17:11:34.526	$GPGGA,171143,2543.8847,N,08009.7268,W,1,9,1.9,14,M,,M,,*5C
06/03/2014	17:11:35.518	$GPGGA,171144,2543.8848,N,08009.7269,W,1,9,1.9,14,M,,M,,*55
06/03/2014	17:11:36.531	$GPGGA,171145,2543.8847,N,08009.7269,W,1,9,1.9,14,M,,M,,*5B
06/03/2014	17:11:37.514	$GPGGA,171146,2543.8848,N,08009.7269,W,1,9,1.9,14,M,,M,,*57
06/03/2014	17:11:38.546	$GPGGA,171147,2543.8849,N,08009.7269,W,1,9,1.9,14,M,,M,,*57
06/03/2014	17:11:39.529	$GPGGA,171148,2543.8848,N,08009.7269,W,1,9,1.9,14,M,,M,,*59
06/03/2014	17:11:40.511	$GPGGA,171149,2543.8849,N,08009.7270,W,1,9,1.9,14,M,,M,,*51
06/03/2014	17:11:41.514	$GPGGA,171150,2543.8848,N,08009.7270,W,1,9,1.9,14,M,,M,,*58
06/03/2014	17:11:42.537	$GPGGA,171151,2543.8849,N,08009.7270,W,1,9,1.9,14,M,,M,,*58
06/03/2014	17:11:43.528	$GPGGA,171152,2543.8848,N,08009.7272,W,1,9,1.9,14,M,,M,,*58
06/03/2014	17:11:44.513	$GPGGA,171153,2543.8849,N,08009.7271,W,1,9,1.9,14,M,,M,,*5B
06/03/2014	17:11:45.516	$GPGGA,171154,2543.8848,N,08009.7272,W,1,9,1.9,14,M,,M,,*5E
06/03/2014	17:11:46.522	$GPGGA,171155,2543.8849,N,08009.7272,W,1,9,1.9,14,M,,M,,*5E
06/03/2014	17:11:47.529	$GPGGA,171156,2543.8848,N,08009.7272,W,1,9,1.9,14,M,,M,,*5C
06/03/2014	17:11:48.514	$GPGGA,171157,2543.8849,N,08009.7272,W,1,9,1.9,14,M,,M,,*5C
06/03/2014	17:11:49.528	$GPGGA,171158,2543.8848,N,08009.7273,W,1,9,1.9,14,M,,M,,*53
