Software Version Number: 1	Data File Format Number: 1	Build Version Number: 1	Error Count Since VI Started: 0	Manufacturer: Raytheon	 Model Number: RayMarine 120	 S/N: 	 Cal Date: 	 Wind Direction Offset: 0.00	 Slope (M)1: 0.00	 Offset (B)1: 0.00	 Slope (M)2: 0.00	 Offset (B)2: 0.00	 Slope (M)3: 0.00	 Offset (B)3: 0.00	 Slope (M)4: 0.00	 Offset (B)4: 0.00	 Slope (M)5: 0.00	 Offset (B)5: 0.00	 Slope (M)6: 0.00	 Offset (B)6: 0.00
Computer Date	Computer Time	GGA String
06/03/2014	14:00:00.865	$GPGGA,140009,2543.8839,N,08009.7275,W,1,7,2.0,15,M,,M,,*51
06/03/2014	14:00:01.866	$GPGGA,140010,2543.8839,N,08009.7276,W,1,7,2.0,15,M,,M,,*5A
06/03/2014	14:00:03.029	$GPGGA,140011,2543.8837,N,08009.7274,W,1,7,2.0,15,M,,M,,*57
06/03/2014	14:00:04.050	$GPGGA,140012,2543.8838,N,08009.7274,W,1,7,2.0,15,M,,M,,*5B
06/03/2014	14:00:04.879	$GPGGA,140013,2543.8836,N,08009.7274,W,1,7,2.0,15,M,,M,,*54
06/03/2014	14:00:05.982	$GPGGA,140014,2543.8837,N,08009.7274,W,1,7,2.0,15,M,,M,,*52
06/03/2014	14:00:06.892	$GPGGA,140015,2543.8835,N,08009.7273,W,1,7,2.0,15,M,,M,,*56
06/03/2014	14:00:08.085	$GPGGA,140016,2543.8835,N,08009.7273,W,1,7,2.0,15,M,,M,,*55
06/03/2014	14:00:09.032	$GPGGA,140017,2543.8835,N,08009.7273,W,1,7,2.0,15,M,,M,,*54
06/03/2014	14:00:09.927	$GPGGA,140018,2543.8835,N,08009.7273,W,1,7,2.0,15,M,,M,,*5B
06/03/2014	14:00:10.935	$GPGGA,140019,2543.8835,N,08009.7273,W,1,7,2.0,15,M,,M,,*5A
06/03/2014	14:00:11.956	$GPGGA,140020,2543.8835,N,08009.7273,W,1,7,2.0,15,M,,M,,*50
06/03/2014	14:00:13.094	$GPGGA,140021,2543.8835,N,08009.7272,W,1,7,2.0,15,M,,M,,*50
06/03/2014	14:00:14.049	$GPGGA,140022,2543.8833,N,08009.7272,W,1,7,2.0,15,M,,M,,*55
06/03/2014	14:00:15.060	$GPGGA,140023,2543.8834,N,08009.7272,W,1,7,2.0,15,M,,M,,*53
06/03/2014	14:00:16.162	$GPGGA,140024,2543.8832,N,08009.7272,W,1,7,2.0,15,M,,M,,*52
06/03/2014	14:00:17.134	$GPGGA,140025,2543.8833,N,08009.7271,W,1,7,2.0,15,M,,M,,*51
06/03/2014	14:00:18.093	$GPGGA,140026,2543.8832,N,08009.7272,W,1,7,2.0,15,M,,M,,*50
06/03/2014	14:00:19.094	$GPGGA,140027,2543.8833,N,08009.7271,W,1,7,2.0,15,M,,M,,*53
06/03/2014	14:00:20.197	$GPGGA,140028,2543.8832,N,08009.7272,W,1,7,2.0,15,M,,M,,*5E
06/03/2014	14:00:21.117	$GPGGA,140029,2543.8831,N,08009.7271,W,1,7,2.0,15,M,,M,,*5F
06/03/2014	14:00:22.209	$GPGGA,140030,2543.8831,N,08009.7272,W,1,7,2.0,15,M,,M,,*54
06/03/2014	14:00:22.515	$GPGGA,140031,2543.8831,N,08009.7270,W,1,7,2.0,15,M,,M,,*57
06/03/2014	14:00:23.577	$GPGGA,140032,2543.8835,N,08009.7269,W,1,7,2.0,15,M,,M,,*58
06/03/2014	14:00:24.487	$GPGGA,140033,2543.8833,N,08009.7269,W,1,8,1.9,15,M,,M,,*5A
06/03/2014	14:00:25.555	$GPGGA,140034,2543.8834,N,08009.7269,W,1,8,1.9,15,M,,M,,*5A
06/03/2014	14:00:26.557	$GPGGA,140035,2543.8833,N,08009.7269,W,1,8,1.9,15,M,,M,,*5C
06/03/2014	14:00:27.610	$GPGGA,140036,2543.8834,N,08009.7268,W,1,8,1.9,15,M,,M,,*59
06/03/2014	14:00:28.575	$GPGGA,140037,2543.8835,N,08009.7269,W,1,8,1.9,15,M,,M,,*58
06/03/2014	14:00:29.592	$GPGGA,140038,2543.8835,N,08009.7267,W,1,8,2.0,14,M,,M,,*52
06/03/2014	14:00:30.633	$GPGGA,140039,2543.8835,N,08009.7267,W,1,7,1.9,14,M,,M,,*56
06/03/2014	14:00:31.634	$GPGGA,140040,2543.8835,N,08009.7267,W,1,7,1.9,14,M,,M,,*58
06/03/2014	14:00:32.554	$GPGGA,140041,2543.8835,N,08009.7267,W,1,7,2.0,14,M,,M,,*53
06/03/2014	14:00:33.632	$GPGGA,140042,2543.8837,N,08009.7266,W,1,7,1.9,14,M,,M,,*59
06/03/2014	14:00:34.637	$GPGGA,140043,2543.8838,N,08009.7266,W,1,8,1.9,14,M,,M,,*58
06/03/2014	14:00:35.598	$GPGGA,140044,2543.8837,N,08009.7266,W,1,8,1.9,14,M,,M,,*50
06/03/2014	14:00:36.629	$GPGGA,140045,2543.8838,N,08009.7266,W,1,8,1.9,14,M,,M,,*5E
06/03/2014	14:00:37.610	$GPGGA,140046,2543.8837,N,08009.7266,W,1,8,1.9,14,M,,M,,*52
06/03/2014	14:00:38.651	$GPGGA,140047,2543.8838,N,08009.7265,W,1,8,1.9,14,M,,M,,*5F
06/03/2014	14:00:39.703	$GPGGA,140048,2543.8837,N,08009.7265,W,1,8,1.9,14,M,,M,,*5F
06/03/2014	14:00:40.695	$GPGGA,140049,2543.8838,N,08009.7265,W,1,8,1.9,14,M,,M,,*51
06/03/2014	14:00:41.705	$GPGGA,140050,2543.8837,N,08009.7265,W,1,8,1.9,14,M,,M,,*56
06/03/2014	14:00:42.686	$GPGGA,140051,2543.8839,N,08009.7264,W,1,8,1.9,14,M,,M,,*58
06/03/2014	14:00:43.797	$GPGGA,140052,2543.8839,N,08009.7265,W,1,8,1.9,15,M,,M,,*5B
06/03/2014	14:00:44.737	$GPGGA,140053,2543.8839,N,08009.7264,W,1,8,1.9,15,M,,M,,*5B
06/03/2014	14:00:45.738	$GPGGA,140054,2543.8839,N,08009.7265,W,1,8,1.9,15,M,,M,,*5D
06/03/2014	14:00:46.820	$GPGGA,140055,2543.8841,N,08009.7264,W,1,8,1.9,15,M,,M,,*52
06/03/2014	14:00:47.771	$GPGGA,140056,2543.8840,N,08009.7265,W,1,8,1.9,15,M,,M,,*51
06/03/2014	14:00:48.832	$GPGGA,140057,2543.8841,N,08009.7263,W,1,8,1.9,15,M,,M,,*57
06/03/2014	14:00:49.783	$GPGGA,140058,2543.8842,N,08009.7263,W,1,8,1.9,15,M,,M,,*5B
06/03/2014	14:00:50.743	$GPGGA,140059,2543.8842,N,08009.7263,W,1,8,1.9,15,M,,M,,*5A
06/03/2014	14:00:51.876	$GPGGA,140100,2543.8842,N,08009.7263,W,1,8,1.9,15,M,,M,,*57
06/03/2014	14:00:52.866	$GPGGA,140101,2543.8842,N,08009.7265,W,1,8,1.9,15,M,,M,,*50
06/03/2014	14:00:53.860	$GPGGA,140102,2543.8842,N,08009.7263,W,1,8,1.9,15,M,,M,,*55
06/03/2014	14:00:54.889	$GPGGA,140103,2543.8842,N,08009.7263,W,1,8,1.9,15,M,,M,,*54
06/03/2014	14:00:55.870	$GPGGA,140104,2543.8842,N,08009.7265,W,1,8,1.9,14,M,,M,,*54
06/03/2014	14:00:56.810	$GPGGA,140105,2543.8842,N,08009.7264,W,1,8,1.9,14,M,,M,,*54
06/03/2014	14:00:57.895	$GPGGA,140106,2543.8842,N,08009.7265,W,1,8,1.9,14,M,,M,,*56
06/03/2014	14:00:58.994	$GPGGA,140107,2543.8842,N,08009.7264,W,1,8,1.9,14,M,,M,,*56
06/03/2014	14:01:01.308	$GPGGA,140109,2543.8842,N,08009.7264,W,1,8,1.9,14,M,,M,,*58
06/03/2014	14:01:01.915	$GPGGA,140110,2543.8842,N,08009.7265,W,1,8,1.9,14,M,,M,,*51
06/03/2014	14:01:02.957	$GPGGA,140111,2543.8842,N,08009.7264,W,1,8,1.9,14,M,,M,,*51
06/03/2014	14:01:05.385	$GPGGA,140113,2543.8842,N,08009.7265,W,1,8,1.9,14,M,,M,,*52
06/03/2014	14:01:05.969	$GPGGA,140114,2543.8842,N,08009.7265,W,1,8,1.9,14,M,,M,,*55
06/03/2014	14:01:07.002	$GPGGA,140115,2543.8842,N,08009.7265,W,1,8,1.9,14,M,,M,,*54
06/03/2014	14:01:08.008	$GPGGA,140116,2543.8842,N,08009.7266,W,1,8,1.9,14,M,,M,,*54
06/03/2014	14:01:09.003	$GPGGA,140117,2543.8842,N,08009.7265,W,1,8,1.9,14,M,,M,,*56
06/03/2014	14:01:10.004	$GPGGA,140118,2543.8842,N,08009.7265,W,1,8,1.9,14,M,,M,,*59
06/03/2014	14:01:11.025	$GPGGA,140119,2543.8842,N,08009.7266,W,1,8,1.9,14,M,,M,,*5B
06/03/2014	14:01:12.100	$GPGGA,140120,2543.8842,N,08009.7266,W,1,8,1.9,14,M,,M,,*51
06/03/2014	14:01:13.037	$GPGGA,140121,2543.8842,N,08009.7266,W,1,8,1.9,14,M,,M,,*50
06/03/2014	14:01:14.038	$GPGGA,140122,2543.8844,N,08009.7266,W,1,8,1.9,14,M,,M,,*55
06/03/2014	14:01:15.060	$GPGGA,140123,2543.8843,N,08009.7266,W,1,8,2.0,14,M,,M,,*59
06/03/2014	14:01:16.070	$GPGGA,140124,2543.8842,N,08009.7266,W,1,8,2.0,14,M,,M,,*5F
06/03/2014	14:01:17.078	$GPGGA,140125,2543.8842,N,08009.7266,W,1,7,2.0,14,M,,M,,*51
06/03/2014	14:01:18.075	$GPGGA,140126,2543.8844,N,08009.7266,W,1,7,1.9,14,M,,M,,*5E
06/03/2014	14:01:19.099	$GPGGA,140127,2543.8843,N,08009.7266,W,1,8,1.9,14,M,,M,,*57
06/03/2014	14:01:20.084	$GPGGA,140128,2543.8842,N,08009.7267,W,1,8,1.9,14,M,,M,,*58
06/03/2014	14:01:21.100	$GPGGA,140129,2543.8842,N,08009.7267,W,1,7,2.0,14,M,,M,,*5C
06/03/2014	14:01:22.077	$GPGGA,140130,2543.8842,N,08009.7267,W,1,7,2.0,14,M,,M,,*54
06/03/2014	14:01:22.469	$GPGGA,140131,2543.8842,N,08009.7267,W,1,8,2.0,14,M,,M,,*5A
06/03/2014	14:01:23.464	$GPGGA,140132,2543.8842,N,08009.7267,W,1,8,2.0,14,M,,M,,*59
06/03/2014	14:01:24.460	$GPGGA,140133,2543.8842,N,08009.7267,W,1,7,2.0,14,M,,M,,*57
06/03/2014	14:01:25.496	$GPGGA,140134,2543.8842,N,08009.7267,W,1,7,2.0,14,M,,M,,*50
06/03/2014	14:01:26.491	$GPGGA,140135,2543.8842,N,08009.7267,W,1,7,2.0,14,M,,M,,*51
06/03/2014	14:01:27.487	$GPGGA,140136,2543.8840,N,08009.7267,W,1,7,2.0,14,M,,M,,*50
06/03/2014	14:01:28.482	$GPGGA,140137,2543.8841,N,08009.7267,W,1,7,2.0,14,M,,M,,*50
06/03/2014	14:01:29.518	$GPGGA,140138,2543.8840,N,08009.7269,W,1,7,2.0,14,M,,M,,*50
06/03/2014	14:01:30.483	$GPGGA,140139,2543.8839,N,08009.7268,W,1,7,2.0,14,M,,M,,*5E
06/03/2014	14:01:31.519	$GPGGA,140140,2543.8839,N,08009.7269,W,1,7,2.0,14,M,,M,,*51
06/03/2014	14:01:32.505	$GPGGA,140141,2543.8839,N,08009.7268,W,1,7,2.0,14,M,,M,,*51
06/03/2014	14:01:33.500	$GPGGA,140142,2543.8839,N,08009.7268,W,1,7,2.0,14,M,,M,,*52
06/03/2014	14:01:34.616	$GPGGA,140143,2543.8839,N,08009.7268,W,1,7,2.0,14,M,,M,,*53
06/03/2014	14:01:35.561	$GPGGA,140144,2543.8839,N,08009.7269,W,1,7,2.0,14,M,,M,,*55
06/03/2014	14:01:36.526	$GPGGA,140145,2543.8839,N,08009.7269,W,1,7,2.0,14,M,,M,,*54
06/03/2014	14:01:37.542	$GPGGA,140146,2543.8839,N,08009.7268,W,1,7,2.0,14,M,,M,,*56
06/03/2014	14:01:38.628	$GPGGA,140147,2543.8844,N,08009.7267,W,1,7,2.0,14,M,,M,,*52
06/03/2014	14:01:39.653	$GPGGA,140148,2543.8848,N,08009.7267,W,1,7,1.9,14,M,,M,,*5B
06/03/2014	14:01:40.518	$GPGGA,140149,2543.8848,N,08009.7267,W,1,8,1.9,14,M,,M,,*55
06/03/2014	14:01:41.514	$GPGGA,140150,2543.8844,N,08009.7267,W,1,8,1.9,14,M,,M,,*51
06/03/2014	14:01:42.600	$GPGGA,140151,2543.8845,N,08009.7267,W,1,8,1.9,14,M,,M,,*51
06/03/2014	14:01:43.627	$GPGGA,140152,2543.8846,N,08009.7267,W,1,8,1.9,14,M,,M,,*51
06/03/2014	14:01:44.652	$GPGGA,140153,2543.8846,N,08009.7267,W,1,8,1.9,14,M,,M,,*50
06/03/2014	14:01:45.617	$GPGGA,140154,2543.8849,N,08009.7267,W,1,8,1.9,14,M,,M,,*58
06/03/2014	14:01:46.652	$GPGGA,140155,2543.8849,N,08009.7267,W,1,8,1.9,14,M,,M,,*59
06/03/2014	14:01:47.638	$GPGGA,140156,2543.8849,N,08009.7266,W,1,8,1.9,14,M,,M,,*5B
06/03/2014	14:01:48.654	$GPGGA,140157,2543.8849,N,08009.7266,W,1,8,1.9,14,M,,M,,*5A
06/03/2014	14:01:49.639	$GPGGA,140158,2543.8849,N,08009.7266,W,1,8,1.9,14,M,,M,,*55
06/03/2014	14:01:50.655	$GPGGA,140159,2543.8849,N,08009.7265,W,1,8,1.9,14,M,,M,,*57
06/03/2014	14:01:51.670	$GPGGA,140200,2543.8848,N,08009.7265,W,1,8,1.9,14,M,,M,,*59
06/03/2014	14:01:52.637	$GPGGA,140201,2543.8849,N,08009.7265,W,1,8,1.9,14,M,,M,,*59
06/03/2014	14:01:53.650	$GPGGA,140202,2543.8848,N,08009.7265,W,1,8,1.9,14,M,,M,,*5B
06/03/2014	14:01:54.676	$GPGGA,140203,2543.8847,N,08009.7265,W,1,8,1.9,14,M,,M,,*55
06/03/2014	14:01:55.672	$GPGGA,140204,2543.8848,N,08009.7264,W,1,8,1.9,14,M,,M,,*5C
06/03/2014	14:01:56.657	$GPGGA,140205,2543.8846,N,08009.7265,W,1,8,1.9,13,M,,M,,*55
06/03/2014	14:01:59.318	$GPGGA,140207,2543.8846,N,08009.7265,W,1,8,1.9,13,M,,M,,*57
06/03/2014	14:01:59.694	$GPGGA,140208,2543.8846,N,08009.7265,W,1,8,1.9,13,M,,M,,*58
06/03/2014	14:02:00.700	$GPGGA,140209,2543.8846,N,08009.7265,W,1,8,1.9,13,M,,M,,*59
06/03/2014	14:02:01.685	$GPGGA,140210,2543.8844,N,08009.7265,W,1,8,1.9,13,M,,M,,*53
06/03/2014	14:02:02.721	$GPGGA,140211,2543.8845,N,08009.7265,W,1,8,1.9,13,M,,M,,*53
06/03/2014	14:02:03.696	$GPGGA,140212,2543.8843,N,08009.7265,W,1,8,1.9,13,M,,M,,*56
06/03/2014	14:02:04.682	$GPGGA,140213,2543.8844,N,08009.7265,W,1,8,1.9,13,M,,M,,*50
06/03/2014	14:02:05.697	$GPGGA,140214,2543.8842,N,08009.7265,W,1,8,1.9,13,M,,M,,*51
06/03/2014	14:02:06.733	$GPGGA,140215,2543.8842,N,08009.7265,W,1,8,1.9,13,M,,M,,*50
06/03/2014	14:02:07.719	$GPGGA,140216,2543.8842,N,08009.7265,W,1,8,1.9,13,M,,M,,*53
06/03/2014	14:02:08.694	$GPGGA,140217,2543.8842,N,08009.7265,W,1,8,1.9,13,M,,M,,*52
06/03/2014	14:02:09.710	$GPGGA,140218,2543.8842,N,08009.7265,W,1,8,1.9,13,M,,M,,*5D
06/03/2014	14:02:10.745	$GPGGA,140219,2543.8842,N,08009.7265,W,1,8,1.9,13,M,,M,,*5C
06/03/2014	14:02:11.740	$GPGGA,140220,2543.8840,N,08009.7265,W,1,8,1.9,13,M,,M,,*54
06/03/2014	14:02:12.826	$GPGGA,140221,2543.8839,N,08009.7272,W,1,8,1.9,13,M,,M,,*5D
06/03/2014	14:02:13.721	$GPGGA,140222,2543.8839,N,08009.7276,W,1,8,1.5,13,M,,M,,*56
06/03/2014	14:02:14.737	$GPGGA,140223,2543.8839,N,08009.7279,W,1,9,1.5,13,M,,M,,*59
06/03/2014	14:02:15.742	$GPGGA,140224,2543.8839,N,08009.7280,W,1,9,1.5,13,M,,M,,*58
06/03/2014	14:02:16.748	$GPGGA,140225,2543.8837,N,08009.7283,W,1,9,1.5,13,M,,M,,*54
06/03/2014	14:02:17.834	$GPGGA,140226,2543.8838,N,08009.7283,W,1,9,1.5,13,M,,M,,*58
06/03/2014	14:02:18.870	$GPGGA,140227,2543.8837,N,08009.7285,W,1,9,1.5,13,M,,M,,*50
06/03/2014	14:02:19.775	$GPGGA,140228,2543.8838,N,08009.7287,W,1,9,1.5,14,M,,M,,*55
06/03/2014	14:02:20.770	$GPGGA,140229,2543.8837,N,08009.7286,W,1,9,1.5,14,M,,M,,*5A
06/03/2014	14:02:21.856	$GPGGA,140230,2543.8839,N,08009.7287,W,1,9,1.5,14,M,,M,,*5D
06/03/2014	14:02:22.528	$GPGGA,140231,2543.8839,N,08009.7287,W,1,9,1.5,14,M,,M,,*5C
06/03/2014	14:02:23.453	$GPGGA,140232,2543.8839,N,08009.7287,W,1,9,1.5,15,M,,M,,*5E
06/03/2014	14:02:24.519	$GPGGA,140233,2543.8839,N,08009.7287,W,1,9,1.5,15,M,,M,,*5F
06/03/2014	14:02:25.535	$GPGGA,140234,2543.8839,N,08009.7287,W,1,9,1.5,15,M,,M,,*58
06/03/2014	14:02:26.525	$GPGGA,140235,2543.8839,N,08009.7287,W,1,9,1.5,15,M,,M,,*59
06/03/2014	14:02:27.455	$GPGGA,140236,2543.8839,N,08009.7287,W,1,9,1.5,15,M,,M,,*5A
06/03/2014	14:02:28.561	$GPGGA,140237,2543.8839,N,08009.7287,W,1,9,1.5,15,M,,M,,*5B
06/03/2014	14:02:29.541	$GPGGA,140238,2543.8839,N,08009.7287,W,1,9,1.5,16,M,,M,,*57
06/03/2014	14:02:30.572	$GPGGA,140239,2543.8841,N,08009.7287,W,1,9,1.5,16,M,,M,,*59
06/03/2014	14:02:31.559	$GPGGA,140240,2543.8840,N,08009.7286,W,1,9,1.5,16,M,,M,,*57
06/03/2014	14:02:32.563	$GPGGA,140241,2543.8841,N,08009.7285,W,1,9,1.6,16,M,,M,,*57
06/03/2014	14:02:33.548	$GPGGA,140242,2543.8840,N,08009.7285,W,1,9,1.6,16,M,,M,,*55
06/03/2014	14:02:34.575	$GPGGA,140243,2543.8842,N,08009.7285,W,1,9,1.6,16,M,,M,,*56
06/03/2014	14:02:35.610	$GPGGA,140244,2543.8842,N,08009.7284,W,1,9,1.6,16,M,,M,,*50
06/03/2014	14:02:36.565	$GPGGA,140245,2543.8846,N,08009.7282,W,1,8,1.7,16,M,,M,,*53
06/03/2014	14:02:37.561	$GPGGA,140246,2543.8848,N,08009.7281,W,1,8,1.6,17,M,,M,,*5D
06/03/2014	14:02:38.588	$GPGGA,140247,2543.8849,N,08009.7280,W,1,9,1.6,17,M,,M,,*5D
06/03/2014	14:02:39.582	$GPGGA,140248,2543.8849,N,08009.7280,W,1,9,1.6,17,M,,M,,*52
06/03/2014	14:02:40.599	$GPGGA,140249,2543.8850,N,08009.7278,W,1,9,1.6,17,M,,M,,*5C
06/03/2014	14:02:41.573	$GPGGA,140250,2543.8850,N,08009.7279,W,1,9,1.6,17,M,,M,,*55
06/03/2014	14:02:42.629	$GPGGA,140251,2543.8853,N,08009.7277,W,1,9,1.6,17,M,,M,,*59
06/03/2014	14:02:43.604	$GPGGA,140252,2543.8853,N,08009.7276,W,1,9,1.6,17,M,,M,,*5B
06/03/2014	14:02:44.610	$GPGGA,140253,2543.8853,N,08009.7276,W,1,9,1.6,17,M,,M,,*5A
06/03/2014	14:02:45.605	$GPGGA,140254,2543.8853,N,08009.7276,W,1,9,1.6,17,M,,M,,*5D
06/03/2014	14:02:46.590	$GPGGA,140255,2543.8855,N,08009.7276,W,1,9,1.6,17,M,,M,,*5A
06/03/2014	14:02:47.616	$GPGGA,140256,2543.8854,N,08009.7276,W,1,9,1.6,17,M,,M,,*58
06/03/2014	14:02:48.641	$GPGGA,140257,2543.8855,N,08009.7276,W,1,9,1.6,17,M,,M,,*58
06/03/2014	14:02:49.617	$GPGGA,140258,2543.8853,N,08009.7276,W,1,9,1.6,17,M,,M,,*51
06/03/2014	14:02:50.643	$GPGGA,140259,2543.8853,N,08009.7276,W,1,9,1.6,17,M,,M,,*50
06/03/2014	14:02:51.638	$GPGGA,140300,2543.8853,N,08009.7276,W,1,9,1.6,17,M,,M,,*5D
06/03/2014	14:02:52.634	$GPGGA,140301,2543.8853,N,08009.7277,W,1,9,1.6,17,M,,M,,*5D
06/03/2014	14:02:53.619	$GPGGA,140302,2543.8853,N,08009.7276,W,1,9,1.6,17,M,,M,,*5F
06/03/2014	14:02:54.635	$GPGGA,140303,2543.8853,N,08009.7276,W,1,9,1.6,17,M,,M,,*5E
06/03/2014	14:02:55.650	$GPGGA,140304,2543.8853,N,08009.7276,W,1,9,1.6,17,M,,M,,*59
06/03/2014	14:02:56.656	$GPGGA,140305,2543.8853,N,08009.7277,W,1,9,1.6,17,M,,M,,*59
06/03/2014	14:02:57.642	$GPGGA,140306,2543.8853,N,08009.7277,W,1,9,1.6,17,M,,M,,*5A
06/03/2014	14:02:58.657	$GPGGA,140307,2543.8853,N,08009.7277,W,1,9,1.6,17,M,,M,,*5B
06/03/2014	14:02:59.663	$GPGGA,140308,2543.8851,N,08009.7277,W,1,9,1.6,17,M,,M,,*56
06/03/2014	14:03:00.678	$GPGGA,140309,2543.8852,N,08009.7277,W,1,9,1.6,17,M,,M,,*54
06/03/2014	14:03:01.664	$GPGGA,140310,2543.8851,N,08009.7277,W,1,9,1.6,17,M,,M,,*5F
06/03/2014	14:03:02.649	$GPGGA,140311,2543.8852,N,08009.7277,W,1,9,1.6,17,M,,M,,*5D
06/03/2014	14:03:03.765	$GPGGA,140312,2543.8851,N,08009.7279,W,1,9,1.6,17,M,,M,,*53
06/03/2014	14:03:04.680	$GPGGA,140313,2543.8850,N,08009.7278,W,1,9,1.6,17,M,,M,,*52
06/03/2014	14:03:05.675	$GPGGA,140314,2543.8850,N,08009.7280,W,1,9,1.6,17,M,,M,,*52
06/03/2014	14:03:06.671	$GPGGA,140315,2543.8850,N,08009.7279,W,1,9,1.6,17,M,,M,,*55
06/03/2014	14:03:07.807	$GPGGA,140316,2543.8850,N,08009.7280,W,1,9,1.6,17,M,,M,,*50
06/03/2014	14:03:08.692	$GPGGA,140317,2543.8849,N,08009.7279,W,1,9,1.6,17,M,,M,,*5F
06/03/2014	14:03:09.778	$GPGGA,140318,2543.8849,N,08009.7280,W,1,9,1.6,17,M,,M,,*56
06/03/2014	14:03:10.784	$GPGGA,140319,2543.8849,N,08009.7279,W,1,9,1.6,17,M,,M,,*51
06/03/2014	14:03:11.789	$GPGGA,140320,2543.8849,N,08009.7280,W,1,9,1.6,17,M,,M,,*5D
06/03/2014	14:03:12.785	$GPGGA,140321,2543.8848,N,08009.7279,W,1,9,1.6,17,M,,M,,*5B
06/03/2014	14:03:13.790	$GPGGA,140322,2543.8849,N,08009.7280,W,1,9,1.6,17,M,,M,,*5F
06/03/2014	14:03:14.826	$GPGGA,140323,2543.8848,N,08009.7279,W,1,9,1.6,17,M,,M,,*59
06/03/2014	14:03:15.721	$GPGGA,140324,2543.8847,N,08009.7280,W,1,9,1.6,17,M,,M,,*57
06/03/2014	14:03:16.827	$GPGGA,140325,2543.8848,N,08009.7279,W,1,9,1.6,17,M,,M,,*5F
06/03/2014	14:03:17.803	$GPGGA,140326,2543.8847,N,08009.7280,W,1,9,1.6,17,M,,M,,*55
06/03/2014	14:03:18.818	$GPGGA,140327,2543.8848,N,08009.7278,W,1,9,1.6,17,M,,M,,*5C
06/03/2014	14:03:19.825	$GPGGA,140328,2543.8847,N,08009.7279,W,1,9,1.6,17,M,,M,,*5D
06/03/2014	14:03:20.809	$GPGGA,140329,2543.8848,N,08009.7280,W,1,9,1.6,17,M,,M,,*55
06/03/2014	14:03:21.825	$GPGGA,140330,2543.8847,N,08009.7279,W,1,9,1.6,17,M,,M,,*54
06/03/2014	14:03:22.512	$GPGGA,140331,2543.8848,N,08009.7280,W,1,9,1.6,17,M,,M,,*5C
06/03/2014	14:03:23.531	$GPGGA,140332,2543.8847,N,08009.7280,W,1,9,1.6,17,M,,M,,*50
06/03/2014	14:03:24.516	$GPGGA,140333,2543.8846,N,08009.7280,W,1,9,1.6,17,M,,M,,*50
06/03/2014	14:03:25.492	$GPGGA,140334,2543.8846,N,08009.7280,W,1,9,1.6,16,M,,M,,*56
06/03/2014	14:03:26.528	$GPGGA,140335,2543.8846,N,08009.7280,W,1,9,1.6,16,M,,M,,*57
06/03/2014	14:03:27.532	$GPGGA,140336,2543.8846,N,08009.7279,W,1,9,1.6,16,M,,M,,*52
06/03/2014	14:03:28.508	$GPGGA,140337,2543.8846,N,08009.7280,W,1,9,1.6,16,M,,M,,*55
06/03/2014	14:03:29.514	$GPGGA,140338,2543.8846,N,08009.7280,W,1,9,1.6,16,M,,M,,*5A
06/03/2014	14:03:30.520	$GPGGA,140339,2543.8848,N,08009.7280,W,1,9,1.6,16,M,,M,,*55
06/03/2014	14:03:31.535	$GPGGA,140340,2543.8846,N,08009.7280,W,1,9,1.6,16,M,,M,,*55
06/03/2014	14:03:32.554	$GPGGA,140341,2543.8846,N,08009.7280,W,1,9,1.6,16,M,,M,,*54
06/03/2014	14:03:33.546	$GPGGA,140342,2543.8846,N,08009.7281,W,1,9,1.6,16,M,,M,,*56
06/03/2014	14:03:34.570	$GPGGA,140343,2543.8846,N,08009.7281,W,1,9,1.6,16,M,,M,,*57
06/03/2014	14:03:35.558	$GPGGA,140344,2543.8846,N,08009.7281,W,1,9,1.6,16,M,,M,,*50
06/03/2014	14:03:36.533	$GPGGA,140345,2543.8846,N,08009.7281,W,1,9,1.6,16,M,,M,,*51
06/03/2014	14:03:37.550	$GPGGA,140346,2543.8846,N,08009.7281,W,1,9,1.6,16,M,,M,,*52
06/03/2014	14:03:38.573	$GPGGA,140347,2543.8846,N,08009.7281,W,1,9,1.6,16,M,,M,,*53
06/03/2014	14:03:39.569	$GPGGA,140348,2543.8846,N,08009.7281,W,1,9,1.6,16,M,,M,,*5C
06/03/2014	14:03:40.554	$GPGGA,140349,2543.8846,N,08009.7281,W,1,9,1.6,16,M,,M,,*5D
06/03/2014	14:03:41.671	$GPGGA,140350,2543.8846,N,08009.7281,W,1,9,1.6,16,M,,M,,*55
06/03/2014	14:03:42.608	$GPGGA,140351,2543.8846,N,08009.7280,W,1,9,1.6,16,M,,M,,*55
06/03/2014	14:03:43.581	$GPGGA,140352,2543.8848,N,08009.7279,W,1,9,1.6,16,M,,M,,*5E
06/03/2014	14:03:44.557	$GPGGA,140353,2543.8847,N,08009.7278,W,1,8,1.9,16,M,,M,,*5F
06/03/2014	14:03:45.582	$GPGGA,140354,2543.8848,N,08009.7277,W,1,8,1.9,16,M,,M,,*58
06/03/2014	14:03:46.598	$GPGGA,140355,2543.8847,N,08009.7276,W,1,8,1.9,15,M,,M,,*54
06/03/2014	14:03:47.604	$GPGGA,140356,2543.8849,N,08009.7276,W,1,8,1.9,15,M,,M,,*59
06/03/2014	14:03:48.589	$GPGGA,140357,2543.8848,N,08009.7275,W,1,8,1.9,15,M,,M,,*5A
06/03/2014	14:03:49.585	$GPGGA,140358,2543.8849,N,08009.7274,W,1,8,1.9,15,M,,M,,*55
06/03/2014	14:03:50.590	$GPGGA,140359,2543.8848,N,08009.7273,W,1,8,1.9,15,M,,M,,*52
06/03/2014	14:03:51.606	$GPGGA,140400,2543.8849,N,08009.7273,W,1,8,1.9,15,M,,M,,*58
06/03/2014	14:03:52.613	$GPGGA,140401,2543.8848,N,08009.7276,W,1,8,1.9,14,M,,M,,*5C
06/03/2014	14:03:53.698	$GPGGA,140402,2543.8849,N,08009.7275,W,1,8,1.6,14,M,,M,,*52
06/03/2014	14:03:54.613	$GPGGA,140403,2543.8847,N,08009.7276,W,1,9,1.6,14,M,,M,,*5F
06/03/2014	14:03:55.708	$GPGGA,140404,2543.8848,N,08009.7276,W,1,9,1.6,14,M,,M,,*57
06/03/2014	14:03:56.703	$GPGGA,140405,2543.8847,N,08009.7277,W,1,9,1.6,14,M,,M,,*58
06/03/2014	14:03:57.608	$GPGGA,140406,2543.8848,N,08009.7277,W,1,9,1.6,14,M,,M,,*54
06/03/2014	14:03:58.765	$GPGGA,140407,2543.8847,N,08009.7277,W,1,9,1.6,14,M,,M,,*5A
06/03/2014	14:03:59.760	$GPGGA,140408,2543.8848,N,08009.7276,W,1,9,1.6,14,M,,M,,*5B
06/03/2014	14:04:00.736	$GPGGA,140409,2543.8849,N,08009.7276,W,1,9,1.6,14,M,,M,,*5B
06/03/2014	14:04:01.731	$GPGGA,140410,2543.8847,N,08009.7276,W,1,9,1.9,14,M,,M,,*52
06/03/2014	14:04:02.757	$GPGGA,140411,2543.8849,N,08009.7274,W,1,9,1.6,13,M,,M,,*57
06/03/2014	14:04:03.763	$GPGGA,140412,2543.8848,N,08009.7274,W,1,9,1.6,13,M,,M,,*55
06/03/2014	14:04:04.758	$GPGGA,140413,2543.8847,N,08009.7276,W,1,8,1.9,13,M,,M,,*57
06/03/2014	14:04:05.738	$GPGGA,140414,2543.8848,N,08009.7275,W,1,8,1.6,13,M,,M,,*53
06/03/2014	14:04:06.740	$GPGGA,140415,2543.8847,N,08009.7277,W,1,8,1.9,13,M,,M,,*50
06/03/2014	14:04:07.755	$GPGGA,140416,2543.8846,N,08009.7280,W,1,8,1.6,13,M,,M,,*55
06/03/2014	14:04:08.781	$GPGGA,140417,2543.8846,N,08009.7279,W,1,9,1.6,13,M,,M,,*53
06/03/2014	14:04:09.758	$GPGGA,140418,2543.8846,N,08009.7280,W,1,9,1.6,13,M,,M,,*5A
06/03/2014	14:04:10.769	$GPGGA,140419,2543.8848,N,08009.7278,W,1,8,1.9,13,M,,M,,*5C
06/03/2014	14:04:11.777	$GPGGA,140420,2543.8847,N,08009.7277,W,1,8,1.9,13,M,,M,,*56
06/03/2014	14:04:12.785	$GPGGA,140421,2543.8848,N,08009.7277,W,1,8,1.9,13,M,,M,,*58
06/03/2014	14:04:13.767	$GPGGA,140422,2543.8847,N,08009.7276,W,1,8,1.6,13,M,,M,,*5A
06/03/2014	14:04:14.783	$GPGGA,140423,2543.8848,N,08009.7276,W,1,8,1.9,13,M,,M,,*5B
06/03/2014	14:04:15.789	$GPGGA,140424,2543.8847,N,08009.7275,W,1,8,1.9,13,M,,M,,*50
06/03/2014	14:04:16.764	$GPGGA,140425,2543.8848,N,08009.7274,W,1,8,1.9,13,M,,M,,*5F
06/03/2014	14:04:17.780	$GPGGA,140426,2543.8847,N,08009.7274,W,1,8,1.9,12,M,,M,,*52
06/03/2014	14:04:18.809	$GPGGA,140427,2543.8848,N,08009.7273,W,1,8,1.9,12,M,,M,,*5B
06/03/2014	14:04:19.801	$GPGGA,140428,2543.8849,N,08009.7273,W,1,8,1.9,12,M,,M,,*55
06/03/2014	14:04:20.807	$GPGGA,140429,2543.8848,N,08009.7272,W,1,8,1.9,12,M,,M,,*54
06/03/2014	14:04:21.812	$GPGGA,140430,2543.8849,N,08009.7272,W,1,8,1.9,12,M,,M,,*5D
06/03/2014	14:04:22.504	$GPGGA,140431,2543.8848,N,08009.7271,W,1,8,1.9,12,M,,M,,*5E
06/03/2014	14:04:23.489	$GPGGA,140432,2543.8849,N,08009.7272,W,1,8,1.9,12,M,,M,,*5F
06/03/2014	14:04:24.475	$GPGGA,140433,2543.8848,N,08009.7270,W,1,8,1.9,12,M,,M,,*5D
06/03/2014	14:04:25.480	$GPGGA,140434,2543.8849,N,08009.7270,W,1,8,1.9,12,M,,M,,*5B
06/03/2014	14:04:26.466	$GPGGA,140435,2543.8848,N,08009.7270,W,1,8,1.9,11,M,,M,,*58
06/03/2014	14:04:27.492	$GPGGA,140436,2543.8849,N,08009.7272,W,1,8,1.6,11,M,,M,,*57
06/03/2014	14:04:28.517	$GPGGA,140437,2543.8849,N,08009.7270,W,1,8,1.7,11,M,,M,,*55
06/03/2014	14:04:29.483	$GPGGA,140438,2543.8849,N,08009.7270,W,1,8,1.9,11,M,,M,,*54
06/03/2014	14:04:30.487	$GPGGA,140439,2543.8852,N,08009.7273,W,1,7,2.0,11,M,,M,,*59
06/03/2014	14:04:31.503	$GPGGA,140440,2543.8850,N,08009.7276,W,1,7,1.6,11,M,,M,,*55
06/03/2014	14:04:32.509	$GPGGA,140441,2543.8853,N,08009.7273,W,1,8,1.7,11,M,,M,,*5C
06/03/2014	14:04:33.494	$GPGGA,140442,2543.8853,N,08009.7272,W,1,8,1.9,11,M,,M,,*50
06/03/2014	14:04:34.500	$GPGGA,140443,2543.8853,N,08009.7271,W,1,8,1.9,11,M,,M,,*52
06/03/2014	14:04:35.535	$GPGGA,140444,2543.8853,N,08009.7270,W,1,8,1.9,11,M,,M,,*54
06/03/2014	14:04:36.531	$GPGGA,140445,2543.8855,N,08009.7270,W,1,8,1.9,11,M,,M,,*53
06/03/2014	14:04:37.516	$GPGGA,140446,2543.8856,N,08009.7269,W,1,8,1.9,11,M,,M,,*5B
06/03/2014	14:04:38.663	$GPGGA,140447,2543.8855,N,08009.7268,W,1,8,1.9,11,M,,M,,*58
06/03/2014	14:04:39.648	$GPGGA,140448,2543.8856,N,08009.7269,W,1,8,1.9,11,M,,M,,*55
06/03/2014	14:04:40.533	$GPGGA,140449,2543.8855,N,08009.7267,W,1,8,1.9,11,M,,M,,*59
06/03/2014	14:04:41.660	$GPGGA,140450,2543.8857,N,08009.7266,W,1,8,1.9,11,M,,M,,*52
06/03/2014	14:04:42.665	$GPGGA,140451,2543.8857,N,08009.7266,W,1,8,1.9,11,M,,M,,*53
06/03/2014	14:04:43.570	$GPGGA,140452,2543.8857,N,08009.7265,W,1,8,1.9,11,M,,M,,*53
06/03/2014	14:04:44.556	$GPGGA,140453,2543.8857,N,08009.7265,W,1,8,1.9,11,M,,M,,*52
06/03/2014	14:04:45.531	$GPGGA,140454,2543.8857,N,08009.7265,W,1,8,1.9,11,M,,M,,*55
06/03/2014	14:04:46.567	$GPGGA,140455,2543.8857,N,08009.7264,W,1,8,1.9,11,M,,M,,*55
06/03/2014	14:04:47.571	$GPGGA,140456,2543.8857,N,08009.7265,W,1,8,1.9,11,M,,M,,*57
06/03/2014	14:04:48.658	$GPGGA,140457,2543.8855,N,08009.7269,W,1,8,1.6,11,M,,M,,*57
06/03/2014	14:04:49.683	$GPGGA,140458,2543.8856,N,08009.7267,W,1,8,1.9,11,M,,M,,*5A
06/03/2014	14:04:50.669	$GPGGA,140459,2543.8855,N,08009.7266,W,1,8,1.9,11,M,,M,,*59
06/03/2014	14:04:51.704	$GPGGA,140500,2543.8856,N,08009.7266,W,1,8,1.9,11,M,,M,,*57
06/03/2014	14:04:52.680	$GPGGA,140501,2543.8855,N,08009.7266,W,1,8,1.9,11,M,,M,,*55
06/03/2014	14:04:53.677	$GPGGA,140502,2543.8856,N,08009.7265,W,1,8,1.9,11,M,,M,,*56
06/03/2014	14:04:54.681	$GPGGA,140503,2543.8855,N,08009.7265,W,1,8,1.9,11,M,,M,,*54
06/03/2014	14:04:55.697	$GPGGA,140504,2543.8854,N,08009.7265,W,1,8,1.9,11,M,,M,,*52
06/03/2014	14:04:56.693	$GPGGA,140505,2543.8855,N,08009.7265,W,1,8,1.9,11,M,,M,,*52
06/03/2014	14:04:57.697	$GPGGA,140506,2543.8854,N,08009.7265,W,1,8,1.9,11,M,,M,,*50
06/03/2014	14:04:58.695	$GPGGA,140507,2543.8853,N,08009.7265,W,1,8,1.9,11,M,,M,,*56
06/03/2014	14:04:59.712	$GPGGA,140508,2543.8853,N,08009.7264,W,1,8,1.9,11,M,,M,,*58
06/03/2014	14:05:00.725	$GPGGA,140509,2543.8853,N,08009.7265,W,1,8,1.9,11,M,,M,,*58
06/03/2014	14:05:01.690	$GPGGA,140510,2543.8853,N,08009.7264,W,1,8,1.9,11,M,,M,,*51
06/03/2014	14:05:02.728	$GPGGA,140511,2543.8853,N,08009.7265,W,1,8,1.9,11,M,,M,,*51
06/03/2014	14:05:03.721	$GPGGA,140512,2543.8853,N,08009.7264,W,1,8,1.9,11,M,,M,,*53
06/03/2014	14:05:04.739	$GPGGA,140513,2543.8853,N,08009.7265,W,1,8,1.9,11,M,,M,,*53
06/03/2014	14:05:05.722	$GPGGA,140514,2543.8853,N,08009.7269,W,1,8,1.6,11,M,,M,,*57
06/03/2014	14:05:06.737	$GPGGA,140515,2543.8853,N,08009.7272,W,1,9,1.6,12,M,,M,,*5E
06/03/2014	14:05:07.743	$GPGGA,140516,2543.8851,N,08009.7274,W,1,9,1.6,12,M,,M,,*59
06/03/2014	14:05:08.718	$GPGGA,140517,2543.8852,N,08009.7273,W,1,9,1.9,12,M,,M,,*53
06/03/2014	14:05:09.734	$GPGGA,140518,2543.8851,N,08009.7272,W,1,9,1.9,12,M,,M,,*5E
06/03/2014	14:05:10.760	$GPGGA,140519,2543.8853,N,08009.7272,W,1,8,1.9,12,M,,M,,*5C
06/03/2014	14:05:11.745	$GPGGA,140520,2543.8853,N,08009.7271,W,1,8,1.9,12,M,,M,,*55
06/03/2014	14:05:12.761	$GPGGA,140521,2543.8853,N,08009.7270,W,1,8,1.9,12,M,,M,,*55
06/03/2014	14:05:13.736	$GPGGA,140522,2543.8853,N,08009.7270,W,1,8,1.9,12,M,,M,,*56
06/03/2014	14:05:14.772	$GPGGA,140523,2543.8853,N,08009.7270,W,1,8,1.9,12,M,,M,,*57
06/03/2014	14:05:15.767	$GPGGA,140524,2543.8853,N,08009.7269,W,1,8,1.9,12,M,,M,,*58
06/03/2014	14:05:16.783	$GPGGA,140525,2543.8853,N,08009.7269,W,1,8,1.9,12,M,,M,,*59
06/03/2014	14:05:17.769	$GPGGA,140526,2543.8855,N,08009.7268,W,1,8,1.9,12,M,,M,,*5D
06/03/2014	14:05:18.774	$GPGGA,140527,2543.8853,N,08009.7269,W,1,8,1.9,12,M,,M,,*5B
06/03/2014	14:05:19.780	$GPGGA,140528,2543.8853,N,08009.7267,W,1,8,1.9,12,M,,M,,*5A
06/03/2014	14:05:20.755	$GPGGA,140529,2543.8855,N,08009.7267,W,1,8,1.9,12,M,,M,,*5D
06/03/2014	14:05:21.771	$GPGGA,140530,2543.8854,N,08009.7266,W,1,8,1.9,12,M,,M,,*55
06/03/2014	14:05:22.452	$GPGGA,140531,2543.8855,N,08009.7266,W,1,8,1.9,12,M,,M,,*55
06/03/2014	14:05:23.457	$GPGGA,140532,2543.8854,N,08009.7266,W,1,8,1.9,13,M,,M,,*56
06/03/2014	14:05:24.473	$GPGGA,140533,2543.8856,N,08009.7265,W,1,8,1.9,13,M,,M,,*56
06/03/2014	14:05:25.448	$GPGGA,140534,2543.8855,N,08009.7265,W,1,8,1.9,13,M,,M,,*52
06/03/2014	14:05:26.484	$GPGGA,140535,2543.8856,N,08009.7265,W,1,8,1.9,13,M,,M,,*50
06/03/2014	14:05:27.459	$GPGGA,140536,2543.8855,N,08009.7265,W,1,8,1.9,13,M,,M,,*50
06/03/2014	14:05:28.546	$GPGGA,140537,2543.8856,N,08009.7264,W,1,8,1.9,13,M,,M,,*53
06/03/2014	14:05:29.461	$GPGGA,140538,2543.8855,N,08009.7265,W,1,8,1.9,13,M,,M,,*5E
06/03/2014	14:05:30.486	$GPGGA,140539,2543.8856,N,08009.7263,W,1,8,1.9,13,M,,M,,*5A
06/03/2014	14:05:31.582	$GPGGA,140540,2543.8855,N,08009.7263,W,1,8,1.9,13,M,,M,,*57
06/03/2014	14:05:32.487	$GPGGA,140541,2543.8856,N,08009.7263,W,1,8,1.9,13,M,,M,,*55
06/03/2014	14:05:33.563	$GPGGA,140542,2543.8855,N,08009.7262,W,1,8,1.9,13,M,,M,,*54
06/03/2014	14:05:34.609	$GPGGA,140543,2543.8857,N,08009.7262,W,1,8,1.9,13,M,,M,,*57
06/03/2014	14:05:35.524	$GPGGA,140544,2543.8857,N,08009.7262,W,1,8,1.9,13,M,,M,,*50
06/03/2014	14:05:36.620	$GPGGA,140545,2543.8857,N,08009.7261,W,1,8,1.9,13,M,,M,,*52
06/03/2014	14:05:37.515	$GPGGA,140546,2543.8857,N,08009.7262,W,1,8,1.9,13,M,,M,,*52
06/03/2014	14:05:38.591	$GPGGA,140547,2543.8857,N,08009.7261,W,1,8,1.9,13,M,,M,,*50
06/03/2014	14:05:39.607	$GPGGA,140548,2543.8857,N,08009.7262,W,1,8,1.9,13,M,,M,,*5C
06/03/2014	14:05:40.622	$GPGGA,140549,2543.8857,N,08009.7265,W,1,8,1.9,13,M,,M,,*5A
06/03/2014	14:05:41.597	$GPGGA,140550,2543.8855,N,08009.7265,W,1,8,1.6,13,M,,M,,*5F
06/03/2014	14:05:42.613	$GPGGA,140551,2543.8856,N,08009.7267,W,1,9,1.6,13,M,,M,,*5E
06/03/2014	14:05:43.628	$GPGGA,140552,2543.8854,N,08009.7269,W,1,9,1.6,13,M,,M,,*51
06/03/2014	14:05:44.614	$GPGGA,140553,2543.8855,N,08009.7270,W,1,9,1.6,13,M,,M,,*59
06/03/2014	14:05:45.620	$GPGGA,140554,2543.8854,N,08009.7272,W,1,9,1.6,13,M,,M,,*5D
06/03/2014	14:05:46.635	$GPGGA,140555,2543.8853,N,08009.7272,W,1,9,1.6,13,M,,M,,*5B
06/03/2014	14:05:47.641	$GPGGA,140556,2543.8853,N,08009.7273,W,1,9,1.6,13,M,,M,,*59
06/03/2014	14:05:48.636	$GPGGA,140557,2543.8853,N,08009.7276,W,1,9,1.6,13,M,,M,,*5D
06/03/2014	14:05:49.633	$GPGGA,140558,2543.8853,N,08009.7276,W,1,9,1.6,14,M,,M,,*55
06/03/2014	14:05:50.648	$GPGGA,140559,2543.8853,N,08009.7277,W,1,9,1.6,14,M,,M,,*55
06/03/2014	14:05:51.665	$GPGGA,140600,2543.8853,N,08009.7279,W,1,9,1.6,14,M,,M,,*54
06/03/2014	14:05:52.659	$GPGGA,140601,2543.8853,N,08009.7278,W,1,9,1.6,14,M,,M,,*54
06/03/2014	14:05:53.644	$GPGGA,140602,2543.8853,N,08009.7280,W,1,9,1.6,14,M,,M,,*50
06/03/2014	14:05:54.680	$GPGGA,140603,2543.8853,N,08009.7279,W,1,9,1.6,15,M,,M,,*56
06/03/2014	14:05:55.666	$GPGGA,140604,2543.8853,N,08009.7280,W,1,9,1.6,15,M,,M,,*57
06/03/2014	14:05:56.674	$GPGGA,140605,2543.8853,N,08009.7280,W,1,9,1.6,15,M,,M,,*56
06/03/2014	14:05:57.646	$GPGGA,140606,2543.8853,N,08009.7280,W,1,9,1.6,15,M,,M,,*55
06/03/2014	14:05:58.681	$GPGGA,140607,2543.8851,N,08009.7280,W,1,9,1.6,15,M,,M,,*56
06/03/2014	14:05:59.677	$GPGGA,140608,2543.8852,N,08009.7280,W,1,9,1.6,16,M,,M,,*59
06/03/2014	14:06:00.672	$GPGGA,140609,2543.8851,N,08009.7281,W,1,9,1.6,16,M,,M,,*5A
06/03/2014	14:06:01.668	$GPGGA,140610,2543.8852,N,08009.7283,W,1,9,1.6,16,M,,M,,*53
06/03/2014	14:06:02.684	$GPGGA,140611,2543.8851,N,08009.7280,W,1,9,1.6,16,M,,M,,*52
06/03/2014	14:06:03.699	$GPGGA,140612,2543.8852,N,08009.7281,W,1,9,1.9,16,M,,M,,*5C
06/03/2014	14:06:04.685	$GPGGA,140613,2543.8851,N,08009.7281,W,1,9,1.6,16,M,,M,,*51
06/03/2014	14:06:05.710	$GPGGA,140614,2543.8853,N,08009.7281,W,1,9,1.6,16,M,,M,,*54
06/03/2014	14:06:06.706	$GPGGA,140615,2543.8853,N,08009.7280,W,1,9,1.6,17,M,,M,,*55
06/03/2014	14:06:07.712	$GPGGA,140616,2543.8853,N,08009.7280,W,1,9,1.6,17,M,,M,,*56
06/03/2014	14:06:08.697	$GPGGA,140617,2543.8853,N,08009.7280,W,1,9,1.6,17,M,,M,,*57
06/03/2014	14:06:09.713	$GPGGA,140618,2543.8853,N,08009.7280,W,1,9,1.6,17,M,,M,,*58
06/03/2014	14:06:10.718	$GPGGA,140619,2543.8855,N,08009.7280,W,1,9,1.6,17,M,,M,,*5F
06/03/2014	14:06:11.714	$GPGGA,140620,2543.8854,N,08009.7280,W,1,9,1.6,17,M,,M,,*54
06/03/2014	14:06:12.699	$GPGGA,140621,2543.8855,N,08009.7280,W,1,9,1.6,17,M,,M,,*54
06/03/2014	14:06:13.826	$GPGGA,140622,2543.8856,N,08009.7280,W,1,9,1.6,17,M,,M,,*54
06/03/2014	14:06:14.711	$GPGGA,140623,2543.8854,N,08009.7278,W,1,9,1.6,17,M,,M,,*50
06/03/2014	14:06:15.735	$GPGGA,140624,2543.8856,N,08009.7277,W,1,9,1.9,17,M,,M,,*55
06/03/2014	14:06:16.810	$GPGGA,140625,2543.8855,N,08009.7275,W,1,8,1.9,17,M,,M,,*54
06/03/2014	14:06:17.733	$GPGGA,140626,2543.8856,N,08009.7274,W,1,8,1.9,17,M,,M,,*55
06/03/2014	14:06:18.847	$GPGGA,140627,2543.8857,N,08009.7273,W,1,8,1.9,17,M,,M,,*52
06/03/2014	14:06:19.751	$GPGGA,140628,2543.8857,N,08009.7272,W,1,8,1.9,17,M,,M,,*5C
06/03/2014	14:06:20.744	$GPGGA,140629,2543.8857,N,08009.7271,W,1,8,1.9,17,M,,M,,*5E
06/03/2014	14:06:21.838	$GPGGA,140630,2543.8857,N,08009.7270,W,1,8,1.9,17,M,,M,,*57
06/03/2014	14:06:22.418	$GPGGA,140631,2543.8857,N,08009.7269,W,1,8,1.9,17,M,,M,,*5E
06/03/2014	14:06:23.532	$GPGGA,140632,2543.8857,N,08009.7269,W,1,8,1.9,17,M,,M,,*5D
06/03/2014	14:06:24.516	$GPGGA,140633,2543.8857,N,08009.7267,W,1,8,1.9,17,M,,M,,*52
06/03/2014	14:06:25.501	$GPGGA,140634,2543.8857,N,08009.7267,W,1,8,1.9,17,M,,M,,*55
06/03/2014	14:06:26.513	$GPGGA,140635,2543.8857,N,08009.7267,W,1,8,1.9,17,M,,M,,*54
06/03/2014	14:06:27.537	$GPGGA,140636,2543.8857,N,08009.7269,W,1,8,1.9,16,M,,M,,*58
06/03/2014	14:06:28.520	$GPGGA,140637,2543.8857,N,08009.7269,W,1,9,1.6,16,M,,M,,*57
06/03/2014	14:06:29.524	$GPGGA,140638,2543.8857,N,08009.7268,W,1,9,1.9,16,M,,M,,*56
06/03/2014	14:06:30.527	$GPGGA,140639,2543.8855,N,08009.7267,W,1,8,1.9,16,M,,M,,*5B
06/03/2014	14:06:31.531	$GPGGA,140640,2543.8856,N,08009.7267,W,1,8,1.9,16,M,,M,,*56
06/03/2014	14:06:32.514	$GPGGA,140641,2543.8855,N,08009.7267,W,1,9,1.6,16,M,,M,,*5A
06/03/2014	14:06:33.517	$GPGGA,140642,2543.8854,N,08009.7267,W,1,9,1.9,16,M,,M,,*57
06/03/2014	14:06:34.541	$GPGGA,140643,2543.8853,N,08009.7269,W,1,8,1.9,16,M,,M,,*5E
06/03/2014	14:06:35.544	$GPGGA,140644,2543.8853,N,08009.7272,W,1,8,1.6,16,M,,M,,*5C
06/03/2014	14:06:36.548	$GPGGA,140645,2543.8853,N,08009.7270,W,1,9,1.6,16,M,,M,,*5E
06/03/2014	14:06:37.522	$GPGGA,140646,2543.8853,N,08009.7269,W,1,9,1.9,16,M,,M,,*5A
06/03/2014	14:06:38.535	$GPGGA,140647,2543.8853,N,08009.7269,W,1,8,1.9,16,M,,M,,*5A
06/03/2014	14:06:39.550	$GPGGA,140648,2543.8853,N,08009.7268,W,1,8,1.9,16,M,,M,,*54
06/03/2014	14:06:40.522	$GPGGA,140649,2543.8853,N,08009.7267,W,1,8,1.9,16,M,,M,,*5A
06/03/2014	14:06:41.546	$GPGGA,140650,2543.8853,N,08009.7266,W,1,8,1.9,16,M,,M,,*53
06/03/2014	14:06:42.561	$GPGGA,140651,2543.8851,N,08009.7270,W,1,8,1.9,15,M,,M,,*54
06/03/2014	14:06:43.543	$GPGGA,140652,2543.8852,N,08009.7272,W,1,8,1.6,15,M,,M,,*59
06/03/2014	14:06:44.557	$GPGGA,140653,2543.8851,N,08009.7274,W,1,9,1.6,15,M,,M,,*5C
06/03/2014	14:06:45.540	$GPGGA,140654,2543.8852,N,08009.7276,W,1,9,1.6,16,M,,M,,*59
06/03/2014	14:06:46.584	$GPGGA,140655,2543.8850,N,08009.7277,W,1,9,1.6,16,M,,M,,*5B
06/03/2014	14:06:47.547	$GPGGA,140656,2543.8852,N,08009.7275,W,1,9,1.6,16,M,,M,,*58
06/03/2014	14:06:48.551	$GPGGA,140657,2543.8851,N,08009.7274,W,1,8,1.9,16,M,,M,,*55
06/03/2014	14:06:49.555	$GPGGA,140658,2543.8853,N,08009.7272,W,1,8,1.9,16,M,,M,,*5E
06/03/2014	14:06:50.537	$GPGGA,140659,2543.8851,N,08009.7271,W,1,9,1.6,16,M,,M,,*50
06/03/2014	14:06:51.582	$GPGGA,140700,2543.8852,N,08009.7272,W,1,9,1.6,16,M,,M,,*5D
06/03/2014	14:06:52.585	$GPGGA,140701,2543.8851,N,08009.7272,W,1,9,1.6,16,M,,M,,*5F
06/03/2014	14:06:53.558	$GPGGA,140702,2543.8852,N,08009.7272,W,1,9,1.6,16,M,,M,,*5F
06/03/2014	14:06:54.572	$GPGGA,140703,2543.8851,N,08009.7273,W,1,9,1.6,16,M,,M,,*5C
06/03/2014	14:06:55.696	$GPGGA,140704,2543.8850,N,08009.7273,W,1,9,1.6,16,M,,M,,*5A
06/03/2014	14:06:56.559	$GPGGA,140705,2543.8850,N,08009.7273,W,1,9,1.6,16,M,,M,,*5B
06/03/2014	14:06:57.572	$GPGGA,140706,2543.8850,N,08009.7273,W,1,9,1.6,16,M,,M,,*58
06/03/2014	14:06:58.576	$GPGGA,140707,2543.8850,N,08009.7273,W,1,9,1.6,16,M,,M,,*59
06/03/2014	14:06:59.570	$GPGGA,140708,2543.8849,N,08009.7274,W,1,9,1.6,16,M,,M,,*59
06/03/2014	14:07:00.563	$GPGGA,140709,2543.8849,N,08009.7276,W,1,9,1.6,16,M,,M,,*5A
06/03/2014	14:07:01.567	$GPGGA,140710,2543.8849,N,08009.7276,W,1,9,1.6,16,M,,M,,*52
06/03/2014	14:07:02.691	$GPGGA,140711,2543.8849,N,08009.7276,W,1,9,1.6,16,M,,M,,*53
06/03/2014	14:07:03.594	$GPGGA,140712,2543.8848,N,08009.7276,W,1,9,1.6,16,M,,M,,*51
06/03/2014	14:07:04.588	$GPGGA,140713,2543.8849,N,08009.7277,W,1,9,1.6,16,M,,M,,*50
06/03/2014	14:07:05.692	$GPGGA,140714,2543.8848,N,08009.7276,W,1,9,1.6,16,M,,M,,*57
06/03/2014	14:07:06.695	$GPGGA,140715,2543.8849,N,08009.7276,W,1,9,1.6,16,M,,M,,*57
06/03/2014	14:07:07.698	$GPGGA,140716,2543.8848,N,08009.7277,W,1,9,1.6,16,M,,M,,*54
06/03/2014	14:07:08.711	$GPGGA,140717,2543.8849,N,08009.7277,W,1,9,1.6,16,M,,M,,*54
06/03/2014	14:07:09.585	$GPGGA,140718,2543.8848,N,08009.7277,W,1,9,1.6,16,M,,M,,*5A
06/03/2014	14:07:10.729	$GPGGA,140719,2543.8849,N,08009.7277,W,1,9,1.6,16,M,,M,,*5A
06/03/2014	14:07:11.702	$GPGGA,140720,2543.8847,N,08009.7277,W,1,9,1.6,16,M,,M,,*5E
06/03/2014	14:07:12.676	$GPGGA,140721,2543.8848,N,08009.7279,W,1,9,1.6,16,M,,M,,*5E
06/03/2014	14:07:13.589	$GPGGA,140722,2543.8847,N,08009.7278,W,1,9,1.6,16,M,,M,,*53
06/03/2014	14:07:14.684	$GPGGA,140723,2543.8848,N,08009.7279,W,1,9,1.6,16,M,,M,,*5C
06/03/2014	14:07:15.696	$GPGGA,140724,2543.8847,N,08009.7278,W,1,9,1.6,16,M,,M,,*55
06/03/2014	14:07:16.690	$GPGGA,140725,2543.8848,N,08009.7279,W,1,9,1.6,17,M,,M,,*5B
06/03/2014	14:07:17.694	$GPGGA,140726,2543.8846,N,08009.7278,W,1,9,1.6,17,M,,M,,*57
06/03/2014	14:07:18.677	$GPGGA,140727,2543.8846,N,08009.7280,W,1,9,1.6,17,M,,M,,*51
06/03/2014	14:07:19.701	$GPGGA,140728,2543.8846,N,08009.7279,W,1,9,1.6,17,M,,M,,*58
06/03/2014	14:07:20.714	$GPGGA,140729,2543.8846,N,08009.7280,W,1,9,1.6,17,M,,M,,*5F
06/03/2014	14:07:21.698	$GPGGA,140730,2543.8846,N,08009.7279,W,1,9,1.6,17,M,,M,,*51
06/03/2014	14:07:22.498	$GPGGA,140731,2543.8846,N,08009.7280,W,1,9,1.6,17,M,,M,,*56
06/03/2014	14:07:23.491	$GPGGA,140732,2543.8846,N,08009.7280,W,1,9,1.6,17,M,,M,,*55
06/03/2014	14:07:24.475	$GPGGA,140733,2543.8846,N,08009.7280,W,1,9,1.6,17,M,,M,,*54
06/03/2014	14:07:25.477	$GPGGA,140734,2543.8846,N,08009.7280,W,1,9,1.6,17,M,,M,,*53
06/03/2014	14:07:26.504	$GPGGA,140735,2543.8846,N,08009.7281,W,1,9,1.6,17,M,,M,,*53
06/03/2014	14:07:27.508	$GPGGA,140736,2543.8846,N,08009.7281,W,1,9,1.6,17,M,,M,,*50
06/03/2014	14:07:28.508	$GPGGA,140737,2543.8844,N,08009.7281,W,1,9,1.6,17,M,,M,,*53
06/03/2014	14:07:29.482	$GPGGA,140738,2543.8845,N,08009.7283,W,1,9,1.6,17,M,,M,,*5F
06/03/2014	14:07:30.495	$GPGGA,140739,2543.8844,N,08009.7282,W,1,9,1.6,17,M,,M,,*5E
06/03/2014	14:07:31.524	$GPGGA,140740,2543.8845,N,08009.7283,W,1,9,1.6,17,M,,M,,*50
06/03/2014	14:07:32.523	$GPGGA,140741,2543.8844,N,08009.7283,W,1,9,1.6,17,M,,M,,*50
06/03/2014	14:07:33.496	$GPGGA,140742,2543.8845,N,08009.7283,W,1,9,1.6,17,M,,M,,*52
06/03/2014	14:07:34.500	$GPGGA,140743,2543.8844,N,08009.7283,W,1,9,1.6,17,M,,M,,*52
06/03/2014	14:07:35.523	$GPGGA,140744,2543.8845,N,08009.7283,W,1,9,1.6,17,M,,M,,*54
06/03/2014	14:07:36.527	$GPGGA,140745,2543.8844,N,08009.7281,W,1,9,1.6,17,M,,M,,*56
06/03/2014	14:07:37.500	$GPGGA,140746,2543.8845,N,08009.7281,W,1,9,1.9,17,M,,M,,*5B
06/03/2014	14:07:38.504	$GPGGA,140747,2543.8844,N,08009.7281,W,1,9,1.6,17,M,,M,,*54
06/03/2014	14:07:39.528	$GPGGA,140748,2543.8845,N,08009.7281,W,1,9,1.6,17,M,,M,,*5A
06/03/2014	14:07:40.501	$GPGGA,140749,2543.8844,N,08009.7281,W,1,9,1.6,17,M,,M,,*5A
06/03/2014	14:07:41.515	$GPGGA,140750,2543.8843,N,08009.7281,W,1,9,1.6,17,M,,M,,*55
06/03/2014	14:07:42.517	$GPGGA,140751,2543.8844,N,08009.7281,W,1,9,1.6,17,M,,M,,*53
06/03/2014	14:07:43.511	$GPGGA,140752,2543.8845,N,08009.7281,W,1,9,1.6,17,M,,M,,*51
06/03/2014	14:07:44.515	$GPGGA,140753,2543.8844,N,08009.7283,W,1,9,1.6,17,M,,M,,*53
06/03/2014	14:07:45.508	$GPGGA,140754,2543.8843,N,08009.7282,W,1,9,1.6,17,M,,M,,*52
06/03/2014	14:07:46.522	$GPGGA,140755,2543.8844,N,08009.7283,W,1,9,1.6,17,M,,M,,*55
06/03/2014	14:07:47.535	$GPGGA,140756,2543.8843,N,08009.7283,W,1,9,1.6,17,M,,M,,*51
06/03/2014	14:07:48.519	$GPGGA,140757,2543.8844,N,08009.7283,W,1,9,1.6,17,M,,M,,*57
06/03/2014	14:07:49.523	$GPGGA,140758,2543.8845,N,08009.7283,W,1,9,1.6,17,M,,M,,*59
06/03/2014	14:07:50.526	$GPGGA,140759,2543.8843,N,08009.7284,W,1,9,1.6,17,M,,M,,*59
06/03/2014	14:07:51.680	$GPGGA,140800,2543.8844,N,08009.7284,W,1,9,1.7,17,M,,M,,*5C
06/03/2014	14:07:52.543	$GPGGA,140801,2543.8842,N,08009.7284,W,1,8,1.7,18,M,,M,,*55
06/03/2014	14:07:53.537	$GPGGA,140802,2543.8842,N,08009.7285,W,1,8,1.7,18,M,,M,,*57
06/03/2014	14:07:54.621	$GPGGA,140803,2543.8842,N,08009.7285,W,1,8,1.7,18,M,,M,,*56
06/03/2014	14:07:55.544	$GPGGA,140804,2543.8842,N,08009.7285,W,1,8,1.7,18,M,,M,,*51
06/03/2014	14:07:56.728	$GPGGA,140805,2543.8842,N,08009.7285,W,1,8,1.7,18,M,,M,,*50
06/03/2014	14:07:57.541	$GPGGA,140806,2543.8842,N,08009.7285,W,1,8,1.7,18,M,,M,,*53
06/03/2014	14:07:58.719	$GPGGA,140807,2543.8842,N,08009.7287,W,1,8,1.7,18,M,,M,,*50
06/03/2014	14:07:59.559	$GPGGA,140808,2543.8842,N,08009.7286,W,1,8,1.7,18,M,,M,,*5E
06/03/2014	14:08:00.742	$GPGGA,140809,2543.8842,N,08009.7287,W,1,8,1.7,18,M,,M,,*5E
06/03/2014	14:08:01.636	$GPGGA,140810,2543.8842,N,08009.7286,W,1,8,1.7,18,M,,M,,*57
06/03/2014	14:08:02.719	$GPGGA,140811,2543.8842,N,08009.7285,W,1,8,1.7,18,M,,M,,*55
06/03/2014	14:08:03.702	$GPGGA,140812,2543.8840,N,08009.7287,W,1,8,1.7,18,M,,M,,*56
06/03/2014	14:08:04.763	$GPGGA,140813,2543.8841,N,08009.7286,W,1,8,1.7,18,M,,M,,*57
06/03/2014	14:08:05.708	$GPGGA,140814,2543.8840,N,08009.7287,W,1,8,1.7,18,M,,M,,*50
06/03/2014	14:08:06.797	$GPGGA,140815,2543.8841,N,08009.7286,W,1,8,1.7,18,M,,M,,*51
06/03/2014	14:08:07.794	$GPGGA,140816,2543.8840,N,08009.7287,W,1,8,1.7,18,M,,M,,*52
06/03/2014	14:08:08.873	$GPGGA,140817,2543.8841,N,08009.7286,W,1,8,1.7,18,M,,M,,*53
06/03/2014	14:08:09.777	$GPGGA,140818,2543.8840,N,08009.7285,W,1,8,1.7,18,M,,M,,*5E
06/03/2014	14:08:10.927	$GPGGA,140819,2543.8841,N,08009.7285,W,1,8,1.7,18,M,,M,,*5E
06/03/2014	14:08:11.883	$GPGGA,140820,2543.8836,N,08009.7285,W,1,8,1.6,18,M,,M,,*55
06/03/2014	14:08:12.972	$GPGGA,140821,2543.8837,N,08009.7287,W,1,9,1.6,18,M,,M,,*56
06/03/2014	14:08:13.910	$GPGGA,140822,2543.8835,N,08009.7287,W,1,9,1.6,18,M,,M,,*57
06/03/2014	14:08:15.016	$GPGGA,140823,2543.8835,N,08009.7287,W,1,9,1.6,18,M,,M,,*56
06/03/2014	14:08:15.972	$GPGGA,140824,2543.8837,N,08009.7286,W,1,9,1.6,18,M,,M,,*52
06/03/2014	14:08:17.030	$GPGGA,140825,2543.8836,N,08009.7287,W,1,9,1.6,18,M,,M,,*53
06/03/2014	14:08:17.974	$GPGGA,140826,2543.8837,N,08009.7286,W,1,9,1.7,18,M,,M,,*51
06/03/2014	14:08:19.125	$GPGGA,140827,2543.8839,N,08009.7285,W,1,8,1.6,18,M,,M,,*5D
06/03/2014	14:08:20.079	$GPGGA,140828,2543.8839,N,08009.7285,W,1,8,1.6,18,M,,M,,*52
06/03/2014	14:08:21.193	$GPGGA,140829,2543.8839,N,08009.7285,W,1,9,1.6,18,M,,M,,*52
06/03/2014	14:08:22.104	$GPGGA,140830,2543.8839,N,08009.7283,W,1,9,1.9,18,M,,M,,*53
06/03/2014	14:08:22.571	$GPGGA,140831,2543.8839,N,08009.7282,W,1,8,1.9,18,M,,M,,*52
06/03/2014	14:08:23.531	$GPGGA,140832,2543.8839,N,08009.7281,W,1,8,1.9,18,M,,M,,*52
06/03/2014	14:08:24.636	$GPGGA,140833,2543.8837,N,08009.7279,W,1,8,1.9,18,M,,M,,*5A
06/03/2014	14:08:25.571	$GPGGA,140834,2543.8838,N,08009.7278,W,1,8,1.9,18,M,,M,,*53
06/03/2014	14:08:26.681	$GPGGA,140835,2543.8837,N,08009.7277,W,1,8,1.9,18,M,,M,,*52
06/03/2014	14:08:27.595	$GPGGA,140836,2543.8838,N,08009.7276,W,1,8,1.9,18,M,,M,,*5F
06/03/2014	14:08:28.725	$GPGGA,140837,2543.8837,N,08009.7276,W,1,8,1.9,18,M,,M,,*51
06/03/2014	14:08:29.650	$GPGGA,140838,2543.8836,N,08009.7281,W,1,8,1.9,18,M,,M,,*57
06/03/2014	14:08:30.667	$GPGGA,140839,2543.8837,N,08009.7279,W,1,9,1.6,18,M,,M,,*5E
06/03/2014	14:08:31.736	$GPGGA,140840,2543.8836,N,08009.7278,W,1,9,1.9,18,M,,M,,*5F
06/03/2014	14:08:32.825	$GPGGA,140841,2543.8837,N,08009.7277,W,1,8,1.9,18,M,,M,,*51
06/03/2014	14:08:33.770	$GPGGA,140842,2543.8836,N,08009.7276,W,1,8,1.9,18,M,,M,,*52
06/03/2014	14:08:34.890	$GPGGA,140843,2543.8838,N,08009.7275,W,1,8,1.9,18,M,,M,,*5E
06/03/2014	14:08:35.859	$GPGGA,140844,2543.8837,N,08009.7274,W,1,8,1.9,18,M,,M,,*57
06/03/2014	14:08:38.330	$GPGGA,140846,2543.8839,N,08009.7273,W,1,8,1.9,17,M,,M,,*53
06/03/2014	14:08:38.967	$GPGGA,140847,2543.8839,N,08009.7272,W,1,8,1.9,17,M,,M,,*53
06/03/2014	14:08:39.954	$GPGGA,140848,2543.8839,N,08009.7272,W,1,8,1.9,17,M,,M,,*5C
06/03/2014	14:08:41.053	$GPGGA,140849,2543.8839,N,08009.7271,W,1,8,1.9,17,M,,M,,*5E
06/03/2014	14:08:41.978	$GPGGA,140850,2543.8841,N,08009.7272,W,1,8,1.9,17,M,,M,,*5A
06/03/2014	14:08:43.064	$GPGGA,140851,2543.8842,N,08009.7270,W,1,8,1.9,17,M,,M,,*5A
06/03/2014	14:08:44.043	$GPGGA,140852,2543.8842,N,08009.7270,W,1,8,1.9,17,M,,M,,*59
06/03/2014	14:08:45.142	$GPGGA,140853,2543.8842,N,08009.7270,W,1,8,1.9,17,M,,M,,*58
06/03/2014	14:08:46.053	$GPGGA,140854,2543.8842,N,08009.7269,W,1,8,1.9,17,M,,M,,*57
06/03/2014	14:08:47.176	$GPGGA,140855,2543.8842,N,08009.7269,W,1,7,1.9,16,M,,M,,*58
06/03/2014	14:08:48.152	$GPGGA,140856,2543.8839,N,08009.7270,W,1,7,1.9,16,M,,M,,*5F
06/03/2014	14:08:49.272	$GPGGA,140857,2543.8839,N,08009.7269,W,1,8,1.9,16,M,,M,,*59
06/03/2014	14:08:52.365	$GPGGA,140900,2543.8839,N,08009.7269,W,1,7,1.9,16,M,,M,,*55
06/03/2014	14:08:53.319	$GPGGA,140901,2543.8839,N,08009.7268,W,1,7,1.9,16,M,,M,,*55
06/03/2014	14:08:54.348	$GPGGA,140902,2543.8839,N,08009.7269,W,1,7,1.9,16,M,,M,,*57
06/03/2014	14:08:55.425	$GPGGA,140903,2543.8839,N,08009.7269,W,1,7,1.9,16,M,,M,,*56
06/03/2014	14:08:56.422	$GPGGA,140904,2543.8839,N,08009.7269,W,1,7,1.9,15,M,,M,,*52
06/03/2014	14:08:57.429	$GPGGA,140905,2543.8839,N,08009.7269,W,1,7,1.9,15,M,,M,,*53
06/03/2014	14:08:58.446	$GPGGA,140906,2543.8841,N,08009.7272,W,1,7,1.9,15,M,,M,,*55
06/03/2014	14:08:59.504	$GPGGA,140907,2543.8839,N,08009.7276,W,1,8,1.7,15,M,,M,,*5E
06/03/2014	14:09:00.511	$GPGGA,140908,2543.8839,N,08009.7277,W,1,8,1.7,15,M,,M,,*50
06/03/2014	14:09:01.610	$GPGGA,140909,2543.8841,N,08009.7280,W,1,8,1.7,15,M,,M,,*56
06/03/2014	14:09:02.545	$GPGGA,140910,2543.8840,N,08009.7280,W,1,8,1.7,15,M,,M,,*5F
06/03/2014	14:09:03.593	$GPGGA,140911,2543.8841,N,08009.7281,W,1,8,1.7,16,M,,M,,*5D
06/03/2014	14:09:04.621	$GPGGA,140912,2543.8840,N,08009.7283,W,1,8,1.7,16,M,,M,,*5D
06/03/2014	14:09:05.669	$GPGGA,140913,2543.8841,N,08009.7283,W,1,8,1.7,16,M,,M,,*5D
06/03/2014	14:09:06.665	$GPGGA,140914,2543.8842,N,08009.7283,W,1,8,1.7,16,M,,M,,*59
06/03/2014	14:09:07.713	$GPGGA,140915,2543.8842,N,08009.7284,W,1,8,1.7,16,M,,M,,*5F
06/03/2014	14:09:08.720	$GPGGA,140916,2543.8842,N,08009.7285,W,1,8,1.7,16,M,,M,,*5D
06/03/2014	14:09:09.778	$GPGGA,140917,2543.8842,N,08009.7285,W,1,8,1.7,16,M,,M,,*5C
06/03/2014	14:09:10.754	$GPGGA,140918,2543.8842,N,08009.7285,W,1,8,1.7,16,M,,M,,*53
06/03/2014	14:09:11.883	$GPGGA,140919,2543.8842,N,08009.7287,W,1,8,1.7,16,M,,M,,*50
06/03/2014	14:09:12.808	$GPGGA,140920,2543.8842,N,08009.7286,W,1,8,1.7,16,M,,M,,*5B
06/03/2014	14:09:13.887	$GPGGA,140921,2543.8844,N,08009.7287,W,1,8,1.7,17,M,,M,,*5C
06/03/2014	14:09:14.863	$GPGGA,140922,2543.8843,N,08009.7286,W,1,8,1.7,17,M,,M,,*59
06/03/2014	14:09:15.983	$GPGGA,140923,2543.8844,N,08009.7287,W,1,8,1.7,17,M,,M,,*5E
06/03/2014	14:09:16.948	$GPGGA,140924,2543.8845,N,08009.7286,W,1,8,1.7,17,M,,M,,*59
06/03/2014	14:09:18.027	$GPGGA,140925,2543.8845,N,08009.7286,W,1,8,1.7,17,M,,M,,*58
06/03/2014	14:09:18.962	$GPGGA,140926,2543.8845,N,08009.7286,W,1,8,1.7,17,M,,M,,*5B
06/03/2014	14:09:20.000	$GPGGA,140927,2543.8845,N,08009.7286,W,1,8,1.7,17,M,,M,,*5A
06/03/2014	14:09:21.027	$GPGGA,140928,2543.8846,N,08009.7286,W,1,8,1.7,17,M,,M,,*56
06/03/2014	14:09:22.178	$GPGGA,140929,2543.8846,N,08009.7287,W,1,8,1.7,17,M,,M,,*56
06/03/2014	14:09:23.072	$GPGGA,140930,2543.8846,N,08009.7286,W,1,8,1.7,17,M,,M,,*5F
06/03/2014	14:09:22.507	$GPGGA,140931,2543.8846,N,08009.7287,W,1,8,1.7,17,M,,M,,*5F
06/03/2014	14:09:23.483	$GPGGA,140932,2543.8846,N,08009.7286,W,1,8,1.7,17,M,,M,,*5D
06/03/2014	14:09:24.624	$GPGGA,140933,2543.8846,N,08009.7286,W,1,8,1.7,18,M,,M,,*53
06/03/2014	14:09:25.518	$GPGGA,140934,2543.8846,N,08009.7286,W,1,8,1.7,18,M,,M,,*54
06/03/2014	14:09:26.658	$GPGGA,140935,2543.8846,N,08009.7287,W,1,8,1.7,18,M,,M,,*54
06/03/2014	14:09:27.582	$GPGGA,140936,2543.8846,N,08009.7286,W,1,8,1.7,18,M,,M,,*56
06/03/2014	14:09:28.702	$GPGGA,140937,2543.8846,N,08009.7287,W,1,8,1.7,18,M,,M,,*56
06/03/2014	14:09:29.606	$GPGGA,140938,2543.8846,N,08009.7286,W,1,8,1.7,18,M,,M,,*58
06/03/2014	14:09:30.808	$GPGGA,140939,2543.8848,N,08009.7285,W,1,8,1.7,18,M,,M,,*54
06/03/2014	14:09:31.691	$GPGGA,140940,2543.8847,N,08009.7285,W,1,8,1.6,18,M,,M,,*54
06/03/2014	14:09:32.801	$GPGGA,140941,2543.8846,N,08009.7285,W,1,9,1.6,18,M,,M,,*55
06/03/2014	14:09:33.828	$GPGGA,140942,2543.8846,N,08009.7285,W,1,9,1.6,18,M,,M,,*56
06/03/2014	14:09:34.887	$GPGGA,140943,2543.8846,N,08009.7285,W,1,9,1.6,18,M,,M,,*57
06/03/2014	14:09:35.914	$GPGGA,140944,2543.8844,N,08009.7285,W,1,9,1.6,18,M,,M,,*52
06/03/2014	14:09:36.931	$GPGGA,140945,2543.8845,N,08009.7285,W,1,9,1.6,18,M,,M,,*52
06/03/2014	14:09:37.917	$GPGGA,140946,2543.8844,N,08009.7285,W,1,9,1.6,18,M,,M,,*50
06/03/2014	14:09:38.945	$GPGGA,140947,2543.8845,N,08009.7285,W,1,9,1.6,18,M,,M,,*50
06/03/2014	14:09:39.973	$GPGGA,140948,2543.8844,N,08009.7285,W,1,9,1.6,18,M,,M,,*5E
06/03/2014	14:09:41.051	$GPGGA,140949,2543.8844,N,08009.7285,W,1,9,1.6,18,M,,M,,*5F
06/03/2014	14:09:42.034	$GPGGA,140950,2543.8844,N,08009.7286,W,1,9,1.6,18,M,,M,,*54
06/03/2014	14:09:43.068	$GPGGA,140951,2543.8843,N,08009.7285,W,1,9,1.6,18,M,,M,,*51
06/03/2014	14:09:44.095	$GPGGA,140952,2543.8844,N,08009.7285,W,1,9,1.6,18,M,,M,,*55
06/03/2014	14:09:45.096	$GPGGA,140953,2543.8845,N,08009.7285,W,1,9,1.6,18,M,,M,,*55
06/03/2014	14:09:46.125	$GPGGA,140954,2543.8844,N,08009.7285,W,1,9,1.6,18,M,,M,,*53
06/03/2014	14:09:47.195	$GPGGA,140955,2543.8846,N,08009.7284,W,1,9,1.6,18,M,,M,,*51
06/03/2014	14:09:48.197	$GPGGA,140956,2543.8846,N,08009.7284,W,1,9,1.6,18,M,,M,,*52
06/03/2014	14:09:49.225	$GPGGA,140957,2543.8846,N,08009.7284,W,1,9,1.6,18,M,,M,,*53
06/03/2014	14:09:50.225	$GPGGA,140958,2543.8846,N,08009.7284,W,1,9,1.6,18,M,,M,,*5C
06/03/2014	14:09:51.273	$GPGGA,140959,2543.8848,N,08009.7284,W,1,9,1.6,18,M,,M,,*53
06/03/2014	14:09:52.293	$GPGGA,141000,2543.8847,N,08009.7284,W,1,9,1.6,18,M,,M,,*58
06/03/2014	14:09:53.297	$GPGGA,141001,2543.8848,N,08009.7283,W,1,9,1.6,18,M,,M,,*51
06/03/2014	14:09:54.334	$GPGGA,141002,2543.8847,N,08009.7283,W,1,9,1.6,18,M,,M,,*5D
06/03/2014	14:09:55.341	$GPGGA,141003,2543.8849,N,08009.7283,W,1,9,1.6,18,M,,M,,*52
06/03/2014	14:09:57.714	$GPGGA,141005,2543.8849,N,08009.7283,W,1,9,1.6,18,M,,M,,*54
06/03/2014	14:09:58.423	$GPGGA,141006,2543.8849,N,08009.7282,W,1,9,1.6,18,M,,M,,*56
06/03/2014	14:09:59.461	$GPGGA,141007,2543.8849,N,08009.7283,W,1,9,1.6,18,M,,M,,*56
06/03/2014	14:10:00.612	$GPGGA,141008,2543.8849,N,08009.7282,W,1,9,1.6,18,M,,M,,*58
06/03/2014	14:10:01.549	$GPGGA,141009,2543.8849,N,08009.7283,W,1,9,1.6,18,M,,M,,*58
06/03/2014	14:10:02.533	$GPGGA,141010,2543.8849,N,08009.7282,W,1,9,1.6,18,M,,M,,*51
06/03/2014	14:10:03.559	$GPGGA,141011,2543.8848,N,08009.7281,W,1,9,1.6,18,M,,M,,*52
06/03/2014	14:10:04.587	$GPGGA,141012,2543.8849,N,08009.7283,W,1,9,1.6,18,M,,M,,*52
06/03/2014	14:10:05.727	$GPGGA,141013,2543.8848,N,08009.7282,W,1,9,1.6,18,M,,M,,*53
06/03/2014	14:10:06.631	$GPGGA,141014,2543.8849,N,08009.7283,W,1,9,1.6,18,M,,M,,*54
06/03/2014	14:10:07.669	$GPGGA,141015,2543.8848,N,08009.7282,W,1,9,1.6,18,M,,M,,*55
06/03/2014	14:10:08.696	$GPGGA,141016,2543.8849,N,08009.7283,W,1,9,1.6,18,M,,M,,*56
06/03/2014	14:10:09.713	$GPGGA,141017,2543.8847,N,08009.7283,W,1,9,1.6,18,M,,M,,*59
06/03/2014	14:10:10.720	$GPGGA,141018,2543.8846,N,08009.7284,W,1,9,1.7,18,M,,M,,*51
06/03/2014	14:10:11.758	$GPGGA,141019,2543.8844,N,08009.7285,W,1,9,1.6,18,M,,M,,*52
06/03/2014	14:10:12.796	$GPGGA,141020,2543.8843,N,08009.7285,W,1,9,1.6,18,M,,M,,*5F
06/03/2014	14:10:13.915	$GPGGA,141021,2543.8842,N,08009.7285,W,1,9,1.6,18,M,,M,,*5F
06/03/2014	14:10:14.933	$GPGGA,141022,2543.8842,N,08009.7287,W,1,9,1.6,17,M,,M,,*51
06/03/2014	14:10:15.960	$GPGGA,141023,2543.8840,N,08009.7287,W,1,9,1.6,17,M,,M,,*52
06/03/2014	14:10:16.895	$GPGGA,141024,2543.8841,N,08009.7287,W,1,9,1.6,17,M,,M,,*54
06/03/2014	14:10:18.025	$GPGGA,141025,2543.8842,N,08009.7287,W,1,9,1.6,17,M,,M,,*56
06/03/2014	14:10:19.032	$GPGGA,141026,2543.8840,N,08009.7287,W,1,9,1.6,17,M,,M,,*57
06/03/2014	14:10:20.058	$GPGGA,141027,2543.8842,N,08009.7287,W,1,9,1.6,17,M,,M,,*54
06/03/2014	14:10:22.452	$GPGGA,141029,2543.8842,N,08009.7287,W,1,9,1.6,17,M,,M,,*5A
06/03/2014	14:10:23.038	$GPGGA,141030,2543.8842,N,08009.7287,W,1,9,1.6,17,M,,M,,*52
06/03/2014	14:10:22.536	$GPGGA,141031,2543.8844,N,08009.7287,W,1,9,1.6,17,M,,M,,*55
06/03/2014	14:10:23.553	$GPGGA,141032,2543.8843,N,08009.7286,W,1,9,1.6,17,M,,M,,*50
06/03/2014	14:10:24.570	$GPGGA,141033,2543.8845,N,08009.7287,W,1,9,1.6,17,M,,M,,*56
06/03/2014	14:10:25.598	$GPGGA,141034,2543.8844,N,08009.7286,W,1,9,1.6,17,M,,M,,*51
06/03/2014	14:10:26.636	$GPGGA,141035,2543.8846,N,08009.7287,W,1,9,1.6,17,M,,M,,*53
06/03/2014	14:10:27.653	$GPGGA,141036,2543.8846,N,08009.7286,W,1,9,1.6,17,M,,M,,*51
06/03/2014	14:10:28.680	$GPGGA,141037,2543.8846,N,08009.7287,W,1,9,1.6,17,M,,M,,*51
06/03/2014	14:10:29.697	$GPGGA,141038,2543.8848,N,08009.7286,W,1,9,1.6,17,M,,M,,*51
06/03/2014	14:10:30.745	$GPGGA,141039,2543.8849,N,08009.7285,W,1,9,1.6,17,M,,M,,*52
06/03/2014	14:10:31.755	$GPGGA,141040,2543.8849,N,08009.7285,W,1,9,1.6,17,M,,M,,*5C
06/03/2014	14:10:32.782	$GPGGA,141041,2543.8849,N,08009.7285,W,1,9,1.6,17,M,,M,,*5D
06/03/2014	14:10:33.786	$GPGGA,141042,2543.8850,N,08009.7284,W,1,9,1.6,17,M,,M,,*57
06/03/2014	14:10:34.835	$GPGGA,141043,2543.8852,N,08009.7284,W,1,9,1.6,17,M,,M,,*54
06/03/2014	14:10:35.862	$GPGGA,141044,2543.8851,N,08009.7284,W,1,9,1.6,17,M,,M,,*50
06/03/2014	14:10:36.858	$GPGGA,141045,2543.8853,N,08009.7283,W,1,9,1.6,17,M,,M,,*54
06/03/2014	14:10:37.895	$GPGGA,141046,2543.8853,N,08009.7283,W,1,9,1.6,16,M,,M,,*56
06/03/2014	14:10:38.936	$GPGGA,141047,2543.8853,N,08009.7283,W,1,9,1.6,16,M,,M,,*57
06/03/2014	14:10:39.965	$GPGGA,141048,2543.8855,N,08009.7283,W,1,9,1.6,16,M,,M,,*5E
06/03/2014	14:10:40.956	$GPGGA,141049,2543.8854,N,08009.7282,W,1,9,1.6,16,M,,M,,*5F
06/03/2014	14:10:42.004	$GPGGA,141050,2543.8855,N,08009.7283,W,1,9,1.6,16,M,,M,,*57
06/03/2014	14:10:43.011	$GPGGA,141051,2543.8854,N,08009.7282,W,1,9,1.6,16,M,,M,,*56
06/03/2014	14:10:44.059	$GPGGA,141052,2543.8855,N,08009.7283,W,1,9,1.6,16,M,,M,,*55
06/03/2014	14:10:45.100	$GPGGA,141053,2543.8854,N,08009.7282,W,1,9,1.6,16,M,,M,,*54
06/03/2014	14:10:46.104	$GPGGA,141054,2543.8855,N,08009.7283,W,1,9,1.6,16,M,,M,,*53
06/03/2014	14:10:47.162	$GPGGA,141055,2543.8854,N,08009.7282,W,1,9,1.6,16,M,,M,,*52
06/03/2014	14:10:48.148	$GPGGA,141056,2543.8856,N,08009.7281,W,1,9,1.6,16,M,,M,,*50
06/03/2014	14:10:49.176	$GPGGA,141057,2543.8855,N,08009.7281,W,1,9,1.6,16,M,,M,,*52
06/03/2014	14:10:50.193	$GPGGA,141058,2543.8856,N,08009.7280,W,1,9,1.6,16,M,,M,,*5F
06/03/2014	14:10:51.284	$GPGGA,141059,2543.8855,N,08009.7280,W,1,9,1.6,16,M,,M,,*5D
06/03/2014	14:10:52.278	$GPGGA,141100,2543.8854,N,08009.7280,W,1,9,1.6,16,M,,M,,*51
06/03/2014	14:10:53.275	$GPGGA,141101,2543.8856,N,08009.7280,W,1,9,1.6,16,M,,M,,*52
06/03/2014	14:10:54.313	$GPGGA,141102,2543.8855,N,08009.7280,W,1,9,1.6,16,M,,M,,*52
06/03/2014	14:10:55.422	$GPGGA,141103,2543.8854,N,08009.7279,W,1,9,1.6,16,M,,M,,*54
06/03/2014	14:10:56.356	$GPGGA,141104,2543.8855,N,08009.7280,W,1,9,1.6,16,M,,M,,*54
06/03/2014	14:10:57.384	$GPGGA,141105,2543.8854,N,08009.7280,W,1,9,1.6,16,M,,M,,*54
06/03/2014	14:10:58.401	$GPGGA,141106,2543.8855,N,08009.7280,W,1,9,1.6,16,M,,M,,*56
06/03/2014	14:10:59.521	$GPGGA,141107,2543.8854,N,08009.7280,W,1,9,1.6,16,M,,M,,*56
06/03/2014	14:11:00.466	$GPGGA,141108,2543.8856,N,08009.7280,W,1,9,1.6,16,M,,M,,*5B
06/03/2014	14:11:01.606	$GPGGA,141109,2543.8855,N,08009.7280,W,1,9,1.6,16,M,,M,,*59
06/03/2014	14:11:02.500	$GPGGA,141110,2543.8854,N,08009.7280,W,1,9,1.6,16,M,,M,,*50
06/03/2014	14:11:03.630	$GPGGA,141111,2543.8855,N,08009.7280,W,1,9,1.6,16,M,,M,,*50
06/03/2014	14:11:04.668	$GPGGA,141112,2543.8853,N,08009.7280,W,1,9,1.6,16,M,,M,,*55
06/03/2014	14:11:05.705	$GPGGA,141113,2543.8853,N,08009.7281,W,1,9,1.6,16,M,,M,,*55
06/03/2014	14:11:06.712	$GPGGA,141114,2543.8853,N,08009.7281,W,1,9,1.6,16,M,,M,,*52
06/03/2014	14:11:07.627	$GPGGA,141115,2543.8853,N,08009.7281,W,1,9,1.6,16,M,,M,,*53
06/03/2014	14:11:08.767	$GPGGA,141116,2543.8853,N,08009.7281,W,1,9,1.6,16,M,,M,,*50
06/03/2014	14:11:09.805	$GPGGA,141117,2543.8853,N,08009.7281,W,1,9,1.6,16,M,,M,,*51
06/03/2014	14:11:10.801	$GPGGA,141118,2543.8853,N,08009.7281,W,1,9,1.6,16,M,,M,,*5E
06/03/2014	14:11:11.839	$GPGGA,141119,2543.8853,N,08009.7281,W,1,9,1.6,16,M,,M,,*5F
06/03/2014	14:11:12.866	$GPGGA,141120,2543.8853,N,08009.7281,W,1,9,1.6,16,M,,M,,*55
06/03/2014	14:11:13.903	$GPGGA,141121,2543.8853,N,08009.7281,W,1,9,1.6,16,M,,M,,*54
06/03/2014	14:11:14.890	$GPGGA,141122,2543.8853,N,08009.7281,W,1,9,1.6,16,M,,M,,*57
06/03/2014	14:11:15.958	$GPGGA,141123,2543.8853,N,08009.7281,W,1,9,1.6,16,M,,M,,*56
06/03/2014	14:11:16.975	$GPGGA,141124,2543.8853,N,08009.7281,W,1,9,1.6,16,M,,M,,*51
06/03/2014	14:11:17.981	$GPGGA,141125,2543.8853,N,08009.7281,W,1,9,1.6,16,M,,M,,*50
06/03/2014	14:11:19.000	$GPGGA,141126,2543.8853,N,08009.7280,W,1,9,1.6,16,M,,M,,*52
06/03/2014	14:11:20.089	$GPGGA,141127,2543.8853,N,08009.7280,W,1,9,1.6,16,M,,M,,*53
06/03/2014	14:11:21.075	$GPGGA,141128,2543.8853,N,08009.7280,W,1,9,1.6,16,M,,M,,*5C
06/03/2014	14:11:22.115	$GPGGA,141129,2543.8853,N,08009.7281,W,1,9,1.6,16,M,,M,,*5C
06/03/2014	14:11:23.098	$GPGGA,141130,2543.8853,N,08009.7280,W,1,9,1.6,16,M,,M,,*55
06/03/2014	14:11:22.505	$GPGGA,141131,2543.8851,N,08009.7280,W,1,9,1.6,16,M,,M,,*56
06/03/2014	14:11:23.510	$GPGGA,141132,2543.8852,N,08009.7280,W,1,9,1.6,16,M,,M,,*56
06/03/2014	14:11:24.527	$GPGGA,141133,2543.8850,N,08009.7280,W,1,9,1.6,16,M,,M,,*55
06/03/2014	14:11:25.565	$GPGGA,141134,2543.8850,N,08009.7280,W,1,9,1.6,16,M,,M,,*52
06/03/2014	14:11:26.613	$GPGGA,141135,2543.8850,N,08009.7280,W,1,9,1.6,16,M,,M,,*53
06/03/2014	14:11:27.631	$GPGGA,141136,2543.8849,N,08009.7280,W,1,9,1.6,16,M,,M,,*58
06/03/2014	14:11:28.670	$GPGGA,141137,2543.8849,N,08009.7280,W,1,9,1.6,16,M,,M,,*59
06/03/2014	14:11:29.664	$GPGGA,141138,2543.8848,N,08009.7280,W,1,9,1.6,16,M,,M,,*57
06/03/2014	14:11:30.691	$GPGGA,141139,2543.8849,N,08009.7280,W,1,9,1.6,16,M,,M,,*57
06/03/2014	14:11:31.728	$GPGGA,141140,2543.8848,N,08009.7280,W,1,9,1.6,16,M,,M,,*58
06/03/2014	14:11:32.766	$GPGGA,141141,2543.8849,N,08009.7281,W,1,9,1.6,16,M,,M,,*59
06/03/2014	14:11:33.783	$GPGGA,141142,2543.8848,N,08009.7281,W,1,9,1.6,16,M,,M,,*5B
06/03/2014	14:11:34.800	$GPGGA,141143,2543.8847,N,08009.7281,W,1,9,1.6,16,M,,M,,*55
06/03/2014	14:11:35.817	$GPGGA,141144,2543.8848,N,08009.7281,W,1,9,1.6,16,M,,M,,*5D
06/03/2014	14:11:36.855	$GPGGA,141145,2543.8847,N,08009.7281,W,1,9,1.6,16,M,,M,,*53
06/03/2014	14:11:37.852	$GPGGA,141146,2543.8848,N,08009.7281,W,1,9,1.6,16,M,,M,,*5F
06/03/2014	14:11:38.879	$GPGGA,141147,2543.8847,N,08009.7283,W,1,9,1.6,16,M,,M,,*53
06/03/2014	14:11:39.927	$GPGGA,141148,2543.8846,N,08009.7281,W,1,9,1.6,16,M,,M,,*5F
06/03/2014	14:11:40.934	$GPGGA,141149,2543.8846,N,08009.7283,W,1,9,1.6,16,M,,M,,*5C
06/03/2014	14:11:42.064	$GPGGA,141150,2543.8846,N,08009.7282,W,1,9,1.6,16,M,,M,,*55
06/03/2014	14:11:43.082	$GPGGA,141151,2543.8846,N,08009.7283,W,1,9,1.6,16,M,,M,,*55
06/03/2014	14:11:44.037	$GPGGA,141152,2543.8846,N,08009.7282,W,1,9,1.6,16,M,,M,,*57
06/03/2014	14:11:45.054	$GPGGA,141153,2543.8846,N,08009.7283,W,1,9,1.6,16,M,,M,,*57
06/03/2014	14:11:46.071	$GPGGA,141154,2543.8846,N,08009.7282,W,1,9,1.6,16,M,,M,,*51
06/03/2014	14:11:47.086	$GPGGA,141155,2543.8844,N,08009.7283,W,1,9,1.6,16,M,,M,,*53
06/03/2014	14:11:48.125	$GPGGA,141156,2543.8845,N,08009.7282,W,1,9,1.6,17,M,,M,,*51
06/03/2014	14:11:49.234	$GPGGA,141157,2543.8844,N,08009.7283,W,1,9,1.6,17,M,,M,,*50
06/03/2014	14:11:50.262	$GPGGA,141158,2543.8843,N,08009.7282,W,1,9,1.6,17,M,,M,,*59
06/03/2014	14:11:51.289	$GPGGA,141159,2543.8844,N,08009.7283,W,1,9,1.6,17,M,,M,,*5E
06/03/2014	14:11:52.337	$GPGGA,141200,2543.8843,N,08009.7283,W,1,9,1.6,17,M,,M,,*56
06/03/2014	14:11:53.375	$GPGGA,141201,2543.8844,N,08009.7283,W,1,9,1.6,17,M,,M,,*50
06/03/2014	14:11:54.361	$GPGGA,141202,2543.8843,N,08009.7283,W,1,9,1.6,17,M,,M,,*54
06/03/2014	14:11:55.409	$GPGGA,141203,2543.8844,N,08009.7283,W,1,9,1.6,17,M,,M,,*52
06/03/2014	14:11:56.436	$GPGGA,141204,2543.8843,N,08009.7283,W,1,9,1.6,17,M,,M,,*52
