Software Version Number: 1	Data File Format Number: 1	Build Version Number: 1	Error Count Since VI Started: 0	Manufacturer: Raytheon	 Model Number: RayMarine 120	 S/N: 	 Cal Date: 	 Wind Direction Offset: 0.00	 Slope (M)1: 0.00	 Offset (B)1: 0.00	 Slope (M)2: 0.00	 Offset (B)2: 0.00	 Slope (M)3: 0.00	 Offset (B)3: 0.00	 Slope (M)4: 0.00	 Offset (B)4: 0.00	 Slope (M)5: 0.00	 Offset (B)5: 0.00	 Slope (M)6: 0.00	 Offset (B)6: 0.00
Computer Date	Computer Time	GGA String
06/08/2014	17:00:00.615	$GPGGA,170000,2450.3186,N,08026.1190,W,1,10,1.5,12,M,,M,,*6A
06/08/2014	17:00:01.663	$GPGGA,170001,2450.3200,N,08026.1196,W,1,10,1.5,12,M,,M,,*60
06/08/2014	17:00:02.734	$GPGGA,170002,2450.3214,N,08026.1200,W,1,10,1.5,12,M,,M,,*6A
06/08/2014	17:00:03.724	$GPGGA,170003,2450.3226,N,08026.1206,W,1,10,1.5,12,M,,M,,*6C
06/08/2014	17:00:04.795	$GPGGA,170004,2450.3241,N,08026.1210,W,1,10,1.5,12,M,,M,,*6D
06/08/2014	17:00:05.867	$GPGGA,170005,2450.3255,N,08026.1214,W,1,10,1.5,12,M,,M,,*6D
06/08/2014	17:00:06.980	$GPGGA,170006,2450.3268,N,08026.1219,W,1,10,1.5,12,M,,M,,*6D
06/08/2014	17:00:07.925	$GPGGA,170007,2450.3281,N,08026.1223,W,1,10,1.5,12,M,,M,,*62
06/08/2014	17:00:08.986	$GPGGA,170008,2450.3295,N,08026.1228,W,1,10,1.5,12,M,,M,,*63
06/08/2014	17:00:10.050	$GPGGA,170009,2450.3309,N,08026.1233,W,1,10,1.5,12,M,,M,,*6C
06/08/2014	17:00:11.054	$GPGGA,170010,2450.3323,N,08026.1239,W,1,10,1.5,11,M,,M,,*65
06/08/2014	17:00:12.243	$GPGGA,170011,2450.3337,N,08026.1243,W,1,10,1.5,11,M,,M,,*6C
06/08/2014	17:00:13.167	$GPGGA,170012,2450.3351,N,08026.1247,W,1,10,1.5,11,M,,M,,*6B
06/08/2014	17:00:14.237	$GPGGA,170013,2450.3363,N,08026.1253,W,1,10,1.5,11,M,,M,,*6E
06/08/2014	17:00:15.361	$GPGGA,170014,2450.3378,N,08026.1257,W,1,10,1.5,11,M,,M,,*67
06/08/2014	17:00:16.443	$GPGGA,170015,2450.3392,N,08026.1262,W,1,10,1.5,11,M,,M,,*64
06/08/2014	17:00:17.378	$GPGGA,170016,2450.3405,N,08026.1268,W,1,10,1.5,11,M,,M,,*64
06/08/2014	17:00:18.418	$GPGGA,170017,2450.3418,N,08026.1272,W,1,10,1.5,11,M,,M,,*62
06/08/2014	17:00:19.552	$GPGGA,170018,2450.3432,N,08026.1276,W,1,10,1.5,11,M,,M,,*61
06/08/2014	17:00:20.624	$GPGGA,170019,2450.3446,N,08026.1282,W,1,10,1.5,11,M,,M,,*68
06/08/2014	17:00:21.559	$GPGGA,170020,2450.3458,N,08026.1286,W,1,10,1.5,11,M,,M,,*69
06/08/2014	17:00:22.703	$GPGGA,170021,2450.3472,N,08026.1290,W,1,10,1.5,11,M,,M,,*67
06/08/2014	17:00:23.743	$GPGGA,170022,2450.3486,N,08026.1295,W,1,10,1.5,11,M,,M,,*6A
06/08/2014	17:00:24.826	$GPGGA,170023,2450.3500,N,08026.1301,W,1,10,1.5,11,M,,M,,*68
06/08/2014	17:00:25.855	$GPGGA,170024,2450.3514,N,08026.1304,W,1,10,1.5,11,M,,M,,*6F
06/08/2014	17:00:26.933	$GPGGA,170025,2450.3528,N,08026.1309,W,1,10,1.5,11,M,,M,,*6C
06/08/2014	17:00:27.946	$GPGGA,170026,2450.3540,N,08026.1315,W,1,10,1.5,11,M,,M,,*6C
06/08/2014	17:00:29.005	$GPGGA,170027,2450.3555,N,08026.1319,W,1,10,1.5,11,M,,M,,*65
06/08/2014	17:00:30.055	$GPGGA,170028,2450.3569,N,08026.1323,W,1,10,1.5,11,M,,M,,*6C
06/08/2014	17:00:31.106	$GPGGA,170029,2450.3582,N,08026.1329,W,1,10,1.5,11,M,,M,,*62
06/08/2014	17:00:32.135	$GPGGA,170030,2450.3595,N,08026.1333,W,1,10,1.5,11,M,,M,,*67
06/08/2014	17:00:33.206	$GPGGA,170031,2450.3609,N,08026.1338,W,1,10,1.5,11,M,,M,,*6B
06/08/2014	17:00:34.246	$GPGGA,170032,2450.3623,N,08026.1342,W,1,10,1.5,11,M,,M,,*6D
06/08/2014	17:00:35.297	$GPGGA,170033,2450.3637,N,08026.1348,W,1,10,1.5,11,M,,M,,*63
06/08/2014	17:00:36.326	$GPGGA,170034,2450.3649,N,08026.1353,W,1,10,1.8,11,M,,M,,*6A
06/08/2014	17:00:37.397	$GPGGA,170035,2450.3663,N,08026.1358,W,1,10,1.5,11,M,,M,,*65
06/08/2014	17:00:38.427	$GPGGA,170036,2450.3678,N,08026.1362,W,1,10,1.5,11,M,,M,,*65
06/08/2014	17:00:39.488	$GPGGA,170037,2450.3691,N,08026.1367,W,1,10,1.5,11,M,,M,,*66
06/08/2014	17:00:40.517	$GPGGA,170038,2450.3705,N,08026.1373,W,1,10,1.5,11,M,,M,,*60
06/08/2014	17:00:38.567	$GPGGA,170039,2450.3717,N,08026.1377,W,1,10,1.5,11,M,,M,,*66
06/08/2014	17:00:39.606	$GPGGA,170040,2450.3732,N,08026.1381,W,1,10,1.5,11,M,,M,,*66
06/08/2014	17:00:40.667	$GPGGA,170041,2450.3745,N,08026.1387,W,1,10,1.5,11,M,,M,,*61
06/08/2014	17:00:41.697	$GPGGA,170042,2450.3757,N,08026.1391,W,1,10,1.5,11,M,,M,,*66
06/08/2014	17:00:42.726	$GPGGA,170043,2450.3772,N,08026.1395,W,1,10,1.5,11,M,,M,,*64
06/08/2014	17:00:43.807	$GPGGA,170044,2450.3785,N,08026.1399,W,1,10,1.5,11,M,,M,,*67
06/08/2014	17:00:44.857	$GPGGA,170045,2450.3797,N,08026.1405,W,1,10,1.5,11,M,,M,,*67
06/08/2014	17:00:45.876	$GPGGA,170046,2450.3811,N,08026.1409,W,1,10,1.5,11,M,,M,,*69
06/08/2014	17:00:46.958	$GPGGA,170047,2450.3825,N,08026.1413,W,1,10,1.5,11,M,,M,,*64
06/08/2014	17:00:47.998	$GPGGA,170048,2450.3839,N,08026.1418,W,1,10,1.5,11,M,,M,,*6D
06/08/2014	17:00:49.070	$GPGGA,170049,2450.3851,N,08026.1423,W,1,10,1.5,11,M,,M,,*6A
06/08/2014	17:00:50.083	$GPGGA,170050,2450.3865,N,08026.1427,W,1,10,1.5,11,M,,M,,*61
06/08/2014	17:00:51.170	$GPGGA,170051,2450.3879,N,08026.1432,W,1,10,1.5,11,M,,M,,*69
06/08/2014	17:00:52.170	$GPGGA,170052,2450.3893,N,08026.1436,W,1,10,1.5,11,M,,M,,*6A
06/08/2014	17:00:53.229	$GPGGA,170053,2450.3905,N,08026.1441,W,1,10,1.5,11,M,,M,,*65
06/08/2014	17:00:54.272	$GPGGA,170054,2450.3919,N,08026.1446,W,1,10,1.5,11,M,,M,,*68
06/08/2014	17:00:55.330	$GPGGA,170055,2450.3933,N,08026.1450,W,1,10,1.5,11,M,,M,,*66
06/08/2014	17:00:56.382	$GPGGA,170056,2450.3947,N,08026.1456,W,1,10,1.5,11,M,,M,,*60
06/08/2014	17:00:57.411	$GPGGA,170057,2450.3960,N,08026.1460,W,1,10,1.5,11,M,,M,,*61
06/08/2014	17:00:58.557	$GPGGA,170058,2450.3974,N,08026.1465,W,1,10,1.5,12,M,,M,,*6D
06/08/2014	17:00:59.532	$GPGGA,170059,2450.3987,N,08026.1470,W,1,10,1.5,12,M,,M,,*64
06/08/2014	17:01:00.582	$GPGGA,170100,2450.4001,N,08026.1475,W,1,10,1.5,12,M,,M,,*6C
06/08/2014	17:01:01.736	$GPGGA,170101,2450.4014,N,08026.1481,W,1,10,1.5,12,M,,M,,*62
06/08/2014	17:01:02.650	$GPGGA,170102,2450.4028,N,08026.1485,W,1,10,1.5,12,M,,M,,*6A
06/08/2014	17:01:03.701	$GPGGA,170103,2450.4041,N,08026.1490,W,1,10,1.5,12,M,,M,,*60
06/08/2014	17:01:04.877	$GPGGA,170104,2450.4054,N,08026.1496,W,1,10,1.5,12,M,,M,,*65
06/08/2014	17:01:05.896	$GPGGA,170105,2450.4068,N,08026.1499,W,1,10,1.5,12,M,,M,,*64
06/08/2014	17:01:06.946	$GPGGA,170106,2450.4082,N,08026.1504,W,1,10,1.5,12,M,,M,,*66
06/08/2014	17:01:07.983	$GPGGA,170107,2450.4096,N,08026.1510,W,1,10,1.5,12,M,,M,,*67
06/08/2014	17:01:09.013	$GPGGA,170108,2450.4108,N,08026.1514,W,1,10,1.5,12,M,,M,,*6A
06/08/2014	17:01:10.023	$GPGGA,170109,2450.4124,N,08026.1519,W,1,10,1.5,12,M,,M,,*68
06/08/2014	17:01:10.951	$GPGGA,170110,2450.4137,N,08026.1525,W,1,10,1.8,11,M,,M,,*63
06/08/2014	17:01:12.098	$GPGGA,170111,2450.4151,N,08026.1530,W,1,9,1.8,11,M,,M,,*5E
06/08/2014	17:01:13.082	$GPGGA,170112,2450.4165,N,08026.1535,W,1,9,1.8,11,M,,M,,*5F
06/08/2014	17:01:14.091	$GPGGA,170113,2450.4179,N,08026.1539,W,1,10,1.5,11,M,,M,,*6A
06/08/2014	17:01:15.111	$GPGGA,170114,2450.4193,N,08026.1546,W,1,10,1.5,11,M,,M,,*61
06/08/2014	17:01:16.151	$GPGGA,170115,2450.4205,N,08026.1550,W,1,10,1.5,11,M,,M,,*6B
06/08/2014	17:01:17.151	$GPGGA,170116,2450.4220,N,08026.1554,W,1,10,1.5,11,M,,M,,*6B
06/08/2014	17:01:18.191	$GPGGA,170117,2450.4233,N,08026.1559,W,1,10,1.5,11,M,,M,,*65
06/08/2014	17:01:19.189	$GPGGA,170118,2450.4245,N,08026.1564,W,1,10,1.5,11,M,,M,,*65
06/08/2014	17:01:20.210	$GPGGA,170119,2450.4259,N,08026.1568,W,1,10,1.5,11,M,,M,,*65
06/08/2014	17:01:21.228	$GPGGA,170120,2450.4274,N,08026.1575,W,1,10,1.8,11,M,,M,,*61
06/08/2014	17:01:22.228	$GPGGA,170121,2450.4288,N,08026.1579,W,1,10,1.5,11,M,,M,,*62
06/08/2014	17:01:23.258	$GPGGA,170122,2450.4303,N,08026.1584,W,1,10,1.8,11,M,,M,,*6C
06/08/2014	17:01:24.287	$GPGGA,170123,2450.4317,N,08026.1590,W,1,9,1.8,11,M,,M,,*55
06/08/2014	17:01:25.297	$GPGGA,170124,2450.4328,N,08026.1593,W,1,9,1.8,11,M,,M,,*5D
06/08/2014	17:01:26.296	$GPGGA,170125,2450.4342,N,08026.1598,W,1,10,1.5,11,M,,M,,*6E
06/08/2014	17:01:27.327	$GPGGA,170126,2450.4357,N,08026.1604,W,1,10,1.8,10,M,,M,,*63
06/08/2014	17:01:28.346	$GPGGA,170127,2450.4371,N,08026.1608,W,1,9,1.8,10,M,,M,,*52
06/08/2014	17:01:29.366	$GPGGA,170128,2450.4385,N,08026.1612,W,1,9,1.5,10,M,,M,,*50
06/08/2014	17:01:30.375	$GPGGA,170129,2450.4397,N,08026.1618,W,1,10,1.5,10,M,,M,,*60
06/08/2014	17:01:31.395	$GPGGA,170130,2450.4411,N,08026.1622,W,1,10,1.5,10,M,,M,,*68
06/08/2014	17:01:32.404	$GPGGA,170131,2450.4425,N,08026.1627,W,1,10,1.5,10,M,,M,,*6B
06/08/2014	17:01:33.444	$GPGGA,170132,2450.4439,N,08026.1633,W,1,10,1.8,10,M,,M,,*6D
06/08/2014	17:01:34.474	$GPGGA,170133,2450.4453,N,08026.1637,W,1,10,1.5,10,M,,M,,*69
06/08/2014	17:01:35.453	$GPGGA,170134,2450.4465,N,08026.1641,W,1,10,1.5,10,M,,M,,*6A
06/08/2014	17:01:36.514	$GPGGA,170135,2450.4480,N,08026.1647,W,1,9,1.8,10,M,,M,,*53
06/08/2014	17:01:37.512	$GPGGA,170136,2450.4493,N,08026.1651,W,1,9,1.8,10,M,,M,,*55
06/08/2014	17:01:38.542	$GPGGA,170137,2450.4507,N,08026.1655,W,1,9,1.8,10,M,,M,,*5C
06/08/2014	17:01:39.535	$GPGGA,170138,2450.4520,N,08026.1660,W,1,9,1.8,10,M,,M,,*50
06/08/2014	17:01:38.513	$GPGGA,170139,2450.4534,N,08026.1666,W,1,9,1.8,9,M,,M,,*6A
06/08/2014	17:01:39.538	$GPGGA,170140,2450.4548,N,08026.1670,W,1,9,1.5,9,M,,M,,*65
06/08/2014	17:01:40.680	$GPGGA,170141,2450.4562,N,08026.1676,W,1,9,1.8,9,M,,M,,*67
06/08/2014	17:01:41.577	$GPGGA,170142,2450.4574,N,08026.1680,W,1,9,1.8,9,M,,M,,*6A
06/08/2014	17:01:42.568	$GPGGA,170143,2450.4588,N,08026.1684,W,1,10,1.5,9,M,,M,,*59
06/08/2014	17:01:43.616	$GPGGA,170144,2450.4602,N,08026.1689,W,1,10,1.5,9,M,,M,,*52
06/08/2014	17:01:44.626	$GPGGA,170145,2450.4616,N,08026.1694,W,1,9,1.8,9,M,,M,,*6F
06/08/2014	17:01:45.718	$GPGGA,170146,2450.4628,N,08026.1698,W,1,9,1.5,9,M,,M,,*60
06/08/2014	17:01:46.645	$GPGGA,170147,2450.4642,N,08026.1703,W,1,10,1.5,9,M,,M,,*56
06/08/2014	17:01:47.797	$GPGGA,170148,2450.4656,N,08026.1707,W,1,10,1.5,9,M,,M,,*58
06/08/2014	17:01:48.710	$GPGGA,170149,2450.4668,N,08026.1712,W,1,10,1.5,9,M,,M,,*50
06/08/2014	17:01:49.785	$GPGGA,170150,2450.4682,N,08026.1716,W,1,10,1.5,9,M,,M,,*58
06/08/2014	17:01:50.846	$GPGGA,170151,2450.4695,N,08026.1720,W,1,10,1.5,9,M,,M,,*5A
06/08/2014	17:01:51.845	$GPGGA,170152,2450.4708,N,08026.1724,W,1,10,1.5,9,M,,M,,*58
06/08/2014	17:01:52.886	$GPGGA,170153,2450.4722,N,08026.1727,W,1,10,1.5,9,M,,M,,*52
06/08/2014	17:01:53.873	$GPGGA,170154,2450.4735,N,08026.1731,W,1,10,1.5,9,M,,M,,*54
06/08/2014	17:01:54.893	$GPGGA,170155,2450.4747,N,08026.1736,W,1,10,1.5,9,M,,M,,*57
06/08/2014	17:01:55.913	$GPGGA,170156,2450.4761,N,08026.1741,W,1,10,1.5,9,M,,M,,*50
06/08/2014	17:01:56.922	$GPGGA,170157,2450.4775,N,08026.1745,W,1,10,1.5,9,M,,M,,*50
06/08/2014	17:01:57.942	$GPGGA,170158,2450.4789,N,08026.1749,W,1,10,1.5,9,M,,M,,*50
06/08/2014	17:01:58.982	$GPGGA,170159,2450.4801,N,08026.1753,W,1,10,1.5,9,M,,M,,*55
06/08/2014	17:01:59.992	$GPGGA,170200,2450.4816,N,08026.1759,W,1,10,1.5,9,M,,M,,*56
06/08/2014	17:02:01.011	$GPGGA,170201,2450.4829,N,08026.1763,W,1,10,1.5,9,M,,M,,*52
06/08/2014	17:02:02.000	$GPGGA,170202,2450.4843,N,08026.1767,W,1,10,1.5,9,M,,M,,*59
06/08/2014	17:02:03.041	$GPGGA,170203,2450.4855,N,08026.1772,W,1,10,1.5,9,M,,M,,*5B
06/08/2014	17:02:04.050	$GPGGA,170204,2450.4870,N,08026.1777,W,1,10,1.5,9,M,,M,,*5E
06/08/2014	17:02:05.080	$GPGGA,170205,2450.4884,N,08026.1781,W,1,10,1.5,9,M,,M,,*5D
06/08/2014	17:02:06.069	$GPGGA,170206,2450.4898,N,08026.1786,W,1,10,1.5,9,M,,M,,*54
06/08/2014	17:02:07.089	$GPGGA,170207,2450.4910,N,08026.1792,W,1,9,1.8,9,M,,M,,*64
06/08/2014	17:02:08.129	$GPGGA,170208,2450.4924,N,08026.1796,W,1,9,1.5,9,M,,M,,*65
06/08/2014	17:02:09.149	$GPGGA,170209,2450.4938,N,08026.1800,W,1,10,1.5,9,M,,M,,*51
06/08/2014	17:02:10.143	$GPGGA,170210,2450.4950,N,08026.1804,W,1,10,1.5,9,M,,M,,*53
06/08/2014	17:02:11.187	$GPGGA,170211,2450.4964,N,08026.1808,W,1,10,1.5,9,M,,M,,*59
06/08/2014	17:02:12.207	$GPGGA,170212,2450.4978,N,08026.1814,W,1,10,1.5,10,M,,M,,*62
06/08/2014	17:02:13.196	$GPGGA,170213,2450.4991,N,08026.1817,W,1,10,1.5,10,M,,M,,*67
06/08/2014	17:02:14.236	$GPGGA,170214,2450.5004,N,08026.1821,W,1,10,1.5,10,M,,M,,*61
06/08/2014	17:02:15.245	$GPGGA,170215,2450.5018,N,08026.1826,W,1,10,1.5,10,M,,M,,*6A
06/08/2014	17:02:16.265	$GPGGA,170216,2450.5031,N,08026.1831,W,1,10,1.5,10,M,,M,,*64
06/08/2014	17:02:17.305	$GPGGA,170217,2450.5044,N,08026.1835,W,1,10,1.5,10,M,,M,,*63
06/08/2014	17:02:18.284	$GPGGA,170218,2450.5058,N,08026.1839,W,1,10,1.5,10,M,,M,,*6D
06/08/2014	17:02:19.335	$GPGGA,170219,2450.5071,N,08026.1844,W,1,10,1.5,10,M,,M,,*6D
06/08/2014	17:02:20.334	$GPGGA,170220,2450.5085,N,08026.1850,W,1,10,1.5,10,M,,M,,*69
06/08/2014	17:02:21.364	$GPGGA,170221,2450.5098,N,08026.1853,W,1,10,1.5,10,M,,M,,*67
06/08/2014	17:02:22.353	$GPGGA,170222,2450.5112,N,08026.1860,W,1,10,1.5,10,M,,M,,*67
06/08/2014	17:02:23.413	$GPGGA,170223,2450.5126,N,08026.1865,W,1,9,1.8,10,M,,M,,*51
06/08/2014	17:02:24.402	$GPGGA,170224,2450.5140,N,08026.1871,W,1,9,1.8,10,M,,M,,*53
06/08/2014	17:02:25.443	$GPGGA,170225,2450.5154,N,08026.1875,W,1,9,1.8,11,M,,M,,*52
06/08/2014	17:02:26.431	$GPGGA,170226,2450.5168,N,08026.1882,W,1,9,1.8,11,M,,M,,*56
06/08/2014	17:02:27.461	$GPGGA,170227,2450.5181,N,08026.1886,W,1,9,1.8,11,M,,M,,*54
06/08/2014	17:02:28.480	$GPGGA,170228,2450.5195,N,08026.1891,W,1,9,1.8,10,M,,M,,*59
06/08/2014	17:02:29.470	$GPGGA,170229,2450.5210,N,08026.1897,W,1,9,1.8,10,M,,M,,*50
06/08/2014	17:02:30.591	$GPGGA,170230,2450.5223,N,08026.1902,W,1,9,1.8,10,M,,M,,*55
06/08/2014	17:02:31.535	$GPGGA,170231,2450.5237,N,08026.1908,W,1,9,1.8,10,M,,M,,*5B
06/08/2014	17:02:32.539	$GPGGA,170232,2450.5251,N,08026.1912,W,1,9,1.8,10,M,,M,,*53
06/08/2014	17:02:33.662	$GPGGA,170233,2450.5264,N,08026.1918,W,1,9,1.8,10,M,,M,,*5E
06/08/2014	17:02:34.579	$GPGGA,170234,2450.5278,N,08026.1922,W,1,9,1.8,10,M,,M,,*5D
06/08/2014	17:02:35.600	$GPGGA,170235,2450.5292,N,08026.1927,W,1,9,1.8,10,M,,M,,*5D
06/08/2014	17:02:38.014	$GPGGA,170236,2450.5304,N,08026.1933,W,1,9,1.8,10,M,,M,,*55
06/08/2014	17:02:38.042	$GPGGA,170237,2450.5320,N,08026.1937,W,1,9,1.8,10,M,,M,,*56
06/08/2014	17:02:38.738	$GPGGA,170238,2450.5332,N,08026.1943,W,1,9,1.8,10,M,,M,,*59
06/08/2014	17:02:38.476	$GPGGA,170239,2450.5347,N,08026.1947,W,1,9,1.8,10,M,,M,,*5E
06/08/2014	17:02:39.638	$GPGGA,170240,2450.5360,N,08026.1952,W,1,9,1.8,10,M,,M,,*51
06/08/2014	17:02:40.617	$GPGGA,170241,2450.5374,N,08026.1958,W,1,9,1.8,10,M,,M,,*5F
06/08/2014	17:02:41.627	$GPGGA,170242,2450.5387,N,08026.1963,W,1,9,1.8,10,M,,M,,*58
06/08/2014	17:02:42.647	$GPGGA,170243,2450.5401,N,08026.1969,W,1,9,1.8,10,M,,M,,*5A
06/08/2014	17:02:43.677	$GPGGA,170244,2450.5415,N,08026.1973,W,1,9,1.8,10,M,,M,,*53
06/08/2014	17:02:44.696	$GPGGA,170245,2450.5428,N,08026.1977,W,1,9,1.8,10,M,,M,,*58
06/08/2014	17:02:45.694	$GPGGA,170246,2450.5441,N,08026.1983,W,1,9,1.8,9,M,,M,,*67
06/08/2014	17:02:46.704	$GPGGA,170247,2450.5455,N,08026.1987,W,1,9,1.8,9,M,,M,,*67
06/08/2014	17:02:47.754	$GPGGA,170248,2450.5470,N,08026.1992,W,1,9,1.8,9,M,,M,,*6B
06/08/2014	17:02:48.774	$GPGGA,170249,2450.5483,N,08026.1998,W,1,9,1.8,9,M,,M,,*6C
06/08/2014	17:02:49.763	$GPGGA,170250,2450.5497,N,08026.2002,W,1,9,1.8,9,M,,M,,*68
06/08/2014	17:02:50.803	$GPGGA,170251,2450.5509,N,08026.2006,W,1,9,1.8,9,M,,M,,*6B
06/08/2014	17:02:51.813	$GPGGA,170252,2450.5524,N,08026.2012,W,1,9,1.8,9,M,,M,,*62
06/08/2014	17:02:52.843	$GPGGA,170253,2450.5537,N,08026.2016,W,1,9,1.8,9,M,,M,,*65
06/08/2014	17:02:53.852	$GPGGA,170254,2450.5551,N,08026.2021,W,1,9,1.8,9,M,,M,,*66
06/08/2014	17:02:54.882	$GPGGA,170255,2450.5564,N,08026.2027,W,1,9,1.8,9,M,,M,,*67
06/08/2014	17:02:55.881	$GPGGA,170256,2450.5578,N,08026.2031,W,1,9,1.8,9,M,,M,,*6E
06/08/2014	17:02:56.881	$GPGGA,170257,2450.5591,N,08026.2037,W,1,9,1.8,9,M,,M,,*6E
06/08/2014	17:02:57.910	$GPGGA,170258,2450.5605,N,08026.2041,W,1,9,1.8,8,M,,M,,*6F
06/08/2014	17:02:58.961	$GPGGA,170259,2450.5618,N,08026.2048,W,1,9,1.8,8,M,,M,,*6B
06/08/2014	17:02:59.960	$GPGGA,170300,2450.5632,N,08026.2052,W,1,9,1.8,8,M,,M,,*65
06/08/2014	17:03:00.981	$GPGGA,170301,2450.5645,N,08026.2056,W,1,9,1.8,8,M,,M,,*60
06/08/2014	17:03:01.979	$GPGGA,170302,2450.5658,N,08026.2061,W,1,9,1.8,8,M,,M,,*6B
06/08/2014	17:03:03.008	$GPGGA,170303,2450.5672,N,08026.2066,W,1,9,1.8,8,M,,M,,*65
06/08/2014	17:03:04.028	$GPGGA,170304,2450.5685,N,08026.2071,W,1,9,1.8,8,M,,M,,*6C
06/08/2014	17:03:05.058	$GPGGA,170305,2450.5697,N,08026.2077,W,1,9,1.8,8,M,,M,,*68
06/08/2014	17:03:06.065	$GPGGA,170306,2450.5711,N,08026.2081,W,1,9,1.8,8,M,,M,,*6D
06/08/2014	17:03:07.088	$GPGGA,170307,2450.5725,N,08026.2086,W,1,9,1.8,8,M,,M,,*6C
06/08/2014	17:03:08.098	$GPGGA,170308,2450.5737,N,08026.2092,W,1,9,1.8,8,M,,M,,*65
06/08/2014	17:03:09.102	$GPGGA,170309,2450.5751,N,08026.2095,W,1,9,1.8,8,M,,M,,*63
06/08/2014	17:03:10.142	$GPGGA,170310,2450.5765,N,08026.2100,W,1,9,1.8,8,M,,M,,*61
06/08/2014	17:03:11.135	$GPGGA,170311,2450.5777,N,08026.2106,W,1,9,1.8,7,M,,M,,*6A
06/08/2014	17:03:12.185	$GPGGA,170312,2450.5791,N,08026.2110,W,1,9,1.8,7,M,,M,,*66
06/08/2014	17:03:13.276	$GPGGA,170313,2450.5805,N,08026.2114,W,1,9,1.8,7,M,,M,,*61
06/08/2014	17:03:14.276	$GPGGA,170314,2450.5817,N,08026.2120,W,1,9,1.8,7,M,,M,,*62
06/08/2014	17:03:15.306	$GPGGA,170315,2450.5831,N,08026.2122,W,1,10,1.5,7,M,,M,,*50
06/08/2014	17:03:16.244	$GPGGA,170316,2450.5844,N,08026.2128,W,1,10,1.5,7,M,,M,,*5B
06/08/2014	17:03:17.243	$GPGGA,170317,2450.5858,N,08026.2132,W,1,10,1.5,7,M,,M,,*5C
06/08/2014	17:03:18.365	$GPGGA,170318,2450.5871,N,08026.2136,W,1,10,1.5,7,M,,M,,*5C
06/08/2014	17:03:19.303	$GPGGA,170319,2450.5884,N,08026.2140,W,1,10,1.5,7,M,,M,,*56
06/08/2014	17:03:20.322	$GPGGA,170320,2450.5896,N,08026.2144,W,1,10,1.5,7,M,,M,,*5B
06/08/2014	17:03:21.321	$GPGGA,170321,2450.5910,N,08026.2150,W,1,10,1.5,8,M,,M,,*5F
06/08/2014	17:03:22.353	$GPGGA,170322,2450.5923,N,08026.2153,W,1,10,1.5,8,M,,M,,*5F
06/08/2014	17:03:23.431	$GPGGA,170323,2450.5936,N,08026.2157,W,1,10,1.5,8,M,,M,,*5E
06/08/2014	17:03:24.472	$GPGGA,170324,2450.5950,N,08026.2162,W,1,10,1.5,8,M,,M,,*5F
06/08/2014	17:03:25.389	$GPGGA,170325,2450.5963,N,08026.2167,W,1,10,1.5,8,M,,M,,*5B
06/08/2014	17:03:26.501	$GPGGA,170326,2450.5975,N,08026.2171,W,1,10,1.5,8,M,,M,,*58
06/08/2014	17:03:27.520	$GPGGA,170327,2450.5989,N,08026.2175,W,1,10,1.5,8,M,,M,,*5E
06/08/2014	17:03:28.550	$GPGGA,170328,2450.6001,N,08026.2179,W,1,10,1.5,8,M,,M,,*57
06/08/2014	17:03:29.590	$GPGGA,170329,2450.6015,N,08026.2184,W,1,10,1.5,8,M,,M,,*51
06/08/2014	17:03:30.559	$GPGGA,170330,2450.6029,N,08026.2189,W,1,10,1.5,8,M,,M,,*5B
06/08/2014	17:03:31.579	$GPGGA,170331,2450.6041,N,08026.2193,W,1,10,1.5,8,M,,M,,*5F
06/08/2014	17:03:32.619	$GPGGA,170332,2450.6055,N,08026.2198,W,1,10,1.5,8,M,,M,,*52
06/08/2014	17:03:33.628	$GPGGA,170333,2450.6069,N,08026.2204,W,1,10,1.5,9,M,,M,,*5B
06/08/2014	17:03:34.628	$GPGGA,170334,2450.6083,N,08026.2208,W,1,10,1.5,9,M,,M,,*54
06/08/2014	17:03:35.688	$GPGGA,170335,2450.6095,N,08026.2214,W,1,10,1.5,9,M,,M,,*5F
06/08/2014	17:03:36.688	$GPGGA,170336,2450.6109,N,08026.2218,W,1,10,1.5,9,M,,M,,*54
06/08/2014	17:03:37.707	$GPGGA,170337,2450.6123,N,08026.2223,W,1,10,1.5,9,M,,M,,*55
06/08/2014	17:03:38.695	$GPGGA,170338,2450.6137,N,08026.2229,W,1,10,1.5,9,M,,M,,*55
06/08/2014	17:03:38.557	$GPGGA,170339,2450.6151,N,08026.2234,W,1,9,1.8,9,M,,M,,*6D
06/08/2014	17:03:39.566	$GPGGA,170340,2450.6165,N,08026.2240,W,1,9,1.8,9,M,,M,,*67
06/08/2014	17:03:40.595	$GPGGA,170341,2450.6178,N,08026.2244,W,1,9,1.8,10,M,,M,,*56
06/08/2014	17:03:41.594	$GPGGA,170342,2450.6192,N,08026.2249,W,1,9,1.8,10,M,,M,,*5C
06/08/2014	17:03:42.634	$GPGGA,170343,2450.6206,N,08026.2254,W,1,9,1.8,10,M,,M,,*5F
06/08/2014	17:03:43.645	$GPGGA,170344,2450.6220,N,08026.2259,W,1,9,1.8,10,M,,M,,*51
06/08/2014	17:03:44.653	$GPGGA,170345,2450.6234,N,08026.2265,W,1,9,1.8,10,M,,M,,*5A
06/08/2014	17:03:45.673	$GPGGA,170346,2450.6246,N,08026.2269,W,1,9,1.8,10,M,,M,,*50
06/08/2014	17:03:46.682	$GPGGA,170347,2450.6261,N,08026.2276,W,1,9,1.8,10,M,,M,,*5A
06/08/2014	17:03:47.723	$GPGGA,170348,2450.6274,N,08026.2280,W,1,9,1.8,10,M,,M,,*58
06/08/2014	17:03:48.712	$GPGGA,170349,2450.6288,N,08026.2285,W,1,9,1.8,10,M,,M,,*5F
06/08/2014	17:03:49.731	$GPGGA,170350,2450.6301,N,08026.2290,W,1,9,1.8,10,M,,M,,*53
06/08/2014	17:03:50.782	$GPGGA,170351,2450.6315,N,08026.2295,W,1,9,1.8,10,M,,M,,*52
06/08/2014	17:03:51.781	$GPGGA,170352,2450.6328,N,08026.2301,W,1,9,1.8,10,M,,M,,*53
06/08/2014	17:03:52.811	$GPGGA,170353,2450.6342,N,08026.2305,W,1,9,1.8,10,M,,M,,*5A
06/08/2014	17:03:53.820	$GPGGA,170354,2450.6355,N,08026.2310,W,1,9,1.8,10,M,,M,,*5F
06/08/2014	17:03:54.862	$GPGGA,170355,2450.6369,N,08026.2316,W,1,9,1.8,10,M,,M,,*57
06/08/2014	17:03:55.859	$GPGGA,170356,2450.6382,N,08026.2320,W,1,9,1.8,10,M,,M,,*54
06/08/2014	17:03:56.878	$GPGGA,170357,2450.6395,N,08026.2326,W,1,9,1.8,10,M,,M,,*55
06/08/2014	17:03:57.878	$GPGGA,170358,2450.6409,N,08026.2330,W,1,9,1.8,10,M,,M,,*5F
06/08/2014	17:03:58.948	$GPGGA,170359,2450.6423,N,08026.2334,W,1,9,1.8,10,M,,M,,*52
06/08/2014	17:03:59.927	$GPGGA,170400,2450.6436,N,08026.2341,W,1,9,1.8,9,M,,M,,*67
06/08/2014	17:04:02.355	$GPGGA,170402,2450.6463,N,08026.2349,W,1,9,1.8,9,M,,M,,*6D
06/08/2014	17:04:02.966	$GPGGA,170403,2450.6476,N,08026.2355,W,1,9,1.8,9,M,,M,,*65
06/08/2014	17:04:04.107	$GPGGA,170404,2450.6488,N,08026.2363,W,1,9,3.0,9,M,,M,,*6C
06/08/2014	17:04:05.087	$GPGGA,170405,2450.6502,N,08026.2366,W,1,9,1.8,9,M,,M,,*61
06/08/2014	17:04:06.107	$GPGGA,170406,2450.6514,N,08026.2373,W,1,9,1.8,9,M,,M,,*61
06/08/2014	17:04:07.167	$GPGGA,170407,2450.6528,N,08026.2378,W,1,9,1.8,9,M,,M,,*64
06/08/2014	17:04:08.054	$GPGGA,170408,2450.6541,N,08026.2384,W,1,9,1.8,9,M,,M,,*67
06/08/2014	17:04:09.074	$GPGGA,170409,2450.6553,N,08026.2389,W,1,9,1.8,9,M,,M,,*68
06/08/2014	17:04:10.175	$GPGGA,170410,2450.6568,N,08026.2395,W,1,9,1.8,9,M,,M,,*65
06/08/2014	17:04:11.206	$GPGGA,170411,2450.6581,N,08026.2399,W,1,9,1.8,9,M,,M,,*6F
06/08/2014	17:04:12.134	$GPGGA,170412,2450.6593,N,08026.2404,W,1,9,1.8,9,M,,M,,*6C
06/08/2014	17:04:13.142	$GPGGA,170413,2450.6607,N,08026.2410,W,1,9,1.8,9,M,,M,,*66
06/08/2014	17:04:14.263	$GPGGA,170414,2450.6619,N,08026.2414,W,1,9,1.8,9,M,,M,,*6A
06/08/2014	17:04:15.273	$GPGGA,170415,2450.6633,N,08026.2420,W,1,9,1.8,9,M,,M,,*64
06/08/2014	17:04:16.303	$GPGGA,170416,2450.6647,N,08026.2424,W,1,9,1.8,9,M,,M,,*60
06/08/2014	17:04:17.312	$GPGGA,170417,2450.6661,N,08026.2429,W,1,9,1.8,9,M,,M,,*68
06/08/2014	17:04:18.332	$GPGGA,170418,2450.6673,N,08026.2435,W,1,9,1.8,9,M,,M,,*69
06/08/2014	17:04:19.331	$GPGGA,170419,2450.6687,N,08026.2439,W,1,9,1.8,9,M,,M,,*6F
06/08/2014	17:04:20.371	$GPGGA,170420,2450.6701,N,08026.2443,W,1,9,1.8,9,M,,M,,*67
06/08/2014	17:04:21.401	$GPGGA,170421,2450.6715,N,08026.2449,W,1,9,1.8,9,M,,M,,*69
06/08/2014	17:04:22.390	$GPGGA,170422,2450.6727,N,08026.2453,W,1,9,1.8,9,M,,M,,*60
06/08/2014	17:04:23.430	$GPGGA,170423,2450.6741,N,08026.2457,W,1,9,1.8,9,M,,M,,*65
06/08/2014	17:04:24.450	$GPGGA,170424,2450.6755,N,08026.2462,W,1,9,1.8,9,M,,M,,*61
06/08/2014	17:04:25.460	$GPGGA,170425,2450.6769,N,08026.2467,W,1,9,1.8,9,M,,M,,*6A
06/08/2014	17:04:26.459	$GPGGA,170426,2450.6781,N,08026.2471,W,1,9,1.8,8,M,,M,,*69
06/08/2014	17:04:27.499	$GPGGA,170427,2450.6796,N,08026.2475,W,1,10,1.5,8,M,,M,,*5F
06/08/2014	17:04:28.519	$GPGGA,170428,2450.6810,N,08026.2480,W,1,10,1.5,8,M,,M,,*5B
06/08/2014	17:04:29.549	$GPGGA,170429,2450.6823,N,08026.2486,W,1,10,1.5,8,M,,M,,*5C
06/08/2014	17:04:30.538	$GPGGA,170430,2450.6837,N,08026.2489,W,1,10,1.5,8,M,,M,,*5E
06/08/2014	17:04:31.577	$GPGGA,170431,2450.6850,N,08026.2493,W,1,10,1.5,8,M,,M,,*55
06/08/2014	17:04:32.576	$GPGGA,170432,2450.6861,N,08026.2496,W,1,10,1.5,8,M,,M,,*51
06/08/2014	17:04:33.596	$GPGGA,170433,2450.6875,N,08026.2500,W,1,10,1.5,8,M,,M,,*5B
06/08/2014	17:04:34.616	$GPGGA,170434,2450.6889,N,08026.2504,W,1,10,1.5,8,M,,M,,*5B
06/08/2014	17:04:35.615	$GPGGA,170435,2450.6902,N,08026.2509,W,1,10,1.5,8,M,,M,,*55
06/08/2014	17:04:36.675	$GPGGA,170436,2450.6915,N,08026.2514,W,1,10,1.5,8,M,,M,,*5C
06/08/2014	17:04:37.655	$GPGGA,170437,2450.6928,N,08026.2518,W,1,10,1.5,8,M,,M,,*5F
06/08/2014	17:04:38.694	$GPGGA,170438,2450.6940,N,08026.2522,W,1,10,1.5,8,M,,M,,*57
06/08/2014	17:04:38.533	$GPGGA,170439,2450.6954,N,08026.2526,W,1,10,1.5,8,M,,M,,*57
06/08/2014	17:04:39.553	$GPGGA,170440,2450.6967,N,08026.2530,W,1,10,1.5,8,M,,M,,*5E
06/08/2014	17:04:40.572	$GPGGA,170441,2450.6980,N,08026.2534,W,1,10,1.5,8,M,,M,,*52
06/08/2014	17:04:41.571	$GPGGA,170442,2450.6994,N,08026.2540,W,1,10,1.5,8,M,,M,,*57
06/08/2014	17:04:42.622	$GPGGA,170443,2450.7007,N,08026.2543,W,1,10,1.5,8,M,,M,,*57
06/08/2014	17:04:43.611	$GPGGA,170444,2450.7020,N,08026.2548,W,1,10,1.5,9,M,,M,,*5F
06/08/2014	17:04:44.610	$GPGGA,170445,2450.7033,N,08026.2554,W,1,10,1.5,9,M,,M,,*51
06/08/2014	17:04:45.644	$GPGGA,170446,2450.7047,N,08026.2558,W,1,10,1.5,9,M,,M,,*5D
06/08/2014	17:04:46.665	$GPGGA,170447,2450.7059,N,08026.2563,W,1,10,1.5,9,M,,M,,*5B
06/08/2014	17:04:47.687	$GPGGA,170448,2450.7073,N,08026.2569,W,1,10,1.5,9,M,,M,,*56
06/08/2014	17:04:48.708	$GPGGA,170449,2450.7085,N,08026.2573,W,1,10,1.5,9,M,,M,,*55
06/08/2014	17:04:49.800	$GPGGA,170450,2450.7099,N,08026.2579,W,1,10,1.5,9,M,,M,,*5A
06/08/2014	17:04:50.717	$GPGGA,170451,2450.7113,N,08026.2583,W,1,10,1.5,9,M,,M,,*5D
06/08/2014	17:04:51.849	$GPGGA,170452,2450.7126,N,08026.2588,W,1,10,1.5,9,M,,M,,*53
06/08/2014	17:04:52.859	$GPGGA,170453,2450.7139,N,08026.2594,W,1,10,1.5,9,M,,M,,*51
06/08/2014	17:04:53.879	$GPGGA,170454,2450.7153,N,08026.2598,W,1,10,1.5,9,M,,M,,*56
06/08/2014	17:04:54.929	$GPGGA,170455,2450.7166,N,08026.2602,W,1,10,1.5,9,M,,M,,*51
06/08/2014	17:04:55.928	$GPGGA,170456,2450.7179,N,08026.2608,W,1,10,1.5,9,M,,M,,*56
06/08/2014	17:04:56.938	$GPGGA,170457,2450.7193,N,08026.2612,W,1,10,1.5,9,M,,M,,*58
06/08/2014	17:04:57.947	$GPGGA,170458,2450.7207,N,08026.2617,W,1,10,1.5,10,M,,M,,*64
06/08/2014	17:04:58.957	$GPGGA,170459,2450.7220,N,08026.2623,W,1,10,1.5,10,M,,M,,*67
06/08/2014	17:04:59.997	$GPGGA,170500,2450.7233,N,08026.2627,W,1,10,1.5,10,M,,M,,*6C
06/08/2014	17:05:00.996	$GPGGA,170501,2450.7247,N,08026.2634,W,1,9,1.8,10,M,,M,,*59
06/08/2014	17:05:02.026	$GPGGA,170502,2450.7260,N,08026.2637,W,1,9,1.8,10,M,,M,,*5C
06/08/2014	17:05:03.056	$GPGGA,170503,2450.7273,N,08026.2644,W,1,10,1.5,10,M,,M,,*6E
06/08/2014	17:05:04.065	$GPGGA,170504,2450.7287,N,08026.2649,W,1,10,1.8,10,M,,M,,*62
06/08/2014	17:05:05.085	$GPGGA,170505,2450.7301,N,08026.2655,W,1,9,1.8,10,M,,M,,*59
06/08/2014	17:05:06.094	$GPGGA,170506,2450.7315,N,08026.2660,W,1,9,1.8,10,M,,M,,*59
06/08/2014	17:05:07.123	$GPGGA,170507,2450.7327,N,08026.2666,W,1,9,1.8,10,M,,M,,*5F
06/08/2014	17:05:08.133	$GPGGA,170508,2450.7341,N,08026.2671,W,1,9,1.8,10,M,,M,,*56
06/08/2014	17:05:09.163	$GPGGA,170509,2450.7355,N,08026.2677,W,1,9,1.8,10,M,,M,,*54
06/08/2014	17:05:10.152	$GPGGA,170510,2450.7369,N,08026.2682,W,1,9,1.8,10,M,,M,,*59
06/08/2014	17:05:11.192	$GPGGA,170511,2450.7381,N,08026.2688,W,1,9,1.8,10,M,,M,,*54
06/08/2014	17:05:12.202	$GPGGA,170512,2450.7395,N,08026.2692,W,1,9,1.8,10,M,,M,,*59
06/08/2014	17:05:13.221	$GPGGA,170513,2450.7409,N,08026.2697,W,1,9,1.8,10,M,,M,,*5F
06/08/2014	17:05:14.231	$GPGGA,170514,2450.7421,N,08026.2702,W,1,9,1.8,10,M,,M,,*5F
06/08/2014	17:05:15.261	$GPGGA,170515,2450.7435,N,08026.2707,W,1,9,1.8,10,M,,M,,*5E
06/08/2014	17:05:16.270	$GPGGA,170516,2450.7449,N,08026.2713,W,1,9,1.8,10,M,,M,,*53
06/08/2014	17:05:17.310	$GPGGA,170517,2450.7463,N,08026.2717,W,1,9,1.8,10,M,,M,,*5E
06/08/2014	17:05:18.289	$GPGGA,170518,2450.7475,N,08026.2724,W,1,9,1.8,10,M,,M,,*56
06/08/2014	17:05:19.309	$GPGGA,170519,2450.7489,N,08026.2728,W,1,9,1.8,9,M,,M,,*60
06/08/2014	17:05:20.340	$GPGGA,170520,2450.7502,N,08026.2732,W,1,9,1.8,9,M,,M,,*63
06/08/2014	17:05:21.380	$GPGGA,170521,2450.7515,N,08026.2738,W,1,9,1.8,9,M,,M,,*6E
06/08/2014	17:05:22.353	$GPGGA,170522,2450.7529,N,08026.2742,W,1,9,1.8,9,M,,M,,*6F
06/08/2014	17:05:23.370	$GPGGA,170523,2450.7542,N,08026.2747,W,1,9,1.8,9,M,,M,,*66
06/08/2014	17:05:24.427	$GPGGA,170524,2450.7556,N,08026.2753,W,1,9,1.8,9,M,,M,,*61
06/08/2014	17:05:25.415	$GPGGA,170525,2450.7569,N,08026.2757,W,1,9,1.8,9,M,,M,,*68
06/08/2014	17:05:27.761	$GPGGA,170527,2450.7594,N,08026.2768,W,1,9,1.8,9,M,,M,,*64
06/08/2014	17:05:28.495	$GPGGA,170528,2450.7608,N,08026.2774,W,1,9,1.8,9,M,,M,,*60
06/08/2014	17:05:29.525	$GPGGA,170529,2450.7622,N,08026.2778,W,1,9,1.8,9,M,,M,,*65
06/08/2014	17:05:30.511	$GPGGA,170530,2450.7634,N,08026.2783,W,1,9,1.8,9,M,,M,,*6E
06/08/2014	17:05:31.527	$GPGGA,170531,2450.7648,N,08026.2789,W,1,9,1.8,9,M,,M,,*6E
06/08/2014	17:05:32.554	$GPGGA,170532,2450.7662,N,08026.2793,W,1,9,1.8,8,M,,M,,*6F
06/08/2014	17:05:33.696	$GPGGA,170533,2450.7674,N,08026.2798,W,1,9,1.8,8,M,,M,,*62
06/08/2014	17:05:34.583	$GPGGA,170534,2450.7688,N,08026.2803,W,1,9,1.8,8,M,,M,,*6B
06/08/2014	17:05:35.582	$GPGGA,170535,2450.7701,N,08026.2808,W,1,9,1.8,8,M,,M,,*61
06/08/2014	17:05:36.714	$GPGGA,170536,2450.7715,N,08026.2814,W,1,9,1.8,8,M,,M,,*6A
06/08/2014	17:05:37.775	$GPGGA,170537,2450.7727,N,08026.2819,W,1,9,1.8,8,M,,M,,*67
06/08/2014	17:05:38.672	$GPGGA,170538,2450.7741,N,08026.2825,W,1,9,1.8,8,M,,M,,*67
06/08/2014	17:05:38.573	$GPGGA,170539,2450.7753,N,08026.2829,W,1,9,1.8,8,M,,M,,*69
06/08/2014	17:05:39.501	$GPGGA,170540,2450.7767,N,08026.2834,W,1,9,1.8,8,M,,M,,*6C
06/08/2014	17:05:40.632	$GPGGA,170541,2450.7780,N,08026.2840,W,1,9,1.8,8,M,,M,,*67
06/08/2014	17:05:41.539	$GPGGA,170542,2450.7793,N,08026.2844,W,1,9,1.8,8,M,,M,,*62
06/08/2014	17:05:42.651	$GPGGA,170543,2450.7806,N,08026.2848,W,1,9,1.8,8,M,,M,,*6C
06/08/2014	17:05:43.753	$GPGGA,170544,2450.7818,N,08026.2854,W,1,9,1.8,8,M,,M,,*69
06/08/2014	17:05:44.720	$GPGGA,170545,2450.7832,N,08026.2858,W,1,9,1.8,7,M,,M,,*63
06/08/2014	17:05:45.699	$GPGGA,170546,2450.7846,N,08026.2863,W,1,9,1.8,7,M,,M,,*6B
06/08/2014	17:05:46.761	$GPGGA,170547,2450.7858,N,08026.2868,W,1,9,1.8,7,M,,M,,*6E
06/08/2014	17:05:47.831	$GPGGA,170548,2450.7871,N,08026.2874,W,1,9,1.8,7,M,,M,,*67
06/08/2014	17:05:48.769	$GPGGA,170549,2450.7883,N,08026.2879,W,1,9,1.8,7,M,,M,,*66
06/08/2014	17:05:49.839	$GPGGA,170550,2450.7897,N,08026.2883,W,1,9,1.8,7,M,,M,,*6E
06/08/2014	17:05:50.832	$GPGGA,170551,2450.7911,N,08026.2888,W,1,9,1.8,7,M,,M,,*6B
06/08/2014	17:05:51.828	$GPGGA,170552,2450.7923,N,08026.2894,W,1,9,1.8,7,M,,M,,*64
06/08/2014	17:05:52.868	$GPGGA,170553,2450.7937,N,08026.2897,W,1,9,1.8,7,M,,M,,*63
06/08/2014	17:05:53.837	$GPGGA,170554,2450.7950,N,08026.2902,W,1,9,1.8,7,M,,M,,*68
06/08/2014	17:05:54.898	$GPGGA,170555,2450.7962,N,08026.2908,W,1,9,1.8,7,M,,M,,*62
06/08/2014	17:05:55.958	$GPGGA,170556,2450.7976,N,08026.2912,W,1,9,1.8,7,M,,M,,*6F
06/08/2014	17:05:56.938	$GPGGA,170557,2450.7988,N,08026.2916,W,1,9,1.8,7,M,,M,,*6B
06/08/2014	17:05:57.986	$GPGGA,170558,2450.8002,N,08026.2921,W,1,9,1.8,7,M,,M,,*64
06/08/2014	17:05:58.975	$GPGGA,170559,2450.8015,N,08026.2926,W,1,9,1.8,7,M,,M,,*64
06/08/2014	17:06:00.019	$GPGGA,170600,2450.8027,N,08026.2931,W,1,9,1.8,7,M,,M,,*6C
06/08/2014	17:06:01.004	$GPGGA,170601,2450.8041,N,08026.2937,W,1,9,1.8,7,M,,M,,*6B
06/08/2014	17:06:01.973	$GPGGA,170602,2450.8055,N,08026.2941,W,1,9,1.8,7,M,,M,,*6C
06/08/2014	17:06:03.023	$GPGGA,170603,2450.8067,N,08026.2946,W,1,9,1.8,6,M,,M,,*6A
06/08/2014	17:06:04.110	$GPGGA,170604,2450.8080,N,08026.2952,W,1,9,1.8,6,M,,M,,*61
06/08/2014	17:06:05.022	$GPGGA,170605,2450.8093,N,08026.2956,W,1,9,1.8,6,M,,M,,*66
06/08/2014	17:06:06.062	$GPGGA,170606,2450.8107,N,08026.2962,W,1,9,1.8,6,M,,M,,*6E
06/08/2014	17:06:07.111	$GPGGA,170607,2450.8120,N,08026.2966,W,1,9,1.8,6,M,,M,,*6E
06/08/2014	17:06:08.082	$GPGGA,170608,2450.8132,N,08026.2970,W,1,9,1.8,6,M,,M,,*65
06/08/2014	17:06:09.108	$GPGGA,170609,2450.8146,N,08026.2975,W,1,9,1.8,6,M,,M,,*62
06/08/2014	17:06:10.087	$GPGGA,170610,2450.8158,N,08026.2980,W,1,9,1.8,6,M,,M,,*6F
06/08/2014	17:06:11.227	$GPGGA,170611,2450.8172,N,08026.2984,W,1,9,1.8,6,M,,M,,*62
06/08/2014	17:06:12.165	$GPGGA,170612,2450.8186,N,08026.2989,W,1,9,1.8,6,M,,M,,*67
06/08/2014	17:06:13.163	$GPGGA,170613,2450.8199,N,08026.2995,W,1,9,1.8,6,M,,M,,*65
06/08/2014	17:06:14.172	$GPGGA,170614,2450.8212,N,08026.2999,W,1,9,1.8,6,M,,M,,*6E
06/08/2014	17:06:15.231	$GPGGA,170615,2450.8225,N,08026.3004,W,1,9,1.8,6,M,,M,,*67
06/08/2014	17:06:16.188	$GPGGA,170616,2450.8237,N,08026.3009,W,1,9,1.8,6,M,,M,,*6A
06/08/2014	17:06:17.129	$GPGGA,170617,2450.8251,N,08026.3013,W,1,9,1.8,6,M,,M,,*60
06/08/2014	17:06:18.196	$GPGGA,170618,2450.8264,N,08026.3018,W,1,9,1.8,6,M,,M,,*62
06/08/2014	17:06:19.144	$GPGGA,170619,2450.8277,N,08026.3022,W,1,9,1.8,6,M,,M,,*68
06/08/2014	17:06:20.223	$GPGGA,170620,2450.8291,N,08026.3027,W,1,9,1.8,6,M,,M,,*6F
06/08/2014	17:06:21.282	$GPGGA,170621,2450.8304,N,08026.3032,W,1,9,1.8,6,M,,M,,*67
06/08/2014	17:06:22.291	$GPGGA,170622,2450.8316,N,08026.3036,W,1,9,1.8,6,M,,M,,*63
06/08/2014	17:06:23.300	$GPGGA,170623,2450.8330,N,08026.3042,W,1,9,1.8,6,M,,M,,*65
06/08/2014	17:06:24.313	$GPGGA,170624,2450.8342,N,08026.3046,W,1,9,1.8,6,M,,M,,*63
06/08/2014	17:06:25.317	$GPGGA,170625,2450.8356,N,08026.3050,W,1,9,1.8,6,M,,M,,*60
06/08/2014	17:06:26.245	$GPGGA,170626,2450.8369,N,08026.3056,W,1,9,1.8,6,M,,M,,*69
06/08/2014	17:06:27.294	$GPGGA,170627,2450.8382,N,08026.3060,W,1,9,1.8,6,M,,M,,*68
06/08/2014	17:06:28.283	$GPGGA,170628,2450.8396,N,08026.3064,W,1,9,1.8,6,M,,M,,*66
06/08/2014	17:06:29.241	$GPGGA,170629,2450.8407,N,08026.3069,W,1,9,1.8,6,M,,M,,*65
06/08/2014	17:06:30.311	$GPGGA,170630,2450.8421,N,08026.3074,W,1,9,1.8,6,M,,M,,*65
06/08/2014	17:06:31.319	$GPGGA,170631,2450.8434,N,08026.3079,W,1,9,1.8,6,M,,M,,*6D
06/08/2014	17:06:32.348	$GPGGA,170632,2450.8447,N,08026.3083,W,1,9,1.8,6,M,,M,,*6F
06/08/2014	17:06:33.335	$GPGGA,170633,2450.8460,N,08026.3089,W,1,9,1.8,6,M,,M,,*61
06/08/2014	17:06:34.334	$GPGGA,170634,2450.8474,N,08026.3093,W,1,9,1.8,6,M,,M,,*68
06/08/2014	17:06:35.353	$GPGGA,170635,2450.8486,N,08026.3098,W,1,9,1.8,6,M,,M,,*6F
06/08/2014	17:06:36.382	$GPGGA,170636,2450.8500,N,08026.3103,W,1,9,1.8,6,M,,M,,*60
06/08/2014	17:06:37.380	$GPGGA,170637,2450.8512,N,08026.3107,W,1,9,1.8,6,M,,M,,*66
06/08/2014	17:06:38.379	$GPGGA,170638,2450.8526,N,08026.3112,W,1,9,1.8,6,M,,M,,*6A
06/08/2014	17:06:38.569	$GPGGA,170639,2450.8539,N,08026.3116,W,1,9,1.8,6,M,,M,,*61
06/08/2014	17:06:39.588	$GPGGA,170640,2450.8551,N,08026.3121,W,1,9,1.8,6,M,,M,,*65
06/08/2014	17:06:40.623	$GPGGA,170641,2450.8565,N,08026.3126,W,1,9,1.8,6,M,,M,,*64
06/08/2014	17:06:41.585	$GPGGA,170642,2450.8577,N,08026.3132,W,1,9,1.8,6,M,,M,,*61
06/08/2014	17:06:42.584	$GPGGA,170643,2450.8591,N,08026.3136,W,1,9,1.8,6,M,,M,,*6C
06/08/2014	17:06:43.623	$GPGGA,170644,2450.8604,N,08026.3141,W,1,9,1.8,6,M,,M,,*64
06/08/2014	17:06:44.631	$GPGGA,170645,2450.8616,N,08026.3147,W,1,9,1.8,6,M,,M,,*60
06/08/2014	17:06:45.600	$GPGGA,170646,2450.8630,N,08026.3151,W,1,9,1.8,6,M,,M,,*60
06/08/2014	17:06:46.598	$GPGGA,170647,2450.8642,N,08026.3157,W,1,9,1.8,6,M,,M,,*62
06/08/2014	17:06:47.627	$GPGGA,170648,2450.8656,N,08026.3161,W,1,9,1.8,6,M,,M,,*6D
06/08/2014	17:06:48.636	$GPGGA,170649,2450.8667,N,08026.3168,W,1,9,1.8,6,M,,M,,*67
06/08/2014	17:06:49.634	$GPGGA,170650,2450.8667,N,08026.3168,W,1,9,1.8,6,M,,M,,*6F
06/08/2014	17:06:50.662	$GPGGA,170651,2450.8694,N,08026.3177,W,1,9,1.8,6,M,,M,,*6C
06/08/2014	17:06:51.661	$GPGGA,170652,2450.8707,N,08026.3183,W,1,9,1.7,6,M,,M,,*60
06/08/2014	17:06:52.670	$GPGGA,170653,2450.8720,N,08026.3186,W,1,9,1.5,6,M,,M,,*63
06/08/2014	17:06:53.678	$GPGGA,170654,2450.8732,N,08026.3191,W,1,9,1.5,6,M,,M,,*61
06/08/2014	17:06:54.677	$GPGGA,170655,2450.8732,N,08026.3191,W,1,10,1.5,6,M,,M,,*58
06/08/2014	17:06:55.706	$GPGGA,170656,2450.8757,N,08026.3201,W,1,10,1.5,6,M,,M,,*52
06/08/2014	17:06:57.733	$GPGGA,170658,2450.8783,N,08026.3210,W,1,10,1.5,7,M,,M,,*54
06/08/2014	17:06:58.702	$GPGGA,170659,2450.8796,N,08026.3215,W,1,10,1.5,7,M,,M,,*54
06/08/2014	17:06:59.821	$GPGGA,170700,2450.8808,N,08026.3222,W,1,10,1.5,7,M,,M,,*55
06/08/2014	17:07:00.749	$GPGGA,170701,2450.8822,N,08026.3226,W,1,10,1.5,7,M,,M,,*58
06/08/2014	17:07:01.739	$GPGGA,170702,2450.8835,N,08026.3231,W,1,10,1.7,7,M,,M,,*59
06/08/2014	17:07:02.801	$GPGGA,170703,2450.8848,N,08026.3237,W,1,9,1.7,7,M,,M,,*6C
06/08/2014	17:07:03.765	$GPGGA,170704,2450.8859,N,08026.3241,W,1,9,1.5,7,M,,M,,*68
06/08/2014	17:07:04.744	$GPGGA,170705,2450.8859,N,08026.3241,W,1,10,1.5,7,M,,M,,*51
06/08/2014	17:07:05.773	$GPGGA,170706,2450.8873,N,08026.3245,W,1,10,1.7,7,M,,M,,*5C
06/08/2014	17:07:06.848	$GPGGA,170707,2450.8900,N,08026.3256,W,1,9,1.7,7,M,,M,,*62
06/08/2014	17:07:07.753	$GPGGA,170708,2450.8900,N,08026.3256,W,1,9,1.7,7,M,,M,,*6D
06/08/2014	17:07:08.761	$GPGGA,170709,2450.8927,N,08026.3267,W,1,9,1.7,7,M,,M,,*6B
06/08/2014	17:07:09.847	$GPGGA,170710,2450.8941,N,08026.3273,W,1,9,1.7,7,M,,M,,*66
06/08/2014	17:07:10.855	$GPGGA,170711,2450.8954,N,08026.3278,W,1,9,1.7,7,M,,M,,*68
06/08/2014	17:07:11.874	$GPGGA,170712,2450.8967,N,08026.3284,W,1,9,1.7,7,M,,M,,*68
06/08/2014	17:07:12.895	$GPGGA,170713,2450.8981,N,08026.3288,W,1,9,1.7,7,M,,M,,*6D
06/08/2014	17:07:13.821	$GPGGA,170714,2450.8981,N,08026.3288,W,1,9,1.7,7,M,,M,,*6A
06/08/2014	17:07:14.890	$GPGGA,170715,2450.9007,N,08026.3298,W,1,9,1.7,7,M,,M,,*6C
06/08/2014	17:07:15.899	$GPGGA,170716,2450.9020,N,08026.3303,W,1,9,1.7,7,M,,M,,*69
06/08/2014	17:07:16.908	$GPGGA,170717,2450.9032,N,08026.3309,W,1,9,1.7,7,M,,M,,*61
06/08/2014	17:07:17.896	$GPGGA,170718,2450.9046,N,08026.3313,W,1,9,1.7,7,M,,M,,*66
06/08/2014	17:07:18.946	$GPGGA,170719,2450.9060,N,08026.3318,W,1,9,1.7,7,M,,M,,*68
06/08/2014	17:07:19.934	$GPGGA,170720,2450.9072,N,08026.3322,W,1,9,1.7,7,M,,M,,*68
06/08/2014	17:07:20.942	$GPGGA,170721,2450.9086,N,08026.3327,W,1,9,1.7,7,M,,M,,*67
06/08/2014	17:07:21.922	$GPGGA,170722,2450.9100,N,08026.3332,W,1,9,1.7,7,M,,M,,*6F
06/08/2014	17:07:22.950	$GPGGA,170723,2450.9113,N,08026.3338,W,1,9,1.7,7,M,,M,,*66
06/08/2014	17:07:23.959	$GPGGA,170724,2450.9126,N,08026.3342,W,1,9,1.7,7,M,,M,,*6A
06/08/2014	17:07:24.957	$GPGGA,170725,2450.9139,N,08026.3347,W,1,9,1.7,7,M,,M,,*60
06/08/2014	17:07:25.965	$GPGGA,170726,2450.9153,N,08026.3352,W,1,9,1.7,7,M,,M,,*6B
06/08/2014	17:07:26.953	$GPGGA,170727,2450.9165,N,08026.3356,W,1,9,1.7,7,M,,M,,*6B
06/08/2014	17:07:27.982	$GPGGA,170728,2450.9180,N,08026.3361,W,1,9,1.7,7,M,,M,,*6B
06/08/2014	17:07:29.001	$GPGGA,170729,2450.9193,N,08026.3367,W,1,9,1.7,7,M,,M,,*6E
06/08/2014	17:07:29.979	$GPGGA,170730,2450.9205,N,08026.3371,W,1,9,1.7,7,M,,M,,*6D
06/08/2014	17:07:31.008	$GPGGA,170731,2450.9220,N,08026.3376,W,1,9,1.7,7,M,,M,,*6C
06/08/2014	17:07:32.007	$GPGGA,170732,2450.9233,N,08026.3381,W,1,9,1.7,7,M,,M,,*65
06/08/2014	17:07:33.016	$GPGGA,170733,2450.9245,N,08026.3385,W,1,9,1.7,7,M,,M,,*61
06/08/2014	17:07:34.014	$GPGGA,170734,2450.9259,N,08026.3389,W,1,9,1.7,7,M,,M,,*67
06/08/2014	17:07:35.033	$GPGGA,170735,2450.9273,N,08026.3394,W,1,9,1.7,7,M,,M,,*62
06/08/2014	17:07:36.042	$GPGGA,170736,2450.9285,N,08026.3399,W,1,9,1.7,7,M,,M,,*65
06/08/2014	17:07:37.060	$GPGGA,170737,2450.9299,N,08026.3403,W,1,9,1.7,7,M,,M,,*6D
06/08/2014	17:07:38.029	$GPGGA,170738,2450.9313,N,08026.3408,W,1,9,1.7,7,M,,M,,*6A
06/08/2014	17:07:38.516	$GPGGA,170739,2450.9325,N,08026.3414,W,1,9,1.7,7,M,,M,,*63
06/08/2014	17:07:39.525	$GPGGA,170740,2450.9339,N,08026.3418,W,1,9,1.7,7,M,,M,,*6C
06/08/2014	17:07:40.544	$GPGGA,170741,2450.9353,N,08026.3422,W,1,9,1.7,7,M,,M,,*68
06/08/2014	17:07:41.563	$GPGGA,170742,2450.9366,N,08026.3428,W,1,9,1.7,7,M,,M,,*67
06/08/2014	17:07:42.582	$GPGGA,170743,2450.9379,N,08026.3432,W,1,9,1.7,7,M,,M,,*63
06/08/2014	17:07:43.559	$GPGGA,170744,2450.9393,N,08026.3437,W,1,9,1.7,6,M,,M,,*64
06/08/2014	17:07:44.568	$GPGGA,170745,2450.9407,N,08026.3443,W,1,9,1.7,6,M,,M,,*6C
06/08/2014	17:07:45.556	$GPGGA,170746,2450.9419,N,08026.3447,W,1,9,1.7,6,M,,M,,*64
06/08/2014	17:07:46.585	$GPGGA,170747,2450.9433,N,08026.3452,W,1,9,1.7,6,M,,M,,*69
06/08/2014	17:07:47.604	$GPGGA,170748,2450.9447,N,08026.3457,W,1,9,1.7,6,M,,M,,*60
06/08/2014	17:07:48.592	$GPGGA,170749,2450.9460,N,08026.3462,W,1,9,1.7,6,M,,M,,*62
06/08/2014	17:07:49.581	$GPGGA,170750,2450.9473,N,08026.3466,W,1,9,1.7,6,M,,M,,*6C
06/08/2014	17:07:50.600	$GPGGA,170751,2450.9487,N,08026.3472,W,1,9,1.7,6,M,,M,,*63
06/08/2014	17:07:51.618	$GPGGA,170752,2450.9500,N,08026.3476,W,1,9,1.7,6,M,,M,,*6A
06/08/2014	17:07:52.607	$GPGGA,170753,2450.9514,N,08026.3482,W,1,9,1.7,6,M,,M,,*65
06/08/2014	17:07:53.727	$GPGGA,170754,2450.9527,N,08026.3486,W,1,9,1.7,6,M,,M,,*66
06/08/2014	17:07:54.745	$GPGGA,170755,2450.9541,N,08026.3491,W,1,9,1.7,6,M,,M,,*61
06/08/2014	17:07:55.653	$GPGGA,170756,2450.9554,N,08026.3497,W,1,9,1.7,6,M,,M,,*60
06/08/2014	17:07:56.733	$GPGGA,170757,2450.9567,N,08026.3501,W,1,9,1.7,6,M,,M,,*6F
06/08/2014	17:07:57.654	$GPGGA,170758,2450.9581,N,08026.3506,W,1,9,1.7,6,M,,M,,*6F
06/08/2014	17:07:58.649	$GPGGA,170759,2450.9594,N,08026.3511,W,1,9,1.7,6,M,,M,,*6C
06/08/2014	17:07:59.769	$GPGGA,170800,2450.9606,N,08026.3515,W,1,9,1.5,6,M,,M,,*61
06/08/2014	17:08:00.680	$GPGGA,170801,2450.9619,N,08026.3519,W,1,10,1.5,6,M,,M,,*5A
06/08/2014	17:08:01.765	$GPGGA,170802,2450.9632,N,08026.3524,W,1,10,1.5,6,M,,M,,*5E
06/08/2014	17:08:02.814	$GPGGA,170803,2450.9646,N,08026.3529,W,1,10,1.5,6,M,,M,,*51
06/08/2014	17:08:03.792	$GPGGA,170804,2450.9659,N,08026.3533,W,1,10,1.5,6,M,,M,,*53
06/08/2014	17:08:04.801	$GPGGA,170805,2450.9673,N,08026.3540,W,1,10,1.5,6,M,,M,,*5E
06/08/2014	17:08:05.790	$GPGGA,170806,2450.9686,N,08026.3544,W,1,10,1.5,6,M,,M,,*53
06/08/2014	17:08:06.798	$GPGGA,170807,2450.9699,N,08026.3549,W,1,10,1.5,6,M,,M,,*51
06/08/2014	17:08:07.828	$GPGGA,170808,2450.9711,N,08026.3555,W,1,10,1.5,6,M,,M,,*52
06/08/2014	17:08:08.836	$GPGGA,170809,2450.9725,N,08026.3560,W,1,10,1.5,6,M,,M,,*52
06/08/2014	17:08:09.814	$GPGGA,170810,2450.9738,N,08026.3566,W,1,10,1.5,6,M,,M,,*50
06/08/2014	17:08:10.823	$GPGGA,170811,2450.9751,N,08026.3570,W,1,10,1.5,6,M,,M,,*59
06/08/2014	17:08:11.852	$GPGGA,170812,2450.9764,N,08026.3576,W,1,10,1.5,6,M,,M,,*5A
06/08/2014	17:08:12.871	$GPGGA,170813,2450.9776,N,08026.3581,W,1,10,1.5,7,M,,M,,*51
06/08/2014	17:08:13.839	$GPGGA,170814,2450.9790,N,08026.3587,W,1,10,1.5,7,M,,M,,*58
06/08/2014	17:08:14.878	$GPGGA,170815,2450.9803,N,08026.3591,W,1,10,1.5,7,M,,M,,*5B
06/08/2014	17:08:15.877	$GPGGA,170816,2450.9816,N,08026.3596,W,1,10,1.5,7,M,,M,,*5B
06/08/2014	17:08:16.895	$GPGGA,170817,2450.9829,N,08026.3602,W,1,10,1.5,7,M,,M,,*58
06/08/2014	17:08:17.873	$GPGGA,170818,2450.9841,N,08026.3607,W,1,10,1.5,7,M,,M,,*5C
06/08/2014	17:08:18.912	$GPGGA,170819,2450.9855,N,08026.3613,W,1,10,1.5,7,M,,M,,*5D
06/08/2014	17:08:19.900	$GPGGA,170820,2450.9867,N,08026.3617,W,1,10,1.5,7,M,,M,,*52
06/08/2014	17:08:20.889	$GPGGA,170821,2450.9881,N,08026.3624,W,1,10,1.5,7,M,,M,,*5B
06/08/2014	17:08:21.888	$GPGGA,170822,2450.9894,N,08026.3628,W,1,10,1.5,7,M,,M,,*50
06/08/2014	17:08:22.906	$GPGGA,170823,2450.9906,N,08026.3634,W,1,10,1.5,7,M,,M,,*56
06/08/2014	17:08:23.935	$GPGGA,170824,2450.9921,N,08026.3638,W,1,10,1.5,7,M,,M,,*58
06/08/2014	17:08:24.944	$GPGGA,170825,2450.9934,N,08026.3643,W,1,10,1.5,7,M,,M,,*51
06/08/2014	17:08:25.922	$GPGGA,170826,2450.9946,N,08026.3649,W,1,10,1.5,7,M,,M,,*5D
06/08/2014	17:08:26.941	$GPGGA,170827,2450.9960,N,08026.3654,W,1,9,1.7,7,M,,M,,*6E
06/08/2014	17:08:27.950	$GPGGA,170828,2450.9974,N,08026.3660,W,1,9,1.7,7,M,,M,,*63
06/08/2014	17:08:28.948	$GPGGA,170829,2450.9986,N,08026.3664,W,1,9,1.7,7,M,,M,,*6B
06/08/2014	17:08:29.937	$GPGGA,170830,2451.0000,N,08026.3671,W,1,9,1.7,7,M,,M,,*68
06/08/2014	17:08:31.068	$GPGGA,170831,2451.0014,N,08026.3676,W,1,9,1.7,8,M,,M,,*64
06/08/2014	17:08:31.975	$GPGGA,170832,2451.0028,N,08026.3681,W,1,9,1.7,8,M,,M,,*60
06/08/2014	17:08:32.983	$GPGGA,170833,2451.0040,N,08026.3688,W,1,9,1.7,8,M,,M,,*66
06/08/2014	17:08:33.982	$GPGGA,170834,2451.0054,N,08026.3692,W,1,9,1.7,8,M,,M,,*6F
06/08/2014	17:08:35.001	$GPGGA,170835,2451.0068,N,08026.3697,W,1,9,1.7,8,M,,M,,*64
06/08/2014	17:08:36.008	$GPGGA,170836,2451.0080,N,08026.3703,W,1,9,1.7,8,M,,M,,*6D
06/08/2014	17:08:37.113	$GPGGA,170837,2451.0094,N,08026.3708,W,1,9,1.7,8,M,,M,,*62
06/08/2014	17:08:37.995	$GPGGA,170838,2451.0108,N,08026.3714,W,1,9,1.7,8,M,,M,,*64
06/08/2014	17:08:38.485	$GPGGA,170839,2451.0121,N,08026.3719,W,1,9,1.7,8,M,,M,,*63
06/08/2014	17:08:39.523	$GPGGA,170840,2451.0134,N,08026.3725,W,1,9,1.7,8,M,,M,,*66
06/08/2014	17:08:40.522	$GPGGA,170841,2451.0148,N,08026.3730,W,1,9,1.7,8,M,,M,,*68
06/08/2014	17:08:41.500	$GPGGA,170842,2451.0162,N,08026.3735,W,1,9,1.7,8,M,,M,,*66
06/08/2014	17:08:42.610	$GPGGA,170843,2451.0174,N,08026.3740,W,1,9,1.7,8,M,,M,,*62
06/08/2014	17:08:43.539	$GPGGA,170844,2451.0188,N,08026.3746,W,1,9,1.7,8,M,,M,,*60
06/08/2014	17:08:44.657	$GPGGA,170845,2451.0202,N,08026.3751,W,1,9,1.7,8,M,,M,,*66
06/08/2014	17:08:45.535	$GPGGA,170846,2451.0216,N,08026.3757,W,1,9,1.7,8,M,,M,,*66
06/08/2014	17:08:46.534	$GPGGA,170847,2451.0228,N,08026.3761,W,1,9,1.7,8,M,,M,,*6F
06/08/2014	17:08:47.552	$GPGGA,170848,2451.0242,N,08026.3768,W,1,9,1.7,8,M,,M,,*65
06/08/2014	17:08:48.672	$GPGGA,170849,2451.0256,N,08026.3772,W,1,9,1.7,8,M,,M,,*6A
06/08/2014	17:08:49.661	$GPGGA,170850,2451.0268,N,08026.3777,W,1,9,1.7,8,M,,M,,*6A
06/08/2014	17:08:50.679	$GPGGA,170851,2451.0282,N,08026.3783,W,1,9,1.7,8,M,,M,,*64
06/08/2014	17:08:51.689	$GPGGA,170852,2451.0296,N,08026.3787,W,1,9,1.7,8,M,,M,,*66
06/08/2014	17:08:52.686	$GPGGA,170853,2451.0310,N,08026.3793,W,1,9,1.7,8,M,,M,,*6D
06/08/2014	17:08:53.684	$GPGGA,170854,2451.0324,N,08026.3798,W,1,9,1.7,8,M,,M,,*66
06/08/2014	17:08:54.713	$GPGGA,170855,2451.0336,N,08026.3804,W,1,9,1.7,8,M,,M,,*6E
06/08/2014	17:08:55.712	$GPGGA,170856,2451.0350,N,08026.3808,W,1,9,1.7,8,M,,M,,*61
06/08/2014	17:08:56.733	$GPGGA,170857,2451.0364,N,08026.3813,W,1,9,1.7,8,M,,M,,*6D
06/08/2014	17:08:57.719	$GPGGA,170858,2451.0378,N,08026.3819,W,1,9,1.7,8,M,,M,,*65
06/08/2014	17:08:58.738	$GPGGA,170859,2451.0390,N,08026.3824,W,1,9,1.7,8,M,,M,,*6C
06/08/2014	17:08:59.767	$GPGGA,170900,2451.0405,N,08026.3829,W,1,9,1.7,8,M,,M,,*67
06/08/2014	17:09:00.745	$GPGGA,170901,2451.0418,N,08026.3834,W,1,9,1.7,8,M,,M,,*66
06/08/2014	17:09:01.744	$GPGGA,170902,2451.0432,N,08026.3840,W,1,9,1.7,8,M,,M,,*6E
06/08/2014	17:09:02.732	$GPGGA,170903,2451.0444,N,08026.3844,W,1,9,1.7,8,M,,M,,*6A
06/08/2014	17:09:03.771	$GPGGA,170904,2451.0459,N,08026.3849,W,1,9,1.5,8,M,,M,,*6E
06/08/2014	17:09:04.780	$GPGGA,170905,2451.0472,N,08026.3855,W,1,9,1.7,8,M,,M,,*69
06/08/2014	17:09:05.758	$GPGGA,170906,2451.0484,N,08026.3858,W,1,9,1.5,8,M,,M,,*6C
06/08/2014	17:09:06.807	$GPGGA,170907,2451.0497,N,08026.3862,W,1,10,1.5,8,M,,M,,*5E
06/08/2014	17:09:07.777	$GPGGA,170908,2451.0509,N,08026.3866,W,1,10,1.5,8,M,,M,,*53
06/08/2014	17:09:08.785	$GPGGA,170909,2451.0522,N,08026.3870,W,1,10,1.5,8,M,,M,,*5C
06/08/2014	17:09:09.783	$GPGGA,170910,2451.0535,N,08026.3876,W,1,10,1.5,8,M,,M,,*54
06/08/2014	17:09:10.791	$GPGGA,170911,2451.0549,N,08026.3880,W,1,10,1.5,8,M,,M,,*57
06/08/2014	17:09:11.820	$GPGGA,170912,2451.0562,N,08026.3885,W,1,10,1.5,8,M,,M,,*58
06/08/2014	17:09:12.828	$GPGGA,170913,2451.0574,N,08026.3891,W,1,10,1.5,8,M,,M,,*5B
06/08/2014	17:09:13.807	$GPGGA,170914,2451.0589,N,08026.3895,W,1,10,1.5,8,M,,M,,*5A
06/08/2014	17:09:14.816	$GPGGA,170915,2451.0602,N,08026.3902,W,1,10,1.5,8,M,,M,,*54
06/08/2014	17:09:15.834	$GPGGA,170916,2451.0614,N,08026.3905,W,1,10,1.5,8,M,,M,,*57
06/08/2014	17:09:16.853	$GPGGA,170917,2451.0629,N,08026.3912,W,1,10,1.5,8,M,,M,,*5E
06/08/2014	17:09:17.953	$GPGGA,170918,2451.0642,N,08026.3916,W,1,10,1.5,8,M,,M,,*58
06/08/2014	17:09:18.850	$GPGGA,170919,2451.0656,N,08026.3923,W,1,10,1.5,9,M,,M,,*5B
06/08/2014	17:09:20.010	$GPGGA,170920,2451.0668,N,08026.3928,W,1,10,1.7,9,M,,M,,*55
06/08/2014	17:09:20.878	$GPGGA,170921,2451.0683,N,08026.3934,W,1,10,1.5,9,M,,M,,*5E
06/08/2014	17:09:21.876	$GPGGA,170922,2451.0697,N,08026.3941,W,1,10,1.5,9,M,,M,,*5A
06/08/2014	17:09:22.885	$GPGGA,170923,2451.0710,N,08026.3946,W,1,10,1.5,9,M,,M,,*52
06/08/2014	17:09:24.015	$GPGGA,170924,2451.0723,N,08026.3952,W,1,10,1.5,9,M,,M,,*50
06/08/2014	17:09:24.913	$GPGGA,170925,2451.0737,N,08026.3957,W,1,10,1.5,9,M,,M,,*51
06/08/2014	17:09:25.996	$GPGGA,170926,2451.0751,N,08026.3963,W,1,10,1.5,9,M,,M,,*55
06/08/2014	17:09:26.913	$GPGGA,170927,2451.0764,N,08026.3968,W,1,10,1.5,8,M,,M,,*58
06/08/2014	17:09:27.914	$GPGGA,170928,2451.0777,N,08026.3974,W,1,10,1.5,8,M,,M,,*58
06/08/2014	17:09:29.007	$GPGGA,170929,2451.0790,N,08026.3978,W,1,10,1.5,8,M,,M,,*5C
06/08/2014	17:09:30.016	$GPGGA,170930,2451.0802,N,08026.3985,W,1,10,1.5,8,M,,M,,*52
06/08/2014	17:09:31.059	$GPGGA,170931,2451.0816,N,08026.3989,W,1,10,1.5,8,M,,M,,*5A
06/08/2014	17:09:32.044	$GPGGA,170932,2451.0829,N,08026.3993,W,1,10,1.5,8,M,,M,,*5E
06/08/2014	17:09:33.067	$GPGGA,170933,2451.0842,N,08026.3999,W,1,10,1.5,8,M,,M,,*58
06/08/2014	17:09:34.040	$GPGGA,170934,2451.0856,N,08026.4003,W,1,10,1.5,8,M,,M,,*57
06/08/2014	17:09:35.083	$GPGGA,170935,2451.0869,N,08026.4008,W,1,10,1.5,8,M,,M,,*51
06/08/2014	17:09:36.079	$GPGGA,170936,2451.0882,N,08026.4014,W,1,10,1.5,8,M,,M,,*5A
06/08/2014	17:09:37.115	$GPGGA,170937,2451.0895,N,08026.4019,W,1,10,1.5,8,M,,M,,*50
06/08/2014	17:09:38.065	$GPGGA,170938,2451.0907,N,08026.4025,W,1,10,1.5,8,M,,M,,*5A
06/08/2014	17:09:38.554	$GPGGA,170939,2451.0921,N,08026.4029,W,1,10,1.5,8,M,,M,,*53
06/08/2014	17:09:39.582	$GPGGA,170940,2451.0935,N,08026.4036,W,1,10,1.5,8,M,,M,,*56
06/08/2014	17:09:40.570	$GPGGA,170941,2451.0949,N,08026.4042,W,1,9,1.7,8,M,,M,,*65
06/08/2014	17:09:41.579	$GPGGA,170942,2451.0961,N,08026.4046,W,1,9,1.7,8,M,,M,,*68
06/08/2014	17:09:42.588	$GPGGA,170943,2451.0975,N,08026.4051,W,1,10,1.5,8,M,,M,,*50
06/08/2014	17:09:43.606	$GPGGA,170944,2451.0988,N,08026.4057,W,1,10,1.5,8,M,,M,,*53
06/08/2014	17:09:44.596	$GPGGA,170945,2451.1001,N,08026.4061,W,1,10,1.5,8,M,,M,,*5E
06/08/2014	17:09:45.603	$GPGGA,170946,2451.1015,N,08026.4066,W,1,10,1.5,8,M,,M,,*5F
06/08/2014	17:09:46.611	$GPGGA,170947,2451.1028,N,08026.4072,W,1,10,1.5,8,M,,M,,*55
06/08/2014	17:09:47.620	$GPGGA,170948,2451.1040,N,08026.4076,W,1,10,1.5,8,M,,M,,*50
06/08/2014	17:09:48.639	$GPGGA,170949,2451.1054,N,08026.4082,W,1,10,1.5,8,M,,M,,*5F
06/08/2014	17:09:49.617	$GPGGA,170950,2451.1066,N,08026.4087,W,1,10,1.5,8,M,,M,,*53
06/08/2014	17:09:50.646	$GPGGA,170951,2451.1080,N,08026.4093,W,1,10,1.5,8,M,,M,,*5F
06/08/2014	17:09:51.655	$GPGGA,170952,2451.1094,N,08026.4098,W,1,10,1.5,8,M,,M,,*52
06/08/2014	17:09:52.643	$GPGGA,170953,2451.1106,N,08026.4104,W,1,10,1.5,8,M,,M,,*5D
06/08/2014	17:09:53.652	$GPGGA,170954,2451.1120,N,08026.4109,W,1,10,1.5,8,M,,M,,*53
06/08/2014	17:09:54.651	$GPGGA,170955,2451.1134,N,08026.4115,W,1,10,1.5,8,M,,M,,*5A
06/08/2014	17:09:55.690	$GPGGA,170956,2451.1147,N,08026.4120,W,1,10,1.7,8,M,,M,,*59
06/08/2014	17:09:56.678	$GPGGA,170957,2451.1160,N,08026.4126,W,1,10,1.5,8,M,,M,,*59
06/08/2014	17:09:57.677	$GPGGA,170958,2451.1174,N,08026.4131,W,1,10,1.7,8,M,,M,,*57
06/08/2014	17:09:58.696	$GPGGA,170959,2451.1187,N,08026.4137,W,1,10,1.5,8,M,,M,,*5E
06/08/2014	17:09:59.724	$GPGGA,171000,2451.1200,N,08026.4144,W,1,10,1.7,8,M,,M,,*50
06/08/2014	17:10:00.713	$GPGGA,171001,2451.1214,N,08026.4148,W,1,9,1.7,8,M,,M,,*60
06/08/2014	17:10:01.722	$GPGGA,171002,2451.1228,N,08026.4155,W,1,9,1.7,8,M,,M,,*60
06/08/2014	17:10:02.739	$GPGGA,171003,2451.1242,N,08026.4160,W,1,9,1.7,8,M,,M,,*6B
06/08/2014	17:10:03.718	$GPGGA,171004,2451.1256,N,08026.4165,W,1,9,1.7,8,M,,M,,*6C
06/08/2014	17:10:04.719	$GPGGA,171005,2451.1268,N,08026.4170,W,1,9,1.7,8,M,,M,,*64
06/08/2014	17:10:05.745	$GPGGA,171006,2451.1283,N,08026.4176,W,1,9,1.7,8,M,,M,,*64
06/08/2014	17:10:06.865	$GPGGA,171007,2451.1296,N,08026.4181,W,1,9,1.7,8,M,,M,,*69
06/08/2014	17:10:07.874	$GPGGA,171008,2451.1308,N,08026.4187,W,1,9,1.7,8,M,,M,,*66
06/08/2014	17:10:08.761	$GPGGA,171009,2451.1322,N,08026.4191,W,1,9,1.7,8,M,,M,,*68
06/08/2014	17:10:09.750	$GPGGA,171010,2451.1336,N,08026.4196,W,1,9,1.7,8,M,,M,,*62
06/08/2014	17:10:10.880	$GPGGA,171011,2451.1348,N,08026.4202,W,1,9,1.7,8,M,,M,,*64
06/08/2014	17:10:11.908	$GPGGA,171012,2451.1362,N,08026.4207,W,1,9,1.7,8,M,,M,,*6A
06/08/2014	17:10:12.776	$GPGGA,171013,2451.1376,N,08026.4212,W,1,9,1.7,8,M,,M,,*6A
06/08/2014	17:10:13.795	$GPGGA,171014,2451.1390,N,08026.4217,W,1,9,1.7,7,M,,M,,*6F
06/08/2014	17:10:14.914	$GPGGA,171015,2451.1402,N,08026.4223,W,1,9,1.7,7,M,,M,,*65
06/08/2014	17:10:15.822	$GPGGA,171016,2451.1416,N,08026.4227,W,1,9,1.7,7,M,,M,,*67
06/08/2014	17:10:16.811	$GPGGA,171017,2451.1430,N,08026.4234,W,1,9,1.7,7,M,,M,,*60
06/08/2014	17:10:17.910	$GPGGA,171018,2451.1444,N,08026.4238,W,1,9,1.7,7,M,,M,,*60
06/08/2014	17:10:18.939	$GPGGA,171019,2451.1456,N,08026.4243,W,1,9,1.7,7,M,,M,,*6E
06/08/2014	17:10:19.952	$GPGGA,171020,2451.1470,N,08026.4249,W,1,9,1.7,7,M,,M,,*6A
06/08/2014	17:10:20.925	$GPGGA,171021,2451.1484,N,08026.4254,W,1,9,1.7,7,M,,M,,*6C
06/08/2014	17:10:21.944	$GPGGA,171022,2451.1496,N,08026.4260,W,1,9,1.7,7,M,,M,,*6B
06/08/2014	17:10:22.953	$GPGGA,171023,2451.1510,N,08026.4266,W,1,9,1.7,7,M,,M,,*63
06/08/2014	17:10:23.961	$GPGGA,171024,2451.1524,N,08026.4270,W,1,9,1.7,7,M,,M,,*64
06/08/2014	17:10:24.970	$GPGGA,171025,2451.1536,N,08026.4277,W,1,9,1.7,7,M,,M,,*61
06/08/2014	17:10:25.959	$GPGGA,171026,2451.1550,N,08026.4281,W,1,9,1.7,7,M,,M,,*6B
06/08/2014	17:10:26.998	$GPGGA,171027,2451.1564,N,08026.4288,W,1,9,1.7,7,M,,M,,*64
06/08/2014	17:10:27.986	$GPGGA,171028,2451.1577,N,08026.4292,W,1,9,1.7,7,M,,M,,*62
06/08/2014	17:10:28.995	$GPGGA,171029,2451.1590,N,08026.4297,W,1,9,1.5,7,M,,M,,*6D
06/08/2014	17:10:29.993	$GPGGA,171030,2451.1603,N,08026.4303,W,1,9,1.5,7,M,,M,,*60
06/08/2014	17:10:31.012	$GPGGA,171031,2451.1617,N,08026.4308,W,1,10,1.5,7,M,,M,,*57
06/08/2014	17:10:32.021	$GPGGA,171032,2451.1629,N,08026.4314,W,1,10,1.5,7,M,,M,,*54
06/08/2014	17:10:32.999	$GPGGA,171033,2451.1643,N,08026.4318,W,1,10,1.5,7,M,,M,,*55
06/08/2014	17:10:34.018	$GPGGA,171034,2451.1655,N,08026.4324,W,1,10,1.5,7,M,,M,,*5A
06/08/2014	17:10:35.058	$GPGGA,171035,2451.1669,N,08026.4328,W,1,10,1.5,7,M,,M,,*58
06/08/2014	17:10:36.057	$GPGGA,171036,2451.1683,N,08026.4335,W,1,10,1.5,7,M,,M,,*53
06/08/2014	17:10:37.064	$GPGGA,171037,2451.1695,N,08026.4339,W,1,10,1.5,7,M,,M,,*59
06/08/2014	17:10:38.052	$GPGGA,171038,2451.1709,N,08026.4344,W,1,10,1.5,7,M,,M,,*58
06/08/2014	17:10:38.551	$GPGGA,171039,2451.1720,N,08026.4350,W,1,10,1.5,7,M,,M,,*57
06/08/2014	17:10:39.559	$GPGGA,171040,2451.1734,N,08026.4355,W,1,10,1.5,7,M,,M,,*59
06/08/2014	17:10:40.538	$GPGGA,171041,2451.1748,N,08026.4361,W,1,10,1.5,7,M,,M,,*54
06/08/2014	17:10:41.537	$GPGGA,171042,2451.1760,N,08026.4365,W,1,10,1.5,7,M,,M,,*59
06/08/2014	17:10:42.596	$GPGGA,171043,2451.1773,N,08026.4371,W,1,10,1.5,7,M,,M,,*5F
06/08/2014	17:10:43.584	$GPGGA,171044,2451.1785,N,08026.4376,W,1,10,1.5,7,M,,M,,*56
06/08/2014	17:10:44.613	$GPGGA,171045,2451.1799,N,08026.4382,W,1,10,1.5,7,M,,M,,*51
06/08/2014	17:10:45.581	$GPGGA,171046,2451.1812,N,08026.4389,W,1,10,1.5,7,M,,M,,*55
06/08/2014	17:10:46.610	$GPGGA,171047,2451.1824,N,08026.4393,W,1,10,1.5,7,M,,M,,*5A
06/08/2014	17:10:47.619	$GPGGA,171048,2451.1838,N,08026.4398,W,1,10,1.5,8,M,,M,,*5C
06/08/2014	17:10:48.587	$GPGGA,171049,2451.1850,N,08026.4404,W,1,10,1.5,8,M,,M,,*51
06/08/2014	17:10:49.617	$GPGGA,171050,2451.1864,N,08026.4411,W,1,10,1.5,8,M,,M,,*5A
06/08/2014	17:10:50.737	$GPGGA,171051,2451.1877,N,08026.4415,W,1,10,1.5,8,M,,M,,*5D
06/08/2014	17:10:51.644	$GPGGA,171052,2451.1889,N,08026.4422,W,1,10,1.5,8,M,,M,,*5B
06/08/2014	17:10:52.612	$GPGGA,171053,2451.1903,N,08026.4427,W,1,10,1.5,8,M,,M,,*5C
06/08/2014	17:10:53.631	$GPGGA,171054,2451.1915,N,08026.4433,W,1,10,1.5,8,M,,M,,*59
06/08/2014	17:10:54.639	$GPGGA,171055,2451.1929,N,08026.4438,W,1,10,1.5,8,M,,M,,*5C
06/08/2014	17:10:55.758	$GPGGA,171056,2451.1940,N,08026.4444,W,1,10,1.5,8,M,,M,,*5B
06/08/2014	17:10:56.777	$GPGGA,171057,2451.1954,N,08026.4451,W,1,10,1.5,8,M,,M,,*5B
06/08/2014	17:10:57.665	$GPGGA,171058,2451.1967,N,08026.4456,W,1,10,1.5,8,M,,M,,*53
06/08/2014	17:10:58.663	$GPGGA,171059,2451.1980,N,08026.4462,W,1,10,1.5,8,M,,M,,*5C
06/08/2014	17:10:59.783	$GPGGA,171100,2451.1993,N,08026.4467,W,1,10,1.5,8,M,,M,,*56
06/08/2014	17:11:00.698	$GPGGA,171101,2451.2005,N,08026.4473,W,1,10,1.5,8,M,,M,,*57
06/08/2014	17:11:01.782	$GPGGA,171102,2451.2019,N,08026.4480,W,1,10,1.5,8,M,,M,,*55
06/08/2014	17:11:02.809	$GPGGA,171103,2451.2033,N,08026.4484,W,1,10,1.5,8,M,,M,,*58
06/08/2014	17:11:03.799	$GPGGA,171104,2451.2045,N,08026.4491,W,1,10,1.5,8,M,,M,,*5A
06/08/2014	17:11:04.796	$GPGGA,171105,2451.2059,N,08026.4496,W,1,10,1.5,9,M,,M,,*50
06/08/2014	17:11:05.805	$GPGGA,171106,2451.2072,N,08026.4502,W,1,10,1.5,9,M,,M,,*56
06/08/2014	17:11:06.830	$GPGGA,171107,2451.2085,N,08026.4508,W,1,10,1.5,9,M,,M,,*55
06/08/2014	17:11:07.838	$GPGGA,171108,2451.2098,N,08026.4513,W,1,10,1.5,9,M,,M,,*5C
06/08/2014	17:11:08.803	$GPGGA,171109,2451.2112,N,08026.4520,W,1,10,1.5,9,M,,M,,*5E
06/08/2014	17:11:09.807	$GPGGA,171110,2451.2124,N,08026.4524,W,1,10,1.5,9,M,,M,,*57
06/08/2014	17:11:10.832	$GPGGA,171111,2451.2139,N,08026.4530,W,1,10,1.5,9,M,,M,,*5F
06/08/2014	17:11:11.838	$GPGGA,171112,2451.2152,N,08026.4535,W,1,10,1.5,9,M,,M,,*54
06/08/2014	17:11:12.831	$GPGGA,171113,2451.2166,N,08026.4541,W,1,10,1.5,9,M,,M,,*51
06/08/2014	17:11:13.826	$GPGGA,171114,2451.2178,N,08026.4546,W,1,10,1.5,9,M,,M,,*5E
06/08/2014	17:11:14.850	$GPGGA,171115,2451.2192,N,08026.4552,W,1,10,1.5,9,M,,M,,*5E
06/08/2014	17:11:15.845	$GPGGA,171116,2451.2206,N,08026.4557,W,1,10,1.5,9,M,,M,,*56
06/08/2014	17:11:16.850	$GPGGA,171117,2451.2218,N,08026.4563,W,1,10,1.5,9,M,,M,,*5F
06/08/2014	17:11:17.835	$GPGGA,171118,2451.2233,N,08026.4567,W,1,10,1.5,9,M,,M,,*5D
06/08/2014	17:11:18.870	$GPGGA,171119,2451.2246,N,08026.4574,W,1,10,1.5,9,M,,M,,*5C
06/08/2014	17:11:19.854	$GPGGA,171120,2451.2258,N,08026.4578,W,1,10,1.5,9,M,,M,,*55
06/08/2014	17:11:20.879	$GPGGA,171121,2451.2272,N,08026.4585,W,1,10,1.5,9,M,,M,,*5E
06/08/2014	17:11:21.854	$GPGGA,171122,2451.2286,N,08026.4589,W,1,10,1.5,9,M,,M,,*5A
06/08/2014	17:11:22.879	$GPGGA,171123,2451.2298,N,08026.4595,W,1,10,1.5,9,M,,M,,*59
06/08/2014	17:11:23.864	$GPGGA,171124,2451.2312,N,08026.4599,W,1,10,1.5,9,M,,M,,*51
06/08/2014	17:11:24.878	$GPGGA,171125,2451.2325,N,08026.4606,W,1,10,1.5,9,M,,M,,*51
06/08/2014	17:11:25.863	$GPGGA,171126,2451.2338,N,08026.4610,W,1,10,1.5,9,M,,M,,*59
06/08/2014	17:11:26.898	$GPGGA,171127,2451.2352,N,08026.4617,W,1,10,1.5,9,M,,M,,*53
06/08/2014	17:11:27.873	$GPGGA,171128,2451.2366,N,08026.4621,W,1,10,1.5,9,M,,M,,*5E
06/08/2014	17:11:28.857	$GPGGA,171129,2451.2379,N,08026.4626,W,1,10,1.5,9,M,,M,,*56
06/08/2014	17:11:29.881	$GPGGA,171130,2451.2392,N,08026.4632,W,1,10,1.5,9,M,,M,,*5E
06/08/2014	17:11:30.896	$GPGGA,171131,2451.2406,N,08026.4637,W,1,10,1.5,9,M,,M,,*50
06/08/2014	17:11:31.881	$GPGGA,171132,2451.2419,N,08026.4643,W,1,10,1.5,9,M,,M,,*5E
06/08/2014	17:11:32.896	$GPGGA,171133,2451.2431,N,08026.4650,W,1,10,1.5,9,M,,M,,*57
06/08/2014	17:11:33.870	$GPGGA,171134,2451.2446,N,08026.4654,W,1,10,1.5,9,M,,M,,*54
06/08/2014	17:11:34.996	$GPGGA,171135,2451.2459,N,08026.4660,W,1,10,1.5,9,M,,M,,*5C
06/08/2014	17:11:35.900	$GPGGA,171136,2451.2471,N,08026.4665,W,1,10,1.5,9,M,,M,,*50
06/08/2014	17:11:36.895	$GPGGA,171137,2451.2485,N,08026.4671,W,1,10,1.5,9,M,,M,,*5F
06/08/2014	17:11:37.984	$GPGGA,171138,2451.2499,N,08026.4676,W,1,10,1.5,9,M,,M,,*5A
06/08/2014	17:11:38.609	$GPGGA,171139,2451.2511,N,08026.4682,W,1,10,1.5,9,M,,M,,*51
06/08/2014	17:11:39.524	$GPGGA,171140,2451.2525,N,08026.4687,W,1,10,1.5,9,M,,M,,*5D
06/08/2014	17:11:40.629	$GPGGA,171141,2451.2539,N,08026.4693,W,1,10,1.5,9,M,,M,,*54
06/08/2014	17:11:41.493	$GPGGA,171142,2451.2551,N,08026.4698,W,1,10,1.5,9,M,,M,,*52
06/08/2014	17:11:42.639	$GPGGA,171143,2451.2565,N,08026.4704,W,1,10,1.5,9,M,,M,,*50
06/08/2014	17:11:43.533	$GPGGA,171144,2451.2578,N,08026.4709,W,1,10,1.5,9,M,,M,,*56
06/08/2014	17:11:44.528	$GPGGA,171145,2451.2592,N,08026.4716,W,1,10,1.5,9,M,,M,,*5D
06/08/2014	17:11:45.603	$GPGGA,171146,2451.2605,N,08026.4720,W,1,10,1.7,9,M,,M,,*54
06/08/2014	17:11:46.608	$GPGGA,171147,2451.2618,N,08026.4727,W,1,10,1.5,9,M,,M,,*5C
06/08/2014	17:11:47.629	$GPGGA,171148,2451.2633,N,08026.4734,W,1,10,1.7,9,M,,M,,*5A
06/08/2014	17:11:48.626	$GPGGA,171149,2451.2645,N,08026.4738,W,1,10,1.5,9,M,,M,,*54
06/08/2014	17:11:49.621	$GPGGA,171150,2451.2658,N,08026.4743,W,1,10,1.5,9,M,,M,,*5C
06/08/2014	17:11:50.626	$GPGGA,171151,2451.2670,N,08026.4748,W,1,10,1.5,9,M,,M,,*5C
06/08/2014	17:11:51.641	$GPGGA,171152,2451.2684,N,08026.4755,W,1,10,1.5,9,M,,M,,*58
