Software Version Number: 1	Data File Format Number: 1	Build Version Number: 1	Error Count Since VI Started: 0	Manufacturer: Raytheon	 Model Number: RayMarine 120	 S/N: 	 Cal Date: 	 Wind Direction Offset: 0.00	 Slope (M)1: 0.00	 Offset (B)1: 0.00	 Slope (M)2: 0.00	 Offset (B)2: 0.00	 Slope (M)3: 0.00	 Offset (B)3: 0.00	 Slope (M)4: 0.00	 Offset (B)4: 0.00	 Slope (M)5: 0.00	 Offset (B)5: 0.00	 Slope (M)6: 0.00	 Offset (B)6: 0.00
Computer Date	Computer Time	GGA String
06/14/2014	18:00:00.095	$GPGGA,180009,2504.4050,N,08011.3349,W,1,10,1.6,18,M,,M,,*68
06/14/2014	18:00:01.080	$GPGGA,180010,2504.4074,N,08011.3329,W,1,10,1.6,18,M,,M,,*60
06/14/2014	18:00:02.370	$GPGGA,180011,2504.4097,N,08011.3305,W,1,10,1.6,18,M,,M,,*62
06/14/2014	18:00:03.242	$GPGGA,180012,2504.4118,N,08011.3281,W,1,10,1.6,18,M,,M,,*6A
06/14/2014	18:00:04.145	$GPGGA,180013,2504.4140,N,08011.3261,W,1,10,1.6,18,M,,M,,*68
06/14/2014	18:00:05.431	$GPGGA,180014,2504.4165,N,08011.3238,W,1,10,1.6,18,M,,M,,*64
06/14/2014	18:00:06.135	$GPGGA,180015,2504.4186,N,08011.3214,W,1,10,1.6,18,M,,M,,*66
06/14/2014	18:00:07.277	$GPGGA,180016,2504.4208,N,08011.3193,W,1,10,1.6,18,M,,M,,*6C
06/14/2014	18:00:08.292	$GPGGA,180017,2504.4231,N,08011.3170,W,1,10,1.6,18,M,,M,,*6A
06/14/2014	18:00:09.277	$GPGGA,180018,2504.4254,N,08011.3147,W,1,10,1.6,18,M,,M,,*62
06/14/2014	18:00:10.301	$GPGGA,180019,2504.4276,N,08011.3125,W,1,10,1.6,18,M,,M,,*67
06/14/2014	18:00:11.208	$GPGGA,180020,2504.4299,N,08011.3102,W,1,10,1.6,18,M,,M,,*69
06/14/2014	18:00:12.210	$GPGGA,180021,2504.4321,N,08011.3080,W,1,10,1.6,18,M,,M,,*61
06/14/2014	18:00:13.325	$GPGGA,180022,2504.4345,N,08011.3058,W,1,10,1.6,18,M,,M,,*65
06/14/2014	18:00:14.360	$GPGGA,180023,2504.4367,N,08011.3035,W,1,10,1.6,18,M,,M,,*6F
06/14/2014	18:00:15.371	$GPGGA,180024,2504.4389,N,08011.3013,W,1,10,1.6,18,M,,M,,*6C
06/14/2014	18:00:16.382	$GPGGA,180025,2504.4411,N,08011.2990,W,1,10,1.6,18,M,,M,,*68
06/14/2014	18:00:17.374	$GPGGA,180026,2504.4433,N,08011.2968,W,1,10,1.6,18,M,,M,,*6C
06/14/2014	18:00:18.411	$GPGGA,180027,2504.4458,N,08011.2946,W,1,10,1.6,18,M,,M,,*6C
06/14/2014	18:00:19.420	$GPGGA,180028,2504.4480,N,08011.2923,W,1,10,1.6,18,M,,M,,*65
06/14/2014	18:00:20.431	$GPGGA,180029,2504.4501,N,08011.2900,W,1,10,1.6,18,M,,M,,*6D
06/14/2014	18:00:21.433	$GPGGA,180030,2504.4525,N,08011.2878,W,1,10,1.6,18,M,,M,,*6D
06/14/2014	18:00:22.463	$GPGGA,180031,2504.4548,N,08011.2857,W,1,10,1.6,18,M,,M,,*6A
06/14/2014	18:00:23.463	$GPGGA,180032,2504.4570,N,08011.2834,W,1,10,1.6,18,M,,M,,*67
06/14/2014	18:00:24.488	$GPGGA,180033,2504.4592,N,08011.2811,W,1,10,1.6,18,M,,M,,*6D
06/14/2014	18:00:25.471	$GPGGA,180034,2504.4616,N,08011.2789,W,1,10,1.6,18,M,,M,,*6B
06/14/2014	18:00:26.528	$GPGGA,180035,2504.4639,N,08011.2766,W,1,10,1.6,18,M,,M,,*66
06/14/2014	18:00:27.521	$GPGGA,180036,2504.4661,N,08011.2745,W,1,10,1.6,18,M,,M,,*69
06/14/2014	18:00:28.516	$GPGGA,180037,2504.4685,N,08011.2723,W,1,10,1.6,18,M,,M,,*62
06/14/2014	18:00:29.541	$GPGGA,180038,2504.4707,N,08011.2700,W,1,10,1.6,18,M,,M,,*67
06/14/2014	18:00:30.567	$GPGGA,180039,2504.4729,N,08011.2678,W,1,10,1.6,18,M,,M,,*64
06/14/2014	18:00:31.560	$GPGGA,180040,2504.4753,N,08011.2656,W,1,10,1.6,18,M,,M,,*6B
06/14/2014	18:00:32.585	$GPGGA,180041,2504.4776,N,08011.2633,W,1,10,1.6,18,M,,M,,*6E
06/14/2014	18:00:33.590	$GPGGA,180042,2504.4798,N,08011.2610,W,1,10,1.6,18,M,,M,,*6C
06/14/2014	18:00:34.605	$GPGGA,180043,2504.4819,N,08011.2588,W,1,10,1.6,18,M,,M,,*69
06/14/2014	18:00:35.619	$GPGGA,180044,2504.4843,N,08011.2565,W,1,10,1.6,18,M,,M,,*62
06/14/2014	18:00:36.624	$GPGGA,180045,2504.4866,N,08011.2542,W,1,10,1.6,18,M,,M,,*61
06/14/2014	18:00:37.618	$GPGGA,180046,2504.4888,N,08011.2520,W,1,10,1.6,18,M,,M,,*66
06/14/2014	18:00:38.695	$GPGGA,180047,2504.4910,N,08011.2497,W,1,10,1.6,17,M,,M,,*65
06/14/2014	18:00:39.668	$GPGGA,180048,2504.4932,N,08011.2474,W,1,10,1.6,17,M,,M,,*67
06/14/2014	18:00:39.482	$GPGGA,180049,2504.4955,N,08011.2451,W,1,10,1.6,17,M,,M,,*60
06/14/2014	18:00:40.477	$GPGGA,180050,2504.4978,N,08011.2428,W,1,10,1.6,17,M,,M,,*69
06/14/2014	18:00:41.491	$GPGGA,180051,2504.5002,N,08011.2406,W,1,10,1.6,17,M,,M,,*61
06/14/2014	18:00:42.546	$GPGGA,180052,2504.5022,N,08011.2382,W,1,10,1.6,17,M,,M,,*6B
06/14/2014	18:00:43.541	$GPGGA,180053,2504.5046,N,08011.2359,W,1,10,1.6,17,M,,M,,*6E
06/14/2014	18:00:44.525	$GPGGA,180054,2504.5069,N,08011.2338,W,1,10,1.6,17,M,,M,,*63
06/14/2014	18:00:45.561	$GPGGA,180055,2504.5090,N,08011.2314,W,1,10,1.6,17,M,,M,,*6A
06/14/2014	18:00:46.555	$GPGGA,180056,2504.5112,N,08011.2290,W,1,10,1.6,17,M,,M,,*6F
06/14/2014	18:00:47.590	$GPGGA,180057,2504.5136,N,08011.2268,W,1,10,1.6,16,M,,M,,*6E
06/14/2014	18:00:48.665	$GPGGA,180058,2504.5159,N,08011.2246,W,1,10,1.6,16,M,,M,,*64
06/14/2014	18:00:49.589	$GPGGA,180059,2504.5180,N,08011.2222,W,1,10,1.6,16,M,,M,,*63
06/14/2014	18:00:50.644	$GPGGA,180100,2504.5204,N,08011.2200,W,1,10,1.6,16,M,,M,,*61
06/14/2014	18:00:51.700	$GPGGA,180101,2504.5226,N,08011.2178,W,1,10,1.6,16,M,,M,,*6C
06/14/2014	18:00:52.633	$GPGGA,180102,2504.5249,N,08011.2154,W,1,10,1.6,16,M,,M,,*68
06/14/2014	18:00:53.668	$GPGGA,180103,2504.5271,N,08011.2133,W,1,10,1.6,16,M,,M,,*63
06/14/2014	18:00:54.754	$GPGGA,180104,2504.5293,N,08011.2109,W,1,10,1.6,16,M,,M,,*61
06/14/2014	18:00:55.779	$GPGGA,180105,2504.5316,N,08011.2086,W,1,10,1.6,16,M,,M,,*6A
06/14/2014	18:00:56.763	$GPGGA,180106,2504.5339,N,08011.2064,W,1,10,1.6,16,M,,M,,*68
06/14/2014	18:00:57.829	$GPGGA,180107,2504.5361,N,08011.2040,W,1,10,1.6,16,M,,M,,*62
06/14/2014	18:00:58.731	$GPGGA,180108,2504.5383,N,08011.2017,W,1,10,1.6,15,M,,M,,*60
06/14/2014	18:00:59.726	$GPGGA,180109,2504.5407,N,08011.1994,W,1,10,1.6,15,M,,M,,*6B
06/14/2014	18:01:00.823	$GPGGA,180110,2504.5429,N,08011.1973,W,1,10,1.6,15,M,,M,,*66
06/14/2014	18:01:01.877	$GPGGA,180111,2504.5452,N,08011.1948,W,1,10,1.6,15,M,,M,,*63
06/14/2014	18:01:02.861	$GPGGA,180112,2504.5473,N,08011.1925,W,1,10,1.6,15,M,,M,,*68
06/14/2014	18:01:03.778	$GPGGA,180113,2504.5495,N,08011.1904,W,1,10,1.6,15,M,,M,,*62
06/14/2014	18:01:04.881	$GPGGA,180114,2504.5519,N,08011.1881,W,1,10,1.6,15,M,,M,,*6C
06/14/2014	18:01:05.875	$GPGGA,180115,2504.5540,N,08011.1857,W,1,10,1.6,15,M,,M,,*6A
06/14/2014	18:01:06.921	$GPGGA,180116,2504.5562,N,08011.1834,W,1,10,1.6,15,M,,M,,*6C
06/14/2014	18:01:07.946	$GPGGA,180117,2504.5585,N,08011.1812,W,1,10,1.6,15,M,,M,,*60
06/14/2014	18:01:08.920	$GPGGA,180118,2504.5607,N,08011.1788,W,1,10,1.6,15,M,,M,,*6A
06/14/2014	18:01:09.955	$GPGGA,180119,2504.5628,N,08011.1765,W,1,10,1.6,15,M,,M,,*65
06/14/2014	18:01:10.970	$GPGGA,180120,2504.5650,N,08011.1742,W,1,10,1.6,15,M,,M,,*65
06/14/2014	18:01:11.954	$GPGGA,180121,2504.5672,N,08011.1718,W,1,10,1.6,15,M,,M,,*6B
06/14/2014	18:01:12.969	$GPGGA,180122,2504.5694,N,08011.1696,W,1,10,1.6,15,M,,M,,*67
06/14/2014	18:01:14.005	$GPGGA,180123,2504.5718,N,08011.1672,W,1,10,1.6,15,M,,M,,*69
06/14/2014	18:01:15.019	$GPGGA,180124,2504.5739,N,08011.1649,W,1,10,1.6,15,M,,M,,*65
06/14/2014	18:01:16.034	$GPGGA,180125,2504.5761,N,08011.1626,W,1,10,1.6,15,M,,M,,*60
06/14/2014	18:01:17.017	$GPGGA,180126,2504.5784,N,08011.1603,W,1,10,1.6,15,M,,M,,*6F
06/14/2014	18:01:18.032	$GPGGA,180127,2504.5805,N,08011.1581,W,1,10,1.6,15,M,,M,,*61
06/14/2014	18:01:19.057	$GPGGA,180128,2504.5827,N,08011.1557,W,1,10,1.6,15,M,,M,,*65
06/14/2014	18:01:20.082	$GPGGA,180129,2504.5851,N,08011.1534,W,1,10,1.6,15,M,,M,,*60
06/14/2014	18:01:21.076	$GPGGA,180130,2504.5873,N,08011.1513,W,1,10,1.6,15,M,,M,,*6D
06/14/2014	18:01:22.111	$GPGGA,180131,2504.5895,N,08011.1489,W,1,10,1.6,15,M,,M,,*66
06/14/2014	18:01:23.116	$GPGGA,180132,2504.5916,N,08011.1465,W,1,10,1.6,15,M,,M,,*6D
06/14/2014	18:01:24.159	$GPGGA,180133,2504.5939,N,08011.1444,W,1,10,1.6,15,M,,M,,*62
06/14/2014	18:01:25.116	$GPGGA,180134,2504.5961,N,08011.1422,W,1,10,1.6,15,M,,M,,*68
06/14/2014	18:01:26.170	$GPGGA,180135,2504.5983,N,08011.1398,W,1,10,1.6,15,M,,M,,*63
06/14/2014	18:01:27.165	$GPGGA,180136,2504.6007,N,08011.1376,W,1,10,1.6,15,M,,M,,*66
06/14/2014	18:01:28.200	$GPGGA,180137,2504.6030,N,08011.1354,W,1,10,1.6,15,M,,M,,*63
06/14/2014	18:01:29.184	$GPGGA,180138,2504.6051,N,08011.1330,W,1,10,1.6,15,M,,M,,*69
06/14/2014	18:01:30.209	$GPGGA,180139,2504.6073,N,08011.1307,W,1,10,1.6,15,M,,M,,*6C
06/14/2014	18:01:31.224	$GPGGA,180140,2504.6097,N,08011.1285,W,1,10,1.6,15,M,,M,,*63
06/14/2014	18:01:32.219	$GPGGA,180141,2504.6120,N,08011.1263,W,1,10,1.6,15,M,,M,,*67
06/14/2014	18:01:33.223	$GPGGA,180142,2504.6142,N,08011.1239,W,1,10,1.6,15,M,,M,,*6F
06/14/2014	18:01:34.278	$GPGGA,180143,2504.6165,N,08011.1216,W,1,10,1.6,15,M,,M,,*66
06/14/2014	18:01:35.272	$GPGGA,180144,2504.6188,N,08011.1194,W,1,10,1.6,15,M,,M,,*6B
06/14/2014	18:01:36.287	$GPGGA,180145,2504.6210,N,08011.1172,W,1,10,1.6,15,M,,M,,*60
06/14/2014	18:01:37.292	$GPGGA,180146,2504.6232,N,08011.1148,W,1,10,1.6,15,M,,M,,*6A
06/14/2014	18:01:38.418	$GPGGA,180147,2504.6254,N,08011.1126,W,1,10,1.6,15,M,,M,,*63
06/14/2014	18:01:39.341	$GPGGA,180148,2504.6278,N,08011.1105,W,1,10,1.6,15,M,,M,,*63
06/14/2014	18:01:39.550	$GPGGA,180149,2504.6300,N,08011.1081,W,1,10,1.6,15,M,,M,,*61
06/14/2014	18:01:40.454	$GPGGA,180150,2504.6322,N,08011.1059,W,1,10,1.6,15,M,,M,,*6C
06/14/2014	18:01:41.489	$GPGGA,180151,2504.6344,N,08011.1037,W,1,10,1.6,15,M,,M,,*65
06/14/2014	18:01:42.493	$GPGGA,180152,2504.6368,N,08011.1014,W,1,10,1.6,15,M,,M,,*69
06/14/2014	18:01:43.579	$GPGGA,180153,2504.6390,N,08011.0991,W,1,10,1.6,15,M,,M,,*6A
06/14/2014	18:01:44.503	$GPGGA,180154,2504.6413,N,08011.0968,W,1,10,1.6,15,M,,M,,*67
06/14/2014	18:01:45.528	$GPGGA,180155,2504.6436,N,08011.0946,W,1,10,1.6,15,M,,M,,*6D
06/14/2014	18:01:46.542	$GPGGA,180156,2504.6459,N,08011.0924,W,1,10,1.6,15,M,,M,,*63
06/14/2014	18:01:47.669	$GPGGA,180157,2504.6481,N,08011.0901,W,1,10,1.6,15,M,,M,,*60
06/14/2014	18:01:48.549	$GPGGA,180158,2504.6505,N,08011.0879,W,1,10,1.6,15,M,,M,,*6C
06/14/2014	18:01:49.688	$GPGGA,180159,2504.6527,N,08011.0857,W,1,10,1.6,15,M,,M,,*61
06/14/2014	18:01:50.693	$GPGGA,180200,2504.6549,N,08011.0834,W,1,10,1.6,15,M,,M,,*63
06/14/2014	18:01:51.686	$GPGGA,180201,2504.6572,N,08011.0811,W,1,10,1.6,15,M,,M,,*6D
06/14/2014	18:01:52.600	$GPGGA,180202,2504.6595,N,08011.0790,W,1,10,1.6,15,M,,M,,*61
06/14/2014	18:01:53.736	$GPGGA,180203,2504.6618,N,08011.0768,W,1,10,1.6,15,M,,M,,*61
06/14/2014	18:01:54.741	$GPGGA,180204,2504.6640,N,08011.0744,W,1,10,1.6,15,M,,M,,*65
06/14/2014	18:01:55.736	$GPGGA,180205,2504.6662,N,08011.0721,W,1,10,1.6,15,M,,M,,*67
06/14/2014	18:01:56.750	$GPGGA,180206,2504.6684,N,08011.0700,W,1,10,1.6,15,M,,M,,*6F
06/14/2014	18:01:57.765	$GPGGA,180207,2504.6708,N,08011.0677,W,1,10,1.6,15,M,,M,,*6A
06/14/2014	18:01:58.790	$GPGGA,180208,2504.6730,N,08011.0655,W,1,10,1.6,15,M,,M,,*6E
06/14/2014	18:01:59.774	$GPGGA,180209,2504.6754,N,08011.0633,W,1,9,2.7,15,M,,M,,*57
06/14/2014	18:02:00.789	$GPGGA,180210,2504.6777,N,08011.0610,W,1,9,1.6,15,M,,M,,*5D
06/14/2014	18:02:01.814	$GPGGA,180211,2504.6799,N,08011.0588,W,1,10,1.6,15,M,,M,,*66
06/14/2014	18:02:02.839	$GPGGA,180212,2504.6821,N,08011.0565,W,1,10,1.6,15,M,,M,,*6A
06/14/2014	18:02:03.854	$GPGGA,180213,2504.6846,N,08011.0543,W,1,10,1.6,15,M,,M,,*6E
06/14/2014	18:02:04.859	$GPGGA,180214,2504.6870,N,08011.0521,W,1,10,1.6,15,M,,M,,*68
06/14/2014	18:02:05.853	$GPGGA,180215,2504.6893,N,08011.0498,W,1,10,1.6,15,M,,M,,*67
06/14/2014	18:02:06.878	$GPGGA,180216,2504.6915,N,08011.0476,W,1,10,1.6,16,M,,M,,*68
06/14/2014	18:02:07.914	$GPGGA,180217,2504.6940,N,08011.0454,W,1,10,1.6,16,M,,M,,*69
06/14/2014	18:02:08.896	$GPGGA,180218,2504.6962,N,08011.0431,W,1,10,1.6,16,M,,M,,*65
06/14/2014	18:02:09.942	$GPGGA,180219,2504.6984,N,08011.0409,W,1,10,1.6,16,M,,M,,*67
06/14/2014	18:02:10.936	$GPGGA,180220,2504.7008,N,08011.0386,W,1,10,1.6,16,M,,M,,*61
06/14/2014	18:02:11.931	$GPGGA,180221,2504.7030,N,08011.0364,W,1,10,1.6,16,M,,M,,*67
06/14/2014	18:02:12.957	$GPGGA,180222,2504.7054,N,08011.0341,W,1,10,1.6,16,M,,M,,*61
06/14/2014	18:02:13.981	$GPGGA,180223,2504.7077,N,08011.0318,W,1,10,1.6,16,M,,M,,*6D
06/14/2014	18:02:14.995	$GPGGA,180224,2504.7099,N,08011.0295,W,1,10,1.6,16,M,,M,,*6E
06/14/2014	18:02:16.020	$GPGGA,180225,2504.7121,N,08011.0273,W,1,10,1.6,16,M,,M,,*65
06/14/2014	18:02:17.006	$GPGGA,180226,2504.7145,N,08011.0251,W,1,10,1.6,16,M,,M,,*64
06/14/2014	18:02:18.050	$GPGGA,180227,2504.7167,N,08011.0227,W,1,10,1.6,17,M,,M,,*65
06/14/2014	18:02:19.034	$GPGGA,180228,2504.7188,N,08011.0203,W,1,10,1.6,17,M,,M,,*6D
06/14/2014	18:02:20.069	$GPGGA,180229,2504.7211,N,08011.0181,W,1,10,1.6,17,M,,M,,*66
06/14/2014	18:02:21.064	$GPGGA,180230,2504.7233,N,08011.0158,W,1,10,1.6,17,M,,M,,*6A
06/14/2014	18:02:22.170	$GPGGA,180231,2504.7255,N,08011.0134,W,1,10,1.6,17,M,,M,,*61
06/14/2014	18:02:23.083	$GPGGA,180232,2504.7278,N,08011.0111,W,1,10,1.6,17,M,,M,,*6A
06/14/2014	18:02:24.098	$GPGGA,180233,2504.7300,N,08011.0088,W,1,10,1.6,17,M,,M,,*64
06/14/2014	18:02:25.124	$GPGGA,180234,2504.7322,N,08011.0065,W,1,10,1.6,17,M,,M,,*60
06/14/2014	18:02:26.229	$GPGGA,180235,2504.7344,N,08011.0042,W,1,10,1.6,17,M,,M,,*64
06/14/2014	18:02:27.152	$GPGGA,180236,2504.7366,N,08011.0019,W,1,10,1.6,17,M,,M,,*69
06/14/2014	18:02:28.141	$GPGGA,180237,2504.7388,N,08010.9995,W,1,10,1.6,17,M,,M,,*6D
06/14/2014	18:02:29.273	$GPGGA,180238,2504.7410,N,08010.9972,W,1,10,1.6,17,M,,M,,*6D
06/14/2014	18:02:30.186	$GPGGA,180239,2504.7431,N,08010.9949,W,1,10,1.6,17,M,,M,,*67
06/14/2014	18:02:31.201	$GPGGA,180240,2504.7453,N,08010.9926,W,1,10,1.6,17,M,,M,,*64
06/14/2014	18:02:32.204	$GPGGA,180241,2504.7475,N,08010.9902,W,1,10,1.6,17,M,,M,,*67
06/14/2014	18:02:33.202	$GPGGA,180242,2504.7496,N,08010.9878,W,1,10,1.6,17,M,,M,,*65
06/14/2014	18:02:34.216	$GPGGA,180243,2504.7518,N,08010.9855,W,1,10,1.6,17,M,,M,,*6C
06/14/2014	18:02:35.361	$GPGGA,180244,2504.7542,N,08010.9833,W,1,10,1.6,17,M,,M,,*64
06/14/2014	18:02:36.350	$GPGGA,180245,2504.7562,N,08010.9809,W,1,10,1.6,17,M,,M,,*6E
06/14/2014	18:02:37.262	$GPGGA,180246,2504.7583,N,08010.9784,W,1,10,1.6,17,M,,M,,*68
06/14/2014	18:02:38.277	$GPGGA,180247,2504.7607,N,08010.9762,W,1,10,1.6,17,M,,M,,*6E
06/14/2014	18:02:39.400	$GPGGA,180248,2504.7630,N,08010.9738,W,1,10,1.6,17,M,,M,,*6A
06/14/2014	18:02:39.529	$GPGGA,180249,2504.7650,N,08010.9714,W,1,10,1.6,17,M,,M,,*63
06/14/2014	18:02:40.514	$GPGGA,180250,2504.7670,N,08010.9691,W,1,10,1.6,17,M,,M,,*65
06/14/2014	18:02:41.569	$GPGGA,180251,2504.7695,N,08010.9668,W,1,10,1.6,16,M,,M,,*68
06/14/2014	18:02:42.559	$GPGGA,180252,2504.7717,N,08010.9647,W,1,10,1.6,16,M,,M,,*6D
06/14/2014	18:02:43.569	$GPGGA,180253,2504.7741,N,08010.9622,W,1,11,1.4,16,M,,M,,*6F
06/14/2014	18:02:44.572	$GPGGA,180254,2504.7764,N,08010.9600,W,1,11,1.4,16,M,,M,,*6F
06/14/2014	18:02:45.576	$GPGGA,180255,2504.7789,N,08010.9579,W,1,11,1.4,16,M,,M,,*60
06/14/2014	18:02:46.601	$GPGGA,180256,2504.7811,N,08010.9556,W,1,11,1.4,17,M,,M,,*61
06/14/2014	18:02:47.628	$GPGGA,180257,2504.7832,N,08010.9532,W,1,11,1.4,17,M,,M,,*63
06/14/2014	18:02:48.611	$GPGGA,180258,2504.7857,N,08010.9511,W,1,11,1.4,17,M,,M,,*6E
06/14/2014	18:02:49.625	$GPGGA,180259,2504.7880,N,08010.9488,W,1,11,1.4,17,M,,M,,*64
06/14/2014	18:02:50.683	$GPGGA,180300,2504.7903,N,08010.9464,W,1,11,1.4,17,M,,M,,*61
06/14/2014	18:02:51.675	$GPGGA,180301,2504.7925,N,08010.9442,W,1,11,1.4,17,M,,M,,*60
06/14/2014	18:02:52.670	$GPGGA,180302,2504.7950,N,08010.9420,W,1,11,1.4,17,M,,M,,*65
06/14/2014	18:02:53.716	$GPGGA,180303,2504.7972,N,08010.9397,W,1,11,1.4,18,M,,M,,*60
06/14/2014	18:02:54.699	$GPGGA,180304,2504.7992,N,08010.9374,W,1,11,1.4,18,M,,M,,*64
06/14/2014	18:02:55.734	$GPGGA,180305,2504.8017,N,08010.9352,W,1,11,1.4,18,M,,M,,*6A
06/14/2014	18:02:56.729	$GPGGA,180306,2504.8041,N,08010.9330,W,1,11,1.4,18,M,,M,,*6E
06/14/2014	18:02:57.734	$GPGGA,180307,2504.8063,N,08010.9306,W,1,11,1.4,18,M,,M,,*6A
06/14/2014	18:02:58.770	$GPGGA,180308,2504.8085,N,08010.9284,W,1,11,1.4,18,M,,M,,*66
06/14/2014	18:02:59.773	$GPGGA,180309,2504.8109,N,08010.9262,W,1,11,1.4,18,M,,M,,*6A
06/14/2014	18:03:00.768	$GPGGA,180310,2504.8131,N,08010.9239,W,1,11,1.4,18,M,,M,,*67
06/14/2014	18:03:01.782	$GPGGA,180311,2504.8154,N,08010.9216,W,1,11,1.4,18,M,,M,,*68
06/14/2014	18:03:02.817	$GPGGA,180312,2504.8176,N,08010.9193,W,1,11,1.4,18,M,,M,,*65
06/14/2014	18:03:03.811	$GPGGA,180313,2504.8201,N,08010.9170,W,1,11,1.4,18,M,,M,,*6A
06/14/2014	18:03:04.836	$GPGGA,180314,2504.8225,N,08010.9149,W,1,11,1.4,18,M,,M,,*61
06/14/2014	18:03:05.871	$GPGGA,180315,2504.8248,N,08010.9126,W,1,11,1.4,18,M,,M,,*62
06/14/2014	18:03:06.866	$GPGGA,180316,2504.8270,N,08010.9103,W,1,11,1.4,18,M,,M,,*6D
06/14/2014	18:03:07.860	$GPGGA,180317,2504.8294,N,08010.9081,W,1,11,1.4,18,M,,M,,*6D
06/14/2014	18:03:08.885	$GPGGA,180318,2504.8317,N,08010.9060,W,1,11,1.4,19,M,,M,,*66
06/14/2014	18:03:10.075	$GPGGA,180319,2504.8340,N,08010.9036,W,1,11,1.4,19,M,,M,,*66
06/14/2014	18:03:10.925	$GPGGA,180320,2504.8363,N,08010.9014,W,1,11,1.4,19,M,,M,,*6D
06/14/2014	18:03:11.930	$GPGGA,180321,2504.8387,N,08010.8992,W,1,11,1.4,19,M,,M,,*60
06/14/2014	18:03:12.934	$GPGGA,180322,2504.8410,N,08010.8970,W,1,11,1.4,19,M,,M,,*66
06/14/2014	18:03:14.133	$GPGGA,180323,2504.8432,N,08010.8947,W,1,11,1.4,19,M,,M,,*63
06/14/2014	18:03:14.974	$GPGGA,180324,2504.8456,N,08010.8925,W,1,11,1.4,19,M,,M,,*62
06/14/2014	18:03:15.958	$GPGGA,180325,2504.8479,N,08010.8903,W,1,11,1.4,19,M,,M,,*6A
06/14/2014	18:03:16.983	$GPGGA,180326,2504.8503,N,08010.8881,W,1,11,1.4,19,M,,M,,*6E
06/14/2014	18:03:17.978	$GPGGA,180327,2504.8526,N,08010.8858,W,1,11,1.4,19,M,,M,,*6C
06/14/2014	18:03:19.164	$GPGGA,180328,2504.8548,N,08010.8836,W,1,11,1.6,19,M,,M,,*61
06/14/2014	18:03:20.245	$GPGGA,180329,2504.8573,N,08010.8815,W,1,11,1.4,19,M,,M,,*6B
06/14/2014	18:03:21.042	$GPGGA,180330,2504.8598,N,08010.8794,W,1,11,1.4,19,M,,M,,*60
06/14/2014	18:03:22.036	$GPGGA,180331,2504.8620,N,08010.8771,W,1,11,1.4,19,M,,M,,*6A
06/14/2014	18:03:23.168	$GPGGA,180332,2504.8644,N,08010.8749,W,1,11,1.4,19,M,,M,,*60
06/14/2014	18:03:24.272	$GPGGA,180333,2504.8667,N,08010.8727,W,1,11,1.4,19,M,,M,,*68
06/14/2014	18:03:25.178	$GPGGA,180334,2504.8692,N,08010.8705,W,1,11,1.4,19,M,,M,,*65
06/14/2014	18:03:26.304	$GPGGA,180335,2504.8714,N,08010.8683,W,1,11,1.6,19,M,,M,,*66
06/14/2014	18:03:27.242	$GPGGA,180336,2504.8736,N,08010.8659,W,1,11,1.6,19,M,,M,,*62
06/14/2014	18:03:28.339	$GPGGA,180337,2504.8760,N,08010.8637,W,1,11,1.4,20,M,,M,,*60
06/14/2014	18:03:29.251	$GPGGA,180338,2504.8783,N,08010.8617,W,1,11,1.4,20,M,,M,,*60
06/14/2014	18:03:30.337	$GPGGA,180339,2504.8804,N,08010.8593,W,1,11,1.4,20,M,,M,,*6E
06/14/2014	18:03:31.291	$GPGGA,180340,2504.8826,N,08010.8570,W,1,11,1.4,20,M,,M,,*6D
06/14/2014	18:03:32.357	$GPGGA,180341,2504.8851,N,08010.8549,W,1,11,1.4,20,M,,M,,*66
06/14/2014	18:03:33.309	$GPGGA,180342,2504.8873,N,08010.8527,W,1,11,1.4,20,M,,M,,*6D
06/14/2014	18:03:34.396	$GPGGA,180343,2504.8895,N,08010.8503,W,1,11,1.4,20,M,,M,,*62
06/14/2014	18:03:35.340	$GPGGA,180344,2504.8916,N,08010.8480,W,1,11,1.4,20,M,,M,,*65
06/14/2014	18:03:36.375	$GPGGA,180345,2504.8940,N,08010.8458,W,1,11,1.4,20,M,,M,,*62
06/14/2014	18:03:37.328	$GPGGA,180346,2504.8962,N,08010.8435,W,1,11,1.4,20,M,,M,,*6A
06/14/2014	18:03:38.454	$GPGGA,180347,2504.8984,N,08010.8412,W,1,11,1.4,20,M,,M,,*66
06/14/2014	18:03:39.392	$GPGGA,180348,2504.9007,N,08010.8390,W,1,11,1.4,20,M,,M,,*67
06/14/2014	18:03:39.547	$GPGGA,180349,2504.9028,N,08010.8367,W,1,11,1.4,20,M,,M,,*63
06/14/2014	18:03:40.491	$GPGGA,180350,2504.9050,N,08010.8343,W,1,11,1.4,20,M,,M,,*62
06/14/2014	18:03:41.597	$GPGGA,180351,2504.9072,N,08010.8321,W,1,11,1.4,20,M,,M,,*67
06/14/2014	18:03:42.568	$GPGGA,180352,2504.9095,N,08010.8298,W,1,11,1.4,20,M,,M,,*6E
06/14/2014	18:03:43.596	$GPGGA,180353,2504.9117,N,08010.8275,W,1,11,1.4,20,M,,M,,*67
06/14/2014	18:03:44.600	$GPGGA,180354,2504.9137,N,08010.8253,W,1,11,1.4,20,M,,M,,*66
06/14/2014	18:03:45.636	$GPGGA,180355,2504.9160,N,08010.8228,W,1,11,1.4,20,M,,M,,*69
06/14/2014	18:03:46.624	$GPGGA,180356,2504.9182,N,08010.8206,W,1,11,1.4,20,M,,M,,*6A
06/14/2014	18:03:47.666	$GPGGA,180357,2504.9205,N,08010.8184,W,1,11,1.4,20,M,,M,,*6E
06/14/2014	18:03:48.620	$GPGGA,180358,2504.9226,N,08010.8160,W,1,11,1.4,20,M,,M,,*6A
06/14/2014	18:03:49.705	$GPGGA,180359,2504.9247,N,08010.8138,W,1,11,1.4,20,M,,M,,*61
06/14/2014	18:03:50.674	$GPGGA,180400,2504.9270,N,08010.8115,W,1,11,1.4,20,M,,M,,*61
06/14/2014	18:03:51.735	$GPGGA,180401,2504.9292,N,08010.8092,W,1,11,1.4,20,M,,M,,*62
06/14/2014	18:03:52.638	$GPGGA,180402,2504.9314,N,08010.8068,W,1,11,1.4,20,M,,M,,*6B
06/14/2014	18:03:53.764	$GPGGA,180403,2504.9335,N,08010.8045,W,1,11,1.4,20,M,,M,,*66
06/14/2014	18:03:54.707	$GPGGA,180404,2504.9357,N,08010.8022,W,1,11,1.4,20,M,,M,,*64
06/14/2014	18:03:55.763	$GPGGA,180405,2504.9379,N,08010.8000,W,1,11,1.4,19,M,,M,,*63
06/14/2014	18:03:56.737	$GPGGA,180406,2504.9400,N,08010.7976,W,1,11,1.4,19,M,,M,,*6E
06/14/2014	18:03:57.792	$GPGGA,180407,2504.9422,N,08010.7953,W,1,11,1.4,19,M,,M,,*68
06/14/2014	18:03:58.768	$GPGGA,180408,2504.9444,N,08010.7931,W,1,11,1.4,19,M,,M,,*63
06/14/2014	18:03:59.731	$GPGGA,180409,2504.9468,N,08010.7908,W,1,11,1.4,19,M,,M,,*66
06/14/2014	18:04:00.786	$GPGGA,180410,2504.9489,N,08010.7884,W,1,11,1.4,19,M,,M,,*64
06/14/2014	18:04:01.882	$GPGGA,180411,2504.9509,N,08010.7860,W,1,11,1.4,19,M,,M,,*66
06/14/2014	18:04:02.816	$GPGGA,180412,2504.9533,N,08010.7838,W,1,11,1.4,19,M,,M,,*61
06/14/2014	18:04:03.881	$GPGGA,180413,2504.9556,N,08010.7815,W,1,11,1.4,19,M,,M,,*6C
06/14/2014	18:04:04.825	$GPGGA,180414,2504.9577,N,08010.7792,W,1,11,1.4,19,M,,M,,*68
06/14/2014	18:04:05.819	$GPGGA,180415,2504.9599,N,08010.7768,W,1,11,1.4,19,M,,M,,*6C
06/14/2014	18:04:06.834	$GPGGA,180416,2504.9621,N,08010.7746,W,1,11,1.4,19,M,,M,,*63
06/14/2014	18:04:07.836	$GPGGA,180417,2504.9645,N,08010.7724,W,1,11,1.4,19,M,,M,,*64
06/14/2014	18:04:08.950	$GPGGA,180418,2504.9666,N,08010.7700,W,1,11,1.4,19,M,,M,,*6C
06/14/2014	18:04:10.011	$GPGGA,180419,2504.9688,N,08010.7676,W,1,11,1.4,19,M,,M,,*6D
06/14/2014	18:04:10.995	$GPGGA,180420,2504.9711,N,08010.7655,W,1,11,1.4,19,M,,M,,*67
06/14/2014	18:04:11.995	$GPGGA,180421,2504.9733,N,08010.7632,W,1,11,1.4,19,M,,M,,*67
06/14/2014	18:04:12.942	$GPGGA,180422,2504.9754,N,08010.7608,W,1,11,1.4,19,M,,M,,*6C
06/14/2014	18:04:14.059	$GPGGA,180423,2504.9776,N,08010.7585,W,1,11,1.4,19,M,,M,,*6B
06/14/2014	18:04:15.041	$GPGGA,180424,2504.9800,N,08010.7562,W,1,11,1.4,19,M,,M,,*6B
06/14/2014	18:04:16.067	$GPGGA,180425,2504.9822,N,08010.7539,W,1,11,1.4,19,M,,M,,*64
06/14/2014	18:04:17.059	$GPGGA,180426,2504.9844,N,08010.7515,W,1,11,1.4,19,M,,M,,*69
06/14/2014	18:04:18.093	$GPGGA,180427,2504.9866,N,08010.7492,W,1,11,1.4,19,M,,M,,*66
06/14/2014	18:04:19.102	$GPGGA,180428,2504.9890,N,08010.7470,W,1,11,1.4,19,M,,M,,*6C
06/14/2014	18:04:20.141	$GPGGA,180429,2504.9912,N,08010.7447,W,1,11,1.4,19,M,,M,,*62
06/14/2014	18:04:21.123	$GPGGA,180430,2504.9934,N,08010.7423,W,1,11,1.4,19,M,,M,,*6C
06/14/2014	18:04:22.177	$GPGGA,180431,2504.9957,N,08010.7401,W,1,11,1.4,19,M,,M,,*68
06/14/2014	18:04:23.134	$GPGGA,180432,2504.9980,N,08010.7378,W,1,11,1.4,19,M,,M,,*68
06/14/2014	18:04:24.188	$GPGGA,180433,2505.0002,N,08010.7355,W,1,11,1.4,19,M,,M,,*6D
06/14/2014	18:04:25.162	$GPGGA,180434,2505.0025,N,08010.7333,W,1,11,1.4,19,M,,M,,*6F
06/14/2014	18:04:26.203	$GPGGA,180435,2505.0047,N,08010.7310,W,1,11,1.4,19,M,,M,,*6B
06/14/2014	18:04:27.234	$GPGGA,180436,2505.0069,N,08010.7286,W,1,11,1.4,19,M,,M,,*6A
06/14/2014	18:04:28.221	$GPGGA,180437,2505.0093,N,08010.7264,W,1,11,1.4,20,M,,M,,*68
06/14/2014	18:04:29.198	$GPGGA,180438,2505.0116,N,08010.7242,W,1,11,1.4,20,M,,M,,*6F
06/14/2014	18:04:30.244	$GPGGA,180439,2505.0139,N,08010.7220,W,1,10,1.4,20,M,,M,,*66
06/14/2014	18:04:31.248	$GPGGA,180440,2505.0162,N,08010.7197,W,1,10,1.4,20,M,,M,,*69
06/14/2014	18:04:32.263	$GPGGA,180441,2505.0162,N,08010.7197,W,1,11,1.4,20,M,,M,,*69
06/14/2014	18:04:33.258	$GPGGA,180442,2505.0208,N,08010.7152,W,1,11,1.4,20,M,,M,,*6C
06/14/2014	18:04:34.333	$GPGGA,180443,2505.0230,N,08010.7129,W,1,11,1.4,20,M,,M,,*6A
06/14/2014	18:04:35.297	$GPGGA,180444,2505.0253,N,08010.7107,W,1,11,1.4,20,M,,M,,*64
06/14/2014	18:04:36.351	$GPGGA,180445,2505.0275,N,08010.7085,W,1,11,1.4,20,M,,M,,*6A
06/14/2014	18:04:37.317	$GPGGA,180446,2505.0299,N,08010.7063,W,1,11,1.4,20,M,,M,,*63
06/14/2014	18:04:38.369	$GPGGA,180447,2505.0322,N,08010.7040,W,1,11,1.4,20,M,,M,,*62
06/14/2014	18:04:39.367	$GPGGA,180448,2505.0345,N,08010.7018,W,1,11,1.4,20,M,,M,,*61
06/14/2014	18:04:39.464	$GPGGA,180449,2505.0345,N,08010.7018,W,1,11,1.4,20,M,,M,,*60
06/14/2014	18:04:40.530	$GPGGA,180450,2505.0390,N,08010.6973,W,1,11,1.4,20,M,,M,,*65
06/14/2014	18:04:41.504	$GPGGA,180451,2505.0390,N,08010.6973,W,1,11,1.4,20,M,,M,,*64
06/14/2014	18:04:42.519	$GPGGA,180452,2505.0437,N,08010.6929,W,1,11,1.4,20,M,,M,,*62
06/14/2014	18:04:43.513	$GPGGA,180453,2505.0437,N,08010.6929,W,1,11,1.4,20,M,,M,,*63
06/14/2014	18:04:44.640	$GPGGA,180454,2505.0481,N,08010.6883,W,1,11,1.4,20,M,,M,,*68
06/14/2014	18:04:45.676	$GPGGA,180455,2505.0506,N,08010.6863,W,1,11,1.4,20,M,,M,,*69
06/14/2014	18:04:46.557	$GPGGA,180456,2505.0527,N,08010.6840,W,1,11,1.4,20,M,,M,,*68
06/14/2014	18:04:47.612	$GPGGA,180457,2505.0549,N,08010.6816,W,1,11,1.4,20,M,,M,,*62
06/14/2014	18:04:48.576	$GPGGA,180458,2505.0573,N,08010.6795,W,1,11,1.4,20,M,,M,,*60
06/14/2014	18:04:49.611	$GPGGA,180459,2505.0596,N,08010.6773,W,1,11,1.4,20,M,,M,,*62
06/14/2014	18:04:50.646	$GPGGA,180500,2505.0618,N,08010.6749,W,1,11,1.4,20,M,,M,,*63
06/14/2014	18:04:51.631	$GPGGA,180501,2505.0618,N,08010.6749,W,1,11,1.4,20,M,,M,,*62
06/14/2014	18:04:52.716	$GPGGA,180502,2505.0665,N,08010.6704,W,1,11,1.4,20,M,,M,,*62
06/14/2014	18:04:53.772	$GPGGA,180503,2505.0686,N,08010.6681,W,1,11,1.4,20,M,,M,,*62
06/14/2014	18:04:54.662	$GPGGA,180504,2505.0710,N,08010.6659,W,1,11,1.4,20,M,,M,,*6E
06/14/2014	18:04:55.789	$GPGGA,180505,2505.0732,N,08010.6636,W,1,11,1.4,19,M,,M,,*6C
06/14/2014	18:04:56.666	$GPGGA,180506,2505.0754,N,08010.6613,W,1,11,1.4,19,M,,M,,*68
06/14/2014	18:04:57.763	$GPGGA,180507,2505.0777,N,08010.6591,W,1,11,1.4,19,M,,M,,*61
06/14/2014	18:04:58.666	$GPGGA,180508,2505.0799,N,08010.6568,W,1,11,1.4,19,M,,M,,*68
06/14/2014	18:04:59.807	$GPGGA,180509,2505.0822,N,08010.6544,W,1,11,1.4,19,M,,M,,*68
06/14/2014	18:05:00.774	$GPGGA,180510,2505.0844,N,08010.6522,W,1,11,1.4,19,M,,M,,*60
06/14/2014	18:05:01.690	$GPGGA,180511,2505.0844,N,08010.6522,W,1,11,1.4,19,M,,M,,*61
06/14/2014	18:05:02.798	$GPGGA,180512,2505.0889,N,08010.6477,W,1,11,1.4,19,M,,M,,*62
06/14/2014	18:05:03.804	$GPGGA,180513,2505.0910,N,08010.6453,W,1,11,1.4,19,M,,M,,*64
06/14/2014	18:05:04.803	$GPGGA,180514,2505.0934,N,08010.6431,W,1,11,1.4,19,M,,M,,*61
06/14/2014	18:05:05.818	$GPGGA,180515,2505.0956,N,08010.6409,W,1,11,1.4,19,M,,M,,*6F
06/14/2014	18:05:06.815	$GPGGA,180516,2505.0975,N,08010.6384,W,1,11,1.4,19,M,,M,,*6F
06/14/2014	18:05:07.832	$GPGGA,180517,2505.1000,N,08010.6363,W,1,11,1.4,19,M,,M,,*6D
06/14/2014	18:05:08.809	$GPGGA,180518,2505.1022,N,08010.6342,W,1,11,1.4,19,M,,M,,*61
06/14/2014	18:05:09.836	$GPGGA,180519,2505.1044,N,08010.6316,W,1,11,1.4,19,M,,M,,*61
06/14/2014	18:05:10.843	$GPGGA,180520,2505.1066,N,08010.6293,W,1,11,1.4,19,M,,M,,*67
06/14/2014	18:05:11.851	$GPGGA,180521,2505.1090,N,08010.6273,W,1,11,1.4,19,M,,M,,*61
06/14/2014	18:05:12.838	$GPGGA,180522,2505.1112,N,08010.6250,W,1,11,1.4,19,M,,M,,*68
06/14/2014	18:05:13.874	$GPGGA,180523,2505.1133,N,08010.6226,W,1,11,1.4,19,M,,M,,*6B
06/14/2014	18:05:14.861	$GPGGA,180524,2505.1156,N,08010.6205,W,1,11,1.4,19,M,,M,,*6E
06/14/2014	18:05:15.848	$GPGGA,180525,2505.1178,N,08010.6182,W,1,11,1.4,19,M,,M,,*6F
06/14/2014	18:05:16.855	$GPGGA,180526,2505.1199,N,08010.6159,W,1,11,1.4,19,M,,M,,*65
06/14/2014	18:05:17.882	$GPGGA,180527,2505.1223,N,08010.6136,W,1,11,1.4,19,M,,M,,*6F
06/14/2014	18:05:18.879	$GPGGA,180528,2505.1246,N,08010.6114,W,1,11,1.4,19,M,,M,,*63
06/14/2014	18:05:19.866	$GPGGA,180529,2505.1268,N,08010.6090,W,1,11,1.4,18,M,,M,,*62
06/14/2014	18:05:20.873	$GPGGA,180530,2505.1290,N,08010.6068,W,1,11,1.4,18,M,,M,,*6A
06/14/2014	18:05:21.909	$GPGGA,180531,2505.1311,N,08010.6045,W,1,11,1.4,18,M,,M,,*6C
06/14/2014	18:05:22.896	$GPGGA,180532,2505.1335,N,08010.6022,W,1,11,1.4,18,M,,M,,*68
06/14/2014	18:05:23.893	$GPGGA,180533,2505.1357,N,08010.5999,W,1,11,1.4,18,M,,M,,*67
06/14/2014	18:05:24.890	$GPGGA,180534,2505.1379,N,08010.5976,W,1,11,1.4,18,M,,M,,*6D
06/14/2014	18:05:25.897	$GPGGA,180535,2505.1401,N,08010.5953,W,1,11,1.4,18,M,,M,,*63
06/14/2014	18:05:26.924	$GPGGA,180536,2505.1423,N,08010.5932,W,1,11,1.4,18,M,,M,,*67
06/14/2014	18:05:27.921	$GPGGA,180537,2505.1445,N,08010.5909,W,1,11,1.4,18,M,,M,,*6E
06/14/2014	18:05:28.948	$GPGGA,180538,2505.1467,N,08010.5885,W,1,11,1.4,18,M,,M,,*64
06/14/2014	18:05:29.915	$GPGGA,180539,2505.1491,N,08010.5864,W,1,11,1.4,18,M,,M,,*63
06/14/2014	18:05:30.942	$GPGGA,180540,2505.1513,N,08010.5841,W,1,11,1.4,18,M,,M,,*61
06/14/2014	18:05:31.919	$GPGGA,180541,2505.1535,N,08010.5818,W,1,11,1.4,18,M,,M,,*68
06/14/2014	18:05:32.947	$GPGGA,180542,2505.1557,N,08010.5795,W,1,11,1.4,18,M,,M,,*65
06/14/2014	18:05:33.943	$GPGGA,180543,2505.1579,N,08010.5773,W,1,11,1.4,18,M,,M,,*60
06/14/2014	18:05:34.950	$GPGGA,180544,2505.1603,N,08010.5751,W,1,11,1.4,18,M,,M,,*69
06/14/2014	18:05:35.967	$GPGGA,180545,2505.1625,N,08010.5726,W,1,11,1.4,18,M,,M,,*6C
06/14/2014	18:05:36.954	$GPGGA,180546,2505.1647,N,08010.5705,W,1,11,1.4,18,M,,M,,*6A
06/14/2014	18:05:37.981	$GPGGA,180547,2505.1672,N,08010.5683,W,1,11,1.4,18,M,,M,,*62
06/14/2014	18:05:38.977	$GPGGA,180548,2505.1694,N,08010.5660,W,1,11,1.4,18,M,,M,,*68
06/14/2014	18:05:39.551	$GPGGA,180549,2505.1716,N,08010.5638,W,1,11,1.4,18,M,,M,,*6F
06/14/2014	18:05:40.437	$GPGGA,180550,2505.1740,N,08010.5616,W,1,11,1.4,18,M,,M,,*68
06/14/2014	18:05:41.565	$GPGGA,180551,2505.1763,N,08010.5593,W,1,11,1.4,18,M,,M,,*66
06/14/2014	18:05:42.572	$GPGGA,180552,2505.1785,N,08010.5571,W,1,11,1.4,18,M,,M,,*61
06/14/2014	18:05:43.569	$GPGGA,180553,2505.1807,N,08010.5548,W,1,11,1.4,18,M,,M,,*6F
06/14/2014	18:05:44.465	$GPGGA,180554,2505.1831,N,08010.5526,W,1,11,1.4,18,M,,M,,*65
06/14/2014	18:05:45.563	$GPGGA,180555,2505.1853,N,08010.5504,W,1,11,1.4,18,M,,M,,*60
06/14/2014	18:05:46.469	$GPGGA,180556,2505.1875,N,08010.5481,W,1,11,1.4,18,M,,M,,*6B
06/14/2014	18:05:47.486	$GPGGA,180557,2505.1899,N,08010.5459,W,1,11,1.4,18,M,,M,,*6D
06/14/2014	18:05:48.483	$GPGGA,180558,2505.1922,N,08010.5436,W,1,11,1.4,18,M,,M,,*6A
06/14/2014	18:05:49.591	$GPGGA,180559,2505.1944,N,08010.5413,W,1,11,1.4,18,M,,M,,*6C
06/14/2014	18:05:50.608	$GPGGA,180600,2505.1967,N,08010.5390,W,1,11,1.4,18,M,,M,,*6E
06/14/2014	18:05:51.595	$GPGGA,180601,2505.1991,N,08010.5368,W,1,11,1.4,18,M,,M,,*61
06/14/2014	18:05:52.602	$GPGGA,180602,2505.2014,N,08010.5346,W,1,11,1.4,18,M,,M,,*69
06/14/2014	18:05:53.598	$GPGGA,180603,2505.2036,N,08010.5323,W,1,11,1.4,18,M,,M,,*6B
06/14/2014	18:05:54.616	$GPGGA,180604,2505.2059,N,08010.5300,W,1,11,1.4,18,M,,M,,*64
06/14/2014	18:05:55.612	$GPGGA,180605,2505.2083,N,08010.5279,W,1,11,1.4,18,M,,M,,*6D
06/14/2014	18:05:56.618	$GPGGA,180606,2505.2106,N,08010.5256,W,1,11,1.4,18,M,,M,,*6F
06/14/2014	18:05:57.636	$GPGGA,180607,2505.2128,N,08010.5234,W,1,11,1.4,18,M,,M,,*66
06/14/2014	18:05:58.645	$GPGGA,180608,2505.2152,N,08010.5212,W,1,11,1.4,18,M,,M,,*60
06/14/2014	18:05:59.629	$GPGGA,180609,2505.2175,N,08010.5189,W,1,11,1.4,18,M,,M,,*65
06/14/2014	18:06:00.636	$GPGGA,180610,2505.2197,N,08010.5167,W,1,11,1.4,18,M,,M,,*61
06/14/2014	18:06:01.664	$GPGGA,180611,2505.2220,N,08010.5145,W,1,11,1.4,18,M,,M,,*6F
06/14/2014	18:06:02.660	$GPGGA,180612,2505.2243,N,08010.5123,W,1,11,1.4,18,M,,M,,*69
06/14/2014	18:06:03.647	$GPGGA,180613,2505.2265,N,08010.5101,W,1,11,1.4,18,M,,M,,*6C
06/14/2014	18:06:04.654	$GPGGA,180614,2505.2289,N,08010.5079,W,1,11,1.4,18,M,,M,,*67
06/14/2014	18:06:05.681	$GPGGA,180615,2505.2312,N,08010.5056,W,1,11,1.4,18,M,,M,,*68
06/14/2014	18:06:06.668	$GPGGA,180616,2505.2334,N,08010.5033,W,1,11,1.4,18,M,,M,,*6C
06/14/2014	18:06:07.695	$GPGGA,180617,2505.2358,N,08010.5011,W,1,11,1.4,18,M,,M,,*67
06/14/2014	18:06:08.682	$GPGGA,180618,2505.2381,N,08010.4989,W,1,11,1.4,18,M,,M,,*65
06/14/2014	18:06:09.709	$GPGGA,180619,2505.2402,N,08010.4966,W,1,11,1.4,18,M,,M,,*69
06/14/2014	18:06:10.697	$GPGGA,180620,2505.2427,N,08010.4944,W,1,11,1.4,18,M,,M,,*64
06/14/2014	18:06:11.683	$GPGGA,180621,2505.2450,N,08010.4923,W,1,11,1.4,18,M,,M,,*64
06/14/2014	18:06:12.701	$GPGGA,180622,2505.2471,N,08010.4899,W,1,11,1.4,18,M,,M,,*64
06/14/2014	18:06:13.697	$GPGGA,180623,2505.2495,N,08010.4876,W,1,11,1.4,18,M,,M,,*6E
06/14/2014	18:06:14.723	$GPGGA,180624,2505.2518,N,08010.4855,W,1,11,1.4,18,M,,M,,*6C
06/14/2014	18:06:15.740	$GPGGA,180625,2505.2540,N,08010.4833,W,1,11,1.4,18,M,,M,,*60
06/14/2014	18:06:16.717	$GPGGA,180626,2505.2562,N,08010.4809,W,1,11,1.4,19,M,,M,,*6B
06/14/2014	18:06:17.724	$GPGGA,180627,2505.2586,N,08010.4786,W,1,11,1.4,19,M,,M,,*68
06/14/2014	18:06:18.731	$GPGGA,180628,2505.2608,N,08010.4765,W,1,11,1.4,19,M,,M,,*6F
06/14/2014	18:06:19.738	$GPGGA,180629,2505.2632,N,08010.4742,W,1,11,1.4,19,M,,M,,*62
06/14/2014	18:06:20.745	$GPGGA,180630,2505.2652,N,08010.4719,W,1,11,1.4,19,M,,M,,*62
06/14/2014	18:06:21.752	$GPGGA,180631,2505.2676,N,08010.4697,W,1,11,1.4,19,M,,M,,*62
06/14/2014	18:06:22.759	$GPGGA,180632,2505.2699,N,08010.4675,W,1,11,1.4,19,M,,M,,*6C
06/14/2014	18:06:23.867	$GPGGA,180633,2505.2721,N,08010.4652,W,1,11,1.4,19,M,,M,,*6A
06/14/2014	18:06:24.763	$GPGGA,180634,2505.2744,N,08010.4630,W,1,11,1.4,19,M,,M,,*6A
06/14/2014	18:06:25.881	$GPGGA,180635,2505.2766,N,08010.4606,W,1,11,1.4,19,M,,M,,*6E
06/14/2014	18:06:26.778	$GPGGA,180636,2505.2789,N,08010.4585,W,1,11,1.4,19,M,,M,,*64
06/14/2014	18:06:27.764	$GPGGA,180637,2505.2811,N,08010.4562,W,1,11,1.4,19,M,,M,,*62
06/14/2014	18:06:28.872	$GPGGA,180638,2505.2833,N,08010.4539,W,1,11,1.4,19,M,,M,,*63
06/14/2014	18:06:29.889	$GPGGA,180639,2505.2856,N,08010.4516,W,1,11,1.4,19,M,,M,,*6C
06/14/2014	18:06:30.885	$GPGGA,180640,2505.2879,N,08010.4494,W,1,11,1.4,19,M,,M,,*64
06/14/2014	18:06:31.811	$GPGGA,180641,2505.2901,N,08010.4471,W,1,11,1.4,19,M,,M,,*60
06/14/2014	18:06:32.788	$GPGGA,180642,2505.2923,N,08010.4449,W,1,11,1.4,19,M,,M,,*68
06/14/2014	18:06:33.926	$GPGGA,180643,2505.2945,N,08010.4426,W,1,11,1.4,19,M,,M,,*60
06/14/2014	18:06:34.802	$GPGGA,180644,2505.2968,N,08010.4403,W,1,11,1.4,19,M,,M,,*6F
06/14/2014	18:06:35.920	$GPGGA,180645,2505.2991,N,08010.4381,W,1,11,1.4,19,M,,M,,*65
06/14/2014	18:06:36.809	$GPGGA,180646,2505.3013,N,08010.4358,W,1,11,1.4,19,M,,M,,*60
06/14/2014	18:06:37.813	$GPGGA,180647,2505.3034,N,08010.4334,W,1,11,1.4,19,M,,M,,*6E
06/14/2014	18:06:38.840	$GPGGA,180648,2505.3056,N,08010.4312,W,1,11,1.4,19,M,,M,,*61
06/14/2014	18:06:39.519	$GPGGA,180649,2505.3081,N,08010.4290,W,1,11,1.4,19,M,,M,,*61
06/14/2014	18:06:40.526	$GPGGA,180650,2505.3103,N,08010.4266,W,1,11,1.4,19,M,,M,,*6B
06/14/2014	18:06:41.533	$GPGGA,180651,2505.3124,N,08010.4243,W,1,11,1.4,19,M,,M,,*68
06/14/2014	18:06:42.550	$GPGGA,180652,2505.3146,N,08010.4221,W,1,11,1.4,19,M,,M,,*6B
06/14/2014	18:06:43.543	$GPGGA,180653,2505.3171,N,08010.4199,W,1,11,1.4,19,M,,M,,*6E
06/14/2014	18:06:44.533	$GPGGA,180654,2505.3192,N,08010.4175,W,1,11,1.4,19,M,,M,,*66
06/14/2014	18:06:45.553	$GPGGA,180655,2505.3212,N,08010.4151,W,1,11,1.4,19,M,,M,,*6A
06/14/2014	18:06:46.561	$GPGGA,180656,2505.3236,N,08010.4129,W,1,11,1.4,19,M,,M,,*60
06/14/2014	18:06:47.547	$GPGGA,180657,2505.3259,N,08010.4106,W,1,11,1.4,19,M,,M,,*65
06/14/2014	18:06:48.550	$GPGGA,180658,2505.3280,N,08010.4082,W,1,11,1.4,19,M,,M,,*63
06/14/2014	18:06:49.574	$GPGGA,180659,2505.3302,N,08010.4059,W,1,11,1.4,19,M,,M,,*6F
06/14/2014	18:06:50.588	$GPGGA,180700,2505.3326,N,08010.4037,W,1,11,1.4,18,M,,M,,*6D
06/14/2014	18:06:51.561	$GPGGA,180701,2505.3348,N,08010.4013,W,1,11,1.4,18,M,,M,,*62
06/14/2014	18:06:52.568	$GPGGA,180702,2505.3370,N,08010.3990,W,1,11,1.4,18,M,,M,,*6F
06/14/2014	18:06:53.601	$GPGGA,180703,2505.3392,N,08010.3968,W,1,11,1.4,18,M,,M,,*65
06/14/2014	18:06:54.593	$GPGGA,180704,2505.3414,N,08010.3944,W,1,11,1.4,18,M,,M,,*65
06/14/2014	18:06:55.611	$GPGGA,180705,2505.3438,N,08010.3921,W,1,11,1.4,18,M,,M,,*69
06/14/2014	18:06:56.596	$GPGGA,180706,2505.3461,N,08010.3899,W,1,11,1.4,18,M,,M,,*64
06/14/2014	18:06:57.593	$GPGGA,180707,2505.3483,N,08010.3875,W,1,11,1.4,18,M,,M,,*6B
06/14/2014	18:06:58.620	$GPGGA,180708,2505.3505,N,08010.3853,W,1,11,1.4,18,M,,M,,*6F
06/14/2014	18:06:59.597	$GPGGA,180709,2505.3529,N,08010.3831,W,1,11,1.4,18,M,,M,,*64
06/14/2014	18:07:00.615	$GPGGA,180710,2505.3551,N,08010.3807,W,1,11,1.4,18,M,,M,,*66
06/14/2014	18:07:01.653	$GPGGA,180711,2505.3573,N,08010.3785,W,1,11,1.4,18,M,,M,,*62
06/14/2014	18:07:02.648	$GPGGA,180712,2505.3597,N,08010.3763,W,1,11,1.4,18,M,,M,,*63
06/14/2014	18:07:03.615	$GPGGA,180713,2505.3620,N,08010.3740,W,1,11,1.4,18,M,,M,,*6C
06/14/2014	18:07:04.643	$GPGGA,180714,2505.3642,N,08010.3718,W,1,11,1.4,18,M,,M,,*62
06/14/2014	18:07:05.639	$GPGGA,180715,2505.3667,N,08010.3697,W,1,11,1.4,18,M,,M,,*62
06/14/2014	18:07:06.655	$GPGGA,180716,2505.3689,N,08010.3673,W,1,11,1.4,18,M,,M,,*6B
06/14/2014	18:07:07.682	$GPGGA,180717,2505.3710,N,08010.3651,W,1,11,1.4,18,M,,M,,*6B
06/14/2014	18:07:08.798	$GPGGA,180718,2505.3736,N,08010.3630,W,1,11,1.4,18,M,,M,,*67
06/14/2014	18:07:09.903	$GPGGA,180719,2505.3757,N,08010.3608,W,1,11,1.4,18,M,,M,,*6A
06/14/2014	18:07:11.041	$GPGGA,180720,2505.3779,N,08010.3585,W,1,11,1.4,18,M,,M,,*6A
06/14/2014	18:07:12.157	$GPGGA,180721,2505.3804,N,08010.3564,W,1,10,1.4,18,M,,M,,*60
06/14/2014	18:07:13.273	$GPGGA,180722,2505.3828,N,08010.3542,W,1,10,1.4,18,M,,M,,*69
06/14/2014	18:07:14.501	$GPGGA,180723,2505.3850,N,08010.3519,W,1,11,1.4,18,M,,M,,*68
06/14/2014	18:07:15.505	$GPGGA,180724,2505.3872,N,08010.3496,W,1,11,1.4,18,M,,M,,*69
06/14/2014	18:07:16.622	$GPGGA,180725,2505.3895,N,08010.3475,W,1,11,1.4,18,M,,M,,*6C
06/14/2014	18:07:17.715	$GPGGA,180726,2505.3919,N,08010.3453,W,1,11,1.4,18,M,,M,,*6E
06/14/2014	18:07:18.921	$GPGGA,180727,2505.3941,N,08010.3429,W,1,11,1.4,18,M,,M,,*6F
06/14/2014	18:07:19.959	$GPGGA,180728,2505.3963,N,08010.3407,W,1,11,1.4,18,M,,M,,*6C
06/14/2014	18:07:21.075	$GPGGA,180729,2505.3985,N,08010.3385,W,1,11,1.4,18,M,,M,,*68
06/14/2014	18:07:22.181	$GPGGA,180730,2505.4010,N,08010.3363,W,1,11,1.4,18,M,,M,,*6A
06/14/2014	18:07:23.385	$GPGGA,180731,2505.4032,N,08010.3342,W,1,11,1.4,18,M,,M,,*68
06/14/2014	18:07:24.412	$GPGGA,180732,2505.4053,N,08010.3318,W,1,11,1.4,18,M,,M,,*63
06/14/2014	18:07:25.516	$GPGGA,180733,2505.4077,N,08010.3296,W,1,11,1.4,18,M,,M,,*63
06/14/2014	18:07:26.721	$GPGGA,180734,2505.4100,N,08010.3275,W,1,11,1.4,18,M,,M,,*68
06/14/2014	18:07:27.742	$GPGGA,180735,2505.4122,N,08010.3252,W,1,11,1.4,18,M,,M,,*6C
06/14/2014	18:07:28.976	$GPGGA,180736,2505.4144,N,08010.3229,W,1,11,1.4,18,M,,M,,*63
06/14/2014	18:07:30.094	$GPGGA,180737,2505.4168,N,08010.3208,W,1,11,1.4,18,M,,M,,*6F
06/14/2014	18:07:31.186	$GPGGA,180738,2505.4191,N,08010.3186,W,1,11,1.4,18,M,,M,,*63
06/14/2014	18:07:32.313	$GPGGA,180739,2505.4212,N,08010.3161,W,1,11,1.4,18,M,,M,,*63
06/14/2014	18:07:33.429	$GPGGA,180740,2505.4234,N,08010.3138,W,1,11,1.4,18,M,,M,,*65
06/14/2014	18:07:34.534	$GPGGA,180741,2505.4259,N,08010.3117,W,1,11,1.4,18,M,,M,,*62
06/14/2014	18:07:35.640	$GPGGA,180742,2505.4281,N,08010.3094,W,1,11,1.4,18,M,,M,,*6E
06/14/2014	18:07:36.766	$GPGGA,180743,2505.4303,N,08010.3071,W,1,11,1.4,18,M,,M,,*6F
06/14/2014	18:07:37.884	$GPGGA,180744,2505.4324,N,08010.3049,W,1,11,1.4,18,M,,M,,*66
06/14/2014	18:07:39.022	$GPGGA,180745,2505.4348,N,08010.3026,W,1,11,1.4,18,M,,M,,*64
06/14/2014	18:07:40.094	$GPGGA,180746,2505.4371,N,08010.3005,W,1,11,1.4,18,M,,M,,*6C
06/14/2014	18:07:41.233	$GPGGA,180747,2505.4392,N,08010.2981,W,1,11,1.4,18,M,,M,,*64
06/14/2014	18:07:42.338	$GPGGA,180748,2505.4414,N,08010.2957,W,1,11,1.4,18,M,,M,,*69
06/14/2014	18:07:39.532	$GPGGA,180749,2505.4437,N,08010.2936,W,1,11,1.4,18,M,,M,,*6E
06/14/2014	18:07:40.630	$GPGGA,180750,2505.4461,N,08010.2915,W,1,11,1.4,18,M,,M,,*64
06/14/2014	18:07:41.768	$GPGGA,180751,2505.4482,N,08010.2890,W,1,11,1.4,18,M,,M,,*64
06/14/2014	18:07:42.862	$GPGGA,180752,2505.4504,N,08010.2868,W,1,11,1.4,18,M,,M,,*6F
06/14/2014	18:07:43.967	$GPGGA,180753,2505.4527,N,08010.2847,W,1,11,1.4,18,M,,M,,*62
06/14/2014	18:07:45.083	$GPGGA,180754,2505.4549,N,08010.2823,W,1,11,1.4,18,M,,M,,*6F
06/14/2014	18:07:46.223	$GPGGA,180755,2505.4570,N,08010.2800,W,1,11,1.4,18,M,,M,,*65
06/14/2014	18:07:47.315	$GPGGA,180756,2505.4594,N,08010.2778,W,1,11,1.4,18,M,,M,,*6C
06/14/2014	18:07:48.454	$GPGGA,180757,2505.4616,N,08010.2755,W,1,11,1.4,18,M,,M,,*6B
06/14/2014	18:07:49.526	$GPGGA,180758,2505.4637,N,08010.2732,W,1,11,1.4,18,M,,M,,*66
06/14/2014	18:07:50.686	$GPGGA,180759,2505.4660,N,08010.2709,W,1,11,1.4,18,M,,M,,*6D
06/14/2014	18:07:51.791	$GPGGA,180800,2505.4682,N,08010.2686,W,1,11,1.4,18,M,,M,,*64
06/14/2014	18:07:52.873	$GPGGA,180801,2505.4704,N,08010.2663,W,1,11,1.4,18,M,,M,,*61
06/14/2014	18:07:54.001	$GPGGA,180802,2505.4725,N,08010.2641,W,1,11,1.4,18,M,,M,,*61
06/14/2014	18:07:55.099	$GPGGA,180803,2505.4747,N,08010.2618,W,1,11,1.4,18,M,,M,,*68
06/14/2014	18:07:56.233	$GPGGA,180804,2505.4771,N,08010.2595,W,1,11,1.4,18,M,,M,,*6C
06/14/2014	18:07:57.374	$GPGGA,180805,2505.4793,N,08010.2573,W,1,11,1.4,18,M,,M,,*69
06/14/2014	18:07:58.455	$GPGGA,180806,2505.4816,N,08010.2549,W,1,11,1.4,18,M,,M,,*61
06/14/2014	18:07:59.693	$GPGGA,180807,2505.4837,N,08010.2526,W,1,11,1.4,18,M,,M,,*6A
06/14/2014	18:08:00.697	$GPGGA,180808,2505.4861,N,08010.2504,W,1,11,1.4,18,M,,M,,*66
06/14/2014	18:08:01.790	$GPGGA,180809,2505.4884,N,08010.2481,W,1,11,1.4,18,M,,M,,*60
06/14/2014	18:08:02.906	$GPGGA,180810,2505.4905,N,08010.2457,W,1,11,1.4,18,M,,M,,*6B
06/14/2014	18:08:04.033	$GPGGA,180811,2505.4928,N,08010.2435,W,1,11,1.4,18,M,,M,,*61
06/14/2014	18:08:05.272	$GPGGA,180812,2505.4952,N,08010.2413,W,1,11,1.4,18,M,,M,,*6B
06/14/2014	18:08:06.277	$GPGGA,180813,2505.4974,N,08010.2389,W,1,11,1.4,18,M,,M,,*6A
06/14/2014	18:08:07.348	$GPGGA,180814,2505.4996,N,08010.2366,W,1,11,1.4,18,M,,M,,*60
06/14/2014	18:08:08.598	$GPGGA,180815,2505.5018,N,08010.2344,W,1,11,1.4,18,M,,M,,*6F
06/14/2014	18:08:09.603	$GPGGA,180816,2505.5042,N,08010.2321,W,1,11,1.4,18,M,,M,,*60
06/14/2014	18:08:10.842	$GPGGA,180817,2505.5064,N,08010.2298,W,1,11,1.4,18,M,,M,,*66
06/14/2014	18:08:11.824	$GPGGA,180818,2505.5087,N,08010.2275,W,1,11,1.4,18,M,,M,,*67
06/14/2014	18:08:13.063	$GPGGA,180819,2505.5109,N,08010.2253,W,1,11,1.4,18,M,,M,,*65
06/14/2014	18:08:14.053	$GPGGA,180820,2505.5133,N,08010.2231,W,1,11,1.4,18,M,,M,,*62
06/14/2014	18:08:15.295	$GPGGA,180821,2505.5155,N,08010.2208,W,1,11,1.4,18,M,,M,,*69
06/14/2014	18:08:16.377	$GPGGA,180822,2505.5177,N,08010.2185,W,1,11,1.4,18,M,,M,,*6C
06/14/2014	18:08:17.393	$GPGGA,180823,2505.5199,N,08010.2163,W,1,11,1.4,18,M,,M,,*65
06/14/2014	18:08:18.621	$GPGGA,180824,2505.5223,N,08010.2140,W,1,11,1.4,18,M,,M,,*61
06/14/2014	18:08:19.736	$GPGGA,180825,2505.5246,N,08010.2117,W,1,11,1.4,18,M,,M,,*61
06/14/2014	18:08:20.829	$GPGGA,180826,2505.5267,N,08010.2095,W,1,11,1.4,18,M,,M,,*6A
06/14/2014	18:08:21.968	$GPGGA,180827,2505.5292,N,08010.2072,W,1,11,1.4,18,M,,M,,*68
06/14/2014	18:08:23.093	$GPGGA,180828,2505.5314,N,08010.2049,W,1,11,1.4,18,M,,M,,*60
06/14/2014	18:08:24.208	$GPGGA,180829,2505.5336,N,08010.2027,W,1,11,1.4,18,M,,M,,*69
06/14/2014	18:08:25.283	$GPGGA,180830,2505.5360,N,08010.2004,W,1,11,1.4,18,M,,M,,*63
06/14/2014	18:08:26.421	$GPGGA,180831,2505.5382,N,08010.1981,W,1,11,1.4,18,M,,M,,*69
06/14/2014	18:08:27.526	$GPGGA,180832,2505.5405,N,08010.1958,W,1,11,1.4,18,M,,M,,*66
06/14/2014	18:08:28.653	$GPGGA,180833,2505.5428,N,08010.1935,W,1,11,1.4,18,M,,M,,*63
06/14/2014	18:08:29.747	$GPGGA,180834,2505.5451,N,08010.1912,W,1,11,1.4,18,M,,M,,*6F
06/14/2014	18:08:30.886	$GPGGA,180835,2505.5473,N,08010.1891,W,1,11,1.4,18,M,,M,,*64
06/14/2014	18:08:31.990	$GPGGA,180836,2505.5495,N,08010.1866,W,1,11,1.4,18,M,,M,,*67
06/14/2014	18:08:33.102	$GPGGA,180837,2505.5519,N,08010.1843,W,1,11,1.4,17,M,,M,,*6B
06/14/2014	18:08:34.200	$GPGGA,180838,2505.5542,N,08010.1822,W,1,11,1.4,17,M,,M,,*6D
06/14/2014	18:08:35.350	$GPGGA,180839,2505.5564,N,08010.1798,W,1,11,1.4,17,M,,M,,*66
06/14/2014	18:08:36.434	$GPGGA,180840,2505.5585,N,08010.1773,W,1,11,1.4,17,M,,M,,*62
06/14/2014	18:08:37.563	$GPGGA,180841,2505.5609,N,08010.1751,W,1,11,1.4,17,M,,M,,*64
06/14/2014	18:08:38.654	$GPGGA,180842,2505.5632,N,08010.1729,W,1,11,1.4,17,M,,M,,*60
06/14/2014	18:08:39.769	$GPGGA,180843,2505.5654,N,08010.1705,W,1,11,1.4,17,M,,M,,*6F
06/14/2014	18:08:40.897	$GPGGA,180844,2505.5676,N,08010.1681,W,1,11,1.4,17,M,,M,,*65
06/14/2014	18:08:42.047	$GPGGA,180845,2505.5699,N,08010.1658,W,1,11,1.4,17,M,,M,,*61
06/14/2014	18:08:43.106	$GPGGA,180846,2505.5723,N,08010.1637,W,1,11,1.4,17,M,,M,,*6B
06/14/2014	18:08:44.244	$GPGGA,180847,2505.5744,N,08010.1614,W,1,11,1.4,17,M,,M,,*6A
06/14/2014	18:08:45.349	$GPGGA,180848,2505.5766,N,08010.1590,W,1,11,1.4,17,M,,M,,*6A
06/14/2014	18:08:39.513	$GPGGA,180849,2505.5790,N,08010.1567,W,1,11,1.4,17,M,,M,,*6A
06/14/2014	18:08:40.596	$GPGGA,180850,2505.5812,N,08010.1545,W,1,11,1.4,17,M,,M,,*67
06/14/2014	18:08:41.747	$GPGGA,180851,2505.5835,N,08010.1522,W,1,11,1.4,17,M,,M,,*62
06/14/2014	18:08:42.839	$GPGGA,180852,2505.5858,N,08010.1499,W,1,11,1.4,17,M,,M,,*6B
06/14/2014	18:08:43.955	$GPGGA,180853,2505.5878,N,08010.1476,W,1,11,1.4,17,M,,M,,*69
06/14/2014	18:08:45.060	$GPGGA,180854,2505.5902,N,08010.1453,W,1,11,1.4,17,M,,M,,*65
06/14/2014	18:08:46.199	$GPGGA,180855,2505.5925,N,08010.1430,W,1,11,1.4,17,M,,M,,*64
06/14/2014	18:08:47.426	$GPGGA,180856,2505.5947,N,08010.1408,W,1,11,1.4,17,M,,M,,*68
06/14/2014	18:08:48.432	$GPGGA,180857,2505.5970,N,08010.1384,W,1,11,1.4,17,M,,M,,*6E
06/14/2014	18:08:49.514	$GPGGA,180858,2505.5992,N,08010.1360,W,1,11,1.4,17,M,,M,,*67
06/14/2014	18:08:50.663	$GPGGA,180859,2505.6015,N,08010.1338,W,1,11,1.4,17,M,,M,,*6E
06/14/2014	18:08:51.778	$GPGGA,180900,2505.6039,N,08010.1316,W,1,11,1.4,17,M,,M,,*61
06/14/2014	18:08:52.850	$GPGGA,180901,2505.6061,N,08010.1291,W,1,11,1.4,17,M,,M,,*63
06/14/2014	18:08:54.088	$GPGGA,180902,2505.6084,N,08010.1269,W,1,11,1.4,17,M,,M,,*6C
06/14/2014	18:08:55.073	$GPGGA,180903,2505.6106,N,08010.1246,W,1,11,1.4,17,M,,M,,*6B
06/14/2014	18:08:56.220	$GPGGA,180904,2505.6129,N,08010.1222,W,1,11,1.4,17,M,,M,,*63
06/14/2014	18:08:57.314	$GPGGA,180905,2505.6152,N,08010.1199,W,1,11,1.4,17,M,,M,,*6D
06/14/2014	18:08:58.531	$GPGGA,180906,2505.6174,N,08010.1176,W,1,11,1.4,17,M,,M,,*6B
06/14/2014	18:08:59.658	$GPGGA,180907,2505.6198,N,08010.1152,W,1,11,1.4,16,M,,M,,*6F
06/14/2014	18:09:00.696	$GPGGA,180908,2505.6221,N,08010.1131,W,1,11,1.4,16,M,,M,,*64
06/14/2014	18:09:01.778	$GPGGA,180909,2505.6245,N,08010.1108,W,1,11,1.4,16,M,,M,,*6D
06/14/2014	18:09:02.984	$GPGGA,180910,2505.6267,N,08010.1084,W,1,11,1.4,16,M,,M,,*60
06/14/2014	18:09:04.133	$GPGGA,180911,2505.6290,N,08010.1061,W,1,11,1.4,16,M,,M,,*62
06/14/2014	18:09:05.227	$GPGGA,180912,2505.6315,N,08010.1040,W,1,11,1.4,17,M,,M,,*6F
06/14/2014	18:09:06.354	$GPGGA,180913,2505.6336,N,08010.1016,W,1,11,1.4,17,M,,M,,*6C
06/14/2014	18:09:07.459	$GPGGA,180914,2505.6358,N,08010.0993,W,1,11,1.4,17,M,,M,,*66
06/14/2014	18:09:08.587	$GPGGA,180915,2505.6382,N,08010.0972,W,1,11,1.4,17,M,,M,,*6F
06/14/2014	18:09:09.692	$GPGGA,180916,2505.6404,N,08010.0948,W,1,11,1.4,17,M,,M,,*6C
06/14/2014	18:09:10.789	$GPGGA,180917,2505.6427,N,08010.0926,W,1,11,1.4,17,M,,M,,*64
06/14/2014	18:09:11.889	$GPGGA,180918,2505.6451,N,08010.0904,W,1,11,1.4,17,M,,M,,*6A
06/14/2014	18:09:13.028	$GPGGA,180919,2505.6473,N,08010.0879,W,1,11,1.4,17,M,,M,,*60
06/14/2014	18:09:14.138	$GPGGA,180920,2505.6496,N,08010.0858,W,1,11,1.4,17,M,,M,,*62
06/14/2014	18:09:15.282	$GPGGA,180921,2505.6520,N,08010.0835,W,1,11,1.4,17,M,,M,,*64
06/14/2014	18:09:16.342	$GPGGA,180922,2505.6541,N,08010.0811,W,1,11,1.4,17,M,,M,,*66
06/14/2014	18:09:17.492	$GPGGA,180923,2505.6564,N,08010.0789,W,1,11,1.4,17,M,,M,,*6E
06/14/2014	18:09:18.597	$GPGGA,180924,2505.6589,N,08010.0768,W,1,11,1.4,17,M,,M,,*65
06/14/2014	18:09:19.724	$GPGGA,180925,2505.6611,N,08010.0745,W,1,11,1.4,17,M,,M,,*69
06/14/2014	18:09:21.912	$GPGGA,180927,2505.6655,N,08010.0700,W,1,11,1.4,17,M,,M,,*6A
06/14/2014	18:09:23.057	$GPGGA,180928,2505.6680,N,08010.0678,W,1,11,1.4,17,M,,M,,*63
06/14/2014	18:09:24.166	$GPGGA,180929,2505.6702,N,08010.0654,W,1,11,1.4,17,M,,M,,*67
06/14/2014	18:09:25.260	$GPGGA,180930,2505.6723,N,08010.0631,W,1,11,1.4,17,M,,M,,*6F
06/14/2014	18:09:26.366	$GPGGA,180931,2505.6748,N,08010.0609,W,1,11,1.4,17,M,,M,,*68
06/14/2014	18:09:27.505	$GPGGA,180932,2505.6770,N,08010.0586,W,1,11,1.4,17,M,,M,,*64
06/14/2014	18:09:28.636	$GPGGA,180933,2505.6794,N,08010.0564,W,1,11,1.4,17,M,,M,,*63
06/14/2014	18:09:29.713	$GPGGA,180934,2505.6816,N,08010.0541,W,1,11,1.4,17,M,,M,,*66
06/14/2014	18:09:30.864	$GPGGA,180935,2505.6838,N,08010.0518,W,1,11,1.4,18,M,,M,,*68
06/14/2014	18:09:31.957	$GPGGA,180936,2505.6860,N,08010.0496,W,1,11,1.4,18,M,,M,,*61
06/14/2014	18:09:33.100	$GPGGA,180937,2505.6885,N,08010.0473,W,1,11,1.4,18,M,,M,,*60
06/14/2014	18:09:34.165	$GPGGA,180938,2505.6907,N,08010.0451,W,1,11,1.4,18,M,,M,,*64
06/14/2014	18:09:35.282	$GPGGA,180939,2505.6929,N,08010.0427,W,1,11,1.4,18,M,,M,,*68
06/14/2014	18:09:36.420	$GPGGA,180940,2505.6951,N,08010.0403,W,1,11,1.4,18,M,,M,,*6F
06/14/2014	18:09:37.536	$GPGGA,180941,2505.6976,N,08010.0383,W,1,11,1.4,18,M,,M,,*64
06/14/2014	18:09:38.630	$GPGGA,180942,2505.6998,N,08010.0361,W,1,11,1.4,18,M,,M,,*6B
06/14/2014	18:09:39.768	$GPGGA,180943,2505.7020,N,08010.0336,W,1,11,1.4,18,M,,M,,*63
06/14/2014	18:09:40.873	$GPGGA,180944,2505.7043,N,08010.0316,W,1,11,1.4,18,M,,M,,*63
06/14/2014	18:09:42.090	$GPGGA,180945,2505.7066,N,08010.0294,W,1,11,1.4,18,M,,M,,*6E
06/14/2014	18:09:43.070	$GPGGA,180946,2505.7088,N,08010.0270,W,1,11,1.4,18,M,,M,,*67
06/14/2014	18:09:44.233	$GPGGA,180947,2505.7110,N,08010.0248,W,1,11,1.4,18,M,,M,,*6D
06/14/2014	18:09:45.326	$GPGGA,180948,2505.7134,N,08010.0226,W,1,11,1.4,18,M,,M,,*6C
06/14/2014	18:09:39.600	$GPGGA,180949,2505.7157,N,08010.0203,W,1,11,1.4,18,M,,M,,*6F
06/14/2014	18:09:40.573	$GPGGA,180950,2505.7178,N,08010.0180,W,1,11,1.4,18,M,,M,,*62
06/14/2014	18:09:41.700	$GPGGA,180951,2505.7202,N,08010.0157,W,1,11,1.4,18,M,,M,,*67
06/14/2014	18:09:42.938	$GPGGA,180952,2505.7225,N,08010.0135,W,1,11,1.4,18,M,,M,,*65
06/14/2014	18:09:43.919	$GPGGA,180953,2505.7249,N,08010.0114,W,1,11,1.4,18,M,,M,,*6D
06/14/2014	18:09:45.012	$GPGGA,180954,2505.7271,N,08010.0091,W,1,11,1.4,18,M,,M,,*6D
06/14/2014	18:09:46.133	$GPGGA,180955,2505.7291,N,08010.0065,W,1,10,1.4,18,M,,M,,*68
06/14/2014	18:09:47.379	$GPGGA,180956,2505.7316,N,08010.0045,W,1,10,1.4,18,M,,M,,*67
06/14/2014	18:09:48.483	$GPGGA,180957,2505.7338,N,08010.0022,W,1,11,1.4,18,M,,M,,*6A
06/14/2014	18:09:49.600	$GPGGA,180958,2505.7359,N,08009.9998,W,1,11,1.4,18,M,,M,,*6B
06/14/2014	18:09:50.749	$GPGGA,180959,2505.7381,N,08009.9976,W,1,11,1.4,18,M,,M,,*6F
06/14/2014	18:09:51.843	$GPGGA,181000,2505.7406,N,08009.9955,W,1,11,1.5,18,M,,M,,*63
06/14/2014	18:09:52.948	$GPGGA,181001,2505.7428,N,08009.9932,W,1,11,1.4,18,M,,M,,*6E
06/14/2014	18:09:53.941	$GPGGA,181002,2505.7449,N,08009.9909,W,1,11,1.4,18,M,,M,,*62
06/14/2014	18:09:55.160	$GPGGA,181003,2505.7471,N,08009.9886,W,1,11,1.4,18,M,,M,,*6E
06/14/2014	18:09:56.296	$GPGGA,181004,2505.7493,N,08009.9864,W,1,11,1.4,18,M,,M,,*69
06/14/2014	18:09:57.401	$GPGGA,181005,2505.7517,N,08009.9841,W,1,11,1.4,18,M,,M,,*62
06/14/2014	18:09:58.506	$GPGGA,181006,2505.7539,N,08009.9819,W,1,11,1.4,18,M,,M,,*60
06/14/2014	18:09:59.633	$GPGGA,181007,2505.7561,N,08009.9795,W,1,11,1.4,18,M,,M,,*67
06/14/2014	18:10:00.743	$GPGGA,181008,2505.7583,N,08009.9772,W,1,11,1.4,18,M,,M,,*6D
06/14/2014	18:10:01.865	$GPGGA,181009,2505.7607,N,08009.9751,W,1,11,1.4,18,M,,M,,*62
06/14/2014	18:10:02.958	$GPGGA,181010,2505.7629,N,08009.9726,W,1,11,1.4,18,M,,M,,*66
06/14/2014	18:10:04.094	$GPGGA,181011,2505.7648,N,08009.9703,W,1,11,1.4,18,M,,M,,*67
06/14/2014	18:10:05.202	$GPGGA,181012,2505.7673,N,08009.9681,W,1,11,1.4,18,M,,M,,*67
06/14/2014	18:10:06.323	$GPGGA,181013,2505.7695,N,08009.9659,W,1,11,1.4,19,M,,M,,*6A
06/14/2014	18:10:07.411	$GPGGA,181014,2505.7717,N,08009.9635,W,1,11,1.4,19,M,,M,,*6C
06/14/2014	18:10:08.527	$GPGGA,181015,2505.7739,N,08009.9612,W,1,11,1.4,19,M,,M,,*64
06/14/2014	18:10:09.645	$GPGGA,181016,2505.7763,N,08009.9590,W,1,11,1.4,19,M,,M,,*61
06/14/2014	18:10:10.785	$GPGGA,181017,2505.7785,N,08009.9566,W,1,11,1.4,19,M,,M,,*61
06/14/2014	18:10:11.865	$GPGGA,181018,2505.7807,N,08009.9544,W,1,11,1.4,19,M,,M,,*6B
06/14/2014	18:10:13.003	$GPGGA,181019,2505.7829,N,08009.9522,W,1,11,1.4,19,M,,M,,*66
06/14/2014	18:10:14.097	$GPGGA,181020,2505.7850,N,08009.9497,W,1,11,1.4,19,M,,M,,*6D
06/14/2014	18:10:15.235	$GPGGA,181021,2505.7872,N,08009.9474,W,1,11,1.4,19,M,,M,,*61
06/14/2014	18:10:16.318	$GPGGA,181022,2505.7896,N,08009.9453,W,1,11,1.4,19,M,,M,,*6D
06/14/2014	18:10:17.467	$GPGGA,181023,2505.7919,N,08009.9429,W,1,11,1.4,19,M,,M,,*67
06/14/2014	18:10:18.584	$GPGGA,181024,2505.7940,N,08009.9406,W,1,11,1.4,19,M,,M,,*61
06/14/2014	18:10:19.666	$GPGGA,181025,2505.7962,N,08009.9383,W,1,11,1.4,19,M,,M,,*6A
06/14/2014	18:10:20.793	$GPGGA,181026,2505.7984,N,08009.9360,W,1,11,1.4,19,M,,M,,*6C
06/14/2014	18:10:21.887	$GPGGA,181027,2505.8006,N,08009.9337,W,1,11,1.4,19,M,,M,,*63
06/14/2014	18:10:23.037	$GPGGA,181028,2505.8028,N,08009.9314,W,1,11,1.4,19,M,,M,,*61
06/14/2014	18:10:24.176	$GPGGA,181029,2505.8051,N,08009.9291,W,1,11,1.4,19,M,,M,,*62
06/14/2014	18:10:25.246	$GPGGA,181030,2505.8074,N,08009.9268,W,1,11,1.4,19,M,,M,,*6B
06/14/2014	18:10:26.339	$GPGGA,181031,2505.8096,N,08009.9246,W,1,11,1.4,19,M,,M,,*6A
06/14/2014	18:10:27.612	$GPGGA,181032,2505.8118,N,08009.9223,W,1,11,1.4,19,M,,M,,*6D
06/14/2014	18:10:28.572	$GPGGA,181033,2505.8139,N,08009.9199,W,1,11,1.4,19,M,,M,,*6D
06/14/2014	18:10:29.700	$GPGGA,181034,2505.8163,N,08009.9178,W,1,11,1.4,19,M,,M,,*6A
06/14/2014	18:10:30.915	$GPGGA,181035,2505.8186,N,08009.9156,W,1,11,1.4,19,M,,M,,*6C
06/14/2014	18:10:31.931	$GPGGA,181036,2505.8207,N,08009.9132,W,1,11,1.4,19,M,,M,,*67
06/14/2014	18:10:33.025	$GPGGA,181037,2505.8230,N,08009.9110,W,1,11,1.4,19,M,,M,,*62
06/14/2014	18:10:34.152	$GPGGA,181038,2505.8254,N,08009.9089,W,1,11,1.4,19,M,,M,,*6E
06/14/2014	18:10:35.246	$GPGGA,181039,2505.8276,N,08009.9066,W,1,11,1.4,19,M,,M,,*6E
06/14/2014	18:10:36.496	$GPGGA,181040,2505.8298,N,08009.9044,W,1,11,1.4,19,M,,M,,*60
06/14/2014	18:10:37.489	$GPGGA,181041,2505.8322,N,08009.9021,W,1,11,1.4,19,M,,M,,*62
06/14/2014	18:10:38.706	$GPGGA,181042,2505.8345,N,08009.8999,W,1,11,1.4,19,M,,M,,*6B
06/14/2014	18:10:39.855	$GPGGA,181043,2505.8367,N,08009.8977,W,1,11,1.4,19,M,,M,,*6A
06/14/2014	18:10:40.837	$GPGGA,181044,2505.8389,N,08009.8954,W,1,11,1.4,19,M,,M,,*6C
06/14/2014	18:10:42.055	$GPGGA,181045,2505.8413,N,08009.8932,W,1,11,1.4,19,M,,M,,*69
06/14/2014	18:10:43.169	$GPGGA,181046,2505.8436,N,08009.8910,W,1,11,1.4,19,M,,M,,*6D
06/14/2014	18:10:44.173	$GPGGA,181047,2505.8461,N,08009.8890,W,1,11,1.4,19,M,,M,,*67
06/14/2014	18:10:45.401	$GPGGA,181048,2505.8483,N,08009.8867,W,1,11,1.4,19,M,,M,,*6C
06/14/2014	18:10:39.453	$GPGGA,181049,2505.8505,N,08009.8843,W,1,11,1.4,19,M,,M,,*64
06/14/2014	18:10:40.647	$GPGGA,181050,2505.8530,N,08009.8822,W,1,11,1.5,19,M,,M,,*6C
06/14/2014	18:10:41.786	$GPGGA,181051,2505.8555,N,08009.8803,W,1,11,1.4,19,M,,M,,*6C
06/14/2014	18:10:42.902	$GPGGA,181052,2505.8577,N,08009.8779,W,1,11,1.4,19,M,,M,,*6D
06/14/2014	18:10:43.995	$GPGGA,181053,2505.8600,N,08009.8756,W,1,11,1.4,19,M,,M,,*62
06/14/2014	18:10:45.132	$GPGGA,181054,2505.8624,N,08009.8736,W,1,11,1.5,19,M,,M,,*64
06/14/2014	18:10:46.272	$GPGGA,181055,2505.8648,N,08009.8715,W,1,10,1.4,19,M,,M,,*6E
06/14/2014	18:10:47.355	$GPGGA,181056,2505.8669,N,08009.8691,W,1,10,1.4,19,M,,M,,*63
06/14/2014	18:10:48.471	$GPGGA,181057,2505.8691,N,08009.8668,W,1,11,1.4,19,M,,M,,*62
06/14/2014	18:10:49.566	$GPGGA,181058,2505.8714,N,08009.8646,W,1,11,1.4,19,M,,M,,*6D
06/14/2014	18:10:50.703	$GPGGA,181059,2505.8738,N,08009.8624,W,1,11,1.4,19,M,,M,,*66
06/14/2014	18:10:51.819	$GPGGA,181100,2505.8759,N,08009.8600,W,1,11,1.4,19,M,,M,,*6A
06/14/2014	18:10:52.924	$GPGGA,181101,2505.8782,N,08009.8577,W,1,11,1.4,19,M,,M,,*6E
06/14/2014	18:10:54.018	$GPGGA,181102,2505.8806,N,08009.8557,W,1,11,1.4,19,M,,M,,*6C
06/14/2014	18:10:55.155	$GPGGA,181103,2505.8829,N,08009.8534,W,1,11,1.4,19,M,,M,,*65
06/14/2014	18:10:56.271	$GPGGA,181104,2505.8851,N,08009.8511,W,1,11,1.4,19,M,,M,,*6A
06/14/2014	18:10:57.391	$GPGGA,181105,2505.8873,N,08009.8489,W,1,11,1.4,19,M,,M,,*6B
06/14/2014	18:10:58.481	$GPGGA,181106,2505.8898,N,08009.8467,W,1,11,1.4,19,M,,M,,*6D
06/14/2014	18:10:59.609	$GPGGA,181107,2505.8920,N,08009.8444,W,1,11,1.4,19,M,,M,,*6F
06/14/2014	18:11:00.702	$GPGGA,181108,2505.8942,N,08009.8421,W,1,11,1.4,19,M,,M,,*67
06/14/2014	18:11:01.841	$GPGGA,181109,2505.8966,N,08009.8399,W,1,11,1.4,19,M,,M,,*64
06/14/2014	18:11:02.923	$GPGGA,181110,2505.8989,N,08009.8377,W,1,11,1.4,19,M,,M,,*6D
06/14/2014	18:11:04.074	$GPGGA,181111,2505.9012,N,08009.8355,W,1,11,1.4,19,M,,M,,*66
06/14/2014	18:11:05.178	$GPGGA,181112,2505.9035,N,08009.8332,W,1,11,1.4,19,M,,M,,*61
06/14/2014	18:11:06.283	$GPGGA,181113,2505.9057,N,08009.8309,W,1,11,1.4,19,M,,M,,*6C
06/14/2014	18:11:07.377	$GPGGA,181114,2505.9081,N,08009.8287,W,1,11,1.4,19,M,,M,,*67
06/14/2014	18:11:08.504	$GPGGA,181115,2505.9104,N,08009.8266,W,1,11,1.4,19,M,,M,,*65
06/14/2014	18:11:09.620	$GPGGA,181116,2505.9126,N,08009.8243,W,1,11,1.4,19,M,,M,,*61
06/14/2014	18:11:10.725	$GPGGA,181117,2505.9148,N,08009.8219,W,1,11,1.4,19,M,,M,,*67
06/14/2014	18:11:11.852	$GPGGA,181118,2505.9172,N,08009.8197,W,1,11,1.4,19,M,,M,,*64
06/14/2014	18:11:12.968	$GPGGA,181119,2505.9195,N,08009.8176,W,1,11,1.4,19,M,,M,,*63
06/14/2014	18:11:14.262	$GPGGA,181120,2505.9218,N,08009.8153,W,1,11,1.4,19,M,,M,,*68
06/14/2014	18:11:15.177	$GPGGA,181121,2505.9241,N,08009.8130,W,1,11,1.4,19,M,,M,,*60
06/14/2014	18:11:16.316	$GPGGA,181122,2505.9263,N,08009.8107,W,1,11,1.4,19,M,,M,,*67
06/14/2014	18:11:17.420	$GPGGA,181123,2505.9285,N,08009.8084,W,1,11,1.4,19,M,,M,,*64
06/14/2014	18:11:18.726	$GPGGA,181124,2505.9310,N,08009.8063,W,1,11,1.4,18,M,,M,,*66
06/14/2014	18:11:19.822	$GPGGA,181125,2505.9332,N,08009.8039,W,1,11,1.4,18,M,,M,,*68
06/14/2014	18:11:20.746	$GPGGA,181126,2505.9353,N,08009.8015,W,1,11,1.4,18,M,,M,,*62
06/14/2014	18:11:21.885	$GPGGA,181127,2505.9377,N,08009.7993,W,1,11,1.4,18,M,,M,,*6D
06/14/2014	18:11:23.001	$GPGGA,181128,2505.9400,N,08009.7971,W,1,11,1.4,18,M,,M,,*69
06/14/2014	18:11:24.273	$GPGGA,181129,2505.9421,N,08009.7948,W,1,11,1.4,18,M,,M,,*61
06/14/2014	18:11:25.196	$GPGGA,181130,2505.9443,N,08009.7924,W,1,11,1.4,18,M,,M,,*67
06/14/2014	18:11:26.316	$GPGGA,181131,2505.9465,N,08009.7902,W,1,11,1.4,18,M,,M,,*66
06/14/2014	18:11:27.555	$GPGGA,181132,2505.9487,N,08009.7880,W,1,11,1.4,18,M,,M,,*62
06/14/2014	18:11:28.704	$GPGGA,181133,2505.9511,N,08009.7857,W,1,11,1.4,18,M,,M,,*67
06/14/2014	18:11:29.855	$GPGGA,181134,2505.9533,N,08009.7833,W,1,11,1.4,18,M,,M,,*62
06/14/2014	18:11:30.925	$GPGGA,181135,2505.9556,N,08009.7810,W,1,11,1.4,18,M,,M,,*61
06/14/2014	18:11:32.104	$GPGGA,181136,2505.9577,N,08009.7788,W,1,11,1.4,18,M,,M,,*6F
06/14/2014	18:11:33.228	$GPGGA,181137,2505.9601,N,08009.7765,W,1,11,1.4,18,M,,M,,*6F
06/14/2014	18:11:34.306	$GPGGA,181138,2505.9621,N,08009.7742,W,1,11,1.4,18,M,,M,,*67
06/14/2014	18:11:35.422	$GPGGA,181139,2505.9645,N,08009.7719,W,1,11,1.4,18,M,,M,,*6A
06/14/2014	18:11:36.460	$GPGGA,181140,2505.9667,N,08009.7696,W,1,11,1.4,18,M,,M,,*62
06/14/2014	18:11:37.621	$GPGGA,181141,2505.9689,N,08009.7674,W,1,11,1.4,18,M,,M,,*6F
06/14/2014	18:11:38.683	$GPGGA,181142,2505.9711,N,08009.7650,W,1,11,1.4,18,M,,M,,*6A
06/14/2014	18:11:39.831	$GPGGA,181143,2505.9733,N,08009.7626,W,1,11,1.4,18,M,,M,,*6A
06/14/2014	18:11:41.006	$GPGGA,181144,2505.9757,N,08009.7604,W,1,11,1.4,18,M,,M,,*6F
06/14/2014	18:11:42.063	$GPGGA,181145,2505.9780,N,08009.7582,W,1,11,1.4,18,M,,M,,*69
06/14/2014	18:11:43.138	$GPGGA,181146,2505.9801,N,08009.7557,W,1,11,1.4,18,M,,M,,*64
06/14/2014	18:11:44.245	$GPGGA,181147,2505.9823,N,08009.7535,W,1,11,1.4,18,M,,M,,*61
06/14/2014	18:11:45.433	$GPGGA,181148,2505.9847,N,08009.7513,W,1,11,1.4,18,M,,M,,*68
06/14/2014	18:11:39.563	$GPGGA,181149,2505.9870,N,08009.7490,W,1,11,1.4,18,M,,M,,*67
