Software Version Number: 1	Data File Format Number: 1	Build Version Number: 1	Error Count Since VI Started: 0	Manufacturer: Raytheon	 Model Number: RayMarine 120	 S/N: 	 Cal Date: 	 Wind Direction Offset: 0.00	 Slope (M)1: 0.00	 Offset (B)1: 0.00	 Slope (M)2: 0.00	 Offset (B)2: 0.00	 Slope (M)3: 0.00	 Offset (B)3: 0.00	 Slope (M)4: 0.00	 Offset (B)4: 0.00	 Slope (M)5: 0.00	 Offset (B)5: 0.00	 Slope (M)6: 0.00	 Offset (B)6: 0.00
Computer Date	Computer Time	GGA String
05/28/2014	01:00:01.065	$GPGGA,010000,2543.8850,N,08009.7284,W,1,9,1.4,18,M,,M,,*59
05/28/2014	01:00:02.112	$GPGGA,010001,2543.8850,N,08009.7285,W,1,9,1.4,18,M,,M,,*59
05/28/2014	01:00:03.287	$GPGGA,010002,2543.8850,N,08009.7285,W,1,9,1.4,18,M,,M,,*5A
05/28/2014	01:00:04.238	$GPGGA,010003,2543.8850,N,08009.7285,W,1,9,1.4,18,M,,M,,*5B
05/28/2014	01:00:05.306	$GPGGA,010004,2543.8850,N,08009.7285,W,1,9,1.4,18,M,,M,,*5C
05/28/2014	01:00:06.364	$GPGGA,010005,2543.8850,N,08009.7285,W,1,9,1.4,18,M,,M,,*5D
05/28/2014	01:00:07.443	$GPGGA,010006,2543.8850,N,08009.7285,W,1,9,1.4,18,M,,M,,*5E
05/28/2014	01:00:08.607	$GPGGA,010007,2543.8849,N,08009.7285,W,1,9,1.4,18,M,,M,,*57
05/28/2014	01:00:09.581	$GPGGA,010008,2543.8850,N,08009.7285,W,1,9,1.4,18,M,,M,,*50
05/28/2014	01:00:10.648	$GPGGA,010009,2543.8850,N,08009.7285,W,1,9,1.4,18,M,,M,,*51
05/28/2014	01:00:11.705	$GPGGA,010010,2543.8849,N,08009.7285,W,1,9,1.4,18,M,,M,,*51
05/28/2014	01:00:12.774	$GPGGA,010011,2543.8848,N,08009.7285,W,1,8,1.5,18,M,,M,,*51
05/28/2014	01:00:13.938	$GPGGA,010012,2543.8850,N,08009.7285,W,1,8,1.5,18,M,,M,,*5B
05/28/2014	01:00:14.909	$GPGGA,010013,2543.8849,N,08009.7284,W,1,9,1.4,18,M,,M,,*53
05/28/2014	01:00:16.063	$GPGGA,010014,2543.8849,N,08009.7284,W,1,9,1.5,18,M,,M,,*55
05/28/2014	01:00:17.035	$GPGGA,010015,2543.8848,N,08009.7284,W,1,8,1.5,19,M,,M,,*55
05/28/2014	01:00:18.093	$GPGGA,010016,2543.8849,N,08009.7283,W,1,8,1.5,19,M,,M,,*50
05/28/2014	01:00:19.172	$GPGGA,010017,2543.8847,N,08009.7283,W,1,8,1.5,19,M,,M,,*5F
05/28/2014	01:00:20.221	$GPGGA,010018,2543.8848,N,08009.7282,W,1,8,1.7,19,M,,M,,*5C
05/28/2014	01:00:21.298	$GPGGA,010019,2543.8846,N,08009.7284,W,1,7,1.7,19,M,,M,,*5A
05/28/2014	01:00:22.494	$GPGGA,010020,2543.8846,N,08009.7284,W,1,7,1.5,19,M,,M,,*52
05/28/2014	01:00:23.562	$GPGGA,010021,2543.8846,N,08009.7283,W,1,8,1.5,19,M,,M,,*5B
05/28/2014	01:00:24.588	$GPGGA,010022,2543.8846,N,08009.7283,W,1,8,1.7,19,M,,M,,*5A
05/28/2014	01:00:25.678	$GPGGA,010023,2543.8846,N,08009.7282,W,1,7,1.7,19,M,,M,,*55
05/28/2014	01:00:26.767	$GPGGA,010024,2543.8846,N,08009.7283,W,1,7,1.7,19,M,,M,,*53
05/28/2014	01:00:27.804	$GPGGA,010025,2543.8846,N,08009.7282,W,1,7,1.7,19,M,,M,,*53
05/28/2014	01:00:28.851	$GPGGA,010026,2543.8846,N,08009.7283,W,1,7,1.7,19,M,,M,,*51
05/28/2014	01:00:29.940	$GPGGA,010027,2543.8846,N,08009.7281,W,1,7,1.7,19,M,,M,,*52
05/28/2014	01:00:31.009	$GPGGA,010028,2543.8846,N,08009.7283,W,1,7,1.7,19,M,,M,,*5F
05/28/2014	01:00:32.055	$GPGGA,010029,2543.8844,N,08009.7282,W,1,8,1.5,19,M,,M,,*50
05/28/2014	01:00:33.124	$GPGGA,010030,2543.8845,N,08009.7283,W,1,8,1.5,19,M,,M,,*58
05/28/2014	01:00:34.212	$GPGGA,010031,2543.8843,N,08009.7284,W,1,8,1.5,19,M,,M,,*58
05/28/2014	01:00:35.259	$GPGGA,010032,2543.8842,N,08009.7284,W,1,8,1.5,19,M,,M,,*5A
05/28/2014	01:00:36.338	$GPGGA,010033,2543.8842,N,08009.7285,W,1,8,1.5,19,M,,M,,*5A
05/28/2014	01:00:37.396	$GPGGA,010034,2543.8842,N,08009.7285,W,1,8,1.5,19,M,,M,,*5D
05/28/2014	01:00:38.443	$GPGGA,010035,2543.8842,N,08009.7285,W,1,8,1.5,19,M,,M,,*5C
05/28/2014	01:00:39.532	$GPGGA,010036,2543.8840,N,08009.7285,W,1,8,1.5,20,M,,M,,*57
05/28/2014	01:00:40.579	$GPGGA,010037,2543.8841,N,08009.7285,W,1,8,1.5,20,M,,M,,*57
05/28/2014	01:00:41.658	$GPGGA,010038,2543.8840,N,08009.7285,W,1,8,1.5,20,M,,M,,*59
05/28/2014	01:00:38.640	$GPGGA,010039,2543.8839,N,08009.7287,W,1,8,1.5,20,M,,M,,*54
05/28/2014	01:00:39.698	$GPGGA,010040,2543.8839,N,08009.7286,W,1,8,1.5,20,M,,M,,*5B
05/28/2014	01:00:40.745	$GPGGA,010041,2543.8839,N,08009.7287,W,1,8,1.5,20,M,,M,,*5B
05/28/2014	01:00:41.813	$GPGGA,010042,2543.8839,N,08009.7287,W,1,8,1.5,20,M,,M,,*58
05/28/2014	01:00:42.924	$GPGGA,010043,2543.8837,N,08009.7287,W,1,8,1.5,20,M,,M,,*57
05/28/2014	01:00:43.950	$GPGGA,010044,2543.8838,N,08009.7287,W,1,8,1.5,20,M,,M,,*5F
05/28/2014	01:00:45.008	$GPGGA,010045,2543.8836,N,08009.7287,W,1,8,1.5,21,M,,M,,*51
05/28/2014	01:00:46.076	$GPGGA,010046,2543.8837,N,08009.7287,W,1,8,1.5,21,M,,M,,*53
05/28/2014	01:00:47.176	$GPGGA,010047,2543.8836,N,08009.7287,W,1,8,1.5,21,M,,M,,*53
05/28/2014	01:00:48.211	$GPGGA,010048,2543.8835,N,08009.7287,W,1,8,1.5,21,M,,M,,*5F
05/28/2014	01:00:49.301	$GPGGA,010049,2543.8835,N,08009.7287,W,1,8,1.5,21,M,,M,,*5E
05/28/2014	01:00:50.337	$GPGGA,010050,2543.8835,N,08009.7286,W,1,8,1.5,21,M,,M,,*57
05/28/2014	01:00:51.427	$GPGGA,010051,2543.8835,N,08009.7287,W,1,8,1.5,21,M,,M,,*57
05/28/2014	01:00:52.634	$GPGGA,010052,2543.8835,N,08009.7287,W,1,8,1.4,21,M,,M,,*55
05/28/2014	01:00:53.734	$GPGGA,010053,2543.8835,N,08009.7286,W,1,9,1.4,21,M,,M,,*54
05/28/2014	01:00:54.600	$GPGGA,010054,2543.8835,N,08009.7287,W,1,9,1.4,21,M,,M,,*52
05/28/2014	01:00:55.689	$GPGGA,010055,2543.8835,N,08009.7287,W,1,9,1.4,21,M,,M,,*53
05/28/2014	01:00:56.897	$GPGGA,010056,2543.8835,N,08009.7286,W,1,9,1.5,21,M,,M,,*50
05/28/2014	01:00:57.997	$GPGGA,010057,2543.8831,N,08009.7287,W,1,9,1.4,21,M,,M,,*55
05/28/2014	01:00:58.884	$GPGGA,010058,2543.8830,N,08009.7285,W,1,9,1.4,21,M,,M,,*59
05/28/2014	01:00:59.952	$GPGGA,010059,2543.8829,N,08009.7285,W,1,9,1.4,21,M,,M,,*50
05/28/2014	01:01:01.020	$GPGGA,010100,2543.8830,N,08009.7285,W,1,9,1.4,21,M,,M,,*55
05/28/2014	01:01:02.270	$GPGGA,010101,2543.8828,N,08009.7284,W,1,9,1.4,21,M,,M,,*5C
05/28/2014	01:01:03.232	$GPGGA,010102,2543.8828,N,08009.7284,W,1,9,1.4,21,M,,M,,*5F
05/28/2014	01:01:04.407	$GPGGA,010103,2543.8828,N,08009.7284,W,1,9,1.4,21,M,,M,,*5E
05/28/2014	01:01:05.411	$GPGGA,010104,2543.8828,N,08009.7285,W,1,9,1.4,21,M,,M,,*58
05/28/2014	01:01:06.554	$GPGGA,010105,2543.8826,N,08009.7284,W,1,9,1.4,21,M,,M,,*56
05/28/2014	01:01:07.525	$GPGGA,010106,2543.8828,N,08009.7285,W,1,9,1.4,21,M,,M,,*5A
05/28/2014	01:01:08.668	$GPGGA,010107,2543.8828,N,08009.7285,W,1,9,1.4,21,M,,M,,*5B
05/28/2014	01:01:09.640	$GPGGA,010108,2543.8828,N,08009.7285,W,1,9,1.4,21,M,,M,,*54
05/28/2014	01:01:10.816	$GPGGA,010109,2543.8828,N,08009.7287,W,1,9,1.4,21,M,,M,,*57
05/28/2014	01:01:11.766	$GPGGA,010110,2543.8830,N,08009.7286,W,1,9,1.4,21,M,,M,,*57
05/28/2014	01:01:12.824	$GPGGA,010111,2543.8829,N,08009.7287,W,1,9,1.4,21,M,,M,,*5F
05/28/2014	01:01:13.914	$GPGGA,010112,2543.8831,N,08009.7287,W,1,9,1.4,21,M,,M,,*55
05/28/2014	01:01:15.083	$GPGGA,010113,2543.8831,N,08009.7287,W,1,9,1.4,21,M,,M,,*54
05/28/2014	01:01:16.029	$GPGGA,010114,2543.8833,N,08009.7287,W,1,9,1.4,21,M,,M,,*51
05/28/2014	01:01:17.204	$GPGGA,010115,2543.8832,N,08009.7287,W,1,9,1.4,21,M,,M,,*51
05/28/2014	01:01:18.208	$GPGGA,010116,2543.8834,N,08009.7287,W,1,9,1.4,21,M,,M,,*54
05/28/2014	01:01:19.223	$GPGGA,010117,2543.8833,N,08009.7287,W,1,9,1.4,21,M,,M,,*52
05/28/2014	01:01:20.323	$GPGGA,010118,2543.8834,N,08009.7288,W,1,9,1.4,21,M,,M,,*55
05/28/2014	01:01:21.477	$GPGGA,010119,2543.8833,N,08009.7288,W,1,9,1.4,21,M,,M,,*53
05/28/2014	01:01:22.471	$GPGGA,010120,2543.8834,N,08009.7287,W,1,9,1.4,21,M,,M,,*51
05/28/2014	01:01:23.560	$GPGGA,010121,2543.8835,N,08009.7287,W,1,9,1.4,21,M,,M,,*51
05/28/2014	01:01:24.597	$GPGGA,010122,2543.8835,N,08009.7287,W,1,9,1.4,21,M,,M,,*52
05/28/2014	01:01:25.707	$GPGGA,010123,2543.8835,N,08009.7288,W,1,9,1.4,21,M,,M,,*5C
05/28/2014	01:01:26.732	$GPGGA,010124,2543.8835,N,08009.7288,W,1,9,1.4,21,M,,M,,*5B
05/28/2014	01:01:27.854	$GPGGA,010125,2543.8835,N,08009.7288,W,1,9,1.4,21,M,,M,,*5A
05/28/2014	01:01:28.847	$GPGGA,010126,2543.8837,N,08009.7288,W,1,9,1.4,21,M,,M,,*5B
05/28/2014	01:01:29.884	$GPGGA,010127,2543.8838,N,08009.7290,W,1,9,1.4,21,M,,M,,*5C
05/28/2014	01:01:31.016	$GPGGA,010128,2543.8837,N,08009.7289,W,1,9,1.4,21,M,,M,,*54
05/28/2014	01:01:32.095	$GPGGA,010129,2543.8839,N,08009.7290,W,1,9,1.4,21,M,,M,,*53
05/28/2014	01:01:33.121	$GPGGA,010130,2543.8839,N,08009.7290,W,1,9,1.4,21,M,,M,,*5B
05/28/2014	01:01:34.274	$GPGGA,010131,2543.8839,N,08009.7290,W,1,9,1.4,21,M,,M,,*5A
05/28/2014	01:01:35.257	$GPGGA,010132,2543.8839,N,08009.7290,W,1,9,1.4,21,M,,M,,*59
05/28/2014	01:01:36.400	$GPGGA,010133,2543.8839,N,08009.7290,W,1,9,1.4,21,M,,M,,*58
05/28/2014	01:01:37.340	$GPGGA,010134,2543.8839,N,08009.7290,W,1,9,1.4,21,M,,M,,*5F
05/28/2014	01:01:38.537	$GPGGA,010135,2543.8841,N,08009.7288,W,1,8,1.7,21,M,,M,,*5A
05/28/2014	01:01:39.488	$GPGGA,010136,2543.8840,N,08009.7288,W,1,8,1.7,21,M,,M,,*58
05/28/2014	01:01:40.641	$GPGGA,010137,2543.8841,N,08009.7287,W,1,8,1.7,21,M,,M,,*57
05/28/2014	01:01:41.614	$GPGGA,010138,2543.8842,N,08009.7287,W,1,8,1.7,21,M,,M,,*5B
05/28/2014	01:01:38.693	$GPGGA,010139,2543.8842,N,08009.7286,W,1,8,1.7,21,M,,M,,*5B
05/28/2014	01:01:39.666	$GPGGA,010140,2543.8842,N,08009.7287,W,1,8,1.7,21,M,,M,,*54
05/28/2014	01:01:40.818	$GPGGA,010141,2543.8842,N,08009.7286,W,1,8,1.7,21,M,,M,,*54
05/28/2014	01:01:41.800	$GPGGA,010142,2543.8842,N,08009.7285,W,1,8,1.7,21,M,,M,,*54
05/28/2014	01:01:42.986	$GPGGA,010143,2543.8844,N,08009.7285,W,1,8,1.7,21,M,,M,,*53
05/28/2014	01:01:43.958	$GPGGA,010144,2543.8843,N,08009.7285,W,1,8,1.7,21,M,,M,,*53
05/28/2014	01:01:45.073	$GPGGA,010145,2543.8844,N,08009.7285,W,1,8,1.7,21,M,,M,,*55
05/28/2014	01:01:46.084	$GPGGA,010146,2543.8843,N,08009.7285,W,1,8,1.7,20,M,,M,,*50
05/28/2014	01:01:47.161	$GPGGA,010147,2543.8844,N,08009.7284,W,1,8,1.7,20,M,,M,,*57
05/28/2014	01:01:48.197	$GPGGA,010148,2543.8843,N,08009.7284,W,1,8,1.7,20,M,,M,,*5F
05/28/2014	01:01:49.203	$GPGGA,010149,2543.8845,N,08009.7283,W,1,8,1.7,20,M,,M,,*5F
05/28/2014	01:01:50.129	$GPGGA,010150,2543.8843,N,08009.7283,W,1,8,1.7,20,M,,M,,*51
05/28/2014	01:01:51.255	$GPGGA,010151,2543.8844,N,08009.7283,W,1,8,1.7,20,M,,M,,*57
05/28/2014	01:01:52.322	$GPGGA,010152,2543.8842,N,08009.7282,W,1,8,1.7,20,M,,M,,*53
05/28/2014	01:01:53.307	$GPGGA,010153,2543.8842,N,08009.7283,W,1,8,1.7,20,M,,M,,*53
05/28/2014	01:01:54.334	$GPGGA,010154,2543.8842,N,08009.7281,W,1,8,1.7,20,M,,M,,*56
05/28/2014	01:01:55.360	$GPGGA,010155,2543.8842,N,08009.7281,W,1,8,1.7,19,M,,M,,*5D
05/28/2014	01:01:56.386	$GPGGA,010156,2543.8842,N,08009.7281,W,1,8,1.7,19,M,,M,,*5E
05/28/2014	01:01:57.422	$GPGGA,010157,2543.8842,N,08009.7280,W,1,8,1.7,19,M,,M,,*5E
05/28/2014	01:01:58.437	$GPGGA,010158,2543.8842,N,08009.7280,W,1,8,1.7,19,M,,M,,*51
05/28/2014	01:01:59.504	$GPGGA,010159,2543.8842,N,08009.7280,W,1,8,1.7,19,M,,M,,*50
05/28/2014	01:02:00.499	$GPGGA,010200,2543.8842,N,08009.7280,W,1,8,1.7,19,M,,M,,*5F
05/28/2014	01:02:01.536	$GPGGA,010201,2543.8842,N,08009.7280,W,1,8,1.7,19,M,,M,,*5E
05/28/2014	01:02:02.521	$GPGGA,010202,2543.8840,N,08009.7280,W,1,8,1.7,19,M,,M,,*5F
05/28/2014	01:02:03.578	$GPGGA,010203,2543.8841,N,08009.7280,W,1,8,1.7,19,M,,M,,*5F
05/28/2014	01:02:04.583	$GPGGA,010204,2543.8840,N,08009.7280,W,1,8,1.7,19,M,,M,,*59
05/28/2014	01:02:05.640	$GPGGA,010205,2543.8841,N,08009.7280,W,1,8,1.7,18,M,,M,,*58
05/28/2014	01:02:06.625	$GPGGA,010206,2543.8839,N,08009.7280,W,1,8,1.7,18,M,,M,,*54
05/28/2014	01:02:07.672	$GPGGA,010207,2543.8839,N,08009.7279,W,1,8,1.7,18,M,,M,,*53
05/28/2014	01:02:08.688	$GPGGA,010208,2543.8839,N,08009.7280,W,1,8,1.7,18,M,,M,,*5A
05/28/2014	01:02:09.724	$GPGGA,010209,2543.8839,N,08009.7279,W,1,8,1.7,18,M,,M,,*5D
05/28/2014	01:02:10.709	$GPGGA,010210,2543.8839,N,08009.7278,W,1,8,1.7,18,M,,M,,*54
05/28/2014	01:02:11.786	$GPGGA,010211,2543.8839,N,08009.7279,W,1,8,1.7,18,M,,M,,*54
05/28/2014	01:02:12.782	$GPGGA,010212,2543.8837,N,08009.7278,W,1,8,1.7,18,M,,M,,*58
05/28/2014	01:02:13.839	$GPGGA,010213,2543.8838,N,08009.7279,W,1,8,1.7,18,M,,M,,*57
05/28/2014	01:02:14.824	$GPGGA,010214,2543.8837,N,08009.7278,W,1,8,1.7,18,M,,M,,*5E
05/28/2014	01:02:15.891	$GPGGA,010215,2543.8838,N,08009.7279,W,1,8,1.7,18,M,,M,,*51
05/28/2014	01:02:16.865	$GPGGA,010216,2543.8837,N,08009.7278,W,1,8,1.7,18,M,,M,,*5C
05/28/2014	01:02:17.963	$GPGGA,010217,2543.8838,N,08009.7279,W,1,8,1.7,18,M,,M,,*53
05/28/2014	01:02:18.907	$GPGGA,010218,2543.8837,N,08009.7280,W,1,8,1.7,18,M,,M,,*55
05/28/2014	01:02:19.994	$GPGGA,010219,2543.8839,N,08009.7278,W,1,8,1.7,18,M,,M,,*5D
05/28/2014	01:02:20.969	$GPGGA,010220,2543.8839,N,08009.7279,W,1,8,1.7,18,M,,M,,*56
05/28/2014	01:02:22.026	$GPGGA,010221,2543.8839,N,08009.7280,W,1,8,1.7,17,M,,M,,*5E
05/28/2014	01:02:23.001	$GPGGA,010222,2543.8839,N,08009.7278,W,1,8,1.7,17,M,,M,,*5A
05/28/2014	01:02:24.080	$GPGGA,010223,2543.8839,N,08009.7280,W,1,8,1.7,17,M,,M,,*5C
05/28/2014	01:02:25.063	$GPGGA,010224,2543.8839,N,08009.7279,W,1,8,1.7,17,M,,M,,*5D
05/28/2014	01:02:26.089	$GPGGA,010225,2543.8839,N,08009.7280,W,1,8,1.7,17,M,,M,,*5A
05/28/2014	01:02:27.095	$GPGGA,010226,2543.8839,N,08009.7279,W,1,8,1.7,17,M,,M,,*5F
05/28/2014	01:02:28.141	$GPGGA,010227,2543.8839,N,08009.7279,W,1,8,1.7,17,M,,M,,*5E
05/28/2014	01:02:29.280	$GPGGA,010228,2543.8840,N,08009.7279,W,1,8,1.7,17,M,,M,,*5F
05/28/2014	01:02:30.245	$GPGGA,010229,2543.8841,N,08009.7280,W,1,8,1.7,17,M,,M,,*59
05/28/2014	01:02:31.312	$GPGGA,010230,2543.8840,N,08009.7279,W,1,8,1.7,17,M,,M,,*56
05/28/2014	01:02:32.359	$GPGGA,010231,2543.8841,N,08009.7280,W,1,8,1.7,17,M,,M,,*50
05/28/2014	01:02:33.262	$GPGGA,010232,2543.8840,N,08009.7280,W,1,8,1.7,17,M,,M,,*52
05/28/2014	01:02:34.266	$GPGGA,010233,2543.8840,N,08009.7280,W,1,8,1.7,17,M,,M,,*53
05/28/2014	01:02:35.385	$GPGGA,010234,2543.8840,N,08009.7280,W,1,8,1.7,17,M,,M,,*54
05/28/2014	01:02:36.421	$GPGGA,010235,2543.8841,N,08009.7280,W,1,8,1.7,17,M,,M,,*54
05/28/2014	01:02:37.355	$GPGGA,010236,2543.8839,N,08009.7280,W,1,8,1.7,17,M,,M,,*58
05/28/2014	01:02:38.473	$GPGGA,010237,2543.8841,N,08009.7281,W,1,8,1.7,17,M,,M,,*57
05/28/2014	01:02:39.397	$GPGGA,010238,2543.8839,N,08009.7281,W,1,8,1.7,18,M,,M,,*58
05/28/2014	01:02:38.534	$GPGGA,010239,2543.8839,N,08009.7281,W,1,8,1.7,18,M,,M,,*59
05/28/2014	01:02:39.560	$GPGGA,010240,2543.8839,N,08009.7281,W,1,8,1.7,18,M,,M,,*57
05/28/2014	01:02:40.680	$GPGGA,010241,2543.8839,N,08009.7281,W,1,8,1.7,18,M,,M,,*56
05/28/2014	01:02:41.695	$GPGGA,010242,2543.8839,N,08009.7283,W,1,8,1.7,18,M,,M,,*57
05/28/2014	01:02:42.711	$GPGGA,010243,2543.8839,N,08009.7282,W,1,8,1.7,18,M,,M,,*57
05/28/2014	01:02:43.747	$GPGGA,010244,2543.8839,N,08009.7283,W,1,8,1.7,18,M,,M,,*51
05/28/2014	01:02:44.763	$GPGGA,010245,2543.8839,N,08009.7282,W,1,8,1.7,18,M,,M,,*51
05/28/2014	01:02:45.799	$GPGGA,010246,2543.8839,N,08009.7283,W,1,8,1.7,18,M,,M,,*53
05/28/2014	01:02:46.836	$GPGGA,010247,2543.8837,N,08009.7283,W,1,8,1.7,18,M,,M,,*5C
05/28/2014	01:02:47.841	$GPGGA,010248,2543.8838,N,08009.7283,W,1,8,1.7,18,M,,M,,*5C
05/28/2014	01:02:48.888	$GPGGA,010249,2543.8837,N,08009.7283,W,1,8,1.7,18,M,,M,,*52
05/28/2014	01:02:49.896	$GPGGA,010250,2543.8836,N,08009.7283,W,1,8,1.7,18,M,,M,,*5B
05/28/2014	01:02:50.929	$GPGGA,010251,2543.8837,N,08009.7283,W,1,8,1.7,18,M,,M,,*5B
05/28/2014	01:02:51.944	$GPGGA,010252,2543.8836,N,08009.7284,W,1,8,1.7,18,M,,M,,*5E
05/28/2014	01:02:52.950	$GPGGA,010253,2543.8837,N,08009.7284,W,1,8,1.7,18,M,,M,,*5E
05/28/2014	01:02:53.976	$GPGGA,010254,2543.8836,N,08009.7285,W,1,8,1.7,18,M,,M,,*59
05/28/2014	01:02:55.002	$GPGGA,010255,2543.8837,N,08009.7285,W,1,8,1.7,18,M,,M,,*59
05/28/2014	01:02:56.049	$GPGGA,010256,2543.8836,N,08009.7287,W,1,8,1.7,18,M,,M,,*59
05/28/2014	01:02:57.045	$GPGGA,010257,2543.8837,N,08009.7286,W,1,8,1.7,19,M,,M,,*59
05/28/2014	01:02:58.091	$GPGGA,010258,2543.8836,N,08009.7287,W,1,8,1.7,19,M,,M,,*56
05/28/2014	01:02:59.096	$GPGGA,010259,2543.8837,N,08009.7286,W,1,8,1.7,19,M,,M,,*57
05/28/2014	01:03:00.153	$GPGGA,010300,2543.8836,N,08009.7287,W,1,8,1.7,19,M,,M,,*5A
05/28/2014	01:03:01.180	$GPGGA,010301,2543.8837,N,08009.7287,W,1,8,1.7,19,M,,M,,*5A
05/28/2014	01:03:02.175	$GPGGA,010302,2543.8836,N,08009.7287,W,1,8,1.7,19,M,,M,,*58
05/28/2014	01:03:03.232	$GPGGA,010303,2543.8837,N,08009.7287,W,1,8,1.7,19,M,,M,,*58
05/28/2014	01:03:04.237	$GPGGA,010304,2543.8836,N,08009.7287,W,1,8,1.7,19,M,,M,,*5E
05/28/2014	01:03:05.263	$GPGGA,010305,2543.8837,N,08009.7287,W,1,8,1.7,19,M,,M,,*5E
05/28/2014	01:03:06.279	$GPGGA,010306,2543.8836,N,08009.7287,W,1,8,1.7,19,M,,M,,*5C
05/28/2014	01:03:07.305	$GPGGA,010307,2543.8837,N,08009.7287,W,1,8,1.7,19,M,,M,,*5C
05/28/2014	01:03:08.330	$GPGGA,010308,2543.8836,N,08009.7287,W,1,8,1.7,19,M,,M,,*52
05/28/2014	01:03:09.377	$GPGGA,010309,2543.8837,N,08009.7287,W,1,8,1.7,19,M,,M,,*52
05/28/2014	01:03:10.382	$GPGGA,010310,2543.8836,N,08009.7287,W,1,8,1.7,19,M,,M,,*5B
05/28/2014	01:03:11.388	$GPGGA,010311,2543.8837,N,08009.7287,W,1,8,1.7,19,M,,M,,*5B
05/28/2014	01:03:12.436	$GPGGA,010312,2543.8836,N,08009.7287,W,1,8,1.7,19,M,,M,,*59
05/28/2014	01:03:13.440	$GPGGA,010313,2543.8837,N,08009.7287,W,1,8,1.7,19,M,,M,,*59
05/28/2014	01:03:14.456	$GPGGA,010314,2543.8838,N,08009.7287,W,1,8,1.7,19,M,,M,,*51
05/28/2014	01:03:15.482	$GPGGA,010315,2543.8837,N,08009.7287,W,1,8,1.7,19,M,,M,,*5F
05/28/2014	01:03:16.642	$GPGGA,010316,2543.8838,N,08009.7287,W,1,8,1.7,19,M,,M,,*53
05/28/2014	01:03:17.524	$GPGGA,010317,2543.8837,N,08009.7287,W,1,8,1.7,20,M,,M,,*57
05/28/2014	01:03:18.550	$GPGGA,010318,2543.8838,N,08009.7287,W,1,8,1.7,20,M,,M,,*57
05/28/2014	01:03:19.576	$GPGGA,010319,2543.8837,N,08009.7287,W,1,8,1.7,20,M,,M,,*59
05/28/2014	01:03:20.715	$GPGGA,010320,2543.8838,N,08009.7287,W,1,8,1.7,20,M,,M,,*5C
05/28/2014	01:03:21.721	$GPGGA,010321,2543.8839,N,08009.7287,W,1,8,1.7,20,M,,M,,*5C
05/28/2014	01:03:22.644	$GPGGA,010322,2543.8839,N,08009.7287,W,1,8,1.7,20,M,,M,,*5F
05/28/2014	01:03:23.670	$GPGGA,010323,2543.8839,N,08009.7287,W,1,8,1.7,20,M,,M,,*5E
05/28/2014	01:03:24.830	$GPGGA,010324,2543.8839,N,08009.7287,W,1,8,1.7,20,M,,M,,*59
05/28/2014	01:03:25.835	$GPGGA,010325,2543.8839,N,08009.7288,W,1,8,1.7,20,M,,M,,*57
05/28/2014	01:03:26.840	$GPGGA,010326,2543.8839,N,08009.7287,W,1,8,1.7,20,M,,M,,*5B
05/28/2014	01:03:27.876	$GPGGA,010327,2543.8839,N,08009.7287,W,1,8,1.7,20,M,,M,,*5A
05/28/2014	01:03:28.913	$GPGGA,010328,2543.8839,N,08009.7287,W,1,8,1.7,20,M,,M,,*55
05/28/2014	01:03:29.918	$GPGGA,010329,2543.8839,N,08009.7287,W,1,8,1.7,20,M,,M,,*54
05/28/2014	01:03:30.944	$GPGGA,010330,2543.8839,N,08009.7287,W,1,8,1.7,20,M,,M,,*5C
05/28/2014	01:03:32.001	$GPGGA,010331,2543.8841,N,08009.7286,W,1,8,1.7,20,M,,M,,*53
05/28/2014	01:03:33.007	$GPGGA,010332,2543.8840,N,08009.7287,W,1,8,1.7,20,M,,M,,*50
05/28/2014	01:03:34.023	$GPGGA,010333,2543.8841,N,08009.7286,W,1,8,1.7,20,M,,M,,*51
05/28/2014	01:03:35.049	$GPGGA,010334,2543.8840,N,08009.7287,W,1,8,1.7,20,M,,M,,*56
05/28/2014	01:03:36.085	$GPGGA,010335,2543.8842,N,08009.7286,W,1,8,1.7,20,M,,M,,*54
05/28/2014	01:03:37.102	$GPGGA,010336,2543.8842,N,08009.7287,W,1,8,1.7,20,M,,M,,*56
05/28/2014	01:03:38.137	$GPGGA,010337,2543.8842,N,08009.7286,W,1,8,1.7,20,M,,M,,*56
05/28/2014	01:03:39.133	$GPGGA,010338,2543.8842,N,08009.7287,W,1,8,1.7,20,M,,M,,*58
05/28/2014	01:03:38.614	$GPGGA,010339,2543.8842,N,08009.7286,W,1,8,1.7,20,M,,M,,*58
05/28/2014	01:03:39.630	$GPGGA,010340,2543.8842,N,08009.7287,W,1,8,1.7,20,M,,M,,*57
05/28/2014	01:03:40.656	$GPGGA,010341,2543.8842,N,08009.7286,W,1,8,1.7,20,M,,M,,*57
05/28/2014	01:03:41.662	$GPGGA,010342,2543.8842,N,08009.7287,W,1,8,1.7,20,M,,M,,*55
05/28/2014	01:03:42.708	$GPGGA,010343,2543.8842,N,08009.7286,W,1,8,1.7,20,M,,M,,*55
05/28/2014	01:03:43.713	$GPGGA,010344,2543.8842,N,08009.7287,W,1,8,1.7,20,M,,M,,*53
05/28/2014	01:03:44.749	$GPGGA,010345,2543.8842,N,08009.7286,W,1,8,1.7,20,M,,M,,*53
05/28/2014	01:03:45.755	$GPGGA,010346,2543.8840,N,08009.7287,W,1,8,1.7,20,M,,M,,*53
05/28/2014	01:03:46.791	$GPGGA,010347,2543.8841,N,08009.7286,W,1,8,1.7,20,M,,M,,*52
05/28/2014	01:03:47.828	$GPGGA,010348,2543.8840,N,08009.7285,W,1,8,1.7,20,M,,M,,*5F
05/28/2014	01:03:48.833	$GPGGA,010349,2543.8841,N,08009.7285,W,1,8,1.7,20,M,,M,,*5F
05/28/2014	01:03:49.859	$GPGGA,010350,2543.8840,N,08009.7285,W,1,8,1.7,20,M,,M,,*56
05/28/2014	01:03:50.916	$GPGGA,010351,2543.8841,N,08009.7285,W,1,8,1.7,19,M,,M,,*5C
05/28/2014	01:03:51.922	$GPGGA,010352,2543.8842,N,08009.7285,W,1,8,1.7,19,M,,M,,*5C
05/28/2014	01:03:52.958	$GPGGA,010353,2543.8842,N,08009.7285,W,1,8,1.7,19,M,,M,,*5D
05/28/2014	01:03:53.964	$GPGGA,010354,2543.8842,N,08009.7285,W,1,8,1.7,19,M,,M,,*5A
05/28/2014	01:03:55.010	$GPGGA,010355,2543.8842,N,08009.7285,W,1,8,1.7,19,M,,M,,*5B
05/28/2014	01:03:56.026	$GPGGA,010356,2543.8842,N,08009.7285,W,1,8,1.7,19,M,,M,,*58
05/28/2014	01:03:57.022	$GPGGA,010357,2543.8842,N,08009.7285,W,1,8,1.7,19,M,,M,,*59
05/28/2014	01:03:58.171	$GPGGA,010358,2543.8842,N,08009.7285,W,1,8,1.7,19,M,,M,,*56
05/28/2014	01:03:59.094	$GPGGA,010359,2543.8844,N,08009.7285,W,1,8,1.7,19,M,,M,,*51
05/28/2014	01:04:00.120	$GPGGA,010400,2543.8843,N,08009.7285,W,1,8,1.7,19,M,,M,,*5D
05/28/2014	01:04:01.125	$GPGGA,010401,2543.8844,N,08009.7287,W,1,8,1.7,19,M,,M,,*59
05/28/2014	01:04:02.151	$GPGGA,010402,2543.8843,N,08009.7286,W,1,8,1.7,19,M,,M,,*5C
05/28/2014	01:04:03.300	$GPGGA,010403,2543.8845,N,08009.7285,W,1,8,1.7,19,M,,M,,*58
05/28/2014	01:04:04.214	$GPGGA,010404,2543.8844,N,08009.7285,W,1,8,1.7,19,M,,M,,*5E
05/28/2014	01:04:05.342	$GPGGA,010405,2543.8845,N,08009.7285,W,1,8,1.7,18,M,,M,,*5F
05/28/2014	01:04:06.338	$GPGGA,010406,2543.8844,N,08009.7285,W,1,8,1.7,18,M,,M,,*5D
05/28/2014	01:04:07.282	$GPGGA,010407,2543.8846,N,08009.7285,W,1,8,1.7,18,M,,M,,*5E
05/28/2014	01:04:08.390	$GPGGA,010408,2543.8846,N,08009.7285,W,1,8,1.7,18,M,,M,,*51
05/28/2014	01:04:09.416	$GPGGA,010409,2543.8846,N,08009.7285,W,1,8,1.7,18,M,,M,,*50
05/28/2014	01:04:10.370	$GPGGA,010410,2543.8846,N,08009.7285,W,1,8,1.7,18,M,,M,,*58
05/28/2014	01:04:11.365	$GPGGA,010411,2543.8844,N,08009.7284,W,1,8,1.7,18,M,,M,,*5A
05/28/2014	01:04:12.515	$GPGGA,010412,2543.8845,N,08009.7284,W,1,8,1.7,18,M,,M,,*58
05/28/2014	01:04:13.531	$GPGGA,010413,2543.8844,N,08009.7284,W,1,8,1.7,18,M,,M,,*58
05/28/2014	01:04:14.536	$GPGGA,010414,2543.8845,N,08009.7284,W,1,8,1.7,18,M,,M,,*5E
05/28/2014	01:04:15.583	$GPGGA,010415,2543.8844,N,08009.7284,W,1,8,1.7,18,M,,M,,*5E
05/28/2014	01:04:16.599	$GPGGA,010416,2543.8845,N,08009.7284,W,1,8,1.7,18,M,,M,,*5C
05/28/2014	01:04:17.635	$GPGGA,010417,2543.8844,N,08009.7284,W,1,8,1.7,18,M,,M,,*5C
05/28/2014	01:04:18.629	$GPGGA,010418,2543.8845,N,08009.7284,W,1,8,1.7,18,M,,M,,*52
05/28/2014	01:04:19.655	$GPGGA,010419,2543.8844,N,08009.7284,W,1,8,1.7,18,M,,M,,*52
05/28/2014	01:04:20.692	$GPGGA,010420,2543.8845,N,08009.7284,W,1,8,1.7,18,M,,M,,*59
05/28/2014	01:04:21.718	$GPGGA,010421,2543.8844,N,08009.7284,W,1,8,1.7,18,M,,M,,*59
05/28/2014	01:04:22.714	$GPGGA,010422,2543.8845,N,08009.7284,W,1,8,1.7,18,M,,M,,*5B
05/28/2014	01:04:23.770	$GPGGA,010423,2543.8844,N,08009.7283,W,1,8,1.7,18,M,,M,,*5C
05/28/2014	01:04:24.786	$GPGGA,010424,2543.8845,N,08009.7283,W,1,8,1.7,18,M,,M,,*5A
05/28/2014	01:04:25.832	$GPGGA,010425,2543.8843,N,08009.7283,W,1,8,1.7,18,M,,M,,*5D
05/28/2014	01:04:26.828	$GPGGA,010426,2543.8844,N,08009.7283,W,1,8,1.7,18,M,,M,,*59
05/28/2014	01:04:27.833	$GPGGA,010427,2543.8843,N,08009.7284,W,1,8,1.7,18,M,,M,,*58
05/28/2014	01:04:28.880	$GPGGA,010428,2543.8844,N,08009.7283,W,1,8,1.7,18,M,,M,,*57
05/28/2014	01:04:29.906	$GPGGA,010429,2543.8842,N,08009.7283,W,1,8,1.7,18,M,,M,,*50
05/28/2014	01:04:30.963	$GPGGA,010430,2543.8842,N,08009.7283,W,1,8,1.7,18,M,,M,,*58
05/28/2014	01:04:31.958	$GPGGA,010431,2543.8842,N,08009.7282,W,1,8,1.7,18,M,,M,,*58
05/28/2014	01:04:32.964	$GPGGA,010432,2543.8842,N,08009.7283,W,1,8,1.7,18,M,,M,,*5A
05/28/2014	01:04:34.010	$GPGGA,010433,2543.8842,N,08009.7282,W,1,8,1.7,18,M,,M,,*5A
05/28/2014	01:04:35.006	$GPGGA,010434,2543.8840,N,08009.7283,W,1,8,1.7,17,M,,M,,*51
05/28/2014	01:04:36.051	$GPGGA,010435,2543.8841,N,08009.7282,W,1,8,1.7,17,M,,M,,*50
05/28/2014	01:04:37.067	$GPGGA,010436,2543.8839,N,08009.7283,W,1,8,1.7,17,M,,M,,*5D
05/28/2014	01:04:38.073	$GPGGA,010437,2543.8839,N,08009.7281,W,1,8,1.7,17,M,,M,,*5E
05/28/2014	01:04:39.120	$GPGGA,010438,2543.8839,N,08009.7281,W,1,8,1.7,17,M,,M,,*51
05/28/2014	01:04:38.706	$GPGGA,010439,2543.8839,N,08009.7281,W,1,8,1.7,17,M,,M,,*50
05/28/2014	01:04:39.597	$GPGGA,010440,2543.8839,N,08009.7281,W,1,8,1.7,17,M,,M,,*5E
05/28/2014	01:04:40.613	$GPGGA,010441,2543.8839,N,08009.7280,W,1,8,1.7,17,M,,M,,*5E
05/28/2014	01:04:41.650	$GPGGA,010442,2543.8837,N,08009.7280,W,1,8,1.7,17,M,,M,,*53
05/28/2014	01:04:42.655	$GPGGA,010443,2543.8838,N,08009.7280,W,1,8,1.7,17,M,,M,,*5D
05/28/2014	01:04:43.702	$GPGGA,010444,2543.8837,N,08009.7279,W,1,8,1.7,17,M,,M,,*53
05/28/2014	01:04:44.728	$GPGGA,010445,2543.8836,N,08009.7280,W,1,8,1.7,17,M,,M,,*55
05/28/2014	01:04:45.723	$GPGGA,010446,2543.8837,N,08009.7279,W,1,8,1.7,17,M,,M,,*51
05/28/2014	01:04:47.602	$GPGGA,010447,2543.8835,N,08009.7280,W,1,8,1.7,16,M,,M,,*55
05/28/2014	01:04:47.807	$GPGGA,010448,2543.8835,N,08009.7279,W,1,8,1.7,16,M,,M,,*5C
05/28/2014	01:04:48.822	$GPGGA,010449,2543.8835,N,08009.7280,W,1,8,1.7,16,M,,M,,*5B
05/28/2014	01:04:49.838	$GPGGA,010450,2543.8833,N,08009.7279,W,1,8,1.7,16,M,,M,,*53
05/28/2014	01:04:50.864	$GPGGA,010451,2543.8834,N,08009.7280,W,1,8,1.7,16,M,,M,,*53
05/28/2014	01:04:52.024	$GPGGA,010452,2543.8833,N,08009.7278,W,1,8,1.7,16,M,,M,,*50
05/28/2014	01:04:52.915	$GPGGA,010453,2543.8834,N,08009.7279,W,1,8,1.7,16,M,,M,,*57
05/28/2014	01:04:53.921	$GPGGA,010454,2543.8832,N,08009.7278,W,1,8,1.7,16,M,,M,,*57
05/28/2014	01:04:54.937	$GPGGA,010455,2543.8833,N,08009.7279,W,1,8,1.7,16,M,,M,,*56
05/28/2014	01:04:56.106	$GPGGA,010456,2543.8832,N,08009.7278,W,1,8,1.7,16,M,,M,,*55
05/28/2014	01:04:57.122	$GPGGA,010457,2543.8833,N,08009.7277,W,1,8,1.7,16,M,,M,,*5A
05/28/2014	01:04:58.117	$GPGGA,010458,2543.8832,N,08009.7277,W,1,8,1.7,16,M,,M,,*54
05/28/2014	01:04:59.144	$GPGGA,010459,2543.8833,N,08009.7277,W,1,8,1.7,16,M,,M,,*54
05/28/2014	01:05:00.088	$GPGGA,010500,2543.8831,N,08009.7277,W,1,8,1.7,16,M,,M,,*5B
05/28/2014	01:05:01.196	$GPGGA,010501,2543.8831,N,08009.7277,W,1,8,1.7,16,M,,M,,*5A
05/28/2014	01:05:02.119	$GPGGA,010502,2543.8831,N,08009.7277,W,1,8,1.7,16,M,,M,,*59
05/28/2014	01:05:03.238	$GPGGA,010503,2543.8831,N,08009.7277,W,1,8,1.7,16,M,,M,,*58
05/28/2014	01:05:04.284	$GPGGA,010504,2543.8831,N,08009.7276,W,1,8,1.7,16,M,,M,,*5E
05/28/2014	01:05:05.300	$GPGGA,010505,2543.8831,N,08009.7277,W,1,8,1.7,16,M,,M,,*5E
05/28/2014	01:05:06.316	$GPGGA,010506,2543.8831,N,08009.7277,W,1,8,1.7,15,M,,M,,*5E
05/28/2014	01:05:07.363	$GPGGA,010507,2543.8831,N,08009.7277,W,1,8,1.7,15,M,,M,,*5F
05/28/2014	01:05:08.378	$GPGGA,010508,2543.8831,N,08009.7277,W,1,8,1.7,15,M,,M,,*50
05/28/2014	01:05:09.405	$GPGGA,010509,2543.8831,N,08009.7276,W,1,8,1.7,15,M,,M,,*50
05/28/2014	01:05:10.400	$GPGGA,010510,2543.8831,N,08009.7277,W,1,8,1.7,15,M,,M,,*59
05/28/2014	01:05:11.456	$GPGGA,010511,2543.8830,N,08009.7276,W,1,8,1.7,15,M,,M,,*58
05/28/2014	01:05:12.472	$GPGGA,010512,2543.8831,N,08009.7276,W,1,8,1.7,15,M,,M,,*5A
05/28/2014	01:05:13.498	$GPGGA,010513,2543.8830,N,08009.7276,W,1,8,1.7,15,M,,M,,*5A
05/28/2014	01:05:14.503	$GPGGA,010514,2543.8831,N,08009.7276,W,1,8,1.7,15,M,,M,,*5C
05/28/2014	01:05:15.551	$GPGGA,010515,2543.8830,N,08009.7276,W,1,8,1.7,15,M,,M,,*5C
05/28/2014	01:05:16.566	$GPGGA,010516,2543.8831,N,08009.7276,W,1,8,1.7,15,M,,M,,*5E
05/28/2014	01:05:17.582	$GPGGA,010517,2543.8830,N,08009.7276,W,1,8,1.7,15,M,,M,,*5E
05/28/2014	01:05:18.608	$GPGGA,010518,2543.8831,N,08009.7276,W,1,8,1.7,15,M,,M,,*50
05/28/2014	01:05:19.654	$GPGGA,010519,2543.8830,N,08009.7276,W,1,8,1.7,15,M,,M,,*50
05/28/2014	01:05:20.661	$GPGGA,010520,2543.8831,N,08009.7276,W,1,8,1.7,15,M,,M,,*5B
05/28/2014	01:05:21.686	$GPGGA,010521,2543.8830,N,08009.7277,W,1,8,1.7,15,M,,M,,*5A
05/28/2014	01:05:22.692	$GPGGA,010522,2543.8831,N,08009.7277,W,1,8,1.7,15,M,,M,,*58
05/28/2014	01:05:23.738	$GPGGA,010523,2543.8831,N,08009.7277,W,1,8,1.7,15,M,,M,,*59
05/28/2014	01:05:24.744	$GPGGA,010524,2543.8831,N,08009.7277,W,1,8,1.7,15,M,,M,,*5E
05/28/2014	01:05:25.802	$GPGGA,010525,2543.8831,N,08009.7277,W,1,8,1.7,15,M,,M,,*5F
05/28/2014	01:05:26.786	$GPGGA,010526,2543.8833,N,08009.7277,W,1,8,1.7,15,M,,M,,*5E
05/28/2014	01:05:27.812	$GPGGA,010527,2543.8832,N,08009.7277,W,1,8,1.7,15,M,,M,,*5E
05/28/2014	01:05:28.847	$GPGGA,010528,2543.8833,N,08009.7277,W,1,8,1.7,15,M,,M,,*50
05/28/2014	01:05:29.894	$GPGGA,010529,2543.8832,N,08009.7277,W,1,8,1.7,15,M,,M,,*50
05/28/2014	01:05:30.899	$GPGGA,010530,2543.8833,N,08009.7277,W,1,8,1.7,15,M,,M,,*59
05/28/2014	01:05:31.905	$GPGGA,010531,2543.8832,N,08009.7277,W,1,8,1.7,15,M,,M,,*59
05/28/2014	01:05:33.064	$GPGGA,010532,2543.8833,N,08009.7277,W,1,8,1.7,15,M,,M,,*5B
05/28/2014	01:05:33.968	$GPGGA,010533,2543.8832,N,08009.7276,W,1,8,1.7,15,M,,M,,*5A
05/28/2014	01:05:34.973	$GPGGA,010534,2543.8833,N,08009.7276,W,1,8,1.7,15,M,,M,,*5C
05/28/2014	01:05:36.022	$GPGGA,010535,2543.8832,N,08009.7276,W,1,8,1.7,15,M,,M,,*5C
05/28/2014	01:05:37.056	$GPGGA,010536,2543.8833,N,08009.7275,W,1,8,1.7,15,M,,M,,*5D
05/28/2014	01:05:38.174	$GPGGA,010537,2543.8832,N,08009.7276,W,1,8,1.7,15,M,,M,,*5E
05/28/2014	01:05:39.077	$GPGGA,010538,2543.8833,N,08009.7275,W,1,8,1.7,15,M,,M,,*53
05/28/2014	01:05:38.642	$GPGGA,010539,2543.8832,N,08009.7276,W,1,8,1.7,15,M,,M,,*50
05/28/2014	01:05:39.668	$GPGGA,010540,2543.8833,N,08009.7275,W,1,8,1.7,15,M,,M,,*5C
05/28/2014	01:05:40.581	$GPGGA,010541,2543.8832,N,08009.7274,W,1,8,1.7,15,M,,M,,*5D
05/28/2014	01:05:41.607	$GPGGA,010542,2543.8833,N,08009.7274,W,1,8,1.7,15,M,,M,,*5F
05/28/2014	01:05:42.634	$GPGGA,010543,2543.8832,N,08009.7274,W,1,8,1.7,15,M,,M,,*5F
05/28/2014	01:05:43.660	$GPGGA,010544,2543.8833,N,08009.7274,W,1,8,1.7,15,M,,M,,*59
05/28/2014	01:05:44.787	$GPGGA,010545,2543.8832,N,08009.7274,W,1,8,1.7,15,M,,M,,*59
05/28/2014	01:05:45.824	$GPGGA,010546,2543.8833,N,08009.7274,W,1,8,1.7,15,M,,M,,*5B
05/28/2014	01:05:46.727	$GPGGA,010547,2543.8832,N,08009.7274,W,1,8,1.7,15,M,,M,,*5B
05/28/2014	01:05:47.896	$GPGGA,010548,2543.8833,N,08009.7274,W,1,8,1.7,15,M,,M,,*55
05/28/2014	01:05:48.902	$GPGGA,010549,2543.8832,N,08009.7274,W,1,8,1.7,15,M,,M,,*55
05/28/2014	01:05:49.908	$GPGGA,010550,2543.8833,N,08009.7273,W,1,8,1.7,15,M,,M,,*5B
05/28/2014	01:05:50.934	$GPGGA,010551,2543.8832,N,08009.7273,W,1,8,1.7,15,M,,M,,*5B
05/28/2014	01:05:51.980	$GPGGA,010552,2543.8833,N,08009.7273,W,1,8,1.7,15,M,,M,,*59
05/28/2014	01:05:52.996	$GPGGA,010553,2543.8831,N,08009.7273,W,1,8,1.7,15,M,,M,,*5A
05/28/2014	01:05:54.002	$GPGGA,010554,2543.8831,N,08009.7273,W,1,8,1.7,15,M,,M,,*5D
05/28/2014	01:05:55.038	$GPGGA,010555,2543.8831,N,08009.7273,W,1,8,1.7,15,M,,M,,*5C
05/28/2014	01:05:56.056	$GPGGA,010556,2543.8831,N,08009.7273,W,1,8,1.7,15,M,,M,,*5F
05/28/2014	01:05:57.080	$GPGGA,010557,2543.8831,N,08009.7273,W,1,8,1.7,15,M,,M,,*5E
05/28/2014	01:05:58.107	$GPGGA,010558,2543.8833,N,08009.7273,W,1,8,1.7,15,M,,M,,*53
05/28/2014	01:05:59.143	$GPGGA,010559,2543.8832,N,08009.7273,W,1,8,1.7,14,M,,M,,*52
05/28/2014	01:06:00.199	$GPGGA,010600,2543.8833,N,08009.7273,W,1,8,1.7,14,M,,M,,*5C
05/28/2014	01:06:01.154	$GPGGA,010601,2543.8832,N,08009.7273,W,1,8,1.7,14,M,,M,,*5C
05/28/2014	01:06:02.180	$GPGGA,010602,2543.8833,N,08009.7274,W,1,8,1.7,14,M,,M,,*59
05/28/2014	01:06:03.246	$GPGGA,010603,2543.8834,N,08009.7274,W,1,8,1.7,14,M,,M,,*5F
05/28/2014	01:06:04.251	$GPGGA,010604,2543.8833,N,08009.7276,W,1,8,1.7,14,M,,M,,*5D
05/28/2014	01:06:05.298	$GPGGA,010605,2543.8834,N,08009.7275,W,1,8,1.7,14,M,,M,,*58
05/28/2014	01:06:06.283	$GPGGA,010606,2543.8835,N,08009.7276,W,1,8,1.7,14,M,,M,,*59
05/28/2014	01:06:07.350	$GPGGA,010607,2543.8835,N,08009.7276,W,1,8,1.7,15,M,,M,,*59
05/28/2014	01:06:08.346	$GPGGA,010608,2543.8835,N,08009.7276,W,1,8,1.7,15,M,,M,,*56
05/28/2014	01:06:09.351	$GPGGA,010609,2543.8835,N,08009.7277,W,1,8,1.7,15,M,,M,,*56
05/28/2014	01:06:10.377	$GPGGA,010610,2543.8835,N,08009.7279,W,1,8,1.7,15,M,,M,,*50
05/28/2014	01:06:11.393	$GPGGA,010611,2543.8835,N,08009.7278,W,1,8,1.7,15,M,,M,,*50
05/28/2014	01:06:12.471	$GPGGA,010612,2543.8835,N,08009.7280,W,1,8,1.7,15,M,,M,,*54
05/28/2014	01:06:13.486	$GPGGA,010613,2543.8835,N,08009.7279,W,1,8,1.7,15,M,,M,,*53
05/28/2014	01:06:14.482	$GPGGA,010614,2543.8835,N,08009.7280,W,1,8,1.7,15,M,,M,,*52
05/28/2014	01:06:15.528	$GPGGA,010615,2543.8835,N,08009.7280,W,1,8,1.7,15,M,,M,,*53
05/28/2014	01:06:16.544	$GPGGA,010616,2543.8835,N,08009.7281,W,1,8,1.7,15,M,,M,,*51
05/28/2014	01:06:17.560	$GPGGA,010617,2543.8837,N,08009.7281,W,1,8,1.7,15,M,,M,,*52
05/28/2014	01:06:18.596	$GPGGA,010618,2543.8836,N,08009.7281,W,1,8,1.7,15,M,,M,,*5C
05/28/2014	01:06:19.602	$GPGGA,010619,2543.8837,N,08009.7281,W,1,8,1.7,15,M,,M,,*5C
05/28/2014	01:06:20.637	$GPGGA,010620,2543.8836,N,08009.7283,W,1,8,1.7,15,M,,M,,*55
05/28/2014	01:06:21.674	$GPGGA,010621,2543.8837,N,08009.7282,W,1,8,1.7,16,M,,M,,*57
05/28/2014	01:06:22.679	$GPGGA,010622,2543.8836,N,08009.7283,W,1,8,1.7,16,M,,M,,*54
05/28/2014	01:06:23.716	$GPGGA,010623,2543.8837,N,08009.7282,W,1,8,1.7,16,M,,M,,*55
05/28/2014	01:06:24.824	$GPGGA,010624,2543.8836,N,08009.7283,W,1,8,1.7,16,M,,M,,*52
05/28/2014	01:06:25.870	$GPGGA,010625,2543.8837,N,08009.7283,W,1,8,1.7,16,M,,M,,*52
05/28/2014	01:06:26.855	$GPGGA,010626,2543.8836,N,08009.7282,W,1,8,1.7,16,M,,M,,*51
05/28/2014	01:06:27.789	$GPGGA,010627,2543.8837,N,08009.7283,W,1,8,1.7,16,M,,M,,*50
05/28/2014	01:06:28.938	$GPGGA,010628,2543.8836,N,08009.7282,W,1,8,1.7,16,M,,M,,*5F
05/28/2014	01:06:29.934	$GPGGA,010629,2543.8837,N,08009.7283,W,1,8,1.7,16,M,,M,,*5E
05/28/2014	01:06:30.878	$GPGGA,010630,2543.8836,N,08009.7282,W,1,8,1.7,16,M,,M,,*56
05/28/2014	01:06:31.986	$GPGGA,010631,2543.8837,N,08009.7283,W,1,8,1.7,16,M,,M,,*57
05/28/2014	01:06:32.950	$GPGGA,010632,2543.8836,N,08009.7282,W,1,8,1.7,16,M,,M,,*54
05/28/2014	01:06:34.038	$GPGGA,010633,2543.8837,N,08009.7283,W,1,8,1.7,16,M,,M,,*55
05/28/2014	01:06:34.972	$GPGGA,010634,2543.8836,N,08009.7283,W,1,8,1.7,16,M,,M,,*53
05/28/2014	01:06:36.090	$GPGGA,010635,2543.8837,N,08009.7283,W,1,8,1.7,16,M,,M,,*53
05/28/2014	01:06:37.116	$GPGGA,010636,2543.8838,N,08009.7283,W,1,8,1.7,16,M,,M,,*5F
05/28/2014	01:06:38.132	$GPGGA,010637,2543.8836,N,08009.7283,W,1,8,1.9,16,M,,M,,*5E
05/28/2014	01:06:39.147	$GPGGA,010638,2543.8835,N,08009.7281,W,1,8,1.9,16,M,,M,,*50
05/28/2014	01:06:38.618	$GPGGA,010639,2543.8835,N,08009.7281,W,1,8,1.9,16,M,,M,,*51
05/28/2014	01:06:39.645	$GPGGA,010640,2543.8833,N,08009.7280,W,1,8,1.9,16,M,,M,,*58
05/28/2014	01:06:40.650	$GPGGA,010641,2543.8835,N,08009.7281,W,1,8,1.7,16,M,,M,,*50
05/28/2014	01:06:41.688	$GPGGA,010642,2543.8835,N,08009.7283,W,1,8,1.7,16,M,,M,,*51
05/28/2014	01:06:42.723	$GPGGA,010643,2543.8838,N,08009.7283,W,1,8,1.7,16,M,,M,,*5D
05/28/2014	01:06:43.749	$GPGGA,010644,2543.8837,N,08009.7284,W,1,8,1.7,16,M,,M,,*52
05/28/2014	01:06:44.766	$GPGGA,010645,2543.8839,N,08009.7285,W,1,8,1.7,16,M,,M,,*5C
05/28/2014	01:06:45.776	$GPGGA,010646,2543.8839,N,08009.7285,W,1,8,1.7,16,M,,M,,*5F
05/28/2014	01:06:46.788	$GPGGA,010647,2543.8839,N,08009.7285,W,1,8,1.7,16,M,,M,,*5E
05/28/2014	01:06:47.799	$GPGGA,010648,2543.8839,N,08009.7285,W,1,8,1.7,17,M,,M,,*50
05/28/2014	01:06:48.809	$GPGGA,010649,2543.8837,N,08009.7285,W,1,8,1.7,17,M,,M,,*5F
05/28/2014	01:06:49.800	$GPGGA,010650,2543.8836,N,08009.7285,W,1,8,1.7,17,M,,M,,*56
05/28/2014	01:06:50.831	$GPGGA,010651,2543.8837,N,08009.7285,W,1,8,1.7,17,M,,M,,*56
05/28/2014	01:06:51.832	$GPGGA,010652,2543.8835,N,08009.7283,W,1,8,2.0,17,M,,M,,*55
05/28/2014	01:06:52.873	$GPGGA,010653,2543.8833,N,08009.7283,W,1,8,1.7,17,M,,M,,*56
05/28/2014	01:06:53.844	$GPGGA,010654,2543.8832,N,08009.7282,W,1,8,1.7,17,M,,M,,*51
05/28/2014	01:06:54.865	$GPGGA,010655,2543.8831,N,08009.7281,W,1,8,1.7,17,M,,M,,*50
05/28/2014	01:06:55.875	$GPGGA,010656,2543.8829,N,08009.7280,W,1,8,1.7,17,M,,M,,*5B
05/28/2014	01:06:56.867	$GPGGA,010657,2543.8828,N,08009.7279,W,1,8,1.7,16,M,,M,,*5C
05/28/2014	01:06:57.887	$GPGGA,010658,2543.8828,N,08009.7278,W,1,8,1.7,16,M,,M,,*52
05/28/2014	01:06:58.878	$GPGGA,010659,2543.8826,N,08009.7279,W,1,8,1.7,16,M,,M,,*5C
05/28/2014	01:06:59.929	$GPGGA,010700,2543.8827,N,08009.7277,W,1,8,1.7,16,M,,M,,*5E
05/28/2014	01:07:00.901	$GPGGA,010701,2543.8825,N,08009.7277,W,1,8,1.7,16,M,,M,,*5D
05/28/2014	01:07:01.921	$GPGGA,010702,2543.8824,N,08009.7277,W,1,8,1.7,16,M,,M,,*5F
05/28/2014	01:07:02.922	$GPGGA,010703,2543.8824,N,08009.7276,W,1,8,1.7,15,M,,M,,*5C
05/28/2014	01:07:03.953	$GPGGA,010704,2543.8824,N,08009.7276,W,1,8,1.7,15,M,,M,,*5B
05/28/2014	01:07:04.934	$GPGGA,010705,2543.8824,N,08009.7276,W,1,8,1.7,15,M,,M,,*5A
05/28/2014	01:07:05.955	$GPGGA,010706,2543.8824,N,08009.7277,W,1,8,1.7,15,M,,M,,*58
05/28/2014	01:07:06.976	$GPGGA,010707,2543.8824,N,08009.7276,W,1,8,1.7,15,M,,M,,*58
05/28/2014	01:07:07.977	$GPGGA,010708,2543.8824,N,08009.7276,W,1,8,1.7,14,M,,M,,*56
05/28/2014	01:07:09.079	$GPGGA,010709,2543.8826,N,08009.7276,W,1,8,1.7,14,M,,M,,*55
05/28/2014	01:07:09.989	$GPGGA,010710,2543.8825,N,08009.7276,W,1,8,1.7,14,M,,M,,*5E
05/28/2014	01:07:11.010	$GPGGA,010711,2543.8826,N,08009.7277,W,1,8,1.7,14,M,,M,,*5D
05/28/2014	01:07:12.021	$GPGGA,010712,2543.8825,N,08009.7277,W,1,8,1.7,14,M,,M,,*5D
05/28/2014	01:07:13.101	$GPGGA,010713,2543.8826,N,08009.7277,W,1,8,1.7,14,M,,M,,*5F
05/28/2014	01:07:14.021	$GPGGA,010714,2543.8825,N,08009.7277,W,1,8,1.7,14,M,,M,,*5B
05/28/2014	01:07:15.053	$GPGGA,010715,2543.8826,N,08009.7277,W,1,8,1.7,14,M,,M,,*59
05/28/2014	01:07:16.064	$GPGGA,010716,2543.8827,N,08009.7277,W,1,8,1.7,13,M,,M,,*5C
05/28/2014	01:07:17.145	$GPGGA,010717,2543.8826,N,08009.7277,W,1,8,1.7,13,M,,M,,*5C
05/28/2014	01:07:18.167	$GPGGA,010718,2543.8828,N,08009.7279,W,1,8,1.7,13,M,,M,,*53
05/28/2014	01:07:19.157	$GPGGA,010719,2543.8828,N,08009.7278,W,1,8,1.7,13,M,,M,,*53
05/28/2014	01:07:20.199	$GPGGA,010720,2543.8828,N,08009.7280,W,1,8,1.7,13,M,,M,,*5E
05/28/2014	01:07:21.179	$GPGGA,010721,2543.8828,N,08009.7279,W,1,8,1.7,13,M,,M,,*59
05/28/2014	01:07:22.099	$GPGGA,010722,2543.8830,N,08009.7280,W,1,8,1.7,13,M,,M,,*55
05/28/2014	01:07:23.201	$GPGGA,010723,2543.8831,N,08009.7280,W,1,8,1.7,13,M,,M,,*55
05/28/2014	01:07:24.222	$GPGGA,010724,2543.8830,N,08009.7280,W,1,8,1.7,13,M,,M,,*53
05/28/2014	01:07:25.244	$GPGGA,010725,2543.8831,N,08009.7280,W,1,8,1.7,13,M,,M,,*53
05/28/2014	01:07:26.224	$GPGGA,010726,2543.8831,N,08009.7281,W,1,8,1.7,13,M,,M,,*51
05/28/2014	01:07:27.255	$GPGGA,010727,2543.8831,N,08009.7281,W,1,8,1.7,13,M,,M,,*50
05/28/2014	01:07:28.266	$GPGGA,010728,2543.8833,N,08009.7281,W,1,8,1.7,13,M,,M,,*5D
05/28/2014	01:07:29.248	$GPGGA,010729,2543.8832,N,08009.7281,W,1,8,1.7,13,M,,M,,*5D
05/28/2014	01:07:30.267	$GPGGA,010730,2543.8833,N,08009.7281,W,1,8,1.7,13,M,,M,,*54
05/28/2014	01:07:31.283	$GPGGA,010731,2543.8834,N,08009.7281,W,1,8,1.7,14,M,,M,,*55
05/28/2014	01:07:32.289	$GPGGA,010732,2543.8833,N,08009.7280,W,1,8,1.7,14,M,,M,,*50
05/28/2014	01:07:33.310	$GPGGA,010733,2543.8834,N,08009.7280,W,1,8,1.7,14,M,,M,,*56
05/28/2014	01:07:34.311	$GPGGA,010734,2543.8833,N,08009.7280,W,1,8,1.7,14,M,,M,,*56
05/28/2014	01:07:35.302	$GPGGA,010735,2543.8834,N,08009.7280,W,1,8,1.7,14,M,,M,,*50
05/28/2014	01:07:36.333	$GPGGA,010736,2543.8833,N,08009.7280,W,1,8,1.7,14,M,,M,,*54
05/28/2014	01:07:37.334	$GPGGA,010737,2543.8834,N,08009.7281,W,1,8,1.7,14,M,,M,,*53
05/28/2014	01:07:38.335	$GPGGA,010738,2543.8833,N,08009.7281,W,1,8,1.7,14,M,,M,,*5B
05/28/2014	01:07:38.592	$GPGGA,010739,2543.8835,N,08009.7281,W,1,8,1.7,14,M,,M,,*5C
05/28/2014	01:07:39.583	$GPGGA,010740,2543.8835,N,08009.7281,W,1,8,1.7,14,M,,M,,*52
05/28/2014	01:07:40.584	$GPGGA,010741,2543.8835,N,08009.7281,W,1,8,1.7,14,M,,M,,*53
05/28/2014	01:07:41.585	$GPGGA,010742,2543.8835,N,08009.7281,W,1,8,1.7,14,M,,M,,*50
05/28/2014	01:07:42.636	$GPGGA,010743,2543.8835,N,08009.7281,W,1,8,1.7,14,M,,M,,*51
05/28/2014	01:07:43.627	$GPGGA,010744,2543.8835,N,08009.7281,W,1,8,1.7,14,M,,M,,*56
05/28/2014	01:07:44.608	$GPGGA,010745,2543.8835,N,08009.7281,W,1,8,1.7,14,M,,M,,*57
05/28/2014	01:07:45.639	$GPGGA,010746,2543.8835,N,08009.7281,W,1,8,1.7,14,M,,M,,*54
05/28/2014	01:07:46.630	$GPGGA,010747,2543.8835,N,08009.7283,W,1,8,1.7,14,M,,M,,*57
05/28/2014	01:07:47.650	$GPGGA,010748,2543.8835,N,08009.7282,W,1,8,1.7,14,M,,M,,*59
05/28/2014	01:07:48.661	$GPGGA,010749,2543.8835,N,08009.7283,W,1,8,1.7,14,M,,M,,*59
05/28/2014	01:07:49.662	$GPGGA,010750,2543.8835,N,08009.7282,W,1,8,1.7,14,M,,M,,*50
05/28/2014	01:07:50.673	$GPGGA,010751,2543.8835,N,08009.7283,W,1,8,1.7,14,M,,M,,*50
05/28/2014	01:07:51.795	$GPGGA,010752,2543.8835,N,08009.7282,W,1,8,1.7,14,M,,M,,*52
05/28/2014	01:07:52.705	$GPGGA,010753,2543.8835,N,08009.7283,W,1,8,1.7,14,M,,M,,*52
05/28/2014	01:07:53.706	$GPGGA,010754,2543.8837,N,08009.7282,W,1,8,1.7,14,M,,M,,*56
05/28/2014	01:07:54.737	$GPGGA,010755,2543.8836,N,08009.7283,W,1,8,1.7,14,M,,M,,*57
05/28/2014	01:07:55.738	$GPGGA,010756,2543.8837,N,08009.7282,W,1,8,1.7,14,M,,M,,*54
05/28/2014	01:07:56.729	$GPGGA,010757,2543.8838,N,08009.7283,W,1,8,1.7,14,M,,M,,*5B
05/28/2014	01:07:57.730	$GPGGA,010758,2543.8837,N,08009.7282,W,1,8,1.7,14,M,,M,,*5A
05/28/2014	01:07:58.761	$GPGGA,010759,2543.8838,N,08009.7283,W,1,8,1.7,14,M,,M,,*55
05/28/2014	01:07:59.782	$GPGGA,010800,2543.8837,N,08009.7282,W,1,8,1.7,14,M,,M,,*58
05/28/2014	01:08:00.783	$GPGGA,010801,2543.8838,N,08009.7283,W,1,8,1.7,14,M,,M,,*57
05/28/2014	01:08:01.865	$GPGGA,010802,2543.8836,N,08009.7282,W,1,8,1.7,14,M,,M,,*5B
05/28/2014	01:08:02.774	$GPGGA,010803,2543.8837,N,08009.7283,W,1,8,1.7,14,M,,M,,*5A
05/28/2014	01:08:03.796	$GPGGA,010804,2543.8836,N,08009.7282,W,1,8,1.7,14,M,,M,,*5D
05/28/2014	01:08:04.907	$GPGGA,010805,2543.8837,N,08009.7283,W,1,8,1.7,14,M,,M,,*5C
05/28/2014	01:08:05.806	$GPGGA,010806,2543.8838,N,08009.7282,W,1,8,1.7,14,M,,M,,*51
05/28/2014	01:08:06.919	$GPGGA,010807,2543.8837,N,08009.7283,W,1,8,1.7,14,M,,M,,*5E
05/28/2014	01:08:07.930	$GPGGA,010808,2543.8836,N,08009.7283,W,1,8,1.7,14,M,,M,,*50
05/28/2014	01:08:08.930	$GPGGA,010809,2543.8837,N,08009.7283,W,1,8,1.7,14,M,,M,,*50
05/28/2014	01:08:09.941	$GPGGA,010810,2543.8836,N,08009.7283,W,1,8,1.7,14,M,,M,,*59
05/28/2014	01:08:10.942	$GPGGA,010811,2543.8837,N,08009.7283,W,1,8,1.7,14,M,,M,,*59
05/28/2014	01:08:11.974	$GPGGA,010812,2543.8836,N,08009.7283,W,1,8,1.7,14,M,,M,,*5B
05/28/2014	01:08:12.974	$GPGGA,010813,2543.8837,N,08009.7283,W,1,8,1.7,14,M,,M,,*5B
05/28/2014	01:08:13.975	$GPGGA,010814,2543.8836,N,08009.7283,W,1,8,1.7,14,M,,M,,*5D
05/28/2014	01:08:15.007	$GPGGA,010815,2543.8838,N,08009.7283,W,1,7,2.0,14,M,,M,,*59
05/28/2014	01:08:16.007	$GPGGA,010816,2543.8837,N,08009.7284,W,1,7,2.0,14,M,,M,,*52
05/28/2014	01:08:17.039	$GPGGA,010817,2543.8838,N,08009.7284,W,1,7,2.0,14,M,,M,,*5C
05/28/2014	01:08:18.009	$GPGGA,010818,2543.8837,N,08009.7284,W,1,7,2.0,15,M,,M,,*5D
05/28/2014	01:08:19.040	$GPGGA,010819,2543.8838,N,08009.7285,W,1,7,2.0,15,M,,M,,*52
05/28/2014	01:08:20.042	$GPGGA,010820,2543.8837,N,08009.7285,W,1,7,2.0,15,M,,M,,*57
05/28/2014	01:08:21.062	$GPGGA,010821,2543.8838,N,08009.7285,W,1,7,2.0,15,M,,M,,*59
05/28/2014	01:08:22.054	$GPGGA,010822,2543.8837,N,08009.7287,W,1,7,2.0,15,M,,M,,*57
05/28/2014	01:08:23.073	$GPGGA,010823,2543.8839,N,08009.7286,W,1,7,2.0,15,M,,M,,*59
05/28/2014	01:08:24.075	$GPGGA,010824,2543.8839,N,08009.7287,W,1,7,2.0,15,M,,M,,*5F
05/28/2014	01:08:25.087	$GPGGA,010825,2543.8839,N,08009.7287,W,1,7,2.0,15,M,,M,,*5E
05/28/2014	01:08:26.086	$GPGGA,010826,2543.8839,N,08009.7287,W,1,7,2.0,15,M,,M,,*5D
05/28/2014	01:08:27.087	$GPGGA,010827,2543.8839,N,08009.7287,W,1,7,2.0,15,M,,M,,*5C
05/28/2014	01:08:28.119	$GPGGA,010828,2543.8839,N,08009.7287,W,1,7,2.0,15,M,,M,,*53
05/28/2014	01:08:29.140	$GPGGA,010829,2543.8839,N,08009.7287,W,1,7,2.0,15,M,,M,,*52
05/28/2014	01:08:30.110	$GPGGA,010830,2543.8839,N,08009.7287,W,1,7,2.0,15,M,,M,,*5A
05/28/2014	01:08:31.141	$GPGGA,010831,2543.8839,N,08009.7287,W,1,7,2.0,15,M,,M,,*5B
05/28/2014	01:08:32.162	$GPGGA,010832,2543.8839,N,08009.7287,W,1,7,2.0,16,M,,M,,*5B
05/28/2014	01:08:33.153	$GPGGA,010833,2543.8839,N,08009.7287,W,1,7,2.0,16,M,,M,,*5A
05/28/2014	01:08:34.154	$GPGGA,010834,2543.8839,N,08009.7287,W,1,7,2.0,16,M,,M,,*5D
05/28/2014	01:08:35.196	$GPGGA,010835,2543.8839,N,08009.7287,W,1,7,2.0,16,M,,M,,*5C
05/28/2014	01:08:36.186	$GPGGA,010836,2543.8839,N,08009.7286,W,1,7,2.0,16,M,,M,,*5E
05/28/2014	01:08:37.187	$GPGGA,010837,2543.8839,N,08009.7287,W,1,7,2.0,16,M,,M,,*5E
05/28/2014	01:08:37.691	$GPGGA,010838,2543.8836,N,08009.7286,W,1,7,2.0,16,M,,M,,*5F
05/28/2014	01:08:38.693	$GPGGA,010839,2543.8837,N,08009.7285,W,1,8,1.6,16,M,,M,,*56
05/28/2014	01:08:39.571	$GPGGA,010840,2543.8839,N,08009.7287,W,1,8,1.6,16,M,,M,,*54
05/28/2014	01:08:40.592	$GPGGA,010841,2543.8841,N,08009.7288,W,1,8,1.6,16,M,,M,,*55
05/28/2014	01:08:41.573	$GPGGA,010842,2543.8842,N,08009.7288,W,1,8,1.6,16,M,,M,,*55
05/28/2014	01:08:42.594	$GPGGA,010843,2543.8842,N,08009.7290,W,1,8,1.6,16,M,,M,,*5D
05/28/2014	01:08:43.767	$GPGGA,010844,2543.8842,N,08009.7289,W,1,8,1.6,16,M,,M,,*52
05/28/2014	01:08:44.586	$GPGGA,010845,2543.8844,N,08009.7290,W,1,8,1.6,16,M,,M,,*5D
05/28/2014	01:08:45.607	$GPGGA,010846,2543.8846,N,08009.7291,W,1,8,1.6,17,M,,M,,*5C
05/28/2014	01:08:46.739	$GPGGA,010847,2543.8846,N,08009.7291,W,1,8,1.6,17,M,,M,,*5D
05/28/2014	01:08:47.629	$GPGGA,010848,2543.8846,N,08009.7292,W,1,8,1.6,17,M,,M,,*51
05/28/2014	01:08:48.640	$GPGGA,010849,2543.8846,N,08009.7292,W,1,8,1.6,17,M,,M,,*50
05/28/2014	01:08:49.731	$GPGGA,010850,2543.8846,N,08009.7292,W,1,8,1.6,18,M,,M,,*57
05/28/2014	01:08:50.763	$GPGGA,010851,2543.8846,N,08009.7292,W,1,8,1.6,18,M,,M,,*56
05/28/2014	01:08:51.824	$GPGGA,010852,2543.8846,N,08009.7292,W,1,8,1.6,18,M,,M,,*55
05/28/2014	01:08:52.674	$GPGGA,010853,2543.8848,N,08009.7292,W,1,8,1.6,18,M,,M,,*5A
05/28/2014	01:08:53.674	$GPGGA,010854,2543.8847,N,08009.7294,W,1,8,1.6,19,M,,M,,*55
05/28/2014	01:08:54.797	$GPGGA,010855,2543.8849,N,08009.7293,W,1,8,1.6,19,M,,M,,*5D
05/28/2014	01:08:55.888	$GPGGA,010856,2543.8849,N,08009.7294,W,1,8,1.6,19,M,,M,,*59
05/28/2014	01:08:56.869	$GPGGA,010857,2543.8850,N,08009.7295,W,1,8,1.6,19,M,,M,,*51
05/28/2014	01:08:57.798	$GPGGA,010858,2543.8850,N,08009.7295,W,1,8,1.6,19,M,,M,,*5E
05/28/2014	01:08:58.829	$GPGGA,010859,2543.8852,N,08009.7295,W,1,8,1.6,20,M,,M,,*57
05/28/2014	01:08:59.912	$GPGGA,010900,2543.8851,N,08009.7295,W,1,8,1.6,20,M,,M,,*59
05/28/2014	01:09:00.882	$GPGGA,010901,2543.8853,N,08009.7296,W,1,8,1.6,20,M,,M,,*59
05/28/2014	01:09:01.913	$GPGGA,010902,2543.8853,N,08009.7296,W,1,8,1.6,20,M,,M,,*5A
05/28/2014	01:09:02.905	$GPGGA,010903,2543.8853,N,08009.7296,W,1,8,1.6,21,M,,M,,*5A
05/28/2014	01:09:03.864	$GPGGA,010904,2543.8853,N,08009.7296,W,1,8,1.6,21,M,,M,,*5D
05/28/2014	01:09:04.865	$GPGGA,010905,2543.8855,N,08009.7296,W,1,8,1.6,21,M,,M,,*5A
05/28/2014	01:09:05.886	$GPGGA,010906,2543.8854,N,08009.7298,W,1,8,1.6,21,M,,M,,*56
05/28/2014	01:09:06.928	$GPGGA,010907,2543.8855,N,08009.7297,W,1,8,1.6,22,M,,M,,*5A
05/28/2014	01:09:07.979	$GPGGA,010908,2543.8853,N,08009.7296,W,1,8,1.6,22,M,,M,,*52
05/28/2014	01:09:08.950	$GPGGA,010909,2543.8853,N,08009.7296,W,1,8,1.6,22,M,,M,,*53
05/28/2014	01:09:09.961	$GPGGA,010910,2543.8853,N,08009.7296,W,1,8,1.6,22,M,,M,,*5B
05/28/2014	01:09:10.972	$GPGGA,010911,2543.8853,N,08009.7295,W,1,8,1.6,22,M,,M,,*59
05/28/2014	01:09:11.942	$GPGGA,010912,2543.8853,N,08009.7294,W,1,8,1.6,22,M,,M,,*5B
05/28/2014	01:09:12.983	$GPGGA,010913,2543.8853,N,08009.7294,W,1,8,1.6,23,M,,M,,*5B
05/28/2014	01:09:13.994	$GPGGA,010914,2543.8853,N,08009.7293,W,1,8,1.6,23,M,,M,,*5B
05/28/2014	01:09:15.015	$GPGGA,010915,2543.8853,N,08009.7294,W,1,8,1.6,23,M,,M,,*5D
05/28/2014	01:09:16.036	$GPGGA,010916,2543.8851,N,08009.7293,W,1,8,1.6,23,M,,M,,*5B
05/28/2014	01:09:16.999	$GPGGA,010917,2543.8852,N,08009.7292,W,1,8,1.6,23,M,,M,,*58
05/28/2014	01:09:18.037	$GPGGA,010918,2543.8851,N,08009.7292,W,1,8,1.6,23,M,,M,,*54
05/28/2014	01:09:19.018	$GPGGA,010919,2543.8850,N,08009.7292,W,1,8,1.6,23,M,,M,,*54
05/28/2014	01:09:20.009	$GPGGA,010920,2543.8850,N,08009.7291,W,1,8,1.6,23,M,,M,,*5D
05/28/2014	01:09:21.050	$GPGGA,010921,2543.8850,N,08009.7291,W,1,8,1.6,23,M,,M,,*5C
05/28/2014	01:09:22.011	$GPGGA,010922,2543.8850,N,08009.7291,W,1,8,1.6,23,M,,M,,*5F
05/28/2014	01:09:23.022	$GPGGA,010923,2543.8849,N,08009.7290,W,1,8,1.6,23,M,,M,,*57
05/28/2014	01:09:24.043	$GPGGA,010924,2543.8849,N,08009.7290,W,1,8,1.6,23,M,,M,,*50
05/28/2014	01:09:25.074	$GPGGA,010925,2543.8848,N,08009.7289,W,1,8,1.6,23,M,,M,,*58
05/28/2014	01:09:26.055	$GPGGA,010926,2543.8849,N,08009.7290,W,1,8,1.6,23,M,,M,,*52
05/28/2014	01:09:27.126	$GPGGA,010927,2543.8847,N,08009.7289,W,1,8,1.6,23,M,,M,,*55
05/28/2014	01:09:28.087	$GPGGA,010928,2543.8848,N,08009.7288,W,1,8,1.6,23,M,,M,,*54
05/28/2014	01:09:29.118	$GPGGA,010929,2543.8846,N,08009.7288,W,1,8,1.6,23,M,,M,,*5B
05/28/2014	01:09:30.190	$GPGGA,010930,2543.8846,N,08009.7288,W,1,8,1.6,23,M,,M,,*53
05/28/2014	01:09:31.251	$GPGGA,010931,2543.8846,N,08009.7288,W,1,8,1.6,23,M,,M,,*52
05/28/2014	01:09:32.181	$GPGGA,010932,2543.8846,N,08009.7287,W,1,8,1.6,22,M,,M,,*5F
05/28/2014	01:09:33.181	$GPGGA,010933,2543.8846,N,08009.7287,W,1,8,1.6,22,M,,M,,*5E
05/28/2014	01:09:34.172	$GPGGA,010934,2543.8844,N,08009.7287,W,1,8,1.6,22,M,,M,,*5B
05/28/2014	01:09:35.244	$GPGGA,010935,2543.8845,N,08009.7287,W,1,8,1.6,22,M,,M,,*5B
05/28/2014	01:09:36.224	$GPGGA,010936,2543.8844,N,08009.7286,W,1,8,1.6,22,M,,M,,*58
05/28/2014	01:09:37.225	$GPGGA,010937,2543.8843,N,08009.7287,W,1,8,1.6,22,M,,M,,*5F
05/28/2014	01:09:38.226	$GPGGA,010938,2543.8844,N,08009.7286,W,1,8,1.6,22,M,,M,,*56
05/28/2014	01:09:38.609	$GPGGA,010939,2543.8843,N,08009.7287,W,1,8,1.6,22,M,,M,,*51
05/28/2014	01:09:39.631	$GPGGA,010940,2543.8844,N,08009.7286,W,1,8,1.6,22,M,,M,,*59
05/28/2014	01:09:40.672	$GPGGA,010941,2543.8843,N,08009.7287,W,1,8,1.6,22,M,,M,,*5E
05/28/2014	01:09:41.632	$GPGGA,010942,2543.8844,N,08009.7286,W,1,8,1.6,21,M,,M,,*58
05/28/2014	01:09:42.643	$GPGGA,010943,2543.8843,N,08009.7287,W,1,8,1.6,21,M,,M,,*5F
05/28/2014	01:09:43.685	$GPGGA,010944,2543.8844,N,08009.7286,W,1,8,1.6,21,M,,M,,*5E
05/28/2014	01:09:44.665	$GPGGA,010945,2543.8843,N,08009.7287,W,1,8,1.6,21,M,,M,,*59
05/28/2014	01:09:45.686	$GPGGA,010946,2543.8844,N,08009.7286,W,1,8,1.6,21,M,,M,,*5C
05/28/2014	01:09:46.697	$GPGGA,010947,2543.8843,N,08009.7287,W,1,8,1.6,21,M,,M,,*5B
05/28/2014	01:09:47.720	$GPGGA,010948,2543.8844,N,08009.7286,W,1,8,1.6,21,M,,M,,*52
05/28/2014	01:09:48.719	$GPGGA,010949,2543.8843,N,08009.7287,W,1,8,1.6,21,M,,M,,*55
05/28/2014	01:09:49.719	$GPGGA,010950,2543.8844,N,08009.7286,W,1,8,1.6,21,M,,M,,*5B
05/28/2014	01:09:50.720	$GPGGA,010951,2543.8842,N,08009.7287,W,1,8,1.6,21,M,,M,,*5D
05/28/2014	01:09:51.741	$GPGGA,010952,2543.8842,N,08009.7286,W,1,8,1.6,21,M,,M,,*5F
05/28/2014	01:09:52.773	$GPGGA,010953,2543.8842,N,08009.7287,W,1,8,1.6,21,M,,M,,*5F
05/28/2014	01:09:53.763	$GPGGA,010954,2543.8842,N,08009.7285,W,1,8,1.6,21,M,,M,,*5A
05/28/2014	01:09:54.764	$GPGGA,010955,2543.8842,N,08009.7285,W,1,8,1.6,21,M,,M,,*5B
05/28/2014	01:09:55.795	$GPGGA,010956,2543.8840,N,08009.7285,W,1,8,1.6,21,M,,M,,*5A
05/28/2014	01:09:56.796	$GPGGA,010957,2543.8841,N,08009.7285,W,1,8,1.6,20,M,,M,,*5B
05/28/2014	01:09:57.807	$GPGGA,010958,2543.8840,N,08009.7284,W,1,8,1.6,20,M,,M,,*54
05/28/2014	01:09:58.798	$GPGGA,010959,2543.8839,N,08009.7284,W,1,8,1.6,20,M,,M,,*5B
05/28/2014	01:09:59.829	$GPGGA,011000,2543.8839,N,08009.7284,W,1,8,1.6,20,M,,M,,*5F
05/28/2014	01:10:00.830	$GPGGA,011001,2543.8839,N,08009.7283,W,1,8,1.6,20,M,,M,,*59
05/28/2014	01:10:01.811	$GPGGA,011002,2543.8839,N,08009.7283,W,1,8,1.6,20,M,,M,,*5A
05/28/2014	01:10:02.862	$GPGGA,011003,2543.8839,N,08009.7283,W,1,8,1.6,20,M,,M,,*5B
05/28/2014	01:10:03.883	$GPGGA,011004,2543.8839,N,08009.7283,W,1,8,1.6,20,M,,M,,*5C
05/28/2014	01:10:04.845	$GPGGA,011005,2543.8837,N,08009.7282,W,1,8,1.6,20,M,,M,,*52
05/28/2014	01:10:05.865	$GPGGA,011006,2543.8838,N,08009.7283,W,1,8,1.6,20,M,,M,,*5F
05/28/2014	01:10:06.978	$GPGGA,011007,2543.8837,N,08009.7282,W,1,8,1.6,20,M,,M,,*50
05/28/2014	01:10:07.876	$GPGGA,011008,2543.8838,N,08009.7283,W,1,8,1.6,19,M,,M,,*5B
05/28/2014	01:10:08.888	$GPGGA,011009,2543.8837,N,08009.7281,W,1,8,1.6,19,M,,M,,*57
05/28/2014	01:10:09.919	$GPGGA,011010,2543.8836,N,08009.7281,W,1,8,1.6,19,M,,M,,*5E
05/28/2014	01:10:10.909	$GPGGA,011011,2543.8835,N,08009.7281,W,1,8,1.6,19,M,,M,,*5C
05/28/2014	01:10:12.031	$GPGGA,011012,2543.8835,N,08009.7280,W,1,8,1.6,19,M,,M,,*5E
05/28/2014	01:10:13.022	$GPGGA,011013,2543.8835,N,08009.7280,W,1,8,1.6,19,M,,M,,*5F
05/28/2014	01:10:13.952	$GPGGA,011014,2543.8833,N,08009.7280,W,1,8,1.6,18,M,,M,,*5F
05/28/2014	01:10:14.933	$GPGGA,011015,2543.8834,N,08009.7279,W,1,8,1.6,18,M,,M,,*5F
05/28/2014	01:10:15.994	$GPGGA,011016,2543.8832,N,08009.7280,W,1,8,1.6,18,M,,M,,*5C
05/28/2014	01:10:16.976	$GPGGA,011017,2543.8832,N,08009.7280,W,1,8,1.6,18,M,,M,,*5D
05/28/2014	01:10:17.966	$GPGGA,011018,2543.8833,N,08009.7279,W,1,8,1.6,18,M,,M,,*55
05/28/2014	01:10:18.977	$GPGGA,011019,2543.8830,N,08009.7279,W,1,8,1.6,18,M,,M,,*57
05/28/2014	01:10:19.998	$GPGGA,011020,2543.8830,N,08009.7279,W,1,8,1.6,18,M,,M,,*5D
05/28/2014	01:10:21.029	$GPGGA,011021,2543.8831,N,08009.7280,W,1,8,2.0,17,M,,M,,*51
05/28/2014	01:10:22.111	$GPGGA,011022,2543.8831,N,08009.7279,W,1,8,2.0,17,M,,M,,*54
05/28/2014	01:10:23.011	$GPGGA,011023,2543.8833,N,08009.7280,W,1,7,2.0,17,M,,M,,*5E
05/28/2014	01:10:24.113	$GPGGA,011024,2543.8832,N,08009.7279,W,1,7,2.0,17,M,,M,,*5E
05/28/2014	01:10:25.011	$GPGGA,011025,2543.8834,N,08009.7280,W,1,7,2.0,17,M,,M,,*5F
05/28/2014	01:10:26.083	$GPGGA,011026,2543.8835,N,08009.7280,W,1,7,2.0,17,M,,M,,*5D
05/28/2014	01:10:27.134	$GPGGA,011027,2543.8839,N,08009.7283,W,1,7,2.0,17,M,,M,,*53
05/28/2014	01:10:28.156	$GPGGA,011028,2543.8839,N,08009.7282,W,1,7,1.6,17,M,,M,,*58
05/28/2014	01:10:29.177	$GPGGA,011029,2543.8842,N,08009.7283,W,1,8,1.6,17,M,,M,,*5B
05/28/2014	01:10:30.167	$GPGGA,011030,2543.8842,N,08009.7284,W,1,8,1.6,17,M,,M,,*54
05/28/2014	01:10:31.168	$GPGGA,011031,2543.8842,N,08009.7284,W,1,8,1.6,17,M,,M,,*55
05/28/2014	01:10:32.200	$GPGGA,011032,2543.8846,N,08009.7287,W,1,8,2.0,17,M,,M,,*54
05/28/2014	01:10:33.221	$GPGGA,011033,2543.8848,N,08009.7287,W,1,8,1.6,18,M,,M,,*51
05/28/2014	01:10:34.201	$GPGGA,011034,2543.8849,N,08009.7288,W,1,8,1.6,18,M,,M,,*58
05/28/2014	01:10:35.222	$GPGGA,011035,2543.8850,N,08009.7290,W,1,8,1.6,18,M,,M,,*58
05/28/2014	01:10:36.233	$GPGGA,011036,2543.8853,N,08009.7290,W,1,8,1.6,18,M,,M,,*58
05/28/2014	01:10:37.244	$GPGGA,011037,2543.8855,N,08009.7290,W,1,8,1.6,19,M,,M,,*5E
05/28/2014	01:10:38.246	$GPGGA,011038,2543.8856,N,08009.7291,W,1,8,1.6,19,M,,M,,*53
05/28/2014	01:10:38.597	$GPGGA,011039,2543.8857,N,08009.7292,W,1,8,1.6,19,M,,M,,*50
05/28/2014	01:10:39.608	$GPGGA,011040,2543.8857,N,08009.7294,W,1,8,1.6,20,M,,M,,*52
05/28/2014	01:10:40.589	$GPGGA,011041,2543.8857,N,08009.7293,W,1,8,1.6,20,M,,M,,*54
05/28/2014	01:10:41.610	$GPGGA,011042,2543.8859,N,08009.7294,W,1,8,1.6,20,M,,M,,*5E
05/28/2014	01:10:42.650	$GPGGA,011043,2543.8858,N,08009.7292,W,1,8,1.6,21,M,,M,,*59
05/28/2014	01:10:43.631	$GPGGA,011044,2543.8859,N,08009.7292,W,1,8,1.6,21,M,,M,,*5F
05/28/2014	01:10:44.622	$GPGGA,011045,2543.8857,N,08009.7292,W,1,8,1.6,22,M,,M,,*53
05/28/2014	01:10:45.653	$GPGGA,011046,2543.8857,N,08009.7292,W,1,8,1.6,22,M,,M,,*50
05/28/2014	01:10:46.644	$GPGGA,011047,2543.8857,N,08009.7292,W,1,8,1.6,22,M,,M,,*51
05/28/2014	01:10:47.676	$GPGGA,011048,2543.8857,N,08009.7292,W,1,8,1.6,22,M,,M,,*5E
05/28/2014	01:10:48.696	$GPGGA,011049,2543.8857,N,08009.7292,W,1,8,1.6,23,M,,M,,*5E
05/28/2014	01:10:49.677	$GPGGA,011050,2543.8857,N,08009.7292,W,1,8,1.6,23,M,,M,,*56
05/28/2014	01:10:50.728	$GPGGA,011051,2543.8857,N,08009.7292,W,1,8,1.6,23,M,,M,,*57
05/28/2014	01:10:51.719	$GPGGA,011052,2543.8857,N,08009.7294,W,1,8,1.6,23,M,,M,,*52
05/28/2014	01:10:52.740	$GPGGA,011053,2543.8857,N,08009.7293,W,1,8,1.6,24,M,,M,,*53
05/28/2014	01:10:53.721	$GPGGA,011054,2543.8857,N,08009.7294,W,1,8,1.6,24,M,,M,,*53
05/28/2014	01:10:54.722	$GPGGA,011055,2543.8857,N,08009.7293,W,1,8,1.6,24,M,,M,,*55
05/28/2014	01:10:55.743	$GPGGA,011056,2543.8857,N,08009.7294,W,1,8,1.6,24,M,,M,,*51
05/28/2014	01:10:56.754	$GPGGA,011057,2543.8857,N,08009.7293,W,1,8,1.6,25,M,,M,,*56
05/28/2014	01:10:57.846	$GPGGA,011058,2543.8857,N,08009.7294,W,1,8,1.6,25,M,,M,,*5E
05/28/2014	01:10:58.797	$GPGGA,011059,2543.8857,N,08009.7293,W,1,8,1.6,25,M,,M,,*58
05/28/2014	01:10:59.897	$GPGGA,011100,2543.8857,N,08009.7294,W,1,8,1.6,25,M,,M,,*52
05/28/2014	01:11:00.908	$GPGGA,011101,2543.8855,N,08009.7293,W,1,8,1.6,25,M,,M,,*56
05/28/2014	01:11:01.799	$GPGGA,011102,2543.8854,N,08009.7292,W,1,8,1.6,25,M,,M,,*55
05/28/2014	01:11:02.799	$GPGGA,011103,2543.8853,N,08009.7292,W,1,8,1.6,25,M,,M,,*53
05/28/2014	01:11:03.810	$GPGGA,011104,2543.8853,N,08009.7291,W,1,8,1.6,25,M,,M,,*57
05/28/2014	01:11:04.812	$GPGGA,011105,2543.8853,N,08009.7291,W,1,8,1.6,26,M,,M,,*55
05/28/2014	01:11:05.923	$GPGGA,011106,2543.8851,N,08009.7290,W,1,8,1.6,26,M,,M,,*55
05/28/2014	01:11:06.934	$GPGGA,011107,2543.8852,N,08009.7290,W,1,8,1.6,26,M,,M,,*57
05/28/2014	01:11:07.864	$GPGGA,011108,2543.8850,N,08009.7289,W,1,8,1.6,26,M,,M,,*52
05/28/2014	01:11:08.976	$GPGGA,011109,2543.8850,N,08009.7290,W,1,8,1.6,25,M,,M,,*58
05/28/2014	01:11:09.967	$GPGGA,011110,2543.8849,N,08009.7289,W,1,8,1.6,25,M,,M,,*50
05/28/2014	01:11:10.957	$GPGGA,011111,2543.8848,N,08009.7290,W,1,8,1.6,25,M,,M,,*58
05/28/2014	01:11:11.999	$GPGGA,011112,2543.8847,N,08009.7289,W,1,8,1.6,25,M,,M,,*5C
05/28/2014	01:11:12.899	$GPGGA,011113,2543.8848,N,08009.7288,W,1,8,1.6,25,M,,M,,*53
05/28/2014	01:11:13.899	$GPGGA,011114,2543.8846,N,08009.7288,W,1,8,1.6,25,M,,M,,*5A
05/28/2014	01:11:15.022	$GPGGA,011115,2543.8846,N,08009.7288,W,1,8,1.6,25,M,,M,,*5B
05/28/2014	01:11:16.023	$GPGGA,011116,2543.8846,N,08009.7288,W,1,8,1.6,25,M,,M,,*58
05/28/2014	01:11:17.054	$GPGGA,011117,2543.8844,N,08009.7288,W,1,8,1.6,25,M,,M,,*5B
05/28/2014	01:11:18.023	$GPGGA,011118,2543.8845,N,08009.7288,W,1,8,1.6,25,M,,M,,*55
05/28/2014	01:11:19.065	$GPGGA,011119,2543.8843,N,08009.7288,W,1,8,1.6,25,M,,M,,*52
05/28/2014	01:11:20.055	$GPGGA,011120,2543.8842,N,08009.7288,W,1,8,1.6,24,M,,M,,*58
05/28/2014	01:11:21.087	$GPGGA,011121,2543.8842,N,08009.7288,W,1,8,1.6,24,M,,M,,*59
05/28/2014	01:11:22.059	$GPGGA,011122,2543.8842,N,08009.7288,W,1,8,1.6,24,M,,M,,*5A
05/28/2014	01:11:23.099	$GPGGA,011123,2543.8842,N,08009.7288,W,1,8,1.6,24,M,,M,,*5B
05/28/2014	01:11:24.099	$GPGGA,011124,2543.8840,N,08009.7288,W,1,8,1.6,24,M,,M,,*5E
05/28/2014	01:11:25.110	$GPGGA,011125,2543.8841,N,08009.7288,W,1,8,1.6,24,M,,M,,*5E
05/28/2014	01:11:26.102	$GPGGA,011126,2543.8839,N,08009.7288,W,1,8,1.6,24,M,,M,,*52
05/28/2014	01:11:27.132	$GPGGA,011127,2543.8839,N,08009.7288,W,1,8,1.6,23,M,,M,,*54
05/28/2014	01:11:28.123	$GPGGA,011128,2543.8839,N,08009.7288,W,1,8,1.6,23,M,,M,,*5B
05/28/2014	01:11:29.144	$GPGGA,011129,2543.8839,N,08009.7288,W,1,8,1.6,23,M,,M,,*5A
05/28/2014	01:11:30.139	$GPGGA,011130,2543.8839,N,08009.7288,W,1,8,1.6,23,M,,M,,*52
05/28/2014	01:11:31.176	$GPGGA,011131,2543.8837,N,08009.7288,W,1,8,1.6,23,M,,M,,*5D
05/28/2014	01:11:32.157	$GPGGA,011132,2543.8838,N,08009.7288,W,1,8,1.6,23,M,,M,,*51
05/28/2014	01:11:33.178	$GPGGA,011133,2543.8837,N,08009.7290,W,1,8,1.6,23,M,,M,,*56
05/28/2014	01:11:34.169	$GPGGA,011134,2543.8836,N,08009.7289,W,1,8,1.6,23,M,,M,,*58
05/28/2014	01:11:35.209	$GPGGA,011135,2543.8837,N,08009.7290,W,1,8,1.6,22,M,,M,,*51
05/28/2014	01:11:36.200	$GPGGA,011136,2543.8836,N,08009.7289,W,1,8,1.6,22,M,,M,,*5B
05/28/2014	01:11:37.222	$GPGGA,011137,2543.8837,N,08009.7290,W,1,8,1.6,22,M,,M,,*53
05/28/2014	01:11:38.202	$GPGGA,011138,2543.8836,N,08009.7290,W,1,8,1.6,22,M,,M,,*5D
05/28/2014	01:11:38.585	$GPGGA,011139,2543.8837,N,08009.7290,W,1,8,1.6,22,M,,M,,*5D
05/28/2014	01:11:39.596	$GPGGA,011140,2543.8836,N,08009.7290,W,1,8,1.6,22,M,,M,,*52
05/28/2014	01:11:40.568	$GPGGA,011141,2543.8837,N,08009.7290,W,1,8,1.6,22,M,,M,,*52
05/28/2014	01:11:41.588	$GPGGA,011142,2543.8836,N,08009.7290,W,1,8,1.6,22,M,,M,,*50
05/28/2014	01:11:42.579	$GPGGA,011143,2543.8837,N,08009.7290,W,1,8,1.6,22,M,,M,,*50
05/28/2014	01:11:43.620	$GPGGA,011144,2543.8836,N,08009.7290,W,1,8,1.6,22,M,,M,,*56
05/28/2014	01:11:44.631	$GPGGA,011145,2543.8837,N,08009.7291,W,1,8,1.6,22,M,,M,,*57
05/28/2014	01:11:45.610	$GPGGA,011146,2543.8836,N,08009.7291,W,1,8,1.6,22,M,,M,,*55
05/28/2014	01:11:46.616	$GPGGA,011147,2543.8837,N,08009.7291,W,1,8,1.6,22,M,,M,,*55
