Software Version Number: 1	Data File Format Number: 1	Build Version Number: 1	Error Count Since VI Started: 0	Manufacturer: Raytheon	 Model Number: RayMarine 120	 S/N: 	 Cal Date: 	 Wind Direction Offset: 0.00	 Slope (M)1: 0.00	 Offset (B)1: 0.00	 Slope (M)2: 0.00	 Offset (B)2: 0.00	 Slope (M)3: 0.00	 Offset (B)3: 0.00	 Slope (M)4: 0.00	 Offset (B)4: 0.00	 Slope (M)5: 0.00	 Offset (B)5: 0.00	 Slope (M)6: 0.00	 Offset (B)6: 0.00
Computer Date	Computer Time	GGA String
06/11/2014	02:00:00.996	$GPGGA,020001,2543.8863,N,08009.7273,W,1,9,1.6,19,M,,M,,*50
06/11/2014	02:00:01.926	$GPGGA,020002,2543.8862,N,08009.7274,W,1,9,1.6,19,M,,M,,*55
06/11/2014	02:00:03.048	$GPGGA,020003,2543.8862,N,08009.7276,W,1,9,1.6,19,M,,M,,*56
06/11/2014	02:00:03.979	$GPGGA,020004,2543.8859,N,08009.7277,W,1,9,1.9,20,M,,M,,*5D
06/11/2014	02:00:05.040	$GPGGA,020005,2543.8858,N,08009.7279,W,1,8,1.9,20,M,,M,,*52
06/11/2014	02:00:05.950	$GPGGA,020006,2543.8857,N,08009.7278,W,1,8,1.9,20,M,,M,,*5F
06/11/2014	02:00:07.011	$GPGGA,020007,2543.8856,N,08009.7280,W,1,8,1.9,20,M,,M,,*58
06/11/2014	02:00:08.002	$GPGGA,020008,2543.8855,N,08009.7280,W,1,8,1.9,20,M,,M,,*54
06/11/2014	02:00:09.041	$GPGGA,020009,2543.8855,N,08009.7280,W,1,8,1.9,20,M,,M,,*55
06/11/2014	02:00:10.003	$GPGGA,020010,2543.8853,N,08009.7281,W,1,8,1.9,20,M,,M,,*5A
06/11/2014	02:00:11.045	$GPGGA,020011,2543.8854,N,08009.7281,W,1,8,1.9,20,M,,M,,*5C
06/11/2014	02:00:12.035	$GPGGA,020012,2543.8853,N,08009.7281,W,1,8,1.9,20,M,,M,,*58
06/11/2014	02:00:13.123	$GPGGA,020013,2543.8852,N,08009.7279,W,1,8,1.6,20,M,,M,,*50
06/11/2014	02:00:14.007	$GPGGA,020014,2543.8853,N,08009.7280,W,1,8,1.6,20,M,,M,,*50
06/11/2014	02:00:15.145	$GPGGA,020015,2543.8852,N,08009.7280,W,1,8,1.9,20,M,,M,,*5F
06/11/2014	02:00:16.079	$GPGGA,020016,2543.8853,N,08009.7279,W,1,8,1.9,20,M,,M,,*5B
06/11/2014	02:00:17.151	$GPGGA,020017,2543.8852,N,08009.7280,W,1,9,1.6,20,M,,M,,*53
06/11/2014	02:00:18.068	$GPGGA,020018,2543.8854,N,08009.7278,W,1,9,1.9,20,M,,M,,*52
06/11/2014	02:00:19.137	$GPGGA,020019,2543.8853,N,08009.7279,W,1,7,2.4,20,M,,M,,*55
06/11/2014	02:00:20.113	$GPGGA,020020,2543.8855,N,08009.7277,W,1,7,2.4,19,M,,M,,*5D
06/11/2014	02:00:21.185	$GPGGA,020021,2543.8853,N,08009.7280,W,1,7,1.9,19,M,,M,,*5C
06/11/2014	02:00:22.081	$GPGGA,020022,2543.8851,N,08009.7281,W,1,7,1.9,19,M,,M,,*5C
06/11/2014	02:00:23.106	$GPGGA,020023,2543.8849,N,08009.7283,W,1,8,1.9,19,M,,M,,*59
06/11/2014	02:00:24.227	$GPGGA,020024,2543.8848,N,08009.7282,W,1,8,1.9,19,M,,M,,*5E
06/11/2014	02:00:25.228	$GPGGA,020025,2543.8848,N,08009.7283,W,1,8,1.9,19,M,,M,,*5E
06/11/2014	02:00:26.138	$GPGGA,020026,2543.8846,N,08009.7284,W,1,8,1.9,19,M,,M,,*54
06/11/2014	02:00:27.232	$GPGGA,020027,2543.8847,N,08009.7284,W,1,8,1.9,19,M,,M,,*54
06/11/2014	02:00:28.180	$GPGGA,020028,2543.8846,N,08009.7284,W,1,8,1.9,19,M,,M,,*5A
06/11/2014	02:00:29.292	$GPGGA,020029,2543.8845,N,08009.7284,W,1,8,1.9,19,M,,M,,*58
06/11/2014	02:00:30.192	$GPGGA,020030,2543.8844,N,08009.7284,W,1,8,1.9,19,M,,M,,*51
06/11/2014	02:00:31.294	$GPGGA,020031,2543.8844,N,08009.7285,W,1,8,1.9,19,M,,M,,*51
06/11/2014	02:00:32.214	$GPGGA,020032,2543.8844,N,08009.7285,W,1,8,1.9,19,M,,M,,*52
06/11/2014	02:00:33.255	$GPGGA,020033,2543.8842,N,08009.7287,W,1,8,1.9,19,M,,M,,*57
06/11/2014	02:00:34.307	$GPGGA,020034,2543.8841,N,08009.7286,W,1,8,1.9,19,M,,M,,*52
06/11/2014	02:00:35.310	$GPGGA,020035,2543.8843,N,08009.7284,W,1,8,2.4,19,M,,M,,*5D
06/11/2014	02:00:36.218	$GPGGA,020036,2543.8842,N,08009.7284,W,1,8,2.4,19,M,,M,,*5F
06/11/2014	02:00:37.341	$GPGGA,020037,2543.8841,N,08009.7284,W,1,8,1.9,18,M,,M,,*52
06/11/2014	02:00:38.260	$GPGGA,020038,2543.8840,N,08009.7285,W,1,8,1.9,18,M,,M,,*5D
06/11/2014	02:00:39.357	$GPGGA,020039,2543.8840,N,08009.7285,W,1,8,1.9,18,M,,M,,*5C
06/11/2014	02:00:40.363	$GPGGA,020040,2543.8838,N,08009.7287,W,1,8,1.9,18,M,,M,,*5F
06/11/2014	02:00:41.342	$GPGGA,020041,2543.8839,N,08009.7286,W,1,8,1.9,18,M,,M,,*5E
06/11/2014	02:00:42.363	$GPGGA,020042,2543.8837,N,08009.7283,W,1,8,1.6,18,M,,M,,*59
06/11/2014	02:00:43.364	$GPGGA,020043,2543.8837,N,08009.7283,W,1,9,1.9,18,M,,M,,*56
06/11/2014	02:00:43.570	$GPGGA,020044,2543.8837,N,08009.7283,W,1,9,1.9,18,M,,M,,*51
06/11/2014	02:00:44.601	$GPGGA,020045,2543.8837,N,08009.7283,W,1,8,1.9,18,M,,M,,*51
06/11/2014	02:00:45.572	$GPGGA,020046,2543.8837,N,08009.7283,W,1,8,1.9,18,M,,M,,*52
06/11/2014	02:00:46.623	$GPGGA,020047,2543.8837,N,08009.7282,W,1,8,1.9,18,M,,M,,*52
06/11/2014	02:00:47.604	$GPGGA,020048,2543.8837,N,08009.7283,W,1,8,1.9,18,M,,M,,*5C
06/11/2014	02:00:48.665	$GPGGA,020049,2543.8837,N,08009.7282,W,1,8,1.9,18,M,,M,,*5C
06/11/2014	02:00:49.617	$GPGGA,020050,2543.8835,N,08009.7283,W,1,8,1.9,18,M,,M,,*57
06/11/2014	02:00:50.708	$GPGGA,020051,2543.8835,N,08009.7283,W,1,8,1.9,18,M,,M,,*56
06/11/2014	02:00:51.638	$GPGGA,020052,2543.8834,N,08009.7283,W,1,8,1.9,18,M,,M,,*54
06/11/2014	02:00:52.679	$GPGGA,020053,2543.8835,N,08009.7282,W,1,8,1.9,18,M,,M,,*55
06/11/2014	02:00:53.650	$GPGGA,020054,2543.8833,N,08009.7283,W,1,8,1.9,18,M,,M,,*55
06/11/2014	02:00:54.731	$GPGGA,020055,2543.8833,N,08009.7282,W,1,8,1.9,18,M,,M,,*55
06/11/2014	02:00:55.682	$GPGGA,020056,2543.8833,N,08009.7283,W,1,8,1.9,18,M,,M,,*57
06/11/2014	02:00:56.693	$GPGGA,020057,2543.8833,N,08009.7282,W,1,8,1.9,18,M,,M,,*57
06/11/2014	02:00:57.683	$GPGGA,020058,2543.8833,N,08009.7281,W,1,8,1.9,18,M,,M,,*5B
06/11/2014	02:00:58.736	$GPGGA,020059,2543.8833,N,08009.7283,W,1,8,1.9,18,M,,M,,*58
06/11/2014	02:00:59.746	$GPGGA,020100,2543.8833,N,08009.7281,W,1,8,1.9,18,M,,M,,*57
06/11/2014	02:01:00.756	$GPGGA,020101,2543.8833,N,08009.7281,W,1,8,1.9,18,M,,M,,*56
06/11/2014	02:01:01.716	$GPGGA,020102,2543.8833,N,08009.7281,W,1,8,1.9,18,M,,M,,*55
06/11/2014	02:01:02.758	$GPGGA,020103,2543.8833,N,08009.7281,W,1,8,1.9,18,M,,M,,*54
06/11/2014	02:01:03.748	$GPGGA,020104,2543.8833,N,08009.7281,W,1,8,1.9,18,M,,M,,*53
06/11/2014	02:01:04.790	$GPGGA,020105,2543.8833,N,08009.7280,W,1,8,1.9,18,M,,M,,*53
06/11/2014	02:01:05.760	$GPGGA,020106,2543.8833,N,08009.7280,W,1,8,1.9,18,M,,M,,*50
06/11/2014	02:01:06.792	$GPGGA,020107,2543.8833,N,08009.7280,W,1,8,1.9,17,M,,M,,*5E
06/11/2014	02:01:07.782	$GPGGA,020108,2543.8835,N,08009.7280,W,1,8,1.9,17,M,,M,,*57
06/11/2014	02:01:08.803	$GPGGA,020109,2543.8835,N,08009.7280,W,1,8,1.9,17,M,,M,,*56
06/11/2014	02:01:09.784	$GPGGA,020110,2543.8835,N,08009.7280,W,1,8,1.9,17,M,,M,,*5E
06/11/2014	02:01:10.866	$GPGGA,020111,2543.8834,N,08009.7280,W,1,8,1.9,17,M,,M,,*5E
06/11/2014	02:01:11.847	$GPGGA,020112,2543.8835,N,08009.7280,W,1,8,1.9,17,M,,M,,*5C
06/11/2014	02:01:12.847	$GPGGA,020113,2543.8835,N,08009.7280,W,1,8,1.9,17,M,,M,,*5D
06/11/2014	02:01:13.829	$GPGGA,020114,2543.8835,N,08009.7281,W,1,8,1.9,16,M,,M,,*5A
06/11/2014	02:01:14.839	$GPGGA,020115,2543.8835,N,08009.7281,W,1,8,1.9,16,M,,M,,*5B
06/11/2014	02:01:15.859	$GPGGA,020116,2543.8835,N,08009.7281,W,1,8,1.9,16,M,,M,,*58
06/11/2014	02:01:16.921	$GPGGA,020117,2543.8836,N,08009.7281,W,1,8,1.9,16,M,,M,,*5A
06/11/2014	02:01:17.881	$GPGGA,020118,2543.8834,N,08009.7281,W,1,8,1.9,16,M,,M,,*57
06/11/2014	02:01:19.024	$GPGGA,020119,2543.8835,N,08009.7283,W,1,8,1.9,16,M,,M,,*55
06/11/2014	02:01:19.913	$GPGGA,020120,2543.8833,N,08009.7282,W,1,8,1.9,16,M,,M,,*58
06/11/2014	02:01:20.914	$GPGGA,020121,2543.8833,N,08009.7282,W,1,8,1.9,16,M,,M,,*59
06/11/2014	02:01:21.885	$GPGGA,020122,2543.8833,N,08009.7283,W,1,8,1.9,16,M,,M,,*5B
06/11/2014	02:01:23.039	$GPGGA,020123,2543.8833,N,08009.7283,W,1,8,1.9,16,M,,M,,*5A
06/11/2014	02:01:23.937	$GPGGA,020124,2543.8833,N,08009.7282,W,1,8,1.9,16,M,,M,,*5C
06/11/2014	02:01:24.941	$GPGGA,020125,2543.8833,N,08009.7282,W,1,8,1.9,16,M,,M,,*5D
06/11/2014	02:01:25.929	$GPGGA,020126,2543.8835,N,08009.7282,W,1,8,1.9,16,M,,M,,*58
06/11/2014	02:01:27.063	$GPGGA,020127,2543.8833,N,08009.7283,W,1,8,1.9,16,M,,M,,*5E
06/11/2014	02:01:27.978	$GPGGA,020128,2543.8833,N,08009.7283,W,1,8,1.9,16,M,,M,,*51
06/11/2014	02:01:29.063	$GPGGA,020129,2543.8833,N,08009.7283,W,1,8,1.9,16,M,,M,,*50
06/11/2014	02:01:29.973	$GPGGA,020130,2543.8835,N,08009.7283,W,1,8,1.9,16,M,,M,,*5E
06/11/2014	02:01:31.085	$GPGGA,020131,2543.8834,N,08009.7282,W,1,8,1.9,16,M,,M,,*5F
06/11/2014	02:01:32.107	$GPGGA,020132,2543.8835,N,08009.7283,W,1,8,1.9,16,M,,M,,*5C
06/11/2014	02:01:33.087	$GPGGA,020133,2543.8836,N,08009.7282,W,1,8,1.9,16,M,,M,,*5F
06/11/2014	02:01:34.107	$GPGGA,020134,2543.8835,N,08009.7283,W,1,8,1.9,16,M,,M,,*5A
06/11/2014	02:01:35.128	$GPGGA,020135,2543.8836,N,08009.7282,W,1,8,1.9,16,M,,M,,*59
06/11/2014	02:01:36.140	$GPGGA,020136,2543.8835,N,08009.7281,W,1,8,1.9,16,M,,M,,*5A
06/11/2014	02:01:37.162	$GPGGA,020137,2543.8837,N,08009.7281,W,1,8,1.9,16,M,,M,,*59
06/11/2014	02:01:38.141	$GPGGA,020138,2543.8837,N,08009.7281,W,1,8,1.9,16,M,,M,,*56
06/11/2014	02:01:39.152	$GPGGA,020139,2543.8837,N,08009.7280,W,1,8,1.9,16,M,,M,,*56
06/11/2014	02:01:40.173	$GPGGA,020140,2543.8837,N,08009.7280,W,1,8,1.9,16,M,,M,,*58
06/11/2014	02:01:41.174	$GPGGA,020141,2543.8837,N,08009.7280,W,1,8,1.9,16,M,,M,,*59
06/11/2014	02:01:42.185	$GPGGA,020142,2543.8835,N,08009.7280,W,1,8,1.9,16,M,,M,,*58
06/11/2014	02:01:43.186	$GPGGA,020143,2543.8836,N,08009.7279,W,1,8,1.9,16,M,,M,,*5C
06/11/2014	02:01:43.564	$GPGGA,020144,2543.8835,N,08009.7280,W,1,8,1.9,16,M,,M,,*5E
06/11/2014	02:01:44.570	$GPGGA,020145,2543.8836,N,08009.7280,W,1,8,1.9,16,M,,M,,*5C
06/11/2014	02:01:45.550	$GPGGA,020146,2543.8835,N,08009.7279,W,1,8,1.9,16,M,,M,,*5A
06/11/2014	02:01:46.572	$GPGGA,020147,2543.8836,N,08009.7280,W,1,8,1.9,16,M,,M,,*5E
06/11/2014	02:01:47.583	$GPGGA,020148,2543.8835,N,08009.7279,W,1,8,1.9,16,M,,M,,*54
06/11/2014	02:01:48.604	$GPGGA,020149,2543.8836,N,08009.7280,W,1,8,1.9,16,M,,M,,*50
06/11/2014	02:01:49.584	$GPGGA,020150,2543.8835,N,08009.7279,W,1,8,1.9,16,M,,M,,*5D
06/11/2014	02:01:50.625	$GPGGA,020151,2543.8836,N,08009.7280,W,1,8,1.9,16,M,,M,,*59
06/11/2014	02:01:51.615	$GPGGA,020152,2543.8835,N,08009.7280,W,1,8,1.9,16,M,,M,,*59
06/11/2014	02:01:52.616	$GPGGA,020153,2543.8834,N,08009.7280,W,1,8,1.9,16,M,,M,,*59
06/11/2014	02:01:53.637	$GPGGA,020154,2543.8835,N,08009.7279,W,1,8,1.6,16,M,,M,,*56
06/11/2014	02:01:54.669	$GPGGA,020155,2543.8834,N,08009.7277,W,1,9,1.6,16,M,,M,,*59
06/11/2014	02:01:55.659	$GPGGA,020156,2543.8835,N,08009.7275,W,1,9,1.6,16,M,,M,,*59
06/11/2014	02:01:56.650	$GPGGA,020157,2543.8834,N,08009.7273,W,1,9,1.6,16,M,,M,,*5F
06/11/2014	02:01:57.662	$GPGGA,020158,2543.8835,N,08009.7272,W,1,9,1.6,16,M,,M,,*50
06/11/2014	02:01:58.703	$GPGGA,020159,2543.8834,N,08009.7271,W,1,9,1.6,17,M,,M,,*52
06/11/2014	02:01:59.703	$GPGGA,020200,2543.8835,N,08009.7270,W,1,9,1.6,17,M,,M,,*5D
06/11/2014	02:02:00.725	$GPGGA,020201,2543.8834,N,08009.7269,W,1,9,1.6,17,M,,M,,*55
06/11/2014	02:02:01.695	$GPGGA,020202,2543.8836,N,08009.7269,W,1,9,1.6,17,M,,M,,*54
06/11/2014	02:02:02.716	$GPGGA,020203,2543.8835,N,08009.7269,W,1,9,1.6,17,M,,M,,*56
06/11/2014	02:02:03.737	$GPGGA,020204,2543.8836,N,08009.7269,W,1,9,1.6,17,M,,M,,*52
06/11/2014	02:02:04.718	$GPGGA,020205,2543.8837,N,08009.7267,W,1,9,1.6,18,M,,M,,*53
06/11/2014	02:02:05.736	$GPGGA,020206,2543.8837,N,08009.7267,W,1,9,2.1,18,M,,M,,*54
06/11/2014	02:02:06.861	$GPGGA,020207,2543.8839,N,08009.7266,W,1,8,2.1,18,M,,M,,*5B
06/11/2014	02:02:07.882	$GPGGA,020208,2543.8837,N,08009.7267,W,1,8,2.1,18,M,,M,,*5B
06/11/2014	02:02:08.862	$GPGGA,020209,2543.8837,N,08009.7269,W,1,9,1.6,18,M,,M,,*51
06/11/2014	02:02:09.863	$GPGGA,020210,2543.8837,N,08009.7269,W,1,9,1.6,18,M,,M,,*59
06/11/2014	02:02:10.794	$GPGGA,020211,2543.8837,N,08009.7270,W,1,9,1.6,18,M,,M,,*50
06/11/2014	02:02:11.805	$GPGGA,020212,2543.8835,N,08009.7272,W,1,9,1.6,18,M,,M,,*53
06/11/2014	02:02:12.816	$GPGGA,020213,2543.8836,N,08009.7272,W,1,9,1.6,19,M,,M,,*50
06/11/2014	02:02:13.796	$GPGGA,020214,2543.8834,N,08009.7273,W,1,9,1.6,19,M,,M,,*54
06/11/2014	02:02:14.918	$GPGGA,020215,2543.8835,N,08009.7273,W,1,9,1.6,19,M,,M,,*54
06/11/2014	02:02:15.849	$GPGGA,020216,2543.8834,N,08009.7274,W,1,9,1.6,19,M,,M,,*51
06/11/2014	02:02:16.930	$GPGGA,020217,2543.8835,N,08009.7276,W,1,9,1.6,19,M,,M,,*53
06/11/2014	02:02:17.843	$GPGGA,020218,2543.8833,N,08009.7275,W,1,9,1.6,19,M,,M,,*59
06/11/2014	02:02:18.982	$GPGGA,020219,2543.8835,N,08009.7276,W,1,9,1.6,19,M,,M,,*5D
06/11/2014	02:02:19.973	$GPGGA,020220,2543.8834,N,08009.7276,W,1,9,1.6,20,M,,M,,*5C
06/11/2014	02:02:21.004	$GPGGA,020221,2543.8833,N,08009.7276,W,1,9,1.6,20,M,,M,,*5A
06/11/2014	02:02:21.975	$GPGGA,020222,2543.8833,N,08009.7277,W,1,9,1.6,20,M,,M,,*58
06/11/2014	02:02:22.986	$GPGGA,020223,2543.8833,N,08009.7277,W,1,9,1.6,20,M,,M,,*59
06/11/2014	02:02:24.007	$GPGGA,020224,2543.8836,N,08009.7275,W,1,9,1.6,20,M,,M,,*59
06/11/2014	02:02:25.009	$GPGGA,020225,2543.8837,N,08009.7274,W,1,8,2.1,20,M,,M,,*5D
06/11/2014	02:02:26.018	$GPGGA,020226,2543.8839,N,08009.7273,W,1,8,2.1,21,M,,M,,*56
06/11/2014	02:02:27.039	$GPGGA,020227,2543.8840,N,08009.7272,W,1,8,2.1,21,M,,M,,*58
06/11/2014	02:02:28.040	$GPGGA,020228,2543.8840,N,08009.7271,W,1,8,2.1,21,M,,M,,*54
06/11/2014	02:02:29.031	$GPGGA,020229,2543.8842,N,08009.7270,W,1,8,2.1,21,M,,M,,*56
06/11/2014	02:02:30.042	$GPGGA,020230,2543.8841,N,08009.7270,W,1,8,2.1,21,M,,M,,*5D
06/11/2014	02:02:31.083	$GPGGA,020231,2543.8843,N,08009.7269,W,1,8,2.1,21,M,,M,,*56
06/11/2014	02:02:32.074	$GPGGA,020232,2543.8842,N,08009.7269,W,1,8,2.1,21,M,,M,,*54
06/11/2014	02:02:33.095	$GPGGA,020233,2543.8844,N,08009.7268,W,1,8,2.1,21,M,,M,,*52
06/11/2014	02:02:34.075	$GPGGA,020234,2543.8844,N,08009.7269,W,1,8,2.1,21,M,,M,,*54
06/11/2014	02:02:35.107	$GPGGA,020235,2543.8844,N,08009.7267,W,1,8,2.1,21,M,,M,,*5B
06/11/2014	02:02:36.108	$GPGGA,020236,2543.8844,N,08009.7267,W,1,8,2.1,21,M,,M,,*58
06/11/2014	02:02:37.139	$GPGGA,020237,2543.8844,N,08009.7267,W,1,8,2.1,21,M,,M,,*59
06/11/2014	02:02:38.119	$GPGGA,020238,2543.8844,N,08009.7267,W,1,8,2.1,21,M,,M,,*56
06/11/2014	02:02:39.141	$GPGGA,020239,2543.8844,N,08009.7267,W,1,8,2.1,21,M,,M,,*57
06/11/2014	02:02:40.141	$GPGGA,020240,2543.8844,N,08009.7267,W,1,8,2.1,21,M,,M,,*59
06/11/2014	02:02:41.173	$GPGGA,020241,2543.8844,N,08009.7267,W,1,8,2.1,20,M,,M,,*59
06/11/2014	02:02:42.163	$GPGGA,020242,2543.8844,N,08009.7267,W,1,8,2.1,20,M,,M,,*5A
06/11/2014	02:02:43.174	$GPGGA,020243,2543.8844,N,08009.7267,W,1,8,2.1,20,M,,M,,*5B
06/11/2014	02:02:43.572	$GPGGA,020244,2543.8844,N,08009.7266,W,1,8,2.1,20,M,,M,,*5D
06/11/2014	02:02:44.536	$GPGGA,020245,2543.8844,N,08009.7266,W,1,8,2.1,20,M,,M,,*5C
06/11/2014	02:02:45.527	$GPGGA,020246,2543.8844,N,08009.7267,W,1,8,2.1,20,M,,M,,*5E
06/11/2014	02:02:46.569	$GPGGA,020247,2543.8844,N,08009.7267,W,1,9,1.6,20,M,,M,,*5A
06/11/2014	02:02:47.559	$GPGGA,020248,2543.8842,N,08009.7269,W,1,9,2.1,20,M,,M,,*59
06/11/2014	02:02:48.570	$GPGGA,020249,2543.8841,N,08009.7272,W,1,9,1.6,20,M,,M,,*55
06/11/2014	02:02:49.561	$GPGGA,020250,2543.8840,N,08009.7272,W,1,9,1.6,20,M,,M,,*5C
06/11/2014	02:02:50.683	$GPGGA,020251,2543.8839,N,08009.7274,W,1,9,1.6,21,M,,M,,*54
06/11/2014	02:02:51.603	$GPGGA,020252,2543.8840,N,08009.7274,W,1,9,1.6,21,M,,M,,*59
06/11/2014	02:02:52.614	$GPGGA,020253,2543.8838,N,08009.7276,W,1,9,1.6,21,M,,M,,*55
06/11/2014	02:02:53.605	$GPGGA,020254,2543.8839,N,08009.7277,W,1,9,1.6,21,M,,M,,*52
06/11/2014	02:02:54.710	$GPGGA,020255,2543.8837,N,08009.7279,W,1,9,1.6,21,M,,M,,*53
06/11/2014	02:02:55.748	$GPGGA,020256,2543.8837,N,08009.7280,W,1,9,1.6,21,M,,M,,*56
06/11/2014	02:02:56.630	$GPGGA,020257,2543.8837,N,08009.7280,W,1,9,1.6,21,M,,M,,*57
06/11/2014	02:02:57.629	$GPGGA,020258,2543.8837,N,08009.7280,W,1,9,1.6,22,M,,M,,*5B
06/11/2014	02:02:58.747	$GPGGA,020259,2543.8837,N,08009.7280,W,1,9,1.6,22,M,,M,,*5A
06/11/2014	02:02:59.691	$GPGGA,020300,2543.8839,N,08009.7279,W,1,9,1.6,22,M,,M,,*5F
06/11/2014	02:03:00.661	$GPGGA,020301,2543.8840,N,08009.7278,W,1,8,2.1,22,M,,M,,*54
06/11/2014	02:03:01.682	$GPGGA,020302,2543.8840,N,08009.7277,W,1,8,2.1,22,M,,M,,*58
06/11/2014	02:03:02.824	$GPGGA,020303,2543.8839,N,08009.7279,W,1,8,2.1,22,M,,M,,*59
06/11/2014	02:03:03.817	$GPGGA,020304,2543.8842,N,08009.7276,W,1,8,1.6,22,M,,M,,*59
06/11/2014	02:03:04.796	$GPGGA,020305,2543.8841,N,08009.7276,W,1,9,1.6,22,M,,M,,*5A
06/11/2014	02:03:05.716	$GPGGA,020306,2543.8840,N,08009.7277,W,1,9,1.6,22,M,,M,,*59
06/11/2014	02:03:06.717	$GPGGA,020307,2543.8842,N,08009.7277,W,1,9,1.6,23,M,,M,,*5B
06/11/2014	02:03:07.738	$GPGGA,020308,2543.8840,N,08009.7277,W,1,9,1.6,23,M,,M,,*56
06/11/2014	02:03:08.830	$GPGGA,020309,2543.8840,N,08009.7279,W,1,9,1.6,23,M,,M,,*59
06/11/2014	02:03:09.851	$GPGGA,020310,2543.8840,N,08009.7280,W,1,9,1.6,23,M,,M,,*57
06/11/2014	02:03:10.862	$GPGGA,020311,2543.8839,N,08009.7279,W,1,9,1.6,23,M,,M,,*5E
06/11/2014	02:03:11.873	$GPGGA,020312,2543.8838,N,08009.7280,W,1,9,1.6,23,M,,M,,*5A
06/11/2014	02:03:12.864	$GPGGA,020313,2543.8839,N,08009.7283,W,1,9,1.6,23,M,,M,,*59
06/11/2014	02:03:13.885	$GPGGA,020314,2543.8837,N,08009.7283,W,1,9,1.6,23,M,,M,,*50
06/11/2014	02:03:14.922	$GPGGA,020315,2543.8837,N,08009.7283,W,1,9,1.6,23,M,,M,,*51
06/11/2014	02:03:15.947	$GPGGA,020316,2543.8837,N,08009.7284,W,1,9,1.6,23,M,,M,,*55
06/11/2014	02:03:16.928	$GPGGA,020317,2543.8835,N,08009.7284,W,1,9,1.6,24,M,,M,,*51
06/11/2014	02:03:17.919	$GPGGA,020318,2543.8836,N,08009.7284,W,1,9,1.6,24,M,,M,,*5D
06/11/2014	02:03:18.949	$GPGGA,020319,2543.8835,N,08009.7284,W,1,9,1.6,24,M,,M,,*5F
06/11/2014	02:03:19.950	$GPGGA,020320,2543.8836,N,08009.7285,W,1,9,1.6,24,M,,M,,*57
06/11/2014	02:03:20.961	$GPGGA,020321,2543.8835,N,08009.7284,W,1,9,1.6,24,M,,M,,*54
06/11/2014	02:03:21.952	$GPGGA,020322,2543.8836,N,08009.7285,W,1,9,1.6,24,M,,M,,*55
06/11/2014	02:03:22.963	$GPGGA,020323,2543.8837,N,08009.7285,W,1,9,1.6,25,M,,M,,*54
06/11/2014	02:03:23.984	$GPGGA,020324,2543.8837,N,08009.7285,W,1,9,1.6,25,M,,M,,*53
06/11/2014	02:03:24.974	$GPGGA,020325,2543.8837,N,08009.7284,W,1,9,1.6,25,M,,M,,*53
06/11/2014	02:03:25.985	$GPGGA,020326,2543.8837,N,08009.7285,W,1,9,1.6,25,M,,M,,*51
06/11/2014	02:03:26.986	$GPGGA,020327,2543.8837,N,08009.7285,W,1,9,1.6,25,M,,M,,*50
06/11/2014	02:03:28.018	$GPGGA,020328,2543.8837,N,08009.7285,W,1,9,1.6,25,M,,M,,*5F
06/11/2014	02:03:29.049	$GPGGA,020329,2543.8837,N,08009.7287,W,1,9,1.6,25,M,,M,,*5C
06/11/2014	02:03:30.019	$GPGGA,020330,2543.8837,N,08009.7286,W,1,9,1.6,25,M,,M,,*55
06/11/2014	02:03:31.071	$GPGGA,020331,2543.8837,N,08009.7287,W,1,9,1.6,26,M,,M,,*56
06/11/2014	02:03:32.051	$GPGGA,020332,2543.8837,N,08009.7286,W,1,9,1.6,26,M,,M,,*54
06/11/2014	02:03:33.058	$GPGGA,020333,2543.8837,N,08009.7287,W,1,9,1.6,26,M,,M,,*54
06/11/2014	02:03:34.084	$GPGGA,020334,2543.8837,N,08009.7287,W,1,9,1.6,26,M,,M,,*53
06/11/2014	02:03:35.105	$GPGGA,020335,2543.8839,N,08009.7287,W,1,8,1.9,26,M,,M,,*52
06/11/2014	02:03:36.094	$GPGGA,020336,2543.8838,N,08009.7285,W,1,8,1.9,26,M,,M,,*52
06/11/2014	02:03:37.088	$GPGGA,020337,2543.8839,N,08009.7285,W,1,9,1.6,26,M,,M,,*5C
06/11/2014	02:03:38.116	$GPGGA,020338,2543.8840,N,08009.7283,W,1,9,1.9,26,M,,M,,*54
06/11/2014	02:03:39.099	$GPGGA,020339,2543.8839,N,08009.7283,W,1,9,1.6,26,M,,M,,*54
06/11/2014	02:03:40.138	$GPGGA,020340,2543.8840,N,08009.7284,W,1,9,1.9,26,M,,M,,*5C
06/11/2014	02:03:41.133	$GPGGA,020341,2543.8840,N,08009.7285,W,1,8,1.9,26,M,,M,,*5D
06/11/2014	02:03:42.124	$GPGGA,020342,2543.8840,N,08009.7287,W,1,8,1.9,26,M,,M,,*5C
06/11/2014	02:03:43.252	$GPGGA,020343,2543.8840,N,08009.7287,W,1,8,1.9,26,M,,M,,*5D
06/11/2014	02:03:44.172	$GPGGA,020344,2543.8840,N,08009.7284,W,1,8,1.9,26,M,,M,,*59
06/11/2014	02:03:44.626	$GPGGA,020345,2543.8840,N,08009.7282,W,1,9,1.6,26,M,,M,,*50
06/11/2014	02:03:45.511	$GPGGA,020346,2543.8840,N,08009.7283,W,1,9,1.6,26,M,,M,,*52
06/11/2014	02:03:46.614	$GPGGA,020347,2543.8840,N,08009.7282,W,1,8,1.9,26,M,,M,,*5C
06/11/2014	02:03:47.548	$GPGGA,020348,2543.8840,N,08009.7277,W,1,8,1.6,26,M,,M,,*56
06/11/2014	02:03:48.650	$GPGGA,020349,2543.8842,N,08009.7279,W,1,9,1.6,26,M,,M,,*5A
06/11/2014	02:03:49.542	$GPGGA,020350,2543.8841,N,08009.7280,W,1,9,1.9,26,M,,M,,*58
06/11/2014	02:03:50.571	$GPGGA,020351,2543.8842,N,08009.7281,W,1,8,1.9,26,M,,M,,*5A
06/11/2014	02:03:51.693	$GPGGA,020352,2543.8841,N,08009.7283,W,1,8,1.9,26,M,,M,,*58
06/11/2014	02:03:52.593	$GPGGA,020353,2543.8843,N,08009.7283,W,1,8,1.9,26,M,,M,,*5B
06/11/2014	02:03:53.573	$GPGGA,020354,2543.8842,N,08009.7283,W,1,8,1.9,26,M,,M,,*5D
06/11/2014	02:03:54.711	$GPGGA,020355,2543.8843,N,08009.7283,W,1,8,1.9,26,M,,M,,*5D
06/11/2014	02:03:55.619	$GPGGA,020356,2543.8841,N,08009.7284,W,1,8,1.9,26,M,,M,,*5B
06/11/2014	02:03:56.707	$GPGGA,020357,2543.8843,N,08009.7285,W,1,8,1.9,26,M,,M,,*59
06/11/2014	02:03:57.627	$GPGGA,020358,2543.8842,N,08009.7285,W,1,8,1.9,26,M,,M,,*57
06/11/2014	02:03:58.729	$GPGGA,020359,2543.8841,N,08009.7287,W,1,8,1.9,26,M,,M,,*57
06/11/2014	02:03:59.770	$GPGGA,020400,2543.8842,N,08009.7286,W,1,8,1.9,26,M,,M,,*5E
06/11/2014	02:04:00.751	$GPGGA,020401,2543.8843,N,08009.7287,W,1,8,1.9,25,M,,M,,*5C
06/11/2014	02:04:01.752	$GPGGA,020402,2543.8842,N,08009.7286,W,1,8,1.9,25,M,,M,,*5F
06/11/2014	02:04:02.753	$GPGGA,020403,2543.8843,N,08009.7287,W,1,8,1.9,25,M,,M,,*5E
06/11/2014	02:04:03.797	$GPGGA,020404,2543.8842,N,08009.7287,W,1,8,1.9,25,M,,M,,*58
06/11/2014	02:04:04.785	$GPGGA,020405,2543.8843,N,08009.7287,W,1,8,1.9,25,M,,M,,*58
06/11/2014	02:04:05.776	$GPGGA,020406,2543.8842,N,08009.7287,W,1,8,1.9,25,M,,M,,*5A
06/11/2014	02:04:06.787	$GPGGA,020407,2543.8843,N,08009.7286,W,1,8,1.9,25,M,,M,,*5B
06/11/2014	02:04:07.808	$GPGGA,020408,2543.8842,N,08009.7287,W,1,8,1.9,25,M,,M,,*54
06/11/2014	02:04:08.829	$GPGGA,020409,2543.8843,N,08009.7286,W,1,8,1.9,24,M,,M,,*54
06/11/2014	02:04:09.830	$GPGGA,020410,2543.8844,N,08009.7287,W,1,8,1.9,24,M,,M,,*5A
06/11/2014	02:04:10.850	$GPGGA,020411,2543.8844,N,08009.7286,W,1,8,1.9,24,M,,M,,*5A
06/11/2014	02:04:11.851	$GPGGA,020412,2543.8844,N,08009.7287,W,1,8,1.9,24,M,,M,,*58
06/11/2014	02:04:12.862	$GPGGA,020413,2543.8844,N,08009.7285,W,1,8,1.9,24,M,,M,,*5B
06/11/2014	02:04:13.852	$GPGGA,020414,2543.8844,N,08009.7285,W,1,8,1.9,24,M,,M,,*5C
06/11/2014	02:04:14.884	$GPGGA,020415,2543.8844,N,08009.7285,W,1,8,1.9,24,M,,M,,*5D
06/11/2014	02:04:15.895	$GPGGA,020416,2543.8844,N,08009.7285,W,1,8,1.9,24,M,,M,,*5E
06/11/2014	02:04:16.906	$GPGGA,020417,2543.8844,N,08009.7285,W,1,8,1.9,24,M,,M,,*5F
06/11/2014	02:04:17.886	$GPGGA,020418,2543.8844,N,08009.7285,W,1,8,1.9,23,M,,M,,*57
06/11/2014	02:04:18.928	$GPGGA,020419,2543.8844,N,08009.7285,W,1,8,1.9,23,M,,M,,*56
06/11/2014	02:04:19.918	$GPGGA,020420,2543.8844,N,08009.7287,W,1,8,1.9,23,M,,M,,*5E
06/11/2014	02:04:20.909	$GPGGA,020421,2543.8844,N,08009.7286,W,1,8,1.9,23,M,,M,,*5E
06/11/2014	02:04:21.930	$GPGGA,020422,2543.8844,N,08009.7287,W,1,8,1.9,23,M,,M,,*5C
06/11/2014	02:04:22.972	$GPGGA,020423,2543.8844,N,08009.7286,W,1,8,1.9,23,M,,M,,*5C
06/11/2014	02:04:23.952	$GPGGA,020424,2543.8846,N,08009.7287,W,1,8,1.9,23,M,,M,,*58
06/11/2014	02:04:24.963	$GPGGA,020425,2543.8845,N,08009.7287,W,1,8,1.9,23,M,,M,,*5A
06/11/2014	02:04:25.974	$GPGGA,020426,2543.8846,N,08009.7287,W,1,8,1.9,22,M,,M,,*5B
06/11/2014	02:04:26.995	$GPGGA,020427,2543.8845,N,08009.7287,W,1,8,1.9,22,M,,M,,*59
06/11/2014	02:04:27.996	$GPGGA,020428,2543.8846,N,08009.7287,W,1,8,1.9,22,M,,M,,*55
06/11/2014	02:04:28.986	$GPGGA,020429,2543.8847,N,08009.7287,W,1,8,1.9,22,M,,M,,*55
06/11/2014	02:04:30.017	$GPGGA,020430,2543.8846,N,08009.7286,W,1,8,1.9,22,M,,M,,*5D
06/11/2014	02:04:31.013	$GPGGA,020431,2543.8847,N,08009.7287,W,1,8,1.9,22,M,,M,,*5C
06/11/2014	02:04:32.150	$GPGGA,020432,2543.8846,N,08009.7286,W,1,8,1.9,22,M,,M,,*5F
06/11/2014	02:04:33.151	$GPGGA,020433,2543.8848,N,08009.7287,W,1,8,1.9,22,M,,M,,*51
06/11/2014	02:04:34.036	$GPGGA,020434,2543.8848,N,08009.7286,W,1,8,1.9,22,M,,M,,*57
06/11/2014	02:04:35.061	$GPGGA,020435,2543.8848,N,08009.7287,W,1,8,1.9,22,M,,M,,*57
06/11/2014	02:04:36.184	$GPGGA,020436,2543.8848,N,08009.7286,W,1,8,1.9,21,M,,M,,*56
06/11/2014	02:04:37.085	$GPGGA,020437,2543.8848,N,08009.7287,W,1,8,1.9,21,M,,M,,*56
06/11/2014	02:04:38.081	$GPGGA,020438,2543.8848,N,08009.7286,W,1,8,1.9,21,M,,M,,*58
06/11/2014	02:04:39.197	$GPGGA,020439,2543.8848,N,08009.7285,W,1,8,1.9,21,M,,M,,*5A
06/11/2014	02:04:40.099	$GPGGA,020440,2543.8848,N,08009.7285,W,1,8,1.9,21,M,,M,,*54
06/11/2014	02:04:41.098	$GPGGA,020441,2543.8848,N,08009.7285,W,1,8,1.9,21,M,,M,,*55
06/11/2014	02:04:42.224	$GPGGA,020442,2543.8848,N,08009.7284,W,1,8,1.9,21,M,,M,,*57
06/11/2014	02:04:43.231	$GPGGA,020443,2543.8848,N,08009.7284,W,1,8,1.9,21,M,,M,,*56
06/11/2014	02:04:43.618	$GPGGA,020444,2543.8848,N,08009.7284,W,1,8,1.9,21,M,,M,,*51
06/11/2014	02:04:44.606	$GPGGA,020445,2543.8848,N,08009.7283,W,1,8,1.9,21,M,,M,,*57
06/11/2014	02:04:45.608	$GPGGA,020446,2543.8848,N,08009.7283,W,1,8,1.9,21,M,,M,,*54
06/11/2014	02:04:46.606	$GPGGA,020447,2543.8848,N,08009.7283,W,1,8,1.9,21,M,,M,,*55
06/11/2014	02:04:47.515	$GPGGA,020448,2543.8848,N,08009.7283,W,1,8,1.9,21,M,,M,,*5A
06/11/2014	02:04:48.627	$GPGGA,020449,2543.8848,N,08009.7283,W,1,8,1.9,21,M,,M,,*5B
06/11/2014	02:04:49.618	$GPGGA,020450,2543.8848,N,08009.7283,W,1,8,1.9,21,M,,M,,*53
06/11/2014	02:04:50.659	$GPGGA,020451,2543.8848,N,08009.7282,W,1,8,1.9,21,M,,M,,*53
06/11/2014	02:04:51.660	$GPGGA,020452,2543.8848,N,08009.7283,W,1,8,1.9,21,M,,M,,*51
06/11/2014	02:04:52.651	$GPGGA,020453,2543.8848,N,08009.7282,W,1,8,1.9,21,M,,M,,*51
06/11/2014	02:04:53.662	$GPGGA,020454,2543.8848,N,08009.7283,W,1,8,1.9,21,M,,M,,*57
06/11/2014	02:04:54.696	$GPGGA,020455,2543.8846,N,08009.7282,W,1,8,1.9,20,M,,M,,*58
06/11/2014	02:04:55.678	$GPGGA,020456,2543.8847,N,08009.7283,W,1,8,1.9,20,M,,M,,*5B
06/11/2014	02:04:56.704	$GPGGA,020457,2543.8846,N,08009.7282,W,1,8,1.9,20,M,,M,,*5A
06/11/2014	02:04:57.679	$GPGGA,020458,2543.8848,N,08009.7283,W,1,8,1.9,20,M,,M,,*5A
06/11/2014	02:04:58.675	$GPGGA,020459,2543.8848,N,08009.7282,W,1,8,1.9,20,M,,M,,*5A
06/11/2014	02:04:59.712	$GPGGA,020500,2543.8846,N,08009.7283,W,1,8,1.9,20,M,,M,,*58
06/11/2014	02:05:00.707	$GPGGA,020501,2543.8847,N,08009.7281,W,1,8,1.9,20,M,,M,,*5A
06/11/2014	02:05:01.692	$GPGGA,020502,2543.8846,N,08009.7281,W,1,8,1.9,20,M,,M,,*58
06/11/2014	02:05:02.697	$GPGGA,020503,2543.8847,N,08009.7281,W,1,8,1.9,20,M,,M,,*58
06/11/2014	02:05:03.712	$GPGGA,020504,2543.8846,N,08009.7281,W,1,8,1.9,20,M,,M,,*5E
06/11/2014	02:05:04.718	$GPGGA,020505,2543.8847,N,08009.7281,W,1,8,1.9,20,M,,M,,*5E
06/11/2014	02:05:05.703	$GPGGA,020506,2543.8845,N,08009.7281,W,1,8,1.9,20,M,,M,,*5F
06/11/2014	02:05:06.739	$GPGGA,020507,2543.8846,N,08009.7281,W,1,8,1.9,20,M,,M,,*5D
06/11/2014	02:05:07.724	$GPGGA,020508,2543.8845,N,08009.7280,W,1,8,1.9,20,M,,M,,*50
06/11/2014	02:05:08.740	$GPGGA,020509,2543.8846,N,08009.7280,W,1,8,1.9,20,M,,M,,*52
06/11/2014	02:05:09.715	$GPGGA,020510,2543.8845,N,08009.7280,W,1,8,1.9,20,M,,M,,*59
06/11/2014	02:05:10.721	$GPGGA,020511,2543.8846,N,08009.7280,W,1,8,1.9,20,M,,M,,*5B
06/11/2014	02:05:11.747	$GPGGA,020512,2543.8844,N,08009.7280,W,1,8,1.9,20,M,,M,,*5A
06/11/2014	02:05:12.762	$GPGGA,020513,2543.8844,N,08009.7281,W,1,8,1.9,20,M,,M,,*5A
06/11/2014	02:05:13.758	$GPGGA,020514,2543.8844,N,08009.7280,W,1,8,1.9,20,M,,M,,*5C
06/11/2014	02:05:14.743	$GPGGA,020515,2543.8844,N,08009.7280,W,1,8,1.9,20,M,,M,,*5D
06/11/2014	02:05:15.769	$GPGGA,020516,2543.8844,N,08009.7280,W,1,8,1.9,20,M,,M,,*5E
06/11/2014	02:05:16.775	$GPGGA,020517,2543.8844,N,08009.7280,W,1,8,1.9,20,M,,M,,*5F
06/11/2014	02:05:17.770	$GPGGA,020518,2543.8844,N,08009.7280,W,1,8,1.9,20,M,,M,,*50
06/11/2014	02:05:18.786	$GPGGA,020519,2543.8842,N,08009.7280,W,1,8,1.9,19,M,,M,,*5D
06/11/2014	02:05:19.792	$GPGGA,020520,2543.8843,N,08009.7280,W,1,8,1.9,19,M,,M,,*56
06/11/2014	02:05:20.776	$GPGGA,020521,2543.8842,N,08009.7280,W,1,8,1.9,19,M,,M,,*56
06/11/2014	02:05:21.772	$GPGGA,020522,2543.8843,N,08009.7280,W,1,8,1.9,19,M,,M,,*54
06/11/2014	02:05:22.878	$GPGGA,020523,2543.8842,N,08009.7280,W,1,8,1.9,19,M,,M,,*54
06/11/2014	02:05:23.793	$GPGGA,020524,2543.8843,N,08009.7279,W,1,8,1.9,19,M,,M,,*54
06/11/2014	02:05:24.869	$GPGGA,020525,2543.8842,N,08009.7280,W,1,8,1.9,19,M,,M,,*52
06/11/2014	02:05:25.784	$GPGGA,020526,2543.8841,N,08009.7279,W,1,8,1.9,19,M,,M,,*54
06/11/2014	02:05:26.810	$GPGGA,020527,2543.8842,N,08009.7280,W,1,8,1.9,19,M,,M,,*50
06/11/2014	02:05:27.815	$GPGGA,020528,2543.8841,N,08009.7279,W,1,8,1.9,19,M,,M,,*5A
06/11/2014	02:05:28.811	$GPGGA,020529,2543.8842,N,08009.7280,W,1,8,1.9,19,M,,M,,*5E
06/11/2014	02:05:29.797	$GPGGA,020530,2543.8841,N,08009.7280,W,1,8,1.9,19,M,,M,,*55
06/11/2014	02:05:30.792	$GPGGA,020531,2543.8842,N,08009.7280,W,1,8,1.9,19,M,,M,,*57
06/11/2014	02:05:31.828	$GPGGA,020532,2543.8841,N,08009.7280,W,1,8,1.9,19,M,,M,,*57
06/11/2014	02:05:32.915	$GPGGA,020533,2543.8842,N,08009.7280,W,1,8,1.9,19,M,,M,,*55
06/11/2014	02:05:33.819	$GPGGA,020534,2543.8841,N,08009.7280,W,1,8,1.9,18,M,,M,,*50
06/11/2014	02:05:34.905	$GPGGA,020535,2543.8840,N,08009.7280,W,1,8,1.9,18,M,,M,,*50
06/11/2014	02:05:35.850	$GPGGA,020536,2543.8840,N,08009.7280,W,1,8,1.9,18,M,,M,,*53
06/11/2014	02:05:36.926	$GPGGA,020537,2543.8840,N,08009.7280,W,1,8,1.9,18,M,,M,,*52
06/11/2014	02:05:37.831	$GPGGA,020538,2543.8840,N,08009.7280,W,1,8,1.9,18,M,,M,,*5D
06/11/2014	02:05:38.916	$GPGGA,020539,2543.8840,N,08009.7280,W,1,8,1.9,18,M,,M,,*5C
06/11/2014	02:05:39.932	$GPGGA,020540,2543.8840,N,08009.7280,W,1,8,1.9,18,M,,M,,*52
06/11/2014	02:05:40.974	$GPGGA,020541,2543.8842,N,08009.7280,W,1,8,1.9,18,M,,M,,*51
06/11/2014	02:05:41.933	$GPGGA,020542,2543.8840,N,08009.7280,W,1,8,1.9,18,M,,M,,*50
06/11/2014	02:05:42.959	$GPGGA,020543,2543.8840,N,08009.7281,W,1,8,1.9,18,M,,M,,*50
06/11/2014	02:05:43.569	$GPGGA,020544,2543.8840,N,08009.7281,W,1,8,1.9,18,M,,M,,*57
06/11/2014	02:05:44.566	$GPGGA,020545,2543.8840,N,08009.7281,W,1,8,1.9,18,M,,M,,*56
06/11/2014	02:05:45.552	$GPGGA,020546,2543.8840,N,08009.7283,W,1,8,1.9,18,M,,M,,*57
06/11/2014	02:05:46.567	$GPGGA,020547,2543.8840,N,08009.7282,W,1,8,1.9,18,M,,M,,*57
06/11/2014	02:05:47.583	$GPGGA,020548,2543.8840,N,08009.7283,W,1,8,1.9,18,M,,M,,*59
06/11/2014	02:05:48.589	$GPGGA,020549,2543.8840,N,08009.7283,W,1,8,1.9,18,M,,M,,*58
06/11/2014	02:05:49.574	$GPGGA,020550,2543.8842,N,08009.7283,W,1,8,1.9,18,M,,M,,*52
06/11/2014	02:05:50.570	$GPGGA,020551,2543.8841,N,08009.7282,W,1,8,1.9,18,M,,M,,*51
06/11/2014	02:05:51.585	$GPGGA,020552,2543.8842,N,08009.7283,W,1,8,1.9,18,M,,M,,*50
06/11/2014	02:05:52.601	$GPGGA,020553,2543.8841,N,08009.7283,W,1,8,1.9,18,M,,M,,*52
06/11/2014	02:05:53.576	$GPGGA,020554,2543.8842,N,08009.7283,W,1,8,1.9,18,M,,M,,*56
06/11/2014	02:05:54.612	$GPGGA,020555,2543.8841,N,08009.7283,W,1,8,1.9,18,M,,M,,*54
06/11/2014	02:05:55.597	$GPGGA,020556,2543.8842,N,08009.7283,W,1,8,1.9,18,M,,M,,*54
06/11/2014	02:05:56.592	$GPGGA,020557,2543.8841,N,08009.7284,W,1,8,1.9,18,M,,M,,*51
06/11/2014	02:05:57.598	$GPGGA,020558,2543.8842,N,08009.7284,W,1,8,1.9,18,M,,M,,*5D
06/11/2014	02:05:58.593	$GPGGA,020559,2543.8843,N,08009.7285,W,1,8,1.9,18,M,,M,,*5C
06/11/2014	02:05:59.639	$GPGGA,020600,2543.8842,N,08009.7285,W,1,8,1.9,18,M,,M,,*52
06/11/2014	02:06:00.625	$GPGGA,020601,2543.8843,N,08009.7285,W,1,8,1.9,18,M,,M,,*52
06/11/2014	02:06:01.620	$GPGGA,020602,2543.8842,N,08009.7285,W,1,8,1.9,18,M,,M,,*50
06/11/2014	02:06:02.646	$GPGGA,020603,2543.8844,N,08009.7285,W,1,8,1.9,18,M,,M,,*57
06/11/2014	02:06:03.631	$GPGGA,020604,2543.8844,N,08009.7285,W,1,8,1.9,18,M,,M,,*50
06/11/2014	02:06:04.637	$GPGGA,020605,2543.8844,N,08009.7285,W,1,8,1.9,18,M,,M,,*51
06/11/2014	02:06:05.633	$GPGGA,020606,2543.8844,N,08009.7285,W,1,8,1.9,18,M,,M,,*52
06/11/2014	02:06:06.648	$GPGGA,020607,2543.8844,N,08009.7285,W,1,8,1.9,18,M,,M,,*53
06/11/2014	02:06:07.765	$GPGGA,020608,2543.8844,N,08009.7285,W,1,8,1.9,18,M,,M,,*5C
06/11/2014	02:06:08.629	$GPGGA,020609,2543.8846,N,08009.7285,W,1,8,1.9,18,M,,M,,*5F
06/11/2014	02:06:09.645	$GPGGA,020610,2543.8845,N,08009.7284,W,1,8,1.9,18,M,,M,,*55
06/11/2014	02:06:10.651	$GPGGA,020611,2543.8846,N,08009.7284,W,1,8,1.9,18,M,,M,,*57
06/11/2014	02:06:11.666	$GPGGA,020612,2543.8847,N,08009.7284,W,1,8,1.9,18,M,,M,,*55
06/11/2014	02:06:12.652	$GPGGA,020613,2543.8846,N,08009.7284,W,1,8,1.9,18,M,,M,,*55
06/11/2014	02:06:13.650	$GPGGA,020614,2543.8847,N,08009.7283,W,1,8,1.9,18,M,,M,,*54
06/11/2014	02:06:14.662	$GPGGA,020615,2543.8848,N,08009.7283,W,1,8,1.9,18,M,,M,,*5A
06/11/2014	02:06:15.788	$GPGGA,020616,2543.8848,N,08009.7283,W,1,8,1.9,18,M,,M,,*59
06/11/2014	02:06:16.774	$GPGGA,020617,2543.8848,N,08009.7283,W,1,8,1.9,18,M,,M,,*58
06/11/2014	02:06:17.659	$GPGGA,020618,2543.8848,N,08009.7283,W,1,8,1.9,18,M,,M,,*57
06/11/2014	02:06:18.795	$GPGGA,020619,2543.8848,N,08009.7283,W,1,8,1.9,18,M,,M,,*56
06/11/2014	02:06:19.680	$GPGGA,020620,2543.8848,N,08009.7283,W,1,8,1.9,18,M,,M,,*5C
06/11/2014	02:06:20.806	$GPGGA,020621,2543.8848,N,08009.7283,W,1,8,1.9,18,M,,M,,*5D
06/11/2014	02:06:21.802	$GPGGA,020622,2543.8848,N,08009.7282,W,1,8,1.9,18,M,,M,,*5F
06/11/2014	02:06:22.777	$GPGGA,020623,2543.8848,N,08009.7283,W,1,8,1.9,18,M,,M,,*5F
06/11/2014	02:06:23.823	$GPGGA,020624,2543.8848,N,08009.7281,W,1,8,1.9,18,M,,M,,*5A
06/11/2014	02:06:24.788	$GPGGA,020625,2543.8850,N,08009.7281,W,1,8,1.9,18,M,,M,,*52
06/11/2014	02:06:25.703	$GPGGA,020626,2543.8849,N,08009.7280,W,1,8,1.9,19,M,,M,,*59
06/11/2014	02:06:26.813	$GPGGA,020627,2543.8850,N,08009.7280,W,1,8,1.9,19,M,,M,,*50
06/11/2014	02:06:27.806	$GPGGA,020628,2543.8851,N,08009.7279,W,1,8,1.9,19,M,,M,,*58
06/11/2014	02:06:28.836	$GPGGA,020629,2543.8850,N,08009.7280,W,1,8,1.9,19,M,,M,,*5E
06/11/2014	02:06:29.817	$GPGGA,020630,2543.8851,N,08009.7279,W,1,8,1.9,19,M,,M,,*51
06/11/2014	02:06:30.801	$GPGGA,020631,2543.8850,N,08009.7280,W,1,8,1.9,19,M,,M,,*57
06/11/2014	02:06:31.826	$GPGGA,020632,2543.8851,N,08009.7278,W,1,8,1.9,19,M,,M,,*52
06/11/2014	02:06:32.842	$GPGGA,020633,2543.8851,N,08009.7279,W,1,8,1.9,19,M,,M,,*52
06/11/2014	02:06:33.829	$GPGGA,020634,2543.8851,N,08009.7278,W,1,8,1.9,19,M,,M,,*54
06/11/2014	02:06:34.843	$GPGGA,020635,2543.8851,N,08009.7279,W,1,8,1.9,19,M,,M,,*54
06/11/2014	02:06:35.839	$GPGGA,020636,2543.8851,N,08009.7280,W,1,8,1.9,19,M,,M,,*51
06/11/2014	02:06:36.854	$GPGGA,020637,2543.8851,N,08009.7279,W,1,8,1.9,19,M,,M,,*56
06/11/2014	02:06:37.830	$GPGGA,020638,2543.8851,N,08009.7280,W,1,8,1.9,19,M,,M,,*5F
06/11/2014	02:06:38.866	$GPGGA,020639,2543.8851,N,08009.7280,W,1,8,1.9,19,M,,M,,*5E
06/11/2014	02:06:39.861	$GPGGA,020640,2543.8851,N,08009.7280,W,1,8,1.9,19,M,,M,,*50
06/11/2014	02:06:40.877	$GPGGA,020641,2543.8851,N,08009.7280,W,1,8,1.9,19,M,,M,,*51
06/11/2014	02:06:41.852	$GPGGA,020642,2543.8851,N,08009.7280,W,1,8,1.9,19,M,,M,,*52
06/11/2014	02:06:42.878	$GPGGA,020643,2543.8850,N,08009.7280,W,1,8,1.9,19,M,,M,,*52
06/11/2014	02:06:43.871	$GPGGA,020644,2543.8851,N,08009.7280,W,1,8,1.9,19,M,,M,,*54
06/11/2014	02:06:44.619	$GPGGA,020645,2543.8850,N,08009.7280,W,1,8,1.9,19,M,,M,,*54
06/11/2014	02:06:45.666	$GPGGA,020646,2543.8851,N,08009.7281,W,1,8,1.9,19,M,,M,,*57
06/11/2014	02:06:46.755	$GPGGA,020647,2543.8850,N,08009.7281,W,1,8,1.9,19,M,,M,,*57
06/11/2014	02:06:47.813	$GPGGA,020648,2543.8849,N,08009.7281,W,1,8,1.9,19,M,,M,,*50
06/11/2014	02:06:48.891	$GPGGA,020649,2543.8850,N,08009.7281,W,1,8,1.9,19,M,,M,,*59
06/11/2014	02:06:49.938	$GPGGA,020650,2543.8851,N,08009.7281,W,1,8,1.9,19,M,,M,,*50
06/11/2014	02:06:50.985	$GPGGA,020651,2543.8849,N,08009.7281,W,1,8,1.9,19,M,,M,,*58
06/11/2014	02:06:52.085	$GPGGA,020652,2543.8850,N,08009.7281,W,1,8,1.9,19,M,,M,,*53
06/11/2014	02:06:53.126	$GPGGA,020653,2543.8848,N,08009.7281,W,1,8,1.9,19,M,,M,,*5B
06/11/2014	02:06:54.179	$GPGGA,020654,2543.8848,N,08009.7281,W,1,8,1.9,19,M,,M,,*5C
06/11/2014	02:06:55.247	$GPGGA,020655,2543.8848,N,08009.7281,W,1,8,1.9,19,M,,M,,*5D
06/11/2014	02:06:56.337	$GPGGA,020656,2543.8848,N,08009.7281,W,1,8,1.9,19,M,,M,,*5E
06/11/2014	02:06:57.395	$GPGGA,020657,2543.8848,N,08009.7281,W,1,8,1.9,19,M,,M,,*5F
06/11/2014	02:06:58.452	$GPGGA,020658,2543.8848,N,08009.7281,W,1,8,1.9,19,M,,M,,*50
06/11/2014	02:06:59.627	$GPGGA,020659,2543.8848,N,08009.7281,W,1,8,1.9,19,M,,M,,*51
06/11/2014	02:07:00.610	$GPGGA,020700,2543.8848,N,08009.7281,W,1,8,1.9,19,M,,M,,*5C
06/11/2014	02:07:01.668	$GPGGA,020701,2543.8846,N,08009.7281,W,1,8,1.9,19,M,,M,,*53
06/11/2014	02:07:02.705	$GPGGA,020702,2543.8847,N,08009.7283,W,1,8,1.9,19,M,,M,,*53
06/11/2014	02:07:03.776	$GPGGA,020703,2543.8846,N,08009.7282,W,1,8,1.9,19,M,,M,,*52
06/11/2014	02:07:04.958	$GPGGA,020704,2543.8847,N,08009.7283,W,1,8,1.9,19,M,,M,,*55
06/11/2014	02:07:05.920	$GPGGA,020705,2543.8845,N,08009.7283,W,1,8,1.9,19,M,,M,,*56
06/11/2014	02:07:07.088	$GPGGA,020706,2543.8846,N,08009.7283,W,1,8,1.9,19,M,,M,,*56
06/11/2014	02:07:08.046	$GPGGA,020707,2543.8845,N,08009.7283,W,1,8,1.9,19,M,,M,,*54
06/11/2014	02:07:09.241	$GPGGA,020708,2543.8846,N,08009.7283,W,1,8,1.9,19,M,,M,,*58
06/11/2014	02:07:10.277	$GPGGA,020709,2543.8845,N,08009.7283,W,1,8,1.9,19,M,,M,,*5A
06/11/2014	02:07:11.239	$GPGGA,020710,2543.8846,N,08009.7283,W,1,8,1.9,19,M,,M,,*51
06/11/2014	02:07:12.318	$GPGGA,020711,2543.8845,N,08009.7283,W,1,8,1.9,19,M,,M,,*53
06/11/2014	02:07:13.497	$GPGGA,020712,2543.8846,N,08009.7283,W,1,8,1.9,19,M,,M,,*53
06/11/2014	02:07:14.572	$GPGGA,020713,2543.8845,N,08009.7283,W,1,8,1.9,19,M,,M,,*51
06/11/2014	02:07:15.608	$GPGGA,020714,2543.8847,N,08009.7283,W,1,8,1.9,19,M,,M,,*54
06/11/2014	02:07:16.687	$GPGGA,020715,2543.8846,N,08009.7283,W,1,8,1.9,19,M,,M,,*54
06/11/2014	02:07:17.745	$GPGGA,020716,2543.8847,N,08009.7282,W,1,8,1.9,19,M,,M,,*57
06/11/2014	02:07:18.802	$GPGGA,020717,2543.8846,N,08009.7283,W,1,8,1.9,19,M,,M,,*56
06/11/2014	02:07:19.871	$GPGGA,020718,2543.8847,N,08009.7282,W,1,8,1.9,19,M,,M,,*59
06/11/2014	02:07:20.974	$GPGGA,020719,2543.8845,N,08009.7283,W,1,8,1.9,19,M,,M,,*5B
06/11/2014	02:07:22.018	$GPGGA,020720,2543.8846,N,08009.7282,W,1,8,1.9,19,M,,M,,*53
06/11/2014	02:07:23.101	$GPGGA,020721,2543.8845,N,08009.7283,W,1,8,1.9,19,M,,M,,*50
06/11/2014	02:07:24.133	$GPGGA,020722,2543.8846,N,08009.7282,W,1,8,1.9,19,M,,M,,*51
06/11/2014	02:07:25.212	$GPGGA,020723,2543.8845,N,08009.7283,W,1,8,1.9,19,M,,M,,*52
06/11/2014	02:07:26.290	$GPGGA,020724,2543.8844,N,08009.7281,W,1,8,1.9,19,M,,M,,*56
06/11/2014	02:07:27.370	$GPGGA,020725,2543.8844,N,08009.7283,W,1,8,1.9,19,M,,M,,*55
06/11/2014	02:07:28.394	$GPGGA,020726,2543.8844,N,08009.7281,W,1,8,1.9,19,M,,M,,*54
06/11/2014	02:07:29.495	$GPGGA,020727,2543.8844,N,08009.7281,W,1,8,1.9,19,M,,M,,*55
06/11/2014	02:07:30.542	$GPGGA,020728,2543.8842,N,08009.7281,W,1,8,1.9,19,M,,M,,*5C
06/11/2014	02:07:31.642	$GPGGA,020729,2543.8843,N,08009.7281,W,1,8,1.9,19,M,,M,,*5C
06/11/2014	02:07:34.153	$GPGGA,020731,2543.8841,N,08009.7280,W,1,8,1.9,19,M,,M,,*56
06/11/2014	02:07:34.826	$GPGGA,020732,2543.8842,N,08009.7280,W,1,8,1.9,19,M,,M,,*56
06/11/2014	02:07:35.894	$GPGGA,020733,2543.8841,N,08009.7280,W,1,8,1.9,19,M,,M,,*54
06/11/2014	02:07:36.941	$GPGGA,020734,2543.8840,N,08009.7280,W,1,8,1.9,19,M,,M,,*52
06/11/2014	02:07:38.031	$GPGGA,020735,2543.8840,N,08009.7280,W,1,8,1.9,19,M,,M,,*53
06/11/2014	02:07:39.088	$GPGGA,020736,2543.8840,N,08009.7280,W,1,8,1.9,19,M,,M,,*50
06/11/2014	02:07:40.135	$GPGGA,020737,2543.8840,N,08009.7279,W,1,8,1.9,19,M,,M,,*57
06/11/2014	02:07:41.203	$GPGGA,020738,2543.8839,N,08009.7280,W,1,8,1.9,19,M,,M,,*50
06/11/2014	02:07:42.261	$GPGGA,020739,2543.8840,N,08009.7279,W,1,8,1.9,19,M,,M,,*59
06/11/2014	02:07:43.342	$GPGGA,020740,2543.8839,N,08009.7280,W,1,8,1.9,19,M,,M,,*5F
06/11/2014	02:07:44.429	$GPGGA,020741,2543.8840,N,08009.7279,W,1,8,1.9,19,M,,M,,*56
06/11/2014	02:07:45.465	$GPGGA,020742,2543.8838,N,08009.7280,W,1,8,1.9,18,M,,M,,*5D
06/11/2014	02:07:46.565	$GPGGA,020743,2543.8839,N,08009.7279,W,1,8,1.9,18,M,,M,,*5B
06/11/2014	02:07:47.601	$GPGGA,020744,2543.8838,N,08009.7280,W,1,8,1.9,18,M,,M,,*5B
06/11/2014	02:07:44.573	$GPGGA,020745,2543.8839,N,08009.7279,W,1,8,1.9,18,M,,M,,*5D
06/11/2014	02:07:45.641	$GPGGA,020746,2543.8838,N,08009.7280,W,1,8,1.9,18,M,,M,,*59
06/11/2014	02:07:46.720	$GPGGA,020747,2543.8839,N,08009.7280,W,1,8,1.9,18,M,,M,,*59
06/11/2014	02:07:47.788	$GPGGA,020748,2543.8837,N,08009.7280,W,1,8,1.9,18,M,,M,,*58
06/11/2014	02:07:48.846	$GPGGA,020749,2543.8837,N,08009.7280,W,1,8,1.9,18,M,,M,,*59
06/11/2014	02:07:49.925	$GPGGA,020750,2543.8837,N,08009.7280,W,1,8,1.9,18,M,,M,,*51
06/11/2014	02:07:50.983	$GPGGA,020751,2543.8837,N,08009.7280,W,1,8,1.9,18,M,,M,,*50
06/11/2014	02:07:52.222	$GPGGA,020752,2543.8837,N,08009.7280,W,1,8,1.9,18,M,,M,,*53
06/11/2014	02:07:53.247	$GPGGA,020753,2543.8837,N,08009.7280,W,1,8,1.9,18,M,,M,,*52
06/11/2014	02:07:54.178	$GPGGA,020754,2543.8837,N,08009.7280,W,1,8,1.9,18,M,,M,,*55
06/11/2014	02:07:55.231	$GPGGA,020755,2543.8837,N,08009.7280,W,1,8,1.9,18,M,,M,,*54
06/11/2014	02:07:56.485	$GPGGA,020756,2543.8837,N,08009.7280,W,1,8,1.9,18,M,,M,,*57
06/11/2014	02:07:57.350	$GPGGA,020757,2543.8837,N,08009.7280,W,1,8,1.9,18,M,,M,,*56
06/11/2014	02:07:58.526	$GPGGA,020758,2543.8837,N,08009.7280,W,1,8,1.9,18,M,,M,,*59
06/11/2014	02:07:59.517	$GPGGA,020759,2543.8837,N,08009.7280,W,1,8,1.9,18,M,,M,,*58
06/11/2014	02:08:00.572	$GPGGA,020800,2543.8837,N,08009.7280,W,1,8,1.9,18,M,,M,,*5B
06/11/2014	02:08:01.771	$GPGGA,020801,2543.8837,N,08009.7280,W,1,8,1.9,18,M,,M,,*5A
06/11/2014	02:08:02.872	$GPGGA,020802,2543.8837,N,08009.7280,W,1,8,1.9,18,M,,M,,*59
06/11/2014	02:08:03.919	$GPGGA,020803,2543.8837,N,08009.7280,W,1,8,1.9,18,M,,M,,*58
06/11/2014	02:08:05.008	$GPGGA,020804,2543.8837,N,08009.7280,W,1,8,1.9,18,M,,M,,*5F
06/11/2014	02:08:06.055	$GPGGA,020805,2543.8837,N,08009.7280,W,1,8,1.9,18,M,,M,,*5E
06/11/2014	02:08:07.059	$GPGGA,020806,2543.8837,N,08009.7279,W,1,8,1.9,18,M,,M,,*5B
06/11/2014	02:08:08.171	$GPGGA,020807,2543.8837,N,08009.7280,W,1,8,1.9,18,M,,M,,*5C
06/11/2014	02:08:09.283	$GPGGA,020808,2543.8837,N,08009.7279,W,1,8,1.9,18,M,,M,,*55
06/11/2014	02:08:10.286	$GPGGA,020809,2543.8837,N,08009.7280,W,1,8,1.9,18,M,,M,,*52
06/11/2014	02:08:11.418	$GPGGA,020810,2543.8837,N,08009.7278,W,1,8,1.9,18,M,,M,,*5D
06/11/2014	02:08:12.444	$GPGGA,020811,2543.8837,N,08009.7279,W,1,8,1.9,18,M,,M,,*5D
06/11/2014	02:08:13.544	$GPGGA,020812,2543.8837,N,08009.7278,W,1,8,1.9,18,M,,M,,*5F
06/11/2014	02:08:14.570	$GPGGA,020813,2543.8835,N,08009.7279,W,1,8,1.9,18,M,,M,,*5D
06/11/2014	02:08:15.585	$GPGGA,020814,2543.8836,N,08009.7278,W,1,8,1.9,18,M,,M,,*58
06/11/2014	02:08:16.706	$GPGGA,020815,2543.8835,N,08009.7279,W,1,8,1.9,18,M,,M,,*5B
06/11/2014	02:08:17.816	$GPGGA,020816,2543.8834,N,08009.7278,W,1,8,1.9,18,M,,M,,*58
06/11/2014	02:08:18.831	$GPGGA,020817,2543.8835,N,08009.7279,W,1,8,1.9,18,M,,M,,*59
06/11/2014	02:08:19.846	$GPGGA,020818,2543.8833,N,08009.7278,W,1,8,1.9,18,M,,M,,*51
06/11/2014	02:08:20.970	$GPGGA,020819,2543.8833,N,08009.7279,W,1,8,1.9,18,M,,M,,*51
06/11/2014	02:08:22.089	$GPGGA,020820,2543.8833,N,08009.7278,W,1,8,1.9,18,M,,M,,*5A
06/11/2014	02:08:23.098	$GPGGA,020821,2543.8833,N,08009.7279,W,1,8,1.9,18,M,,M,,*5A
06/11/2014	02:08:24.119	$GPGGA,020822,2543.8831,N,08009.7278,W,1,8,1.9,18,M,,M,,*5A
06/11/2014	02:08:25.230	$GPGGA,020823,2543.8832,N,08009.7279,W,1,8,1.9,18,M,,M,,*59
06/11/2014	02:08:26.320	$GPGGA,020824,2543.8831,N,08009.7280,W,1,8,1.9,18,M,,M,,*5B
06/11/2014	02:08:27.313	$GPGGA,020825,2543.8832,N,08009.7279,W,1,8,1.9,18,M,,M,,*5F
06/11/2014	02:08:28.435	$GPGGA,020826,2543.8831,N,08009.7280,W,1,8,1.9,17,M,,M,,*56
06/11/2014	02:08:29.525	$GPGGA,020827,2543.8830,N,08009.7279,W,1,8,1.9,17,M,,M,,*50
06/11/2014	02:08:30.582	$GPGGA,020828,2543.8830,N,08009.7280,W,1,8,1.9,17,M,,M,,*59
06/11/2014	02:08:31.629	$GPGGA,020829,2543.8829,N,08009.7279,W,1,8,1.9,17,M,,M,,*56
06/11/2014	02:08:32.719	$GPGGA,020830,2543.8829,N,08009.7280,W,1,8,1.9,17,M,,M,,*58
06/11/2014	02:08:33.777	$GPGGA,020831,2543.8828,N,08009.7279,W,1,8,1.9,17,M,,M,,*5E
06/11/2014	02:08:34.782	$GPGGA,020832,2543.8829,N,08009.7280,W,1,8,1.9,17,M,,M,,*5A
06/11/2014	02:08:35.881	$GPGGA,020833,2543.8828,N,08009.7280,W,1,8,1.9,17,M,,M,,*5A
06/11/2014	02:08:36.906	$GPGGA,020834,2543.8827,N,08009.7280,W,1,8,1.9,17,M,,M,,*52
06/11/2014	02:08:37.995	$GPGGA,020835,2543.8828,N,08009.7281,W,1,8,1.9,17,M,,M,,*5D
06/11/2014	02:08:39.181	$GPGGA,020836,2543.8827,N,08009.7281,W,1,8,1.9,17,M,,M,,*51
06/11/2014	02:08:40.175	$GPGGA,020837,2543.8828,N,08009.7281,W,1,8,1.9,17,M,,M,,*5F
06/11/2014	02:08:41.243	$GPGGA,020838,2543.8827,N,08009.7281,W,1,8,1.9,17,M,,M,,*5F
06/11/2014	02:08:42.354	$GPGGA,020839,2543.8828,N,08009.7280,W,1,8,1.9,17,M,,M,,*50
06/11/2014	02:08:43.390	$GPGGA,020840,2543.8827,N,08009.7280,W,1,8,1.9,17,M,,M,,*51
06/11/2014	02:08:44.366	$GPGGA,020841,2543.8828,N,08009.7280,W,1,8,1.9,17,M,,M,,*5F
06/11/2014	02:08:45.540	$GPGGA,020842,2543.8827,N,08009.7281,W,1,8,1.9,17,M,,M,,*52
06/11/2014	02:08:46.542	$GPGGA,020843,2543.8826,N,08009.7280,W,1,8,1.9,17,M,,M,,*53
06/11/2014	02:08:43.584	$GPGGA,020844,2543.8826,N,08009.7281,W,1,8,1.9,17,M,,M,,*55
06/11/2014	02:08:44.657	$GPGGA,020845,2543.8826,N,08009.7281,W,1,8,1.9,17,M,,M,,*54
06/11/2014	02:08:45.661	$GPGGA,020846,2543.8828,N,08009.7281,W,1,8,1.9,17,M,,M,,*59
06/11/2014	02:08:46.815	$GPGGA,020847,2543.8827,N,08009.7281,W,1,8,1.9,16,M,,M,,*56
06/11/2014	02:08:47.883	$GPGGA,020848,2543.8826,N,08009.7281,W,1,8,1.9,16,M,,M,,*58
06/11/2014	02:08:48.866	$GPGGA,020849,2543.8826,N,08009.7281,W,1,8,1.9,16,M,,M,,*59
06/11/2014	02:08:50.001	$GPGGA,020850,2543.8826,N,08009.7283,W,1,8,1.9,16,M,,M,,*53
06/11/2014	02:08:51.058	$GPGGA,020851,2543.8826,N,08009.7282,W,1,8,1.9,16,M,,M,,*53
06/11/2014	02:08:52.129	$GPGGA,020852,2543.8826,N,08009.7283,W,1,8,1.9,16,M,,M,,*51
06/11/2014	02:08:53.181	$GPGGA,020853,2543.8826,N,08009.7282,W,1,8,1.9,16,M,,M,,*51
06/11/2014	02:08:54.260	$GPGGA,020854,2543.8826,N,08009.7283,W,1,8,1.9,16,M,,M,,*57
06/11/2014	02:08:55.318	$GPGGA,020855,2543.8826,N,08009.7282,W,1,8,1.9,16,M,,M,,*57
06/11/2014	02:08:56.398	$GPGGA,020856,2543.8824,N,08009.7283,W,1,8,1.9,16,M,,M,,*57
06/11/2014	02:08:57.444	$GPGGA,020857,2543.8825,N,08009.7282,W,1,8,1.9,16,M,,M,,*56
06/11/2014	02:08:58.501	$GPGGA,020858,2543.8824,N,08009.7283,W,1,8,1.9,16,M,,M,,*59
06/11/2014	02:08:59.580	$GPGGA,020859,2543.8825,N,08009.7282,W,1,8,1.9,16,M,,M,,*58
06/11/2014	02:09:00.672	$GPGGA,020900,2543.8824,N,08009.7283,W,1,8,1.9,16,M,,M,,*55
06/11/2014	02:09:01.706	$GPGGA,020901,2543.8825,N,08009.7283,W,1,8,1.9,16,M,,M,,*55
06/11/2014	02:09:02.774	$GPGGA,020902,2543.8824,N,08009.7283,W,1,8,1.9,16,M,,M,,*57
06/11/2014	02:09:03.853	$GPGGA,020903,2543.8825,N,08009.7283,W,1,8,1.9,15,M,,M,,*54
06/11/2014	02:09:04.922	$GPGGA,020904,2543.8824,N,08009.7282,W,1,8,1.9,15,M,,M,,*53
06/11/2014	02:09:05.990	$GPGGA,020905,2543.8825,N,08009.7283,W,1,8,1.9,15,M,,M,,*52
06/11/2014	02:09:07.037	$GPGGA,020906,2543.8824,N,08009.7282,W,1,8,1.9,15,M,,M,,*51
06/11/2014	02:09:08.105	$GPGGA,020907,2543.8826,N,08009.7283,W,1,8,1.9,15,M,,M,,*53
06/11/2014	02:09:09.194	$GPGGA,020908,2543.8826,N,08009.7282,W,1,8,1.9,15,M,,M,,*5D
06/11/2014	02:09:10.242	$GPGGA,020909,2543.8826,N,08009.7283,W,1,8,1.9,15,M,,M,,*5D
06/11/2014	02:09:11.309	$GPGGA,020910,2543.8826,N,08009.7282,W,1,8,1.9,15,M,,M,,*54
06/11/2014	02:09:12.399	$GPGGA,020911,2543.8826,N,08009.7283,W,1,8,1.9,15,M,,M,,*54
06/11/2014	02:09:13.446	$GPGGA,020912,2543.8826,N,08009.7283,W,1,8,1.9,15,M,,M,,*57
06/11/2014	02:09:14.525	$GPGGA,020913,2543.8826,N,08009.7283,W,1,8,1.9,15,M,,M,,*56
06/11/2014	02:09:15.582	$GPGGA,020914,2543.8826,N,08009.7281,W,1,8,1.9,15,M,,M,,*53
06/11/2014	02:09:16.661	$GPGGA,020915,2543.8828,N,08009.7281,W,1,8,1.9,15,M,,M,,*5C
06/11/2014	02:09:17.719	$GPGGA,020916,2543.8828,N,08009.7281,W,1,8,1.9,15,M,,M,,*5F
06/11/2014	02:09:20.140	$GPGGA,020917,2543.8828,N,08009.7281,W,1,8,1.9,15,M,,M,,*5E
06/11/2014	02:09:20.159	$GPGGA,020918,2543.8829,N,08009.7281,W,1,8,1.9,15,M,,M,,*50
06/11/2014	02:09:20.913	$GPGGA,020919,2543.8829,N,08009.7281,W,1,8,1.9,15,M,,M,,*51
06/11/2014	02:09:22.003	$GPGGA,020920,2543.8829,N,08009.7281,W,1,8,1.9,15,M,,M,,*5B
06/11/2014	02:09:23.060	$GPGGA,020921,2543.8830,N,08009.7281,W,1,8,1.9,15,M,,M,,*52
06/11/2014	02:09:24.139	$GPGGA,020922,2543.8830,N,08009.7281,W,1,8,1.9,15,M,,M,,*51
06/11/2014	02:09:25.176	$GPGGA,020923,2543.8830,N,08009.7280,W,1,8,1.9,15,M,,M,,*51
06/11/2014	02:09:26.255	$GPGGA,020924,2543.8830,N,08009.7280,W,1,8,1.9,15,M,,M,,*56
06/11/2014	02:09:27.312	$GPGGA,020925,2543.8832,N,08009.7280,W,1,8,1.9,15,M,,M,,*55
06/11/2014	02:09:28.369	$GPGGA,020926,2543.8831,N,08009.7281,W,1,8,1.9,15,M,,M,,*54
06/11/2014	02:09:29.437	$GPGGA,020927,2543.8832,N,08009.7281,W,1,8,1.9,15,M,,M,,*56
06/11/2014	02:09:30.559	$GPGGA,020928,2543.8831,N,08009.7281,W,1,8,1.9,15,M,,M,,*5A
06/11/2014	02:09:31.661	$GPGGA,020929,2543.8832,N,08009.7283,W,1,8,1.9,15,M,,M,,*5A
06/11/2014	02:09:32.642	$GPGGA,020930,2543.8832,N,08009.7283,W,1,8,1.9,15,M,,M,,*52
06/11/2014	02:09:33.700	$GPGGA,020931,2543.8833,N,08009.7283,W,1,8,1.9,15,M,,M,,*52
06/11/2014	02:09:34.811	$GPGGA,020932,2543.8833,N,08009.7283,W,1,8,1.9,15,M,,M,,*51
06/11/2014	02:09:35.933	$GPGGA,020933,2543.8833,N,08009.7283,W,1,8,1.9,15,M,,M,,*50
06/11/2014	02:09:36.890	$GPGGA,020934,2543.8833,N,08009.7283,W,1,8,1.9,15,M,,M,,*57
06/11/2014	02:09:37.973	$GPGGA,020935,2543.8835,N,08009.7284,W,1,8,1.9,15,M,,M,,*57
06/11/2014	02:09:39.139	$GPGGA,020936,2543.8834,N,08009.7283,W,1,8,1.9,15,M,,M,,*52
06/11/2014	02:09:40.101	$GPGGA,020937,2543.8835,N,08009.7284,W,1,8,1.9,15,M,,M,,*55
06/11/2014	02:09:41.267	$GPGGA,020938,2543.8834,N,08009.7284,W,1,8,1.9,15,M,,M,,*5B
06/11/2014	02:09:42.229	$GPGGA,020939,2543.8836,N,08009.7284,W,1,8,1.9,15,M,,M,,*58
06/11/2014	02:09:43.410	$GPGGA,020940,2543.8835,N,08009.7284,W,1,8,1.9,15,M,,M,,*55
06/11/2014	02:09:44.447	$GPGGA,020941,2543.8836,N,08009.7284,W,1,8,1.9,15,M,,M,,*57
06/11/2014	02:09:45.515	$GPGGA,020942,2543.8835,N,08009.7284,W,1,8,1.9,15,M,,M,,*57
06/11/2014	02:09:46.604	$GPGGA,020943,2543.8836,N,08009.7284,W,1,8,1.9,15,M,,M,,*55
06/11/2014	02:09:43.588	$GPGGA,020944,2543.8837,N,08009.7284,W,1,8,1.9,15,M,,M,,*53
06/11/2014	02:09:44.624	$GPGGA,020945,2543.8837,N,08009.7283,W,1,8,1.9,15,M,,M,,*55
06/11/2014	02:09:45.692	$GPGGA,020946,2543.8837,N,08009.7283,W,1,8,1.9,15,M,,M,,*56
06/11/2014	02:09:46.750	$GPGGA,020947,2543.8837,N,08009.7283,W,1,8,1.9,15,M,,M,,*57
06/11/2014	02:09:47.829	$GPGGA,020948,2543.8837,N,08009.7283,W,1,8,1.9,15,M,,M,,*58
06/11/2014	02:09:48.932	$GPGGA,020949,2543.8837,N,08009.7283,W,1,8,1.9,15,M,,M,,*59
06/11/2014	02:09:49.955	$GPGGA,020950,2543.8837,N,08009.7282,W,1,8,1.9,16,M,,M,,*53
06/11/2014	02:09:51.045	$GPGGA,020951,2543.8839,N,08009.7283,W,1,8,1.9,16,M,,M,,*5D
06/11/2014	02:09:52.113	$GPGGA,020952,2543.8840,N,08009.7282,W,1,8,1.9,16,M,,M,,*51
06/11/2014	02:09:53.160	$GPGGA,020953,2543.8840,N,08009.7283,W,1,8,1.9,16,M,,M,,*51
06/11/2014	02:09:54.217	$GPGGA,020954,2543.8842,N,08009.7282,W,1,8,1.9,16,M,,M,,*55
06/11/2014	02:09:55.296	$GPGGA,020955,2543.8841,N,08009.7283,W,1,8,1.9,16,M,,M,,*56
06/11/2014	02:09:56.375	$GPGGA,020956,2543.8843,N,08009.7282,W,1,8,1.9,16,M,,M,,*56
06/11/2014	02:09:57.411	$GPGGA,020957,2543.8844,N,08009.7283,W,1,8,1.9,16,M,,M,,*51
06/11/2014	02:09:58.490	$GPGGA,020958,2543.8844,N,08009.7283,W,1,8,1.9,16,M,,M,,*5E
06/11/2014	02:09:59.580	$GPGGA,020959,2543.8844,N,08009.7283,W,1,8,1.9,16,M,,M,,*5F
06/11/2014	02:10:00.648	$GPGGA,021000,2543.8846,N,08009.7283,W,1,8,1.9,16,M,,M,,*59
06/11/2014	02:10:01.694	$GPGGA,021001,2543.8845,N,08009.7283,W,1,8,1.9,16,M,,M,,*5B
06/11/2014	02:10:02.752	$GPGGA,021002,2543.8847,N,08009.7283,W,1,8,1.9,16,M,,M,,*5A
06/11/2014	02:10:03.809	$GPGGA,021003,2543.8848,N,08009.7283,W,1,8,1.9,16,M,,M,,*54
06/11/2014	02:10:04.899	$GPGGA,021004,2543.8848,N,08009.7283,W,1,8,1.9,17,M,,M,,*52
06/11/2014	02:10:05.978	$GPGGA,021005,2543.8848,N,08009.7283,W,1,8,1.9,17,M,,M,,*53
06/11/2014	02:10:07.025	$GPGGA,021006,2543.8848,N,08009.7283,W,1,8,1.9,17,M,,M,,*50
06/11/2014	02:10:08.115	$GPGGA,021007,2543.8850,N,08009.7283,W,1,8,1.9,17,M,,M,,*58
06/11/2014	02:10:09.172	$GPGGA,021008,2543.8849,N,08009.7283,W,1,8,1.9,17,M,,M,,*5F
06/11/2014	02:10:10.251	$GPGGA,021009,2543.8851,N,08009.7283,W,1,8,1.9,17,M,,M,,*57
06/11/2014	02:10:11.277	$GPGGA,021010,2543.8850,N,08009.7283,W,1,8,1.9,17,M,,M,,*5E
06/11/2014	02:10:12.377	$GPGGA,021011,2543.8851,N,08009.7283,W,1,8,1.9,17,M,,M,,*5E
06/11/2014	02:10:13.424	$GPGGA,021012,2543.8851,N,08009.7283,W,1,8,1.9,17,M,,M,,*5D
06/11/2014	02:10:14.503	$GPGGA,021013,2543.8853,N,08009.7283,W,1,8,1.9,17,M,,M,,*5E
06/11/2014	02:10:15.539	$GPGGA,021014,2543.8852,N,08009.7283,W,1,8,1.9,17,M,,M,,*58
06/11/2014	02:10:16.629	$GPGGA,021015,2543.8853,N,08009.7283,W,1,8,1.9,17,M,,M,,*58
06/11/2014	02:10:17.708	$GPGGA,021016,2543.8854,N,08009.7283,W,1,8,1.9,18,M,,M,,*53
06/11/2014	02:10:18.755	$GPGGA,021017,2543.8853,N,08009.7283,W,1,8,1.9,18,M,,M,,*55
06/11/2014	02:10:19.806	$GPGGA,021018,2543.8855,N,08009.7283,W,1,8,1.9,18,M,,M,,*5C
06/11/2014	02:10:20.880	$GPGGA,021019,2543.8855,N,08009.7283,W,1,8,1.9,18,M,,M,,*5D
06/11/2014	02:10:21.948	$GPGGA,021020,2543.8855,N,08009.7283,W,1,8,1.9,18,M,,M,,*57
06/11/2014	02:10:23.016	$GPGGA,021021,2543.8855,N,08009.7282,W,1,8,1.9,18,M,,M,,*57
06/11/2014	02:10:24.176	$GPGGA,021022,2543.8857,N,08009.7283,W,1,8,1.9,18,M,,M,,*57
06/11/2014	02:10:25.253	$GPGGA,021023,2543.8856,N,08009.7282,W,1,8,1.9,18,M,,M,,*56
06/11/2014	02:10:26.232	$GPGGA,021024,2543.8858,N,08009.7283,W,1,8,1.9,18,M,,M,,*5E
06/11/2014	02:10:27.290	$GPGGA,021025,2543.8857,N,08009.7282,W,1,8,1.9,19,M,,M,,*50
06/11/2014	02:10:28.433	$GPGGA,021026,2543.8858,N,08009.7283,W,1,8,1.9,19,M,,M,,*5D
06/11/2014	02:10:29.533	$GPGGA,021027,2543.8858,N,08009.7283,W,1,8,1.9,19,M,,M,,*5C
06/11/2014	02:10:30.505	$GPGGA,021028,2543.8859,N,08009.7283,W,1,8,1.9,19,M,,M,,*52
06/11/2014	02:10:31.659	$GPGGA,021029,2543.8859,N,08009.7282,W,1,8,1.9,19,M,,M,,*52
06/11/2014	02:10:32.707	$GPGGA,021030,2543.8861,N,08009.7283,W,1,8,1.9,19,M,,M,,*50
06/11/2014	02:10:33.785	$GPGGA,021031,2543.8862,N,08009.7282,W,1,8,1.9,19,M,,M,,*53
06/11/2014	02:10:34.757	$GPGGA,021032,2543.8862,N,08009.7283,W,1,8,1.9,19,M,,M,,*51
06/11/2014	02:10:35.934	$GPGGA,021033,2543.8862,N,08009.7282,W,1,8,1.9,20,M,,M,,*5B
06/11/2014	02:10:36.968	$GPGGA,021034,2543.8862,N,08009.7283,W,1,8,1.9,20,M,,M,,*5D
06/11/2014	02:10:38.075	$GPGGA,021035,2543.8862,N,08009.7281,W,1,8,1.9,20,M,,M,,*5E
06/11/2014	02:10:39.130	$GPGGA,021036,2543.8862,N,08009.7283,W,1,8,1.9,20,M,,M,,*5F
06/11/2014	02:10:40.210	$GPGGA,021037,2543.8862,N,08009.7281,W,1,8,1.9,20,M,,M,,*5C
06/11/2014	02:10:41.230	$GPGGA,021038,2543.8862,N,08009.7281,W,1,8,1.9,20,M,,M,,*53
06/11/2014	02:10:42.298	$GPGGA,021039,2543.8862,N,08009.7281,W,1,8,1.9,20,M,,M,,*52
06/11/2014	02:10:43.377	$GPGGA,021040,2543.8862,N,08009.7281,W,1,8,1.9,20,M,,M,,*5C
06/11/2014	02:10:44.456	$GPGGA,021041,2543.8862,N,08009.7281,W,1,8,1.9,20,M,,M,,*5D
06/11/2014	02:10:45.503	$GPGGA,021042,2543.8862,N,08009.7283,W,1,8,1.9,21,M,,M,,*5D
06/11/2014	02:10:46.561	$GPGGA,021043,2543.8862,N,08009.7282,W,1,8,1.9,21,M,,M,,*5D
06/11/2014	02:10:43.582	$GPGGA,021044,2543.8862,N,08009.7283,W,1,8,1.9,21,M,,M,,*5B
06/11/2014	02:10:44.625	$GPGGA,021045,2543.8862,N,08009.7282,W,1,8,1.9,21,M,,M,,*5B
06/11/2014	02:10:45.672	$GPGGA,021046,2543.8862,N,08009.7283,W,1,8,1.9,21,M,,M,,*59
06/11/2014	02:10:46.761	$GPGGA,021047,2543.8862,N,08009.7283,W,1,8,1.9,21,M,,M,,*58
06/11/2014	02:10:47.819	$GPGGA,021048,2543.8862,N,08009.7284,W,1,8,1.9,21,M,,M,,*50
06/11/2014	02:10:48.866	$GPGGA,021049,2543.8862,N,08009.7284,W,1,8,1.9,21,M,,M,,*51
06/11/2014	02:10:49.934	$GPGGA,021050,2543.8862,N,08009.7284,W,1,8,1.9,21,M,,M,,*59
06/11/2014	02:10:51.035	$GPGGA,021051,2543.8862,N,08009.7284,W,1,8,1.9,21,M,,M,,*58
06/11/2014	02:10:52.081	$GPGGA,021052,2543.8862,N,08009.7284,W,1,8,1.9,21,M,,M,,*5B
06/11/2014	02:10:53.170	$GPGGA,021053,2543.8860,N,08009.7285,W,1,8,1.9,21,M,,M,,*59
06/11/2014	02:10:54.196	$GPGGA,021054,2543.8861,N,08009.7285,W,1,8,1.9,21,M,,M,,*5F
06/11/2014	02:10:55.296	$GPGGA,021055,2543.8860,N,08009.7285,W,1,8,1.9,22,M,,M,,*5C
06/11/2014	02:10:56.332	$GPGGA,021056,2543.8861,N,08009.7285,W,1,8,1.9,22,M,,M,,*5E
06/11/2014	02:10:57.422	$GPGGA,021057,2543.8859,N,08009.7287,W,1,8,1.9,22,M,,M,,*56
06/11/2014	02:10:58.469	$GPGGA,021058,2543.8859,N,08009.7286,W,1,8,1.9,22,M,,M,,*58
06/11/2014	02:10:59.537	$GPGGA,021059,2543.8859,N,08009.7285,W,1,8,1.9,22,M,,M,,*5A
06/11/2014	02:11:00.627	$GPGGA,021100,2543.8859,N,08009.7285,W,1,8,1.9,22,M,,M,,*57
06/11/2014	02:11:01.674	$GPGGA,021101,2543.8858,N,08009.7285,W,1,8,1.9,22,M,,M,,*57
06/11/2014	02:11:02.742	$GPGGA,021102,2543.8858,N,08009.7285,W,1,8,1.9,22,M,,M,,*54
06/11/2014	02:11:03.810	$GPGGA,021103,2543.8858,N,08009.7284,W,1,8,1.9,22,M,,M,,*54
06/11/2014	02:11:04.868	$GPGGA,021104,2543.8857,N,08009.7285,W,1,8,1.9,22,M,,M,,*5D
06/11/2014	02:11:06.054	$GPGGA,021105,2543.8858,N,08009.7285,W,1,8,1.9,22,M,,M,,*53
06/11/2014	02:11:06.985	$GPGGA,021106,2543.8856,N,08009.7285,W,1,8,1.9,22,M,,M,,*5E
06/11/2014	02:11:08.066	$GPGGA,021107,2543.8855,N,08009.7285,W,1,8,1.9,22,M,,M,,*5C
06/11/2014	02:11:09.269	$GPGGA,021108,2543.8855,N,08009.7284,W,1,8,1.9,22,M,,M,,*52
06/11/2014	02:11:10.192	$GPGGA,021109,2543.8855,N,08009.7285,W,1,8,1.9,22,M,,M,,*52
06/11/2014	02:11:11.385	$GPGGA,021110,2543.8855,N,08009.7284,W,1,8,1.9,22,M,,M,,*5B
06/11/2014	02:11:12.345	$GPGGA,021111,2543.8853,N,08009.7285,W,1,8,1.9,22,M,,M,,*5D
06/11/2014	02:11:13.413	$GPGGA,021112,2543.8854,N,08009.7285,W,1,8,1.9,22,M,,M,,*59
06/11/2014	02:11:14.571	$GPGGA,021113,2543.8852,N,08009.7287,W,1,8,1.9,22,M,,M,,*5C
06/11/2014	02:11:15.530	$GPGGA,021114,2543.8853,N,08009.7287,W,1,8,1.9,22,M,,M,,*5A
06/11/2014	02:11:16.595	$GPGGA,021115,2543.8851,N,08009.7287,W,1,8,1.9,22,M,,M,,*59
06/11/2014	02:11:17.776	$GPGGA,021116,2543.8851,N,08009.7288,W,1,8,1.9,22,M,,M,,*55
06/11/2014	02:11:18.851	$GPGGA,021117,2543.8850,N,08009.7288,W,1,8,1.9,22,M,,M,,*55
06/11/2014	02:11:19.887	$GPGGA,021118,2543.8851,N,08009.7288,W,1,8,1.9,22,M,,M,,*5B
06/11/2014	02:11:20.956	$GPGGA,021119,2543.8849,N,08009.7288,W,1,8,1.9,22,M,,M,,*53
06/11/2014	02:11:21.939	$GPGGA,021120,2543.8850,N,08009.7288,W,1,8,1.9,22,M,,M,,*51
06/11/2014	02:11:23.003	$GPGGA,021121,2543.8848,N,08009.7288,W,1,8,1.9,22,M,,M,,*59
06/11/2014	02:11:24.160	$GPGGA,021122,2543.8848,N,08009.7290,W,1,8,1.9,22,M,,M,,*53
06/11/2014	02:11:25.229	$GPGGA,021123,2543.8848,N,08009.7289,W,1,8,1.9,22,M,,M,,*5A
06/11/2014	02:11:26.311	$GPGGA,021124,2543.8846,N,08009.7290,W,1,8,1.9,22,M,,M,,*5B
06/11/2014	02:11:27.392	$GPGGA,021125,2543.8847,N,08009.7289,W,1,8,1.9,22,M,,M,,*53
06/11/2014	02:11:29.534	$GPGGA,021127,2543.8846,N,08009.7289,W,1,8,1.9,22,M,,M,,*50
06/11/2014	02:11:30.570	$GPGGA,021128,2543.8845,N,08009.7290,W,1,8,1.9,22,M,,M,,*54
06/11/2014	02:11:31.648	$GPGGA,021129,2543.8846,N,08009.7289,W,1,8,1.9,22,M,,M,,*5E
06/11/2014	02:11:32.684	$GPGGA,021130,2543.8844,N,08009.7290,W,1,8,1.9,22,M,,M,,*5C
06/11/2014	02:11:33.774	$GPGGA,021131,2543.8844,N,08009.7290,W,1,8,1.9,21,M,,M,,*5E
06/11/2014	02:11:34.842	$GPGGA,021132,2543.8844,N,08009.7289,W,1,8,1.9,21,M,,M,,*55
06/11/2014	02:11:35.912	$GPGGA,021133,2543.8844,N,08009.7290,W,1,8,1.9,21,M,,M,,*5C
06/11/2014	02:11:36.958	$GPGGA,021134,2543.8844,N,08009.7289,W,1,8,1.9,21,M,,M,,*53
06/11/2014	02:11:38.015	$GPGGA,021135,2543.8844,N,08009.7290,W,1,8,1.9,21,M,,M,,*5A
06/11/2014	02:11:39.105	$GPGGA,021136,2543.8844,N,08009.7289,W,1,8,1.9,21,M,,M,,*51
06/11/2014	02:11:40.173	$GPGGA,021137,2543.8844,N,08009.7290,W,1,8,1.9,21,M,,M,,*58
06/11/2014	02:11:41.220	$GPGGA,021138,2543.8844,N,08009.7289,W,1,8,1.9,21,M,,M,,*5F
06/11/2014	02:11:42.278	$GPGGA,021139,2543.8844,N,08009.7290,W,1,8,1.9,21,M,,M,,*56
06/11/2014	02:11:43.357	$GPGGA,021140,2543.8844,N,08009.7290,W,1,8,1.9,21,M,,M,,*58
06/11/2014	02:11:44.437	$GPGGA,021141,2543.8844,N,08009.7290,W,1,8,1.9,21,M,,M,,*59
06/11/2014	02:11:45.472	$GPGGA,021142,2543.8844,N,08009.7290,W,1,8,1.9,21,M,,M,,*5A
06/11/2014	02:11:46.583	$GPGGA,021143,2543.8844,N,08009.7290,W,1,8,1.9,21,M,,M,,*5B
06/11/2014	02:11:47.614	$GPGGA,021144,2543.8844,N,08009.7290,W,1,8,1.9,21,M,,M,,*5C
06/11/2014	02:11:44.582	$GPGGA,021145,2543.8844,N,08009.7290,W,1,8,1.9,21,M,,M,,*5D
06/11/2014	02:11:45.566	$GPGGA,021146,2543.8844,N,08009.7290,W,1,8,1.9,21,M,,M,,*5E
06/11/2014	02:11:46.592	$GPGGA,021147,2543.8846,N,08009.7290,W,1,8,1.9,21,M,,M,,*5D
06/11/2014	02:11:47.639	$GPGGA,021148,2543.8845,N,08009.7290,W,1,8,1.9,21,M,,M,,*51
06/11/2014	02:11:48.634	$GPGGA,021149,2543.8846,N,08009.7289,W,1,8,1.9,21,M,,M,,*5B
06/11/2014	02:11:49.660	$GPGGA,021150,2543.8845,N,08009.7290,W,1,8,1.9,21,M,,M,,*58
