Software Version Number: 1	Data File Format Number: 1	Build Version Number: 1	Error Count Since VI Started: 0	Manufacturer: Raytheon	 Model Number: RayMarine 120	 S/N: 	 Cal Date: 	 Wind Direction Offset: 0.00	 Slope (M)1: 0.00	 Offset (B)1: 0.00	 Slope (M)2: 0.00	 Offset (B)2: 0.00	 Slope (M)3: 0.00	 Offset (B)3: 0.00	 Slope (M)4: 0.00	 Offset (B)4: 0.00	 Slope (M)5: 0.00	 Offset (B)5: 0.00	 Slope (M)6: 0.00	 Offset (B)6: 0.00
Computer Date	Computer Time	GGA String
06/14/2014	05:00:00.656	$GPGGA,050001,2427.4014,N,08102.9017,W,1,8,1.8,28,M,,M,,*59
06/14/2014	05:00:01.564	$GPGGA,050002,2427.4011,N,08102.9025,W,1,8,1.5,28,M,,M,,*53
06/14/2014	05:00:02.527	$GPGGA,050003,2427.4008,N,08102.9032,W,1,10,1.5,28,M,,M,,*65
06/14/2014	05:00:03.622	$GPGGA,050004,2427.4004,N,08102.9039,W,1,10,1.6,29,M,,M,,*67
06/14/2014	05:00:04.508	$GPGGA,050005,2427.4003,N,08102.9043,W,1,8,1.7,29,M,,M,,*54
06/14/2014	05:00:05.611	$GPGGA,050006,2427.4000,N,08102.9053,W,1,8,2.9,29,M,,M,,*58
06/14/2014	05:00:06.603	$GPGGA,050007,2427.3996,N,08102.9057,W,1,8,1.8,29,M,,M,,*5E
06/14/2014	05:00:07.530	$GPGGA,050008,2427.3994,N,08102.9061,W,1,8,2.8,29,M,,M,,*55
06/14/2014	05:00:08.508	$GPGGA,050009,2427.3995,N,08102.9068,W,1,7,2.9,29,M,,M,,*52
06/14/2014	05:00:09.525	$GPGGA,050010,2427.3992,N,08102.9072,W,1,7,1.8,29,M,,M,,*54
06/14/2014	05:00:10.614	$GPGGA,050011,2427.3990,N,08102.9075,W,1,7,2.9,29,M,,M,,*52
06/14/2014	05:00:11.627	$GPGGA,050012,2427.3988,N,08102.9083,W,1,7,2.8,29,M,,M,,*50
06/14/2014	05:00:12.670	$GPGGA,050013,2427.3986,N,08102.9093,W,1,10,1.5,29,M,,M,,*66
06/14/2014	05:00:13.611	$GPGGA,050014,2427.3982,N,08102.9101,W,1,10,1.5,29,M,,M,,*6F
06/14/2014	05:00:14.641	$GPGGA,050015,2427.3978,N,08102.9105,W,1,8,1.8,29,M,,M,,*5B
06/14/2014	05:00:15.640	$GPGGA,050016,2427.3978,N,08102.9111,W,1,8,2.8,29,M,,M,,*5E
06/14/2014	05:00:16.631	$GPGGA,050017,2427.3974,N,08102.9115,W,1,8,2.8,29,M,,M,,*57
06/14/2014	05:00:17.612	$GPGGA,050018,2427.3971,N,08102.9120,W,1,8,1.8,29,M,,M,,*58
06/14/2014	05:00:18.615	$GPGGA,050019,2427.3970,N,08102.9126,W,1,10,1.5,29,M,,M,,*6A
06/14/2014	05:00:19.628	$GPGGA,050020,2427.3969,N,08102.9131,W,1,10,2.9,29,M,,M,,*61
06/14/2014	05:00:20.641	$GPGGA,050021,2427.3965,N,08102.9137,W,1,8,2.8,29,M,,M,,*52
06/14/2014	05:00:21.614	$GPGGA,050022,2427.3961,N,08102.9142,W,1,8,2.8,28,M,,M,,*56
06/14/2014	05:00:22.637	$GPGGA,050023,2427.3960,N,08102.9149,W,1,8,2.8,28,M,,M,,*5D
06/14/2014	05:00:23.649	$GPGGA,050024,2427.3958,N,08102.9155,W,1,8,1.6,28,M,,M,,*51
06/14/2014	05:00:24.642	$GPGGA,050025,2427.3956,N,08102.9159,W,1,8,2.8,28,M,,M,,*5F
06/14/2014	05:00:25.615	$GPGGA,050026,2427.3953,N,08102.9165,W,1,8,2.8,28,M,,M,,*56
06/14/2014	05:00:26.618	$GPGGA,050027,2427.3951,N,08102.9171,W,1,11,1.4,28,M,,M,,*67
06/14/2014	05:00:27.640	$GPGGA,050028,2427.3950,N,08102.9177,W,1,11,1.5,28,M,,M,,*6E
06/14/2014	05:00:28.613	$GPGGA,050029,2427.3949,N,08102.9184,W,1,9,1.6,28,M,,M,,*51
06/14/2014	05:00:29.626	$GPGGA,050030,2427.3945,N,08102.9191,W,1,9,1.6,28,M,,M,,*51
06/14/2014	05:00:30.638	$GPGGA,050031,2427.3941,N,08102.9198,W,1,10,1.4,28,M,,M,,*67
06/14/2014	05:00:31.641	$GPGGA,050032,2427.3939,N,08102.9205,W,1,10,1.4,27,M,,M,,*63
06/14/2014	05:00:32.623	$GPGGA,050033,2427.3938,N,08102.9209,W,1,9,1.7,27,M,,M,,*54
06/14/2014	05:00:33.636	$GPGGA,050034,2427.3933,N,08102.9216,W,1,9,2.8,27,M,,M,,*5A
06/14/2014	05:00:34.639	$GPGGA,050035,2427.3931,N,08102.9220,W,1,9,1.6,27,M,,M,,*51
06/14/2014	05:00:35.641	$GPGGA,050036,2427.3928,N,08102.9227,W,1,9,1.7,27,M,,M,,*5C
06/14/2014	05:00:36.664	$GPGGA,050037,2427.3924,N,08102.9232,W,1,9,1.6,27,M,,M,,*54
06/14/2014	05:00:37.637	$GPGGA,050038,2427.3921,N,08102.9239,W,1,9,1.6,27,M,,M,,*55
06/14/2014	05:00:38.650	$GPGGA,050039,2427.3918,N,08102.9246,W,1,9,1.7,27,M,,M,,*57
06/14/2014	05:00:39.653	$GPGGA,050040,2427.3916,N,08102.9250,W,1,9,1.4,27,M,,M,,*53
06/14/2014	05:00:40.735	$GPGGA,050041,2427.3914,N,08102.9256,W,1,8,1.7,27,M,,M,,*54
06/14/2014	05:00:41.638	$GPGGA,050042,2427.3910,N,08102.9261,W,1,8,1.7,27,M,,M,,*57
06/14/2014	05:00:42.640	$GPGGA,050043,2427.3909,N,08102.9268,W,1,11,1.4,27,M,,M,,*6C
06/14/2014	05:00:43.653	$GPGGA,050044,2427.3906,N,08102.9275,W,1,11,1.4,27,M,,M,,*68
06/14/2014	05:00:44.630	$GPGGA,050045,2427.3902,N,08102.9281,W,1,8,1.8,27,M,,M,,*52
06/14/2014	05:00:45.732	$GPGGA,050046,2427.3898,N,08102.9285,W,1,8,1.4,27,M,,M,,*5B
06/14/2014	05:00:46.751	$GPGGA,050047,2427.3898,N,08102.9292,W,1,9,1.5,28,M,,M,,*53
06/14/2014	05:00:47.639	$GPGGA,050048,2427.3895,N,08102.9296,W,1,9,1.5,28,M,,M,,*55
06/14/2014	05:00:48.471	$GPGGA,050049,2427.3889,N,08102.9301,W,1,8,1.7,28,M,,M,,*55
06/14/2014	05:00:49.564	$GPGGA,050050,2427.3887,N,08102.9308,W,1,8,1.7,28,M,,M,,*5A
06/14/2014	05:00:50.587	$GPGGA,050051,2427.3884,N,08102.9314,W,1,10,1.4,28,M,,M,,*6F
06/14/2014	05:00:51.489	$GPGGA,050052,2427.3880,N,08102.9321,W,1,10,1.6,28,M,,M,,*6C
06/14/2014	05:00:52.574	$GPGGA,050053,2427.3877,N,08102.9326,W,1,10,1.5,28,M,,M,,*61
06/14/2014	05:00:53.485	$GPGGA,050054,2427.3874,N,08102.9332,W,1,10,1.4,28,M,,M,,*61
06/14/2014	05:00:54.567	$GPGGA,050055,2427.3871,N,08102.9336,W,1,8,1.7,28,M,,M,,*5B
06/14/2014	05:00:55.590	$GPGGA,050056,2427.3868,N,08102.9343,W,1,8,1.7,28,M,,M,,*52
06/14/2014	05:00:56.574	$GPGGA,050057,2427.3866,N,08102.9351,W,1,9,1.6,28,M,,M,,*5E
06/14/2014	05:00:57.576	$GPGGA,050058,2427.3862,N,08102.9357,W,1,9,1.4,28,M,,M,,*51
06/14/2014	05:00:58.598	$GPGGA,050059,2427.3858,N,08102.9364,W,1,10,1.4,28,M,,M,,*61
06/14/2014	05:00:59.601	$GPGGA,050100,2427.3855,N,08102.9369,W,1,10,1.4,28,M,,M,,*6C
06/14/2014	05:01:00.594	$GPGGA,050101,2427.3852,N,08102.9375,W,1,8,2.8,28,M,,M,,*51
06/14/2014	05:01:01.566	$GPGGA,050102,2427.3848,N,08102.9382,W,1,8,1.5,28,M,,M,,*5F
06/14/2014	05:01:02.569	$GPGGA,050103,2427.3842,N,08102.9386,W,1,8,1.7,28,M,,M,,*52
06/14/2014	05:01:03.582	$GPGGA,050104,2427.3839,N,08102.9394,W,1,8,1.4,28,M,,M,,*59
06/14/2014	05:01:04.594	$GPGGA,050105,2427.3837,N,08102.9400,W,1,9,1.5,28,M,,M,,*5C
06/14/2014	05:01:05.586	$GPGGA,050106,2427.3833,N,08102.9405,W,1,9,2.8,29,M,,M,,*51
06/14/2014	05:01:06.589	$GPGGA,050107,2427.3831,N,08102.9412,W,1,9,1.7,29,M,,M,,*58
06/14/2014	05:01:07.602	$GPGGA,050108,2427.3828,N,08102.9422,W,1,9,1.8,29,M,,M,,*53
06/14/2014	05:01:08.605	$GPGGA,050109,2427.3826,N,08102.9426,W,1,9,1.8,29,M,,M,,*58
06/14/2014	05:01:09.587	$GPGGA,050110,2427.3826,N,08102.9429,W,1,9,1.5,29,M,,M,,*52
06/14/2014	05:01:10.610	$GPGGA,050111,2427.3823,N,08102.9434,W,1,9,1.6,29,M,,M,,*59
06/14/2014	05:01:11.602	$GPGGA,050112,2427.3819,N,08102.9438,W,1,9,2.9,29,M,,M,,*53
06/14/2014	05:01:12.595	$GPGGA,050113,2427.3817,N,08102.9445,W,1,9,1.5,29,M,,M,,*59
06/14/2014	05:01:13.578	$GPGGA,050114,2427.3815,N,08102.9454,W,1,9,2.9,30,M,,M,,*5B
06/14/2014	05:01:14.610	$GPGGA,050115,2427.3813,N,08102.9458,W,1,8,2.8,30,M,,M,,*50
06/14/2014	05:01:15.593	$GPGGA,050116,2427.3810,N,08102.9465,W,1,8,1.8,30,M,,M,,*5D
06/14/2014	05:01:16.616	$GPGGA,050117,2427.3809,N,08102.9472,W,1,8,2.8,30,M,,M,,*51
06/14/2014	05:01:17.578	$GPGGA,050118,2427.3808,N,08102.9477,W,1,8,2.8,30,M,,M,,*5A
06/14/2014	05:01:18.611	$GPGGA,050119,2427.3805,N,08102.9483,W,1,8,2.8,30,M,,M,,*5D
06/14/2014	05:01:19.604	$GPGGA,050120,2427.3803,N,08102.9488,W,1,8,2.9,30,M,,M,,*5B
06/14/2014	05:01:20.597	$GPGGA,050121,2427.3801,N,08102.9498,W,1,8,2.8,30,M,,M,,*58
06/14/2014	05:01:21.599	$GPGGA,050122,2427.3799,N,08102.9506,W,1,8,1.6,30,M,,M,,*5E
06/14/2014	05:01:22.582	$GPGGA,050123,2427.3795,N,08102.9514,W,1,8,1.7,30,M,,M,,*51
06/14/2014	05:01:23.714	$GPGGA,050124,2427.3792,N,08102.9520,W,1,8,1.7,30,M,,M,,*56
06/14/2014	05:01:24.616	$GPGGA,050125,2427.3790,N,08102.9527,W,1,10,1.4,30,M,,M,,*68
06/14/2014	05:01:25.589	$GPGGA,050126,2427.3788,N,08102.9534,W,1,10,1.7,31,M,,M,,*62
06/14/2014	05:01:26.602	$GPGGA,050127,2427.3786,N,08102.9538,W,1,8,2.8,31,M,,M,,*54
06/14/2014	05:01:27.594	$GPGGA,050128,2427.3783,N,08102.9542,W,1,8,2.9,31,M,,M,,*52
06/14/2014	05:01:28.582	$GPGGA,050129,2427.3783,N,08102.9549,W,1,7,2.9,31,M,,M,,*57
06/14/2014	05:01:29.600	$GPGGA,050130,2427.3781,N,08102.9559,W,1,7,2.8,31,M,,M,,*5D
06/14/2014	05:01:30.713	$GPGGA,050131,2427.3779,N,08102.9566,W,1,9,1.7,31,M,,M,,*55
06/14/2014	05:01:31.615	$GPGGA,050132,2427.3776,N,08102.9571,W,1,9,1.7,31,M,,M,,*5F
06/14/2014	05:01:32.591	$GPGGA,050133,2427.3773,N,08102.9577,W,1,8,2.8,31,M,,M,,*50
06/14/2014	05:01:33.601	$GPGGA,050134,2427.3772,N,08102.9582,W,1,8,2.8,31,M,,M,,*5C
06/14/2014	05:01:34.683	$GPGGA,050135,2427.3768,N,08102.9588,W,1,7,2.9,31,M,,M,,*52
06/14/2014	05:01:35.606	$GPGGA,050136,2427.3766,N,08102.9593,W,1,7,1.7,31,M,,M,,*58
06/14/2014	05:01:36.719	$GPGGA,050137,2427.3764,N,08102.9599,W,1,9,1.7,31,M,,M,,*5F
06/14/2014	05:01:37.601	$GPGGA,050138,2427.3762,N,08102.9606,W,1,9,1.8,31,M,,M,,*5C
06/14/2014	05:01:38.604	$GPGGA,050139,2427.3758,N,08102.9613,W,1,7,3.2,31,M,,M,,*56
06/14/2014	05:01:39.608	$GPGGA,050140,2427.3755,N,08102.9620,W,1,7,1.7,31,M,,M,,*52
06/14/2014	05:01:40.700	$GPGGA,050141,2427.3752,N,08102.9626,W,1,8,2.8,31,M,,M,,*51
06/14/2014	05:01:41.693	$GPGGA,050142,2427.3750,N,08102.9628,W,1,8,2.8,32,M,,M,,*5D
06/14/2014	05:01:42.744	$GPGGA,050143,2427.3745,N,08102.9635,W,1,9,1.7,32,M,,M,,*59
06/14/2014	05:01:43.717	$GPGGA,050144,2427.3743,N,08102.9639,W,1,9,1.8,32,M,,M,,*5B
06/14/2014	05:01:44.699	$GPGGA,050145,2427.3739,N,08102.9647,W,1,8,1.8,32,M,,M,,*5F
06/14/2014	05:01:45.602	$GPGGA,050146,2427.3736,N,08102.9653,W,1,8,1.9,32,M,,M,,*57
06/14/2014	05:01:46.737	$GPGGA,050147,2427.3733,N,08102.9658,W,1,7,3.2,32,M,,M,,*5E
06/14/2014	05:01:47.581	$GPGGA,050148,2427.3728,N,08102.9664,W,1,7,3.2,32,M,,M,,*54
06/14/2014	05:01:48.571	$GPGGA,050149,2427.3725,N,08102.9669,W,1,7,2.9,32,M,,M,,*5F
06/14/2014	05:01:49.543	$GPGGA,050150,2427.3721,N,08102.9676,W,1,7,3.2,32,M,,M,,*57
06/14/2014	05:01:50.536	$GPGGA,050151,2427.3716,N,08102.9682,W,1,8,1.8,32,M,,M,,*5E
06/14/2014	05:01:51.548	$GPGGA,050152,2427.3712,N,08102.9687,W,1,8,1.7,32,M,,M,,*53
06/14/2014	05:01:52.571	$GPGGA,050153,2427.3709,N,08102.9693,W,1,7,2.1,32,M,,M,,*57
06/14/2014	05:01:53.554	$GPGGA,050154,2427.3707,N,08102.9700,W,1,7,1.7,31,M,,M,,*53
06/14/2014	05:01:54.566	$GPGGA,050155,2427.3705,N,08102.9705,W,1,9,1.7,31,M,,M,,*5B
06/14/2014	05:01:55.559	$GPGGA,050156,2427.3701,N,08102.9711,W,1,9,2.8,31,M,,M,,*55
06/14/2014	05:01:56.562	$GPGGA,050157,2427.3697,N,08102.9718,W,1,8,2.8,31,M,,M,,*52
06/14/2014	05:01:57.544	$GPGGA,050158,2427.3696,N,08102.9725,W,1,8,1.8,31,M,,M,,*51
06/14/2014	05:01:58.566	$GPGGA,050159,2427.3693,N,08102.9730,W,1,8,1.8,31,M,,M,,*51
06/14/2014	05:02:00.060	$GPGGA,050200,2427.3691,N,08102.9734,W,1,8,3.2,31,M,,M,,*50
06/14/2014	05:02:00.562	$GPGGA,050201,2427.3689,N,08102.9743,W,1,8,1.8,30,M,,M,,*51
06/14/2014	05:02:01.554	$GPGGA,050202,2427.3685,N,08102.9751,W,1,8,1.8,30,M,,M,,*5D
06/14/2014	05:02:02.577	$GPGGA,050203,2427.3682,N,08102.9758,W,1,8,1.8,30,M,,M,,*52
06/14/2014	05:02:03.570	$GPGGA,050204,2427.3678,N,08102.9765,W,1,8,1.7,30,M,,M,,*51
06/14/2014	05:02:04.592	$GPGGA,050205,2427.3676,N,08102.9770,W,1,8,1.7,30,M,,M,,*5A
06/14/2014	05:02:05.545	$GPGGA,050206,2427.3672,N,08102.9777,W,1,8,2.8,30,M,,M,,*56
06/14/2014	05:02:06.588	$GPGGA,050207,2427.3669,N,08102.9783,W,1,8,1.8,30,M,,M,,*55
06/14/2014	05:02:07.570	$GPGGA,050208,2427.3667,N,08102.9790,W,1,8,1.7,30,M,,M,,*59
06/14/2014	05:02:08.543	$GPGGA,050209,2427.3664,N,08102.9794,W,1,7,2.9,30,M,,M,,*5D
06/14/2014	05:02:09.566	$GPGGA,050210,2427.3663,N,08102.9798,W,1,7,2.8,30,M,,M,,*5F
06/14/2014	05:02:10.569	$GPGGA,050211,2427.3661,N,08102.9805,W,1,8,1.8,30,M,,M,,*5B
06/14/2014	05:02:11.581	$GPGGA,050212,2427.3658,N,08102.9812,W,1,8,1.7,30,M,,M,,*5B
06/14/2014	05:02:12.594	$GPGGA,050213,2427.3656,N,08102.9819,W,1,9,1.7,30,M,,M,,*5E
06/14/2014	05:02:13.557	$GPGGA,050214,2427.3651,N,08102.9824,W,1,9,1.7,30,M,,M,,*50
06/14/2014	05:02:14.559	$GPGGA,050215,2427.3649,N,08102.9830,W,1,7,2.9,30,M,,M,,*5E
06/14/2014	05:02:15.571	$GPGGA,050216,2427.3645,N,08102.9837,W,1,7,2.9,30,M,,M,,*56
06/14/2014	05:02:16.574	$GPGGA,050217,2427.3643,N,08102.9844,W,1,7,2.9,30,M,,M,,*55
06/14/2014	05:02:17.556	$GPGGA,050218,2427.3640,N,08102.9848,W,1,7,2.8,30,M,,M,,*54
06/14/2014	05:02:18.659	$GPGGA,050219,2427.3638,N,08102.9855,W,1,8,1.7,30,M,,M,,*55
06/14/2014	05:02:19.572	$GPGGA,050220,2427.3633,N,08102.9866,W,1,8,1.7,30,M,,M,,*54
06/14/2014	05:02:20.584	$GPGGA,050221,2427.3631,N,08102.9873,W,1,9,1.6,30,M,,M,,*53
06/14/2014	05:02:21.558	$GPGGA,050222,2427.3629,N,08102.9881,W,1,9,2.8,31,M,,M,,*58
06/14/2014	05:02:22.580	$GPGGA,050223,2427.3625,N,08102.9886,W,1,8,2.8,31,M,,M,,*53
06/14/2014	05:02:23.703	$GPGGA,050224,2427.3622,N,08102.9892,W,1,8,2.8,31,M,,M,,*56
06/14/2014	05:02:24.565	$GPGGA,050225,2427.3621,N,08102.9897,W,1,8,2.8,31,M,,M,,*51
06/14/2014	05:02:25.662	$GPGGA,050226,2427.3620,N,08102.9904,W,1,8,2.8,31,M,,M,,*58
06/14/2014	05:02:26.691	$GPGGA,050227,2427.3618,N,08102.9911,W,1,8,1.7,31,M,,M,,*5A
06/14/2014	05:02:27.583	$GPGGA,050228,2427.3616,N,08102.9920,W,1,8,1.7,31,M,,M,,*59
06/14/2014	05:02:28.576	$GPGGA,050229,2427.3614,N,08102.9926,W,1,9,1.7,31,M,,M,,*5D
06/14/2014	05:02:29.659	$GPGGA,050230,2427.3610,N,08102.9932,W,1,9,1.7,31,M,,M,,*54
06/14/2014	05:02:30.682	$GPGGA,050231,2427.3607,N,08102.9939,W,1,9,2.8,31,M,,M,,*54
06/14/2014	05:02:31.704	$GPGGA,050232,2427.3604,N,08102.9944,W,1,9,2.8,32,M,,M,,*5D
06/14/2014	05:02:32.689	$GPGGA,050233,2427.3602,N,08102.9953,W,1,8,1.7,32,M,,M,,*51
06/14/2014	05:02:33.669	$GPGGA,050234,2427.3598,N,08102.9958,W,1,8,1.7,32,M,,M,,*5D
06/14/2014	05:02:34.693	$GPGGA,050235,2427.3595,N,08102.9962,W,1,8,1.7,32,M,,M,,*58
06/14/2014	05:02:35.690	$GPGGA,050236,2427.3589,N,08102.9967,W,1,8,1.7,32,M,,M,,*53
06/14/2014	05:02:36.691	$GPGGA,050237,2427.3587,N,08102.9973,W,1,9,1.7,32,M,,M,,*58
06/14/2014	05:02:37.670	$GPGGA,050238,2427.3584,N,08102.9980,W,1,9,1.7,32,M,,M,,*58
06/14/2014	05:02:38.695	$GPGGA,050239,2427.3581,N,08102.9989,W,1,8,2.8,32,M,,M,,*58
06/14/2014	05:02:39.696	$GPGGA,050240,2427.3577,N,08102.9996,W,1,8,1.8,32,M,,M,,*52
06/14/2014	05:02:40.698	$GPGGA,050241,2427.3571,N,08103.0004,W,1,8,1.7,32,M,,M,,*50
06/14/2014	05:02:41.670	$GPGGA,050242,2427.3567,N,08103.0011,W,1,8,1.9,32,M,,M,,*5E
06/14/2014	05:02:42.693	$GPGGA,050243,2427.3564,N,08103.0015,W,1,7,3.7,31,M,,M,,*58
06/14/2014	05:02:43.696	$GPGGA,050244,2427.3561,N,08103.0020,W,1,7,3.7,31,M,,M,,*5C
06/14/2014	05:02:44.678	$GPGGA,050245,2427.3557,N,08103.0026,W,1,6,3.1,31,M,,M,,*59
06/14/2014	05:02:45.681	$GPGGA,050246,2427.3555,N,08103.0034,W,1,6,1.8,31,M,,M,,*50
06/14/2014	05:02:46.694	$GPGGA,050247,2427.3552,N,08103.0041,W,1,8,3.1,31,M,,M,,*51
06/14/2014	05:02:47.676	$GPGGA,050248,2427.3548,N,08103.0047,W,1,8,3.1,31,M,,M,,*53
06/14/2014	05:02:48.520	$GPGGA,050249,2427.3544,N,08103.0054,W,1,7,1.7,31,M,,M,,*57
06/14/2014	05:02:49.522	$GPGGA,050250,2427.3542,N,08103.0056,W,1,7,1.6,31,M,,M,,*5A
06/14/2014	05:02:50.514	$GPGGA,050251,2427.3539,N,08103.0063,W,1,10,1.8,31,M,,M,,*69
06/14/2014	05:02:51.536	$GPGGA,050252,2427.3537,N,08103.0069,W,1,10,1.9,31,M,,M,,*6F
06/14/2014	05:02:52.561	$GPGGA,050253,2427.3532,N,08103.0076,W,1,8,1.7,31,M,,M,,*52
06/14/2014	05:02:53.512	$GPGGA,050254,2427.3530,N,08103.0083,W,1,8,1.7,31,M,,M,,*5D
06/14/2014	05:02:54.544	$GPGGA,050255,2427.3523,N,08103.0091,W,1,9,2.2,31,M,,M,,*5A
06/14/2014	05:02:55.537	$GPGGA,050256,2427.3521,N,08103.0098,W,1,9,1.7,31,M,,M,,*54
06/14/2014	05:02:56.530	$GPGGA,050257,2427.3519,N,08103.0103,W,1,9,1.7,31,M,,M,,*5D
06/14/2014	05:02:57.532	$GPGGA,050258,2427.3519,N,08103.0103,W,1,9,1.7,31,M,,M,,*52
06/14/2014	05:02:58.539	$GPGGA,050259,2427.3512,N,08103.0115,W,1,8,1.8,31,M,,M,,*51
06/14/2014	05:02:59.688	$GPGGA,050300,2427.3510,N,08103.0119,W,1,8,3.1,30,M,,M,,*58
06/14/2014	05:03:00.848	$GPGGA,050301,2427.3508,N,08103.0126,W,1,7,3.1,30,M,,M,,*53
06/14/2014	05:03:01.821	$GPGGA,050302,2427.3504,N,08103.0134,W,1,7,1.6,30,M,,M,,*5A
06/14/2014	05:03:02.937	$GPGGA,050303,2427.3501,N,08103.0141,W,1,9,1.6,30,M,,M,,*52
06/14/2014	05:03:04.021	$GPGGA,050304,2427.3499,N,08103.0146,W,1,9,1.7,30,M,,M,,*53
06/14/2014	05:03:05.126	$GPGGA,050305,2427.3494,N,08103.0152,W,1,8,1.9,30,M,,M,,*55
06/14/2014	05:03:06.198	$GPGGA,050306,2427.3493,N,08103.0155,W,1,8,1.7,30,M,,M,,*58
06/14/2014	05:03:07.314	$GPGGA,050307,2427.3492,N,08103.0159,W,1,8,2.9,30,M,,M,,*59
06/14/2014	05:03:08.408	$GPGGA,050308,2427.3490,N,08103.0164,W,1,8,2.9,30,M,,M,,*5A
06/14/2014	05:03:09.480	$GPGGA,050309,2427.3485,N,08103.0171,W,1,7,1.7,30,M,,M,,*59
06/14/2014	05:03:10.672	$GPGGA,050310,2427.3483,N,08103.0182,W,1,7,1.7,30,M,,M,,*5B
06/14/2014	05:03:11.657	$GPGGA,050311,2427.3480,N,08103.0191,W,1,8,1.7,31,M,,M,,*55
06/14/2014	05:03:12.883	$GPGGA,050312,2427.3477,N,08103.0199,W,1,8,1.7,31,M,,M,,*56
06/14/2014	05:03:13.955	$GPGGA,050313,2427.3474,N,08103.0203,W,1,9,1.6,31,M,,M,,*54
06/14/2014	05:03:14.940	$GPGGA,050314,2427.3473,N,08103.0209,W,1,9,1.8,31,M,,M,,*50
06/14/2014	05:03:16.035	$GPGGA,050315,2427.3474,N,08103.0214,W,1,9,1.8,31,M,,M,,*5A
06/14/2014	05:03:17.217	$GPGGA,050316,2427.3469,N,08103.0218,W,1,9,1.8,31,M,,M,,*59
06/14/2014	05:03:18.233	$GPGGA,050317,2427.3467,N,08103.0222,W,1,7,2.9,31,M,,M,,*53
06/14/2014	05:03:19.393	$GPGGA,050318,2427.3465,N,08103.0231,W,1,7,2.9,31,M,,M,,*5C
06/14/2014	05:03:20.400	$GPGGA,050319,2427.3462,N,08103.0238,W,1,8,1.7,31,M,,M,,*51
06/14/2014	05:03:21.614	$GPGGA,050320,2427.3459,N,08103.0242,W,1,8,1.7,31,M,,M,,*5E
06/14/2014	05:03:22.709	$GPGGA,050321,2427.3457,N,08103.0249,W,1,8,1.7,31,M,,M,,*5A
06/14/2014	05:03:23.759	$GPGGA,050322,2427.3455,N,08103.0254,W,1,8,1.7,31,M,,M,,*57
06/14/2014	05:03:24.853	$GPGGA,050323,2427.3454,N,08103.0258,W,1,8,2.8,31,M,,M,,*57
06/14/2014	05:03:25.971	$GPGGA,050324,2427.3451,N,08103.0262,W,1,8,2.8,31,M,,M,,*5C
06/14/2014	05:03:27.082	$GPGGA,050325,2427.3450,N,08103.0271,W,1,8,2.7,31,M,,M,,*51
06/14/2014	05:03:28.124	$GPGGA,050326,2427.3448,N,08103.0275,W,1,8,2.8,31,M,,M,,*50
06/14/2014	05:03:29.243	$GPGGA,050327,2427.3445,N,08103.0279,W,1,7,2.8,31,M,,M,,*5F
06/14/2014	05:03:30.334	$GPGGA,050328,2427.3443,N,08103.0285,W,1,7,2.8,31,M,,M,,*55
06/14/2014	05:03:31.428	$GPGGA,050329,2427.3438,N,08103.0292,W,1,7,1.7,31,M,,M,,*52
06/14/2014	05:03:32.522	$GPGGA,050330,2427.3436,N,08103.0300,W,1,7,1.7,31,M,,M,,*5E
06/14/2014	05:03:33.617	$GPGGA,050331,2427.3434,N,08103.0305,W,1,8,1.7,31,M,,M,,*57
06/14/2014	05:03:34.700	$GPGGA,050332,2427.3432,N,08103.0308,W,1,8,1.7,31,M,,M,,*5F
06/14/2014	05:03:35.805	$GPGGA,050333,2427.3428,N,08103.0312,W,1,7,2.8,31,M,,M,,*5D
06/14/2014	05:03:36.877	$GPGGA,050334,2427.3427,N,08103.0318,W,1,7,2.8,31,M,,M,,*5F
06/14/2014	05:03:37.993	$GPGGA,050335,2427.3425,N,08103.0322,W,1,7,2.8,31,M,,M,,*55
06/14/2014	05:03:39.066	$GPGGA,050336,2427.3421,N,08103.0329,W,1,7,2.8,31,M,,M,,*59
06/14/2014	05:03:40.138	$GPGGA,050337,2427.3419,N,08103.0336,W,1,8,1.8,30,M,,M,,*50
06/14/2014	05:03:41.232	$GPGGA,050338,2427.3418,N,08103.0341,W,1,8,1.7,30,M,,M,,*51
06/14/2014	05:03:42.326	$GPGGA,050339,2427.3416,N,08103.0347,W,1,8,1.7,30,M,,M,,*58
06/14/2014	05:03:43.443	$GPGGA,050340,2427.3414,N,08103.0351,W,1,8,1.7,30,M,,M,,*53
06/14/2014	05:03:44.548	$GPGGA,050341,2427.3412,N,08103.0355,W,1,8,2.7,30,M,,M,,*53
06/14/2014	05:03:45.609	$GPGGA,050342,2427.3409,N,08103.0362,W,1,8,3.1,30,M,,M,,*59
06/14/2014	05:03:46.725	$GPGGA,050343,2427.3407,N,08103.0366,W,1,8,1.8,30,M,,M,,*59
06/14/2014	05:03:47.807	$GPGGA,050344,2427.3405,N,08103.0373,W,1,8,1.7,30,M,,M,,*57
06/14/2014	05:03:48.891	$GPGGA,050345,2427.3403,N,08103.0379,W,1,8,2.7,30,M,,M,,*59
06/14/2014	05:03:49.974	$GPGGA,050346,2427.3398,N,08103.0387,W,1,8,3.1,29,M,,M,,*51
06/14/2014	05:03:51.079	$GPGGA,050347,2427.3396,N,08103.0394,W,1,7,2.1,29,M,,M,,*52
06/14/2014	05:03:52.173	$GPGGA,050348,2427.3392,N,08103.0399,W,1,7,1.8,29,M,,M,,*5E
06/14/2014	05:03:48.574	$GPGGA,050349,2427.3390,N,08103.0405,W,1,8,1.9,29,M,,M,,*51
06/14/2014	05:03:49.679	$GPGGA,050350,2427.3386,N,08103.0408,W,1,8,2.7,29,M,,M,,*5E
06/14/2014	05:03:50.893	$GPGGA,050351,2427.3385,N,08103.0413,W,1,6,3.6,29,M,,M,,*58
06/14/2014	05:03:51.966	$GPGGA,050352,2427.3382,N,08103.0420,W,1,6,2.7,29,M,,M,,*5C
06/14/2014	05:03:52.950	$GPGGA,050353,2427.3379,N,08103.0426,W,1,7,3.1,29,M,,M,,*59
06/14/2014	05:03:54.038	$GPGGA,050354,2427.3376,N,08103.0433,W,1,7,3.1,29,M,,M,,*55
06/14/2014	05:03:55.140	$GPGGA,050355,2427.3374,N,08103.0437,W,1,7,3.1,29,M,,M,,*52
06/14/2014	05:03:56.244	$GPGGA,050356,2427.3371,N,08103.0441,W,1,7,1.9,29,M,,M,,*5F
06/14/2014	05:03:57.316	$GPGGA,050357,2427.3368,N,08103.0445,W,1,8,1.9,29,M,,M,,*5D
06/14/2014	05:03:58.509	$GPGGA,050358,2427.3365,N,08103.0452,W,1,8,1.9,29,M,,M,,*59
06/14/2014	05:03:59.494	$GPGGA,050359,2427.3361,N,08103.0456,W,1,7,3.0,29,M,,M,,*5C
06/14/2014	05:04:00.708	$GPGGA,050400,2427.3358,N,08103.0462,W,1,7,3.0,29,M,,M,,*5A
06/14/2014	05:04:01.801	$GPGGA,050401,2427.3354,N,08103.0469,W,1,8,1.9,29,M,,M,,*58
06/14/2014	05:04:02.764	$GPGGA,050402,2427.3350,N,08103.0474,W,1,8,1.9,28,M,,M,,*52
06/14/2014	05:04:03.979	$GPGGA,050403,2427.3349,N,08103.0481,W,1,7,2.3,28,M,,M,,*57
06/14/2014	05:04:04.986	$GPGGA,050404,2427.3346,N,08103.0486,W,1,7,1.9,28,M,,M,,*51
06/14/2014	05:04:06.189	$GPGGA,050405,2427.3343,N,08103.0491,W,1,8,1.9,28,M,,M,,*5C
06/14/2014	05:04:07.154	$GPGGA,050406,2427.3342,N,08103.0498,W,1,8,1.9,28,M,,M,,*57
06/14/2014	05:04:08.251	$GPGGA,050407,2427.3342,N,08103.0502,W,1,8,1.9,28,M,,M,,*54
06/14/2014	05:04:09.439	$GPGGA,050408,2427.3339,N,08103.0506,W,1,8,3.0,28,M,,M,,*58
06/14/2014	05:04:10.531	$GPGGA,050409,2427.3336,N,08103.0509,W,1,8,2.7,28,M,,M,,*5F
06/14/2014	05:04:11.605	$GPGGA,050410,2427.3335,N,08103.0513,W,1,8,1.9,28,M,,M,,*52
06/14/2014	05:04:12.711	$GPGGA,050411,2427.3332,N,08103.0518,W,1,7,3.0,28,M,,M,,*5B
06/14/2014	05:04:13.807	$GPGGA,050412,2427.3331,N,08103.0524,W,1,7,3.6,27,M,,M,,*5D
06/14/2014	05:04:14.921	$GPGGA,050413,2427.3328,N,08103.0528,W,1,7,3.0,27,M,,M,,*5E
06/14/2014	05:04:15.982	$GPGGA,050414,2427.3326,N,08103.0535,W,1,7,3.0,27,M,,M,,*5B
06/14/2014	05:04:17.076	$GPGGA,050415,2427.3322,N,08103.0540,W,1,8,2.7,27,M,,M,,*55
06/14/2014	05:04:18.186	$GPGGA,050416,2427.3320,N,08103.0546,W,1,8,2.8,27,M,,M,,*5D
06/14/2014	05:04:19.279	$GPGGA,050417,2427.3318,N,08103.0551,W,1,8,2.7,26,M,,M,,*5F
06/14/2014	05:04:20.348	$GPGGA,050418,2427.3314,N,08103.0556,W,1,8,3.0,26,M,,M,,*5D
06/14/2014	05:04:21.441	$GPGGA,050419,2427.3310,N,08103.0564,W,1,8,2.7,26,M,,M,,*5F
06/14/2014	05:04:22.535	$GPGGA,050420,2427.3307,N,08103.0569,W,1,8,1.9,26,M,,M,,*53
06/14/2014	05:04:23.651	$GPGGA,050421,2427.3306,N,08103.0578,W,1,7,3.0,26,M,,M,,*57
06/14/2014	05:04:24.713	$GPGGA,050422,2427.3300,N,08103.0582,W,1,7,1.8,26,M,,M,,*5D
06/14/2014	05:04:25.796	$GPGGA,050423,2427.3296,N,08103.0585,W,1,6,3.6,26,M,,M,,*58
06/14/2014	05:04:26.912	$GPGGA,050424,2427.3295,N,08103.0589,W,1,6,3.0,26,M,,M,,*56
06/14/2014	05:04:28.029	$GPGGA,050425,2427.3292,N,08103.0593,W,1,8,2.7,26,M,,M,,*53
06/14/2014	05:04:29.079	$GPGGA,050426,2427.3290,N,08103.0600,W,1,8,3.0,25,M,,M,,*5E
06/14/2014	05:04:30.225	$GPGGA,050427,2427.3288,N,08103.0603,W,1,7,3.0,25,M,,M,,*5A
06/14/2014	05:04:31.289	$GPGGA,050428,2427.3284,N,08103.0610,W,1,7,1.8,25,M,,M,,*51
06/14/2014	05:04:32.361	$GPGGA,050429,2427.3280,N,08103.0614,W,1,7,2.0,25,M,,M,,*5B
06/14/2014	05:04:33.466	$GPGGA,050430,2427.3278,N,08103.0621,W,1,7,3.6,25,M,,M,,*55
06/14/2014	05:04:34.572	$GPGGA,050431,2427.3275,N,08103.0625,W,1,7,2.8,25,M,,M,,*52
06/14/2014	05:04:35.666	$GPGGA,050432,2427.3273,N,08103.0630,W,1,7,3.6,24,M,,M,,*5D
06/14/2014	05:04:36.760	$GPGGA,050433,2427.3270,N,08103.0634,W,1,8,1.9,24,M,,M,,*59
06/14/2014	05:04:37.876	$GPGGA,050434,2427.3268,N,08103.0639,W,1,8,1.8,24,M,,M,,*5B
06/14/2014	05:04:38.948	$GPGGA,050435,2427.3266,N,08103.0643,W,1,8,1.9,24,M,,M,,*58
06/14/2014	05:04:40.031	$GPGGA,050436,2427.3266,N,08103.0651,W,1,8,3.0,24,M,,M,,*53
06/14/2014	05:04:41.103	$GPGGA,050437,2427.3262,N,08103.0658,W,1,7,3.0,24,M,,M,,*50
06/14/2014	05:04:42.176	$GPGGA,050438,2427.3257,N,08103.0661,W,1,7,2.8,24,M,,M,,*5A
06/14/2014	05:04:43.413	$GPGGA,050439,2427.3255,N,08103.0665,W,1,6,3.5,24,M,,M,,*50
06/14/2014	05:04:44.385	$GPGGA,050440,2427.3251,N,08103.0673,W,1,6,3.0,24,M,,M,,*58
06/14/2014	05:04:45.458	$GPGGA,050441,2427.3249,N,08103.0677,W,1,8,1.9,23,M,,M,,*56
06/14/2014	05:04:46.563	$GPGGA,050442,2427.3246,N,08103.0681,W,1,8,3.0,23,M,,M,,*58
06/14/2014	05:04:47.668	$GPGGA,050443,2427.3242,N,08103.0686,W,1,7,3.0,23,M,,M,,*55
06/14/2014	05:04:48.762	$GPGGA,050444,2427.3241,N,08103.0691,W,1,7,3.5,23,M,,M,,*52
06/14/2014	05:04:49.846	$GPGGA,050445,2427.3241,N,08103.0698,W,1,8,2.7,23,M,,M,,*56
06/14/2014	05:04:50.918	$GPGGA,050446,2427.3235,N,08103.0704,W,1,8,2.8,23,M,,M,,*5D
06/14/2014	05:04:52.034	$GPGGA,050447,2427.3231,N,08103.0708,W,1,7,2.8,23,M,,M,,*5B
06/14/2014	05:04:47.581	$GPGGA,050448,2427.3230,N,08103.0712,W,1,7,2.8,23,M,,M,,*5E
06/14/2014	05:04:48.550	$GPGGA,050449,2427.3228,N,08103.0716,W,1,7,2.8,23,M,,M,,*52
06/14/2014	05:04:49.645	$GPGGA,050450,2427.3224,N,08103.0720,W,1,7,3.5,23,M,,M,,*5F
06/14/2014	05:04:50.717	$GPGGA,050451,2427.3221,N,08103.0726,W,1,7,2.8,22,M,,M,,*50
06/14/2014	05:04:51.953	$GPGGA,050452,2427.3220,N,08103.0731,W,1,7,2.8,22,M,,M,,*54
06/14/2014	05:04:53.045	$GPGGA,050453,2427.3217,N,08103.0737,W,1,7,2.8,22,M,,M,,*57
06/14/2014	05:04:54.174	$GPGGA,050454,2427.3213,N,08103.0742,W,1,7,2.8,22,M,,M,,*56
06/14/2014	05:04:55.202	$GPGGA,050455,2427.3212,N,08103.0748,W,1,7,2.8,22,M,,M,,*5C
06/14/2014	05:04:56.323	$GPGGA,050456,2427.3209,N,08103.0753,W,1,7,2.7,22,M,,M,,*50
06/14/2014	05:04:57.412	$GPGGA,050457,2427.3208,N,08103.0759,W,1,8,2.7,22,M,,M,,*55
06/14/2014	05:04:58.474	$GPGGA,050458,2427.3204,N,08103.0762,W,1,8,2.7,23,M,,M,,*5F
06/14/2014	05:04:59.568	$GPGGA,050459,2427.3203,N,08103.0766,W,1,7,2.8,23,M,,M,,*5D
06/14/2014	05:05:00.684	$GPGGA,050500,2427.3202,N,08103.0773,W,1,7,3.5,23,M,,M,,*59
06/14/2014	05:05:01.779	$GPGGA,050501,2427.3199,N,08103.0778,W,1,8,2.7,23,M,,M,,*5E
06/14/2014	05:05:02.851	$GPGGA,050502,2427.3196,N,08103.0784,W,1,8,2.7,23,M,,M,,*51
06/14/2014	05:05:03.967	$GPGGA,050503,2427.3192,N,08103.0791,W,1,7,2.8,22,M,,M,,*51
06/14/2014	05:05:05.052	$GPGGA,050504,2427.3191,N,08103.0795,W,1,7,2.8,22,M,,M,,*51
06/14/2014	05:05:06.133	$GPGGA,050505,2427.3190,N,08103.0799,W,1,8,2.7,22,M,,M,,*5D
06/14/2014	05:05:07.227	$GPGGA,050506,2427.3187,N,08103.0805,W,1,8,2.7,22,M,,M,,*52
06/14/2014	05:05:08.334	$GPGGA,050507,2427.3185,N,08103.0809,W,1,8,2.7,22,M,,M,,*5D
06/14/2014	05:05:09.416	$GPGGA,050508,2427.3183,N,08103.0813,W,1,8,2.7,22,M,,M,,*5F
06/14/2014	05:05:10.521	$GPGGA,050509,2427.3180,N,08103.0821,W,1,7,2.8,22,M,,M,,*5C
06/14/2014	05:05:11.582	$GPGGA,050510,2427.3176,N,08103.0827,W,1,7,3.0,22,M,,M,,*52
06/14/2014	05:05:12.708	$GPGGA,050511,2427.3173,N,08103.0834,W,1,6,3.5,22,M,,M,,*50
06/14/2014	05:05:13.770	$GPGGA,050512,2427.3172,N,08103.0839,W,1,6,1.8,22,M,,M,,*50
06/14/2014	05:05:14.853	$GPGGA,050513,2427.3168,N,08103.0843,W,1,9,1.8,21,M,,M,,*5B
06/14/2014	05:05:15.947	$GPGGA,050514,2427.3167,N,08103.0847,W,1,9,2.7,22,M,,M,,*58
06/14/2014	05:05:17.074	$GPGGA,050515,2427.3165,N,08103.0852,W,1,7,2.8,22,M,,M,,*5E
06/14/2014	05:05:18.146	$GPGGA,050516,2427.3163,N,08103.0857,W,1,7,3.0,22,M,,M,,*57
06/14/2014	05:05:19.273	$GPGGA,050517,2427.3161,N,08103.0865,W,1,7,3.0,22,M,,M,,*55
06/14/2014	05:05:20.324	$GPGGA,050518,2427.3156,N,08103.0870,W,1,7,2.0,22,M,,M,,*5B
06/14/2014	05:05:21.452	$GPGGA,050519,2427.3154,N,08103.0874,W,1,6,3.5,22,M,,M,,*59
06/14/2014	05:05:22.512	$GPGGA,050520,2427.3151,N,08103.0878,W,1,6,3.5,22,M,,M,,*5A
06/14/2014	05:05:23.617	$GPGGA,050521,2427.3147,N,08103.0882,W,1,7,2.8,22,M,,M,,*54
06/14/2014	05:05:24.679	$GPGGA,050522,2427.3144,N,08103.0886,W,1,7,2.0,22,M,,M,,*58
06/14/2014	05:05:25.773	$GPGGA,050523,2427.3143,N,08103.0892,W,1,6,3.5,22,M,,M,,*5E
06/14/2014	05:05:26.889	$GPGGA,050524,2427.3140,N,08103.0897,W,1,6,1.9,22,M,,M,,*51
06/14/2014	05:05:27.972	$GPGGA,050525,2427.3137,N,08103.0903,W,1,7,2.0,22,M,,M,,*57
06/14/2014	05:05:29.060	$GPGGA,050526,2427.3134,N,08103.0907,W,1,7,3.5,22,M,,M,,*57
06/14/2014	05:05:30.161	$GPGGA,050527,2427.3131,N,08103.0911,W,1,7,2.8,22,M,,M,,*58
06/14/2014	05:05:31.266	$GPGGA,050528,2427.3129,N,08103.0917,W,1,7,2.7,22,M,,M,,*57
06/14/2014	05:05:32.359	$GPGGA,050529,2427.3126,N,08103.0923,W,1,7,2.8,22,M,,M,,*51
06/14/2014	05:05:33.428	$GPGGA,050530,2427.3123,N,08103.0929,W,1,7,2.0,22,M,,M,,*5E
06/14/2014	05:05:34.515	$GPGGA,050531,2427.3120,N,08103.0934,W,1,8,1.9,22,M,,M,,*55
06/14/2014	05:05:35.631	$GPGGA,050532,2427.3119,N,08103.0939,W,1,8,1.9,22,M,,M,,*51
06/14/2014	05:05:36.703	$GPGGA,050533,2427.3118,N,08103.0944,W,1,7,3.0,22,M,,M,,*5F
06/14/2014	05:05:37.939	$GPGGA,050534,2427.3113,N,08103.0948,W,1,7,3.0,23,M,,M,,*5E
06/14/2014	05:05:39.077	$GPGGA,050535,2427.3109,N,08103.0952,W,1,7,3.5,23,M,,M,,*5A
06/14/2014	05:05:39.986	$GPGGA,050536,2427.3107,N,08103.0957,W,1,7,3.5,23,M,,M,,*52
06/14/2014	05:05:41.288	$GPGGA,050537,2427.3103,N,08103.0961,W,1,6,2.8,23,M,,M,,*5F
06/14/2014	05:05:42.179	$GPGGA,050538,2427.3100,N,08103.0966,W,1,6,2.8,23,M,,M,,*54
06/14/2014	05:05:43.258	$GPGGA,050539,2427.3098,N,08103.0972,W,1,7,2.8,23,M,,M,,*51
06/14/2014	05:05:44.505	$GPGGA,050540,2427.3096,N,08103.0976,W,1,7,2.8,23,M,,M,,*55
06/14/2014	05:05:45.643	$GPGGA,050541,2427.3092,N,08103.0982,W,1,7,3.5,23,M,,M,,*57
06/14/2014	05:05:46.532	$GPGGA,050542,2427.3089,N,08103.0986,W,1,7,3.5,23,M,,M,,*5A
06/14/2014	05:05:47.798	$GPGGA,050543,2427.3086,N,08103.0991,W,1,8,2.6,23,M,,M,,*5F
06/14/2014	05:05:48.849	$GPGGA,050544,2427.3084,N,08103.0997,W,1,8,2.9,23,M,,M,,*53
06/14/2014	05:05:50.008	$GPGGA,050545,2427.3082,N,08103.1001,W,1,8,2.6,24,M,,M,,*5B
06/14/2014	05:05:51.028	$GPGGA,050546,2427.3079,N,08103.1006,W,1,8,2.6,24,M,,M,,*5B
06/14/2014	05:05:52.207	$GPGGA,050547,2427.3080,N,08103.1013,W,1,7,2.6,24,M,,M,,*57
06/14/2014	05:05:47.604	$GPGGA,050548,2427.3076,N,08103.1019,W,1,7,3.5,24,M,,M,,*59
06/14/2014	05:05:48.679	$GPGGA,050549,2427.3072,N,08103.1026,W,1,6,2.8,24,M,,M,,*5D
06/14/2014	05:05:49.752	$GPGGA,050550,2427.3071,N,08103.1030,W,1,6,2.8,24,M,,M,,*51
06/14/2014	05:05:50.922	$GPGGA,050551,2427.3069,N,08103.1037,W,1,7,2.8,24,M,,M,,*5F
06/14/2014	05:05:51.940	$GPGGA,050552,2427.3067,N,08103.1041,W,1,7,2.6,24,M,,M,,*5D
06/14/2014	05:05:52.991	$GPGGA,050553,2427.3064,N,08103.1045,W,1,8,2.6,24,M,,M,,*54
06/14/2014	05:05:54.107	$GPGGA,050554,2427.3061,N,08103.1051,W,1,8,2.8,24,M,,M,,*5D
06/14/2014	05:05:55.277	$GPGGA,050555,2427.3060,N,08103.1058,W,1,6,2.6,24,M,,M,,*54
06/14/2014	05:05:56.328	$GPGGA,050556,2427.3057,N,08103.1062,W,1,6,2.6,24,M,,M,,*5A
06/14/2014	05:05:57.456	$GPGGA,050557,2427.3054,N,08103.1069,W,1,6,2.9,24,M,,M,,*5C
06/14/2014	05:05:58.472	$GPGGA,050558,2427.3053,N,08103.1073,W,1,6,3.4,24,M,,M,,*53
06/14/2014	05:05:59.666	$GPGGA,050559,2427.3051,N,08103.1077,W,1,6,3.4,24,M,,M,,*54
06/14/2014	05:06:00.696	$GPGGA,050600,2427.3047,N,08103.1081,W,1,6,3.4,24,M,,M,,*55
06/14/2014	05:06:01.843	$GPGGA,050601,2427.3046,N,08103.1087,W,1,6,2.9,24,M,,M,,*5F
06/14/2014	05:06:02.816	$GPGGA,050602,2427.3042,N,08103.1091,W,1,6,2.9,24,M,,M,,*5F
06/14/2014	05:06:04.020	$GPGGA,050603,2427.3039,N,08103.1096,W,1,6,2.0,24,M,,M,,*5C
06/14/2014	05:06:05.067	$GPGGA,050604,2427.3036,N,08103.1102,W,1,6,1.9,24,M,,M,,*52
06/14/2014	05:06:06.207	$GPGGA,050605,2427.3033,N,08103.1106,W,1,8,1.9,23,M,,M,,*5B
06/14/2014	05:06:07.181	$GPGGA,050606,2427.3032,N,08103.1111,W,1,8,1.9,23,M,,M,,*5F
06/14/2014	05:06:08.385	$GPGGA,050607,2427.3029,N,08103.1116,W,1,7,1.9,23,M,,M,,*5C
06/14/2014	05:06:09.424	$GPGGA,050608,2427.3028,N,08103.1121,W,1,7,1.7,23,M,,M,,*58
06/14/2014	05:06:10.562	$GPGGA,050609,2427.3026,N,08103.1127,W,1,9,1.8,23,M,,M,,*50
06/14/2014	05:06:11.547	$GPGGA,050610,2427.3024,N,08103.1134,W,1,9,1.8,23,M,,M,,*58
06/14/2014	05:06:12.727	$GPGGA,050611,2427.3021,N,08103.1139,W,1,9,1.9,23,M,,M,,*50
06/14/2014	05:06:13.790	$GPGGA,050612,2427.3019,N,08103.1145,W,1,9,1.9,23,M,,M,,*53
06/14/2014	05:06:14.900	$GPGGA,050613,2427.3017,N,08103.1150,W,1,8,2.0,23,M,,M,,*53
06/14/2014	05:06:16.066	$GPGGA,050614,2427.3015,N,08103.1154,W,1,8,1.9,22,M,,M,,*59
06/14/2014	05:06:17.100	$GPGGA,050615,2427.3013,N,08103.1160,W,1,8,1.9,22,M,,M,,*59
06/14/2014	05:06:18.156	$GPGGA,050616,2427.3010,N,08103.1167,W,1,8,1.9,22,M,,M,,*5E
06/14/2014	05:06:19.204	$GPGGA,050617,2427.3006,N,08103.1171,W,1,7,2.0,22,M,,M,,*5A
06/14/2014	05:06:20.290	$GPGGA,050618,2427.3004,N,08103.1175,W,1,7,2.4,22,M,,M,,*57
06/14/2014	05:06:21.559	$GPGGA,050619,2427.3002,N,08103.1181,W,1,8,1.7,22,M,,M,,*54
06/14/2014	05:06:22.533	$GPGGA,050620,2427.3000,N,08103.1188,W,1,8,2.0,22,M,,M,,*51
06/14/2014	05:06:23.648	$GPGGA,050621,2427.2997,N,08103.1192,W,1,7,3.4,22,M,,M,,*57
06/14/2014	05:06:24.772	$GPGGA,050622,2427.2993,N,08103.1196,W,1,7,3.4,22,M,,M,,*54
06/14/2014	05:06:25.869	$GPGGA,050623,2427.2991,N,08103.1200,W,1,6,3.4,22,M,,M,,*5A
06/14/2014	05:06:26.849	$GPGGA,050624,2427.2989,N,08103.1206,W,1,6,3.4,22,M,,M,,*52
06/14/2014	05:06:27.926	$GPGGA,050625,2427.2986,N,08103.1208,W,1,6,3.4,22,M,,M,,*52
06/14/2014	05:06:29.137	$GPGGA,050626,2427.2984,N,08103.1214,W,1,6,2.0,21,M,,M,,*58
06/14/2014	05:06:30.280	$GPGGA,050627,2427.2982,N,08103.1219,W,1,7,2.0,21,M,,M,,*53
06/14/2014	05:06:31.263	$GPGGA,050628,2427.2977,N,08103.1225,W,1,7,2.5,21,M,,M,,*5C
06/14/2014	05:06:32.412	$GPGGA,050629,2427.2974,N,08103.1230,W,1,6,2.5,21,M,,M,,*5B
06/14/2014	05:06:33.512	$GPGGA,050630,2427.2972,N,08103.1235,W,1,6,2.3,21,M,,M,,*56
06/14/2014	05:06:34.655	$GPGGA,050631,2427.2968,N,08103.1239,W,1,8,1.7,21,M,,M,,*59
06/14/2014	05:06:35.706	$GPGGA,050632,2427.2966,N,08103.1244,W,1,8,1.7,21,M,,M,,*5E
06/14/2014	05:06:36.822	$GPGGA,050633,2427.2963,N,08103.1250,W,1,7,2.3,21,M,,M,,*57
06/14/2014	05:06:37.872	$GPGGA,050634,2427.2960,N,08103.1254,W,1,7,2.3,21,M,,M,,*57
06/14/2014	05:06:38.967	$GPGGA,050635,2427.2959,N,08103.1259,W,1,8,2.3,22,M,,M,,*5D
06/14/2014	05:06:40.075	$GPGGA,050636,2427.2955,N,08103.1265,W,1,8,2.4,22,M,,M,,*5A
06/14/2014	05:06:41.243	$GPGGA,050637,2427.2953,N,08103.1270,W,1,7,2.3,22,M,,M,,*51
06/14/2014	05:06:42.239	$GPGGA,050638,2427.2950,N,08103.1277,W,1,7,1.7,22,M,,M,,*5D
06/14/2014	05:06:43.366	$GPGGA,050639,2427.2948,N,08103.1283,W,1,7,1.6,22,M,,M,,*5F
06/14/2014	05:06:44.438	$GPGGA,050640,2427.2945,N,08103.1290,W,1,7,2.3,22,M,,M,,*58
06/14/2014	05:06:45.550	$GPGGA,050641,2427.2942,N,08103.1294,W,1,7,2.5,23,M,,M,,*5D
06/14/2014	05:06:46.614	$GPGGA,050642,2427.2943,N,08103.1300,W,1,7,2.3,23,M,,M,,*55
06/14/2014	05:06:47.785	$GPGGA,050643,2427.2938,N,08103.1304,W,1,8,2.5,23,M,,M,,*55
06/14/2014	05:06:48.802	$GPGGA,050644,2427.2934,N,08103.1308,W,1,8,2.5,23,M,,M,,*52
06/14/2014	05:06:49.937	$GPGGA,050645,2427.2931,N,08103.1315,W,1,7,2.3,23,M,,M,,*53
06/14/2014	05:06:50.969	$GPGGA,050646,2427.2928,N,08103.1319,W,1,7,1.6,23,M,,M,,*52
06/14/2014	05:06:52.116	$GPGGA,050647,2427.2925,N,08103.1326,W,1,8,1.6,24,M,,M,,*5A
06/14/2014	05:06:53.179	$GPGGA,050648,2427.2921,N,08103.1329,W,1,8,1.6,24,M,,M,,*5E
06/14/2014	05:06:48.645	$GPGGA,050649,2427.2919,N,08103.1335,W,1,9,2.0,24,M,,M,,*5D
06/14/2014	05:06:49.685	$GPGGA,050650,2427.2919,N,08103.1340,W,1,9,2.0,24,M,,M,,*57
06/14/2014	05:06:50.845	$GPGGA,050651,2427.2915,N,08103.1344,W,1,10,1.8,24,M,,M,,*6D
06/14/2014	05:06:51.895	$GPGGA,050652,2427.2915,N,08103.1344,W,1,10,1.8,24,M,,M,,*6E
06/14/2014	05:06:53.024	$GPGGA,050653,2427.2910,N,08103.1353,W,1,10,1.6,24,M,,M,,*62
06/14/2014	05:06:54.062	$GPGGA,050654,2427.2905,N,08103.1359,W,1,10,1.6,24,M,,M,,*6B
06/14/2014	05:06:55.201	$GPGGA,050655,2427.2905,N,08103.1359,W,1,8,1.6,24,M,,M,,*53
06/14/2014	05:06:56.260	$GPGGA,050656,2427.2898,N,08103.1370,W,1,8,1.6,24,M,,M,,*5E
06/14/2014	05:06:57.419	$GPGGA,050657,2427.2896,N,08103.1376,W,1,8,1.6,24,M,,M,,*57
06/14/2014	05:06:58.437	$GPGGA,050658,2427.2892,N,08103.1380,W,1,8,2.0,24,M,,M,,*50
06/14/2014	05:06:59.612	$GPGGA,050659,2427.2894,N,08103.1383,W,1,7,1.5,24,M,,M,,*5D
06/14/2014	05:07:00.648	$GPGGA,050700,2427.2888,N,08103.1387,W,1,7,1.6,24,M,,M,,*5A
06/14/2014	05:07:01.764	$GPGGA,050701,2427.2883,N,08103.1391,W,1,8,1.6,24,M,,M,,*58
06/14/2014	05:07:02.803	$GPGGA,050702,2427.2879,N,08103.1396,W,1,8,1.6,24,M,,M,,*59
06/14/2014	05:07:04.018	$GPGGA,050703,2427.2873,N,08103.1400,W,1,8,1.6,24,M,,M,,*5A
06/14/2014	05:07:04.992	$GPGGA,050704,2427.2870,N,08103.1405,W,1,8,1.6,25,M,,M,,*5A
06/14/2014	05:07:06.173	$GPGGA,050705,2427.2867,N,08103.1409,W,1,8,1.6,25,M,,M,,*51
06/14/2014	05:07:07.158	$GPGGA,050706,2427.2863,N,08103.1417,W,1,8,1.6,25,M,,M,,*59
06/14/2014	05:07:08.330	$GPGGA,050707,2427.2859,N,08103.1423,W,1,9,2.0,25,M,,M,,*52
06/14/2014	05:07:09.489	$GPGGA,050708,2427.2858,N,08103.1428,W,1,9,2.0,25,M,,M,,*57
06/14/2014	05:07:10.541	$GPGGA,050709,2427.2854,N,08103.1434,W,1,9,1.6,25,M,,M,,*52
06/14/2014	05:07:11.524	$GPGGA,050710,2427.2852,N,08103.1438,W,1,9,1.6,25,M,,M,,*50
06/14/2014	05:07:12.760	$GPGGA,050711,2427.2851,N,08103.1443,W,1,9,2.2,25,M,,M,,*59
06/14/2014	05:07:13.855	$GPGGA,050712,2427.2849,N,08103.1449,W,1,9,1.5,25,M,,M,,*5D
06/14/2014	05:07:14.916	$GPGGA,050713,2427.2848,N,08103.1452,W,1,8,2.3,25,M,,M,,*53
06/14/2014	05:07:15.904	$GPGGA,050714,2427.2845,N,08103.1457,W,1,8,2.4,25,M,,M,,*5B
06/14/2014	05:07:17.098	$GPGGA,050715,2427.2842,N,08103.1461,W,1,7,2.5,25,M,,M,,*56
06/14/2014	05:07:18.201	$GPGGA,050716,2427.2841,N,08103.1467,W,1,7,2.3,25,M,,M,,*56
06/14/2014	05:07:19.303	$GPGGA,050717,2427.2840,N,08103.1472,W,1,9,2.2,25,M,,M,,*5D
06/14/2014	05:07:20.392	$GPGGA,050718,2427.2836,N,08103.1478,W,1,9,2.2,25,M,,M,,*59
06/14/2014	05:07:21.483	$GPGGA,050719,2427.2834,N,08103.1482,W,1,8,2.3,25,M,,M,,*5F
06/14/2014	05:07:22.574	$GPGGA,050720,2427.2832,N,08103.1488,W,1,8,1.5,25,M,,M,,*5C
06/14/2014	05:07:23.690	$GPGGA,050721,2427.2831,N,08103.1492,W,1,8,1.6,25,M,,M,,*56
06/14/2014	05:07:24.730	$GPGGA,050722,2427.2829,N,08103.1497,W,1,8,1.6,25,M,,M,,*59
06/14/2014	05:07:25.850	$GPGGA,050723,2427.2826,N,08103.1503,W,1,9,1.5,24,M,,M,,*58
06/14/2014	05:07:26.940	$GPGGA,050724,2427.2823,N,08103.1506,W,1,9,2.5,24,M,,M,,*5C
06/14/2014	05:07:28.032	$GPGGA,050725,2427.2822,N,08103.1510,W,1,8,1.6,24,M,,M,,*5A
06/14/2014	05:07:29.096	$GPGGA,050726,2427.2822,N,08103.1514,W,1,8,1.5,24,M,,M,,*5E
06/14/2014	05:07:30.215	$GPGGA,050727,2427.2820,N,08103.1521,W,1,9,1.5,24,M,,M,,*5A
06/14/2014	05:07:31.308	$GPGGA,050728,2427.2819,N,08103.1525,W,1,9,2.3,24,M,,M,,*5E
06/14/2014	05:07:32.390	$GPGGA,050729,2427.2816,N,08103.1530,W,1,9,2.2,24,M,,M,,*55
06/14/2014	05:07:33.474	$GPGGA,050730,2427.2813,N,08103.1535,W,1,9,2.3,24,M,,M,,*5C
06/14/2014	05:07:34.612	$GPGGA,050731,2427.2811,N,08103.1539,W,1,7,2.5,24,M,,M,,*5B
06/14/2014	05:07:35.660	$GPGGA,050732,2427.2807,N,08103.1546,W,1,7,2.3,24,M,,M,,*51
06/14/2014	05:07:36.743	$GPGGA,050733,2427.2803,N,08103.1551,W,1,7,2.5,24,M,,M,,*54
06/14/2014	05:07:37.848	$GPGGA,050734,2427.2802,N,08103.1559,W,1,7,2.5,24,M,,M,,*5A
06/14/2014	05:07:38.931	$GPGGA,050735,2427.2800,N,08103.1566,W,1,9,1.5,24,M,,M,,*58
06/14/2014	05:07:40.062	$GPGGA,050736,2427.2797,N,08103.1572,W,1,9,1.5,24,M,,M,,*5F
06/14/2014	05:07:41.153	$GPGGA,050737,2427.2796,N,08103.1577,W,1,10,1.5,24,M,,M,,*62
06/14/2014	05:07:42.203	$GPGGA,050738,2427.2795,N,08103.1582,W,1,10,2.2,24,M,,M,,*60
06/14/2014	05:07:44.019	$GPGGA,050739,2427.2793,N,08103.1586,W,1,9,2.2,24,M,,M,,*5B
06/14/2014	05:07:44.402	$GPGGA,050740,2427.2789,N,08103.1590,W,1,9,2.2,24,M,,M,,*59
06/14/2014	05:07:45.508	$GPGGA,050741,2427.2786,N,08103.1595,W,1,7,2.5,24,M,,M,,*5B
06/14/2014	05:07:46.580	$GPGGA,050742,2427.2783,N,08103.1600,W,1,7,2.5,24,M,,M,,*52
06/14/2014	05:07:47.707	$GPGGA,050743,2427.2782,N,08103.1605,W,1,8,2.3,24,M,,M,,*5E
06/14/2014	05:07:48.768	$GPGGA,050744,2427.2778,N,08103.1611,W,1,8,2.2,24,M,,M,,*58
06/14/2014	05:07:49.852	$GPGGA,050745,2427.2775,N,08103.1615,W,1,9,2.2,24,M,,M,,*51
06/14/2014	05:07:50.935	$GPGGA,050746,2427.2775,N,08103.1620,W,1,9,2.5,24,M,,M,,*53
06/14/2014	05:07:52.051	$GPGGA,050747,2427.2771,N,08103.1626,W,1,8,2.3,24,M,,M,,*57
06/14/2014	05:07:53.145	$GPGGA,050748,2427.2768,N,08103.1631,W,1,8,1.5,24,M,,M,,*53
06/14/2014	05:07:48.709	$GPGGA,050749,2427.2765,N,08103.1638,W,1,8,1.9,24,M,,M,,*5A
06/14/2014	05:07:49.671	$GPGGA,050750,2427.2764,N,08103.1644,W,1,8,1.8,24,M,,M,,*59
06/14/2014	05:07:50.875	$GPGGA,050751,2427.2760,N,08103.1648,W,1,8,2.3,24,M,,M,,*58
06/14/2014	05:07:51.860	$GPGGA,050752,2427.2757,N,08103.1654,W,1,8,2.2,24,M,,M,,*53
06/14/2014	05:07:52.943	$GPGGA,050753,2427.2757,N,08103.1659,W,1,8,2.3,24,M,,M,,*5E
06/14/2014	05:07:54.026	$GPGGA,050754,2427.2754,N,08103.1665,W,1,8,1.5,24,M,,M,,*50
06/14/2014	05:07:55.127	$GPGGA,050755,2427.2751,N,08103.1669,W,1,8,2.3,24,M,,M,,*5D
06/14/2014	05:07:56.324	$GPGGA,050756,2427.2750,N,08103.1673,W,1,8,1.6,24,M,,M,,*52
06/14/2014	05:07:57.309	$GPGGA,050757,2427.2747,N,08103.1678,W,1,8,2.3,24,M,,M,,*58
06/14/2014	05:07:58.502	$GPGGA,050758,2427.2746,N,08103.1684,W,1,8,2.5,24,M,,M,,*53
06/14/2014	05:07:59.576	$GPGGA,050759,2427.2742,N,08103.1689,W,1,8,2.3,24,M,,M,,*5D
06/14/2014	05:08:00.653	$GPGGA,050800,2427.2739,N,08103.1694,W,1,8,2.3,24,M,,M,,*5E
06/14/2014	05:08:01.667	$GPGGA,050801,2427.2737,N,08103.1701,W,1,8,2.3,24,M,,M,,*5C
06/14/2014	05:08:02.578	$GPGGA,050802,2427.2735,N,08103.1705,W,1,8,1.5,25,M,,M,,*5D
06/14/2014	05:08:03.697	$GPGGA,050803,2427.2732,N,08103.1712,W,1,6,3.3,25,M,,M,,*57
06/14/2014	05:08:04.753	$GPGGA,050804,2427.2729,N,08103.1713,W,1,6,1.5,25,M,,M,,*5F
06/14/2014	05:08:05.778	$GPGGA,050805,2427.2728,N,08103.1717,W,1,8,1.8,24,M,,M,,*59
06/14/2014	05:08:06.812	$GPGGA,050806,2427.2724,N,08103.1721,W,1,8,2.3,24,M,,M,,*5B
06/14/2014	05:08:07.868	$GPGGA,050807,2427.2721,N,08103.1730,W,1,8,2.3,24,M,,M,,*5F
06/14/2014	05:08:08.893	$GPGGA,050808,2427.2717,N,08103.1736,W,1,8,1.5,24,M,,M,,*56
06/14/2014	05:08:09.919	$GPGGA,050809,2427.2717,N,08103.1743,W,1,9,1.6,25,M,,M,,*56
06/14/2014	05:08:10.944	$GPGGA,050810,2427.2712,N,08103.1749,W,1,9,1.5,25,M,,M,,*52
06/14/2014	05:08:11.969	$GPGGA,050811,2427.2710,N,08103.1753,W,1,8,1.6,25,M,,M,,*58
06/14/2014	05:08:13.014	$GPGGA,050812,2427.2710,N,08103.1757,W,1,8,2.0,25,M,,M,,*5A
06/14/2014	05:08:14.039	$GPGGA,050813,2427.2707,N,08103.1763,W,1,9,1.5,25,M,,M,,*5D
06/14/2014	05:08:15.075	$GPGGA,050814,2427.2704,N,08103.1767,W,1,9,1.6,25,M,,M,,*5E
06/14/2014	05:08:16.121	$GPGGA,050815,2427.2701,N,08103.1772,W,1,9,1.6,25,M,,M,,*5E
06/14/2014	05:08:17.156	$GPGGA,050816,2427.2699,N,08103.1779,W,1,9,1.5,25,M,,M,,*55
06/14/2014	05:08:18.202	$GPGGA,050817,2427.2696,N,08103.1785,W,1,9,1.5,25,M,,M,,*58
06/14/2014	05:08:19.206	$GPGGA,050818,2427.2692,N,08103.1789,W,1,9,1.5,25,M,,M,,*5F
06/14/2014	05:08:20.252	$GPGGA,050819,2427.2689,N,08103.1795,W,1,7,2.0,26,M,,M,,*52
06/14/2014	05:08:21.299	$GPGGA,050820,2427.2688,N,08103.1799,W,1,7,2.0,26,M,,M,,*55
06/14/2014	05:08:22.324	$GPGGA,050821,2427.2683,N,08103.1803,W,1,8,1.9,26,M,,M,,*56
06/14/2014	05:08:23.328	$GPGGA,050822,2427.2682,N,08103.1808,W,1,8,1.5,26,M,,M,,*53
06/14/2014	05:08:24.372	$GPGGA,050823,2427.2681,N,08103.1814,W,1,9,1.5,26,M,,M,,*5D
06/14/2014	05:08:25.428	$GPGGA,050824,2427.2677,N,08103.1818,W,1,9,1.6,26,M,,M,,*5C
06/14/2014	05:08:26.463	$GPGGA,050825,2427.2674,N,08103.1824,W,1,7,2.5,26,M,,M,,*5F
06/14/2014	05:08:27.478	$GPGGA,050826,2427.2672,N,08103.1828,W,1,7,2.0,25,M,,M,,*50
06/14/2014	05:08:28.534	$GPGGA,050827,2427.2670,N,08103.1832,W,1,9,1.5,25,M,,M,,*50
06/14/2014	05:08:29.559	$GPGGA,050828,2427.2666,N,08103.1839,W,1,9,1.6,25,M,,M,,*50
06/14/2014	05:08:30.563	$GPGGA,050829,2427.2664,N,08103.1842,W,1,8,1.6,25,M,,M,,*5E
06/14/2014	05:08:31.620	$GPGGA,050830,2427.2660,N,08103.1846,W,1,8,1.5,25,M,,M,,*55
06/14/2014	05:08:32.634	$GPGGA,050831,2427.2659,N,08103.1853,W,1,8,1.6,25,M,,M,,*59
06/14/2014	05:08:33.804	$GPGGA,050832,2427.2657,N,08103.1857,W,1,8,1.5,25,M,,M,,*53
06/14/2014	05:08:34.695	$GPGGA,050833,2427.2655,N,08103.1861,W,1,10,1.5,25,M,,M,,*6C
06/14/2014	05:08:35.751	$GPGGA,050834,2427.2652,N,08103.1866,W,1,10,1.7,25,M,,M,,*69
06/14/2014	05:08:36.796	$GPGGA,050835,2427.2650,N,08103.1872,W,1,9,1.6,25,M,,M,,*56
06/14/2014	05:08:37.832	$GPGGA,050836,2427.2646,N,08103.1876,W,1,9,1.9,25,M,,M,,*59
06/14/2014	05:08:38.929	$GPGGA,050837,2427.2645,N,08103.1882,W,1,9,1.5,25,M,,M,,*5C
06/14/2014	05:08:39.872	$GPGGA,050838,2427.2643,N,08103.1886,W,1,9,1.5,25,M,,M,,*51
06/14/2014	05:08:40.907	$GPGGA,050839,2427.2641,N,08103.1891,W,1,9,1.5,25,M,,M,,*54
06/14/2014	05:08:42.067	$GPGGA,050840,2427.2637,N,08103.1894,W,1,9,1.5,25,M,,M,,*5E
06/14/2014	05:08:43.101	$GPGGA,050841,2427.2635,N,08103.1900,W,1,9,1.7,25,M,,M,,*53
06/14/2014	05:08:44.002	$GPGGA,050842,2427.2632,N,08103.1904,W,1,9,1.8,25,M,,M,,*5C
06/14/2014	05:08:45.031	$GPGGA,050843,2427.2630,N,08103.1909,W,1,8,2.3,25,M,,M,,*5B
06/14/2014	05:08:46.218	$GPGGA,050844,2427.2627,N,08103.1915,W,1,8,1.5,25,M,,M,,*52
06/14/2014	05:08:47.213	$GPGGA,050845,2427.2624,N,08103.1919,W,1,9,1.5,25,M,,M,,*5D
06/14/2014	05:08:48.154	$GPGGA,050846,2427.2623,N,08103.1922,W,1,9,1.5,25,M,,M,,*51
06/14/2014	05:08:49.272	$GPGGA,050847,2427.2620,N,08103.1926,W,1,10,1.5,25,M,,M,,*6F
06/14/2014	05:08:47.581	$GPGGA,050848,2427.2617,N,08103.1929,W,1,10,1.7,25,M,,M,,*69
06/14/2014	05:08:48.623	$GPGGA,050849,2427.2616,N,08103.1934,W,1,8,1.8,25,M,,M,,*53
06/14/2014	05:08:49.628	$GPGGA,050850,2427.2612,N,08103.1940,W,1,8,1.6,25,M,,M,,*52
06/14/2014	05:08:52.229	$GPGGA,050852,2427.2605,N,08103.1949,W,1,8,1.6,25,M,,M,,*5F
06/14/2014	05:08:52.744	$GPGGA,050853,2427.2601,N,08103.1954,W,1,7,2.0,25,M,,M,,*5C
06/14/2014	05:08:53.761	$GPGGA,050854,2427.2598,N,08103.1958,W,1,7,2.0,25,M,,M,,*54
06/14/2014	05:08:54.805	$GPGGA,050855,2427.2594,N,08103.1962,W,1,8,1.6,25,M,,M,,*5A
06/14/2014	05:08:55.831	$GPGGA,050856,2427.2594,N,08103.1965,W,1,8,1.5,25,M,,M,,*5D
06/14/2014	05:08:56.876	$GPGGA,050857,2427.2588,N,08103.1972,W,1,9,1.5,25,M,,M,,*56
06/14/2014	05:08:57.890	$GPGGA,050858,2427.2585,N,08103.1976,W,1,9,1.6,25,M,,M,,*53
06/14/2014	05:08:58.935	$GPGGA,050859,2427.2583,N,08103.1984,W,1,8,2.4,25,M,,M,,*59
06/14/2014	05:08:59.981	$GPGGA,050900,2427.2581,N,08103.1991,W,1,8,1.5,25,M,,M,,*50
06/14/2014	05:09:00.985	$GPGGA,050901,2427.2582,N,08103.1994,W,1,10,1.5,25,M,,M,,*6E
06/14/2014	05:09:02.020	$GPGGA,050902,2427.2579,N,08103.1998,W,1,10,1.5,25,M,,M,,*65
06/14/2014	05:09:03.067	$GPGGA,050903,2427.2578,N,08103.2003,W,1,8,2.2,25,M,,M,,*50
06/14/2014	05:09:04.103	$GPGGA,050904,2427.2579,N,08103.2010,W,1,8,2.2,25,M,,M,,*54
06/14/2014	05:09:05.147	$GPGGA,050905,2427.2576,N,08103.2014,W,1,10,1.5,25,M,,M,,*63
06/14/2014	05:09:06.172	$GPGGA,050906,2427.2573,N,08103.2019,W,1,10,2.2,25,M,,M,,*6C
06/14/2014	05:09:07.208	$GPGGA,050907,2427.2571,N,08103.2023,W,1,9,2.2,25,M,,M,,*5E
06/14/2014	05:09:08.247	$GPGGA,050908,2427.2569,N,08103.2030,W,1,9,2.2,25,M,,M,,*5A
06/14/2014	05:09:09.248	$GPGGA,050909,2427.2569,N,08103.2034,W,1,9,2.2,25,M,,M,,*5F
06/14/2014	05:09:10.283	$GPGGA,050910,2427.2566,N,08103.2038,W,1,9,2.2,25,M,,M,,*54
06/14/2014	05:09:11.339	$GPGGA,050911,2427.2563,N,08103.2045,W,1,8,2.2,25,M,,M,,*5B
06/14/2014	05:09:12.364	$GPGGA,050912,2427.2561,N,08103.2048,W,1,8,1.5,25,M,,M,,*53
06/14/2014	05:09:13.421	$GPGGA,050913,2427.2559,N,08103.2053,W,1,9,1.5,25,M,,M,,*52
06/14/2014	05:09:14.424	$GPGGA,050914,2427.2558,N,08103.2059,W,1,9,2.2,25,M,,M,,*5A
06/14/2014	05:09:15.492	$GPGGA,050915,2427.2554,N,08103.2063,W,1,8,2.2,25,M,,M,,*5F
06/14/2014	05:09:16.505	$GPGGA,050916,2427.2551,N,08103.2067,W,1,8,2.2,25,M,,M,,*5D
06/14/2014	05:09:17.530	$GPGGA,050917,2427.2551,N,08103.2072,W,1,8,2.2,25,M,,M,,*58
06/14/2014	05:09:18.555	$GPGGA,050918,2427.2548,N,08103.2078,W,1,8,1.5,25,M,,M,,*51
06/14/2014	05:09:19.580	$GPGGA,050919,2427.2545,N,08103.2085,W,1,9,1.5,25,M,,M,,*5E
06/14/2014	05:09:20.646	$GPGGA,050920,2427.2543,N,08103.2088,W,1,9,1.5,25,M,,M,,*5F
06/14/2014	05:09:21.661	$GPGGA,050921,2427.2542,N,08103.2093,W,1,8,2.2,25,M,,M,,*50
06/14/2014	05:09:22.686	$GPGGA,050922,2427.2540,N,08103.2097,W,1,8,2.2,25,M,,M,,*55
06/14/2014	05:09:23.847	$GPGGA,050923,2427.2537,N,08103.2106,W,1,8,2.2,25,M,,M,,*5D
06/14/2014	05:09:24.777	$GPGGA,050924,2427.2536,N,08103.2113,W,1,8,1.5,25,M,,M,,*5B
06/14/2014	05:09:25.916	$GPGGA,050925,2427.2533,N,08103.2117,W,1,10,1.5,25,M,,M,,*62
06/14/2014	05:09:26.921	$GPGGA,050926,2427.2530,N,08103.2126,W,1,10,2.2,25,M,,M,,*64
06/14/2014	05:09:27.863	$GPGGA,050927,2427.2527,N,08103.2132,W,1,10,1.5,25,M,,M,,*62
06/14/2014	05:09:28.910	$GPGGA,050928,2427.2524,N,08103.2139,W,1,10,1.9,25,M,,M,,*69
06/14/2014	05:09:29.913	$GPGGA,050929,2427.2522,N,08103.2142,W,1,9,1.5,25,M,,M,,*56
06/14/2014	05:09:30.960	$GPGGA,050930,2427.2520,N,08103.2146,W,1,9,1.5,25,M,,M,,*58
06/14/2014	05:09:31.975	$GPGGA,050931,2427.2518,N,08103.2150,W,1,10,1.5,25,M,,M,,*6D
06/14/2014	05:09:33.154	$GPGGA,050932,2427.2515,N,08103.2154,W,1,10,1.8,26,M,,M,,*69
06/14/2014	05:09:34.063	$GPGGA,050933,2427.2512,N,08103.2160,W,1,10,1.5,26,M,,M,,*65
06/14/2014	05:09:35.213	$GPGGA,050934,2427.2508,N,08103.2167,W,1,10,1.6,26,M,,M,,*6D
06/14/2014	05:09:36.238	$GPGGA,050935,2427.2505,N,08103.2172,W,1,8,1.6,26,M,,M,,*5C
06/14/2014	05:09:37.263	$GPGGA,050936,2427.2502,N,08103.2178,W,1,8,1.6,26,M,,M,,*52
06/14/2014	05:09:38.299	$GPGGA,050937,2427.2500,N,08103.2182,W,1,8,1.6,26,M,,M,,*54
06/14/2014	05:09:39.324	$GPGGA,050938,2427.2498,N,08103.2187,W,1,8,1.5,26,M,,M,,*5D
06/14/2014	05:09:40.421	$GPGGA,050939,2427.2495,N,08103.2191,W,1,9,1.5,26,M,,M,,*57
06/14/2014	05:09:41.426	$GPGGA,050940,2427.2496,N,08103.2197,W,1,9,1.5,26,M,,M,,*5C
06/14/2014	05:09:42.440	$GPGGA,050941,2427.2493,N,08103.2202,W,1,9,1.5,26,M,,M,,*57
06/14/2014	05:09:43.447	$GPGGA,050942,2427.2490,N,08103.2207,W,1,9,1.6,26,M,,M,,*51
06/14/2014	05:09:44.490	$GPGGA,050943,2427.2488,N,08103.2212,W,1,9,1.5,26,M,,M,,*5E
06/14/2014	05:09:45.536	$GPGGA,050944,2427.2486,N,08103.2218,W,1,9,1.6,26,M,,M,,*5E
06/14/2014	05:09:46.540	$GPGGA,050945,2427.2482,N,08103.2222,W,1,8,2.2,26,M,,M,,*54
06/14/2014	05:09:47.577	$GPGGA,050946,2427.2479,N,08103.2225,W,1,8,1.5,26,M,,M,,*50
06/14/2014	05:09:48.642	$GPGGA,050947,2427.2477,N,08103.2232,W,1,9,1.5,26,M,,M,,*58
06/14/2014	05:09:49.667	$GPGGA,050948,2427.2475,N,08103.2236,W,1,9,1.5,26,M,,M,,*51
06/14/2014	05:09:48.560	$GPGGA,050949,2427.2472,N,08103.2240,W,1,10,1.5,26,M,,M,,*6E
06/14/2014	05:09:49.595	$GPGGA,050950,2427.2471,N,08103.2245,W,1,10,1.5,25,M,,M,,*63
06/14/2014	05:09:50.643	$GPGGA,050951,2427.2466,N,08103.2251,W,1,9,1.5,25,M,,M,,*59
06/14/2014	05:09:51.676	$GPGGA,050952,2427.2465,N,08103.2255,W,1,9,1.6,25,M,,M,,*5E
06/14/2014	05:09:52.690	$GPGGA,050953,2427.2464,N,08103.2261,W,1,8,1.9,25,M,,M,,*57
06/14/2014	05:09:53.726	$GPGGA,050954,2427.2462,N,08103.2265,W,1,8,1.5,25,M,,M,,*5E
06/14/2014	05:09:54.761	$GPGGA,050955,2427.2459,N,08103.2269,W,1,10,1.5,25,M,,M,,*62
06/14/2014	05:09:55.807	$GPGGA,050956,2427.2457,N,08103.2272,W,1,10,1.5,25,M,,M,,*65
06/14/2014	05:09:56.869	$GPGGA,050957,2427.2455,N,08103.2277,W,1,8,1.6,25,M,,M,,*59
06/14/2014	05:09:57.867	$GPGGA,050958,2427.2453,N,08103.2283,W,1,8,1.5,25,M,,M,,*58
06/14/2014	05:09:58.946	$GPGGA,050959,2427.2451,N,08103.2287,W,1,9,1.5,25,M,,M,,*5E
06/14/2014	05:09:59.948	$GPGGA,051000,2427.2448,N,08103.2294,W,1,9,1.5,25,M,,M,,*50
06/14/2014	05:10:00.953	$GPGGA,051001,2427.2446,N,08103.2298,W,1,9,1.5,24,M,,M,,*52
06/14/2014	05:10:01.999	$GPGGA,051002,2427.2442,N,08103.2301,W,1,9,1.5,24,M,,M,,*54
06/14/2014	05:10:03.065	$GPGGA,051003,2427.2441,N,08103.2303,W,1,8,1.9,24,M,,M,,*59
06/14/2014	05:10:04.080	$GPGGA,051004,2427.2439,N,08103.2308,W,1,8,1.5,24,M,,M,,*56
06/14/2014	05:10:05.219	$GPGGA,051005,2427.2435,N,08103.2312,W,1,10,1.5,24,M,,M,,*69
06/14/2014	05:10:06.119	$GPGGA,051006,2427.2432,N,08103.2317,W,1,10,1.5,24,M,,M,,*68
06/14/2014	05:10:07.165	$GPGGA,051007,2427.2429,N,08103.2323,W,1,9,1.5,25,M,,M,,*5D
06/14/2014	05:10:08.324	$GPGGA,051008,2427.2425,N,08103.2328,W,1,9,1.6,25,M,,M,,*56
06/14/2014	05:10:09.359	$GPGGA,051009,2427.2424,N,08103.2334,W,1,8,1.5,25,M,,M,,*59
06/14/2014	05:10:10.250	$GPGGA,051010,2427.2421,N,08103.2339,W,1,8,1.5,25,M,,M,,*59
06/14/2014	05:10:11.306	$GPGGA,051011,2427.2418,N,08103.2345,W,1,9,1.5,25,M,,M,,*58
06/14/2014	05:10:12.341	$GPGGA,051012,2427.2414,N,08103.2349,W,1,9,1.7,25,M,,M,,*59
06/14/2014	05:10:13.387	$GPGGA,051013,2427.2413,N,08103.2355,W,1,9,1.5,25,M,,M,,*50
06/14/2014	05:10:14.526	$GPGGA,051014,2427.2412,N,08103.2361,W,1,9,1.5,25,M,,M,,*51
06/14/2014	05:10:15.561	$GPGGA,051015,2427.2410,N,08103.2366,W,1,9,1.5,25,M,,M,,*55
06/14/2014	05:10:16.472	$GPGGA,051016,2427.2408,N,08103.2370,W,1,9,1.5,25,M,,M,,*58
06/14/2014	05:10:17.508	$GPGGA,051017,2427.2406,N,08103.2375,W,1,8,1.9,25,M,,M,,*5F
06/14/2014	05:10:18.533	$GPGGA,051018,2427.2403,N,08103.2379,W,1,8,1.9,25,M,,M,,*59
06/14/2014	05:10:19.559	$GPGGA,051019,2427.2400,N,08103.2384,W,1,9,1.7,25,M,,M,,*56
06/14/2014	05:10:20.738	$GPGGA,051020,2427.2397,N,08103.2391,W,1,9,2.2,25,M,,M,,*57
06/14/2014	05:10:21.639	$GPGGA,051021,2427.2394,N,08103.2397,W,1,8,2.2,25,M,,M,,*52
06/14/2014	05:10:22.768	$GPGGA,051022,2427.2390,N,08103.2402,W,1,8,1.9,25,M,,M,,*56
06/14/2014	05:10:23.824	$GPGGA,051023,2427.2388,N,08103.2408,W,1,8,1.9,25,M,,M,,*54
06/14/2014	05:10:24.849	$GPGGA,051024,2427.2388,N,08103.2414,W,1,8,1.5,25,M,,M,,*52
06/14/2014	05:10:25.863	$GPGGA,051025,2427.2383,N,08103.2418,W,1,10,1.5,25,M,,M,,*6D
06/14/2014	05:10:26.898	$GPGGA,051026,2427.2381,N,08103.2422,W,1,10,1.9,25,M,,M,,*69
06/14/2014	05:10:27.954	$GPGGA,051027,2427.2379,N,08103.2429,W,1,8,1.6,25,M,,M,,*52
06/14/2014	05:10:28.969	$GPGGA,051028,2427.2380,N,08103.2435,W,1,8,1.5,25,M,,M,,*55
06/14/2014	05:10:29.983	$GPGGA,051029,2427.2378,N,08103.2440,W,1,9,1.5,25,M,,M,,*50
06/14/2014	05:10:31.031	$GPGGA,051030,2427.2376,N,08103.2446,W,1,9,1.5,25,M,,M,,*50
06/14/2014	05:10:32.080	$GPGGA,051031,2427.2375,N,08103.2451,W,1,10,1.5,25,M,,M,,*6C
06/14/2014	05:10:33.117	$GPGGA,051032,2427.2372,N,08103.2457,W,1,10,1.7,25,M,,M,,*6C
06/14/2014	05:10:34.137	$GPGGA,051033,2427.2370,N,08103.2460,W,1,9,1.5,25,M,,M,,*51
06/14/2014	05:10:35.160	$GPGGA,051034,2427.2366,N,08103.2464,W,1,9,1.5,25,M,,M,,*55
06/14/2014	05:10:36.211	$GPGGA,051035,2427.2363,N,08103.2468,W,1,10,1.5,25,M,,M,,*65
06/14/2014	05:10:37.253	$GPGGA,051036,2427.2360,N,08103.2473,W,1,10,1.5,25,M,,M,,*6F
06/14/2014	05:10:38.288	$GPGGA,051037,2427.2359,N,08103.2479,W,1,10,1.5,25,M,,M,,*6E
06/14/2014	05:10:39.292	$GPGGA,051038,2427.2355,N,08103.2486,W,1,10,1.9,25,M,,M,,*61
06/14/2014	05:10:40.358	$GPGGA,051039,2427.2352,N,08103.2491,W,1,8,2.0,25,M,,M,,*52
06/14/2014	05:10:41.383	$GPGGA,051040,2427.2352,N,08103.2496,W,1,8,1.9,25,M,,M,,*51
06/14/2014	05:10:42.387	$GPGGA,051041,2427.2350,N,08103.2500,W,1,8,1.5,25,M,,M,,*50
06/14/2014	05:10:43.423	$GPGGA,051042,2427.2347,N,08103.2504,W,1,8,1.5,26,M,,M,,*52
06/14/2014	05:10:44.499	$GPGGA,051043,2427.2346,N,08103.2509,W,1,9,1.5,26,M,,M,,*5E
06/14/2014	05:10:45.513	$GPGGA,051044,2427.2343,N,08103.2515,W,1,9,1.5,26,M,,M,,*51
06/14/2014	05:10:46.538	$GPGGA,051045,2427.2341,N,08103.2522,W,1,10,1.5,26,M,,M,,*6E
06/14/2014	05:10:47.563	$GPGGA,051046,2427.2339,N,08103.2526,W,1,10,1.5,26,M,,M,,*66
06/14/2014	05:10:48.588	$GPGGA,051047,2427.2337,N,08103.2533,W,1,9,2.2,26,M,,M,,*51
06/14/2014	05:10:49.634	$GPGGA,051048,2427.2335,N,08103.2536,W,1,9,2.2,26,M,,M,,*59
06/14/2014	05:10:48.558	$GPGGA,051049,2427.2332,N,08103.2540,W,1,9,2.2,26,M,,M,,*5E
06/14/2014	05:10:49.583	$GPGGA,051050,2427.2331,N,08103.2547,W,1,9,1.7,26,M,,M,,*54
06/14/2014	05:10:50.650	$GPGGA,051051,2427.2329,N,08103.2551,W,1,9,1.5,25,M,,M,,*5A
06/14/2014	05:10:51.654	$GPGGA,051052,2427.2327,N,08103.2556,W,1,9,1.7,25,M,,M,,*52
06/14/2014	05:10:52.700	$GPGGA,051053,2427.2324,N,08103.2561,W,1,9,1.7,25,M,,M,,*54
06/14/2014	05:10:53.694	$GPGGA,051054,2427.2321,N,08103.2565,W,1,9,1.5,25,M,,M,,*50
06/14/2014	05:10:54.760	$GPGGA,051055,2427.2318,N,08103.2570,W,1,10,1.5,25,M,,M,,*67
06/14/2014	05:10:55.775	$GPGGA,051056,2427.2316,N,08103.2576,W,1,10,1.6,25,M,,M,,*6F
06/14/2014	05:10:56.820	$GPGGA,051057,2427.2314,N,08103.2580,W,1,8,1.5,25,M,,M,,*5F
06/14/2014	05:10:57.845	$GPGGA,051058,2427.2313,N,08103.2585,W,1,8,1.5,25,M,,M,,*52
06/14/2014	05:10:58.860	$GPGGA,051059,2427.2311,N,08103.2590,W,1,9,1.5,25,M,,M,,*54
06/14/2014	05:10:59.938	$GPGGA,051100,2427.2307,N,08103.2594,W,1,9,1.6,25,M,,M,,*59
06/14/2014	05:11:01.044	$GPGGA,051101,2427.2305,N,08103.2599,W,1,8,1.5,25,M,,M,,*55
06/14/2014	05:11:01.965	$GPGGA,051102,2427.2303,N,08103.2605,W,1,8,1.5,25,M,,M,,*56
06/14/2014	05:11:03.032	$GPGGA,051103,2427.2300,N,08103.2612,W,1,9,1.5,25,M,,M,,*53
06/14/2014	05:11:04.078	$GPGGA,051104,2427.2298,N,08103.2616,W,1,9,1.5,25,M,,M,,*50
06/14/2014	05:11:05.175	$GPGGA,051105,2427.2295,N,08103.2621,W,1,9,1.5,25,M,,M,,*58
06/14/2014	05:11:06.116	$GPGGA,051106,2427.2294,N,08103.2626,W,1,9,1.5,25,M,,M,,*5D
06/14/2014	05:11:07.158	$GPGGA,051107,2427.2291,N,08103.2630,W,1,9,1.5,25,M,,M,,*5E
06/14/2014	05:11:08.271	$GPGGA,051108,2427.2289,N,08103.2634,W,1,9,1.5,25,M,,M,,*5C
06/14/2014	05:11:09.337	$GPGGA,051109,2427.2287,N,08103.2639,W,1,9,1.5,25,M,,M,,*5E
06/14/2014	05:11:10.331	$GPGGA,051110,2427.2284,N,08103.2645,W,1,9,1.5,25,M,,M,,*5E
06/14/2014	05:11:11.398	$GPGGA,051111,2427.2281,N,08103.2652,W,1,9,1.5,25,M,,M,,*5C
06/14/2014	05:11:12.405	$GPGGA,051112,2427.2280,N,08103.2657,W,1,9,1.5,25,M,,M,,*5B
06/14/2014	05:11:13.427	$GPGGA,051113,2427.2277,N,08103.2663,W,1,9,1.5,25,M,,M,,*55
06/14/2014	05:11:14.468	$GPGGA,051114,2427.2276,N,08103.2667,W,1,9,1.5,25,M,,M,,*57
06/14/2014	05:11:15.539	$GPGGA,051115,2427.2273,N,08103.2671,W,1,9,1.5,25,M,,M,,*54
06/14/2014	05:11:16.543	$GPGGA,051116,2427.2272,N,08103.2677,W,1,9,1.5,25,M,,M,,*50
06/14/2014	05:11:17.579	$GPGGA,051117,2427.2270,N,08103.2682,W,1,9,1.5,25,M,,M,,*59
06/14/2014	05:11:18.593	$GPGGA,051118,2427.2267,N,08103.2688,W,1,9,2.2,25,M,,M,,*5E
06/14/2014	05:11:19.649	$GPGGA,051119,2427.2264,N,08103.2695,W,1,8,1.5,25,M,,M,,*55
06/14/2014	05:11:20.687	$GPGGA,051120,2427.2262,N,08103.2702,W,1,8,1.5,25,M,,M,,*56
06/14/2014	05:11:21.699	$GPGGA,051121,2427.2259,N,08103.2709,W,1,9,1.5,25,M,,M,,*55
06/14/2014	05:11:22.734	$GPGGA,051122,2427.2258,N,08103.2713,W,1,9,1.5,25,M,,M,,*5C
06/14/2014	05:11:23.759	$GPGGA,051123,2427.2255,N,08103.2717,W,1,9,1.5,25,M,,M,,*54
06/14/2014	05:11:24.818	$GPGGA,051124,2427.2251,N,08103.2722,W,1,9,1.5,25,M,,M,,*51
06/14/2014	05:11:25.830	$GPGGA,051125,2427.2249,N,08103.2729,W,1,9,1.5,25,M,,M,,*52
06/14/2014	05:11:26.866	$GPGGA,051126,2427.2247,N,08103.2735,W,1,9,2.4,25,M,,M,,*50
06/14/2014	05:11:27.926	$GPGGA,051127,2427.2243,N,08103.2740,W,1,8,2.2,25,M,,M,,*50
06/14/2014	05:11:28.936	$GPGGA,051128,2427.2241,N,08103.2746,W,1,8,1.5,25,M,,M,,*5F
06/14/2014	05:11:30.013	$GPGGA,051129,2427.2242,N,08103.2750,W,1,9,1.5,25,M,,M,,*5B
06/14/2014	05:11:31.007	$GPGGA,051130,2427.2238,N,08103.2754,W,1,9,1.5,24,M,,M,,*5B
06/14/2014	05:11:32.078	$GPGGA,051131,2427.2236,N,08103.2757,W,1,10,1.5,24,M,,M,,*6F
06/14/2014	05:11:33.078	$GPGGA,051132,2427.2235,N,08103.2762,W,1,10,1.5,24,M,,M,,*69
06/14/2014	05:11:34.124	$GPGGA,051133,2427.2233,N,08103.2768,W,1,8,1.9,24,M,,M,,*51
06/14/2014	05:11:35.149	$GPGGA,051134,2427.2230,N,08103.2775,W,1,8,1.5,24,M,,M,,*55
06/14/2014	05:11:36.164	$GPGGA,051135,2427.2229,N,08103.2780,W,1,10,1.5,24,M,,M,,*6F
06/14/2014	05:11:37.208	$GPGGA,051136,2427.2227,N,08103.2786,W,1,10,1.5,24,M,,M,,*64
06/14/2014	05:11:38.254	$GPGGA,051137,2427.2225,N,08103.2790,W,1,10,1.5,24,M,,M,,*60
06/14/2014	05:11:39.269	$GPGGA,051138,2427.2223,N,08103.2794,W,1,10,1.7,24,M,,M,,*6F
06/14/2014	05:11:40.335	$GPGGA,051139,2427.2222,N,08103.2800,W,1,9,1.7,24,M,,M,,*55
06/14/2014	05:11:41.340	$GPGGA,051140,2427.2220,N,08103.2805,W,1,9,1.7,24,M,,M,,*5C
06/14/2014	05:11:42.489	$GPGGA,051141,2427.2221,N,08103.2811,W,1,10,1.5,24,M,,M,,*63
06/14/2014	05:11:43.410	$GPGGA,051142,2427.2217,N,08103.2816,W,1,10,1.5,24,M,,M,,*62
06/14/2014	05:11:44.466	$GPGGA,051143,2427.2216,N,08103.2822,W,1,10,1.5,23,M,,M,,*62
06/14/2014	05:11:45.481	$GPGGA,051144,2427.2215,N,08103.2829,W,1,10,1.5,23,M,,M,,*6D
06/14/2014	05:11:46.630	$GPGGA,051145,2427.2212,N,08103.2834,W,1,10,1.5,23,M,,M,,*67
06/14/2014	05:11:47.543	$GPGGA,051146,2427.2211,N,08103.2839,W,1,10,1.5,23,M,,M,,*6A
06/14/2014	05:11:48.691	$GPGGA,051147,2427.2208,N,08103.2843,W,1,10,1.5,23,M,,M,,*6E
06/14/2014	05:11:47.606	$GPGGA,051148,2427.2206,N,08103.2847,W,1,10,1.5,23,M,,M,,*6B
