Software Version Number: 1	Data File Format Number: 1	Build Version Number: 1	Error Count Since VI Started: 0	Manufacturer: Raytheon	 Model Number: RayMarine 120	 S/N: 	 Cal Date: 	 Wind Direction Offset: 0.00	 Slope (M)1: 0.00	 Offset (B)1: 0.00	 Slope (M)2: 0.00	 Offset (B)2: 0.00	 Slope (M)3: 0.00	 Offset (B)3: 0.00	 Slope (M)4: 0.00	 Offset (B)4: 0.00	 Slope (M)5: 0.00	 Offset (B)5: 0.00	 Slope (M)6: 0.00	 Offset (B)6: 0.00
Computer Date	Computer Time	GGA String
06/11/2014	13:00:00.563	$GPGGA,130001,2534.3835,N,08002.5876,W,1,8,1.9,14,M,,M,,*5D
06/11/2014	13:00:01.536	$GPGGA,130002,2534.3823,N,08002.5862,W,1,8,1.9,14,M,,M,,*5C
06/11/2014	13:00:02.666	$GPGGA,130003,2534.3810,N,08002.5847,W,1,8,1.9,14,M,,M,,*5A
06/11/2014	13:00:03.572	$GPGGA,130004,2534.3797,N,08002.5832,W,1,8,1.9,14,M,,M,,*5F
06/11/2014	13:00:04.545	$GPGGA,130005,2534.3784,N,08002.5817,W,1,8,1.9,14,M,,M,,*5B
06/11/2014	13:00:05.635	$GPGGA,130006,2534.3772,N,08002.5802,W,1,8,1.9,14,M,,M,,*55
06/11/2014	13:00:06.648	$GPGGA,130007,2534.3759,N,08002.5787,W,1,8,1.9,14,M,,M,,*5F
06/11/2014	13:00:07.550	$GPGGA,130008,2534.3746,N,08002.5772,W,1,8,1.9,14,M,,M,,*54
06/11/2014	13:00:08.583	$GPGGA,130009,2534.3734,N,08002.5757,W,1,8,1.9,14,M,,M,,*57
06/11/2014	13:00:09.646	$GPGGA,130010,2534.3721,N,08002.5742,W,1,8,1.9,14,M,,M,,*5F
06/11/2014	13:00:10.548	$GPGGA,130011,2534.3708,N,08002.5727,W,1,8,1.9,14,M,,M,,*56
06/11/2014	13:00:11.661	$GPGGA,130012,2534.3696,N,08002.5712,W,1,8,1.9,14,M,,M,,*55
06/11/2014	13:00:12.684	$GPGGA,130013,2534.3683,N,08002.5697,W,1,8,1.9,14,M,,M,,*5C
06/11/2014	13:00:13.636	$GPGGA,130014,2534.3671,N,08002.5682,W,1,8,1.9,14,M,,M,,*52
06/11/2014	13:00:14.669	$GPGGA,130015,2534.3658,N,08002.5667,W,1,8,1.9,14,M,,M,,*53
06/11/2014	13:00:15.661	$GPGGA,130016,2534.3646,N,08002.5652,W,1,8,1.9,14,M,,M,,*59
06/11/2014	13:00:16.654	$GPGGA,130017,2534.3633,N,08002.5636,W,1,8,1.9,14,M,,M,,*58
06/11/2014	13:00:17.657	$GPGGA,130018,2534.3621,N,08002.5621,W,1,8,1.9,14,M,,M,,*52
06/11/2014	13:00:18.649	$GPGGA,130019,2534.3609,N,08002.5606,W,1,8,1.9,15,M,,M,,*5D
06/11/2014	13:00:19.662	$GPGGA,130020,2534.3596,N,08002.5590,W,1,8,1.9,15,M,,M,,*5E
06/11/2014	13:00:20.674	$GPGGA,130021,2534.3584,N,08002.5575,W,1,8,1.9,15,M,,M,,*57
06/11/2014	13:00:21.645	$GPGGA,130022,2534.3573,N,08002.5560,W,1,8,1.9,15,M,,M,,*58
06/11/2014	13:00:22.669	$GPGGA,130023,2534.3559,N,08002.5545,W,1,8,1.9,15,M,,M,,*56
06/11/2014	13:00:23.661	$GPGGA,130024,2534.3548,N,08002.5529,W,1,8,1.9,15,M,,M,,*5B
06/11/2014	13:00:24.664	$GPGGA,130025,2534.3535,N,08002.5514,W,1,8,1.9,15,M,,M,,*5E
06/11/2014	13:00:25.654	$GPGGA,130026,2534.3523,N,08002.5499,W,1,8,1.9,15,M,,M,,*5E
06/11/2014	13:00:26.656	$GPGGA,130027,2534.3512,N,08002.5484,W,1,8,1.9,15,M,,M,,*51
06/11/2014	13:00:27.661	$GPGGA,130028,2534.3498,N,08002.5469,W,1,8,1.9,15,M,,M,,*5E
06/11/2014	13:00:28.684	$GPGGA,130029,2534.3486,N,08002.5453,W,1,8,1.9,15,M,,M,,*59
06/11/2014	13:00:29.660	$GPGGA,130030,2534.3475,N,08002.5436,W,1,8,1.9,15,M,,M,,*5E
06/11/2014	13:00:30.652	$GPGGA,130031,2534.3465,N,08002.5419,W,1,7,2.1,15,M,,M,,*57
06/11/2014	13:00:31.672	$GPGGA,130032,2534.3451,N,08002.5405,W,1,7,1.9,15,M,,M,,*55
06/11/2014	13:00:32.684	$GPGGA,130033,2534.3439,N,08002.5391,W,1,8,1.9,15,M,,M,,*5F
06/11/2014	13:00:33.674	$GPGGA,130034,2534.3427,N,08002.5375,W,1,8,1.9,15,M,,M,,*5D
06/11/2014	13:00:34.654	$GPGGA,130035,2534.3416,N,08002.5360,W,1,7,2.1,15,M,,M,,*5E
06/11/2014	13:00:35.678	$GPGGA,130036,2534.3403,N,08002.5346,W,1,7,2.1,15,M,,M,,*5D
06/11/2014	13:00:36.655	$GPGGA,130037,2534.3390,N,08002.5333,W,1,8,1.9,15,M,,M,,*57
06/11/2014	13:00:37.648	$GPGGA,130038,2534.3378,N,08002.5318,W,1,8,1.9,15,M,,M,,*57
06/11/2014	13:00:38.682	$GPGGA,130039,2534.3367,N,08002.5302,W,1,8,1.9,15,M,,M,,*53
06/11/2014	13:00:39.672	$GPGGA,130040,2534.3353,N,08002.5286,W,1,8,1.9,15,M,,M,,*57
06/11/2014	13:00:40.664	$GPGGA,130041,2534.3342,N,08002.5271,W,1,8,1.9,15,M,,M,,*5E
06/11/2014	13:00:41.667	$GPGGA,130042,2534.3329,N,08002.5256,W,1,8,1.9,15,M,,M,,*55
06/11/2014	13:00:42.697	$GPGGA,130043,2534.3317,N,08002.5241,W,1,8,1.9,14,M,,M,,*5E
06/11/2014	13:00:43.702	$GPGGA,130044,2534.3306,N,08002.5226,W,1,8,1.9,14,M,,M,,*58
06/11/2014	13:00:44.621	$GPGGA,130045,2534.3293,N,08002.5213,W,1,8,1.9,14,M,,M,,*52
06/11/2014	13:00:45.503	$GPGGA,130046,2534.3280,N,08002.5198,W,1,8,1.9,14,M,,M,,*53
06/11/2014	13:00:46.526	$GPGGA,130047,2534.3268,N,08002.5184,W,1,8,1.9,14,M,,M,,*59
06/11/2014	13:00:47.529	$GPGGA,130048,2534.3255,N,08002.5170,W,1,8,1.9,14,M,,M,,*53
06/11/2014	13:00:48.651	$GPGGA,130049,2534.3242,N,08002.5156,W,1,8,1.9,14,M,,M,,*50
06/11/2014	13:00:49.524	$GPGGA,130050,2534.3230,N,08002.5141,W,1,8,1.9,14,M,,M,,*5B
06/11/2014	13:00:50.626	$GPGGA,130051,2534.3216,N,08002.5128,W,1,8,1.9,14,M,,M,,*51
06/11/2014	13:00:51.609	$GPGGA,130052,2534.3203,N,08002.5114,W,1,8,1.9,14,M,,M,,*59
06/11/2014	13:00:52.511	$GPGGA,130053,2534.3191,N,08002.5100,W,1,8,1.9,14,M,,M,,*55
06/11/2014	13:00:53.604	$GPGGA,130054,2534.3178,N,08002.5086,W,1,8,1.9,14,M,,M,,*5A
06/11/2014	13:00:54.516	$GPGGA,130055,2534.3166,N,08002.5072,W,1,8,1.9,14,M,,M,,*5F
06/11/2014	13:00:55.619	$GPGGA,130056,2534.3154,N,08002.5058,W,1,8,1.9,14,M,,M,,*55
06/11/2014	13:00:56.622	$GPGGA,130057,2534.3140,N,08002.5044,W,1,8,1.9,14,M,,M,,*5C
06/11/2014	13:00:57.523	$GPGGA,130058,2534.3129,N,08002.5030,W,1,8,1.9,14,M,,M,,*5F
06/11/2014	13:00:58.636	$GPGGA,130059,2534.3115,N,08002.5015,W,1,8,1.9,14,M,,M,,*56
06/11/2014	13:00:59.639	$GPGGA,130100,2534.3102,N,08002.5001,W,1,8,1.9,14,M,,M,,*58
06/11/2014	13:01:00.601	$GPGGA,130101,2534.3089,N,08002.4987,W,1,8,1.9,14,M,,M,,*5D
06/11/2014	13:01:01.624	$GPGGA,130102,2534.3076,N,08002.4972,W,1,8,1.9,14,M,,M,,*54
06/11/2014	13:01:02.628	$GPGGA,130103,2534.3062,N,08002.4959,W,1,7,2.1,13,M,,M,,*5A
06/11/2014	13:01:03.629	$GPGGA,130104,2534.3050,N,08002.4945,W,1,7,1.9,13,M,,M,,*5A
06/11/2014	13:01:04.622	$GPGGA,130105,2534.3038,N,08002.4930,W,1,7,2.1,13,M,,M,,*5C
06/11/2014	13:01:05.614	$GPGGA,130106,2534.3026,N,08002.4915,W,1,7,2.1,13,M,,M,,*57
06/11/2014	13:01:06.601	$GPGGA,130107,2534.3014,N,08002.4900,W,1,7,2.1,13,M,,M,,*53
06/11/2014	13:01:07.630	$GPGGA,130108,2534.3002,N,08002.4884,W,1,7,2.1,13,M,,M,,*56
06/11/2014	13:01:08.612	$GPGGA,130109,2534.2988,N,08002.4871,W,1,7,2.1,13,M,,M,,*57
06/11/2014	13:01:09.625	$GPGGA,130110,2534.2975,N,08002.4857,W,1,7,1.9,13,M,,M,,*52
06/11/2014	13:01:10.637	$GPGGA,130111,2534.2962,N,08002.4843,W,1,8,1.9,13,M,,M,,*5F
06/11/2014	13:01:11.620	$GPGGA,130112,2534.2949,N,08002.4828,W,1,8,1.9,13,M,,M,,*58
06/11/2014	13:01:12.622	$GPGGA,130113,2534.2935,N,08002.4814,W,1,8,1.9,13,M,,M,,*5D
06/11/2014	13:01:13.619	$GPGGA,130114,2534.2923,N,08002.4800,W,1,8,1.9,13,M,,M,,*58
06/11/2014	13:01:14.637	$GPGGA,130115,2534.2910,N,08002.4785,W,1,8,1.9,13,M,,M,,*5B
06/11/2014	13:01:15.639	$GPGGA,130116,2534.2898,N,08002.4770,W,1,8,1.9,13,M,,M,,*53
06/11/2014	13:01:16.652	$GPGGA,130117,2534.2887,N,08002.4755,W,1,8,1.9,13,M,,M,,*5B
06/11/2014	13:01:17.614	$GPGGA,130118,2534.2874,N,08002.4740,W,1,8,1.9,13,M,,M,,*5C
06/11/2014	13:01:18.657	$GPGGA,130119,2534.2862,N,08002.4725,W,1,8,1.9,13,M,,M,,*59
06/11/2014	13:01:19.640	$GPGGA,130120,2534.2849,N,08002.4710,W,1,8,1.9,13,M,,M,,*5C
06/11/2014	13:01:20.652	$GPGGA,130121,2534.2836,N,08002.4695,W,1,8,1.9,13,M,,M,,*59
06/11/2014	13:01:21.625	$GPGGA,130122,2534.2824,N,08002.4679,W,1,8,1.9,13,M,,M,,*5B
06/11/2014	13:01:22.657	$GPGGA,130123,2534.2812,N,08002.4664,W,1,8,1.9,13,M,,M,,*53
06/11/2014	13:01:23.640	$GPGGA,130124,2534.2800,N,08002.4649,W,1,8,1.9,13,M,,M,,*58
06/11/2014	13:01:24.623	$GPGGA,130125,2534.2789,N,08002.4633,W,1,8,1.9,13,M,,M,,*5A
06/11/2014	13:01:25.615	$GPGGA,130126,2534.2776,N,08002.4618,W,1,8,1.9,13,M,,M,,*50
06/11/2014	13:01:26.658	$GPGGA,130127,2534.2764,N,08002.4603,W,1,8,1.9,13,M,,M,,*58
06/11/2014	13:01:27.640	$GPGGA,130128,2534.2751,N,08002.4588,W,1,8,1.9,13,M,,M,,*51
06/11/2014	13:01:28.663	$GPGGA,130129,2534.2739,N,08002.4573,W,1,8,1.9,13,M,,M,,*5A
06/11/2014	13:01:29.806	$GPGGA,130130,2534.2728,N,08002.4557,W,1,8,1.9,13,M,,M,,*54
06/11/2014	13:01:30.618	$GPGGA,130131,2534.2714,N,08002.4542,W,1,8,1.9,13,M,,M,,*5E
06/11/2014	13:01:31.641	$GPGGA,130132,2534.2701,N,08002.4526,W,1,8,1.9,13,M,,M,,*5B
06/11/2014	13:01:32.643	$GPGGA,130133,2534.2690,N,08002.4510,W,1,8,1.9,13,M,,M,,*56
06/11/2014	13:01:33.635	$GPGGA,130134,2534.2678,N,08002.4494,W,1,8,2.1,13,M,,M,,*51
06/11/2014	13:01:34.628	$GPGGA,130135,2534.2666,N,08002.4478,W,1,7,2.1,13,M,,M,,*52
06/11/2014	13:01:35.630	$GPGGA,130136,2534.2653,N,08002.4464,W,1,7,2.1,13,M,,M,,*5A
06/11/2014	13:01:36.623	$GPGGA,130137,2534.2641,N,08002.4451,W,1,8,1.9,13,M,,M,,*5A
06/11/2014	13:01:37.625	$GPGGA,130138,2534.2627,N,08002.4436,W,1,8,1.9,13,M,,M,,*54
06/11/2014	13:01:38.778	$GPGGA,130139,2534.2616,N,08002.4421,W,1,8,1.9,13,M,,M,,*51
06/11/2014	13:01:39.811	$GPGGA,130140,2534.2603,N,08002.4406,W,1,8,1.9,13,M,,M,,*5E
06/11/2014	13:01:40.643	$GPGGA,130141,2534.2590,N,08002.4391,W,1,8,1.9,13,M,,M,,*5F
06/11/2014	13:01:41.806	$GPGGA,130142,2534.2577,N,08002.4377,W,1,8,1.9,13,M,,M,,*5D
06/11/2014	13:01:42.750	$GPGGA,130143,2534.2565,N,08002.4362,W,1,8,1.9,13,M,,M,,*5B
06/11/2014	13:01:43.671	$GPGGA,130144,2534.2551,N,08002.4347,W,1,8,1.9,13,M,,M,,*5C
06/11/2014	13:01:44.478	$GPGGA,130145,2534.2538,N,08002.4333,W,1,8,1.9,13,M,,M,,*51
06/11/2014	13:01:45.641	$GPGGA,130146,2534.2525,N,08002.4319,W,1,8,1.9,13,M,,M,,*56
06/11/2014	13:01:46.574	$GPGGA,130147,2534.2513,N,08002.4305,W,1,8,1.9,13,M,,M,,*5F
06/11/2014	13:01:47.667	$GPGGA,130148,2534.2500,N,08002.4292,W,1,8,2.0,13,M,,M,,*57
06/11/2014	13:01:48.599	$GPGGA,130149,2534.2488,N,08002.4279,W,1,7,1.9,13,M,,M,,*57
06/11/2014	13:01:49.701	$GPGGA,130150,2534.2475,N,08002.4265,W,1,7,2.0,13,M,,M,,*5A
06/11/2014	13:01:50.603	$GPGGA,130151,2534.2464,N,08002.4251,W,1,7,2.0,13,M,,M,,*5C
06/11/2014	13:01:51.666	$GPGGA,130152,2534.2449,N,08002.4238,W,1,7,2.0,13,M,,M,,*5F
06/11/2014	13:01:52.619	$GPGGA,130153,2534.2437,N,08002.4224,W,1,8,1.9,13,M,,M,,*5F
06/11/2014	13:01:53.641	$GPGGA,130154,2534.2424,N,08002.4211,W,1,8,1.9,13,M,,M,,*5C
06/11/2014	13:01:54.614	$GPGGA,130155,2534.2411,N,08002.4197,W,1,8,1.9,13,M,,M,,*56
06/11/2014	13:01:55.586	$GPGGA,130156,2534.2399,N,08002.4183,W,1,8,1.9,13,M,,M,,*57
06/11/2014	13:01:56.649	$GPGGA,130157,2534.2386,N,08002.4169,W,1,8,2.0,14,M,,M,,*51
06/11/2014	13:01:57.581	$GPGGA,130158,2534.2374,N,08002.4155,W,1,8,2.0,14,M,,M,,*5C
06/11/2014	13:01:58.625	$GPGGA,130159,2534.2361,N,08002.4142,W,1,7,2.0,14,M,,M,,*50
06/11/2014	13:01:59.677	$GPGGA,130200,2534.2348,N,08002.4128,W,1,7,1.9,14,M,,M,,*52
06/11/2014	13:02:00.682	$GPGGA,130201,2534.2335,N,08002.4113,W,1,8,1.9,14,M,,M,,*5E
06/11/2014	13:02:01.632	$GPGGA,130202,2534.2323,N,08002.4099,W,1,8,1.9,14,M,,M,,*59
06/11/2014	13:02:02.579	$GPGGA,130203,2534.2309,N,08002.4084,W,1,8,1.9,14,M,,M,,*5C
06/11/2014	13:02:03.667	$GPGGA,130204,2534.2296,N,08002.4068,W,1,8,1.9,14,M,,M,,*5E
06/11/2014	13:02:04.592	$GPGGA,130205,2534.2283,N,08002.4054,W,1,8,1.9,14,M,,M,,*54
06/11/2014	13:02:05.642	$GPGGA,130206,2534.2271,N,08002.4039,W,1,8,1.9,14,M,,M,,*51
06/11/2014	13:02:06.575	$GPGGA,130207,2534.2259,N,08002.4024,W,1,8,1.9,14,M,,M,,*56
06/11/2014	13:02:07.589	$GPGGA,130208,2534.2247,N,08002.4009,W,1,8,1.9,14,M,,M,,*59
06/11/2014	13:02:08.649	$GPGGA,130209,2534.2235,N,08002.3994,W,1,8,1.9,14,M,,M,,*57
06/11/2014	13:02:09.582	$GPGGA,130210,2534.2222,N,08002.3979,W,1,8,1.9,14,M,,M,,*5A
06/11/2014	13:02:10.634	$GPGGA,130211,2534.2211,N,08002.3964,W,1,8,1.9,14,M,,M,,*57
06/11/2014	13:02:11.668	$GPGGA,130212,2534.2198,N,08002.3948,W,1,8,1.9,14,M,,M,,*58
06/11/2014	13:02:12.639	$GPGGA,130213,2534.2186,N,08002.3933,W,1,8,1.9,14,M,,M,,*5A
06/11/2014	13:02:13.652	$GPGGA,130214,2534.2175,N,08002.3918,W,1,8,2.1,14,M,,M,,*53
06/11/2014	13:02:14.585	$GPGGA,130215,2534.2161,N,08002.3903,W,1,7,2.1,14,M,,M,,*52
06/11/2014	13:02:15.697	$GPGGA,130216,2534.2150,N,08002.3888,W,1,7,1.9,14,M,,M,,*5A
06/11/2014	13:02:16.710	$GPGGA,130217,2534.2136,N,08002.3873,W,1,8,1.9,14,M,,M,,*50
06/11/2014	13:02:17.652	$GPGGA,130218,2534.2124,N,08002.3858,W,1,8,1.9,14,M,,M,,*55
06/11/2014	13:02:18.645	$GPGGA,130219,2534.2111,N,08002.3843,W,1,8,1.9,14,M,,M,,*58
06/11/2014	13:02:19.658	$GPGGA,130220,2534.2099,N,08002.3828,W,1,8,1.9,14,M,,M,,*5E
06/11/2014	13:02:20.640	$GPGGA,130221,2534.2085,N,08002.3814,W,1,8,1.9,14,M,,M,,*5D
06/11/2014	13:02:21.643	$GPGGA,130222,2534.2074,N,08002.3799,W,1,8,1.9,14,M,,M,,*5A
06/11/2014	13:02:22.716	$GPGGA,130223,2534.2061,N,08002.3784,W,1,8,1.9,14,M,,M,,*53
06/11/2014	13:02:23.709	$GPGGA,130224,2534.2048,N,08002.3768,W,1,8,1.9,14,M,,M,,*5D
06/11/2014	13:02:24.650	$GPGGA,130225,2534.2036,N,08002.3753,W,1,8,1.9,14,M,,M,,*5D
06/11/2014	13:02:25.692	$GPGGA,130226,2534.2023,N,08002.3737,W,1,8,1.9,14,M,,M,,*58
06/11/2014	13:02:26.725	$GPGGA,130227,2534.2011,N,08002.3722,W,1,8,1.9,14,M,,M,,*5C
06/11/2014	13:02:27.667	$GPGGA,130228,2534.1998,N,08002.3706,W,1,8,1.9,14,M,,M,,*5E
06/11/2014	13:02:28.700	$GPGGA,130229,2534.1987,N,08002.3691,W,1,8,1.9,14,M,,M,,*5E
06/11/2014	13:02:29.703	$GPGGA,130230,2534.1975,N,08002.3675,W,1,8,1.9,14,M,,M,,*51
06/11/2014	13:02:30.660	$GPGGA,130231,2534.1963,N,08002.3659,W,1,8,1.9,14,M,,M,,*59
06/11/2014	13:02:31.728	$GPGGA,130232,2534.1951,N,08002.3644,W,1,8,1.9,14,M,,M,,*57
06/11/2014	13:02:32.701	$GPGGA,130233,2534.1940,N,08002.3628,W,1,8,1.9,14,M,,M,,*5C
06/11/2014	13:02:33.693	$GPGGA,130234,2534.1926,N,08002.3612,W,1,8,1.9,14,M,,M,,*52
06/11/2014	13:02:34.686	$GPGGA,130235,2534.1913,N,08002.3597,W,1,8,1.9,14,M,,M,,*5B
06/11/2014	13:02:35.709	$GPGGA,130236,2534.1901,N,08002.3581,W,1,8,2.1,14,M,,M,,*57
06/11/2014	13:02:36.701	$GPGGA,130237,2534.1889,N,08002.3566,W,1,7,2.1,14,M,,M,,*51
06/11/2014	13:02:37.714	$GPGGA,130238,2534.1876,N,08002.3552,W,1,7,1.9,14,M,,M,,*52
06/11/2014	13:02:38.716	$GPGGA,130239,2534.1863,N,08002.3537,W,1,8,1.9,14,M,,M,,*5B
06/11/2014	13:02:39.729	$GPGGA,130240,2534.1851,N,08002.3522,W,1,8,1.9,14,M,,M,,*50
06/11/2014	13:02:40.711	$GPGGA,130241,2534.1839,N,08002.3507,W,1,8,1.9,14,M,,M,,*58
06/11/2014	13:02:41.725	$GPGGA,130242,2534.1826,N,08002.3492,W,1,8,1.9,14,M,,M,,*58
06/11/2014	13:02:42.715	$GPGGA,130243,2534.1812,N,08002.3478,W,1,8,1.9,14,M,,M,,*5A
06/11/2014	13:02:43.728	$GPGGA,130244,2534.1800,N,08002.3463,W,1,8,1.9,14,M,,M,,*54
06/11/2014	13:02:44.577	$GPGGA,130245,2534.1787,N,08002.3448,W,1,8,1.9,14,M,,M,,*5C
06/11/2014	13:02:45.549	$GPGGA,130246,2534.1775,N,08002.3433,W,1,8,1.9,14,M,,M,,*5E
06/11/2014	13:02:46.562	$GPGGA,130247,2534.1763,N,08002.3419,W,1,8,1.9,14,M,,M,,*50
06/11/2014	13:02:47.574	$GPGGA,130248,2534.1749,N,08002.3404,W,1,8,1.9,14,M,,M,,*5B
06/11/2014	13:02:48.557	$GPGGA,130249,2534.1736,N,08002.3389,W,1,8,1.9,14,M,,M,,*50
06/11/2014	13:02:49.560	$GPGGA,130250,2534.1723,N,08002.3374,W,1,8,1.9,14,M,,M,,*5E
06/11/2014	13:02:50.582	$GPGGA,130251,2534.1711,N,08002.3359,W,1,8,1.9,14,M,,M,,*51
06/11/2014	13:02:51.575	$GPGGA,130252,2534.1698,N,08002.3344,W,1,8,1.9,14,M,,M,,*5E
06/11/2014	13:02:52.577	$GPGGA,130253,2534.1685,N,08002.3330,W,1,8,1.9,15,M,,M,,*51
06/11/2014	13:02:53.590	$GPGGA,130254,2534.1673,N,08002.3315,W,1,8,1.9,15,M,,M,,*58
06/11/2014	13:02:54.583	$GPGGA,130255,2534.1660,N,08002.3301,W,1,8,1.9,15,M,,M,,*5E
06/11/2014	13:02:55.605	$GPGGA,130256,2534.1647,N,08002.3287,W,1,8,1.9,15,M,,M,,*57
06/11/2014	13:02:56.578	$GPGGA,130257,2534.1634,N,08002.3272,W,1,8,1.9,15,M,,M,,*58
06/11/2014	13:02:57.561	$GPGGA,130258,2534.1634,N,08002.3272,W,1,8,1.9,15,M,,M,,*57
06/11/2014	13:02:58.593	$GPGGA,130259,2534.1608,N,08002.3243,W,1,8,1.9,15,M,,M,,*5B
06/11/2014	13:02:59.685	$GPGGA,130300,2534.1595,N,08002.3228,W,1,8,1.9,15,M,,M,,*5C
06/11/2014	13:03:00.577	$GPGGA,130301,2534.1582,N,08002.3213,W,1,8,1.9,15,M,,M,,*53
06/11/2014	13:03:01.570	$GPGGA,130302,2534.1582,N,08002.3213,W,1,8,1.9,15,M,,M,,*50
06/11/2014	13:03:02.562	$GPGGA,130303,2534.1557,N,08002.3184,W,1,8,1.9,15,M,,M,,*54
06/11/2014	13:03:03.615	$GPGGA,130304,2534.1544,N,08002.3170,W,1,8,1.9,15,M,,M,,*5A
06/11/2014	13:03:04.558	$GPGGA,130305,2534.1532,N,08002.3155,W,1,8,1.9,15,M,,M,,*5D
06/11/2014	13:03:05.650	$GPGGA,130306,2534.1519,N,08002.3140,W,1,8,1.9,15,M,,M,,*53
06/11/2014	13:03:06.693	$GPGGA,130307,2534.1505,N,08002.3126,W,1,8,1.9,15,M,,M,,*5F
06/11/2014	13:03:07.656	$GPGGA,130308,2534.1493,N,08002.3111,W,1,8,1.9,15,M,,M,,*5A
06/11/2014	13:03:08.569	$GPGGA,130309,2534.1480,N,08002.3096,W,1,8,1.9,15,M,,M,,*57
06/11/2014	13:03:09.651	$GPGGA,130310,2534.1467,N,08002.3081,W,1,8,1.9,15,M,,M,,*50
06/11/2014	13:03:10.563	$GPGGA,130311,2534.1454,N,08002.3066,W,1,8,1.9,15,M,,M,,*58
06/11/2014	13:03:11.686	$GPGGA,130312,2534.1441,N,08002.3051,W,1,8,1.9,15,M,,M,,*5B
06/11/2014	13:03:12.568	$GPGGA,130313,2534.1428,N,08002.3036,W,1,8,1.9,15,M,,M,,*54
06/11/2014	13:03:13.662	$GPGGA,130314,2534.1416,N,08002.3021,W,1,8,1.9,15,M,,M,,*58
06/11/2014	13:03:14.664	$GPGGA,130315,2534.1403,N,08002.3006,W,1,8,1.9,15,M,,M,,*58
06/11/2014	13:03:15.667	$GPGGA,130316,2534.1391,N,08002.2991,W,1,8,1.9,15,M,,M,,*51
06/11/2014	13:03:16.689	$GPGGA,130317,2534.1380,N,08002.2976,W,1,8,1.9,15,M,,M,,*59
06/11/2014	13:03:17.661	$GPGGA,130318,2534.1366,N,08002.2961,W,1,8,1.9,15,M,,M,,*58
06/11/2014	13:03:18.663	$GPGGA,130319,2534.1353,N,08002.2946,W,1,8,1.9,15,M,,M,,*5A
06/11/2014	13:03:19.676	$GPGGA,130320,2534.1340,N,08002.2931,W,1,8,1.9,15,M,,M,,*52
06/11/2014	13:03:20.658	$GPGGA,130321,2534.1327,N,08002.2916,W,1,8,1.9,15,M,,M,,*57
06/11/2014	13:03:21.661	$GPGGA,130322,2534.1315,N,08002.2900,W,1,8,1.9,15,M,,M,,*52
06/11/2014	13:03:22.674	$GPGGA,130323,2534.1302,N,08002.2884,W,1,8,1.9,15,M,,M,,*58
06/11/2014	13:03:23.677	$GPGGA,130324,2534.1290,N,08002.2869,W,1,8,1.9,14,M,,M,,*57
06/11/2014	13:03:24.679	$GPGGA,130325,2534.1277,N,08002.2854,W,1,8,1.9,14,M,,M,,*51
06/11/2014	13:03:25.661	$GPGGA,130326,2534.1264,N,08002.2839,W,1,8,1.9,14,M,,M,,*5B
06/11/2014	13:03:26.684	$GPGGA,130327,2534.1252,N,08002.2823,W,1,8,1.9,14,M,,M,,*54
06/11/2014	13:03:27.676	$GPGGA,130328,2534.1239,N,08002.2808,W,1,8,1.9,14,M,,M,,*5F
06/11/2014	13:03:28.679	$GPGGA,130329,2534.1226,N,08002.2793,W,1,8,1.9,14,M,,M,,*5D
06/11/2014	13:03:29.672	$GPGGA,130330,2534.1214,N,08002.2777,W,1,8,1.9,14,M,,M,,*5E
06/11/2014	13:03:30.674	$GPGGA,130331,2534.1201,N,08002.2762,W,1,8,1.9,14,M,,M,,*5F
06/11/2014	13:03:31.677	$GPGGA,130332,2534.1189,N,08002.2747,W,1,8,1.9,14,M,,M,,*58
06/11/2014	13:03:32.689	$GPGGA,130333,2534.1175,N,08002.2733,W,1,8,1.9,14,M,,M,,*59
06/11/2014	13:03:33.672	$GPGGA,130334,2534.1163,N,08002.2717,W,1,8,1.9,14,M,,M,,*5F
06/11/2014	13:03:34.694	$GPGGA,130335,2534.1150,N,08002.2702,W,1,8,1.9,14,M,,M,,*5A
06/11/2014	13:03:35.686	$GPGGA,130336,2534.1138,N,08002.2687,W,1,8,1.9,14,M,,M,,*5B
06/11/2014	13:03:36.669	$GPGGA,130337,2534.1125,N,08002.2671,W,1,8,1.9,14,M,,M,,*5F
06/11/2014	13:03:37.671	$GPGGA,130338,2534.1113,N,08002.2657,W,1,8,1.9,14,M,,M,,*51
06/11/2014	13:03:38.704	$GPGGA,130339,2534.1099,N,08002.2641,W,1,8,1.9,14,M,,M,,*54
06/11/2014	13:03:39.687	$GPGGA,130340,2534.1086,N,08002.2626,W,1,8,1.9,14,M,,M,,*55
06/11/2014	13:03:40.699	$GPGGA,130341,2534.1074,N,08002.2609,W,1,7,2.1,14,M,,M,,*50
06/11/2014	13:03:41.673	$GPGGA,130342,2534.1062,N,08002.2594,W,1,7,1.9,14,M,,M,,*58
06/11/2014	13:03:42.664	$GPGGA,130343,2534.1049,N,08002.2579,W,1,8,1.9,14,M,,M,,*5C
06/11/2014	13:03:43.697	$GPGGA,130344,2534.1037,N,08002.2564,W,1,8,1.9,14,M,,M,,*5E
06/11/2014	13:03:44.535	$GPGGA,130345,2534.1023,N,08002.2550,W,1,8,1.9,14,M,,M,,*5D
06/11/2014	13:03:45.537	$GPGGA,130346,2534.1010,N,08002.2535,W,1,8,1.9,14,M,,M,,*5D
06/11/2014	13:03:46.530	$GPGGA,130347,2534.0997,N,08002.2521,W,1,8,1.9,14,M,,M,,*5E
06/11/2014	13:03:47.545	$GPGGA,130348,2534.0983,N,08002.2506,W,1,8,1.9,14,M,,M,,*51
06/11/2014	13:03:48.505	$GPGGA,130349,2534.0970,N,08002.2491,W,1,8,1.9,14,M,,M,,*53
06/11/2014	13:03:49.628	$GPGGA,130350,2534.0958,N,08002.2476,W,1,8,1.9,14,M,,M,,*58
06/11/2014	13:03:50.511	$GPGGA,130351,2534.0945,N,08002.2460,W,1,8,1.9,14,M,,M,,*52
06/11/2014	13:03:51.623	$GPGGA,130352,2534.0933,N,08002.2445,W,1,8,1.9,14,M,,M,,*57
06/11/2014	13:03:52.525	$GPGGA,130353,2534.0921,N,08002.2430,W,1,8,1.9,14,M,,M,,*57
06/11/2014	13:03:53.607	$GPGGA,130354,2534.0908,N,08002.2415,W,1,8,1.9,14,M,,M,,*5C
06/11/2014	13:03:54.620	$GPGGA,130355,2534.0896,N,08002.2401,W,1,8,1.9,14,M,,M,,*5E
06/11/2014	13:03:55.642	$GPGGA,130356,2534.0883,N,08002.2386,W,1,8,1.9,14,M,,M,,*51
06/11/2014	13:03:56.515	$GPGGA,130357,2534.0871,N,08002.2371,W,1,8,1.9,14,M,,M,,*55
06/11/2014	13:03:57.618	$GPGGA,130358,2534.0857,N,08002.2356,W,1,8,1.9,14,M,,M,,*5B
06/11/2014	13:03:58.620	$GPGGA,130359,2534.0845,N,08002.2340,W,1,8,1.9,14,M,,M,,*5E
06/11/2014	13:03:59.553	$GPGGA,130400,2534.0832,N,08002.2326,W,1,8,1.9,14,M,,M,,*55
06/11/2014	13:04:00.615	$GPGGA,130401,2534.0820,N,08002.2310,W,1,8,1.9,14,M,,M,,*52
06/11/2014	13:04:01.528	$GPGGA,130402,2534.0807,N,08002.2296,W,1,8,1.9,14,M,,M,,*5B
06/11/2014	13:04:02.631	$GPGGA,130403,2534.0795,N,08002.2281,W,1,8,1.9,14,M,,M,,*58
06/11/2014	13:04:03.643	$GPGGA,130404,2534.0782,N,08002.2266,W,1,8,1.9,14,M,,M,,*50
06/11/2014	13:04:04.656	$GPGGA,130405,2534.0770,N,08002.2251,W,1,8,1.9,14,M,,M,,*58
06/11/2014	13:04:05.608	$GPGGA,130406,2534.0757,N,08002.2237,W,1,8,1.9,14,M,,M,,*5E
06/11/2014	13:04:07.935	$GPGGA,130408,2534.0732,N,08002.2207,W,1,8,1.9,14,M,,M,,*50
06/11/2014	13:04:08.658	$GPGGA,130409,2534.0719,N,08002.2192,W,1,8,1.9,14,M,,M,,*57
06/11/2014	13:04:09.628	$GPGGA,130410,2534.0706,N,08002.2177,W,1,8,1.9,14,M,,M,,*5A
06/11/2014	13:04:10.640	$GPGGA,130411,2534.0694,N,08002.2162,W,1,8,1.9,14,M,,M,,*55
06/11/2014	13:04:11.633	$GPGGA,130412,2534.0680,N,08002.2148,W,1,8,1.9,14,M,,M,,*5B
06/11/2014	13:04:12.646	$GPGGA,130413,2534.0667,N,08002.2133,W,1,8,1.9,14,M,,M,,*5F
06/11/2014	13:04:13.618	$GPGGA,130414,2534.0654,N,08002.2119,W,1,8,1.9,14,M,,M,,*50
06/11/2014	13:04:14.651	$GPGGA,130415,2534.0641,N,08002.2104,W,1,8,1.9,14,M,,M,,*59
06/11/2014	13:04:15.633	$GPGGA,130416,2534.0629,N,08002.2090,W,1,8,1.9,14,M,,M,,*58
06/11/2014	13:04:16.646	$GPGGA,130417,2534.0616,N,08002.2075,W,1,8,1.9,14,M,,M,,*5E
06/11/2014	13:04:17.626	$GPGGA,130418,2534.0603,N,08002.2061,W,1,8,1.9,14,M,,M,,*50
06/11/2014	13:04:18.641	$GPGGA,130419,2534.0590,N,08002.2047,W,1,8,1.9,14,M,,M,,*5C
06/11/2014	13:04:19.644	$GPGGA,130420,2534.0578,N,08002.2032,W,1,8,1.9,14,M,,M,,*52
06/11/2014	13:04:20.656	$GPGGA,130421,2534.0564,N,08002.2017,W,1,8,1.9,14,M,,M,,*59
06/11/2014	13:04:21.629	$GPGGA,130422,2534.0551,N,08002.2003,W,1,8,1.9,14,M,,M,,*59
06/11/2014	13:04:22.661	$GPGGA,130423,2534.0538,N,08002.1989,W,1,8,1.9,14,M,,M,,*5F
06/11/2014	13:04:23.638	$GPGGA,130424,2534.0524,N,08002.1974,W,1,8,1.9,14,M,,M,,*57
06/11/2014	13:04:24.667	$GPGGA,130425,2534.0513,N,08002.1960,W,1,8,1.9,14,M,,M,,*57
06/11/2014	13:04:25.640	$GPGGA,130426,2534.0499,N,08002.1946,W,1,8,1.9,14,M,,M,,*53
06/11/2014	13:04:26.652	$GPGGA,130427,2534.0486,N,08002.1931,W,1,8,1.9,13,M,,M,,*5B
06/11/2014	13:04:27.637	$GPGGA,130428,2534.0473,N,08002.1917,W,1,8,1.9,13,M,,M,,*5A
06/11/2014	13:04:28.626	$GPGGA,130429,2534.0460,N,08002.1902,W,1,8,1.9,13,M,,M,,*5D
06/11/2014	13:04:29.640	$GPGGA,130430,2534.0448,N,08002.1887,W,1,8,1.9,13,M,,M,,*53
06/11/2014	13:04:30.661	$GPGGA,130431,2534.0434,N,08002.1873,W,1,8,1.9,13,M,,M,,*52
06/11/2014	13:04:31.774	$GPGGA,130432,2534.0423,N,08002.1858,W,1,8,1.9,13,M,,M,,*5E
06/11/2014	13:04:32.650	$GPGGA,130433,2534.0409,N,08002.1844,W,1,8,1.9,13,M,,M,,*5A
06/11/2014	13:04:33.619	$GPGGA,130434,2534.0396,N,08002.1829,W,1,8,1.9,13,M,,M,,*57
06/11/2014	13:04:34.665	$GPGGA,130435,2534.0384,N,08002.1814,W,1,8,1.9,13,M,,M,,*5B
06/11/2014	13:04:35.663	$GPGGA,130436,2534.0372,N,08002.1800,W,1,8,1.9,13,M,,M,,*54
06/11/2014	13:04:36.647	$GPGGA,130437,2534.0359,N,08002.1785,W,1,8,1.9,13,M,,M,,*5E
06/11/2014	13:04:37.650	$GPGGA,130438,2534.0347,N,08002.1770,W,1,8,1.9,13,M,,M,,*54
06/11/2014	13:04:38.752	$GPGGA,130439,2534.0333,N,08002.1755,W,1,8,1.9,13,M,,M,,*51
06/11/2014	13:04:39.657	$GPGGA,130440,2534.0320,N,08002.1739,W,1,8,1.9,13,M,,M,,*57
06/11/2014	13:04:40.627	$GPGGA,130441,2534.0308,N,08002.1724,W,1,8,1.9,13,M,,M,,*50
06/11/2014	13:04:41.730	$GPGGA,130442,2534.0295,N,08002.1709,W,1,8,1.9,13,M,,M,,*59
06/11/2014	13:04:42.775	$GPGGA,130443,2534.0282,N,08002.1694,W,1,8,1.9,13,M,,M,,*5B
06/11/2014	13:04:43.765	$GPGGA,130444,2534.0271,N,08002.1678,W,1,8,1.9,13,M,,M,,*52
06/11/2014	13:04:44.482	$GPGGA,130445,2534.0257,N,08002.1663,W,1,8,1.9,13,M,,M,,*5D
06/11/2014	13:04:45.575	$GPGGA,130446,2534.0246,N,08002.1648,W,1,8,2.1,13,M,,M,,*5C
06/11/2014	13:04:46.608	$GPGGA,130447,2534.0232,N,08002.1632,W,1,7,2.1,13,M,,M,,*5C
06/11/2014	13:04:47.501	$GPGGA,130448,2534.0220,N,08002.1617,W,1,7,2.1,13,M,,M,,*57
06/11/2014	13:04:48.493	$GPGGA,130449,2534.0208,N,08002.1601,W,1,8,1.9,13,M,,M,,*5F
06/11/2014	13:04:49.586	$GPGGA,130450,2534.0195,N,08002.1585,W,1,8,2.1,13,M,,M,,*54
06/11/2014	13:04:50.598	$GPGGA,130451,2534.0183,N,08002.1570,W,1,7,2.1,13,M,,M,,*57
06/11/2014	13:04:51.601	$GPGGA,130452,2534.0171,N,08002.1555,W,1,7,1.9,13,M,,M,,*55
06/11/2014	13:04:52.604	$GPGGA,130453,2534.0159,N,08002.1539,W,1,8,1.9,13,M,,M,,*5B
06/11/2014	13:04:53.586	$GPGGA,130454,2534.0148,N,08002.1524,W,1,8,1.9,14,M,,M,,*57
06/11/2014	13:04:54.609	$GPGGA,130455,2534.0134,N,08002.1508,W,1,7,2.1,14,M,,M,,*57
06/11/2014	13:04:55.601	$GPGGA,130456,2534.0123,N,08002.1492,W,1,7,2.1,14,M,,M,,*50
06/11/2014	13:04:56.614	$GPGGA,130457,2534.0110,N,08002.1477,W,1,7,2.1,14,M,,M,,*5A
06/11/2014	13:04:57.586	$GPGGA,130458,2534.0098,N,08002.1461,W,1,7,2.1,14,M,,M,,*53
06/11/2014	13:04:58.599	$GPGGA,130459,2534.0087,N,08002.1445,W,1,7,2.1,14,M,,M,,*5A
06/11/2014	13:04:59.612	$GPGGA,130500,2534.0074,N,08002.1430,W,1,7,1.9,14,M,,M,,*52
06/11/2014	13:05:00.604	$GPGGA,130501,2534.0061,N,08002.1413,W,1,8,1.9,14,M,,M,,*59
06/11/2014	13:05:01.597	$GPGGA,130502,2534.0048,N,08002.1397,W,1,8,1.9,14,M,,M,,*5A
06/11/2014	13:05:02.608	$GPGGA,130503,2534.0036,N,08002.1383,W,1,8,1.9,14,M,,M,,*57
06/11/2014	13:05:03.621	$GPGGA,130504,2534.0024,N,08002.1368,W,1,8,1.9,14,M,,M,,*56
06/11/2014	13:05:04.604	$GPGGA,130505,2534.0012,N,08002.1355,W,1,8,1.9,14,M,,M,,*5C
06/11/2014	13:05:05.598	$GPGGA,130506,2534.0000,N,08002.1340,W,1,8,1.9,14,M,,M,,*58
06/11/2014	13:05:06.609	$GPGGA,130507,2533.9989,N,08002.1326,W,1,8,1.9,14,M,,M,,*5F
06/11/2014	13:05:07.602	$GPGGA,130508,2533.9977,N,08002.1312,W,1,8,1.9,14,M,,M,,*56
06/11/2014	13:05:08.624	$GPGGA,130509,2533.9965,N,08002.1298,W,1,8,1.9,14,M,,M,,*57
06/11/2014	13:05:09.588	$GPGGA,130510,2533.9953,N,08002.1283,W,1,8,1.9,14,M,,M,,*50
06/11/2014	13:05:10.629	$GPGGA,130511,2533.9939,N,08002.1268,W,1,8,1.9,14,M,,M,,*58
06/11/2014	13:05:11.605	$GPGGA,130512,2533.9926,N,08002.1254,W,1,8,1.9,15,M,,M,,*5B
06/11/2014	13:05:12.634	$GPGGA,130513,2533.9914,N,08002.1239,W,1,8,1.9,15,M,,M,,*50
06/11/2014	13:05:13.603	$GPGGA,130514,2533.9900,N,08002.1225,W,1,8,1.9,15,M,,M,,*5F
06/11/2014	13:05:14.590	$GPGGA,130515,2533.9888,N,08002.1211,W,1,8,1.9,15,M,,M,,*58
06/11/2014	13:05:15.622	$GPGGA,130516,2533.9875,N,08002.1196,W,1,8,1.9,15,M,,M,,*55
06/11/2014	13:05:16.616	$GPGGA,130517,2533.9863,N,08002.1182,W,1,8,1.9,15,M,,M,,*56
06/11/2014	13:05:17.621	$GPGGA,130518,2533.9850,N,08002.1167,W,1,8,1.9,15,M,,M,,*52
06/11/2014	13:05:18.625	$GPGGA,130519,2533.9837,N,08002.1153,W,1,8,1.9,15,M,,M,,*55
06/11/2014	13:05:19.725	$GPGGA,130520,2533.9825,N,08002.1138,W,1,8,1.9,15,M,,M,,*51
06/11/2014	13:05:20.627	$GPGGA,130521,2533.9812,N,08002.1124,W,1,8,1.9,15,M,,M,,*59
06/11/2014	13:05:21.587	$GPGGA,130522,2533.9798,N,08002.1109,W,1,8,1.9,15,M,,M,,*58
06/11/2014	13:05:22.599	$GPGGA,130523,2533.9785,N,08002.1095,W,1,8,1.9,15,M,,M,,*51
06/11/2014	13:05:23.612	$GPGGA,130524,2533.9771,N,08002.1080,W,1,8,1.9,15,M,,M,,*59
06/11/2014	13:05:24.625	$GPGGA,130525,2533.9758,N,08002.1065,W,1,8,1.9,15,M,,M,,*58
06/11/2014	13:05:25.597	$GPGGA,130526,2533.9745,N,08002.1051,W,1,8,1.9,15,M,,M,,*50
06/11/2014	13:05:26.720	$GPGGA,130527,2533.9733,N,08002.1037,W,1,8,1.9,15,M,,M,,*50
06/11/2014	13:05:27.622	$GPGGA,130528,2533.9720,N,08002.1022,W,1,8,1.9,15,M,,M,,*59
06/11/2014	13:05:28.615	$GPGGA,130529,2533.9707,N,08002.1009,W,1,8,1.9,15,M,,M,,*54
06/11/2014	13:05:29.698	$GPGGA,130530,2533.9694,N,08002.0994,W,1,8,1.9,15,M,,M,,*5B
06/11/2014	13:05:30.700	$GPGGA,130531,2533.9682,N,08002.0980,W,1,8,1.9,15,M,,M,,*58
06/11/2014	13:05:31.723	$GPGGA,130532,2533.9668,N,08002.0965,W,1,8,1.9,15,M,,M,,*54
06/11/2014	13:05:32.615	$GPGGA,130533,2533.9655,N,08002.0951,W,1,8,1.9,15,M,,M,,*5C
06/11/2014	13:05:33.718	$GPGGA,130534,2533.9641,N,08002.0936,W,1,8,1.9,15,M,,M,,*5F
06/11/2014	13:05:34.722	$GPGGA,130535,2533.9628,N,08002.0922,W,1,8,1.9,15,M,,M,,*54
06/11/2014	13:05:35.723	$GPGGA,130536,2533.9615,N,08002.0907,W,1,8,1.9,15,M,,M,,*5E
06/11/2014	13:05:36.726	$GPGGA,130537,2533.9603,N,08002.0893,W,1,8,1.9,15,M,,M,,*54
06/11/2014	13:05:37.697	$GPGGA,130538,2533.9590,N,08002.0878,W,1,8,1.9,15,M,,M,,*57
06/11/2014	13:05:38.730	$GPGGA,130539,2533.9577,N,08002.0863,W,1,8,1.9,15,M,,M,,*55
06/11/2014	13:05:39.723	$GPGGA,130540,2533.9564,N,08002.0849,W,1,8,1.9,15,M,,M,,*51
06/11/2014	13:05:40.725	$GPGGA,130541,2533.9552,N,08002.0833,W,1,8,1.9,15,M,,M,,*58
06/11/2014	13:05:41.698	$GPGGA,130542,2533.9539,N,08002.0818,W,1,8,1.9,15,M,,M,,*5F
06/11/2014	13:05:42.710	$GPGGA,130543,2533.9527,N,08002.0803,W,1,8,1.9,15,M,,M,,*5B
06/11/2014	13:05:43.723	$GPGGA,130544,2533.9513,N,08002.0788,W,1,8,1.9,15,M,,M,,*57
06/11/2014	13:05:44.572	$GPGGA,130545,2533.9500,N,08002.0773,W,1,8,1.9,15,M,,M,,*50
06/11/2014	13:05:45.554	$GPGGA,130546,2533.9488,N,08002.0758,W,1,8,2.1,15,M,,M,,*50
06/11/2014	13:05:46.577	$GPGGA,130547,2533.9476,N,08002.0744,W,1,8,1.9,15,M,,M,,*56
06/11/2014	13:05:47.569	$GPGGA,130548,2533.9464,N,08002.0728,W,1,8,1.9,15,M,,M,,*50
06/11/2014	13:05:48.572	$GPGGA,130549,2533.9451,N,08002.0713,W,1,7,2.1,15,M,,M,,*5B
06/11/2014	13:05:49.565	$GPGGA,130550,2533.9440,N,08002.0698,W,1,7,1.9,15,M,,M,,*5A
06/11/2014	13:05:50.577	$GPGGA,130551,2533.9427,N,08002.0682,W,1,8,1.9,15,M,,M,,*5E
06/11/2014	13:05:51.570	$GPGGA,130552,2533.9415,N,08002.0667,W,1,8,1.9,16,M,,M,,*54
06/11/2014	13:05:52.552	$GPGGA,130553,2533.9402,N,08002.0651,W,1,8,1.9,16,M,,M,,*56
06/11/2014	13:05:53.556	$GPGGA,130554,2533.9390,N,08002.0635,W,1,8,1.9,16,M,,M,,*5F
06/11/2014	13:05:54.587	$GPGGA,130555,2533.9377,N,08002.0619,W,1,8,1.9,16,M,,M,,*59
06/11/2014	13:05:55.569	$GPGGA,130556,2533.9365,N,08002.0604,W,1,8,1.9,16,M,,M,,*55
06/11/2014	13:05:56.572	$GPGGA,130557,2533.9353,N,08002.0588,W,1,8,1.9,16,M,,M,,*56
06/11/2014	13:05:57.564	$GPGGA,130558,2533.9341,N,08002.0572,W,1,8,1.9,16,M,,M,,*5F
06/11/2014	13:05:58.567	$GPGGA,130559,2533.9329,N,08002.0557,W,1,8,1.9,16,M,,M,,*57
06/11/2014	13:05:59.580	$GPGGA,130600,2533.9317,N,08002.0541,W,1,8,1.9,16,M,,M,,*52
06/11/2014	13:06:00.553	$GPGGA,130601,2533.9305,N,08002.0526,W,1,8,1.9,16,M,,M,,*51
06/11/2014	13:06:01.555	$GPGGA,130602,2533.9292,N,08002.0510,W,1,8,1.9,16,M,,M,,*58
06/11/2014	13:06:02.557	$GPGGA,130603,2533.9281,N,08002.0494,W,1,8,1.9,16,M,,M,,*56
06/11/2014	13:06:03.690	$GPGGA,130604,2533.9267,N,08002.0478,W,1,8,1.9,16,M,,M,,*5B
06/11/2014	13:06:04.566	$GPGGA,130605,2533.9254,N,08002.0461,W,1,8,1.9,16,M,,M,,*52
06/11/2014	13:06:05.676	$GPGGA,130606,2533.9243,N,08002.0446,W,1,8,1.9,16,M,,M,,*52
06/11/2014	13:06:06.558	$GPGGA,130607,2533.9230,N,08002.0430,W,1,8,1.9,16,M,,M,,*56
06/11/2014	13:06:07.692	$GPGGA,130608,2533.9220,N,08002.0416,W,1,8,1.9,16,M,,M,,*5C
06/11/2014	13:06:08.583	$GPGGA,130609,2533.9209,N,08002.0401,W,1,8,1.9,16,M,,M,,*50
06/11/2014	13:06:09.566	$GPGGA,130610,2533.9198,N,08002.0388,W,1,8,1.9,16,M,,M,,*55
06/11/2014	13:06:10.580	$GPGGA,130611,2533.9187,N,08002.0374,W,1,7,1.9,16,M,,M,,*56
06/11/2014	13:06:11.694	$GPGGA,130612,2533.9177,N,08002.0362,W,1,7,1.9,16,M,,M,,*5D
06/11/2014	13:06:12.582	$GPGGA,130613,2533.9166,N,08002.0351,W,1,8,1.9,16,M,,M,,*53
06/11/2014	13:06:13.575	$GPGGA,130614,2533.9155,N,08002.0340,W,1,8,2.1,16,M,,M,,*5F
06/11/2014	13:06:14.578	$GPGGA,130615,2533.9144,N,08002.0331,W,1,7,2.1,16,M,,M,,*57
06/11/2014	13:06:15.591	$GPGGA,130616,2533.9130,N,08002.0323,W,1,7,2.1,16,M,,M,,*54
06/11/2014	13:06:16.583	$GPGGA,130617,2533.9119,N,08002.0316,W,1,8,1.9,16,M,,M,,*5C
06/11/2014	13:06:17.666	$GPGGA,130618,2533.9108,N,08002.0311,W,1,8,1.9,16,M,,M,,*54
06/11/2014	13:06:18.678	$GPGGA,130619,2533.9098,N,08002.0305,W,1,8,2.1,16,M,,M,,*53
06/11/2014	13:06:19.580	$GPGGA,130620,2533.9086,N,08002.0301,W,1,8,2.1,16,M,,M,,*52
06/11/2014	13:06:20.693	$GPGGA,130621,2533.9074,N,08002.0299,W,1,8,1.9,16,M,,M,,*55
06/11/2014	13:06:21.656	$GPGGA,130622,2533.9062,N,08002.0298,W,1,8,1.9,16,M,,M,,*50
06/11/2014	13:06:22.689	$GPGGA,130623,2533.9047,N,08002.0297,W,1,8,1.9,16,M,,M,,*59
06/11/2014	13:06:23.671	$GPGGA,130624,2533.9033,N,08002.0296,W,1,8,2.1,16,M,,M,,*57
06/11/2014	13:06:24.715	$GPGGA,130625,2533.9019,N,08002.0297,W,1,7,1.9,16,M,,M,,*5B
06/11/2014	13:06:25.676	$GPGGA,130626,2533.9004,N,08002.0297,W,1,7,2.1,16,M,,M,,*5F
06/11/2014	13:06:26.689	$GPGGA,130627,2533.8989,N,08002.0297,W,1,7,2.1,17,M,,M,,*52
06/11/2014	13:06:27.681	$GPGGA,130628,2533.8978,N,08002.0300,W,1,7,1.9,17,M,,M,,*57
06/11/2014	13:06:28.684	$GPGGA,130629,2533.8962,N,08002.0301,W,1,7,1.9,17,M,,M,,*5C
06/11/2014	13:06:29.676	$GPGGA,130630,2533.8946,N,08002.0303,W,1,7,1.9,17,M,,M,,*50
06/11/2014	13:06:30.708	$GPGGA,130631,2533.8931,N,08002.0304,W,1,8,1.9,17,M,,M,,*59
06/11/2014	13:06:31.681	$GPGGA,130632,2533.8915,N,08002.0307,W,1,8,2.4,17,M,,M,,*51
06/11/2014	13:06:32.693	$GPGGA,130633,2533.8899,N,08002.0311,W,1,6,2.4,17,M,,M,,*5C
06/11/2014	13:06:33.686	$GPGGA,130634,2533.8884,N,08002.0311,W,1,6,2.4,17,M,,M,,*57
06/11/2014	13:06:34.699	$GPGGA,130635,2533.8866,N,08002.0314,W,1,6,2.4,17,M,,M,,*5F
06/11/2014	13:06:35.691	$GPGGA,130636,2533.8853,N,08002.0316,W,1,6,2.1,17,M,,M,,*5D
06/11/2014	13:06:36.674	$GPGGA,130637,2533.8838,N,08002.0316,W,1,7,1.9,17,M,,M,,*5B
06/11/2014	13:06:37.676	$GPGGA,130638,2533.8823,N,08002.0318,W,1,7,1.9,16,M,,M,,*51
06/11/2014	13:06:38.699	$GPGGA,130639,2533.8809,N,08002.0319,W,1,8,1.9,16,M,,M,,*56
06/11/2014	13:06:39.692	$GPGGA,130640,2533.8794,N,08002.0321,W,1,8,1.9,16,M,,M,,*58
06/11/2014	13:06:40.704	$GPGGA,130641,2533.8779,N,08002.0322,W,1,8,1.9,17,M,,M,,*58
06/11/2014	13:06:41.687	$GPGGA,130642,2533.8766,N,08002.0322,W,1,8,1.9,17,M,,M,,*55
06/11/2014	13:06:42.709	$GPGGA,130643,2533.8751,N,08002.0323,W,1,8,1.9,17,M,,M,,*51
06/11/2014	13:06:43.692	$GPGGA,130644,2533.8736,N,08002.0323,W,1,8,1.9,17,M,,M,,*57
06/11/2014	13:06:44.550	$GPGGA,130645,2533.8721,N,08002.0323,W,1,8,1.9,17,M,,M,,*50
06/11/2014	13:06:45.523	$GPGGA,130646,2533.8705,N,08002.0325,W,1,8,1.9,17,M,,M,,*53
06/11/2014	13:06:46.535	$GPGGA,130647,2533.8689,N,08002.0324,W,1,8,1.9,17,M,,M,,*56
06/11/2014	13:06:47.546	$GPGGA,130648,2533.8672,N,08002.0325,W,1,8,1.9,17,M,,M,,*5C
06/11/2014	13:06:48.529	$GPGGA,130649,2533.8656,N,08002.0326,W,1,8,1.9,17,M,,M,,*58
06/11/2014	13:06:49.542	$GPGGA,130650,2533.8639,N,08002.0326,W,1,8,1.9,17,M,,M,,*59
06/11/2014	13:06:50.548	$GPGGA,130651,2533.8624,N,08002.0327,W,1,8,1.9,17,M,,M,,*55
06/11/2014	13:06:51.548	$GPGGA,130652,2533.8607,N,08002.0329,W,1,8,1.9,17,M,,M,,*59
06/11/2014	13:06:52.559	$GPGGA,130653,2533.8592,N,08002.0327,W,1,8,1.9,17,M,,M,,*59
06/11/2014	13:06:53.523	$GPGGA,130654,2533.8577,N,08002.0329,W,1,8,1.9,17,M,,M,,*5B
06/11/2014	13:06:54.525	$GPGGA,130655,2533.8563,N,08002.0329,W,1,8,1.9,17,M,,M,,*5F
06/11/2014	13:06:55.567	$GPGGA,130656,2533.8548,N,08002.0328,W,1,8,2.1,17,M,,M,,*5F
06/11/2014	13:06:56.520	$GPGGA,130657,2533.8531,N,08002.0329,W,1,7,1.9,17,M,,M,,*55
06/11/2014	13:06:57.560	$GPGGA,130658,2533.8514,N,08002.0332,W,1,7,1.9,17,M,,M,,*57
06/11/2014	13:06:58.555	$GPGGA,130659,2533.8498,N,08002.0332,W,1,8,1.9,17,M,,M,,*5C
06/11/2014	13:06:59.569	$GPGGA,130700,2533.8481,N,08002.0332,W,1,8,1.9,17,M,,M,,*59
06/11/2014	13:07:00.530	$GPGGA,130701,2533.8465,N,08002.0333,W,1,8,1.9,17,M,,M,,*53
06/11/2014	13:07:01.623	$GPGGA,130702,2533.8449,N,08002.0336,W,1,8,1.9,17,M,,M,,*5B
06/11/2014	13:07:02.545	$GPGGA,130703,2533.8433,N,08002.0334,W,1,8,1.9,17,M,,M,,*55
06/11/2014	13:07:03.649	$GPGGA,130704,2533.8418,N,08002.0336,W,1,8,1.9,17,M,,M,,*59
06/11/2014	13:07:04.640	$GPGGA,130705,2533.8402,N,08002.0339,W,1,8,1.9,17,M,,M,,*5C
06/11/2014	13:07:05.622	$GPGGA,130706,2533.8386,N,08002.0338,W,1,8,1.9,17,M,,M,,*55
06/11/2014	13:07:06.625	$GPGGA,130707,2533.8371,N,08002.0340,W,1,8,1.9,17,M,,M,,*53
06/11/2014	13:07:07.648	$GPGGA,130708,2533.8355,N,08002.0343,W,1,8,1.9,17,M,,M,,*59
06/11/2014	13:07:08.650	$GPGGA,130709,2533.8339,N,08002.0342,W,1,8,1.9,17,M,,M,,*53
06/11/2014	13:07:09.623	$GPGGA,130710,2533.8324,N,08002.0343,W,1,8,1.9,17,M,,M,,*56
06/11/2014	13:07:10.645	$GPGGA,130711,2533.8306,N,08002.0345,W,1,8,1.9,17,M,,M,,*51
06/11/2014	13:07:11.648	$GPGGA,130712,2533.8289,N,08002.0347,W,1,8,1.9,17,M,,M,,*56
06/11/2014	13:07:12.661	$GPGGA,130713,2533.8273,N,08002.0347,W,1,8,1.9,17,M,,M,,*52
06/11/2014	13:07:13.633	$GPGGA,130714,2533.8256,N,08002.0348,W,1,8,1.9,17,M,,M,,*5D
06/11/2014	13:07:14.656	$GPGGA,130715,2533.8241,N,08002.0350,W,1,8,1.9,17,M,,M,,*53
06/11/2014	13:07:15.638	$GPGGA,130716,2533.8224,N,08002.0350,W,1,8,1.9,17,M,,M,,*53
06/11/2014	13:07:18.024	$GPGGA,130718,2533.8194,N,08002.0352,W,1,8,1.9,17,M,,M,,*57
06/11/2014	13:07:18.656	$GPGGA,130719,2533.8178,N,08002.0352,W,1,8,1.9,17,M,,M,,*54
06/11/2014	13:07:19.639	$GPGGA,130720,2533.8162,N,08002.0354,W,1,8,1.9,17,M,,M,,*53
06/11/2014	13:07:20.661	$GPGGA,130721,2533.8145,N,08002.0354,W,1,8,1.9,17,M,,M,,*57
06/11/2014	13:07:21.634	$GPGGA,130722,2533.8129,N,08002.0354,W,1,8,1.9,17,M,,M,,*5E
06/11/2014	13:07:22.665	$GPGGA,130723,2533.8112,N,08002.0355,W,1,8,1.9,17,M,,M,,*56
06/11/2014	13:07:23.648	$GPGGA,130724,2533.8096,N,08002.0355,W,1,8,1.9,17,M,,M,,*5C
06/11/2014	13:07:24.631	$GPGGA,130725,2533.8079,N,08002.0355,W,1,7,2.4,17,M,,M,,*5D
06/11/2014	13:07:25.643	$GPGGA,130726,2533.8064,N,08002.0357,W,1,7,1.9,17,M,,M,,*5E
06/11/2014	13:07:26.676	$GPGGA,130727,2533.8047,N,08002.0356,W,1,8,1.9,17,M,,M,,*50
06/11/2014	13:07:27.658	$GPGGA,130728,2533.8031,N,08002.0355,W,1,8,1.9,17,M,,M,,*5D
06/11/2014	13:07:28.671	$GPGGA,130729,2533.8014,N,08002.0355,W,1,8,1.9,17,M,,M,,*5B
06/11/2014	13:07:29.646	$GPGGA,130730,2533.7999,N,08002.0355,W,1,8,1.9,17,M,,M,,*50
06/11/2014	13:07:30.666	$GPGGA,130731,2533.7984,N,08002.0355,W,1,8,1.9,17,M,,M,,*5D
06/11/2014	13:07:31.649	$GPGGA,130732,2533.7967,N,08002.0354,W,1,8,1.9,17,M,,M,,*52
06/11/2014	13:07:32.641	$GPGGA,130733,2533.7952,N,08002.0353,W,1,8,1.9,17,M,,M,,*52
06/11/2014	13:07:33.654	$GPGGA,130734,2533.7934,N,08002.0352,W,1,8,1.9,17,M,,M,,*54
06/11/2014	13:07:34.660	$GPGGA,130735,2533.7917,N,08002.0351,W,1,8,1.9,17,M,,M,,*57
06/11/2014	13:07:35.769	$GPGGA,130736,2533.7901,N,08002.0350,W,1,8,1.9,17,M,,M,,*52
06/11/2014	13:07:36.647	$GPGGA,130737,2533.7884,N,08002.0349,W,1,8,1.9,17,M,,M,,*57
06/11/2014	13:07:37.755	$GPGGA,130738,2533.7867,N,08002.0350,W,1,8,1.9,17,M,,M,,*5D
06/11/2014	13:07:38.738	$GPGGA,130739,2533.7850,N,08002.0348,W,1,8,1.9,17,M,,M,,*51
06/11/2014	13:07:39.651	$GPGGA,130740,2533.7834,N,08002.0346,W,1,8,1.9,17,M,,M,,*53
06/11/2014	13:07:40.662	$GPGGA,130741,2533.7818,N,08002.0347,W,1,8,1.9,17,M,,M,,*5D
06/11/2014	13:07:41.644	$GPGGA,130742,2533.7802,N,08002.0346,W,1,8,1.9,17,M,,M,,*54
06/11/2014	13:07:42.636	$GPGGA,130743,2533.7786,N,08002.0344,W,1,8,1.9,17,M,,M,,*54
06/11/2014	13:07:43.771	$GPGGA,130744,2533.7771,N,08002.0344,W,1,8,1.9,17,M,,M,,*5B
06/11/2014	13:07:44.608	$GPGGA,130745,2533.7754,N,08002.0343,W,1,8,1.9,18,M,,M,,*55
06/11/2014	13:07:45.500	$GPGGA,130746,2533.7738,N,08002.0342,W,1,8,1.9,18,M,,M,,*5D
06/11/2014	13:07:46.483	$GPGGA,130747,2533.7721,N,08002.0343,W,1,8,1.9,18,M,,M,,*55
06/11/2014	13:07:47.616	$GPGGA,130748,2533.7706,N,08002.0342,W,1,8,1.9,18,M,,M,,*5E
06/11/2014	13:07:48.588	$GPGGA,130749,2533.7689,N,08002.0341,W,1,8,1.9,18,M,,M,,*5A
06/11/2014	13:07:49.500	$GPGGA,130750,2533.7672,N,08002.0341,W,1,8,1.9,18,M,,M,,*56
06/11/2014	13:07:50.603	$GPGGA,130751,2533.7656,N,08002.0341,W,1,8,1.9,18,M,,M,,*51
06/11/2014	13:07:51.596	$GPGGA,130752,2533.7641,N,08002.0340,W,1,8,1.9,18,M,,M,,*55
06/11/2014	13:07:52.599	$GPGGA,130753,2533.7624,N,08002.0340,W,1,8,1.9,18,M,,M,,*57
06/11/2014	13:07:53.601	$GPGGA,130754,2533.7609,N,08002.0340,W,1,8,1.9,18,M,,M,,*5F
06/11/2014	13:07:54.615	$GPGGA,130755,2533.7594,N,08002.0340,W,1,8,1.9,18,M,,M,,*59
06/11/2014	13:07:55.606	$GPGGA,130756,2533.7577,N,08002.0340,W,1,8,1.9,18,M,,M,,*57
06/11/2014	13:07:56.619	$GPGGA,130757,2533.7561,N,08002.0339,W,1,8,1.9,18,M,,M,,*5F
06/11/2014	13:07:57.590	$GPGGA,130758,2533.7545,N,08002.0340,W,1,8,1.9,18,M,,M,,*58
06/11/2014	13:07:58.613	$GPGGA,130759,2533.7529,N,08002.0341,W,1,8,1.9,18,M,,M,,*52
06/11/2014	13:07:59.616	$GPGGA,130800,2533.7512,N,08002.0341,W,1,8,1.9,18,M,,M,,*59
06/11/2014	13:08:00.618	$GPGGA,130801,2533.7496,N,08002.0341,W,1,8,1.9,18,M,,M,,*55
06/11/2014	13:08:01.591	$GPGGA,130802,2533.7482,N,08002.0343,W,1,8,2.1,18,M,,M,,*5A
06/11/2014	13:08:02.624	$GPGGA,130803,2533.7464,N,08002.0344,W,1,8,1.9,18,M,,M,,*5F
06/11/2014	13:08:03.606	$GPGGA,130804,2533.7449,N,08002.0345,W,1,8,2.1,18,M,,M,,*5D
06/11/2014	13:08:04.609	$GPGGA,130805,2533.7433,N,08002.0348,W,1,7,2.1,18,M,,M,,*53
06/11/2014	13:08:05.601	$GPGGA,130806,2533.7418,N,08002.0350,W,1,7,1.9,18,M,,M,,*5B
06/11/2014	13:08:06.624	$GPGGA,130807,2533.7402,N,08002.0350,W,1,8,1.9,18,M,,M,,*5E
06/11/2014	13:08:07.606	$GPGGA,130808,2533.7386,N,08002.0352,W,1,8,1.9,18,M,,M,,*58
06/11/2014	13:08:08.589	$GPGGA,130809,2533.7371,N,08002.0354,W,1,8,1.9,18,M,,M,,*57
06/11/2014	13:08:09.602	$GPGGA,130810,2533.7355,N,08002.0354,W,1,8,1.9,18,M,,M,,*59
06/11/2014	13:08:10.624	$GPGGA,130811,2533.7338,N,08002.0358,W,1,8,1.9,18,M,,M,,*5F
06/11/2014	13:08:11.607	$GPGGA,130812,2533.7323,N,08002.0357,W,1,8,1.9,18,M,,M,,*59
06/11/2014	13:08:12.629	$GPGGA,130813,2533.7306,N,08002.0359,W,1,7,2.1,18,M,,M,,*55
06/11/2014	13:08:13.602	$GPGGA,130814,2533.7290,N,08002.0362,W,1,7,1.9,18,M,,M,,*5F
06/11/2014	13:08:14.604	$GPGGA,130815,2533.7274,N,08002.0363,W,1,8,1.9,18,M,,M,,*5A
06/11/2014	13:08:15.616	$GPGGA,130816,2533.7258,N,08002.0365,W,1,8,1.9,18,M,,M,,*51
06/11/2014	13:08:16.629	$GPGGA,130817,2533.7243,N,08002.0366,W,1,8,1.9,18,M,,M,,*59
06/11/2014	13:08:17.621	$GPGGA,130818,2533.7227,N,08002.0368,W,1,8,1.9,18,M,,M,,*5A
06/11/2014	13:08:18.595	$GPGGA,130819,2533.7211,N,08002.0369,W,1,8,1.9,18,M,,M,,*5F
06/11/2014	13:08:19.627	$GPGGA,130820,2533.7195,N,08002.0372,W,1,8,1.9,18,M,,M,,*50
06/11/2014	13:08:20.599	$GPGGA,130821,2533.7179,N,08002.0372,W,1,8,1.9,18,M,,M,,*53
06/11/2014	13:08:21.722	$GPGGA,130822,2533.7164,N,08002.0374,W,1,8,1.9,18,M,,M,,*5A
06/11/2014	13:08:22.605	$GPGGA,130823,2533.7147,N,08002.0376,W,1,8,1.9,18,M,,M,,*58
06/11/2014	13:08:23.617	$GPGGA,130824,2533.7130,N,08002.0376,W,1,8,1.9,19,M,,M,,*5E
06/11/2014	13:08:24.620	$GPGGA,130825,2533.7114,N,08002.0379,W,1,8,1.9,19,M,,M,,*56
06/11/2014	13:08:25.702	$GPGGA,130826,2533.7099,N,08002.0379,W,1,8,1.9,19,M,,M,,*51
06/11/2014	13:08:26.726	$GPGGA,130827,2533.7082,N,08002.0380,W,1,8,1.9,19,M,,M,,*5C
06/11/2014	13:08:27.617	$GPGGA,130828,2533.7065,N,08002.0380,W,1,8,1.9,19,M,,M,,*5A
06/11/2014	13:08:28.601	$GPGGA,130829,2533.7050,N,08002.0381,W,1,8,1.9,19,M,,M,,*5C
06/11/2014	13:08:29.602	$GPGGA,130830,2533.7034,N,08002.0381,W,1,8,1.9,19,M,,M,,*56
06/11/2014	13:08:30.715	$GPGGA,130831,2533.7018,N,08002.0383,W,1,8,1.9,19,M,,M,,*5B
06/11/2014	13:08:31.618	$GPGGA,130832,2533.7002,N,08002.0382,W,1,8,1.9,19,M,,M,,*52
06/11/2014	13:08:32.599	$GPGGA,130833,2533.6985,N,08002.0383,W,1,8,1.9,19,M,,M,,*55
06/11/2014	13:08:33.702	$GPGGA,130834,2533.6969,N,08002.0382,W,1,8,1.9,19,M,,M,,*51
06/11/2014	13:08:34.614	$GPGGA,130835,2533.6952,N,08002.0383,W,1,8,1.9,19,M,,M,,*59
06/11/2014	13:08:35.757	$GPGGA,130836,2533.6935,N,08002.0383,W,1,8,1.9,19,M,,M,,*5B
06/11/2014	13:08:36.710	$GPGGA,130837,2533.6919,N,08002.0383,W,1,8,1.9,19,M,,M,,*54
06/11/2014	13:08:37.622	$GPGGA,130838,2533.6904,N,08002.0383,W,1,8,1.9,19,M,,M,,*57
06/11/2014	13:08:38.725	$GPGGA,130839,2533.6887,N,08002.0382,W,1,8,1.9,19,M,,M,,*5D
06/11/2014	13:08:39.728	$GPGGA,130840,2533.6871,N,08002.0381,W,1,8,1.9,19,M,,M,,*59
06/11/2014	13:08:40.730	$GPGGA,130841,2533.6855,N,08002.0381,W,1,8,1.9,19,M,,M,,*5E
06/11/2014	13:08:41.713	$GPGGA,130842,2533.6839,N,08002.0381,W,1,8,1.9,19,M,,M,,*57
06/11/2014	13:08:42.726	$GPGGA,130843,2533.6822,N,08002.0380,W,1,8,1.9,19,M,,M,,*5D
06/11/2014	13:08:43.728	$GPGGA,130844,2533.6806,N,08002.0380,W,1,8,1.9,19,M,,M,,*5C
06/11/2014	13:08:44.577	$GPGGA,130845,2533.6789,N,08002.0380,W,1,8,1.9,19,M,,M,,*55
06/11/2014	13:08:45.569	$GPGGA,130846,2533.6774,N,08002.0379,W,1,8,1.9,19,M,,M,,*52
06/11/2014	13:08:46.572	$GPGGA,130847,2533.6757,N,08002.0379,W,1,8,1.9,19,M,,M,,*52
06/11/2014	13:08:47.564	$GPGGA,130848,2533.6741,N,08002.0379,W,1,8,1.9,19,M,,M,,*5A
06/11/2014	13:08:48.577	$GPGGA,130849,2533.6724,N,08002.0378,W,1,8,1.9,19,M,,M,,*59
06/11/2014	13:08:49.569	$GPGGA,130850,2533.6709,N,08002.0377,W,1,8,1.9,19,M,,M,,*51
06/11/2014	13:08:50.582	$GPGGA,130851,2533.6692,N,08002.0377,W,1,8,1.9,19,M,,M,,*53
06/11/2014	13:08:51.574	$GPGGA,130852,2533.6675,N,08002.0377,W,1,8,1.9,19,M,,M,,*59
06/11/2014	13:08:52.586	$GPGGA,130853,2533.6659,N,08002.0376,W,1,8,1.9,19,M,,M,,*57
06/11/2014	13:08:53.551	$GPGGA,130854,2533.6642,N,08002.0376,W,1,8,1.9,18,M,,M,,*5B
06/11/2014	13:08:54.592	$GPGGA,130855,2533.6626,N,08002.0376,W,1,8,1.9,18,M,,M,,*58
06/11/2014	13:08:55.604	$GPGGA,130856,2533.6610,N,08002.0375,W,1,8,1.9,18,M,,M,,*5D
06/11/2014	13:08:56.597	$GPGGA,130857,2533.6594,N,08002.0376,W,1,8,1.9,18,M,,M,,*50
06/11/2014	13:08:57.556	$GPGGA,130858,2533.6579,N,08002.0375,W,1,8,1.9,18,M,,M,,*5F
06/11/2014	13:08:58.557	$GPGGA,130859,2533.6562,N,08002.0376,W,1,8,1.9,18,M,,M,,*57
06/11/2014	13:08:59.605	$GPGGA,130900,2533.6546,N,08002.0375,W,1,8,1.9,18,M,,M,,*5F
06/11/2014	13:09:00.597	$GPGGA,130901,2533.6530,N,08002.0376,W,1,8,1.9,18,M,,M,,*5C
06/11/2014	13:09:01.577	$GPGGA,130902,2533.6514,N,08002.0376,W,1,8,1.9,18,M,,M,,*59
06/11/2014	13:09:02.592	$GPGGA,130903,2533.6498,N,08002.0376,W,1,8,1.9,18,M,,M,,*5D
06/11/2014	13:09:03.582	$GPGGA,130904,2533.6482,N,08002.0377,W,1,8,1.9,18,M,,M,,*50
06/11/2014	13:09:04.573	$GPGGA,130905,2533.6467,N,08002.0379,W,1,8,1.9,18,M,,M,,*54
06/11/2014	13:09:05.561	$GPGGA,130906,2533.6450,N,08002.0379,W,1,8,1.9,18,M,,M,,*53
06/11/2014	13:09:06.565	$GPGGA,130907,2533.6435,N,08002.0380,W,1,8,1.9,18,M,,M,,*57
06/11/2014	13:09:07.588	$GPGGA,130908,2533.6420,N,08002.0381,W,1,8,1.9,18,M,,M,,*5D
06/11/2014	13:09:08.567	$GPGGA,130909,2533.6404,N,08002.0383,W,1,8,1.9,18,M,,M,,*58
06/11/2014	13:09:09.700	$GPGGA,130910,2533.6389,N,08002.0384,W,1,8,2.1,18,M,,M,,*5E
06/11/2014	13:09:10.580	$GPGGA,130911,2533.6373,N,08002.0387,W,1,7,2.1,18,M,,M,,*56
06/11/2014	13:09:11.590	$GPGGA,130912,2533.6357,N,08002.0388,W,1,7,1.9,18,M,,M,,*57
06/11/2014	13:09:12.728	$GPGGA,130913,2533.6342,N,08002.0392,W,1,8,1.9,18,M,,M,,*56
06/11/2014	13:09:13.670	$GPGGA,130914,2533.6326,N,08002.0397,W,1,8,1.9,18,M,,M,,*56
06/11/2014	13:09:14.753	$GPGGA,130915,2533.6311,N,08002.0401,W,1,8,1.9,18,M,,M,,*5B
06/11/2014	13:09:15.675	$GPGGA,130916,2533.6295,N,08002.0405,W,1,8,1.9,18,M,,M,,*51
06/11/2014	13:09:16.768	$GPGGA,130917,2533.6279,N,08002.0408,W,1,8,1.6,18,M,,M,,*50
06/11/2014	13:09:17.580	$GPGGA,130918,2533.6263,N,08002.0412,W,1,8,1.6,18,M,,M,,*5F
06/11/2014	13:09:18.573	$GPGGA,130919,2533.6247,N,08002.0415,W,1,8,1.6,18,M,,M,,*5F
06/11/2014	13:09:19.585	$GPGGA,130920,2533.6232,N,08002.0420,W,1,8,1.6,18,M,,M,,*51
06/11/2014	13:09:20.578	$GPGGA,130921,2533.6216,N,08002.0424,W,1,7,1.6,18,M,,M,,*5D
06/11/2014	13:09:21.701	$GPGGA,130922,2533.6200,N,08002.0430,W,1,7,1.6,18,M,,M,,*5C
06/11/2014	13:09:22.774	$GPGGA,130923,2533.6183,N,08002.0435,W,1,7,1.6,18,M,,M,,*50
06/11/2014	13:09:23.717	$GPGGA,130924,2533.6168,N,08002.0441,W,1,7,1.6,18,M,,M,,*51
06/11/2014	13:09:24.778	$GPGGA,130925,2533.6153,N,08002.0445,W,1,8,1.6,18,M,,M,,*53
06/11/2014	13:09:25.701	$GPGGA,130926,2533.6138,N,08002.0452,W,1,8,1.6,18,M,,M,,*5B
06/11/2014	13:09:26.783	$GPGGA,130927,2533.6124,N,08002.0456,W,1,8,1.6,18,M,,M,,*53
06/11/2014	13:09:27.736	$GPGGA,130928,2533.6109,N,08002.0462,W,1,8,1.6,18,M,,M,,*54
06/11/2014	13:09:28.778	$GPGGA,130929,2533.6095,N,08002.0469,W,1,8,1.6,18,M,,M,,*5A
06/11/2014	13:09:29.711	$GPGGA,130930,2533.6079,N,08002.0474,W,1,8,1.6,18,M,,M,,*5C
06/11/2014	13:09:30.733	$GPGGA,130931,2533.6063,N,08002.0481,W,1,8,1.6,19,M,,M,,*5D
06/11/2014	13:09:31.736	$GPGGA,130932,2533.6048,N,08002.0488,W,1,8,1.6,19,M,,M,,*5E
06/11/2014	13:09:32.769	$GPGGA,130933,2533.6032,N,08002.0495,W,1,8,1.6,19,M,,M,,*5E
06/11/2014	13:09:33.701	$GPGGA,130934,2533.6016,N,08002.0502,W,1,8,1.6,19,M,,M,,*50
06/11/2014	13:09:34.784	$GPGGA,130935,2533.6001,N,08002.0507,W,1,8,1.6,19,M,,M,,*52
06/11/2014	13:09:35.716	$GPGGA,130936,2533.5984,N,08002.0516,W,1,8,1.6,19,M,,M,,*56
06/11/2014	13:09:36.749	$GPGGA,130937,2533.5969,N,08002.0521,W,1,8,1.6,19,M,,M,,*50
06/11/2014	13:09:37.701	$GPGGA,130938,2533.5954,N,08002.0527,W,1,8,1.6,19,M,,M,,*57
06/11/2014	13:09:38.784	$GPGGA,130939,2533.5939,N,08002.0533,W,1,8,1.6,19,M,,M,,*58
06/11/2014	13:09:39.717	$GPGGA,130940,2533.5925,N,08002.0540,W,1,8,1.6,19,M,,M,,*5F
06/11/2014	13:09:40.789	$GPGGA,130941,2533.5910,N,08002.0546,W,1,8,1.6,19,M,,M,,*5E
06/11/2014	13:09:41.680	$GPGGA,130942,2533.5896,N,08002.0551,W,1,8,1.6,19,M,,M,,*54
06/11/2014	13:09:42.678	$GPGGA,130943,2533.5880,N,08002.0557,W,1,7,1.6,19,M,,M,,*5B
06/11/2014	13:09:43.716	$GPGGA,130944,2533.5867,N,08002.0563,W,1,7,1.6,19,M,,M,,*52
06/11/2014	13:09:44.624	$GPGGA,130945,2533.5851,N,08002.0567,W,1,8,1.6,19,M,,M,,*5D
06/11/2014	13:09:45.536	$GPGGA,130946,2533.5836,N,08002.0572,W,1,8,1.6,19,M,,M,,*5B
06/11/2014	13:09:46.609	$GPGGA,130947,2533.5822,N,08002.0578,W,1,9,1.6,19,M,,M,,*54
06/11/2014	13:09:47.561	$GPGGA,130948,2533.5808,N,08002.0582,W,1,9,1.6,19,M,,M,,*56
06/11/2014	13:09:48.594	$GPGGA,130949,2533.5793,N,08002.0586,W,1,9,1.6,19,M,,M,,*5E
06/11/2014	13:09:49.567	$GPGGA,130950,2533.5778,N,08002.0590,W,1,9,1.6,19,M,,M,,*54
06/11/2014	13:09:50.649	$GPGGA,130951,2533.5764,N,08002.0593,W,1,9,1.6,19,M,,M,,*5B
06/11/2014	13:09:51.572	$GPGGA,130952,2533.5748,N,08002.0598,W,1,9,1.6,19,M,,M,,*5D
06/11/2014	13:09:52.605	$GPGGA,130953,2533.5734,N,08002.0601,W,1,8,1.6,20,M,,M,,*5F
06/11/2014	13:09:53.553	$GPGGA,130954,2533.5719,N,08002.0605,W,1,8,1.6,20,M,,M,,*53
06/11/2014	13:09:54.530	$GPGGA,130955,2533.5705,N,08002.0607,W,1,8,1.6,20,M,,M,,*5D
06/11/2014	13:09:55.582	$GPGGA,130956,2533.5691,N,08002.0611,W,1,8,1.8,20,M,,M,,*5B
06/11/2014	13:09:56.639	$GPGGA,130957,2533.5677,N,08002.0614,W,1,8,1.8,20,M,,M,,*57
06/11/2014	13:09:57.565	$GPGGA,130958,2533.5662,N,08002.0618,W,1,8,1.8,20,M,,M,,*50
06/11/2014	13:09:58.631	$GPGGA,130959,2533.5647,N,08002.0621,W,1,8,1.8,20,M,,M,,*5C
06/11/2014	13:09:59.672	$GPGGA,131000,2533.5634,N,08002.0625,W,1,8,1.8,20,M,,M,,*58
06/11/2014	13:10:00.634	$GPGGA,131001,2533.5619,N,08002.0626,W,1,8,1.8,20,M,,M,,*55
06/11/2014	13:10:01.527	$GPGGA,131002,2533.5605,N,08002.0629,W,1,8,1.8,20,M,,M,,*54
06/11/2014	13:10:02.680	$GPGGA,131003,2533.5590,N,08002.0632,W,1,8,1.6,20,M,,M,,*5E
06/11/2014	13:10:03.662	$GPGGA,131004,2533.5575,N,08002.0634,W,1,8,1.6,20,M,,M,,*54
06/11/2014	13:10:04.626	$GPGGA,131005,2533.5560,N,08002.0636,W,1,9,1.6,20,M,,M,,*52
06/11/2014	13:10:05.637	$GPGGA,131006,2533.5544,N,08002.0639,W,1,9,1.6,21,M,,M,,*59
06/11/2014	13:10:06.620	$GPGGA,131007,2533.5528,N,08002.0641,W,1,9,1.6,21,M,,M,,*5D
06/11/2014	13:10:07.643	$GPGGA,131008,2533.5513,N,08002.0644,W,1,9,1.6,21,M,,M,,*5F
06/11/2014	13:10:08.635	$GPGGA,131009,2533.5495,N,08002.0647,W,1,9,1.6,21,M,,M,,*52
06/11/2014	13:10:09.638	$GPGGA,131010,2533.5478,N,08002.0650,W,1,9,1.6,21,M,,M,,*5F
06/11/2014	13:10:10.602	$GPGGA,131011,2533.5462,N,08002.0652,W,1,9,1.6,21,M,,M,,*57
06/11/2014	13:10:11.643	$GPGGA,131012,2533.5446,N,08002.0654,W,1,9,1.6,21,M,,M,,*54
06/11/2014	13:10:12.645	$GPGGA,131013,2533.5430,N,08002.0657,W,1,9,1.6,21,M,,M,,*57
06/11/2014	13:10:13.638	$GPGGA,131014,2533.5414,N,08002.0658,W,1,9,1.6,21,M,,M,,*59
06/11/2014	13:10:14.651	$GPGGA,131015,2533.5399,N,08002.0661,W,1,9,1.6,21,M,,M,,*50
06/11/2014	13:10:15.643	$GPGGA,131016,2533.5383,N,08002.0663,W,1,9,1.6,21,M,,M,,*5A
06/11/2014	13:10:16.675	$GPGGA,131017,2533.5367,N,08002.0665,W,1,9,1.6,21,M,,M,,*57
06/11/2014	13:10:17.637	$GPGGA,131018,2533.5350,N,08002.0668,W,1,9,1.6,22,M,,M,,*52
06/11/2014	13:10:18.670	$GPGGA,131019,2533.5334,N,08002.0672,W,1,9,1.8,22,M,,M,,*54
06/11/2014	13:10:19.663	$GPGGA,131020,2533.5318,N,08002.0673,W,1,9,1.8,22,M,,M,,*51
06/11/2014	13:10:20.675	$GPGGA,131021,2533.5301,N,08002.0676,W,1,8,1.6,22,M,,M,,*52
06/11/2014	13:10:21.638	$GPGGA,131022,2533.5285,N,08002.0679,W,1,8,1.6,22,M,,M,,*53
06/11/2014	13:10:22.682	$GPGGA,131023,2533.5269,N,08002.0681,W,1,9,1.6,22,M,,M,,*56
06/11/2014	13:10:23.663	$GPGGA,131024,2533.5253,N,08002.0684,W,1,9,1.6,21,M,,M,,*5E
06/11/2014	13:10:24.726	$GPGGA,131025,2533.5237,N,08002.0688,W,1,9,1.6,21,M,,M,,*51
06/11/2014	13:10:25.643	$GPGGA,131026,2533.5222,N,08002.0691,W,1,9,1.9,21,M,,M,,*51
06/11/2014	13:10:26.701	$GPGGA,131027,2533.5206,N,08002.0695,W,1,8,1.6,21,M,,M,,*5C
06/11/2014	13:10:27.663	$GPGGA,131028,2533.5192,N,08002.0699,W,1,8,1.6,21,M,,M,,*51
06/11/2014	13:10:28.686	$GPGGA,131029,2533.5177,N,08002.0704,W,1,9,1.9,21,M,,M,,*50
06/11/2014	13:10:29.644	$GPGGA,131030,2533.5161,N,08002.0708,W,1,9,1.9,21,M,,M,,*53
06/11/2014	13:10:30.671	$GPGGA,131031,2533.5161,N,08002.0708,W,1,8,1.9,21,M,,M,,*53
06/11/2014	13:10:31.664	$GPGGA,131032,2533.5130,N,08002.0716,W,1,8,1.9,21,M,,M,,*5B
06/11/2014	13:10:32.696	$GPGGA,131033,2533.5113,N,08002.0720,W,1,9,1.6,21,M,,M,,*50
06/11/2014	13:10:33.655	$GPGGA,131034,2533.5096,N,08002.0726,W,1,9,1.6,21,M,,M,,*5D
06/11/2014	13:10:34.691	$GPGGA,131035,2533.5080,N,08002.0730,W,1,9,1.6,21,M,,M,,*5C
06/11/2014	13:10:35.657	$GPGGA,131036,2533.5065,N,08002.0735,W,1,9,1.6,21,M,,M,,*51
06/11/2014	13:10:36.676	$GPGGA,131037,2533.5049,N,08002.0741,W,1,9,1.6,21,M,,M,,*5D
06/11/2014	13:10:37.638	$GPGGA,131038,2533.5034,N,08002.0745,W,1,9,1.6,20,M,,M,,*5D
06/11/2014	13:10:38.711	$GPGGA,131039,2533.5018,N,08002.0751,W,1,9,1.6,20,M,,M,,*57
06/11/2014	13:10:39.667	$GPGGA,131040,2533.5002,N,08002.0755,W,1,9,1.6,20,M,,M,,*56
06/11/2014	13:10:40.686	$GPGGA,131041,2533.5002,N,08002.0755,W,1,9,1.6,20,M,,M,,*57
06/11/2014	13:10:41.649	$GPGGA,131042,2533.4971,N,08002.0764,W,1,9,1.6,20,M,,M,,*5A
06/11/2014	13:10:42.671	$GPGGA,131043,2533.4971,N,08002.0764,W,1,9,1.6,20,M,,M,,*5B
06/11/2014	13:10:43.681	$GPGGA,131044,2533.4939,N,08002.0774,W,1,9,1.6,20,M,,M,,*51
06/11/2014	13:10:44.524	$GPGGA,131045,2533.4939,N,08002.0774,W,1,9,1.6,20,M,,M,,*50
06/11/2014	13:10:45.595	$GPGGA,131046,2533.4908,N,08002.0784,W,1,9,1.6,20,M,,M,,*5E
06/11/2014	13:10:46.508	$GPGGA,131047,2533.4908,N,08002.0784,W,1,9,1.6,20,M,,M,,*5F
06/11/2014	13:10:47.512	$GPGGA,131048,2533.4876,N,08002.0793,W,1,9,1.6,20,M,,M,,*5E
06/11/2014	13:10:48.633	$GPGGA,131049,2533.4861,N,08002.0798,W,1,9,1.6,20,M,,M,,*52
06/11/2014	13:10:49.616	$GPGGA,131050,2533.4845,N,08002.0803,W,1,9,1.6,20,M,,M,,*51
06/11/2014	13:10:50.508	$GPGGA,131051,2533.4845,N,08002.0803,W,1,9,1.6,20,M,,M,,*50
06/11/2014	13:10:51.611	$GPGGA,131052,2533.4813,N,08002.0813,W,1,9,1.6,20,M,,M,,*51
06/11/2014	13:10:52.592	$GPGGA,131053,2533.4798,N,08002.0816,W,1,9,1.6,20,M,,M,,*59
06/11/2014	13:10:53.605	$GPGGA,131054,2533.4782,N,08002.0821,W,1,9,1.6,20,M,,M,,*51
06/11/2014	13:10:54.618	$GPGGA,131055,2533.4767,N,08002.0825,W,1,9,1.6,20,M,,M,,*5F
06/11/2014	13:10:55.610	$GPGGA,131056,2533.4751,N,08002.0829,W,1,9,1.6,20,M,,M,,*55
06/11/2014	13:10:56.613	$GPGGA,131057,2533.4736,N,08002.0835,W,1,9,1.6,20,M,,M,,*58
06/11/2014	13:10:57.616	$GPGGA,131058,2533.4720,N,08002.0838,W,1,9,1.6,20,M,,M,,*5D
06/11/2014	13:10:58.608	$GPGGA,131059,2533.4704,N,08002.0842,W,1,9,1.6,19,M,,M,,*5D
06/11/2014	13:10:59.621	$GPGGA,131100,2533.4689,N,08002.0846,W,1,9,1.6,19,M,,M,,*50
06/11/2014	13:11:00.603	$GPGGA,131101,2533.4675,N,08002.0849,W,1,7,2.1,19,M,,M,,*57
06/11/2014	13:11:01.606	$GPGGA,131102,2533.4661,N,08002.0854,W,1,7,1.8,19,M,,M,,*57
06/11/2014	13:11:02.629	$GPGGA,131103,2533.4648,N,08002.0858,W,1,8,1.8,19,M,,M,,*5E
06/11/2014	13:11:03.621	$GPGGA,131104,2533.4635,N,08002.0863,W,1,8,1.8,19,M,,M,,*5B
06/11/2014	13:11:04.634	$GPGGA,131105,2533.4619,N,08002.0865,W,1,8,1.8,19,M,,M,,*52
06/11/2014	13:11:05.606	$GPGGA,131106,2533.4606,N,08002.0871,W,1,8,1.8,19,M,,M,,*5A
06/11/2014	13:11:06.629	$GPGGA,131107,2533.4592,N,08002.0872,W,1,9,1.6,19,M,,M,,*59
06/11/2014	13:11:07.621	$GPGGA,131108,2533.4575,N,08002.0876,W,1,9,1.6,19,M,,M,,*5B
06/11/2014	13:11:08.634	$GPGGA,131109,2533.4560,N,08002.0881,W,1,9,1.6,19,M,,M,,*56
06/11/2014	13:11:09.617	$GPGGA,131110,2533.4545,N,08002.0883,W,1,9,1.8,19,M,,M,,*55
06/11/2014	13:11:10.638	$GPGGA,131111,2533.4530,N,08002.0887,W,1,8,1.8,19,M,,M,,*53
06/11/2014	13:11:11.621	$GPGGA,131112,2533.4514,N,08002.0892,W,1,8,1.6,19,M,,M,,*5C
06/11/2014	13:11:12.633	$GPGGA,131113,2533.4498,N,08002.0894,W,1,8,1.8,19,M,,M,,*50
06/11/2014	13:11:13.626	$GPGGA,131114,2533.4483,N,08002.0897,W,1,8,1.8,19,M,,M,,*5E
06/11/2014	13:11:14.619	$GPGGA,131115,2533.4469,N,08002.0901,W,1,8,1.8,19,M,,M,,*55
06/11/2014	13:11:15.611	$GPGGA,131116,2533.4453,N,08002.0904,W,1,8,1.8,20,M,,M,,*50
06/11/2014	13:11:16.644	$GPGGA,131117,2533.4437,N,08002.0907,W,1,8,1.8,20,M,,M,,*50
06/11/2014	13:11:17.616	$GPGGA,131118,2533.4422,N,08002.0910,W,1,8,1.8,20,M,,M,,*5D
06/11/2014	13:11:18.609	$GPGGA,131119,2533.4405,N,08002.0914,W,1,9,1.6,20,M,,M,,*52
06/11/2014	13:11:19.632	$GPGGA,131120,2533.4390,N,08002.0918,W,1,9,2.1,20,M,,M,,*5B
06/11/2014	13:11:20.634	$GPGGA,131121,2533.4373,N,08002.0916,W,1,8,1.8,20,M,,M,,*52
06/11/2014	13:11:21.617	$GPGGA,131122,2533.4357,N,08002.0919,W,1,8,1.6,20,M,,M,,*56
06/11/2014	13:11:22.639	$GPGGA,131123,2533.4342,N,08002.0923,W,1,9,1.6,20,M,,M,,*5B
06/11/2014	13:11:23.622	$GPGGA,131124,2533.4324,N,08002.0923,W,1,9,1.8,20,M,,M,,*52
06/11/2014	13:11:24.621	$GPGGA,131125,2533.4310,N,08002.0928,W,1,9,1.6,19,M,,M,,*5B
06/11/2014	13:11:25.607	$GPGGA,131126,2533.4294,N,08002.0932,W,1,9,1.6,19,M,,M,,*5E
06/11/2014	13:11:26.639	$GPGGA,131127,2533.4278,N,08002.0936,W,1,9,1.6,19,M,,M,,*59
06/11/2014	13:11:27.621	$GPGGA,131128,2533.4263,N,08002.0939,W,1,9,1.6,19,M,,M,,*53
06/11/2014	13:11:28.654	$GPGGA,131129,2533.4245,N,08002.0943,W,1,9,1.6,19,M,,M,,*5B
06/11/2014	13:11:29.627	$GPGGA,131130,2533.4229,N,08002.0948,W,1,9,1.6,19,M,,M,,*52
06/11/2014	13:11:30.719	$GPGGA,131131,2533.4216,N,08002.0952,W,1,9,1.6,19,M,,M,,*54
06/11/2014	13:11:31.633	$GPGGA,131132,2533.4200,N,08002.0955,W,1,9,1.6,19,M,,M,,*57
06/11/2014	13:11:32.634	$GPGGA,131133,2533.4186,N,08002.0958,W,1,9,1.6,19,M,,M,,*56
06/11/2014	13:11:33.707	$GPGGA,131134,2533.4173,N,08002.0962,W,1,9,1.6,19,M,,M,,*52
06/11/2014	13:11:34.640	$GPGGA,131135,2533.4157,N,08002.0966,W,1,9,1.6,19,M,,M,,*51
06/11/2014	13:11:35.632	$GPGGA,131136,2533.4141,N,08002.0970,W,1,9,1.6,19,M,,M,,*52
06/11/2014	13:11:36.635	$GPGGA,131137,2533.4126,N,08002.0975,W,1,9,1.6,19,M,,M,,*57
06/11/2014	13:11:37.728	$GPGGA,131138,2533.4110,N,08002.0979,W,1,9,1.6,19,M,,M,,*51
06/11/2014	13:11:38.760	$GPGGA,131139,2533.4095,N,08002.0984,W,1,9,1.6,19,M,,M,,*5E
06/11/2014	13:11:39.733	$GPGGA,131140,2533.4079,N,08002.0990,W,1,9,1.6,19,M,,M,,*57
06/11/2014	13:11:40.745	$GPGGA,131141,2533.4063,N,08002.0994,W,1,9,1.6,19,M,,M,,*59
06/11/2014	13:11:41.718	$GPGGA,131142,2533.4048,N,08002.0998,W,1,9,1.6,19,M,,M,,*5F
06/11/2014	13:11:42.710	$GPGGA,131143,2533.4032,N,08002.1002,W,1,9,1.6,19,M,,M,,*58
06/11/2014	13:11:43.733	$GPGGA,131144,2533.4015,N,08002.1008,W,1,9,1.6,19,M,,M,,*50
06/11/2014	13:11:44.603	$GPGGA,131145,2533.4000,N,08002.1013,W,1,8,1.6,19,M,,M,,*5E
06/11/2014	13:11:45.572	$GPGGA,131146,2533.3983,N,08002.1019,W,1,8,1.6,19,M,,M,,*52
06/11/2014	13:11:46.576	$GPGGA,131147,2533.3967,N,08002.1024,W,1,9,1.6,19,M,,M,,*56
06/11/2014	13:11:47.587	$GPGGA,131148,2533.3950,N,08002.1030,W,1,9,1.6,19,M,,M,,*58
06/11/2014	13:11:48.570	$GPGGA,131149,2533.3934,N,08002.1035,W,1,8,1.6,19,M,,M,,*5F
06/11/2014	13:11:49.573	$GPGGA,131150,2533.3918,N,08002.1041,W,1,8,1.6,19,M,,M,,*5A
