Software Version Number: 1	Data File Format Number: 1	Build Version Number: 1	Error Count Since VI Started: 0	Manufacturer: Raytheon	 Model Number: RayMarine 120	 S/N: 	 Cal Date: 	 Wind Direction Offset: 0.00	 Slope (M)1: 0.00	 Offset (B)1: 0.00	 Slope (M)2: 0.00	 Offset (B)2: 0.00	 Slope (M)3: 0.00	 Offset (B)3: 0.00	 Slope (M)4: 0.00	 Offset (B)4: 0.00	 Slope (M)5: 0.00	 Offset (B)5: 0.00	 Slope (M)6: 0.00	 Offset (B)6: 0.00
Computer Date	Computer Time	GGA String
06/07/2014	08:00:00.614	$GPGGA,080001,2418.7587,N,08121.2007,W,1,9,1.6,17,M,,M,,*5C
06/07/2014	08:00:01.607	$GPGGA,080002,2418.7583,N,08121.1987,W,1,9,1.6,17,M,,M,,*59
06/07/2014	08:00:02.600	$GPGGA,080003,2418.7580,N,08121.1967,W,1,8,1.9,17,M,,M,,*5B
06/07/2014	08:00:03.623	$GPGGA,080004,2418.7576,N,08121.1947,W,1,8,1.6,17,M,,M,,*58
06/07/2014	08:00:04.646	$GPGGA,080005,2418.7573,N,08121.1928,W,1,9,1.6,17,M,,M,,*54
06/07/2014	08:00:05.609	$GPGGA,080006,2418.7569,N,08121.1907,W,1,9,1.9,17,M,,M,,*5E
06/07/2014	08:00:06.602	$GPGGA,080007,2418.7566,N,08121.1886,W,1,9,1.6,17,M,,M,,*57
06/07/2014	08:00:07.625	$GPGGA,080008,2418.7562,N,08121.1866,W,1,9,1.6,17,M,,M,,*52
06/07/2014	08:00:08.628	$GPGGA,080009,2418.7558,N,08121.1846,W,1,9,1.6,16,M,,M,,*59
06/07/2014	08:00:09.622	$GPGGA,080010,2418.7555,N,08121.1827,W,1,9,1.9,16,M,,M,,*54
06/07/2014	08:00:10.724	$GPGGA,080011,2418.7551,N,08121.1810,W,1,9,1.6,16,M,,M,,*5A
06/07/2014	08:00:11.626	$GPGGA,080012,2418.7547,N,08121.1792,W,1,9,1.6,16,M,,M,,*5B
06/07/2014	08:00:12.619	$GPGGA,080013,2418.7543,N,08121.1773,W,1,9,1.6,16,M,,M,,*51
06/07/2014	08:00:13.632	$GPGGA,080014,2418.7540,N,08121.1755,W,1,9,1.6,17,M,,M,,*50
06/07/2014	08:00:14.615	$GPGGA,080015,2418.7536,N,08121.1736,W,1,9,1.6,17,M,,M,,*55
06/07/2014	08:00:15.638	$GPGGA,080016,2418.7531,N,08121.1716,W,1,9,1.6,17,M,,M,,*53
06/07/2014	08:00:16.641	$GPGGA,080017,2418.7529,N,08121.1696,W,1,9,1.6,17,M,,M,,*52
06/07/2014	08:00:17.624	$GPGGA,080018,2418.7525,N,08121.1676,W,1,9,1.9,17,M,,M,,*50
06/07/2014	08:00:18.768	$GPGGA,080019,2418.7522,N,08121.1656,W,1,9,1.6,17,M,,M,,*5B
06/07/2014	08:00:19.651	$GPGGA,080020,2418.7518,N,08121.1636,W,1,9,1.6,17,M,,M,,*5E
06/07/2014	08:00:20.753	$GPGGA,080021,2418.7514,N,08121.1616,W,1,9,1.6,17,M,,M,,*51
06/07/2014	08:00:21.636	$GPGGA,080022,2418.7509,N,08121.1597,W,1,9,1.6,17,M,,M,,*54
06/07/2014	08:00:22.749	$GPGGA,080023,2418.7504,N,08121.1579,W,1,8,1.7,17,M,,M,,*58
06/07/2014	08:00:23.752	$GPGGA,080024,2418.7500,N,08121.1560,W,1,8,1.6,17,M,,M,,*52
06/07/2014	08:00:24.735	$GPGGA,080025,2418.7495,N,08121.1541,W,1,9,1.6,17,M,,M,,*5C
06/07/2014	08:00:25.728	$GPGGA,080026,2418.7493,N,08121.1521,W,1,9,1.6,17,M,,M,,*5F
06/07/2014	08:00:26.731	$GPGGA,080027,2418.7488,N,08121.1501,W,1,9,1.6,17,M,,M,,*56
06/07/2014	08:00:27.734	$GPGGA,080028,2418.7484,N,08121.1481,W,1,9,1.6,17,M,,M,,*5C
06/07/2014	08:00:28.766	$GPGGA,080029,2418.7482,N,08121.1461,W,1,9,1.6,17,M,,M,,*55
06/07/2014	08:00:29.729	$GPGGA,080030,2418.7477,N,08121.1441,W,1,9,1.6,17,M,,M,,*55
06/07/2014	08:00:30.742	$GPGGA,080031,2418.7473,N,08121.1422,W,1,9,1.6,17,M,,M,,*55
06/07/2014	08:00:31.745	$GPGGA,080032,2418.7469,N,08121.1402,W,1,9,1.6,17,M,,M,,*5F
06/07/2014	08:00:32.758	$GPGGA,080033,2418.7466,N,08121.1381,W,1,9,1.6,17,M,,M,,*5D
06/07/2014	08:00:33.751	$GPGGA,080034,2418.7461,N,08121.1362,W,1,9,1.6,17,M,,M,,*50
06/07/2014	08:00:34.734	$GPGGA,080035,2418.7457,N,08121.1342,W,1,9,1.6,17,M,,M,,*56
06/07/2014	08:00:35.757	$GPGGA,080036,2418.7453,N,08121.1322,W,1,9,1.6,17,M,,M,,*57
06/07/2014	08:00:36.730	$GPGGA,080037,2418.7449,N,08121.1303,W,1,9,1.6,17,M,,M,,*5E
06/07/2014	08:00:37.555	$GPGGA,080038,2418.7444,N,08121.1284,W,1,9,1.6,17,M,,M,,*52
06/07/2014	08:00:38.588	$GPGGA,080039,2418.7440,N,08121.1264,W,1,9,1.6,17,M,,M,,*59
06/07/2014	08:00:39.581	$GPGGA,080040,2418.7436,N,08121.1245,W,1,9,1.6,17,M,,M,,*55
06/07/2014	08:00:40.594	$GPGGA,080041,2418.7432,N,08121.1224,W,1,9,1.6,17,M,,M,,*57
06/07/2014	08:00:41.567	$GPGGA,080042,2418.7428,N,08121.1205,W,1,9,1.6,17,M,,M,,*5C
06/07/2014	08:00:42.570	$GPGGA,080043,2418.7422,N,08121.1185,W,1,9,1.6,17,M,,M,,*5C
06/07/2014	08:00:43.593	$GPGGA,080044,2418.7419,N,08121.1166,W,1,9,1.6,17,M,,M,,*5E
06/07/2014	08:00:44.616	$GPGGA,080045,2418.7414,N,08121.1146,W,1,9,1.6,17,M,,M,,*50
06/07/2014	08:00:45.579	$GPGGA,080046,2418.7410,N,08121.1126,W,1,9,1.6,17,M,,M,,*51
06/07/2014	08:00:46.591	$GPGGA,080047,2418.7406,N,08121.1106,W,1,9,1.6,17,M,,M,,*55
06/07/2014	08:00:47.584	$GPGGA,080048,2418.7401,N,08121.1087,W,1,9,1.6,17,M,,M,,*55
06/07/2014	08:00:48.569	$GPGGA,080049,2418.7396,N,08121.1067,W,1,9,1.6,17,M,,M,,*53
06/07/2014	08:00:49.582	$GPGGA,080050,2418.7392,N,08121.1048,W,1,9,1.6,17,M,,M,,*52
06/07/2014	08:00:50.593	$GPGGA,080051,2418.7388,N,08121.1028,W,1,9,1.6,17,M,,M,,*5E
06/07/2014	08:00:51.578	$GPGGA,080052,2418.7383,N,08121.1008,W,1,9,1.6,17,M,,M,,*54
06/07/2014	08:00:52.569	$GPGGA,080053,2418.7378,N,08121.0989,W,1,9,1.6,17,M,,M,,*50
06/07/2014	08:00:53.592	$GPGGA,080054,2418.7374,N,08121.0970,W,1,9,1.6,17,M,,M,,*5D
06/07/2014	08:00:54.686	$GPGGA,080055,2418.7370,N,08121.0950,W,1,9,1.6,17,M,,M,,*5A
06/07/2014	08:00:55.603	$GPGGA,080056,2418.7366,N,08121.0930,W,1,9,1.6,17,M,,M,,*58
06/07/2014	08:00:56.621	$GPGGA,080057,2418.7361,N,08121.0911,W,1,9,1.6,17,M,,M,,*5D
06/07/2014	08:00:57.584	$GPGGA,080058,2418.7357,N,08121.0891,W,1,9,1.7,17,M,,M,,*5F
06/07/2014	08:00:58.577	$GPGGA,080059,2418.7352,N,08121.0871,W,1,8,1.7,17,M,,M,,*54
06/07/2014	08:00:59.620	$GPGGA,080100,2418.7347,N,08121.0853,W,1,8,1.6,17,M,,M,,*5C
06/07/2014	08:01:00.617	$GPGGA,080101,2418.7342,N,08121.0833,W,1,9,1.6,17,M,,M,,*5F
06/07/2014	08:01:01.576	$GPGGA,080102,2418.7338,N,08121.0813,W,1,9,1.6,17,M,,M,,*53
06/07/2014	08:01:02.579	$GPGGA,080103,2418.7334,N,08121.0795,W,1,9,1.6,17,M,,M,,*5F
06/07/2014	08:01:03.613	$GPGGA,080104,2418.7329,N,08121.0777,W,1,9,1.9,17,M,,M,,*57
06/07/2014	08:01:04.604	$GPGGA,080105,2418.7325,N,08121.0757,W,1,9,1.6,17,M,,M,,*57
06/07/2014	08:01:05.587	$GPGGA,080106,2418.7323,N,08121.0738,W,1,9,1.6,17,M,,M,,*5B
06/07/2014	08:01:06.690	$GPGGA,080107,2418.7318,N,08121.0720,W,1,8,1.9,17,M,,M,,*55
06/07/2014	08:01:07.703	$GPGGA,080108,2418.7314,N,08121.0701,W,1,8,1.6,17,M,,M,,*5A
06/07/2014	08:01:08.727	$GPGGA,080109,2418.7310,N,08121.0682,W,1,9,1.6,17,M,,M,,*54
06/07/2014	08:01:09.599	$GPGGA,080110,2418.7306,N,08121.0663,W,1,9,1.6,17,M,,M,,*54
06/07/2014	08:01:10.692	$GPGGA,080111,2418.7302,N,08121.0644,W,1,9,1.6,17,M,,M,,*54
06/07/2014	08:01:11.605	$GPGGA,080112,2418.7298,N,08121.0625,W,1,9,1.6,17,M,,M,,*52
06/07/2014	08:01:12.608	$GPGGA,080113,2418.7295,N,08121.0605,W,1,9,1.6,17,M,,M,,*5C
06/07/2014	08:01:13.691	$GPGGA,080114,2418.7291,N,08121.0586,W,1,9,1.6,17,M,,M,,*57
06/07/2014	08:01:14.724	$GPGGA,080115,2418.7287,N,08121.0566,W,1,9,1.6,18,M,,M,,*50
06/07/2014	08:01:15.727	$GPGGA,080116,2418.7284,N,08121.0546,W,1,9,1.6,18,M,,M,,*52
06/07/2014	08:01:16.710	$GPGGA,080117,2418.7280,N,08121.0526,W,1,9,1.6,18,M,,M,,*51
06/07/2014	08:01:17.704	$GPGGA,080118,2418.7276,N,08121.0506,W,1,9,1.6,18,M,,M,,*55
06/07/2014	08:01:18.746	$GPGGA,080119,2418.7272,N,08121.0486,W,1,9,1.6,18,M,,M,,*59
06/07/2014	08:01:19.729	$GPGGA,080120,2418.7269,N,08121.0467,W,1,9,1.6,18,M,,M,,*56
06/07/2014	08:01:20.721	$GPGGA,080121,2418.7264,N,08121.0446,W,1,9,1.6,18,M,,M,,*59
06/07/2014	08:01:21.704	$GPGGA,080122,2418.7262,N,08121.0427,W,1,9,1.6,18,M,,M,,*5B
06/07/2014	08:01:22.707	$GPGGA,080123,2418.7258,N,08121.0407,W,1,8,1.9,18,M,,M,,*5F
06/07/2014	08:01:23.720	$GPGGA,080124,2418.7254,N,08121.0388,W,1,8,1.9,18,M,,M,,*54
06/07/2014	08:01:24.723	$GPGGA,080125,2418.7251,N,08121.0368,W,1,9,1.6,18,M,,M,,*50
06/07/2014	08:01:25.696	$GPGGA,080126,2418.7247,N,08121.0347,W,1,9,1.9,18,M,,M,,*56
06/07/2014	08:01:26.729	$GPGGA,080127,2418.7242,N,08121.0326,W,1,7,2.1,18,M,,M,,*50
06/07/2014	08:01:27.722	$GPGGA,080128,2418.7237,N,08121.0305,W,1,7,1.9,18,M,,M,,*57
06/07/2014	08:01:28.715	$GPGGA,080129,2418.7233,N,08121.0285,W,1,8,1.9,18,M,,M,,*54
06/07/2014	08:01:29.704	$GPGGA,080130,2418.7229,N,08121.0264,W,1,8,1.6,19,M,,M,,*56
06/07/2014	08:01:30.701	$GPGGA,080131,2418.7224,N,08121.0245,W,1,9,1.6,19,M,,M,,*58
06/07/2014	08:01:31.724	$GPGGA,080132,2418.7219,N,08121.0226,W,1,9,1.6,19,M,,M,,*50
06/07/2014	08:01:32.737	$GPGGA,080133,2418.7215,N,08121.0207,W,1,9,1.6,19,M,,M,,*5E
06/07/2014	08:01:33.720	$GPGGA,080134,2418.7211,N,08121.0187,W,1,9,1.6,19,M,,M,,*56
06/07/2014	08:01:34.715	$GPGGA,080135,2418.7207,N,08121.0167,W,1,9,1.6,19,M,,M,,*5E
06/07/2014	08:01:35.726	$GPGGA,080136,2418.7202,N,08121.0148,W,1,9,1.6,20,M,,M,,*5F
06/07/2014	08:01:36.759	$GPGGA,080137,2418.7198,N,08121.0128,W,1,8,1.7,20,M,,M,,*58
06/07/2014	08:01:37.535	$GPGGA,080138,2418.7193,N,08121.0107,W,1,8,1.6,20,M,,M,,*50
06/07/2014	08:01:38.585	$GPGGA,080139,2418.7189,N,08121.0087,W,1,8,1.7,20,M,,M,,*52
06/07/2014	08:01:39.538	$GPGGA,080140,2418.7186,N,08121.0068,W,1,8,1.6,20,M,,M,,*53
06/07/2014	08:01:40.531	$GPGGA,080141,2418.7182,N,08121.0047,W,1,9,1.6,21,M,,M,,*5B
06/07/2014	08:01:41.545	$GPGGA,080142,2418.7178,N,08121.0027,W,1,9,1.6,21,M,,M,,*5B
06/07/2014	08:01:42.718	$GPGGA,080143,2418.7175,N,08121.0008,W,1,9,1.6,21,M,,M,,*5A
06/07/2014	08:01:43.563	$GPGGA,080144,2418.7170,N,08120.9989,W,1,9,1.6,21,M,,M,,*50
06/07/2014	08:01:44.546	$GPGGA,080145,2418.7166,N,08120.9970,W,1,9,1.6,21,M,,M,,*50
06/07/2014	08:01:45.556	$GPGGA,080146,2418.7162,N,08120.9950,W,1,9,1.6,21,M,,M,,*55
06/07/2014	08:01:46.730	$GPGGA,080147,2418.7158,N,08120.9930,W,1,9,1.6,21,M,,M,,*5B
06/07/2014	08:01:47.693	$GPGGA,080148,2418.7154,N,08120.9911,W,1,9,1.6,21,M,,M,,*5B
06/07/2014	08:01:48.566	$GPGGA,080149,2418.7150,N,08120.9892,W,1,9,1.6,21,M,,M,,*54
06/07/2014	08:01:49.548	$GPGGA,080150,2418.7146,N,08120.9872,W,1,9,1.6,21,M,,M,,*55
06/07/2014	08:01:50.641	$GPGGA,080151,2418.7141,N,08120.9853,W,1,9,1.6,22,M,,M,,*53
06/07/2014	08:01:51.565	$GPGGA,080152,2418.7137,N,08120.9834,W,1,9,1.6,22,M,,M,,*50
06/07/2014	08:01:52.738	$GPGGA,080153,2418.7132,N,08120.9814,W,1,8,1.6,22,M,,M,,*57
06/07/2014	08:01:53.560	$GPGGA,080154,2418.7128,N,08120.9795,W,1,8,1.6,22,M,,M,,*5D
06/07/2014	08:01:54.734	$GPGGA,080155,2418.7124,N,08120.9776,W,1,9,1.6,22,M,,M,,*5C
06/07/2014	08:01:55.566	$GPGGA,080156,2418.7119,N,08120.9756,W,1,9,1.6,22,M,,M,,*53
06/07/2014	08:01:56.548	$GPGGA,080157,2418.7115,N,08120.9737,W,1,9,1.6,22,M,,M,,*59
06/07/2014	08:01:57.702	$GPGGA,080158,2418.7111,N,08120.9718,W,1,9,1.6,22,M,,M,,*5F
06/07/2014	08:01:58.765	$GPGGA,080159,2418.7106,N,08120.9699,W,1,9,1.6,22,M,,M,,*50
06/07/2014	08:01:59.718	$GPGGA,080200,2418.7103,N,08120.9679,W,1,9,1.6,22,M,,M,,*54
06/07/2014	08:02:00.751	$GPGGA,080201,2418.7099,N,08120.9659,W,1,8,1.6,22,M,,M,,*54
06/07/2014	08:02:01.717	$GPGGA,080202,2418.7094,N,08120.9639,W,1,8,1.6,22,M,,M,,*5C
06/07/2014	08:02:02.767	$GPGGA,080203,2418.7090,N,08120.9618,W,1,9,1.6,22,M,,M,,*5B
06/07/2014	08:02:03.730	$GPGGA,080204,2418.7085,N,08120.9600,W,1,9,1.6,22,M,,M,,*51
06/07/2014	08:02:04.763	$GPGGA,080205,2418.7081,N,08120.9580,W,1,9,1.6,22,M,,M,,*5F
06/07/2014	08:02:05.695	$GPGGA,080206,2418.7076,N,08120.9561,W,1,9,1.6,22,M,,M,,*5B
06/07/2014	08:02:06.759	$GPGGA,080207,2418.7074,N,08120.9542,W,1,9,1.6,22,M,,M,,*59
06/07/2014	08:02:07.722	$GPGGA,080208,2418.7068,N,08120.9522,W,1,9,1.6,22,M,,M,,*5D
06/07/2014	08:02:08.775	$GPGGA,080209,2418.7065,N,08120.9502,W,1,8,1.7,22,M,,M,,*53
06/07/2014	08:02:09.657	$GPGGA,080210,2418.7061,N,08120.9482,W,1,8,1.6,22,M,,M,,*57
06/07/2014	08:02:10.761	$GPGGA,080211,2418.7056,N,08120.9463,W,1,8,1.6,22,M,,M,,*5D
06/07/2014	08:02:11.724	$GPGGA,080212,2418.7054,N,08120.9442,W,1,8,1.6,22,M,,M,,*5F
06/07/2014	08:02:12.778	$GPGGA,080213,2418.7049,N,08120.9423,W,1,9,1.6,22,M,,M,,*54
06/07/2014	08:02:13.698	$GPGGA,080214,2418.7045,N,08120.9404,W,1,9,1.6,22,M,,M,,*5A
06/07/2014	08:02:14.772	$GPGGA,080215,2418.7040,N,08120.9385,W,1,9,1.6,21,M,,M,,*53
06/07/2014	08:02:15.704	$GPGGA,080216,2418.7038,N,08120.9365,W,1,9,1.9,21,M,,M,,*5E
06/07/2014	08:02:16.759	$GPGGA,080217,2418.7032,N,08120.9345,W,1,8,1.9,21,M,,M,,*56
06/07/2014	08:02:17.660	$GPGGA,080218,2418.7028,N,08120.9325,W,1,8,1.9,21,M,,M,,*54
06/07/2014	08:02:18.784	$GPGGA,080219,2418.7025,N,08120.9306,W,1,8,1.9,21,M,,M,,*59
06/07/2014	08:02:19.717	$GPGGA,080220,2418.7021,N,08120.9285,W,1,8,1.9,21,M,,M,,*5D
06/07/2014	08:02:20.760	$GPGGA,080221,2418.7017,N,08120.9267,W,1,8,1.6,21,M,,M,,*5A
06/07/2014	08:02:21.674	$GPGGA,080222,2418.7014,N,08120.9248,W,1,8,1.6,21,M,,M,,*57
06/07/2014	08:02:22.770	$GPGGA,080223,2418.7009,N,08120.9227,W,1,8,1.6,21,M,,M,,*53
06/07/2014	08:02:23.728	$GPGGA,080224,2418.7006,N,08120.9207,W,1,8,1.6,21,M,,M,,*59
06/07/2014	08:02:24.741	$GPGGA,080225,2418.7003,N,08120.9188,W,1,9,1.6,21,M,,M,,*58
06/07/2014	08:02:25.694	$GPGGA,080226,2418.6999,N,08120.9168,W,1,9,1.6,21,M,,M,,*5E
06/07/2014	08:02:26.798	$GPGGA,080227,2418.6996,N,08120.9148,W,1,9,1.6,21,M,,M,,*52
06/07/2014	08:02:27.720	$GPGGA,080228,2418.6993,N,08120.9129,W,1,9,1.6,21,M,,M,,*5F
06/07/2014	08:02:28.676	$GPGGA,080229,2418.6988,N,08120.9109,W,1,9,1.6,21,M,,M,,*56
06/07/2014	08:02:29.678	$GPGGA,080230,2418.6985,N,08120.9089,W,1,9,1.9,21,M,,M,,*55
06/07/2014	08:02:30.758	$GPGGA,080231,2418.6981,N,08120.9070,W,1,8,1.8,21,M,,M,,*56
06/07/2014	08:02:31.731	$GPGGA,080232,2418.6977,N,08120.9050,W,1,8,1.9,20,M,,M,,*5E
06/07/2014	08:02:32.784	$GPGGA,080233,2418.6974,N,08120.9031,W,1,8,1.9,20,M,,M,,*5B
06/07/2014	08:02:33.707	$GPGGA,080234,2418.6970,N,08120.9011,W,1,8,1.9,20,M,,M,,*5A
06/07/2014	08:02:34.790	$GPGGA,080235,2418.6966,N,08120.8991,W,1,8,1.6,20,M,,M,,*53
06/07/2014	08:02:35.694	$GPGGA,080236,2418.6962,N,08120.8972,W,1,8,1.6,20,M,,M,,*59
06/07/2014	08:02:36.766	$GPGGA,080237,2418.6958,N,08120.8952,W,1,8,1.9,20,M,,M,,*5C
06/07/2014	08:02:37.542	$GPGGA,080238,2418.6953,N,08120.8934,W,1,8,1.6,20,M,,M,,*57
06/07/2014	08:02:38.604	$GPGGA,080239,2418.6949,N,08120.8916,W,1,9,1.7,20,M,,M,,*5D
06/07/2014	08:02:39.548	$GPGGA,080240,2418.6945,N,08120.8895,W,1,9,1.9,20,M,,M,,*5B
06/07/2014	08:02:40.610	$GPGGA,080241,2418.6941,N,08120.8873,W,1,8,1.9,20,M,,M,,*57
06/07/2014	08:02:41.513	$GPGGA,080242,2418.6938,N,08120.8851,W,1,8,1.9,20,M,,M,,*5A
06/07/2014	08:02:42.647	$GPGGA,080243,2418.6935,N,08120.8831,W,1,9,1.9,20,M,,M,,*51
06/07/2014	08:02:43.561	$GPGGA,080244,2418.6929,N,08120.8813,W,1,9,3.2,20,M,,M,,*52
06/07/2014	08:02:44.655	$GPGGA,080245,2418.6926,N,08120.8795,W,1,7,1.9,20,M,,M,,*5A
06/07/2014	08:02:45.625	$GPGGA,080246,2418.6922,N,08120.8778,W,1,7,1.6,21,M,,M,,*50
06/07/2014	08:02:46.689	$GPGGA,080247,2418.6917,N,08120.8757,W,1,9,1.6,21,M,,M,,*54
06/07/2014	08:02:47.631	$GPGGA,080248,2418.6913,N,08120.8738,W,1,9,1.7,21,M,,M,,*57
06/07/2014	08:02:48.675	$GPGGA,080249,2418.6909,N,08120.8719,W,1,8,1.6,21,M,,M,,*5E
06/07/2014	08:02:49.626	$GPGGA,080250,2418.6905,N,08120.8699,W,1,8,1.6,21,M,,M,,*53
06/07/2014	08:02:50.629	$GPGGA,080251,2418.6901,N,08120.8680,W,1,9,1.6,21,M,,M,,*5F
06/07/2014	08:02:51.633	$GPGGA,080252,2418.6897,N,08120.8661,W,1,9,1.6,21,M,,M,,*5D
06/07/2014	08:02:52.655	$GPGGA,080253,2418.6893,N,08120.8642,W,1,9,1.6,21,M,,M,,*59
06/07/2014	08:02:53.638	$GPGGA,080254,2418.6888,N,08120.8623,W,1,9,1.6,21,M,,M,,*53
06/07/2014	08:02:54.712	$GPGGA,080255,2418.6884,N,08120.8603,W,1,9,1.6,22,M,,M,,*5F
06/07/2014	08:02:55.644	$GPGGA,080256,2418.6880,N,08120.8584,W,1,9,1.6,22,M,,M,,*54
06/07/2014	08:02:56.657	$GPGGA,080257,2418.6876,N,08120.8566,W,1,9,1.6,22,M,,M,,*50
06/07/2014	08:02:57.630	$GPGGA,080258,2418.6871,N,08120.8546,W,1,9,1.6,22,M,,M,,*5A
06/07/2014	08:02:58.696	$GPGGA,080259,2418.6868,N,08120.8527,W,1,9,1.6,22,M,,M,,*54
06/07/2014	08:02:59.656	$GPGGA,080300,2418.6864,N,08120.8508,W,1,9,1.6,22,M,,M,,*58
06/07/2014	08:03:00.669	$GPGGA,080301,2418.6859,N,08120.8488,W,1,9,1.6,22,M,,M,,*5E
06/07/2014	08:03:01.652	$GPGGA,080302,2418.6857,N,08120.8470,W,1,9,1.6,22,M,,M,,*54
06/07/2014	08:03:02.665	$GPGGA,080303,2418.6851,N,08120.8451,W,1,9,1.6,22,M,,M,,*50
06/07/2014	08:03:03.668	$GPGGA,080304,2418.6848,N,08120.8432,W,1,9,1.6,22,M,,M,,*5A
06/07/2014	08:03:04.691	$GPGGA,080305,2418.6843,N,08120.8413,W,1,9,1.6,22,M,,M,,*53
06/07/2014	08:03:05.643	$GPGGA,080306,2418.6840,N,08120.8394,W,1,9,1.6,22,M,,M,,*5B
06/07/2014	08:03:06.716	$GPGGA,080307,2418.6836,N,08120.8374,W,1,9,1.6,22,M,,M,,*55
06/07/2014	08:03:07.659	$GPGGA,080308,2418.6832,N,08120.8354,W,1,9,1.9,22,M,,M,,*53
06/07/2014	08:03:08.672	$GPGGA,080309,2418.6828,N,08120.8335,W,1,8,1.6,22,M,,M,,*50
06/07/2014	08:03:09.635	$GPGGA,080310,2418.6825,N,08120.8316,W,1,8,1.6,22,M,,M,,*54
06/07/2014	08:03:10.648	$GPGGA,080311,2418.6825,N,08120.8316,W,1,9,1.6,22,M,,M,,*54
06/07/2014	08:03:11.651	$GPGGA,080312,2418.6817,N,08120.8279,W,1,9,1.9,22,M,,M,,*51
06/07/2014	08:03:12.694	$GPGGA,080313,2418.6814,N,08120.8259,W,1,8,1.9,22,M,,M,,*50
06/07/2014	08:03:13.667	$GPGGA,080314,2418.6811,N,08120.8237,W,1,8,1.6,22,M,,M,,*55
06/07/2014	08:03:14.680	$GPGGA,080315,2418.6807,N,08120.8218,W,1,9,1.9,22,M,,M,,*50
06/07/2014	08:03:15.653	$GPGGA,080316,2418.6803,N,08120.8201,W,1,9,1.9,22,M,,M,,*5F
06/07/2014	08:03:16.656	$GPGGA,080317,2418.6803,N,08120.8201,W,1,9,1.6,22,M,,M,,*51
06/07/2014	08:03:17.659	$GPGGA,080318,2418.6796,N,08120.8163,W,1,9,1.6,22,M,,M,,*5A
06/07/2014	08:03:18.702	$GPGGA,080319,2418.6796,N,08120.8163,W,1,8,1.9,22,M,,M,,*55
06/07/2014	08:03:19.665	$GPGGA,080320,2418.6787,N,08120.8124,W,1,8,1.9,22,M,,M,,*5C
06/07/2014	08:03:20.708	$GPGGA,080321,2418.6785,N,08120.8103,W,1,8,1.9,22,M,,M,,*5A
06/07/2014	08:03:21.651	$GPGGA,080322,2418.6781,N,08120.8083,W,1,8,1.9,22,M,,M,,*54
06/07/2014	08:03:22.676	$GPGGA,080323,2418.6781,N,08120.8083,W,1,8,1.9,22,M,,M,,*55
06/07/2014	08:03:23.666	$GPGGA,080324,2418.6774,N,08120.8044,W,1,8,1.9,22,M,,M,,*53
06/07/2014	08:03:24.729	$GPGGA,080325,2418.6771,N,08120.8024,W,1,8,1.9,22,M,,M,,*51
06/07/2014	08:03:25.772	$GPGGA,080326,2418.6767,N,08120.8004,W,1,8,1.9,22,M,,M,,*57
06/07/2014	08:03:26.665	$GPGGA,080327,2418.6767,N,08120.8004,W,1,8,1.9,22,M,,M,,*56
06/07/2014	08:03:27.789	$GPGGA,080328,2418.6760,N,08120.7966,W,1,8,1.9,22,M,,M,,*5C
06/07/2014	08:03:28.802	$GPGGA,080329,2418.6756,N,08120.7945,W,1,8,1.9,22,M,,M,,*59
06/07/2014	08:03:29.664	$GPGGA,080330,2418.6752,N,08120.7926,W,1,8,1.9,22,M,,M,,*50
06/07/2014	08:03:30.680	$GPGGA,080331,2418.6752,N,08120.7926,W,1,8,1.9,22,M,,M,,*51
06/07/2014	08:03:31.760	$GPGGA,080332,2418.6745,N,08120.7888,W,1,8,1.9,22,M,,M,,*51
06/07/2014	08:03:32.673	$GPGGA,080333,2418.6745,N,08120.7888,W,1,9,1.6,22,M,,M,,*5E
06/07/2014	08:03:33.666	$GPGGA,080334,2418.6738,N,08120.7850,W,1,9,2.1,21,M,,M,,*51
06/07/2014	08:03:34.779	$GPGGA,080335,2418.6734,N,08120.7831,W,1,8,1.9,21,M,,M,,*51
06/07/2014	08:03:35.682	$GPGGA,080336,2418.6731,N,08120.7812,W,1,8,1.9,21,M,,M,,*56
06/07/2014	08:03:36.775	$GPGGA,080337,2418.6727,N,08120.7794,W,1,8,1.9,21,M,,M,,*51
06/07/2014	08:03:37.490	$GPGGA,080338,2418.6724,N,08120.7774,W,1,8,1.9,21,M,,M,,*53
06/07/2014	08:03:38.603	$GPGGA,080339,2418.6721,N,08120.7755,W,1,8,1.9,21,M,,M,,*54
06/07/2014	08:03:39.506	$GPGGA,080340,2418.6718,N,08120.7737,W,1,8,1.9,21,M,,M,,*54
06/07/2014	08:03:40.598	$GPGGA,080341,2418.6714,N,08120.7717,W,1,8,1.9,21,M,,M,,*5B
06/07/2014	08:03:41.601	$GPGGA,080342,2418.6710,N,08120.7699,W,1,8,1.9,21,M,,M,,*5B
06/07/2014	08:03:42.624	$GPGGA,080343,2418.6707,N,08120.7679,W,1,8,1.9,21,M,,M,,*52
06/07/2014	08:03:43.627	$GPGGA,080344,2418.6704,N,08120.7660,W,1,8,1.9,20,M,,M,,*5F
06/07/2014	08:03:44.620	$GPGGA,080345,2418.6700,N,08120.7641,W,1,8,1.9,20,M,,M,,*59
06/07/2014	08:03:45.603	$GPGGA,080346,2418.6696,N,08120.7622,W,1,8,1.9,20,M,,M,,*51
06/07/2014	08:03:46.616	$GPGGA,080347,2418.6693,N,08120.7603,W,1,8,1.9,20,M,,M,,*56
06/07/2014	08:03:47.609	$GPGGA,080348,2418.6689,N,08120.7583,W,1,8,1.9,20,M,,M,,*59
06/07/2014	08:03:48.642	$GPGGA,080349,2418.6685,N,08120.7565,W,1,8,1.9,20,M,,M,,*5C
06/07/2014	08:03:49.595	$GPGGA,080350,2418.6681,N,08120.7545,W,1,8,1.9,20,M,,M,,*52
06/07/2014	08:03:50.628	$GPGGA,080351,2418.6678,N,08120.7527,W,1,8,1.9,20,M,,M,,*51
06/07/2014	08:03:51.601	$GPGGA,080352,2418.6675,N,08120.7507,W,1,8,1.7,20,M,,M,,*53
06/07/2014	08:03:52.624	$GPGGA,080353,2418.6675,N,08120.7507,W,1,8,1.9,20,M,,M,,*5C
06/07/2014	08:03:53.601	$GPGGA,080354,2418.6669,N,08120.7466,W,1,8,1.9,20,M,,M,,*50
06/07/2014	08:03:54.640	$GPGGA,080355,2418.6665,N,08120.7447,W,1,8,1.9,20,M,,M,,*5E
06/07/2014	08:03:55.613	$GPGGA,080356,2418.6662,N,08120.7428,W,1,8,1.9,19,M,,M,,*59
06/07/2014	08:03:56.626	$GPGGA,080357,2418.6657,N,08120.7408,W,1,8,1.9,19,M,,M,,*5C
06/07/2014	08:03:57.608	$GPGGA,080358,2418.6655,N,08120.7389,W,1,8,1.9,19,M,,M,,*5F
06/07/2014	08:03:58.631	$GPGGA,080359,2418.6651,N,08120.7370,W,1,8,1.9,19,M,,M,,*5C
06/07/2014	08:03:59.634	$GPGGA,080400,2418.6646,N,08120.7351,W,1,8,2.1,19,M,,M,,*59
06/07/2014	08:04:00.637	$GPGGA,080401,2418.6644,N,08120.7332,W,1,8,1.9,19,M,,M,,*54
06/07/2014	08:04:01.605	$GPGGA,080402,2418.6639,N,08120.7313,W,1,8,1.9,19,M,,M,,*5E
06/07/2014	08:04:02.619	$GPGGA,080403,2418.6635,N,08120.7295,W,1,8,1.9,19,M,,M,,*5C
06/07/2014	08:04:03.626	$GPGGA,080404,2418.6633,N,08120.7275,W,1,8,1.9,19,M,,M,,*53
06/07/2014	08:04:04.629	$GPGGA,080405,2418.6629,N,08120.7254,W,1,8,1.9,19,M,,M,,*5A
06/07/2014	08:04:05.602	$GPGGA,080406,2418.6626,N,08120.7237,W,1,8,1.6,19,M,,M,,*5C
06/07/2014	08:04:06.635	$GPGGA,080407,2418.6622,N,08120.7218,W,1,9,1.6,19,M,,M,,*55
06/07/2014	08:04:07.640	$GPGGA,080408,2418.6618,N,08120.7198,W,1,9,1.9,19,M,,M,,*57
06/07/2014	08:04:08.733	$GPGGA,080409,2418.6615,N,08120.7178,W,1,8,1.9,18,M,,M,,*55
06/07/2014	08:04:09.618	$GPGGA,080410,2418.6610,N,08120.7160,W,1,8,1.6,18,M,,M,,*5E
06/07/2014	08:04:10.647	$GPGGA,080411,2418.6608,N,08120.7141,W,1,9,1.6,18,M,,M,,*54
06/07/2014	08:04:11.741	$GPGGA,080412,2418.6604,N,08120.7120,W,1,9,1.9,18,M,,M,,*53
06/07/2014	08:04:12.641	$GPGGA,080413,2418.6599,N,08120.7102,W,1,8,1.9,18,M,,M,,*54
06/07/2014	08:04:13.616	$GPGGA,080414,2418.6595,N,08120.7082,W,1,8,1.9,18,M,,M,,*56
06/07/2014	08:04:14.630	$GPGGA,080415,2418.6591,N,08120.7062,W,1,8,1.9,18,M,,M,,*5D
06/07/2014	08:04:15.631	$GPGGA,080416,2418.6588,N,08120.7044,W,1,8,1.9,18,M,,M,,*52
06/07/2014	08:04:16.624	$GPGGA,080417,2418.6584,N,08120.7025,W,1,7,2.1,18,M,,M,,*5C
06/07/2014	08:04:17.617	$GPGGA,080418,2418.6579,N,08120.7006,W,1,7,1.6,18,M,,M,,*54
06/07/2014	08:04:18.720	$GPGGA,080419,2418.6575,N,08120.6988,W,1,9,1.6,18,M,,M,,*59
06/07/2014	08:04:19.646	$GPGGA,080420,2418.6572,N,08120.6969,W,1,9,1.6,18,M,,M,,*5B
06/07/2014	08:04:20.746	$GPGGA,080421,2418.6568,N,08120.6950,W,1,9,1.6,18,M,,M,,*5B
06/07/2014	08:04:21.629	$GPGGA,080422,2418.6564,N,08120.6933,W,1,9,1.6,18,M,,M,,*51
06/07/2014	08:04:22.742	$GPGGA,080423,2418.6559,N,08120.6913,W,1,8,1.7,18,M,,M,,*5C
06/07/2014	08:04:23.755	$GPGGA,080424,2418.6555,N,08120.6894,W,1,8,1.6,18,M,,M,,*58
06/07/2014	08:04:24.728	$GPGGA,080425,2418.6552,N,08120.6875,W,1,9,1.6,19,M,,M,,*51
06/07/2014	08:04:25.631	$GPGGA,080426,2418.6547,N,08120.6856,W,1,9,1.7,19,M,,M,,*56
06/07/2014	08:04:26.724	$GPGGA,080427,2418.6543,N,08120.6837,W,1,9,1.6,19,M,,M,,*55
06/07/2014	08:04:27.747	$GPGGA,080428,2418.6539,N,08120.6818,W,1,9,1.6,19,M,,M,,*5A
06/07/2014	08:04:28.750	$GPGGA,080429,2418.6535,N,08120.6799,W,1,9,1.6,19,M,,M,,*51
06/07/2014	08:04:29.723	$GPGGA,080430,2418.6530,N,08120.6780,W,1,9,1.6,19,M,,M,,*54
06/07/2014	08:04:30.746	$GPGGA,080431,2418.6526,N,08120.6762,W,1,9,1.6,19,M,,M,,*5E
06/07/2014	08:04:31.750	$GPGGA,080432,2418.6522,N,08120.6743,W,1,9,1.6,19,M,,M,,*5A
06/07/2014	08:04:32.752	$GPGGA,080433,2418.6518,N,08120.6723,W,1,9,1.6,19,M,,M,,*54
06/07/2014	08:04:33.734	$GPGGA,080434,2418.6514,N,08120.6705,W,1,9,1.6,19,M,,M,,*5B
06/07/2014	08:04:34.756	$GPGGA,080435,2418.6510,N,08120.6686,W,1,9,1.6,19,M,,M,,*54
06/07/2014	08:04:35.749	$GPGGA,080436,2418.6507,N,08120.6666,W,1,9,1.6,20,M,,M,,*55
06/07/2014	08:04:36.752	$GPGGA,080437,2418.6503,N,08120.6647,W,1,9,1.6,20,M,,M,,*53
06/07/2014	08:04:37.568	$GPGGA,080438,2418.6499,N,08120.6628,W,1,9,1.9,20,M,,M,,*58
06/07/2014	08:04:38.601	$GPGGA,080439,2418.6496,N,08120.6608,W,1,8,1.9,20,M,,M,,*55
06/07/2014	08:04:39.573	$GPGGA,080440,2418.6492,N,08120.6588,W,1,8,1.9,20,M,,M,,*54
06/07/2014	08:04:40.576	$GPGGA,080441,2418.6487,N,08120.6569,W,1,8,1.9,20,M,,M,,*5E
06/07/2014	08:04:41.569	$GPGGA,080442,2418.6485,N,08120.6550,W,1,8,1.9,20,M,,M,,*55
06/07/2014	08:04:42.602	$GPGGA,080443,2418.6480,N,08120.6530,W,1,8,1.9,20,M,,M,,*57
06/07/2014	08:04:43.584	$GPGGA,080444,2418.6476,N,08120.6512,W,1,8,1.9,20,M,,M,,*59
06/07/2014	08:04:44.557	$GPGGA,080445,2418.6472,N,08120.6492,W,1,8,1.9,20,M,,M,,*55
06/07/2014	08:04:45.570	$GPGGA,080446,2418.6469,N,08120.6472,W,1,8,1.6,20,M,,M,,*5D
06/07/2014	08:04:46.592	$GPGGA,080447,2418.6467,N,08120.6453,W,1,8,1.9,20,M,,M,,*5E
06/07/2014	08:04:47.575	$GPGGA,080448,2418.6462,N,08120.6434,W,1,8,1.9,20,M,,M,,*55
06/07/2014	08:04:48.608	$GPGGA,080449,2418.6458,N,08120.6414,W,1,7,2.1,20,M,,M,,*5B
06/07/2014	08:04:49.570	$GPGGA,080450,2418.6456,N,08120.6394,W,1,7,1.9,21,M,,M,,*58
06/07/2014	08:04:50.602	$GPGGA,080451,2418.6452,N,08120.6375,W,1,8,1.9,21,M,,M,,*5D
06/07/2014	08:04:51.595	$GPGGA,080452,2418.6449,N,08120.6355,W,1,8,1.9,21,M,,M,,*56
06/07/2014	08:04:52.597	$GPGGA,080453,2418.6445,N,08120.6335,W,1,8,1.9,21,M,,M,,*5D
06/07/2014	08:04:53.580	$GPGGA,080454,2418.6442,N,08120.6316,W,1,8,1.9,21,M,,M,,*5C
06/07/2014	08:04:54.673	$GPGGA,080455,2418.6438,N,08120.6299,W,1,7,2.1,21,M,,M,,*52
06/07/2014	08:04:55.596	$GPGGA,080456,2418.6435,N,08120.6279,W,1,7,1.6,21,M,,M,,*56
06/07/2014	08:04:56.568	$GPGGA,080457,2418.6432,N,08120.6259,W,1,9,1.6,21,M,,M,,*5C
06/07/2014	08:04:57.581	$GPGGA,080458,2418.6428,N,08120.6238,W,1,9,1.6,21,M,,M,,*5F
06/07/2014	08:04:58.594	$GPGGA,080459,2418.6425,N,08120.6218,W,1,9,1.6,21,M,,M,,*51
06/07/2014	08:04:59.596	$GPGGA,080500,2418.6421,N,08120.6199,W,1,9,1.6,22,M,,M,,*51
06/07/2014	08:05:00.669	$GPGGA,080501,2418.6418,N,08120.6178,W,1,9,1.6,22,M,,M,,*55
06/07/2014	08:05:01.583	$GPGGA,080502,2418.6415,N,08120.6159,W,1,9,1.6,22,M,,M,,*58
06/07/2014	08:05:02.665	$GPGGA,080503,2418.6411,N,08120.6139,W,1,9,1.6,22,M,,M,,*5B
06/07/2014	08:05:03.687	$GPGGA,080504,2418.6407,N,08120.6119,W,1,9,1.6,22,M,,M,,*59
06/07/2014	08:05:04.570	$GPGGA,080505,2418.6404,N,08120.6099,W,1,9,1.6,22,M,,M,,*52
06/07/2014	08:05:05.572	$GPGGA,080506,2418.6402,N,08120.6079,W,1,9,1.6,22,M,,M,,*59
06/07/2014	08:05:06.585	$GPGGA,080507,2418.6398,N,08120.6060,W,1,9,1.6,22,M,,M,,*54
06/07/2014	08:05:07.688	$GPGGA,080508,2418.6395,N,08120.6039,W,1,9,1.6,22,M,,M,,*5A
06/07/2014	08:05:08.680	$GPGGA,080509,2418.6391,N,08120.6020,W,1,9,1.6,23,M,,M,,*56
06/07/2014	08:05:09.683	$GPGGA,080510,2418.6386,N,08120.6001,W,1,9,1.6,23,M,,M,,*5B
06/07/2014	08:05:10.695	$GPGGA,080511,2418.6384,N,08120.5981,W,1,9,1.6,23,M,,M,,*5A
06/07/2014	08:05:11.688	$GPGGA,080512,2418.6380,N,08120.5961,W,1,9,1.6,23,M,,M,,*53
06/07/2014	08:05:12.681	$GPGGA,080513,2418.6375,N,08120.5943,W,1,9,1.6,23,M,,M,,*58
06/07/2014	08:05:13.683	$GPGGA,080514,2418.6373,N,08120.5922,W,1,9,1.6,23,M,,M,,*5E
06/07/2014	08:05:14.696	$GPGGA,080515,2418.6369,N,08120.5902,W,1,9,1.6,23,M,,M,,*56
06/07/2014	08:05:15.699	$GPGGA,080516,2418.6366,N,08120.5884,W,1,9,1.6,23,M,,M,,*55
06/07/2014	08:05:16.691	$GPGGA,080517,2418.6362,N,08120.5864,W,1,9,1.6,23,M,,M,,*5E
06/07/2014	08:05:17.694	$GPGGA,080518,2418.6358,N,08120.5845,W,1,9,1.9,24,M,,M,,*53
06/07/2014	08:05:18.717	$GPGGA,080519,2418.6355,N,08120.5827,W,1,9,1.6,24,M,,M,,*54
06/07/2014	08:05:19.700	$GPGGA,080520,2418.6350,N,08120.5807,W,1,9,1.8,24,M,,M,,*57
06/07/2014	08:05:20.682	$GPGGA,080521,2418.6348,N,08120.5788,W,1,8,1.9,24,M,,M,,*57
06/07/2014	08:05:21.685	$GPGGA,080522,2418.6344,N,08120.5768,W,1,8,2.1,24,M,,M,,*5D
06/07/2014	08:05:22.708	$GPGGA,080523,2418.6340,N,08120.5748,W,1,8,1.9,24,M,,M,,*51
06/07/2014	08:05:23.720	$GPGGA,080524,2418.6337,N,08120.5728,W,1,8,1.9,24,M,,M,,*50
06/07/2014	08:05:24.704	$GPGGA,080525,2418.6333,N,08120.5709,W,1,8,1.9,24,M,,M,,*56
06/07/2014	08:05:25.675	$GPGGA,080526,2418.6328,N,08120.5688,W,1,8,1.9,24,M,,M,,*57
06/07/2014	08:05:26.707	$GPGGA,080527,2418.6324,N,08120.5668,W,1,8,1.9,24,M,,M,,*54
06/07/2014	08:05:27.690	$GPGGA,080528,2418.6320,N,08120.5649,W,1,8,1.9,24,M,,M,,*5C
06/07/2014	08:05:28.733	$GPGGA,080529,2418.6316,N,08120.5628,W,1,8,1.9,24,M,,M,,*5F
06/07/2014	08:05:29.695	$GPGGA,080530,2418.6312,N,08120.5608,W,1,8,1.9,24,M,,M,,*51
06/07/2014	08:05:30.718	$GPGGA,080531,2418.6309,N,08120.5588,W,1,8,1.9,24,M,,M,,*51
06/07/2014	08:05:31.691	$GPGGA,080532,2418.6306,N,08120.5569,W,1,8,1.9,24,M,,M,,*52
06/07/2014	08:05:32.714	$GPGGA,080533,2418.6301,N,08120.5548,W,1,7,2.1,24,M,,M,,*53
06/07/2014	08:05:33.706	$GPGGA,080534,2418.6298,N,08120.5530,W,1,7,1.9,24,M,,M,,*51
06/07/2014	08:05:34.730	$GPGGA,080535,2418.6294,N,08120.5511,W,1,7,2.1,24,M,,M,,*54
06/07/2014	08:05:35.712	$GPGGA,080536,2418.6291,N,08120.5492,W,1,7,1.9,24,M,,M,,*53
06/07/2014	08:05:36.724	$GPGGA,080537,2418.6288,N,08120.5473,W,1,8,1.9,24,M,,M,,*5A
06/07/2014	08:05:37.528	$GPGGA,080538,2418.6284,N,08120.5454,W,1,8,1.9,24,M,,M,,*5C
06/07/2014	08:05:38.560	$GPGGA,080539,2418.6281,N,08120.5434,W,1,8,1.9,24,M,,M,,*5E
06/07/2014	08:05:39.552	$GPGGA,080540,2418.6277,N,08120.5415,W,1,8,1.9,24,M,,M,,*5A
06/07/2014	08:05:40.551	$GPGGA,080541,2418.6273,N,08120.5395,W,1,7,2.1,24,M,,M,,*54
06/07/2014	08:05:41.530	$GPGGA,080542,2418.6270,N,08120.5375,W,1,7,1.9,23,M,,M,,*56
06/07/2014	08:05:42.570	$GPGGA,080543,2418.6266,N,08120.5357,W,1,7,2.1,23,M,,M,,*5B
06/07/2014	08:05:43.542	$GPGGA,080544,2418.6261,N,08120.5340,W,1,7,1.6,23,M,,M,,*59
06/07/2014	08:05:44.535	$GPGGA,080545,2418.6258,N,08120.5320,W,1,8,1.8,23,M,,M,,*55
06/07/2014	08:05:45.658	$GPGGA,080546,2418.6254,N,08120.5300,W,1,8,2.1,23,M,,M,,*52
06/07/2014	08:05:46.540	$GPGGA,080547,2418.6250,N,08120.5282,W,1,8,1.8,23,M,,M,,*56
06/07/2014	08:05:47.563	$GPGGA,080548,2418.6247,N,08120.5262,W,1,8,1.8,23,M,,M,,*51
06/07/2014	08:05:48.566	$GPGGA,080549,2418.6243,N,08120.5241,W,1,8,1.9,23,M,,M,,*54
06/07/2014	08:05:49.548	$GPGGA,080550,2418.6239,N,08120.5221,W,1,8,1.9,23,M,,M,,*57
06/07/2014	08:05:50.681	$GPGGA,080551,2418.6236,N,08120.5203,W,1,7,2.1,23,M,,M,,*5D
06/07/2014	08:05:51.568	$GPGGA,080552,2418.6232,N,08120.5183,W,1,7,1.6,22,M,,M,,*54
06/07/2014	08:05:52.536	$GPGGA,080553,2418.6228,N,08120.5164,W,1,8,1.9,22,M,,M,,*57
06/07/2014	08:05:53.559	$GPGGA,080554,2418.6225,N,08120.5143,W,1,8,1.9,22,M,,M,,*58
06/07/2014	08:05:54.672	$GPGGA,080555,2418.6221,N,08120.5125,W,1,8,1.9,22,M,,M,,*5D
06/07/2014	08:05:55.564	$GPGGA,080556,2418.6215,N,08120.5105,W,1,8,1.8,22,M,,M,,*5A
06/07/2014	08:05:56.557	$GPGGA,080557,2418.6212,N,08120.5086,W,1,9,1.6,22,M,,M,,*59
06/07/2014	08:05:57.651	$GPGGA,080558,2418.6209,N,08120.5067,W,1,9,1.8,22,M,,M,,*5D
06/07/2014	08:05:58.673	$GPGGA,080559,2418.6205,N,08120.5048,W,1,9,1.6,22,M,,M,,*53
06/07/2014	08:05:59.667	$GPGGA,080600,2418.6201,N,08120.5028,W,1,9,1.6,22,M,,M,,*5E
06/07/2014	08:06:00.667	$GPGGA,080601,2418.6197,N,08120.5008,W,1,9,1.6,22,M,,M,,*51
06/07/2014	08:06:01.650	$GPGGA,080602,2418.6194,N,08120.4988,W,1,9,1.6,22,M,,M,,*51
06/07/2014	08:06:02.663	$GPGGA,080603,2418.6190,N,08120.4969,W,1,9,1.6,22,M,,M,,*5B
06/07/2014	08:06:03.655	$GPGGA,080604,2418.6186,N,08120.4948,W,1,9,1.6,22,M,,M,,*58
06/07/2014	08:06:04.698	$GPGGA,080605,2418.6182,N,08120.4928,W,1,9,1.6,21,M,,M,,*58
06/07/2014	08:06:05.641	$GPGGA,080606,2418.6179,N,08120.4908,W,1,9,1.6,21,M,,M,,*5D
06/07/2014	08:06:06.674	$GPGGA,080607,2418.6175,N,08120.4887,W,1,9,1.6,21,M,,M,,*56
06/07/2014	08:06:07.676	$GPGGA,080608,2418.6171,N,08120.4867,W,1,9,1.6,21,M,,M,,*53
06/07/2014	08:06:08.669	$GPGGA,080609,2418.6168,N,08120.4847,W,1,9,1.6,21,M,,M,,*58
06/07/2014	08:06:09.651	$GPGGA,080610,2418.6164,N,08120.4826,W,1,9,1.6,21,M,,M,,*5B
06/07/2014	08:06:10.674	$GPGGA,080611,2418.6161,N,08120.4806,W,1,9,1.6,21,M,,M,,*5D
06/07/2014	08:06:11.668	$GPGGA,080612,2418.6157,N,08120.4786,W,1,9,1.6,21,M,,M,,*5C
06/07/2014	08:06:12.661	$GPGGA,080613,2418.6153,N,08120.4766,W,1,9,1.6,21,M,,M,,*57
06/07/2014	08:06:13.652	$GPGGA,080614,2418.6150,N,08120.4745,W,1,9,1.6,21,M,,M,,*52
06/07/2014	08:06:16.241	$GPGGA,080616,2418.6143,N,08120.4705,W,1,9,1.6,21,M,,M,,*56
06/07/2014	08:06:16.680	$GPGGA,080617,2418.6140,N,08120.4684,W,1,9,1.6,21,M,,M,,*5C
06/07/2014	08:06:17.663	$GPGGA,080618,2418.6136,N,08120.4664,W,1,9,1.6,21,M,,M,,*5C
06/07/2014	08:06:18.695	$GPGGA,080619,2418.6132,N,08120.4644,W,1,9,1.6,21,M,,M,,*5B
06/07/2014	08:06:19.667	$GPGGA,080620,2418.6129,N,08120.4625,W,1,9,1.6,20,M,,M,,*5D
06/07/2014	08:06:20.670	$GPGGA,080621,2418.6125,N,08120.4604,W,1,9,1.6,20,M,,M,,*53
06/07/2014	08:06:21.653	$GPGGA,080622,2418.6121,N,08120.4584,W,1,9,1.6,20,M,,M,,*5F
06/07/2014	08:06:22.651	$GPGGA,080623,2418.6120,N,08120.4564,W,1,9,1.6,20,M,,M,,*51
06/07/2014	08:06:23.708	$GPGGA,080624,2418.6114,N,08120.4544,W,1,9,1.6,20,M,,M,,*53
06/07/2014	08:06:24.681	$GPGGA,080625,2418.6110,N,08120.4524,W,1,9,1.6,20,M,,M,,*50
06/07/2014	08:06:25.666	$GPGGA,080626,2418.6109,N,08120.4504,W,1,9,1.6,20,M,,M,,*59
06/07/2014	08:06:26.666	$GPGGA,080627,2418.6104,N,08120.4484,W,1,9,1.6,20,M,,M,,*5C
06/07/2014	08:06:27.679	$GPGGA,080628,2418.6100,N,08120.4464,W,1,9,1.6,20,M,,M,,*59
06/07/2014	08:06:28.702	$GPGGA,080629,2418.6097,N,08120.4444,W,1,9,1.6,20,M,,M,,*55
06/07/2014	08:06:29.681	$GPGGA,080630,2418.6093,N,08120.4424,W,1,9,1.6,20,M,,M,,*5F
06/07/2014	08:06:30.687	$GPGGA,080631,2418.6089,N,08120.4405,W,1,9,1.6,20,M,,M,,*56
06/07/2014	08:06:31.683	$GPGGA,080632,2418.6086,N,08120.4385,W,1,9,1.6,20,M,,M,,*55
06/07/2014	08:06:32.674	$GPGGA,080633,2418.6084,N,08120.4366,W,1,9,1.6,20,M,,M,,*5B
06/07/2014	08:06:33.676	$GPGGA,080634,2418.6079,N,08120.4347,W,1,9,1.6,20,M,,M,,*5D
06/07/2014	08:06:34.798	$GPGGA,080635,2418.6075,N,08120.4327,W,1,9,2.1,20,M,,M,,*52
06/07/2014	08:06:35.790	$GPGGA,080636,2418.6073,N,08120.4309,W,1,9,1.6,20,M,,M,,*5F
06/07/2014	08:06:36.685	$GPGGA,080637,2418.6070,N,08120.4292,W,1,9,1.6,20,M,,M,,*5E
06/07/2014	08:06:37.504	$GPGGA,080638,2418.6066,N,08120.4272,W,1,9,1.6,20,M,,M,,*58
06/07/2014	08:06:38.537	$GPGGA,080639,2418.6062,N,08120.4252,W,1,9,1.6,20,M,,M,,*5F
06/07/2014	08:06:39.530	$GPGGA,080640,2418.6059,N,08120.4233,W,1,9,1.6,20,M,,M,,*5E
06/07/2014	08:06:40.522	$GPGGA,080641,2418.6056,N,08120.4214,W,1,9,1.6,19,M,,M,,*5F
06/07/2014	08:06:41.515	$GPGGA,080642,2418.6052,N,08120.4195,W,1,9,1.8,19,M,,M,,*5C
06/07/2014	08:06:42.608	$GPGGA,080643,2418.6049,N,08120.4175,W,1,9,1.9,19,M,,M,,*58
06/07/2014	08:06:43.610	$GPGGA,080644,2418.6045,N,08120.4155,W,1,9,1.9,19,M,,M,,*51
06/07/2014	08:06:44.523	$GPGGA,080645,2418.6041,N,08120.4134,W,1,8,1.9,19,M,,M,,*52
06/07/2014	08:06:45.626	$GPGGA,080646,2418.6037,N,08120.4113,W,1,8,1.6,19,M,,M,,*5A
06/07/2014	08:06:46.518	$GPGGA,080647,2418.6034,N,08120.4094,W,1,9,1.6,19,M,,M,,*57
06/07/2014	08:06:47.651	$GPGGA,080648,2418.6030,N,08120.4073,W,1,9,1.9,19,M,,M,,*5A
06/07/2014	08:06:48.634	$GPGGA,080649,2418.6026,N,08120.4053,W,1,8,1.9,19,M,,M,,*5F
06/07/2014	08:06:49.637	$GPGGA,080650,2418.6023,N,08120.4034,W,1,8,1.6,19,M,,M,,*5C
06/07/2014	08:06:50.619	$GPGGA,080651,2418.6019,N,08120.4014,W,1,9,1.9,19,M,,M,,*58
06/07/2014	08:06:51.633	$GPGGA,080652,2418.6015,N,08120.3995,W,1,9,1.9,19,M,,M,,*50
06/07/2014	08:06:52.646	$GPGGA,080653,2418.6012,N,08120.3976,W,1,8,1.6,19,M,,M,,*55
06/07/2014	08:06:53.616	$GPGGA,080654,2418.6008,N,08120.3957,W,1,8,1.9,19,M,,M,,*55
06/07/2014	08:06:54.629	$GPGGA,080655,2418.6004,N,08120.3938,W,1,8,2.1,19,M,,M,,*5A
06/07/2014	08:06:55.632	$GPGGA,080656,2418.6002,N,08120.3920,W,1,8,1.9,19,M,,M,,*5D
06/07/2014	08:06:56.644	$GPGGA,080657,2418.5999,N,08120.3900,W,1,8,2.1,19,M,,M,,*5D
06/07/2014	08:06:57.617	$GPGGA,080658,2418.5995,N,08120.3880,W,1,8,1.9,19,M,,M,,*5C
06/07/2014	08:06:58.640	$GPGGA,080659,2418.5991,N,08120.3860,W,1,8,1.9,19,M,,M,,*57
06/07/2014	08:06:59.652	$GPGGA,080700,2418.5987,N,08120.3841,W,1,8,1.9,19,M,,M,,*5E
06/07/2014	08:07:00.655	$GPGGA,080701,2418.5984,N,08120.3821,W,1,8,1.9,19,M,,M,,*5A
06/07/2014	08:07:01.638	$GPGGA,080702,2418.5980,N,08120.3802,W,1,8,1.6,19,M,,M,,*53
06/07/2014	08:07:02.620	$GPGGA,080703,2418.5976,N,08120.3782,W,1,9,1.9,19,M,,M,,*52
06/07/2014	08:07:03.683	$GPGGA,080704,2418.5973,N,08120.3764,W,1,9,1.6,19,M,,M,,*57
06/07/2014	08:07:04.656	$GPGGA,080705,2418.5970,N,08120.3745,W,1,9,1.6,19,M,,M,,*56
06/07/2014	08:07:05.613	$GPGGA,080706,2418.5965,N,08120.3726,W,1,9,1.6,19,M,,M,,*54
06/07/2014	08:07:06.641	$GPGGA,080707,2418.5962,N,08120.3707,W,1,9,1.6,19,M,,M,,*51
06/07/2014	08:07:07.644	$GPGGA,080708,2418.5958,N,08120.3688,W,1,9,1.6,19,M,,M,,*51
06/07/2014	08:07:08.637	$GPGGA,080709,2418.5955,N,08120.3669,W,1,9,1.6,19,M,,M,,*52
06/07/2014	08:07:09.623	$GPGGA,080710,2418.5952,N,08120.3649,W,1,9,1.6,19,M,,M,,*5F
06/07/2014	08:07:10.641	$GPGGA,080711,2418.5947,N,08120.3630,W,1,9,1.6,19,M,,M,,*54
06/07/2014	08:07:11.644	$GPGGA,080712,2418.5944,N,08120.3609,W,1,9,1.6,19,M,,M,,*5E
06/07/2014	08:07:12.646	$GPGGA,080713,2418.5941,N,08120.3590,W,1,9,1.6,19,M,,M,,*59
06/07/2014	08:07:13.649	$GPGGA,080714,2418.5937,N,08120.3569,W,1,9,1.6,19,M,,M,,*59
06/07/2014	08:07:14.652	$GPGGA,080715,2418.5933,N,08120.3549,W,1,9,1.6,19,M,,M,,*5E
06/07/2014	08:07:15.655	$GPGGA,080716,2418.5930,N,08120.3529,W,1,9,1.6,19,M,,M,,*58
06/07/2014	08:07:16.731	$GPGGA,080717,2418.5927,N,08120.3509,W,1,9,1.6,19,M,,M,,*5D
06/07/2014	08:07:17.730	$GPGGA,080718,2418.5923,N,08120.3489,W,1,9,1.6,19,M,,M,,*5F
06/07/2014	08:07:18.673	$GPGGA,080719,2418.5919,N,08120.3469,W,1,9,1.6,19,M,,M,,*59
06/07/2014	08:07:19.655	$GPGGA,080720,2418.5916,N,08120.3449,W,1,9,1.6,19,M,,M,,*5E
06/07/2014	08:07:20.748	$GPGGA,080721,2418.5914,N,08120.3429,W,1,9,1.6,19,M,,M,,*5B
06/07/2014	08:07:21.641	$GPGGA,080722,2418.5909,N,08120.3409,W,1,9,1.6,19,M,,M,,*56
06/07/2014	08:07:22.734	$GPGGA,080723,2418.5905,N,08120.3389,W,1,9,1.6,19,M,,M,,*54
06/07/2014	08:07:23.686	$GPGGA,080724,2418.5902,N,08120.3370,W,1,9,1.6,20,M,,M,,*58
06/07/2014	08:07:24.639	$GPGGA,080725,2418.5898,N,08120.3350,W,1,9,1.6,20,M,,M,,*59
06/07/2014	08:07:25.722	$GPGGA,080726,2418.5896,N,08120.3330,W,1,9,1.6,20,M,,M,,*52
06/07/2014	08:07:26.746	$GPGGA,080727,2418.5892,N,08120.3310,W,1,9,1.6,20,M,,M,,*55
06/07/2014	08:07:27.749	$GPGGA,080728,2418.5889,N,08120.3290,W,1,9,1.6,20,M,,M,,*59
06/07/2014	08:07:28.769	$GPGGA,080729,2418.5885,N,08120.3270,W,1,9,1.6,20,M,,M,,*5A
06/07/2014	08:07:29.742	$GPGGA,080730,2418.5882,N,08120.3249,W,1,9,1.6,20,M,,M,,*5F
06/07/2014	08:07:30.744	$GPGGA,080731,2418.5878,N,08120.3229,W,1,9,1.6,20,M,,M,,*5D
06/07/2014	08:07:31.667	$GPGGA,080732,2418.5874,N,08120.3210,W,1,9,1.6,20,M,,M,,*58
06/07/2014	08:07:32.740	$GPGGA,080733,2418.5871,N,08120.3189,W,1,9,1.6,20,M,,M,,*5F
06/07/2014	08:07:33.742	$GPGGA,080734,2418.5867,N,08120.3169,W,1,9,1.6,20,M,,M,,*51
06/07/2014	08:07:34.735	$GPGGA,080735,2418.5863,N,08120.3150,W,1,9,1.6,20,M,,M,,*5E
06/07/2014	08:07:35.748	$GPGGA,080736,2418.5860,N,08120.3130,W,1,9,1.6,20,M,,M,,*58
06/07/2014	08:07:36.730	$GPGGA,080737,2418.5857,N,08120.3110,W,1,9,1.6,20,M,,M,,*5F
06/07/2014	08:07:37.573	$GPGGA,080738,2418.5853,N,08120.3090,W,1,9,1.6,20,M,,M,,*5D
06/07/2014	08:07:38.596	$GPGGA,080739,2418.5849,N,08120.3071,W,1,9,1.6,20,M,,M,,*58
06/07/2014	08:07:39.598	$GPGGA,080740,2418.5846,N,08120.3051,W,1,9,1.6,20,M,,M,,*5B
06/07/2014	08:07:40.601	$GPGGA,080741,2418.5842,N,08120.3031,W,1,9,1.6,20,M,,M,,*58
06/07/2014	08:07:41.594	$GPGGA,080742,2418.5838,N,08120.3011,W,1,9,1.6,20,M,,M,,*54
06/07/2014	08:07:42.587	$GPGGA,080743,2418.5835,N,08120.2991,W,1,9,1.6,20,M,,M,,*58
06/07/2014	08:07:43.599	$GPGGA,080744,2418.5831,N,08120.2971,W,1,9,1.6,20,M,,M,,*55
06/07/2014	08:07:44.612	$GPGGA,080745,2418.5827,N,08120.2951,W,1,9,1.6,20,M,,M,,*51
06/07/2014	08:07:45.584	$GPGGA,080746,2418.5824,N,08120.2932,W,1,9,1.6,20,M,,M,,*54
06/07/2014	08:07:46.586	$GPGGA,080747,2418.5820,N,08120.2912,W,1,9,1.6,20,M,,M,,*53
06/07/2014	08:07:47.599	$GPGGA,080748,2418.5817,N,08120.2892,W,1,9,1.6,20,M,,M,,*51
06/07/2014	08:07:48.622	$GPGGA,080749,2418.5813,N,08120.2873,W,1,9,1.6,20,M,,M,,*5B
06/07/2014	08:07:49.584	$GPGGA,080750,2418.5810,N,08120.2853,W,1,9,1.6,20,M,,M,,*52
06/07/2014	08:07:50.637	$GPGGA,080751,2418.5806,N,08120.2833,W,1,9,1.6,20,M,,M,,*52
06/07/2014	08:07:51.600	$GPGGA,080752,2418.5803,N,08120.2815,W,1,9,1.6,20,M,,M,,*50
06/07/2014	08:07:52.623	$GPGGA,080753,2418.5799,N,08120.2795,W,1,9,1.6,20,M,,M,,*5A
06/07/2014	08:07:53.605	$GPGGA,080754,2418.5795,N,08120.2774,W,1,9,1.6,20,M,,M,,*5E
06/07/2014	08:07:54.609	$GPGGA,080755,2418.5792,N,08120.2756,W,1,9,1.6,20,M,,M,,*58
06/07/2014	08:07:55.601	$GPGGA,080756,2418.5788,N,08120.2736,W,1,9,1.6,20,M,,M,,*56
06/07/2014	08:07:56.613	$GPGGA,080757,2418.5785,N,08120.2715,W,1,8,1.9,20,M,,M,,*55
06/07/2014	08:07:57.596	$GPGGA,080758,2418.5781,N,08120.2697,W,1,8,1.6,20,M,,M,,*5A
06/07/2014	08:07:58.639	$GPGGA,080759,2418.5777,N,08120.2677,W,1,9,1.6,20,M,,M,,*5D
06/07/2014	08:07:59.621	$GPGGA,080800,2418.5773,N,08120.2657,W,1,9,1.9,20,M,,M,,*57
06/07/2014	08:08:00.634	$GPGGA,080801,2418.5770,N,08120.2638,W,1,9,1.6,20,M,,M,,*53
06/07/2014	08:08:01.588	$GPGGA,080802,2418.5766,N,08120.2618,W,1,9,1.9,20,M,,M,,*5A
06/07/2014	08:08:02.599	$GPGGA,080803,2418.5762,N,08120.2599,W,1,8,1.9,20,M,,M,,*54
06/07/2014	08:08:03.621	$GPGGA,080804,2418.5759,N,08120.2579,W,1,8,1.9,20,M,,M,,*55
06/07/2014	08:08:04.634	$GPGGA,080805,2418.5755,N,08120.2560,W,1,8,1.9,19,M,,M,,*5A
06/07/2014	08:08:05.596	$GPGGA,080806,2418.5751,N,08120.2541,W,1,8,1.9,19,M,,M,,*5E
06/07/2014	08:08:06.720	$GPGGA,080807,2418.5748,N,08120.2521,W,1,8,1.9,19,M,,M,,*51
06/07/2014	08:08:07.622	$GPGGA,080808,2418.5745,N,08120.2502,W,1,8,1.6,19,M,,M,,*5D
06/07/2014	08:08:08.635	$GPGGA,080809,2418.5741,N,08120.2483,W,1,8,1.9,19,M,,M,,*5F
06/07/2014	08:08:09.597	$GPGGA,080810,2418.5737,N,08120.2462,W,1,8,2.1,19,M,,M,,*52
06/07/2014	08:08:10.600	$GPGGA,080811,2418.5733,N,08120.2445,W,1,9,1.6,19,M,,M,,*57
06/07/2014	08:08:11.623	$GPGGA,080812,2418.5730,N,08120.2426,W,1,9,1.6,19,M,,M,,*52
06/07/2014	08:08:12.716	$GPGGA,080813,2418.5725,N,08120.2408,W,1,8,1.9,19,M,,M,,*55
06/07/2014	08:08:13.628	$GPGGA,080814,2418.5723,N,08120.2392,W,1,8,1.6,19,M,,M,,*5F
06/07/2014	08:08:14.611	$GPGGA,080815,2418.5717,N,08120.2373,W,1,9,1.6,19,M,,M,,*57
06/07/2014	08:08:15.714	$GPGGA,080816,2418.5713,N,08120.2354,W,1,9,1.6,19,M,,M,,*55
06/07/2014	08:08:16.726	$GPGGA,080817,2418.5710,N,08120.2336,W,1,9,1.5,19,M,,M,,*50
06/07/2014	08:08:17.699	$GPGGA,080818,2418.5706,N,08120.2317,W,1,9,1.5,19,M,,M,,*5B
06/07/2014	08:08:18.713	$GPGGA,080819,2418.5702,N,08120.2298,W,1,9,1.5,19,M,,M,,*58
06/07/2014	08:08:19.715	$GPGGA,080820,2418.5698,N,08120.2278,W,1,9,1.5,19,M,,M,,*5E
06/07/2014	08:08:20.706	$GPGGA,080821,2418.5694,N,08120.2259,W,1,9,1.5,19,M,,M,,*50
06/07/2014	08:08:21.709	$GPGGA,080822,2418.5690,N,08120.2240,W,1,9,1.5,19,M,,M,,*5F
06/07/2014	08:08:22.722	$GPGGA,080823,2418.5687,N,08120.2220,W,1,9,1.6,19,M,,M,,*5D
06/07/2014	08:08:23.714	$GPGGA,080824,2418.5683,N,08120.2201,W,1,9,1.6,19,M,,M,,*5D
06/07/2014	08:08:24.707	$GPGGA,080825,2418.5680,N,08120.2182,W,1,9,1.6,20,M,,M,,*5D
06/07/2014	08:08:25.710	$GPGGA,080826,2418.5676,N,08120.2163,W,1,9,1.6,20,M,,M,,*58
06/07/2014	08:08:26.712	$GPGGA,080827,2418.5673,N,08120.2143,W,1,9,1.6,20,M,,M,,*5E
06/07/2014	08:08:27.725	$GPGGA,080828,2418.5670,N,08120.2124,W,1,9,1.6,20,M,,M,,*53
06/07/2014	08:08:28.708	$GPGGA,080829,2418.5666,N,08120.2105,W,1,9,1.5,20,M,,M,,*55
06/07/2014	08:08:29.710	$GPGGA,080830,2418.5662,N,08120.2085,W,1,9,1.5,20,M,,M,,*50
06/07/2014	08:08:30.703	$GPGGA,080831,2418.5659,N,08120.2066,W,1,9,1.5,20,M,,M,,*54
06/07/2014	08:08:31.716	$GPGGA,080832,2418.5656,N,08120.2046,W,1,9,1.5,20,M,,M,,*5A
06/07/2014	08:08:32.729	$GPGGA,080833,2418.5652,N,08120.2027,W,1,9,1.5,20,M,,M,,*58
06/07/2014	08:08:33.711	$GPGGA,080834,2418.5648,N,08120.2006,W,1,9,1.8,20,M,,M,,*5A
06/07/2014	08:08:34.734	$GPGGA,080835,2418.5645,N,08120.1986,W,1,9,1.6,20,M,,M,,*5A
06/07/2014	08:08:35.717	$GPGGA,080836,2418.5641,N,08120.1965,W,1,9,1.6,20,M,,M,,*50
06/07/2014	08:08:36.729	$GPGGA,080837,2418.5638,N,08120.1945,W,1,9,1.6,21,M,,M,,*5C
06/07/2014	08:08:37.562	$GPGGA,080838,2418.5634,N,08120.1924,W,1,9,1.6,21,M,,M,,*58
06/07/2014	08:08:38.550	$GPGGA,080839,2418.5630,N,08120.1903,W,1,9,1.6,21,M,,M,,*58
06/07/2014	08:08:39.566	$GPGGA,080840,2418.5627,N,08120.1883,W,1,9,1.6,21,M,,M,,*59
06/07/2014	08:08:40.569	$GPGGA,080841,2418.5623,N,08120.1862,W,1,9,1.5,21,M,,M,,*50
06/07/2014	08:08:41.556	$GPGGA,080842,2418.5620,N,08120.1842,W,1,9,1.5,21,M,,M,,*52
06/07/2014	08:08:42.554	$GPGGA,080843,2418.5616,N,08120.1823,W,1,9,1.5,21,M,,M,,*51
06/07/2014	08:08:43.567	$GPGGA,080844,2418.5613,N,08120.1803,W,1,9,1.5,21,M,,M,,*51
06/07/2014	08:08:44.559	$GPGGA,080845,2418.5611,N,08120.1785,W,1,9,1.5,21,M,,M,,*53
06/07/2014	08:08:45.565	$GPGGA,080846,2418.5605,N,08120.1764,W,1,9,1.8,21,M,,M,,*57
06/07/2014	08:08:46.565	$GPGGA,080847,2418.5602,N,08120.1743,W,1,9,1.6,22,M,,M,,*59
06/07/2014	08:08:47.569	$GPGGA,080848,2418.5598,N,08120.1723,W,1,9,1.6,22,M,,M,,*50
06/07/2014	08:08:48.691	$GPGGA,080849,2418.5596,N,08120.1703,W,1,9,1.6,22,M,,M,,*5D
06/07/2014	08:08:49.559	$GPGGA,080850,2418.5592,N,08120.1684,W,1,9,1.6,22,M,,M,,*5F
06/07/2014	08:08:50.577	$GPGGA,080851,2418.5589,N,08120.1664,W,1,9,1.6,22,M,,M,,*5A
06/07/2014	08:08:51.580	$GPGGA,080852,2418.5584,N,08120.1644,W,1,9,1.6,22,M,,M,,*56
06/07/2014	08:08:52.583	$GPGGA,080853,2418.5582,N,08120.1624,W,1,9,1.5,22,M,,M,,*54
06/07/2014	08:08:53.654	$GPGGA,080854,2418.5578,N,08120.1604,W,1,9,1.5,22,M,,M,,*54
06/07/2014	08:08:54.576	$GPGGA,080855,2418.5574,N,08120.1584,W,1,9,1.5,22,M,,M,,*52
06/07/2014	08:08:55.589	$GPGGA,080856,2418.5571,N,08120.1565,W,1,9,1.5,22,M,,M,,*5B
06/07/2014	08:08:56.561	$GPGGA,080857,2418.5567,N,08120.1544,W,1,9,1.5,22,M,,M,,*5E
06/07/2014	08:08:57.579	$GPGGA,080858,2418.5564,N,08120.1525,W,1,9,1.8,22,M,,M,,*58
06/07/2014	08:08:58.567	$GPGGA,080859,2418.5561,N,08120.1505,W,1,8,1.8,22,M,,M,,*5F
06/07/2014	08:08:59.710	$GPGGA,080900,2418.5557,N,08120.1486,W,1,8,1.6,22,M,,M,,*53
06/07/2014	08:09:00.588	$GPGGA,080901,2418.5554,N,08120.1467,W,1,9,1.6,22,M,,M,,*5F
06/07/2014	08:09:01.565	$GPGGA,080902,2418.5550,N,08120.1447,W,1,9,1.8,22,M,,M,,*54
06/07/2014	08:09:02.568	$GPGGA,080903,2418.5547,N,08120.1426,W,1,8,1.8,22,M,,M,,*55
06/07/2014	08:09:03.681	$GPGGA,080904,2418.5542,N,08120.1413,W,1,8,1.6,22,M,,M,,*5F
06/07/2014	08:09:04.622	$GPGGA,080905,2418.5538,N,08120.1393,W,1,9,1.5,22,M,,M,,*5E
06/07/2014	08:09:05.666	$GPGGA,080906,2418.5535,N,08120.1374,W,1,9,1.8,22,M,,M,,*54
06/07/2014	08:09:06.706	$GPGGA,080907,2418.5532,N,08120.1355,W,1,9,1.5,22,M,,M,,*5C
06/07/2014	08:09:07.681	$GPGGA,080908,2418.5528,N,08120.1336,W,1,9,1.5,22,M,,M,,*5D
06/07/2014	08:09:08.694	$GPGGA,080909,2418.5524,N,08120.1315,W,1,9,1.5,22,M,,M,,*51
06/07/2014	08:09:09.676	$GPGGA,080910,2418.5522,N,08120.1296,W,1,9,1.5,22,M,,M,,*55
06/07/2014	08:09:10.689	$GPGGA,080911,2418.5518,N,08120.1277,W,1,9,1.5,22,M,,M,,*52
06/07/2014	08:09:11.692	$GPGGA,080912,2418.5514,N,08120.1257,W,1,9,1.5,21,M,,M,,*5C
06/07/2014	08:09:12.665	$GPGGA,080913,2418.5511,N,08120.1238,W,1,9,1.5,21,M,,M,,*51
06/07/2014	08:09:13.666	$GPGGA,080914,2418.5508,N,08120.1219,W,1,9,1.5,21,M,,M,,*5D
06/07/2014	08:09:14.700	$GPGGA,080915,2418.5503,N,08120.1200,W,1,9,1.5,21,M,,M,,*5F
06/07/2014	08:09:15.702	$GPGGA,080916,2418.5500,N,08120.1180,W,1,9,1.5,21,M,,M,,*54
06/07/2014	08:09:16.684	$GPGGA,080917,2418.5497,N,08120.1161,W,1,9,1.5,21,M,,M,,*55
06/07/2014	08:09:17.677	$GPGGA,080918,2418.5493,N,08120.1142,W,1,9,1.5,21,M,,M,,*5F
06/07/2014	08:09:18.700	$GPGGA,080919,2418.5490,N,08120.1123,W,1,9,1.5,21,M,,M,,*5A
06/07/2014	08:09:19.692	$GPGGA,080920,2418.5486,N,08120.1103,W,1,9,1.5,21,M,,M,,*55
06/07/2014	08:09:20.705	$GPGGA,080921,2418.5482,N,08120.1084,W,1,9,1.5,21,M,,M,,*5E
06/07/2014	08:09:21.689	$GPGGA,080922,2418.5479,N,08120.1065,W,1,9,1.5,21,M,,M,,*56
06/07/2014	08:09:22.680	$GPGGA,080923,2418.5477,N,08120.1045,W,1,9,1.5,21,M,,M,,*5B
06/07/2014	08:09:23.703	$GPGGA,080924,2418.5472,N,08120.1026,W,1,9,1.5,21,M,,M,,*5C
06/07/2014	08:09:24.686	$GPGGA,080925,2418.5468,N,08120.1007,W,1,9,1.5,20,M,,M,,*54
06/07/2014	08:09:25.689	$GPGGA,080926,2418.5466,N,08120.0987,W,1,9,1.5,20,M,,M,,*59
06/07/2014	08:09:26.701	$GPGGA,080927,2418.5462,N,08120.0967,W,1,9,1.5,20,M,,M,,*52
06/07/2014	08:09:27.704	$GPGGA,080928,2418.5459,N,08120.0948,W,1,9,1.5,20,M,,M,,*58
06/07/2014	08:09:28.707	$GPGGA,080929,2418.5455,N,08120.0928,W,1,9,1.5,20,M,,M,,*53
06/07/2014	08:09:29.689	$GPGGA,080930,2418.5452,N,08120.0908,W,1,9,1.5,20,M,,M,,*5E
06/07/2014	08:09:30.681	$GPGGA,080931,2418.5448,N,08120.0888,W,1,9,1.5,20,M,,M,,*5D
06/07/2014	08:09:31.704	$GPGGA,080932,2418.5445,N,08120.0868,W,1,9,1.5,20,M,,M,,*5D
06/07/2014	08:09:32.716	$GPGGA,080933,2418.5441,N,08120.0848,W,1,9,1.5,20,M,,M,,*5A
06/07/2014	08:09:33.691	$GPGGA,080934,2418.5438,N,08120.0828,W,1,9,1.5,20,M,,M,,*55
06/07/2014	08:09:34.694	$GPGGA,080935,2418.5435,N,08120.0808,W,1,9,1.5,20,M,,M,,*5B
06/07/2014	08:09:35.694	$GPGGA,080936,2418.5432,N,08120.0789,W,1,9,1.5,20,M,,M,,*59
06/07/2014	08:09:36.707	$GPGGA,080937,2418.5428,N,08120.0769,W,1,9,1.5,20,M,,M,,*5D
06/07/2014	08:09:37.520	$GPGGA,080938,2418.5424,N,08120.0749,W,1,9,1.5,20,M,,M,,*5C
06/07/2014	08:09:38.541	$GPGGA,080939,2418.5423,N,08120.0729,W,1,9,1.5,20,M,,M,,*5C
06/07/2014	08:09:39.544	$GPGGA,080940,2418.5419,N,08120.0709,W,1,9,1.5,19,M,,M,,*53
06/07/2014	08:09:40.567	$GPGGA,080941,2418.5415,N,08120.0690,W,1,9,1.5,19,M,,M,,*5F
06/07/2014	08:09:41.529	$GPGGA,080942,2418.5412,N,08120.0670,W,1,9,1.5,19,M,,M,,*55
06/07/2014	08:09:42.532	$GPGGA,080943,2418.5409,N,08120.0650,W,1,9,1.5,19,M,,M,,*5C
06/07/2014	08:09:43.544	$GPGGA,080944,2418.5405,N,08120.0630,W,1,9,1.5,19,M,,M,,*51
06/07/2014	08:09:44.541	$GPGGA,080945,2418.5401,N,08120.0611,W,1,9,1.5,19,M,,M,,*57
06/07/2014	08:09:45.700	$GPGGA,080946,2418.5398,N,08120.0590,W,1,9,1.5,19,M,,M,,*59
06/07/2014	08:09:46.553	$GPGGA,080947,2418.5395,N,08120.0571,W,1,9,1.5,19,M,,M,,*5A
06/07/2014	08:09:47.555	$GPGGA,080948,2418.5391,N,08120.0551,W,1,9,1.5,19,M,,M,,*53
06/07/2014	08:09:48.546	$GPGGA,080949,2418.5388,N,08120.0531,W,1,9,1.5,19,M,,M,,*5C
06/07/2014	08:09:49.549	$GPGGA,080950,2418.5384,N,08120.0513,W,1,9,1.5,19,M,,M,,*58
06/07/2014	08:09:50.542	$GPGGA,080951,2418.5381,N,08120.0492,W,1,9,1.5,19,M,,M,,*54
06/07/2014	08:09:51.715	$GPGGA,080952,2418.5378,N,08120.0473,W,1,9,1.5,19,M,,M,,*5E
06/07/2014	08:09:52.697	$GPGGA,080953,2418.5374,N,08120.0454,W,1,9,1.5,19,M,,M,,*56
06/07/2014	08:09:53.539	$GPGGA,080954,2418.5370,N,08120.0434,W,1,9,1.5,19,M,,M,,*53
06/07/2014	08:09:54.542	$GPGGA,080955,2418.5367,N,08120.0414,W,1,9,1.5,18,M,,M,,*57
06/07/2014	08:09:55.725	$GPGGA,080956,2418.5363,N,08120.0395,W,1,9,1.5,18,M,,M,,*5E
06/07/2014	08:09:56.537	$GPGGA,080957,2418.5359,N,08120.0375,W,1,9,1.5,18,M,,M,,*58
06/07/2014	08:09:57.630	$GPGGA,080958,2418.5356,N,08120.0356,W,1,9,1.5,18,M,,M,,*59
06/07/2014	08:09:58.552	$GPGGA,080959,2418.5352,N,08120.0337,W,1,9,1.5,18,M,,M,,*5B
06/07/2014	08:09:59.565	$GPGGA,081000,2418.5348,N,08120.0317,W,1,9,1.5,18,M,,M,,*56
06/07/2014	08:10:00.548	$GPGGA,081001,2418.5345,N,08120.0297,W,1,9,1.5,18,M,,M,,*53
06/07/2014	08:10:01.630	$GPGGA,081002,2418.5341,N,08120.0277,W,1,9,1.5,18,M,,M,,*5A
06/07/2014	08:10:02.688	$GPGGA,081003,2418.5338,N,08120.0258,W,1,9,1.5,18,M,,M,,*58
06/07/2014	08:10:03.585	$GPGGA,081004,2418.5334,N,08120.0238,W,1,9,1.5,18,M,,M,,*55
06/07/2014	08:10:04.638	$GPGGA,081005,2418.5330,N,08120.0218,W,1,9,1.5,18,M,,M,,*52
06/07/2014	08:10:05.640	$GPGGA,081006,2418.5327,N,08120.0199,W,1,9,1.5,18,M,,M,,*5D
06/07/2014	08:10:06.682	$GPGGA,081007,2418.5323,N,08120.0178,W,1,9,1.5,18,M,,M,,*57
06/07/2014	08:10:07.725	$GPGGA,081008,2418.5320,N,08120.0159,W,1,9,1.5,18,M,,M,,*58
06/07/2014	08:10:08.728	$GPGGA,081009,2418.5318,N,08120.0140,W,1,9,1.5,18,M,,M,,*5A
06/07/2014	08:10:09.710	$GPGGA,081010,2418.5313,N,08120.0119,W,1,9,1.5,18,M,,M,,*55
06/07/2014	08:10:10.633	$GPGGA,081011,2418.5311,N,08120.0099,W,1,9,1.5,18,M,,M,,*5F
06/07/2014	08:10:11.736	$GPGGA,081012,2418.5307,N,08120.0080,W,1,9,1.5,18,M,,M,,*53
06/07/2014	08:10:12.688	$GPGGA,081013,2418.5303,N,08120.0059,W,1,9,1.5,18,M,,M,,*52
06/07/2014	08:10:13.640	$GPGGA,081014,2418.5300,N,08120.0039,W,1,9,1.5,18,M,,M,,*50
06/07/2014	08:10:14.643	$GPGGA,081015,2418.5297,N,08120.0020,W,1,9,1.5,18,M,,M,,*56
06/07/2014	08:10:15.726	$GPGGA,081016,2418.5294,N,08120.0000,W,1,9,1.5,18,M,,M,,*54
06/07/2014	08:10:16.699	$GPGGA,081017,2418.5290,N,08119.9981,W,1,9,1.5,18,M,,M,,*52
06/07/2014	08:10:17.701	$GPGGA,081018,2418.5286,N,08119.9961,W,1,9,1.5,18,M,,M,,*54
06/07/2014	08:10:18.694	$GPGGA,081019,2418.5284,N,08119.9941,W,1,9,1.5,18,M,,M,,*55
06/07/2014	08:10:19.730	$GPGGA,081020,2418.5280,N,08119.9922,W,1,9,1.5,18,M,,M,,*5E
06/07/2014	08:10:20.689	$GPGGA,081021,2418.5276,N,08119.9902,W,1,9,1.5,18,M,,M,,*54
06/07/2014	08:10:21.702	$GPGGA,081022,2418.5273,N,08119.9883,W,1,9,1.5,18,M,,M,,*5A
06/07/2014	08:10:22.693	$GPGGA,081023,2418.5271,N,08119.9863,W,1,9,1.5,18,M,,M,,*57
06/07/2014	08:10:23.726	$GPGGA,081024,2418.5266,N,08119.9843,W,1,9,1.5,18,M,,M,,*54
06/07/2014	08:10:24.698	$GPGGA,081025,2418.5262,N,08119.9824,W,1,9,1.5,18,M,,M,,*50
06/07/2014	08:10:25.721	$GPGGA,081026,2418.5260,N,08119.9803,W,1,9,1.5,18,M,,M,,*54
06/07/2014	08:10:26.663	$GPGGA,081027,2418.5257,N,08119.9784,W,1,9,1.5,18,M,,M,,*51
06/07/2014	08:10:27.726	$GPGGA,081028,2418.5253,N,08119.9764,W,1,9,1.5,18,M,,M,,*54
06/07/2014	08:10:28.699	$GPGGA,081029,2418.5248,N,08119.9744,W,1,9,1.5,18,M,,M,,*5D
06/07/2014	08:10:29.651	$GPGGA,081030,2418.5246,N,08119.9724,W,1,9,1.5,18,M,,M,,*5D
06/07/2014	08:10:30.704	$GPGGA,081031,2418.5242,N,08119.9704,W,1,9,1.5,18,M,,M,,*5A
06/07/2014	08:10:31.676	$GPGGA,081032,2418.5238,N,08119.9685,W,1,9,1.5,18,M,,M,,*5C
06/07/2014	08:10:32.769	$GPGGA,081033,2418.5235,N,08119.9664,W,1,9,1.5,18,M,,M,,*5F
06/07/2014	08:10:33.671	$GPGGA,081034,2418.5231,N,08119.9644,W,1,9,1.5,18,M,,M,,*5E
06/07/2014	08:10:34.654	$GPGGA,081035,2418.5228,N,08119.9624,W,1,9,1.5,18,M,,M,,*51
06/07/2014	08:10:35.787	$GPGGA,081036,2418.5224,N,08119.9604,W,1,9,1.5,18,M,,M,,*5C
06/07/2014	08:10:36.779	$GPGGA,081037,2418.5220,N,08119.9584,W,1,9,1.5,18,M,,M,,*52
06/07/2014	08:10:37.568	$GPGGA,081038,2418.5217,N,08119.9564,W,1,9,1.5,17,M,,M,,*58
06/07/2014	08:10:38.601	$GPGGA,081039,2418.5213,N,08119.9544,W,1,9,1.5,17,M,,M,,*5F
06/07/2014	08:10:39.573	$GPGGA,081040,2418.5210,N,08119.9524,W,1,9,1.5,17,M,,M,,*54
06/07/2014	08:10:40.545	$GPGGA,081041,2418.5206,N,08119.9504,W,1,9,1.5,17,M,,M,,*50
06/07/2014	08:10:41.607	$GPGGA,081042,2418.5202,N,08119.9484,W,1,9,1.5,17,M,,M,,*5E
06/07/2014	08:10:42.570	$GPGGA,081043,2418.5199,N,08119.9464,W,1,9,1.5,17,M,,M,,*50
06/07/2014	08:10:43.613	$GPGGA,081044,2418.5195,N,08119.9444,W,1,9,1.5,17,M,,M,,*59
06/07/2014	08:10:44.645	$GPGGA,081045,2418.5191,N,08119.9425,W,1,9,1.5,17,M,,M,,*5B
06/07/2014	08:10:45.618	$GPGGA,081046,2418.5188,N,08119.9404,W,1,9,1.5,17,M,,M,,*53
06/07/2014	08:10:46.620	$GPGGA,081047,2418.5185,N,08119.9385,W,1,9,1.5,17,M,,M,,*51
06/07/2014	08:10:47.573	$GPGGA,081048,2418.5181,N,08119.9365,W,1,9,1.5,17,M,,M,,*54
06/07/2014	08:10:48.636	$GPGGA,081049,2418.5177,N,08119.9345,W,1,9,1.5,17,M,,M,,*5E
06/07/2014	08:10:49.608	$GPGGA,081050,2418.5174,N,08119.9325,W,1,9,1.5,17,M,,M,,*53
06/07/2014	08:10:50.500	$GPGGA,081051,2418.5170,N,08119.9305,W,1,9,1.5,17,M,,M,,*54
06/07/2014	08:10:51.633	$GPGGA,081052,2418.5166,N,08119.9285,W,1,9,1.5,16,M,,M,,*58
06/07/2014	08:10:52.636	$GPGGA,081053,2418.5163,N,08119.9265,W,1,9,1.5,16,M,,M,,*52
06/07/2014	08:10:53.598	$GPGGA,081054,2418.5159,N,08119.9245,W,1,9,1.5,16,M,,M,,*5E
06/07/2014	08:10:54.641	$GPGGA,081055,2418.5156,N,08119.9225,W,1,9,1.5,16,M,,M,,*56
06/07/2014	08:10:55.624	$GPGGA,081056,2418.5153,N,08119.9205,W,1,9,1.5,16,M,,M,,*52
06/07/2014	08:10:56.636	$GPGGA,081057,2418.5149,N,08119.9184,W,1,9,1.5,16,M,,M,,*52
06/07/2014	08:10:57.609	$GPGGA,081058,2418.5145,N,08119.9165,W,1,9,1.5,16,M,,M,,*5E
06/07/2014	08:10:58.631	$GPGGA,081059,2418.5141,N,08119.9145,W,1,9,1.5,16,M,,M,,*59
06/07/2014	08:10:59.643	$GPGGA,081100,2418.5138,N,08119.9124,W,1,9,1.5,16,M,,M,,*5D
06/07/2014	08:11:00.636	$GPGGA,081101,2418.5134,N,08119.9105,W,1,9,1.5,16,M,,M,,*53
06/07/2014	08:11:01.618	$GPGGA,081102,2418.5130,N,08119.9085,W,1,9,1.5,16,M,,M,,*5D
06/07/2014	08:11:02.611	$GPGGA,081103,2418.5127,N,08119.9064,W,1,9,1.5,16,M,,M,,*55
06/07/2014	08:11:03.644	$GPGGA,081104,2418.5124,N,08119.9045,W,1,9,1.5,16,M,,M,,*52
06/07/2014	08:11:04.636	$GPGGA,081105,2418.5120,N,08119.9025,W,1,9,1.5,16,M,,M,,*51
06/07/2014	08:11:05.619	$GPGGA,081106,2418.5116,N,08119.9005,W,1,9,1.5,16,M,,M,,*55
06/07/2014	08:11:06.651	$GPGGA,081107,2418.5113,N,08119.8984,W,1,9,1.5,16,M,,M,,*50
06/07/2014	08:11:07.634	$GPGGA,081108,2418.5110,N,08119.8964,W,1,9,1.5,16,M,,M,,*52
06/07/2014	08:11:08.657	$GPGGA,081109,2418.5106,N,08119.8944,W,1,9,1.5,16,M,,M,,*56
06/07/2014	08:11:09.629	$GPGGA,081110,2418.5102,N,08119.8923,W,1,9,1.5,16,M,,M,,*5B
06/07/2014	08:11:10.632	$GPGGA,081111,2418.5100,N,08119.8903,W,1,9,1.5,16,M,,M,,*5A
06/07/2014	08:11:11.674	$GPGGA,081112,2418.5096,N,08119.8883,W,1,9,1.5,16,M,,M,,*5E
06/07/2014	08:11:12.617	$GPGGA,081113,2418.5092,N,08119.8862,W,1,9,1.5,16,M,,M,,*54
06/07/2014	08:11:13.671	$GPGGA,081114,2418.5089,N,08119.8842,W,1,9,1.5,16,M,,M,,*5B
06/07/2014	08:11:14.632	$GPGGA,081115,2418.5087,N,08119.8822,W,1,9,1.5,16,M,,M,,*52
06/07/2014	08:11:15.664	$GPGGA,081116,2418.5083,N,08119.8801,W,1,9,1.5,16,M,,M,,*54
06/07/2014	08:11:16.616	$GPGGA,081117,2418.5078,N,08119.8781,W,1,9,1.5,16,M,,M,,*56
06/07/2014	08:11:17.629	$GPGGA,081118,2418.5078,N,08119.8781,W,1,9,1.5,16,M,,M,,*59
06/07/2014	08:11:18.732	$GPGGA,081119,2418.5072,N,08119.8741,W,1,9,1.5,16,M,,M,,*5E
06/07/2014	08:11:19.644	$GPGGA,081120,2418.5069,N,08119.8720,W,1,9,1.5,16,M,,M,,*59
06/07/2014	08:11:20.657	$GPGGA,081121,2418.5065,N,08119.8700,W,1,9,1.5,16,M,,M,,*56
06/07/2014	08:11:21.632	$GPGGA,081122,2418.5065,N,08119.8700,W,1,9,1.5,16,M,,M,,*55
06/07/2014	08:11:22.632	$GPGGA,081123,2418.5058,N,08119.8660,W,1,9,1.5,16,M,,M,,*5D
06/07/2014	08:11:23.686	$GPGGA,081124,2418.5055,N,08119.8639,W,1,9,1.5,16,M,,M,,*5B
06/07/2014	08:11:24.667	$GPGGA,081125,2418.5051,N,08119.8618,W,1,9,1.5,16,M,,M,,*5D
06/07/2014	08:11:25.645	$GPGGA,081126,2418.5048,N,08119.8598,W,1,9,1.5,16,M,,M,,*5D
06/07/2014	08:11:26.732	$GPGGA,081127,2418.5044,N,08119.8577,W,1,9,1.5,16,M,,M,,*51
06/07/2014	08:11:27.636	$GPGGA,081128,2418.5044,N,08119.8577,W,1,9,1.5,15,M,,M,,*5D
06/07/2014	08:11:28.758	$GPGGA,081129,2418.5037,N,08119.8537,W,1,9,1.5,15,M,,M,,*5C
06/07/2014	08:11:29.650	$GPGGA,081130,2418.5037,N,08119.8537,W,1,9,1.5,15,M,,M,,*54
06/07/2014	08:11:30.643	$GPGGA,081131,2418.5031,N,08119.8496,W,1,9,1.5,15,M,,M,,*59
06/07/2014	08:11:31.635	$GPGGA,081132,2418.5029,N,08119.8476,W,1,9,1.5,15,M,,M,,*5D
06/07/2014	08:11:32.738	$GPGGA,081133,2418.5023,N,08119.8456,W,1,9,1.5,15,M,,M,,*54
06/07/2014	08:11:33.750	$GPGGA,081134,2418.5023,N,08119.8456,W,1,9,1.5,15,M,,M,,*53
06/07/2014	08:11:34.642	$GPGGA,081135,2418.5018,N,08119.8414,W,1,9,1.5,15,M,,M,,*5C
06/07/2014	08:11:35.745	$GPGGA,081136,2418.5013,N,08119.8395,W,1,9,1.5,15,M,,M,,*5A
06/07/2014	08:11:36.727	$GPGGA,081137,2418.5009,N,08119.8374,W,1,9,1.5,15,M,,M,,*5F
06/07/2014	08:11:37.576	$GPGGA,081138,2418.5006,N,08119.8354,W,1,9,1.5,15,M,,M,,*5D
06/07/2014	08:11:38.569	$GPGGA,081139,2418.5004,N,08119.8334,W,1,9,1.5,15,M,,M,,*58
06/07/2014	08:11:39.591	$GPGGA,081140,2418.5000,N,08119.8314,W,1,9,1.5,15,M,,M,,*50
06/07/2014	08:11:40.574	$GPGGA,081141,2418.4995,N,08119.8293,W,1,9,1.5,15,M,,M,,*5B
06/07/2014	08:11:41.577	$GPGGA,081142,2418.4993,N,08119.8273,W,1,9,1.5,15,M,,M,,*50
06/07/2014	08:11:42.609	$GPGGA,081143,2418.4989,N,08119.8253,W,1,9,1.5,15,M,,M,,*58
06/07/2014	08:11:43.612	$GPGGA,081144,2418.4986,N,08119.8233,W,1,9,1.5,15,M,,M,,*56
06/07/2014	08:11:44.584	$GPGGA,081145,2418.4982,N,08119.8213,W,1,9,1.5,15,M,,M,,*51
06/07/2014	08:11:45.587	$GPGGA,081146,2418.4978,N,08119.8193,W,1,9,1.5,15,M,,M,,*5C
06/07/2014	08:11:46.619	$GPGGA,081147,2418.4975,N,08119.8173,W,1,9,1.5,15,M,,M,,*5E
06/07/2014	08:11:47.592	$GPGGA,081148,2418.4972,N,08119.8153,W,1,9,1.5,15,M,,M,,*54
06/07/2014	08:11:48.605	$GPGGA,081149,2418.4968,N,08119.8133,W,1,9,1.5,15,M,,M,,*58
