Software Version Number: 1	Data File Format Number: 1	Build Version Number: 1	Error Count Since VI Started: 0	Manufacturer: Raytheon	 Model Number: RayMarine 120	 S/N: 	 Cal Date: 	 Wind Direction Offset: 0.00	 Slope (M)1: 0.00	 Offset (B)1: 0.00	 Slope (M)2: 0.00	 Offset (B)2: 0.00	 Slope (M)3: 0.00	 Offset (B)3: 0.00	 Slope (M)4: 0.00	 Offset (B)4: 0.00	 Slope (M)5: 0.00	 Offset (B)5: 0.00	 Slope (M)6: 0.00	 Offset (B)6: 0.00
Computer Date	Computer Time	GGA String
06/07/2014	17:00:00.693	$GPGGA,170001,2422.9162,N,08102.0135,W,1,9,1.5,9,M,,M,,*65
06/07/2014	17:00:01.764	$GPGGA,170002,2422.9176,N,08102.0132,W,1,9,1.5,9,M,,M,,*64
06/07/2014	17:00:02.769	$GPGGA,170003,2422.9190,N,08102.0128,W,1,9,1.5,9,M,,M,,*66
06/07/2014	17:00:03.716	$GPGGA,170004,2422.9204,N,08102.0126,W,1,9,1.5,9,M,,M,,*61
06/07/2014	17:00:04.755	$GPGGA,170005,2422.9218,N,08102.0123,W,1,9,1.5,9,M,,M,,*68
06/07/2014	17:00:05.743	$GPGGA,170006,2422.9231,N,08102.0120,W,1,9,1.5,9,M,,M,,*63
06/07/2014	17:00:06.751	$GPGGA,170007,2422.9245,N,08102.0117,W,1,9,1.5,9,M,,M,,*65
06/07/2014	17:00:07.807	$GPGGA,170008,2422.9259,N,08102.0114,W,1,9,1.5,9,M,,M,,*64
06/07/2014	17:00:08.784	$GPGGA,170009,2422.9274,N,08102.0111,W,1,9,1.5,9,M,,M,,*6F
06/07/2014	17:00:09.772	$GPGGA,170010,2422.9288,N,08102.0107,W,1,9,1.5,10,M,,M,,*5B
06/07/2014	17:00:10.779	$GPGGA,170011,2422.9302,N,08102.0104,W,1,9,1.5,10,M,,M,,*5A
06/07/2014	17:00:11.787	$GPGGA,170012,2422.9316,N,08102.0101,W,1,9,1.5,10,M,,M,,*59
06/07/2014	17:00:12.805	$GPGGA,170013,2422.9330,N,08102.0097,W,1,9,1.5,10,M,,M,,*52
06/07/2014	17:00:13.782	$GPGGA,170014,2422.9343,N,08102.0094,W,1,9,1.6,10,M,,M,,*51
06/07/2014	17:00:14.790	$GPGGA,170015,2422.9357,N,08102.0091,W,1,8,1.6,10,M,,M,,*51
06/07/2014	17:00:15.808	$GPGGA,170016,2422.9371,N,08102.0088,W,1,8,1.6,10,M,,M,,*5E
06/07/2014	17:00:16.795	$GPGGA,170017,2422.9386,N,08102.0083,W,1,9,1.5,10,M,,M,,*5E
06/07/2014	17:00:17.924	$GPGGA,170018,2422.9400,N,08102.0081,W,1,9,1.5,10,M,,M,,*5A
06/07/2014	17:00:18.821	$GPGGA,170019,2422.9415,N,08102.0078,W,1,8,1.6,10,M,,M,,*5B
06/07/2014	17:00:19.939	$GPGGA,170020,2422.9429,N,08102.0074,W,1,8,1.6,10,M,,M,,*52
06/07/2014	17:00:20.826	$GPGGA,170021,2422.9444,N,08102.0070,W,1,8,1.6,10,M,,M,,*5C
06/07/2014	17:00:21.814	$GPGGA,170022,2422.9460,N,08102.0068,W,1,8,1.5,10,M,,M,,*53
06/07/2014	17:00:22.993	$GPGGA,170023,2422.9475,N,08102.0064,W,1,9,1.5,10,M,,M,,*5B
06/07/2014	17:00:23.839	$GPGGA,170024,2422.9489,N,08102.0061,W,1,9,1.5,10,M,,M,,*5A
06/07/2014	17:00:24.937	$GPGGA,170025,2422.9504,N,08102.0058,W,1,9,1.5,10,M,,M,,*55
06/07/2014	17:00:25.944	$GPGGA,170026,2422.9518,N,08102.0054,W,1,9,1.5,10,M,,M,,*57
06/07/2014	17:00:26.952	$GPGGA,170027,2422.9533,N,08102.0051,W,1,9,1.5,10,M,,M,,*5A
06/07/2014	17:00:27.970	$GPGGA,170028,2422.9547,N,08102.0047,W,1,9,1.5,10,M,,M,,*51
06/07/2014	17:00:28.957	$GPGGA,170029,2422.9562,N,08102.0044,W,1,9,1.5,10,M,,M,,*54
06/07/2014	17:00:29.965	$GPGGA,170030,2422.9576,N,08102.0041,W,1,9,1.5,10,M,,M,,*5C
06/07/2014	17:00:30.993	$GPGGA,170031,2422.9590,N,08102.0037,W,1,9,1.5,10,M,,M,,*54
06/07/2014	17:00:31.991	$GPGGA,170032,2422.9603,N,08102.0034,W,1,9,1.5,10,M,,M,,*5D
06/07/2014	17:00:32.985	$GPGGA,170033,2422.9617,N,08102.0031,W,1,9,1.5,10,M,,M,,*5C
06/07/2014	17:00:33.988	$GPGGA,170034,2422.9632,N,08102.0027,W,1,9,1.5,10,M,,M,,*5B
06/07/2014	17:00:35.005	$GPGGA,170035,2422.9646,N,08102.0024,W,1,9,1.5,10,M,,M,,*5A
06/07/2014	17:00:36.011	$GPGGA,170036,2422.9660,N,08102.0022,W,1,9,1.5,10,M,,M,,*5B
06/07/2014	17:00:37.022	$GPGGA,170037,2422.9673,N,08102.0018,W,1,9,1.5,10,M,,M,,*51
06/07/2014	17:00:37.537	$GPGGA,170038,2422.9686,N,08102.0015,W,1,9,1.5,10,M,,M,,*59
06/07/2014	17:00:38.585	$GPGGA,170039,2422.9700,N,08102.0012,W,1,9,1.5,10,M,,M,,*50
06/07/2014	17:00:39.563	$GPGGA,170040,2422.9715,N,08102.0009,W,1,9,1.5,10,M,,M,,*50
06/07/2014	17:00:40.589	$GPGGA,170041,2422.9729,N,08102.0006,W,1,9,1.5,10,M,,M,,*51
06/07/2014	17:00:41.558	$GPGGA,170042,2422.9743,N,08102.0003,W,1,9,1.5,10,M,,M,,*5B
06/07/2014	17:00:42.575	$GPGGA,170043,2422.9755,N,08102.0000,W,1,9,1.5,10,M,,M,,*5E
06/07/2014	17:00:43.603	$GPGGA,170044,2422.9769,N,08101.9997,W,1,9,1.5,10,M,,M,,*5B
06/07/2014	17:00:44.580	$GPGGA,170045,2422.9783,N,08101.9995,W,1,9,1.5,10,M,,M,,*5C
06/07/2014	17:00:45.598	$GPGGA,170046,2422.9798,N,08101.9992,W,1,9,1.5,10,M,,M,,*52
06/07/2014	17:00:46.596	$GPGGA,170047,2422.9812,N,08101.9989,W,1,10,1.5,10,M,,M,,*6C
06/07/2014	17:00:47.624	$GPGGA,170048,2422.9826,N,08101.9986,W,1,10,1.5,10,M,,M,,*6B
06/07/2014	17:00:48.651	$GPGGA,170049,2422.9840,N,08101.9983,W,1,10,1.5,10,M,,M,,*6F
06/07/2014	17:00:49.629	$GPGGA,170050,2422.9854,N,08101.9980,W,1,10,1.5,10,M,,M,,*61
06/07/2014	17:00:50.647	$GPGGA,170051,2422.9869,N,08101.9976,W,1,9,1.6,10,M,,M,,*5C
06/07/2014	17:00:51.634	$GPGGA,170052,2422.9884,N,08101.9971,W,1,9,1.5,10,M,,M,,*58
06/07/2014	17:00:52.662	$GPGGA,170053,2422.9899,N,08101.9967,W,1,10,1.5,10,M,,M,,*6A
06/07/2014	17:00:53.660	$GPGGA,170054,2422.9913,N,08101.9964,W,1,10,1.8,10,M,,M,,*60
06/07/2014	17:00:54.637	$GPGGA,170055,2422.9927,N,08101.9961,W,1,10,1.5,10,M,,M,,*6E
06/07/2014	17:00:55.675	$GPGGA,170056,2422.9941,N,08101.9958,W,1,10,1.5,10,M,,M,,*67
06/07/2014	17:00:56.683	$GPGGA,170057,2422.9955,N,08101.9954,W,1,10,1.5,10,M,,M,,*6F
06/07/2014	17:00:57.670	$GPGGA,170058,2422.9968,N,08101.9951,W,1,10,1.5,10,M,,M,,*6B
06/07/2014	17:00:58.678	$GPGGA,170059,2422.9982,N,08101.9948,W,1,10,1.5,10,M,,M,,*66
06/07/2014	17:00:59.685	$GPGGA,170100,2422.9996,N,08101.9945,W,1,10,1.5,10,M,,M,,*63
06/07/2014	17:01:00.692	$GPGGA,170101,2423.0010,N,08101.9941,W,1,10,1.5,10,M,,M,,*69
06/07/2014	17:01:01.680	$GPGGA,170102,2423.0022,N,08101.9938,W,1,10,1.5,10,M,,M,,*65
06/07/2014	17:01:02.678	$GPGGA,170103,2423.0039,N,08101.9935,W,1,9,1.6,10,M,,M,,*58
06/07/2014	17:01:03.816	$GPGGA,170104,2423.0051,N,08101.9932,W,1,9,1.5,10,M,,M,,*55
06/07/2014	17:01:04.703	$GPGGA,170105,2423.0065,N,08101.9928,W,1,9,1.6,10,M,,M,,*5B
06/07/2014	17:01:05.791	$GPGGA,170106,2423.0079,N,08101.9925,W,1,9,1.5,11,M,,M,,*5A
06/07/2014	17:01:06.698	$GPGGA,170107,2423.0094,N,08101.9923,W,1,10,1.5,11,M,,M,,*66
06/07/2014	17:01:07.716	$GPGGA,170108,2423.0108,N,08101.9920,W,1,10,1.5,11,M,,M,,*6E
06/07/2014	17:01:08.835	$GPGGA,170109,2423.0122,N,08101.9916,W,1,10,1.5,11,M,,M,,*62
06/07/2014	17:01:09.731	$GPGGA,170110,2423.0136,N,08101.9914,W,1,10,1.5,11,M,,M,,*6D
06/07/2014	17:01:10.820	$GPGGA,170111,2423.0151,N,08101.9911,W,1,10,1.5,11,M,,M,,*68
06/07/2014	17:01:11.747	$GPGGA,170112,2423.0165,N,08101.9908,W,1,10,1.5,11,M,,M,,*64
06/07/2014	17:01:12.875	$GPGGA,170113,2423.0179,N,08101.9905,W,1,10,1.5,11,M,,M,,*65
06/07/2014	17:01:13.844	$GPGGA,170114,2423.0191,N,08101.9903,W,1,10,1.5,11,M,,M,,*62
06/07/2014	17:01:14.901	$GPGGA,170115,2423.0206,N,08101.9900,W,1,10,1.5,11,M,,M,,*6D
06/07/2014	17:01:15.878	$GPGGA,170116,2423.0220,N,08101.9897,W,1,10,1.5,11,M,,M,,*65
06/07/2014	17:01:16.885	$GPGGA,170117,2423.0234,N,08101.9894,W,1,10,1.5,11,M,,M,,*62
06/07/2014	17:01:17.873	$GPGGA,170118,2423.0248,N,08101.9891,W,1,10,1.5,11,M,,M,,*63
06/07/2014	17:01:18.885	$GPGGA,170119,2423.0260,N,08101.9889,W,1,10,1.5,11,M,,M,,*61
06/07/2014	17:01:19.898	$GPGGA,170120,2423.0275,N,08101.9886,W,1,10,1.5,11,M,,M,,*60
06/07/2014	17:01:20.901	$GPGGA,170121,2423.0289,N,08101.9883,W,1,10,1.5,11,M,,M,,*67
06/07/2014	17:01:21.883	$GPGGA,170122,2423.0302,N,08101.9880,W,1,10,1.5,11,M,,M,,*65
06/07/2014	17:01:22.921	$GPGGA,170123,2423.0316,N,08101.9877,W,1,10,1.5,11,M,,M,,*69
06/07/2014	17:01:23.909	$GPGGA,170124,2423.0329,N,08101.9874,W,1,10,1.5,11,M,,M,,*61
06/07/2014	17:01:24.937	$GPGGA,170125,2423.0343,N,08101.9871,W,1,10,1.5,11,M,,M,,*69
06/07/2014	17:01:25.914	$GPGGA,170126,2423.0357,N,08101.9869,W,1,10,1.5,11,M,,M,,*66
06/07/2014	17:01:26.942	$GPGGA,170127,2423.0371,N,08101.9865,W,1,9,1.6,11,M,,M,,*54
06/07/2014	17:01:27.941	$GPGGA,170128,2423.0385,N,08101.9862,W,1,9,1.5,11,M,,M,,*54
06/07/2014	17:01:28.937	$GPGGA,170129,2423.0400,N,08101.9859,W,1,10,1.5,11,M,,M,,*6F
06/07/2014	17:01:29.945	$GPGGA,170130,2423.0414,N,08101.9856,W,1,10,1.5,11,M,,M,,*6D
06/07/2014	17:01:30.964	$GPGGA,170131,2423.0428,N,08101.9852,W,1,10,1.5,11,M,,M,,*67
06/07/2014	17:01:31.960	$GPGGA,170132,2423.0443,N,08101.9849,W,1,10,1.5,11,M,,M,,*63
06/07/2014	17:01:32.993	$GPGGA,170133,2423.0457,N,08101.9846,W,1,10,1.5,11,M,,M,,*68
06/07/2014	17:01:33.956	$GPGGA,170134,2423.0470,N,08101.9842,W,1,10,1.5,11,M,,M,,*6E
06/07/2014	17:01:35.005	$GPGGA,170135,2423.0486,N,08101.9839,W,1,10,1.5,11,M,,M,,*6A
06/07/2014	17:01:35.990	$GPGGA,170136,2423.0501,N,08101.9835,W,1,10,1.5,11,M,,M,,*6B
06/07/2014	17:01:36.968	$GPGGA,170137,2423.0513,N,08101.9832,W,1,10,1.5,11,M,,M,,*6E
06/07/2014	17:01:37.536	$GPGGA,170138,2423.0528,N,08101.9828,W,1,10,1.5,11,M,,M,,*62
06/07/2014	17:01:38.564	$GPGGA,170139,2423.0542,N,08101.9825,W,1,10,1.5,11,M,,M,,*62
06/07/2014	17:01:39.532	$GPGGA,170140,2423.0556,N,08101.9822,W,1,10,1.5,11,M,,M,,*6E
06/07/2014	17:01:40.580	$GPGGA,170141,2423.0571,N,08101.9818,W,1,10,1.5,11,M,,M,,*63
06/07/2014	17:01:41.547	$GPGGA,170142,2423.0585,N,08101.9815,W,1,10,1.5,11,M,,M,,*66
06/07/2014	17:01:42.565	$GPGGA,170143,2423.0600,N,08101.9812,W,1,10,1.5,11,M,,M,,*6E
06/07/2014	17:01:43.573	$GPGGA,170144,2423.0614,N,08101.9808,W,1,10,1.5,11,M,,M,,*67
06/07/2014	17:01:44.550	$GPGGA,170145,2423.0628,N,08101.9805,W,1,10,1.5,11,M,,M,,*64
06/07/2014	17:01:45.568	$GPGGA,170146,2423.0643,N,08101.9801,W,1,10,1.5,11,M,,M,,*6E
06/07/2014	17:01:46.565	$GPGGA,170147,2423.0657,N,08101.9798,W,1,10,1.5,11,M,,M,,*65
06/07/2014	17:01:47.583	$GPGGA,170148,2423.0671,N,08101.9795,W,1,10,1.5,11,M,,M,,*63
06/07/2014	17:01:48.591	$GPGGA,170149,2423.0685,N,08101.9792,W,1,10,1.5,11,M,,M,,*6E
06/07/2014	17:01:49.689	$GPGGA,170150,2423.0699,N,08101.9788,W,1,10,1.5,11,M,,M,,*60
06/07/2014	17:01:50.607	$GPGGA,170151,2423.0712,N,08101.9785,W,1,10,1.5,11,M,,M,,*6E
06/07/2014	17:01:51.624	$GPGGA,170152,2423.0726,N,08101.9782,W,1,10,1.5,11,M,,M,,*6D
06/07/2014	17:01:52.611	$GPGGA,170153,2423.0741,N,08101.9779,W,1,10,1.5,11,M,,M,,*69
06/07/2014	17:01:53.709	$GPGGA,170154,2423.0755,N,08101.9776,W,1,10,1.5,11,M,,M,,*64
06/07/2014	17:01:54.616	$GPGGA,170155,2423.0770,N,08101.9773,W,1,10,1.5,11,M,,M,,*67
06/07/2014	17:01:55.755	$GPGGA,170156,2423.0784,N,08101.9770,W,1,10,1.5,11,M,,M,,*6C
06/07/2014	17:01:56.631	$GPGGA,170157,2423.0798,N,08101.9767,W,1,10,1.5,11,M,,M,,*66
06/07/2014	17:01:57.750	$GPGGA,170158,2423.0813,N,08101.9764,W,1,10,1.5,11,M,,M,,*66
06/07/2014	17:01:58.737	$GPGGA,170159,2423.0827,N,08101.9761,W,1,10,1.5,11,M,,M,,*65
06/07/2014	17:01:59.765	$GPGGA,170200,2423.0841,N,08101.9758,W,1,10,1.5,11,M,,M,,*60
06/07/2014	17:02:00.744	$GPGGA,170201,2423.0856,N,08101.9755,W,1,10,1.5,11,M,,M,,*6A
06/07/2014	17:02:01.761	$GPGGA,170202,2423.0870,N,08101.9752,W,1,10,1.5,11,M,,M,,*6A
06/07/2014	17:02:02.778	$GPGGA,170203,2423.0884,N,08101.9749,W,1,10,1.5,11,M,,M,,*6A
06/07/2014	17:02:03.776	$GPGGA,170204,2423.0898,N,08101.9746,W,1,10,1.5,11,M,,M,,*6F
06/07/2014	17:02:04.804	$GPGGA,170205,2423.0913,N,08101.9744,W,1,10,1.5,10,M,,M,,*6F
06/07/2014	17:02:05.781	$GPGGA,170206,2423.0927,N,08101.9741,W,1,10,1.5,10,M,,M,,*6E
06/07/2014	17:02:06.799	$GPGGA,170207,2423.0941,N,08101.9738,W,1,10,1.5,10,M,,M,,*61
06/07/2014	17:02:07.797	$GPGGA,170208,2423.0954,N,08101.9735,W,1,10,1.5,10,M,,M,,*67
06/07/2014	17:02:08.814	$GPGGA,170209,2423.0968,N,08101.9732,W,1,10,1.5,10,M,,M,,*6E
06/07/2014	17:02:09.801	$GPGGA,170210,2423.0983,N,08101.9729,W,1,10,1.5,10,M,,M,,*69
06/07/2014	17:02:10.819	$GPGGA,170211,2423.0997,N,08101.9727,W,1,10,1.6,10,M,,M,,*60
06/07/2014	17:02:11.826	$GPGGA,170212,2423.1012,N,08101.9723,W,1,10,1.5,10,M,,M,,*61
06/07/2014	17:02:12.804	$GPGGA,170213,2423.1026,N,08101.9720,W,1,10,1.5,10,M,,M,,*64
06/07/2014	17:02:13.822	$GPGGA,170214,2423.1040,N,08101.9718,W,1,10,1.5,10,M,,M,,*68
06/07/2014	17:02:14.839	$GPGGA,170215,2423.1054,N,08101.9715,W,1,10,1.5,10,M,,M,,*61
06/07/2014	17:02:15.847	$GPGGA,170216,2423.1069,N,08101.9712,W,1,10,1.5,10,M,,M,,*6B
06/07/2014	17:02:16.885	$GPGGA,170217,2423.1083,N,08101.9708,W,1,10,1.5,10,M,,M,,*65
06/07/2014	17:02:17.852	$GPGGA,170218,2423.1097,N,08101.9706,W,1,10,1.5,10,M,,M,,*61
06/07/2014	17:02:18.871	$GPGGA,170219,2423.1112,N,08101.9704,W,1,10,1.5,10,M,,M,,*6E
06/07/2014	17:02:19.858	$GPGGA,170220,2423.1126,N,08101.9700,W,1,10,1.5,10,M,,M,,*67
06/07/2014	17:02:20.896	$GPGGA,170221,2423.1141,N,08101.9697,W,1,10,1.5,10,M,,M,,*68
06/07/2014	17:02:21.863	$GPGGA,170222,2423.1155,N,08101.9695,W,1,10,1.5,10,M,,M,,*6C
06/07/2014	17:02:22.911	$GPGGA,170223,2423.1169,N,08101.9692,W,1,10,1.5,10,M,,M,,*65
06/07/2014	17:02:23.899	$GPGGA,170224,2423.1184,N,08101.9688,W,1,10,1.5,10,M,,M,,*6A
06/07/2014	17:02:24.887	$GPGGA,170225,2423.1198,N,08101.9685,W,1,10,1.5,10,M,,M,,*6B
06/07/2014	17:02:26.005	$GPGGA,170226,2423.1212,N,08101.9682,W,1,10,1.5,10,M,,M,,*6E
06/07/2014	17:02:26.921	$GPGGA,170227,2423.1225,N,08101.9679,W,1,10,1.5,10,M,,M,,*6F
06/07/2014	17:02:27.928	$GPGGA,170228,2423.1239,N,08101.9676,W,1,10,1.5,10,M,,M,,*62
06/07/2014	17:02:28.926	$GPGGA,170229,2423.1254,N,08101.9673,W,1,10,1.5,10,M,,M,,*6D
06/07/2014	17:02:29.905	$GPGGA,170230,2423.1268,N,08101.9669,W,1,10,1.5,10,M,,M,,*61
06/07/2014	17:02:30.911	$GPGGA,170231,2423.1283,N,08101.9666,W,1,10,1.5,10,M,,M,,*6A
06/07/2014	17:02:32.050	$GPGGA,170232,2423.1297,N,08101.9663,W,1,10,1.5,10,M,,M,,*69
06/07/2014	17:02:32.917	$GPGGA,170233,2423.1311,N,08101.9660,W,1,10,1.5,10,M,,M,,*64
06/07/2014	17:02:33.925	$GPGGA,170234,2423.1325,N,08101.9657,W,1,10,1.5,10,M,,M,,*60
06/07/2014	17:02:34.962	$GPGGA,170235,2423.1340,N,08101.9654,W,1,10,1.5,9,M,,M,,*59
06/07/2014	17:02:35.980	$GPGGA,170236,2423.1354,N,08101.9651,W,1,10,1.5,9,M,,M,,*5A
06/07/2014	17:02:36.978	$GPGGA,170237,2423.1368,N,08101.9647,W,1,10,1.5,9,M,,M,,*53
06/07/2014	17:02:37.496	$GPGGA,170238,2423.1383,N,08101.9644,W,1,10,1.5,9,M,,M,,*5A
06/07/2014	17:02:38.605	$GPGGA,170239,2423.1397,N,08101.9640,W,1,10,1.5,9,M,,M,,*5A
06/07/2014	17:02:39.532	$GPGGA,170240,2423.1411,N,08101.9637,W,1,10,1.5,9,M,,M,,*5D
06/07/2014	17:02:40.519	$GPGGA,170241,2423.1426,N,08101.9634,W,1,10,1.5,9,M,,M,,*5B
06/07/2014	17:02:41.608	$GPGGA,170242,2423.1440,N,08101.9631,W,1,10,1.5,9,M,,M,,*5D
06/07/2014	17:02:42.625	$GPGGA,170243,2423.1454,N,08101.9628,W,1,10,1.5,9,M,,M,,*51
06/07/2014	17:02:43.643	$GPGGA,170244,2423.1469,N,08101.9625,W,1,10,1.5,9,M,,M,,*55
06/07/2014	17:02:44.651	$GPGGA,170245,2423.1483,N,08101.9622,W,1,10,1.5,9,M,,M,,*57
06/07/2014	17:02:45.637	$GPGGA,170246,2423.1496,N,08101.9619,W,1,10,1.5,9,M,,M,,*58
06/07/2014	17:02:46.665	$GPGGA,170247,2423.1512,N,08101.9615,W,1,10,1.5,9,M,,M,,*58
06/07/2014	17:02:47.653	$GPGGA,170248,2423.1525,N,08101.9612,W,1,10,1.5,9,M,,M,,*54
06/07/2014	17:02:48.654	$GPGGA,170249,2423.1539,N,08101.9609,W,1,10,1.5,9,M,,M,,*52
06/07/2014	17:02:49.650	$GPGGA,170250,2423.1554,N,08101.9606,W,1,10,1.5,9,M,,M,,*5E
06/07/2014	17:02:50.676	$GPGGA,170251,2423.1568,N,08101.9602,W,1,10,1.5,9,M,,M,,*54
06/07/2014	17:02:51.683	$GPGGA,170252,2423.1583,N,08101.9599,W,1,10,1.5,9,M,,M,,*53
06/07/2014	17:02:52.691	$GPGGA,170253,2423.1597,N,08101.9596,W,1,10,1.5,9,M,,M,,*58
06/07/2014	17:02:53.680	$GPGGA,170254,2423.1611,N,08101.9593,W,1,10,1.5,9,M,,M,,*57
06/07/2014	17:02:54.676	$GPGGA,170255,2423.1626,N,08101.9590,W,1,10,1.5,9,M,,M,,*51
06/07/2014	17:02:55.704	$GPGGA,170256,2423.1640,N,08101.9586,W,1,10,1.5,9,M,,M,,*55
06/07/2014	17:02:56.714	$GPGGA,170257,2423.1654,N,08101.9583,W,1,10,1.5,9,M,,M,,*54
06/07/2014	17:02:57.710	$GPGGA,170258,2423.1668,N,08101.9580,W,1,10,1.5,9,M,,M,,*57
06/07/2014	17:02:58.727	$GPGGA,170259,2423.1683,N,08101.9576,W,1,10,1.5,9,M,,M,,*5A
06/07/2014	17:02:59.735	$GPGGA,170300,2423.1695,N,08101.9573,W,1,10,1.5,8,M,,M,,*54
06/07/2014	17:03:00.737	$GPGGA,170301,2423.1711,N,08101.9571,W,1,10,1.5,8,M,,M,,*5A
06/07/2014	17:03:01.719	$GPGGA,170302,2423.1725,N,08101.9567,W,1,10,1.5,8,M,,M,,*59
06/07/2014	17:03:02.760	$GPGGA,170303,2423.1738,N,08101.9564,W,1,10,1.5,8,M,,M,,*57
06/07/2014	17:03:03.745	$GPGGA,170304,2423.1752,N,08101.9561,W,1,10,1.5,8,M,,M,,*59
06/07/2014	17:03:04.732	$GPGGA,170305,2423.1767,N,08101.9558,W,1,10,1.5,8,M,,M,,*54
06/07/2014	17:03:05.740	$GPGGA,170306,2423.1781,N,08101.9554,W,1,10,1.5,8,M,,M,,*53
06/07/2014	17:03:06.748	$GPGGA,170307,2423.1796,N,08101.9551,W,1,10,1.5,8,M,,M,,*51
06/07/2014	17:03:07.775	$GPGGA,170308,2423.1810,N,08101.9548,W,1,10,1.5,8,M,,M,,*57
06/07/2014	17:03:08.753	$GPGGA,170309,2423.1824,N,08101.9546,W,1,10,1.5,8,M,,M,,*5F
06/07/2014	17:03:09.771	$GPGGA,170310,2423.1838,N,08101.9542,W,1,10,1.5,8,M,,M,,*5E
06/07/2014	17:03:10.768	$GPGGA,170311,2423.1852,N,08101.9539,W,1,10,1.5,8,M,,M,,*5F
06/07/2014	17:03:11.786	$GPGGA,170312,2423.1866,N,08101.9536,W,1,10,1.5,8,M,,M,,*54
06/07/2014	17:03:12.804	$GPGGA,170313,2423.1881,N,08101.9532,W,1,10,1.5,8,M,,M,,*58
06/07/2014	17:03:13.802	$GPGGA,170314,2423.1895,N,08101.9529,W,1,10,1.5,8,M,,M,,*50
06/07/2014	17:03:14.829	$GPGGA,170315,2423.1908,N,08101.9526,W,1,10,1.5,8,M,,M,,*5B
06/07/2014	17:03:15.807	$GPGGA,170316,2423.1922,N,08101.9522,W,1,10,1.5,8,M,,M,,*54
06/07/2014	17:03:16.793	$GPGGA,170317,2423.1936,N,08101.9520,W,1,10,1.5,8,M,,M,,*52
06/07/2014	17:03:17.918	$GPGGA,170318,2423.1951,N,08101.9517,W,1,10,1.5,8,M,,M,,*58
06/07/2014	17:03:18.942	$GPGGA,170319,2423.1965,N,08101.9514,W,1,10,1.5,8,M,,M,,*5D
06/07/2014	17:03:19.825	$GPGGA,170320,2423.1980,N,08101.9510,W,1,10,1.5,8,M,,M,,*58
06/07/2014	17:03:20.839	$GPGGA,170321,2423.1994,N,08101.9507,W,1,10,1.5,8,M,,M,,*5A
06/07/2014	17:03:21.824	$GPGGA,170322,2423.2009,N,08101.9504,W,1,10,1.5,8,M,,M,,*54
06/07/2014	17:03:22.918	$GPGGA,170323,2423.2023,N,08101.9501,W,1,10,1.5,8,M,,M,,*58
06/07/2014	17:03:23.853	$GPGGA,170324,2423.2037,N,08101.9498,W,1,10,2.7,8,M,,M,,*5A
06/07/2014	17:03:24.828	$GPGGA,170325,2423.2051,N,08101.9496,W,1,10,1.5,8,M,,M,,*54
06/07/2014	17:03:25.811	$GPGGA,170326,2423.2066,N,08101.9494,W,1,10,1.5,8,M,,M,,*51
06/07/2014	17:03:26.926	$GPGGA,170327,2423.2080,N,08101.9491,W,1,10,1.5,8,M,,M,,*5D
06/07/2014	17:03:27.940	$GPGGA,170328,2423.2095,N,08101.9489,W,1,10,1.5,8,M,,M,,*5F
06/07/2014	17:03:28.824	$GPGGA,170329,2423.2109,N,08101.9486,W,1,10,1.5,8,M,,M,,*55
06/07/2014	17:03:29.919	$GPGGA,170330,2423.2123,N,08101.9484,W,1,10,1.5,8,M,,M,,*57
06/07/2014	17:03:30.944	$GPGGA,170331,2423.2137,N,08101.9481,W,1,10,1.5,8,M,,M,,*56
06/07/2014	17:03:31.948	$GPGGA,170332,2423.2150,N,08101.9479,W,1,10,1.5,8,M,,M,,*53
06/07/2014	17:03:32.936	$GPGGA,170333,2423.2164,N,08101.9477,W,1,10,1.5,8,M,,M,,*5B
06/07/2014	17:03:33.940	$GPGGA,170334,2423.2178,N,08101.9473,W,1,10,1.5,8,M,,M,,*55
06/07/2014	17:03:34.971	$GPGGA,170335,2423.2193,N,08101.9470,W,1,10,1.5,8,M,,M,,*52
06/07/2014	17:03:35.865	$GPGGA,170336,2423.2207,N,08101.9469,W,1,10,1.5,8,M,,M,,*57
06/07/2014	17:03:36.979	$GPGGA,170337,2423.2222,N,08101.9465,W,1,10,1.5,8,M,,M,,*5D
06/07/2014	17:03:37.563	$GPGGA,170338,2423.2236,N,08101.9462,W,1,10,1.5,8,M,,M,,*50
06/07/2014	17:03:38.598	$GPGGA,170339,2423.2250,N,08101.9459,W,1,10,1.5,8,M,,M,,*59
06/07/2014	17:03:39.592	$GPGGA,170340,2423.2264,N,08101.9457,W,1,10,1.5,8,M,,M,,*5E
06/07/2014	17:03:40.556	$GPGGA,170341,2423.2279,N,08101.9453,W,1,10,1.5,8,M,,M,,*57
06/07/2014	17:03:41.574	$GPGGA,170342,2423.2293,N,08101.9450,W,1,10,1.5,8,M,,M,,*53
06/07/2014	17:03:42.565	$GPGGA,170343,2423.2307,N,08101.9448,W,1,10,1.5,8,M,,M,,*57
06/07/2014	17:03:43.590	$GPGGA,170344,2423.2320,N,08101.9445,W,1,10,1.5,8,M,,M,,*58
06/07/2014	17:03:44.599	$GPGGA,170345,2423.2334,N,08101.9442,W,1,10,1.5,8,M,,M,,*5B
06/07/2014	17:03:45.568	$GPGGA,170346,2423.2350,N,08101.9439,W,1,10,1.5,8,M,,M,,*56
06/07/2014	17:03:46.593	$GPGGA,170347,2423.2363,N,08101.9436,W,1,10,1.5,8,M,,M,,*58
06/07/2014	17:03:47.597	$GPGGA,170348,2423.2379,N,08101.9434,W,1,10,1.6,8,M,,M,,*5D
06/07/2014	17:03:48.603	$GPGGA,170349,2423.2394,N,08101.9430,W,1,10,1.5,8,M,,M,,*58
06/07/2014	17:03:49.586	$GPGGA,170350,2423.2409,N,08101.9427,W,1,10,1.5,9,M,,M,,*54
06/07/2014	17:03:50.580	$GPGGA,170351,2423.2423,N,08101.9425,W,1,10,1.5,9,M,,M,,*5F
06/07/2014	17:03:51.595	$GPGGA,170352,2423.2439,N,08101.9421,W,1,10,1.5,9,M,,M,,*53
06/07/2014	17:03:52.589	$GPGGA,170353,2423.2453,N,08101.9417,W,1,10,1.5,9,M,,M,,*5B
06/07/2014	17:03:53.593	$GPGGA,170354,2423.2467,N,08101.9415,W,1,10,1.5,9,M,,M,,*59
06/07/2014	17:03:54.597	$GPGGA,170355,2423.2482,N,08101.9412,W,1,10,1.5,9,M,,M,,*54
06/07/2014	17:03:55.611	$GPGGA,170356,2423.2497,N,08101.9408,W,1,10,1.5,9,M,,M,,*58
06/07/2014	17:03:56.626	$GPGGA,170357,2423.2511,N,08101.9405,W,1,10,1.5,9,M,,M,,*5B
06/07/2014	17:03:57.600	$GPGGA,170358,2423.2525,N,08101.9402,W,1,10,1.5,9,M,,M,,*54
06/07/2014	17:03:58.594	$GPGGA,170359,2423.2540,N,08101.9398,W,1,9,1.6,9,M,,M,,*69
06/07/2014	17:03:59.619	$GPGGA,170400,2423.2554,N,08101.9395,W,1,9,1.5,9,M,,M,,*69
06/07/2014	17:04:00.643	$GPGGA,170401,2423.2568,N,08101.9392,W,1,10,1.5,9,M,,M,,*58
06/07/2014	17:04:01.608	$GPGGA,170402,2423.2582,N,08101.9388,W,1,10,1.5,9,M,,M,,*54
06/07/2014	17:04:02.612	$GPGGA,170403,2423.2597,N,08101.9384,W,1,10,1.5,9,M,,M,,*5D
06/07/2014	17:04:03.637	$GPGGA,170404,2423.2611,N,08101.9381,W,1,10,1.5,10,M,,M,,*6A
06/07/2014	17:04:04.651	$GPGGA,170405,2423.2625,N,08101.9379,W,1,10,1.5,10,M,,M,,*6B
06/07/2014	17:04:05.615	$GPGGA,170406,2423.2639,N,08101.9375,W,1,10,1.5,10,M,,M,,*69
06/07/2014	17:04:06.670	$GPGGA,170407,2423.2652,N,08101.9371,W,1,10,1.5,10,M,,M,,*61
06/07/2014	17:04:07.634	$GPGGA,170408,2423.2666,N,08101.9368,W,1,10,1.5,10,M,,M,,*61
06/07/2014	17:04:08.658	$GPGGA,170409,2423.2681,N,08101.9365,W,1,10,1.5,10,M,,M,,*64
06/07/2014	17:04:09.643	$GPGGA,170410,2423.2695,N,08101.9362,W,1,10,1.5,10,M,,M,,*6E
06/07/2014	17:04:10.637	$GPGGA,170411,2423.2710,N,08101.9358,W,1,10,1.5,10,M,,M,,*6A
06/07/2014	17:04:11.652	$GPGGA,170412,2423.2724,N,08101.9355,W,1,10,1.5,10,M,,M,,*63
06/07/2014	17:04:12.645	$GPGGA,170413,2423.2738,N,08101.9351,W,1,10,1.5,10,M,,M,,*6B
06/07/2014	17:04:13.629	$GPGGA,170414,2423.2753,N,08101.9348,W,1,10,1.5,10,M,,M,,*69
06/07/2014	17:04:14.644	$GPGGA,170415,2423.2767,N,08101.9344,W,1,10,1.5,10,M,,M,,*63
06/07/2014	17:04:15.769	$GPGGA,170416,2423.2781,N,08101.9341,W,1,10,1.5,10,M,,M,,*6D
06/07/2014	17:04:16.663	$GPGGA,170417,2423.2796,N,08101.9337,W,1,10,1.5,10,M,,M,,*6B
06/07/2014	17:04:17.637	$GPGGA,170418,2423.2810,N,08101.9333,W,1,10,1.5,10,M,,M,,*61
06/07/2014	17:04:18.641	$GPGGA,170419,2423.2824,N,08101.9330,W,1,10,1.5,10,M,,M,,*64
06/07/2014	17:04:19.657	$GPGGA,170420,2423.2838,N,08101.9327,W,1,10,1.5,10,M,,M,,*65
06/07/2014	17:04:20.750	$GPGGA,170421,2423.2851,N,08101.9323,W,1,10,1.5,10,M,,M,,*6F
06/07/2014	17:04:21.664	$GPGGA,170422,2423.2865,N,08101.9319,W,1,10,1.5,10,M,,M,,*62
06/07/2014	17:04:22.759	$GPGGA,170423,2423.2879,N,08101.9316,W,1,10,1.5,10,M,,M,,*61
06/07/2014	17:04:23.774	$GPGGA,170424,2423.2894,N,08101.9312,W,1,10,1.5,10,M,,M,,*61
06/07/2014	17:04:24.668	$GPGGA,170425,2423.2908,N,08101.9309,W,1,10,1.5,10,M,,M,,*6E
06/07/2014	17:04:25.772	$GPGGA,170426,2423.2923,N,08101.9306,W,1,10,1.5,10,M,,M,,*6B
06/07/2014	17:04:26.797	$GPGGA,170427,2423.2937,N,08101.9302,W,1,10,1.5,10,M,,M,,*6B
06/07/2014	17:04:27.783	$GPGGA,170428,2423.2952,N,08101.9298,W,1,10,1.5,10,M,,M,,*65
06/07/2014	17:04:28.767	$GPGGA,170429,2423.2966,N,08101.9295,W,1,10,1.5,10,M,,M,,*6E
06/07/2014	17:04:29.779	$GPGGA,170430,2423.2980,N,08101.9292,W,1,10,1.5,10,M,,M,,*69
06/07/2014	17:04:30.803	$GPGGA,170431,2423.2994,N,08101.9287,W,1,9,1.8,10,M,,M,,*5C
06/07/2014	17:04:31.789	$GPGGA,170432,2423.3009,N,08101.9284,W,1,9,1.5,10,M,,M,,*5D
06/07/2014	17:04:32.792	$GPGGA,170433,2423.3023,N,08101.9281,W,1,10,1.5,11,M,,M,,*68
06/07/2014	17:04:33.787	$GPGGA,170434,2423.3037,N,08101.9276,W,1,10,1.5,11,M,,M,,*62
06/07/2014	17:04:34.811	$GPGGA,170435,2423.3051,N,08101.9273,W,1,10,1.5,11,M,,M,,*66
06/07/2014	17:04:35.795	$GPGGA,170436,2423.3064,N,08101.9269,W,1,10,1.5,11,M,,M,,*68
06/07/2014	17:04:36.820	$GPGGA,170437,2423.3078,N,08101.9265,W,1,10,1.5,11,M,,M,,*68
06/07/2014	17:04:37.521	$GPGGA,170438,2423.3092,N,08101.9262,W,1,10,1.5,11,M,,M,,*64
06/07/2014	17:04:38.536	$GPGGA,170439,2423.3106,N,08101.9258,W,1,10,1.5,11,M,,M,,*60
06/07/2014	17:04:39.540	$GPGGA,170440,2423.3121,N,08101.9254,W,1,10,1.5,11,M,,M,,*67
06/07/2014	17:04:40.554	$GPGGA,170441,2423.3134,N,08101.9251,W,1,10,1.5,11,M,,M,,*67
06/07/2014	17:04:41.549	$GPGGA,170442,2423.3147,N,08101.9248,W,1,10,1.5,11,M,,M,,*68
06/07/2014	17:04:42.563	$GPGGA,170443,2423.3161,N,08101.9244,W,1,10,1.5,11,M,,M,,*61
06/07/2014	17:04:43.598	$GPGGA,170444,2423.3176,N,08101.9240,W,1,10,1.5,11,M,,M,,*64
06/07/2014	17:04:44.552	$GPGGA,170445,2423.3190,N,08101.9236,W,1,10,1.5,11,M,,M,,*6C
06/07/2014	17:04:45.557	$GPGGA,170446,2423.3204,N,08101.9233,W,1,10,1.5,12,M,,M,,*67
06/07/2014	17:04:46.540	$GPGGA,170447,2423.3219,N,08101.9229,W,1,10,1.5,12,M,,M,,*61
06/07/2014	17:04:47.564	$GPGGA,170448,2423.3233,N,08101.9225,W,1,10,1.6,12,M,,M,,*69
06/07/2014	17:04:48.548	$GPGGA,170449,2423.3248,N,08101.9222,W,1,10,1.5,12,M,,M,,*60
06/07/2014	17:04:49.553	$GPGGA,170450,2423.3262,N,08101.9219,W,1,10,1.5,12,M,,M,,*68
06/07/2014	17:04:50.597	$GPGGA,170451,2423.3277,N,08101.9215,W,1,9,1.6,12,M,,M,,*5A
06/07/2014	17:04:51.572	$GPGGA,170452,2423.3291,N,08101.9211,W,1,9,1.5,12,M,,M,,*56
06/07/2014	17:04:52.586	$GPGGA,170453,2423.3305,N,08101.9209,W,1,9,1.6,12,M,,M,,*51
06/07/2014	17:04:53.560	$GPGGA,170454,2423.3320,N,08101.9205,W,1,9,1.6,12,M,,M,,*5D
06/07/2014	17:04:54.585	$GPGGA,170455,2423.3335,N,08101.9201,W,1,10,1.5,12,M,,M,,*67
06/07/2014	17:04:55.589	$GPGGA,170456,2423.3349,N,08101.9198,W,1,10,1.5,12,M,,M,,*6C
06/07/2014	17:04:56.584	$GPGGA,170457,2423.3363,N,08101.9195,W,1,9,1.6,12,M,,M,,*53
06/07/2014	17:04:57.568	$GPGGA,170458,2423.3378,N,08101.9191,W,1,9,1.6,12,M,,M,,*52
06/07/2014	17:04:58.592	$GPGGA,170459,2423.3392,N,08101.9188,W,1,9,1.6,13,M,,M,,*5E
06/07/2014	17:04:59.607	$GPGGA,170500,2423.3407,N,08101.9185,W,1,9,1.5,13,M,,M,,*56
06/07/2014	17:05:00.571	$GPGGA,170501,2423.3421,N,08101.9181,W,1,10,1.5,13,M,,M,,*6F
06/07/2014	17:05:01.717	$GPGGA,170502,2423.3436,N,08101.9178,W,1,10,1.5,13,M,,M,,*6C
06/07/2014	17:05:02.590	$GPGGA,170503,2423.3452,N,08101.9174,W,1,10,1.5,13,M,,M,,*63
06/07/2014	17:05:03.594	$GPGGA,170504,2423.3465,N,08101.9171,W,1,10,1.5,13,M,,M,,*65
06/07/2014	17:05:04.598	$GPGGA,170505,2423.3481,N,08101.9168,W,1,10,1.5,13,M,,M,,*66
06/07/2014	17:05:05.602	$GPGGA,170506,2423.3496,N,08101.9164,W,1,10,1.5,13,M,,M,,*6F
06/07/2014	17:05:06.596	$GPGGA,170507,2423.3511,N,08101.9161,W,1,10,1.5,13,M,,M,,*65
06/07/2014	17:05:07.752	$GPGGA,170508,2423.3525,N,08101.9158,W,1,10,1.5,13,M,,M,,*67
06/07/2014	17:05:08.786	$GPGGA,170509,2423.3540,N,08101.9155,W,1,10,1.5,13,M,,M,,*68
06/07/2014	17:05:09.720	$GPGGA,170510,2423.3555,N,08101.9152,W,1,10,1.5,13,M,,M,,*63
06/07/2014	17:05:10.805	$GPGGA,170511,2423.3568,N,08101.9147,W,1,9,1.5,13,M,,M,,*50
06/07/2014	17:05:11.759	$GPGGA,170512,2423.3582,N,08101.9143,W,1,9,1.5,13,M,,M,,*53
06/07/2014	17:05:12.804	$GPGGA,170513,2423.3597,N,08101.9139,W,1,10,1.5,13,M,,M,,*63
06/07/2014	17:05:13.708	$GPGGA,170514,2423.3611,N,08101.9136,W,1,10,1.5,13,M,,M,,*66
06/07/2014	17:05:14.802	$GPGGA,170515,2423.3626,N,08101.9133,W,1,10,1.5,13,M,,M,,*66
06/07/2014	17:05:15.747	$GPGGA,170516,2423.3641,N,08101.9129,W,1,10,1.5,13,M,,M,,*6F
06/07/2014	17:05:16.811	$GPGGA,170517,2423.3655,N,08101.9126,W,1,10,1.5,13,M,,M,,*64
06/07/2014	17:05:17.755	$GPGGA,170518,2423.3670,N,08101.9123,W,1,10,1.5,13,M,,M,,*69
06/07/2014	17:05:18.840	$GPGGA,170519,2423.3685,N,08101.9120,W,1,10,1.5,13,M,,M,,*61
06/07/2014	17:05:19.774	$GPGGA,170520,2423.3699,N,08101.9118,W,1,10,1.5,13,M,,M,,*6D
06/07/2014	17:05:20.830	$GPGGA,170521,2423.3714,N,08101.9115,W,1,10,1.5,13,M,,M,,*65
06/07/2014	17:05:21.762	$GPGGA,170522,2423.3728,N,08101.9112,W,1,10,1.5,13,M,,M,,*6E
06/07/2014	17:05:22.726	$GPGGA,170523,2423.3743,N,08101.9110,W,1,10,1.5,13,M,,M,,*60
06/07/2014	17:05:23.781	$GPGGA,170524,2423.3757,N,08101.9107,W,1,10,1.5,13,M,,M,,*64
06/07/2014	17:05:24.845	$GPGGA,170525,2423.3772,N,08101.9106,W,1,10,1.5,13,M,,M,,*63
06/07/2014	17:05:25.759	$GPGGA,170526,2423.3788,N,08101.9103,W,1,10,1.5,13,M,,M,,*60
06/07/2014	17:05:26.844	$GPGGA,170527,2423.3803,N,08101.9101,W,1,10,1.5,13,M,,M,,*6F
06/07/2014	17:05:27.788	$GPGGA,170528,2423.3818,N,08101.9099,W,1,10,1.5,13,M,,M,,*6A
06/07/2014	17:05:28.732	$GPGGA,170529,2423.3832,N,08101.9096,W,1,10,1.5,13,M,,M,,*6C
06/07/2014	17:05:29.780	$GPGGA,170530,2423.3846,N,08101.9092,W,1,10,1.5,13,M,,M,,*63
06/07/2014	17:05:30.741	$GPGGA,170531,2423.3858,N,08101.9089,W,1,10,1.5,13,M,,M,,*67
06/07/2014	17:05:31.796	$GPGGA,170532,2423.3873,N,08101.9086,W,1,10,1.5,13,M,,M,,*62
06/07/2014	17:05:32.871	$GPGGA,170533,2423.3889,N,08101.9083,W,1,10,1.5,13,M,,M,,*63
06/07/2014	17:05:33.786	$GPGGA,170534,2423.3902,N,08101.9080,W,1,10,1.5,12,M,,M,,*64
06/07/2014	17:05:34.889	$GPGGA,170535,2423.3916,N,08101.9077,W,1,10,1.5,12,M,,M,,*68
06/07/2014	17:05:35.814	$GPGGA,170536,2423.3931,N,08101.9074,W,1,10,1.5,12,M,,M,,*6D
06/07/2014	17:05:36.781	$GPGGA,170537,2423.3945,N,08101.9070,W,1,10,1.5,12,M,,M,,*6B
06/07/2014	17:05:37.512	$GPGGA,170538,2423.3960,N,08101.9067,W,1,10,1.5,12,M,,M,,*65
06/07/2014	17:05:38.544	$GPGGA,170539,2423.3974,N,08101.9064,W,1,10,1.5,12,M,,M,,*62
06/07/2014	17:05:39.595	$GPGGA,170540,2423.3988,N,08101.9061,W,1,10,1.5,12,M,,M,,*6A
06/07/2014	17:05:40.731	$GPGGA,170541,2423.4003,N,08101.9057,W,1,10,1.5,12,M,,M,,*63
06/07/2014	17:05:41.701	$GPGGA,170542,2423.4017,N,08101.9053,W,1,10,1.5,12,M,,M,,*61
06/07/2014	17:05:42.868	$GPGGA,170543,2423.4032,N,08101.9050,W,1,10,1.5,12,M,,M,,*64
06/07/2014	17:05:43.806	$GPGGA,170544,2423.4046,N,08101.9047,W,1,10,1.5,12,M,,M,,*66
06/07/2014	17:05:44.890	$GPGGA,170545,2423.4061,N,08101.9043,W,1,10,1.5,12,M,,M,,*66
06/07/2014	17:05:45.859	$GPGGA,170546,2423.4075,N,08101.9040,W,1,10,1.5,12,M,,M,,*63
06/07/2014	17:05:47.006	$GPGGA,170547,2423.4089,N,08101.9037,W,1,10,1.5,12,M,,M,,*61
06/07/2014	17:05:48.017	$GPGGA,170548,2423.4104,N,08101.9034,W,1,10,1.5,11,M,,M,,*6A
06/07/2014	17:05:49.052	$GPGGA,170549,2423.4118,N,08101.9031,W,1,10,1.5,11,M,,M,,*63
06/07/2014	17:05:49.983	$GPGGA,170550,2423.4132,N,08101.9028,W,1,10,1.5,11,M,,M,,*6B
06/07/2014	17:05:51.026	$GPGGA,170551,2423.4147,N,08101.9025,W,1,10,1.5,11,M,,M,,*65
06/07/2014	17:05:52.207	$GPGGA,170552,2423.4161,N,08101.9022,W,1,10,1.5,11,M,,M,,*65
06/07/2014	17:05:53.198	$GPGGA,170553,2423.4175,N,08101.9018,W,1,10,1.5,11,M,,M,,*68
06/07/2014	17:05:54.250	$GPGGA,170554,2423.4190,N,08101.9015,W,1,10,1.5,11,M,,M,,*69
06/07/2014	17:05:55.344	$GPGGA,170555,2423.4204,N,08101.9012,W,1,10,1.5,11,M,,M,,*61
06/07/2014	17:05:56.345	$GPGGA,170556,2423.4218,N,08101.9009,W,1,10,1.6,11,M,,M,,*66
06/07/2014	17:05:57.376	$GPGGA,170557,2423.4231,N,08101.9005,W,1,9,1.6,11,M,,M,,*58
06/07/2014	17:05:58.424	$GPGGA,170558,2423.4247,N,08101.9002,W,1,9,1.6,11,M,,M,,*51
06/07/2014	17:05:59.480	$GPGGA,170559,2423.4260,N,08101.8998,W,1,9,1.6,11,M,,M,,*5E
06/07/2014	17:06:00.513	$GPGGA,170600,2423.4274,N,08101.8995,W,1,9,1.6,11,M,,M,,*59
06/07/2014	17:06:01.545	$GPGGA,170601,2423.4288,N,08101.8992,W,1,9,1.6,11,M,,M,,*5C
06/07/2014	17:06:02.582	$GPGGA,170602,2423.4303,N,08101.8988,W,1,9,1.6,11,M,,M,,*56
06/07/2014	17:06:03.619	$GPGGA,170603,2423.4317,N,08101.8985,W,1,9,1.6,11,M,,M,,*5F
06/07/2014	17:06:04.676	$GPGGA,170604,2423.4332,N,08101.8982,W,1,9,1.6,11,M,,M,,*58
06/07/2014	17:06:05.777	$GPGGA,170605,2423.4346,N,08101.8978,W,1,9,1.6,11,M,,M,,*5F
06/07/2014	17:06:06.725	$GPGGA,170606,2423.4361,N,08101.8974,W,1,9,1.6,11,M,,M,,*55
06/07/2014	17:06:07.804	$GPGGA,170607,2423.4375,N,08101.8971,W,1,9,1.6,11,M,,M,,*54
06/07/2014	17:06:08.820	$GPGGA,170608,2423.4389,N,08101.8968,W,1,9,1.6,11,M,,M,,*50
06/07/2014	17:06:09.888	$GPGGA,170609,2423.4404,N,08101.8965,W,1,9,1.6,11,M,,M,,*5E
06/07/2014	17:06:10.894	$GPGGA,170610,2423.4418,N,08101.8961,W,1,9,1.6,11,M,,M,,*5F
06/07/2014	17:06:11.959	$GPGGA,170611,2423.4418,N,08101.8961,W,1,9,1.6,11,M,,M,,*5E
06/07/2014	17:06:12.990	$GPGGA,170612,2423.4446,N,08101.8955,W,1,9,1.6,10,M,,M,,*50
06/07/2014	17:06:14.047	$GPGGA,170613,2423.4446,N,08101.8955,W,1,9,1.6,10,M,,M,,*51
06/07/2014	17:06:15.053	$GPGGA,170614,2423.4475,N,08101.8948,W,1,9,1.6,10,M,,M,,*5A
06/07/2014	17:06:16.126	$GPGGA,170615,2423.4489,N,08101.8945,W,1,9,1.6,10,M,,M,,*55
06/07/2014	17:06:17.147	$GPGGA,170616,2423.4504,N,08101.8942,W,1,9,1.6,10,M,,M,,*55
06/07/2014	17:06:18.262	$GPGGA,170617,2423.4518,N,08101.8938,W,1,9,1.5,10,M,,M,,*57
06/07/2014	17:06:19.211	$GPGGA,170618,2423.4533,N,08101.8935,W,1,9,1.5,10,M,,M,,*5C
06/07/2014	17:06:20.316	$GPGGA,170619,2423.4548,N,08101.8932,W,1,10,1.5,10,M,,M,,*6E
06/07/2014	17:06:21.306	$GPGGA,170620,2423.4563,N,08101.8929,W,1,10,1.5,10,M,,M,,*67
06/07/2014	17:06:22.400	$GPGGA,170621,2423.4577,N,08101.8926,W,1,10,1.5,10,M,,M,,*6C
06/07/2014	17:06:23.380	$GPGGA,170622,2423.4592,N,08101.8923,W,1,10,1.5,10,M,,M,,*61
06/07/2014	17:06:24.465	$GPGGA,170623,2423.4606,N,08101.8920,W,1,10,1.5,10,M,,M,,*6D
06/07/2014	17:06:25.465	$GPGGA,170624,2423.4621,N,08101.8917,W,1,10,1.5,10,M,,M,,*6B
06/07/2014	17:06:26.580	$GPGGA,170625,2423.4621,N,08101.8917,W,1,10,1.5,10,M,,M,,*6A
06/07/2014	17:06:27.549	$GPGGA,170626,2423.4650,N,08101.8911,W,1,10,1.6,10,M,,M,,*6A
06/07/2014	17:06:28.602	$GPGGA,170627,2423.4650,N,08101.8911,W,1,9,1.6,10,M,,M,,*53
06/07/2014	17:06:29.624	$GPGGA,170628,2423.4681,N,08101.8905,W,1,9,1.5,10,M,,M,,*56
06/07/2014	17:06:30.770	$GPGGA,170629,2423.4695,N,08101.8903,W,1,10,1.5,10,M,,M,,*6C
06/07/2014	17:06:31.708	$GPGGA,170630,2423.4710,N,08101.8899,W,1,10,1.5,10,M,,M,,*6A
06/07/2014	17:06:32.844	$GPGGA,170631,2423.4725,N,08101.8896,W,1,10,1.5,10,M,,M,,*62
06/07/2014	17:06:33.792	$GPGGA,170632,2423.4739,N,08101.8893,W,1,10,1.5,10,M,,M,,*69
06/07/2014	17:06:34.938	$GPGGA,170633,2423.4754,N,08101.8890,W,1,10,1.5,10,M,,M,,*60
06/07/2014	17:06:35.855	$GPGGA,170634,2423.4769,N,08101.8887,W,1,10,1.5,10,M,,M,,*6F
06/07/2014	17:06:36.908	$GPGGA,170635,2423.4769,N,08101.8887,W,1,10,1.5,9,M,,M,,*56
06/07/2014	17:06:38.065	$GPGGA,170636,2423.4798,N,08101.8882,W,1,10,1.5,9,M,,M,,*5E
06/07/2014	17:06:39.111	$GPGGA,170637,2423.4812,N,08101.8879,W,1,10,1.5,9,M,,M,,*56
06/07/2014	17:06:37.489	$GPGGA,170638,2423.4827,N,08101.8876,W,1,10,1.5,9,M,,M,,*50
06/07/2014	17:06:38.625	$GPGGA,170639,2423.4841,N,08101.8874,W,1,10,1.5,9,M,,M,,*53
06/07/2014	17:06:39.573	$GPGGA,170640,2423.4855,N,08101.8871,W,1,10,1.5,9,M,,M,,*5D
06/07/2014	17:06:40.616	$GPGGA,170641,2423.4855,N,08101.8871,W,1,10,1.5,9,M,,M,,*5C
06/07/2014	17:06:41.741	$GPGGA,170642,2423.4884,N,08101.8866,W,1,10,1.5,9,M,,M,,*55
06/07/2014	17:06:42.690	$GPGGA,170643,2423.4884,N,08101.8866,W,1,10,1.5,9,M,,M,,*54
06/07/2014	17:06:43.836	$GPGGA,170644,2423.4913,N,08101.8860,W,1,10,1.5,9,M,,M,,*5A
06/07/2014	17:06:44.889	$GPGGA,170645,2423.4928,N,08101.8857,W,1,10,1.5,9,M,,M,,*57
06/07/2014	17:06:45.904	$GPGGA,170646,2423.4942,N,08101.8854,W,1,10,1.5,9,M,,M,,*5B
06/07/2014	17:06:46.949	$GPGGA,170647,2423.4957,N,08101.8851,W,1,10,1.5,9,M,,M,,*5B
06/07/2014	17:06:47.995	$GPGGA,170648,2423.4971,N,08101.8848,W,1,10,1.5,9,M,,M,,*58
06/07/2014	17:06:49.063	$GPGGA,170649,2423.4986,N,08101.8845,W,1,10,1.5,9,M,,M,,*5C
06/07/2014	17:06:50.074	$GPGGA,170650,2423.5000,N,08101.8842,W,1,10,1.5,9,M,,M,,*55
06/07/2014	17:06:51.100	$GPGGA,170651,2423.5014,N,08101.8839,W,1,10,1.5,9,M,,M,,*5D
06/07/2014	17:06:52.153	$GPGGA,170652,2423.5028,N,08101.8836,W,1,10,1.5,9,M,,M,,*5E
06/07/2014	17:06:53.174	$GPGGA,170653,2423.5043,N,08101.8833,W,1,10,1.5,9,M,,M,,*57
06/07/2014	17:06:54.227	$GPGGA,170654,2423.5057,N,08101.8831,W,1,10,1.5,9,M,,M,,*57
06/07/2014	17:06:55.290	$GPGGA,170655,2423.5071,N,08101.8828,W,1,10,1.5,9,M,,M,,*5A
06/07/2014	17:06:56.312	$GPGGA,170656,2423.5086,N,08101.8825,W,1,10,1.6,9,M,,M,,*5F
06/07/2014	17:06:57.364	$GPGGA,170657,2423.5100,N,08101.8822,W,1,10,1.5,9,M,,M,,*55
06/07/2014	17:06:58.375	$GPGGA,170658,2423.5114,N,08101.8819,W,1,10,1.6,9,M,,M,,*54
06/07/2014	17:06:59.461	$GPGGA,170659,2423.5127,N,08101.8816,W,1,9,1.6,9,M,,M,,*62
06/07/2014	17:07:00.481	$GPGGA,170700,2423.5143,N,08101.8813,W,1,9,1.6,9,M,,M,,*68
06/07/2014	17:07:01.492	$GPGGA,170701,2423.5155,N,08101.8810,W,1,9,1.6,9,M,,M,,*6D
06/07/2014	17:07:02.545	$GPGGA,170702,2423.5170,N,08101.8807,W,1,9,1.6,8,M,,M,,*6E
06/07/2014	17:07:03.566	$GPGGA,170703,2423.5186,N,08101.8804,W,1,9,1.6,8,M,,M,,*65
06/07/2014	17:07:04.640	$GPGGA,170704,2423.5199,N,08101.8801,W,1,9,1.5,8,M,,M,,*6A
06/07/2014	17:07:05.692	$GPGGA,170705,2423.5215,N,08101.8798,W,1,9,1.6,8,M,,M,,*60
06/07/2014	17:07:06.694	$GPGGA,170706,2423.5228,N,08101.8795,W,1,9,1.6,8,M,,M,,*60
06/07/2014	17:07:07.745	$GPGGA,170707,2423.5242,N,08101.8792,W,1,9,1.6,8,M,,M,,*6A
06/07/2014	17:07:08.808	$GPGGA,170708,2423.5257,N,08101.8789,W,1,9,1.6,8,M,,M,,*6B
06/07/2014	17:07:09.819	$GPGGA,170709,2423.5271,N,08101.8785,W,1,9,1.6,8,M,,M,,*62
06/07/2014	17:07:10.871	$GPGGA,170710,2423.5288,N,08101.8782,W,1,9,1.5,8,M,,M,,*68
06/07/2014	17:07:11.935	$GPGGA,170711,2423.5302,N,08101.8779,W,1,10,1.5,8,M,,M,,*56
06/07/2014	17:07:12.946	$GPGGA,170712,2423.5316,N,08101.8776,W,1,10,1.6,8,M,,M,,*5C
06/07/2014	17:07:14.010	$GPGGA,170713,2423.5332,N,08101.8772,W,1,9,1.6,8,M,,M,,*67
06/07/2014	17:07:15.030	$GPGGA,170714,2423.5346,N,08101.8770,W,1,9,1.5,8,M,,M,,*62
06/07/2014	17:07:16.208	$GPGGA,170715,2423.5360,N,08101.8767,W,1,9,1.6,8,M,,M,,*62
06/07/2014	17:07:17.115	$GPGGA,170716,2423.5375,N,08101.8763,W,1,9,1.6,8,M,,M,,*61
06/07/2014	17:07:18.272	$GPGGA,170717,2423.5389,N,08101.8760,W,1,10,1.5,8,M,,M,,*5B
06/07/2014	17:07:19.168	$GPGGA,170718,2423.5403,N,08101.8757,W,1,10,1.6,8,M,,M,,*56
06/07/2014	17:07:20.252	$GPGGA,170719,2423.5416,N,08101.8754,W,1,10,1.5,8,M,,M,,*53
06/07/2014	17:07:21.399	$GPGGA,170720,2423.5432,N,08101.8750,W,1,10,1.6,8,M,,M,,*58
06/07/2014	17:07:22.441	$GPGGA,170721,2423.5444,N,08101.8747,W,1,9,1.6,8,M,,M,,*66
06/07/2014	17:07:23.337	$GPGGA,170722,2423.5459,N,08101.8744,W,1,9,1.6,8,M,,M,,*6A
06/07/2014	17:07:24.484	$GPGGA,170723,2423.5476,N,08101.8741,W,1,9,1.6,8,M,,M,,*63
06/07/2014	17:07:25.443	$GPGGA,170724,2423.5491,N,08101.8737,W,1,9,1.5,8,M,,M,,*6F
06/07/2014	17:07:26.567	$GPGGA,170725,2423.5505,N,08101.8734,W,1,10,1.5,8,M,,M,,*59
06/07/2014	17:07:27.506	$GPGGA,170726,2423.5519,N,08101.8732,W,1,10,1.5,8,M,,M,,*51
06/07/2014	17:07:28.673	$GPGGA,170727,2423.5533,N,08101.8728,W,1,10,1.5,8,M,,M,,*53
06/07/2014	17:07:29.601	$GPGGA,170728,2423.5546,N,08101.8725,W,1,10,1.6,8,M,,M,,*50
06/07/2014	17:07:30.768	$GPGGA,170729,2423.5560,N,08101.8722,W,1,9,1.6,8,M,,M,,*6A
06/07/2014	17:07:31.758	$GPGGA,170730,2423.5574,N,08101.8719,W,1,9,1.5,8,M,,M,,*6C
06/07/2014	17:07:32.800	$GPGGA,170731,2423.5589,N,08101.8715,W,1,10,1.5,8,M,,M,,*5B
06/07/2014	17:07:33.864	$GPGGA,170732,2423.5605,N,08101.8712,W,1,10,1.5,8,M,,M,,*58
06/07/2014	17:07:34.895	$GPGGA,170733,2423.5618,N,08101.8709,W,1,10,1.5,8,M,,M,,*5F
06/07/2014	17:07:35.927	$GPGGA,170734,2423.5632,N,08101.8706,W,1,10,1.6,8,M,,M,,*5C
06/07/2014	17:07:36.982	$GPGGA,170735,2423.5646,N,08101.8704,W,1,9,1.6,8,M,,M,,*64
06/07/2014	17:07:38.040	$GPGGA,170736,2423.5660,N,08101.8701,W,1,9,1.5,8,M,,M,,*65
06/07/2014	17:07:39.054	$GPGGA,170737,2423.5675,N,08101.8697,W,1,10,1.5,8,M,,M,,*56
06/07/2014	17:07:37.549	$GPGGA,170738,2423.5689,N,08101.8695,W,1,10,1.5,8,M,,M,,*58
06/07/2014	17:07:38.581	$GPGGA,170739,2423.5704,N,08101.8691,W,1,10,1.5,8,M,,M,,*59
06/07/2014	17:07:39.644	$GPGGA,170740,2423.5718,N,08101.8688,W,1,10,1.5,8,M,,M,,*52
06/07/2014	17:07:40.697	$GPGGA,170741,2423.5733,N,08101.8685,W,1,10,1.5,8,M,,M,,*57
06/07/2014	17:07:41.717	$GPGGA,170742,2423.5747,N,08101.8682,W,1,10,1.5,8,M,,M,,*50
06/07/2014	17:07:42.739	$GPGGA,170743,2423.5761,N,08101.8680,W,1,10,1.5,8,M,,M,,*57
06/07/2014	17:07:43.802	$GPGGA,170744,2423.5776,N,08101.8676,W,1,10,1.5,8,M,,M,,*5F
06/07/2014	17:07:44.844	$GPGGA,170745,2423.5790,N,08101.8673,W,1,10,1.5,8,M,,M,,*53
06/07/2014	17:07:45.855	$GPGGA,170746,2423.5805,N,08101.8670,W,1,10,1.5,8,M,,M,,*50
06/07/2014	17:07:46.929	$GPGGA,170747,2423.5819,N,08101.8666,W,1,10,1.5,8,M,,M,,*5B
06/07/2014	17:07:47.961	$GPGGA,170748,2423.5833,N,08101.8664,W,1,10,1.5,8,M,,M,,*5E
06/07/2014	17:07:49.015	$GPGGA,170749,2423.5848,N,08101.8661,W,1,10,1.5,8,M,,M,,*56
06/07/2014	17:07:50.045	$GPGGA,170750,2423.5862,N,08101.8658,W,1,10,1.5,8,M,,M,,*5C
06/07/2014	17:07:51.112	$GPGGA,170751,2423.5876,N,08101.8655,W,1,10,1.5,7,M,,M,,*5A
06/07/2014	17:07:52.130	$GPGGA,170752,2423.5891,N,08101.8652,W,1,10,1.5,7,M,,M,,*57
06/07/2014	17:07:53.141	$GPGGA,170753,2423.5905,N,08101.8648,W,1,10,1.5,7,M,,M,,*51
06/07/2014	17:07:54.204	$GPGGA,170754,2423.5918,N,08101.8646,W,1,10,1.5,7,M,,M,,*54
06/07/2014	17:07:55.236	$GPGGA,170755,2423.5934,N,08101.8643,W,1,10,1.5,7,M,,M,,*5E
06/07/2014	17:07:57.727	$GPGGA,170756,2423.5947,N,08101.8639,W,1,10,1.5,7,M,,M,,*54
06/07/2014	17:07:57.748	$GPGGA,170757,2423.5961,N,08101.8637,W,1,10,1.5,7,M,,M,,*5F
06/07/2014	17:07:58.469	$GPGGA,170758,2423.5975,N,08101.8634,W,1,10,1.5,7,M,,M,,*56
06/07/2014	17:07:59.384	$GPGGA,170759,2423.5990,N,08101.8631,W,1,10,1.5,7,M,,M,,*59
06/07/2014	17:08:00.457	$GPGGA,170800,2423.6004,N,08101.8628,W,1,10,1.5,7,M,,M,,*55
06/07/2014	17:08:01.469	$GPGGA,170801,2423.6019,N,08101.8624,W,1,10,1.5,7,M,,M,,*54
06/07/2014	17:08:02.521	$GPGGA,170802,2423.6033,N,08101.8622,W,1,10,1.5,7,M,,M,,*59
06/07/2014	17:08:03.573	$GPGGA,170803,2423.6047,N,08101.8618,W,1,9,1.6,7,M,,M,,*69
06/07/2014	17:08:04.605	$GPGGA,170804,2423.6061,N,08101.8614,W,1,9,1.9,7,M,,M,,*69
06/07/2014	17:08:05.647	$GPGGA,170805,2423.6075,N,08101.8611,W,1,10,1.5,7,M,,M,,*5C
06/07/2014	17:08:06.658	$GPGGA,170806,2423.6088,N,08101.8608,W,1,10,1.5,8,M,,M,,*5A
06/07/2014	17:08:07.815	$GPGGA,170807,2423.6104,N,08101.8605,W,1,8,1.9,8,M,,M,,*66
06/07/2014	17:08:08.764	$GPGGA,170808,2423.6116,N,08101.8602,W,1,8,1.5,8,M,,M,,*61
06/07/2014	17:08:09.890	$GPGGA,170809,2423.6131,N,08101.8600,W,1,9,1.6,8,M,,M,,*65
06/07/2014	17:08:10.932	$GPGGA,170810,2423.6145,N,08101.8597,W,1,9,1.6,8,M,,M,,*63
06/07/2014	17:08:11.995	$GPGGA,170811,2423.6160,N,08101.8594,W,1,10,1.5,8,M,,M,,*5D
06/07/2014	17:08:12.933	$GPGGA,170812,2423.6174,N,08101.8592,W,1,10,1.5,8,M,,M,,*5D
06/07/2014	17:08:14.059	$GPGGA,170813,2423.6189,N,08101.8589,W,1,9,1.6,8,M,,M,,*6F
06/07/2014	17:08:14.997	$GPGGA,170814,2423.6203,N,08101.8586,W,1,9,1.6,8,M,,M,,*66
06/07/2014	17:08:16.123	$GPGGA,170815,2423.6217,N,08101.8583,W,1,9,1.6,8,M,,M,,*67
06/07/2014	17:08:17.186	$GPGGA,170816,2423.6231,N,08101.8580,W,1,9,1.6,8,M,,M,,*63
06/07/2014	17:08:18.227	$GPGGA,170817,2423.6246,N,08101.8577,W,1,10,1.5,8,M,,M,,*51
06/07/2014	17:08:19.248	$GPGGA,170818,2423.6260,N,08101.8574,W,1,10,1.5,8,M,,M,,*59
06/07/2014	17:08:20.322	$GPGGA,170819,2423.6275,N,08101.8571,W,1,9,1.6,8,M,,M,,*62
06/07/2014	17:08:21.343	$GPGGA,170820,2423.6289,N,08101.8567,W,1,9,1.5,8,M,,M,,*6F
06/07/2014	17:08:22.365	$GPGGA,170821,2423.6303,N,08101.8564,W,1,10,1.5,8,M,,M,,*56
06/07/2014	17:08:23.418	$GPGGA,170822,2423.6317,N,08101.8561,W,1,10,1.6,8,M,,M,,*56
06/07/2014	17:08:24.470	$GPGGA,170823,2423.6330,N,08101.8558,W,1,9,1.6,8,M,,M,,*60
06/07/2014	17:08:25.503	$GPGGA,170824,2423.6344,N,08101.8555,W,1,9,1.6,8,M,,M,,*69
06/07/2014	17:08:26.545	$GPGGA,170825,2423.6359,N,08101.8552,W,1,9,1.6,8,M,,M,,*63
06/07/2014	17:08:27.566	$GPGGA,170826,2423.6373,N,08101.8549,W,1,9,1.5,8,M,,M,,*61
06/07/2014	17:08:28.633	$GPGGA,170827,2423.6387,N,08101.8546,W,1,9,1.6,8,M,,M,,*67
06/07/2014	17:08:29.661	$GPGGA,170828,2423.6402,N,08101.8543,W,1,9,1.6,8,M,,M,,*67
06/07/2014	17:08:30.714	$GPGGA,170829,2423.6416,N,08101.8540,W,1,9,1.6,8,M,,M,,*60
06/07/2014	17:08:31.735	$GPGGA,170830,2423.6430,N,08101.8537,W,1,9,1.6,8,M,,M,,*6C
06/07/2014	17:08:32.777	$GPGGA,170831,2423.6445,N,08101.8533,W,1,9,1.6,9,M,,M,,*6A
06/07/2014	17:08:33.830	$GPGGA,170832,2423.6460,N,08101.8530,W,1,9,1.5,9,M,,M,,*6E
06/07/2014	17:08:34.852	$GPGGA,170833,2423.6474,N,08101.8527,W,1,10,1.5,9,M,,M,,*54
06/07/2014	17:08:35.896	$GPGGA,170834,2423.6488,N,08101.8523,W,1,10,1.5,9,M,,M,,*54
06/07/2014	17:08:36.935	$GPGGA,170835,2423.6503,N,08101.8520,W,1,10,1.5,9,M,,M,,*54
06/07/2014	17:08:37.998	$GPGGA,170836,2423.6516,N,08101.8518,W,1,10,1.6,9,M,,M,,*5B
06/07/2014	17:08:39.041	$GPGGA,170837,2423.6531,N,08101.8514,W,1,9,1.6,9,M,,M,,*6B
06/07/2014	17:08:37.524	$GPGGA,170838,2423.6545,N,08101.8511,W,1,9,1.5,9,M,,M,,*61
06/07/2014	17:08:38.587	$GPGGA,170839,2423.6557,N,08101.8508,W,1,10,1.5,9,M,,M,,*53
06/07/2014	17:08:39.609	$GPGGA,170840,2423.6572,N,08101.8504,W,1,10,1.5,9,M,,M,,*56
06/07/2014	17:08:40.651	$GPGGA,170841,2423.6586,N,08101.8501,W,1,9,1.6,9,M,,M,,*62
06/07/2014	17:08:41.683	$GPGGA,170842,2423.6600,N,08101.8498,W,1,9,1.6,9,M,,M,,*6D
06/07/2014	17:08:42.746	$GPGGA,170843,2423.6615,N,08101.8494,W,1,10,1.5,9,M,,M,,*5F
06/07/2014	17:08:43.768	$GPGGA,170844,2423.6629,N,08101.8491,W,1,10,1.5,9,M,,M,,*52
06/07/2014	17:08:44.799	$GPGGA,170845,2423.6644,N,08101.8488,W,1,10,1.5,9,M,,M,,*50
06/07/2014	17:08:45.863	$GPGGA,170846,2423.6658,N,08101.8485,W,1,10,1.6,9,M,,M,,*50
06/07/2014	17:08:46.894	$GPGGA,170847,2423.6673,N,08101.8481,W,1,9,1.6,9,M,,M,,*64
06/07/2014	17:08:47.926	$GPGGA,170848,2423.6687,N,08101.8479,W,1,9,1.5,9,M,,M,,*64
06/07/2014	17:08:49.136	$GPGGA,170849,2423.6702,N,08101.8476,W,1,10,1.6,9,M,,M,,*5D
06/07/2014	17:08:50.002	$GPGGA,170850,2423.6716,N,08101.8472,W,1,10,1.6,9,M,,M,,*54
06/07/2014	17:08:51.053	$GPGGA,170851,2423.6731,N,08101.8469,W,1,10,1.5,9,M,,M,,*59
06/07/2014	17:08:52.094	$GPGGA,170852,2423.6745,N,08101.8466,W,1,10,1.5,9,M,,M,,*56
06/07/2014	17:08:53.116	$GPGGA,170853,2423.6763,N,08101.8462,W,1,9,1.6,9,M,,M,,*6C
06/07/2014	17:08:54.169	$GPGGA,170854,2423.6777,N,08101.8459,W,1,9,1.5,9,M,,M,,*65
06/07/2014	17:08:55.190	$GPGGA,170855,2423.6792,N,08101.8456,W,1,10,1.5,10,M,,M,,*60
06/07/2014	17:08:56.347	$GPGGA,170856,2423.6806,N,08101.8453,W,1,10,1.5,10,M,,M,,*64
06/07/2014	17:08:57.285	$GPGGA,170857,2423.6821,N,08101.8450,W,1,10,1.5,10,M,,M,,*63
06/07/2014	17:08:58.327	$GPGGA,170858,2423.6835,N,08101.8446,W,1,10,1.5,10,M,,M,,*6E
06/07/2014	17:08:59.478	$GPGGA,170859,2423.6850,N,08101.8443,W,1,10,1.5,10,M,,M,,*69
06/07/2014	17:09:00.527	$GPGGA,170900,2423.6864,N,08101.8440,W,1,10,1.5,10,M,,M,,*60
06/07/2014	17:09:01.569	$GPGGA,170901,2423.6879,N,08101.8437,W,1,10,1.5,10,M,,M,,*6D
06/07/2014	17:09:02.590	$GPGGA,170902,2423.6893,N,08101.8433,W,1,10,1.5,10,M,,M,,*6E
06/07/2014	17:09:03.674	$GPGGA,170903,2423.6908,N,08101.8430,W,1,10,1.5,10,M,,M,,*6F
06/07/2014	17:09:04.680	$GPGGA,170904,2423.6922,N,08101.8427,W,1,10,1.5,10,M,,M,,*66
06/07/2014	17:09:05.728	$GPGGA,170905,2423.6937,N,08101.8423,W,1,10,1.5,10,M,,M,,*67
06/07/2014	17:09:06.728	$GPGGA,170906,2423.6951,N,08101.8420,W,1,10,1.5,10,M,,M,,*67
06/07/2014	17:09:07.804	$GPGGA,170907,2423.6967,N,08101.8417,W,1,10,1.5,10,M,,M,,*67
06/07/2014	17:09:08.837	$GPGGA,170908,2423.6980,N,08101.8414,W,1,10,1.5,10,M,,M,,*62
06/07/2014	17:09:09.856	$GPGGA,170909,2423.6996,N,08101.8410,W,1,10,1.5,10,M,,M,,*60
06/07/2014	17:09:10.908	$GPGGA,170910,2423.7009,N,08101.8408,W,1,10,1.5,10,M,,M,,*6F
06/07/2014	17:09:11.978	$GPGGA,170911,2423.7023,N,08101.8405,W,1,10,1.5,10,M,,M,,*6B
06/07/2014	17:09:13.007	$GPGGA,170912,2423.7038,N,08101.8401,W,1,10,1.5,10,M,,M,,*66
06/07/2014	17:09:14.013	$GPGGA,170913,2423.7052,N,08101.8398,W,1,10,1.5,10,M,,M,,*6C
06/07/2014	17:09:15.066	$GPGGA,170914,2423.7066,N,08101.8396,W,1,10,1.5,11,M,,M,,*63
06/07/2014	17:09:16.121	$GPGGA,170915,2423.7081,N,08101.8392,W,1,10,1.5,11,M,,M,,*6F
06/07/2014	17:09:17.167	$GPGGA,170916,2423.7095,N,08101.8389,W,1,10,1.5,11,M,,M,,*63
06/07/2014	17:09:18.172	$GPGGA,170917,2423.7109,N,08101.8387,W,1,10,1.5,11,M,,M,,*68
06/07/2014	17:09:19.214	$GPGGA,170918,2423.7123,N,08101.8384,W,1,10,1.5,11,M,,M,,*6C
06/07/2014	17:09:20.295	$GPGGA,170919,2423.7138,N,08101.8380,W,1,10,1.5,11,M,,M,,*63
06/07/2014	17:09:21.320	$GPGGA,170920,2423.7150,N,08101.8378,W,1,10,1.8,11,M,,M,,*6D
06/07/2014	17:09:22.341	$GPGGA,170921,2423.7166,N,08101.8375,W,1,10,1.5,11,M,,M,,*69
06/07/2014	17:09:23.383	$GPGGA,170922,2423.7179,N,08101.8371,W,1,10,1.5,11,M,,M,,*60
06/07/2014	17:09:24.436	$GPGGA,170923,2423.7193,N,08101.8368,W,1,10,1.5,11,M,,M,,*6D
06/07/2014	17:09:25.468	$GPGGA,170924,2423.7207,N,08101.8365,W,1,10,1.5,11,M,,M,,*69
06/07/2014	17:09:26.534	$GPGGA,170925,2423.7222,N,08101.8362,W,1,9,1.8,11,M,,M,,*5D
06/07/2014	17:09:27.552	$GPGGA,170926,2423.7233,N,08101.8357,W,1,9,1.8,11,M,,M,,*58
06/07/2014	17:09:28.573	$GPGGA,170927,2423.7247,N,08101.8353,W,1,10,1.5,11,M,,M,,*6B
06/07/2014	17:09:29.637	$GPGGA,170928,2423.7260,N,08101.8350,W,1,10,1.6,11,M,,M,,*61
06/07/2014	17:09:30.689	$GPGGA,170929,2423.7272,N,08101.8346,W,1,10,1.5,11,M,,M,,*67
06/07/2014	17:09:31.754	$GPGGA,170930,2423.7287,N,08101.8343,W,1,10,1.6,11,M,,M,,*63
06/07/2014	17:09:32.732	$GPGGA,170931,2423.7301,N,08101.8339,W,1,10,1.5,11,M,,M,,*63
06/07/2014	17:09:33.784	$GPGGA,170932,2423.7315,N,08101.8336,W,1,10,1.5,11,M,,M,,*6A
06/07/2014	17:09:34.870	$GPGGA,170933,2423.7329,N,08101.8333,W,1,10,1.5,11,M,,M,,*61
06/07/2014	17:09:35.994	$GPGGA,170934,2423.7343,N,08101.8329,W,1,10,1.5,11,M,,M,,*61
06/07/2014	17:09:36.890	$GPGGA,170935,2423.7356,N,08101.8326,W,1,10,1.5,11,M,,M,,*6B
06/07/2014	17:09:37.954	$GPGGA,170936,2423.7370,N,08101.8323,W,1,10,1.5,11,M,,M,,*69
06/07/2014	17:09:39.121	$GPGGA,170937,2423.7385,N,08101.8319,W,1,10,1.5,11,M,,M,,*6B
06/07/2014	17:09:37.585	$GPGGA,170938,2423.7399,N,08101.8316,W,1,10,1.5,11,M,,M,,*66
06/07/2014	17:09:38.679	$GPGGA,170939,2423.7415,N,08101.8313,W,1,10,1.5,11,M,,M,,*61
06/07/2014	17:09:39.586	$GPGGA,170940,2423.7430,N,08101.8311,W,1,10,1.5,11,M,,M,,*6A
06/07/2014	17:09:40.743	$GPGGA,170941,2423.7445,N,08101.8307,W,1,10,1.5,12,M,,M,,*6D
06/07/2014	17:09:41.660	$GPGGA,170942,2423.7459,N,08101.8305,W,1,10,1.5,12,M,,M,,*61
06/07/2014	17:09:42.681	$GPGGA,170943,2423.7474,N,08101.8301,W,1,10,1.5,12,M,,M,,*6B
06/07/2014	17:09:43.745	$GPGGA,170944,2423.7488,N,08101.8298,W,1,10,1.5,12,M,,M,,*6E
06/07/2014	17:09:44.765	$GPGGA,170945,2423.7503,N,08101.8295,W,1,10,1.5,12,M,,M,,*60
06/07/2014	17:09:45.932	$GPGGA,170946,2423.7518,N,08101.8292,W,1,10,1.5,12,M,,M,,*6E
06/07/2014	17:09:46.985	$GPGGA,170947,2423.7532,N,08101.8289,W,1,10,1.5,12,M,,M,,*6D
06/07/2014	17:09:47.996	$GPGGA,170948,2423.7547,N,08101.8286,W,1,10,1.5,12,M,,M,,*6F
06/07/2014	17:09:49.059	$GPGGA,170949,2423.7561,N,08101.8283,W,1,10,1.5,12,M,,M,,*6F
06/07/2014	17:09:50.133	$GPGGA,170950,2423.7576,N,08101.8280,W,1,10,1.5,12,M,,M,,*62
06/07/2014	17:09:51.144	$GPGGA,170951,2423.7590,N,08101.8277,W,1,10,1.5,12,M,,M,,*63
06/07/2014	17:09:52.176	$GPGGA,170952,2423.7604,N,08101.8274,W,1,10,1.5,12,M,,M,,*6D
06/07/2014	17:09:53.218	$GPGGA,170953,2423.7619,N,08101.8271,W,1,10,1.5,11,M,,M,,*66
06/07/2014	17:09:54.231	$GPGGA,170954,2423.7633,N,08101.8268,W,1,10,1.6,11,M,,M,,*62
06/07/2014	17:09:55.284	$GPGGA,170955,2423.7647,N,08101.8265,W,1,9,1.6,11,M,,M,,*55
06/07/2014	17:09:56.324	$GPGGA,170956,2423.7661,N,08101.8262,W,1,9,1.6,11,M,,M,,*55
06/07/2014	17:09:57.377	$GPGGA,170957,2423.7674,N,08101.8259,W,1,9,1.6,11,M,,M,,*58
06/07/2014	17:09:58.388	$GPGGA,170958,2423.7691,N,08101.8256,W,1,9,1.5,11,M,,M,,*50
06/07/2014	17:09:59.461	$GPGGA,170959,2423.7706,N,08101.8252,W,1,10,1.5,11,M,,M,,*62
06/07/2014	17:10:00.504	$GPGGA,171000,2423.7720,N,08101.8248,W,1,10,1.5,11,M,,M,,*69
06/07/2014	17:10:01.546	$GPGGA,171001,2423.7735,N,08101.8246,W,1,10,1.5,11,M,,M,,*62
06/07/2014	17:10:02.556	$GPGGA,171002,2423.7749,N,08101.8243,W,1,10,1.6,11,M,,M,,*6C
06/07/2014	17:10:03.588	$GPGGA,171003,2423.7764,N,08101.8239,W,1,9,1.6,11,M,,M,,*57
06/07/2014	17:10:04.641	$GPGGA,171004,2423.7777,N,08101.8236,W,1,9,1.6,11,M,,M,,*5D
06/07/2014	17:10:05.683	$GPGGA,171005,2423.7791,N,08101.8233,W,1,9,1.6,11,M,,M,,*51
06/07/2014	17:10:06.715	$GPGGA,171006,2423.7806,N,08101.8230,W,1,9,1.6,11,M,,M,,*50
06/07/2014	17:10:07.768	$GPGGA,171007,2423.7820,N,08101.8227,W,1,9,1.5,11,M,,M,,*50
06/07/2014	17:10:08.810	$GPGGA,171008,2423.7833,N,08101.8223,W,1,9,1.5,11,M,,M,,*59
06/07/2014	17:10:09.852	$GPGGA,171009,2423.7847,N,08101.8220,W,1,10,1.6,11,M,,M,,*63
06/07/2014	17:10:10.874	$GPGGA,171010,2423.7861,N,08101.8217,W,1,10,1.6,10,M,,M,,*6A
06/07/2014	17:10:11.905	$GPGGA,171011,2423.7876,N,08101.8214,W,1,9,1.5,10,M,,M,,*55
06/07/2014	17:10:12.979	$GPGGA,171012,2423.7893,N,08101.8210,W,1,9,1.5,10,M,,M,,*59
06/07/2014	17:10:14.011	$GPGGA,171013,2423.7908,N,08101.8208,W,1,10,1.5,10,M,,M,,*6A
06/07/2014	17:10:15.022	$GPGGA,171014,2423.7921,N,08101.8205,W,1,10,1.6,10,M,,M,,*68
06/07/2014	17:10:16.095	$GPGGA,171015,2423.7934,N,08101.8201,W,1,9,1.5,10,M,,M,,*52
06/07/2014	17:10:17.148	$GPGGA,171016,2423.7951,N,08101.8198,W,1,9,1.5,10,M,,M,,*51
06/07/2014	17:10:18.170	$GPGGA,171017,2423.7965,N,08101.8195,W,1,10,1.5,10,M,,M,,*62
06/07/2014	17:10:19.202	$GPGGA,171018,2423.7980,N,08101.8193,W,1,10,1.5,10,M,,M,,*60
06/07/2014	17:10:20.223	$GPGGA,171019,2423.7995,N,08101.8189,W,1,10,1.5,10,M,,M,,*6E
06/07/2014	17:10:21.306	$GPGGA,171020,2423.8009,N,08101.8186,W,1,10,1.5,10,M,,M,,*68
06/07/2014	17:10:22.307	$GPGGA,171021,2423.8022,N,08101.8184,W,1,10,1.5,10,M,,M,,*62
06/07/2014	17:10:23.338	$GPGGA,171022,2423.8037,N,08101.8181,W,1,10,1.5,10,M,,M,,*60
06/07/2014	17:10:24.402	$GPGGA,171023,2423.8051,N,08101.8178,W,1,10,1.5,10,M,,M,,*67
06/07/2014	17:10:25.569	$GPGGA,171024,2423.8064,N,08101.8175,W,1,10,1.8,10,M,,M,,*66
06/07/2014	17:10:26.476	$GPGGA,171025,2423.8078,N,08101.8172,W,1,9,1.8,10,M,,M,,*55
06/07/2014	17:10:27.612	$GPGGA,171026,2423.8092,N,08101.8169,W,1,9,1.8,10,M,,M,,*58
06/07/2014	17:10:28.550	$GPGGA,171027,2423.8105,N,08101.8166,W,1,10,1.8,10,M,,M,,*61
06/07/2014	17:10:29.624	$GPGGA,171028,2423.8118,N,08101.8162,W,1,10,1.8,10,M,,M,,*66
06/07/2014	17:10:30.728	$GPGGA,171029,2423.8132,N,08101.8159,W,1,9,1.8,10,M,,M,,*5F
06/07/2014	17:10:31.771	$GPGGA,171030,2423.8147,N,08101.8157,W,1,9,1.8,10,M,,M,,*5B
06/07/2014	17:10:32.823	$GPGGA,171031,2423.8161,N,08101.8153,W,1,9,1.8,10,M,,M,,*5A
06/07/2014	17:10:33.866	$GPGGA,171032,2423.8175,N,08101.8150,W,1,9,1.8,10,M,,M,,*5F
06/07/2014	17:10:34.895	$GPGGA,171033,2423.8187,N,08101.8148,W,1,9,1.8,11,M,,M,,*5B
06/07/2014	17:10:35.940	$GPGGA,171034,2423.8201,N,08101.8146,W,1,9,1.8,11,M,,M,,*5F
06/07/2014	17:10:36.889	$GPGGA,171035,2423.8215,N,08101.8142,W,1,9,1.8,11,M,,M,,*5F
06/07/2014	17:10:38.024	$GPGGA,171036,2423.8230,N,08101.8139,W,1,9,1.8,11,M,,M,,*57
06/07/2014	17:10:39.044	$GPGGA,171037,2423.8244,N,08101.8137,W,1,9,1.8,11,M,,M,,*5B
06/07/2014	17:10:37.553	$GPGGA,171038,2423.8258,N,08101.8134,W,1,9,1.8,11,M,,M,,*5A
06/07/2014	17:10:38.577	$GPGGA,171039,2423.8272,N,08101.8131,W,1,9,1.8,11,M,,M,,*56
06/07/2014	17:10:39.584	$GPGGA,171040,2423.8286,N,08101.8128,W,1,9,1.8,11,M,,M,,*5B
06/07/2014	17:10:40.619	$GPGGA,171041,2423.8299,N,08101.8126,W,1,9,1.8,11,M,,M,,*5A
06/07/2014	17:10:41.610	$GPGGA,171042,2423.8313,N,08101.8124,W,1,9,1.8,11,M,,M,,*58
06/07/2014	17:10:42.614	$GPGGA,171043,2423.8327,N,08101.8121,W,1,9,1.8,11,M,,M,,*5B
06/07/2014	17:10:43.664	$GPGGA,171044,2423.8341,N,08101.8118,W,1,9,1.8,11,M,,M,,*56
06/07/2014	17:10:44.678	$GPGGA,171045,2423.8355,N,08101.8115,W,1,9,1.8,11,M,,M,,*5F
06/07/2014	17:10:45.664	$GPGGA,171046,2423.8369,N,08101.8112,W,1,9,1.8,11,M,,M,,*54
06/07/2014	17:10:46.681	$GPGGA,171047,2423.8382,N,08101.8109,W,1,9,1.8,11,M,,M,,*5A
06/07/2014	17:10:47.713	$GPGGA,171048,2423.8396,N,08101.8106,W,1,9,1.8,11,M,,M,,*5F
06/07/2014	17:10:48.729	$GPGGA,171049,2423.8410,N,08101.8104,W,1,9,1.8,11,M,,M,,*55
06/07/2014	17:10:49.721	$GPGGA,171050,2423.8425,N,08101.8101,W,1,9,1.8,11,M,,M,,*5E
06/07/2014	17:10:50.775	$GPGGA,171051,2423.8439,N,08101.8097,W,1,9,1.8,11,M,,M,,*5C
06/07/2014	17:10:51.765	$GPGGA,171052,2423.8454,N,08101.8094,W,1,9,1.8,11,M,,M,,*57
06/07/2014	17:10:52.804	$GPGGA,171053,2423.8468,N,08101.8092,W,1,9,1.8,11,M,,M,,*5F
06/07/2014	17:10:53.770	$GPGGA,171054,2423.8482,N,08101.8088,W,1,9,1.8,11,M,,M,,*57
06/07/2014	17:10:54.804	$GPGGA,171055,2423.8496,N,08101.8084,W,1,9,1.8,11,M,,M,,*5F
06/07/2014	17:10:55.821	$GPGGA,171056,2423.8508,N,08101.8082,W,1,9,1.8,11,M,,M,,*5C
06/07/2014	17:10:56.817	$GPGGA,171057,2423.8522,N,08101.8079,W,1,8,1.9,11,M,,M,,*51
06/07/2014	17:10:57.845	$GPGGA,171058,2423.8537,N,08101.8076,W,1,8,1.6,11,M,,M,,*5A
06/07/2014	17:10:58.851	$GPGGA,171059,2423.8551,N,08101.8074,W,1,9,1.6,12,M,,M,,*5B
06/07/2014	17:10:59.888	$GPGGA,171100,2423.8564,N,08101.8071,W,1,9,1.9,12,M,,M,,*5A
06/07/2014	17:11:00.905	$GPGGA,171101,2423.8577,N,08101.8068,W,1,9,1.7,12,M,,M,,*5F
06/07/2014	17:11:01.891	$GPGGA,171102,2423.8591,N,08101.8065,W,1,9,1.9,12,M,,M,,*57
06/07/2014	17:11:02.908	$GPGGA,171103,2423.8605,N,08101.8062,W,1,8,1.9,12,M,,M,,*5E
06/07/2014	17:11:03.955	$GPGGA,171104,2423.8619,N,08101.8059,W,1,8,1.9,11,M,,M,,*5F
06/07/2014	17:11:04.931	$GPGGA,171105,2423.8633,N,08101.8056,W,1,8,1.9,11,M,,M,,*59
06/07/2014	17:11:05.958	$GPGGA,171106,2423.8647,N,08101.8053,W,1,8,1.9,11,M,,M,,*5C
06/07/2014	17:11:06.965	$GPGGA,171107,2423.8660,N,08101.8050,W,1,8,1.9,11,M,,M,,*5B
06/07/2014	17:11:08.003	$GPGGA,171108,2423.8674,N,08101.8047,W,1,8,1.9,11,M,,M,,*57
06/07/2014	17:11:09.131	$GPGGA,171109,2423.8689,N,08101.8046,W,1,8,1.9,11,M,,M,,*55
06/07/2014	17:11:10.015	$GPGGA,171110,2423.8703,N,08101.8043,W,1,8,1.6,11,M,,M,,*54
06/07/2014	17:11:11.042	$GPGGA,171111,2423.8717,N,08101.8040,W,1,8,1.9,11,M,,M,,*5C
06/07/2014	17:11:12.058	$GPGGA,171112,2423.8732,N,08101.8037,W,1,8,1.9,11,M,,M,,*58
06/07/2014	17:11:13.158	$GPGGA,171113,2423.8746,N,08101.8034,W,1,8,1.9,11,M,,M,,*59
06/07/2014	17:11:14.186	$GPGGA,171114,2423.8760,N,08101.8030,W,1,8,1.9,11,M,,M,,*5E
06/07/2014	17:11:15.090	$GPGGA,171115,2423.8775,N,08101.8027,W,1,8,1.9,11,M,,M,,*5D
06/07/2014	17:11:16.227	$GPGGA,171116,2423.8790,N,08101.8023,W,1,8,1.7,11,M,,M,,*5F
06/07/2014	17:11:17.232	$GPGGA,171117,2423.8804,N,08101.8020,W,1,9,1.7,11,M,,M,,*5E
06/07/2014	17:11:18.128	$GPGGA,171118,2423.8819,N,08101.8017,W,1,9,1.7,11,M,,M,,*59
06/07/2014	17:11:19.244	$GPGGA,171119,2423.8833,N,08101.8014,W,1,9,1.7,11,M,,M,,*53
06/07/2014	17:11:20.274	$GPGGA,171120,2423.8850,N,08101.8010,W,1,9,1.7,11,M,,M,,*58
06/07/2014	17:11:21.287	$GPGGA,171121,2423.8864,N,08101.8007,W,1,9,1.7,11,M,,M,,*58
06/07/2014	17:11:22.295	$GPGGA,171122,2423.8879,N,08101.8003,W,1,9,1.7,11,M,,M,,*53
06/07/2014	17:11:23.300	$GPGGA,171123,2423.8894,N,08101.8000,W,1,9,1.7,11,M,,M,,*52
06/07/2014	17:11:24.331	$GPGGA,171124,2423.8909,N,08101.7997,W,1,9,1.7,11,M,,M,,*58
06/07/2014	17:11:25.348	$GPGGA,171125,2423.8923,N,08101.7994,W,1,9,1.7,11,M,,M,,*52
06/07/2014	17:11:26.341	$GPGGA,171126,2423.8938,N,08101.7991,W,1,9,1.7,11,M,,M,,*5E
06/07/2014	17:11:27.383	$GPGGA,171127,2423.8952,N,08101.7987,W,1,9,1.7,11,M,,M,,*54
06/07/2014	17:11:28.392	$GPGGA,171128,2423.8967,N,08101.7984,W,1,9,1.7,12,M,,M,,*5D
06/07/2014	17:11:29.415	$GPGGA,171129,2423.8981,N,08101.7981,W,1,9,1.7,12,M,,M,,*51
06/07/2014	17:11:30.400	$GPGGA,171130,2423.8996,N,08101.7978,W,1,9,1.7,12,M,,M,,*59
06/07/2014	17:11:31.444	$GPGGA,171131,2423.9010,N,08101.7975,W,1,9,1.7,12,M,,M,,*53
06/07/2014	17:11:32.448	$GPGGA,171132,2423.9025,N,08101.7973,W,1,9,1.7,12,M,,M,,*50
06/07/2014	17:11:33.493	$GPGGA,171133,2423.9039,N,08101.7970,W,1,9,1.7,12,M,,M,,*5F
06/07/2014	17:11:34.457	$GPGGA,171134,2423.9053,N,08101.7967,W,1,9,1.7,12,M,,M,,*52
06/07/2014	17:11:35.474	$GPGGA,171135,2423.9068,N,08101.7964,W,1,9,1.7,12,M,,M,,*58
06/07/2014	17:11:36.501	$GPGGA,171136,2423.9082,N,08101.7961,W,1,9,1.7,12,M,,M,,*5A
06/07/2014	17:11:37.518	$GPGGA,171137,2423.9097,N,08101.7957,W,1,9,1.7,12,M,,M,,*5A
06/07/2014	17:11:37.517	$GPGGA,171138,2423.9111,N,08101.7954,W,1,9,1.7,12,M,,M,,*59
06/07/2014	17:11:38.544	$GPGGA,171139,2423.9126,N,08101.7951,W,1,9,1.7,12,M,,M,,*59
06/07/2014	17:11:39.561	$GPGGA,171140,2423.9140,N,08101.7948,W,1,9,1.7,13,M,,M,,*5E
06/07/2014	17:11:40.568	$GPGGA,171141,2423.9155,N,08101.7945,W,1,9,1.7,13,M,,M,,*56
06/07/2014	17:11:41.585	$GPGGA,171142,2423.9169,N,08101.7942,W,1,9,1.7,13,M,,M,,*5D
06/07/2014	17:11:42.612	$GPGGA,171143,2423.9183,N,08101.7939,W,1,9,1.7,13,M,,M,,*54
06/07/2014	17:11:43.619	$GPGGA,171144,2423.9198,N,08101.7936,W,1,9,1.7,13,M,,M,,*56
06/07/2014	17:11:44.645	$GPGGA,171145,2423.9212,N,08101.7933,W,1,9,1.7,13,M,,M,,*53
