Software Version Number: 1	Data File Format Number: 1	Build Version Number: 1	Error Count Since VI Started: 0	Manufacturer: Raytheon	 Model Number: RayMarine 120	 S/N: 	 Cal Date: 	 Wind Direction Offset: 0.00	 Slope (M)1: 0.00	 Offset (B)1: 0.00	 Slope (M)2: 0.00	 Offset (B)2: 0.00	 Slope (M)3: 0.00	 Offset (B)3: 0.00	 Slope (M)4: 0.00	 Offset (B)4: 0.00	 Slope (M)5: 0.00	 Offset (B)5: 0.00	 Slope (M)6: 0.00	 Offset (B)6: 0.00
Computer Date	Computer Time	GGA String
06/12/2014	04:00:00.674	$GPGGA,040000,2543.8838,N,08009.7284,W,1,10,1.7,17,M,,M,,*66
06/12/2014	04:00:01.756	$GPGGA,040001,2543.8837,N,08009.7284,W,1,10,1.7,17,M,,M,,*68
06/12/2014	04:00:02.758	$GPGGA,040002,2543.8839,N,08009.7284,W,1,10,1.7,17,M,,M,,*65
06/12/2014	04:00:03.805	$GPGGA,040003,2543.8837,N,08009.7284,W,1,10,1.7,17,M,,M,,*6A
06/12/2014	04:00:04.834	$GPGGA,040004,2543.8837,N,08009.7284,W,1,10,1.7,17,M,,M,,*6D
06/12/2014	04:00:05.833	$GPGGA,040005,2543.8837,N,08009.7284,W,1,10,1.7,17,M,,M,,*6C
06/12/2014	04:00:06.885	$GPGGA,040006,2543.8837,N,08009.7284,W,1,10,1.7,17,M,,M,,*6F
06/12/2014	04:00:07.912	$GPGGA,040007,2543.8837,N,08009.7284,W,1,10,1.7,17,M,,M,,*6E
06/12/2014	04:00:08.943	$GPGGA,040008,2543.8837,N,08009.7284,W,1,10,1.7,17,M,,M,,*61
06/12/2014	04:00:09.940	$GPGGA,040009,2543.8837,N,08009.7284,W,1,10,1.7,17,M,,M,,*60
06/12/2014	04:00:10.981	$GPGGA,040010,2543.8837,N,08009.7284,W,1,10,1.7,17,M,,M,,*68
06/12/2014	04:00:12.204	$GPGGA,040011,2543.8837,N,08009.7284,W,1,10,1.7,17,M,,M,,*69
06/12/2014	04:00:13.150	$GPGGA,040012,2543.8837,N,08009.7283,W,1,10,1.7,17,M,,M,,*6D
06/12/2014	04:00:14.063	$GPGGA,040013,2543.8837,N,08009.7283,W,1,10,1.7,17,M,,M,,*6C
06/12/2014	04:00:15.220	$GPGGA,040014,2543.8837,N,08009.7283,W,1,10,1.7,17,M,,M,,*6B
06/12/2014	04:00:16.301	$GPGGA,040015,2543.8837,N,08009.7284,W,1,10,1.7,17,M,,M,,*6D
06/12/2014	04:00:17.248	$GPGGA,040016,2543.8837,N,08009.7284,W,1,10,1.7,17,M,,M,,*6E
06/12/2014	04:00:18.328	$GPGGA,040017,2543.8837,N,08009.7283,W,1,10,1.7,17,M,,M,,*68
06/12/2014	04:00:19.317	$GPGGA,040018,2543.8835,N,08009.7283,W,1,10,1.7,17,M,,M,,*65
06/12/2014	04:00:20.418	$GPGGA,040019,2543.8836,N,08009.7283,W,1,10,1.7,17,M,,M,,*67
06/12/2014	04:00:21.406	$GPGGA,040020,2543.8835,N,08009.7283,W,1,10,1.7,17,M,,M,,*6E
06/12/2014	04:00:22.477	$GPGGA,040021,2543.8836,N,08009.7283,W,1,10,1.7,17,M,,M,,*6C
06/12/2014	04:00:23.362	$GPGGA,040022,2543.8835,N,08009.7283,W,1,10,1.7,17,M,,M,,*6C
06/12/2014	04:00:24.433	$GPGGA,040023,2543.8836,N,08009.7283,W,1,10,1.7,17,M,,M,,*6E
06/12/2014	04:00:25.526	$GPGGA,040024,2543.8835,N,08009.7284,W,1,10,1.7,17,M,,M,,*6D
06/12/2014	04:00:26.584	$GPGGA,040025,2543.8836,N,08009.7284,W,1,10,1.7,17,M,,M,,*6F
06/12/2014	04:00:27.572	$GPGGA,040026,2543.8835,N,08009.7284,W,1,10,1.7,17,M,,M,,*6F
06/12/2014	04:00:28.633	$GPGGA,040027,2543.8836,N,08009.7284,W,1,10,1.7,17,M,,M,,*6D
06/12/2014	04:00:29.579	$GPGGA,040028,2543.8835,N,08009.7284,W,1,10,1.7,17,M,,M,,*61
06/12/2014	04:00:30.711	$GPGGA,040029,2543.8836,N,08009.7284,W,1,10,1.7,17,M,,M,,*63
06/12/2014	04:00:31.648	$GPGGA,040030,2543.8835,N,08009.7284,W,1,10,1.7,17,M,,M,,*68
06/12/2014	04:00:32.646	$GPGGA,040031,2543.8834,N,08009.7284,W,1,10,1.7,17,M,,M,,*68
06/12/2014	04:00:33.727	$GPGGA,040032,2543.8835,N,08009.7284,W,1,10,1.7,17,M,,M,,*6A
06/12/2014	04:00:34.695	$GPGGA,040033,2543.8834,N,08009.7284,W,1,10,1.7,17,M,,M,,*6A
06/12/2014	04:00:35.765	$GPGGA,040034,2543.8835,N,08009.7284,W,1,10,1.7,17,M,,M,,*6C
06/12/2014	04:00:36.836	$GPGGA,040035,2543.8834,N,08009.7284,W,1,10,1.7,17,M,,M,,*6C
06/12/2014	04:00:37.824	$GPGGA,040036,2543.8835,N,08009.7284,W,1,10,1.7,17,M,,M,,*6E
06/12/2014	04:00:38.812	$GPGGA,040037,2543.8834,N,08009.7284,W,1,10,1.7,17,M,,M,,*6E
06/12/2014	04:00:39.862	$GPGGA,040038,2543.8835,N,08009.7284,W,1,10,1.7,17,M,,M,,*60
06/12/2014	04:00:40.862	$GPGGA,040039,2543.8834,N,08009.7284,W,1,10,1.7,17,M,,M,,*60
06/12/2014	04:00:41.944	$GPGGA,040040,2543.8835,N,08009.7284,W,1,10,1.7,17,M,,M,,*6F
06/12/2014	04:00:42.919	$GPGGA,040041,2543.8834,N,08009.7284,W,1,10,1.7,17,M,,M,,*6F
06/12/2014	04:00:44.928	$GPGGA,040042,2543.8835,N,08009.7284,W,1,10,1.7,17,M,,M,,*6D
06/12/2014	04:00:45.102	$GPGGA,040043,2543.8836,N,08009.7284,W,1,10,1.7,17,M,,M,,*6F
06/12/2014	04:00:46.049	$GPGGA,040044,2543.8835,N,08009.7283,W,1,10,1.7,17,M,,M,,*6C
06/12/2014	04:00:47.170	$GPGGA,040045,2543.8836,N,08009.7283,W,1,10,1.7,17,M,,M,,*6E
06/12/2014	04:00:45.578	$GPGGA,040046,2543.8835,N,08009.7284,W,1,10,1.7,17,M,,M,,*69
06/12/2014	04:00:46.570	$GPGGA,040047,2543.8836,N,08009.7284,W,1,10,1.7,17,M,,M,,*6B
06/12/2014	04:00:47.668	$GPGGA,040048,2543.8835,N,08009.7284,W,1,10,1.7,17,M,,M,,*67
06/12/2014	04:00:48.629	$GPGGA,040049,2543.8836,N,08009.7284,W,1,10,1.7,17,M,,M,,*65
06/12/2014	04:00:49.654	$GPGGA,040050,2543.8837,N,08009.7284,W,1,10,1.7,17,M,,M,,*6C
06/12/2014	04:00:50.684	$GPGGA,040051,2543.8837,N,08009.7284,W,1,10,1.7,17,M,,M,,*6D
06/12/2014	04:00:51.847	$GPGGA,040052,2543.8837,N,08009.7284,W,1,10,1.7,17,M,,M,,*6E
06/12/2014	04:00:52.825	$GPGGA,040053,2543.8837,N,08009.7283,W,1,10,1.7,17,M,,M,,*68
06/12/2014	04:00:53.864	$GPGGA,040054,2543.8837,N,08009.7283,W,1,10,1.7,17,M,,M,,*6F
06/12/2014	04:00:54.904	$GPGGA,040055,2543.8837,N,08009.7283,W,1,10,1.7,17,M,,M,,*6E
06/12/2014	04:00:55.862	$GPGGA,040056,2543.8837,N,08009.7283,W,1,10,1.7,17,M,,M,,*6D
06/12/2014	04:00:56.942	$GPGGA,040057,2543.8837,N,08009.7283,W,1,10,1.7,17,M,,M,,*6C
06/12/2014	04:00:57.972	$GPGGA,040058,2543.8835,N,08009.7283,W,1,10,1.7,17,M,,M,,*61
06/12/2014	04:00:58.898	$GPGGA,040059,2543.8836,N,08009.7283,W,1,10,1.7,17,M,,M,,*63
06/12/2014	04:01:00.055	$GPGGA,040100,2543.8835,N,08009.7283,W,1,10,1.7,17,M,,M,,*6D
06/12/2014	04:01:01.107	$GPGGA,040101,2543.8836,N,08009.7283,W,1,10,1.7,17,M,,M,,*6F
06/12/2014	04:01:02.079	$GPGGA,040102,2543.8835,N,08009.7283,W,1,10,1.7,17,M,,M,,*6F
06/12/2014	04:01:03.169	$GPGGA,040103,2543.8836,N,08009.7283,W,1,10,1.7,17,M,,M,,*6D
06/12/2014	04:01:04.161	$GPGGA,040104,2543.8835,N,08009.7282,W,1,10,1.7,17,M,,M,,*68
06/12/2014	04:01:05.187	$GPGGA,040105,2543.8836,N,08009.7283,W,1,10,1.7,17,M,,M,,*6B
06/12/2014	04:01:06.197	$GPGGA,040106,2543.8835,N,08009.7283,W,1,10,1.7,17,M,,M,,*6B
06/12/2014	04:01:07.235	$GPGGA,040107,2543.8836,N,08009.7283,W,1,10,1.7,17,M,,M,,*69
06/12/2014	04:01:08.265	$GPGGA,040108,2543.8835,N,08009.7283,W,1,10,1.7,17,M,,M,,*65
06/12/2014	04:01:09.346	$GPGGA,040109,2543.8836,N,08009.7283,W,1,10,1.7,17,M,,M,,*67
06/12/2014	04:01:10.313	$GPGGA,040110,2543.8835,N,08009.7283,W,1,10,1.7,17,M,,M,,*6C
06/12/2014	04:01:11.353	$GPGGA,040111,2543.8836,N,08009.7283,W,1,10,1.7,17,M,,M,,*6E
06/12/2014	04:01:12.383	$GPGGA,040112,2543.8835,N,08009.7283,W,1,10,1.7,17,M,,M,,*6E
06/12/2014	04:01:13.432	$GPGGA,040113,2543.8834,N,08009.7282,W,1,10,1.7,17,M,,M,,*6F
06/12/2014	04:01:14.421	$GPGGA,040114,2543.8835,N,08009.7283,W,1,10,1.7,17,M,,M,,*68
06/12/2014	04:01:15.471	$GPGGA,040115,2543.8834,N,08009.7282,W,1,10,1.7,17,M,,M,,*69
06/12/2014	04:01:16.479	$GPGGA,040116,2543.8835,N,08009.7283,W,1,10,1.7,17,M,,M,,*6A
06/12/2014	04:01:17.519	$GPGGA,040117,2543.8834,N,08009.7282,W,1,10,1.7,17,M,,M,,*6B
06/12/2014	04:01:18.518	$GPGGA,040118,2543.8835,N,08009.7283,W,1,10,1.7,17,M,,M,,*64
06/12/2014	04:01:19.568	$GPGGA,040119,2543.8835,N,08009.7283,W,1,10,1.7,17,M,,M,,*65
06/12/2014	04:01:20.596	$GPGGA,040120,2543.8835,N,08009.7283,W,1,10,1.7,17,M,,M,,*6F
06/12/2014	04:01:21.667	$GPGGA,040121,2543.8834,N,08009.7283,W,1,10,1.7,17,M,,M,,*6F
06/12/2014	04:01:22.634	$GPGGA,040122,2543.8835,N,08009.7282,W,1,10,1.7,17,M,,M,,*6C
06/12/2014	04:01:23.694	$GPGGA,040123,2543.8833,N,08009.7283,W,1,10,1.7,17,M,,M,,*6A
06/12/2014	04:01:24.703	$GPGGA,040124,2543.8833,N,08009.7283,W,1,10,1.7,17,M,,M,,*6D
06/12/2014	04:01:25.789	$GPGGA,040125,2543.8833,N,08009.7283,W,1,10,1.7,17,M,,M,,*6C
06/12/2014	04:01:26.752	$GPGGA,040126,2543.8833,N,08009.7283,W,1,10,1.7,17,M,,M,,*6F
06/12/2014	04:01:27.812	$GPGGA,040127,2543.8833,N,08009.7283,W,1,10,1.7,17,M,,M,,*6E
06/12/2014	04:01:28.811	$GPGGA,040128,2543.8833,N,08009.7284,W,1,10,1.7,17,M,,M,,*66
06/12/2014	04:01:29.892	$GPGGA,040129,2543.8833,N,08009.7284,W,1,10,1.7,17,M,,M,,*67
06/12/2014	04:01:30.869	$GPGGA,040130,2543.8833,N,08009.7284,W,1,10,1.7,17,M,,M,,*6F
06/12/2014	04:01:31.940	$GPGGA,040131,2543.8833,N,08009.7284,W,1,10,1.7,17,M,,M,,*6E
06/12/2014	04:01:32.918	$GPGGA,040132,2543.8833,N,08009.7284,W,1,10,1.7,17,M,,M,,*6D
06/12/2014	04:01:33.999	$GPGGA,040133,2543.8833,N,08009.7284,W,1,10,1.7,16,M,,M,,*6D
06/12/2014	04:01:34.977	$GPGGA,040134,2543.8833,N,08009.7285,W,1,10,1.7,16,M,,M,,*6B
06/12/2014	04:01:36.058	$GPGGA,040135,2543.8833,N,08009.7284,W,1,10,1.7,16,M,,M,,*6B
06/12/2014	04:01:37.035	$GPGGA,040136,2543.8833,N,08009.7285,W,1,10,1.7,16,M,,M,,*69
06/12/2014	04:01:38.096	$GPGGA,040137,2543.8833,N,08009.7284,W,1,10,1.7,16,M,,M,,*69
06/12/2014	04:01:39.081	$GPGGA,040138,2543.8833,N,08009.7285,W,1,10,1.7,16,M,,M,,*67
06/12/2014	04:01:40.126	$GPGGA,040139,2543.8833,N,08009.7285,W,1,10,1.7,16,M,,M,,*66
06/12/2014	04:01:41.152	$GPGGA,040140,2543.8833,N,08009.7285,W,1,10,1.7,16,M,,M,,*68
06/12/2014	04:01:42.171	$GPGGA,040141,2543.8833,N,08009.7285,W,1,10,1.7,16,M,,M,,*69
06/12/2014	04:01:43.191	$GPGGA,040142,2543.8835,N,08009.7284,W,1,10,1.7,16,M,,M,,*6D
06/12/2014	04:01:44.230	$GPGGA,040143,2543.8835,N,08009.7284,W,1,10,1.7,16,M,,M,,*6C
06/12/2014	04:01:45.250	$GPGGA,040144,2543.8835,N,08009.7284,W,1,10,1.7,16,M,,M,,*6B
06/12/2014	04:01:46.392	$GPGGA,040145,2543.8835,N,08009.7284,W,1,10,1.7,15,M,,M,,*69
06/12/2014	04:01:45.538	$GPGGA,040146,2543.8835,N,08009.7285,W,1,10,1.7,15,M,,M,,*6B
06/12/2014	04:01:46.678	$GPGGA,040147,2543.8836,N,08009.7285,W,1,10,1.7,15,M,,M,,*69
06/12/2014	04:01:47.584	$GPGGA,040148,2543.8835,N,08009.7285,W,1,10,1.7,15,M,,M,,*65
06/12/2014	04:01:48.634	$GPGGA,040149,2543.8835,N,08009.7285,W,1,10,1.7,15,M,,M,,*64
06/12/2014	04:01:49.633	$GPGGA,040150,2543.8835,N,08009.7285,W,1,10,1.7,15,M,,M,,*6C
06/12/2014	04:01:50.693	$GPGGA,040151,2543.8835,N,08009.7285,W,1,10,1.7,15,M,,M,,*6D
06/12/2014	04:01:51.691	$GPGGA,040152,2543.8835,N,08009.7285,W,1,10,1.7,15,M,,M,,*6E
06/12/2014	04:01:52.711	$GPGGA,040153,2543.8835,N,08009.7285,W,1,10,1.7,15,M,,M,,*6F
06/12/2014	04:01:53.853	$GPGGA,040154,2543.8837,N,08009.7285,W,1,10,1.7,15,M,,M,,*6A
06/12/2014	04:01:54.871	$GPGGA,040155,2543.8837,N,08009.7285,W,1,10,1.7,15,M,,M,,*6B
06/12/2014	04:01:55.911	$GPGGA,040156,2543.8837,N,08009.7285,W,1,10,1.7,15,M,,M,,*68
06/12/2014	04:01:56.940	$GPGGA,040157,2543.8837,N,08009.7285,W,1,10,1.7,15,M,,M,,*69
06/12/2014	04:01:57.949	$GPGGA,040158,2543.8837,N,08009.7285,W,1,10,1.7,15,M,,M,,*66
06/12/2014	04:01:59.020	$GPGGA,040159,2543.8837,N,08009.7284,W,1,10,1.7,14,M,,M,,*67
06/12/2014	04:02:00.029	$GPGGA,040200,2543.8837,N,08009.7284,W,1,10,1.7,14,M,,M,,*68
06/12/2014	04:02:01.058	$GPGGA,040201,2543.8837,N,08009.7285,W,1,10,1.7,14,M,,M,,*68
06/12/2014	04:02:02.067	$GPGGA,040202,2543.8837,N,08009.7285,W,1,10,1.7,14,M,,M,,*6B
06/12/2014	04:02:03.127	$GPGGA,040203,2543.8837,N,08009.7285,W,1,10,1.7,14,M,,M,,*6A
06/12/2014	04:02:04.136	$GPGGA,040204,2543.8837,N,08009.7285,W,1,10,1.7,14,M,,M,,*6D
06/12/2014	04:02:05.155	$GPGGA,040205,2543.8837,N,08009.7285,W,1,10,1.8,14,M,,M,,*63
06/12/2014	04:02:06.174	$GPGGA,040206,2543.8837,N,08009.7285,W,1,10,1.8,14,M,,M,,*60
06/12/2014	04:02:07.193	$GPGGA,040207,2543.8837,N,08009.7285,W,1,10,1.8,14,M,,M,,*61
06/12/2014	04:02:08.233	$GPGGA,040208,2543.8837,N,08009.7285,W,1,10,1.8,14,M,,M,,*6E
06/12/2014	04:02:09.273	$GPGGA,040209,2543.8837,N,08009.7285,W,1,10,1.8,14,M,,M,,*6F
06/12/2014	04:02:10.281	$GPGGA,040210,2543.8837,N,08009.7285,W,1,10,1.8,14,M,,M,,*67
06/12/2014	04:02:11.342	$GPGGA,040211,2543.8837,N,08009.7285,W,1,10,1.8,14,M,,M,,*66
06/12/2014	04:02:12.350	$GPGGA,040212,2543.8837,N,08009.7285,W,1,10,1.8,14,M,,M,,*65
06/12/2014	04:02:13.389	$GPGGA,040213,2543.8837,N,08009.7285,W,1,10,1.8,14,M,,M,,*64
06/12/2014	04:02:14.388	$GPGGA,040214,2543.8837,N,08009.7285,W,1,10,1.8,14,M,,M,,*63
06/12/2014	04:02:15.448	$GPGGA,040215,2543.8837,N,08009.7287,W,1,10,1.8,14,M,,M,,*60
06/12/2014	04:02:16.457	$GPGGA,040216,2543.8837,N,08009.7286,W,1,10,1.8,14,M,,M,,*62
06/12/2014	04:02:17.476	$GPGGA,040217,2543.8837,N,08009.7287,W,1,10,1.8,14,M,,M,,*62
06/12/2014	04:02:18.505	$GPGGA,040218,2543.8837,N,08009.7286,W,1,10,1.8,14,M,,M,,*6C
06/12/2014	04:02:19.524	$GPGGA,040219,2543.8837,N,08009.7287,W,1,10,1.8,14,M,,M,,*6C
06/12/2014	04:02:20.574	$GPGGA,040220,2543.8837,N,08009.7286,W,1,10,1.8,14,M,,M,,*67
06/12/2014	04:02:21.727	$GPGGA,040221,2543.8837,N,08009.7287,W,1,10,1.8,14,M,,M,,*67
06/12/2014	04:02:22.613	$GPGGA,040222,2543.8837,N,08009.7286,W,1,10,1.8,14,M,,M,,*65
06/12/2014	04:02:23.625	$GPGGA,040223,2543.8837,N,08009.7287,W,1,10,1.8,14,M,,M,,*65
06/12/2014	04:02:24.692	$GPGGA,040224,2543.8837,N,08009.7286,W,1,10,1.8,14,M,,M,,*63
06/12/2014	04:02:25.683	$GPGGA,040225,2543.8837,N,08009.7287,W,1,10,1.8,14,M,,M,,*63
06/12/2014	04:02:26.730	$GPGGA,040226,2543.8837,N,08009.7286,W,1,10,1.8,14,M,,M,,*61
06/12/2014	04:02:27.873	$GPGGA,040227,2543.8837,N,08009.7287,W,1,10,1.8,14,M,,M,,*61
06/12/2014	04:02:28.790	$GPGGA,040228,2543.8837,N,08009.7287,W,1,10,1.8,14,M,,M,,*6E
06/12/2014	04:02:29.829	$GPGGA,040229,2543.8837,N,08009.7286,W,1,10,1.8,14,M,,M,,*6E
06/12/2014	04:02:30.826	$GPGGA,040230,2543.8837,N,08009.7287,W,1,10,1.8,14,M,,M,,*67
06/12/2014	04:02:31.989	$GPGGA,040231,2543.8837,N,08009.7286,W,1,10,1.8,14,M,,M,,*67
06/12/2014	04:02:32.905	$GPGGA,040232,2543.8837,N,08009.7287,W,1,10,1.8,14,M,,M,,*65
06/12/2014	04:02:34.039	$GPGGA,040233,2543.8837,N,08009.7286,W,1,10,1.8,14,M,,M,,*65
06/12/2014	04:02:34.949	$GPGGA,040234,2543.8837,N,08009.7287,W,1,10,1.8,14,M,,M,,*63
06/12/2014	04:02:36.055	$GPGGA,040235,2543.8837,N,08009.7286,W,1,10,1.8,14,M,,M,,*63
06/12/2014	04:02:37.013	$GPGGA,040236,2543.8837,N,08009.7287,W,1,10,1.8,14,M,,M,,*61
06/12/2014	04:02:38.136	$GPGGA,040237,2543.8837,N,08009.7286,W,1,10,1.8,14,M,,M,,*61
06/12/2014	04:02:39.051	$GPGGA,040238,2543.8837,N,08009.7287,W,1,10,1.8,14,M,,M,,*6F
06/12/2014	04:02:40.214	$GPGGA,040239,2543.8837,N,08009.7286,W,1,10,1.8,14,M,,M,,*6F
06/12/2014	04:02:41.213	$GPGGA,040240,2543.8837,N,08009.7287,W,1,10,1.8,14,M,,M,,*60
06/12/2014	04:02:42.273	$GPGGA,040241,2543.8837,N,08009.7286,W,1,10,1.8,14,M,,M,,*60
06/12/2014	04:02:43.252	$GPGGA,040242,2543.8837,N,08009.7287,W,1,10,1.8,14,M,,M,,*62
06/12/2014	04:02:44.311	$GPGGA,040243,2543.8837,N,08009.7286,W,1,10,1.8,14,M,,M,,*62
06/12/2014	04:02:45.330	$GPGGA,040244,2543.8837,N,08009.7287,W,1,10,1.8,14,M,,M,,*64
06/12/2014	04:02:46.339	$GPGGA,040245,2543.8837,N,08009.7286,W,1,10,1.8,14,M,,M,,*64
06/12/2014	04:02:45.606	$GPGGA,040246,2543.8837,N,08009.7287,W,1,10,1.8,14,M,,M,,*66
06/12/2014	04:02:46.668	$GPGGA,040247,2543.8837,N,08009.7286,W,1,10,1.8,14,M,,M,,*66
06/12/2014	04:02:47.684	$GPGGA,040248,2543.8837,N,08009.7287,W,1,10,1.8,14,M,,M,,*68
06/12/2014	04:02:48.693	$GPGGA,040249,2543.8837,N,08009.7286,W,1,10,1.8,14,M,,M,,*68
06/12/2014	04:02:49.722	$GPGGA,040250,2543.8837,N,08009.7287,W,1,10,1.8,14,M,,M,,*61
06/12/2014	04:02:50.762	$GPGGA,040251,2543.8837,N,08009.7286,W,1,10,1.8,14,M,,M,,*61
06/12/2014	04:02:51.781	$GPGGA,040252,2543.8835,N,08009.7287,W,1,10,1.8,14,M,,M,,*61
06/12/2014	04:02:52.831	$GPGGA,040253,2543.8836,N,08009.7286,W,1,10,1.8,14,M,,M,,*62
06/12/2014	04:02:53.829	$GPGGA,040254,2543.8835,N,08009.7287,W,1,10,1.8,14,M,,M,,*67
06/12/2014	04:02:54.838	$GPGGA,040255,2543.8836,N,08009.7287,W,1,10,1.8,15,M,,M,,*64
06/12/2014	04:02:55.888	$GPGGA,040256,2543.8835,N,08009.7287,W,1,10,1.8,15,M,,M,,*64
06/12/2014	04:02:56.928	$GPGGA,040257,2543.8836,N,08009.7287,W,1,10,1.8,15,M,,M,,*66
06/12/2014	04:02:57.937	$GPGGA,040258,2543.8835,N,08009.7287,W,1,10,1.8,15,M,,M,,*6A
06/12/2014	04:02:58.976	$GPGGA,040259,2543.8836,N,08009.7287,W,1,10,1.8,15,M,,M,,*68
06/12/2014	04:02:59.996	$GPGGA,040300,2543.8835,N,08009.7287,W,1,10,1.8,15,M,,M,,*66
06/12/2014	04:03:01.056	$GPGGA,040301,2543.8836,N,08009.7288,W,1,10,1.8,15,M,,M,,*6B
06/12/2014	04:03:02.044	$GPGGA,040302,2543.8835,N,08009.7288,W,1,10,1.8,15,M,,M,,*6B
06/12/2014	04:03:03.064	$GPGGA,040303,2543.8836,N,08009.7288,W,1,10,1.8,15,M,,M,,*69
06/12/2014	04:03:04.113	$GPGGA,040304,2543.8835,N,08009.7288,W,1,10,1.8,15,M,,M,,*6D
06/12/2014	04:03:05.142	$GPGGA,040305,2543.8836,N,08009.7288,W,1,10,1.8,15,M,,M,,*6F
06/12/2014	04:03:06.161	$GPGGA,040306,2543.8835,N,08009.7288,W,1,10,1.8,15,M,,M,,*6F
06/12/2014	04:03:07.180	$GPGGA,040307,2543.8836,N,08009.7288,W,1,10,1.8,15,M,,M,,*6D
06/12/2014	04:03:08.219	$GPGGA,040308,2543.8835,N,08009.7288,W,1,10,1.8,15,M,,M,,*61
06/12/2014	04:03:09.223	$GPGGA,040309,2543.8836,N,08009.7288,W,1,10,1.8,15,M,,M,,*63
06/12/2014	04:03:10.258	$GPGGA,040310,2543.8837,N,08009.7288,W,1,10,1.8,15,M,,M,,*6A
06/12/2014	04:03:11.328	$GPGGA,040311,2543.8837,N,08009.7288,W,1,10,1.8,15,M,,M,,*6B
06/12/2014	04:03:12.337	$GPGGA,040312,2543.8837,N,08009.7288,W,1,10,1.8,15,M,,M,,*68
06/12/2014	04:03:13.346	$GPGGA,040313,2543.8837,N,08009.7288,W,1,10,1.8,14,M,,M,,*68
06/12/2014	04:03:14.375	$GPGGA,040314,2543.8837,N,08009.7290,W,1,10,1.8,14,M,,M,,*66
06/12/2014	04:03:15.395	$GPGGA,040315,2543.8837,N,08009.7289,W,1,10,1.8,14,M,,M,,*6F
06/12/2014	04:03:16.455	$GPGGA,040316,2543.8837,N,08009.7290,W,1,10,1.8,14,M,,M,,*64
06/12/2014	04:03:17.484	$GPGGA,040317,2543.8837,N,08009.7290,W,1,10,1.8,14,M,,M,,*65
06/12/2014	04:03:18.576	$GPGGA,040318,2543.8837,N,08009.7290,W,1,10,1.8,14,M,,M,,*6A
06/12/2014	04:03:19.491	$GPGGA,040319,2543.8837,N,08009.7290,W,1,10,1.8,14,M,,M,,*6B
06/12/2014	04:03:20.552	$GPGGA,040320,2543.8837,N,08009.7291,W,1,10,1.8,14,M,,M,,*60
06/12/2014	04:03:21.550	$GPGGA,040321,2543.8837,N,08009.7291,W,1,10,1.8,14,M,,M,,*61
06/12/2014	04:03:22.583	$GPGGA,040322,2543.8839,N,08009.7291,W,1,10,1.8,14,M,,M,,*6C
06/12/2014	04:03:23.630	$GPGGA,040323,2543.8838,N,08009.7291,W,1,10,1.8,14,M,,M,,*6C
06/12/2014	04:03:24.771	$GPGGA,040324,2543.8839,N,08009.7291,W,1,10,1.8,14,M,,M,,*6A
06/12/2014	04:03:25.781	$GPGGA,040325,2543.8838,N,08009.7291,W,1,10,1.8,14,M,,M,,*6A
06/12/2014	04:03:26.706	$GPGGA,040326,2543.8840,N,08009.7292,W,1,10,1.8,14,M,,M,,*65
06/12/2014	04:03:27.734	$GPGGA,040327,2543.8839,N,08009.7292,W,1,10,1.8,14,M,,M,,*6A
06/12/2014	04:03:28.858	$GPGGA,040328,2543.8840,N,08009.7292,W,1,10,1.8,14,M,,M,,*6B
06/12/2014	04:03:29.795	$GPGGA,040329,2543.8840,N,08009.7292,W,1,10,1.8,14,M,,M,,*6A
06/12/2014	04:03:30.896	$GPGGA,040330,2543.8840,N,08009.7294,W,1,10,1.8,14,M,,M,,*64
06/12/2014	04:03:31.925	$GPGGA,040331,2543.8842,N,08009.7293,W,1,10,1.8,14,M,,M,,*60
06/12/2014	04:03:32.980	$GPGGA,040332,2543.8841,N,08009.7292,W,1,10,1.8,14,M,,M,,*61
06/12/2014	04:03:33.984	$GPGGA,040333,2543.8842,N,08009.7292,W,1,10,1.8,14,M,,M,,*63
06/12/2014	04:03:35.014	$GPGGA,040334,2543.8841,N,08009.7292,W,1,10,1.8,14,M,,M,,*67
06/12/2014	04:03:36.033	$GPGGA,040335,2543.8842,N,08009.7292,W,1,10,1.8,14,M,,M,,*65
06/12/2014	04:03:37.084	$GPGGA,040336,2543.8841,N,08009.7292,W,1,10,1.8,14,M,,M,,*65
06/12/2014	04:03:38.092	$GPGGA,040337,2543.8843,N,08009.7292,W,1,10,1.8,14,M,,M,,*66
06/12/2014	04:03:39.131	$GPGGA,040338,2543.8842,N,08009.7292,W,1,10,1.8,14,M,,M,,*68
06/12/2014	04:03:40.171	$GPGGA,040339,2543.8843,N,08009.7292,W,1,10,1.8,14,M,,M,,*68
06/12/2014	04:03:41.189	$GPGGA,040340,2543.8841,N,08009.7291,W,1,10,1.8,14,M,,M,,*67
06/12/2014	04:03:42.208	$GPGGA,040341,2543.8842,N,08009.7291,W,1,10,1.8,14,M,,M,,*65
06/12/2014	04:03:43.227	$GPGGA,040342,2543.8841,N,08009.7291,W,1,10,1.8,13,M,,M,,*62
06/12/2014	04:03:44.267	$GPGGA,040343,2543.8842,N,08009.7291,W,1,10,1.8,13,M,,M,,*60
06/12/2014	04:03:45.307	$GPGGA,040344,2543.8841,N,08009.7291,W,1,10,1.8,13,M,,M,,*64
06/12/2014	04:03:46.326	$GPGGA,040345,2543.8840,N,08009.7291,W,1,10,1.8,13,M,,M,,*64
06/12/2014	04:03:45.583	$GPGGA,040346,2543.8840,N,08009.7291,W,1,10,1.8,13,M,,M,,*67
06/12/2014	04:03:46.623	$GPGGA,040347,2543.8840,N,08009.7291,W,1,10,1.8,13,M,,M,,*66
06/12/2014	04:03:47.652	$GPGGA,040348,2543.8840,N,08009.7291,W,1,10,1.8,13,M,,M,,*69
06/12/2014	04:03:48.692	$GPGGA,040349,2543.8840,N,08009.7291,W,1,10,1.8,13,M,,M,,*68
06/12/2014	04:03:49.680	$GPGGA,040350,2543.8839,N,08009.7291,W,1,10,1.8,13,M,,M,,*6E
06/12/2014	04:03:50.752	$GPGGA,040351,2543.8840,N,08009.7291,W,1,10,1.8,13,M,,M,,*61
06/12/2014	04:03:51.749	$GPGGA,040352,2543.8839,N,08009.7290,W,1,10,1.8,13,M,,M,,*6D
06/12/2014	04:03:52.799	$GPGGA,040353,2543.8840,N,08009.7290,W,1,10,1.8,13,M,,M,,*62
06/12/2014	04:03:53.798	$GPGGA,040354,2543.8839,N,08009.7290,W,1,10,1.8,13,M,,M,,*6B
06/12/2014	04:03:54.827	$GPGGA,040355,2543.8840,N,08009.7290,W,1,10,1.8,13,M,,M,,*64
06/12/2014	04:03:55.877	$GPGGA,040356,2543.8838,N,08009.7289,W,1,10,1.8,13,M,,M,,*60
06/12/2014	04:03:56.906	$GPGGA,040357,2543.8839,N,08009.7290,W,1,10,1.8,13,M,,M,,*68
06/12/2014	04:03:57.904	$GPGGA,040358,2543.8838,N,08009.7289,W,1,10,1.8,12,M,,M,,*6F
06/12/2014	04:03:58.954	$GPGGA,040359,2543.8839,N,08009.7290,W,1,10,1.8,12,M,,M,,*67
06/12/2014	04:03:59.973	$GPGGA,040400,2543.8838,N,08009.7289,W,1,10,1.8,12,M,,M,,*65
06/12/2014	04:04:00.982	$GPGGA,040401,2543.8839,N,08009.7288,W,1,10,1.8,12,M,,M,,*64
06/12/2014	04:04:02.021	$GPGGA,040402,2543.8837,N,08009.7288,W,1,10,1.8,12,M,,M,,*69
06/12/2014	04:04:03.071	$GPGGA,040403,2543.8837,N,08009.7288,W,1,10,1.8,12,M,,M,,*68
06/12/2014	04:04:04.087	$GPGGA,040404,2543.8837,N,08009.7288,W,1,10,1.8,12,M,,M,,*6F
06/12/2014	04:04:05.108	$GPGGA,040405,2543.8837,N,08009.7288,W,1,10,1.8,12,M,,M,,*6E
06/12/2014	04:04:06.123	$GPGGA,040406,2543.8837,N,08009.7288,W,1,10,1.8,12,M,,M,,*6D
06/12/2014	04:04:07.282	$GPGGA,040407,2543.8837,N,08009.7290,W,1,10,1.8,12,M,,M,,*65
06/12/2014	04:04:08.191	$GPGGA,040408,2543.8839,N,08009.7288,W,1,10,1.8,12,M,,M,,*6D
06/12/2014	04:04:09.351	$GPGGA,040409,2543.8838,N,08009.7288,W,1,10,1.8,12,M,,M,,*6D
06/12/2014	04:04:10.247	$GPGGA,040410,2543.8839,N,08009.7288,W,1,10,1.8,12,M,,M,,*64
06/12/2014	04:04:11.399	$GPGGA,040411,2543.8838,N,08009.7288,W,1,10,1.8,12,M,,M,,*64
06/12/2014	04:04:12.298	$GPGGA,040412,2543.8837,N,08009.7288,W,1,10,1.8,12,M,,M,,*68
06/12/2014	04:04:13.336	$GPGGA,040413,2543.8839,N,08009.7288,W,1,10,1.8,12,M,,M,,*67
06/12/2014	04:04:14.437	$GPGGA,040414,2543.8838,N,08009.7288,W,1,10,1.8,12,M,,M,,*61
06/12/2014	04:04:15.361	$GPGGA,040415,2543.8839,N,08009.7288,W,1,10,1.8,12,M,,M,,*61
06/12/2014	04:04:16.418	$GPGGA,040416,2543.8837,N,08009.7288,W,1,10,1.8,12,M,,M,,*6C
06/12/2014	04:04:17.420	$GPGGA,040417,2543.8837,N,08009.7288,W,1,10,1.8,12,M,,M,,*6D
06/12/2014	04:04:18.542	$GPGGA,040418,2543.8839,N,08009.7288,W,1,10,1.8,12,M,,M,,*6C
06/12/2014	04:04:19.623	$GPGGA,040419,2543.8838,N,08009.7288,W,1,10,1.8,12,M,,M,,*6C
06/12/2014	04:04:20.622	$GPGGA,040420,2543.8837,N,08009.7288,W,1,10,1.8,12,M,,M,,*69
06/12/2014	04:04:21.630	$GPGGA,040421,2543.8837,N,08009.7288,W,1,10,1.8,12,M,,M,,*68
06/12/2014	04:04:22.670	$GPGGA,040422,2543.8837,N,08009.7290,W,1,10,1.8,11,M,,M,,*61
06/12/2014	04:04:23.710	$GPGGA,040423,2543.8837,N,08009.7289,W,1,10,1.8,11,M,,M,,*68
06/12/2014	04:04:24.729	$GPGGA,040424,2543.8837,N,08009.7290,W,1,10,1.8,11,M,,M,,*67
06/12/2014	04:04:25.758	$GPGGA,040425,2543.8837,N,08009.7289,W,1,10,1.8,11,M,,M,,*6E
06/12/2014	04:04:26.777	$GPGGA,040426,2543.8837,N,08009.7290,W,1,10,1.8,11,M,,M,,*65
06/12/2014	04:04:27.797	$GPGGA,040427,2543.8837,N,08009.7289,W,1,10,1.8,11,M,,M,,*6C
06/12/2014	04:04:28.847	$GPGGA,040428,2543.8837,N,08009.7290,W,1,10,1.8,11,M,,M,,*6B
06/12/2014	04:04:29.845	$GPGGA,040429,2543.8837,N,08009.7289,W,1,10,1.8,11,M,,M,,*62
06/12/2014	04:04:30.885	$GPGGA,040430,2543.8837,N,08009.7290,W,1,10,1.8,11,M,,M,,*62
06/12/2014	04:04:31.924	$GPGGA,040431,2543.8837,N,08009.7290,W,1,10,1.8,11,M,,M,,*63
06/12/2014	04:04:32.954	$GPGGA,040432,2543.8837,N,08009.7290,W,1,10,1.8,11,M,,M,,*60
06/12/2014	04:04:33.951	$GPGGA,040433,2543.8837,N,08009.7290,W,1,10,1.8,11,M,,M,,*61
06/12/2014	04:04:35.001	$GPGGA,040434,2543.8835,N,08009.7290,W,1,10,1.8,11,M,,M,,*64
06/12/2014	04:04:36.052	$GPGGA,040435,2543.8837,N,08009.7290,W,1,10,1.8,11,M,,M,,*67
06/12/2014	04:04:37.050	$GPGGA,040436,2543.8835,N,08009.7290,W,1,10,1.8,11,M,,M,,*66
06/12/2014	04:04:38.090	$GPGGA,040437,2543.8837,N,08009.7290,W,1,10,1.8,11,M,,M,,*65
06/12/2014	04:04:39.098	$GPGGA,040438,2543.8837,N,08009.7291,W,1,10,1.8,11,M,,M,,*6B
06/12/2014	04:04:40.148	$GPGGA,040439,2543.8837,N,08009.7290,W,1,10,1.8,11,M,,M,,*6B
06/12/2014	04:04:41.167	$GPGGA,040440,2543.8837,N,08009.7291,W,1,10,1.8,11,M,,M,,*64
06/12/2014	04:04:42.166	$GPGGA,040441,2543.8837,N,08009.7291,W,1,10,1.8,11,M,,M,,*65
06/12/2014	04:04:43.195	$GPGGA,040442,2543.8837,N,08009.7291,W,1,10,1.8,11,M,,M,,*66
06/12/2014	04:04:44.276	$GPGGA,040443,2543.8837,N,08009.7290,W,1,10,1.8,11,M,,M,,*66
06/12/2014	04:04:45.275	$GPGGA,040444,2543.8837,N,08009.7291,W,1,10,1.8,11,M,,M,,*60
06/12/2014	04:04:46.284	$GPGGA,040445,2543.8837,N,08009.7291,W,1,10,1.8,11,M,,M,,*61
06/12/2014	04:04:45.561	$GPGGA,040446,2543.8837,N,08009.7291,W,1,10,1.8,11,M,,M,,*62
06/12/2014	04:04:46.705	$GPGGA,040447,2543.8837,N,08009.7292,W,1,10,1.8,11,M,,M,,*60
06/12/2014	04:04:47.610	$GPGGA,040448,2543.8837,N,08009.7292,W,1,10,1.8,11,M,,M,,*6F
06/12/2014	04:04:48.631	$GPGGA,040449,2543.8837,N,08009.7292,W,1,10,1.8,11,M,,M,,*6E
06/12/2014	04:04:49.660	$GPGGA,040450,2543.8837,N,08009.7292,W,1,10,1.8,11,M,,M,,*66
06/12/2014	04:04:50.820	$GPGGA,040451,2543.8837,N,08009.7292,W,1,10,1.8,11,M,,M,,*67
06/12/2014	04:04:51.737	$GPGGA,040452,2543.8837,N,08009.7294,W,1,10,1.8,11,M,,M,,*62
06/12/2014	04:04:52.752	$GPGGA,040453,2543.8837,N,08009.7293,W,1,10,1.8,11,M,,M,,*64
06/12/2014	04:04:53.777	$GPGGA,040454,2543.8835,N,08009.7294,W,1,10,1.8,11,M,,M,,*66
06/12/2014	04:04:54.794	$GPGGA,040455,2543.8836,N,08009.7293,W,1,10,1.8,11,M,,M,,*63
06/12/2014	04:04:55.840	$GPGGA,040456,2543.8835,N,08009.7294,W,1,10,1.8,11,M,,M,,*64
06/12/2014	04:04:56.868	$GPGGA,040457,2543.8836,N,08009.7293,W,1,10,1.8,11,M,,M,,*61
06/12/2014	04:04:57.872	$GPGGA,040458,2543.8834,N,08009.7294,W,1,10,1.8,11,M,,M,,*6B
06/12/2014	04:04:58.912	$GPGGA,040459,2543.8835,N,08009.7293,W,1,10,1.8,11,M,,M,,*6C
06/12/2014	04:04:59.962	$GPGGA,040500,2543.8834,N,08009.7294,W,1,10,1.8,11,M,,M,,*67
06/12/2014	04:05:00.975	$GPGGA,040501,2543.8835,N,08009.7294,W,1,10,1.8,11,M,,M,,*67
06/12/2014	04:05:02.074	$GPGGA,040502,2543.8834,N,08009.7294,W,1,10,1.8,11,M,,M,,*65
06/12/2014	04:05:02.996	$GPGGA,040503,2543.8835,N,08009.7294,W,1,10,1.8,11,M,,M,,*65
06/12/2014	04:05:04.011	$GPGGA,040504,2543.8834,N,08009.7294,W,1,10,1.8,11,M,,M,,*63
06/12/2014	04:05:05.110	$GPGGA,040505,2543.8835,N,08009.7295,W,1,10,1.8,11,M,,M,,*62
06/12/2014	04:05:06.010	$GPGGA,040506,2543.8834,N,08009.7294,W,1,10,1.8,11,M,,M,,*61
06/12/2014	04:05:07.133	$GPGGA,040507,2543.8835,N,08009.7294,W,1,10,1.8,11,M,,M,,*61
06/12/2014	04:05:08.145	$GPGGA,040508,2543.8834,N,08009.7295,W,1,10,1.8,11,M,,M,,*6E
06/12/2014	04:05:09.157	$GPGGA,040509,2543.8835,N,08009.7295,W,1,10,1.8,11,M,,M,,*6E
06/12/2014	04:05:10.159	$GPGGA,040510,2543.8834,N,08009.7295,W,1,10,1.8,11,M,,M,,*67
06/12/2014	04:05:11.161	$GPGGA,040511,2543.8835,N,08009.7295,W,1,10,1.8,11,M,,M,,*67
06/12/2014	04:05:12.183	$GPGGA,040512,2543.8834,N,08009.7295,W,1,10,1.8,11,M,,M,,*65
06/12/2014	04:05:13.217	$GPGGA,040513,2543.8836,N,08009.7295,W,1,10,1.8,11,M,,M,,*66
06/12/2014	04:05:14.187	$GPGGA,040514,2543.8834,N,08009.7295,W,1,10,1.8,11,M,,M,,*63
06/12/2014	04:05:15.209	$GPGGA,040515,2543.8835,N,08009.7295,W,1,10,1.8,11,M,,M,,*63
06/12/2014	04:05:16.232	$GPGGA,040516,2543.8834,N,08009.7295,W,1,10,1.8,11,M,,M,,*61
06/12/2014	04:05:17.234	$GPGGA,040517,2543.8835,N,08009.7295,W,1,10,1.8,11,M,,M,,*61
06/12/2014	04:05:18.247	$GPGGA,040518,2543.8836,N,08009.7295,W,1,10,1.8,11,M,,M,,*6D
06/12/2014	04:05:19.238	$GPGGA,040519,2543.8835,N,08009.7295,W,1,10,1.8,11,M,,M,,*6F
06/12/2014	04:05:20.270	$GPGGA,040520,2543.8836,N,08009.7295,W,1,10,1.8,11,M,,M,,*66
06/12/2014	04:05:21.262	$GPGGA,040521,2543.8835,N,08009.7294,W,1,10,1.8,11,M,,M,,*65
06/12/2014	04:05:22.275	$GPGGA,040522,2543.8836,N,08009.7294,W,1,10,1.8,11,M,,M,,*65
06/12/2014	04:05:23.327	$GPGGA,040523,2543.8835,N,08009.7294,W,1,10,1.8,11,M,,M,,*67
06/12/2014	04:05:24.309	$GPGGA,040524,2543.8836,N,08009.7294,W,1,10,1.8,11,M,,M,,*63
06/12/2014	04:05:25.330	$GPGGA,040525,2543.8835,N,08009.7294,W,1,10,1.8,11,M,,M,,*61
06/12/2014	04:05:26.322	$GPGGA,040526,2543.8836,N,08009.7293,W,1,10,1.8,11,M,,M,,*66
06/12/2014	04:05:27.355	$GPGGA,040527,2543.8834,N,08009.7294,W,1,10,1.8,11,M,,M,,*62
06/12/2014	04:05:28.357	$GPGGA,040528,2543.8835,N,08009.7293,W,1,10,1.8,11,M,,M,,*6B
06/12/2014	04:05:29.369	$GPGGA,040529,2543.8834,N,08009.7294,W,1,10,1.8,11,M,,M,,*6C
06/12/2014	04:05:30.381	$GPGGA,040530,2543.8835,N,08009.7293,W,1,10,1.8,11,M,,M,,*62
06/12/2014	04:05:31.404	$GPGGA,040531,2543.8834,N,08009.7294,W,1,10,1.8,11,M,,M,,*65
06/12/2014	04:05:32.396	$GPGGA,040532,2543.8835,N,08009.7292,W,1,10,1.8,11,M,,M,,*61
06/12/2014	04:05:33.438	$GPGGA,040533,2543.8834,N,08009.7292,W,1,10,1.8,11,M,,M,,*61
06/12/2014	04:05:34.390	$GPGGA,040534,2543.8836,N,08009.7292,W,1,10,1.8,11,M,,M,,*64
06/12/2014	04:05:35.432	$GPGGA,040535,2543.8835,N,08009.7292,W,1,10,1.8,11,M,,M,,*66
06/12/2014	04:05:36.424	$GPGGA,040536,2543.8836,N,08009.7292,W,1,10,1.8,11,M,,M,,*66
06/12/2014	04:05:37.457	$GPGGA,040537,2543.8834,N,08009.7292,W,1,10,1.8,11,M,,M,,*65
06/12/2014	04:05:38.443	$GPGGA,040538,2543.8836,N,08009.7292,W,1,10,1.8,11,M,,M,,*68
06/12/2014	04:05:39.471	$GPGGA,040539,2543.8835,N,08009.7291,W,1,10,1.8,11,M,,M,,*69
06/12/2014	04:05:40.473	$GPGGA,040540,2543.8836,N,08009.7291,W,1,10,1.8,11,M,,M,,*64
06/12/2014	04:05:41.457	$GPGGA,040541,2543.8835,N,08009.7291,W,1,10,1.8,11,M,,M,,*66
06/12/2014	04:05:42.473	$GPGGA,040542,2543.8836,N,08009.7291,W,1,10,1.8,11,M,,M,,*66
06/12/2014	04:05:43.519	$GPGGA,040543,2543.8835,N,08009.7291,W,1,10,1.8,11,M,,M,,*64
06/12/2014	04:05:44.602	$GPGGA,040544,2543.8836,N,08009.7291,W,1,10,1.8,11,M,,M,,*60
06/12/2014	04:05:45.517	$GPGGA,040545,2543.8835,N,08009.7291,W,1,10,1.8,11,M,,M,,*62
06/12/2014	04:05:45.638	$GPGGA,040546,2543.8836,N,08009.7291,W,1,10,1.8,11,M,,M,,*62
06/12/2014	04:05:46.535	$GPGGA,040547,2543.8835,N,08009.7291,W,1,10,1.8,12,M,,M,,*63
06/12/2014	04:05:47.591	$GPGGA,040548,2543.8836,N,08009.7291,W,1,10,1.8,12,M,,M,,*6F
06/12/2014	04:05:48.573	$GPGGA,040549,2543.8835,N,08009.7291,W,1,10,1.8,12,M,,M,,*6D
06/12/2014	04:05:49.580	$GPGGA,040550,2543.8836,N,08009.7291,W,1,10,1.8,12,M,,M,,*66
06/12/2014	04:05:50.679	$GPGGA,040551,2543.8835,N,08009.7291,W,1,10,1.8,12,M,,M,,*64
06/12/2014	04:05:51.691	$GPGGA,040552,2543.8836,N,08009.7291,W,1,10,1.8,12,M,,M,,*64
06/12/2014	04:05:52.693	$GPGGA,040553,2543.8835,N,08009.7290,W,1,10,1.8,12,M,,M,,*67
06/12/2014	04:05:53.705	$GPGGA,040554,2543.8836,N,08009.7290,W,1,10,1.8,12,M,,M,,*63
06/12/2014	04:05:54.707	$GPGGA,040555,2543.8835,N,08009.7290,W,1,10,1.8,12,M,,M,,*61
06/12/2014	04:05:55.740	$GPGGA,040556,2543.8836,N,08009.7290,W,1,10,1.8,12,M,,M,,*61
06/12/2014	04:05:56.743	$GPGGA,040557,2543.8835,N,08009.7290,W,1,10,1.8,12,M,,M,,*63
06/12/2014	04:05:57.734	$GPGGA,040558,2543.8836,N,08009.7290,W,1,10,1.8,12,M,,M,,*6F
06/12/2014	04:05:58.770	$GPGGA,040559,2543.8835,N,08009.7291,W,1,10,1.8,12,M,,M,,*6C
06/12/2014	04:05:59.777	$GPGGA,040600,2543.8836,N,08009.7291,W,1,10,1.8,12,M,,M,,*60
06/12/2014	04:06:00.789	$GPGGA,040601,2543.8834,N,08009.7291,W,1,10,1.8,12,M,,M,,*63
06/12/2014	04:06:01.781	$GPGGA,040602,2543.8835,N,08009.7291,W,1,10,1.8,12,M,,M,,*61
06/12/2014	04:06:02.783	$GPGGA,040603,2543.8834,N,08009.7291,W,1,10,1.8,12,M,,M,,*61
06/12/2014	04:06:03.816	$GPGGA,040604,2543.8835,N,08009.7291,W,1,10,1.8,12,M,,M,,*67
06/12/2014	04:06:04.798	$GPGGA,040605,2543.8834,N,08009.7291,W,1,10,1.8,12,M,,M,,*67
06/12/2014	04:06:05.810	$GPGGA,040606,2543.8835,N,08009.7292,W,1,10,1.8,12,M,,M,,*66
06/12/2014	04:06:06.842	$GPGGA,040607,2543.8834,N,08009.7292,W,1,10,1.8,12,M,,M,,*66
06/12/2014	04:06:07.865	$GPGGA,040608,2543.8835,N,08009.7292,W,1,10,1.8,12,M,,M,,*68
06/12/2014	04:06:08.877	$GPGGA,040609,2543.8833,N,08009.7292,W,1,10,1.8,12,M,,M,,*6F
06/12/2014	04:06:09.859	$GPGGA,040610,2543.8833,N,08009.7292,W,1,10,1.8,12,M,,M,,*67
06/12/2014	04:06:10.911	$GPGGA,040611,2543.8833,N,08009.7291,W,1,10,1.8,12,M,,M,,*65
06/12/2014	04:06:11.893	$GPGGA,040612,2543.8833,N,08009.7291,W,1,10,1.8,12,M,,M,,*66
06/12/2014	04:06:12.885	$GPGGA,040613,2543.8833,N,08009.7291,W,1,10,1.8,12,M,,M,,*67
06/12/2014	04:06:13.908	$GPGGA,040614,2543.8833,N,08009.7291,W,1,10,1.8,12,M,,M,,*60
06/12/2014	04:06:14.930	$GPGGA,040615,2543.8833,N,08009.7291,W,1,10,1.8,13,M,,M,,*60
06/12/2014	04:06:15.932	$GPGGA,040616,2543.8833,N,08009.7291,W,1,10,1.8,13,M,,M,,*63
06/12/2014	04:06:16.964	$GPGGA,040617,2543.8833,N,08009.7291,W,1,10,1.8,13,M,,M,,*62
06/12/2014	04:06:17.955	$GPGGA,040618,2543.8833,N,08009.7291,W,1,10,1.8,13,M,,M,,*6D
06/12/2014	04:06:18.947	$GPGGA,040619,2543.8833,N,08009.7291,W,1,10,1.8,13,M,,M,,*6C
06/12/2014	04:06:19.980	$GPGGA,040620,2543.8833,N,08009.7291,W,1,10,1.8,13,M,,M,,*66
06/12/2014	04:06:20.982	$GPGGA,040621,2543.8833,N,08009.7291,W,1,10,1.8,13,M,,M,,*67
06/12/2014	04:06:21.984	$GPGGA,040622,2543.8833,N,08009.7291,W,1,10,1.8,13,M,,M,,*64
06/12/2014	04:06:22.996	$GPGGA,040623,2543.8833,N,08009.7291,W,1,10,1.8,13,M,,M,,*65
06/12/2014	04:06:24.028	$GPGGA,040624,2543.8833,N,08009.7291,W,1,10,1.8,13,M,,M,,*62
06/12/2014	04:06:25.142	$GPGGA,040625,2543.8833,N,08009.7291,W,1,10,1.8,13,M,,M,,*63
06/12/2014	04:06:26.043	$GPGGA,040626,2543.8833,N,08009.7291,W,1,10,1.8,13,M,,M,,*60
06/12/2014	04:06:27.031	$GPGGA,040627,2543.8833,N,08009.7291,W,1,10,1.8,13,M,,M,,*61
06/12/2014	04:06:28.168	$GPGGA,040628,2543.8833,N,08009.7291,W,1,10,1.8,13,M,,M,,*6E
06/12/2014	04:06:29.165	$GPGGA,040629,2543.8833,N,08009.7292,W,1,10,1.8,13,M,,M,,*6C
06/12/2014	04:06:30.156	$GPGGA,040630,2543.8833,N,08009.7292,W,1,10,1.8,13,M,,M,,*64
06/12/2014	04:06:31.090	$GPGGA,040631,2543.8833,N,08009.7292,W,1,10,1.8,13,M,,M,,*65
06/12/2014	04:06:32.115	$GPGGA,040632,2543.8833,N,08009.7291,W,1,10,1.8,13,M,,M,,*65
06/12/2014	04:06:33.190	$GPGGA,040633,2543.8833,N,08009.7292,W,1,10,1.8,13,M,,M,,*67
06/12/2014	04:06:34.094	$GPGGA,040634,2543.8833,N,08009.7292,W,1,10,1.8,13,M,,M,,*60
06/12/2014	04:06:35.101	$GPGGA,040635,2543.8833,N,08009.7292,W,1,10,1.8,13,M,,M,,*61
06/12/2014	04:06:36.255	$GPGGA,040636,2543.8833,N,08009.7292,W,1,10,1.8,13,M,,M,,*62
06/12/2014	04:06:37.151	$GPGGA,040637,2543.8833,N,08009.7292,W,1,10,1.8,13,M,,M,,*63
06/12/2014	04:06:38.138	$GPGGA,040638,2543.8831,N,08009.7291,W,1,10,1.8,13,M,,M,,*6D
06/12/2014	04:06:39.150	$GPGGA,040639,2543.8833,N,08009.7291,W,1,10,1.8,13,M,,M,,*6E
06/12/2014	04:06:40.162	$GPGGA,040640,2543.8831,N,08009.7291,W,1,10,1.8,13,M,,M,,*62
06/12/2014	04:06:41.265	$GPGGA,040641,2543.8833,N,08009.7291,W,1,10,1.8,13,M,,M,,*61
06/12/2014	04:06:42.176	$GPGGA,040642,2543.8833,N,08009.7291,W,1,10,1.8,13,M,,M,,*62
06/12/2014	04:06:43.290	$GPGGA,040643,2543.8833,N,08009.7292,W,1,10,1.8,13,M,,M,,*60
06/12/2014	04:06:44.312	$GPGGA,040644,2543.8833,N,08009.7292,W,1,10,1.8,13,M,,M,,*67
06/12/2014	04:06:45.223	$GPGGA,040645,2543.8833,N,08009.7292,W,1,10,1.8,13,M,,M,,*66
06/12/2014	04:06:45.596	$GPGGA,040646,2543.8833,N,08009.7294,W,1,10,1.8,13,M,,M,,*63
06/12/2014	04:06:46.619	$GPGGA,040647,2543.8833,N,08009.7293,W,1,10,1.8,14,M,,M,,*62
06/12/2014	04:06:47.621	$GPGGA,040648,2543.8833,N,08009.7294,W,1,10,1.8,14,M,,M,,*6A
06/12/2014	04:06:48.663	$GPGGA,040649,2543.8833,N,08009.7293,W,1,10,1.8,14,M,,M,,*6C
06/12/2014	04:06:49.635	$GPGGA,040650,2543.8833,N,08009.7294,W,1,10,1.8,14,M,,M,,*63
06/12/2014	04:06:50.647	$GPGGA,040651,2543.8833,N,08009.7294,W,1,10,1.8,14,M,,M,,*62
06/12/2014	04:06:51.669	$GPGGA,040652,2543.8833,N,08009.7294,W,1,10,1.8,14,M,,M,,*61
06/12/2014	04:06:52.671	$GPGGA,040653,2543.8833,N,08009.7294,W,1,10,1.8,14,M,,M,,*60
06/12/2014	04:06:53.673	$GPGGA,040654,2543.8833,N,08009.7295,W,1,10,1.8,14,M,,M,,*66
06/12/2014	04:06:54.695	$GPGGA,040655,2543.8833,N,08009.7295,W,1,10,1.8,14,M,,M,,*67
06/12/2014	04:06:55.717	$GPGGA,040656,2543.8833,N,08009.7295,W,1,10,1.8,14,M,,M,,*64
06/12/2014	04:06:56.719	$GPGGA,040657,2543.8835,N,08009.7295,W,1,10,1.8,14,M,,M,,*63
06/12/2014	04:06:57.711	$GPGGA,040658,2543.8834,N,08009.7296,W,1,10,1.8,14,M,,M,,*6E
06/12/2014	04:06:58.744	$GPGGA,040659,2543.8835,N,08009.7295,W,1,10,1.8,14,M,,M,,*6D
06/12/2014	04:06:59.756	$GPGGA,040700,2543.8834,N,08009.7295,W,1,10,1.8,14,M,,M,,*61
06/12/2014	04:07:00.778	$GPGGA,040701,2543.8835,N,08009.7296,W,1,10,1.8,14,M,,M,,*62
06/12/2014	04:07:01.750	$GPGGA,040702,2543.8834,N,08009.7296,W,1,10,1.8,14,M,,M,,*60
06/12/2014	04:07:02.782	$GPGGA,040703,2543.8835,N,08009.7296,W,1,10,1.8,14,M,,M,,*60
06/12/2014	04:07:03.795	$GPGGA,040704,2543.8836,N,08009.7298,W,1,10,1.8,14,M,,M,,*6A
06/12/2014	04:07:04.776	$GPGGA,040705,2543.8835,N,08009.7297,W,1,10,1.8,14,M,,M,,*67
06/12/2014	04:07:05.809	$GPGGA,040706,2543.8836,N,08009.7298,W,1,10,1.8,14,M,,M,,*68
06/12/2014	04:07:06.801	$GPGGA,040707,2543.8835,N,08009.7297,W,1,10,1.8,14,M,,M,,*65
06/12/2014	04:07:07.833	$GPGGA,040708,2543.8836,N,08009.7298,W,1,10,1.8,14,M,,M,,*66
06/12/2014	04:07:08.816	$GPGGA,040709,2543.8835,N,08009.7297,W,1,10,1.8,14,M,,M,,*6B
06/12/2014	04:07:09.836	$GPGGA,040710,2543.8836,N,08009.7298,W,1,10,1.8,14,M,,M,,*6F
06/12/2014	04:07:10.859	$GPGGA,040711,2543.8835,N,08009.7298,W,1,10,1.8,14,M,,M,,*6D
06/12/2014	04:07:11.891	$GPGGA,040712,2543.8837,N,08009.7298,W,1,10,1.8,14,M,,M,,*6C
06/12/2014	04:07:12.856	$GPGGA,040713,2543.8837,N,08009.7298,W,1,10,1.8,14,M,,M,,*6D
06/12/2014	04:07:13.885	$GPGGA,040714,2543.8837,N,08009.7297,W,1,10,1.8,14,M,,M,,*65
06/12/2014	04:07:14.908	$GPGGA,040715,2543.8837,N,08009.7298,W,1,10,1.8,14,M,,M,,*6B
06/12/2014	04:07:15.901	$GPGGA,040716,2543.8837,N,08009.7297,W,1,10,1.8,14,M,,M,,*67
06/12/2014	04:07:16.952	$GPGGA,040717,2543.8837,N,08009.7298,W,1,10,1.8,14,M,,M,,*69
06/12/2014	04:07:17.914	$GPGGA,040718,2543.8837,N,08009.7297,W,1,10,1.8,14,M,,M,,*69
06/12/2014	04:07:18.946	$GPGGA,040719,2543.8837,N,08009.7298,W,1,10,1.8,14,M,,M,,*67
06/12/2014	04:07:19.958	$GPGGA,040720,2543.8837,N,08009.7297,W,1,10,1.8,14,M,,M,,*62
06/12/2014	04:07:21.082	$GPGGA,040721,2543.8837,N,08009.7298,W,1,10,1.8,14,M,,M,,*6C
06/12/2014	04:07:21.973	$GPGGA,040722,2543.8837,N,08009.7297,W,1,10,1.8,14,M,,M,,*60
06/12/2014	04:07:22.987	$GPGGA,040723,2543.8837,N,08009.7298,W,1,10,1.8,14,M,,M,,*6E
06/12/2014	04:07:23.987	$GPGGA,040724,2543.8837,N,08009.7297,W,1,10,1.8,14,M,,M,,*66
06/12/2014	04:07:25.081	$GPGGA,040725,2543.8837,N,08009.7298,W,1,10,1.8,14,M,,M,,*68
06/12/2014	04:07:26.093	$GPGGA,040726,2543.8837,N,08009.7297,W,1,10,1.8,14,M,,M,,*64
06/12/2014	04:07:27.013	$GPGGA,040727,2543.8837,N,08009.7298,W,1,10,1.8,14,M,,M,,*6A
06/12/2014	04:07:28.128	$GPGGA,040728,2543.8837,N,08009.7297,W,1,10,1.8,14,M,,M,,*6A
06/12/2014	04:07:29.158	$GPGGA,040729,2543.8837,N,08009.7298,W,1,10,1.8,14,M,,M,,*64
06/12/2014	04:07:30.130	$GPGGA,040730,2543.8839,N,08009.7298,W,1,10,1.8,14,M,,M,,*62
06/12/2014	04:07:31.183	$GPGGA,040731,2543.8838,N,08009.7298,W,1,10,1.8,14,M,,M,,*62
06/12/2014	04:07:32.187	$GPGGA,040732,2543.8839,N,08009.7298,W,1,10,1.8,14,M,,M,,*60
06/12/2014	04:07:33.200	$GPGGA,040733,2543.8838,N,08009.7298,W,1,10,1.8,14,M,,M,,*60
06/12/2014	04:07:34.169	$GPGGA,040734,2543.8839,N,08009.7298,W,1,10,1.8,14,M,,M,,*66
06/12/2014	04:07:35.213	$GPGGA,040735,2543.8838,N,08009.7298,W,1,10,1.8,14,M,,M,,*66
06/12/2014	04:07:36.203	$GPGGA,040736,2543.8839,N,08009.7298,W,1,10,1.8,14,M,,M,,*64
06/12/2014	04:07:37.215	$GPGGA,040737,2543.8838,N,08009.7298,W,1,10,1.8,14,M,,M,,*64
06/12/2014	04:07:38.217	$GPGGA,040738,2543.8839,N,08009.7298,W,1,10,1.8,14,M,,M,,*6A
06/12/2014	04:07:39.220	$GPGGA,040739,2543.8838,N,08009.7299,W,1,10,1.8,14,M,,M,,*6B
06/12/2014	04:07:40.242	$GPGGA,040740,2543.8839,N,08009.7299,W,1,10,1.8,14,M,,M,,*64
06/12/2014	04:07:41.274	$GPGGA,040741,2543.8838,N,08009.7299,W,1,10,1.8,14,M,,M,,*64
06/12/2014	04:07:42.266	$GPGGA,040742,2543.8839,N,08009.7299,W,1,10,1.8,14,M,,M,,*66
06/12/2014	04:07:43.278	$GPGGA,040743,2543.8838,N,08009.7298,W,1,10,1.8,14,M,,M,,*67
06/12/2014	04:07:44.291	$GPGGA,040744,2543.8840,N,08009.7299,W,1,10,1.8,14,M,,M,,*6E
06/12/2014	04:07:45.302	$GPGGA,040745,2543.8839,N,08009.7298,W,1,10,1.8,14,M,,M,,*60
06/12/2014	04:07:45.574	$GPGGA,040746,2543.8840,N,08009.7298,W,1,10,1.8,14,M,,M,,*6D
06/12/2014	04:07:46.596	$GPGGA,040747,2543.8839,N,08009.7298,W,1,10,1.8,14,M,,M,,*62
06/12/2014	04:07:47.598	$GPGGA,040748,2543.8840,N,08009.7298,W,1,10,1.8,14,M,,M,,*63
06/12/2014	04:07:48.621	$GPGGA,040749,2543.8839,N,08009.7298,W,1,10,1.8,14,M,,M,,*6C
06/12/2014	04:07:49.603	$GPGGA,040750,2543.8840,N,08009.7298,W,1,10,1.8,14,M,,M,,*6A
06/12/2014	04:07:50.635	$GPGGA,040751,2543.8839,N,08009.7297,W,1,10,1.8,14,M,,M,,*6A
06/12/2014	04:07:51.637	$GPGGA,040752,2543.8840,N,08009.7298,W,1,10,1.8,14,M,,M,,*68
06/12/2014	04:07:52.639	$GPGGA,040753,2543.8840,N,08009.7297,W,1,10,1.8,14,M,,M,,*66
06/12/2014	04:07:53.651	$GPGGA,040754,2543.8840,N,08009.7298,W,1,10,1.8,14,M,,M,,*6E
06/12/2014	04:07:54.684	$GPGGA,040755,2543.8839,N,08009.7297,W,1,10,1.8,14,M,,M,,*6E
06/12/2014	04:07:55.676	$GPGGA,040756,2543.8840,N,08009.7296,W,1,10,1.8,14,M,,M,,*62
06/12/2014	04:07:56.719	$GPGGA,040757,2543.8840,N,08009.7296,W,1,10,1.8,14,M,,M,,*63
06/12/2014	04:07:57.690	$GPGGA,040758,2543.8840,N,08009.7296,W,1,10,1.8,14,M,,M,,*6C
06/12/2014	04:07:58.712	$GPGGA,040759,2543.8840,N,08009.7296,W,1,10,1.8,14,M,,M,,*6D
06/12/2014	04:07:59.907	$GPGGA,040800,2543.8840,N,08009.7296,W,1,10,1.8,14,M,,M,,*6E
06/12/2014	04:08:00.707	$GPGGA,040801,2543.8840,N,08009.7296,W,1,10,1.8,14,M,,M,,*6F
06/12/2014	04:08:01.739	$GPGGA,040802,2543.8840,N,08009.7296,W,1,10,1.8,14,M,,M,,*6C
06/12/2014	04:08:02.861	$GPGGA,040803,2543.8840,N,08009.7295,W,1,10,1.8,14,M,,M,,*6E
06/12/2014	04:08:03.772	$GPGGA,040804,2543.8840,N,08009.7295,W,1,10,1.8,14,M,,M,,*69
06/12/2014	04:08:04.764	$GPGGA,040805,2543.8840,N,08009.7295,W,1,10,1.8,14,M,,M,,*68
06/12/2014	04:08:05.868	$GPGGA,040806,2543.8839,N,08009.7295,W,1,10,1.8,14,M,,M,,*65
06/12/2014	04:08:06.809	$GPGGA,040807,2543.8840,N,08009.7295,W,1,10,1.8,14,M,,M,,*6A
06/12/2014	04:08:07.801	$GPGGA,040808,2543.8839,N,08009.7295,W,1,10,1.8,14,M,,M,,*6B
06/12/2014	04:08:08.945	$GPGGA,040809,2543.8840,N,08009.7295,W,1,10,1.8,14,M,,M,,*64
06/12/2014	04:08:09.825	$GPGGA,040810,2543.8839,N,08009.7295,W,1,10,1.8,14,M,,M,,*62
06/12/2014	04:08:10.823	$GPGGA,040811,2543.8840,N,08009.7295,W,1,10,1.8,14,M,,M,,*6D
06/12/2014	04:08:12.012	$GPGGA,040812,2543.8840,N,08009.7295,W,1,10,1.8,14,M,,M,,*6E
06/12/2014	04:08:12.850	$GPGGA,040813,2543.8840,N,08009.7295,W,1,10,1.8,14,M,,M,,*6F
06/12/2014	04:08:14.026	$GPGGA,040814,2543.8840,N,08009.7295,W,1,10,1.8,14,M,,M,,*68
06/12/2014	04:08:14.876	$GPGGA,040815,2543.8840,N,08009.7295,W,1,10,1.8,14,M,,M,,*69
06/12/2014	04:08:16.060	$GPGGA,040816,2543.8840,N,08009.7295,W,1,10,1.8,14,M,,M,,*6A
06/12/2014	04:08:17.032	$GPGGA,040817,2543.8840,N,08009.7295,W,1,10,1.8,14,M,,M,,*6B
06/12/2014	04:08:17.995	$GPGGA,040818,2543.8840,N,08009.7295,W,1,10,1.8,14,M,,M,,*64
06/12/2014	04:08:19.029	$GPGGA,040819,2543.8840,N,08009.7295,W,1,10,1.8,14,M,,M,,*65
06/12/2014	04:08:19.927	$GPGGA,040820,2543.8840,N,08009.7295,W,1,10,1.8,14,M,,M,,*6F
06/12/2014	04:08:21.078	$GPGGA,040821,2543.8840,N,08009.7295,W,1,9,1.9,14,M,,M,,*57
06/12/2014	04:08:22.031	$GPGGA,040822,2543.8840,N,08009.7295,W,1,9,1.8,14,M,,M,,*55
06/12/2014	04:08:23.125	$GPGGA,040823,2543.8842,N,08009.7294,W,1,10,1.8,14,M,,M,,*6F
06/12/2014	04:08:24.137	$GPGGA,040824,2543.8841,N,08009.7295,W,1,10,1.8,14,M,,M,,*6A
06/12/2014	04:08:25.139	$GPGGA,040825,2543.8840,N,08009.7295,W,1,10,1.8,14,M,,M,,*6A
06/12/2014	04:08:26.141	$GPGGA,040826,2543.8840,N,08009.7296,W,1,10,1.8,14,M,,M,,*6A
06/12/2014	04:08:27.128	$GPGGA,040827,2543.8840,N,08009.7296,W,1,10,1.8,14,M,,M,,*6B
06/12/2014	04:08:28.105	$GPGGA,040828,2543.8840,N,08009.7296,W,1,10,1.8,14,M,,M,,*64
06/12/2014	04:08:29.157	$GPGGA,040829,2543.8840,N,08009.7296,W,1,10,1.8,14,M,,M,,*65
06/12/2014	04:08:30.180	$GPGGA,040830,2543.8839,N,08009.7298,W,1,10,1.8,14,M,,M,,*6D
06/12/2014	04:08:31.175	$GPGGA,040831,2543.8838,N,08009.7297,W,1,10,1.8,14,M,,M,,*62
06/12/2014	04:08:32.224	$GPGGA,040832,2543.8839,N,08009.7298,W,1,10,1.8,14,M,,M,,*6F
06/12/2014	04:08:33.145	$GPGGA,040833,2543.8838,N,08009.7297,W,1,10,1.8,14,M,,M,,*60
06/12/2014	04:08:34.208	$GPGGA,040834,2543.8839,N,08009.7298,W,1,10,1.8,14,M,,M,,*69
06/12/2014	04:08:35.160	$GPGGA,040835,2543.8838,N,08009.7297,W,1,10,1.8,14,M,,M,,*66
06/12/2014	04:08:36.253	$GPGGA,040836,2543.8837,N,08009.7298,W,1,10,1.8,14,M,,M,,*65
06/12/2014	04:08:37.230	$GPGGA,040837,2543.8837,N,08009.7297,W,1,10,1.8,14,M,,M,,*6B
06/12/2014	04:08:38.185	$GPGGA,040838,2543.8837,N,08009.7298,W,1,10,1.8,14,M,,M,,*6B
06/12/2014	04:08:39.248	$GPGGA,040839,2543.8837,N,08009.7297,W,1,10,1.8,15,M,,M,,*64
06/12/2014	04:08:40.230	$GPGGA,040840,2543.8837,N,08009.7298,W,1,10,1.8,15,M,,M,,*65
06/12/2014	04:08:41.275	$GPGGA,040841,2543.8837,N,08009.7297,W,1,10,1.8,15,M,,M,,*6B
06/12/2014	04:08:42.291	$GPGGA,040842,2543.8837,N,08009.7298,W,1,10,1.8,15,M,,M,,*67
06/12/2014	04:08:43.297	$GPGGA,040843,2543.8837,N,08009.7297,W,1,10,1.8,15,M,,M,,*69
06/12/2014	04:08:44.329	$GPGGA,040844,2543.8837,N,08009.7298,W,1,10,1.8,15,M,,M,,*61
06/12/2014	04:08:45.260	$GPGGA,040845,2543.8837,N,08009.7297,W,1,10,1.8,15,M,,M,,*6F
06/12/2014	04:08:45.602	$GPGGA,040846,2543.8837,N,08009.7298,W,1,10,1.8,15,M,,M,,*63
06/12/2014	04:08:46.615	$GPGGA,040847,2543.8837,N,08009.7297,W,1,10,1.8,15,M,,M,,*6D
06/12/2014	04:08:47.637	$GPGGA,040848,2543.8837,N,08009.7298,W,1,10,1.8,15,M,,M,,*6D
06/12/2014	04:08:48.568	$GPGGA,040849,2543.8837,N,08009.7298,W,1,10,1.8,15,M,,M,,*6C
06/12/2014	04:08:49.651	$GPGGA,040850,2543.8837,N,08009.7299,W,1,10,1.8,15,M,,M,,*65
06/12/2014	04:08:50.623	$GPGGA,040851,2543.8837,N,08009.7299,W,1,10,1.8,15,M,,M,,*64
06/12/2014	04:08:51.679	$GPGGA,040852,2543.8837,N,08009.7299,W,1,10,1.8,15,M,,M,,*67
06/12/2014	04:08:52.678	$GPGGA,040853,2543.8837,N,08009.7299,W,1,10,1.8,15,M,,M,,*66
06/12/2014	04:08:53.690	$GPGGA,040854,2543.8837,N,08009.7301,W,1,10,1.8,15,M,,M,,*61
06/12/2014	04:08:54.630	$GPGGA,040855,2543.8837,N,08009.7300,W,1,10,1.8,15,M,,M,,*61
06/12/2014	04:08:55.723	$GPGGA,040856,2543.8837,N,08009.7301,W,1,10,1.8,16,M,,M,,*60
06/12/2014	04:08:56.705	$GPGGA,040857,2543.8837,N,08009.7300,W,1,10,1.8,16,M,,M,,*60
06/12/2014	04:08:57.717	$GPGGA,040858,2543.8837,N,08009.7301,W,1,10,1.8,16,M,,M,,*6E
06/12/2014	04:08:58.784	$GPGGA,040859,2543.8837,N,08009.7301,W,1,10,1.8,16,M,,M,,*6F
06/12/2014	04:08:59.772	$GPGGA,040900,2543.8837,N,08009.7301,W,1,10,1.8,16,M,,M,,*62
06/12/2014	04:09:00.693	$GPGGA,040901,2543.8837,N,08009.7301,W,1,10,1.8,16,M,,M,,*63
06/12/2014	04:09:01.776	$GPGGA,040902,2543.8837,N,08009.7301,W,1,10,1.8,16,M,,M,,*60
06/12/2014	04:09:02.849	$GPGGA,040903,2543.8837,N,08009.7301,W,1,10,1.8,16,M,,M,,*61
06/12/2014	04:09:03.811	$GPGGA,040904,2543.8837,N,08009.7301,W,1,10,1.8,16,M,,M,,*66
06/12/2014	04:09:04.793	$GPGGA,040905,2543.8839,N,08009.7300,W,1,10,1.8,16,M,,M,,*68
06/12/2014	04:09:05.846	$GPGGA,040906,2543.8838,N,08009.7301,W,1,10,1.8,16,M,,M,,*6B
06/12/2014	04:09:06.777	$GPGGA,040907,2543.8839,N,08009.7300,W,1,10,1.8,16,M,,M,,*6A
06/12/2014	04:09:07.880	$GPGGA,040908,2543.8838,N,08009.7301,W,1,10,1.8,16,M,,M,,*65
06/12/2014	04:09:08.873	$GPGGA,040909,2543.8839,N,08009.7300,W,1,10,1.8,16,M,,M,,*64
06/12/2014	04:09:09.885	$GPGGA,040910,2543.8838,N,08009.7301,W,1,10,1.8,16,M,,M,,*6C
06/12/2014	04:09:10.816	$GPGGA,040911,2543.8839,N,08009.7300,W,1,10,1.8,16,M,,M,,*6D
06/12/2014	04:09:11.887	$GPGGA,040912,2543.8838,N,08009.7301,W,1,10,1.8,16,M,,M,,*6E
06/12/2014	04:09:12.920	$GPGGA,040913,2543.8839,N,08009.7300,W,1,10,1.8,16,M,,M,,*6F
06/12/2014	04:09:13.942	$GPGGA,040914,2543.8838,N,08009.7301,W,1,10,1.8,16,M,,M,,*68
06/12/2014	04:09:14.934	$GPGGA,040915,2543.8839,N,08009.7300,W,1,10,1.8,16,M,,M,,*69
06/12/2014	04:09:15.956	$GPGGA,040916,2543.8840,N,08009.7301,W,1,10,1.8,16,M,,M,,*65
06/12/2014	04:09:16.999	$GPGGA,040917,2543.8838,N,08009.7299,W,1,10,1.8,16,M,,M,,*6B
06/12/2014	04:09:17.960	$GPGGA,040918,2543.8839,N,08009.7299,W,1,10,1.8,16,M,,M,,*65
06/12/2014	04:09:18.983	$GPGGA,040919,2543.8838,N,08009.7299,W,1,10,1.8,16,M,,M,,*65
06/12/2014	04:09:20.005	$GPGGA,040920,2543.8839,N,08009.7299,W,1,10,1.8,16,M,,M,,*6E
06/12/2014	04:09:21.030	$GPGGA,040921,2543.8838,N,08009.7299,W,1,10,1.8,16,M,,M,,*6E
06/12/2014	04:09:22.029	$GPGGA,040922,2543.8837,N,08009.7298,W,1,10,1.8,16,M,,M,,*63
06/12/2014	04:09:23.031	$GPGGA,040923,2543.8837,N,08009.7298,W,1,10,1.8,16,M,,M,,*62
06/12/2014	04:09:24.034	$GPGGA,040924,2543.8837,N,08009.7298,W,1,10,1.8,16,M,,M,,*65
06/12/2014	04:09:25.056	$GPGGA,040925,2543.8837,N,08009.7298,W,1,10,1.8,16,M,,M,,*64
06/12/2014	04:09:26.078	$GPGGA,040926,2543.8837,N,08009.7298,W,1,10,1.8,16,M,,M,,*67
06/12/2014	04:09:27.126	$GPGGA,040927,2543.8837,N,08009.7298,W,1,10,1.8,16,M,,M,,*66
06/12/2014	04:09:28.092	$GPGGA,040928,2543.8837,N,08009.7298,W,1,10,1.8,16,M,,M,,*69
06/12/2014	04:09:29.105	$GPGGA,040929,2543.8837,N,08009.7298,W,1,10,1.8,16,M,,M,,*68
06/12/2014	04:09:30.096	$GPGGA,040930,2543.8837,N,08009.7297,W,1,10,1.8,16,M,,M,,*6F
06/12/2014	04:09:31.108	$GPGGA,040931,2543.8837,N,08009.7298,W,1,10,1.8,16,M,,M,,*61
06/12/2014	04:09:32.140	$GPGGA,040932,2543.8837,N,08009.7298,W,1,10,1.8,16,M,,M,,*62
06/12/2014	04:09:33.152	$GPGGA,040933,2543.8837,N,08009.7298,W,1,10,1.8,16,M,,M,,*63
06/12/2014	04:09:34.134	$GPGGA,040934,2543.8837,N,08009.7298,W,1,10,1.8,16,M,,M,,*64
06/12/2014	04:09:35.177	$GPGGA,040935,2543.8837,N,08009.7296,W,1,10,1.8,16,M,,M,,*6B
06/12/2014	04:09:36.189	$GPGGA,040936,2543.8837,N,08009.7296,W,1,10,1.8,16,M,,M,,*68
06/12/2014	04:09:37.191	$GPGGA,040937,2543.8837,N,08009.7296,W,1,10,1.8,16,M,,M,,*69
06/12/2014	04:09:38.213	$GPGGA,040938,2543.8837,N,08009.7296,W,1,10,1.8,16,M,,M,,*66
06/12/2014	04:09:39.246	$GPGGA,040939,2543.8837,N,08009.7296,W,1,10,1.8,16,M,,M,,*67
06/12/2014	04:09:40.218	$GPGGA,040940,2543.8835,N,08009.7296,W,1,10,1.8,16,M,,M,,*6B
06/12/2014	04:09:41.220	$GPGGA,040941,2543.8837,N,08009.7296,W,1,10,1.8,16,M,,M,,*68
06/12/2014	04:09:42.262	$GPGGA,040942,2543.8837,N,08009.7296,W,1,10,1.8,16,M,,M,,*6B
06/12/2014	04:09:43.234	$GPGGA,040943,2543.8837,N,08009.7296,W,1,10,1.8,16,M,,M,,*6A
06/12/2014	04:09:44.287	$GPGGA,040944,2543.8837,N,08009.7296,W,1,10,1.8,16,M,,M,,*6D
06/12/2014	04:09:45.258	$GPGGA,040945,2543.8837,N,08009.7295,W,1,10,1.8,16,M,,M,,*6F
06/12/2014	04:09:45.571	$GPGGA,040946,2543.8837,N,08009.7295,W,1,10,1.8,16,M,,M,,*6C
06/12/2014	04:09:46.552	$GPGGA,040947,2543.8837,N,08009.7295,W,1,10,1.8,16,M,,M,,*6D
06/12/2014	04:09:47.675	$GPGGA,040948,2543.8835,N,08009.7295,W,1,10,1.8,16,M,,M,,*60
06/12/2014	04:09:48.566	$GPGGA,040949,2543.8836,N,08009.7295,W,1,10,1.8,16,M,,M,,*62
06/12/2014	04:09:49.660	$GPGGA,040950,2543.8837,N,08009.7295,W,1,10,1.8,16,M,,M,,*6B
06/12/2014	04:09:50.575	$GPGGA,040951,2543.8835,N,08009.7295,W,1,10,1.8,15,M,,M,,*6B
06/12/2014	04:09:51.603	$GPGGA,040952,2543.8835,N,08009.7295,W,1,10,1.8,15,M,,M,,*68
06/12/2014	04:09:52.615	$GPGGA,040953,2543.8835,N,08009.7295,W,1,10,1.8,15,M,,M,,*69
06/12/2014	04:09:53.700	$GPGGA,040954,2543.8836,N,08009.7295,W,1,10,1.8,15,M,,M,,*6D
06/12/2014	04:09:54.740	$GPGGA,040955,2543.8835,N,08009.7295,W,1,10,1.8,15,M,,M,,*6F
06/12/2014	04:09:55.753	$GPGGA,040956,2543.8836,N,08009.7295,W,1,10,1.8,15,M,,M,,*6F
06/12/2014	04:09:56.734	$GPGGA,040957,2543.8837,N,08009.7295,W,1,10,1.8,15,M,,M,,*6F
06/12/2014	04:09:57.747	$GPGGA,040958,2543.8837,N,08009.7295,W,1,10,1.8,15,M,,M,,*60
06/12/2014	04:09:58.783	$GPGGA,040959,2543.8837,N,08009.7295,W,1,10,1.8,15,M,,M,,*61
06/12/2014	04:09:59.799	$GPGGA,041000,2543.8837,N,08009.7295,W,1,10,1.8,15,M,,M,,*65
06/12/2014	04:10:00.772	$GPGGA,041001,2543.8837,N,08009.7295,W,1,10,1.8,15,M,,M,,*64
06/12/2014	04:10:01.778	$GPGGA,041002,2543.8837,N,08009.7295,W,1,10,1.8,15,M,,M,,*67
06/12/2014	04:10:02.794	$GPGGA,041003,2543.8837,N,08009.7295,W,1,10,1.8,15,M,,M,,*66
06/12/2014	04:10:03.790	$GPGGA,041004,2543.8837,N,08009.7295,W,1,10,1.8,15,M,,M,,*61
06/12/2014	04:10:04.795	$GPGGA,041005,2543.8837,N,08009.7295,W,1,10,1.8,15,M,,M,,*60
06/12/2014	04:10:05.801	$GPGGA,041006,2543.8837,N,08009.7295,W,1,10,1.8,15,M,,M,,*63
06/12/2014	04:10:06.797	$GPGGA,041007,2543.8837,N,08009.7294,W,1,10,1.8,15,M,,M,,*63
06/12/2014	04:10:07.813	$GPGGA,041008,2543.8835,N,08009.7294,W,1,10,1.8,15,M,,M,,*6E
06/12/2014	04:10:08.819	$GPGGA,041009,2543.8836,N,08009.7294,W,1,10,1.8,15,M,,M,,*6C
06/12/2014	04:10:09.815	$GPGGA,041010,2543.8835,N,08009.7294,W,1,10,1.8,15,M,,M,,*67
06/12/2014	04:10:10.821	$GPGGA,041011,2543.8836,N,08009.7294,W,1,10,1.8,15,M,,M,,*65
06/12/2014	04:10:11.827	$GPGGA,041012,2543.8835,N,08009.7294,W,1,10,1.8,15,M,,M,,*65
06/12/2014	04:10:12.813	$GPGGA,041013,2543.8836,N,08009.7294,W,1,10,1.8,15,M,,M,,*67
06/12/2014	04:10:13.849	$GPGGA,041014,2543.8834,N,08009.7294,W,1,10,1.8,15,M,,M,,*62
06/12/2014	04:10:14.855	$GPGGA,041015,2543.8835,N,08009.7293,W,1,10,1.8,15,M,,M,,*65
06/12/2014	04:10:15.831	$GPGGA,041016,2543.8834,N,08009.7294,W,1,10,1.8,15,M,,M,,*60
06/12/2014	04:10:16.857	$GPGGA,041017,2543.8835,N,08009.7293,W,1,10,1.8,15,M,,M,,*67
06/12/2014	04:10:17.843	$GPGGA,041018,2543.8834,N,08009.7294,W,1,10,1.8,15,M,,M,,*6E
06/12/2014	04:10:18.829	$GPGGA,041019,2543.8835,N,08009.7293,W,1,10,1.8,15,M,,M,,*69
06/12/2014	04:10:19.865	$GPGGA,041020,2543.8834,N,08009.7294,W,1,10,1.8,15,M,,M,,*65
06/12/2014	04:10:20.841	$GPGGA,041021,2543.8835,N,08009.7293,W,1,10,1.8,15,M,,M,,*62
06/12/2014	04:10:21.866	$GPGGA,041022,2543.8834,N,08009.7294,W,1,10,1.8,15,M,,M,,*67
06/12/2014	04:10:22.852	$GPGGA,041023,2543.8836,N,08009.7293,W,1,10,1.8,15,M,,M,,*63
06/12/2014	04:10:23.878	$GPGGA,041024,2543.8835,N,08009.7294,W,1,10,1.8,15,M,,M,,*60
06/12/2014	04:10:24.894	$GPGGA,041025,2543.8836,N,08009.7293,W,1,10,1.8,15,M,,M,,*65
06/12/2014	04:10:25.860	$GPGGA,041026,2543.8835,N,08009.7294,W,1,10,1.8,15,M,,M,,*62
06/12/2014	04:10:26.906	$GPGGA,041027,2543.8836,N,08009.7293,W,1,10,1.8,15,M,,M,,*67
06/12/2014	04:10:27.882	$GPGGA,041028,2543.8835,N,08009.7294,W,1,10,1.8,15,M,,M,,*6C
06/12/2014	04:10:28.898	$GPGGA,041029,2543.8836,N,08009.7293,W,1,10,1.8,15,M,,M,,*69
06/12/2014	04:10:29.994	$GPGGA,041030,2543.8835,N,08009.7294,W,1,10,1.8,15,M,,M,,*65
06/12/2014	04:10:30.880	$GPGGA,041031,2543.8836,N,08009.7293,W,1,10,1.8,16,M,,M,,*63
06/12/2014	04:10:31.926	$GPGGA,041032,2543.8835,N,08009.7294,W,1,10,1.8,16,M,,M,,*64
06/12/2014	04:10:32.902	$GPGGA,041033,2543.8836,N,08009.7293,W,1,10,1.8,16,M,,M,,*61
06/12/2014	04:10:33.918	$GPGGA,041034,2543.8835,N,08009.7294,W,1,10,1.8,16,M,,M,,*62
06/12/2014	04:10:34.934	$GPGGA,041035,2543.8836,N,08009.7293,W,1,10,1.8,16,M,,M,,*67
06/12/2014	04:10:35.909	$GPGGA,041036,2543.8835,N,08009.7294,W,1,10,1.8,16,M,,M,,*60
06/12/2014	04:10:37.036	$GPGGA,041037,2543.8836,N,08009.7293,W,1,10,1.8,16,M,,M,,*65
06/12/2014	04:10:37.922	$GPGGA,041038,2543.8835,N,08009.7294,W,1,10,1.8,16,M,,M,,*6E
06/12/2014	04:10:38.921	$GPGGA,041039,2543.8836,N,08009.7293,W,1,10,1.8,16,M,,M,,*6B
06/12/2014	04:10:39.953	$GPGGA,041040,2543.8835,N,08009.7294,W,1,10,1.8,16,M,,M,,*61
06/12/2014	04:10:41.036	$GPGGA,041041,2543.8836,N,08009.7293,W,1,10,1.8,16,M,,M,,*64
06/12/2014	04:10:41.925	$GPGGA,041042,2543.8835,N,08009.7294,W,1,10,1.8,16,M,,M,,*63
06/12/2014	04:10:42.951	$GPGGA,041043,2543.8836,N,08009.7293,W,1,10,1.8,16,M,,M,,*66
06/12/2014	04:10:44.064	$GPGGA,041044,2543.8835,N,08009.7294,W,1,10,1.8,16,M,,M,,*65
06/12/2014	04:10:44.953	$GPGGA,041045,2543.8834,N,08009.7294,W,1,10,1.8,16,M,,M,,*65
06/12/2014	04:10:45.594	$GPGGA,041046,2543.8835,N,08009.7294,W,1,10,1.8,16,M,,M,,*67
06/12/2014	04:10:46.499	$GPGGA,041047,2543.8834,N,08009.7294,W,1,10,1.8,16,M,,M,,*67
06/12/2014	04:10:47.531	$GPGGA,041048,2543.8835,N,08009.7293,W,1,10,1.8,16,M,,M,,*6E
06/12/2014	04:10:48.511	$GPGGA,041049,2543.8834,N,08009.7294,W,1,10,1.8,16,M,,M,,*69
06/12/2014	04:10:49.608	$GPGGA,041050,2543.8835,N,08009.7293,W,1,10,1.8,16,M,,M,,*67
06/12/2014	04:10:50.604	$GPGGA,041051,2543.8834,N,08009.7294,W,1,10,1.8,16,M,,M,,*60
06/12/2014	04:10:51.630	$GPGGA,041052,2543.8835,N,08009.7293,W,1,10,1.8,16,M,,M,,*65
06/12/2014	04:10:52.626	$GPGGA,041053,2543.8834,N,08009.7294,W,1,10,1.8,16,M,,M,,*62
06/12/2014	04:10:53.633	$GPGGA,041054,2543.8835,N,08009.7294,W,1,10,1.8,16,M,,M,,*64
06/12/2014	04:10:54.638	$GPGGA,041055,2543.8834,N,08009.7293,W,1,10,1.8,16,M,,M,,*63
06/12/2014	04:10:55.644	$GPGGA,041056,2543.8835,N,08009.7294,W,1,10,1.8,16,M,,M,,*66
06/12/2014	04:10:56.659	$GPGGA,041057,2543.8836,N,08009.7293,W,1,10,1.8,16,M,,M,,*63
06/12/2014	04:10:57.635	$GPGGA,041058,2543.8835,N,08009.7294,W,1,10,1.8,16,M,,M,,*68
06/12/2014	04:10:58.651	$GPGGA,041059,2543.8836,N,08009.7293,W,1,10,1.8,16,M,,M,,*6D
06/12/2014	04:10:59.667	$GPGGA,041100,2543.8835,N,08009.7294,W,1,10,1.8,16,M,,M,,*64
06/12/2014	04:11:00.643	$GPGGA,041101,2543.8836,N,08009.7293,W,1,10,1.8,16,M,,M,,*61
06/12/2014	04:11:01.649	$GPGGA,041102,2543.8835,N,08009.7294,W,1,10,1.8,16,M,,M,,*66
06/12/2014	04:11:02.655	$GPGGA,041103,2543.8836,N,08009.7293,W,1,10,1.8,16,M,,M,,*63
06/12/2014	04:11:03.681	$GPGGA,041104,2543.8834,N,08009.7292,W,1,10,1.8,16,M,,M,,*67
06/12/2014	04:11:04.687	$GPGGA,041105,2543.8835,N,08009.7292,W,1,10,1.8,16,M,,M,,*67
06/12/2014	04:11:05.673	$GPGGA,041106,2543.8834,N,08009.7292,W,1,10,1.8,16,M,,M,,*65
06/12/2014	04:11:06.699	$GPGGA,041107,2543.8835,N,08009.7292,W,1,10,1.8,16,M,,M,,*65
06/12/2014	04:11:07.685	$GPGGA,041108,2543.8834,N,08009.7292,W,1,10,1.8,16,M,,M,,*6B
06/12/2014	04:11:08.681	$GPGGA,041109,2543.8835,N,08009.7292,W,1,10,1.8,16,M,,M,,*6B
06/12/2014	04:11:09.687	$GPGGA,041110,2543.8834,N,08009.7292,W,1,10,1.8,16,M,,M,,*62
06/12/2014	04:11:10.703	$GPGGA,041111,2543.8833,N,08009.7292,W,1,10,1.8,16,M,,M,,*64
06/12/2014	04:11:11.709	$GPGGA,041112,2543.8835,N,08009.7292,W,1,10,1.8,16,M,,M,,*61
06/12/2014	04:11:12.735	$GPGGA,041113,2543.8834,N,08009.7292,W,1,10,1.8,16,M,,M,,*61
06/12/2014	04:11:13.711	$GPGGA,041114,2543.8835,N,08009.7292,W,1,10,1.8,16,M,,M,,*67
06/12/2014	04:11:14.736	$GPGGA,041115,2543.8833,N,08009.7294,W,1,10,1.8,16,M,,M,,*66
06/12/2014	04:11:15.721	$GPGGA,041116,2543.8835,N,08009.7293,W,1,10,1.8,16,M,,M,,*64
06/12/2014	04:11:16.738	$GPGGA,041117,2543.8834,N,08009.7294,W,1,10,1.8,16,M,,M,,*63
06/12/2014	04:11:17.723	$GPGGA,041118,2543.8835,N,08009.7293,W,1,10,1.8,16,M,,M,,*6A
06/12/2014	04:11:18.739	$GPGGA,041119,2543.8834,N,08009.7292,W,1,10,1.8,16,M,,M,,*6B
06/12/2014	04:11:19.745	$GPGGA,041120,2543.8835,N,08009.7292,W,1,10,1.8,16,M,,M,,*60
06/12/2014	04:11:20.741	$GPGGA,041121,2543.8834,N,08009.7292,W,1,10,1.8,16,M,,M,,*60
06/12/2014	04:11:21.729	$GPGGA,041122,2543.8835,N,08009.7292,W,1,10,1.8,16,M,,M,,*62
06/12/2014	04:11:22.730	$GPGGA,041123,2543.8834,N,08009.7292,W,1,10,1.8,16,M,,M,,*62
06/12/2014	04:11:23.769	$GPGGA,041124,2543.8835,N,08009.7292,W,1,10,1.8,16,M,,M,,*64
06/12/2014	04:11:24.836	$GPGGA,041125,2543.8834,N,08009.7292,W,1,10,1.8,15,M,,M,,*67
06/12/2014	04:11:25.743	$GPGGA,041126,2543.8835,N,08009.7294,W,1,10,1.8,15,M,,M,,*63
06/12/2014	04:11:26.868	$GPGGA,041127,2543.8834,N,08009.7293,W,1,10,1.8,15,M,,M,,*64
06/12/2014	04:11:27.783	$GPGGA,041128,2543.8835,N,08009.7294,W,1,10,1.8,15,M,,M,,*6D
06/12/2014	04:11:28.852	$GPGGA,041129,2543.8834,N,08009.7293,W,1,10,1.8,15,M,,M,,*6A
06/12/2014	04:11:29.856	$GPGGA,041130,2543.8835,N,08009.7294,W,1,10,1.8,15,M,,M,,*64
06/12/2014	04:11:30.872	$GPGGA,041131,2543.8834,N,08009.7292,W,1,10,1.8,15,M,,M,,*62
06/12/2014	04:11:31.877	$GPGGA,041132,2543.8835,N,08009.7294,W,1,10,1.8,15,M,,M,,*66
06/12/2014	04:11:32.884	$GPGGA,041133,2543.8834,N,08009.7293,W,1,10,1.8,15,M,,M,,*61
06/12/2014	04:11:33.879	$GPGGA,041134,2543.8835,N,08009.7294,W,1,10,1.8,15,M,,M,,*60
06/12/2014	04:11:34.925	$GPGGA,041135,2543.8834,N,08009.7293,W,1,10,1.8,15,M,,M,,*67
06/12/2014	04:11:35.803	$GPGGA,041136,2543.8833,N,08009.7294,W,1,10,1.8,15,M,,M,,*64
06/12/2014	04:11:36.887	$GPGGA,041137,2543.8833,N,08009.7292,W,1,10,1.8,15,M,,M,,*63
06/12/2014	04:11:37.903	$GPGGA,041138,2543.8833,N,08009.7294,W,1,10,1.8,15,M,,M,,*6A
06/12/2014	04:11:38.899	$GPGGA,041139,2543.8833,N,08009.7293,W,1,10,1.8,15,M,,M,,*6C
