Software Version Number: 1	Data File Format Number: 1	Build Version Number: 1	Error Count Since VI Started: 0	Manufacturer: Raytheon	 Model Number: RayMarine 120	 S/N: 	 Cal Date: 	 Wind Direction Offset: 0.00	 Slope (M)1: 0.00	 Offset (B)1: 0.00	 Slope (M)2: 0.00	 Offset (B)2: 0.00	 Slope (M)3: 0.00	 Offset (B)3: 0.00	 Slope (M)4: 0.00	 Offset (B)4: 0.00	 Slope (M)5: 0.00	 Offset (B)5: 0.00	 Slope (M)6: 0.00	 Offset (B)6: 0.00
Computer Date	Computer Time	GGA String
06/08/2014	07:00:00.865	$GPGGA,070000,2439.4445,N,08035.2531,W,1,8,1.9,15,M,,M,,*55
06/08/2014	07:00:01.769	$GPGGA,070001,2439.4440,N,08035.2524,W,1,8,1.9,15,M,,M,,*55
06/08/2014	07:00:02.910	$GPGGA,070002,2439.4435,N,08035.2517,W,1,8,1.9,15,M,,M,,*54
06/08/2014	07:00:03.957	$GPGGA,070003,2439.4430,N,08035.2510,W,1,8,1.9,15,M,,M,,*57
06/08/2014	07:00:05.046	$GPGGA,070004,2439.4426,N,08035.2503,W,1,8,1.9,15,M,,M,,*55
06/08/2014	07:00:06.052	$GPGGA,070005,2439.4419,N,08035.2496,W,1,8,1.9,15,M,,M,,*55
06/08/2014	07:00:06.994	$GPGGA,070006,2439.4415,N,08035.2490,W,1,8,1.9,15,M,,M,,*5C
06/08/2014	07:00:08.146	$GPGGA,070007,2439.4409,N,08035.2483,W,1,8,1.9,15,M,,M,,*52
06/08/2014	07:00:09.203	$GPGGA,070008,2439.4404,N,08035.2477,W,1,8,1.9,15,M,,M,,*5B
06/08/2014	07:00:10.271	$GPGGA,070009,2439.4399,N,08035.2470,W,1,8,1.9,15,M,,M,,*5E
06/08/2014	07:00:11.278	$GPGGA,070010,2439.4394,N,08035.2463,W,1,8,1.9,15,M,,M,,*59
06/08/2014	07:00:12.365	$GPGGA,070011,2439.4389,N,08035.2457,W,1,8,1.9,15,M,,M,,*53
06/08/2014	07:00:13.380	$GPGGA,070012,2439.4384,N,08035.2451,W,1,8,1.9,15,M,,M,,*5B
06/08/2014	07:00:14.427	$GPGGA,070013,2439.4379,N,08035.2445,W,1,8,1.9,15,M,,M,,*5D
06/08/2014	07:00:15.454	$GPGGA,070014,2439.4375,N,08035.2439,W,1,8,1.9,15,M,,M,,*5D
06/08/2014	07:00:16.522	$GPGGA,070015,2439.4369,N,08035.2433,W,1,8,1.9,15,M,,M,,*5B
06/08/2014	07:00:17.548	$GPGGA,070016,2439.4364,N,08035.2427,W,1,8,1.9,15,M,,M,,*50
06/08/2014	07:00:18.616	$GPGGA,070017,2439.4358,N,08035.2421,W,1,8,1.9,15,M,,M,,*58
06/08/2014	07:00:19.642	$GPGGA,070018,2439.4353,N,08035.2415,W,1,8,1.9,15,M,,M,,*5B
06/08/2014	07:00:20.711	$GPGGA,070019,2439.4348,N,08035.2409,W,1,8,1.9,15,M,,M,,*5D
06/08/2014	07:00:21.747	$GPGGA,070020,2439.4342,N,08035.2403,W,1,8,1.9,15,M,,M,,*57
06/08/2014	07:00:22.773	$GPGGA,070021,2439.4337,N,08035.2396,W,1,8,1.9,15,M,,M,,*5F
06/08/2014	07:00:23.809	$GPGGA,070022,2439.4332,N,08035.2390,W,1,8,1.9,15,M,,M,,*5F
06/08/2014	07:00:24.898	$GPGGA,070023,2439.4328,N,08035.2384,W,1,8,1.9,15,M,,M,,*50
06/08/2014	07:00:25.914	$GPGGA,070024,2439.4322,N,08035.2377,W,1,8,1.9,15,M,,M,,*51
06/08/2014	07:00:26.940	$GPGGA,070025,2439.4317,N,08035.2371,W,1,8,1.9,15,M,,M,,*50
06/08/2014	07:00:28.008	$GPGGA,070026,2439.4311,N,08035.2365,W,1,8,1.9,15,M,,M,,*50
06/08/2014	07:00:29.076	$GPGGA,070027,2439.4306,N,08035.2359,W,1,8,1.9,15,M,,M,,*58
06/08/2014	07:00:30.102	$GPGGA,070028,2439.4301,N,08035.2352,W,1,8,1.9,15,M,,M,,*5B
06/08/2014	07:00:31.118	$GPGGA,070029,2439.4296,N,08035.2346,W,1,8,1.9,15,M,,M,,*50
06/08/2014	07:00:32.185	$GPGGA,070030,2439.4292,N,08035.2339,W,1,8,1.9,15,M,,M,,*54
06/08/2014	07:00:33.254	$GPGGA,070031,2439.4286,N,08035.2333,W,1,8,1.9,15,M,,M,,*5A
06/08/2014	07:00:34.279	$GPGGA,070032,2439.4281,N,08035.2325,W,1,8,1.9,15,M,,M,,*59
06/08/2014	07:00:35.358	$GPGGA,070033,2439.4275,N,08035.2319,W,1,8,1.9,15,M,,M,,*5C
06/08/2014	07:00:36.342	$GPGGA,070034,2439.4270,N,08035.2312,W,1,8,1.9,15,M,,M,,*55
06/08/2014	07:00:37.389	$GPGGA,070035,2439.4265,N,08035.2305,W,1,8,1.9,15,M,,M,,*56
06/08/2014	07:00:38.468	$GPGGA,070036,2439.4260,N,08035.2298,W,1,8,1.9,15,M,,M,,*55
06/08/2014	07:00:39.483	$GPGGA,070037,2439.4256,N,08035.2291,W,1,8,1.9,15,M,,M,,*58
06/08/2014	07:00:40.552	$GPGGA,070038,2439.4250,N,08035.2284,W,1,8,1.9,15,M,,M,,*55
06/08/2014	07:00:38.775	$GPGGA,070039,2439.4245,N,08035.2277,W,1,8,1.9,16,M,,M,,*5F
06/08/2014	07:00:39.811	$GPGGA,070040,2439.4240,N,08035.2270,W,1,8,1.9,16,M,,M,,*53
06/08/2014	07:00:40.837	$GPGGA,070041,2439.4235,N,08035.2263,W,1,8,1.9,16,M,,M,,*52
06/08/2014	07:00:41.895	$GPGGA,070042,2439.4231,N,08035.2256,W,1,8,1.9,16,M,,M,,*53
06/08/2014	07:00:43.058	$GPGGA,070043,2439.4227,N,08035.2249,W,1,8,1.9,16,M,,M,,*5B
06/08/2014	07:00:44.000	$GPGGA,070044,2439.4221,N,08035.2242,W,1,8,1.9,16,M,,M,,*51
06/08/2014	07:00:45.030	$GPGGA,070045,2439.4217,N,08035.2234,W,1,8,1.9,16,M,,M,,*54
06/08/2014	07:00:46.167	$GPGGA,070046,2439.4212,N,08035.2227,W,1,8,1.9,16,M,,M,,*50
06/08/2014	07:00:47.152	$GPGGA,070047,2439.4207,N,08035.2221,W,1,8,1.9,16,M,,M,,*53
06/08/2014	07:00:48.281	$GPGGA,070048,2439.4202,N,08035.2213,W,1,8,1.9,16,M,,M,,*58
06/08/2014	07:00:49.204	$GPGGA,070049,2439.4198,N,08035.2206,W,1,8,1.9,16,M,,M,,*5D
06/08/2014	07:00:50.344	$GPGGA,070050,2439.4193,N,08035.2199,W,1,8,1.9,16,M,,M,,*5B
06/08/2014	07:00:51.308	$GPGGA,070051,2439.4189,N,08035.2192,W,1,8,1.9,16,M,,M,,*5A
06/08/2014	07:00:52.361	$GPGGA,070052,2439.4184,N,08035.2185,W,1,8,1.9,16,M,,M,,*52
06/08/2014	07:00:53.485	$GPGGA,070053,2439.4180,N,08035.2178,W,1,8,1.9,16,M,,M,,*55
06/08/2014	07:00:54.428	$GPGGA,070054,2439.4175,N,08035.2172,W,1,8,1.9,16,M,,M,,*52
06/08/2014	07:00:55.601	$GPGGA,070055,2439.4171,N,08035.2165,W,1,8,1.9,16,M,,M,,*51
06/08/2014	07:00:56.650	$GPGGA,070056,2439.4166,N,08035.2158,W,1,8,1.9,16,M,,M,,*5A
06/08/2014	07:00:57.705	$GPGGA,070057,2439.4162,N,08035.2152,W,1,8,1.9,16,M,,M,,*55
06/08/2014	07:00:58.721	$GPGGA,070058,2439.4157,N,08035.2145,W,1,8,1.9,16,M,,M,,*5A
06/08/2014	07:00:59.786	$GPGGA,070059,2439.4153,N,08035.2139,W,1,8,1.9,16,M,,M,,*54
06/08/2014	07:01:00.829	$GPGGA,070100,2439.4149,N,08035.2132,W,1,8,1.9,16,M,,M,,*59
06/08/2014	07:01:01.863	$GPGGA,070101,2439.4144,N,08035.2126,W,1,8,1.9,15,M,,M,,*53
06/08/2014	07:01:02.899	$GPGGA,070102,2439.4140,N,08035.2120,W,1,8,1.9,15,M,,M,,*52
06/08/2014	07:01:03.956	$GPGGA,070103,2439.4137,N,08035.2114,W,1,8,1.9,15,M,,M,,*54
06/08/2014	07:01:04.992	$GPGGA,070104,2439.4131,N,08035.2108,W,1,8,2.0,15,M,,M,,*52
06/08/2014	07:01:06.052	$GPGGA,070105,2439.4126,N,08035.2103,W,1,7,2.0,15,M,,M,,*51
06/08/2014	07:01:07.086	$GPGGA,070106,2439.4122,N,08035.2097,W,1,7,2.0,15,M,,M,,*5A
06/08/2014	07:01:08.144	$GPGGA,070107,2439.4118,N,08035.2091,W,1,7,2.0,15,M,,M,,*54
06/08/2014	07:01:09.180	$GPGGA,070108,2439.4115,N,08035.2085,W,1,7,2.0,15,M,,M,,*53
06/08/2014	07:01:10.227	$GPGGA,070109,2439.4109,N,08035.2080,W,1,7,2.0,15,M,,M,,*5A
06/08/2014	07:01:11.254	$GPGGA,070110,2439.4105,N,08035.2075,W,1,7,2.0,15,M,,M,,*54
06/08/2014	07:01:12.311	$GPGGA,070111,2439.4101,N,08035.2069,W,1,7,1.9,15,M,,M,,*56
06/08/2014	07:01:13.348	$GPGGA,070112,2439.4098,N,08035.2064,W,1,7,1.9,15,M,,M,,*59
06/08/2014	07:01:14.426	$GPGGA,070113,2439.4094,N,08035.2059,W,1,8,1.9,15,M,,M,,*55
06/08/2014	07:01:15.432	$GPGGA,070114,2439.4090,N,08035.2055,W,1,8,1.9,15,M,,M,,*5A
06/08/2014	07:01:16.510	$GPGGA,070115,2439.4086,N,08035.2050,W,1,8,1.9,15,M,,M,,*59
06/08/2014	07:01:17.536	$GPGGA,070116,2439.4083,N,08035.2045,W,1,8,1.9,15,M,,M,,*5B
06/08/2014	07:01:18.583	$GPGGA,070117,2439.4080,N,08035.2040,W,1,8,1.9,15,M,,M,,*5C
06/08/2014	07:01:19.631	$GPGGA,070118,2439.4077,N,08035.2036,W,1,8,1.9,15,M,,M,,*5A
06/08/2014	07:01:20.657	$GPGGA,070119,2439.4073,N,08035.2031,W,1,8,1.9,15,M,,M,,*58
06/08/2014	07:01:21.735	$GPGGA,070120,2439.4070,N,08035.2027,W,1,8,1.9,15,M,,M,,*56
06/08/2014	07:01:22.750	$GPGGA,070121,2439.4068,N,08035.2023,W,1,8,1.9,15,M,,M,,*5A
06/08/2014	07:01:23.786	$GPGGA,070122,2439.4063,N,08035.2019,W,1,8,1.9,15,M,,M,,*5B
06/08/2014	07:01:24.875	$GPGGA,070123,2439.4059,N,08035.2014,W,1,8,1.9,15,M,,M,,*5E
06/08/2014	07:01:25.903	$GPGGA,070124,2439.4057,N,08035.2011,W,1,8,1.9,15,M,,M,,*52
06/08/2014	07:01:26.939	$GPGGA,070125,2439.4052,N,08035.2007,W,1,8,1.9,15,M,,M,,*51
06/08/2014	07:01:27.975	$GPGGA,070126,2439.4048,N,08035.2003,W,1,8,1.9,15,M,,M,,*5D
06/08/2014	07:01:29.002	$GPGGA,070127,2439.4044,N,08035.2000,W,1,8,1.9,15,M,,M,,*53
06/08/2014	07:01:30.100	$GPGGA,070128,2439.4044,N,08035.2000,W,1,8,1.9,15,M,,M,,*5C
06/08/2014	07:01:31.221	$GPGGA,070129,2439.4036,N,08035.1993,W,1,8,1.9,16,M,,M,,*5B
06/08/2014	07:01:32.174	$GPGGA,070130,2439.4032,N,08035.1989,W,1,8,1.9,16,M,,M,,*5C
06/08/2014	07:01:33.325	$GPGGA,070131,2439.4028,N,08035.1986,W,1,8,1.9,16,M,,M,,*59
06/08/2014	07:01:34.257	$GPGGA,070132,2439.4025,N,08035.1982,W,1,8,1.9,16,M,,M,,*53
06/08/2014	07:01:35.326	$GPGGA,070133,2439.4021,N,08035.1979,W,1,8,1.9,16,M,,M,,*52
06/08/2014	07:01:36.333	$GPGGA,070134,2439.4016,N,08035.1976,W,1,8,1.9,16,M,,M,,*5E
06/08/2014	07:01:37.514	$GPGGA,070135,2439.4012,N,08035.1973,W,1,8,1.9,16,M,,M,,*5E
06/08/2014	07:01:38.467	$GPGGA,070136,2439.4007,N,08035.1970,W,1,8,1.9,16,M,,M,,*5A
06/08/2014	07:01:39.556	$GPGGA,070137,2439.4003,N,08035.1967,W,1,8,2.0,16,M,,M,,*53
06/08/2014	07:01:40.550	$GPGGA,070138,2439.3998,N,08035.1964,W,1,8,2.0,16,M,,M,,*53
06/08/2014	07:01:38.847	$GPGGA,070139,2439.3994,N,08035.1962,W,1,7,2.0,16,M,,M,,*57
06/08/2014	07:01:39.883	$GPGGA,070140,2439.3988,N,08035.1960,W,1,7,1.9,16,M,,M,,*5C
06/08/2014	07:01:40.951	$GPGGA,070141,2439.3983,N,08035.1957,W,1,8,2.0,16,M,,M,,*57
06/08/2014	07:01:41.873	$GPGGA,070142,2439.3978,N,08035.1954,W,1,8,2.0,16,M,,M,,*53
06/08/2014	07:01:43.040	$GPGGA,070143,2439.3974,N,08035.1953,W,1,7,2.0,16,M,,M,,*56
06/08/2014	07:01:43.999	$GPGGA,070144,2439.3969,N,08035.1950,W,1,7,2.0,16,M,,M,,*5E
06/08/2014	07:01:45.098	$GPGGA,070145,2439.3964,N,08035.1947,W,1,7,2.0,16,M,,M,,*54
06/08/2014	07:01:46.145	$GPGGA,070146,2439.3963,N,08035.1946,W,1,7,2.0,16,M,,M,,*51
06/08/2014	07:01:47.217	$GPGGA,070147,2439.3961,N,08035.1944,W,1,8,1.9,16,M,,M,,*55
06/08/2014	07:01:48.261	$GPGGA,070148,2439.3956,N,08035.1942,W,1,8,1.9,16,M,,M,,*58
06/08/2014	07:01:49.318	$GPGGA,070149,2439.3950,N,08035.1940,W,1,7,2.0,16,M,,M,,*58
06/08/2014	07:01:50.333	$GPGGA,070150,2439.3949,N,08035.1938,W,1,7,2.0,16,M,,M,,*57
06/08/2014	07:01:51.360	$GPGGA,070151,2439.3942,N,08035.1936,W,1,8,1.9,16,M,,M,,*56
06/08/2014	07:01:52.429	$GPGGA,070152,2439.3938,N,08035.1934,W,1,8,2.0,16,M,,M,,*50
06/08/2014	07:01:53.485	$GPGGA,070153,2439.3935,N,08035.1932,W,1,7,1.9,16,M,,M,,*5F
06/08/2014	07:01:54.501	$GPGGA,070154,2439.3929,N,08035.1930,W,1,7,1.9,16,M,,M,,*57
06/08/2014	07:01:55.579	$GPGGA,070155,2439.3924,N,08035.1927,W,1,7,2.0,16,M,,M,,*57
06/08/2014	07:01:56.594	$GPGGA,070156,2439.3921,N,08035.1926,W,1,7,2.0,16,M,,M,,*50
06/08/2014	07:01:57.664	$GPGGA,070157,2439.3918,N,08035.1924,W,1,8,1.9,16,M,,M,,*5C
06/08/2014	07:01:58.678	$GPGGA,070158,2439.3914,N,08035.1922,W,1,8,1.9,16,M,,M,,*59
06/08/2014	07:01:59.767	$GPGGA,070159,2439.3910,N,08035.1920,W,1,8,1.9,16,M,,M,,*5E
06/08/2014	07:02:00.803	$GPGGA,070200,2439.3906,N,08035.1917,W,1,8,1.9,16,M,,M,,*52
06/08/2014	07:02:01.851	$GPGGA,070201,2439.3902,N,08035.1915,W,1,8,1.9,16,M,,M,,*55
06/08/2014	07:02:02.877	$GPGGA,070202,2439.3898,N,08035.1913,W,1,8,1.9,16,M,,M,,*52
06/08/2014	07:02:03.913	$GPGGA,070203,2439.3895,N,08035.1911,W,1,8,1.9,16,M,,M,,*5C
06/08/2014	07:02:04.971	$GPGGA,070204,2439.3889,N,08035.1909,W,1,8,2.0,16,M,,M,,*55
06/08/2014	07:02:06.018	$GPGGA,070205,2439.3885,N,08035.1907,W,1,7,2.0,16,M,,M,,*59
06/08/2014	07:02:07.044	$GPGGA,070206,2439.3880,N,08035.1905,W,1,7,1.9,16,M,,M,,*57
06/08/2014	07:02:08.123	$GPGGA,070207,2439.3875,N,08035.1901,W,1,8,1.9,16,M,,M,,*57
06/08/2014	07:02:09.170	$GPGGA,070208,2439.3876,N,08035.1902,W,1,8,2.0,16,M,,M,,*52
06/08/2014	07:02:10.206	$GPGGA,070209,2439.3869,N,08035.1899,W,1,8,1.9,16,M,,M,,*54
06/08/2014	07:02:11.222	$GPGGA,070210,2439.3864,N,08035.1895,W,1,8,2.0,17,M,,M,,*56
06/08/2014	07:02:12.269	$GPGGA,070211,2439.3860,N,08035.1892,W,1,8,1.9,17,M,,M,,*5E
06/08/2014	07:02:13.327	$GPGGA,070212,2439.3855,N,08035.1890,W,1,8,1.9,17,M,,M,,*59
06/08/2014	07:02:14.498	$GPGGA,070213,2439.3850,N,08035.1886,W,1,8,1.9,17,M,,M,,*5A
06/08/2014	07:02:15.535	$GPGGA,070214,2439.3846,N,08035.1883,W,1,8,1.9,17,M,,M,,*5F
06/08/2014	07:02:16.572	$GPGGA,070215,2439.3841,N,08035.1880,W,1,8,1.9,17,M,,M,,*5A
06/08/2014	07:02:17.514	$GPGGA,070216,2439.3837,N,08035.1876,W,1,8,1.9,17,M,,M,,*51
06/08/2014	07:02:18.551	$GPGGA,070217,2439.3833,N,08035.1872,W,1,7,2.0,17,M,,M,,*55
06/08/2014	07:02:19.598	$GPGGA,070218,2439.3830,N,08035.1869,W,1,7,2.0,17,M,,M,,*53
06/08/2014	07:02:20.633	$GPGGA,070219,2439.3826,N,08035.1864,W,1,8,1.9,17,M,,M,,*5D
06/08/2014	07:02:21.818	$GPGGA,070220,2439.3820,N,08035.1860,W,1,8,1.9,18,M,,M,,*5A
06/08/2014	07:02:22.739	$GPGGA,070221,2439.3815,N,08035.1856,W,1,8,1.9,18,M,,M,,*58
06/08/2014	07:02:23.860	$GPGGA,070222,2439.3808,N,08035.1851,W,1,8,1.9,18,M,,M,,*50
06/08/2014	07:02:24.915	$GPGGA,070223,2439.3803,N,08035.1847,W,1,8,1.9,18,M,,M,,*5D
06/08/2014	07:02:25.996	$GPGGA,070224,2439.3797,N,08035.1842,W,1,8,1.9,18,M,,M,,*5D
06/08/2014	07:02:26.900	$GPGGA,070225,2439.3791,N,08035.1838,W,1,8,1.9,18,M,,M,,*57
06/08/2014	07:02:27.933	$GPGGA,070226,2439.3786,N,08035.1833,W,1,8,1.9,18,M,,M,,*59
06/08/2014	07:02:28.991	$GPGGA,070227,2439.3779,N,08035.1828,W,1,8,1.9,18,M,,M,,*52
06/08/2014	07:02:30.153	$GPGGA,070228,2439.3774,N,08035.1824,W,1,8,1.9,18,M,,M,,*5C
06/08/2014	07:02:31.210	$GPGGA,070229,2439.3768,N,08035.1819,W,1,8,1.9,18,M,,M,,*5E
06/08/2014	07:02:32.226	$GPGGA,070230,2439.3762,N,08035.1815,W,1,8,1.9,18,M,,M,,*50
06/08/2014	07:02:33.303	$GPGGA,070231,2439.3756,N,08035.1810,W,1,8,1.9,18,M,,M,,*53
06/08/2014	07:02:34.344	$GPGGA,070232,2439.3751,N,08035.1805,W,1,8,1.9,18,M,,M,,*53
06/08/2014	07:02:35.367	$GPGGA,070233,2439.3745,N,08035.1801,W,1,8,1.9,18,M,,M,,*53
06/08/2014	07:02:36.413	$GPGGA,070234,2439.3740,N,08035.1796,W,1,8,1.9,18,M,,M,,*50
06/08/2014	07:02:37.450	$GPGGA,070235,2439.3734,N,08035.1791,W,1,8,1.9,18,M,,M,,*55
06/08/2014	07:02:38.507	$GPGGA,070236,2439.3729,N,08035.1787,W,1,8,1.9,18,M,,M,,*5D
06/08/2014	07:02:39.567	$GPGGA,070237,2439.3725,N,08035.1782,W,1,8,1.9,18,M,,M,,*55
06/08/2014	07:02:40.581	$GPGGA,070238,2439.3718,N,08035.1778,W,1,8,2.0,18,M,,M,,*5B
06/08/2014	07:02:38.825	$GPGGA,070239,2439.3712,N,08035.1774,W,1,8,1.9,18,M,,M,,*56
06/08/2014	07:02:39.861	$GPGGA,070240,2439.3707,N,08035.1769,W,1,8,1.9,18,M,,M,,*50
06/08/2014	07:02:40.919	$GPGGA,070241,2439.3703,N,08035.1765,W,1,8,1.9,18,M,,M,,*59
06/08/2014	07:02:41.935	$GPGGA,070242,2439.3698,N,08035.1760,W,1,8,1.9,18,M,,M,,*5C
06/08/2014	07:02:43.003	$GPGGA,070243,2439.3693,N,08035.1756,W,1,8,1.9,18,M,,M,,*53
06/08/2014	07:02:44.039	$GPGGA,070244,2439.3689,N,08035.1752,W,1,8,1.9,18,M,,M,,*5B
06/08/2014	07:02:45.065	$GPGGA,070245,2439.3683,N,08035.1748,W,1,8,1.9,18,M,,M,,*5B
06/08/2014	07:02:46.113	$GPGGA,070246,2439.3678,N,08035.1743,W,1,8,1.9,18,M,,M,,*57
06/08/2014	07:02:47.181	$GPGGA,070247,2439.3674,N,08035.1739,W,1,8,1.9,18,M,,M,,*57
06/08/2014	07:02:48.237	$GPGGA,070248,2439.3669,N,08035.1735,W,1,8,1.9,18,M,,M,,*58
06/08/2014	07:02:49.284	$GPGGA,070249,2439.3664,N,08035.1731,W,1,8,1.9,18,M,,M,,*50
06/08/2014	07:02:50.300	$GPGGA,070250,2439.3660,N,08035.1727,W,1,8,1.9,18,M,,M,,*5B
06/08/2014	07:02:51.347	$GPGGA,070251,2439.3654,N,08035.1723,W,1,8,1.9,18,M,,M,,*59
06/08/2014	07:02:52.415	$GPGGA,070252,2439.3649,N,08035.1719,W,1,8,1.9,18,M,,M,,*5F
06/08/2014	07:02:53.431	$GPGGA,070253,2439.3643,N,08035.1715,W,1,8,1.9,18,M,,M,,*58
06/08/2014	07:02:54.467	$GPGGA,070254,2439.3638,N,08035.1711,W,1,8,2.0,18,M,,M,,*5D
06/08/2014	07:02:55.567	$GPGGA,070255,2439.3632,N,08035.1708,W,1,7,2.0,18,M,,M,,*51
06/08/2014	07:02:56.583	$GPGGA,070256,2439.3627,N,08035.1704,W,1,7,1.9,18,M,,M,,*50
06/08/2014	07:02:57.640	$GPGGA,070257,2439.3622,N,08035.1700,W,1,7,2.0,18,M,,M,,*5A
06/08/2014	07:02:58.677	$GPGGA,070258,2439.3616,N,08035.1697,W,1,7,2.0,18,M,,M,,*5D
06/08/2014	07:02:59.745	$GPGGA,070259,2439.3611,N,08035.1694,W,1,7,2.0,18,M,,M,,*58
06/08/2014	07:03:00.760	$GPGGA,070300,2439.3606,N,08035.1690,W,1,7,2.0,18,M,,M,,*57
06/08/2014	07:03:01.787	$GPGGA,070301,2439.3600,N,08035.1687,W,1,7,2.0,18,M,,M,,*56
06/08/2014	07:03:02.844	$GPGGA,070302,2439.3595,N,08035.1683,W,1,7,2.0,18,M,,M,,*5E
06/08/2014	07:03:03.912	$GPGGA,070303,2439.3591,N,08035.1680,W,1,7,2.0,18,M,,M,,*58
06/08/2014	07:03:04.950	$GPGGA,070304,2439.3586,N,08035.1677,W,1,7,2.0,18,M,,M,,*51
06/08/2014	07:03:05.985	$GPGGA,070305,2439.3580,N,08035.1674,W,1,8,1.9,18,M,,M,,*50
06/08/2014	07:03:07.126	$GPGGA,070306,2439.3574,N,08035.1670,W,1,8,2.0,17,M,,M,,*59
06/08/2014	07:03:08.183	$GPGGA,070307,2439.3569,N,08035.1666,W,1,7,2.0,17,M,,M,,*5C
06/08/2014	07:03:09.154	$GPGGA,070308,2439.3563,N,08035.1662,W,1,7,2.0,17,M,,M,,*5D
06/08/2014	07:03:10.172	$GPGGA,070309,2439.3560,N,08035.1660,W,1,7,2.0,17,M,,M,,*5D
06/08/2014	07:03:11.304	$GPGGA,070310,2439.3555,N,08035.1657,W,1,7,1.9,17,M,,M,,*5D
06/08/2014	07:03:12.242	$GPGGA,070311,2439.3549,N,08035.1653,W,1,7,2.0,17,M,,M,,*5F
06/08/2014	07:03:13.419	$GPGGA,070312,2439.3544,N,08035.1650,W,1,7,2.0,17,M,,M,,*52
06/08/2014	07:03:14.361	$GPGGA,070313,2439.3538,N,08035.1646,W,1,8,1.9,17,M,,M,,*5A
06/08/2014	07:03:15.388	$GPGGA,070314,2439.3533,N,08035.1643,W,1,8,2.0,17,M,,M,,*59
06/08/2014	07:03:16.451	$GPGGA,070315,2439.3527,N,08035.1638,W,1,8,1.9,17,M,,M,,*5B
06/08/2014	07:03:17.597	$GPGGA,070316,2439.3521,N,08035.1635,W,1,8,1.9,17,M,,M,,*53
06/08/2014	07:03:18.529	$GPGGA,070317,2439.3516,N,08035.1631,W,1,7,2.0,17,M,,M,,*57
06/08/2014	07:03:19.660	$GPGGA,070318,2439.3512,N,08035.1628,W,1,7,1.9,17,M,,M,,*5E
06/08/2014	07:03:20.708	$GPGGA,070319,2439.3506,N,08035.1624,W,1,8,1.9,17,M,,M,,*59
06/08/2014	07:03:21.764	$GPGGA,070320,2439.3501,N,08035.1621,W,1,8,1.9,17,M,,M,,*51
06/08/2014	07:03:22.822	$GPGGA,070321,2439.3495,N,08035.1617,W,1,8,1.9,17,M,,M,,*59
06/08/2014	07:03:23.849	$GPGGA,070322,2439.3490,N,08035.1613,W,1,8,1.9,17,M,,M,,*5B
06/08/2014	07:03:24.894	$GPGGA,070323,2439.3485,N,08035.1609,W,1,8,1.9,17,M,,M,,*55
06/08/2014	07:03:25.941	$GPGGA,070324,2439.3480,N,08035.1606,W,1,8,1.9,17,M,,M,,*58
06/08/2014	07:03:26.999	$GPGGA,070325,2439.3475,N,08035.1602,W,1,8,1.9,17,M,,M,,*57
06/08/2014	07:03:28.025	$GPGGA,070326,2439.3469,N,08035.1599,W,1,8,1.9,17,M,,M,,*58
06/08/2014	07:03:29.094	$GPGGA,070327,2439.3465,N,08035.1595,W,1,8,1.9,17,M,,M,,*59
06/08/2014	07:03:30.161	$GPGGA,070328,2439.3461,N,08035.1592,W,1,8,2.1,17,M,,M,,*5E
06/08/2014	07:03:31.177	$GPGGA,070329,2439.3455,N,08035.1588,W,1,8,1.9,17,M,,M,,*58
06/08/2014	07:03:32.203	$GPGGA,070330,2439.3450,N,08035.1584,W,1,8,1.9,17,M,,M,,*59
06/08/2014	07:03:33.271	$GPGGA,070331,2439.3445,N,08035.1580,W,1,8,1.9,17,M,,M,,*58
06/08/2014	07:03:34.290	$GPGGA,070332,2439.3440,N,08035.1576,W,1,8,1.9,17,M,,M,,*57
06/08/2014	07:03:35.309	$GPGGA,070333,2439.3436,N,08035.1572,W,1,8,1.9,17,M,,M,,*53
06/08/2014	07:03:36.307	$GPGGA,070334,2439.3429,N,08035.1567,W,1,8,1.9,17,M,,M,,*5E
06/08/2014	07:03:37.346	$GPGGA,070335,2439.3425,N,08035.1563,W,1,8,1.9,17,M,,M,,*57
06/08/2014	07:03:38.354	$GPGGA,070336,2439.3418,N,08035.1558,W,1,8,1.9,17,M,,M,,*52
06/08/2014	07:03:39.342	$GPGGA,070337,2439.3414,N,08035.1554,W,1,8,1.9,17,M,,M,,*53
06/08/2014	07:03:40.371	$GPGGA,070338,2439.3408,N,08035.1550,W,1,8,1.9,17,M,,M,,*55
06/08/2014	07:03:38.795	$GPGGA,070339,2439.3402,N,08035.1546,W,1,8,1.9,17,M,,M,,*59
06/08/2014	07:03:39.783	$GPGGA,070340,2439.3397,N,08035.1542,W,1,8,1.9,17,M,,M,,*58
06/08/2014	07:03:40.831	$GPGGA,070341,2439.3391,N,08035.1538,W,1,8,1.9,17,M,,M,,*52
06/08/2014	07:03:41.829	$GPGGA,070342,2439.3385,N,08035.1534,W,1,8,1.9,17,M,,M,,*58
06/08/2014	07:03:42.858	$GPGGA,070343,2439.3380,N,08035.1529,W,1,8,1.9,17,M,,M,,*50
06/08/2014	07:03:43.856	$GPGGA,070344,2439.3375,N,08035.1525,W,1,8,1.9,17,M,,M,,*51
06/08/2014	07:03:44.895	$GPGGA,070345,2439.3369,N,08035.1521,W,1,8,1.9,17,M,,M,,*59
06/08/2014	07:03:45.883	$GPGGA,070346,2439.3363,N,08035.1516,W,1,8,1.9,17,M,,M,,*54
06/08/2014	07:03:46.932	$GPGGA,070347,2439.3358,N,08035.1512,W,1,8,1.9,17,M,,M,,*59
06/08/2014	07:03:47.920	$GPGGA,070348,2439.3353,N,08035.1508,W,1,8,1.9,17,M,,M,,*56
06/08/2014	07:03:48.918	$GPGGA,070349,2439.3346,N,08035.1504,W,1,8,1.9,17,M,,M,,*5F
06/08/2014	07:03:49.957	$GPGGA,070350,2439.3342,N,08035.1499,W,1,8,1.9,18,M,,M,,*59
06/08/2014	07:03:50.965	$GPGGA,070351,2439.3335,N,08035.1495,W,1,8,1.9,18,M,,M,,*54
06/08/2014	07:03:51.994	$GPGGA,070352,2439.3331,N,08035.1491,W,1,8,1.9,18,M,,M,,*57
06/08/2014	07:03:53.012	$GPGGA,070353,2439.3324,N,08035.1487,W,1,8,1.9,18,M,,M,,*55
06/08/2014	07:03:54.126	$GPGGA,070354,2439.3318,N,08035.1482,W,1,8,1.9,18,M,,M,,*58
06/08/2014	07:03:55.037	$GPGGA,070355,2439.3313,N,08035.1478,W,1,8,1.9,18,M,,M,,*57
06/08/2014	07:03:56.063	$GPGGA,070356,2439.3307,N,08035.1474,W,1,8,1.9,18,M,,M,,*5D
06/08/2014	07:03:57.058	$GPGGA,070357,2439.3302,N,08035.1470,W,1,8,1.9,18,M,,M,,*5D
06/08/2014	07:03:58.102	$GPGGA,070358,2439.3296,N,08035.1466,W,1,8,1.9,18,M,,M,,*59
06/08/2014	07:03:59.117	$GPGGA,070359,2439.3290,N,08035.1462,W,1,8,1.9,18,M,,M,,*5A
06/08/2014	07:04:00.274	$GPGGA,070400,2439.3285,N,08035.1459,W,1,8,2.0,18,M,,M,,*57
06/08/2014	07:04:01.134	$GPGGA,070401,2439.3279,N,08035.1454,W,1,8,1.9,18,M,,M,,*52
06/08/2014	07:04:02.269	$GPGGA,070402,2439.3273,N,08035.1449,W,1,8,2.0,18,M,,M,,*5D
06/08/2014	07:04:03.350	$GPGGA,070403,2439.3267,N,08035.1445,W,1,8,2.0,17,M,,M,,*5A
06/08/2014	07:04:04.194	$GPGGA,070404,2439.3261,N,08035.1441,W,1,8,2.0,17,M,,M,,*5F
06/08/2014	07:04:05.376	$GPGGA,070405,2439.3255,N,08035.1437,W,1,7,2.0,17,M,,M,,*57
06/08/2014	07:04:06.223	$GPGGA,070406,2439.3249,N,08035.1433,W,1,7,2.0,17,M,,M,,*5D
06/08/2014	07:04:07.219	$GPGGA,070407,2439.3243,N,08035.1429,W,1,7,2.0,17,M,,M,,*5D
06/08/2014	07:04:08.401	$GPGGA,070408,2439.3238,N,08035.1425,W,1,7,1.9,17,M,,M,,*58
06/08/2014	07:04:09.440	$GPGGA,070409,2439.3232,N,08035.1421,W,1,8,2.0,17,M,,M,,*52
06/08/2014	07:04:10.366	$GPGGA,070410,2439.3227,N,08035.1416,W,1,8,2.0,17,M,,M,,*5A
06/08/2014	07:04:11.487	$GPGGA,070411,2439.3221,N,08035.1412,W,1,7,2.1,17,M,,M,,*57
06/08/2014	07:04:12.485	$GPGGA,070412,2439.3215,N,08035.1408,W,1,7,2.1,17,M,,M,,*58
06/08/2014	07:04:13.524	$GPGGA,070413,2439.3210,N,08035.1404,W,1,7,2.1,17,M,,M,,*50
06/08/2014	07:04:14.463	$GPGGA,070414,2439.3204,N,08035.1400,W,1,7,2.1,17,M,,M,,*56
06/08/2014	07:04:15.561	$GPGGA,070415,2439.3199,N,08035.1396,W,1,7,2.1,17,M,,M,,*58
06/08/2014	07:04:16.510	$GPGGA,070416,2439.3194,N,08035.1392,W,1,7,2.1,17,M,,M,,*52
06/08/2014	07:04:17.587	$GPGGA,070417,2439.3188,N,08035.1388,W,1,7,2.1,17,M,,M,,*55
06/08/2014	07:04:18.525	$GPGGA,070418,2439.3183,N,08035.1384,W,1,7,2.1,17,M,,M,,*5D
06/08/2014	07:04:19.624	$GPGGA,070419,2439.3180,N,08035.1383,W,1,7,2.1,17,M,,M,,*58
06/08/2014	07:04:20.573	$GPGGA,070420,2439.3176,N,08035.1379,W,1,7,1.9,17,M,,M,,*55
06/08/2014	07:04:21.549	$GPGGA,070421,2439.3169,N,08035.1375,W,1,7,2.1,17,M,,M,,*5D
06/08/2014	07:04:22.587	$GPGGA,070422,2439.3165,N,08035.1371,W,1,7,2.1,17,M,,M,,*56
06/08/2014	07:04:23.647	$GPGGA,070423,2439.3159,N,08035.1368,W,1,7,2.1,16,M,,M,,*51
06/08/2014	07:04:24.656	$GPGGA,070424,2439.3154,N,08035.1364,W,1,7,2.1,16,M,,M,,*57
06/08/2014	07:04:25.735	$GPGGA,070425,2439.3150,N,08035.1361,W,1,7,1.9,16,M,,M,,*5C
06/08/2014	07:04:26.631	$GPGGA,070426,2439.3144,N,08035.1357,W,1,7,1.9,16,M,,M,,*5F
06/08/2014	07:04:27.741	$GPGGA,070427,2439.3141,N,08035.1354,W,1,7,1.9,16,M,,M,,*58
06/08/2014	07:04:28.699	$GPGGA,070428,2439.3142,N,08035.1355,W,1,7,1.9,16,M,,M,,*55
06/08/2014	07:04:29.676	$GPGGA,070429,2439.3137,N,08035.1351,W,1,8,1.9,16,M,,M,,*5D
06/08/2014	07:04:30.735	$GPGGA,070430,2439.3131,N,08035.1347,W,1,8,2.1,16,M,,M,,*5F
06/08/2014	07:04:31.815	$GPGGA,070431,2439.3125,N,08035.1343,W,1,7,2.1,16,M,,M,,*50
06/08/2014	07:04:32.772	$GPGGA,070432,2439.3120,N,08035.1339,W,1,7,2.1,16,M,,M,,*5B
06/08/2014	07:04:33.851	$GPGGA,070433,2439.3115,N,08035.1336,W,1,8,1.9,16,M,,M,,*57
06/08/2014	07:04:34.757	$GPGGA,070434,2439.3111,N,08035.1332,W,1,8,1.9,16,M,,M,,*50
06/08/2014	07:04:35.888	$GPGGA,070435,2439.3107,N,08035.1330,W,1,8,1.9,16,M,,M,,*54
06/08/2014	07:04:36.856	$GPGGA,070436,2439.3102,N,08035.1326,W,1,8,1.9,16,M,,M,,*55
06/08/2014	07:04:37.925	$GPGGA,070437,2439.3098,N,08035.1323,W,1,8,1.9,17,M,,M,,*52
06/08/2014	07:04:38.933	$GPGGA,070438,2439.3093,N,08035.1319,W,1,8,2.1,17,M,,M,,*54
06/08/2014	07:04:38.813	$GPGGA,070439,2439.3087,N,08035.1316,W,1,7,2.1,17,M,,M,,*50
06/08/2014	07:04:39.801	$GPGGA,070440,2439.3083,N,08035.1313,W,1,7,2.1,17,M,,M,,*5F
06/08/2014	07:04:40.851	$GPGGA,070441,2439.3079,N,08035.1310,W,1,8,1.9,17,M,,M,,*5C
06/08/2014	07:04:41.808	$GPGGA,070442,2439.3074,N,08035.1306,W,1,8,2.1,17,M,,M,,*5E
06/08/2014	07:04:42.918	$GPGGA,070443,2439.3069,N,08035.1302,W,1,7,2.1,17,M,,M,,*58
06/08/2014	07:04:43.865	$GPGGA,070444,2439.3066,N,08035.1301,W,1,7,1.9,17,M,,M,,*58
06/08/2014	07:04:44.928	$GPGGA,070445,2439.3062,N,08035.1297,W,1,8,1.9,17,M,,M,,*5C
06/08/2014	07:04:45.871	$GPGGA,070446,2439.3057,N,08035.1293,W,1,8,2.1,17,M,,M,,*56
06/08/2014	07:04:46.962	$GPGGA,070447,2439.3053,N,08035.1290,W,1,7,2.1,17,M,,M,,*5F
06/08/2014	07:04:47.939	$GPGGA,070448,2439.3047,N,08035.1286,W,1,7,2.1,17,M,,M,,*52
06/08/2014	07:04:49.039	$GPGGA,070449,2439.3042,N,08035.1282,W,1,7,2.1,17,M,,M,,*52
06/08/2014	07:04:50.017	$GPGGA,070450,2439.3038,N,08035.1278,W,1,7,2.1,17,M,,M,,*52
06/08/2014	07:04:51.025	$GPGGA,070451,2439.3035,N,08035.1275,W,1,7,2.1,17,M,,M,,*53
06/08/2014	07:04:51.992	$GPGGA,070452,2439.3029,N,08035.1272,W,1,7,2.1,17,M,,M,,*5A
06/08/2014	07:04:53.061	$GPGGA,070453,2439.3025,N,08035.1268,W,1,7,2.1,17,M,,M,,*5C
06/08/2014	07:04:54.018	$GPGGA,070454,2439.3021,N,08035.1264,W,1,7,2.1,16,M,,M,,*52
06/08/2014	07:04:55.120	$GPGGA,070455,2439.3017,N,08035.1261,W,1,7,2.1,16,M,,M,,*53
06/08/2014	07:04:56.147	$GPGGA,070456,2439.3013,N,08035.1258,W,1,7,2.1,16,M,,M,,*5E
06/08/2014	07:04:57.156	$GPGGA,070457,2439.3009,N,08035.1254,W,1,7,2.1,16,M,,M,,*58
06/08/2014	07:04:58.154	$GPGGA,070458,2439.3006,N,08035.1251,W,1,7,2.1,16,M,,M,,*5D
06/08/2014	07:04:59.172	$GPGGA,070459,2439.3002,N,08035.1247,W,1,7,2.1,16,M,,M,,*5F
06/08/2014	07:05:00.201	$GPGGA,070500,2439.2999,N,08035.1243,W,1,7,2.1,16,M,,M,,*5C
06/08/2014	07:05:01.220	$GPGGA,070501,2439.2995,N,08035.1241,W,1,7,1.9,16,M,,M,,*58
06/08/2014	07:05:02.217	$GPGGA,070502,2439.2991,N,08035.1238,W,1,7,1.9,16,M,,M,,*51
06/08/2014	07:05:03.317	$GPGGA,070503,2439.2988,N,08035.1235,W,1,8,1.9,16,M,,M,,*5A
06/08/2014	07:05:04.266	$GPGGA,070504,2439.2985,N,08035.1232,W,1,8,1.9,16,M,,M,,*57
06/08/2014	07:05:05.295	$GPGGA,070505,2439.2984,N,08035.1230,W,1,8,1.9,16,M,,M,,*55
06/08/2014	07:05:06.271	$GPGGA,070506,2439.2980,N,08035.1227,W,1,8,1.9,16,M,,M,,*54
06/08/2014	07:05:07.320	$GPGGA,070507,2439.2977,N,08035.1224,W,1,8,1.9,16,M,,M,,*5E
06/08/2014	07:05:08.348	$GPGGA,070508,2439.2974,N,08035.1222,W,1,8,1.9,16,M,,M,,*54
06/08/2014	07:05:09.356	$GPGGA,070509,2439.2971,N,08035.1219,W,1,8,1.9,16,M,,M,,*58
06/08/2014	07:05:10.344	$GPGGA,070510,2439.2968,N,08035.1216,W,1,8,1.9,16,M,,M,,*57
06/08/2014	07:05:11.444	$GPGGA,070511,2439.2966,N,08035.1212,W,1,8,1.9,16,M,,M,,*5C
06/08/2014	07:05:12.391	$GPGGA,070512,2439.2962,N,08035.1210,W,1,8,1.9,16,M,,M,,*59
06/08/2014	07:05:13.460	$GPGGA,070513,2439.2959,N,08035.1207,W,1,8,1.9,16,M,,M,,*56
06/08/2014	07:05:14.408	$GPGGA,070514,2439.2956,N,08035.1204,W,1,8,1.9,16,M,,M,,*5D
06/08/2014	07:05:15.478	$GPGGA,070515,2439.2953,N,08035.1201,W,1,8,1.9,16,M,,M,,*5C
06/08/2014	07:05:16.465	$GPGGA,070516,2439.2950,N,08035.1198,W,1,8,1.9,16,M,,M,,*5F
06/08/2014	07:05:17.504	$GPGGA,070517,2439.2948,N,08035.1195,W,1,8,1.9,16,M,,M,,*5A
06/08/2014	07:05:18.492	$GPGGA,070518,2439.2944,N,08035.1192,W,1,8,1.9,17,M,,M,,*5F
06/08/2014	07:05:19.510	$GPGGA,070519,2439.2944,N,08035.1192,W,1,8,1.9,17,M,,M,,*5E
06/08/2014	07:05:20.519	$GPGGA,070520,2439.2941,N,08035.1186,W,1,8,1.9,17,M,,M,,*54
06/08/2014	07:05:21.590	$GPGGA,070521,2439.2938,N,08035.1183,W,1,7,1.9,17,M,,M,,*51
06/08/2014	07:05:22.556	$GPGGA,070522,2439.2938,N,08035.1183,W,1,7,1.9,17,M,,M,,*52
06/08/2014	07:05:23.615	$GPGGA,070523,2439.2934,N,08035.1178,W,1,7,2.1,17,M,,M,,*50
06/08/2014	07:05:24.613	$GPGGA,070524,2439.2931,N,08035.1175,W,1,7,2.1,17,M,,M,,*5F
06/08/2014	07:05:25.644	$GPGGA,070525,2439.2930,N,08035.1172,W,1,7,2.1,17,M,,M,,*58
06/08/2014	07:05:26.619	$GPGGA,070526,2439.2926,N,08035.1169,W,1,7,2.1,17,M,,M,,*56
06/08/2014	07:05:27.658	$GPGGA,070527,2439.2926,N,08035.1169,W,1,7,2.1,17,M,,M,,*57
06/08/2014	07:05:28.666	$GPGGA,070528,2439.2921,N,08035.1164,W,1,7,2.1,17,M,,M,,*52
06/08/2014	07:05:29.725	$GPGGA,070529,2439.2919,N,08035.1161,W,1,7,2.1,18,M,,M,,*52
06/08/2014	07:05:30.774	$GPGGA,070530,2439.2916,N,08035.1159,W,1,7,2.1,18,M,,M,,*5E
06/08/2014	07:05:31.762	$GPGGA,070531,2439.2914,N,08035.1155,W,1,8,2.1,18,M,,M,,*5E
06/08/2014	07:05:32.740	$GPGGA,070532,2439.2912,N,08035.1153,W,1,8,2.1,18,M,,M,,*5D
06/08/2014	07:05:33.748	$GPGGA,070533,2439.2912,N,08035.1153,W,1,7,2.1,18,M,,M,,*53
06/08/2014	07:05:34.736	$GPGGA,070534,2439.2909,N,08035.1148,W,1,7,1.9,18,M,,M,,*5F
06/08/2014	07:05:35.785	$GPGGA,070535,2439.2909,N,08035.1148,W,1,8,1.9,18,M,,M,,*51
06/08/2014	07:05:36.783	$GPGGA,070536,2439.2903,N,08035.1143,W,1,8,1.9,18,M,,M,,*53
06/08/2014	07:05:37.812	$GPGGA,070537,2439.2899,N,08035.1140,W,1,7,2.1,18,M,,M,,*57
06/08/2014	07:05:38.912	$GPGGA,070538,2439.2896,N,08035.1137,W,1,7,2.1,18,M,,M,,*57
06/08/2014	07:05:38.732	$GPGGA,070539,2439.2896,N,08035.1137,W,1,7,2.1,18,M,,M,,*56
06/08/2014	07:05:39.835	$GPGGA,070540,2439.2892,N,08035.1133,W,1,7,2.1,18,M,,M,,*58
06/08/2014	07:05:40.840	$GPGGA,070541,2439.2890,N,08035.1130,W,1,8,1.9,18,M,,M,,*5C
06/08/2014	07:05:41.869	$GPGGA,070542,2439.2888,N,08035.1128,W,1,8,1.9,19,M,,M,,*5E
06/08/2014	07:05:42.917	$GPGGA,070543,2439.2887,N,08035.1126,W,1,8,1.9,19,M,,M,,*5E
06/08/2014	07:05:43.905	$GPGGA,070544,2439.2883,N,08035.1123,W,1,8,1.9,19,M,,M,,*58
06/08/2014	07:05:44.913	$GPGGA,070545,2439.2879,N,08035.1120,W,1,7,2.1,19,M,,M,,*5B
06/08/2014	07:05:45.932	$GPGGA,070546,2439.2877,N,08035.1118,W,1,7,2.1,19,M,,M,,*5D
06/08/2014	07:05:46.963	$GPGGA,070547,2439.2874,N,08035.1116,W,1,8,1.9,19,M,,M,,*55
06/08/2014	07:05:47.979	$GPGGA,070548,2439.2872,N,08035.1114,W,1,8,1.9,19,M,,M,,*5E
06/08/2014	07:05:49.007	$GPGGA,070549,2439.2868,N,08035.1111,W,1,8,1.9,19,M,,M,,*51
06/08/2014	07:05:49.985	$GPGGA,070550,2439.2865,N,08035.1108,W,1,8,1.9,19,M,,M,,*5C
06/08/2014	07:05:51.036	$GPGGA,070551,2439.2862,N,08035.1106,W,1,8,1.9,19,M,,M,,*54
06/08/2014	07:05:52.043	$GPGGA,070552,2439.2860,N,08035.1104,W,1,8,1.9,19,M,,M,,*57
06/08/2014	07:05:53.073	$GPGGA,070553,2439.2858,N,08035.1101,W,1,8,1.9,19,M,,M,,*58
06/08/2014	07:05:54.069	$GPGGA,070554,2439.2854,N,08035.1099,W,1,8,1.9,19,M,,M,,*53
06/08/2014	07:05:55.078	$GPGGA,070555,2439.2852,N,08035.1097,W,1,8,1.9,19,M,,M,,*5A
06/08/2014	07:05:56.106	$GPGGA,070556,2439.2849,N,08035.1094,W,1,8,1.9,19,M,,M,,*50
06/08/2014	07:05:57.104	$GPGGA,070557,2439.2845,N,08035.1092,W,1,8,1.9,19,M,,M,,*5B
06/08/2014	07:05:58.123	$GPGGA,070558,2439.2843,N,08035.1091,W,1,8,1.9,20,M,,M,,*5B
06/08/2014	07:05:59.173	$GPGGA,070559,2439.2840,N,08035.1088,W,1,8,1.9,20,M,,M,,*51
06/08/2014	07:06:00.181	$GPGGA,070600,2439.2837,N,08035.1086,W,1,8,2.1,20,M,,M,,*5B
06/08/2014	07:06:01.210	$GPGGA,070601,2439.2834,N,08035.1084,W,1,8,1.9,20,M,,M,,*50
06/08/2014	07:06:02.196	$GPGGA,070602,2439.2832,N,08035.1083,W,1,8,2.1,20,M,,M,,*59
06/08/2014	07:06:03.235	$GPGGA,070603,2439.2831,N,08035.1081,W,1,8,1.9,20,M,,M,,*52
06/08/2014	07:06:04.233	$GPGGA,070604,2439.2829,N,08035.1079,W,1,8,1.9,20,M,,M,,*5B
06/08/2014	07:06:05.231	$GPGGA,070605,2439.2825,N,08035.1078,W,1,7,2.1,20,M,,M,,*53
06/08/2014	07:06:06.260	$GPGGA,070606,2439.2823,N,08035.1076,W,1,7,1.9,20,M,,M,,*53
06/08/2014	07:06:07.309	$GPGGA,070607,2439.2820,N,08035.1075,W,1,8,1.9,20,M,,M,,*5D
06/08/2014	07:06:08.297	$GPGGA,070608,2439.2818,N,08035.1073,W,1,8,1.9,20,M,,M,,*5F
06/08/2014	07:06:09.315	$GPGGA,070609,2439.2815,N,08035.1072,W,1,8,1.9,20,M,,M,,*52
06/08/2014	07:06:10.313	$GPGGA,070610,2439.2812,N,08035.1071,W,1,8,1.9,20,M,,M,,*5E
06/08/2014	07:06:11.342	$GPGGA,070611,2439.2809,N,08035.1069,W,1,8,1.9,20,M,,M,,*5C
06/08/2014	07:06:12.371	$GPGGA,070612,2439.2807,N,08035.1067,W,1,8,1.9,20,M,,M,,*5F
06/08/2014	07:06:13.369	$GPGGA,070613,2439.2804,N,08035.1066,W,1,8,1.9,20,M,,M,,*5C
06/08/2014	07:06:14.499	$GPGGA,070614,2439.2801,N,08035.1064,W,1,8,1.9,20,M,,M,,*5C
06/08/2014	07:06:15.447	$GPGGA,070615,2439.2798,N,08035.1062,W,1,8,1.9,20,M,,M,,*54
06/08/2014	07:06:16.445	$GPGGA,070616,2439.2796,N,08035.1061,W,1,8,1.9,20,M,,M,,*5A
06/08/2014	07:06:17.453	$GPGGA,070617,2439.2793,N,08035.1060,W,1,8,1.9,20,M,,M,,*5F
06/08/2014	07:06:18.460	$GPGGA,070618,2439.2790,N,08035.1058,W,1,8,1.9,20,M,,M,,*58
06/08/2014	07:06:19.489	$GPGGA,070619,2439.2789,N,08035.1056,W,1,8,1.9,20,M,,M,,*5F
06/08/2014	07:06:20.497	$GPGGA,070620,2439.2786,N,08035.1054,W,1,8,1.9,20,M,,M,,*58
06/08/2014	07:06:21.638	$GPGGA,070621,2439.2783,N,08035.1052,W,1,8,1.9,20,M,,M,,*5A
06/08/2014	07:06:22.616	$GPGGA,070622,2439.2780,N,08035.1051,W,1,8,1.9,20,M,,M,,*59
06/08/2014	07:06:23.553	$GPGGA,070623,2439.2778,N,08035.1050,W,1,8,1.9,20,M,,M,,*5E
06/08/2014	07:06:24.571	$GPGGA,070624,2439.2775,N,08035.1048,W,1,8,1.9,20,M,,M,,*5D
06/08/2014	07:06:25.561	$GPGGA,070625,2439.2773,N,08035.1047,W,1,8,1.9,20,M,,M,,*55
06/08/2014	07:06:26.578	$GPGGA,070626,2439.2769,N,08035.1045,W,1,8,1.9,20,M,,M,,*5F
06/08/2014	07:06:27.698	$GPGGA,070627,2439.2767,N,08035.1043,W,1,8,1.9,20,M,,M,,*56
06/08/2014	07:06:28.737	$GPGGA,070628,2439.2764,N,08035.1044,W,1,8,1.9,20,M,,M,,*5D
06/08/2014	07:06:29.745	$GPGGA,070629,2439.2762,N,08035.1041,W,1,8,1.9,20,M,,M,,*5F
06/08/2014	07:06:30.754	$GPGGA,070630,2439.2760,N,08035.1040,W,1,8,1.9,20,M,,M,,*54
06/08/2014	07:06:31.762	$GPGGA,070631,2439.2757,N,08035.1038,W,1,8,1.9,20,M,,M,,*5E
06/08/2014	07:06:32.801	$GPGGA,070632,2439.2753,N,08035.1037,W,1,8,1.9,20,M,,M,,*56
06/08/2014	07:06:33.810	$GPGGA,070633,2439.2750,N,08035.1035,W,1,8,1.9,20,M,,M,,*56
06/08/2014	07:06:34.817	$GPGGA,070634,2439.2748,N,08035.1034,W,1,8,1.9,20,M,,M,,*59
06/08/2014	07:06:35.836	$GPGGA,070635,2439.2744,N,08035.1033,W,1,8,1.9,20,M,,M,,*53
06/08/2014	07:06:36.865	$GPGGA,070636,2439.2742,N,08035.1031,W,1,8,1.9,20,M,,M,,*54
06/08/2014	07:06:37.862	$GPGGA,070637,2439.2738,N,08035.1030,W,1,7,2.1,20,M,,M,,*5D
06/08/2014	07:06:38.880	$GPGGA,070638,2439.2735,N,08035.1028,W,1,7,1.9,20,M,,M,,*5D
06/08/2014	07:06:38.810	$GPGGA,070639,2439.2732,N,08035.1026,W,1,8,1.9,20,M,,M,,*5A
06/08/2014	07:06:39.808	$GPGGA,070640,2439.2730,N,08035.1025,W,1,8,2.1,20,M,,M,,*5E
06/08/2014	07:06:40.849	$GPGGA,070641,2439.2726,N,08035.1023,W,1,7,2.1,20,M,,M,,*51
06/08/2014	07:06:41.845	$GPGGA,070642,2439.2724,N,08035.1022,W,1,7,2.1,20,M,,M,,*51
06/08/2014	07:06:42.874	$GPGGA,070643,2439.2721,N,08035.1021,W,1,7,2.1,20,M,,M,,*56
06/08/2014	07:06:43.882	$GPGGA,070644,2439.2719,N,08035.1019,W,1,7,2.0,20,M,,M,,*50
06/08/2014	07:06:44.921	$GPGGA,070645,2439.2717,N,08035.1019,W,1,8,2.0,20,M,,M,,*50
06/08/2014	07:06:45.899	$GPGGA,070646,2439.2715,N,08035.1017,W,1,8,2.0,20,M,,M,,*5F
06/08/2014	07:06:46.948	$GPGGA,070647,2439.2713,N,08035.1016,W,1,8,2.0,20,M,,M,,*59
06/08/2014	07:06:47.946	$GPGGA,070648,2439.2710,N,08035.1015,W,1,8,2.0,20,M,,M,,*56
06/08/2014	07:06:48.985	$GPGGA,070649,2439.2707,N,08035.1013,W,1,8,2.0,20,M,,M,,*57
06/08/2014	07:06:49.993	$GPGGA,070650,2439.2704,N,08035.1011,W,1,8,2.0,20,M,,M,,*5E
06/08/2014	07:06:51.012	$GPGGA,070651,2439.2701,N,08035.1010,W,1,8,2.0,20,M,,M,,*5B
06/08/2014	07:06:52.010	$GPGGA,070652,2439.2699,N,08035.1008,W,1,8,2.0,20,M,,M,,*51
06/08/2014	07:06:53.017	$GPGGA,070653,2439.2695,N,08035.1006,W,1,8,2.0,20,M,,M,,*52
06/08/2014	07:06:54.046	$GPGGA,070654,2439.2693,N,08035.1004,W,1,8,2.0,19,M,,M,,*5B
06/08/2014	07:06:55.085	$GPGGA,070655,2439.2690,N,08035.1002,W,1,8,2.0,19,M,,M,,*5F
06/08/2014	07:06:56.073	$GPGGA,070656,2439.2688,N,08035.1000,W,1,8,2.0,19,M,,M,,*57
06/08/2014	07:06:57.112	$GPGGA,070657,2439.2683,N,08035.0998,W,1,8,2.0,19,M,,M,,*54
06/08/2014	07:06:58.110	$GPGGA,070658,2439.2681,N,08035.0996,W,1,8,2.0,19,M,,M,,*57
06/08/2014	07:06:59.138	$GPGGA,070659,2439.2678,N,08035.0994,W,1,8,2.0,19,M,,M,,*52
06/08/2014	07:07:00.157	$GPGGA,070700,2439.2675,N,08035.0992,W,1,8,2.0,19,M,,M,,*54
06/08/2014	07:07:01.148	$GPGGA,070701,2439.2672,N,08035.0990,W,1,8,2.0,19,M,,M,,*50
06/08/2014	07:07:02.163	$GPGGA,070702,2439.2670,N,08035.0987,W,1,8,2.0,19,M,,M,,*57
06/08/2014	07:07:03.202	$GPGGA,070703,2439.2666,N,08035.0986,W,1,8,2.0,19,M,,M,,*50
06/08/2014	07:07:04.323	$GPGGA,070704,2439.2663,N,08035.0984,W,1,8,2.0,19,M,,M,,*50
06/08/2014	07:07:05.217	$GPGGA,070705,2439.2660,N,08035.0981,W,1,8,2.0,19,M,,M,,*57
06/08/2014	07:07:06.229	$GPGGA,070706,2439.2657,N,08035.0979,W,1,8,2.0,19,M,,M,,*57
06/08/2014	07:07:07.347	$GPGGA,070707,2439.2653,N,08035.0977,W,1,8,2.0,19,M,,M,,*5C
06/08/2014	07:07:08.285	$GPGGA,070708,2439.2650,N,08035.0975,W,1,8,2.0,19,M,,M,,*52
06/08/2014	07:07:09.293	$GPGGA,070709,2439.2648,N,08035.0973,W,1,8,2.0,19,M,,M,,*5C
06/08/2014	07:07:10.394	$GPGGA,070710,2439.2645,N,08035.0971,W,1,8,2.0,19,M,,M,,*5B
06/08/2014	07:07:11.410	$GPGGA,070711,2439.2642,N,08035.0969,W,1,8,2.0,19,M,,M,,*54
06/08/2014	07:07:12.357	$GPGGA,070712,2439.2639,N,08035.0966,W,1,8,2.0,19,M,,M,,*54
06/08/2014	07:07:13.356	$GPGGA,070713,2439.2636,N,08035.0964,W,1,8,2.0,19,M,,M,,*58
06/08/2014	07:07:14.466	$GPGGA,070714,2439.2634,N,08035.0961,W,1,8,2.0,19,M,,M,,*58
06/08/2014	07:07:15.505	$GPGGA,070715,2439.2630,N,08035.0959,W,1,8,2.0,19,M,,M,,*56
06/08/2014	07:07:16.513	$GPGGA,070716,2439.2627,N,08035.0956,W,1,8,2.0,19,M,,M,,*5C
06/08/2014	07:07:17.521	$GPGGA,070717,2439.2624,N,08035.0954,W,1,8,2.0,19,M,,M,,*5C
06/08/2014	07:07:18.530	$GPGGA,070718,2439.2621,N,08035.0953,W,1,8,2.0,19,M,,M,,*51
06/08/2014	07:07:19.538	$GPGGA,070719,2439.2618,N,08035.0950,W,1,8,2.0,19,M,,M,,*59
06/08/2014	07:07:20.577	$GPGGA,070720,2439.2616,N,08035.0948,W,1,8,2.0,19,M,,M,,*54
06/08/2014	07:07:21.605	$GPGGA,070721,2439.2612,N,08035.0946,W,1,8,2.0,19,M,,M,,*5F
06/08/2014	07:07:22.593	$GPGGA,070722,2439.2609,N,08035.0943,W,1,8,2.0,19,M,,M,,*53
06/08/2014	07:07:23.602	$GPGGA,070723,2439.2606,N,08035.0941,W,1,8,2.0,19,M,,M,,*5F
06/08/2014	07:07:24.641	$GPGGA,070724,2439.2603,N,08035.0939,W,1,8,2.0,19,M,,M,,*52
06/08/2014	07:07:25.659	$GPGGA,070725,2439.2600,N,08035.0937,W,1,8,2.0,19,M,,M,,*5E
06/08/2014	07:07:26.667	$GPGGA,070726,2439.2598,N,08035.0935,W,1,8,2.0,19,M,,M,,*5D
06/08/2014	07:07:27.696	$GPGGA,070727,2439.2594,N,08035.0933,W,1,8,2.0,19,M,,M,,*56
06/08/2014	07:07:28.715	$GPGGA,070728,2439.2591,N,08035.0931,W,1,8,2.0,19,M,,M,,*5E
06/08/2014	07:07:29.732	$GPGGA,070729,2439.2589,N,08035.0929,W,1,8,2.0,19,M,,M,,*5F
06/08/2014	07:07:30.730	$GPGGA,070730,2439.2587,N,08035.0927,W,1,8,2.0,19,M,,M,,*57
06/08/2014	07:07:31.769	$GPGGA,070731,2439.2583,N,08035.0925,W,1,8,2.0,19,M,,M,,*50
06/08/2014	07:07:32.767	$GPGGA,070732,2439.2580,N,08035.0922,W,1,8,2.1,19,M,,M,,*56
06/08/2014	07:07:33.796	$GPGGA,070733,2439.2577,N,08035.0921,W,1,7,2.1,19,M,,M,,*53
06/08/2014	07:07:34.794	$GPGGA,070734,2439.2574,N,08035.0919,W,1,7,2.1,19,M,,M,,*5C
06/08/2014	07:07:35.833	$GPGGA,070735,2439.2571,N,08035.0918,W,1,7,2.1,19,M,,M,,*59
06/08/2014	07:07:36.831	$GPGGA,070736,2439.2569,N,08035.0916,W,1,7,2.1,19,M,,M,,*5D
06/08/2014	07:07:37.829	$GPGGA,070737,2439.2566,N,08035.0914,W,1,7,2.1,19,M,,M,,*51
06/08/2014	07:07:38.858	$GPGGA,070738,2439.2563,N,08035.0913,W,1,7,2.1,19,M,,M,,*5C
06/08/2014	07:07:38.801	$GPGGA,070739,2439.2560,N,08035.0911,W,1,7,2.1,19,M,,M,,*5C
06/08/2014	07:07:39.799	$GPGGA,070740,2439.2558,N,08035.0909,W,1,7,2.1,19,M,,M,,*50
06/08/2014	07:07:40.828	$GPGGA,070741,2439.2554,N,08035.0908,W,1,7,2.1,19,M,,M,,*5C
06/08/2014	07:07:41.826	$GPGGA,070742,2439.2552,N,08035.0907,W,1,7,2.0,19,M,,M,,*57
06/08/2014	07:07:42.844	$GPGGA,070743,2439.2549,N,08035.0905,W,1,8,2.0,19,M,,M,,*51
06/08/2014	07:07:43.863	$GPGGA,070744,2439.2547,N,08035.0904,W,1,8,2.1,19,M,,M,,*58
06/08/2014	07:07:44.892	$GPGGA,070745,2439.2545,N,08035.0903,W,1,7,2.1,19,M,,M,,*53
06/08/2014	07:07:45.889	$GPGGA,070746,2439.2546,N,08035.0902,W,1,7,2.0,19,M,,M,,*53
06/08/2014	07:07:46.917	$GPGGA,070747,2439.2542,N,08035.0901,W,1,7,2.1,19,M,,M,,*54
06/08/2014	07:07:47.915	$GPGGA,070748,2439.2541,N,08035.0900,W,1,7,2.1,19,M,,M,,*59
06/08/2014	07:07:48.965	$GPGGA,070749,2439.2540,N,08035.0899,W,1,8,2.0,19,M,,M,,*56
06/08/2014	07:07:49.963	$GPGGA,070750,2439.2538,N,08035.0897,W,1,8,2.1,19,M,,M,,*5E
06/08/2014	07:07:50.961	$GPGGA,070751,2439.2537,N,08035.0896,W,1,7,2.1,19,M,,M,,*5E
06/08/2014	07:07:52.001	$GPGGA,070752,2439.2536,N,08035.0895,W,1,7,2.0,19,M,,M,,*5E
06/08/2014	07:07:53.008	$GPGGA,070753,2439.2533,N,08035.0893,W,1,8,2.0,19,M,,M,,*53
06/08/2014	07:07:54.006	$GPGGA,070754,2439.2531,N,08035.0892,W,1,8,2.0,19,M,,M,,*57
06/08/2014	07:07:55.025	$GPGGA,070755,2439.2529,N,08035.0891,W,1,8,2.0,19,M,,M,,*5C
06/08/2014	07:07:56.176	$GPGGA,070756,2439.2525,N,08035.0889,W,1,8,2.0,19,M,,M,,*5A
06/08/2014	07:07:57.075	$GPGGA,070757,2439.2523,N,08035.0888,W,1,8,2.0,19,M,,M,,*5C
06/08/2014	07:07:58.076	$GPGGA,070758,2439.2520,N,08035.0887,W,1,8,2.0,19,M,,M,,*5F
06/08/2014	07:07:59.190	$GPGGA,070759,2439.2518,N,08035.0885,W,1,8,2.0,19,M,,M,,*57
06/08/2014	07:08:00.148	$GPGGA,070800,2439.2514,N,08035.0884,W,1,8,2.0,19,M,,M,,*59
06/08/2014	07:08:01.237	$GPGGA,070801,2439.2511,N,08035.0882,W,1,8,2.0,19,M,,M,,*5B
06/08/2014	07:08:02.161	$GPGGA,070802,2439.2509,N,08035.0880,W,1,8,2.0,19,M,,M,,*53
06/08/2014	07:08:03.193	$GPGGA,070803,2439.2506,N,08035.0879,W,1,8,2.0,19,M,,M,,*5B
06/08/2014	07:08:04.200	$GPGGA,070804,2439.2504,N,08035.0876,W,1,8,2.0,19,M,,M,,*51
06/08/2014	07:08:05.290	$GPGGA,070805,2439.2500,N,08035.0875,W,1,8,2.0,19,M,,M,,*57
06/08/2014	07:08:06.309	$GPGGA,070806,2439.2498,N,08035.0873,W,1,8,2.0,19,M,,M,,*52
06/08/2014	07:08:07.337	$GPGGA,070807,2439.2495,N,08035.0871,W,1,8,2.0,19,M,,M,,*5C
06/08/2014	07:08:08.366	$GPGGA,070808,2439.2493,N,08035.0869,W,1,8,2.0,19,M,,M,,*5C
06/08/2014	07:08:09.405	$GPGGA,070809,2439.2490,N,08035.0867,W,1,8,2.0,19,M,,M,,*50
06/08/2014	07:08:10.372	$GPGGA,070810,2439.2487,N,08035.0865,W,1,8,2.0,19,M,,M,,*5C
06/08/2014	07:08:11.381	$GPGGA,070811,2439.2484,N,08035.0863,W,1,7,2.1,19,M,,M,,*56
06/08/2014	07:08:12.430	$GPGGA,070812,2439.2482,N,08035.0860,W,1,7,2.1,19,M,,M,,*50
06/08/2014	07:08:13.418	$GPGGA,070813,2439.2480,N,08035.0859,W,1,7,2.1,19,M,,M,,*59
06/08/2014	07:08:14.436	$GPGGA,070814,2439.2477,N,08035.0857,W,1,7,2.0,19,M,,M,,*59
06/08/2014	07:08:15.475	$GPGGA,070815,2439.2475,N,08035.0855,W,1,8,2.0,19,M,,M,,*57
06/08/2014	07:08:16.496	$GPGGA,070816,2439.2471,N,08035.0853,W,1,8,2.0,19,M,,M,,*56
06/08/2014	07:08:17.512	$GPGGA,070817,2439.2469,N,08035.0851,W,1,8,2.0,19,M,,M,,*5C
06/08/2014	07:08:18.520	$GPGGA,070818,2439.2465,N,08035.0849,W,1,8,2.0,19,M,,M,,*56
06/08/2014	07:08:19.519	$GPGGA,070819,2439.2464,N,08035.0847,W,1,8,2.0,19,M,,M,,*58
06/08/2014	07:08:20.547	$GPGGA,070820,2439.2460,N,08035.0845,W,1,8,2.0,19,M,,M,,*54
06/08/2014	07:08:21.544	$GPGGA,070821,2439.2457,N,08035.0843,W,1,8,2.0,19,M,,M,,*57
06/08/2014	07:08:22.583	$GPGGA,070822,2439.2453,N,08035.0841,W,1,8,2.0,19,M,,M,,*52
06/08/2014	07:08:23.591	$GPGGA,070823,2439.2450,N,08035.0839,W,1,8,2.0,19,M,,M,,*5F
06/08/2014	07:08:24.610	$GPGGA,070824,2439.2447,N,08035.0836,W,1,8,2.0,20,M,,M,,*5B
06/08/2014	07:08:25.608	$GPGGA,070825,2439.2443,N,08035.0835,W,1,8,2.0,20,M,,M,,*5D
06/08/2014	07:08:26.637	$GPGGA,070826,2439.2440,N,08035.0833,W,1,8,2.0,20,M,,M,,*5B
06/08/2014	07:08:27.686	$GPGGA,070827,2439.2436,N,08035.0830,W,1,8,2.0,20,M,,M,,*58
06/08/2014	07:08:28.694	$GPGGA,070828,2439.2433,N,08035.0828,W,1,8,2.0,20,M,,M,,*5B
06/08/2014	07:08:29.672	$GPGGA,070829,2439.2429,N,08035.0826,W,1,8,2.0,20,M,,M,,*5F
06/08/2014	07:08:30.711	$GPGGA,070830,2439.2425,N,08035.0824,W,1,8,2.0,20,M,,M,,*59
06/08/2014	07:08:31.751	$GPGGA,070831,2439.2422,N,08035.0822,W,1,8,2.0,20,M,,M,,*59
06/08/2014	07:08:32.732	$GPGGA,070832,2439.2418,N,08035.0820,W,1,8,2.0,20,M,,M,,*51
06/08/2014	07:08:33.790	$GPGGA,070833,2439.2414,N,08035.0818,W,1,8,2.0,20,M,,M,,*57
06/08/2014	07:08:34.748	$GPGGA,070834,2439.2410,N,08035.0816,W,1,8,2.0,20,M,,M,,*5A
06/08/2014	07:08:35.878	$GPGGA,070835,2439.2407,N,08035.0815,W,1,8,2.0,20,M,,M,,*5E
06/08/2014	07:08:36.755	$GPGGA,070836,2439.2403,N,08035.0812,W,1,8,2.0,20,M,,M,,*5E
06/08/2014	07:08:37.763	$GPGGA,070837,2439.2399,N,08035.0810,W,1,8,2.0,20,M,,M,,*59
06/08/2014	07:08:38.821	$GPGGA,070838,2439.2395,N,08035.0808,W,1,8,2.0,20,M,,M,,*53
06/08/2014	07:08:38.873	$GPGGA,070839,2439.2392,N,08035.0806,W,1,8,2.0,20,M,,M,,*5B
06/08/2014	07:08:39.760	$GPGGA,070840,2439.2388,N,08035.0804,W,1,8,2.0,20,M,,M,,*5C
06/08/2014	07:08:40.738	$GPGGA,070841,2439.2383,N,08035.0803,W,1,8,2.0,20,M,,M,,*51
06/08/2014	07:08:41.767	$GPGGA,070842,2439.2379,N,08035.0801,W,1,8,2.0,20,M,,M,,*55
06/08/2014	07:08:42.755	$GPGGA,070843,2439.2375,N,08035.0799,W,1,8,2.0,20,M,,M,,*56
06/08/2014	07:08:43.894	$GPGGA,070844,2439.2371,N,08035.0797,W,1,8,2.0,20,M,,M,,*5B
06/08/2014	07:08:44.791	$GPGGA,070845,2439.2366,N,08035.0795,W,1,8,2.0,20,M,,M,,*5E
06/08/2014	07:08:45.870	$GPGGA,070846,2439.2363,N,08035.0793,W,1,8,2.0,20,M,,M,,*5E
06/08/2014	07:08:46.889	$GPGGA,070847,2439.2359,N,08035.0791,W,1,8,2.0,20,M,,M,,*54
06/08/2014	07:08:47.937	$GPGGA,070848,2439.2354,N,08035.0789,W,1,8,2.0,20,M,,M,,*5F
06/08/2014	07:08:48.915	$GPGGA,070849,2439.2349,N,08035.0787,W,1,8,2.0,20,M,,M,,*5C
06/08/2014	07:08:49.823	$GPGGA,070850,2439.2345,N,08035.0785,W,1,8,2.0,20,M,,M,,*5A
06/08/2014	07:08:50.912	$GPGGA,070851,2439.2341,N,08035.0783,W,1,8,2.0,20,M,,M,,*59
06/08/2014	07:08:51.930	$GPGGA,070852,2439.2337,N,08035.0781,W,1,8,2.0,20,M,,M,,*59
06/08/2014	07:08:52.989	$GPGGA,070853,2439.2334,N,08035.0779,W,1,8,2.0,20,M,,M,,*5C
06/08/2014	07:08:53.937	$GPGGA,070854,2439.2329,N,08035.0777,W,1,8,2.0,20,M,,M,,*59
06/08/2014	07:08:54.955	$GPGGA,070855,2439.2325,N,08035.0774,W,1,8,2.0,20,M,,M,,*57
06/08/2014	07:08:55.952	$GPGGA,070856,2439.2321,N,08035.0772,W,1,8,2.0,20,M,,M,,*56
06/08/2014	07:08:56.971	$GPGGA,070857,2439.2317,N,08035.0770,W,1,8,2.0,20,M,,M,,*50
06/08/2014	07:08:57.961	$GPGGA,070858,2439.2313,N,08035.0768,W,1,8,2.0,20,M,,M,,*52
06/08/2014	07:08:58.969	$GPGGA,070859,2439.2309,N,08035.0766,W,1,8,2.0,20,M,,M,,*56
06/08/2014	07:08:59.985	$GPGGA,070900,2439.2305,N,08035.0765,W,1,8,2.0,20,M,,M,,*54
06/08/2014	07:09:00.985	$GPGGA,070901,2439.2301,N,08035.0762,W,1,8,2.0,20,M,,M,,*56
06/08/2014	07:09:01.983	$GPGGA,070902,2439.2298,N,08035.0760,W,1,8,2.1,20,M,,M,,*57
06/08/2014	07:09:03.031	$GPGGA,070903,2439.2294,N,08035.0758,W,1,7,2.0,20,M,,M,,*5F
06/08/2014	07:09:04.011	$GPGGA,070904,2439.2291,N,08035.0756,W,1,7,2.1,20,M,,M,,*52
06/08/2014	07:09:04.997	$GPGGA,070905,2439.2288,N,08035.0755,W,1,7,2.1,20,M,,M,,*58
06/08/2014	07:09:05.995	$GPGGA,070906,2439.2287,N,08035.0753,W,1,7,2.0,20,M,,M,,*53
06/08/2014	07:09:07.024	$GPGGA,070907,2439.2280,N,08035.0750,W,1,8,3.0,20,M,,M,,*58
06/08/2014	07:09:08.032	$GPGGA,070908,2439.2276,N,08035.0748,W,1,8,2.1,20,M,,M,,*57
06/08/2014	07:09:09.055	$GPGGA,070909,2439.2274,N,08035.0747,W,1,7,2.1,20,M,,M,,*54
06/08/2014	07:09:10.028	$GPGGA,070910,2439.2269,N,08035.0744,W,1,7,3.0,21,M,,M,,*52
06/08/2014	07:09:11.057	$GPGGA,070911,2439.2269,N,08035.0744,W,1,6,2.1,21,M,,M,,*52
06/08/2014	07:09:12.101	$GPGGA,070912,2439.2269,N,08035.0743,W,1,6,2.1,21,M,,M,,*56
06/08/2014	07:09:13.072	$GPGGA,070913,2439.2266,N,08035.0742,W,1,7,2.1,21,M,,M,,*58
06/08/2014	07:09:14.060	$GPGGA,070914,2439.2265,N,08035.0741,W,1,7,2.1,21,M,,M,,*5F
06/08/2014	07:09:15.079	$GPGGA,070915,2439.2262,N,08035.0739,W,1,7,2.1,21,M,,M,,*56
06/08/2014	07:09:16.087	$GPGGA,070916,2439.2260,N,08035.0737,W,1,7,2.1,22,M,,M,,*5A
06/08/2014	07:09:17.105	$GPGGA,070917,2439.2256,N,08035.0735,W,1,7,2.1,22,M,,M,,*5C
06/08/2014	07:09:18.083	$GPGGA,070918,2439.2252,N,08035.0733,W,1,7,2.1,22,M,,M,,*51
06/08/2014	07:09:19.084	$GPGGA,070919,2439.2248,N,08035.0730,W,1,7,2.1,22,M,,M,,*58
06/08/2014	07:09:20.100	$GPGGA,070920,2439.2245,N,08035.0728,W,1,7,2.1,22,M,,M,,*56
06/08/2014	07:09:21.129	$GPGGA,070921,2439.2241,N,08035.0726,W,1,7,2.1,23,M,,M,,*5C
06/08/2014	07:09:22.117	$GPGGA,070922,2439.2236,N,08035.0723,W,1,7,2.0,23,M,,M,,*5B
06/08/2014	07:09:23.115	$GPGGA,070923,2439.2231,N,08035.0721,W,1,8,2.0,23,M,,M,,*50
06/08/2014	07:09:24.143	$GPGGA,070924,2439.2227,N,08035.0719,W,1,8,2.0,23,M,,M,,*5B
06/08/2014	07:09:25.124	$GPGGA,070925,2439.2222,N,08035.0716,W,1,8,2.0,23,M,,M,,*50
06/08/2014	07:09:26.133	$GPGGA,070926,2439.2218,N,08035.0713,W,1,8,2.0,23,M,,M,,*5F
06/08/2014	07:09:27.249	$GPGGA,070927,2439.2215,N,08035.0710,W,1,8,2.0,23,M,,M,,*50
06/08/2014	07:09:28.178	$GPGGA,070928,2439.2209,N,08035.0708,W,1,8,2.0,24,M,,M,,*5C
06/08/2014	07:09:29.266	$GPGGA,070929,2439.2204,N,08035.0705,W,1,8,2.1,24,M,,M,,*5C
06/08/2014	07:09:30.163	$GPGGA,070930,2439.2197,N,08035.0701,W,1,8,2.1,24,M,,M,,*59
06/08/2014	07:09:31.291	$GPGGA,070931,2439.2193,N,08035.0698,W,1,7,2.1,24,M,,M,,*52
06/08/2014	07:09:32.189	$GPGGA,070932,2439.2186,N,08035.0695,W,1,7,2.1,24,M,,M,,*58
06/08/2014	07:09:33.180	$GPGGA,070933,2439.2182,N,08035.0692,W,1,7,2.1,24,M,,M,,*5A
06/08/2014	07:09:34.205	$GPGGA,070934,2439.2175,N,08035.0689,W,1,7,2.1,24,M,,M,,*5F
06/08/2014	07:09:35.193	$GPGGA,070935,2439.2170,N,08035.0686,W,1,7,2.1,24,M,,M,,*54
06/08/2014	07:09:36.313	$GPGGA,070936,2439.2165,N,08035.0683,W,1,7,2.1,24,M,,M,,*56
06/08/2014	07:09:37.206	$GPGGA,070937,2439.2160,N,08035.0680,W,1,7,2.1,23,M,,M,,*56
06/08/2014	07:09:38.289	$GPGGA,070938,2439.2154,N,08035.0677,W,1,7,2.1,23,M,,M,,*56
06/08/2014	07:09:38.842	$GPGGA,070939,2439.2150,N,08035.0675,W,1,7,2.1,23,M,,M,,*51
06/08/2014	07:09:39.831	$GPGGA,070940,2439.2147,N,08035.0673,W,1,7,2.0,23,M,,M,,*5E
06/08/2014	07:09:40.820	$GPGGA,070941,2439.2143,N,08035.0671,W,1,8,2.0,23,M,,M,,*56
06/08/2014	07:09:41.828	$GPGGA,070942,2439.2137,N,08035.0668,W,1,8,2.1,23,M,,M,,*5F
06/08/2014	07:09:42.848	$GPGGA,070943,2439.2132,N,08035.0665,W,1,7,2.1,23,M,,M,,*59
06/08/2014	07:09:43.858	$GPGGA,070944,2439.2126,N,08035.0661,W,1,7,2.1,23,M,,M,,*5F
06/08/2014	07:09:44.872	$GPGGA,070945,2439.2121,N,08035.0658,W,1,7,2.1,23,M,,M,,*53
06/08/2014	07:09:45.851	$GPGGA,070946,2439.2119,N,08035.0656,W,1,7,2.1,23,M,,M,,*55
06/08/2014	07:09:46.879	$GPGGA,070947,2439.2114,N,08035.0653,W,1,7,2.1,23,M,,M,,*5C
06/08/2014	07:09:47.886	$GPGGA,070948,2439.2112,N,08035.0651,W,1,7,2.1,23,M,,M,,*57
06/08/2014	07:09:48.864	$GPGGA,070949,2439.2110,N,08035.0649,W,1,7,2.1,23,M,,M,,*5D
06/08/2014	07:09:49.872	$GPGGA,070950,2439.2108,N,08035.0647,W,1,7,2.1,23,M,,M,,*52
06/08/2014	07:09:50.870	$GPGGA,070951,2439.2105,N,08035.0646,W,1,7,2.1,23,M,,M,,*5F
06/08/2014	07:09:51.921	$GPGGA,070952,2439.2101,N,08035.0643,W,1,7,2.1,23,M,,M,,*5D
06/08/2014	07:09:52.918	$GPGGA,070953,2439.2099,N,08035.0641,W,1,7,2.1,23,M,,M,,*5E
06/08/2014	07:09:53.905	$GPGGA,070954,2439.2095,N,08035.0639,W,1,7,2.1,23,M,,M,,*5A
06/08/2014	07:09:54.924	$GPGGA,070955,2439.2092,N,08035.0637,W,1,7,2.1,23,M,,M,,*52
06/08/2014	07:09:55.932	$GPGGA,070956,2439.2088,N,08035.0634,W,1,7,2.1,23,M,,M,,*59
06/08/2014	07:09:56.930	$GPGGA,070957,2439.2085,N,08035.0632,W,1,7,2.1,23,M,,M,,*53
06/08/2014	07:09:57.929	$GPGGA,070958,2439.2077,N,08035.0629,W,1,7,2.1,23,M,,M,,*5B
06/08/2014	07:09:58.957	$GPGGA,070959,2439.2077,N,08035.0627,W,1,6,3.0,23,M,,M,,*55
06/08/2014	07:09:59.955	$GPGGA,071000,2439.2074,N,08035.0625,W,1,6,2.1,23,M,,M,,*50
06/08/2014	07:10:00.974	$GPGGA,071001,2439.2070,N,08035.0623,W,1,7,2.1,23,M,,M,,*52
06/08/2014	07:10:01.942	$GPGGA,071002,2439.2067,N,08035.0621,W,1,7,2.1,23,M,,M,,*55
06/08/2014	07:10:02.960	$GPGGA,071003,2439.2063,N,08035.0619,W,1,7,2.1,23,M,,M,,*5B
06/08/2014	07:10:03.979	$GPGGA,071004,2439.2058,N,08035.0616,W,1,7,2.1,23,M,,M,,*5B
06/08/2014	07:10:04.966	$GPGGA,071005,2439.2054,N,08035.0614,W,1,7,2.1,23,M,,M,,*54
06/08/2014	07:10:05.984	$GPGGA,071006,2439.2048,N,08035.0611,W,1,7,2.1,23,M,,M,,*5F
06/08/2014	07:10:06.992	$GPGGA,071007,2439.2045,N,08035.0608,W,1,7,2.1,23,M,,M,,*5B
06/08/2014	07:10:08.021	$GPGGA,071008,2439.2040,N,08035.0606,W,1,7,2.1,23,M,,M,,*5F
06/08/2014	07:10:09.019	$GPGGA,071009,2439.2035,N,08035.0604,W,1,7,2.1,23,M,,M,,*5E
06/08/2014	07:10:09.997	$GPGGA,071010,2439.2028,N,08035.0600,W,1,7,2.1,23,M,,M,,*5E
06/08/2014	07:10:11.005	$GPGGA,071011,2439.2027,N,08035.0599,W,1,7,2.2,23,M,,M,,*50
06/08/2014	07:10:12.044	$GPGGA,071012,2439.2023,N,08035.0597,W,1,7,2.1,23,M,,M,,*5A
06/08/2014	07:10:13.022	$GPGGA,071013,2439.2018,N,08035.0595,W,1,7,2.1,23,M,,M,,*51
06/08/2014	07:10:14.020	$GPGGA,071014,2439.2013,N,08035.0592,W,1,7,2.1,23,M,,M,,*5A
06/08/2014	07:10:15.038	$GPGGA,071015,2439.2009,N,08035.0589,W,1,7,2.1,23,M,,M,,*5A
06/08/2014	07:10:16.168	$GPGGA,071016,2439.2005,N,08035.0587,W,1,7,2.0,23,M,,M,,*5A
06/08/2014	07:10:17.055	$GPGGA,071017,2439.2000,N,08035.0584,W,1,8,2.0,23,M,,M,,*52
06/08/2014	07:10:18.062	$GPGGA,071018,2439.1998,N,08035.0582,W,1,8,2.2,23,M,,M,,*52
06/08/2014	07:10:19.072	$GPGGA,071019,2439.1993,N,08035.0580,W,1,8,2.0,23,M,,M,,*58
06/08/2014	07:10:20.080	$GPGGA,071020,2439.1991,N,08035.0578,W,1,8,2.2,23,M,,M,,*55
06/08/2014	07:10:21.094	$GPGGA,071021,2439.1987,N,08035.0575,W,1,8,2.0,23,M,,M,,*5C
06/08/2014	07:10:22.167	$GPGGA,071022,2439.1982,N,08035.0572,W,1,8,2.2,23,M,,M,,*5F
06/08/2014	07:10:23.081	$GPGGA,071023,2439.1978,N,08035.0570,W,1,7,2.2,23,M,,M,,*56
06/08/2014	07:10:24.193	$GPGGA,071024,2439.1974,N,08035.0567,W,1,7,2.2,23,M,,M,,*5B
06/08/2014	07:10:25.100	$GPGGA,071025,2439.1969,N,08035.0564,W,1,7,2.2,23,M,,M,,*55
06/08/2014	07:10:26.105	$GPGGA,071026,2439.1965,N,08035.0561,W,1,7,2.2,23,M,,M,,*5F
06/08/2014	07:10:27.238	$GPGGA,071027,2439.1960,N,08035.0558,W,1,7,2.2,23,M,,M,,*51
06/08/2014	07:10:28.226	$GPGGA,071028,2439.1956,N,08035.0556,W,1,7,2.2,23,M,,M,,*55
06/08/2014	07:10:29.224	$GPGGA,071029,2439.1952,N,08035.0554,W,1,8,2.0,23,M,,M,,*5F
06/08/2014	07:10:30.233	$GPGGA,071030,2439.1947,N,08035.0550,W,1,8,2.2,23,M,,M,,*55
06/08/2014	07:10:31.251	$GPGGA,071031,2439.1944,N,08035.0549,W,1,7,2.2,23,M,,M,,*50
06/08/2014	07:10:32.239	$GPGGA,071032,2439.1940,N,08035.0546,W,1,7,2.0,23,M,,M,,*5A
06/08/2014	07:10:33.298	$GPGGA,071033,2439.1934,N,08035.0544,W,1,8,2.0,23,M,,M,,*55
06/08/2014	07:10:34.247	$GPGGA,071034,2439.1929,N,08035.0540,W,1,8,2.2,23,M,,M,,*58
06/08/2014	07:10:35.275	$GPGGA,071035,2439.1926,N,08035.0539,W,1,7,2.2,23,M,,M,,*57
06/08/2014	07:10:36.272	$GPGGA,071036,2439.1920,N,08035.0536,W,1,7,2.0,23,M,,M,,*5F
06/08/2014	07:10:37.281	$GPGGA,071037,2439.1915,N,08035.0533,W,1,7,2.2,23,M,,M,,*5F
06/08/2014	07:10:38.291	$GPGGA,071038,2439.1911,N,08035.0530,W,1,7,2.2,23,M,,M,,*57
06/08/2014	07:10:38.792	$GPGGA,071039,2439.1905,N,08035.0527,W,1,7,2.2,23,M,,M,,*55
06/08/2014	07:10:39.810	$GPGGA,071040,2439.1900,N,08035.0525,W,1,7,2.0,23,M,,M,,*5E
06/08/2014	07:10:40.807	$GPGGA,071041,2439.1895,N,08035.0522,W,1,8,2.0,23,M,,M,,*5A
06/08/2014	07:10:41.805	$GPGGA,071042,2439.1890,N,08035.0519,W,1,8,2.2,23,M,,M,,*56
06/08/2014	07:10:42.843	$GPGGA,071043,2439.1886,N,08035.0517,W,1,8,2.0,23,M,,M,,*5C
06/08/2014	07:10:43.831	$GPGGA,071044,2439.1880,N,08035.0514,W,1,8,2.0,23,M,,M,,*5E
06/08/2014	07:10:44.840	$GPGGA,071045,2439.1875,N,08035.0511,W,1,8,2.0,23,M,,M,,*50
06/08/2014	07:10:45.828	$GPGGA,071046,2439.1871,N,08035.0509,W,1,8,2.0,23,M,,M,,*5E
06/08/2014	07:10:46.856	$GPGGA,071047,2439.1868,N,08035.0506,W,1,8,2.0,23,M,,M,,*58
06/08/2014	07:10:47.875	$GPGGA,071048,2439.1863,N,08035.0503,W,1,8,2.0,22,M,,M,,*58
06/08/2014	07:10:48.863	$GPGGA,071049,2439.1859,N,08035.0501,W,1,8,2.0,22,M,,M,,*52
06/08/2014	07:10:49.851	$GPGGA,071050,2439.1855,N,08035.0499,W,1,8,2.0,22,M,,M,,*56
06/08/2014	07:10:50.869	$GPGGA,071051,2439.1851,N,08035.0497,W,1,8,2.0,22,M,,M,,*5D
06/08/2014	07:10:51.888	$GPGGA,071052,2439.1846,N,08035.0494,W,1,8,2.0,22,M,,M,,*5B
06/08/2014	07:10:52.866	$GPGGA,071053,2439.1843,N,08035.0492,W,1,8,2.0,22,M,,M,,*59
06/08/2014	07:10:53.884	$GPGGA,071054,2439.1839,N,08035.0489,W,1,8,2.0,22,M,,M,,*59
06/08/2014	07:10:54.913	$GPGGA,071055,2439.1833,N,08035.0485,W,1,7,2.2,22,M,,M,,*53
06/08/2014	07:10:55.912	$GPGGA,071056,2439.1828,N,08035.0483,W,1,7,2.2,22,M,,M,,*5C
06/08/2014	07:10:56.929	$GPGGA,071057,2439.1823,N,08035.0480,W,1,7,2.2,22,M,,M,,*55
06/08/2014	07:10:57.927	$GPGGA,071058,2439.1818,N,08035.0477,W,1,7,2.2,22,M,,M,,*5A
06/08/2014	07:10:58.935	$GPGGA,071059,2439.1814,N,08035.0475,W,1,7,2.2,22,M,,M,,*55
06/08/2014	07:10:59.943	$GPGGA,071100,2439.1810,N,08035.0472,W,1,7,2.2,21,M,,M,,*58
06/08/2014	07:11:00.941	$GPGGA,071101,2439.1805,N,08035.0469,W,1,7,2.2,21,M,,M,,*57
06/08/2014	07:11:01.929	$GPGGA,071102,2439.1801,N,08035.0466,W,1,7,2.2,21,M,,M,,*5F
06/08/2014	07:11:02.928	$GPGGA,071103,2439.1796,N,08035.0464,W,1,7,2.2,21,M,,M,,*5D
06/08/2014	07:11:04.067	$GPGGA,071104,2439.1796,N,08035.0462,W,1,7,2.2,21,M,,M,,*5C
06/08/2014	07:11:04.964	$GPGGA,071105,2439.1796,N,08035.0461,W,1,8,2.0,21,M,,M,,*53
06/08/2014	07:11:05.963	$GPGGA,071106,2439.1792,N,08035.0459,W,1,8,2.0,21,M,,M,,*5F
06/08/2014	07:11:06.971	$GPGGA,071107,2439.1785,N,08035.0455,W,1,7,2.1,21,M,,M,,*5A
06/08/2014	07:11:08.070	$GPGGA,071108,2439.1782,N,08035.0453,W,1,7,2.2,21,M,,M,,*57
06/08/2014	07:11:09.088	$GPGGA,071109,2439.1777,N,08035.0451,W,1,8,2.0,21,M,,M,,*53
06/08/2014	07:11:09.986	$GPGGA,071110,2439.1772,N,08035.0447,W,1,8,2.1,21,M,,M,,*58
06/08/2014	07:11:10.974	$GPGGA,071111,2439.1765,N,08035.0444,W,1,8,2.0,21,M,,M,,*5D
06/08/2014	07:11:12.002	$GPGGA,071112,2439.1759,N,08035.0441,W,1,8,2.9,21,M,,M,,*5D
06/08/2014	07:11:13.021	$GPGGA,071113,2439.1756,N,08035.0439,W,1,6,2.9,21,M,,M,,*52
06/08/2014	07:11:14.009	$GPGGA,071114,2439.1754,N,08035.0437,W,1,6,2.1,21,M,,M,,*51
06/08/2014	07:11:15.137	$GPGGA,071115,2439.1749,N,08035.0434,W,1,7,2.1,20,M,,M,,*5F
06/08/2014	07:11:16.035	$GPGGA,071116,2439.1745,N,08035.0431,W,1,7,2.1,20,M,,M,,*55
06/08/2014	07:11:17.128	$GPGGA,071117,2439.1742,N,08035.0429,W,1,7,2.1,20,M,,M,,*5A
06/08/2014	07:11:18.134	$GPGGA,071118,2439.1741,N,08035.0427,W,1,7,2.1,20,M,,M,,*58
06/08/2014	07:11:19.160	$GPGGA,071119,2439.1738,N,08035.0425,W,1,8,2.0,20,M,,M,,*5B
06/08/2014	07:11:20.150	$GPGGA,071120,2439.1736,N,08035.0424,W,1,8,2.1,20,M,,M,,*5F
06/08/2014	07:11:21.150	$GPGGA,071121,2439.1734,N,08035.0422,W,1,8,2.0,20,M,,M,,*5B
06/08/2014	07:11:22.155	$GPGGA,071122,2439.1732,N,08035.0420,W,1,8,2.0,20,M,,M,,*5C
06/08/2014	07:11:23.175	$GPGGA,071123,2439.1729,N,08035.0418,W,1,7,2.1,20,M,,M,,*52
06/08/2014	07:11:24.189	$GPGGA,071124,2439.1723,N,08035.0415,W,1,7,2.1,21,M,,M,,*53
06/08/2014	07:11:25.160	$GPGGA,071125,2439.1718,N,08035.0413,W,1,8,2.0,21,M,,M,,*52
06/08/2014	07:11:26.168	$GPGGA,071126,2439.1711,N,08035.0409,W,1,8,2.2,21,M,,M,,*51
06/08/2014	07:11:27.209	$GPGGA,071127,2439.1704,N,08035.0405,W,1,6,2.9,21,M,,M,,*5D
06/08/2014	07:11:28.224	$GPGGA,071128,2439.1698,N,08035.0403,W,1,6,2.9,21,M,,M,,*50
06/08/2014	07:11:29.216	$GPGGA,071129,2439.1693,N,08035.0399,W,1,6,2.9,21,M,,M,,*5E
06/08/2014	07:11:30.202	$GPGGA,071130,2439.1686,N,08035.0396,W,1,6,2.9,20,M,,M,,*5C
06/08/2014	07:11:31.236	$GPGGA,071131,2439.1682,N,08035.0394,W,1,6,2.9,20,M,,M,,*5B
06/08/2014	07:11:32.218	$GPGGA,071132,2439.1681,N,08035.0393,W,1,6,2.9,20,M,,M,,*5C
06/08/2014	07:11:33.254	$GPGGA,071133,2439.1683,N,08035.0392,W,1,7,2.2,20,M,,M,,*54
06/08/2014	07:11:34.223	$GPGGA,071134,2439.1681,N,08035.0391,W,1,7,2.1,20,M,,M,,*51
06/08/2014	07:11:35.252	$GPGGA,071135,2439.1680,N,08035.0390,W,1,7,2.1,20,M,,M,,*50
06/08/2014	07:11:36.240	$GPGGA,071136,2439.1680,N,08035.0388,W,1,7,2.1,20,M,,M,,*5A
06/08/2014	07:11:37.248	$GPGGA,071137,2439.1676,N,08035.0386,W,1,8,2.0,20,M,,M,,*52
06/08/2014	07:11:38.267	$GPGGA,071138,2439.1673,N,08035.0385,W,1,8,2.1,20,M,,M,,*5A
06/08/2014	07:11:38.780	$GPGGA,071139,2439.1669,N,08035.0382,W,1,7,2.1,20,M,,M,,*58
06/08/2014	07:11:39.788	$GPGGA,071140,2439.1665,N,08035.0380,W,1,7,2.1,21,M,,M,,*59
06/08/2014	07:11:40.807	$GPGGA,071141,2439.1660,N,08035.0378,W,1,8,2.0,21,M,,M,,*54
06/08/2014	07:11:41.785	$GPGGA,071142,2439.1656,N,08035.0375,W,1,8,2.0,21,M,,M,,*5F
06/08/2014	07:11:42.833	$GPGGA,071143,2439.1652,N,08035.0373,W,1,7,2.1,21,M,,M,,*52
06/08/2014	07:11:43.791	$GPGGA,071144,2439.1648,N,08035.0371,W,1,7,2.1,21,M,,M,,*5C
06/08/2014	07:11:44.789	$GPGGA,071145,2439.1644,N,08035.0368,W,1,8,2.0,21,M,,M,,*57
06/08/2014	07:11:45.818	$GPGGA,071146,2439.1639,N,08035.0366,W,1,8,2.1,21,M,,M,,*51
06/08/2014	07:11:46.806	$GPGGA,071147,2439.1635,N,08035.0364,W,1,7,2.1,21,M,,M,,*51
