Software Version Number: 1	Data File Format Number: 1	Build Version Number: 1	Error Count Since VI Started: 0	Manufacturer: Raytheon	 Model Number: RayMarine 120	 S/N: 	 Cal Date: 	 Wind Direction Offset: 0.00	 Slope (M)1: 0.00	 Offset (B)1: 0.00	 Slope (M)2: 0.00	 Offset (B)2: 0.00	 Slope (M)3: 0.00	 Offset (B)3: 0.00	 Slope (M)4: 0.00	 Offset (B)4: 0.00	 Slope (M)5: 0.00	 Offset (B)5: 0.00	 Slope (M)6: 0.00	 Offset (B)6: 0.00
Computer Date	Computer Time	GGA String
05/30/2014	06:00:00.480	$GPGGA,060000,2519.3127,N,07932.3147,W,1,10,1.4,19,M,,M,,*6C
05/30/2014	06:00:01.493	$GPGGA,060001,2519.3114,N,07932.3165,W,1,10,1.4,19,M,,M,,*6D
05/30/2014	06:00:02.457	$GPGGA,060002,2519.3102,N,07932.3183,W,1,10,1.4,19,M,,M,,*61
05/30/2014	06:00:03.480	$GPGGA,060003,2519.3089,N,07932.3204,W,1,9,1.5,19,M,,M,,*57
05/30/2014	06:00:04.483	$GPGGA,060004,2519.3077,N,07932.3223,W,1,9,1.4,19,M,,M,,*55
05/30/2014	06:00:05.486	$GPGGA,060005,2519.3065,N,07932.3241,W,1,10,1.4,19,M,,M,,*6B
05/30/2014	06:00:06.469	$GPGGA,060006,2519.3055,N,07932.3259,W,1,10,1.5,19,M,,M,,*63
05/30/2014	06:00:07.463	$GPGGA,060007,2519.3044,N,07932.3278,W,1,10,1.4,19,M,,M,,*60
05/30/2014	06:00:08.476	$GPGGA,060008,2519.3031,N,07932.3296,W,1,10,1.4,20,M,,M,,*67
05/30/2014	06:00:09.491	$GPGGA,060009,2519.3019,N,07932.3316,W,1,10,1.4,20,M,,M,,*65
05/30/2014	06:00:10.473	$GPGGA,060010,2519.3009,N,07932.3335,W,1,10,1.5,20,M,,M,,*6C
05/30/2014	06:00:11.507	$GPGGA,060011,2519.2997,N,07932.3353,W,1,10,1.4,20,M,,M,,*63
05/30/2014	06:00:12.490	$GPGGA,060012,2519.2984,N,07932.3372,W,1,10,1.5,20,M,,M,,*60
05/30/2014	06:00:13.504	$GPGGA,060013,2519.2975,N,07932.3390,W,1,9,1.5,20,M,,M,,*5B
05/30/2014	06:00:14.477	$GPGGA,060014,2519.2961,N,07932.3410,W,1,9,2.0,20,M,,M,,*50
05/30/2014	06:00:15.491	$GPGGA,060015,2519.2948,N,07932.3428,W,1,10,1.4,20,M,,M,,*6E
05/30/2014	06:00:16.504	$GPGGA,060016,2519.2936,N,07932.3448,W,1,10,1.5,20,M,,M,,*63
05/30/2014	06:00:17.468	$GPGGA,060017,2519.2928,N,07932.3468,W,1,10,1.4,20,M,,M,,*6E
05/30/2014	06:00:18.471	$GPGGA,060018,2519.2916,N,07932.3486,W,1,10,1.4,20,M,,M,,*6C
05/30/2014	06:00:19.505	$GPGGA,060019,2519.2906,N,07932.3504,W,1,10,1.4,20,M,,M,,*67
05/30/2014	06:00:20.498	$GPGGA,060020,2519.2896,N,07932.3522,W,1,10,1.4,20,M,,M,,*61
05/30/2014	06:00:21.482	$GPGGA,060021,2519.2883,N,07932.3541,W,1,9,1.5,20,M,,M,,*58
05/30/2014	06:00:22.486	$GPGGA,060022,2519.2871,N,07932.3559,W,1,9,1.4,20,M,,M,,*5E
05/30/2014	06:00:23.618	$GPGGA,060023,2519.2860,N,07932.3580,W,1,10,1.4,20,M,,M,,*63
05/30/2014	06:00:24.521	$GPGGA,060024,2519.2849,N,07932.3598,W,1,10,1.4,20,M,,M,,*66
05/30/2014	06:00:25.485	$GPGGA,060025,2519.2835,N,07932.3616,W,1,10,1.4,20,M,,M,,*69
05/30/2014	06:00:26.488	$GPGGA,060026,2519.2823,N,07932.3634,W,1,10,1.4,20,M,,M,,*6D
05/30/2014	06:00:27.632	$GPGGA,060027,2519.2809,N,07932.3652,W,1,10,1.5,20,M,,M,,*65
05/30/2014	06:00:28.627	$GPGGA,060028,2519.2794,N,07932.3671,W,1,10,1.4,20,M,,M,,*61
05/30/2014	06:00:29.499	$GPGGA,060029,2519.2781,N,07932.3689,W,1,10,1.4,20,M,,M,,*63
05/30/2014	06:00:30.593	$GPGGA,060030,2519.2767,N,07932.3707,W,1,10,1.4,20,M,,M,,*64
05/30/2014	06:00:31.616	$GPGGA,060031,2519.2753,N,07932.3725,W,1,10,1.4,20,M,,M,,*62
05/30/2014	06:00:32.509	$GPGGA,060032,2519.2741,N,07932.3743,W,1,10,1.4,20,M,,M,,*62
05/30/2014	06:00:33.513	$GPGGA,060033,2519.2729,N,07932.3761,W,1,10,1.4,20,M,,M,,*6D
05/30/2014	06:00:34.516	$GPGGA,060034,2519.2716,N,07932.3779,W,1,10,1.4,20,M,,M,,*6F
05/30/2014	06:00:35.502	$GPGGA,060035,2519.2704,N,07932.3798,W,1,10,1.4,20,M,,M,,*62
05/30/2014	06:00:36.635	$GPGGA,060036,2519.2691,N,07932.3816,W,1,10,1.4,20,M,,M,,*65
05/30/2014	06:00:37.517	$GPGGA,060037,2519.2679,N,07932.3835,W,1,10,1.4,20,M,,M,,*63
05/30/2014	06:00:38.510	$GPGGA,060038,2519.2666,N,07932.3853,W,1,10,1.4,20,M,,M,,*62
05/30/2014	06:00:39.524	$GPGGA,060039,2519.2654,N,07932.3871,W,1,10,1.4,20,M,,M,,*62
05/30/2014	06:00:40.627	$GPGGA,060040,2519.2643,N,07932.3891,W,1,10,1.4,20,M,,M,,*64
05/30/2014	06:00:41.427	$GPGGA,060041,2519.2629,N,07932.3910,W,1,10,1.4,20,M,,M,,*61
05/30/2014	06:00:42.420	$GPGGA,060042,2519.2617,N,07932.3927,W,1,10,1.4,20,M,,M,,*6B
05/30/2014	06:00:43.444	$GPGGA,060043,2519.2605,N,07932.3947,W,1,10,1.4,20,M,,M,,*6F
05/30/2014	06:00:44.427	$GPGGA,060044,2519.2592,N,07932.3965,W,1,10,1.4,20,M,,M,,*65
05/30/2014	06:00:45.432	$GPGGA,060045,2519.2580,N,07932.3985,W,1,10,1.4,20,M,,M,,*69
05/30/2014	06:00:46.424	$GPGGA,060046,2519.2568,N,07932.4003,W,1,10,1.4,20,M,,M,,*6C
05/30/2014	06:00:47.458	$GPGGA,060047,2519.2556,N,07932.4021,W,1,10,1.4,20,M,,M,,*60
05/30/2014	06:00:48.452	$GPGGA,060048,2519.2543,N,07932.4039,W,1,10,1.4,21,M,,M,,*63
05/30/2014	06:00:49.446	$GPGGA,060049,2519.2531,N,07932.4057,W,1,10,1.4,21,M,,M,,*6F
05/30/2014	06:00:50.418	$GPGGA,060050,2519.2520,N,07932.4075,W,1,10,1.4,21,M,,M,,*67
05/30/2014	06:00:51.432	$GPGGA,060051,2519.2507,N,07932.4093,W,1,10,1.4,21,M,,M,,*6B
05/30/2014	06:00:52.445	$GPGGA,060052,2519.2495,N,07932.4111,W,1,10,1.4,21,M,,M,,*69
05/30/2014	06:00:53.460	$GPGGA,060053,2519.2482,N,07932.4130,W,1,10,1.5,21,M,,M,,*6C
05/30/2014	06:00:54.422	$GPGGA,060054,2519.2471,N,07932.4148,W,1,10,1.4,21,M,,M,,*69
05/30/2014	06:00:55.446	$GPGGA,060055,2519.2458,N,07932.4166,W,1,10,1.4,21,M,,M,,*6F
05/30/2014	06:00:56.459	$GPGGA,060056,2519.2445,N,07932.4184,W,1,10,1.4,21,M,,M,,*6C
05/30/2014	06:00:57.453	$GPGGA,060057,2519.2433,N,07932.4202,W,1,10,1.4,21,M,,M,,*61
05/30/2014	06:00:58.435	$GPGGA,060058,2519.2420,N,07932.4220,W,1,10,1.4,21,M,,M,,*6C
05/30/2014	06:00:59.439	$GPGGA,060059,2519.2409,N,07932.4238,W,1,10,1.4,21,M,,M,,*6F
05/30/2014	06:01:00.462	$GPGGA,060100,2519.2397,N,07932.4257,W,1,10,1.4,21,M,,M,,*6B
05/30/2014	06:01:01.436	$GPGGA,060101,2519.2385,N,07932.4275,W,1,10,1.4,21,M,,M,,*69
05/30/2014	06:01:02.439	$GPGGA,060102,2519.2375,N,07932.4295,W,1,10,1.4,21,M,,M,,*6B
05/30/2014	06:01:03.473	$GPGGA,060103,2519.2362,N,07932.4314,W,1,10,1.4,21,M,,M,,*64
05/30/2014	06:01:04.467	$GPGGA,060104,2519.2350,N,07932.4332,W,1,10,1.5,21,M,,M,,*67
05/30/2014	06:01:05.440	$GPGGA,060105,2519.2339,N,07932.4351,W,1,9,1.4,21,M,,M,,*55
05/30/2014	06:01:06.463	$GPGGA,060106,2519.2326,N,07932.4369,W,1,9,1.4,21,M,,M,,*53
05/30/2014	06:01:07.457	$GPGGA,060107,2519.2314,N,07932.4387,W,1,10,1.7,21,M,,M,,*68
05/30/2014	06:01:08.460	$GPGGA,060108,2519.2304,N,07932.4407,W,1,10,1.7,21,M,,M,,*69
05/30/2014	06:01:09.484	$GPGGA,060109,2519.2292,N,07932.4426,W,1,9,1.4,21,M,,M,,*5E
05/30/2014	06:01:10.468	$GPGGA,060110,2519.2279,N,07932.4444,W,1,9,1.5,21,M,,M,,*56
05/30/2014	06:01:11.461	$GPGGA,060111,2519.2268,N,07932.4463,W,1,9,1.7,21,M,,M,,*50
05/30/2014	06:01:12.484	$GPGGA,060112,2519.2255,N,07932.4483,W,1,9,1.4,21,M,,M,,*50
05/30/2014	06:01:13.458	$GPGGA,060113,2519.2243,N,07932.4501,W,1,10,1.4,21,M,,M,,*65
05/30/2014	06:01:14.552	$GPGGA,060114,2519.2231,N,07932.4521,W,1,10,1.4,21,M,,M,,*65
05/30/2014	06:01:15.474	$GPGGA,060115,2519.2218,N,07932.4541,W,1,10,1.4,21,M,,M,,*69
05/30/2014	06:01:16.588	$GPGGA,060116,2519.2203,N,07932.4559,W,1,10,1.4,21,M,,M,,*69
05/30/2014	06:01:17.491	$GPGGA,060117,2519.2191,N,07932.4578,W,1,10,1.4,21,M,,M,,*63
05/30/2014	06:01:18.484	$GPGGA,060118,2519.2178,N,07932.4597,W,1,10,1.4,21,M,,M,,*6A
05/30/2014	06:01:19.458	$GPGGA,060119,2519.2166,N,07932.4617,W,1,10,1.5,21,M,,M,,*6E
05/30/2014	06:01:20.512	$GPGGA,060120,2519.2152,N,07932.4635,W,1,10,1.5,21,M,,M,,*63
05/30/2014	06:01:21.595	$GPGGA,060121,2519.2142,N,07932.4653,W,1,9,1.4,21,M,,M,,*5A
05/30/2014	06:01:22.468	$GPGGA,060122,2519.2130,N,07932.4672,W,1,9,1.4,21,M,,M,,*5F
05/30/2014	06:01:23.502	$GPGGA,060123,2519.2119,N,07932.4690,W,1,10,1.4,21,M,,M,,*61
05/30/2014	06:01:24.576	$GPGGA,060124,2519.2106,N,07932.4711,W,1,10,1.4,21,M,,M,,*60
05/30/2014	06:01:25.489	$GPGGA,060125,2519.2094,N,07932.4729,W,1,10,1.4,21,M,,M,,*60
05/30/2014	06:01:26.492	$GPGGA,060126,2519.2083,N,07932.4747,W,1,10,1.4,21,M,,M,,*6D
05/30/2014	06:01:27.616	$GPGGA,060127,2519.2069,N,07932.4766,W,1,10,1.4,21,M,,M,,*6B
05/30/2014	06:01:28.579	$GPGGA,060128,2519.2057,N,07932.4787,W,1,10,1.4,21,M,,M,,*66
05/30/2014	06:01:29.603	$GPGGA,060129,2519.2047,N,07932.4805,W,1,9,1.5,21,M,,M,,*5A
05/30/2014	06:01:30.576	$GPGGA,060130,2519.2033,N,07932.4824,W,1,9,1.4,21,M,,M,,*53
05/30/2014	06:01:31.580	$GPGGA,060131,2519.2020,N,07932.4842,W,1,10,1.5,21,M,,M,,*69
05/30/2014	06:01:32.593	$GPGGA,060132,2519.2004,N,07932.4863,W,1,10,1.5,21,M,,M,,*6F
05/30/2014	06:01:33.606	$GPGGA,060133,2519.1994,N,07932.4881,W,1,10,1.4,21,M,,M,,*60
05/30/2014	06:01:34.579	$GPGGA,060134,2519.1982,N,07932.4899,W,1,10,1.4,21,M,,M,,*69
05/30/2014	06:01:35.593	$GPGGA,060135,2519.1971,N,07932.4917,W,1,10,1.5,21,M,,M,,*62
05/30/2014	06:01:36.606	$GPGGA,060136,2519.1960,N,07932.4936,W,1,10,1.5,21,M,,M,,*62
05/30/2014	06:01:37.610	$GPGGA,060137,2519.1947,N,07932.4956,W,1,10,1.4,21,M,,M,,*61
05/30/2014	06:01:38.583	$GPGGA,060138,2519.1935,N,07932.4973,W,1,10,1.4,21,M,,M,,*6C
05/30/2014	06:01:39.587	$GPGGA,060139,2519.1924,N,07932.4993,W,1,10,1.4,21,M,,M,,*63
05/30/2014	06:01:40.610	$GPGGA,060140,2519.1913,N,07932.5011,W,1,10,1.4,21,M,,M,,*6B
05/30/2014	06:01:41.411	$GPGGA,060141,2519.1902,N,07932.5029,W,1,10,1.4,21,M,,M,,*61
05/30/2014	06:01:42.394	$GPGGA,060142,2519.1890,N,07932.5047,W,1,10,1.4,21,M,,M,,*60
05/30/2014	06:01:43.388	$GPGGA,060143,2519.1879,N,07932.5066,W,1,10,1.4,21,M,,M,,*65
05/30/2014	06:01:44.411	$GPGGA,060144,2519.1867,N,07932.5084,W,1,10,1.4,21,M,,M,,*61
05/30/2014	06:01:45.395	$GPGGA,060145,2519.1856,N,07932.5102,W,1,9,1.5,21,M,,M,,*54
05/30/2014	06:01:46.398	$GPGGA,060146,2519.1845,N,07932.5120,W,1,9,1.4,21,M,,M,,*54
05/30/2014	06:01:47.393	$GPGGA,060147,2519.1833,N,07932.5138,W,1,9,1.5,21,M,,M,,*5C
05/30/2014	06:01:48.415	$GPGGA,060148,2519.1823,N,07932.5155,W,1,9,1.4,21,M,,M,,*58
05/30/2014	06:01:49.399	$GPGGA,060149,2519.1812,N,07932.5173,W,1,9,1.5,21,M,,M,,*5E
05/30/2014	06:01:50.402	$GPGGA,060150,2519.1799,N,07932.5191,W,1,9,1.4,21,M,,M,,*57
05/30/2014	06:01:51.435	$GPGGA,060151,2519.1788,N,07932.5209,W,1,10,1.4,21,M,,M,,*6C
05/30/2014	06:01:52.429	$GPGGA,060152,2519.1776,N,07932.5228,W,1,10,1.4,21,M,,M,,*6D
05/30/2014	06:01:53.402	$GPGGA,060153,2519.1765,N,07932.5245,W,1,10,1.4,21,M,,M,,*65
05/30/2014	06:01:54.416	$GPGGA,060154,2519.1752,N,07932.5262,W,1,10,1.4,21,M,,M,,*63
05/30/2014	06:01:55.399	$GPGGA,060155,2519.1740,N,07932.5278,W,1,9,1.5,21,M,,M,,*53
05/30/2014	06:01:56.432	$GPGGA,060156,2519.1729,N,07932.5296,W,1,9,1.4,21,M,,M,,*5E
05/30/2014	06:01:57.457	$GPGGA,060157,2519.1715,N,07932.5314,W,1,10,1.4,21,M,,M,,*63
05/30/2014	06:01:58.409	$GPGGA,060158,2519.1703,N,07932.5330,W,1,10,1.4,21,M,,M,,*6D
05/30/2014	06:01:59.533	$GPGGA,060159,2519.1693,N,07932.5348,W,1,10,1.4,21,M,,M,,*6B
05/30/2014	06:02:00.446	$GPGGA,060200,2519.1680,N,07932.5366,W,1,10,1.4,21,M,,M,,*6A
05/30/2014	06:02:01.410	$GPGGA,060201,2519.1667,N,07932.5383,W,1,10,1.4,21,M,,M,,*69
05/30/2014	06:02:02.433	$GPGGA,060202,2519.1656,N,07932.5401,W,1,10,1.4,21,M,,M,,*65
05/30/2014	06:02:03.537	$GPGGA,060203,2519.1643,N,07932.5419,W,1,10,1.4,21,M,,M,,*69
05/30/2014	06:02:04.430	$GPGGA,060204,2519.1632,N,07932.5437,W,1,10,1.5,21,M,,M,,*65
05/30/2014	06:02:05.434	$GPGGA,060205,2519.1620,N,07932.5453,W,1,9,1.5,22,M,,M,,*5E
05/30/2014	06:02:06.518	$GPGGA,060206,2519.1609,N,07932.5473,W,1,9,1.4,22,M,,M,,*55
05/30/2014	06:02:07.560	$GPGGA,060207,2519.1597,N,07932.5492,W,1,10,1.4,22,M,,M,,*67
05/30/2014	06:02:08.564	$GPGGA,060208,2519.1584,N,07932.5510,W,1,10,1.4,22,M,,M,,*61
05/30/2014	06:02:09.447	$GPGGA,060209,2519.1572,N,07932.5528,W,1,10,1.4,22,M,,M,,*62
05/30/2014	06:02:10.430	$GPGGA,060210,2519.1560,N,07932.5549,W,1,10,1.4,22,M,,M,,*6E
05/30/2014	06:02:11.444	$GPGGA,060211,2519.1549,N,07932.5567,W,1,9,1.5,22,M,,M,,*51
05/30/2014	06:02:12.538	$GPGGA,060212,2519.1537,N,07932.5585,W,1,9,1.4,22,M,,M,,*56
05/30/2014	06:02:13.451	$GPGGA,060213,2519.1524,N,07932.5605,W,1,10,1.4,22,M,,M,,*66
05/30/2014	06:02:14.534	$GPGGA,060214,2519.1512,N,07932.5625,W,1,10,1.6,22,M,,M,,*64
05/30/2014	06:02:15.539	$GPGGA,060215,2519.1501,N,07932.5645,W,1,9,1.5,22,M,,M,,*5A
05/30/2014	06:02:16.552	$GPGGA,060216,2519.1487,N,07932.5665,W,1,9,1.4,22,M,,M,,*55
05/30/2014	06:02:17.535	$GPGGA,060217,2519.1476,N,07932.5683,W,1,9,1.5,22,M,,M,,*53
05/30/2014	06:02:18.548	$GPGGA,060218,2519.1463,N,07932.5704,W,1,9,1.4,22,M,,M,,*57
05/30/2014	06:02:19.542	$GPGGA,060219,2519.1451,N,07932.5723,W,1,10,1.4,21,M,,M,,*69
05/30/2014	06:02:20.555	$GPGGA,060220,2519.1438,N,07932.5741,W,1,10,1.4,21,M,,M,,*68
05/30/2014	06:02:21.569	$GPGGA,060221,2519.1426,N,07932.5760,W,1,10,1.4,21,M,,M,,*65
05/30/2014	06:02:22.552	$GPGGA,060222,2519.1414,N,07932.5780,W,1,10,1.4,21,M,,M,,*69
05/30/2014	06:02:23.546	$GPGGA,060223,2519.1402,N,07932.5796,W,1,9,1.5,21,M,,M,,*51
05/30/2014	06:02:24.569	$GPGGA,060224,2519.1390,N,07932.5816,W,1,9,1.4,21,M,,M,,*5C
05/30/2014	06:02:25.562	$GPGGA,060225,2519.1377,N,07932.5835,W,1,10,1.4,21,M,,M,,*6D
05/30/2014	06:02:26.555	$GPGGA,060226,2519.1366,N,07932.5853,W,1,10,1.4,21,M,,M,,*6E
05/30/2014	06:02:27.559	$GPGGA,060227,2519.1354,N,07932.5872,W,1,10,1.4,21,M,,M,,*6D
05/30/2014	06:02:28.582	$GPGGA,060228,2519.1342,N,07932.5889,W,1,10,1.5,21,M,,M,,*60
05/30/2014	06:02:29.576	$GPGGA,060229,2519.1330,N,07932.5907,W,1,10,1.4,21,M,,M,,*62
05/30/2014	06:02:30.549	$GPGGA,060230,2519.1318,N,07932.5928,W,1,10,1.4,20,M,,M,,*6C
05/30/2014	06:02:31.593	$GPGGA,060231,2519.1306,N,07932.5944,W,1,10,1.4,20,M,,M,,*68
05/30/2014	06:02:32.566	$GPGGA,060232,2519.1292,N,07932.5962,W,1,10,1.5,20,M,,M,,*62
05/30/2014	06:02:33.580	$GPGGA,060233,2519.1279,N,07932.5980,W,1,10,1.4,20,M,,M,,*6B
05/30/2014	06:02:34.563	$GPGGA,060234,2519.1267,N,07932.5998,W,1,10,1.4,20,M,,M,,*6A
05/30/2014	06:02:35.557	$GPGGA,060235,2519.1255,N,07932.6015,W,1,10,1.4,20,M,,M,,*65
05/30/2014	06:02:36.590	$GPGGA,060236,2519.1242,N,07932.6033,W,1,10,1.4,20,M,,M,,*64
05/30/2014	06:02:37.565	$GPGGA,060237,2519.1230,N,07932.6051,W,1,10,1.4,20,M,,M,,*64
05/30/2014	06:02:38.577	$GPGGA,060238,2519.1219,N,07932.6069,W,1,10,1.4,20,M,,M,,*6B
05/30/2014	06:02:39.572	$GPGGA,060239,2519.1206,N,07932.6087,W,1,10,1.4,20,M,,M,,*64
05/30/2014	06:02:40.594	$GPGGA,060240,2519.1194,N,07932.6105,W,1,10,1.4,20,M,,M,,*69
05/30/2014	06:02:41.406	$GPGGA,060241,2519.1183,N,07932.6124,W,1,10,1.4,20,M,,M,,*6D
05/30/2014	06:02:42.380	$GPGGA,060242,2519.1170,N,07932.6142,W,1,10,1.4,20,M,,M,,*62
05/30/2014	06:02:43.372	$GPGGA,060243,2519.1158,N,07932.6160,W,1,10,1.4,20,M,,M,,*69
05/30/2014	06:02:44.395	$GPGGA,060244,2519.1145,N,07932.6178,W,1,10,1.4,20,M,,M,,*6B
05/30/2014	06:02:45.389	$GPGGA,060245,2519.1134,N,07932.6196,W,1,9,1.5,20,M,,M,,*55
05/30/2014	06:02:46.382	$GPGGA,060246,2519.1119,N,07932.6214,W,1,9,1.5,20,M,,M,,*50
05/30/2014	06:02:47.396	$GPGGA,060247,2519.1107,N,07932.6232,W,1,10,1.4,20,M,,M,,*63
05/30/2014	06:02:48.409	$GPGGA,060248,2519.1095,N,07932.6250,W,1,10,1.5,20,M,,M,,*63
05/30/2014	06:02:49.404	$GPGGA,060249,2519.1083,N,07932.6269,W,1,10,1.4,20,M,,M,,*6E
05/30/2014	06:02:50.396	$GPGGA,060250,2519.1071,N,07932.6287,W,1,10,1.4,20,M,,M,,*6B
05/30/2014	06:02:51.510	$GPGGA,060251,2519.1058,N,07932.6306,W,1,10,1.4,20,M,,M,,*69
05/30/2014	06:02:52.413	$GPGGA,060252,2519.1046,N,07932.6326,W,1,10,1.4,20,M,,M,,*67
05/30/2014	06:02:53.398	$GPGGA,060253,2519.1035,N,07932.6344,W,1,10,1.4,20,M,,M,,*66
05/30/2014	06:02:54.511	$GPGGA,060254,2519.1023,N,07932.6362,W,1,10,1.4,20,M,,M,,*62
05/30/2014	06:02:55.515	$GPGGA,060255,2519.1010,N,07932.6378,W,1,10,1.4,20,M,,M,,*68
05/30/2014	06:02:56.417	$GPGGA,060256,2519.0999,N,07932.6398,W,1,10,1.4,20,M,,M,,*6C
05/30/2014	06:02:57.521	$GPGGA,060257,2519.0988,N,07932.6418,W,1,10,1.4,20,M,,M,,*62
05/30/2014	06:02:58.504	$GPGGA,060258,2519.0974,N,07932.6436,W,1,10,1.5,20,M,,M,,*63
05/30/2014	06:02:59.507	$GPGGA,060259,2519.0963,N,07932.6454,W,1,10,1.4,20,M,,M,,*61
05/30/2014	06:03:00.439	$GPGGA,060300,2519.0952,N,07932.6474,W,1,10,1.4,20,M,,M,,*6C
05/30/2014	06:03:01.493	$GPGGA,060301,2519.0939,N,07932.6493,W,1,9,1.5,20,M,,M,,*50
05/30/2014	06:03:02.405	$GPGGA,060302,2519.0927,N,07932.6512,W,1,9,1.4,20,M,,M,,*55
05/30/2014	06:03:03.488	$GPGGA,060303,2519.0916,N,07932.6530,W,1,10,1.4,20,M,,M,,*6E
05/30/2014	06:03:04.521	$GPGGA,060304,2519.0905,N,07932.6550,W,1,10,1.4,19,M,,M,,*67
05/30/2014	06:03:05.494	$GPGGA,060305,2519.0893,N,07932.6568,W,1,10,1.4,19,M,,M,,*63
05/30/2014	06:03:06.507	$GPGGA,060306,2519.0882,N,07932.6586,W,1,10,1.4,19,M,,M,,*60
05/30/2014	06:03:07.499	$GPGGA,060307,2519.0872,N,07932.6604,W,1,9,1.5,19,M,,M,,*5E
05/30/2014	06:03:08.522	$GPGGA,060308,2519.0860,N,07932.6623,W,1,9,1.4,19,M,,M,,*56
05/30/2014	06:03:09.516	$GPGGA,060309,2519.0848,N,07932.6641,W,1,10,1.4,19,M,,M,,*61
05/30/2014	06:03:10.508	$GPGGA,060310,2519.0838,N,07932.6659,W,1,10,1.4,19,M,,M,,*67
05/30/2014	06:03:11.532	$GPGGA,060311,2519.0826,N,07932.6678,W,1,10,1.4,19,M,,M,,*6A
05/30/2014	06:03:12.525	$GPGGA,060312,2519.0815,N,07932.6698,W,1,10,1.5,19,M,,M,,*66
05/30/2014	06:03:13.508	$GPGGA,060313,2519.0804,N,07932.6717,W,1,9,1.7,19,M,,M,,*5B
05/30/2014	06:03:14.520	$GPGGA,060314,2519.0790,N,07932.6736,W,1,9,1.4,19,M,,M,,*5E
05/30/2014	06:03:15.534	$GPGGA,060315,2519.0777,N,07932.6754,W,1,10,1.4,19,M,,M,,*6A
05/30/2014	06:03:16.526	$GPGGA,060316,2519.0764,N,07932.6774,W,1,10,1.4,19,M,,M,,*69
05/30/2014	06:03:17.540	$GPGGA,060317,2519.0752,N,07932.6795,W,1,10,1.4,19,M,,M,,*62
05/30/2014	06:03:18.510	$GPGGA,060318,2519.0739,N,07932.6813,W,1,10,1.4,19,M,,M,,*61
05/30/2014	06:03:19.523	$GPGGA,060319,2519.0726,N,07932.6829,W,1,10,1.4,19,M,,M,,*67
05/30/2014	06:03:20.536	$GPGGA,060320,2519.0714,N,07932.6848,W,1,10,1.4,19,M,,M,,*6B
05/30/2014	06:03:21.519	$GPGGA,060321,2519.0703,N,07932.6868,W,1,10,1.4,19,M,,M,,*6E
05/30/2014	06:03:22.512	$GPGGA,060322,2519.0688,N,07932.6886,W,1,10,1.4,19,M,,M,,*6F
05/30/2014	06:03:23.545	$GPGGA,060323,2519.0676,N,07932.6905,W,1,10,1.4,19,M,,M,,*65
05/30/2014	06:03:24.538	$GPGGA,060324,2519.0663,N,07932.6925,W,1,10,1.4,19,M,,M,,*64
05/30/2014	06:03:25.551	$GPGGA,060325,2519.0650,N,07932.6943,W,1,10,1.4,19,M,,M,,*65
05/30/2014	06:03:26.513	$GPGGA,060326,2519.0638,N,07932.6962,W,1,10,1.4,19,M,,M,,*6B
05/30/2014	06:03:27.556	$GPGGA,060327,2519.0624,N,07932.6980,W,1,10,1.4,19,M,,M,,*6B
05/30/2014	06:03:28.549	$GPGGA,060328,2519.0611,N,07932.6999,W,1,10,1.5,19,M,,M,,*6B
05/30/2014	06:03:29.703	$GPGGA,060329,2519.0599,N,07932.7017,W,1,10,1.4,19,M,,M,,*66
05/30/2014	06:03:30.515	$GPGGA,060330,2519.0587,N,07932.7037,W,1,10,1.4,19,M,,M,,*63
05/30/2014	06:03:31.528	$GPGGA,060331,2519.0574,N,07932.7055,W,1,10,1.4,19,M,,M,,*6A
05/30/2014	06:03:32.541	$GPGGA,060332,2519.0562,N,07932.7071,W,1,10,1.4,19,M,,M,,*68
05/30/2014	06:03:33.534	$GPGGA,060333,2519.0551,N,07932.7092,W,1,10,1.4,19,M,,M,,*64
05/30/2014	06:03:34.517	$GPGGA,060334,2519.0538,N,07932.7110,W,1,10,1.4,19,M,,M,,*67
05/30/2014	06:03:35.539	$GPGGA,060335,2519.0526,N,07932.7126,W,1,10,1.4,19,M,,M,,*6C
05/30/2014	06:03:36.531	$GPGGA,060336,2519.0515,N,07932.7146,W,1,10,1.4,19,M,,M,,*69
05/30/2014	06:03:37.544	$GPGGA,060337,2519.0502,N,07932.7164,W,1,10,1.4,19,M,,M,,*6E
05/30/2014	06:03:38.617	$GPGGA,060338,2519.0488,N,07932.7182,W,1,10,1.4,19,M,,M,,*6A
05/30/2014	06:03:39.540	$GPGGA,060339,2519.0476,N,07932.7201,W,1,10,1.4,19,M,,M,,*62
05/30/2014	06:03:40.544	$GPGGA,060340,2519.0464,N,07932.7219,W,1,10,1.4,19,M,,M,,*66
05/30/2014	06:03:41.449	$GPGGA,060341,2519.0452,N,07932.7238,W,1,10,1.4,19,M,,M,,*61
05/30/2014	06:03:42.452	$GPGGA,060342,2519.0440,N,07932.7256,W,1,10,1.4,19,M,,M,,*69
05/30/2014	06:03:43.375	$GPGGA,060343,2519.0428,N,07932.7274,W,1,10,1.4,19,M,,M,,*66
05/30/2014	06:03:44.458	$GPGGA,060344,2519.0415,N,07932.7292,W,1,10,1.4,19,M,,M,,*67
05/30/2014	06:03:45.561	$GPGGA,060345,2519.0403,N,07932.7312,W,1,10,1.4,19,M,,M,,*68
05/30/2014	06:03:46.373	$GPGGA,060346,2519.0389,N,07932.7330,W,1,10,1.4,19,M,,M,,*6E
05/30/2014	06:03:47.548	$GPGGA,060347,2519.0378,N,07932.7348,W,1,10,1.4,19,M,,M,,*6E
05/30/2014	06:03:48.519	$GPGGA,060348,2519.0364,N,07932.7367,W,1,10,1.4,19,M,,M,,*61
05/30/2014	06:03:49.572	$GPGGA,060349,2519.0351,N,07932.7385,W,1,10,1.4,19,M,,M,,*6A
05/30/2014	06:03:50.455	$GPGGA,060350,2519.0340,N,07932.7404,W,1,10,1.4,19,M,,M,,*6C
05/30/2014	06:03:51.568	$GPGGA,060351,2519.0327,N,07932.7424,W,1,10,1.4,19,M,,M,,*6E
05/30/2014	06:03:52.470	$GPGGA,060352,2519.0316,N,07932.7442,W,1,10,1.4,19,M,,M,,*6F
05/30/2014	06:03:53.563	$GPGGA,060353,2519.0303,N,07932.7460,W,1,10,1.4,19,M,,M,,*6A
05/30/2014	06:03:54.486	$GPGGA,060354,2519.0291,N,07932.7479,W,1,10,1.4,19,M,,M,,*6F
05/30/2014	06:03:55.579	$GPGGA,060355,2519.0280,N,07932.7496,W,1,9,1.4,19,M,,M,,*57
05/30/2014	06:03:56.501	$GPGGA,060356,2519.0266,N,07932.7514,W,1,9,1.4,19,M,,M,,*57
05/30/2014	06:03:57.464	$GPGGA,060357,2519.0255,N,07932.7533,W,1,10,1.4,19,M,,M,,*6B
05/30/2014	06:03:58.497	$GPGGA,060358,2519.0244,N,07932.7552,W,1,10,1.4,19,M,,M,,*63
05/30/2014	06:03:59.570	$GPGGA,060359,2519.0233,N,07932.7570,W,1,10,1.4,19,M,,M,,*62
05/30/2014	06:04:00.483	$GPGGA,060400,2519.0221,N,07932.7590,W,1,10,1.4,19,M,,M,,*64
05/30/2014	06:04:01.547	$GPGGA,060401,2519.0209,N,07932.7609,W,1,10,1.4,19,M,,M,,*6C
05/30/2014	06:04:02.499	$GPGGA,060402,2519.0198,N,07932.7628,W,1,10,1.4,19,M,,M,,*67
05/30/2014	06:04:03.532	$GPGGA,060403,2519.0186,N,07932.7648,W,1,10,1.4,19,M,,M,,*6F
05/30/2014	06:04:04.535	$GPGGA,060404,2519.0175,N,07932.7666,W,1,10,1.4,19,M,,M,,*68
05/30/2014	06:04:05.589	$GPGGA,060405,2519.0162,N,07932.7686,W,1,9,1.5,19,M,,M,,*58
05/30/2014	06:04:06.504	$GPGGA,060406,2519.0150,N,07932.7706,W,1,9,1.6,19,M,,M,,*50
05/30/2014	06:04:07.463	$GPGGA,060407,2519.0139,N,07932.7724,W,1,8,1.6,19,M,,M,,*5F
05/30/2014	06:04:08.506	$GPGGA,060408,2519.0130,N,07932.7742,W,1,8,1.4,19,M,,M,,*5B
05/30/2014	06:04:09.469	$GPGGA,060409,2519.0121,N,07932.7761,W,1,9,1.5,19,M,,M,,*5B
05/30/2014	06:04:10.501	$GPGGA,060410,2519.0111,N,07932.7780,W,1,9,1.5,19,M,,M,,*5F
05/30/2014	06:04:11.564	$GPGGA,060411,2519.0099,N,07932.7800,W,1,9,1.5,19,M,,M,,*58
05/30/2014	06:04:12.527	$GPGGA,060412,2519.0087,N,07932.7818,W,1,9,1.4,19,M,,M,,*5C
05/30/2014	06:04:13.480	$GPGGA,060413,2519.0078,N,07932.7836,W,1,10,1.4,19,M,,M,,*69
05/30/2014	06:04:14.503	$GPGGA,060414,2519.0065,N,07932.7857,W,1,10,1.5,18,M,,M,,*65
05/30/2014	06:04:15.596	$GPGGA,060415,2519.0053,N,07932.7874,W,1,9,1.5,18,M,,M,,*58
05/30/2014	06:04:16.529	$GPGGA,060416,2519.0042,N,07932.7892,W,1,9,1.5,18,M,,M,,*53
05/30/2014	06:04:17.591	$GPGGA,060417,2519.0031,N,07932.7912,W,1,10,1.4,18,M,,M,,*66
05/30/2014	06:04:18.474	$GPGGA,060418,2519.0020,N,07932.7930,W,1,10,1.4,18,M,,M,,*69
05/30/2014	06:04:19.577	$GPGGA,060419,2519.0006,N,07932.7949,W,1,10,1.4,18,M,,M,,*62
05/30/2014	06:04:20.520	$GPGGA,060420,2518.9993,N,07932.7967,W,1,10,1.4,18,M,,M,,*69
05/30/2014	06:04:21.573	$GPGGA,060421,2518.9982,N,07932.7986,W,1,10,1.4,18,M,,M,,*67
05/30/2014	06:04:22.506	$GPGGA,060422,2518.9969,N,07932.8006,W,1,10,1.4,18,M,,M,,*6F
05/30/2014	06:04:23.599	$GPGGA,060423,2518.9956,N,07932.8024,W,1,10,1.4,18,M,,M,,*62
05/30/2014	06:04:24.532	$GPGGA,060424,2518.9944,N,07932.8042,W,1,10,1.4,18,M,,M,,*66
05/30/2014	06:04:25.616	$GPGGA,060425,2518.9932,N,07932.8060,W,1,10,1.4,18,M,,M,,*66
05/30/2014	06:04:26.517	$GPGGA,060426,2518.9919,N,07932.8078,W,1,10,1.5,18,M,,M,,*64
05/30/2014	06:04:27.569	$GPGGA,060427,2518.9908,N,07932.8098,W,1,9,1.4,18,M,,M,,*52
05/30/2014	06:04:28.492	$GPGGA,060428,2518.9895,N,07932.8116,W,1,9,1.4,18,M,,M,,*5F
05/30/2014	06:04:29.485	$GPGGA,060429,2518.9883,N,07932.8134,W,1,10,1.4,18,M,,M,,*61
05/30/2014	06:04:30.619	$GPGGA,060430,2518.9869,N,07932.8152,W,1,10,1.4,18,M,,M,,*6D
05/30/2014	06:04:31.571	$GPGGA,060431,2518.9857,N,07932.8172,W,1,10,1.4,18,M,,M,,*63
05/30/2014	06:04:32.624	$GPGGA,060432,2518.9844,N,07932.8190,W,1,10,1.4,18,M,,M,,*6E
05/30/2014	06:04:33.597	$GPGGA,060433,2518.9832,N,07932.8206,W,1,10,1.4,18,M,,M,,*62
05/30/2014	06:04:34.489	$GPGGA,060434,2518.9819,N,07932.8224,W,1,10,1.4,18,M,,M,,*6C
05/30/2014	06:04:35.623	$GPGGA,060435,2518.9807,N,07932.8242,W,1,10,1.4,18,M,,M,,*62
05/30/2014	06:04:36.555	$GPGGA,060436,2518.9793,N,07932.8260,W,1,10,1.4,18,M,,M,,*63
05/30/2014	06:04:37.618	$GPGGA,060437,2518.9780,N,07932.8278,W,1,10,1.4,18,M,,M,,*69
05/30/2014	06:04:38.541	$GPGGA,060438,2518.9767,N,07932.8296,W,1,10,1.4,18,M,,M,,*6F
05/30/2014	06:04:39.604	$GPGGA,060439,2518.9754,N,07932.8313,W,1,10,1.4,18,M,,M,,*62
05/30/2014	06:04:40.617	$GPGGA,060440,2518.9742,N,07932.8331,W,1,10,1.4,18,M,,M,,*6B
05/30/2014	06:04:41.443	$GPGGA,060441,2518.9729,N,07932.8349,W,1,10,1.4,18,M,,M,,*68
05/30/2014	06:04:42.436	$GPGGA,060442,2518.9715,N,07932.8367,W,1,10,1.4,18,M,,M,,*68
05/30/2014	06:04:43.449	$GPGGA,060443,2518.9703,N,07932.8385,W,1,10,1.4,18,M,,M,,*62
05/30/2014	06:04:44.452	$GPGGA,060444,2518.9691,N,07932.8403,W,1,10,1.4,18,M,,M,,*66
05/30/2014	06:04:45.474	$GPGGA,060445,2518.9677,N,07932.8421,W,1,10,1.4,18,M,,M,,*6F
05/30/2014	06:04:46.436	$GPGGA,060446,2518.9664,N,07932.8439,W,1,10,1.5,18,M,,M,,*66
05/30/2014	06:04:47.459	$GPGGA,060447,2518.9652,N,07932.8457,W,1,9,1.4,18,M,,M,,*53
05/30/2014	06:04:48.456	$GPGGA,060448,2518.9641,N,07932.8476,W,1,9,1.4,18,M,,M,,*5D
05/30/2014	06:04:49.465	$GPGGA,060449,2518.9626,N,07932.8493,W,1,10,1.5,18,M,,M,,*6F
05/30/2014	06:04:50.448	$GPGGA,060450,2518.9614,N,07932.8512,W,1,10,1.5,18,M,,M,,*6E
05/30/2014	06:04:51.521	$GPGGA,060451,2518.9601,N,07932.8530,W,1,9,1.5,18,M,,M,,*53
05/30/2014	06:04:52.454	$GPGGA,060452,2518.9590,N,07932.8545,W,1,9,1.4,18,M,,M,,*58
05/30/2014	06:04:53.487	$GPGGA,060453,2518.9576,N,07932.8563,W,1,10,1.4,18,M,,M,,*6D
05/30/2014	06:04:54.460	$GPGGA,060454,2518.9563,N,07932.8580,W,1,10,1.5,18,M,,M,,*62
05/30/2014	06:04:55.474	$GPGGA,060455,2518.9551,N,07932.8600,W,1,9,1.4,18,M,,M,,*50
05/30/2014	06:04:56.465	$GPGGA,060456,2518.9539,N,07932.8618,W,1,9,1.4,18,M,,M,,*54
05/30/2014	06:04:57.488	$GPGGA,060457,2518.9526,N,07932.8635,W,1,10,1.4,17,M,,M,,*63
05/30/2014	06:04:58.451	$GPGGA,060458,2518.9514,N,07932.8652,W,1,10,1.4,17,M,,M,,*6C
05/30/2014	06:04:59.484	$GPGGA,060459,2518.9502,N,07932.8671,W,1,10,1.4,17,M,,M,,*6B
05/30/2014	06:05:00.488	$GPGGA,060500,2518.9489,N,07932.8689,W,1,10,1.4,17,M,,M,,*63
05/30/2014	06:05:01.500	$GPGGA,060501,2518.9476,N,07932.8707,W,1,10,1.4,17,M,,M,,*65
05/30/2014	06:05:02.462	$GPGGA,060502,2518.9464,N,07932.8725,W,1,10,1.4,17,M,,M,,*65
05/30/2014	06:05:03.515	$GPGGA,060503,2518.9453,N,07932.8744,W,1,10,1.5,17,M,,M,,*66
05/30/2014	06:05:04.467	$GPGGA,060504,2518.9440,N,07932.8764,W,1,10,1.5,17,M,,M,,*61
05/30/2014	06:05:05.551	$GPGGA,060505,2518.9440,N,07932.8764,W,1,10,1.4,17,M,,M,,*61
05/30/2014	06:05:06.453	$GPGGA,060506,2518.9417,N,07932.8800,W,1,10,1.5,17,M,,M,,*6C
05/30/2014	06:05:07.516	$GPGGA,060507,2518.9406,N,07932.8818,W,1,9,1.5,17,M,,M,,*5C
05/30/2014	06:05:08.479	$GPGGA,060508,2518.9395,N,07932.8837,W,1,9,1.5,17,M,,M,,*53
05/30/2014	06:05:09.522	$GPGGA,060509,2518.9382,N,07932.8855,W,1,8,1.5,17,M,,M,,*51
05/30/2014	06:05:10.465	$GPGGA,060510,2518.9371,N,07932.8874,W,1,8,1.6,17,M,,M,,*55
05/30/2014	06:05:11.528	$GPGGA,060511,2518.9359,N,07932.8894,W,1,8,1.6,17,M,,M,,*50
05/30/2014	06:05:12.591	$GPGGA,060512,2518.9350,N,07932.8912,W,1,8,1.6,17,M,,M,,*55
05/30/2014	06:05:13.525	$GPGGA,060513,2518.9337,N,07932.8931,W,1,9,1.6,17,M,,M,,*55
05/30/2014	06:05:14.466	$GPGGA,060514,2518.9325,N,07932.8952,W,1,9,1.6,17,M,,M,,*54
05/30/2014	06:05:15.489	$GPGGA,060515,2518.9325,N,07932.8952,W,1,8,1.6,17,M,,M,,*54
05/30/2014	06:05:16.483	$GPGGA,060516,2518.9302,N,07932.8988,W,1,8,1.6,17,M,,M,,*55
05/30/2014	06:05:17.605	$GPGGA,060517,2518.9302,N,07932.8988,W,1,9,1.5,17,M,,M,,*56
05/30/2014	06:05:18.478	$GPGGA,060518,2518.9290,N,07932.9007,W,1,9,1.6,17,M,,M,,*5F
05/30/2014	06:05:19.491	$GPGGA,060519,2518.9278,N,07932.9025,W,1,9,1.5,17,M,,M,,*5B
05/30/2014	06:05:20.603	$GPGGA,060520,2518.9255,N,07932.9062,W,1,9,1.5,17,M,,M,,*5D
05/30/2014	06:05:21.476	$GPGGA,060521,2518.9255,N,07932.9062,W,1,10,1.4,17,M,,M,,*65
05/30/2014	06:05:22.459	$GPGGA,060522,2518.9232,N,07932.9100,W,1,10,1.4,17,M,,M,,*62
05/30/2014	06:05:23.481	$GPGGA,060523,2518.9232,N,07932.9100,W,1,10,1.4,17,M,,M,,*63
05/30/2014	06:05:24.575	$GPGGA,060524,2518.9207,N,07932.9134,W,1,10,1.4,17,M,,M,,*65
05/30/2014	06:05:25.608	$GPGGA,060525,2518.9195,N,07932.9155,W,1,10,1.4,17,M,,M,,*6B
05/30/2014	06:05:26.480	$GPGGA,060526,2518.9182,N,07932.9173,W,1,10,1.5,17,M,,M,,*6B
05/30/2014	06:05:27.573	$GPGGA,060527,2518.9171,N,07932.9191,W,1,10,1.4,17,M,,M,,*6B
05/30/2014	06:05:28.596	$GPGGA,060528,2518.9158,N,07932.9209,W,1,10,1.4,17,M,,M,,*6D
05/30/2014	06:05:29.609	$GPGGA,060529,2518.9146,N,07932.9227,W,1,10,1.4,17,M,,M,,*6F
05/30/2014	06:05:30.574	$GPGGA,060530,2518.9135,N,07932.9245,W,1,10,1.4,17,M,,M,,*67
05/30/2014	06:05:31.585	$GPGGA,060531,2518.9122,N,07932.9264,W,1,10,1.4,18,M,,M,,*6C
05/30/2014	06:05:32.588	$GPGGA,060532,2518.9109,N,07932.9282,W,1,10,1.4,18,M,,M,,*6E
05/30/2014	06:05:33.601	$GPGGA,060533,2518.9099,N,07932.9301,W,1,10,1.4,18,M,,M,,*6D
05/30/2014	06:05:34.574	$GPGGA,060534,2518.9086,N,07932.9321,W,1,10,1.4,18,M,,M,,*66
05/30/2014	06:05:35.607	$GPGGA,060535,2518.9073,N,07932.9339,W,1,10,1.4,18,M,,M,,*64
05/30/2014	06:05:36.589	$GPGGA,060536,2518.9063,N,07932.9357,W,1,10,1.5,18,M,,M,,*6F
05/30/2014	06:05:37.611	$GPGGA,060537,2518.9052,N,07932.9378,W,1,10,1.4,18,M,,M,,*60
05/30/2014	06:05:38.574	$GPGGA,060538,2518.9039,N,07932.9395,W,1,10,1.5,18,M,,M,,*60
05/30/2014	06:05:39.577	$GPGGA,060539,2518.9027,N,07932.9415,W,1,10,1.4,18,M,,M,,*60
05/30/2014	06:05:40.601	$GPGGA,060540,2518.9016,N,07932.9434,W,1,10,1.4,18,M,,M,,*6F
05/30/2014	06:05:41.436	$GPGGA,060541,2518.9016,N,07932.9434,W,1,10,1.4,18,M,,M,,*6E
05/30/2014	06:05:42.419	$GPGGA,060542,2518.8991,N,07932.9473,W,1,10,1.5,18,M,,M,,*68
05/30/2014	06:05:43.412	$GPGGA,060543,2518.8979,N,07932.9491,W,1,10,1.4,18,M,,M,,*62
05/30/2014	06:05:44.435	$GPGGA,060544,2518.8967,N,07932.9509,W,1,10,1.4,18,M,,M,,*6A
05/30/2014	06:05:45.437	$GPGGA,060545,2518.8954,N,07932.9528,W,1,10,1.4,18,M,,M,,*68
05/30/2014	06:05:46.420	$GPGGA,060546,2518.8941,N,07932.9546,W,1,10,1.4,18,M,,M,,*67
05/30/2014	06:05:47.413	$GPGGA,060547,2518.8929,N,07932.9566,W,1,9,1.5,18,M,,M,,*53
05/30/2014	06:05:48.436	$GPGGA,060548,2518.8918,N,07932.9584,W,1,9,1.4,18,M,,M,,*53
05/30/2014	06:05:49.459	$GPGGA,060549,2518.8906,N,07932.9603,W,1,10,1.4,18,M,,M,,*69
05/30/2014	06:05:50.422	$GPGGA,060550,2518.8895,N,07932.9621,W,1,10,1.5,18,M,,M,,*6B
05/30/2014	06:05:51.435	$GPGGA,060551,2518.8885,N,07932.9639,W,1,10,1.4,18,M,,M,,*63
05/30/2014	06:05:52.438	$GPGGA,060552,2518.8875,N,07932.9657,W,1,10,1.4,18,M,,M,,*67
05/30/2014	06:05:53.421	$GPGGA,060553,2518.8864,N,07932.9675,W,1,10,1.4,18,M,,M,,*66
05/30/2014	06:05:54.423	$GPGGA,060554,2518.8851,N,07932.9694,W,1,10,1.4,18,M,,M,,*68
05/30/2014	06:05:55.445	$GPGGA,060555,2518.8839,N,07932.9714,W,1,10,1.4,18,M,,M,,*6E
05/30/2014	06:05:56.438	$GPGGA,060556,2518.8825,N,07932.9732,W,1,10,1.4,18,M,,M,,*64
05/30/2014	06:05:57.441	$GPGGA,060557,2518.8815,N,07932.9751,W,1,10,1.4,18,M,,M,,*63
05/30/2014	06:05:58.424	$GPGGA,060558,2518.8803,N,07932.9772,W,1,10,1.4,18,M,,M,,*6A
05/30/2014	06:05:59.437	$GPGGA,060559,2518.8789,N,07932.9788,W,1,8,1.6,18,M,,M,,*58
05/30/2014	06:06:00.460	$GPGGA,060600,2518.8779,N,07932.9808,W,1,8,1.4,18,M,,M,,*5D
05/30/2014	06:06:01.433	$GPGGA,060601,2518.8770,N,07932.9827,W,1,10,1.4,18,M,,M,,*61
05/30/2014	06:06:02.546	$GPGGA,060602,2518.8756,N,07932.9845,W,1,10,1.4,18,M,,M,,*62
05/30/2014	06:06:03.449	$GPGGA,060603,2518.8745,N,07932.9863,W,1,10,1.4,18,M,,M,,*65
05/30/2014	06:06:04.451	$GPGGA,060604,2518.8734,N,07932.9882,W,1,10,1.4,18,M,,M,,*6B
05/30/2014	06:06:05.464	$GPGGA,060605,2518.8719,N,07932.9902,W,1,10,1.4,18,M,,M,,*6C
05/30/2014	06:06:06.447	$GPGGA,060606,2518.8707,N,07932.9921,W,1,10,1.4,18,M,,M,,*61
05/30/2014	06:06:07.540	$GPGGA,060607,2518.8695,N,07932.9939,W,1,10,1.4,18,M,,M,,*63
05/30/2014	06:06:08.543	$GPGGA,060608,2518.8683,N,07932.9958,W,1,10,1.4,18,M,,M,,*6C
05/30/2014	06:06:09.546	$GPGGA,060609,2518.8671,N,07932.9976,W,1,10,1.4,18,M,,M,,*6C
05/30/2014	06:06:10.529	$GPGGA,060610,2518.8659,N,07932.9994,W,1,10,1.4,18,M,,M,,*62
05/30/2014	06:06:11.552	$GPGGA,060611,2518.8648,N,07933.0014,W,1,10,1.4,18,M,,M,,*6A
05/30/2014	06:06:12.454	$GPGGA,060612,2518.8635,N,07933.0033,W,1,10,1.4,18,M,,M,,*66
05/30/2014	06:06:13.567	$GPGGA,060613,2518.8622,N,07933.0050,W,1,10,1.4,18,M,,M,,*64
05/30/2014	06:06:14.449	$GPGGA,060614,2518.8611,N,07933.0069,W,1,10,1.4,18,M,,M,,*69
05/30/2014	06:06:15.553	$GPGGA,060615,2518.8598,N,07933.0087,W,1,10,1.4,18,M,,M,,*6A
05/30/2014	06:06:16.555	$GPGGA,060616,2518.8586,N,07933.0106,W,1,10,1.4,18,M,,M,,*6E
05/30/2014	06:06:17.568	$GPGGA,060617,2518.8573,N,07933.0124,W,1,10,1.4,18,M,,M,,*65
05/30/2014	06:06:18.541	$GPGGA,060618,2518.8560,N,07933.0142,W,1,10,1.4,18,M,,M,,*68
05/30/2014	06:06:19.544	$GPGGA,060619,2518.8548,N,07933.0162,W,1,10,1.4,18,M,,M,,*61
05/30/2014	06:06:20.567	$GPGGA,060620,2518.8536,N,07933.0178,W,1,10,1.4,18,M,,M,,*69
05/30/2014	06:06:21.570	$GPGGA,060621,2518.8524,N,07933.0197,W,1,10,1.4,18,M,,M,,*6A
05/30/2014	06:06:22.543	$GPGGA,060622,2518.8511,N,07933.0217,W,1,10,1.4,18,M,,M,,*64
05/30/2014	06:06:23.566	$GPGGA,060623,2518.8499,N,07933.0233,W,1,9,1.5,18,M,,M,,*5B
05/30/2014	06:06:24.559	$GPGGA,060624,2518.8486,N,07933.0253,W,1,9,1.4,18,M,,M,,*55
05/30/2014	06:06:25.552	$GPGGA,060625,2518.8474,N,07933.0271,W,1,10,1.4,18,M,,M,,*61
05/30/2014	06:06:26.544	$GPGGA,060626,2518.8460,N,07933.0289,W,1,10,1.4,18,M,,M,,*60
05/30/2014	06:06:27.567	$GPGGA,060627,2518.8447,N,07933.0305,W,1,10,1.4,18,M,,M,,*61
05/30/2014	06:06:28.570	$GPGGA,060628,2518.8436,N,07933.0323,W,1,10,1.4,18,M,,M,,*6C
05/30/2014	06:06:29.573	$GPGGA,060629,2518.8423,N,07933.0343,W,1,10,1.4,18,M,,M,,*6F
05/30/2014	06:06:30.565	$GPGGA,060630,2518.8410,N,07933.0359,W,1,10,1.4,18,M,,M,,*6C
05/30/2014	06:06:31.548	$GPGGA,060631,2518.8398,N,07933.0377,W,1,10,1.4,18,M,,M,,*66
05/30/2014	06:06:32.571	$GPGGA,060632,2518.8387,N,07933.0395,W,1,10,1.4,18,M,,M,,*67
05/30/2014	06:06:33.574	$GPGGA,060633,2518.8373,N,07933.0413,W,1,10,1.4,18,M,,M,,*64
05/30/2014	06:06:34.568	$GPGGA,060634,2518.8362,N,07933.0431,W,1,10,1.4,18,M,,M,,*63
05/30/2014	06:06:35.550	$GPGGA,060635,2518.8349,N,07933.0449,W,1,10,1.4,18,M,,M,,*64
05/30/2014	06:06:36.582	$GPGGA,060636,2518.8336,N,07933.0466,W,1,10,1.4,18,M,,M,,*62
05/30/2014	06:06:37.585	$GPGGA,060637,2518.8324,N,07933.0484,W,1,10,1.4,18,M,,M,,*6C
05/30/2014	06:06:38.568	$GPGGA,060638,2518.8312,N,07933.0503,W,1,10,1.4,18,M,,M,,*68
05/30/2014	06:06:39.551	$GPGGA,060639,2518.8299,N,07933.0520,W,1,10,1.4,18,M,,M,,*6A
05/30/2014	06:06:40.574	$GPGGA,060640,2518.8286,N,07933.0538,W,1,10,1.4,18,M,,M,,*63
05/30/2014	06:06:41.392	$GPGGA,060641,2518.8275,N,07933.0557,W,1,10,1.4,18,M,,M,,*67
05/30/2014	06:06:42.393	$GPGGA,060642,2518.8262,N,07933.0575,W,1,10,1.5,18,M,,M,,*63
05/30/2014	06:06:43.406	$GPGGA,060643,2518.8250,N,07933.0592,W,1,10,1.4,18,M,,M,,*6B
05/30/2014	06:06:44.408	$GPGGA,060644,2518.8237,N,07933.0612,W,1,10,1.4,18,M,,M,,*66
05/30/2014	06:06:45.431	$GPGGA,060645,2518.8225,N,07933.0630,W,1,10,1.4,18,M,,M,,*64
05/30/2014	06:06:46.394	$GPGGA,060646,2518.8212,N,07933.0647,W,1,10,1.4,18,M,,M,,*63
05/30/2014	06:06:47.416	$GPGGA,060647,2518.8200,N,07933.0665,W,1,10,1.4,18,M,,M,,*61
05/30/2014	06:06:48.419	$GPGGA,060648,2518.8189,N,07933.0683,W,1,10,1.4,18,M,,M,,*64
05/30/2014	06:06:49.422	$GPGGA,060649,2518.8176,N,07933.0702,W,1,10,1.4,18,M,,M,,*6D
05/30/2014	06:06:50.395	$GPGGA,060650,2518.8164,N,07933.0720,W,1,10,1.5,18,M,,M,,*67
05/30/2014	06:06:51.418	$GPGGA,060651,2518.8152,N,07933.0738,W,1,10,1.4,18,M,,M,,*6B
05/30/2014	06:06:52.431	$GPGGA,060652,2518.8139,N,07933.0758,W,1,10,1.5,18,M,,M,,*62
05/30/2014	06:06:53.524	$GPGGA,060653,2518.8127,N,07933.0777,W,1,10,1.4,18,M,,M,,*60
05/30/2014	06:06:54.507	$GPGGA,060654,2518.8114,N,07933.0795,W,1,10,1.5,18,M,,M,,*6A
05/30/2014	06:06:55.520	$GPGGA,060655,2518.8102,N,07933.0813,W,1,10,1.4,18,M,,M,,*6C
05/30/2014	06:06:56.432	$GPGGA,060656,2518.8089,N,07933.0832,W,1,10,1.4,18,M,,M,,*6E
05/30/2014	06:06:57.425	$GPGGA,060657,2518.8077,N,07933.0850,W,1,10,1.4,18,M,,M,,*6A
05/30/2014	06:06:58.498	$GPGGA,060658,2518.8064,N,07933.0868,W,1,10,1.5,18,M,,M,,*6D
05/30/2014	06:06:59.401	$GPGGA,060659,2518.8051,N,07933.0885,W,1,10,1.4,18,M,,M,,*68
05/30/2014	06:07:00.574	$GPGGA,060700,2518.8040,N,07933.0903,W,1,10,1.4,18,M,,M,,*6A
05/30/2014	06:07:01.527	$GPGGA,060701,2518.8026,N,07933.0919,W,1,10,1.4,18,M,,M,,*60
05/30/2014	06:07:02.420	$GPGGA,060702,2518.8015,N,07933.0937,W,1,10,1.4,18,M,,M,,*6F
05/30/2014	06:07:03.523	$GPGGA,060703,2518.8001,N,07933.0955,W,1,10,1.4,18,M,,M,,*6F
05/30/2014	06:07:04.526	$GPGGA,060704,2518.7987,N,07933.0972,W,1,10,1.4,18,M,,M,,*65
05/30/2014	06:07:05.517	$GPGGA,060705,2518.7976,N,07933.0990,W,1,10,1.4,18,M,,M,,*66
05/30/2014	06:07:06.510	$GPGGA,060706,2518.7964,N,07933.1008,W,1,10,1.4,18,M,,M,,*6F
05/30/2014	06:07:08.297	$GPGGA,060707,2518.7951,N,07933.1024,W,1,10,1.4,18,M,,M,,*66
05/30/2014	06:07:08.526	$GPGGA,060708,2518.7937,N,07933.1041,W,1,10,1.4,18,M,,M,,*6A
05/30/2014	06:07:09.910	$GPGGA,060709,2518.7925,N,07933.1060,W,1,10,1.4,18,M,,M,,*6B
05/30/2014	06:07:10.522	$GPGGA,060710,2518.7914,N,07933.1080,W,1,10,1.4,18,M,,M,,*6F
05/30/2014	06:07:11.545	$GPGGA,060711,2518.7903,N,07933.1098,W,1,8,1.8,18,M,,M,,*54
05/30/2014	06:07:12.538	$GPGGA,060712,2518.7889,N,07933.1113,W,1,8,1.8,18,M,,M,,*56
05/30/2014	06:07:13.511	$GPGGA,060713,2518.7878,N,07933.1132,W,1,9,1.7,18,M,,M,,*54
05/30/2014	06:07:14.514	$GPGGA,060714,2518.7865,N,07933.1150,W,1,9,1.7,18,M,,M,,*5B
05/30/2014	06:07:15.546	$GPGGA,060715,2518.7853,N,07933.1168,W,1,9,1.7,18,M,,M,,*54
05/30/2014	06:07:16.541	$GPGGA,060716,2518.7840,N,07933.1186,W,1,9,1.8,18,M,,M,,*5A
05/30/2014	06:07:17.552	$GPGGA,060717,2518.7829,N,07933.1204,W,1,9,1.7,18,M,,M,,*52
05/30/2014	06:07:18.525	$GPGGA,060718,2518.7816,N,07933.1222,W,1,9,1.8,18,M,,M,,*5A
05/30/2014	06:07:19.538	$GPGGA,060719,2518.7804,N,07933.1240,W,1,9,1.7,18,M,,M,,*53
05/30/2014	06:07:20.541	$GPGGA,060720,2518.7791,N,07933.1259,W,1,9,1.8,18,M,,M,,*5D
05/30/2014	06:07:21.544	$GPGGA,060721,2518.7780,N,07933.1279,W,1,9,1.7,18,M,,M,,*51
05/30/2014	06:07:22.526	$GPGGA,060722,2518.7768,N,07933.1297,W,1,9,1.8,18,M,,M,,*5B
05/30/2014	06:07:23.519	$GPGGA,060723,2518.7755,N,07933.1315,W,1,9,1.7,18,M,,M,,*50
05/30/2014	06:07:24.541	$GPGGA,060724,2518.7744,N,07933.1334,W,1,9,1.8,18,M,,M,,*5B
05/30/2014	06:07:25.524	$GPGGA,060725,2518.7731,N,07933.1353,W,1,8,1.8,18,M,,M,,*58
05/30/2014	06:07:26.537	$GPGGA,060726,2518.7719,N,07933.1373,W,1,8,1.7,17,M,,M,,*53
05/30/2014	06:07:27.520	$GPGGA,060727,2518.7708,N,07933.1391,W,1,9,1.7,17,M,,M,,*5F
05/30/2014	06:07:28.553	$GPGGA,060728,2518.7697,N,07933.1409,W,1,9,1.7,17,M,,M,,*51
05/30/2014	06:07:29.526	$GPGGA,060729,2518.7684,N,07933.1427,W,1,8,1.7,17,M,,M,,*5F
05/30/2014	06:07:30.549	$GPGGA,060730,2518.7672,N,07933.1446,W,1,8,1.7,17,M,,M,,*59
05/30/2014	06:07:31.532	$GPGGA,060731,2518.7661,N,07933.1464,W,1,8,1.7,17,M,,M,,*5A
05/30/2014	06:07:32.555	$GPGGA,060732,2518.7650,N,07933.1483,W,1,8,1.7,17,M,,M,,*52
05/30/2014	06:07:33.527	$GPGGA,060733,2518.7640,N,07933.1503,W,1,9,1.7,17,M,,M,,*5A
05/30/2014	06:07:34.540	$GPGGA,060734,2518.7628,N,07933.1521,W,1,9,1.7,17,M,,M,,*53
05/30/2014	06:07:35.533	$GPGGA,060735,2518.7616,N,07933.1539,W,1,9,1.7,17,M,,M,,*56
05/30/2014	06:07:36.647	$GPGGA,060736,2518.7604,N,07933.1557,W,1,9,1.7,17,M,,M,,*5E
05/30/2014	06:07:37.639	$GPGGA,060737,2518.7592,N,07933.1576,W,1,9,1.7,17,M,,M,,*50
05/30/2014	06:07:38.542	$GPGGA,060738,2518.7579,N,07933.1595,W,1,9,1.7,17,M,,M,,*57
05/30/2014	06:07:39.555	$GPGGA,060739,2518.7567,N,07933.1615,W,1,9,1.7,17,M,,M,,*52
05/30/2014	06:07:41.409	$GPGGA,060741,2518.7543,N,07933.1651,W,1,9,1.7,17,M,,M,,*5B
05/30/2014	06:07:42.386	$GPGGA,060742,2518.7531,N,07933.1670,W,1,9,1.8,17,M,,M,,*51
05/30/2014	06:07:43.368	$GPGGA,060743,2518.7518,N,07933.1688,W,1,8,1.8,17,M,,M,,*5D
05/30/2014	06:07:44.482	$GPGGA,060744,2518.7506,N,07933.1707,W,1,8,1.7,17,M,,M,,*5C
05/30/2014	06:07:45.394	$GPGGA,060745,2518.7495,N,07933.1727,W,1,8,1.8,17,M,,M,,*5B
05/30/2014	06:07:46.377	$GPGGA,060746,2518.7482,N,07933.1745,W,1,8,1.8,17,M,,M,,*5A
05/30/2014	06:07:47.510	$GPGGA,060747,2518.7469,N,07933.1763,W,1,8,1.8,17,M,,M,,*5A
05/30/2014	06:07:48.513	$GPGGA,060748,2518.7457,N,07933.1782,W,1,8,1.7,17,M,,M,,*58
05/30/2014	06:07:49.496	$GPGGA,060749,2518.7446,N,07933.1801,W,1,9,1.7,17,M,,M,,*5C
05/30/2014	06:07:50.409	$GPGGA,060750,2518.7433,N,07933.1819,W,1,9,1.8,17,M,,M,,*50
05/30/2014	06:07:51.402	$GPGGA,060751,2518.7420,N,07933.1837,W,1,9,1.7,17,M,,M,,*50
05/30/2014	06:07:52.405	$GPGGA,060752,2518.7408,N,07933.1857,W,1,9,1.8,17,M,,M,,*50
05/30/2014	06:07:53.488	$GPGGA,060753,2518.7397,N,07933.1873,W,1,8,1.8,17,M,,M,,*57
05/30/2014	06:07:54.482	$GPGGA,060754,2518.7383,N,07933.1890,W,1,8,1.7,17,M,,M,,*57
05/30/2014	06:07:55.514	$GPGGA,060755,2518.7370,N,07933.1908,W,1,9,1.7,17,M,,M,,*5B
05/30/2014	06:07:56.496	$GPGGA,060756,2518.7358,N,07933.1926,W,1,9,1.7,17,M,,M,,*5E
05/30/2014	06:07:57.498	$GPGGA,060757,2518.7345,N,07933.1944,W,1,9,1.7,17,M,,M,,*57
05/30/2014	06:07:58.491	$GPGGA,060758,2518.7332,N,07933.1959,W,1,9,1.8,17,M,,M,,*5B
05/30/2014	06:07:59.514	$GPGGA,060759,2518.7319,N,07933.1977,W,1,9,1.7,17,M,,M,,*50
05/30/2014	06:08:00.517	$GPGGA,060800,2518.7307,N,07933.1995,W,1,9,1.7,17,M,,M,,*50
05/30/2014	06:08:01.479	$GPGGA,060801,2518.7294,N,07933.2013,W,1,8,1.8,17,M,,M,,*50
05/30/2014	06:08:02.482	$GPGGA,060802,2518.7281,N,07933.2031,W,1,8,1.7,17,M,,M,,*58
05/30/2014	06:08:03.515	$GPGGA,060803,2518.7271,N,07933.2050,W,1,9,1.7,17,M,,M,,*50
05/30/2014	06:08:04.509	$GPGGA,060804,2518.7257,N,07933.2066,W,1,9,1.8,17,M,,M,,*59
05/30/2014	06:08:05.520	$GPGGA,060805,2518.7243,N,07933.2084,W,1,9,1.7,17,M,,M,,*5E
05/30/2014	06:08:06.493	$GPGGA,060806,2518.7231,N,07933.2102,W,1,9,1.7,17,M,,M,,*57
05/30/2014	06:08:07.525	$GPGGA,060807,2518.7218,N,07933.2121,W,1,8,1.8,17,M,,M,,*52
05/30/2014	06:08:08.508	$GPGGA,060808,2518.7206,N,07933.2139,W,1,8,1.8,17,M,,M,,*5B
05/30/2014	06:08:09.481	$GPGGA,060809,2518.7193,N,07933.2157,W,1,9,1.7,17,M,,M,,*53
05/30/2014	06:08:10.503	$GPGGA,060810,2518.7181,N,07933.2175,W,1,9,1.7,17,M,,M,,*58
05/30/2014	06:08:11.486	$GPGGA,060811,2518.7168,N,07933.2193,W,1,9,1.7,17,M,,M,,*56
05/30/2014	06:08:12.509	$GPGGA,060812,2518.7155,N,07933.2211,W,1,9,1.7,17,M,,M,,*52
05/30/2014	06:08:13.512	$GPGGA,060813,2518.7144,N,07933.2229,W,1,9,1.7,17,M,,M,,*58
05/30/2014	06:08:14.504	$GPGGA,060814,2518.7130,N,07933.2247,W,1,9,1.7,17,M,,M,,*54
05/30/2014	06:08:15.557	$GPGGA,060815,2518.7116,N,07933.2263,W,1,9,1.7,17,M,,M,,*57
05/30/2014	06:08:16.499	$GPGGA,060816,2518.7105,N,07933.2281,W,1,9,1.7,17,M,,M,,*5A
05/30/2014	06:08:17.532	$GPGGA,060817,2518.7094,N,07933.2301,W,1,9,1.7,17,M,,M,,*5B
05/30/2014	06:08:18.504	$GPGGA,060818,2518.7079,N,07933.2319,W,1,9,1.8,17,M,,M,,*51
05/30/2014	06:08:19.497	$GPGGA,060819,2518.7067,N,07933.2335,W,1,9,1.7,17,M,,M,,*5E
05/30/2014	06:08:20.519	$GPGGA,060820,2518.7055,N,07933.2355,W,1,9,1.7,17,M,,M,,*53
05/30/2014	06:08:21.512	$GPGGA,060821,2518.7043,N,07933.2373,W,1,8,1.8,17,M,,M,,*5F
05/30/2014	06:08:22.505	$GPGGA,060822,2518.7030,N,07933.2392,W,1,8,1.7,17,M,,M,,*58
05/30/2014	06:08:23.498	$GPGGA,060823,2518.7018,N,07933.2410,W,1,9,1.7,17,M,,M,,*5F
05/30/2014	06:08:24.610	$GPGGA,060824,2518.7007,N,07933.2428,W,1,9,1.8,17,M,,M,,*52
05/30/2014	06:08:25.493	$GPGGA,060825,2518.6994,N,07933.2447,W,1,8,1.8,17,M,,M,,*59
05/30/2014	06:08:26.616	$GPGGA,060826,2518.6982,N,07933.2465,W,1,8,1.7,17,M,,M,,*52
05/30/2014	06:08:27.609	$GPGGA,060827,2518.6971,N,07933.2483,W,1,9,1.7,17,M,,M,,*56
05/30/2014	06:08:28.521	$GPGGA,060828,2518.6957,N,07933.2500,W,1,9,1.7,17,M,,M,,*57
05/30/2014	06:08:29.524	$GPGGA,060829,2518.6944,N,07933.2519,W,1,9,1.7,17,M,,M,,*5C
05/30/2014	06:08:30.516	$GPGGA,060830,2518.6933,N,07933.2538,W,1,9,1.8,17,M,,M,,*58
05/30/2014	06:08:31.509	$GPGGA,060831,2518.6921,N,07933.2558,W,1,8,1.8,17,M,,M,,*5D
05/30/2014	06:08:32.631	$GPGGA,060832,2518.6909,N,07933.2576,W,1,8,1.7,17,M,,M,,*57
05/30/2014	06:08:33.523	$GPGGA,060833,2518.6897,N,07933.2592,W,1,9,1.7,17,M,,M,,*5B
05/30/2014	06:08:34.506	$GPGGA,060834,2518.6885,N,07933.2612,W,1,9,1.7,17,M,,M,,*54
05/30/2014	06:08:35.639	$GPGGA,060835,2518.6874,N,07933.2630,W,1,8,1.8,17,M,,M,,*55
05/30/2014	06:08:36.622	$GPGGA,060836,2518.6861,N,07933.2648,W,1,8,1.7,17,M,,M,,*52
05/30/2014	06:08:37.624	$GPGGA,060837,2518.6849,N,07933.2666,W,1,9,1.7,17,M,,M,,*54
05/30/2014	06:08:38.517	$GPGGA,060838,2518.6837,N,07933.2684,W,1,9,1.7,17,M,,M,,*5E
05/30/2014	06:08:39.630	$GPGGA,060839,2518.6825,N,07933.2703,W,1,9,1.7,17,M,,M,,*52
05/30/2014	06:08:40.663	$GPGGA,060840,2518.6812,N,07933.2721,W,1,9,1.7,17,M,,M,,*58
05/30/2014	06:08:41.487	$GPGGA,060841,2518.6801,N,07933.2739,W,1,9,1.7,17,M,,M,,*52
05/30/2014	06:08:42.460	$GPGGA,060842,2518.6788,N,07933.2758,W,1,9,1.7,17,M,,M,,*58
05/30/2014	06:08:43.452	$GPGGA,060843,2518.6777,N,07933.2776,W,1,9,1.7,17,M,,M,,*55
05/30/2014	06:08:44.485	$GPGGA,060844,2518.6765,N,07933.2796,W,1,9,1.8,17,M,,M,,*50
05/30/2014	06:08:45.528	$GPGGA,060845,2518.6754,N,07933.2814,W,1,8,1.7,17,M,,M,,*58
05/30/2014	06:08:46.460	$GPGGA,060846,2518.6740,N,07933.2832,W,1,8,1.8,17,M,,M,,*55
05/30/2014	06:08:47.483	$GPGGA,060847,2518.6729,N,07933.2851,W,1,8,1.8,17,M,,M,,*5E
05/30/2014	06:08:48.476	$GPGGA,060848,2518.6718,N,07933.2870,W,1,8,1.8,17,M,,M,,*50
05/30/2014	06:08:49.478	$GPGGA,060849,2518.6704,N,07933.2887,W,1,8,1.7,17,M,,M,,*5B
05/30/2014	06:08:50.470	$GPGGA,060850,2518.6691,N,07933.2905,W,1,8,1.7,17,M,,M,,*55
05/30/2014	06:08:51.463	$GPGGA,060851,2518.6680,N,07933.2924,W,1,9,1.7,17,M,,M,,*56
05/30/2014	06:08:52.516	$GPGGA,060852,2518.6668,N,07933.2944,W,1,9,1.8,17,M,,M,,*5A
05/30/2014	06:08:53.458	$GPGGA,060853,2518.6657,N,07933.2962,W,1,8,1.7,17,M,,M,,*5D
05/30/2014	06:08:54.462	$GPGGA,060854,2518.6644,N,07933.2978,W,1,8,1.7,17,M,,M,,*53
05/30/2014	06:08:55.494	$GPGGA,060855,2518.6631,N,07933.2996,W,1,9,1.7,17,M,,M,,*51
05/30/2014	06:08:56.476	$GPGGA,060856,2518.6620,N,07933.3014,W,1,9,1.7,17,M,,M,,*50
05/30/2014	06:08:57.479	$GPGGA,060857,2518.6608,N,07933.3032,W,1,9,1.7,17,M,,M,,*5F
05/30/2014	06:08:58.472	$GPGGA,060858,2518.6595,N,07933.3049,W,1,9,1.7,17,M,,M,,*5B
05/30/2014	06:08:59.454	$GPGGA,060859,2518.6582,N,07933.3067,W,1,9,1.7,17,M,,M,,*50
05/30/2014	06:09:00.527	$GPGGA,060900,2518.6570,N,07933.3085,W,1,9,1.8,17,M,,M,,*53
05/30/2014	06:09:01.460	$GPGGA,060901,2518.6557,N,07933.3101,W,1,8,1.7,17,M,,M,,*54
05/30/2014	06:09:02.482	$GPGGA,060902,2518.6543,N,07933.3116,W,1,8,1.7,17,M,,M,,*54
05/30/2014	06:09:03.495	$GPGGA,060903,2518.6531,N,07933.3133,W,1,9,1.7,17,M,,M,,*56
05/30/2014	06:09:04.488	$GPGGA,060904,2518.6518,N,07933.3150,W,1,9,1.7,17,M,,M,,*5F
05/30/2014	06:09:06.483	$GPGGA,060906,2518.6492,N,07933.3184,W,1,9,1.7,17,M,,M,,*57
05/30/2014	06:09:07.475	$GPGGA,060907,2518.6480,N,07933.3202,W,1,9,1.7,17,M,,M,,*58
05/30/2014	06:09:08.488	$GPGGA,060908,2518.6467,N,07933.3219,W,1,9,1.7,17,M,,M,,*54
05/30/2014	06:09:09.460	$GPGGA,060909,2518.6454,N,07933.3237,W,1,9,1.7,18,M,,M,,*56
05/30/2014	06:09:10.493	$GPGGA,060910,2518.6441,N,07933.3253,W,1,9,1.7,18,M,,M,,*58
05/30/2014	06:09:11.506	$GPGGA,060911,2518.6429,N,07933.3270,W,1,9,1.7,18,M,,M,,*56
05/30/2014	06:09:12.499	$GPGGA,060912,2518.6416,N,07933.3288,W,1,9,1.7,18,M,,M,,*5E
05/30/2014	06:09:13.481	$GPGGA,060913,2518.6405,N,07933.3306,W,1,9,1.7,18,M,,M,,*5A
05/30/2014	06:09:14.484	$GPGGA,060914,2518.6393,N,07933.3324,W,1,9,1.7,18,M,,M,,*55
05/30/2014	06:09:15.497	$GPGGA,060915,2518.6379,N,07933.3342,W,1,9,1.7,18,M,,M,,*50
05/30/2014	06:09:16.510	$GPGGA,060916,2518.6367,N,07933.3358,W,1,9,1.7,18,M,,M,,*57
05/30/2014	06:09:17.592	$GPGGA,060917,2518.6355,N,07933.3378,W,1,9,1.7,18,M,,M,,*55
05/30/2014	06:09:18.495	$GPGGA,060918,2518.6343,N,07933.3393,W,1,9,1.7,18,M,,M,,*58
05/30/2014	06:09:19.477	$GPGGA,060919,2518.6330,N,07933.3410,W,1,9,1.7,18,M,,M,,*51
05/30/2014	06:09:20.510	$GPGGA,060920,2518.6319,N,07933.3429,W,1,9,1.7,18,M,,M,,*5A
05/30/2014	06:09:21.513	$GPGGA,060921,2518.6307,N,07933.3447,W,1,9,1.7,18,M,,M,,*5C
05/30/2014	06:09:22.576	$GPGGA,060922,2518.6294,N,07933.3465,W,1,9,1.7,18,M,,M,,*54
05/30/2014	06:09:23.488	$GPGGA,060923,2518.6282,N,07933.3483,W,1,9,1.7,18,M,,M,,*5A
05/30/2014	06:09:24.591	$GPGGA,060924,2518.6271,N,07933.3501,W,1,9,1.7,18,M,,M,,*5A
05/30/2014	06:09:25.502	$GPGGA,060925,2518.6259,N,07933.3519,W,1,9,1.7,18,M,,M,,*58
05/30/2014	06:09:26.575	$GPGGA,060926,2518.6245,N,07933.3537,W,1,9,1.7,18,M,,M,,*5A
05/30/2014	06:09:27.598	$GPGGA,060927,2518.6235,N,07933.3556,W,1,9,1.7,18,M,,M,,*5B
05/30/2014	06:09:28.601	$GPGGA,060928,2518.6223,N,07933.3574,W,1,9,1.4,18,M,,M,,*50
05/30/2014	06:09:29.593	$GPGGA,060929,2518.6209,N,07933.3591,W,1,9,1.7,18,M,,M,,*51
05/30/2014	06:09:30.596	$GPGGA,060930,2518.6198,N,07933.3609,W,1,9,1.4,18,M,,M,,*53
05/30/2014	06:09:31.589	$GPGGA,060931,2518.6185,N,07933.3628,W,1,9,1.5,17,M,,M,,*53
05/30/2014	06:09:32.602	$GPGGA,060932,2518.6172,N,07933.3645,W,1,9,1.5,17,M,,M,,*53
05/30/2014	06:09:33.614	$GPGGA,060933,2518.6162,N,07933.3664,W,1,8,1.5,17,M,,M,,*51
05/30/2014	06:09:34.587	$GPGGA,060934,2518.6151,N,07933.3682,W,1,8,1.4,17,M,,M,,*5F
05/30/2014	06:09:35.600	$GPGGA,060935,2518.6138,N,07933.3699,W,1,9,1.4,17,M,,M,,*5A
05/30/2014	06:09:36.592	$GPGGA,060936,2518.6126,N,07933.3717,W,1,9,1.4,17,M,,M,,*51
05/30/2014	06:09:37.595	$GPGGA,060937,2518.6115,N,07933.3736,W,1,9,1.4,17,M,,M,,*53
05/30/2014	06:09:38.599	$GPGGA,060938,2518.6101,N,07933.3754,W,1,9,1.7,17,M,,M,,*5E
05/30/2014	06:09:39.580	$GPGGA,060939,2518.6088,N,07933.3770,W,1,9,1.4,17,M,,M,,*5A
05/30/2014	06:09:40.606	$GPGGA,060940,2518.6075,N,07933.3788,W,1,9,1.4,17,M,,M,,*51
05/30/2014	06:09:41.451	$GPGGA,060941,2518.6062,N,07933.3805,W,1,9,1.4,17,M,,M,,*5C
05/30/2014	06:09:42.442	$GPGGA,060942,2518.6047,N,07933.3822,W,1,9,1.4,17,M,,M,,*5D
05/30/2014	06:09:43.435	$GPGGA,060943,2518.6035,N,07933.3838,W,1,9,1.4,17,M,,M,,*52
05/30/2014	06:09:44.448	$GPGGA,060944,2518.6021,N,07933.3855,W,1,9,1.4,17,M,,M,,*5B
05/30/2014	06:09:45.451	$GPGGA,060945,2518.6007,N,07933.3871,W,1,9,1.4,17,M,,M,,*58
05/30/2014	06:09:46.433	$GPGGA,060946,2518.5992,N,07933.3887,W,1,9,1.4,18,M,,M,,*5B
05/30/2014	06:09:47.466	$GPGGA,060947,2518.5979,N,07933.3905,W,1,10,1.4,18,M,,M,,*6C
05/30/2014	06:09:48.450	$GPGGA,060948,2518.5966,N,07933.3920,W,1,10,1.4,18,M,,M,,*6A
05/30/2014	06:09:49.441	$GPGGA,060949,2518.5952,N,07933.3934,W,1,10,1.4,18,M,,M,,*69
05/30/2014	06:09:50.454	$GPGGA,060950,2518.5938,N,07933.3950,W,1,10,1.4,18,M,,M,,*6F
05/30/2014	06:09:51.447	$GPGGA,060951,2518.5924,N,07933.3967,W,1,10,1.4,18,M,,M,,*67
05/30/2014	06:09:52.459	$GPGGA,060952,2518.5910,N,07933.3983,W,1,10,1.4,18,M,,M,,*69
05/30/2014	06:09:53.472	$GPGGA,060953,2518.5894,N,07933.3996,W,1,10,1.4,18,M,,M,,*61
05/30/2014	06:09:54.455	$GPGGA,060954,2518.5881,N,07933.4014,W,1,10,1.4,18,M,,M,,*66
05/30/2014	06:09:55.498	$GPGGA,060955,2518.5867,N,07933.4029,W,1,10,1.4,18,M,,M,,*61
05/30/2014	06:09:56.450	$GPGGA,060956,2518.5851,N,07933.4043,W,1,10,1.4,18,M,,M,,*6B
05/30/2014	06:09:57.463	$GPGGA,060957,2518.5837,N,07933.4058,W,1,10,1.4,18,M,,M,,*60
05/30/2014	06:09:58.446	$GPGGA,060958,2518.5823,N,07933.4075,W,1,10,1.4,18,M,,M,,*65
05/30/2014	06:09:59.448	$GPGGA,060959,2518.5807,N,07933.4090,W,1,9,2.2,18,M,,M,,*54
05/30/2014	06:10:00.580	$GPGGA,061000,2518.5793,N,07933.4104,W,1,9,2.2,18,M,,M,,*5E
05/30/2014	06:10:01.443	$GPGGA,061001,2518.5779,N,07933.4119,W,1,9,2.2,18,M,,M,,*57
05/30/2014	06:10:02.456	$GPGGA,061002,2518.5764,N,07933.4136,W,1,9,2.2,18,M,,M,,*55
05/30/2014	06:10:03.458	$GPGGA,061003,2518.5750,N,07933.4151,W,1,10,1.4,18,M,,M,,*6F
05/30/2014	06:10:04.462	$GPGGA,061004,2518.5735,N,07933.4166,W,1,10,1.4,18,M,,M,,*6F
05/30/2014	06:10:05.573	$GPGGA,061005,2518.5719,N,07933.4183,W,1,10,1.4,18,M,,M,,*6B
05/30/2014	06:10:06.467	$GPGGA,061006,2518.5704,N,07933.4198,W,1,10,1.4,18,M,,M,,*6E
05/30/2014	06:10:07.569	$GPGGA,061007,2518.5690,N,07933.4216,W,1,10,1.4,18,M,,M,,*66
05/30/2014	06:10:08.561	$GPGGA,061008,2518.5675,N,07933.4230,W,1,10,1.4,18,M,,M,,*66
05/30/2014	06:10:09.464	$GPGGA,061009,2518.5660,N,07933.4245,W,1,10,1.4,19,M,,M,,*60
05/30/2014	06:10:10.466	$GPGGA,061010,2518.5646,N,07933.4261,W,1,10,1.4,19,M,,M,,*6A
05/30/2014	06:10:11.449	$GPGGA,061011,2518.5632,N,07933.4277,W,1,10,1.4,19,M,,M,,*6F
05/30/2014	06:10:12.572	$GPGGA,061012,2518.5617,N,07933.4292,W,1,10,1.4,19,M,,M,,*60
05/30/2014	06:10:13.544	$GPGGA,061013,2518.5603,N,07933.4306,W,1,10,1.4,19,M,,M,,*68
05/30/2014	06:10:14.467	$GPGGA,061014,2518.5588,N,07933.4322,W,1,10,1.4,19,M,,M,,*69
05/30/2014	06:10:15.559	$GPGGA,061015,2518.5574,N,07933.4339,W,1,10,1.4,19,M,,M,,*61
05/30/2014	06:10:16.562	$GPGGA,061016,2518.5562,N,07933.4354,W,1,10,1.4,19,M,,M,,*6E
05/30/2014	06:10:17.584	$GPGGA,061017,2518.5546,N,07933.4371,W,1,10,1.4,19,M,,M,,*6E
05/30/2014	06:10:18.556	$GPGGA,061018,2518.5533,N,07933.4386,W,1,10,1.4,19,M,,M,,*6B
05/30/2014	06:10:19.579	$GPGGA,061019,2518.5519,N,07933.4402,W,1,10,1.4,19,M,,M,,*69
05/30/2014	06:10:20.581	$GPGGA,061020,2518.5505,N,07933.4418,W,1,10,1.4,19,M,,M,,*65
05/30/2014	06:10:21.558	$GPGGA,061021,2518.5492,N,07933.4434,W,1,10,1.4,19,M,,M,,*65
05/30/2014	06:10:22.567	$GPGGA,061022,2518.5479,N,07933.4451,W,1,10,1.4,19,M,,M,,*60
05/30/2014	06:10:23.589	$GPGGA,061023,2518.5466,N,07933.4469,W,1,10,1.4,19,M,,M,,*64
05/30/2014	06:10:24.572	$GPGGA,061024,2518.5453,N,07933.4483,W,1,10,1.4,19,M,,M,,*61
05/30/2014	06:10:25.574	$GPGGA,061025,2518.5439,N,07933.4501,W,1,10,1.4,19,M,,M,,*67
05/30/2014	06:10:26.557	$GPGGA,061026,2518.5428,N,07933.4519,W,1,10,1.4,19,M,,M,,*6D
05/30/2014	06:10:27.580	$GPGGA,061027,2518.5414,N,07933.4535,W,1,10,1.4,19,M,,M,,*6D
05/30/2014	06:10:28.577	$GPGGA,061028,2518.5399,N,07933.4552,W,1,10,1.4,20,M,,M,,*6B
05/30/2014	06:10:29.555	$GPGGA,061029,2518.5388,N,07933.4570,W,1,10,1.4,20,M,,M,,*6A
05/30/2014	06:10:30.567	$GPGGA,061030,2518.5375,N,07933.4588,W,1,10,1.4,20,M,,M,,*67
05/30/2014	06:10:31.590	$GPGGA,061031,2518.5364,N,07933.4606,W,1,9,1.7,20,M,,M,,*58
05/30/2014	06:10:32.593	$GPGGA,061032,2518.5350,N,07933.4624,W,1,9,1.4,20,M,,M,,*5F
05/30/2014	06:10:33.555	$GPGGA,061033,2518.5338,N,07933.4642,W,1,10,1.4,20,M,,M,,*68
05/30/2014	06:10:34.568	$GPGGA,061034,2518.5327,N,07933.4660,W,1,10,1.4,20,M,,M,,*61
05/30/2014	06:10:35.569	$GPGGA,061035,2518.5314,N,07933.4678,W,1,10,1.4,20,M,,M,,*69
05/30/2014	06:10:36.582	$GPGGA,061036,2518.5302,N,07933.4693,W,1,10,1.4,19,M,,M,,*62
05/30/2014	06:10:37.554	$GPGGA,061037,2518.5289,N,07933.4711,W,1,10,1.4,19,M,,M,,*6A
05/30/2014	06:10:38.577	$GPGGA,061038,2518.5275,N,07933.4729,W,1,10,1.7,19,M,,M,,*6E
05/30/2014	06:10:39.610	$GPGGA,061039,2518.5262,N,07933.4747,W,1,10,1.4,19,M,,M,,*62
05/30/2014	06:10:40.592	$GPGGA,061040,2518.5248,N,07933.4763,W,1,10,1.4,19,M,,M,,*62
05/30/2014	06:10:41.424	$GPGGA,061041,2518.5235,N,07933.4781,W,1,10,1.4,19,M,,M,,*65
05/30/2014	06:10:42.426	$GPGGA,061042,2518.5223,N,07933.4799,W,1,10,1.4,19,M,,M,,*68
05/30/2014	06:10:43.409	$GPGGA,061043,2518.5210,N,07933.4817,W,1,10,1.4,19,M,,M,,*60
05/30/2014	06:10:44.433	$GPGGA,061044,2518.5197,N,07933.4834,W,1,10,1.7,19,M,,M,,*69
05/30/2014	06:10:45.454	$GPGGA,061045,2518.5184,N,07933.4852,W,1,10,1.4,19,M,,M,,*69
05/30/2014	06:10:46.447	$GPGGA,061046,2518.5173,N,07933.4870,W,1,10,1.4,19,M,,M,,*62
05/30/2014	06:10:47.439	$GPGGA,061047,2518.5159,N,07933.4886,W,1,10,1.4,19,M,,M,,*62
05/30/2014	06:10:48.442	$GPGGA,061048,2518.5146,N,07933.4902,W,1,10,1.4,19,M,,M,,*6E
05/30/2014	06:10:49.535	$GPGGA,061049,2518.5134,N,07933.4920,W,1,10,1.4,19,M,,M,,*6A
05/30/2014	06:10:50.417	$GPGGA,061050,2518.5121,N,07933.4936,W,1,10,1.4,19,M,,M,,*61
05/30/2014	06:10:51.520	$GPGGA,061051,2518.5107,N,07933.4953,W,1,10,1.4,19,M,,M,,*67
05/30/2014	06:10:52.451	$GPGGA,061052,2518.5092,N,07933.4969,W,1,10,1.4,19,M,,M,,*60
05/30/2014	06:10:53.444	$GPGGA,061053,2518.5079,N,07933.4986,W,1,10,1.4,19,M,,M,,*65
05/30/2014	06:10:54.527	$GPGGA,061054,2518.5065,N,07933.5003,W,1,10,1.4,19,M,,M,,*6A
05/30/2014	06:10:55.539	$GPGGA,061055,2518.5052,N,07933.5018,W,1,10,1.4,19,M,,M,,*65
05/30/2014	06:10:56.453	$GPGGA,061056,2518.5038,N,07933.5033,W,1,10,1.4,19,M,,M,,*63
05/30/2014	06:10:57.535	$GPGGA,061057,2518.5023,N,07933.5051,W,1,10,1.4,19,M,,M,,*6C
05/30/2014	06:10:58.437	$GPGGA,061058,2518.5010,N,07933.5066,W,1,10,1.4,19,M,,M,,*67
05/30/2014	06:10:59.439	$GPGGA,061059,2518.4997,N,07933.5083,W,1,10,1.4,19,M,,M,,*6A
05/30/2014	06:11:00.582	$GPGGA,061100,2518.4981,N,07933.5098,W,1,10,1.4,19,M,,M,,*6A
05/30/2014	06:11:01.565	$GPGGA,061101,2518.4969,N,07933.5113,W,1,10,1.4,19,M,,M,,*6F
05/30/2014	06:11:02.527	$GPGGA,061102,2518.4955,N,07933.5130,W,1,10,1.4,19,M,,M,,*62
05/30/2014	06:11:03.520	$GPGGA,061103,2518.4940,N,07933.5145,W,1,10,1.4,19,M,,M,,*65
05/30/2014	06:11:04.442	$GPGGA,061104,2518.4926,N,07933.5159,W,1,10,1.4,19,M,,M,,*6F
05/30/2014	06:11:05.575	$GPGGA,061105,2518.4912,N,07933.5175,W,1,10,1.4,19,M,,M,,*67
05/30/2014	06:11:06.558	$GPGGA,061106,2518.4898,N,07933.5192,W,1,10,1.4,19,M,,M,,*6E
05/30/2014	06:11:07.561	$GPGGA,061107,2518.4884,N,07933.5207,W,1,10,1.4,19,M,,M,,*6D
05/30/2014	06:11:08.533	$GPGGA,061108,2518.4870,N,07933.5222,W,1,10,1.4,19,M,,M,,*6E
05/30/2014	06:11:09.545	$GPGGA,061109,2518.4855,N,07933.5238,W,1,10,1.4,19,M,,M,,*63
05/30/2014	06:11:10.527	$GPGGA,061110,2518.4841,N,07933.5253,W,1,10,1.4,19,M,,M,,*63
05/30/2014	06:11:11.530	$GPGGA,061111,2518.4827,N,07933.5269,W,1,10,1.4,19,M,,M,,*6B
05/30/2014	06:11:12.552	$GPGGA,061112,2518.4812,N,07933.5285,W,1,10,1.4,19,M,,M,,*6C
05/30/2014	06:11:13.555	$GPGGA,061113,2518.4798,N,07933.5300,W,1,10,1.4,19,M,,M,,*6C
05/30/2014	06:11:14.528	$GPGGA,061114,2518.4785,N,07933.5316,W,1,10,1.4,19,M,,M,,*60
05/30/2014	06:11:15.561	$GPGGA,061115,2518.4771,N,07933.5332,W,1,10,1.4,19,M,,M,,*6C
05/30/2014	06:11:16.553	$GPGGA,061116,2518.4755,N,07933.5347,W,1,10,1.4,19,M,,M,,*6B
05/30/2014	06:11:17.555	$GPGGA,061117,2518.4742,N,07933.5362,W,1,10,1.4,19,M,,M,,*6B
05/30/2014	06:11:18.538	$GPGGA,061118,2518.4727,N,07933.5379,W,1,10,1.4,19,M,,M,,*6D
05/30/2014	06:11:19.561	$GPGGA,061119,2518.4713,N,07933.5394,W,1,10,1.4,19,M,,M,,*68
05/30/2014	06:11:20.563	$GPGGA,061120,2518.4699,N,07933.5408,W,1,10,1.4,19,M,,M,,*63
05/30/2014	06:11:21.566	$GPGGA,061121,2518.4685,N,07933.5426,W,1,10,1.4,19,M,,M,,*63
05/30/2014	06:11:22.538	$GPGGA,061122,2518.4670,N,07933.5441,W,1,10,1.4,19,M,,M,,*6B
05/30/2014	06:11:23.551	$GPGGA,061123,2518.4656,N,07933.5456,W,1,10,1.4,19,M,,M,,*68
05/30/2014	06:11:24.554	$GPGGA,061124,2518.4642,N,07933.5473,W,1,10,1.4,19,M,,M,,*6D
05/30/2014	06:11:25.576	$GPGGA,061125,2518.4630,N,07933.5488,W,1,10,1.4,19,M,,M,,*6D
05/30/2014	06:11:26.539	$GPGGA,061126,2518.4615,N,07933.5503,W,1,10,1.4,19,M,,M,,*6B
05/30/2014	06:11:27.530	$GPGGA,061127,2518.4601,N,07933.5520,W,1,10,1.4,19,M,,M,,*6E
05/30/2014	06:11:28.563	$GPGGA,061128,2518.4587,N,07933.5535,W,1,10,1.4,19,M,,M,,*68
05/30/2014	06:11:29.535	$GPGGA,061129,2518.4574,N,07933.5553,W,1,10,1.4,19,M,,M,,*65
05/30/2014	06:11:30.558	$GPGGA,061130,2518.4561,N,07933.5568,W,1,10,1.4,19,M,,M,,*61
05/30/2014	06:11:31.561	$GPGGA,061131,2518.4547,N,07933.5585,W,1,10,1.4,19,M,,M,,*67
05/30/2014	06:11:32.563	$GPGGA,061132,2518.4533,N,07933.5600,W,1,10,1.4,18,M,,M,,*68
05/30/2014	06:11:33.566	$GPGGA,061133,2518.4520,N,07933.5618,W,1,10,1.4,18,M,,M,,*62
05/30/2014	06:11:34.538	$GPGGA,061134,2518.4507,N,07933.5633,W,1,10,1.4,18,M,,M,,*69
05/30/2014	06:11:35.581	$GPGGA,061135,2518.4490,N,07933.5650,W,1,9,1.7,18,M,,M,,*59
05/30/2014	06:11:36.554	$GPGGA,061136,2518.4478,N,07933.5666,W,1,9,1.4,18,M,,M,,*5A
05/30/2014	06:11:37.687	$GPGGA,061137,2518.4465,N,07933.5683,W,1,10,1.7,18,M,,M,,*67
05/30/2014	06:11:38.709	$GPGGA,061138,2518.4451,N,07933.5699,W,1,10,1.7,18,M,,M,,*64
05/30/2014	06:11:39.572	$GPGGA,061139,2518.4437,N,07933.5715,W,1,10,1.4,18,M,,M,,*63
05/30/2014	06:11:40.584	$GPGGA,061140,2518.4424,N,07933.5733,W,1,10,1.4,18,M,,M,,*6B
05/30/2014	06:11:41.549	$GPGGA,061141,2518.4410,N,07933.5749,W,1,10,1.7,18,M,,M,,*63
05/30/2014	06:11:42.411	$GPGGA,061142,2518.4396,N,07933.5766,W,1,10,1.7,18,M,,M,,*64
05/30/2014	06:11:43.534	$GPGGA,061143,2518.4384,N,07933.5782,W,1,10,1.4,18,M,,M,,*6F
05/30/2014	06:11:44.506	$GPGGA,061144,2518.4370,N,07933.5800,W,1,10,1.4,18,M,,M,,*66
