Software Version Number: 1	Data File Format Number: 1	Build Version Number: 1	Error Count Since VI Started: 0	Manufacturer: Raytheon	 Model Number: RayMarine 120	 S/N: 	 Cal Date: 	 Wind Direction Offset: 0.00	 Slope (M)1: 0.00	 Offset (B)1: 0.00	 Slope (M)2: 0.00	 Offset (B)2: 0.00	 Slope (M)3: 0.00	 Offset (B)3: 0.00	 Slope (M)4: 0.00	 Offset (B)4: 0.00	 Slope (M)5: 0.00	 Offset (B)5: 0.00	 Slope (M)6: 0.00	 Offset (B)6: 0.00
Computer Date	Computer Time	GGA String
06/10/2014	13:00:00.626	$GPGGA,130001,2610.6582,N,08001.9207,W,1,8,1.6,15,M,,M,,*51
06/10/2014	13:00:01.673	$GPGGA,130002,2610.6580,N,08001.9193,W,1,8,1.4,15,M,,M,,*5C
06/10/2014	13:00:02.642	$GPGGA,130003,2610.6579,N,08001.9180,W,1,9,1.4,15,M,,M,,*58
06/10/2014	13:00:03.614	$GPGGA,130004,2610.6576,N,08001.9167,W,1,9,1.4,15,M,,M,,*59
06/10/2014	13:00:04.605	$GPGGA,130005,2610.6573,N,08001.9154,W,1,9,1.4,15,M,,M,,*5D
06/10/2014	13:00:05.598	$GPGGA,130006,2610.6570,N,08001.9142,W,1,9,1.6,15,M,,M,,*58
06/10/2014	13:00:06.630	$GPGGA,130007,2610.6568,N,08001.9127,W,1,8,1.4,15,M,,M,,*50
06/10/2014	13:00:07.613	$GPGGA,130008,2610.6565,N,08001.9114,W,1,8,1.4,15,M,,M,,*52
06/10/2014	13:00:08.606	$GPGGA,130009,2610.6562,N,08001.9102,W,1,9,1.4,15,M,,M,,*52
06/10/2014	13:00:09.598	$GPGGA,130010,2610.6561,N,08001.9089,W,1,9,1.4,15,M,,M,,*5B
06/10/2014	13:00:10.631	$GPGGA,130011,2610.6557,N,08001.9075,W,1,9,1.4,16,M,,M,,*5F
06/10/2014	13:00:11.603	$GPGGA,130012,2610.6555,N,08001.9061,W,1,9,1.4,16,M,,M,,*5B
06/10/2014	13:00:12.616	$GPGGA,130013,2610.6552,N,08001.9048,W,1,9,1.4,16,M,,M,,*56
06/10/2014	13:00:13.619	$GPGGA,130014,2610.6550,N,08001.9035,W,1,9,1.4,16,M,,M,,*59
06/10/2014	13:00:14.632	$GPGGA,130015,2610.6546,N,08001.9021,W,1,9,1.6,16,M,,M,,*58
06/10/2014	13:00:15.644	$GPGGA,130016,2610.6543,N,08001.9008,W,1,9,1.6,16,M,,M,,*55
06/10/2014	13:00:16.610	$GPGGA,130017,2610.6540,N,08001.8996,W,1,8,1.6,16,M,,M,,*59
06/10/2014	13:00:17.709	$GPGGA,130018,2610.6539,N,08001.8982,W,1,8,1.4,16,M,,M,,*5F
06/10/2014	13:00:18.611	$GPGGA,130019,2610.6535,N,08001.8969,W,1,9,1.4,16,M,,M,,*56
06/10/2014	13:00:19.745	$GPGGA,130020,2610.6532,N,08001.8955,W,1,9,1.4,16,M,,M,,*54
06/10/2014	13:00:20.717	$GPGGA,130021,2610.6530,N,08001.8941,W,1,9,1.4,16,M,,M,,*52
06/10/2014	13:00:21.729	$GPGGA,130022,2610.6526,N,08001.8927,W,1,9,1.4,16,M,,M,,*56
06/10/2014	13:00:22.701	$GPGGA,130023,2610.6525,N,08001.8913,W,1,9,1.4,16,M,,M,,*53
06/10/2014	13:00:23.644	$GPGGA,130024,2610.6521,N,08001.8900,W,1,9,1.4,16,M,,M,,*52
06/10/2014	13:00:24.696	$GPGGA,130025,2610.6518,N,08001.8885,W,1,9,1.4,16,M,,M,,*55
06/10/2014	13:00:25.709	$GPGGA,130026,2610.6516,N,08001.8871,W,1,9,1.4,16,M,,M,,*53
06/10/2014	13:00:26.711	$GPGGA,130027,2610.6514,N,08001.8858,W,1,9,1.4,16,M,,M,,*5B
06/10/2014	13:00:27.724	$GPGGA,130028,2610.6511,N,08001.8844,W,1,9,1.4,16,M,,M,,*5C
06/10/2014	13:00:28.707	$GPGGA,130029,2610.6510,N,08001.8830,W,1,9,1.4,16,M,,M,,*5F
06/10/2014	13:00:29.709	$GPGGA,130030,2610.6507,N,08001.8817,W,1,9,1.4,16,M,,M,,*54
06/10/2014	13:00:30.712	$GPGGA,130031,2610.6504,N,08001.8803,W,1,9,1.4,16,M,,M,,*53
06/10/2014	13:00:31.724	$GPGGA,130032,2610.6501,N,08001.8789,W,1,9,1.4,16,M,,M,,*58
06/10/2014	13:00:32.727	$GPGGA,130033,2610.6498,N,08001.8775,W,1,9,1.4,16,M,,M,,*5B
06/10/2014	13:00:33.700	$GPGGA,130034,2610.6496,N,08001.8762,W,1,9,1.4,16,M,,M,,*54
06/10/2014	13:00:34.732	$GPGGA,130035,2610.6493,N,08001.8748,W,1,9,1.4,16,M,,M,,*58
06/10/2014	13:00:35.725	$GPGGA,130036,2610.6492,N,08001.8734,W,1,9,1.4,16,M,,M,,*51
06/10/2014	13:00:36.697	$GPGGA,130037,2610.6488,N,08001.8721,W,1,9,1.4,16,M,,M,,*5F
06/10/2014	13:00:37.720	$GPGGA,130038,2610.6486,N,08001.8708,W,1,9,1.4,16,M,,M,,*55
06/10/2014	13:00:38.732	$GPGGA,130039,2610.6483,N,08001.8694,W,1,9,1.4,16,M,,M,,*55
06/10/2014	13:00:39.714	$GPGGA,130040,2610.6481,N,08001.8681,W,1,9,1.4,16,M,,M,,*5D
06/10/2014	13:00:40.737	$GPGGA,130041,2610.6479,N,08001.8666,W,1,8,1.6,16,M,,M,,*51
06/10/2014	13:00:41.564	$GPGGA,130042,2610.6478,N,08001.8652,W,1,8,1.4,16,M,,M,,*56
06/10/2014	13:00:42.567	$GPGGA,130043,2610.6476,N,08001.8638,W,1,9,1.4,16,M,,M,,*54
06/10/2014	13:00:43.580	$GPGGA,130044,2610.6474,N,08001.8624,W,1,9,1.4,16,M,,M,,*5C
06/10/2014	13:00:44.582	$GPGGA,130045,2610.6472,N,08001.8610,W,1,9,1.4,16,M,,M,,*5C
06/10/2014	13:00:45.555	$GPGGA,130046,2610.6471,N,08001.8596,W,1,9,1.4,16,M,,M,,*51
06/10/2014	13:00:46.587	$GPGGA,130047,2610.6469,N,08001.8582,W,1,9,1.4,16,M,,M,,*5C
06/10/2014	13:00:47.580	$GPGGA,130048,2610.6467,N,08001.8569,W,1,9,1.4,16,M,,M,,*58
06/10/2014	13:00:48.563	$GPGGA,130049,2610.6464,N,08001.8557,W,1,8,1.6,17,M,,M,,*55
06/10/2014	13:00:49.575	$GPGGA,130050,2610.6461,N,08001.8545,W,1,8,1.6,17,M,,M,,*5B
06/10/2014	13:00:50.598	$GPGGA,130051,2610.6460,N,08001.8532,W,1,8,1.6,17,M,,M,,*5B
06/10/2014	13:00:51.570	$GPGGA,130052,2610.6456,N,08001.8520,W,1,8,1.6,17,M,,M,,*5E
06/10/2014	13:00:52.563	$GPGGA,130053,2610.6453,N,08001.8508,W,1,7,2.0,17,M,,M,,*5A
06/10/2014	13:00:53.576	$GPGGA,130054,2610.6450,N,08001.8496,W,1,7,2.0,17,M,,M,,*58
06/10/2014	13:00:54.558	$GPGGA,130055,2610.6449,N,08001.8485,W,1,7,2.0,17,M,,M,,*53
06/10/2014	13:00:55.581	$GPGGA,130056,2610.6445,N,08001.8473,W,1,7,2.6,17,M,,M,,*53
06/10/2014	13:00:56.592	$GPGGA,130057,2610.6443,N,08001.8463,W,1,6,2.6,17,M,,M,,*54
06/10/2014	13:00:57.565	$GPGGA,130058,2610.6442,N,08001.8449,W,1,6,2.0,17,M,,M,,*54
06/10/2014	13:00:58.567	$GPGGA,130059,2610.6444,N,08001.8433,W,1,8,1.8,17,M,,M,,*5B
06/10/2014	13:00:59.590	$GPGGA,130100,2610.6440,N,08001.8422,W,1,8,1.8,17,M,,M,,*52
06/10/2014	13:01:00.593	$GPGGA,130101,2610.6438,N,08001.8409,W,1,8,1.8,17,M,,M,,*55
06/10/2014	13:01:01.575	$GPGGA,130102,2610.6435,N,08001.8397,W,1,8,1.8,17,M,,M,,*5B
06/10/2014	13:01:02.562	$GPGGA,130103,2610.6433,N,08001.8386,W,1,7,2.0,17,M,,M,,*58
06/10/2014	13:01:03.701	$GPGGA,130104,2610.6431,N,08001.8374,W,1,7,2.0,17,M,,M,,*50
06/10/2014	13:01:04.693	$GPGGA,130105,2610.6428,N,08001.8362,W,1,7,2.0,17,M,,M,,*5E
06/10/2014	13:01:05.576	$GPGGA,130106,2610.6427,N,08001.8350,W,1,7,2.0,17,M,,M,,*53
06/10/2014	13:01:06.699	$GPGGA,130107,2610.6427,N,08001.8337,W,1,7,2.0,17,M,,M,,*53
06/10/2014	13:01:07.601	$GPGGA,130108,2610.6423,N,08001.8325,W,1,7,1.8,17,M,,M,,*50
06/10/2014	13:01:08.675	$GPGGA,130109,2610.6421,N,08001.8313,W,1,7,2.0,17,M,,M,,*5D
06/10/2014	13:01:09.586	$GPGGA,130110,2610.6420,N,08001.8301,W,1,7,2.0,17,M,,M,,*57
06/10/2014	13:01:10.569	$GPGGA,130111,2610.6417,N,08001.8289,W,1,7,2.0,17,M,,M,,*53
06/10/2014	13:01:11.681	$GPGGA,130112,2610.6415,N,08001.8276,W,1,7,2.0,17,M,,M,,*52
06/10/2014	13:01:12.594	$GPGGA,130113,2610.6413,N,08001.8264,W,1,7,2.0,17,M,,M,,*56
06/10/2014	13:01:13.687	$GPGGA,130114,2610.6411,N,08001.8252,W,1,7,2.0,17,M,,M,,*56
06/10/2014	13:01:14.578	$GPGGA,130115,2610.6409,N,08001.8240,W,1,7,2.0,17,M,,M,,*5D
06/10/2014	13:01:15.592	$GPGGA,130116,2610.6407,N,08001.8228,W,1,7,2.0,17,M,,M,,*5E
06/10/2014	13:01:16.673	$GPGGA,130117,2610.6405,N,08001.8216,W,1,7,2.0,17,M,,M,,*50
06/10/2014	13:01:17.666	$GPGGA,130118,2610.6404,N,08001.8203,W,1,7,2.0,17,M,,M,,*5A
06/10/2014	13:01:18.709	$GPGGA,130119,2610.6403,N,08001.8191,W,1,7,2.0,17,M,,M,,*54
06/10/2014	13:01:19.691	$GPGGA,130120,2610.6402,N,08001.8179,W,1,7,2.0,17,M,,M,,*59
06/10/2014	13:01:20.714	$GPGGA,130121,2610.6402,N,08001.8166,W,1,7,2.0,17,M,,M,,*56
06/10/2014	13:01:21.676	$GPGGA,130122,2610.6402,N,08001.8154,W,1,7,1.8,17,M,,M,,*5F
06/10/2014	13:01:22.679	$GPGGA,130123,2610.6402,N,08001.8141,W,1,8,1.8,17,M,,M,,*55
06/10/2014	13:01:23.692	$GPGGA,130124,2610.6402,N,08001.8128,W,1,8,1.8,17,M,,M,,*5D
06/10/2014	13:01:24.684	$GPGGA,130125,2610.6399,N,08001.8116,W,1,8,1.8,17,M,,M,,*54
06/10/2014	13:01:25.677	$GPGGA,130126,2610.6398,N,08001.8104,W,1,8,1.8,17,M,,M,,*55
06/10/2014	13:01:26.699	$GPGGA,130127,2610.6398,N,08001.8092,W,1,8,1.8,17,M,,M,,*5A
06/10/2014	13:01:27.692	$GPGGA,130128,2610.6396,N,08001.8080,W,1,8,1.8,17,M,,M,,*58
06/10/2014	13:01:28.705	$GPGGA,130129,2610.6395,N,08001.8068,W,1,7,2.0,17,M,,M,,*58
06/10/2014	13:01:29.678	$GPGGA,130130,2610.6393,N,08001.8056,W,1,7,1.8,17,M,,M,,*50
06/10/2014	13:01:30.700	$GPGGA,130131,2610.6394,N,08001.8044,W,1,8,1.8,17,M,,M,,*5A
06/10/2014	13:01:31.691	$GPGGA,130132,2610.6391,N,08001.8032,W,1,8,1.8,17,M,,M,,*5D
06/10/2014	13:01:32.704	$GPGGA,130133,2610.6395,N,08001.8016,W,1,7,2.0,17,M,,M,,*5A
06/10/2014	13:01:33.677	$GPGGA,130134,2610.6395,N,08001.8005,W,1,7,1.8,17,M,,M,,*54
06/10/2014	13:01:34.689	$GPGGA,130135,2610.6393,N,08001.7994,W,1,8,1.8,17,M,,M,,*52
06/10/2014	13:01:35.692	$GPGGA,130136,2610.6392,N,08001.7982,W,1,8,1.8,17,M,,M,,*57
06/10/2014	13:01:36.674	$GPGGA,130137,2610.6389,N,08001.7971,W,1,8,1.8,17,M,,M,,*50
06/10/2014	13:01:37.697	$GPGGA,130138,2610.6388,N,08001.7960,W,1,8,2.0,17,M,,M,,*55
06/10/2014	13:01:38.720	$GPGGA,130139,2610.6391,N,08001.7946,W,1,7,2.0,17,M,,M,,*57
06/10/2014	13:01:39.702	$GPGGA,130140,2610.6389,N,08001.7935,W,1,7,1.8,17,M,,M,,*5F
06/10/2014	13:01:40.715	$GPGGA,130141,2610.6387,N,08001.7923,W,1,8,1.8,17,M,,M,,*58
06/10/2014	13:01:41.543	$GPGGA,130142,2610.6385,N,08001.7913,W,1,8,1.8,17,M,,M,,*5A
06/10/2014	13:01:42.556	$GPGGA,130143,2610.6384,N,08001.7902,W,1,7,1.9,17,M,,M,,*54
06/10/2014	13:01:43.539	$GPGGA,130144,2610.6381,N,08001.7892,W,1,7,1.9,17,M,,M,,*5E
06/10/2014	13:01:44.531	$GPGGA,130145,2610.6380,N,08001.7881,W,1,7,1.9,17,M,,M,,*5C
06/10/2014	13:01:45.544	$GPGGA,130146,2610.6378,N,08001.7871,W,1,7,1.9,17,M,,M,,*57
06/10/2014	13:01:46.556	$GPGGA,130147,2610.6379,N,08001.7859,W,1,8,1.8,17,M,,M,,*53
06/10/2014	13:01:47.549	$GPGGA,130148,2610.6376,N,08001.7848,W,1,8,1.8,17,M,,M,,*53
06/10/2014	13:01:48.561	$GPGGA,130149,2610.6375,N,08001.7838,W,1,7,2.0,17,M,,M,,*52
06/10/2014	13:01:49.563	$GPGGA,130150,2610.6373,N,08001.7829,W,1,7,2.6,17,M,,M,,*5A
06/10/2014	13:01:50.556	$GPGGA,130151,2610.6371,N,08001.7819,W,1,6,2.6,17,M,,M,,*5B
06/10/2014	13:01:51.568	$GPGGA,130152,2610.6370,N,08001.7808,W,1,6,2.6,17,M,,M,,*59
06/10/2014	13:01:52.551	$GPGGA,130153,2610.6372,N,08001.7796,W,1,7,1.9,17,M,,M,,*5F
06/10/2014	13:01:53.548	$GPGGA,130154,2610.6369,N,08001.7786,W,1,7,1.8,17,M,,M,,*52
06/10/2014	13:01:54.636	$GPGGA,130155,2610.6368,N,08001.7776,W,1,7,1.9,17,M,,M,,*5C
06/10/2014	13:01:55.679	$GPGGA,130156,2610.6367,N,08001.7765,W,1,7,1.8,17,M,,M,,*53
06/10/2014	13:01:56.557	$GPGGA,130157,2610.6366,N,08001.7754,W,1,8,1.8,17,M,,M,,*5E
06/10/2014	13:01:57.650	$GPGGA,130158,2610.6364,N,08001.7742,W,1,8,2.3,17,M,,M,,*5C
06/10/2014	13:01:58.537	$GPGGA,130159,2610.6366,N,08001.7732,W,1,8,1.8,17,M,,M,,*50
06/10/2014	13:01:59.689	$GPGGA,130200,2610.6364,N,08001.7721,W,1,8,1.8,17,M,,M,,*5F
06/10/2014	13:02:00.666	$GPGGA,130201,2610.6365,N,08001.7711,W,1,8,1.8,17,M,,M,,*5C
06/10/2014	13:02:01.656	$GPGGA,130202,2610.6363,N,08001.7701,W,1,8,1.8,17,M,,M,,*58
06/10/2014	13:02:02.549	$GPGGA,130203,2610.6362,N,08001.7690,W,1,8,1.8,17,M,,M,,*51
06/10/2014	13:02:03.651	$GPGGA,130204,2610.6362,N,08001.7680,W,1,8,1.8,17,M,,M,,*57
06/10/2014	13:02:04.642	$GPGGA,130205,2610.6362,N,08001.7669,W,1,8,1.8,17,M,,M,,*51
06/10/2014	13:02:05.637	$GPGGA,130206,2610.6360,N,08001.7659,W,1,8,1.8,17,M,,M,,*53
06/10/2014	13:02:06.667	$GPGGA,130207,2610.6359,N,08001.7649,W,1,8,1.8,17,M,,M,,*59
06/10/2014	13:02:07.660	$GPGGA,130208,2610.6358,N,08001.7638,W,1,8,1.8,17,M,,M,,*51
06/10/2014	13:02:08.681	$GPGGA,130209,2610.6357,N,08001.7628,W,1,8,1.8,17,M,,M,,*5E
06/10/2014	13:02:09.654	$GPGGA,130210,2610.6356,N,08001.7618,W,1,8,1.8,17,M,,M,,*54
06/10/2014	13:02:10.658	$GPGGA,130211,2610.6355,N,08001.7608,W,1,8,1.8,17,M,,M,,*57
06/10/2014	13:02:11.659	$GPGGA,130212,2610.6355,N,08001.7598,W,1,8,1.8,17,M,,M,,*5E
06/10/2014	13:02:12.662	$GPGGA,130213,2610.6353,N,08001.7588,W,1,8,1.8,17,M,,M,,*58
06/10/2014	13:02:13.645	$GPGGA,130214,2610.6352,N,08001.7578,W,1,8,1.8,17,M,,M,,*51
06/10/2014	13:02:14.667	$GPGGA,130215,2610.6351,N,08001.7568,W,1,8,1.8,17,M,,M,,*52
06/10/2014	13:02:15.670	$GPGGA,130216,2610.6350,N,08001.7558,W,1,8,1.8,17,M,,M,,*53
06/10/2014	13:02:16.672	$GPGGA,130217,2610.6349,N,08001.7548,W,1,8,1.8,17,M,,M,,*5B
06/10/2014	13:02:17.645	$GPGGA,130218,2610.6348,N,08001.7539,W,1,8,1.8,17,M,,M,,*53
06/10/2014	13:02:18.668	$GPGGA,130219,2610.6346,N,08001.7529,W,1,8,1.8,17,M,,M,,*5D
06/10/2014	13:02:19.670	$GPGGA,130220,2610.6345,N,08001.7519,W,1,8,1.8,17,M,,M,,*57
06/10/2014	13:02:20.673	$GPGGA,130221,2610.6344,N,08001.7509,W,1,8,1.8,17,M,,M,,*56
06/10/2014	13:02:21.645	$GPGGA,130222,2610.6344,N,08001.7500,W,1,8,1.8,17,M,,M,,*5C
06/10/2014	13:02:22.648	$GPGGA,130223,2610.6341,N,08001.7490,W,1,8,1.9,17,M,,M,,*51
06/10/2014	13:02:23.690	$GPGGA,130224,2610.6340,N,08001.7481,W,1,8,1.9,17,M,,M,,*57
06/10/2014	13:02:24.662	$GPGGA,130225,2610.6339,N,08001.7470,W,1,8,1.9,17,M,,M,,*56
06/10/2014	13:02:25.665	$GPGGA,130226,2610.6338,N,08001.7461,W,1,8,1.9,17,M,,M,,*54
06/10/2014	13:02:26.687	$GPGGA,130227,2610.6337,N,08001.7451,W,1,8,1.9,17,M,,M,,*59
06/10/2014	13:02:27.681	$GPGGA,130228,2610.6335,N,08001.7442,W,1,8,1.9,17,M,,M,,*56
06/10/2014	13:02:28.663	$GPGGA,130229,2610.6334,N,08001.7433,W,1,8,1.8,17,M,,M,,*51
06/10/2014	13:02:29.645	$GPGGA,130230,2610.6333,N,08001.7423,W,1,8,1.8,17,M,,M,,*5F
06/10/2014	13:02:30.643	$GPGGA,130231,2610.6331,N,08001.7414,W,1,8,1.8,17,M,,M,,*58
06/10/2014	13:02:31.670	$GPGGA,130232,2610.6330,N,08001.7405,W,1,8,1.8,17,M,,M,,*5A
06/10/2014	13:02:32.673	$GPGGA,130233,2610.6329,N,08001.7395,W,1,8,1.8,17,M,,M,,*5D
06/10/2014	13:02:33.665	$GPGGA,130234,2610.6328,N,08001.7385,W,1,8,1.8,17,M,,M,,*5A
06/10/2014	13:02:34.678	$GPGGA,130235,2610.6327,N,08001.7376,W,1,8,1.9,17,M,,M,,*59
06/10/2014	13:02:35.671	$GPGGA,130236,2610.6326,N,08001.7367,W,1,8,1.9,17,M,,M,,*5B
06/10/2014	13:02:36.663	$GPGGA,130237,2610.6324,N,08001.7357,W,1,8,1.9,17,M,,M,,*5B
06/10/2014	13:02:37.676	$GPGGA,130238,2610.6323,N,08001.7348,W,1,8,1.9,17,M,,M,,*5D
06/10/2014	13:02:38.668	$GPGGA,130239,2610.6321,N,08001.7339,W,1,8,1.9,17,M,,M,,*58
06/10/2014	13:02:39.853	$GPGGA,130240,2610.6320,N,08001.7330,W,1,8,1.8,16,M,,M,,*5E
06/10/2014	13:02:40.655	$GPGGA,130241,2610.6319,N,08001.7321,W,1,8,1.8,16,M,,M,,*55
06/10/2014	13:02:41.500	$GPGGA,130242,2610.6317,N,08001.7312,W,1,8,1.8,16,M,,M,,*58
06/10/2014	13:02:42.663	$GPGGA,130243,2610.6315,N,08001.7302,W,1,8,1.8,16,M,,M,,*5A
06/10/2014	13:02:43.546	$GPGGA,130244,2610.6313,N,08001.7293,W,1,8,1.8,16,M,,M,,*52
06/10/2014	13:02:44.508	$GPGGA,130245,2610.6312,N,08001.7284,W,1,8,1.8,16,M,,M,,*54
06/10/2014	13:02:45.521	$GPGGA,130246,2610.6310,N,08001.7276,W,1,8,1.8,16,M,,M,,*58
06/10/2014	13:02:46.523	$GPGGA,130247,2610.6308,N,08001.7267,W,1,8,1.9,16,M,,M,,*51
06/10/2014	13:02:47.528	$GPGGA,130248,2610.6306,N,08001.7258,W,1,8,1.9,16,M,,M,,*5C
06/10/2014	13:02:48.518	$GPGGA,130249,2610.6304,N,08001.7249,W,1,8,1.9,16,M,,M,,*5F
06/10/2014	13:02:49.601	$GPGGA,130250,2610.6302,N,08001.7240,W,1,8,1.9,16,M,,M,,*58
06/10/2014	13:02:50.624	$GPGGA,130251,2610.6301,N,08001.7231,W,1,8,1.9,16,M,,M,,*5C
06/10/2014	13:02:51.667	$GPGGA,130252,2610.6298,N,08001.7223,W,1,8,1.9,16,M,,M,,*5D
06/10/2014	13:02:52.699	$GPGGA,130253,2610.6297,N,08001.7214,W,1,8,1.9,16,M,,M,,*57
06/10/2014	13:02:53.682	$GPGGA,130254,2610.6294,N,08001.7206,W,1,8,1.9,16,M,,M,,*50
06/10/2014	13:02:54.614	$GPGGA,130255,2610.6293,N,08001.7196,W,1,8,1.9,16,M,,M,,*5C
06/10/2014	13:02:55.697	$GPGGA,130256,2610.6291,N,08001.7188,W,1,8,1.9,16,M,,M,,*52
06/10/2014	13:02:56.654	$GPGGA,130257,2610.6288,N,08001.7180,W,1,8,1.9,16,M,,M,,*53
06/10/2014	13:02:57.682	$GPGGA,130258,2610.6286,N,08001.7171,W,1,8,1.9,16,M,,M,,*5C
06/10/2014	13:02:58.656	$GPGGA,130259,2610.6284,N,08001.7163,W,1,8,1.9,16,M,,M,,*5C
06/10/2014	13:02:59.716	$GPGGA,130300,2610.6283,N,08001.7155,W,1,8,1.9,16,M,,M,,*53
06/10/2014	13:03:00.660	$GPGGA,130301,2610.6279,N,08001.7147,W,1,8,1.9,16,M,,M,,*54
06/10/2014	13:03:01.663	$GPGGA,130302,2610.6277,N,08001.7138,W,1,8,1.9,16,M,,M,,*51
06/10/2014	13:03:02.644	$GPGGA,130303,2610.6275,N,08001.7130,W,1,8,1.9,16,M,,M,,*5A
06/10/2014	13:03:03.697	$GPGGA,130304,2610.6273,N,08001.7122,W,1,8,1.9,16,M,,M,,*58
06/10/2014	13:03:04.719	$GPGGA,130305,2610.6272,N,08001.7114,W,1,8,1.9,16,M,,M,,*5D
06/10/2014	13:03:05.682	$GPGGA,130306,2610.6269,N,08001.7105,W,1,8,1.9,16,M,,M,,*54
06/10/2014	13:03:06.654	$GPGGA,130307,2610.6268,N,08001.7097,W,1,8,1.9,16,M,,M,,*5E
06/10/2014	13:03:07.627	$GPGGA,130308,2610.6264,N,08001.7089,W,1,8,1.9,16,M,,M,,*52
06/10/2014	13:03:08.677	$GPGGA,130309,2610.6262,N,08001.7080,W,1,8,1.9,16,M,,M,,*5C
06/10/2014	13:03:09.712	$GPGGA,130310,2610.6261,N,08001.7072,W,1,8,1.9,16,M,,M,,*5A
06/10/2014	13:03:10.615	$GPGGA,130311,2610.6258,N,08001.7065,W,1,8,1.9,16,M,,M,,*57
06/10/2014	13:03:11.708	$GPGGA,130312,2610.6256,N,08001.7057,W,1,8,2.0,16,M,,M,,*51
06/10/2014	13:03:12.670	$GPGGA,130313,2610.6255,N,08001.7050,W,1,7,2.0,16,M,,M,,*5B
06/10/2014	13:03:13.674	$GPGGA,130314,2610.6254,N,08001.7044,W,1,7,1.9,16,M,,M,,*52
06/10/2014	13:03:14.725	$GPGGA,130315,2610.6251,N,08001.7037,W,1,8,1.9,16,M,,M,,*5D
06/10/2014	13:03:15.628	$GPGGA,130316,2610.6250,N,08001.7028,W,1,8,1.9,16,M,,M,,*51
06/10/2014	13:03:16.649	$GPGGA,130317,2610.6247,N,08001.7020,W,1,8,1.9,16,M,,M,,*5E
06/10/2014	13:03:17.682	$GPGGA,130318,2610.6245,N,08001.7013,W,1,8,1.9,16,M,,M,,*53
06/10/2014	13:03:18.675	$GPGGA,130319,2610.6243,N,08001.7006,W,1,8,1.9,16,M,,M,,*50
06/10/2014	13:03:19.697	$GPGGA,130320,2610.6241,N,08001.6998,W,1,8,1.9,16,M,,M,,*57
06/10/2014	13:03:20.680	$GPGGA,130321,2610.6239,N,08001.6991,W,1,8,1.9,16,M,,M,,*50
06/10/2014	13:03:21.682	$GPGGA,130322,2610.6237,N,08001.6985,W,1,8,1.9,16,M,,M,,*58
06/10/2014	13:03:22.655	$GPGGA,130323,2610.6236,N,08001.6978,W,1,8,1.9,16,M,,M,,*5A
06/10/2014	13:03:23.627	$GPGGA,130324,2610.6232,N,08001.6969,W,1,8,1.9,16,M,,M,,*59
06/10/2014	13:03:24.670	$GPGGA,130325,2610.6230,N,08001.6961,W,1,7,2.0,16,M,,M,,*57
06/10/2014	13:03:25.723	$GPGGA,130326,2610.6227,N,08001.6954,W,1,7,1.9,16,M,,M,,*5E
06/10/2014	13:03:26.615	$GPGGA,130327,2610.6225,N,08001.6947,W,1,8,1.9,16,M,,M,,*50
06/10/2014	13:03:27.638	$GPGGA,130328,2610.6222,N,08001.6939,W,1,8,1.9,16,M,,M,,*51
06/10/2014	13:03:28.691	$GPGGA,130329,2610.6219,N,08001.6931,W,1,8,1.9,17,M,,M,,*51
06/10/2014	13:03:29.726	$GPGGA,130330,2610.6216,N,08001.6923,W,1,8,1.9,17,M,,M,,*55
06/10/2014	13:03:30.666	$GPGGA,130331,2610.6214,N,08001.6915,W,1,8,1.9,17,M,,M,,*53
06/10/2014	13:03:31.738	$GPGGA,130332,2610.6211,N,08001.6907,W,1,8,1.9,17,M,,M,,*56
06/10/2014	13:03:32.681	$GPGGA,130333,2610.6208,N,08001.6900,W,1,8,1.9,17,M,,M,,*58
06/10/2014	13:03:33.733	$GPGGA,130334,2610.6205,N,08001.6892,W,1,8,1.9,17,M,,M,,*58
06/10/2014	13:03:34.795	$GPGGA,130335,2610.6203,N,08001.6885,W,1,8,1.9,17,M,,M,,*59
06/10/2014	13:03:35.758	$GPGGA,130336,2610.6201,N,08001.6877,W,1,8,1.9,17,M,,M,,*55
06/10/2014	13:03:36.730	$GPGGA,130337,2610.6198,N,08001.6870,W,1,8,1.9,17,M,,M,,*50
06/10/2014	13:03:37.693	$GPGGA,130338,2610.6196,N,08001.6862,W,1,8,1.9,17,M,,M,,*52
06/10/2014	13:03:38.726	$GPGGA,130339,2610.6193,N,08001.6855,W,1,8,1.9,17,M,,M,,*52
06/10/2014	13:03:39.708	$GPGGA,130340,2610.6190,N,08001.6848,W,1,8,1.9,17,M,,M,,*53
06/10/2014	13:03:40.741	$GPGGA,130341,2610.6189,N,08001.6840,W,1,8,2.0,17,M,,M,,*58
06/10/2014	13:03:41.579	$GPGGA,130342,2610.6185,N,08001.6833,W,1,8,2.0,17,M,,M,,*53
06/10/2014	13:03:42.582	$GPGGA,130343,2610.6181,N,08001.6825,W,1,7,1.9,17,M,,M,,*54
06/10/2014	13:03:43.595	$GPGGA,130344,2610.6178,N,08001.6817,W,1,7,1.9,17,M,,M,,*54
06/10/2014	13:03:44.617	$GPGGA,130345,2610.6175,N,08001.6809,W,1,8,2.0,17,M,,M,,*52
06/10/2014	13:03:45.590	$GPGGA,130346,2610.6172,N,08001.6803,W,1,8,2.0,17,M,,M,,*5C
06/10/2014	13:03:46.582	$GPGGA,130347,2610.6171,N,08001.6797,W,1,7,1.9,17,M,,M,,*59
06/10/2014	13:03:47.595	$GPGGA,130348,2610.6168,N,08001.6793,W,1,7,1.9,17,M,,M,,*5A
06/10/2014	13:03:48.598	$GPGGA,130349,2610.6167,N,08001.6786,W,1,8,2.0,17,M,,M,,*55
06/10/2014	13:03:49.611	$GPGGA,130350,2610.6163,N,08001.6779,W,1,8,2.0,17,M,,M,,*59
06/10/2014	13:03:50.604	$GPGGA,130351,2610.6160,N,08001.6772,W,1,7,2.0,17,M,,M,,*5F
06/10/2014	13:03:51.594	$GPGGA,130352,2610.6157,N,08001.6766,W,1,7,1.9,17,M,,M,,*57
06/10/2014	13:03:52.597	$GPGGA,130353,2610.6154,N,08001.6760,W,1,8,1.9,17,M,,M,,*5C
06/10/2014	13:03:53.590	$GPGGA,130354,2610.6152,N,08001.6753,W,1,8,1.9,17,M,,M,,*5D
06/10/2014	13:03:54.612	$GPGGA,130355,2610.6149,N,08001.6747,W,1,8,1.9,17,M,,M,,*53
06/10/2014	13:03:55.605	$GPGGA,130356,2610.6146,N,08001.6741,W,1,8,1.9,17,M,,M,,*59
06/10/2014	13:03:56.597	$GPGGA,130357,2610.6143,N,08001.6735,W,1,8,1.9,17,M,,M,,*5E
06/10/2014	13:03:57.620	$GPGGA,130358,2610.6140,N,08001.6729,W,1,8,1.9,17,M,,M,,*5F
06/10/2014	13:03:58.634	$GPGGA,130359,2610.6138,N,08001.6723,W,1,8,1.9,17,M,,M,,*5B
06/10/2014	13:03:59.635	$GPGGA,130400,2610.6135,N,08001.6716,W,1,8,1.9,17,M,,M,,*5B
06/10/2014	13:04:00.629	$GPGGA,130401,2610.6132,N,08001.6710,W,1,8,1.9,17,M,,M,,*5B
06/10/2014	13:04:01.600	$GPGGA,130402,2610.6132,N,08001.6710,W,1,8,1.9,17,M,,M,,*58
06/10/2014	13:04:02.623	$GPGGA,130403,2610.6126,N,08001.6698,W,1,8,1.9,17,M,,M,,*5D
06/10/2014	13:04:03.636	$GPGGA,130404,2610.6122,N,08001.6692,W,1,8,1.9,17,M,,M,,*54
06/10/2014	13:04:04.628	$GPGGA,130405,2610.6120,N,08001.6686,W,1,8,1.9,17,M,,M,,*52
06/10/2014	13:04:05.621	$GPGGA,130406,2610.6117,N,08001.6679,W,1,8,1.9,17,M,,M,,*55
06/10/2014	13:04:06.613	$GPGGA,130407,2610.6113,N,08001.6674,W,1,8,1.9,17,M,,M,,*5D
06/10/2014	13:04:07.636	$GPGGA,130408,2610.6110,N,08001.6668,W,1,8,1.9,17,M,,M,,*5C
06/10/2014	13:04:08.618	$GPGGA,130409,2610.6107,N,08001.6662,W,1,8,1.9,17,M,,M,,*51
06/10/2014	13:04:09.630	$GPGGA,130410,2610.6107,N,08001.6662,W,1,8,1.9,17,M,,M,,*59
06/10/2014	13:04:10.603	$GPGGA,130411,2610.6100,N,08001.6650,W,1,8,1.9,17,M,,M,,*5E
06/10/2014	13:04:11.656	$GPGGA,130412,2610.6096,N,08001.6644,W,1,8,1.9,17,M,,M,,*56
06/10/2014	13:04:12.638	$GPGGA,130413,2610.6093,N,08001.6638,W,1,8,1.9,17,M,,M,,*59
06/10/2014	13:04:13.632	$GPGGA,130414,2610.6093,N,08001.6638,W,1,8,1.9,17,M,,M,,*5E
06/10/2014	13:04:14.643	$GPGGA,130415,2610.6086,N,08001.6627,W,1,8,1.9,17,M,,M,,*55
06/10/2014	13:04:15.726	$GPGGA,130416,2610.6082,N,08001.6621,W,1,8,1.9,17,M,,M,,*54
06/10/2014	13:04:16.698	$GPGGA,130417,2610.6079,N,08001.6615,W,1,8,1.9,17,M,,M,,*56
06/10/2014	13:04:17.601	$GPGGA,130418,2610.6079,N,08001.6615,W,1,8,1.9,17,M,,M,,*59
06/10/2014	13:04:18.594	$GPGGA,130419,2610.6073,N,08001.6604,W,1,8,1.9,17,M,,M,,*52
06/10/2014	13:04:19.656	$GPGGA,130420,2610.6073,N,08001.6604,W,1,8,1.9,17,M,,M,,*58
06/10/2014	13:04:20.709	$GPGGA,130421,2610.6066,N,08001.6593,W,1,8,1.9,17,M,,M,,*50
06/10/2014	13:04:21.611	$GPGGA,130422,2610.6066,N,08001.6593,W,1,8,1.9,17,M,,M,,*53
06/10/2014	13:04:22.694	$GPGGA,130423,2610.6059,N,08001.6582,W,1,8,1.9,17,M,,M,,*5E
06/10/2014	13:04:23.717	$GPGGA,130424,2610.6055,N,08001.6576,W,1,8,1.9,17,M,,M,,*5E
06/10/2014	13:04:24.711	$GPGGA,130425,2610.6052,N,08001.6571,W,1,8,1.9,17,M,,M,,*5F
06/10/2014	13:04:25.702	$GPGGA,130426,2610.6049,N,08001.6566,W,1,8,1.9,17,M,,M,,*50
06/10/2014	13:04:26.713	$GPGGA,130427,2610.6046,N,08001.6561,W,1,8,1.9,17,M,,M,,*59
06/10/2014	13:04:27.736	$GPGGA,130428,2610.6042,N,08001.6556,W,1,8,1.9,17,M,,M,,*56
06/10/2014	13:04:28.729	$GPGGA,130429,2610.6039,N,08001.6551,W,1,8,1.9,17,M,,M,,*5C
06/10/2014	13:04:29.701	$GPGGA,130430,2610.6035,N,08001.6546,W,1,8,1.9,17,M,,M,,*5E
06/10/2014	13:04:30.714	$GPGGA,130431,2610.6032,N,08001.6540,W,1,8,1.9,17,M,,M,,*5E
06/10/2014	13:04:31.726	$GPGGA,130432,2610.6028,N,08001.6536,W,1,8,1.9,17,M,,M,,*57
06/10/2014	13:04:32.699	$GPGGA,130433,2610.6026,N,08001.6531,W,1,8,1.9,17,M,,M,,*5F
06/10/2014	13:04:33.702	$GPGGA,130434,2610.6022,N,08001.6526,W,1,8,1.9,17,M,,M,,*5A
06/10/2014	13:04:34.744	$GPGGA,130435,2610.6019,N,08001.6522,W,1,8,1.9,17,M,,M,,*57
06/10/2014	13:04:35.727	$GPGGA,130436,2610.6016,N,08001.6517,W,1,8,1.9,16,M,,M,,*5C
06/10/2014	13:04:36.729	$GPGGA,130437,2610.6012,N,08001.6512,W,1,8,1.9,16,M,,M,,*5C
06/10/2014	13:04:37.712	$GPGGA,130438,2610.6008,N,08001.6507,W,1,8,1.9,16,M,,M,,*5C
06/10/2014	13:04:38.715	$GPGGA,130439,2610.6005,N,08001.6502,W,1,8,1.9,16,M,,M,,*55
06/10/2014	13:04:39.727	$GPGGA,130440,2610.6001,N,08001.6498,W,1,8,2.0,16,M,,M,,*57
06/10/2014	13:04:40.730	$GPGGA,130441,2610.5997,N,08001.6494,W,1,8,1.9,16,M,,M,,*55
06/10/2014	13:04:41.548	$GPGGA,130442,2610.5993,N,08001.6489,W,1,8,1.9,16,M,,M,,*5E
06/10/2014	13:04:42.571	$GPGGA,130443,2610.5990,N,08001.6485,W,1,8,1.9,16,M,,M,,*50
06/10/2014	13:04:43.573	$GPGGA,130444,2610.5987,N,08001.6481,W,1,8,1.9,16,M,,M,,*55
06/10/2014	13:04:44.586	$GPGGA,130445,2610.5983,N,08001.6477,W,1,8,1.9,16,M,,M,,*59
06/10/2014	13:04:45.558	$GPGGA,130446,2610.5980,N,08001.6472,W,1,8,1.9,16,M,,M,,*5C
06/10/2014	13:04:46.590	$GPGGA,130447,2610.5976,N,08001.6468,W,1,8,1.9,16,M,,M,,*5F
06/10/2014	13:04:47.573	$GPGGA,130448,2610.5972,N,08001.6464,W,1,8,1.9,16,M,,M,,*58
06/10/2014	13:04:48.545	$GPGGA,130449,2610.5968,N,08001.6459,W,1,8,1.9,16,M,,M,,*5C
06/10/2014	13:04:49.568	$GPGGA,130450,2610.5965,N,08001.6456,W,1,8,1.9,16,M,,M,,*56
06/10/2014	13:04:50.581	$GPGGA,130451,2610.5959,N,08001.6453,W,1,7,2.1,16,M,,M,,*59
06/10/2014	13:04:51.563	$GPGGA,130452,2610.5955,N,08001.6450,W,1,7,1.9,16,M,,M,,*5E
06/10/2014	13:04:52.596	$GPGGA,130453,2610.5951,N,08001.6447,W,1,8,1.9,16,M,,M,,*52
06/10/2014	13:04:53.550	$GPGGA,130454,2610.5947,N,08001.6443,W,1,8,1.9,16,M,,M,,*56
06/10/2014	13:04:54.551	$GPGGA,130455,2610.5943,N,08001.6439,W,1,8,1.9,16,M,,M,,*5E
06/10/2014	13:04:55.584	$GPGGA,130456,2610.5939,N,08001.6436,W,1,8,1.9,16,M,,M,,*5F
06/10/2014	13:04:56.677	$GPGGA,130457,2610.5936,N,08001.6432,W,1,8,1.9,16,M,,M,,*55
06/10/2014	13:04:57.569	$GPGGA,130458,2610.5932,N,08001.6429,W,1,8,1.9,16,M,,M,,*54
06/10/2014	13:04:58.571	$GPGGA,130459,2610.5926,N,08001.6426,W,1,8,1.9,16,M,,M,,*5F
06/10/2014	13:04:59.595	$GPGGA,130500,2610.5923,N,08001.6423,W,1,8,1.9,16,M,,M,,*52
06/10/2014	13:05:00.567	$GPGGA,130501,2610.5919,N,08001.6420,W,1,8,1.9,16,M,,M,,*59
06/10/2014	13:05:01.660	$GPGGA,130502,2610.5915,N,08001.6416,W,1,8,1.9,16,M,,M,,*53
06/10/2014	13:05:02.691	$GPGGA,130503,2610.5911,N,08001.6414,W,1,8,1.9,16,M,,M,,*54
06/10/2014	13:05:03.594	$GPGGA,130504,2610.5907,N,08001.6411,W,1,8,1.9,16,M,,M,,*51
06/10/2014	13:05:04.696	$GPGGA,130505,2610.5902,N,08001.6407,W,1,8,1.9,16,M,,M,,*52
06/10/2014	13:05:05.575	$GPGGA,130506,2610.5898,N,08001.6404,W,1,8,1.9,16,M,,M,,*50
06/10/2014	13:05:06.576	$GPGGA,130507,2610.5894,N,08001.6402,W,1,8,1.9,16,M,,M,,*5B
06/10/2014	13:05:07.670	$GPGGA,130508,2610.5889,N,08001.6399,W,1,8,1.9,16,M,,M,,*5D
06/10/2014	13:05:08.667	$GPGGA,130509,2610.5885,N,08001.6395,W,1,8,1.9,16,M,,M,,*5C
06/10/2014	13:05:09.580	$GPGGA,130510,2610.5882,N,08001.6392,W,1,8,1.9,16,M,,M,,*54
06/10/2014	13:05:10.678	$GPGGA,130511,2610.5875,N,08001.6389,W,1,8,1.9,16,M,,M,,*57
06/10/2014	13:05:11.687	$GPGGA,130512,2610.5871,N,08001.6386,W,1,8,2.0,16,M,,M,,*55
06/10/2014	13:05:12.592	$GPGGA,130513,2610.5867,N,08001.6382,W,1,7,2.0,16,M,,M,,*58
06/10/2014	13:05:13.660	$GPGGA,130514,2610.5863,N,08001.6379,W,1,7,2.0,16,M,,M,,*5F
06/10/2014	13:05:14.662	$GPGGA,130515,2610.5860,N,08001.6376,W,1,8,1.9,16,M,,M,,*57
06/10/2014	13:05:15.695	$GPGGA,130516,2610.5855,N,08001.6372,W,1,8,1.9,16,M,,M,,*56
06/10/2014	13:05:16.700	$GPGGA,130517,2610.5850,N,08001.6369,W,1,7,2.0,16,M,,M,,*5D
06/10/2014	13:05:17.670	$GPGGA,130518,2610.5847,N,08001.6368,W,1,7,1.9,16,M,,M,,*5F
06/10/2014	13:05:18.682	$GPGGA,130519,2610.5843,N,08001.6365,W,1,8,1.9,16,M,,M,,*58
06/10/2014	13:05:19.694	$GPGGA,130520,2610.5838,N,08001.6362,W,1,8,2.0,16,M,,M,,*53
06/10/2014	13:05:20.667	$GPGGA,130521,2610.5835,N,08001.6359,W,1,7,2.0,16,M,,M,,*58
06/10/2014	13:05:21.669	$GPGGA,130522,2610.5829,N,08001.6356,W,1,7,1.9,16,M,,M,,*53
06/10/2014	13:05:22.692	$GPGGA,130523,2610.5825,N,08001.6353,W,1,8,1.9,16,M,,M,,*54
06/10/2014	13:05:23.685	$GPGGA,130524,2610.5820,N,08001.6350,W,1,8,1.9,16,M,,M,,*55
06/10/2014	13:05:24.697	$GPGGA,130525,2610.5816,N,08001.6348,W,1,8,1.9,16,M,,M,,*58
06/10/2014	13:05:25.671	$GPGGA,130526,2610.5813,N,08001.6345,W,1,8,1.9,16,M,,M,,*53
06/10/2014	13:05:26.672	$GPGGA,130527,2610.5808,N,08001.6343,W,1,7,1.9,16,M,,M,,*51
06/10/2014	13:05:27.705	$GPGGA,130528,2610.5806,N,08001.6341,W,1,7,1.9,16,M,,M,,*52
06/10/2014	13:05:28.698	$GPGGA,130529,2610.5802,N,08001.6338,W,1,8,1.9,16,M,,M,,*56
06/10/2014	13:05:29.690	$GPGGA,130530,2610.5798,N,08001.6336,W,1,8,1.9,16,M,,M,,*5C
06/10/2014	13:05:30.693	$GPGGA,130531,2610.5795,N,08001.6334,W,1,8,1.9,16,M,,M,,*52
06/10/2014	13:05:31.695	$GPGGA,130532,2610.5790,N,08001.6332,W,1,8,1.9,16,M,,M,,*52
06/10/2014	13:05:32.698	$GPGGA,130533,2610.5786,N,08001.6330,W,1,7,2.0,16,M,,M,,*53
06/10/2014	13:05:33.671	$GPGGA,130534,2610.5784,N,08001.6328,W,1,7,1.9,16,M,,M,,*55
06/10/2014	13:05:34.673	$GPGGA,130535,2610.5777,N,08001.6325,W,1,7,2.0,16,M,,M,,*5F
06/10/2014	13:05:35.696	$GPGGA,130536,2610.5773,N,08001.6323,W,1,7,1.9,16,M,,M,,*54
06/10/2014	13:05:36.697	$GPGGA,130537,2610.5767,N,08001.6322,W,1,8,1.9,16,M,,M,,*5E
06/10/2014	13:05:37.680	$GPGGA,130538,2610.5763,N,08001.6321,W,1,8,1.9,16,M,,M,,*56
06/10/2014	13:05:38.683	$GPGGA,130539,2610.5759,N,08001.6320,W,1,8,1.9,16,M,,M,,*5F
06/10/2014	13:05:39.705	$GPGGA,130540,2610.5755,N,08001.6319,W,1,8,1.9,16,M,,M,,*57
06/10/2014	13:05:40.718	$GPGGA,130541,2610.5750,N,08001.6317,W,1,8,1.9,16,M,,M,,*5D
06/10/2014	13:05:41.535	$GPGGA,130542,2610.5746,N,08001.6316,W,1,8,1.9,16,M,,M,,*58
06/10/2014	13:05:42.528	$GPGGA,130543,2610.5742,N,08001.6314,W,1,8,1.9,16,M,,M,,*5F
06/10/2014	13:05:43.551	$GPGGA,130544,2610.5738,N,08001.6313,W,1,8,1.9,16,M,,M,,*52
06/10/2014	13:05:44.544	$GPGGA,130545,2610.5734,N,08001.6311,W,1,8,1.9,16,M,,M,,*5D
06/10/2014	13:05:45.536	$GPGGA,130546,2610.5730,N,08001.6310,W,1,8,1.9,16,M,,M,,*5B
06/10/2014	13:05:46.538	$GPGGA,130547,2610.5725,N,08001.6308,W,1,8,1.9,16,M,,M,,*57
06/10/2014	13:05:47.651	$GPGGA,130548,2610.5721,N,08001.6307,W,1,8,1.9,16,M,,M,,*53
06/10/2014	13:05:48.543	$GPGGA,130549,2610.5717,N,08001.6306,W,1,8,1.9,16,M,,M,,*56
06/10/2014	13:05:49.546	$GPGGA,130550,2610.5712,N,08001.6305,W,1,8,2.0,16,M,,M,,*52
06/10/2014	13:05:50.531	$GPGGA,130551,2610.5708,N,08001.6304,W,1,6,2.5,16,M,,M,,*52
06/10/2014	13:05:51.551	$GPGGA,130552,2610.5704,N,08001.6303,W,1,6,1.9,16,M,,M,,*55
06/10/2014	13:05:52.554	$GPGGA,130553,2610.5701,N,08001.6304,W,1,7,1.9,16,M,,M,,*57
06/10/2014	13:05:53.545	$GPGGA,130554,2610.5698,N,08001.6302,W,1,7,1.9,16,M,,M,,*57
06/10/2014	13:05:54.678	$GPGGA,130555,2610.5694,N,08001.6302,W,1,8,1.9,16,M,,M,,*55
06/10/2014	13:05:55.551	$GPGGA,130556,2610.5690,N,08001.6301,W,1,8,1.9,16,M,,M,,*51
06/10/2014	13:05:56.664	$GPGGA,130557,2610.5686,N,08001.6300,W,1,8,1.9,16,M,,M,,*56
06/10/2014	13:05:57.626	$GPGGA,130558,2610.5680,N,08001.6301,W,1,8,1.9,17,M,,M,,*5F
06/10/2014	13:05:58.649	$GPGGA,130559,2610.5678,N,08001.6299,W,1,6,2.5,17,M,,M,,*58
06/10/2014	13:05:59.681	$GPGGA,130600,2610.5676,N,08001.6298,W,1,6,1.9,17,M,,M,,*57
06/10/2014	13:06:00.664	$GPGGA,130601,2610.5672,N,08001.6298,W,1,8,1.9,17,M,,M,,*5C
06/10/2014	13:06:01.636	$GPGGA,130602,2610.5666,N,08001.6297,W,1,8,1.9,17,M,,M,,*55
06/10/2014	13:06:02.659	$GPGGA,130603,2610.5662,N,08001.6297,W,1,8,1.9,17,M,,M,,*50
06/10/2014	13:06:03.652	$GPGGA,130604,2610.5658,N,08001.6297,W,1,8,1.9,17,M,,M,,*5E
06/10/2014	13:06:04.644	$GPGGA,130605,2610.5654,N,08001.6296,W,1,8,1.9,17,M,,M,,*52
06/10/2014	13:06:05.627	$GPGGA,130606,2610.5649,N,08001.6297,W,1,8,1.9,17,M,,M,,*5C
06/10/2014	13:06:06.659	$GPGGA,130607,2610.5644,N,08001.6296,W,1,8,1.9,17,M,,M,,*51
06/10/2014	13:06:07.652	$GPGGA,130608,2610.5638,N,08001.6297,W,1,8,1.9,17,M,,M,,*54
06/10/2014	13:06:08.656	$GPGGA,130609,2610.5633,N,08001.6296,W,1,7,1.9,17,M,,M,,*50
06/10/2014	13:06:09.647	$GPGGA,130610,2610.5629,N,08001.6297,W,1,7,1.9,17,M,,M,,*52
06/10/2014	13:06:10.670	$GPGGA,130611,2610.5623,N,08001.6297,W,1,7,1.9,17,M,,M,,*59
06/10/2014	13:06:11.651	$GPGGA,130612,2610.5620,N,08001.6296,W,1,7,1.9,17,M,,M,,*58
06/10/2014	13:06:12.634	$GPGGA,130613,2610.5616,N,08001.6297,W,1,8,1.9,17,M,,M,,*52
06/10/2014	13:06:13.647	$GPGGA,130614,2610.5612,N,08001.6296,W,1,8,1.9,17,M,,M,,*50
06/10/2014	13:06:14.679	$GPGGA,130615,2610.5608,N,08001.6297,W,1,8,1.9,17,M,,M,,*5B
06/10/2014	13:06:15.662	$GPGGA,130616,2610.5603,N,08001.6296,W,1,8,1.9,17,M,,M,,*52
06/10/2014	13:06:16.664	$GPGGA,130617,2610.5600,N,08001.6297,W,1,8,1.9,17,M,,M,,*51
06/10/2014	13:06:17.637	$GPGGA,130618,2610.5594,N,08001.6297,W,1,8,1.9,17,M,,M,,*50
06/10/2014	13:06:18.629	$GPGGA,130619,2610.5589,N,08001.6298,W,1,8,1.9,17,M,,M,,*52
06/10/2014	13:06:19.662	$GPGGA,130620,2610.5586,N,08001.6300,W,1,8,2.1,17,M,,M,,*5C
06/10/2014	13:06:20.675	$GPGGA,130621,2610.5580,N,08001.6299,W,1,8,1.9,17,M,,M,,*51
06/10/2014	13:06:21.657	$GPGGA,130622,2610.5576,N,08001.6301,W,1,8,1.9,17,M,,M,,*5B
06/10/2014	13:06:22.680	$GPGGA,130623,2610.5571,N,08001.6300,W,1,8,1.9,17,M,,M,,*5C
06/10/2014	13:06:23.663	$GPGGA,130624,2610.5566,N,08001.6301,W,1,8,1.9,17,M,,M,,*5C
06/10/2014	13:06:24.685	$GPGGA,130625,2610.5561,N,08001.6302,W,1,8,1.9,17,M,,M,,*59
06/10/2014	13:06:25.659	$GPGGA,130626,2610.5556,N,08001.6304,W,1,8,1.9,17,M,,M,,*58
06/10/2014	13:06:26.680	$GPGGA,130627,2610.5551,N,08001.6305,W,1,8,1.9,17,M,,M,,*5F
06/10/2014	13:06:27.663	$GPGGA,130628,2610.5546,N,08001.6306,W,1,8,1.9,17,M,,M,,*55
06/10/2014	13:06:28.644	$GPGGA,130629,2610.5542,N,08001.6308,W,1,8,1.9,18,M,,M,,*51
06/10/2014	13:06:29.667	$GPGGA,130630,2610.5537,N,08001.6308,W,1,8,1.9,18,M,,M,,*5B
06/10/2014	13:06:30.650	$GPGGA,130631,2610.5535,N,08001.6311,W,1,7,2.1,18,M,,M,,*54
06/10/2014	13:06:31.672	$GPGGA,130632,2610.5531,N,08001.6312,W,1,7,1.9,18,M,,M,,*5B
06/10/2014	13:06:32.665	$GPGGA,130633,2610.5526,N,08001.6315,W,1,8,1.9,18,M,,M,,*54
06/10/2014	13:06:33.768	$GPGGA,130634,2610.5520,N,08001.6315,W,1,8,1.9,18,M,,M,,*55
06/10/2014	13:06:34.690	$GPGGA,130635,2610.5517,N,08001.6318,W,1,8,1.9,18,M,,M,,*5D
06/10/2014	13:06:35.673	$GPGGA,130636,2610.5510,N,08001.6319,W,1,8,1.9,18,M,,M,,*58
06/10/2014	13:06:36.645	$GPGGA,130637,2610.5508,N,08001.6319,W,1,7,1.9,18,M,,M,,*5F
06/10/2014	13:06:37.748	$GPGGA,130638,2610.5503,N,08001.6320,W,1,7,1.9,19,M,,M,,*50
06/10/2014	13:06:38.660	$GPGGA,130639,2610.5500,N,08001.6320,W,1,8,1.9,19,M,,M,,*5D
06/10/2014	13:06:39.683	$GPGGA,130640,2610.5495,N,08001.6322,W,1,8,1.9,19,M,,M,,*5C
06/10/2014	13:06:40.656	$GPGGA,130641,2610.5491,N,08001.6323,W,1,8,1.9,19,M,,M,,*58
06/10/2014	13:06:41.508	$GPGGA,130642,2610.5485,N,08001.6324,W,1,8,1.9,19,M,,M,,*59
06/10/2014	13:06:42.627	$GPGGA,130643,2610.5480,N,08001.6326,W,1,8,1.9,19,M,,M,,*5F
06/10/2014	13:06:43.529	$GPGGA,130644,2610.5474,N,08001.6326,W,1,8,2.1,19,M,,M,,*58
06/10/2014	13:06:44.642	$GPGGA,130645,2610.5470,N,08001.6329,W,1,8,1.9,20,M,,M,,*53
06/10/2014	13:06:45.522	$GPGGA,130646,2610.5463,N,08001.6330,W,1,8,1.9,20,M,,M,,*5A
06/10/2014	13:06:46.627	$GPGGA,130647,2610.5459,N,08001.6331,W,1,8,1.9,20,M,,M,,*53
06/10/2014	13:06:47.622	$GPGGA,130648,2610.5452,N,08001.6333,W,1,8,1.9,20,M,,M,,*55
06/10/2014	13:06:48.625	$GPGGA,130649,2610.5446,N,08001.6333,W,1,8,1.9,20,M,,M,,*51
06/10/2014	13:06:49.618	$GPGGA,130650,2610.5441,N,08001.6333,W,1,8,1.9,20,M,,M,,*5E
06/10/2014	13:06:50.629	$GPGGA,130651,2610.5434,N,08001.6334,W,1,8,1.9,20,M,,M,,*5A
06/10/2014	13:06:51.621	$GPGGA,130652,2610.5427,N,08001.6335,W,1,8,1.9,20,M,,M,,*5A
06/10/2014	13:06:52.593	$GPGGA,130653,2610.5420,N,08001.6337,W,1,7,1.9,20,M,,M,,*51
06/10/2014	13:06:53.596	$GPGGA,130654,2610.5415,N,08001.6336,W,1,7,1.9,20,M,,M,,*51
06/10/2014	13:06:54.607	$GPGGA,130655,2610.5408,N,08001.6337,W,1,8,1.9,20,M,,M,,*52
06/10/2014	13:06:55.610	$GPGGA,130656,2610.5401,N,08001.6338,W,1,8,1.9,20,M,,M,,*57
06/10/2014	13:06:56.612	$GPGGA,130657,2610.5395,N,08001.6338,W,1,7,1.9,20,M,,M,,*53
06/10/2014	13:06:57.605	$GPGGA,130658,2610.5389,N,08001.6340,W,1,7,1.9,20,M,,M,,*5E
06/10/2014	13:06:58.618	$GPGGA,130659,2610.5383,N,08001.6339,W,1,7,1.9,20,M,,M,,*5B
06/10/2014	13:06:59.670	$GPGGA,130700,2610.5376,N,08001.6340,W,1,7,1.9,20,M,,M,,*52
06/10/2014	13:07:00.623	$GPGGA,130701,2610.5369,N,08001.6341,W,1,7,1.9,20,M,,M,,*5C
06/10/2014	13:07:01.605	$GPGGA,130702,2610.5363,N,08001.6341,W,1,7,1.9,20,M,,M,,*55
06/10/2014	13:07:02.618	$GPGGA,130703,2610.5358,N,08001.6342,W,1,7,1.9,20,M,,M,,*5F
06/10/2014	13:07:03.620	$GPGGA,130704,2610.5352,N,08001.6342,W,1,7,1.9,20,M,,M,,*52
06/10/2014	13:07:04.642	$GPGGA,130705,2610.5345,N,08001.6344,W,1,8,1.9,20,M,,M,,*5C
06/10/2014	13:07:05.615	$GPGGA,130706,2610.5340,N,08001.6343,W,1,8,1.9,20,M,,M,,*5D
06/10/2014	13:07:06.637	$GPGGA,130707,2610.5334,N,08001.6344,W,1,8,1.9,20,M,,M,,*58
06/10/2014	13:07:07.620	$GPGGA,130708,2610.5329,N,08001.6345,W,1,8,1.9,19,M,,M,,*50
06/10/2014	13:07:08.643	$GPGGA,130709,2610.5322,N,08001.6345,W,1,7,1.9,19,M,,M,,*55
06/10/2014	13:07:09.615	$GPGGA,130710,2610.5315,N,08001.6347,W,1,7,1.9,19,M,,M,,*5B
06/10/2014	13:07:10.628	$GPGGA,130711,2610.5309,N,08001.6348,W,1,7,1.9,19,M,,M,,*58
06/10/2014	13:07:11.630	$GPGGA,130712,2610.5303,N,08001.6348,W,1,7,1.9,19,M,,M,,*51
06/10/2014	13:07:12.603	$GPGGA,130713,2610.5297,N,08001.6349,W,1,7,1.9,19,M,,M,,*5D
06/10/2014	13:07:13.615	$GPGGA,130714,2610.5291,N,08001.6351,W,1,7,1.9,19,M,,M,,*55
06/10/2014	13:07:14.658	$GPGGA,130715,2610.5286,N,08001.6351,W,1,7,1.9,19,M,,M,,*52
06/10/2014	13:07:15.621	$GPGGA,130716,2610.5280,N,08001.6352,W,1,7,1.9,19,M,,M,,*54
06/10/2014	13:07:16.613	$GPGGA,130717,2610.5275,N,08001.6352,W,1,7,1.9,19,M,,M,,*5F
06/10/2014	13:07:17.626	$GPGGA,130718,2610.5268,N,08001.6353,W,1,7,1.9,19,M,,M,,*5D
06/10/2014	13:07:18.628	$GPGGA,130719,2610.5262,N,08001.6353,W,1,7,1.9,19,M,,M,,*56
06/10/2014	13:07:19.641	$GPGGA,130720,2610.5257,N,08001.6355,W,1,7,1.9,18,M,,M,,*5D
06/10/2014	13:07:20.610	$GPGGA,130721,2610.5251,N,08001.6355,W,1,8,1.9,18,M,,M,,*55
06/10/2014	13:07:21.635	$GPGGA,130722,2610.5246,N,08001.6355,W,1,8,1.9,18,M,,M,,*50
06/10/2014	13:07:22.615	$GPGGA,130723,2610.5240,N,08001.6356,W,1,8,1.9,18,M,,M,,*54
06/10/2014	13:07:23.640	$GPGGA,130724,2610.5235,N,08001.6358,W,1,8,1.9,18,M,,M,,*5F
06/10/2014	13:07:24.653	$GPGGA,130725,2610.5229,N,08001.6358,W,1,8,1.9,18,M,,M,,*53
06/10/2014	13:07:25.736	$GPGGA,130726,2610.5224,N,08001.6359,W,1,8,2.1,18,M,,M,,*57
06/10/2014	13:07:26.739	$GPGGA,130727,2610.5217,N,08001.6359,W,1,7,2.1,18,M,,M,,*59
06/10/2014	13:07:27.631	$GPGGA,130728,2610.5210,N,08001.6360,W,1,7,2.1,18,M,,M,,*5B
06/10/2014	13:07:28.627	$GPGGA,130729,2610.5204,N,08001.6362,W,1,8,1.9,18,M,,M,,*59
06/10/2014	13:07:29.736	$GPGGA,130730,2610.5201,N,08001.6361,W,1,8,1.9,18,M,,M,,*57
06/10/2014	13:07:30.632	$GPGGA,130731,2610.5197,N,08001.6362,W,1,8,1.9,18,M,,M,,*59
06/10/2014	13:07:31.635	$GPGGA,130732,2610.5191,N,08001.6363,W,1,8,1.9,18,M,,M,,*5D
06/10/2014	13:07:32.744	$GPGGA,130733,2610.5185,N,08001.6366,W,1,7,1.9,18,M,,M,,*53
06/10/2014	13:07:33.628	$GPGGA,130734,2610.5179,N,08001.6366,W,1,7,1.9,18,M,,M,,*57
06/10/2014	13:07:34.759	$GPGGA,130735,2610.5174,N,08001.6369,W,1,8,1.9,18,M,,M,,*5B
06/10/2014	13:07:35.752	$GPGGA,130736,2610.5168,N,08001.6370,W,1,8,1.9,18,M,,M,,*5D
06/10/2014	13:07:36.624	$GPGGA,130737,2610.5161,N,08001.6370,W,1,8,1.9,18,M,,M,,*55
06/10/2014	13:07:37.727	$GPGGA,130738,2610.5155,N,08001.6371,W,1,8,1.9,18,M,,M,,*5C
06/10/2014	13:07:38.729	$GPGGA,130739,2610.5150,N,08001.6373,W,1,8,1.9,18,M,,M,,*5A
06/10/2014	13:07:39.771	$GPGGA,130740,2610.5145,N,08001.6373,W,1,8,1.9,18,M,,M,,*50
06/10/2014	13:07:40.744	$GPGGA,130741,2610.5139,N,08001.6374,W,1,8,2.1,18,M,,M,,*56
06/10/2014	13:07:41.571	$GPGGA,130742,2610.5132,N,08001.6376,W,1,8,2.1,18,M,,M,,*5C
06/10/2014	13:07:42.564	$GPGGA,130743,2610.5127,N,08001.6377,W,1,7,1.9,18,M,,M,,*5C
06/10/2014	13:07:43.600	$GPGGA,130744,2610.5121,N,08001.6377,W,1,7,1.9,18,M,,M,,*5D
06/10/2014	13:07:44.629	$GPGGA,130745,2610.5116,N,08001.6377,W,1,8,1.9,18,M,,M,,*57
06/10/2014	13:07:45.582	$GPGGA,130746,2610.5109,N,08001.6378,W,1,8,1.9,18,M,,M,,*55
06/10/2014	13:07:46.594	$GPGGA,130747,2610.5103,N,08001.6378,W,1,8,1.9,18,M,,M,,*5E
06/10/2014	13:07:47.587	$GPGGA,130748,2610.5098,N,08001.6380,W,1,8,1.9,18,M,,M,,*55
06/10/2014	13:07:48.600	$GPGGA,130749,2610.5092,N,08001.6380,W,1,8,1.9,18,M,,M,,*5E
06/10/2014	13:07:49.582	$GPGGA,130750,2610.5087,N,08001.6381,W,1,8,1.9,18,M,,M,,*53
06/10/2014	13:07:50.605	$GPGGA,130751,2610.5081,N,08001.6383,W,1,8,1.9,18,M,,M,,*56
06/10/2014	13:07:51.587	$GPGGA,130752,2610.5074,N,08001.6384,W,1,8,1.9,17,M,,M,,*57
06/10/2014	13:07:52.600	$GPGGA,130753,2610.5069,N,08001.6385,W,1,8,1.9,17,M,,M,,*5B
06/10/2014	13:07:53.583	$GPGGA,130754,2610.5063,N,08001.6387,W,1,8,1.9,17,M,,M,,*54
06/10/2014	13:07:54.565	$GPGGA,130755,2610.5058,N,08001.6387,W,1,8,1.9,17,M,,M,,*5D
06/10/2014	13:07:55.588	$GPGGA,130756,2610.5052,N,08001.6388,W,1,8,1.9,17,M,,M,,*5B
06/10/2014	13:07:56.609	$GPGGA,130757,2610.5047,N,08001.6389,W,1,8,1.9,17,M,,M,,*5F
06/10/2014	13:07:57.572	$GPGGA,130758,2610.5040,N,08001.6391,W,1,8,1.9,17,M,,M,,*5E
06/10/2014	13:07:58.574	$GPGGA,130759,2610.5033,N,08001.6391,W,1,7,1.9,17,M,,M,,*54
06/10/2014	13:07:59.607	$GPGGA,130800,2610.5026,N,08001.6394,W,1,7,1.9,17,M,,M,,*56
06/10/2014	13:08:00.610	$GPGGA,130801,2610.5020,N,08001.6395,W,1,7,1.9,17,M,,M,,*50
06/10/2014	13:08:01.582	$GPGGA,130802,2610.5014,N,08001.6394,W,1,7,1.9,17,M,,M,,*55
06/10/2014	13:08:02.585	$GPGGA,130803,2610.5008,N,08001.6395,W,1,7,1.9,17,M,,M,,*58
06/10/2014	13:08:03.608	$GPGGA,130804,2610.5001,N,08001.6398,W,1,7,1.9,17,M,,M,,*5B
06/10/2014	13:08:04.600	$GPGGA,130805,2610.4995,N,08001.6397,W,1,7,1.9,17,M,,M,,*50
06/10/2014	13:08:05.593	$GPGGA,130806,2610.4988,N,08001.6398,W,1,7,1.9,17,M,,M,,*50
06/10/2014	13:08:06.595	$GPGGA,130807,2610.4982,N,08001.6399,W,1,7,1.9,17,M,,M,,*5A
06/10/2014	13:08:07.598	$GPGGA,130808,2610.4976,N,08001.6400,W,1,7,1.9,17,M,,M,,*59
06/10/2014	13:08:08.611	$GPGGA,130809,2610.4971,N,08001.6402,W,1,7,1.9,17,M,,M,,*5D
06/10/2014	13:08:09.613	$GPGGA,130810,2610.4964,N,08001.6401,W,1,7,1.9,17,M,,M,,*52
06/10/2014	13:08:10.616	$GPGGA,130811,2610.4957,N,08001.6402,W,1,7,1.9,17,M,,M,,*50
06/10/2014	13:08:11.609	$GPGGA,130812,2610.4951,N,08001.6403,W,1,7,1.9,17,M,,M,,*54
06/10/2014	13:08:12.581	$GPGGA,130813,2610.4944,N,08001.6405,W,1,7,1.9,17,M,,M,,*57
06/10/2014	13:08:13.693	$GPGGA,130814,2610.4939,N,08001.6405,W,1,7,1.9,17,M,,M,,*5A
06/10/2014	13:08:14.725	$GPGGA,130815,2610.4931,N,08001.6406,W,1,7,1.9,17,M,,M,,*50
06/10/2014	13:08:15.708	$GPGGA,130816,2610.4925,N,08001.6406,W,1,7,1.9,17,M,,M,,*56
06/10/2014	13:08:16.610	$GPGGA,130817,2610.4921,N,08001.6407,W,1,7,1.9,17,M,,M,,*52
06/10/2014	13:08:17.593	$GPGGA,130818,2610.4919,N,08001.6406,W,1,7,1.9,17,M,,M,,*57
06/10/2014	13:08:18.687	$GPGGA,130819,2610.4915,N,08001.6406,W,1,8,1.9,17,M,,M,,*55
06/10/2014	13:08:19.708	$GPGGA,130820,2610.4910,N,08001.6406,W,1,8,1.9,17,M,,M,,*5A
06/10/2014	13:08:20.721	$GPGGA,130821,2610.4903,N,08001.6407,W,1,8,1.9,17,M,,M,,*58
06/10/2014	13:08:21.693	$GPGGA,130822,2610.4899,N,08001.6407,W,1,8,1.9,17,M,,M,,*59
06/10/2014	13:08:22.686	$GPGGA,130823,2610.4892,N,08001.6407,W,1,8,1.9,17,M,,M,,*53
06/10/2014	13:08:23.719	$GPGGA,130824,2610.4886,N,08001.6409,W,1,8,1.9,17,M,,M,,*5F
06/10/2014	13:08:24.721	$GPGGA,130825,2610.4881,N,08001.6409,W,1,8,1.9,17,M,,M,,*59
06/10/2014	13:08:25.694	$GPGGA,130826,2610.4874,N,08001.6410,W,1,8,1.9,17,M,,M,,*58
06/10/2014	13:08:26.696	$GPGGA,130827,2610.4870,N,08001.6413,W,1,7,1.9,17,M,,M,,*51
06/10/2014	13:08:27.711	$GPGGA,130828,2610.4864,N,08001.6416,W,1,7,1.9,17,M,,M,,*5E
06/10/2014	13:08:28.713	$GPGGA,130829,2610.4859,N,08001.6417,W,1,8,1.9,18,M,,M,,*50
06/10/2014	13:08:29.694	$GPGGA,130830,2610.4854,N,08001.6418,W,1,8,1.9,18,M,,M,,*5A
06/10/2014	13:08:30.707	$GPGGA,130831,2610.4849,N,08001.6420,W,1,8,1.9,18,M,,M,,*5C
06/10/2014	13:08:31.708	$GPGGA,130832,2610.4843,N,08001.6423,W,1,8,1.9,18,M,,M,,*56
06/10/2014	13:08:32.711	$GPGGA,130833,2610.4838,N,08001.6423,W,1,8,1.9,18,M,,M,,*5B
06/10/2014	13:08:33.684	$GPGGA,130834,2610.4832,N,08001.6424,W,1,8,1.9,18,M,,M,,*51
06/10/2014	13:08:34.716	$GPGGA,130835,2610.4827,N,08001.6425,W,1,8,1.9,18,M,,M,,*55
06/10/2014	13:08:35.709	$GPGGA,130836,2610.4820,N,08001.6427,W,1,8,1.9,18,M,,M,,*53
06/10/2014	13:08:36.721	$GPGGA,130837,2610.4816,N,08001.6427,W,1,8,1.9,18,M,,M,,*57
06/10/2014	13:08:37.694	$GPGGA,130838,2610.4809,N,08001.6428,W,1,8,1.9,19,M,,M,,*58
06/10/2014	13:08:38.717	$GPGGA,130839,2610.4802,N,08001.6428,W,1,7,1.9,19,M,,M,,*5D
06/10/2014	13:08:39.709	$GPGGA,130840,2610.4795,N,08001.6430,W,1,7,1.9,19,M,,M,,*5B
06/10/2014	13:08:40.722	$GPGGA,130841,2610.4789,N,08001.6429,W,1,8,1.9,19,M,,M,,*50
06/10/2014	13:08:41.550	$GPGGA,130842,2610.4782,N,08001.6430,W,1,8,2.1,19,M,,M,,*5B
06/10/2014	13:08:42.573	$GPGGA,130843,2610.4776,N,08001.6431,W,1,8,1.9,19,M,,M,,*5B
06/10/2014	13:08:43.566	$GPGGA,130844,2610.4769,N,08001.6430,W,1,8,1.9,19,M,,M,,*53
06/10/2014	13:08:44.568	$GPGGA,130845,2610.4763,N,08001.6431,W,1,8,1.9,19,M,,M,,*59
06/10/2014	13:08:45.541	$GPGGA,130846,2610.4756,N,08001.6432,W,1,8,1.9,19,M,,M,,*5F
06/10/2014	13:08:46.583	$GPGGA,130847,2610.4751,N,08001.6432,W,1,7,2.1,19,M,,M,,*5D
06/10/2014	13:08:47.566	$GPGGA,130848,2610.4744,N,08001.6434,W,1,7,2.1,19,M,,M,,*50
06/10/2014	13:08:48.578	$GPGGA,130849,2610.4738,N,08001.6435,W,1,8,1.9,19,M,,M,,*5F
06/10/2014	13:08:49.560	$GPGGA,130850,2610.4733,N,08001.6436,W,1,8,1.9,19,M,,M,,*5F
06/10/2014	13:08:50.573	$GPGGA,130851,2610.4725,N,08001.6438,W,1,8,1.9,19,M,,M,,*57
06/10/2014	13:08:51.565	$GPGGA,130852,2610.4718,N,08001.6438,W,1,8,1.9,19,M,,M,,*5A
06/10/2014	13:08:52.578	$GPGGA,130853,2610.4712,N,08001.6439,W,1,7,1.9,19,M,,M,,*5F
06/10/2014	13:08:53.550	$GPGGA,130854,2610.4707,N,08001.6441,W,1,7,1.9,19,M,,M,,*53
06/10/2014	13:08:54.553	$GPGGA,130855,2610.4702,N,08001.6441,W,1,8,1.9,19,M,,M,,*58
06/10/2014	13:08:55.577	$GPGGA,130856,2610.4697,N,08001.6442,W,1,8,1.9,19,M,,M,,*55
06/10/2014	13:08:56.578	$GPGGA,130857,2610.4690,N,08001.6445,W,1,7,1.9,19,M,,M,,*5B
06/10/2014	13:08:57.571	$GPGGA,130858,2610.4684,N,08001.6445,W,1,7,1.9,19,M,,M,,*51
06/10/2014	13:08:58.644	$GPGGA,130859,2610.4677,N,08001.6446,W,1,7,1.9,19,M,,M,,*5F
06/10/2014	13:08:59.586	$GPGGA,130900,2610.4671,N,08001.6447,W,1,7,1.9,19,M,,M,,*55
06/10/2014	13:09:00.550	$GPGGA,130901,2610.4664,N,08001.6449,W,1,7,1.9,19,M,,M,,*5E
06/10/2014	13:09:01.651	$GPGGA,130902,2610.4659,N,08001.6449,W,1,7,1.9,18,M,,M,,*52
06/10/2014	13:09:02.564	$GPGGA,130903,2610.4653,N,08001.6450,W,1,7,1.9,18,M,,M,,*51
06/10/2014	13:09:03.558	$GPGGA,130904,2610.4651,N,08001.6452,W,1,7,1.9,18,M,,M,,*56
06/10/2014	13:09:04.559	$GPGGA,130905,2610.4650,N,08001.6452,W,1,7,2.2,18,M,,M,,*5E
06/10/2014	13:09:05.651	$GPGGA,130906,2610.4647,N,08001.6452,W,1,7,1.9,18,M,,M,,*53
06/10/2014	13:09:06.654	$GPGGA,130907,2610.4644,N,08001.6453,W,1,8,1.9,18,M,,M,,*5F
06/10/2014	13:09:07.576	$GPGGA,130908,2610.4642,N,08001.6453,W,1,8,1.9,18,M,,M,,*56
06/10/2014	13:09:08.659	$GPGGA,130909,2610.4639,N,08001.6454,W,1,8,1.9,18,M,,M,,*5C
06/10/2014	13:09:09.651	$GPGGA,130910,2610.4636,N,08001.6456,W,1,8,1.9,18,M,,M,,*59
06/10/2014	13:09:10.684	$GPGGA,130911,2610.4635,N,08001.6455,W,1,8,1.9,18,M,,M,,*58
06/10/2014	13:09:11.676	$GPGGA,130912,2610.4632,N,08001.6456,W,1,8,1.9,18,M,,M,,*5F
06/10/2014	13:09:12.679	$GPGGA,130913,2610.4629,N,08001.6457,W,1,8,1.9,18,M,,M,,*55
06/10/2014	13:09:13.662	$GPGGA,130914,2610.4628,N,08001.6457,W,1,8,1.9,17,M,,M,,*5C
06/10/2014	13:09:14.654	$GPGGA,130915,2610.4624,N,08001.6459,W,1,8,1.9,17,M,,M,,*5F
06/10/2014	13:09:15.677	$GPGGA,130916,2610.4622,N,08001.6458,W,1,8,1.9,17,M,,M,,*5B
06/10/2014	13:09:16.679	$GPGGA,130917,2610.4621,N,08001.6460,W,1,8,1.9,17,M,,M,,*52
06/10/2014	13:09:17.662	$GPGGA,130918,2610.4618,N,08001.6460,W,1,8,1.9,17,M,,M,,*57
06/10/2014	13:09:18.685	$GPGGA,130919,2610.4617,N,08001.6461,W,1,8,1.9,17,M,,M,,*58
06/10/2014	13:09:19.687	$GPGGA,130920,2610.4615,N,08001.6463,W,1,8,1.9,17,M,,M,,*52
06/10/2014	13:09:20.694	$GPGGA,130921,2610.4614,N,08001.6462,W,1,8,1.9,17,M,,M,,*53
06/10/2014	13:09:21.672	$GPGGA,130922,2610.4613,N,08001.6463,W,1,8,1.9,17,M,,M,,*56
06/10/2014	13:09:22.685	$GPGGA,130923,2610.4611,N,08001.6463,W,1,8,1.9,16,M,,M,,*54
06/10/2014	13:09:23.677	$GPGGA,130924,2610.4610,N,08001.6464,W,1,8,1.9,16,M,,M,,*55
06/10/2014	13:09:24.689	$GPGGA,130925,2610.4610,N,08001.6464,W,1,8,1.9,16,M,,M,,*54
06/10/2014	13:09:25.672	$GPGGA,130926,2610.4608,N,08001.6465,W,1,8,1.9,16,M,,M,,*5F
06/10/2014	13:09:26.694	$GPGGA,130927,2610.4607,N,08001.6465,W,1,8,1.9,16,M,,M,,*51
06/10/2014	13:09:27.687	$GPGGA,130928,2610.4606,N,08001.6467,W,1,8,1.9,16,M,,M,,*5D
06/10/2014	13:09:28.700	$GPGGA,130929,2610.4604,N,08001.6467,W,1,8,1.9,16,M,,M,,*5E
06/10/2014	13:09:29.672	$GPGGA,130930,2610.4605,N,08001.6467,W,1,8,1.9,16,M,,M,,*57
06/10/2014	13:09:30.675	$GPGGA,130931,2610.4603,N,08001.6468,W,1,8,1.9,16,M,,M,,*5F
06/10/2014	13:09:31.687	$GPGGA,130932,2610.4603,N,08001.6468,W,1,8,1.9,16,M,,M,,*5C
06/10/2014	13:09:32.700	$GPGGA,130933,2610.4601,N,08001.6468,W,1,8,1.9,15,M,,M,,*5C
06/10/2014	13:09:33.673	$GPGGA,130934,2610.4602,N,08001.6470,W,1,8,1.9,15,M,,M,,*51
06/10/2014	13:09:34.705	$GPGGA,130935,2610.4600,N,08001.6470,W,1,8,1.9,15,M,,M,,*52
06/10/2014	13:09:35.688	$GPGGA,130936,2610.4599,N,08001.6470,W,1,8,1.9,15,M,,M,,*52
06/10/2014	13:09:36.660	$GPGGA,130937,2610.4599,N,08001.6471,W,1,8,1.9,15,M,,M,,*52
06/10/2014	13:09:37.683	$GPGGA,130938,2610.4599,N,08001.6471,W,1,8,1.9,15,M,,M,,*5D
06/10/2014	13:09:38.696	$GPGGA,130939,2610.4597,N,08001.6472,W,1,8,1.9,15,M,,M,,*51
06/10/2014	13:09:39.688	$GPGGA,130940,2610.4596,N,08001.6474,W,1,8,1.9,15,M,,M,,*58
06/10/2014	13:09:40.700	$GPGGA,130941,2610.4595,N,08001.6473,W,1,8,1.9,15,M,,M,,*5D
06/10/2014	13:09:41.528	$GPGGA,130942,2610.4594,N,08001.6474,W,1,8,1.9,15,M,,M,,*58
06/10/2014	13:09:42.511	$GPGGA,130943,2610.4592,N,08001.6474,W,1,8,1.9,15,M,,M,,*5F
06/10/2014	13:09:43.644	$GPGGA,130944,2610.4592,N,08001.6474,W,1,8,1.9,15,M,,M,,*58
06/10/2014	13:09:44.537	$GPGGA,130945,2610.4589,N,08001.6475,W,1,8,1.9,15,M,,M,,*52
06/10/2014	13:09:45.519	$GPGGA,130946,2610.4587,N,08001.6475,W,1,8,1.9,14,M,,M,,*5E
06/10/2014	13:09:46.517	$GPGGA,130947,2610.4585,N,08001.6477,W,1,8,1.9,14,M,,M,,*5F
06/10/2014	13:09:47.544	$GPGGA,130948,2610.4582,N,08001.6476,W,1,8,1.9,14,M,,M,,*56
06/10/2014	13:09:48.536	$GPGGA,130949,2610.4579,N,08001.6477,W,1,8,1.9,14,M,,M,,*52
06/10/2014	13:09:49.639	$GPGGA,130950,2610.4575,N,08001.6476,W,1,8,1.9,14,M,,M,,*57
06/10/2014	13:09:50.662	$GPGGA,130951,2610.4572,N,08001.6477,W,1,8,1.9,14,M,,M,,*50
06/10/2014	13:09:51.544	$GPGGA,130952,2610.4567,N,08001.6476,W,1,8,1.9,14,M,,M,,*56
06/10/2014	13:09:52.657	$GPGGA,130953,2610.4563,N,08001.6478,W,1,7,1.9,14,M,,M,,*52
06/10/2014	13:09:53.650	$GPGGA,130954,2610.4557,N,08001.6477,W,1,7,1.9,14,M,,M,,*5D
06/10/2014	13:09:54.535	$GPGGA,130955,2610.4552,N,08001.6476,W,1,8,1.9,14,M,,M,,*57
06/10/2014	13:09:55.632	$GPGGA,130956,2610.4547,N,08001.6477,W,1,8,2.1,14,M,,M,,*5A
06/10/2014	13:09:56.637	$GPGGA,130957,2610.4541,N,08001.6475,W,1,8,1.9,14,M,,M,,*54
06/10/2014	13:09:57.636	$GPGGA,130958,2610.4538,N,08001.6474,W,1,8,1.9,14,M,,M,,*54
06/10/2014	13:09:58.640	$GPGGA,130959,2610.4532,N,08001.6473,W,1,8,1.9,14,M,,M,,*58
06/10/2014	13:09:59.654	$GPGGA,131000,2610.4527,N,08001.6472,W,1,8,1.9,14,M,,M,,*59
06/10/2014	13:10:00.667	$GPGGA,131001,2610.4523,N,08001.6471,W,1,7,2.1,14,M,,M,,*5B
06/10/2014	13:10:01.629	$GPGGA,131002,2610.4516,N,08001.6469,W,1,7,1.9,14,M,,M,,*5C
06/10/2014	13:10:02.642	$GPGGA,131003,2610.4511,N,08001.6468,W,1,8,1.9,14,M,,M,,*54
06/10/2014	13:10:03.645	$GPGGA,131004,2610.4505,N,08001.6465,W,1,8,1.9,14,M,,M,,*5B
06/10/2014	13:10:04.650	$GPGGA,131005,2610.4499,N,08001.6463,W,1,7,2.1,14,M,,M,,*5C
06/10/2014	13:10:05.620	$GPGGA,131006,2610.4494,N,08001.6462,W,1,7,1.9,14,M,,M,,*58
06/10/2014	13:10:06.642	$GPGGA,131007,2610.4488,N,08001.6459,W,1,8,1.9,14,M,,M,,*53
06/10/2014	13:10:07.645	$GPGGA,131008,2610.4483,N,08001.6457,W,1,8,2.1,14,M,,M,,*52
06/10/2014	13:10:08.628	$GPGGA,131009,2610.4477,N,08001.6453,W,1,8,1.9,14,M,,M,,*57
06/10/2014	13:10:09.640	$GPGGA,131010,2610.4471,N,08001.6449,W,1,8,1.9,14,M,,M,,*52
06/10/2014	13:10:10.643	$GPGGA,131011,2610.4463,N,08001.6447,W,1,6,2.6,14,M,,M,,*5C
06/10/2014	13:10:11.645	$GPGGA,131012,2610.4456,N,08001.6444,W,1,6,1.9,14,M,,M,,*56
06/10/2014	13:10:12.648	$GPGGA,131013,2610.4449,N,08001.6440,W,1,8,1.9,14,M,,M,,*53
06/10/2014	13:10:13.631	$GPGGA,131014,2610.4444,N,08001.6436,W,1,8,1.9,14,M,,M,,*58
06/10/2014	13:10:14.633	$GPGGA,131015,2610.4437,N,08001.6431,W,1,8,1.9,15,M,,M,,*5B
06/10/2014	13:10:15.645	$GPGGA,131016,2610.4431,N,08001.6426,W,1,8,1.9,15,M,,M,,*58
06/10/2014	13:10:16.627	$GPGGA,131017,2610.4426,N,08001.6421,W,1,7,2.1,15,M,,M,,*5C
06/10/2014	13:10:17.640	$GPGGA,131018,2610.4422,N,08001.6415,W,1,7,1.9,15,M,,M,,*5B
06/10/2014	13:10:18.643	$GPGGA,131019,2610.4417,N,08001.6408,W,1,7,2.1,15,M,,M,,*5B
06/10/2014	13:10:19.655	$GPGGA,131020,2610.4413,N,08001.6402,W,1,7,2.1,15,M,,M,,*5F
06/10/2014	13:10:20.638	$GPGGA,131021,2610.4408,N,08001.6395,W,1,8,1.9,15,M,,M,,*59
06/10/2014	13:10:21.630	$GPGGA,131022,2610.4404,N,08001.6388,W,1,8,1.9,15,M,,M,,*5A
06/10/2014	13:10:22.673	$GPGGA,131023,2610.4401,N,08001.6381,W,1,8,1.9,16,M,,M,,*54
06/10/2014	13:10:23.645	$GPGGA,131024,2610.4398,N,08001.6373,W,1,8,1.9,16,M,,M,,*59
06/10/2014	13:10:24.648	$GPGGA,131025,2610.4395,N,08001.6365,W,1,8,1.9,16,M,,M,,*52
06/10/2014	13:10:25.641	$GPGGA,131026,2610.4388,N,08001.6361,W,1,8,2.2,16,M,,M,,*51
06/10/2014	13:10:26.673	$GPGGA,131027,2610.4384,N,08001.6353,W,1,8,1.9,16,M,,M,,*55
06/10/2014	13:10:27.786	$GPGGA,131028,2610.4381,N,08001.6344,W,1,8,1.9,16,M,,M,,*59
06/10/2014	13:10:28.648	$GPGGA,131029,2610.4379,N,08001.6334,W,1,8,1.9,17,M,,M,,*59
06/10/2014	13:10:29.641	$GPGGA,131030,2610.4377,N,08001.6325,W,1,8,2.1,17,M,,M,,*54
06/10/2014	13:10:30.664	$GPGGA,131031,2610.4375,N,08001.6314,W,1,8,1.9,17,M,,M,,*5E
06/10/2014	13:10:31.656	$GPGGA,131032,2610.4375,N,08001.6303,W,1,8,1.9,17,M,,M,,*5B
06/10/2014	13:10:32.629	$GPGGA,131033,2610.4373,N,08001.6292,W,1,8,1.9,17,M,,M,,*55
06/10/2014	13:10:33.660	$GPGGA,131034,2610.4371,N,08001.6281,W,1,8,1.9,17,M,,M,,*52
06/10/2014	13:10:34.663	$GPGGA,131035,2610.4369,N,08001.6271,W,1,7,1.9,17,M,,M,,*5A
06/10/2014	13:10:35.656	$GPGGA,131036,2610.4368,N,08001.6262,W,1,7,1.9,18,M,,M,,*55
06/10/2014	13:10:36.658	$GPGGA,131037,2610.4368,N,08001.6252,W,1,8,1.9,18,M,,M,,*58
06/10/2014	13:10:37.744	$GPGGA,131038,2610.4365,N,08001.6241,W,1,8,1.9,18,M,,M,,*58
06/10/2014	13:10:38.834	$GPGGA,131039,2610.4364,N,08001.6229,W,1,7,2.2,18,M,,M,,*51
06/10/2014	13:10:39.666	$GPGGA,131040,2610.4362,N,08001.6218,W,1,7,2.2,18,M,,M,,*5B
06/10/2014	13:10:40.650	$GPGGA,131041,2610.4363,N,08001.6205,W,1,8,1.9,18,M,,M,,*50
06/10/2014	13:10:41.586	$GPGGA,131042,2610.4361,N,08001.6192,W,1,8,1.9,18,M,,M,,*5C
06/10/2014	13:10:42.499	$GPGGA,131043,2610.4364,N,08001.6178,W,1,7,2.2,18,M,,M,,*5B
06/10/2014	13:10:43.652	$GPGGA,131044,2610.4366,N,08001.6166,W,1,7,2.4,19,M,,M,,*56
06/10/2014	13:10:44.710	$GPGGA,131045,2610.4367,N,08001.6152,W,1,7,1.9,19,M,,M,,*5F
06/10/2014	13:10:45.617	$GPGGA,131046,2610.4368,N,08001.6140,W,1,7,1.9,19,M,,M,,*50
06/10/2014	13:10:46.690	$GPGGA,131047,2610.4371,N,08001.6127,W,1,8,2.2,19,M,,M,,*5F
06/10/2014	13:10:47.652	$GPGGA,131048,2610.4374,N,08001.6114,W,1,8,2.2,19,M,,M,,*55
06/10/2014	13:10:48.705	$GPGGA,131049,2610.4377,N,08001.6101,W,1,7,2.2,20,M,,M,,*56
06/10/2014	13:10:49.598	$GPGGA,131050,2610.4379,N,08001.6088,W,1,7,2.2,20,M,,M,,*50
06/10/2014	13:10:50.712	$GPGGA,131051,2610.4382,N,08001.6076,W,1,8,1.9,20,M,,M,,*53
06/10/2014	13:10:51.631	$GPGGA,131052,2610.4386,N,08001.6064,W,1,8,1.9,20,M,,M,,*57
06/10/2014	13:10:52.714	$GPGGA,131053,2610.4390,N,08001.6051,W,1,8,1.9,20,M,,M,,*57
06/10/2014	13:10:53.617	$GPGGA,131054,2610.4396,N,08001.6037,W,1,8,1.9,20,M,,M,,*56
06/10/2014	13:10:54.699	$GPGGA,131055,2610.4402,N,08001.6023,W,1,8,1.9,21,M,,M,,*59
06/10/2014	13:10:55.642	$GPGGA,131056,2610.4408,N,08001.6010,W,1,8,1.9,21,M,,M,,*50
06/10/2014	13:10:56.665	$GPGGA,131057,2610.4415,N,08001.5997,W,1,7,2.4,21,M,,M,,*59
06/10/2014	13:10:57.628	$GPGGA,131058,2610.4422,N,08001.5985,W,1,7,1.9,21,M,,M,,*5F
06/10/2014	13:10:58.710	$GPGGA,131059,2610.4429,N,08001.5972,W,1,8,1.9,21,M,,M,,*52
06/10/2014	13:10:59.652	$GPGGA,131100,2610.4436,N,08001.5959,W,1,8,1.9,21,M,,M,,*58
06/10/2014	13:11:00.705	$GPGGA,131101,2610.4444,N,08001.5946,W,1,8,1.9,21,M,,M,,*52
06/10/2014	13:11:01.587	$GPGGA,131102,2610.4451,N,08001.5931,W,1,8,1.9,21,M,,M,,*55
06/10/2014	13:11:02.590	$GPGGA,131103,2610.4461,N,08001.5916,W,1,8,1.9,21,M,,M,,*52
06/10/2014	13:11:03.653	$GPGGA,131104,2610.4469,N,08001.5903,W,1,8,1.9,22,M,,M,,*5A
06/10/2014	13:11:04.595	$GPGGA,131105,2610.4480,N,08001.5888,W,1,8,1.9,22,M,,M,,*5E
06/10/2014	13:11:05.598	$GPGGA,131106,2610.4490,N,08001.5874,W,1,8,1.9,22,M,,M,,*5F
06/10/2014	13:11:06.600	$GPGGA,131107,2610.4501,N,08001.5861,W,1,8,1.9,22,M,,M,,*53
06/10/2014	13:11:07.658	$GPGGA,131108,2610.4512,N,08001.5847,W,1,8,1.9,22,M,,M,,*5A
06/10/2014	13:11:08.594	$GPGGA,131109,2610.4523,N,08001.5834,W,1,8,1.9,22,M,,M,,*5D
06/10/2014	13:11:09.637	$GPGGA,131110,2610.4534,N,08001.5820,W,1,8,1.9,22,M,,M,,*56
06/10/2014	13:11:10.680	$GPGGA,131111,2610.4547,N,08001.5806,W,1,8,1.9,22,M,,M,,*57
06/10/2014	13:11:11.652	$GPGGA,131112,2610.4559,N,08001.5793,W,1,8,1.9,22,M,,M,,*58
06/10/2014	13:11:12.705	$GPGGA,131113,2610.4573,N,08001.5780,W,1,8,1.9,22,M,,M,,*53
06/10/2014	13:11:13.607	$GPGGA,131114,2610.4585,N,08001.5766,W,1,8,1.9,22,M,,M,,*55
06/10/2014	13:11:14.730	$GPGGA,131115,2610.4599,N,08001.5753,W,1,8,1.9,22,M,,M,,*5F
06/10/2014	13:11:15.733	$GPGGA,131116,2610.4614,N,08001.5740,W,1,8,1.9,22,M,,M,,*58
06/10/2014	13:11:16.736	$GPGGA,131117,2610.4628,N,08001.5727,W,1,8,1.9,22,M,,M,,*57
06/10/2014	13:11:17.648	$GPGGA,131118,2610.4643,N,08001.5715,W,1,8,1.9,22,M,,M,,*54
06/10/2014	13:11:18.610	$GPGGA,131119,2610.4660,N,08001.5702,W,1,8,1.9,22,M,,M,,*52
06/10/2014	13:11:19.753	$GPGGA,131120,2610.4675,N,08001.5690,W,1,8,2.1,22,M,,M,,*5D
06/10/2014	13:11:20.706	$GPGGA,131121,2610.4692,N,08001.5677,W,1,7,1.9,22,M,,M,,*58
06/10/2014	13:11:21.608	$GPGGA,131122,2610.4707,N,08001.5666,W,1,7,1.9,22,M,,M,,*56
06/10/2014	13:11:22.691	$GPGGA,131123,2610.4725,N,08001.5655,W,1,8,1.9,21,M,,M,,*5B
06/10/2014	13:11:23.744	$GPGGA,131124,2610.4742,N,08001.5643,W,1,8,1.9,21,M,,M,,*5A
06/10/2014	13:11:24.706	$GPGGA,131125,2610.4758,N,08001.5632,W,1,8,1.9,21,M,,M,,*56
06/10/2014	13:11:25.728	$GPGGA,131126,2610.4776,N,08001.5622,W,1,8,1.9,21,M,,M,,*58
06/10/2014	13:11:26.710	$GPGGA,131127,2610.4794,N,08001.5611,W,1,8,1.9,21,M,,M,,*55
06/10/2014	13:11:27.713	$GPGGA,131128,2610.4814,N,08001.5601,W,1,8,1.9,21,M,,M,,*5C
06/10/2014	13:11:28.726	$GPGGA,131129,2610.4833,N,08001.5592,W,1,8,1.9,21,M,,M,,*51
06/10/2014	13:11:29.718	$GPGGA,131130,2610.4852,N,08001.5583,W,1,8,1.9,21,M,,M,,*5E
06/10/2014	13:11:30.721	$GPGGA,131131,2610.4872,N,08001.5574,W,1,8,1.9,21,M,,M,,*55
06/10/2014	13:11:31.743	$GPGGA,131132,2610.4892,N,08001.5565,W,1,8,1.9,21,M,,M,,*58
06/10/2014	13:11:32.766	$GPGGA,131133,2610.4912,N,08001.5557,W,1,8,1.9,21,M,,M,,*51
06/10/2014	13:11:33.709	$GPGGA,131134,2610.4932,N,08001.5549,W,1,8,1.9,21,M,,M,,*5B
06/10/2014	13:11:34.741	$GPGGA,131135,2610.4953,N,08001.5542,W,1,8,1.9,21,M,,M,,*56
06/10/2014	13:11:35.724	$GPGGA,131136,2610.4975,N,08001.5535,W,1,8,1.9,21,M,,M,,*51
06/10/2014	13:11:36.717	$GPGGA,131137,2610.4996,N,08001.5528,W,1,8,1.9,21,M,,M,,*51
06/10/2014	13:11:37.719	$GPGGA,131138,2610.5017,N,08001.5522,W,1,8,1.9,20,M,,M,,*54
06/10/2014	13:11:38.733	$GPGGA,131139,2610.5039,N,08001.5516,W,1,8,1.9,20,M,,M,,*5E
06/10/2014	13:11:39.744	$GPGGA,131140,2610.5060,N,08001.5510,W,1,8,1.9,20,M,,M,,*5A
06/10/2014	13:11:40.728	$GPGGA,131141,2610.5082,N,08001.5505,W,1,7,1.9,20,M,,M,,*5C
06/10/2014	13:11:41.565	$GPGGA,131142,2610.5104,N,08001.5499,W,1,7,2.7,20,M,,M,,*59
06/10/2014	13:11:42.578	$GPGGA,131143,2610.5126,N,08001.5493,W,1,6,2.7,20,M,,M,,*53
06/10/2014	13:11:43.590	$GPGGA,131144,2610.5147,N,08001.5490,W,1,6,1.9,20,M,,M,,*5D
06/10/2014	13:11:44.582	$GPGGA,131145,2610.5169,N,08001.5485,W,1,8,1.9,20,M,,M,,*5A
06/10/2014	13:11:45.565	$GPGGA,131146,2610.5192,N,08001.5480,W,1,8,1.9,20,M,,M,,*58
06/10/2014	13:11:46.599	$GPGGA,131147,2610.5217,N,08001.5475,W,1,8,1.9,20,M,,M,,*5D
06/10/2014	13:11:47.602	$GPGGA,131148,2610.5241,N,08001.5471,W,1,8,1.9,20,M,,M,,*55
