Software Version Number: 1	Data File Format Number: 1	Build Version Number: 1	Error Count Since VI Started: 0	Manufacturer: Raytheon	 Model Number: RayMarine 120	 S/N: 	 Cal Date: 	 Wind Direction Offset: 0.00	 Slope (M)1: 0.00	 Offset (B)1: 0.00	 Slope (M)2: 0.00	 Offset (B)2: 0.00	 Slope (M)3: 0.00	 Offset (B)3: 0.00	 Slope (M)4: 0.00	 Offset (B)4: 0.00	 Slope (M)5: 0.00	 Offset (B)5: 0.00	 Slope (M)6: 0.00	 Offset (B)6: 0.00
Computer Date	Computer Time	GGA String
06/08/2014	08:00:00.132	$GPGGA,080000,2439.5285,N,08033.9787,W,1,9,1.6,18,M,,M,,*50
06/08/2014	08:00:01.118	$GPGGA,080001,2439.5291,N,08033.9783,W,1,9,1.6,18,M,,M,,*50
06/08/2014	08:00:02.044	$GPGGA,080002,2439.5295,N,08033.9780,W,1,9,1.6,18,M,,M,,*54
06/08/2014	08:00:03.115	$GPGGA,080003,2439.5299,N,08033.9776,W,1,9,1.6,18,M,,M,,*50
06/08/2014	08:00:04.150	$GPGGA,080004,2439.5303,N,08033.9773,W,1,9,1.6,18,M,,M,,*50
06/08/2014	08:00:05.127	$GPGGA,080005,2439.5307,N,08033.9769,W,1,9,1.6,18,M,,M,,*5E
06/08/2014	08:00:06.135	$GPGGA,080006,2439.5311,N,08033.9766,W,1,9,1.6,18,M,,M,,*55
06/08/2014	08:00:07.116	$GPGGA,080007,2439.5314,N,08033.9763,W,1,9,1.6,18,M,,M,,*54
06/08/2014	08:00:08.164	$GPGGA,080008,2439.5318,N,08033.9759,W,1,9,1.6,18,M,,M,,*5E
06/08/2014	08:00:09.213	$GPGGA,080009,2439.5322,N,08033.9755,W,1,9,1.6,18,M,,M,,*5A
06/08/2014	08:00:10.153	$GPGGA,080010,2439.5327,N,08033.9752,W,1,9,1.6,18,M,,M,,*50
06/08/2014	08:00:11.159	$GPGGA,080011,2439.5331,N,08033.9749,W,1,9,1.6,18,M,,M,,*5C
06/08/2014	08:00:12.181	$GPGGA,080012,2439.5335,N,08033.9745,W,1,9,1.6,18,M,,M,,*57
06/08/2014	08:00:13.143	$GPGGA,080013,2439.5338,N,08033.9741,W,1,9,1.6,18,M,,M,,*5F
06/08/2014	08:00:14.127	$GPGGA,080014,2439.5343,N,08033.9738,W,1,9,1.6,18,M,,M,,*5A
06/08/2014	08:00:15.250	$GPGGA,080015,2439.5347,N,08033.9734,W,1,9,1.6,18,M,,M,,*53
06/08/2014	08:00:16.137	$GPGGA,080016,2439.5350,N,08033.9730,W,1,9,1.6,18,M,,M,,*52
06/08/2014	08:00:17.165	$GPGGA,080017,2439.5354,N,08033.9726,W,1,9,1.6,18,M,,M,,*50
06/08/2014	08:00:18.203	$GPGGA,080018,2439.5358,N,08033.9723,W,1,9,1.6,18,M,,M,,*56
06/08/2014	08:00:19.143	$GPGGA,080019,2439.5363,N,08033.9719,W,1,9,1.6,18,M,,M,,*56
06/08/2014	08:00:20.290	$GPGGA,080020,2439.5367,N,08033.9715,W,1,9,1.6,18,M,,M,,*54
06/08/2014	08:00:21.287	$GPGGA,080021,2439.5369,N,08033.9711,W,1,9,1.6,18,M,,M,,*5F
06/08/2014	08:00:22.235	$GPGGA,080022,2439.5374,N,08033.9708,W,1,9,1.6,18,M,,M,,*58
06/08/2014	08:00:23.243	$GPGGA,080023,2439.5378,N,08033.9704,W,1,9,1.6,18,M,,M,,*59
06/08/2014	08:00:24.311	$GPGGA,080024,2439.5380,N,08033.9700,W,1,9,1.6,18,M,,M,,*5D
06/08/2014	08:00:25.289	$GPGGA,080025,2439.5385,N,08033.9697,W,1,9,1.6,18,M,,M,,*56
06/08/2014	08:00:26.257	$GPGGA,080026,2439.5389,N,08033.9694,W,1,9,1.6,18,M,,M,,*5A
06/08/2014	08:00:27.305	$GPGGA,080027,2439.5393,N,08033.9690,W,1,9,1.6,17,M,,M,,*5B
06/08/2014	08:00:28.323	$GPGGA,080028,2439.5397,N,08033.9686,W,1,9,1.6,17,M,,M,,*57
06/08/2014	08:00:29.331	$GPGGA,080029,2439.5401,N,08033.9683,W,1,9,1.6,17,M,,M,,*5B
06/08/2014	08:00:30.324	$GPGGA,080030,2439.5404,N,08033.9680,W,1,9,1.6,17,M,,M,,*55
06/08/2014	08:00:31.356	$GPGGA,080031,2439.5408,N,08033.9676,W,1,9,1.6,17,M,,M,,*51
06/08/2014	08:00:32.344	$GPGGA,080032,2439.5411,N,08033.9673,W,1,9,1.6,17,M,,M,,*5F
06/08/2014	08:00:33.347	$GPGGA,080033,2439.5415,N,08033.9670,W,1,9,1.6,17,M,,M,,*59
06/08/2014	08:00:34.352	$GPGGA,080034,2439.5419,N,08033.9666,W,1,9,1.6,17,M,,M,,*55
06/08/2014	08:00:35.354	$GPGGA,080035,2439.5423,N,08033.9663,W,1,9,1.6,17,M,,M,,*58
06/08/2014	08:00:36.370	$GPGGA,080036,2439.5426,N,08033.9659,W,1,9,1.6,17,M,,M,,*57
06/08/2014	08:00:37.378	$GPGGA,080037,2439.5430,N,08033.9656,W,1,9,1.6,17,M,,M,,*5E
06/08/2014	08:00:38.402	$GPGGA,080038,2439.5434,N,08033.9652,W,1,9,1.6,17,M,,M,,*51
06/08/2014	08:00:38.855	$GPGGA,080039,2439.5437,N,08033.9648,W,1,9,1.6,17,M,,M,,*58
06/08/2014	08:00:39.863	$GPGGA,080040,2439.5441,N,08033.9645,W,1,9,1.6,17,M,,M,,*5A
06/08/2014	08:00:40.901	$GPGGA,080041,2439.5445,N,08033.9642,W,1,9,1.6,17,M,,M,,*58
06/08/2014	08:00:41.899	$GPGGA,080042,2439.5450,N,08033.9638,W,1,9,1.6,17,M,,M,,*52
06/08/2014	08:00:42.917	$GPGGA,080043,2439.5454,N,08033.9634,W,1,9,1.6,17,M,,M,,*5B
06/08/2014	08:00:43.886	$GPGGA,080044,2439.5458,N,08033.9631,W,1,9,1.6,17,M,,M,,*55
06/08/2014	08:00:45.901	$GPGGA,080046,2439.5466,N,08033.9624,W,1,9,1.6,17,M,,M,,*5E
06/08/2014	08:00:46.898	$GPGGA,080047,2439.5470,N,08033.9620,W,1,9,1.6,17,M,,M,,*5C
06/08/2014	08:00:47.946	$GPGGA,080048,2439.5473,N,08033.9617,W,1,9,1.6,17,M,,M,,*54
06/08/2014	08:00:48.903	$GPGGA,080049,2439.5479,N,08033.9613,W,1,9,1.6,17,M,,M,,*5B
06/08/2014	08:00:49.921	$GPGGA,080050,2439.5483,N,08033.9609,W,1,9,1.6,17,M,,M,,*5D
06/08/2014	08:00:50.950	$GPGGA,080051,2439.5486,N,08033.9606,W,1,9,1.6,17,M,,M,,*56
06/08/2014	08:00:51.937	$GPGGA,080052,2439.5486,N,08033.9606,W,1,9,1.6,17,M,,M,,*55
06/08/2014	08:00:52.956	$GPGGA,080053,2439.5494,N,08033.9599,W,1,9,1.6,17,M,,M,,*52
06/08/2014	08:00:53.923	$GPGGA,080054,2439.5494,N,08033.9599,W,1,9,1.6,17,M,,M,,*55
06/08/2014	08:00:54.961	$GPGGA,080055,2439.5502,N,08033.9592,W,1,9,1.6,16,M,,M,,*50
06/08/2014	08:00:55.980	$GPGGA,080056,2439.5506,N,08033.9588,W,1,9,1.6,16,M,,M,,*5C
06/08/2014	08:00:56.957	$GPGGA,080057,2439.5509,N,08033.9585,W,1,9,1.6,16,M,,M,,*5F
06/08/2014	08:00:57.945	$GPGGA,080058,2439.5509,N,08033.9585,W,1,9,1.6,16,M,,M,,*50
06/08/2014	08:00:58.963	$GPGGA,080059,2439.5517,N,08033.9578,W,1,9,1.6,16,M,,M,,*5C
06/08/2014	08:01:00.001	$GPGGA,080100,2439.5517,N,08033.9578,W,1,9,1.6,16,M,,M,,*51
06/08/2014	08:01:00.999	$GPGGA,080101,2439.5524,N,08033.9572,W,1,9,1.6,16,M,,M,,*5A
06/08/2014	08:01:01.977	$GPGGA,080102,2439.5524,N,08033.9572,W,1,9,1.6,16,M,,M,,*59
06/08/2014	08:01:02.995	$GPGGA,080103,2439.5531,N,08033.9565,W,1,9,1.6,16,M,,M,,*5A
06/08/2014	08:01:04.044	$GPGGA,080104,2439.5535,N,08033.9561,W,1,9,1.6,16,M,,M,,*5D
06/08/2014	08:01:05.000	$GPGGA,080105,2439.5540,N,08033.9558,W,1,9,1.6,16,M,,M,,*54
06/08/2014	08:01:06.018	$GPGGA,080106,2439.5540,N,08033.9558,W,1,9,1.6,16,M,,M,,*57
06/08/2014	08:01:07.147	$GPGGA,080107,2439.5546,N,08033.9551,W,1,9,1.6,16,M,,M,,*59
06/08/2014	08:01:08.044	$GPGGA,080108,2439.5549,N,08033.9548,W,1,9,1.6,16,M,,M,,*51
06/08/2014	08:01:09.114	$GPGGA,080109,2439.5555,N,08033.9544,W,1,9,1.6,16,M,,M,,*51
06/08/2014	08:01:10.020	$GPGGA,080110,2439.5557,N,08033.9541,W,1,9,1.6,16,M,,M,,*5E
06/08/2014	08:01:11.038	$GPGGA,080111,2439.5562,N,08033.9537,W,1,9,1.6,16,M,,M,,*58
06/08/2014	08:01:12.147	$GPGGA,080112,2439.5566,N,08033.9534,W,1,9,1.6,16,M,,M,,*5C
06/08/2014	08:01:13.175	$GPGGA,080113,2439.5570,N,08033.9530,W,1,9,1.6,16,M,,M,,*5E
06/08/2014	08:01:14.173	$GPGGA,080114,2439.5573,N,08033.9527,W,1,9,1.6,16,M,,M,,*5C
06/08/2014	08:01:15.181	$GPGGA,080115,2439.5578,N,08033.9523,W,1,9,1.6,17,M,,M,,*53
06/08/2014	08:01:16.169	$GPGGA,080116,2439.5582,N,08033.9520,W,1,9,1.6,17,M,,M,,*56
06/08/2014	08:01:17.169	$GPGGA,080117,2439.5585,N,08033.9517,W,1,9,1.6,17,M,,M,,*54
06/08/2014	08:01:18.178	$GPGGA,080118,2439.5589,N,08033.9513,W,1,9,1.6,17,M,,M,,*53
06/08/2014	08:01:19.203	$GPGGA,080119,2439.5593,N,08033.9510,W,1,9,1.6,17,M,,M,,*5A
06/08/2014	08:01:20.193	$GPGGA,080120,2439.5598,N,08033.9506,W,1,9,1.6,17,M,,M,,*5C
06/08/2014	08:01:21.219	$GPGGA,080121,2439.5602,N,08033.9503,W,1,9,1.6,17,M,,M,,*58
06/08/2014	08:01:22.199	$GPGGA,080122,2439.5606,N,08033.9499,W,1,9,1.6,17,M,,M,,*5D
06/08/2014	08:01:23.230	$GPGGA,080123,2439.5610,N,08033.9496,W,1,9,1.6,17,M,,M,,*54
06/08/2014	08:01:24.242	$GPGGA,080124,2439.5614,N,08033.9492,W,1,9,1.6,17,M,,M,,*53
06/08/2014	08:01:25.235	$GPGGA,080125,2439.5618,N,08033.9489,W,1,9,1.6,17,M,,M,,*54
06/08/2014	08:01:26.208	$GPGGA,080126,2439.5621,N,08033.9486,W,1,9,1.6,17,M,,M,,*52
06/08/2014	08:01:27.226	$GPGGA,080127,2439.5625,N,08033.9483,W,1,9,1.6,17,M,,M,,*52
06/08/2014	08:01:28.246	$GPGGA,080128,2439.5629,N,08033.9480,W,1,9,1.6,17,M,,M,,*52
06/08/2014	08:01:29.272	$GPGGA,080129,2439.5632,N,08033.9476,W,1,9,1.6,17,M,,M,,*50
06/08/2014	08:01:30.250	$GPGGA,080130,2439.5636,N,08033.9473,W,1,9,1.6,17,M,,M,,*59
06/08/2014	08:01:31.268	$GPGGA,080131,2439.5640,N,08033.9469,W,1,9,1.6,17,M,,M,,*52
06/08/2014	08:01:32.276	$GPGGA,080132,2439.5645,N,08033.9466,W,1,9,1.6,17,M,,M,,*5B
06/08/2014	08:01:33.263	$GPGGA,080133,2439.5649,N,08033.9463,W,1,9,1.6,17,M,,M,,*53
06/08/2014	08:01:34.271	$GPGGA,080134,2439.5653,N,08033.9460,W,1,9,1.6,17,M,,M,,*5C
06/08/2014	08:01:35.269	$GPGGA,080135,2439.5657,N,08033.9457,W,1,9,1.6,17,M,,M,,*5D
06/08/2014	08:01:36.298	$GPGGA,080136,2439.5661,N,08033.9453,W,1,9,1.6,17,M,,M,,*5F
06/08/2014	08:01:37.316	$GPGGA,080137,2439.5665,N,08033.9450,W,1,9,1.6,17,M,,M,,*59
06/08/2014	08:01:38.293	$GPGGA,080138,2439.5668,N,08033.9448,W,1,9,1.6,17,M,,M,,*52
06/08/2014	08:01:38.813	$GPGGA,080139,2439.5672,N,08033.9445,W,1,9,1.6,17,M,,M,,*55
06/08/2014	08:01:39.840	$GPGGA,080140,2439.5676,N,08033.9441,W,1,9,1.6,17,M,,M,,*5B
06/08/2014	08:01:40.818	$GPGGA,080141,2439.5679,N,08033.9438,W,1,9,1.6,17,M,,M,,*5B
06/08/2014	08:01:41.826	$GPGGA,080142,2439.5683,N,08033.9436,W,1,9,1.6,17,M,,M,,*53
06/08/2014	08:01:42.854	$GPGGA,080143,2439.5686,N,08033.9432,W,1,9,1.6,17,M,,M,,*53
06/08/2014	08:01:43.862	$GPGGA,080144,2439.5690,N,08033.9428,W,1,9,1.6,17,M,,M,,*58
06/08/2014	08:01:44.880	$GPGGA,080145,2439.5694,N,08033.9425,W,1,9,1.6,17,M,,M,,*50
06/08/2014	08:01:45.868	$GPGGA,080146,2439.5696,N,08033.9422,W,1,9,1.6,17,M,,M,,*56
06/08/2014	08:01:46.856	$GPGGA,080147,2439.5699,N,08033.9419,W,1,9,1.6,17,M,,M,,*50
06/08/2014	08:01:47.894	$GPGGA,080148,2439.5704,N,08033.9416,W,1,9,1.6,17,M,,M,,*55
06/08/2014	08:01:48.902	$GPGGA,080149,2439.5707,N,08033.9412,W,1,9,1.6,17,M,,M,,*53
06/08/2014	08:01:49.880	$GPGGA,080150,2439.5710,N,08033.9410,W,1,9,1.6,17,M,,M,,*5F
06/08/2014	08:01:51.009	$GPGGA,080151,2439.5712,N,08033.9407,W,1,9,1.6,17,M,,M,,*5A
06/08/2014	08:01:51.906	$GPGGA,080152,2439.5717,N,08033.9403,W,1,9,1.6,17,M,,M,,*58
06/08/2014	08:01:53.025	$GPGGA,080153,2439.5719,N,08033.9399,W,1,9,1.6,17,M,,M,,*53
06/08/2014	08:01:53.902	$GPGGA,080154,2439.5723,N,08033.9397,W,1,9,1.7,17,M,,M,,*52
06/08/2014	08:01:54.900	$GPGGA,080155,2439.5726,N,08033.9394,W,1,9,1.6,17,M,,M,,*54
06/08/2014	08:01:55.928	$GPGGA,080156,2439.5730,N,08033.9390,W,1,9,1.6,17,M,,M,,*54
06/08/2014	08:01:56.936	$GPGGA,080157,2439.5733,N,08033.9387,W,1,9,1.6,17,M,,M,,*50
06/08/2014	08:01:57.933	$GPGGA,080158,2439.5737,N,08033.9384,W,1,9,1.6,17,M,,M,,*58
06/08/2014	08:01:58.941	$GPGGA,080159,2439.5741,N,08033.9380,W,1,8,1.7,17,M,,M,,*5C
06/08/2014	08:01:59.959	$GPGGA,080200,2439.5746,N,08033.9377,W,1,8,1.6,17,M,,M,,*5D
06/08/2014	08:02:01.088	$GPGGA,080201,2439.5748,N,08033.9374,W,1,9,1.6,17,M,,M,,*50
06/08/2014	08:02:01.965	$GPGGA,080202,2439.5752,N,08033.9370,W,1,9,1.6,17,M,,M,,*5C
06/08/2014	08:02:03.068	$GPGGA,080203,2439.5757,N,08033.9367,W,1,8,1.7,17,M,,M,,*5E
06/08/2014	08:02:04.103	$GPGGA,080204,2439.5759,N,08033.9364,W,1,8,1.6,18,M,,M,,*5A
06/08/2014	08:02:05.065	$GPGGA,080205,2439.5762,N,08033.9362,W,1,8,1.7,18,M,,M,,*54
06/08/2014	08:02:06.085	$GPGGA,080206,2439.5766,N,08033.9359,W,1,8,1.7,18,M,,M,,*5B
06/08/2014	08:02:07.102	$GPGGA,080207,2439.5770,N,08033.9355,W,1,8,1.7,18,M,,M,,*51
06/08/2014	08:02:08.090	$GPGGA,080208,2439.5773,N,08033.9353,W,1,8,1.6,18,M,,M,,*5A
06/08/2014	08:02:09.138	$GPGGA,080209,2439.5776,N,08033.9350,W,1,9,1.6,18,M,,M,,*5C
06/08/2014	08:02:10.104	$GPGGA,080210,2439.5780,N,08033.9346,W,1,9,1.6,18,M,,M,,*5A
06/08/2014	08:02:11.098	$GPGGA,080211,2439.5784,N,08033.9343,W,1,9,1.6,18,M,,M,,*5A
06/08/2014	08:02:12.122	$GPGGA,080212,2439.5787,N,08033.9340,W,1,9,1.6,18,M,,M,,*59
06/08/2014	08:02:13.103	$GPGGA,080213,2439.5791,N,08033.9337,W,1,9,1.6,19,M,,M,,*5E
06/08/2014	08:02:14.111	$GPGGA,080214,2439.5794,N,08033.9333,W,1,9,1.6,19,M,,M,,*58
06/08/2014	08:02:15.140	$GPGGA,080215,2439.5797,N,08033.9330,W,1,9,1.6,19,M,,M,,*59
06/08/2014	08:02:16.152	$GPGGA,080216,2439.5801,N,08033.9326,W,1,9,1.6,19,M,,M,,*5D
06/08/2014	08:02:17.170	$GPGGA,080217,2439.5805,N,08033.9323,W,1,9,1.6,19,M,,M,,*5D
06/08/2014	08:02:18.142	$GPGGA,080218,2439.5808,N,08033.9320,W,1,9,1.6,19,M,,M,,*5C
06/08/2014	08:02:19.176	$GPGGA,080219,2439.5811,N,08033.9317,W,1,9,1.6,19,M,,M,,*51
06/08/2014	08:02:20.169	$GPGGA,080220,2439.5816,N,08033.9312,W,1,9,1.6,20,M,,M,,*53
06/08/2014	08:02:21.190	$GPGGA,080221,2439.5820,N,08033.9308,W,1,9,1.6,20,M,,M,,*5C
06/08/2014	08:02:22.164	$GPGGA,080222,2439.5823,N,08033.9305,W,1,9,1.6,20,M,,M,,*51
06/08/2014	08:02:23.193	$GPGGA,080223,2439.5826,N,08033.9302,W,1,9,1.6,20,M,,M,,*52
06/08/2014	08:02:24.190	$GPGGA,080224,2439.5830,N,08033.9298,W,1,9,1.6,20,M,,M,,*50
06/08/2014	08:02:25.221	$GPGGA,080225,2439.5834,N,08033.9295,W,1,9,1.6,20,M,,M,,*58
06/08/2014	08:02:26.196	$GPGGA,080226,2439.5838,N,08033.9291,W,1,9,1.6,20,M,,M,,*53
06/08/2014	08:02:27.228	$GPGGA,080227,2439.5841,N,08033.9288,W,1,9,1.6,20,M,,M,,*54
06/08/2014	08:02:28.222	$GPGGA,080228,2439.5845,N,08033.9284,W,1,9,1.6,20,M,,M,,*53
06/08/2014	08:02:29.220	$GPGGA,080229,2439.5849,N,08033.9280,W,1,9,1.6,21,M,,M,,*5B
06/08/2014	08:02:30.218	$GPGGA,080230,2439.5853,N,08033.9277,W,1,9,1.6,21,M,,M,,*50
06/08/2014	08:02:31.227	$GPGGA,080231,2439.5856,N,08033.9273,W,1,9,1.6,21,M,,M,,*50
06/08/2014	08:02:32.243	$GPGGA,080232,2439.5859,N,08033.9270,W,1,9,1.6,21,M,,M,,*5F
06/08/2014	08:02:33.232	$GPGGA,080233,2439.5863,N,08033.9267,W,1,9,1.6,21,M,,M,,*51
06/08/2014	08:02:34.229	$GPGGA,080234,2439.5866,N,08033.9263,W,1,9,1.6,21,M,,M,,*57
06/08/2014	08:02:35.247	$GPGGA,080235,2439.5870,N,08033.9259,W,1,9,1.6,21,M,,M,,*58
06/08/2014	08:02:36.265	$GPGGA,080236,2439.5873,N,08033.9256,W,1,9,1.6,21,M,,M,,*57
06/08/2014	08:02:37.263	$GPGGA,080237,2439.5876,N,08033.9253,W,1,9,1.6,21,M,,M,,*56
06/08/2014	08:02:38.362	$GPGGA,080238,2439.5880,N,08033.9249,W,1,9,1.7,21,M,,M,,*5A
06/08/2014	08:02:38.812	$GPGGA,080239,2439.5885,N,08033.9245,W,1,9,1.6,21,M,,M,,*53
06/08/2014	08:02:39.820	$GPGGA,080240,2439.5889,N,08033.9241,W,1,9,1.6,21,M,,M,,*55
06/08/2014	08:02:40.818	$GPGGA,080241,2439.5892,N,08033.9238,W,1,9,1.6,21,M,,M,,*50
06/08/2014	08:02:41.806	$GPGGA,080242,2439.5896,N,08033.9233,W,1,9,1.6,21,M,,M,,*5C
06/08/2014	08:02:42.915	$GPGGA,080243,2439.5900,N,08033.9229,W,1,9,1.6,22,M,,M,,*5B
06/08/2014	08:02:43.843	$GPGGA,080244,2439.5905,N,08033.9226,W,1,9,1.6,22,M,,M,,*56
06/08/2014	08:02:44.840	$GPGGA,080245,2439.5907,N,08033.9222,W,1,9,1.6,22,M,,M,,*51
06/08/2014	08:02:45.828	$GPGGA,080246,2439.5913,N,08033.9219,W,1,9,1.6,22,M,,M,,*5F
06/08/2014	08:02:46.937	$GPGGA,080247,2439.5917,N,08033.9216,W,1,9,1.6,22,M,,M,,*55
06/08/2014	08:02:47.864	$GPGGA,080248,2439.5921,N,08033.9212,W,1,9,1.6,22,M,,M,,*5B
06/08/2014	08:02:48.852	$GPGGA,080249,2439.5925,N,08033.9209,W,1,9,1.6,22,M,,M,,*54
06/08/2014	08:02:49.960	$GPGGA,080250,2439.5928,N,08033.9206,W,1,9,1.6,22,M,,M,,*5E
06/08/2014	08:02:50.978	$GPGGA,080251,2439.5931,N,08033.9202,W,1,9,1.6,22,M,,M,,*53
06/08/2014	08:02:51.986	$GPGGA,080252,2439.5935,N,08033.9199,W,1,9,1.6,22,M,,M,,*55
06/08/2014	08:02:52.974	$GPGGA,080253,2439.5938,N,08033.9196,W,1,9,1.6,22,M,,M,,*56
06/08/2014	08:02:53.986	$GPGGA,080254,2439.5942,N,08033.9192,W,1,9,1.6,22,M,,M,,*58
06/08/2014	08:02:54.889	$GPGGA,080255,2439.5946,N,08033.9188,W,1,9,1.6,22,M,,M,,*56
06/08/2014	08:02:56.008	$GPGGA,080256,2439.5949,N,08033.9185,W,1,9,1.6,22,M,,M,,*57
06/08/2014	08:02:57.010	$GPGGA,080257,2439.5953,N,08033.9182,W,1,9,1.6,22,M,,M,,*5A
06/08/2014	08:02:58.014	$GPGGA,080258,2439.5957,N,08033.9178,W,1,9,1.6,22,M,,M,,*54
06/08/2014	08:02:59.052	$GPGGA,080259,2439.5961,N,08033.9174,W,1,9,1.6,22,M,,M,,*5C
06/08/2014	08:03:00.037	$GPGGA,080300,2439.5964,N,08033.9172,W,1,9,1.6,22,M,,M,,*52
06/08/2014	08:03:01.017	$GPGGA,080301,2439.5968,N,08033.9168,W,1,9,1.6,22,M,,M,,*54
06/08/2014	08:03:02.025	$GPGGA,080302,2439.5972,N,08033.9164,W,1,9,1.6,22,M,,M,,*50
06/08/2014	08:03:03.047	$GPGGA,080303,2439.5975,N,08033.9161,W,1,9,1.6,22,M,,M,,*53
06/08/2014	08:03:04.058	$GPGGA,080304,2439.5979,N,08033.9158,W,1,9,1.6,22,M,,M,,*52
06/08/2014	08:03:05.065	$GPGGA,080305,2439.5983,N,08033.9155,W,1,9,1.6,22,M,,M,,*5B
06/08/2014	08:03:06.057	$GPGGA,080306,2439.5986,N,08033.9151,W,1,9,1.6,22,M,,M,,*59
06/08/2014	08:03:07.080	$GPGGA,080307,2439.5990,N,08033.9147,W,1,9,1.6,22,M,,M,,*58
06/08/2014	08:03:08.086	$GPGGA,080308,2439.5993,N,08033.9144,W,1,9,1.6,22,M,,M,,*57
06/08/2014	08:03:09.098	$GPGGA,080309,2439.5997,N,08033.9141,W,1,9,1.6,22,M,,M,,*57
06/08/2014	08:03:10.078	$GPGGA,080310,2439.6001,N,08033.9138,W,1,9,1.6,22,M,,M,,*54
06/08/2014	08:03:11.076	$GPGGA,080311,2439.6004,N,08033.9135,W,1,9,1.6,22,M,,M,,*5D
06/08/2014	08:03:12.110	$GPGGA,080312,2439.6008,N,08033.9131,W,1,9,1.6,22,M,,M,,*56
06/08/2014	08:03:13.124	$GPGGA,080313,2439.6012,N,08033.9128,W,1,9,1.6,22,M,,M,,*54
06/08/2014	08:03:14.100	$GPGGA,080314,2439.6015,N,08033.9125,W,1,9,1.6,22,M,,M,,*59
06/08/2014	08:03:15.141	$GPGGA,080315,2439.6019,N,08033.9121,W,1,9,1.6,22,M,,M,,*50
06/08/2014	08:03:16.126	$GPGGA,080316,2439.6022,N,08033.9118,W,1,9,1.6,22,M,,M,,*51
06/08/2014	08:03:17.155	$GPGGA,080317,2439.6026,N,08033.9115,W,1,9,1.6,22,M,,M,,*59
06/08/2014	08:03:18.122	$GPGGA,080318,2439.6030,N,08033.9112,W,1,9,1.6,22,M,,M,,*56
06/08/2014	08:03:19.150	$GPGGA,080319,2439.6033,N,08033.9109,W,1,9,1.6,22,M,,M,,*5E
06/08/2014	08:03:20.148	$GPGGA,080320,2439.6037,N,08033.9106,W,1,9,1.6,22,M,,M,,*5F
06/08/2014	08:03:21.136	$GPGGA,080321,2439.6040,N,08033.9102,W,1,9,1.6,22,M,,M,,*5A
06/08/2014	08:03:22.154	$GPGGA,080322,2439.6044,N,08033.9099,W,1,9,1.6,22,M,,M,,*5E
06/08/2014	08:03:23.141	$GPGGA,080323,2439.6048,N,08033.9097,W,1,9,1.6,22,M,,M,,*5D
06/08/2014	08:03:24.160	$GPGGA,080324,2439.6051,N,08033.9094,W,1,9,1.6,22,M,,M,,*51
06/08/2014	08:03:25.157	$GPGGA,080325,2439.6055,N,08033.9090,W,1,9,1.6,22,M,,M,,*50
06/08/2014	08:03:26.165	$GPGGA,080326,2439.6059,N,08033.9087,W,1,9,1.6,22,M,,M,,*59
06/08/2014	08:03:27.183	$GPGGA,080327,2439.6062,N,08033.9084,W,1,9,1.6,22,M,,M,,*53
06/08/2014	08:03:28.191	$GPGGA,080328,2439.6065,N,08033.9081,W,1,9,1.6,21,M,,M,,*5D
06/08/2014	08:03:29.179	$GPGGA,080329,2439.6069,N,08033.9078,W,1,9,1.6,21,M,,M,,*56
06/08/2014	08:03:30.197	$GPGGA,080330,2439.6073,N,08033.9074,W,1,9,1.6,21,M,,M,,*59
06/08/2014	08:03:31.195	$GPGGA,080331,2439.6076,N,08033.9071,W,1,9,1.6,21,M,,M,,*58
06/08/2014	08:03:32.223	$GPGGA,080332,2439.6079,N,08033.9068,W,1,9,1.6,21,M,,M,,*5C
06/08/2014	08:03:33.231	$GPGGA,080333,2439.6083,N,08033.9065,W,1,9,1.6,21,M,,M,,*55
06/08/2014	08:03:34.310	$GPGGA,080334,2439.6087,N,08033.9062,W,1,9,1.6,21,M,,M,,*51
06/08/2014	08:03:35.348	$GPGGA,080335,2439.6090,N,08033.9058,W,1,9,1.6,21,M,,M,,*5F
06/08/2014	08:03:36.255	$GPGGA,080336,2439.6093,N,08033.9055,W,1,9,1.6,21,M,,M,,*52
06/08/2014	08:03:37.243	$GPGGA,080337,2439.6097,N,08033.9052,W,1,9,1.6,21,M,,M,,*50
06/08/2014	08:03:38.333	$GPGGA,080338,2439.6101,N,08033.9049,W,1,9,1.6,21,M,,M,,*5B
06/08/2014	08:03:38.868	$GPGGA,080339,2439.6105,N,08033.9046,W,1,9,1.6,21,M,,M,,*51
06/08/2014	08:03:39.881	$GPGGA,080340,2439.6108,N,08033.9043,W,1,9,1.6,21,M,,M,,*57
06/08/2014	08:03:40.871	$GPGGA,080341,2439.6112,N,08033.9039,W,1,9,1.5,21,M,,M,,*53
06/08/2014	08:03:41.888	$GPGGA,080342,2439.6116,N,08033.9036,W,1,9,1.5,21,M,,M,,*5B
06/08/2014	08:03:42.887	$GPGGA,080343,2439.6119,N,08033.9034,W,1,9,1.5,20,M,,M,,*56
06/08/2014	08:03:43.913	$GPGGA,080344,2439.6123,N,08033.9030,W,1,9,1.5,20,M,,M,,*5C
06/08/2014	08:03:44.920	$GPGGA,080345,2439.6127,N,08033.9027,W,1,9,1.5,20,M,,M,,*5F
06/08/2014	08:03:45.911	$GPGGA,080346,2439.6131,N,08033.9024,W,1,9,1.5,20,M,,M,,*58
06/08/2014	08:03:46.905	$GPGGA,080347,2439.6134,N,08033.9021,W,1,9,1.6,20,M,,M,,*5A
06/08/2014	08:03:47.938	$GPGGA,080348,2439.6138,N,08033.9018,W,1,9,1.6,20,M,,M,,*53
06/08/2014	08:03:48.962	$GPGGA,080349,2439.6144,N,08033.9014,W,1,9,1.6,20,M,,M,,*55
06/08/2014	08:03:49.944	$GPGGA,080350,2439.6147,N,08033.9011,W,1,9,1.6,20,M,,M,,*5B
06/08/2014	08:03:50.951	$GPGGA,080351,2439.6151,N,08033.9009,W,1,9,1.6,20,M,,M,,*54
06/08/2014	08:03:51.956	$GPGGA,080352,2439.6155,N,08033.9005,W,1,9,1.6,20,M,,M,,*5F
06/08/2014	08:03:52.979	$GPGGA,080353,2439.6159,N,08033.9002,W,1,9,1.5,20,M,,M,,*56
06/08/2014	08:03:53.951	$GPGGA,080354,2439.6163,N,08033.8999,W,1,9,1.5,20,M,,M,,*52
06/08/2014	08:03:54.969	$GPGGA,080355,2439.6166,N,08033.8996,W,1,9,1.5,20,M,,M,,*59
06/08/2014	08:03:55.977	$GPGGA,080356,2439.6170,N,08033.8993,W,1,9,1.5,19,M,,M,,*52
06/08/2014	08:03:57.003	$GPGGA,080357,2439.6174,N,08033.8989,W,1,9,1.5,19,M,,M,,*5C
06/08/2014	08:03:57.973	$GPGGA,080358,2439.6178,N,08033.8986,W,1,9,1.5,19,M,,M,,*50
06/08/2014	08:03:59.002	$GPGGA,080359,2439.6181,N,08033.8983,W,1,9,1.6,19,M,,M,,*51
06/08/2014	08:04:00.009	$GPGGA,080400,2439.6187,N,08033.8980,W,1,9,1.6,19,M,,M,,*5F
06/08/2014	08:04:00.996	$GPGGA,080401,2439.6189,N,08033.8976,W,1,9,1.6,19,M,,M,,*59
06/08/2014	08:04:02.004	$GPGGA,080402,2439.6194,N,08033.8973,W,1,9,1.6,19,M,,M,,*53
06/08/2014	08:04:03.002	$GPGGA,080403,2439.6198,N,08033.8970,W,1,9,1.6,19,M,,M,,*5D
06/08/2014	08:04:05.048	$GPGGA,080405,2439.6206,N,08033.8963,W,1,9,1.5,19,M,,M,,*5E
06/08/2014	08:04:06.026	$GPGGA,080406,2439.6209,N,08033.8960,W,1,9,1.5,19,M,,M,,*51
06/08/2014	08:04:07.044	$GPGGA,080407,2439.6213,N,08033.8956,W,1,9,1.5,19,M,,M,,*5E
06/08/2014	08:04:08.042	$GPGGA,080408,2439.6217,N,08033.8953,W,1,9,1.5,19,M,,M,,*50
06/08/2014	08:04:09.050	$GPGGA,080409,2439.6220,N,08033.8949,W,1,9,1.5,19,M,,M,,*5E
06/08/2014	08:04:10.058	$GPGGA,080410,2439.6224,N,08033.8946,W,1,9,1.5,19,M,,M,,*5D
06/08/2014	08:04:11.177	$GPGGA,080411,2439.6228,N,08033.8943,W,1,9,1.6,19,M,,M,,*56
06/08/2014	08:04:12.074	$GPGGA,080412,2439.6232,N,08033.8939,W,1,9,1.6,19,M,,M,,*53
06/08/2014	08:04:13.062	$GPGGA,080413,2439.6236,N,08033.8935,W,1,9,1.6,18,M,,M,,*5B
06/08/2014	08:04:14.080	$GPGGA,080414,2439.6239,N,08033.8932,W,1,9,1.6,18,M,,M,,*54
06/08/2014	08:04:15.098	$GPGGA,080415,2439.6243,N,08033.8929,W,1,9,1.6,18,M,,M,,*52
06/08/2014	08:04:16.086	$GPGGA,080416,2439.6246,N,08033.8925,W,1,9,1.6,18,M,,M,,*58
06/08/2014	08:04:17.225	$GPGGA,080417,2439.6250,N,08033.8922,W,1,9,1.5,18,M,,M,,*5A
06/08/2014	08:04:18.091	$GPGGA,080418,2439.6254,N,08033.8919,W,1,9,1.5,18,M,,M,,*59
06/08/2014	08:04:19.099	$GPGGA,080419,2439.6257,N,08033.8915,W,1,9,1.5,18,M,,M,,*57
06/08/2014	08:04:20.228	$GPGGA,080420,2439.6261,N,08033.8912,W,1,9,1.5,18,M,,M,,*5F
06/08/2014	08:04:21.223	$GPGGA,080421,2439.6265,N,08033.8909,W,1,9,1.5,18,M,,M,,*50
06/08/2014	08:04:22.123	$GPGGA,080422,2439.6270,N,08033.8906,W,1,9,1.5,18,M,,M,,*58
06/08/2014	08:04:23.252	$GPGGA,080423,2439.6272,N,08033.8902,W,1,9,1.6,18,M,,M,,*5C
06/08/2014	08:04:24.149	$GPGGA,080424,2439.6277,N,08033.8898,W,1,9,1.6,18,M,,M,,*5C
06/08/2014	08:04:25.137	$GPGGA,080425,2439.6281,N,08033.8895,W,1,9,1.6,18,M,,M,,*59
06/08/2014	08:04:26.246	$GPGGA,080426,2439.6283,N,08033.8892,W,1,9,1.6,18,M,,M,,*5F
06/08/2014	08:04:27.246	$GPGGA,080427,2439.6288,N,08033.8888,W,1,9,1.7,18,M,,M,,*5F
06/08/2014	08:04:28.171	$GPGGA,080428,2439.6293,N,08033.8885,W,1,9,1.7,18,M,,M,,*57
06/08/2014	08:04:29.159	$GPGGA,080429,2439.6297,N,08033.8881,W,1,9,1.5,18,M,,M,,*54
06/08/2014	08:04:30.276	$GPGGA,080430,2439.6301,N,08033.8877,W,1,9,1.5,18,M,,M,,*5B
06/08/2014	08:04:31.276	$GPGGA,080431,2439.6304,N,08033.8874,W,1,9,1.5,18,M,,M,,*5C
06/08/2014	08:04:32.296	$GPGGA,080432,2439.6308,N,08033.8870,W,1,9,1.5,18,M,,M,,*57
06/08/2014	08:04:33.302	$GPGGA,080433,2439.6312,N,08033.8867,W,1,9,1.5,18,M,,M,,*5B
06/08/2014	08:04:34.300	$GPGGA,080434,2439.6317,N,08033.8863,W,1,9,1.6,18,M,,M,,*5E
06/08/2014	08:04:35.317	$GPGGA,080435,2439.6322,N,08033.8859,W,1,9,1.6,18,M,,M,,*50
06/08/2014	08:04:36.318	$GPGGA,080436,2439.6326,N,08033.8856,W,1,9,1.6,18,M,,M,,*58
06/08/2014	08:04:37.329	$GPGGA,080437,2439.6329,N,08033.8852,W,1,9,1.6,18,M,,M,,*52
06/08/2014	08:04:38.324	$GPGGA,080438,2439.6333,N,08033.8849,W,1,9,1.6,18,M,,M,,*5C
06/08/2014	08:04:38.864	$GPGGA,080439,2439.6337,N,08033.8845,W,1,9,1.6,18,M,,M,,*55
06/08/2014	08:04:39.859	$GPGGA,080440,2439.6342,N,08033.8842,W,1,9,1.5,18,M,,M,,*5D
06/08/2014	08:04:40.846	$GPGGA,080441,2439.6346,N,08033.8839,W,1,9,1.5,18,M,,M,,*54
06/08/2014	08:04:41.864	$GPGGA,080442,2439.6350,N,08033.8835,W,1,9,1.5,18,M,,M,,*5C
06/08/2014	08:04:42.883	$GPGGA,080443,2439.6354,N,08033.8832,W,1,9,1.5,18,M,,M,,*5E
06/08/2014	08:04:43.888	$GPGGA,080444,2439.6357,N,08033.8829,W,1,9,1.5,18,M,,M,,*50
06/08/2014	08:04:44.903	$GPGGA,080445,2439.6361,N,08033.8825,W,1,9,1.5,18,M,,M,,*58
06/08/2014	08:04:45.867	$GPGGA,080446,2439.6365,N,08033.8822,W,1,9,1.5,18,M,,M,,*58
06/08/2014	08:04:46.902	$GPGGA,080447,2439.6369,N,08033.8818,W,1,9,1.5,18,M,,M,,*5C
06/08/2014	08:04:47.886	$GPGGA,080448,2439.6373,N,08033.8815,W,1,9,1.5,18,M,,M,,*55
06/08/2014	08:04:48.911	$GPGGA,080449,2439.6376,N,08033.8812,W,1,9,1.5,18,M,,M,,*56
06/08/2014	08:04:49.885	$GPGGA,080450,2439.6382,N,08033.8808,W,1,9,1.5,18,M,,M,,*5E
06/08/2014	08:04:50.901	$GPGGA,080451,2439.6386,N,08033.8805,W,1,9,1.5,18,M,,M,,*56
06/08/2014	08:04:51.914	$GPGGA,080452,2439.6390,N,08033.8802,W,1,9,1.5,18,M,,M,,*55
06/08/2014	08:04:52.887	$GPGGA,080453,2439.6394,N,08033.8799,W,1,9,1.5,18,M,,M,,*5D
06/08/2014	08:04:53.902	$GPGGA,080454,2439.6398,N,08033.8795,W,1,9,1.5,18,M,,M,,*5A
06/08/2014	08:04:54.886	$GPGGA,080455,2439.6402,N,08033.8792,W,1,9,1.5,18,M,,M,,*58
06/08/2014	08:04:55.921	$GPGGA,080456,2439.6405,N,08033.8789,W,1,9,1.5,18,M,,M,,*56
06/08/2014	08:04:56.915	$GPGGA,080457,2439.6409,N,08033.8785,W,1,9,1.5,18,M,,M,,*57
06/08/2014	08:04:57.900	$GPGGA,080458,2439.6413,N,08033.8782,W,1,9,1.5,18,M,,M,,*54
06/08/2014	08:04:58.924	$GPGGA,080459,2439.6418,N,08033.8779,W,1,9,1.5,18,M,,M,,*5A
06/08/2014	08:04:59.929	$GPGGA,080500,2439.6422,N,08033.8775,W,1,9,1.5,18,M,,M,,*52
06/08/2014	08:05:00.933	$GPGGA,080501,2439.6426,N,08033.8772,W,1,9,1.5,18,M,,M,,*50
06/08/2014	08:05:01.918	$GPGGA,080502,2439.6430,N,08033.8768,W,1,9,1.5,18,M,,M,,*5F
06/08/2014	08:05:02.912	$GPGGA,080503,2439.6434,N,08033.8765,W,1,9,1.5,18,M,,M,,*57
06/08/2014	08:05:04.037	$GPGGA,080504,2439.6438,N,08033.8761,W,1,9,1.5,18,M,,M,,*58
06/08/2014	08:05:05.042	$GPGGA,080505,2439.6441,N,08033.8758,W,1,9,1.5,18,M,,M,,*5D
06/08/2014	08:05:05.936	$GPGGA,080506,2439.6445,N,08033.8754,W,1,9,1.5,18,M,,M,,*56
06/08/2014	08:05:06.950	$GPGGA,080507,2439.6449,N,08033.8751,W,1,9,1.5,18,M,,M,,*5E
06/08/2014	08:05:08.045	$GPGGA,080508,2439.6452,N,08033.8747,W,1,9,1.5,18,M,,M,,*5C
06/08/2014	08:05:09.030	$GPGGA,080509,2439.6456,N,08033.8744,W,1,9,1.5,18,M,,M,,*5A
06/08/2014	08:05:09.943	$GPGGA,080510,2439.6456,N,08033.8744,W,1,9,1.5,18,M,,M,,*52
06/08/2014	08:05:10.947	$GPGGA,080511,2439.6463,N,08033.8737,W,1,9,1.5,18,M,,M,,*51
06/08/2014	08:05:12.035	$GPGGA,080512,2439.6467,N,08033.8734,W,1,9,1.5,18,M,,M,,*55
06/08/2014	08:05:13.044	$GPGGA,080513,2439.6471,N,08033.8731,W,1,9,1.5,18,M,,M,,*56
06/08/2014	08:05:14.042	$GPGGA,080514,2439.6474,N,08033.8728,W,1,9,1.5,18,M,,M,,*5C
06/08/2014	08:05:15.046	$GPGGA,080515,2439.6478,N,08033.8724,W,1,9,1.5,18,M,,M,,*5D
06/08/2014	08:05:16.060	$GPGGA,080516,2439.6484,N,08033.8721,W,1,9,1.5,18,M,,M,,*58
06/08/2014	08:05:17.057	$GPGGA,080517,2439.6487,N,08033.8718,W,1,9,1.5,18,M,,M,,*50
06/08/2014	08:05:18.053	$GPGGA,080518,2439.6491,N,08033.8715,W,1,9,1.5,18,M,,M,,*55
06/08/2014	08:05:19.075	$GPGGA,080519,2439.6495,N,08033.8712,W,1,9,1.5,18,M,,M,,*57
06/08/2014	08:05:20.064	$GPGGA,080520,2439.6499,N,08033.8709,W,1,9,1.5,18,M,,M,,*5B
06/08/2014	08:05:21.054	$GPGGA,080521,2439.6503,N,08033.8705,W,1,9,1.5,18,M,,M,,*54
06/08/2014	08:05:22.092	$GPGGA,080522,2439.6506,N,08033.8702,W,1,9,1.5,18,M,,M,,*55
06/08/2014	08:05:23.078	$GPGGA,080523,2439.6510,N,08033.8698,W,1,9,1.5,18,M,,M,,*51
06/08/2014	08:05:24.083	$GPGGA,080524,2439.6514,N,08033.8695,W,1,9,1.5,18,M,,M,,*5F
06/08/2014	08:05:25.089	$GPGGA,080525,2439.6517,N,08033.8692,W,1,9,1.5,18,M,,M,,*5A
06/08/2014	08:05:26.065	$GPGGA,080526,2439.6521,N,08033.8689,W,1,9,1.5,18,M,,M,,*56
06/08/2014	08:05:27.093	$GPGGA,080527,2439.6525,N,08033.8686,W,1,9,1.5,18,M,,M,,*5C
06/08/2014	08:05:28.073	$GPGGA,080528,2439.6530,N,08033.8683,W,1,9,1.5,18,M,,M,,*52
06/08/2014	08:05:29.124	$GPGGA,080529,2439.6534,N,08033.8680,W,1,9,1.5,18,M,,M,,*54
06/08/2014	08:05:30.072	$GPGGA,080530,2439.6538,N,08033.8676,W,1,9,1.5,18,M,,M,,*59
06/08/2014	08:05:31.077	$GPGGA,080531,2439.6542,N,08033.8673,W,1,9,1.5,18,M,,M,,*50
06/08/2014	08:05:32.091	$GPGGA,080532,2439.6546,N,08033.8670,W,1,9,1.5,18,M,,M,,*54
06/08/2014	08:05:33.115	$GPGGA,080533,2439.6550,N,08033.8667,W,1,9,1.5,18,M,,M,,*54
06/08/2014	08:05:34.080	$GPGGA,080534,2439.6553,N,08033.8664,W,1,9,1.5,18,M,,M,,*53
06/08/2014	08:05:35.084	$GPGGA,080535,2439.6557,N,08033.8661,W,1,9,1.5,18,M,,M,,*53
06/08/2014	08:05:36.109	$GPGGA,080536,2439.6561,N,08033.8657,W,1,9,1.5,18,M,,M,,*50
06/08/2014	08:05:37.093	$GPGGA,080537,2439.6566,N,08033.8655,W,1,9,1.5,18,M,,M,,*54
06/08/2014	08:05:38.098	$GPGGA,080538,2439.6570,N,08033.8651,W,1,9,1.5,18,M,,M,,*58
06/08/2014	08:05:38.837	$GPGGA,080539,2439.6574,N,08033.8648,W,1,9,1.5,18,M,,M,,*55
06/08/2014	08:05:39.832	$GPGGA,080540,2439.6578,N,08033.8645,W,1,9,1.5,18,M,,M,,*5A
06/08/2014	08:05:40.846	$GPGGA,080541,2439.6582,N,08033.8642,W,1,9,1.5,18,M,,M,,*59
06/08/2014	08:05:41.832	$GPGGA,080542,2439.6586,N,08033.8638,W,1,9,1.5,18,M,,M,,*53
06/08/2014	08:05:42.936	$GPGGA,080543,2439.6590,N,08033.8635,W,1,9,1.5,18,M,,M,,*58
06/08/2014	08:05:43.850	$GPGGA,080544,2439.6593,N,08033.8632,W,1,9,1.5,18,M,,M,,*5B
06/08/2014	08:05:44.863	$GPGGA,080545,2439.6597,N,08033.8628,W,1,9,1.5,18,M,,M,,*55
06/08/2014	08:05:45.828	$GPGGA,080546,2439.6600,N,08033.8624,W,1,9,1.5,18,M,,M,,*57
06/08/2014	08:05:46.852	$GPGGA,080547,2439.6604,N,08033.8621,W,1,9,1.5,18,M,,M,,*57
06/08/2014	08:05:47.857	$GPGGA,080548,2439.6610,N,08033.8618,W,1,9,1.5,18,M,,M,,*57
06/08/2014	08:05:48.851	$GPGGA,080549,2439.6613,N,08033.8614,W,1,9,1.5,18,M,,M,,*59
06/08/2014	08:05:49.876	$GPGGA,080550,2439.6617,N,08033.8611,W,1,9,1.5,18,M,,M,,*50
06/08/2014	08:05:50.951	$GPGGA,080551,2439.6621,N,08033.8607,W,1,9,1.5,18,M,,M,,*53
06/08/2014	08:05:51.865	$GPGGA,080552,2439.6625,N,08033.8604,W,1,9,1.5,18,M,,M,,*57
06/08/2014	08:05:52.859	$GPGGA,080553,2439.6628,N,08033.8600,W,1,9,1.5,18,M,,M,,*5F
06/08/2014	08:05:53.944	$GPGGA,080554,2439.6632,N,08033.8597,W,1,9,1.5,18,M,,M,,*5E
06/08/2014	08:05:54.979	$GPGGA,080555,2439.6636,N,08033.8594,W,1,9,1.5,18,M,,M,,*58
06/08/2014	08:05:55.863	$GPGGA,080556,2439.6640,N,08033.8590,W,1,9,1.5,18,M,,M,,*5E
06/08/2014	08:05:56.988	$GPGGA,080557,2439.6643,N,08033.8587,W,1,9,1.5,18,M,,M,,*5A
06/08/2014	08:05:57.952	$GPGGA,080558,2439.6647,N,08033.8584,W,1,9,1.5,18,M,,M,,*52
06/08/2014	08:05:58.966	$GPGGA,080559,2439.6651,N,08033.8580,W,1,9,1.5,18,M,,M,,*50
06/08/2014	08:05:59.981	$GPGGA,080600,2439.6655,N,08033.8577,W,1,9,1.5,18,M,,M,,*53
06/08/2014	08:06:00.975	$GPGGA,080601,2439.6658,N,08033.8574,W,1,9,1.5,18,M,,M,,*5C
06/08/2014	08:06:01.969	$GPGGA,080602,2439.6662,N,08033.8570,W,1,9,1.5,18,M,,M,,*52
06/08/2014	08:06:02.983	$GPGGA,080603,2439.6666,N,08033.8567,W,1,9,1.5,18,M,,M,,*51
06/08/2014	08:06:03.979	$GPGGA,080604,2439.6671,N,08033.8564,W,1,9,1.5,18,M,,M,,*53
06/08/2014	08:06:05.013	$GPGGA,080605,2439.6675,N,08033.8560,W,1,9,1.5,18,M,,M,,*52
06/08/2014	08:06:05.967	$GPGGA,080606,2439.6679,N,08033.8557,W,1,9,1.5,18,M,,M,,*59
06/08/2014	08:06:06.991	$GPGGA,080607,2439.6683,N,08033.8554,W,1,9,1.5,18,M,,M,,*5E
06/08/2014	08:06:07.996	$GPGGA,080608,2439.6687,N,08033.8551,W,1,9,1.5,18,M,,M,,*50
06/08/2014	08:06:09.000	$GPGGA,080609,2439.6691,N,08033.8547,W,1,9,1.5,18,M,,M,,*51
06/08/2014	08:06:10.025	$GPGGA,080610,2439.6694,N,08033.8544,W,1,9,1.5,18,M,,M,,*5F
06/08/2014	08:06:10.999	$GPGGA,080611,2439.6698,N,08033.8541,W,1,9,1.5,18,M,,M,,*57
06/08/2014	08:06:11.995	$GPGGA,080612,2439.6702,N,08033.8538,W,1,9,1.5,18,M,,M,,*58
06/08/2014	08:06:13.008	$GPGGA,080613,2439.6707,N,08033.8535,W,1,9,1.5,18,M,,M,,*51
06/08/2014	08:06:13.993	$GPGGA,080614,2439.6711,N,08033.8532,W,1,9,1.5,18,M,,M,,*56
06/08/2014	08:06:15.009	$GPGGA,080615,2439.6713,N,08033.8528,W,1,9,1.5,18,M,,M,,*5E
06/08/2014	08:06:16.013	$GPGGA,080616,2439.6718,N,08033.8525,W,1,9,1.5,18,M,,M,,*5B
06/08/2014	08:06:17.006	$GPGGA,080617,2439.6722,N,08033.8521,W,1,9,1.5,18,M,,M,,*57
06/08/2014	08:06:18.011	$GPGGA,080618,2439.6726,N,08033.8518,W,1,9,1.5,18,M,,M,,*56
06/08/2014	08:06:19.005	$GPGGA,080619,2439.6730,N,08033.8515,W,1,9,1.5,18,M,,M,,*5D
06/08/2014	08:06:20.031	$GPGGA,080620,2439.6734,N,08033.8512,W,1,9,1.7,18,M,,M,,*56
06/08/2014	08:06:21.072	$GPGGA,080621,2439.6737,N,08033.8508,W,1,8,1.7,18,M,,M,,*5E
06/08/2014	08:06:22.008	$GPGGA,080622,2439.6740,N,08033.8506,W,1,8,1.7,18,M,,M,,*53
06/08/2014	08:06:23.022	$GPGGA,080623,2439.6744,N,08033.8503,W,1,9,1.5,18,M,,M,,*50
06/08/2014	08:06:24.027	$GPGGA,080624,2439.6748,N,08033.8500,W,1,9,1.5,18,M,,M,,*58
06/08/2014	08:06:25.011	$GPGGA,080625,2439.6751,N,08033.8497,W,1,8,1.7,18,M,,M,,*5D
06/08/2014	08:06:26.026	$GPGGA,080626,2439.6755,N,08033.8494,W,1,8,1.5,18,M,,M,,*5B
06/08/2014	08:06:27.061	$GPGGA,080627,2439.6759,N,08033.8491,W,1,8,1.7,18,M,,M,,*51
06/08/2014	08:06:28.045	$GPGGA,080628,2439.6763,N,08033.8487,W,1,8,1.7,18,M,,M,,*50
06/08/2014	08:06:29.059	$GPGGA,080629,2439.6767,N,08033.8484,W,1,9,1.5,18,M,,M,,*55
06/08/2014	08:06:30.024	$GPGGA,080630,2439.6772,N,08033.8481,W,1,9,1.5,18,M,,M,,*5C
06/08/2014	08:06:31.038	$GPGGA,080631,2439.6776,N,08033.8478,W,1,9,1.5,18,M,,M,,*5F
06/08/2014	08:06:32.042	$GPGGA,080632,2439.6781,N,08033.8473,W,1,9,1.7,18,M,,M,,*5D
06/08/2014	08:06:33.058	$GPGGA,080633,2439.6785,N,08033.8469,W,1,9,1.5,18,M,,M,,*51
06/08/2014	08:06:34.030	$GPGGA,080634,2439.6788,N,08033.8466,W,1,9,1.5,18,M,,M,,*54
06/08/2014	08:06:35.035	$GPGGA,080635,2439.6792,N,08033.8464,W,1,8,1.7,18,M,,M,,*5F
06/08/2014	08:06:36.059	$GPGGA,080636,2439.6796,N,08033.8460,W,1,8,1.5,18,M,,M,,*5E
06/08/2014	08:06:37.062	$GPGGA,080637,2439.6799,N,08033.8457,W,1,9,1.5,18,M,,M,,*55
06/08/2014	08:06:38.056	$GPGGA,080638,2439.6803,N,08033.8455,W,1,9,1.7,18,M,,M,,*56
06/08/2014	08:06:38.896	$GPGGA,080639,2439.6806,N,08033.8454,W,1,9,1.5,18,M,,M,,*51
06/08/2014	08:06:39.790	$GPGGA,080640,2439.6810,N,08033.8452,W,1,9,1.8,18,M,,M,,*53
06/08/2014	08:06:40.824	$GPGGA,080641,2439.6814,N,08033.8449,W,1,9,1.5,19,M,,M,,*50
06/08/2014	08:06:41.778	$GPGGA,080642,2439.6817,N,08033.8447,W,1,9,1.8,19,M,,M,,*53
06/08/2014	08:06:42.913	$GPGGA,080643,2439.6821,N,08033.8443,W,1,8,1.7,19,M,,M,,*5D
06/08/2014	08:06:43.816	$GPGGA,080644,2439.6827,N,08033.8441,W,1,8,1.5,19,M,,M,,*5C
06/08/2014	08:06:44.911	$GPGGA,080645,2439.6831,N,08033.8438,W,1,8,1.7,19,M,,M,,*56
06/08/2014	08:06:46.849	$GPGGA,080647,2439.6839,N,08033.8432,W,1,8,1.7,19,M,,M,,*56
06/08/2014	08:06:47.823	$GPGGA,080648,2439.6843,N,08033.8430,W,1,8,1.5,20,M,,M,,*5E
06/08/2014	08:06:48.937	$GPGGA,080649,2439.6848,N,08033.8427,W,1,9,1.5,20,M,,M,,*53
06/08/2014	08:06:49.903	$GPGGA,080650,2439.6853,N,08033.8424,W,1,9,1.5,20,M,,M,,*52
06/08/2014	08:06:50.925	$GPGGA,080651,2439.6857,N,08033.8420,W,1,9,1.5,20,M,,M,,*53
06/08/2014	08:06:51.929	$GPGGA,080652,2439.6861,N,08033.8418,W,1,9,1.5,20,M,,M,,*5E
06/08/2014	08:06:52.904	$GPGGA,080653,2439.6866,N,08033.8414,W,1,9,1.5,20,M,,M,,*54
06/08/2014	08:06:53.918	$GPGGA,080654,2439.6868,N,08033.8411,W,1,9,1.7,21,M,,M,,*5B
06/08/2014	08:06:54.921	$GPGGA,080655,2439.6872,N,08033.8409,W,1,8,1.7,21,M,,M,,*59
06/08/2014	08:06:55.945	$GPGGA,080656,2439.6877,N,08033.8406,W,1,8,1.7,21,M,,M,,*50
06/08/2014	08:06:56.919	$GPGGA,080657,2439.6881,N,08033.8402,W,1,9,1.5,21,M,,M,,*5F
06/08/2014	08:06:57.925	$GPGGA,080658,2439.6885,N,08033.8399,W,1,9,1.5,21,M,,M,,*51
06/08/2014	08:06:58.917	$GPGGA,080659,2439.6889,N,08033.8396,W,1,9,1.5,21,M,,M,,*53
06/08/2014	08:06:59.951	$GPGGA,080700,2439.6893,N,08033.8393,W,1,9,1.5,21,M,,M,,*50
06/08/2014	08:07:00.945	$GPGGA,080701,2439.6897,N,08033.8389,W,1,9,1.5,22,M,,M,,*5D
06/08/2014	08:07:01.930	$GPGGA,080702,2439.6900,N,08033.8386,W,1,9,1.5,22,M,,M,,*5E
06/08/2014	08:07:02.954	$GPGGA,080703,2439.6904,N,08033.8383,W,1,9,1.5,22,M,,M,,*5E
06/08/2014	08:07:03.948	$GPGGA,080704,2439.6908,N,08033.8380,W,1,9,1.5,22,M,,M,,*56
06/08/2014	08:07:04.932	$GPGGA,080705,2439.6913,N,08033.8377,W,1,9,1.5,22,M,,M,,*55
06/08/2014	08:07:05.946	$GPGGA,080706,2439.6917,N,08033.8373,W,1,9,1.5,22,M,,M,,*56
06/08/2014	08:07:06.961	$GPGGA,080707,2439.6919,N,08033.8370,W,1,9,1.5,23,M,,M,,*5B
06/08/2014	08:07:07.944	$GPGGA,080708,2439.6924,N,08033.8367,W,1,9,1.5,23,M,,M,,*5C
06/08/2014	08:07:08.968	$GPGGA,080709,2439.6929,N,08033.8363,W,1,9,1.5,23,M,,M,,*54
06/08/2014	08:07:09.942	$GPGGA,080710,2439.6932,N,08033.8360,W,1,9,1.5,23,M,,M,,*55
06/08/2014	08:07:10.946	$GPGGA,080711,2439.6936,N,08033.8356,W,1,9,1.5,23,M,,M,,*55
06/08/2014	08:07:11.959	$GPGGA,080712,2439.6940,N,08033.8352,W,1,9,1.5,23,M,,M,,*53
06/08/2014	08:07:12.984	$GPGGA,080713,2439.6944,N,08033.8349,W,1,9,1.5,23,M,,M,,*5C
06/08/2014	08:07:13.967	$GPGGA,080714,2439.6949,N,08033.8346,W,1,9,1.5,23,M,,M,,*59
06/08/2014	08:07:14.982	$GPGGA,080715,2439.6954,N,08033.8342,W,1,9,1.5,23,M,,M,,*50
06/08/2014	08:07:15.976	$GPGGA,080716,2439.6958,N,08033.8338,W,1,9,1.5,23,M,,M,,*52
06/08/2014	08:07:16.990	$GPGGA,080717,2439.6962,N,08033.8335,W,1,9,1.5,24,M,,M,,*50
06/08/2014	08:07:17.964	$GPGGA,080718,2439.6965,N,08033.8331,W,1,9,1.5,24,M,,M,,*5C
06/08/2014	08:07:18.958	$GPGGA,080719,2439.6971,N,08033.8327,W,1,9,1.5,24,M,,M,,*5F
06/08/2014	08:07:20.072	$GPGGA,080720,2439.6975,N,08033.8323,W,1,9,1.5,24,M,,M,,*55
06/08/2014	08:07:20.986	$GPGGA,080721,2439.6979,N,08033.8320,W,1,9,1.5,24,M,,M,,*5B
06/08/2014	08:07:21.960	$GPGGA,080722,2439.6983,N,08033.8316,W,1,9,1.5,24,M,,M,,*58
06/08/2014	08:07:22.994	$GPGGA,080723,2439.6987,N,08033.8312,W,1,9,1.5,24,M,,M,,*59
06/08/2014	08:07:24.089	$GPGGA,080724,2439.6991,N,08033.8308,W,1,9,1.5,24,M,,M,,*52
06/08/2014	08:07:24.972	$GPGGA,080725,2439.6996,N,08033.8304,W,1,9,1.5,24,M,,M,,*58
06/08/2014	08:07:26.067	$GPGGA,080726,2439.7001,N,08033.8301,W,1,9,1.5,24,M,,M,,*58
06/08/2014	08:07:27.163	$GPGGA,080727,2439.7005,N,08033.8297,W,1,9,1.5,24,M,,M,,*53
06/08/2014	08:07:28.006	$GPGGA,080728,2439.7009,N,08033.8293,W,1,9,1.5,24,M,,M,,*54
06/08/2014	08:07:29.166	$GPGGA,080729,2439.7012,N,08033.8289,W,1,9,1.5,24,M,,M,,*54
06/08/2014	08:07:29.982	$GPGGA,080730,2439.7018,N,08033.8286,W,1,9,1.5,24,M,,M,,*59
06/08/2014	08:07:31.177	$GPGGA,080731,2439.7022,N,08033.8282,W,1,9,1.5,24,M,,M,,*55
06/08/2014	08:07:32.096	$GPGGA,080732,2439.7026,N,08033.8279,W,1,9,1.5,24,M,,M,,*56
06/08/2014	08:07:33.004	$GPGGA,080733,2439.7030,N,08033.8275,W,1,9,1.5,24,M,,M,,*5C
06/08/2014	08:07:34.139	$GPGGA,080734,2439.7034,N,08033.8271,W,1,9,1.5,24,M,,M,,*5B
06/08/2014	08:07:35.194	$GPGGA,080735,2439.7038,N,08033.8267,W,1,9,1.5,24,M,,M,,*51
06/08/2014	08:07:36.137	$GPGGA,080736,2439.7043,N,08033.8264,W,1,9,1.5,24,M,,M,,*5D
06/08/2014	08:07:37.200	$GPGGA,080737,2439.7048,N,08033.8261,W,1,9,1.5,24,M,,M,,*52
06/08/2014	08:07:38.098	$GPGGA,080738,2439.7052,N,08033.8257,W,1,9,1.5,24,M,,M,,*53
06/08/2014	08:07:38.966	$GPGGA,080739,2439.7056,N,08033.8253,W,1,9,1.5,24,M,,M,,*52
06/08/2014	08:07:39.899	$GPGGA,080740,2439.7061,N,08033.8250,W,1,9,1.5,24,M,,M,,*5B
06/08/2014	08:07:40.964	$GPGGA,080741,2439.7065,N,08033.8246,W,1,9,1.5,24,M,,M,,*59
06/08/2014	08:07:41.857	$GPGGA,080742,2439.7069,N,08033.8242,W,1,9,1.5,24,M,,M,,*52
06/08/2014	08:07:42.962	$GPGGA,080743,2439.7073,N,08033.8239,W,1,9,1.5,24,M,,M,,*54
06/08/2014	08:07:43.906	$GPGGA,080744,2439.7077,N,08033.8235,W,1,9,1.5,24,M,,M,,*5B
06/08/2014	08:07:44.940	$GPGGA,080745,2439.7081,N,08033.8231,W,1,9,1.5,24,M,,M,,*57
06/08/2014	08:07:45.904	$GPGGA,080746,2439.7085,N,08033.8227,W,1,9,1.5,24,M,,M,,*57
06/08/2014	08:07:46.977	$GPGGA,080747,2439.7090,N,08033.8224,W,1,9,1.5,24,M,,M,,*51
06/08/2014	08:07:47.882	$GPGGA,080748,2439.7095,N,08033.8220,W,1,9,1.5,24,M,,M,,*5F
06/08/2014	08:07:48.955	$GPGGA,080749,2439.7099,N,08033.8216,W,1,9,1.5,24,M,,M,,*57
06/08/2014	08:07:49.901	$GPGGA,080750,2439.7103,N,08033.8212,W,1,9,1.5,24,M,,M,,*59
06/08/2014	08:07:50.984	$GPGGA,080751,2439.7108,N,08033.8209,W,1,9,1.5,24,M,,M,,*59
06/08/2014	08:07:51.938	$GPGGA,080752,2439.7112,N,08033.8205,W,1,9,1.5,24,M,,M,,*5D
06/08/2014	08:07:53.002	$GPGGA,080753,2439.7116,N,08033.8202,W,1,9,1.5,24,M,,M,,*5F
06/08/2014	08:07:53.906	$GPGGA,080754,2439.7120,N,08033.8198,W,1,9,1.5,24,M,,M,,*5D
06/08/2014	08:07:55.000	$GPGGA,080755,2439.7124,N,08033.8194,W,1,9,1.5,24,M,,M,,*54
06/08/2014	08:07:55.924	$GPGGA,080756,2439.7128,N,08033.8190,W,1,9,1.5,24,M,,M,,*5F
06/08/2014	08:07:56.958	$GPGGA,080757,2439.7131,N,08033.8186,W,1,9,1.5,24,M,,M,,*51
06/08/2014	08:07:57.922	$GPGGA,080758,2439.7135,N,08033.8182,W,1,9,1.5,24,M,,M,,*5E
06/08/2014	08:07:58.966	$GPGGA,080759,2439.7138,N,08033.8178,W,1,9,1.5,24,M,,M,,*57
06/08/2014	08:07:59.960	$GPGGA,080800,2439.7142,N,08033.8174,W,1,9,1.5,24,M,,M,,*55
06/08/2014	08:08:01.015	$GPGGA,080801,2439.7145,N,08033.8170,W,1,9,1.5,24,M,,M,,*57
06/08/2014	08:08:01.898	$GPGGA,080802,2439.7148,N,08033.8165,W,1,9,1.5,24,M,,M,,*5D
06/08/2014	08:08:02.983	$GPGGA,080803,2439.7150,N,08033.8161,W,1,9,1.5,23,M,,M,,*56
06/08/2014	08:08:03.958	$GPGGA,080804,2439.7153,N,08033.8156,W,1,9,1.5,23,M,,M,,*56
06/08/2014	08:08:04.990	$GPGGA,080805,2439.7155,N,08033.8152,W,1,9,1.5,23,M,,M,,*55
06/08/2014	08:08:05.944	$GPGGA,080806,2439.7157,N,08033.8147,W,1,9,1.5,23,M,,M,,*50
06/08/2014	08:08:07.008	$GPGGA,080807,2439.7159,N,08033.8142,W,1,9,1.5,23,M,,M,,*5A
06/08/2014	08:08:07.962	$GPGGA,080808,2439.7160,N,08033.8138,W,1,9,1.5,23,M,,M,,*52
06/08/2014	08:08:09.006	$GPGGA,080809,2439.7161,N,08033.8133,W,1,9,1.5,23,M,,M,,*59
06/08/2014	08:08:09.940	$GPGGA,080810,2439.7163,N,08033.8127,W,1,9,1.8,23,M,,M,,*5B
06/08/2014	08:08:11.014	$GPGGA,080811,2439.7164,N,08033.8122,W,1,8,1.5,23,M,,M,,*54
06/08/2014	08:08:11.968	$GPGGA,080812,2439.7164,N,08033.8117,W,1,8,1.5,23,M,,M,,*51
06/08/2014	08:08:13.003	$GPGGA,080813,2439.7164,N,08033.8113,W,1,9,1.5,23,M,,M,,*55
06/08/2014	08:08:13.946	$GPGGA,080814,2439.7164,N,08033.8108,W,1,9,1.5,23,M,,M,,*58
06/08/2014	08:08:15.021	$GPGGA,080815,2439.7164,N,08033.8103,W,1,9,1.5,22,M,,M,,*53
06/08/2014	08:08:16.045	$GPGGA,080816,2439.7162,N,08033.8098,W,1,9,1.5,22,M,,M,,*55
06/08/2014	08:08:17.019	$GPGGA,080817,2439.7163,N,08033.8094,W,1,9,1.5,22,M,,M,,*59
06/08/2014	08:08:18.033	$GPGGA,080818,2439.7160,N,08033.8088,W,1,9,1.5,22,M,,M,,*58
06/08/2014	08:08:19.078	$GPGGA,080819,2439.7158,N,08033.8083,W,1,9,1.5,22,M,,M,,*59
06/08/2014	08:08:20.051	$GPGGA,080820,2439.7157,N,08033.8078,W,1,9,1.5,22,M,,M,,*58
06/08/2014	08:08:21.096	$GPGGA,080821,2439.7154,N,08033.8072,W,1,9,1.5,22,M,,M,,*50
06/08/2014	08:08:22.031	$GPGGA,080822,2439.7152,N,08033.8066,W,1,9,1.5,22,M,,M,,*50
06/08/2014	08:08:23.046	$GPGGA,080823,2439.7150,N,08033.8061,W,1,9,1.5,22,M,,M,,*54
06/08/2014	08:08:24.060	$GPGGA,080824,2439.7147,N,08033.8055,W,1,9,1.5,22,M,,M,,*52
06/08/2014	08:08:25.091	$GPGGA,080825,2439.7144,N,08033.8049,W,1,9,1.5,22,M,,M,,*5D
06/08/2014	08:08:25.995	$GPGGA,080826,2439.7142,N,08033.8043,W,1,9,1.5,22,M,,M,,*52
06/08/2014	08:08:27.044	$GPGGA,080827,2439.7139,N,08033.8035,W,1,9,1.8,22,M,,M,,*53
06/08/2014	08:08:28.074	$GPGGA,080828,2439.7135,N,08033.8027,W,1,9,1.8,22,M,,M,,*53
06/08/2014	08:08:29.062	$GPGGA,080829,2439.7132,N,08033.8021,W,1,8,1.5,22,M,,M,,*5F
06/08/2014	08:08:30.058	$GPGGA,080830,2439.7128,N,08033.8014,W,1,8,1.5,21,M,,M,,*59
06/08/2014	08:08:31.090	$GPGGA,080831,2439.7124,N,08033.8007,W,1,9,1.5,21,M,,M,,*57
06/08/2014	08:08:32.095	$GPGGA,080832,2439.7121,N,08033.7999,W,1,9,1.5,21,M,,M,,*50
06/08/2014	08:08:33.124	$GPGGA,080833,2439.7117,N,08033.7992,W,1,9,1.5,21,M,,M,,*5F
06/08/2014	08:08:34.069	$GPGGA,080834,2439.7112,N,08033.7985,W,1,9,1.5,21,M,,M,,*5B
06/08/2014	08:08:35.132	$GPGGA,080835,2439.7107,N,08033.7977,W,1,9,1.5,21,M,,M,,*53
06/08/2014	08:08:36.088	$GPGGA,080836,2439.7103,N,08033.7969,W,1,9,1.5,21,M,,M,,*5B
06/08/2014	08:08:37.120	$GPGGA,080837,2439.7099,N,08033.7962,W,1,9,1.5,21,M,,M,,*53
06/08/2014	08:08:38.064	$GPGGA,080838,2439.7093,N,08033.7953,W,1,9,1.5,21,M,,M,,*54
06/08/2014	08:08:38.895	$GPGGA,080839,2439.7088,N,08033.7945,W,1,9,1.5,21,M,,M,,*58
06/08/2014	08:08:39.848	$GPGGA,080840,2439.7083,N,08033.7937,W,1,9,1.5,21,M,,M,,*58
06/08/2014	08:08:40.862	$GPGGA,080841,2439.7078,N,08033.7928,W,1,9,1.5,21,M,,M,,*53
06/08/2014	08:08:41.836	$GPGGA,080842,2439.7074,N,08033.7920,W,1,9,1.5,21,M,,M,,*54
06/08/2014	08:08:42.840	$GPGGA,080843,2439.7074,N,08033.7920,W,1,9,1.5,21,M,,M,,*55
06/08/2014	08:08:43.870	$GPGGA,080844,2439.7068,N,08033.7910,W,1,9,1.5,21,M,,M,,*5C
06/08/2014	08:08:44.899	$GPGGA,080845,2439.7056,N,08033.7892,W,1,9,1.7,21,M,,M,,*59
06/08/2014	08:08:45.863	$GPGGA,080846,2439.7050,N,08033.7884,W,1,9,1.7,21,M,,M,,*5B
06/08/2014	08:08:46.897	$GPGGA,080847,2439.7045,N,08033.7874,W,1,9,1.7,21,M,,M,,*51
06/08/2014	08:08:47.861	$GPGGA,080848,2439.7038,N,08033.7865,W,1,9,1.7,21,M,,M,,*54
06/08/2014	08:08:48.915	$GPGGA,080849,2439.7031,N,08033.7856,W,1,8,1.5,21,M,,M,,*5F
06/08/2014	08:08:49.879	$GPGGA,080850,2439.7027,N,08033.7845,W,1,8,1.5,21,M,,M,,*52
06/08/2014	08:08:50.933	$GPGGA,080851,2439.7023,N,08033.7834,W,1,9,1.5,21,M,,M,,*50
06/08/2014	08:08:51.887	$GPGGA,080852,2439.7017,N,08033.7823,W,1,9,1.5,21,M,,M,,*52
06/08/2014	08:08:52.922	$GPGGA,080853,2439.7011,N,08033.7812,W,1,9,1.5,21,M,,M,,*57
06/08/2014	08:08:53.875	$GPGGA,080854,2439.7006,N,08033.7801,W,1,9,1.5,21,M,,M,,*54
06/08/2014	08:08:54.869	$GPGGA,080855,2439.7006,N,08033.7801,W,1,9,1.5,21,M,,M,,*55
06/08/2014	08:08:55.895	$GPGGA,080856,2439.6996,N,08033.7778,W,1,9,1.5,21,M,,M,,*56
06/08/2014	08:08:56.977	$GPGGA,080857,2439.6991,N,08033.7767,W,1,9,1.5,21,M,,M,,*5E
06/08/2014	08:08:57.871	$GPGGA,080858,2439.6985,N,08033.7755,W,1,9,1.5,21,M,,M,,*55
06/08/2014	08:08:58.985	$GPGGA,080859,2439.6980,N,08033.7743,W,1,9,1.5,21,M,,M,,*56
06/08/2014	08:09:00.020	$GPGGA,080900,2439.6975,N,08033.7732,W,1,9,1.5,21,M,,M,,*57
06/08/2014	08:09:00.973	$GPGGA,080901,2439.6970,N,08033.7720,W,1,9,1.5,21,M,,M,,*50
06/08/2014	08:09:01.877	$GPGGA,080902,2439.6965,N,08033.7707,W,1,9,1.5,21,M,,M,,*52
06/08/2014	08:09:03.012	$GPGGA,080903,2439.6965,N,08033.7707,W,1,9,1.5,21,M,,M,,*53
06/08/2014	08:09:03.986	$GPGGA,080904,2439.6955,N,08033.7682,W,1,9,1.5,21,M,,M,,*5B
06/08/2014	08:09:04.889	$GPGGA,080905,2439.6955,N,08033.7682,W,1,9,1.5,21,M,,M,,*5A
06/08/2014	08:09:05.904	$GPGGA,080906,2439.6946,N,08033.7656,W,1,9,1.5,22,M,,M,,*51
06/08/2014	08:09:06.918	$GPGGA,080907,2439.6942,N,08033.7643,W,1,8,1.7,22,M,,M,,*53
06/08/2014	08:09:07.912	$GPGGA,080908,2439.6938,N,08033.7629,W,1,8,1.5,22,M,,M,,*5F
06/08/2014	08:09:08.906	$GPGGA,080909,2439.6938,N,08033.7629,W,1,9,1.5,22,M,,M,,*5F
06/08/2014	08:09:09.900	$GPGGA,080910,2439.6933,N,08033.7601,W,1,9,1.5,22,M,,M,,*56
06/08/2014	08:09:10.994	$GPGGA,080911,2439.6928,N,08033.7587,W,1,9,1.5,21,M,,M,,*53
06/08/2014	08:09:12.019	$GPGGA,080912,2439.6924,N,08033.7573,W,1,9,1.5,21,M,,M,,*57
06/08/2014	08:09:13.023	$GPGGA,080913,2439.6920,N,08033.7559,W,1,9,1.5,21,M,,M,,*5A
06/08/2014	08:09:14.008	$GPGGA,080914,2439.6916,N,08033.7545,W,1,9,1.5,21,M,,M,,*55
06/08/2014	08:09:15.020	$GPGGA,080915,2439.6912,N,08033.7531,W,1,9,1.5,21,M,,M,,*53
06/08/2014	08:09:16.014	$GPGGA,080916,2439.6909,N,08033.7516,W,1,9,1.5,21,M,,M,,*5F
06/08/2014	08:09:17.018	$GPGGA,080917,2439.6906,N,08033.7502,W,1,9,1.5,21,M,,M,,*54
06/08/2014	08:09:18.012	$GPGGA,080918,2439.6902,N,08033.7487,W,1,9,1.5,21,M,,M,,*53
06/08/2014	08:09:19.026	$GPGGA,080919,2439.6899,N,08033.7472,W,1,9,1.5,21,M,,M,,*5B
06/08/2014	08:09:20.026	$GPGGA,080920,2439.6895,N,08033.7457,W,1,9,1.5,21,M,,M,,*5A
06/08/2014	08:09:21.042	$GPGGA,080921,2439.6893,N,08033.7442,W,1,9,1.5,21,M,,M,,*59
06/08/2014	08:09:22.030	$GPGGA,080922,2439.6889,N,08033.7427,W,1,9,1.5,21,M,,M,,*52
06/08/2014	08:09:23.056	$GPGGA,080923,2439.6886,N,08033.7413,W,1,9,1.5,21,M,,M,,*5B
06/08/2014	08:09:24.034	$GPGGA,080924,2439.6881,N,08033.7398,W,1,9,1.7,21,M,,M,,*5D
06/08/2014	08:09:25.021	$GPGGA,080925,2439.6879,N,08033.7384,W,1,9,1.5,21,M,,M,,*54
06/08/2014	08:09:26.056	$GPGGA,080926,2439.6875,N,08033.7368,W,1,9,1.5,21,M,,M,,*59
06/08/2014	08:09:27.029	$GPGGA,080927,2439.6870,N,08033.7354,W,1,8,1.7,21,M,,M,,*51
06/08/2014	08:09:28.051	$GPGGA,080928,2439.6868,N,08033.7339,W,1,8,1.5,21,M,,M,,*5E
06/08/2014	08:09:29.067	$GPGGA,080929,2439.6868,N,08033.7322,W,1,9,1.5,21,M,,M,,*54
06/08/2014	08:09:30.031	$GPGGA,080930,2439.6865,N,08033.7306,W,1,9,1.8,21,M,,M,,*5A
06/08/2014	08:09:31.057	$GPGGA,080931,2439.6864,N,08033.7290,W,1,9,1.5,21,M,,M,,*59
06/08/2014	08:09:32.062	$GPGGA,080932,2439.6862,N,08033.7274,W,1,9,1.5,21,M,,M,,*56
06/08/2014	08:09:33.032	$GPGGA,080933,2439.6861,N,08033.7258,W,1,9,1.5,21,M,,M,,*5A
06/08/2014	08:09:34.046	$GPGGA,080934,2439.6859,N,08033.7242,W,1,9,1.5,21,M,,M,,*5D
06/08/2014	08:09:35.041	$GPGGA,080935,2439.6857,N,08033.7227,W,1,9,1.5,21,M,,M,,*51
06/08/2014	08:09:36.056	$GPGGA,080936,2439.6857,N,08033.7211,W,1,9,1.5,21,M,,M,,*57
06/08/2014	08:09:37.082	$GPGGA,080937,2439.6854,N,08033.7196,W,1,9,1.5,21,M,,M,,*59
06/08/2014	08:09:38.043	$GPGGA,080938,2439.6853,N,08033.7179,W,1,9,1.5,21,M,,M,,*50
06/08/2014	08:09:38.824	$GPGGA,080939,2439.6852,N,08033.7162,W,1,8,1.8,21,M,,M,,*56
06/08/2014	08:09:39.828	$GPGGA,080940,2439.6850,N,08033.7148,W,1,8,3.3,21,M,,M,,*5B
06/08/2014	08:09:42.228	$GPGGA,080942,2439.6847,N,08033.7116,W,1,8,1.7,21,M,,M,,*52
06/08/2014	08:09:42.810	$GPGGA,080943,2439.6846,N,08033.7100,W,1,8,1.7,21,M,,M,,*55
06/08/2014	08:09:43.855	$GPGGA,080944,2439.6846,N,08033.7084,W,1,8,1.7,21,M,,M,,*5F
06/08/2014	08:09:44.929	$GPGGA,080945,2439.6844,N,08033.7067,W,1,8,1.8,21,M,,M,,*5E
06/08/2014	08:09:45.823	$GPGGA,080946,2439.6843,N,08033.7049,W,1,8,1.5,21,M,,M,,*5B
06/08/2014	08:09:46.837	$GPGGA,080947,2439.6842,N,08033.7032,W,1,9,1.5,21,M,,M,,*56
06/08/2014	08:09:47.831	$GPGGA,080948,2439.6842,N,08033.7015,W,1,9,1.5,22,M,,M,,*5F
06/08/2014	08:09:48.944	$GPGGA,080949,2439.6843,N,08033.6997,W,1,7,3.3,22,M,,M,,*57
06/08/2014	08:09:49.818	$GPGGA,080950,2439.6845,N,08033.6979,W,1,7,4.5,22,M,,M,,*58
06/08/2014	08:09:50.852	$GPGGA,080951,2439.6846,N,08033.6961,W,1,8,1.8,22,M,,M,,*54
06/08/2014	08:09:51.846	$GPGGA,080952,2439.6846,N,08033.6944,W,1,8,1.8,22,M,,M,,*50
06/08/2014	08:09:52.851	$GPGGA,080953,2439.6846,N,08033.6925,W,1,8,1.7,23,M,,M,,*58
06/08/2014	08:09:53.844	$GPGGA,080954,2439.6848,N,08033.6907,W,1,8,1.8,23,M,,M,,*5E
06/08/2014	08:09:54.838	$GPGGA,080955,2439.6850,N,08033.6889,W,1,8,1.8,23,M,,M,,*51
06/08/2014	08:09:55.863	$GPGGA,080956,2439.6850,N,08033.6870,W,1,8,1.8,23,M,,M,,*54
06/08/2014	08:09:56.857	$GPGGA,080957,2439.6850,N,08033.6852,W,1,8,1.8,23,M,,M,,*55
06/08/2014	08:09:57.937	$GPGGA,080958,2439.6853,N,08033.6834,W,1,8,1.8,23,M,,M,,*59
06/08/2014	08:09:58.855	$GPGGA,080959,2439.6853,N,08033.6816,W,1,8,1.8,23,M,,M,,*58
06/08/2014	08:09:59.979	$GPGGA,081000,2439.6855,N,08033.6798,W,1,8,1.9,23,M,,M,,*52
06/08/2014	08:10:00.983	$GPGGA,081001,2439.6856,N,08033.6780,W,1,8,1.8,23,M,,M,,*58
06/08/2014	08:10:01.949	$GPGGA,081002,2439.6857,N,08033.6762,W,1,8,1.8,23,M,,M,,*56
06/08/2014	08:10:02.972	$GPGGA,081003,2439.6859,N,08033.6744,W,1,8,1.8,23,M,,M,,*5D
06/08/2014	08:10:03.961	$GPGGA,081004,2439.6860,N,08033.6727,W,1,8,1.8,23,M,,M,,*55
06/08/2014	08:10:04.990	$GPGGA,081005,2439.6861,N,08033.6709,W,1,8,1.8,23,M,,M,,*59
06/08/2014	08:10:05.956	$GPGGA,081006,2439.6864,N,08033.6691,W,1,8,1.8,23,M,,M,,*5F
06/08/2014	08:10:06.976	$GPGGA,081007,2439.6864,N,08033.6673,W,1,8,1.8,23,M,,M,,*52
06/08/2014	08:10:07.991	$GPGGA,081008,2439.6866,N,08033.6654,W,1,8,1.8,23,M,,M,,*5A
06/08/2014	08:10:08.985	$GPGGA,081009,2439.6868,N,08033.6636,W,1,8,1.8,23,M,,M,,*51
06/08/2014	08:10:09.959	$GPGGA,081010,2439.6870,N,08033.6617,W,1,8,1.8,23,M,,M,,*53
06/08/2014	08:10:10.987	$GPGGA,081011,2439.6871,N,08033.6598,W,1,8,1.8,23,M,,M,,*57
06/08/2014	08:10:11.989	$GPGGA,081012,2439.6872,N,08033.6578,W,1,8,1.8,23,M,,M,,*59
06/08/2014	08:10:13.001	$GPGGA,081013,2439.6874,N,08033.6560,W,1,8,1.8,23,M,,M,,*57
06/08/2014	08:10:13.975	$GPGGA,081014,2439.6875,N,08033.6541,W,1,8,1.8,23,M,,M,,*52
06/08/2014	08:10:15.004	$GPGGA,081015,2439.6875,N,08033.6522,W,1,8,1.8,22,M,,M,,*57
06/08/2014	08:10:15.984	$GPGGA,081016,2439.6878,N,08033.6502,W,1,8,1.8,22,M,,M,,*5B
06/08/2014	08:10:16.978	$GPGGA,081017,2439.6879,N,08033.6483,W,1,8,1.8,22,M,,M,,*53
06/08/2014	08:10:17.982	$GPGGA,081018,2439.6879,N,08033.6464,W,1,8,1.8,22,M,,M,,*55
06/08/2014	08:10:19.008	$GPGGA,081019,2439.6882,N,08033.6445,W,1,8,1.8,22,M,,M,,*53
06/08/2014	08:10:19.990	$GPGGA,081020,2439.6882,N,08033.6426,W,1,8,1.8,22,M,,M,,*5C
06/08/2014	08:10:21.016	$GPGGA,081021,2439.6884,N,08033.6407,W,1,8,1.8,22,M,,M,,*58
06/08/2014	08:10:21.998	$GPGGA,081022,2439.6885,N,08033.6387,W,1,8,1.8,22,M,,M,,*55
06/08/2014	08:10:22.982	$GPGGA,081023,2439.6886,N,08033.6368,W,1,8,1.8,22,M,,M,,*56
06/08/2014	08:10:24.006	$GPGGA,081024,2439.6888,N,08033.6349,W,1,8,1.8,22,M,,M,,*5C
06/08/2014	08:10:25.020	$GPGGA,081025,2439.6887,N,08033.6330,W,1,8,1.8,22,M,,M,,*5C
06/08/2014	08:10:26.004	$GPGGA,081026,2439.6889,N,08033.6310,W,1,8,1.8,21,M,,M,,*50
06/08/2014	08:10:26.998	$GPGGA,081027,2439.6890,N,08033.6291,W,1,8,1.8,21,M,,M,,*51
06/08/2014	08:10:28.022	$GPGGA,081028,2439.6892,N,08033.6272,W,1,8,1.8,21,M,,M,,*51
06/08/2014	08:10:29.090	$GPGGA,081029,2439.6893,N,08033.6252,W,1,8,1.8,21,M,,M,,*53
06/08/2014	08:10:30.010	$GPGGA,081030,2439.6895,N,08033.6233,W,1,8,1.8,21,M,,M,,*5A
06/08/2014	08:10:31.014	$GPGGA,081031,2439.6897,N,08033.6214,W,1,8,1.8,21,M,,M,,*5C
06/08/2014	08:10:32.139	$GPGGA,081032,2439.6897,N,08033.6194,W,1,8,1.8,21,M,,M,,*54
06/08/2014	08:10:33.032	$GPGGA,081033,2439.6900,N,08033.6175,W,1,8,1.8,21,M,,M,,*55
06/08/2014	08:10:34.006	$GPGGA,081034,2439.6902,N,08033.6157,W,1,8,1.8,21,M,,M,,*50
06/08/2014	08:10:35.131	$GPGGA,081035,2439.6903,N,08033.6141,W,1,8,1.8,20,M,,M,,*56
06/08/2014	08:10:36.074	$GPGGA,081036,2439.6904,N,08033.6125,W,1,8,1.5,20,M,,M,,*5D
06/08/2014	08:10:37.040	$GPGGA,081037,2439.6908,N,08033.6105,W,1,9,1.5,20,M,,M,,*53
06/08/2014	08:10:38.125	$GPGGA,081038,2439.6908,N,08033.6087,W,1,9,1.8,21,M,,M,,*5B
06/08/2014	08:10:38.883	$GPGGA,081039,2439.6911,N,08033.6069,W,1,9,1.5,21,M,,M,,*5F
06/08/2014	08:10:39.807	$GPGGA,081040,2439.6914,N,08033.6050,W,1,9,1.5,21,M,,M,,*5E
06/08/2014	08:10:40.831	$GPGGA,081041,2439.6917,N,08033.6030,W,1,9,1.5,21,M,,M,,*5A
06/08/2014	08:10:41.784	$GPGGA,081042,2439.6918,N,08033.6013,W,1,9,1.8,21,M,,M,,*5A
06/08/2014	08:10:42.788	$GPGGA,081043,2439.6922,N,08033.5993,W,1,9,1.5,21,M,,M,,*5D
06/08/2014	08:10:43.913	$GPGGA,081044,2439.6926,N,08033.5974,W,1,9,1.5,21,M,,M,,*57
06/08/2014	08:10:44.887	$GPGGA,081045,2439.6928,N,08033.5956,W,1,9,1.5,21,M,,M,,*58
06/08/2014	08:10:45.911	$GPGGA,081046,2439.6931,N,08033.5938,W,1,9,1.5,21,M,,M,,*5B
06/08/2014	08:10:46.895	$GPGGA,081047,2439.6933,N,08033.5920,W,1,9,1.5,21,M,,M,,*51
06/08/2014	08:10:47.909	$GPGGA,081048,2439.6937,N,08033.5900,W,1,9,1.5,21,M,,M,,*58
06/08/2014	08:10:48.913	$GPGGA,081049,2439.6940,N,08033.5881,W,1,9,1.5,21,M,,M,,*51
06/08/2014	08:10:49.907	$GPGGA,081050,2439.6944,N,08033.5863,W,1,9,1.5,21,M,,M,,*51
06/08/2014	08:10:50.931	$GPGGA,081051,2439.6949,N,08033.5844,W,1,9,1.5,21,M,,M,,*58
06/08/2014	08:10:51.915	$GPGGA,081052,2439.6953,N,08033.5825,W,1,9,1.5,21,M,,M,,*57
06/08/2014	08:10:52.920	$GPGGA,081053,2439.6957,N,08033.5806,W,1,9,1.5,21,M,,M,,*53
06/08/2014	08:10:53.914	$GPGGA,081054,2439.6961,N,08033.5787,W,1,9,1.5,21,M,,M,,*57
06/08/2014	08:10:54.928	$GPGGA,081055,2439.6965,N,08033.5769,W,1,9,1.5,21,M,,M,,*52
06/08/2014	08:10:55.942	$GPGGA,081056,2439.6969,N,08033.5750,W,1,9,1.5,21,M,,M,,*57
06/08/2014	08:10:56.936	$GPGGA,081057,2439.6973,N,08033.5731,W,1,9,1.5,21,M,,M,,*5A
06/08/2014	08:10:57.921	$GPGGA,081058,2439.6976,N,08033.5712,W,1,9,1.5,21,M,,M,,*51
06/08/2014	08:10:58.943	$GPGGA,081059,2439.6982,N,08033.5694,W,1,9,1.5,21,M,,M,,*54
06/08/2014	08:10:59.938	$GPGGA,081100,2439.6986,N,08033.5675,W,1,9,1.5,21,M,,M,,*52
06/08/2014	08:11:00.911	$GPGGA,081101,2439.6989,N,08033.5656,W,1,9,1.5,21,M,,M,,*5D
06/08/2014	08:11:01.937	$GPGGA,081102,2439.6993,N,08033.5636,W,1,9,1.5,21,M,,M,,*53
06/08/2014	08:11:02.939	$GPGGA,081103,2439.6997,N,08033.5616,W,1,9,1.5,21,M,,M,,*54
06/08/2014	08:11:03.945	$GPGGA,081104,2439.7001,N,08033.5597,W,1,9,1.5,21,M,,M,,*5E
06/08/2014	08:11:04.968	$GPGGA,081105,2439.7004,N,08033.5579,W,1,9,1.5,21,M,,M,,*5A
06/08/2014	08:11:05.922	$GPGGA,081106,2439.7008,N,08033.5559,W,1,9,1.5,21,M,,M,,*57
06/08/2014	08:11:06.926	$GPGGA,081107,2439.7011,N,08033.5540,W,1,9,1.5,21,M,,M,,*56
06/08/2014	08:11:07.960	$GPGGA,081108,2439.7015,N,08033.5521,W,1,9,1.5,21,M,,M,,*5A
06/08/2014	08:11:08.964	$GPGGA,081109,2439.7018,N,08033.5502,W,1,9,1.5,21,M,,M,,*57
06/08/2014	08:11:09.968	$GPGGA,081110,2439.7022,N,08033.5483,W,1,9,1.8,21,M,,M,,*53
06/08/2014	08:11:11.090	$GPGGA,081111,2439.7025,N,08033.5463,W,1,9,1.5,21,M,,M,,*56
06/08/2014	08:11:11.946	$GPGGA,081112,2439.7027,N,08033.5443,W,1,9,1.5,21,M,,M,,*55
06/08/2014	08:11:13.041	$GPGGA,081113,2439.7030,N,08033.5424,W,1,9,1.5,21,M,,M,,*53
06/08/2014	08:11:13.944	$GPGGA,081114,2439.7034,N,08033.5404,W,1,9,1.5,20,M,,M,,*53
06/08/2014	08:11:14.969	$GPGGA,081115,2439.7038,N,08033.5386,W,1,9,1.5,20,M,,M,,*53
06/08/2014	08:11:15.973	$GPGGA,081116,2439.7041,N,08033.5366,W,1,9,1.8,20,M,,M,,*5D
06/08/2014	08:11:16.946	$GPGGA,081117,2439.7045,N,08033.5347,W,1,9,1.5,20,M,,M,,*56
06/08/2014	08:11:18.070	$GPGGA,081118,2439.7047,N,08033.5325,W,1,9,1.8,20,M,,M,,*52
06/08/2014	08:11:19.054	$GPGGA,081119,2439.7048,N,08033.5304,W,1,9,1.5,20,M,,M,,*52
06/08/2014	08:11:19.968	$GPGGA,081120,2439.7052,N,08033.5283,W,1,9,1.5,20,M,,M,,*5D
06/08/2014	08:11:20.972	$GPGGA,081121,2439.7054,N,08033.5263,W,1,9,1.5,20,M,,M,,*54
06/08/2014	08:11:22.067	$GPGGA,081122,2439.7056,N,08033.5243,W,1,9,1.5,20,M,,M,,*57
06/08/2014	08:11:23.091	$GPGGA,081123,2439.7059,N,08033.5223,W,1,9,1.5,20,M,,M,,*5F
06/08/2014	08:11:24.085	$GPGGA,081124,2439.7063,N,08033.5203,W,1,9,1.5,20,M,,M,,*53
06/08/2014	08:11:25.069	$GPGGA,081125,2439.7066,N,08033.5183,W,1,9,1.5,20,M,,M,,*5C
06/08/2014	08:11:25.983	$GPGGA,081126,2439.7070,N,08033.5163,W,1,9,1.5,20,M,,M,,*56
06/08/2014	08:11:26.977	$GPGGA,081127,2439.7073,N,08033.5144,W,1,9,1.5,20,M,,M,,*51
06/08/2014	08:11:28.091	$GPGGA,081128,2439.7076,N,08033.5125,W,1,9,1.5,21,M,,M,,*5D
06/08/2014	08:11:29.073	$GPGGA,081129,2439.7079,N,08033.5105,W,1,9,1.5,21,M,,M,,*51
06/08/2014	08:11:30.080	$GPGGA,081130,2439.7084,N,08033.5085,W,1,9,1.5,21,M,,M,,*52
06/08/2014	08:11:31.103	$GPGGA,081131,2439.7087,N,08033.5066,W,1,9,1.5,21,M,,M,,*5D
06/08/2014	08:11:32.087	$GPGGA,081132,2439.7091,N,08033.5046,W,1,9,1.5,21,M,,M,,*5B
06/08/2014	08:11:33.091	$GPGGA,081133,2439.7095,N,08033.5026,W,1,9,1.5,21,M,,M,,*58
06/08/2014	08:11:34.090	$GPGGA,081134,2439.7099,N,08033.5007,W,1,9,1.5,21,M,,M,,*50
06/08/2014	08:11:35.082	$GPGGA,081135,2439.7103,N,08033.4988,W,1,9,1.5,21,M,,M,,*5C
06/08/2014	08:11:36.100	$GPGGA,081136,2439.7106,N,08033.4967,W,1,9,1.5,21,M,,M,,*5B
06/08/2014	08:11:37.121	$GPGGA,081137,2439.7110,N,08033.4948,W,1,9,1.5,21,M,,M,,*50
06/08/2014	08:11:38.096	$GPGGA,081138,2439.7116,N,08033.4929,W,1,9,1.5,21,M,,M,,*5E
06/08/2014	08:11:38.851	$GPGGA,081139,2439.7119,N,08033.4909,W,1,9,1.5,21,M,,M,,*52
06/08/2014	08:11:39.865	$GPGGA,081140,2439.7124,N,08033.4890,W,1,9,1.5,21,M,,M,,*53
06/08/2014	08:11:40.878	$GPGGA,081141,2439.7128,N,08033.4870,W,1,9,1.5,21,M,,M,,*50
06/08/2014	08:11:41.855	$GPGGA,081142,2439.7132,N,08033.4850,W,1,9,1.5,21,M,,M,,*5A
06/08/2014	08:11:42.874	$GPGGA,081143,2439.7135,N,08033.4831,W,1,9,1.5,21,M,,M,,*5B
06/08/2014	08:11:43.857	$GPGGA,081144,2439.7139,N,08033.4811,W,1,9,1.5,21,M,,M,,*52
06/08/2014	08:11:44.880	$GPGGA,081145,2439.7142,N,08033.4791,W,1,9,1.5,21,M,,M,,*58
06/08/2014	08:11:45.872	$GPGGA,081146,2439.7148,N,08033.4771,W,1,9,1.5,21,M,,M,,*5F
06/08/2014	08:11:46.876	$GPGGA,081147,2439.7152,N,08033.4751,W,1,9,1.5,21,M,,M,,*57
06/08/2014	08:11:47.869	$GPGGA,081148,2439.7156,N,08033.4732,W,1,9,1.5,21,M,,M,,*59
06/08/2014	08:11:48.862	$GPGGA,081149,2439.7160,N,08033.4712,W,1,9,1.5,21,M,,M,,*5F
06/08/2014	08:11:49.865	$GPGGA,081150,2439.7164,N,08033.4693,W,1,9,1.5,21,M,,M,,*5B
06/08/2014	08:11:50.889	$GPGGA,081151,2439.7168,N,08033.4673,W,1,9,1.5,21,M,,M,,*58
