Software Version Number: 1	Data File Format Number: 1	Build Version Number: 1	Error Count Since VI Started: 0	Manufacturer: Raytheon	 Model Number: RayMarine 120	 S/N: 	 Cal Date: 	 Wind Direction Offset: 0.00	 Slope (M)1: 0.00	 Offset (B)1: 0.00	 Slope (M)2: 0.00	 Offset (B)2: 0.00	 Slope (M)3: 0.00	 Offset (B)3: 0.00	 Slope (M)4: 0.00	 Offset (B)4: 0.00	 Slope (M)5: 0.00	 Offset (B)5: 0.00	 Slope (M)6: 0.00	 Offset (B)6: 0.00
Computer Date	Computer Time	GGA String
06/11/2014	14:00:00.898	$GPGGA,140008,2528.7527,N,08002.7831,W,1,9,1.5,16,M,,M,,*5A
06/11/2014	14:00:02.007	$GPGGA,140009,2528.7512,N,08002.7832,W,1,9,1.5,16,M,,M,,*5E
06/11/2014	14:00:03.077	$GPGGA,140010,2528.7496,N,08002.7832,W,1,9,1.6,16,M,,M,,*58
06/11/2014	14:00:04.138	$GPGGA,140011,2528.7480,N,08002.7831,W,1,8,1.5,16,M,,M,,*5F
06/11/2014	14:00:05.263	$GPGGA,140012,2528.7464,N,08002.7832,W,1,8,1.5,16,M,,M,,*55
06/11/2014	14:00:06.320	$GPGGA,140013,2528.7448,N,08002.7832,W,1,9,1.5,16,M,,M,,*5B
06/11/2014	14:00:07.410	$GPGGA,140014,2528.7431,N,08002.7832,W,1,9,1.6,16,M,,M,,*51
06/11/2014	14:00:08.534	$GPGGA,140015,2528.7417,N,08002.7832,W,1,8,1.5,16,M,,M,,*56
06/11/2014	14:00:09.603	$GPGGA,140016,2528.7401,N,08002.7831,W,1,8,1.5,16,M,,M,,*51
06/11/2014	14:00:10.683	$GPGGA,140017,2528.7385,N,08002.7832,W,1,9,1.6,16,M,,M,,*5A
06/11/2014	14:00:11.795	$GPGGA,140018,2528.7370,N,08002.7831,W,1,9,1.5,16,M,,M,,*5F
06/11/2014	14:00:12.864	$GPGGA,140019,2528.7355,N,08002.7832,W,1,9,1.5,16,M,,M,,*5A
06/11/2014	14:00:14.102	$GPGGA,140020,2528.7341,N,08002.7830,W,1,9,1.5,16,M,,M,,*57
06/11/2014	14:00:15.033	$GPGGA,140021,2528.7325,N,08002.7829,W,1,9,1.6,16,M,,M,,*5F
06/11/2014	14:00:16.148	$GPGGA,140022,2528.7309,N,08002.7829,W,1,9,1.6,16,M,,M,,*52
06/11/2014	14:00:17.240	$GPGGA,140023,2528.7294,N,08002.7828,W,1,8,1.6,16,M,,M,,*56
06/11/2014	14:00:18.319	$GPGGA,140024,2528.7278,N,08002.7827,W,1,8,1.5,16,M,,M,,*5F
06/11/2014	14:00:19.419	$GPGGA,140025,2528.7262,N,08002.7826,W,1,9,1.5,16,M,,M,,*55
06/11/2014	14:00:20.466	$GPGGA,140026,2528.7247,N,08002.7825,W,1,9,1.5,16,M,,M,,*52
06/11/2014	14:00:21.688	$GPGGA,140027,2528.7230,N,08002.7824,W,1,9,1.5,16,M,,M,,*52
06/11/2014	14:00:22.689	$GPGGA,140028,2528.7215,N,08002.7825,W,1,9,1.5,16,M,,M,,*5B
06/11/2014	14:00:23.848	$GPGGA,140029,2528.7201,N,08002.7823,W,1,9,1.5,16,M,,M,,*59
06/11/2014	14:00:24.818	$GPGGA,140030,2528.7186,N,08002.7822,W,1,9,1.6,16,M,,M,,*5F
06/11/2014	14:00:25.942	$GPGGA,140031,2528.7170,N,08002.7822,W,1,8,1.6,16,M,,M,,*56
06/11/2014	14:00:27.142	$GPGGA,140032,2528.7154,N,08002.7821,W,1,8,1.6,16,M,,M,,*50
06/11/2014	14:00:28.200	$GPGGA,140033,2528.7140,N,08002.7820,W,1,8,1.5,16,M,,M,,*56
06/11/2014	14:00:29.203	$GPGGA,140034,2528.7124,N,08002.7821,W,1,8,1.6,16,M,,M,,*51
06/11/2014	14:00:30.301	$GPGGA,140035,2528.7110,N,08002.7819,W,1,8,1.5,16,M,,M,,*5F
06/11/2014	14:00:31.472	$GPGGA,140036,2528.7092,N,08002.7818,W,1,8,1.5,16,M,,M,,*56
06/11/2014	14:00:32.552	$GPGGA,140037,2528.7076,N,08002.7818,W,1,8,1.5,16,M,,M,,*5D
06/11/2014	14:00:33.556	$GPGGA,140038,2528.7059,N,08002.7817,W,1,8,1.5,16,M,,M,,*50
06/11/2014	14:00:34.756	$GPGGA,140039,2528.7045,N,08002.7816,W,1,9,1.5,16,M,,M,,*5C
06/11/2014	14:00:35.846	$GPGGA,140040,2528.7029,N,08002.7816,W,1,9,1.5,16,M,,M,,*58
06/11/2014	14:00:36.926	$GPGGA,140041,2528.7014,N,08002.7815,W,1,9,1.5,16,M,,M,,*54
06/11/2014	14:00:37.994	$GPGGA,140042,2528.6999,N,08002.7815,W,1,9,1.5,16,M,,M,,*5A
06/11/2014	14:00:39.074	$GPGGA,140043,2528.6984,N,08002.7815,W,1,9,1.5,16,M,,M,,*57
06/11/2014	14:00:40.187	$GPGGA,140044,2528.6969,N,08002.7814,W,1,9,1.5,16,M,,M,,*52
06/11/2014	14:00:35.843	$GPGGA,140045,2528.6954,N,08002.7814,W,1,9,1.5,16,M,,M,,*5D
06/11/2014	14:00:36.901	$GPGGA,140046,2528.6938,N,08002.7814,W,1,9,1.5,16,M,,M,,*54
06/11/2014	14:00:38.013	$GPGGA,140047,2528.6924,N,08002.7814,W,1,9,1.5,16,M,,M,,*58
06/11/2014	14:00:39.082	$GPGGA,140048,2528.6908,N,08002.7814,W,1,9,1.5,16,M,,M,,*59
06/11/2014	14:00:40.196	$GPGGA,140049,2528.6891,N,08002.7814,W,1,8,1.7,16,M,,M,,*5A
06/11/2014	14:00:41.264	$GPGGA,140050,2528.6875,N,08002.7814,W,1,8,1.5,16,M,,M,,*5A
06/11/2014	14:00:42.366	$GPGGA,140051,2528.6861,N,08002.7814,W,1,9,1.7,16,M,,M,,*5D
06/11/2014	14:00:43.445	$GPGGA,140052,2528.6846,N,08002.7814,W,1,9,1.7,16,M,,M,,*5B
06/11/2014	14:00:44.558	$GPGGA,140053,2528.6829,N,08002.7814,W,1,9,1.5,16,M,,M,,*51
06/11/2014	14:00:45.605	$GPGGA,140054,2528.6815,N,08002.7814,W,1,9,1.5,16,M,,M,,*59
06/11/2014	14:00:46.740	$GPGGA,140055,2528.6800,N,08002.7815,W,1,9,1.5,16,M,,M,,*5D
06/11/2014	14:00:47.809	$GPGGA,140056,2528.6785,N,08002.7815,W,1,9,1.5,16,M,,M,,*5C
06/11/2014	14:00:48.899	$GPGGA,140057,2528.6770,N,08002.7816,W,1,9,1.5,16,M,,M,,*54
06/11/2014	14:00:49.979	$GPGGA,140058,2528.6754,N,08002.7818,W,1,9,1.5,16,M,,M,,*53
06/11/2014	14:00:51.067	$GPGGA,140059,2528.6738,N,08002.7817,W,1,9,1.5,16,M,,M,,*57
06/11/2014	14:00:52.171	$GPGGA,140100,2528.6722,N,08002.7818,W,1,9,1.5,16,M,,M,,*5E
06/11/2014	14:00:53.251	$GPGGA,140101,2528.6706,N,08002.7821,W,1,9,1.5,16,M,,M,,*53
06/11/2014	14:00:54.331	$GPGGA,140102,2528.6691,N,08002.7822,W,1,9,1.5,16,M,,M,,*5C
06/11/2014	14:00:55.401	$GPGGA,140103,2528.6674,N,08002.7821,W,1,9,1.5,16,M,,M,,*55
06/11/2014	14:00:56.632	$GPGGA,140104,2528.6659,N,08002.7822,W,1,9,1.5,16,M,,M,,*5E
06/11/2014	14:00:57.592	$GPGGA,140105,2528.6644,N,08002.7823,W,1,9,1.5,16,M,,M,,*52
06/11/2014	14:00:58.672	$GPGGA,140106,2528.6629,N,08002.7823,W,1,9,1.7,16,M,,M,,*58
06/11/2014	14:00:59.774	$GPGGA,140107,2528.6612,N,08002.7825,W,1,8,1.7,16,M,,M,,*56
06/11/2014	14:01:00.864	$GPGGA,140108,2528.6597,N,08002.7825,W,1,8,1.5,16,M,,M,,*55
06/11/2014	14:01:02.076	$GPGGA,140109,2528.6580,N,08002.7826,W,1,8,1.7,16,M,,M,,*53
06/11/2014	14:01:03.024	$GPGGA,140110,2528.6565,N,08002.7826,W,1,8,1.5,16,M,,M,,*52
06/11/2014	14:01:04.137	$GPGGA,140111,2528.6550,N,08002.7826,W,1,9,1.5,16,M,,M,,*54
06/11/2014	14:01:05.206	$GPGGA,140112,2528.6535,N,08002.7826,W,1,9,1.6,16,M,,M,,*57
06/11/2014	14:01:06.298	$GPGGA,140113,2528.6519,N,08002.7826,W,1,9,1.5,16,M,,M,,*5B
06/11/2014	14:01:07.403	$GPGGA,140114,2528.6505,N,08002.7827,W,1,9,1.5,16,M,,M,,*50
06/11/2014	14:01:08.576	$GPGGA,140115,2528.6492,N,08002.7827,W,1,9,1.5,16,M,,M,,*5E
06/11/2014	14:01:09.580	$GPGGA,140116,2528.6475,N,08002.7827,W,1,9,1.5,16,M,,M,,*54
06/11/2014	14:01:10.670	$GPGGA,140117,2528.6460,N,08002.7827,W,1,9,1.5,16,M,,M,,*51
06/11/2014	14:01:11.837	$GPGGA,140118,2528.6445,N,08002.7826,W,1,9,1.5,16,M,,M,,*58
06/11/2014	14:01:12.960	$GPGGA,140119,2528.6431,N,08002.7826,W,1,9,1.5,16,M,,M,,*5A
06/11/2014	14:01:13.909	$GPGGA,140120,2528.6414,N,08002.7826,W,1,9,1.5,16,M,,M,,*57
06/11/2014	14:01:15.109	$GPGGA,140121,2528.6398,N,08002.7825,W,1,8,1.6,16,M,,M,,*54
06/11/2014	14:01:16.080	$GPGGA,140122,2528.6382,N,08002.7824,W,1,8,1.6,16,M,,M,,*5D
06/11/2014	14:01:17.323	$GPGGA,140123,2528.6366,N,08002.7825,W,1,8,1.6,16,M,,M,,*57
06/11/2014	14:01:18.382	$GPGGA,140124,2528.6349,N,08002.7824,W,1,8,1.5,16,M,,M,,*5F
06/11/2014	14:01:19.461	$GPGGA,140125,2528.6334,N,08002.7823,W,1,9,1.5,16,M,,M,,*52
06/11/2014	14:01:20.552	$GPGGA,140126,2528.6319,N,08002.7823,W,1,9,1.5,16,M,,M,,*5E
06/11/2014	14:01:21.643	$GPGGA,140127,2528.6302,N,08002.7821,W,1,8,1.7,16,M,,M,,*54
06/11/2014	14:01:22.745	$GPGGA,140128,2528.6286,N,08002.7822,W,1,8,1.6,16,M,,M,,*54
06/11/2014	14:01:23.846	$GPGGA,140129,2528.6269,N,08002.7820,W,1,8,1.6,16,M,,M,,*56
06/11/2014	14:01:24.905	$GPGGA,140130,2528.6254,N,08002.7819,W,1,8,1.6,16,M,,M,,*5A
06/11/2014	14:01:26.007	$GPGGA,140131,2528.6239,N,08002.7819,W,1,9,1.5,16,M,,M,,*52
06/11/2014	14:01:27.097	$GPGGA,140132,2528.6222,N,08002.7818,W,1,9,1.5,16,M,,M,,*5A
06/11/2014	14:01:28.177	$GPGGA,140133,2528.6207,N,08002.7818,W,1,8,1.6,16,M,,M,,*5E
06/11/2014	14:01:29.267	$GPGGA,140134,2528.6191,N,08002.7816,W,1,8,1.5,16,M,,M,,*58
06/11/2014	14:01:30.368	$GPGGA,140135,2528.6174,N,08002.7816,W,1,9,1.5,16,M,,M,,*53
06/11/2014	14:01:31.437	$GPGGA,140136,2528.6157,N,08002.7816,W,1,9,1.5,17,M,,M,,*50
06/11/2014	14:01:32.539	$GPGGA,140137,2528.6142,N,08002.7815,W,1,9,1.5,17,M,,M,,*56
06/11/2014	14:01:33.597	$GPGGA,140138,2528.6124,N,08002.7815,W,1,9,1.5,17,M,,M,,*59
06/11/2014	14:01:34.721	$GPGGA,140139,2528.6109,N,08002.7815,W,1,9,1.5,17,M,,M,,*57
06/11/2014	14:01:35.801	$GPGGA,140140,2528.6095,N,08002.7814,W,1,9,1.5,17,M,,M,,*5C
06/11/2014	14:01:36.870	$GPGGA,140141,2528.6078,N,08002.7814,W,1,9,1.5,17,M,,M,,*5E
06/11/2014	14:01:37.960	$GPGGA,140142,2528.6064,N,08002.7813,W,1,9,1.5,17,M,,M,,*57
06/11/2014	14:01:39.084	$GPGGA,140143,2528.6050,N,08002.7814,W,1,9,1.5,17,M,,M,,*56
06/11/2014	14:01:40.153	$GPGGA,140144,2528.6034,N,08002.7813,W,1,9,1.5,17,M,,M,,*54
06/11/2014	14:01:35.809	$GPGGA,140145,2528.6019,N,08002.7814,W,1,9,1.5,17,M,,M,,*5D
06/11/2014	14:01:36.867	$GPGGA,140146,2528.6002,N,08002.7814,W,1,9,1.5,17,M,,M,,*54
06/11/2014	14:01:37.968	$GPGGA,140147,2528.5986,N,08002.7812,W,1,9,1.5,17,M,,M,,*55
06/11/2014	14:01:39.073	$GPGGA,140148,2528.5970,N,08002.7814,W,1,9,1.5,17,M,,M,,*55
06/11/2014	14:01:40.137	$GPGGA,140149,2528.5954,N,08002.7813,W,1,9,1.5,17,M,,M,,*55
06/11/2014	14:01:41.241	$GPGGA,140150,2528.5939,N,08002.7814,W,1,9,1.5,18,M,,M,,*5E
06/11/2014	14:01:42.343	$GPGGA,140151,2528.5925,N,08002.7812,W,1,9,1.5,18,M,,M,,*54
06/11/2014	14:01:43.421	$GPGGA,140152,2528.5911,N,08002.7812,W,1,9,1.7,18,M,,M,,*52
06/11/2014	14:01:44.482	$GPGGA,140153,2528.5896,N,08002.7812,W,1,8,1.7,18,M,,M,,*5C
06/11/2014	14:01:45.581	$GPGGA,140154,2528.5882,N,08002.7811,W,1,8,1.7,18,M,,M,,*5D
06/11/2014	14:01:46.683	$GPGGA,140155,2528.5867,N,08002.7811,W,1,8,1.7,18,M,,M,,*57
06/11/2014	14:01:47.774	$GPGGA,140156,2528.5851,N,08002.7812,W,1,8,1.7,18,M,,M,,*52
06/11/2014	14:01:48.875	$GPGGA,140157,2528.5835,N,08002.7812,W,1,8,1.6,18,M,,M,,*50
06/11/2014	14:01:49.933	$GPGGA,140158,2528.5820,N,08002.7812,W,1,8,1.5,17,M,,M,,*57
06/11/2014	14:01:51.159	$GPGGA,140159,2528.5803,N,08002.7814,W,1,9,1.5,17,M,,M,,*50
06/11/2014	14:01:52.148	$GPGGA,140200,2528.5788,N,08002.7814,W,1,9,1.5,17,M,,M,,*53
06/11/2014	14:01:53.195	$GPGGA,140201,2528.5773,N,08002.7814,W,1,9,1.5,17,M,,M,,*56
06/11/2014	14:01:54.384	$GPGGA,140202,2528.5757,N,08002.7815,W,1,9,1.5,17,M,,M,,*52
06/11/2014	14:01:55.475	$GPGGA,140203,2528.5741,N,08002.7815,W,1,9,1.5,17,M,,M,,*54
06/11/2014	14:01:56.576	$GPGGA,140204,2528.5726,N,08002.7816,W,1,9,1.5,17,M,,M,,*51
06/11/2014	14:01:57.702	$GPGGA,140205,2528.5712,N,08002.7818,W,1,9,1.5,17,M,,M,,*59
06/11/2014	14:01:58.736	$GPGGA,140206,2528.5695,N,08002.7818,W,1,9,1.5,17,M,,M,,*54
06/11/2014	14:01:59.827	$GPGGA,140207,2528.5679,N,08002.7818,W,1,9,1.5,17,M,,M,,*57
06/11/2014	14:02:00.940	$GPGGA,140208,2528.5663,N,08002.7821,W,1,9,1.5,17,M,,M,,*59
06/11/2014	14:02:01.909	$GPGGA,140209,2528.5648,N,08002.7819,W,1,9,1.5,17,M,,M,,*5A
06/11/2014	14:02:03.109	$GPGGA,140210,2528.5633,N,08002.7819,W,1,9,1.7,17,M,,M,,*5C
06/11/2014	14:02:04.233	$GPGGA,140211,2528.5618,N,08002.7821,W,1,8,1.7,17,M,,M,,*5E
06/11/2014	14:02:05.193	$GPGGA,140212,2528.5603,N,08002.7822,W,1,8,1.7,17,M,,M,,*54
06/11/2014	14:02:06.360	$GPGGA,140213,2528.5587,N,08002.7821,W,1,8,1.7,17,M,,M,,*59
06/11/2014	14:02:07.461	$GPGGA,140214,2528.5572,N,08002.7822,W,1,8,1.7,17,M,,M,,*57
06/11/2014	14:02:08.541	$GPGGA,140215,2528.5557,N,08002.7823,W,1,9,1.5,17,M,,M,,*53
06/11/2014	14:02:09.643	$GPGGA,140216,2528.5542,N,08002.7822,W,1,9,1.5,17,M,,M,,*55
06/11/2014	14:02:10.734	$GPGGA,140217,2528.5525,N,08002.7823,W,1,9,1.5,17,M,,M,,*54
06/11/2014	14:02:11.814	$GPGGA,140218,2528.5509,N,08002.7823,W,1,9,1.5,17,M,,M,,*55
06/11/2014	14:02:12.915	$GPGGA,140219,2528.5493,N,08002.7823,W,1,9,1.5,17,M,,M,,*56
06/11/2014	14:02:14.006	$GPGGA,140220,2528.5477,N,08002.7825,W,1,9,1.5,17,M,,M,,*50
06/11/2014	14:02:15.097	$GPGGA,140221,2528.5461,N,08002.7823,W,1,9,1.5,17,M,,M,,*50
06/11/2014	14:02:16.166	$GPGGA,140222,2528.5445,N,08002.7823,W,1,9,1.5,17,M,,M,,*55
06/11/2014	14:02:17.279	$GPGGA,140223,2528.5428,N,08002.7825,W,1,9,1.5,17,M,,M,,*59
06/11/2014	14:02:19.875	$GPGGA,140225,2528.5397,N,08002.7823,W,1,8,1.6,17,M,,M,,*58
06/11/2014	14:02:20.507	$GPGGA,140226,2528.5383,N,08002.7823,W,1,8,1.5,17,M,,M,,*5D
06/11/2014	14:02:21.619	$GPGGA,140227,2528.5367,N,08002.7822,W,1,9,1.5,17,M,,M,,*56
06/11/2014	14:02:22.710	$GPGGA,140228,2528.5352,N,08002.7823,W,1,9,1.5,17,M,,M,,*5E
06/11/2014	14:02:23.822	$GPGGA,140229,2528.5336,N,08002.7823,W,1,9,1.5,17,M,,M,,*5D
06/11/2014	14:02:24.859	$GPGGA,140230,2528.5320,N,08002.7822,W,1,9,1.5,17,M,,M,,*53
06/11/2014	14:02:25.949	$GPGGA,140231,2528.5305,N,08002.7823,W,1,9,1.5,17,M,,M,,*54
06/11/2014	14:02:27.073	$GPGGA,140232,2528.5289,N,08002.7823,W,1,9,1.5,17,M,,M,,*52
06/11/2014	14:02:28.149	$GPGGA,140233,2528.5273,N,08002.7822,W,1,9,1.5,17,M,,M,,*57
06/11/2014	14:02:29.225	$GPGGA,140234,2528.5257,N,08002.7823,W,1,9,1.5,17,M,,M,,*57
06/11/2014	14:02:30.334	$GPGGA,140235,2528.5240,N,08002.7823,W,1,9,1.5,17,M,,M,,*50
06/11/2014	14:02:31.425	$GPGGA,140236,2528.5225,N,08002.7822,W,1,9,1.5,17,M,,M,,*51
06/11/2014	14:02:32.483	$GPGGA,140237,2528.5210,N,08002.7823,W,1,9,1.5,17,M,,M,,*57
06/11/2014	14:02:33.585	$GPGGA,140238,2528.5195,N,08002.7823,W,1,9,1.5,17,M,,M,,*56
06/11/2014	14:02:34.676	$GPGGA,140239,2528.5179,N,08002.7822,W,1,9,1.5,17,M,,M,,*54
06/11/2014	14:02:35.778	$GPGGA,140240,2528.5163,N,08002.7821,W,1,9,1.5,17,M,,M,,*52
06/11/2014	14:02:36.854	$GPGGA,140241,2528.5148,N,08002.7822,W,1,9,1.5,17,M,,M,,*59
06/11/2014	14:02:37.929	$GPGGA,140242,2528.5132,N,08002.7821,W,1,9,1.5,17,M,,M,,*54
06/11/2014	14:02:39.128	$GPGGA,140243,2528.5117,N,08002.7822,W,1,9,1.5,17,M,,M,,*51
06/11/2014	14:02:40.134	$GPGGA,140244,2528.5101,N,08002.7821,W,1,9,1.5,17,M,,M,,*52
06/11/2014	14:02:35.741	$GPGGA,140245,2528.5085,N,08002.7820,W,1,9,1.5,17,M,,M,,*5F
06/11/2014	14:02:36.857	$GPGGA,140246,2528.5070,N,08002.7821,W,1,9,1.5,17,M,,M,,*57
06/11/2014	14:02:37.932	$GPGGA,140247,2528.5054,N,08002.7820,W,1,9,1.5,17,M,,M,,*51
06/11/2014	14:02:39.132	$GPGGA,140248,2528.5040,N,08002.7819,W,1,9,1.5,17,M,,M,,*51
06/11/2014	14:02:40.267	$GPGGA,140249,2528.5023,N,08002.7821,W,1,9,1.5,17,M,,M,,*5E
06/11/2014	14:02:41.379	$GPGGA,140250,2528.5008,N,08002.7819,W,1,9,1.5,17,M,,M,,*54
06/11/2014	14:02:42.274	$GPGGA,140251,2528.4994,N,08002.7818,W,1,9,1.5,17,M,,M,,*59
06/11/2014	14:02:43.561	$GPGGA,140252,2528.4980,N,08002.7818,W,1,9,1.7,17,M,,M,,*5D
06/11/2014	14:02:44.641	$GPGGA,140253,2528.4965,N,08002.7817,W,1,9,1.7,17,M,,M,,*58
06/11/2014	14:02:45.644	$GPGGA,140254,2528.4948,N,08002.7818,W,1,9,1.7,17,M,,M,,*5F
06/11/2014	14:02:46.790	$GPGGA,140255,2528.4933,N,08002.7817,W,1,9,1.5,17,M,,M,,*5F
06/11/2014	14:02:47.924	$GPGGA,140256,2528.4918,N,08002.7818,W,1,9,1.5,17,M,,M,,*5A
06/11/2014	14:02:48.963	$GPGGA,140257,2528.4901,N,08002.7818,W,1,9,1.5,16,M,,M,,*52
06/11/2014	14:02:50.009	$GPGGA,140258,2528.4886,N,08002.7818,W,1,9,1.5,16,M,,M,,*53
06/11/2014	14:02:51.197	$GPGGA,140259,2528.4870,N,08002.7818,W,1,9,1.5,16,M,,M,,*5B
06/11/2014	14:02:52.287	$GPGGA,140300,2528.4854,N,08002.7818,W,1,9,1.5,16,M,,M,,*50
06/11/2014	14:02:53.345	$GPGGA,140301,2528.4841,N,08002.7819,W,1,8,1.7,16,M,,M,,*57
06/11/2014	14:02:54.435	$GPGGA,140302,2528.4824,N,08002.7818,W,1,8,1.7,16,M,,M,,*56
06/11/2014	14:02:55.493	$GPGGA,140303,2528.4809,N,08002.7819,W,1,8,1.7,16,M,,M,,*59
06/11/2014	14:02:56.660	$GPGGA,140304,2528.4794,N,08002.7819,W,1,8,1.7,16,M,,M,,*55
06/11/2014	14:02:57.675	$GPGGA,140305,2528.4777,N,08002.7821,W,1,8,1.7,16,M,,M,,*52
06/11/2014	14:02:58.778	$GPGGA,140306,2528.4762,N,08002.7820,W,1,8,1.5,16,M,,M,,*56
06/11/2014	14:02:59.846	$GPGGA,140307,2528.4747,N,08002.7821,W,1,9,1.5,16,M,,M,,*50
06/11/2014	14:03:00.980	$GPGGA,140308,2528.4730,N,08002.7822,W,1,9,1.5,16,M,,M,,*5C
06/11/2014	14:03:02.016	$GPGGA,140309,2528.4716,N,08002.7821,W,1,9,1.5,16,M,,M,,*5A
06/11/2014	14:03:03.142	$GPGGA,140310,2528.4700,N,08002.7822,W,1,9,1.7,16,M,,M,,*54
06/11/2014	14:03:04.198	$GPGGA,140311,2528.4686,N,08002.7821,W,1,8,1.7,16,M,,M,,*58
06/11/2014	14:03:05.336	$GPGGA,140312,2528.4670,N,08002.7822,W,1,8,1.7,16,M,,M,,*51
06/11/2014	14:03:06.379	$GPGGA,140313,2528.4655,N,08002.7821,W,1,8,1.7,16,M,,M,,*54
06/11/2014	14:03:07.416	$GPGGA,140314,2528.4640,N,08002.7822,W,1,8,1.7,16,M,,M,,*54
06/11/2014	14:03:08.506	$GPGGA,140315,2528.4625,N,08002.7821,W,1,8,1.7,16,M,,M,,*55
06/11/2014	14:03:09.676	$GPGGA,140316,2528.4610,N,08002.7822,W,1,8,1.7,16,M,,M,,*53
06/11/2014	14:03:10.677	$GPGGA,140317,2528.4593,N,08002.7822,W,1,8,1.7,16,M,,M,,*5A
06/11/2014	14:03:11.844	$GPGGA,140318,2528.4577,N,08002.7822,W,1,8,1.5,16,M,,M,,*5D
06/11/2014	14:03:12.901	$GPGGA,140319,2528.4560,N,08002.7822,W,1,9,1.5,16,M,,M,,*5B
06/11/2014	14:03:14.050	$GPGGA,140320,2528.4545,N,08002.7823,W,1,9,1.5,16,M,,M,,*57
06/11/2014	14:03:15.072	$GPGGA,140321,2528.4528,N,08002.7823,W,1,9,1.5,16,M,,M,,*5D
06/11/2014	14:03:16.125	$GPGGA,140322,2528.4512,N,08002.7823,W,1,9,1.5,16,M,,M,,*57
06/11/2014	14:03:17.297	$GPGGA,140323,2528.4496,N,08002.7825,W,1,9,1.6,16,M,,M,,*5E
06/11/2014	14:03:18.377	$GPGGA,140324,2528.4482,N,08002.7822,W,1,9,1.6,16,M,,M,,*5B
06/11/2014	14:03:19.533	$GPGGA,140325,2528.4467,N,08002.7822,W,1,9,1.5,16,M,,M,,*52
06/11/2014	14:03:20.559	$GPGGA,140326,2528.4451,N,08002.7822,W,1,9,1.6,16,M,,M,,*57
06/11/2014	14:03:21.639	$GPGGA,140327,2528.4436,N,08002.7821,W,1,8,1.5,16,M,,M,,*56
06/11/2014	14:03:22.740	$GPGGA,140328,2528.4422,N,08002.7820,W,1,8,1.5,16,M,,M,,*5D
06/11/2014	14:03:23.820	$GPGGA,140329,2528.4405,N,08002.7821,W,1,9,1.5,16,M,,M,,*59
06/11/2014	14:03:25.947	$GPGGA,140331,2528.4375,N,08002.7818,W,1,9,1.5,16,M,,M,,*5A
06/11/2014	14:03:27.159	$GPGGA,140332,2528.4359,N,08002.7818,W,1,9,1.5,16,M,,M,,*57
06/11/2014	14:03:28.162	$GPGGA,140333,2528.4343,N,08002.7817,W,1,9,1.5,16,M,,M,,*52
06/11/2014	14:03:29.252	$GPGGA,140334,2528.4328,N,08002.7816,W,1,9,1.5,16,M,,M,,*59
06/11/2014	14:03:30.387	$GPGGA,140335,2528.4312,N,08002.7816,W,1,9,1.5,16,M,,M,,*51
06/11/2014	14:03:31.490	$GPGGA,140336,2528.4296,N,08002.7815,W,1,9,1.6,16,M,,M,,*5F
06/11/2014	14:03:32.524	$GPGGA,140337,2528.4281,N,08002.7815,W,1,8,1.5,16,M,,M,,*5A
06/11/2014	14:03:33.647	$GPGGA,140338,2528.4264,N,08002.7815,W,1,8,1.6,16,M,,M,,*5D
06/11/2014	14:03:34.783	$GPGGA,140339,2528.4250,N,08002.7815,W,1,8,1.5,16,M,,M,,*58
06/11/2014	14:03:35.840	$GPGGA,140340,2528.4235,N,08002.7814,W,1,8,1.5,16,M,,M,,*54
06/11/2014	14:03:36.953	$GPGGA,140341,2528.4220,N,08002.7815,W,1,9,1.5,16,M,,M,,*51
06/11/2014	14:03:38.032	$GPGGA,140342,2528.4204,N,08002.7814,W,1,9,1.5,16,M,,M,,*55
06/11/2014	14:03:39.101	$GPGGA,140343,2528.4191,N,08002.7813,W,1,9,1.7,16,M,,M,,*5E
06/11/2014	14:03:40.214	$GPGGA,140344,2528.4177,N,08002.7814,W,1,9,1.5,16,M,,M,,*54
06/11/2014	14:03:35.848	$GPGGA,140345,2528.4162,N,08002.7813,W,1,9,1.7,16,M,,M,,*54
06/11/2014	14:03:36.906	$GPGGA,140346,2528.4146,N,08002.7814,W,1,9,1.7,16,M,,M,,*56
06/11/2014	14:03:38.029	$GPGGA,140347,2528.4131,N,08002.7813,W,1,8,1.7,16,M,,M,,*51
06/11/2014	14:03:39.143	$GPGGA,140348,2528.4115,N,08002.7814,W,1,8,1.5,16,M,,M,,*5D
06/11/2014	14:03:40.200	$GPGGA,140349,2528.4101,N,08002.7813,W,1,9,1.7,16,M,,M,,*5D
06/11/2014	14:03:41.291	$GPGGA,140350,2528.4086,N,08002.7814,W,1,9,1.7,16,M,,M,,*5C
06/11/2014	14:03:42.404	$GPGGA,140351,2528.4072,N,08002.7813,W,1,8,1.5,16,M,,M,,*52
06/11/2014	14:03:43.462	$GPGGA,140352,2528.4057,N,08002.7814,W,1,8,1.5,16,M,,M,,*51
06/11/2014	14:03:44.552	$GPGGA,140353,2528.4043,N,08002.7813,W,1,9,1.5,16,M,,M,,*53
06/11/2014	14:03:45.631	$GPGGA,140354,2528.4027,N,08002.7814,W,1,9,1.5,16,M,,M,,*51
06/11/2014	14:03:46.733	$GPGGA,140355,2528.4011,N,08002.7815,W,1,9,1.5,16,M,,M,,*54
06/11/2014	14:03:47.813	$GPGGA,140356,2528.3996,N,08002.7815,W,1,9,1.5,16,M,,M,,*56
06/11/2014	14:03:48.925	$GPGGA,140357,2528.3979,N,08002.7816,W,1,9,1.5,16,M,,M,,*55
06/11/2014	14:03:49.984	$GPGGA,140358,2528.3979,N,08002.7816,W,1,9,1.5,16,M,,M,,*5A
06/11/2014	14:03:51.074	$GPGGA,140359,2528.3949,N,08002.7817,W,1,9,1.5,16,M,,M,,*59
06/11/2014	14:03:52.209	$GPGGA,140400,2528.3932,N,08002.7818,W,1,9,1.5,16,M,,M,,*51
06/11/2014	14:03:53.256	$GPGGA,140401,2528.3917,N,08002.7818,W,1,9,1.5,16,M,,M,,*57
06/11/2014	14:03:54.347	$GPGGA,140402,2528.3917,N,08002.7818,W,1,9,1.5,16,M,,M,,*54
06/11/2014	14:03:55.416	$GPGGA,140403,2528.3887,N,08002.7819,W,1,9,1.5,16,M,,M,,*5C
06/11/2014	14:03:56.539	$GPGGA,140404,2528.3873,N,08002.7819,W,1,9,1.5,16,M,,M,,*50
06/11/2014	14:03:57.597	$GPGGA,140405,2528.3857,N,08002.7821,W,1,9,1.5,16,M,,M,,*5C
06/11/2014	14:03:58.688	$GPGGA,140406,2528.3857,N,08002.7821,W,1,9,1.5,16,M,,M,,*5F
06/11/2014	14:03:59.790	$GPGGA,140407,2528.3826,N,08002.7821,W,1,9,1.5,16,M,,M,,*58
06/11/2014	14:04:00.979	$GPGGA,140408,2528.3810,N,08002.7822,W,1,9,1.5,16,M,,M,,*51
06/11/2014	14:04:01.960	$GPGGA,140409,2528.3795,N,08002.7821,W,1,9,1.5,16,M,,M,,*51
06/11/2014	14:04:03.049	$GPGGA,140410,2528.3795,N,08002.7821,W,1,9,1.7,16,M,,M,,*5B
06/11/2014	14:04:04.164	$GPGGA,140411,2528.3764,N,08002.7822,W,1,8,1.7,16,M,,M,,*56
06/11/2014	14:04:05.265	$GPGGA,140412,2528.3750,N,08002.7822,W,1,8,1.7,16,M,,M,,*52
06/11/2014	14:04:06.344	$GPGGA,140413,2528.3736,N,08002.7822,W,1,8,1.7,15,M,,M,,*50
06/11/2014	14:04:07.513	$GPGGA,140414,2528.3721,N,08002.7822,W,1,8,1.7,15,M,,M,,*51
06/11/2014	14:04:08.581	$GPGGA,140415,2528.3703,N,08002.7823,W,1,8,1.7,15,M,,M,,*51
06/11/2014	14:04:09.585	$GPGGA,140416,2528.3703,N,08002.7823,W,1,8,1.5,15,M,,M,,*50
06/11/2014	14:04:10.762	$GPGGA,140417,2528.3672,N,08002.7825,W,1,8,1.7,15,M,,M,,*52
06/11/2014	14:04:11.755	$GPGGA,140418,2528.3656,N,08002.7824,W,1,8,1.5,15,M,,M,,*58
06/11/2014	14:04:12.835	$GPGGA,140419,2528.3640,N,08002.7823,W,1,9,1.5,15,M,,M,,*58
06/11/2014	14:04:14.048	$GPGGA,140420,2528.3624,N,08002.7825,W,1,9,1.5,15,M,,M,,*56
06/11/2014	14:04:15.136	$GPGGA,140421,2528.3609,N,08002.7824,W,1,9,1.5,15,M,,M,,*59
06/11/2014	14:04:16.227	$GPGGA,140422,2528.3592,N,08002.7825,W,1,9,1.5,15,M,,M,,*5A
06/11/2014	14:04:17.198	$GPGGA,140423,2528.3577,N,08002.7824,W,1,8,1.7,15,M,,M,,*52
06/11/2014	14:04:18.343	$GPGGA,140424,2528.3577,N,08002.7824,W,1,8,1.7,15,M,,M,,*55
06/11/2014	14:04:19.412	$GPGGA,140425,2528.3546,N,08002.7823,W,1,8,1.7,15,M,,M,,*51
06/11/2014	14:04:20.457	$GPGGA,140426,2528.3531,N,08002.7823,W,1,8,1.5,15,M,,M,,*50
06/11/2014	14:04:21.492	$GPGGA,140427,2528.3515,N,08002.7823,W,1,8,1.7,15,M,,M,,*55
06/11/2014	14:04:22.453	$GPGGA,140428,2528.3515,N,08002.7823,W,1,8,1.5,15,M,,M,,*58
06/11/2014	14:04:23.548	$GPGGA,140429,2528.3483,N,08002.7823,W,1,8,1.6,15,M,,M,,*54
06/11/2014	14:04:24.592	$GPGGA,140430,2528.3466,N,08002.7823,W,1,8,1.6,15,M,,M,,*57
06/11/2014	14:04:25.647	$GPGGA,140431,2528.3450,N,08002.7823,W,1,9,1.5,15,M,,M,,*51
06/11/2014	14:04:26.661	$GPGGA,140432,2528.3433,N,08002.7825,W,1,9,1.5,15,M,,M,,*51
06/11/2014	14:04:27.696	$GPGGA,140433,2528.3418,N,08002.7824,W,1,9,1.5,15,M,,M,,*58
06/11/2014	14:04:28.719	$GPGGA,140434,2528.3401,N,08002.7825,W,1,9,1.5,15,M,,M,,*56
06/11/2014	14:04:29.744	$GPGGA,140435,2528.3385,N,08002.7824,W,1,9,1.5,15,M,,M,,*5D
06/11/2014	14:04:30.798	$GPGGA,140436,2528.3371,N,08002.7823,W,1,9,1.5,15,M,,M,,*52
06/11/2014	14:04:31.832	$GPGGA,140437,2528.3355,N,08002.7823,W,1,9,1.5,15,M,,M,,*55
06/11/2014	14:04:32.835	$GPGGA,140438,2528.3340,N,08002.7822,W,1,9,1.5,15,M,,M,,*5F
06/11/2014	14:04:33.879	$GPGGA,140439,2528.3325,N,08002.7822,W,1,9,1.5,15,M,,M,,*5D
06/11/2014	14:04:34.924	$GPGGA,140440,2528.3309,N,08002.7821,W,1,9,1.5,15,M,,M,,*5E
06/11/2014	14:04:35.958	$GPGGA,140441,2528.3293,N,08002.7820,W,1,8,1.6,15,M,,M,,*5E
06/11/2014	14:04:36.961	$GPGGA,140442,2528.3279,N,08002.7821,W,1,8,1.6,15,M,,M,,*58
06/11/2014	14:04:38.028	$GPGGA,140443,2528.3267,N,08002.7820,W,1,9,1.5,15,M,,M,,*55
06/11/2014	14:04:39.050	$GPGGA,140444,2528.3255,N,08002.7821,W,1,9,1.5,15,M,,M,,*52
06/11/2014	14:04:35.790	$GPGGA,140445,2528.3239,N,08002.7819,W,1,9,1.5,15,M,,M,,*52
06/11/2014	14:04:36.814	$GPGGA,140446,2528.3224,N,08002.7819,W,1,9,1.5,15,M,,M,,*5D
06/11/2014	14:04:37.859	$GPGGA,140447,2528.3208,N,08002.7817,W,1,9,1.5,16,M,,M,,*5F
06/11/2014	14:04:38.881	$GPGGA,140448,2528.3194,N,08002.7818,W,1,9,1.5,16,M,,M,,*59
06/11/2014	14:04:39.926	$GPGGA,140449,2528.3178,N,08002.7817,W,1,9,1.5,16,M,,M,,*55
06/11/2014	14:04:40.940	$GPGGA,140450,2528.3163,N,08002.7815,W,1,9,1.5,16,M,,M,,*55
06/11/2014	14:04:41.963	$GPGGA,140451,2528.3148,N,08002.7815,W,1,9,1.5,16,M,,M,,*5D
06/11/2014	14:04:43.008	$GPGGA,140452,2528.3131,N,08002.7815,W,1,9,1.5,16,M,,M,,*50
06/11/2014	14:04:44.063	$GPGGA,140453,2528.3114,N,08002.7813,W,1,8,1.6,16,M,,M,,*52
06/11/2014	14:04:45.086	$GPGGA,140454,2528.3097,N,08002.7814,W,1,8,1.6,16,M,,M,,*58
06/11/2014	14:04:46.105	$GPGGA,140455,2528.3082,N,08002.7812,W,1,8,1.6,16,M,,M,,*5B
06/11/2014	14:04:47.135	$GPGGA,140456,2528.3064,N,08002.7811,W,1,8,1.6,16,M,,M,,*53
06/11/2014	14:04:48.158	$GPGGA,140457,2528.3051,N,08002.7811,W,1,8,1.6,16,M,,M,,*54
06/11/2014	14:04:49.182	$GPGGA,140458,2528.3035,N,08002.7810,W,1,8,1.5,16,M,,M,,*5B
06/11/2014	14:04:50.237	$GPGGA,140459,2528.3019,N,08002.7811,W,1,8,1.6,16,M,,M,,*56
06/11/2014	14:04:51.282	$GPGGA,140500,2528.3004,N,08002.7810,W,1,8,1.5,16,M,,M,,*55
06/11/2014	14:04:52.277	$GPGGA,140501,2528.2990,N,08002.7811,W,1,9,1.5,16,M,,M,,*51
06/11/2014	14:04:53.433	$GPGGA,140502,2528.2973,N,08002.7811,W,1,9,1.7,16,M,,M,,*5D
06/11/2014	14:04:54.356	$GPGGA,140503,2528.2959,N,08002.7811,W,1,9,1.5,16,M,,M,,*56
06/11/2014	14:04:55.396	$GPGGA,140504,2528.2944,N,08002.7810,W,1,9,1.5,16,M,,M,,*5C
06/11/2014	14:04:56.431	$GPGGA,140505,2528.2930,N,08002.7811,W,1,8,1.7,16,M,,M,,*5C
06/11/2014	14:04:57.537	$GPGGA,140506,2528.2913,N,08002.7811,W,1,8,1.7,16,M,,M,,*5E
06/11/2014	14:04:58.603	$GPGGA,140507,2528.2897,N,08002.7811,W,1,9,1.5,16,M,,M,,*51
06/11/2014	14:04:59.617	$GPGGA,140508,2528.2883,N,08002.7811,W,1,9,1.6,16,M,,M,,*58
06/11/2014	14:05:00.661	$GPGGA,140509,2528.2866,N,08002.7811,W,1,9,1.5,16,M,,M,,*51
06/11/2014	14:05:01.664	$GPGGA,140510,2528.2850,N,08002.7812,W,1,9,1.5,16,M,,M,,*5F
06/11/2014	14:05:02.698	$GPGGA,140511,2528.2834,N,08002.7814,W,1,9,1.5,16,M,,M,,*5A
06/11/2014	14:05:03.743	$GPGGA,140512,2528.2818,N,08002.7813,W,1,9,1.5,16,M,,M,,*50
06/11/2014	14:05:04.787	$GPGGA,140513,2528.2803,N,08002.7814,W,1,9,1.5,16,M,,M,,*5C
06/11/2014	14:05:05.790	$GPGGA,140514,2528.2786,N,08002.7814,W,1,9,1.5,16,M,,M,,*59
06/11/2014	14:05:06.845	$GPGGA,140515,2528.2771,N,08002.7815,W,1,9,1.5,16,M,,M,,*51
06/11/2014	14:05:07.879	$GPGGA,140516,2528.2755,N,08002.7815,W,1,9,1.5,16,M,,M,,*54
06/11/2014	14:05:08.926	$GPGGA,140517,2528.2739,N,08002.7816,W,1,9,1.5,16,M,,M,,*5C
06/11/2014	14:05:09.917	$GPGGA,140518,2528.2724,N,08002.7818,W,1,9,1.5,16,M,,M,,*51
06/11/2014	14:05:10.951	$GPGGA,140519,2528.2708,N,08002.7818,W,1,9,1.5,16,M,,M,,*5E
06/11/2014	14:05:11.995	$GPGGA,140520,2528.2693,N,08002.7818,W,1,9,1.5,16,M,,M,,*57
06/11/2014	14:05:13.009	$GPGGA,140521,2528.2678,N,08002.7819,W,1,9,1.5,16,M,,M,,*52
06/11/2014	14:05:14.073	$GPGGA,140522,2528.2663,N,08002.7819,W,1,9,1.5,16,M,,M,,*5B
06/11/2014	14:05:15.107	$GPGGA,140523,2528.2648,N,08002.7819,W,1,9,1.5,16,M,,M,,*53
06/11/2014	14:05:16.142	$GPGGA,140524,2528.2634,N,08002.7821,W,1,9,1.5,16,M,,M,,*54
06/11/2014	14:05:17.142	$GPGGA,140525,2528.2618,N,08002.7820,W,1,9,1.5,16,M,,M,,*5A
06/11/2014	14:05:18.179	$GPGGA,140526,2528.2602,N,08002.7821,W,1,9,1.5,16,M,,M,,*53
06/11/2014	14:05:19.203	$GPGGA,140527,2528.2587,N,08002.7822,W,1,9,1.5,17,M,,M,,*5E
06/11/2014	14:05:20.258	$GPGGA,140528,2528.2571,N,08002.7821,W,1,9,1.5,17,M,,M,,*5B
06/11/2014	14:05:21.313	$GPGGA,140529,2528.2556,N,08002.7822,W,1,9,1.5,17,M,,M,,*5C
06/11/2014	14:05:22.316	$GPGGA,140530,2528.2541,N,08002.7821,W,1,9,1.5,17,M,,M,,*51
06/11/2014	14:05:23.360	$GPGGA,140531,2528.2527,N,08002.7822,W,1,9,1.5,17,M,,M,,*53
06/11/2014	14:05:24.384	$GPGGA,140532,2528.2512,N,08002.7820,W,1,9,1.7,17,M,,M,,*56
06/11/2014	14:05:25.408	$GPGGA,140533,2528.2497,N,08002.7821,W,1,8,1.7,17,M,,M,,*5B
06/11/2014	14:05:26.432	$GPGGA,140534,2528.2482,N,08002.7820,W,1,8,1.5,16,M,,M,,*5A
06/11/2014	14:05:27.456	$GPGGA,140535,2528.2465,N,08002.7821,W,1,9,1.5,16,M,,M,,*52
06/11/2014	14:05:28.511	$GPGGA,140536,2528.2447,N,08002.7820,W,1,9,1.5,16,M,,M,,*50
06/11/2014	14:05:29.555	$GPGGA,140537,2528.2430,N,08002.7821,W,1,8,1.6,16,M,,M,,*52
06/11/2014	14:05:30.558	$GPGGA,140538,2528.2413,N,08002.7820,W,1,8,1.6,16,M,,M,,*5D
06/11/2014	14:05:31.623	$GPGGA,140539,2528.2396,N,08002.7819,W,1,8,1.6,16,M,,M,,*5C
06/11/2014	14:05:32.646	$GPGGA,140540,2528.2381,N,08002.7818,W,1,8,1.6,16,M,,M,,*55
06/11/2014	14:05:33.670	$GPGGA,140541,2528.2363,N,08002.7818,W,1,8,1.6,16,M,,M,,*58
06/11/2014	14:05:34.694	$GPGGA,140542,2528.2347,N,08002.7817,W,1,8,1.6,16,M,,M,,*52
06/11/2014	14:05:35.718	$GPGGA,140543,2528.2331,N,08002.7818,W,1,8,1.6,16,M,,M,,*5D
06/11/2014	14:05:36.773	$GPGGA,140544,2528.2316,N,08002.7816,W,1,8,1.6,16,M,,M,,*51
06/11/2014	14:05:37.900	$GPGGA,140545,2528.2299,N,08002.7815,W,1,8,1.6,16,M,,M,,*55
06/11/2014	14:05:38.810	$GPGGA,140546,2528.2288,N,08002.7815,W,1,8,1.6,16,M,,M,,*56
06/11/2014	14:05:39.979	$GPGGA,140547,2528.2274,N,08002.7815,W,1,9,1.5,16,M,,M,,*56
06/11/2014	14:05:40.889	$GPGGA,140548,2528.2258,N,08002.7815,W,1,9,1.5,16,M,,M,,*57
06/11/2014	14:05:41.902	$GPGGA,140549,2528.2241,N,08002.7814,W,1,8,1.6,16,M,,M,,*5D
06/11/2014	14:05:42.947	$GPGGA,140550,2528.2226,N,08002.7813,W,1,8,1.5,16,M,,M,,*50
06/11/2014	14:05:44.114	$GPGGA,140551,2528.2212,N,08002.7814,W,1,9,1.5,16,M,,M,,*50
06/11/2014	14:05:45.141	$GPGGA,140552,2528.2195,N,08002.7812,W,1,9,1.5,16,M,,M,,*59
06/11/2014	14:05:46.039	$GPGGA,140553,2528.2179,N,08002.7811,W,1,8,1.6,16,M,,M,,*5B
06/11/2014	14:05:47.085	$GPGGA,140554,2528.2164,N,08002.7810,W,1,8,1.6,16,M,,M,,*51
06/11/2014	14:05:48.212	$GPGGA,140555,2528.2148,N,08002.7809,W,1,8,1.6,16,M,,M,,*56
06/11/2014	14:05:49.142	$GPGGA,140556,2528.2132,N,08002.7808,W,1,8,1.6,16,M,,M,,*59
06/11/2014	14:05:50.289	$GPGGA,140557,2528.2117,N,08002.7808,W,1,8,1.6,16,M,,M,,*5F
06/11/2014	14:05:51.292	$GPGGA,140558,2528.2101,N,08002.7807,W,1,8,1.5,16,M,,M,,*5B
06/11/2014	14:05:52.233	$GPGGA,140559,2528.2085,N,08002.7806,W,1,8,1.6,16,M,,M,,*55
06/11/2014	14:05:53.403	$GPGGA,140600,2528.2068,N,08002.7805,W,1,8,1.6,16,M,,M,,*5A
06/11/2014	14:05:54.436	$GPGGA,140601,2528.2052,N,08002.7805,W,1,8,1.6,16,M,,M,,*52
06/11/2014	14:05:55.439	$GPGGA,140602,2528.2036,N,08002.7804,W,1,8,1.6,16,M,,M,,*52
06/11/2014	14:05:56.494	$GPGGA,140603,2528.2021,N,08002.7804,W,1,8,1.6,16,M,,M,,*55
06/11/2014	14:05:57.518	$GPGGA,140604,2528.2006,N,08002.7803,W,1,8,1.6,16,M,,M,,*50
06/11/2014	14:05:58.542	$GPGGA,140605,2528.1992,N,08002.7804,W,1,8,1.6,16,M,,M,,*51
06/11/2014	14:05:59.566	$GPGGA,140606,2528.1980,N,08002.7803,W,1,8,1.5,16,M,,M,,*55
06/11/2014	14:06:00.610	$GPGGA,140607,2528.1965,N,08002.7803,W,1,8,1.7,16,M,,M,,*5D
06/11/2014	14:06:01.644	$GPGGA,140608,2528.1952,N,08002.7804,W,1,8,1.5,16,M,,M,,*53
06/11/2014	14:06:02.648	$GPGGA,140609,2528.1938,N,08002.7804,W,1,9,1.5,16,M,,M,,*5F
06/11/2014	14:06:03.682	$GPGGA,140610,2528.1922,N,08002.7804,W,1,9,1.5,16,M,,M,,*5C
06/11/2014	14:06:04.726	$GPGGA,140611,2528.1908,N,08002.7804,W,1,9,1.5,16,M,,M,,*55
06/11/2014	14:06:05.771	$GPGGA,140612,2528.1893,N,08002.7805,W,1,9,1.5,16,M,,M,,*54
06/11/2014	14:06:06.775	$GPGGA,140613,2528.1877,N,08002.7805,W,1,9,1.5,16,M,,M,,*5F
06/11/2014	14:06:07.817	$GPGGA,140614,2528.1862,N,08002.7807,W,1,9,1.5,16,M,,M,,*5E
06/11/2014	14:06:08.872	$GPGGA,140615,2528.1846,N,08002.7806,W,1,9,1.5,16,M,,M,,*58
06/11/2014	14:06:09.896	$GPGGA,140616,2528.1832,N,08002.7807,W,1,9,1.5,16,M,,M,,*59
06/11/2014	14:06:10.941	$GPGGA,140617,2528.1816,N,08002.7807,W,1,9,1.5,16,M,,M,,*5E
06/11/2014	14:06:11.944	$GPGGA,140618,2528.1800,N,08002.7807,W,1,9,1.5,16,M,,M,,*56
06/11/2014	14:06:13.009	$GPGGA,140619,2528.1785,N,08002.7808,W,1,9,1.5,16,M,,M,,*5A
06/11/2014	14:06:14.023	$GPGGA,140620,2528.1769,N,08002.7809,W,1,9,1.5,16,M,,M,,*53
06/11/2014	14:06:15.067	$GPGGA,140621,2528.1754,N,08002.7809,W,1,9,1.5,16,M,,M,,*5C
06/11/2014	14:06:16.071	$GPGGA,140622,2528.1738,N,08002.7809,W,1,9,1.5,16,M,,M,,*55
06/11/2014	14:06:17.136	$GPGGA,140623,2528.1723,N,08002.7811,W,1,9,1.5,16,M,,M,,*57
06/11/2014	14:06:19.163	$GPGGA,140625,2528.1692,N,08002.7811,W,1,9,1.5,16,M,,M,,*5A
06/11/2014	14:06:20.207	$GPGGA,140626,2528.1677,N,08002.7812,W,1,9,1.5,16,M,,M,,*51
06/11/2014	14:06:21.252	$GPGGA,140627,2528.1662,N,08002.7814,W,1,9,1.5,16,M,,M,,*52
06/11/2014	14:06:22.296	$GPGGA,140628,2528.1647,N,08002.7813,W,1,9,1.5,16,M,,M,,*5D
06/11/2014	14:06:23.300	$GPGGA,140629,2528.1631,N,08002.7814,W,1,9,1.5,16,M,,M,,*5A
06/11/2014	14:06:24.344	$GPGGA,140630,2528.1615,N,08002.7814,W,1,9,1.5,16,M,,M,,*54
06/11/2014	14:06:25.368	$GPGGA,140631,2528.1600,N,08002.7815,W,1,9,1.5,16,M,,M,,*50
06/11/2014	14:06:26.508	$GPGGA,140632,2528.1584,N,08002.7816,W,1,9,1.5,16,M,,M,,*5F
06/11/2014	14:06:27.434	$GPGGA,140633,2528.1568,N,08002.7815,W,1,9,1.5,16,M,,M,,*5F
06/11/2014	14:06:28.552	$GPGGA,140634,2528.1553,N,08002.7816,W,1,9,1.6,16,M,,M,,*50
06/11/2014	14:06:29.586	$GPGGA,140635,2528.1539,N,08002.7816,W,1,8,1.7,16,M,,M,,*5D
06/11/2014	14:06:30.548	$GPGGA,140636,2528.1523,N,08002.7815,W,1,8,1.5,16,M,,M,,*54
06/11/2014	14:06:31.572	$GPGGA,140637,2528.1507,N,08002.7816,W,1,8,1.6,16,M,,M,,*53
06/11/2014	14:06:32.586	$GPGGA,140638,2528.1490,N,08002.7816,W,1,8,1.6,16,M,,M,,*53
06/11/2014	14:06:33.630	$GPGGA,140639,2528.1474,N,08002.7816,W,1,8,1.6,16,M,,M,,*58
06/11/2014	14:06:34.675	$GPGGA,140640,2528.1457,N,08002.7816,W,1,8,1.6,16,M,,M,,*57
06/11/2014	14:06:35.688	$GPGGA,140641,2528.1441,N,08002.7818,W,1,8,1.6,16,M,,M,,*5F
06/11/2014	14:06:36.712	$GPGGA,140642,2528.1425,N,08002.7817,W,1,8,1.6,16,M,,M,,*51
06/11/2014	14:06:37.746	$GPGGA,140643,2528.1409,N,08002.7816,W,1,8,1.6,16,M,,M,,*5F
06/11/2014	14:06:38.884	$GPGGA,140644,2528.1396,N,08002.7816,W,1,8,1.6,16,M,,M,,*59
06/11/2014	14:06:44.563	$GPGGA,140645,2528.1382,N,08002.7818,W,1,9,1.5,16,M,,M,,*51
06/11/2014	14:06:45.577	$GPGGA,140646,2528.1370,N,08002.7816,W,1,9,1.5,16,M,,M,,*51
06/11/2014	14:06:46.632	$GPGGA,140647,2528.1356,N,08002.7815,W,1,9,1.5,16,M,,M,,*57
06/11/2014	14:06:47.656	$GPGGA,140648,2528.1341,N,08002.7815,W,1,9,1.5,16,M,,M,,*5E
06/11/2014	14:06:48.659	$GPGGA,140649,2528.1327,N,08002.7815,W,1,9,1.5,16,M,,M,,*5F
06/11/2014	14:06:49.713	$GPGGA,140650,2528.1311,N,08002.7814,W,1,9,1.5,16,M,,M,,*53
06/11/2014	14:06:50.757	$GPGGA,140651,2528.1297,N,08002.7813,W,1,9,1.5,16,M,,M,,*5A
06/11/2014	14:06:51.781	$GPGGA,140652,2528.1281,N,08002.7812,W,1,9,1.5,16,M,,M,,*5F
06/11/2014	14:06:52.795	$GPGGA,140653,2528.1266,N,08002.7811,W,1,9,1.5,16,M,,M,,*54
06/11/2014	14:06:53.829	$GPGGA,140654,2528.1251,N,08002.7810,W,1,9,1.5,16,M,,M,,*56
06/11/2014	14:06:54.884	$GPGGA,140655,2528.1236,N,08002.7811,W,1,9,1.5,16,M,,M,,*57
06/11/2014	14:06:55.907	$GPGGA,140656,2528.1222,N,08002.7809,W,1,9,1.5,16,M,,M,,*58
06/11/2014	14:06:56.921	$GPGGA,140657,2528.1207,N,08002.7808,W,1,9,1.5,16,M,,M,,*5F
06/11/2014	14:06:57.966	$GPGGA,140658,2528.1192,N,08002.7807,W,1,9,1.5,16,M,,M,,*50
06/11/2014	14:06:58.979	$GPGGA,140659,2528.1178,N,08002.7805,W,1,9,1.5,16,M,,M,,*57
06/11/2014	14:07:00.055	$GPGGA,140700,2528.1161,N,08002.7804,W,1,9,1.5,16,M,,M,,*53
06/11/2014	14:07:01.089	$GPGGA,140701,2528.1146,N,08002.7804,W,1,9,1.5,17,M,,M,,*56
06/11/2014	14:07:02.092	$GPGGA,140702,2528.1129,N,08002.7803,W,1,9,1.5,17,M,,M,,*5B
06/11/2014	14:07:03.157	$GPGGA,140703,2528.1113,N,08002.7801,W,1,8,1.6,17,M,,M,,*53
06/11/2014	14:07:04.160	$GPGGA,140704,2528.1099,N,08002.7801,W,1,8,1.5,17,M,,M,,*54
06/11/2014	14:07:05.174	$GPGGA,140705,2528.1082,N,08002.7800,W,1,9,1.5,17,M,,M,,*5F
06/11/2014	14:07:06.218	$GPGGA,140706,2528.1066,N,08002.7799,W,1,9,1.6,17,M,,M,,*5A
06/11/2014	14:07:07.241	$GPGGA,140707,2528.1049,N,08002.7800,W,1,8,1.6,17,M,,M,,*58
06/11/2014	14:07:08.296	$GPGGA,140708,2528.1033,N,08002.7797,W,1,8,1.6,17,M,,M,,*5B
06/11/2014	14:07:09.330	$GPGGA,140709,2528.1019,N,08002.7798,W,1,8,1.6,17,M,,M,,*5D
06/11/2014	14:07:10.354	$GPGGA,140710,2528.1002,N,08002.7797,W,1,8,1.6,17,M,,M,,*50
06/11/2014	14:07:11.388	$GPGGA,140711,2528.0990,N,08002.7796,W,1,8,1.6,17,M,,M,,*53
06/11/2014	14:07:12.423	$GPGGA,140712,2528.0975,N,08002.7796,W,1,8,1.5,17,M,,M,,*58
06/11/2014	14:07:13.448	$GPGGA,140713,2528.0961,N,08002.7796,W,1,9,1.5,17,M,,M,,*5D
06/11/2014	14:07:14.460	$GPGGA,140714,2528.0944,N,08002.7795,W,1,9,1.7,17,M,,M,,*5C
06/11/2014	14:07:15.505	$GPGGA,140715,2528.0928,N,08002.7796,W,1,9,1.5,17,M,,M,,*56
06/11/2014	14:07:16.549	$GPGGA,140716,2528.0912,N,08002.7796,W,1,9,1.5,17,M,,M,,*5C
06/11/2014	14:07:17.604	$GPGGA,140717,2528.0896,N,08002.7795,W,1,8,1.6,17,M,,M,,*51
06/11/2014	14:07:18.607	$GPGGA,140718,2528.0882,N,08002.7794,W,1,8,1.9,17,M,,M,,*55
06/11/2014	14:07:19.632	$GPGGA,140719,2528.0867,N,08002.7794,W,1,9,1.5,17,M,,M,,*52
06/11/2014	14:07:20.686	$GPGGA,140720,2528.0853,N,08002.7794,W,1,9,1.5,17,M,,M,,*5F
06/11/2014	14:07:21.699	$GPGGA,140721,2528.0838,N,08002.7794,W,1,9,1.5,17,M,,M,,*53
06/11/2014	14:07:22.847	$GPGGA,140722,2528.0824,N,08002.7796,W,1,9,1.5,17,M,,M,,*5F
06/11/2014	14:07:23.872	$GPGGA,140723,2528.0808,N,08002.7796,W,1,9,1.5,17,M,,M,,*50
06/11/2014	14:07:24.811	$GPGGA,140724,2528.0793,N,08002.7796,W,1,9,1.5,17,M,,M,,*5A
06/11/2014	14:07:25.939	$GPGGA,140725,2528.0778,N,08002.7797,W,1,9,1.5,18,M,,M,,*50
06/11/2014	14:07:26.973	$GPGGA,140726,2528.0762,N,08002.7798,W,1,9,1.5,18,M,,M,,*57
06/11/2014	14:07:27.986	$GPGGA,140727,2528.0748,N,08002.7798,W,1,9,1.5,18,M,,M,,*5E
06/11/2014	14:07:29.031	$GPGGA,140728,2528.0731,N,08002.7800,W,1,9,1.5,18,M,,M,,*51
06/11/2014	14:07:30.065	$GPGGA,140729,2528.0715,N,08002.7801,W,1,9,1.5,18,M,,M,,*57
06/11/2014	14:07:31.099	$GPGGA,140730,2528.0701,N,08002.7803,W,1,9,1.5,18,M,,M,,*58
06/11/2014	14:07:32.133	$GPGGA,140731,2528.0684,N,08002.7803,W,1,9,1.5,18,M,,M,,*55
06/11/2014	14:07:33.157	$GPGGA,140732,2528.0669,N,08002.7804,W,1,9,1.5,18,M,,M,,*52
06/11/2014	14:07:34.202	$GPGGA,140733,2528.0654,N,08002.7804,W,1,9,1.5,18,M,,M,,*5D
06/11/2014	14:07:35.216	$GPGGA,140734,2528.0638,N,08002.7805,W,1,9,1.5,18,M,,M,,*51
06/11/2014	14:07:36.239	$GPGGA,140735,2528.0623,N,08002.7807,W,1,9,1.5,18,M,,M,,*58
06/11/2014	14:07:37.315	$GPGGA,140736,2528.0609,N,08002.7807,W,1,9,1.5,18,M,,M,,*53
06/11/2014	14:07:38.339	$GPGGA,140737,2528.0593,N,08002.7808,W,1,9,1.5,18,M,,M,,*5D
06/11/2014	14:07:39.333	$GPGGA,140738,2528.0578,N,08002.7809,W,1,9,1.5,18,M,,M,,*56
06/11/2014	14:07:40.387	$GPGGA,140739,2528.0564,N,08002.7811,W,1,9,1.5,18,M,,M,,*53
06/11/2014	14:07:41.421	$GPGGA,140740,2528.0547,N,08002.7810,W,1,9,1.5,18,M,,M,,*5D
06/11/2014	14:07:42.465	$GPGGA,140741,2528.0531,N,08002.7811,W,1,9,1.5,18,M,,M,,*5C
06/11/2014	14:07:43.457	$GPGGA,140742,2528.0515,N,08002.7811,W,1,9,1.5,18,M,,M,,*59
06/11/2014	14:07:44.522	$GPGGA,140743,2528.0499,N,08002.7811,W,1,9,1.6,18,M,,M,,*5E
06/11/2014	14:07:45.556	$GPGGA,140744,2528.0484,N,08002.7811,W,1,9,1.5,18,M,,M,,*56
06/11/2014	14:07:44.525	$GPGGA,140745,2528.0468,N,08002.7811,W,1,9,1.6,18,M,,M,,*56
06/11/2014	14:07:45.528	$GPGGA,140746,2528.0452,N,08002.7811,W,1,9,1.5,18,M,,M,,*5F
06/11/2014	14:07:46.583	$GPGGA,140747,2528.0438,N,08002.7811,W,1,9,1.5,18,M,,M,,*52
06/11/2014	14:07:47.606	$GPGGA,140748,2528.0423,N,08002.7812,W,1,9,1.6,18,M,,M,,*57
06/11/2014	14:07:48.641	$GPGGA,140749,2528.0405,N,08002.7811,W,1,8,1.6,18,M,,M,,*50
06/11/2014	14:07:49.654	$GPGGA,140750,2528.0389,N,08002.7811,W,1,8,1.6,18,M,,M,,*5B
06/11/2014	14:07:50.688	$GPGGA,140751,2528.0373,N,08002.7811,W,1,8,1.6,18,M,,M,,*5F
06/11/2014	14:07:51.743	$GPGGA,140752,2528.0373,N,08002.7811,W,1,8,1.6,18,M,,M,,*5C
06/11/2014	14:07:52.788	$GPGGA,140753,2528.0341,N,08002.7811,W,1,9,1.6,18,M,,M,,*5D
06/11/2014	14:07:53.791	$GPGGA,140754,2528.0324,N,08002.7809,W,1,9,1.5,18,M,,M,,*53
06/11/2014	14:07:54.857	$GPGGA,140755,2528.0311,N,08002.7809,W,1,9,1.5,18,M,,M,,*54
06/11/2014	14:07:55.870	$GPGGA,140756,2528.0296,N,08002.7808,W,1,9,1.5,18,M,,M,,*58
06/11/2014	14:07:56.905	$GPGGA,140757,2528.0282,N,08002.7808,W,1,9,1.5,18,M,,M,,*5C
06/11/2014	14:07:57.917	$GPGGA,140758,2528.0269,N,08002.7807,W,1,9,1.5,18,M,,M,,*59
06/11/2014	14:07:58.961	$GPGGA,140759,2528.0255,N,08002.7806,W,1,9,1.5,18,M,,M,,*56
06/11/2014	14:08:00.016	$GPGGA,140800,2528.0242,N,08002.7807,W,1,9,1.5,18,M,,M,,*52
06/11/2014	14:08:01.126	$GPGGA,140801,2528.0228,N,08002.7805,W,1,9,1.5,18,M,,M,,*5D
06/11/2014	14:08:02.040	$GPGGA,140802,2528.0212,N,08002.7804,W,1,9,1.5,18,M,,M,,*56
06/11/2014	14:08:03.103	$GPGGA,140803,2528.0197,N,08002.7803,W,1,9,1.5,18,M,,M,,*5E
06/11/2014	14:08:04.142	$GPGGA,140804,2528.0181,N,08002.7802,W,1,9,1.5,18,M,,M,,*5F
06/11/2014	14:08:05.270	$GPGGA,140805,2528.0164,N,08002.7801,W,1,9,1.6,18,M,,M,,*55
06/11/2014	14:08:06.180	$GPGGA,140806,2528.0148,N,08002.7800,W,1,9,1.5,18,M,,M,,*5A
06/11/2014	14:08:07.214	$GPGGA,140807,2528.0134,N,08002.7799,W,1,9,1.5,18,M,,M,,*5F
06/11/2014	14:08:08.269	$GPGGA,140808,2528.0120,N,08002.7798,W,1,9,1.5,18,M,,M,,*54
06/11/2014	14:08:09.282	$GPGGA,140809,2528.0106,N,08002.7798,W,1,9,1.5,18,M,,M,,*51
06/11/2014	14:08:10.316	$GPGGA,140810,2528.0090,N,08002.7797,W,1,9,1.6,18,M,,M,,*5B
06/11/2014	14:08:11.433	$GPGGA,140811,2528.0073,N,08002.7795,W,1,8,1.6,18,M,,M,,*54
06/11/2014	14:08:12.478	$GPGGA,140812,2528.0062,N,08002.7796,W,1,8,1.6,18,M,,M,,*54
06/11/2014	14:08:13.522	$GPGGA,140813,2528.0048,N,08002.7795,W,1,9,1.5,18,M,,M,,*5C
06/11/2014	14:08:14.515	$GPGGA,140814,2528.0034,N,08002.7794,W,1,9,1.5,18,M,,M,,*51
06/11/2014	14:08:15.560	$GPGGA,140815,2528.0018,N,08002.7793,W,1,9,1.5,18,M,,M,,*59
06/11/2014	14:08:16.614	$GPGGA,140816,2528.0000,N,08002.7792,W,1,9,1.6,18,M,,M,,*51
06/11/2014	14:08:17.669	$GPGGA,140817,2527.9982,N,08002.7791,W,1,8,1.6,18,M,,M,,*57
06/11/2014	14:08:18.569	$GPGGA,140818,2527.9965,N,08002.7790,W,1,8,1.6,18,M,,M,,*50
06/11/2014	14:08:19.675	$GPGGA,140819,2527.9948,N,08002.7789,W,1,8,1.6,18,M,,M,,*56
06/11/2014	14:08:20.730	$GPGGA,140820,2527.9932,N,08002.7789,W,1,8,1.6,18,M,,M,,*51
06/11/2014	14:08:21.764	$GPGGA,140821,2527.9917,N,08002.7787,W,1,8,1.6,18,M,,M,,*59
06/11/2014	14:08:22.778	$GPGGA,140822,2527.9900,N,08002.7787,W,1,8,1.6,18,M,,M,,*5C
06/11/2014	14:08:23.843	$GPGGA,140823,2527.9883,N,08002.7787,W,1,8,1.6,18,M,,M,,*57
06/11/2014	14:08:24.846	$GPGGA,140824,2527.9870,N,08002.7786,W,1,8,1.7,18,M,,M,,*5C
06/11/2014	14:08:25.901	$GPGGA,140825,2527.9856,N,08002.7787,W,1,9,1.5,18,M,,M,,*5B
06/11/2014	14:08:26.905	$GPGGA,140826,2527.9839,N,08002.7787,W,1,9,1.5,18,M,,M,,*51
06/11/2014	14:08:27.969	$GPGGA,140827,2527.9827,N,08002.7786,W,1,8,1.6,18,M,,M,,*5C
06/11/2014	14:08:28.993	$GPGGA,140828,2527.9812,N,08002.7787,W,1,8,1.5,18,M,,M,,*57
06/11/2014	14:08:30.017	$GPGGA,140829,2527.9798,N,08002.7789,W,1,9,1.5,18,M,,M,,*54
06/11/2014	14:08:31.041	$GPGGA,140830,2527.9782,N,08002.7787,W,1,9,1.5,18,M,,M,,*59
06/11/2014	14:08:32.065	$GPGGA,140831,2527.9769,N,08002.7789,W,1,9,1.5,18,M,,M,,*53
06/11/2014	14:08:33.120	$GPGGA,140832,2527.9752,N,08002.7789,W,1,9,1.5,18,M,,M,,*58
06/11/2014	14:08:34.164	$GPGGA,140833,2527.9738,N,08002.7790,W,1,9,1.5,18,M,,M,,*5D
06/11/2014	14:08:35.177	$GPGGA,140834,2527.9723,N,08002.7789,W,1,9,1.5,18,M,,M,,*58
06/11/2014	14:08:36.190	$GPGGA,140835,2527.9708,N,08002.7790,W,1,9,1.5,18,M,,M,,*58
06/11/2014	14:08:37.245	$GPGGA,140836,2527.9693,N,08002.7792,W,1,9,1.5,18,M,,M,,*5A
06/11/2014	14:08:38.258	$GPGGA,140837,2527.9677,N,08002.7791,W,1,9,1.5,18,M,,M,,*52
06/11/2014	14:08:39.303	$GPGGA,140838,2527.9660,N,08002.7792,W,1,9,1.5,18,M,,M,,*58
06/11/2014	14:08:40.317	$GPGGA,140839,2527.9643,N,08002.7793,W,1,8,1.6,18,M,,M,,*5B
06/11/2014	14:08:41.361	$GPGGA,140840,2527.9626,N,08002.7791,W,1,8,1.5,18,M,,M,,*57
06/11/2014	14:08:42.437	$GPGGA,140841,2527.9610,N,08002.7793,W,1,9,1.5,17,M,,M,,*5F
06/11/2014	14:08:43.429	$GPGGA,140842,2527.9593,N,08002.7792,W,1,9,1.5,17,M,,M,,*55
06/11/2014	14:08:44.577	$GPGGA,140843,2527.9577,N,08002.7793,W,1,9,1.5,17,M,,M,,*5F
06/11/2014	14:08:45.498	$GPGGA,140844,2527.9561,N,08002.7793,W,1,9,1.5,17,M,,M,,*5F
06/11/2014	14:08:44.480	$GPGGA,140845,2527.9546,N,08002.7794,W,1,9,1.5,17,M,,M,,*5C
06/11/2014	14:08:45.484	$GPGGA,140846,2527.9530,N,08002.7793,W,1,9,1.5,17,M,,M,,*59
06/11/2014	14:08:46.539	$GPGGA,140847,2527.9514,N,08002.7794,W,1,9,1.5,17,M,,M,,*59
06/11/2014	14:08:47.573	$GPGGA,140848,2527.9498,N,08002.7796,W,1,9,1.5,17,M,,M,,*51
06/11/2014	14:08:48.586	$GPGGA,140849,2527.9482,N,08002.7795,W,1,9,1.5,17,M,,M,,*58
06/11/2014	14:08:49.703	$GPGGA,140850,2527.9465,N,08002.7796,W,1,9,1.6,17,M,,M,,*59
06/11/2014	14:08:50.655	$GPGGA,140851,2527.9449,N,08002.7796,W,1,9,1.5,17,M,,M,,*55
06/11/2014	14:08:51.688	$GPGGA,140852,2527.9434,N,08002.7797,W,1,9,1.6,17,M,,M,,*5E
06/11/2014	14:08:52.846	$GPGGA,140853,2527.9419,N,08002.7797,W,1,8,1.6,17,M,,M,,*51
06/11/2014	14:08:53.746	$GPGGA,140854,2527.9404,N,08002.7797,W,1,8,1.5,17,M,,M,,*59
06/11/2014	14:08:54.786	$GPGGA,140855,2527.9389,N,08002.7798,W,1,9,1.5,17,M,,M,,*54
06/11/2014	14:08:55.918	$GPGGA,140856,2527.9376,N,08002.7800,W,1,9,1.6,17,M,,M,,*5A
06/11/2014	14:08:56.848	$GPGGA,140857,2527.9363,N,08002.7799,W,1,9,1.5,17,M,,M,,*53
06/11/2014	14:08:57.883	$GPGGA,140858,2527.9346,N,08002.7800,W,1,9,1.5,17,M,,M,,*54
06/11/2014	14:08:58.917	$GPGGA,140859,2527.9330,N,08002.7800,W,1,8,1.6,17,M,,M,,*56
06/11/2014	14:08:59.941	$GPGGA,140900,2527.9314,N,08002.7799,W,1,8,1.6,17,M,,M,,*52
06/11/2014	14:09:00.985	$GPGGA,140901,2527.9299,N,08002.7800,W,1,8,1.6,17,M,,M,,*58
06/11/2014	14:09:02.102	$GPGGA,140902,2527.9285,N,08002.7799,W,1,8,1.6,17,M,,M,,*59
06/11/2014	14:09:03.033	$GPGGA,140903,2527.9268,N,08002.7800,W,1,8,1.6,17,M,,M,,*54
06/11/2014	14:09:04.191	$GPGGA,140904,2527.9253,N,08002.7798,W,1,8,1.6,17,M,,M,,*55
06/11/2014	14:09:05.227	$GPGGA,140905,2527.9238,N,08002.7797,W,1,8,1.6,17,M,,M,,*56
06/11/2014	14:09:06.229	$GPGGA,140906,2527.9223,N,08002.7797,W,1,8,1.6,17,M,,M,,*5F
06/11/2014	14:09:07.273	$GPGGA,140907,2527.9207,N,08002.7796,W,1,8,1.6,17,M,,M,,*59
06/11/2014	14:09:08.308	$GPGGA,140908,2527.9193,N,08002.7796,W,1,8,1.6,17,M,,M,,*58
06/11/2014	14:09:09.320	$GPGGA,140909,2527.9180,N,08002.7796,W,1,9,1.5,17,M,,M,,*59
06/11/2014	14:09:10.354	$GPGGA,140910,2527.9162,N,08002.7795,W,1,9,1.5,17,M,,M,,*5E
06/11/2014	14:09:11.399	$GPGGA,140911,2527.9149,N,08002.7796,W,1,8,1.6,17,M,,M,,*57
06/11/2014	14:09:12.433	$GPGGA,140912,2527.9133,N,08002.7795,W,1,8,1.5,17,M,,M,,*59
06/11/2014	14:09:13.467	$GPGGA,140913,2527.9116,N,08002.7794,W,1,8,1.6,17,M,,M,,*5D
06/11/2014	14:09:14.481	$GPGGA,140914,2527.9100,N,08002.7794,W,1,8,1.6,17,M,,M,,*5D
06/11/2014	14:09:15.535	$GPGGA,140915,2527.9084,N,08002.7794,W,1,8,1.6,16,M,,M,,*50
06/11/2014	14:09:16.549	$GPGGA,140916,2527.9068,N,08002.7793,W,1,8,1.6,16,M,,M,,*56
06/11/2014	14:09:17.593	$GPGGA,140917,2527.9052,N,08002.7793,W,1,8,1.6,16,M,,M,,*5E
06/11/2014	14:09:18.597	$GPGGA,140918,2527.9036,N,08002.7793,W,1,8,1.6,16,M,,M,,*53
06/11/2014	14:09:19.641	$GPGGA,140919,2527.9021,N,08002.7793,W,1,8,1.6,16,M,,M,,*54
06/11/2014	14:09:20.686	$GPGGA,140920,2527.9007,N,08002.7792,W,1,8,1.5,16,M,,M,,*58
06/11/2014	14:09:21.720	$GPGGA,140921,2527.8994,N,08002.7793,W,1,8,1.6,16,M,,M,,*59
06/11/2014	14:09:22.733	$GPGGA,140922,2527.8978,N,08002.7793,W,1,8,1.5,16,M,,M,,*5B
06/11/2014	14:09:23.799	$GPGGA,140923,2527.8962,N,08002.7791,W,1,8,1.6,16,M,,M,,*50
06/11/2014	14:09:24.823	$GPGGA,140924,2527.8951,N,08002.7793,W,1,8,1.6,16,M,,M,,*55
06/11/2014	14:09:25.851	$GPGGA,140925,2527.8938,N,08002.7791,W,1,9,1.5,16,M,,M,,*5B
06/11/2014	14:09:26.824	$GPGGA,140926,2527.8920,N,08002.7790,W,1,9,1.5,16,M,,M,,*50
06/11/2014	14:09:27.878	$GPGGA,140927,2527.8903,N,08002.7790,W,1,8,1.6,16,M,,M,,*52
06/11/2014	14:09:28.872	$GPGGA,140928,2527.8889,N,08002.7789,W,1,8,1.6,16,M,,M,,*56
06/11/2014	14:09:29.896	$GPGGA,140929,2527.8875,N,08002.7789,W,1,9,1.5,16,M,,M,,*56
06/11/2014	14:09:30.869	$GPGGA,140930,2527.8859,N,08002.7788,W,1,9,1.5,16,M,,M,,*51
06/11/2014	14:09:31.893	$GPGGA,140931,2527.8844,N,08002.7789,W,1,8,1.6,16,M,,M,,*5F
06/11/2014	14:09:34.469	$GPGGA,140933,2527.8813,N,08002.7787,W,1,8,1.6,16,M,,M,,*51
06/11/2014	14:09:34.935	$GPGGA,140934,2527.8798,N,08002.7787,W,1,8,1.5,16,M,,M,,*59
06/11/2014	14:09:35.949	$GPGGA,140935,2527.8783,N,08002.7787,W,1,9,1.5,16,M,,M,,*53
06/11/2014	14:09:36.953	$GPGGA,140936,2527.8768,N,08002.7786,W,1,9,1.5,16,M,,M,,*54
06/11/2014	14:09:37.959	$GPGGA,140937,2527.8752,N,08002.7787,W,1,9,1.5,16,M,,M,,*5D
06/11/2014	14:09:38.980	$GPGGA,140938,2527.8736,N,08002.7787,W,1,9,1.5,16,M,,M,,*50
06/11/2014	14:09:40.106	$GPGGA,140939,2527.8721,N,08002.7786,W,1,9,1.5,16,M,,M,,*56
06/11/2014	14:09:41.008	$GPGGA,140940,2527.8707,N,08002.7786,W,1,9,1.8,16,M,,M,,*51
06/11/2014	14:09:42.105	$GPGGA,140941,2527.8694,N,08002.7786,W,1,7,1.8,16,M,,M,,*55
06/11/2014	14:09:43.017	$GPGGA,140942,2527.8678,N,08002.7785,W,1,7,1.5,16,M,,M,,*5A
06/11/2014	14:09:44.121	$GPGGA,140943,2527.8661,N,08002.7787,W,1,9,1.5,16,M,,M,,*5F
06/11/2014	14:09:45.060	$GPGGA,140944,2527.8645,N,08002.7786,W,1,9,1.6,16,M,,M,,*5C
06/11/2014	14:09:44.514	$GPGGA,140945,2527.8631,N,08002.7786,W,1,8,1.6,16,M,,M,,*5F
06/11/2014	14:09:45.515	$GPGGA,140946,2527.8617,N,08002.7787,W,1,8,1.5,16,M,,M,,*5A
06/11/2014	14:09:46.448	$GPGGA,140947,2527.8602,N,08002.7787,W,1,9,1.5,16,M,,M,,*5E
06/11/2014	14:09:47.565	$GPGGA,140948,2527.8584,N,08002.7787,W,1,9,1.6,16,M,,M,,*5F
06/11/2014	14:09:48.557	$GPGGA,140949,2527.8569,N,08002.7786,W,1,8,1.6,16,M,,M,,*5D
06/11/2014	14:09:49.571	$GPGGA,140950,2527.8555,N,08002.7787,W,1,8,1.8,16,M,,M,,*55
06/11/2014	14:09:50.595	$GPGGA,140951,2527.8538,N,08002.7787,W,1,9,1.5,16,M,,M,,*53
06/11/2014	14:09:51.599	$GPGGA,140952,2527.8522,N,08002.7786,W,1,9,1.6,16,M,,M,,*59
06/11/2014	14:09:52.623	$GPGGA,140953,2527.8508,N,08002.7787,W,1,9,1.5,15,M,,M,,*51
06/11/2014	14:09:53.606	$GPGGA,140954,2527.8491,N,08002.7787,W,1,9,1.5,15,M,,M,,*57
06/11/2014	14:09:54.620	$GPGGA,140955,2527.8479,N,08002.7789,W,1,8,1.6,15,M,,M,,*5C
06/11/2014	14:09:55.644	$GPGGA,140956,2527.8462,N,08002.7787,W,1,8,1.5,15,M,,M,,*58
06/11/2014	14:09:56.668	$GPGGA,140957,2527.8448,N,08002.7787,W,1,8,1.6,15,M,,M,,*52
06/11/2014	14:09:57.652	$GPGGA,140958,2527.8432,N,08002.7789,W,1,8,1.5,15,M,,M,,*5D
06/11/2014	14:09:58.686	$GPGGA,140959,2527.8415,N,08002.7787,W,1,8,1.6,15,M,,M,,*54
06/11/2014	14:09:59.700	$GPGGA,141000,2527.8401,N,08002.7787,W,1,8,1.6,15,M,,M,,*55
06/11/2014	14:10:00.682	$GPGGA,141001,2527.8385,N,08002.7787,W,1,9,1.5,15,M,,M,,*5D
06/11/2014	14:10:01.696	$GPGGA,141002,2527.8374,N,08002.7789,W,1,9,1.6,15,M,,M,,*5D
06/11/2014	14:10:02.740	$GPGGA,141003,2527.8357,N,08002.7787,W,1,9,1.5,15,M,,M,,*50
06/11/2014	14:10:03.745	$GPGGA,141004,2527.8342,N,08002.7787,W,1,9,1.6,15,M,,M,,*50
06/11/2014	14:10:04.758	$GPGGA,141005,2527.8326,N,08002.7787,W,1,8,1.6,15,M,,M,,*52
06/11/2014	14:10:05.762	$GPGGA,141006,2527.8310,N,08002.7785,W,1,8,1.5,15,M,,M,,*55
06/11/2014	14:10:06.755	$GPGGA,141007,2527.8297,N,08002.7786,W,1,8,1.6,15,M,,M,,*5A
06/11/2014	14:10:07.790	$GPGGA,141008,2527.8278,N,08002.7786,W,1,8,1.6,15,M,,M,,*54
06/11/2014	14:10:08.783	$GPGGA,141009,2527.8261,N,08002.7785,W,1,9,1.5,15,M,,M,,*5C
06/11/2014	14:10:09.797	$GPGGA,141010,2527.8245,N,08002.7785,W,1,9,1.5,16,M,,M,,*51
06/11/2014	14:10:10.852	$GPGGA,141011,2527.8230,N,08002.7786,W,1,9,1.4,16,M,,M,,*50
06/11/2014	14:10:11.835	$GPGGA,141012,2527.8212,N,08002.7785,W,1,9,1.4,16,M,,M,,*50
06/11/2014	14:10:12.849	$GPGGA,141013,2527.8195,N,08002.7784,W,1,8,1.5,16,M,,M,,*5C
06/11/2014	14:10:13.853	$GPGGA,141014,2527.8178,N,08002.7785,W,1,8,1.5,16,M,,M,,*59
06/11/2014	14:10:14.846	$GPGGA,141015,2527.8162,N,08002.7784,W,1,8,1.5,16,M,,M,,*52
06/11/2014	14:10:15.891	$GPGGA,141016,2527.8145,N,08002.7782,W,1,8,1.5,16,M,,M,,*52
06/11/2014	14:10:16.884	$GPGGA,141017,2527.8129,N,08002.7782,W,1,8,1.5,16,M,,M,,*59
06/11/2014	14:10:17.882	$GPGGA,141018,2527.8113,N,08002.7781,W,1,8,1.5,16,M,,M,,*5C
06/11/2014	14:10:18.932	$GPGGA,141019,2527.8097,N,08002.7780,W,1,8,1.5,16,M,,M,,*51
06/11/2014	14:10:19.935	$GPGGA,141020,2527.8082,N,08002.7779,W,1,8,1.5,16,M,,M,,*59
06/11/2014	14:10:21.101	$GPGGA,141021,2527.8065,N,08002.7779,W,1,9,1.5,16,M,,M,,*50
06/11/2014	14:10:22.074	$GPGGA,141022,2527.8049,N,08002.7778,W,1,9,1.5,16,M,,M,,*5C
06/11/2014	14:10:23.063	$GPGGA,141023,2527.8033,N,08002.7777,W,1,8,1.5,17,M,,M,,*5F
06/11/2014	14:10:23.981	$GPGGA,141024,2527.8018,N,08002.7776,W,1,8,1.5,17,M,,M,,*50
06/11/2014	14:10:24.974	$GPGGA,141025,2527.8002,N,08002.7776,W,1,8,1.5,17,M,,M,,*5A
06/11/2014	14:10:26.092	$GPGGA,141026,2527.7988,N,08002.7775,W,1,8,1.5,17,M,,M,,*5E
06/11/2014	14:10:27.093	$GPGGA,141027,2527.7971,N,08002.7774,W,1,8,1.5,17,M,,M,,*58
06/11/2014	14:10:28.046	$GPGGA,141028,2527.7957,N,08002.7773,W,1,8,1.5,17,M,,M,,*54
06/11/2014	14:10:29.023	$GPGGA,141029,2527.7941,N,08002.7774,W,1,8,1.5,17,M,,M,,*55
06/11/2014	14:10:30.125	$GPGGA,141030,2527.7930,N,08002.7773,W,1,8,1.5,17,M,,M,,*5C
06/11/2014	14:10:31.242	$GPGGA,141031,2527.7917,N,08002.7774,W,1,9,1.4,17,M,,M,,*5F
06/11/2014	14:10:32.074	$GPGGA,141032,2527.7901,N,08002.7772,W,1,9,1.4,17,M,,M,,*5D
06/11/2014	14:10:33.075	$GPGGA,141033,2527.7885,N,08002.7771,W,1,8,1.5,17,M,,M,,*52
06/11/2014	14:10:34.170	$GPGGA,141034,2527.7868,N,08002.7770,W,1,8,1.5,17,M,,M,,*57
06/11/2014	14:10:35.257	$GPGGA,141035,2527.7854,N,08002.7771,W,1,8,1.5,17,M,,M,,*58
06/11/2014	14:10:36.207	$GPGGA,141036,2527.7838,N,08002.7770,W,1,8,1.5,17,M,,M,,*50
06/11/2014	14:10:37.312	$GPGGA,141037,2527.7825,N,08002.7768,W,1,8,1.4,17,M,,M,,*55
06/11/2014	14:10:38.257	$GPGGA,141038,2527.7813,N,08002.7768,W,1,8,1.4,17,M,,M,,*5F
06/11/2014	14:10:39.330	$GPGGA,141039,2527.7797,N,08002.7768,W,1,9,1.4,17,M,,M,,*5C
06/11/2014	14:10:40.283	$GPGGA,141040,2527.7782,N,08002.7767,W,1,9,1.5,17,M,,M,,*58
06/11/2014	14:10:41.327	$GPGGA,141041,2527.7765,N,08002.7766,W,1,8,1.5,17,M,,M,,*50
06/11/2014	14:10:42.301	$GPGGA,141042,2527.7749,N,08002.7767,W,1,8,1.4,17,M,,M,,*5D
06/11/2014	14:10:43.386	$GPGGA,141043,2527.7735,N,08002.7767,W,1,9,1.4,17,M,,M,,*56
06/11/2014	14:10:44.340	$GPGGA,141044,2527.7721,N,08002.7766,W,1,9,1.4,17,M,,M,,*55
06/11/2014	14:10:44.574	$GPGGA,141045,2527.7706,N,08002.7767,W,1,9,1.4,17,M,,M,,*50
06/11/2014	14:10:45.476	$GPGGA,141046,2527.7691,N,08002.7766,W,1,9,1.5,17,M,,M,,*5C
06/11/2014	14:10:46.550	$GPGGA,141047,2527.7677,N,08002.7767,W,1,10,1.4,17,M,,M,,*6D
06/11/2014	14:10:47.554	$GPGGA,141048,2527.7664,N,08002.7766,W,1,10,1.4,17,M,,M,,*61
06/11/2014	14:10:48.629	$GPGGA,141049,2527.7650,N,08002.7767,W,1,10,1.4,17,M,,M,,*66
06/11/2014	14:10:49.521	$GPGGA,141050,2527.7635,N,08002.7766,W,1,10,1.4,17,M,,M,,*6C
06/11/2014	14:10:50.616	$GPGGA,141051,2527.7620,N,08002.7767,W,1,10,1.4,17,M,,M,,*68
06/11/2014	14:10:51.591	$GPGGA,141052,2527.7605,N,08002.7766,W,1,10,1.4,17,M,,M,,*6D
06/11/2014	14:10:52.563	$GPGGA,141053,2527.7590,N,08002.7767,W,1,10,1.4,17,M,,M,,*62
06/11/2014	14:10:53.566	$GPGGA,141054,2527.7573,N,08002.7766,W,1,10,1.4,17,M,,M,,*69
06/11/2014	14:10:54.671	$GPGGA,141055,2527.7558,N,08002.7767,W,1,9,1.4,17,M,,M,,*58
06/11/2014	14:10:55.644	$GPGGA,141056,2527.7544,N,08002.7767,W,1,9,1.4,17,M,,M,,*56
06/11/2014	14:10:56.729	$GPGGA,141057,2527.7529,N,08002.7767,W,1,10,1.4,17,M,,M,,*64
06/11/2014	14:10:58.970	$GPGGA,141059,2527.7500,N,08002.7767,W,1,10,1.4,18,M,,M,,*6E
06/11/2014	14:10:59.700	$GPGGA,141100,2527.7484,N,08002.7768,W,1,10,1.5,17,M,,M,,*6F
06/11/2014	14:11:00.746	$GPGGA,141101,2527.7468,N,08002.7767,W,1,9,1.4,17,M,,M,,*5A
06/11/2014	14:11:01.658	$GPGGA,141102,2527.7451,N,08002.7768,W,1,9,1.4,17,M,,M,,*5C
06/11/2014	14:11:02.762	$GPGGA,141103,2527.7437,N,08002.7769,W,1,9,1.4,17,M,,M,,*5C
06/11/2014	14:11:03.695	$GPGGA,141104,2527.7421,N,08002.7768,W,1,9,1.4,17,M,,M,,*5D
06/11/2014	14:11:04.800	$GPGGA,141105,2527.7406,N,08002.7768,W,1,10,1.4,17,M,,M,,*61
06/11/2014	14:11:05.743	$GPGGA,141106,2527.7392,N,08002.7769,W,1,10,1.4,18,M,,M,,*66
06/11/2014	14:11:06.827	$GPGGA,141107,2527.7377,N,08002.7769,W,1,10,1.4,18,M,,M,,*6C
06/11/2014	14:11:07.852	$GPGGA,141108,2527.7361,N,08002.7768,W,1,10,1.4,18,M,,M,,*65
06/11/2014	14:11:08.754	$GPGGA,141109,2527.7347,N,08002.7769,W,1,10,1.4,18,M,,M,,*61
06/11/2014	14:11:09.778	$GPGGA,141110,2527.7331,N,08002.7769,W,1,10,1.5,18,M,,M,,*69
06/11/2014	14:11:10.892	$GPGGA,141111,2527.7316,N,08002.7768,W,1,9,1.5,18,M,,M,,*54
06/11/2014	14:11:11.825	$GPGGA,141112,2527.7299,N,08002.7768,W,1,9,1.6,18,M,,M,,*52
06/11/2014	14:11:12.798	$GPGGA,141113,2527.7284,N,08002.7768,W,1,8,1.6,18,M,,M,,*5E
06/11/2014	14:11:13.833	$GPGGA,141114,2527.7269,N,08002.7767,W,1,8,1.4,17,M,,M,,*58
06/11/2014	14:11:14.907	$GPGGA,141115,2527.7252,N,08002.7767,W,1,10,1.5,17,M,,M,,*69
06/11/2014	14:11:15.941	$GPGGA,141116,2527.7236,N,08002.7767,W,1,10,1.4,17,M,,M,,*69
06/11/2014	14:11:16.945	$GPGGA,141117,2527.7219,N,08002.7766,W,1,10,1.4,17,M,,M,,*64
06/11/2014	14:11:17.898	$GPGGA,141118,2527.7204,N,08002.7767,W,1,10,1.5,17,M,,M,,*67
06/11/2014	14:11:19.014	$GPGGA,141119,2527.7193,N,08002.7768,W,1,9,1.4,17,M,,M,,*5D
06/11/2014	14:11:19.987	$GPGGA,141120,2527.7176,N,08002.7767,W,1,9,1.5,17,M,,M,,*52
06/11/2014	14:11:20.980	$GPGGA,141121,2527.7161,N,08002.7767,W,1,9,1.5,17,M,,M,,*55
06/11/2014	14:11:22.005	$GPGGA,141122,2527.7146,N,08002.7768,W,1,9,1.5,17,M,,M,,*5C
06/11/2014	14:11:23.044	$GPGGA,141123,2527.7130,N,08002.7767,W,1,9,1.5,17,M,,M,,*53
06/11/2014	14:11:24.042	$GPGGA,141124,2527.7115,N,08002.7767,W,1,9,1.5,17,M,,M,,*53
06/11/2014	14:11:25.046	$GPGGA,141125,2527.7099,N,08002.7767,W,1,9,1.5,17,M,,M,,*57
06/11/2014	14:11:26.050	$GPGGA,141126,2527.7085,N,08002.7766,W,1,9,1.5,17,M,,M,,*58
06/11/2014	14:11:27.098	$GPGGA,141127,2527.7070,N,08002.7767,W,1,9,1.4,17,M,,M,,*53
06/11/2014	14:11:28.088	$GPGGA,141128,2527.7054,N,08002.7767,W,1,9,1.5,18,M,,M,,*54
06/11/2014	14:11:29.144	$GPGGA,141129,2527.7038,N,08002.7766,W,1,9,1.5,18,M,,M,,*5E
06/11/2014	14:11:30.094	$GPGGA,141130,2527.7023,N,08002.7767,W,1,9,1.5,18,M,,M,,*5D
06/11/2014	14:11:31.150	$GPGGA,141131,2527.7007,N,08002.7766,W,1,9,1.5,18,M,,M,,*5B
06/11/2014	14:11:32.132	$GPGGA,141132,2527.6991,N,08002.7767,W,1,9,1.5,18,M,,M,,*5E
06/11/2014	14:11:33.156	$GPGGA,141133,2527.6975,N,08002.7765,W,1,9,1.5,18,M,,M,,*57
06/11/2014	14:11:34.140	$GPGGA,141134,2527.6960,N,08002.7765,W,1,9,1.5,18,M,,M,,*54
06/11/2014	14:11:35.184	$GPGGA,141135,2527.6945,N,08002.7765,W,1,9,1.5,18,M,,M,,*52
06/11/2014	14:11:36.178	$GPGGA,141136,2527.6930,N,08002.7764,W,1,9,1.5,18,M,,M,,*52
06/11/2014	14:11:37.212	$GPGGA,141137,2527.6915,N,08002.7764,W,1,9,1.5,18,M,,M,,*54
06/11/2014	14:11:38.185	$GPGGA,141138,2527.6898,N,08002.7763,W,1,9,1.5,18,M,,M,,*58
06/11/2014	14:11:39.230	$GPGGA,141139,2527.6883,N,08002.7762,W,1,9,1.5,18,M,,M,,*52
06/11/2014	14:11:40.244	$GPGGA,141140,2527.6868,N,08002.7761,W,1,9,1.4,18,M,,M,,*5B
06/11/2014	14:11:41.279	$GPGGA,141141,2527.6852,N,08002.7760,W,1,10,1.5,17,M,,M,,*64
06/11/2014	14:11:42.241	$GPGGA,141142,2527.6837,N,08002.7760,W,1,10,1.5,17,M,,M,,*64
06/11/2014	14:11:43.265	$GPGGA,141143,2527.6837,N,08002.7760,W,1,10,1.4,17,M,,M,,*64
06/11/2014	14:11:44.279	$GPGGA,141144,2527.6807,N,08002.7757,W,1,10,1.5,17,M,,M,,*65
06/11/2014	14:11:44.465	$GPGGA,141145,2527.6792,N,08002.7756,W,1,9,1.5,17,M,,M,,*5E
06/11/2014	14:11:45.447	$GPGGA,141146,2527.6778,N,08002.7755,W,1,9,1.8,17,M,,M,,*57
06/11/2014	14:11:46.502	$GPGGA,141147,2527.6778,N,08002.7755,W,1,9,1.5,18,M,,M,,*54
06/11/2014	14:11:47.496	$GPGGA,141148,2527.6749,N,08002.7754,W,1,9,1.5,18,M,,M,,*58
06/11/2014	14:11:48.489	$GPGGA,141149,2527.6749,N,08002.7754,W,1,9,1.5,18,M,,M,,*59
06/11/2014	14:11:49.503	$GPGGA,141150,2527.6718,N,08002.7752,W,1,9,1.8,18,M,,M,,*5E
06/11/2014	14:11:50.568	$GPGGA,141151,2527.6703,N,08002.7751,W,1,8,1.5,18,M,,M,,*5A
06/11/2014	14:11:51.642	$GPGGA,141152,2527.6689,N,08002.7753,W,1,8,1.5,18,M,,M,,*58
06/11/2014	14:11:52.565	$GPGGA,141153,2527.6689,N,08002.7753,W,1,10,1.4,18,M,,M,,*61
06/11/2014	14:11:53.559	$GPGGA,141154,2527.6658,N,08002.7751,W,1,10,1.5,18,M,,M,,*69
06/11/2014	14:11:54.674	$GPGGA,141155,2527.6644,N,08002.7750,W,1,10,1.4,18,M,,M,,*65
06/11/2014	14:11:55.586	$GPGGA,141156,2527.6628,N,08002.7749,W,1,10,1.5,18,M,,M,,*65
06/11/2014	14:11:56.580	$GPGGA,141157,2527.6628,N,08002.7749,W,1,9,1.5,18,M,,M,,*5C
06/11/2014	14:11:57.685	$GPGGA,141158,2527.6598,N,08002.7748,W,1,9,1.5,18,M,,M,,*5A
06/11/2014	14:11:58.699	$GPGGA,141159,2527.6583,N,08002.7747,W,1,9,1.5,18,M,,M,,*5E
06/11/2014	14:11:59.734	$GPGGA,141200,2527.6570,N,08002.7747,W,1,9,1.5,18,M,,M,,*5D
