Software Version Number: 1	Data File Format Number: 1	Build Version Number: 1	Error Count Since VI Started: 0	Manufacturer: Raytheon	 Model Number: RayMarine 120	 S/N: 	 Cal Date: 	 Wind Direction Offset: 0.00	 Slope (M)1: 0.00	 Offset (B)1: 0.00	 Slope (M)2: 0.00	 Offset (B)2: 0.00	 Slope (M)3: 0.00	 Offset (B)3: 0.00	 Slope (M)4: 0.00	 Offset (B)4: 0.00	 Slope (M)5: 0.00	 Offset (B)5: 0.00	 Slope (M)6: 0.00	 Offset (B)6: 0.00
Computer Date	Computer Time	GGA String
06/09/2014	21:00:00.081	$GPGGA,210000,2541.0076,N,08004.8425,W,1,11,1.2,15,M,,M,,*60
06/09/2014	21:00:01.077	$GPGGA,210001,2541.0098,N,08004.8428,W,1,11,1.2,15,M,,M,,*6C
06/09/2014	21:00:02.083	$GPGGA,210002,2541.0122,N,08004.8427,W,1,11,1.2,15,M,,M,,*60
06/09/2014	21:00:03.112	$GPGGA,210003,2541.0144,N,08004.8428,W,1,11,1.2,15,M,,M,,*6E
06/09/2014	21:00:04.165	$GPGGA,210004,2541.0166,N,08004.8429,W,1,11,1.2,15,M,,M,,*68
06/09/2014	21:00:05.126	$GPGGA,210005,2541.0188,N,08004.8429,W,1,11,1.2,15,M,,M,,*69
06/09/2014	21:00:06.159	$GPGGA,210006,2541.0212,N,08004.8429,W,1,11,1.2,15,M,,M,,*6A
06/09/2014	21:00:07.183	$GPGGA,210007,2541.0234,N,08004.8429,W,1,11,1.2,15,M,,M,,*6F
06/09/2014	21:00:08.194	$GPGGA,210008,2541.0256,N,08004.8429,W,1,11,1.3,15,M,,M,,*65
06/09/2014	21:00:10.194	$GPGGA,210010,2541.0303,N,08004.8429,W,1,10,1.2,15,M,,M,,*6D
06/09/2014	21:00:11.246	$GPGGA,210011,2541.0327,N,08004.8429,W,1,11,1.2,15,M,,M,,*6B
06/09/2014	21:00:12.214	$GPGGA,210012,2541.0350,N,08004.8430,W,1,11,1.2,15,M,,M,,*60
06/09/2014	21:00:13.234	$GPGGA,210013,2541.0374,N,08004.8430,W,1,10,1.3,15,M,,M,,*67
06/09/2014	21:00:14.244	$GPGGA,210014,2541.0398,N,08004.8430,W,1,10,1.3,15,M,,M,,*62
06/09/2014	21:00:15.233	$GPGGA,210015,2541.0423,N,08004.8429,W,1,11,1.2,15,M,,M,,*6C
06/09/2014	21:00:16.252	$GPGGA,210016,2541.0448,N,08004.8428,W,1,11,1.2,15,M,,M,,*63
06/09/2014	21:00:17.282	$GPGGA,210017,2541.0473,N,08004.8427,W,1,11,1.2,15,M,,M,,*65
06/09/2014	21:00:18.252	$GPGGA,210018,2541.0497,N,08004.8425,W,1,11,1.2,15,M,,M,,*62
06/09/2014	21:00:19.282	$GPGGA,210019,2541.0520,N,08004.8424,W,1,11,1.2,15,M,,M,,*6F
06/09/2014	21:00:20.282	$GPGGA,210020,2541.0542,N,08004.8423,W,1,11,1.3,15,M,,M,,*67
06/09/2014	21:00:21.322	$GPGGA,210021,2541.0567,N,08004.8422,W,1,10,1.3,15,M,,M,,*61
06/09/2014	21:00:22.291	$GPGGA,210022,2541.0589,N,08004.8421,W,1,10,1.3,15,M,,M,,*61
06/09/2014	21:00:23.301	$GPGGA,210023,2541.0613,N,08004.8419,W,1,10,1.3,15,M,,M,,*6B
06/09/2014	21:00:24.311	$GPGGA,210024,2541.0636,N,08004.8418,W,1,10,1.3,15,M,,M,,*6A
06/09/2014	21:00:25.351	$GPGGA,210025,2541.0658,N,08004.8416,W,1,10,1.3,15,M,,M,,*6D
06/09/2014	21:00:26.331	$GPGGA,210026,2541.0682,N,08004.8415,W,1,10,1.3,15,M,,M,,*6A
06/09/2014	21:00:27.331	$GPGGA,210027,2541.0704,N,08004.8413,W,1,10,1.3,15,M,,M,,*62
06/09/2014	21:00:28.472	$GPGGA,210028,2541.0728,N,08004.8411,W,1,10,1.3,15,M,,M,,*61
06/09/2014	21:00:29.351	$GPGGA,210029,2541.0751,N,08004.8409,W,1,10,1.3,15,M,,M,,*67
06/09/2014	21:00:30.391	$GPGGA,210030,2541.0773,N,08004.8407,W,1,10,1.3,15,M,,M,,*61
06/09/2014	21:00:31.503	$GPGGA,210031,2541.0795,N,08004.8404,W,1,10,1.2,15,M,,M,,*6A
06/09/2014	21:00:32.390	$GPGGA,210032,2541.0819,N,08004.8402,W,1,10,1.2,15,M,,M,,*64
06/09/2014	21:00:33.500	$GPGGA,210033,2541.0842,N,08004.8400,W,1,11,1.3,15,M,,M,,*69
06/09/2014	21:00:34.387	$GPGGA,210034,2541.0866,N,08004.8397,W,1,11,1.3,15,M,,M,,*61
06/09/2014	21:00:35.398	$GPGGA,210035,2541.0889,N,08004.8394,W,1,11,1.2,15,M,,M,,*63
06/09/2014	21:00:36.520	$GPGGA,210036,2541.0914,N,08004.8391,W,1,11,1.2,15,M,,M,,*60
06/09/2014	21:00:37.530	$GPGGA,210037,2541.0936,N,08004.8389,W,1,11,1.2,15,M,,M,,*68
06/09/2014	21:00:38.520	$GPGGA,210038,2541.0961,N,08004.8386,W,1,11,1.2,15,M,,M,,*6A
06/09/2014	21:00:39.519	$GPGGA,210039,2541.0983,N,08004.8383,W,1,11,1.2,15,M,,M,,*62
06/09/2014	21:00:40.549	$GPGGA,210040,2541.1008,N,08004.8380,W,1,11,1.2,15,M,,M,,*64
06/09/2014	21:00:40.641	$GPGGA,210041,2541.1030,N,08004.8377,W,1,11,1.2,15,M,,M,,*66
06/09/2014	21:00:41.611	$GPGGA,210042,2541.1053,N,08004.8374,W,1,11,1.2,15,M,,M,,*63
06/09/2014	21:00:42.610	$GPGGA,210043,2541.1075,N,08004.8370,W,1,11,1.2,15,M,,M,,*62
06/09/2014	21:00:43.630	$GPGGA,210044,2541.1097,N,08004.8366,W,1,11,1.2,15,M,,M,,*6E
06/09/2014	21:00:44.671	$GPGGA,210045,2541.1117,N,08004.8361,W,1,11,1.2,15,M,,M,,*61
06/09/2014	21:00:45.630	$GPGGA,210046,2541.1140,N,08004.8356,W,1,11,1.2,15,M,,M,,*64
06/09/2014	21:00:46.650	$GPGGA,210047,2541.1160,N,08004.8352,W,1,11,1.2,15,M,,M,,*63
06/09/2014	21:00:47.662	$GPGGA,210048,2541.1182,N,08004.8346,W,1,11,1.2,15,M,,M,,*65
06/09/2014	21:00:48.674	$GPGGA,210049,2541.1203,N,08004.8340,W,1,10,1.2,15,M,,M,,*69
06/09/2014	21:00:49.659	$GPGGA,210050,2541.1224,N,08004.8334,W,1,10,1.2,15,M,,M,,*67
06/09/2014	21:00:50.699	$GPGGA,210051,2541.1243,N,08004.8326,W,1,10,1.3,15,M,,M,,*65
06/09/2014	21:00:51.688	$GPGGA,210052,2541.1261,N,08004.8316,W,1,10,1.2,15,M,,M,,*64
06/09/2014	21:00:52.698	$GPGGA,210053,2541.1279,N,08004.8307,W,1,11,1.2,15,M,,M,,*6D
06/09/2014	21:00:53.688	$GPGGA,210054,2541.1299,N,08004.8298,W,1,11,1.3,15,M,,M,,*62
06/09/2014	21:00:54.708	$GPGGA,210055,2541.1315,N,08004.8291,W,1,10,1.2,15,M,,M,,*6F
06/09/2014	21:00:55.708	$GPGGA,210056,2541.1333,N,08004.8283,W,1,10,1.2,15,M,,M,,*6B
06/09/2014	21:00:56.708	$GPGGA,210057,2541.1351,N,08004.8273,W,1,11,1.2,15,M,,M,,*60
06/09/2014	21:00:57.728	$GPGGA,210058,2541.1369,N,08004.8263,W,1,11,1.2,16,M,,M,,*66
06/09/2014	21:00:58.727	$GPGGA,210059,2541.1387,N,08004.8254,W,1,11,1.2,16,M,,M,,*63
06/09/2014	21:00:59.778	$GPGGA,210100,2541.1404,N,08004.8243,W,1,11,1.2,16,M,,M,,*64
06/09/2014	21:01:00.737	$GPGGA,210101,2541.1420,N,08004.8232,W,1,11,1.2,16,M,,M,,*65
06/09/2014	21:01:01.757	$GPGGA,210102,2541.1438,N,08004.8220,W,1,11,1.2,16,M,,M,,*6C
06/09/2014	21:01:02.787	$GPGGA,210103,2541.1456,N,08004.8209,W,1,11,1.2,16,M,,M,,*6E
06/09/2014	21:01:03.797	$GPGGA,210104,2541.1474,N,08004.8196,W,1,11,1.2,16,M,,M,,*6C
06/09/2014	21:01:04.797	$GPGGA,210105,2541.1491,N,08004.8183,W,1,11,1.2,16,M,,M,,*62
06/09/2014	21:01:05.827	$GPGGA,210106,2541.1509,N,08004.8171,W,1,11,1.2,16,M,,M,,*6C
06/09/2014	21:01:06.776	$GPGGA,210107,2541.1527,N,08004.8158,W,1,11,1.3,16,M,,M,,*6B
06/09/2014	21:01:07.826	$GPGGA,210108,2541.1545,N,08004.8144,W,1,11,1.2,16,M,,M,,*6C
06/09/2014	21:01:08.836	$GPGGA,210109,2541.1564,N,08004.8132,W,1,11,1.2,16,M,,M,,*6F
06/09/2014	21:01:09.805	$GPGGA,210110,2541.1582,N,08004.8120,W,1,11,1.2,16,M,,M,,*6C
06/09/2014	21:01:10.946	$GPGGA,210111,2541.1600,N,08004.8107,W,1,11,1.2,16,M,,M,,*61
06/09/2014	21:01:11.856	$GPGGA,210112,2541.1619,N,08004.8094,W,1,11,1.2,16,M,,M,,*61
06/09/2014	21:01:12.865	$GPGGA,210113,2541.1640,N,08004.8082,W,1,11,1.2,16,M,,M,,*6B
06/09/2014	21:01:13.855	$GPGGA,210114,2541.1658,N,08004.8070,W,1,11,1.2,16,M,,M,,*68
06/09/2014	21:01:14.986	$GPGGA,210115,2541.1679,N,08004.8058,W,1,11,1.2,16,M,,M,,*60
06/09/2014	21:01:15.915	$GPGGA,210116,2541.1698,N,08004.8047,W,1,11,1.3,16,M,,M,,*63
06/09/2014	21:01:16.856	$GPGGA,210117,2541.1719,N,08004.8036,W,1,10,1.2,16,M,,M,,*6C
06/09/2014	21:01:17.975	$GPGGA,210118,2541.1738,N,08004.8025,W,1,10,1.2,16,M,,M,,*62
06/09/2014	21:01:18.904	$GPGGA,210119,2541.1758,N,08004.8015,W,1,11,1.2,16,M,,M,,*67
06/09/2014	21:01:19.934	$GPGGA,210120,2541.1777,N,08004.8005,W,1,11,1.2,16,M,,M,,*61
06/09/2014	21:01:20.901	$GPGGA,210121,2541.1798,N,08004.7995,W,1,11,1.2,16,M,,M,,*6E
06/09/2014	21:01:21.914	$GPGGA,210122,2541.1817,N,08004.7985,W,1,11,1.2,16,M,,M,,*64
06/09/2014	21:01:22.924	$GPGGA,210123,2541.1839,N,08004.7975,W,1,11,1.2,16,M,,M,,*66
06/09/2014	21:01:24.044	$GPGGA,210124,2541.1860,N,08004.7965,W,1,11,1.2,16,M,,M,,*6C
06/09/2014	21:01:25.026	$GPGGA,210125,2541.1879,N,08004.7954,W,1,11,1.2,16,M,,M,,*67
06/09/2014	21:01:26.034	$GPGGA,210126,2541.1900,N,08004.7943,W,1,11,1.2,16,M,,M,,*6D
06/09/2014	21:01:27.072	$GPGGA,210127,2541.1921,N,08004.7933,W,1,11,1.2,16,M,,M,,*68
06/09/2014	21:01:28.069	$GPGGA,210128,2541.1942,N,08004.7923,W,1,11,1.2,16,M,,M,,*63
06/09/2014	21:01:29.053	$GPGGA,210129,2541.1962,N,08004.7912,W,1,11,1.2,16,M,,M,,*62
06/09/2014	21:01:30.063	$GPGGA,210130,2541.1983,N,08004.7902,W,1,11,1.2,16,M,,M,,*64
06/09/2014	21:01:31.084	$GPGGA,210131,2541.2004,N,08004.7893,W,1,11,1.2,16,M,,M,,*69
06/09/2014	21:01:32.096	$GPGGA,210132,2541.2025,N,08004.7882,W,1,11,1.2,16,M,,M,,*69
06/09/2014	21:01:33.092	$GPGGA,210133,2541.2045,N,08004.7872,W,1,11,1.2,16,M,,M,,*61
06/09/2014	21:01:34.126	$GPGGA,210134,2541.2069,N,08004.7863,W,1,11,1.2,16,M,,M,,*68
06/09/2014	21:01:35.112	$GPGGA,210135,2541.2090,N,08004.7854,W,1,11,1.3,16,M,,M,,*6A
06/09/2014	21:01:36.142	$GPGGA,210136,2541.2110,N,08004.7843,W,1,11,1.3,16,M,,M,,*66
06/09/2014	21:01:37.156	$GPGGA,210137,2541.2132,N,08004.7834,W,1,10,1.3,16,M,,M,,*66
06/09/2014	21:01:38.132	$GPGGA,210138,2541.2155,N,08004.7825,W,1,10,1.5,16,M,,M,,*6E
06/09/2014	21:01:39.142	$GPGGA,210139,2541.2175,N,08004.7814,W,1,11,1.2,16,M,,M,,*69
06/09/2014	21:01:40.162	$GPGGA,210140,2541.2196,N,08004.7804,W,1,11,1.2,16,M,,M,,*6B
06/09/2014	21:01:40.593	$GPGGA,210141,2541.2217,N,08004.7794,W,1,11,1.2,16,M,,M,,*66
06/09/2014	21:01:41.567	$GPGGA,210142,2541.2238,N,08004.7785,W,1,11,1.2,16,M,,M,,*68
06/09/2014	21:01:42.576	$GPGGA,210143,2541.2258,N,08004.7775,W,1,11,1.2,16,M,,M,,*60
06/09/2014	21:01:43.586	$GPGGA,210144,2541.2279,N,08004.7764,W,1,11,1.2,16,M,,M,,*64
06/09/2014	21:01:44.626	$GPGGA,210145,2541.2300,N,08004.7754,W,1,11,1.2,16,M,,M,,*69
06/09/2014	21:01:45.606	$GPGGA,210146,2541.2320,N,08004.7744,W,1,11,1.2,16,M,,M,,*69
06/09/2014	21:01:46.626	$GPGGA,210147,2541.2341,N,08004.7733,W,1,11,1.2,16,M,,M,,*6F
06/09/2014	21:01:47.616	$GPGGA,210148,2541.2363,N,08004.7723,W,1,11,1.2,16,M,,M,,*61
06/09/2014	21:01:48.625	$GPGGA,210149,2541.2384,N,08004.7713,W,1,11,1.2,16,M,,M,,*6A
06/09/2014	21:01:49.625	$GPGGA,210150,2541.2406,N,08004.7703,W,1,11,1.2,16,M,,M,,*6E
06/09/2014	21:01:50.645	$GPGGA,210151,2541.2428,N,08004.7693,W,1,11,1.2,16,M,,M,,*6B
06/09/2014	21:01:51.655	$GPGGA,210152,2541.2449,N,08004.7684,W,1,11,1.2,16,M,,M,,*69
06/09/2014	21:01:52.665	$GPGGA,210153,2541.2471,N,08004.7674,W,1,10,1.2,16,M,,M,,*6D
06/09/2014	21:01:53.655	$GPGGA,210154,2541.2491,N,08004.7664,W,1,10,1.2,16,M,,M,,*65
06/09/2014	21:01:54.705	$GPGGA,210155,2541.2511,N,08004.7654,W,1,11,1.2,16,M,,M,,*6F
06/09/2014	21:01:55.715	$GPGGA,210156,2541.2532,N,08004.7643,W,1,11,1.2,16,M,,M,,*6B
06/09/2014	21:01:56.684	$GPGGA,210157,2541.2554,N,08004.7632,W,1,11,1.2,16,M,,M,,*6C
06/09/2014	21:01:57.715	$GPGGA,210158,2541.2574,N,08004.7621,W,1,11,1.2,16,M,,M,,*63
06/09/2014	21:01:58.694	$GPGGA,210159,2541.2594,N,08004.7611,W,1,11,1.2,16,M,,M,,*6F
06/09/2014	21:01:59.844	$GPGGA,210200,2541.2616,N,08004.7601,W,1,11,1.2,16,M,,M,,*68
06/09/2014	21:02:00.763	$GPGGA,210201,2541.2637,N,08004.7591,W,1,11,1.2,16,M,,M,,*60
06/09/2014	21:02:01.723	$GPGGA,210202,2541.2659,N,08004.7581,W,1,11,1.2,16,M,,M,,*6A
06/09/2014	21:02:02.743	$GPGGA,210203,2541.2681,N,08004.7571,W,1,11,1.2,16,M,,M,,*61
06/09/2014	21:02:03.884	$GPGGA,210204,2541.2702,N,08004.7561,W,1,11,1.2,16,M,,M,,*6D
06/09/2014	21:02:04.742	$GPGGA,210205,2541.2723,N,08004.7552,W,1,11,1.2,16,M,,M,,*6F
06/09/2014	21:02:05.762	$GPGGA,210206,2541.2744,N,08004.7542,W,1,11,1.2,16,M,,M,,*6C
06/09/2014	21:02:06.752	$GPGGA,210207,2541.2764,N,08004.7532,W,1,11,1.2,16,M,,M,,*68
06/09/2014	21:02:07.782	$GPGGA,210208,2541.2785,N,08004.7522,W,1,11,1.2,16,M,,M,,*69
06/09/2014	21:02:08.873	$GPGGA,210209,2541.2806,N,08004.7512,W,1,10,1.3,16,M,,M,,*6F
06/09/2014	21:02:09.873	$GPGGA,210210,2541.2825,N,08004.7502,W,1,10,1.2,16,M,,M,,*66
06/09/2014	21:02:10.802	$GPGGA,210211,2541.2846,N,08004.7492,W,1,11,1.2,16,M,,M,,*6B
06/09/2014	21:02:11.923	$GPGGA,210212,2541.2865,N,08004.7481,W,1,11,1.2,16,M,,M,,*6B
06/09/2014	21:02:12.902	$GPGGA,210213,2541.2885,N,08004.7469,W,1,11,1.2,16,M,,M,,*62
06/09/2014	21:02:13.821	$GPGGA,210214,2541.2905,N,08004.7458,W,1,11,1.2,16,M,,M,,*6E
06/09/2014	21:02:14.924	$GPGGA,210215,2541.2925,N,08004.7446,W,1,11,1.2,16,M,,M,,*62
06/09/2014	21:02:15.831	$GPGGA,210216,2541.2944,N,08004.7433,W,1,11,1.2,16,M,,M,,*64
06/09/2014	21:02:16.952	$GPGGA,210217,2541.2962,N,08004.7420,W,1,11,1.2,16,M,,M,,*63
06/09/2014	21:02:17.953	$GPGGA,210218,2541.2981,N,08004.7409,W,1,11,1.3,16,M,,M,,*6B
06/09/2014	21:02:18.952	$GPGGA,210219,2541.3001,N,08004.7395,W,1,11,1.2,16,M,,M,,*69
06/09/2014	21:02:19.971	$GPGGA,210220,2541.3019,N,08004.7381,W,1,11,1.2,16,M,,M,,*6F
06/09/2014	21:02:21.001	$GPGGA,210221,2541.3038,N,08004.7367,W,1,10,1.3,16,M,,M,,*65
06/09/2014	21:02:21.971	$GPGGA,210222,2541.3056,N,08004.7352,W,1,10,1.2,16,M,,M,,*69
06/09/2014	21:02:22.990	$GPGGA,210223,2541.3075,N,08004.7337,W,1,10,1.3,16,M,,M,,*6B
06/09/2014	21:02:24.010	$GPGGA,210224,2541.3093,N,08004.7322,W,1,10,1.2,16,M,,M,,*61
06/09/2014	21:02:25.010	$GPGGA,210225,2541.3113,N,08004.7308,W,1,11,1.2,16,M,,M,,*60
06/09/2014	21:02:26.000	$GPGGA,210226,2541.3131,N,08004.7293,W,1,11,1.2,16,M,,M,,*60
06/09/2014	21:02:27.041	$GPGGA,210227,2541.3149,N,08004.7279,W,1,10,1.3,16,M,,M,,*6A
06/09/2014	21:02:28.041	$GPGGA,210228,2541.3168,N,08004.7265,W,1,10,1.3,16,M,,M,,*6B
06/09/2014	21:02:29.050	$GPGGA,210229,2541.3186,N,08004.7251,W,1,10,1.3,16,M,,M,,*6D
06/09/2014	21:02:30.039	$GPGGA,210230,2541.3204,N,08004.7237,W,1,10,1.3,16,M,,M,,*6C
06/09/2014	21:02:31.059	$GPGGA,210231,2541.3223,N,08004.7223,W,1,10,1.3,16,M,,M,,*6D
06/09/2014	21:02:32.070	$GPGGA,210232,2541.3241,N,08004.7209,W,1,10,1.2,16,M,,M,,*63
06/09/2014	21:02:33.069	$GPGGA,210233,2541.3261,N,08004.7195,W,1,10,1.3,16,M,,M,,*67
06/09/2014	21:02:34.079	$GPGGA,210234,2541.3280,N,08004.7180,W,1,10,1.3,16,M,,M,,*6B
06/09/2014	21:02:35.098	$GPGGA,210235,2541.3298,N,08004.7166,W,1,10,1.3,16,M,,M,,*6B
06/09/2014	21:02:36.108	$GPGGA,210236,2541.3317,N,08004.7152,W,1,10,1.3,16,M,,M,,*69
06/09/2014	21:02:37.118	$GPGGA,210237,2541.3337,N,08004.7138,W,1,10,1.3,16,M,,M,,*66
06/09/2014	21:02:38.108	$GPGGA,210238,2541.3356,N,08004.7123,W,1,10,1.3,16,M,,M,,*64
06/09/2014	21:02:39.097	$GPGGA,210239,2541.3374,N,08004.7109,W,1,10,1.3,16,M,,M,,*6D
06/09/2014	21:02:40.137	$GPGGA,210240,2541.3393,N,08004.7095,W,1,10,1.3,16,M,,M,,*6E
06/09/2014	21:02:40.574	$GPGGA,210241,2541.3413,N,08004.7080,W,1,10,1.3,16,M,,M,,*64
06/09/2014	21:02:41.533	$GPGGA,210242,2541.3432,N,08004.7066,W,1,10,1.3,16,M,,M,,*6C
06/09/2014	21:02:42.543	$GPGGA,210243,2541.3450,N,08004.7052,W,1,10,1.3,16,M,,M,,*6E
06/09/2014	21:02:43.573	$GPGGA,210244,2541.3471,N,08004.7038,W,1,10,1.3,16,M,,M,,*66
06/09/2014	21:02:44.573	$GPGGA,210245,2541.3490,N,08004.7023,W,1,10,1.3,16,M,,M,,*62
06/09/2014	21:02:45.583	$GPGGA,210246,2541.3510,N,08004.7009,W,1,10,1.3,16,M,,M,,*60
06/09/2014	21:02:46.572	$GPGGA,210247,2541.3530,N,08004.6994,W,1,10,1.3,16,M,,M,,*6F
06/09/2014	21:02:47.602	$GPGGA,210248,2541.3551,N,08004.6980,W,1,10,1.3,16,M,,M,,*62
06/09/2014	21:02:48.592	$GPGGA,210249,2541.3570,N,08004.6966,W,1,9,1.4,16,M,,M,,*57
06/09/2014	21:02:49.612	$GPGGA,210250,2541.3591,N,08004.6951,W,1,9,1.3,16,M,,M,,*53
06/09/2014	21:02:50.622	$GPGGA,210251,2541.3611,N,08004.6937,W,1,10,1.3,16,M,,M,,*61
06/09/2014	21:02:51.622	$GPGGA,210252,2541.3631,N,08004.6922,W,1,10,1.3,15,M,,M,,*67
06/09/2014	21:02:52.641	$GPGGA,210253,2541.3652,N,08004.6907,W,1,10,1.3,15,M,,M,,*64
06/09/2014	21:02:53.728	$GPGGA,210254,2541.3674,N,08004.6892,W,1,10,1.3,15,M,,M,,*6A
06/09/2014	21:02:54.741	$GPGGA,210255,2541.3694,N,08004.6877,W,1,11,1.2,15,M,,M,,*6E
06/09/2014	21:02:55.671	$GPGGA,210256,2541.3714,N,08004.6861,W,1,11,1.2,15,M,,M,,*63
06/09/2014	21:02:56.660	$GPGGA,210257,2541.3734,N,08004.6845,W,1,11,1.2,15,M,,M,,*66
06/09/2014	21:02:57.769	$GPGGA,210258,2541.3754,N,08004.6830,W,1,11,1.2,15,M,,M,,*6D
06/09/2014	21:02:58.680	$GPGGA,210259,2541.3775,N,08004.6814,W,1,11,1.2,15,M,,M,,*69
06/09/2014	21:02:59.791	$GPGGA,210300,2541.3794,N,08004.6797,W,1,11,1.2,15,M,,M,,*6F
06/09/2014	21:03:00.821	$GPGGA,210301,2541.3815,N,08004.6780,W,1,11,1.2,15,M,,M,,*6E
06/09/2014	21:03:01.795	$GPGGA,210302,2541.3835,N,08004.6763,W,1,11,1.2,15,M,,M,,*62
06/09/2014	21:03:02.803	$GPGGA,210303,2541.3854,N,08004.6746,W,1,11,1.2,15,M,,M,,*63
06/09/2014	21:03:03.827	$GPGGA,210304,2541.3873,N,08004.6728,W,1,11,1.2,15,M,,M,,*69
06/09/2014	21:03:04.851	$GPGGA,210305,2541.3893,N,08004.6710,W,1,11,1.2,15,M,,M,,*6D
06/09/2014	21:03:05.857	$GPGGA,210306,2541.3912,N,08004.6691,W,1,11,1.2,15,M,,M,,*6E
06/09/2014	21:03:06.844	$GPGGA,210307,2541.3931,N,08004.6672,W,1,11,1.2,15,M,,M,,*63
06/09/2014	21:03:07.769	$GPGGA,210308,2541.3949,N,08004.6653,W,1,11,1.3,15,M,,M,,*61
06/09/2014	21:03:08.878	$GPGGA,210309,2541.3967,N,08004.6633,W,1,10,1.3,15,M,,M,,*6B
06/09/2014	21:03:09.859	$GPGGA,210310,2541.3985,N,08004.6612,W,1,10,1.5,15,M,,M,,*6A
06/09/2014	21:03:10.909	$GPGGA,210311,2541.3999,N,08004.6592,W,1,10,1.3,15,M,,M,,*6B
06/09/2014	21:03:11.894	$GPGGA,210312,2541.4016,N,08004.6572,W,1,10,1.2,15,M,,M,,*6E
06/09/2014	21:03:12.878	$GPGGA,210313,2541.4031,N,08004.6550,W,1,11,1.2,15,M,,M,,*6B
06/09/2014	21:03:13.898	$GPGGA,210314,2541.4046,N,08004.6530,W,1,11,1.3,15,M,,M,,*6B
06/09/2014	21:03:14.910	$GPGGA,210315,2541.4063,N,08004.6509,W,1,11,1.2,15,M,,M,,*66
06/09/2014	21:03:15.934	$GPGGA,210316,2541.4079,N,08004.6488,W,1,11,1.2,15,M,,M,,*66
06/09/2014	21:03:16.908	$GPGGA,210317,2541.4093,N,08004.6467,W,1,10,1.2,16,M,,M,,*60
06/09/2014	21:03:17.918	$GPGGA,210318,2541.4108,N,08004.6445,W,1,10,1.2,16,M,,M,,*6C
06/09/2014	21:03:18.927	$GPGGA,210319,2541.4121,N,08004.6425,W,1,10,1.2,16,M,,M,,*60
06/09/2014	21:03:19.938	$GPGGA,210320,2541.4133,N,08004.6403,W,1,10,1.2,16,M,,M,,*6D
06/09/2014	21:03:20.967	$GPGGA,210321,2541.4146,N,08004.6383,W,1,10,1.3,16,M,,M,,*60
06/09/2014	21:03:21.968	$GPGGA,210322,2541.4158,N,08004.6361,W,1,10,1.3,16,M,,M,,*60
06/09/2014	21:03:22.977	$GPGGA,210323,2541.4169,N,08004.6338,W,1,11,1.2,16,M,,M,,*6F
06/09/2014	21:03:23.977	$GPGGA,210324,2541.4180,N,08004.6316,W,1,11,1.4,16,M,,M,,*65
06/09/2014	21:03:24.967	$GPGGA,210325,2541.4189,N,08004.6294,W,1,10,1.3,16,M,,M,,*60
06/09/2014	21:03:26.007	$GPGGA,210326,2541.4198,N,08004.6272,W,1,10,1.2,16,M,,M,,*6A
06/09/2014	21:03:26.987	$GPGGA,210327,2541.4208,N,08004.6249,W,1,11,1.2,17,M,,M,,*69
06/09/2014	21:03:28.016	$GPGGA,210328,2541.4215,N,08004.6227,W,1,11,1.2,17,M,,M,,*62
06/09/2014	21:03:28.995	$GPGGA,210329,2541.4220,N,08004.6204,W,1,11,1.2,17,M,,M,,*64
06/09/2014	21:03:30.025	$GPGGA,210330,2541.4227,N,08004.6182,W,1,11,1.2,17,M,,M,,*66
06/09/2014	21:03:31.025	$GPGGA,210331,2541.4233,N,08004.6160,W,1,11,1.2,17,M,,M,,*6E
06/09/2014	21:03:32.035	$GPGGA,210332,2541.4238,N,08004.6137,W,1,11,1.2,17,M,,M,,*64
06/09/2014	21:03:33.035	$GPGGA,210333,2541.4241,N,08004.6116,W,1,11,1.2,17,M,,M,,*68
06/09/2014	21:03:34.055	$GPGGA,210334,2541.4245,N,08004.6094,W,1,11,1.2,17,M,,M,,*60
06/09/2014	21:03:35.055	$GPGGA,210335,2541.4248,N,08004.6072,W,1,11,1.2,17,M,,M,,*64
06/09/2014	21:03:36.216	$GPGGA,210336,2541.4249,N,08004.6050,W,1,11,1.2,17,M,,M,,*66
06/09/2014	21:03:37.095	$GPGGA,210337,2541.4249,N,08004.6028,W,1,11,1.2,17,M,,M,,*68
06/09/2014	21:03:38.084	$GPGGA,210338,2541.4251,N,08004.6007,W,1,11,1.2,17,M,,M,,*63
06/09/2014	21:03:39.278	$GPGGA,210339,2541.4249,N,08004.5985,W,1,11,1.2,17,M,,M,,*6B
06/09/2014	21:03:40.094	$GPGGA,210340,2541.4249,N,08004.5964,W,1,11,1.2,17,M,,M,,*6A
06/09/2014	21:03:40.501	$GPGGA,210341,2541.4246,N,08004.5943,W,1,11,1.2,17,M,,M,,*61
06/09/2014	21:03:41.521	$GPGGA,210342,2541.4245,N,08004.5923,W,1,11,1.2,17,M,,M,,*67
06/09/2014	21:03:42.707	$GPGGA,210343,2541.4241,N,08004.5902,W,1,11,1.2,17,M,,M,,*61
06/09/2014	21:03:43.530	$GPGGA,210344,2541.4238,N,08004.5882,W,1,11,1.2,17,M,,M,,*61
06/09/2014	21:03:44.731	$GPGGA,210345,2541.4234,N,08004.5863,W,1,10,1.3,17,M,,M,,*63
06/09/2014	21:03:45.640	$GPGGA,210346,2541.4228,N,08004.5844,W,1,10,1.3,17,M,,M,,*68
06/09/2014	21:03:46.559	$GPGGA,210347,2541.4222,N,08004.5825,W,1,11,1.2,17,M,,M,,*64
06/09/2014	21:03:47.732	$GPGGA,210348,2541.4216,N,08004.5805,W,1,11,1.2,17,M,,M,,*6E
06/09/2014	21:03:48.751	$GPGGA,210349,2541.4207,N,08004.5787,W,1,11,1.2,17,M,,M,,*6A
06/09/2014	21:03:49.569	$GPGGA,210350,2541.4199,N,08004.5770,W,1,11,1.2,17,M,,M,,*6E
06/09/2014	21:03:50.589	$GPGGA,210351,2541.4191,N,08004.5753,W,1,11,1.2,17,M,,M,,*66
06/09/2014	21:03:51.700	$GPGGA,210352,2541.4181,N,08004.5736,W,1,11,1.2,17,M,,M,,*67
06/09/2014	21:03:52.800	$GPGGA,210353,2541.4170,N,08004.5719,W,1,10,1.3,17,M,,M,,*65
06/09/2014	21:03:53.608	$GPGGA,210354,2541.4159,N,08004.5703,W,1,10,1.3,17,M,,M,,*62
06/09/2014	21:03:54.620	$GPGGA,210355,2541.4148,N,08004.5687,W,1,10,1.3,17,M,,M,,*6E
06/09/2014	21:03:55.759	$GPGGA,210356,2541.4135,N,08004.5670,W,1,10,1.3,17,M,,M,,*6F
06/09/2014	21:03:56.820	$GPGGA,210357,2541.4124,N,08004.5656,W,1,10,1.2,17,M,,M,,*6B
06/09/2014	21:03:57.639	$GPGGA,210358,2541.4111,N,08004.5640,W,1,10,1.2,17,M,,M,,*65
06/09/2014	21:03:58.739	$GPGGA,210359,2541.4099,N,08004.5627,W,1,10,1.3,17,M,,M,,*65
06/09/2014	21:03:59.799	$GPGGA,210400,2541.4086,N,08004.5612,W,1,10,1.2,17,M,,M,,*67
06/09/2014	21:04:00.882	$GPGGA,210401,2541.4072,N,08004.5597,W,1,11,1.2,17,M,,M,,*62
06/09/2014	21:04:01.801	$GPGGA,210402,2541.4057,N,08004.5583,W,1,11,1.2,17,M,,M,,*63
06/09/2014	21:04:02.787	$GPGGA,210403,2541.4043,N,08004.5569,W,1,11,1.2,17,M,,M,,*63
06/09/2014	21:04:03.817	$GPGGA,210404,2541.4029,N,08004.5555,W,1,11,1.2,17,M,,M,,*67
06/09/2014	21:04:04.908	$GPGGA,210405,2541.4014,N,08004.5542,W,1,11,1.2,17,M,,M,,*6E
06/09/2014	21:04:05.827	$GPGGA,210406,2541.3999,N,08004.5530,W,1,11,1.2,17,M,,M,,*63
06/09/2014	21:04:06.928	$GPGGA,210407,2541.3983,N,08004.5517,W,1,11,1.2,17,M,,M,,*6C
06/09/2014	21:04:07.867	$GPGGA,210408,2541.3968,N,08004.5505,W,1,11,1.2,17,M,,M,,*65
06/09/2014	21:04:08.907	$GPGGA,210409,2541.3949,N,08004.5492,W,1,11,1.3,17,M,,M,,*69
06/09/2014	21:04:09.857	$GPGGA,210410,2541.3932,N,08004.5480,W,1,11,1.3,17,M,,M,,*6E
06/09/2014	21:04:10.927	$GPGGA,210411,2541.3914,N,08004.5468,W,1,11,1.4,17,M,,M,,*6A
06/09/2014	21:04:11.897	$GPGGA,210412,2541.3896,N,08004.5461,W,1,11,1.2,17,M,,M,,*6D
06/09/2014	21:04:12.847	$GPGGA,210413,2541.3878,N,08004.5450,W,1,11,1.2,17,M,,M,,*6E
06/09/2014	21:04:13.856	$GPGGA,210414,2541.3859,N,08004.5439,W,1,11,1.3,17,M,,M,,*64
06/09/2014	21:04:15.007	$GPGGA,210415,2541.3841,N,08004.5430,W,1,10,1.2,17,M,,M,,*65
06/09/2014	21:04:15.936	$GPGGA,210416,2541.3823,N,08004.5420,W,1,10,1.3,17,M,,M,,*62
06/09/2014	21:04:16.875	$GPGGA,210417,2541.3804,N,08004.5410,W,1,10,1.3,17,M,,M,,*65
06/09/2014	21:04:17.936	$GPGGA,210418,2541.3786,N,08004.5400,W,1,10,1.3,17,M,,M,,*6E
06/09/2014	21:04:19.007	$GPGGA,210419,2541.3766,N,08004.5390,W,1,10,1.3,17,M,,M,,*6F
06/09/2014	21:04:19.965	$GPGGA,210420,2541.3748,N,08004.5379,W,1,10,1.3,17,M,,M,,*6E
06/09/2014	21:04:21.005	$GPGGA,210421,2541.3729,N,08004.5369,W,1,10,1.3,17,M,,M,,*69
06/09/2014	21:04:21.914	$GPGGA,210422,2541.3711,N,08004.5359,W,1,10,1.3,17,M,,M,,*62
06/09/2014	21:04:23.055	$GPGGA,210423,2541.3692,N,08004.5349,W,1,10,1.3,17,M,,M,,*68
06/09/2014	21:04:23.984	$GPGGA,210424,2541.3674,N,08004.5339,W,1,10,1.3,17,M,,M,,*60
06/09/2014	21:04:24.943	$GPGGA,210425,2541.3656,N,08004.5329,W,1,10,1.3,17,M,,M,,*60
06/09/2014	21:04:25.994	$GPGGA,210426,2541.3638,N,08004.5319,W,1,10,1.3,17,M,,M,,*68
06/09/2014	21:04:27.105	$GPGGA,210427,2541.3620,N,08004.5308,W,1,10,1.3,17,M,,M,,*60
06/09/2014	21:04:28.024	$GPGGA,210428,2541.3602,N,08004.5298,W,1,10,1.3,16,M,,M,,*66
06/09/2014	21:04:29.089	$GPGGA,210429,2541.3585,N,08004.5290,W,1,10,1.2,16,M,,M,,*62
06/09/2014	21:04:30.003	$GPGGA,210430,2541.3567,N,08004.5280,W,1,10,1.2,16,M,,M,,*67
06/09/2014	21:04:31.134	$GPGGA,210431,2541.3549,N,08004.5271,W,1,11,1.2,16,M,,M,,*65
06/09/2014	21:04:32.136	$GPGGA,210432,2541.3531,N,08004.5262,W,1,11,1.2,16,M,,M,,*6B
06/09/2014	21:04:33.013	$GPGGA,210433,2541.3513,N,08004.5252,W,1,11,1.2,16,M,,M,,*69
06/09/2014	21:04:34.120	$GPGGA,210434,2541.3494,N,08004.5243,W,1,11,1.3,16,M,,M,,*61
06/09/2014	21:04:35.174	$GPGGA,210435,2541.3476,N,08004.5233,W,1,10,1.2,16,M,,M,,*6B
06/09/2014	21:04:36.153	$GPGGA,210436,2541.3457,N,08004.5223,W,1,10,1.2,16,M,,M,,*6A
06/09/2014	21:04:37.183	$GPGGA,210437,2541.3440,N,08004.5214,W,1,11,1.2,16,M,,M,,*68
06/09/2014	21:04:38.152	$GPGGA,210438,2541.3423,N,08004.5205,W,1,11,1.2,16,M,,M,,*62
06/09/2014	21:04:39.162	$GPGGA,210439,2541.3405,N,08004.5195,W,1,11,1.3,16,M,,M,,*6C
06/09/2014	21:04:40.192	$GPGGA,210440,2541.3387,N,08004.5186,W,1,11,1.3,16,M,,M,,*6D
06/09/2014	21:04:40.568	$GPGGA,210441,2541.3369,N,08004.5176,W,1,10,1.3,16,M,,M,,*62
06/09/2014	21:04:41.589	$GPGGA,210442,2541.3351,N,08004.5167,W,1,10,1.3,16,M,,M,,*6A
06/09/2014	21:04:42.618	$GPGGA,210443,2541.3333,N,08004.5157,W,1,10,1.3,16,M,,M,,*6C
06/09/2014	21:04:43.547	$GPGGA,210444,2541.3315,N,08004.5148,W,1,10,1.3,16,M,,M,,*61
06/09/2014	21:04:44.618	$GPGGA,210445,2541.3296,N,08004.5139,W,1,10,1.3,16,M,,M,,*6C
06/09/2014	21:04:45.556	$GPGGA,210446,2541.3278,N,08004.5130,W,1,10,1.3,16,M,,M,,*66
06/09/2014	21:04:46.657	$GPGGA,210447,2541.3259,N,08004.5121,W,1,10,1.3,16,M,,M,,*64
06/09/2014	21:04:47.649	$GPGGA,210448,2541.3241,N,08004.5112,W,1,10,1.3,15,M,,M,,*61
06/09/2014	21:04:48.637	$GPGGA,210449,2541.3223,N,08004.5103,W,1,10,1.3,15,M,,M,,*64
06/09/2014	21:04:49.646	$GPGGA,210450,2541.3223,N,08004.5103,W,1,10,1.3,15,M,,M,,*6C
06/09/2014	21:04:50.687	$GPGGA,210451,2541.3187,N,08004.5086,W,1,10,1.3,15,M,,M,,*6C
06/09/2014	21:04:51.676	$GPGGA,210452,2541.3168,N,08004.5077,W,1,10,1.3,15,M,,M,,*60
06/09/2014	21:04:52.696	$GPGGA,210453,2541.3150,N,08004.5068,W,1,10,1.3,15,M,,M,,*64
06/09/2014	21:04:53.676	$GPGGA,210454,2541.3132,N,08004.5059,W,1,10,1.3,15,M,,M,,*65
06/09/2014	21:04:54.695	$GPGGA,210455,2541.3113,N,08004.5050,W,1,10,1.3,15,M,,M,,*6E
06/09/2014	21:04:55.705	$GPGGA,210456,2541.3096,N,08004.5042,W,1,10,1.3,15,M,,M,,*62
06/09/2014	21:04:56.775	$GPGGA,210457,2541.3076,N,08004.5033,W,1,10,1.3,15,M,,M,,*6B
06/09/2014	21:04:57.725	$GPGGA,210458,2541.3057,N,08004.5024,W,1,10,1.3,15,M,,M,,*61
06/09/2014	21:04:58.755	$GPGGA,210459,2541.3038,N,08004.5015,W,1,10,1.3,15,M,,M,,*6B
06/09/2014	21:04:59.744	$GPGGA,210500,2541.3020,N,08004.5006,W,1,10,1.3,15,M,,M,,*6D
06/09/2014	21:05:00.765	$GPGGA,210501,2541.3001,N,08004.4997,W,1,10,1.3,15,M,,M,,*6F
06/09/2014	21:05:01.734	$GPGGA,210502,2541.2984,N,08004.4988,W,1,10,1.3,15,M,,M,,*67
06/09/2014	21:05:02.774	$GPGGA,210503,2541.2966,N,08004.4979,W,1,10,1.3,15,M,,M,,*64
06/09/2014	21:05:03.784	$GPGGA,210504,2541.2948,N,08004.4970,W,1,10,1.3,15,M,,M,,*66
06/09/2014	21:05:04.834	$GPGGA,210505,2541.2930,N,08004.4961,W,1,10,1.3,15,M,,M,,*68
06/09/2014	21:05:05.794	$GPGGA,210506,2541.2912,N,08004.4952,W,1,10,1.3,15,M,,M,,*6B
06/09/2014	21:05:06.834	$GPGGA,210507,2541.2894,N,08004.4943,W,1,10,1.3,15,M,,M,,*65
06/09/2014	21:05:07.799	$GPGGA,210508,2541.2876,N,08004.4933,W,1,10,1.3,15,M,,M,,*61
06/09/2014	21:05:08.875	$GPGGA,210509,2541.2876,N,08004.4933,W,1,10,1.3,15,M,,M,,*60
06/09/2014	21:05:09.790	$GPGGA,210510,2541.2838,N,08004.4914,W,1,10,1.3,15,M,,M,,*67
06/09/2014	21:05:10.866	$GPGGA,210511,2541.2820,N,08004.4905,W,1,10,1.3,15,M,,M,,*6F
06/09/2014	21:05:11.820	$GPGGA,210512,2541.2820,N,08004.4905,W,1,10,1.3,15,M,,M,,*6C
06/09/2014	21:05:12.834	$GPGGA,210513,2541.2802,N,08004.4895,W,1,10,1.3,14,M,,M,,*64
06/09/2014	21:05:13.820	$GPGGA,210514,2541.2766,N,08004.4875,W,1,10,1.2,14,M,,M,,*61
06/09/2014	21:05:14.845	$GPGGA,210515,2541.2766,N,08004.4875,W,1,11,1.2,14,M,,M,,*61
06/09/2014	21:05:15.820	$GPGGA,210516,2541.2735,N,08004.4857,W,1,11,1.2,14,M,,M,,*64
06/09/2014	21:05:16.825	$GPGGA,210517,2541.2735,N,08004.4857,W,1,11,1.2,14,M,,M,,*65
06/09/2014	21:05:17.911	$GPGGA,210518,2541.2702,N,08004.4839,W,1,11,1.2,14,M,,M,,*66
06/09/2014	21:05:18.836	$GPGGA,210519,2541.2702,N,08004.4839,W,1,11,1.2,14,M,,M,,*67
06/09/2014	21:05:19.931	$GPGGA,210520,2541.2670,N,08004.4820,W,1,11,1.2,14,M,,M,,*61
06/09/2014	21:05:20.946	$GPGGA,210521,2541.2653,N,08004.4811,W,1,11,1.2,14,M,,M,,*63
06/09/2014	21:05:21.821	$GPGGA,210522,2541.2637,N,08004.4801,W,1,11,1.2,15,M,,M,,*62
06/09/2014	21:05:22.927	$GPGGA,210523,2541.2637,N,08004.4801,W,1,11,1.2,15,M,,M,,*63
06/09/2014	21:05:23.942	$GPGGA,210524,2541.2603,N,08004.4781,W,1,11,1.2,15,M,,M,,*64
06/09/2014	21:05:24.967	$GPGGA,210525,2541.2587,N,08004.4772,W,1,11,1.2,15,M,,M,,*66
06/09/2014	21:05:25.952	$GPGGA,210526,2541.2570,N,08004.4763,W,1,11,1.2,15,M,,M,,*6D
06/09/2014	21:05:26.958	$GPGGA,210527,2541.2553,N,08004.4753,W,1,11,1.2,15,M,,M,,*6E
06/09/2014	21:05:27.862	$GPGGA,210528,2541.2536,N,08004.4743,W,1,11,1.2,15,M,,M,,*63
06/09/2014	21:05:28.978	$GPGGA,210529,2541.2519,N,08004.4732,W,1,11,1.2,15,M,,M,,*69
06/09/2014	21:05:29.954	$GPGGA,210530,2541.2501,N,08004.4723,W,1,11,1.2,15,M,,M,,*68
06/09/2014	21:05:30.987	$GPGGA,210531,2541.2484,N,08004.4713,W,1,11,1.2,15,M,,M,,*66
06/09/2014	21:05:31.972	$GPGGA,210532,2541.2466,N,08004.4703,W,1,11,1.2,15,M,,M,,*68
06/09/2014	21:05:32.969	$GPGGA,210533,2541.2449,N,08004.4692,W,1,11,1.2,15,M,,M,,*6D
06/09/2014	21:05:33.973	$GPGGA,210534,2541.2431,N,08004.4682,W,1,11,1.2,15,M,,M,,*64
06/09/2014	21:05:34.978	$GPGGA,210535,2541.2414,N,08004.4672,W,1,11,1.2,15,M,,M,,*6D
06/09/2014	21:05:35.993	$GPGGA,210536,2541.2396,N,08004.4662,W,1,11,1.2,15,M,,M,,*62
06/09/2014	21:05:36.978	$GPGGA,210537,2541.2379,N,08004.4652,W,1,11,1.2,15,M,,M,,*61
06/09/2014	21:05:37.984	$GPGGA,210538,2541.2361,N,08004.4643,W,1,11,1.2,15,M,,M,,*67
06/09/2014	21:05:39.019	$GPGGA,210539,2541.2342,N,08004.4632,W,1,11,1.2,15,M,,M,,*61
06/09/2014	21:05:39.997	$GPGGA,210540,2541.2323,N,08004.4621,W,1,11,1.3,15,M,,M,,*6B
06/09/2014	21:05:40.583	$GPGGA,210541,2541.2305,N,08004.4610,W,1,10,1.3,15,M,,M,,*6D
06/09/2014	21:05:41.558	$GPGGA,210542,2541.2288,N,08004.4601,W,1,10,1.3,15,M,,M,,*6A
06/09/2014	21:05:42.573	$GPGGA,210543,2541.2269,N,08004.4590,W,1,11,1.2,15,M,,M,,*6F
06/09/2014	21:05:43.578	$GPGGA,210544,2541.2251,N,08004.4580,W,1,11,1.3,15,M,,M,,*63
06/09/2014	21:05:44.573	$GPGGA,210545,2541.2233,N,08004.4570,W,1,10,1.3,15,M,,M,,*68
06/09/2014	21:05:45.579	$GPGGA,210546,2541.2215,N,08004.4559,W,1,10,1.3,15,M,,M,,*64
06/09/2014	21:05:46.564	$GPGGA,210547,2541.2197,N,08004.4550,W,1,10,1.3,15,M,,M,,*65
06/09/2014	21:05:47.588	$GPGGA,210548,2541.2178,N,08004.4540,W,1,10,1.3,15,M,,M,,*6A
06/09/2014	21:05:48.593	$GPGGA,210549,2541.2160,N,08004.4530,W,1,10,1.3,15,M,,M,,*65
06/09/2014	21:05:49.578	$GPGGA,210550,2541.2141,N,08004.4520,W,1,10,1.3,15,M,,M,,*6F
06/09/2014	21:05:50.573	$GPGGA,210551,2541.2123,N,08004.4510,W,1,10,1.3,15,M,,M,,*69
06/09/2014	21:05:51.599	$GPGGA,210552,2541.2105,N,08004.4500,W,1,10,1.3,15,M,,M,,*6F
06/09/2014	21:05:54.021	$GPGGA,210554,2541.2067,N,08004.4485,W,1,9,1.3,15,M,,M,,*58
06/09/2014	21:05:54.624	$GPGGA,210555,2541.2049,N,08004.4476,W,1,10,1.3,15,M,,M,,*61
06/09/2014	21:05:55.609	$GPGGA,210556,2541.2031,N,08004.4467,W,1,10,1.3,15,M,,M,,*6D
06/09/2014	21:05:56.635	$GPGGA,210557,2541.2012,N,08004.4459,W,1,10,1.3,15,M,,M,,*60
06/09/2014	21:05:57.610	$GPGGA,210558,2541.1995,N,08004.4451,W,1,10,1.3,15,M,,M,,*62
06/09/2014	21:05:58.625	$GPGGA,210559,2541.1976,N,08004.4443,W,1,10,1.3,15,M,,M,,*6D
06/09/2014	21:05:59.640	$GPGGA,210600,2541.1958,N,08004.4434,W,1,10,1.3,15,M,,M,,*6E
06/09/2014	21:06:00.626	$GPGGA,210601,2541.1940,N,08004.4425,W,1,9,1.9,15,M,,M,,*54
06/09/2014	21:06:01.610	$GPGGA,210602,2541.1920,N,08004.4417,W,1,9,1.9,15,M,,M,,*50
06/09/2014	21:06:02.616	$GPGGA,210603,2541.1902,N,08004.4408,W,1,10,1.3,15,M,,M,,*6D
06/09/2014	21:06:03.641	$GPGGA,210604,2541.1886,N,08004.4400,W,1,10,1.9,15,M,,M,,*65
06/09/2014	21:06:04.625	$GPGGA,210605,2541.1870,N,08004.4391,W,1,10,1.3,15,M,,M,,*68
06/09/2014	21:06:05.620	$GPGGA,210606,2541.1855,N,08004.4383,W,1,10,1.3,15,M,,M,,*6F
06/09/2014	21:06:06.635	$GPGGA,210607,2541.1840,N,08004.4374,W,1,10,1.3,15,M,,M,,*62
06/09/2014	21:06:07.641	$GPGGA,210608,2541.1821,N,08004.4365,W,1,10,1.3,15,M,,M,,*6A
06/09/2014	21:06:08.656	$GPGGA,210609,2541.1803,N,08004.4357,W,1,9,1.9,15,M,,M,,*58
06/09/2014	21:06:09.641	$GPGGA,210610,2541.1785,N,08004.4348,W,1,9,1.3,15,M,,M,,*55
06/09/2014	21:06:10.636	$GPGGA,210611,2541.1769,N,08004.4339,W,1,9,1.9,15,M,,M,,*5A
06/09/2014	21:06:11.672	$GPGGA,210612,2541.1751,N,08004.4331,W,1,9,1.3,15,M,,M,,*50
06/09/2014	21:06:12.647	$GPGGA,210613,2541.1734,N,08004.4322,W,1,10,1.3,15,M,,M,,*68
06/09/2014	21:06:13.652	$GPGGA,210614,2541.1716,N,08004.4313,W,1,10,1.3,15,M,,M,,*6D
06/09/2014	21:06:14.677	$GPGGA,210615,2541.1700,N,08004.4305,W,1,10,1.3,15,M,,M,,*6C
06/09/2014	21:06:15.768	$GPGGA,210616,2541.1682,N,08004.4296,W,1,10,1.3,15,M,,M,,*6F
06/09/2014	21:06:16.788	$GPGGA,210617,2541.1665,N,08004.4287,W,1,10,1.3,15,M,,M,,*67
06/09/2014	21:06:17.763	$GPGGA,210618,2541.1647,N,08004.4278,W,1,10,1.3,15,M,,M,,*68
06/09/2014	21:06:18.668	$GPGGA,210619,2541.1630,N,08004.4270,W,1,10,1.3,15,M,,M,,*61
06/09/2014	21:06:19.693	$GPGGA,210620,2541.1613,N,08004.4261,W,1,10,1.3,15,M,,M,,*6A
06/09/2014	21:06:20.769	$GPGGA,210621,2541.1595,N,08004.4252,W,1,10,1.3,15,M,,M,,*66
06/09/2014	21:06:21.673	$GPGGA,210622,2541.1579,N,08004.4244,W,1,10,1.3,15,M,,M,,*60
06/09/2014	21:06:22.788	$GPGGA,210623,2541.1561,N,08004.4235,W,1,10,1.3,15,M,,M,,*6E
06/09/2014	21:06:23.794	$GPGGA,210624,2541.1544,N,08004.4226,W,1,10,1.3,15,M,,M,,*6C
06/09/2014	21:06:24.789	$GPGGA,210625,2541.1527,N,08004.4218,W,1,10,1.3,15,M,,M,,*65
06/09/2014	21:06:25.795	$GPGGA,210626,2541.1511,N,08004.4209,W,1,10,1.3,15,M,,M,,*63
06/09/2014	21:06:26.799	$GPGGA,210627,2541.1496,N,08004.4199,W,1,10,1.3,15,M,,M,,*66
06/09/2014	21:06:27.816	$GPGGA,210628,2541.1481,N,08004.4192,W,1,10,1.3,15,M,,M,,*64
06/09/2014	21:06:28.824	$GPGGA,210629,2541.1467,N,08004.4184,W,1,11,1.2,15,M,,M,,*6A
06/09/2014	21:06:29.794	$GPGGA,210630,2541.1451,N,08004.4175,W,1,11,1.2,16,M,,M,,*6A
06/09/2014	21:06:30.830	$GPGGA,210631,2541.1434,N,08004.4164,W,1,11,1.2,16,M,,M,,*68
06/09/2014	21:06:31.815	$GPGGA,210632,2541.1416,N,08004.4154,W,1,11,1.3,16,M,,M,,*69
06/09/2014	21:06:32.830	$GPGGA,210633,2541.1399,N,08004.4142,W,1,10,1.3,16,M,,M,,*6E
06/09/2014	21:06:33.815	$GPGGA,210634,2541.1382,N,08004.4132,W,1,10,1.4,16,M,,M,,*63
06/09/2014	21:06:34.840	$GPGGA,210635,2541.1366,N,08004.4122,W,1,10,1.3,16,M,,M,,*6E
06/09/2014	21:06:35.836	$GPGGA,210636,2541.1348,N,08004.4111,W,1,10,1.3,16,M,,M,,*61
06/09/2014	21:06:36.811	$GPGGA,210637,2541.1331,N,08004.4101,W,1,9,1.4,16,M,,M,,*50
06/09/2014	21:06:37.826	$GPGGA,210638,2541.1315,N,08004.4092,W,1,9,1.3,16,M,,M,,*55
06/09/2014	21:06:38.821	$GPGGA,210639,2541.1298,N,08004.4082,W,1,10,1.3,16,M,,M,,*69
06/09/2014	21:06:39.865	$GPGGA,210640,2541.1286,N,08004.4075,W,1,10,1.3,16,M,,M,,*60
06/09/2014	21:06:40.518	$GPGGA,210641,2541.1268,N,08004.4064,W,1,11,1.2,16,M,,M,,*61
06/09/2014	21:06:41.534	$GPGGA,210642,2541.1250,N,08004.4054,W,1,11,1.3,16,M,,M,,*6B
06/09/2014	21:06:42.559	$GPGGA,210643,2541.1232,N,08004.4043,W,1,10,1.3,16,M,,M,,*69
06/09/2014	21:06:43.554	$GPGGA,210644,2541.1215,N,08004.4033,W,1,10,1.3,16,M,,M,,*6C
06/09/2014	21:06:44.569	$GPGGA,210645,2541.1197,N,08004.4022,W,1,10,1.3,16,M,,M,,*64
06/09/2014	21:06:45.655	$GPGGA,210646,2541.1180,N,08004.4013,W,1,10,1.4,16,M,,M,,*64
06/09/2014	21:06:46.560	$GPGGA,210647,2541.1163,N,08004.4005,W,1,11,1.2,16,M,,M,,*68
06/09/2014	21:06:47.675	$GPGGA,210648,2541.1147,N,08004.3996,W,1,11,1.2,16,M,,M,,*65
06/09/2014	21:06:48.560	$GPGGA,210649,2541.1129,N,08004.3987,W,1,11,1.2,16,M,,M,,*6C
06/09/2014	21:06:49.545	$GPGGA,210650,2541.1113,N,08004.3978,W,1,11,1.3,16,M,,M,,*6C
06/09/2014	21:06:50.560	$GPGGA,210651,2541.1096,N,08004.3969,W,1,10,1.3,17,M,,M,,*61
06/09/2014	21:06:51.576	$GPGGA,210652,2541.1078,N,08004.3960,W,1,10,1.3,17,M,,M,,*6B
06/09/2014	21:06:52.551	$GPGGA,210653,2541.1061,N,08004.3951,W,1,10,1.3,17,M,,M,,*60
06/09/2014	21:06:53.576	$GPGGA,210654,2541.1044,N,08004.3942,W,1,10,1.3,17,M,,M,,*62
06/09/2014	21:06:54.682	$GPGGA,210655,2541.1026,N,08004.3933,W,1,10,1.3,17,M,,M,,*61
06/09/2014	21:06:55.632	$GPGGA,210656,2541.1008,N,08004.3924,W,1,10,1.3,17,M,,M,,*68
06/09/2014	21:06:56.657	$GPGGA,210657,2541.0990,N,08004.3915,W,1,10,1.3,17,M,,M,,*62
06/09/2014	21:06:57.716	$GPGGA,210658,2541.0969,N,08004.3905,W,1,10,1.3,17,M,,M,,*6A
06/09/2014	21:06:58.786	$GPGGA,210659,2541.0950,N,08004.3896,W,1,9,1.9,17,M,,M,,*58
06/09/2014	21:06:59.877	$GPGGA,210700,2541.0933,N,08004.3888,W,1,9,1.9,17,M,,M,,*5F
06/09/2014	21:07:00.905	$GPGGA,210701,2541.0914,N,08004.3880,W,1,10,1.3,16,M,,M,,*60
06/09/2014	21:07:02.070	$GPGGA,210702,2541.0893,N,08004.3871,W,1,10,1.9,16,M,,M,,*69
06/09/2014	21:07:03.137	$GPGGA,210703,2541.0873,N,08004.3862,W,1,10,1.3,16,M,,M,,*6E
06/09/2014	21:07:04.189	$GPGGA,210704,2541.0857,N,08004.3854,W,1,10,1.3,16,M,,M,,*6A
06/09/2014	21:07:05.270	$GPGGA,210705,2541.0843,N,08004.3847,W,1,10,1.3,16,M,,M,,*6C
06/09/2014	21:07:06.288	$GPGGA,210706,2541.0827,N,08004.3839,W,1,10,1.3,16,M,,M,,*64
06/09/2014	21:07:07.256	$GPGGA,210707,2541.0813,N,08004.3831,W,1,10,1.3,16,M,,M,,*6A
06/09/2014	21:07:08.406	$GPGGA,210708,2541.0796,N,08004.3823,W,1,10,1.3,16,M,,M,,*64
06/09/2014	21:07:09.455	$GPGGA,210709,2541.0780,N,08004.3816,W,1,10,1.3,16,M,,M,,*64
06/09/2014	21:07:10.419	$GPGGA,210710,2541.0763,N,08004.3808,W,1,10,1.3,16,M,,M,,*6E
06/09/2014	21:07:11.606	$GPGGA,210711,2541.0746,N,08004.3800,W,1,10,1.3,16,M,,M,,*60
06/09/2014	21:07:12.653	$GPGGA,210712,2541.0730,N,08004.3793,W,1,10,1.3,16,M,,M,,*67
06/09/2014	21:07:13.692	$GPGGA,210713,2541.0712,N,08004.3785,W,1,10,1.3,16,M,,M,,*61
06/09/2014	21:07:14.747	$GPGGA,210714,2541.0696,N,08004.3778,W,1,10,1.3,16,M,,M,,*69
06/09/2014	21:07:15.804	$GPGGA,210715,2541.0680,N,08004.3771,W,1,10,1.3,16,M,,M,,*66
06/09/2014	21:07:16.873	$GPGGA,210716,2541.0663,N,08004.3764,W,1,10,1.3,16,M,,M,,*6C
06/09/2014	21:07:17.908	$GPGGA,210717,2541.0647,N,08004.3758,W,1,10,1.3,16,M,,M,,*64
06/09/2014	21:07:18.965	$GPGGA,210718,2541.0630,N,08004.3753,W,1,10,1.2,16,M,,M,,*61
06/09/2014	21:07:20.047	$GPGGA,210719,2541.0614,N,08004.3749,W,1,11,1.2,16,M,,M,,*6C
06/09/2014	21:07:21.091	$GPGGA,210720,2541.0600,N,08004.3746,W,1,11,1.2,16,M,,M,,*6C
06/09/2014	21:07:22.138	$GPGGA,210721,2541.0584,N,08004.3743,W,1,10,1.3,16,M,,M,,*67
06/09/2014	21:07:23.195	$GPGGA,210722,2541.0569,N,08004.3741,W,1,10,1.3,16,M,,M,,*65
06/09/2014	21:07:24.275	$GPGGA,210723,2541.0553,N,08004.3740,W,1,11,1.2,16,M,,M,,*6C
06/09/2014	21:07:25.321	$GPGGA,210724,2541.0537,N,08004.3739,W,1,11,1.2,16,M,,M,,*67
06/09/2014	21:07:26.379	$GPGGA,210725,2541.0520,N,08004.3739,W,1,10,1.3,16,M,,M,,*60
06/09/2014	21:07:27.415	$GPGGA,210726,2541.0504,N,08004.3740,W,1,10,1.3,16,M,,M,,*6B
06/09/2014	21:07:28.451	$GPGGA,210727,2541.0486,N,08004.3740,W,1,9,1.5,16,M,,M,,*5F
06/09/2014	21:07:29.530	$GPGGA,210728,2541.0470,N,08004.3743,W,1,9,1.2,16,M,,M,,*5D
06/09/2014	21:07:30.566	$GPGGA,210729,2541.0455,N,08004.3746,W,1,11,1.2,16,M,,M,,*67
06/09/2014	21:07:31.624	$GPGGA,210730,2541.0441,N,08004.3750,W,1,11,1.2,16,M,,M,,*6D
06/09/2014	21:07:32.671	$GPGGA,210731,2541.0426,N,08004.3754,W,1,11,1.2,16,M,,M,,*69
06/09/2014	21:07:33.760	$GPGGA,210732,2541.0412,N,08004.3761,W,1,11,1.2,16,M,,M,,*6B
06/09/2014	21:07:34.827	$GPGGA,210733,2541.0396,N,08004.3768,W,1,10,1.2,16,M,,M,,*69
06/09/2014	21:07:35.842	$GPGGA,210734,2541.0383,N,08004.3775,W,1,10,1.3,16,M,,M,,*67
06/09/2014	21:07:36.942	$GPGGA,210735,2541.0365,N,08004.3786,W,1,10,1.3,16,M,,M,,*62
06/09/2014	21:07:37.957	$GPGGA,210736,2541.0350,N,08004.3795,W,1,10,1.3,16,M,,M,,*65
06/09/2014	21:07:39.131	$GPGGA,210737,2541.0338,N,08004.3805,W,1,11,1.2,17,M,,M,,*6D
06/09/2014	21:07:40.072	$GPGGA,210738,2541.0326,N,08004.3818,W,1,11,1.2,17,M,,M,,*61
06/09/2014	21:07:41.235	$GPGGA,210739,2541.0313,N,08004.3829,W,1,11,1.2,17,M,,M,,*64
06/09/2014	21:07:42.187	$GPGGA,210740,2541.0300,N,08004.3841,W,1,11,1.2,17,M,,M,,*66
06/09/2014	21:07:40.534	$GPGGA,210741,2541.0289,N,08004.3855,W,1,10,1.3,17,M,,M,,*62
06/09/2014	21:07:41.570	$GPGGA,210742,2541.0276,N,08004.3867,W,1,10,1.2,17,M,,M,,*61
06/09/2014	21:07:42.638	$GPGGA,210743,2541.0265,N,08004.3881,W,1,11,1.2,17,M,,M,,*6B
06/09/2014	21:07:43.696	$GPGGA,210744,2541.0253,N,08004.3895,W,1,11,1.2,17,M,,M,,*6C
06/09/2014	21:07:44.753	$GPGGA,210745,2541.0242,N,08004.3910,W,1,11,1.2,17,M,,M,,*61
06/09/2014	21:07:45.906	$GPGGA,210746,2541.0229,N,08004.3925,W,1,11,1.2,18,M,,M,,*66
06/09/2014	21:07:46.953	$GPGGA,210747,2541.0217,N,08004.3941,W,1,11,1.2,18,M,,M,,*68
06/09/2014	21:07:48.031	$GPGGA,210748,2541.0204,N,08004.3957,W,1,11,1.2,18,M,,M,,*62
06/09/2014	21:07:49.099	$GPGGA,210749,2541.0192,N,08004.3974,W,1,11,1.2,18,M,,M,,*6E
06/09/2014	21:07:50.133	$GPGGA,210750,2541.0181,N,08004.3990,W,1,11,1.3,18,M,,M,,*6F
06/09/2014	21:07:51.235	$GPGGA,210751,2541.0168,N,08004.4006,W,1,11,1.2,18,M,,M,,*69
06/09/2014	21:07:52.281	$GPGGA,210752,2541.0156,N,08004.4024,W,1,11,1.2,18,M,,M,,*67
06/09/2014	21:07:53.182	$GPGGA,210753,2541.0145,N,08004.4040,W,1,10,1.2,18,M,,M,,*67
06/09/2014	21:07:54.344	$GPGGA,210754,2541.0134,N,08004.4058,W,1,10,1.4,18,M,,M,,*69
06/09/2014	21:07:55.424	$GPGGA,210755,2541.0121,N,08004.4076,W,1,9,1.4,18,M,,M,,*58
06/09/2014	21:07:56.469	$GPGGA,210756,2541.0108,N,08004.4094,W,1,9,1.2,18,M,,M,,*5A
06/09/2014	21:07:57.505	$GPGGA,210757,2541.0098,N,08004.4112,W,1,10,1.3,18,M,,M,,*65
06/09/2014	21:07:58.468	$GPGGA,210758,2541.0085,N,08004.4130,W,1,10,1.6,18,M,,M,,*63
06/09/2014	21:07:59.631	$GPGGA,210759,2541.0074,N,08004.4147,W,1,10,1.2,18,M,,M,,*68
06/09/2014	21:08:00.710	$GPGGA,210800,2541.0063,N,08004.4165,W,1,10,1.2,18,M,,M,,*6D
06/09/2014	21:08:01.725	$GPGGA,210801,2541.0052,N,08004.4184,W,1,11,1.2,18,M,,M,,*60
06/09/2014	21:08:02.782	$GPGGA,210802,2541.0041,N,08004.4203,W,1,11,1.3,18,M,,M,,*6C
06/09/2014	21:08:03.864	$GPGGA,210803,2541.0030,N,08004.4221,W,1,11,1.2,18,M,,M,,*6A
06/09/2014	21:08:04.920	$GPGGA,210804,2541.0020,N,08004.4241,W,1,11,1.2,19,M,,M,,*6B
06/09/2014	21:08:05.979	$GPGGA,210805,2541.0011,N,08004.4259,W,1,11,1.2,19,M,,M,,*61
06/09/2014	21:08:07.002	$GPGGA,210806,2541.0000,N,08004.4278,W,1,11,1.3,19,M,,M,,*60
06/09/2014	21:08:08.100	$GPGGA,210807,2540.9989,N,08004.4299,W,1,10,1.3,19,M,,M,,*6F
06/09/2014	21:08:09.126	$GPGGA,210808,2540.9979,N,08004.4318,W,1,10,1.2,19,M,,M,,*66
06/09/2014	21:08:10.206	$GPGGA,210809,2540.9969,N,08004.4339,W,1,11,1.2,19,M,,M,,*64
06/09/2014	21:08:11.241	$GPGGA,210810,2540.9960,N,08004.4358,W,1,11,1.2,19,M,,M,,*62
06/09/2014	21:08:12.289	$GPGGA,210811,2540.9950,N,08004.4379,W,1,11,1.2,19,M,,M,,*63
06/09/2014	21:08:13.367	$GPGGA,210812,2540.9939,N,08004.4400,W,1,11,1.2,19,M,,M,,*66
06/09/2014	21:08:14.435	$GPGGA,210813,2540.9929,N,08004.4420,W,1,11,1.2,19,M,,M,,*64
06/09/2014	21:08:15.461	$GPGGA,210814,2540.9919,N,08004.4440,W,1,11,1.2,19,M,,M,,*66
06/09/2014	21:08:16.518	$GPGGA,210815,2540.9910,N,08004.4460,W,1,11,1.2,19,M,,M,,*6C
06/09/2014	21:08:17.598	$GPGGA,210816,2540.9900,N,08004.4481,W,1,11,1.2,19,M,,M,,*61
06/09/2014	21:08:18.612	$GPGGA,210817,2540.9890,N,08004.4501,W,1,11,1.2,19,M,,M,,*61
06/09/2014	21:08:19.701	$GPGGA,210818,2540.9881,N,08004.4523,W,1,11,1.2,19,M,,M,,*6E
06/09/2014	21:08:20.748	$GPGGA,210819,2540.9871,N,08004.4542,W,1,11,1.2,20,M,,M,,*6D
06/09/2014	21:08:21.806	$GPGGA,210820,2540.9863,N,08004.4563,W,1,11,1.2,20,M,,M,,*67
06/09/2014	21:08:22.853	$GPGGA,210821,2540.9852,N,08004.4585,W,1,10,1.3,20,M,,M,,*6C
06/09/2014	21:08:23.900	$GPGGA,210822,2540.9843,N,08004.4606,W,1,10,1.3,20,M,,M,,*67
06/09/2014	21:08:24.978	$GPGGA,210823,2540.9834,N,08004.4626,W,1,10,1.3,20,M,,M,,*64
06/09/2014	21:08:26.142	$GPGGA,210824,2540.9825,N,08004.4647,W,1,10,1.3,20,M,,M,,*64
06/09/2014	21:08:27.061	$GPGGA,210825,2540.9816,N,08004.4668,W,1,10,1.3,20,M,,M,,*68
06/09/2014	21:08:28.118	$GPGGA,210826,2540.9809,N,08004.4689,W,1,10,1.3,20,M,,M,,*6A
06/09/2014	21:08:29.207	$GPGGA,210827,2540.9799,N,08004.4709,W,1,11,1.2,20,M,,M,,*64
06/09/2014	21:08:30.233	$GPGGA,210828,2540.9790,N,08004.4730,W,1,11,1.3,20,M,,M,,*69
06/09/2014	21:08:31.417	$GPGGA,210829,2540.9781,N,08004.4751,W,1,10,1.3,20,M,,M,,*6E
06/09/2014	21:08:32.464	$GPGGA,210830,2540.9772,N,08004.4772,W,1,10,1.3,20,M,,M,,*6B
06/09/2014	21:08:33.416	$GPGGA,210831,2540.9764,N,08004.4794,W,1,10,1.3,20,M,,M,,*65
06/09/2014	21:08:34.474	$GPGGA,210832,2540.9755,N,08004.4814,W,1,10,1.3,20,M,,M,,*63
06/09/2014	21:08:35.616	$GPGGA,210833,2540.9747,N,08004.4835,W,1,11,1.2,20,M,,M,,*62
06/09/2014	21:08:36.673	$GPGGA,210834,2540.9737,N,08004.4855,W,1,11,1.2,20,M,,M,,*64
06/09/2014	21:08:37.741	$GPGGA,210835,2540.9729,N,08004.4875,W,1,11,1.2,20,M,,M,,*68
06/09/2014	21:08:38.788	$GPGGA,210836,2540.9719,N,08004.4895,W,1,11,1.2,20,M,,M,,*66
06/09/2014	21:08:39.846	$GPGGA,210837,2540.9711,N,08004.4917,W,1,11,1.2,20,M,,M,,*64
06/09/2014	21:08:40.787	$GPGGA,210838,2540.9701,N,08004.4938,W,1,11,1.2,20,M,,M,,*67
06/09/2014	21:08:41.943	$GPGGA,210839,2540.9693,N,08004.4957,W,1,11,1.2,20,M,,M,,*65
06/09/2014	21:08:43.018	$GPGGA,210840,2540.9683,N,08004.4978,W,1,11,1.2,20,M,,M,,*67
06/09/2014	21:08:40.510	$GPGGA,210841,2540.9675,N,08004.4997,W,1,11,1.2,20,M,,M,,*6E
06/09/2014	21:08:41.662	$GPGGA,210842,2540.9666,N,08004.5018,W,1,11,1.2,20,M,,M,,*60
06/09/2014	21:08:42.730	$GPGGA,210843,2540.9657,N,08004.5038,W,1,11,1.2,20,M,,M,,*61
06/09/2014	21:08:43.788	$GPGGA,210844,2540.9650,N,08004.5058,W,1,11,1.2,20,M,,M,,*67
06/09/2014	21:08:44.813	$GPGGA,210845,2540.9641,N,08004.5079,W,1,11,1.2,20,M,,M,,*65
06/09/2014	21:08:45.892	$GPGGA,210846,2540.9632,N,08004.5099,W,1,11,1.3,20,M,,M,,*6D
06/09/2014	21:08:46.963	$GPGGA,210847,2540.9623,N,08004.5119,W,1,10,1.3,20,M,,M,,*64
06/09/2014	21:08:48.014	$GPGGA,210848,2540.9615,N,08004.5141,W,1,10,1.3,20,M,,M,,*63
06/09/2014	21:08:49.080	$GPGGA,210849,2540.9606,N,08004.5162,W,1,10,1.3,20,M,,M,,*61
06/09/2014	21:08:50.102	$GPGGA,210850,2540.9597,N,08004.5182,W,1,10,1.3,20,M,,M,,*6C
06/09/2014	21:08:51.186	$GPGGA,210851,2540.9588,N,08004.5203,W,1,10,1.3,20,M,,M,,*69
06/09/2014	21:08:52.241	$GPGGA,210852,2540.9581,N,08004.5224,W,1,10,1.2,20,M,,M,,*67
06/09/2014	21:08:53.288	$GPGGA,210853,2540.9571,N,08004.5246,W,1,11,1.3,20,M,,M,,*6D
06/09/2014	21:08:54.345	$GPGGA,210854,2540.9563,N,08004.5267,W,1,11,1.3,20,M,,M,,*6A
06/09/2014	21:08:55.407	$GPGGA,210855,2540.9554,N,08004.5286,W,1,10,1.3,20,M,,M,,*61
06/09/2014	21:08:56.446	$GPGGA,210856,2540.9546,N,08004.5307,W,1,10,1.2,20,M,,M,,*68
06/09/2014	21:08:57.531	$GPGGA,210857,2540.9538,N,08004.5329,W,1,11,1.2,19,M,,M,,*67
06/09/2014	21:08:58.540	$GPGGA,210858,2540.9528,N,08004.5350,W,1,11,1.2,19,M,,M,,*67
06/09/2014	21:08:59.597	$GPGGA,210859,2540.9518,N,08004.5370,W,1,11,1.2,19,M,,M,,*67
06/09/2014	21:09:00.677	$GPGGA,210900,2540.9509,N,08004.5390,W,1,11,1.2,19,M,,M,,*64
06/09/2014	21:09:01.701	$GPGGA,210901,2540.9499,N,08004.5412,W,1,11,1.2,19,M,,M,,*60
06/09/2014	21:09:02.758	$GPGGA,210902,2540.9489,N,08004.5431,W,1,11,1.2,19,M,,M,,*63
06/09/2014	21:09:03.826	$GPGGA,210903,2540.9480,N,08004.5452,W,1,11,1.3,19,M,,M,,*6F
06/09/2014	21:09:04.894	$GPGGA,210904,2540.9469,N,08004.5471,W,1,11,1.3,19,M,,M,,*6E
06/09/2014	21:09:05.920	$GPGGA,210905,2540.9458,N,08004.5491,W,1,10,1.3,19,M,,M,,*62
06/09/2014	21:09:06.999	$GPGGA,210906,2540.9447,N,08004.5509,W,1,10,1.2,19,M,,M,,*6E
06/09/2014	21:09:08.046	$GPGGA,210907,2540.9435,N,08004.5528,W,1,11,1.2,19,M,,M,,*68
06/09/2014	21:09:09.230	$GPGGA,210908,2540.9423,N,08004.5549,W,1,11,1.2,19,M,,M,,*67
06/09/2014	21:09:10.161	$GPGGA,210909,2540.9411,N,08004.5567,W,1,11,1.2,19,M,,M,,*6B
06/09/2014	21:09:11.218	$GPGGA,210910,2540.9398,N,08004.5586,W,1,11,1.2,19,M,,M,,*6A
06/09/2014	21:09:12.392	$GPGGA,210911,2540.9386,N,08004.5604,W,1,10,1.2,19,M,,M,,*6C
06/09/2014	21:09:13.354	$GPGGA,210912,2540.9372,N,08004.5623,W,1,10,1.2,19,M,,M,,*61
06/09/2014	21:09:14.369	$GPGGA,210913,2540.9357,N,08004.5643,W,1,11,1.2,19,M,,M,,*60
06/09/2014	21:09:15.427	$GPGGA,210914,2540.9343,N,08004.5661,W,1,11,1.3,19,M,,M,,*63
06/09/2014	21:09:16.516	$GPGGA,210915,2540.9328,N,08004.5676,W,1,10,1.2,19,M,,M,,*69
06/09/2014	21:09:17.564	$GPGGA,210916,2540.9315,N,08004.5693,W,1,10,1.2,19,M,,M,,*6F
06/09/2014	21:09:18.694	$GPGGA,210917,2540.9301,N,08004.5708,W,1,11,1.2,19,M,,M,,*69
06/09/2014	21:09:19.666	$GPGGA,210918,2540.9287,N,08004.5724,W,1,11,1.2,19,M,,M,,*67
06/09/2014	21:09:20.703	$GPGGA,210919,2540.9274,N,08004.5740,W,1,11,1.2,19,M,,M,,*68
06/09/2014	21:09:21.803	$GPGGA,210920,2540.9259,N,08004.5753,W,1,11,1.2,19,M,,M,,*6F
06/09/2014	21:09:22.924	$GPGGA,210921,2540.9245,N,08004.5769,W,1,11,1.2,19,M,,M,,*6A
06/09/2014	21:09:23.886	$GPGGA,210922,2540.9229,N,08004.5782,W,1,11,1.2,19,M,,M,,*66
06/09/2014	21:09:25.070	$GPGGA,210923,2540.9216,N,08004.5798,W,1,11,1.2,19,M,,M,,*60
06/09/2014	21:09:26.022	$GPGGA,210924,2540.9199,N,08004.5810,W,1,11,1.4,19,M,,M,,*6A
06/09/2014	21:09:27.164	$GPGGA,210925,2540.9184,N,08004.5824,W,1,9,1.4,19,M,,M,,*59
06/09/2014	21:09:28.196	$GPGGA,210926,2540.9170,N,08004.5838,W,1,9,1.2,19,M,,M,,*5A
06/09/2014	21:09:29.152	$GPGGA,210927,2540.9155,N,08004.5850,W,1,11,1.3,19,M,,M,,*6A
06/09/2014	21:09:30.252	$GPGGA,210928,2540.9140,N,08004.5863,W,1,11,1.3,19,M,,M,,*61
06/09/2014	21:09:31.389	$GPGGA,210929,2540.9126,N,08004.5878,W,1,10,1.3,19,M,,M,,*6B
06/09/2014	21:09:32.416	$GPGGA,210930,2540.9109,N,08004.5892,W,1,10,1.9,19,M,,M,,*60
06/09/2014	21:09:33.469	$GPGGA,210931,2540.9097,N,08004.5907,W,1,9,1.4,19,M,,M,,*5F
06/09/2014	21:09:34.541	$GPGGA,210932,2540.9076,N,08004.5918,W,1,9,1.4,19,M,,M,,*5D
06/09/2014	21:09:35.497	$GPGGA,210933,2540.9061,N,08004.5930,W,1,10,1.3,20,M,,M,,*65
06/09/2014	21:09:36.629	$GPGGA,210934,2540.9043,N,08004.5941,W,1,10,1.3,20,M,,M,,*64
06/09/2014	21:09:37.720	$GPGGA,210935,2540.9025,N,08004.5952,W,1,9,1.4,20,M,,M,,*58
06/09/2014	21:09:38.786	$GPGGA,210936,2540.9007,N,08004.5964,W,1,9,1.3,20,M,,M,,*59
06/09/2014	21:09:39.824	$GPGGA,210937,2540.8990,N,08004.5975,W,1,9,1.4,20,M,,M,,*59
06/09/2014	21:09:40.858	$GPGGA,210938,2540.8975,N,08004.5983,W,1,9,1.3,20,M,,M,,*53
06/09/2014	21:09:41.915	$GPGGA,210939,2540.8960,N,08004.5993,W,1,11,1.2,20,M,,M,,*6F
06/09/2014	21:09:42.973	$GPGGA,210940,2540.8945,N,08004.6001,W,1,11,1.2,20,M,,M,,*67
06/09/2014	21:09:40.592	$GPGGA,210941,2540.8927,N,08004.6008,W,1,10,1.2,20,M,,M,,*6A
06/09/2014	21:09:41.638	$GPGGA,210942,2540.8909,N,08004.6016,W,1,10,1.2,20,M,,M,,*6A
06/09/2014	21:09:42.695	$GPGGA,210943,2540.8891,N,08004.6024,W,1,10,1.3,20,M,,M,,*6B
06/09/2014	21:09:43.763	$GPGGA,210944,2540.8873,N,08004.6033,W,1,10,1.3,20,M,,M,,*66
06/09/2014	21:09:44.789	$GPGGA,210945,2540.8855,N,08004.6040,W,1,11,1.2,20,M,,M,,*67
06/09/2014	21:09:45.846	$GPGGA,210946,2540.8837,N,08004.6046,W,1,11,1.2,20,M,,M,,*66
06/09/2014	21:09:46.893	$GPGGA,210947,2540.8820,N,08004.6052,W,1,11,1.2,20,M,,M,,*64
06/09/2014	21:09:47.983	$GPGGA,210948,2540.8801,N,08004.6059,W,1,11,1.2,20,M,,M,,*63
06/09/2014	21:09:49.008	$GPGGA,210949,2540.8784,N,08004.6064,W,1,11,1.2,20,M,,M,,*6E
06/09/2014	21:09:50.066	$GPGGA,210950,2540.8765,N,08004.6069,W,1,11,1.2,21,M,,M,,*65
06/09/2014	21:09:51.124	$GPGGA,210951,2540.8747,N,08004.6074,W,1,11,1.2,21,M,,M,,*68
06/09/2014	21:09:52.201	$GPGGA,210952,2540.8728,N,08004.6077,W,1,11,1.2,21,M,,M,,*61
06/09/2014	21:09:53.259	$GPGGA,210953,2540.8709,N,08004.6080,W,1,11,1.2,21,M,,M,,*6B
06/09/2014	21:09:54.284	$GPGGA,210954,2540.8690,N,08004.6082,W,1,11,1.3,21,M,,M,,*6E
06/09/2014	21:09:55.374	$GPGGA,210955,2540.8671,N,08004.6084,W,1,11,1.2,21,M,,M,,*67
06/09/2014	21:09:56.420	$GPGGA,210956,2540.8650,N,08004.6087,W,1,11,1.3,21,M,,M,,*65
06/09/2014	21:09:57.478	$GPGGA,210957,2540.8629,N,08004.6087,W,1,10,1.3,21,M,,M,,*6B
06/09/2014	21:09:58.514	$GPGGA,210958,2540.8609,N,08004.6087,W,1,10,1.3,20,M,,M,,*67
06/09/2014	21:09:59.688	$GPGGA,210959,2540.8591,N,08004.6086,W,1,10,1.3,20,M,,M,,*65
06/09/2014	21:10:00.640	$GPGGA,211000,2540.8573,N,08004.6085,W,1,10,1.2,20,M,,M,,*6F
06/09/2014	21:10:01.687	$GPGGA,211001,2540.8553,N,08004.6083,W,1,11,1.2,20,M,,M,,*6B
06/09/2014	21:10:02.829	$GPGGA,211002,2540.8535,N,08004.6081,W,1,11,1.3,20,M,,M,,*6B
06/09/2014	21:10:03.791	$GPGGA,211003,2540.8516,N,08004.6078,W,1,11,1.2,20,M,,M,,*6C
06/09/2014	21:10:04.870	$GPGGA,211004,2540.8497,N,08004.6074,W,1,11,1.3,20,M,,M,,*6E
06/09/2014	21:10:06.033	$GPGGA,211005,2540.8479,N,08004.6070,W,1,11,1.2,20,M,,M,,*6A
06/09/2014	21:10:06.964	$GPGGA,211006,2540.8459,N,08004.6066,W,1,11,1.2,20,M,,M,,*6C
06/09/2014	21:10:08.021	$GPGGA,211007,2540.8443,N,08004.6061,W,1,10,1.3,20,M,,M,,*61
06/09/2014	21:10:09.079	$GPGGA,211008,2540.8422,N,08004.6055,W,1,10,1.2,20,M,,M,,*6F
06/09/2014	21:10:10.136	$GPGGA,211009,2540.8404,N,08004.6049,W,1,10,1.3,20,M,,M,,*66
06/09/2014	21:10:11.277	$GPGGA,211010,2540.8386,N,08004.6042,W,1,10,1.2,20,M,,M,,*69
06/09/2014	21:10:12.240	$GPGGA,211011,2540.8367,N,08004.6034,W,1,11,1.2,20,M,,M,,*67
06/09/2014	21:10:13.424	$GPGGA,211012,2540.8347,N,08004.6026,W,1,11,1.4,20,M,,M,,*63
06/09/2014	21:10:14.481	$GPGGA,211013,2540.8328,N,08004.6017,W,1,10,1.3,20,M,,M,,*6F
06/09/2014	21:10:15.507	$GPGGA,211014,2540.8308,N,08004.6008,W,1,10,1.3,20,M,,M,,*64
06/09/2014	21:10:16.586	$GPGGA,211015,2540.8288,N,08004.5998,W,1,10,1.3,20,M,,M,,*6F
06/09/2014	21:10:17.622	$GPGGA,211016,2540.8270,N,08004.5989,W,1,10,1.2,20,M,,M,,*6A
06/09/2014	21:10:18.669	$GPGGA,211017,2540.8250,N,08004.5978,W,1,11,1.2,20,M,,M,,*66
06/09/2014	21:10:19.727	$GPGGA,211018,2540.8232,N,08004.5968,W,1,11,1.3,20,M,,M,,*6D
06/09/2014	21:10:20.774	$GPGGA,211019,2540.8213,N,08004.5958,W,1,11,1.2,20,M,,M,,*6D
06/09/2014	21:10:21.852	$GPGGA,211020,2540.8194,N,08004.5946,W,1,11,1.2,20,M,,M,,*64
06/09/2014	21:10:22.910	$GPGGA,211021,2540.8176,N,08004.5935,W,1,11,1.2,20,M,,M,,*6D
06/09/2014	21:10:23.946	$GPGGA,211022,2540.8158,N,08004.5923,W,1,11,1.2,20,M,,M,,*65
06/09/2014	21:10:25.014	$GPGGA,211023,2540.8139,N,08004.5910,W,1,10,1.3,20,M,,M,,*63
06/09/2014	21:10:26.065	$GPGGA,211024,2540.8120,N,08004.5896,W,1,10,1.2,20,M,,M,,*62
06/09/2014	21:10:27.143	$GPGGA,211025,2540.8102,N,08004.5882,W,1,11,1.2,20,M,,M,,*67
06/09/2014	21:10:28.167	$GPGGA,211026,2540.8084,N,08004.5868,W,1,11,1.2,19,M,,M,,*65
06/09/2014	21:10:29.243	$GPGGA,211027,2540.8067,N,08004.5855,W,1,11,1.2,19,M,,M,,*67
06/09/2014	21:10:30.290	$GPGGA,211028,2540.8049,N,08004.5841,W,1,11,1.2,19,M,,M,,*61
06/09/2014	21:10:31.337	$GPGGA,211029,2540.8033,N,08004.5826,W,1,11,1.2,19,M,,M,,*6C
06/09/2014	21:10:32.384	$GPGGA,211030,2540.8017,N,08004.5811,W,1,11,1.2,19,M,,M,,*66
06/09/2014	21:10:33.431	$GPGGA,211031,2540.8002,N,08004.5796,W,1,11,1.2,19,M,,M,,*63
06/09/2014	21:10:34.509	$GPGGA,211032,2540.7985,N,08004.5780,W,1,11,1.2,19,M,,M,,*6E
06/09/2014	21:10:35.567	$GPGGA,211033,2540.7970,N,08004.5763,W,1,11,1.2,19,M,,M,,*68
06/09/2014	21:10:36.614	$GPGGA,211034,2540.7954,N,08004.5746,W,1,11,1.2,19,M,,M,,*6E
06/09/2014	21:10:37.682	$GPGGA,211035,2540.7938,N,08004.5728,W,1,10,1.3,19,M,,M,,*6D
06/09/2014	21:10:38.739	$GPGGA,211036,2540.7923,N,08004.5709,W,1,10,1.3,19,M,,M,,*67
06/09/2014	21:10:39.809	$GPGGA,211037,2540.7908,N,08004.5691,W,1,10,1.3,19,M,,M,,*6F
06/09/2014	21:10:40.823	$GPGGA,211038,2540.7896,N,08004.5672,W,1,10,1.3,19,M,,M,,*6B
06/09/2014	21:10:41.912	$GPGGA,211039,2540.7883,N,08004.5654,W,1,11,1.2,18,M,,M,,*6B
06/09/2014	21:10:42.959	$GPGGA,211040,2540.7870,N,08004.5635,W,1,11,1.3,18,M,,M,,*6F
06/09/2014	21:10:40.556	$GPGGA,211041,2540.7858,N,08004.5615,W,1,10,1.3,18,M,,M,,*67
06/09/2014	21:10:41.603	$GPGGA,211042,2540.7847,N,08004.5594,W,1,10,1.2,18,M,,M,,*61
06/09/2014	21:10:42.671	$GPGGA,211043,2540.7836,N,08004.5573,W,1,11,1.2,18,M,,M,,*6E
06/09/2014	21:10:43.728	$GPGGA,211044,2540.7824,N,08004.5552,W,1,11,1.2,18,M,,M,,*69
06/09/2014	21:10:44.764	$GPGGA,211045,2540.7814,N,08004.5531,W,1,10,1.2,18,M,,M,,*6F
06/09/2014	21:10:45.833	$GPGGA,211046,2540.7804,N,08004.5508,W,1,10,1.2,18,M,,M,,*67
06/09/2014	21:10:46.868	$GPGGA,211047,2540.7795,N,08004.5486,W,1,10,1.2,18,M,,M,,*66
06/09/2014	21:10:47.947	$GPGGA,211048,2540.7787,N,08004.5463,W,1,10,1.2,18,M,,M,,*61
06/09/2014	21:10:48.983	$GPGGA,211049,2540.7778,N,08004.5440,W,1,10,1.2,18,M,,M,,*61
06/09/2014	21:10:50.143	$GPGGA,211050,2540.7771,N,08004.5417,W,1,10,1.2,18,M,,M,,*62
06/09/2014	21:10:51.225	$GPGGA,211051,2540.7764,N,08004.5393,W,1,11,1.2,18,M,,M,,*6D
06/09/2014	21:10:52.177	$GPGGA,211052,2540.7757,N,08004.5369,W,1,11,1.2,18,M,,M,,*6B
06/09/2014	21:10:53.245	$GPGGA,211053,2540.7753,N,08004.5345,W,1,10,1.2,18,M,,M,,*61
06/09/2014	21:10:54.260	$GPGGA,211054,2540.7748,N,08004.5320,W,1,10,1.2,18,M,,M,,*6F
06/09/2014	21:10:55.339	$GPGGA,211055,2540.7744,N,08004.5295,W,1,10,1.2,18,M,,M,,*6D
06/09/2014	21:10:56.396	$GPGGA,211056,2540.7742,N,08004.5271,W,1,10,1.2,18,M,,M,,*62
06/09/2014	21:10:57.549	$GPGGA,211057,2540.7740,N,08004.5246,W,1,11,1.2,18,M,,M,,*64
06/09/2014	21:10:58.501	$GPGGA,211058,2540.7739,N,08004.5222,W,1,11,1.2,17,M,,M,,*68
06/09/2014	21:10:59.664	$GPGGA,211059,2540.7739,N,08004.5197,W,1,11,1.2,17,M,,M,,*64
06/09/2014	21:11:00.626	$GPGGA,211100,2540.7741,N,08004.5172,W,1,11,1.2,17,M,,M,,*6D
06/09/2014	21:11:01.758	$GPGGA,211101,2540.7742,N,08004.5146,W,1,10,1.3,17,M,,M,,*68
06/09/2014	21:11:02.698	$GPGGA,211102,2540.7745,N,08004.5121,W,1,10,1.2,17,M,,M,,*6C
06/09/2014	21:11:03.861	$GPGGA,211103,2540.7746,N,08004.5098,W,1,10,1.3,17,M,,M,,*6C
06/09/2014	21:11:04.950	$GPGGA,211104,2540.7752,N,08004.5074,W,1,10,1.2,17,M,,M,,*6D
06/09/2014	21:11:05.881	$GPGGA,211105,2540.7757,N,08004.5050,W,1,11,1.2,17,M,,M,,*6E
06/09/2014	21:11:07.028	$GPGGA,211106,2540.7763,N,08004.5028,W,1,11,1.2,17,M,,M,,*65
06/09/2014	21:11:07.975	$GPGGA,211107,2540.7771,N,08004.5004,W,1,10,1.3,18,M,,M,,*66
06/09/2014	21:11:09.159	$GPGGA,211108,2540.7778,N,08004.4983,W,1,10,1.2,18,M,,M,,*66
06/09/2014	21:11:10.226	$GPGGA,211109,2540.7785,N,08004.4963,W,1,11,1.2,18,M,,M,,*6A
06/09/2014	21:11:11.164	$GPGGA,211110,2540.7793,N,08004.4943,W,1,11,1.6,18,M,,M,,*63
06/09/2014	21:11:12.332	$GPGGA,211111,2540.7803,N,08004.4924,W,1,10,1.3,18,M,,M,,*61
06/09/2014	21:11:13.382	$GPGGA,211112,2540.7813,N,08004.4904,W,1,10,1.6,18,M,,M,,*64
06/09/2014	21:11:14.330	$GPGGA,211113,2540.7821,N,08004.4888,W,1,9,1.6,18,M,,M,,*59
06/09/2014	21:11:15.483	$GPGGA,211114,2540.7831,N,08004.4870,W,1,9,1.3,18,M,,M,,*5D
06/09/2014	21:11:16.445	$GPGGA,211115,2540.7839,N,08004.4856,W,1,11,1.2,18,M,,M,,*68
06/09/2014	21:11:17.599	$GPGGA,211116,2540.7847,N,08004.4841,W,1,11,1.3,18,M,,M,,*65
06/09/2014	21:11:18.646	$GPGGA,211117,2540.7858,N,08004.4825,W,1,11,1.2,18,M,,M,,*69
06/09/2014	21:11:19.702	$GPGGA,211118,2540.7868,N,08004.4811,W,1,11,1.2,18,M,,M,,*62
06/09/2014	21:11:20.776	$GPGGA,211119,2540.7879,N,08004.4797,W,1,11,1.2,18,M,,M,,*62
06/09/2014	21:11:21.816	$GPGGA,211120,2540.7887,N,08004.4785,W,1,11,1.2,18,M,,M,,*6A
06/09/2014	21:11:22.863	$GPGGA,211121,2540.7897,N,08004.4772,W,1,10,1.3,18,M,,M,,*62
06/09/2014	21:11:23.921	$GPGGA,211122,2540.7908,N,08004.4761,W,1,10,1.2,18,M,,M,,*65
06/09/2014	21:11:24.989	$GPGGA,211123,2540.7918,N,08004.4749,W,1,10,1.2,18,M,,M,,*6F
06/09/2014	21:11:26.046	$GPGGA,211124,2540.7929,N,08004.4738,W,1,10,1.2,18,M,,M,,*6C
06/09/2014	21:11:27.104	$GPGGA,211125,2540.7939,N,08004.4727,W,1,10,1.2,18,M,,M,,*62
06/09/2014	21:11:28.130	$GPGGA,211126,2540.7948,N,08004.4717,W,1,10,1.2,18,M,,M,,*64
06/09/2014	21:11:29.187	$GPGGA,211127,2540.7959,N,08004.4707,W,1,10,1.2,18,M,,M,,*64
06/09/2014	21:11:30.276	$GPGGA,211128,2540.7969,N,08004.4698,W,1,10,1.2,18,M,,M,,*6F
06/09/2014	21:11:31.323	$GPGGA,211129,2540.7977,N,08004.4689,W,1,10,1.2,18,M,,M,,*61
06/09/2014	21:11:32.370	$GPGGA,211130,2540.7987,N,08004.4680,W,1,10,1.6,18,M,,M,,*6B
06/09/2014	21:11:33.428	$GPGGA,211131,2540.7997,N,08004.4672,W,1,10,1.3,18,M,,M,,*63
06/09/2014	21:11:34.486	$GPGGA,211132,2540.8005,N,08004.4666,W,1,10,1.6,18,M,,M,,*6D
06/09/2014	21:11:35.511	$GPGGA,211133,2540.8013,N,08004.4659,W,1,10,1.3,18,M,,M,,*62
06/09/2014	21:11:36.568	$GPGGA,211134,2540.8023,N,08004.4651,W,1,10,1.3,18,M,,M,,*6E
06/09/2014	21:11:37.658	$GPGGA,211135,2540.8031,N,08004.4643,W,1,10,1.3,18,M,,M,,*6F
06/09/2014	21:11:38.706	$GPGGA,211136,2540.8041,N,08004.4636,W,1,10,1.3,18,M,,M,,*69
06/09/2014	21:11:39.740	$GPGGA,211137,2540.8049,N,08004.4629,W,1,10,1.3,18,M,,M,,*6E
06/09/2014	21:11:40.808	$GPGGA,211138,2540.8059,N,08004.4622,W,1,10,1.3,18,M,,M,,*6B
06/09/2014	21:11:41.877	$GPGGA,211139,2540.8069,N,08004.4615,W,1,10,1.3,18,M,,M,,*6D
06/09/2014	21:11:42.923	$GPGGA,211140,2540.8078,N,08004.4607,W,1,10,1.3,18,M,,M,,*60
06/09/2014	21:11:40.553	$GPGGA,211141,2540.8087,N,08004.4600,W,1,10,1.3,18,M,,M,,*66
