Software Version Number: 1	Data File Format Number: 1	Build Version Number: 1	Error Count Since VI Started: 0	Manufacturer: Raytheon	 Model Number: RayMarine 120	 S/N: 	 Cal Date: 	 Wind Direction Offset: 0.00	 Slope (M)1: 0.00	 Offset (B)1: 0.00	 Slope (M)2: 0.00	 Offset (B)2: 0.00	 Slope (M)3: 0.00	 Offset (B)3: 0.00	 Slope (M)4: 0.00	 Offset (B)4: 0.00	 Slope (M)5: 0.00	 Offset (B)5: 0.00	 Slope (M)6: 0.00	 Offset (B)6: 0.00
Computer Date	Computer Time	GGA String
06/13/2014	23:00:00.601	$GPGGA,230001,2433.9825,N,08051.2800,W,1,11,1.6,20,M,,M,,*63
06/13/2014	23:00:01.564	$GPGGA,230002,2433.9820,N,08051.2800,W,1,11,1.9,20,M,,M,,*6A
06/13/2014	23:00:02.558	$GPGGA,230003,2433.9817,N,08051.2798,W,1,9,1.7,20,M,,M,,*56
06/13/2014	23:00:03.574	$GPGGA,230004,2433.9816,N,08051.2804,W,1,9,1.6,20,M,,M,,*5B
06/13/2014	23:00:04.558	$GPGGA,230005,2433.9812,N,08051.2811,W,1,9,1.9,20,M,,M,,*55
06/13/2014	23:00:05.571	$GPGGA,230006,2433.9809,N,08051.2816,W,1,9,1.6,20,M,,M,,*54
06/13/2014	23:00:06.563	$GPGGA,230007,2433.9809,N,08051.2825,W,1,10,1.6,20,M,,M,,*6D
06/13/2014	23:00:07.583	$GPGGA,230008,2433.9805,N,08051.2829,W,1,10,1.8,20,M,,M,,*6C
06/13/2014	23:00:08.676	$GPGGA,230009,2433.9803,N,08051.2836,W,1,10,1.6,20,M,,M,,*6B
06/13/2014	23:00:09.559	$GPGGA,230010,2433.9801,N,08051.2843,W,1,10,1.6,20,M,,M,,*63
06/13/2014	23:00:10.551	$GPGGA,230011,2433.9800,N,08051.2850,W,1,9,1.9,20,M,,M,,*56
06/13/2014	23:00:11.684	$GPGGA,230012,2433.9798,N,08051.2855,W,1,9,1.8,20,M,,M,,*5F
06/13/2014	23:00:12.588	$GPGGA,230013,2433.9794,N,08051.2857,W,1,9,1.9,20,M,,M,,*51
06/13/2014	23:00:13.559	$GPGGA,230014,2433.9790,N,08051.2861,W,1,9,1.6,20,M,,M,,*58
06/13/2014	23:00:14.692	$GPGGA,230015,2433.9787,N,08051.2866,W,1,10,1.6,20,M,,M,,*60
06/13/2014	23:00:15.585	$GPGGA,230016,2433.9785,N,08051.2872,W,1,10,1.6,20,M,,M,,*64
06/13/2014	23:00:16.690	$GPGGA,230017,2433.9786,N,08051.2881,W,1,11,1.6,20,M,,M,,*6B
06/13/2014	23:00:17.570	$GPGGA,230018,2433.9783,N,08051.2886,W,1,11,1.8,20,M,,M,,*68
06/13/2014	23:00:18.663	$GPGGA,230019,2433.9780,N,08051.2891,W,1,11,1.6,20,M,,M,,*62
06/13/2014	23:00:19.586	$GPGGA,230020,2433.9776,N,08051.2894,W,1,11,1.9,20,M,,M,,*6B
06/13/2014	23:00:20.669	$GPGGA,230021,2433.9772,N,08051.2895,W,1,10,1.6,20,M,,M,,*61
06/13/2014	23:00:21.670	$GPGGA,230022,2433.9770,N,08051.2901,W,1,10,1.8,20,M,,M,,*62
06/13/2014	23:00:22.687	$GPGGA,230023,2433.9767,N,08051.2905,W,1,10,1.6,20,M,,M,,*6F
06/13/2014	23:00:23.688	$GPGGA,230024,2433.9762,N,08051.2908,W,1,10,1.8,20,M,,M,,*6E
06/13/2014	23:00:24.668	$GPGGA,230025,2433.9760,N,08051.2912,W,1,9,1.7,20,M,,M,,*51
06/13/2014	23:00:25.671	$GPGGA,230026,2433.9759,N,08051.2921,W,1,9,1.6,20,M,,M,,*59
06/13/2014	23:00:26.664	$GPGGA,230027,2433.9756,N,08051.2926,W,1,10,1.8,20,M,,M,,*66
06/13/2014	23:00:27.686	$GPGGA,230028,2433.9753,N,08051.2928,W,1,10,1.6,20,M,,M,,*6C
06/13/2014	23:00:28.702	$GPGGA,230029,2433.9754,N,08051.2938,W,1,10,1.6,21,M,,M,,*6A
06/13/2014	23:00:29.682	$GPGGA,230030,2433.9751,N,08051.2944,W,1,10,1.8,21,M,,M,,*62
06/13/2014	23:00:30.685	$GPGGA,230031,2433.9753,N,08051.2952,W,1,10,1.6,21,M,,M,,*68
06/13/2014	23:00:31.687	$GPGGA,230032,2433.9748,N,08051.2959,W,1,10,2.2,21,M,,M,,*6D
06/13/2014	23:00:32.690	$GPGGA,230033,2433.9743,N,08051.2962,W,1,10,1.8,20,M,,M,,*67
06/13/2014	23:00:33.663	$GPGGA,230034,2433.9737,N,08051.2966,W,1,10,1.6,21,M,,M,,*68
06/13/2014	23:00:34.685	$GPGGA,230035,2433.9733,N,08051.2970,W,1,10,1.6,21,M,,M,,*6A
06/13/2014	23:00:35.688	$GPGGA,230036,2433.9729,N,08051.2977,W,1,10,1.6,21,M,,M,,*65
06/13/2014	23:00:36.671	$GPGGA,230037,2433.9727,N,08051.2985,W,1,9,1.9,21,M,,M,,*50
06/13/2014	23:00:37.673	$GPGGA,230038,2433.9725,N,08051.2991,W,1,9,1.8,21,M,,M,,*59
06/13/2014	23:00:38.706	$GPGGA,230039,2433.9722,N,08051.2995,W,1,10,1.8,21,M,,M,,*63
06/13/2014	23:00:39.698	$GPGGA,230040,2433.9719,N,08051.2999,W,1,10,1.6,21,M,,M,,*67
06/13/2014	23:00:40.690	$GPGGA,230041,2433.9717,N,08051.3006,W,1,11,1.6,21,M,,M,,*67
06/13/2014	23:00:41.665	$GPGGA,230042,2433.9716,N,08051.3013,W,1,11,1.9,21,M,,M,,*6E
06/13/2014	23:00:42.716	$GPGGA,230043,2433.9715,N,08051.3013,W,1,10,1.8,21,M,,M,,*6C
06/13/2014	23:00:43.699	$GPGGA,230044,2433.9711,N,08051.3017,W,1,10,1.6,21,M,,M,,*65
06/13/2014	23:00:44.674	$GPGGA,230045,2433.9708,N,08051.3021,W,1,9,1.7,21,M,,M,,*50
06/13/2014	23:00:45.678	$GPGGA,230046,2433.9704,N,08051.3025,W,1,9,1.8,21,M,,M,,*54
06/13/2014	23:00:46.707	$GPGGA,230047,2433.9702,N,08051.3035,W,1,10,1.6,21,M,,M,,*64
06/13/2014	23:00:47.539	$GPGGA,230048,2433.9698,N,08051.3042,W,1,10,1.8,21,M,,M,,*67
06/13/2014	23:00:48.552	$GPGGA,230049,2433.9693,N,08051.3045,W,1,10,1.8,21,M,,M,,*6A
06/13/2014	23:00:49.525	$GPGGA,230050,2433.9690,N,08051.3046,W,1,10,1.6,21,M,,M,,*6C
06/13/2014	23:00:50.547	$GPGGA,230051,2433.9688,N,08051.3049,W,1,11,1.6,21,M,,M,,*6A
06/13/2014	23:00:51.530	$GPGGA,230052,2433.9684,N,08051.3051,W,1,11,1.6,21,M,,M,,*6C
06/13/2014	23:00:52.563	$GPGGA,230053,2433.9680,N,08051.3056,W,1,10,1.6,21,M,,M,,*6F
06/13/2014	23:00:53.525	$GPGGA,230054,2433.9677,N,08051.3061,W,1,10,1.6,21,M,,M,,*64
06/13/2014	23:00:54.648	$GPGGA,230055,2433.9675,N,08051.3071,W,1,11,1.6,21,M,,M,,*67
06/13/2014	23:00:55.531	$GPGGA,230056,2433.9672,N,08051.3078,W,1,11,1.8,21,M,,M,,*64
06/13/2014	23:00:56.573	$GPGGA,230057,2433.9668,N,08051.3078,W,1,10,1.8,21,M,,M,,*6F
06/13/2014	23:00:57.538	$GPGGA,230058,2433.9665,N,08051.3083,W,1,10,1.6,21,M,,M,,*67
06/13/2014	23:00:58.640	$GPGGA,230059,2433.9664,N,08051.3086,W,1,11,1.6,21,M,,M,,*63
06/13/2014	23:00:59.561	$GPGGA,230100,2433.9661,N,08051.3092,W,1,11,1.6,21,M,,M,,*6E
06/13/2014	23:01:00.536	$GPGGA,230101,2433.9659,N,08051.3096,W,1,10,1.8,21,M,,M,,*6F
06/13/2014	23:01:01.626	$GPGGA,230102,2433.9657,N,08051.3103,W,1,10,1.6,21,M,,M,,*61
06/13/2014	23:01:02.519	$GPGGA,230103,2433.9654,N,08051.3111,W,1,10,1.6,21,M,,M,,*60
06/13/2014	23:01:03.551	$GPGGA,230104,2433.9651,N,08051.3121,W,1,10,1.6,21,M,,M,,*61
06/13/2014	23:01:04.664	$GPGGA,230105,2433.9648,N,08051.3126,W,1,10,1.8,21,M,,M,,*61
06/13/2014	23:01:05.627	$GPGGA,230106,2433.9647,N,08051.3132,W,1,10,1.8,21,M,,M,,*68
06/13/2014	23:01:06.519	$GPGGA,230107,2433.9646,N,08051.3137,W,1,10,1.8,21,M,,M,,*6D
06/13/2014	23:01:07.555	$GPGGA,230108,2433.9646,N,08051.3139,W,1,10,1.9,21,M,,M,,*6D
06/13/2014	23:01:08.667	$GPGGA,230109,2433.9644,N,08051.3143,W,1,11,1.8,20,M,,M,,*62
06/13/2014	23:01:09.628	$GPGGA,230110,2433.9642,N,08051.3150,W,1,11,1.8,20,M,,M,,*6E
06/13/2014	23:01:10.652	$GPGGA,230111,2433.9641,N,08051.3157,W,1,10,1.8,20,M,,M,,*6A
06/13/2014	23:01:11.644	$GPGGA,230112,2433.9639,N,08051.3165,W,1,10,1.6,20,M,,M,,*69
06/13/2014	23:01:12.636	$GPGGA,230113,2433.9636,N,08051.3170,W,1,9,1.9,20,M,,M,,*54
06/13/2014	23:01:13.629	$GPGGA,230114,2433.9635,N,08051.3176,W,1,9,1.9,20,M,,M,,*56
06/13/2014	23:01:14.640	$GPGGA,230115,2433.9632,N,08051.3175,W,1,10,1.8,20,M,,M,,*6A
06/13/2014	23:01:15.653	$GPGGA,230116,2433.9632,N,08051.3177,W,1,10,1.6,20,M,,M,,*65
06/13/2014	23:01:16.657	$GPGGA,230117,2433.9629,N,08051.3181,W,1,10,1.6,20,M,,M,,*67
06/13/2014	23:01:17.638	$GPGGA,230118,2433.9630,N,08051.3187,W,1,10,1.6,20,M,,M,,*66
06/13/2014	23:01:18.651	$GPGGA,230119,2433.9626,N,08051.3194,W,1,11,1.8,20,M,,M,,*6D
06/13/2014	23:01:19.654	$GPGGA,230120,2433.9624,N,08051.3201,W,1,11,1.8,19,M,,M,,*60
06/13/2014	23:01:20.636	$GPGGA,230121,2433.9623,N,08051.3205,W,1,10,1.8,19,M,,M,,*63
06/13/2014	23:01:21.690	$GPGGA,230122,2433.9624,N,08051.3209,W,1,10,1.8,19,M,,M,,*6B
06/13/2014	23:01:22.662	$GPGGA,230123,2433.9622,N,08051.3210,W,1,11,1.6,19,M,,M,,*6B
06/13/2014	23:01:23.665	$GPGGA,230124,2433.9619,N,08051.3213,W,1,11,1.7,19,M,,M,,*66
06/13/2014	23:01:24.637	$GPGGA,230125,2433.9617,N,08051.3217,W,1,11,1.6,19,M,,M,,*6C
06/13/2014	23:01:25.650	$GPGGA,230126,2433.9615,N,08051.3223,W,1,11,1.6,19,M,,M,,*6A
06/13/2014	23:01:26.673	$GPGGA,230127,2433.9613,N,08051.3230,W,1,11,1.6,19,M,,M,,*6F
06/13/2014	23:01:27.645	$GPGGA,230128,2433.9607,N,08051.3238,W,1,11,1.8,19,M,,M,,*63
06/13/2014	23:01:28.668	$GPGGA,230129,2433.9604,N,08051.3246,W,1,8,2.0,19,M,,M,,*5B
06/13/2014	23:01:29.631	$GPGGA,230130,2433.9606,N,08051.3253,W,1,8,1.9,19,M,,M,,*5F
06/13/2014	23:01:30.684	$GPGGA,230131,2433.9604,N,08051.3255,W,1,10,1.8,19,M,,M,,*62
06/13/2014	23:01:31.665	$GPGGA,230132,2433.9603,N,08051.3258,W,1,10,1.6,19,M,,M,,*65
06/13/2014	23:01:32.688	$GPGGA,230133,2433.9601,N,08051.3259,W,1,10,1.6,19,M,,M,,*67
06/13/2014	23:01:33.640	$GPGGA,230134,2433.9600,N,08051.3266,W,1,10,1.6,19,M,,M,,*6D
06/13/2014	23:01:34.683	$GPGGA,230135,2433.9599,N,08051.3273,W,1,11,1.6,19,M,,M,,*6A
06/13/2014	23:01:35.666	$GPGGA,230136,2433.9597,N,08051.3280,W,1,11,1.9,19,M,,M,,*64
06/13/2014	23:01:36.689	$GPGGA,230137,2433.9596,N,08051.3287,W,1,10,1.8,19,M,,M,,*63
06/13/2014	23:01:37.646	$GPGGA,230138,2433.9594,N,08051.3291,W,1,10,1.8,19,M,,M,,*69
06/13/2014	23:01:38.664	$GPGGA,230139,2433.9592,N,08051.3295,W,1,10,1.6,19,M,,M,,*64
06/13/2014	23:01:39.667	$GPGGA,230140,2433.9590,N,08051.3300,W,1,10,1.6,19,M,,M,,*65
06/13/2014	23:01:40.653	$GPGGA,230141,2433.9585,N,08051.3300,W,1,9,1.9,19,M,,M,,*57
06/13/2014	23:01:41.822	$GPGGA,230142,2433.9581,N,08051.3303,W,1,9,1.6,19,M,,M,,*5C
06/13/2014	23:01:42.775	$GPGGA,230143,2433.9581,N,08051.3311,W,1,11,1.8,19,M,,M,,*69
06/13/2014	23:01:43.662	$GPGGA,230144,2433.9577,N,08051.3318,W,1,11,1.8,19,M,,M,,*6E
06/13/2014	23:01:44.664	$GPGGA,230145,2433.9574,N,08051.3324,W,1,9,1.9,19,M,,M,,*5B
06/13/2014	23:01:45.663	$GPGGA,230146,2433.9572,N,08051.3329,W,1,9,1.8,19,M,,M,,*52
06/13/2014	23:01:46.776	$GPGGA,230147,2433.9570,N,08051.3335,W,1,9,1.9,19,M,,M,,*5D
06/13/2014	23:01:47.498	$GPGGA,230148,2433.9566,N,08051.3339,W,1,9,1.9,19,M,,M,,*59
06/13/2014	23:01:48.514	$GPGGA,230149,2433.9561,N,08051.3342,W,1,10,1.8,19,M,,M,,*6A
06/13/2014	23:01:49.493	$GPGGA,230150,2433.9557,N,08051.3345,W,1,10,1.6,19,M,,M,,*6E
06/13/2014	23:01:50.485	$GPGGA,230151,2433.9554,N,08051.3349,W,1,9,1.6,19,M,,M,,*58
06/13/2014	23:01:51.608	$GPGGA,230152,2433.9552,N,08051.3352,W,1,9,1.6,19,M,,M,,*57
06/13/2014	23:01:52.611	$GPGGA,230153,2433.9549,N,08051.3354,W,1,11,1.6,19,M,,M,,*63
06/13/2014	23:01:53.503	$GPGGA,230154,2433.9545,N,08051.3357,W,1,11,1.6,19,M,,M,,*6B
06/13/2014	23:01:54.617	$GPGGA,230155,2433.9540,N,08051.3360,W,1,10,1.6,20,M,,M,,*60
06/13/2014	23:01:55.629	$GPGGA,230156,2433.9536,N,08051.3364,W,1,10,1.6,20,M,,M,,*66
06/13/2014	23:01:56.601	$GPGGA,230157,2433.9534,N,08051.3370,W,1,10,1.6,20,M,,M,,*60
06/13/2014	23:01:57.594	$GPGGA,230158,2433.9530,N,08051.3374,W,1,10,1.6,20,M,,M,,*6F
06/13/2014	23:01:58.606	$GPGGA,230159,2433.9527,N,08051.3376,W,1,10,1.6,20,M,,M,,*6A
06/13/2014	23:01:59.639	$GPGGA,230200,2433.9524,N,08051.3378,W,1,10,1.6,20,M,,M,,*68
06/13/2014	23:02:00.622	$GPGGA,230201,2433.9523,N,08051.3381,W,1,11,1.6,20,M,,M,,*69
06/13/2014	23:02:01.594	$GPGGA,230202,2433.9520,N,08051.3385,W,1,11,1.6,21,M,,M,,*6C
06/13/2014	23:02:02.627	$GPGGA,230203,2433.9516,N,08051.3389,W,1,11,1.6,21,M,,M,,*64
06/13/2014	23:02:03.610	$GPGGA,230204,2433.9514,N,08051.3394,W,1,11,1.6,21,M,,M,,*6D
06/13/2014	23:02:04.682	$GPGGA,230205,2433.9511,N,08051.3403,W,1,11,1.8,21,M,,M,,*6E
06/13/2014	23:02:05.606	$GPGGA,230206,2433.9509,N,08051.3407,W,1,11,1.6,21,M,,M,,*6E
06/13/2014	23:02:06.627	$GPGGA,230207,2433.9509,N,08051.3410,W,1,10,1.6,21,M,,M,,*68
06/13/2014	23:02:07.619	$GPGGA,230208,2433.9507,N,08051.3414,W,1,10,1.6,21,M,,M,,*6D
06/13/2014	23:02:08.631	$GPGGA,230209,2433.9506,N,08051.3417,W,1,11,1.8,21,M,,M,,*61
06/13/2014	23:02:09.614	$GPGGA,230210,2433.9501,N,08051.3421,W,1,11,1.6,21,M,,M,,*65
06/13/2014	23:02:10.606	$GPGGA,230211,2433.9499,N,08051.3428,W,1,10,1.8,22,M,,M,,*61
06/13/2014	23:02:11.619	$GPGGA,230212,2433.9498,N,08051.3436,W,1,10,1.9,22,M,,M,,*6D
06/13/2014	23:02:12.592	$GPGGA,230213,2433.9496,N,08051.3443,W,1,9,1.8,22,M,,M,,*59
06/13/2014	23:02:13.614	$GPGGA,230214,2433.9493,N,08051.3444,W,1,9,1.6,22,M,,M,,*52
06/13/2014	23:02:14.627	$GPGGA,230215,2433.9491,N,08051.3447,W,1,11,1.7,22,M,,M,,*6A
06/13/2014	23:02:15.619	$GPGGA,230216,2433.9491,N,08051.3450,W,1,11,1.6,22,M,,M,,*6E
06/13/2014	23:02:16.612	$GPGGA,230217,2433.9487,N,08051.3454,W,1,10,1.6,22,M,,M,,*6D
06/13/2014	23:02:17.615	$GPGGA,230218,2433.9482,N,08051.3457,W,1,10,1.6,22,M,,M,,*64
06/13/2014	23:02:18.637	$GPGGA,230219,2433.9480,N,08051.3461,W,1,10,1.6,22,M,,M,,*62
06/13/2014	23:02:19.640	$GPGGA,230220,2433.9478,N,08051.3465,W,1,10,1.6,22,M,,M,,*6B
06/13/2014	23:02:20.632	$GPGGA,230221,2433.9477,N,08051.3469,W,1,10,1.8,22,M,,M,,*67
06/13/2014	23:02:21.625	$GPGGA,230222,2433.9474,N,08051.3472,W,1,10,1.6,22,M,,M,,*63
06/13/2014	23:02:22.638	$GPGGA,230223,2433.9473,N,08051.3476,W,1,11,1.6,22,M,,M,,*60
06/13/2014	23:02:23.630	$GPGGA,230224,2433.9471,N,08051.3480,W,1,11,1.6,22,M,,M,,*6C
06/13/2014	23:02:24.642	$GPGGA,230225,2433.9469,N,08051.3484,W,1,11,1.6,22,M,,M,,*60
06/13/2014	23:02:25.614	$GPGGA,230226,2433.9465,N,08051.3488,W,1,11,1.7,22,M,,M,,*62
06/13/2014	23:02:26.647	$GPGGA,230227,2433.9464,N,08051.3493,W,1,9,1.6,22,M,,M,,*50
06/13/2014	23:02:27.640	$GPGGA,230228,2433.9463,N,08051.3501,W,1,9,1.6,22,M,,M,,*52
06/13/2014	23:02:28.632	$GPGGA,230229,2433.9460,N,08051.3505,W,1,11,1.6,22,M,,M,,*6D
06/13/2014	23:02:29.705	$GPGGA,230230,2433.9458,N,08051.3509,W,1,11,1.6,22,M,,M,,*62
06/13/2014	23:02:30.698	$GPGGA,230231,2433.9456,N,08051.3515,W,1,10,1.6,22,M,,M,,*61
06/13/2014	23:02:31.630	$GPGGA,230232,2433.9453,N,08051.3520,W,1,10,1.6,22,M,,M,,*61
06/13/2014	23:02:32.626	$GPGGA,230233,2433.9451,N,08051.3524,W,1,10,1.6,22,M,,M,,*66
06/13/2014	23:02:33.705	$GPGGA,230234,2433.9451,N,08051.3530,W,1,10,1.6,22,M,,M,,*64
06/13/2014	23:02:34.721	$GPGGA,230235,2433.9447,N,08051.3534,W,1,11,1.6,22,M,,M,,*67
06/13/2014	23:02:35.640	$GPGGA,230236,2433.9444,N,08051.3538,W,1,11,1.6,22,M,,M,,*6B
06/13/2014	23:02:36.633	$GPGGA,230237,2433.9440,N,08051.3544,W,1,10,1.6,22,M,,M,,*64
06/13/2014	23:02:37.717	$GPGGA,230238,2433.9440,N,08051.3549,W,1,10,1.6,22,M,,M,,*66
06/13/2014	23:02:38.709	$GPGGA,230239,2433.9436,N,08051.3555,W,1,11,1.6,22,M,,M,,*6A
06/13/2014	23:02:39.751	$GPGGA,230240,2433.9433,N,08051.3562,W,1,11,1.6,22,M,,M,,*65
06/13/2014	23:02:40.729	$GPGGA,230241,2433.9433,N,08051.3567,W,1,9,1.6,21,M,,M,,*5B
06/13/2014	23:02:41.715	$GPGGA,230242,2433.9429,N,08051.3573,W,1,9,1.8,21,M,,M,,*58
06/13/2014	23:02:42.708	$GPGGA,230243,2433.9427,N,08051.3577,W,1,10,1.6,21,M,,M,,*65
06/13/2014	23:02:43.720	$GPGGA,230244,2433.9424,N,08051.3580,W,1,10,1.6,21,M,,M,,*69
06/13/2014	23:02:44.773	$GPGGA,230245,2433.9422,N,08051.3585,W,1,10,1.6,21,M,,M,,*6B
06/13/2014	23:02:45.726	$GPGGA,230246,2433.9419,N,08051.3591,W,1,10,1.6,21,M,,M,,*65
06/13/2014	23:02:46.718	$GPGGA,230247,2433.9418,N,08051.3598,W,1,11,1.8,21,M,,M,,*63
06/13/2014	23:02:47.565	$GPGGA,230248,2433.9415,N,08051.3605,W,1,11,1.8,21,M,,M,,*66
06/13/2014	23:02:48.558	$GPGGA,230249,2433.9412,N,08051.3607,W,1,10,1.8,21,M,,M,,*63
06/13/2014	23:02:49.581	$GPGGA,230250,2433.9413,N,08051.3611,W,1,10,1.6,21,M,,M,,*63
06/13/2014	23:02:50.583	$GPGGA,230251,2433.9411,N,08051.3616,W,1,11,1.8,21,M,,M,,*68
06/13/2014	23:02:51.576	$GPGGA,230252,2433.9408,N,08051.3618,W,1,11,1.8,21,M,,M,,*6D
06/13/2014	23:02:52.588	$GPGGA,230253,2433.9404,N,08051.3624,W,1,10,1.6,21,M,,M,,*60
06/13/2014	23:02:53.571	$GPGGA,230254,2433.9401,N,08051.3631,W,1,10,1.6,21,M,,M,,*66
06/13/2014	23:02:54.594	$GPGGA,230255,2433.9398,N,08051.3638,W,1,11,1.6,21,M,,M,,*68
06/13/2014	23:02:55.587	$GPGGA,230256,2433.9397,N,08051.3643,W,1,11,1.8,21,M,,M,,*66
06/13/2014	23:02:56.589	$GPGGA,230257,2433.9394,N,08051.3645,W,1,10,1.8,20,M,,M,,*62
06/13/2014	23:02:57.561	$GPGGA,230258,2433.9391,N,08051.3649,W,1,10,1.6,20,M,,M,,*6A
06/13/2014	23:02:58.574	$GPGGA,230259,2433.9387,N,08051.3652,W,1,11,1.8,20,M,,M,,*69
06/13/2014	23:02:59.596	$GPGGA,230300,2433.9384,N,08051.3657,W,1,11,1.6,20,M,,M,,*6C
06/13/2014	23:03:00.568	$GPGGA,230301,2433.9381,N,08051.3664,W,1,11,1.6,20,M,,M,,*68
06/13/2014	23:03:01.571	$GPGGA,230302,2433.9377,N,08051.3671,W,1,11,1.8,20,M,,M,,*68
06/13/2014	23:03:02.563	$GPGGA,230303,2433.9375,N,08051.3678,W,1,9,1.9,20,M,,M,,*5A
06/13/2014	23:03:03.586	$GPGGA,230304,2433.9373,N,08051.3683,W,1,9,1.9,20,M,,M,,*5F
06/13/2014	23:03:04.619	$GPGGA,230305,2433.9371,N,08051.3688,W,1,9,1.9,20,M,,M,,*57
06/13/2014	23:03:05.561	$GPGGA,230306,2433.9368,N,08051.3689,W,1,9,1.8,20,M,,M,,*5C
06/13/2014	23:03:06.584	$GPGGA,230307,2433.9366,N,08051.3696,W,1,11,1.6,20,M,,M,,*6A
06/13/2014	23:03:07.596	$GPGGA,230308,2433.9367,N,08051.3703,W,1,11,1.7,20,M,,M,,*68
06/13/2014	23:03:08.599	$GPGGA,230309,2433.9363,N,08051.3710,W,1,11,1.6,20,M,,M,,*6E
06/13/2014	23:03:09.567	$GPGGA,230310,2433.9361,N,08051.3715,W,1,11,1.9,20,M,,M,,*6E
06/13/2014	23:03:10.684	$GPGGA,230311,2433.9357,N,08051.3715,W,1,10,1.8,20,M,,M,,*6A
06/13/2014	23:03:11.697	$GPGGA,230312,2433.9355,N,08051.3717,W,1,10,1.6,20,M,,M,,*67
06/13/2014	23:03:12.567	$GPGGA,230313,2433.9352,N,08051.3718,W,1,11,1.6,20,M,,M,,*6F
06/13/2014	23:03:13.582	$GPGGA,230314,2433.9350,N,08051.3721,W,1,11,1.6,20,M,,M,,*60
06/13/2014	23:03:14.594	$GPGGA,230315,2433.9346,N,08051.3726,W,1,10,1.6,20,M,,M,,*60
06/13/2014	23:03:15.579	$GPGGA,230316,2433.9344,N,08051.3730,W,1,10,1.6,20,M,,M,,*66
06/13/2014	23:03:16.581	$GPGGA,230317,2433.9341,N,08051.3736,W,1,11,1.6,20,M,,M,,*65
06/13/2014	23:03:17.671	$GPGGA,230318,2433.9339,N,08051.3739,W,1,11,1.6,20,M,,M,,*6A
06/13/2014	23:03:18.667	$GPGGA,230319,2433.9336,N,08051.3743,W,1,11,1.6,20,M,,M,,*69
06/13/2014	23:03:19.582	$GPGGA,230320,2433.9334,N,08051.3746,W,1,11,1.6,20,M,,M,,*64
06/13/2014	23:03:20.680	$GPGGA,230321,2433.9332,N,08051.3750,W,1,11,1.6,21,M,,M,,*65
06/13/2014	23:03:21.672	$GPGGA,230322,2433.9328,N,08051.3755,W,1,11,1.6,21,M,,M,,*68
06/13/2014	23:03:22.595	$GPGGA,230323,2433.9328,N,08051.3761,W,1,10,1.6,21,M,,M,,*6F
06/13/2014	23:03:23.677	$GPGGA,230324,2433.9325,N,08051.3768,W,1,10,1.6,21,M,,M,,*6C
06/13/2014	23:03:24.589	$GPGGA,230325,2433.9323,N,08051.3772,W,1,11,1.6,21,M,,M,,*61
06/13/2014	23:03:25.683	$GPGGA,230326,2433.9321,N,08051.3776,W,1,11,1.6,21,M,,M,,*64
06/13/2014	23:03:26.585	$GPGGA,230327,2433.9319,N,08051.3780,W,1,11,1.6,21,M,,M,,*67
06/13/2014	23:03:27.697	$GPGGA,230328,2433.9317,N,08051.3784,W,1,11,1.6,21,M,,M,,*62
06/13/2014	23:03:28.690	$GPGGA,230329,2433.9314,N,08051.3788,W,1,11,1.6,21,M,,M,,*6C
06/13/2014	23:03:29.683	$GPGGA,230330,2433.9310,N,08051.3793,W,1,11,1.6,21,M,,M,,*6A
06/13/2014	23:03:30.675	$GPGGA,230331,2433.9308,N,08051.3800,W,1,10,1.6,21,M,,M,,*66
06/13/2014	23:03:31.698	$GPGGA,230332,2433.9303,N,08051.3802,W,1,10,2.1,21,M,,M,,*68
06/13/2014	23:03:32.681	$GPGGA,230333,2433.9300,N,08051.3804,W,1,11,1.6,21,M,,M,,*69
06/13/2014	23:03:33.683	$GPGGA,230334,2433.9296,N,08051.3805,W,1,11,1.6,21,M,,M,,*61
06/13/2014	23:03:34.705	$GPGGA,230335,2433.9294,N,08051.3808,W,1,11,1.6,21,M,,M,,*6F
06/13/2014	23:03:35.688	$GPGGA,230336,2433.9296,N,08051.3815,W,1,11,1.8,22,M,,M,,*6F
06/13/2014	23:03:36.700	$GPGGA,230337,2433.9292,N,08051.3819,W,1,10,1.6,22,M,,M,,*69
06/13/2014	23:03:37.672	$GPGGA,230338,2433.9288,N,08051.3822,W,1,10,1.6,22,M,,M,,*65
06/13/2014	23:03:38.705	$GPGGA,230339,2433.9282,N,08051.3823,W,1,10,1.6,22,M,,M,,*6F
06/13/2014	23:03:39.721	$GPGGA,230340,2433.9281,N,08051.3830,W,1,10,1.6,22,M,,M,,*60
06/13/2014	23:03:40.680	$GPGGA,230341,2433.9281,N,08051.3837,W,1,9,1.9,22,M,,M,,*51
06/13/2014	23:03:41.683	$GPGGA,230342,2433.9278,N,08051.3840,W,1,9,1.6,22,M,,M,,*5B
06/13/2014	23:03:42.705	$GPGGA,230343,2433.9274,N,08051.3842,W,1,11,1.6,22,M,,M,,*6D
06/13/2014	23:03:43.698	$GPGGA,230344,2433.9271,N,08051.3845,W,1,11,1.6,22,M,,M,,*68
06/13/2014	23:03:44.721	$GPGGA,230345,2433.9270,N,08051.3849,W,1,10,1.6,22,M,,M,,*65
06/13/2014	23:03:45.683	$GPGGA,230346,2433.9268,N,08051.3852,W,1,10,1.8,22,M,,M,,*6B
06/13/2014	23:03:46.706	$GPGGA,230347,2433.9265,N,08051.3858,W,1,10,1.8,22,M,,M,,*6D
06/13/2014	23:03:47.564	$GPGGA,230348,2433.9260,N,08051.3862,W,1,10,1.6,22,M,,M,,*60
06/13/2014	23:03:48.567	$GPGGA,230349,2433.9257,N,08051.3866,W,1,11,1.6,23,M,,M,,*61
06/13/2014	23:03:49.550	$GPGGA,230350,2433.9254,N,08051.3869,W,1,11,1.6,23,M,,M,,*65
06/13/2014	23:03:50.562	$GPGGA,230351,2433.9251,N,08051.3873,W,1,11,1.6,23,M,,M,,*6A
06/13/2014	23:03:51.554	$GPGGA,230352,2433.9249,N,08051.3877,W,1,11,1.6,23,M,,M,,*64
06/13/2014	23:03:52.566	$GPGGA,230353,2433.9247,N,08051.3881,W,1,10,1.6,23,M,,M,,*63
06/13/2014	23:03:53.529	$GPGGA,230354,2433.9246,N,08051.3887,W,1,10,1.6,23,M,,M,,*63
06/13/2014	23:03:54.551	$GPGGA,230355,2433.9243,N,08051.3894,W,1,11,1.6,23,M,,M,,*64
06/13/2014	23:03:55.554	$GPGGA,230356,2433.9239,N,08051.3902,W,1,11,1.8,23,M,,M,,*6A
06/13/2014	23:03:56.537	$GPGGA,230357,2433.9235,N,08051.3902,W,1,10,1.8,23,M,,M,,*66
06/13/2014	23:03:57.539	$GPGGA,230358,2433.9232,N,08051.3907,W,1,10,1.6,23,M,,M,,*65
06/13/2014	23:03:58.573	$GPGGA,230359,2433.9230,N,08051.3913,W,1,11,1.6,24,M,,M,,*65
06/13/2014	23:03:59.585	$GPGGA,230400,2433.9229,N,08051.3918,W,1,11,1.6,24,M,,M,,*6D
06/13/2014	23:04:00.529	$GPGGA,230401,2433.9228,N,08051.3924,W,1,10,1.6,24,M,,M,,*63
06/13/2014	23:04:01.550	$GPGGA,230402,2433.9225,N,08051.3930,W,1,10,1.6,24,M,,M,,*68
06/13/2014	23:04:02.663	$GPGGA,230403,2433.9222,N,08051.3935,W,1,11,1.6,24,M,,M,,*6A
06/13/2014	23:04:03.555	$GPGGA,230404,2433.9220,N,08051.3941,W,1,11,1.6,24,M,,M,,*6C
06/13/2014	23:04:04.541	$GPGGA,230405,2433.9218,N,08051.3947,W,1,11,1.6,24,M,,M,,*60
06/13/2014	23:04:05.642	$GPGGA,230406,2433.9216,N,08051.3956,W,1,11,1.6,24,M,,M,,*6D
06/13/2014	23:04:06.643	$GPGGA,230407,2433.9214,N,08051.3960,W,1,9,1.9,24,M,,M,,*5D
06/13/2014	23:04:07.648	$GPGGA,230408,2433.9212,N,08051.3959,W,1,9,1.6,24,M,,M,,*51
06/13/2014	23:04:08.558	$GPGGA,230409,2433.9209,N,08051.3963,W,1,11,1.6,24,M,,M,,*6A
06/13/2014	23:04:09.539	$GPGGA,230410,2433.9207,N,08051.3967,W,1,11,1.8,24,M,,M,,*66
06/13/2014	23:04:10.672	$GPGGA,230411,2433.9204,N,08051.3974,W,1,10,1.8,24,M,,M,,*67
06/13/2014	23:04:11.655	$GPGGA,230412,2433.9200,N,08051.3982,W,1,10,1.6,24,M,,M,,*67
06/13/2014	23:04:12.677	$GPGGA,230413,2433.9198,N,08051.3989,W,1,10,1.6,24,M,,M,,*6F
06/13/2014	23:04:13.650	$GPGGA,230414,2433.9195,N,08051.3996,W,1,10,1.8,24,M,,M,,*65
06/13/2014	23:04:14.683	$GPGGA,230415,2433.9194,N,08051.3999,W,1,10,1.8,24,M,,M,,*6A
06/13/2014	23:04:15.655	$GPGGA,230416,2433.9191,N,08051.4003,W,1,10,1.8,24,M,,M,,*61
06/13/2014	23:04:16.668	$GPGGA,230417,2433.9188,N,08051.4007,W,1,10,1.6,24,M,,M,,*62
06/13/2014	23:04:17.640	$GPGGA,230418,2433.9185,N,08051.4014,W,1,10,1.6,24,M,,M,,*62
06/13/2014	23:04:18.683	$GPGGA,230419,2433.9184,N,08051.4022,W,1,10,1.8,24,M,,M,,*69
06/13/2014	23:04:19.666	$GPGGA,230420,2433.9184,N,08051.4029,W,1,10,1.8,24,M,,M,,*68
06/13/2014	23:04:20.658	$GPGGA,230421,2433.9182,N,08051.4035,W,1,10,1.8,23,M,,M,,*65
06/13/2014	23:04:21.652	$GPGGA,230422,2433.9180,N,08051.4037,W,1,10,1.9,23,M,,M,,*67
06/13/2014	23:04:22.673	$GPGGA,230423,2433.9177,N,08051.4039,W,1,11,1.6,23,M,,M,,*6E
06/13/2014	23:04:23.666	$GPGGA,230424,2433.9176,N,08051.4043,W,1,11,1.6,23,M,,M,,*65
06/13/2014	23:04:24.679	$GPGGA,230425,2433.9173,N,08051.4048,W,1,11,1.6,23,M,,M,,*6A
06/13/2014	23:04:25.641	$GPGGA,230426,2433.9170,N,08051.4053,W,1,11,1.6,23,M,,M,,*60
06/13/2014	23:04:26.673	$GPGGA,230427,2433.9167,N,08051.4058,W,1,11,1.6,23,M,,M,,*6C
06/13/2014	23:04:27.665	$GPGGA,230428,2433.9165,N,08051.4061,W,1,11,1.9,22,M,,M,,*65
06/13/2014	23:04:28.648	$GPGGA,230429,2433.9162,N,08051.4061,W,1,10,1.8,22,M,,M,,*63
06/13/2014	23:04:29.661	$GPGGA,230430,2433.9159,N,08051.4064,W,1,10,1.8,22,M,,M,,*66
06/13/2014	23:04:30.653	$GPGGA,230431,2433.9155,N,08051.4065,W,1,10,1.6,22,M,,M,,*64
06/13/2014	23:04:31.666	$GPGGA,230432,2433.9153,N,08051.4069,W,1,10,1.6,22,M,,M,,*6D
06/13/2014	23:04:32.669	$GPGGA,230433,2433.9151,N,08051.4075,W,1,11,1.6,22,M,,M,,*62
06/13/2014	23:04:33.661	$GPGGA,230434,2433.9149,N,08051.4079,W,1,11,1.9,22,M,,M,,*6F
06/13/2014	23:04:34.694	$GPGGA,230435,2433.9148,N,08051.4083,W,1,11,1.6,22,M,,M,,*65
06/13/2014	23:04:35.676	$GPGGA,230436,2433.9145,N,08051.4086,W,1,11,1.6,22,M,,M,,*6E
06/13/2014	23:04:36.689	$GPGGA,230437,2433.9144,N,08051.4090,W,1,11,1.6,22,M,,M,,*69
06/13/2014	23:04:37.661	$GPGGA,230438,2433.9144,N,08051.4095,W,1,11,1.8,22,M,,M,,*6D
06/13/2014	23:04:38.684	$GPGGA,230439,2433.9141,N,08051.4100,W,1,10,1.6,22,M,,M,,*6B
06/13/2014	23:04:39.676	$GPGGA,230440,2433.9138,N,08051.4104,W,1,10,1.6,22,M,,M,,*6F
06/13/2014	23:04:40.679	$GPGGA,230441,2433.9137,N,08051.4109,W,1,10,1.8,21,M,,M,,*61
06/13/2014	23:04:41.652	$GPGGA,230442,2433.9135,N,08051.4111,W,1,10,1.6,21,M,,M,,*67
06/13/2014	23:04:42.685	$GPGGA,230443,2433.9133,N,08051.4115,W,1,11,1.6,21,M,,M,,*65
06/13/2014	23:04:43.678	$GPGGA,230444,2433.9131,N,08051.4119,W,1,11,1.6,21,M,,M,,*6C
06/13/2014	23:04:44.668	$GPGGA,230445,2433.9128,N,08051.4124,W,1,11,1.6,21,M,,M,,*6B
06/13/2014	23:04:45.791	$GPGGA,230446,2433.9126,N,08051.4129,W,1,11,1.6,21,M,,M,,*6B
06/13/2014	23:04:46.674	$GPGGA,230447,2433.9122,N,08051.4133,W,1,11,1.6,21,M,,M,,*65
06/13/2014	23:04:47.651	$GPGGA,230448,2433.9120,N,08051.4136,W,1,11,1.6,21,M,,M,,*6D
06/13/2014	23:04:48.522	$GPGGA,230449,2433.9118,N,08051.4137,W,1,11,1.6,21,M,,M,,*66
06/13/2014	23:04:49.504	$GPGGA,230450,2433.9115,N,08051.4141,W,1,11,1.8,21,M,,M,,*6C
06/13/2014	23:04:50.511	$GPGGA,230451,2433.9110,N,08051.4145,W,1,11,1.6,21,M,,M,,*62
06/13/2014	23:04:51.650	$GPGGA,230452,2433.9108,N,08051.4149,W,1,11,1.6,21,M,,M,,*64
06/13/2014	23:04:52.513	$GPGGA,230453,2433.9108,N,08051.4155,W,1,11,1.8,21,M,,M,,*66
06/13/2014	23:04:53.596	$GPGGA,230454,2433.9105,N,08051.4159,W,1,11,1.8,20,M,,M,,*61
06/13/2014	23:04:54.507	$GPGGA,230455,2433.9101,N,08051.4163,W,1,11,1.8,20,M,,M,,*6D
06/13/2014	23:04:55.640	$GPGGA,230456,2433.9099,N,08051.4167,W,1,11,1.6,20,M,,M,,*64
06/13/2014	23:04:56.706	$GPGGA,230457,2433.9095,N,08051.4173,W,1,11,1.6,20,M,,M,,*6C
06/13/2014	23:04:57.606	$GPGGA,230458,2433.9092,N,08051.4176,W,1,11,1.6,20,M,,M,,*61
06/13/2014	23:04:58.699	$GPGGA,230459,2433.9088,N,08051.4180,W,1,10,1.6,21,M,,M,,*62
06/13/2014	23:04:59.671	$GPGGA,230500,2433.9087,N,08051.4184,W,1,10,1.8,21,M,,M,,*6A
06/13/2014	23:05:00.531	$GPGGA,230501,2433.9089,N,08051.4191,W,1,10,1.8,21,M,,M,,*61
06/13/2014	23:05:01.605	$GPGGA,230502,2433.9088,N,08051.4198,W,1,10,1.8,21,M,,M,,*6A
06/13/2014	23:05:02.607	$GPGGA,230503,2433.9082,N,08051.4205,W,1,10,1.8,21,M,,M,,*66
06/13/2014	23:05:03.640	$GPGGA,230504,2433.9079,N,08051.4209,W,1,10,1.6,21,M,,M,,*67
06/13/2014	23:05:04.713	$GPGGA,230505,2433.9077,N,08051.4212,W,1,10,1.6,21,M,,M,,*62
06/13/2014	23:05:05.635	$GPGGA,230506,2433.9076,N,08051.4216,W,1,10,1.6,21,M,,M,,*64
06/13/2014	23:05:06.708	$GPGGA,230507,2433.9073,N,08051.4219,W,1,11,1.6,21,M,,M,,*6E
06/13/2014	23:05:07.670	$GPGGA,230508,2433.9072,N,08051.4223,W,1,11,1.8,21,M,,M,,*67
06/13/2014	23:05:08.613	$GPGGA,230509,2433.9070,N,08051.4230,W,1,10,1.8,21,M,,M,,*67
06/13/2014	23:05:09.636	$GPGGA,230510,2433.9068,N,08051.4235,W,1,10,1.6,21,M,,M,,*6D
06/13/2014	23:05:10.718	$GPGGA,230511,2433.9066,N,08051.4243,W,1,11,1.8,21,M,,M,,*6C
06/13/2014	23:05:11.657	$GPGGA,230512,2433.9065,N,08051.4249,W,1,11,1.8,21,M,,M,,*66
06/13/2014	23:05:12.613	$GPGGA,230513,2433.9064,N,08051.4252,W,1,10,1.8,21,M,,M,,*6D
06/13/2014	23:05:13.636	$GPGGA,230514,2433.9063,N,08051.4256,W,1,10,1.6,21,M,,M,,*67
06/13/2014	23:05:14.729	$GPGGA,230515,2433.9059,N,08051.4259,W,1,11,1.7,21,M,,M,,*60
06/13/2014	23:05:15.621	$GPGGA,230516,2433.9061,N,08051.4264,W,1,11,1.7,21,M,,M,,*66
06/13/2014	23:05:16.714	$GPGGA,230517,2433.9057,N,08051.4270,W,1,10,1.8,21,M,,M,,*69
06/13/2014	23:05:17.636	$GPGGA,230518,2433.9053,N,08051.4277,W,1,10,1.8,21,M,,M,,*65
06/13/2014	23:05:18.709	$GPGGA,230519,2433.9050,N,08051.4283,W,1,10,1.8,21,M,,M,,*6C
06/13/2014	23:05:19.681	$GPGGA,230520,2433.9047,N,08051.4288,W,1,10,1.8,21,M,,M,,*6B
06/13/2014	23:05:20.733	$GPGGA,230521,2433.9046,N,08051.4288,W,1,9,1.9,20,M,,M,,*53
06/13/2014	23:05:21.646	$GPGGA,230522,2433.9046,N,08051.4292,W,1,9,1.8,20,M,,M,,*5A
06/13/2014	23:05:22.729	$GPGGA,230523,2433.9044,N,08051.4296,W,1,11,1.6,20,M,,M,,*6A
06/13/2014	23:05:23.651	$GPGGA,230524,2433.9041,N,08051.4300,W,1,11,1.6,20,M,,M,,*66
06/13/2014	23:05:24.724	$GPGGA,230525,2433.9039,N,08051.4306,W,1,11,1.8,20,M,,M,,*60
06/13/2014	23:05:25.636	$GPGGA,230526,2433.9034,N,08051.4314,W,1,11,1.8,20,M,,M,,*6D
06/13/2014	23:05:26.619	$GPGGA,230527,2433.9032,N,08051.4321,W,1,10,1.8,20,M,,M,,*6D
06/13/2014	23:05:27.661	$GPGGA,230528,2433.9030,N,08051.4325,W,1,10,1.8,20,M,,M,,*64
06/13/2014	23:05:28.734	$GPGGA,230529,2433.9027,N,08051.4325,W,1,10,1.6,20,M,,M,,*6D
06/13/2014	23:05:29.616	$GPGGA,230530,2433.9025,N,08051.4326,W,1,10,1.6,20,M,,M,,*64
06/13/2014	23:05:30.719	$GPGGA,230531,2433.9022,N,08051.4331,W,1,11,1.6,20,M,,M,,*65
06/13/2014	23:05:31.632	$GPGGA,230532,2433.9018,N,08051.4335,W,1,11,1.6,20,M,,M,,*6B
06/13/2014	23:05:32.717	$GPGGA,230533,2433.9015,N,08051.4340,W,1,10,1.6,20,M,,M,,*64
06/13/2014	23:05:33.617	$GPGGA,230534,2433.9012,N,08051.4346,W,1,10,1.6,20,M,,M,,*62
06/13/2014	23:05:34.714	$GPGGA,230535,2433.9008,N,08051.4350,W,1,11,1.6,21,M,,M,,*6F
06/13/2014	23:05:35.672	$GPGGA,230536,2433.9005,N,08051.4353,W,1,11,1.6,21,M,,M,,*62
06/13/2014	23:05:36.714	$GPGGA,230537,2433.9004,N,08051.4355,W,1,11,1.6,21,M,,M,,*64
06/13/2014	23:05:37.646	$GPGGA,230538,2433.9001,N,08051.4357,W,1,11,1.6,21,M,,M,,*6C
06/13/2014	23:05:38.730	$GPGGA,230539,2433.8998,N,08051.4361,W,1,11,1.6,21,M,,M,,*60
06/13/2014	23:05:39.692	$GPGGA,230540,2433.8996,N,08051.4364,W,1,11,1.6,21,M,,M,,*65
06/13/2014	23:05:40.614	$GPGGA,230541,2433.8993,N,08051.4371,W,1,10,1.6,21,M,,M,,*64
06/13/2014	23:05:41.728	$GPGGA,230542,2433.8990,N,08051.4378,W,1,10,1.6,21,M,,M,,*6D
06/13/2014	23:05:42.749	$GPGGA,230543,2433.8987,N,08051.4383,W,1,11,1.6,21,M,,M,,*6F
06/13/2014	23:05:43.742	$GPGGA,230544,2433.8985,N,08051.4389,W,1,11,1.6,21,M,,M,,*60
06/13/2014	23:05:44.775	$GPGGA,230545,2433.8982,N,08051.4390,W,1,11,1.6,21,M,,M,,*6E
06/13/2014	23:05:45.728	$GPGGA,230546,2433.8981,N,08051.4393,W,1,11,1.6,21,M,,M,,*6D
06/13/2014	23:05:46.760	$GPGGA,230547,2433.8978,N,08051.4397,W,1,11,1.7,21,M,,M,,*6F
06/13/2014	23:05:47.590	$GPGGA,230548,2433.8974,N,08051.4400,W,1,11,1.6,21,M,,M,,*64
06/13/2014	23:05:48.586	$GPGGA,230549,2433.8970,N,08051.4404,W,1,10,1.6,21,M,,M,,*64
06/13/2014	23:05:49.598	$GPGGA,230550,2433.8967,N,08051.4409,W,1,10,1.6,21,M,,M,,*67
06/13/2014	23:05:50.578	$GPGGA,230551,2433.8965,N,08051.4415,W,1,11,1.6,21,M,,M,,*68
06/13/2014	23:05:51.602	$GPGGA,230552,2433.8963,N,08051.4422,W,1,11,1.6,22,M,,M,,*6A
06/13/2014	23:05:52.595	$GPGGA,230553,2433.8961,N,08051.4426,W,1,11,1.6,22,M,,M,,*6D
06/13/2014	23:05:53.576	$GPGGA,230554,2433.8960,N,08051.4429,W,1,11,1.6,22,M,,M,,*64
06/13/2014	23:05:54.638	$GPGGA,230555,2433.8960,N,08051.4433,W,1,11,1.6,22,M,,M,,*6E
06/13/2014	23:05:55.590	$GPGGA,230556,2433.8957,N,08051.4436,W,1,11,1.6,21,M,,M,,*6F
06/13/2014	23:05:56.593	$GPGGA,230557,2433.8956,N,08051.4440,W,1,10,1.8,21,M,,M,,*61
06/13/2014	23:05:57.631	$GPGGA,230558,2433.8953,N,08051.4445,W,1,10,1.8,21,M,,M,,*6E
06/13/2014	23:05:58.658	$GPGGA,230559,2433.8953,N,08051.4445,W,1,11,1.8,21,M,,M,,*6E
06/13/2014	23:05:59.623	$GPGGA,230600,2433.8949,N,08051.4458,W,1,11,1.8,21,M,,M,,*66
06/13/2014	23:06:00.616	$GPGGA,230601,2433.8946,N,08051.4463,W,1,10,1.6,21,M,,M,,*6F
06/13/2014	23:06:01.576	$GPGGA,230602,2433.8943,N,08051.4470,W,1,10,1.8,21,M,,M,,*65
06/13/2014	23:06:02.634	$GPGGA,230603,2433.8940,N,08051.4470,W,1,10,1.6,21,M,,M,,*69
06/13/2014	23:06:03.601	$GPGGA,230604,2433.8939,N,08051.4476,W,1,10,1.6,21,M,,M,,*66
06/13/2014	23:06:04.636	$GPGGA,230605,2433.8938,N,08051.4480,W,1,11,1.6,21,M,,M,,*6E
06/13/2014	23:06:05.586	$GPGGA,230606,2433.8933,N,08051.4483,W,1,11,1.9,21,M,,M,,*6A
06/13/2014	23:06:06.619	$GPGGA,230607,2433.8931,N,08051.4491,W,1,9,1.6,21,M,,M,,*5C
06/13/2014	23:06:07.601	$GPGGA,230608,2433.8931,N,08051.4498,W,1,9,1.6,21,M,,M,,*5A
06/13/2014	23:06:08.615	$GPGGA,230609,2433.8931,N,08051.4498,W,1,11,1.8,21,M,,M,,*6C
06/13/2014	23:06:09.607	$GPGGA,230610,2433.8927,N,08051.4512,W,1,11,1.6,21,M,,M,,*6E
06/13/2014	23:06:10.652	$GPGGA,230611,2433.8927,N,08051.4516,W,1,11,1.6,21,M,,M,,*6B
06/13/2014	23:06:11.601	$GPGGA,230612,2433.8927,N,08051.4520,W,1,11,1.6,20,M,,M,,*6C
06/13/2014	23:06:12.683	$GPGGA,230613,2433.8924,N,08051.4525,W,1,11,1.6,20,M,,M,,*6B
06/13/2014	23:06:13.586	$GPGGA,230614,2433.8920,N,08051.4530,W,1,11,1.6,20,M,,M,,*6C
06/13/2014	23:06:14.679	$GPGGA,230615,2433.8917,N,08051.4537,W,1,10,1.6,20,M,,M,,*6F
06/13/2014	23:06:15.711	$GPGGA,230616,2433.8914,N,08051.4541,W,1,10,1.6,20,M,,M,,*6E
06/13/2014	23:06:16.655	$GPGGA,230617,2433.8911,N,08051.4545,W,1,11,1.6,20,M,,M,,*6F
06/13/2014	23:06:17.717	$GPGGA,230618,2433.8909,N,08051.4549,W,1,11,1.6,20,M,,M,,*65
06/13/2014	23:06:18.649	$GPGGA,230619,2433.8907,N,08051.4553,W,1,11,1.6,20,M,,M,,*61
06/13/2014	23:06:19.632	$GPGGA,230620,2433.8904,N,08051.4557,W,1,11,1.6,19,M,,M,,*66
06/13/2014	23:06:20.604	$GPGGA,230621,2433.8904,N,08051.4557,W,1,11,1.6,19,M,,M,,*67
06/13/2014	23:06:21.588	$GPGGA,230622,2433.8900,N,08051.4568,W,1,11,1.6,19,M,,M,,*6C
06/13/2014	23:06:22.750	$GPGGA,230623,2433.8900,N,08051.4568,W,1,9,1.9,19,M,,M,,*5B
06/13/2014	23:06:23.612	$GPGGA,230624,2433.8895,N,08051.4574,W,1,9,1.6,19,M,,M,,*53
06/13/2014	23:06:24.614	$GPGGA,230625,2433.8895,N,08051.4574,W,1,11,1.6,19,M,,M,,*6B
06/13/2014	23:06:25.588	$GPGGA,230626,2433.8892,N,08051.4582,W,1,11,1.8,19,M,,M,,*68
06/13/2014	23:06:26.607	$GPGGA,230627,2433.8892,N,08051.4582,W,1,11,1.8,19,M,,M,,*69
06/13/2014	23:06:27.694	$GPGGA,230628,2433.8889,N,08051.4592,W,1,11,1.8,19,M,,M,,*6D
06/13/2014	23:06:28.705	$GPGGA,230629,2433.8884,N,08051.4597,W,1,11,1.8,19,M,,M,,*64
06/13/2014	23:06:29.616	$GPGGA,230630,2433.8881,N,08051.4602,W,1,11,1.6,19,M,,M,,*68
06/13/2014	23:06:30.739	$GPGGA,230631,2433.8878,N,08051.4606,W,1,11,1.6,19,M,,M,,*6B
06/13/2014	23:06:31.714	$GPGGA,230632,2433.8877,N,08051.4608,W,1,11,1.6,19,M,,M,,*69
06/13/2014	23:06:32.694	$GPGGA,230633,2433.8877,N,08051.4613,W,1,11,1.8,19,M,,M,,*6C
06/13/2014	23:06:33.687	$GPGGA,230634,2433.8876,N,08051.4617,W,1,11,1.8,19,M,,M,,*6E
06/13/2014	23:06:34.690	$GPGGA,230635,2433.8873,N,08051.4621,W,1,11,1.8,19,M,,M,,*6F
06/13/2014	23:06:35.722	$GPGGA,230636,2433.8871,N,08051.4626,W,1,11,1.8,19,M,,M,,*69
06/13/2014	23:06:36.695	$GPGGA,230637,2433.8869,N,08051.4632,W,1,11,1.8,19,M,,M,,*64
06/13/2014	23:06:37.697	$GPGGA,230638,2433.8866,N,08051.4635,W,1,11,1.6,19,M,,M,,*6D
06/13/2014	23:06:38.724	$GPGGA,230639,2433.8862,N,08051.4639,W,1,10,1.6,19,M,,M,,*65
06/13/2014	23:06:39.713	$GPGGA,230640,2433.8862,N,08051.4643,W,1,10,1.6,19,M,,M,,*66
06/13/2014	23:06:40.715	$GPGGA,230641,2433.8858,N,08051.4647,W,1,11,1.8,19,M,,M,,*65
06/13/2014	23:06:41.708	$GPGGA,230642,2433.8857,N,08051.4651,W,1,11,1.6,19,M,,M,,*60
06/13/2014	23:06:42.710	$GPGGA,230643,2433.8855,N,08051.4657,W,1,11,1.8,19,M,,M,,*6B
06/13/2014	23:06:43.714	$GPGGA,230644,2433.8853,N,08051.4661,W,1,11,1.8,19,M,,M,,*6F
06/13/2014	23:06:44.716	$GPGGA,230645,2433.8848,N,08051.4668,W,1,11,1.8,19,M,,M,,*6D
06/13/2014	23:06:45.698	$GPGGA,230646,2433.8848,N,08051.4676,W,1,11,1.6,19,M,,M,,*6F
06/13/2014	23:06:46.720	$GPGGA,230647,2433.8844,N,08051.4682,W,1,10,1.8,19,M,,M,,*66
06/13/2014	23:06:47.558	$GPGGA,230648,2433.8839,N,08051.4681,W,1,10,1.9,19,M,,M,,*61
06/13/2014	23:06:48.561	$GPGGA,230649,2433.8838,N,08051.4684,W,1,11,1.6,19,M,,M,,*6A
06/13/2014	23:06:49.554	$GPGGA,230650,2433.8837,N,08051.4689,W,1,11,1.6,19,M,,M,,*60
06/13/2014	23:06:50.566	$GPGGA,230651,2433.8833,N,08051.4693,W,1,10,1.6,19,M,,M,,*6F
06/13/2014	23:06:51.569	$GPGGA,230652,2433.8830,N,08051.4698,W,1,10,1.6,19,M,,M,,*64
06/13/2014	23:06:52.541	$GPGGA,230653,2433.8829,N,08051.4707,W,1,10,1.8,19,M,,M,,*64
06/13/2014	23:06:53.554	$GPGGA,230654,2433.8827,N,08051.4712,W,1,10,1.8,19,M,,M,,*69
06/13/2014	23:06:54.546	$GPGGA,230655,2433.8823,N,08051.4716,W,1,11,1.6,19,M,,M,,*67
06/13/2014	23:06:55.569	$GPGGA,230656,2433.8819,N,08051.4718,W,1,11,1.6,19,M,,M,,*63
06/13/2014	23:06:56.542	$GPGGA,230657,2433.8819,N,08051.4720,W,1,10,1.6,19,M,,M,,*68
06/13/2014	23:06:57.544	$GPGGA,230658,2433.8819,N,08051.4725,W,1,10,1.8,19,M,,M,,*6C
06/13/2014	23:06:58.597	$GPGGA,230659,2433.8815,N,08051.4729,W,1,11,1.8,19,M,,M,,*6C
06/13/2014	23:06:59.580	$GPGGA,230700,2433.8812,N,08051.4734,W,1,11,1.8,19,M,,M,,*6A
06/13/2014	23:07:00.582	$GPGGA,230701,2433.8809,N,08051.4741,W,1,10,1.8,19,M,,M,,*62
06/13/2014	23:07:01.545	$GPGGA,230702,2433.8805,N,08051.4747,W,1,10,1.8,20,M,,M,,*61
06/13/2014	23:07:02.547	$GPGGA,230703,2433.8801,N,08051.4751,W,1,10,1.6,20,M,,M,,*6D
06/13/2014	23:07:03.679	$GPGGA,230704,2433.8799,N,08051.4754,W,1,10,1.6,20,M,,M,,*61
06/13/2014	23:07:04.592	$GPGGA,230705,2433.8797,N,08051.4754,W,1,11,1.6,20,M,,M,,*6F
06/13/2014	23:07:05.544	$GPGGA,230706,2433.8797,N,08051.4758,W,1,11,1.8,20,M,,M,,*6E
06/13/2014	23:07:06.587	$GPGGA,230707,2433.8793,N,08051.4762,W,1,11,1.8,20,M,,M,,*62
06/13/2014	23:07:07.579	$GPGGA,230708,2433.8790,N,08051.4767,W,1,11,1.8,20,M,,M,,*6B
06/13/2014	23:07:08.682	$GPGGA,230709,2433.8786,N,08051.4772,W,1,10,1.8,20,M,,M,,*68
06/13/2014	23:07:09.655	$GPGGA,230710,2433.8783,N,08051.4777,W,1,10,1.6,20,M,,M,,*6E
06/13/2014	23:07:10.577	$GPGGA,230711,2433.8780,N,08051.4781,W,1,11,1.6,20,M,,M,,*64
06/13/2014	23:07:11.580	$GPGGA,230712,2433.8777,N,08051.4783,W,1,11,1.6,20,M,,M,,*6D
06/13/2014	23:07:12.682	$GPGGA,230713,2433.8774,N,08051.4785,W,1,10,1.6,20,M,,M,,*68
06/13/2014	23:07:13.565	$GPGGA,230714,2433.8772,N,08051.4790,W,1,10,1.6,20,M,,M,,*6D
06/13/2014	23:07:14.587	$GPGGA,230715,2433.8772,N,08051.4794,W,1,11,1.6,20,M,,M,,*69
06/13/2014	23:07:15.660	$GPGGA,230716,2433.8769,N,08051.4799,W,1,11,1.8,20,M,,M,,*63
06/13/2014	23:07:16.563	$GPGGA,230717,2433.8766,N,08051.4805,W,1,10,1.8,21,M,,M,,*67
06/13/2014	23:07:17.655	$GPGGA,230718,2433.8765,N,08051.4809,W,1,10,1.8,21,M,,M,,*67
06/13/2014	23:07:18.558	$GPGGA,230719,2433.8763,N,08051.4814,W,1,11,1.6,21,M,,M,,*63
06/13/2014	23:07:19.672	$GPGGA,230720,2433.8762,N,08051.4819,W,1,11,1.8,21,M,,M,,*6B
06/13/2014	23:07:20.666	$GPGGA,230721,2433.8759,N,08051.4823,W,1,11,1.6,21,M,,M,,*65
06/13/2014	23:07:21.665	$GPGGA,230722,2433.8755,N,08051.4827,W,1,11,1.6,21,M,,M,,*6E
06/13/2014	23:07:22.657	$GPGGA,230723,2433.8754,N,08051.4831,W,1,10,1.6,21,M,,M,,*68
06/13/2014	23:07:23.680	$GPGGA,230724,2433.8752,N,08051.4837,W,1,10,1.6,21,M,,M,,*6F
06/13/2014	23:07:24.663	$GPGGA,230725,2433.8747,N,08051.4841,W,1,11,1.6,21,M,,M,,*6A
06/13/2014	23:07:25.665	$GPGGA,230726,2433.8745,N,08051.4845,W,1,11,1.6,21,M,,M,,*6F
06/13/2014	23:07:26.668	$GPGGA,230727,2433.8743,N,08051.4849,W,1,10,1.6,21,M,,M,,*65
06/13/2014	23:07:27.680	$GPGGA,230728,2433.8739,N,08051.4852,W,1,10,1.6,21,M,,M,,*6D
06/13/2014	23:07:28.683	$GPGGA,230729,2433.8736,N,08051.4855,W,1,10,1.6,21,M,,M,,*64
06/13/2014	23:07:29.666	$GPGGA,230730,2433.8734,N,08051.4859,W,1,10,1.6,21,M,,M,,*62
06/13/2014	23:07:30.688	$GPGGA,230731,2433.8730,N,08051.4863,W,1,11,1.6,21,M,,M,,*6F
06/13/2014	23:07:31.682	$GPGGA,230732,2433.8728,N,08051.4866,W,1,11,1.6,21,M,,M,,*60
06/13/2014	23:07:32.663	$GPGGA,230733,2433.8725,N,08051.4870,W,1,10,1.8,21,M,,M,,*64
06/13/2014	23:07:33.666	$GPGGA,230734,2433.8722,N,08051.4875,W,1,10,1.6,21,M,,M,,*6F
06/13/2014	23:07:34.690	$GPGGA,230735,2433.8723,N,08051.4881,W,1,10,1.8,21,M,,M,,*6A
06/13/2014	23:07:35.681	$GPGGA,230736,2433.8721,N,08051.4884,W,1,10,1.8,21,M,,M,,*6E
06/13/2014	23:07:36.684	$GPGGA,230737,2433.8718,N,08051.4888,W,1,11,1.6,21,M,,M,,*66
06/13/2014	23:07:37.666	$GPGGA,230738,2433.8717,N,08051.4892,W,1,11,1.6,21,M,,M,,*6D
06/13/2014	23:07:38.659	$GPGGA,230739,2433.8714,N,08051.4897,W,1,11,1.8,20,M,,M,,*65
06/13/2014	23:07:39.680	$GPGGA,230740,2433.8712,N,08051.4902,W,1,11,1.6,20,M,,M,,*6E
06/13/2014	23:07:40.703	$GPGGA,230741,2433.8709,N,08051.4906,W,1,10,1.6,20,M,,M,,*60
06/13/2014	23:07:41.676	$GPGGA,230742,2433.8707,N,08051.4908,W,1,10,1.6,20,M,,M,,*63
06/13/2014	23:07:42.698	$GPGGA,230743,2433.8704,N,08051.4913,W,1,11,1.6,20,M,,M,,*6A
06/13/2014	23:07:43.681	$GPGGA,230744,2433.8703,N,08051.4917,W,1,11,1.6,20,M,,M,,*6E
06/13/2014	23:07:44.673	$GPGGA,230745,2433.8703,N,08051.4921,W,1,10,1.8,20,M,,M,,*65
06/13/2014	23:07:45.686	$GPGGA,230746,2433.8700,N,08051.4926,W,1,10,1.8,20,M,,M,,*62
06/13/2014	23:07:46.679	$GPGGA,230747,2433.8698,N,08051.4932,W,1,11,1.6,20,M,,M,,*69
06/13/2014	23:07:47.536	$GPGGA,230748,2433.8696,N,08051.4938,W,1,11,1.6,20,M,,M,,*62
06/13/2014	23:07:48.519	$GPGGA,230749,2433.8694,N,08051.4942,W,1,11,1.6,20,M,,M,,*6C
06/13/2014	23:07:49.511	$GPGGA,230750,2433.8692,N,08051.4946,W,1,11,1.8,20,M,,M,,*68
06/13/2014	23:07:50.534	$GPGGA,230751,2433.8689,N,08051.4949,W,1,10,1.6,20,M,,M,,*63
06/13/2014	23:07:51.547	$GPGGA,230752,2433.8685,N,08051.4951,W,1,10,1.6,19,M,,M,,*6F
06/13/2014	23:07:52.523	$GPGGA,230753,2433.8683,N,08051.4956,W,1,10,1.6,19,M,,M,,*6F
06/13/2014	23:07:53.532	$GPGGA,230754,2433.8679,N,08051.4960,W,1,10,1.8,19,M,,M,,*66
06/13/2014	23:07:54.625	$GPGGA,230755,2433.8676,N,08051.4965,W,1,10,1.6,19,M,,M,,*63
06/13/2014	23:07:55.657	$GPGGA,230756,2433.8674,N,08051.4971,W,1,10,1.6,19,M,,M,,*67
06/13/2014	23:07:56.629	$GPGGA,230757,2433.8671,N,08051.4975,W,1,9,1.7,19,M,,M,,*5E
06/13/2014	23:07:57.511	$GPGGA,230758,2433.8667,N,08051.4978,W,1,9,1.6,19,M,,M,,*5A
06/13/2014	23:07:58.524	$GPGGA,230759,2433.8665,N,08051.4982,W,1,11,1.8,19,M,,M,,*6B
06/13/2014	23:07:59.566	$GPGGA,230800,2433.8664,N,08051.4986,W,1,11,1.6,19,M,,M,,*63
06/13/2014	23:08:00.629	$GPGGA,230801,2433.8661,N,08051.4990,W,1,11,1.8,19,M,,M,,*6E
06/13/2014	23:08:01.612	$GPGGA,230802,2433.8660,N,08051.4994,W,1,11,1.8,19,M,,M,,*68
06/13/2014	23:08:02.628	$GPGGA,230803,2433.8658,N,08051.5000,W,1,11,1.8,19,M,,M,,*67
06/13/2014	23:08:03.547	$GPGGA,230804,2433.8656,N,08051.5005,W,1,11,1.8,19,M,,M,,*6B
06/13/2014	23:08:04.620	$GPGGA,230805,2433.8651,N,08051.5011,W,1,11,1.8,19,M,,M,,*68
06/13/2014	23:08:05.622	$GPGGA,230806,2433.8649,N,08051.5015,W,1,11,1.6,19,M,,M,,*68
06/13/2014	23:08:06.615	$GPGGA,230807,2433.8649,N,08051.5018,W,1,11,1.6,19,M,,M,,*64
06/13/2014	23:08:07.637	$GPGGA,230808,2433.8646,N,08051.5022,W,1,11,1.6,19,M,,M,,*6D
06/13/2014	23:08:08.631	$GPGGA,230809,2433.8645,N,08051.5025,W,1,11,1.6,19,M,,M,,*68
06/13/2014	23:08:09.551	$GPGGA,230810,2433.8645,N,08051.5032,W,1,11,1.6,19,M,,M,,*66
06/13/2014	23:08:10.645	$GPGGA,230811,2433.8640,N,08051.5036,W,1,9,1.9,19,M,,M,,*50
06/13/2014	23:08:11.638	$GPGGA,230812,2433.8635,N,08051.5041,W,1,9,1.6,19,M,,M,,*5E
06/13/2014	23:08:12.630	$GPGGA,230813,2433.8634,N,08051.5048,W,1,11,1.6,19,M,,M,,*6E
06/13/2014	23:08:13.632	$GPGGA,230814,2433.8631,N,08051.5051,W,1,11,1.6,19,M,,M,,*64
06/13/2014	23:08:14.635	$GPGGA,230815,2433.8627,N,08051.5052,W,1,11,1.6,19,M,,M,,*61
06/13/2014	23:08:15.647	$GPGGA,230816,2433.8625,N,08051.5055,W,1,11,1.8,19,M,,M,,*69
06/13/2014	23:08:16.640	$GPGGA,230817,2433.8624,N,08051.5059,W,1,11,1.8,19,M,,M,,*65
06/13/2014	23:08:17.632	$GPGGA,230818,2433.8621,N,08051.5063,W,1,11,1.8,19,M,,M,,*66
06/13/2014	23:08:18.645	$GPGGA,230819,2433.8617,N,08051.5069,W,1,11,1.6,19,M,,M,,*66
06/13/2014	23:08:19.638	$GPGGA,230820,2433.8614,N,08051.5073,W,1,11,1.6,19,M,,M,,*64
06/13/2014	23:08:20.630	$GPGGA,230821,2433.8613,N,08051.5079,W,1,11,1.6,19,M,,M,,*68
06/13/2014	23:08:21.633	$GPGGA,230822,2433.8609,N,08051.5081,W,1,11,1.6,19,M,,M,,*67
06/13/2014	23:08:22.655	$GPGGA,230823,2433.8607,N,08051.5085,W,1,11,1.8,19,M,,M,,*62
06/13/2014	23:08:23.648	$GPGGA,230824,2433.8606,N,08051.5090,W,1,11,1.6,19,M,,M,,*6E
06/13/2014	23:08:24.661	$GPGGA,230825,2433.8605,N,08051.5094,W,1,10,1.8,20,M,,M,,*6D
06/13/2014	23:08:25.633	$GPGGA,230826,2433.8602,N,08051.5098,W,1,10,1.6,20,M,,M,,*6B
06/13/2014	23:08:26.656	$GPGGA,230827,2433.8600,N,08051.5103,W,1,11,1.6,20,M,,M,,*6A
06/13/2014	23:08:27.648	$GPGGA,230828,2433.8598,N,08051.5108,W,1,11,1.6,20,M,,M,,*6C
06/13/2014	23:08:28.651	$GPGGA,230829,2433.8595,N,08051.5112,W,1,11,1.6,20,M,,M,,*6B
06/13/2014	23:08:29.643	$GPGGA,230830,2433.8593,N,08051.5117,W,1,11,1.6,20,M,,M,,*60
06/13/2014	23:08:30.676	$GPGGA,230831,2433.8591,N,08051.5123,W,1,11,1.8,20,M,,M,,*6A
06/13/2014	23:08:31.658	$GPGGA,230832,2433.8591,N,08051.5127,W,1,11,1.8,20,M,,M,,*6D
06/13/2014	23:08:32.671	$GPGGA,230833,2433.8588,N,08051.5131,W,1,11,1.8,20,M,,M,,*63
06/13/2014	23:08:33.633	$GPGGA,230834,2433.8586,N,08051.5135,W,1,11,1.6,20,M,,M,,*60
06/13/2014	23:08:34.665	$GPGGA,230835,2433.8584,N,08051.5139,W,1,11,1.8,20,M,,M,,*61
06/13/2014	23:08:35.648	$GPGGA,230836,2433.8581,N,08051.5144,W,1,11,1.6,19,M,,M,,*69
06/13/2014	23:08:36.671	$GPGGA,230837,2433.8578,N,08051.5148,W,1,10,1.8,19,M,,M,,*6D
06/13/2014	23:08:37.643	$GPGGA,230838,2433.8577,N,08051.5153,W,1,10,1.8,19,M,,M,,*67
06/13/2014	23:08:39.779	$GPGGA,230840,2433.8569,N,08051.5163,W,1,11,1.6,19,M,,M,,*6B
06/13/2014	23:08:40.631	$GPGGA,230841,2433.8567,N,08051.5168,W,1,11,1.6,19,M,,M,,*6F
06/13/2014	23:08:41.644	$GPGGA,230842,2433.8566,N,08051.5173,W,1,11,1.6,19,M,,M,,*67
06/13/2014	23:08:42.656	$GPGGA,230843,2433.8563,N,08051.5177,W,1,10,1.8,19,M,,M,,*68
06/13/2014	23:08:43.659	$GPGGA,230844,2433.8561,N,08051.5181,W,1,10,1.8,19,M,,M,,*64
06/13/2014	23:08:44.651	$GPGGA,230845,2433.8555,N,08051.5186,W,1,11,1.8,19,M,,M,,*64
06/13/2014	23:08:45.649	$GPGGA,230846,2433.8555,N,08051.5192,W,1,11,1.6,19,M,,M,,*6C
06/13/2014	23:08:46.767	$GPGGA,230847,2433.8552,N,08051.5199,W,1,10,1.6,19,M,,M,,*60
06/13/2014	23:08:47.605	$GPGGA,230848,2433.8550,N,08051.5202,W,1,10,1.6,19,M,,M,,*6C
06/13/2014	23:08:48.487	$GPGGA,230849,2433.8546,N,08051.5206,W,1,11,1.6,19,M,,M,,*6F
06/13/2014	23:08:49.580	$GPGGA,230850,2433.8544,N,08051.5210,W,1,11,1.6,19,M,,M,,*62
06/13/2014	23:08:50.592	$GPGGA,230851,2433.8544,N,08051.5215,W,1,11,1.8,19,M,,M,,*68
06/13/2014	23:08:51.498	$GPGGA,230852,2433.8542,N,08051.5220,W,1,11,1.8,19,M,,M,,*6B
06/13/2014	23:08:52.512	$GPGGA,230853,2433.8538,N,08051.5224,W,1,9,1.9,19,M,,M,,*5B
06/13/2014	23:08:53.490	$GPGGA,230854,2433.8537,N,08051.5229,W,1,9,1.8,19,M,,M,,*5F
06/13/2014	23:08:54.583	$GPGGA,230855,2433.8535,N,08051.5235,W,1,11,1.8,19,M,,M,,*68
06/13/2014	23:08:55.605	$GPGGA,230856,2433.8534,N,08051.5240,W,1,11,1.8,19,M,,M,,*68
06/13/2014	23:08:56.628	$GPGGA,230857,2433.8532,N,08051.5246,W,1,11,1.6,19,M,,M,,*67
06/13/2014	23:08:57.590	$GPGGA,230858,2433.8531,N,08051.5253,W,1,11,1.8,19,M,,M,,*61
06/13/2014	23:08:58.603	$GPGGA,230859,2433.8530,N,08051.5260,W,1,10,1.8,19,M,,M,,*60
06/13/2014	23:08:59.616	$GPGGA,230900,2433.8526,N,08051.5261,W,1,10,1.6,19,M,,M,,*65
06/13/2014	23:09:00.598	$GPGGA,230901,2433.8523,N,08051.5265,W,1,11,1.8,19,M,,M,,*6A
06/13/2014	23:09:01.601	$GPGGA,230902,2433.8519,N,08051.5268,W,1,11,1.6,19,M,,M,,*63
06/13/2014	23:09:02.614	$GPGGA,230903,2433.8515,N,08051.5272,W,1,10,1.8,19,M,,M,,*6A
06/13/2014	23:09:03.606	$GPGGA,230904,2433.8510,N,08051.5275,W,1,10,1.6,19,M,,M,,*61
06/13/2014	23:09:04.619	$GPGGA,230905,2433.8508,N,08051.5280,W,1,11,1.8,19,M,,M,,*6C
06/13/2014	23:09:05.591	$GPGGA,230906,2433.8506,N,08051.5285,W,1,11,1.6,19,M,,M,,*6A
06/13/2014	23:09:06.624	$GPGGA,230907,2433.8503,N,08051.5289,W,1,9,1.9,19,M,,M,,*54
06/13/2014	23:09:07.605	$GPGGA,230908,2433.8501,N,08051.5293,W,1,9,1.6,19,M,,M,,*5D
06/13/2014	23:09:08.618	$GPGGA,230909,2433.8498,N,08051.5297,W,1,11,1.6,19,M,,M,,*60
06/13/2014	23:09:09.600	$GPGGA,230910,2433.8495,N,08051.5303,W,1,11,1.8,19,M,,M,,*67
06/13/2014	23:09:10.593	$GPGGA,230911,2433.8491,N,08051.5308,W,1,11,1.6,19,M,,M,,*67
06/13/2014	23:09:11.606	$GPGGA,230912,2433.8488,N,08051.5311,W,1,11,1.6,19,M,,M,,*64
06/13/2014	23:09:12.628	$GPGGA,230913,2433.8486,N,08051.5314,W,1,10,1.6,19,M,,M,,*6F
06/13/2014	23:09:13.601	$GPGGA,230914,2433.8484,N,08051.5318,W,1,10,1.6,19,M,,M,,*66
06/13/2014	23:09:14.603	$GPGGA,230915,2433.8479,N,08051.5322,W,1,10,1.8,20,M,,M,,*68
06/13/2014	23:09:15.616	$GPGGA,230916,2433.8476,N,08051.5325,W,1,10,1.6,20,M,,M,,*6D
06/13/2014	23:09:16.599	$GPGGA,230917,2433.8473,N,08051.5329,W,1,11,1.6,20,M,,M,,*64
06/13/2014	23:09:17.611	$GPGGA,230918,2433.8469,N,08051.5333,W,1,11,1.8,20,M,,M,,*65
06/13/2014	23:09:18.644	$GPGGA,230919,2433.8468,N,08051.5339,W,1,10,1.6,20,M,,M,,*60
06/13/2014	23:09:19.616	$GPGGA,230920,2433.8467,N,08051.5343,W,1,10,1.6,20,M,,M,,*68
06/13/2014	23:09:20.639	$GPGGA,230921,2433.8465,N,08051.5345,W,1,11,1.6,20,M,,M,,*6C
06/13/2014	23:09:21.612	$GPGGA,230922,2433.8461,N,08051.5348,W,1,11,1.6,20,M,,M,,*66
06/13/2014	23:09:22.634	$GPGGA,230923,2433.8461,N,08051.5354,W,1,11,1.8,20,M,,M,,*64
06/13/2014	23:09:23.616	$GPGGA,230924,2433.8458,N,08051.5358,W,1,11,1.8,20,M,,M,,*65
06/13/2014	23:09:24.649	$GPGGA,230925,2433.8454,N,08051.5362,W,1,10,1.8,20,M,,M,,*60
06/13/2014	23:09:25.601	$GPGGA,230926,2433.8454,N,08051.5368,W,1,10,1.8,20,M,,M,,*69
06/13/2014	23:09:26.704	$GPGGA,230927,2433.8449,N,08051.5372,W,1,11,1.6,21,M,,M,,*61
06/13/2014	23:09:27.626	$GPGGA,230928,2433.8447,N,08051.5376,W,1,11,1.6,21,M,,M,,*64
06/13/2014	23:09:28.629	$GPGGA,230929,2433.8445,N,08051.5379,W,1,10,1.8,21,M,,M,,*67
06/13/2014	23:09:29.631	$GPGGA,230930,2433.8444,N,08051.5383,W,1,10,1.8,21,M,,M,,*6B
06/13/2014	23:09:30.607	$GPGGA,230931,2433.8443,N,08051.5390,W,1,10,1.8,21,M,,M,,*6F
06/13/2014	23:09:31.737	$GPGGA,230932,2433.8438,N,08051.5395,W,1,10,1.6,21,M,,M,,*6B
06/13/2014	23:09:32.629	$GPGGA,230933,2433.8436,N,08051.5401,W,1,11,1.6,21,M,,M,,*6F
06/13/2014	23:09:33.702	$GPGGA,230934,2433.8434,N,08051.5406,W,1,11,1.6,21,M,,M,,*6D
06/13/2014	23:09:34.714	$GPGGA,230935,2433.8432,N,08051.5409,W,1,11,1.6,21,M,,M,,*65
06/13/2014	23:09:35.757	$GPGGA,230936,2433.8428,N,08051.5412,W,1,11,1.6,21,M,,M,,*67
06/13/2014	23:09:36.740	$GPGGA,230937,2433.8426,N,08051.5416,W,1,11,1.6,21,M,,M,,*6C
06/13/2014	23:09:37.712	$GPGGA,230938,2433.8425,N,08051.5421,W,1,11,1.8,21,M,,M,,*6A
06/13/2014	23:09:38.745	$GPGGA,230939,2433.8423,N,08051.5426,W,1,11,1.8,21,M,,M,,*6A
06/13/2014	23:09:39.657	$GPGGA,230940,2433.8418,N,08051.5431,W,1,11,1.8,21,M,,M,,*6A
06/13/2014	23:09:40.710	$GPGGA,230941,2433.8418,N,08051.5437,W,1,11,1.6,21,M,,M,,*63
06/13/2014	23:09:41.712	$GPGGA,230942,2433.8416,N,08051.5441,W,1,11,1.6,21,M,,M,,*6F
06/13/2014	23:09:42.734	$GPGGA,230943,2433.8414,N,08051.5444,W,1,11,1.6,21,M,,M,,*69
06/13/2014	23:09:43.727	$GPGGA,230944,2433.8408,N,08051.5448,W,1,11,1.6,21,M,,M,,*6F
06/13/2014	23:09:44.742	$GPGGA,230945,2433.8410,N,08051.5452,W,1,10,1.8,21,M,,M,,*63
06/13/2014	23:09:45.712	$GPGGA,230946,2433.8411,N,08051.5457,W,1,10,1.8,21,M,,M,,*64
06/13/2014	23:09:46.735	$GPGGA,230947,2433.8408,N,08051.5462,W,1,11,1.8,21,M,,M,,*6A
06/13/2014	23:09:47.575	$GPGGA,230948,2433.8405,N,08051.5464,W,1,11,1.6,21,M,,M,,*60
06/13/2014	23:09:48.566	$GPGGA,230949,2433.8404,N,08051.5470,W,1,11,1.6,21,M,,M,,*65
06/13/2014	23:09:49.559	$GPGGA,230950,2433.8401,N,08051.5474,W,1,11,1.6,21,M,,M,,*6C
06/13/2014	23:09:50.561	$GPGGA,230951,2433.8400,N,08051.5478,W,1,11,1.6,21,M,,M,,*60
06/13/2014	23:09:51.585	$GPGGA,230952,2433.8397,N,08051.5482,W,1,11,1.8,21,M,,M,,*61
06/13/2014	23:09:52.606	$GPGGA,230953,2433.8396,N,08051.5488,W,1,11,1.8,21,M,,M,,*6B
06/13/2014	23:09:54.862	$GPGGA,230955,2433.8392,N,08051.5496,W,1,11,1.6,21,M,,M,,*68
06/13/2014	23:09:55.574	$GPGGA,230956,2433.8390,N,08051.5500,W,1,11,1.6,21,M,,M,,*67
06/13/2014	23:09:56.598	$GPGGA,230957,2433.8389,N,08051.5506,W,1,10,1.6,21,M,,M,,*69
06/13/2014	23:09:57.569	$GPGGA,230958,2433.8386,N,08051.5509,W,1,10,1.6,21,M,,M,,*66
06/13/2014	23:09:58.591	$GPGGA,230959,2433.8383,N,08051.5513,W,1,11,1.8,21,M,,M,,*66
06/13/2014	23:09:59.584	$GPGGA,231000,2433.8382,N,08051.5518,W,1,11,1.8,21,M,,M,,*68
06/13/2014	23:10:00.556	$GPGGA,231001,2433.8380,N,08051.5524,W,1,10,1.8,21,M,,M,,*65
06/13/2014	23:10:01.569	$GPGGA,231002,2433.8378,N,08051.5529,W,1,10,1.6,21,M,,M,,*62
06/13/2014	23:10:02.591	$GPGGA,231003,2433.8373,N,08051.5532,W,1,11,1.6,21,M,,M,,*63
06/13/2014	23:10:04.933	$GPGGA,231005,2433.8371,N,08051.5542,W,1,11,1.6,21,M,,M,,*60
06/13/2014	23:10:05.569	$GPGGA,231006,2433.8367,N,08051.5546,W,1,11,1.8,21,M,,M,,*6E
06/13/2014	23:10:06.592	$GPGGA,231007,2433.8364,N,08051.5551,W,1,11,1.8,21,M,,M,,*6A
06/13/2014	23:10:07.584	$GPGGA,231008,2433.8363,N,08051.5557,W,1,11,1.8,21,M,,M,,*64
06/13/2014	23:10:08.597	$GPGGA,231009,2433.8361,N,08051.5563,W,1,11,1.8,21,M,,M,,*60
06/13/2014	23:10:09.579	$GPGGA,231010,2433.8357,N,08051.5567,W,1,11,1.6,21,M,,M,,*67
06/13/2014	23:10:10.582	$GPGGA,231011,2433.8358,N,08051.5571,W,1,9,1.8,21,M,,M,,*59
06/13/2014	23:10:11.585	$GPGGA,231012,2433.8355,N,08051.5578,W,1,9,1.6,21,M,,M,,*50
06/13/2014	23:10:12.597	$GPGGA,231013,2433.8353,N,08051.5582,W,1,11,1.6,21,M,,M,,*6B
06/13/2014	23:10:13.570	$GPGGA,231014,2433.8350,N,08051.5586,W,1,11,1.8,21,M,,M,,*65
06/13/2014	23:10:14.602	$GPGGA,231015,2433.8349,N,08051.5590,W,1,11,1.8,21,M,,M,,*6B
06/13/2014	23:10:15.685	$GPGGA,231016,2433.8347,N,08051.5596,W,1,11,1.8,21,M,,M,,*60
06/13/2014	23:10:16.597	$GPGGA,231017,2433.8346,N,08051.5601,W,1,11,1.8,21,M,,M,,*6D
06/13/2014	23:10:17.599	$GPGGA,231018,2433.8340,N,08051.5605,W,1,11,1.6,21,M,,M,,*6E
06/13/2014	23:10:18.672	$GPGGA,231019,2433.8339,N,08051.5611,W,1,11,1.6,21,M,,M,,*64
06/13/2014	23:10:19.604	$GPGGA,231020,2433.8338,N,08051.5616,W,1,11,1.6,21,M,,M,,*68
06/13/2014	23:10:20.707	$GPGGA,231021,2433.8336,N,08051.5621,W,1,11,1.6,21,M,,M,,*63
06/13/2014	23:10:21.590	$GPGGA,231022,2433.8333,N,08051.5625,W,1,11,1.6,20,M,,M,,*60
06/13/2014	23:10:22.692	$GPGGA,231023,2433.8332,N,08051.5630,W,1,10,1.8,20,M,,M,,*6B
06/13/2014	23:10:23.686	$GPGGA,231024,2433.8331,N,08051.5636,W,1,10,1.8,20,M,,M,,*69
06/13/2014	23:10:24.671	$GPGGA,231025,2433.8327,N,08051.5640,W,1,11,1.8,20,M,,M,,*6F
06/13/2014	23:10:25.671	$GPGGA,231026,2433.8324,N,08051.5647,W,1,11,1.6,20,M,,M,,*66
06/13/2014	23:10:26.713	$GPGGA,231027,2433.8322,N,08051.5651,W,1,10,1.6,20,M,,M,,*67
06/13/2014	23:10:27.695	$GPGGA,231028,2433.8320,N,08051.5658,W,1,10,1.6,20,M,,M,,*63
06/13/2014	23:10:28.688	$GPGGA,231029,2433.8316,N,08051.5661,W,1,11,1.6,20,M,,M,,*6C
06/13/2014	23:10:29.684	$GPGGA,231030,2433.8314,N,08051.5665,W,1,11,1.6,20,M,,M,,*62
06/13/2014	23:10:30.685	$GPGGA,231031,2433.8310,N,08051.5669,W,1,11,1.8,20,M,,M,,*65
06/13/2014	23:10:31.688	$GPGGA,231032,2433.8311,N,08051.5676,W,1,11,2.1,20,M,,M,,*63
06/13/2014	23:10:32.678	$GPGGA,231033,2433.8306,N,08051.5680,W,1,10,2.1,20,M,,M,,*6C
06/13/2014	23:10:33.711	$GPGGA,231034,2433.8302,N,08051.5683,W,1,10,1.6,20,M,,M,,*68
06/13/2014	23:10:34.673	$GPGGA,231035,2433.8297,N,08051.5690,W,1,11,1.6,20,M,,M,,*67
06/13/2014	23:10:35.685	$GPGGA,231036,2433.8295,N,08051.5697,W,1,11,1.8,20,M,,M,,*6F
06/13/2014	23:10:36.699	$GPGGA,231037,2433.8291,N,08051.5701,W,1,11,1.6,20,M,,M,,*6A
06/13/2014	23:10:37.680	$GPGGA,231038,2433.8288,N,08051.5705,W,1,11,1.6,20,M,,M,,*69
06/13/2014	23:10:38.704	$GPGGA,231039,2433.8285,N,08051.5709,W,1,10,1.8,20,M,,M,,*66
06/13/2014	23:10:39.696	$GPGGA,231040,2433.8284,N,08051.5715,W,1,10,1.8,20,M,,M,,*64
06/13/2014	23:10:40.709	$GPGGA,231041,2433.8282,N,08051.5719,W,1,9,2.1,20,M,,M,,*5D
06/13/2014	23:10:41.671	$GPGGA,231042,2433.8278,N,08051.5723,W,1,9,1.8,20,M,,M,,*58
06/13/2014	23:10:42.714	$GPGGA,231043,2433.8274,N,08051.5726,W,1,11,1.6,20,M,,M,,*67
06/13/2014	23:10:43.723	$GPGGA,231044,2433.8271,N,08051.5728,W,1,11,1.6,20,M,,M,,*6B
06/13/2014	23:10:44.688	$GPGGA,231045,2433.8270,N,08051.5733,W,1,11,1.6,20,M,,M,,*61
06/13/2014	23:10:45.681	$GPGGA,231046,2433.8266,N,08051.5734,W,1,11,1.6,20,M,,M,,*62
06/13/2014	23:10:46.714	$GPGGA,231047,2433.8264,N,08051.5740,W,1,11,1.6,20,M,,M,,*62
06/13/2014	23:10:47.541	$GPGGA,231048,2433.8262,N,08051.5744,W,1,11,1.8,20,M,,M,,*61
06/13/2014	23:10:48.554	$GPGGA,231049,2433.8259,N,08051.5749,W,1,11,1.8,20,M,,M,,*65
06/13/2014	23:10:49.536	$GPGGA,231050,2433.8257,N,08051.5755,W,1,11,1.6,20,M,,M,,*60
06/13/2014	23:10:50.529	$GPGGA,231051,2433.8255,N,08051.5759,W,1,11,1.8,20,M,,M,,*61
06/13/2014	23:10:51.542	$GPGGA,231052,2433.8251,N,08051.5763,W,1,11,1.6,20,M,,M,,*61
06/13/2014	23:10:52.563	$GPGGA,231053,2433.8248,N,08051.5766,W,1,11,1.6,20,M,,M,,*6D
06/13/2014	23:10:53.613	$GPGGA,231054,2433.8245,N,08051.5770,W,1,11,1.6,20,M,,M,,*60
06/13/2014	23:10:54.579	$GPGGA,231055,2433.8241,N,08051.5774,W,1,10,1.6,20,M,,M,,*60
06/13/2014	23:10:55.541	$GPGGA,231056,2433.8237,N,08051.5780,W,1,10,1.6,20,M,,M,,*69
06/13/2014	23:10:56.654	$GPGGA,231057,2433.8235,N,08051.5785,W,1,10,1.6,20,M,,M,,*6F
06/13/2014	23:10:57.536	$GPGGA,231058,2433.8232,N,08051.5791,W,1,10,1.6,20,M,,M,,*62
06/13/2014	23:10:58.659	$GPGGA,231059,2433.8230,N,08051.5796,W,1,11,1.6,20,M,,M,,*67
06/13/2014	23:10:59.561	$GPGGA,231100,2433.8228,N,08051.5800,W,1,11,1.6,20,M,,M,,*63
06/13/2014	23:11:00.654	$GPGGA,231101,2433.8226,N,08051.5803,W,1,10,1.6,20,M,,M,,*6E
06/13/2014	23:11:01.547	$GPGGA,231102,2433.8224,N,08051.5809,W,1,10,1.6,20,M,,M,,*65
06/13/2014	23:11:02.635	$GPGGA,231103,2433.8223,N,08051.5813,W,1,11,1.6,20,M,,M,,*69
06/13/2014	23:11:03.552	$GPGGA,231104,2433.8219,N,08051.5820,W,1,11,1.6,20,M,,M,,*67
06/13/2014	23:11:04.675	$GPGGA,231105,2433.8216,N,08051.5825,W,1,10,1.6,21,M,,M,,*6C
06/13/2014	23:11:05.528	$GPGGA,231106,2433.8213,N,08051.5831,W,1,10,1.6,21,M,,M,,*6F
06/13/2014	23:11:06.560	$GPGGA,231107,2433.8210,N,08051.5835,W,1,11,1.6,21,M,,M,,*68
06/13/2014	23:11:07.646	$GPGGA,231108,2433.8208,N,08051.5838,W,1,11,1.6,21,M,,M,,*63
06/13/2014	23:11:08.647	$GPGGA,231109,2433.8208,N,08051.5843,W,1,11,1.6,21,M,,M,,*6E
06/13/2014	23:11:09.639	$GPGGA,231110,2433.8206,N,08051.5847,W,1,11,1.6,21,M,,M,,*6C
06/13/2014	23:11:10.669	$GPGGA,231111,2433.8204,N,08051.5852,W,1,11,1.8,21,M,,M,,*65
06/13/2014	23:11:11.658	$GPGGA,231112,2433.8203,N,08051.5856,W,1,11,1.8,21,M,,M,,*65
06/13/2014	23:11:12.634	$GPGGA,231113,2433.8201,N,08051.5863,W,1,11,1.8,21,M,,M,,*60
06/13/2014	23:11:13.637	$GPGGA,231114,2433.8201,N,08051.5868,W,1,11,1.8,21,M,,M,,*6C
06/13/2014	23:11:14.652	$GPGGA,231115,2433.8199,N,08051.5874,W,1,11,1.8,21,M,,M,,*62
06/13/2014	23:11:15.667	$GPGGA,231116,2433.8197,N,08051.5879,W,1,11,1.8,21,M,,M,,*62
06/13/2014	23:11:16.670	$GPGGA,231117,2433.8195,N,08051.5885,W,1,11,1.8,21,M,,M,,*62
06/13/2014	23:11:17.647	$GPGGA,231118,2433.8194,N,08051.5889,W,1,11,1.8,20,M,,M,,*61
06/13/2014	23:11:18.640	$GPGGA,231119,2433.8194,N,08051.5893,W,1,11,1.8,20,M,,M,,*6B
06/13/2014	23:11:19.666	$GPGGA,231120,2433.8191,N,08051.5900,W,1,11,1.8,20,M,,M,,*6F
06/13/2014	23:11:20.666	$GPGGA,231121,2433.8188,N,08051.5905,W,1,10,1.8,20,M,,M,,*62
06/13/2014	23:11:21.648	$GPGGA,231122,2433.8185,N,08051.5911,W,1,10,1.8,20,M,,M,,*69
06/13/2014	23:11:22.660	$GPGGA,231123,2433.8183,N,08051.5917,W,1,11,1.8,20,M,,M,,*69
06/13/2014	23:11:23.664	$GPGGA,231124,2433.8181,N,08051.5921,W,1,11,1.8,20,M,,M,,*69
06/13/2014	23:11:24.657	$GPGGA,231125,2433.8179,N,08051.5925,W,1,11,1.8,20,M,,M,,*6B
06/13/2014	23:11:25.648	$GPGGA,231126,2433.8176,N,08051.5930,W,1,11,1.8,20,M,,M,,*63
06/13/2014	23:11:26.640	$GPGGA,231127,2433.8172,N,08051.5936,W,1,11,1.8,19,M,,M,,*6A
06/13/2014	23:11:27.662	$GPGGA,231128,2433.8170,N,08051.5940,W,1,11,1.8,19,M,,M,,*66
06/13/2014	23:11:28.665	$GPGGA,231129,2433.8167,N,08051.5947,W,1,11,1.8,19,M,,M,,*66
06/13/2014	23:11:29.647	$GPGGA,231130,2433.8163,N,08051.5952,W,1,11,1.8,19,M,,M,,*6E
06/13/2014	23:11:30.670	$GPGGA,231131,2433.8161,N,08051.5957,W,1,11,1.8,19,M,,M,,*68
06/13/2014	23:11:31.653	$GPGGA,231132,2433.8161,N,08051.5962,W,1,11,1.9,19,M,,M,,*6C
06/13/2014	23:11:32.685	$GPGGA,231133,2433.8159,N,08051.5968,W,1,10,1.8,19,M,,M,,*6C
06/13/2014	23:11:33.648	$GPGGA,231134,2433.8156,N,08051.5975,W,1,10,1.8,19,M,,M,,*68
06/13/2014	23:11:34.660	$GPGGA,231135,2433.8152,N,08051.5979,W,1,10,2.1,19,M,,M,,*6B
06/13/2014	23:11:35.673	$GPGGA,231136,2433.8151,N,08051.5983,W,1,10,1.8,19,M,,M,,*64
06/13/2014	23:11:36.676	$GPGGA,231137,2433.8149,N,08051.5987,W,1,11,1.8,19,M,,M,,*69
06/13/2014	23:11:37.658	$GPGGA,231138,2433.8145,N,08051.5991,W,1,11,1.8,19,M,,M,,*6D
06/13/2014	23:11:38.681	$GPGGA,231139,2433.8143,N,08051.5997,W,1,11,1.8,19,M,,M,,*6C
06/13/2014	23:11:39.664	$GPGGA,231140,2433.8141,N,08051.6002,W,1,11,1.8,18,M,,M,,*67
06/13/2014	23:11:40.686	$GPGGA,231141,2433.8139,N,08051.6009,W,1,11,1.8,18,M,,M,,*62
06/13/2014	23:11:41.649	$GPGGA,231142,2433.8137,N,08051.6017,W,1,11,2.1,18,M,,M,,*6A
06/13/2014	23:11:42.772	$GPGGA,231143,2433.8136,N,08051.6022,W,1,9,2.1,18,M,,M,,*55
06/13/2014	23:11:43.663	$GPGGA,231144,2433.8134,N,08051.6029,W,1,9,1.8,18,M,,M,,*51
