Software Version Number: 1	Data File Format Number: 1	Build Version Number: 1	Error Count Since VI Started: 0	Manufacturer: Raytheon	 Model Number: RayMarine 120	 S/N: 	 Cal Date: 	 Wind Direction Offset: 0.00	 Slope (M)1: 0.00	 Offset (B)1: 0.00	 Slope (M)2: 0.00	 Offset (B)2: 0.00	 Slope (M)3: 0.00	 Offset (B)3: 0.00	 Slope (M)4: 0.00	 Offset (B)4: 0.00	 Slope (M)5: 0.00	 Offset (B)5: 0.00	 Slope (M)6: 0.00	 Offset (B)6: 0.00
Computer Date	Computer Time	GGA String
05/29/2014	05:00:00.162	$GPGGA,050000,2553.5029,N,07937.4116,W,1,9,2.0,15,M,,M,,*5D
05/29/2014	05:00:01.174	$GPGGA,050001,2553.5017,N,07937.4100,W,1,9,1.8,15,M,,M,,*5D
05/29/2014	05:00:02.166	$GPGGA,050002,2553.5006,N,07937.4084,W,1,9,1.8,15,M,,M,,*53
05/29/2014	05:00:03.178	$GPGGA,050003,2553.4995,N,07937.4067,W,1,9,1.8,15,M,,M,,*5D
05/29/2014	05:00:04.189	$GPGGA,050004,2553.4982,N,07937.4051,W,1,9,1.8,15,M,,M,,*59
05/29/2014	05:00:05.222	$GPGGA,050005,2553.4971,N,07937.4034,W,1,9,1.8,15,M,,M,,*57
05/29/2014	05:00:06.315	$GPGGA,050006,2553.4959,N,07937.4018,W,1,9,1.8,15,M,,M,,*50
05/29/2014	05:00:07.205	$GPGGA,050007,2553.4948,N,07937.4002,W,1,9,1.8,15,M,,M,,*5A
05/29/2014	05:00:08.238	$GPGGA,050008,2553.4937,N,07937.3986,W,1,9,1.8,15,M,,M,,*5F
05/29/2014	05:00:09.240	$GPGGA,050009,2553.4926,N,07937.3970,W,1,9,1.8,15,M,,M,,*57
05/29/2014	05:00:10.232	$GPGGA,050010,2553.4915,N,07937.3954,W,1,9,1.8,15,M,,M,,*59
05/29/2014	05:00:11.254	$GPGGA,050011,2553.4903,N,07937.3938,W,1,9,1.8,15,M,,M,,*55
05/29/2014	05:00:12.276	$GPGGA,050012,2553.4892,N,07937.3921,W,1,9,1.8,15,M,,M,,*57
05/29/2014	05:00:13.278	$GPGGA,050013,2553.4880,N,07937.3906,W,1,9,1.8,15,M,,M,,*50
05/29/2014	05:00:14.290	$GPGGA,050014,2553.4868,N,07937.3889,W,1,9,1.8,15,M,,M,,*57
05/29/2014	05:00:15.322	$GPGGA,050015,2553.4857,N,07937.3873,W,1,9,1.8,15,M,,M,,*5F
05/29/2014	05:00:16.325	$GPGGA,050016,2553.4845,N,07937.3856,W,1,9,1.8,15,M,,M,,*58
05/29/2014	05:00:17.407	$GPGGA,050017,2553.4834,N,07937.3840,W,1,9,1.8,15,M,,M,,*58
05/29/2014	05:00:18.338	$GPGGA,050018,2553.4822,N,07937.3825,W,1,9,1.8,15,M,,M,,*53
05/29/2014	05:00:19.421	$GPGGA,050019,2553.4811,N,07937.3808,W,1,9,1.8,15,M,,M,,*5D
05/29/2014	05:00:20.453	$GPGGA,050020,2553.4800,N,07937.3792,W,1,9,1.8,15,M,,M,,*5B
05/29/2014	05:00:21.374	$GPGGA,050021,2553.4789,N,07937.3776,W,1,9,1.8,15,M,,M,,*5E
05/29/2014	05:00:22.377	$GPGGA,050022,2553.4778,N,07937.3760,W,1,9,2.1,15,M,,M,,*5E
05/29/2014	05:00:23.509	$GPGGA,050023,2553.4767,N,07937.3743,W,1,8,2.1,15,M,,M,,*51
05/29/2014	05:00:24.511	$GPGGA,050024,2553.4753,N,07937.3726,W,1,8,1.8,15,M,,M,,*58
05/29/2014	05:00:25.513	$GPGGA,050025,2553.4742,N,07937.3709,W,1,9,1.8,15,M,,M,,*55
05/29/2014	05:00:26.495	$GPGGA,050026,2553.4731,N,07937.3693,W,1,9,1.8,15,M,,M,,*50
05/29/2014	05:00:27.416	$GPGGA,050027,2553.4718,N,07937.3676,W,1,8,2.1,15,M,,M,,*5A
05/29/2014	05:00:28.550	$GPGGA,050028,2553.4706,N,07937.3658,W,1,8,2.1,15,M,,M,,*56
05/29/2014	05:00:29.541	$GPGGA,050029,2553.4693,N,07937.3640,W,1,9,1.8,15,M,,M,,*58
05/29/2014	05:00:30.452	$GPGGA,050030,2553.4682,N,07937.3625,W,1,9,1.8,15,M,,M,,*53
05/29/2014	05:00:31.576	$GPGGA,050031,2553.4673,N,07937.3608,W,1,8,2.1,15,M,,M,,*58
05/29/2014	05:00:32.608	$GPGGA,050032,2553.4661,N,07937.3591,W,1,8,2.1,15,M,,M,,*5B
05/29/2014	05:00:33.571	$GPGGA,050033,2553.4650,N,07937.3575,W,1,8,2.1,15,M,,M,,*52
05/29/2014	05:00:34.582	$GPGGA,050034,2553.4638,N,07937.3559,W,1,8,2.1,15,M,,M,,*55
05/29/2014	05:00:35.624	$GPGGA,050035,2553.4627,N,07937.3542,W,1,9,1.8,15,M,,M,,*5B
05/29/2014	05:00:36.636	$GPGGA,050036,2553.4615,N,07937.3524,W,1,9,2.1,15,M,,M,,*53
05/29/2014	05:00:37.638	$GPGGA,050037,2553.4604,N,07937.3508,W,1,9,1.8,15,M,,M,,*56
05/29/2014	05:00:38.619	$GPGGA,050038,2553.4594,N,07937.3493,W,1,9,1.8,15,M,,M,,*50
05/29/2014	05:00:39.621	$GPGGA,050039,2553.4583,N,07937.3476,W,1,9,1.8,15,M,,M,,*5C
05/29/2014	05:00:39.589	$GPGGA,050040,2553.4572,N,07937.3460,W,1,9,1.8,15,M,,M,,*5B
05/29/2014	05:00:40.612	$GPGGA,050041,2553.4561,N,07937.3444,W,1,9,1.8,15,M,,M,,*5E
05/29/2014	05:00:41.603	$GPGGA,050042,2553.4550,N,07937.3428,W,1,9,1.8,15,M,,M,,*55
05/29/2014	05:00:42.626	$GPGGA,050043,2553.4539,N,07937.3411,W,1,9,1.8,15,M,,M,,*51
05/29/2014	05:00:43.638	$GPGGA,050044,2553.4529,N,07937.3394,W,1,9,1.8,15,M,,M,,*5D
05/29/2014	05:00:44.650	$GPGGA,050045,2553.4516,N,07937.3378,W,1,9,1.8,15,M,,M,,*52
05/29/2014	05:00:45.631	$GPGGA,050046,2553.4504,N,07937.3361,W,1,9,1.8,15,M,,M,,*5A
05/29/2014	05:00:46.665	$GPGGA,050047,2553.4493,N,07937.3344,W,1,9,1.8,15,M,,M,,*53
05/29/2014	05:00:47.667	$GPGGA,050048,2553.4482,N,07937.3328,W,1,9,1.8,15,M,,M,,*56
05/29/2014	05:00:48.700	$GPGGA,050049,2553.4471,N,07937.3311,W,1,9,1.8,15,M,,M,,*51
05/29/2014	05:00:49.680	$GPGGA,050050,2553.4458,N,07937.3294,W,1,9,1.8,15,M,,M,,*5E
05/29/2014	05:00:50.722	$GPGGA,050051,2553.4446,N,07937.3278,W,1,9,1.8,15,M,,M,,*52
05/29/2014	05:00:51.715	$GPGGA,050052,2553.4435,N,07937.3261,W,1,9,1.8,15,M,,M,,*5D
05/29/2014	05:00:52.716	$GPGGA,050053,2553.4424,N,07937.3245,W,1,9,1.8,15,M,,M,,*5A
05/29/2014	05:00:53.738	$GPGGA,050054,2553.4413,N,07937.3229,W,1,9,1.8,14,M,,M,,*52
05/29/2014	05:00:54.719	$GPGGA,050055,2553.4400,N,07937.3212,W,1,9,1.8,14,M,,M,,*59
05/29/2014	05:00:55.863	$GPGGA,050056,2553.4388,N,07937.3195,W,1,9,1.8,14,M,,M,,*51
05/29/2014	05:00:56.753	$GPGGA,050057,2553.4377,N,07937.3178,W,1,9,1.8,14,M,,M,,*53
05/29/2014	05:00:57.867	$GPGGA,050058,2553.4364,N,07937.3162,W,1,9,1.8,14,M,,M,,*55
05/29/2014	05:00:58.889	$GPGGA,050059,2553.4352,N,07937.3145,W,1,9,1.8,14,M,,M,,*54
05/29/2014	05:00:59.800	$GPGGA,050100,2553.4341,N,07937.3129,W,1,9,1.8,14,M,,M,,*51
05/29/2014	05:01:00.782	$GPGGA,050101,2553.4327,N,07937.3112,W,1,9,1.8,14,M,,M,,*58
05/29/2014	05:01:01.915	$GPGGA,050102,2553.4316,N,07937.3096,W,1,9,1.8,14,M,,M,,*54
05/29/2014	05:01:02.806	$GPGGA,050103,2553.4305,N,07937.3080,W,1,9,1.8,14,M,,M,,*50
05/29/2014	05:01:03.939	$GPGGA,050104,2553.4294,N,07937.3063,W,1,9,1.8,14,M,,M,,*53
05/29/2014	05:01:04.931	$GPGGA,050105,2553.4283,N,07937.3047,W,1,9,1.8,15,M,,M,,*53
05/29/2014	05:01:05.842	$GPGGA,050106,2553.4272,N,07937.3030,W,1,9,1.8,15,M,,M,,*5E
05/29/2014	05:01:06.935	$GPGGA,050107,2553.4259,N,07937.3013,W,1,9,1.8,15,M,,M,,*57
05/29/2014	05:01:07.877	$GPGGA,050108,2553.4247,N,07937.2997,W,1,9,1.8,15,M,,M,,*53
05/29/2014	05:01:08.969	$GPGGA,050109,2553.4236,N,07937.2980,W,1,9,1.8,15,M,,M,,*52
05/29/2014	05:01:09.982	$GPGGA,050110,2553.4225,N,07937.2964,W,1,9,1.8,15,M,,M,,*52
05/29/2014	05:01:11.034	$GPGGA,050111,2553.4212,N,07937.2950,W,1,9,1.8,15,M,,M,,*50
05/29/2014	05:01:11.915	$GPGGA,050112,2553.4202,N,07937.2933,W,1,9,1.8,15,M,,M,,*57
05/29/2014	05:01:13.017	$GPGGA,050113,2553.4190,N,07937.2918,W,1,9,1.8,15,M,,M,,*57
05/29/2014	05:01:14.019	$GPGGA,050114,2553.4179,N,07937.2903,W,1,9,1.8,15,M,,M,,*5D
05/29/2014	05:01:15.061	$GPGGA,050115,2553.4168,N,07937.2886,W,1,9,1.8,15,M,,M,,*50
05/29/2014	05:01:16.094	$GPGGA,050116,2553.4157,N,07937.2870,W,1,9,1.8,15,M,,M,,*56
05/29/2014	05:01:17.035	$GPGGA,050117,2553.4146,N,07937.2855,W,1,9,1.8,15,M,,M,,*50
05/29/2014	05:01:18.047	$GPGGA,050118,2553.4135,N,07937.2839,W,1,9,1.8,15,M,,M,,*51
05/29/2014	05:01:19.069	$GPGGA,050119,2553.4122,N,07937.2823,W,1,9,1.8,15,M,,M,,*5D
05/29/2014	05:01:20.091	$GPGGA,050120,2553.4111,N,07937.2808,W,1,9,1.8,15,M,,M,,*5E
05/29/2014	05:01:21.104	$GPGGA,050121,2553.4100,N,07937.2792,W,1,9,1.8,15,M,,M,,*53
05/29/2014	05:01:22.085	$GPGGA,050122,2553.4089,N,07937.2776,W,1,9,1.8,15,M,,M,,*5A
05/29/2014	05:01:23.118	$GPGGA,050123,2553.4078,N,07937.2761,W,1,9,1.8,15,M,,M,,*53
05/29/2014	05:01:24.130	$GPGGA,050124,2553.4067,N,07937.2746,W,1,9,1.8,15,M,,M,,*5F
05/29/2014	05:01:25.142	$GPGGA,050125,2553.4056,N,07937.2730,W,1,9,1.8,15,M,,M,,*5D
05/29/2014	05:01:26.134	$GPGGA,050126,2553.4045,N,07937.2715,W,1,9,1.8,15,M,,M,,*5B
05/29/2014	05:01:27.166	$GPGGA,050127,2553.4034,N,07937.2700,W,1,9,1.8,15,M,,M,,*58
05/29/2014	05:01:28.170	$GPGGA,050128,2553.4023,N,07937.2684,W,1,9,1.8,15,M,,M,,*5C
05/29/2014	05:01:29.190	$GPGGA,050129,2553.4012,N,07937.2669,W,1,9,1.8,15,M,,M,,*5C
05/29/2014	05:01:30.181	$GPGGA,050130,2553.4001,N,07937.2654,W,1,9,1.8,15,M,,M,,*58
05/29/2014	05:01:31.183	$GPGGA,050131,2553.3988,N,07937.2638,W,1,9,1.8,15,M,,M,,*5C
05/29/2014	05:01:32.217	$GPGGA,050132,2553.3977,N,07937.2623,W,1,9,1.8,15,M,,M,,*55
05/29/2014	05:01:33.238	$GPGGA,050133,2553.3966,N,07937.2607,W,1,9,1.8,15,M,,M,,*52
05/29/2014	05:01:34.220	$GPGGA,050134,2553.3955,N,07937.2592,W,1,9,1.8,15,M,,M,,*5A
05/29/2014	05:01:35.242	$GPGGA,050135,2553.3944,N,07937.2576,W,1,9,1.8,15,M,,M,,*51
05/29/2014	05:01:36.245	$GPGGA,050136,2553.3934,N,07937.2560,W,1,9,1.8,15,M,,M,,*52
05/29/2014	05:01:37.246	$GPGGA,050137,2553.3922,N,07937.2544,W,1,9,1.8,15,M,,M,,*52
05/29/2014	05:01:38.258	$GPGGA,050138,2553.3911,N,07937.2529,W,1,9,1.8,15,M,,M,,*56
05/29/2014	05:01:39.310	$GPGGA,050139,2553.3900,N,07937.2513,W,1,9,1.8,15,M,,M,,*5E
05/29/2014	05:01:39.560	$GPGGA,050140,2553.3889,N,07937.2497,W,1,9,1.8,15,M,,M,,*5D
05/29/2014	05:01:40.560	$GPGGA,050141,2553.3878,N,07937.2482,W,1,9,1.8,15,M,,M,,*56
05/29/2014	05:01:41.582	$GPGGA,050142,2553.3868,N,07937.2466,W,1,9,1.8,15,M,,M,,*5E
05/29/2014	05:01:42.614	$GPGGA,050143,2553.3857,N,07937.2451,W,1,9,1.8,15,M,,M,,*57
05/29/2014	05:01:43.616	$GPGGA,050144,2553.3847,N,07937.2435,W,1,9,1.8,15,M,,M,,*53
05/29/2014	05:01:44.608	$GPGGA,050145,2553.3836,N,07937.2420,W,1,9,1.8,15,M,,M,,*50
05/29/2014	05:01:45.610	$GPGGA,050146,2553.3825,N,07937.2404,W,1,9,1.8,15,M,,M,,*57
05/29/2014	05:01:46.632	$GPGGA,050147,2553.3815,N,07937.2388,W,1,9,1.8,15,M,,M,,*56
05/29/2014	05:01:47.664	$GPGGA,050148,2553.3803,N,07937.2372,W,1,9,1.8,15,M,,M,,*5B
05/29/2014	05:01:48.656	$GPGGA,050149,2553.3793,N,07937.2356,W,1,9,1.8,15,M,,M,,*5A
05/29/2014	05:01:49.668	$GPGGA,050150,2553.3781,N,07937.2340,W,1,9,1.8,14,M,,M,,*57
05/29/2014	05:01:50.771	$GPGGA,050151,2553.3770,N,07937.2323,W,1,9,1.8,14,M,,M,,*5D
05/29/2014	05:01:51.682	$GPGGA,050152,2553.3761,N,07937.2307,W,1,9,1.8,14,M,,M,,*58
05/29/2014	05:01:52.674	$GPGGA,050153,2553.3750,N,07937.2291,W,1,9,1.8,14,M,,M,,*55
05/29/2014	05:01:53.807	$GPGGA,050154,2553.3739,N,07937.2276,W,1,9,1.8,14,M,,M,,*54
05/29/2014	05:01:54.708	$GPGGA,050155,2553.3730,N,07937.2259,W,1,9,1.8,14,M,,M,,*51
05/29/2014	05:01:55.720	$GPGGA,050156,2553.3720,N,07937.2243,W,1,9,1.8,14,M,,M,,*58
05/29/2014	05:01:56.742	$GPGGA,050157,2553.3708,N,07937.2228,W,1,9,1.8,14,M,,M,,*5E
05/29/2014	05:01:57.744	$GPGGA,050158,2553.3698,N,07937.2212,W,1,9,1.8,14,M,,M,,*50
05/29/2014	05:01:58.868	$GPGGA,050159,2553.3688,N,07937.2195,W,1,9,1.8,14,M,,M,,*5C
05/29/2014	05:01:59.870	$GPGGA,050200,2553.3677,N,07937.2180,W,1,9,1.8,14,M,,M,,*57
05/29/2014	05:02:00.760	$GPGGA,050201,2553.3665,N,07937.2164,W,1,9,1.8,14,M,,M,,*5F
05/29/2014	05:02:01.864	$GPGGA,050202,2553.3655,N,07937.2147,W,1,9,1.8,14,M,,M,,*5E
05/29/2014	05:02:02.886	$GPGGA,050203,2553.3644,N,07937.2132,W,1,9,1.8,14,M,,M,,*5D
05/29/2014	05:02:03.898	$GPGGA,050204,2553.3634,N,07937.2116,W,1,9,1.8,14,M,,M,,*5B
05/29/2014	05:02:04.929	$GPGGA,050205,2553.3624,N,07937.2100,W,1,9,1.8,14,M,,M,,*5C
05/29/2014	05:02:05.911	$GPGGA,050206,2553.3615,N,07937.2084,W,1,9,1.8,14,M,,M,,*50
05/29/2014	05:02:06.953	$GPGGA,050207,2553.3604,N,07937.2069,W,1,9,1.8,14,M,,M,,*52
05/29/2014	05:02:07.955	$GPGGA,050208,2553.3593,N,07937.2052,W,1,9,1.8,14,M,,M,,*58
05/29/2014	05:02:08.967	$GPGGA,050209,2553.3582,N,07937.2037,W,1,9,1.8,14,M,,M,,*5A
05/29/2014	05:02:09.959	$GPGGA,050210,2553.3570,N,07937.2021,W,1,9,1.8,14,M,,M,,*58
05/29/2014	05:02:10.962	$GPGGA,050211,2553.3559,N,07937.2005,W,1,9,1.8,14,M,,M,,*54
05/29/2014	05:02:11.994	$GPGGA,050212,2553.3549,N,07937.1989,W,1,9,1.8,14,M,,M,,*58
05/29/2014	05:02:13.006	$GPGGA,050213,2553.3539,N,07937.1973,W,1,9,1.8,14,M,,M,,*5B
05/29/2014	05:02:13.987	$GPGGA,050214,2553.3528,N,07937.1957,W,1,9,1.8,14,M,,M,,*5A
05/29/2014	05:02:15.020	$GPGGA,050215,2553.3517,N,07937.1942,W,1,9,1.8,14,M,,M,,*53
05/29/2014	05:02:16.032	$GPGGA,050216,2553.3506,N,07937.1926,W,1,9,1.8,14,M,,M,,*52
05/29/2014	05:02:17.044	$GPGGA,050217,2553.3496,N,07937.1910,W,1,9,1.8,14,M,,M,,*5E
05/29/2014	05:02:18.036	$GPGGA,050218,2553.3485,N,07937.1895,W,1,9,1.8,14,M,,M,,*5F
05/29/2014	05:02:19.048	$GPGGA,050219,2553.3474,N,07937.1879,W,1,9,1.8,14,M,,M,,*52
05/29/2014	05:02:20.070	$GPGGA,050220,2553.3463,N,07937.1863,W,1,9,1.8,14,M,,M,,*55
05/29/2014	05:02:21.052	$GPGGA,050221,2553.3452,N,07937.1848,W,1,9,1.8,14,M,,M,,*5F
05/29/2014	05:02:23.480	$GPGGA,050223,2553.3430,N,07937.1816,W,1,9,1.8,14,M,,M,,*52
05/29/2014	05:02:24.107	$GPGGA,050224,2553.3418,N,07937.1801,W,1,9,1.8,14,M,,M,,*59
05/29/2014	05:02:25.141	$GPGGA,050225,2553.3407,N,07937.1787,W,1,9,1.8,14,M,,M,,*57
05/29/2014	05:02:26.122	$GPGGA,050226,2553.3398,N,07937.1770,W,1,9,1.8,14,M,,M,,*5D
05/29/2014	05:02:27.134	$GPGGA,050227,2553.3385,N,07937.1756,W,1,9,1.8,14,M,,M,,*54
05/29/2014	05:02:28.136	$GPGGA,050228,2553.3374,N,07937.1741,W,1,9,1.8,14,M,,M,,*53
05/29/2014	05:02:29.148	$GPGGA,050229,2553.3364,N,07937.1724,W,1,9,1.8,14,M,,M,,*50
05/29/2014	05:02:30.160	$GPGGA,050230,2553.3352,N,07937.1710,W,1,9,1.8,14,M,,M,,*5A
05/29/2014	05:02:31.162	$GPGGA,050231,2553.3341,N,07937.1696,W,1,9,1.8,14,M,,M,,*56
05/29/2014	05:02:32.194	$GPGGA,050232,2553.3330,N,07937.1680,W,1,9,1.8,14,M,,M,,*54
05/29/2014	05:02:33.186	$GPGGA,050233,2553.3319,N,07937.1664,W,1,9,1.8,14,M,,M,,*54
05/29/2014	05:02:34.198	$GPGGA,050234,2553.3308,N,07937.1650,W,1,9,1.8,14,M,,M,,*54
05/29/2014	05:02:35.220	$GPGGA,050235,2553.3297,N,07937.1635,W,1,9,1.8,14,M,,M,,*51
05/29/2014	05:02:36.222	$GPGGA,050236,2553.3286,N,07937.1618,W,1,9,1.8,14,M,,M,,*5D
05/29/2014	05:02:37.224	$GPGGA,050237,2553.3275,N,07937.1603,W,1,9,1.8,14,M,,M,,*5A
05/29/2014	05:02:38.348	$GPGGA,050238,2553.3264,N,07937.1589,W,1,9,1.8,14,M,,M,,*54
05/29/2014	05:02:39.340	$GPGGA,050239,2553.3253,N,07937.1573,W,1,9,1.8,14,M,,M,,*54
05/29/2014	05:02:39.556	$GPGGA,050240,2553.3242,N,07937.1557,W,1,9,1.8,14,M,,M,,*5C
05/29/2014	05:02:40.659	$GPGGA,050241,2553.3230,N,07937.1542,W,1,9,1.8,14,M,,M,,*5C
05/29/2014	05:02:41.540	$GPGGA,050242,2553.3219,N,07937.1527,W,1,9,1.8,14,M,,M,,*57
05/29/2014	05:02:42.683	$GPGGA,050243,2553.3208,N,07937.1510,W,1,9,1.8,14,M,,M,,*52
05/29/2014	05:02:43.594	$GPGGA,050244,2553.3199,N,07937.1495,W,1,9,1.8,14,M,,M,,*52
05/29/2014	05:02:44.688	$GPGGA,050245,2553.3186,N,07937.1480,W,1,9,1.8,14,M,,M,,*59
05/29/2014	05:02:45.598	$GPGGA,050246,2553.3175,N,07937.1464,W,1,9,1.8,14,M,,M,,*5C
05/29/2014	05:02:46.711	$GPGGA,050247,2553.3165,N,07937.1449,W,1,9,1.8,14,M,,M,,*53
05/29/2014	05:02:47.744	$GPGGA,050248,2553.3153,N,07937.1433,W,1,9,1.8,14,M,,M,,*54
05/29/2014	05:02:48.736	$GPGGA,050249,2553.3142,N,07937.1418,W,1,9,1.8,14,M,,M,,*5C
05/29/2014	05:02:49.727	$GPGGA,050250,2553.3131,N,07937.1403,W,1,9,1.8,14,M,,M,,*5A
05/29/2014	05:02:50.770	$GPGGA,050251,2553.3120,N,07937.1387,W,1,9,1.8,14,M,,M,,*50
05/29/2014	05:02:51.793	$GPGGA,050252,2553.3109,N,07937.1370,W,1,9,1.8,14,M,,M,,*50
05/29/2014	05:02:52.784	$GPGGA,050253,2553.3098,N,07937.1355,W,1,9,1.8,14,M,,M,,*5F
05/29/2014	05:02:53.776	$GPGGA,050254,2553.3087,N,07937.1339,W,1,9,1.8,14,M,,M,,*5C
05/29/2014	05:02:54.798	$GPGGA,050255,2553.3077,N,07937.1322,W,1,9,1.8,14,M,,M,,*58
05/29/2014	05:02:55.810	$GPGGA,050256,2553.3066,N,07937.1306,W,1,9,1.8,14,M,,M,,*5D
05/29/2014	05:02:56.821	$GPGGA,050257,2553.3055,N,07937.1291,W,1,9,1.8,14,M,,M,,*53
05/29/2014	05:02:57.814	$GPGGA,050258,2553.3044,N,07937.1276,W,1,9,1.8,14,M,,M,,*55
05/29/2014	05:02:58.845	$GPGGA,050259,2553.3034,N,07937.1259,W,1,9,1.8,14,M,,M,,*5E
05/29/2014	05:02:59.858	$GPGGA,050300,2553.3023,N,07937.1244,W,1,9,1.8,14,M,,M,,*59
05/29/2014	05:03:00.843	$GPGGA,050301,2553.3011,N,07937.1228,W,1,9,1.8,14,M,,M,,*53
05/29/2014	05:03:01.851	$GPGGA,050302,2553.3001,N,07937.1212,W,1,9,1.8,14,M,,M,,*58
05/29/2014	05:03:02.853	$GPGGA,050303,2553.2990,N,07937.1196,W,1,9,1.8,14,M,,M,,*56
05/29/2014	05:03:03.896	$GPGGA,050304,2553.2979,N,07937.1180,W,1,9,1.8,14,M,,M,,*51
05/29/2014	05:03:04.908	$GPGGA,050305,2553.2969,N,07937.1165,W,1,9,1.8,14,M,,M,,*5A
05/29/2014	05:03:05.880	$GPGGA,050306,2553.2957,N,07937.1149,W,1,9,1.8,14,M,,M,,*5A
05/29/2014	05:03:06.932	$GPGGA,050307,2553.2947,N,07937.1134,W,1,9,1.8,14,M,,M,,*50
05/29/2014	05:03:07.944	$GPGGA,050308,2553.2936,N,07937.1117,W,1,9,1.8,14,M,,M,,*58
05/29/2014	05:03:08.956	$GPGGA,050309,2553.2926,N,07937.1102,W,1,9,1.8,14,M,,M,,*5C
05/29/2014	05:03:09.928	$GPGGA,050310,2553.2915,N,07937.1087,W,1,9,1.8,14,M,,M,,*58
05/29/2014	05:03:10.970	$GPGGA,050311,2553.2905,N,07937.1070,W,1,9,1.8,14,M,,M,,*50
05/29/2014	05:03:11.982	$GPGGA,050312,2553.2894,N,07937.1055,W,1,9,1.8,14,M,,M,,*5D
05/29/2014	05:03:12.974	$GPGGA,050313,2553.2883,N,07937.1039,W,1,9,1.8,14,M,,M,,*50
05/29/2014	05:03:13.976	$GPGGA,050314,2553.2872,N,07937.1023,W,1,9,1.8,14,M,,M,,*52
05/29/2014	05:03:15.018	$GPGGA,050315,2553.2861,N,07937.1007,W,1,9,1.8,14,M,,M,,*57
05/29/2014	05:03:16.030	$GPGGA,050316,2553.2850,N,07937.0992,W,1,9,1.8,14,M,,M,,*52
05/29/2014	05:03:17.032	$GPGGA,050317,2553.2840,N,07937.0976,W,1,9,1.8,14,M,,M,,*58
05/29/2014	05:03:18.003	$GPGGA,050318,2553.2831,N,07937.0960,W,1,9,1.8,14,M,,M,,*56
05/29/2014	05:03:19.036	$GPGGA,050319,2553.2820,N,07937.0944,W,1,9,1.8,14,M,,M,,*51
05/29/2014	05:03:20.159	$GPGGA,050320,2553.2809,N,07937.0929,W,1,9,1.8,14,M,,M,,*5B
05/29/2014	05:03:21.060	$GPGGA,050321,2553.2798,N,07937.0913,W,1,9,1.8,14,M,,M,,*54
05/29/2014	05:03:22.042	$GPGGA,050322,2553.2786,N,07937.0897,W,1,9,1.8,14,M,,M,,*55
05/29/2014	05:03:23.094	$GPGGA,050323,2553.2775,N,07937.0882,W,1,9,1.8,14,M,,M,,*5C
05/29/2014	05:03:24.096	$GPGGA,050324,2553.2763,N,07937.0867,W,1,9,1.8,14,M,,M,,*57
05/29/2014	05:03:25.108	$GPGGA,050325,2553.2752,N,07937.0851,W,1,9,1.8,14,M,,M,,*51
05/29/2014	05:03:26.090	$GPGGA,050326,2553.2742,N,07937.0836,W,1,9,1.8,14,M,,M,,*52
05/29/2014	05:03:27.214	$GPGGA,050327,2553.2731,N,07937.0821,W,1,9,1.8,14,M,,M,,*51
05/29/2014	05:03:28.135	$GPGGA,050328,2553.2720,N,07937.0806,W,1,9,1.8,14,M,,M,,*5B
05/29/2014	05:03:29.147	$GPGGA,050329,2553.2708,N,07937.0791,W,1,9,1.8,14,M,,M,,*51
05/29/2014	05:03:30.230	$GPGGA,050330,2553.2697,N,07937.0776,W,1,9,1.8,14,M,,M,,*57
05/29/2014	05:03:31.272	$GPGGA,050331,2553.2686,N,07937.0759,W,1,9,1.8,14,M,,M,,*5B
05/29/2014	05:03:32.183	$GPGGA,050332,2553.2674,N,07937.0744,W,1,9,1.8,14,M,,M,,*59
05/29/2014	05:03:33.275	$GPGGA,050333,2553.2663,N,07937.0729,W,1,9,1.8,14,M,,M,,*55
05/29/2014	05:03:34.267	$GPGGA,050334,2553.2652,N,07937.0713,W,1,9,1.8,14,M,,M,,*59
05/29/2014	05:03:35.208	$GPGGA,050335,2553.2641,N,07937.0698,W,1,9,1.8,14,M,,M,,*58
05/29/2014	05:03:36.291	$GPGGA,050336,2553.2630,N,07937.0683,W,1,9,1.8,14,M,,M,,*57
05/29/2014	05:03:37.212	$GPGGA,050337,2553.2621,N,07937.0668,W,1,9,1.8,14,M,,M,,*53
05/29/2014	05:03:38.234	$GPGGA,050338,2553.2609,N,07937.0653,W,1,9,1.8,14,M,,M,,*5E
05/29/2014	05:03:39.327	$GPGGA,050339,2553.2597,N,07937.0638,W,1,9,1.8,14,M,,M,,*56
05/29/2014	05:03:39.616	$GPGGA,050340,2553.2587,N,07937.0622,W,1,9,1.8,14,M,,M,,*52
05/29/2014	05:03:40.618	$GPGGA,050341,2553.2576,N,07937.0606,W,1,9,1.8,14,M,,M,,*5B
05/29/2014	05:03:41.630	$GPGGA,050342,2553.2576,N,07937.0606,W,1,9,1.8,14,M,,M,,*58
05/29/2014	05:03:42.642	$GPGGA,050343,2553.2552,N,07937.0575,W,1,9,1.8,14,M,,M,,*58
05/29/2014	05:03:43.654	$GPGGA,050344,2553.2543,N,07937.0559,W,1,9,1.8,14,M,,M,,*51
05/29/2014	05:03:44.686	$GPGGA,050345,2553.2531,N,07937.0545,W,1,9,1.8,14,M,,M,,*58
05/29/2014	05:03:45.668	$GPGGA,050346,2553.2520,N,07937.0530,W,1,9,1.8,14,M,,M,,*59
05/29/2014	05:03:46.670	$GPGGA,050347,2553.2510,N,07937.0514,W,1,9,1.8,14,M,,M,,*5D
05/29/2014	05:03:47.692	$GPGGA,050348,2553.2499,N,07937.0499,W,1,9,1.8,14,M,,M,,*56
05/29/2014	05:03:48.714	$GPGGA,050349,2553.2487,N,07937.0484,W,1,9,1.8,14,M,,M,,*54
05/29/2014	05:03:49.715	$GPGGA,050350,2553.2477,N,07937.0468,W,1,9,1.8,14,M,,M,,*51
05/29/2014	05:03:50.727	$GPGGA,050351,2553.2466,N,07937.0452,W,1,9,1.8,14,M,,M,,*59
05/29/2014	05:03:51.739	$GPGGA,050352,2553.2455,N,07937.0437,W,1,9,1.8,14,M,,M,,*59
05/29/2014	05:03:52.762	$GPGGA,050353,2553.2444,N,07937.0422,W,1,9,1.8,14,M,,M,,*5C
05/29/2014	05:03:53.733	$GPGGA,050354,2553.2432,N,07937.0406,W,1,9,1.8,14,M,,M,,*5C
05/29/2014	05:03:54.767	$GPGGA,050355,2553.2421,N,07937.0391,W,1,9,1.8,14,M,,M,,*56
05/29/2014	05:03:55.778	$GPGGA,050356,2553.2410,N,07937.0376,W,1,9,1.8,14,M,,M,,*5E
05/29/2014	05:03:56.810	$GPGGA,050357,2553.2399,N,07937.0360,W,1,9,1.8,14,M,,M,,*5E
05/29/2014	05:03:57.782	$GPGGA,050358,2553.2390,N,07937.0345,W,1,9,1.8,14,M,,M,,*5F
05/29/2014	05:03:59.836	$GPGGA,050359,2553.2379,N,07937.0329,W,1,9,1.8,14,M,,M,,*53
05/29/2014	05:03:59.857	$GPGGA,050400,2553.2367,N,07937.0314,W,1,9,1.8,14,M,,M,,*59
05/29/2014	05:04:00.839	$GPGGA,050401,2553.2356,N,07937.0298,W,1,9,1.8,14,M,,M,,*5F
05/29/2014	05:04:01.830	$GPGGA,050402,2553.2345,N,07937.0283,W,1,9,1.8,14,M,,M,,*54
05/29/2014	05:04:02.863	$GPGGA,050403,2553.2334,N,07937.0267,W,1,9,1.8,14,M,,M,,*59
05/29/2014	05:04:03.854	$GPGGA,050404,2553.2323,N,07937.0252,W,1,9,1.8,14,M,,M,,*5E
05/29/2014	05:04:04.866	$GPGGA,050405,2553.2312,N,07937.0236,W,1,9,1.8,14,M,,M,,*5F
05/29/2014	05:04:05.858	$GPGGA,050406,2553.2300,N,07937.0221,W,1,9,1.8,14,M,,M,,*59
05/29/2014	05:04:06.869	$GPGGA,050407,2553.2290,N,07937.0205,W,1,9,1.8,14,M,,M,,*56
05/29/2014	05:04:08.013	$GPGGA,050408,2553.2280,N,07937.0189,W,1,9,1.8,14,M,,M,,*5F
05/29/2014	05:04:08.924	$GPGGA,050409,2553.2269,N,07937.0174,W,1,9,1.8,14,M,,M,,*5B
05/29/2014	05:04:09.906	$GPGGA,050410,2553.2258,N,07937.0159,W,1,9,1.8,14,M,,M,,*5E
05/29/2014	05:04:10.929	$GPGGA,050411,2553.2249,N,07937.0143,W,1,9,1.8,14,M,,M,,*54
05/29/2014	05:04:11.930	$GPGGA,050412,2553.2238,N,07937.0127,W,1,9,1.8,14,M,,M,,*53
05/29/2014	05:04:12.942	$GPGGA,050413,2553.2227,N,07937.0112,W,1,9,1.8,14,M,,M,,*5A
05/29/2014	05:04:14.035	$GPGGA,050414,2553.2217,N,07937.0096,W,1,9,1.8,14,M,,M,,*53
05/29/2014	05:04:14.946	$GPGGA,050415,2553.2206,N,07937.0079,W,1,9,1.8,14,M,,M,,*53
05/29/2014	05:04:16.960	$GPGGA,050417,2553.2185,N,07937.0049,W,1,9,1.8,14,M,,M,,*5A
05/29/2014	05:04:17.982	$GPGGA,050418,2553.2177,N,07937.0033,W,1,9,1.8,14,M,,M,,*55
05/29/2014	05:04:19.085	$GPGGA,050419,2553.2166,N,07937.0018,W,1,9,1.8,14,M,,M,,*5D
05/29/2014	05:04:20.138	$GPGGA,050420,2553.2156,N,07937.0003,W,1,9,1.8,14,M,,M,,*5E
05/29/2014	05:04:21.110	$GPGGA,050421,2553.2146,N,07936.9988,W,1,9,1.8,14,M,,M,,*5C
05/29/2014	05:04:22.122	$GPGGA,050422,2553.2137,N,07936.9972,W,1,9,1.8,14,M,,M,,*5C
05/29/2014	05:04:23.043	$GPGGA,050423,2553.2126,N,07936.9956,W,1,9,1.8,14,M,,M,,*5B
05/29/2014	05:04:24.156	$GPGGA,050424,2553.2115,N,07936.9941,W,1,9,1.8,14,M,,M,,*5A
05/29/2014	05:04:25.157	$GPGGA,050425,2553.2105,N,07936.9926,W,1,9,1.8,14,M,,M,,*5B
05/29/2014	05:04:26.159	$GPGGA,050426,2553.2096,N,07936.9910,W,1,9,1.8,14,M,,M,,*56
05/29/2014	05:04:27.201	$GPGGA,050427,2553.2085,N,07936.9895,W,1,9,1.8,14,M,,M,,*59
05/29/2014	05:04:28.193	$GPGGA,050428,2553.2074,N,07936.9881,W,1,9,1.8,14,M,,M,,*5D
05/29/2014	05:04:29.216	$GPGGA,050429,2553.2065,N,07936.9865,W,1,9,1.8,14,M,,M,,*56
05/29/2014	05:04:30.106	$GPGGA,050430,2553.2055,N,07936.9849,W,1,9,1.8,14,M,,M,,*53
05/29/2014	05:04:31.219	$GPGGA,050431,2553.2045,N,07936.9836,W,1,9,1.8,14,M,,M,,*5B
05/29/2014	05:04:32.242	$GPGGA,050432,2553.2034,N,07936.9821,W,1,9,1.8,14,M,,M,,*58
05/29/2014	05:04:33.223	$GPGGA,050433,2553.2025,N,07936.9805,W,1,9,1.8,14,M,,M,,*5F
05/29/2014	05:04:34.246	$GPGGA,050434,2553.2014,N,07936.9790,W,1,9,1.8,14,M,,M,,*59
05/29/2014	05:04:35.248	$GPGGA,050435,2553.2002,N,07936.9776,W,1,9,1.8,14,M,,M,,*57
05/29/2014	05:04:36.290	$GPGGA,050436,2553.1992,N,07936.9761,W,1,9,1.8,14,M,,M,,*51
05/29/2014	05:04:37.273	$GPGGA,050437,2553.1983,N,07936.9745,W,1,9,1.8,14,M,,M,,*56
05/29/2014	05:04:38.284	$GPGGA,050438,2553.1972,N,07936.9731,W,1,9,1.8,14,M,,M,,*54
05/29/2014	05:04:39.316	$GPGGA,050439,2553.1962,N,07936.9717,W,1,9,1.8,14,M,,M,,*50
05/29/2014	05:04:39.584	$GPGGA,050440,2553.1953,N,07936.9701,W,1,9,1.8,14,M,,M,,*5B
05/29/2014	05:04:40.606	$GPGGA,050441,2553.1942,N,07936.9687,W,1,9,1.8,14,M,,M,,*55
05/29/2014	05:04:41.597	$GPGGA,050442,2553.1932,N,07936.9673,W,1,9,1.8,14,M,,M,,*5A
05/29/2014	05:04:42.630	$GPGGA,050443,2553.1921,N,07936.9658,W,1,9,1.8,14,M,,M,,*50
05/29/2014	05:04:43.633	$GPGGA,050444,2553.1911,N,07936.9644,W,1,9,1.8,14,M,,M,,*59
05/29/2014	05:04:44.644	$GPGGA,050445,2553.1902,N,07936.9629,W,1,9,1.8,14,M,,M,,*51
05/29/2014	05:04:45.646	$GPGGA,050446,2553.1891,N,07936.9615,W,1,9,1.8,14,M,,M,,*56
05/29/2014	05:04:46.678	$GPGGA,050447,2553.1881,N,07936.9601,W,1,9,1.8,14,M,,M,,*53
05/29/2014	05:04:47.670	$GPGGA,050448,2553.1870,N,07936.9587,W,1,9,1.8,14,M,,M,,*5F
05/29/2014	05:04:48.672	$GPGGA,050449,2553.1860,N,07936.9573,W,1,9,1.8,14,M,,M,,*54
05/29/2014	05:04:49.684	$GPGGA,050450,2553.1850,N,07936.9559,W,1,9,1.8,14,M,,M,,*57
05/29/2014	05:04:50.687	$GPGGA,050451,2553.1841,N,07936.9545,W,1,9,1.8,14,M,,M,,*5B
05/29/2014	05:04:51.718	$GPGGA,050452,2553.1830,N,07936.9531,W,1,9,1.8,14,M,,M,,*5D
05/29/2014	05:04:52.710	$GPGGA,050453,2553.1819,N,07936.9517,W,1,9,1.8,14,M,,M,,*53
05/29/2014	05:04:53.722	$GPGGA,050454,2553.1808,N,07936.9503,W,1,9,1.8,14,M,,M,,*51
05/29/2014	05:04:54.724	$GPGGA,050455,2553.1798,N,07936.9489,W,1,9,1.8,14,M,,M,,*55
05/29/2014	05:04:55.767	$GPGGA,050456,2553.1787,N,07936.9475,W,1,9,1.8,14,M,,M,,*5B
05/29/2014	05:04:56.738	$GPGGA,050457,2553.1777,N,07936.9461,W,1,9,1.8,14,M,,M,,*50
05/29/2014	05:04:57.760	$GPGGA,050458,2553.1766,N,07936.9447,W,1,9,1.8,14,M,,M,,*5B
05/29/2014	05:04:58.762	$GPGGA,050459,2553.1756,N,07936.9433,W,1,9,1.8,14,M,,M,,*5A
05/29/2014	05:04:59.913	$GPGGA,050500,2553.1745,N,07936.9419,W,1,9,1.8,14,M,,M,,*5D
05/29/2014	05:05:00.788	$GPGGA,050501,2553.1736,N,07936.9404,W,1,9,1.8,14,M,,M,,*54
05/29/2014	05:05:01.874	$GPGGA,050502,2553.1725,N,07936.9390,W,1,9,1.8,14,M,,M,,*5F
05/29/2014	05:05:02.780	$GPGGA,050503,2553.1714,N,07936.9376,W,1,9,1.8,14,M,,M,,*54
05/29/2014	05:05:03.806	$GPGGA,050504,2553.1703,N,07936.9362,W,1,9,1.8,14,M,,M,,*50
05/29/2014	05:05:04.792	$GPGGA,050505,2553.1693,N,07936.9349,W,1,9,1.8,14,M,,M,,*50
05/29/2014	05:05:05.798	$GPGGA,050506,2553.1682,N,07936.9335,W,1,9,1.8,14,M,,M,,*58
05/29/2014	05:05:06.814	$GPGGA,050507,2553.1672,N,07936.9320,W,1,9,1.8,14,M,,M,,*52
05/29/2014	05:05:07.941	$GPGGA,050508,2553.1661,N,07936.9306,W,1,9,1.8,14,M,,M,,*5B
05/29/2014	05:05:08.928	$GPGGA,050509,2553.1651,N,07936.9292,W,1,9,1.8,14,M,,M,,*55
05/29/2014	05:05:09.812	$GPGGA,050510,2553.1640,N,07936.9278,W,1,9,1.8,14,M,,M,,*59
05/29/2014	05:05:10.838	$GPGGA,050511,2553.1630,N,07936.9264,W,1,9,1.8,14,M,,M,,*52
05/29/2014	05:05:11.854	$GPGGA,050512,2553.1620,N,07936.9249,W,1,9,1.8,14,M,,M,,*5F
05/29/2014	05:05:12.840	$GPGGA,050513,2553.1610,N,07936.9235,W,1,9,1.8,14,M,,M,,*56
05/29/2014	05:05:13.926	$GPGGA,050514,2553.1600,N,07936.9221,W,1,9,1.8,14,M,,M,,*55
05/29/2014	05:05:14.952	$GPGGA,050515,2553.1590,N,07936.9206,W,1,9,1.8,14,M,,M,,*5B
05/29/2014	05:05:15.948	$GPGGA,050516,2553.1581,N,07936.9191,W,1,9,1.8,14,M,,M,,*55
05/29/2014	05:05:16.953	$GPGGA,050517,2553.1570,N,07936.9177,W,1,9,1.8,14,M,,M,,*52
05/29/2014	05:05:17.849	$GPGGA,050518,2553.1560,N,07936.9162,W,1,9,1.8,14,M,,M,,*58
05/29/2014	05:05:18.975	$GPGGA,050519,2553.1549,N,07936.9147,W,1,9,1.8,14,M,,M,,*55
05/29/2014	05:05:19.971	$GPGGA,050520,2553.1539,N,07936.9134,W,1,9,1.8,14,M,,M,,*5C
05/29/2014	05:05:20.977	$GPGGA,050521,2553.1530,N,07936.9118,W,1,9,1.8,14,M,,M,,*5A
05/29/2014	05:05:21.963	$GPGGA,050522,2553.1520,N,07936.9103,W,1,9,1.8,14,M,,M,,*52
05/29/2014	05:05:22.989	$GPGGA,050523,2553.1509,N,07936.9089,W,1,9,1.8,14,M,,M,,*5B
05/29/2014	05:05:23.985	$GPGGA,050524,2553.1501,N,07936.9074,W,1,9,1.8,14,M,,M,,*56
05/29/2014	05:05:24.991	$GPGGA,050525,2553.1490,N,07936.9059,W,1,9,1.8,14,M,,M,,*51
05/29/2014	05:05:25.987	$GPGGA,050526,2553.1480,N,07936.9045,W,1,9,1.8,14,M,,M,,*5E
05/29/2014	05:05:27.013	$GPGGA,050527,2553.1470,N,07936.9030,W,1,9,1.8,14,M,,M,,*52
05/29/2014	05:05:28.009	$GPGGA,050528,2553.1461,N,07936.9014,W,1,9,1.8,14,M,,M,,*5B
05/29/2014	05:05:29.025	$GPGGA,050529,2553.1451,N,07936.8999,W,1,9,1.8,14,M,,M,,*54
05/29/2014	05:05:29.991	$GPGGA,050530,2553.1441,N,07936.8984,W,1,9,1.8,14,M,,M,,*51
05/29/2014	05:05:30.997	$GPGGA,050531,2553.1431,N,07936.8968,W,1,9,1.8,14,M,,M,,*55
05/29/2014	05:05:32.023	$GPGGA,050532,2553.1422,N,07936.8952,W,1,9,1.8,14,M,,M,,*5D
05/29/2014	05:05:33.049	$GPGGA,050533,2553.1411,N,07936.8937,W,1,9,1.8,14,M,,M,,*5F
05/29/2014	05:05:34.006	$GPGGA,050534,2553.1402,N,07936.8922,W,1,9,1.8,14,M,,M,,*5E
05/29/2014	05:05:35.011	$GPGGA,050535,2553.1393,N,07936.8906,W,1,9,1.8,14,M,,M,,*56
05/29/2014	05:05:36.037	$GPGGA,050536,2553.1383,N,07936.8891,W,1,9,1.8,14,M,,M,,*5B
05/29/2014	05:05:37.054	$GPGGA,050537,2553.1375,N,07936.8876,W,1,9,1.8,14,M,,M,,*5A
05/29/2014	05:05:38.018	$GPGGA,050538,2553.1364,N,07936.8861,W,1,9,1.8,14,M,,M,,*53
05/29/2014	05:05:39.024	$GPGGA,050539,2553.1355,N,07936.8844,W,1,9,1.8,14,M,,M,,*57
05/29/2014	05:05:39.570	$GPGGA,050540,2553.1346,N,07936.8829,W,1,9,1.8,14,M,,M,,*50
05/29/2014	05:05:40.576	$GPGGA,050541,2553.1335,N,07936.8813,W,1,9,1.8,14,M,,M,,*5C
05/29/2014	05:05:41.552	$GPGGA,050542,2553.1326,N,07936.8797,W,1,9,1.8,14,M,,M,,*5E
05/29/2014	05:05:42.588	$GPGGA,050543,2553.1317,N,07936.8782,W,1,9,1.8,14,M,,M,,*59
05/29/2014	05:05:43.574	$GPGGA,050544,2553.1306,N,07936.8767,W,1,9,1.8,14,M,,M,,*55
05/29/2014	05:05:44.570	$GPGGA,050545,2553.1296,N,07936.8751,W,1,9,1.8,14,M,,M,,*59
05/29/2014	05:05:45.577	$GPGGA,050546,2553.1288,N,07936.8735,W,1,9,1.8,14,M,,M,,*57
05/29/2014	05:05:46.763	$GPGGA,050547,2553.1277,N,07936.8721,W,1,9,1.8,14,M,,M,,*53
05/29/2014	05:05:47.598	$GPGGA,050548,2553.1267,N,07936.8705,W,1,9,1.8,14,M,,M,,*5B
05/29/2014	05:05:48.594	$GPGGA,050549,2553.1257,N,07936.8690,W,1,9,1.8,14,M,,M,,*54
05/29/2014	05:05:49.691	$GPGGA,050550,2553.1247,N,07936.8675,W,1,9,1.8,14,M,,M,,*56
05/29/2014	05:05:50.787	$GPGGA,050551,2553.1238,N,07936.8659,W,1,9,1.8,14,M,,M,,*51
05/29/2014	05:05:51.611	$GPGGA,050552,2553.1228,N,07936.8645,W,1,9,1.8,14,M,,M,,*5E
05/29/2014	05:05:52.597	$GPGGA,050553,2553.1218,N,07936.8630,W,1,9,1.8,14,M,,M,,*5E
05/29/2014	05:05:53.603	$GPGGA,050554,2553.1209,N,07936.8614,W,1,9,1.8,14,M,,M,,*5F
05/29/2014	05:05:54.800	$GPGGA,050555,2553.1198,N,07936.8600,W,1,9,1.8,14,M,,M,,*50
05/29/2014	05:05:55.766	$GPGGA,050556,2553.1188,N,07936.8585,W,1,9,1.8,14,M,,M,,*5C
05/29/2014	05:05:56.822	$GPGGA,050557,2553.1180,N,07936.8569,W,1,9,1.8,14,M,,M,,*57
05/29/2014	05:05:57.638	$GPGGA,050558,2553.1169,N,07936.8555,W,1,9,1.8,14,M,,M,,*50
05/29/2014	05:05:58.814	$GPGGA,050559,2553.1158,N,07936.8540,W,1,9,1.8,14,M,,M,,*57
05/29/2014	05:05:59.669	$GPGGA,050600,2553.1148,N,07936.8525,W,1,9,1.8,14,M,,M,,*5A
05/29/2014	05:06:00.735	$GPGGA,050601,2553.1138,N,07936.8510,W,1,9,1.8,14,M,,M,,*5A
05/29/2014	05:06:01.641	$GPGGA,050602,2553.1129,N,07936.8496,W,1,9,1.8,14,M,,M,,*56
05/29/2014	05:06:02.637	$GPGGA,050603,2553.1118,N,07936.8481,W,1,9,1.8,14,M,,M,,*53
05/29/2014	05:06:03.804	$GPGGA,050604,2553.1107,N,07936.8467,W,1,9,1.8,14,M,,M,,*52
05/29/2014	05:06:04.822	$GPGGA,050605,2553.1097,N,07936.8453,W,1,9,1.8,14,M,,M,,*5C
05/29/2014	05:06:05.745	$GPGGA,050606,2553.1087,N,07936.8438,W,1,9,1.8,14,M,,M,,*53
05/29/2014	05:06:06.751	$GPGGA,050607,2553.1076,N,07936.8424,W,1,9,1.8,14,M,,M,,*51
05/29/2014	05:06:07.818	$GPGGA,050608,2553.1066,N,07936.8410,W,1,9,1.8,14,M,,M,,*58
05/29/2014	05:06:08.874	$GPGGA,050609,2553.1055,N,07936.8396,W,1,9,1.8,14,M,,M,,*50
05/29/2014	05:06:09.799	$GPGGA,050610,2553.1046,N,07936.8381,W,1,9,1.8,14,M,,M,,*5C
05/29/2014	05:06:10.885	$GPGGA,050611,2553.1035,N,07936.8368,W,1,9,1.8,14,M,,M,,*5E
05/29/2014	05:06:11.811	$GPGGA,050612,2553.1023,N,07936.8354,W,1,9,1.8,14,M,,M,,*55
05/29/2014	05:06:12.776	$GPGGA,050613,2553.1012,N,07936.8340,W,1,9,1.8,14,M,,M,,*53
05/29/2014	05:06:13.782	$GPGGA,050614,2553.1001,N,07936.8326,W,1,9,1.8,14,M,,M,,*56
05/29/2014	05:06:14.869	$GPGGA,050615,2553.0992,N,07936.8312,W,1,9,1.8,14,M,,M,,*52
05/29/2014	05:06:15.835	$GPGGA,050616,2553.0981,N,07936.8298,W,1,9,1.8,14,M,,M,,*50
05/29/2014	05:06:16.951	$GPGGA,050617,2553.0970,N,07936.8284,W,1,9,1.8,14,M,,M,,*52
05/29/2014	05:06:17.796	$GPGGA,050618,2553.0959,N,07936.8270,W,1,9,1.8,14,M,,M,,*5D
05/29/2014	05:06:18.802	$GPGGA,050619,2553.0948,N,07936.8257,W,1,9,1.8,14,M,,M,,*59
05/29/2014	05:06:19.848	$GPGGA,050620,2553.0938,N,07936.8242,W,1,9,1.8,14,M,,M,,*50
05/29/2014	05:06:20.926	$GPGGA,050621,2553.0927,N,07936.8228,W,1,9,1.8,14,M,,M,,*53
05/29/2014	05:06:21.810	$GPGGA,050622,2553.0916,N,07936.8215,W,1,9,1.8,14,M,,M,,*5C
05/29/2014	05:06:22.907	$GPGGA,050623,2553.0905,N,07936.8201,W,1,9,1.8,14,M,,M,,*5A
05/29/2014	05:06:23.832	$GPGGA,050624,2553.0894,N,07936.8186,W,1,9,1.8,14,M,,M,,*58
05/29/2014	05:06:24.939	$GPGGA,050625,2553.0883,N,07936.8173,W,1,9,1.8,14,M,,M,,*55
05/29/2014	05:06:25.824	$GPGGA,050626,2553.0872,N,07936.8159,W,1,9,1.8,14,M,,M,,*50
05/29/2014	05:06:26.829	$GPGGA,050627,2553.0862,N,07936.8144,W,1,9,1.8,14,M,,M,,*5C
05/29/2014	05:06:27.885	$GPGGA,050628,2553.0852,N,07936.8130,W,1,9,1.8,14,M,,M,,*53
05/29/2014	05:06:28.962	$GPGGA,050629,2553.0841,N,07936.8116,W,1,9,1.8,14,M,,M,,*54
05/29/2014	05:06:29.837	$GPGGA,050630,2553.0830,N,07936.8102,W,1,9,1.8,14,M,,M,,*5F
05/29/2014	05:06:30.925	$GPGGA,050631,2553.0820,N,07936.8087,W,1,9,1.8,14,M,,M,,*53
05/29/2014	05:06:31.909	$GPGGA,050632,2553.0811,N,07936.8073,W,1,9,1.8,14,M,,M,,*59
05/29/2014	05:06:32.976	$GPGGA,050633,2553.0799,N,07936.8058,W,1,9,1.8,14,M,,M,,*5E
05/29/2014	05:06:33.881	$GPGGA,050634,2553.0789,N,07936.8044,W,1,9,1.8,14,M,,M,,*55
05/29/2014	05:06:34.867	$GPGGA,050635,2553.0779,N,07936.8029,W,1,9,1.8,14,M,,M,,*50
05/29/2014	05:06:35.923	$GPGGA,050636,2553.0768,N,07936.8015,W,1,9,1.8,14,M,,M,,*5C
05/29/2014	05:06:36.980	$GPGGA,050637,2553.0757,N,07936.7999,W,1,9,1.8,14,M,,M,,*53
05/29/2014	05:06:37.905	$GPGGA,050638,2553.0748,N,07936.7985,W,1,9,1.8,14,M,,M,,*5F
05/29/2014	05:06:38.961	$GPGGA,050639,2553.0737,N,07936.7970,W,1,9,1.8,14,M,,M,,*5C
05/29/2014	05:06:39.660	$GPGGA,050640,2553.0728,N,07936.7955,W,1,9,1.9,14,M,,M,,*5A
05/29/2014	05:06:40.626	$GPGGA,050641,2553.0718,N,07936.7940,W,1,9,1.9,14,M,,M,,*5C
05/29/2014	05:06:41.571	$GPGGA,050642,2553.0707,N,07936.7925,W,1,9,1.9,14,M,,M,,*52
05/29/2014	05:06:42.658	$GPGGA,050643,2553.0697,N,07936.7911,W,1,9,1.9,14,M,,M,,*5C
05/29/2014	05:06:43.594	$GPGGA,050644,2553.0688,N,07936.7895,W,1,9,1.9,14,M,,M,,*58
05/29/2014	05:06:44.638	$GPGGA,050645,2553.0677,N,07936.7880,W,1,9,1.9,14,M,,M,,*5D
05/29/2014	05:06:45.644	$GPGGA,050646,2553.0667,N,07936.7865,W,1,9,1.9,14,M,,M,,*54
05/29/2014	05:06:46.701	$GPGGA,050647,2553.0658,N,07936.7849,W,1,9,1.9,14,M,,M,,*57
05/29/2014	05:06:47.687	$GPGGA,050648,2553.0648,N,07936.7834,W,1,9,1.9,14,M,,M,,*53
05/29/2014	05:06:48.673	$GPGGA,050649,2553.0638,N,07936.7818,W,1,9,1.9,14,M,,M,,*5B
05/29/2014	05:06:49.679	$GPGGA,050650,2553.0628,N,07936.7802,W,1,9,1.9,14,M,,M,,*59
05/29/2014	05:06:50.746	$GPGGA,050651,2553.0618,N,07936.7788,W,1,9,1.9,14,M,,M,,*56
05/29/2014	05:06:51.691	$GPGGA,050652,2553.0609,N,07936.7772,W,1,9,1.9,14,M,,M,,*50
05/29/2014	05:06:52.697	$GPGGA,050653,2553.0600,N,07936.7756,W,1,9,1.9,14,M,,M,,*5E
05/29/2014	05:06:53.692	$GPGGA,050654,2553.0589,N,07936.7741,W,1,9,1.9,14,M,,M,,*5D
05/29/2014	05:06:54.749	$GPGGA,050655,2553.0580,N,07936.7726,W,1,9,1.9,14,M,,M,,*54
05/29/2014	05:06:55.694	$GPGGA,050656,2553.0571,N,07936.7709,W,1,9,1.9,14,M,,M,,*54
05/29/2014	05:06:56.741	$GPGGA,050657,2553.0562,N,07936.7694,W,1,9,1.9,14,M,,M,,*52
05/29/2014	05:06:57.716	$GPGGA,050658,2553.0551,N,07936.7679,W,1,9,1.9,14,M,,M,,*5E
05/29/2014	05:06:58.733	$GPGGA,050659,2553.0541,N,07936.7664,W,1,9,1.9,14,M,,M,,*52
05/29/2014	05:06:59.739	$GPGGA,050700,2553.0533,N,07936.7648,W,1,9,1.9,14,M,,M,,*54
05/29/2014	05:07:00.775	$GPGGA,050701,2553.0522,N,07936.7633,W,1,9,1.9,14,M,,M,,*59
05/29/2014	05:07:01.709	$GPGGA,050702,2553.0512,N,07936.7618,W,1,9,1.9,14,M,,M,,*50
05/29/2014	05:07:02.755	$GPGGA,050703,2553.0504,N,07936.7601,W,1,9,1.9,14,M,,M,,*5E
05/29/2014	05:07:03.750	$GPGGA,050704,2553.0493,N,07936.7587,W,1,9,1.9,14,M,,M,,*5B
05/29/2014	05:07:04.859	$GPGGA,050705,2553.0483,N,07936.7571,W,1,9,1.9,14,M,,M,,*52
05/29/2014	05:07:05.895	$GPGGA,050706,2553.0475,N,07936.7556,W,1,9,1.9,14,M,,M,,*5D
05/29/2014	05:07:07.065	$GPGGA,050707,2553.0464,N,07936.7541,W,1,9,1.9,14,M,,M,,*5A
05/29/2014	05:07:08.056	$GPGGA,050708,2553.0454,N,07936.7526,W,1,9,1.9,14,M,,M,,*57
05/29/2014	05:07:09.164	$GPGGA,050709,2553.0444,N,07936.7511,W,1,9,1.9,14,M,,M,,*53
05/29/2014	05:07:10.198	$GPGGA,050710,2553.0435,N,07936.7495,W,1,9,1.9,14,M,,M,,*50
05/29/2014	05:07:11.306	$GPGGA,050711,2553.0424,N,07936.7480,W,1,9,1.9,14,M,,M,,*55
05/29/2014	05:07:12.340	$GPGGA,050712,2553.0414,N,07936.7465,W,1,9,1.9,14,M,,M,,*5E
05/29/2014	05:07:13.417	$GPGGA,050713,2553.0414,N,07936.7465,W,1,9,1.9,14,M,,M,,*5F
05/29/2014	05:07:14.504	$GPGGA,050714,2553.0394,N,07936.7434,W,1,9,1.9,14,M,,M,,*53
05/29/2014	05:07:15.612	$GPGGA,050715,2553.0385,N,07936.7419,W,1,9,1.9,14,M,,M,,*5D
05/29/2014	05:07:16.656	$GPGGA,050716,2553.0374,N,07936.7405,W,1,9,1.9,14,M,,M,,*5D
05/29/2014	05:07:17.765	$GPGGA,050717,2553.0364,N,07936.7389,W,1,9,1.9,14,M,,M,,*5E
05/29/2014	05:07:18.798	$GPGGA,050718,2553.0354,N,07936.7374,W,1,9,1.9,14,M,,M,,*50
05/29/2014	05:07:19.875	$GPGGA,050719,2553.0354,N,07936.7374,W,1,9,1.9,14,M,,M,,*51
05/29/2014	05:07:21.069	$GPGGA,050720,2553.0335,N,07936.7345,W,1,9,1.9,14,M,,M,,*5E
05/29/2014	05:07:22.134	$GPGGA,050721,2553.0325,N,07936.7330,W,1,9,1.9,14,M,,M,,*5C
05/29/2014	05:07:23.092	$GPGGA,050722,2553.0325,N,07936.7330,W,1,9,1.9,14,M,,M,,*5F
05/29/2014	05:07:24.222	$GPGGA,050723,2553.0305,N,07936.7300,W,1,9,1.9,14,M,,M,,*5F
05/29/2014	05:07:25.246	$GPGGA,050724,2553.0294,N,07936.7286,W,1,9,1.9,14,M,,M,,*5E
05/29/2014	05:07:26.321	$GPGGA,050725,2553.0294,N,07936.7286,W,1,9,1.9,14,M,,M,,*5F
05/29/2014	05:07:27.366	$GPGGA,050726,2553.0274,N,07936.7256,W,1,9,1.9,14,M,,M,,*5F
05/29/2014	05:07:28.463	$GPGGA,050727,2553.0274,N,07936.7256,W,1,9,1.9,14,M,,M,,*5E
05/29/2014	05:07:29.530	$GPGGA,050728,2553.0253,N,07936.7227,W,1,9,1.9,14,M,,M,,*52
05/29/2014	05:07:30.616	$GPGGA,050729,2553.0253,N,07936.7227,W,1,9,1.9,14,M,,M,,*53
05/29/2014	05:07:31.768	$GPGGA,050730,2553.0233,N,07936.7198,W,1,9,1.9,14,M,,M,,*5A
05/29/2014	05:07:32.812	$GPGGA,050731,2553.0233,N,07936.7198,W,1,9,1.9,14,M,,M,,*5B
05/29/2014	05:07:35.363	$GPGGA,050732,2553.0211,N,07936.7170,W,1,9,1.9,14,M,,M,,*5E
05/29/2014	05:07:35.387	$GPGGA,050733,2553.0201,N,07936.7155,W,1,9,1.9,14,M,,M,,*59
05/29/2014	05:07:36.073	$GPGGA,050734,2553.0190,N,07936.7141,W,1,9,1.9,14,M,,M,,*50
05/29/2014	05:07:37.074	$GPGGA,050735,2553.0190,N,07936.7141,W,1,9,1.9,14,M,,M,,*51
05/29/2014	05:07:38.140	$GPGGA,050736,2553.0169,N,07936.7114,W,1,9,1.9,14,M,,M,,*54
05/29/2014	05:07:39.334	$GPGGA,050737,2553.0161,N,07936.7101,W,1,8,2.0,14,M,,M,,*52
05/29/2014	05:07:40.281	$GPGGA,050738,2553.0161,N,07936.7101,W,1,8,1.9,14,M,,M,,*57
05/29/2014	05:07:41.476	$GPGGA,050739,2553.0143,N,07936.7072,W,1,9,1.9,14,M,,M,,*52
05/29/2014	05:07:39.641	$GPGGA,050740,2553.0133,N,07936.7059,W,1,9,1.9,14,M,,M,,*52
05/29/2014	05:07:40.717	$GPGGA,050741,2553.0125,N,07936.7045,W,1,9,1.9,14,M,,M,,*59
05/29/2014	05:07:41.772	$GPGGA,050742,2553.0114,N,07936.7031,W,1,9,1.9,14,M,,M,,*5B
05/29/2014	05:07:42.848	$GPGGA,050743,2553.0104,N,07936.7018,W,1,9,1.9,14,M,,M,,*50
05/29/2014	05:07:43.936	$GPGGA,050744,2553.0094,N,07936.7004,W,1,9,1.9,14,M,,M,,*52
05/29/2014	05:07:45.024	$GPGGA,050745,2553.0083,N,07936.6991,W,1,9,1.9,14,M,,M,,*51
05/29/2014	05:07:46.067	$GPGGA,050746,2553.0072,N,07936.6977,W,1,9,1.9,14,M,,M,,*54
05/29/2014	05:07:47.143	$GPGGA,050747,2553.0062,N,07936.6964,W,1,8,2.0,15,M,,M,,*5C
05/29/2014	05:07:48.241	$GPGGA,050748,2553.0053,N,07936.6950,W,1,8,1.9,15,M,,M,,*5C
05/29/2014	05:07:49.328	$GPGGA,050749,2553.0043,N,07936.6937,W,1,9,1.9,15,M,,M,,*5C
05/29/2014	05:07:50.372	$GPGGA,050750,2553.0033,N,07936.6924,W,1,9,1.9,15,M,,M,,*51
05/29/2014	05:07:51.470	$GPGGA,050751,2553.0024,N,07936.6909,W,1,9,1.9,15,M,,M,,*59
05/29/2014	05:07:52.536	$GPGGA,050752,2553.0014,N,07936.6896,W,1,9,1.9,15,M,,M,,*5E
05/29/2014	05:07:53.580	$GPGGA,050753,2553.0003,N,07936.6883,W,1,9,1.9,15,M,,M,,*5D
05/29/2014	05:07:54.656	$GPGGA,050754,2552.9995,N,07936.6869,W,1,9,1.9,15,M,,M,,*50
05/29/2014	05:07:55.732	$GPGGA,050755,2552.9984,N,07936.6855,W,1,9,1.9,15,M,,M,,*5E
05/29/2014	05:07:56.830	$GPGGA,050756,2552.9974,N,07936.6841,W,1,9,1.9,15,M,,M,,*57
05/29/2014	05:07:57.898	$GPGGA,050757,2552.9966,N,07936.6828,W,1,9,1.9,15,M,,M,,*5A
05/29/2014	05:07:58.972	$GPGGA,050758,2552.9955,N,07936.6814,W,1,9,1.9,15,M,,M,,*5A
05/29/2014	05:08:00.080	$GPGGA,050759,2552.9946,N,07936.6800,W,1,9,1.9,15,M,,M,,*5C
05/29/2014	05:08:01.125	$GPGGA,050800,2552.9937,N,07936.6786,W,1,9,1.9,15,M,,M,,*58
05/29/2014	05:08:02.202	$GPGGA,050801,2552.9926,N,07936.6773,W,1,9,1.9,16,M,,M,,*50
05/29/2014	05:08:03.256	$GPGGA,050802,2552.9917,N,07936.6759,W,1,9,1.9,16,M,,M,,*59
05/29/2014	05:08:04.343	$GPGGA,050803,2552.9908,N,07936.6745,W,1,9,1.9,16,M,,M,,*5B
05/29/2014	05:08:05.419	$GPGGA,050804,2552.9897,N,07936.6731,W,1,9,1.9,16,M,,M,,*58
05/29/2014	05:08:06.517	$GPGGA,050805,2552.9888,N,07936.6717,W,1,9,1.9,16,M,,M,,*53
05/29/2014	05:08:07.572	$GPGGA,050806,2552.9879,N,07936.6703,W,1,9,1.9,16,M,,M,,*5B
05/29/2014	05:08:08.659	$GPGGA,050807,2552.9868,N,07936.6689,W,1,9,1.9,16,M,,M,,*59
05/29/2014	05:08:09.725	$GPGGA,050808,2552.9858,N,07936.6676,W,1,9,1.9,16,M,,M,,*55
05/29/2014	05:08:10.909	$GPGGA,050809,2552.9850,N,07936.6661,W,1,9,1.9,16,M,,M,,*5A
05/29/2014	05:08:11.867	$GPGGA,050810,2552.9839,N,07936.6647,W,1,9,1.9,16,M,,M,,*59
05/29/2014	05:08:12.954	$GPGGA,050811,2552.9829,N,07936.6633,W,1,9,1.9,16,M,,M,,*5A
05/29/2014	05:08:14.019	$GPGGA,050812,2552.9819,N,07936.6619,W,1,9,1.9,16,M,,M,,*52
05/29/2014	05:08:15.214	$GPGGA,050813,2552.9810,N,07936.6604,W,1,9,1.9,16,M,,M,,*56
05/29/2014	05:08:16.150	$GPGGA,050814,2552.9800,N,07936.6589,W,1,9,1.9,16,M,,M,,*56
05/29/2014	05:08:17.237	$GPGGA,050815,2552.9790,N,07936.6576,W,1,9,1.9,16,M,,M,,*51
05/29/2014	05:08:18.303	$GPGGA,050816,2552.9781,N,07936.6562,W,1,9,1.9,16,M,,M,,*57
05/29/2014	05:08:19.401	$GPGGA,050817,2552.9772,N,07936.6546,W,1,9,1.9,16,M,,M,,*5C
05/29/2014	05:08:20.553	$GPGGA,050818,2552.9762,N,07936.6533,W,1,9,1.9,16,M,,M,,*50
05/29/2014	05:08:21.673	$GPGGA,050819,2552.9753,N,07936.6519,W,1,9,1.9,16,M,,M,,*5B
05/29/2014	05:08:22.619	$GPGGA,050820,2552.9743,N,07936.6503,W,1,9,1.9,16,M,,M,,*5B
05/29/2014	05:08:23.803	$GPGGA,050821,2552.9734,N,07936.6488,W,1,9,1.9,16,M,,M,,*58
05/29/2014	05:08:24.870	$GPGGA,050822,2552.9724,N,07936.6475,W,1,9,1.9,16,M,,M,,*58
05/29/2014	05:08:25.827	$GPGGA,050823,2552.9715,N,07936.6460,W,1,9,1.9,16,M,,M,,*5F
05/29/2014	05:08:27.011	$GPGGA,050824,2552.9706,N,07936.6444,W,1,9,1.9,16,M,,M,,*5C
05/29/2014	05:08:28.077	$GPGGA,050825,2552.9696,N,07936.6430,W,1,9,1.9,16,M,,M,,*56
05/29/2014	05:08:29.045	$GPGGA,050826,2552.9686,N,07936.6416,W,1,9,1.9,16,M,,M,,*50
05/29/2014	05:08:30.229	$GPGGA,050827,2552.9677,N,07936.6400,W,1,9,1.9,16,M,,M,,*58
05/29/2014	05:08:31.317	$GPGGA,050828,2552.9668,N,07936.6385,W,1,9,1.9,16,M,,M,,*53
05/29/2014	05:08:32.404	$GPGGA,050829,2552.9659,N,07936.6371,W,1,9,1.9,16,M,,M,,*5B
05/29/2014	05:08:33.436	$GPGGA,050830,2552.9649,N,07936.6356,W,1,9,1.9,16,M,,M,,*57
05/29/2014	05:08:34.523	$GPGGA,050831,2552.9641,N,07936.6340,W,1,9,1.9,16,M,,M,,*59
05/29/2014	05:08:35.643	$GPGGA,050832,2552.9631,N,07936.6326,W,1,9,1.9,16,M,,M,,*5D
05/29/2014	05:08:36.687	$GPGGA,050833,2552.9622,N,07936.6311,W,1,9,1.9,16,M,,M,,*5A
05/29/2014	05:08:37.742	$GPGGA,050834,2552.9612,N,07936.6296,W,1,9,1.9,16,M,,M,,*50
05/29/2014	05:08:38.807	$GPGGA,050835,2552.9603,N,07936.6281,W,1,9,1.9,15,M,,M,,*54
05/29/2014	05:08:39.938	$GPGGA,050836,2552.9594,N,07936.6266,W,1,9,1.9,15,M,,M,,*53
05/29/2014	05:08:40.982	$GPGGA,050837,2552.9584,N,07936.6252,W,1,9,1.9,15,M,,M,,*54
05/29/2014	05:08:42.026	$GPGGA,050838,2552.9576,N,07936.6237,W,1,9,1.9,15,M,,M,,*55
05/29/2014	05:08:43.134	$GPGGA,050839,2552.9566,N,07936.6222,W,1,9,1.9,15,M,,M,,*51
05/29/2014	05:08:39.629	$GPGGA,050840,2552.9556,N,07936.6209,W,1,9,1.9,15,M,,M,,*55
05/29/2014	05:08:40.705	$GPGGA,050841,2552.9547,N,07936.6194,W,1,9,1.9,15,M,,M,,*53
05/29/2014	05:08:41.760	$GPGGA,050842,2552.9538,N,07936.6179,W,1,9,1.9,15,M,,M,,*5B
05/29/2014	05:08:42.847	$GPGGA,050843,2552.9529,N,07936.6165,W,1,9,1.9,15,M,,M,,*57
05/29/2014	05:08:43.913	$GPGGA,050844,2552.9518,N,07936.6151,W,1,9,1.9,15,M,,M,,*55
05/29/2014	05:08:44.979	$GPGGA,050845,2552.9509,N,07936.6136,W,1,9,1.9,15,M,,M,,*55
05/29/2014	05:08:46.044	$GPGGA,050846,2552.9498,N,07936.6122,W,1,9,1.9,15,M,,M,,*5A
05/29/2014	05:08:47.119	$GPGGA,050847,2552.9489,N,07936.6108,W,1,9,1.9,15,M,,M,,*53
05/29/2014	05:08:48.220	$GPGGA,050848,2552.9480,N,07936.6094,W,1,9,1.9,15,M,,M,,*51
05/29/2014	05:08:49.305	$GPGGA,050849,2552.9469,N,07936.6080,W,1,9,1.9,15,M,,M,,*52
05/29/2014	05:08:50.338	$GPGGA,050850,2552.9460,N,07936.6066,W,1,9,1.9,15,M,,M,,*5B
05/29/2014	05:08:51.436	$GPGGA,050851,2552.9451,N,07936.6052,W,1,9,1.9,15,M,,M,,*5F
05/29/2014	05:08:52.512	$GPGGA,050852,2552.9442,N,07936.6038,W,1,9,1.9,15,M,,M,,*52
05/29/2014	05:08:53.578	$GPGGA,050853,2552.9431,N,07936.6024,W,1,9,1.9,15,M,,M,,*5A
05/29/2014	05:08:54.633	$GPGGA,050854,2552.9422,N,07936.6010,W,1,9,1.9,15,M,,M,,*58
05/29/2014	05:08:55.721	$GPGGA,050855,2552.9413,N,07936.5996,W,1,9,1.9,15,M,,M,,*5F
05/29/2014	05:08:56.818	$GPGGA,050856,2552.9402,N,07936.5982,W,1,9,1.9,15,M,,M,,*59
05/29/2014	05:08:57.883	$GPGGA,050857,2552.9393,N,07936.5969,W,1,9,1.9,15,M,,M,,*52
05/29/2014	05:08:58.928	$GPGGA,050858,2552.9384,N,07936.5955,W,1,9,1.9,15,M,,M,,*54
05/29/2014	05:09:00.144	$GPGGA,050859,2552.9373,N,07936.5941,W,1,9,1.9,15,M,,M,,*58
05/29/2014	05:09:01.102	$GPGGA,050900,2552.9363,N,07936.5927,W,1,9,1.9,15,M,,M,,*54
05/29/2014	05:09:02.158	$GPGGA,050901,2552.9353,N,07936.5913,W,1,9,1.9,15,M,,M,,*51
05/29/2014	05:09:03.362	$GPGGA,050902,2552.9344,N,07936.5899,W,1,9,1.9,15,M,,M,,*57
05/29/2014	05:09:04.320	$GPGGA,050903,2552.9333,N,07936.5886,W,1,9,1.9,15,M,,M,,*58
05/29/2014	05:09:05.409	$GPGGA,050904,2552.9323,N,07936.5873,W,1,9,2.0,15,M,,M,,*5E
05/29/2014	05:09:06.484	$GPGGA,050905,2552.9314,N,07936.5858,W,1,9,1.9,15,M,,M,,*58
05/29/2014	05:09:07.548	$GPGGA,050906,2552.9305,N,07936.5845,W,1,9,1.9,15,M,,M,,*57
05/29/2014	05:09:08.625	$GPGGA,050907,2552.9295,N,07936.5832,W,1,9,1.9,15,M,,M,,*5E
05/29/2014	05:09:09.701	$GPGGA,050908,2552.9285,N,07936.5818,W,1,9,1.9,15,M,,M,,*58
05/29/2014	05:09:10.885	$GPGGA,050909,2552.9277,N,07936.5804,W,1,9,1.9,15,M,,M,,*59
05/29/2014	05:09:11.833	$GPGGA,050910,2552.9268,N,07936.5791,W,1,9,1.9,15,M,,M,,*5C
05/29/2014	05:09:12.909	$GPGGA,050911,2552.9258,N,07936.5777,W,1,9,1.9,15,M,,M,,*56
05/29/2014	05:09:14.007	$GPGGA,050912,2552.9248,N,07936.5764,W,1,9,1.9,15,M,,M,,*56
05/29/2014	05:09:15.159	$GPGGA,050913,2552.9240,N,07936.5750,W,1,9,1.9,15,M,,M,,*58
05/29/2014	05:09:16.138	$GPGGA,050914,2552.9229,N,07936.5736,W,1,9,1.9,15,M,,M,,*50
05/29/2014	05:09:17.301	$GPGGA,050915,2552.9218,N,07936.5723,W,1,9,1.9,15,M,,M,,*57
05/29/2014	05:09:18.280	$GPGGA,050916,2552.9208,N,07936.5710,W,1,9,1.9,15,M,,M,,*55
05/29/2014	05:09:19.443	$GPGGA,050917,2552.9200,N,07936.5695,W,1,9,1.9,15,M,,M,,*50
05/29/2014	05:09:20.519	$GPGGA,050918,2552.9189,N,07936.5682,W,1,9,1.9,15,M,,M,,*5B
05/29/2014	05:09:21.606	$GPGGA,050919,2552.9179,N,07936.5669,W,1,9,1.9,15,M,,M,,*50
05/29/2014	05:09:22.704	$GPGGA,050920,2552.9171,N,07936.5654,W,1,9,1.9,15,M,,M,,*5C
05/29/2014	05:09:23.770	$GPGGA,050921,2552.9161,N,07936.5641,W,1,9,1.9,15,M,,M,,*58
05/29/2014	05:09:24.834	$GPGGA,050922,2552.9150,N,07936.5627,W,1,9,1.9,15,M,,M,,*59
05/29/2014	05:09:25.889	$GPGGA,050923,2552.9142,N,07936.5613,W,1,9,1.9,15,M,,M,,*5C
05/29/2014	05:09:26.976	$GPGGA,050924,2552.9132,N,07936.5599,W,1,9,1.9,15,M,,M,,*5D
05/29/2014	05:09:28.064	$GPGGA,050925,2552.9122,N,07936.5585,W,1,9,1.9,15,M,,M,,*50
05/29/2014	05:09:29.129	$GPGGA,050926,2552.9113,N,07936.5571,W,1,9,1.9,15,M,,M,,*5A
05/29/2014	05:09:30.216	$GPGGA,050927,2552.9103,N,07936.5557,W,1,9,1.9,15,M,,M,,*5E
05/29/2014	05:09:31.282	$GPGGA,050928,2552.9095,N,07936.5542,W,1,9,1.9,15,M,,M,,*5B
05/29/2014	05:09:32.337	$GPGGA,050929,2552.9084,N,07936.5528,W,1,9,1.9,15,M,,M,,*56
05/29/2014	05:09:33.413	$GPGGA,050930,2552.9074,N,07936.5513,W,1,9,1.9,15,M,,M,,*59
05/29/2014	05:09:34.511	$GPGGA,050931,2552.9066,N,07936.5499,W,1,9,1.9,15,M,,M,,*58
05/29/2014	05:09:35.588	$GPGGA,050932,2552.9056,N,07936.5484,W,1,9,1.9,15,M,,M,,*54
05/29/2014	05:09:36.632	$GPGGA,050933,2552.9046,N,07936.5470,W,1,9,1.9,15,M,,M,,*5F
05/29/2014	05:09:37.721	$GPGGA,050934,2552.9037,N,07936.5455,W,1,9,1.9,15,M,,M,,*59
05/29/2014	05:09:38.817	$GPGGA,050935,2552.9028,N,07936.5442,W,1,9,1.9,15,M,,M,,*50
05/29/2014	05:09:39.884	$GPGGA,050936,2552.9018,N,07936.5428,W,1,9,1.9,15,M,,M,,*5C
05/29/2014	05:09:40.948	$GPGGA,050937,2552.9010,N,07936.5413,W,1,9,1.9,15,M,,M,,*5D
05/29/2014	05:09:42.014	$GPGGA,050938,2552.9001,N,07936.5398,W,1,9,1.9,15,M,,M,,*56
05/29/2014	05:09:43.079	$GPGGA,050939,2552.8990,N,07936.5385,W,1,9,1.9,15,M,,M,,*5B
05/29/2014	05:09:39.615	$GPGGA,050940,2552.8981,N,07936.5369,W,1,9,1.9,15,M,,M,,*57
05/29/2014	05:09:40.648	$GPGGA,050941,2552.8972,N,07936.5355,W,1,9,1.9,15,M,,M,,*55
05/29/2014	05:09:41.735	$GPGGA,050942,2552.8963,N,07936.5340,W,1,9,1.9,15,M,,M,,*52
05/29/2014	05:09:42.790	$GPGGA,050943,2552.8954,N,07936.5325,W,1,9,1.9,15,M,,M,,*54
05/29/2014	05:09:43.899	$GPGGA,050944,2552.8944,N,07936.5311,W,1,9,1.9,15,M,,M,,*55
05/29/2014	05:09:44.943	$GPGGA,050945,2552.8936,N,07936.5296,W,1,9,1.9,15,M,,M,,*5F
05/29/2014	05:09:46.030	$GPGGA,050946,2552.8926,N,07936.5282,W,1,9,1.9,15,M,,M,,*58
05/29/2014	05:09:47.139	$GPGGA,050947,2552.8916,N,07936.5267,W,1,9,1.9,15,M,,M,,*51
05/29/2014	05:09:48.301	$GPGGA,050948,2552.8906,N,07936.5253,W,1,9,1.9,15,M,,M,,*58
05/29/2014	05:09:49.356	$GPGGA,050949,2552.8897,N,07936.5237,W,1,9,1.9,15,M,,M,,*52
05/29/2014	05:09:50.422	$GPGGA,050950,2552.8887,N,07936.5224,W,1,9,1.9,15,M,,M,,*59
05/29/2014	05:09:51.412	$GPGGA,050951,2552.8878,N,07936.5209,W,1,9,1.9,15,M,,M,,*57
05/29/2014	05:09:52.488	$GPGGA,050952,2552.8869,N,07936.5194,W,1,9,1.9,15,M,,M,,*53
05/29/2014	05:09:53.554	$GPGGA,050953,2552.8860,N,07936.5180,W,1,9,1.9,15,M,,M,,*5E
05/29/2014	05:09:54.717	$GPGGA,050954,2552.8850,N,07936.5165,W,1,9,1.9,15,M,,M,,*51
05/29/2014	05:09:55.804	$GPGGA,050955,2552.8840,N,07936.5151,W,1,9,1.9,15,M,,M,,*56
05/29/2014	05:09:56.783	$GPGGA,050956,2552.8831,N,07936.5136,W,1,9,1.9,14,M,,M,,*53
05/29/2014	05:09:57.859	$GPGGA,050957,2552.8822,N,07936.5121,W,1,9,1.9,14,M,,M,,*56
05/29/2014	05:09:59.032	$GPGGA,050958,2552.8812,N,07936.5107,W,1,9,1.9,14,M,,M,,*5E
05/29/2014	05:10:00.011	$GPGGA,050959,2552.8802,N,07936.5093,W,1,9,1.9,14,M,,M,,*52
05/29/2014	05:10:01.195	$GPGGA,051000,2552.8792,N,07936.5078,W,1,9,1.9,14,M,,M,,*55
05/29/2014	05:10:02.261	$GPGGA,051001,2552.8783,N,07936.5063,W,1,9,1.9,14,M,,M,,*5E
05/29/2014	05:10:03.208	$GPGGA,051002,2552.8774,N,07936.5049,W,1,9,1.9,14,M,,M,,*5D
05/29/2014	05:10:04.425	$GPGGA,051003,2552.8764,N,07936.5035,W,1,9,1.9,14,M,,M,,*56
05/29/2014	05:10:05.501	$GPGGA,051004,2552.8755,N,07936.5021,W,1,9,1.9,14,M,,M,,*56
05/29/2014	05:10:06.534	$GPGGA,051005,2552.8745,N,07936.5006,W,1,9,1.9,14,M,,M,,*53
05/29/2014	05:10:07.611	$GPGGA,051006,2552.8735,N,07936.4992,W,1,9,1.9,14,M,,M,,*52
05/29/2014	05:10:08.741	$GPGGA,051007,2552.8725,N,07936.4978,W,1,9,1.9,14,M,,M,,*56
05/29/2014	05:10:09.764	$GPGGA,051008,2552.8716,N,07936.4963,W,1,9,1.9,14,M,,M,,*53
05/29/2014	05:10:10.862	$GPGGA,051009,2552.8706,N,07936.4949,W,1,9,1.9,14,M,,M,,*5B
05/29/2014	05:10:11.906	$GPGGA,051010,2552.8696,N,07936.4935,W,1,9,1.9,14,M,,M,,*50
05/29/2014	05:10:13.025	$GPGGA,051011,2552.8687,N,07936.4921,W,1,9,1.9,14,M,,M,,*54
05/29/2014	05:10:14.112	$GPGGA,051012,2552.8677,N,07936.4907,W,1,9,1.9,14,M,,M,,*5C
05/29/2014	05:10:15.156	$GPGGA,051013,2552.8667,N,07936.4893,W,1,9,1.9,14,M,,M,,*50
05/29/2014	05:10:16.222	$GPGGA,051014,2552.8658,N,07936.4879,W,1,9,1.9,14,M,,M,,*5F
05/29/2014	05:10:17.308	$GPGGA,051015,2552.8647,N,07936.4865,W,1,9,1.9,14,M,,M,,*5D
05/29/2014	05:10:18.363	$GPGGA,051016,2552.8636,N,07936.4851,W,1,9,1.9,14,M,,M,,*5F
05/29/2014	05:10:19.450	$GPGGA,051017,2552.8627,N,07936.4836,W,1,9,1.9,14,M,,M,,*5F
05/29/2014	05:10:20.516	$GPGGA,051018,2552.8617,N,07936.4823,W,1,9,1.9,14,M,,M,,*57
05/29/2014	05:10:21.592	$GPGGA,051019,2552.8607,N,07936.4809,W,1,9,1.9,14,M,,M,,*5F
05/29/2014	05:10:22.669	$GPGGA,051020,2552.8597,N,07936.4795,W,1,9,1.9,14,M,,M,,*55
05/29/2014	05:10:23.734	$GPGGA,051021,2552.8587,N,07936.4782,W,1,9,1.9,13,M,,M,,*54
05/29/2014	05:10:24.789	$GPGGA,051022,2552.8576,N,07936.4768,W,1,9,2.0,13,M,,M,,*57
05/29/2014	05:10:25.898	$GPGGA,051023,2552.8566,N,07936.4755,W,1,9,1.9,13,M,,M,,*53
05/29/2014	05:10:26.964	$GPGGA,051024,2552.8557,N,07936.4741,W,1,9,1.9,13,M,,M,,*53
05/29/2014	05:10:28.040	$GPGGA,051025,2552.8547,N,07936.4727,W,1,9,1.9,13,M,,M,,*53
05/29/2014	05:10:29.085	$GPGGA,051026,2552.8537,N,07936.4713,W,1,9,1.9,13,M,,M,,*50
05/29/2014	05:10:30.160	$GPGGA,051027,2552.8528,N,07936.4700,W,1,9,1.9,13,M,,M,,*5D
05/29/2014	05:10:31.280	$GPGGA,051028,2552.8521,N,07936.4685,W,1,9,1.9,13,M,,M,,*57
05/29/2014	05:10:32.356	$GPGGA,051029,2552.8510,N,07936.4673,W,1,9,1.9,13,M,,M,,*5D
05/29/2014	05:10:33.390	$GPGGA,051030,2552.8499,N,07936.4659,W,1,9,1.9,13,M,,M,,*5D
05/29/2014	05:10:34.487	$GPGGA,051031,2552.8490,N,07936.4645,W,1,9,1.9,13,M,,M,,*58
05/29/2014	05:10:35.541	$GPGGA,051032,2552.8481,N,07936.4631,W,1,9,1.9,13,M,,M,,*58
05/29/2014	05:10:36.618	$GPGGA,051033,2552.8470,N,07936.4618,W,1,9,1.9,13,M,,M,,*5C
05/29/2014	05:10:37.683	$GPGGA,051034,2552.8461,N,07936.4604,W,1,9,1.9,13,M,,M,,*56
05/29/2014	05:10:38.803	$GPGGA,051035,2552.8452,N,07936.4590,W,1,9,1.9,13,M,,M,,*59
05/29/2014	05:10:39.874	$GPGGA,051036,2552.8442,N,07936.4576,W,1,9,1.9,13,M,,M,,*53
05/29/2014	05:10:40.923	$GPGGA,051037,2552.8432,N,07936.4562,W,1,9,1.9,13,M,,M,,*50
05/29/2014	05:10:42.000	$GPGGA,051038,2552.8423,N,07936.4549,W,1,9,1.9,13,M,,M,,*56
05/29/2014	05:10:43.076	$GPGGA,051039,2552.8413,N,07936.4535,W,1,9,1.9,13,M,,M,,*5F
05/29/2014	05:10:39.560	$GPGGA,051040,2552.8403,N,07936.4521,W,1,9,1.9,13,M,,M,,*55
05/29/2014	05:10:40.648	$GPGGA,051041,2552.8393,N,07936.4507,W,1,9,1.9,13,M,,M,,*5E
05/29/2014	05:10:41.713	$GPGGA,051042,2552.8383,N,07936.4493,W,1,9,1.9,13,M,,M,,*50
05/29/2014	05:10:42.800	$GPGGA,051043,2552.8373,N,07936.4479,W,1,9,1.9,13,M,,M,,*5A
05/29/2014	05:10:43.855	$GPGGA,051044,2552.8364,N,07936.4464,W,1,9,1.9,13,M,,M,,*57
05/29/2014	05:10:44.932	$GPGGA,051045,2552.8354,N,07936.4450,W,1,9,1.9,13,M,,M,,*52
05/29/2014	05:10:46.104	$GPGGA,051046,2552.8344,N,07936.4436,W,1,9,1.9,13,M,,M,,*50
05/29/2014	05:10:47.181	$GPGGA,051047,2552.8335,N,07936.4421,W,1,9,1.9,13,M,,M,,*51
05/29/2014	05:10:48.300	$GPGGA,051048,2552.8326,N,07936.4406,W,1,9,1.9,13,M,,M,,*59
05/29/2014	05:10:49.354	$GPGGA,051049,2552.8315,N,07936.4392,W,1,9,1.9,14,M,,M,,*55
05/29/2014	05:10:50.301	$GPGGA,051050,2552.8306,N,07936.4378,W,1,9,1.9,14,M,,M,,*5B
05/29/2014	05:10:51.497	$GPGGA,051051,2552.8297,N,07936.4363,W,1,9,1.9,14,M,,M,,*59
05/29/2014	05:10:52.562	$GPGGA,051052,2552.8287,N,07936.4349,W,1,9,1.9,14,M,,M,,*53
05/29/2014	05:10:53.616	$GPGGA,051053,2552.8279,N,07936.4334,W,1,9,1.9,14,M,,M,,*59
05/29/2014	05:10:54.704	$GPGGA,051054,2552.8268,N,07936.4319,W,1,9,1.9,14,M,,M,,*51
05/29/2014	05:10:55.791	$GPGGA,051055,2552.8258,N,07936.4304,W,1,9,1.9,14,M,,M,,*5F
05/29/2014	05:10:56.856	$GPGGA,051056,2552.8250,N,07936.4290,W,1,9,1.9,14,M,,M,,*58
05/29/2014	05:10:57.933	$GPGGA,051057,2552.8239,N,07936.4274,W,1,9,1.9,14,M,,M,,*5C
05/29/2014	05:10:59.009	$GPGGA,051058,2552.8230,N,07936.4259,W,1,9,1.9,14,M,,M,,*55
05/29/2014	05:11:00.064	$GPGGA,051059,2552.8221,N,07936.4245,W,1,9,1.9,14,M,,M,,*59
05/29/2014	05:11:01.173	$GPGGA,051100,2552.8211,N,07936.4230,W,1,9,1.9,14,M,,M,,*55
05/29/2014	05:11:02.249	$GPGGA,051101,2552.8203,N,07936.4215,W,1,9,1.9,14,M,,M,,*50
05/29/2014	05:11:03.293	$GPGGA,051102,2552.8193,N,07936.4200,W,1,9,1.9,14,M,,M,,*5D
05/29/2014	05:11:04.380	$GPGGA,051103,2552.8183,N,07936.4186,W,1,9,1.9,14,M,,M,,*50
05/29/2014	05:11:05.457	$GPGGA,051104,2552.8174,N,07936.4170,W,1,9,1.9,14,M,,M,,*56
05/29/2014	05:11:06.533	$GPGGA,051105,2552.8164,N,07936.4155,W,1,9,1.9,14,M,,M,,*51
05/29/2014	05:11:07.588	$GPGGA,051106,2552.8154,N,07936.4141,W,1,9,1.9,14,M,,M,,*54
05/29/2014	05:11:08.685	$GPGGA,051107,2552.8145,N,07936.4126,W,1,9,1.9,14,M,,M,,*54
05/29/2014	05:11:09.740	$GPGGA,051108,2552.8135,N,07936.4111,W,1,9,1.9,14,M,,M,,*58
05/29/2014	05:11:10.827	$GPGGA,051109,2552.8125,N,07936.4097,W,1,9,1.9,14,M,,M,,*57
05/29/2014	05:11:11.895	$GPGGA,051110,2552.8116,N,07936.4083,W,1,9,1.9,14,M,,M,,*5A
05/29/2014	05:11:12.991	$GPGGA,051111,2552.8107,N,07936.4068,W,1,9,1.9,14,M,,M,,*5E
05/29/2014	05:11:14.045	$GPGGA,051112,2552.8098,N,07936.4054,W,1,9,1.9,14,M,,M,,*55
05/29/2014	05:11:15.143	$GPGGA,051113,2552.8087,N,07936.4040,W,1,9,1.9,14,M,,M,,*5F
05/29/2014	05:11:16.189	$GPGGA,051114,2552.8077,N,07936.4025,W,1,9,1.9,14,M,,M,,*54
05/29/2014	05:11:17.275	$GPGGA,051115,2552.8067,N,07936.4010,W,1,9,1.9,14,M,,M,,*52
05/29/2014	05:11:18.351	$GPGGA,051116,2552.8057,N,07936.3996,W,1,9,1.9,14,M,,M,,*52
05/29/2014	05:11:19.460	$GPGGA,051117,2552.8047,N,07936.3983,W,1,9,1.9,14,M,,M,,*56
05/29/2014	05:11:20.472	$GPGGA,051118,2552.8038,N,07936.3968,W,1,9,1.9,14,M,,M,,*54
05/29/2014	05:11:21.571	$GPGGA,051119,2552.8028,N,07936.3953,W,1,9,1.9,14,M,,M,,*5C
05/29/2014	05:11:22.646	$GPGGA,051120,2552.8018,N,07936.3939,W,1,9,1.9,14,M,,M,,*59
05/29/2014	05:11:23.733	$GPGGA,051121,2552.8008,N,07936.3925,W,1,9,1.9,14,M,,M,,*54
05/29/2014	05:11:24.766	$GPGGA,051122,2552.7998,N,07936.3911,W,1,9,1.9,14,M,,M,,*5F
05/29/2014	05:11:25.972	$GPGGA,051123,2552.7988,N,07936.3896,W,1,9,1.9,14,M,,M,,*51
05/29/2014	05:11:26.919	$GPGGA,051124,2552.7979,N,07936.3883,W,1,9,1.9,14,M,,M,,*5C
05/29/2014	05:11:28.017	$GPGGA,051125,2552.7969,N,07936.3870,W,1,9,1.9,14,M,,M,,*50
05/29/2014	05:11:29.168	$GPGGA,051126,2552.7959,N,07936.3856,W,1,9,1.9,14,M,,M,,*54
05/29/2014	05:11:30.276	$GPGGA,051127,2552.7950,N,07936.3842,W,1,9,1.9,14,M,,M,,*59
05/29/2014	05:11:31.245	$GPGGA,051128,2552.7939,N,07936.3828,W,1,9,1.9,14,M,,M,,*55
05/29/2014	05:11:32.300	$GPGGA,051129,2552.7928,N,07936.3815,W,1,9,1.9,14,M,,M,,*5A
05/29/2014	05:11:33.484	$GPGGA,051130,2552.7918,N,07936.3800,W,1,9,1.9,14,M,,M,,*55
05/29/2014	05:11:34.562	$GPGGA,051131,2552.7908,N,07936.3786,W,1,9,1.9,14,M,,M,,*54
05/29/2014	05:11:35.648	$GPGGA,051132,2552.7897,N,07936.3773,W,1,9,1.9,14,M,,M,,*5A
05/29/2014	05:11:36.724	$GPGGA,051133,2552.7888,N,07936.3759,W,1,9,1.9,14,M,,M,,*5D
05/29/2014	05:11:37.682	$GPGGA,051134,2552.7878,N,07936.3746,W,1,9,1.9,14,M,,M,,*5B
05/29/2014	05:11:38.738	$GPGGA,051135,2552.7868,N,07936.3732,W,1,9,1.9,14,M,,M,,*58
05/29/2014	05:11:39.846	$GPGGA,051136,2552.7858,N,07936.3718,W,1,9,1.9,14,M,,M,,*50
05/29/2014	05:11:41.019	$GPGGA,051137,2552.7849,N,07936.3705,W,1,9,1.9,14,M,,M,,*5D
05/29/2014	05:11:42.063	$GPGGA,051138,2552.7838,N,07936.3692,W,1,9,1.9,14,M,,M,,*5B
05/29/2014	05:11:43.139	$GPGGA,051139,2552.7828,N,07936.3677,W,1,9,1.9,14,M,,M,,*50
05/29/2014	05:11:39.569	$GPGGA,051140,2552.7818,N,07936.3664,W,1,9,1.9,14,M,,M,,*5F
05/29/2014	05:11:40.721	$GPGGA,051141,2552.7807,N,07936.3650,W,1,9,1.9,14,M,,M,,*57
05/29/2014	05:11:41.796	$GPGGA,051142,2552.7798,N,07936.3636,W,1,9,1.9,14,M,,M,,*5D
05/29/2014	05:11:42.863	$GPGGA,051143,2552.7788,N,07936.3623,W,1,9,1.9,14,M,,M,,*59
05/29/2014	05:11:43.949	$GPGGA,051144,2552.7778,N,07936.3609,W,1,9,1.9,14,M,,M,,*59
05/29/2014	05:11:45.016	$GPGGA,051145,2552.7768,N,07936.3596,W,1,9,1.9,14,M,,M,,*5C
05/29/2014	05:11:45.984	$GPGGA,051146,2552.7758,N,07936.3582,W,1,9,1.9,14,M,,M,,*59
05/29/2014	05:11:47.146	$GPGGA,051147,2552.7748,N,07936.3569,W,1,9,1.9,14,M,,M,,*5C
05/29/2014	05:11:48.244	$GPGGA,051148,2552.7738,N,07936.3554,W,1,9,1.9,13,M,,M,,*5D
05/29/2014	05:11:49.320	$GPGGA,051149,2552.7728,N,07936.3541,W,1,9,1.9,13,M,,M,,*59
