Software Version Number: 1	Data File Format Number: 1	Build Version Number: 1	Error Count Since VI Started: 0	Manufacturer: Raytheon	 Model Number: RayMarine 120	 S/N: 	 Cal Date: 	 Wind Direction Offset: 0.00	 Slope (M)1: 0.00	 Offset (B)1: 0.00	 Slope (M)2: 0.00	 Offset (B)2: 0.00	 Slope (M)3: 0.00	 Offset (B)3: 0.00	 Slope (M)4: 0.00	 Offset (B)4: 0.00	 Slope (M)5: 0.00	 Offset (B)5: 0.00	 Slope (M)6: 0.00	 Offset (B)6: 0.00
Computer Date	Computer Time	GGA String
06/02/2014	16:00:00.559	$GPGGA,160001,2438.2260,N,08038.2563,W,1,8,2.1,14,M,,M,,*52
06/02/2014	16:00:01.539	$GPGGA,160002,2438.2257,N,08038.2556,W,1,8,1.9,14,M,,M,,*58
06/02/2014	16:00:02.559	$GPGGA,160003,2438.2255,N,08038.2549,W,1,9,1.9,14,M,,M,,*54
06/02/2014	16:00:03.669	$GPGGA,160004,2438.2251,N,08038.2541,W,1,9,1.9,14,M,,M,,*5F
06/02/2014	16:00:04.539	$GPGGA,160005,2438.2249,N,08038.2531,W,1,9,1.9,14,M,,M,,*50
06/02/2014	16:00:05.548	$GPGGA,160006,2438.2246,N,08038.2522,W,1,9,1.9,14,M,,M,,*5E
06/02/2014	16:00:06.659	$GPGGA,160007,2438.2243,N,08038.2514,W,1,9,1.9,14,M,,M,,*5F
06/02/2014	16:00:07.559	$GPGGA,160008,2438.2242,N,08038.2505,W,1,9,1.9,14,M,,M,,*51
06/02/2014	16:00:08.629	$GPGGA,160009,2438.2239,N,08038.2496,W,1,9,1.9,14,M,,M,,*57
06/02/2014	16:00:09.540	$GPGGA,160010,2438.2235,N,08038.2489,W,1,9,1.9,14,M,,M,,*5D
06/02/2014	16:00:10.669	$GPGGA,160011,2438.2235,N,08038.2478,W,1,9,1.9,14,M,,M,,*52
06/02/2014	16:00:11.659	$GPGGA,160012,2438.2234,N,08038.2466,W,1,9,1.9,14,M,,M,,*5F
06/02/2014	16:00:12.649	$GPGGA,160013,2438.2231,N,08038.2460,W,1,9,1.9,15,M,,M,,*5C
06/02/2014	16:00:13.629	$GPGGA,160014,2438.2227,N,08038.2452,W,1,9,1.9,15,M,,M,,*5D
06/02/2014	16:00:14.629	$GPGGA,160015,2438.2226,N,08038.2441,W,1,9,1.9,15,M,,M,,*5F
06/02/2014	16:00:15.529	$GPGGA,160016,2438.2224,N,08038.2431,W,1,9,1.9,15,M,,M,,*59
06/02/2014	16:00:16.609	$GPGGA,160017,2438.2221,N,08038.2423,W,1,9,1.9,15,M,,M,,*5E
06/02/2014	16:00:17.609	$GPGGA,160018,2438.2220,N,08038.2414,W,1,9,1.9,15,M,,M,,*54
06/02/2014	16:00:18.618	$GPGGA,160019,2438.2217,N,08038.2404,W,1,9,1.9,15,M,,M,,*50
06/02/2014	16:00:19.628	$GPGGA,160020,2438.2215,N,08038.2395,W,1,9,1.9,15,M,,M,,*57
06/02/2014	16:00:20.628	$GPGGA,160021,2438.2213,N,08038.2385,W,1,9,1.9,15,M,,M,,*51
06/02/2014	16:00:21.598	$GPGGA,160022,2438.2210,N,08038.2376,W,1,9,1.9,15,M,,M,,*5D
06/02/2014	16:00:22.618	$GPGGA,160023,2438.2207,N,08038.2367,W,1,9,1.9,15,M,,M,,*5A
06/02/2014	16:00:23.618	$GPGGA,160024,2438.2206,N,08038.2357,W,1,9,1.9,15,M,,M,,*5F
06/02/2014	16:00:24.618	$GPGGA,160025,2438.2203,N,08038.2347,W,1,9,1.9,15,M,,M,,*5A
06/02/2014	16:00:25.608	$GPGGA,160026,2438.2200,N,08038.2339,W,1,9,1.9,15,M,,M,,*53
06/02/2014	16:00:26.628	$GPGGA,160027,2438.2198,N,08038.2331,W,1,9,1.9,14,M,,M,,*59
06/02/2014	16:00:27.598	$GPGGA,160028,2438.2196,N,08038.2320,W,1,9,1.9,14,M,,M,,*58
06/02/2014	16:00:28.608	$GPGGA,160029,2438.2195,N,08038.2310,W,1,9,1.9,14,M,,M,,*59
06/02/2014	16:00:29.588	$GPGGA,160030,2438.2191,N,08038.2301,W,1,9,1.9,14,M,,M,,*55
06/02/2014	16:00:30.588	$GPGGA,160031,2438.2188,N,08038.2294,W,1,9,1.9,14,M,,M,,*51
06/02/2014	16:00:31.598	$GPGGA,160032,2438.2185,N,08038.2285,W,1,9,1.9,14,M,,M,,*5F
06/02/2014	16:00:32.578	$GPGGA,160033,2438.2184,N,08038.2273,W,1,9,1.9,14,M,,M,,*56
06/02/2014	16:00:33.588	$GPGGA,160034,2438.2180,N,08038.2264,W,1,9,1.9,14,M,,M,,*53
06/02/2014	16:00:34.608	$GPGGA,160035,2438.2177,N,08038.2257,W,1,9,1.9,14,M,,M,,*5A
06/02/2014	16:00:35.577	$GPGGA,160036,2438.2177,N,08038.2248,W,1,9,1.9,14,M,,M,,*57
06/02/2014	16:00:36.607	$GPGGA,160037,2438.2173,N,08038.2236,W,1,9,1.9,14,M,,M,,*5B
06/02/2014	16:00:37.567	$GPGGA,160038,2438.2170,N,08038.2226,W,1,9,1.9,14,M,,M,,*56
06/02/2014	16:00:38.597	$GPGGA,160039,2438.2167,N,08038.2219,W,1,9,1.9,14,M,,M,,*5D
06/02/2014	16:00:39.567	$GPGGA,160040,2438.2166,N,08038.2212,W,1,9,1.9,14,M,,M,,*59
06/02/2014	16:00:40.567	$GPGGA,160041,2438.2164,N,08038.2205,W,1,9,1.9,14,M,,M,,*5C
06/02/2014	16:00:41.567	$GPGGA,160042,2438.2160,N,08038.2194,W,1,9,1.9,14,M,,M,,*50
06/02/2014	16:00:42.577	$GPGGA,160043,2438.2159,N,08038.2185,W,1,9,1.9,14,M,,M,,*5B
06/02/2014	16:00:43.577	$GPGGA,160044,2438.2159,N,08038.2179,W,1,9,1.9,14,M,,M,,*5F
06/02/2014	16:00:44.588	$GPGGA,160045,2438.2156,N,08038.2172,W,1,9,1.9,14,M,,M,,*5A
06/02/2014	16:00:45.567	$GPGGA,160046,2438.2153,N,08038.2162,W,1,9,1.9,14,M,,M,,*5D
06/02/2014	16:00:46.577	$GPGGA,160047,2438.2154,N,08038.2154,W,1,9,1.9,14,M,,M,,*5E
06/02/2014	16:00:47.557	$GPGGA,160048,2438.2155,N,08038.2146,W,1,9,1.9,14,M,,M,,*53
06/02/2014	16:00:48.547	$GPGGA,160049,2438.2152,N,08038.2138,W,1,9,1.9,14,M,,M,,*5C
06/02/2014	16:00:49.707	$GPGGA,160050,2438.2149,N,08038.2132,W,1,9,1.9,14,M,,M,,*54
06/02/2014	16:00:50.547	$GPGGA,160051,2438.2148,N,08038.2125,W,1,9,1.9,14,M,,M,,*52
06/02/2014	16:00:51.567	$GPGGA,160052,2438.2148,N,08038.2114,W,1,9,1.9,14,M,,M,,*53
06/02/2014	16:00:52.557	$GPGGA,160053,2438.2146,N,08038.2106,W,1,9,1.9,14,M,,M,,*5F
06/02/2014	16:00:53.536	$GPGGA,160054,2438.2143,N,08038.2101,W,1,9,1.9,14,M,,M,,*5A
06/02/2014	16:00:54.526	$GPGGA,160055,2438.2142,N,08038.2093,W,1,9,1.9,14,M,,M,,*50
06/02/2014	16:00:55.636	$GPGGA,160056,2438.2141,N,08038.2083,W,1,9,1.9,14,M,,M,,*51
06/02/2014	16:00:56.676	$GPGGA,160057,2438.2139,N,08038.2077,W,1,9,1.9,14,M,,M,,*54
06/02/2014	16:00:57.536	$GPGGA,160058,2438.2137,N,08038.2070,W,1,9,2.1,14,M,,M,,*59
06/02/2014	16:00:58.646	$GPGGA,160059,2438.2134,N,08038.2061,W,1,9,1.9,14,M,,M,,*50
06/02/2014	16:00:59.546	$GPGGA,160100,2438.2131,N,08038.2053,W,1,9,1.9,14,M,,M,,*59
06/02/2014	16:01:00.616	$GPGGA,160101,2438.2130,N,08038.2045,W,1,9,1.9,14,M,,M,,*5E
06/02/2014	16:01:01.526	$GPGGA,160102,2438.2127,N,08038.2037,W,1,9,1.9,14,M,,M,,*5E
06/02/2014	16:01:02.656	$GPGGA,160103,2438.2124,N,08038.2030,W,1,9,1.9,14,M,,M,,*5B
06/02/2014	16:01:03.696	$GPGGA,160104,2438.2122,N,08038.2022,W,1,9,1.9,14,M,,M,,*59
06/02/2014	16:01:04.656	$GPGGA,160105,2438.2120,N,08038.2011,W,1,9,1.9,14,M,,M,,*5A
06/02/2014	16:01:05.676	$GPGGA,160106,2438.2117,N,08038.2004,W,1,9,1.9,14,M,,M,,*59
06/02/2014	16:01:06.606	$GPGGA,160107,2438.2114,N,08038.1999,W,1,9,1.9,14,M,,M,,*55
06/02/2014	16:01:07.666	$GPGGA,160108,2438.2112,N,08038.1990,W,1,9,1.9,14,M,,M,,*55
06/02/2014	16:01:08.646	$GPGGA,160109,2438.2110,N,08038.1979,W,1,9,1.9,14,M,,M,,*51
06/02/2014	16:01:09.596	$GPGGA,160110,2438.2108,N,08038.1971,W,1,9,1.9,14,M,,M,,*58
06/02/2014	16:01:10.655	$GPGGA,160111,2438.2104,N,08038.1965,W,1,9,1.9,14,M,,M,,*50
06/02/2014	16:01:11.605	$GPGGA,160112,2438.2102,N,08038.1956,W,1,9,1.9,14,M,,M,,*55
06/02/2014	16:01:12.625	$GPGGA,160113,2438.2101,N,08038.1946,W,1,9,1.9,14,M,,M,,*56
06/02/2014	16:01:13.665	$GPGGA,160114,2438.2097,N,08038.1936,W,1,9,1.9,14,M,,M,,*58
06/02/2014	16:01:14.595	$GPGGA,160115,2438.2094,N,08038.1927,W,1,9,1.9,14,M,,M,,*5A
06/02/2014	16:01:15.605	$GPGGA,160116,2438.2094,N,08038.1918,W,1,9,1.9,14,M,,M,,*55
06/02/2014	16:01:16.585	$GPGGA,160117,2438.2090,N,08038.1910,W,1,9,1.9,14,M,,M,,*58
06/02/2014	16:01:17.585	$GPGGA,160118,2438.2088,N,08038.1901,W,1,9,1.9,14,M,,M,,*5E
06/02/2014	16:01:18.645	$GPGGA,160119,2438.2087,N,08038.1889,W,1,9,1.9,15,M,,M,,*50
06/02/2014	16:01:19.645	$GPGGA,160120,2438.2084,N,08038.1880,W,1,9,1.9,15,M,,M,,*50
06/02/2014	16:01:20.575	$GPGGA,160121,2438.2079,N,08038.1874,W,1,9,1.9,15,M,,M,,*58
06/02/2014	16:01:21.625	$GPGGA,160122,2438.2079,N,08038.1864,W,1,9,1.9,15,M,,M,,*5A
06/02/2014	16:01:22.615	$GPGGA,160123,2438.2077,N,08038.1851,W,1,9,1.9,15,M,,M,,*53
06/02/2014	16:01:23.635	$GPGGA,160124,2438.2074,N,08038.1843,W,1,9,1.9,15,M,,M,,*54
06/02/2014	16:01:24.645	$GPGGA,160125,2438.2070,N,08038.1835,W,1,9,1.9,15,M,,M,,*50
06/02/2014	16:01:25.565	$GPGGA,160126,2438.2069,N,08038.1824,W,1,9,1.9,15,M,,M,,*5B
06/02/2014	16:01:26.565	$GPGGA,160127,2438.2067,N,08038.1813,W,1,9,1.9,15,M,,M,,*50
06/02/2014	16:01:27.636	$GPGGA,160128,2438.2063,N,08038.1804,W,1,9,1.9,15,M,,M,,*5D
06/02/2014	16:01:28.594	$GPGGA,160129,2438.2061,N,08038.1796,W,1,9,1.9,15,M,,M,,*5A
06/02/2014	16:01:29.554	$GPGGA,160130,2438.2059,N,08038.1785,W,1,9,1.9,15,M,,M,,*5B
06/02/2014	16:01:30.594	$GPGGA,160131,2438.2057,N,08038.1774,W,1,9,1.9,15,M,,M,,*5A
06/02/2014	16:01:31.634	$GPGGA,160132,2438.2054,N,08038.1766,W,1,9,1.9,15,M,,M,,*59
06/02/2014	16:01:32.604	$GPGGA,160133,2438.2052,N,08038.1758,W,1,9,1.9,15,M,,M,,*53
06/02/2014	16:01:33.644	$GPGGA,160134,2438.2049,N,08038.1748,W,1,9,1.9,15,M,,M,,*5F
06/02/2014	16:01:34.544	$GPGGA,160135,2438.2047,N,08038.1738,W,1,9,1.9,15,M,,M,,*57
06/02/2014	16:01:35.674	$GPGGA,160136,2438.2044,N,08038.1728,W,1,9,1.9,15,M,,M,,*56
06/02/2014	16:01:36.644	$GPGGA,160137,2438.2043,N,08038.1719,W,1,9,1.9,15,M,,M,,*52
06/02/2014	16:01:37.594	$GPGGA,160138,2438.2039,N,08038.1710,W,1,9,1.9,15,M,,M,,*59
06/02/2014	16:01:38.574	$GPGGA,160139,2438.2037,N,08038.1700,W,1,9,1.9,15,M,,M,,*57
06/02/2014	16:01:39.604	$GPGGA,160140,2438.2034,N,08038.1690,W,1,9,1.9,15,M,,M,,*52
06/02/2014	16:01:40.584	$GPGGA,160141,2438.2031,N,08038.1680,W,1,9,1.9,15,M,,M,,*57
06/02/2014	16:01:41.584	$GPGGA,160142,2438.2029,N,08038.1672,W,1,9,1.9,15,M,,M,,*50
06/02/2014	16:01:42.544	$GPGGA,160143,2438.2027,N,08038.1663,W,1,9,1.9,15,M,,M,,*5F
06/02/2014	16:01:43.614	$GPGGA,160144,2438.2025,N,08038.1652,W,1,9,1.9,15,M,,M,,*58
06/02/2014	16:01:44.554	$GPGGA,160145,2438.2021,N,08038.1642,W,1,9,1.9,15,M,,M,,*5C
06/02/2014	16:01:45.523	$GPGGA,160146,2438.2018,N,08038.1635,W,1,9,1.9,15,M,,M,,*55
06/02/2014	16:01:46.513	$GPGGA,160147,2438.2016,N,08038.1626,W,1,9,1.9,15,M,,M,,*58
06/02/2014	16:01:47.633	$GPGGA,160148,2438.2014,N,08038.1617,W,1,9,1.9,15,M,,M,,*57
06/02/2014	16:01:48.643	$GPGGA,160149,2438.2010,N,08038.1607,W,1,9,1.9,15,M,,M,,*53
06/02/2014	16:01:49.583	$GPGGA,160150,2438.2007,N,08038.1597,W,1,9,1.9,15,M,,M,,*57
06/02/2014	16:01:50.613	$GPGGA,160151,2438.2005,N,08038.1588,W,1,9,1.9,15,M,,M,,*5A
06/02/2014	16:01:51.633	$GPGGA,160152,2438.2003,N,08038.1580,W,1,9,1.9,15,M,,M,,*57
06/02/2014	16:01:52.643	$GPGGA,160153,2438.2000,N,08038.1570,W,1,9,1.9,15,M,,M,,*5A
06/02/2014	16:01:53.613	$GPGGA,160154,2438.1997,N,08038.1560,W,1,9,1.9,15,M,,M,,*58
06/02/2014	16:01:54.633	$GPGGA,160155,2438.1994,N,08038.1550,W,1,9,1.9,15,M,,M,,*59
06/02/2014	16:01:55.623	$GPGGA,160156,2438.1992,N,08038.1540,W,1,9,1.9,15,M,,M,,*5D
06/02/2014	16:01:56.623	$GPGGA,160157,2438.1990,N,08038.1530,W,1,9,1.9,15,M,,M,,*59
06/02/2014	16:01:57.593	$GPGGA,160158,2438.1987,N,08038.1520,W,1,9,1.9,15,M,,M,,*51
06/02/2014	16:01:58.623	$GPGGA,160159,2438.1984,N,08038.1513,W,1,9,1.9,15,M,,M,,*53
06/02/2014	16:01:59.634	$GPGGA,160200,2438.1982,N,08038.1503,W,1,9,1.9,15,M,,M,,*5B
06/02/2014	16:02:00.615	$GPGGA,160201,2438.1980,N,08038.1490,W,1,9,2.1,15,M,,M,,*58
06/02/2014	16:02:01.593	$GPGGA,160202,2438.1978,N,08038.1482,W,1,9,1.9,15,M,,M,,*54
06/02/2014	16:02:02.614	$GPGGA,160203,2438.1974,N,08038.1477,W,1,9,1.9,15,M,,M,,*53
06/02/2014	16:02:03.592	$GPGGA,160204,2438.1971,N,08038.1468,W,1,9,1.9,15,M,,M,,*5F
06/02/2014	16:02:04.593	$GPGGA,160205,2438.1971,N,08038.1454,W,1,9,1.9,15,M,,M,,*51
06/02/2014	16:02:05.582	$GPGGA,160206,2438.1971,N,08038.1454,W,1,9,1.9,15,M,,M,,*52
06/02/2014	16:02:06.602	$GPGGA,160207,2438.1964,N,08038.1438,W,1,9,1.9,15,M,,M,,*5D
06/02/2014	16:02:07.602	$GPGGA,160208,2438.1962,N,08038.1429,W,1,9,2.1,15,M,,M,,*5F
06/02/2014	16:02:08.592	$GPGGA,160209,2438.1961,N,08038.1421,W,1,8,1.9,15,M,,M,,*5F
06/02/2014	16:02:09.612	$GPGGA,160210,2438.1960,N,08038.1410,W,1,8,1.9,15,M,,M,,*54
06/02/2014	16:02:10.602	$GPGGA,160211,2438.1956,N,08038.1400,W,1,9,1.9,15,M,,M,,*50
06/02/2014	16:02:11.582	$GPGGA,160212,2438.1953,N,08038.1395,W,1,9,1.9,15,M,,M,,*5D
06/02/2014	16:02:12.582	$GPGGA,160213,2438.1950,N,08038.1388,W,1,9,1.9,15,M,,M,,*53
06/02/2014	16:02:13.602	$GPGGA,160214,2438.1946,N,08038.1379,W,1,9,1.9,15,M,,M,,*5D
06/02/2014	16:02:14.572	$GPGGA,160215,2438.1943,N,08038.1368,W,1,9,1.9,15,M,,M,,*59
06/02/2014	16:02:15.592	$GPGGA,160216,2438.1940,N,08038.1361,W,1,9,1.9,15,M,,M,,*50
06/02/2014	16:02:16.582	$GPGGA,160217,2438.1937,N,08038.1354,W,1,9,1.9,15,M,,M,,*57
06/02/2014	16:02:17.582	$GPGGA,160218,2438.1935,N,08038.1346,W,1,9,1.9,15,M,,M,,*59
06/02/2014	16:02:18.592	$GPGGA,160219,2438.1931,N,08038.1334,W,1,9,1.9,15,M,,M,,*59
06/02/2014	16:02:19.593	$GPGGA,160220,2438.1928,N,08038.1326,W,1,9,1.9,15,M,,M,,*58
06/02/2014	16:02:20.571	$GPGGA,160221,2438.1926,N,08038.1321,W,1,9,1.9,15,M,,M,,*50
06/02/2014	16:02:21.591	$GPGGA,160222,2438.1924,N,08038.1314,W,1,9,1.9,16,M,,M,,*54
06/02/2014	16:02:22.551	$GPGGA,160223,2438.1922,N,08038.1302,W,1,9,1.9,16,M,,M,,*54
06/02/2014	16:02:23.671	$GPGGA,160224,2438.1921,N,08038.1292,W,1,9,1.9,16,M,,M,,*58
06/02/2014	16:02:24.551	$GPGGA,160225,2438.1919,N,08038.1288,W,1,9,1.9,16,M,,M,,*59
06/02/2014	16:02:25.581	$GPGGA,160226,2438.1917,N,08038.1283,W,1,9,1.9,16,M,,M,,*5F
06/02/2014	16:02:26.561	$GPGGA,160227,2438.1914,N,08038.1275,W,1,9,1.9,16,M,,M,,*54
06/02/2014	16:02:27.561	$GPGGA,160228,2438.1914,N,08038.1275,W,1,9,1.9,16,M,,M,,*5B
06/02/2014	16:02:28.541	$GPGGA,160229,2438.1909,N,08038.1258,W,1,8,1.9,16,M,,M,,*58
06/02/2014	16:02:29.651	$GPGGA,160230,2438.1906,N,08038.1252,W,1,8,1.9,16,M,,M,,*55
06/02/2014	16:02:30.541	$GPGGA,160231,2438.1904,N,08038.1247,W,1,9,1.9,16,M,,M,,*53
06/02/2014	16:02:31.581	$GPGGA,160232,2438.1904,N,08038.1247,W,1,9,1.9,16,M,,M,,*50
06/02/2014	16:02:32.531	$GPGGA,160233,2438.1899,N,08038.1231,W,1,9,1.9,16,M,,M,,*55
06/02/2014	16:02:33.612	$GPGGA,160234,2438.1896,N,08038.1225,W,1,9,1.9,16,M,,M,,*58
06/02/2014	16:02:34.521	$GPGGA,160235,2438.1893,N,08038.1218,W,1,9,1.9,16,M,,M,,*52
06/02/2014	16:02:35.671	$GPGGA,160236,2438.1891,N,08038.1211,W,1,9,1.9,16,M,,M,,*5A
06/02/2014	16:02:36.651	$GPGGA,160237,2438.1888,N,08038.1205,W,1,8,2.2,16,M,,M,,*5F
06/02/2014	16:02:37.612	$GPGGA,160238,2438.1885,N,08038.1199,W,1,8,1.9,16,M,,M,,*53
06/02/2014	16:02:38.620	$GPGGA,160239,2438.1882,N,08038.1190,W,1,9,1.9,16,M,,M,,*5D
06/02/2014	16:02:39.620	$GPGGA,160240,2438.1879,N,08038.1183,W,1,9,1.9,16,M,,M,,*55
06/02/2014	16:02:40.640	$GPGGA,160241,2438.1875,N,08038.1179,W,1,9,1.9,16,M,,M,,*5D
06/02/2014	16:02:41.600	$GPGGA,160242,2438.1872,N,08038.1172,W,1,9,1.9,16,M,,M,,*52
06/02/2014	16:02:42.620	$GPGGA,160243,2438.1871,N,08038.1164,W,1,9,1.9,16,M,,M,,*57
06/02/2014	16:02:43.621	$GPGGA,160244,2438.1867,N,08038.1158,W,1,9,1.9,16,M,,M,,*58
06/02/2014	16:02:44.600	$GPGGA,160245,2438.1863,N,08038.1152,W,1,9,1.9,16,M,,M,,*57
06/02/2014	16:02:45.600	$GPGGA,160246,2438.1860,N,08038.1145,W,1,9,1.9,16,M,,M,,*51
06/02/2014	16:02:46.620	$GPGGA,160247,2438.1859,N,08038.1138,W,1,9,1.9,16,M,,M,,*50
06/02/2014	16:02:47.600	$GPGGA,160248,2438.1855,N,08038.1131,W,1,9,1.9,17,M,,M,,*5B
06/02/2014	16:02:48.610	$GPGGA,160249,2438.1852,N,08038.1125,W,1,9,1.9,17,M,,M,,*58
06/02/2014	16:02:49.590	$GPGGA,160250,2438.1846,N,08038.1120,W,1,9,2.2,17,M,,M,,*58
06/02/2014	16:02:50.600	$GPGGA,160251,2438.1843,N,08038.1112,W,1,9,1.9,17,M,,M,,*55
06/02/2014	16:02:51.610	$GPGGA,160252,2438.1841,N,08038.1103,W,1,9,1.9,17,M,,M,,*54
06/02/2014	16:02:52.600	$GPGGA,160253,2438.1837,N,08038.1097,W,1,9,1.9,17,M,,M,,*58
06/02/2014	16:02:53.581	$GPGGA,160254,2438.1833,N,08038.1091,W,1,9,1.9,17,M,,M,,*5D
06/02/2014	16:02:54.590	$GPGGA,160255,2438.1830,N,08038.1083,W,1,9,1.9,17,M,,M,,*5C
06/02/2014	16:02:55.579	$GPGGA,160256,2438.1825,N,08038.1077,W,1,9,1.9,17,M,,M,,*50
06/02/2014	16:02:56.569	$GPGGA,160257,2438.1821,N,08038.1070,W,1,9,1.9,17,M,,M,,*52
06/02/2014	16:02:57.579	$GPGGA,160258,2438.1819,N,08038.1061,W,1,9,1.9,17,M,,M,,*56
06/02/2014	16:03:00.029	$GPGGA,160300,2438.1810,N,08038.1050,W,1,9,1.9,17,M,,M,,*51
06/02/2014	16:03:00.599	$GPGGA,160301,2438.1807,N,08038.1040,W,1,9,1.9,17,M,,M,,*57
06/02/2014	16:03:01.569	$GPGGA,160302,2438.1805,N,08038.1032,W,1,9,1.9,17,M,,M,,*53
06/02/2014	16:03:02.579	$GPGGA,160303,2438.1801,N,08038.1026,W,1,9,1.9,17,M,,M,,*53
06/02/2014	16:03:03.579	$GPGGA,160304,2438.1798,N,08038.1020,W,1,9,1.9,17,M,,M,,*5D
06/02/2014	16:03:04.579	$GPGGA,160305,2438.1794,N,08038.1012,W,1,9,1.9,17,M,,M,,*51
06/02/2014	16:03:05.569	$GPGGA,160306,2438.1791,N,08038.1004,W,1,9,1.9,17,M,,M,,*50
06/02/2014	16:03:06.669	$GPGGA,160307,2438.1788,N,08038.0997,W,1,9,1.9,17,M,,M,,*5B
06/02/2014	16:03:07.569	$GPGGA,160308,2438.1785,N,08038.0990,W,1,9,1.9,17,M,,M,,*5E
06/02/2014	16:03:08.559	$GPGGA,160309,2438.1783,N,08038.0983,W,1,9,1.9,17,M,,M,,*5B
06/02/2014	16:03:09.539	$GPGGA,160310,2438.1778,N,08038.0976,W,1,9,2.2,17,M,,M,,*55
06/02/2014	16:03:10.539	$GPGGA,160311,2438.1774,N,08038.0968,W,1,9,1.9,17,M,,M,,*5F
06/02/2014	16:03:11.569	$GPGGA,160312,2438.1773,N,08038.0961,W,1,9,1.9,17,M,,M,,*52
06/02/2014	16:03:12.539	$GPGGA,160313,2438.1769,N,08038.0956,W,1,8,2.2,17,M,,M,,*55
06/02/2014	16:03:13.548	$GPGGA,160314,2438.1765,N,08038.0948,W,1,8,1.9,17,M,,M,,*59
06/02/2014	16:03:14.548	$GPGGA,160315,2438.1761,N,08038.0939,W,1,9,1.9,17,M,,M,,*5B
06/02/2014	16:03:15.548	$GPGGA,160316,2438.1758,N,08038.0933,W,1,9,1.9,17,M,,M,,*58
06/02/2014	16:03:16.528	$GPGGA,160317,2438.1756,N,08038.0926,W,1,9,1.9,17,M,,M,,*53
06/02/2014	16:03:17.648	$GPGGA,160318,2438.1752,N,08038.0918,W,1,9,1.9,17,M,,M,,*55
06/02/2014	16:03:18.538	$GPGGA,160319,2438.1747,N,08038.0911,W,1,9,1.9,17,M,,M,,*59
06/02/2014	16:03:19.628	$GPGGA,160320,2438.1743,N,08038.0905,W,1,9,1.9,17,M,,M,,*52
06/02/2014	16:03:20.628	$GPGGA,160321,2438.1740,N,08038.0898,W,1,9,1.9,17,M,,M,,*55
06/02/2014	16:03:21.618	$GPGGA,160322,2438.1737,N,08038.0889,W,1,9,1.9,17,M,,M,,*56
06/02/2014	16:03:22.628	$GPGGA,160323,2438.1733,N,08038.0884,W,1,9,1.9,17,M,,M,,*5E
06/02/2014	16:03:23.628	$GPGGA,160324,2438.1730,N,08038.0878,W,1,9,1.9,17,M,,M,,*59
06/02/2014	16:03:24.618	$GPGGA,160325,2438.1726,N,08038.0871,W,1,9,1.9,17,M,,M,,*56
06/02/2014	16:03:25.608	$GPGGA,160326,2438.1723,N,08038.0861,W,1,9,1.9,17,M,,M,,*51
06/02/2014	16:03:26.638	$GPGGA,160327,2438.1720,N,08038.0855,W,1,9,1.9,17,M,,M,,*54
06/02/2014	16:03:27.634	$GPGGA,160328,2438.1715,N,08038.0851,W,1,9,1.9,17,M,,M,,*59
06/02/2014	16:03:28.628	$GPGGA,160329,2438.1712,N,08038.0843,W,1,9,1.9,17,M,,M,,*5C
06/02/2014	16:03:29.609	$GPGGA,160330,2438.1709,N,08038.0832,W,1,9,1.9,17,M,,M,,*58
06/02/2014	16:03:30.597	$GPGGA,160331,2438.1705,N,08038.0827,W,1,9,1.9,17,M,,M,,*51
06/02/2014	16:03:31.617	$GPGGA,160332,2438.1702,N,08038.0825,W,1,9,1.9,17,M,,M,,*57
06/02/2014	16:03:32.617	$GPGGA,160333,2438.1698,N,08038.0819,W,1,9,1.9,17,M,,M,,*5B
06/02/2014	16:03:33.587	$GPGGA,160334,2438.1695,N,08038.0808,W,1,9,1.9,17,M,,M,,*51
06/02/2014	16:03:34.607	$GPGGA,160335,2438.1693,N,08038.0800,W,1,9,1.9,17,M,,M,,*5E
06/02/2014	16:03:35.607	$GPGGA,160336,2438.1689,N,08038.0797,W,1,9,1.9,17,M,,M,,*57
06/02/2014	16:03:36.607	$GPGGA,160337,2438.1685,N,08038.0790,W,1,9,1.9,17,M,,M,,*5D
06/02/2014	16:03:37.597	$GPGGA,160338,2438.1682,N,08038.0784,W,1,9,1.9,17,M,,M,,*50
06/02/2014	16:03:38.587	$GPGGA,160339,2438.1679,N,08038.0777,W,1,9,1.9,17,M,,M,,*59
06/02/2014	16:03:39.587	$GPGGA,160340,2438.1675,N,08038.0770,W,1,9,1.9,17,M,,M,,*5C
06/02/2014	16:03:40.577	$GPGGA,160341,2438.1672,N,08038.0763,W,1,9,1.9,17,M,,M,,*58
06/02/2014	16:03:41.577	$GPGGA,160342,2438.1667,N,08038.0758,W,1,9,2.2,17,M,,M,,*5F
06/02/2014	16:03:42.607	$GPGGA,160343,2438.1664,N,08038.0751,W,1,9,1.9,17,M,,M,,*5C
06/02/2014	16:03:43.587	$GPGGA,160344,2438.1660,N,08038.0742,W,1,9,1.9,17,M,,M,,*5D
06/02/2014	16:03:44.597	$GPGGA,160345,2438.1656,N,08038.0735,W,1,9,1.9,17,M,,M,,*59
06/02/2014	16:03:45.567	$GPGGA,160346,2438.1651,N,08038.0731,W,1,9,1.9,17,M,,M,,*59
06/02/2014	16:03:46.567	$GPGGA,160347,2438.1647,N,08038.0723,W,1,9,1.9,17,M,,M,,*5C
06/02/2014	16:03:47.576	$GPGGA,160348,2438.1644,N,08038.0714,W,1,9,1.9,17,M,,M,,*54
06/02/2014	16:03:48.586	$GPGGA,160349,2438.1642,N,08038.0706,W,1,9,1.9,17,M,,M,,*50
06/02/2014	16:03:49.566	$GPGGA,160350,2438.1636,N,08038.0700,W,1,9,1.9,17,M,,M,,*5D
06/02/2014	16:03:50.566	$GPGGA,160351,2438.1632,N,08038.0694,W,1,9,1.9,17,M,,M,,*54
06/02/2014	16:03:51.686	$GPGGA,160352,2438.1630,N,08038.0686,W,1,9,1.9,17,M,,M,,*56
06/02/2014	16:03:52.566	$GPGGA,160353,2438.1625,N,08038.0677,W,1,9,1.9,17,M,,M,,*5D
06/02/2014	16:03:53.566	$GPGGA,160354,2438.1621,N,08038.0669,W,1,9,1.9,17,M,,M,,*51
06/02/2014	16:03:54.546	$GPGGA,160355,2438.1619,N,08038.0663,W,1,8,1.9,17,M,,M,,*50
06/02/2014	16:03:55.576	$GPGGA,160356,2438.1615,N,08038.0656,W,1,8,1.9,17,M,,M,,*59
06/02/2014	16:03:56.566	$GPGGA,160357,2438.1611,N,08038.0649,W,1,9,1.9,17,M,,M,,*53
06/02/2014	16:03:57.536	$GPGGA,160358,2438.1608,N,08038.0642,W,1,9,1.9,17,M,,M,,*5F
06/02/2014	16:03:58.596	$GPGGA,160359,2438.1606,N,08038.0633,W,1,8,2.2,17,M,,M,,*5F
06/02/2014	16:03:59.566	$GPGGA,160400,2438.1602,N,08038.0623,W,1,8,2.3,17,M,,M,,*50
06/02/2014	16:04:00.527	$GPGGA,160401,2438.1599,N,08038.0618,W,1,7,2.3,17,M,,M,,*57
06/02/2014	16:04:01.546	$GPGGA,160402,2438.1597,N,08038.0614,W,1,7,2.2,17,M,,M,,*57
06/02/2014	16:04:02.656	$GPGGA,160403,2438.1595,N,08038.0603,W,1,8,2.2,17,M,,M,,*5D
06/02/2014	16:04:03.536	$GPGGA,160404,2438.1591,N,08038.0595,W,1,8,2.2,17,M,,M,,*52
06/02/2014	16:04:04.526	$GPGGA,160405,2438.1589,N,08038.0596,W,1,8,2.2,17,M,,M,,*59
06/02/2014	16:04:05.645	$GPGGA,160406,2438.1585,N,08038.0592,W,1,8,2.2,17,M,,M,,*52
06/02/2014	16:04:06.535	$GPGGA,160407,2438.1583,N,08038.0580,W,1,8,2.2,17,M,,M,,*56
06/02/2014	16:04:07.545	$GPGGA,160408,2438.1581,N,08038.0573,W,1,8,2.2,17,M,,M,,*57
06/02/2014	16:04:08.525	$GPGGA,160409,2438.1578,N,08038.0572,W,1,8,2.2,16,M,,M,,*50
06/02/2014	16:04:09.525	$GPGGA,160410,2438.1575,N,08038.0567,W,1,8,2.2,16,M,,M,,*51
06/02/2014	16:04:10.625	$GPGGA,160411,2438.1572,N,08038.0557,W,1,8,2.2,16,M,,M,,*54
06/02/2014	16:04:11.525	$GPGGA,160412,2438.1570,N,08038.0551,W,1,8,2.2,16,M,,M,,*53
06/02/2014	16:04:12.605	$GPGGA,160413,2438.1566,N,08038.0549,W,1,8,2.2,16,M,,M,,*5C
06/02/2014	16:04:13.635	$GPGGA,160414,2438.1563,N,08038.0544,W,1,8,2.2,16,M,,M,,*53
06/02/2014	16:04:14.606	$GPGGA,160415,2438.1561,N,08038.0534,W,1,8,2.2,16,M,,M,,*57
06/02/2014	16:04:15.615	$GPGGA,160416,2438.1557,N,08038.0529,W,1,8,2.2,16,M,,M,,*5D
06/02/2014	16:04:16.625	$GPGGA,160417,2438.1553,N,08038.0525,W,1,8,2.2,15,M,,M,,*57
06/02/2014	16:04:17.595	$GPGGA,160418,2438.1550,N,08038.0519,W,1,8,2.2,15,M,,M,,*54
06/02/2014	16:04:18.665	$GPGGA,160419,2438.1546,N,08038.0509,W,1,8,2.2,15,M,,M,,*53
06/02/2014	16:04:19.606	$GPGGA,160420,2438.1543,N,08038.0504,W,1,8,2.2,15,M,,M,,*51
06/02/2014	16:04:20.615	$GPGGA,160421,2438.1539,N,08038.0500,W,1,8,2.2,15,M,,M,,*59
06/02/2014	16:04:21.595	$GPGGA,160422,2438.1536,N,08038.0492,W,1,8,2.2,15,M,,M,,*5F
06/02/2014	16:04:22.604	$GPGGA,160423,2438.1534,N,08038.0480,W,1,8,2.2,15,M,,M,,*5F
06/02/2014	16:04:23.604	$GPGGA,160424,2438.1530,N,08038.0476,W,1,8,2.3,15,M,,M,,*54
06/02/2014	16:04:24.604	$GPGGA,160425,2438.1526,N,08038.0472,W,1,8,2.2,15,M,,M,,*57
06/02/2014	16:04:25.584	$GPGGA,160426,2438.1523,N,08038.0464,W,1,8,2.2,15,M,,M,,*56
06/02/2014	16:04:26.604	$GPGGA,160427,2438.1519,N,08038.0453,W,1,8,2.2,15,M,,M,,*5A
06/02/2014	16:04:27.584	$GPGGA,160428,2438.1516,N,08038.0445,W,1,8,2.3,15,M,,M,,*5C
06/02/2014	16:04:28.604	$GPGGA,160429,2438.1512,N,08038.0442,W,1,7,2.3,15,M,,M,,*51
06/02/2014	16:04:29.585	$GPGGA,160430,2438.1509,N,08038.0435,W,1,7,2.2,15,M,,M,,*52
06/02/2014	16:04:30.615	$GPGGA,160431,2438.1505,N,08038.0424,W,1,8,2.2,14,M,,M,,*51
06/02/2014	16:04:31.595	$GPGGA,160432,2438.1502,N,08038.0420,W,1,8,2.2,14,M,,M,,*51
06/02/2014	16:04:32.615	$GPGGA,160433,2438.1501,N,08038.0418,W,1,8,2.2,14,M,,M,,*58
06/02/2014	16:04:33.576	$GPGGA,160434,2438.1497,N,08038.0410,W,1,8,2.2,14,M,,M,,*59
06/02/2014	16:04:34.585	$GPGGA,160435,2438.1494,N,08038.0400,W,1,8,2.2,14,M,,M,,*5A
06/02/2014	16:04:35.585	$GPGGA,160436,2438.1491,N,08038.0396,W,1,8,2.2,14,M,,M,,*54
06/02/2014	16:04:36.565	$GPGGA,160437,2438.1488,N,08038.0390,W,1,8,2.2,14,M,,M,,*5B
06/02/2014	16:04:37.575	$GPGGA,160438,2438.1485,N,08038.0382,W,1,8,2.2,14,M,,M,,*5A
06/02/2014	16:04:38.575	$GPGGA,160439,2438.1483,N,08038.0375,W,1,8,2.2,14,M,,M,,*55
06/02/2014	16:04:39.575	$GPGGA,160440,2438.1478,N,08038.0368,W,1,8,2.2,15,M,,M,,*52
06/02/2014	16:04:40.594	$GPGGA,160441,2438.1476,N,08038.0362,W,1,8,2.2,15,M,,M,,*57
06/02/2014	16:04:41.564	$GPGGA,160442,2438.1474,N,08038.0354,W,1,8,2.2,15,M,,M,,*53
06/02/2014	16:04:42.584	$GPGGA,160443,2438.1469,N,08038.0345,W,1,8,2.2,15,M,,M,,*5E
06/02/2014	16:04:43.574	$GPGGA,160444,2438.1465,N,08038.0339,W,1,8,2.3,15,M,,M,,*5F
06/02/2014	16:04:44.544	$GPGGA,160445,2438.1463,N,08038.0333,W,1,8,2.2,15,M,,M,,*53
06/02/2014	16:04:45.664	$GPGGA,160446,2438.1459,N,08038.0324,W,1,8,2.2,15,M,,M,,*5F
06/02/2014	16:04:46.564	$GPGGA,160447,2438.1458,N,08038.0314,W,1,8,2.2,15,M,,M,,*5C
06/02/2014	16:04:47.564	$GPGGA,160448,2438.1454,N,08038.0311,W,1,8,2.2,15,M,,M,,*5A
06/02/2014	16:04:48.534	$GPGGA,160449,2438.1449,N,08038.0305,W,1,8,2.2,15,M,,M,,*52
06/02/2014	16:04:49.654	$GPGGA,160450,2438.1447,N,08038.0294,W,1,8,2.2,15,M,,M,,*5D
06/02/2014	16:04:50.535	$GPGGA,160451,2438.1443,N,08038.0285,W,1,8,2.2,15,M,,M,,*58
06/02/2014	16:04:51.664	$GPGGA,160452,2438.1440,N,08038.0282,W,1,8,2.3,15,M,,M,,*5E
06/02/2014	16:04:52.537	$GPGGA,160453,2438.1436,N,08038.0275,W,1,8,2.2,15,M,,M,,*57
06/02/2014	16:04:53.625	$GPGGA,160454,2438.1434,N,08038.0264,W,1,8,2.2,15,M,,M,,*52
06/02/2014	16:04:54.544	$GPGGA,160455,2438.1431,N,08038.0260,W,1,8,2.2,15,M,,M,,*52
06/02/2014	16:04:55.664	$GPGGA,160456,2438.1427,N,08038.0254,W,1,8,2.2,15,M,,M,,*51
06/02/2014	16:04:56.648	$GPGGA,160457,2438.1423,N,08038.0243,W,1,8,2.2,15,M,,M,,*52
06/02/2014	16:04:57.623	$GPGGA,160458,2438.1422,N,08038.0237,W,1,8,2.2,15,M,,M,,*5F
06/02/2014	16:04:58.623	$GPGGA,160459,2438.1418,N,08038.0233,W,1,8,2.2,15,M,,M,,*53
06/02/2014	16:04:59.673	$GPGGA,160500,2438.1414,N,08038.0224,W,1,8,2.2,15,M,,M,,*54
06/02/2014	16:05:00.613	$GPGGA,160501,2438.1412,N,08038.0214,W,1,8,2.2,15,M,,M,,*50
06/02/2014	16:05:01.623	$GPGGA,160502,2438.1409,N,08038.0208,W,1,8,2.2,15,M,,M,,*54
06/02/2014	16:05:02.643	$GPGGA,160503,2438.1407,N,08038.0201,W,1,8,2.2,15,M,,M,,*52
06/02/2014	16:05:03.613	$GPGGA,160504,2438.1404,N,08038.0193,W,1,8,2.3,15,M,,M,,*5F
06/02/2014	16:05:04.613	$GPGGA,160505,2438.1401,N,08038.0183,W,1,8,1.9,15,M,,M,,*53
06/02/2014	16:05:05.603	$GPGGA,160506,2438.1398,N,08038.0175,W,1,8,2.0,15,M,,M,,*54
06/02/2014	16:05:06.613	$GPGGA,160507,2438.1395,N,08038.0167,W,1,7,2.0,15,M,,M,,*54
06/02/2014	16:05:07.613	$GPGGA,160508,2438.1393,N,08038.0161,W,1,7,1.9,15,M,,M,,*51
06/02/2014	16:05:08.613	$GPGGA,160509,2438.1390,N,08038.0155,W,1,8,1.9,15,M,,M,,*5B
06/02/2014	16:05:09.603	$GPGGA,160510,2438.1386,N,08038.0148,W,1,8,1.9,15,M,,M,,*58
06/02/2014	16:05:10.613	$GPGGA,160511,2438.1383,N,08038.0136,W,1,8,1.9,15,M,,M,,*55
06/02/2014	16:05:11.603	$GPGGA,160512,2438.1379,N,08038.0131,W,1,8,2.0,15,M,,M,,*5E
06/02/2014	16:05:12.613	$GPGGA,160513,2438.1376,N,08038.0127,W,1,8,1.9,15,M,,M,,*5D
06/02/2014	16:05:13.593	$GPGGA,160514,2438.1375,N,08038.0119,W,1,8,1.9,15,M,,M,,*54
06/02/2014	16:05:14.613	$GPGGA,160515,2438.1371,N,08038.0108,W,1,8,1.9,15,M,,M,,*51
06/02/2014	16:05:15.592	$GPGGA,160516,2438.1367,N,08038.0102,W,1,8,1.9,16,M,,M,,*5C
06/02/2014	16:05:16.572	$GPGGA,160517,2438.1364,N,08038.0099,W,1,8,1.9,16,M,,M,,*5D
06/02/2014	16:05:17.592	$GPGGA,160518,2438.1360,N,08038.0093,W,1,8,1.9,16,M,,M,,*5C
06/02/2014	16:05:18.612	$GPGGA,160519,2438.1357,N,08038.0081,W,1,8,1.9,16,M,,M,,*5A
06/02/2014	16:05:19.582	$GPGGA,160520,2438.1353,N,08038.0074,W,1,8,1.9,16,M,,M,,*5E
06/02/2014	16:05:20.982	$GPGGA,160521,2438.1350,N,08038.0071,W,1,8,1.9,16,M,,M,,*59
06/02/2014	16:05:21.572	$GPGGA,160522,2438.1348,N,08038.0064,W,1,8,1.9,16,M,,M,,*57
06/02/2014	16:05:22.612	$GPGGA,160523,2438.1344,N,08038.0056,W,1,8,1.9,16,M,,M,,*5B
06/02/2014	16:05:23.592	$GPGGA,160524,2438.1340,N,08038.0049,W,1,8,1.9,16,M,,M,,*56
06/02/2014	16:05:24.582	$GPGGA,160525,2438.1336,N,08038.0042,W,1,8,1.9,17,M,,M,,*5C
06/02/2014	16:05:25.572	$GPGGA,160526,2438.1332,N,08038.0037,W,1,8,1.9,17,M,,M,,*59
06/02/2014	16:05:26.562	$GPGGA,160527,2438.1330,N,08038.0030,W,1,8,1.9,17,M,,M,,*5D
06/02/2014	16:05:27.582	$GPGGA,160528,2438.1328,N,08038.0021,W,1,8,1.9,17,M,,M,,*5B
06/02/2014	16:05:28.563	$GPGGA,160529,2438.1324,N,08038.0014,W,1,8,1.9,17,M,,M,,*50
06/02/2014	16:05:29.582	$GPGGA,160530,2438.1318,N,08038.0011,W,1,8,1.9,17,M,,M,,*52
06/02/2014	16:05:30.572	$GPGGA,160531,2438.1314,N,08038.0004,W,1,8,2.2,17,M,,M,,*53
06/02/2014	16:05:31.572	$GPGGA,160532,2438.1311,N,08037.9994,W,1,8,1.9,17,M,,M,,*5B
06/02/2014	16:05:32.541	$GPGGA,160533,2438.1310,N,08037.9988,W,1,8,1.9,17,M,,M,,*56
06/02/2014	16:05:33.561	$GPGGA,160534,2438.1307,N,08037.9983,W,1,8,1.9,17,M,,M,,*5C
06/02/2014	16:05:34.561	$GPGGA,160535,2438.1304,N,08037.9975,W,1,8,1.9,17,M,,M,,*57
06/02/2014	16:05:35.671	$GPGGA,160536,2438.1300,N,08037.9967,W,1,8,1.9,17,M,,M,,*53
06/02/2014	16:05:36.551	$GPGGA,160537,2438.1297,N,08037.9962,W,1,8,1.9,17,M,,M,,*58
06/02/2014	16:05:37.631	$GPGGA,160538,2438.1294,N,08037.9955,W,1,8,1.9,18,M,,M,,*5F
06/02/2014	16:05:38.661	$GPGGA,160539,2438.1290,N,08037.9947,W,1,8,1.9,18,M,,M,,*59
06/02/2014	16:05:39.551	$GPGGA,160540,2438.1288,N,08037.9941,W,1,8,1.9,18,M,,M,,*58
06/02/2014	16:05:40.541	$GPGGA,160541,2438.1283,N,08037.9935,W,1,8,1.9,18,M,,M,,*51
06/02/2014	16:05:41.621	$GPGGA,160542,2438.1281,N,08037.9927,W,1,8,1.9,18,M,,M,,*53
06/02/2014	16:05:42.661	$GPGGA,160543,2438.1278,N,08037.9917,W,1,8,1.9,18,M,,M,,*57
06/02/2014	16:05:43.641	$GPGGA,160544,2438.1274,N,08037.9911,W,1,8,1.9,18,M,,M,,*5A
06/02/2014	16:05:44.531	$GPGGA,160545,2438.1270,N,08037.9907,W,1,8,1.9,18,M,,M,,*58
06/02/2014	16:05:45.621	$GPGGA,160546,2438.1266,N,08037.9900,W,1,8,1.9,18,M,,M,,*5B
06/02/2014	16:05:46.633	$GPGGA,160547,2438.1264,N,08037.9890,W,1,9,1.9,18,M,,M,,*51
06/02/2014	16:05:47.631	$GPGGA,160548,2438.1259,N,08037.9882,W,1,9,1.9,18,M,,M,,*53
06/02/2014	16:05:48.651	$GPGGA,160549,2438.1255,N,08037.9878,W,1,9,1.9,18,M,,M,,*5B
06/02/2014	16:05:49.621	$GPGGA,160550,2438.1252,N,08037.9871,W,1,9,1.9,18,M,,M,,*5D
06/02/2014	16:05:50.620	$GPGGA,160551,2438.1249,N,08037.9863,W,1,9,1.9,18,M,,M,,*55
06/02/2014	16:05:51.620	$GPGGA,160552,2438.1245,N,08037.9857,W,1,9,1.9,18,M,,M,,*5D
06/02/2014	16:05:52.620	$GPGGA,160553,2438.1241,N,08037.9850,W,1,9,1.9,18,M,,M,,*5F
06/02/2014	16:05:53.600	$GPGGA,160554,2438.1236,N,08037.9842,W,1,9,1.9,18,M,,M,,*5B
06/02/2014	16:05:54.630	$GPGGA,160555,2438.1235,N,08037.9837,W,1,9,1.9,18,M,,M,,*5B
06/02/2014	16:05:55.610	$GPGGA,160556,2438.1231,N,08037.9832,W,1,9,1.9,18,M,,M,,*59
06/02/2014	16:05:56.620	$GPGGA,160557,2438.1225,N,08037.9823,W,1,9,1.9,18,M,,M,,*5D
06/02/2014	16:05:57.590	$GPGGA,160558,2438.1223,N,08037.9816,W,1,9,1.9,18,M,,M,,*52
06/02/2014	16:05:58.600	$GPGGA,160559,2438.1220,N,08037.9813,W,1,9,1.9,18,M,,M,,*55
06/02/2014	16:05:59.620	$GPGGA,160600,2438.1217,N,08037.9806,W,1,9,1.9,18,M,,M,,*5A
06/02/2014	16:06:00.580	$GPGGA,160601,2438.1214,N,08037.9797,W,1,9,1.9,18,M,,M,,*5F
06/02/2014	16:06:01.600	$GPGGA,160602,2438.1210,N,08037.9791,W,1,9,1.9,18,M,,M,,*5E
06/02/2014	16:06:02.620	$GPGGA,160603,2438.1209,N,08037.9787,W,1,9,1.9,18,M,,M,,*50
06/02/2014	16:06:03.600	$GPGGA,160604,2438.1206,N,08037.9781,W,1,9,1.9,18,M,,M,,*5E
06/02/2014	16:06:04.600	$GPGGA,160605,2438.1202,N,08037.9772,W,1,9,1.9,18,M,,M,,*57
06/02/2014	16:06:05.580	$GPGGA,160606,2438.1198,N,08037.9765,W,1,9,1.9,18,M,,M,,*52
06/02/2014	16:06:06.590	$GPGGA,160607,2438.1198,N,08037.9762,W,1,9,1.9,18,M,,M,,*54
06/02/2014	16:06:07.599	$GPGGA,160608,2438.1195,N,08037.9757,W,1,9,1.9,18,M,,M,,*50
06/02/2014	16:06:08.599	$GPGGA,160609,2438.1191,N,08037.9748,W,1,9,1.9,18,M,,M,,*5B
06/02/2014	16:06:09.559	$GPGGA,160610,2438.1188,N,08037.9740,W,1,9,1.9,18,M,,M,,*53
06/02/2014	16:06:10.599	$GPGGA,160611,2438.1185,N,08037.9736,W,1,9,1.9,18,M,,M,,*5E
06/02/2014	16:06:11.589	$GPGGA,160612,2438.1181,N,08037.9730,W,1,9,1.9,18,M,,M,,*5F
06/02/2014	16:06:12.599	$GPGGA,160613,2438.1180,N,08037.9722,W,1,9,1.9,18,M,,M,,*5C
06/02/2014	16:06:13.569	$GPGGA,160614,2438.1178,N,08037.9715,W,1,9,1.9,18,M,,M,,*58
06/02/2014	16:06:14.589	$GPGGA,160615,2438.1174,N,08037.9709,W,1,9,1.9,18,M,,M,,*58
06/02/2014	16:06:15.579	$GPGGA,160616,2438.1171,N,08037.9702,W,1,9,1.9,18,M,,M,,*55
06/02/2014	16:06:16.559	$GPGGA,160617,2438.1169,N,08037.9696,W,1,9,1.9,18,M,,M,,*51
06/02/2014	16:06:17.559	$GPGGA,160618,2438.1165,N,08037.9688,W,1,9,1.9,18,M,,M,,*5D
06/02/2014	16:06:18.549	$GPGGA,160619,2438.1163,N,08037.9683,W,1,9,1.9,18,M,,M,,*51
06/02/2014	16:06:19.589	$GPGGA,160620,2438.1160,N,08037.9676,W,1,9,1.9,18,M,,M,,*52
06/02/2014	16:06:20.569	$GPGGA,160621,2438.1156,N,08037.9667,W,1,9,1.9,18,M,,M,,*56
06/02/2014	16:06:21.559	$GPGGA,160622,2438.1154,N,08037.9660,W,1,9,1.9,18,M,,M,,*50
06/02/2014	16:06:22.549	$GPGGA,160623,2438.1151,N,08037.9656,W,1,9,1.9,18,M,,M,,*51
06/02/2014	16:06:23.669	$GPGGA,160624,2438.1147,N,08037.9648,W,1,9,1.9,18,M,,M,,*5E
06/02/2014	16:06:24.539	$GPGGA,160625,2438.1144,N,08037.9639,W,1,9,2.0,17,M,,M,,*5F
06/02/2014	16:06:25.558	$GPGGA,160626,2438.1141,N,08037.9634,W,1,9,1.9,17,M,,M,,*5E
06/02/2014	16:06:26.628	$GPGGA,160627,2438.1138,N,08037.9629,W,1,9,1.9,17,M,,M,,*5D
06/02/2014	16:06:27.568	$GPGGA,160628,2438.1136,N,08037.9624,W,1,9,1.9,17,M,,M,,*51
06/02/2014	16:06:28.548	$GPGGA,160629,2438.1133,N,08037.9614,W,1,9,1.9,17,M,,M,,*56
06/02/2014	16:06:29.618	$GPGGA,160630,2438.1130,N,08037.9607,W,1,9,1.9,17,M,,M,,*5F
06/02/2014	16:06:30.628	$GPGGA,160631,2438.1126,N,08037.9604,W,1,9,1.9,17,M,,M,,*5A
06/02/2014	16:06:31.568	$GPGGA,160632,2438.1123,N,08037.9598,W,1,9,1.9,17,M,,M,,*5A
06/02/2014	16:06:32.658	$GPGGA,160633,2438.1120,N,08037.9588,W,1,9,1.9,17,M,,M,,*59
06/02/2014	16:06:33.608	$GPGGA,160634,2438.1117,N,08037.9582,W,1,9,1.9,17,M,,M,,*50
06/02/2014	16:06:34.628	$GPGGA,160635,2438.1115,N,08037.9578,W,1,9,1.9,17,M,,M,,*56
06/02/2014	16:06:35.628	$GPGGA,160636,2438.1111,N,08037.9574,W,1,9,1.9,17,M,,M,,*5D
06/02/2014	16:06:36.638	$GPGGA,160637,2438.1108,N,08037.9567,W,1,9,1.9,17,M,,M,,*56
06/02/2014	16:06:37.608	$GPGGA,160638,2438.1105,N,08037.9557,W,1,9,1.9,17,M,,M,,*57
06/02/2014	16:06:38.619	$GPGGA,160639,2438.1100,N,08037.9552,W,1,9,1.9,17,M,,M,,*56
06/02/2014	16:06:39.618	$GPGGA,160640,2438.1098,N,08037.9550,W,1,9,1.9,17,M,,M,,*5A
06/02/2014	16:06:40.628	$GPGGA,160641,2438.1097,N,08037.9545,W,1,9,1.9,17,M,,M,,*50
06/02/2014	16:06:41.598	$GPGGA,160642,2438.1093,N,08037.9536,W,1,9,1.9,17,M,,M,,*53
06/02/2014	16:06:43.928	$GPGGA,160644,2438.1086,N,08037.9527,W,1,9,1.9,17,M,,M,,*51
06/02/2014	16:06:44.607	$GPGGA,160645,2438.1083,N,08037.9521,W,1,9,1.9,17,M,,M,,*53
06/02/2014	16:06:45.587	$GPGGA,160646,2438.1082,N,08037.9512,W,1,9,1.9,17,M,,M,,*51
06/02/2014	16:06:46.587	$GPGGA,160647,2438.1077,N,08037.9506,W,1,9,1.9,17,M,,M,,*5F
06/02/2014	16:06:47.608	$GPGGA,160648,2438.1075,N,08037.9502,W,1,9,1.9,17,M,,M,,*56
06/02/2014	16:06:48.607	$GPGGA,160649,2438.1072,N,08037.9496,W,1,9,1.9,17,M,,M,,*5C
06/02/2014	16:06:49.577	$GPGGA,160650,2438.1069,N,08037.9489,W,1,9,1.9,17,M,,M,,*50
06/02/2014	16:06:50.577	$GPGGA,160651,2438.1066,N,08037.9482,W,1,9,1.9,17,M,,M,,*55
06/02/2014	16:06:51.587	$GPGGA,160652,2438.1064,N,08037.9477,W,1,9,1.9,17,M,,M,,*5E
06/02/2014	16:06:52.607	$GPGGA,160653,2438.1060,N,08037.9472,W,1,9,1.9,17,M,,M,,*5E
06/02/2014	16:06:53.587	$GPGGA,160654,2438.1057,N,08037.9465,W,1,9,1.9,17,M,,M,,*5B
06/02/2014	16:06:54.567	$GPGGA,160655,2438.1055,N,08037.9459,W,1,9,1.9,17,M,,M,,*57
06/02/2014	16:06:55.597	$GPGGA,160656,2438.1051,N,08037.9452,W,1,9,1.9,17,M,,M,,*5B
06/02/2014	16:06:56.587	$GPGGA,160657,2438.1047,N,08037.9445,W,1,9,1.9,17,M,,M,,*5B
06/02/2014	16:06:57.577	$GPGGA,160658,2438.1046,N,08037.9441,W,1,9,1.9,17,M,,M,,*51
06/02/2014	16:06:58.567	$GPGGA,160659,2438.1042,N,08037.9435,W,1,9,1.9,17,M,,M,,*57
06/02/2014	16:06:59.587	$GPGGA,160700,2438.1039,N,08037.9427,W,1,9,1.9,17,M,,M,,*55
06/02/2014	16:07:00.576	$GPGGA,160701,2438.1035,N,08037.9421,W,1,9,1.9,17,M,,M,,*5E
06/02/2014	16:07:01.557	$GPGGA,160702,2438.1032,N,08037.9416,W,1,9,1.9,17,M,,M,,*5E
06/02/2014	16:07:02.556	$GPGGA,160703,2438.1029,N,08037.9409,W,1,9,1.9,17,M,,M,,*5B
06/02/2014	16:07:03.556	$GPGGA,160704,2438.1026,N,08037.9403,W,1,9,1.9,17,M,,M,,*59
06/02/2014	16:07:04.566	$GPGGA,160705,2438.1022,N,08037.9397,W,1,9,1.9,17,M,,M,,*56
06/02/2014	16:07:05.538	$GPGGA,160706,2438.1019,N,08037.9390,W,1,9,1.9,17,M,,M,,*5A
06/02/2014	16:07:06.546	$GPGGA,160707,2438.1015,N,08037.9383,W,1,9,1.9,17,M,,M,,*55
06/02/2014	16:07:07.566	$GPGGA,160708,2438.1011,N,08037.9377,W,1,9,1.9,17,M,,M,,*55
06/02/2014	16:07:08.556	$GPGGA,160709,2438.1006,N,08037.9371,W,1,9,1.9,17,M,,M,,*54
06/02/2014	16:07:09.536	$GPGGA,160710,2438.1003,N,08037.9365,W,1,9,1.9,17,M,,M,,*5C
06/02/2014	16:07:10.536	$GPGGA,160711,2438.0999,N,08037.9357,W,1,9,1.9,17,M,,M,,*57
06/02/2014	16:07:11.546	$GPGGA,160712,2438.0995,N,08037.9351,W,1,9,1.9,17,M,,M,,*5E
06/02/2014	16:07:12.546	$GPGGA,160713,2438.0992,N,08037.9343,W,1,9,1.9,17,M,,M,,*5B
06/02/2014	16:07:13.626	$GPGGA,160714,2438.0988,N,08037.9337,W,1,9,1.9,17,M,,M,,*54
06/02/2014	16:07:14.526	$GPGGA,160715,2438.0984,N,08037.9333,W,1,9,1.9,16,M,,M,,*5C
06/02/2014	16:07:15.546	$GPGGA,160716,2438.0979,N,08037.9326,W,1,9,2.2,16,M,,M,,*51
06/02/2014	16:07:16.537	$GPGGA,160717,2438.0975,N,08037.9317,W,1,9,1.9,16,M,,M,,*56
06/02/2014	16:07:17.525	$GPGGA,160718,2438.0974,N,08037.9309,W,1,9,1.9,16,M,,M,,*57
06/02/2014	16:07:18.655	$GPGGA,160719,2438.0970,N,08037.9304,W,1,9,1.9,16,M,,M,,*5F
06/02/2014	16:07:19.635	$GPGGA,160720,2438.0966,N,08037.9297,W,1,9,1.9,16,M,,M,,*59
06/02/2014	16:07:20.615	$GPGGA,160721,2438.0963,N,08037.9289,W,1,9,1.9,16,M,,M,,*52
06/02/2014	16:07:21.615	$GPGGA,160722,2438.0958,N,08037.9281,W,1,9,1.9,16,M,,M,,*51
06/02/2014	16:07:22.635	$GPGGA,160723,2438.0956,N,08037.9274,W,1,9,1.9,16,M,,M,,*54
06/02/2014	16:07:23.625	$GPGGA,160724,2438.0952,N,08037.9267,W,1,9,1.9,16,M,,M,,*55
06/02/2014	16:07:24.635	$GPGGA,160725,2438.0948,N,08037.9259,W,1,9,1.9,16,M,,M,,*52
06/02/2014	16:07:25.605	$GPGGA,160726,2438.0945,N,08037.9253,W,1,9,1.9,16,M,,M,,*56
06/02/2014	16:07:26.615	$GPGGA,160727,2438.0941,N,08037.9246,W,1,9,1.9,16,M,,M,,*57
06/02/2014	16:07:27.625	$GPGGA,160728,2438.0938,N,08037.9237,W,1,9,2.2,16,M,,M,,*58
06/02/2014	16:07:28.625	$GPGGA,160729,2438.0934,N,08037.9230,W,1,9,1.9,16,M,,M,,*5A
06/02/2014	16:07:29.595	$GPGGA,160730,2438.0930,N,08037.9224,W,1,9,1.9,16,M,,M,,*53
06/02/2014	16:07:30.595	$GPGGA,160731,2438.0927,N,08037.9217,W,1,9,1.9,16,M,,M,,*54
06/02/2014	16:07:31.605	$GPGGA,160732,2438.0923,N,08037.9208,W,1,9,1.9,16,M,,M,,*5D
06/02/2014	16:07:32.585	$GPGGA,160733,2438.0920,N,08037.9201,W,1,9,1.9,16,M,,M,,*56
06/02/2014	16:07:33.597	$GPGGA,160734,2438.0916,N,08037.9194,W,1,9,1.9,16,M,,M,,*5B
06/02/2014	16:07:34.585	$GPGGA,160735,2438.0912,N,08037.9187,W,1,9,1.9,16,M,,M,,*5C
06/02/2014	16:07:35.614	$GPGGA,160736,2438.0909,N,08037.9179,W,1,9,1.9,16,M,,M,,*54
06/02/2014	16:07:36.604	$GPGGA,160737,2438.0905,N,08037.9172,W,1,9,1.9,16,M,,M,,*52
06/02/2014	16:07:37.585	$GPGGA,160738,2438.0901,N,08037.9166,W,1,9,1.9,16,M,,M,,*5C
06/02/2014	16:07:38.574	$GPGGA,160739,2438.0898,N,08037.9159,W,1,9,1.9,16,M,,M,,*50
06/02/2014	16:07:39.594	$GPGGA,160740,2438.0894,N,08037.9150,W,1,9,1.9,16,M,,M,,*5B
06/02/2014	16:07:40.614	$GPGGA,160741,2438.0891,N,08037.9143,W,1,9,1.9,16,M,,M,,*5D
06/02/2014	16:07:41.564	$GPGGA,160742,2438.0885,N,08037.9138,W,1,9,1.9,16,M,,M,,*57
06/02/2014	16:07:42.584	$GPGGA,160743,2438.0882,N,08037.9133,W,1,9,1.9,16,M,,M,,*5A
06/02/2014	16:07:43.594	$GPGGA,160744,2438.0880,N,08037.9125,W,1,9,1.9,17,M,,M,,*59
06/02/2014	16:07:44.564	$GPGGA,160745,2438.0874,N,08037.9115,W,1,9,1.9,17,M,,M,,*50
06/02/2014	16:07:45.574	$GPGGA,160746,2438.0870,N,08037.9110,W,1,9,1.9,17,M,,M,,*52
06/02/2014	16:07:46.594	$GPGGA,160747,2438.0866,N,08037.9106,W,1,9,1.9,17,M,,M,,*53
06/02/2014	16:07:47.575	$GPGGA,160748,2438.0862,N,08037.9100,W,1,9,1.9,17,M,,M,,*5E
06/02/2014	16:07:48.585	$GPGGA,160749,2438.0858,N,08037.9091,W,1,9,1.9,17,M,,M,,*5F
06/02/2014	16:07:49.574	$GPGGA,160750,2438.0854,N,08037.9083,W,1,9,1.9,17,M,,M,,*58
06/02/2014	16:07:50.575	$GPGGA,160751,2438.0851,N,08037.9079,W,1,9,1.9,17,M,,M,,*59
06/02/2014	16:07:51.575	$GPGGA,160752,2438.0847,N,08037.9075,W,1,9,1.9,17,M,,M,,*51
06/02/2014	16:07:52.663	$GPGGA,160753,2438.0844,N,08037.9067,W,1,9,1.9,17,M,,M,,*50
06/02/2014	16:07:53.553	$GPGGA,160754,2438.0840,N,08037.9057,W,1,9,1.9,17,M,,M,,*50
06/02/2014	16:07:54.673	$GPGGA,160755,2438.0835,N,08037.9052,W,1,8,2.0,17,M,,M,,*5D
06/02/2014	16:07:55.553	$GPGGA,160756,2438.0834,N,08037.9049,W,1,8,2.0,17,M,,M,,*55
06/02/2014	16:07:56.533	$GPGGA,160757,2438.0830,N,08037.9041,W,1,9,1.9,17,M,,M,,*53
06/02/2014	16:07:57.663	$GPGGA,160758,2438.0826,N,08037.9032,W,1,9,1.9,17,M,,M,,*5F
06/02/2014	16:07:58.623	$GPGGA,160759,2438.0823,N,08037.9028,W,1,9,1.9,17,M,,M,,*50
06/02/2014	16:07:59.653	$GPGGA,160800,2438.0820,N,08037.9025,W,1,9,1.9,17,M,,M,,*5D
06/02/2014	16:08:00.663	$GPGGA,160801,2438.0817,N,08037.9019,W,1,9,1.9,17,M,,M,,*57
06/02/2014	16:08:01.543	$GPGGA,160802,2438.0815,N,08037.9009,W,1,9,1.9,17,M,,M,,*57
06/02/2014	16:08:02.623	$GPGGA,160803,2438.0811,N,08037.9006,W,1,9,1.9,17,M,,M,,*5D
06/02/2014	16:08:03.543	$GPGGA,160804,2438.0808,N,08037.9004,W,1,9,1.9,17,M,,M,,*50
06/02/2014	16:08:04.533	$GPGGA,160805,2438.0805,N,08037.8996,W,1,9,1.9,17,M,,M,,*5F
06/02/2014	16:08:05.624	$GPGGA,160806,2438.0802,N,08037.8986,W,1,9,1.9,17,M,,M,,*5A
06/02/2014	16:08:06.523	$GPGGA,160807,2438.0799,N,08037.8985,W,1,9,1.9,17,M,,M,,*55
06/02/2014	16:08:07.624	$GPGGA,160808,2438.0797,N,08037.8981,W,1,9,1.9,17,M,,M,,*50
06/02/2014	16:08:08.633	$GPGGA,160809,2438.0794,N,08037.8971,W,1,9,1.9,17,M,,M,,*5D
06/02/2014	16:08:09.614	$GPGGA,160810,2438.0793,N,08037.8964,W,1,9,1.9,17,M,,M,,*56
06/02/2014	16:08:10.632	$GPGGA,160811,2438.0791,N,08037.8963,W,1,9,1.9,17,M,,M,,*52
06/02/2014	16:08:11.622	$GPGGA,160812,2438.0787,N,08037.8959,W,1,9,1.9,17,M,,M,,*5F
06/02/2014	16:08:12.602	$GPGGA,160813,2438.0784,N,08037.8949,W,1,9,1.9,17,M,,M,,*5C
06/02/2014	16:08:13.602	$GPGGA,160814,2438.0782,N,08037.8943,W,1,9,1.9,17,M,,M,,*57
06/02/2014	16:08:14.612	$GPGGA,160815,2438.0780,N,08037.8940,W,1,9,1.9,17,M,,M,,*57
06/02/2014	16:08:15.602	$GPGGA,160816,2438.0777,N,08037.8935,W,1,9,1.9,17,M,,M,,*5E
06/02/2014	16:08:16.613	$GPGGA,160817,2438.0775,N,08037.8926,W,1,9,1.9,17,M,,M,,*5F
06/02/2014	16:08:17.592	$GPGGA,160818,2438.0771,N,08037.8919,W,1,9,1.9,17,M,,M,,*58
06/02/2014	16:08:18.612	$GPGGA,160819,2438.0768,N,08037.8916,W,1,9,1.9,17,M,,M,,*5E
06/02/2014	16:08:19.602	$GPGGA,160820,2438.0766,N,08037.8911,W,1,9,1.9,18,M,,M,,*52
06/02/2014	16:08:20.602	$GPGGA,160821,2438.0764,N,08037.8902,W,1,9,1.9,18,M,,M,,*53
06/02/2014	16:08:21.592	$GPGGA,160822,2438.0760,N,08037.8895,W,1,9,1.9,18,M,,M,,*5B
06/02/2014	16:08:22.602	$GPGGA,160823,2438.0758,N,08037.8891,W,1,9,1.9,18,M,,M,,*55
06/02/2014	16:08:23.592	$GPGGA,160824,2438.0755,N,08037.8886,W,1,9,1.9,18,M,,M,,*59
06/02/2014	16:08:24.612	$GPGGA,160825,2438.0751,N,08037.8879,W,1,9,1.9,18,M,,M,,*5C
06/02/2014	16:08:25.583	$GPGGA,160826,2438.0748,N,08037.8872,W,1,9,1.9,18,M,,M,,*5C
06/02/2014	16:08:26.602	$GPGGA,160827,2438.0747,N,08037.8867,W,1,9,1.9,18,M,,M,,*56
06/02/2014	16:08:27.581	$GPGGA,160828,2438.0746,N,08037.8861,W,1,9,1.9,18,M,,M,,*5E
06/02/2014	16:08:28.611	$GPGGA,160829,2438.0741,N,08037.8853,W,1,9,1.9,18,M,,M,,*59
06/02/2014	16:08:29.561	$GPGGA,160830,2438.0739,N,08037.8846,W,1,9,1.9,18,M,,M,,*5A
06/02/2014	16:08:30.561	$GPGGA,160831,2438.0735,N,08037.8841,W,1,9,1.9,18,M,,M,,*50
06/02/2014	16:08:31.581	$GPGGA,160832,2438.0733,N,08037.8835,W,1,9,1.9,18,M,,M,,*56
06/02/2014	16:08:32.601	$GPGGA,160833,2438.0730,N,08037.8827,W,1,9,1.9,18,M,,M,,*57
06/02/2014	16:08:33.561	$GPGGA,160834,2438.0728,N,08037.8822,W,1,9,1.9,18,M,,M,,*5C
06/02/2014	16:08:34.581	$GPGGA,160835,2438.0723,N,08037.8816,W,1,9,1.9,18,M,,M,,*51
06/02/2014	16:08:35.561	$GPGGA,160836,2438.0721,N,08037.8807,W,1,9,1.9,18,M,,M,,*50
06/02/2014	16:08:36.561	$GPGGA,160837,2438.0719,N,08037.8799,W,1,9,1.9,18,M,,M,,*52
06/02/2014	16:08:37.561	$GPGGA,160838,2438.0715,N,08037.8796,W,1,9,1.9,18,M,,M,,*5E
06/02/2014	16:08:38.581	$GPGGA,160839,2438.0711,N,08037.8791,W,1,9,1.9,18,M,,M,,*5C
06/02/2014	16:08:39.581	$GPGGA,160840,2438.0710,N,08037.8780,W,1,9,1.9,18,M,,M,,*53
06/02/2014	16:08:40.541	$GPGGA,160841,2438.0706,N,08037.8772,W,1,8,2.0,18,M,,M,,*53
06/02/2014	16:08:41.551	$GPGGA,160842,2438.0703,N,08037.8769,W,1,8,1.9,18,M,,M,,*55
06/02/2014	16:08:42.641	$GPGGA,160843,2438.0700,N,08037.8764,W,1,9,1.9,18,M,,M,,*5B
06/02/2014	16:08:43.541	$GPGGA,160844,2438.0699,N,08037.8757,W,1,9,1.9,18,M,,M,,*5D
06/02/2014	16:08:44.571	$GPGGA,160845,2438.0695,N,08037.8749,W,1,9,1.9,18,M,,M,,*5F
06/02/2014	16:08:45.670	$GPGGA,160846,2438.0692,N,08037.8742,W,1,9,1.9,18,M,,M,,*50
06/02/2014	16:08:46.721	$GPGGA,160847,2438.0688,N,08037.8737,W,1,8,1.9,18,M,,M,,*59
06/02/2014	16:08:47.680	$GPGGA,160848,2438.0685,N,08037.8732,W,1,8,1.9,18,M,,M,,*5E
06/02/2014	16:08:48.730	$GPGGA,160849,2438.0683,N,08037.8724,W,1,9,1.9,18,M,,M,,*5F
06/02/2014	16:08:49.520	$GPGGA,160850,2438.0681,N,08037.8718,W,1,9,1.9,18,M,,M,,*5A
06/02/2014	16:08:50.720	$GPGGA,160851,2438.0678,N,08037.8711,W,1,9,1.9,18,M,,M,,*54
06/02/2014	16:08:51.660	$GPGGA,160852,2438.0674,N,08037.8704,W,1,9,1.9,18,M,,M,,*5F
06/02/2014	16:08:52.620	$GPGGA,160853,2438.0671,N,08037.8699,W,1,9,1.9,18,M,,M,,*5E
06/02/2014	16:08:53.611	$GPGGA,160854,2438.0668,N,08037.8694,W,1,9,1.9,18,M,,M,,*5C
06/02/2014	16:08:54.720	$GPGGA,160855,2438.0667,N,08037.8686,W,1,9,1.9,18,M,,M,,*51
06/02/2014	16:08:55.680	$GPGGA,160856,2438.0664,N,08037.8678,W,1,9,1.9,18,M,,M,,*50
06/02/2014	16:08:56.710	$GPGGA,160857,2438.0661,N,08037.8674,W,1,9,1.9,18,M,,M,,*58
06/02/2014	16:08:57.660	$GPGGA,160858,2438.0658,N,08037.8669,W,1,9,1.9,18,M,,M,,*51
06/02/2014	16:08:58.730	$GPGGA,160859,2438.0654,N,08037.8663,W,1,9,1.9,18,M,,M,,*56
06/02/2014	16:08:59.650	$GPGGA,160900,2438.0652,N,08037.8655,W,1,9,1.9,18,M,,M,,*58
06/02/2014	16:09:00.680	$GPGGA,160901,2438.0649,N,08037.8649,W,1,9,1.9,18,M,,M,,*5E
06/02/2014	16:09:01.620	$GPGGA,160902,2438.0646,N,08037.8643,W,1,9,1.9,18,M,,M,,*58
06/02/2014	16:09:02.699	$GPGGA,160903,2438.0643,N,08037.8639,W,1,9,1.9,17,M,,M,,*5E
06/02/2014	16:09:03.639	$GPGGA,160904,2438.0641,N,08037.8632,W,1,9,1.9,17,M,,M,,*50
06/02/2014	16:09:04.699	$GPGGA,160905,2438.0638,N,08037.8623,W,1,9,1.9,17,M,,M,,*5F
06/02/2014	16:09:05.620	$GPGGA,160906,2438.0635,N,08037.8617,W,1,9,1.9,17,M,,M,,*56
06/02/2014	16:09:06.589	$GPGGA,160907,2438.0634,N,08037.8614,W,1,9,1.9,17,M,,M,,*55
06/02/2014	16:09:07.649	$GPGGA,160908,2438.0629,N,08037.8607,W,1,9,1.9,17,M,,M,,*54
06/02/2014	16:09:08.709	$GPGGA,160909,2438.0627,N,08037.8599,W,1,9,1.9,17,M,,M,,*5F
06/02/2014	16:09:09.609	$GPGGA,160910,2438.0625,N,08037.8595,W,1,9,1.9,17,M,,M,,*59
06/02/2014	16:09:10.579	$GPGGA,160911,2438.0624,N,08037.8588,W,1,9,1.9,17,M,,M,,*55
06/02/2014	16:09:11.619	$GPGGA,160912,2438.0622,N,08037.8580,W,1,9,1.9,17,M,,M,,*58
06/02/2014	16:09:12.659	$GPGGA,160913,2438.0618,N,08037.8575,W,1,9,1.9,17,M,,M,,*5A
06/02/2014	16:09:13.599	$GPGGA,160914,2438.0616,N,08037.8571,W,1,9,1.9,17,M,,M,,*57
06/02/2014	16:09:14.699	$GPGGA,160915,2438.0614,N,08037.8564,W,1,9,1.9,17,M,,M,,*50
06/02/2014	16:09:15.609	$GPGGA,160916,2438.0612,N,08037.8556,W,1,9,1.9,17,M,,M,,*54
06/02/2014	16:09:16.639	$GPGGA,160917,2438.0610,N,08037.8549,W,1,9,1.9,17,M,,M,,*59
06/02/2014	16:09:17.609	$GPGGA,160918,2438.0609,N,08037.8545,W,1,9,1.9,17,M,,M,,*52
06/02/2014	16:09:18.679	$GPGGA,160919,2438.0605,N,08037.8541,W,1,9,1.9,17,M,,M,,*5B
06/02/2014	16:09:19.600	$GPGGA,160920,2438.0603,N,08037.8532,W,1,9,1.9,17,M,,M,,*53
06/02/2014	16:09:20.558	$GPGGA,160921,2438.0602,N,08037.8523,W,1,9,1.9,17,M,,M,,*53
06/02/2014	16:09:21.588	$GPGGA,160922,2438.0599,N,08037.8520,W,1,9,1.9,17,M,,M,,*52
06/02/2014	16:09:22.658	$GPGGA,160923,2438.0596,N,08037.8517,W,1,9,1.9,17,M,,M,,*58
06/02/2014	16:09:23.608	$GPGGA,160924,2438.0595,N,08037.8508,W,1,9,1.9,17,M,,M,,*52
06/02/2014	16:09:24.658	$GPGGA,160925,2438.0593,N,08037.8498,W,1,9,2.0,17,M,,M,,*57
06/02/2014	16:09:25.548	$GPGGA,160926,2438.0591,N,08037.8497,W,1,9,2.0,17,M,,M,,*59
06/02/2014	16:09:26.668	$GPGGA,160927,2438.0588,N,08037.8492,W,1,9,1.9,17,M,,M,,*5F
06/02/2014	16:09:27.588	$GPGGA,160928,2438.0587,N,08037.8483,W,1,9,1.9,17,M,,M,,*5F
06/02/2014	16:09:28.628	$GPGGA,160929,2438.0585,N,08037.8476,W,1,9,1.9,17,M,,M,,*56
06/02/2014	16:09:29.568	$GPGGA,160930,2438.0583,N,08037.8472,W,1,9,1.9,17,M,,M,,*5C
06/02/2014	16:09:30.618	$GPGGA,160931,2438.0581,N,08037.8470,W,1,9,1.9,17,M,,M,,*5D
06/02/2014	16:09:31.578	$GPGGA,160932,2438.0580,N,08037.8464,W,1,9,1.9,17,M,,M,,*5A
06/02/2014	16:09:32.528	$GPGGA,160933,2438.0577,N,08037.8452,W,1,9,1.9,17,M,,M,,*56
06/02/2014	16:09:33.648	$GPGGA,160934,2438.0575,N,08037.8446,W,1,9,1.9,17,M,,M,,*56
06/02/2014	16:09:34.618	$GPGGA,160935,2438.0573,N,08037.8444,W,1,9,1.9,17,M,,M,,*53
06/02/2014	16:09:35.658	$GPGGA,160936,2438.0571,N,08037.8438,W,1,9,1.9,17,M,,M,,*59
06/02/2014	16:09:36.658	$GPGGA,160937,2438.0569,N,08037.8428,W,1,9,2.0,17,M,,M,,*5A
06/02/2014	16:09:37.557	$GPGGA,160938,2438.0566,N,08037.8422,W,1,9,2.0,17,M,,M,,*50
06/02/2014	16:09:38.607	$GPGGA,160939,2438.0565,N,08037.8418,W,1,8,1.9,17,M,,M,,*50
06/02/2014	16:09:39.627	$GPGGA,160940,2438.0562,N,08037.8412,W,1,8,1.9,17,M,,M,,*53
06/02/2014	16:09:40.637	$GPGGA,160941,2438.0562,N,08037.8407,W,1,9,1.9,17,M,,M,,*57
06/02/2014	16:09:41.617	$GPGGA,160942,2438.0559,N,08037.8401,W,1,9,1.9,17,M,,M,,*5A
06/02/2014	16:09:42.607	$GPGGA,160943,2438.0556,N,08037.8394,W,1,9,1.9,17,M,,M,,*5F
06/02/2014	16:09:43.627	$GPGGA,160944,2438.0555,N,08037.8389,W,1,9,1.9,17,M,,M,,*57
06/02/2014	16:09:44.647	$GPGGA,160945,2438.0555,N,08037.8383,W,1,9,1.9,17,M,,M,,*5C
06/02/2014	16:09:45.597	$GPGGA,160946,2438.0551,N,08037.8375,W,1,9,2.0,17,M,,M,,*58
06/02/2014	16:09:46.627	$GPGGA,160947,2438.0549,N,08037.8371,W,1,9,2.0,17,M,,M,,*54
06/02/2014	16:09:47.625	$GPGGA,160948,2438.0547,N,08037.8365,W,1,9,2.0,17,M,,M,,*50
06/02/2014	16:09:48.637	$GPGGA,160949,2438.0545,N,08037.8357,W,1,9,2.0,17,M,,M,,*52
06/02/2014	16:09:49.587	$GPGGA,160950,2438.0544,N,08037.8351,W,1,9,2.0,17,M,,M,,*5D
06/02/2014	16:09:50.627	$GPGGA,160951,2438.0540,N,08037.8347,W,1,9,2.0,17,M,,M,,*5F
06/02/2014	16:09:51.597	$GPGGA,160952,2438.0538,N,08037.8341,W,1,9,2.2,17,M,,M,,*57
06/02/2014	16:09:52.627	$GPGGA,160953,2438.0537,N,08037.8332,W,1,8,2.0,17,M,,M,,*5E
06/02/2014	16:09:53.587	$GPGGA,160954,2438.0535,N,08037.8327,W,1,8,2.0,17,M,,M,,*5F
06/02/2014	16:09:54.617	$GPGGA,160955,2438.0533,N,08037.8322,W,1,9,2.0,17,M,,M,,*5C
06/02/2014	16:09:55.596	$GPGGA,160956,2438.0530,N,08037.8313,W,1,9,2.0,17,M,,M,,*5E
06/02/2014	16:09:56.636	$GPGGA,160957,2438.0528,N,08037.8307,W,1,9,2.0,17,M,,M,,*53
06/02/2014	16:09:57.576	$GPGGA,160958,2438.0527,N,08037.8303,W,1,9,2.0,17,M,,M,,*57
06/02/2014	16:09:58.616	$GPGGA,160959,2438.0526,N,08037.8297,W,1,9,2.0,17,M,,M,,*5B
06/02/2014	16:09:59.606	$GPGGA,161000,2438.0522,N,08037.8290,W,1,9,2.0,17,M,,M,,*5C
06/02/2014	16:10:00.626	$GPGGA,161001,2438.0522,N,08037.8283,W,1,9,2.0,17,M,,M,,*5F
06/02/2014	16:10:01.576	$GPGGA,161002,2438.0519,N,08037.8276,W,1,9,2.0,17,M,,M,,*5E
06/02/2014	16:10:02.606	$GPGGA,161003,2438.0519,N,08037.8276,W,1,9,2.0,17,M,,M,,*5F
06/02/2014	16:10:03.566	$GPGGA,161004,2438.0515,N,08037.8267,W,1,9,2.0,17,M,,M,,*54
06/02/2014	16:10:04.627	$GPGGA,161005,2438.0515,N,08037.8258,W,1,9,2.0,17,M,,M,,*59
06/02/2014	16:10:05.576	$GPGGA,161006,2438.0515,N,08037.8258,W,1,9,2.0,17,M,,M,,*5A
06/02/2014	16:10:06.606	$GPGGA,161007,2438.0511,N,08037.8254,W,1,9,2.0,17,M,,M,,*53
06/02/2014	16:10:07.586	$GPGGA,161008,2438.0508,N,08037.8242,W,1,9,2.0,17,M,,M,,*53
06/02/2014	16:10:08.626	$GPGGA,161009,2438.0506,N,08037.8234,W,1,9,2.0,17,M,,M,,*5D
06/02/2014	16:10:09.557	$GPGGA,161010,2438.0504,N,08037.8231,W,1,9,2.0,18,M,,M,,*5D
06/02/2014	16:10:10.566	$GPGGA,161011,2438.0504,N,08037.8231,W,1,9,2.0,18,M,,M,,*5C
06/02/2014	16:10:11.556	$GPGGA,161012,2438.0500,N,08037.8217,W,1,9,2.0,18,M,,M,,*5F
06/02/2014	16:10:12.565	$GPGGA,161013,2438.0498,N,08037.8210,W,1,9,2.0,18,M,,M,,*59
06/02/2014	16:10:13.555	$GPGGA,161014,2438.0495,N,08037.8205,W,1,9,2.0,18,M,,M,,*57
06/02/2014	16:10:14.565	$GPGGA,161015,2438.0495,N,08037.8205,W,1,9,2.0,18,M,,M,,*56
06/02/2014	16:10:15.565	$GPGGA,161016,2438.0492,N,08037.8194,W,1,9,2.0,18,M,,M,,*59
06/02/2014	16:10:16.565	$GPGGA,161017,2438.0492,N,08037.8194,W,1,9,2.0,18,M,,M,,*58
06/02/2014	16:10:17.555	$GPGGA,161018,2438.0487,N,08037.8181,W,1,9,2.0,18,M,,M,,*57
06/02/2014	16:10:18.675	$GPGGA,161019,2438.0486,N,08037.8175,W,1,9,2.0,18,M,,M,,*5C
06/02/2014	16:10:19.555	$GPGGA,161020,2438.0482,N,08037.8171,W,1,9,2.0,18,M,,M,,*56
06/02/2014	16:10:20.675	$GPGGA,161021,2438.0481,N,08037.8166,W,1,9,2.0,18,M,,M,,*52
06/02/2014	16:10:21.523	$GPGGA,161022,2438.0480,N,08037.8157,W,1,9,2.0,18,M,,M,,*52
06/02/2014	16:10:22.605	$GPGGA,161023,2438.0477,N,08037.8152,W,1,9,2.0,18,M,,M,,*5E
06/02/2014	16:10:23.665	$GPGGA,161024,2438.0475,N,08037.8148,W,1,9,2.0,18,M,,M,,*50
06/02/2014	16:10:24.625	$GPGGA,161025,2438.0473,N,08037.8142,W,1,9,2.0,18,M,,M,,*5D
06/02/2014	16:10:25.624	$GPGGA,161026,2438.0471,N,08037.8136,W,1,9,2.0,18,M,,M,,*5F
06/02/2014	16:10:26.645	$GPGGA,161027,2438.0469,N,08037.8131,W,1,9,2.0,18,M,,M,,*50
06/02/2014	16:10:27.635	$GPGGA,161028,2438.0468,N,08037.8124,W,1,9,2.0,18,M,,M,,*5A
06/02/2014	16:10:28.617	$GPGGA,161029,2438.0466,N,08037.8119,W,1,9,2.0,18,M,,M,,*5B
06/02/2014	16:10:29.616	$GPGGA,161030,2438.0463,N,08037.8117,W,1,9,2.0,18,M,,M,,*58
06/02/2014	16:10:30.614	$GPGGA,161031,2438.0461,N,08037.8110,W,1,9,2.0,18,M,,M,,*5C
06/02/2014	16:10:31.614	$GPGGA,161032,2438.0459,N,08037.8100,W,1,9,2.0,18,M,,M,,*55
06/02/2014	16:10:32.627	$GPGGA,161033,2438.0458,N,08037.8096,W,1,9,2.0,18,M,,M,,*5B
06/02/2014	16:10:33.604	$GPGGA,161034,2438.0457,N,08037.8096,W,1,9,2.0,18,M,,M,,*53
06/02/2014	16:10:34.624	$GPGGA,161035,2438.0454,N,08037.8091,W,1,9,2.0,18,M,,M,,*56
06/02/2014	16:10:35.604	$GPGGA,161036,2438.0453,N,08037.8080,W,1,9,2.0,18,M,,M,,*52
06/02/2014	16:10:36.614	$GPGGA,161037,2438.0453,N,08037.8076,W,1,9,2.0,18,M,,M,,*5A
06/02/2014	16:10:37.584	$GPGGA,161038,2438.0450,N,08037.8075,W,1,9,2.0,18,M,,M,,*55
06/02/2014	16:10:38.604	$GPGGA,161039,2438.0448,N,08037.8067,W,1,9,2.0,18,M,,M,,*5E
06/02/2014	16:10:39.614	$GPGGA,161040,2438.0449,N,08037.8060,W,1,9,2.0,18,M,,M,,*56
06/02/2014	16:10:40.594	$GPGGA,161041,2438.0446,N,08037.8057,W,1,9,2.0,18,M,,M,,*5C
06/02/2014	16:10:41.594	$GPGGA,161042,2438.0444,N,08037.8051,W,1,9,2.0,18,M,,M,,*5B
06/02/2014	16:10:42.604	$GPGGA,161043,2438.0443,N,08037.8044,W,1,9,2.0,18,M,,M,,*59
06/02/2014	16:10:43.604	$GPGGA,161044,2438.0441,N,08037.8039,W,1,9,2.0,18,M,,M,,*56
06/02/2014	16:10:44.574	$GPGGA,161045,2438.0439,N,08037.8035,W,1,9,2.0,18,M,,M,,*54
06/02/2014	16:10:45.585	$GPGGA,161046,2438.0439,N,08037.8027,W,1,9,2.0,18,M,,M,,*54
06/02/2014	16:10:46.595	$GPGGA,161047,2438.0436,N,08037.8020,W,1,9,2.0,18,M,,M,,*5D
06/02/2014	16:10:47.593	$GPGGA,161048,2438.0434,N,08037.8017,W,1,9,2.3,17,M,,M,,*58
06/02/2014	16:10:48.563	$GPGGA,161049,2438.0433,N,08037.8012,W,1,9,2.0,17,M,,M,,*58
06/02/2014	16:10:49.573	$GPGGA,161050,2438.0432,N,08037.8003,W,1,9,2.0,17,M,,M,,*51
06/02/2014	16:10:50.603	$GPGGA,161051,2438.0430,N,08037.7996,W,1,9,2.0,17,M,,M,,*58
06/02/2014	16:10:51.573	$GPGGA,161052,2438.0429,N,08037.7992,W,1,9,2.0,17,M,,M,,*57
06/02/2014	16:10:52.603	$GPGGA,161053,2438.0428,N,08037.7987,W,1,9,2.0,18,M,,M,,*5C
06/02/2014	16:10:53.573	$GPGGA,161054,2438.0424,N,08037.7979,W,1,9,2.0,18,M,,M,,*56
06/02/2014	16:10:54.593	$GPGGA,161055,2438.0423,N,08037.7971,W,1,9,2.0,18,M,,M,,*58
06/02/2014	16:10:55.583	$GPGGA,161056,2438.0422,N,08037.7968,W,1,9,2.0,18,M,,M,,*52
06/02/2014	16:10:56.553	$GPGGA,161057,2438.0421,N,08037.7963,W,1,9,2.0,18,M,,M,,*5B
06/02/2014	16:10:57.573	$GPGGA,161058,2438.0419,N,08037.7954,W,1,9,2.0,18,M,,M,,*5B
06/02/2014	16:10:58.553	$GPGGA,161059,2438.0417,N,08037.7948,W,1,9,2.0,18,M,,M,,*59
06/02/2014	16:10:59.563	$GPGGA,161100,2438.0415,N,08037.7945,W,1,9,2.0,18,M,,M,,*5B
06/02/2014	16:11:00.573	$GPGGA,161101,2438.0414,N,08037.7938,W,1,9,2.0,18,M,,M,,*51
06/02/2014	16:11:01.533	$GPGGA,161102,2438.0412,N,08037.7930,W,1,9,2.0,18,M,,M,,*5C
06/02/2014	16:11:02.563	$GPGGA,161103,2438.0410,N,08037.7924,W,1,9,2.0,18,M,,M,,*5A
06/02/2014	16:11:03.683	$GPGGA,161104,2438.0408,N,08037.7919,W,1,9,2.0,18,M,,M,,*5A
06/02/2014	16:11:04.563	$GPGGA,161105,2438.0407,N,08037.7914,W,1,9,2.0,18,M,,M,,*59
06/02/2014	16:11:05.532	$GPGGA,161106,2438.0405,N,08037.7907,W,1,9,2.0,18,M,,M,,*5A
06/02/2014	16:11:06.552	$GPGGA,161107,2438.0403,N,08037.7900,W,1,9,2.0,18,M,,M,,*5A
06/02/2014	16:11:07.552	$GPGGA,161108,2438.0400,N,08037.7893,W,1,9,2.0,18,M,,M,,*5D
06/02/2014	16:11:08.662	$GPGGA,161109,2438.0399,N,08037.7890,W,1,9,2.0,18,M,,M,,*58
06/02/2014	16:11:09.522	$GPGGA,161110,2438.0399,N,08037.7885,W,1,9,2.0,18,M,,M,,*54
06/02/2014	16:11:10.642	$GPGGA,161111,2438.0397,N,08037.7878,W,1,9,2.0,18,M,,M,,*59
06/02/2014	16:11:11.542	$GPGGA,161112,2438.0394,N,08037.7872,W,1,9,2.0,18,M,,M,,*53
06/02/2014	16:11:12.532	$GPGGA,161113,2438.0395,N,08037.7868,W,1,9,2.0,18,M,,M,,*58
06/02/2014	16:11:13.612	$GPGGA,161114,2438.0392,N,08037.7864,W,1,9,2.0,18,M,,M,,*54
06/02/2014	16:11:14.612	$GPGGA,161115,2438.0390,N,08037.7858,W,1,9,2.0,18,M,,M,,*58
06/02/2014	16:11:15.632	$GPGGA,161116,2438.0389,N,08037.7852,W,1,9,2.0,18,M,,M,,*59
06/02/2014	16:11:16.602	$GPGGA,161117,2438.0387,N,08037.7846,W,1,9,2.0,18,M,,M,,*53
06/02/2014	16:11:17.612	$GPGGA,161118,2438.0385,N,08037.7842,W,1,9,2.0,18,M,,M,,*5A
06/02/2014	16:11:18.632	$GPGGA,161119,2438.0383,N,08037.7838,W,1,9,2.0,18,M,,M,,*50
06/02/2014	16:11:19.612	$GPGGA,161120,2438.0381,N,08037.7831,W,1,9,2.0,18,M,,M,,*51
06/02/2014	16:11:20.606	$GPGGA,161121,2438.0380,N,08037.7823,W,1,9,2.0,18,M,,M,,*52
06/02/2014	16:11:21.592	$GPGGA,161122,2438.0378,N,08037.7819,W,1,9,2.0,18,M,,M,,*5F
06/02/2014	16:11:22.621	$GPGGA,161123,2438.0376,N,08037.7815,W,1,9,2.0,18,M,,M,,*5C
06/02/2014	16:11:23.611	$GPGGA,161124,2438.0374,N,08037.7809,W,1,9,2.0,18,M,,M,,*54
06/02/2014	16:11:24.591	$GPGGA,161125,2438.0374,N,08037.7802,W,1,9,2.0,18,M,,M,,*5E
06/02/2014	16:11:25.601	$GPGGA,161126,2438.0370,N,08037.7797,W,1,9,2.0,18,M,,M,,*5A
06/02/2014	16:11:26.611	$GPGGA,161127,2438.0367,N,08037.7791,W,1,9,2.0,18,M,,M,,*5B
06/02/2014	16:11:27.601	$GPGGA,161128,2438.0365,N,08037.7787,W,1,9,2.0,18,M,,M,,*51
06/02/2014	16:11:28.611	$GPGGA,161129,2438.0366,N,08037.7783,W,1,9,2.0,18,M,,M,,*57
06/02/2014	16:11:29.571	$GPGGA,161130,2438.0363,N,08037.7776,W,1,9,2.0,18,M,,M,,*50
06/02/2014	16:11:30.601	$GPGGA,161131,2438.0360,N,08037.7767,W,1,9,2.0,18,M,,M,,*52
06/02/2014	16:11:31.601	$GPGGA,161132,2438.0357,N,08037.7763,W,1,9,2.0,18,M,,M,,*51
06/02/2014	16:11:32.571	$GPGGA,161133,2438.0356,N,08037.7762,W,1,9,2.0,18,M,,M,,*50
06/02/2014	16:11:33.581	$GPGGA,161134,2438.0354,N,08037.7755,W,1,9,2.1,18,M,,M,,*50
06/02/2014	16:11:34.561	$GPGGA,161135,2438.0352,N,08037.7746,W,1,9,1.5,18,M,,M,,*52
06/02/2014	16:11:35.581	$GPGGA,161136,2438.0350,N,08037.7743,W,1,9,1.5,18,M,,M,,*56
06/02/2014	16:11:36.561	$GPGGA,161137,2438.0349,N,08037.7739,W,1,9,1.5,18,M,,M,,*52
06/02/2014	16:11:37.571	$GPGGA,161138,2438.0345,N,08037.7733,W,1,9,1.5,18,M,,M,,*5B
06/02/2014	16:11:38.601	$GPGGA,161139,2438.0343,N,08037.7728,W,1,9,1.5,18,M,,M,,*56
06/02/2014	16:11:39.581	$GPGGA,161140,2438.0342,N,08037.7724,W,1,9,1.5,18,M,,M,,*55
06/02/2014	16:11:40.550	$GPGGA,161141,2438.0339,N,08037.7718,W,1,9,1.5,18,M,,M,,*57
06/02/2014	16:11:41.560	$GPGGA,161142,2438.0338,N,08037.7711,W,1,9,1.5,18,M,,M,,*5C
06/02/2014	16:11:42.550	$GPGGA,161143,2438.0336,N,08037.7709,W,1,9,1.5,18,M,,M,,*5A
06/02/2014	16:11:43.580	$GPGGA,161144,2438.0335,N,08037.7710,W,1,9,1.5,18,M,,M,,*56
06/02/2014	16:11:44.580	$GPGGA,161145,2438.0331,N,08037.7699,W,1,8,2.3,18,M,,M,,*57
06/02/2014	16:11:45.560	$GPGGA,161146,2438.0329,N,08037.7691,W,1,8,1.6,18,M,,M,,*53
06/02/2014	16:11:46.660	$GPGGA,161147,2438.0328,N,08037.7690,W,1,10,1.5,18,M,,M,,*68
06/02/2014	16:11:47.570	$GPGGA,161148,2438.0327,N,08037.7689,W,1,10,1.5,18,M,,M,,*60
06/02/2014	16:11:48.550	$GPGGA,161149,2438.0327,N,08037.7682,W,1,10,1.5,18,M,,M,,*6A
06/02/2014	16:11:49.550	$GPGGA,161150,2438.0325,N,08037.7674,W,1,10,1.5,18,M,,M,,*69
