Software Version Number: 1	Data File Format Number: 1	Build Version Number: 1	Error Count Since VI Started: 0	Manufacturer: Raytheon	 Model Number: RayMarine 120	 S/N: 	 Cal Date: 	 Wind Direction Offset: 0.00	 Slope (M)1: 0.00	 Offset (B)1: 0.00	 Slope (M)2: 0.00	 Offset (B)2: 0.00	 Slope (M)3: 0.00	 Offset (B)3: 0.00	 Slope (M)4: 0.00	 Offset (B)4: 0.00	 Slope (M)5: 0.00	 Offset (B)5: 0.00	 Slope (M)6: 0.00	 Offset (B)6: 0.00
Computer Date	Computer Time	GGA String
06/13/2014	17:00:00.733	$GPGGA,170001,2440.2318,N,08037.4603,W,1,10,1.4,17,M,,M,,*62
06/13/2014	17:00:01.650	$GPGGA,170002,2440.2314,N,08037.4610,W,1,10,1.4,18,M,,M,,*60
06/13/2014	17:00:02.682	$GPGGA,170003,2440.2310,N,08037.4620,W,1,11,1.3,18,M,,M,,*60
06/13/2014	17:00:04.709	$GPGGA,170005,2440.2300,N,08037.4640,W,1,10,1.4,18,M,,M,,*67
06/13/2014	17:00:05.693	$GPGGA,170006,2440.2294,N,08037.4650,W,1,10,1.4,18,M,,M,,*69
06/13/2014	17:00:06.737	$GPGGA,170007,2440.2291,N,08037.4658,W,1,10,1.4,18,M,,M,,*65
06/13/2014	17:00:07.730	$GPGGA,170008,2440.2287,N,08037.4667,W,1,10,1.4,18,M,,M,,*61
06/13/2014	17:00:08.744	$GPGGA,170009,2440.2282,N,08037.4675,W,1,11,1.3,18,M,,M,,*60
06/13/2014	17:00:09.752	$GPGGA,170010,2440.2280,N,08037.4680,W,1,11,1.4,18,M,,M,,*67
06/13/2014	17:00:10.772	$GPGGA,170011,2440.2277,N,08037.4687,W,1,11,1.3,18,M,,M,,*6E
06/13/2014	17:00:11.765	$GPGGA,170012,2440.2273,N,08037.4696,W,1,11,1.3,18,M,,M,,*69
06/13/2014	17:00:12.798	$GPGGA,170013,2440.2267,N,08037.4705,W,1,11,1.3,18,M,,M,,*66
06/13/2014	17:00:13.795	$GPGGA,170014,2440.2263,N,08037.4714,W,1,11,1.4,18,M,,M,,*62
06/13/2014	17:00:14.786	$GPGGA,170015,2440.2260,N,08037.4722,W,1,11,1.3,19,M,,M,,*63
06/13/2014	17:00:15.820	$GPGGA,170016,2440.2256,N,08037.4729,W,1,11,1.4,19,M,,M,,*69
06/13/2014	17:00:16.813	$GPGGA,170017,2440.2252,N,08037.4737,W,1,11,1.3,19,M,,M,,*64
06/13/2014	17:00:17.837	$GPGGA,170018,2440.2248,N,08037.4745,W,1,11,1.3,19,M,,M,,*65
06/13/2014	17:00:18.841	$GPGGA,170019,2440.2245,N,08037.4751,W,1,9,2.1,19,M,,M,,*54
06/13/2014	17:00:19.865	$GPGGA,170020,2440.2241,N,08037.4761,W,1,9,1.9,19,M,,M,,*52
06/13/2014	17:00:20.889	$GPGGA,170021,2440.2237,N,08037.4769,W,1,9,2.1,19,M,,M,,*51
06/13/2014	17:00:21.872	$GPGGA,170022,2440.2233,N,08037.4780,W,1,9,1.4,19,M,,M,,*57
06/13/2014	17:00:22.886	$GPGGA,170023,2440.2229,N,08037.4784,W,1,10,1.4,19,M,,M,,*61
06/13/2014	17:00:23.920	$GPGGA,170024,2440.2225,N,08037.4794,W,1,10,1.9,19,M,,M,,*66
06/13/2014	17:00:24.934	$GPGGA,170025,2440.2220,N,08037.4805,W,1,9,2.1,18,M,,M,,*57
06/13/2014	17:00:25.937	$GPGGA,170026,2440.2215,N,08037.4819,W,1,9,1.4,18,M,,M,,*59
06/13/2014	17:00:26.931	$GPGGA,170027,2440.2209,N,08037.4830,W,1,11,1.3,18,M,,M,,*60
06/13/2014	17:00:27.965	$GPGGA,170028,2440.2207,N,08037.4835,W,1,11,1.4,18,M,,M,,*63
06/13/2014	17:00:28.958	$GPGGA,170029,2440.2204,N,08037.4844,W,1,11,1.3,19,M,,M,,*61
06/13/2014	17:00:29.972	$GPGGA,170030,2440.2199,N,08037.4852,W,1,11,2.1,19,M,,M,,*68
06/13/2014	17:00:30.996	$GPGGA,170031,2440.2195,N,08037.4859,W,1,9,2.1,19,M,,M,,*57
06/13/2014	17:00:32.120	$GPGGA,170032,2440.2191,N,08037.4870,W,1,9,2.1,19,M,,M,,*5B
06/13/2014	17:00:33.002	$GPGGA,170033,2440.2187,N,08037.4877,W,1,11,1.3,18,M,,M,,*63
06/13/2014	17:00:34.006	$GPGGA,170034,2440.2182,N,08037.4886,W,1,11,1.4,18,M,,M,,*68
06/13/2014	17:00:35.040	$GPGGA,170035,2440.2178,N,08037.4895,W,1,10,1.4,18,M,,M,,*6F
06/13/2014	17:00:36.064	$GPGGA,170036,2440.2175,N,08037.4903,W,1,10,2.1,18,M,,M,,*69
06/13/2014	17:00:37.058	$GPGGA,170037,2440.2170,N,08037.4911,W,1,9,2.1,18,M,,M,,*56
06/13/2014	17:00:38.153	$GPGGA,170038,2440.2168,N,08037.4918,W,1,9,2.1,18,M,,M,,*59
06/13/2014	17:00:39.197	$GPGGA,170039,2440.2165,N,08037.4924,W,1,10,1.9,18,M,,M,,*69
06/13/2014	17:00:40.099	$GPGGA,170040,2440.2160,N,08037.4935,W,1,10,1.9,18,M,,M,,*62
06/13/2014	17:00:41.194	$GPGGA,170041,2440.2155,N,08037.4946,W,1,10,1.4,18,M,,M,,*6C
06/13/2014	17:00:42.109	$GPGGA,170042,2440.2150,N,08037.4957,W,1,10,1.3,18,M,,M,,*6D
06/13/2014	17:00:43.222	$GPGGA,170043,2440.2148,N,08037.4961,W,1,11,1.3,18,M,,M,,*61
06/13/2014	17:00:44.246	$GPGGA,170044,2440.2146,N,08037.4969,W,1,11,1.9,18,M,,M,,*6A
06/13/2014	17:00:45.269	$GPGGA,170045,2440.2140,N,08037.4976,W,1,11,1.3,18,M,,M,,*69
06/13/2014	17:00:46.162	$GPGGA,170046,2440.2136,N,08037.4986,W,1,11,1.4,18,M,,M,,*63
06/13/2014	17:00:47.267	$GPGGA,170047,2440.2132,N,08037.4994,W,1,10,1.4,18,M,,M,,*64
06/13/2014	17:00:47.491	$GPGGA,170048,2440.2128,N,08037.5004,W,1,10,2.1,18,M,,M,,*67
06/13/2014	17:00:48.454	$GPGGA,170049,2440.2124,N,08037.5011,W,1,10,1.4,18,M,,M,,*68
06/13/2014	17:00:49.468	$GPGGA,170050,2440.2119,N,08037.5018,W,1,10,1.3,18,M,,M,,*60
06/13/2014	17:00:50.492	$GPGGA,170051,2440.2115,N,08037.5027,W,1,10,1.4,18,M,,M,,*66
06/13/2014	17:00:51.506	$GPGGA,170052,2440.2110,N,08037.5036,W,1,10,1.4,18,M,,M,,*60
06/13/2014	17:00:52.509	$GPGGA,170053,2440.2106,N,08037.5047,W,1,10,1.4,18,M,,M,,*60
06/13/2014	17:00:53.523	$GPGGA,170054,2440.2101,N,08037.5058,W,1,10,1.3,18,M,,M,,*69
06/13/2014	17:00:54.557	$GPGGA,170055,2440.2096,N,08037.5066,W,1,11,1.3,18,M,,M,,*6B
06/13/2014	17:00:55.561	$GPGGA,170056,2440.2092,N,08037.5076,W,1,11,1.4,18,M,,M,,*6A
06/13/2014	17:00:56.565	$GPGGA,170057,2440.2087,N,08037.5087,W,1,10,1.4,18,M,,M,,*60
06/13/2014	17:00:57.568	$GPGGA,170058,2440.2082,N,08037.5097,W,1,10,1.4,17,M,,M,,*64
06/13/2014	17:00:58.572	$GPGGA,170059,2440.2078,N,08037.5103,W,1,10,1.4,17,M,,M,,*6C
06/13/2014	17:00:59.606	$GPGGA,170100,2440.2075,N,08037.5112,W,1,10,1.3,17,M,,M,,*6B
06/13/2014	17:01:00.630	$GPGGA,170101,2440.2071,N,08037.5120,W,1,11,1.3,17,M,,M,,*6E
06/13/2014	17:01:01.603	$GPGGA,170102,2440.2065,N,08037.5130,W,1,11,1.3,17,M,,M,,*69
06/13/2014	17:01:02.647	$GPGGA,170103,2440.2061,N,08037.5139,W,1,10,1.4,17,M,,M,,*63
06/13/2014	17:01:03.661	$GPGGA,170104,2440.2056,N,08037.5149,W,1,10,1.4,17,M,,M,,*67
06/13/2014	17:01:04.647	$GPGGA,170105,2440.2052,N,08037.5159,W,1,10,1.4,17,M,,M,,*63
06/13/2014	17:01:05.647	$GPGGA,170106,2440.2046,N,08037.5168,W,1,10,1.4,17,M,,M,,*67
06/13/2014	17:01:06.661	$GPGGA,170107,2440.2043,N,08037.5177,W,1,10,1.4,17,M,,M,,*6D
06/13/2014	17:01:07.715	$GPGGA,170108,2440.2038,N,08037.5186,W,1,10,1.3,17,M,,M,,*67
06/13/2014	17:01:08.689	$GPGGA,170109,2440.2034,N,08037.5196,W,1,10,1.4,17,M,,M,,*6C
06/13/2014	17:01:09.712	$GPGGA,170110,2440.2028,N,08037.5204,W,1,10,1.4,17,M,,M,,*61
06/13/2014	17:01:10.757	$GPGGA,170111,2440.2025,N,08037.5211,W,1,11,1.3,17,M,,M,,*6F
06/13/2014	17:01:11.750	$GPGGA,170112,2440.2020,N,08037.5220,W,1,11,1.3,17,M,,M,,*6B
06/13/2014	17:01:12.784	$GPGGA,170113,2440.2016,N,08037.5231,W,1,10,1.4,17,M,,M,,*69
06/13/2014	17:01:13.737	$GPGGA,170114,2440.2009,N,08037.5239,W,1,10,1.4,17,M,,M,,*68
06/13/2014	17:01:14.802	$GPGGA,170115,2440.2005,N,08037.5249,W,1,10,1.4,17,M,,M,,*62
06/13/2014	17:01:15.795	$GPGGA,170116,2440.2001,N,08037.5256,W,1,10,1.4,17,M,,M,,*6B
06/13/2014	17:01:16.799	$GPGGA,170117,2440.1996,N,08037.5264,W,1,11,1.3,17,M,,M,,*69
06/13/2014	17:01:17.792	$GPGGA,170118,2440.1992,N,08037.5274,W,1,11,1.4,17,M,,M,,*64
06/13/2014	17:01:18.796	$GPGGA,170119,2440.1987,N,08037.5282,W,1,10,1.4,17,M,,M,,*69
06/13/2014	17:01:19.964	$GPGGA,170120,2440.1983,N,08037.5289,W,1,10,1.4,17,M,,M,,*6C
06/13/2014	17:01:20.945	$GPGGA,170121,2440.1980,N,08037.5297,W,1,11,1.3,17,M,,M,,*67
06/13/2014	17:01:21.838	$GPGGA,170122,2440.1976,N,08037.5305,W,1,11,1.3,17,M,,M,,*67
06/13/2014	17:01:22.871	$GPGGA,170123,2440.1970,N,08037.5314,W,1,11,1.3,17,M,,M,,*60
06/13/2014	17:01:23.884	$GPGGA,170124,2440.1966,N,08037.5323,W,1,11,1.4,17,M,,M,,*63
06/13/2014	17:01:24.979	$GPGGA,170125,2440.1963,N,08037.5329,W,1,10,1.4,17,M,,M,,*6C
06/13/2014	17:01:25.892	$GPGGA,170126,2440.1960,N,08037.5334,W,1,10,1.3,17,M,,M,,*67
06/13/2014	17:01:26.906	$GPGGA,170127,2440.1955,N,08037.5344,W,1,11,1.3,17,M,,M,,*66
06/13/2014	17:01:27.929	$GPGGA,170128,2440.1951,N,08037.5354,W,1,11,1.4,17,M,,M,,*6B
06/13/2014	17:01:29.065	$GPGGA,170129,2440.1947,N,08037.5361,W,1,10,1.4,17,M,,M,,*6A
06/13/2014	17:01:30.028	$GPGGA,170130,2440.1944,N,08037.5366,W,1,10,1.3,17,M,,M,,*61
06/13/2014	17:01:31.062	$GPGGA,170131,2440.1940,N,08037.5373,W,1,11,1.3,17,M,,M,,*61
06/13/2014	17:01:32.074	$GPGGA,170132,2440.1938,N,08037.5379,W,1,11,1.3,17,M,,M,,*67
06/13/2014	17:01:33.075	$GPGGA,170133,2440.1934,N,08037.5387,W,1,11,1.3,17,M,,M,,*6B
06/13/2014	17:01:34.101	$GPGGA,170134,2440.1930,N,08037.5394,W,1,11,1.4,17,M,,M,,*6D
06/13/2014	17:01:35.114	$GPGGA,170135,2440.1928,N,08037.5402,W,1,11,1.3,17,M,,M,,*6A
06/13/2014	17:01:36.137	$GPGGA,170136,2440.1926,N,08037.5410,W,1,11,1.3,17,M,,M,,*64
06/13/2014	17:01:37.142	$GPGGA,170137,2440.1920,N,08037.5417,W,1,11,1.3,17,M,,M,,*64
06/13/2014	17:01:38.130	$GPGGA,170138,2440.1918,N,08037.5426,W,1,11,1.3,17,M,,M,,*62
06/13/2014	17:01:39.162	$GPGGA,170139,2440.1913,N,08037.5439,W,1,10,1.9,17,M,,M,,*6D
06/13/2014	17:01:40.166	$GPGGA,170140,2440.1908,N,08037.5449,W,1,10,1.4,17,M,,M,,*63
06/13/2014	17:01:41.189	$GPGGA,170141,2440.1902,N,08037.5459,W,1,11,1.3,17,M,,M,,*6F
06/13/2014	17:01:42.182	$GPGGA,170142,2440.1898,N,08037.5470,W,1,11,1.3,17,M,,M,,*65
06/13/2014	17:01:43.177	$GPGGA,170143,2440.1893,N,08037.5480,W,1,11,1.3,17,M,,M,,*60
06/13/2014	17:01:44.203	$GPGGA,170144,2440.1888,N,08037.5489,W,1,11,1.3,17,M,,M,,*64
06/13/2014	17:01:45.224	$GPGGA,170145,2440.1884,N,08037.5499,W,1,11,1.3,17,M,,M,,*68
06/13/2014	17:01:46.217	$GPGGA,170146,2440.1879,N,08037.5509,W,1,11,1.4,17,M,,M,,*66
06/13/2014	17:01:47.231	$GPGGA,170147,2440.1875,N,08037.5517,W,1,10,1.4,17,M,,M,,*65
06/13/2014	17:01:47.436	$GPGGA,170148,2440.1871,N,08037.5527,W,1,10,1.3,18,M,,M,,*65
06/13/2014	17:01:48.442	$GPGGA,170149,2440.1866,N,08037.5536,W,1,11,1.3,18,M,,M,,*63
06/13/2014	17:01:49.433	$GPGGA,170150,2440.1862,N,08037.5543,W,1,11,1.4,18,M,,M,,*6A
06/13/2014	17:01:50.478	$GPGGA,170151,2440.1858,N,08037.5549,W,1,11,1.3,18,M,,M,,*6F
06/13/2014	17:01:51.482	$GPGGA,170152,2440.1857,N,08037.5557,W,1,11,1.3,18,M,,M,,*6C
06/13/2014	17:01:52.475	$GPGGA,170153,2440.1853,N,08037.5567,W,1,11,1.3,18,M,,M,,*6A
06/13/2014	17:01:53.500	$GPGGA,170154,2440.1848,N,08037.5574,W,1,11,1.3,18,M,,M,,*65
06/13/2014	17:01:54.527	$GPGGA,170155,2440.1846,N,08037.5582,W,1,10,1.4,18,M,,M,,*65
06/13/2014	17:01:55.527	$GPGGA,170156,2440.1843,N,08037.5592,W,1,10,1.3,18,M,,M,,*65
06/13/2014	17:01:56.550	$GPGGA,170157,2440.1839,N,08037.5600,W,1,11,1.3,18,M,,M,,*60
06/13/2014	17:01:57.543	$GPGGA,170158,2440.1835,N,08037.5607,W,1,11,1.3,18,M,,M,,*64
06/13/2014	17:01:58.557	$GPGGA,170159,2440.1832,N,08037.5618,W,1,10,1.9,18,M,,M,,*67
06/13/2014	17:01:59.570	$GPGGA,170200,2440.1828,N,08037.5626,W,1,10,1.3,19,M,,M,,*65
06/13/2014	17:02:00.584	$GPGGA,170201,2440.1822,N,08037.5633,W,1,10,1.4,19,M,,M,,*6D
06/13/2014	17:02:01.568	$GPGGA,170202,2440.1819,N,08037.5641,W,1,10,1.3,19,M,,M,,*64
06/13/2014	17:02:02.602	$GPGGA,170203,2440.1814,N,08037.5652,W,1,10,1.4,19,M,,M,,*6D
06/13/2014	17:02:03.617	$GPGGA,170204,2440.1810,N,08037.5661,W,1,10,1.4,19,M,,M,,*6E
06/13/2014	17:02:04.629	$GPGGA,170205,2440.1804,N,08037.5672,W,1,11,1.3,19,M,,M,,*6E
06/13/2014	17:02:05.613	$GPGGA,170206,2440.1799,N,08037.5679,W,1,11,1.3,19,M,,M,,*6D
06/13/2014	17:02:06.637	$GPGGA,170207,2440.1796,N,08037.5687,W,1,11,1.3,19,M,,M,,*62
06/13/2014	17:02:07.783	$GPGGA,170208,2440.1792,N,08037.5694,W,1,11,1.3,19,M,,M,,*6B
06/13/2014	17:02:08.786	$GPGGA,170209,2440.1789,N,08037.5702,W,1,11,1.3,19,M,,M,,*6E
06/13/2014	17:02:09.668	$GPGGA,170210,2440.1785,N,08037.5710,W,1,11,1.3,19,M,,M,,*69
06/13/2014	17:02:10.702	$GPGGA,170211,2440.1785,N,08037.5710,W,1,11,1.3,19,M,,M,,*68
06/13/2014	17:02:11.706	$GPGGA,170212,2440.1776,N,08037.5728,W,1,11,1.3,19,M,,M,,*6C
06/13/2014	17:02:12.821	$GPGGA,170213,2440.1772,N,08037.5737,W,1,11,1.3,19,M,,M,,*67
06/13/2014	17:02:13.723	$GPGGA,170214,2440.1768,N,08037.5745,W,1,11,1.3,19,M,,M,,*6E
06/13/2014	17:02:14.838	$GPGGA,170215,2440.1763,N,08037.5755,W,1,11,1.4,19,M,,M,,*62
06/13/2014	17:02:15.760	$GPGGA,170216,2440.1760,N,08037.5762,W,1,11,1.4,19,M,,M,,*66
06/13/2014	17:02:16.865	$GPGGA,170217,2440.1756,N,08037.5770,W,1,10,1.3,19,M,,M,,*67
06/13/2014	17:02:17.869	$GPGGA,170218,2440.1751,N,08037.5778,W,1,10,1.3,19,M,,M,,*67
06/13/2014	17:02:18.882	$GPGGA,170219,2440.1747,N,08037.5787,W,1,11,1.3,19,M,,M,,*60
06/13/2014	17:02:19.896	$GPGGA,170220,2440.1743,N,08037.5795,W,1,11,1.3,19,M,,M,,*6D
06/13/2014	17:02:20.920	$GPGGA,170221,2440.1738,N,08037.5805,W,1,11,1.4,19,M,,M,,*61
06/13/2014	17:02:21.904	$GPGGA,170222,2440.1734,N,08037.5814,W,1,11,1.4,19,M,,M,,*6E
06/13/2014	17:02:22.948	$GPGGA,170223,2440.1729,N,08037.5822,W,1,10,1.3,19,M,,M,,*60
06/13/2014	17:02:23.951	$GPGGA,170224,2440.1725,N,08037.5831,W,1,10,1.3,18,M,,M,,*68
06/13/2014	17:02:24.948	$GPGGA,170225,2440.1720,N,08037.5839,W,1,11,1.3,18,M,,M,,*65
06/13/2014	17:02:25.960	$GPGGA,170226,2440.1716,N,08037.5849,W,1,11,1.3,18,M,,M,,*64
06/13/2014	17:02:26.993	$GPGGA,170227,2440.1711,N,08037.5857,W,1,11,1.3,18,M,,M,,*6D
06/13/2014	17:02:28.007	$GPGGA,170228,2440.1706,N,08037.5867,W,1,11,1.4,18,M,,M,,*60
06/13/2014	17:02:29.008	$GPGGA,170229,2440.1702,N,08037.5876,W,1,10,1.3,18,M,,M,,*63
06/13/2014	17:02:30.006	$GPGGA,170230,2440.1698,N,08037.5886,W,1,10,1.4,18,M,,M,,*61
06/13/2014	17:02:30.991	$GPGGA,170231,2440.1693,N,08037.5893,W,1,10,1.3,18,M,,M,,*68
06/13/2014	17:02:32.019	$GPGGA,170232,2440.1691,N,08037.5900,W,1,10,1.3,18,M,,M,,*62
06/13/2014	17:02:33.038	$GPGGA,170233,2440.1686,N,08037.5908,W,1,11,1.3,18,M,,M,,*6C
06/13/2014	17:02:34.026	$GPGGA,170234,2440.1681,N,08037.5917,W,1,11,1.3,18,M,,M,,*62
06/13/2014	17:02:35.007	$GPGGA,170235,2440.1675,N,08037.5926,W,1,11,1.4,18,M,,M,,*6D
06/13/2014	17:02:36.037	$GPGGA,170236,2440.1673,N,08037.5936,W,1,11,1.3,18,M,,M,,*6E
06/13/2014	17:02:37.020	$GPGGA,170237,2440.1669,N,08037.5944,W,1,11,1.3,18,M,,M,,*61
06/13/2014	17:02:38.037	$GPGGA,170238,2440.1663,N,08037.5952,W,1,11,1.3,18,M,,M,,*63
06/13/2014	17:02:39.060	$GPGGA,170239,2440.1659,N,08037.5961,W,1,11,1.3,18,M,,M,,*6B
06/13/2014	17:02:40.080	$GPGGA,170240,2440.1655,N,08037.5968,W,1,11,1.3,18,M,,M,,*60
06/13/2014	17:02:41.081	$GPGGA,170241,2440.1652,N,08037.5977,W,1,11,1.3,18,M,,M,,*68
06/13/2014	17:02:42.043	$GPGGA,170242,2440.1647,N,08037.5986,W,1,11,1.3,18,M,,M,,*61
06/13/2014	17:02:43.087	$GPGGA,170243,2440.1641,N,08037.5995,W,1,11,1.4,18,M,,M,,*63
06/13/2014	17:02:44.083	$GPGGA,170244,2440.1637,N,08037.6004,W,1,11,1.3,18,M,,M,,*60
06/13/2014	17:02:45.073	$GPGGA,170245,2440.1634,N,08037.6015,W,1,11,1.3,18,M,,M,,*62
06/13/2014	17:02:46.069	$GPGGA,170246,2440.1629,N,08037.6022,W,1,11,1.3,18,M,,M,,*69
06/13/2014	17:02:47.096	$GPGGA,170247,2440.1624,N,08037.6031,W,1,11,1.4,18,M,,M,,*60
06/13/2014	17:02:47.510	$GPGGA,170248,2440.1620,N,08037.6040,W,1,11,1.4,18,M,,M,,*6D
06/13/2014	17:02:48.486	$GPGGA,170249,2440.1617,N,08037.6048,W,1,10,1.3,18,M,,M,,*66
06/13/2014	17:02:49.382	$GPGGA,170250,2440.1612,N,08037.6056,W,1,10,1.3,18,M,,M,,*64
06/13/2014	17:02:50.518	$GPGGA,170251,2440.1608,N,08037.6066,W,1,11,1.4,18,M,,M,,*6B
06/13/2014	17:02:51.535	$GPGGA,170252,2440.1604,N,08037.6071,W,1,11,1.3,18,M,,M,,*65
06/13/2014	17:02:52.511	$GPGGA,170253,2440.1600,N,08037.6080,W,1,11,1.3,18,M,,M,,*6E
06/13/2014	17:02:53.427	$GPGGA,170254,2440.1597,N,08037.6088,W,1,11,1.3,18,M,,M,,*6C
06/13/2014	17:02:54.544	$GPGGA,170255,2440.1592,N,08037.6096,W,1,11,1.3,18,M,,M,,*67
06/13/2014	17:02:55.541	$GPGGA,170256,2440.1587,N,08037.6105,W,1,11,1.4,18,M,,M,,*6C
06/13/2014	17:02:56.447	$GPGGA,170257,2440.1582,N,08037.6116,W,1,10,1.4,18,M,,M,,*6B
06/13/2014	17:02:57.524	$GPGGA,170258,2440.1579,N,08037.6124,W,1,10,1.4,18,M,,M,,*61
06/13/2014	17:02:58.440	$GPGGA,170259,2440.1574,N,08037.6132,W,1,11,1.3,18,M,,M,,*6C
06/13/2014	17:02:59.557	$GPGGA,170300,2440.1569,N,08037.6142,W,1,11,1.3,18,M,,M,,*6A
06/13/2014	17:03:00.463	$GPGGA,170301,2440.1565,N,08037.6150,W,1,11,1.3,18,M,,M,,*64
06/13/2014	17:03:01.540	$GPGGA,170302,2440.1561,N,08037.6158,W,1,11,1.3,18,M,,M,,*6B
06/13/2014	17:03:02.567	$GPGGA,170303,2440.1557,N,08037.6167,W,1,11,1.3,18,M,,M,,*63
06/13/2014	17:03:03.563	$GPGGA,170304,2440.1553,N,08037.6175,W,1,11,1.3,18,M,,M,,*63
06/13/2014	17:03:04.590	$GPGGA,170305,2440.1550,N,08037.6185,W,1,11,1.3,18,M,,M,,*6E
06/13/2014	17:03:05.557	$GPGGA,170306,2440.1544,N,08037.6193,W,1,11,1.4,18,M,,M,,*68
06/13/2014	17:03:06.583	$GPGGA,170307,2440.1540,N,08037.6203,W,1,10,1.4,18,M,,M,,*66
06/13/2014	17:03:07.590	$GPGGA,170308,2440.1535,N,08037.6214,W,1,10,1.4,18,M,,M,,*6D
06/13/2014	17:03:08.565	$GPGGA,170309,2440.1532,N,08037.6222,W,1,10,1.4,18,M,,M,,*6E
06/13/2014	17:03:09.572	$GPGGA,170310,2440.1526,N,08037.6230,W,1,10,1.3,18,M,,M,,*67
06/13/2014	17:03:10.599	$GPGGA,170311,2440.1522,N,08037.6239,W,1,11,1.3,17,M,,M,,*65
06/13/2014	17:03:11.595	$GPGGA,170312,2440.1518,N,08037.6247,W,1,11,1.3,17,M,,M,,*66
06/13/2014	17:03:12.602	$GPGGA,170313,2440.1514,N,08037.6255,W,1,11,1.3,17,M,,M,,*68
06/13/2014	17:03:13.598	$GPGGA,170314,2440.1510,N,08037.6264,W,1,11,1.3,17,M,,M,,*69
06/13/2014	17:03:14.595	$GPGGA,170315,2440.1507,N,08037.6275,W,1,11,1.3,17,M,,M,,*6E
06/13/2014	17:03:15.622	$GPGGA,170316,2440.1500,N,08037.6283,W,1,11,1.4,17,M,,M,,*64
06/13/2014	17:03:16.628	$GPGGA,170317,2440.1496,N,08037.6291,W,1,11,1.3,17,M,,M,,*6F
06/13/2014	17:03:17.605	$GPGGA,170318,2440.1490,N,08037.6301,W,1,11,1.3,17,M,,M,,*6E
06/13/2014	17:03:18.621	$GPGGA,170319,2440.1486,N,08037.6311,W,1,10,1.4,17,M,,M,,*6F
06/13/2014	17:03:19.638	$GPGGA,170320,2440.1483,N,08037.6318,W,1,10,1.3,17,M,,M,,*6E
06/13/2014	17:03:20.655	$GPGGA,170321,2440.1478,N,08037.6326,W,1,11,1.3,17,M,,M,,*67
06/13/2014	17:03:21.621	$GPGGA,170322,2440.1474,N,08037.6333,W,1,11,1.3,17,M,,M,,*6C
06/13/2014	17:03:22.651	$GPGGA,170323,2440.1470,N,08037.6344,W,1,11,1.3,17,M,,M,,*69
06/13/2014	17:03:23.655	$GPGGA,170324,2440.1467,N,08037.6353,W,1,11,1.3,17,M,,M,,*6E
06/13/2014	17:03:24.681	$GPGGA,170325,2440.1461,N,08037.6362,W,1,11,1.3,17,M,,M,,*6B
06/13/2014	17:03:25.647	$GPGGA,170326,2440.1456,N,08037.6370,W,1,11,1.3,17,M,,M,,*6F
06/13/2014	17:03:26.643	$GPGGA,170327,2440.1454,N,08037.6380,W,1,10,1.4,17,M,,M,,*65
06/13/2014	17:03:27.680	$GPGGA,170328,2440.1450,N,08037.6387,W,1,10,1.4,17,M,,M,,*69
06/13/2014	17:03:28.656	$GPGGA,170329,2440.1445,N,08037.6396,W,1,11,1.3,17,M,,M,,*6A
06/13/2014	17:03:29.694	$GPGGA,170330,2440.1440,N,08037.6406,W,1,11,1.4,17,M,,M,,*6E
06/13/2014	17:03:30.679	$GPGGA,170331,2440.1438,N,08037.6414,W,1,11,1.3,17,M,,M,,*64
06/13/2014	17:03:31.797	$GPGGA,170332,2440.1433,N,08037.6423,W,1,11,1.3,17,M,,M,,*68
06/13/2014	17:03:32.672	$GPGGA,170333,2440.1428,N,08037.6431,W,1,11,1.3,17,M,,M,,*60
06/13/2014	17:03:33.689	$GPGGA,170334,2440.1424,N,08037.6439,W,1,11,1.4,17,M,,M,,*64
06/13/2014	17:03:34.696	$GPGGA,170335,2440.1422,N,08037.6447,W,1,10,1.4,17,M,,M,,*6B
06/13/2014	17:03:35.823	$GPGGA,170336,2440.1418,N,08037.6453,W,1,10,1.3,17,M,,M,,*63
06/13/2014	17:03:36.719	$GPGGA,170337,2440.1413,N,08037.6463,W,1,11,1.3,17,M,,M,,*6B
06/13/2014	17:03:37.695	$GPGGA,170338,2440.1409,N,08037.6470,W,1,11,1.5,17,M,,M,,*6B
06/13/2014	17:03:38.722	$GPGGA,170339,2440.1405,N,08037.6481,W,1,11,1.3,17,M,,M,,*6E
06/13/2014	17:03:39.719	$GPGGA,170340,2440.1400,N,08037.6488,W,1,11,1.3,17,M,,M,,*6C
06/13/2014	17:03:40.816	$GPGGA,170341,2440.1396,N,08037.6496,W,1,11,1.3,17,M,,M,,*6A
06/13/2014	17:03:41.722	$GPGGA,170342,2440.1392,N,08037.6506,W,1,11,1.3,17,M,,M,,*65
06/13/2014	17:03:42.737	$GPGGA,170343,2440.1388,N,08037.6514,W,1,11,1.3,17,M,,M,,*6C
06/13/2014	17:03:43.835	$GPGGA,170344,2440.1384,N,08037.6524,W,1,11,1.3,17,M,,M,,*64
06/13/2014	17:03:44.751	$GPGGA,170345,2440.1377,N,08037.6533,W,1,10,1.4,17,M,,M,,*69
06/13/2014	17:03:45.828	$GPGGA,170346,2440.1373,N,08037.6544,W,1,10,1.4,17,M,,M,,*6E
06/13/2014	17:03:46.874	$GPGGA,170347,2440.1368,N,08037.6553,W,1,11,1.3,17,M,,M,,*65
06/13/2014	17:03:47.454	$GPGGA,170348,2440.1364,N,08037.6561,W,1,11,1.3,17,M,,M,,*67
06/13/2014	17:03:48.481	$GPGGA,170349,2440.1360,N,08037.6571,W,1,11,1.3,17,M,,M,,*63
06/13/2014	17:03:49.467	$GPGGA,170350,2440.1356,N,08037.6580,W,1,11,1.3,17,M,,M,,*60
06/13/2014	17:03:50.454	$GPGGA,170351,2440.1352,N,08037.6590,W,1,10,1.4,17,M,,M,,*62
06/13/2014	17:03:51.480	$GPGGA,170352,2440.1348,N,08037.6598,W,1,10,1.4,17,M,,M,,*62
06/13/2014	17:03:52.487	$GPGGA,170353,2440.1344,N,08037.6607,W,1,10,1.4,17,M,,M,,*6A
06/13/2014	17:03:53.473	$GPGGA,170354,2440.1340,N,08037.6618,W,1,10,1.3,17,M,,M,,*60
06/13/2014	17:03:54.490	$GPGGA,170355,2440.1335,N,08037.6627,W,1,10,1.4,17,M,,M,,*68
06/13/2014	17:03:55.497	$GPGGA,170356,2440.1330,N,08037.6636,W,1,10,1.4,17,M,,M,,*6E
06/13/2014	17:03:56.483	$GPGGA,170357,2440.1326,N,08037.6645,W,1,10,1.4,17,M,,M,,*6C
06/13/2014	17:03:57.500	$GPGGA,170358,2440.1322,N,08037.6655,W,1,10,1.3,17,M,,M,,*61
06/13/2014	17:03:58.516	$GPGGA,170359,2440.1317,N,08037.6665,W,1,10,1.4,17,M,,M,,*62
06/13/2014	17:03:59.523	$GPGGA,170400,2440.1312,N,08037.6674,W,1,10,1.4,17,M,,M,,*6C
06/13/2014	17:04:00.498	$GPGGA,170401,2440.1309,N,08037.6684,W,1,10,1.4,17,M,,M,,*68
06/13/2014	17:04:01.515	$GPGGA,170402,2440.1304,N,08037.6691,W,1,10,1.3,17,M,,M,,*65
06/13/2014	17:04:02.522	$GPGGA,170403,2440.1301,N,08037.6698,W,1,11,1.3,17,M,,M,,*69
06/13/2014	17:04:03.538	$GPGGA,170404,2440.1297,N,08037.6709,W,1,11,1.3,17,M,,M,,*69
06/13/2014	17:04:04.555	$GPGGA,170405,2440.1293,N,08037.6716,W,1,11,1.3,17,M,,M,,*62
06/13/2014	17:04:05.521	$GPGGA,170406,2440.1290,N,08037.6724,W,1,11,1.3,17,M,,M,,*63
06/13/2014	17:04:06.558	$GPGGA,170407,2440.1284,N,08037.6734,W,1,11,1.3,17,M,,M,,*66
06/13/2014	17:04:07.545	$GPGGA,170408,2440.1280,N,08037.6743,W,1,11,1.3,17,M,,M,,*6D
06/13/2014	17:04:08.551	$GPGGA,170409,2440.1277,N,08037.6753,W,1,11,1.3,17,M,,M,,*65
06/13/2014	17:04:09.548	$GPGGA,170410,2440.1272,N,08037.6763,W,1,11,1.3,17,M,,M,,*6B
06/13/2014	17:04:10.544	$GPGGA,170411,2440.1268,N,08037.6772,W,1,10,1.4,17,M,,M,,*67
06/13/2014	17:04:11.572	$GPGGA,170412,2440.1264,N,08037.6781,W,1,10,1.3,17,M,,M,,*63
06/13/2014	17:04:12.588	$GPGGA,170413,2440.1261,N,08037.6789,W,1,11,1.3,17,M,,M,,*6E
06/13/2014	17:04:13.564	$GPGGA,170414,2440.1256,N,08037.6799,W,1,11,1.3,17,M,,M,,*6C
06/13/2014	17:04:14.571	$GPGGA,170415,2440.1252,N,08037.6807,W,1,11,1.3,17,M,,M,,*61
06/13/2014	17:04:15.587	$GPGGA,170416,2440.1247,N,08037.6817,W,1,11,1.3,17,M,,M,,*67
06/13/2014	17:04:16.574	$GPGGA,170417,2440.1243,N,08037.6826,W,1,10,1.4,17,M,,M,,*66
06/13/2014	17:04:17.590	$GPGGA,170418,2440.1238,N,08037.6835,W,1,10,1.3,17,M,,M,,*60
06/13/2014	17:04:18.606	$GPGGA,170419,2440.1233,N,08037.6846,W,1,11,1.3,17,M,,M,,*6F
06/13/2014	17:04:19.603	$GPGGA,170420,2440.1229,N,08037.6854,W,1,11,1.4,17,M,,M,,*6A
06/13/2014	17:04:20.599	$GPGGA,170421,2440.1226,N,08037.6861,W,1,11,1.3,17,M,,M,,*65
06/13/2014	17:04:21.606	$GPGGA,170422,2440.1221,N,08037.6871,W,1,11,1.3,17,M,,M,,*60
06/13/2014	17:04:22.713	$GPGGA,170423,2440.1217,N,08037.6882,W,1,10,1.4,17,M,,M,,*6E
06/13/2014	17:04:23.609	$GPGGA,170424,2440.1211,N,08037.6890,W,1,10,1.3,17,M,,M,,*6B
06/13/2014	17:04:24.616	$GPGGA,170425,2440.1207,N,08037.6900,W,1,10,1.4,17,M,,M,,*62
06/13/2014	17:04:25.703	$GPGGA,170426,2440.1204,N,08037.6909,W,1,10,1.3,17,M,,M,,*6C
06/13/2014	17:04:26.619	$GPGGA,170427,2440.1200,N,08037.6918,W,1,11,1.3,17,M,,M,,*68
06/13/2014	17:04:27.756	$GPGGA,170428,2440.1196,N,08037.6926,W,1,11,1.3,17,M,,M,,*66
06/13/2014	17:04:28.733	$GPGGA,170429,2440.1191,N,08037.6933,W,1,10,1.4,17,M,,M,,*62
06/13/2014	17:04:29.729	$GPGGA,170430,2440.1189,N,08037.6943,W,1,10,1.4,17,M,,M,,*64
06/13/2014	17:04:30.798	$GPGGA,170431,2440.1185,N,08037.6951,W,1,11,1.3,17,M,,M,,*6C
06/13/2014	17:04:31.865	$GPGGA,170432,2440.1178,N,08037.6962,W,1,11,1.3,17,M,,M,,*6D
06/13/2014	17:04:32.834	$GPGGA,170433,2440.1172,N,08037.6970,W,1,10,1.4,17,M,,M,,*63
06/13/2014	17:04:34.032	$GPGGA,170434,2440.1168,N,08037.6980,W,1,10,1.3,17,M,,M,,*67
06/13/2014	17:04:35.143	$GPGGA,170435,2440.1164,N,08037.6988,W,1,11,1.3,17,M,,M,,*63
06/13/2014	17:04:36.220	$GPGGA,170436,2440.1160,N,08037.6996,W,1,11,1.3,17,M,,M,,*6B
06/13/2014	17:04:37.320	$GPGGA,170437,2440.1156,N,08037.7005,W,1,11,1.3,17,M,,M,,*6D
06/13/2014	17:04:38.365	$GPGGA,170438,2440.1150,N,08037.7014,W,1,11,1.3,17,M,,M,,*64
06/13/2014	17:04:39.454	$GPGGA,170439,2440.1145,N,08037.7024,W,1,10,1.4,17,M,,M,,*64
06/13/2014	17:04:40.564	$GPGGA,170440,2440.1140,N,08037.7034,W,1,10,1.4,17,M,,M,,*6E
06/13/2014	17:04:41.632	$GPGGA,170441,2440.1136,N,08037.7042,W,1,11,1.3,17,M,,M,,*69
06/13/2014	17:04:42.710	$GPGGA,170442,2440.1131,N,08037.7052,W,1,11,1.3,17,M,,M,,*6C
06/13/2014	17:04:43.831	$GPGGA,170443,2440.1125,N,08037.7061,W,1,11,1.3,17,M,,M,,*68
06/13/2014	17:04:44.909	$GPGGA,170444,2440.1121,N,08037.7070,W,1,11,1.3,16,M,,M,,*6A
06/13/2014	17:04:45.967	$GPGGA,170445,2440.1116,N,08037.7078,W,1,11,1.3,16,M,,M,,*67
06/13/2014	17:04:47.072	$GPGGA,170446,2440.1111,N,08037.7088,W,1,11,1.3,16,M,,M,,*6C
06/13/2014	17:04:48.176	$GPGGA,170447,2440.1106,N,08037.7097,W,1,11,1.3,16,M,,M,,*65
06/13/2014	17:04:47.471	$GPGGA,170448,2440.1102,N,08037.7106,W,1,11,1.4,16,M,,M,,*60
06/13/2014	17:04:48.560	$GPGGA,170449,2440.1097,N,08037.7114,W,1,11,1.3,16,M,,M,,*68
06/13/2014	17:04:49.639	$GPGGA,170450,2440.1093,N,08037.7122,W,1,11,1.3,16,M,,M,,*61
06/13/2014	17:04:50.761	$GPGGA,170451,2440.1089,N,08037.7131,W,1,11,1.3,16,M,,M,,*69
06/13/2014	17:04:51.827	$GPGGA,170452,2440.1085,N,08037.7139,W,1,11,1.3,16,M,,M,,*6E
06/13/2014	17:04:52.926	$GPGGA,170453,2440.1081,N,08037.7147,W,1,11,1.3,16,M,,M,,*62
06/13/2014	17:04:53.993	$GPGGA,170454,2440.1077,N,08037.7157,W,1,11,1.3,16,M,,M,,*6D
06/13/2014	17:04:55.060	$GPGGA,170455,2440.1073,N,08037.7165,W,1,10,1.4,16,M,,M,,*6F
06/13/2014	17:04:56.185	$GPGGA,170456,2440.1067,N,08037.7173,W,1,10,1.3,16,M,,M,,*69
06/13/2014	17:04:57.249	$GPGGA,170457,2440.1064,N,08037.7182,W,1,11,1.3,16,M,,M,,*64
06/13/2014	17:04:58.348	$GPGGA,170458,2440.1061,N,08037.7190,W,1,11,1.3,16,M,,M,,*6D
06/13/2014	17:04:59.426	$GPGGA,170459,2440.1055,N,08037.7197,W,1,11,1.3,16,M,,M,,*6C
06/13/2014	17:05:00.527	$GPGGA,170500,2440.1052,N,08037.7207,W,1,11,1.3,16,M,,M,,*6C
06/13/2014	17:05:01.582	$GPGGA,170501,2440.1049,N,08037.7215,W,1,11,1.3,16,M,,M,,*64
06/13/2014	17:05:02.682	$GPGGA,170502,2440.1044,N,08037.7222,W,1,11,1.3,16,M,,M,,*6E
06/13/2014	17:05:03.793	$GPGGA,170503,2440.1039,N,08037.7232,W,1,11,1.3,16,M,,M,,*64
06/13/2014	17:05:04.860	$GPGGA,170504,2440.1037,N,08037.7240,W,1,11,1.3,16,M,,M,,*68
06/13/2014	17:05:05.938	$GPGGA,170505,2440.1032,N,08037.7249,W,1,11,1.3,16,M,,M,,*65
06/13/2014	17:05:07.027	$GPGGA,170506,2440.1027,N,08037.7258,W,1,11,1.3,16,M,,M,,*62
06/13/2014	17:05:08.116	$GPGGA,170507,2440.1022,N,08037.7266,W,1,11,1.3,16,M,,M,,*6B
06/13/2014	17:05:09.216	$GPGGA,170508,2440.1020,N,08037.7274,W,1,11,1.4,16,M,,M,,*62
06/13/2014	17:05:10.294	$GPGGA,170509,2440.1013,N,08037.7284,W,1,11,1.3,16,M,,M,,*6B
06/13/2014	17:05:11.546	$GPGGA,170510,2440.1009,N,08037.7294,W,1,11,1.4,16,M,,M,,*6E
06/13/2014	17:05:12.481	$GPGGA,170511,2440.1006,N,08037.7302,W,1,11,1.3,16,M,,M,,*69
06/13/2014	17:05:13.571	$GPGGA,170512,2440.1001,N,08037.7310,W,1,11,1.3,16,M,,M,,*6E
06/13/2014	17:05:14.626	$GPGGA,170513,2440.0997,N,08037.7319,W,1,11,1.3,16,M,,M,,*61
06/13/2014	17:05:15.704	$GPGGA,170514,2440.0993,N,08037.7328,W,1,11,1.3,16,M,,M,,*60
06/13/2014	17:05:16.793	$GPGGA,170515,2440.0990,N,08037.7337,W,1,10,1.4,16,M,,M,,*6A
06/13/2014	17:05:18.085	$GPGGA,170516,2440.0984,N,08037.7348,W,1,10,1.9,16,M,,M,,*69
06/13/2014	17:05:19.113	$GPGGA,170517,2440.0977,N,08037.7359,W,1,10,1.3,16,M,,M,,*6E
06/13/2014	17:05:20.169	$GPGGA,170518,2440.0974,N,08037.7370,W,1,10,1.3,16,M,,M,,*69
06/13/2014	17:05:21.312	$GPGGA,170519,2440.0970,N,08037.7381,W,1,10,1.4,16,M,,M,,*65
06/13/2014	17:05:22.434	$GPGGA,170520,2440.0965,N,08037.7389,W,1,10,1.4,16,M,,M,,*63
06/13/2014	17:05:23.490	$GPGGA,170521,2440.0962,N,08037.7399,W,1,10,1.4,16,M,,M,,*64
06/13/2014	17:05:24.590	$GPGGA,170522,2440.0958,N,08037.7406,W,1,10,1.4,16,M,,M,,*6F
06/13/2014	17:05:25.657	$GPGGA,170523,2440.0954,N,08037.7417,W,1,11,1.3,16,M,,M,,*64
06/13/2014	17:05:26.702	$GPGGA,170524,2440.0949,N,08037.7425,W,1,11,1.4,16,M,,M,,*69
06/13/2014	17:05:27.824	$GPGGA,170525,2440.0945,N,08037.7433,W,1,10,1.3,16,M,,M,,*65
06/13/2014	17:05:28.858	$GPGGA,170526,2440.0941,N,08037.7442,W,1,10,1.3,16,M,,M,,*64
06/13/2014	17:05:29.992	$GPGGA,170527,2440.0937,N,08037.7451,W,1,10,1.3,16,M,,M,,*66
06/13/2014	17:05:31.127	$GPGGA,170528,2440.0934,N,08037.7458,W,1,10,1.3,16,M,,M,,*63
06/13/2014	17:05:32.178	$GPGGA,170529,2440.0930,N,08037.7467,W,1,11,1.3,16,M,,M,,*6B
06/13/2014	17:05:33.278	$GPGGA,170530,2440.0926,N,08037.7476,W,1,11,1.4,16,M,,M,,*63
06/13/2014	17:05:34.345	$GPGGA,170531,2440.0922,N,08037.7486,W,1,10,1.4,16,M,,M,,*68
06/13/2014	17:05:35.467	$GPGGA,170532,2440.0918,N,08037.7496,W,1,10,1.4,16,M,,M,,*63
06/13/2014	17:05:36.512	$GPGGA,170533,2440.0914,N,08037.7504,W,1,10,1.4,16,M,,M,,*64
06/13/2014	17:05:37.634	$GPGGA,170534,2440.0908,N,08037.7514,W,1,10,1.4,16,M,,M,,*6F
06/13/2014	17:05:38.636	$GPGGA,170535,2440.0905,N,08037.7525,W,1,10,1.4,16,M,,M,,*61
06/13/2014	17:05:39.801	$GPGGA,170536,2440.0900,N,08037.7533,W,1,10,1.4,16,M,,M,,*60
06/13/2014	17:05:40.802	$GPGGA,170537,2440.0896,N,08037.7543,W,1,10,1.4,16,M,,M,,*68
06/13/2014	17:05:41.957	$GPGGA,170538,2440.0892,N,08037.7551,W,1,10,1.3,16,M,,M,,*67
06/13/2014	17:05:42.980	$GPGGA,170539,2440.0889,N,08037.7559,W,1,11,1.3,16,M,,M,,*65
06/13/2014	17:05:44.167	$GPGGA,170540,2440.0883,N,08037.7569,W,1,11,1.3,16,M,,M,,*62
06/13/2014	17:05:45.178	$GPGGA,170541,2440.0878,N,08037.7579,W,1,11,1.4,16,M,,M,,*61
06/13/2014	17:05:46.312	$GPGGA,170542,2440.0874,N,08037.7587,W,1,11,1.3,16,M,,M,,*68
06/13/2014	17:05:47.390	$GPGGA,170543,2440.0871,N,08037.7598,W,1,11,1.4,16,M,,M,,*65
06/13/2014	17:05:48.490	$GPGGA,170544,2440.0867,N,08037.7605,W,1,11,1.3,16,M,,M,,*65
06/13/2014	17:05:49.590	$GPGGA,170545,2440.0862,N,08037.7612,W,1,11,1.3,16,M,,M,,*67
06/13/2014	17:05:50.656	$GPGGA,170546,2440.0858,N,08037.7620,W,1,11,1.3,16,M,,M,,*6C
06/13/2014	17:05:51.701	$GPGGA,170547,2440.0854,N,08037.7628,W,1,11,1.3,16,M,,M,,*69
06/13/2014	17:05:47.553	$GPGGA,170548,2440.0850,N,08037.7637,W,1,11,1.3,16,M,,M,,*6C
06/13/2014	17:05:48.566	$GPGGA,170549,2440.0845,N,08037.7645,W,1,11,1.3,16,M,,M,,*6C
06/13/2014	17:05:49.666	$GPGGA,170550,2440.0840,N,08037.7652,W,1,11,1.3,16,M,,M,,*67
06/13/2014	17:05:50.711	$GPGGA,170551,2440.0836,N,08037.7660,W,1,11,1.3,16,M,,M,,*66
06/13/2014	17:05:51.931	$GPGGA,170552,2440.0832,N,08037.7670,W,1,11,1.3,17,M,,M,,*61
06/13/2014	17:05:52.856	$GPGGA,170553,2440.0827,N,08037.7677,W,1,11,1.3,17,M,,M,,*63
06/13/2014	17:05:54.021	$GPGGA,170554,2440.0822,N,08037.7685,W,1,11,1.3,17,M,,M,,*6C
06/13/2014	17:05:55.143	$GPGGA,170555,2440.0817,N,08037.7695,W,1,11,1.4,17,M,,M,,*6D
06/13/2014	17:05:56.199	$GPGGA,170556,2440.0813,N,08037.7703,W,1,11,1.4,17,M,,M,,*64
06/13/2014	17:05:57.244	$GPGGA,170557,2440.0809,N,08037.7711,W,1,11,1.3,17,M,,M,,*6A
06/13/2014	17:05:58.290	$GPGGA,170558,2440.0804,N,08037.7720,W,1,11,1.3,17,M,,M,,*6A
06/13/2014	17:05:59.531	$GPGGA,170559,2440.0799,N,08037.7728,W,1,11,1.3,17,M,,M,,*68
06/13/2014	17:06:00.609	$GPGGA,170600,2440.0795,N,08037.7736,W,1,11,1.3,17,M,,M,,*64
06/13/2014	17:06:01.665	$GPGGA,170601,2440.0790,N,08037.7745,W,1,11,1.3,17,M,,M,,*64
06/13/2014	17:06:02.711	$GPGGA,170602,2440.0786,N,08037.7753,W,1,11,1.3,17,M,,M,,*67
06/13/2014	17:06:03.831	$GPGGA,170603,2440.0782,N,08037.7764,W,1,11,1.3,17,M,,M,,*66
06/13/2014	17:06:04.898	$GPGGA,170604,2440.0777,N,08037.7771,W,1,11,1.3,17,M,,M,,*6F
06/13/2014	17:06:06.020	$GPGGA,170605,2440.0773,N,08037.7782,W,1,11,1.3,17,M,,M,,*66
06/13/2014	17:06:07.085	$GPGGA,170606,2440.0768,N,08037.7789,W,1,11,1.3,17,M,,M,,*64
06/13/2014	17:06:08.198	$GPGGA,170607,2440.0764,N,08037.7798,W,1,11,1.3,17,M,,M,,*69
06/13/2014	17:06:09.287	$GPGGA,170608,2440.0759,N,08037.7807,W,1,11,1.4,17,M,,M,,*66
06/13/2014	17:06:10.365	$GPGGA,170609,2440.0755,N,08037.7815,W,1,10,1.4,17,M,,M,,*69
06/13/2014	17:06:11.443	$GPGGA,170610,2440.0751,N,08037.7825,W,1,10,1.4,17,M,,M,,*66
06/13/2014	17:06:12.553	$GPGGA,170611,2440.0748,N,08037.7832,W,1,10,1.3,17,M,,M,,*6E
06/13/2014	17:06:13.642	$GPGGA,170612,2440.0743,N,08037.7840,W,1,10,1.4,17,M,,M,,*64
06/13/2014	17:06:14.720	$GPGGA,170613,2440.0739,N,08037.7850,W,1,10,1.4,17,M,,M,,*69
06/13/2014	17:06:15.787	$GPGGA,170614,2440.0735,N,08037.7859,W,1,10,1.4,17,M,,M,,*6B
06/13/2014	17:06:16.898	$GPGGA,170615,2440.0732,N,08037.7868,W,1,10,1.3,17,M,,M,,*68
06/13/2014	17:06:17.998	$GPGGA,170616,2440.0727,N,08037.7876,W,1,10,1.4,17,M,,M,,*67
06/13/2014	17:06:19.068	$GPGGA,170617,2440.0723,N,08037.7884,W,1,10,1.3,17,M,,M,,*68
06/13/2014	17:06:20.142	$GPGGA,170618,2440.0720,N,08037.7894,W,1,10,1.4,17,M,,M,,*62
06/13/2014	17:06:21.244	$GPGGA,170619,2440.0715,N,08037.7902,W,1,10,2.0,17,M,,M,,*6C
06/13/2014	17:06:22.353	$GPGGA,170620,2440.0709,N,08037.7912,W,1,10,1.4,17,M,,M,,*6D
06/13/2014	17:06:23.419	$GPGGA,170621,2440.0704,N,08037.7923,W,1,10,1.4,17,M,,M,,*63
06/13/2014	17:06:24.487	$GPGGA,170622,2440.0701,N,08037.7933,W,1,10,1.3,17,M,,M,,*63
06/13/2014	17:06:25.597	$GPGGA,170623,2440.0698,N,08037.7941,W,1,11,1.3,17,M,,M,,*67
06/13/2014	17:06:26.697	$GPGGA,170624,2440.0694,N,08037.7948,W,1,11,1.3,17,M,,M,,*65
06/13/2014	17:06:27.754	$GPGGA,170625,2440.0690,N,08037.7956,W,1,11,1.3,17,M,,M,,*6F
06/13/2014	17:06:28.853	$GPGGA,170626,2440.0685,N,08037.7966,W,1,11,1.3,17,M,,M,,*6B
06/13/2014	17:06:29.931	$GPGGA,170627,2440.0681,N,08037.7974,W,1,11,1.3,17,M,,M,,*6D
06/13/2014	17:06:31.031	$GPGGA,170628,2440.0676,N,08037.7982,W,1,11,1.3,17,M,,M,,*63
06/13/2014	17:06:32.117	$GPGGA,170629,2440.0672,N,08037.7991,W,1,11,1.3,17,M,,M,,*64
06/13/2014	17:06:33.177	$GPGGA,170630,2440.0672,N,08037.7991,W,1,11,1.3,17,M,,M,,*6C
06/13/2014	17:06:34.288	$GPGGA,170631,2440.0663,N,08037.8009,W,1,10,1.4,17,M,,M,,*6C
06/13/2014	17:06:35.386	$GPGGA,170632,2440.0658,N,08037.8018,W,1,10,1.4,17,M,,M,,*67
06/13/2014	17:06:36.475	$GPGGA,170633,2440.0655,N,08037.8025,W,1,10,1.3,17,M,,M,,*62
06/13/2014	17:06:37.532	$GPGGA,170634,2440.0655,N,08037.8025,W,1,10,1.3,17,M,,M,,*65
06/13/2014	17:06:38.632	$GPGGA,170635,2440.0650,N,08037.8035,W,1,10,1.4,17,M,,M,,*67
06/13/2014	17:06:39.699	$GPGGA,170636,2440.0643,N,08037.8050,W,1,10,1.3,17,M,,M,,*62
06/13/2014	17:06:40.815	$GPGGA,170637,2440.0638,N,08037.8060,W,1,11,1.3,17,M,,M,,*6D
06/13/2014	17:06:41.897	$GPGGA,170638,2440.0636,N,08037.8069,W,1,11,1.3,17,M,,M,,*65
06/13/2014	17:06:42.986	$GPGGA,170639,2440.0630,N,08037.8078,W,1,11,1.4,17,M,,M,,*65
06/13/2014	17:06:44.064	$GPGGA,170640,2440.0630,N,08037.8078,W,1,11,1.4,17,M,,M,,*6B
06/13/2014	17:06:45.164	$GPGGA,170641,2440.0623,N,08037.8093,W,1,11,1.3,17,M,,M,,*6A
06/13/2014	17:06:46.231	$GPGGA,170642,2440.0623,N,08037.8093,W,1,11,1.3,17,M,,M,,*69
06/13/2014	17:06:47.396	$GPGGA,170643,2440.0615,N,08037.8112,W,1,11,1.3,17,M,,M,,*65
06/13/2014	17:06:48.409	$GPGGA,170644,2440.0615,N,08037.8112,W,1,11,1.4,17,M,,M,,*65
06/13/2014	17:06:49.487	$GPGGA,170645,2440.0607,N,08037.8132,W,1,10,1.4,17,M,,M,,*64
06/13/2014	17:06:50.684	$GPGGA,170646,2440.0603,N,08037.8140,W,1,10,1.4,17,M,,M,,*66
06/13/2014	17:06:51.741	$GPGGA,170647,2440.0598,N,08037.8150,W,1,10,1.4,17,M,,M,,*67
06/13/2014	17:06:47.408	$GPGGA,170648,2440.0598,N,08037.8150,W,1,10,1.4,17,M,,M,,*68
06/13/2014	17:06:48.486	$GPGGA,170649,2440.0590,N,08037.8165,W,1,10,1.4,17,M,,M,,*67
06/13/2014	17:06:49.672	$GPGGA,170650,2440.0586,N,08037.8173,W,1,10,1.3,17,M,,M,,*68
06/13/2014	17:06:50.772	$GPGGA,170651,2440.0583,N,08037.8183,W,1,11,1.3,17,M,,M,,*62
06/13/2014	17:06:51.905	$GPGGA,170652,2440.0579,N,08037.8190,W,1,11,1.3,17,M,,M,,*66
06/13/2014	17:06:52.950	$GPGGA,170653,2440.0575,N,08037.8199,W,1,11,1.3,17,M,,M,,*62
06/13/2014	17:06:54.017	$GPGGA,170654,2440.0571,N,08037.8208,W,1,11,1.3,17,M,,M,,*6A
06/13/2014	17:06:55.128	$GPGGA,170655,2440.0567,N,08037.8217,W,1,11,1.3,17,M,,M,,*62
06/13/2014	17:06:56.216	$GPGGA,170656,2440.0562,N,08037.8226,W,1,11,1.3,17,M,,M,,*66
06/13/2014	17:06:57.305	$GPGGA,170657,2440.0557,N,08037.8235,W,1,11,1.3,17,M,,M,,*63
06/13/2014	17:06:58.361	$GPGGA,170658,2440.0553,N,08037.8245,W,1,11,1.3,17,M,,M,,*6F
06/13/2014	17:06:59.450	$GPGGA,170659,2440.0550,N,08037.8253,W,1,11,1.3,17,M,,M,,*6A
06/13/2014	17:07:00.571	$GPGGA,170700,2440.0546,N,08037.8262,W,1,11,1.3,17,M,,M,,*62
06/13/2014	17:07:01.649	$GPGGA,170701,2440.0542,N,08037.8270,W,1,10,1.4,17,M,,M,,*62
06/13/2014	17:07:03.827	$GPGGA,170703,2440.0532,N,08037.8288,W,1,11,1.3,17,M,,M,,*66
06/13/2014	17:07:04.905	$GPGGA,170704,2440.0529,N,08037.8295,W,1,11,1.4,17,M,,M,,*60
06/13/2014	17:07:05.994	$GPGGA,170705,2440.0525,N,08037.8303,W,1,11,1.3,17,M,,M,,*64
06/13/2014	17:07:07.069	$GPGGA,170706,2440.0522,N,08037.8313,W,1,11,1.3,17,M,,M,,*61
06/13/2014	17:07:08.139	$GPGGA,170707,2440.0518,N,08037.8320,W,1,11,1.3,17,M,,M,,*69
06/13/2014	17:07:09.242	$GPGGA,170708,2440.0514,N,08037.8328,W,1,11,1.3,17,M,,M,,*62
06/13/2014	17:07:10.350	$GPGGA,170709,2440.0509,N,08037.8338,W,1,10,1.4,17,M,,M,,*68
06/13/2014	17:07:11.409	$GPGGA,170710,2440.0506,N,08037.8345,W,1,10,1.3,17,M,,M,,*62
06/13/2014	17:07:12.495	$GPGGA,170711,2440.0501,N,08037.8353,W,1,10,1.4,17,M,,M,,*64
06/13/2014	17:07:13.594	$GPGGA,170712,2440.0499,N,08037.8363,W,1,10,1.3,17,M,,M,,*63
06/13/2014	17:07:14.682	$GPGGA,170713,2440.0495,N,08037.8371,W,1,11,1.3,17,M,,M,,*6C
06/13/2014	17:07:15.760	$GPGGA,170714,2440.0490,N,08037.8378,W,1,11,1.3,17,M,,M,,*67
06/13/2014	17:07:16.838	$GPGGA,170715,2440.0488,N,08037.8385,W,1,11,1.3,17,M,,M,,*6D
06/13/2014	17:07:17.949	$GPGGA,170716,2440.0484,N,08037.8393,W,1,11,1.3,17,M,,M,,*65
06/13/2014	17:07:19.048	$GPGGA,170717,2440.0480,N,08037.8401,W,1,11,1.3,17,M,,M,,*6C
06/13/2014	17:07:20.094	$GPGGA,170718,2440.0475,N,08037.8410,W,1,11,1.3,17,M,,M,,*69
06/13/2014	17:07:21.183	$GPGGA,170719,2440.0471,N,08037.8418,W,1,11,1.3,17,M,,M,,*64
06/13/2014	17:07:22.294	$GPGGA,170720,2440.0468,N,08037.8426,W,1,11,1.3,17,M,,M,,*6B
06/13/2014	17:07:23.361	$GPGGA,170721,2440.0463,N,08037.8436,W,1,10,1.4,17,M,,M,,*66
06/13/2014	17:07:24.570	$GPGGA,170722,2440.0459,N,08037.8444,W,1,10,1.4,17,M,,M,,*69
06/13/2014	17:07:25.648	$GPGGA,170723,2440.0455,N,08037.8452,W,1,11,1.3,17,M,,M,,*65
06/13/2014	17:07:26.628	$GPGGA,170724,2440.0452,N,08037.8461,W,1,11,1.3,17,M,,M,,*65
06/13/2014	17:07:27.727	$GPGGA,170725,2440.0448,N,08037.8469,W,1,11,1.3,17,M,,M,,*67
06/13/2014	17:07:28.794	$GPGGA,170726,2440.0444,N,08037.8479,W,1,11,1.4,17,M,,M,,*6E
06/13/2014	17:07:29.895	$GPGGA,170727,2440.0441,N,08037.8486,W,1,10,1.4,17,M,,M,,*6B
06/13/2014	17:07:30.973	$GPGGA,170728,2440.0436,N,08037.8493,W,1,10,1.3,17,M,,M,,*67
06/13/2014	17:07:32.171	$GPGGA,170729,2440.0432,N,08037.8502,W,1,11,1.3,17,M,,M,,*6A
06/13/2014	17:07:33.150	$GPGGA,170730,2440.0428,N,08037.8509,W,1,11,1.3,17,M,,M,,*62
06/13/2014	17:07:34.249	$GPGGA,170731,2440.0424,N,08037.8517,W,1,11,1.3,17,M,,M,,*60
06/13/2014	17:07:35.457	$GPGGA,170732,2440.0420,N,08037.8526,W,1,11,1.4,16,M,,M,,*63
06/13/2014	17:07:36.437	$GPGGA,170733,2440.0416,N,08037.8534,W,1,10,1.4,16,M,,M,,*65
06/13/2014	17:07:37.581	$GPGGA,170734,2440.0412,N,08037.8542,W,1,10,1.3,16,M,,M,,*60
06/13/2014	17:07:38.572	$GPGGA,170735,2440.0408,N,08037.8551,W,1,11,1.3,16,M,,M,,*69
06/13/2014	17:07:39.802	$GPGGA,170736,2440.0405,N,08037.8559,W,1,11,1.3,16,M,,M,,*6F
06/13/2014	17:07:40.847	$GPGGA,170737,2440.0401,N,08037.8569,W,1,10,1.4,16,M,,M,,*6F
06/13/2014	17:07:41.849	$GPGGA,170738,2440.0396,N,08037.8576,W,1,10,1.4,16,M,,M,,*67
06/13/2014	17:07:43.014	$GPGGA,170739,2440.0394,N,08037.8581,W,1,10,1.4,16,M,,M,,*6C
06/13/2014	17:07:44.114	$GPGGA,170740,2440.0390,N,08037.8591,W,1,10,1.3,16,M,,M,,*60
06/13/2014	17:07:45.236	$GPGGA,170741,2440.0387,N,08037.8598,W,1,10,1.4,16,M,,M,,*69
06/13/2014	17:07:46.281	$GPGGA,170742,2440.0383,N,08037.8607,W,1,10,1.3,16,M,,M,,*6C
06/13/2014	17:07:47.392	$GPGGA,170743,2440.0379,N,08037.8616,W,1,11,1.3,16,M,,M,,*69
06/13/2014	17:07:48.470	$GPGGA,170744,2440.0376,N,08037.8624,W,1,11,1.3,16,M,,M,,*60
06/13/2014	17:07:49.570	$GPGGA,170745,2440.0372,N,08037.8632,W,1,11,1.3,16,M,,M,,*62
06/13/2014	17:07:50.626	$GPGGA,170746,2440.0370,N,08037.8638,W,1,11,1.4,16,M,,M,,*6E
06/13/2014	17:07:51.736	$GPGGA,170747,2440.0367,N,08037.8646,W,1,11,1.3,16,M,,M,,*67
06/13/2014	17:07:47.479	$GPGGA,170748,2440.0365,N,08037.8654,W,1,11,1.3,16,M,,M,,*69
06/13/2014	17:07:48.579	$GPGGA,170749,2440.0360,N,08037.8663,W,1,11,1.3,16,M,,M,,*69
06/13/2014	17:07:49.636	$GPGGA,170750,2440.0356,N,08037.8671,W,1,11,1.4,16,M,,M,,*60
06/13/2014	17:07:50.757	$GPGGA,170751,2440.0354,N,08037.8681,W,1,10,1.4,16,M,,M,,*6D
06/13/2014	17:07:51.846	$GPGGA,170752,2440.0349,N,08037.8692,W,1,10,2.0,16,M,,M,,*67
06/13/2014	17:07:52.924	$GPGGA,170753,2440.0344,N,08037.8701,W,1,11,1.3,16,M,,M,,*61
06/13/2014	17:07:53.998	$GPGGA,170754,2440.0340,N,08037.8711,W,1,11,1.4,17,M,,M,,*65
06/13/2014	17:07:55.082	$GPGGA,170755,2440.0337,N,08037.8721,W,1,11,1.3,17,M,,M,,*60
06/13/2014	17:07:56.175	$GPGGA,170756,2440.0332,N,08037.8729,W,1,11,1.3,17,M,,M,,*6E
06/13/2014	17:07:57.275	$GPGGA,170757,2440.0329,N,08037.8739,W,1,10,1.4,17,M,,M,,*62
06/13/2014	17:07:58.352	$GPGGA,170758,2440.0325,N,08037.8747,W,1,10,1.4,17,M,,M,,*68
06/13/2014	17:07:59.414	$GPGGA,170759,2440.0322,N,08037.8755,W,1,11,1.3,17,M,,M,,*6B
06/13/2014	17:08:00.546	$GPGGA,170800,2440.0318,N,08037.8764,W,1,11,1.3,17,M,,M,,*63
06/13/2014	17:08:01.624	$GPGGA,170801,2440.0314,N,08037.8772,W,1,11,1.3,17,M,,M,,*69
06/13/2014	17:08:04.430	$GPGGA,170803,2440.0307,N,08037.8790,W,1,10,1.4,17,M,,M,,*63
06/13/2014	17:08:04.866	$GPGGA,170804,2440.0302,N,08037.8798,W,1,10,1.4,17,M,,M,,*69
06/13/2014	17:08:05.948	$GPGGA,170805,2440.0297,N,08037.8808,W,1,10,1.4,17,M,,M,,*63
06/13/2014	17:08:07.013	$GPGGA,170806,2440.0295,N,08037.8816,W,1,10,1.4,17,M,,M,,*6D
06/13/2014	17:08:08.154	$GPGGA,170807,2440.0290,N,08037.8826,W,1,11,1.3,18,M,,M,,*63
06/13/2014	17:08:09.202	$GPGGA,170808,2440.0285,N,08037.8833,W,1,11,1.4,18,M,,M,,*6B
06/13/2014	17:08:10.280	$GPGGA,170809,2440.0282,N,08037.8841,W,1,10,1.4,18,M,,M,,*69
06/13/2014	17:08:11.391	$GPGGA,170810,2440.0280,N,08037.8849,W,1,10,1.3,18,M,,M,,*6C
06/13/2014	17:08:12.578	$GPGGA,170811,2440.0275,N,08037.8858,W,1,11,1.3,18,M,,M,,*66
06/13/2014	17:08:13.547	$GPGGA,170812,2440.0271,N,08037.8866,W,1,11,1.4,18,M,,M,,*6B
06/13/2014	17:08:14.625	$GPGGA,170813,2440.0267,N,08037.8874,W,1,10,1.4,18,M,,M,,*6F
06/13/2014	17:08:15.735	$GPGGA,170814,2440.0264,N,08037.8883,W,1,10,1.3,18,M,,M,,*64
06/13/2014	17:08:16.933	$GPGGA,170815,2440.0260,N,08037.8891,W,1,11,1.3,18,M,,M,,*63
06/13/2014	17:08:17.913	$GPGGA,170816,2440.0255,N,08037.8899,W,1,11,1.4,18,M,,M,,*69
06/13/2014	17:08:19.002	$GPGGA,170817,2440.0251,N,08037.8909,W,1,10,1.4,18,M,,M,,*65
06/13/2014	17:08:20.178	$GPGGA,170818,2440.0248,N,08037.8917,W,1,10,1.4,18,M,,M,,*6D
06/13/2014	17:08:21.158	$GPGGA,170819,2440.0244,N,08037.8924,W,1,11,1.3,18,M,,M,,*66
06/13/2014	17:08:22.247	$GPGGA,170820,2440.0240,N,08037.8932,W,1,11,1.3,18,M,,M,,*6F
06/13/2014	17:08:23.325	$GPGGA,170821,2440.0237,N,08037.8941,W,1,11,1.3,18,M,,M,,*6A
06/13/2014	17:08:24.425	$GPGGA,170822,2440.0233,N,08037.8949,W,1,11,1.3,18,M,,M,,*65
06/13/2014	17:08:25.632	$GPGGA,170823,2440.0228,N,08037.8957,W,1,10,1.4,18,M,,M,,*67
06/13/2014	17:08:26.601	$GPGGA,170824,2440.0225,N,08037.8964,W,1,10,1.4,18,M,,M,,*6D
06/13/2014	17:08:27.810	$GPGGA,170825,2440.0222,N,08037.8972,W,1,11,1.3,18,M,,M,,*6A
06/13/2014	17:08:28.867	$GPGGA,170826,2440.0218,N,08037.8981,W,1,11,1.3,18,M,,M,,*6C
06/13/2014	17:08:29.944	$GPGGA,170827,2440.0214,N,08037.8988,W,1,11,1.3,18,M,,M,,*68
06/13/2014	17:08:31.055	$GPGGA,170828,2440.0210,N,08037.8996,W,1,11,1.3,18,M,,M,,*6C
06/13/2014	17:08:32.177	$GPGGA,170829,2440.0206,N,08037.9006,W,1,11,1.3,18,M,,M,,*6B
06/13/2014	17:08:33.220	$GPGGA,170830,2440.0202,N,08037.9014,W,1,11,1.4,18,M,,M,,*63
06/13/2014	17:08:34.322	$GPGGA,170831,2440.0197,N,08037.9021,W,1,11,1.3,18,M,,M,,*6C
06/13/2014	17:08:35.400	$GPGGA,170832,2440.0193,N,08037.9029,W,1,11,1.3,18,M,,M,,*63
06/13/2014	17:08:36.489	$GPGGA,170833,2440.0189,N,08037.9039,W,1,11,1.3,18,M,,M,,*68
06/13/2014	17:08:37.557	$GPGGA,170834,2440.0184,N,08037.9048,W,1,11,1.4,18,M,,M,,*63
06/13/2014	17:08:38.667	$GPGGA,170835,2440.0181,N,08037.9057,W,1,11,1.3,18,M,,M,,*6E
06/13/2014	17:08:39.734	$GPGGA,170836,2440.0175,N,08037.9064,W,1,11,1.3,18,M,,M,,*66
06/13/2014	17:08:40.833	$GPGGA,170837,2440.0171,N,08037.9072,W,1,11,1.3,18,M,,M,,*64
06/13/2014	17:08:41.905	$GPGGA,170838,2440.0168,N,08037.9080,W,1,11,1.3,18,M,,M,,*6E
06/13/2014	17:08:43.011	$GPGGA,170839,2440.0163,N,08037.9089,W,1,11,1.3,18,M,,M,,*6D
06/13/2014	17:08:44.090	$GPGGA,170840,2440.0159,N,08037.9097,W,1,11,1.3,18,M,,M,,*65
06/13/2014	17:08:45.199	$GPGGA,170841,2440.0154,N,08037.9107,W,1,11,1.3,18,M,,M,,*61
06/13/2014	17:08:46.271	$GPGGA,170842,2440.0150,N,08037.9115,W,1,11,1.3,17,M,,M,,*6A
06/13/2014	17:08:47.336	$GPGGA,170843,2440.0146,N,08037.9122,W,1,11,1.3,17,M,,M,,*68
06/13/2014	17:08:48.437	$GPGGA,170844,2440.0142,N,08037.9130,W,1,11,1.3,17,M,,M,,*68
06/13/2014	17:08:49.528	$GPGGA,170845,2440.0138,N,08037.9140,W,1,11,1.3,17,M,,M,,*63
06/13/2014	17:08:50.603	$GPGGA,170846,2440.0134,N,08037.9147,W,1,11,1.4,17,M,,M,,*6C
06/13/2014	17:08:51.721	$GPGGA,170847,2440.0130,N,08037.9155,W,1,11,1.3,17,M,,M,,*6D
06/13/2014	17:08:47.454	$GPGGA,170848,2440.0125,N,08037.9165,W,1,11,1.3,17,M,,M,,*65
06/13/2014	17:08:48.510	$GPGGA,170849,2440.0121,N,08037.9173,W,1,11,1.3,17,M,,M,,*67
06/13/2014	17:08:49.620	$GPGGA,170850,2440.0117,N,08037.9181,W,1,11,1.3,17,M,,M,,*67
06/13/2014	17:08:50.688	$GPGGA,170851,2440.0113,N,08037.9189,W,1,11,1.3,17,M,,M,,*6A
06/13/2014	17:08:51.799	$GPGGA,170852,2440.0109,N,08037.9198,W,1,11,1.3,17,M,,M,,*62
06/13/2014	17:08:52.876	$GPGGA,170853,2440.0105,N,08037.9206,W,1,10,1.4,17,M,,M,,*6D
06/13/2014	17:08:53.965	$GPGGA,170854,2440.0101,N,08037.9213,W,1,10,1.4,17,M,,M,,*6A
06/13/2014	17:08:55.163	$GPGGA,170855,2440.0098,N,08037.9221,W,1,11,1.3,17,M,,M,,*6D
06/13/2014	17:08:56.134	$GPGGA,170856,2440.0094,N,08037.9228,W,1,11,1.3,17,M,,M,,*6B
06/13/2014	17:08:57.233	$GPGGA,170857,2440.0089,N,08037.9238,W,1,11,1.3,17,M,,M,,*67
06/13/2014	17:08:58.309	$GPGGA,170858,2440.0085,N,08037.9248,W,1,11,1.4,17,M,,M,,*64
06/13/2014	17:08:59.409	$GPGGA,170859,2440.0083,N,08037.9256,W,1,10,1.4,17,M,,M,,*6D
06/13/2014	17:09:00.511	$GPGGA,170900,2440.0077,N,08037.9264,W,1,10,1.4,17,M,,M,,*6A
06/13/2014	17:09:01.577	$GPGGA,170901,2440.0072,N,08037.9272,W,1,10,1.4,17,M,,M,,*69
06/13/2014	17:09:02.773	$GPGGA,170902,2440.0069,N,08037.9281,W,1,10,1.4,17,M,,M,,*6C
06/13/2014	17:09:03.742	$GPGGA,170903,2440.0065,N,08037.9290,W,1,11,1.3,17,M,,M,,*67
06/13/2014	17:09:04.974	$GPGGA,170904,2440.0059,N,08037.9299,W,1,11,1.3,17,M,,M,,*66
06/13/2014	17:09:06.018	$GPGGA,170905,2440.0055,N,08037.9307,W,1,10,1.4,17,M,,M,,*6B
06/13/2014	17:09:07.095	$GPGGA,170906,2440.0052,N,08037.9317,W,1,10,1.4,17,M,,M,,*6E
06/13/2014	17:09:08.087	$GPGGA,170907,2440.0048,N,08037.9324,W,1,11,1.3,17,M,,M,,*62
06/13/2014	17:09:09.318	$GPGGA,170908,2440.0044,N,08037.9332,W,1,11,1.3,17,M,,M,,*66
06/13/2014	17:09:10.374	$GPGGA,170909,2440.0040,N,08037.9342,W,1,10,1.4,17,M,,M,,*62
06/13/2014	17:09:11.343	$GPGGA,170910,2440.0036,N,08037.9350,W,1,10,1.4,17,M,,M,,*68
06/13/2014	17:09:12.562	$GPGGA,170911,2440.0033,N,08037.9357,W,1,11,1.3,17,M,,M,,*6D
06/13/2014	17:09:13.630	$GPGGA,170912,2440.0029,N,08037.9364,W,1,11,1.3,17,M,,M,,*65
06/13/2014	17:09:14.697	$GPGGA,170913,2440.0026,N,08037.9372,W,1,11,1.3,17,M,,M,,*6C
06/13/2014	17:09:15.797	$GPGGA,170914,2440.0022,N,08037.9379,W,1,11,1.3,17,M,,M,,*64
06/13/2014	17:09:16.907	$GPGGA,170915,2440.0019,N,08037.9387,W,1,11,1.3,16,M,,M,,*6D
06/13/2014	17:09:17.984	$GPGGA,170916,2440.0015,N,08037.9395,W,1,11,1.3,16,M,,M,,*61
06/13/2014	17:09:19.106	$GPGGA,170917,2440.0011,N,08037.9404,W,1,11,1.3,16,M,,M,,*6B
06/13/2014	17:09:20.149	$GPGGA,170918,2440.0006,N,08037.9413,W,1,11,1.4,16,M,,M,,*63
06/13/2014	17:09:21.251	$GPGGA,170919,2440.0004,N,08037.9422,W,1,10,1.4,16,M,,M,,*63
06/13/2014	17:09:22.329	$GPGGA,170920,2440.0000,N,08037.9430,W,1,10,1.3,16,M,,M,,*69
06/13/2014	17:09:23.407	$GPGGA,170921,2439.9994,N,08037.9438,W,1,11,1.3,16,M,,M,,*62
06/13/2014	17:09:24.488	$GPGGA,170922,2439.9991,N,08037.9448,W,1,11,1.3,16,M,,M,,*63
06/13/2014	17:09:25.585	$GPGGA,170923,2439.9988,N,08037.9455,W,1,10,1.4,16,M,,M,,*60
06/13/2014	17:09:26.674	$GPGGA,170924,2439.9983,N,08037.9463,W,1,10,1.3,16,M,,M,,*6E
06/13/2014	17:09:27.762	$GPGGA,170925,2439.9982,N,08037.9470,W,1,11,1.3,16,M,,M,,*6D
06/13/2014	17:09:28.819	$GPGGA,170926,2439.9978,N,08037.9480,W,1,11,1.3,16,M,,M,,*64
06/13/2014	17:09:29.940	$GPGGA,170927,2439.9973,N,08037.9490,W,1,11,1.3,16,M,,M,,*6F
06/13/2014	17:09:31.018	$GPGGA,170928,2439.9969,N,08037.9495,W,1,11,1.4,16,M,,M,,*69
06/13/2014	17:09:32.086	$GPGGA,170929,2439.9966,N,08037.9505,W,1,11,1.3,16,M,,M,,*68
06/13/2014	17:09:33.193	$GPGGA,170930,2439.9962,N,08037.9513,W,1,11,1.3,16,M,,M,,*63
06/13/2014	17:09:34.276	$GPGGA,170931,2439.9958,N,08037.9523,W,1,11,1.3,16,M,,M,,*68
06/13/2014	17:09:35.289	$GPGGA,170932,2439.9954,N,08037.9531,W,1,11,1.3,16,M,,M,,*64
06/13/2014	17:09:36.342	$GPGGA,170933,2439.9950,N,08037.9541,W,1,10,1.4,16,M,,M,,*60
06/13/2014	17:09:37.334	$GPGGA,170934,2439.9946,N,08037.9549,W,1,10,1.3,16,M,,M,,*6F
06/13/2014	17:09:38.381	$GPGGA,170935,2439.9941,N,08037.9559,W,1,11,1.3,16,M,,M,,*69
06/13/2014	17:09:39.426	$GPGGA,170936,2439.9939,N,08037.9566,W,1,11,1.3,16,M,,M,,*69
06/13/2014	17:09:40.446	$GPGGA,170937,2439.9933,N,08037.9574,W,1,11,1.3,16,M,,M,,*61
06/13/2014	17:09:41.458	$GPGGA,170938,2439.9930,N,08037.9582,W,1,11,1.3,16,M,,M,,*64
06/13/2014	17:09:42.492	$GPGGA,170939,2439.9926,N,08037.9592,W,1,11,1.3,16,M,,M,,*63
06/13/2014	17:09:43.548	$GPGGA,170940,2439.9922,N,08037.9599,W,1,11,1.4,16,M,,M,,*65
06/13/2014	17:09:44.683	$GPGGA,170941,2439.9917,N,08037.9608,W,1,11,1.4,16,M,,M,,*69
06/13/2014	17:09:45.592	$GPGGA,170942,2439.9913,N,08037.9617,W,1,11,1.4,16,M,,M,,*60
06/13/2014	17:09:46.626	$GPGGA,170943,2439.9910,N,08037.9624,W,1,10,1.4,16,M,,M,,*63
06/13/2014	17:09:47.783	$GPGGA,170944,2439.9906,N,08037.9633,W,1,10,1.3,16,M,,M,,*62
06/13/2014	17:09:48.703	$GPGGA,170945,2439.9901,N,08037.9642,W,1,11,1.3,16,M,,M,,*63
06/13/2014	17:09:49.705	$GPGGA,170946,2439.9897,N,08037.9650,W,1,11,1.3,16,M,,M,,*6D
06/13/2014	17:09:50.739	$GPGGA,170947,2439.9894,N,08037.9658,W,1,11,1.3,16,M,,M,,*67
06/13/2014	17:09:47.498	$GPGGA,170948,2439.9888,N,08037.9667,W,1,11,1.4,16,M,,M,,*6E
06/13/2014	17:09:48.418	$GPGGA,170949,2439.9885,N,08037.9675,W,1,10,1.4,16,M,,M,,*60
06/13/2014	17:09:49.429	$GPGGA,170950,2439.9882,N,08037.9683,W,1,10,1.3,16,M,,M,,*61
06/13/2014	17:09:50.463	$GPGGA,170951,2439.9877,N,08037.9690,W,1,11,1.3,16,M,,M,,*69
06/13/2014	17:09:51.507	$GPGGA,170952,2439.9874,N,08037.9698,W,1,11,1.3,15,M,,M,,*62
06/13/2014	17:09:52.540	$GPGGA,170953,2439.9870,N,08037.9707,W,1,10,1.4,15,M,,M,,*66
06/13/2014	17:09:53.646	$GPGGA,170954,2439.9865,N,08037.9716,W,1,10,1.3,15,M,,M,,*62
06/13/2014	17:09:54.721	$GPGGA,170955,2439.9861,N,08037.9725,W,1,11,1.3,15,M,,M,,*66
06/13/2014	17:09:55.765	$GPGGA,170956,2439.9856,N,08037.9733,W,1,11,1.3,15,M,,M,,*66
06/13/2014	17:09:56.778	$GPGGA,170957,2439.9852,N,08037.9740,W,1,11,1.3,15,M,,M,,*67
06/13/2014	17:09:57.780	$GPGGA,170958,2439.9849,N,08037.9749,W,1,11,1.3,15,M,,M,,*6B
06/13/2014	17:09:58.825	$GPGGA,170959,2439.9845,N,08037.9756,W,1,11,1.3,15,M,,M,,*68
06/13/2014	17:09:59.868	$GPGGA,171000,2439.9841,N,08037.9765,W,1,11,1.3,15,M,,M,,*68
06/13/2014	17:10:00.891	$GPGGA,171001,2439.9836,N,08037.9772,W,1,11,1.3,15,M,,M,,*6F
06/13/2014	17:10:01.904	$GPGGA,171002,2439.9832,N,08037.9781,W,1,11,1.3,15,M,,M,,*64
06/13/2014	17:10:02.958	$GPGGA,171003,2439.9827,N,08037.9790,W,1,11,1.3,15,M,,M,,*61
06/13/2014	17:10:04.022	$GPGGA,171004,2439.9823,N,08037.9798,W,1,11,1.4,15,M,,M,,*6D
06/13/2014	17:10:05.025	$GPGGA,171005,2439.9819,N,08037.9806,W,1,10,1.3,15,M,,M,,*6B
06/13/2014	17:10:06.027	$GPGGA,171006,2439.9816,N,08037.9813,W,1,10,1.3,15,M,,M,,*63
06/13/2014	17:10:07.073	$GPGGA,171007,2439.9812,N,08037.9819,W,1,11,1.3,15,M,,M,,*6D
06/13/2014	17:10:08.105	$GPGGA,171008,2439.9809,N,08037.9828,W,1,11,1.4,15,M,,M,,*6D
06/13/2014	17:10:09.146	$GPGGA,171009,2439.9805,N,08037.9838,W,1,10,1.3,15,M,,M,,*67
06/13/2014	17:10:10.171	$GPGGA,171010,2439.9800,N,08037.9846,W,1,10,1.3,15,M,,M,,*63
06/13/2014	17:10:11.204	$GPGGA,171011,2439.9798,N,08037.9855,W,1,11,1.3,15,M,,M,,*6F
06/13/2014	17:10:12.227	$GPGGA,171012,2439.9794,N,08037.9863,W,1,11,1.3,15,M,,M,,*65
06/13/2014	17:10:13.271	$GPGGA,171013,2439.9791,N,08037.9871,W,1,11,1.3,15,M,,M,,*62
06/13/2014	17:10:14.284	$GPGGA,171014,2439.9788,N,08037.9879,W,1,11,1.3,15,M,,M,,*65
06/13/2014	17:10:15.318	$GPGGA,171015,2439.9784,N,08037.9888,W,1,11,1.4,15,M,,M,,*61
06/13/2014	17:10:16.354	$GPGGA,171016,2439.9780,N,08037.9897,W,1,11,1.4,15,M,,M,,*68
06/13/2014	17:10:17.374	$GPGGA,171017,2439.9776,N,08037.9906,W,1,10,1.4,15,M,,M,,*68
06/13/2014	17:10:18.419	$GPGGA,171018,2439.9771,N,08037.9917,W,1,10,1.3,15,M,,M,,*67
06/13/2014	17:10:19.452	$GPGGA,171019,2439.9769,N,08037.9924,W,1,11,1.3,15,M,,M,,*6E
06/13/2014	17:10:20.495	$GPGGA,171020,2439.9766,N,08037.9931,W,1,11,1.3,15,M,,M,,*6F
06/13/2014	17:10:21.519	$GPGGA,171021,2439.9762,N,08037.9939,W,1,11,1.4,15,M,,M,,*65
06/13/2014	17:10:22.543	$GPGGA,171022,2439.9759,N,08037.9947,W,1,11,1.3,15,M,,M,,*60
06/13/2014	17:10:23.579	$GPGGA,171023,2439.9756,N,08037.9956,W,1,11,1.3,15,M,,M,,*6E
06/13/2014	17:10:24.629	$GPGGA,171024,2439.9752,N,08037.9964,W,1,11,1.3,15,M,,M,,*6C
06/13/2014	17:10:25.641	$GPGGA,171025,2439.9748,N,08037.9971,W,1,11,1.3,15,M,,M,,*62
06/13/2014	17:10:26.686	$GPGGA,171026,2439.9744,N,08037.9980,W,1,11,1.3,15,M,,M,,*63
06/13/2014	17:10:27.708	$GPGGA,171027,2439.9740,N,08037.9989,W,1,11,1.3,15,M,,M,,*6F
06/13/2014	17:10:28.731	$GPGGA,171028,2439.9736,N,08037.9997,W,1,11,1.3,15,M,,M,,*6E
06/13/2014	17:10:29.879	$GPGGA,171029,2439.9733,N,08038.0005,W,1,11,1.3,15,M,,M,,*6E
06/13/2014	17:10:30.815	$GPGGA,171030,2439.9729,N,08038.0014,W,1,11,1.3,15,M,,M,,*6D
06/13/2014	17:10:31.946	$GPGGA,171031,2439.9725,N,08038.0022,W,1,11,1.3,15,M,,M,,*65
06/13/2014	17:10:32.865	$GPGGA,171032,2439.9722,N,08038.0032,W,1,11,1.3,15,M,,M,,*60
06/13/2014	17:10:33.971	$GPGGA,171033,2439.9717,N,08038.0040,W,1,11,1.3,15,M,,M,,*62
06/13/2014	17:10:34.912	$GPGGA,171034,2439.9713,N,08038.0048,W,1,11,1.3,15,M,,M,,*69
06/13/2014	17:10:36.070	$GPGGA,171035,2439.9709,N,08038.0056,W,1,11,1.3,15,M,,M,,*6C
06/13/2014	17:10:37.026	$GPGGA,171036,2439.9705,N,08038.0062,W,1,11,1.8,15,M,,M,,*6F
06/13/2014	17:10:38.002	$GPGGA,171037,2439.9701,N,08038.0074,W,1,10,1.3,15,M,,M,,*67
06/13/2014	17:10:39.056	$GPGGA,171038,2439.9697,N,08038.0085,W,1,10,1.3,15,M,,M,,*68
06/13/2014	17:10:40.162	$GPGGA,171039,2439.9693,N,08038.0094,W,1,11,1.3,15,M,,M,,*6C
06/13/2014	17:10:41.206	$GPGGA,171040,2439.9687,N,08038.0105,W,1,11,1.3,15,M,,M,,*6E
06/13/2014	17:10:42.146	$GPGGA,171041,2439.9683,N,08038.0113,W,1,11,1.3,15,M,,M,,*6C
06/13/2014	17:10:43.252	$GPGGA,171042,2439.9680,N,08038.0123,W,1,11,1.3,15,M,,M,,*6F
06/13/2014	17:10:44.326	$GPGGA,171043,2439.9676,N,08038.0131,W,1,11,1.3,15,M,,M,,*64
06/13/2014	17:10:45.339	$GPGGA,171044,2439.9670,N,08038.0139,W,1,11,1.3,15,M,,M,,*6D
06/13/2014	17:10:46.393	$GPGGA,171045,2439.9668,N,08038.0148,W,1,11,1.3,15,M,,M,,*63
06/13/2014	17:10:47.375	$GPGGA,171046,2439.9664,N,08038.0159,W,1,11,1.3,15,M,,M,,*6C
06/13/2014	17:10:48.408	$GPGGA,171047,2439.9659,N,08038.0166,W,1,11,1.3,15,M,,M,,*6F
06/13/2014	17:10:47.451	$GPGGA,171048,2439.9654,N,08038.0174,W,1,11,1.3,16,M,,M,,*6D
06/13/2014	17:10:48.485	$GPGGA,171049,2439.9651,N,08038.0184,W,1,11,1.4,16,M,,M,,*61
06/13/2014	17:10:49.498	$GPGGA,171050,2439.9647,N,08038.0192,W,1,11,1.4,16,M,,M,,*69
06/13/2014	17:10:50.552	$GPGGA,171051,2439.9643,N,08038.0200,W,1,11,1.3,16,M,,M,,*63
06/13/2014	17:10:51.575	$GPGGA,171052,2439.9639,N,08038.0209,W,1,11,1.3,16,M,,M,,*64
06/13/2014	17:10:52.609	$GPGGA,171053,2439.9636,N,08038.0217,W,1,11,1.3,16,M,,M,,*65
06/13/2014	17:10:53.611	$GPGGA,171054,2439.9632,N,08038.0225,W,1,11,1.3,16,M,,M,,*67
06/13/2014	17:10:54.676	$GPGGA,171055,2439.9628,N,08038.0233,W,1,11,1.3,16,M,,M,,*6A
06/13/2014	17:10:55.719	$GPGGA,171056,2439.9624,N,08038.0242,W,1,11,1.3,16,M,,M,,*63
06/13/2014	17:10:56.712	$GPGGA,171057,2439.9621,N,08038.0249,W,1,11,1.3,16,M,,M,,*6C
06/13/2014	17:10:57.746	$GPGGA,171058,2439.9617,N,08038.0257,W,1,11,1.3,16,M,,M,,*69
06/13/2014	17:10:58.777	$GPGGA,171059,2439.9613,N,08038.0267,W,1,11,1.3,16,M,,M,,*6F
06/13/2014	17:10:59.832	$GPGGA,171100,2439.9610,N,08038.0274,W,1,11,1.3,16,M,,M,,*63
06/13/2014	17:11:00.847	$GPGGA,171101,2439.9604,N,08038.0282,W,1,11,1.3,16,M,,M,,*6E
06/13/2014	17:11:01.868	$GPGGA,171102,2439.9601,N,08038.0290,W,1,11,1.4,16,M,,M,,*6C
06/13/2014	17:11:02.943	$GPGGA,171103,2439.9597,N,08038.0297,W,1,11,1.3,17,M,,M,,*60
06/13/2014	17:11:03.955	$GPGGA,171104,2439.9593,N,08038.0307,W,1,11,1.3,17,M,,M,,*6B
06/13/2014	17:11:04.979	$GPGGA,171105,2439.9589,N,08038.0314,W,1,11,1.3,17,M,,M,,*63
06/13/2014	17:11:06.003	$GPGGA,171106,2439.9586,N,08038.0323,W,1,11,1.3,17,M,,M,,*6B
06/13/2014	17:11:07.041	$GPGGA,171107,2439.9582,N,08038.0332,W,1,11,1.3,17,M,,M,,*6E
06/13/2014	17:11:08.064	$GPGGA,171108,2439.9577,N,08038.0340,W,1,11,1.3,17,M,,M,,*6E
06/13/2014	17:11:09.129	$GPGGA,171109,2439.9574,N,08038.0348,W,1,11,1.3,17,M,,M,,*64
06/13/2014	17:11:10.136	$GPGGA,171110,2439.9571,N,08038.0358,W,1,11,1.3,17,M,,M,,*68
06/13/2014	17:11:11.149	$GPGGA,171111,2439.9566,N,08038.0365,W,1,11,1.3,17,M,,M,,*61
06/13/2014	17:11:12.223	$GPGGA,171112,2439.9563,N,08038.0373,W,1,11,1.3,17,M,,M,,*60
06/13/2014	17:11:13.216	$GPGGA,171113,2439.9560,N,08038.0383,W,1,11,1.3,17,M,,M,,*6D
06/13/2014	17:11:14.363	$GPGGA,171114,2439.9556,N,08038.0391,W,1,11,1.3,17,M,,M,,*6C
06/13/2014	17:11:15.283	$GPGGA,171115,2439.9552,N,08038.0399,W,1,11,1.3,17,M,,M,,*61
06/13/2014	17:11:16.450	$GPGGA,171116,2439.9549,N,08038.0408,W,1,11,1.3,17,M,,M,,*67
06/13/2014	17:11:17.370	$GPGGA,171117,2439.9546,N,08038.0417,W,1,11,1.3,17,M,,M,,*67
06/13/2014	17:11:18.382	$GPGGA,171118,2439.9542,N,08038.0426,W,1,11,1.4,17,M,,M,,*69
06/13/2014	17:11:19.426	$GPGGA,171119,2439.9538,N,08038.0434,W,1,11,1.3,17,M,,M,,*61
06/13/2014	17:11:20.542	$GPGGA,171120,2439.9535,N,08038.0441,W,1,11,1.3,17,M,,M,,*64
06/13/2014	17:11:21.483	$GPGGA,171121,2439.9532,N,08038.0452,W,1,11,1.3,17,M,,M,,*60
06/13/2014	17:11:22.588	$GPGGA,171122,2439.9527,N,08038.0459,W,1,11,1.4,17,M,,M,,*6B
06/13/2014	17:11:23.663	$GPGGA,171123,2439.9524,N,08038.0469,W,1,11,1.3,17,M,,M,,*6D
06/13/2014	17:11:24.583	$GPGGA,171124,2439.9521,N,08038.0477,W,1,11,1.3,17,M,,M,,*60
06/13/2014	17:11:25.710	$GPGGA,171125,2439.9518,N,08038.0484,W,1,11,1.3,17,M,,M,,*67
06/13/2014	17:11:26.733	$GPGGA,171126,2439.9514,N,08038.0492,W,1,11,1.3,17,M,,M,,*6F
06/13/2014	17:11:27.756	$GPGGA,171127,2439.9510,N,08038.0502,W,1,11,1.3,17,M,,M,,*62
06/13/2014	17:11:28.696	$GPGGA,171128,2439.9507,N,08038.0509,W,1,11,1.3,17,M,,M,,*60
06/13/2014	17:11:29.719	$GPGGA,171129,2439.9505,N,08038.0517,W,1,11,1.3,17,M,,M,,*6C
06/13/2014	17:11:30.846	$GPGGA,171130,2439.9499,N,08038.0527,W,1,11,1.3,17,M,,M,,*63
06/13/2014	17:11:31.890	$GPGGA,171131,2439.9495,N,08038.0535,W,1,11,1.3,17,M,,M,,*6D
06/13/2014	17:11:32.913	$GPGGA,171132,2439.9492,N,08038.0543,W,1,11,1.3,17,M,,M,,*68
06/13/2014	17:11:33.967	$GPGGA,171133,2439.9489,N,08038.0551,W,1,11,1.3,17,M,,M,,*60
06/13/2014	17:11:34.980	$GPGGA,171134,2439.9484,N,08038.0560,W,1,11,1.3,17,M,,M,,*68
06/13/2014	17:11:36.043	$GPGGA,171135,2439.9480,N,08038.0568,W,1,11,1.3,17,M,,M,,*65
06/13/2014	17:11:37.046	$GPGGA,171136,2439.9476,N,08038.0576,W,1,11,1.4,17,M,,M,,*67
06/13/2014	17:11:38.069	$GPGGA,171137,2439.9473,N,08038.0585,W,1,11,1.3,17,M,,M,,*68
06/13/2014	17:11:39.117	$GPGGA,171138,2439.9467,N,08038.0594,W,1,11,1.3,17,M,,M,,*62
06/13/2014	17:11:40.146	$GPGGA,171139,2439.9464,N,08038.0603,W,1,11,1.3,17,M,,M,,*6D
06/13/2014	17:11:41.170	$GPGGA,171140,2439.9462,N,08038.0611,W,1,11,1.3,17,M,,M,,*66
06/13/2014	17:11:42.213	$GPGGA,171141,2439.9456,N,08038.0621,W,1,11,1.3,17,M,,M,,*63
06/13/2014	17:11:43.226	$GPGGA,171142,2439.9453,N,08038.0628,W,1,11,1.4,17,M,,M,,*6B
06/13/2014	17:11:44.280	$GPGGA,171143,2439.9451,N,08038.0634,W,1,11,1.3,17,M,,M,,*62
