Software Version Number: 1	Data File Format Number: 1	Build Version Number: 1	Error Count Since VI Started: 0	Manufacturer: Raytheon	 Model Number: RayMarine 120	 S/N: 	 Cal Date: 	 Wind Direction Offset: 0.00	 Slope (M)1: 0.00	 Offset (B)1: 0.00	 Slope (M)2: 0.00	 Offset (B)2: 0.00	 Slope (M)3: 0.00	 Offset (B)3: 0.00	 Slope (M)4: 0.00	 Offset (B)4: 0.00	 Slope (M)5: 0.00	 Offset (B)5: 0.00	 Slope (M)6: 0.00	 Offset (B)6: 0.00
Computer Date	Computer Time	GGA String
05/30/2014	15:00:00.990	$GPGGA,150006,2507.9210,N,07941.4378,W,1,10,1.4,21,M,,M,,*6C
05/30/2014	15:00:02.167	$GPGGA,150007,2507.9214,N,07941.4393,W,1,10,1.5,21,M,,M,,*6D
05/30/2014	15:00:03.189	$GPGGA,150008,2507.9218,N,07941.4408,W,1,10,1.5,21,M,,M,,*6B
05/30/2014	15:00:04.234	$GPGGA,150009,2507.9224,N,07941.4425,W,1,10,1.4,20,M,,M,,*6A
05/30/2014	15:00:05.368	$GPGGA,150010,2507.9229,N,07941.4440,W,1,10,1.4,20,M,,M,,*6C
05/30/2014	15:00:06.545	$GPGGA,150011,2507.9232,N,07941.4454,W,1,10,1.4,20,M,,M,,*62
05/30/2014	15:00:07.570	$GPGGA,150012,2507.9236,N,07941.4472,W,1,10,1.4,20,M,,M,,*61
05/30/2014	15:00:08.688	$GPGGA,150013,2507.9242,N,07941.4487,W,1,9,1.5,20,M,,M,,*50
05/30/2014	15:00:09.722	$GPGGA,150014,2507.9246,N,07941.4501,W,1,9,1.4,20,M,,M,,*5D
05/30/2014	15:00:10.943	$GPGGA,150015,2507.9250,N,07941.4516,W,1,10,1.4,20,M,,M,,*65
05/30/2014	15:00:11.933	$GPGGA,150016,2507.9254,N,07941.4531,W,1,10,1.4,20,M,,M,,*67
05/30/2014	15:00:13.088	$GPGGA,150017,2507.9257,N,07941.4546,W,1,10,1.4,20,M,,M,,*65
05/30/2014	15:00:14.143	$GPGGA,150018,2507.9261,N,07941.4561,W,1,10,1.4,20,M,,M,,*6A
05/30/2014	15:00:15.330	$GPGGA,150019,2507.9265,N,07941.4577,W,1,10,1.4,20,M,,M,,*68
05/30/2014	15:00:16.375	$GPGGA,150020,2507.9269,N,07941.4592,W,1,10,1.5,20,M,,M,,*64
05/30/2014	15:00:17.398	$GPGGA,150021,2507.9275,N,07941.4608,W,1,9,1.5,20,M,,M,,*50
05/30/2014	15:00:18.563	$GPGGA,150022,2507.9279,N,07941.4624,W,1,9,1.4,20,M,,M,,*50
05/30/2014	15:00:19.674	$GPGGA,150023,2507.9283,N,07941.4639,W,1,10,1.4,20,M,,M,,*60
05/30/2014	15:00:20.753	$GPGGA,150024,2507.9289,N,07941.4657,W,1,10,1.5,21,M,,M,,*65
05/30/2014	15:00:21.918	$GPGGA,150025,2507.9292,N,07941.4672,W,1,9,1.5,21,M,,M,,*51
05/30/2014	15:00:22.919	$GPGGA,150026,2507.9296,N,07941.4689,W,1,9,1.4,21,M,,M,,*53
05/30/2014	15:00:24.062	$GPGGA,150027,2507.9301,N,07941.4705,W,1,10,1.4,21,M,,M,,*60
05/30/2014	15:00:25.096	$GPGGA,150028,2507.9305,N,07941.4722,W,1,10,1.5,21,M,,M,,*6F
05/30/2014	15:00:26.185	$GPGGA,150029,2507.9308,N,07941.4738,W,1,10,1.4,21,M,,M,,*69
05/30/2014	15:00:27.318	$GPGGA,150030,2507.9315,N,07941.4754,W,1,10,1.4,21,M,,M,,*67
05/30/2014	15:00:28.517	$GPGGA,150031,2507.9321,N,07941.4772,W,1,10,1.5,21,M,,M,,*64
05/30/2014	15:00:29.528	$GPGGA,150032,2507.9326,N,07941.4788,W,1,10,1.5,21,M,,M,,*65
05/30/2014	15:00:30.651	$GPGGA,150033,2507.9330,N,07941.4803,W,1,10,1.4,21,M,,M,,*6E
05/30/2014	15:00:31.663	$GPGGA,150034,2507.9334,N,07941.4819,W,1,10,1.4,21,M,,M,,*66
05/30/2014	15:00:32.773	$GPGGA,150035,2507.9337,N,07941.4834,W,1,10,1.4,21,M,,M,,*6B
05/30/2014	15:00:33.927	$GPGGA,150036,2507.9341,N,07941.4849,W,1,10,1.4,21,M,,M,,*63
05/30/2014	15:00:35.103	$GPGGA,150037,2507.9347,N,07941.4866,W,1,10,1.4,22,M,,M,,*6A
05/30/2014	15:00:36.115	$GPGGA,150038,2507.9351,N,07941.4882,W,1,10,1.6,22,M,,M,,*6A
05/30/2014	15:00:37.292	$GPGGA,150039,2507.9358,N,07941.4897,W,1,8,1.4,22,M,,M,,*5D
05/30/2014	15:00:38.315	$GPGGA,150040,2507.9362,N,07941.4913,W,1,8,1.5,22,M,,M,,*56
05/30/2014	15:00:39.481	$GPGGA,150041,2507.9366,N,07941.4928,W,1,9,1.4,22,M,,M,,*5B
05/30/2014	15:00:34.572	$GPGGA,150042,2507.9369,N,07941.4944,W,1,9,1.4,22,M,,M,,*5D
05/30/2014	15:00:35.672	$GPGGA,150043,2507.9373,N,07941.4960,W,1,10,1.5,22,M,,M,,*68
05/30/2014	15:00:36.677	$GPGGA,150044,2507.9377,N,07941.4975,W,1,10,1.5,22,M,,M,,*6F
05/30/2014	15:00:37.916	$GPGGA,150045,2507.9377,N,07941.4990,W,1,9,1.4,22,M,,M,,*5C
05/30/2014	15:00:38.984	$GPGGA,150046,2507.9380,N,07941.5007,W,1,9,1.4,22,M,,M,,*51
05/30/2014	15:00:40.060	$GPGGA,150047,2507.9384,N,07941.5022,W,1,10,1.4,22,M,,M,,*6B
05/30/2014	15:00:41.172	$GPGGA,150048,2507.9388,N,07941.5037,W,1,10,1.4,22,M,,M,,*6C
05/30/2014	15:00:42.250	$GPGGA,150049,2507.9391,N,07941.5052,W,1,10,1.4,22,M,,M,,*66
05/30/2014	15:00:43.250	$GPGGA,150050,2507.9395,N,07941.5069,W,1,10,1.4,22,M,,M,,*62
05/30/2014	15:00:44.460	$GPGGA,150051,2507.9398,N,07941.5083,W,1,10,1.4,22,M,,M,,*6A
05/30/2014	15:00:45.504	$GPGGA,150052,2507.9402,N,07941.5099,W,1,10,1.4,22,M,,M,,*66
05/30/2014	15:00:46.648	$GPGGA,150053,2507.9406,N,07941.5116,W,1,10,1.4,22,M,,M,,*65
05/30/2014	15:00:47.747	$GPGGA,150054,2507.9411,N,07941.5131,W,1,10,1.4,22,M,,M,,*61
05/30/2014	15:00:48.836	$GPGGA,150055,2507.9413,N,07941.5146,W,1,10,1.4,23,M,,M,,*63
05/30/2014	15:00:49.958	$GPGGA,150056,2507.9417,N,07941.5163,W,1,10,1.4,23,M,,M,,*63
05/30/2014	15:00:51.090	$GPGGA,150057,2507.9423,N,07941.5178,W,1,10,1.4,23,M,,M,,*6F
05/30/2014	15:00:52.135	$GPGGA,150058,2507.9424,N,07941.5193,W,1,10,1.4,23,M,,M,,*62
05/30/2014	15:00:53.280	$GPGGA,150059,2507.9430,N,07941.5210,W,1,10,1.4,23,M,,M,,*6E
05/30/2014	15:00:54.358	$GPGGA,150100,2507.9434,N,07941.5224,W,1,10,1.4,23,M,,M,,*60
05/30/2014	15:00:55.458	$GPGGA,150101,2507.9437,N,07941.5240,W,1,10,1.4,23,M,,M,,*60
05/30/2014	15:00:56.523	$GPGGA,150102,2507.9441,N,07941.5256,W,1,10,1.4,23,M,,M,,*65
05/30/2014	15:00:57.645	$GPGGA,150103,2507.9445,N,07941.5271,W,1,10,1.4,23,M,,M,,*65
05/30/2014	15:00:58.746	$GPGGA,150104,2507.9449,N,07941.5286,W,1,10,1.4,23,M,,M,,*66
05/30/2014	15:00:59.856	$GPGGA,150105,2507.9452,N,07941.5303,W,1,10,1.4,23,M,,M,,*61
05/30/2014	15:01:00.923	$GPGGA,150106,2507.9456,N,07941.5318,W,1,10,1.4,23,M,,M,,*6C
05/30/2014	15:01:02.099	$GPGGA,150107,2507.9460,N,07941.5333,W,1,10,1.4,23,M,,M,,*61
05/30/2014	15:01:03.133	$GPGGA,150108,2507.9464,N,07941.5350,W,1,10,1.4,23,M,,M,,*6F
05/30/2014	15:01:04.310	$GPGGA,150109,2507.9467,N,07941.5365,W,1,10,1.4,23,M,,M,,*6B
05/30/2014	15:01:05.311	$GPGGA,150110,2507.9471,N,07941.5379,W,1,10,1.4,23,M,,M,,*69
05/30/2014	15:01:06.442	$GPGGA,150111,2507.9471,N,07941.5379,W,1,10,1.4,23,M,,M,,*68
05/30/2014	15:01:07.531	$GPGGA,150112,2507.9480,N,07941.5412,W,1,10,1.4,23,M,,M,,*6F
05/30/2014	15:01:08.642	$GPGGA,150113,2507.9484,N,07941.5426,W,1,10,1.4,22,M,,M,,*6C
05/30/2014	15:01:09.709	$GPGGA,150114,2507.9487,N,07941.5441,W,1,10,1.4,22,M,,M,,*69
05/30/2014	15:01:10.831	$GPGGA,150115,2507.9487,N,07941.5441,W,1,10,1.4,22,M,,M,,*68
05/30/2014	15:01:11.908	$GPGGA,150116,2507.9496,N,07941.5473,W,1,10,1.4,22,M,,M,,*6A
05/30/2014	15:01:13.063	$GPGGA,150117,2507.9500,N,07941.5489,W,1,10,1.4,22,M,,M,,*60
05/30/2014	15:01:14.097	$GPGGA,150118,2507.9503,N,07941.5506,W,1,10,1.4,22,M,,M,,*6A
05/30/2014	15:01:15.241	$GPGGA,150119,2507.9507,N,07941.5521,W,1,10,1.4,22,M,,M,,*6A
05/30/2014	15:01:16.297	$GPGGA,150120,2507.9507,N,07941.5521,W,1,10,1.4,22,M,,M,,*60
05/30/2014	15:01:17.418	$GPGGA,150121,2507.9513,N,07941.5536,W,1,10,1.4,22,M,,M,,*62
05/30/2014	15:01:18.485	$GPGGA,150122,2507.9520,N,07941.5568,W,1,10,1.5,22,M,,M,,*6B
05/30/2014	15:01:19.574	$GPGGA,150123,2507.9520,N,07941.5568,W,1,9,1.5,22,M,,M,,*52
05/30/2014	15:01:20.795	$GPGGA,150124,2507.9528,N,07941.5600,W,1,9,1.4,22,M,,M,,*51
05/30/2014	15:01:21.829	$GPGGA,150125,2507.9532,N,07941.5615,W,1,10,1.5,22,M,,M,,*66
05/30/2014	15:01:22.873	$GPGGA,150126,2507.9538,N,07941.5632,W,1,10,1.5,22,M,,M,,*6A
05/30/2014	15:01:24.105	$GPGGA,150127,2507.9540,N,07941.5647,W,1,10,1.4,22,M,,M,,*67
05/30/2014	15:01:25.084	$GPGGA,150128,2507.9545,N,07941.5662,W,1,10,1.5,22,M,,M,,*6B
05/30/2014	15:01:26.238	$GPGGA,150129,2507.9545,N,07941.5662,W,1,10,1.4,22,M,,M,,*6B
05/30/2014	15:01:27.262	$GPGGA,150130,2507.9553,N,07941.5694,W,1,10,1.4,22,M,,M,,*6D
05/30/2014	15:01:28.481	$GPGGA,150131,2507.9557,N,07941.5709,W,1,9,1.5,22,M,,M,,*54
05/30/2014	15:01:29.461	$GPGGA,150132,2507.9561,N,07941.5726,W,1,9,1.5,22,M,,M,,*5F
05/30/2014	15:01:30.692	$GPGGA,150133,2507.9565,N,07941.5741,W,1,9,1.5,22,M,,M,,*5B
05/30/2014	15:01:31.661	$GPGGA,150134,2507.9571,N,07941.5758,W,1,9,1.4,22,M,,M,,*50
05/30/2014	15:01:32.892	$GPGGA,150135,2507.9576,N,07941.5773,W,1,10,1.4,22,M,,M,,*67
05/30/2014	15:01:33.969	$GPGGA,150136,2507.9581,N,07941.5789,W,1,10,1.4,22,M,,M,,*69
05/30/2014	15:01:35.058	$GPGGA,150137,2507.9585,N,07941.5806,W,1,10,1.4,22,M,,M,,*64
05/30/2014	15:01:36.048	$GPGGA,150138,2507.9589,N,07941.5821,W,1,10,1.4,22,M,,M,,*62
05/30/2014	15:01:37.170	$GPGGA,150139,2507.9589,N,07941.5821,W,1,10,1.4,22,M,,M,,*63
05/30/2014	15:01:38.347	$GPGGA,150140,2507.9597,N,07941.5853,W,1,10,1.5,22,M,,M,,*66
05/30/2014	15:01:39.479	$GPGGA,150141,2507.9597,N,07941.5853,W,1,10,1.4,22,M,,M,,*66
05/30/2014	15:01:34.548	$GPGGA,150142,2507.9604,N,07941.5883,W,1,10,1.4,22,M,,M,,*61
05/30/2014	15:01:35.637	$GPGGA,150143,2507.9610,N,07941.5900,W,1,9,1.5,22,M,,M,,*56
05/30/2014	15:01:36.649	$GPGGA,150144,2507.9612,N,07941.5914,W,1,9,1.4,22,M,,M,,*57
05/30/2014	15:01:37.849	$GPGGA,150145,2507.9615,N,07941.5930,W,1,9,1.5,22,M,,M,,*56
05/30/2014	15:01:38.935	$GPGGA,150146,2507.9619,N,07941.5946,W,1,9,1.4,22,M,,M,,*59
05/30/2014	15:01:40.068	$GPGGA,150147,2507.9625,N,07941.5961,W,1,9,1.5,22,M,,M,,*53
05/30/2014	15:01:41.135	$GPGGA,150148,2507.9628,N,07941.5977,W,1,9,1.4,22,M,,M,,*57
05/30/2014	15:01:42.258	$GPGGA,150149,2507.9632,N,07941.5993,W,1,9,1.5,22,M,,M,,*56
05/30/2014	15:01:43.335	$GPGGA,150150,2507.9637,N,07941.6008,W,1,9,1.4,22,M,,M,,*52
05/30/2014	15:01:44.467	$GPGGA,150151,2507.9641,N,07941.6023,W,1,9,1.5,22,M,,M,,*5A
05/30/2014	15:01:45.534	$GPGGA,150152,2507.9644,N,07941.6040,W,1,9,1.5,22,M,,M,,*59
05/30/2014	15:01:46.646	$GPGGA,150153,2507.9648,N,07941.6055,W,1,10,1.4,22,M,,M,,*69
05/30/2014	15:01:47.735	$GPGGA,150154,2507.9652,N,07941.6070,W,1,10,1.4,22,M,,M,,*62
05/30/2014	15:01:48.845	$GPGGA,150155,2507.9658,N,07941.6087,W,1,10,1.4,22,M,,M,,*61
05/30/2014	15:01:49.933	$GPGGA,150156,2507.9661,N,07941.6102,W,1,10,1.4,22,M,,M,,*64
05/30/2014	15:01:51.033	$GPGGA,150157,2507.9664,N,07941.6116,W,1,9,1.5,22,M,,M,,*5C
05/30/2014	15:01:52.111	$GPGGA,150158,2507.9669,N,07941.6132,W,1,9,1.4,22,M,,M,,*59
05/30/2014	15:01:53.244	$GPGGA,150159,2507.9672,N,07941.6147,W,1,10,1.4,21,M,,M,,*6B
05/30/2014	15:01:54.334	$GPGGA,150200,2507.9675,N,07941.6163,W,1,10,1.5,21,M,,M,,*64
05/30/2014	15:01:55.399	$GPGGA,150201,2507.9679,N,07941.6179,W,1,9,1.5,21,M,,M,,*5A
05/30/2014	15:01:56.488	$GPGGA,150202,2507.9684,N,07941.6194,W,1,9,1.5,21,M,,M,,*58
05/30/2014	15:01:57.588	$GPGGA,150203,2507.9688,N,07941.6210,W,1,10,1.4,21,M,,M,,*63
05/30/2014	15:01:58.720	$GPGGA,150204,2507.9691,N,07941.6225,W,1,10,1.5,21,M,,M,,*6B
05/30/2014	15:01:59.819	$GPGGA,150205,2507.9695,N,07941.6241,W,1,9,1.5,21,M,,M,,*54
05/30/2014	15:02:00.886	$GPGGA,150206,2507.9699,N,07941.6257,W,1,9,1.5,21,M,,M,,*5C
05/30/2014	15:02:01.997	$GPGGA,150207,2507.9702,N,07941.6272,W,1,9,1.5,21,M,,M,,*59
05/30/2014	15:02:03.108	$GPGGA,150208,2507.9706,N,07941.6287,W,1,9,1.4,21,M,,M,,*59
05/30/2014	15:02:04.197	$GPGGA,150209,2507.9712,N,07941.6302,W,1,10,1.4,21,M,,M,,*69
05/30/2014	15:02:05.285	$GPGGA,150210,2507.9715,N,07941.6319,W,1,10,1.4,21,M,,M,,*6C
05/30/2014	15:02:06.396	$GPGGA,150211,2507.9719,N,07941.6334,W,1,10,1.4,21,M,,M,,*6E
05/30/2014	15:02:07.496	$GPGGA,150212,2507.9723,N,07941.6351,W,1,10,1.4,21,M,,M,,*67
05/30/2014	15:02:08.585	$GPGGA,150213,2507.9727,N,07941.6366,W,1,10,1.4,21,M,,M,,*66
05/30/2014	15:02:09.666	$GPGGA,150214,2507.9731,N,07941.6381,W,1,10,1.4,21,M,,M,,*6F
05/30/2014	15:02:10.762	$GPGGA,150215,2507.9734,N,07941.6398,W,1,10,1.4,21,M,,M,,*63
05/30/2014	15:02:11.884	$GPGGA,150216,2507.9738,N,07941.6413,W,1,10,1.4,21,M,,M,,*68
05/30/2014	15:02:12.973	$GPGGA,150217,2507.9742,N,07941.6427,W,1,10,1.4,21,M,,M,,*63
05/30/2014	15:02:14.051	$GPGGA,150218,2507.9745,N,07941.6443,W,1,10,1.4,21,M,,M,,*69
05/30/2014	15:02:15.283	$GPGGA,150219,2507.9748,N,07941.6459,W,1,9,1.5,21,M,,M,,*57
05/30/2014	15:02:16.261	$GPGGA,150220,2507.9753,N,07941.6474,W,1,9,1.4,21,M,,M,,*59
05/30/2014	15:02:17.503	$GPGGA,150221,2507.9758,N,07941.6490,W,1,10,1.4,21,M,,M,,*61
05/30/2014	15:02:18.570	$GPGGA,150222,2507.9760,N,07941.6506,W,1,10,1.4,21,M,,M,,*67
05/30/2014	15:02:19.571	$GPGGA,150223,2507.9764,N,07941.6521,W,1,10,1.4,21,M,,M,,*67
05/30/2014	15:02:20.770	$GPGGA,150224,2507.9770,N,07941.6536,W,1,10,1.4,21,M,,M,,*63
05/30/2014	15:02:21.847	$GPGGA,150225,2507.9774,N,07941.6553,W,1,10,1.4,21,M,,M,,*65
05/30/2014	15:02:22.947	$GPGGA,150226,2507.9777,N,07941.6568,W,1,10,1.4,21,M,,M,,*6D
05/30/2014	15:02:23.948	$GPGGA,150227,2507.9781,N,07941.6584,W,1,10,1.4,21,M,,M,,*67
05/30/2014	15:02:25.158	$GPGGA,150228,2507.9787,N,07941.6600,W,1,10,1.4,21,M,,M,,*61
05/30/2014	15:02:26.259	$GPGGA,150229,2507.9791,N,07941.6615,W,1,10,1.4,21,M,,M,,*63
05/30/2014	15:02:27.347	$GPGGA,150230,2507.9795,N,07941.6631,W,1,10,1.4,21,M,,M,,*69
05/30/2014	15:02:28.424	$GPGGA,150231,2507.9799,N,07941.6647,W,1,10,1.4,21,M,,M,,*65
05/30/2014	15:02:29.557	$GPGGA,150232,2507.9805,N,07941.6663,W,1,10,1.4,21,M,,M,,*6A
05/30/2014	15:02:30.646	$GPGGA,150233,2507.9807,N,07941.6680,W,1,10,1.4,21,M,,M,,*64
05/30/2014	15:02:31.735	$GPGGA,150234,2507.9813,N,07941.6696,W,1,10,1.4,21,M,,M,,*61
05/30/2014	15:02:32.845	$GPGGA,150235,2507.9818,N,07941.6712,W,1,10,1.4,21,M,,M,,*66
05/30/2014	15:02:33.935	$GPGGA,150236,2507.9821,N,07941.6727,W,1,10,1.4,21,M,,M,,*69
05/30/2014	15:02:35.023	$GPGGA,150237,2507.9823,N,07941.6743,W,1,9,1.5,21,M,,M,,*51
05/30/2014	15:02:36.111	$GPGGA,150238,2507.9827,N,07941.6759,W,1,9,1.4,21,M,,M,,*50
05/30/2014	15:02:37.234	$GPGGA,150239,2507.9832,N,07941.6775,W,1,9,1.5,21,M,,M,,*5A
05/30/2014	15:02:38.332	$GPGGA,150240,2507.9836,N,07941.6792,W,1,9,1.4,21,M,,M,,*58
05/30/2014	15:02:39.421	$GPGGA,150241,2507.9839,N,07941.6807,W,1,10,1.4,21,M,,M,,*6D
05/30/2014	15:02:34.513	$GPGGA,150242,2507.9843,N,07941.6824,W,1,10,1.5,21,M,,M,,*63
05/30/2014	15:02:35.635	$GPGGA,150243,2507.9846,N,07941.6839,W,1,9,1.5,21,M,,M,,*53
05/30/2014	15:02:36.724	$GPGGA,150244,2507.9846,N,07941.6853,W,1,9,1.4,21,M,,M,,*59
05/30/2014	15:02:37.834	$GPGGA,150245,2507.9850,N,07941.6869,W,1,10,1.4,21,M,,M,,*6E
05/30/2014	15:02:38.912	$GPGGA,150246,2507.9854,N,07941.6886,W,1,10,1.4,21,M,,M,,*68
05/30/2014	15:02:40.023	$GPGGA,150247,2507.9860,N,07941.6901,W,1,8,1.9,21,M,,M,,*54
05/30/2014	15:02:41.123	$GPGGA,150248,2507.9865,N,07941.6916,W,1,8,1.6,21,M,,M,,*57
05/30/2014	15:02:42.224	$GPGGA,150249,2507.9868,N,07941.6933,W,1,9,1.6,21,M,,M,,*5D
05/30/2014	15:02:43.300	$GPGGA,150250,2507.9872,N,07941.6948,W,1,9,1.6,21,M,,M,,*52
05/30/2014	15:02:44.389	$GPGGA,150251,2507.9876,N,07941.6965,W,1,9,1.6,21,M,,M,,*58
05/30/2014	15:02:45.511	$GPGGA,150252,2507.9881,N,07941.6980,W,1,9,1.6,21,M,,M,,*58
05/30/2014	15:02:46.600	$GPGGA,150253,2507.9885,N,07941.6995,W,1,9,1.6,21,M,,M,,*59
05/30/2014	15:02:47.689	$GPGGA,150254,2507.9888,N,07941.7012,W,1,9,1.6,21,M,,M,,*54
05/30/2014	15:02:48.788	$GPGGA,150255,2507.9892,N,07941.7027,W,1,9,1.6,21,M,,M,,*58
05/30/2014	15:02:49.898	$GPGGA,150256,2507.9896,N,07941.7043,W,1,9,1.6,21,M,,M,,*5D
05/30/2014	15:02:50.976	$GPGGA,150257,2507.9900,N,07941.7059,W,1,9,1.6,21,M,,M,,*59
05/30/2014	15:02:52.087	$GPGGA,150258,2507.9904,N,07941.7074,W,1,9,1.6,21,M,,M,,*5D
05/30/2014	15:02:53.164	$GPGGA,150259,2507.9908,N,07941.7090,W,1,9,1.6,21,M,,M,,*5A
05/30/2014	15:02:54.297	$GPGGA,150300,2507.9911,N,07941.7108,W,1,9,1.6,21,M,,M,,*5F
05/30/2014	15:02:55.408	$GPGGA,150301,2507.9915,N,07941.7124,W,1,9,1.6,21,M,,M,,*54
05/30/2014	15:02:56.596	$GPGGA,150302,2507.9919,N,07941.7140,W,1,9,1.6,21,M,,M,,*59
05/30/2014	15:02:57.674	$GPGGA,150303,2507.9922,N,07941.7157,W,1,9,1.6,21,M,,M,,*56
05/30/2014	15:02:58.685	$GPGGA,150304,2507.9926,N,07941.7172,W,1,9,1.6,21,M,,M,,*52
05/30/2014	15:02:59.763	$GPGGA,150305,2507.9930,N,07941.7189,W,1,9,1.6,21,M,,M,,*50
05/30/2014	15:03:00.852	$GPGGA,150306,2507.9935,N,07941.7204,W,1,9,1.6,21,M,,M,,*50
05/30/2014	15:03:01.952	$GPGGA,150307,2507.9939,N,07941.7220,W,1,9,1.6,21,M,,M,,*5B
05/30/2014	15:03:03.074	$GPGGA,150308,2507.9943,N,07941.7236,W,1,9,1.6,21,M,,M,,*5E
05/30/2014	15:03:04.140	$GPGGA,150309,2507.9947,N,07941.7252,W,1,9,1.6,21,M,,M,,*59
05/30/2014	15:03:05.373	$GPGGA,150310,2507.9951,N,07941.7269,W,1,9,1.6,21,M,,M,,*5E
05/30/2014	15:03:06.340	$GPGGA,150311,2507.9955,N,07941.7284,W,1,9,1.6,21,M,,M,,*58
05/30/2014	15:03:07.583	$GPGGA,150312,2507.9958,N,07941.7299,W,1,9,1.6,21,M,,M,,*5A
05/30/2014	15:03:08.649	$GPGGA,150313,2507.9964,N,07941.7316,W,1,9,1.6,21,M,,M,,*52
05/30/2014	15:03:09.649	$GPGGA,150314,2507.9968,N,07941.7331,W,1,9,1.6,21,M,,M,,*5C
05/30/2014	15:03:10.838	$GPGGA,150315,2507.9971,N,07941.7346,W,1,9,1.6,21,M,,M,,*55
05/30/2014	15:03:11.959	$GPGGA,150316,2507.9975,N,07941.7363,W,1,9,1.6,21,M,,M,,*55
05/30/2014	15:03:13.037	$GPGGA,150317,2507.9979,N,07941.7378,W,1,9,1.6,21,M,,M,,*52
05/30/2014	15:03:14.137	$GPGGA,150318,2507.9984,N,07941.7393,W,1,9,1.6,21,M,,M,,*5A
05/30/2014	15:03:15.225	$GPGGA,150319,2507.9987,N,07941.7410,W,1,9,1.6,21,M,,M,,*54
05/30/2014	15:03:16.337	$GPGGA,150320,2507.9991,N,07941.7424,W,1,9,1.6,21,M,,M,,*5E
05/30/2014	15:03:17.438	$GPGGA,150321,2507.9995,N,07941.7440,W,1,9,1.6,21,M,,M,,*59
05/30/2014	15:03:18.536	$GPGGA,150322,2508.0002,N,07941.7457,W,1,9,1.9,21,M,,M,,*52
05/30/2014	15:03:19.614	$GPGGA,150323,2508.0008,N,07941.7473,W,1,9,1.6,21,M,,M,,*50
05/30/2014	15:03:20.735	$GPGGA,150324,2508.0012,N,07941.7489,W,1,9,1.6,21,M,,M,,*59
05/30/2014	15:03:21.847	$GPGGA,150325,2508.0016,N,07941.7504,W,1,8,1.9,21,M,,M,,*56
05/30/2014	15:03:22.914	$GPGGA,150326,2508.0020,N,07941.7520,W,1,8,1.6,21,M,,M,,*59
05/30/2014	15:03:24.047	$GPGGA,150327,2508.0027,N,07941.7536,W,1,9,1.6,21,M,,M,,*59
05/30/2014	15:03:25.113	$GPGGA,150328,2508.0031,N,07941.7554,W,1,9,1.6,21,M,,M,,*55
05/30/2014	15:03:26.212	$GPGGA,150329,2508.0034,N,07941.7570,W,1,8,1.9,21,M,,M,,*59
05/30/2014	15:03:27.312	$GPGGA,150330,2508.0038,N,07941.7587,W,1,8,1.9,21,M,,M,,*55
05/30/2014	15:03:28.433	$GPGGA,150331,2508.0045,N,07941.7605,W,1,9,1.6,21,M,,M,,*59
05/30/2014	15:03:29.522	$GPGGA,150332,2508.0049,N,07941.7621,W,1,9,1.6,21,M,,M,,*50
05/30/2014	15:03:30.599	$GPGGA,150333,2508.0052,N,07941.7637,W,1,9,1.6,21,M,,M,,*5C
05/30/2014	15:03:31.699	$GPGGA,150334,2508.0055,N,07941.7653,W,1,9,1.9,21,M,,M,,*51
05/30/2014	15:03:32.811	$GPGGA,150335,2508.0058,N,07941.7668,W,1,8,1.9,21,M,,M,,*54
05/30/2014	15:03:33.899	$GPGGA,150336,2508.0060,N,07941.7684,W,1,8,1.9,21,M,,M,,*5E
05/30/2014	15:03:35.010	$GPGGA,150337,2508.0066,N,07941.7699,W,1,8,1.9,21,M,,M,,*55
05/30/2014	15:03:36.098	$GPGGA,150338,2508.0070,N,07941.7715,W,1,8,1.6,21,M,,M,,*57
05/30/2014	15:03:37.209	$GPGGA,150339,2508.0074,N,07941.7731,W,1,9,1.6,21,M,,M,,*55
05/30/2014	15:03:38.287	$GPGGA,150340,2508.0077,N,07941.7746,W,1,9,1.6,21,M,,M,,*58
05/30/2014	15:03:39.376	$GPGGA,150341,2508.0081,N,07941.7762,W,1,8,1.9,21,M,,M,,*58
05/30/2014	15:03:34.500	$GPGGA,150342,2508.0085,N,07941.7778,W,1,8,1.6,21,M,,M,,*5B
05/30/2014	15:03:35.578	$GPGGA,150343,2508.0091,N,07941.7793,W,1,8,1.9,21,M,,M,,*55
05/30/2014	15:03:36.699	$GPGGA,150344,2508.0094,N,07941.7808,W,1,8,1.6,21,M,,M,,*55
05/30/2014	15:03:37.810	$GPGGA,150345,2508.0096,N,07941.7825,W,1,9,1.6,21,M,,M,,*58
05/30/2014	15:03:38.888	$GPGGA,150346,2508.0099,N,07941.7840,W,1,9,1.9,21,M,,M,,*58
05/30/2014	15:03:40.010	$GPGGA,150347,2508.0105,N,07941.7855,W,1,9,1.6,20,M,,M,,*57
05/30/2014	15:03:41.097	$GPGGA,150348,2508.0107,N,07941.7872,W,1,9,1.6,20,M,,M,,*5F
05/30/2014	15:03:42.197	$GPGGA,150349,2508.0112,N,07941.7887,W,1,8,1.9,20,M,,M,,*5E
05/30/2014	15:03:43.286	$GPGGA,150350,2508.0116,N,07941.7902,W,1,8,1.9,20,M,,M,,*5E
05/30/2014	15:03:44.397	$GPGGA,150351,2508.0118,N,07941.7919,W,1,8,1.9,20,M,,M,,*5B
05/30/2014	15:03:45.464	$GPGGA,150352,2508.0123,N,07941.7934,W,1,8,1.9,20,M,,M,,*5F
05/30/2014	15:03:46.574	$GPGGA,150353,2508.0128,N,07941.7951,W,1,8,1.9,20,M,,M,,*56
05/30/2014	15:03:47.784	$GPGGA,150354,2508.0132,N,07941.7966,W,1,8,1.6,20,M,,M,,*51
05/30/2014	15:03:48.752	$GPGGA,150355,2508.0135,N,07941.7982,W,1,8,1.9,20,M,,M,,*52
05/30/2014	15:03:49.874	$GPGGA,150356,2508.0139,N,07941.7999,W,1,8,1.9,20,M,,M,,*57
05/30/2014	15:03:50.976	$GPGGA,150357,2508.0148,N,07941.8014,W,1,9,1.6,20,M,,M,,*5D
05/30/2014	15:03:52.051	$GPGGA,150358,2508.0153,N,07941.8031,W,1,9,1.6,20,M,,M,,*5F
05/30/2014	15:03:53.151	$GPGGA,150359,2508.0159,N,07941.8046,W,1,9,1.6,20,M,,M,,*54
05/30/2014	15:03:54.406	$GPGGA,150400,2508.0161,N,07941.8061,W,1,9,1.6,20,M,,M,,*51
05/30/2014	15:03:55.362	$GPGGA,150401,2508.0168,N,07941.8078,W,1,8,1.9,20,M,,M,,*5F
05/30/2014	15:03:56.440	$GPGGA,150402,2508.0172,N,07941.8093,W,1,8,1.6,20,M,,M,,*5D
05/30/2014	15:03:57.660	$GPGGA,150403,2508.0175,N,07941.8108,W,1,9,1.6,20,M,,M,,*59
05/30/2014	15:03:58.749	$GPGGA,150404,2508.0179,N,07941.8125,W,1,9,1.6,20,M,,M,,*5D
05/30/2014	15:03:59.827	$GPGGA,150405,2508.0183,N,07941.8140,W,1,9,1.6,20,M,,M,,*5A
05/30/2014	15:04:00.827	$GPGGA,150406,2508.0186,N,07941.8157,W,1,9,1.6,20,M,,M,,*5A
05/30/2014	15:04:02.048	$GPGGA,150407,2508.0189,N,07941.8172,W,1,8,1.9,20,M,,M,,*5D
05/30/2014	15:04:03.147	$GPGGA,150408,2508.0193,N,07941.8187,W,1,8,1.9,20,M,,M,,*53
05/30/2014	15:04:04.226	$GPGGA,150409,2508.0197,N,07941.8204,W,1,9,1.6,20,M,,M,,*50
05/30/2014	15:04:05.326	$GPGGA,150410,2508.0200,N,07941.8219,W,1,9,1.6,20,M,,M,,*59
05/30/2014	15:04:06.414	$GPGGA,150411,2508.0203,N,07941.8234,W,1,9,1.6,20,M,,M,,*54
05/30/2014	15:04:07.536	$GPGGA,150412,2508.0207,N,07941.8249,W,1,9,1.9,20,M,,M,,*56
05/30/2014	15:04:08.624	$GPGGA,150413,2508.0211,N,07941.8266,W,1,8,1.9,20,M,,M,,*5C
05/30/2014	15:04:09.713	$GPGGA,150414,2508.0217,N,07941.8281,W,1,8,1.9,20,M,,M,,*54
05/30/2014	15:04:10.802	$GPGGA,150415,2508.0219,N,07941.8296,W,1,9,1.6,20,M,,M,,*53
05/30/2014	15:04:11.914	$GPGGA,150416,2508.0222,N,07941.8311,W,1,9,1.9,20,M,,M,,*59
05/30/2014	15:04:13.024	$GPGGA,150417,2508.0228,N,07941.8328,W,1,8,1.9,20,M,,M,,*59
05/30/2014	15:04:14.112	$GPGGA,150418,2508.0230,N,07941.8343,W,1,8,1.9,20,M,,M,,*52
05/30/2014	15:04:15.201	$GPGGA,150419,2508.0233,N,07941.8360,W,1,9,1.6,20,M,,M,,*5F
05/30/2014	15:04:16.323	$GPGGA,150420,2508.0237,N,07941.8375,W,1,9,1.9,20,M,,M,,*5A
05/30/2014	15:04:17.390	$GPGGA,150421,2508.0240,N,07941.8392,W,1,8,1.9,20,M,,M,,*53
05/30/2014	15:04:18.501	$GPGGA,150422,2508.0246,N,07941.8407,W,1,8,1.6,20,M,,M,,*52
05/30/2014	15:04:19.621	$GPGGA,150423,2508.0250,N,07941.8423,W,1,9,1.6,20,M,,M,,*53
05/30/2014	15:04:20.710	$GPGGA,150424,2508.0255,N,07941.8439,W,1,9,1.6,20,M,,M,,*5A
05/30/2014	15:04:21.777	$GPGGA,150425,2508.0260,N,07941.8454,W,1,9,1.6,20,M,,M,,*56
05/30/2014	15:04:22.899	$GPGGA,150426,2508.0265,N,07941.8469,W,1,9,1.6,20,M,,M,,*5E
05/30/2014	15:04:24.009	$GPGGA,150427,2508.0269,N,07941.8486,W,1,9,1.6,20,M,,M,,*52
05/30/2014	15:04:25.087	$GPGGA,150428,2508.0273,N,07941.8501,W,1,9,1.6,20,M,,M,,*58
05/30/2014	15:04:26.209	$GPGGA,150429,2508.0276,N,07941.8517,W,1,9,1.6,20,M,,M,,*5B
05/30/2014	15:04:27.265	$GPGGA,150430,2508.0280,N,07941.8533,W,1,9,1.9,20,M,,M,,*53
05/30/2014	15:04:28.409	$GPGGA,150431,2508.0286,N,07941.8548,W,1,9,1.6,20,M,,M,,*57
05/30/2014	15:04:29.430	$GPGGA,150432,2508.0289,N,07941.8564,W,1,9,1.6,20,M,,M,,*55
05/30/2014	15:04:30.447	$GPGGA,150433,2508.0293,N,07941.8580,W,1,9,1.6,20,M,,M,,*55
05/30/2014	15:04:31.494	$GPGGA,150434,2508.0297,N,07941.8596,W,1,9,1.6,20,M,,M,,*51
05/30/2014	15:04:32.564	$GPGGA,150435,2508.0298,N,07941.8613,W,1,8,1.9,20,M,,M,,*5F
05/30/2014	15:04:33.580	$GPGGA,150436,2508.0302,N,07941.8627,W,1,8,1.6,20,M,,M,,*56
05/30/2014	15:04:34.607	$GPGGA,150437,2508.0307,N,07941.8643,W,1,9,1.6,20,M,,M,,*51
05/30/2014	15:04:35.624	$GPGGA,150438,2508.0312,N,07941.8660,W,1,9,1.6,20,M,,M,,*5B
05/30/2014	15:04:36.786	$GPGGA,150439,2508.0316,N,07941.8675,W,1,9,1.6,20,M,,M,,*5A
05/30/2014	15:04:37.709	$GPGGA,150440,2508.0320,N,07941.8690,W,1,9,1.6,20,M,,M,,*5A
05/30/2014	15:04:38.842	$GPGGA,150441,2508.0323,N,07941.8707,W,1,9,1.9,20,M,,M,,*58
05/30/2014	15:04:34.519	$GPGGA,150442,2508.0329,N,07941.8722,W,1,9,1.6,20,M,,M,,*59
05/30/2014	15:04:35.463	$GPGGA,150443,2508.0333,N,07941.8739,W,1,9,1.6,20,M,,M,,*59
05/30/2014	15:04:36.614	$GPGGA,150444,2508.0337,N,07941.8754,W,1,9,1.6,20,M,,M,,*51
05/30/2014	15:04:37.652	$GPGGA,150445,2508.0340,N,07941.8770,W,1,9,1.6,20,M,,M,,*56
05/30/2014	15:04:38.565	$GPGGA,150446,2508.0342,N,07941.8786,W,1,9,1.6,20,M,,M,,*5E
05/30/2014	15:04:39.706	$GPGGA,150447,2508.0348,N,07941.8801,W,1,9,1.6,20,M,,M,,*55
05/30/2014	15:04:40.661	$GPGGA,150448,2508.0352,N,07941.8818,W,1,9,1.6,20,M,,M,,*59
05/30/2014	15:04:41.781	$GPGGA,150449,2508.0355,N,07941.8833,W,1,9,1.6,20,M,,M,,*56
05/30/2014	15:04:42.820	$GPGGA,150450,2508.0356,N,07941.8848,W,1,9,1.9,20,M,,M,,*5E
05/30/2014	15:04:43.846	$GPGGA,150451,2508.0362,N,07941.8865,W,1,8,1.9,20,M,,M,,*56
05/30/2014	15:04:44.904	$GPGGA,150452,2508.0367,N,07941.8880,W,1,8,1.6,20,M,,M,,*54
05/30/2014	15:04:45.817	$GPGGA,150453,2508.0373,N,07941.8896,W,1,9,1.6,20,M,,M,,*56
05/30/2014	15:04:46.937	$GPGGA,150454,2508.0377,N,07941.8912,W,1,9,1.6,20,M,,M,,*58
05/30/2014	15:04:48.006	$GPGGA,150455,2508.0381,N,07941.8927,W,1,9,1.6,20,M,,M,,*56
05/30/2014	15:04:49.054	$GPGGA,150456,2508.0385,N,07941.8943,W,1,9,1.6,20,M,,M,,*53
05/30/2014	15:04:50.071	$GPGGA,150457,2508.0389,N,07941.8959,W,1,9,1.6,20,M,,M,,*55
05/30/2014	15:04:51.086	$GPGGA,150458,2508.0394,N,07941.8974,W,1,9,1.6,20,M,,M,,*59
05/30/2014	15:04:52.134	$GPGGA,150459,2508.0398,N,07941.8990,W,1,9,1.6,20,M,,M,,*5E
05/30/2014	15:04:53.204	$GPGGA,150500,2508.0402,N,07941.9007,W,1,9,1.6,20,M,,M,,*51
05/30/2014	15:04:54.220	$GPGGA,150501,2508.0405,N,07941.9022,W,1,9,1.6,20,M,,M,,*50
05/30/2014	15:04:55.216	$GPGGA,150502,2508.0407,N,07941.9039,W,1,9,1.6,20,M,,M,,*5B
05/30/2014	15:04:56.305	$GPGGA,150503,2508.0413,N,07941.9054,W,1,9,1.6,20,M,,M,,*54
05/30/2014	15:04:57.322	$GPGGA,150504,2508.0416,N,07941.9069,W,1,9,1.6,20,M,,M,,*58
05/30/2014	15:04:58.349	$GPGGA,150505,2508.0420,N,07941.9086,W,1,9,1.6,20,M,,M,,*5D
05/30/2014	15:04:59.355	$GPGGA,150506,2508.0421,N,07941.9101,W,1,9,1.9,20,M,,M,,*5E
05/30/2014	15:05:00.424	$GPGGA,150507,2508.0428,N,07941.9116,W,1,8,1.6,20,M,,M,,*5E
05/30/2014	15:05:01.472	$GPGGA,150508,2508.0434,N,07941.9133,W,1,8,1.6,20,M,,M,,*5B
05/30/2014	15:05:02.499	$GPGGA,150509,2508.0438,N,07941.9148,W,1,9,1.6,20,M,,M,,*5B
05/30/2014	15:05:03.505	$GPGGA,150510,2508.0439,N,07941.9165,W,1,9,1.9,20,M,,M,,*52
05/30/2014	15:05:04.553	$GPGGA,150511,2508.0443,N,07941.9180,W,1,8,1.9,20,M,,M,,*54
05/30/2014	15:05:05.601	$GPGGA,150512,2508.0448,N,07941.9195,W,1,8,1.6,20,M,,M,,*57
05/30/2014	15:05:06.618	$GPGGA,150513,2508.0449,N,07941.9212,W,1,9,1.6,20,M,,M,,*5A
05/30/2014	15:05:07.655	$GPGGA,150514,2508.0450,N,07941.9227,W,1,9,1.6,20,M,,M,,*53
05/30/2014	15:05:08.703	$GPGGA,150515,2508.0454,N,07941.9243,W,1,9,1.6,20,M,,M,,*54
05/30/2014	15:05:09.740	$GPGGA,150516,2508.0459,N,07941.9259,W,1,9,1.6,20,M,,M,,*51
05/30/2014	15:05:10.756	$GPGGA,150517,2508.0461,N,07941.9275,W,1,9,1.6,20,M,,M,,*55
05/30/2014	15:05:11.804	$GPGGA,150518,2508.0464,N,07941.9292,W,1,9,1.9,20,M,,M,,*59
05/30/2014	15:05:12.831	$GPGGA,150519,2508.0468,N,07941.9307,W,1,8,1.6,20,M,,M,,*57
05/30/2014	15:05:13.900	$GPGGA,150520,2508.0475,N,07941.9324,W,1,8,1.6,20,M,,M,,*50
05/30/2014	15:05:14.906	$GPGGA,150521,2508.0479,N,07941.9339,W,1,9,1.6,20,M,,M,,*50
05/30/2014	15:05:15.954	$GPGGA,150522,2508.0481,N,07941.9354,W,1,9,1.9,20,M,,M,,*50
05/30/2014	15:05:16.971	$GPGGA,150523,2508.0486,N,07941.9371,W,1,8,1.9,20,M,,M,,*50
05/30/2014	15:05:18.040	$GPGGA,150524,2508.0490,N,07941.9386,W,1,8,1.6,20,M,,M,,*57
05/30/2014	15:05:19.046	$GPGGA,150525,2508.0493,N,07941.9402,W,1,9,1.6,19,M,,M,,*55
05/30/2014	15:05:20.074	$GPGGA,150526,2508.0496,N,07941.9418,W,1,9,1.9,19,M,,M,,*57
05/30/2014	15:05:21.142	$GPGGA,150527,2508.0500,N,07941.9434,W,1,8,1.9,19,M,,M,,*57
05/30/2014	15:05:22.304	$GPGGA,150528,2508.0504,N,07941.9451,W,1,8,1.6,19,M,,M,,*50
05/30/2014	15:05:24.731	$GPGGA,150530,2508.0522,N,07941.9483,W,1,9,1.6,19,M,,M,,*53
05/30/2014	15:05:25.354	$GPGGA,150531,2508.0528,N,07941.9498,W,1,9,1.6,19,M,,M,,*52
05/30/2014	15:05:26.299	$GPGGA,150532,2508.0529,N,07941.9514,W,1,9,1.9,19,M,,M,,*5A
05/30/2014	15:05:27.324	$GPGGA,150533,2508.0533,N,07941.9530,W,1,8,1.6,19,M,,M,,*58
05/30/2014	15:05:28.465	$GPGGA,150534,2508.0537,N,07941.9546,W,1,8,1.6,19,M,,M,,*5A
05/30/2014	15:05:29.524	$GPGGA,150535,2508.0542,N,07941.9563,W,1,9,1.6,19,M,,M,,*5F
05/30/2014	15:05:30.572	$GPGGA,150536,2508.0546,N,07941.9578,W,1,9,1.6,19,M,,M,,*52
05/30/2014	15:05:31.569	$GPGGA,150537,2508.0549,N,07941.9595,W,1,9,1.6,19,M,,M,,*5F
05/30/2014	15:05:32.513	$GPGGA,150538,2508.0553,N,07941.9610,W,1,9,1.6,19,M,,M,,*55
05/30/2014	15:05:33.633	$GPGGA,150539,2508.0558,N,07941.9625,W,1,9,1.6,19,M,,M,,*59
05/30/2014	15:05:34.607	$GPGGA,150540,2508.0562,N,07941.9642,W,1,9,1.6,19,M,,M,,*5F
05/30/2014	15:05:35.707	$GPGGA,150541,2508.0565,N,07941.9658,W,1,9,1.6,19,M,,M,,*52
05/30/2014	15:05:34.486	$GPGGA,150542,2508.0569,N,07941.9673,W,1,9,1.6,19,M,,M,,*54
05/30/2014	15:05:35.555	$GPGGA,150543,2508.0573,N,07941.9689,W,1,9,1.6,19,M,,M,,*5B
05/30/2014	15:05:36.592	$GPGGA,150544,2508.0580,N,07941.9704,W,1,9,1.9,19,M,,M,,*5B
05/30/2014	15:05:37.610	$GPGGA,150545,2508.0586,N,07941.9720,W,1,9,1.6,19,M,,M,,*55
05/30/2014	15:05:38.648	$GPGGA,150546,2508.0590,N,07941.9736,W,1,9,1.6,19,M,,M,,*56
05/30/2014	15:05:39.684	$GPGGA,150547,2508.0596,N,07941.9751,W,1,9,1.6,19,M,,M,,*50
05/30/2014	15:05:40.722	$GPGGA,150548,2508.0602,N,07941.9766,W,1,9,1.6,19,M,,M,,*55
05/30/2014	15:05:41.749	$GPGGA,150549,2508.0607,N,07941.9781,W,1,9,1.6,19,M,,M,,*58
05/30/2014	15:05:42.786	$GPGGA,150550,2508.0611,N,07941.9798,W,1,9,1.6,19,M,,M,,*5F
05/30/2014	15:05:43.833	$GPGGA,150551,2508.0616,N,07941.9812,W,1,9,1.6,19,M,,M,,*54
05/30/2014	15:05:44.860	$GPGGA,150552,2508.0620,N,07941.9827,W,1,9,1.6,19,M,,M,,*54
05/30/2014	15:05:45.877	$GPGGA,150553,2508.0625,N,07941.9844,W,1,9,1.6,19,M,,M,,*55
05/30/2014	15:05:46.915	$GPGGA,150554,2508.0629,N,07941.9859,W,1,9,1.6,19,M,,M,,*52
05/30/2014	15:05:47.974	$GPGGA,150555,2508.0634,N,07941.9874,W,1,9,1.6,19,M,,M,,*50
05/30/2014	15:05:49.010	$GPGGA,150556,2508.0638,N,07941.9889,W,1,9,1.6,19,M,,M,,*5D
05/30/2014	15:05:50.049	$GPGGA,150557,2508.0643,N,07941.9904,W,1,9,1.6,19,M,,M,,*54
05/30/2014	15:05:51.065	$GPGGA,150558,2508.0648,N,07941.9921,W,1,9,1.6,19,M,,M,,*57
05/30/2014	15:05:52.123	$GPGGA,150559,2508.0651,N,07941.9935,W,1,9,1.6,19,M,,M,,*5B
05/30/2014	15:05:53.160	$GPGGA,150600,2508.0655,N,07941.9951,W,1,9,1.6,19,M,,M,,*52
05/30/2014	15:05:54.156	$GPGGA,150601,2508.0659,N,07941.9967,W,1,9,1.6,20,M,,M,,*50
05/30/2014	15:05:55.215	$GPGGA,150602,2508.0662,N,07941.9983,W,1,9,1.6,20,M,,M,,*51
05/30/2014	15:05:56.262	$GPGGA,150603,2508.0666,N,07942.0000,W,1,9,1.6,20,M,,M,,*5C
05/30/2014	15:05:57.290	$GPGGA,150604,2508.0669,N,07942.0014,W,1,9,1.6,20,M,,M,,*51
05/30/2014	15:05:58.337	$GPGGA,150605,2508.0673,N,07942.0030,W,1,9,1.6,20,M,,M,,*5D
05/30/2014	15:05:59.354	$GPGGA,150606,2508.0676,N,07942.0045,W,1,9,1.6,20,M,,M,,*59
05/30/2014	15:06:00.371	$GPGGA,150607,2508.0680,N,07942.0062,W,1,9,1.6,20,M,,M,,*54
05/30/2014	15:06:01.428	$GPGGA,150608,2508.0684,N,07942.0079,W,1,9,1.6,20,M,,M,,*55
05/30/2014	15:06:02.455	$GPGGA,150609,2508.0687,N,07942.0094,W,1,9,1.6,20,M,,M,,*54
05/30/2014	15:06:03.482	$GPGGA,150610,2508.0691,N,07942.0110,W,1,9,1.6,20,M,,M,,*56
05/30/2014	15:06:04.510	$GPGGA,150611,2508.0695,N,07942.0126,W,1,9,1.6,20,M,,M,,*56
05/30/2014	15:06:05.683	$GPGGA,150612,2508.0699,N,07942.0142,W,1,9,1.6,20,M,,M,,*5B
05/30/2014	15:06:06.605	$GPGGA,150613,2508.0702,N,07942.0159,W,1,9,1.6,20,M,,M,,*53
05/30/2014	15:06:07.613	$GPGGA,150614,2508.0706,N,07942.0174,W,1,9,1.6,20,M,,M,,*5F
05/30/2014	15:06:08.649	$GPGGA,150615,2508.0709,N,07942.0191,W,1,9,1.6,20,M,,M,,*5A
05/30/2014	15:06:09.832	$GPGGA,150616,2508.0713,N,07942.0206,W,1,9,1.6,20,M,,M,,*5F
05/30/2014	15:06:10.849	$GPGGA,150617,2508.0717,N,07942.0222,W,1,9,1.6,20,M,,M,,*5C
05/30/2014	15:06:11.865	$GPGGA,150618,2508.0721,N,07942.0238,W,1,9,1.6,20,M,,M,,*5D
05/30/2014	15:06:12.924	$GPGGA,150619,2508.0724,N,07942.0254,W,1,9,1.6,20,M,,M,,*53
05/30/2014	15:06:13.972	$GPGGA,150620,2508.0728,N,07942.0271,W,1,9,1.6,20,M,,M,,*52
05/30/2014	15:06:14.990	$GPGGA,150621,2508.0731,N,07942.0287,W,1,9,1.6,20,M,,M,,*52
05/30/2014	15:06:15.912	$GPGGA,150622,2508.0735,N,07942.0303,W,1,9,1.6,20,M,,M,,*58
05/30/2014	15:06:17.044	$GPGGA,150623,2508.0738,N,07942.0319,W,1,9,1.6,20,M,,M,,*5F
05/30/2014	15:06:18.111	$GPGGA,150624,2508.0742,N,07942.0336,W,1,9,1.9,20,M,,M,,*57
05/30/2014	15:06:19.138	$GPGGA,150625,2508.0743,N,07942.0351,W,1,9,1.6,20,M,,M,,*59
05/30/2014	15:06:20.061	$GPGGA,150626,2508.0748,N,07942.0368,W,1,9,1.6,20,M,,M,,*5B
05/30/2014	15:06:21.181	$GPGGA,150627,2508.0752,N,07942.0384,W,1,9,1.6,20,M,,M,,*53
05/30/2014	15:06:22.239	$GPGGA,150628,2508.0756,N,07942.0399,W,1,9,1.6,20,M,,M,,*54
05/30/2014	15:06:23.266	$GPGGA,150629,2508.0760,N,07942.0415,W,1,9,1.6,20,M,,M,,*53
05/30/2014	15:06:24.294	$GPGGA,150630,2508.0767,N,07942.0433,W,1,9,1.6,20,M,,M,,*58
05/30/2014	15:06:25.362	$GPGGA,150631,2508.0771,N,07942.0448,W,1,9,1.6,20,M,,M,,*52
05/30/2014	15:06:26.379	$GPGGA,150632,2508.0775,N,07942.0464,W,1,9,1.6,20,M,,M,,*5B
05/30/2014	15:06:27.427	$GPGGA,150633,2508.0779,N,07942.0480,W,1,9,1.6,20,M,,M,,*5C
05/30/2014	15:06:28.423	$GPGGA,150634,2508.0782,N,07942.0496,W,1,9,1.6,20,M,,M,,*58
05/30/2014	15:06:29.491	$GPGGA,150635,2508.0786,N,07942.0513,W,1,9,1.6,20,M,,M,,*51
05/30/2014	15:06:30.529	$GPGGA,150636,2508.0790,N,07942.0528,W,1,9,1.6,20,M,,M,,*5D
05/30/2014	15:06:31.546	$GPGGA,150637,2508.0795,N,07942.0545,W,1,9,1.6,20,M,,M,,*52
05/30/2014	15:06:32.573	$GPGGA,150638,2508.0797,N,07942.0560,W,1,9,1.6,20,M,,M,,*58
05/30/2014	15:06:33.621	$GPGGA,150639,2508.0802,N,07942.0576,W,1,9,1.6,20,M,,M,,*5D
05/30/2014	15:06:34.658	$GPGGA,150640,2508.0806,N,07942.0592,W,1,9,1.6,20,M,,M,,*5D
05/30/2014	15:06:35.706	$GPGGA,150641,2508.0810,N,07942.0608,W,1,9,1.6,20,M,,M,,*5B
05/30/2014	15:06:34.474	$GPGGA,150642,2508.0813,N,07942.0625,W,1,9,1.6,20,M,,M,,*54
05/30/2014	15:06:35.521	$GPGGA,150643,2508.0817,N,07942.0640,W,1,9,1.6,20,M,,M,,*52
05/30/2014	15:06:36.548	$GPGGA,150644,2508.0821,N,07942.0657,W,1,9,1.6,20,M,,M,,*56
05/30/2014	15:06:37.616	$GPGGA,150645,2508.0824,N,07942.0672,W,1,9,1.6,20,M,,M,,*55
05/30/2014	15:06:38.602	$GPGGA,150646,2508.0826,N,07942.0688,W,1,9,1.6,19,M,,M,,*5B
05/30/2014	15:06:39.660	$GPGGA,150647,2508.0832,N,07942.0704,W,1,9,1.6,19,M,,M,,*5A
05/30/2014	15:06:40.698	$GPGGA,150648,2508.0836,N,07942.0720,W,1,9,1.6,19,M,,M,,*57
05/30/2014	15:06:41.704	$GPGGA,150649,2508.0839,N,07942.0737,W,1,9,1.6,19,M,,M,,*5F
05/30/2014	15:06:42.752	$GPGGA,150650,2508.0843,N,07942.0752,W,1,9,1.6,19,M,,M,,*59
05/30/2014	15:06:43.779	$GPGGA,150651,2508.0847,N,07942.0769,W,1,9,1.6,19,M,,M,,*54
05/30/2014	15:06:44.837	$GPGGA,150652,2508.0851,N,07942.0784,W,1,9,1.6,19,M,,M,,*53
05/30/2014	15:06:45.844	$GPGGA,150653,2508.0855,N,07942.0800,W,1,9,1.6,19,M,,M,,*55
05/30/2014	15:06:46.881	$GPGGA,150654,2508.0858,N,07942.0817,W,1,9,1.6,19,M,,M,,*59
05/30/2014	15:06:47.919	$GPGGA,150655,2508.0862,N,07942.0834,W,1,9,1.6,19,M,,M,,*50
05/30/2014	15:06:48.978	$GPGGA,150656,2508.0867,N,07942.0849,W,1,9,1.6,19,M,,M,,*5C
05/30/2014	15:06:50.025	$GPGGA,150657,2508.0869,N,07942.0865,W,1,9,1.6,19,M,,M,,*5D
05/30/2014	15:06:51.042	$GPGGA,150658,2508.0872,N,07942.0882,W,1,9,1.6,19,M,,M,,*51
05/30/2014	15:06:52.062	$GPGGA,150659,2508.0878,N,07942.0897,W,1,9,1.6,19,M,,M,,*5E
05/30/2014	15:06:53.127	$GPGGA,150700,2508.0880,N,07942.0914,W,1,9,1.6,19,M,,M,,*5E
05/30/2014	15:06:54.174	$GPGGA,150701,2508.0885,N,07942.0929,W,1,9,1.6,19,M,,M,,*54
05/30/2014	15:06:55.171	$GPGGA,150702,2508.0890,N,07942.0946,W,1,9,1.6,19,M,,M,,*5A
05/30/2014	15:06:56.197	$GPGGA,150703,2508.0894,N,07942.0961,W,1,9,1.6,19,M,,M,,*5A
05/30/2014	15:06:57.369	$GPGGA,150704,2508.0898,N,07942.0977,W,1,9,1.6,19,M,,M,,*56
05/30/2014	15:06:58.314	$GPGGA,150705,2508.0901,N,07942.0993,W,1,9,1.6,19,M,,M,,*5C
05/30/2014	15:06:59.310	$GPGGA,150706,2508.0904,N,07942.1009,W,1,9,1.6,19,M,,M,,*51
05/30/2014	15:07:00.347	$GPGGA,150707,2508.0909,N,07942.1026,W,1,9,1.6,19,M,,M,,*50
05/30/2014	15:07:01.519	$GPGGA,150708,2508.0912,N,07942.1041,W,1,9,1.6,19,M,,M,,*54
05/30/2014	15:07:02.515	$GPGGA,150709,2508.0918,N,07942.1056,W,1,9,1.6,19,M,,M,,*59
05/30/2014	15:07:03.449	$GPGGA,150710,2508.0922,N,07942.1073,W,1,9,1.6,19,M,,M,,*5F
05/30/2014	15:07:04.498	$GPGGA,150711,2508.0925,N,07942.1088,W,1,9,1.6,19,M,,M,,*5D
05/30/2014	15:07:05.545	$GPGGA,150712,2508.0930,N,07942.1105,W,1,9,1.6,19,M,,M,,*5E
05/30/2014	15:07:06.562	$GPGGA,150713,2508.0934,N,07942.1120,W,1,9,1.6,18,M,,M,,*5D
05/30/2014	15:07:07.599	$GPGGA,150714,2508.0938,N,07942.1136,W,1,9,1.6,18,M,,M,,*51
05/30/2014	15:07:08.761	$GPGGA,150715,2508.0941,N,07942.1152,W,1,9,1.6,18,M,,M,,*5C
05/30/2014	15:07:09.799	$GPGGA,150716,2508.0947,N,07942.1167,W,1,9,1.6,18,M,,M,,*5F
05/30/2014	15:07:10.839	$GPGGA,150717,2508.0951,N,07942.1183,W,1,9,1.6,18,M,,M,,*53
05/30/2014	15:07:11.842	$GPGGA,150718,2508.0955,N,07942.1199,W,1,9,1.6,18,M,,M,,*53
05/30/2014	15:07:12.869	$GPGGA,150719,2508.0959,N,07942.1215,W,1,9,1.6,18,M,,M,,*59
05/30/2014	15:07:15.307	$GPGGA,150721,2508.0966,N,07942.1247,W,1,9,1.6,18,M,,M,,*59
05/30/2014	15:07:15.981	$GPGGA,150722,2508.0970,N,07942.1264,W,1,9,1.6,18,M,,M,,*5C
05/30/2014	15:07:17.008	$GPGGA,150723,2508.0974,N,07942.1279,W,1,9,1.6,18,M,,M,,*55
05/30/2014	15:07:18.067	$GPGGA,150724,2508.0979,N,07942.1294,W,1,9,1.6,18,M,,M,,*5C
05/30/2014	15:07:19.114	$GPGGA,150725,2508.0984,N,07942.1311,W,1,9,1.6,18,M,,M,,*53
05/30/2014	15:07:20.121	$GPGGA,150726,2508.0988,N,07942.1327,W,1,9,1.6,18,M,,M,,*59
05/30/2014	15:07:21.179	$GPGGA,150727,2508.0992,N,07942.1344,W,1,9,1.6,18,M,,M,,*56
05/30/2014	15:07:22.227	$GPGGA,150728,2508.0995,N,07942.1359,W,1,9,1.6,18,M,,M,,*52
05/30/2014	15:07:23.244	$GPGGA,150729,2508.0999,N,07942.1376,W,1,9,1.6,18,M,,M,,*52
05/30/2014	15:07:24.272	$GPGGA,150730,2508.1003,N,07942.1391,W,1,9,1.6,18,M,,M,,*58
05/30/2014	15:07:25.289	$GPGGA,150731,2508.1008,N,07942.1407,W,1,9,1.6,18,M,,M,,*5A
05/30/2014	15:07:26.356	$GPGGA,150732,2508.1013,N,07942.1423,W,1,9,1.6,18,M,,M,,*55
05/30/2014	15:07:27.363	$GPGGA,150733,2508.1016,N,07942.1439,W,1,9,1.6,18,M,,M,,*5A
05/30/2014	15:07:28.400	$GPGGA,150734,2508.1019,N,07942.1456,W,1,9,1.6,18,M,,M,,*5B
05/30/2014	15:07:29.438	$GPGGA,150735,2508.1026,N,07942.1471,W,1,8,2.0,18,M,,M,,*57
05/30/2014	15:07:30.517	$GPGGA,150736,2508.1031,N,07942.1486,W,1,8,1.6,18,M,,M,,*5F
05/30/2014	15:07:31.544	$GPGGA,150737,2508.1034,N,07942.1503,W,1,9,1.6,18,M,,M,,*56
05/30/2014	15:07:32.550	$GPGGA,150738,2508.1039,N,07942.1518,W,1,9,1.6,18,M,,M,,*5E
05/30/2014	15:07:33.586	$GPGGA,150739,2508.1046,N,07942.1535,W,1,9,1.6,18,M,,M,,*58
05/30/2014	15:07:34.634	$GPGGA,150740,2508.1049,N,07942.1550,W,1,9,1.6,18,M,,M,,*5A
05/30/2014	15:07:35.661	$GPGGA,150741,2508.1053,N,07942.1566,W,1,9,1.6,18,M,,M,,*55
05/30/2014	15:07:34.430	$GPGGA,150742,2508.1059,N,07942.1582,W,1,9,1.6,18,M,,M,,*56
05/30/2014	15:07:35.489	$GPGGA,150743,2508.1064,N,07942.1597,W,1,9,1.6,18,M,,M,,*5D
05/30/2014	15:07:36.536	$GPGGA,150744,2508.1068,N,07942.1613,W,1,9,1.6,18,M,,M,,*59
05/30/2014	15:07:37.584	$GPGGA,150745,2508.1071,N,07942.1629,W,1,9,1.6,18,M,,M,,*59
05/30/2014	15:07:38.601	$GPGGA,150746,2508.1075,N,07942.1645,W,1,9,1.6,18,M,,M,,*54
05/30/2014	15:07:39.628	$GPGGA,150747,2508.1079,N,07942.1662,W,1,9,1.6,18,M,,M,,*5C
05/30/2014	15:07:40.655	$GPGGA,150748,2508.1084,N,07942.1677,W,1,9,1.6,18,M,,M,,*55
05/30/2014	15:07:41.693	$GPGGA,150749,2508.1089,N,07942.1694,W,1,9,1.6,18,M,,M,,*54
05/30/2014	15:07:42.720	$GPGGA,150750,2508.1092,N,07942.1709,W,1,9,1.6,18,M,,M,,*53
05/30/2014	15:07:43.747	$GPGGA,150751,2508.1095,N,07942.1725,W,1,9,1.6,18,M,,M,,*5B
05/30/2014	15:07:44.805	$GPGGA,150752,2508.1100,N,07942.1741,W,1,9,1.6,18,M,,M,,*57
05/30/2014	15:07:45.852	$GPGGA,150753,2508.1107,N,07942.1756,W,1,8,1.6,18,M,,M,,*56
05/30/2014	15:07:48.052	$GPGGA,150755,2508.1115,N,07942.1786,W,1,9,1.6,18,M,,M,,*5F
05/30/2014	15:07:49.131	$GPGGA,150756,2508.1121,N,07942.1803,W,1,9,1.6,18,M,,M,,*59
05/30/2014	15:07:50.116	$GPGGA,150757,2508.1125,N,07942.1818,W,1,9,1.6,18,M,,M,,*56
05/30/2014	15:07:51.102	$GPGGA,150758,2508.1129,N,07942.1835,W,1,9,1.6,18,M,,M,,*5A
05/30/2014	15:07:52.046	$GPGGA,150759,2508.1133,N,07942.1850,W,1,9,1.6,18,M,,M,,*53
05/30/2014	15:07:53.270	$GPGGA,150800,2508.1136,N,07942.1866,W,1,9,1.6,18,M,,M,,*50
05/30/2014	15:07:54.121	$GPGGA,150801,2508.1142,N,07942.1882,W,1,8,1.6,18,M,,M,,*59
05/30/2014	15:07:55.241	$GPGGA,150802,2508.1147,N,07942.1897,W,1,8,1.6,18,M,,M,,*5B
05/30/2014	15:07:56.320	$GPGGA,150803,2508.1151,N,07942.1912,W,1,9,1.6,18,M,,M,,*50
05/30/2014	15:07:57.399	$GPGGA,150804,2508.1154,N,07942.1929,W,1,9,1.6,18,M,,M,,*5A
05/30/2014	15:07:58.385	$GPGGA,150805,2508.1158,N,07942.1945,W,1,8,1.6,18,M,,M,,*5C
05/30/2014	15:07:59.464	$GPGGA,150806,2508.1162,N,07942.1962,W,1,8,1.6,18,M,,M,,*53
05/30/2014	15:08:00.470	$GPGGA,150807,2508.1165,N,07942.1976,W,1,9,1.6,18,M,,M,,*51
05/30/2014	15:08:01.549	$GPGGA,150808,2508.1169,N,07942.1991,W,1,9,1.6,18,M,,M,,*5B
05/30/2014	15:08:02.545	$GPGGA,150809,2508.1175,N,07942.2008,W,1,9,1.6,18,M,,M,,*5D
05/30/2014	15:08:03.604	$GPGGA,150810,2508.1179,N,07942.2023,W,1,9,1.6,18,M,,M,,*50
05/30/2014	15:08:04.630	$GPGGA,150811,2508.1182,N,07942.2039,W,1,9,1.6,18,M,,M,,*5E
05/30/2014	15:08:05.688	$GPGGA,150812,2508.1186,N,07942.2056,W,1,9,1.6,18,M,,M,,*50
05/30/2014	15:08:06.684	$GPGGA,150813,2508.1190,N,07942.2071,W,1,9,1.6,18,M,,M,,*53
05/30/2014	15:08:07.670	$GPGGA,150814,2508.1193,N,07942.2086,W,1,9,1.6,18,M,,M,,*5F
05/30/2014	15:08:08.749	$GPGGA,150815,2508.1198,N,07942.2103,W,1,9,1.6,18,M,,M,,*59
05/30/2014	15:08:09.838	$GPGGA,150816,2508.1201,N,07942.2118,W,1,9,1.6,18,M,,M,,*53
05/30/2014	15:08:10.813	$GPGGA,150817,2508.1204,N,07942.2135,W,1,9,1.6,18,M,,M,,*58
05/30/2014	15:08:11.872	$GPGGA,150818,2508.1208,N,07942.2150,W,1,9,2.0,18,M,,M,,*5D
05/30/2014	15:08:12.899	$GPGGA,150819,2508.1215,N,07942.2167,W,1,8,1.6,18,M,,M,,*50
05/30/2014	15:08:13.957	$GPGGA,150820,2508.1218,N,07942.2182,W,1,8,1.6,18,M,,M,,*5C
05/30/2014	15:08:14.985	$GPGGA,150821,2508.1221,N,07942.2198,W,1,9,1.6,18,M,,M,,*5D
05/30/2014	15:08:15.949	$GPGGA,150822,2508.1223,N,07942.2215,W,1,9,1.6,18,M,,M,,*5A
05/30/2014	15:08:17.028	$GPGGA,150823,2508.1227,N,07942.2232,W,1,9,1.6,18,M,,M,,*5A
05/30/2014	15:08:18.097	$GPGGA,150824,2508.1230,N,07942.2247,W,1,9,1.6,18,M,,M,,*59
05/30/2014	15:08:19.113	$GPGGA,150825,2508.1234,N,07942.2263,W,1,9,1.6,18,M,,M,,*5A
05/30/2014	15:08:20.161	$GPGGA,150826,2508.1237,N,07942.2280,W,1,9,1.6,18,M,,M,,*57
05/30/2014	15:08:21.219	$GPGGA,150827,2508.1241,N,07942.2295,W,1,9,2.0,18,M,,M,,*56
05/30/2014	15:08:22.235	$GPGGA,150828,2508.1247,N,07942.2312,W,1,9,2.0,18,M,,M,,*51
05/30/2014	15:08:23.190	$GPGGA,150829,2508.1251,N,07942.2327,W,1,9,1.6,18,M,,M,,*54
05/30/2014	15:08:24.289	$GPGGA,150830,2508.1255,N,07942.2344,W,1,9,1.6,18,M,,M,,*5D
05/30/2014	15:08:25.389	$GPGGA,150831,2508.1259,N,07942.2359,W,1,9,1.6,18,M,,M,,*5C
05/30/2014	15:08:26.376	$GPGGA,150832,2508.1263,N,07942.2375,W,1,9,1.6,18,M,,M,,*58
05/30/2014	15:08:27.392	$GPGGA,150833,2508.1269,N,07942.2392,W,1,9,1.6,18,M,,M,,*5A
05/30/2014	15:08:28.440	$GPGGA,150834,2508.1272,N,07942.2408,W,1,9,2.0,18,M,,M,,*56
05/30/2014	15:08:29.435	$GPGGA,150835,2508.1277,N,07942.2424,W,1,8,2.0,18,M,,M,,*5D
05/30/2014	15:08:30.556	$GPGGA,150836,2508.1281,N,07942.2439,W,1,8,2.0,18,M,,M,,*5B
05/30/2014	15:08:31.510	$GPGGA,150837,2508.1284,N,07942.2456,W,1,9,1.6,18,M,,M,,*52
05/30/2014	15:08:32.517	$GPGGA,150838,2508.1288,N,07942.2471,W,1,9,1.6,18,M,,M,,*54
05/30/2014	15:08:33.596	$GPGGA,150839,2508.1294,N,07942.2487,W,1,9,1.6,18,M,,M,,*51
05/30/2014	15:08:34.675	$GPGGA,150840,2508.1298,N,07942.2504,W,1,9,1.6,17,M,,M,,*56
05/30/2014	15:08:35.754	$GPGGA,150841,2508.1301,N,07942.2519,W,1,9,1.6,17,M,,M,,*5A
05/30/2014	15:08:34.511	$GPGGA,150842,2508.1306,N,07942.2536,W,1,9,1.6,17,M,,M,,*53
05/30/2014	15:08:35.466	$GPGGA,150843,2508.1310,N,07942.2551,W,1,9,1.6,17,M,,M,,*54
05/30/2014	15:08:36.598	$GPGGA,150844,2508.1313,N,07942.2566,W,1,9,1.6,17,M,,M,,*54
05/30/2014	15:08:37.582	$GPGGA,150845,2508.1319,N,07942.2583,W,1,9,1.6,17,M,,M,,*54
05/30/2014	15:08:38.671	$GPGGA,150846,2508.1324,N,07942.2598,W,1,9,1.6,17,M,,M,,*53
05/30/2014	15:08:39.667	$GPGGA,150847,2508.1328,N,07942.2615,W,1,9,1.6,17,M,,M,,*58
05/30/2014	15:08:40.735	$GPGGA,150848,2508.1331,N,07942.2630,W,1,9,1.6,17,M,,M,,*58
05/30/2014	15:08:41.731	$GPGGA,150849,2508.1337,N,07942.2645,W,1,9,1.6,17,M,,M,,*5D
05/30/2014	15:08:42.800	$GPGGA,150850,2508.1342,N,07942.2662,W,1,9,1.6,17,M,,M,,*52
05/30/2014	15:08:43.837	$GPGGA,150851,2508.1345,N,07942.2677,W,1,9,1.6,17,M,,M,,*50
05/30/2014	15:08:44.927	$GPGGA,150852,2508.1345,N,07942.2677,W,1,9,1.6,17,M,,M,,*53
05/30/2014	15:08:45.943	$GPGGA,150853,2508.1356,N,07942.2710,W,1,9,1.6,17,M,,M,,*50
05/30/2014	15:08:46.940	$GPGGA,150854,2508.1360,N,07942.2725,W,1,9,1.6,17,M,,M,,*54
05/30/2014	15:08:47.977	$GPGGA,150855,2508.1363,N,07942.2742,W,1,9,1.6,17,M,,M,,*57
05/30/2014	15:08:49.087	$GPGGA,150856,2508.1367,N,07942.2757,W,1,9,1.6,17,M,,M,,*54
05/30/2014	15:08:50.083	$GPGGA,150857,2508.1371,N,07942.2774,W,1,9,1.6,17,M,,M,,*53
05/30/2014	15:08:51.079	$GPGGA,150858,2508.1375,N,07942.2789,W,1,9,1.6,17,M,,M,,*5A
05/30/2014	15:08:52.148	$GPGGA,150859,2508.1380,N,07942.2805,W,1,9,1.6,17,M,,M,,*5A
05/30/2014	15:08:53.185	$GPGGA,150900,2508.1384,N,07942.2822,W,1,9,1.6,17,M,,M,,*56
05/30/2014	15:08:54.233	$GPGGA,150901,2508.1388,N,07942.2837,W,1,9,1.6,16,M,,M,,*5E
05/30/2014	15:08:55.250	$GPGGA,150902,2508.1392,N,07942.2854,W,1,9,1.6,16,M,,M,,*53
05/30/2014	15:08:56.287	$GPGGA,150903,2508.1396,N,07942.2868,W,1,9,1.6,16,M,,M,,*59
05/30/2014	15:08:57.313	$GPGGA,150904,2508.1400,N,07942.2884,W,1,9,1.6,16,M,,M,,*54
05/30/2014	15:08:58.351	$GPGGA,150905,2508.1403,N,07942.2901,W,1,9,1.6,16,M,,M,,*5A
05/30/2014	15:08:59.368	$GPGGA,150906,2508.1407,N,07942.2916,W,1,9,1.6,16,M,,M,,*5B
05/30/2014	15:09:00.436	$GPGGA,150907,2508.1411,N,07942.2933,W,1,9,1.6,16,M,,M,,*5A
05/30/2014	15:09:01.475	$GPGGA,150908,2508.1415,N,07942.2948,W,1,9,1.6,16,M,,M,,*5D
05/30/2014	15:09:02.470	$GPGGA,150909,2508.1418,N,07942.2963,W,1,9,1.6,16,M,,M,,*58
05/30/2014	15:09:03.529	$GPGGA,150910,2508.1422,N,07942.2978,W,1,9,1.6,16,M,,M,,*53
05/30/2014	15:09:04.576	$GPGGA,150911,2508.1427,N,07942.2995,W,1,9,1.6,16,M,,M,,*54
05/30/2014	15:09:05.593	$GPGGA,150912,2508.1431,N,07942.3010,W,1,9,1.6,16,M,,M,,*55
05/30/2014	15:09:06.641	$GPGGA,150913,2508.1435,N,07942.3027,W,1,9,1.6,16,M,,M,,*54
05/30/2014	15:09:07.688	$GPGGA,150914,2508.1439,N,07942.3042,W,1,9,1.6,16,M,,M,,*5C
05/30/2014	15:09:08.684	$GPGGA,150915,2508.1445,N,07942.3056,W,1,8,1.6,16,M,,M,,*52
05/30/2014	15:09:09.763	$GPGGA,150916,2508.1445,N,07942.3056,W,1,8,1.6,16,M,,M,,*51
05/30/2014	15:09:10.780	$GPGGA,150917,2508.1450,N,07942.3072,W,1,9,1.6,16,M,,M,,*53
05/30/2014	15:09:11.828	$GPGGA,150918,2508.1454,N,07942.3104,W,1,9,1.6,16,M,,M,,*58
05/30/2014	15:09:12.938	$GPGGA,150919,2508.1460,N,07942.3121,W,1,9,1.6,16,M,,M,,*59
05/30/2014	15:09:13.882	$GPGGA,150920,2508.1460,N,07942.3121,W,1,9,1.6,16,M,,M,,*53
05/30/2014	15:09:15.022	$GPGGA,150921,2508.1465,N,07942.3151,W,1,9,1.6,16,M,,M,,*50
05/30/2014	15:09:15.935	$GPGGA,150922,2508.1471,N,07942.3166,W,1,9,1.6,16,M,,M,,*52
05/30/2014	15:09:16.984	$GPGGA,150923,2508.1476,N,07942.3181,W,1,9,1.6,16,M,,M,,*5D
05/30/2014	15:09:18.053	$GPGGA,150924,2508.1482,N,07942.3197,W,1,9,1.6,16,M,,M,,*56
05/30/2014	15:09:19.027	$GPGGA,150925,2508.1486,N,07942.3213,W,1,9,1.6,16,M,,M,,*5C
05/30/2014	15:09:20.189	$GPGGA,150926,2508.1489,N,07942.3230,W,1,9,1.6,16,M,,M,,*51
05/30/2014	15:09:21.103	$GPGGA,150927,2508.1492,N,07942.3245,W,1,8,1.6,16,M,,M,,*59
05/30/2014	15:09:22.276	$GPGGA,150928,2508.1497,N,07942.3262,W,1,8,1.6,16,M,,M,,*56
05/30/2014	15:09:23.198	$GPGGA,150929,2508.1501,N,07942.3277,W,1,9,1.6,16,M,,M,,*5C
05/30/2014	15:09:24.309	$GPGGA,150930,2508.1505,N,07942.3293,W,1,9,1.6,16,M,,M,,*5A
05/30/2014	15:09:25.377	$GPGGA,150931,2508.1508,N,07942.3309,W,1,9,1.6,16,M,,M,,*54
05/30/2014	15:09:26.290	$GPGGA,150932,2508.1508,N,07942.3309,W,1,9,1.6,16,M,,M,,*57
05/30/2014	15:09:27.366	$GPGGA,150933,2508.1519,N,07942.3342,W,1,8,2.0,16,M,,M,,*5D
05/30/2014	15:09:28.321	$GPGGA,150934,2508.1525,N,07942.3357,W,1,8,1.6,16,M,,M,,*54
05/30/2014	15:09:29.427	$GPGGA,150935,2508.1527,N,07942.3374,W,1,9,1.6,16,M,,M,,*57
05/30/2014	15:09:30.371	$GPGGA,150936,2508.1527,N,07942.3374,W,1,9,1.6,16,M,,M,,*54
05/30/2014	15:09:31.325	$GPGGA,150937,2508.1537,N,07942.3405,W,1,9,1.6,16,M,,M,,*55
05/30/2014	15:09:32.431	$GPGGA,150938,2508.1541,N,07942.3421,W,1,9,1.6,16,M,,M,,*5D
05/30/2014	15:09:33.476	$GPGGA,150939,2508.1545,N,07942.3437,W,1,9,1.6,16,M,,M,,*5F
05/30/2014	15:09:34.481	$GPGGA,150940,2508.1548,N,07942.3454,W,1,9,1.6,16,M,,M,,*59
05/30/2014	15:09:35.497	$GPGGA,150941,2508.1554,N,07942.3470,W,1,9,1.6,16,M,,M,,*53
05/30/2014	15:09:34.463	$GPGGA,150942,2508.1558,N,07942.3486,W,1,9,1.6,16,M,,M,,*55
05/30/2014	15:09:35.508	$GPGGA,150943,2508.1559,N,07942.3501,W,1,8,1.6,16,M,,M,,*5A
05/30/2014	15:09:36.514	$GPGGA,150944,2508.1565,N,07942.3517,W,1,8,2.4,17,M,,M,,*55
05/30/2014	15:09:37.508	$GPGGA,150945,2508.1570,N,07942.3533,W,1,9,1.6,17,M,,M,,*56
05/30/2014	15:09:38.523	$GPGGA,150946,2508.1573,N,07942.3549,W,1,9,1.6,17,M,,M,,*5B
05/30/2014	15:09:39.538	$GPGGA,150947,2508.1577,N,07942.3566,W,1,9,1.6,17,M,,M,,*53
05/30/2014	15:09:40.574	$GPGGA,150948,2508.1584,N,07942.3580,W,1,9,1.6,17,M,,M,,*58
05/30/2014	15:09:41.600	$GPGGA,150949,2508.1590,N,07942.3595,W,1,9,1.6,17,M,,M,,*58
05/30/2014	15:09:42.573	$GPGGA,150950,2508.1595,N,07942.3611,W,1,9,1.6,17,M,,M,,*5A
05/30/2014	15:09:43.620	$GPGGA,150951,2508.1599,N,07942.3627,W,1,9,1.6,17,M,,M,,*52
05/30/2014	15:09:44.614	$GPGGA,150952,2508.1604,N,07942.3642,W,1,9,1.6,17,M,,M,,*55
05/30/2014	15:09:45.609	$GPGGA,150953,2508.1608,N,07942.3658,W,1,9,1.6,17,M,,M,,*53
05/30/2014	15:09:46.634	$GPGGA,150954,2508.1612,N,07942.3674,W,1,9,1.6,17,M,,M,,*51
05/30/2014	15:09:47.659	$GPGGA,150955,2508.1616,N,07942.3690,W,1,9,1.6,17,M,,M,,*5E
05/30/2014	15:09:48.684	$GPGGA,150956,2508.1619,N,07942.3707,W,1,9,1.6,17,M,,M,,*5D
05/30/2014	15:09:49.698	$GPGGA,150957,2508.1624,N,07942.3722,W,1,9,1.6,17,M,,M,,*55
05/30/2014	15:09:50.683	$GPGGA,150958,2508.1628,N,07942.3739,W,1,9,1.6,17,M,,M,,*5C
05/30/2014	15:09:51.769	$GPGGA,150959,2508.1631,N,07942.3754,W,1,9,1.6,17,M,,M,,*5E
05/30/2014	15:09:52.735	$GPGGA,151000,2508.1637,N,07942.3770,W,1,9,1.6,17,M,,M,,*5A
05/30/2014	15:09:53.759	$GPGGA,151001,2508.1641,N,07942.3786,W,1,9,1.6,17,M,,M,,*53
05/30/2014	15:09:54.743	$GPGGA,151002,2508.1645,N,07942.3802,W,1,9,1.6,17,M,,M,,*57
05/30/2014	15:09:55.759	$GPGGA,151003,2508.1648,N,07942.3819,W,1,9,1.6,17,M,,M,,*51
05/30/2014	15:09:56.763	$GPGGA,151004,2508.1653,N,07942.3834,W,1,9,1.6,17,M,,M,,*53
05/30/2014	15:09:57.768	$GPGGA,151005,2508.1657,N,07942.3851,W,1,9,1.6,17,M,,M,,*55
05/30/2014	15:09:58.895	$GPGGA,151006,2508.1660,N,07942.3866,W,1,9,1.6,17,M,,M,,*56
05/30/2014	15:09:59.910	$GPGGA,151007,2508.1666,N,07942.3881,W,1,9,1.6,17,M,,M,,*58
05/30/2014	15:10:00.814	$GPGGA,151008,2508.1671,N,07942.3898,W,1,9,1.6,17,M,,M,,*59
05/30/2014	15:10:01.829	$GPGGA,151009,2508.1674,N,07942.3913,W,1,9,1.6,17,M,,M,,*5F
05/30/2014	15:10:02.844	$GPGGA,151010,2508.1680,N,07942.3930,W,1,9,1.6,17,M,,M,,*5D
05/30/2014	15:10:03.839	$GPGGA,151011,2508.1682,N,07942.3945,W,1,9,1.6,17,M,,M,,*5C
05/30/2014	15:10:04.986	$GPGGA,151012,2508.1686,N,07942.3961,W,1,9,1.6,17,M,,M,,*5D
05/30/2014	15:10:05.888	$GPGGA,151013,2508.1692,N,07942.3978,W,1,9,1.6,17,M,,M,,*51
05/30/2014	15:10:06.903	$GPGGA,151014,2508.1695,N,07942.3993,W,1,9,1.6,17,M,,M,,*54
05/30/2014	15:10:07.989	$GPGGA,151015,2508.1699,N,07942.4010,W,1,9,1.6,17,M,,M,,*5C
05/30/2014	15:10:08.944	$GPGGA,151016,2508.1703,N,07942.4026,W,1,9,1.6,17,M,,M,,*58
05/30/2014	15:10:09.919	$GPGGA,151017,2508.1707,N,07942.4043,W,1,9,1.6,17,M,,M,,*5E
05/30/2014	15:10:11.036	$GPGGA,151018,2508.1711,N,07942.4058,W,1,9,1.6,17,M,,M,,*5C
05/30/2014	15:10:12.052	$GPGGA,151019,2508.1714,N,07942.4073,W,1,9,1.6,17,M,,M,,*51
05/30/2014	15:10:12.984	$GPGGA,151020,2508.1720,N,07942.4090,W,1,9,1.6,17,M,,M,,*51
05/30/2014	15:10:14.070	$GPGGA,151021,2508.1724,N,07942.4107,W,1,9,1.6,17,M,,M,,*5B
05/30/2014	15:10:15.086	$GPGGA,151022,2508.1728,N,07942.4122,W,1,9,1.6,17,M,,M,,*53
05/30/2014	15:10:16.111	$GPGGA,151023,2508.1732,N,07942.4138,W,1,9,1.6,17,M,,M,,*52
05/30/2014	15:10:17.127	$GPGGA,151024,2508.1736,N,07942.4154,W,1,9,1.6,17,M,,M,,*5B
05/30/2014	15:10:18.120	$GPGGA,151025,2508.1740,N,07942.4170,W,1,9,1.6,17,M,,M,,*5D
05/30/2014	15:10:19.156	$GPGGA,151026,2508.1746,N,07942.4187,W,1,9,1.6,17,M,,M,,*50
05/30/2014	15:10:20.181	$GPGGA,151027,2508.1750,N,07942.4202,W,1,9,1.6,17,M,,M,,*58
05/30/2014	15:10:21.176	$GPGGA,151028,2508.1753,N,07942.4219,W,1,9,1.6,17,M,,M,,*5E
05/30/2014	15:10:22.201	$GPGGA,151029,2508.1758,N,07942.4234,W,1,9,1.6,17,M,,M,,*5B
05/30/2014	15:10:23.206	$GPGGA,151030,2508.1763,N,07942.4250,W,1,9,1.6,17,M,,M,,*59
05/30/2014	15:10:24.210	$GPGGA,151031,2508.1767,N,07942.4267,W,1,9,1.6,17,M,,M,,*58
05/30/2014	15:10:25.225	$GPGGA,151032,2508.1769,N,07942.4282,W,1,9,1.6,17,M,,M,,*5E
05/30/2014	15:10:26.250	$GPGGA,151033,2508.1775,N,07942.4299,W,1,9,1.6,17,M,,M,,*58
05/30/2014	15:10:27.245	$GPGGA,151034,2508.1779,N,07942.4314,W,1,9,1.6,17,M,,M,,*57
05/30/2014	15:10:28.290	$GPGGA,151035,2508.1783,N,07942.4331,W,1,9,1.6,17,M,,M,,*54
05/30/2014	15:10:29.295	$GPGGA,151036,2508.1786,N,07942.4347,W,1,9,1.6,17,M,,M,,*53
05/30/2014	15:10:30.311	$GPGGA,151037,2508.1790,N,07942.4364,W,1,9,1.6,17,M,,M,,*54
05/30/2014	15:10:31.305	$GPGGA,151038,2508.1797,N,07942.4379,W,1,9,1.6,17,M,,M,,*50
05/30/2014	15:10:32.331	$GPGGA,151039,2508.1800,N,07942.4395,W,1,9,1.6,17,M,,M,,*52
05/30/2014	15:10:33.336	$GPGGA,151040,2508.1803,N,07942.4411,W,1,9,1.6,17,M,,M,,*54
05/30/2014	15:10:34.362	$GPGGA,151041,2508.1808,N,07942.4429,W,1,8,2.0,17,M,,M,,*51
05/30/2014	15:10:34.451	$GPGGA,151042,2508.1815,N,07942.4444,W,1,8,1.6,17,M,,M,,*50
05/30/2014	15:10:35.486	$GPGGA,151043,2508.1819,N,07942.4460,W,1,8,1.9,18,M,,M,,*5B
05/30/2014	15:10:36.482	$GPGGA,151044,2508.1823,N,07942.4476,W,1,8,1.6,18,M,,M,,*5D
05/30/2014	15:10:37.476	$GPGGA,151045,2508.1829,N,07942.4491,W,1,9,1.6,18,M,,M,,*5E
05/30/2014	15:10:38.511	$GPGGA,151046,2508.1834,N,07942.4508,W,1,9,1.6,18,M,,M,,*50
05/30/2014	15:10:39.506	$GPGGA,151047,2508.1840,N,07942.4523,W,1,9,1.6,18,M,,M,,*5B
05/30/2014	15:10:40.540	$GPGGA,151048,2508.1844,N,07942.4539,W,1,9,1.6,18,M,,M,,*5B
05/30/2014	15:10:41.576	$GPGGA,151049,2508.1848,N,07942.4556,W,1,9,1.6,18,M,,M,,*5F
05/30/2014	15:10:42.550	$GPGGA,151050,2508.1852,N,07942.4571,W,1,9,1.6,18,M,,M,,*59
05/30/2014	15:10:43.606	$GPGGA,151051,2508.1859,N,07942.4586,W,1,8,1.6,18,M,,M,,*5A
05/30/2014	15:10:44.590	$GPGGA,151052,2508.1863,N,07942.4603,W,1,8,1.6,18,M,,M,,*5E
05/30/2014	15:10:45.585	$GPGGA,151053,2508.1866,N,07942.4620,W,1,9,1.6,18,M,,M,,*5A
05/30/2014	15:10:46.610	$GPGGA,151054,2508.1870,N,07942.4635,W,1,9,1.6,19,M,,M,,*5F
05/30/2014	15:10:47.626	$GPGGA,151055,2508.1873,N,07942.4650,W,1,9,1.6,19,M,,M,,*5E
05/30/2014	15:10:48.661	$GPGGA,151056,2508.1877,N,07942.4665,W,1,9,1.6,19,M,,M,,*5F
05/30/2014	15:10:49.656	$GPGGA,151057,2508.1881,N,07942.4682,W,1,9,1.6,19,M,,M,,*5E
05/30/2014	15:10:50.651	$GPGGA,151058,2508.1887,N,07942.4697,W,1,9,1.6,19,M,,M,,*53
05/30/2014	15:10:51.676	$GPGGA,151059,2508.1890,N,07942.4712,W,1,8,1.7,19,M,,M,,*58
05/30/2014	15:10:52.701	$GPGGA,151100,2508.1891,N,07942.4727,W,1,8,1.7,19,M,,M,,*52
05/30/2014	15:10:53.797	$GPGGA,151101,2508.1898,N,07942.4743,W,1,8,1.7,19,M,,M,,*58
05/30/2014	15:10:54.691	$GPGGA,151102,2508.1902,N,07942.4758,W,1,8,1.7,19,M,,M,,*53
05/30/2014	15:10:55.736	$GPGGA,151103,2508.1906,N,07942.4773,W,1,8,1.7,19,M,,M,,*5F
05/30/2014	15:10:56.731	$GPGGA,151104,2508.1908,N,07942.4788,W,1,8,1.7,19,M,,M,,*52
05/30/2014	15:10:57.737	$GPGGA,151105,2508.1912,N,07942.4803,W,1,8,1.7,19,M,,M,,*54
05/30/2014	15:10:58.770	$GPGGA,151106,2508.1917,N,07942.4819,W,1,8,1.7,19,M,,M,,*59
05/30/2014	15:10:59.857	$GPGGA,151107,2508.1920,N,07942.4834,W,1,8,1.7,19,M,,M,,*53
05/30/2014	15:11:00.790	$GPGGA,151108,2508.1923,N,07942.4848,W,1,8,1.8,19,M,,M,,*5B
05/30/2014	15:11:01.795	$GPGGA,151109,2508.1927,N,07942.4863,W,1,8,1.7,19,M,,M,,*58
05/30/2014	15:11:02.902	$GPGGA,151110,2508.1931,N,07942.4879,W,1,8,1.7,19,M,,M,,*5C
05/30/2014	15:11:03.947	$GPGGA,151111,2508.1935,N,07942.4895,W,1,8,1.7,19,M,,M,,*5B
05/30/2014	15:11:04.952	$GPGGA,151112,2508.1938,N,07942.4910,W,1,8,1.7,19,M,,M,,*59
05/30/2014	15:11:05.957	$GPGGA,151113,2508.1942,N,07942.4925,W,1,8,1.7,19,M,,M,,*53
05/30/2014	15:11:06.962	$GPGGA,151114,2508.1945,N,07942.4942,W,1,8,1.7,19,M,,M,,*52
05/30/2014	15:11:08.008	$GPGGA,151115,2508.1949,N,07942.4957,W,1,8,1.7,19,M,,M,,*5B
05/30/2014	15:11:08.992	$GPGGA,151116,2508.1953,N,07942.4972,W,1,8,1.7,19,M,,M,,*54
05/30/2014	15:11:09.987	$GPGGA,151117,2508.1956,N,07942.4989,W,1,8,1.7,19,M,,M,,*54
05/30/2014	15:11:11.012	$GPGGA,151118,2508.1960,N,07942.5004,W,1,8,1.7,19,M,,M,,*53
05/30/2014	15:11:12.058	$GPGGA,151119,2508.1964,N,07942.5019,W,1,8,1.7,19,M,,M,,*5A
05/30/2014	15:11:13.053	$GPGGA,151120,2508.1967,N,07942.5036,W,1,8,1.7,19,M,,M,,*5E
05/30/2014	15:11:14.068	$GPGGA,151121,2508.1973,N,07942.5051,W,1,8,1.7,19,M,,M,,*5B
05/30/2014	15:11:15.063	$GPGGA,151122,2508.1975,N,07942.5066,W,1,8,1.7,19,M,,M,,*5A
05/30/2014	15:11:16.107	$GPGGA,151123,2508.1980,N,07942.5083,W,1,8,1.7,19,M,,M,,*5A
05/30/2014	15:11:17.102	$GPGGA,151124,2508.1984,N,07942.5098,W,1,8,1.7,19,M,,M,,*53
05/30/2014	15:11:18.117	$GPGGA,151125,2508.1989,N,07942.5115,W,1,8,1.7,19,M,,M,,*5B
05/30/2014	15:11:19.112	$GPGGA,151126,2508.1993,N,07942.5130,W,1,8,1.7,19,M,,M,,*54
05/30/2014	15:11:20.137	$GPGGA,151127,2508.1996,N,07942.5145,W,1,7,2.1,19,M,,M,,*58
05/30/2014	15:11:21.163	$GPGGA,151128,2508.2000,N,07942.5160,W,1,7,1.7,19,M,,M,,*50
05/30/2014	15:11:22.167	$GPGGA,151129,2508.2005,N,07942.5177,W,1,8,1.7,19,M,,M,,*5D
05/30/2014	15:11:23.182	$GPGGA,151130,2508.2010,N,07942.5192,W,1,8,1.7,19,M,,M,,*5A
05/30/2014	15:11:24.218	$GPGGA,151131,2508.2014,N,07942.5209,W,1,8,1.7,19,M,,M,,*5E
05/30/2014	15:11:25.213	$GPGGA,151132,2508.2018,N,07942.5224,W,1,8,1.7,19,M,,M,,*5E
05/30/2014	15:11:26.197	$GPGGA,151133,2508.2021,N,07942.5239,W,1,8,1.7,19,M,,M,,*59
05/30/2014	15:11:27.223	$GPGGA,151134,2508.2027,N,07942.5256,W,1,8,1.7,19,M,,M,,*51
05/30/2014	15:11:28.268	$GPGGA,151135,2508.2031,N,07942.5271,W,1,8,1.7,18,M,,M,,*53
05/30/2014	15:11:29.263	$GPGGA,151136,2508.2035,N,07942.5287,W,1,8,1.7,18,M,,M,,*5D
05/30/2014	15:11:30.258	$GPGGA,151137,2508.2039,N,07942.5303,W,1,8,1.7,18,M,,M,,*5D
05/30/2014	15:11:31.263	$GPGGA,151138,2508.2043,N,07942.5319,W,1,8,1.7,18,M,,M,,*54
05/30/2014	15:11:32.278	$GPGGA,151139,2508.2047,N,07942.5336,W,1,8,1.7,18,M,,M,,*5C
05/30/2014	15:11:33.312	$GPGGA,151140,2508.2052,N,07942.5351,W,1,8,1.7,18,M,,M,,*57
05/30/2014	15:11:34.348	$GPGGA,151141,2508.2057,N,07942.5368,W,1,8,1.7,18,M,,M,,*59
05/30/2014	15:11:34.428	$GPGGA,151142,2508.2061,N,07942.5384,W,1,8,1.8,18,M,,M,,*52
05/30/2014	15:11:35.555	$GPGGA,151143,2508.2064,N,07942.5401,W,1,8,1.7,18,M,,M,,*53
05/30/2014	15:11:36.448	$GPGGA,151144,2508.2068,N,07942.5416,W,1,8,1.8,18,M,,M,,*51
05/30/2014	15:11:37.443	$GPGGA,151145,2508.2074,N,07942.5433,W,1,8,1.7,18,M,,M,,*55
05/30/2014	15:11:38.580	$GPGGA,151146,2508.2079,N,07942.5448,W,1,8,1.7,18,M,,M,,*57
05/30/2014	15:11:39.494	$GPGGA,151147,2508.2083,N,07942.5464,W,1,8,1.7,18,M,,M,,*5D
05/30/2014	15:11:40.509	$GPGGA,151148,2508.2086,N,07942.5480,W,1,8,1.7,18,M,,M,,*5D
05/30/2014	15:11:41.524	$GPGGA,151149,2508.2092,N,07942.5495,W,1,8,1.7,18,M,,M,,*5D
05/30/2014	15:11:42.519	$GPGGA,151150,2508.2097,N,07942.5511,W,1,8,1.7,18,M,,M,,*5D
05/30/2014	15:11:43.655	$GPGGA,151151,2508.2101,N,07942.5527,W,1,8,1.7,18,M,,M,,*57
05/30/2014	15:11:44.569	$GPGGA,151152,2508.2105,N,07942.5545,W,1,8,1.7,18,M,,M,,*54
05/30/2014	15:11:45.696	$GPGGA,151153,2508.2110,N,07942.5560,W,1,8,1.7,17,M,,M,,*59
05/30/2014	15:11:46.691	$GPGGA,151154,2508.2115,N,07942.5576,W,1,8,1.7,17,M,,M,,*5C
05/30/2014	15:11:48.995	$GPGGA,151156,2508.2123,N,07942.5608,W,1,8,1.7,17,M,,M,,*51
