Software Version Number: 1	Data File Format Number: 1	Build Version Number: 1	Error Count Since VI Started: 0	Manufacturer: Raytheon	 Model Number: RayMarine 120	 S/N: 	 Cal Date: 	 Wind Direction Offset: 0.00	 Slope (M)1: 0.00	 Offset (B)1: 0.00	 Slope (M)2: 0.00	 Offset (B)2: 0.00	 Slope (M)3: 0.00	 Offset (B)3: 0.00	 Slope (M)4: 0.00	 Offset (B)4: 0.00	 Slope (M)5: 0.00	 Offset (B)5: 0.00	 Slope (M)6: 0.00	 Offset (B)6: 0.00
Computer Date	Computer Time	GGA String
06/05/2014	07:00:00.526	$GPGGA,070001,2444.8820,N,08041.0896,W,1,8,1.8,14,M,,M,,*5C
06/05/2014	07:00:01.549	$GPGGA,070002,2444.8809,N,08041.0919,W,1,8,1.8,14,M,,M,,*52
06/05/2014	07:00:02.522	$GPGGA,070003,2444.8799,N,08041.0943,W,1,8,1.8,14,M,,M,,*5A
06/05/2014	07:00:03.585	$GPGGA,070004,2444.8787,N,08041.0965,W,1,8,1.8,14,M,,M,,*56
06/05/2014	07:00:04.557	$GPGGA,070005,2444.8777,N,08041.0987,W,1,8,1.8,14,M,,M,,*54
06/05/2014	07:00:05.530	$GPGGA,070006,2444.8768,N,08041.1011,W,1,8,1.8,14,M,,M,,*5E
06/05/2014	07:00:06.533	$GPGGA,070007,2444.8755,N,08041.1033,W,1,8,1.8,14,M,,M,,*51
06/05/2014	07:00:07.635	$GPGGA,070008,2444.8743,N,08041.1056,W,1,8,1.8,14,M,,M,,*5A
06/05/2014	07:00:08.628	$GPGGA,070009,2444.8732,N,08041.1081,W,1,8,1.8,14,M,,M,,*57
06/05/2014	07:00:09.540	$GPGGA,070010,2444.8721,N,08041.1105,W,1,8,1.8,14,M,,M,,*50
06/05/2014	07:00:10.534	$GPGGA,070011,2444.8708,N,08041.1129,W,1,8,1.8,14,M,,M,,*54
06/05/2014	07:00:11.666	$GPGGA,070012,2444.8697,N,08041.1153,W,1,8,1.8,14,M,,M,,*5D
06/05/2014	07:00:12.539	$GPGGA,070013,2444.8687,N,08041.1178,W,1,8,1.8,14,M,,M,,*54
06/05/2014	07:00:13.541	$GPGGA,070014,2444.8687,N,08041.1178,W,1,8,1.8,14,M,,M,,*53
06/05/2014	07:00:14.654	$GPGGA,070015,2444.8664,N,08041.1222,W,1,8,1.8,14,M,,M,,*53
06/05/2014	07:00:15.637	$GPGGA,070016,2444.8656,N,08041.1246,W,1,8,1.8,14,M,,M,,*53
06/05/2014	07:00:16.660	$GPGGA,070017,2444.8643,N,08041.1269,W,1,8,1.8,14,M,,M,,*5B
06/05/2014	07:00:17.633	$GPGGA,070018,2444.8631,N,08041.1293,W,1,8,1.8,14,M,,M,,*54
06/05/2014	07:00:18.666	$GPGGA,070019,2444.8622,N,08041.1318,W,1,8,1.8,14,M,,M,,*55
06/05/2014	07:00:19.638	$GPGGA,070020,2444.8611,N,08041.1341,W,1,8,1.8,14,M,,M,,*53
06/05/2014	07:00:20.661	$GPGGA,070021,2444.8599,N,08041.1365,W,1,8,1.8,14,M,,M,,*57
06/05/2014	07:00:21.624	$GPGGA,070022,2444.8589,N,08041.1389,W,1,8,1.8,14,M,,M,,*57
06/05/2014	07:00:22.637	$GPGGA,070023,2444.8579,N,08041.1414,W,1,8,1.8,14,M,,M,,*5A
06/05/2014	07:00:23.650	$GPGGA,070024,2444.8568,N,08041.1438,W,1,8,1.8,14,M,,M,,*53
06/05/2014	07:00:24.632	$GPGGA,070025,2444.8557,N,08041.1460,W,1,8,1.8,14,M,,M,,*53
06/05/2014	07:00:25.634	$GPGGA,070026,2444.8548,N,08041.1485,W,1,8,1.8,14,M,,M,,*55
06/05/2014	07:00:26.647	$GPGGA,070027,2444.8537,N,08041.1507,W,1,8,1.8,14,M,,M,,*57
06/05/2014	07:00:27.651	$GPGGA,070028,2444.8526,N,08041.1529,W,1,8,1.8,14,M,,M,,*54
06/05/2014	07:00:28.632	$GPGGA,070029,2444.8515,N,08041.1553,W,1,8,1.8,14,M,,M,,*58
06/05/2014	07:00:29.645	$GPGGA,070030,2444.8504,N,08041.1576,W,1,8,1.8,14,M,,M,,*57
06/05/2014	07:00:30.658	$GPGGA,070031,2444.8492,N,08041.1600,W,1,8,1.8,14,M,,M,,*5A
06/05/2014	07:00:31.652	$GPGGA,070032,2444.8480,N,08041.1624,W,1,8,1.8,14,M,,M,,*5C
06/05/2014	07:00:32.497	$GPGGA,070033,2444.8469,N,08041.1648,W,1,8,1.8,14,M,,M,,*50
06/05/2014	07:00:33.469	$GPGGA,070034,2444.8457,N,08041.1673,W,1,8,1.8,14,M,,M,,*52
06/05/2014	07:00:34.462	$GPGGA,070035,2444.8447,N,08041.1695,W,1,8,1.8,14,M,,M,,*5A
06/05/2014	07:00:35.495	$GPGGA,070036,2444.8436,N,08041.1719,W,1,8,1.8,14,M,,M,,*5A
06/05/2014	07:00:36.498	$GPGGA,070037,2444.8425,N,08041.1741,W,1,8,1.8,14,M,,M,,*54
06/05/2014	07:00:37.481	$GPGGA,070038,2444.8412,N,08041.1763,W,1,8,1.8,14,M,,M,,*5F
06/05/2014	07:00:38.473	$GPGGA,070039,2444.8400,N,08041.1786,W,1,8,1.8,14,M,,M,,*56
06/05/2014	07:00:39.486	$GPGGA,070040,2444.8389,N,08041.1810,W,1,8,1.8,14,M,,M,,*5E
06/05/2014	07:00:40.469	$GPGGA,070041,2444.8378,N,08041.1833,W,1,8,1.8,14,M,,M,,*50
06/05/2014	07:00:41.492	$GPGGA,070042,2444.8367,N,08041.1857,W,1,8,1.8,14,M,,M,,*5F
06/05/2014	07:00:42.514	$GPGGA,070043,2444.8353,N,08041.1880,W,1,7,2.1,14,M,,M,,*56
06/05/2014	07:00:43.496	$GPGGA,070044,2444.8342,N,08041.1904,W,1,7,2.1,14,M,,M,,*5C
06/05/2014	07:00:44.479	$GPGGA,070045,2444.8332,N,08041.1927,W,1,8,1.8,14,M,,M,,*5E
06/05/2014	07:00:45.492	$GPGGA,070046,2444.8321,N,08041.1949,W,1,8,1.8,14,M,,M,,*57
06/05/2014	07:00:46.485	$GPGGA,070047,2444.8310,N,08041.1973,W,1,8,1.8,14,M,,M,,*5D
06/05/2014	07:00:47.488	$GPGGA,070048,2444.8298,N,08041.1995,W,1,8,1.8,14,M,,M,,*5B
06/05/2014	07:00:48.500	$GPGGA,070049,2444.8288,N,08041.2020,W,1,8,1.8,14,M,,M,,*5F
06/05/2014	07:00:49.483	$GPGGA,070050,2444.8275,N,08041.2042,W,1,8,1.8,14,M,,M,,*51
06/05/2014	07:00:50.476	$GPGGA,070051,2444.8264,N,08041.2066,W,1,8,1.8,14,M,,M,,*56
06/05/2014	07:00:51.489	$GPGGA,070052,2444.8251,N,08041.2089,W,1,8,1.8,14,M,,M,,*52
06/05/2014	07:00:52.582	$GPGGA,070053,2444.8239,N,08041.2113,W,1,8,1.8,14,M,,M,,*5F
06/05/2014	07:00:53.484	$GPGGA,070054,2444.8228,N,08041.2136,W,1,8,1.8,14,M,,M,,*5F
06/05/2014	07:00:54.477	$GPGGA,070055,2444.8217,N,08041.2160,W,1,8,1.8,14,M,,M,,*51
06/05/2014	07:00:55.620	$GPGGA,070056,2444.8204,N,08041.2183,W,1,8,1.8,14,M,,M,,*5D
06/05/2014	07:00:56.493	$GPGGA,070057,2444.8194,N,08041.2207,W,1,8,1.8,14,M,,M,,*59
06/05/2014	07:00:57.576	$GPGGA,070058,2444.8183,N,08041.2229,W,1,8,1.8,14,M,,M,,*5C
06/05/2014	07:00:58.498	$GPGGA,070059,2444.8170,N,08041.2254,W,1,8,1.8,14,M,,M,,*5B
06/05/2014	07:00:59.621	$GPGGA,070100,2444.8158,N,08041.2276,W,1,8,1.8,14,M,,M,,*5C
06/05/2014	07:01:00.503	$GPGGA,070101,2444.8147,N,08041.2299,W,1,8,1.8,14,M,,M,,*52
06/05/2014	07:01:01.586	$GPGGA,070102,2444.8137,N,08041.2323,W,1,8,1.8,14,M,,M,,*56
06/05/2014	07:01:02.589	$GPGGA,070103,2444.8125,N,08041.2348,W,1,8,1.8,14,M,,M,,*59
06/05/2014	07:01:03.511	$GPGGA,070104,2444.8113,N,08041.2370,W,1,8,1.8,14,M,,M,,*50
06/05/2014	07:01:04.634	$GPGGA,070105,2444.8103,N,08041.2395,W,1,8,1.8,14,M,,M,,*5B
06/05/2014	07:01:05.597	$GPGGA,070106,2444.8092,N,08041.2420,W,1,8,1.8,14,M,,M,,*58
06/05/2014	07:01:06.600	$GPGGA,070107,2444.8080,N,08041.2442,W,1,8,1.8,14,M,,M,,*5E
06/05/2014	07:01:07.613	$GPGGA,070108,2444.8069,N,08041.2467,W,1,8,1.8,14,M,,M,,*51
06/05/2014	07:01:08.636	$GPGGA,070109,2444.8060,N,08041.2490,W,1,8,1.8,14,M,,M,,*51
06/05/2014	07:01:09.598	$GPGGA,070110,2444.8047,N,08041.2514,W,1,8,1.8,14,M,,M,,*51
06/05/2014	07:01:10.601	$GPGGA,070111,2444.8036,N,08041.2537,W,1,8,1.8,14,M,,M,,*57
06/05/2014	07:01:11.614	$GPGGA,070112,2444.8025,N,08041.2561,W,1,8,1.8,14,M,,M,,*55
06/05/2014	07:01:12.617	$GPGGA,070113,2444.8015,N,08041.2585,W,1,8,1.8,14,M,,M,,*5D
06/05/2014	07:01:13.599	$GPGGA,070114,2444.8003,N,08041.2608,W,1,8,1.8,14,M,,M,,*5B
06/05/2014	07:01:14.622	$GPGGA,070115,2444.7992,N,08041.2631,W,1,8,1.8,14,M,,M,,*5E
06/05/2014	07:01:15.615	$GPGGA,070116,2444.7982,N,08041.2655,W,1,8,1.8,14,M,,M,,*5E
06/05/2014	07:01:16.629	$GPGGA,070117,2444.7972,N,08041.2677,W,1,8,1.8,14,M,,M,,*50
06/05/2014	07:01:17.600	$GPGGA,070118,2444.7960,N,08041.2702,W,1,8,1.8,14,M,,M,,*5F
06/05/2014	07:01:18.623	$GPGGA,070119,2444.7949,N,08041.2724,W,1,8,1.8,14,M,,M,,*51
06/05/2014	07:01:19.615	$GPGGA,070120,2444.7939,N,08041.2749,W,1,8,1.8,14,M,,M,,*57
06/05/2014	07:01:20.628	$GPGGA,070121,2444.7928,N,08041.2774,W,1,8,1.8,14,M,,M,,*58
06/05/2014	07:01:21.601	$GPGGA,070122,2444.7915,N,08041.2796,W,1,8,1.8,14,M,,M,,*59
06/05/2014	07:01:22.624	$GPGGA,070123,2444.7905,N,08041.2821,W,1,8,1.8,14,M,,M,,*5A
06/05/2014	07:01:23.616	$GPGGA,070124,2444.7895,N,08041.2844,W,1,8,1.8,14,M,,M,,*56
06/05/2014	07:01:24.649	$GPGGA,070125,2444.7884,N,08041.2868,W,1,8,1.8,14,M,,M,,*59
06/05/2014	07:01:25.612	$GPGGA,070126,2444.7873,N,08041.2891,W,1,8,1.8,14,M,,M,,*54
06/05/2014	07:01:26.605	$GPGGA,070127,2444.7863,N,08041.2915,W,1,8,1.8,14,M,,M,,*59
06/05/2014	07:01:27.628	$GPGGA,070128,2444.7852,N,08041.2938,W,1,8,1.8,14,M,,M,,*5B
06/05/2014	07:01:28.600	$GPGGA,070129,2444.7841,N,08041.2962,W,1,8,1.8,14,M,,M,,*57
06/05/2014	07:01:29.613	$GPGGA,070130,2444.7830,N,08041.2988,W,1,8,1.8,14,M,,M,,*5D
06/05/2014	07:01:30.646	$GPGGA,070131,2444.7819,N,08041.3011,W,1,8,1.8,14,M,,M,,*5F
06/05/2014	07:01:31.629	$GPGGA,070132,2444.7807,N,08041.3036,W,1,8,1.8,14,M,,M,,*56
06/05/2014	07:01:32.446	$GPGGA,070133,2444.7796,N,08041.3061,W,1,8,1.8,14,M,,M,,*52
06/05/2014	07:01:33.458	$GPGGA,070134,2444.7784,N,08041.3085,W,1,8,1.8,14,M,,M,,*5C
06/05/2014	07:01:34.441	$GPGGA,070135,2444.7773,N,08041.3107,W,1,8,1.8,14,M,,M,,*5E
06/05/2014	07:01:35.473	$GPGGA,070136,2444.7762,N,08041.3129,W,1,8,1.8,14,M,,M,,*51
06/05/2014	07:01:36.446	$GPGGA,070137,2444.7751,N,08041.3152,W,1,8,1.8,14,M,,M,,*5C
06/05/2014	07:01:37.459	$GPGGA,070138,2444.7739,N,08041.3176,W,1,8,1.8,14,M,,M,,*5B
06/05/2014	07:01:38.451	$GPGGA,070139,2444.7728,N,08041.3198,W,1,8,1.8,14,M,,M,,*5A
06/05/2014	07:01:39.574	$GPGGA,070140,2444.7717,N,08041.3223,W,1,8,1.8,14,M,,M,,*5B
06/05/2014	07:01:40.467	$GPGGA,070141,2444.7703,N,08041.3248,W,1,8,1.8,14,M,,M,,*52
06/05/2014	07:01:41.470	$GPGGA,070142,2444.7690,N,08041.3273,W,1,8,1.8,14,M,,M,,*52
06/05/2014	07:01:42.473	$GPGGA,070143,2444.7678,N,08041.3296,W,1,8,1.8,14,M,,M,,*5E
06/05/2014	07:01:43.465	$GPGGA,070144,2444.7666,N,08041.3320,W,1,8,1.8,14,M,,M,,*5A
06/05/2014	07:01:44.578	$GPGGA,070145,2444.7653,N,08041.3342,W,1,8,1.8,14,M,,M,,*59
06/05/2014	07:01:45.461	$GPGGA,070146,2444.7641,N,08041.3365,W,1,8,1.8,14,M,,M,,*5C
06/05/2014	07:01:46.454	$GPGGA,070147,2444.7630,N,08041.3389,W,1,8,1.8,14,M,,M,,*59
06/05/2014	07:01:47.587	$GPGGA,070148,2444.7618,N,08041.3411,W,1,8,1.8,14,M,,M,,*5A
06/05/2014	07:01:48.469	$GPGGA,070149,2444.7605,N,08041.3433,W,1,8,1.8,14,M,,M,,*57
06/05/2014	07:01:49.452	$GPGGA,070150,2444.7594,N,08041.3457,W,1,8,1.8,14,M,,M,,*56
06/05/2014	07:01:50.556	$GPGGA,070151,2444.7583,N,08041.3480,W,1,8,1.8,14,M,,M,,*5B
06/05/2014	07:01:51.578	$GPGGA,070152,2444.7569,N,08041.3504,W,1,8,1.8,14,M,,M,,*51
06/05/2014	07:01:52.551	$GPGGA,070153,2444.7558,N,08041.3526,W,1,8,1.8,14,M,,M,,*52
06/05/2014	07:01:53.563	$GPGGA,070154,2444.7545,N,08041.3549,W,1,8,1.8,14,M,,M,,*50
06/05/2014	07:01:54.555	$GPGGA,070155,2444.7533,N,08041.3571,W,1,8,1.8,14,M,,M,,*5B
06/05/2014	07:01:55.578	$GPGGA,070156,2444.7522,N,08041.3595,W,1,8,1.8,14,M,,M,,*52
06/05/2014	07:01:56.611	$GPGGA,070157,2444.7509,N,08041.3617,W,1,8,1.8,14,M,,M,,*53
06/05/2014	07:01:57.564	$GPGGA,070158,2444.7497,N,08041.3641,W,1,8,1.8,14,M,,M,,*59
06/05/2014	07:01:58.587	$GPGGA,070159,2444.7486,N,08041.3663,W,1,8,1.8,13,M,,M,,*5F
06/05/2014	07:01:59.609	$GPGGA,070200,2444.7473,N,08041.3686,W,1,8,1.8,13,M,,M,,*51
06/05/2014	07:02:00.584	$GPGGA,070201,2444.7462,N,08041.3710,W,1,8,1.8,13,M,,M,,*5E
06/05/2014	07:02:01.575	$GPGGA,070202,2444.7450,N,08041.3733,W,1,8,1.8,13,M,,M,,*5D
06/05/2014	07:02:02.598	$GPGGA,070203,2444.7437,N,08041.3757,W,1,8,1.8,13,M,,M,,*5F
06/05/2014	07:02:03.581	$GPGGA,070204,2444.7426,N,08041.3782,W,1,8,1.8,13,M,,M,,*50
06/05/2014	07:02:04.603	$GPGGA,070205,2444.7415,N,08041.3808,W,1,8,1.8,13,M,,M,,*5C
06/05/2014	07:02:05.566	$GPGGA,070206,2444.7402,N,08041.3831,W,1,8,1.8,13,M,,M,,*53
06/05/2014	07:02:06.609	$GPGGA,070207,2444.7390,N,08041.3855,W,1,8,1.8,13,M,,M,,*5C
06/05/2014	07:02:07.582	$GPGGA,070208,2444.7381,N,08041.3878,W,1,8,1.8,13,M,,M,,*5C
06/05/2014	07:02:08.595	$GPGGA,070209,2444.7370,N,08041.3900,W,1,8,1.8,13,M,,M,,*5D
06/05/2014	07:02:09.577	$GPGGA,070210,2444.7357,N,08041.3923,W,1,8,1.8,13,M,,M,,*51
06/05/2014	07:02:10.589	$GPGGA,070211,2444.7347,N,08041.3947,W,1,8,1.8,13,M,,M,,*53
06/05/2014	07:02:11.592	$GPGGA,070212,2444.7335,N,08041.3970,W,1,8,1.8,13,M,,M,,*51
06/05/2014	07:02:12.565	$GPGGA,070213,2444.7323,N,08041.3996,W,1,8,1.8,13,M,,M,,*5F
06/05/2014	07:02:13.587	$GPGGA,070214,2444.7312,N,08041.4021,W,1,8,1.8,13,M,,M,,*58
06/05/2014	07:02:14.570	$GPGGA,070215,2444.7301,N,08041.4046,W,1,8,1.8,13,M,,M,,*5A
06/05/2014	07:02:15.593	$GPGGA,070216,2444.7290,N,08041.4068,W,1,8,1.8,13,M,,M,,*5C
06/05/2014	07:02:16.626	$GPGGA,070217,2444.7280,N,08041.4091,W,1,8,1.8,13,M,,M,,*5A
06/05/2014	07:02:17.589	$GPGGA,070218,2444.7269,N,08041.4115,W,1,8,1.8,13,M,,M,,*5F
06/05/2014	07:02:18.571	$GPGGA,070219,2444.7258,N,08041.4138,W,1,8,1.8,13,M,,M,,*53
06/05/2014	07:02:19.584	$GPGGA,070220,2444.7248,N,08041.4162,W,1,8,1.8,13,M,,M,,*57
06/05/2014	07:02:20.577	$GPGGA,070221,2444.7237,N,08041.4187,W,1,8,1.8,13,M,,M,,*55
06/05/2014	07:02:21.590	$GPGGA,070222,2444.7227,N,08041.4210,W,1,8,1.8,13,M,,M,,*5A
06/05/2014	07:02:22.603	$GPGGA,070223,2444.7216,N,08041.4234,W,1,8,1.8,13,M,,M,,*5F
06/05/2014	07:02:23.605	$GPGGA,070224,2444.7207,N,08041.4257,W,1,8,1.8,13,M,,M,,*5D
06/05/2014	07:02:24.709	$GPGGA,070225,2444.7197,N,08041.4281,W,1,8,1.8,13,M,,M,,*5D
06/05/2014	07:02:25.581	$GPGGA,070226,2444.7186,N,08041.4306,W,1,8,1.8,13,M,,M,,*50
06/05/2014	07:02:26.584	$GPGGA,070227,2444.7175,N,08041.4331,W,1,8,1.8,13,M,,M,,*59
06/05/2014	07:02:27.586	$GPGGA,070228,2444.7165,N,08041.4354,W,1,8,1.8,13,M,,M,,*54
06/05/2014	07:02:28.608	$GPGGA,070229,2444.7154,N,08041.4379,W,1,8,1.8,13,M,,M,,*58
06/05/2014	07:02:29.581	$GPGGA,070230,2444.7143,N,08041.4401,W,1,8,1.8,13,M,,M,,*5E
06/05/2014	07:02:30.704	$GPGGA,070231,2444.7135,N,08041.4425,W,1,8,1.8,13,M,,M,,*58
06/05/2014	07:02:31.607	$GPGGA,070232,2444.7123,N,08041.4447,W,1,8,1.8,13,M,,M,,*58
06/05/2014	07:02:32.563	$GPGGA,070233,2444.7111,N,08041.4470,W,1,8,1.8,13,M,,M,,*5C
06/05/2014	07:02:33.516	$GPGGA,070234,2444.7100,N,08041.4494,W,1,8,1.8,13,M,,M,,*51
06/05/2014	07:02:34.548	$GPGGA,070235,2444.7089,N,08041.4519,W,1,8,1.8,13,M,,M,,*54
06/05/2014	07:02:35.441	$GPGGA,070236,2444.7078,N,08041.4542,W,1,8,1.8,13,M,,M,,*57
06/05/2014	07:02:36.544	$GPGGA,070237,2444.7067,N,08041.4566,W,1,8,1.8,13,M,,M,,*5E
06/05/2014	07:02:37.437	$GPGGA,070238,2444.7056,N,08041.4589,W,1,8,1.8,13,M,,M,,*52
06/05/2014	07:02:38.429	$GPGGA,070239,2444.7045,N,08041.4613,W,1,8,1.8,13,M,,M,,*51
06/05/2014	07:02:39.542	$GPGGA,070240,2444.7034,N,08041.4635,W,1,8,1.8,13,M,,M,,*5D
06/05/2014	07:02:40.555	$GPGGA,070241,2444.7023,N,08041.4658,W,1,8,1.8,13,M,,M,,*51
06/05/2014	07:02:41.431	$GPGGA,070242,2444.7010,N,08041.4682,W,1,8,1.8,13,M,,M,,*55
06/05/2014	07:02:42.521	$GPGGA,070243,2444.6999,N,08041.4705,W,1,8,1.8,13,M,,M,,*53
06/05/2014	07:02:43.534	$GPGGA,070244,2444.6988,N,08041.4729,W,1,8,1.8,13,M,,M,,*5A
06/05/2014	07:02:44.525	$GPGGA,070245,2444.6976,N,08041.4754,W,1,8,1.8,13,M,,M,,*50
06/05/2014	07:02:45.529	$GPGGA,070246,2444.6963,N,08041.4779,W,1,8,1.8,13,M,,M,,*58
06/05/2014	07:02:46.551	$GPGGA,070247,2444.6951,N,08041.4801,W,1,8,1.8,13,M,,M,,*58
06/05/2014	07:02:47.554	$GPGGA,070248,2444.6940,N,08041.4824,W,1,8,1.8,13,M,,M,,*50
06/05/2014	07:02:48.547	$GPGGA,070249,2444.6929,N,08041.4846,W,1,8,1.8,13,M,,M,,*5A
06/05/2014	07:02:49.539	$GPGGA,070250,2444.6917,N,08041.4867,W,1,8,1.8,13,M,,M,,*5C
06/05/2014	07:02:50.542	$GPGGA,070251,2444.6906,N,08041.4891,W,1,8,1.8,13,M,,M,,*54
06/05/2014	07:02:51.545	$GPGGA,070252,2444.6895,N,08041.4914,W,1,8,1.8,13,M,,M,,*50
06/05/2014	07:02:52.528	$GPGGA,070253,2444.6882,N,08041.4939,W,1,8,1.8,13,M,,M,,*58
06/05/2014	07:02:53.540	$GPGGA,070254,2444.6870,N,08041.4962,W,1,8,1.8,13,M,,M,,*5C
06/05/2014	07:02:54.553	$GPGGA,070255,2444.6857,N,08041.4986,W,1,8,1.8,13,M,,M,,*52
06/05/2014	07:02:55.556	$GPGGA,070256,2444.6846,N,08041.5011,W,1,8,1.8,13,M,,M,,*57
06/05/2014	07:02:56.579	$GPGGA,070257,2444.6833,N,08041.5033,W,1,8,1.8,13,M,,M,,*54
06/05/2014	07:02:57.542	$GPGGA,070258,2444.6822,N,08041.5054,W,1,8,1.8,13,M,,M,,*5A
06/05/2014	07:02:58.565	$GPGGA,070259,2444.6810,N,08041.5077,W,1,8,1.8,13,M,,M,,*5B
06/05/2014	07:02:59.557	$GPGGA,070300,2444.6799,N,08041.5099,W,1,8,1.8,12,M,,M,,*59
06/05/2014	07:03:00.540	$GPGGA,070301,2444.6787,N,08041.5123,W,1,8,1.8,12,M,,M,,*57
06/05/2014	07:03:01.553	$GPGGA,070302,2444.6782,N,08041.5145,W,1,8,2.1,13,M,,M,,*5A
06/05/2014	07:03:02.575	$GPGGA,070303,2444.6772,N,08041.5167,W,1,8,1.8,13,M,,M,,*5E
06/05/2014	07:03:03.557	$GPGGA,070304,2444.6761,N,08041.5191,W,1,8,1.8,13,M,,M,,*52
06/05/2014	07:03:04.580	$GPGGA,070305,2444.6749,N,08041.5213,W,1,8,1.8,13,M,,M,,*50
06/05/2014	07:03:05.553	$GPGGA,070306,2444.6738,N,08041.5236,W,1,8,1.8,13,M,,M,,*52
06/05/2014	07:03:06.546	$GPGGA,070307,2444.6727,N,08041.5260,W,1,8,1.8,13,M,,M,,*5E
06/05/2014	07:03:07.569	$GPGGA,070308,2444.6714,N,08041.5283,W,1,8,1.8,13,M,,M,,*5C
06/05/2014	07:03:08.561	$GPGGA,070309,2444.6702,N,08041.5307,W,1,8,1.8,13,M,,M,,*57
06/05/2014	07:03:09.554	$GPGGA,070310,2444.6689,N,08041.5330,W,1,8,1.8,13,M,,M,,*59
06/05/2014	07:03:10.547	$GPGGA,070311,2444.6677,N,08041.5352,W,1,8,1.8,13,M,,M,,*5D
06/05/2014	07:03:11.570	$GPGGA,070312,2444.6665,N,08041.5376,W,1,8,1.8,13,M,,M,,*5B
06/05/2014	07:03:12.543	$GPGGA,070313,2444.6655,N,08041.5398,W,1,8,1.8,13,M,,M,,*59
06/05/2014	07:03:13.565	$GPGGA,070314,2444.6644,N,08041.5421,W,1,8,1.8,13,M,,M,,*5B
06/05/2014	07:03:14.538	$GPGGA,070315,2444.6631,N,08041.5444,W,1,8,1.8,13,M,,M,,*5B
06/05/2014	07:03:15.571	$GPGGA,070316,2444.6620,N,08041.5466,W,1,8,1.8,13,M,,M,,*58
06/05/2014	07:03:16.574	$GPGGA,070317,2444.6610,N,08041.5491,W,1,8,1.8,13,M,,M,,*52
06/05/2014	07:03:17.557	$GPGGA,070318,2444.6598,N,08041.5514,W,1,8,1.8,13,M,,M,,*52
06/05/2014	07:03:18.549	$GPGGA,070319,2444.6586,N,08041.5539,W,1,8,1.8,13,M,,M,,*53
06/05/2014	07:03:19.582	$GPGGA,070320,2444.6575,N,08041.5564,W,1,8,1.8,13,M,,M,,*5D
06/05/2014	07:03:20.574	$GPGGA,070321,2444.6564,N,08041.5587,W,1,8,1.8,13,M,,M,,*51
06/05/2014	07:03:21.557	$GPGGA,070322,2444.6552,N,08041.5611,W,1,8,1.8,13,M,,M,,*5B
06/05/2014	07:03:22.549	$GPGGA,070323,2444.6543,N,08041.5633,W,1,8,1.8,13,M,,M,,*5A
06/05/2014	07:03:23.683	$GPGGA,070324,2444.6532,N,08041.5657,W,1,8,1.8,14,M,,M,,*5E
06/05/2014	07:03:24.685	$GPGGA,070325,2444.6521,N,08041.5679,W,1,8,1.8,14,M,,M,,*51
06/05/2014	07:03:25.568	$GPGGA,070326,2444.6510,N,08041.5702,W,1,8,1.8,14,M,,M,,*5D
06/05/2014	07:03:26.571	$GPGGA,070327,2444.6499,N,08041.5726,W,1,8,1.8,14,M,,M,,*5A
06/05/2014	07:03:27.694	$GPGGA,070328,2444.6488,N,08041.5751,W,1,8,1.8,14,M,,M,,*55
06/05/2014	07:03:28.567	$GPGGA,070329,2444.6478,N,08041.5775,W,1,8,1.8,14,M,,M,,*5D
06/05/2014	07:03:29.569	$GPGGA,070330,2444.6467,N,08041.5800,W,1,8,1.8,14,M,,M,,*56
06/05/2014	07:03:30.580	$GPGGA,070331,2444.6456,N,08041.5825,W,1,8,1.8,14,M,,M,,*52
06/05/2014	07:03:31.685	$GPGGA,070332,2444.6445,N,08041.5849,W,1,8,1.8,14,M,,M,,*59
06/05/2014	07:03:32.511	$GPGGA,070333,2444.6434,N,08041.5872,W,1,8,1.8,14,M,,M,,*56
06/05/2014	07:03:33.504	$GPGGA,070334,2444.6424,N,08041.5896,W,1,8,1.8,14,M,,M,,*5A
06/05/2014	07:03:34.506	$GPGGA,070335,2444.6413,N,08041.5918,W,1,8,1.8,14,M,,M,,*58
06/05/2014	07:03:35.519	$GPGGA,070336,2444.6402,N,08041.5939,W,1,8,1.8,14,M,,M,,*58
06/05/2014	07:03:36.532	$GPGGA,070337,2444.6392,N,08041.5965,W,1,8,1.8,14,M,,M,,*5E
06/05/2014	07:03:37.514	$GPGGA,070338,2444.6381,N,08041.5990,W,1,8,1.8,14,M,,M,,*59
06/05/2014	07:03:38.537	$GPGGA,070339,2444.6369,N,08041.6013,W,1,8,1.8,14,M,,M,,*5F
06/05/2014	07:03:39.519	$GPGGA,070340,2444.6358,N,08041.6040,W,1,8,1.8,14,M,,M,,*55
06/05/2014	07:03:40.512	$GPGGA,070341,2444.6348,N,08041.6063,W,1,8,1.8,14,M,,M,,*54
06/05/2014	07:03:42.768	$GPGGA,070342,2444.6337,N,08041.6087,W,1,8,1.8,14,M,,M,,*55
06/05/2014	07:03:42.788	$GPGGA,070343,2444.6326,N,08041.6109,W,1,8,1.8,14,M,,M,,*53
06/05/2014	07:03:43.541	$GPGGA,070344,2444.6316,N,08041.6131,W,1,8,1.8,14,M,,M,,*5C
06/05/2014	07:03:44.533	$GPGGA,070345,2444.6306,N,08041.6153,W,1,8,1.8,14,M,,M,,*58
06/05/2014	07:03:45.506	$GPGGA,070346,2444.6294,N,08041.6178,W,1,8,1.8,14,M,,M,,*58
06/05/2014	07:03:46.539	$GPGGA,070347,2444.6283,N,08041.6200,W,1,8,1.8,14,M,,M,,*53
06/05/2014	07:03:47.522	$GPGGA,070348,2444.6272,N,08041.6225,W,1,8,1.8,14,M,,M,,*55
06/05/2014	07:03:48.534	$GPGGA,070349,2444.6261,N,08041.6250,W,1,8,1.8,14,M,,M,,*54
06/05/2014	07:03:49.507	$GPGGA,070350,2444.6248,N,08041.6273,W,1,8,1.8,14,M,,M,,*56
06/05/2014	07:03:50.540	$GPGGA,070351,2444.6236,N,08041.6298,W,1,8,1.8,14,M,,M,,*5B
06/05/2014	07:03:51.553	$GPGGA,070352,2444.6223,N,08041.6322,W,1,8,1.8,14,M,,M,,*5C
06/05/2014	07:03:52.546	$GPGGA,070353,2444.6211,N,08041.6344,W,1,8,1.8,14,M,,M,,*5C
06/05/2014	07:03:53.518	$GPGGA,070354,2444.6200,N,08041.6367,W,1,8,1.8,14,M,,M,,*5A
06/05/2014	07:03:54.510	$GPGGA,070355,2444.6189,N,08041.6391,W,1,8,1.8,14,M,,M,,*50
06/05/2014	07:03:55.533	$GPGGA,070356,2444.6176,N,08041.6412,W,1,8,1.8,14,M,,M,,*5F
06/05/2014	07:03:56.566	$GPGGA,070357,2444.6165,N,08041.6434,W,1,8,1.8,14,M,,M,,*58
06/05/2014	07:03:57.529	$GPGGA,070358,2444.6156,N,08041.6457,W,1,8,1.8,14,M,,M,,*52
06/05/2014	07:03:58.511	$GPGGA,070359,2444.6143,N,08041.6481,W,1,8,1.8,14,M,,M,,*5C
06/05/2014	07:03:59.564	$GPGGA,070400,2444.6131,N,08041.6504,W,1,8,1.8,14,M,,M,,*5E
06/05/2014	07:04:00.537	$GPGGA,070401,2444.6118,N,08041.6529,W,1,8,1.8,14,M,,M,,*5B
06/05/2014	07:04:01.530	$GPGGA,070402,2444.6106,N,08041.6553,W,1,8,1.8,14,M,,M,,*5A
06/05/2014	07:04:02.533	$GPGGA,070403,2444.6095,N,08041.6576,W,1,8,2.1,14,M,,M,,*5D
06/05/2014	07:04:03.535	$GPGGA,070404,2444.6085,N,08041.6598,W,1,8,1.8,14,M,,M,,*51
06/05/2014	07:04:04.548	$GPGGA,070405,2444.6077,N,08041.6619,W,1,8,1.8,14,M,,M,,*57
06/05/2014	07:04:05.541	$GPGGA,070406,2444.6067,N,08041.6640,W,1,8,1.8,14,M,,M,,*59
06/05/2014	07:04:06.514	$GPGGA,070407,2444.6056,N,08041.6662,W,1,8,1.8,14,M,,M,,*5A
06/05/2014	07:04:07.647	$GPGGA,070408,2444.6044,N,08041.6684,W,1,8,1.8,14,M,,M,,*5E
06/05/2014	07:04:08.549	$GPGGA,070409,2444.6033,N,08041.6707,W,1,8,1.8,14,M,,M,,*55
06/05/2014	07:04:09.542	$GPGGA,070410,2444.6020,N,08041.6731,W,1,8,2.0,14,M,,M,,*51
06/05/2014	07:04:10.555	$GPGGA,070411,2444.6008,N,08041.6756,W,1,7,1.8,14,M,,M,,*5F
06/05/2014	07:04:11.648	$GPGGA,070412,2444.5991,N,08041.6781,W,1,7,1.8,14,M,,M,,*5C
06/05/2014	07:04:12.550	$GPGGA,070413,2444.5979,N,08041.6804,W,1,8,2.0,14,M,,M,,*5D
06/05/2014	07:04:13.643	$GPGGA,070414,2444.5967,N,08041.6826,W,1,8,2.0,14,M,,M,,*55
06/05/2014	07:04:14.545	$GPGGA,070415,2444.5956,N,08041.6847,W,1,7,1.8,14,M,,M,,*55
06/05/2014	07:04:15.568	$GPGGA,070416,2444.5947,N,08041.6869,W,1,7,1.8,14,M,,M,,*5A
06/05/2014	07:04:16.581	$GPGGA,070417,2444.5934,N,08041.6890,W,1,8,1.8,14,M,,M,,*56
06/05/2014	07:04:17.554	$GPGGA,070418,2444.5921,N,08041.6912,W,1,8,1.8,14,M,,M,,*56
06/05/2014	07:04:18.637	$GPGGA,070419,2444.5910,N,08041.6937,W,1,8,1.8,15,M,,M,,*53
06/05/2014	07:04:19.649	$GPGGA,070420,2444.5897,N,08041.6962,W,1,8,1.8,15,M,,M,,*57
06/05/2014	07:04:20.672	$GPGGA,070421,2444.5885,N,08041.6987,W,1,8,1.8,15,M,,M,,*5E
06/05/2014	07:04:21.624	$GPGGA,070422,2444.5872,N,08041.7012,W,1,8,1.8,15,M,,M,,*51
06/05/2014	07:04:22.627	$GPGGA,070423,2444.5861,N,08041.7037,W,1,8,1.8,15,M,,M,,*55
06/05/2014	07:04:23.639	$GPGGA,070424,2444.5851,N,08041.7059,W,1,8,1.8,15,M,,M,,*59
06/05/2014	07:04:24.632	$GPGGA,070425,2444.5842,N,08041.7081,W,1,8,1.8,15,M,,M,,*5F
06/05/2014	07:04:25.624	$GPGGA,070426,2444.5831,N,08041.7103,W,1,8,1.8,15,M,,M,,*53
06/05/2014	07:04:26.667	$GPGGA,070427,2444.5820,N,08041.7125,W,1,8,1.8,15,M,,M,,*56
06/05/2014	07:04:27.640	$GPGGA,070428,2444.5810,N,08041.7150,W,1,8,1.8,15,M,,M,,*58
06/05/2014	07:04:28.652	$GPGGA,070429,2444.5799,N,08041.7175,W,1,8,1.8,15,M,,M,,*50
06/05/2014	07:04:29.634	$GPGGA,070430,2444.5788,N,08041.7198,W,1,8,1.8,15,M,,M,,*5B
06/05/2014	07:04:30.657	$GPGGA,070431,2444.5777,N,08041.7225,W,1,8,1.8,15,M,,M,,*5F
06/05/2014	07:04:31.649	$GPGGA,070432,2444.5766,N,08041.7249,W,1,8,1.8,15,M,,M,,*56
06/05/2014	07:04:32.468	$GPGGA,070433,2444.5753,N,08041.7272,W,1,8,1.8,15,M,,M,,*59
06/05/2014	07:04:33.470	$GPGGA,070434,2444.5743,N,08041.7294,W,1,8,1.8,15,M,,M,,*57
06/05/2014	07:04:34.463	$GPGGA,070435,2444.5735,N,08041.7317,W,1,8,1.8,15,M,,M,,*5D
06/05/2014	07:04:35.485	$GPGGA,070436,2444.5724,N,08041.7339,W,1,8,1.8,15,M,,M,,*52
06/05/2014	07:04:36.528	$GPGGA,070437,2444.5712,N,08041.7361,W,1,8,1.8,15,M,,M,,*5B
06/05/2014	07:04:37.471	$GPGGA,070438,2444.5704,N,08041.7386,W,1,8,1.8,15,M,,M,,*5A
06/05/2014	07:04:38.473	$GPGGA,070439,2444.5694,N,08041.7411,W,1,8,1.8,15,M,,M,,*5A
06/05/2014	07:04:39.496	$GPGGA,070440,2444.5680,N,08041.7435,W,1,8,1.8,15,M,,M,,*57
06/05/2014	07:04:40.508	$GPGGA,070441,2444.5670,N,08041.7460,W,1,8,1.8,15,M,,M,,*59
06/05/2014	07:04:41.521	$GPGGA,070442,2444.5661,N,08041.7485,W,1,8,1.8,15,M,,M,,*51
06/05/2014	07:04:42.504	$GPGGA,070443,2444.5649,N,08041.7507,W,1,8,1.8,15,M,,M,,*51
06/05/2014	07:04:43.486	$GPGGA,070444,2444.5638,N,08041.7529,W,1,8,1.8,15,M,,M,,*5C
06/05/2014	07:04:44.489	$GPGGA,070445,2444.5627,N,08041.7551,W,1,8,1.8,15,M,,M,,*5C
06/05/2014	07:04:45.491	$GPGGA,070446,2444.5616,N,08041.7574,W,1,8,1.8,15,M,,M,,*5A
06/05/2014	07:04:46.524	$GPGGA,070447,2444.5605,N,08041.7598,W,1,8,1.8,15,M,,M,,*5B
06/05/2014	07:04:47.516	$GPGGA,070448,2444.5592,N,08041.7620,W,1,8,1.8,15,M,,M,,*59
06/05/2014	07:04:48.488	$GPGGA,070449,2444.5580,N,08041.7645,W,1,8,1.8,15,M,,M,,*58
06/05/2014	07:04:49.481	$GPGGA,070450,2444.5569,N,08041.7668,W,1,8,1.8,15,M,,M,,*58
06/05/2014	07:04:50.483	$GPGGA,070451,2444.5557,N,08041.7692,W,1,8,1.8,15,M,,M,,*51
06/05/2014	07:04:51.496	$GPGGA,070452,2444.5546,N,08041.7714,W,1,8,1.8,15,M,,M,,*5D
06/05/2014	07:04:52.509	$GPGGA,070453,2444.5533,N,08041.7738,W,1,8,1.8,15,M,,M,,*50
06/05/2014	07:04:53.491	$GPGGA,070454,2444.5522,N,08041.7761,W,1,8,1.8,15,M,,M,,*5B
06/05/2014	07:04:54.494	$GPGGA,070455,2444.5511,N,08041.7785,W,1,8,1.8,15,M,,M,,*50
06/05/2014	07:04:55.506	$GPGGA,070456,2444.5499,N,08041.7809,W,1,8,1.8,15,M,,M,,*59
06/05/2014	07:04:56.479	$GPGGA,070457,2444.5485,N,08041.7833,W,1,8,1.8,15,M,,M,,*5C
06/05/2014	07:04:57.481	$GPGGA,070458,2444.5474,N,08041.7858,W,1,8,1.8,15,M,,M,,*50
06/05/2014	07:04:58.484	$GPGGA,070459,2444.5463,N,08041.7883,W,1,8,1.8,15,M,,M,,*51
06/05/2014	07:04:59.627	$GPGGA,070500,2444.5450,N,08041.7904,W,1,8,1.8,15,M,,M,,*52
06/05/2014	07:05:00.589	$GPGGA,070501,2444.5439,N,08041.7926,W,1,8,1.8,15,M,,M,,*5C
06/05/2014	07:05:01.484	$GPGGA,070502,2444.5430,N,08041.7949,W,1,8,1.8,15,M,,M,,*5F
06/05/2014	07:05:02.494	$GPGGA,070503,2444.5417,N,08041.7971,W,1,8,1.8,15,M,,M,,*50
06/05/2014	07:05:03.507	$GPGGA,070504,2444.5406,N,08041.7995,W,1,8,1.8,15,M,,M,,*5D
06/05/2014	07:05:04.598	$GPGGA,070505,2444.5394,N,08041.8020,W,1,8,1.8,15,M,,M,,*58
06/05/2014	07:05:05.491	$GPGGA,070506,2444.5383,N,08041.8043,W,1,8,1.8,15,M,,M,,*58
06/05/2014	07:05:06.614	$GPGGA,070507,2444.5372,N,08041.8068,W,1,8,1.8,15,M,,M,,*5E
06/05/2014	07:05:07.627	$GPGGA,070508,2444.5360,N,08041.8092,W,1,8,1.8,15,M,,M,,*57
06/05/2014	07:05:08.589	$GPGGA,070509,2444.5349,N,08041.8114,W,1,8,1.8,15,M,,M,,*52
06/05/2014	07:05:09.592	$GPGGA,070510,2444.5340,N,08041.8136,W,1,8,1.8,15,M,,M,,*53
06/05/2014	07:05:10.614	$GPGGA,070511,2444.5330,N,08041.8159,W,1,8,1.8,15,M,,M,,*5C
06/05/2014	07:05:11.608	$GPGGA,070512,2444.5319,N,08041.8183,W,1,8,1.8,15,M,,M,,*53
06/05/2014	07:05:12.610	$GPGGA,070513,2444.5308,N,08041.8208,W,1,8,1.8,15,M,,M,,*52
06/05/2014	07:05:13.582	$GPGGA,070514,2444.5298,N,08041.8233,W,1,8,1.8,15,M,,M,,*55
06/05/2014	07:05:14.615	$GPGGA,070515,2444.5286,N,08041.8259,W,1,8,1.8,15,M,,M,,*57
06/05/2014	07:05:15.607	$GPGGA,070516,2444.5276,N,08041.8282,W,1,8,1.8,15,M,,M,,*5D
06/05/2014	07:05:16.590	$GPGGA,070517,2444.5266,N,08041.8306,W,1,8,1.8,15,M,,M,,*50
06/05/2014	07:05:17.603	$GPGGA,070518,2444.5257,N,08041.8331,W,1,8,1.8,15,M,,M,,*59
06/05/2014	07:05:18.585	$GPGGA,070519,2444.5246,N,08041.8353,W,1,8,1.8,15,M,,M,,*5C
06/05/2014	07:05:19.608	$GPGGA,070520,2444.5235,N,08041.8376,W,1,8,1.8,15,M,,M,,*55
06/05/2014	07:05:20.621	$GPGGA,070521,2444.5225,N,08041.8400,W,1,8,1.8,15,M,,M,,*53
06/05/2014	07:05:21.604	$GPGGA,070522,2444.5214,N,08041.8423,W,1,8,1.8,15,M,,M,,*53
06/05/2014	07:05:22.615	$GPGGA,070523,2444.5203,N,08041.8448,W,1,8,1.8,15,M,,M,,*59
06/05/2014	07:05:23.617	$GPGGA,070524,2444.5193,N,08041.8472,W,1,8,1.8,15,M,,M,,*5D
06/05/2014	07:05:24.620	$GPGGA,070525,2444.5181,N,08041.8497,W,1,8,1.8,14,M,,M,,*55
06/05/2014	07:05:25.603	$GPGGA,070526,2444.5170,N,08041.8520,W,1,8,1.8,14,M,,M,,*55
06/05/2014	07:05:26.645	$GPGGA,070527,2444.5159,N,08041.8544,W,1,8,1.8,14,M,,M,,*5D
06/05/2014	07:05:27.618	$GPGGA,070528,2444.5148,N,08041.8567,W,1,8,1.8,14,M,,M,,*53
06/05/2014	07:05:28.641	$GPGGA,070529,2444.5136,N,08041.8591,W,1,8,1.8,14,M,,M,,*52
06/05/2014	07:05:29.603	$GPGGA,070530,2444.5124,N,08041.8613,W,1,8,1.8,14,M,,M,,*50
06/05/2014	07:05:30.595	$GPGGA,070531,2444.5114,N,08041.8634,W,1,8,1.8,14,M,,M,,*57
06/05/2014	07:05:31.618	$GPGGA,070532,2444.5103,N,08041.8657,W,1,8,1.8,14,M,,M,,*57
06/05/2014	07:05:32.436	$GPGGA,070533,2444.5092,N,08041.8679,W,1,8,1.8,14,M,,M,,*53
06/05/2014	07:05:33.459	$GPGGA,070534,2444.5080,N,08041.8701,W,1,8,1.8,14,M,,M,,*59
06/05/2014	07:05:34.472	$GPGGA,070535,2444.5069,N,08041.8725,W,1,8,1.8,14,M,,M,,*59
06/05/2014	07:05:35.455	$GPGGA,070536,2444.5058,N,08041.8750,W,1,8,1.8,14,M,,M,,*5A
06/05/2014	07:05:36.447	$GPGGA,070537,2444.5044,N,08041.8773,W,1,8,1.8,14,M,,M,,*57
06/05/2014	07:05:37.570	$GPGGA,070538,2444.5031,N,08041.8795,W,1,8,1.8,14,M,,M,,*52
06/05/2014	07:05:38.442	$GPGGA,070539,2444.5019,N,08041.8819,W,1,8,1.8,14,M,,M,,*52
06/05/2014	07:05:39.464	$GPGGA,070540,2444.5008,N,08041.8842,W,1,8,1.8,14,M,,M,,*52
06/05/2014	07:05:40.456	$GPGGA,070541,2444.4995,N,08041.8866,W,1,8,1.8,14,M,,M,,*59
06/05/2014	07:05:41.449	$GPGGA,070542,2444.4982,N,08041.8887,W,1,8,1.8,14,M,,M,,*53
06/05/2014	07:05:42.572	$GPGGA,070543,2444.4971,N,08041.8910,W,1,8,1.8,14,M,,M,,*51
06/05/2014	07:05:43.464	$GPGGA,070544,2444.4958,N,08041.8934,W,1,8,1.8,14,M,,M,,*5B
06/05/2014	07:05:44.457	$GPGGA,070545,2444.4946,N,08041.8956,W,1,8,1.8,14,M,,M,,*51
06/05/2014	07:05:45.449	$GPGGA,070546,2444.4935,N,08041.8978,W,1,8,1.8,14,M,,M,,*5A
06/05/2014	07:05:46.582	$GPGGA,070547,2444.4921,N,08041.9000,W,1,8,1.8,14,M,,M,,*59
06/05/2014	07:05:47.474	$GPGGA,070548,2444.4910,N,08041.9025,W,1,8,1.8,14,M,,M,,*53
06/05/2014	07:05:48.477	$GPGGA,070549,2444.4897,N,08041.9048,W,1,8,1.8,14,M,,M,,*57
06/05/2014	07:05:49.470	$GPGGA,070550,2444.4884,N,08041.9072,W,1,8,1.8,14,M,,M,,*54
06/05/2014	07:05:50.462	$GPGGA,070551,2444.4870,N,08041.9095,W,1,8,1.8,14,M,,M,,*57
06/05/2014	07:05:51.565	$GPGGA,070552,2444.4859,N,08041.9119,W,1,8,1.8,14,M,,M,,*5A
06/05/2014	07:05:52.568	$GPGGA,070553,2444.4847,N,08041.9142,W,1,8,1.8,14,M,,M,,*5A
06/05/2014	07:05:53.461	$GPGGA,070554,2444.4835,N,08041.9165,W,1,8,1.8,14,M,,M,,*5D
06/05/2014	07:05:54.583	$GPGGA,070555,2444.4823,N,08041.9187,W,1,8,1.8,14,M,,M,,*57
06/05/2014	07:05:55.575	$GPGGA,070556,2444.4812,N,08041.9210,W,1,8,1.8,14,M,,M,,*5B
06/05/2014	07:05:56.558	$GPGGA,070557,2444.4802,N,08041.9234,W,1,8,1.8,14,M,,M,,*5D
06/05/2014	07:05:57.570	$GPGGA,070558,2444.4790,N,08041.9257,W,1,8,1.8,14,M,,M,,*53
06/05/2014	07:05:58.562	$GPGGA,070559,2444.4778,N,08041.9281,W,1,8,1.8,14,M,,M,,*5F
06/05/2014	07:05:59.595	$GPGGA,070600,2444.4767,N,08041.9306,W,1,8,1.8,14,M,,M,,*50
06/05/2014	07:06:00.558	$GPGGA,070601,2444.4756,N,08041.9332,W,1,8,1.8,14,M,,M,,*54
06/05/2014	07:06:01.560	$GPGGA,070602,2444.4744,N,08041.9355,W,1,8,1.8,14,M,,M,,*55
06/05/2014	07:06:02.573	$GPGGA,070603,2444.4733,N,08041.9380,W,1,8,1.8,14,M,,M,,*5C
06/05/2014	07:06:03.575	$GPGGA,070604,2444.4722,N,08041.9404,W,1,8,1.8,14,M,,M,,*50
06/05/2014	07:06:04.588	$GPGGA,070605,2444.4712,N,08041.9426,W,1,8,1.8,14,M,,M,,*52
06/05/2014	07:06:05.560	$GPGGA,070606,2444.4701,N,08041.9449,W,1,8,1.8,14,M,,M,,*5A
06/05/2014	07:06:06.583	$GPGGA,070607,2444.4691,N,08041.9473,W,1,8,1.8,14,M,,M,,*5A
06/05/2014	07:06:07.586	$GPGGA,070608,2444.4682,N,08041.9496,W,1,8,1.8,14,M,,M,,*5C
06/05/2014	07:06:08.608	$GPGGA,070609,2444.4671,N,08041.9520,W,1,8,1.8,14,M,,M,,*5D
06/05/2014	07:06:09.561	$GPGGA,070610,2444.4659,N,08041.9545,W,1,8,1.8,14,M,,M,,*5C
06/05/2014	07:06:10.583	$GPGGA,070611,2444.4648,N,08041.9568,W,1,8,1.8,14,M,,M,,*52
06/05/2014	07:06:11.586	$GPGGA,070612,2444.4639,N,08041.9593,W,1,8,1.8,14,M,,M,,*53
06/05/2014	07:06:12.589	$GPGGA,070613,2444.4628,N,08041.9620,W,1,8,1.8,14,M,,M,,*59
06/05/2014	07:06:13.571	$GPGGA,070614,2444.4615,N,08041.9643,W,1,8,1.8,14,M,,M,,*55
06/05/2014	07:06:14.603	$GPGGA,070615,2444.4604,N,08041.9668,W,1,8,1.8,14,M,,M,,*5D
06/05/2014	07:06:15.585	$GPGGA,070616,2444.4595,N,08041.9691,W,1,8,1.8,14,M,,M,,*53
06/05/2014	07:06:16.608	$GPGGA,070617,2444.4585,N,08041.9715,W,1,8,1.8,14,M,,M,,*5E
06/05/2014	07:06:17.581	$GPGGA,070618,2444.4575,N,08041.9736,W,1,8,1.8,14,M,,M,,*5F
06/05/2014	07:06:18.593	$GPGGA,070619,2444.4564,N,08041.9758,W,1,8,1.8,14,M,,M,,*56
06/05/2014	07:06:19.576	$GPGGA,070620,2444.4554,N,08041.9781,W,1,8,1.8,14,M,,M,,*5B
06/05/2014	07:06:20.578	$GPGGA,070621,2444.4543,N,08041.9805,W,1,8,1.8,14,M,,M,,*5F
06/05/2014	07:06:21.561	$GPGGA,070622,2444.4531,N,08041.9828,W,1,8,1.8,14,M,,M,,*56
06/05/2014	07:06:22.563	$GPGGA,070623,2444.4520,N,08041.9853,W,1,8,1.8,14,M,,M,,*5B
06/05/2014	07:06:23.596	$GPGGA,070624,2444.4509,N,08041.9878,W,1,8,1.8,14,M,,M,,*5E
06/05/2014	07:06:24.589	$GPGGA,070625,2444.4498,N,08041.9902,W,1,8,1.8,14,M,,M,,*5A
06/05/2014	07:06:25.571	$GPGGA,070626,2444.4487,N,08041.9925,W,1,8,1.8,14,M,,M,,*52
06/05/2014	07:06:26.574	$GPGGA,070627,2444.4478,N,08041.9949,W,1,8,1.8,14,M,,M,,*59
06/05/2014	07:06:27.597	$GPGGA,070628,2444.4469,N,08041.9971,W,1,8,1.8,14,M,,M,,*5D
06/05/2014	07:06:28.589	$GPGGA,070629,2444.4458,N,08041.9993,W,1,8,1.8,14,M,,M,,*52
06/05/2014	07:06:29.572	$GPGGA,070630,2444.4447,N,08042.0014,W,1,8,1.8,14,M,,M,,*58
06/05/2014	07:06:30.584	$GPGGA,070631,2444.4437,N,08042.0038,W,1,8,1.8,14,M,,M,,*50
06/05/2014	07:06:31.597	$GPGGA,070632,2444.4426,N,08042.0062,W,1,8,1.8,14,M,,M,,*5C
06/05/2014	07:06:32.423	$GPGGA,070633,2444.4412,N,08042.0087,W,1,8,1.8,14,M,,M,,*51
06/05/2014	07:06:33.556	$GPGGA,070634,2444.4401,N,08042.0112,W,1,8,1.8,14,M,,M,,*59
06/05/2014	07:06:34.419	$GPGGA,070635,2444.4389,N,08042.0137,W,1,8,1.8,14,M,,M,,*58
06/05/2014	07:06:35.531	$GPGGA,070636,2444.4379,N,08042.0162,W,1,8,1.8,14,M,,M,,*54
06/05/2014	07:06:36.624	$GPGGA,070637,2444.4368,N,08042.0185,W,1,8,1.8,14,M,,M,,*5C
06/05/2014	07:06:37.436	$GPGGA,070638,2444.4357,N,08042.0207,W,1,8,1.8,14,M,,M,,*56
06/05/2014	07:06:38.439	$GPGGA,070639,2444.4346,N,08042.0231,W,1,8,1.8,14,M,,M,,*52
06/05/2014	07:06:39.582	$GPGGA,070640,2444.4336,N,08042.0253,W,1,8,1.8,14,M,,M,,*5F
06/05/2014	07:06:40.434	$GPGGA,070641,2444.4325,N,08042.0275,W,1,8,1.8,14,M,,M,,*58
06/05/2014	07:06:41.447	$GPGGA,070642,2444.4314,N,08042.0297,W,1,8,1.8,14,M,,M,,*55
06/05/2014	07:06:42.620	$GPGGA,070643,2444.4303,N,08042.0322,W,1,8,1.8,14,M,,M,,*5D
06/05/2014	07:06:43.582	$GPGGA,070644,2444.4292,N,08042.0347,W,1,8,1.8,14,M,,M,,*50
06/05/2014	07:06:44.626	$GPGGA,070645,2444.4278,N,08042.0372,W,1,8,1.8,14,M,,M,,*53
06/05/2014	07:06:46.630	$GPGGA,070647,2444.4254,N,08042.0423,W,1,8,1.8,14,M,,M,,*5C
06/05/2014	07:06:47.593	$GPGGA,070648,2444.4242,N,08042.0446,W,1,8,1.8,14,M,,M,,*57
06/05/2014	07:06:48.635	$GPGGA,070649,2444.4231,N,08042.0469,W,1,8,1.8,14,M,,M,,*5F
06/05/2014	07:06:49.557	$GPGGA,070650,2444.4221,N,08042.0489,W,1,8,1.8,14,M,,M,,*58
06/05/2014	07:06:50.630	$GPGGA,070651,2444.4211,N,08042.0510,W,1,8,1.8,14,M,,M,,*5B
06/05/2014	07:06:51.592	$GPGGA,070652,2444.4199,N,08042.0531,W,1,8,1.8,14,M,,M,,*58
06/05/2014	07:06:52.615	$GPGGA,070653,2444.4188,N,08042.0556,W,1,8,1.8,14,M,,M,,*58
06/05/2014	07:06:53.577	$GPGGA,070654,2444.4175,N,08042.0581,W,1,8,1.8,14,M,,M,,*57
06/05/2014	07:06:54.530	$GPGGA,070655,2444.4162,N,08042.0605,W,1,8,1.8,14,M,,M,,*5F
06/05/2014	07:06:55.593	$GPGGA,070656,2444.4151,N,08042.0630,W,1,8,1.8,14,M,,M,,*5A
06/05/2014	07:06:56.645	$GPGGA,070657,2444.4137,N,08042.0655,W,1,8,1.8,14,M,,M,,*58
06/05/2014	07:06:57.558	$GPGGA,070658,2444.4124,N,08042.0679,W,1,8,1.8,14,M,,M,,*5B
06/05/2014	07:06:58.640	$GPGGA,070659,2444.4112,N,08042.0701,W,1,8,1.8,14,M,,M,,*51
06/05/2014	07:06:59.553	$GPGGA,070700,2444.4101,N,08042.0723,W,1,8,1.8,14,M,,M,,*5E
06/05/2014	07:07:00.656	$GPGGA,070701,2444.4091,N,08042.0744,W,1,8,1.8,14,M,,M,,*56
06/05/2014	07:07:01.558	$GPGGA,070702,2444.4079,N,08042.0766,W,1,8,1.8,14,M,,M,,*53
06/05/2014	07:07:02.531	$GPGGA,070703,2444.4068,N,08042.0788,W,1,8,1.8,14,M,,M,,*52
06/05/2014	07:07:03.573	$GPGGA,070704,2444.4057,N,08042.0813,W,1,8,1.8,14,M,,M,,*54
06/05/2014	07:07:04.656	$GPGGA,070705,2444.4045,N,08042.0835,W,1,8,1.8,14,M,,M,,*52
06/05/2014	07:07:05.538	$GPGGA,070706,2444.4032,N,08042.0860,W,1,8,1.8,14,M,,M,,*51
06/05/2014	07:07:06.621	$GPGGA,070707,2444.4021,N,08042.0883,W,1,8,1.8,13,M,,M,,*58
06/05/2014	07:07:07.573	$GPGGA,070708,2444.4010,N,08042.0907,W,1,8,1.8,13,M,,M,,*58
06/05/2014	07:07:08.635	$GPGGA,070709,2444.3998,N,08042.0932,W,1,8,1.8,13,M,,M,,*51
06/05/2014	07:07:09.538	$GPGGA,070710,2444.3986,N,08042.0954,W,1,8,1.8,13,M,,M,,*56
06/05/2014	07:07:10.610	$GPGGA,070711,2444.3976,N,08042.0977,W,1,8,1.8,13,M,,M,,*59
06/05/2014	07:07:11.603	$GPGGA,070712,2444.3967,N,08042.0999,W,1,8,1.8,13,M,,M,,*5A
06/05/2014	07:07:12.545	$GPGGA,070713,2444.3956,N,08042.1022,W,1,8,1.8,13,M,,M,,*51
06/05/2014	07:07:13.578	$GPGGA,070714,2444.3945,N,08042.1044,W,1,8,1.8,13,M,,M,,*54
06/05/2014	07:07:14.661	$GPGGA,070715,2444.3934,N,08042.1067,W,1,8,1.8,13,M,,M,,*52
06/05/2014	07:07:15.593	$GPGGA,070716,2444.3923,N,08042.1091,W,1,8,1.8,13,M,,M,,*5E
06/05/2014	07:07:16.636	$GPGGA,070717,2444.3911,N,08042.1116,W,1,8,1.8,13,M,,M,,*50
06/05/2014	07:07:17.538	$GPGGA,070718,2444.3899,N,08042.1142,W,1,8,1.8,13,M,,M,,*5F
06/05/2014	07:07:18.541	$GPGGA,070719,2444.3887,N,08042.1165,W,1,8,1.8,13,M,,M,,*54
06/05/2014	07:07:19.584	$GPGGA,070720,2444.3875,N,08042.1190,W,1,8,1.8,13,M,,M,,*59
06/05/2014	07:07:20.536	$GPGGA,070721,2444.3866,N,08042.1215,W,1,8,1.8,13,M,,M,,*54
06/05/2014	07:07:21.589	$GPGGA,070722,2444.3855,N,08042.1239,W,1,8,1.8,13,M,,M,,*59
06/05/2014	07:07:22.541	$GPGGA,070723,2444.3844,N,08042.1261,W,1,8,1.8,13,M,,M,,*55
06/05/2014	07:07:23.594	$GPGGA,070724,2444.3833,N,08042.1283,W,1,8,1.8,13,M,,M,,*5E
06/05/2014	07:07:24.686	$GPGGA,070725,2444.3822,N,08042.1305,W,1,8,1.8,13,M,,M,,*50
06/05/2014	07:07:25.669	$GPGGA,070726,2444.3811,N,08042.1329,W,1,8,1.8,13,M,,M,,*5D
06/05/2014	07:07:26.691	$GPGGA,070727,2444.3801,N,08042.1351,W,1,8,1.8,13,M,,M,,*52
06/05/2014	07:07:27.674	$GPGGA,070728,2444.3788,N,08042.1376,W,1,8,1.8,13,M,,M,,*56
06/05/2014	07:07:28.646	$GPGGA,070729,2444.3776,N,08042.1402,W,1,8,1.8,13,M,,M,,*52
06/05/2014	07:07:29.649	$GPGGA,070730,2444.3764,N,08042.1427,W,1,8,1.8,13,M,,M,,*5E
06/05/2014	07:07:30.651	$GPGGA,070731,2444.3754,N,08042.1452,W,1,8,1.8,13,M,,M,,*5E
06/05/2014	07:07:31.664	$GPGGA,070732,2444.3741,N,08042.1475,W,1,8,1.8,13,M,,M,,*5C
06/05/2014	07:07:32.502	$GPGGA,070733,2444.3730,N,08042.1499,W,1,8,1.8,13,M,,M,,*59
06/05/2014	07:07:33.504	$GPGGA,070734,2444.3719,N,08042.1519,W,1,8,1.8,13,M,,M,,*5C
06/05/2014	07:07:34.525	$GPGGA,070735,2444.3708,N,08042.1540,W,1,8,1.8,13,M,,M,,*51
06/05/2014	07:07:35.510	$GPGGA,070736,2444.3697,N,08042.1562,W,1,8,1.8,13,M,,M,,*55
06/05/2014	07:07:36.542	$GPGGA,070737,2444.3686,N,08042.1584,W,1,8,1.8,13,M,,M,,*5C
06/05/2014	07:07:37.495	$GPGGA,070738,2444.3674,N,08042.1608,W,1,8,1.8,13,M,,M,,*59
06/05/2014	07:07:38.507	$GPGGA,070739,2444.3663,N,08042.1633,W,1,8,1.8,13,M,,M,,*56
06/05/2014	07:07:39.510	$GPGGA,070740,2444.3651,N,08042.1659,W,1,8,1.8,13,M,,M,,*55
06/05/2014	07:07:40.532	$GPGGA,070741,2444.3639,N,08042.1684,W,1,8,1.8,13,M,,M,,*5A
06/05/2014	07:07:41.505	$GPGGA,070742,2444.3627,N,08042.1709,W,1,8,1.8,13,M,,M,,*52
06/05/2014	07:07:42.530	$GPGGA,070743,2444.3616,N,08042.1732,W,1,8,1.8,13,M,,M,,*59
06/05/2014	07:07:43.519	$GPGGA,070744,2444.3616,N,08042.1732,W,1,8,1.8,13,M,,M,,*5E
06/05/2014	07:07:44.533	$GPGGA,070745,2444.3595,N,08042.1775,W,1,8,1.8,13,M,,M,,*54
06/05/2014	07:07:45.504	$GPGGA,070746,2444.3584,N,08042.1797,W,1,8,1.8,13,M,,M,,*5B
06/05/2014	07:07:46.547	$GPGGA,070747,2444.3573,N,08042.1821,W,1,8,1.8,13,M,,M,,*50
06/05/2014	07:07:47.520	$GPGGA,070748,2444.3562,N,08042.1844,W,1,8,1.8,13,M,,M,,*5C
06/05/2014	07:07:48.557	$GPGGA,070749,2444.3549,N,08042.1869,W,1,8,1.8,13,M,,M,,*5B
06/05/2014	07:07:49.505	$GPGGA,070750,2444.3538,N,08042.1894,W,1,8,1.8,13,M,,M,,*57
06/05/2014	07:07:50.537	$GPGGA,070751,2444.3526,N,08042.1919,W,1,8,1.8,13,M,,M,,*5D
06/05/2014	07:07:51.530	$GPGGA,070752,2444.3514,N,08042.1944,W,1,8,1.8,13,M,,M,,*57
06/05/2014	07:07:52.533	$GPGGA,070753,2444.3514,N,08042.1944,W,1,8,1.8,13,M,,M,,*56
06/05/2014	07:07:53.515	$GPGGA,070754,2444.3502,N,08042.1969,W,1,8,1.8,13,M,,M,,*59
06/05/2014	07:07:54.548	$GPGGA,070755,2444.3481,N,08042.2012,W,1,8,1.8,13,M,,M,,*54
06/05/2014	07:07:55.540	$GPGGA,070756,2444.3472,N,08042.2035,W,1,8,1.8,13,M,,M,,*5E
06/05/2014	07:07:56.583	$GPGGA,070757,2444.3461,N,08042.2057,W,1,8,1.8,13,M,,M,,*59
06/05/2014	07:07:57.526	$GPGGA,070758,2444.3461,N,08042.2057,W,1,8,1.8,13,M,,M,,*56
06/05/2014	07:07:58.518	$GPGGA,070759,2444.3449,N,08042.2079,W,1,8,1.8,13,M,,M,,*51
06/05/2014	07:07:59.560	$GPGGA,070800,2444.3428,N,08042.2126,W,1,8,1.8,13,M,,M,,*5E
06/05/2014	07:08:00.574	$GPGGA,070801,2444.3428,N,08042.2126,W,1,8,1.8,13,M,,M,,*5F
06/05/2014	07:08:01.605	$GPGGA,070802,2444.3405,N,08042.2176,W,1,8,1.8,13,M,,M,,*56
06/05/2014	07:08:02.569	$GPGGA,070803,2444.3394,N,08042.2201,W,1,8,1.8,13,M,,M,,*5B
06/05/2014	07:08:03.540	$GPGGA,070804,2444.3382,N,08042.2226,W,1,8,1.8,13,M,,M,,*5E
06/05/2014	07:08:04.543	$GPGGA,070805,2444.3371,N,08042.2249,W,1,8,1.8,13,M,,M,,*5A
06/05/2014	07:08:05.525	$GPGGA,070806,2444.3361,N,08042.2272,W,1,8,1.8,13,M,,M,,*50
06/05/2014	07:08:06.638	$GPGGA,070807,2444.3351,N,08042.2294,W,1,8,1.8,13,M,,M,,*5A
06/05/2014	07:08:07.541	$GPGGA,070808,2444.3340,N,08042.2316,W,1,8,1.8,13,M,,M,,*5E
06/05/2014	07:08:08.523	$GPGGA,070809,2444.3340,N,08042.2316,W,1,8,1.8,13,M,,M,,*5F
06/05/2014	07:08:09.536	$GPGGA,070810,2444.3320,N,08042.2363,W,1,8,1.8,13,M,,M,,*53
06/05/2014	07:08:10.659	$GPGGA,070811,2444.3308,N,08042.2386,W,1,8,1.8,13,M,,M,,*53
06/05/2014	07:08:11.641	$GPGGA,070812,2444.3296,N,08042.2410,W,1,8,1.8,13,M,,M,,*5E
06/05/2014	07:08:12.644	$GPGGA,070813,2444.3296,N,08042.2410,W,1,8,1.8,13,M,,M,,*5F
06/05/2014	07:08:13.526	$GPGGA,070814,2444.3274,N,08042.2460,W,1,8,1.8,13,M,,M,,*53
06/05/2014	07:08:14.639	$GPGGA,070815,2444.3262,N,08042.2482,W,1,8,1.8,13,M,,M,,*59
06/05/2014	07:08:15.541	$GPGGA,070816,2444.3250,N,08042.2507,W,1,8,1.8,13,M,,M,,*57
06/05/2014	07:08:16.634	$GPGGA,070817,2444.3241,N,08042.2532,W,1,8,1.8,13,M,,M,,*50
06/05/2014	07:08:17.628	$GPGGA,070818,2444.3228,N,08042.2554,W,1,8,1.8,13,M,,M,,*50
06/05/2014	07:08:18.628	$GPGGA,070819,2444.3217,N,08042.2576,W,1,8,1.8,13,M,,M,,*5D
06/05/2014	07:08:19.541	$GPGGA,070820,2444.3208,N,08042.2598,W,1,8,1.8,13,M,,M,,*59
06/05/2014	07:08:20.624	$GPGGA,070821,2444.3198,N,08042.2620,W,1,8,1.8,13,M,,M,,*52
06/05/2014	07:08:21.627	$GPGGA,070822,2444.3186,N,08042.2644,W,1,8,1.8,13,M,,M,,*5C
06/05/2014	07:08:22.649	$GPGGA,070823,2444.3176,N,08042.2667,W,1,8,1.8,13,M,,M,,*53
06/05/2014	07:08:23.641	$GPGGA,070824,2444.3165,N,08042.2691,W,1,8,1.8,13,M,,M,,*5F
06/05/2014	07:08:24.644	$GPGGA,070825,2444.3154,N,08042.2715,W,1,8,1.8,13,M,,M,,*51
06/05/2014	07:08:25.637	$GPGGA,070826,2444.3143,N,08042.2739,W,1,8,1.8,13,M,,M,,*5A
06/05/2014	07:08:26.641	$GPGGA,070827,2444.3130,N,08042.2764,W,1,8,1.8,13,M,,M,,*57
06/05/2014	07:08:27.642	$GPGGA,070828,2444.3118,N,08042.2786,W,1,8,1.8,13,M,,M,,*5E
06/05/2014	07:08:28.654	$GPGGA,070829,2444.3107,N,08042.2811,W,1,8,1.8,13,M,,M,,*50
06/05/2014	07:08:29.627	$GPGGA,070830,2444.3096,N,08042.2834,W,1,8,1.8,13,M,,M,,*56
06/05/2014	07:08:30.650	$GPGGA,070831,2444.3082,N,08042.2857,W,1,8,1.8,13,M,,M,,*57
06/05/2014	07:08:31.642	$GPGGA,070832,2444.3071,N,08042.2879,W,1,8,1.8,13,M,,M,,*54
06/05/2014	07:08:32.491	$GPGGA,070833,2444.3060,N,08042.2902,W,1,8,1.8,13,M,,M,,*58
06/05/2014	07:08:33.473	$GPGGA,070834,2444.3049,N,08042.2926,W,1,8,1.8,13,M,,M,,*52
06/05/2014	07:08:34.505	$GPGGA,070835,2444.3035,N,08042.2948,W,1,8,1.8,13,M,,M,,*50
06/05/2014	07:08:35.487	$GPGGA,070836,2444.3024,N,08042.2971,W,1,8,1.8,13,M,,M,,*59
06/05/2014	07:08:36.490	$GPGGA,070837,2444.3013,N,08042.2995,W,1,8,1.8,13,M,,M,,*56
06/05/2014	07:08:37.483	$GPGGA,070838,2444.3000,N,08042.3018,W,1,8,1.8,13,M,,M,,*56
06/05/2014	07:08:38.505	$GPGGA,070839,2444.2988,N,08042.3040,W,1,8,1.8,13,M,,M,,*52
06/05/2014	07:08:39.488	$GPGGA,070840,2444.2977,N,08042.3064,W,1,8,1.8,13,M,,M,,*5A
06/05/2014	07:08:40.480	$GPGGA,070841,2444.2966,N,08042.3086,W,1,8,1.8,13,M,,M,,*57
06/05/2014	07:08:41.483	$GPGGA,070842,2444.2953,N,08042.3110,W,1,8,1.8,13,M,,M,,*5C
06/05/2014	07:08:42.506	$GPGGA,070843,2444.2941,N,08042.3132,W,1,8,1.8,13,M,,M,,*5E
06/05/2014	07:08:43.498	$GPGGA,070844,2444.2930,N,08042.3157,W,1,8,1.8,13,M,,M,,*5C
06/05/2014	07:08:44.481	$GPGGA,070845,2444.2919,N,08042.3180,W,1,8,1.8,13,M,,M,,*5C
06/05/2014	07:08:45.493	$GPGGA,070846,2444.2906,N,08042.3204,W,1,8,1.8,13,M,,M,,*5E
06/05/2014	07:08:46.506	$GPGGA,070847,2444.2895,N,08042.3228,W,1,8,1.8,13,M,,M,,*5A
06/05/2014	07:08:47.489	$GPGGA,070848,2444.2884,N,08042.3251,W,1,8,1.8,13,M,,M,,*5B
06/05/2014	07:08:48.501	$GPGGA,070849,2444.2873,N,08042.3273,W,1,8,1.8,13,M,,M,,*52
06/05/2014	07:08:49.474	$GPGGA,070850,2444.2861,N,08042.3296,W,1,8,1.8,13,M,,M,,*52
06/05/2014	07:08:50.486	$GPGGA,070851,2444.2850,N,08042.3320,W,1,8,1.8,13,M,,M,,*5D
06/05/2014	07:08:51.609	$GPGGA,070852,2444.2840,N,08042.3342,W,1,8,1.8,13,M,,M,,*5B
06/05/2014	07:08:52.480	$GPGGA,070853,2444.2829,N,08042.3367,W,1,8,1.8,13,M,,M,,*52
06/05/2014	07:08:53.483	$GPGGA,070854,2444.2818,N,08042.3390,W,1,8,1.8,13,M,,M,,*5F
06/05/2014	07:08:54.616	$GPGGA,070855,2444.2807,N,08042.3415,W,1,8,1.8,13,M,,M,,*5A
06/05/2014	07:08:55.498	$GPGGA,070856,2444.2796,N,08042.3439,W,1,8,1.8,13,M,,M,,*50
06/05/2014	07:08:56.501	$GPGGA,070857,2444.2786,N,08042.3464,W,1,8,1.8,13,M,,M,,*58
06/05/2014	07:08:57.584	$GPGGA,070858,2444.2775,N,08042.3487,W,1,8,1.8,13,M,,M,,*56
06/05/2014	07:08:58.496	$GPGGA,070859,2444.2764,N,08042.3511,W,1,8,1.8,13,M,,M,,*59
06/05/2014	07:08:59.629	$GPGGA,070900,2444.2754,N,08042.3534,W,1,8,1.8,13,M,,M,,*50
06/05/2014	07:09:00.501	$GPGGA,070901,2444.2743,N,08042.3558,W,1,8,1.8,13,M,,M,,*5D
06/05/2014	07:09:01.504	$GPGGA,070902,2444.2733,N,08042.3582,W,1,8,1.8,13,M,,M,,*5E
06/05/2014	07:09:02.506	$GPGGA,070903,2444.2724,N,08042.3606,W,1,8,1.8,13,M,,M,,*56
06/05/2014	07:09:03.489	$GPGGA,070904,2444.2712,N,08042.3631,W,1,8,1.8,13,M,,M,,*50
06/05/2014	07:09:04.612	$GPGGA,070905,2444.2701,N,08042.3654,W,1,8,1.8,13,M,,M,,*50
06/05/2014	07:09:05.594	$GPGGA,070906,2444.2692,N,08042.3678,W,1,8,1.8,13,M,,M,,*56
06/05/2014	07:09:06.590	$GPGGA,070907,2444.2683,N,08042.3701,W,1,8,1.8,13,M,,M,,*58
06/05/2014	07:09:07.610	$GPGGA,070908,2444.2671,N,08042.3725,W,1,8,1.8,13,M,,M,,*5C
06/05/2014	07:09:08.598	$GPGGA,070909,2444.2661,N,08042.3750,W,1,8,1.8,13,M,,M,,*5E
06/05/2014	07:09:09.584	$GPGGA,070910,2444.2652,N,08042.3773,W,1,8,1.8,13,M,,M,,*57
06/05/2014	07:09:10.596	$GPGGA,070911,2444.2641,N,08042.3797,W,1,8,1.8,13,M,,M,,*5E
06/05/2014	07:09:11.609	$GPGGA,070912,2444.2630,N,08042.3822,W,1,8,1.8,13,M,,M,,*5A
06/05/2014	07:09:12.602	$GPGGA,070913,2444.2618,N,08042.3845,W,1,8,1.8,13,M,,M,,*50
06/05/2014	07:09:13.594	$GPGGA,070914,2444.2607,N,08042.3869,W,1,8,1.8,13,M,,M,,*57
06/05/2014	07:09:14.617	$GPGGA,070915,2444.2596,N,08042.3894,W,1,8,1.8,13,M,,M,,*5F
06/05/2014	07:09:15.609	$GPGGA,070916,2444.2585,N,08042.3916,W,1,8,1.8,13,M,,M,,*55
06/05/2014	07:09:16.612	$GPGGA,070917,2444.2576,N,08042.3938,W,1,8,1.8,13,M,,M,,*54
06/05/2014	07:09:17.615	$GPGGA,070918,2444.2565,N,08042.3960,W,1,8,1.8,13,M,,M,,*54
06/05/2014	07:09:18.621	$GPGGA,070919,2444.2555,N,08042.3985,W,1,8,1.8,13,M,,M,,*5D
06/05/2014	07:09:19.610	$GPGGA,070920,2444.2543,N,08042.4007,W,1,8,1.8,13,M,,M,,*54
06/05/2014	07:09:20.622	$GPGGA,070921,2444.2531,N,08042.4032,W,1,8,1.8,13,M,,M,,*56
06/05/2014	07:09:21.605	$GPGGA,070922,2444.2520,N,08042.4057,W,1,8,1.8,13,M,,M,,*56
06/05/2014	07:09:22.638	$GPGGA,070923,2444.2508,N,08042.4082,W,1,8,1.9,13,M,,M,,*54
06/05/2014	07:09:23.611	$GPGGA,070924,2444.2495,N,08042.4105,W,1,8,1.9,13,M,,M,,*58
06/05/2014	07:09:24.633	$GPGGA,070925,2444.2483,N,08042.4130,W,1,8,1.9,13,M,,M,,*58
06/05/2014	07:09:25.595	$GPGGA,070926,2444.2472,N,08042.4152,W,1,8,1.9,13,M,,M,,*51
06/05/2014	07:09:26.630	$GPGGA,070927,2444.2460,N,08042.4176,W,1,8,1.9,13,M,,M,,*55
06/05/2014	07:09:27.680	$GPGGA,070928,2444.2447,N,08042.4198,W,1,8,1.9,13,M,,M,,*5F
06/05/2014	07:09:28.632	$GPGGA,070929,2444.2436,N,08042.4220,W,1,8,1.9,13,M,,M,,*58
06/05/2014	07:09:29.615	$GPGGA,070930,2444.2424,N,08042.4242,W,1,8,1.9,13,M,,M,,*57
06/05/2014	07:09:30.637	$GPGGA,070931,2444.2411,N,08042.4267,W,1,8,1.9,13,M,,M,,*57
06/05/2014	07:09:31.631	$GPGGA,070932,2444.2399,N,08042.4289,W,1,8,1.9,13,M,,M,,*53
06/05/2014	07:09:32.447	$GPGGA,070933,2444.2386,N,08042.4313,W,1,8,1.9,13,M,,M,,*5E
06/05/2014	07:09:33.460	$GPGGA,070934,2444.2374,N,08042.4335,W,1,8,1.9,13,M,,M,,*50
06/05/2014	07:09:34.483	$GPGGA,070935,2444.2363,N,08042.4360,W,1,8,1.9,13,M,,M,,*57
06/05/2014	07:09:35.476	$GPGGA,070936,2444.2349,N,08042.4382,W,1,8,1.9,13,M,,M,,*50
06/05/2014	07:09:36.468	$GPGGA,070937,2444.2337,N,08042.4404,W,1,8,1.9,13,M,,M,,*51
06/05/2014	07:09:37.460	$GPGGA,070938,2444.2325,N,08042.4426,W,1,8,1.9,13,M,,M,,*5D
06/05/2014	07:09:38.483	$GPGGA,070939,2444.2313,N,08042.4449,W,1,8,1.9,13,M,,M,,*50
06/05/2014	07:09:39.466	$GPGGA,070940,2444.2301,N,08042.4472,W,1,8,1.9,13,M,,M,,*55
06/05/2014	07:09:40.468	$GPGGA,070941,2444.2290,N,08042.4495,W,1,8,1.9,13,M,,M,,*54
06/05/2014	07:09:41.451	$GPGGA,070942,2444.2278,N,08042.4519,W,1,8,1.9,13,M,,M,,*54
06/05/2014	07:09:42.453	$GPGGA,070943,2444.2265,N,08042.4541,W,1,8,1.9,13,M,,M,,*54
06/05/2014	07:09:43.466	$GPGGA,070944,2444.2254,N,08042.4564,W,1,8,1.9,13,M,,M,,*56
06/05/2014	07:09:44.448	$GPGGA,070945,2444.2243,N,08042.4588,W,1,8,1.9,13,M,,M,,*53
06/05/2014	07:09:45.460	$GPGGA,070946,2444.2230,N,08042.4613,W,1,8,1.9,13,M,,M,,*55
06/05/2014	07:09:46.583	$GPGGA,070947,2444.2218,N,08042.4635,W,1,8,1.9,13,M,,M,,*5A
06/05/2014	07:09:47.475	$GPGGA,070948,2444.2207,N,08042.4658,W,1,8,1.9,13,M,,M,,*50
06/05/2014	07:09:48.458	$GPGGA,070949,2444.2195,N,08042.4682,W,1,8,1.9,13,M,,M,,*5E
06/05/2014	07:09:49.551	$GPGGA,070950,2444.2184,N,08042.4704,W,1,8,1.9,13,M,,M,,*59
06/05/2014	07:09:50.463	$GPGGA,070951,2444.2172,N,08042.4727,W,1,8,1.9,13,M,,M,,*50
06/05/2014	07:09:51.586	$GPGGA,070952,2444.2160,N,08042.4749,W,1,8,1.9,13,M,,M,,*58
06/05/2014	07:09:52.478	$GPGGA,070953,2444.2150,N,08042.4772,W,1,8,1.9,13,M,,M,,*52
06/05/2014	07:09:53.561	$GPGGA,070954,2444.2139,N,08042.4794,W,1,8,1.9,13,M,,M,,*52
06/05/2014	07:09:54.564	$GPGGA,070955,2444.2126,N,08042.4817,W,1,8,1.9,13,M,,M,,*59
06/05/2014	07:09:55.587	$GPGGA,070956,2444.2117,N,08042.4841,W,1,8,1.9,13,M,,M,,*5B
06/05/2014	07:09:56.569	$GPGGA,070957,2444.2105,N,08042.4864,W,1,8,1.9,13,M,,M,,*5E
06/05/2014	07:09:57.562	$GPGGA,070958,2444.2093,N,08042.4888,W,1,8,1.9,13,M,,M,,*5D
06/05/2014	07:09:58.554	$GPGGA,070959,2444.2085,N,08042.4911,W,1,8,1.9,13,M,,M,,*5A
06/05/2014	07:09:59.587	$GPGGA,071000,2444.2074,N,08042.4935,W,1,8,1.9,13,M,,M,,*56
06/05/2014	07:10:00.579	$GPGGA,071001,2444.2063,N,08042.4957,W,1,8,1.9,13,M,,M,,*55
06/05/2014	07:10:01.562	$GPGGA,071002,2444.2053,N,08042.4980,W,1,8,1.9,13,M,,M,,*5F
06/05/2014	07:10:02.564	$GPGGA,071003,2444.2041,N,08042.5004,W,1,8,1.9,13,M,,M,,*59
06/05/2014	07:10:03.576	$GPGGA,071004,2444.2031,N,08042.5029,W,1,8,1.9,13,M,,M,,*56
06/05/2014	07:10:04.579	$GPGGA,071005,2444.2020,N,08042.5054,W,1,8,1.9,13,M,,M,,*5D
06/05/2014	07:10:05.561	$GPGGA,071006,2444.2010,N,08042.5077,W,1,8,1.9,13,M,,M,,*5C
06/05/2014	07:10:06.584	$GPGGA,071007,2444.2000,N,08042.5101,W,1,8,1.9,13,M,,M,,*5C
06/05/2014	07:10:07.577	$GPGGA,071008,2444.1989,N,08042.5124,W,1,8,1.9,13,M,,M,,*5F
06/05/2014	07:10:08.589	$GPGGA,071009,2444.1980,N,08042.5148,W,1,8,1.9,13,M,,M,,*5D
06/05/2014	07:10:09.572	$GPGGA,071010,2444.1970,N,08042.5173,W,1,8,1.9,13,M,,M,,*52
06/05/2014	07:10:10.584	$GPGGA,071011,2444.1960,N,08042.5195,W,1,8,1.9,13,M,,M,,*5A
06/05/2014	07:10:11.577	$GPGGA,071012,2444.1949,N,08042.5218,W,1,8,1.9,13,M,,M,,*54
06/05/2014	07:10:12.590	$GPGGA,071013,2444.1940,N,08042.5242,W,1,8,1.9,13,M,,M,,*53
06/05/2014	07:10:13.562	$GPGGA,071014,2444.1929,N,08042.5265,W,1,8,1.9,13,M,,M,,*5E
06/05/2014	07:10:14.595	$GPGGA,071015,2444.1919,N,08042.5289,W,1,8,1.9,13,M,,M,,*5E
06/05/2014	07:10:15.577	$GPGGA,071016,2444.1908,N,08042.5314,W,1,8,1.9,13,M,,M,,*58
06/05/2014	07:10:16.600	$GPGGA,071017,2444.1898,N,08042.5336,W,1,8,1.9,13,M,,M,,*51
06/05/2014	07:10:17.584	$GPGGA,071018,2444.1887,N,08042.5361,W,1,8,1.9,13,M,,M,,*52
06/05/2014	07:10:18.605	$GPGGA,071019,2444.1876,N,08042.5383,W,1,8,1.9,13,M,,M,,*51
06/05/2014	07:10:19.587	$GPGGA,071020,2444.1866,N,08042.5408,W,1,8,1.9,13,M,,M,,*5E
06/05/2014	07:10:20.599	$GPGGA,071021,2444.1855,N,08042.5433,W,1,8,1.9,13,M,,M,,*57
06/05/2014	07:10:21.562	$GPGGA,071022,2444.1844,N,08042.5456,W,1,8,1.9,13,M,,M,,*57
06/05/2014	07:10:22.605	$GPGGA,071023,2444.1833,N,08042.5480,W,1,8,1.9,13,M,,M,,*5D
06/05/2014	07:10:23.577	$GPGGA,071024,2444.1822,N,08042.5504,W,1,8,1.9,13,M,,M,,*57
06/05/2014	07:10:24.570	$GPGGA,071025,2444.1811,N,08042.5527,W,1,8,1.9,13,M,,M,,*57
06/05/2014	07:10:25.582	$GPGGA,071026,2444.1800,N,08042.5549,W,1,8,1.9,13,M,,M,,*5C
06/05/2014	07:10:26.575	$GPGGA,071027,2444.1789,N,08042.5572,W,1,8,1.9,13,M,,M,,*5B
06/05/2014	07:10:27.708	$GPGGA,071028,2444.1779,N,08042.5596,W,1,8,1.9,13,M,,M,,*51
06/05/2014	07:10:28.590	$GPGGA,071029,2444.1767,N,08042.5621,W,1,8,1.9,13,M,,M,,*50
06/05/2014	07:10:29.573	$GPGGA,071030,2444.1754,N,08042.5644,W,1,8,1.9,13,M,,M,,*5B
06/05/2014	07:10:30.696	$GPGGA,071031,2444.1743,N,08042.5669,W,1,8,1.9,13,M,,M,,*53
06/05/2014	07:10:31.598	$GPGGA,071032,2444.1731,N,08042.5694,W,1,8,1.9,13,M,,M,,*57
06/05/2014	07:10:32.425	$GPGGA,071033,2444.1720,N,08042.5716,W,1,8,1.9,14,M,,M,,*5A
06/05/2014	07:10:33.418	$GPGGA,071034,2444.1709,N,08042.5738,W,1,8,1.9,14,M,,M,,*5A
06/05/2014	07:10:34.541	$GPGGA,071035,2444.1696,N,08042.5760,W,1,8,1.9,14,M,,M,,*51
06/05/2014	07:10:35.554	$GPGGA,071036,2444.1686,N,08042.5784,W,1,8,1.9,14,M,,M,,*59
06/05/2014	07:10:36.446	$GPGGA,071037,2444.1674,N,08042.5806,W,1,8,1.9,14,M,,M,,*50
06/05/2014	07:10:37.437	$GPGGA,071038,2444.1662,N,08042.5828,W,1,8,1.9,14,M,,M,,*54
06/05/2014	07:10:38.550	$GPGGA,071039,2444.1651,N,08042.5853,W,1,8,1.9,14,M,,M,,*59
06/05/2014	07:10:39.453	$GPGGA,071040,2444.1640,N,08042.5876,W,1,8,1.9,14,M,,M,,*50
06/05/2014	07:10:40.435	$GPGGA,071041,2444.1627,N,08042.5900,W,1,8,1.9,14,M,,M,,*50
06/05/2014	07:10:41.538	$GPGGA,071042,2444.1615,N,08042.5923,W,1,8,1.9,14,M,,M,,*53
06/05/2014	07:10:42.529	$GPGGA,071043,2444.1604,N,08042.5947,W,1,8,1.9,14,M,,M,,*50
06/05/2014	07:10:43.534	$GPGGA,071044,2444.1591,N,08042.5972,W,1,8,1.9,14,M,,M,,*5E
06/05/2014	07:10:44.556	$GPGGA,071045,2444.1579,N,08042.5994,W,1,8,1.9,14,M,,M,,*51
06/05/2014	07:10:45.528	$GPGGA,071046,2444.1568,N,08042.6019,W,1,8,1.9,14,M,,M,,*5D
06/05/2014	07:10:46.541	$GPGGA,071047,2444.1557,N,08042.6042,W,1,8,1.9,14,M,,M,,*5E
06/05/2014	07:10:47.535	$GPGGA,071048,2444.1544,N,08042.6064,W,1,8,1.9,14,M,,M,,*57
06/05/2014	07:10:48.536	$GPGGA,071049,2444.1533,N,08042.6087,W,1,8,1.9,14,M,,M,,*5B
06/05/2014	07:10:49.539	$GPGGA,071050,2444.1522,N,08042.6111,W,1,8,1.9,14,M,,M,,*5D
06/05/2014	07:10:50.561	$GPGGA,071051,2444.1510,N,08042.6134,W,1,8,1.9,14,M,,M,,*5A
06/05/2014	07:10:51.544	$GPGGA,071052,2444.1499,N,08042.6158,W,1,8,1.9,14,M,,M,,*53
06/05/2014	07:10:52.557	$GPGGA,071053,2444.1488,N,08042.6183,W,1,8,1.9,14,M,,M,,*54
06/05/2014	07:10:53.529	$GPGGA,071054,2444.1478,N,08042.6207,W,1,8,1.9,14,M,,M,,*53
06/05/2014	07:10:54.561	$GPGGA,071055,2444.1465,N,08042.6232,W,1,8,1.9,14,M,,M,,*58
06/05/2014	07:10:55.553	$GPGGA,071056,2444.1454,N,08042.6255,W,1,8,1.9,14,M,,M,,*58
06/05/2014	07:10:56.526	$GPGGA,071057,2444.1445,N,08042.6279,W,1,8,1.9,14,M,,M,,*57
06/05/2014	07:10:57.539	$GPGGA,071058,2444.1433,N,08042.6304,W,1,8,1.9,14,M,,M,,*52
06/05/2014	07:10:58.551	$GPGGA,071059,2444.1422,N,08042.6326,W,1,8,1.9,14,M,,M,,*53
06/05/2014	07:10:59.564	$GPGGA,071100,2444.1411,N,08042.6349,W,1,8,1.9,14,M,,M,,*57
06/05/2014	07:11:00.556	$GPGGA,071101,2444.1402,N,08042.6371,W,1,8,1.9,14,M,,M,,*5F
06/05/2014	07:11:01.539	$GPGGA,071102,2444.1391,N,08042.6395,W,1,8,1.9,14,M,,M,,*5B
06/05/2014	07:11:02.943	$GPGGA,071103,2444.1380,N,08042.6417,W,1,8,1.9,14,M,,M,,*57
06/05/2014	07:11:03.544	$GPGGA,071104,2444.1370,N,08042.6441,W,1,8,1.9,14,M,,M,,*5C
06/05/2014	07:11:04.567	$GPGGA,071105,2444.1358,N,08042.6464,W,1,8,1.9,14,M,,M,,*50
06/05/2014	07:11:05.529	$GPGGA,071106,2444.1348,N,08042.6488,W,1,8,1.9,14,M,,M,,*50
06/05/2014	07:11:06.562	$GPGGA,071107,2444.1337,N,08042.6514,W,1,8,1.9,14,M,,M,,*5D
06/05/2014	07:11:07.545	$GPGGA,071108,2444.1326,N,08042.6537,W,1,8,1.9,14,M,,M,,*53
06/05/2014	07:11:08.537	$GPGGA,071109,2444.1313,N,08042.6562,W,1,8,1.9,14,M,,M,,*54
06/05/2014	07:11:09.552	$GPGGA,071110,2444.1302,N,08042.6586,W,1,8,1.9,14,M,,M,,*56
06/05/2014	07:11:10.572	$GPGGA,071111,2444.1292,N,08042.6611,W,1,8,1.9,14,M,,M,,*52
06/05/2014	07:11:11.545	$GPGGA,071112,2444.1280,N,08042.6633,W,1,8,1.9,14,M,,M,,*52
06/05/2014	07:11:12.546	$GPGGA,071113,2444.1270,N,08042.6655,W,1,8,1.9,14,M,,M,,*5C
06/05/2014	07:11:13.559	$GPGGA,071114,2444.1261,N,08042.6680,W,1,8,1.9,14,M,,M,,*53
06/05/2014	07:11:14.562	$GPGGA,071115,2444.1248,N,08042.6702,W,1,8,1.9,14,M,,M,,*52
06/05/2014	07:11:15.564	$GPGGA,071116,2444.1237,N,08042.6725,W,1,8,1.9,14,M,,M,,*5C
06/05/2014	07:11:16.547	$GPGGA,071117,2444.1226,N,08042.6749,W,1,8,1.9,14,M,,M,,*57
06/05/2014	07:11:17.660	$GPGGA,071118,2444.1215,N,08042.6774,W,1,8,1.9,14,M,,M,,*56
06/05/2014	07:11:18.543	$GPGGA,071119,2444.1203,N,08042.6799,W,1,8,1.9,14,M,,M,,*53
06/05/2014	07:11:19.565	$GPGGA,071120,2444.1191,N,08042.6824,W,1,8,1.9,14,M,,M,,*58
06/05/2014	07:11:20.557	$GPGGA,071121,2444.1180,N,08042.6847,W,1,8,1.9,14,M,,M,,*5C
06/05/2014	07:11:21.550	$GPGGA,071122,2444.1168,N,08042.6871,W,1,8,1.9,14,M,,M,,*5C
06/05/2014	07:11:22.664	$GPGGA,071123,2444.1157,N,08042.6893,W,1,8,1.9,14,M,,M,,*5D
06/05/2014	07:11:23.565	$GPGGA,071124,2444.1147,N,08042.6915,W,1,8,1.9,14,M,,M,,*54
06/05/2014	07:11:24.568	$GPGGA,071125,2444.1136,N,08042.6937,W,1,8,1.9,14,M,,M,,*53
06/05/2014	07:11:25.540	$GPGGA,071126,2444.1125,N,08042.6960,W,1,8,1.9,14,M,,M,,*50
06/05/2014	07:11:26.683	$GPGGA,071127,2444.1113,N,08042.6983,W,1,8,1.9,14,M,,M,,*59
06/05/2014	07:11:27.575	$GPGGA,071128,2444.1102,N,08042.7006,W,1,8,1.9,14,M,,M,,*53
06/05/2014	07:11:28.558	$GPGGA,071129,2444.1091,N,08042.7031,W,1,8,1.9,14,M,,M,,*5D
06/05/2014	07:11:29.650	$GPGGA,071130,2444.1078,N,08042.7056,W,1,8,1.9,14,M,,M,,*53
06/05/2014	07:11:30.552	$GPGGA,071131,2444.1066,N,08042.7079,W,1,8,1.9,14,M,,M,,*50
06/05/2014	07:11:31.685	$GPGGA,071132,2444.1055,N,08042.7103,W,1,8,1.9,14,M,,M,,*5F
06/05/2014	07:11:32.524	$GPGGA,071133,2444.1044,N,08042.7126,W,1,8,1.9,14,M,,M,,*59
06/05/2014	07:11:33.496	$GPGGA,071134,2444.1032,N,08042.7149,W,1,8,1.9,14,M,,M,,*56
06/05/2014	07:11:34.529	$GPGGA,071135,2444.1021,N,08042.7171,W,1,8,1.9,14,M,,M,,*5E
06/05/2014	07:11:35.542	$GPGGA,071136,2444.1010,N,08042.7194,W,1,8,1.9,14,M,,M,,*54
06/05/2014	07:11:36.494	$GPGGA,071137,2444.0999,N,08042.7218,W,1,8,1.9,14,M,,M,,*5B
06/05/2014	07:11:37.507	$GPGGA,071138,2444.0987,N,08042.7240,W,1,8,1.9,14,M,,M,,*56
06/05/2014	07:11:38.529	$GPGGA,071139,2444.0975,N,08042.7265,W,1,8,1.9,14,M,,M,,*5D
06/05/2014	07:11:39.522	$GPGGA,071140,2444.0965,N,08042.7287,W,1,8,1.9,14,M,,M,,*5E
06/05/2014	07:11:40.524	$GPGGA,071141,2444.0954,N,08042.7310,W,1,8,1.9,14,M,,M,,*52
06/05/2014	07:11:41.507	$GPGGA,071142,2444.0941,N,08042.7334,W,1,8,1.9,14,M,,M,,*53
06/05/2014	07:11:42.540	$GPGGA,071143,2444.0932,N,08042.7357,W,1,8,1.9,14,M,,M,,*53
06/05/2014	07:11:43.512	$GPGGA,071144,2444.0919,N,08042.7381,W,1,8,1.9,14,M,,M,,*56
06/05/2014	07:11:44.535	$GPGGA,071145,2444.0908,N,08042.7403,W,1,8,1.9,14,M,,M,,*5A
06/05/2014	07:11:45.528	$GPGGA,071146,2444.0897,N,08042.7428,W,1,8,1.9,14,M,,M,,*57
06/05/2014	07:11:46.529	$GPGGA,071147,2444.0886,N,08042.7450,W,1,8,1.9,14,M,,M,,*59
06/05/2014	07:11:47.522	$GPGGA,071148,2444.0875,N,08042.7473,W,1,8,1.9,14,M,,M,,*5B
06/05/2014	07:11:48.534	$GPGGA,071149,2444.0865,N,08042.7496,W,1,8,1.9,14,M,,M,,*50
