Software Version Number: 1	Data File Format Number: 1	Build Version Number: 1	Error Count Since VI Started: 0	Manufacturer: Raytheon	 Model Number: RayMarine 120	 S/N: 	 Cal Date: 	 Wind Direction Offset: 0.00	 Slope (M)1: 0.00	 Offset (B)1: 0.00	 Slope (M)2: 0.00	 Offset (B)2: 0.00	 Slope (M)3: 0.00	 Offset (B)3: 0.00	 Slope (M)4: 0.00	 Offset (B)4: 0.00	 Slope (M)5: 0.00	 Offset (B)5: 0.00	 Slope (M)6: 0.00	 Offset (B)6: 0.00
Computer Date	Computer Time	GGA String
05/31/2014	02:00:00.591	$GPGGA,020001,2535.8286,N,07937.6210,W,1,8,1.6,22,M,,M,,*56
05/31/2014	02:00:01.581	$GPGGA,020002,2535.8293,N,07937.6211,W,1,8,1.5,22,M,,M,,*53
05/31/2014	02:00:02.591	$GPGGA,020003,2535.8300,N,07937.6212,W,1,9,1.5,22,M,,M,,*5B
05/31/2014	02:00:03.531	$GPGGA,020004,2535.8307,N,07937.6214,W,1,9,1.5,22,M,,M,,*5D
05/31/2014	02:00:04.521	$GPGGA,020005,2535.8315,N,07937.6215,W,1,9,1.5,22,M,,M,,*5E
05/31/2014	02:00:05.581	$GPGGA,020006,2535.8322,N,07937.6217,W,1,9,1.6,22,M,,M,,*58
05/31/2014	02:00:06.521	$GPGGA,020007,2535.8328,N,07937.6219,W,1,8,1.6,22,M,,M,,*5C
05/31/2014	02:00:07.611	$GPGGA,020008,2535.8333,N,07937.6221,W,1,8,1.6,22,M,,M,,*52
05/31/2014	02:00:08.511	$GPGGA,020009,2535.8340,N,07937.6222,W,1,9,1.5,22,M,,M,,*56
05/31/2014	02:00:09.591	$GPGGA,020010,2535.8347,N,07937.6222,W,1,9,1.5,22,M,,M,,*59
05/31/2014	02:00:10.511	$GPGGA,020011,2535.8354,N,07937.6223,W,1,9,1.5,22,M,,M,,*5B
05/31/2014	02:00:11.521	$GPGGA,020012,2535.8361,N,07937.6225,W,1,9,1.5,22,M,,M,,*58
05/31/2014	02:00:12.600	$GPGGA,020013,2535.8368,N,07937.6226,W,1,9,1.6,22,M,,M,,*50
05/31/2014	02:00:13.510	$GPGGA,020014,2535.8375,N,07937.6228,W,1,9,1.6,22,M,,M,,*55
05/31/2014	02:00:14.550	$GPGGA,020015,2535.8380,N,07937.6230,W,1,9,1.6,22,M,,M,,*57
05/31/2014	02:00:15.520	$GPGGA,020016,2535.8387,N,07937.6235,W,1,9,1.6,22,M,,M,,*56
05/31/2014	02:00:16.550	$GPGGA,020017,2535.8394,N,07937.6234,W,1,9,1.5,22,M,,M,,*57
05/31/2014	02:00:17.501	$GPGGA,020018,2535.8401,N,07937.6236,W,1,9,1.6,22,M,,M,,*52
05/31/2014	02:00:18.621	$GPGGA,020019,2535.8408,N,07937.6237,W,1,8,1.5,21,M,,M,,*5A
05/31/2014	02:00:19.561	$GPGGA,020020,2535.8415,N,07937.6239,W,1,8,1.6,21,M,,M,,*51
05/31/2014	02:00:20.541	$GPGGA,020021,2535.8422,N,07937.6240,W,1,8,1.6,21,M,,M,,*5A
05/31/2014	02:00:21.541	$GPGGA,020022,2535.8427,N,07937.6243,W,1,8,1.6,21,M,,M,,*5F
05/31/2014	02:00:22.591	$GPGGA,020023,2535.8434,N,07937.6242,W,1,8,1.5,21,M,,M,,*5E
05/31/2014	02:00:23.621	$GPGGA,020024,2535.8441,N,07937.6243,W,1,8,1.6,21,M,,M,,*59
05/31/2014	02:00:24.601	$GPGGA,020025,2535.8448,N,07937.6246,W,1,8,1.6,21,M,,M,,*54
05/31/2014	02:00:25.551	$GPGGA,020026,2535.8455,N,07937.6248,W,1,8,1.6,21,M,,M,,*55
05/31/2014	02:00:26.534	$GPGGA,020027,2535.8461,N,07937.6250,W,1,8,1.6,21,M,,M,,*5A
05/31/2014	02:00:27.551	$GPGGA,020028,2535.8467,N,07937.6251,W,1,8,1.6,21,M,,M,,*52
05/31/2014	02:00:28.571	$GPGGA,020029,2535.8474,N,07937.6254,W,1,8,1.6,21,M,,M,,*54
05/31/2014	02:00:29.471	$GPGGA,020030,2535.8481,N,07937.6255,W,1,8,1.6,21,M,,M,,*57
05/31/2014	02:00:30.540	$GPGGA,020031,2535.8488,N,07937.6257,W,1,8,1.6,21,M,,M,,*5D
05/31/2014	02:00:31.580	$GPGGA,020032,2535.8495,N,07937.6258,W,1,8,1.6,20,M,,M,,*5C
05/31/2014	02:00:32.600	$GPGGA,020033,2535.8502,N,07937.6261,W,1,8,1.6,20,M,,M,,*58
05/31/2014	02:00:33.533	$GPGGA,020034,2535.8509,N,07937.6262,W,1,8,1.6,20,M,,M,,*57
05/31/2014	02:00:34.600	$GPGGA,020035,2535.8516,N,07937.6264,W,1,8,1.6,20,M,,M,,*5E
05/31/2014	02:00:35.581	$GPGGA,020036,2535.8523,N,07937.6264,W,1,8,1.6,20,M,,M,,*5B
05/31/2014	02:00:36.581	$GPGGA,020037,2535.8530,N,07937.6268,W,1,8,1.5,20,M,,M,,*57
05/31/2014	02:00:37.561	$GPGGA,020038,2535.8537,N,07937.6267,W,1,8,1.5,20,M,,M,,*50
05/31/2014	02:00:38.551	$GPGGA,020039,2535.8542,N,07937.6268,W,1,9,1.5,20,M,,M,,*5D
05/31/2014	02:00:39.571	$GPGGA,020040,2535.8549,N,07937.6270,W,1,9,1.5,20,M,,M,,*51
05/31/2014	02:00:40.561	$GPGGA,020041,2535.8557,N,07937.6272,W,1,9,1.5,20,M,,M,,*5D
05/31/2014	02:00:41.561	$GPGGA,020042,2535.8564,N,07937.6272,W,1,9,1.6,20,M,,M,,*5D
05/31/2014	02:00:42.561	$GPGGA,020043,2535.8571,N,07937.6272,W,1,8,1.5,19,M,,M,,*50
05/31/2014	02:00:43.561	$GPGGA,020044,2535.8578,N,07937.6272,W,1,8,1.5,19,M,,M,,*5E
05/31/2014	02:00:44.561	$GPGGA,020045,2535.8585,N,07937.6273,W,1,9,1.5,19,M,,M,,*5D
05/31/2014	02:00:45.581	$GPGGA,020046,2535.8591,N,07937.6273,W,1,9,1.5,19,M,,M,,*5B
05/31/2014	02:00:46.561	$GPGGA,020047,2535.8597,N,07937.6275,W,1,9,1.5,19,M,,M,,*5A
05/31/2014	02:00:47.550	$GPGGA,020048,2535.8604,N,07937.6276,W,1,9,1.5,19,M,,M,,*5F
05/31/2014	02:00:48.571	$GPGGA,020049,2535.8611,N,07937.6276,W,1,9,1.5,19,M,,M,,*5A
05/31/2014	02:00:49.530	$GPGGA,020050,2535.8611,N,07937.6276,W,1,9,1.5,19,M,,M,,*52
05/31/2014	02:00:50.570	$GPGGA,020051,2535.8625,N,07937.6279,W,1,9,1.5,19,M,,M,,*5B
05/31/2014	02:00:51.550	$GPGGA,020052,2535.8632,N,07937.6280,W,1,9,1.5,19,M,,M,,*58
05/31/2014	02:00:52.551	$GPGGA,020053,2535.8639,N,07937.6283,W,1,9,1.6,19,M,,M,,*52
05/31/2014	02:00:53.561	$GPGGA,020054,2535.8646,N,07937.6284,W,1,9,1.6,19,M,,M,,*5A
05/31/2014	02:00:54.538	$GPGGA,020055,2535.8653,N,07937.6287,W,1,8,1.5,19,M,,M,,*5E
05/31/2014	02:00:55.551	$GPGGA,020056,2535.8653,N,07937.6287,W,1,8,1.5,19,M,,M,,*5D
05/31/2014	02:00:56.551	$GPGGA,020057,2535.8665,N,07937.6290,W,1,9,1.6,19,M,,M,,*5D
05/31/2014	02:00:57.531	$GPGGA,020058,2535.8665,N,07937.6290,W,1,9,1.6,19,M,,M,,*52
05/31/2014	02:00:58.551	$GPGGA,020059,2535.8680,N,07937.6291,W,1,8,2.1,19,M,,M,,*5C
05/31/2014	02:00:59.561	$GPGGA,020100,2535.8686,N,07937.6294,W,1,8,1.5,19,M,,M,,*55
05/31/2014	02:01:00.551	$GPGGA,020101,2535.8691,N,07937.6297,W,1,9,1.6,19,M,,M,,*53
05/31/2014	02:01:01.536	$GPGGA,020102,2535.8698,N,07937.6301,W,1,9,1.5,19,M,,M,,*54
05/31/2014	02:01:02.521	$GPGGA,020103,2535.8705,N,07937.6302,W,1,9,1.5,19,M,,M,,*53
05/31/2014	02:01:03.544	$GPGGA,020104,2535.8711,N,07937.6304,W,1,9,1.6,19,M,,M,,*54
05/31/2014	02:01:04.541	$GPGGA,020105,2535.8718,N,07937.6304,W,1,8,1.5,19,M,,M,,*5E
05/31/2014	02:01:05.620	$GPGGA,020106,2535.8723,N,07937.6303,W,1,8,1.5,19,M,,M,,*52
05/31/2014	02:01:06.510	$GPGGA,020107,2535.8730,N,07937.6305,W,1,9,1.5,19,M,,M,,*56
05/31/2014	02:01:07.540	$GPGGA,020108,2535.8737,N,07937.6306,W,1,9,1.5,19,M,,M,,*5D
05/31/2014	02:01:08.510	$GPGGA,020109,2535.8744,N,07937.6309,W,1,9,1.6,19,M,,M,,*54
05/31/2014	02:01:09.610	$GPGGA,020110,2535.8751,N,07937.6311,W,1,9,1.6,19,M,,M,,*51
05/31/2014	02:01:10.611	$GPGGA,020111,2535.8759,N,07937.6312,W,1,9,1.5,19,M,,M,,*58
05/31/2014	02:01:11.511	$GPGGA,020112,2535.8765,N,07937.6315,W,1,9,1.6,19,M,,M,,*50
05/31/2014	02:01:12.501	$GPGGA,020113,2535.8770,N,07937.6316,W,1,9,1.5,19,M,,M,,*55
05/31/2014	02:01:13.581	$GPGGA,020114,2535.8777,N,07937.6319,W,1,9,1.5,19,M,,M,,*5A
05/31/2014	02:01:14.611	$GPGGA,020115,2535.8784,N,07937.6319,W,1,8,1.6,19,M,,M,,*55
05/31/2014	02:01:15.511	$GPGGA,020116,2535.8792,N,07937.6322,W,1,8,1.5,19,M,,M,,*5A
05/31/2014	02:01:16.471	$GPGGA,020117,2535.8799,N,07937.6326,W,1,7,1.8,19,M,,M,,*56
05/31/2014	02:01:17.541	$GPGGA,020118,2535.8806,N,07937.6325,W,1,7,1.5,20,M,,M,,*54
05/31/2014	02:01:18.581	$GPGGA,020119,2535.8813,N,07937.6326,W,1,8,1.5,20,M,,M,,*5D
05/31/2014	02:01:19.581	$GPGGA,020120,2535.8820,N,07937.6326,W,1,8,1.5,20,M,,M,,*57
05/31/2014	02:01:20.601	$GPGGA,020121,2535.8828,N,07937.6326,W,1,8,1.7,20,M,,M,,*5C
05/31/2014	02:01:21.572	$GPGGA,020122,2535.8833,N,07937.6325,W,1,8,1.7,20,M,,M,,*56
05/31/2014	02:01:22.600	$GPGGA,020123,2535.8841,N,07937.6327,W,1,9,1.5,20,M,,M,,*53
05/31/2014	02:01:23.581	$GPGGA,020124,2535.8848,N,07937.6329,W,1,9,1.7,20,M,,M,,*51
05/31/2014	02:01:24.490	$GPGGA,020125,2535.8856,N,07937.6328,W,1,8,1.7,20,M,,M,,*5F
05/31/2014	02:01:25.560	$GPGGA,020126,2535.8864,N,07937.6329,W,1,8,2.2,20,M,,M,,*5A
05/31/2014	02:01:26.570	$GPGGA,020127,2535.8870,N,07937.6333,W,1,7,2.2,20,M,,M,,*5A
05/31/2014	02:01:27.571	$GPGGA,020128,2535.8875,N,07937.6333,W,1,7,1.7,20,M,,M,,*56
05/31/2014	02:01:28.571	$GPGGA,020129,2535.8884,N,07937.6333,W,1,8,1.7,20,M,,M,,*56
05/31/2014	02:01:29.561	$GPGGA,020130,2535.8889,N,07937.6335,W,1,8,2.1,20,M,,M,,*50
05/31/2014	02:01:30.571	$GPGGA,020131,2535.8898,N,07937.6337,W,1,8,1.7,20,M,,M,,*56
05/31/2014	02:01:31.571	$GPGGA,020132,2535.8904,N,07937.6338,W,1,8,1.7,20,M,,M,,*5E
05/31/2014	02:01:32.541	$GPGGA,020133,2535.8911,N,07937.6338,W,1,8,1.7,20,M,,M,,*5B
05/31/2014	02:01:33.551	$GPGGA,020134,2535.8918,N,07937.6341,W,1,8,2.2,20,M,,M,,*5D
05/31/2014	02:01:34.571	$GPGGA,020135,2535.8925,N,07937.6342,W,1,8,1.7,20,M,,M,,*57
05/31/2014	02:01:35.562	$GPGGA,020136,2535.8932,N,07937.6344,W,1,8,2.2,20,M,,M,,*52
05/31/2014	02:01:36.561	$GPGGA,020137,2535.8942,N,07937.6345,W,1,8,1.7,20,M,,M,,*53
05/31/2014	02:01:37.541	$GPGGA,020138,2535.8949,N,07937.6347,W,1,8,1.5,20,M,,M,,*57
05/31/2014	02:01:38.561	$GPGGA,020139,2535.8957,N,07937.6348,W,1,8,1.7,20,M,,M,,*54
05/31/2014	02:01:39.561	$GPGGA,020140,2535.8965,N,07937.6348,W,1,8,1.5,20,M,,M,,*59
05/31/2014	02:01:40.550	$GPGGA,020141,2535.8972,N,07937.6349,W,1,9,1.5,20,M,,M,,*5E
05/31/2014	02:01:41.520	$GPGGA,020142,2535.8980,N,07937.6351,W,1,9,1.5,20,M,,M,,*59
05/31/2014	02:01:42.550	$GPGGA,020143,2535.8987,N,07937.6352,W,1,9,1.5,20,M,,M,,*5C
05/31/2014	02:01:43.540	$GPGGA,020144,2535.8994,N,07937.6353,W,1,9,1.7,20,M,,M,,*5A
05/31/2014	02:01:44.570	$GPGGA,020145,2535.9003,N,07937.6355,W,1,9,1.5,20,M,,M,,*59
05/31/2014	02:01:45.521	$GPGGA,020146,2535.9011,N,07937.6356,W,1,9,1.5,20,M,,M,,*5A
05/31/2014	02:01:46.551	$GPGGA,020147,2535.9016,N,07937.6358,W,1,9,1.5,20,M,,M,,*52
05/31/2014	02:01:47.531	$GPGGA,020148,2535.9023,N,07937.6360,W,1,9,1.5,20,M,,M,,*50
05/31/2014	02:01:48.541	$GPGGA,020149,2535.9030,N,07937.6362,W,1,9,1.5,21,M,,M,,*50
05/31/2014	02:01:49.511	$GPGGA,020150,2535.9037,N,07937.6363,W,1,9,1.5,21,M,,M,,*5E
05/31/2014	02:01:50.511	$GPGGA,020151,2535.9044,N,07937.6366,W,1,9,1.5,21,M,,M,,*5E
05/31/2014	02:01:51.511	$GPGGA,020152,2535.9051,N,07937.6366,W,1,9,1.5,21,M,,M,,*59
05/31/2014	02:01:52.501	$GPGGA,020153,2535.9058,N,07937.6369,W,1,9,1.5,21,M,,M,,*5E
05/31/2014	02:01:53.621	$GPGGA,020154,2535.9065,N,07937.6370,W,1,9,1.5,21,M,,M,,*5F
05/31/2014	02:01:54.522	$GPGGA,020155,2535.9070,N,07937.6371,W,1,8,1.7,20,M,,M,,*59
05/31/2014	02:01:56.881	$GPGGA,020157,2535.9084,N,07937.6376,W,1,9,1.5,20,M,,M,,*54
05/31/2014	02:01:57.510	$GPGGA,020158,2535.9091,N,07937.6376,W,1,9,1.5,20,M,,M,,*5F
05/31/2014	02:01:58.610	$GPGGA,020159,2535.9097,N,07937.6380,W,1,9,1.5,20,M,,M,,*51
05/31/2014	02:01:59.520	$GPGGA,020200,2535.9102,N,07937.6381,W,1,9,1.7,20,M,,M,,*50
05/31/2014	02:02:00.500	$GPGGA,020201,2535.9109,N,07937.6383,W,1,8,1.7,20,M,,M,,*59
05/31/2014	02:02:01.480	$GPGGA,020202,2535.9117,N,07937.6384,W,1,8,1.5,20,M,,M,,*50
05/31/2014	02:02:02.611	$GPGGA,020203,2535.9123,N,07937.6387,W,1,9,1.5,20,M,,M,,*54
05/31/2014	02:02:03.611	$GPGGA,020204,2535.9130,N,07937.6387,W,1,9,1.5,20,M,,M,,*51
05/31/2014	02:02:04.491	$GPGGA,020205,2535.9135,N,07937.6389,W,1,8,1.7,20,M,,M,,*58
05/31/2014	02:02:05.571	$GPGGA,020206,2535.9142,N,07937.6391,W,1,8,1.7,20,M,,M,,*52
05/31/2014	02:02:06.581	$GPGGA,020207,2535.9149,N,07937.6394,W,1,8,1.7,20,M,,M,,*5D
05/31/2014	02:02:07.502	$GPGGA,020208,2535.9156,N,07937.6395,W,1,8,1.7,20,M,,M,,*5D
05/31/2014	02:02:08.571	$GPGGA,020209,2535.9163,N,07937.6395,W,1,8,1.7,20,M,,M,,*5A
05/31/2014	02:02:09.481	$GPGGA,020210,2535.9170,N,07937.6398,W,1,8,1.5,20,M,,M,,*5F
05/31/2014	02:02:10.481	$GPGGA,020211,2535.9177,N,07937.6398,W,1,9,1.5,19,M,,M,,*52
05/31/2014	02:02:11.481	$GPGGA,020212,2535.9184,N,07937.6399,W,1,9,1.5,19,M,,M,,*5C
05/31/2014	02:02:12.561	$GPGGA,020213,2535.9189,N,07937.6402,W,1,9,1.5,19,M,,M,,*55
05/31/2014	02:02:13.561	$GPGGA,020214,2535.9196,N,07937.6403,W,1,9,1.5,19,M,,M,,*5D
05/31/2014	02:02:14.561	$GPGGA,020215,2535.9203,N,07937.6405,W,1,9,1.5,19,M,,M,,*55
05/31/2014	02:02:15.571	$GPGGA,020216,2535.9211,N,07937.6407,W,1,9,1.6,19,M,,M,,*54
05/31/2014	02:02:16.550	$GPGGA,020217,2535.9218,N,07937.6409,W,1,8,1.6,19,M,,M,,*53
05/31/2014	02:02:17.560	$GPGGA,020218,2535.9224,N,07937.6408,W,1,8,1.6,19,M,,M,,*52
05/31/2014	02:02:18.550	$GPGGA,020219,2535.9231,N,07937.6409,W,1,9,1.5,19,M,,M,,*54
05/31/2014	02:02:19.560	$GPGGA,020220,2535.9238,N,07937.6409,W,1,9,1.5,19,M,,M,,*57
05/31/2014	02:02:20.571	$GPGGA,020221,2535.9245,N,07937.6412,W,1,9,1.5,19,M,,M,,*56
05/31/2014	02:02:21.541	$GPGGA,020222,2535.9251,N,07937.6413,W,1,9,1.6,19,M,,M,,*52
05/31/2014	02:02:22.561	$GPGGA,020223,2535.9260,N,07937.6413,W,1,7,2.2,19,M,,M,,*58
05/31/2014	02:02:23.561	$GPGGA,020224,2535.9268,N,07937.6413,W,1,7,2.2,19,M,,M,,*57
05/31/2014	02:02:24.561	$GPGGA,020225,2535.9275,N,07937.6414,W,1,7,2.2,19,M,,M,,*5D
05/31/2014	02:02:25.541	$GPGGA,020226,2535.9282,N,07937.6416,W,1,7,2.2,19,M,,M,,*54
05/31/2014	02:02:26.561	$GPGGA,020227,2535.9290,N,07937.6416,W,1,7,2.2,18,M,,M,,*57
05/31/2014	02:02:27.551	$GPGGA,020228,2535.9297,N,07937.6416,W,1,7,2.2,18,M,,M,,*5F
05/31/2014	02:02:28.531	$GPGGA,020229,2535.9304,N,07937.6418,W,1,8,2.1,18,M,,M,,*57
05/31/2014	02:02:29.532	$GPGGA,020230,2535.9311,N,07937.6418,W,1,8,2.2,18,M,,M,,*58
05/31/2014	02:02:30.552	$GPGGA,020231,2535.9319,N,07937.6420,W,1,7,2.2,18,M,,M,,*55
05/31/2014	02:02:31.541	$GPGGA,020232,2535.9326,N,07937.6423,W,1,7,2.1,18,M,,M,,*5A
05/31/2014	02:02:32.521	$GPGGA,020233,2535.9333,N,07937.6421,W,1,7,2.2,18,M,,M,,*5E
05/31/2014	02:02:33.520	$GPGGA,020234,2535.9341,N,07937.6423,W,1,7,2.1,18,M,,M,,*5D
05/31/2014	02:02:34.510	$GPGGA,020235,2535.9347,N,07937.6424,W,1,7,2.2,17,M,,M,,*51
05/31/2014	02:02:35.530	$GPGGA,020236,2535.9354,N,07937.6425,W,1,7,2.1,17,M,,M,,*52
05/31/2014	02:02:36.550	$GPGGA,020237,2535.9361,N,07937.6427,W,1,8,2.1,17,M,,M,,*58
05/31/2014	02:02:37.521	$GPGGA,020238,2535.9366,N,07937.6428,W,1,8,3.3,17,M,,M,,*5C
05/31/2014	02:02:38.511	$GPGGA,020239,2535.9373,N,07937.6431,W,1,7,2.2,17,M,,M,,*5E
05/31/2014	02:02:39.541	$GPGGA,020240,2535.9380,N,07937.6431,W,1,7,2.2,17,M,,M,,*5C
05/31/2014	02:02:40.511	$GPGGA,020241,2535.9386,N,07937.6434,W,1,7,2.2,17,M,,M,,*5E
05/31/2014	02:02:41.511	$GPGGA,020242,2535.9391,N,07937.6433,W,1,7,2.2,17,M,,M,,*5C
05/31/2014	02:02:42.541	$GPGGA,020243,2535.9399,N,07937.6436,W,1,7,2.2,17,M,,M,,*50
05/31/2014	02:02:43.521	$GPGGA,020244,2535.9406,N,07937.6438,W,1,7,3.4,17,M,,M,,*5F
05/31/2014	02:02:44.631	$GPGGA,020245,2535.9413,N,07937.6438,W,1,7,2.2,17,M,,M,,*5D
05/31/2014	02:02:45.511	$GPGGA,020246,2535.9420,N,07937.6441,W,1,7,3.4,17,M,,M,,*57
05/31/2014	02:02:46.601	$GPGGA,020247,2535.9427,N,07937.6441,W,1,6,3.4,17,M,,M,,*50
05/31/2014	02:02:47.511	$GPGGA,020248,2535.9435,N,07937.6445,W,1,6,2.1,17,M,,M,,*5C
05/31/2014	02:02:48.501	$GPGGA,020249,2535.9442,N,07937.6447,W,1,8,2.1,17,M,,M,,*51
05/31/2014	02:02:49.481	$GPGGA,020250,2535.9449,N,07937.6449,W,1,8,2.1,17,M,,M,,*5C
05/31/2014	02:02:50.480	$GPGGA,020251,2535.9456,N,07937.6448,W,1,7,2.2,17,M,,M,,*5E
05/31/2014	02:02:51.610	$GPGGA,020252,2535.9466,N,07937.6449,W,1,7,2.2,17,M,,M,,*5F
05/31/2014	02:02:52.570	$GPGGA,020253,2535.9471,N,07937.6449,W,1,8,2.1,16,M,,M,,*55
05/31/2014	02:02:53.490	$GPGGA,020254,2535.9478,N,07937.6450,W,1,8,2.1,16,M,,M,,*53
05/31/2014	02:02:54.480	$GPGGA,020255,2535.9482,N,07937.6452,W,1,8,2.1,16,M,,M,,*55
05/31/2014	02:02:55.601	$GPGGA,020256,2535.9489,N,07937.6452,W,1,8,2.1,16,M,,M,,*5D
05/31/2014	02:02:56.571	$GPGGA,020257,2535.9496,N,07937.6454,W,1,8,2.1,16,M,,M,,*54
05/31/2014	02:02:57.591	$GPGGA,020258,2535.9503,N,07937.6456,W,1,8,2.1,16,M,,M,,*54
05/31/2014	02:02:58.561	$GPGGA,020259,2535.9510,N,07937.6457,W,1,8,2.1,16,M,,M,,*56
05/31/2014	02:02:59.591	$GPGGA,020300,2535.9517,N,07937.6459,W,1,8,2.1,16,M,,M,,*52
05/31/2014	02:03:00.561	$GPGGA,020301,2535.9524,N,07937.6460,W,1,7,2.6,16,M,,M,,*51
05/31/2014	02:03:01.561	$GPGGA,020302,2535.9532,N,07937.6461,W,1,7,2.6,16,M,,M,,*54
05/31/2014	02:03:02.591	$GPGGA,020303,2535.9539,N,07937.6463,W,1,7,2.6,16,M,,M,,*5C
05/31/2014	02:03:03.572	$GPGGA,020304,2535.9546,N,07937.6463,W,1,7,2.6,16,M,,M,,*53
05/31/2014	02:03:04.581	$GPGGA,020305,2535.9554,N,07937.6464,W,1,7,2.6,16,M,,M,,*56
05/31/2014	02:03:05.561	$GPGGA,020306,2535.9561,N,07937.6467,W,1,7,2.6,16,M,,M,,*50
05/31/2014	02:03:06.561	$GPGGA,020307,2535.9568,N,07937.6467,W,1,7,2.6,16,M,,M,,*58
05/31/2014	02:03:07.560	$GPGGA,020308,2535.9576,N,07937.6470,W,1,7,2.6,16,M,,M,,*5E
05/31/2014	02:03:08.570	$GPGGA,020309,2535.9581,N,07937.6470,W,1,7,2.6,16,M,,M,,*57
05/31/2014	02:03:09.550	$GPGGA,020310,2535.9589,N,07937.6471,W,1,7,2.1,16,M,,M,,*51
05/31/2014	02:03:10.570	$GPGGA,020311,2535.9594,N,07937.6474,W,1,7,2.6,16,M,,M,,*5E
05/31/2014	02:03:11.560	$GPGGA,020312,2535.9601,N,07937.6475,W,1,7,2.1,16,M,,M,,*54
05/31/2014	02:03:12.561	$GPGGA,020313,2535.9607,N,07937.6477,W,1,8,2.1,16,M,,M,,*5E
05/31/2014	02:03:13.531	$GPGGA,020314,2535.9614,N,07937.6479,W,1,8,2.1,16,M,,M,,*55
05/31/2014	02:03:14.561	$GPGGA,020315,2535.9619,N,07937.6481,W,1,8,2.1,16,M,,M,,*5E
05/31/2014	02:03:15.551	$GPGGA,020316,2535.9626,N,07937.6482,W,1,8,2.1,16,M,,M,,*52
05/31/2014	02:03:16.551	$GPGGA,020317,2535.9632,N,07937.6483,W,1,8,2.1,16,M,,M,,*57
05/31/2014	02:03:17.534	$GPGGA,020318,2535.9637,N,07937.6485,W,1,8,2.1,16,M,,M,,*5B
05/31/2014	02:03:18.521	$GPGGA,020319,2535.9644,N,07937.6488,W,1,8,2.1,16,M,,M,,*53
05/31/2014	02:03:19.541	$GPGGA,020320,2535.9650,N,07937.6489,W,1,8,2.1,16,M,,M,,*5D
05/31/2014	02:03:20.521	$GPGGA,020321,2535.9657,N,07937.6492,W,1,8,2.1,16,M,,M,,*51
05/31/2014	02:03:21.521	$GPGGA,020322,2535.9662,N,07937.6492,W,1,8,2.1,16,M,,M,,*54
05/31/2014	02:03:22.551	$GPGGA,020323,2535.9669,N,07937.6493,W,1,8,2.1,16,M,,M,,*5F
05/31/2014	02:03:23.532	$GPGGA,020324,2535.9677,N,07937.6496,W,1,8,2.1,16,M,,M,,*52
05/31/2014	02:03:24.551	$GPGGA,020325,2535.9684,N,07937.6497,W,1,8,2.1,17,M,,M,,*5F
05/31/2014	02:03:25.521	$GPGGA,020326,2535.9690,N,07937.6499,W,1,8,2.1,17,M,,M,,*57
05/31/2014	02:03:26.630	$GPGGA,020327,2535.9697,N,07937.6500,W,1,8,2.1,17,M,,M,,*50
05/31/2014	02:03:27.510	$GPGGA,020328,2535.9706,N,07937.6501,W,1,8,2.1,17,M,,M,,*57
05/31/2014	02:03:28.540	$GPGGA,020329,2535.9711,N,07937.6503,W,1,7,2.6,17,M,,M,,*5A
05/31/2014	02:03:29.520	$GPGGA,020330,2535.9716,N,07937.6506,W,1,7,2.1,17,M,,M,,*57
05/31/2014	02:03:30.521	$GPGGA,020331,2535.9722,N,07937.6507,W,1,8,2.1,17,M,,M,,*5F
05/31/2014	02:03:31.511	$GPGGA,020332,2535.9731,N,07937.6507,W,1,8,2.1,17,M,,M,,*5E
05/31/2014	02:03:32.521	$GPGGA,020333,2535.9735,N,07937.6510,W,1,7,2.6,17,M,,M,,*55
05/31/2014	02:03:33.491	$GPGGA,020334,2535.9742,N,07937.6512,W,1,7,2.1,17,M,,M,,*57
05/31/2014	02:03:34.631	$GPGGA,020335,2535.9752,N,07937.6511,W,1,8,2.1,17,M,,M,,*5B
05/31/2014	02:03:35.511	$GPGGA,020336,2535.9760,N,07937.6514,W,1,8,2.6,17,M,,M,,*5B
05/31/2014	02:03:36.481	$GPGGA,020337,2535.9767,N,07937.6514,W,1,7,2.6,17,M,,M,,*52
05/31/2014	02:03:37.601	$GPGGA,020338,2535.9777,N,07937.6514,W,1,7,2.6,17,M,,M,,*5C
05/31/2014	02:03:38.582	$GPGGA,020339,2535.9785,N,07937.6515,W,1,7,2.6,17,M,,M,,*51
05/31/2014	02:03:39.612	$GPGGA,020340,2535.9792,N,07937.6517,W,1,7,2.6,17,M,,M,,*5B
05/31/2014	02:03:40.581	$GPGGA,020341,2535.9799,N,07937.6517,W,1,7,2.6,17,M,,M,,*51
05/31/2014	02:03:41.491	$GPGGA,020342,2535.9807,N,07937.6518,W,1,7,2.6,17,M,,M,,*55
05/31/2014	02:03:42.610	$GPGGA,020343,2535.9816,N,07937.6521,W,1,7,2.6,16,M,,M,,*5F
05/31/2014	02:03:43.480	$GPGGA,020344,2535.9824,N,07937.6521,W,1,7,3.4,16,M,,M,,*5A
05/31/2014	02:03:44.610	$GPGGA,020345,2535.9832,N,07937.6521,W,1,7,2.6,16,M,,M,,*5F
05/31/2014	02:03:45.590	$GPGGA,020346,2535.9839,N,07937.6522,W,1,7,2.6,16,M,,M,,*54
05/31/2014	02:03:46.470	$GPGGA,020347,2535.9846,N,07937.6525,W,1,7,2.6,16,M,,M,,*5A
05/31/2014	02:03:47.601	$GPGGA,020348,2535.9849,N,07937.6525,W,1,7,2.6,16,M,,M,,*5A
05/31/2014	02:03:48.571	$GPGGA,020349,2535.9857,N,07937.6526,W,1,8,2.1,15,M,,M,,*5C
05/31/2014	02:03:49.571	$GPGGA,020350,2535.9864,N,07937.6528,W,1,8,2.1,15,M,,M,,*5A
05/31/2014	02:03:50.571	$GPGGA,020351,2535.9868,N,07937.6529,W,1,7,2.6,15,M,,M,,*5E
05/31/2014	02:03:51.571	$GPGGA,020352,2535.9875,N,07937.6530,W,1,7,2.1,15,M,,M,,*5E
05/31/2014	02:03:52.601	$GPGGA,020353,2535.9883,N,07937.6532,W,1,7,2.6,15,M,,M,,*53
05/31/2014	02:03:53.561	$GPGGA,020354,2535.9892,N,07937.6533,W,1,7,2.6,15,M,,M,,*55
05/31/2014	02:03:54.571	$GPGGA,020355,2535.9897,N,07937.6535,W,1,6,3.4,15,M,,M,,*55
05/31/2014	02:03:55.571	$GPGGA,020356,2535.9903,N,07937.6536,W,1,6,2.1,15,M,,M,,*5D
05/31/2014	02:03:56.591	$GPGGA,020357,2535.9910,N,07937.6536,W,1,8,2.1,15,M,,M,,*50
05/31/2014	02:03:57.551	$GPGGA,020358,2535.9918,N,07937.6537,W,1,8,2.6,15,M,,M,,*51
05/31/2014	02:03:58.561	$GPGGA,020359,2535.9925,N,07937.6539,W,1,7,2.6,15,M,,M,,*5F
05/31/2014	02:03:59.562	$GPGGA,020400,2535.9933,N,07937.6540,W,1,7,2.6,15,M,,M,,*5D
05/31/2014	02:04:00.560	$GPGGA,020401,2535.9940,N,07937.6542,W,1,7,2.6,15,M,,M,,*5A
05/31/2014	02:04:01.540	$GPGGA,020402,2535.9948,N,07937.6543,W,1,7,2.1,15,M,,M,,*57
05/31/2014	02:04:02.560	$GPGGA,020403,2535.9955,N,07937.6544,W,1,7,2.6,15,M,,M,,*5A
05/31/2014	02:04:03.550	$GPGGA,020404,2535.9962,N,07937.6544,W,1,7,2.6,15,M,,M,,*59
05/31/2014	02:04:04.560	$GPGGA,020405,2535.9969,N,07937.6546,W,1,7,2.6,15,M,,M,,*51
05/31/2014	02:04:05.541	$GPGGA,020406,2535.9977,N,07937.6548,W,1,7,2.6,15,M,,M,,*53
05/31/2014	02:04:06.531	$GPGGA,020407,2535.9987,N,07937.6550,W,1,6,3.4,15,M,,M,,*56
05/31/2014	02:04:07.551	$GPGGA,020408,2535.9995,N,07937.6550,W,1,6,2.1,14,M,,M,,*5F
05/31/2014	02:04:08.561	$GPGGA,020409,2536.0002,N,07937.6553,W,1,7,2.6,14,M,,M,,*56
05/31/2014	02:04:09.521	$GPGGA,020410,2536.0009,N,07937.6553,W,1,7,2.6,14,M,,M,,*55
05/31/2014	02:04:10.561	$GPGGA,020411,2536.0016,N,07937.6554,W,1,7,2.6,14,M,,M,,*5D
05/31/2014	02:04:11.531	$GPGGA,020412,2536.0023,N,07937.6557,W,1,7,2.1,14,M,,M,,*5C
05/31/2014	02:04:12.511	$GPGGA,020413,2536.0031,N,07937.6556,W,1,7,2.6,14,M,,M,,*58
05/31/2014	02:04:13.521	$GPGGA,020414,2536.0036,N,07937.6557,W,1,7,2.6,14,M,,M,,*59
05/31/2014	02:04:14.512	$GPGGA,020415,2536.0038,N,07937.6559,W,1,8,2.1,13,M,,M,,*57
05/31/2014	02:04:15.541	$GPGGA,020416,2536.0045,N,07937.6561,W,1,8,2.2,13,M,,M,,*56
05/31/2014	02:04:16.522	$GPGGA,020417,2536.0049,N,07937.6561,W,1,8,2.1,13,M,,M,,*58
05/31/2014	02:04:17.620	$GPGGA,020418,2536.0056,N,07937.6562,W,1,8,2.1,13,M,,M,,*5A
05/31/2014	02:04:18.500	$GPGGA,020419,2536.0060,N,07937.6564,W,1,8,2.1,13,M,,M,,*58
05/31/2014	02:04:19.531	$GPGGA,020420,2536.0067,N,07937.6565,W,1,8,2.1,14,M,,M,,*53
05/31/2014	02:04:20.520	$GPGGA,020421,2536.0073,N,07937.6566,W,1,8,2.1,14,M,,M,,*54
05/31/2014	02:04:21.500	$GPGGA,020422,2536.0080,N,07937.6568,W,1,8,2.2,14,M,,M,,*56
05/31/2014	02:04:22.511	$GPGGA,020423,2536.0085,N,07937.6569,W,1,8,2.1,14,M,,M,,*50
05/31/2014	02:04:23.511	$GPGGA,020424,2536.0092,N,07937.6569,W,1,8,2.1,14,M,,M,,*51
05/31/2014	02:04:24.501	$GPGGA,020425,2536.0099,N,07937.6571,W,1,8,2.1,14,M,,M,,*52
05/31/2014	02:04:25.501	$GPGGA,020426,2536.0106,N,07937.6572,W,1,8,2.1,14,M,,M,,*55
05/31/2014	02:04:26.481	$GPGGA,020427,2536.0113,N,07937.6572,W,1,8,2.1,15,M,,M,,*51
05/31/2014	02:04:27.611	$GPGGA,020428,2536.0120,N,07937.6573,W,1,8,2.1,15,M,,M,,*5F
05/31/2014	02:04:28.591	$GPGGA,020429,2536.0125,N,07937.6575,W,1,8,2.2,15,M,,M,,*5E
05/31/2014	02:04:29.581	$GPGGA,020430,2536.0136,N,07937.6576,W,1,8,2.6,15,M,,M,,*53
05/31/2014	02:04:30.471	$GPGGA,020431,2536.0146,N,07937.6579,W,1,7,2.6,15,M,,M,,*55
05/31/2014	02:04:31.622	$GPGGA,020432,2536.0154,N,07937.6580,W,1,7,2.6,15,M,,M,,*53
05/31/2014	02:04:32.591	$GPGGA,020433,2536.0154,N,07937.6579,W,1,7,2.2,15,M,,M,,*50
05/31/2014	02:04:33.471	$GPGGA,020434,2536.0161,N,07937.6580,W,1,7,2.2,15,M,,M,,*57
05/31/2014	02:04:34.581	$GPGGA,020435,2536.0168,N,07937.6582,W,1,7,2.2,15,M,,M,,*5D
05/31/2014	02:04:35.600	$GPGGA,020436,2536.0175,N,07937.6582,W,1,7,2.2,15,M,,M,,*52
05/31/2014	02:04:36.570	$GPGGA,020437,2536.0181,N,07937.6584,W,1,7,2.2,15,M,,M,,*5E
05/31/2014	02:04:37.580	$GPGGA,020438,2536.0190,N,07937.6586,W,1,7,3.4,15,M,,M,,*54
05/31/2014	02:04:38.560	$GPGGA,020439,2536.0195,N,07937.6585,W,1,6,2.1,15,M,,M,,*56
05/31/2014	02:04:39.611	$GPGGA,020440,2536.0203,N,07937.6586,W,1,6,3.4,15,M,,M,,*53
05/31/2014	02:04:40.571	$GPGGA,020441,2536.0210,N,07937.6587,W,1,6,2.2,15,M,,M,,*56
05/31/2014	02:04:41.561	$GPGGA,020442,2536.0221,N,07937.6590,W,1,6,2.6,15,M,,M,,*55
05/31/2014	02:04:42.551	$GPGGA,020443,2536.0228,N,07937.6590,W,1,7,2.1,15,M,,M,,*5B
05/31/2014	02:04:43.591	$GPGGA,020444,2536.0235,N,07937.6590,W,1,7,2.2,15,M,,M,,*53
05/31/2014	02:04:44.571	$GPGGA,020445,2536.0242,N,07937.6593,W,1,7,2.2,15,M,,M,,*51
05/31/2014	02:04:45.561	$GPGGA,020446,2536.0247,N,07937.6594,W,1,7,2.1,15,M,,M,,*53
05/31/2014	02:04:46.571	$GPGGA,020447,2536.0255,N,07937.6594,W,1,8,2.2,15,M,,M,,*5D
05/31/2014	02:04:47.561	$GPGGA,020448,2536.0261,N,07937.6597,W,1,8,2.2,15,M,,M,,*56
05/31/2014	02:04:48.561	$GPGGA,020449,2536.0266,N,07937.6598,W,1,7,2.2,15,M,,M,,*50
05/31/2014	02:04:49.551	$GPGGA,020450,2536.0273,N,07937.6597,W,1,7,2.1,15,M,,M,,*50
05/31/2014	02:04:50.531	$GPGGA,020451,2536.0279,N,07937.6598,W,1,8,2.1,16,M,,M,,*58
05/31/2014	02:04:51.551	$GPGGA,020452,2536.0284,N,07937.6600,W,1,8,2.2,16,M,,M,,*58
05/31/2014	02:04:52.530	$GPGGA,020453,2536.0291,N,07937.6601,W,1,7,2.1,16,M,,M,,*50
05/31/2014	02:04:53.540	$GPGGA,020454,2536.0298,N,07937.6604,W,1,7,2.2,16,M,,M,,*58
05/31/2014	02:04:54.570	$GPGGA,020455,2536.0305,N,07937.6603,W,1,7,2.6,16,M,,M,,*5F
05/31/2014	02:04:55.540	$GPGGA,020456,2536.0315,N,07937.6604,W,1,7,3.4,16,M,,M,,*59
05/31/2014	02:04:56.550	$GPGGA,020457,2536.0320,N,07937.6605,W,1,6,2.6,16,M,,M,,*5D
05/31/2014	02:04:57.541	$GPGGA,020458,2536.0327,N,07937.6607,W,1,6,2.6,16,M,,M,,*57
05/31/2014	02:04:58.551	$GPGGA,020459,2536.0337,N,07937.6608,W,1,7,3.4,16,M,,M,,*5A
05/31/2014	02:04:59.581	$GPGGA,020500,2536.0344,N,07937.6609,W,1,7,3.4,16,M,,M,,*52
05/31/2014	02:05:00.521	$GPGGA,020501,2536.0349,N,07937.6608,W,1,6,2.6,16,M,,M,,*5D
05/31/2014	02:05:01.531	$GPGGA,020502,2536.0358,N,07937.6611,W,1,6,3.4,16,M,,M,,*55
05/31/2014	02:05:02.551	$GPGGA,020503,2536.0366,N,07937.6611,W,1,6,3.4,16,M,,M,,*59
05/31/2014	02:05:03.538	$GPGGA,020504,2536.0374,N,07937.6613,W,1,6,3.4,16,M,,M,,*5F
05/31/2014	02:05:04.541	$GPGGA,020505,2536.0381,N,07937.6615,W,1,6,3.4,16,M,,M,,*52
05/31/2014	02:05:05.621	$GPGGA,020506,2536.0388,N,07937.6615,W,1,6,2.2,16,M,,M,,*5F
05/31/2014	02:05:06.531	$GPGGA,020507,2536.0395,N,07937.6616,W,1,7,2.1,16,M,,M,,*53
05/31/2014	02:05:07.531	$GPGGA,020508,2536.0402,N,07937.6616,W,1,7,2.1,15,M,,M,,*56
05/31/2014	02:05:08.622	$GPGGA,020509,2536.0409,N,07937.6618,W,1,8,2.5,15,M,,M,,*59
05/31/2014	02:05:09.610	$GPGGA,020510,2536.0414,N,07937.6620,W,1,8,2.5,15,M,,M,,*56
05/31/2014	02:05:10.521	$GPGGA,020511,2536.0421,N,07937.6622,W,1,6,2.5,15,M,,M,,*5D
05/31/2014	02:05:11.620	$GPGGA,020512,2536.0428,N,07937.6623,W,1,6,2.2,15,M,,M,,*51
05/31/2014	02:05:12.610	$GPGGA,020513,2536.0432,N,07937.6626,W,1,7,2.2,15,M,,M,,*5F
05/31/2014	02:05:13.610	$GPGGA,020514,2536.0439,N,07937.6626,W,1,7,2.2,15,M,,M,,*53
05/31/2014	02:05:14.490	$GPGGA,020515,2536.0446,N,07937.6629,W,1,7,2.2,15,M,,M,,*55
05/31/2014	02:05:15.531	$GPGGA,020516,2536.0453,N,07937.6629,W,1,7,2.2,15,M,,M,,*52
05/31/2014	02:05:16.491	$GPGGA,020517,2536.0459,N,07937.6631,W,1,7,2.2,15,M,,M,,*50
05/31/2014	02:05:17.581	$GPGGA,020518,2536.0466,N,07937.6633,W,1,7,2.2,15,M,,M,,*51
05/31/2014	02:05:18.491	$GPGGA,020519,2536.0471,N,07937.6634,W,1,7,2.2,14,M,,M,,*50
05/31/2014	02:05:19.591	$GPGGA,020520,2536.0479,N,07937.6634,W,1,7,2.2,14,M,,M,,*52
05/31/2014	02:05:20.491	$GPGGA,020521,2536.0479,N,07937.6634,W,1,8,2.1,14,M,,M,,*5F
05/31/2014	02:05:21.581	$GPGGA,020522,2536.0493,N,07937.6637,W,1,8,2.2,14,M,,M,,*58
05/31/2014	02:05:22.611	$GPGGA,020523,2536.0500,N,07937.6637,W,1,7,2.2,14,M,,M,,*5D
05/31/2014	02:05:23.591	$GPGGA,020524,2536.0507,N,07937.6638,W,1,7,2.1,14,M,,M,,*51
05/31/2014	02:05:24.581	$GPGGA,020525,2536.0514,N,07937.6640,W,1,8,2.1,14,M,,M,,*52
05/31/2014	02:05:25.562	$GPGGA,020526,2536.0521,N,07937.6640,W,1,8,2.2,14,M,,M,,*54
05/31/2014	02:05:26.582	$GPGGA,020527,2536.0528,N,07937.6639,W,1,7,2.2,14,M,,M,,*5D
05/31/2014	02:05:27.580	$GPGGA,020528,2536.0535,N,07937.6641,W,1,7,2.1,14,M,,M,,*52
05/31/2014	02:05:28.570	$GPGGA,020529,2536.0542,N,07937.6641,W,1,8,2.1,14,M,,M,,*5C
05/31/2014	02:05:29.570	$GPGGA,020530,2536.0549,N,07937.6641,W,1,8,2.1,14,M,,M,,*5F
05/31/2014	02:05:30.580	$GPGGA,020531,2536.0555,N,07937.6642,W,1,8,2.1,14,M,,M,,*50
05/31/2014	02:05:31.570	$GPGGA,020532,2536.0562,N,07937.6644,W,1,8,2.1,15,M,,M,,*50
05/31/2014	02:05:32.561	$GPGGA,020533,2536.0569,N,07937.6643,W,1,8,2.1,15,M,,M,,*5D
05/31/2014	02:05:33.541	$GPGGA,020534,2536.0576,N,07937.6644,W,1,8,2.1,15,M,,M,,*53
05/31/2014	02:05:34.541	$GPGGA,020535,2536.0583,N,07937.6644,W,1,8,2.1,15,M,,M,,*58
05/31/2014	02:05:35.561	$GPGGA,020536,2536.0591,N,07937.6644,W,1,8,2.1,15,M,,M,,*58
05/31/2014	02:05:36.571	$GPGGA,020537,2536.0598,N,07937.6645,W,1,8,2.1,15,M,,M,,*51
05/31/2014	02:05:37.551	$GPGGA,020538,2536.0605,N,07937.6645,W,1,8,2.1,15,M,,M,,*59
05/31/2014	02:05:38.561	$GPGGA,020539,2536.0612,N,07937.6647,W,1,8,2.1,15,M,,M,,*5C
05/31/2014	02:05:39.541	$GPGGA,020540,2536.0619,N,07937.6649,W,1,8,2.1,15,M,,M,,*57
05/31/2014	02:05:40.561	$GPGGA,020541,2536.0626,N,07937.6651,W,1,8,2.1,15,M,,M,,*53
05/31/2014	02:05:41.541	$GPGGA,020542,2536.0633,N,07937.6650,W,1,8,2.2,15,M,,M,,*56
05/31/2014	02:05:42.551	$GPGGA,020543,2536.0638,N,07937.6654,W,1,8,2.1,15,M,,M,,*5B
05/31/2014	02:05:43.551	$GPGGA,020544,2536.0645,N,07937.6655,W,1,8,2.2,15,M,,M,,*54
05/31/2014	02:05:44.550	$GPGGA,020545,2536.0652,N,07937.6655,W,1,7,2.2,15,M,,M,,*5C
05/31/2014	02:05:45.521	$GPGGA,020546,2536.0662,N,07937.6656,W,1,7,2.2,15,M,,M,,*5F
05/31/2014	02:05:46.560	$GPGGA,020547,2536.0667,N,07937.6658,W,1,8,2.1,15,M,,M,,*59
05/31/2014	02:05:47.530	$GPGGA,020548,2536.0674,N,07937.6658,W,1,8,2.2,15,M,,M,,*57
05/31/2014	02:05:48.550	$GPGGA,020549,2536.0681,N,07937.6660,W,1,7,2.2,15,M,,M,,*58
05/31/2014	02:05:49.510	$GPGGA,020550,2536.0688,N,07937.6662,W,1,7,2.2,15,M,,M,,*5B
05/31/2014	02:05:50.512	$GPGGA,020551,2536.0695,N,07937.6662,W,1,7,2.2,15,M,,M,,*56
05/31/2014	02:05:51.531	$GPGGA,020552,2536.0702,N,07937.6663,W,1,7,2.2,15,M,,M,,*5B
05/31/2014	02:05:52.501	$GPGGA,020553,2536.0709,N,07937.6665,W,1,7,2.2,15,M,,M,,*57
05/31/2014	02:05:53.531	$GPGGA,020554,2536.0716,N,07937.6667,W,1,7,2.2,15,M,,M,,*5C
05/31/2014	02:05:54.611	$GPGGA,020555,2536.0723,N,07937.6667,W,1,7,2.2,15,M,,M,,*5B
05/31/2014	02:05:55.531	$GPGGA,020556,2536.0730,N,07937.6669,W,1,7,2.1,15,M,,M,,*57
05/31/2014	02:05:56.521	$GPGGA,020557,2536.0737,N,07937.6670,W,1,7,2.2,15,M,,M,,*5A
05/31/2014	02:05:57.521	$GPGGA,020558,2536.0743,N,07937.6671,W,1,7,2.2,15,M,,M,,*57
05/31/2014	02:05:58.512	$GPGGA,020559,2536.0750,N,07937.6673,W,1,7,2.2,15,M,,M,,*56
05/31/2014	02:05:59.632	$GPGGA,020600,2536.0760,N,07937.6673,W,1,7,2.2,15,M,,M,,*5A
05/31/2014	02:06:00.621	$GPGGA,020601,2536.0767,N,07937.6674,W,1,8,2.1,15,M,,M,,*57
05/31/2014	02:06:01.501	$GPGGA,020602,2536.0773,N,07937.6676,W,1,8,2.2,15,M,,M,,*50
05/31/2014	02:06:02.490	$GPGGA,020603,2536.0779,N,07937.6677,W,1,7,2.2,15,M,,M,,*55
05/31/2014	02:06:03.610	$GPGGA,020604,2536.0786,N,07937.6678,W,1,7,2.1,15,M,,M,,*5E
05/31/2014	02:06:04.480	$GPGGA,020605,2536.0793,N,07937.6680,W,1,7,2.2,15,M,,M,,*5F
05/31/2014	02:06:05.580	$GPGGA,020606,2536.0800,N,07937.6681,W,1,7,2.2,15,M,,M,,*58
05/31/2014	02:06:06.580	$GPGGA,020607,2536.0807,N,07937.6683,W,1,8,2.1,15,M,,M,,*50
05/31/2014	02:06:07.611	$GPGGA,020608,2536.0815,N,07937.6684,W,1,8,2.1,15,M,,M,,*5B
05/31/2014	02:06:08.591	$GPGGA,020609,2536.0822,N,07937.6684,W,1,8,2.1,15,M,,M,,*5E
05/31/2014	02:06:09.491	$GPGGA,020610,2536.0829,N,07937.6687,W,1,8,2.2,15,M,,M,,*5D
05/31/2014	02:06:10.571	$GPGGA,020611,2536.0836,N,07937.6687,W,1,7,2.2,15,M,,M,,*5D
05/31/2014	02:06:11.581	$GPGGA,020612,2536.0842,N,07937.6688,W,1,7,2.2,15,M,,M,,*52
05/31/2014	02:06:12.571	$GPGGA,020613,2536.0849,N,07937.6691,W,1,7,2.2,15,M,,M,,*50
05/31/2014	02:06:13.592	$GPGGA,020614,2536.0855,N,07937.6691,W,1,7,2.2,15,M,,M,,*5A
05/31/2014	02:06:14.571	$GPGGA,020615,2536.0862,N,07937.6694,W,1,7,2.2,15,M,,M,,*5A
05/31/2014	02:06:15.591	$GPGGA,020616,2536.0871,N,07937.6693,W,1,7,2.2,15,M,,M,,*5C
05/31/2014	02:06:16.561	$GPGGA,020617,2536.0876,N,07937.6695,W,1,8,2.1,15,M,,M,,*50
05/31/2014	02:06:17.571	$GPGGA,020618,2536.0886,N,07937.6696,W,1,8,2.2,14,M,,M,,*51
05/31/2014	02:06:18.591	$GPGGA,020619,2536.0891,N,07937.6698,W,1,8,2.1,14,M,,M,,*5B
05/31/2014	02:06:19.561	$GPGGA,020620,2536.0898,N,07937.6699,W,1,8,2.2,14,M,,M,,*5A
05/31/2014	02:06:20.570	$GPGGA,020621,2536.0905,N,07937.6701,W,1,7,2.2,14,M,,M,,*51
05/31/2014	02:06:21.550	$GPGGA,020622,2536.0911,N,07937.6702,W,1,7,2.2,14,M,,M,,*54
05/31/2014	02:06:22.570	$GPGGA,020623,2536.0918,N,07937.6703,W,1,7,2.2,14,M,,M,,*5D
05/31/2014	02:06:23.560	$GPGGA,020624,2536.0925,N,07937.6705,W,1,7,2.2,14,M,,M,,*52
05/31/2014	02:06:24.561	$GPGGA,020625,2536.0930,N,07937.6706,W,1,7,2.2,14,M,,M,,*54
05/31/2014	02:06:25.549	$GPGGA,020626,2536.0938,N,07937.6709,W,1,7,2.2,14,M,,M,,*50
05/31/2014	02:06:26.539	$GPGGA,020627,2536.0944,N,07937.6709,W,1,7,2.2,14,M,,M,,*5A
05/31/2014	02:06:27.539	$GPGGA,020628,2536.0949,N,07937.6712,W,1,7,2.2,14,M,,M,,*52
05/31/2014	02:06:28.559	$GPGGA,020629,2536.0956,N,07937.6713,W,1,7,2.2,14,M,,M,,*5C
05/31/2014	02:06:29.529	$GPGGA,020630,2536.0963,N,07937.6714,W,1,7,2.2,14,M,,M,,*55
05/31/2014	02:06:30.569	$GPGGA,020631,2536.0970,N,07937.6716,W,1,7,2.2,14,M,,M,,*54
05/31/2014	02:06:31.539	$GPGGA,020632,2536.0980,N,07937.6716,W,1,7,2.2,14,M,,M,,*58
05/31/2014	02:06:32.529	$GPGGA,020633,2536.0987,N,07937.6717,W,1,8,2.1,14,M,,M,,*53
05/31/2014	02:06:33.519	$GPGGA,020634,2536.0992,N,07937.6720,W,1,8,2.2,13,M,,M,,*50
05/31/2014	02:06:34.539	$GPGGA,020635,2536.0999,N,07937.6721,W,1,7,2.2,13,M,,M,,*54
05/31/2014	02:06:35.529	$GPGGA,020636,2536.1006,N,07937.6723,W,1,7,2.2,13,M,,M,,*5B
05/31/2014	02:06:36.499	$GPGGA,020637,2536.1013,N,07937.6723,W,1,7,2.2,13,M,,M,,*5E
05/31/2014	02:06:37.518	$GPGGA,020638,2536.1021,N,07937.6725,W,1,7,2.1,13,M,,M,,*55
05/31/2014	02:06:38.548	$GPGGA,020639,2536.1027,N,07937.6727,W,1,7,2.2,13,M,,M,,*53
05/31/2014	02:06:39.519	$GPGGA,020640,2536.1035,N,07937.6727,W,1,7,2.2,13,M,,M,,*5E
05/31/2014	02:06:40.518	$GPGGA,020641,2536.1042,N,07937.6730,W,1,8,2.1,13,M,,M,,*55
05/31/2014	02:06:41.498	$GPGGA,020642,2536.1048,N,07937.6731,W,1,8,2.2,13,M,,M,,*5E
05/31/2014	02:06:42.509	$GPGGA,020643,2536.1055,N,07937.6732,W,1,7,2.2,13,M,,M,,*5F
05/31/2014	02:06:43.499	$GPGGA,020644,2536.1060,N,07937.6734,W,1,7,2.1,13,M,,M,,*5B
05/31/2014	02:06:44.489	$GPGGA,020645,2536.1067,N,07937.6735,W,1,7,2.2,13,M,,M,,*5F
05/31/2014	02:06:45.579	$GPGGA,020646,2536.1075,N,07937.6736,W,1,7,2.2,13,M,,M,,*5C
05/31/2014	02:06:46.499	$GPGGA,020647,2536.1082,N,07937.6738,W,1,8,2.1,13,M,,M,,*57
05/31/2014	02:06:47.609	$GPGGA,020648,2536.1091,N,07937.6738,W,1,8,2.1,13,M,,M,,*5A
05/31/2014	02:06:48.499	$GPGGA,020649,2536.1097,N,07937.6741,W,1,8,2.1,13,M,,M,,*53
05/31/2014	02:06:49.489	$GPGGA,020650,2536.1106,N,07937.6742,W,1,8,2.1,13,M,,M,,*51
05/31/2014	02:06:50.621	$GPGGA,020651,2536.1113,N,07937.6743,W,1,8,2.1,13,M,,M,,*55
05/31/2014	02:06:51.610	$GPGGA,020652,2536.1120,N,07937.6745,W,1,8,2.1,13,M,,M,,*50
05/31/2014	02:06:52.589	$GPGGA,020653,2536.1126,N,07937.6748,W,1,8,2.1,13,M,,M,,*5A
05/31/2014	02:06:53.479	$GPGGA,020654,2536.1133,N,07937.6749,W,1,8,2.1,13,M,,M,,*58
05/31/2014	02:06:54.478	$GPGGA,020655,2536.1140,N,07937.6750,W,1,8,2.1,13,M,,M,,*55
05/31/2014	02:06:55.488	$GPGGA,020656,2536.1147,N,07937.6752,W,1,8,2.1,13,M,,M,,*53
05/31/2014	02:06:56.578	$GPGGA,020657,2536.1154,N,07937.6754,W,1,8,2.1,13,M,,M,,*56
05/31/2014	02:06:57.468	$GPGGA,020658,2536.1161,N,07937.6754,W,1,8,2.1,13,M,,M,,*5F
05/31/2014	02:06:58.588	$GPGGA,020659,2536.1169,N,07937.6756,W,1,8,2.1,13,M,,M,,*54
05/31/2014	02:06:59.598	$GPGGA,020700,2536.1176,N,07937.6757,W,1,8,2.1,13,M,,M,,*56
05/31/2014	02:07:00.569	$GPGGA,020701,2536.1182,N,07937.6759,W,1,8,2.1,13,M,,M,,*52
05/31/2014	02:07:01.549	$GPGGA,020702,2536.1189,N,07937.6760,W,1,8,2.1,13,M,,M,,*50
05/31/2014	02:07:02.579	$GPGGA,020703,2536.1196,N,07937.6761,W,1,8,2.1,13,M,,M,,*5E
05/31/2014	02:07:03.569	$GPGGA,020704,2536.1203,N,07937.6763,W,1,8,2.1,13,M,,M,,*54
05/31/2014	02:07:04.539	$GPGGA,020705,2536.1208,N,07937.6764,W,1,8,2.1,13,M,,M,,*59
05/31/2014	02:07:05.549	$GPGGA,020706,2536.1216,N,07937.6766,W,1,8,2.1,13,M,,M,,*57
05/31/2014	02:07:06.560	$GPGGA,020707,2536.1223,N,07937.6767,W,1,8,2.1,13,M,,M,,*51
05/31/2014	02:07:07.559	$GPGGA,020708,2536.1229,N,07937.6768,W,1,8,2.1,13,M,,M,,*5B
05/31/2014	02:07:08.539	$GPGGA,020709,2536.1236,N,07937.6770,W,1,8,2.1,13,M,,M,,*5D
05/31/2014	02:07:09.539	$GPGGA,020710,2536.1241,N,07937.6770,W,1,8,2.1,13,M,,M,,*55
05/31/2014	02:07:10.559	$GPGGA,020711,2536.1248,N,07937.6771,W,1,8,2.1,12,M,,M,,*5D
05/31/2014	02:07:11.539	$GPGGA,020712,2536.1255,N,07937.6777,W,1,8,2.2,12,M,,M,,*57
05/31/2014	02:07:12.548	$GPGGA,020713,2536.1263,N,07937.6776,W,1,8,2.1,12,M,,M,,*51
05/31/2014	02:07:13.538	$GPGGA,020714,2536.1270,N,07937.6777,W,1,8,2.1,12,M,,M,,*55
05/31/2014	02:07:14.538	$GPGGA,020715,2536.1276,N,07937.6778,W,1,8,2.1,12,M,,M,,*5D
05/31/2014	02:07:15.548	$GPGGA,020716,2536.1283,N,07937.6777,W,1,8,2.1,12,M,,M,,*5B
05/31/2014	02:07:16.548	$GPGGA,020717,2536.1288,N,07937.6778,W,1,8,2.1,12,M,,M,,*5E
05/31/2014	02:07:17.529	$GPGGA,020718,2536.1295,N,07937.6778,W,1,8,2.1,12,M,,M,,*5D
05/31/2014	02:07:18.539	$GPGGA,020719,2536.1302,N,07937.6779,W,1,8,2.1,12,M,,M,,*52
05/31/2014	02:07:19.539	$GPGGA,020720,2536.1309,N,07937.6782,W,1,8,2.1,12,M,,M,,*57
05/31/2014	02:07:20.549	$GPGGA,020721,2536.1316,N,07937.6785,W,1,7,2.2,12,M,,M,,*53
05/31/2014	02:07:21.509	$GPGGA,020722,2536.1323,N,07937.6785,W,1,7,2.2,12,M,,M,,*56
05/31/2014	02:07:22.519	$GPGGA,020723,2536.1328,N,07937.6788,W,1,8,2.1,12,M,,M,,*5D
05/31/2014	02:07:23.529	$GPGGA,020724,2536.1335,N,07937.6789,W,1,8,2.1,12,M,,M,,*57
05/31/2014	02:07:24.539	$GPGGA,020725,2536.1342,N,07937.6790,W,1,8,2.1,12,M,,M,,*5E
05/31/2014	02:07:25.519	$GPGGA,020726,2536.1349,N,07937.6792,W,1,8,2.1,12,M,,M,,*54
05/31/2014	02:07:26.499	$GPGGA,020727,2536.1356,N,07937.6796,W,1,8,2.1,12,M,,M,,*5F
05/31/2014	02:07:27.529	$GPGGA,020728,2536.1362,N,07937.6797,W,1,8,2.1,12,M,,M,,*56
05/31/2014	02:07:28.499	$GPGGA,020729,2536.1368,N,07937.6800,W,1,7,2.2,12,M,,M,,*50
05/31/2014	02:07:29.508	$GPGGA,020730,2536.1375,N,07937.6803,W,1,7,2.1,12,M,,M,,*54
05/31/2014	02:07:30.528	$GPGGA,020731,2536.1382,N,07937.6804,W,1,8,2.1,12,M,,M,,*55
05/31/2014	02:07:31.508	$GPGGA,020732,2536.1389,N,07937.6806,W,1,8,2.2,12,M,,M,,*5C
05/31/2014	02:07:32.678	$GPGGA,020733,2536.1395,N,07937.6806,W,1,8,2.1,12,M,,M,,*53
05/31/2014	02:07:33.488	$GPGGA,020734,2536.1402,N,07937.6810,W,1,8,2.1,12,M,,M,,*5A
05/31/2014	02:07:34.668	$GPGGA,020735,2536.1409,N,07937.6810,W,1,7,2.1,12,M,,M,,*5F
05/31/2014	02:07:35.499	$GPGGA,020736,2536.1414,N,07937.6813,W,1,7,2.1,12,M,,M,,*53
05/31/2014	02:07:36.479	$GPGGA,020737,2536.1422,N,07937.6814,W,1,8,2.1,12,M,,M,,*5F
05/31/2014	02:07:37.579	$GPGGA,020738,2536.1429,N,07937.6817,W,1,8,2.2,12,M,,M,,*5B
05/31/2014	02:07:38.479	$GPGGA,020739,2536.1436,N,07937.6817,W,1,7,2.2,12,M,,M,,*5B
05/31/2014	02:07:39.629	$GPGGA,020740,2536.1443,N,07937.6819,W,1,7,2.2,12,M,,M,,*59
05/31/2014	02:07:40.619	$GPGGA,020741,2536.1450,N,07937.6821,W,1,8,2.2,12,M,,M,,*5E
05/31/2014	02:07:41.569	$GPGGA,020742,2536.1458,N,07937.6822,W,1,8,2.2,12,M,,M,,*56
05/31/2014	02:07:42.669	$GPGGA,020743,2536.1465,N,07937.6824,W,1,7,2.2,12,M,,M,,*50
05/31/2014	02:07:43.619	$GPGGA,020744,2536.1472,N,07937.6825,W,1,7,2.2,12,M,,M,,*50
05/31/2014	02:07:44.649	$GPGGA,020745,2536.1479,N,07937.6826,W,1,7,2.2,12,M,,M,,*59
05/31/2014	02:07:45.470	$GPGGA,020746,2536.1486,N,07937.6828,W,1,7,2.2,12,M,,M,,*54
05/31/2014	02:07:46.470	$GPGGA,020747,2536.1493,N,07937.6829,W,1,7,2.2,12,M,,M,,*50
05/31/2014	02:07:47.598	$GPGGA,020748,2536.1500,N,07937.6831,W,1,7,2.2,12,M,,M,,*5D
05/31/2014	02:07:48.658	$GPGGA,020749,2536.1505,N,07937.6832,W,1,7,2.2,12,M,,M,,*5A
05/31/2014	02:07:49.598	$GPGGA,020750,2536.1512,N,07937.6835,W,1,7,2.2,12,M,,M,,*53
05/31/2014	02:07:50.648	$GPGGA,020751,2536.1519,N,07937.6835,W,1,7,2.2,12,M,,M,,*59
05/31/2014	02:07:51.618	$GPGGA,020752,2536.1526,N,07937.6836,W,1,7,2.2,12,M,,M,,*55
05/31/2014	02:07:52.659	$GPGGA,020753,2536.1534,N,07937.6837,W,1,7,2.2,12,M,,M,,*56
05/31/2014	02:07:53.549	$GPGGA,020754,2536.1540,N,07937.6840,W,1,7,2.2,12,M,,M,,*52
05/31/2014	02:07:54.609	$GPGGA,020755,2536.1547,N,07937.6840,W,1,7,2.2,12,M,,M,,*54
05/31/2014	02:07:55.549	$GPGGA,020756,2536.1554,N,07937.6842,W,1,7,2.2,12,M,,M,,*57
05/31/2014	02:07:56.649	$GPGGA,020757,2536.1559,N,07937.6846,W,1,8,2.1,12,M,,M,,*53
05/31/2014	02:07:57.539	$GPGGA,020758,2536.1566,N,07937.6846,W,1,8,2.2,12,M,,M,,*53
05/31/2014	02:07:58.649	$GPGGA,020759,2536.1573,N,07937.6847,W,1,7,2.2,12,M,,M,,*58
05/31/2014	02:07:59.579	$GPGGA,020800,2536.1580,N,07937.6850,W,1,7,2.2,12,M,,M,,*51
05/31/2014	02:08:00.549	$GPGGA,020801,2536.1586,N,07937.6851,W,1,7,2.2,12,M,,M,,*57
05/31/2014	02:08:01.559	$GPGGA,020802,2536.1591,N,07937.6853,W,1,7,2.2,12,M,,M,,*50
05/31/2014	02:08:02.639	$GPGGA,020803,2536.1599,N,07937.6854,W,1,7,2.2,12,M,,M,,*5E
05/31/2014	02:08:03.560	$GPGGA,020804,2536.1605,N,07937.6855,W,1,7,2.2,12,M,,M,,*5E
05/31/2014	02:08:04.522	$GPGGA,020805,2536.1612,N,07937.6857,W,1,7,2.2,12,M,,M,,*5B
05/31/2014	02:08:05.548	$GPGGA,020806,2536.1613,N,07937.6860,W,1,7,3.4,12,M,,M,,*5A
05/31/2014	02:08:06.518	$GPGGA,020807,2536.1617,N,07937.6859,W,1,7,2.2,12,M,,M,,*52
05/31/2014	02:08:07.568	$GPGGA,020808,2536.1622,N,07937.6861,W,1,7,2.1,13,M,,M,,*52
05/31/2014	02:08:08.638	$GPGGA,020809,2536.1628,N,07937.6864,W,1,8,3.4,13,M,,M,,*57
05/31/2014	02:08:09.509	$GPGGA,020810,2536.1635,N,07937.6863,W,1,8,3.4,13,M,,M,,*54
05/31/2014	02:08:10.509	$GPGGA,020811,2536.1641,N,07937.6866,W,1,7,2.2,13,M,,M,,*5B
05/31/2014	02:08:11.559	$GPGGA,020812,2536.1646,N,07937.6868,W,1,7,2.2,14,M,,M,,*56
05/31/2014	02:08:12.609	$GPGGA,020813,2536.1651,N,07937.6866,W,1,7,2.1,14,M,,M,,*5C
05/31/2014	02:08:13.529	$GPGGA,020814,2536.1657,N,07937.6868,W,1,7,2.2,15,M,,M,,*51
05/31/2014	02:08:14.619	$GPGGA,020815,2536.1664,N,07937.6866,W,1,7,2.2,15,M,,M,,*5E
05/31/2014	02:08:15.549	$GPGGA,020816,2536.1667,N,07937.6865,W,1,7,2.6,15,M,,M,,*59
05/31/2014	02:08:16.599	$GPGGA,020817,2536.1674,N,07937.6868,W,1,7,2.2,16,M,,M,,*50
05/31/2014	02:08:17.529	$GPGGA,020818,2536.1678,N,07937.6871,W,1,7,2.2,16,M,,M,,*5B
05/31/2014	02:08:18.609	$GPGGA,020819,2536.1688,N,07937.6872,W,1,8,3.4,16,M,,M,,*5E
05/31/2014	02:08:19.510	$GPGGA,020820,2536.1692,N,07937.6875,W,1,8,3.4,16,M,,M,,*58
05/31/2014	02:08:20.609	$GPGGA,020821,2536.1700,N,07937.6878,W,1,7,3.4,17,M,,M,,*50
05/31/2014	02:08:21.519	$GPGGA,020822,2536.1707,N,07937.6879,W,1,7,2.2,17,M,,M,,*52
05/31/2014	02:08:22.588	$GPGGA,020823,2536.1711,N,07937.6882,W,1,7,2.2,17,M,,M,,*50
05/31/2014	02:08:23.528	$GPGGA,020824,2536.1717,N,07937.6882,W,1,7,2.2,17,M,,M,,*51
05/31/2014	02:08:24.618	$GPGGA,020825,2536.1721,N,07937.6884,W,1,7,2.2,18,M,,M,,*5C
05/31/2014	02:08:25.523	$GPGGA,020826,2536.1729,N,07937.6886,W,1,7,2.2,18,M,,M,,*55
05/31/2014	02:08:26.588	$GPGGA,020827,2536.1735,N,07937.6886,W,1,7,2.2,18,M,,M,,*59
05/31/2014	02:08:27.539	$GPGGA,020828,2536.1743,N,07937.6889,W,1,7,2.2,18,M,,M,,*58
05/31/2014	02:08:28.569	$GPGGA,020829,2536.1751,N,07937.6890,W,1,7,3.4,18,M,,M,,*55
05/31/2014	02:08:29.589	$GPGGA,020830,2536.1757,N,07937.6893,W,1,7,2.2,18,M,,M,,*5F
05/31/2014	02:08:30.559	$GPGGA,020831,2536.1764,N,07937.6894,W,1,7,2.2,18,M,,M,,*59
05/31/2014	02:08:31.479	$GPGGA,020832,2536.1772,N,07937.6897,W,1,7,2.2,18,M,,M,,*5E
05/31/2014	02:08:32.469	$GPGGA,020833,2536.1779,N,07937.6898,W,1,6,3.4,18,M,,M,,*5D
05/31/2014	02:08:33.499	$GPGGA,020834,2536.1786,N,07937.6900,W,1,6,2.2,18,M,,M,,*5D
05/31/2014	02:08:34.609	$GPGGA,020835,2536.1793,N,07937.6901,W,1,7,2.2,18,M,,M,,*58
05/31/2014	02:08:35.509	$GPGGA,020836,2536.1800,N,07937.6904,W,1,7,2.2,18,M,,M,,*5B
05/31/2014	02:08:36.569	$GPGGA,020837,2536.1807,N,07937.6905,W,1,7,2.2,18,M,,M,,*5C
05/31/2014	02:08:37.559	$GPGGA,020838,2536.1815,N,07937.6907,W,1,7,2.2,18,M,,M,,*52
05/31/2014	02:08:38.579	$GPGGA,020839,2536.1822,N,07937.6908,W,1,7,2.2,18,M,,M,,*58
05/31/2014	02:08:39.568	$GPGGA,020840,2536.1829,N,07937.6908,W,1,7,2.7,18,M,,M,,*58
05/31/2014	02:08:40.598	$GPGGA,020841,2536.1836,N,07937.6908,W,1,6,2.2,18,M,,M,,*53
05/31/2014	02:08:41.548	$GPGGA,020842,2536.1844,N,07937.6908,W,1,6,2.2,18,M,,M,,*55
05/31/2014	02:08:42.568	$GPGGA,020843,2536.1852,N,07937.6908,W,1,7,2.2,18,M,,M,,*52
05/31/2014	02:08:43.578	$GPGGA,020844,2536.1859,N,07937.6907,W,1,7,2.2,18,M,,M,,*51
05/31/2014	02:08:44.618	$GPGGA,020845,2536.1866,N,07937.6908,W,1,7,2.2,18,M,,M,,*53
05/31/2014	02:08:45.539	$GPGGA,020846,2536.1873,N,07937.6908,W,1,7,2.2,17,M,,M,,*5B
05/31/2014	02:08:46.609	$GPGGA,020847,2536.1880,N,07937.6908,W,1,7,2.1,17,M,,M,,*55
05/31/2014	02:08:47.559	$GPGGA,020848,2536.1887,N,07937.6907,W,1,7,2.2,17,M,,M,,*51
05/31/2014	02:08:48.569	$GPGGA,020849,2536.1895,N,07937.6908,W,1,7,2.2,17,M,,M,,*5C
05/31/2014	02:08:49.539	$GPGGA,020850,2536.1901,N,07937.6911,W,1,7,2.2,17,M,,M,,*50
05/31/2014	02:08:50.549	$GPGGA,020851,2536.1901,N,07937.6911,W,1,7,2.2,17,M,,M,,*51
05/31/2014	02:08:51.549	$GPGGA,020852,2536.1920,N,07937.6913,W,1,7,2.6,16,M,,M,,*56
05/31/2014	02:08:52.549	$GPGGA,020853,2536.1928,N,07937.6915,W,1,7,2.2,16,M,,M,,*5D
05/31/2014	02:08:53.519	$GPGGA,020854,2536.1935,N,07937.6915,W,1,7,2.2,16,M,,M,,*56
05/31/2014	02:08:54.549	$GPGGA,020855,2536.1935,N,07937.6915,W,1,7,2.6,16,M,,M,,*53
05/31/2014	02:08:55.539	$GPGGA,020856,2536.1949,N,07937.6916,W,1,7,2.2,15,M,,M,,*5F
05/31/2014	02:08:56.559	$GPGGA,020857,2536.1956,N,07937.6918,W,1,7,2.2,15,M,,M,,*5E
05/31/2014	02:08:57.518	$GPGGA,020858,2536.1964,N,07937.6918,W,1,7,2.2,15,M,,M,,*50
05/31/2014	02:08:58.548	$GPGGA,020859,2536.1964,N,07937.6918,W,1,7,2.2,14,M,,M,,*50
05/31/2014	02:08:59.548	$GPGGA,020900,2536.1977,N,07937.6919,W,1,7,2.2,14,M,,M,,*5E
05/31/2014	02:09:00.548	$GPGGA,020901,2536.1982,N,07937.6922,W,1,7,2.2,14,M,,M,,*5D
05/31/2014	02:09:01.519	$GPGGA,020902,2536.1989,N,07937.6923,W,1,7,2.2,14,M,,M,,*54
05/31/2014	02:09:02.639	$GPGGA,020903,2536.1996,N,07937.6925,W,1,7,2.2,13,M,,M,,*5A
05/31/2014	02:09:03.521	$GPGGA,020904,2536.2002,N,07937.6926,W,1,7,3.4,13,M,,M,,*5E
05/31/2014	02:09:04.569	$GPGGA,020905,2536.2009,N,07937.6926,W,1,7,2.2,13,M,,M,,*53
05/31/2014	02:09:05.519	$GPGGA,020906,2536.2014,N,07937.6927,W,1,7,2.2,13,M,,M,,*5D
05/31/2014	02:09:06.569	$GPGGA,020907,2536.2021,N,07937.6929,W,1,7,2.2,13,M,,M,,*54
05/31/2014	02:09:07.529	$GPGGA,020908,2536.2029,N,07937.6930,W,1,7,3.4,12,M,,M,,*5D
05/31/2014	02:09:08.569	$GPGGA,020909,2536.2039,N,07937.6933,W,1,6,2.2,12,M,,M,,*58
05/31/2014	02:09:09.589	$GPGGA,020910,2536.2046,N,07937.6936,W,1,6,2.2,12,M,,M,,*5D
05/31/2014	02:09:10.559	$GPGGA,020911,2536.2050,N,07937.6936,W,1,6,2.2,12,M,,M,,*5B
05/31/2014	02:09:11.509	$GPGGA,020912,2536.2057,N,07937.6938,W,1,6,2.2,12,M,,M,,*51
05/31/2014	02:09:12.500	$GPGGA,020913,2536.2057,N,07937.6938,W,1,7,2.2,12,M,,M,,*51
05/31/2014	02:09:13.499	$GPGGA,020914,2536.2071,N,07937.6940,W,1,7,2.2,12,M,,M,,*5D
05/31/2014	02:09:14.518	$GPGGA,020915,2536.2078,N,07937.6943,W,1,7,2.2,12,M,,M,,*56
05/31/2014	02:09:15.508	$GPGGA,020916,2536.2083,N,07937.6940,W,1,7,2.7,12,M,,M,,*57
05/31/2014	02:09:16.618	$GPGGA,020917,2536.2090,N,07937.6940,W,1,7,2.2,11,M,,M,,*52
05/31/2014	02:09:17.488	$GPGGA,020918,2536.2097,N,07937.6943,W,1,7,2.2,11,M,,M,,*59
05/31/2014	02:09:18.478	$GPGGA,020919,2536.2097,N,07937.6943,W,1,6,2.7,11,M,,M,,*5C
05/31/2014	02:09:19.578	$GPGGA,020920,2536.2110,N,07937.6939,W,1,6,2.2,11,M,,M,,*50
05/31/2014	02:09:20.489	$GPGGA,020921,2536.2110,N,07937.6939,W,1,7,2.2,11,M,,M,,*50
05/31/2014	02:09:21.569	$GPGGA,020922,2536.2122,N,07937.6940,W,1,7,2.2,11,M,,M,,*5C
05/31/2014	02:09:22.579	$GPGGA,020923,2536.2130,N,07937.6940,W,1,7,2.2,11,M,,M,,*5E
05/31/2014	02:09:23.589	$GPGGA,020924,2536.2136,N,07937.6941,W,1,7,2.2,11,M,,M,,*5E
05/31/2014	02:09:24.599	$GPGGA,020925,2536.2136,N,07937.6941,W,1,7,2.2,10,M,,M,,*5E
05/31/2014	02:09:25.569	$GPGGA,020926,2536.2148,N,07937.6945,W,1,7,2.2,10,M,,M,,*50
05/31/2014	02:09:26.549	$GPGGA,020927,2536.2155,N,07937.6947,W,1,7,2.2,10,M,,M,,*5F
05/31/2014	02:09:27.579	$GPGGA,020928,2536.2162,N,07937.6948,W,1,7,2.2,10,M,,M,,*5B
05/31/2014	02:09:28.579	$GPGGA,020929,2536.2169,N,07937.6951,W,1,7,2.2,10,M,,M,,*59
05/31/2014	02:09:29.549	$GPGGA,020930,2536.2176,N,07937.6951,W,1,7,2.2,10,M,,M,,*5F
05/31/2014	02:09:30.559	$GPGGA,020931,2536.2182,N,07937.6954,W,1,7,2.2,10,M,,M,,*50
05/31/2014	02:09:31.559	$GPGGA,020932,2536.2190,N,07937.6955,W,1,7,2.2,10,M,,M,,*51
05/31/2014	02:09:32.548	$GPGGA,020933,2536.2195,N,07937.6958,W,1,7,2.2,10,M,,M,,*58
05/31/2014	02:09:33.538	$GPGGA,020934,2536.2202,N,07937.6958,W,1,7,2.2,10,M,,M,,*52
05/31/2014	02:09:34.558	$GPGGA,020935,2536.2209,N,07937.6959,W,1,7,2.2,9,M,,M,,*61
05/31/2014	02:09:35.558	$GPGGA,020936,2536.2216,N,07937.6962,W,1,7,2.2,9,M,,M,,*64
05/31/2014	02:09:36.558	$GPGGA,020937,2536.2223,N,07937.6963,W,1,7,2.2,9,M,,M,,*62
05/31/2014	02:09:37.539	$GPGGA,020938,2536.2230,N,07937.6965,W,1,7,2.2,9,M,,M,,*69
05/31/2014	02:09:38.529	$GPGGA,020939,2536.2237,N,07937.6966,W,1,7,2.2,9,M,,M,,*6C
05/31/2014	02:09:39.539	$GPGGA,020940,2536.2244,N,07937.6969,W,1,7,2.2,9,M,,M,,*69
05/31/2014	02:09:40.519	$GPGGA,020941,2536.2251,N,07937.6969,W,1,7,2.2,9,M,,M,,*6C
05/31/2014	02:09:41.519	$GPGGA,020942,2536.2256,N,07937.6972,W,1,7,2.2,9,M,,M,,*62
05/31/2014	02:09:42.539	$GPGGA,020943,2536.2263,N,07937.6973,W,1,7,2.2,9,M,,M,,*64
05/31/2014	02:09:43.529	$GPGGA,020944,2536.2271,N,07937.6976,W,1,7,2.2,9,M,,M,,*65
05/31/2014	02:09:44.559	$GPGGA,020945,2536.2278,N,07937.6977,W,1,7,2.2,9,M,,M,,*6C
05/31/2014	02:09:45.523	$GPGGA,020946,2536.2284,N,07937.6980,W,1,7,2.2,9,M,,M,,*64
05/31/2014	02:09:46.549	$GPGGA,020947,2536.2291,N,07937.6980,W,1,7,2.2,9,M,,M,,*61
05/31/2014	02:09:47.530	$GPGGA,020948,2536.2298,N,07937.6983,W,1,7,2.1,9,M,,M,,*67
05/31/2014	02:09:48.509	$GPGGA,020949,2536.2305,N,07937.6983,W,1,8,2.1,9,M,,M,,*6C
05/31/2014	02:09:49.518	$GPGGA,020950,2536.2311,N,07937.6987,W,1,8,2.1,9,M,,M,,*65
05/31/2014	02:09:50.528	$GPGGA,020951,2536.2318,N,07937.6987,W,1,8,2.1,9,M,,M,,*6D
05/31/2014	02:09:51.518	$GPGGA,020952,2536.2325,N,07937.6990,W,1,8,2.1,9,M,,M,,*66
05/31/2014	02:09:52.528	$GPGGA,020953,2536.2332,N,07937.6991,W,1,8,2.1,9,M,,M,,*60
05/31/2014	02:09:53.508	$GPGGA,020954,2536.2339,N,07937.6994,W,1,8,2.1,9,M,,M,,*69
05/31/2014	02:09:54.528	$GPGGA,020955,2536.2346,N,07937.6995,W,1,8,2.1,9,M,,M,,*61
05/31/2014	02:09:55.499	$GPGGA,020956,2536.2353,N,07937.6998,W,1,8,2.1,9,M,,M,,*6B
05/31/2014	02:09:56.610	$GPGGA,020957,2536.2359,N,07937.7001,W,1,8,2.1,9,M,,M,,*68
05/31/2014	02:09:57.489	$GPGGA,020958,2536.2367,N,07937.7002,W,1,8,2.1,9,M,,M,,*69
05/31/2014	02:09:58.619	$GPGGA,020959,2536.2374,N,07937.7005,W,1,7,2.2,9,M,,M,,*61
05/31/2014	02:09:59.529	$GPGGA,021000,2536.2379,N,07937.7008,W,1,7,2.1,9,M,,M,,*66
05/31/2014	02:10:00.599	$GPGGA,021001,2536.2386,N,07937.7009,W,1,8,2.1,8,M,,M,,*68
05/31/2014	02:10:01.479	$GPGGA,021002,2536.2393,N,07937.7009,W,1,8,2.2,8,M,,M,,*6C
05/31/2014	02:10:02.479	$GPGGA,021003,2536.2400,N,07937.7010,W,1,8,2.1,8,M,,M,,*6B
05/31/2014	02:10:03.489	$GPGGA,021004,2536.2407,N,07937.7012,W,1,8,2.1,8,M,,M,,*69
05/31/2014	02:10:04.489	$GPGGA,021005,2536.2414,N,07937.7013,W,1,8,2.1,8,M,,M,,*6B
05/31/2014	02:10:05.570	$GPGGA,021006,2536.2421,N,07937.7014,W,1,8,2.1,9,M,,M,,*68
05/31/2014	02:10:06.489	$GPGGA,021007,2536.2426,N,07937.7017,W,1,8,2.1,9,M,,M,,*6D
05/31/2014	02:10:07.498	$GPGGA,021008,2536.2433,N,07937.7020,W,1,8,2.1,9,M,,M,,*62
05/31/2014	02:10:08.568	$GPGGA,021009,2536.2440,N,07937.7020,W,1,8,2.1,9,M,,M,,*67
05/31/2014	02:10:09.468	$GPGGA,021010,2536.2447,N,07937.7023,W,1,8,2.1,9,M,,M,,*6B
05/31/2014	02:10:10.598	$GPGGA,021011,2536.2454,N,07937.7025,W,1,8,2.1,9,M,,M,,*6E
05/31/2014	02:10:11.568	$GPGGA,021012,2536.2461,N,07937.7027,W,1,8,2.2,9,M,,M,,*6A
05/31/2014	02:10:12.569	$GPGGA,021013,2536.2468,N,07937.7030,W,1,7,2.2,9,M,,M,,*6B
05/31/2014	02:10:13.559	$GPGGA,021014,2536.2475,N,07937.7031,W,1,7,2.2,9,M,,M,,*61
05/31/2014	02:10:14.549	$GPGGA,021015,2536.2480,N,07937.7034,W,1,8,2.1,9,M,,M,,*63
05/31/2014	02:10:15.559	$GPGGA,021016,2536.2487,N,07937.7035,W,1,8,2.2,9,M,,M,,*65
05/31/2014	02:10:16.569	$GPGGA,021017,2536.2495,N,07937.7038,W,1,7,2.2,9,M,,M,,*65
05/31/2014	02:10:17.549	$GPGGA,021018,2536.2502,N,07937.7038,W,1,7,2.2,9,M,,M,,*65
05/31/2014	02:10:18.569	$GPGGA,021019,2536.2509,N,07937.7041,W,1,7,2.2,9,M,,M,,*61
05/31/2014	02:10:19.559	$GPGGA,021020,2536.2516,N,07937.7042,W,1,7,2.2,9,M,,M,,*66
05/31/2014	02:10:20.569	$GPGGA,021021,2536.2522,N,07937.7045,W,1,7,2.2,9,M,,M,,*67
05/31/2014	02:10:21.539	$GPGGA,021022,2536.2529,N,07937.7045,W,1,7,2.2,9,M,,M,,*6F
05/31/2014	02:10:22.559	$GPGGA,021023,2536.2536,N,07937.7048,W,1,7,2.2,9,M,,M,,*6D
05/31/2014	02:10:23.549	$GPGGA,021024,2536.2542,N,07937.7050,W,1,7,2.2,9,M,,M,,*60
05/31/2014	02:10:24.568	$GPGGA,021025,2536.2549,N,07937.7052,W,1,7,2.2,9,M,,M,,*68
05/31/2014	02:10:25.538	$GPGGA,021026,2536.2556,N,07937.7053,W,1,7,2.2,9,M,,M,,*64
05/31/2014	02:10:26.528	$GPGGA,021027,2536.2562,N,07937.7055,W,1,7,2.2,9,M,,M,,*64
05/31/2014	02:10:27.548	$GPGGA,021028,2536.2569,N,07937.7056,W,1,7,2.1,9,M,,M,,*60
05/31/2014	02:10:28.548	$GPGGA,021029,2536.2576,N,07937.7057,W,1,7,2.2,9,M,,M,,*6D
05/31/2014	02:10:29.528	$GPGGA,021030,2536.2581,N,07937.7060,W,1,7,2.2,9,M,,M,,*69
05/31/2014	02:10:30.549	$GPGGA,021031,2536.2589,N,07937.7063,W,1,7,2.2,9,M,,M,,*63
05/31/2014	02:10:31.539	$GPGGA,021032,2536.2596,N,07937.7063,W,1,7,2.2,9,M,,M,,*6E
05/31/2014	02:10:32.559	$GPGGA,021033,2536.2603,N,07937.7066,W,1,7,2.2,9,M,,M,,*65
05/31/2014	02:10:33.519	$GPGGA,021034,2536.2609,N,07937.7068,W,1,7,2.2,9,M,,M,,*66
05/31/2014	02:10:34.549	$GPGGA,021035,2536.2616,N,07937.7070,W,1,7,2.2,9,M,,M,,*60
05/31/2014	02:10:35.539	$GPGGA,021036,2536.2623,N,07937.7070,W,1,7,2.2,8,M,,M,,*64
05/31/2014	02:10:36.539	$GPGGA,021037,2536.2630,N,07937.7072,W,1,7,2.2,8,M,,M,,*65
05/31/2014	02:10:37.499	$GPGGA,021038,2536.2635,N,07937.7074,W,1,7,2.2,8,M,,M,,*69
05/31/2014	02:10:38.509	$GPGGA,021039,2536.2643,N,07937.7075,W,1,6,2.7,8,M,,M,,*6C
05/31/2014	02:10:39.511	$GPGGA,021040,2536.2650,N,07937.7077,W,1,6,2.7,8,M,,M,,*62
05/31/2014	02:10:40.629	$GPGGA,021041,2536.2657,N,07937.7078,W,1,7,2.2,8,M,,M,,*6F
05/31/2014	02:10:41.611	$GPGGA,021042,2536.2664,N,07937.7081,W,1,7,2.2,8,M,,M,,*6A
05/31/2014	02:10:42.518	$GPGGA,021043,2536.2672,N,07937.7080,W,1,8,2.1,8,M,,M,,*61
05/31/2014	02:10:43.508	$GPGGA,021044,2536.2678,N,07937.7084,W,1,8,2.1,8,M,,M,,*68
05/31/2014	02:10:44.588	$GPGGA,021045,2536.2683,N,07937.7085,W,1,7,2.2,8,M,,M,,*60
05/31/2014	02:10:45.498	$GPGGA,021046,2536.2690,N,07937.7088,W,1,7,2.2,8,M,,M,,*6C
05/31/2014	02:10:46.508	$GPGGA,021047,2536.2695,N,07937.7087,W,1,7,2.2,8,M,,M,,*67
05/31/2014	02:10:47.499	$GPGGA,021048,2536.2700,N,07937.7088,W,1,7,2.6,8,M,,M,,*6E
05/31/2014	02:10:48.479	$GPGGA,021049,2536.2706,N,07937.7088,W,1,7,2.6,8,M,,M,,*69
05/31/2014	02:10:49.579	$GPGGA,021050,2536.2711,N,07937.7089,W,1,7,2.6,8,M,,M,,*66
05/31/2014	02:10:50.499	$GPGGA,021051,2536.2718,N,07937.7090,W,1,7,2.2,8,M,,M,,*62
05/31/2014	02:10:51.489	$GPGGA,021052,2536.2726,N,07937.7092,W,1,7,3.4,8,M,,M,,*69
05/31/2014	02:10:52.569	$GPGGA,021053,2536.2732,N,07937.7095,W,1,7,2.3,8,M,,M,,*6C
05/31/2014	02:10:53.589	$GPGGA,021054,2536.2739,N,07937.7096,W,1,7,2.3,8,M,,M,,*63
05/31/2014	02:10:54.489	$GPGGA,021055,2536.2746,N,07937.7097,W,1,7,2.3,8,M,,M,,*6B
05/31/2014	02:10:55.499	$GPGGA,021056,2536.2751,N,07937.7099,W,1,7,2.3,8,M,,M,,*60
05/31/2014	02:10:56.609	$GPGGA,021057,2536.2758,N,07937.7102,W,1,7,2.3,8,M,,M,,*6B
05/31/2014	02:10:57.579	$GPGGA,021058,2536.2765,N,07937.7103,W,1,7,2.3,8,M,,M,,*6B
05/31/2014	02:10:58.469	$GPGGA,021059,2536.2772,N,07937.7104,W,1,7,2.3,8,M,,M,,*6B
05/31/2014	02:10:59.598	$GPGGA,021100,2536.2779,N,07937.7107,W,1,7,2.3,8,M,,M,,*6E
05/31/2014	02:11:00.578	$GPGGA,021101,2536.2784,N,07937.7108,W,1,6,3.4,8,M,,M,,*65
05/31/2014	02:11:01.558	$GPGGA,021102,2536.2791,N,07937.7110,W,1,6,2.3,8,M,,M,,*6D
05/31/2014	02:11:02.578	$GPGGA,021103,2536.2797,N,07937.7113,W,1,7,2.3,8,M,,M,,*68
05/31/2014	02:11:03.558	$GPGGA,021104,2536.2802,N,07937.7113,W,1,7,2.3,8,M,,M,,*6C
05/31/2014	02:11:04.568	$GPGGA,021105,2536.2809,N,07937.7115,W,1,7,2.3,8,M,,M,,*60
05/31/2014	02:11:05.549	$GPGGA,021106,2536.2815,N,07937.7117,W,1,7,2.1,8,M,,M,,*6E
05/31/2014	02:11:06.549	$GPGGA,021107,2536.2822,N,07937.7118,W,1,8,2.1,8,M,,M,,*6B
05/31/2014	02:11:07.559	$GPGGA,021108,2536.2827,N,07937.7120,W,1,8,2.3,8,M,,M,,*68
05/31/2014	02:11:08.569	$GPGGA,021109,2536.2834,N,07937.7122,W,1,7,2.3,8,M,,M,,*66
05/31/2014	02:11:09.549	$GPGGA,021110,2536.2840,N,07937.7125,W,1,7,2.1,8,M,,M,,*68
05/31/2014	02:11:10.559	$GPGGA,021111,2536.2845,N,07937.7126,W,1,8,2.1,9,M,,M,,*61
05/31/2014	02:11:11.559	$GPGGA,021112,2536.2852,N,07937.7128,W,1,8,2.1,9,M,,M,,*6A
05/31/2014	02:11:12.549	$GPGGA,021113,2536.2859,N,07937.7131,W,1,8,2.1,9,M,,M,,*68
05/31/2014	02:11:13.529	$GPGGA,021114,2536.2865,N,07937.7132,W,1,8,2.1,9,M,,M,,*63
05/31/2014	02:11:14.523	$GPGGA,021115,2536.2870,N,07937.7133,W,1,8,2.1,9,M,,M,,*67
05/31/2014	02:11:15.549	$GPGGA,021116,2536.2878,N,07937.7135,W,1,8,2.1,9,M,,M,,*6A
05/31/2014	02:11:16.524	$GPGGA,021117,2536.2884,N,07937.7137,W,1,8,2.1,9,M,,M,,*6A
05/31/2014	02:11:17.538	$GPGGA,021118,2536.2891,N,07937.7139,W,1,8,2.1,9,M,,M,,*6F
05/31/2014	02:11:18.558	$GPGGA,021119,2536.2898,N,07937.7139,W,1,8,2.1,9,M,,M,,*67
05/31/2014	02:11:19.548	$GPGGA,021120,2536.2905,N,07937.7142,W,1,8,2.1,9,M,,M,,*64
05/31/2014	02:11:20.548	$GPGGA,021121,2536.2912,N,07937.7143,W,1,8,2.1,9,M,,M,,*62
05/31/2014	02:11:21.518	$GPGGA,021122,2536.2919,N,07937.7144,W,1,8,2.1,10,M,,M,,*55
05/31/2014	02:11:22.550	$GPGGA,021123,2536.2924,N,07937.7147,W,1,8,2.1,10,M,,M,,*59
05/31/2014	02:11:23.529	$GPGGA,021124,2536.2932,N,07937.7149,W,1,8,2.1,10,M,,M,,*57
05/31/2014	02:11:24.539	$GPGGA,021125,2536.2939,N,07937.7150,W,1,8,2.1,10,M,,M,,*55
05/31/2014	02:11:25.509	$GPGGA,021126,2536.2946,N,07937.7153,W,1,8,2.1,10,M,,M,,*5D
05/31/2014	02:11:26.539	$GPGGA,021127,2536.2953,N,07937.7153,W,1,8,2.1,10,M,,M,,*58
05/31/2014	02:11:27.519	$GPGGA,021128,2536.2960,N,07937.7155,W,1,8,2.1,10,M,,M,,*51
05/31/2014	02:11:28.499	$GPGGA,021129,2536.2968,N,07937.7158,W,1,8,2.1,10,M,,M,,*55
05/31/2014	02:11:29.499	$GPGGA,021130,2536.2974,N,07937.7160,W,1,8,2.1,10,M,,M,,*5B
05/31/2014	02:11:30.489	$GPGGA,021131,2536.2981,N,07937.7161,W,1,8,2.1,10,M,,M,,*51
05/31/2014	02:11:31.520	$GPGGA,021132,2536.2988,N,07937.7164,W,1,8,2.1,10,M,,M,,*5E
05/31/2014	02:11:32.599	$GPGGA,021133,2536.2995,N,07937.7165,W,1,8,2.1,10,M,,M,,*52
05/31/2014	02:11:33.489	$GPGGA,021134,2536.3001,N,07937.7168,W,1,8,2.1,10,M,,M,,*5D
05/31/2014	02:11:34.598	$GPGGA,021135,2536.3008,N,07937.7169,W,1,8,2.1,10,M,,M,,*54
05/31/2014	02:11:35.508	$GPGGA,021136,2536.3015,N,07937.7171,W,1,8,2.1,10,M,,M,,*52
05/31/2014	02:11:36.508	$GPGGA,021137,2536.3022,N,07937.7173,W,1,8,2.1,10,M,,M,,*55
05/31/2014	02:11:37.478	$GPGGA,021138,2536.3029,N,07937.7175,W,1,8,2.1,10,M,,M,,*57
05/31/2014	02:11:38.478	$GPGGA,021139,2536.3036,N,07937.7178,W,1,8,2.1,10,M,,M,,*55
05/31/2014	02:11:39.508	$GPGGA,021140,2536.3043,N,07937.7179,W,1,8,2.1,10,M,,M,,*58
05/31/2014	02:11:40.499	$GPGGA,021141,2536.3050,N,07937.7182,W,1,8,2.1,10,M,,M,,*5F
05/31/2014	02:11:41.489	$GPGGA,021142,2536.3057,N,07937.7183,W,1,8,2.1,10,M,,M,,*5A
05/31/2014	02:11:42.579	$GPGGA,021143,2536.3064,N,07937.7186,W,1,8,2.1,10,M,,M,,*5E
05/31/2014	02:11:43.609	$GPGGA,021144,2536.3071,N,07937.7187,W,1,8,2.1,10,M,,M,,*5C
05/31/2014	02:11:44.589	$GPGGA,021145,2536.3078,N,07937.7189,W,1,8,2.1,10,M,,M,,*5A
05/31/2014	02:11:45.569	$GPGGA,021146,2536.3083,N,07937.7191,W,1,8,2.1,10,M,,M,,*54
05/31/2014	02:11:46.569	$GPGGA,021147,2536.3091,N,07937.7193,W,1,8,2.1,10,M,,M,,*54
05/31/2014	02:11:47.580	$GPGGA,021148,2536.3098,N,07937.7193,W,1,8,2.1,10,M,,M,,*52
05/31/2014	02:11:48.589	$GPGGA,021149,2536.3105,N,07937.7197,W,1,8,2.1,10,M,,M,,*52
05/31/2014	02:11:49.559	$GPGGA,021150,2536.3112,N,07937.7200,W,1,8,2.1,10,M,,M,,*51
