Software Version Number: 1	Data File Format Number: 1	Build Version Number: 1	Error Count Since VI Started: 0	Manufacturer: Raytheon	 Model Number: RayMarine 120	 S/N: 	 Cal Date: 	 Wind Direction Offset: 0.00	 Slope (M)1: 0.00	 Offset (B)1: 0.00	 Slope (M)2: 0.00	 Offset (B)2: 0.00	 Slope (M)3: 0.00	 Offset (B)3: 0.00	 Slope (M)4: 0.00	 Offset (B)4: 0.00	 Slope (M)5: 0.00	 Offset (B)5: 0.00	 Slope (M)6: 0.00	 Offset (B)6: 0.00
Computer Date	Computer Time	GGA String
06/13/2014	08:00:00.628	$GPGGA,080001,2458.4405,N,08014.6600,W,1,8,1.6,25,M,,M,,*52
06/13/2014	08:00:01.510	$GPGGA,080002,2458.4398,N,08014.6604,W,1,8,1.5,25,M,,M,,*55
06/13/2014	08:00:02.643	$GPGGA,080003,2458.4391,N,08014.6611,W,1,8,1.7,25,M,,M,,*5B
06/13/2014	08:00:03.743	$GPGGA,080004,2458.4382,N,08014.6618,W,1,8,1.8,25,M,,M,,*58
06/13/2014	08:00:04.639	$GPGGA,080005,2458.4375,N,08014.6623,W,1,9,1.5,25,M,,M,,*55
06/13/2014	08:00:05.621	$GPGGA,080006,2458.4368,N,08014.6630,W,1,9,1.5,25,M,,M,,*58
06/13/2014	08:00:06.634	$GPGGA,080007,2458.4361,N,08014.6637,W,1,7,1.8,25,M,,M,,*54
06/13/2014	08:00:07.637	$GPGGA,080008,2458.4351,N,08014.6640,W,1,7,1.5,25,M,,M,,*55
06/13/2014	08:00:08.629	$GPGGA,080009,2458.4343,N,08014.6647,W,1,9,1.5,25,M,,M,,*5E
06/13/2014	08:00:09.612	$GPGGA,080010,2458.4337,N,08014.6655,W,1,9,1.6,25,M,,M,,*55
06/13/2014	08:00:10.615	$GPGGA,080011,2458.4330,N,08014.6659,W,1,9,1.5,25,M,,M,,*5C
06/13/2014	08:00:11.638	$GPGGA,080012,2458.4321,N,08014.6663,W,1,9,1.5,25,M,,M,,*56
06/13/2014	08:00:12.640	$GPGGA,080013,2458.4314,N,08014.6670,W,1,9,1.5,25,M,,M,,*53
06/13/2014	08:00:13.613	$GPGGA,080014,2458.4307,N,08014.6678,W,1,9,1.6,25,M,,M,,*5D
06/13/2014	08:00:14.636	$GPGGA,080015,2458.4299,N,08014.6683,W,1,9,1.5,25,M,,M,,*5D
06/13/2014	08:00:15.638	$GPGGA,080016,2458.4292,N,08014.6687,W,1,9,1.5,24,M,,M,,*50
06/13/2014	08:00:16.640	$GPGGA,080017,2458.4283,N,08014.6694,W,1,8,1.8,24,M,,M,,*5F
06/13/2014	08:00:17.612	$GPGGA,080018,2458.4277,N,08014.6701,W,1,8,1.8,24,M,,M,,*56
06/13/2014	08:00:18.645	$GPGGA,080019,2458.4268,N,08014.6705,W,1,8,1.8,24,M,,M,,*5D
06/13/2014	08:00:19.638	$GPGGA,080020,2458.4259,N,08014.6709,W,1,8,1.8,24,M,,M,,*59
06/13/2014	08:00:20.641	$GPGGA,080021,2458.4252,N,08014.6716,W,1,8,1.8,24,M,,M,,*5D
06/13/2014	08:00:21.624	$GPGGA,080022,2458.4246,N,08014.6723,W,1,8,1.8,24,M,,M,,*5D
06/13/2014	08:00:22.646	$GPGGA,080023,2458.4238,N,08014.6728,W,1,8,1.8,24,M,,M,,*5E
06/13/2014	08:00:23.639	$GPGGA,080024,2458.4229,N,08014.6734,W,1,8,1.8,24,M,,M,,*54
06/13/2014	08:00:24.621	$GPGGA,080025,2458.4222,N,08014.6741,W,1,8,1.8,24,M,,M,,*5C
06/13/2014	08:00:25.634	$GPGGA,080026,2458.4213,N,08014.6748,W,1,8,1.8,24,M,,M,,*54
06/13/2014	08:00:26.641	$GPGGA,080027,2458.4206,N,08014.6752,W,1,7,1.9,24,M,,M,,*54
06/13/2014	08:00:27.649	$GPGGA,080028,2458.4198,N,08014.6759,W,1,7,1.8,23,M,,M,,*52
06/13/2014	08:00:28.662	$GPGGA,080029,2458.4191,N,08014.6764,W,1,8,1.8,23,M,,M,,*5B
06/13/2014	08:00:29.615	$GPGGA,080030,2458.4181,N,08014.6770,W,1,8,1.8,23,M,,M,,*57
06/13/2014	08:00:30.617	$GPGGA,080031,2458.4175,N,08014.6777,W,1,8,1.8,23,M,,M,,*5A
06/13/2014	08:00:31.650	$GPGGA,080032,2458.4167,N,08014.6785,W,1,8,1.8,23,M,,M,,*57
06/13/2014	08:00:32.763	$GPGGA,080033,2458.4158,N,08014.6789,W,1,8,1.8,23,M,,M,,*56
06/13/2014	08:00:33.636	$GPGGA,080034,2458.4149,N,08014.6796,W,1,8,1.8,23,M,,M,,*5F
06/13/2014	08:00:34.652	$GPGGA,080035,2458.4142,N,08014.6801,W,1,6,2.3,23,M,,M,,*52
06/13/2014	08:00:35.640	$GPGGA,080036,2458.4133,N,08014.6808,W,1,6,1.8,23,M,,M,,*56
06/13/2014	08:00:36.653	$GPGGA,080037,2458.4126,N,08014.6813,W,1,8,1.8,23,M,,M,,*57
06/13/2014	08:00:37.726	$GPGGA,080038,2458.4117,N,08014.6819,W,1,8,1.8,22,M,,M,,*51
06/13/2014	08:00:38.638	$GPGGA,080039,2458.4109,N,08014.6825,W,1,8,1.8,22,M,,M,,*50
06/13/2014	08:00:39.763	$GPGGA,080040,2458.4101,N,08014.6833,W,1,8,1.8,22,M,,M,,*51
06/13/2014	08:00:40.653	$GPGGA,080041,2458.4092,N,08014.6840,W,1,8,1.8,22,M,,M,,*5F
06/13/2014	08:00:41.626	$GPGGA,080042,2458.4082,N,08014.6847,W,1,8,1.8,22,M,,M,,*5A
06/13/2014	08:00:42.649	$GPGGA,080043,2458.4075,N,08014.6853,W,1,8,1.8,22,M,,M,,*56
06/13/2014	08:00:43.662	$GPGGA,080044,2458.4065,N,08014.6861,W,1,8,3.1,22,M,,M,,*5A
06/13/2014	08:00:44.654	$GPGGA,080045,2458.4057,N,08014.6868,W,1,8,1.8,22,M,,M,,*58
06/13/2014	08:00:45.648	$GPGGA,080046,2458.4050,N,08014.6872,W,1,8,1.8,22,M,,M,,*57
06/13/2014	08:00:46.490	$GPGGA,080047,2458.4040,N,08014.6879,W,1,8,1.8,22,M,,M,,*5C
06/13/2014	08:00:47.502	$GPGGA,080048,2458.4032,N,08014.6884,W,1,8,1.8,22,M,,M,,*54
06/13/2014	08:00:48.618	$GPGGA,080049,2458.4023,N,08014.6890,W,1,8,1.8,22,M,,M,,*50
06/13/2014	08:00:49.578	$GPGGA,080050,2458.4015,N,08014.6897,W,1,8,1.8,22,M,,M,,*5A
06/13/2014	08:00:50.591	$GPGGA,080051,2458.4007,N,08014.6904,W,1,8,1.8,23,M,,M,,*52
06/13/2014	08:00:51.593	$GPGGA,080052,2458.3998,N,08014.6909,W,1,8,1.7,23,M,,M,,*5B
06/13/2014	08:00:52.615	$GPGGA,080053,2458.3989,N,08014.6915,W,1,8,1.7,23,M,,M,,*57
06/13/2014	08:00:53.588	$GPGGA,080054,2458.3982,N,08014.6923,W,1,8,1.7,23,M,,M,,*5E
06/13/2014	08:00:54.590	$GPGGA,080055,2458.3974,N,08014.6929,W,1,8,1.7,23,M,,M,,*5C
06/13/2014	08:00:55.613	$GPGGA,080056,2458.3964,N,08014.6934,W,1,8,1.7,23,M,,M,,*52
06/13/2014	08:00:56.596	$GPGGA,080057,2458.3956,N,08014.6941,W,1,8,1.7,23,M,,M,,*50
06/13/2014	08:00:57.589	$GPGGA,080058,2458.3949,N,08014.6948,W,1,8,1.7,23,M,,M,,*58
06/13/2014	08:00:58.601	$GPGGA,080059,2458.3940,N,08014.6955,W,1,8,1.7,23,M,,M,,*5C
06/13/2014	08:00:59.604	$GPGGA,080100,2458.3932,N,08014.6962,W,1,8,1.7,23,M,,M,,*50
06/13/2014	08:01:00.607	$GPGGA,080101,2458.3923,N,08014.6967,W,1,8,1.7,23,M,,M,,*54
06/13/2014	08:01:01.579	$GPGGA,080102,2458.3915,N,08014.6973,W,1,8,1.7,23,M,,M,,*57
06/13/2014	08:01:02.612	$GPGGA,080103,2458.3907,N,08014.6980,W,1,8,1.7,23,M,,M,,*59
06/13/2014	08:01:03.595	$GPGGA,080104,2458.3899,N,08014.6987,W,1,8,1.7,23,M,,M,,*5F
06/13/2014	08:01:04.617	$GPGGA,080105,2458.3891,N,08014.6991,W,1,8,1.7,23,M,,M,,*51
06/13/2014	08:01:05.590	$GPGGA,080106,2458.3882,N,08014.6996,W,1,8,1.7,23,M,,M,,*57
06/13/2014	08:01:06.623	$GPGGA,080107,2458.3875,N,08014.7005,W,1,8,1.7,23,M,,M,,*5C
06/13/2014	08:01:07.605	$GPGGA,080108,2458.3866,N,08014.7009,W,1,8,1.7,23,M,,M,,*5D
06/13/2014	08:01:08.618	$GPGGA,080109,2458.3857,N,08014.7014,W,1,8,1.7,23,M,,M,,*52
06/13/2014	08:01:09.600	$GPGGA,080110,2458.3849,N,08014.7023,W,1,8,1.7,23,M,,M,,*51
06/13/2014	08:01:10.605	$GPGGA,080111,2458.3842,N,08014.7030,W,1,8,1.7,23,M,,M,,*59
06/13/2014	08:01:11.605	$GPGGA,080112,2458.3833,N,08014.7034,W,1,8,1.7,23,M,,M,,*58
06/13/2014	08:01:12.618	$GPGGA,080113,2458.3824,N,08014.7038,W,1,8,1.7,23,M,,M,,*53
06/13/2014	08:01:13.591	$GPGGA,080114,2458.3817,N,08014.7046,W,1,8,1.7,23,M,,M,,*5D
06/13/2014	08:01:14.623	$GPGGA,080115,2458.3809,N,08014.7053,W,1,8,1.7,23,M,,M,,*57
06/13/2014	08:01:15.616	$GPGGA,080116,2458.3801,N,08014.7057,W,1,8,1.7,23,M,,M,,*58
06/13/2014	08:01:16.599	$GPGGA,080117,2458.3791,N,08014.7064,W,1,8,1.7,23,M,,M,,*5F
06/13/2014	08:01:17.591	$GPGGA,080118,2458.3784,N,08014.7071,W,1,8,1.7,23,M,,M,,*50
06/13/2014	08:01:18.604	$GPGGA,080119,2458.3776,N,08014.7077,W,1,8,1.7,23,M,,M,,*5A
06/13/2014	08:01:19.637	$GPGGA,080120,2458.3768,N,08014.7082,W,1,8,1.7,23,M,,M,,*55
06/13/2014	08:01:20.620	$GPGGA,080121,2458.3759,N,08014.7088,W,1,8,1.7,23,M,,M,,*5C
06/13/2014	08:01:21.602	$GPGGA,080122,2458.3752,N,08014.7095,W,1,8,1.7,23,M,,M,,*58
06/13/2014	08:01:22.615	$GPGGA,080123,2458.3743,N,08014.7102,W,1,8,1.7,23,M,,M,,*56
06/13/2014	08:01:23.728	$GPGGA,080124,2458.3734,N,08014.7107,W,1,8,1.7,23,M,,M,,*54
06/13/2014	08:01:24.630	$GPGGA,080125,2458.3726,N,08014.7113,W,1,8,1.7,23,M,,M,,*53
06/13/2014	08:01:25.613	$GPGGA,080126,2458.3718,N,08014.7121,W,1,8,1.7,23,M,,M,,*5C
06/13/2014	08:01:26.595	$GPGGA,080127,2458.3710,N,08014.7125,W,1,8,1.7,23,M,,M,,*51
06/13/2014	08:01:27.627	$GPGGA,080128,2458.3701,N,08014.7132,W,1,8,1.7,23,M,,M,,*58
06/13/2014	08:01:28.630	$GPGGA,080129,2458.3692,N,08014.7139,W,1,8,1.7,23,M,,M,,*59
06/13/2014	08:01:29.713	$GPGGA,080130,2458.3685,N,08014.7144,W,1,8,1.7,23,M,,M,,*5D
06/13/2014	08:01:30.615	$GPGGA,080131,2458.3676,N,08014.7150,W,1,8,1.7,23,M,,M,,*55
06/13/2014	08:01:31.708	$GPGGA,080132,2458.3667,N,08014.7157,W,1,8,1.7,23,M,,M,,*51
06/13/2014	08:01:32.731	$GPGGA,080133,2458.3660,N,08014.7162,W,1,8,1.7,23,M,,M,,*51
06/13/2014	08:01:33.624	$GPGGA,080134,2458.3651,N,08014.7169,W,1,8,1.7,23,M,,M,,*5F
06/13/2014	08:01:34.626	$GPGGA,080135,2458.3644,N,08014.7173,W,1,8,3.1,23,M,,M,,*55
06/13/2014	08:01:35.709	$GPGGA,080136,2458.3635,N,08014.7180,W,1,8,3.1,23,M,,M,,*5C
06/13/2014	08:01:36.632	$GPGGA,080137,2458.3626,N,08014.7189,W,1,8,1.7,23,M,,M,,*52
06/13/2014	08:01:37.614	$GPGGA,080138,2458.3618,N,08014.7193,W,1,8,3.1,23,M,,M,,*5F
06/13/2014	08:01:38.707	$GPGGA,080139,2458.3609,N,08014.7200,W,1,7,1.7,23,M,,M,,*5C
06/13/2014	08:01:39.730	$GPGGA,080140,2458.3602,N,08014.7211,W,1,7,1.7,23,M,,M,,*59
06/13/2014	08:01:40.724	$GPGGA,080141,2458.3593,N,08014.7215,W,1,8,3.1,23,M,,M,,*5C
06/13/2014	08:01:41.715	$GPGGA,080142,2458.3586,N,08014.7218,W,1,8,3.1,23,M,,M,,*56
06/13/2014	08:01:42.718	$GPGGA,080143,2458.3578,N,08014.7225,W,1,7,1.7,23,M,,M,,*53
06/13/2014	08:01:43.721	$GPGGA,080144,2458.3571,N,08014.7232,W,1,7,1.7,23,M,,M,,*5B
06/13/2014	08:01:44.732	$GPGGA,080145,2458.3561,N,08014.7236,W,1,8,1.7,23,M,,M,,*50
06/13/2014	08:01:45.705	$GPGGA,080146,2458.3553,N,08014.7243,W,1,8,1.7,23,M,,M,,*50
06/13/2014	08:01:46.569	$GPGGA,080147,2458.3548,N,08014.7251,W,1,8,1.7,22,M,,M,,*59
06/13/2014	08:01:47.572	$GPGGA,080148,2458.3538,N,08014.7258,W,1,8,1.7,22,M,,M,,*58
06/13/2014	08:01:48.574	$GPGGA,080149,2458.3528,N,08014.7262,W,1,8,1.7,22,M,,M,,*51
06/13/2014	08:01:49.567	$GPGGA,080150,2458.3521,N,08014.7272,W,1,8,1.7,22,M,,M,,*51
06/13/2014	08:01:50.570	$GPGGA,080151,2458.3516,N,08014.7279,W,1,8,3.1,22,M,,M,,*5B
06/13/2014	08:01:51.572	$GPGGA,080152,2458.3506,N,08014.7283,W,1,8,3.1,22,M,,M,,*5C
06/13/2014	08:01:52.575	$GPGGA,080153,2458.3497,N,08014.7290,W,1,8,1.7,22,M,,M,,*52
06/13/2014	08:01:53.558	$GPGGA,080154,2458.3491,N,08014.7299,W,1,8,1.7,22,M,,M,,*5A
06/13/2014	08:01:54.580	$GPGGA,080155,2458.3483,N,08014.7308,W,1,8,1.7,22,M,,M,,*51
06/13/2014	08:01:55.573	$GPGGA,080156,2458.3474,N,08014.7312,W,1,8,1.8,22,M,,M,,*5E
06/13/2014	08:01:56.576	$GPGGA,080157,2458.3468,N,08014.7319,W,1,8,1.7,22,M,,M,,*56
06/13/2014	08:01:57.549	$GPGGA,080158,2458.3463,N,08014.7328,W,1,8,1.7,22,M,,M,,*50
06/13/2014	08:01:58.558	$GPGGA,080159,2458.3454,N,08014.7334,W,1,8,1.7,22,M,,M,,*58
06/13/2014	08:01:59.594	$GPGGA,080200,2458.3447,N,08014.7339,W,1,8,1.7,22,M,,M,,*58
06/13/2014	08:02:00.581	$GPGGA,080201,2458.3439,N,08014.7348,W,1,8,1.7,22,M,,M,,*56
06/13/2014	08:02:01.582	$GPGGA,080202,2458.3432,N,08014.7355,W,1,8,1.7,22,M,,M,,*52
06/13/2014	08:02:02.591	$GPGGA,080203,2458.3423,N,08014.7359,W,1,8,1.7,22,M,,M,,*5F
06/13/2014	08:02:03.586	$GPGGA,080204,2458.3416,N,08014.7366,W,1,8,1.7,22,M,,M,,*52
06/13/2014	08:02:04.596	$GPGGA,080205,2458.3409,N,08014.7374,W,1,8,1.7,22,M,,M,,*5E
06/13/2014	08:02:05.575	$GPGGA,080206,2458.3400,N,08014.7378,W,1,8,1.7,22,M,,M,,*58
06/13/2014	08:02:06.592	$GPGGA,080207,2458.3391,N,08014.7384,W,1,8,1.7,22,M,,M,,*55
06/13/2014	08:02:07.593	$GPGGA,080208,2458.3385,N,08014.7392,W,1,8,1.7,22,M,,M,,*58
06/13/2014	08:02:08.557	$GPGGA,080209,2458.3379,N,08014.7395,W,1,8,1.7,22,M,,M,,*5D
06/13/2014	08:02:09.583	$GPGGA,080210,2458.3369,N,08014.7400,W,1,8,3.1,22,M,,M,,*5B
06/13/2014	08:02:10.562	$GPGGA,080211,2458.3361,N,08014.7406,W,1,8,1.7,22,M,,M,,*50
06/13/2014	08:02:11.602	$GPGGA,080212,2458.3355,N,08014.7413,W,1,8,1.7,22,M,,M,,*50
06/13/2014	08:02:12.558	$GPGGA,080213,2458.3347,N,08014.7415,W,1,7,3.1,21,M,,M,,*5C
06/13/2014	08:02:13.581	$GPGGA,080214,2458.3340,N,08014.7420,W,1,7,3.1,21,M,,M,,*5A
06/13/2014	08:02:14.586	$GPGGA,080215,2458.3332,N,08014.7426,W,1,8,1.7,21,M,,M,,*53
06/13/2014	08:02:15.576	$GPGGA,080216,2458.3325,N,08014.7431,W,1,8,1.7,21,M,,M,,*50
06/13/2014	08:02:16.669	$GPGGA,080217,2458.3318,N,08014.7435,W,1,7,3.1,21,M,,M,,*50
06/13/2014	08:02:17.571	$GPGGA,080218,2458.3308,N,08014.7442,W,1,7,3.1,21,M,,M,,*5E
06/13/2014	08:02:18.574	$GPGGA,080219,2458.3299,N,08014.7451,W,1,8,1.7,21,M,,M,,*5F
06/13/2014	08:02:19.596	$GPGGA,080220,2458.3292,N,08014.7457,W,1,8,1.7,21,M,,M,,*58
06/13/2014	08:02:20.715	$GPGGA,080221,2458.3284,N,08014.7460,W,1,7,3.1,21,M,,M,,*51
06/13/2014	08:02:21.571	$GPGGA,080222,2458.3275,N,08014.7465,W,1,7,3.1,21,M,,M,,*59
06/13/2014	08:02:22.674	$GPGGA,080223,2458.3267,N,08014.7473,W,1,8,1.7,20,M,,M,,*56
06/13/2014	08:02:23.686	$GPGGA,080224,2458.3259,N,08014.7480,W,1,8,1.7,20,M,,M,,*50
06/13/2014	08:02:24.689	$GPGGA,080225,2458.3251,N,08014.7483,W,1,8,1.7,20,M,,M,,*5A
06/13/2014	08:02:25.581	$GPGGA,080226,2458.3242,N,08014.7489,W,1,8,3.1,20,M,,M,,*55
06/13/2014	08:02:26.704	$GPGGA,080227,2458.3233,N,08014.7497,W,1,8,1.7,20,M,,M,,*59
06/13/2014	08:02:27.597	$GPGGA,080228,2458.3224,N,08014.7507,W,1,8,1.7,20,M,,M,,*58
06/13/2014	08:02:28.680	$GPGGA,080229,2458.3217,N,08014.7511,W,1,8,1.7,20,M,,M,,*5E
06/13/2014	08:02:29.682	$GPGGA,080230,2458.3206,N,08014.7516,W,1,8,3.1,20,M,,M,,*55
06/13/2014	08:02:30.715	$GPGGA,080231,2458.3198,N,08014.7523,W,1,8,1.7,20,M,,M,,*52
06/13/2014	08:02:31.697	$GPGGA,080232,2458.3190,N,08014.7530,W,1,8,1.7,20,M,,M,,*5B
06/13/2014	08:02:32.680	$GPGGA,080233,2458.3183,N,08014.7534,W,1,8,1.7,20,M,,M,,*5C
06/13/2014	08:02:33.682	$GPGGA,080234,2458.3173,N,08014.7540,W,1,8,3.1,20,M,,M,,*53
06/13/2014	08:02:34.695	$GPGGA,080235,2458.3165,N,08014.7547,W,1,8,1.7,20,M,,M,,*56
06/13/2014	08:02:35.688	$GPGGA,080236,2458.3158,N,08014.7554,W,1,8,1.7,20,M,,M,,*59
06/13/2014	08:02:36.689	$GPGGA,080237,2458.3149,N,08014.7561,W,1,8,1.7,20,M,,M,,*5E
06/13/2014	08:02:37.692	$GPGGA,080238,2458.3138,N,08014.7568,W,1,8,1.7,20,M,,M,,*5E
06/13/2014	08:02:38.704	$GPGGA,080239,2458.3130,N,08014.7573,W,1,8,1.7,20,M,,M,,*5D
06/13/2014	08:02:39.697	$GPGGA,080240,2458.3123,N,08014.7583,W,1,8,1.7,20,M,,M,,*5E
06/13/2014	08:02:40.700	$GPGGA,080241,2458.3114,N,08014.7588,W,1,8,1.7,20,M,,M,,*50
06/13/2014	08:02:41.682	$GPGGA,080242,2458.3105,N,08014.7592,W,1,8,1.7,20,M,,M,,*58
06/13/2014	08:02:42.705	$GPGGA,080243,2458.3098,N,08014.7599,W,1,8,1.7,20,M,,M,,*57
06/13/2014	08:02:43.691	$GPGGA,080244,2458.3091,N,08014.7608,W,1,8,1.7,20,M,,M,,*52
06/13/2014	08:02:44.710	$GPGGA,080245,2458.3080,N,08014.7612,W,1,8,1.7,20,M,,M,,*58
06/13/2014	08:02:45.692	$GPGGA,080246,2458.3072,N,08014.7616,W,1,8,1.7,20,M,,M,,*52
06/13/2014	08:02:46.523	$GPGGA,080247,2458.3065,N,08014.7626,W,1,8,1.7,20,M,,M,,*56
06/13/2014	08:02:47.560	$GPGGA,080248,2458.3056,N,08014.7631,W,1,8,1.7,20,M,,M,,*5F
06/13/2014	08:02:48.553	$GPGGA,080249,2458.3047,N,08014.7635,W,1,8,1.7,20,M,,M,,*5A
06/13/2014	08:02:49.540	$GPGGA,080250,2458.3038,N,08014.7642,W,1,8,1.7,20,M,,M,,*5A
06/13/2014	08:02:50.569	$GPGGA,080251,2458.3031,N,08014.7650,W,1,8,1.7,21,M,,M,,*50
06/13/2014	08:02:51.546	$GPGGA,080252,2458.3024,N,08014.7656,W,1,8,1.7,21,M,,M,,*51
06/13/2014	08:02:52.546	$GPGGA,080253,2458.3013,N,08014.7662,W,1,8,1.7,21,M,,M,,*53
06/13/2014	08:02:53.538	$GPGGA,080254,2458.3006,N,08014.7667,W,1,8,1.7,21,M,,M,,*55
06/13/2014	08:02:54.539	$GPGGA,080255,2458.2999,N,08014.7675,W,1,8,1.7,21,M,,M,,*59
06/13/2014	08:02:55.550	$GPGGA,080256,2458.2990,N,08014.7682,W,1,8,1.7,21,M,,M,,*5B
06/13/2014	08:02:56.563	$GPGGA,080257,2458.2980,N,08014.7686,W,1,8,1.7,21,M,,M,,*5F
06/13/2014	08:02:57.545	$GPGGA,080258,2458.2972,N,08014.7692,W,1,8,1.7,21,M,,M,,*58
06/13/2014	08:02:58.538	$GPGGA,080259,2458.2966,N,08014.7702,W,1,8,1.7,21,M,,M,,*54
06/13/2014	08:02:59.561	$GPGGA,080300,2458.2959,N,08014.7703,W,1,8,1.7,21,M,,M,,*54
06/13/2014	08:03:00.553	$GPGGA,080301,2458.2948,N,08014.7710,W,1,7,3.0,21,M,,M,,*5D
06/13/2014	08:03:01.536	$GPGGA,080302,2458.2941,N,08014.7718,W,1,7,1.7,21,M,,M,,*5A
06/13/2014	08:03:02.528	$GPGGA,080303,2458.2932,N,08014.7727,W,1,8,1.7,21,M,,M,,*5C
06/13/2014	08:03:03.562	$GPGGA,080304,2458.2923,N,08014.7732,W,1,8,1.7,21,M,,M,,*5F
06/13/2014	08:03:04.533	$GPGGA,080305,2458.2914,N,08014.7738,W,1,8,1.7,21,M,,M,,*50
06/13/2014	08:03:05.657	$GPGGA,080306,2458.2906,N,08014.7745,W,1,8,1.7,21,M,,M,,*5A
06/13/2014	08:03:06.539	$GPGGA,080307,2458.2899,N,08014.7753,W,1,8,1.7,21,M,,M,,*5B
06/13/2014	08:03:07.692	$GPGGA,080308,2458.2890,N,08014.7757,W,1,8,1.7,21,M,,M,,*59
06/13/2014	08:03:08.544	$GPGGA,080309,2458.2881,N,08014.7762,W,1,8,1.7,21,M,,M,,*5E
06/13/2014	08:03:09.536	$GPGGA,080310,2458.2874,N,08014.7769,W,1,8,1.7,21,M,,M,,*57
06/13/2014	08:03:10.659	$GPGGA,080311,2458.2866,N,08014.7776,W,1,8,1.7,21,M,,M,,*5B
06/13/2014	08:03:11.571	$GPGGA,080312,2458.2858,N,08014.7782,W,1,8,1.7,21,M,,M,,*5E
06/13/2014	08:03:12.643	$GPGGA,080313,2458.2850,N,08014.7787,W,1,8,1.7,21,M,,M,,*52
06/13/2014	08:03:13.646	$GPGGA,080314,2458.2842,N,08014.7794,W,1,8,1.7,21,M,,M,,*54
06/13/2014	08:03:14.649	$GPGGA,080315,2458.2836,N,08014.7800,W,1,8,1.7,21,M,,M,,*54
06/13/2014	08:03:15.661	$GPGGA,080316,2458.2827,N,08014.7807,W,1,8,1.7,21,M,,M,,*50
06/13/2014	08:03:16.644	$GPGGA,080317,2458.2819,N,08014.7812,W,1,8,1.7,21,M,,M,,*58
06/13/2014	08:03:17.656	$GPGGA,080318,2458.2811,N,08014.7818,W,1,8,1.7,21,M,,M,,*55
06/13/2014	08:03:18.639	$GPGGA,080319,2458.2802,N,08014.7825,W,1,8,1.7,21,M,,M,,*58
06/13/2014	08:03:19.652	$GPGGA,080320,2458.2795,N,08014.7830,W,1,8,1.7,21,M,,M,,*57
06/13/2014	08:03:20.644	$GPGGA,080321,2458.2787,N,08014.7837,W,1,8,1.7,21,M,,M,,*52
06/13/2014	08:03:21.647	$GPGGA,080322,2458.2778,N,08014.7843,W,1,8,1.7,21,M,,M,,*52
06/13/2014	08:03:22.669	$GPGGA,080323,2458.2771,N,08014.7850,W,1,8,1.7,21,M,,M,,*58
06/13/2014	08:03:23.662	$GPGGA,080324,2458.2762,N,08014.7855,W,1,8,1.7,21,M,,M,,*58
06/13/2014	08:03:24.665	$GPGGA,080325,2458.2754,N,08014.7863,W,1,8,1.7,21,M,,M,,*59
06/13/2014	08:03:25.657	$GPGGA,080326,2458.2746,N,08014.7868,W,1,8,1.7,21,M,,M,,*52
06/13/2014	08:03:26.670	$GPGGA,080327,2458.2737,N,08014.7873,W,1,8,1.7,21,M,,M,,*5F
06/13/2014	08:03:27.662	$GPGGA,080328,2458.2730,N,08014.7880,W,1,8,1.7,21,M,,M,,*5B
06/13/2014	08:03:28.675	$GPGGA,080329,2458.2722,N,08014.7887,W,1,8,1.7,21,M,,M,,*5E
06/13/2014	08:03:29.657	$GPGGA,080330,2458.2713,N,08014.7894,W,1,8,1.7,21,M,,M,,*56
06/13/2014	08:03:30.649	$GPGGA,080331,2458.2706,N,08014.7899,W,1,8,1.7,21,M,,M,,*5E
06/13/2014	08:03:31.672	$GPGGA,080332,2458.2697,N,08014.7906,W,1,8,1.7,21,M,,M,,*53
06/13/2014	08:03:32.674	$GPGGA,080333,2458.2688,N,08014.7912,W,1,8,1.7,21,M,,M,,*59
06/13/2014	08:03:33.650	$GPGGA,080334,2458.2681,N,08014.7917,W,1,8,1.7,21,M,,M,,*52
06/13/2014	08:03:34.680	$GPGGA,080335,2458.2673,N,08014.7924,W,1,8,1.7,21,M,,M,,*5E
06/13/2014	08:03:35.672	$GPGGA,080336,2458.2664,N,08014.7930,W,1,8,1.7,21,M,,M,,*5E
06/13/2014	08:03:36.685	$GPGGA,080337,2458.2655,N,08014.7935,W,1,8,1.7,21,M,,M,,*58
06/13/2014	08:03:37.657	$GPGGA,080338,2458.2648,N,08014.7942,W,1,8,1.7,21,M,,M,,*5B
06/13/2014	08:03:38.690	$GPGGA,080339,2458.2639,N,08014.7949,W,1,8,1.7,21,M,,M,,*57
06/13/2014	08:03:39.663	$GPGGA,080340,2458.2630,N,08014.7955,W,1,8,1.7,21,M,,M,,*5D
06/13/2014	08:03:40.685	$GPGGA,080341,2458.2623,N,08014.7959,W,1,8,1.7,21,M,,M,,*52
06/13/2014	08:03:41.668	$GPGGA,080342,2458.2614,N,08014.7966,W,1,8,1.7,21,M,,M,,*59
06/13/2014	08:03:42.650	$GPGGA,080343,2458.2605,N,08014.7973,W,1,8,1.7,21,M,,M,,*5C
06/13/2014	08:03:43.683	$GPGGA,080344,2458.2598,N,08014.7977,W,1,8,1.7,21,M,,M,,*58
06/13/2014	08:03:44.656	$GPGGA,080345,2458.2589,N,08014.7984,W,1,8,1.7,21,M,,M,,*55
06/13/2014	08:03:45.671	$GPGGA,080346,2458.2581,N,08014.7991,W,1,8,1.7,21,M,,M,,*5A
06/13/2014	08:03:46.506	$GPGGA,080347,2458.2572,N,08014.7995,W,1,8,1.7,21,M,,M,,*53
06/13/2014	08:03:47.528	$GPGGA,080348,2458.2563,N,08014.8002,W,1,8,1.7,20,M,,M,,*55
06/13/2014	08:03:48.511	$GPGGA,080349,2458.2556,N,08014.8009,W,1,8,1.7,20,M,,M,,*59
06/13/2014	08:03:49.513	$GPGGA,080350,2458.2548,N,08014.8016,W,1,8,1.7,20,M,,M,,*50
06/13/2014	08:03:50.606	$GPGGA,080351,2458.2538,N,08014.8020,W,1,8,1.7,20,M,,M,,*53
06/13/2014	08:03:51.529	$GPGGA,080352,2458.2530,N,08014.8025,W,1,8,1.7,20,M,,M,,*5D
06/13/2014	08:03:52.534	$GPGGA,080353,2458.2522,N,08014.8033,W,1,8,1.7,20,M,,M,,*58
06/13/2014	08:03:53.504	$GPGGA,080354,2458.2514,N,08014.8039,W,1,8,1.7,20,M,,M,,*50
06/13/2014	08:03:54.697	$GPGGA,080355,2458.2506,N,08014.8042,W,1,8,1.7,20,M,,M,,*5E
06/13/2014	08:03:55.519	$GPGGA,080356,2458.2497,N,08014.8049,W,1,8,1.7,20,M,,M,,*5F
06/13/2014	08:03:56.512	$GPGGA,080357,2458.2489,N,08014.8056,W,1,8,1.7,20,M,,M,,*5F
06/13/2014	08:03:57.504	$GPGGA,080358,2458.2482,N,08014.8063,W,1,8,1.7,20,M,,M,,*5D
06/13/2014	08:03:58.697	$GPGGA,080359,2458.2472,N,08014.8067,W,1,8,1.7,20,M,,M,,*57
06/13/2014	08:03:59.549	$GPGGA,080400,2458.2464,N,08014.8072,W,1,8,1.7,20,M,,M,,*5F
06/13/2014	08:04:00.712	$GPGGA,080401,2458.2457,N,08014.8079,W,1,8,1.7,20,M,,M,,*55
06/13/2014	08:04:01.645	$GPGGA,080402,2458.2448,N,08014.8085,W,1,8,1.7,20,M,,M,,*5B
06/13/2014	08:04:02.718	$GPGGA,080403,2458.2439,N,08014.8090,W,1,8,1.7,20,M,,M,,*58
06/13/2014	08:04:03.670	$GPGGA,080404,2458.2431,N,08014.8096,W,1,8,1.7,20,M,,M,,*51
06/13/2014	08:04:04.722	$GPGGA,080405,2458.2424,N,08014.8103,W,1,8,1.7,20,M,,M,,*59
06/13/2014	08:04:05.664	$GPGGA,080406,2458.2415,N,08014.8108,W,1,8,1.7,20,M,,M,,*53
06/13/2014	08:04:06.707	$GPGGA,080407,2458.2406,N,08014.8114,W,1,8,1.7,20,M,,M,,*5D
06/13/2014	08:04:07.619	$GPGGA,080408,2458.2399,N,08014.8121,W,1,8,1.7,20,M,,M,,*55
06/13/2014	08:04:08.712	$GPGGA,080409,2458.2390,N,08014.8128,W,1,8,1.7,20,M,,M,,*54
06/13/2014	08:04:09.635	$GPGGA,080410,2458.2382,N,08014.8132,W,1,8,1.7,20,M,,M,,*54
06/13/2014	08:04:10.697	$GPGGA,080411,2458.2374,N,08014.8139,W,1,8,1.7,20,M,,M,,*57
06/13/2014	08:04:11.630	$GPGGA,080412,2458.2366,N,08014.8147,W,1,8,1.7,20,M,,M,,*5E
06/13/2014	08:04:12.612	$GPGGA,080413,2458.2359,N,08014.8151,W,1,8,1.7,20,M,,M,,*54
06/13/2014	08:04:13.665	$GPGGA,080414,2458.2350,N,08014.8158,W,1,8,1.7,20,M,,M,,*53
06/13/2014	08:04:14.708	$GPGGA,080415,2458.2342,N,08014.8165,W,1,8,1.7,20,M,,M,,*5F
06/13/2014	08:04:15.680	$GPGGA,080416,2458.2334,N,08014.8170,W,1,8,1.7,20,M,,M,,*59
06/13/2014	08:04:16.723	$GPGGA,080417,2458.2327,N,08014.8176,W,1,8,1.7,19,M,,M,,*56
06/13/2014	08:04:17.645	$GPGGA,080418,2458.2319,N,08014.8183,W,1,8,1.7,19,M,,M,,*5E
06/13/2014	08:04:18.688	$GPGGA,080419,2458.2310,N,08014.8188,W,1,8,1.7,19,M,,M,,*5D
06/13/2014	08:04:19.631	$GPGGA,080420,2458.2302,N,08014.8195,W,1,8,1.7,19,M,,M,,*58
06/13/2014	08:04:20.684	$GPGGA,080421,2458.2295,N,08014.8202,W,1,8,1.7,19,M,,M,,*5B
06/13/2014	08:04:22.948	$GPGGA,080423,2458.2278,N,08014.8215,W,1,7,1.8,19,M,,M,,*5C
06/13/2014	08:04:23.630	$GPGGA,080424,2458.2270,N,08014.8222,W,1,7,1.7,19,M,,M,,*58
06/13/2014	08:04:24.743	$GPGGA,080425,2458.2265,N,08014.8228,W,1,8,1.7,19,M,,M,,*58
06/13/2014	08:04:25.615	$GPGGA,080426,2458.2256,N,08014.8237,W,1,8,1.7,19,M,,M,,*55
06/13/2014	08:04:26.738	$GPGGA,080427,2458.2248,N,08014.8241,W,1,7,1.8,19,M,,M,,*5A
06/13/2014	08:04:27.630	$GPGGA,080428,2458.2242,N,08014.8248,W,1,7,1.7,19,M,,M,,*59
06/13/2014	08:04:28.703	$GPGGA,080429,2458.2236,N,08014.8255,W,1,8,1.7,19,M,,M,,*58
06/13/2014	08:04:29.625	$GPGGA,080430,2458.2229,N,08014.8262,W,1,8,1.7,19,M,,M,,*5A
06/13/2014	08:04:30.748	$GPGGA,080431,2458.2220,N,08014.8266,W,1,8,1.7,19,M,,M,,*56
06/13/2014	08:04:31.671	$GPGGA,080432,2458.2213,N,08014.8273,W,1,8,1.7,19,M,,M,,*51
06/13/2014	08:04:32.693	$GPGGA,080433,2458.2206,N,08014.8280,W,1,8,1.7,19,M,,M,,*58
06/13/2014	08:04:33.626	$GPGGA,080434,2458.2199,N,08014.8285,W,1,8,1.7,19,M,,M,,*5F
06/13/2014	08:04:34.719	$GPGGA,080435,2458.2191,N,08014.8291,W,1,8,1.7,19,M,,M,,*53
06/13/2014	08:04:35.631	$GPGGA,080436,2458.2184,N,08014.8298,W,1,8,1.7,19,M,,M,,*5D
06/13/2014	08:04:36.624	$GPGGA,080437,2458.2175,N,08014.8305,W,1,8,1.7,19,M,,M,,*57
06/13/2014	08:04:37.656	$GPGGA,080438,2458.2168,N,08014.8309,W,1,8,1.7,19,M,,M,,*58
06/13/2014	08:04:38.753	$GPGGA,080439,2458.2160,N,08014.8317,W,1,8,1.7,19,M,,M,,*5E
06/13/2014	08:04:39.671	$GPGGA,080440,2458.2152,N,08014.8324,W,1,8,1.7,19,M,,M,,*51
06/13/2014	08:04:40.763	$GPGGA,080441,2458.2143,N,08014.8328,W,1,8,1.7,19,M,,M,,*5C
06/13/2014	08:04:41.746	$GPGGA,080442,2458.2135,N,08014.8335,W,1,8,1.7,19,M,,M,,*52
06/13/2014	08:04:42.708	$GPGGA,080443,2458.2128,N,08014.8342,W,1,8,1.7,19,M,,M,,*5F
06/13/2014	08:04:43.761	$GPGGA,080444,2458.2119,N,08014.8347,W,1,8,1.7,19,M,,M,,*5F
06/13/2014	08:04:44.724	$GPGGA,080445,2458.2110,N,08014.8353,W,1,8,1.7,19,M,,M,,*52
06/13/2014	08:04:45.626	$GPGGA,080446,2458.2103,N,08014.8360,W,1,8,1.7,19,M,,M,,*53
06/13/2014	08:04:46.575	$GPGGA,080447,2458.2095,N,08014.8367,W,1,8,1.7,19,M,,M,,*5B
06/13/2014	08:04:47.597	$GPGGA,080448,2458.2085,N,08014.8372,W,1,8,1.7,19,M,,M,,*51
06/13/2014	08:04:48.640	$GPGGA,080449,2458.2077,N,08014.8378,W,1,8,1.7,19,M,,M,,*57
06/13/2014	08:04:49.593	$GPGGA,080450,2458.2070,N,08014.8386,W,1,8,1.7,19,M,,M,,*59
06/13/2014	08:04:50.585	$GPGGA,080451,2458.2061,N,08014.8392,W,1,8,1.7,19,M,,M,,*5D
06/13/2014	08:04:51.538	$GPGGA,080452,2458.2052,N,08014.8397,W,1,8,1.7,19,M,,M,,*5B
06/13/2014	08:04:52.633	$GPGGA,080453,2458.2045,N,08014.8404,W,1,8,1.7,19,M,,M,,*51
06/13/2014	08:04:53.593	$GPGGA,080454,2458.2036,N,08014.8410,W,1,8,1.7,19,M,,M,,*57
06/13/2014	08:04:54.596	$GPGGA,080455,2458.2028,N,08014.8418,W,1,8,1.7,19,M,,M,,*51
06/13/2014	08:04:55.599	$GPGGA,080456,2458.2020,N,08014.8423,W,1,8,1.7,19,M,,M,,*52
06/13/2014	08:04:56.600	$GPGGA,080457,2458.2010,N,08014.8429,W,1,8,1.7,19,M,,M,,*5A
06/13/2014	08:04:57.582	$GPGGA,080458,2458.2002,N,08014.8436,W,1,8,1.7,19,M,,M,,*58
06/13/2014	08:04:58.595	$GPGGA,080459,2458.1996,N,08014.8443,W,1,8,1.7,19,M,,M,,*5C
06/13/2014	08:04:59.608	$GPGGA,080500,2458.1987,N,08014.8450,W,1,8,1.7,19,M,,M,,*53
06/13/2014	08:05:00.610	$GPGGA,080501,2458.1977,N,08014.8454,W,1,8,1.7,19,M,,M,,*59
06/13/2014	08:05:01.583	$GPGGA,080502,2458.1971,N,08014.8462,W,1,8,1.7,19,M,,M,,*59
06/13/2014	08:05:02.625	$GPGGA,080503,2458.1964,N,08014.8470,W,1,8,1.7,19,M,,M,,*5F
06/13/2014	08:05:03.608	$GPGGA,080504,2458.1954,N,08014.8475,W,1,8,1.7,19,M,,M,,*5E
06/13/2014	08:05:04.621	$GPGGA,080505,2458.1946,N,08014.8479,W,1,8,1.7,19,M,,M,,*50
06/13/2014	08:05:05.583	$GPGGA,080506,2458.1941,N,08014.8487,W,1,8,1.7,19,M,,M,,*55
06/13/2014	08:05:06.636	$GPGGA,080507,2458.1933,N,08014.8493,W,1,8,1.7,19,M,,M,,*54
06/13/2014	08:05:07.598	$GPGGA,080508,2458.1923,N,08014.8497,W,1,8,1.7,19,M,,M,,*5E
06/13/2014	08:05:08.652	$GPGGA,080509,2458.1917,N,08014.8504,W,1,8,1.7,19,M,,M,,*53
06/13/2014	08:05:09.594	$GPGGA,080510,2458.1911,N,08014.8512,W,1,8,1.7,19,M,,M,,*5A
06/13/2014	08:05:10.616	$GPGGA,080511,2458.1902,N,08014.8516,W,1,8,1.7,19,M,,M,,*5D
06/13/2014	08:05:11.609	$GPGGA,080512,2458.1893,N,08014.8522,W,1,8,1.7,19,M,,M,,*50
06/13/2014	08:05:12.631	$GPGGA,080513,2458.1888,N,08014.8530,W,1,8,1.7,19,M,,M,,*58
06/13/2014	08:05:13.594	$GPGGA,080514,2458.1880,N,08014.8537,W,1,8,1.7,19,M,,M,,*50
06/13/2014	08:05:14.636	$GPGGA,080515,2458.1871,N,08014.8540,W,1,8,1.7,19,M,,M,,*5F
06/13/2014	08:05:15.608	$GPGGA,080516,2458.1864,N,08014.8548,W,1,8,1.7,19,M,,M,,*50
06/13/2014	08:05:16.641	$GPGGA,080517,2458.1857,N,08014.8553,W,1,8,1.7,19,M,,M,,*5B
06/13/2014	08:05:17.613	$GPGGA,080518,2458.1850,N,08014.8560,W,1,8,1.7,19,M,,M,,*53
06/13/2014	08:05:18.646	$GPGGA,080519,2458.1841,N,08014.8566,W,1,8,1.7,19,M,,M,,*54
06/13/2014	08:05:19.608	$GPGGA,080520,2458.1834,N,08014.8571,W,1,8,1.7,19,M,,M,,*5A
06/13/2014	08:05:20.651	$GPGGA,080521,2458.1826,N,08014.8578,W,1,8,1.7,19,M,,M,,*51
06/13/2014	08:05:21.615	$GPGGA,080522,2458.1819,N,08014.8584,W,1,8,1.7,19,M,,M,,*5D
06/13/2014	08:05:22.666	$GPGGA,080523,2458.1811,N,08014.8589,W,1,8,1.7,19,M,,M,,*59
06/13/2014	08:05:23.619	$GPGGA,080524,2458.1803,N,08014.8595,W,1,8,1.7,19,M,,M,,*50
06/13/2014	08:05:24.673	$GPGGA,080525,2458.1796,N,08014.8602,W,1,8,1.7,19,M,,M,,*5F
06/13/2014	08:05:25.628	$GPGGA,080526,2458.1789,N,08014.8609,W,1,8,1.7,19,M,,M,,*59
06/13/2014	08:05:26.677	$GPGGA,080527,2458.1781,N,08014.8613,W,1,8,1.7,19,M,,M,,*5B
06/13/2014	08:05:27.730	$GPGGA,080528,2458.1771,N,08014.8620,W,1,8,1.7,19,M,,M,,*5B
06/13/2014	08:05:28.632	$GPGGA,080529,2458.1771,N,08014.8620,W,1,8,1.7,19,M,,M,,*5A
06/13/2014	08:05:29.594	$GPGGA,080530,2458.1758,N,08014.8634,W,1,8,1.7,19,M,,M,,*5C
06/13/2014	08:05:30.677	$GPGGA,080531,2458.1750,N,08014.8638,W,1,7,1.7,19,M,,M,,*56
06/13/2014	08:05:31.629	$GPGGA,080532,2458.1745,N,08014.8645,W,1,7,1.7,19,M,,M,,*5B
06/13/2014	08:05:32.711	$GPGGA,080533,2458.1739,N,08014.8652,W,1,8,1.7,19,M,,M,,*58
06/13/2014	08:05:33.594	$GPGGA,080534,2458.1731,N,08014.8657,W,1,8,1.7,19,M,,M,,*52
06/13/2014	08:05:34.737	$GPGGA,080535,2458.1723,N,08014.8661,W,1,8,1.7,19,M,,M,,*55
06/13/2014	08:05:35.739	$GPGGA,080536,2458.1717,N,08014.8668,W,1,8,1.7,19,M,,M,,*58
06/13/2014	08:05:36.702	$GPGGA,080537,2458.1710,N,08014.8675,W,1,8,1.7,19,M,,M,,*52
06/13/2014	08:05:37.704	$GPGGA,080538,2458.1702,N,08014.8679,W,1,8,1.7,19,M,,M,,*52
06/13/2014	08:05:38.617	$GPGGA,080539,2458.1694,N,08014.8683,W,1,8,1.7,19,M,,M,,*58
06/13/2014	08:05:39.619	$GPGGA,080540,2458.1688,N,08014.8690,W,1,8,1.7,18,M,,M,,*58
06/13/2014	08:05:40.722	$GPGGA,080541,2458.1681,N,08014.8697,W,1,8,1.7,18,M,,M,,*57
06/13/2014	08:05:41.715	$GPGGA,080542,2458.1671,N,08014.8701,W,1,8,1.7,18,M,,M,,*55
06/13/2014	08:05:42.727	$GPGGA,080543,2458.1663,N,08014.8707,W,1,8,1.7,18,M,,M,,*51
06/13/2014	08:05:43.720	$GPGGA,080544,2458.1657,N,08014.8714,W,1,8,1.7,18,M,,M,,*53
06/13/2014	08:05:44.703	$GPGGA,080545,2458.1649,N,08014.8721,W,1,8,1.7,18,M,,M,,*5B
06/13/2014	08:05:45.705	$GPGGA,080546,2458.1640,N,08014.8725,W,1,8,1.7,18,M,,M,,*55
06/13/2014	08:05:46.564	$GPGGA,080547,2458.1633,N,08014.8730,W,1,8,1.7,18,M,,M,,*54
06/13/2014	08:05:47.576	$GPGGA,080548,2458.1626,N,08014.8736,W,1,8,1.7,18,M,,M,,*59
06/13/2014	08:05:48.569	$GPGGA,080549,2458.1618,N,08014.8743,W,1,8,1.7,18,M,,M,,*57
06/13/2014	08:05:49.561	$GPGGA,080550,2458.1610,N,08014.8747,W,1,8,1.7,18,M,,M,,*53
06/13/2014	08:05:50.573	$GPGGA,080551,2458.1604,N,08014.8750,W,1,8,1.7,18,M,,M,,*51
06/13/2014	08:05:51.576	$GPGGA,080552,2458.1594,N,08014.8759,W,1,8,2.9,18,M,,M,,*5C
06/13/2014	08:05:52.588	$GPGGA,080553,2458.1586,N,08014.8766,W,1,8,1.7,18,M,,M,,*5F
06/13/2014	08:05:53.561	$GPGGA,080554,2458.1576,N,08014.8772,W,1,8,1.7,18,M,,M,,*52
06/13/2014	08:05:54.554	$GPGGA,080555,2458.1568,N,08014.8779,W,1,8,1.7,18,M,,M,,*57
06/13/2014	08:05:55.596	$GPGGA,080556,2458.1561,N,08014.8786,W,1,8,1.7,18,M,,M,,*5D
06/13/2014	08:05:56.579	$GPGGA,080557,2458.1551,N,08014.8790,W,1,8,1.7,18,M,,M,,*58
06/13/2014	08:05:57.561	$GPGGA,080558,2458.1544,N,08014.8795,W,1,8,1.7,18,M,,M,,*56
06/13/2014	08:05:58.594	$GPGGA,080559,2458.1537,N,08014.8802,W,1,8,1.7,18,M,,M,,*52
06/13/2014	08:05:59.587	$GPGGA,080600,2458.1528,N,08014.8808,W,1,8,1.7,18,M,,M,,*59
06/13/2014	08:06:00.589	$GPGGA,080601,2458.1521,N,08014.8809,W,1,8,1.7,18,M,,M,,*50
06/13/2014	08:06:01.572	$GPGGA,080602,2458.1512,N,08014.8818,W,1,8,2.9,18,M,,M,,*5E
06/13/2014	08:06:02.594	$GPGGA,080603,2458.1507,N,08014.8824,W,1,8,1.7,18,M,,M,,*59
06/13/2014	08:06:03.587	$GPGGA,080604,2458.1496,N,08014.8829,W,1,8,1.7,18,M,,M,,*5A
06/13/2014	08:06:04.590	$GPGGA,080605,2458.1488,N,08014.8831,W,1,8,1.7,18,M,,M,,*5D
06/13/2014	08:06:05.562	$GPGGA,080606,2458.1482,N,08014.8837,W,1,8,2.9,18,M,,M,,*5F
06/13/2014	08:06:06.594	$GPGGA,080607,2458.1474,N,08014.8844,W,1,8,1.7,18,M,,M,,*5E
06/13/2014	08:06:07.586	$GPGGA,080608,2458.1465,N,08014.8849,W,1,8,1.7,18,M,,M,,*5C
06/13/2014	08:06:08.579	$GPGGA,080609,2458.1456,N,08014.8855,W,1,8,1.7,18,M,,M,,*50
06/13/2014	08:06:09.561	$GPGGA,080610,2458.1449,N,08014.8863,W,1,8,1.7,19,M,,M,,*52
06/13/2014	08:06:10.574	$GPGGA,080611,2458.1440,N,08014.8869,W,1,8,1.7,19,M,,M,,*50
06/13/2014	08:06:11.597	$GPGGA,080612,2458.1431,N,08014.8874,W,1,8,1.7,19,M,,M,,*59
06/13/2014	08:06:12.599	$GPGGA,080613,2458.1423,N,08014.8880,W,1,8,1.7,19,M,,M,,*50
06/13/2014	08:06:13.562	$GPGGA,080614,2458.1416,N,08014.8887,W,1,8,1.7,19,M,,M,,*56
06/13/2014	08:06:14.574	$GPGGA,080615,2458.1407,N,08014.8892,W,1,8,1.7,19,M,,M,,*53
06/13/2014	08:06:15.607	$GPGGA,080616,2458.1399,N,08014.8898,W,1,8,1.7,19,M,,M,,*5A
06/13/2014	08:06:16.600	$GPGGA,080617,2458.1391,N,08014.8905,W,1,8,1.7,19,M,,M,,*56
06/13/2014	08:06:17.572	$GPGGA,080618,2458.1384,N,08014.8912,W,1,8,1.7,19,M,,M,,*5B
06/13/2014	08:06:18.685	$GPGGA,080619,2458.1376,N,08014.8916,W,1,8,1.7,19,M,,M,,*53
06/13/2014	08:06:19.597	$GPGGA,080620,2458.1367,N,08014.8923,W,1,8,1.7,19,M,,M,,*5F
06/13/2014	08:06:20.580	$GPGGA,080621,2458.1360,N,08014.8931,W,1,8,1.7,19,M,,M,,*5A
06/13/2014	08:06:21.574	$GPGGA,080622,2458.1352,N,08014.8936,W,1,8,1.7,20,M,,M,,*55
06/13/2014	08:06:22.697	$GPGGA,080623,2458.1344,N,08014.8942,W,1,7,1.8,20,M,,M,,*50
06/13/2014	08:06:24.589	$GPGGA,080624,2458.1337,N,08014.8949,W,1,7,1.7,20,M,,M,,*57
06/13/2014	08:06:24.609	$GPGGA,080625,2458.1330,N,08014.8956,W,1,8,1.7,20,M,,M,,*50
06/13/2014	08:06:25.582	$GPGGA,080626,2458.1323,N,08014.8963,W,1,8,1.7,20,M,,M,,*57
06/13/2014	08:06:26.715	$GPGGA,080627,2458.1317,N,08014.8970,W,1,8,1.7,20,M,,M,,*53
06/13/2014	08:06:27.587	$GPGGA,080628,2458.1309,N,08014.8975,W,1,8,1.7,20,M,,M,,*56
06/13/2014	08:06:28.590	$GPGGA,080629,2458.1302,N,08014.8981,W,1,8,1.7,20,M,,M,,*57
06/13/2014	08:06:29.673	$GPGGA,080630,2458.1294,N,08014.8988,W,1,8,1.7,20,M,,M,,*58
06/13/2014	08:06:30.675	$GPGGA,080631,2458.1286,N,08014.8996,W,1,7,1.8,20,M,,M,,*55
06/13/2014	08:06:31.708	$GPGGA,080632,2458.1276,N,08014.9001,W,1,7,1.8,20,M,,M,,*5F
06/13/2014	08:06:32.720	$GPGGA,080633,2458.1268,N,08014.9007,W,1,7,1.8,20,M,,M,,*57
06/13/2014	08:06:33.673	$GPGGA,080634,2458.1261,N,08014.9014,W,1,7,1.7,20,M,,M,,*54
06/13/2014	08:06:34.696	$GPGGA,080635,2458.1254,N,08014.9022,W,1,8,1.7,20,M,,M,,*59
06/13/2014	08:06:35.698	$GPGGA,080636,2458.1245,N,08014.9028,W,1,8,1.8,20,M,,M,,*5F
06/13/2014	08:06:36.691	$GPGGA,080637,2458.1237,N,08014.9035,W,1,8,1.7,20,M,,M,,*58
06/13/2014	08:06:37.683	$GPGGA,080638,2458.1232,N,08014.9042,W,1,8,1.7,20,M,,M,,*52
06/13/2014	08:06:38.676	$GPGGA,080639,2458.1223,N,08014.9048,W,1,8,1.7,20,M,,M,,*59
06/13/2014	08:06:39.699	$GPGGA,080640,2458.1216,N,08014.9054,W,1,8,1.7,20,M,,M,,*5C
06/13/2014	08:06:40.701	$GPGGA,080641,2458.1208,N,08014.9061,W,1,8,1.7,20,M,,M,,*54
06/13/2014	08:06:41.693	$GPGGA,080642,2458.1201,N,08014.9068,W,1,8,1.7,20,M,,M,,*57
06/13/2014	08:06:42.705	$GPGGA,080643,2458.1193,N,08014.9075,W,1,8,1.7,20,M,,M,,*52
06/13/2014	08:06:43.688	$GPGGA,080644,2458.1185,N,08014.9080,W,1,8,1.7,20,M,,M,,*58
06/13/2014	08:06:44.711	$GPGGA,080645,2458.1178,N,08014.9087,W,1,8,1.7,20,M,,M,,*5C
06/13/2014	08:06:45.683	$GPGGA,080646,2458.1171,N,08014.9094,W,1,8,1.7,20,M,,M,,*54
06/13/2014	08:06:46.532	$GPGGA,080647,2458.1162,N,08014.9100,W,1,8,1.7,20,M,,M,,*5B
06/13/2014	08:06:47.554	$GPGGA,080648,2458.1153,N,08014.9107,W,1,8,1.7,20,M,,M,,*51
06/13/2014	08:06:48.546	$GPGGA,080649,2458.1144,N,08014.9113,W,1,8,1.7,20,M,,M,,*53
06/13/2014	08:06:49.536	$GPGGA,080650,2458.1138,N,08014.9120,W,1,8,1.7,20,M,,M,,*50
06/13/2014	08:06:50.572	$GPGGA,080651,2458.1129,N,08014.9127,W,1,8,1.7,20,M,,M,,*56
06/13/2014	08:06:51.546	$GPGGA,080652,2458.1120,N,08014.9131,W,1,8,1.7,20,M,,M,,*5B
06/13/2014	08:06:52.547	$GPGGA,080653,2458.1113,N,08014.9140,W,1,8,1.7,20,M,,M,,*5C
06/13/2014	08:06:53.547	$GPGGA,080654,2458.1105,N,08014.9147,W,1,8,1.7,20,M,,M,,*5B
06/13/2014	08:06:54.573	$GPGGA,080655,2458.1096,N,08014.9152,W,1,8,1.7,20,M,,M,,*55
06/13/2014	08:06:55.561	$GPGGA,080656,2458.1087,N,08014.9158,W,1,8,1.7,20,M,,M,,*5C
06/13/2014	08:06:56.578	$GPGGA,080657,2458.1080,N,08014.9162,W,1,8,1.7,20,M,,M,,*53
06/13/2014	08:06:57.562	$GPGGA,080658,2458.1073,N,08014.9171,W,1,8,2.9,20,M,,M,,*5F
06/13/2014	08:06:58.548	$GPGGA,080659,2458.1063,N,08014.9180,W,1,8,1.7,20,M,,M,,*5C
06/13/2014	08:06:59.567	$GPGGA,080700,2458.1052,N,08014.9185,W,1,8,1.7,20,M,,M,,*56
06/13/2014	08:07:00.559	$GPGGA,080701,2458.1045,N,08014.9194,W,1,8,1.7,20,M,,M,,*51
06/13/2014	08:07:01.554	$GPGGA,080702,2458.1037,N,08014.9202,W,1,8,1.7,20,M,,M,,*5B
06/13/2014	08:07:02.544	$GPGGA,080703,2458.1026,N,08014.9207,W,1,8,1.7,20,M,,M,,*5F
06/13/2014	08:07:03.570	$GPGGA,080704,2458.1019,N,08014.9214,W,1,8,1.7,21,M,,M,,*57
06/13/2014	08:07:04.563	$GPGGA,080705,2458.1012,N,08014.9223,W,1,8,1.7,21,M,,M,,*59
06/13/2014	08:07:05.540	$GPGGA,080706,2458.1001,N,08014.9227,W,1,8,1.7,21,M,,M,,*5C
06/13/2014	08:07:06.553	$GPGGA,080707,2458.0993,N,08014.9234,W,1,8,1.7,21,M,,M,,*5C
06/13/2014	08:07:07.578	$GPGGA,080708,2458.0986,N,08014.9242,W,1,8,1.7,21,M,,M,,*56
06/13/2014	08:07:08.573	$GPGGA,080709,2458.0977,N,08014.9248,W,1,8,1.7,21,M,,M,,*53
06/13/2014	08:07:09.651	$GPGGA,080710,2458.0968,N,08014.9252,W,1,8,1.7,21,M,,M,,*5E
06/13/2014	08:07:10.543	$GPGGA,080711,2458.0961,N,08014.9259,W,1,8,1.7,21,M,,M,,*5D
06/13/2014	08:07:11.566	$GPGGA,080712,2458.0952,N,08014.9266,W,1,8,1.7,21,M,,M,,*52
06/13/2014	08:07:12.548	$GPGGA,080713,2458.0944,N,08014.9270,W,1,8,1.7,22,M,,M,,*50
06/13/2014	08:07:13.561	$GPGGA,080714,2458.0936,N,08014.9275,W,1,8,1.7,22,M,,M,,*57
06/13/2014	08:07:14.644	$GPGGA,080715,2458.0927,N,08014.9281,W,1,8,1.7,22,M,,M,,*5D
06/13/2014	08:07:15.566	$GPGGA,080716,2458.0919,N,08014.9288,W,1,8,1.7,22,M,,M,,*5A
06/13/2014	08:07:16.648	$GPGGA,080717,2458.0912,N,08014.9295,W,1,8,1.7,22,M,,M,,*5C
06/13/2014	08:07:17.650	$GPGGA,080718,2458.0903,N,08014.9299,W,1,8,1.7,22,M,,M,,*5F
06/13/2014	08:07:18.643	$GPGGA,080719,2458.0894,N,08014.9304,W,1,8,1.7,22,M,,M,,*54
06/13/2014	08:07:19.656	$GPGGA,080720,2458.0887,N,08014.9310,W,1,8,1.7,22,M,,M,,*59
06/13/2014	08:07:20.658	$GPGGA,080721,2458.0879,N,08014.9317,W,1,8,1.7,22,M,,M,,*5E
06/13/2014	08:07:21.651	$GPGGA,080722,2458.0869,N,08014.9321,W,1,8,1.7,22,M,,M,,*59
06/13/2014	08:07:22.653	$GPGGA,080723,2458.0861,N,08014.9326,W,1,8,1.7,22,M,,M,,*57
06/13/2014	08:07:23.666	$GPGGA,080724,2458.0853,N,08014.9333,W,1,8,1.7,22,M,,M,,*55
06/13/2014	08:07:24.659	$GPGGA,080725,2458.0845,N,08014.9339,W,1,8,1.7,22,M,,M,,*59
06/13/2014	08:07:25.661	$GPGGA,080726,2458.0836,N,08014.9343,W,1,8,1.7,22,M,,M,,*53
06/13/2014	08:07:26.674	$GPGGA,080727,2458.0827,N,08014.9350,W,1,8,1.7,22,M,,M,,*50
06/13/2014	08:07:27.666	$GPGGA,080728,2458.0821,N,08014.9357,W,1,8,1.7,22,M,,M,,*5E
06/13/2014	08:07:28.669	$GPGGA,080729,2458.0811,N,08014.9361,W,1,8,1.7,22,M,,M,,*59
06/13/2014	08:07:29.662	$GPGGA,080730,2458.0802,N,08014.9368,W,1,8,1.7,22,M,,M,,*5A
06/13/2014	08:07:30.674	$GPGGA,080731,2458.0795,N,08014.9375,W,1,8,1.7,21,M,,M,,*55
06/13/2014	08:07:31.677	$GPGGA,080732,2458.0786,N,08014.9382,W,1,8,1.7,21,M,,M,,*5C
06/13/2014	08:07:32.679	$GPGGA,080733,2458.0777,N,08014.9386,W,1,8,1.7,21,M,,M,,*57
06/13/2014	08:07:33.662	$GPGGA,080734,2458.0770,N,08014.9393,W,1,8,1.7,21,M,,M,,*53
06/13/2014	08:07:34.674	$GPGGA,080735,2458.0762,N,08014.9400,W,1,8,1.7,21,M,,M,,*5C
06/13/2014	08:07:35.676	$GPGGA,080736,2458.0753,N,08014.9407,W,1,8,1.7,21,M,,M,,*5A
06/13/2014	08:07:36.689	$GPGGA,080737,2458.0745,N,08014.9412,W,1,8,1.7,21,M,,M,,*58
06/13/2014	08:07:37.666	$GPGGA,080738,2458.0737,N,08014.9419,W,1,8,1.7,21,M,,M,,*59
06/13/2014	08:07:38.694	$GPGGA,080739,2458.0730,N,08014.9426,W,1,8,1.7,21,M,,M,,*53
06/13/2014	08:07:39.671	$GPGGA,080740,2458.0721,N,08014.9433,W,1,8,1.7,21,M,,M,,*59
06/13/2014	08:07:40.699	$GPGGA,080741,2458.0713,N,08014.9438,W,1,8,1.7,21,M,,M,,*52
06/13/2014	08:07:41.664	$GPGGA,080742,2458.0704,N,08014.9444,W,1,8,1.7,21,M,,M,,*5C
06/13/2014	08:07:42.694	$GPGGA,080743,2458.0696,N,08014.9451,W,1,8,1.7,21,M,,M,,*53
06/13/2014	08:07:43.669	$GPGGA,080744,2458.0688,N,08014.9458,W,1,8,1.7,21,M,,M,,*52
06/13/2014	08:07:44.664	$GPGGA,080745,2458.0679,N,08014.9465,W,1,8,1.7,21,M,,M,,*53
06/13/2014	08:07:45.688	$GPGGA,080746,2458.0672,N,08014.9472,W,1,8,1.7,21,M,,M,,*5D
06/13/2014	08:07:46.529	$GPGGA,080747,2458.0665,N,08014.9478,W,1,8,1.7,21,M,,M,,*50
06/13/2014	08:07:47.523	$GPGGA,080748,2458.0656,N,08014.9484,W,1,8,1.7,21,M,,M,,*5C
06/13/2014	08:07:48.523	$GPGGA,080749,2458.0647,N,08014.9491,W,1,8,1.7,21,M,,M,,*59
06/13/2014	08:07:49.629	$GPGGA,080750,2458.0640,N,08014.9496,W,1,8,1.7,21,M,,M,,*51
06/13/2014	08:07:50.535	$GPGGA,080751,2458.0633,N,08014.9505,W,1,8,1.7,21,M,,M,,*5F
06/13/2014	08:07:51.643	$GPGGA,080752,2458.0626,N,08014.9509,W,1,8,1.7,21,M,,M,,*54
06/13/2014	08:07:52.525	$GPGGA,080753,2458.0619,N,08014.9514,W,1,7,2.9,21,M,,M,,*57
06/13/2014	08:07:53.518	$GPGGA,080754,2458.0611,N,08014.9520,W,1,7,1.7,21,M,,M,,*52
06/13/2014	08:07:54.510	$GPGGA,080755,2458.0604,N,08014.9528,W,1,8,1.7,21,M,,M,,*50
06/13/2014	08:07:55.643	$GPGGA,080756,2458.0596,N,08014.9534,W,1,8,1.7,21,M,,M,,*56
06/13/2014	08:07:56.626	$GPGGA,080757,2458.0587,N,08014.9541,W,1,8,1.7,21,M,,M,,*55
06/13/2014	08:07:57.518	$GPGGA,080758,2458.0582,N,08014.9548,W,1,8,1.7,21,M,,M,,*56
06/13/2014	08:07:58.511	$GPGGA,080759,2458.0573,N,08014.9555,W,1,7,2.9,20,M,,M,,*56
06/13/2014	08:07:59.543	$GPGGA,080800,2458.0564,N,08014.9559,W,1,7,1.7,20,M,,M,,*52
06/13/2014	08:08:00.636	$GPGGA,080801,2458.0556,N,08014.9566,W,1,8,1.7,20,M,,M,,*51
06/13/2014	08:08:01.519	$GPGGA,080802,2458.0549,N,08014.9572,W,1,8,1.7,20,M,,M,,*59
06/13/2014	08:08:02.531	$GPGGA,080803,2458.0542,N,08014.9579,W,1,8,1.7,20,M,,M,,*58
06/13/2014	08:08:03.624	$GPGGA,080804,2458.0533,N,08014.9586,W,1,8,1.7,20,M,,M,,*59
06/13/2014	08:08:04.617	$GPGGA,080805,2458.0526,N,08014.9592,W,1,8,1.7,20,M,,M,,*59
06/13/2014	08:08:05.629	$GPGGA,080806,2458.0517,N,08014.9597,W,1,8,2.9,20,M,,M,,*50
06/13/2014	08:08:06.632	$GPGGA,080807,2458.0510,N,08014.9603,W,1,8,1.7,20,M,,M,,*55
06/13/2014	08:08:07.634	$GPGGA,080808,2458.0504,N,08014.9608,W,1,8,2.9,19,M,,M,,*53
06/13/2014	08:08:08.646	$GPGGA,080809,2458.0495,N,08014.9613,W,1,7,2.9,19,M,,M,,*5E
06/13/2014	08:08:09.629	$GPGGA,080810,2458.0485,N,08014.9622,W,1,7,2.9,19,M,,M,,*55
06/13/2014	08:08:10.631	$GPGGA,080811,2458.0477,N,08014.9632,W,1,8,1.7,19,M,,M,,*5A
06/13/2014	08:08:11.644	$GPGGA,080812,2458.0467,N,08014.9640,W,1,8,1.7,19,M,,M,,*5D
06/13/2014	08:08:12.646	$GPGGA,080813,2458.0459,N,08014.9649,W,1,8,1.7,19,M,,M,,*58
06/13/2014	08:08:13.619	$GPGGA,080814,2458.0449,N,08014.9654,W,1,8,1.7,19,M,,M,,*52
06/13/2014	08:08:14.632	$GPGGA,080815,2458.0441,N,08014.9660,W,1,8,1.7,19,M,,M,,*5C
06/13/2014	08:08:15.634	$GPGGA,080816,2458.0432,N,08014.9668,W,1,8,1.7,19,M,,M,,*53
06/13/2014	08:08:16.647	$GPGGA,080817,2458.0423,N,08014.9675,W,1,8,1.7,19,M,,M,,*5E
06/13/2014	08:08:17.629	$GPGGA,080818,2458.0414,N,08014.9682,W,1,8,1.7,19,M,,M,,*5D
06/13/2014	08:08:18.662	$GPGGA,080819,2458.0405,N,08014.9687,W,1,8,1.7,19,M,,M,,*59
06/13/2014	08:08:19.646	$GPGGA,080820,2458.0398,N,08014.9691,W,1,8,1.7,19,M,,M,,*57
06/13/2014	08:08:20.637	$GPGGA,080821,2458.0389,N,08014.9700,W,1,7,2.9,19,M,,M,,*5D
06/13/2014	08:08:21.630	$GPGGA,080822,2458.0380,N,08014.9704,W,1,7,1.7,19,M,,M,,*5E
06/13/2014	08:08:22.652	$GPGGA,080823,2458.0373,N,08014.9708,W,1,8,1.7,19,M,,M,,*50
06/13/2014	08:08:23.645	$GPGGA,080824,2458.0365,N,08014.9714,W,1,8,2.9,19,M,,M,,*50
06/13/2014	08:08:24.658	$GPGGA,080825,2458.0356,N,08014.9719,W,1,7,2.9,19,M,,M,,*53
06/13/2014	08:08:25.640	$GPGGA,080826,2458.0348,N,08014.9723,W,1,7,1.7,19,M,,M,,*5B
06/13/2014	08:08:26.632	$GPGGA,080827,2458.0340,N,08014.9730,W,1,7,2.9,19,M,,M,,*5D
06/13/2014	08:08:27.644	$GPGGA,080828,2458.0331,N,08014.9736,W,1,7,1.7,19,M,,M,,*5F
06/13/2014	08:08:28.647	$GPGGA,080829,2458.0322,N,08014.9740,W,1,8,1.7,19,M,,M,,*52
06/13/2014	08:08:29.629	$GPGGA,080830,2458.0312,N,08014.9752,W,1,8,2.9,19,M,,M,,*57
06/13/2014	08:08:30.632	$GPGGA,080831,2458.0303,N,08014.9761,W,1,8,1.7,19,M,,M,,*5B
06/13/2014	08:08:31.655	$GPGGA,080832,2458.0293,N,08014.9767,W,1,8,1.7,19,M,,M,,*56
06/13/2014	08:08:32.667	$GPGGA,080833,2458.0285,N,08014.9772,W,1,8,1.7,19,M,,M,,*54
06/13/2014	08:08:33.630	$GPGGA,080834,2458.0276,N,08014.9781,W,1,8,2.9,19,M,,M,,*5E
06/13/2014	08:08:34.622	$GPGGA,080835,2458.0269,N,08014.9785,W,1,8,1.7,19,M,,M,,*58
06/13/2014	08:08:35.646	$GPGGA,080836,2458.0261,N,08014.9790,W,1,8,2.9,19,M,,M,,*5A
06/13/2014	08:08:36.658	$GPGGA,080837,2458.0253,N,08014.9794,W,1,7,2.9,19,M,,M,,*51
06/13/2014	08:08:37.730	$GPGGA,080838,2458.0246,N,08014.9799,W,1,7,2.9,19,M,,M,,*57
06/13/2014	08:08:38.653	$GPGGA,080839,2458.0237,N,08014.9806,W,1,7,2.9,19,M,,M,,*59
06/13/2014	08:08:39.650	$GPGGA,080840,2458.0228,N,08014.9816,W,1,7,1.7,19,M,,M,,*55
06/13/2014	08:08:40.649	$GPGGA,080841,2458.0220,N,08014.9819,W,1,8,1.7,19,M,,M,,*5C
06/13/2014	08:08:41.641	$GPGGA,080842,2458.0211,N,08014.9827,W,1,8,2.9,19,M,,M,,*5D
06/13/2014	08:08:42.633	$GPGGA,080843,2458.0202,N,08014.9834,W,1,8,1.7,19,M,,M,,*51
06/13/2014	08:08:43.765	$GPGGA,080844,2458.0195,N,08014.9841,W,1,8,1.7,19,M,,M,,*59
06/13/2014	08:08:44.748	$GPGGA,080845,2458.0185,N,08014.9848,W,1,8,1.7,19,M,,M,,*50
06/13/2014	08:08:45.630	$GPGGA,080846,2458.0177,N,08014.9856,W,1,8,1.7,19,M,,M,,*51
06/13/2014	08:08:46.619	$GPGGA,080847,2458.0168,N,08014.9863,W,1,8,1.7,19,M,,M,,*58
06/13/2014	08:08:47.501	$GPGGA,080848,2458.0159,N,08014.9870,W,1,8,1.7,19,M,,M,,*57
06/13/2014	08:08:48.494	$GPGGA,080849,2458.0152,N,08014.9877,W,1,8,1.7,19,M,,M,,*5A
06/13/2014	08:08:49.496	$GPGGA,080850,2458.0142,N,08014.9885,W,1,8,1.7,19,M,,M,,*5E
06/13/2014	08:08:50.619	$GPGGA,080851,2458.0134,N,08014.9891,W,1,7,1.7,19,M,,M,,*54
06/13/2014	08:08:51.602	$GPGGA,080852,2458.0127,N,08014.9897,W,1,7,1.7,19,M,,M,,*53
06/13/2014	08:08:52.504	$GPGGA,080853,2458.0121,N,08014.9906,W,1,8,1.7,19,M,,M,,*52
06/13/2014	08:08:53.587	$GPGGA,080854,2458.0113,N,08014.9911,W,1,8,1.7,19,M,,M,,*52
06/13/2014	08:08:54.610	$GPGGA,080855,2458.0106,N,08014.9917,W,1,8,1.7,19,M,,M,,*51
06/13/2014	08:08:55.602	$GPGGA,080856,2458.0098,N,08014.9924,W,1,8,1.7,19,M,,M,,*54
06/13/2014	08:08:56.605	$GPGGA,080857,2458.0090,N,08014.9931,W,1,8,1.7,19,M,,M,,*59
06/13/2014	08:08:57.587	$GPGGA,080858,2458.0083,N,08014.9938,W,1,8,1.7,19,M,,M,,*5D
06/13/2014	08:08:58.600	$GPGGA,080859,2458.0073,N,08014.9944,W,1,8,1.8,19,M,,M,,*57
06/13/2014	08:08:59.653	$GPGGA,080900,2458.0065,N,08014.9950,W,1,8,1.7,19,M,,M,,*57
06/13/2014	08:09:00.585	$GPGGA,080901,2458.0059,N,08014.9957,W,1,8,1.7,19,M,,M,,*5E
06/13/2014	08:09:01.607	$GPGGA,080902,2458.0052,N,08014.9965,W,1,8,1.7,19,M,,M,,*57
06/13/2014	08:09:02.619	$GPGGA,080903,2458.0044,N,08014.9971,W,1,8,1.7,19,M,,M,,*54
06/13/2014	08:09:03.612	$GPGGA,080904,2458.0037,N,08014.9976,W,1,8,1.7,20,M,,M,,*5A
06/13/2014	08:09:04.615	$GPGGA,080905,2458.0030,N,08014.9985,W,1,8,1.7,20,M,,M,,*50
06/13/2014	08:09:05.587	$GPGGA,080906,2458.0020,N,08014.9991,W,1,8,1.8,20,M,,M,,*58
06/13/2014	08:09:06.590	$GPGGA,080907,2458.0012,N,08014.9997,W,1,7,1.7,20,M,,M,,*5E
06/13/2014	08:09:07.612	$GPGGA,080908,2458.0004,N,08015.0004,W,1,7,1.7,20,M,,M,,*5D
06/13/2014	08:09:08.625	$GPGGA,080909,2457.9997,N,08015.0011,W,1,8,1.7,20,M,,M,,*52
06/13/2014	08:09:09.618	$GPGGA,080910,2457.9991,N,08015.0016,W,1,8,2.8,20,M,,M,,*57
06/13/2014	08:09:10.620	$GPGGA,080911,2457.9982,N,08015.0023,W,1,7,1.7,20,M,,M,,*51
06/13/2014	08:09:11.613	$GPGGA,080912,2457.9972,N,08015.0027,W,1,7,1.7,20,M,,M,,*59
06/13/2014	08:09:12.625	$GPGGA,080913,2457.9966,N,08015.0036,W,1,8,1.7,20,M,,M,,*52
06/13/2014	08:09:13.608	$GPGGA,080914,2457.9959,N,08015.0043,W,1,8,2.9,20,M,,M,,*56
06/13/2014	08:09:14.611	$GPGGA,080915,2457.9949,N,08015.0047,W,1,6,1.7,20,M,,M,,*51
06/13/2014	08:09:15.623	$GPGGA,080916,2457.9940,N,08015.0051,W,1,6,1.7,20,M,,M,,*5C
06/13/2014	08:09:16.596	$GPGGA,080917,2457.9935,N,08015.0059,W,1,8,1.7,20,M,,M,,*59
06/13/2014	08:09:17.628	$GPGGA,080918,2457.9928,N,08015.0066,W,1,8,1.7,20,M,,M,,*56
06/13/2014	08:09:18.630	$GPGGA,080919,2457.9917,N,08015.0069,W,1,8,1.7,20,M,,M,,*54
06/13/2014	08:09:19.643	$GPGGA,080920,2457.9908,N,08015.0073,W,1,8,1.7,20,M,,M,,*5B
06/13/2014	08:09:20.605	$GPGGA,080921,2457.9904,N,08015.0083,W,1,8,1.7,20,M,,M,,*59
06/13/2014	08:09:21.618	$GPGGA,080922,2457.9896,N,08015.0088,W,1,8,1.7,20,M,,M,,*5B
06/13/2014	08:09:22.640	$GPGGA,080923,2457.9888,N,08015.0090,W,1,8,1.7,20,M,,M,,*5C
06/13/2014	08:09:23.623	$GPGGA,080924,2457.9879,N,08015.0098,W,1,8,1.7,20,M,,M,,*5D
06/13/2014	08:09:24.636	$GPGGA,080925,2457.9874,N,08015.0105,W,1,8,1.7,20,M,,M,,*54
06/13/2014	08:09:25.719	$GPGGA,080926,2457.9866,N,08015.0109,W,1,8,1.7,20,M,,M,,*58
06/13/2014	08:09:26.631	$GPGGA,080927,2457.9857,N,08015.0113,W,1,8,1.7,20,M,,M,,*50
06/13/2014	08:09:27.633	$GPGGA,080928,2457.9850,N,08015.0120,W,1,8,1.7,20,M,,M,,*58
06/13/2014	08:09:28.728	$GPGGA,080929,2457.9845,N,08015.0126,W,1,8,1.7,20,M,,M,,*5B
06/13/2014	08:09:29.628	$GPGGA,080930,2457.9835,N,08015.0131,W,1,8,1.7,20,M,,M,,*52
06/13/2014	08:09:30.631	$GPGGA,080931,2457.9827,N,08015.0137,W,1,8,1.7,19,M,,M,,*5C
06/13/2014	08:09:31.644	$GPGGA,080932,2457.9821,N,08015.0144,W,1,8,1.7,19,M,,M,,*5D
06/13/2014	08:09:32.706	$GPGGA,080933,2457.9812,N,08015.0149,W,1,8,1.7,19,M,,M,,*51
06/13/2014	08:09:33.632	$GPGGA,080934,2457.9805,N,08015.0155,W,1,8,1.7,19,M,,M,,*5D
06/13/2014	08:09:34.635	$GPGGA,080935,2457.9798,N,08015.0162,W,1,8,1.7,19,M,,M,,*53
06/13/2014	08:09:35.715	$GPGGA,080936,2457.9789,N,08015.0167,W,1,8,1.7,19,M,,M,,*55
06/13/2014	08:09:36.616	$GPGGA,080937,2457.9780,N,08015.0171,W,1,8,1.7,19,M,,M,,*5A
06/13/2014	08:09:37.619	$GPGGA,080938,2457.9772,N,08015.0178,W,1,8,1.7,19,M,,M,,*51
06/13/2014	08:09:38.711	$GPGGA,080939,2457.9766,N,08015.0184,W,1,8,2.8,19,M,,M,,*5A
06/13/2014	08:09:39.653	$GPGGA,080940,2457.9758,N,08015.0186,W,1,8,2.8,19,M,,M,,*5B
06/13/2014	08:09:40.726	$GPGGA,080941,2457.9751,N,08015.0192,W,1,7,1.7,19,M,,M,,*55
06/13/2014	08:09:41.719	$GPGGA,080942,2457.9743,N,08015.0202,W,1,7,1.7,19,M,,M,,*5F
06/13/2014	08:09:42.711	$GPGGA,080943,2457.9734,N,08015.0207,W,1,8,1.7,19,M,,M,,*54
06/13/2014	08:09:43.724	$GPGGA,080944,2457.9725,N,08015.0213,W,1,8,1.7,19,M,,M,,*56
06/13/2014	08:09:44.727	$GPGGA,080945,2457.9717,N,08015.0220,W,1,8,1.7,19,M,,M,,*56
06/13/2014	08:09:45.729	$GPGGA,080946,2457.9709,N,08015.0228,W,1,8,1.7,19,M,,M,,*52
06/13/2014	08:09:46.588	$GPGGA,080947,2457.9700,N,08015.0235,W,1,8,1.7,19,M,,M,,*56
06/13/2014	08:09:47.580	$GPGGA,080948,2457.9691,N,08015.0240,W,1,8,1.7,19,M,,M,,*52
06/13/2014	08:09:48.583	$GPGGA,080949,2457.9683,N,08015.0247,W,1,8,1.7,19,M,,M,,*57
06/13/2014	08:09:49.566	$GPGGA,080950,2457.9675,N,08015.0256,W,1,8,1.7,19,M,,M,,*56
06/13/2014	08:09:50.558	$GPGGA,080951,2457.9668,N,08015.0260,W,1,8,1.7,19,M,,M,,*5E
06/13/2014	08:09:51.581	$GPGGA,080952,2457.9658,N,08015.0267,W,1,8,1.7,19,M,,M,,*59
06/13/2014	08:09:52.583	$GPGGA,080953,2457.9651,N,08015.0275,W,1,8,1.7,19,M,,M,,*52
06/13/2014	08:09:53.555	$GPGGA,080954,2457.9643,N,08015.0280,W,1,8,1.7,19,M,,M,,*5C
06/13/2014	08:09:54.588	$GPGGA,080955,2457.9635,N,08015.0285,W,1,8,1.7,19,M,,M,,*59
06/13/2014	08:09:55.580	$GPGGA,080956,2457.9628,N,08015.0293,W,1,8,1.7,19,M,,M,,*51
06/13/2014	08:09:56.563	$GPGGA,080957,2457.9621,N,08015.0300,W,1,8,1.7,19,M,,M,,*52
06/13/2014	08:09:57.575	$GPGGA,080958,2457.9611,N,08015.0305,W,1,8,1.7,19,M,,M,,*5B
06/13/2014	08:09:58.588	$GPGGA,080959,2457.9603,N,08015.0312,W,1,8,1.7,19,M,,M,,*5F
06/13/2014	08:09:59.592	$GPGGA,081000,2457.9595,N,08015.0319,W,1,8,1.7,19,M,,M,,*5C
06/13/2014	08:10:00.603	$GPGGA,081001,2457.9587,N,08015.0326,W,1,8,1.7,19,M,,M,,*52
06/13/2014	08:10:01.566	$GPGGA,081002,2457.9579,N,08015.0333,W,1,8,1.7,19,M,,M,,*54
06/13/2014	08:10:02.588	$GPGGA,081003,2457.9571,N,08015.0339,W,1,8,1.7,19,M,,M,,*57
06/13/2014	08:10:03.591	$GPGGA,081004,2457.9563,N,08015.0345,W,1,8,1.7,19,M,,M,,*58
06/13/2014	08:10:04.605	$GPGGA,081005,2457.9557,N,08015.0354,W,1,7,1.8,19,M,,M,,*5E
06/13/2014	08:10:05.576	$GPGGA,081006,2457.9550,N,08015.0359,W,1,7,1.7,19,M,,M,,*58
06/13/2014	08:10:06.579	$GPGGA,081007,2457.9540,N,08015.0365,W,1,8,1.7,19,M,,M,,*58
06/13/2014	08:10:07.591	$GPGGA,081008,2457.9532,N,08015.0372,W,1,8,1.7,19,M,,M,,*54
06/13/2014	08:10:08.574	$GPGGA,081009,2457.9527,N,08015.0381,W,1,7,1.8,19,M,,M,,*5D
06/13/2014	08:10:09.566	$GPGGA,081010,2457.9518,N,08015.0387,W,1,7,1.7,19,M,,M,,*50
06/13/2014	08:10:10.572	$GPGGA,081011,2457.9509,N,08015.0392,W,1,8,1.7,19,M,,M,,*5A
06/13/2014	08:10:11.591	$GPGGA,081012,2457.9503,N,08015.0401,W,1,8,1.7,19,M,,M,,*5E
06/13/2014	08:10:12.582	$GPGGA,081013,2457.9498,N,08015.0409,W,1,8,1.7,19,M,,M,,*54
06/13/2014	08:10:13.676	$GPGGA,081014,2457.9489,N,08015.0415,W,1,8,1.7,19,M,,M,,*5E
06/13/2014	08:10:14.590	$GPGGA,081015,2457.9481,N,08015.0419,W,1,8,1.7,19,M,,M,,*5B
06/13/2014	08:10:15.701	$GPGGA,081016,2457.9476,N,08015.0427,W,1,8,1.7,19,M,,M,,*5D
06/13/2014	08:10:16.594	$GPGGA,081017,2457.9470,N,08015.0435,W,1,8,1.7,19,M,,M,,*59
06/13/2014	08:10:17.576	$GPGGA,081018,2457.9462,N,08015.0438,W,1,8,1.7,19,M,,M,,*58
06/13/2014	08:10:20.207	$GPGGA,081020,2457.9448,N,08015.0451,W,1,8,1.7,19,M,,M,,*54
06/13/2014	08:10:20.584	$GPGGA,081021,2457.9442,N,08015.0457,W,1,7,2.8,19,M,,M,,*5A
06/13/2014	08:10:21.587	$GPGGA,081022,2457.9434,N,08015.0462,W,1,7,1.7,19,M,,M,,*52
06/13/2014	08:10:22.710	$GPGGA,081023,2457.9426,N,08015.0466,W,1,8,1.7,19,M,,M,,*5B
06/13/2014	08:10:23.602	$GPGGA,081024,2457.9419,N,08015.0473,W,1,8,1.7,19,M,,M,,*54
06/13/2014	08:10:24.594	$GPGGA,081025,2457.9413,N,08015.0481,W,1,8,1.7,19,M,,M,,*52
06/13/2014	08:10:25.597	$GPGGA,081026,2457.9404,N,08015.0485,W,1,8,1.7,19,M,,M,,*53
06/13/2014	08:10:26.670	$GPGGA,081027,2457.9395,N,08015.0491,W,1,8,1.7,19,M,,M,,*58
06/13/2014	08:10:27.704	$GPGGA,081028,2457.9388,N,08015.0498,W,1,8,1.7,19,M,,M,,*52
06/13/2014	08:10:28.594	$GPGGA,081029,2457.9382,N,08015.0506,W,1,8,1.7,19,M,,M,,*5F
06/13/2014	08:10:29.678	$GPGGA,081030,2457.9372,N,08015.0510,W,1,8,1.7,19,M,,M,,*5F
06/13/2014	08:10:30.689	$GPGGA,081031,2457.9362,N,08015.0516,W,1,8,1.7,18,M,,M,,*58
06/13/2014	08:10:31.702	$GPGGA,081032,2457.9355,N,08015.0524,W,1,8,1.7,18,M,,M,,*5E
06/13/2014	08:10:32.694	$GPGGA,081033,2457.9348,N,08015.0529,W,1,8,1.7,18,M,,M,,*5E
06/13/2014	08:10:33.687	$GPGGA,081034,2457.9339,N,08015.0533,W,1,8,1.7,18,M,,M,,*54
06/13/2014	08:10:34.710	$GPGGA,081035,2457.9329,N,08015.0539,W,1,8,1.7,18,M,,M,,*5E
06/13/2014	08:10:35.692	$GPGGA,081036,2457.9321,N,08015.0546,W,1,8,1.7,18,M,,M,,*5D
06/13/2014	08:10:36.685	$GPGGA,081037,2457.9314,N,08015.0553,W,1,8,1.7,18,M,,M,,*5E
06/13/2014	08:10:37.687	$GPGGA,081038,2457.9303,N,08015.0556,W,1,8,1.7,18,M,,M,,*52
06/13/2014	08:10:38.700	$GPGGA,081039,2457.9294,N,08015.0563,W,1,8,1.7,18,M,,M,,*5A
06/13/2014	08:10:39.703	$GPGGA,081040,2457.9287,N,08015.0569,W,1,8,1.7,18,M,,M,,*5C
06/13/2014	08:10:40.705	$GPGGA,081041,2457.9278,N,08015.0574,W,1,8,1.7,18,M,,M,,*51
06/13/2014	08:10:41.698	$GPGGA,081042,2457.9268,N,08015.0578,W,1,8,1.7,18,M,,M,,*5F
06/13/2014	08:10:42.700	$GPGGA,081043,2457.9260,N,08015.0585,W,1,8,1.7,18,M,,M,,*54
06/13/2014	08:10:43.703	$GPGGA,081044,2457.9252,N,08015.0592,W,1,8,1.7,18,M,,M,,*54
06/13/2014	08:10:44.706	$GPGGA,081045,2457.9243,N,08015.0596,W,1,8,1.7,18,M,,M,,*51
06/13/2014	08:10:45.688	$GPGGA,081046,2457.9234,N,08015.0601,W,1,8,1.7,18,M,,M,,*5F
06/13/2014	08:10:46.556	$GPGGA,081047,2457.9227,N,08015.0608,W,1,8,1.7,18,M,,M,,*55
06/13/2014	08:10:47.558	$GPGGA,081048,2457.9218,N,08015.0614,W,1,8,1.7,18,M,,M,,*5B
06/13/2014	08:10:48.571	$GPGGA,081049,2457.9209,N,08015.0619,W,1,8,1.7,18,M,,M,,*57
06/13/2014	08:10:49.544	$GPGGA,081050,2457.9202,N,08015.0625,W,1,8,1.7,18,M,,M,,*5B
06/13/2014	08:10:50.536	$GPGGA,081051,2457.9194,N,08015.0632,W,1,8,1.7,18,M,,M,,*50
06/13/2014	08:10:51.559	$GPGGA,081052,2457.9184,N,08015.0637,W,1,8,1.7,18,M,,M,,*57
06/13/2014	08:10:52.581	$GPGGA,081053,2457.9177,N,08015.0643,W,1,8,1.7,18,M,,M,,*59
06/13/2014	08:10:53.544	$GPGGA,081054,2457.9170,N,08015.0648,W,1,8,1.7,18,M,,M,,*52
06/13/2014	08:10:54.577	$GPGGA,081055,2457.9160,N,08015.0655,W,1,7,2.8,18,M,,M,,*5D
06/13/2014	08:10:55.569	$GPGGA,081056,2457.9152,N,08015.0662,W,1,7,1.7,18,M,,M,,*57
06/13/2014	08:10:56.542	$GPGGA,081057,2457.9145,N,08015.0668,W,1,8,1.7,18,M,,M,,*55
06/13/2014	08:10:57.554	$GPGGA,081058,2457.9137,N,08015.0673,W,1,8,1.7,18,M,,M,,*55
06/13/2014	08:10:58.549	$GPGGA,081059,2457.9129,N,08015.0679,W,1,8,1.7,18,M,,M,,*51
06/13/2014	08:10:59.590	$GPGGA,081100,2457.9122,N,08015.0687,W,1,8,1.7,18,M,,M,,*56
06/13/2014	08:11:00.552	$GPGGA,081101,2457.9115,N,08015.0694,W,1,8,1.7,18,M,,M,,*51
06/13/2014	08:11:01.545	$GPGGA,081102,2457.9104,N,08015.0698,W,1,8,1.7,18,M,,M,,*5E
06/13/2014	08:11:02.567	$GPGGA,081103,2457.9097,N,08015.0705,W,1,8,1.7,18,M,,M,,*51
06/13/2014	08:11:03.569	$GPGGA,081104,2457.9090,N,08015.0712,W,1,8,1.7,18,M,,M,,*57
06/13/2014	08:11:04.541	$GPGGA,081105,2457.9081,N,08015.0719,W,1,8,1.7,18,M,,M,,*5D
06/13/2014	08:11:05.554	$GPGGA,081106,2457.9072,N,08015.0723,W,1,8,1.7,18,M,,M,,*5B
06/13/2014	08:11:06.558	$GPGGA,081107,2457.9065,N,08015.0730,W,1,8,1.7,18,M,,M,,*5E
06/13/2014	08:11:07.569	$GPGGA,081108,2457.9057,N,08015.0738,W,1,8,1.7,18,M,,M,,*58
06/13/2014	08:11:08.542	$GPGGA,081109,2457.9048,N,08015.0744,W,1,8,1.7,18,M,,M,,*5C
06/13/2014	08:11:09.655	$GPGGA,081110,2457.9039,N,08015.0749,W,1,8,1.7,18,M,,M,,*5F
06/13/2014	08:11:10.547	$GPGGA,081111,2457.9032,N,08015.0756,W,1,8,1.7,18,M,,M,,*5B
06/13/2014	08:11:11.680	$GPGGA,081112,2457.9025,N,08015.0763,W,1,8,1.7,18,M,,M,,*58
06/13/2014	08:11:12.552	$GPGGA,081113,2457.9014,N,08015.0769,W,1,8,1.7,18,M,,M,,*51
06/13/2014	08:11:13.555	$GPGGA,081114,2457.9007,N,08015.0775,W,1,8,1.7,18,M,,M,,*59
06/13/2014	08:11:14.678	$GPGGA,081115,2457.8998,N,08015.0781,W,1,8,1.7,18,M,,M,,*5D
06/13/2014	08:11:15.680	$GPGGA,081116,2457.8989,N,08015.0788,W,1,8,1.7,18,M,,M,,*57
06/13/2014	08:11:16.693	$GPGGA,081117,2457.8982,N,08015.0795,W,1,8,1.7,18,M,,M,,*51
06/13/2014	08:11:17.655	$GPGGA,081118,2457.8974,N,08015.0802,W,1,8,1.7,18,M,,M,,*56
06/13/2014	08:11:18.658	$GPGGA,081119,2457.8965,N,08015.0807,W,1,8,1.7,18,M,,M,,*52
06/13/2014	08:11:19.671	$GPGGA,081120,2457.8957,N,08015.0813,W,1,8,1.7,18,M,,M,,*5C
06/13/2014	08:11:20.663	$GPGGA,081121,2457.8950,N,08015.0820,W,1,8,1.7,18,M,,M,,*5A
06/13/2014	08:11:21.645	$GPGGA,081122,2457.8941,N,08015.0827,W,1,8,1.7,18,M,,M,,*5E
06/13/2014	08:11:22.657	$GPGGA,081123,2457.8933,N,08015.0835,W,1,8,1.7,18,M,,M,,*59
06/13/2014	08:11:23.670	$GPGGA,081124,2457.8927,N,08015.0840,W,1,8,1.7,18,M,,M,,*59
06/13/2014	08:11:24.683	$GPGGA,081125,2457.8917,N,08015.0847,W,1,8,1.7,18,M,,M,,*5C
06/13/2014	08:11:25.655	$GPGGA,081126,2457.8910,N,08015.0854,W,1,8,1.7,18,M,,M,,*5A
06/13/2014	08:11:26.678	$GPGGA,081127,2457.8903,N,08015.0861,W,1,8,1.7,18,M,,M,,*5F
06/13/2014	08:11:27.670	$GPGGA,081128,2457.8895,N,08015.0867,W,1,8,1.7,18,M,,M,,*58
06/13/2014	08:11:28.683	$GPGGA,081129,2457.8886,N,08015.0875,W,1,8,1.7,18,M,,M,,*58
06/13/2014	08:11:29.666	$GPGGA,081130,2457.8880,N,08015.0882,W,1,8,1.7,18,M,,M,,*5E
06/13/2014	08:11:30.678	$GPGGA,081131,2457.8873,N,08015.0889,W,1,8,1.7,18,M,,M,,*58
06/13/2014	08:11:31.671	$GPGGA,081132,2457.8864,N,08015.0896,W,1,8,1.7,18,M,,M,,*53
06/13/2014	08:11:32.653	$GPGGA,081133,2457.8857,N,08015.0903,W,1,8,1.7,18,M,,M,,*5F
06/13/2014	08:11:33.666	$GPGGA,081134,2457.8849,N,08015.0911,W,1,8,1.7,18,M,,M,,*54
06/13/2014	08:11:34.659	$GPGGA,081135,2457.8841,N,08015.0918,W,1,8,1.7,18,M,,M,,*54
06/13/2014	08:11:35.671	$GPGGA,081136,2457.8834,N,08015.0923,W,1,8,1.7,18,M,,M,,*5D
06/13/2014	08:11:36.664	$GPGGA,081137,2457.8827,N,08015.0930,W,1,8,1.7,18,M,,M,,*5C
06/13/2014	08:11:37.666	$GPGGA,081138,2457.8819,N,08015.0939,W,1,8,1.7,18,M,,M,,*57
06/13/2014	08:11:38.658	$GPGGA,081139,2457.8811,N,08015.0944,W,1,8,1.7,18,M,,M,,*54
06/13/2014	08:11:39.681	$GPGGA,081140,2457.8803,N,08015.0950,W,1,8,1.7,18,M,,M,,*5C
06/13/2014	08:11:40.663	$GPGGA,081141,2457.8794,N,08015.0957,W,1,8,1.7,18,M,,M,,*5B
06/13/2014	08:11:41.666	$GPGGA,081142,2457.8787,N,08015.0965,W,1,8,1.8,18,M,,M,,*54
06/13/2014	08:11:42.658	$GPGGA,081143,2457.8779,N,08015.0970,W,1,8,1.7,18,M,,M,,*5F
06/13/2014	08:11:43.691	$GPGGA,081144,2457.8770,N,08015.0976,W,1,8,1.7,18,M,,M,,*57
06/13/2014	08:11:44.663	$GPGGA,081145,2457.8761,N,08015.0983,W,1,8,1.7,18,M,,M,,*5C
06/13/2014	08:11:45.676	$GPGGA,081146,2457.8754,N,08015.0991,W,1,8,1.7,18,M,,M,,*5A
06/13/2014	08:11:46.535	$GPGGA,081147,2457.8744,N,08015.0997,W,1,8,1.7,18,M,,M,,*5C
06/13/2014	08:11:47.537	$GPGGA,081148,2457.8736,N,08015.1002,W,1,8,1.7,18,M,,M,,*52
06/13/2014	08:11:48.523	$GPGGA,081149,2457.8728,N,08015.1011,W,1,8,1.7,18,M,,M,,*5E
06/13/2014	08:11:49.683	$GPGGA,081150,2457.8721,N,08015.1016,W,1,8,1.7,18,M,,M,,*58
