Software Version Number: 1	Data File Format Number: 1	Build Version Number: 1	Error Count Since VI Started: 0	Manufacturer: Raytheon	 Model Number: RayMarine 120	 S/N: 	 Cal Date: 	 Wind Direction Offset: 0.00	 Slope (M)1: 0.00	 Offset (B)1: 0.00	 Slope (M)2: 0.00	 Offset (B)2: 0.00	 Slope (M)3: 0.00	 Offset (B)3: 0.00	 Slope (M)4: 0.00	 Offset (B)4: 0.00	 Slope (M)5: 0.00	 Offset (B)5: 0.00	 Slope (M)6: 0.00	 Offset (B)6: 0.00
Computer Date	Computer Time	GGA String
06/10/2014	16:00:00.008	$GPGGA,160000,2558.1008,N,08004.6067,W,1,9,1.8,17,M,,M,,*59
06/10/2014	16:00:00.913	$GPGGA,160001,2558.0986,N,08004.6067,W,1,9,1.8,17,M,,M,,*56
06/10/2014	16:00:02.034	$GPGGA,160002,2558.0965,N,08004.6067,W,1,9,1.8,17,M,,M,,*58
06/10/2014	16:00:02.935	$GPGGA,160003,2558.0943,N,08004.6069,W,1,9,1.8,17,M,,M,,*53
06/10/2014	16:00:03.998	$GPGGA,160004,2558.0921,N,08004.6068,W,1,9,1.8,17,M,,M,,*51
06/10/2014	16:00:04.946	$GPGGA,160005,2558.0900,N,08004.6069,W,1,9,1.8,17,M,,M,,*52
06/10/2014	16:00:05.988	$GPGGA,160006,2558.0878,N,08004.6068,W,1,9,1.8,17,M,,M,,*5E
06/10/2014	16:00:07.043	$GPGGA,160007,2558.0855,N,08004.6069,W,1,9,1.8,17,M,,M,,*51
06/10/2014	16:00:08.035	$GPGGA,160008,2558.0833,N,08004.6068,W,1,9,1.8,17,M,,M,,*5F
06/10/2014	16:00:09.079	$GPGGA,160009,2558.0811,N,08004.6069,W,1,9,1.8,17,M,,M,,*5F
06/10/2014	16:00:10.029	$GPGGA,160010,2558.0789,N,08004.6068,W,1,9,1.8,17,M,,M,,*58
06/10/2014	16:00:11.093	$GPGGA,160011,2558.0767,N,08004.6069,W,1,9,1.8,17,M,,M,,*58
06/10/2014	16:00:12.141	$GPGGA,160012,2558.0745,N,08004.6068,W,1,9,1.8,17,M,,M,,*5A
06/10/2014	16:00:13.112	$GPGGA,160013,2558.0723,N,08004.6067,W,1,9,1.8,17,M,,M,,*54
06/10/2014	16:00:14.031	$GPGGA,160014,2558.0701,N,08004.6067,W,1,9,1.8,17,M,,M,,*53
06/10/2014	16:00:15.153	$GPGGA,160015,2558.0679,N,08004.6066,W,1,9,2.0,16,M,,M,,*57
06/10/2014	16:00:16.093	$GPGGA,160016,2558.0658,N,08004.6066,W,1,9,2.0,16,M,,M,,*57
06/10/2014	16:00:17.166	$GPGGA,160017,2558.0636,N,08004.6065,W,1,8,2.0,16,M,,M,,*5C
06/10/2014	16:00:18.084	$GPGGA,160018,2558.0614,N,08004.6064,W,1,8,1.8,16,M,,M,,*59
06/10/2014	16:00:19.173	$GPGGA,160019,2558.0591,N,08004.6063,W,1,9,1.8,16,M,,M,,*50
06/10/2014	16:00:20.126	$GPGGA,160020,2558.0569,N,08004.6062,W,1,9,1.8,16,M,,M,,*5C
06/10/2014	16:00:21.179	$GPGGA,160021,2558.0547,N,08004.6061,W,1,9,1.8,16,M,,M,,*52
06/10/2014	16:00:22.147	$GPGGA,160022,2558.0525,N,08004.6060,W,1,9,1.8,16,M,,M,,*54
06/10/2014	16:00:23.200	$GPGGA,160023,2558.0503,N,08004.6059,W,1,9,1.8,16,M,,M,,*5B
06/10/2014	16:00:24.168	$GPGGA,160024,2558.0481,N,08004.6058,W,1,9,1.8,16,M,,M,,*56
06/10/2014	16:00:25.199	$GPGGA,160025,2558.0459,N,08004.6057,W,1,9,1.8,16,M,,M,,*5D
06/10/2014	16:00:26.229	$GPGGA,160026,2558.0437,N,08004.6056,W,1,9,1.8,16,M,,M,,*57
06/10/2014	16:00:27.290	$GPGGA,160027,2558.0415,N,08004.6054,W,1,9,1.8,16,M,,M,,*54
06/10/2014	16:00:28.271	$GPGGA,160028,2558.0394,N,08004.6053,W,1,9,1.8,16,M,,M,,*52
06/10/2014	16:00:29.302	$GPGGA,160029,2558.0372,N,08004.6051,W,1,9,1.8,16,M,,M,,*59
06/10/2014	16:00:30.262	$GPGGA,160030,2558.0350,N,08004.6050,W,1,9,1.8,15,M,,M,,*53
06/10/2014	16:00:31.293	$GPGGA,160031,2558.0329,N,08004.6048,W,1,9,1.8,15,M,,M,,*55
06/10/2014	16:00:32.293	$GPGGA,160032,2558.0307,N,08004.6047,W,1,9,1.8,15,M,,M,,*55
06/10/2014	16:00:33.355	$GPGGA,160033,2558.0284,N,08004.6046,W,1,9,1.8,15,M,,M,,*5F
06/10/2014	16:00:34.295	$GPGGA,160034,2558.0262,N,08004.6044,W,1,9,1.8,15,M,,M,,*52
06/10/2014	16:00:35.356	$GPGGA,160035,2558.0240,N,08004.6043,W,1,9,1.8,15,M,,M,,*54
06/10/2014	16:00:36.351	$GPGGA,160036,2558.0218,N,08004.6042,W,1,9,1.8,15,M,,M,,*5B
06/10/2014	16:00:37.407	$GPGGA,160037,2558.0196,N,08004.6041,W,1,9,1.8,15,M,,M,,*5C
06/10/2014	16:00:38.327	$GPGGA,160038,2558.0174,N,08004.6040,W,1,9,1.8,15,M,,M,,*5E
06/10/2014	16:00:39.383	$GPGGA,160039,2558.0152,N,08004.6039,W,1,9,2.0,15,M,,M,,*5E
06/10/2014	16:00:40.369	$GPGGA,160040,2558.0130,N,08004.6038,W,1,9,2.0,15,M,,M,,*55
06/10/2014	16:00:41.410	$GPGGA,160041,2558.0107,N,08004.6037,W,1,8,2.0,15,M,,M,,*5E
06/10/2014	16:00:42.370	$GPGGA,160042,2558.0087,N,08004.6036,W,1,8,1.8,15,M,,M,,*5E
06/10/2014	16:00:43.402	$GPGGA,160043,2558.0065,N,08004.6035,W,1,9,1.8,15,M,,M,,*51
06/10/2014	16:00:44.401	$GPGGA,160044,2558.0042,N,08004.6035,W,1,9,1.8,15,M,,M,,*53
06/10/2014	16:00:45.482	$GPGGA,160045,2558.0020,N,08004.6034,W,1,9,1.8,15,M,,M,,*57
06/10/2014	16:00:46.412	$GPGGA,160046,2557.9998,N,08004.6034,W,1,9,1.8,15,M,,M,,*58
06/10/2014	16:00:47.463	$GPGGA,160047,2557.9976,N,08004.6034,W,1,9,1.8,15,M,,M,,*59
06/10/2014	16:00:48.433	$GPGGA,160048,2557.9954,N,08004.6034,W,1,9,1.8,15,M,,M,,*56
06/10/2014	16:00:49.484	$GPGGA,160049,2557.9932,N,08004.6034,W,1,9,1.8,15,M,,M,,*57
06/10/2014	16:00:50.444	$GPGGA,160050,2557.9910,N,08004.6034,W,1,9,1.8,15,M,,M,,*5F
06/10/2014	16:00:51.516	$GPGGA,160051,2557.9888,N,08004.6034,W,1,9,1.8,15,M,,M,,*5E
06/10/2014	16:00:52.496	$GPGGA,160052,2557.9866,N,08004.6034,W,1,9,1.8,15,M,,M,,*5D
06/10/2014	16:00:53.511	$GPGGA,160053,2557.9845,N,08004.6034,W,1,9,1.8,15,M,,M,,*5D
06/10/2014	16:00:54.477	$GPGGA,160054,2557.9821,N,08004.6034,W,1,9,1.8,15,M,,M,,*58
06/10/2014	16:00:55.508	$GPGGA,160055,2557.9821,N,08004.6034,W,1,9,1.8,15,M,,M,,*59
06/10/2014	16:00:56.509	$GPGGA,160056,2557.9777,N,08004.6035,W,1,9,1.8,15,M,,M,,*57
06/10/2014	16:00:57.571	$GPGGA,160057,2557.9755,N,08004.6037,W,1,9,1.8,15,M,,M,,*54
06/10/2014	16:00:58.531	$GPGGA,160058,2557.9733,N,08004.6036,W,1,9,1.8,15,M,,M,,*5A
06/10/2014	16:00:59.561	$GPGGA,160059,2557.9711,N,08004.6037,W,1,9,1.8,15,M,,M,,*5A
06/10/2014	16:01:00.541	$GPGGA,160100,2557.9689,N,08004.6038,W,1,9,1.8,15,M,,M,,*58
06/10/2014	16:01:01.652	$GPGGA,160101,2557.9668,N,08004.6040,W,1,9,1.8,15,M,,M,,*59
06/10/2014	16:01:02.531	$GPGGA,160102,2557.9646,N,08004.6039,W,1,9,1.8,15,M,,M,,*58
06/10/2014	16:01:03.663	$GPGGA,160103,2557.9623,N,08004.6040,W,1,9,1.8,15,M,,M,,*54
06/10/2014	16:01:04.563	$GPGGA,160104,2557.9601,N,08004.6041,W,1,9,1.8,15,M,,M,,*52
06/10/2014	16:01:05.594	$GPGGA,160105,2557.9601,N,08004.6041,W,1,9,1.8,15,M,,M,,*53
06/10/2014	16:01:06.569	$GPGGA,160106,2557.9557,N,08004.6044,W,1,9,1.8,15,M,,M,,*55
06/10/2014	16:01:07.595	$GPGGA,160107,2557.9557,N,08004.6044,W,1,9,1.8,15,M,,M,,*54
06/10/2014	16:01:08.697	$GPGGA,160108,2557.9513,N,08004.6044,W,1,9,1.8,15,M,,M,,*5B
06/10/2014	16:01:09.637	$GPGGA,160109,2557.9513,N,08004.6044,W,1,9,1.8,15,M,,M,,*5A
06/10/2014	16:01:10.614	$GPGGA,160110,2557.9469,N,08004.6046,W,1,9,1.8,15,M,,M,,*5C
06/10/2014	16:01:11.621	$GPGGA,160111,2557.9446,N,08004.6048,W,1,9,1.8,15,M,,M,,*5E
06/10/2014	16:01:12.649	$GPGGA,160112,2557.9424,N,08004.6047,W,1,9,1.8,15,M,,M,,*56
06/10/2014	16:01:13.740	$GPGGA,160113,2557.9402,N,08004.6048,W,1,9,1.8,15,M,,M,,*5C
06/10/2014	16:01:14.658	$GPGGA,160114,2557.9380,N,08004.6048,W,1,9,1.8,15,M,,M,,*56
06/10/2014	16:01:15.792	$GPGGA,160115,2557.9357,N,08004.6049,W,1,9,1.8,15,M,,M,,*5C
06/10/2014	16:01:16.772	$GPGGA,160116,2557.9335,N,08004.6051,W,1,9,1.8,15,M,,M,,*52
06/10/2014	16:01:17.813	$GPGGA,160117,2557.9314,N,08004.6050,W,1,9,1.8,15,M,,M,,*51
06/10/2014	16:01:18.788	$GPGGA,160118,2557.9290,N,08004.6051,W,1,9,1.8,15,M,,M,,*52
06/10/2014	16:01:19.806	$GPGGA,160119,2557.9268,N,08004.6051,W,1,9,1.8,15,M,,M,,*54
06/10/2014	16:01:20.815	$GPGGA,160120,2557.9246,N,08004.6052,W,1,9,1.8,15,M,,M,,*51
06/10/2014	16:01:21.834	$GPGGA,160121,2557.9224,N,08004.6052,W,1,9,1.8,15,M,,M,,*54
06/10/2014	16:01:22.815	$GPGGA,160122,2557.9202,N,08004.6052,W,1,9,1.8,15,M,,M,,*53
06/10/2014	16:01:23.848	$GPGGA,160123,2557.9180,N,08004.6052,W,1,9,1.8,15,M,,M,,*5B
06/10/2014	16:01:24.837	$GPGGA,160124,2557.9158,N,08004.6051,W,1,9,1.8,15,M,,M,,*5A
06/10/2014	16:01:25.837	$GPGGA,160125,2557.9137,N,08004.6051,W,1,9,1.8,15,M,,M,,*52
06/10/2014	16:01:26.838	$GPGGA,160126,2557.9115,N,08004.6051,W,1,9,1.8,15,M,,M,,*51
06/10/2014	16:01:27.881	$GPGGA,160127,2557.9091,N,08004.6051,W,1,9,1.8,15,M,,M,,*5D
06/10/2014	16:01:28.879	$GPGGA,160128,2557.9069,N,08004.6051,W,1,9,1.8,15,M,,M,,*55
06/10/2014	16:01:29.905	$GPGGA,160129,2557.9047,N,08004.6050,W,1,9,1.8,15,M,,M,,*59
06/10/2014	16:01:30.870	$GPGGA,160130,2557.9025,N,08004.6051,W,1,9,1.8,15,M,,M,,*54
06/10/2014	16:01:31.923	$GPGGA,160131,2557.9003,N,08004.6049,W,1,9,1.8,15,M,,M,,*58
06/10/2014	16:01:32.912	$GPGGA,160132,2557.8980,N,08004.6049,W,1,9,1.8,15,M,,M,,*58
06/10/2014	16:01:33.943	$GPGGA,160133,2557.8957,N,08004.6048,W,1,9,1.8,15,M,,M,,*52
06/10/2014	16:01:34.923	$GPGGA,160134,2557.8935,N,08004.6047,W,1,9,2.1,15,M,,M,,*54
06/10/2014	16:01:35.946	$GPGGA,160135,2557.8913,N,08004.6048,W,1,8,2.1,15,M,,M,,*5F
06/10/2014	16:01:36.954	$GPGGA,160136,2557.8891,N,08004.6046,W,1,8,2.1,15,M,,M,,*59
06/10/2014	16:01:37.975	$GPGGA,160137,2557.8868,N,08004.6045,W,1,9,1.8,15,M,,M,,*56
06/10/2014	16:01:38.955	$GPGGA,160138,2557.8848,N,08004.6044,W,1,9,1.8,15,M,,M,,*5A
06/10/2014	16:01:39.996	$GPGGA,160139,2557.8826,N,08004.6043,W,1,9,1.8,15,M,,M,,*54
06/10/2014	16:01:40.976	$GPGGA,160140,2557.8803,N,08004.6042,W,1,9,1.8,15,M,,M,,*5C
06/10/2014	16:01:41.967	$GPGGA,160141,2557.8781,N,08004.6042,W,1,8,2.1,16,M,,M,,*50
06/10/2014	16:01:42.988	$GPGGA,160142,2557.8759,N,08004.6041,W,1,8,1.8,16,M,,M,,*5F
06/10/2014	16:01:44.010	$GPGGA,160143,2557.8737,N,08004.6040,W,1,9,1.8,16,M,,M,,*56
06/10/2014	16:01:45.029	$GPGGA,160144,2557.8715,N,08004.6039,W,1,9,1.8,16,M,,M,,*5F
06/10/2014	16:01:46.000	$GPGGA,160145,2557.8693,N,08004.6040,W,1,9,1.8,16,M,,M,,*5F
06/10/2014	16:01:47.020	$GPGGA,160146,2557.8671,N,08004.6038,W,1,9,1.8,16,M,,M,,*5F
06/10/2014	16:01:48.152	$GPGGA,160147,2557.8649,N,08004.6037,W,1,9,1.8,16,M,,M,,*5A
06/10/2014	16:01:49.163	$GPGGA,160148,2557.8627,N,08004.6037,W,1,9,1.8,16,M,,M,,*5D
06/10/2014	16:01:50.174	$GPGGA,160149,2557.8606,N,08004.6036,W,1,9,1.8,16,M,,M,,*5E
06/10/2014	16:01:51.059	$GPGGA,160150,2557.8584,N,08004.6035,W,1,9,1.8,16,M,,M,,*5C
06/10/2014	16:01:52.074	$GPGGA,160151,2557.8561,N,08004.6034,W,1,9,1.8,16,M,,M,,*57
06/10/2014	16:01:53.081	$GPGGA,160152,2557.8539,N,08004.6034,W,1,9,2.1,16,M,,M,,*53
06/10/2014	16:01:54.105	$GPGGA,160153,2557.8516,N,08004.6033,W,1,8,2.1,16,M,,M,,*59
06/10/2014	16:01:55.108	$GPGGA,160154,2557.8493,N,08004.6032,W,1,8,2.1,16,M,,M,,*53
06/10/2014	16:01:56.207	$GPGGA,160155,2557.8470,N,08004.6033,W,1,8,2.1,16,M,,M,,*5E
06/10/2014	16:01:57.135	$GPGGA,160156,2557.8448,N,08004.6031,W,1,8,2.1,16,M,,M,,*54
06/10/2014	16:01:58.238	$GPGGA,160157,2557.8427,N,08004.6031,W,1,8,2.1,16,M,,M,,*5C
06/10/2014	16:01:59.219	$GPGGA,160158,2557.8405,N,08004.6031,W,1,8,1.8,16,M,,M,,*59
06/10/2014	16:02:00.169	$GPGGA,160159,2557.8385,N,08004.6030,W,1,9,1.8,16,M,,M,,*57
06/10/2014	16:02:01.179	$GPGGA,160200,2557.8362,N,08004.6030,W,1,9,1.8,16,M,,M,,*51
06/10/2014	16:02:02.241	$GPGGA,160201,2557.8340,N,08004.6030,W,1,9,1.8,16,M,,M,,*50
06/10/2014	16:02:03.261	$GPGGA,160202,2557.8320,N,08004.6030,W,1,9,1.8,16,M,,M,,*55
06/10/2014	16:02:04.264	$GPGGA,160203,2557.8297,N,08004.6029,W,1,9,1.8,16,M,,M,,*51
06/10/2014	16:02:05.293	$GPGGA,160204,2557.8275,N,08004.6030,W,1,9,1.8,16,M,,M,,*52
06/10/2014	16:02:06.274	$GPGGA,160205,2557.8253,N,08004.6029,W,1,9,1.8,17,M,,M,,*5E
06/10/2014	16:02:07.284	$GPGGA,160206,2557.8230,N,08004.6030,W,1,9,1.8,17,M,,M,,*50
06/10/2014	16:02:08.306	$GPGGA,160207,2557.8208,N,08004.6030,W,1,9,1.8,17,M,,M,,*5A
06/10/2014	16:02:09.326	$GPGGA,160208,2557.8187,N,08004.6030,W,1,9,1.8,17,M,,M,,*51
06/10/2014	16:02:10.328	$GPGGA,160209,2557.8165,N,08004.6030,W,1,9,1.8,17,M,,M,,*5C
06/10/2014	16:02:11.327	$GPGGA,160210,2557.8143,N,08004.6031,W,1,9,1.8,17,M,,M,,*51
06/10/2014	16:02:12.359	$GPGGA,160211,2557.8120,N,08004.6033,W,1,9,1.8,17,M,,M,,*57
06/10/2014	16:02:13.357	$GPGGA,160212,2557.8098,N,08004.6032,W,1,9,1.8,17,M,,M,,*57
06/10/2014	16:02:14.373	$GPGGA,160213,2557.8078,N,08004.6033,W,1,9,1.8,17,M,,M,,*59
06/10/2014	16:02:15.358	$GPGGA,160214,2557.8054,N,08004.6034,W,1,9,1.8,17,M,,M,,*57
06/10/2014	16:02:16.389	$GPGGA,160215,2557.8032,N,08004.6035,W,1,9,1.8,17,M,,M,,*57
06/10/2014	16:02:17.380	$GPGGA,160216,2557.8010,N,08004.6035,W,1,9,1.8,17,M,,M,,*54
06/10/2014	16:02:18.401	$GPGGA,160217,2557.7988,N,08004.6037,W,1,9,1.8,17,M,,M,,*50
06/10/2014	16:02:19.401	$GPGGA,160218,2557.7966,N,08004.6037,W,1,9,1.8,17,M,,M,,*5F
06/10/2014	16:02:20.402	$GPGGA,160219,2557.7944,N,08004.6040,W,1,9,1.8,17,M,,M,,*5E
06/10/2014	16:02:21.423	$GPGGA,160220,2557.7923,N,08004.6039,W,1,9,1.8,17,M,,M,,*5B
06/10/2014	16:02:22.455	$GPGGA,160221,2557.7901,N,08004.6041,W,1,9,1.8,17,M,,M,,*55
06/10/2014	16:02:23.424	$GPGGA,160222,2557.7878,N,08004.6041,W,1,9,1.8,17,M,,M,,*59
06/10/2014	16:02:24.455	$GPGGA,160223,2557.7856,N,08004.6044,W,1,9,1.8,17,M,,M,,*51
06/10/2014	16:02:25.465	$GPGGA,160224,2557.7834,N,08004.6044,W,1,9,1.8,17,M,,M,,*52
06/10/2014	16:02:26.488	$GPGGA,160225,2557.7812,N,08004.6045,W,1,9,1.8,17,M,,M,,*56
06/10/2014	16:02:27.477	$GPGGA,160226,2557.7790,N,08004.6046,W,1,9,1.8,17,M,,M,,*53
06/10/2014	16:02:28.509	$GPGGA,160227,2557.7769,N,08004.6048,W,1,9,1.8,17,M,,M,,*5A
06/10/2014	16:02:29.490	$GPGGA,160228,2557.7747,N,08004.6048,W,1,9,1.8,17,M,,M,,*59
06/10/2014	16:02:30.478	$GPGGA,160229,2557.7725,N,08004.6049,W,1,9,1.8,17,M,,M,,*5D
06/10/2014	16:02:31.498	$GPGGA,160230,2557.7703,N,08004.6051,W,1,9,1.8,17,M,,M,,*58
06/10/2014	16:02:32.540	$GPGGA,160231,2557.7681,N,08004.6050,W,1,9,1.8,17,M,,M,,*53
06/10/2014	16:02:33.520	$GPGGA,160232,2557.7660,N,08004.6051,W,1,9,1.8,17,M,,M,,*5E
06/10/2014	16:02:34.551	$GPGGA,160233,2557.7637,N,08004.6052,W,1,9,1.8,17,M,,M,,*5E
06/10/2014	16:02:35.551	$GPGGA,160234,2557.7616,N,08004.6053,W,1,9,1.8,17,M,,M,,*5B
06/10/2014	16:02:36.653	$GPGGA,160235,2557.7594,N,08004.6055,W,1,9,1.8,17,M,,M,,*55
06/10/2014	16:02:37.552	$GPGGA,160236,2557.7572,N,08004.6054,W,1,9,1.8,17,M,,M,,*5F
06/10/2014	16:02:38.545	$GPGGA,160237,2557.7549,N,08004.6055,W,1,9,1.8,17,M,,M,,*57
06/10/2014	16:02:39.584	$GPGGA,160238,2557.7527,N,08004.6056,W,1,9,1.8,17,M,,M,,*53
06/10/2014	16:02:40.696	$GPGGA,160239,2557.7505,N,08004.6058,W,1,9,1.8,17,M,,M,,*5C
06/10/2014	16:02:41.605	$GPGGA,160240,2557.7483,N,08004.6057,W,1,9,1.8,17,M,,M,,*52
06/10/2014	16:02:42.679	$GPGGA,160241,2557.7461,N,08004.6059,W,1,9,1.8,17,M,,M,,*51
06/10/2014	16:02:43.596	$GPGGA,160242,2557.7439,N,08004.6058,W,1,9,1.8,17,M,,M,,*5E
06/10/2014	16:02:44.607	$GPGGA,160243,2557.7417,N,08004.6059,W,1,9,1.8,17,M,,M,,*52
06/10/2014	16:02:45.739	$GPGGA,160244,2557.7395,N,08004.6059,W,1,9,1.8,17,M,,M,,*58
06/10/2014	16:02:46.740	$GPGGA,160245,2557.7374,N,08004.6059,W,1,9,1.8,17,M,,M,,*56
06/10/2014	16:02:47.648	$GPGGA,160246,2557.7352,N,08004.6059,W,1,9,1.8,17,M,,M,,*51
06/10/2014	16:02:48.741	$GPGGA,160247,2557.7328,N,08004.6059,W,1,9,1.8,17,M,,M,,*5D
06/10/2014	16:02:49.771	$GPGGA,160248,2557.7306,N,08004.6059,W,1,9,1.8,17,M,,M,,*5E
06/10/2014	16:02:50.792	$GPGGA,160249,2557.7284,N,08004.6059,W,1,9,1.8,17,M,,M,,*54
06/10/2014	16:02:51.772	$GPGGA,160250,2557.7262,N,08004.6059,W,1,9,1.8,17,M,,M,,*54
06/10/2014	16:02:52.689	$GPGGA,160251,2557.7240,N,08004.6059,W,1,9,1.8,17,M,,M,,*55
06/10/2014	16:02:53.795	$GPGGA,160252,2557.7219,N,08004.6059,W,1,9,1.8,17,M,,M,,*5A
06/10/2014	16:02:54.806	$GPGGA,160253,2557.7197,N,08004.6059,W,1,9,1.8,17,M,,M,,*5E
06/10/2014	16:02:55.807	$GPGGA,160254,2557.7175,N,08004.6058,W,1,9,1.8,17,M,,M,,*54
06/10/2014	16:02:56.805	$GPGGA,160255,2557.7153,N,08004.6059,W,1,9,1.8,17,M,,M,,*50
06/10/2014	16:02:57.827	$GPGGA,160256,2557.7132,N,08004.6057,W,1,9,1.8,17,M,,M,,*5A
06/10/2014	16:02:58.818	$GPGGA,160257,2557.7110,N,08004.6058,W,1,9,1.8,17,M,,M,,*54
06/10/2014	16:02:59.837	$GPGGA,160258,2557.7087,N,08004.6056,W,1,9,1.8,17,M,,M,,*5A
06/10/2014	16:03:00.848	$GPGGA,160259,2557.7065,N,08004.6056,W,1,9,1.9,17,M,,M,,*56
06/10/2014	16:03:01.882	$GPGGA,160300,2557.7045,N,08004.6055,W,1,9,1.9,17,M,,M,,*5A
06/10/2014	16:03:02.869	$GPGGA,160301,2557.7023,N,08004.6054,W,1,9,1.9,17,M,,M,,*5A
06/10/2014	16:03:03.870	$GPGGA,160302,2557.7001,N,08004.6053,W,1,9,1.9,17,M,,M,,*5E
06/10/2014	16:03:04.903	$GPGGA,160303,2557.6980,N,08004.6053,W,1,9,1.9,17,M,,M,,*5E
06/10/2014	16:03:05.901	$GPGGA,160304,2557.6958,N,08004.6052,W,1,9,1.9,17,M,,M,,*5D
06/10/2014	16:03:06.891	$GPGGA,160305,2557.6935,N,08004.6051,W,1,9,1.9,17,M,,M,,*54
06/10/2014	16:03:07.902	$GPGGA,160306,2557.6913,N,08004.6050,W,1,9,1.9,17,M,,M,,*52
06/10/2014	16:03:08.933	$GPGGA,160307,2557.6891,N,08004.6049,W,1,9,1.9,17,M,,M,,*50
06/10/2014	16:03:09.944	$GPGGA,160308,2557.6870,N,08004.6048,W,1,9,1.9,17,M,,M,,*51
06/10/2014	16:03:10.924	$GPGGA,160309,2557.6848,N,08004.6048,W,1,9,1.9,17,M,,M,,*5B
06/10/2014	16:03:11.945	$GPGGA,160310,2557.6828,N,08004.6047,W,1,9,1.9,17,M,,M,,*5A
06/10/2014	16:03:12.935	$GPGGA,160311,2557.6805,N,08004.6046,W,1,9,1.9,17,M,,M,,*55
06/10/2014	16:03:13.966	$GPGGA,160312,2557.6783,N,08004.6046,W,1,9,1.9,17,M,,M,,*57
06/10/2014	16:03:14.997	$GPGGA,160313,2557.6763,N,08004.6045,W,1,9,1.9,17,M,,M,,*5B
06/10/2014	16:03:15.977	$GPGGA,160314,2557.6740,N,08004.6045,W,1,9,1.9,17,M,,M,,*5D
06/10/2014	16:03:17.008	$GPGGA,160315,2557.6720,N,08004.6044,W,1,9,1.9,17,M,,M,,*5B
06/10/2014	16:03:18.019	$GPGGA,160316,2557.6698,N,08004.6044,W,1,9,1.9,17,M,,M,,*5A
06/10/2014	16:03:19.030	$GPGGA,160317,2557.6675,N,08004.6043,W,1,9,1.9,17,M,,M,,*5F
06/10/2014	16:03:20.000	$GPGGA,160318,2557.6655,N,08004.6044,W,1,9,1.9,17,M,,M,,*55
06/10/2014	16:03:21.010	$GPGGA,160319,2557.6633,N,08004.6043,W,1,9,1.9,17,M,,M,,*53
06/10/2014	16:03:22.041	$GPGGA,160320,2557.6611,N,08004.6044,W,1,9,1.9,17,M,,M,,*5E
06/10/2014	16:03:23.041	$GPGGA,160321,2557.6590,N,08004.6043,W,1,9,1.9,17,M,,M,,*52
06/10/2014	16:03:24.042	$GPGGA,160322,2557.6569,N,08004.6044,W,1,9,1.9,17,M,,M,,*50
06/10/2014	16:03:25.062	$GPGGA,160323,2557.6548,N,08004.6042,W,1,9,1.9,17,M,,M,,*54
06/10/2014	16:03:26.073	$GPGGA,160324,2557.6527,N,08004.6042,W,1,9,1.9,17,M,,M,,*5A
06/10/2014	16:03:27.084	$GPGGA,160325,2557.6505,N,08004.6042,W,1,9,1.9,17,M,,M,,*5B
06/10/2014	16:03:28.086	$GPGGA,160326,2557.6485,N,08004.6042,W,1,9,1.9,17,M,,M,,*51
06/10/2014	16:03:29.097	$GPGGA,160327,2557.6463,N,08004.6042,W,1,9,1.9,17,M,,M,,*58
06/10/2014	16:03:30.116	$GPGGA,160328,2557.6441,N,08004.6044,W,1,9,1.9,17,M,,M,,*51
06/10/2014	16:03:31.218	$GPGGA,160329,2557.6420,N,08004.6043,W,1,9,1.9,17,M,,M,,*50
06/10/2014	16:03:32.126	$GPGGA,160330,2557.6399,N,08004.6044,W,1,9,1.9,17,M,,M,,*5A
06/10/2014	16:03:33.229	$GPGGA,160331,2557.6378,N,08004.6044,W,1,9,1.9,17,M,,M,,*54
06/10/2014	16:03:34.137	$GPGGA,160332,2557.6357,N,08004.6044,W,1,9,1.9,17,M,,M,,*5A
06/10/2014	16:03:35.149	$GPGGA,160333,2557.6335,N,08004.6045,W,1,9,1.9,17,M,,M,,*5E
06/10/2014	16:03:36.155	$GPGGA,160334,2557.6315,N,08004.6046,W,1,9,1.9,17,M,,M,,*58
06/10/2014	16:03:37.255	$GPGGA,160335,2557.6293,N,08004.6046,W,1,9,1.9,17,M,,M,,*56
06/10/2014	16:03:38.292	$GPGGA,160336,2557.6272,N,08004.6048,W,1,9,1.9,17,M,,M,,*54
06/10/2014	16:03:39.173	$GPGGA,160337,2557.6251,N,08004.6048,W,1,9,1.9,17,M,,M,,*54
06/10/2014	16:03:40.193	$GPGGA,160338,2557.6230,N,08004.6048,W,1,9,1.9,17,M,,M,,*5C
06/10/2014	16:03:41.293	$GPGGA,160339,2557.6209,N,08004.6049,W,1,9,1.9,17,M,,M,,*56
06/10/2014	16:03:42.211	$GPGGA,160340,2557.6187,N,08004.6051,W,1,9,1.9,17,M,,M,,*54
06/10/2014	16:03:43.355	$GPGGA,160341,2557.6167,N,08004.6050,W,1,9,1.9,17,M,,M,,*5A
06/10/2014	16:03:44.305	$GPGGA,160342,2557.6145,N,08004.6051,W,1,9,1.9,17,M,,M,,*58
06/10/2014	16:03:45.346	$GPGGA,160343,2557.6124,N,08004.6051,W,1,9,1.9,17,M,,M,,*5E
06/10/2014	16:03:46.350	$GPGGA,160344,2557.6102,N,08004.6052,W,1,9,1.9,17,M,,M,,*5E
06/10/2014	16:03:47.327	$GPGGA,160345,2557.6081,N,08004.6053,W,1,9,1.9,17,M,,M,,*54
06/10/2014	16:03:48.348	$GPGGA,160346,2557.6059,N,08004.6055,W,1,9,1.9,17,M,,M,,*54
06/10/2014	16:03:49.387	$GPGGA,160347,2557.6038,N,08004.6055,W,1,9,1.9,17,M,,M,,*52
06/10/2014	16:03:50.382	$GPGGA,160348,2557.6017,N,08004.6055,W,1,9,1.9,17,M,,M,,*50
06/10/2014	16:03:51.360	$GPGGA,160349,2557.5995,N,08004.6056,W,1,9,1.9,17,M,,M,,*52
06/10/2014	16:03:52.370	$GPGGA,160350,2557.5974,N,08004.6056,W,1,9,1.9,17,M,,M,,*55
06/10/2014	16:03:53.413	$GPGGA,160351,2557.5952,N,08004.6058,W,1,9,1.9,17,M,,M,,*5E
06/10/2014	16:03:54.424	$GPGGA,160352,2557.5932,N,08004.6059,W,1,9,1.9,17,M,,M,,*5A
06/10/2014	16:03:55.424	$GPGGA,160353,2557.5910,N,08004.6059,W,1,9,1.9,17,M,,M,,*5B
06/10/2014	16:03:56.413	$GPGGA,160354,2557.5889,N,08004.6060,W,1,9,1.9,17,M,,M,,*57
06/10/2014	16:03:57.444	$GPGGA,160355,2557.5868,N,08004.6062,W,1,9,1.9,17,M,,M,,*5B
06/10/2014	16:03:58.444	$GPGGA,160356,2557.5847,N,08004.6061,W,1,9,1.9,17,M,,M,,*56
06/10/2014	16:03:59.465	$GPGGA,160357,2557.5826,N,08004.6062,W,1,9,1.9,17,M,,M,,*53
06/10/2014	16:04:00.455	$GPGGA,160358,2557.5806,N,08004.6062,W,1,9,1.9,17,M,,M,,*5E
06/10/2014	16:04:01.880	$GPGGA,160359,2557.5784,N,08004.6062,W,1,9,1.9,17,M,,M,,*5A
06/10/2014	16:04:02.497	$GPGGA,160400,2557.5763,N,08004.6063,W,1,9,1.9,17,M,,M,,*59
06/10/2014	16:04:03.477	$GPGGA,160401,2557.5742,N,08004.6064,W,1,9,1.9,17,M,,M,,*5C
06/10/2014	16:04:04.498	$GPGGA,160402,2557.5721,N,08004.6064,W,1,9,1.9,17,M,,M,,*5A
06/10/2014	16:04:05.529	$GPGGA,160403,2557.5701,N,08004.6066,W,1,9,1.9,17,M,,M,,*5B
06/10/2014	16:04:06.509	$GPGGA,160404,2557.5679,N,08004.6065,W,1,9,1.9,17,M,,M,,*51
06/10/2014	16:04:07.552	$GPGGA,160405,2557.5658,N,08004.6066,W,1,9,1.9,17,M,,M,,*50
06/10/2014	16:04:08.510	$GPGGA,160406,2557.5638,N,08004.6066,W,1,9,1.9,17,M,,M,,*55
06/10/2014	16:04:09.551	$GPGGA,160407,2557.5618,N,08004.6066,W,1,9,1.9,17,M,,M,,*56
06/10/2014	16:04:10.542	$GPGGA,160408,2557.5597,N,08004.6067,W,1,9,1.9,17,M,,M,,*5C
06/10/2014	16:04:11.674	$GPGGA,160409,2557.5576,N,08004.6067,W,1,9,1.9,17,M,,M,,*52
06/10/2014	16:04:12.553	$GPGGA,160410,2557.5555,N,08004.6067,W,1,9,1.9,17,M,,M,,*5B
06/10/2014	16:04:13.585	$GPGGA,160411,2557.5535,N,08004.6067,W,1,9,1.9,17,M,,M,,*5C
06/10/2014	16:04:14.595	$GPGGA,160412,2557.5514,N,08004.6069,W,1,9,1.9,17,M,,M,,*52
06/10/2014	16:04:15.696	$GPGGA,160413,2557.5493,N,08004.6068,W,1,9,1.9,17,M,,M,,*5C
06/10/2014	16:04:16.595	$GPGGA,160414,2557.5473,N,08004.6067,W,1,9,1.9,17,M,,M,,*5A
06/10/2014	16:04:17.616	$GPGGA,160415,2557.5452,N,08004.6067,W,1,9,1.9,17,M,,M,,*58
06/10/2014	16:04:18.717	$GPGGA,160416,2557.5431,N,08004.6066,W,1,9,1.9,17,M,,M,,*5F
06/10/2014	16:04:19.728	$GPGGA,160417,2557.5412,N,08004.6066,W,1,9,1.9,17,M,,M,,*5F
06/10/2014	16:04:20.638	$GPGGA,160418,2557.5390,N,08004.6066,W,1,9,1.9,17,M,,M,,*5D
06/10/2014	16:04:21.761	$GPGGA,160419,2557.5369,N,08004.6065,W,1,9,1.9,16,M,,M,,*58
06/10/2014	16:04:22.659	$GPGGA,160420,2557.5349,N,08004.6066,W,1,9,1.9,16,M,,M,,*53
06/10/2014	16:04:23.645	$GPGGA,160421,2557.5329,N,08004.6064,W,1,9,1.9,16,M,,M,,*56
06/10/2014	16:04:24.661	$GPGGA,160422,2557.5307,N,08004.6064,W,1,9,1.9,16,M,,M,,*59
06/10/2014	16:04:25.666	$GPGGA,160423,2557.5287,N,08004.6063,W,1,9,1.9,16,M,,M,,*56
06/10/2014	16:04:26.813	$GPGGA,160424,2557.5266,N,08004.6062,W,1,9,2.1,16,M,,M,,*54
06/10/2014	16:04:27.794	$GPGGA,160425,2557.5246,N,08004.6062,W,1,8,1.9,16,M,,M,,*5D
06/10/2014	16:04:28.696	$GPGGA,160426,2557.5226,N,08004.6061,W,1,8,1.9,16,M,,M,,*5B
06/10/2014	16:04:29.815	$GPGGA,160427,2557.5206,N,08004.6062,W,1,9,1.9,16,M,,M,,*5A
06/10/2014	16:04:30.826	$GPGGA,160428,2557.5188,N,08004.6061,W,1,9,1.9,16,M,,M,,*53
06/10/2014	16:04:31.836	$GPGGA,160429,2557.5167,N,08004.6060,W,1,9,1.9,16,M,,M,,*52
06/10/2014	16:04:32.828	$GPGGA,160430,2557.5148,N,08004.6059,W,1,9,1.9,16,M,,M,,*5D
06/10/2014	16:04:33.857	$GPGGA,160431,2557.5127,N,08004.6059,W,1,9,1.9,16,M,,M,,*55
06/10/2014	16:04:34.877	$GPGGA,160432,2557.5107,N,08004.6058,W,1,9,1.9,16,M,,M,,*55
06/10/2014	16:04:35.888	$GPGGA,160433,2557.5087,N,08004.6057,W,1,9,1.9,17,M,,M,,*53
06/10/2014	16:04:36.858	$GPGGA,160434,2557.5067,N,08004.6058,W,1,9,1.9,17,M,,M,,*55
06/10/2014	16:04:37.860	$GPGGA,160435,2557.5047,N,08004.6056,W,1,9,1.9,17,M,,M,,*58
06/10/2014	16:04:38.893	$GPGGA,160436,2557.5026,N,08004.6056,W,1,9,1.9,17,M,,M,,*5C
06/10/2014	16:04:39.880	$GPGGA,160437,2557.5005,N,08004.6055,W,1,9,1.9,17,M,,M,,*5F
06/10/2014	16:04:40.881	$GPGGA,160438,2557.4986,N,08004.6054,W,1,9,1.9,17,M,,M,,*52
06/10/2014	16:04:41.922	$GPGGA,160439,2557.4965,N,08004.6053,W,1,9,1.9,17,M,,M,,*59
06/10/2014	16:04:42.934	$GPGGA,160440,2557.4946,N,08004.6052,W,1,9,1.9,17,M,,M,,*57
06/10/2014	16:04:43.933	$GPGGA,160441,2557.4924,N,08004.6052,W,1,9,1.9,17,M,,M,,*52
06/10/2014	16:04:44.934	$GPGGA,160442,2557.4902,N,08004.6051,W,1,9,1.9,17,M,,M,,*56
06/10/2014	16:04:45.955	$GPGGA,160443,2557.4882,N,08004.6051,W,1,9,1.9,17,M,,M,,*5E
06/10/2014	16:04:46.955	$GPGGA,160444,2557.4861,N,08004.6050,W,1,9,1.9,17,M,,M,,*55
06/10/2014	16:04:47.946	$GPGGA,160445,2557.4841,N,08004.6051,W,1,9,1.9,18,M,,M,,*58
06/10/2014	16:04:48.967	$GPGGA,160446,2557.4820,N,08004.6050,W,1,9,1.9,18,M,,M,,*5D
06/10/2014	16:04:49.998	$GPGGA,160447,2557.4799,N,08004.6049,W,1,9,1.9,18,M,,M,,*59
06/10/2014	16:04:50.999	$GPGGA,160448,2557.4778,N,08004.6049,W,1,9,1.9,18,M,,M,,*59
06/10/2014	16:04:52.019	$GPGGA,160449,2557.4758,N,08004.6049,W,1,9,1.9,18,M,,M,,*5A
06/10/2014	16:04:53.008	$GPGGA,160450,2557.4737,N,08004.6049,W,1,9,1.9,18,M,,M,,*5B
06/10/2014	16:04:54.029	$GPGGA,160451,2557.4716,N,08004.6049,W,1,9,2.1,18,M,,M,,*52
06/10/2014	16:04:55.030	$GPGGA,160452,2557.4695,N,08004.6049,W,1,9,2.1,17,M,,M,,*54
06/10/2014	16:04:56.020	$GPGGA,160453,2557.4673,N,08004.6049,W,1,8,2.1,17,M,,M,,*5C
06/10/2014	16:04:57.051	$GPGGA,160454,2557.4652,N,08004.6049,W,1,8,1.9,17,M,,M,,*53
06/10/2014	16:04:58.066	$GPGGA,160455,2557.4632,N,08004.6049,W,1,9,1.9,17,M,,M,,*55
06/10/2014	16:04:59.062	$GPGGA,160456,2557.4611,N,08004.6049,W,1,9,1.9,17,M,,M,,*57
06/10/2014	16:05:00.077	$GPGGA,160457,2557.4592,N,08004.6051,W,1,9,1.9,17,M,,M,,*57
06/10/2014	16:05:01.163	$GPGGA,160458,2557.4570,N,08004.6050,W,1,9,1.9,17,M,,M,,*55
06/10/2014	16:05:02.078	$GPGGA,160459,2557.4550,N,08004.6051,W,1,9,1.9,17,M,,M,,*57
06/10/2014	16:05:03.094	$GPGGA,160500,2557.4529,N,08004.6051,W,1,9,1.9,17,M,,M,,*54
06/10/2014	16:05:04.089	$GPGGA,160501,2557.4509,N,08004.6052,W,1,9,1.9,17,M,,M,,*54
06/10/2014	16:05:05.051	$GPGGA,160502,2557.4489,N,08004.6052,W,1,9,1.9,17,M,,M,,*5E
06/10/2014	16:05:06.068	$GPGGA,160503,2557.4469,N,08004.6053,W,1,9,1.9,17,M,,M,,*50
06/10/2014	16:05:07.197	$GPGGA,160504,2557.4448,N,08004.6053,W,1,9,1.9,17,M,,M,,*54
06/10/2014	16:05:08.101	$GPGGA,160505,2557.4427,N,08004.6055,W,1,9,1.9,17,M,,M,,*5A
06/10/2014	16:05:09.075	$GPGGA,160506,2557.4408,N,08004.6055,W,1,9,1.9,16,M,,M,,*55
06/10/2014	16:05:10.202	$GPGGA,160507,2557.4386,N,08004.6056,W,1,9,1.9,16,M,,M,,*56
06/10/2014	16:05:11.107	$GPGGA,160508,2557.4365,N,08004.6058,W,1,9,1.9,16,M,,M,,*5A
06/10/2014	16:05:12.203	$GPGGA,160509,2557.4344,N,08004.6059,W,1,9,1.9,16,M,,M,,*59
06/10/2014	16:05:13.103	$GPGGA,160510,2557.4324,N,08004.6060,W,1,9,1.9,16,M,,M,,*5D
06/10/2014	16:05:14.186	$GPGGA,160511,2557.4303,N,08004.6062,W,1,9,1.9,16,M,,M,,*5B
06/10/2014	16:05:15.129	$GPGGA,160512,2557.4283,N,08004.6063,W,1,9,1.9,16,M,,M,,*50
06/10/2014	16:05:16.197	$GPGGA,160513,2557.4263,N,08004.6064,W,1,9,1.9,16,M,,M,,*58
06/10/2014	16:05:17.130	$GPGGA,160514,2557.4242,N,08004.6066,W,1,9,1.9,16,M,,M,,*5E
06/10/2014	16:05:18.196	$GPGGA,160515,2557.4221,N,08004.6067,W,1,9,2.1,16,M,,M,,*50
06/10/2014	16:05:19.212	$GPGGA,160516,2557.4202,N,08004.6069,W,1,9,2.1,16,M,,M,,*5C
06/10/2014	16:05:20.241	$GPGGA,160517,2557.4181,N,08004.6071,W,1,9,1.9,16,M,,M,,*57
06/10/2014	16:05:21.213	$GPGGA,160518,2557.4162,N,08004.6073,W,1,9,1.9,16,M,,M,,*57
06/10/2014	16:05:22.227	$GPGGA,160519,2557.4141,N,08004.6074,W,1,9,1.9,16,M,,M,,*50
06/10/2014	16:05:23.243	$GPGGA,160520,2557.4122,N,08004.6077,W,1,9,1.9,16,M,,M,,*5C
06/10/2014	16:05:24.243	$GPGGA,160521,2557.4101,N,08004.6077,W,1,9,1.9,16,M,,M,,*5C
06/10/2014	16:05:25.225	$GPGGA,160522,2557.4081,N,08004.6080,W,1,9,1.9,16,M,,M,,*5E
06/10/2014	16:05:26.260	$GPGGA,160523,2557.4061,N,08004.6081,W,1,9,1.9,16,M,,M,,*50
06/10/2014	16:05:27.245	$GPGGA,160524,2557.4041,N,08004.6084,W,1,9,1.9,16,M,,M,,*50
06/10/2014	16:05:28.249	$GPGGA,160525,2557.4021,N,08004.6085,W,1,9,1.9,16,M,,M,,*56
06/10/2014	16:05:29.235	$GPGGA,160526,2557.4000,N,08004.6087,W,1,9,1.9,16,M,,M,,*54
06/10/2014	16:05:30.262	$GPGGA,160527,2557.3980,N,08004.6088,W,1,9,1.9,16,M,,M,,*5C
06/10/2014	16:05:31.268	$GPGGA,160528,2557.3960,N,08004.6091,W,1,9,1.9,16,M,,M,,*55
06/10/2014	16:05:32.261	$GPGGA,160529,2557.3940,N,08004.6092,W,1,9,1.9,16,M,,M,,*55
06/10/2014	16:05:33.247	$GPGGA,160530,2557.3920,N,08004.6095,W,1,9,1.9,16,M,,M,,*5C
06/10/2014	16:05:34.272	$GPGGA,160531,2557.3900,N,08004.6095,W,1,9,1.9,16,M,,M,,*5F
06/10/2014	16:05:35.269	$GPGGA,160532,2557.3880,N,08004.6098,W,1,9,1.9,16,M,,M,,*58
06/10/2014	16:05:36.283	$GPGGA,160533,2557.3860,N,08004.6099,W,1,9,1.9,16,M,,M,,*56
06/10/2014	16:05:37.269	$GPGGA,160534,2557.3839,N,08004.6100,W,1,9,1.9,16,M,,M,,*5C
06/10/2014	16:05:38.294	$GPGGA,160535,2557.3819,N,08004.6102,W,1,9,1.9,16,M,,M,,*5D
06/10/2014	16:05:39.290	$GPGGA,160536,2557.3798,N,08004.6102,W,1,9,1.9,16,M,,M,,*58
06/10/2014	16:05:40.265	$GPGGA,160537,2557.3777,N,08004.6103,W,1,9,1.9,16,M,,M,,*59
06/10/2014	16:05:41.281	$GPGGA,160538,2557.3755,N,08004.6103,W,1,9,2.1,16,M,,M,,*5D
06/10/2014	16:05:42.306	$GPGGA,160539,2557.3734,N,08004.6105,W,1,9,1.9,16,M,,M,,*56
06/10/2014	16:05:43.302	$GPGGA,160540,2557.3714,N,08004.6104,W,1,9,2.1,16,M,,M,,*50
06/10/2014	16:05:44.316	$GPGGA,160541,2557.3692,N,08004.6105,W,1,9,1.9,16,M,,M,,*54
06/10/2014	16:05:45.302	$GPGGA,160542,2557.3672,N,08004.6105,W,1,9,1.9,16,M,,M,,*59
06/10/2014	16:05:46.327	$GPGGA,160543,2557.3651,N,08004.6105,W,1,9,1.9,16,M,,M,,*59
06/10/2014	16:05:47.303	$GPGGA,160544,2557.3631,N,08004.6105,W,1,9,1.9,16,M,,M,,*58
06/10/2014	16:05:48.298	$GPGGA,160545,2557.3611,N,08004.6105,W,1,9,1.9,16,M,,M,,*5B
06/10/2014	16:05:49.304	$GPGGA,160546,2557.3591,N,08004.6105,W,1,9,1.9,16,M,,M,,*53
06/10/2014	16:05:50.329	$GPGGA,160547,2557.3569,N,08004.6104,W,1,9,1.9,16,M,,M,,*54
06/10/2014	16:05:51.325	$GPGGA,160548,2557.3549,N,08004.6105,W,1,9,1.9,16,M,,M,,*58
06/10/2014	16:05:52.441	$GPGGA,160549,2557.3530,N,08004.6104,W,1,9,1.9,16,M,,M,,*56
06/10/2014	16:05:53.315	$GPGGA,160550,2557.3509,N,08004.6105,W,1,9,1.9,15,M,,M,,*56
06/10/2014	16:05:54.321	$GPGGA,160551,2557.3490,N,08004.6103,W,1,9,1.9,15,M,,M,,*50
06/10/2014	16:05:55.347	$GPGGA,160552,2557.3468,N,08004.6103,W,1,9,1.9,15,M,,M,,*54
06/10/2014	16:05:56.352	$GPGGA,160553,2557.3448,N,08004.6103,W,1,9,1.9,15,M,,M,,*57
06/10/2014	16:05:57.330	$GPGGA,160554,2557.3428,N,08004.6102,W,1,9,1.9,15,M,,M,,*57
06/10/2014	16:05:58.464	$GPGGA,160555,2557.3408,N,08004.6102,W,1,9,1.9,15,M,,M,,*54
06/10/2014	16:05:59.359	$GPGGA,160556,2557.3387,N,08004.6102,W,1,9,1.9,15,M,,M,,*57
06/10/2014	16:06:00.336	$GPGGA,160557,2557.3367,N,08004.6101,W,1,9,1.9,15,M,,M,,*5B
06/10/2014	16:06:01.359	$GPGGA,160558,2557.3346,N,08004.6102,W,1,9,1.9,15,M,,M,,*54
06/10/2014	16:06:02.454	$GPGGA,160559,2557.3326,N,08004.6101,W,1,9,1.9,15,M,,M,,*50
06/10/2014	16:06:03.480	$GPGGA,160600,2557.3306,N,08004.6100,W,1,9,1.9,15,M,,M,,*5C
06/10/2014	16:06:04.459	$GPGGA,160601,2557.3286,N,08004.6100,W,1,9,1.9,15,M,,M,,*54
06/10/2014	16:06:05.364	$GPGGA,160602,2557.3266,N,08004.6100,W,1,9,1.9,15,M,,M,,*59
06/10/2014	16:06:06.487	$GPGGA,160603,2557.3245,N,08004.6099,W,1,9,1.9,15,M,,M,,*58
06/10/2014	16:06:07.482	$GPGGA,160604,2557.3225,N,08004.6099,W,1,9,1.9,15,M,,M,,*59
06/10/2014	16:06:08.470	$GPGGA,160605,2557.3204,N,08004.6099,W,1,9,1.9,15,M,,M,,*5B
06/10/2014	16:06:09.478	$GPGGA,160606,2557.3183,N,08004.6098,W,1,9,2.1,15,M,,M,,*5E
06/10/2014	16:06:10.509	$GPGGA,160607,2557.3163,N,08004.6098,W,1,8,2.1,15,M,,M,,*50
06/10/2014	16:06:11.497	$GPGGA,160608,2557.3143,N,08004.6098,W,1,8,1.9,15,M,,M,,*56
06/10/2014	16:06:12.501	$GPGGA,160609,2557.3123,N,08004.6099,W,1,9,1.9,15,M,,M,,*51
06/10/2014	16:06:13.486	$GPGGA,160610,2557.3102,N,08004.6099,W,1,9,1.9,15,M,,M,,*5A
06/10/2014	16:06:14.510	$GPGGA,160611,2557.3080,N,08004.6099,W,1,8,2.1,15,M,,M,,*5A
06/10/2014	16:06:15.509	$GPGGA,160612,2557.3060,N,08004.6099,W,1,8,2.1,15,M,,M,,*57
06/10/2014	16:06:16.511	$GPGGA,160613,2557.3039,N,08004.6099,W,1,8,2.1,15,M,,M,,*5A
06/10/2014	16:06:17.507	$GPGGA,160614,2557.3018,N,08004.6099,W,1,8,2.1,15,M,,M,,*5E
06/10/2014	16:06:18.527	$GPGGA,160615,2557.2997,N,08004.6099,W,1,8,2.1,15,M,,M,,*50
06/10/2014	16:06:19.517	$GPGGA,160616,2557.2977,N,08004.6099,W,1,8,2.1,15,M,,M,,*5D
06/10/2014	16:06:20.545	$GPGGA,160617,2557.2955,N,08004.6099,W,1,8,2.1,15,M,,M,,*5C
06/10/2014	16:06:21.509	$GPGGA,160618,2557.2934,N,08004.6100,W,1,8,2.1,15,M,,M,,*55
06/10/2014	16:06:22.546	$GPGGA,160619,2557.2913,N,08004.6100,W,1,8,2.1,15,M,,M,,*51
06/10/2014	16:06:23.530	$GPGGA,160620,2557.2894,N,08004.6102,W,1,8,2.1,15,M,,M,,*57
06/10/2014	16:06:24.534	$GPGGA,160621,2557.2872,N,08004.6101,W,1,9,1.9,15,M,,M,,*57
06/10/2014	16:06:25.530	$GPGGA,160622,2557.2852,N,08004.6102,W,1,9,1.9,15,M,,M,,*55
06/10/2014	16:06:26.545	$GPGGA,160623,2557.2832,N,08004.6103,W,1,9,1.9,15,M,,M,,*53
06/10/2014	16:06:27.561	$GPGGA,160624,2557.2813,N,08004.6103,W,1,9,1.9,14,M,,M,,*56
06/10/2014	16:06:28.546	$GPGGA,160625,2557.2793,N,08004.6105,W,1,9,1.9,14,M,,M,,*56
06/10/2014	16:06:29.532	$GPGGA,160626,2557.2773,N,08004.6106,W,1,9,1.9,14,M,,M,,*58
06/10/2014	16:06:30.577	$GPGGA,160627,2557.2753,N,08004.6107,W,1,9,1.9,15,M,,M,,*5B
06/10/2014	16:06:31.563	$GPGGA,160628,2557.2732,N,08004.6109,W,1,9,1.9,15,M,,M,,*5D
06/10/2014	16:06:32.548	$GPGGA,160629,2557.2712,N,08004.6109,W,1,9,1.9,15,M,,M,,*5E
06/10/2014	16:06:33.554	$GPGGA,160630,2557.2691,N,08004.6111,W,1,9,1.9,15,M,,M,,*55
06/10/2014	16:06:34.569	$GPGGA,160631,2557.2670,N,08004.6113,W,1,9,1.9,15,M,,M,,*59
06/10/2014	16:06:35.585	$GPGGA,160632,2557.2649,N,08004.6114,W,1,9,1.9,15,M,,M,,*57
06/10/2014	16:06:36.600	$GPGGA,160633,2557.2628,N,08004.6116,W,1,9,1.9,15,M,,M,,*53
06/10/2014	16:06:37.565	$GPGGA,160634,2557.2608,N,08004.6117,W,1,9,1.9,15,M,,M,,*57
06/10/2014	16:06:38.581	$GPGGA,160635,2557.2587,N,08004.6118,W,1,9,1.9,15,M,,M,,*5D
06/10/2014	16:06:39.586	$GPGGA,160636,2557.2566,N,08004.6120,W,1,9,1.9,15,M,,M,,*5A
06/10/2014	16:06:40.672	$GPGGA,160637,2557.2545,N,08004.6123,W,1,9,1.9,15,M,,M,,*59
06/10/2014	16:06:41.576	$GPGGA,160638,2557.2524,N,08004.6124,W,1,9,1.9,15,M,,M,,*56
06/10/2014	16:06:42.602	$GPGGA,160639,2557.2504,N,08004.6125,W,1,9,1.9,15,M,,M,,*54
06/10/2014	16:06:43.718	$GPGGA,160640,2557.2482,N,08004.6127,W,1,9,2.1,15,M,,M,,*5C
06/10/2014	16:06:44.623	$GPGGA,160641,2557.2461,N,08004.6129,W,1,8,2.1,15,M,,M,,*5F
06/10/2014	16:06:45.598	$GPGGA,160642,2557.2440,N,08004.6131,W,1,8,1.9,15,M,,M,,*5D
06/10/2014	16:06:46.624	$GPGGA,160643,2557.2419,N,08004.6132,W,1,9,1.9,15,M,,M,,*52
06/10/2014	16:06:47.710	$GPGGA,160644,2557.2399,N,08004.6134,W,1,9,1.9,15,M,,M,,*5C
06/10/2014	16:06:48.615	$GPGGA,160645,2557.2377,N,08004.6136,W,1,8,2.1,15,M,,M,,*55
06/10/2014	16:06:49.707	$GPGGA,160646,2557.2356,N,08004.6138,W,1,8,1.9,15,M,,M,,*50
06/10/2014	16:06:50.716	$GPGGA,160647,2557.2335,N,08004.6141,W,1,9,1.9,15,M,,M,,*5B
06/10/2014	16:06:51.631	$GPGGA,160648,2557.2316,N,08004.6142,W,1,9,1.9,15,M,,M,,*56
06/10/2014	16:06:52.718	$GPGGA,160649,2557.2294,N,08004.6143,W,1,9,1.9,15,M,,M,,*5D
06/10/2014	16:06:53.723	$GPGGA,160650,2557.2274,N,08004.6145,W,1,9,2.1,15,M,,M,,*56
06/10/2014	16:06:54.718	$GPGGA,160651,2557.2254,N,08004.6147,W,1,9,1.9,15,M,,M,,*5C
06/10/2014	16:06:55.753	$GPGGA,160652,2557.2234,N,08004.6149,W,1,9,1.9,15,M,,M,,*57
06/10/2014	16:06:56.759	$GPGGA,160653,2557.2215,N,08004.6150,W,1,9,1.9,15,M,,M,,*5D
06/10/2014	16:06:57.734	$GPGGA,160654,2557.2194,N,08004.6152,W,1,9,1.9,15,M,,M,,*52
06/10/2014	16:06:58.770	$GPGGA,160655,2557.2173,N,08004.6153,W,1,9,1.9,15,M,,M,,*5B
06/10/2014	16:06:59.756	$GPGGA,160656,2557.2153,N,08004.6154,W,1,9,1.9,15,M,,M,,*5D
06/10/2014	16:07:00.761	$GPGGA,160657,2557.2132,N,08004.6156,W,1,9,1.9,15,M,,M,,*59
06/10/2014	16:07:01.758	$GPGGA,160658,2557.2112,N,08004.6157,W,1,9,1.9,15,M,,M,,*55
06/10/2014	16:07:02.801	$GPGGA,160659,2557.2092,N,08004.6158,W,1,9,1.9,16,M,,M,,*51
06/10/2014	16:07:03.775	$GPGGA,160700,2557.2070,N,08004.6160,W,1,9,1.9,16,M,,M,,*5B
06/10/2014	16:07:04.760	$GPGGA,160701,2557.2050,N,08004.6160,W,1,9,1.9,16,M,,M,,*58
06/10/2014	16:07:05.765	$GPGGA,160702,2557.2029,N,08004.6161,W,1,9,1.9,16,M,,M,,*54
06/10/2014	16:07:06.794	$GPGGA,160703,2557.2009,N,08004.6163,W,1,9,1.9,16,M,,M,,*55
06/10/2014	16:07:07.775	$GPGGA,160704,2557.1988,N,08004.6163,W,1,9,1.9,16,M,,M,,*51
06/10/2014	16:07:08.789	$GPGGA,160705,2557.1969,N,08004.6163,W,1,9,1.9,16,M,,M,,*5F
06/10/2014	16:07:09.763	$GPGGA,160706,2557.1947,N,08004.6164,W,1,9,1.9,16,M,,M,,*57
06/10/2014	16:07:10.778	$GPGGA,160707,2557.1926,N,08004.6165,W,1,9,1.9,16,M,,M,,*50
06/10/2014	16:07:11.794	$GPGGA,160708,2557.1905,N,08004.6165,W,1,9,1.9,16,M,,M,,*5E
06/10/2014	16:07:12.766	$GPGGA,160709,2557.1886,N,08004.6167,W,1,8,2.1,16,M,,M,,*5D
06/10/2014	16:07:13.771	$GPGGA,160710,2557.1863,N,08004.6166,W,1,8,1.9,16,M,,M,,*54
06/10/2014	16:07:14.806	$GPGGA,160711,2557.1842,N,08004.6167,W,1,8,2.1,16,M,,M,,*5C
06/10/2014	16:07:15.801	$GPGGA,160712,2557.1821,N,08004.6167,W,1,8,2.1,16,M,,M,,*5A
06/10/2014	16:07:16.775	$GPGGA,160713,2557.1800,N,08004.6168,W,1,8,2.1,16,M,,M,,*57
06/10/2014	16:07:17.810	$GPGGA,160714,2557.1778,N,08004.6168,W,1,8,1.9,16,M,,M,,*5B
06/10/2014	16:07:18.825	$GPGGA,160715,2557.1758,N,08004.6170,W,1,8,2.1,16,M,,M,,*5A
06/10/2014	16:07:19.809	$GPGGA,160716,2557.1738,N,08004.6169,W,1,8,1.9,16,M,,M,,*5C
06/10/2014	16:07:20.794	$GPGGA,160717,2557.1717,N,08004.6171,W,1,9,1.9,16,M,,M,,*58
06/10/2014	16:07:21.799	$GPGGA,160718,2557.1696,N,08004.6170,W,1,9,1.9,16,M,,M,,*5E
06/10/2014	16:07:22.813	$GPGGA,160719,2557.1676,N,08004.6171,W,1,9,1.9,16,M,,M,,*50
06/10/2014	16:07:23.989	$GPGGA,160720,2557.1655,N,08004.6170,W,1,9,1.9,16,M,,M,,*5A
06/10/2014	16:07:24.953	$GPGGA,160721,2557.1635,N,08004.6171,W,1,9,1.9,16,M,,M,,*5C
06/10/2014	16:07:25.837	$GPGGA,160722,2557.1615,N,08004.6170,W,1,9,1.9,16,M,,M,,*5C
06/10/2014	16:07:26.973	$GPGGA,160723,2557.1594,N,08004.6171,W,1,9,1.9,16,M,,M,,*56
06/10/2014	16:07:27.827	$GPGGA,160724,2557.1574,N,08004.6170,W,1,9,1.9,16,M,,M,,*5E
06/10/2014	16:07:28.821	$GPGGA,160725,2557.1553,N,08004.6171,W,1,9,1.9,16,M,,M,,*5B
06/10/2014	16:07:29.915	$GPGGA,160726,2557.1532,N,08004.6169,W,1,9,1.9,16,M,,M,,*56
06/10/2014	16:07:30.830	$GPGGA,160727,2557.1512,N,08004.6170,W,1,9,1.9,16,M,,M,,*5D
06/10/2014	16:07:32.015	$GPGGA,160728,2557.1492,N,08004.6169,W,1,9,1.9,16,M,,M,,*53
06/10/2014	16:07:32.970	$GPGGA,160729,2557.1471,N,08004.6170,W,1,9,1.9,16,M,,M,,*57
06/10/2014	16:07:33.995	$GPGGA,160730,2557.1450,N,08004.6168,W,1,9,1.9,16,M,,M,,*55
06/10/2014	16:07:34.959	$GPGGA,160731,2557.1431,N,08004.6168,W,1,9,1.9,16,M,,M,,*53
06/10/2014	16:07:35.843	$GPGGA,160732,2557.1409,N,08004.6168,W,1,9,1.9,16,M,,M,,*5B
06/10/2014	16:07:36.848	$GPGGA,160733,2557.1389,N,08004.6168,W,1,9,1.9,16,M,,M,,*55
06/10/2014	16:07:38.003	$GPGGA,160734,2557.1368,N,08004.6168,W,1,9,1.9,16,M,,M,,*5D
06/10/2014	16:07:39.008	$GPGGA,160735,2557.1348,N,08004.6168,W,1,9,1.9,16,M,,M,,*5E
06/10/2014	16:07:39.952	$GPGGA,160736,2557.1326,N,08004.6168,W,1,9,1.9,16,M,,M,,*55
06/10/2014	16:07:40.967	$GPGGA,160737,2557.1305,N,08004.6168,W,1,9,1.9,16,M,,M,,*55
06/10/2014	16:07:41.947	$GPGGA,160738,2557.1286,N,08004.6168,W,1,9,1.9,16,M,,M,,*50
06/10/2014	16:07:42.947	$GPGGA,160739,2557.1264,N,08004.6168,W,1,9,1.9,16,M,,M,,*5D
06/10/2014	16:07:44.044	$GPGGA,160740,2557.1243,N,08004.6168,W,1,9,1.9,16,M,,M,,*56
06/10/2014	16:07:45.006	$GPGGA,160741,2557.1222,N,08004.6168,W,1,8,2.1,16,M,,M,,*5A
06/10/2014	16:07:45.965	$GPGGA,160742,2557.1201,N,08004.6168,W,1,8,2.1,16,M,,M,,*58
06/10/2014	16:07:47.005	$GPGGA,160743,2557.1180,N,08004.6168,W,1,8,1.9,16,M,,M,,*58
06/10/2014	16:07:47.979	$GPGGA,160744,2557.1160,N,08004.6168,W,1,8,1.9,16,M,,M,,*51
06/10/2014	16:07:48.964	$GPGGA,160745,2557.1138,N,08004.6168,W,1,8,2.1,16,M,,M,,*56
06/10/2014	16:07:49.968	$GPGGA,160746,2557.1117,N,08004.6168,W,1,8,2.1,16,M,,M,,*58
06/10/2014	16:07:51.013	$GPGGA,160747,2557.1096,N,08004.6168,W,1,8,2.1,16,M,,M,,*51
06/10/2014	16:07:52.058	$GPGGA,160748,2557.1077,N,08004.6170,W,1,8,2.1,16,M,,M,,*58
06/10/2014	16:07:53.023	$GPGGA,160749,2557.1055,N,08004.6169,W,1,8,2.1,16,M,,M,,*51
06/10/2014	16:07:54.057	$GPGGA,160750,2557.1035,N,08004.6171,W,1,8,2.1,15,M,,M,,*55
06/10/2014	16:07:55.021	$GPGGA,160751,2557.1014,N,08004.6170,W,1,8,2.1,15,M,,M,,*56
06/10/2014	16:07:56.009	$GPGGA,160752,2557.0994,N,08004.6171,W,1,8,2.1,15,M,,M,,*54
06/10/2014	16:07:57.039	$GPGGA,160753,2557.0974,N,08004.6172,W,1,8,2.1,15,M,,M,,*58
06/10/2014	16:07:57.987	$GPGGA,160754,2557.0954,N,08004.6172,W,1,8,2.1,15,M,,M,,*5D
06/10/2014	16:07:59.024	$GPGGA,160755,2557.0936,N,08004.6174,W,1,8,1.9,15,M,,M,,*55
06/10/2014	16:08:00.005	$GPGGA,160756,2557.0915,N,08004.6174,W,1,8,1.9,15,M,,M,,*57
06/10/2014	16:08:01.052	$GPGGA,160757,2557.0894,N,08004.6175,W,1,9,1.9,15,M,,M,,*5E
06/10/2014	16:08:02.068	$GPGGA,160758,2557.0875,N,08004.6178,W,1,9,1.9,15,M,,M,,*53
06/10/2014	16:08:03.064	$GPGGA,160759,2557.0855,N,08004.6178,W,1,9,1.9,15,M,,M,,*50
06/10/2014	16:08:04.114	$GPGGA,160800,2557.0835,N,08004.6179,W,1,9,1.9,15,M,,M,,*54
06/10/2014	16:08:05.071	$GPGGA,160801,2557.0815,N,08004.6181,W,1,9,1.9,15,M,,M,,*50
06/10/2014	16:08:06.012	$GPGGA,160802,2557.0795,N,08004.6182,W,1,9,1.9,15,M,,M,,*57
06/10/2014	16:08:07.070	$GPGGA,160803,2557.0775,N,08004.6183,W,1,9,1.9,15,M,,M,,*59
06/10/2014	16:08:08.112	$GPGGA,160804,2557.0755,N,08004.6185,W,1,9,1.9,15,M,,M,,*5A
06/10/2014	16:08:09.037	$GPGGA,160805,2557.0735,N,08004.6186,W,1,9,1.9,15,M,,M,,*5E
06/10/2014	16:08:10.021	$GPGGA,160806,2557.0715,N,08004.6188,W,1,9,1.9,15,M,,M,,*51
06/10/2014	16:08:11.046	$GPGGA,160807,2557.0694,N,08004.6189,W,1,9,1.9,15,M,,M,,*59
06/10/2014	16:08:12.100	$GPGGA,160808,2557.0674,N,08004.6189,W,1,9,1.9,15,M,,M,,*58
06/10/2014	16:08:13.105	$GPGGA,160809,2557.0654,N,08004.6192,W,1,9,1.9,15,M,,M,,*51
06/10/2014	16:08:14.094	$GPGGA,160810,2557.0633,N,08004.6192,W,1,9,1.9,15,M,,M,,*58
06/10/2014	16:08:15.155	$GPGGA,160811,2557.0612,N,08004.6194,W,1,9,1.9,15,M,,M,,*5C
06/10/2014	16:08:16.116	$GPGGA,160812,2557.0591,N,08004.6196,W,1,9,2.1,15,M,,M,,*5E
06/10/2014	16:08:17.175	$GPGGA,160813,2557.0571,N,08004.6197,W,1,8,1.9,15,M,,M,,*5A
06/10/2014	16:08:18.139	$GPGGA,160814,2557.0551,N,08004.6199,W,1,8,1.9,15,M,,M,,*51
06/10/2014	16:08:19.109	$GPGGA,160815,2557.0531,N,08004.6200,W,1,9,1.9,15,M,,M,,*54
06/10/2014	16:08:20.179	$GPGGA,160816,2557.0510,N,08004.6203,W,1,9,1.9,16,M,,M,,*54
06/10/2014	16:08:21.050	$GPGGA,160817,2557.0489,N,08004.6204,W,1,9,1.9,16,M,,M,,*53
06/10/2014	16:08:22.148	$GPGGA,160818,2557.0470,N,08004.6206,W,1,9,1.9,16,M,,M,,*58
06/10/2014	16:08:23.182	$GPGGA,160819,2557.0448,N,08004.6207,W,1,9,1.9,16,M,,M,,*53
06/10/2014	16:08:24.166	$GPGGA,160820,2557.0428,N,08004.6208,W,1,9,1.9,16,M,,M,,*50
06/10/2014	16:08:25.163	$GPGGA,160821,2557.0407,N,08004.6210,W,1,9,1.9,16,M,,M,,*55
06/10/2014	16:08:26.125	$GPGGA,160822,2557.0387,N,08004.6212,W,1,9,1.9,16,M,,M,,*5B
06/10/2014	16:08:27.130	$GPGGA,160823,2557.0366,N,08004.6214,W,1,9,1.9,16,M,,M,,*53
06/10/2014	16:08:28.175	$GPGGA,160824,2557.0347,N,08004.6215,W,1,9,1.9,16,M,,M,,*56
06/10/2014	16:08:29.200	$GPGGA,160825,2557.0327,N,08004.6217,W,1,9,1.9,16,M,,M,,*53
06/10/2014	16:08:30.176	$GPGGA,160826,2557.0307,N,08004.6219,W,1,9,1.9,16,M,,M,,*5C
06/10/2014	16:08:31.185	$GPGGA,160827,2557.0287,N,08004.6221,W,1,9,1.9,16,M,,M,,*5F
06/10/2014	16:08:32.214	$GPGGA,160828,2557.0267,N,08004.6222,W,1,9,1.9,16,M,,M,,*5D
06/10/2014	16:08:33.219	$GPGGA,160829,2557.0246,N,08004.6223,W,1,9,1.9,16,M,,M,,*5E
06/10/2014	16:08:34.183	$GPGGA,160830,2557.0226,N,08004.6225,W,1,9,1.9,16,M,,M,,*56
06/10/2014	16:08:35.200	$GPGGA,160831,2557.0206,N,08004.6228,W,1,9,1.9,16,M,,M,,*58
06/10/2014	16:08:36.223	$GPGGA,160832,2557.0185,N,08004.6228,W,1,9,1.9,16,M,,M,,*53
06/10/2014	16:08:37.210	$GPGGA,160833,2557.0164,N,08004.6230,W,1,9,1.9,16,M,,M,,*54
06/10/2014	16:08:38.212	$GPGGA,160834,2557.0145,N,08004.6232,W,1,9,1.9,16,M,,M,,*52
06/10/2014	16:08:39.227	$GPGGA,160835,2557.0124,N,08004.6232,W,1,9,1.9,16,M,,M,,*54
06/10/2014	16:08:40.240	$GPGGA,160836,2557.0105,N,08004.6235,W,1,9,1.9,16,M,,M,,*53
06/10/2014	16:08:41.217	$GPGGA,160837,2557.0083,N,08004.6236,W,1,9,1.9,17,M,,M,,*5F
06/10/2014	16:08:42.200	$GPGGA,160838,2557.0063,N,08004.6236,W,1,9,1.9,17,M,,M,,*5E
06/10/2014	16:08:43.234	$GPGGA,160839,2557.0043,N,08004.6237,W,1,9,1.9,17,M,,M,,*5C
06/10/2014	16:08:44.269	$GPGGA,160840,2557.0022,N,08004.6239,W,1,9,1.9,17,M,,M,,*5B
06/10/2014	16:08:45.242	$GPGGA,160841,2557.0002,N,08004.6238,W,1,9,1.9,17,M,,M,,*59
06/10/2014	16:08:32.840	$GPGGA,160842,2557.0002,N,08004.6238,W,1,9,1.9,17,M,,M,,*5A
06/10/2014	16:08:33.885	$GPGGA,160843,2556.9960,N,08004.6240,W,1,9,1.9,17,M,,M,,*51
06/10/2014	16:08:34.869	$GPGGA,160844,2556.9939,N,08004.6240,W,1,9,2.1,17,M,,M,,*51
06/10/2014	16:08:35.874	$GPGGA,160845,2556.9919,N,08004.6241,W,1,8,1.9,17,M,,M,,*59
06/10/2014	16:08:36.869	$GPGGA,160846,2556.9899,N,08004.6243,W,1,8,1.9,17,M,,M,,*51
06/10/2014	16:08:37.894	$GPGGA,160847,2556.9878,N,08004.6242,W,1,9,1.9,17,M,,M,,*5F
06/10/2014	16:08:38.878	$GPGGA,160848,2556.9859,N,08004.6243,W,1,9,1.9,17,M,,M,,*52
06/10/2014	16:08:39.893	$GPGGA,160849,2556.9838,N,08004.6243,W,1,9,1.9,17,M,,M,,*54
06/10/2014	16:08:40.888	$GPGGA,160850,2556.9817,N,08004.6244,W,1,9,1.9,17,M,,M,,*56
06/10/2014	16:08:41.852	$GPGGA,160851,2556.9798,N,08004.6244,W,1,9,1.9,17,M,,M,,*5F
06/10/2014	16:08:42.937	$GPGGA,160852,2556.9776,N,08004.6246,W,1,9,1.9,17,M,,M,,*5E
06/10/2014	16:08:43.892	$GPGGA,160853,2556.9756,N,08004.6245,W,1,9,1.9,17,M,,M,,*5E
06/10/2014	16:08:44.966	$GPGGA,160854,2556.9735,N,08004.6246,W,1,9,1.9,17,M,,M,,*5F
06/10/2014	16:08:45.900	$GPGGA,160855,2556.9715,N,08004.6246,W,1,9,1.9,17,M,,M,,*5C
06/10/2014	16:08:46.895	$GPGGA,160856,2556.9694,N,08004.6247,W,1,9,1.9,17,M,,M,,*56
06/10/2014	16:08:47.889	$GPGGA,160857,2556.9675,N,08004.6247,W,1,9,1.9,17,M,,M,,*58
06/10/2014	16:08:48.894	$GPGGA,160858,2556.9675,N,08004.6247,W,1,9,1.9,17,M,,M,,*57
06/10/2014	16:08:49.909	$GPGGA,160859,2556.9635,N,08004.6247,W,1,9,1.9,17,M,,M,,*52
06/10/2014	16:08:51.024	$GPGGA,160900,2556.9613,N,08004.6247,W,1,9,1.9,17,M,,M,,*5B
06/10/2014	16:08:51.898	$GPGGA,160901,2556.9593,N,08004.6247,W,1,9,1.9,17,M,,M,,*51
06/10/2014	16:08:52.983	$GPGGA,160902,2556.9574,N,08004.6247,W,1,9,1.9,17,M,,M,,*5B
06/10/2014	16:08:53.928	$GPGGA,160903,2556.9552,N,08004.6248,W,1,9,1.9,17,M,,M,,*51
06/10/2014	16:08:55.023	$GPGGA,160904,2556.9532,N,08004.6247,W,1,9,1.9,17,M,,M,,*5F
06/10/2014	16:08:55.887	$GPGGA,160905,2556.9511,N,08004.6248,W,1,9,1.9,17,M,,M,,*50
06/10/2014	16:08:57.002	$GPGGA,160906,2556.9491,N,08004.6248,W,1,9,1.9,17,M,,M,,*5A
06/10/2014	16:08:57.997	$GPGGA,160907,2556.9470,N,08004.6248,W,1,9,1.9,17,M,,M,,*54
06/10/2014	16:08:58.931	$GPGGA,160908,2556.9470,N,08004.6248,W,1,9,1.9,17,M,,M,,*5B
06/10/2014	16:09:00.016	$GPGGA,160909,2556.9430,N,08004.6248,W,1,9,1.9,17,M,,M,,*5E
06/10/2014	16:09:01.011	$GPGGA,160910,2556.9409,N,08004.6248,W,1,9,1.9,17,M,,M,,*5C
06/10/2014	16:09:01.914	$GPGGA,160911,2556.9388,N,08004.6250,W,1,9,1.9,17,M,,M,,*5A
06/10/2014	16:09:03.029	$GPGGA,160912,2556.9368,N,08004.6249,W,1,9,1.9,17,M,,M,,*5F
06/10/2014	16:09:04.024	$GPGGA,160913,2556.9347,N,08004.6250,W,1,9,1.9,17,M,,M,,*5B
06/10/2014	16:09:05.022	$GPGGA,160914,2556.9328,N,08004.6250,W,1,9,2.1,17,M,,M,,*5E
06/10/2014	16:09:06.043	$GPGGA,160915,2556.9306,N,08004.6249,W,1,9,1.9,17,M,,M,,*50
06/10/2014	16:09:07.069	$GPGGA,160916,2556.9286,N,08004.6250,W,1,9,2.1,17,M,,M,,*59
06/10/2014	16:09:08.057	$GPGGA,160917,2556.9267,N,08004.6250,W,1,9,1.9,17,M,,M,,*5C
06/10/2014	16:09:09.044	$GPGGA,160918,2556.9245,N,08004.6251,W,1,9,1.9,17,M,,M,,*52
06/10/2014	16:09:10.049	$GPGGA,160919,2556.9225,N,08004.6251,W,1,9,1.9,17,M,,M,,*55
06/10/2014	16:09:11.056	$GPGGA,160920,2556.9204,N,08004.6253,W,1,9,1.9,17,M,,M,,*5E
06/10/2014	16:09:12.033	$GPGGA,160921,2556.9184,N,08004.6254,W,1,9,1.9,17,M,,M,,*53
06/10/2014	16:09:13.050	$GPGGA,160922,2556.9162,N,08004.6253,W,1,9,2.1,17,M,,M,,*54
06/10/2014	16:09:14.032	$GPGGA,160923,2556.9141,N,08004.6254,W,1,8,2.1,17,M,,M,,*52
06/10/2014	16:09:15.059	$GPGGA,160924,2556.9141,N,08004.6254,W,1,8,1.9,17,M,,M,,*5E
06/10/2014	16:09:16.080	$GPGGA,160925,2556.9099,N,08004.6255,W,1,9,1.9,17,M,,M,,*5B
06/10/2014	16:09:17.045	$GPGGA,160926,2556.9079,N,08004.6257,W,1,9,1.9,17,M,,M,,*54
06/10/2014	16:09:18.074	$GPGGA,160927,2556.9058,N,08004.6257,W,1,9,1.9,16,M,,M,,*57
06/10/2014	16:09:19.117	$GPGGA,160928,2556.9039,N,08004.6257,W,1,9,1.9,16,M,,M,,*5F
06/10/2014	16:09:20.083	$GPGGA,160929,2556.9017,N,08004.6259,W,1,9,1.9,16,M,,M,,*5C
06/10/2014	16:09:21.063	$GPGGA,160930,2556.8997,N,08004.6261,W,1,9,1.9,16,M,,M,,*5F
06/10/2014	16:09:22.077	$GPGGA,160931,2556.8976,N,08004.6261,W,1,9,1.9,16,M,,M,,*51
06/10/2014	16:09:23.082	$GPGGA,160932,2556.8956,N,08004.6262,W,1,9,1.9,16,M,,M,,*53
06/10/2014	16:09:24.077	$GPGGA,160933,2556.8935,N,08004.6264,W,1,9,1.9,16,M,,M,,*51
06/10/2014	16:09:25.071	$GPGGA,160934,2556.8915,N,08004.6264,W,1,9,1.9,16,M,,M,,*54
06/10/2014	16:09:26.096	$GPGGA,160935,2556.8895,N,08004.6265,W,1,9,1.9,16,M,,M,,*5D
06/10/2014	16:09:27.091	$GPGGA,160936,2556.8873,N,08004.6268,W,1,9,1.9,16,M,,M,,*5B
06/10/2014	16:09:28.118	$GPGGA,160937,2556.8853,N,08004.6269,W,1,9,1.9,16,M,,M,,*59
06/10/2014	16:09:29.090	$GPGGA,160938,2556.8833,N,08004.6272,W,1,9,1.9,16,M,,M,,*5A
06/10/2014	16:09:30.115	$GPGGA,160939,2556.8812,N,08004.6272,W,1,9,1.9,16,M,,M,,*58
06/10/2014	16:09:31.110	$GPGGA,160940,2556.8792,N,08004.6275,W,1,9,1.9,16,M,,M,,*56
06/10/2014	16:09:32.084	$GPGGA,160941,2556.8772,N,08004.6276,W,1,9,1.9,16,M,,M,,*5A
06/10/2014	16:09:32.818	$GPGGA,160942,2556.8751,N,08004.6277,W,1,9,1.9,16,M,,M,,*59
06/10/2014	16:09:33.813	$GPGGA,160943,2556.8732,N,08004.6279,W,1,9,1.9,16,M,,M,,*53
06/10/2014	16:09:34.867	$GPGGA,160944,2556.8711,N,08004.6280,W,1,9,1.9,16,M,,M,,*53
06/10/2014	16:09:35.812	$GPGGA,160945,2556.8690,N,08004.6283,W,1,9,1.9,16,M,,M,,*59
06/10/2014	16:09:36.936	$GPGGA,160946,2556.8669,N,08004.6283,W,1,9,1.9,16,M,,M,,*5C
06/10/2014	16:09:37.840	$GPGGA,160947,2556.8649,N,08004.6286,W,1,9,1.9,16,M,,M,,*5A
06/10/2014	16:09:38.956	$GPGGA,160948,2556.8629,N,08004.6286,W,1,9,1.9,16,M,,M,,*53
06/10/2014	16:09:39.950	$GPGGA,160949,2556.8609,N,08004.6288,W,1,9,1.9,16,M,,M,,*5E
06/10/2014	16:09:40.844	$GPGGA,160950,2556.8588,N,08004.6290,W,1,9,1.9,16,M,,M,,*55
06/10/2014	16:09:41.940	$GPGGA,160951,2556.8567,N,08004.6293,W,1,9,1.9,16,M,,M,,*56
06/10/2014	16:09:42.844	$GPGGA,160952,2556.8548,N,08004.6294,W,1,9,1.9,17,M,,M,,*5E
06/10/2014	16:09:43.929	$GPGGA,160953,2556.8526,N,08004.6295,W,1,9,1.9,17,M,,M,,*56
06/10/2014	16:09:44.853	$GPGGA,160954,2556.8506,N,08004.6297,W,1,9,1.9,17,M,,M,,*51
06/10/2014	16:09:45.858	$GPGGA,160955,2556.8485,N,08004.6298,W,1,9,1.9,17,M,,M,,*55
06/10/2014	16:09:46.973	$GPGGA,160956,2556.8465,N,08004.6301,W,1,9,1.9,17,M,,M,,*59
06/10/2014	16:09:47.968	$GPGGA,160957,2556.8444,N,08004.6302,W,1,9,1.9,17,M,,M,,*58
06/10/2014	16:09:48.862	$GPGGA,160958,2556.8425,N,08004.6304,W,1,9,1.9,17,M,,M,,*56
06/10/2014	16:09:49.947	$GPGGA,160959,2556.8403,N,08004.6305,W,1,9,1.9,17,M,,M,,*52
06/10/2014	16:09:50.982	$GPGGA,161000,2556.8383,N,08004.6308,W,1,9,1.9,17,M,,M,,*54
06/10/2014	16:09:51.977	$GPGGA,161001,2556.8363,N,08004.6309,W,1,9,1.9,17,M,,M,,*5A
06/10/2014	16:09:52.961	$GPGGA,161002,2556.8342,N,08004.6311,W,1,9,1.9,17,M,,M,,*53
06/10/2014	16:09:53.995	$GPGGA,161003,2556.8321,N,08004.6311,W,1,9,1.9,17,M,,M,,*57
06/10/2014	16:09:54.990	$GPGGA,161004,2556.8302,N,08004.6313,W,1,9,1.9,17,M,,M,,*53
06/10/2014	16:09:56.004	$GPGGA,161005,2556.8280,N,08004.6315,W,1,9,1.9,17,M,,M,,*5F
06/10/2014	16:09:56.959	$GPGGA,161006,2556.8260,N,08004.6315,W,1,9,1.9,17,M,,M,,*52
06/10/2014	16:09:57.979	$GPGGA,161007,2556.8241,N,08004.6318,W,1,9,1.9,17,M,,M,,*5D
06/10/2014	16:09:58.988	$GPGGA,161008,2556.8220,N,08004.6319,W,1,9,1.9,17,M,,M,,*54
06/10/2014	16:10:00.003	$GPGGA,161009,2556.8201,N,08004.6319,W,1,9,1.9,17,M,,M,,*56
06/10/2014	16:10:00.988	$GPGGA,161010,2556.8179,N,08004.6322,W,1,9,1.9,17,M,,M,,*5A
06/10/2014	16:10:02.002	$GPGGA,161011,2556.8159,N,08004.6322,W,1,9,1.9,17,M,,M,,*59
06/10/2014	16:10:02.997	$GPGGA,161012,2556.8139,N,08004.6323,W,1,9,1.9,17,M,,M,,*5D
06/10/2014	16:10:04.016	$GPGGA,161013,2556.8118,N,08004.6326,W,1,9,1.9,17,M,,M,,*5A
06/10/2014	16:10:04.996	$GPGGA,161014,2556.8098,N,08004.6326,W,1,9,1.9,17,M,,M,,*54
06/10/2014	16:10:06.021	$GPGGA,161015,2556.8078,N,08004.6327,W,1,9,1.9,17,M,,M,,*5A
06/10/2014	16:10:07.016	$GPGGA,161016,2556.8057,N,08004.6329,W,1,9,1.9,17,M,,M,,*5A
06/10/2014	16:10:08.024	$GPGGA,161017,2556.8037,N,08004.6329,W,1,9,1.9,17,M,,M,,*5D
06/10/2014	16:10:09.005	$GPGGA,161018,2556.8017,N,08004.6330,W,1,9,1.9,17,M,,M,,*58
06/10/2014	16:10:10.033	$GPGGA,161019,2556.7996,N,08004.6330,W,1,9,1.9,17,M,,M,,*56
06/10/2014	16:10:11.028	$GPGGA,161020,2556.7977,N,08004.6331,W,1,9,1.9,17,M,,M,,*52
06/10/2014	16:10:12.042	$GPGGA,161021,2556.7955,N,08004.6333,W,1,9,1.9,17,M,,M,,*51
06/10/2014	16:10:13.003	$GPGGA,161022,2556.7935,N,08004.6332,W,1,9,1.9,17,M,,M,,*55
06/10/2014	16:10:14.018	$GPGGA,161023,2556.7914,N,08004.6333,W,1,9,1.9,17,M,,M,,*56
06/10/2014	16:10:15.042	$GPGGA,161024,2556.7894,N,08004.6333,W,1,9,1.9,17,M,,M,,*58
06/10/2014	16:10:16.047	$GPGGA,161025,2556.7874,N,08004.6333,W,1,9,1.9,17,M,,M,,*57
06/10/2014	16:10:17.022	$GPGGA,161026,2556.7854,N,08004.6334,W,1,9,1.9,17,M,,M,,*51
06/10/2014	16:10:18.046	$GPGGA,161027,2556.7834,N,08004.6334,W,1,9,1.9,17,M,,M,,*56
06/10/2014	16:10:19.051	$GPGGA,161028,2556.7813,N,08004.6334,W,1,9,1.9,17,M,,M,,*5C
06/10/2014	16:10:20.066	$GPGGA,161029,2556.7793,N,08004.6335,W,1,9,1.9,17,M,,M,,*5B
06/10/2014	16:10:21.030	$GPGGA,161030,2556.7773,N,08004.6335,W,1,9,1.9,17,M,,M,,*5D
06/10/2014	16:10:22.055	$GPGGA,161031,2556.7753,N,08004.6335,W,1,9,1.9,17,M,,M,,*5E
06/10/2014	16:10:23.060	$GPGGA,161032,2556.7732,N,08004.6335,W,1,9,1.9,17,M,,M,,*5A
06/10/2014	16:10:24.155	$GPGGA,161033,2556.7712,N,08004.6337,W,1,9,1.9,17,M,,M,,*5B
06/10/2014	16:10:25.039	$GPGGA,161034,2556.7692,N,08004.6336,W,1,9,1.9,17,M,,M,,*54
06/10/2014	16:10:26.034	$GPGGA,161035,2556.7672,N,08004.6337,W,1,9,1.9,17,M,,M,,*5A
06/10/2014	16:10:27.179	$GPGGA,161036,2556.7652,N,08004.6336,W,1,9,1.9,17,M,,M,,*5A
06/10/2014	16:10:28.174	$GPGGA,161037,2556.7631,N,08004.6337,W,1,9,1.9,17,M,,M,,*5F
06/10/2014	16:10:29.057	$GPGGA,161038,2556.7612,N,08004.6336,W,1,9,1.9,17,M,,M,,*50
06/10/2014	16:10:30.072	$GPGGA,161039,2556.7590,N,08004.6337,W,1,9,1.9,17,M,,M,,*59
06/10/2014	16:10:31.076	$GPGGA,161040,2556.7570,N,08004.6336,W,1,9,1.9,17,M,,M,,*58
06/10/2014	16:10:32.060	$GPGGA,161041,2556.7551,N,08004.6337,W,1,9,1.9,17,M,,M,,*5B
06/10/2014	16:10:32.796	$GPGGA,161042,2556.7530,N,08004.6336,W,1,9,1.9,17,M,,M,,*5E
06/10/2014	16:10:33.891	$GPGGA,161043,2556.7509,N,08004.6337,W,1,9,1.9,17,M,,M,,*54
06/10/2014	16:10:34.795	$GPGGA,161044,2556.7489,N,08004.6336,W,1,9,1.9,17,M,,M,,*5B
06/10/2014	16:10:35.800	$GPGGA,161045,2556.7468,N,08004.6337,W,1,9,1.9,17,M,,M,,*54
06/10/2014	16:10:36.885	$GPGGA,161046,2556.7448,N,08004.6336,W,1,9,1.9,17,M,,M,,*54
06/10/2014	16:10:37.891	$GPGGA,161047,2556.7428,N,08004.6337,W,1,9,1.9,17,M,,M,,*52
06/10/2014	16:10:38.824	$GPGGA,161048,2556.7407,N,08004.6336,W,1,9,1.9,17,M,,M,,*51
06/10/2014	16:10:39.929	$GPGGA,161049,2556.7388,N,08004.6337,W,1,9,1.9,17,M,,M,,*51
06/10/2014	16:10:40.907	$GPGGA,161050,2556.7366,N,08004.6337,W,1,9,1.9,17,M,,M,,*59
06/10/2014	16:10:41.918	$GPGGA,161051,2556.7346,N,08004.6337,W,1,9,1.9,17,M,,M,,*5A
06/10/2014	16:10:42.923	$GPGGA,161052,2556.7325,N,08004.6338,W,1,9,1.9,17,M,,M,,*53
06/10/2014	16:10:43.913	$GPGGA,161053,2556.7305,N,08004.6338,W,1,9,1.9,17,M,,M,,*50
06/10/2014	16:10:44.913	$GPGGA,161054,2556.7285,N,08004.6338,W,1,9,1.9,17,M,,M,,*5E
06/10/2014	16:10:45.937	$GPGGA,161055,2556.7265,N,08004.6340,W,1,9,1.9,17,M,,M,,*5E
06/10/2014	16:10:46.941	$GPGGA,161056,2556.7244,N,08004.6339,W,1,9,1.9,17,M,,M,,*50
06/10/2014	16:10:47.956	$GPGGA,161057,2556.7224,N,08004.6340,W,1,8,2.1,17,M,,M,,*53
06/10/2014	16:10:48.930	$GPGGA,161058,2556.7204,N,08004.6340,W,1,8,1.9,17,M,,M,,*55
06/10/2014	16:10:49.925	$GPGGA,161059,2556.7184,N,08004.6341,W,1,9,1.9,17,M,,M,,*5F
06/10/2014	16:10:50.960	$GPGGA,161100,2556.7164,N,08004.6342,W,1,9,1.9,17,M,,M,,*5F
06/10/2014	16:10:51.945	$GPGGA,161101,2556.7144,N,08004.6342,W,1,9,1.9,17,M,,M,,*5C
06/10/2014	16:10:52.940	$GPGGA,161102,2556.7124,N,08004.6344,W,1,9,1.9,17,M,,M,,*5F
06/10/2014	16:10:53.955	$GPGGA,161103,2556.7105,N,08004.6344,W,1,9,1.9,17,M,,M,,*5D
06/10/2014	16:10:54.958	$GPGGA,161104,2556.7085,N,08004.6344,W,1,9,1.9,17,M,,M,,*53
06/10/2014	16:10:55.993	$GPGGA,161105,2556.7065,N,08004.6345,W,1,9,1.9,17,M,,M,,*5D
06/10/2014	16:10:56.938	$GPGGA,161106,2556.7045,N,08004.6347,W,1,9,1.9,17,M,,M,,*5E
06/10/2014	16:10:57.974	$GPGGA,161107,2556.7024,N,08004.6348,W,1,9,1.9,17,M,,M,,*57
06/10/2014	16:10:58.967	$GPGGA,161108,2556.7005,N,08004.6348,W,1,9,1.9,17,M,,M,,*5B
06/10/2014	16:10:59.962	$GPGGA,161109,2556.6984,N,08004.6351,W,1,9,1.9,17,M,,M,,*53
06/10/2014	16:11:00.946	$GPGGA,161110,2556.6963,N,08004.6351,W,1,9,1.9,17,M,,M,,*52
06/10/2014	16:11:01.961	$GPGGA,161111,2556.6944,N,08004.6352,W,1,9,1.9,17,M,,M,,*55
06/10/2014	16:11:02.986	$GPGGA,161112,2556.6923,N,08004.6355,W,1,9,1.9,17,M,,M,,*50
06/10/2014	16:11:03.960	$GPGGA,161113,2556.6902,N,08004.6355,W,1,9,1.9,17,M,,M,,*52
06/10/2014	16:11:04.964	$GPGGA,161114,2556.6881,N,08004.6356,W,1,9,1.9,17,M,,M,,*5C
06/10/2014	16:11:05.979	$GPGGA,161115,2556.6861,N,08004.6358,W,1,9,1.9,17,M,,M,,*5D
06/10/2014	16:11:06.984	$GPGGA,161116,2556.6841,N,08004.6359,W,1,9,1.9,17,M,,M,,*5D
06/10/2014	16:11:07.968	$GPGGA,161117,2556.6821,N,08004.6362,W,1,9,1.9,17,M,,M,,*52
06/10/2014	16:11:08.983	$GPGGA,161118,2556.6800,N,08004.6362,W,1,9,1.9,17,M,,M,,*5E
06/10/2014	16:11:10.108	$GPGGA,161119,2556.6781,N,08004.6365,W,1,9,1.9,17,M,,M,,*5E
06/10/2014	16:11:10.992	$GPGGA,161120,2556.6760,N,08004.6366,W,1,9,1.9,17,M,,M,,*58
06/10/2014	16:11:11.997	$GPGGA,161121,2556.6740,N,08004.6367,W,1,9,1.9,17,M,,M,,*5A
06/10/2014	16:11:13.082	$GPGGA,161122,2556.6720,N,08004.6369,W,1,9,1.9,17,M,,M,,*51
06/10/2014	16:11:14.117	$GPGGA,161123,2556.6699,N,08004.6371,W,1,9,1.9,17,M,,M,,*5A
06/10/2014	16:11:15.011	$GPGGA,161124,2556.6680,N,08004.6373,W,1,9,1.9,17,M,,M,,*57
06/10/2014	16:11:16.016	$GPGGA,161125,2556.6659,N,08004.6376,W,1,9,1.9,17,M,,M,,*57
06/10/2014	16:11:17.001	$GPGGA,161126,2556.6638,N,08004.6377,W,1,9,1.9,17,M,,M,,*52
06/10/2014	16:11:18.025	$GPGGA,161127,2556.6618,N,08004.6380,W,1,9,1.9,16,M,,M,,*58
06/10/2014	16:11:19.031	$GPGGA,161128,2556.6598,N,08004.6381,W,1,9,1.9,16,M,,M,,*5D
06/10/2014	16:11:20.108	$GPGGA,161129,2556.6579,N,08004.6383,W,1,9,1.9,16,M,,M,,*51
06/10/2014	16:11:20.999	$GPGGA,161130,2556.6557,N,08004.6384,W,1,9,1.9,16,M,,M,,*52
06/10/2014	16:11:22.023	$GPGGA,161131,2556.6537,N,08004.6387,W,1,9,1.9,16,M,,M,,*56
06/10/2014	16:11:23.158	$GPGGA,161132,2556.6517,N,08004.6388,W,1,9,1.9,16,M,,M,,*58
06/10/2014	16:11:24.022	$GPGGA,161133,2556.6497,N,08004.6389,W,1,9,1.9,16,M,,M,,*51
06/10/2014	16:11:25.128	$GPGGA,161134,2556.6478,N,08004.6391,W,1,9,1.9,16,M,,M,,*5E
06/10/2014	16:11:26.112	$GPGGA,161135,2556.6456,N,08004.6392,W,1,9,1.9,16,M,,M,,*50
06/10/2014	16:11:27.144	$GPGGA,161136,2556.6436,N,08004.6395,W,1,9,1.9,16,M,,M,,*52
06/10/2014	16:11:28.192	$GPGGA,161137,2556.6415,N,08004.6396,W,1,9,1.9,16,M,,M,,*51
06/10/2014	16:11:29.134	$GPGGA,161138,2556.6395,N,08004.6398,W,1,9,1.9,16,M,,M,,*5F
06/10/2014	16:11:30.151	$GPGGA,161139,2556.6375,N,08004.6398,W,1,9,1.9,16,M,,M,,*50
06/10/2014	16:11:31.146	$GPGGA,161140,2556.6355,N,08004.6400,W,1,9,1.9,16,M,,M,,*5A
06/10/2014	16:11:32.161	$GPGGA,161141,2556.6335,N,08004.6402,W,1,9,1.9,16,M,,M,,*5F
06/10/2014	16:11:32.865	$GPGGA,161142,2556.6315,N,08004.6403,W,1,9,1.9,16,M,,M,,*5F
06/10/2014	16:11:33.880	$GPGGA,161143,2556.6294,N,08004.6405,W,1,9,1.9,15,M,,M,,*53
06/10/2014	16:11:34.875	$GPGGA,161144,2556.6274,N,08004.6405,W,1,9,1.9,15,M,,M,,*5A
06/10/2014	16:11:35.889	$GPGGA,161145,2556.6254,N,08004.6407,W,1,9,1.9,15,M,,M,,*5B
06/10/2014	16:11:36.874	$GPGGA,161146,2556.6233,N,08004.6409,W,1,9,1.9,15,M,,M,,*57
06/10/2014	16:11:37.880	$GPGGA,161147,2556.6214,N,08004.6410,W,1,9,1.9,15,M,,M,,*5B
