Software Version Number: 1	Data File Format Number: 1	Build Version Number: 1	Error Count Since VI Started: 0	Manufacturer: Raytheon	 Model Number: RayMarine 120	 S/N: 	 Cal Date: 	 Wind Direction Offset: 0.00	 Slope (M)1: 0.00	 Offset (B)1: 0.00	 Slope (M)2: 0.00	 Offset (B)2: 0.00	 Slope (M)3: 0.00	 Offset (B)3: 0.00	 Slope (M)4: 0.00	 Offset (B)4: 0.00	 Slope (M)5: 0.00	 Offset (B)5: 0.00	 Slope (M)6: 0.00	 Offset (B)6: 0.00
Computer Date	Computer Time	GGA String
05/30/2014	01:00:00.917	$GPGGA,010008,2553.5428,N,07923.3119,W,1,7,2.0,13,M,,M,,*51
05/30/2014	01:00:01.921	$GPGGA,010009,2553.5410,N,07923.3125,W,1,7,2.0,13,M,,M,,*54
05/30/2014	01:00:02.905	$GPGGA,010010,2553.5388,N,07923.3129,W,1,7,2.0,13,M,,M,,*56
05/30/2014	01:00:03.950	$GPGGA,010011,2553.5369,N,07923.3134,W,1,7,2.0,13,M,,M,,*54
05/30/2014	01:00:04.965	$GPGGA,010012,2553.5349,N,07923.3139,W,1,7,2.0,13,M,,M,,*58
05/30/2014	01:00:05.970	$GPGGA,010013,2553.5328,N,07923.3144,W,1,6,2.1,13,M,,M,,*54
05/30/2014	01:00:06.974	$GPGGA,010014,2553.5309,N,07923.3148,W,1,6,2.0,13,M,,M,,*5D
05/30/2014	01:00:07.967	$GPGGA,010015,2553.5289,N,07923.3154,W,1,7,2.0,13,M,,M,,*59
05/30/2014	01:00:08.992	$GPGGA,010016,2553.5271,N,07923.3161,W,1,7,2.0,13,M,,M,,*5B
05/30/2014	01:00:10.027	$GPGGA,010017,2553.5252,N,07923.3165,W,1,7,2.0,13,M,,M,,*5F
05/30/2014	01:00:11.011	$GPGGA,010018,2553.5233,N,07923.3170,W,1,7,2.0,13,M,,M,,*53
05/30/2014	01:00:12.056	$GPGGA,010019,2553.5213,N,07923.3176,W,1,6,2.4,13,M,,M,,*53
05/30/2014	01:00:13.061	$GPGGA,010020,2553.5194,N,07923.3181,W,1,6,2.0,13,M,,M,,*59
05/30/2014	01:00:14.045	$GPGGA,010021,2553.5174,N,07923.3186,W,1,7,2.0,13,M,,M,,*50
05/30/2014	01:00:15.069	$GPGGA,010022,2553.5155,N,07923.3193,W,1,7,2.0,13,M,,M,,*54
05/30/2014	01:00:16.095	$GPGGA,010023,2553.5137,N,07923.3197,W,1,7,2.0,13,M,,M,,*55
05/30/2014	01:00:17.109	$GPGGA,010024,2553.5118,N,07923.3204,W,1,7,2.0,13,M,,M,,*56
05/30/2014	01:00:18.134	$GPGGA,010025,2553.5101,N,07923.3209,W,1,7,2.0,13,M,,M,,*52
05/30/2014	01:00:19.130	$GPGGA,010026,2553.5083,N,07923.3215,W,1,7,2.0,13,M,,M,,*57
05/30/2014	01:00:20.163	$GPGGA,010027,2553.5065,N,07923.3223,W,1,7,2.0,13,M,,M,,*5B
05/30/2014	01:00:21.161	$GPGGA,010028,2553.5046,N,07923.3228,W,1,7,2.0,13,M,,M,,*5E
05/30/2014	01:00:22.142	$GPGGA,010029,2553.5027,N,07923.3234,W,1,7,2.0,13,M,,M,,*55
05/30/2014	01:00:23.176	$GPGGA,010030,2553.5007,N,07923.3241,W,1,7,2.0,13,M,,M,,*5D
05/30/2014	01:00:24.201	$GPGGA,010031,2553.4988,N,07923.3246,W,1,7,2.0,13,M,,M,,*54
05/30/2014	01:00:25.195	$GPGGA,010032,2553.4969,N,07923.3252,W,1,7,2.0,13,M,,M,,*5D
05/30/2014	01:00:26.219	$GPGGA,010033,2553.4949,N,07923.3259,W,1,7,2.0,13,M,,M,,*55
05/30/2014	01:00:27.315	$GPGGA,010034,2553.4931,N,07923.3266,W,1,7,2.0,13,M,,M,,*51
05/30/2014	01:00:28.238	$GPGGA,010035,2553.4913,N,07923.3273,W,1,7,2.0,13,M,,M,,*54
05/30/2014	01:00:29.253	$GPGGA,010036,2553.4894,N,07923.3280,W,1,7,2.0,13,M,,M,,*55
05/30/2014	01:00:30.247	$GPGGA,010037,2553.4875,N,07923.3285,W,1,6,2.5,13,M,,M,,*5A
05/30/2014	01:00:31.363	$GPGGA,010038,2553.4855,N,07923.3291,W,1,6,2.0,13,M,,M,,*57
05/30/2014	01:00:32.296	$GPGGA,010039,2553.4836,N,07923.3298,W,1,7,2.0,13,M,,M,,*5B
05/30/2014	01:00:33.301	$GPGGA,010040,2553.4816,N,07923.3305,W,1,7,2.0,14,M,,M,,*55
05/30/2014	01:00:33.523	$GPGGA,010041,2553.4797,N,07923.3311,W,1,7,2.0,14,M,,M,,*57
05/30/2014	01:00:34.446	$GPGGA,010042,2553.4776,N,07923.3317,W,1,7,2.0,14,M,,M,,*5D
05/30/2014	01:00:35.552	$GPGGA,010043,2553.4757,N,07923.3324,W,1,7,2.0,14,M,,M,,*5F
05/30/2014	01:00:36.627	$GPGGA,010044,2553.4738,N,07923.3331,W,1,7,2.0,14,M,,M,,*55
05/30/2014	01:00:37.500	$GPGGA,010045,2553.4718,N,07923.3336,W,1,7,2.0,14,M,,M,,*51
05/30/2014	01:00:38.585	$GPGGA,010046,2553.4699,N,07923.3342,W,1,7,2.0,14,M,,M,,*59
05/30/2014	01:00:39.600	$GPGGA,010047,2553.4680,N,07923.3349,W,1,7,2.0,14,M,,M,,*5B
05/30/2014	01:00:40.676	$GPGGA,010048,2553.4661,N,07923.3354,W,1,7,2.0,15,M,,M,,*56
05/30/2014	01:00:41.680	$GPGGA,010049,2553.4641,N,07923.3360,W,1,7,2.0,15,M,,M,,*52
05/30/2014	01:00:42.633	$GPGGA,010050,2553.4621,N,07923.3365,W,1,7,2.0,15,M,,M,,*59
05/30/2014	01:00:43.769	$GPGGA,010051,2553.4602,N,07923.3371,W,1,7,2.0,15,M,,M,,*5C
05/30/2014	01:00:44.703	$GPGGA,010052,2553.4583,N,07923.3378,W,1,7,2.0,15,M,,M,,*5C
05/30/2014	01:00:45.737	$GPGGA,010053,2553.4563,N,07923.3382,W,1,7,2.0,15,M,,M,,*56
05/30/2014	01:00:46.686	$GPGGA,010054,2553.4544,N,07923.3389,W,1,7,2.0,15,M,,M,,*5F
05/30/2014	01:00:47.763	$GPGGA,010055,2553.4525,N,07923.3393,W,1,7,2.0,15,M,,M,,*52
05/30/2014	01:00:48.760	$GPGGA,010056,2553.4505,N,07923.3399,W,1,7,2.4,16,M,,M,,*5E
05/30/2014	01:00:49.697	$GPGGA,010057,2553.4486,N,07923.3404,W,1,6,2.4,16,M,,M,,*57
05/30/2014	01:00:50.734	$GPGGA,010058,2553.4467,N,07923.3410,W,1,6,2.0,16,M,,M,,*56
05/30/2014	01:00:51.700	$GPGGA,010059,2553.4449,N,07923.3415,W,1,7,2.0,16,M,,M,,*5F
05/30/2014	01:00:52.788	$GPGGA,010100,2553.4431,N,07923.3421,W,1,7,2.0,16,M,,M,,*5A
05/30/2014	01:00:53.825	$GPGGA,010101,2553.4410,N,07923.3425,W,1,7,2.0,16,M,,M,,*5C
05/30/2014	01:00:54.721	$GPGGA,010102,2553.4392,N,07923.3432,W,1,7,2.4,16,M,,M,,*50
05/30/2014	01:00:55.789	$GPGGA,010103,2553.4372,N,07923.3436,W,1,7,2.0,16,M,,M,,*5F
05/30/2014	01:00:56.765	$GPGGA,010104,2553.4352,N,07923.3441,W,1,7,2.0,16,M,,M,,*5A
05/30/2014	01:00:57.802	$GPGGA,010105,2553.4331,N,07923.3446,W,1,7,2.0,16,M,,M,,*59
05/30/2014	01:00:58.769	$GPGGA,010106,2553.4310,N,07923.3450,W,1,7,2.0,16,M,,M,,*5E
05/30/2014	01:00:59.816	$GPGGA,010107,2553.4292,N,07923.3454,W,1,6,2.0,16,M,,M,,*51
05/30/2014	01:01:00.792	$GPGGA,010108,2553.4274,N,07923.3459,W,1,6,2.0,16,M,,M,,*5B
05/30/2014	01:01:01.748	$GPGGA,010109,2553.4255,N,07923.3464,W,1,7,2.0,16,M,,M,,*56
05/30/2014	01:01:02.755	$GPGGA,010110,2553.4237,N,07923.3469,W,1,7,2.0,16,M,,M,,*57
05/30/2014	01:01:03.772	$GPGGA,010111,2553.4216,N,07923.3473,W,1,7,2.0,16,M,,M,,*5E
05/30/2014	01:01:04.819	$GPGGA,010112,2553.4196,N,07923.3477,W,1,7,2.4,16,M,,M,,*56
05/30/2014	01:01:05.907	$GPGGA,010113,2553.4176,N,07923.3483,W,1,6,2.4,16,M,,M,,*53
05/30/2014	01:01:06.823	$GPGGA,010114,2553.4157,N,07923.3488,W,1,6,2.0,16,M,,M,,*58
05/30/2014	01:01:07.881	$GPGGA,010115,2553.4137,N,07923.3493,W,1,7,2.0,16,M,,M,,*54
05/30/2014	01:01:08.847	$GPGGA,010116,2553.4117,N,07923.3498,W,1,7,2.4,17,M,,M,,*5B
05/30/2014	01:01:09.864	$GPGGA,010117,2553.4097,N,07923.3502,W,1,6,2.4,17,M,,M,,*50
05/30/2014	01:01:10.921	$GPGGA,010118,2553.4078,N,07923.3508,W,1,6,2.0,17,M,,M,,*50
05/30/2014	01:01:11.797	$GPGGA,010119,2553.4059,N,07923.3513,W,1,7,2.0,17,M,,M,,*59
05/30/2014	01:01:12.864	$GPGGA,010120,2553.4038,N,07923.3519,W,1,7,2.4,17,M,,M,,*5A
05/30/2014	01:01:13.913	$GPGGA,010121,2553.4021,N,07923.3524,W,1,6,2.0,17,M,,M,,*58
05/30/2014	01:01:14.819	$GPGGA,010122,2553.4001,N,07923.3530,W,1,6,2.0,17,M,,M,,*5C
05/30/2014	01:01:15.945	$GPGGA,010123,2553.3983,N,07923.3535,W,1,6,2.0,17,M,,M,,*5C
05/30/2014	01:01:16.872	$GPGGA,010124,2553.3965,N,07923.3540,W,1,6,2.0,17,M,,M,,*51
05/30/2014	01:01:17.827	$GPGGA,010125,2553.3942,N,07923.3544,W,1,7,2.0,17,M,,M,,*50
05/30/2014	01:01:18.956	$GPGGA,010126,2553.3926,N,07923.3551,W,1,7,2.0,17,M,,M,,*55
05/30/2014	01:01:19.943	$GPGGA,010127,2553.3909,N,07923.3556,W,1,7,2.0,17,M,,M,,*5E
05/30/2014	01:01:20.959	$GPGGA,010128,2553.3889,N,07923.3562,W,1,7,2.0,17,M,,M,,*5F
05/30/2014	01:01:21.986	$GPGGA,010129,2553.3871,N,07923.3569,W,1,7,2.0,17,M,,M,,*52
05/30/2014	01:01:22.892	$GPGGA,010130,2553.3850,N,07923.3573,W,1,7,2.0,17,M,,M,,*52
05/30/2014	01:01:23.959	$GPGGA,010131,2553.3830,N,07923.3578,W,1,7,2.0,17,M,,M,,*5E
05/30/2014	01:01:24.987	$GPGGA,010132,2553.3811,N,07923.3584,W,1,7,2.0,17,M,,M,,*5D
05/30/2014	01:01:25.923	$GPGGA,010133,2553.3792,N,07923.3591,W,1,7,2.0,17,M,,M,,*5C
05/30/2014	01:01:26.980	$GPGGA,010134,2553.3773,N,07923.3596,W,1,7,2.0,17,M,,M,,*53
05/30/2014	01:01:27.977	$GPGGA,010135,2553.3753,N,07923.3602,W,1,7,2.0,17,M,,M,,*5E
05/30/2014	01:01:29.005	$GPGGA,010136,2553.3734,N,07923.3606,W,1,7,2.0,17,M,,M,,*58
05/30/2014	01:01:29.991	$GPGGA,010137,2553.3714,N,07923.3613,W,1,7,2.0,17,M,,M,,*5F
05/30/2014	01:01:30.998	$GPGGA,010138,2553.3694,N,07923.3620,W,1,7,2.0,18,M,,M,,*56
05/30/2014	01:01:32.005	$GPGGA,010139,2553.3674,N,07923.3625,W,1,7,2.0,18,M,,M,,*5C
05/30/2014	01:01:33.022	$GPGGA,010140,2553.3654,N,07923.3631,W,1,7,2.0,18,M,,M,,*55
05/30/2014	01:01:33.528	$GPGGA,010141,2553.3635,N,07923.3636,W,1,7,2.0,18,M,,M,,*54
05/30/2014	01:01:34.505	$GPGGA,010142,2553.3615,N,07923.3642,W,1,7,2.0,18,M,,M,,*56
05/30/2014	01:01:35.531	$GPGGA,010143,2553.3596,N,07923.3647,W,1,7,2.0,18,M,,M,,*5A
05/30/2014	01:01:36.528	$GPGGA,010144,2553.3577,N,07923.3653,W,1,7,2.0,18,M,,M,,*57
05/30/2014	01:01:37.534	$GPGGA,010145,2553.3557,N,07923.3660,W,1,7,2.0,18,M,,M,,*54
05/30/2014	01:01:38.531	$GPGGA,010146,2553.3539,N,07923.3665,W,1,7,2.0,18,M,,M,,*5A
05/30/2014	01:01:39.640	$GPGGA,010147,2553.3518,N,07923.3671,W,1,7,2.0,18,M,,M,,*5D
05/30/2014	01:01:40.555	$GPGGA,010148,2553.3499,N,07923.3678,W,1,7,2.0,18,M,,M,,*53
05/30/2014	01:01:41.613	$GPGGA,010149,2553.3479,N,07923.3682,W,1,7,2.0,18,M,,M,,*59
05/30/2014	01:01:42.549	$GPGGA,010150,2553.3460,N,07923.3689,W,1,7,2.0,18,M,,M,,*52
05/30/2014	01:01:43.626	$GPGGA,010151,2553.3441,N,07923.3696,W,1,7,2.0,18,M,,M,,*5E
05/30/2014	01:01:44.573	$GPGGA,010152,2553.3420,N,07923.3701,W,1,7,2.0,18,M,,M,,*55
05/30/2014	01:01:45.621	$GPGGA,010153,2553.3401,N,07923.3707,W,1,7,2.0,18,M,,M,,*51
05/30/2014	01:01:46.566	$GPGGA,010154,2553.3381,N,07923.3714,W,1,7,2.0,18,M,,M,,*5B
05/30/2014	01:01:47.624	$GPGGA,010155,2553.3362,N,07923.3719,W,1,7,2.0,18,M,,M,,*5A
05/30/2014	01:01:48.581	$GPGGA,010156,2553.3344,N,07923.3725,W,1,7,2.0,18,M,,M,,*52
05/30/2014	01:01:49.627	$GPGGA,010157,2553.3323,N,07923.3732,W,1,7,2.0,18,M,,M,,*54
05/30/2014	01:01:50.575	$GPGGA,010158,2553.3304,N,07923.3737,W,1,7,2.0,18,M,,M,,*5B
05/30/2014	01:01:51.631	$GPGGA,010159,2553.3284,N,07923.3743,W,1,7,2.0,18,M,,M,,*50
05/30/2014	01:01:52.607	$GPGGA,010200,2553.3264,N,07923.3748,W,1,7,2.0,18,M,,M,,*5A
05/30/2014	01:01:53.624	$GPGGA,010201,2553.3264,N,07923.3748,W,1,7,2.0,18,M,,M,,*5B
05/30/2014	01:01:54.601	$GPGGA,010202,2553.3225,N,07923.3761,W,1,7,2.0,18,M,,M,,*56
05/30/2014	01:01:55.618	$GPGGA,010203,2553.3225,N,07923.3761,W,1,7,2.0,18,M,,M,,*57
05/30/2014	01:01:56.624	$GPGGA,010204,2553.3186,N,07923.3773,W,1,7,2.0,18,M,,M,,*59
05/30/2014	01:01:57.622	$GPGGA,010205,2553.3186,N,07923.3773,W,1,7,2.0,18,M,,M,,*58
05/30/2014	01:01:58.638	$GPGGA,010206,2553.3147,N,07923.3784,W,1,7,2.0,18,M,,M,,*5E
05/30/2014	01:01:59.646	$GPGGA,010207,2553.3147,N,07923.3784,W,1,7,2.0,18,M,,M,,*5F
05/30/2014	01:02:00.652	$GPGGA,010208,2553.3109,N,07923.3797,W,1,7,2.0,18,M,,M,,*58
05/30/2014	01:02:01.699	$GPGGA,010209,2553.3088,N,07923.3801,W,1,7,2.0,18,M,,M,,*51
05/30/2014	01:02:02.736	$GPGGA,010210,2553.3069,N,07923.3808,W,1,7,2.0,18,M,,M,,*5F
05/30/2014	01:02:03.713	$GPGGA,010211,2553.3051,N,07923.3812,W,1,7,2.0,18,M,,M,,*5E
05/30/2014	01:02:04.669	$GPGGA,010212,2553.3030,N,07923.3816,W,1,7,2.0,18,M,,M,,*5E
05/30/2014	01:02:05.646	$GPGGA,010213,2553.3030,N,07923.3816,W,1,7,2.0,18,M,,M,,*5F
05/30/2014	01:02:06.754	$GPGGA,010214,2553.2991,N,07923.3827,W,1,7,2.0,18,M,,M,,*59
05/30/2014	01:02:07.690	$GPGGA,010215,2553.2991,N,07923.3827,W,1,7,2.0,18,M,,M,,*58
05/30/2014	01:02:08.778	$GPGGA,010216,2553.2952,N,07923.3837,W,1,7,2.0,18,M,,M,,*55
05/30/2014	01:02:09.694	$GPGGA,010217,2553.2952,N,07923.3837,W,1,7,2.0,18,M,,M,,*54
05/30/2014	01:02:10.770	$GPGGA,010218,2553.2912,N,07923.3848,W,1,7,2.0,18,M,,M,,*57
05/30/2014	01:02:11.827	$GPGGA,010219,2553.2892,N,07923.3852,W,1,7,2.0,18,M,,M,,*54
05/30/2014	01:02:12.824	$GPGGA,010220,2553.2874,N,07923.3856,W,1,7,2.0,18,M,,M,,*52
05/30/2014	01:02:13.802	$GPGGA,010221,2553.2854,N,07923.3862,W,1,7,2.0,18,M,,M,,*56
05/30/2014	01:02:14.697	$GPGGA,010222,2553.2835,N,07923.3866,W,1,7,2.0,18,M,,M,,*56
05/30/2014	01:02:15.815	$GPGGA,010223,2553.2816,N,07923.3869,W,1,7,2.0,18,M,,M,,*59
05/30/2014	01:02:16.822	$GPGGA,010224,2553.2796,N,07923.3876,W,1,7,2.0,18,M,,M,,*57
05/30/2014	01:02:17.808	$GPGGA,010225,2553.2777,N,07923.3880,W,1,7,2.0,18,M,,M,,*50
05/30/2014	01:02:18.816	$GPGGA,010226,2553.2757,N,07923.3884,W,1,7,2.0,18,M,,M,,*55
05/30/2014	01:02:19.852	$GPGGA,010227,2553.2738,N,07923.3888,W,1,7,2.0,18,M,,M,,*51
05/30/2014	01:02:20.869	$GPGGA,010228,2553.2717,N,07923.3894,W,1,7,2.0,18,M,,M,,*5E
05/30/2014	01:02:21.846	$GPGGA,010229,2553.2697,N,07923.3898,W,1,6,2.4,18,M,,M,,*5F
05/30/2014	01:02:22.853	$GPGGA,010230,2553.2677,N,07923.3902,W,1,6,2.4,18,M,,M,,*5B
05/30/2014	01:02:23.870	$GPGGA,010231,2553.2661,N,07923.3909,W,1,6,2.4,18,M,,M,,*56
05/30/2014	01:02:24.857	$GPGGA,010232,2553.2644,N,07923.3916,W,1,6,2.0,18,M,,M,,*58
05/30/2014	01:02:25.885	$GPGGA,010233,2553.2625,N,07923.3920,W,1,7,2.0,18,M,,M,,*5A
05/30/2014	01:02:26.850	$GPGGA,010234,2553.2605,N,07923.3925,W,1,7,2.0,18,M,,M,,*5A
05/30/2014	01:02:27.866	$GPGGA,010235,2553.2586,N,07923.3930,W,1,7,2.0,18,M,,M,,*57
05/30/2014	01:02:28.883	$GPGGA,010236,2553.2567,N,07923.3934,W,1,7,2.0,18,M,,M,,*5F
05/30/2014	01:02:29.890	$GPGGA,010237,2553.2547,N,07923.3939,W,1,7,2.0,18,M,,M,,*51
05/30/2014	01:02:30.877	$GPGGA,010238,2553.2528,N,07923.3945,W,1,7,2.0,18,M,,M,,*5C
05/30/2014	01:02:31.884	$GPGGA,010239,2553.2509,N,07923.3949,W,1,7,2.0,18,M,,M,,*52
05/30/2014	01:02:32.891	$GPGGA,010240,2553.2488,N,07923.3954,W,1,7,2.0,18,M,,M,,*58
05/30/2014	01:02:33.496	$GPGGA,010241,2553.2469,N,07923.3960,W,1,7,2.0,18,M,,M,,*51
05/30/2014	01:02:34.482	$GPGGA,010242,2553.2449,N,07923.3965,W,1,7,2.0,18,M,,M,,*55
05/30/2014	01:02:35.482	$GPGGA,010243,2553.2430,N,07923.3970,W,1,7,2.0,18,M,,M,,*5E
05/30/2014	01:02:36.516	$GPGGA,010244,2553.2410,N,07923.3974,W,1,7,2.0,18,M,,M,,*5F
05/30/2014	01:02:37.523	$GPGGA,010245,2553.2390,N,07923.3981,W,1,7,2.0,18,M,,M,,*5B
05/30/2014	01:02:38.500	$GPGGA,010246,2553.2372,N,07923.3985,W,1,7,2.0,18,M,,M,,*50
05/30/2014	01:02:39.527	$GPGGA,010247,2553.2351,N,07923.3990,W,1,7,2.0,18,M,,M,,*54
05/30/2014	01:02:40.514	$GPGGA,010248,2553.2332,N,07923.3996,W,1,7,2.0,18,M,,M,,*58
05/30/2014	01:02:41.523	$GPGGA,010249,2553.2312,N,07923.4001,W,1,7,2.0,18,M,,M,,*5B
05/30/2014	01:02:42.519	$GPGGA,010250,2553.2292,N,07923.4007,W,1,7,2.0,18,M,,M,,*5C
05/30/2014	01:02:43.514	$GPGGA,010251,2553.2273,N,07923.4011,W,1,6,2.5,18,M,,M,,*51
05/30/2014	01:02:44.551	$GPGGA,010252,2553.2251,N,07923.4017,W,1,6,2.0,18,M,,M,,*51
05/30/2014	01:02:45.537	$GPGGA,010253,2553.2232,N,07923.4021,W,1,7,2.0,18,M,,M,,*51
05/30/2014	01:02:46.655	$GPGGA,010254,2553.2211,N,07923.4026,W,1,7,2.0,18,M,,M,,*50
05/30/2014	01:02:47.672	$GPGGA,010255,2553.2191,N,07923.4032,W,1,7,2.0,18,M,,M,,*5F
05/30/2014	01:02:48.569	$GPGGA,010256,2553.2173,N,07923.4037,W,1,7,2.0,18,M,,M,,*55
05/30/2014	01:02:49.565	$GPGGA,010257,2553.2152,N,07923.4043,W,1,7,2.0,18,M,,M,,*54
05/30/2014	01:02:50.596	$GPGGA,010258,2553.2133,N,07923.4050,W,1,7,2.0,18,M,,M,,*5E
05/30/2014	01:02:51.704	$GPGGA,010259,2553.2114,N,07923.4055,W,1,7,2.0,18,M,,M,,*5F
05/30/2014	01:02:52.943	$GPGGA,010300,2553.2095,N,07923.4061,W,1,7,2.0,18,M,,M,,*5D
05/30/2014	01:02:53.924	$GPGGA,010301,2553.2076,N,07923.4068,W,1,8,1.6,18,M,,M,,*52
05/30/2014	01:02:55.082	$GPGGA,010302,2553.2057,N,07923.4075,W,1,8,1.6,19,M,,M,,*5F
05/30/2014	01:02:56.069	$GPGGA,010303,2553.2038,N,07923.4082,W,1,8,1.6,19,M,,M,,*5F
05/30/2014	01:02:57.308	$GPGGA,010304,2553.2020,N,07923.4087,W,1,8,1.6,19,M,,M,,*54
05/30/2014	01:02:58.418	$GPGGA,010305,2553.2001,N,07923.4095,W,1,8,1.6,19,M,,M,,*55
05/30/2014	01:02:59.469	$GPGGA,010306,2553.1982,N,07923.4102,W,1,8,1.6,19,M,,M,,*58
05/30/2014	01:03:00.467	$GPGGA,010307,2553.1964,N,07923.4108,W,1,8,1.6,19,M,,M,,*5B
05/30/2014	01:03:01.563	$GPGGA,010308,2553.1943,N,07923.4115,W,1,8,1.6,19,M,,M,,*5D
05/30/2014	01:03:02.649	$GPGGA,010309,2553.1928,N,07923.4122,W,1,7,2.0,20,M,,M,,*55
05/30/2014	01:03:03.854	$GPGGA,010310,2553.1909,N,07923.4129,W,1,7,1.6,20,M,,M,,*50
05/30/2014	01:03:04.951	$GPGGA,010311,2553.1890,N,07923.4136,W,1,8,1.6,20,M,,M,,*51
05/30/2014	01:03:06.059	$GPGGA,010312,2553.1871,N,07923.4140,W,1,8,1.6,20,M,,M,,*5C
05/30/2014	01:03:07.145	$GPGGA,010313,2553.1852,N,07923.4145,W,1,7,2.0,20,M,,M,,*53
05/30/2014	01:03:08.231	$GPGGA,010314,2553.1831,N,07923.4151,W,1,7,2.0,20,M,,M,,*54
05/30/2014	01:03:09.316	$GPGGA,010315,2553.1812,N,07923.4156,W,1,7,2.0,21,M,,M,,*52
05/30/2014	01:03:10.435	$GPGGA,010316,2553.1792,N,07923.4162,W,1,7,2.0,21,M,,M,,*51
05/30/2014	01:03:11.531	$GPGGA,010317,2553.1772,N,07923.4166,W,1,7,2.0,21,M,,M,,*5A
05/30/2014	01:03:12.606	$GPGGA,010318,2553.1754,N,07923.4173,W,1,7,2.1,21,M,,M,,*54
05/30/2014	01:03:13.714	$GPGGA,010319,2553.1736,N,07923.4180,W,1,7,2.0,21,M,,M,,*5C
05/30/2014	01:03:14.812	$GPGGA,010320,2553.1715,N,07923.4184,W,1,7,2.0,21,M,,M,,*53
05/30/2014	01:03:15.907	$GPGGA,010321,2553.1696,N,07923.4189,W,1,7,2.0,21,M,,M,,*55
05/30/2014	01:03:16.982	$GPGGA,010322,2553.1678,N,07923.4195,W,1,7,2.4,21,M,,M,,*5F
05/30/2014	01:03:18.090	$GPGGA,010323,2553.1657,N,07923.4201,W,1,6,2.4,21,M,,M,,*5C
05/30/2014	01:03:19.175	$GPGGA,010324,2553.1637,N,07923.4205,W,1,6,2.0,21,M,,M,,*5D
05/30/2014	01:03:20.283	$GPGGA,010325,2553.1618,N,07923.4210,W,1,7,2.0,21,M,,M,,*54
05/30/2014	01:03:21.381	$GPGGA,010326,2553.1599,N,07923.4216,W,1,7,2.4,20,M,,M,,*5E
05/30/2014	01:03:22.486	$GPGGA,010327,2553.1579,N,07923.4220,W,1,7,2.0,20,M,,M,,*50
05/30/2014	01:03:23.561	$GPGGA,010328,2553.1560,N,07923.4225,W,1,7,2.4,20,M,,M,,*56
05/30/2014	01:03:24.636	$GPGGA,010329,2553.1541,N,07923.4231,W,1,7,2.0,20,M,,M,,*55
05/30/2014	01:03:25.743	$GPGGA,010330,2553.1523,N,07923.4238,W,1,7,2.0,20,M,,M,,*50
05/30/2014	01:03:26.862	$GPGGA,010331,2553.1502,N,07923.4242,W,1,6,2.4,20,M,,M,,*5A
05/30/2014	01:03:27.937	$GPGGA,010332,2553.1481,N,07923.4246,W,1,6,2.0,20,M,,M,,*53
05/30/2014	01:03:29.045	$GPGGA,010333,2553.1462,N,07923.4252,W,1,7,2.0,20,M,,M,,*5B
05/30/2014	01:03:30.119	$GPGGA,010334,2553.1443,N,07923.4256,W,1,7,2.0,20,M,,M,,*5B
05/30/2014	01:03:31.238	$GPGGA,010335,2553.1423,N,07923.4260,W,1,6,2.4,20,M,,M,,*5C
05/30/2014	01:03:32.313	$GPGGA,010336,2553.1404,N,07923.4267,W,1,6,2.0,19,M,,M,,*53
05/30/2014	01:03:33.387	$GPGGA,010337,2553.1383,N,07923.4270,W,1,7,2.0,19,M,,M,,*5D
05/30/2014	01:03:34.496	$GPGGA,010338,2553.1364,N,07923.4275,W,1,7,2.0,19,M,,M,,*5E
05/30/2014	01:03:35.581	$GPGGA,010339,2553.1344,N,07923.4281,W,1,7,2.0,19,M,,M,,*56
05/30/2014	01:03:36.689	$GPGGA,010340,2553.1325,N,07923.4285,W,1,7,2.0,19,M,,M,,*5B
05/30/2014	01:03:33.502	$GPGGA,010341,2553.1306,N,07923.4290,W,1,7,2.0,19,M,,M,,*5F
05/30/2014	01:03:34.587	$GPGGA,010342,2553.1286,N,07923.4296,W,1,7,2.0,19,M,,M,,*53
05/30/2014	01:03:35.794	$GPGGA,010343,2553.1267,N,07923.4300,W,1,7,2.0,19,M,,M,,*53
05/30/2014	01:03:36.781	$GPGGA,010344,2553.1249,N,07923.4306,W,1,7,2.0,19,M,,M,,*5E
05/30/2014	01:03:37.953	$GPGGA,010345,2553.1230,N,07923.4311,W,1,7,2.0,19,M,,M,,*57
05/30/2014	01:03:38.951	$GPGGA,010346,2553.1210,N,07923.4317,W,1,7,2.0,19,M,,M,,*50
05/30/2014	01:03:40.070	$GPGGA,010347,2553.1191,N,07923.4321,W,1,7,2.0,18,M,,M,,*5F
05/30/2014	01:03:41.155	$GPGGA,010348,2553.1171,N,07923.4328,W,1,7,2.0,18,M,,M,,*57
05/30/2014	01:03:42.231	$GPGGA,010349,2553.1152,N,07923.4332,W,1,7,2.0,18,M,,M,,*5C
05/30/2014	01:03:43.426	$GPGGA,010350,2553.1133,N,07923.4337,W,1,7,2.0,18,M,,M,,*56
05/30/2014	01:03:44.599	$GPGGA,010351,2553.1113,N,07923.4343,W,1,7,2.0,18,M,,M,,*56
05/30/2014	01:03:45.531	$GPGGA,010352,2553.1093,N,07923.4350,W,1,7,2.0,18,M,,M,,*5E
05/30/2014	01:03:46.606	$GPGGA,010353,2553.1075,N,07923.4354,W,1,7,2.0,18,M,,M,,*53
05/30/2014	01:03:47.834	$GPGGA,010354,2553.1054,N,07923.4361,W,1,7,2.0,18,M,,M,,*51
05/30/2014	01:03:48.810	$GPGGA,010355,2553.1035,N,07923.4365,W,1,7,2.0,18,M,,M,,*53
05/30/2014	01:03:50.028	$GPGGA,010356,2553.1015,N,07923.4371,W,1,7,2.0,18,M,,M,,*57
05/30/2014	01:03:50.993	$GPGGA,010357,2553.0996,N,07923.4376,W,1,7,2.0,18,M,,M,,*52
05/30/2014	01:03:52.188	$GPGGA,010358,2553.0976,N,07923.4383,W,1,7,2.0,18,M,,M,,*59
05/30/2014	01:03:53.175	$GPGGA,010359,2553.0957,N,07923.4389,W,1,7,2.0,18,M,,M,,*51
05/30/2014	01:03:54.414	$GPGGA,010400,2553.0938,N,07923.4394,W,1,7,2.0,18,M,,M,,*5F
05/30/2014	01:03:55.467	$GPGGA,010401,2553.0917,N,07923.4400,W,1,7,2.0,18,M,,M,,*59
05/30/2014	01:03:56.574	$GPGGA,010402,2553.0898,N,07923.4407,W,1,7,2.0,18,M,,M,,*5B
05/30/2014	01:03:57.671	$GPGGA,010403,2553.0878,N,07923.4412,W,1,7,2.0,18,M,,M,,*50
05/30/2014	01:03:58.756	$GPGGA,010404,2553.0858,N,07923.4418,W,1,7,2.0,18,M,,M,,*5F
05/30/2014	01:03:59.875	$GPGGA,010405,2553.0840,N,07923.4425,W,1,7,2.0,18,M,,M,,*59
05/30/2014	01:04:00.939	$GPGGA,010406,2553.0820,N,07923.4430,W,1,7,2.0,18,M,,M,,*58
05/30/2014	01:04:02.057	$GPGGA,010407,2553.0800,N,07923.4436,W,1,7,2.0,18,M,,M,,*5D
05/30/2014	01:04:03.144	$GPGGA,010408,2553.0781,N,07923.4441,W,1,7,2.0,18,M,,M,,*54
05/30/2014	01:04:04.251	$GPGGA,010409,2553.0761,N,07923.4448,W,1,7,2.0,18,M,,M,,*52
05/30/2014	01:04:05.326	$GPGGA,010410,2553.0741,N,07923.4454,W,1,7,2.0,18,M,,M,,*55
05/30/2014	01:04:06.433	$GPGGA,010411,2553.0722,N,07923.4459,W,1,7,2.0,18,M,,M,,*5C
05/30/2014	01:04:07.530	$GPGGA,010412,2553.0703,N,07923.4465,W,1,7,2.0,17,M,,M,,*5C
05/30/2014	01:04:08.627	$GPGGA,010413,2553.0683,N,07923.4472,W,1,7,2.0,17,M,,M,,*52
05/30/2014	01:04:09.713	$GPGGA,010414,2553.0663,N,07923.4477,W,1,7,2.0,17,M,,M,,*5E
05/30/2014	01:04:10.787	$GPGGA,010415,2553.0645,N,07923.4483,W,1,7,2.0,17,M,,M,,*50
05/30/2014	01:04:11.907	$GPGGA,010416,2553.0624,N,07923.4488,W,1,7,2.0,17,M,,M,,*5F
05/30/2014	01:04:13.024	$GPGGA,010417,2553.0605,N,07923.4495,W,1,7,2.0,17,M,,M,,*51
05/30/2014	01:04:14.067	$GPGGA,010418,2553.0585,N,07923.4501,W,1,7,2.0,17,M,,M,,*59
05/30/2014	01:04:15.207	$GPGGA,010419,2553.0565,N,07923.4506,W,1,7,2.0,17,M,,M,,*51
05/30/2014	01:04:16.280	$GPGGA,010420,2553.0545,N,07923.4512,W,1,7,2.0,17,M,,M,,*5C
05/30/2014	01:04:17.399	$GPGGA,010421,2553.0526,N,07923.4517,W,1,7,2.0,17,M,,M,,*5D
05/30/2014	01:04:18.463	$GPGGA,010422,2553.0506,N,07923.4523,W,1,7,2.0,17,M,,M,,*5B
05/30/2014	01:04:19.593	$GPGGA,010423,2553.0487,N,07923.4527,W,1,7,2.0,17,M,,M,,*56
05/30/2014	01:04:20.656	$GPGGA,010424,2553.0466,N,07923.4534,W,1,7,2.0,17,M,,M,,*5C
05/30/2014	01:04:21.746	$GPGGA,010425,2553.0447,N,07923.4538,W,1,7,2.0,17,M,,M,,*52
05/30/2014	01:04:22.839	$GPGGA,010426,2553.0428,N,07923.4543,W,1,7,2.0,17,M,,M,,*54
05/30/2014	01:04:23.924	$GPGGA,010427,2553.0408,N,07923.4549,W,1,7,2.0,17,M,,M,,*5D
05/30/2014	01:04:25.043	$GPGGA,010428,2553.0388,N,07923.4555,W,1,7,2.0,17,M,,M,,*50
05/30/2014	01:04:26.140	$GPGGA,010429,2553.0368,N,07923.4559,W,1,7,2.0,17,M,,M,,*53
05/30/2014	01:04:27.215	$GPGGA,010430,2553.0349,N,07923.4563,W,1,7,2.0,17,M,,M,,*51
05/30/2014	01:04:28.312	$GPGGA,010431,2553.0328,N,07923.4570,W,1,7,2.0,17,M,,M,,*55
05/30/2014	01:04:29.408	$GPGGA,010432,2553.0309,N,07923.4574,W,1,7,2.0,17,M,,M,,*51
05/30/2014	01:04:30.625	$GPGGA,010433,2553.0289,N,07923.4579,W,1,7,2.0,17,M,,M,,*54
05/30/2014	01:04:31.602	$GPGGA,010434,2553.0269,N,07923.4585,W,1,7,2.0,17,M,,M,,*5E
05/30/2014	01:04:32.808	$GPGGA,010435,2553.0249,N,07923.4590,W,1,7,2.0,17,M,,M,,*59
05/30/2014	01:04:35.330	$GPGGA,010437,2553.0209,N,07923.4599,W,1,7,2.0,17,M,,M,,*56
05/30/2014	01:04:35.954	$GPGGA,010438,2553.0190,N,07923.4604,W,1,7,2.0,16,M,,M,,*5C
05/30/2014	01:04:37.074	$GPGGA,010439,2553.0170,N,07923.4610,W,1,7,2.0,16,M,,M,,*56
05/30/2014	01:04:38.159	$GPGGA,010440,2553.0150,N,07923.4614,W,1,7,2.0,16,M,,M,,*5E
05/30/2014	01:04:33.465	$GPGGA,010441,2553.0130,N,07923.4620,W,1,7,2.0,16,M,,M,,*5E
05/30/2014	01:04:34.661	$GPGGA,010442,2553.0110,N,07923.4624,W,1,7,2.0,16,M,,M,,*5B
05/30/2014	01:04:35.746	$GPGGA,010443,2553.0092,N,07923.4629,W,1,7,2.0,16,M,,M,,*5C
05/30/2014	01:04:36.854	$GPGGA,010444,2553.0071,N,07923.4635,W,1,7,2.0,16,M,,M,,*5B
05/30/2014	01:04:37.830	$GPGGA,010445,2553.0052,N,07923.4639,W,1,7,2.0,16,M,,M,,*57
05/30/2014	01:04:38.928	$GPGGA,010446,2553.0032,N,07923.4644,W,1,7,2.0,16,M,,M,,*58
05/30/2014	01:04:40.024	$GPGGA,010447,2553.0013,N,07923.4650,W,1,7,2.0,16,M,,M,,*5F
05/30/2014	01:04:41.252	$GPGGA,010448,2552.9993,N,07923.4654,W,1,7,2.0,16,M,,M,,*5D
05/30/2014	01:04:42.317	$GPGGA,010449,2552.9973,N,07923.4660,W,1,7,2.0,16,M,,M,,*55
05/30/2014	01:04:43.412	$GPGGA,010450,2552.9955,N,07923.4664,W,1,7,2.0,16,M,,M,,*5D
05/30/2014	01:04:44.542	$GPGGA,010451,2552.9934,N,07923.4669,W,1,7,2.0,16,M,,M,,*56
05/30/2014	01:04:45.628	$GPGGA,010452,2552.9915,N,07923.4675,W,1,7,2.0,16,M,,M,,*5B
05/30/2014	01:04:46.692	$GPGGA,010453,2552.9895,N,07923.4680,W,1,7,2.0,16,M,,M,,*59
05/30/2014	01:04:47.789	$GPGGA,010454,2552.9874,N,07923.4686,W,1,7,2.0,16,M,,M,,*57
05/30/2014	01:04:48.873	$GPGGA,010455,2552.9855,N,07923.4689,W,1,7,2.0,16,M,,M,,*5A
05/30/2014	01:04:49.991	$GPGGA,010456,2552.9836,N,07923.4696,W,1,7,2.0,16,M,,M,,*52
05/30/2014	01:04:51.088	$GPGGA,010457,2552.9816,N,07923.4701,W,1,7,2.0,16,M,,M,,*5E
05/30/2014	01:04:52.164	$GPGGA,010458,2552.9797,N,07923.4707,W,1,7,2.0,16,M,,M,,*51
05/30/2014	01:04:53.249	$GPGGA,010459,2552.9778,N,07923.4712,W,1,7,2.0,16,M,,M,,*55
05/30/2014	01:04:54.378	$GPGGA,010500,2552.9758,N,07923.4718,W,1,7,2.0,16,M,,M,,*50
05/30/2014	01:04:55.465	$GPGGA,010501,2552.9739,N,07923.4725,W,1,7,2.0,16,M,,M,,*58
05/30/2014	01:04:56.539	$GPGGA,010502,2552.9720,N,07923.4729,W,1,7,2.0,16,M,,M,,*5F
05/30/2014	01:04:57.657	$GPGGA,010503,2552.9699,N,07923.4736,W,1,7,2.0,16,M,,M,,*53
05/30/2014	01:04:58.732	$GPGGA,010504,2552.9681,N,07923.4741,W,1,7,2.0,16,M,,M,,*5D
05/30/2014	01:04:59.851	$GPGGA,010505,2552.9661,N,07923.4747,W,1,7,2.0,16,M,,M,,*54
05/30/2014	01:05:00.926	$GPGGA,010506,2552.9642,N,07923.4754,W,1,7,2.0,16,M,,M,,*54
05/30/2014	01:05:02.000	$GPGGA,010507,2552.9623,N,07923.4759,W,1,7,2.0,16,M,,M,,*5F
05/30/2014	01:05:03.119	$GPGGA,010508,2552.9603,N,07923.4765,W,1,7,2.0,16,M,,M,,*5D
05/30/2014	01:05:04.238	$GPGGA,010509,2552.9584,N,07923.4772,W,1,7,2.0,16,M,,M,,*56
05/30/2014	01:05:05.294	$GPGGA,010510,2552.9565,N,07923.4777,W,1,7,2.0,16,M,,M,,*54
05/30/2014	01:05:06.398	$GPGGA,010511,2552.9545,N,07923.4783,W,1,7,2.0,16,M,,M,,*5C
05/30/2014	01:05:07.505	$GPGGA,010512,2552.9527,N,07923.4790,W,1,7,2.0,15,M,,M,,*5A
05/30/2014	01:05:08.634	$GPGGA,010513,2552.9507,N,07923.4795,W,1,7,2.0,15,M,,M,,*5C
05/30/2014	01:05:09.676	$GPGGA,010514,2552.9489,N,07923.4801,W,1,7,2.0,15,M,,M,,*5E
05/30/2014	01:05:10.795	$GPGGA,010515,2552.9468,N,07923.4808,W,1,7,2.0,15,M,,M,,*59
05/30/2014	01:05:11.892	$GPGGA,010516,2552.9449,N,07923.4813,W,1,7,2.0,15,M,,M,,*53
05/30/2014	01:05:12.999	$GPGGA,010517,2552.9431,N,07923.4819,W,1,7,2.0,15,M,,M,,*57
05/30/2014	01:05:14.052	$GPGGA,010518,2552.9409,N,07923.4826,W,1,7,2.0,15,M,,M,,*5F
05/30/2014	01:05:15.149	$GPGGA,010519,2552.9391,N,07923.4831,W,1,7,2.0,15,M,,M,,*5E
05/30/2014	01:05:16.256	$GPGGA,010520,2552.9371,N,07923.4837,W,1,7,2.0,15,M,,M,,*5C
05/30/2014	01:05:17.485	$GPGGA,010521,2552.9352,N,07923.4842,W,1,7,2.0,15,M,,M,,*5E
05/30/2014	01:05:18.428	$GPGGA,010522,2552.9333,N,07923.4848,W,1,7,2.0,15,M,,M,,*50
05/30/2014	01:05:19.546	$GPGGA,010523,2552.9314,N,07923.4853,W,1,7,2.0,15,M,,M,,*5E
05/30/2014	01:05:20.643	$GPGGA,010524,2552.9295,N,07923.4859,W,1,7,2.0,15,M,,M,,*5B
05/30/2014	01:05:21.729	$GPGGA,010525,2552.9276,N,07923.4866,W,1,7,2.0,15,M,,M,,*5B
05/30/2014	01:05:22.924	$GPGGA,010526,2552.9256,N,07923.4870,W,1,7,2.0,15,M,,M,,*5D
05/30/2014	01:05:23.889	$GPGGA,010527,2552.9236,N,07923.4875,W,1,7,2.0,15,M,,M,,*5F
05/30/2014	01:05:25.129	$GPGGA,010528,2552.9216,N,07923.4881,W,1,7,2.0,15,M,,M,,*59
05/30/2014	01:05:26.214	$GPGGA,010529,2552.9195,N,07923.4886,W,1,7,2.0,15,M,,M,,*57
05/30/2014	01:05:27.190	$GPGGA,010530,2552.9176,N,07923.4892,W,1,7,2.0,15,M,,M,,*57
05/30/2014	01:05:28.286	$GPGGA,010531,2552.9157,N,07923.4897,W,1,7,2.0,15,M,,M,,*50
05/30/2014	01:05:29.503	$GPGGA,010532,2552.9136,N,07923.4903,W,1,7,2.0,15,M,,M,,*58
05/30/2014	01:05:30.611	$GPGGA,010533,2552.9117,N,07923.4908,W,1,7,2.0,15,M,,M,,*51
05/30/2014	01:05:31.664	$GPGGA,010534,2552.9099,N,07923.4913,W,1,7,2.0,15,M,,M,,*5B
05/30/2014	01:05:32.783	$GPGGA,010535,2552.9078,N,07923.4920,W,1,7,2.0,15,M,,M,,*55
05/30/2014	01:05:33.879	$GPGGA,010536,2552.9059,N,07923.4924,W,1,7,2.0,15,M,,M,,*51
05/30/2014	01:05:34.976	$GPGGA,010537,2552.9041,N,07923.4928,W,1,7,2.0,15,M,,M,,*55
05/30/2014	01:05:36.051	$GPGGA,010538,2552.9020,N,07923.4935,W,1,7,2.0,15,M,,M,,*51
05/30/2014	01:05:37.169	$GPGGA,010539,2552.9001,N,07923.4939,W,1,7,2.0,15,M,,M,,*5F
05/30/2014	01:05:38.277	$GPGGA,010540,2552.8981,N,07923.4944,W,1,7,2.0,14,M,,M,,*5A
05/30/2014	01:05:33.530	$GPGGA,010541,2552.8961,N,07923.4949,W,1,7,2.0,14,M,,M,,*58
05/30/2014	01:05:34.617	$GPGGA,010542,2552.8943,N,07923.4954,W,1,7,2.0,14,M,,M,,*57
05/30/2014	01:05:35.745	$GPGGA,010543,2552.8922,N,07923.4960,W,1,7,2.0,14,M,,M,,*56
05/30/2014	01:05:36.831	$GPGGA,010544,2552.8904,N,07923.4964,W,1,7,2.0,14,M,,M,,*51
05/30/2014	01:05:37.895	$GPGGA,010545,2552.8884,N,07923.4968,W,1,7,2.0,14,M,,M,,*55
05/30/2014	01:05:39.002	$GPGGA,010546,2552.8865,N,07923.4973,W,1,7,2.0,14,M,,M,,*53
05/30/2014	01:05:40.120	$GPGGA,010547,2552.8846,N,07923.4978,W,1,7,2.0,14,M,,M,,*58
05/30/2014	01:05:41.206	$GPGGA,010548,2552.8826,N,07923.4983,W,1,7,2.0,14,M,,M,,*55
05/30/2014	01:05:42.291	$GPGGA,010549,2552.8806,N,07923.4989,W,1,7,2.0,14,M,,M,,*5C
05/30/2014	01:05:43.377	$GPGGA,010550,2552.8786,N,07923.4993,W,1,7,2.0,14,M,,M,,*58
05/30/2014	01:05:44.485	$GPGGA,010551,2552.8767,N,07923.4998,W,1,7,2.0,14,M,,M,,*5D
05/30/2014	01:05:45.593	$GPGGA,010552,2552.8747,N,07923.5003,W,1,7,2.0,14,M,,M,,*56
05/30/2014	01:05:46.700	$GPGGA,010553,2552.8727,N,07923.5007,W,1,7,2.0,14,M,,M,,*55
05/30/2014	01:05:47.764	$GPGGA,010554,2552.8707,N,07923.5012,W,1,7,2.0,14,M,,M,,*54
05/30/2014	01:05:48.895	$GPGGA,010555,2552.8687,N,07923.5018,W,1,7,2.0,14,M,,M,,*56
05/30/2014	01:05:49.968	$GPGGA,010556,2552.8669,N,07923.5022,W,1,7,2.0,14,M,,M,,*5C
05/30/2014	01:05:51.043	$GPGGA,010557,2552.8649,N,07923.5027,W,1,7,2.0,14,M,,M,,*5A
05/30/2014	01:05:52.140	$GPGGA,010558,2552.8629,N,07923.5033,W,1,7,2.0,14,M,,M,,*56
05/30/2014	01:05:53.269	$GPGGA,010559,2552.8611,N,07923.5036,W,1,7,2.0,14,M,,M,,*59
05/30/2014	01:05:54.355	$GPGGA,010600,2552.8591,N,07923.5043,W,1,7,2.0,14,M,,M,,*5F
05/30/2014	01:05:55.452	$GPGGA,010601,2552.8571,N,07923.5048,W,1,7,2.0,14,M,,M,,*5B
05/30/2014	01:05:56.516	$GPGGA,010602,2552.8553,N,07923.5052,W,1,7,2.0,14,M,,M,,*53
05/30/2014	01:05:57.612	$GPGGA,010603,2552.8532,N,07923.5058,W,1,7,2.0,14,M,,M,,*5F
05/30/2014	01:05:58.720	$GPGGA,010604,2552.8513,N,07923.5063,W,1,7,2.0,14,M,,M,,*53
05/30/2014	01:05:59.805	$GPGGA,010605,2552.8493,N,07923.5069,W,1,7,2.0,14,M,,M,,*51
05/30/2014	01:06:00.902	$GPGGA,010606,2552.8474,N,07923.5074,W,1,7,2.0,14,M,,M,,*57
05/30/2014	01:06:02.009	$GPGGA,010607,2552.8454,N,07923.5080,W,1,7,2.0,14,M,,M,,*5F
05/30/2014	01:06:03.215	$GPGGA,010608,2552.8435,N,07923.5085,W,1,7,2.0,14,M,,M,,*52
05/30/2014	01:06:04.171	$GPGGA,010609,2552.8416,N,07923.5090,W,1,7,2.0,14,M,,M,,*56
05/30/2014	01:06:05.277	$GPGGA,010610,2552.8396,N,07923.5095,W,1,7,2.0,14,M,,M,,*54
05/30/2014	01:06:06.386	$GPGGA,010611,2552.8377,N,07923.5101,W,1,7,2.0,14,M,,M,,*56
05/30/2014	01:06:07.482	$GPGGA,010612,2552.8358,N,07923.5108,W,1,7,2.0,14,M,,M,,*51
05/30/2014	01:06:08.589	$GPGGA,010613,2552.8337,N,07923.5113,W,1,7,2.0,14,M,,M,,*53
05/30/2014	01:06:09.676	$GPGGA,010614,2552.8317,N,07923.5119,W,1,7,2.0,14,M,,M,,*5C
05/30/2014	01:06:10.870	$GPGGA,010615,2552.8298,N,07923.5123,W,1,7,2.0,14,M,,M,,*52
05/30/2014	01:06:11.979	$GPGGA,010616,2552.8279,N,07923.5130,W,1,7,2.0,14,M,,M,,*5C
05/30/2014	01:06:13.082	$GPGGA,010617,2552.8259,N,07923.5137,W,1,7,2.0,14,M,,M,,*58
05/30/2014	01:06:14.040	$GPGGA,010618,2552.8240,N,07923.5141,W,1,7,2.0,14,M,,M,,*5E
05/30/2014	01:06:15.225	$GPGGA,010619,2552.8221,N,07923.5148,W,1,7,2.0,14,M,,M,,*51
05/30/2014	01:06:16.266	$GPGGA,010620,2552.8201,N,07923.5152,W,1,7,2.0,14,M,,M,,*52
05/30/2014	01:06:17.330	$GPGGA,010621,2552.8181,N,07923.5159,W,1,7,2.0,14,M,,M,,*53
05/30/2014	01:06:18.416	$GPGGA,010622,2552.8161,N,07923.5164,W,1,7,2.0,14,M,,M,,*50
05/30/2014	01:06:19.511	$GPGGA,010623,2552.8142,N,07923.5170,W,1,7,2.0,14,M,,M,,*55
05/30/2014	01:06:20.707	$GPGGA,010624,2552.8122,N,07923.5177,W,1,7,2.0,14,M,,M,,*53
05/30/2014	01:06:21.792	$GPGGA,010625,2552.8102,N,07923.5182,W,1,7,2.0,14,M,,M,,*5A
05/30/2014	01:06:22.890	$GPGGA,010626,2552.8082,N,07923.5188,W,1,7,2.0,14,M,,M,,*5A
05/30/2014	01:06:23.986	$GPGGA,010627,2552.8063,N,07923.5195,W,1,7,2.0,14,M,,M,,*58
05/30/2014	01:06:25.093	$GPGGA,010628,2552.8044,N,07923.5200,W,1,7,2.0,14,M,,M,,*5D
05/30/2014	01:06:26.157	$GPGGA,010629,2552.8024,N,07923.5206,W,1,7,2.0,14,M,,M,,*5C
05/30/2014	01:06:27.255	$GPGGA,010630,2552.8004,N,07923.5211,W,1,7,2.0,14,M,,M,,*50
05/30/2014	01:06:28.384	$GPGGA,010631,2552.7986,N,07923.5217,W,1,7,2.0,14,M,,M,,*5B
05/30/2014	01:06:29.480	$GPGGA,010632,2552.7965,N,07923.5224,W,1,7,2.0,14,M,,M,,*55
05/30/2014	01:06:30.577	$GPGGA,010633,2552.7946,N,07923.5229,W,1,7,2.0,14,M,,M,,*58
05/30/2014	01:06:31.641	$GPGGA,010634,2552.7926,N,07923.5235,W,1,7,2.0,14,M,,M,,*54
05/30/2014	01:06:32.759	$GPGGA,010635,2552.7907,N,07923.5240,W,1,7,2.0,14,M,,M,,*54
05/30/2014	01:06:33.845	$GPGGA,010636,2552.7887,N,07923.5246,W,1,7,2.0,14,M,,M,,*58
05/30/2014	01:06:34.953	$GPGGA,010637,2552.7868,N,07923.5251,W,1,7,2.0,14,M,,M,,*5E
05/30/2014	01:06:36.017	$GPGGA,010638,2552.7849,N,07923.5257,W,1,7,2.0,14,M,,M,,*54
05/30/2014	01:06:37.135	$GPGGA,010639,2552.7829,N,07923.5262,W,1,7,2.0,14,M,,M,,*55
05/30/2014	01:06:38.231	$GPGGA,010640,2552.7809,N,07923.5267,W,1,7,2.0,14,M,,M,,*5C
05/30/2014	01:06:33.494	$GPGGA,010641,2552.7789,N,07923.5271,W,1,6,2.5,14,M,,M,,*59
05/30/2014	01:06:34.601	$GPGGA,010642,2552.7768,N,07923.5275,W,1,6,2.0,14,M,,M,,*54
05/30/2014	01:06:35.720	$GPGGA,010643,2552.7748,N,07923.5280,W,1,7,2.0,14,M,,M,,*5C
05/30/2014	01:06:36.806	$GPGGA,010644,2552.7728,N,07923.5285,W,1,7,2.0,14,M,,M,,*58
05/30/2014	01:06:37.881	$GPGGA,010645,2552.7709,N,07923.5290,W,1,7,2.0,14,M,,M,,*5E
05/30/2014	01:06:38.989	$GPGGA,010646,2552.7690,N,07923.5296,W,1,7,2.0,14,M,,M,,*5A
05/30/2014	01:06:40.107	$GPGGA,010647,2552.7669,N,07923.5300,W,1,7,2.0,14,M,,M,,*53
05/30/2014	01:06:41.193	$GPGGA,010648,2552.7650,N,07923.5305,W,1,7,2.0,14,M,,M,,*53
05/30/2014	01:06:42.289	$GPGGA,010649,2552.7628,N,07923.5311,W,1,7,2.0,14,M,,M,,*58
05/30/2014	01:06:43.342	$GPGGA,010650,2552.7609,N,07923.5314,W,1,7,2.0,14,M,,M,,*56
05/30/2014	01:06:44.559	$GPGGA,010651,2552.7589,N,07923.5321,W,1,7,2.0,14,M,,M,,*5A
05/30/2014	01:06:45.557	$GPGGA,010652,2552.7570,N,07923.5325,W,1,7,2.0,14,M,,M,,*5B
05/30/2014	01:06:46.676	$GPGGA,010653,2552.7550,N,07923.5329,W,1,7,2.0,14,M,,M,,*54
05/30/2014	01:06:47.718	$GPGGA,010654,2552.7531,N,07923.5334,W,1,7,2.0,14,M,,M,,*58
05/30/2014	01:06:48.838	$GPGGA,010655,2552.7510,N,07923.5340,W,1,7,2.0,15,M,,M,,*58
05/30/2014	01:06:49.944	$GPGGA,010656,2552.7491,N,07923.5343,W,1,7,2.0,15,M,,M,,*50
05/30/2014	01:06:51.118	$GPGGA,010657,2552.7471,N,07923.5348,W,1,7,2.0,15,M,,M,,*54
05/30/2014	01:06:52.235	$GPGGA,010658,2552.7451,N,07923.5354,W,1,7,2.0,15,M,,M,,*54
05/30/2014	01:06:53.222	$GPGGA,010659,2552.7431,N,07923.5358,W,1,7,2.0,15,M,,M,,*5F
05/30/2014	01:06:54.330	$GPGGA,010700,2552.7411,N,07923.5363,W,1,7,2.0,15,M,,M,,*58
05/30/2014	01:06:55.394	$GPGGA,010701,2552.7391,N,07923.5369,W,1,7,2.0,15,M,,M,,*5C
05/30/2014	01:06:56.589	$GPGGA,010702,2552.7372,N,07923.5374,W,1,7,2.0,15,M,,M,,*5E
05/30/2014	01:06:57.587	$GPGGA,010703,2552.7352,N,07923.5379,W,1,7,2.0,15,M,,M,,*50
05/30/2014	01:06:58.818	$GPGGA,010704,2552.7333,N,07923.5384,W,1,7,2.0,15,M,,M,,*52
05/30/2014	01:06:59.868	$GPGGA,010705,2552.7314,N,07923.5390,W,1,7,2.0,15,M,,M,,*53
05/30/2014	01:07:00.866	$GPGGA,010706,2552.7293,N,07923.5395,W,1,7,2.0,15,M,,M,,*5B
05/30/2014	01:07:02.073	$GPGGA,010707,2552.7273,N,07923.5401,W,1,7,2.0,15,M,,M,,*5E
05/30/2014	01:07:03.072	$GPGGA,010708,2552.7253,N,07923.5408,W,1,7,2.0,15,M,,M,,*5A
05/30/2014	01:07:04.156	$GPGGA,010709,2552.7233,N,07923.5412,W,1,7,2.0,15,M,,M,,*56
05/30/2014	01:07:05.242	$GPGGA,010710,2552.7213,N,07923.5417,W,1,7,2.0,16,M,,M,,*5A
05/30/2014	01:07:06.438	$GPGGA,010711,2552.7195,N,07923.5423,W,1,7,2.0,16,M,,M,,*51
05/30/2014	01:07:07.545	$GPGGA,010712,2552.7174,N,07923.5430,W,1,7,2.0,16,M,,M,,*5F
05/30/2014	01:07:08.653	$GPGGA,010713,2552.7155,N,07923.5435,W,1,7,2.0,16,M,,M,,*58
05/30/2014	01:07:09.739	$GPGGA,010714,2552.7135,N,07923.5441,W,1,7,2.0,16,M,,M,,*5A
05/30/2014	01:07:10.812	$GPGGA,010715,2552.7116,N,07923.5446,W,1,7,2.0,16,M,,M,,*5D
05/30/2014	01:07:11.931	$GPGGA,010716,2552.7096,N,07923.5452,W,1,7,2.0,16,M,,M,,*52
05/30/2014	01:07:13.006	$GPGGA,010717,2552.7079,N,07923.5457,W,1,7,2.0,16,M,,M,,*57
05/30/2014	01:07:14.113	$GPGGA,010718,2552.7059,N,07923.5463,W,1,7,2.0,16,M,,M,,*5D
05/30/2014	01:07:15.210	$GPGGA,010719,2552.7039,N,07923.5469,W,1,7,2.0,16,M,,M,,*50
05/30/2014	01:07:16.319	$GPGGA,010720,2552.7020,N,07923.5474,W,1,7,2.0,16,M,,M,,*5E
05/30/2014	01:07:17.381	$GPGGA,010721,2552.7000,N,07923.5480,W,1,7,2.0,16,M,,M,,*56
05/30/2014	01:07:18.490	$GPGGA,010722,2552.6982,N,07923.5486,W,1,7,2.0,16,M,,M,,*51
05/30/2014	01:07:19.586	$GPGGA,010723,2552.6962,N,07923.5492,W,1,7,2.0,16,M,,M,,*5B
05/30/2014	01:07:20.672	$GPGGA,010724,2552.6942,N,07923.5499,W,1,7,2.0,16,M,,M,,*55
05/30/2014	01:07:21.779	$GPGGA,010725,2552.6924,N,07923.5504,W,1,7,2.0,16,M,,M,,*51
05/30/2014	01:07:22.865	$GPGGA,010726,2552.6904,N,07923.5510,W,1,7,2.0,16,M,,M,,*55
05/30/2014	01:07:23.951	$GPGGA,010727,2552.6885,N,07923.5517,W,1,7,2.0,16,M,,M,,*5B
05/30/2014	01:07:25.070	$GPGGA,010728,2552.6866,N,07923.5522,W,1,7,2.0,16,M,,M,,*5F
05/30/2014	01:07:26.166	$GPGGA,010729,2552.6846,N,07923.5528,W,1,7,2.0,16,M,,M,,*56
05/30/2014	01:07:27.241	$GPGGA,010730,2552.6827,N,07923.5535,W,1,7,2.0,16,M,,M,,*55
05/30/2014	01:07:28.348	$GPGGA,010731,2552.6807,N,07923.5540,W,1,7,2.0,16,M,,M,,*54
05/30/2014	01:07:29.444	$GPGGA,010732,2552.6788,N,07923.5546,W,1,7,2.0,16,M,,M,,*59
05/30/2014	01:07:30.552	$GPGGA,010733,2552.6768,N,07923.5553,W,1,7,2.0,16,M,,M,,*52
05/30/2014	01:07:31.616	$GPGGA,010734,2552.6749,N,07923.5557,W,1,7,2.0,16,M,,M,,*52
05/30/2014	01:07:32.713	$GPGGA,010735,2552.6729,N,07923.5563,W,1,7,2.0,16,M,,M,,*52
05/30/2014	01:07:33.820	$GPGGA,010736,2552.6711,N,07923.5569,W,1,7,2.0,16,M,,M,,*50
05/30/2014	01:07:34.906	$GPGGA,010737,2552.6691,N,07923.5575,W,1,7,2.0,16,M,,M,,*55
05/30/2014	01:07:35.980	$GPGGA,010738,2552.6671,N,07923.5581,W,1,7,2.0,16,M,,M,,*5F
05/30/2014	01:07:37.121	$GPGGA,010739,2552.6653,N,07923.5585,W,1,7,2.0,16,M,,M,,*5A
05/30/2014	01:07:38.196	$GPGGA,010740,2552.6633,N,07923.5590,W,1,7,2.0,16,M,,M,,*56
05/30/2014	01:07:33.503	$GPGGA,010741,2552.6614,N,07923.5596,W,1,7,2.0,16,M,,M,,*54
05/30/2014	01:07:34.567	$GPGGA,010742,2552.6595,N,07923.5600,W,1,7,2.0,16,M,,M,,*51
05/30/2014	01:07:35.675	$GPGGA,010743,2552.6574,N,07923.5605,W,1,7,2.0,15,M,,M,,*59
05/30/2014	01:07:36.783	$GPGGA,010744,2552.6556,N,07923.5611,W,1,7,2.0,15,M,,M,,*5B
05/30/2014	01:07:37.857	$GPGGA,010745,2552.6536,N,07923.5616,W,1,7,2.0,15,M,,M,,*5B
05/30/2014	01:07:39.075	$GPGGA,010746,2552.6516,N,07923.5621,W,1,7,2.0,15,M,,M,,*5E
05/30/2014	01:07:40.029	$GPGGA,010747,2552.6497,N,07923.5628,W,1,7,2.0,15,M,,M,,*5E
05/30/2014	01:07:41.158	$GPGGA,010748,2552.6477,N,07923.5633,W,1,7,2.0,15,M,,M,,*55
05/30/2014	01:07:42.255	$GPGGA,010749,2552.6458,N,07923.5639,W,1,7,2.0,15,M,,M,,*53
05/30/2014	01:07:43.427	$GPGGA,010750,2552.6440,N,07923.5645,W,1,7,2.5,15,M,,M,,*5C
05/30/2014	01:07:44.414	$GPGGA,010751,2552.6422,N,07923.5650,W,1,7,2.0,15,M,,M,,*58
05/30/2014	01:07:45.665	$GPGGA,010752,2552.6402,N,07923.5657,W,1,7,2.0,15,M,,M,,*5E
05/30/2014	01:07:46.750	$GPGGA,010753,2552.6382,N,07923.5661,W,1,7,2.0,15,M,,M,,*55
05/30/2014	01:07:47.728	$GPGGA,010754,2552.6362,N,07923.5666,W,1,7,2.0,15,M,,M,,*5B
05/30/2014	01:07:48.922	$GPGGA,010755,2552.6343,N,07923.5672,W,1,7,2.0,15,M,,M,,*5C
05/30/2014	01:07:50.030	$GPGGA,010756,2552.6324,N,07923.5676,W,1,7,2.0,15,M,,M,,*5A
05/30/2014	01:07:51.039	$GPGGA,010757,2552.6304,N,07923.5683,W,1,7,2.0,15,M,,M,,*53
05/30/2014	01:07:52.155	$GPGGA,010758,2552.6284,N,07923.5686,W,1,7,2.0,14,M,,M,,*51
05/30/2014	01:07:53.222	$GPGGA,010759,2552.6263,N,07923.5691,W,1,7,2.0,14,M,,M,,*5F
05/30/2014	01:07:54.258	$GPGGA,010800,2552.6243,N,07923.5697,W,1,7,2.0,14,M,,M,,*58
05/30/2014	01:07:55.285	$GPGGA,010801,2552.6223,N,07923.5701,W,1,7,2.0,14,M,,M,,*51
05/30/2014	01:07:56.290	$GPGGA,010802,2552.6203,N,07923.5708,W,1,7,2.0,14,M,,M,,*59
05/30/2014	01:07:57.326	$GPGGA,010803,2552.6183,N,07923.5712,W,1,7,2.0,14,M,,M,,*58
05/30/2014	01:07:58.374	$GPGGA,010804,2552.6163,N,07923.5716,W,1,7,2.0,14,M,,M,,*55
05/30/2014	01:07:59.409	$GPGGA,010805,2552.6143,N,07923.5723,W,1,7,2.0,14,M,,M,,*50
05/30/2014	01:08:00.446	$GPGGA,010806,2552.6124,N,07923.5726,W,1,7,2.0,14,M,,M,,*57
05/30/2014	01:08:01.481	$GPGGA,010807,2552.6104,N,07923.5730,W,1,7,2.0,14,M,,M,,*53
05/30/2014	01:08:02.518	$GPGGA,010808,2552.6084,N,07923.5737,W,1,7,2.0,14,M,,M,,*52
05/30/2014	01:08:03.544	$GPGGA,010809,2552.6064,N,07923.5741,W,1,7,2.0,14,M,,M,,*5C
05/30/2014	01:08:04.570	$GPGGA,010810,2552.6044,N,07923.5745,W,1,7,2.0,14,M,,M,,*52
05/30/2014	01:08:05.616	$GPGGA,010811,2552.6025,N,07923.5751,W,1,7,2.0,14,M,,M,,*51
05/30/2014	01:08:06.654	$GPGGA,010812,2552.6005,N,07923.5758,W,1,7,2.0,14,M,,M,,*59
05/30/2014	01:08:07.679	$GPGGA,010813,2552.5985,N,07923.5762,W,1,7,2.0,14,M,,M,,*53
05/30/2014	01:08:08.705	$GPGGA,010814,2552.5965,N,07923.5767,W,1,7,2.0,14,M,,M,,*5F
05/30/2014	01:08:09.741	$GPGGA,010815,2552.5945,N,07923.5773,W,1,7,2.0,14,M,,M,,*59
05/30/2014	01:08:10.788	$GPGGA,010816,2552.5925,N,07923.5777,W,1,7,2.0,14,M,,M,,*58
05/30/2014	01:08:11.866	$GPGGA,010817,2552.5905,N,07923.5784,W,1,7,2.0,14,M,,M,,*57
05/30/2014	01:08:12.830	$GPGGA,010818,2552.5887,N,07923.5791,W,1,7,2.0,14,M,,M,,*57
05/30/2014	01:08:13.908	$GPGGA,010819,2552.5866,N,07923.5795,W,1,7,2.0,14,M,,M,,*5D
05/30/2014	01:08:14.913	$GPGGA,010820,2552.5846,N,07923.5802,W,1,7,2.0,14,M,,M,,*54
05/30/2014	01:08:15.939	$GPGGA,010821,2552.5826,N,07923.5807,W,1,7,2.0,14,M,,M,,*56
05/30/2014	01:08:17.028	$GPGGA,010822,2552.5807,N,07923.5813,W,1,7,2.0,14,M,,M,,*53
05/30/2014	01:08:18.053	$GPGGA,010823,2552.5787,N,07923.5820,W,1,7,2.0,14,M,,M,,*55
05/30/2014	01:08:19.058	$GPGGA,010824,2552.5768,N,07923.5825,W,1,7,2.0,14,M,,M,,*56
05/30/2014	01:08:20.083	$GPGGA,010825,2552.5748,N,07923.5831,W,1,7,2.0,14,M,,M,,*50
05/30/2014	01:08:21.111	$GPGGA,010826,2552.5728,N,07923.5838,W,1,7,2.0,14,M,,M,,*5C
05/30/2014	01:08:22.177	$GPGGA,010827,2552.5710,N,07923.5843,W,1,7,2.0,14,M,,M,,*5A
05/30/2014	01:08:23.182	$GPGGA,010828,2552.5689,N,07923.5849,W,1,7,2.0,14,M,,M,,*5E
05/30/2014	01:08:24.229	$GPGGA,010829,2552.5669,N,07923.5856,W,1,7,2.0,14,M,,M,,*5F
05/30/2014	01:08:25.421	$GPGGA,010830,2552.5649,N,07923.5861,W,1,7,2.0,14,M,,M,,*51
05/30/2014	01:08:26.426	$GPGGA,010831,2552.5629,N,07923.5867,W,1,7,2.0,14,M,,M,,*50
05/30/2014	01:08:27.338	$GPGGA,010832,2552.5610,N,07923.5872,W,1,7,2.0,14,M,,M,,*5D
05/30/2014	01:08:28.375	$GPGGA,010833,2552.5591,N,07923.5879,W,1,7,2.0,14,M,,M,,*5D
05/30/2014	01:08:29.485	$GPGGA,010834,2552.5570,N,07923.5885,W,1,7,2.0,14,M,,M,,*56
05/30/2014	01:08:30.572	$GPGGA,010835,2552.5551,N,07923.5890,W,1,7,2.0,14,M,,M,,*50
05/30/2014	01:08:31.639	$GPGGA,010836,2552.5531,N,07923.5896,W,1,7,2.0,14,M,,M,,*53
05/30/2014	01:08:32.511	$GPGGA,010837,2552.5512,N,07923.5903,W,1,7,2.0,14,M,,M,,*5E
05/30/2014	01:08:33.691	$GPGGA,010838,2552.5492,N,07923.5908,W,1,7,2.0,14,M,,M,,*53
05/30/2014	01:08:34.552	$GPGGA,010839,2552.5473,N,07923.5914,W,1,7,2.0,14,M,,M,,*50
05/30/2014	01:08:35.775	$GPGGA,010840,2552.5453,N,07923.5918,W,1,7,2.0,14,M,,M,,*50
05/30/2014	01:08:33.587	$GPGGA,010841,2552.5433,N,07923.5925,W,1,7,2.0,14,M,,M,,*59
05/30/2014	01:08:34.570	$GPGGA,010842,2552.5414,N,07923.5930,W,1,7,2.0,14,M,,M,,*5B
05/30/2014	01:08:35.628	$GPGGA,010843,2552.5394,N,07923.5936,W,1,7,2.5,14,M,,M,,*56
05/30/2014	01:08:36.716	$GPGGA,010844,2552.5374,N,07923.5939,W,1,7,2.0,14,M,,M,,*55
05/30/2014	01:08:37.690	$GPGGA,010845,2552.5353,N,07923.5944,W,1,7,2.0,14,M,,M,,*5B
05/30/2014	01:08:38.789	$GPGGA,010846,2552.5333,N,07923.5948,W,1,7,2.0,14,M,,M,,*52
05/30/2014	01:08:39.773	$GPGGA,010847,2552.5313,N,07923.5954,W,1,7,2.0,14,M,,M,,*5C
05/30/2014	01:08:40.861	$GPGGA,010848,2552.5293,N,07923.5958,W,1,7,2.0,14,M,,M,,*56
05/30/2014	01:08:41.856	$GPGGA,010849,2552.5273,N,07923.5964,W,1,7,2.0,14,M,,M,,*56
05/30/2014	01:08:42.913	$GPGGA,010850,2552.5253,N,07923.5968,W,1,7,2.0,14,M,,M,,*50
05/30/2014	01:08:43.950	$GPGGA,010851,2552.5234,N,07923.5973,W,1,7,2.0,14,M,,M,,*5A
05/30/2014	01:08:45.048	$GPGGA,010852,2552.5215,N,07923.5979,W,1,7,2.0,15,M,,M,,*51
05/30/2014	01:08:46.033	$GPGGA,010853,2552.5194,N,07923.5983,W,1,7,2.0,15,M,,M,,*5F
05/30/2014	01:08:47.049	$GPGGA,010854,2552.5175,N,07923.5988,W,1,7,2.0,15,M,,M,,*5C
05/30/2014	01:08:48.023	$GPGGA,010855,2552.5155,N,07923.5993,W,1,7,2.0,15,M,,M,,*55
05/30/2014	01:08:49.153	$GPGGA,010856,2552.5135,N,07923.5999,W,1,7,2.0,15,M,,M,,*5A
05/30/2014	01:08:50.118	$GPGGA,010857,2552.5116,N,07923.6004,W,1,7,2.0,15,M,,M,,*54
05/30/2014	01:08:51.184	$GPGGA,010858,2552.5096,N,07923.6009,W,1,7,2.0,15,M,,M,,*5F
05/30/2014	01:08:52.210	$GPGGA,010859,2552.5078,N,07923.6015,W,1,7,2.0,15,M,,M,,*53
05/30/2014	01:08:53.287	$GPGGA,010900,2552.5057,N,07923.6020,W,1,7,2.0,15,M,,M,,*55
05/30/2014	01:08:54.220	$GPGGA,010901,2552.5038,N,07923.6026,W,1,7,2.0,15,M,,M,,*5B
05/30/2014	01:08:55.330	$GPGGA,010902,2552.5018,N,07923.6030,W,1,7,2.0,15,M,,M,,*5D
05/30/2014	01:08:56.282	$GPGGA,010903,2552.4998,N,07923.6037,W,1,7,2.0,15,M,,M,,*5B
05/30/2014	01:08:57.391	$GPGGA,010904,2552.4980,N,07923.6041,W,1,7,2.0,15,M,,M,,*54
05/30/2014	01:08:58.396	$GPGGA,010905,2552.4959,N,07923.6046,W,1,7,2.0,15,M,,M,,*56
05/30/2014	01:08:59.475	$GPGGA,010906,2552.4940,N,07923.6052,W,1,7,2.0,15,M,,M,,*58
05/30/2014	01:09:00.417	$GPGGA,010907,2552.4921,N,07923.6059,W,1,7,2.0,15,M,,M,,*55
05/30/2014	01:09:01.537	$GPGGA,010908,2552.4902,N,07923.6063,W,1,7,2.0,15,M,,M,,*52
05/30/2014	01:09:02.563	$GPGGA,010909,2552.4883,N,07923.6069,W,1,7,2.0,15,M,,M,,*51
05/30/2014	01:09:03.518	$GPGGA,010910,2552.4862,N,07923.6076,W,1,7,2.0,15,M,,M,,*58
05/30/2014	01:09:04.584	$GPGGA,010911,2552.4843,N,07923.6081,W,1,7,2.0,15,M,,M,,*52
05/30/2014	01:09:05.673	$GPGGA,010912,2552.4825,N,07923.6087,W,1,7,2.0,15,M,,M,,*57
05/30/2014	01:09:06.636	$GPGGA,010913,2552.4804,N,07923.6094,W,1,7,2.0,15,M,,M,,*57
05/30/2014	01:09:07.714	$GPGGA,010914,2552.4786,N,07923.6099,W,1,7,2.0,15,M,,M,,*58
05/30/2014	01:09:08.740	$GPGGA,010915,2552.4767,N,07923.6105,W,1,7,2.0,15,M,,M,,*52
05/30/2014	01:09:09.745	$GPGGA,010916,2552.4746,N,07923.6110,W,1,7,2.0,15,M,,M,,*56
05/30/2014	01:09:10.863	$GPGGA,010917,2552.4727,N,07923.6116,W,1,7,2.0,15,M,,M,,*56
05/30/2014	01:09:11.900	$GPGGA,010918,2552.4707,N,07923.6124,W,1,7,2.0,15,M,,M,,*5A
05/30/2014	01:09:12.905	$GPGGA,010919,2552.4688,N,07923.6128,W,1,7,2.0,15,M,,M,,*51
05/30/2014	01:09:13.941	$GPGGA,010920,2552.4668,N,07923.6134,W,1,7,2.0,15,M,,M,,*58
05/30/2014	01:09:15.050	$GPGGA,010921,2552.4650,N,07923.6141,W,1,7,2.0,15,M,,M,,*50
05/30/2014	01:09:15.993	$GPGGA,010922,2552.4630,N,07923.6146,W,1,7,2.0,15,M,,M,,*52
05/30/2014	01:09:17.102	$GPGGA,010923,2552.4610,N,07923.6152,W,1,7,2.0,15,M,,M,,*54
05/30/2014	01:09:18.067	$GPGGA,010924,2552.4591,N,07923.6160,W,1,7,2.0,15,M,,M,,*58
05/30/2014	01:09:19.082	$GPGGA,010925,2552.4572,N,07923.6164,W,1,7,2.0,15,M,,M,,*50
05/30/2014	01:09:20.202	$GPGGA,010926,2552.4552,N,07923.6171,W,1,7,2.0,15,M,,M,,*55
05/30/2014	01:09:21.175	$GPGGA,010927,2552.4532,N,07923.6178,W,1,7,2.0,15,M,,M,,*5B
05/30/2014	01:09:22.254	$GPGGA,010928,2552.4512,N,07923.6183,W,1,7,2.0,15,M,,M,,*52
05/30/2014	01:09:23.331	$GPGGA,010929,2552.4493,N,07923.6189,W,1,7,2.0,15,M,,M,,*51
05/30/2014	01:09:24.336	$GPGGA,010930,2552.4473,N,07923.6196,W,1,7,2.0,15,M,,M,,*59
05/30/2014	01:09:25.352	$GPGGA,010931,2552.4455,N,07923.6201,W,1,7,2.0,15,M,,M,,*51
05/30/2014	01:09:26.389	$GPGGA,010932,2552.4435,N,07923.6207,W,1,7,2.0,15,M,,M,,*52
05/30/2014	01:09:27.457	$GPGGA,010933,2552.4417,N,07923.6212,W,1,7,2.0,15,M,,M,,*57
05/30/2014	01:09:28.440	$GPGGA,010934,2552.4397,N,07923.6218,W,1,7,2.0,15,M,,M,,*55
05/30/2014	01:09:29.507	$GPGGA,010935,2552.4377,N,07923.6225,W,1,7,2.0,15,M,,M,,*54
05/30/2014	01:09:30.564	$GPGGA,010936,2552.4359,N,07923.6230,W,1,7,2.0,15,M,,M,,*5F
05/30/2014	01:09:31.590	$GPGGA,010937,2552.4339,N,07923.6236,W,1,7,2.0,15,M,,M,,*5E
05/30/2014	01:09:32.585	$GPGGA,010938,2552.4319,N,07923.6243,W,1,7,2.0,15,M,,M,,*51
05/30/2014	01:09:33.632	$GPGGA,010939,2552.4301,N,07923.6247,W,1,7,2.0,15,M,,M,,*5D
05/30/2014	01:09:34.679	$GPGGA,010940,2552.4281,N,07923.6254,W,1,7,2.0,15,M,,M,,*58
05/30/2014	01:09:33.555	$GPGGA,010941,2552.4261,N,07923.6261,W,1,7,2.0,15,M,,M,,*51
05/30/2014	01:09:34.538	$GPGGA,010942,2552.4242,N,07923.6265,W,1,7,2.0,15,M,,M,,*57
05/30/2014	01:09:35.595	$GPGGA,010943,2552.4222,N,07923.6272,W,1,7,2.0,15,M,,M,,*56
05/30/2014	01:09:36.632	$GPGGA,010944,2552.4203,N,07923.6276,W,1,7,2.0,15,M,,M,,*56
05/30/2014	01:09:37.679	$GPGGA,010945,2552.4183,N,07923.6283,W,1,7,2.0,15,M,,M,,*56
05/30/2014	01:09:38.725	$GPGGA,010946,2552.4164,N,07923.6287,W,1,7,2.0,15,M,,M,,*58
05/30/2014	01:09:39.772	$GPGGA,010947,2552.4146,N,07923.6293,W,1,7,2.0,15,M,,M,,*5C
05/30/2014	01:09:40.767	$GPGGA,010948,2552.4125,N,07923.6298,W,1,7,2.0,15,M,,M,,*5D
05/30/2014	01:09:41.814	$GPGGA,010949,2552.4106,N,07923.6304,W,1,7,2.0,15,M,,M,,*59
05/30/2014	01:09:42.850	$GPGGA,010950,2552.4088,N,07923.6311,W,1,7,2.0,15,M,,M,,*52
05/30/2014	01:09:43.897	$GPGGA,010951,2552.4067,N,07923.6316,W,1,7,2.0,15,M,,M,,*55
05/30/2014	01:09:44.943	$GPGGA,010952,2552.4048,N,07923.6322,W,1,7,2.0,15,M,,M,,*5C
05/30/2014	01:09:45.949	$GPGGA,010953,2552.4027,N,07923.6327,W,1,7,2.0,15,M,,M,,*51
05/30/2014	01:09:46.953	$GPGGA,010954,2552.4027,N,07923.6327,W,1,7,2.0,15,M,,M,,*56
05/30/2014	01:09:48.021	$GPGGA,010955,2552.3989,N,07923.6338,W,1,7,2.0,15,M,,M,,*53
05/30/2014	01:09:49.109	$GPGGA,010956,2552.3969,N,07923.6344,W,1,7,2.0,15,M,,M,,*55
05/30/2014	01:09:50.083	$GPGGA,010957,2552.3951,N,07923.6349,W,1,7,2.0,15,M,,M,,*52
05/30/2014	01:09:51.099	$GPGGA,010958,2552.3951,N,07923.6349,W,1,7,2.0,15,M,,M,,*5D
05/30/2014	01:09:52.156	$GPGGA,010959,2552.3911,N,07923.6360,W,1,7,2.0,15,M,,M,,*53
05/30/2014	01:09:53.192	$GPGGA,011000,2552.3911,N,07923.6360,W,1,7,2.0,15,M,,M,,*57
05/30/2014	01:09:54.250	$GPGGA,011001,2552.3872,N,07923.6370,W,1,7,2.0,15,M,,M,,*53
05/30/2014	01:09:55.255	$GPGGA,011002,2552.3853,N,07923.6376,W,1,7,2.0,15,M,,M,,*55
05/30/2014	01:09:56.260	$GPGGA,011003,2552.3833,N,07923.6381,W,1,7,2.0,15,M,,M,,*5A
05/30/2014	01:09:57.431	$GPGGA,011004,2552.3813,N,07923.6385,W,1,7,2.0,15,M,,M,,*5B
05/30/2014	01:09:58.354	$GPGGA,011005,2552.3793,N,07923.6391,W,1,7,2.0,15,M,,M,,*58
05/30/2014	01:09:59.360	$GPGGA,011006,2552.3793,N,07923.6391,W,1,7,2.0,15,M,,M,,*5B
05/30/2014	01:10:00.530	$GPGGA,011007,2552.3754,N,07923.6400,W,1,7,2.0,15,M,,M,,*5E
05/30/2014	01:10:01.567	$GPGGA,011008,2552.3736,N,07923.6405,W,1,7,2.0,15,M,,M,,*50
05/30/2014	01:10:02.489	$GPGGA,011009,2552.3716,N,07923.6412,W,1,7,2.0,15,M,,M,,*55
05/30/2014	01:10:03.545	$GPGGA,011010,2552.3698,N,07923.6416,W,1,7,2.0,15,M,,M,,*5E
05/30/2014	01:10:04.664	$GPGGA,011011,2552.3677,N,07923.6421,W,1,7,2.0,15,M,,M,,*5A
05/30/2014	01:10:05.597	$GPGGA,011012,2552.3677,N,07923.6421,W,1,7,2.0,15,M,,M,,*59
05/30/2014	01:10:06.737	$GPGGA,011013,2552.3638,N,07923.6431,W,1,7,2.0,15,M,,M,,*52
05/30/2014	01:10:07.650	$GPGGA,011014,2552.3638,N,07923.6431,W,1,7,2.0,15,M,,M,,*55
05/30/2014	01:10:08.769	$GPGGA,011015,2552.3600,N,07923.6443,W,1,7,2.0,15,M,,M,,*5A
05/30/2014	01:10:09.723	$GPGGA,011016,2552.3580,N,07923.6449,W,1,7,2.0,15,M,,M,,*58
05/30/2014	01:10:10.842	$GPGGA,011017,2552.3560,N,07923.6453,W,1,7,2.0,15,M,,M,,*5C
05/30/2014	01:10:11.795	$GPGGA,011018,2552.3560,N,07923.6453,W,1,7,2.0,15,M,,M,,*53
05/30/2014	01:10:12.914	$GPGGA,011019,2552.3522,N,07923.6464,W,1,7,2.0,15,M,,M,,*50
05/30/2014	01:10:13.930	$GPGGA,011020,2552.3503,N,07923.6470,W,1,7,2.0,14,M,,M,,*5D
05/30/2014	01:10:14.883	$GPGGA,011021,2552.3483,N,07923.6475,W,1,7,2.0,14,M,,M,,*50
05/30/2014	01:10:16.023	$GPGGA,011022,2552.3463,N,07923.6481,W,1,7,2.0,14,M,,M,,*56
05/30/2014	01:10:17.080	$GPGGA,011023,2552.3443,N,07923.6486,W,1,7,2.0,14,M,,M,,*52
05/30/2014	01:10:18.117	$GPGGA,011024,2552.3424,N,07923.6493,W,1,7,2.0,14,M,,M,,*50
05/30/2014	01:10:19.122	$GPGGA,011025,2552.3405,N,07923.6499,W,1,7,2.0,14,M,,M,,*58
05/30/2014	01:10:20.159	$GPGGA,011026,2552.3387,N,07923.6506,W,1,7,2.0,14,M,,M,,*51
05/30/2014	01:10:21.173	$GPGGA,011027,2552.3366,N,07923.6510,W,1,7,2.0,14,M,,M,,*58
05/30/2014	01:10:22.241	$GPGGA,011028,2552.3347,N,07923.6517,W,1,7,2.0,14,M,,M,,*53
05/30/2014	01:10:23.267	$GPGGA,011029,2552.3327,N,07923.6522,W,1,7,2.0,14,M,,M,,*52
05/30/2014	01:10:24.293	$GPGGA,011030,2552.3308,N,07923.6528,W,1,7,2.0,14,M,,M,,*5D
05/30/2014	01:10:25.340	$GPGGA,011031,2552.3288,N,07923.6533,W,1,7,2.0,14,M,,M,,*5F
05/30/2014	01:10:26.366	$GPGGA,011032,2552.3268,N,07923.6539,W,1,7,2.0,14,M,,M,,*58
05/30/2014	01:10:27.412	$GPGGA,011033,2552.3250,N,07923.6544,W,1,7,2.0,14,M,,M,,*58
05/30/2014	01:10:28.428	$GPGGA,011034,2552.3229,N,07923.6550,W,1,7,2.0,14,M,,M,,*54
05/30/2014	01:10:29.454	$GPGGA,011035,2552.3211,N,07923.6557,W,1,7,2.0,14,M,,M,,*59
05/30/2014	01:10:30.553	$GPGGA,011036,2552.3192,N,07923.6562,W,1,7,2.0,14,M,,M,,*54
05/30/2014	01:10:31.548	$GPGGA,011037,2552.3171,N,07923.6568,W,1,7,2.0,14,M,,M,,*52
05/30/2014	01:10:32.574	$GPGGA,011038,2552.3152,N,07923.6573,W,1,7,2.0,14,M,,M,,*56
05/30/2014	01:10:33.620	$GPGGA,011039,2552.3132,N,07923.6579,W,1,7,2.0,14,M,,M,,*5B
05/30/2014	01:10:34.636	$GPGGA,011040,2552.3113,N,07923.6586,W,1,7,2.0,14,M,,M,,*56
05/30/2014	01:10:33.479	$GPGGA,011041,2552.3094,N,07923.6593,W,1,7,2.0,14,M,,M,,*5D
05/30/2014	01:10:34.515	$GPGGA,011042,2552.3074,N,07923.6600,W,1,7,2.0,14,M,,M,,*59
05/30/2014	01:10:35.562	$GPGGA,011043,2552.3055,N,07923.6605,W,1,7,2.0,14,M,,M,,*5E
05/30/2014	01:10:36.599	$GPGGA,011044,2552.3035,N,07923.6611,W,1,7,2.0,14,M,,M,,*5A
05/30/2014	01:10:37.655	$GPGGA,011045,2552.3015,N,07923.6618,W,1,7,2.0,14,M,,M,,*50
05/30/2014	01:10:38.670	$GPGGA,011046,2552.2995,N,07923.6623,W,1,7,2.0,14,M,,M,,*5B
05/30/2014	01:10:39.717	$GPGGA,011047,2552.2975,N,07923.6630,W,1,7,2.0,14,M,,M,,*56
05/30/2014	01:10:40.755	$GPGGA,011048,2552.2955,N,07923.6637,W,1,7,2.0,14,M,,M,,*5C
05/30/2014	01:10:41.790	$GPGGA,011049,2552.2936,N,07923.6642,W,1,7,2.0,14,M,,M,,*5A
05/30/2014	01:10:42.785	$GPGGA,011050,2552.2916,N,07923.6648,W,1,7,2.0,14,M,,M,,*5A
05/30/2014	01:10:43.873	$GPGGA,011051,2552.2897,N,07923.6655,W,1,7,2.0,14,M,,M,,*5F
05/30/2014	01:10:44.889	$GPGGA,011052,2552.2878,N,07923.6662,W,1,7,2.0,14,M,,M,,*59
05/30/2014	01:10:45.904	$GPGGA,011053,2552.2858,N,07923.6667,W,1,7,2.0,14,M,,M,,*5F
05/30/2014	01:10:46.920	$GPGGA,011054,2552.2838,N,07923.6673,W,1,7,2.0,14,M,,M,,*5B
05/30/2014	01:10:47.977	$GPGGA,011055,2552.2818,N,07923.6678,W,1,7,2.0,14,M,,M,,*53
05/30/2014	01:10:49.024	$GPGGA,011056,2552.2798,N,07923.6684,W,1,7,2.0,14,M,,M,,*54
05/30/2014	01:10:50.133	$GPGGA,011057,2552.2778,N,07923.6691,W,1,7,2.0,14,M,,M,,*5F
05/30/2014	01:10:51.159	$GPGGA,011058,2552.2758,N,07923.6695,W,1,7,2.0,14,M,,M,,*56
05/30/2014	01:10:52.113	$GPGGA,011059,2552.2738,N,07923.6702,W,1,7,2.0,14,M,,M,,*5E
05/30/2014	01:10:53.170	$GPGGA,011100,2552.2719,N,07923.6707,W,1,7,2.0,14,M,,M,,*55
05/30/2014	01:10:54.185	$GPGGA,011101,2552.2698,N,07923.6713,W,1,7,2.0,14,M,,M,,*59
05/30/2014	01:10:55.201	$GPGGA,011102,2552.2679,N,07923.6719,W,1,7,2.0,14,M,,M,,*5F
05/30/2014	01:10:56.330	$GPGGA,011103,2552.2659,N,07923.6723,W,1,7,2.0,14,M,,M,,*55
05/30/2014	01:10:57.283	$GPGGA,011104,2552.2639,N,07923.6730,W,1,7,2.0,14,M,,M,,*56
05/30/2014	01:10:58.320	$GPGGA,011105,2552.2619,N,07923.6734,W,1,7,2.0,14,M,,M,,*51
05/30/2014	01:10:59.439	$GPGGA,011106,2552.2599,N,07923.6739,W,1,7,2.0,14,M,,M,,*54
05/30/2014	01:11:00.517	$GPGGA,011107,2552.2579,N,07923.6745,W,1,7,2.0,14,M,,M,,*50
05/30/2014	01:11:01.544	$GPGGA,011108,2552.2560,N,07923.6750,W,1,7,2.0,14,M,,M,,*53
05/30/2014	01:11:02.548	$GPGGA,011109,2552.2540,N,07923.6756,W,1,7,2.0,14,M,,M,,*56
05/30/2014	01:11:03.481	$GPGGA,011110,2552.2520,N,07923.6763,W,1,7,2.0,14,M,,M,,*5E
05/30/2014	01:11:04.610	$GPGGA,011111,2552.2500,N,07923.6767,W,1,7,2.0,14,M,,M,,*59
05/30/2014	01:11:05.678	$GPGGA,011112,2552.2480,N,07923.6772,W,1,7,2.0,14,M,,M,,*57
05/30/2014	01:11:06.714	$GPGGA,011113,2552.2460,N,07923.6778,W,1,7,2.0,14,M,,M,,*52
05/30/2014	01:11:07.720	$GPGGA,011114,2552.2440,N,07923.6783,W,1,7,2.0,14,M,,M,,*53
05/30/2014	01:11:08.757	$GPGGA,011115,2552.2420,N,07923.6788,W,1,7,2.0,14,M,,M,,*5F
05/30/2014	01:11:09.803	$GPGGA,011116,2552.2401,N,07923.6795,W,1,7,2.0,14,M,,M,,*53
05/30/2014	01:11:10.850	$GPGGA,011117,2552.2381,N,07923.6799,W,1,7,2.0,14,M,,M,,*51
05/30/2014	01:11:11.846	$GPGGA,011118,2552.2361,N,07923.6806,W,1,7,2.0,14,M,,M,,*59
05/30/2014	01:11:12.911	$GPGGA,011119,2552.2341,N,07923.6810,W,1,7,2.0,14,M,,M,,*5D
05/30/2014	01:11:13.937	$GPGGA,011120,2552.2322,N,07923.6815,W,1,7,2.0,14,M,,M,,*57
05/30/2014	01:11:14.973	$GPGGA,011121,2552.2303,N,07923.6821,W,1,7,2.0,14,M,,M,,*52
05/30/2014	01:11:15.990	$GPGGA,011122,2552.2283,N,07923.6826,W,1,7,2.0,14,M,,M,,*5F
05/30/2014	01:11:17.047	$GPGGA,011123,2552.2264,N,07923.6832,W,1,7,2.0,14,M,,M,,*52
05/30/2014	01:11:18.083	$GPGGA,011124,2552.2244,N,07923.6836,W,1,7,2.0,14,M,,M,,*53
05/30/2014	01:11:19.109	$GPGGA,011125,2552.2224,N,07923.6842,W,1,7,2.0,14,M,,M,,*57
05/30/2014	01:11:20.136	$GPGGA,011126,2552.2206,N,07923.6847,W,1,7,2.0,14,M,,M,,*51
05/30/2014	01:11:21.193	$GPGGA,011127,2552.2185,N,07923.6853,W,1,7,2.0,14,M,,M,,*5D
05/30/2014	01:11:22.208	$GPGGA,011128,2552.2166,N,07923.6857,W,1,7,2.0,14,M,,M,,*5B
05/30/2014	01:11:23.265	$GPGGA,011129,2552.2146,N,07923.6862,W,1,7,2.0,14,M,,M,,*5E
05/30/2014	01:11:24.270	$GPGGA,011130,2552.2126,N,07923.6868,W,1,7,2.0,14,M,,M,,*5A
05/30/2014	01:11:25.337	$GPGGA,011131,2552.2108,N,07923.6872,W,1,7,2.0,14,M,,M,,*5C
05/30/2014	01:11:26.353	$GPGGA,011132,2552.2087,N,07923.6878,W,1,7,2.0,14,M,,M,,*53
05/30/2014	01:11:27.400	$GPGGA,011133,2552.2068,N,07923.6882,W,1,7,2.0,14,M,,M,,*56
05/30/2014	01:11:28.405	$GPGGA,011134,2552.2048,N,07923.6889,W,1,7,2.0,14,M,,M,,*58
05/30/2014	01:11:29.431	$GPGGA,011135,2552.2029,N,07923.6893,W,1,7,2.0,14,M,,M,,*55
05/30/2014	01:11:30.499	$GPGGA,011136,2552.2010,N,07923.6900,W,1,7,2.0,14,M,,M,,*57
05/30/2014	01:11:31.503	$GPGGA,011137,2552.1991,N,07923.6905,W,1,7,2.0,14,M,,M,,*50
05/30/2014	01:11:32.539	$GPGGA,011138,2552.1972,N,07923.6911,W,1,7,2.0,14,M,,M,,*57
05/30/2014	01:11:33.576	$GPGGA,011139,2552.1953,N,07923.6915,W,1,7,2.0,14,M,,M,,*51
05/30/2014	01:11:34.623	$GPGGA,011140,2552.1935,N,07923.6922,W,1,7,2.0,14,M,,M,,*5B
05/30/2014	01:11:33.591	$GPGGA,011141,2552.1914,N,07923.6926,W,1,7,2.0,14,M,,M,,*5D
05/30/2014	01:11:34.503	$GPGGA,011142,2552.1895,N,07923.6931,W,1,7,2.0,14,M,,M,,*50
05/30/2014	01:11:35.550	$GPGGA,011143,2552.1875,N,07923.6938,W,1,7,2.0,14,M,,M,,*56
05/30/2014	01:11:36.576	$GPGGA,011144,2552.1856,N,07923.6944,W,1,7,2.0,14,M,,M,,*5B
05/30/2014	01:11:37.612	$GPGGA,011145,2552.1837,N,07923.6948,W,1,7,2.0,14,M,,M,,*51
05/30/2014	01:11:38.721	$GPGGA,011146,2552.1817,N,07923.6954,W,1,7,2.0,14,M,,M,,*5D
05/30/2014	01:11:39.675	$GPGGA,011147,2552.1799,N,07923.6960,W,1,7,2.0,14,M,,M,,*52
05/30/2014	01:11:40.712	$GPGGA,011148,2552.1779,N,07923.6965,W,1,7,2.0,14,M,,M,,*56
05/30/2014	01:11:41.851	$GPGGA,011149,2552.1760,N,07923.6972,W,1,7,2.0,14,M,,M,,*59
05/30/2014	01:11:42.856	$GPGGA,011150,2552.1740,N,07923.6977,W,1,7,2.0,14,M,,M,,*56
05/30/2014	01:11:43.924	$GPGGA,011151,2552.1720,N,07923.6983,W,1,7,2.0,14,M,,M,,*5A
05/30/2014	01:11:44.961	$GPGGA,011152,2552.1701,N,07923.6991,W,1,7,2.0,14,M,,M,,*59
05/30/2014	01:11:45.986	$GPGGA,011153,2552.1682,N,07923.6996,W,1,7,2.0,14,M,,M,,*55
05/30/2014	01:11:46.909	$GPGGA,011154,2552.1661,N,07923.7002,W,1,7,2.0,14,M,,M,,*5A
05/30/2014	01:11:48.048	$GPGGA,011155,2552.1642,N,07923.7009,W,1,7,2.0,14,M,,M,,*51
05/30/2014	01:11:49.095	$GPGGA,011156,2552.1624,N,07923.7016,W,1,7,2.0,14,M,,M,,*5C
