Software Version Number: 1	Data File Format Number: 1	Build Version Number: 1	Error Count Since VI Started: 0	Manufacturer: Raytheon	 Model Number: RayMarine 120	 S/N: 	 Cal Date: 	 Wind Direction Offset: 0.00	 Slope (M)1: 0.00	 Offset (B)1: 0.00	 Slope (M)2: 0.00	 Offset (B)2: 0.00	 Slope (M)3: 0.00	 Offset (B)3: 0.00	 Slope (M)4: 0.00	 Offset (B)4: 0.00	 Slope (M)5: 0.00	 Offset (B)5: 0.00	 Slope (M)6: 0.00	 Offset (B)6: 0.00
Computer Date	Computer Time	GGA String
06/08/2014	14:00:00.181	$GPGGA,140009,2449.8631,N,08030.3548,W,1,9,1.6,16,M,,M,,*53
06/08/2014	14:00:01.065	$GPGGA,140010,2449.8617,N,08030.3558,W,1,9,1.6,16,M,,M,,*5E
06/08/2014	14:00:02.206	$GPGGA,140011,2449.8604,N,08030.3567,W,1,9,1.6,16,M,,M,,*51
06/08/2014	14:00:03.181	$GPGGA,140012,2449.8591,N,08030.3577,W,1,9,1.6,16,M,,M,,*5C
06/08/2014	14:00:04.174	$GPGGA,140013,2449.8578,N,08030.3587,W,1,9,1.6,16,M,,M,,*55
06/08/2014	14:00:05.156	$GPGGA,140014,2449.8566,N,08030.3596,W,1,9,1.6,16,M,,M,,*5D
06/08/2014	14:00:06.169	$GPGGA,140015,2449.8552,N,08030.3605,W,1,9,1.6,16,M,,M,,*52
06/08/2014	14:00:07.192	$GPGGA,140016,2449.8539,N,08030.3616,W,1,9,1.6,16,M,,M,,*5E
06/08/2014	14:00:08.205	$GPGGA,140017,2449.8526,N,08030.3624,W,1,9,1.6,16,M,,M,,*50
06/08/2014	14:00:09.168	$GPGGA,140018,2449.8512,N,08030.3634,W,1,9,1.6,16,M,,M,,*59
06/08/2014	14:00:10.170	$GPGGA,140019,2449.8499,N,08030.3642,W,1,9,1.6,16,M,,M,,*5B
06/08/2014	14:00:11.183	$GPGGA,140020,2449.8485,N,08030.3652,W,1,9,1.6,16,M,,M,,*5D
06/08/2014	14:00:12.196	$GPGGA,140021,2449.8472,N,08030.3660,W,1,9,1.6,16,M,,M,,*55
06/08/2014	14:00:13.168	$GPGGA,140022,2449.8458,N,08030.3668,W,1,9,1.6,16,M,,M,,*56
06/08/2014	14:00:14.171	$GPGGA,140023,2449.8444,N,08030.3678,W,1,8,1.7,16,M,,M,,*5B
06/08/2014	14:00:15.183	$GPGGA,140024,2449.8430,N,08030.3685,W,1,8,1.7,16,M,,M,,*5D
06/08/2014	14:00:16.186	$GPGGA,140025,2449.8415,N,08030.3694,W,1,9,1.6,16,M,,M,,*5B
06/08/2014	14:00:17.169	$GPGGA,140026,2449.8400,N,08030.3703,W,1,9,1.6,16,M,,M,,*53
06/08/2014	14:00:18.172	$GPGGA,140027,2449.8385,N,08030.3711,W,1,9,1.6,16,M,,M,,*5B
06/08/2014	14:00:19.195	$GPGGA,140028,2449.8371,N,08030.3719,W,1,9,1.6,16,M,,M,,*57
06/08/2014	14:00:20.197	$GPGGA,140029,2449.8355,N,08030.3728,W,1,9,1.6,16,M,,M,,*52
06/08/2014	14:00:21.170	$GPGGA,140030,2449.8342,N,08030.3736,W,1,9,1.6,16,M,,M,,*53
06/08/2014	14:00:22.203	$GPGGA,140031,2449.8328,N,08030.3743,W,1,9,1.6,16,M,,M,,*5C
06/08/2014	14:00:23.196	$GPGGA,140032,2449.8314,N,08030.3750,W,1,9,1.7,16,M,,M,,*53
06/08/2014	14:00:24.179	$GPGGA,140033,2449.8299,N,08030.3757,W,1,8,1.7,16,M,,M,,*50
06/08/2014	14:00:25.183	$GPGGA,140034,2449.8285,N,08030.3764,W,1,8,1.6,16,M,,M,,*5B
06/08/2014	14:00:26.194	$GPGGA,140035,2449.8270,N,08030.3770,W,1,9,1.6,16,M,,M,,*54
06/08/2014	14:00:27.187	$GPGGA,140036,2449.8256,N,08030.3777,W,1,9,1.6,16,M,,M,,*54
06/08/2014	14:00:28.180	$GPGGA,140037,2449.8242,N,08030.3784,W,1,9,1.6,16,M,,M,,*5C
06/08/2014	14:00:29.173	$GPGGA,140038,2449.8228,N,08030.3790,W,1,9,1.6,16,M,,M,,*5A
06/08/2014	14:00:30.022	$GPGGA,140039,2449.8214,N,08030.3797,W,1,9,1.6,16,M,,M,,*53
06/08/2014	14:00:31.201	$GPGGA,140040,2449.8199,N,08030.3804,W,1,9,1.6,16,M,,M,,*5E
06/08/2014	14:00:32.174	$GPGGA,140041,2449.8185,N,08030.3809,W,1,9,1.6,16,M,,M,,*5F
06/08/2014	14:00:33.046	$GPGGA,140042,2449.8170,N,08030.3815,W,1,9,1.6,15,M,,M,,*58
06/08/2014	14:00:34.049	$GPGGA,140043,2449.8155,N,08030.3822,W,1,8,1.7,15,M,,M,,*5A
06/08/2014	14:00:35.023	$GPGGA,140044,2449.8140,N,08030.3827,W,1,8,1.7,15,M,,M,,*5C
06/08/2014	14:00:36.028	$GPGGA,140045,2449.8125,N,08030.3833,W,1,8,1.7,15,M,,M,,*5B
06/08/2014	14:00:37.019	$GPGGA,140046,2449.8111,N,08030.3838,W,1,8,1.6,15,M,,M,,*55
06/08/2014	14:00:38.020	$GPGGA,140047,2449.8096,N,08030.3845,W,1,9,1.6,15,M,,M,,*51
06/08/2014	14:00:39.048	$GPGGA,140048,2449.8082,N,08030.3851,W,1,9,1.6,15,M,,M,,*5E
06/08/2014	14:00:40.015	$GPGGA,140049,2449.8067,N,08030.3855,W,1,9,1.6,15,M,,M,,*50
06/08/2014	14:00:41.018	$GPGGA,140050,2449.8053,N,08030.3860,W,1,9,1.6,15,M,,M,,*59
06/08/2014	14:00:42.021	$GPGGA,140051,2449.8038,N,08030.3866,W,1,9,1.6,15,M,,M,,*53
06/08/2014	14:00:43.194	$GPGGA,140052,2449.8024,N,08030.3871,W,1,9,1.6,15,M,,M,,*5B
06/08/2014	14:00:44.041	$GPGGA,140053,2449.8009,N,08030.3876,W,1,9,1.6,15,M,,M,,*52
06/08/2014	14:00:45.119	$GPGGA,140054,2449.7995,N,08030.3880,W,1,9,1.6,15,M,,M,,*5F
06/08/2014	14:00:46.167	$GPGGA,140055,2449.7980,N,08030.3884,W,1,8,1.7,15,M,,M,,*5E
06/08/2014	14:00:47.046	$GPGGA,140056,2449.7966,N,08030.3888,W,1,8,1.7,15,M,,M,,*59
06/08/2014	14:00:48.159	$GPGGA,140057,2449.7950,N,08030.3892,W,1,8,1.6,15,M,,M,,*57
06/08/2014	14:00:49.029	$GPGGA,140058,2449.7935,N,08030.3896,W,1,8,1.6,15,M,,M,,*5F
06/08/2014	14:00:50.193	$GPGGA,140059,2449.7919,N,08030.3899,W,1,9,1.6,15,M,,M,,*5E
06/08/2014	14:00:51.059	$GPGGA,140100,2449.7903,N,08030.3902,W,1,9,1.9,15,M,,M,,*54
06/08/2014	14:00:52.029	$GPGGA,140101,2449.7888,N,08030.3905,W,1,8,1.9,15,M,,M,,*51
06/08/2014	14:00:53.041	$GPGGA,140102,2449.7873,N,08030.3909,W,1,8,1.9,15,M,,M,,*5A
06/08/2014	14:00:54.124	$GPGGA,140103,2449.7858,N,08030.3913,W,1,7,2.1,15,M,,M,,*5D
06/08/2014	14:00:55.217	$GPGGA,140104,2449.7841,N,08030.3914,W,1,7,1.6,15,M,,M,,*51
06/08/2014	14:00:56.195	$GPGGA,140105,2449.7826,N,08030.3916,W,1,9,1.6,15,M,,M,,*5D
06/08/2014	14:00:57.132	$GPGGA,140106,2449.7811,N,08030.3920,W,1,9,1.6,15,M,,M,,*5F
06/08/2014	14:00:58.135	$GPGGA,140107,2449.7794,N,08030.3923,W,1,8,1.9,15,M,,M,,*51
06/08/2014	14:00:59.138	$GPGGA,140108,2449.7778,N,08030.3925,W,1,8,1.9,15,M,,M,,*5A
06/08/2014	14:01:00.171	$GPGGA,140109,2449.7762,N,08030.3928,W,1,7,1.6,15,M,,M,,*5D
06/08/2014	14:01:01.194	$GPGGA,140110,2449.7747,N,08030.3930,W,1,7,1.6,15,M,,M,,*5B
06/08/2014	14:01:02.188	$GPGGA,140111,2449.7731,N,08030.3931,W,1,9,1.6,15,M,,M,,*54
06/08/2014	14:01:03.139	$GPGGA,140112,2449.7715,N,08030.3934,W,1,9,1.6,15,M,,M,,*54
06/08/2014	14:01:04.172	$GPGGA,140113,2449.7699,N,08030.3935,W,1,9,1.6,15,M,,M,,*51
06/08/2014	14:01:05.138	$GPGGA,140114,2449.7682,N,08030.3936,W,1,9,1.6,15,M,,M,,*5F
06/08/2014	14:01:06.176	$GPGGA,140115,2449.7666,N,08030.3938,W,1,9,1.7,15,M,,M,,*5B
06/08/2014	14:01:07.226	$GPGGA,140116,2449.7650,N,08030.3941,W,1,9,1.7,15,M,,M,,*53
06/08/2014	14:01:08.183	$GPGGA,140117,2449.7634,N,08030.3941,W,1,8,1.7,15,M,,M,,*51
06/08/2014	14:01:09.184	$GPGGA,140118,2449.7616,N,08030.3945,W,1,8,1.6,16,M,,M,,*58
06/08/2014	14:01:10.177	$GPGGA,140119,2449.7599,N,08030.3945,W,1,9,1.6,16,M,,M,,*5C
06/08/2014	14:01:11.139	$GPGGA,140120,2449.7583,N,08030.3946,W,1,9,1.6,16,M,,M,,*5E
06/08/2014	14:01:12.192	$GPGGA,140121,2449.7566,N,08030.3947,W,1,9,1.6,16,M,,M,,*55
06/08/2014	14:01:13.139	$GPGGA,140122,2449.7551,N,08030.3949,W,1,9,1.6,16,M,,M,,*5C
06/08/2014	14:01:14.197	$GPGGA,140123,2449.7536,N,08030.3949,W,1,8,1.7,16,M,,M,,*5C
06/08/2014	14:01:15.150	$GPGGA,140124,2449.7518,N,08030.3949,W,1,8,1.6,16,M,,M,,*56
06/08/2014	14:01:16.203	$GPGGA,140125,2449.7502,N,08030.3949,W,1,8,1.7,16,M,,M,,*5D
06/08/2014	14:01:17.205	$GPGGA,140126,2449.7486,N,08030.3949,W,1,8,1.6,16,M,,M,,*52
06/08/2014	14:01:18.158	$GPGGA,140127,2449.7471,N,08030.3949,W,1,9,1.6,17,M,,M,,*5B
06/08/2014	14:01:19.220	$GPGGA,140128,2449.7454,N,08030.3949,W,1,9,1.6,17,M,,M,,*53
06/08/2014	14:01:20.183	$GPGGA,140129,2449.7439,N,08030.3950,W,1,8,1.6,17,M,,M,,*50
06/08/2014	14:01:21.136	$GPGGA,140130,2449.7424,N,08030.3948,W,1,8,1.6,17,M,,M,,*5D
06/08/2014	14:01:22.217	$GPGGA,140131,2449.7406,N,08030.3947,W,1,9,1.6,17,M,,M,,*52
06/08/2014	14:01:23.221	$GPGGA,140132,2449.7389,N,08030.3945,W,1,9,1.6,17,M,,M,,*53
06/08/2014	14:01:24.142	$GPGGA,140133,2449.7374,N,08030.3943,W,1,8,1.7,17,M,,M,,*56
06/08/2014	14:01:25.205	$GPGGA,140134,2449.7359,N,08030.3942,W,1,8,1.6,17,M,,M,,*5E
06/08/2014	14:01:26.271	$GPGGA,140135,2449.7342,N,08030.3940,W,1,9,1.7,18,M,,M,,*58
06/08/2014	14:01:27.231	$GPGGA,140136,2449.7327,N,08030.3939,W,1,9,1.7,18,M,,M,,*56
06/08/2014	14:01:28.176	$GPGGA,140137,2449.7310,N,08030.3937,W,1,9,1.6,18,M,,M,,*5C
06/08/2014	14:01:29.145	$GPGGA,140138,2449.7294,N,08030.3935,W,1,9,1.6,18,M,,M,,*5C
06/08/2014	14:01:29.986	$GPGGA,140139,2449.7278,N,08030.3934,W,1,9,1.6,18,M,,M,,*5E
06/08/2014	14:01:31.099	$GPGGA,140140,2449.7262,N,08030.3931,W,1,9,1.6,18,M,,M,,*5E
06/08/2014	14:01:32.072	$GPGGA,140141,2449.7247,N,08030.3930,W,1,9,1.6,18,M,,M,,*59
06/08/2014	14:01:33.050	$GPGGA,140142,2449.7231,N,08030.3928,W,1,9,1.6,18,M,,M,,*52
06/08/2014	14:01:34.087	$GPGGA,140143,2449.7215,N,08030.3925,W,1,9,1.6,18,M,,M,,*58
06/08/2014	14:01:35.109	$GPGGA,140144,2449.7199,N,08030.3923,W,1,9,1.6,19,M,,M,,*5F
06/08/2014	14:01:36.123	$GPGGA,140145,2449.7183,N,08030.3921,W,1,9,1.6,19,M,,M,,*57
06/08/2014	14:01:37.117	$GPGGA,140146,2449.7166,N,08030.3918,W,1,9,1.6,19,M,,M,,*55
06/08/2014	14:01:38.087	$GPGGA,140147,2449.7150,N,08030.3915,W,1,9,1.6,19,M,,M,,*5C
06/08/2014	14:01:39.110	$GPGGA,140148,2449.7135,N,08030.3911,W,1,9,1.6,19,M,,M,,*54
06/08/2014	14:01:40.122	$GPGGA,140149,2449.7118,N,08030.3908,W,1,9,1.6,19,M,,M,,*52
06/08/2014	14:01:41.094	$GPGGA,140150,2449.7103,N,08030.3905,W,1,9,1.6,19,M,,M,,*5D
06/08/2014	14:01:42.153	$GPGGA,140151,2449.7085,N,08030.3901,W,1,9,1.6,19,M,,M,,*57
06/08/2014	14:01:43.109	$GPGGA,140152,2449.7070,N,08030.3898,W,1,9,1.6,19,M,,M,,*5F
06/08/2014	14:01:44.122	$GPGGA,140153,2449.7054,N,08030.3894,W,1,9,1.6,19,M,,M,,*54
06/08/2014	14:01:45.090	$GPGGA,140154,2449.7038,N,08030.3891,W,1,9,1.6,19,M,,M,,*5C
06/08/2014	14:01:46.127	$GPGGA,140155,2449.7023,N,08030.3887,W,1,9,1.6,19,M,,M,,*50
06/08/2014	14:01:47.163	$GPGGA,140156,2449.7006,N,08030.3882,W,1,9,1.6,19,M,,M,,*51
06/08/2014	14:01:48.132	$GPGGA,140157,2449.6991,N,08030.3879,W,1,9,1.6,19,M,,M,,*52
06/08/2014	14:01:49.135	$GPGGA,140158,2449.6974,N,08030.3874,W,1,9,1.6,19,M,,M,,*5B
06/08/2014	14:01:50.117	$GPGGA,140159,2449.6958,N,08030.3870,W,1,9,1.6,19,M,,M,,*50
06/08/2014	14:01:51.168	$GPGGA,140200,2449.6941,N,08030.3865,W,1,9,1.6,19,M,,M,,*53
06/08/2014	14:01:52.153	$GPGGA,140201,2449.6941,N,08030.3865,W,1,9,1.6,19,M,,M,,*52
06/08/2014	14:01:53.135	$GPGGA,140202,2449.6909,N,08030.3855,W,1,9,1.6,19,M,,M,,*5E
06/08/2014	14:01:54.138	$GPGGA,140203,2449.6893,N,08030.3851,W,1,9,1.6,19,M,,M,,*59
06/08/2014	14:01:55.130	$GPGGA,140204,2449.6877,N,08030.3846,W,1,9,1.6,19,M,,M,,*52
06/08/2014	14:01:56.118	$GPGGA,140205,2449.6861,N,08030.3840,W,1,9,1.6,19,M,,M,,*52
06/08/2014	14:01:57.135	$GPGGA,140206,2449.6846,N,08030.3835,W,1,9,1.6,19,M,,M,,*56
06/08/2014	14:01:58.127	$GPGGA,140207,2449.6846,N,08030.3835,W,1,9,1.6,19,M,,M,,*57
06/08/2014	14:01:59.115	$GPGGA,140208,2449.6829,N,08030.3830,W,1,9,1.6,19,M,,M,,*54
06/08/2014	14:02:00.113	$GPGGA,140209,2449.6797,N,08030.3819,W,1,9,1.6,19,M,,M,,*54
06/08/2014	14:02:01.126	$GPGGA,140210,2449.6781,N,08030.3813,W,1,9,1.6,19,M,,M,,*51
06/08/2014	14:02:02.138	$GPGGA,140211,2449.6781,N,08030.3813,W,1,9,1.6,19,M,,M,,*50
06/08/2014	14:02:03.134	$GPGGA,140212,2449.6764,N,08030.3807,W,1,9,1.6,18,M,,M,,*5C
06/08/2014	14:02:04.127	$GPGGA,140213,2449.6734,N,08030.3795,W,1,9,1.6,18,M,,M,,*5C
06/08/2014	14:02:05.135	$GPGGA,140214,2449.6717,N,08030.3789,W,1,9,1.6,18,M,,M,,*57
06/08/2014	14:02:06.115	$GPGGA,140215,2449.6702,N,08030.3783,W,1,9,1.6,18,M,,M,,*58
06/08/2014	14:02:07.141	$GPGGA,140216,2449.6686,N,08030.3776,W,1,9,1.6,18,M,,M,,*5C
06/08/2014	14:02:08.129	$GPGGA,140217,2449.6670,N,08030.3769,W,1,9,1.6,18,M,,M,,*5A
06/08/2014	14:02:09.145	$GPGGA,140218,2449.6655,N,08030.3763,W,1,9,1.9,18,M,,M,,*57
06/08/2014	14:02:10.113	$GPGGA,140219,2449.6639,N,08030.3753,W,1,8,1.6,18,M,,M,,*51
06/08/2014	14:02:11.161	$GPGGA,140220,2449.6623,N,08030.3747,W,1,8,1.9,18,M,,M,,*5A
06/08/2014	14:02:12.230	$GPGGA,140221,2449.6608,N,08030.3741,W,1,8,1.9,18,M,,M,,*54
06/08/2014	14:02:13.127	$GPGGA,140222,2449.6592,N,08030.3732,W,1,8,1.6,17,M,,M,,*53
06/08/2014	14:02:14.134	$GPGGA,140223,2449.6576,N,08030.3724,W,1,9,1.6,17,M,,M,,*5E
06/08/2014	14:02:15.124	$GPGGA,140224,2449.6561,N,08030.3716,W,1,9,1.6,17,M,,M,,*5E
06/08/2014	14:02:16.147	$GPGGA,140225,2449.6546,N,08030.3707,W,1,9,1.6,17,M,,M,,*5A
06/08/2014	14:02:17.206	$GPGGA,140226,2449.6530,N,08030.3699,W,1,9,1.6,17,M,,M,,*5E
06/08/2014	14:02:18.108	$GPGGA,140227,2449.6515,N,08030.3692,W,1,9,1.6,17,M,,M,,*53
06/08/2014	14:02:19.149	$GPGGA,140228,2449.6515,N,08030.3692,W,1,9,1.6,17,M,,M,,*5C
06/08/2014	14:02:20.123	$GPGGA,140229,2449.6485,N,08030.3677,W,1,9,1.6,17,M,,M,,*5E
06/08/2014	14:02:21.226	$GPGGA,140230,2449.6469,N,08030.3670,W,1,9,1.8,17,M,,M,,*5D
06/08/2014	14:02:22.118	$GPGGA,140231,2449.6454,N,08030.3663,W,1,9,1.6,17,M,,M,,*5E
06/08/2014	14:02:23.221	$GPGGA,140232,2449.6439,N,08030.3656,W,1,9,1.6,17,M,,M,,*50
06/08/2014	14:02:24.234	$GPGGA,140233,2449.6424,N,08030.3648,W,1,9,1.6,17,M,,M,,*52
06/08/2014	14:02:25.216	$GPGGA,140234,2449.6409,N,08030.3641,W,1,9,1.6,17,M,,M,,*53
06/08/2014	14:02:26.229	$GPGGA,140235,2449.6395,N,08030.3633,W,1,9,1.6,17,M,,M,,*55
06/08/2014	14:02:27.232	$GPGGA,140236,2449.6380,N,08030.3625,W,1,9,1.6,17,M,,M,,*55
06/08/2014	14:02:28.224	$GPGGA,140237,2449.6366,N,08030.3616,W,1,9,1.6,17,M,,M,,*5C
06/08/2014	14:02:29.217	$GPGGA,140238,2449.6351,N,08030.3608,W,1,9,1.6,17,M,,M,,*58
06/08/2014	14:02:30.075	$GPGGA,140239,2449.6337,N,08030.3600,W,1,9,1.6,17,M,,M,,*51
06/08/2014	14:02:31.121	$GPGGA,140240,2449.6321,N,08030.3591,W,1,9,1.6,17,M,,M,,*53
06/08/2014	14:02:32.091	$GPGGA,140241,2449.6308,N,08030.3581,W,1,9,1.6,17,M,,M,,*58
06/08/2014	14:02:33.062	$GPGGA,140242,2449.6292,N,08030.3572,W,1,9,1.6,17,M,,M,,*55
06/08/2014	14:02:34.075	$GPGGA,140243,2449.6279,N,08030.3562,W,1,9,1.6,17,M,,M,,*50
06/08/2014	14:02:35.077	$GPGGA,140244,2449.6263,N,08030.3552,W,1,9,1.6,17,M,,M,,*5F
06/08/2014	14:02:36.121	$GPGGA,140245,2449.6250,N,08030.3542,W,1,9,1.6,17,M,,M,,*5F
06/08/2014	14:02:37.073	$GPGGA,140246,2449.6234,N,08030.3532,W,1,9,1.6,17,M,,M,,*59
06/08/2014	14:02:38.085	$GPGGA,140247,2449.6221,N,08030.3521,W,1,9,1.6,17,M,,M,,*5E
06/08/2014	14:02:39.088	$GPGGA,140248,2449.6207,N,08030.3511,W,1,9,1.6,17,M,,M,,*56
06/08/2014	14:02:40.061	$GPGGA,140249,2449.6191,N,08030.3501,W,1,9,1.6,17,M,,M,,*5A
06/08/2014	14:02:41.073	$GPGGA,140250,2449.6178,N,08030.3490,W,1,9,1.6,17,M,,M,,*5C
06/08/2014	14:02:42.065	$GPGGA,140251,2449.6163,N,08030.3479,W,1,9,1.6,16,M,,M,,*51
06/08/2014	14:02:43.088	$GPGGA,140252,2449.6149,N,08030.3469,W,1,9,1.6,16,M,,M,,*5B
06/08/2014	14:02:44.101	$GPGGA,140253,2449.6134,N,08030.3458,W,1,9,1.6,16,M,,M,,*52
06/08/2014	14:02:45.061	$GPGGA,140254,2449.6120,N,08030.3447,W,1,9,1.6,16,M,,M,,*5E
06/08/2014	14:02:46.106	$GPGGA,140255,2449.6106,N,08030.3436,W,1,9,1.6,16,M,,M,,*5D
06/08/2014	14:02:47.089	$GPGGA,140256,2449.6092,N,08030.3425,W,1,9,1.6,16,M,,M,,*50
06/08/2014	14:02:48.086	$GPGGA,140257,2449.6078,N,08030.3414,W,1,9,1.6,16,M,,M,,*57
06/08/2014	14:02:49.093	$GPGGA,140258,2449.6064,N,08030.3402,W,1,9,1.6,16,M,,M,,*52
06/08/2014	14:02:50.085	$GPGGA,140259,2449.6050,N,08030.3390,W,1,9,1.6,16,M,,M,,*58
06/08/2014	14:02:51.098	$GPGGA,140300,2449.6037,N,08030.3378,W,1,9,1.6,16,M,,M,,*52
06/08/2014	14:02:52.111	$GPGGA,140301,2449.6023,N,08030.3366,W,1,9,1.6,16,M,,M,,*59
06/08/2014	14:02:53.077	$GPGGA,140302,2449.6010,N,08030.3354,W,1,9,1.6,16,M,,M,,*5B
06/08/2014	14:02:54.093	$GPGGA,140303,2449.5997,N,08030.3342,W,1,9,1.6,16,M,,M,,*58
06/08/2014	14:02:55.101	$GPGGA,140304,2449.5983,N,08030.3329,W,1,9,1.6,16,M,,M,,*57
06/08/2014	14:02:56.182	$GPGGA,140305,2449.5969,N,08030.3317,W,1,9,1.6,16,M,,M,,*5F
06/08/2014	14:02:57.091	$GPGGA,140306,2449.5956,N,08030.3305,W,1,9,1.6,16,M,,M,,*53
06/08/2014	14:02:58.115	$GPGGA,140307,2449.5943,N,08030.3292,W,1,9,1.6,15,M,,M,,*5A
06/08/2014	14:02:59.083	$GPGGA,140308,2449.5928,N,08030.3280,W,1,9,1.6,15,M,,M,,*5B
06/08/2014	14:03:00.086	$GPGGA,140309,2449.5915,N,08030.3267,W,1,8,1.7,15,M,,M,,*5D
06/08/2014	14:03:01.074	$GPGGA,140310,2449.5901,N,08030.3255,W,1,8,1.7,15,M,,M,,*51
06/08/2014	14:03:02.216	$GPGGA,140311,2449.5889,N,08030.3242,W,1,9,1.6,15,M,,M,,*57
06/08/2014	14:03:03.120	$GPGGA,140312,2449.5874,N,08030.3229,W,1,9,1.7,15,M,,M,,*5A
06/08/2014	14:03:04.108	$GPGGA,140313,2449.5861,N,08030.3216,W,1,8,1.7,15,M,,M,,*52
06/08/2014	14:03:05.074	$GPGGA,140314,2449.5849,N,08030.3203,W,1,8,1.7,15,M,,M,,*5B
06/08/2014	14:03:06.067	$GPGGA,140315,2449.5835,N,08030.3190,W,1,8,1.7,15,M,,M,,*58
06/08/2014	14:03:07.128	$GPGGA,140316,2449.5822,N,08030.3176,W,1,8,1.7,15,M,,M,,*55
06/08/2014	14:03:08.091	$GPGGA,140317,2449.5810,N,08030.3162,W,1,8,1.7,15,M,,M,,*50
06/08/2014	14:03:09.084	$GPGGA,140318,2449.5797,N,08030.3148,W,1,8,1.6,15,M,,M,,*56
06/08/2014	14:03:10.206	$GPGGA,140319,2449.5784,N,08030.3135,W,1,9,1.6,15,M,,M,,*5E
06/08/2014	14:03:12.608	$GPGGA,140321,2449.5759,N,08030.3108,W,1,9,1.6,15,M,,M,,*5B
06/08/2014	14:03:13.303	$GPGGA,140322,2449.5748,N,08030.3093,W,1,9,1.6,15,M,,M,,*5B
06/08/2014	14:03:14.253	$GPGGA,140323,2449.5735,N,08030.3079,W,1,8,1.8,15,M,,M,,*5B
06/08/2014	14:03:15.450	$GPGGA,140324,2449.5723,N,08030.3064,W,1,8,1.6,15,M,,M,,*59
06/08/2014	14:03:16.486	$GPGGA,140325,2449.5712,N,08030.3049,W,1,9,1.6,15,M,,M,,*54
06/08/2014	14:03:17.544	$GPGGA,140326,2449.5698,N,08030.3034,W,1,9,1.7,15,M,,M,,*5F
06/08/2014	14:03:18.623	$GPGGA,140327,2449.5686,N,08030.3020,W,1,9,1.6,15,M,,M,,*55
06/08/2014	14:03:19.702	$GPGGA,140328,2449.5674,N,08030.3006,W,1,9,1.6,15,M,,M,,*53
06/08/2014	14:03:20.740	$GPGGA,140329,2449.5662,N,08030.2995,W,1,8,1.7,15,M,,M,,*57
06/08/2014	14:03:21.807	$GPGGA,140330,2449.5649,N,08030.2980,W,1,8,1.6,15,M,,M,,*53
06/08/2014	14:03:22.876	$GPGGA,140331,2449.5637,N,08030.2967,W,1,8,1.7,14,M,,M,,*52
06/08/2014	14:03:23.966	$GPGGA,140332,2449.5625,N,08030.2953,W,1,8,1.7,14,M,,M,,*55
06/08/2014	14:03:25.045	$GPGGA,140333,2449.5612,N,08030.2939,W,1,9,1.6,14,M,,M,,*5C
06/08/2014	14:03:26.073	$GPGGA,140334,2449.5600,N,08030.2926,W,1,9,1.6,14,M,,M,,*56
06/08/2014	14:03:27.170	$GPGGA,140335,2449.5589,N,08030.2911,W,1,9,1.6,14,M,,M,,*51
06/08/2014	14:03:28.217	$GPGGA,140336,2449.5575,N,08030.2897,W,1,9,1.7,14,M,,M,,*5F
06/08/2014	14:03:29.297	$GPGGA,140337,2449.5564,N,08030.2884,W,1,9,1.6,14,M,,M,,*5D
06/08/2014	14:03:30.344	$GPGGA,140338,2449.5550,N,08030.2869,W,1,9,1.6,14,M,,M,,*56
06/08/2014	14:03:30.053	$GPGGA,140339,2449.5538,N,08030.2854,W,1,9,1.6,14,M,,M,,*57
06/08/2014	14:03:31.142	$GPGGA,140340,2449.5526,N,08030.2840,W,1,9,1.8,14,M,,M,,*5D
06/08/2014	14:03:32.221	$GPGGA,140341,2449.5513,N,08030.2826,W,1,9,1.6,14,M,,M,,*54
06/08/2014	14:03:33.247	$GPGGA,140342,2449.5501,N,08030.2811,W,1,9,1.6,14,M,,M,,*50
06/08/2014	14:03:34.347	$GPGGA,140343,2449.5489,N,08030.2796,W,1,9,1.6,14,M,,M,,*50
06/08/2014	14:03:35.394	$GPGGA,140344,2449.5477,N,08030.2782,W,1,9,1.6,14,M,,M,,*53
06/08/2014	14:03:36.484	$GPGGA,140345,2449.5466,N,08030.2768,W,1,9,1.6,14,M,,M,,*56
06/08/2014	14:03:37.510	$GPGGA,140346,2449.5452,N,08030.2754,W,1,9,1.7,14,M,,M,,*5C
06/08/2014	14:03:38.570	$GPGGA,140347,2449.5441,N,08030.2740,W,1,7,1.7,14,M,,M,,*54
06/08/2014	14:03:39.668	$GPGGA,140348,2449.5427,N,08030.2726,W,1,7,1.8,14,M,,M,,*54
06/08/2014	14:03:40.705	$GPGGA,140349,2449.5415,N,08030.2713,W,1,9,1.6,14,M,,M,,*52
06/08/2014	14:03:41.777	$GPGGA,140350,2449.5402,N,08030.2700,W,1,9,1.8,14,M,,M,,*50
06/08/2014	14:03:42.884	$GPGGA,140351,2449.5390,N,08030.2686,W,1,8,1.7,14,M,,M,,*5C
06/08/2014	14:03:43.931	$GPGGA,140352,2449.5378,N,08030.2674,W,1,8,1.7,14,M,,M,,*54
06/08/2014	14:03:44.993	$GPGGA,140353,2449.5366,N,08030.2659,W,1,8,1.7,14,M,,M,,*55
06/08/2014	14:03:46.144	$GPGGA,140354,2449.5354,N,08030.2646,W,1,8,1.6,14,M,,M,,*5C
06/08/2014	14:03:47.142	$GPGGA,140355,2449.5342,N,08030.2633,W,1,9,1.6,14,M,,M,,*59
06/08/2014	14:03:48.205	$GPGGA,140356,2449.5327,N,08030.2620,W,1,9,1.7,14,M,,M,,*5A
06/08/2014	14:03:49.263	$GPGGA,140357,2449.5315,N,08030.2606,W,1,8,1.7,14,M,,M,,*5F
06/08/2014	14:03:50.320	$GPGGA,140358,2449.5303,N,08030.2592,W,1,8,1.6,14,M,,M,,*58
06/08/2014	14:03:51.402	$GPGGA,140359,2449.5291,N,08030.2578,W,1,8,1.7,14,M,,M,,*56
06/08/2014	14:03:52.468	$GPGGA,140400,2449.5280,N,08030.2563,W,1,8,1.6,14,M,,M,,*56
06/08/2014	14:03:53.537	$GPGGA,140401,2449.5267,N,08030.2550,W,1,9,1.6,14,M,,M,,*5F
06/08/2014	14:03:54.562	$GPGGA,140402,2449.5254,N,08030.2536,W,1,9,1.6,14,M,,M,,*5C
06/08/2014	14:03:55.641	$GPGGA,140403,2449.5242,N,08030.2523,W,1,9,1.6,14,M,,M,,*5E
06/08/2014	14:03:56.722	$GPGGA,140404,2449.5229,N,08030.2510,W,1,9,1.6,14,M,,M,,*54
06/08/2014	14:03:57.768	$GPGGA,140405,2449.5217,N,08030.2497,W,1,9,1.6,14,M,,M,,*56
06/08/2014	14:03:58.943	$GPGGA,140406,2449.5204,N,08030.2483,W,1,9,1.7,14,M,,M,,*53
06/08/2014	14:03:59.915	$GPGGA,140407,2449.5192,N,08030.2469,W,1,8,1.7,14,M,,M,,*5B
06/08/2014	14:04:00.973	$GPGGA,140408,2449.5181,N,08030.2455,W,1,8,1.6,14,M,,M,,*58
06/08/2014	14:04:02.169	$GPGGA,140409,2449.5167,N,08030.2441,W,1,8,1.7,14,M,,M,,*55
06/08/2014	14:04:03.205	$GPGGA,140410,2449.5155,N,08030.2428,W,1,8,1.6,14,M,,M,,*52
06/08/2014	14:04:04.317	$GPGGA,140411,2449.5143,N,08030.2414,W,1,8,1.7,14,M,,M,,*5A
06/08/2014	14:04:05.364	$GPGGA,140412,2449.5130,N,08030.2400,W,1,8,1.7,14,M,,M,,*58
06/08/2014	14:04:06.411	$GPGGA,140413,2449.5117,N,08030.2386,W,1,8,1.7,14,M,,M,,*55
06/08/2014	14:04:07.479	$GPGGA,140414,2449.5105,N,08030.2372,W,1,8,1.7,14,M,,M,,*5A
06/08/2014	14:04:08.569	$GPGGA,140415,2449.5092,N,08030.2358,W,1,8,1.7,14,M,,M,,*5C
06/08/2014	14:04:09.616	$GPGGA,140416,2449.5080,N,08030.2344,W,1,8,1.7,14,M,,M,,*51
06/08/2014	14:04:10.706	$GPGGA,140417,2449.5067,N,08030.2330,W,1,8,1.7,14,M,,M,,*5A
06/08/2014	14:04:11.743	$GPGGA,140418,2449.5054,N,08030.2316,W,1,8,1.7,14,M,,M,,*51
06/08/2014	14:04:12.822	$GPGGA,140419,2449.5042,N,08030.2303,W,1,8,1.7,14,M,,M,,*53
06/08/2014	14:04:13.890	$GPGGA,140420,2449.5029,N,08030.2289,W,1,8,1.7,14,M,,M,,*57
06/08/2014	14:04:14.959	$GPGGA,140421,2449.5016,N,08030.2275,W,1,8,1.7,14,M,,M,,*59
06/08/2014	14:04:15.995	$GPGGA,140422,2449.5004,N,08030.2261,W,1,8,1.7,14,M,,M,,*5C
06/08/2014	14:04:17.076	$GPGGA,140423,2449.4991,N,08030.2248,W,1,8,1.7,14,M,,M,,*52
06/08/2014	14:04:18.154	$GPGGA,140424,2449.4978,N,08030.2234,W,1,8,1.7,14,M,,M,,*59
06/08/2014	14:04:19.233	$GPGGA,140425,2449.4965,N,08030.2220,W,1,8,1.7,14,M,,M,,*51
06/08/2014	14:04:20.268	$GPGGA,140426,2449.4953,N,08030.2207,W,1,8,1.7,14,M,,M,,*52
06/08/2014	14:04:21.347	$GPGGA,140427,2449.4939,N,08030.2193,W,1,8,1.7,14,M,,M,,*51
06/08/2014	14:04:22.416	$GPGGA,140428,2449.4928,N,08030.2179,W,1,8,1.7,14,M,,M,,*5A
06/08/2014	14:04:23.484	$GPGGA,140429,2449.4914,N,08030.2166,W,1,8,1.7,13,M,,M,,*5D
06/08/2014	14:04:24.542	$GPGGA,140430,2449.4902,N,08030.2153,W,1,8,1.7,13,M,,M,,*54
06/08/2014	14:04:25.632	$GPGGA,140431,2449.4888,N,08030.2140,W,1,8,1.7,13,M,,M,,*54
06/08/2014	14:04:26.679	$GPGGA,140432,2449.4874,N,08030.2128,W,1,8,1.6,14,M,,M,,*5C
06/08/2014	14:04:27.748	$GPGGA,140433,2449.4860,N,08030.2115,W,1,9,1.6,14,M,,M,,*57
06/08/2014	14:04:28.795	$GPGGA,140434,2449.4846,N,08030.2101,W,1,9,1.6,14,M,,M,,*51
06/08/2014	14:04:29.981	$GPGGA,140435,2449.4832,N,08030.2088,W,1,9,1.6,14,M,,M,,*53
06/08/2014	14:04:30.964	$GPGGA,140436,2449.4819,N,08030.2075,W,1,9,1.6,14,M,,M,,*5B
06/08/2014	14:04:32.171	$GPGGA,140437,2449.4806,N,08030.2062,W,1,9,1.6,14,M,,M,,*52
06/08/2014	14:04:33.186	$GPGGA,140438,2449.4794,N,08030.2049,W,1,9,1.6,14,M,,M,,*50
06/08/2014	14:04:30.009	$GPGGA,140439,2449.4780,N,08030.2036,W,1,9,1.6,14,M,,M,,*5C
06/08/2014	14:04:31.226	$GPGGA,140440,2449.4766,N,08030.2023,W,1,9,1.6,14,M,,M,,*5E
06/08/2014	14:04:32.146	$GPGGA,140441,2449.4753,N,08030.2010,W,1,9,1.6,14,M,,M,,*59
06/08/2014	14:04:33.342	$GPGGA,140442,2449.4740,N,08030.1997,W,1,9,1.6,14,M,,M,,*5D
06/08/2014	14:04:34.314	$GPGGA,140443,2449.4727,N,08030.1984,W,1,9,1.6,14,M,,M,,*5F
06/08/2014	14:04:35.360	$GPGGA,140444,2449.4713,N,08030.1971,W,1,9,1.6,14,M,,M,,*55
06/08/2014	14:04:36.461	$GPGGA,140445,2449.4700,N,08030.1958,W,1,9,1.6,14,M,,M,,*5D
06/08/2014	14:04:37.487	$GPGGA,140446,2449.4687,N,08030.1945,W,1,9,1.6,14,M,,M,,*5C
06/08/2014	14:04:38.544	$GPGGA,140447,2449.4673,N,08030.1932,W,1,9,1.6,14,M,,M,,*56
06/08/2014	14:04:39.753	$GPGGA,140448,2449.4659,N,08030.1919,W,1,9,1.6,14,M,,M,,*58
06/08/2014	14:04:40.692	$GPGGA,140449,2449.4646,N,08030.1906,W,1,9,1.6,14,M,,M,,*59
06/08/2014	14:04:41.750	$GPGGA,140450,2449.4633,N,08030.1893,W,1,9,1.6,14,M,,M,,*5E
06/08/2014	14:04:42.915	$GPGGA,140451,2449.4621,N,08030.1881,W,1,9,1.6,14,M,,M,,*5F
06/08/2014	14:04:43.898	$GPGGA,140452,2449.4606,N,08030.1868,W,1,9,1.6,14,M,,M,,*5E
06/08/2014	14:04:45.062	$GPGGA,140453,2449.4593,N,08030.1855,W,1,9,1.6,14,M,,M,,*5E
06/08/2014	14:04:46.131	$GPGGA,140454,2449.4579,N,08030.1843,W,1,9,1.6,14,M,,M,,*5A
06/08/2014	14:04:47.199	$GPGGA,140455,2449.4565,N,08030.1830,W,1,9,1.6,14,M,,M,,*52
06/08/2014	14:04:48.278	$GPGGA,140456,2449.4552,N,08030.1817,W,1,9,1.6,14,M,,M,,*50
06/08/2014	14:04:49.368	$GPGGA,140457,2449.4538,N,08030.1805,W,1,9,1.6,14,M,,M,,*5E
06/08/2014	14:04:50.394	$GPGGA,140458,2449.4524,N,08030.1792,W,1,9,1.6,14,M,,M,,*5D
06/08/2014	14:04:51.463	$GPGGA,140459,2449.4510,N,08030.1779,W,1,9,1.6,14,M,,M,,*5E
06/08/2014	14:04:52.543	$GPGGA,140500,2449.4498,N,08030.1767,W,1,9,1.6,14,M,,M,,*5D
06/08/2014	14:04:53.588	$GPGGA,140501,2449.4483,N,08030.1754,W,1,9,1.6,14,M,,M,,*56
06/08/2014	14:04:54.646	$GPGGA,140502,2449.4469,N,08030.1742,W,1,9,1.6,14,M,,M,,*56
06/08/2014	14:04:55.714	$GPGGA,140503,2449.4456,N,08030.1729,W,1,9,1.6,14,M,,M,,*56
06/08/2014	14:04:56.793	$GPGGA,140504,2449.4442,N,08030.1717,W,1,9,1.6,14,M,,M,,*59
06/08/2014	14:04:57.872	$GPGGA,140505,2449.4429,N,08030.1704,W,1,9,1.6,14,M,,M,,*57
06/08/2014	14:04:58.920	$GPGGA,140506,2449.4416,N,08030.1692,W,1,9,1.6,14,M,,M,,*56
06/08/2014	14:04:59.999	$GPGGA,140507,2449.4402,N,08030.1679,W,1,9,1.6,14,M,,M,,*57
06/08/2014	14:05:01.057	$GPGGA,140508,2449.4388,N,08030.1667,W,1,9,1.6,14,M,,M,,*52
06/08/2014	14:05:02.114	$GPGGA,140509,2449.4375,N,08030.1654,W,1,9,1.6,14,M,,M,,*51
06/08/2014	14:05:03.194	$GPGGA,140510,2449.4361,N,08030.1642,W,1,9,1.6,14,M,,M,,*5B
06/08/2014	14:05:04.294	$GPGGA,140511,2449.4347,N,08030.1629,W,1,9,1.6,14,M,,M,,*53
06/08/2014	14:05:05.331	$GPGGA,140512,2449.4334,N,08030.1616,W,1,9,1.6,14,M,,M,,*58
06/08/2014	14:05:06.399	$GPGGA,140513,2449.4321,N,08030.1604,W,1,9,1.6,14,M,,M,,*5E
06/08/2014	14:05:07.457	$GPGGA,140514,2449.4307,N,08030.1591,W,1,9,1.6,14,M,,M,,*52
06/08/2014	14:05:08.504	$GPGGA,140515,2449.4294,N,08030.1579,W,1,9,1.6,14,M,,M,,*5E
06/08/2014	14:05:09.605	$GPGGA,140516,2449.4281,N,08030.1567,W,1,9,1.6,13,M,,M,,*51
06/08/2014	14:05:10.641	$GPGGA,140517,2449.4267,N,08030.1554,W,1,9,1.6,13,M,,M,,*58
06/08/2014	14:05:11.720	$GPGGA,140518,2449.4253,N,08030.1542,W,1,9,1.6,13,M,,M,,*57
06/08/2014	14:05:12.767	$GPGGA,140519,2449.4239,N,08030.1529,W,1,9,1.6,13,M,,M,,*57
06/08/2014	14:05:13.867	$GPGGA,140520,2449.4225,N,08030.1517,W,1,9,1.6,13,M,,M,,*5D
06/08/2014	14:05:14.903	$GPGGA,140521,2449.4212,N,08030.1505,W,1,9,1.6,13,M,,M,,*5B
06/08/2014	14:05:15.993	$GPGGA,140522,2449.4199,N,08030.1492,W,1,9,1.7,13,M,,M,,*56
06/08/2014	14:05:17.069	$GPGGA,140523,2449.4186,N,08030.1479,W,1,9,1.6,13,M,,M,,*5D
06/08/2014	14:05:18.135	$GPGGA,140524,2449.4173,N,08030.1467,W,1,9,1.6,13,M,,M,,*5F
06/08/2014	14:05:19.220	$GPGGA,140525,2449.4160,N,08030.1454,W,1,9,1.6,13,M,,M,,*5C
06/08/2014	14:05:20.267	$GPGGA,140526,2449.4147,N,08030.1441,W,1,9,1.6,13,M,,M,,*5E
06/08/2014	14:05:21.314	$GPGGA,140527,2449.4134,N,08030.1429,W,1,9,1.6,13,M,,M,,*55
06/08/2014	14:05:22.393	$GPGGA,140528,2449.4122,N,08030.1416,W,1,9,1.6,13,M,,M,,*51
06/08/2014	14:05:23.462	$GPGGA,140529,2449.4108,N,08030.1404,W,1,9,1.6,13,M,,M,,*5B
06/08/2014	14:05:24.503	$GPGGA,140530,2449.4093,N,08030.1391,W,1,9,1.6,13,M,,M,,*5B
06/08/2014	14:05:25.567	$GPGGA,140531,2449.4080,N,08030.1379,W,1,9,1.6,13,M,,M,,*5E
06/08/2014	14:05:26.785	$GPGGA,140532,2449.4066,N,08030.1366,W,1,9,1.6,12,M,,M,,*5A
06/08/2014	14:05:27.832	$GPGGA,140533,2449.4052,N,08030.1354,W,1,9,1.6,12,M,,M,,*5D
06/08/2014	14:05:28.785	$GPGGA,140534,2449.4039,N,08030.1342,W,1,9,1.6,12,M,,M,,*50
06/08/2014	14:05:29.965	$GPGGA,140535,2449.4025,N,08030.1329,W,1,9,1.6,12,M,,M,,*51
06/08/2014	14:05:30.908	$GPGGA,140536,2449.4011,N,08030.1317,W,1,9,1.6,12,M,,M,,*58
06/08/2014	14:05:32.110	$GPGGA,140537,2449.3997,N,08030.1303,W,1,9,1.6,12,M,,M,,*5C
06/08/2014	14:05:33.142	$GPGGA,140538,2449.3983,N,08030.1291,W,1,9,1.6,12,M,,M,,*5C
06/08/2014	14:05:30.113	$GPGGA,140539,2449.3970,N,08030.1279,W,1,9,1.6,12,M,,M,,*57
06/08/2014	14:05:31.183	$GPGGA,140540,2449.3956,N,08030.1266,W,1,9,1.6,12,M,,M,,*53
06/08/2014	14:05:32.271	$GPGGA,140541,2449.3942,N,08030.1254,W,1,9,1.6,12,M,,M,,*56
06/08/2014	14:05:33.297	$GPGGA,140542,2449.3928,N,08030.1242,W,1,9,1.6,12,M,,M,,*5E
06/08/2014	14:05:34.387	$GPGGA,140543,2449.3915,N,08030.1229,W,1,9,1.6,12,M,,M,,*5C
06/08/2014	14:05:35.457	$GPGGA,140544,2449.3902,N,08030.1217,W,1,9,1.6,12,M,,M,,*50
06/08/2014	14:05:36.513	$GPGGA,140545,2449.3886,N,08030.1204,W,1,9,1.6,12,M,,M,,*5E
06/08/2014	14:05:37.593	$GPGGA,140546,2449.3873,N,08030.1192,W,1,9,1.6,12,M,,M,,*5B
06/08/2014	14:05:38.629	$GPGGA,140547,2449.3859,N,08030.1179,W,1,9,1.6,12,M,,M,,*57
06/08/2014	14:05:39.729	$GPGGA,140548,2449.3845,N,08030.1166,W,1,9,1.9,12,M,,M,,*54
06/08/2014	14:05:40.787	$GPGGA,140549,2449.3831,N,08030.1155,W,1,8,1.6,12,M,,M,,*58
06/08/2014	14:05:41.834	$GPGGA,140550,2449.3819,N,08030.1142,W,1,8,1.6,12,M,,M,,*5C
06/08/2014	14:05:42.949	$GPGGA,140551,2449.3804,N,08030.1130,W,1,9,1.6,12,M,,M,,*55
06/08/2014	14:05:43.982	$GPGGA,140552,2449.3791,N,08030.1116,W,1,9,1.6,12,M,,M,,*51
06/08/2014	14:05:45.050	$GPGGA,140553,2449.3777,N,08030.1103,W,1,9,1.6,12,M,,M,,*5C
06/08/2014	14:05:46.086	$GPGGA,140554,2449.3764,N,08030.1090,W,1,9,1.6,12,M,,M,,*52
06/08/2014	14:05:47.165	$GPGGA,140555,2449.3750,N,08030.1077,W,1,9,1.6,12,M,,M,,*5D
06/08/2014	14:05:48.266	$GPGGA,140556,2449.3737,N,08030.1063,W,1,9,1.6,12,M,,M,,*5A
06/08/2014	14:05:49.291	$GPGGA,140557,2449.3723,N,08030.1050,W,1,9,1.6,12,M,,M,,*5E
06/08/2014	14:05:50.360	$GPGGA,140558,2449.3709,N,08030.1036,W,1,9,1.6,12,M,,M,,*59
06/08/2014	14:05:51.428	$GPGGA,140559,2449.3696,N,08030.1023,W,1,9,1.6,12,M,,M,,*5B
06/08/2014	14:05:52.518	$GPGGA,140600,2449.3683,N,08030.1009,W,1,9,1.6,12,M,,M,,*58
06/08/2014	14:05:53.587	$GPGGA,140601,2449.3669,N,08030.0996,W,1,9,1.6,12,M,,M,,*53
06/08/2014	14:05:54.612	$GPGGA,140602,2449.3656,N,08030.0982,W,1,9,1.6,12,M,,M,,*59
06/08/2014	14:05:55.702	$GPGGA,140603,2449.3643,N,08030.0968,W,1,9,1.6,12,M,,M,,*58
06/08/2014	14:05:56.771	$GPGGA,140604,2449.3629,N,08030.0955,W,1,9,1.6,12,M,,M,,*5D
06/08/2014	14:05:57.850	$GPGGA,140605,2449.3616,N,08030.0942,W,1,9,1.6,12,M,,M,,*56
06/08/2014	14:05:58.897	$GPGGA,140606,2449.3602,N,08030.0928,W,1,9,1.6,13,M,,M,,*5D
06/08/2014	14:05:59.966	$GPGGA,140607,2449.3589,N,08030.0915,W,1,9,1.6,13,M,,M,,*52
06/08/2014	14:06:01.045	$GPGGA,140608,2449.3575,N,08030.0901,W,1,9,1.6,13,M,,M,,*5B
06/08/2014	14:06:02.099	$GPGGA,140609,2449.3562,N,08030.0888,W,1,9,1.6,13,M,,M,,*5C
06/08/2014	14:06:03.160	$GPGGA,140610,2449.3549,N,08030.0874,W,1,9,1.6,13,M,,M,,*5E
06/08/2014	14:06:04.260	$GPGGA,140611,2449.3537,N,08030.0861,W,1,9,1.6,13,M,,M,,*52
06/08/2014	14:06:05.328	$GPGGA,140612,2449.3523,N,08030.0847,W,1,9,1.6,13,M,,M,,*50
06/08/2014	14:06:06.357	$GPGGA,140613,2449.3510,N,08030.0834,W,1,9,1.6,13,M,,M,,*55
06/08/2014	14:06:07.526	$GPGGA,140614,2449.3497,N,08030.0820,W,1,9,1.6,13,M,,M,,*59
06/08/2014	14:06:08.513	$GPGGA,140615,2449.3483,N,08030.0807,W,1,9,1.6,13,M,,M,,*58
06/08/2014	14:06:09.581	$GPGGA,140616,2449.3469,N,08030.0794,W,1,9,1.6,13,M,,M,,*5A
06/08/2014	14:06:10.714	$GPGGA,140617,2449.3456,N,08030.0781,W,1,9,1.6,13,M,,M,,*53
06/08/2014	14:06:11.687	$GPGGA,140618,2449.3443,N,08030.0767,W,1,9,1.6,13,M,,M,,*50
06/08/2014	14:06:12.776	$GPGGA,140619,2449.3429,N,08030.0754,W,1,9,1.6,13,M,,M,,*5D
06/08/2014	14:06:13.855	$GPGGA,140620,2449.3416,N,08030.0742,W,1,9,1.6,13,M,,M,,*5C
06/08/2014	14:06:15.013	$GPGGA,140621,2449.3403,N,08030.0728,W,1,9,1.6,13,M,,M,,*55
06/08/2014	14:06:15.964	$GPGGA,140622,2449.3389,N,08030.0715,W,1,9,1.6,14,M,,M,,*5A
06/08/2014	14:06:17.031	$GPGGA,140623,2449.3375,N,08030.0703,W,1,9,1.6,14,M,,M,,*5F
06/08/2014	14:06:18.207	$GPGGA,140624,2449.3362,N,08030.0690,W,1,9,1.6,14,M,,M,,*55
06/08/2014	14:06:19.294	$GPGGA,140625,2449.3349,N,08030.0677,W,1,9,1.6,14,M,,M,,*54
06/08/2014	14:06:20.319	$GPGGA,140626,2449.3335,N,08030.0665,W,1,9,1.6,14,M,,M,,*5F
06/08/2014	14:06:21.410	$GPGGA,140627,2449.3322,N,08030.0652,W,1,9,1.6,14,M,,M,,*5C
06/08/2014	14:06:22.467	$GPGGA,140628,2449.3309,N,08030.0639,W,1,9,1.6,14,M,,M,,*57
06/08/2014	14:06:23.524	$GPGGA,140629,2449.3295,N,08030.0627,W,1,9,1.6,14,M,,M,,*5D
06/08/2014	14:06:24.582	$GPGGA,140630,2449.3281,N,08030.0614,W,1,9,1.6,14,M,,M,,*50
06/08/2014	14:06:25.661	$GPGGA,140631,2449.3268,N,08030.0601,W,1,9,1.6,14,M,,M,,*52
06/08/2014	14:06:26.729	$GPGGA,140632,2449.3255,N,08030.0588,W,1,9,1.6,14,M,,M,,*5D
06/08/2014	14:06:27.776	$GPGGA,140633,2449.3241,N,08030.0575,W,1,9,1.6,14,M,,M,,*5B
06/08/2014	14:06:28.845	$GPGGA,140634,2449.3227,N,08030.0563,W,1,9,1.6,14,M,,M,,*5B
06/08/2014	14:06:29.935	$GPGGA,140635,2449.3214,N,08030.0550,W,1,9,1.6,14,M,,M,,*5A
06/08/2014	14:06:31.003	$GPGGA,140636,2449.3201,N,08030.0537,W,1,9,1.6,14,M,,M,,*5C
06/08/2014	14:06:32.061	$GPGGA,140637,2449.3187,N,08030.0525,W,1,9,1.6,14,M,,M,,*53
06/08/2014	14:06:33.108	$GPGGA,140638,2449.3173,N,08030.0513,W,1,9,1.6,14,M,,M,,*52
06/08/2014	14:06:30.089	$GPGGA,140639,2449.3159,N,08030.0500,W,1,9,1.6,14,M,,M,,*59
06/08/2014	14:06:31.139	$GPGGA,140640,2449.3145,N,08030.0488,W,1,9,1.6,14,M,,M,,*5B
06/08/2014	14:06:32.237	$GPGGA,140641,2449.3132,N,08030.0476,W,1,9,1.6,14,M,,M,,*5B
06/08/2014	14:06:33.263	$GPGGA,140642,2449.3118,N,08030.0463,W,1,9,1.6,14,M,,M,,*54
06/08/2014	14:06:34.331	$GPGGA,140643,2449.3104,N,08030.0451,W,1,9,1.6,14,M,,M,,*59
06/08/2014	14:06:35.410	$GPGGA,140644,2449.3091,N,08030.0439,W,1,9,1.6,14,M,,M,,*5D
06/08/2014	14:06:36.500	$GPGGA,140645,2449.3078,N,08030.0427,W,1,9,1.6,14,M,,M,,*54
06/08/2014	14:06:37.525	$GPGGA,140646,2449.3064,N,08030.0414,W,1,9,1.6,14,M,,M,,*5A
06/08/2014	14:06:38.605	$GPGGA,140647,2449.3049,N,08030.0402,W,1,9,1.6,14,M,,M,,*53
06/08/2014	14:06:39.673	$GPGGA,140648,2449.3036,N,08030.0390,W,1,9,1.6,14,M,,M,,*58
06/08/2014	14:06:40.752	$GPGGA,140649,2449.3022,N,08030.0378,W,1,9,1.6,14,M,,M,,*5A
06/08/2014	14:06:41.799	$GPGGA,140650,2449.3008,N,08030.0366,W,1,9,1.6,14,M,,M,,*55
06/08/2014	14:06:42.857	$GPGGA,140651,2449.2995,N,08030.0354,W,1,9,1.6,14,M,,M,,*59
06/08/2014	14:06:43.947	$GPGGA,140652,2449.2980,N,08030.0342,W,1,9,1.6,14,M,,M,,*59
06/08/2014	14:06:44.994	$GPGGA,140653,2449.2966,N,08030.0330,W,1,9,1.6,14,M,,M,,*55
06/08/2014	14:06:46.085	$GPGGA,140654,2449.2952,N,08030.0318,W,1,9,1.6,14,M,,M,,*5F
06/08/2014	14:06:47.146	$GPGGA,140655,2449.2939,N,08030.0306,W,1,9,1.6,14,M,,M,,*5C
06/08/2014	14:06:48.221	$GPGGA,140656,2449.2925,N,08030.0293,W,1,9,1.6,14,M,,M,,*5F
06/08/2014	14:06:49.289	$GPGGA,140657,2449.2910,N,08030.0282,W,1,9,1.6,14,M,,M,,*58
06/08/2014	14:06:50.316	$GPGGA,140658,2449.2897,N,08030.0270,W,1,9,1.6,14,M,,M,,*54
06/08/2014	14:06:51.405	$GPGGA,140659,2449.2883,N,08030.0258,W,1,9,1.6,14,M,,M,,*5A
06/08/2014	14:06:52.473	$GPGGA,140700,2449.2869,N,08030.0246,W,1,9,1.6,14,M,,M,,*5C
06/08/2014	14:06:53.542	$GPGGA,140701,2449.2855,N,08030.0234,W,1,9,1.6,14,M,,M,,*57
06/08/2014	14:06:54.594	$GPGGA,140702,2449.2841,N,08030.0222,W,1,9,1.6,14,M,,M,,*56
06/08/2014	14:06:55.786	$GPGGA,140703,2449.2826,N,08030.0210,W,1,9,1.6,14,M,,M,,*57
06/08/2014	14:06:56.736	$GPGGA,140704,2449.2812,N,08030.0198,W,1,9,1.6,14,M,,M,,*54
06/08/2014	14:06:57.914	$GPGGA,140705,2449.2798,N,08030.0186,W,1,9,1.6,14,M,,M,,*57
06/08/2014	14:06:58.894	$GPGGA,140706,2449.2784,N,08030.0174,W,1,9,1.6,14,M,,M,,*54
06/08/2014	14:06:59.952	$GPGGA,140707,2449.2771,N,08030.0161,W,1,9,1.6,14,M,,M,,*5B
06/08/2014	14:07:01.010	$GPGGA,140708,2449.2757,N,08030.0150,W,1,9,1.6,14,M,,M,,*52
06/08/2014	14:07:02.163	$GPGGA,140709,2449.2743,N,08030.0138,W,1,9,1.6,14,M,,M,,*58
06/08/2014	14:07:03.139	$GPGGA,140710,2449.2730,N,08030.0126,W,1,9,1.6,14,M,,M,,*5B
06/08/2014	14:07:04.217	$GPGGA,140711,2449.2717,N,08030.0114,W,1,9,1.6,14,M,,M,,*5E
06/08/2014	14:07:05.369	$GPGGA,140712,2449.2702,N,08030.0102,W,1,9,1.6,14,M,,M,,*5E
06/08/2014	14:07:06.437	$GPGGA,140713,2449.2689,N,08030.0089,W,1,9,1.6,14,M,,M,,*5F
06/08/2014	14:07:07.388	$GPGGA,140714,2449.2675,N,08030.0077,W,1,9,1.6,14,M,,M,,*5A
06/08/2014	14:07:08.554	$GPGGA,140715,2449.2661,N,08030.0065,W,1,9,1.6,14,M,,M,,*5D
06/08/2014	14:07:09.664	$GPGGA,140716,2449.2648,N,08030.0053,W,1,9,1.6,14,M,,M,,*50
06/08/2014	14:07:10.733	$GPGGA,140717,2449.2634,N,08030.0040,W,1,9,1.6,14,M,,M,,*58
06/08/2014	14:07:11.759	$GPGGA,140718,2449.2620,N,08030.0028,W,1,9,1.6,14,M,,M,,*5C
06/08/2014	14:07:12.848	$GPGGA,140719,2449.2607,N,08030.0016,W,1,9,1.6,14,M,,M,,*55
06/08/2014	14:07:13.907	$GPGGA,140720,2449.2594,N,08030.0003,W,1,9,1.6,14,M,,M,,*52
06/08/2014	14:07:14.984	$GPGGA,140721,2449.2580,N,08029.9991,W,1,9,1.6,14,M,,M,,*55
06/08/2014	14:07:16.032	$GPGGA,140722,2449.2566,N,08029.9979,W,1,9,1.6,14,M,,M,,*58
06/08/2014	14:07:17.112	$GPGGA,140723,2449.2553,N,08029.9967,W,1,9,1.6,14,M,,M,,*50
06/08/2014	14:07:18.169	$GPGGA,140724,2449.2540,N,08029.9954,W,1,9,1.6,14,M,,M,,*55
06/08/2014	14:07:19.237	$GPGGA,140725,2449.2526,N,08029.9941,W,1,9,1.6,14,M,,M,,*50
06/08/2014	14:07:20.316	$GPGGA,140726,2449.2512,N,08029.9929,W,1,9,1.6,14,M,,M,,*5A
06/08/2014	14:07:21.342	$GPGGA,140727,2449.2500,N,08029.9917,W,1,9,1.6,14,M,,M,,*55
06/08/2014	14:07:22.432	$GPGGA,140728,2449.2486,N,08029.9904,W,1,9,1.6,14,M,,M,,*57
06/08/2014	14:07:23.511	$GPGGA,140729,2449.2472,N,08029.9892,W,1,9,1.6,14,M,,M,,*53
06/08/2014	14:07:24.558	$GPGGA,140730,2449.2458,N,08029.9879,W,1,9,1.6,14,M,,M,,*56
06/08/2014	14:07:25.616	$GPGGA,140731,2449.2446,N,08029.9867,W,1,9,1.6,14,M,,M,,*57
06/08/2014	14:07:26.706	$GPGGA,140732,2449.2431,N,08029.9854,W,1,9,1.6,14,M,,M,,*54
06/08/2014	14:07:27.785	$GPGGA,140733,2449.2418,N,08029.9841,W,1,9,1.6,14,M,,M,,*5A
06/08/2014	14:07:28.811	$GPGGA,140734,2449.2406,N,08029.9829,W,1,9,1.6,14,M,,M,,*5C
06/08/2014	14:07:29.902	$GPGGA,140735,2449.2392,N,08029.9816,W,1,9,1.6,14,M,,M,,*5B
06/08/2014	14:07:30.991	$GPGGA,140736,2449.2378,N,08029.9803,W,1,9,1.6,14,M,,M,,*58
06/08/2014	14:07:32.038	$GPGGA,140737,2449.2364,N,08029.9790,W,1,9,1.6,14,M,,M,,*51
06/08/2014	14:07:33.086	$GPGGA,140738,2449.2352,N,08029.9777,W,1,9,1.6,14,M,,M,,*52
06/08/2014	14:07:30.055	$GPGGA,140739,2449.2338,N,08029.9764,W,1,9,1.6,14,M,,M,,*5D
06/08/2014	14:07:31.123	$GPGGA,140740,2449.2324,N,08029.9752,W,1,9,1.6,14,M,,M,,*5B
06/08/2014	14:07:32.213	$GPGGA,140741,2449.2311,N,08029.9738,W,1,9,1.6,14,M,,M,,*50
06/08/2014	14:07:33.239	$GPGGA,140742,2449.2298,N,08029.9725,W,1,9,1.6,14,M,,M,,*5F
06/08/2014	14:07:34.297	$GPGGA,140743,2449.2284,N,08029.9711,W,1,9,1.6,14,M,,M,,*54
06/08/2014	14:07:35.397	$GPGGA,140744,2449.2271,N,08029.9698,W,1,9,1.6,14,M,,M,,*59
06/08/2014	14:07:36.551	$GPGGA,140745,2449.2258,N,08029.9685,W,1,9,1.6,14,M,,M,,*5F
06/08/2014	14:07:37.534	$GPGGA,140746,2449.2244,N,08029.9672,W,1,9,1.6,14,M,,M,,*59
06/08/2014	14:07:38.592	$GPGGA,140747,2449.2231,N,08029.9659,W,1,9,1.6,14,M,,M,,*53
06/08/2014	14:07:39.661	$GPGGA,140748,2449.2217,N,08029.9646,W,1,9,1.6,14,M,,M,,*56
06/08/2014	14:07:40.815	$GPGGA,140749,2449.2204,N,08029.9632,W,1,9,1.6,14,M,,M,,*56
06/08/2014	14:07:41.755	$GPGGA,140750,2449.2191,N,08029.9619,W,1,9,1.6,14,M,,M,,*58
06/08/2014	14:07:42.973	$GPGGA,140751,2449.2178,N,08029.9606,W,1,9,1.6,14,M,,M,,*50
06/08/2014	14:07:44.042	$GPGGA,140752,2449.2164,N,08029.9593,W,1,9,1.6,14,M,,M,,*51
06/08/2014	14:07:44.993	$GPGGA,140753,2449.2151,N,08029.9580,W,1,9,1.6,13,M,,M,,*53
06/08/2014	14:07:46.030	$GPGGA,140754,2449.2139,N,08029.9567,W,1,9,1.6,13,M,,M,,*53
06/08/2014	14:07:47.124	$GPGGA,140755,2449.2124,N,08029.9554,W,1,9,1.6,13,M,,M,,*5E
06/08/2014	14:07:48.197	$GPGGA,140756,2449.2111,N,08029.9541,W,1,9,1.6,13,M,,M,,*5F
06/08/2014	14:07:49.341	$GPGGA,140757,2449.2099,N,08029.9529,W,1,9,1.6,13,M,,M,,*51
06/08/2014	14:07:50.303	$GPGGA,140758,2449.2085,N,08029.9516,W,1,9,1.6,13,M,,M,,*5F
06/08/2014	14:07:51.509	$GPGGA,140759,2449.2071,N,08029.9504,W,1,9,1.6,13,M,,M,,*56
06/08/2014	14:07:52.570	$GPGGA,140800,2449.2058,N,08029.9491,W,1,9,1.6,13,M,,M,,*53
06/08/2014	14:07:53.625	$GPGGA,140801,2449.2045,N,08029.9478,W,1,9,1.6,13,M,,M,,*59
06/08/2014	14:07:54.672	$GPGGA,140802,2449.2031,N,08029.9465,W,1,9,1.6,13,M,,M,,*55
06/08/2014	14:07:55.773	$GPGGA,140803,2449.2018,N,08029.9453,W,1,9,1.6,13,M,,M,,*5A
06/08/2014	14:07:56.820	$GPGGA,140804,2449.2005,N,08029.9440,W,1,9,1.6,13,M,,M,,*53
06/08/2014	14:07:57.899	$GPGGA,140805,2449.1991,N,08029.9427,W,1,9,1.6,13,M,,M,,*54
06/08/2014	14:07:58.935	$GPGGA,140806,2449.1978,N,08029.9414,W,1,9,1.6,13,M,,M,,*50
06/08/2014	14:08:00.015	$GPGGA,140807,2449.1965,N,08029.9401,W,1,9,1.6,13,M,,M,,*59
06/08/2014	14:08:01.094	$GPGGA,140808,2449.1951,N,08029.9388,W,1,9,1.6,13,M,,M,,*57
06/08/2014	14:08:02.152	$GPGGA,140809,2449.1938,N,08029.9376,W,1,9,1.6,13,M,,M,,*58
06/08/2014	14:08:03.189	$GPGGA,140810,2449.1926,N,08029.9363,W,1,9,1.6,13,M,,M,,*5B
06/08/2014	14:08:04.278	$GPGGA,140811,2449.1911,N,08029.9350,W,1,9,1.6,13,M,,M,,*5E
06/08/2014	14:08:05.336	$GPGGA,140812,2449.1898,N,08029.9338,W,1,9,1.6,13,M,,M,,*53
06/08/2014	14:08:06.416	$GPGGA,140813,2449.1886,N,08029.9325,W,1,9,1.6,13,M,,M,,*51
06/08/2014	14:08:07.462	$GPGGA,140814,2449.1872,N,08029.9313,W,1,9,1.6,13,M,,M,,*58
06/08/2014	14:08:08.519	$GPGGA,140815,2449.1858,N,08029.9300,W,1,9,1.6,13,M,,M,,*53
06/08/2014	14:08:09.619	$GPGGA,140816,2449.1846,N,08029.9288,W,1,9,1.6,13,M,,M,,*5E
06/08/2014	14:08:10.688	$GPGGA,140817,2449.1832,N,08029.9275,W,1,9,1.6,13,M,,M,,*5E
06/08/2014	14:08:11.735	$GPGGA,140818,2449.1818,N,08029.9263,W,1,9,1.6,13,M,,M,,*5E
06/08/2014	14:08:12.804	$GPGGA,140819,2449.1804,N,08029.9251,W,1,9,1.6,13,M,,M,,*53
06/08/2014	14:08:13.872	$GPGGA,140820,2449.1792,N,08029.9238,W,1,9,1.6,13,M,,M,,*56
06/08/2014	14:08:14.935	$GPGGA,140821,2449.1778,N,08029.9225,W,1,9,1.6,13,M,,M,,*5F
06/08/2014	14:08:15.931	$GPGGA,140822,2449.1764,N,08029.9213,W,1,9,1.6,13,M,,M,,*54
06/08/2014	14:08:16.957	$GPGGA,140823,2449.1751,N,08029.9201,W,1,9,1.6,13,M,,M,,*50
06/08/2014	14:08:17.993	$GPGGA,140824,2449.1738,N,08029.9188,W,1,9,1.6,13,M,,M,,*5A
06/08/2014	14:08:19.030	$GPGGA,140825,2449.1724,N,08029.9176,W,1,9,1.6,13,M,,M,,*57
06/08/2014	14:08:20.036	$GPGGA,140826,2449.1710,N,08029.9164,W,1,9,1.6,13,M,,M,,*50
06/08/2014	14:08:21.072	$GPGGA,140827,2449.1696,N,08029.9151,W,1,9,1.6,13,M,,M,,*58
06/08/2014	14:08:22.089	$GPGGA,140828,2449.1684,N,08029.9140,W,1,9,1.6,13,M,,M,,*54
06/08/2014	14:08:23.114	$GPGGA,140829,2449.1669,N,08029.9127,W,1,9,1.6,13,M,,M,,*57
06/08/2014	14:08:24.127	$GPGGA,140830,2449.1655,N,08029.9115,W,1,9,1.6,13,M,,M,,*51
06/08/2014	14:08:25.176	$GPGGA,140831,2449.1641,N,08029.9103,W,1,9,1.6,13,M,,M,,*52
06/08/2014	14:08:26.171	$GPGGA,140832,2449.1628,N,08029.9091,W,1,9,1.6,13,M,,M,,*54
06/08/2014	14:08:27.193	$GPGGA,140833,2449.1615,N,08029.9079,W,1,9,1.6,13,M,,M,,*5D
06/08/2014	14:08:28.206	$GPGGA,140834,2449.1600,N,08029.9068,W,1,9,1.6,13,M,,M,,*5E
06/08/2014	14:08:29.251	$GPGGA,140835,2449.1586,N,08029.9056,W,1,9,1.6,13,M,,M,,*5F
06/08/2014	14:08:30.409	$GPGGA,140836,2449.1572,N,08029.9044,W,1,9,1.6,13,M,,M,,*54
06/08/2014	14:08:31.292	$GPGGA,140837,2449.1558,N,08029.9032,W,1,9,1.6,13,M,,M,,*5C
06/08/2014	14:08:32.314	$GPGGA,140838,2449.1544,N,08029.9020,W,1,9,1.6,13,M,,M,,*5D
06/08/2014	14:08:30.020	$GPGGA,140839,2449.1530,N,08029.9008,W,1,9,1.6,13,M,,M,,*55
06/08/2014	14:08:31.044	$GPGGA,140840,2449.1515,N,08029.8997,W,1,9,1.6,13,M,,M,,*52
06/08/2014	14:08:32.247	$GPGGA,140841,2449.1503,N,08029.8985,W,1,9,1.6,13,M,,M,,*57
06/08/2014	14:08:33.170	$GPGGA,140842,2449.1488,N,08029.8973,W,1,9,1.6,13,M,,M,,*5F
06/08/2014	14:08:34.187	$GPGGA,140843,2449.1474,N,08029.8962,W,1,9,1.6,13,M,,M,,*5D
06/08/2014	14:08:35.120	$GPGGA,140844,2449.1460,N,08029.8950,W,1,9,1.6,13,M,,M,,*5E
06/08/2014	14:08:36.341	$GPGGA,140845,2449.1446,N,08029.8938,W,1,9,1.6,13,M,,M,,*55
06/08/2014	14:08:37.172	$GPGGA,140846,2449.1432,N,08029.8926,W,1,9,1.6,13,M,,M,,*5A
06/08/2014	14:08:38.395	$GPGGA,140847,2449.1418,N,08029.8914,W,1,9,1.6,13,M,,M,,*52
06/08/2014	14:08:39.243	$GPGGA,140848,2449.1404,N,08029.8902,W,1,9,1.6,13,M,,M,,*57
06/08/2014	14:08:40.332	$GPGGA,140849,2449.1391,N,08029.8890,W,1,9,1.6,13,M,,M,,*57
06/08/2014	14:08:41.391	$GPGGA,140850,2449.1376,N,08029.8879,W,1,9,1.6,13,M,,M,,*51
06/08/2014	14:08:42.487	$GPGGA,140851,2449.1362,N,08029.8867,W,1,9,1.6,13,M,,M,,*5A
06/08/2014	14:08:43.421	$GPGGA,140852,2449.1349,N,08029.8855,W,1,9,1.6,13,M,,M,,*51
06/08/2014	14:08:44.539	$GPGGA,140853,2449.1335,N,08029.8843,W,1,9,1.6,13,M,,M,,*5C
06/08/2014	14:08:45.453	$GPGGA,140854,2449.1321,N,08029.8832,W,1,9,1.6,13,M,,M,,*58
06/08/2014	14:08:46.592	$GPGGA,140855,2449.1308,N,08029.8820,W,1,9,1.6,13,M,,M,,*51
06/08/2014	14:08:47.546	$GPGGA,140856,2449.1294,N,08029.8807,W,1,9,1.6,13,M,,M,,*53
06/08/2014	14:08:48.634	$GPGGA,140857,2449.1280,N,08029.8796,W,1,9,1.6,13,M,,M,,*50
06/08/2014	14:08:49.558	$GPGGA,140858,2449.1266,N,08029.8784,W,1,9,1.6,13,M,,M,,*54
06/08/2014	14:08:50.687	$GPGGA,140859,2449.1254,N,08029.8772,W,1,9,1.6,13,M,,M,,*5D
06/08/2014	14:08:51.651	$GPGGA,140900,2449.1240,N,08029.8759,W,1,9,1.6,13,M,,M,,*5C
06/08/2014	14:08:52.718	$GPGGA,140901,2449.1226,N,08029.8747,W,1,9,1.6,13,M,,M,,*52
06/08/2014	14:08:53.673	$GPGGA,140902,2449.1214,N,08029.8735,W,1,9,1.6,13,M,,M,,*55
06/08/2014	14:08:54.781	$GPGGA,140903,2449.1199,N,08029.8723,W,1,9,1.6,13,M,,M,,*55
06/08/2014	14:08:55.706	$GPGGA,140904,2449.1185,N,08029.8710,W,1,9,1.6,13,M,,M,,*5F
06/08/2014	14:08:56.844	$GPGGA,140905,2449.1172,N,08029.8698,W,1,9,1.6,13,M,,M,,*57
06/08/2014	14:08:57.746	$GPGGA,140906,2449.1158,N,08029.8686,W,1,9,1.6,13,M,,M,,*53
06/08/2014	14:08:58.833	$GPGGA,140907,2449.1145,N,08029.8673,W,1,9,1.6,13,M,,M,,*54
06/08/2014	14:08:59.808	$GPGGA,140908,2449.1131,N,08029.8661,W,1,9,1.6,13,M,,M,,*5B
06/08/2014	14:09:00.947	$GPGGA,140909,2449.1118,N,08029.8648,W,1,9,1.6,13,M,,M,,*5A
06/08/2014	14:09:01.871	$GPGGA,140910,2449.1105,N,08029.8635,W,1,9,1.6,13,M,,M,,*54
06/08/2014	14:09:02.969	$GPGGA,140911,2449.1091,N,08029.8623,W,1,9,1.6,13,M,,M,,*5E
06/08/2014	14:09:03.903	$GPGGA,140912,2449.1077,N,08029.8610,W,1,9,1.6,13,M,,M,,*55
06/08/2014	14:09:05.042	$GPGGA,140913,2449.1064,N,08029.8597,W,1,9,1.6,13,M,,M,,*5A
06/08/2014	14:09:05.935	$GPGGA,140914,2449.1051,N,08029.8584,W,1,9,1.6,13,M,,M,,*59
06/08/2014	14:09:07.065	$GPGGA,140915,2449.1038,N,08029.8571,W,1,9,1.6,13,M,,M,,*5D
06/08/2014	14:09:07.997	$GPGGA,140916,2449.1026,N,08029.8558,W,1,9,1.6,13,M,,M,,*5A
06/08/2014	14:09:09.141	$GPGGA,140917,2449.1012,N,08029.8545,W,1,9,1.6,13,M,,M,,*50
06/08/2014	14:09:10.053	$GPGGA,140918,2449.0998,N,08029.8532,W,1,9,1.6,13,M,,M,,*55
06/08/2014	14:09:11.179	$GPGGA,140919,2449.0985,N,08029.8519,W,1,9,1.6,13,M,,M,,*51
06/08/2014	14:09:12.133	$GPGGA,140920,2449.0972,N,08029.8506,W,1,9,1.6,13,M,,M,,*5D
06/08/2014	14:09:13.216	$GPGGA,140921,2449.0959,N,08029.8493,W,1,9,1.6,13,M,,M,,*58
06/08/2014	14:09:14.131	$GPGGA,140922,2449.0947,N,08029.8479,W,1,9,1.6,13,M,,M,,*50
06/08/2014	14:09:15.255	$GPGGA,140923,2449.0932,N,08029.8466,W,1,9,1.6,13,M,,M,,*5D
06/08/2014	14:09:16.237	$GPGGA,140924,2449.0920,N,08029.8452,W,1,9,1.6,13,M,,M,,*5E
06/08/2014	14:09:17.345	$GPGGA,140925,2449.0907,N,08029.8439,W,1,9,1.6,13,M,,M,,*57
06/08/2014	14:09:18.289	$GPGGA,140926,2449.0894,N,08029.8425,W,1,9,1.6,13,M,,M,,*52
06/08/2014	14:09:19.346	$GPGGA,140927,2449.0880,N,08029.8412,W,1,9,1.6,13,M,,M,,*52
06/08/2014	14:09:20.342	$GPGGA,140928,2449.0867,N,08029.8398,W,1,9,1.6,13,M,,M,,*51
06/08/2014	14:09:21.421	$GPGGA,140929,2449.0855,N,08029.8385,W,1,9,1.6,13,M,,M,,*5D
06/08/2014	14:09:22.353	$GPGGA,140930,2449.0842,N,08029.8372,W,1,9,1.6,13,M,,M,,*5B
06/08/2014	14:09:23.523	$GPGGA,140931,2449.0828,N,08029.8358,W,1,9,1.6,13,M,,M,,*5E
06/08/2014	14:09:24.498	$GPGGA,140932,2449.0815,N,08029.8345,W,1,9,1.6,13,M,,M,,*5F
06/08/2014	14:09:25.493	$GPGGA,140933,2449.0802,N,08029.8332,W,1,9,1.6,13,M,,M,,*58
06/08/2014	14:09:26.519	$GPGGA,140934,2449.0789,N,08029.8318,W,1,9,1.6,13,M,,M,,*5B
06/08/2014	14:09:27.558	$GPGGA,140935,2449.0777,N,08029.8305,W,1,9,1.6,13,M,,M,,*57
06/08/2014	14:09:28.592	$GPGGA,140936,2449.0763,N,08029.8292,W,1,9,1.6,13,M,,M,,*5E
06/08/2014	14:09:29.620	$GPGGA,140937,2449.0750,N,08029.8278,W,1,9,1.6,13,M,,M,,*5B
06/08/2014	14:09:30.624	$GPGGA,140938,2449.0737,N,08029.8265,W,1,9,1.6,13,M,,M,,*59
06/08/2014	14:09:30.152	$GPGGA,140939,2449.0724,N,08029.8252,W,1,9,1.6,13,M,,M,,*5E
06/08/2014	14:09:31.117	$GPGGA,140940,2449.0712,N,08029.8238,W,1,9,1.6,13,M,,M,,*59
06/08/2014	14:09:32.142	$GPGGA,140941,2449.0697,N,08029.8225,W,1,9,1.6,13,M,,M,,*58
06/08/2014	14:09:33.137	$GPGGA,140942,2449.0684,N,08029.8212,W,1,9,1.6,12,M,,M,,*5C
06/08/2014	14:09:34.216	$GPGGA,140943,2449.0672,N,08029.8199,W,1,9,1.6,12,M,,M,,*54
06/08/2014	14:09:35.210	$GPGGA,140944,2449.0658,N,08029.8186,W,1,9,1.6,12,M,,M,,*55
06/08/2014	14:09:36.247	$GPGGA,140945,2449.0645,N,08029.8172,W,1,9,1.6,12,M,,M,,*53
06/08/2014	14:09:37.232	$GPGGA,140946,2449.0631,N,08029.8159,W,1,9,1.6,12,M,,M,,*5A
06/08/2014	14:09:38.309	$GPGGA,140947,2449.0618,N,08029.8146,W,1,9,1.6,12,M,,M,,*5E
06/08/2014	14:09:39.305	$GPGGA,140948,2449.0605,N,08029.8133,W,1,9,1.6,12,M,,M,,*5F
06/08/2014	14:09:40.393	$GPGGA,140949,2449.0592,N,08029.8121,W,1,9,1.6,12,M,,M,,*50
06/08/2014	14:09:41.337	$GPGGA,140950,2449.0579,N,08029.8107,W,1,9,1.6,12,M,,M,,*59
06/08/2014	14:09:42.415	$GPGGA,140951,2449.0565,N,08029.8095,W,1,9,1.6,12,M,,M,,*5F
06/08/2014	14:09:43.399	$GPGGA,140952,2449.0553,N,08029.8081,W,1,9,1.6,12,M,,M,,*5C
06/08/2014	14:09:44.487	$GPGGA,140953,2449.0539,N,08029.8068,W,1,9,1.6,12,M,,M,,*56
06/08/2014	14:09:45.441	$GPGGA,140954,2449.0526,N,08029.8055,W,1,9,1.6,12,M,,M,,*51
06/08/2014	14:09:46.498	$GPGGA,140955,2449.0514,N,08029.8043,W,1,9,1.6,12,M,,M,,*56
06/08/2014	14:09:47.505	$GPGGA,140956,2449.0501,N,08029.8029,W,1,9,1.6,12,M,,M,,*5D
06/08/2014	14:09:48.571	$GPGGA,140957,2449.0488,N,08029.8015,W,1,9,1.6,12,M,,M,,*53
06/08/2014	14:09:49.545	$GPGGA,140958,2449.0477,N,08029.8002,W,1,9,1.6,12,M,,M,,*5A
06/08/2014	14:09:50.602	$GPGGA,140959,2449.0464,N,08029.7988,W,1,9,1.6,12,M,,M,,*5D
06/08/2014	14:09:51.628	$GPGGA,141000,2449.0453,N,08029.7973,W,1,9,1.6,12,M,,M,,*59
06/08/2014	14:09:52.706	$GPGGA,141001,2449.0441,N,08029.7959,W,1,9,1.6,12,M,,M,,*53
06/08/2014	14:09:53.650	$GPGGA,141002,2449.0430,N,08029.7944,W,1,9,1.6,12,M,,M,,*5A
06/08/2014	14:09:54.717	$GPGGA,141003,2449.0419,N,08029.7930,W,1,9,1.6,12,M,,M,,*53
06/08/2014	14:09:55.692	$GPGGA,141004,2449.0408,N,08029.7915,W,1,9,1.6,12,M,,M,,*53
06/08/2014	14:09:56.749	$GPGGA,141005,2449.0397,N,08029.7899,W,1,9,1.6,12,M,,M,,*56
06/08/2014	14:09:57.745	$GPGGA,141006,2449.0387,N,08029.7884,W,1,9,1.6,12,M,,M,,*58
06/08/2014	14:09:58.812	$GPGGA,141007,2449.0377,N,08029.7869,W,1,9,1.6,12,M,,M,,*55
06/08/2014	14:09:59.900	$GPGGA,141008,2449.0367,N,08029.7854,W,1,9,1.6,12,M,,M,,*55
06/08/2014	14:10:00.864	$GPGGA,141009,2449.0359,N,08029.7838,W,1,9,1.6,12,M,,M,,*53
06/08/2014	14:10:01.921	$GPGGA,141010,2449.0350,N,08029.7822,W,1,9,1.6,12,M,,M,,*59
06/08/2014	14:10:02.886	$GPGGA,141011,2449.0350,N,08029.7822,W,1,9,1.6,12,M,,M,,*58
06/08/2014	14:10:03.892	$GPGGA,141012,2449.0332,N,08029.7788,W,1,9,1.7,12,M,,M,,*51
06/08/2014	14:10:04.918	$GPGGA,141013,2449.0332,N,08029.7788,W,1,8,1.7,12,M,,M,,*51
06/08/2014	14:10:06.007	$GPGGA,141014,2449.0318,N,08029.7756,W,1,8,1.6,12,M,,M,,*5C
06/08/2014	14:10:06.929	$GPGGA,141015,2449.0309,N,08029.7738,W,1,9,1.6,12,M,,M,,*54
06/08/2014	14:10:08.070	$GPGGA,141016,2449.0302,N,08029.7721,W,1,9,1.6,12,M,,M,,*54
06/08/2014	14:10:09.126	$GPGGA,141017,2449.0302,N,08029.7721,W,1,9,1.6,12,M,,M,,*55
06/08/2014	14:10:10.109	$GPGGA,141018,2449.0289,N,08029.7686,W,1,9,1.6,12,M,,M,,*54
06/08/2014	14:10:11.076	$GPGGA,141019,2449.0289,N,08029.7686,W,1,9,1.6,12,M,,M,,*55
06/08/2014	14:10:12.162	$GPGGA,141020,2449.0276,N,08029.7651,W,1,9,1.6,12,M,,M,,*55
06/08/2014	14:10:13.219	$GPGGA,141021,2449.0271,N,08029.7633,W,1,9,1.6,12,M,,M,,*57
06/08/2014	14:10:14.204	$GPGGA,141022,2449.0265,N,08029.7615,W,1,9,1.6,12,M,,M,,*55
06/08/2014	14:10:15.251	$GPGGA,141023,2449.0260,N,08029.7596,W,1,9,1.6,12,M,,M,,*59
06/08/2014	14:10:16.266	$GPGGA,141024,2449.0253,N,08029.7578,W,1,9,1.6,12,M,,M,,*5E
06/08/2014	14:10:17.272	$GPGGA,141025,2449.0248,N,08029.7559,W,1,9,1.6,12,M,,M,,*56
06/08/2014	14:10:18.298	$GPGGA,141026,2449.0243,N,08029.7540,W,1,9,1.6,12,M,,M,,*56
06/08/2014	14:10:19.355	$GPGGA,141027,2449.0237,N,08029.7521,W,1,9,1.6,12,M,,M,,*53
06/08/2014	14:10:20.361	$GPGGA,141028,2449.0232,N,08029.7502,W,1,9,1.6,12,M,,M,,*58
06/08/2014	14:10:21.387	$GPGGA,141029,2449.0228,N,08029.7482,W,1,9,1.6,12,M,,M,,*5B
06/08/2014	14:10:22.413	$GPGGA,141030,2449.0221,N,08029.7463,W,1,9,1.6,12,M,,M,,*55
06/08/2014	14:10:23.429	$GPGGA,141031,2449.0217,N,08029.7443,W,1,9,1.6,12,M,,M,,*53
06/08/2014	14:10:24.466	$GPGGA,141032,2449.0211,N,08029.7424,W,1,9,1.6,12,M,,M,,*57
06/08/2014	14:10:25.491	$GPGGA,141033,2449.0206,N,08029.7404,W,1,9,1.6,12,M,,M,,*52
06/08/2014	14:10:26.497	$GPGGA,141034,2449.0200,N,08029.7385,W,1,9,1.6,12,M,,M,,*5D
06/08/2014	14:10:27.543	$GPGGA,141035,2449.0195,N,08029.7366,W,1,8,1.7,12,M,,M,,*5E
06/08/2014	14:10:28.559	$GPGGA,141036,2449.0189,N,08029.7347,W,1,8,1.6,12,M,,M,,*52
06/08/2014	14:10:31.012	$GPGGA,141038,2449.0177,N,08029.7308,W,1,9,1.6,12,M,,M,,*57
06/08/2014	14:10:30.067	$GPGGA,141039,2449.0171,N,08029.7288,W,1,9,1.6,12,M,,M,,*59
06/08/2014	14:10:31.073	$GPGGA,141040,2449.0165,N,08029.7268,W,1,9,1.6,12,M,,M,,*5C
06/08/2014	14:10:32.119	$GPGGA,141041,2449.0160,N,08029.7248,W,1,9,1.6,12,M,,M,,*5A
06/08/2014	14:10:33.135	$GPGGA,141042,2449.0154,N,08029.7228,W,1,9,1.6,12,M,,M,,*58
06/08/2014	14:10:34.161	$GPGGA,141043,2449.0149,N,08029.7208,W,1,9,1.6,12,M,,M,,*57
06/08/2014	14:10:35.177	$GPGGA,141044,2449.0143,N,08029.7188,W,1,9,1.6,12,M,,M,,*51
06/08/2014	14:10:36.204	$GPGGA,141045,2449.0138,N,08029.7168,W,1,9,1.6,12,M,,M,,*52
06/08/2014	14:10:37.220	$GPGGA,141046,2449.0132,N,08029.7147,W,1,9,1.6,12,M,,M,,*56
06/08/2014	14:10:38.256	$GPGGA,141047,2449.0127,N,08029.7127,W,1,9,1.6,12,M,,M,,*55
06/08/2014	14:10:39.282	$GPGGA,141048,2449.0121,N,08029.7106,W,1,9,1.6,12,M,,M,,*5F
06/08/2014	14:10:40.319	$GPGGA,141049,2449.0116,N,08029.7086,W,1,9,1.6,12,M,,M,,*53
06/08/2014	14:10:41.314	$GPGGA,141050,2449.0110,N,08029.7065,W,1,9,1.6,12,M,,M,,*50
06/08/2014	14:10:42.370	$GPGGA,141051,2449.0105,N,08029.7045,W,1,9,1.6,12,M,,M,,*57
06/08/2014	14:10:43.376	$GPGGA,141052,2449.0099,N,08029.7025,W,1,9,1.6,12,M,,M,,*56
06/08/2014	14:10:44.402	$GPGGA,141053,2449.0094,N,08029.7004,W,1,9,1.6,12,M,,M,,*59
06/08/2014	14:10:45.520	$GPGGA,141054,2449.0088,N,08029.6983,W,1,9,1.6,12,M,,M,,*54
06/08/2014	14:10:46.454	$GPGGA,141055,2449.0083,N,08029.6963,W,1,9,1.6,12,M,,M,,*50
06/08/2014	14:10:47.470	$GPGGA,141056,2449.0077,N,08029.6942,W,1,9,1.6,12,M,,M,,*5B
06/08/2014	14:10:48.486	$GPGGA,141057,2449.0071,N,08029.6922,W,1,9,1.6,12,M,,M,,*5A
06/08/2014	14:10:49.512	$GPGGA,141058,2449.0066,N,08029.6901,W,1,9,1.6,12,M,,M,,*52
06/08/2014	14:10:50.549	$GPGGA,141059,2449.0060,N,08029.6880,W,1,9,1.6,12,M,,M,,*5D
06/08/2014	14:10:51.660	$GPGGA,141100,2449.0055,N,08029.6860,W,1,9,1.6,13,M,,M,,*59
06/08/2014	14:10:52.612	$GPGGA,141101,2449.0049,N,08029.6839,W,1,9,1.6,13,M,,M,,*59
06/08/2014	14:10:53.607	$GPGGA,141102,2449.0043,N,08029.6818,W,1,9,1.6,13,M,,M,,*53
06/08/2014	14:10:54.637	$GPGGA,141103,2449.0038,N,08029.6798,W,1,9,1.6,13,M,,M,,*59
06/08/2014	14:10:55.753	$GPGGA,141104,2449.0033,N,08029.6777,W,1,9,1.6,13,M,,M,,*54
06/08/2014	14:10:56.686	$GPGGA,141105,2449.0027,N,08029.6756,W,1,9,1.6,13,M,,M,,*53
06/08/2014	14:10:58.533	$GPGGA,141106,2449.0022,N,08029.6735,W,1,9,1.6,13,M,,M,,*50
06/08/2014	14:10:58.845	$GPGGA,141107,2449.0016,N,08029.6715,W,1,9,1.6,13,M,,M,,*54
06/08/2014	14:10:59.876	$GPGGA,141108,2449.0011,N,08029.6694,W,1,9,1.6,13,M,,M,,*54
06/08/2014	14:11:00.871	$GPGGA,141109,2449.0005,N,08029.6673,W,1,9,1.6,13,M,,M,,*59
06/08/2014	14:11:01.877	$GPGGA,141110,2449.0000,N,08029.6652,W,1,9,1.6,13,M,,M,,*57
06/08/2014	14:11:02.946	$GPGGA,141111,2448.9995,N,08029.6631,W,1,9,1.6,13,M,,M,,*5E
06/08/2014	14:11:03.950	$GPGGA,141112,2448.9989,N,08029.6610,W,1,9,1.6,13,M,,M,,*53
06/08/2014	14:11:04.966	$GPGGA,141113,2448.9984,N,08029.6589,W,1,9,1.6,13,M,,M,,*5C
06/08/2014	14:11:05.992	$GPGGA,141114,2448.9979,N,08029.6568,W,1,9,1.6,13,M,,M,,*56
06/08/2014	14:11:07.029	$GPGGA,141115,2448.9975,N,08029.6547,W,1,9,1.6,13,M,,M,,*56
06/08/2014	14:11:08.045	$GPGGA,141116,2448.9969,N,08029.6526,W,1,9,1.6,13,M,,M,,*5F
06/08/2014	14:11:09.050	$GPGGA,141117,2448.9964,N,08029.6506,W,1,9,1.6,13,M,,M,,*51
06/08/2014	14:11:10.087	$GPGGA,141118,2448.9959,N,08029.6485,W,1,9,1.6,13,M,,M,,*5A
06/08/2014	14:11:11.123	$GPGGA,141119,2448.9954,N,08029.6463,W,1,9,1.6,13,M,,M,,*5E
06/08/2014	14:11:12.129	$GPGGA,141120,2448.9949,N,08029.6443,W,1,9,1.6,13,M,,M,,*5A
06/08/2014	14:11:13.176	$GPGGA,141121,2448.9944,N,08029.6422,W,1,9,1.6,13,M,,M,,*51
06/08/2014	14:11:14.191	$GPGGA,141122,2448.9939,N,08029.6401,W,1,9,1.6,13,M,,M,,*59
06/08/2014	14:11:15.218	$GPGGA,141123,2448.9935,N,08029.6380,W,1,9,1.6,13,M,,M,,*5A
06/08/2014	14:11:16.244	$GPGGA,141124,2448.9929,N,08029.6359,W,1,9,1.6,13,M,,M,,*54
06/08/2014	14:11:17.270	$GPGGA,141125,2448.9924,N,08029.6338,W,1,9,1.6,13,M,,M,,*5F
06/08/2014	14:11:18.275	$GPGGA,141126,2448.9919,N,08029.6317,W,1,9,1.6,13,M,,M,,*5F
06/08/2014	14:11:19.291	$GPGGA,141127,2448.9914,N,08029.6295,W,1,9,1.6,13,M,,M,,*58
06/08/2014	14:11:20.337	$GPGGA,141128,2448.9910,N,08029.6275,W,1,9,1.6,13,M,,M,,*5D
06/08/2014	14:11:21.343	$GPGGA,141129,2448.9904,N,08029.6254,W,1,9,1.6,13,M,,M,,*5A
06/08/2014	14:11:22.380	$GPGGA,141130,2448.9899,N,08029.6233,W,1,9,1.6,13,M,,M,,*56
06/08/2014	14:11:23.437	$GPGGA,141131,2448.9895,N,08029.6212,W,1,9,1.6,13,M,,M,,*58
06/08/2014	14:11:24.442	$GPGGA,141132,2448.9890,N,08029.6191,W,1,9,1.6,13,M,,M,,*56
06/08/2014	14:11:25.438	$GPGGA,141133,2448.9886,N,08029.6169,W,1,9,1.6,13,M,,M,,*57
06/08/2014	14:11:26.474	$GPGGA,141134,2448.9881,N,08029.6148,W,1,9,1.6,13,M,,M,,*54
06/08/2014	14:11:27.511	$GPGGA,141135,2448.9877,N,08029.6127,W,1,9,1.6,13,M,,M,,*55
06/08/2014	14:11:28.526	$GPGGA,141136,2448.9872,N,08029.6106,W,1,9,1.6,13,M,,M,,*50
06/08/2014	14:11:29.655	$GPGGA,141137,2448.9867,N,08029.6085,W,1,9,1.6,13,M,,M,,*5F
06/08/2014	14:11:30.558	$GPGGA,141138,2448.9863,N,08029.6064,W,1,9,1.6,13,M,,M,,*5B
06/08/2014	14:11:30.025	$GPGGA,141139,2448.9859,N,08029.6042,W,1,9,1.6,13,M,,M,,*57
06/08/2014	14:11:31.052	$GPGGA,141140,2448.9854,N,08029.6021,W,1,9,2.0,13,M,,M,,*54
06/08/2014	14:11:32.098	$GPGGA,141141,2448.9849,N,08029.5999,W,1,8,2.0,13,M,,M,,*51
06/08/2014	14:11:33.090	$GPGGA,141142,2448.9845,N,08029.5976,W,1,8,1.6,13,M,,M,,*5A
06/08/2014	14:11:34.111	$GPGGA,141143,2448.9841,N,08029.5954,W,1,9,1.6,13,M,,M,,*5E
06/08/2014	14:11:35.155	$GPGGA,141144,2448.9836,N,08029.5932,W,1,9,1.6,13,M,,M,,*59
06/08/2014	14:11:36.160	$GPGGA,141145,2448.9831,N,08029.5911,W,1,9,1.6,13,M,,M,,*5E
06/08/2014	14:11:37.300	$GPGGA,141146,2448.9827,N,08029.5888,W,1,9,1.6,13,M,,M,,*5B
06/08/2014	14:11:38.203	$GPGGA,141147,2448.9823,N,08029.5867,W,1,9,1.6,13,M,,M,,*5F
06/08/2014	14:11:39.249	$GPGGA,141148,2448.9817,N,08029.5845,W,1,9,1.6,13,M,,M,,*57
06/08/2014	14:11:40.267	$GPGGA,141149,2448.9813,N,08029.5824,W,1,9,1.6,13,M,,M,,*55
06/08/2014	14:11:41.271	$GPGGA,141150,2448.9809,N,08029.5803,W,1,9,1.6,13,M,,M,,*53
06/08/2014	14:11:42.338	$GPGGA,141151,2448.9803,N,08029.5782,W,1,9,1.6,13,M,,M,,*5E
06/08/2014	14:11:43.364	$GPGGA,141152,2448.9799,N,08029.5762,W,1,9,2.0,13,M,,M,,*5A
06/08/2014	14:11:44.452	$GPGGA,141153,2448.9794,N,08029.5741,W,1,9,1.6,13,M,,M,,*52
06/08/2014	14:11:45.478	$GPGGA,141154,2448.9789,N,08029.5720,W,1,9,1.6,13,M,,M,,*5E
06/08/2014	14:11:46.421	$GPGGA,141155,2448.9785,N,08029.5699,W,1,9,1.6,13,M,,M,,*50
06/08/2014	14:11:47.543	$GPGGA,141156,2448.9780,N,08029.5677,W,1,9,2.0,13,M,,M,,*53
06/08/2014	14:11:48.547	$GPGGA,141157,2448.9776,N,08029.5655,W,1,9,1.6,13,M,,M,,*5E
06/08/2014	14:11:49.481	$GPGGA,141158,2448.9770,N,08029.5634,W,1,9,1.6,13,M,,M,,*50
