Software Version Number: 1	Data File Format Number: 1	Build Version Number: 1	Error Count Since VI Started: 0	Manufacturer: Raytheon	 Model Number: RayMarine 120	 S/N: 	 Cal Date: 	 Wind Direction Offset: 0.00	 Slope (M)1: 0.00	 Offset (B)1: 0.00	 Slope (M)2: 0.00	 Offset (B)2: 0.00	 Slope (M)3: 0.00	 Offset (B)3: 0.00	 Slope (M)4: 0.00	 Offset (B)4: 0.00	 Slope (M)5: 0.00	 Offset (B)5: 0.00	 Slope (M)6: 0.00	 Offset (B)6: 0.00
Computer Date	Computer Time	GGA String
06/12/2014	05:00:00.758	$GPGGA,050001,2543.8835,N,08009.7299,W,1,10,1.6,23,M,,M,,*61
06/12/2014	05:00:01.686	$GPGGA,050002,2543.8836,N,08009.7299,W,1,10,1.6,23,M,,M,,*61
06/12/2014	05:00:02.674	$GPGGA,050003,2543.8834,N,08009.7299,W,1,10,1.6,23,M,,M,,*62
06/12/2014	05:00:03.729	$GPGGA,050004,2543.8835,N,08009.7299,W,1,10,1.6,23,M,,M,,*64
06/12/2014	05:00:04.802	$GPGGA,050005,2543.8834,N,08009.7298,W,1,10,1.6,23,M,,M,,*65
06/12/2014	05:00:05.713	$GPGGA,050006,2543.8835,N,08009.7298,W,1,10,1.6,23,M,,M,,*67
06/12/2014	05:00:06.826	$GPGGA,050007,2543.8834,N,08009.7298,W,1,10,1.6,23,M,,M,,*67
06/12/2014	05:00:07.859	$GPGGA,050008,2543.8835,N,08009.7299,W,1,10,1.6,23,M,,M,,*68
06/12/2014	05:00:08.840	$GPGGA,050009,2543.8834,N,08009.7299,W,1,10,1.6,23,M,,M,,*68
06/12/2014	05:00:09.851	$GPGGA,050010,2543.8835,N,08009.7299,W,1,10,1.6,23,M,,M,,*61
06/12/2014	05:00:10.873	$GPGGA,050011,2543.8833,N,08009.7299,W,1,10,1.6,23,M,,M,,*66
06/12/2014	05:00:11.894	$GPGGA,050012,2543.8835,N,08009.7299,W,1,10,1.6,23,M,,M,,*63
06/12/2014	05:00:12.876	$GPGGA,050013,2543.8834,N,08009.7299,W,1,10,1.6,23,M,,M,,*63
06/12/2014	05:00:13.887	$GPGGA,050014,2543.8835,N,08009.7301,W,1,10,1.6,23,M,,M,,*65
06/12/2014	05:00:14.919	$GPGGA,050015,2543.8834,N,08009.7300,W,1,10,1.6,23,M,,M,,*64
06/12/2014	05:00:15.921	$GPGGA,050016,2543.8835,N,08009.7299,W,1,10,1.6,23,M,,M,,*67
06/12/2014	05:00:16.943	$GPGGA,050017,2543.8834,N,08009.7299,W,1,10,1.6,23,M,,M,,*67
06/12/2014	05:00:17.935	$GPGGA,050018,2543.8835,N,08009.7299,W,1,10,1.6,23,M,,M,,*69
06/12/2014	05:00:18.957	$GPGGA,050019,2543.8831,N,08009.7299,W,1,9,1.7,23,M,,M,,*55
06/12/2014	05:00:19.958	$GPGGA,050020,2543.8832,N,08009.7299,W,1,9,1.6,23,M,,M,,*5D
06/12/2014	05:00:20.950	$GPGGA,050021,2543.8831,N,08009.7299,W,1,10,1.6,23,M,,M,,*67
06/12/2014	05:00:21.982	$GPGGA,050022,2543.8832,N,08009.7301,W,1,10,1.6,23,M,,M,,*67
06/12/2014	05:00:22.969	$GPGGA,050023,2543.8831,N,08009.7299,W,1,10,1.6,23,M,,M,,*65
06/12/2014	05:00:23.995	$GPGGA,050024,2543.8832,N,08009.7299,W,1,10,1.6,23,M,,M,,*61
06/12/2014	05:00:24.997	$GPGGA,050025,2543.8831,N,08009.7299,W,1,10,1.6,23,M,,M,,*63
06/12/2014	05:00:26.009	$GPGGA,050026,2543.8832,N,08009.7299,W,1,10,1.6,23,M,,M,,*63
06/12/2014	05:00:27.061	$GPGGA,050027,2543.8831,N,08009.7299,W,1,10,1.6,23,M,,M,,*61
06/12/2014	05:00:28.053	$GPGGA,050028,2543.8832,N,08009.7301,W,1,10,1.6,23,M,,M,,*6D
06/12/2014	05:00:29.045	$GPGGA,050029,2543.8831,N,08009.7299,W,1,10,1.6,23,M,,M,,*6F
06/12/2014	05:00:30.049	$GPGGA,050030,2543.8833,N,08009.7299,W,1,10,1.6,23,M,,M,,*65
06/12/2014	05:00:31.089	$GPGGA,050031,2543.8833,N,08009.7301,W,1,10,1.6,23,M,,M,,*64
06/12/2014	05:00:32.086	$GPGGA,050032,2543.8833,N,08009.7299,W,1,10,1.6,23,M,,M,,*67
06/12/2014	05:00:33.101	$GPGGA,050033,2543.8833,N,08009.7299,W,1,10,1.6,23,M,,M,,*66
06/12/2014	05:00:34.085	$GPGGA,050034,2543.8833,N,08009.7299,W,1,10,1.6,23,M,,M,,*61
06/12/2014	05:00:35.087	$GPGGA,050035,2543.8833,N,08009.7299,W,1,10,1.6,23,M,,M,,*60
06/12/2014	05:00:36.131	$GPGGA,050036,2543.8833,N,08009.7299,W,1,10,1.6,23,M,,M,,*63
06/12/2014	05:00:37.132	$GPGGA,050037,2543.8833,N,08009.7299,W,1,10,1.6,23,M,,M,,*62
06/12/2014	05:00:38.240	$GPGGA,050038,2543.8835,N,08009.7299,W,1,10,1.6,23,M,,M,,*6B
06/12/2014	05:00:39.131	$GPGGA,050039,2543.8834,N,08009.7299,W,1,10,1.6,23,M,,M,,*6B
06/12/2014	05:00:40.153	$GPGGA,050040,2543.8836,N,08009.7299,W,1,10,1.6,23,M,,M,,*67
06/12/2014	05:00:41.278	$GPGGA,050041,2543.8837,N,08009.7299,W,1,10,1.6,23,M,,M,,*67
06/12/2014	05:00:42.181	$GPGGA,050042,2543.8837,N,08009.7299,W,1,10,1.6,23,M,,M,,*64
06/12/2014	05:00:43.178	$GPGGA,050043,2543.8837,N,08009.7299,W,1,10,1.6,23,M,,M,,*65
06/12/2014	05:00:44.311	$GPGGA,050044,2543.8837,N,08009.7299,W,1,10,1.6,23,M,,M,,*62
06/12/2014	05:00:45.293	$GPGGA,050045,2543.8837,N,08009.7299,W,1,10,1.6,23,M,,M,,*63
06/12/2014	05:00:45.498	$GPGGA,050046,2543.8837,N,08009.7298,W,1,10,1.6,23,M,,M,,*61
06/12/2014	05:00:46.631	$GPGGA,050047,2543.8837,N,08009.7298,W,1,10,1.6,23,M,,M,,*60
06/12/2014	05:00:47.530	$GPGGA,050048,2543.8837,N,08009.7298,W,1,10,1.6,23,M,,M,,*6F
06/12/2014	05:00:48.623	$GPGGA,050049,2543.8837,N,08009.7299,W,1,10,1.6,23,M,,M,,*6F
06/12/2014	05:00:49.635	$GPGGA,050050,2543.8837,N,08009.7299,W,1,10,1.7,23,M,,M,,*66
06/12/2014	05:00:50.656	$GPGGA,050051,2543.8837,N,08009.7298,W,1,10,1.6,23,M,,M,,*67
06/12/2014	05:00:51.558	$GPGGA,050052,2543.8839,N,08009.7298,W,1,10,1.6,23,M,,M,,*6A
06/12/2014	05:00:52.569	$GPGGA,050053,2543.8840,N,08009.7298,W,1,10,1.6,23,M,,M,,*65
06/12/2014	05:00:53.570	$GPGGA,050054,2543.8840,N,08009.7298,W,1,10,1.6,23,M,,M,,*62
06/12/2014	05:00:54.683	$GPGGA,050055,2543.8840,N,08009.7297,W,1,10,1.6,23,M,,M,,*6C
06/12/2014	05:00:55.604	$GPGGA,050056,2543.8842,N,08009.7298,W,1,10,1.6,23,M,,M,,*62
06/12/2014	05:00:56.707	$GPGGA,050057,2543.8841,N,08009.7297,W,1,10,1.6,23,M,,M,,*6F
06/12/2014	05:00:57.709	$GPGGA,050058,2543.8843,N,08009.7296,W,1,10,1.6,23,M,,M,,*63
06/12/2014	05:00:58.721	$GPGGA,050059,2543.8842,N,08009.7296,W,1,10,1.6,23,M,,M,,*63
06/12/2014	05:00:59.753	$GPGGA,050100,2543.8841,N,08009.7296,W,1,10,1.6,22,M,,M,,*6C
06/12/2014	05:01:00.744	$GPGGA,050101,2543.8840,N,08009.7296,W,1,9,1.7,22,M,,M,,*55
06/12/2014	05:01:01.746	$GPGGA,050102,2543.8839,N,08009.7296,W,1,9,1.7,22,M,,M,,*58
06/12/2014	05:01:02.779	$GPGGA,050103,2543.8838,N,08009.7296,W,1,9,1.7,22,M,,M,,*58
06/12/2014	05:01:03.768	$GPGGA,050104,2543.8837,N,08009.7296,W,1,9,1.7,22,M,,M,,*50
06/12/2014	05:01:04.811	$GPGGA,050105,2543.8839,N,08009.7296,W,1,9,1.7,22,M,,M,,*5F
06/12/2014	05:01:05.782	$GPGGA,050106,2543.8838,N,08009.7296,W,1,9,1.6,22,M,,M,,*5C
06/12/2014	05:01:06.814	$GPGGA,050107,2543.8840,N,08009.7296,W,1,10,1.6,22,M,,M,,*6A
06/12/2014	05:01:07.826	$GPGGA,050108,2543.8838,N,08009.7296,W,1,10,1.6,22,M,,M,,*6A
06/12/2014	05:01:08.827	$GPGGA,050109,2543.8837,N,08009.7296,W,1,9,1.7,22,M,,M,,*5D
06/12/2014	05:01:09.829	$GPGGA,050110,2543.8837,N,08009.7298,W,1,9,1.7,22,M,,M,,*5B
06/12/2014	05:01:10.861	$GPGGA,050111,2543.8839,N,08009.7296,W,1,10,1.6,22,M,,M,,*63
06/12/2014	05:01:11.863	$GPGGA,050112,2543.8838,N,08009.7298,W,1,10,1.6,22,M,,M,,*6F
06/12/2014	05:01:12.875	$GPGGA,050113,2543.8837,N,08009.7297,W,1,10,1.6,22,M,,M,,*6E
06/12/2014	05:01:13.866	$GPGGA,050114,2543.8837,N,08009.7298,W,1,10,1.6,22,M,,M,,*66
06/12/2014	05:01:14.908	$GPGGA,050115,2543.8839,N,08009.7297,W,1,10,1.6,22,M,,M,,*66
06/12/2014	05:01:15.900	$GPGGA,050116,2543.8838,N,08009.7298,W,1,10,1.6,22,M,,M,,*6B
06/12/2014	05:01:16.891	$GPGGA,050117,2543.8839,N,08009.7297,W,1,10,1.6,22,M,,M,,*64
06/12/2014	05:01:17.913	$GPGGA,050118,2543.8840,N,08009.7298,W,1,10,1.6,22,M,,M,,*6A
06/12/2014	05:01:18.945	$GPGGA,050119,2543.8840,N,08009.7297,W,1,10,1.6,22,M,,M,,*64
06/12/2014	05:01:19.947	$GPGGA,050120,2543.8839,N,08009.7298,W,1,10,1.6,22,M,,M,,*6F
06/12/2014	05:01:20.940	$GPGGA,050121,2543.8840,N,08009.7297,W,1,9,1.7,22,M,,M,,*56
06/12/2014	05:01:21.939	$GPGGA,050122,2543.8842,N,08009.7298,W,1,9,1.7,22,M,,M,,*58
06/12/2014	05:01:22.953	$GPGGA,050123,2543.8844,N,08009.7297,W,1,10,1.6,22,M,,M,,*69
06/12/2014	05:01:23.983	$GPGGA,050124,2543.8846,N,08009.7298,W,1,10,1.6,22,M,,M,,*63
06/12/2014	05:01:24.985	$GPGGA,050125,2543.8848,N,08009.7297,W,1,10,1.6,22,M,,M,,*63
06/12/2014	05:01:25.993	$GPGGA,050126,2543.8853,N,08009.7298,W,1,10,1.6,21,M,,M,,*66
06/12/2014	05:01:27.029	$GPGGA,050127,2543.8855,N,08009.7297,W,1,10,1.6,21,M,,M,,*6E
06/12/2014	05:01:28.135	$GPGGA,050128,2543.8857,N,08009.7298,W,1,10,1.6,21,M,,M,,*6C
06/12/2014	05:01:29.027	$GPGGA,050129,2543.8858,N,08009.7297,W,1,10,1.6,21,M,,M,,*6D
06/12/2014	05:01:30.007	$GPGGA,050130,2543.8861,N,08009.7298,W,1,10,1.6,21,M,,M,,*60
06/12/2014	05:01:31.073	$GPGGA,050131,2543.8859,N,08009.7296,W,1,10,1.6,21,M,,M,,*64
06/12/2014	05:01:32.066	$GPGGA,050132,2543.8859,N,08009.7296,W,1,10,1.6,21,M,,M,,*67
06/12/2014	05:01:33.125	$GPGGA,050133,2543.8859,N,08009.7296,W,1,10,1.6,20,M,,M,,*67
06/12/2014	05:01:34.031	$GPGGA,050134,2543.8859,N,08009.7296,W,1,10,1.6,20,M,,M,,*60
06/12/2014	05:01:35.047	$GPGGA,050135,2543.8859,N,08009.7296,W,1,10,1.6,20,M,,M,,*61
06/12/2014	05:01:36.179	$GPGGA,050136,2543.8858,N,08009.7296,W,1,10,1.6,20,M,,M,,*63
06/12/2014	05:01:37.048	$GPGGA,050137,2543.8857,N,08009.7296,W,1,10,1.6,20,M,,M,,*6D
06/12/2014	05:01:38.156	$GPGGA,050138,2543.8858,N,08009.7296,W,1,10,1.6,20,M,,M,,*6D
06/12/2014	05:01:39.059	$GPGGA,050139,2543.8856,N,08009.7296,W,1,10,1.6,20,M,,M,,*62
06/12/2014	05:01:40.065	$GPGGA,050140,2543.8857,N,08009.7296,W,1,10,1.6,19,M,,M,,*67
06/12/2014	05:01:41.061	$GPGGA,050141,2543.8855,N,08009.7296,W,1,10,1.6,19,M,,M,,*64
06/12/2014	05:01:42.168	$GPGGA,050142,2543.8855,N,08009.7298,W,1,10,1.6,19,M,,M,,*69
06/12/2014	05:01:43.173	$GPGGA,050143,2543.8855,N,08009.7297,W,1,10,1.6,19,M,,M,,*67
06/12/2014	05:01:44.180	$GPGGA,050144,2543.8855,N,08009.7298,W,1,10,1.6,19,M,,M,,*6F
06/12/2014	05:01:45.195	$GPGGA,050145,2543.8855,N,08009.7297,W,1,10,1.6,19,M,,M,,*61
06/12/2014	05:01:45.572	$GPGGA,050146,2543.8855,N,08009.7298,W,1,10,1.6,19,M,,M,,*6D
06/12/2014	05:01:46.588	$GPGGA,050147,2543.8855,N,08009.7297,W,1,10,1.6,19,M,,M,,*63
06/12/2014	05:01:47.594	$GPGGA,050148,2543.8855,N,08009.7298,W,1,10,1.6,19,M,,M,,*63
06/12/2014	05:01:48.610	$GPGGA,050149,2543.8855,N,08009.7297,W,1,10,1.6,19,M,,M,,*6D
06/12/2014	05:01:49.586	$GPGGA,050150,2543.8855,N,08009.7298,W,1,10,1.6,19,M,,M,,*6A
06/12/2014	05:01:50.602	$GPGGA,050151,2543.8855,N,08009.7298,W,1,10,1.6,19,M,,M,,*6B
06/12/2014	05:01:51.608	$GPGGA,050152,2543.8855,N,08009.7298,W,1,10,1.6,19,M,,M,,*68
06/12/2014	05:01:52.604	$GPGGA,050153,2543.8855,N,08009.7299,W,1,10,1.6,18,M,,M,,*69
06/12/2014	05:01:53.599	$GPGGA,050154,2543.8857,N,08009.7299,W,1,10,1.6,18,M,,M,,*6C
06/12/2014	05:01:54.615	$GPGGA,050155,2543.8856,N,08009.7299,W,1,10,1.6,18,M,,M,,*6C
06/12/2014	05:01:55.621	$GPGGA,050156,2543.8858,N,08009.7299,W,1,10,1.8,18,M,,M,,*6F
06/12/2014	05:01:56.626	$GPGGA,050157,2543.8855,N,08009.7299,W,1,9,1.6,18,M,,M,,*55
06/12/2014	05:01:57.612	$GPGGA,050158,2543.8855,N,08009.7299,W,1,9,1.6,18,M,,M,,*5A
06/12/2014	05:01:58.638	$GPGGA,050159,2543.8853,N,08009.7301,W,1,10,1.6,18,M,,M,,*65
06/12/2014	05:01:59.644	$GPGGA,050200,2543.8854,N,08009.7300,W,1,10,1.6,18,M,,M,,*6C
06/12/2014	05:02:00.630	$GPGGA,050201,2543.8853,N,08009.7301,W,1,10,1.8,18,M,,M,,*65
06/12/2014	05:02:01.636	$GPGGA,050202,2543.8854,N,08009.7299,W,1,10,1.8,18,M,,M,,*61
06/12/2014	05:02:02.662	$GPGGA,050203,2543.8853,N,08009.7299,W,1,9,1.8,18,M,,M,,*5F
06/12/2014	05:02:03.647	$GPGGA,050204,2543.8852,N,08009.7299,W,1,9,2.0,18,M,,M,,*52
06/12/2014	05:02:04.633	$GPGGA,050205,2543.8853,N,08009.7301,W,1,8,2.0,18,M,,M,,*53
06/12/2014	05:02:05.639	$GPGGA,050206,2543.8854,N,08009.7299,W,1,8,1.8,18,M,,M,,*5C
06/12/2014	05:02:06.675	$GPGGA,050207,2543.8852,N,08009.7301,W,1,9,2.0,18,M,,M,,*51
06/12/2014	05:02:07.661	$GPGGA,050208,2543.8858,N,08009.7300,W,1,9,1.8,18,M,,M,,*5E
06/12/2014	05:02:08.647	$GPGGA,050209,2543.8857,N,08009.7299,W,1,9,1.8,18,M,,M,,*51
06/12/2014	05:02:09.656	$GPGGA,050210,2543.8858,N,08009.7299,W,1,9,1.8,18,M,,M,,*56
06/12/2014	05:02:10.679	$GPGGA,050211,2543.8858,N,08009.7299,W,1,9,1.8,18,M,,M,,*57
06/12/2014	05:02:11.685	$GPGGA,050212,2543.8856,N,08009.7299,W,1,9,2.0,18,M,,M,,*51
06/12/2014	05:02:12.690	$GPGGA,050213,2543.8855,N,08009.7299,W,1,8,2.0,18,M,,M,,*52
06/12/2014	05:02:13.665	$GPGGA,050214,2543.8857,N,08009.7299,W,1,8,1.8,18,M,,M,,*5C
06/12/2014	05:02:14.711	$GPGGA,050215,2543.8858,N,08009.7299,W,1,9,1.8,18,M,,M,,*53
06/12/2014	05:02:15.707	$GPGGA,050216,2543.8857,N,08009.7299,W,1,9,1.8,18,M,,M,,*5F
06/12/2014	05:02:16.683	$GPGGA,050217,2543.8858,N,08009.7299,W,1,9,1.8,18,M,,M,,*51
06/12/2014	05:02:17.701	$GPGGA,050218,2543.8855,N,08009.7299,W,1,9,2.0,18,M,,M,,*58
06/12/2014	05:02:18.725	$GPGGA,050219,2543.8855,N,08009.7299,W,1,8,1.8,18,M,,M,,*53
06/12/2014	05:02:19.712	$GPGGA,050220,2543.8855,N,08009.7299,W,1,8,2.0,18,M,,M,,*52
06/12/2014	05:02:20.696	$GPGGA,050221,2543.8853,N,08009.7301,W,1,8,1.8,18,M,,M,,*5E
06/12/2014	05:02:21.829	$GPGGA,050222,2543.8852,N,08009.7299,W,1,8,2.0,18,M,,M,,*57
06/12/2014	05:02:22.800	$GPGGA,050223,2543.8854,N,08009.7299,W,1,8,1.8,18,M,,M,,*5B
06/12/2014	05:02:23.735	$GPGGA,050224,2543.8852,N,08009.7299,W,1,8,1.8,18,M,,M,,*5A
06/12/2014	05:02:24.861	$GPGGA,050225,2543.8851,N,08009.7299,W,1,9,1.8,18,M,,M,,*59
06/12/2014	05:02:25.746	$GPGGA,050226,2543.8850,N,08009.7299,W,1,9,1.8,18,M,,M,,*5B
06/12/2014	05:02:26.782	$GPGGA,050227,2543.8848,N,08009.7299,W,1,9,1.6,18,M,,M,,*5D
06/12/2014	05:02:27.839	$GPGGA,050228,2543.8846,N,08009.7299,W,1,9,1.6,18,M,,M,,*5C
06/12/2014	05:02:28.758	$GPGGA,050229,2543.8845,N,08009.7299,W,1,10,1.5,18,M,,M,,*65
06/12/2014	05:02:29.841	$GPGGA,050230,2543.8844,N,08009.7298,W,1,10,1.5,18,M,,M,,*6D
06/12/2014	05:02:30.756	$GPGGA,050231,2543.8844,N,08009.7299,W,1,10,1.5,18,M,,M,,*6D
06/12/2014	05:02:31.861	$GPGGA,050232,2543.8844,N,08009.7299,W,1,10,1.5,18,M,,M,,*6E
06/12/2014	05:02:32.847	$GPGGA,050233,2543.8846,N,08009.7298,W,1,10,1.5,18,M,,M,,*6C
06/12/2014	05:02:33.853	$GPGGA,050234,2543.8845,N,08009.7298,W,1,10,1.5,18,M,,M,,*68
06/12/2014	05:02:34.879	$GPGGA,050235,2543.8846,N,08009.7298,W,1,10,1.5,18,M,,M,,*6A
06/12/2014	05:02:35.874	$GPGGA,050236,2543.8847,N,08009.7298,W,1,10,1.5,19,M,,M,,*69
06/12/2014	05:02:36.870	$GPGGA,050237,2543.8845,N,08009.7298,W,1,10,1.6,19,M,,M,,*69
06/12/2014	05:02:37.876	$GPGGA,050238,2543.8844,N,08009.7298,W,1,10,1.6,19,M,,M,,*67
06/12/2014	05:02:38.882	$GPGGA,050239,2543.8844,N,08009.7298,W,1,10,1.5,19,M,,M,,*65
06/12/2014	05:02:39.888	$GPGGA,050240,2543.8844,N,08009.7298,W,1,10,1.5,19,M,,M,,*6B
06/12/2014	05:02:40.874	$GPGGA,050241,2543.8842,N,08009.7297,W,1,10,1.5,19,M,,M,,*63
06/12/2014	05:02:41.880	$GPGGA,050242,2543.8843,N,08009.7298,W,1,10,1.5,19,M,,M,,*6E
06/12/2014	05:02:42.906	$GPGGA,050243,2543.8841,N,08009.7297,W,1,10,1.5,19,M,,M,,*62
06/12/2014	05:02:43.901	$GPGGA,050244,2543.8840,N,08009.7298,W,1,10,1.5,19,M,,M,,*6B
06/12/2014	05:02:44.897	$GPGGA,050245,2543.8840,N,08009.7296,W,1,10,1.5,19,M,,M,,*64
06/12/2014	05:02:45.550	$GPGGA,050246,2543.8840,N,08009.7296,W,1,10,1.5,19,M,,M,,*67
06/12/2014	05:02:46.536	$GPGGA,050247,2543.8840,N,08009.7296,W,1,10,1.5,19,M,,M,,*66
06/12/2014	05:02:47.562	$GPGGA,050248,2543.8840,N,08009.7296,W,1,10,1.5,20,M,,M,,*63
06/12/2014	05:02:48.547	$GPGGA,050249,2543.8840,N,08009.7296,W,1,10,1.5,20,M,,M,,*62
06/12/2014	05:02:49.553	$GPGGA,050250,2543.8840,N,08009.7296,W,1,10,1.5,20,M,,M,,*6A
06/12/2014	05:02:50.559	$GPGGA,050251,2543.8840,N,08009.7296,W,1,10,1.5,20,M,,M,,*6B
06/12/2014	05:02:51.585	$GPGGA,050252,2543.8840,N,08009.7296,W,1,10,1.5,20,M,,M,,*68
06/12/2014	05:02:52.560	$GPGGA,050253,2543.8840,N,08009.7296,W,1,10,1.5,20,M,,M,,*69
06/12/2014	05:02:53.576	$GPGGA,050254,2543.8840,N,08009.7293,W,1,10,1.5,20,M,,M,,*6B
06/12/2014	05:02:54.612	$GPGGA,050255,2543.8839,N,08009.7292,W,1,10,1.4,20,M,,M,,*64
06/12/2014	05:02:55.598	$GPGGA,050256,2543.8840,N,08009.7292,W,1,10,1.4,20,M,,M,,*69
06/12/2014	05:02:56.614	$GPGGA,050257,2543.8839,N,08009.7291,W,1,10,1.4,20,M,,M,,*65
06/12/2014	05:02:57.590	$GPGGA,050258,2543.8838,N,08009.7290,W,1,10,1.4,20,M,,M,,*6A
06/12/2014	05:02:58.706	$GPGGA,050259,2543.8839,N,08009.7290,W,1,10,1.4,20,M,,M,,*6A
06/12/2014	05:02:59.622	$GPGGA,050300,2543.8838,N,08009.7289,W,1,10,1.4,21,M,,M,,*6F
06/12/2014	05:03:00.628	$GPGGA,050301,2543.8839,N,08009.7288,W,1,10,1.4,21,M,,M,,*6E
06/12/2014	05:03:01.604	$GPGGA,050302,2543.8840,N,08009.7288,W,1,10,1.4,21,M,,M,,*63
06/12/2014	05:03:02.639	$GPGGA,050303,2543.8839,N,08009.7287,W,1,10,1.4,21,M,,M,,*63
06/12/2014	05:03:03.615	$GPGGA,050304,2543.8840,N,08009.7287,W,1,10,1.4,21,M,,M,,*6A
06/12/2014	05:03:04.641	$GPGGA,050305,2543.8839,N,08009.7287,W,1,10,1.4,21,M,,M,,*65
06/12/2014	05:03:05.632	$GPGGA,050306,2543.8840,N,08009.7287,W,1,10,1.4,21,M,,M,,*68
06/12/2014	05:03:06.750	$GPGGA,050307,2543.8842,N,08009.7286,W,1,10,1.4,21,M,,M,,*6A
06/12/2014	05:03:07.640	$GPGGA,050308,2543.8841,N,08009.7287,W,1,10,1.4,21,M,,M,,*67
06/12/2014	05:03:08.624	$GPGGA,050309,2543.8843,N,08009.7286,W,1,10,1.4,22,M,,M,,*66
06/12/2014	05:03:09.754	$GPGGA,050310,2543.8842,N,08009.7285,W,1,10,1.4,22,M,,M,,*6C
06/12/2014	05:03:10.736	$GPGGA,050311,2543.8843,N,08009.7285,W,1,10,1.4,22,M,,M,,*6C
06/12/2014	05:03:11.671	$GPGGA,050312,2543.8842,N,08009.7284,W,1,10,1.4,22,M,,M,,*6F
06/12/2014	05:03:12.738	$GPGGA,050313,2543.8843,N,08009.7284,W,1,10,1.4,22,M,,M,,*6F
06/12/2014	05:03:13.643	$GPGGA,050314,2543.8842,N,08009.7284,W,1,10,1.4,22,M,,M,,*69
06/12/2014	05:03:14.784	$GPGGA,050315,2543.8843,N,08009.7284,W,1,10,1.4,22,M,,M,,*69
06/12/2014	05:03:15.776	$GPGGA,050316,2543.8842,N,08009.7284,W,1,10,1.4,22,M,,M,,*6B
06/12/2014	05:03:16.691	$GPGGA,050317,2543.8843,N,08009.7284,W,1,10,1.4,22,M,,M,,*6B
06/12/2014	05:03:17.756	$GPGGA,050318,2543.8842,N,08009.7283,W,1,10,1.4,22,M,,M,,*62
06/12/2014	05:03:18.671	$GPGGA,050319,2543.8843,N,08009.7283,W,1,10,1.4,22,M,,M,,*62
06/12/2014	05:03:19.786	$GPGGA,050320,2543.8842,N,08009.7283,W,1,10,1.4,23,M,,M,,*68
06/12/2014	05:03:20.783	$GPGGA,050321,2543.8843,N,08009.7283,W,1,10,1.4,23,M,,M,,*68
06/12/2014	05:03:21.767	$GPGGA,050322,2543.8842,N,08009.7283,W,1,10,1.4,23,M,,M,,*6A
06/12/2014	05:03:22.792	$GPGGA,050323,2543.8843,N,08009.7283,W,1,10,1.4,23,M,,M,,*6A
06/12/2014	05:03:23.796	$GPGGA,050324,2543.8842,N,08009.7283,W,1,10,1.4,23,M,,M,,*6C
06/12/2014	05:03:24.801	$GPGGA,050325,2543.8843,N,08009.7283,W,1,10,1.4,23,M,,M,,*6C
06/12/2014	05:03:25.796	$GPGGA,050326,2543.8842,N,08009.7283,W,1,10,1.4,23,M,,M,,*6E
06/12/2014	05:03:26.811	$GPGGA,050327,2543.8843,N,08009.7283,W,1,10,1.4,23,M,,M,,*6E
06/12/2014	05:03:27.816	$GPGGA,050328,2543.8841,N,08009.7283,W,1,10,1.4,23,M,,M,,*63
06/12/2014	05:03:28.821	$GPGGA,050329,2543.8842,N,08009.7283,W,1,10,1.4,23,M,,M,,*61
06/12/2014	05:03:29.796	$GPGGA,050330,2543.8841,N,08009.7283,W,1,10,1.4,23,M,,M,,*6A
06/12/2014	05:03:30.832	$GPGGA,050331,2543.8842,N,08009.7283,W,1,10,1.4,23,M,,M,,*68
06/12/2014	05:03:31.827	$GPGGA,050332,2543.8841,N,08009.7283,W,1,10,1.4,23,M,,M,,*68
06/12/2014	05:03:32.832	$GPGGA,050333,2543.8842,N,08009.7283,W,1,10,1.4,23,M,,M,,*6A
06/12/2014	05:03:33.817	$GPGGA,050334,2543.8841,N,08009.7284,W,1,10,1.4,23,M,,M,,*69
06/12/2014	05:03:34.842	$GPGGA,050335,2543.8842,N,08009.7284,W,1,10,1.4,23,M,,M,,*6B
06/12/2014	05:03:35.837	$GPGGA,050336,2543.8841,N,08009.7284,W,1,10,1.4,23,M,,M,,*6B
06/12/2014	05:03:36.812	$GPGGA,050337,2543.8842,N,08009.7284,W,1,10,1.4,23,M,,M,,*69
06/12/2014	05:03:37.827	$GPGGA,050338,2543.8841,N,08009.7284,W,1,10,1.4,23,M,,M,,*65
06/12/2014	05:03:38.852	$GPGGA,050339,2543.8842,N,08009.7283,W,1,10,1.4,23,M,,M,,*60
06/12/2014	05:03:39.847	$GPGGA,050340,2543.8841,N,08009.7283,W,1,10,1.4,23,M,,M,,*6D
06/12/2014	05:03:40.832	$GPGGA,050341,2543.8842,N,08009.7283,W,1,10,1.4,23,M,,M,,*6F
06/12/2014	05:03:41.846	$GPGGA,050342,2543.8841,N,08009.7283,W,1,10,1.4,23,M,,M,,*6F
06/12/2014	05:03:42.862	$GPGGA,050343,2543.8842,N,08009.7283,W,1,10,1.4,23,M,,M,,*6D
06/12/2014	05:03:43.857	$GPGGA,050344,2543.8840,N,08009.7283,W,1,10,1.4,23,M,,M,,*68
06/12/2014	05:03:44.872	$GPGGA,050345,2543.8840,N,08009.7283,W,1,10,1.4,23,M,,M,,*69
06/12/2014	05:03:45.524	$GPGGA,050346,2543.8839,N,08009.7283,W,1,10,1.4,23,M,,M,,*64
06/12/2014	05:03:46.573	$GPGGA,050347,2543.8840,N,08009.7283,W,1,11,1.4,23,M,,M,,*6A
06/12/2014	05:03:47.541	$GPGGA,050348,2543.8839,N,08009.7283,W,1,11,1.4,23,M,,M,,*6B
06/12/2014	05:03:48.530	$GPGGA,050349,2543.8838,N,08009.7283,W,1,11,1.4,23,M,,M,,*6B
06/12/2014	05:03:49.541	$GPGGA,050350,2543.8839,N,08009.7283,W,1,11,1.4,23,M,,M,,*62
06/12/2014	05:03:50.563	$GPGGA,050351,2543.8838,N,08009.7283,W,1,11,1.4,23,M,,M,,*62
06/12/2014	05:03:51.554	$GPGGA,050352,2543.8839,N,08009.7283,W,1,11,1.4,23,M,,M,,*60
06/12/2014	05:03:52.563	$GPGGA,050353,2543.8837,N,08009.7282,W,1,11,1.4,23,M,,M,,*6E
06/12/2014	05:03:53.550	$GPGGA,050354,2543.8837,N,08009.7283,W,1,11,1.4,23,M,,M,,*68
06/12/2014	05:03:54.665	$GPGGA,050355,2543.8837,N,08009.7282,W,1,11,1.4,23,M,,M,,*68
06/12/2014	05:03:55.560	$GPGGA,050356,2543.8837,N,08009.7283,W,1,11,1.4,23,M,,M,,*6A
06/12/2014	05:03:56.580	$GPGGA,050357,2543.8837,N,08009.7283,W,1,11,1.4,23,M,,M,,*6B
06/12/2014	05:03:57.549	$GPGGA,050358,2543.8837,N,08009.7282,W,1,11,1.4,23,M,,M,,*65
06/12/2014	05:03:58.683	$GPGGA,050359,2543.8837,N,08009.7283,W,1,11,1.4,23,M,,M,,*65
06/12/2014	05:03:59.593	$GPGGA,050400,2543.8837,N,08009.7283,W,1,11,1.4,23,M,,M,,*6E
06/12/2014	05:04:00.697	$GPGGA,050401,2543.8837,N,08009.7283,W,1,11,1.4,23,M,,M,,*6F
06/12/2014	05:04:01.668	$GPGGA,050402,2543.8837,N,08009.7283,W,1,11,1.4,23,M,,M,,*6C
06/12/2014	05:04:02.684	$GPGGA,050403,2543.8837,N,08009.7283,W,1,11,1.4,23,M,,M,,*6D
06/12/2014	05:04:03.589	$GPGGA,050404,2543.8837,N,08009.7283,W,1,11,1.4,23,M,,M,,*6A
06/12/2014	05:04:04.708	$GPGGA,050405,2543.8837,N,08009.7284,W,1,11,1.4,23,M,,M,,*6C
06/12/2014	05:04:05.679	$GPGGA,050406,2543.8837,N,08009.7284,W,1,11,1.4,23,M,,M,,*6F
06/12/2014	05:04:06.694	$GPGGA,050407,2543.8837,N,08009.7284,W,1,11,1.4,23,M,,M,,*6E
06/12/2014	05:04:07.689	$GPGGA,050408,2543.8837,N,08009.7284,W,1,11,1.4,23,M,,M,,*61
06/12/2014	05:04:08.694	$GPGGA,050409,2543.8837,N,08009.7284,W,1,11,1.4,23,M,,M,,*60
06/12/2014	05:04:09.689	$GPGGA,050410,2543.8837,N,08009.7285,W,1,11,1.4,23,M,,M,,*69
06/12/2014	05:04:10.724	$GPGGA,050411,2543.8837,N,08009.7285,W,1,11,1.4,23,M,,M,,*68
06/12/2014	05:04:11.709	$GPGGA,050412,2543.8837,N,08009.7285,W,1,11,1.4,23,M,,M,,*6B
06/12/2014	05:04:12.725	$GPGGA,050413,2543.8837,N,08009.7287,W,1,11,1.4,23,M,,M,,*68
06/12/2014	05:04:13.700	$GPGGA,050414,2543.8837,N,08009.7286,W,1,11,1.4,23,M,,M,,*6E
06/12/2014	05:04:14.725	$GPGGA,050415,2543.8835,N,08009.7287,W,1,11,1.4,23,M,,M,,*6C
06/12/2014	05:04:15.730	$GPGGA,050416,2543.8836,N,08009.7286,W,1,11,1.4,23,M,,M,,*6D
06/12/2014	05:04:16.734	$GPGGA,050417,2543.8835,N,08009.7287,W,1,11,1.4,23,M,,M,,*6E
06/12/2014	05:04:17.719	$GPGGA,050418,2543.8836,N,08009.7287,W,1,11,1.4,23,M,,M,,*62
06/12/2014	05:04:18.734	$GPGGA,050419,2543.8835,N,08009.7287,W,1,11,1.4,23,M,,M,,*60
06/12/2014	05:04:19.729	$GPGGA,050420,2543.8836,N,08009.7286,W,1,11,1.4,23,M,,M,,*68
06/12/2014	05:04:20.744	$GPGGA,050421,2543.8835,N,08009.7287,W,1,11,1.4,23,M,,M,,*6B
06/12/2014	05:04:21.729	$GPGGA,050422,2543.8834,N,08009.7286,W,1,11,1.4,23,M,,M,,*68
06/12/2014	05:04:22.724	$GPGGA,050423,2543.8835,N,08009.7287,W,1,11,1.4,23,M,,M,,*69
06/12/2014	05:04:23.750	$GPGGA,050424,2543.8834,N,08009.7286,W,1,11,1.4,23,M,,M,,*6E
06/12/2014	05:04:24.755	$GPGGA,050425,2543.8835,N,08009.7287,W,1,11,1.4,23,M,,M,,*6F
06/12/2014	05:04:25.740	$GPGGA,050426,2543.8834,N,08009.7287,W,1,11,1.4,23,M,,M,,*6D
06/12/2014	05:04:26.735	$GPGGA,050427,2543.8835,N,08009.7287,W,1,11,1.4,23,M,,M,,*6D
06/12/2014	05:04:27.770	$GPGGA,050428,2543.8833,N,08009.7287,W,1,11,1.4,23,M,,M,,*64
06/12/2014	05:04:28.737	$GPGGA,050429,2543.8833,N,08009.7287,W,1,11,1.4,23,M,,M,,*65
06/12/2014	05:04:29.745	$GPGGA,050430,2543.8833,N,08009.7288,W,1,11,1.5,22,M,,M,,*62
06/12/2014	05:04:30.775	$GPGGA,050431,2543.8833,N,08009.7288,W,1,10,1.5,22,M,,M,,*62
06/12/2014	05:04:31.770	$GPGGA,050432,2543.8833,N,08009.7290,W,1,10,1.5,22,M,,M,,*68
06/12/2014	05:04:32.761	$GPGGA,050433,2543.8833,N,08009.7290,W,1,10,1.5,22,M,,M,,*69
06/12/2014	05:04:33.769	$GPGGA,050434,2543.8833,N,08009.7290,W,1,10,1.5,22,M,,M,,*6E
06/12/2014	05:04:34.795	$GPGGA,050435,2543.8833,N,08009.7290,W,1,10,1.5,22,M,,M,,*6F
06/12/2014	05:04:35.773	$GPGGA,050436,2543.8831,N,08009.7290,W,1,10,1.5,22,M,,M,,*6E
06/12/2014	05:04:36.805	$GPGGA,050437,2543.8832,N,08009.7291,W,1,10,1.5,22,M,,M,,*6D
06/12/2014	05:04:37.782	$GPGGA,050438,2543.8831,N,08009.7291,W,1,10,1.5,22,M,,M,,*61
06/12/2014	05:04:38.778	$GPGGA,050439,2543.8832,N,08009.7291,W,1,10,1.5,22,M,,M,,*63
06/12/2014	05:04:39.800	$GPGGA,050440,2543.8831,N,08009.7290,W,1,10,1.5,22,M,,M,,*6F
06/12/2014	05:04:40.805	$GPGGA,050441,2543.8832,N,08009.7291,W,1,10,1.5,22,M,,M,,*6C
06/12/2014	05:04:41.790	$GPGGA,050442,2543.8831,N,08009.7291,W,1,10,1.5,22,M,,M,,*6C
06/12/2014	05:04:42.785	$GPGGA,050443,2543.8832,N,08009.7291,W,1,10,1.5,21,M,,M,,*6D
06/12/2014	05:04:43.814	$GPGGA,050444,2543.8831,N,08009.7291,W,1,10,1.5,21,M,,M,,*69
06/12/2014	05:04:44.795	$GPGGA,050445,2543.8832,N,08009.7291,W,1,10,1.5,21,M,,M,,*6B
06/12/2014	05:04:45.597	$GPGGA,050446,2543.8831,N,08009.7291,W,1,10,1.5,21,M,,M,,*6B
06/12/2014	05:04:46.523	$GPGGA,050447,2543.8832,N,08009.7291,W,1,10,1.5,21,M,,M,,*69
06/12/2014	05:04:47.506	$GPGGA,050448,2543.8833,N,08009.7291,W,1,10,1.5,21,M,,M,,*67
06/12/2014	05:04:48.501	$GPGGA,050449,2543.8833,N,08009.7291,W,1,10,1.5,21,M,,M,,*66
06/12/2014	05:04:49.520	$GPGGA,050450,2543.8833,N,08009.7291,W,1,10,1.5,21,M,,M,,*6E
06/12/2014	05:04:50.702	$GPGGA,050451,2543.8831,N,08009.7291,W,1,10,1.5,21,M,,M,,*6D
06/12/2014	05:04:51.686	$GPGGA,050452,2543.8832,N,08009.7291,W,1,10,1.5,21,M,,M,,*6D
06/12/2014	05:04:52.711	$GPGGA,050453,2543.8831,N,08009.7291,W,1,10,1.5,21,M,,M,,*6F
06/12/2014	05:04:53.525	$GPGGA,050454,2543.8832,N,08009.7291,W,1,10,1.5,21,M,,M,,*6B
06/12/2014	05:04:54.711	$GPGGA,050455,2543.8831,N,08009.7291,W,1,10,1.5,21,M,,M,,*69
06/12/2014	05:04:57.003	$GPGGA,050457,2543.8830,N,08009.7291,W,1,10,1.5,21,M,,M,,*6A
06/12/2014	05:04:57.626	$GPGGA,050458,2543.8830,N,08009.7291,W,1,10,1.5,21,M,,M,,*65
06/12/2014	05:04:58.722	$GPGGA,050459,2543.8830,N,08009.7291,W,1,10,1.5,20,M,,M,,*65
06/12/2014	05:04:59.646	$GPGGA,050500,2543.8830,N,08009.7291,W,1,10,1.5,20,M,,M,,*68
06/12/2014	05:05:00.702	$GPGGA,050501,2543.8830,N,08009.7291,W,1,10,1.5,20,M,,M,,*69
06/12/2014	05:05:01.697	$GPGGA,050502,2543.8830,N,08009.7291,W,1,10,1.5,20,M,,M,,*6A
06/12/2014	05:05:02.752	$GPGGA,050503,2543.8832,N,08009.7291,W,1,10,1.5,20,M,,M,,*69
06/12/2014	05:05:03.707	$GPGGA,050504,2543.8830,N,08009.7291,W,1,10,1.5,20,M,,M,,*6C
06/12/2014	05:05:04.652	$GPGGA,050505,2543.8830,N,08009.7291,W,1,10,1.5,20,M,,M,,*6D
06/12/2014	05:05:05.647	$GPGGA,050506,2543.8830,N,08009.7291,W,1,10,1.5,20,M,,M,,*6E
06/12/2014	05:05:06.772	$GPGGA,050507,2543.8830,N,08009.7291,W,1,10,1.5,20,M,,M,,*6F
06/12/2014	05:05:07.667	$GPGGA,050508,2543.8830,N,08009.7291,W,1,10,1.5,20,M,,M,,*60
06/12/2014	05:05:08.772	$GPGGA,050509,2543.8832,N,08009.7291,W,1,10,1.5,20,M,,M,,*63
06/12/2014	05:05:09.686	$GPGGA,050510,2543.8831,N,08009.7291,W,1,10,1.5,20,M,,M,,*68
06/12/2014	05:05:10.762	$GPGGA,050511,2543.8832,N,08009.7291,W,1,10,1.5,20,M,,M,,*6A
06/12/2014	05:05:11.716	$GPGGA,050512,2543.8831,N,08009.7291,W,1,10,1.5,20,M,,M,,*6A
06/12/2014	05:05:12.782	$GPGGA,050513,2543.8832,N,08009.7290,W,1,10,1.4,20,M,,M,,*68
06/12/2014	05:05:13.717	$GPGGA,050514,2543.8833,N,08009.7290,W,1,10,1.5,20,M,,M,,*6F
06/12/2014	05:05:14.742	$GPGGA,050515,2543.8833,N,08009.7290,W,1,10,1.5,20,M,,M,,*6E
06/12/2014	05:05:15.687	$GPGGA,050516,2543.8833,N,08009.7290,W,1,10,1.5,20,M,,M,,*6D
06/12/2014	05:05:16.802	$GPGGA,050517,2543.8833,N,08009.7291,W,1,10,1.5,20,M,,M,,*6D
06/12/2014	05:05:17.717	$GPGGA,050518,2543.8833,N,08009.7291,W,1,10,1.5,20,M,,M,,*62
06/12/2014	05:05:18.812	$GPGGA,050519,2543.8833,N,08009.7291,W,1,10,1.5,20,M,,M,,*63
06/12/2014	05:05:19.737	$GPGGA,050520,2543.8833,N,08009.7291,W,1,10,1.5,20,M,,M,,*69
06/12/2014	05:05:20.782	$GPGGA,050521,2543.8833,N,08009.7291,W,1,10,1.5,20,M,,M,,*68
06/12/2014	05:05:21.738	$GPGGA,050522,2543.8833,N,08009.7291,W,1,10,1.5,20,M,,M,,*6B
06/12/2014	05:05:22.813	$GPGGA,050523,2543.8833,N,08009.7291,W,1,10,1.5,20,M,,M,,*6A
06/12/2014	05:05:23.748	$GPGGA,050524,2543.8833,N,08009.7291,W,1,10,1.5,20,M,,M,,*6D
06/12/2014	05:05:24.813	$GPGGA,050525,2543.8833,N,08009.7291,W,1,10,1.5,20,M,,M,,*6C
06/12/2014	05:05:25.707	$GPGGA,050526,2543.8833,N,08009.7291,W,1,10,1.5,20,M,,M,,*6F
06/12/2014	05:05:26.852	$GPGGA,050527,2543.8833,N,08009.7291,W,1,10,1.5,20,M,,M,,*6E
06/12/2014	05:05:27.767	$GPGGA,050528,2543.8833,N,08009.7290,W,1,10,1.5,20,M,,M,,*60
06/12/2014	05:05:28.832	$GPGGA,050529,2543.8833,N,08009.7290,W,1,10,1.5,20,M,,M,,*61
06/12/2014	05:05:29.717	$GPGGA,050530,2543.8835,N,08009.7290,W,1,10,1.5,20,M,,M,,*6F
06/12/2014	05:05:30.832	$GPGGA,050531,2543.8834,N,08009.7289,W,1,9,1.8,20,M,,M,,*52
06/12/2014	05:05:31.787	$GPGGA,050532,2543.8835,N,08009.7290,W,1,9,1.5,20,M,,M,,*55
06/12/2014	05:05:32.833	$GPGGA,050533,2543.8836,N,08009.7289,W,1,10,1.8,20,M,,M,,*6A
06/12/2014	05:05:33.757	$GPGGA,050534,2543.8837,N,08009.7290,W,1,10,1.8,20,M,,M,,*64
06/12/2014	05:05:34.813	$GPGGA,050535,2543.8837,N,08009.7289,W,1,9,1.8,20,M,,M,,*55
06/12/2014	05:05:35.747	$GPGGA,050536,2543.8837,N,08009.7288,W,1,9,1.8,20,M,,M,,*57
06/12/2014	05:05:36.883	$GPGGA,050537,2543.8839,N,08009.7288,W,1,9,1.8,20,M,,M,,*58
06/12/2014	05:05:37.778	$GPGGA,050538,2543.8840,N,08009.7288,W,1,9,1.5,20,M,,M,,*54
06/12/2014	05:05:38.853	$GPGGA,050539,2543.8839,N,08009.7287,W,1,10,1.8,20,M,,M,,*61
06/12/2014	05:05:39.798	$GPGGA,050540,2543.8840,N,08009.7287,W,1,10,1.8,20,M,,M,,*61
06/12/2014	05:05:40.753	$GPGGA,050541,2543.8840,N,08009.7287,W,1,9,1.8,20,M,,M,,*58
06/12/2014	05:05:41.858	$GPGGA,050542,2543.8840,N,08009.7287,W,1,9,1.8,19,M,,M,,*51
06/12/2014	05:05:42.763	$GPGGA,050543,2543.8842,N,08009.7286,W,1,9,1.8,19,M,,M,,*53
06/12/2014	05:05:43.777	$GPGGA,050544,2543.8841,N,08009.7287,W,1,9,1.8,19,M,,M,,*56
06/12/2014	05:05:44.913	$GPGGA,050545,2543.8840,N,08009.7287,W,1,10,1.5,19,M,,M,,*63
06/12/2014	05:05:45.564	$GPGGA,050546,2543.8839,N,08009.7287,W,1,10,1.5,19,M,,M,,*6E
06/12/2014	05:05:46.609	$GPGGA,050547,2543.8838,N,08009.7286,W,1,10,1.5,19,M,,M,,*6F
06/12/2014	05:05:47.594	$GPGGA,050548,2543.8839,N,08009.7287,W,1,10,1.5,19,M,,M,,*60
06/12/2014	05:05:48.599	$GPGGA,050549,2543.8837,N,08009.7286,W,1,10,1.5,19,M,,M,,*6E
06/12/2014	05:05:49.594	$GPGGA,050550,2543.8837,N,08009.7287,W,1,10,1.5,19,M,,M,,*67
06/12/2014	05:05:50.609	$GPGGA,050551,2543.8835,N,08009.7287,W,1,10,1.5,19,M,,M,,*64
06/12/2014	05:05:51.639	$GPGGA,050552,2543.8836,N,08009.7287,W,1,10,1.5,19,M,,M,,*64
06/12/2014	05:05:52.647	$GPGGA,050553,2543.8834,N,08009.7287,W,1,10,1.5,19,M,,M,,*67
06/12/2014	05:05:53.595	$GPGGA,050554,2543.8833,N,08009.7288,W,1,10,1.5,19,M,,M,,*68
06/12/2014	05:05:54.620	$GPGGA,050555,2543.8833,N,08009.7288,W,1,10,1.5,19,M,,M,,*69
06/12/2014	05:05:55.615	$GPGGA,050556,2543.8833,N,08009.7288,W,1,10,1.5,19,M,,M,,*6A
06/12/2014	05:05:56.640	$GPGGA,050557,2543.8830,N,08009.7287,W,1,10,1.4,19,M,,M,,*66
06/12/2014	05:05:57.605	$GPGGA,050558,2543.8830,N,08009.7286,W,1,10,1.4,19,M,,M,,*68
06/12/2014	05:05:58.650	$GPGGA,050559,2543.8829,N,08009.7285,W,1,11,1.4,19,M,,M,,*63
06/12/2014	05:05:59.636	$GPGGA,050600,2543.8829,N,08009.7284,W,1,11,1.4,20,M,,M,,*67
06/12/2014	05:06:00.659	$GPGGA,050601,2543.8829,N,08009.7284,W,1,11,1.4,20,M,,M,,*66
06/12/2014	05:06:01.652	$GPGGA,050602,2543.8828,N,08009.7284,W,1,11,1.4,20,M,,M,,*64
06/12/2014	05:06:02.636	$GPGGA,050603,2543.8828,N,08009.7284,W,1,11,1.4,20,M,,M,,*65
06/12/2014	05:06:03.640	$GPGGA,050604,2543.8828,N,08009.7285,W,1,11,1.4,20,M,,M,,*63
06/12/2014	05:06:04.665	$GPGGA,050605,2543.8829,N,08009.7285,W,1,11,1.4,20,M,,M,,*63
06/12/2014	05:06:05.629	$GPGGA,050606,2543.8827,N,08009.7285,W,1,11,1.4,20,M,,M,,*6E
06/12/2014	05:06:06.684	$GPGGA,050607,2543.8827,N,08009.7285,W,1,11,1.4,20,M,,M,,*6F
06/12/2014	05:06:07.647	$GPGGA,050608,2543.8827,N,08009.7285,W,1,11,1.4,20,M,,M,,*60
06/12/2014	05:06:08.671	$GPGGA,050609,2543.8827,N,08009.7285,W,1,11,1.4,20,M,,M,,*61
06/12/2014	05:06:09.656	$GPGGA,050610,2543.8827,N,08009.7285,W,1,11,1.4,21,M,,M,,*68
06/12/2014	05:06:10.660	$GPGGA,050611,2543.8827,N,08009.7285,W,1,11,1.4,21,M,,M,,*69
06/12/2014	05:06:11.664	$GPGGA,050612,2543.8827,N,08009.7285,W,1,11,1.4,21,M,,M,,*6A
06/12/2014	05:06:12.743	$GPGGA,050613,2543.8827,N,08009.7285,W,1,11,1.4,21,M,,M,,*6B
06/12/2014	05:06:13.642	$GPGGA,050614,2543.8829,N,08009.7285,W,1,11,1.6,21,M,,M,,*60
06/12/2014	05:06:14.656	$GPGGA,050615,2543.8829,N,08009.7285,W,1,10,1.6,21,M,,M,,*60
06/12/2014	05:06:15.671	$GPGGA,050616,2543.8830,N,08009.7285,W,1,10,1.6,21,M,,M,,*6B
06/12/2014	05:06:16.725	$GPGGA,050617,2543.8833,N,08009.7285,W,1,10,1.6,21,M,,M,,*69
06/12/2014	05:06:17.650	$GPGGA,050618,2543.8833,N,08009.7285,W,1,10,1.6,21,M,,M,,*66
06/12/2014	05:06:18.682	$GPGGA,050619,2543.8833,N,08009.7285,W,1,10,1.6,21,M,,M,,*67
06/12/2014	05:06:19.676	$GPGGA,050620,2543.8835,N,08009.7285,W,1,10,1.6,21,M,,M,,*6B
06/12/2014	05:06:20.681	$GPGGA,050621,2543.8835,N,08009.7285,W,1,10,1.6,21,M,,M,,*6A
06/12/2014	05:06:21.685	$GPGGA,050622,2543.8834,N,08009.7285,W,1,10,1.6,21,M,,M,,*68
06/12/2014	05:06:22.800	$GPGGA,050623,2543.8835,N,08009.7285,W,1,10,1.6,21,M,,M,,*68
06/12/2014	05:06:23.693	$GPGGA,050624,2543.8835,N,08009.7284,W,1,10,1.6,21,M,,M,,*6E
06/12/2014	05:06:24.788	$GPGGA,050625,2543.8837,N,08009.7284,W,1,10,1.6,21,M,,M,,*6D
06/12/2014	05:06:25.672	$GPGGA,050626,2543.8837,N,08009.7284,W,1,10,1.6,21,M,,M,,*6E
06/12/2014	05:06:26.766	$GPGGA,050627,2543.8835,N,08009.7284,W,1,10,1.6,21,M,,M,,*6D
06/12/2014	05:06:27.807	$GPGGA,050628,2543.8836,N,08009.7284,W,1,10,1.6,21,M,,M,,*61
06/12/2014	05:06:28.774	$GPGGA,050629,2543.8835,N,08009.7284,W,1,10,1.6,21,M,,M,,*63
06/12/2014	05:06:29.770	$GPGGA,050630,2543.8836,N,08009.7284,W,1,10,1.6,21,M,,M,,*68
06/12/2014	05:06:30.819	$GPGGA,050631,2543.8835,N,08009.7284,W,1,10,1.6,21,M,,M,,*6A
06/12/2014	05:06:31.787	$GPGGA,050632,2543.8836,N,08009.7284,W,1,10,1.6,21,M,,M,,*6A
06/12/2014	05:06:32.791	$GPGGA,050633,2543.8835,N,08009.7284,W,1,10,1.6,21,M,,M,,*68
06/12/2014	05:06:33.695	$GPGGA,050634,2543.8836,N,08009.7283,W,1,10,1.6,21,M,,M,,*6B
06/12/2014	05:06:34.780	$GPGGA,050635,2543.8835,N,08009.7284,W,1,10,1.6,21,M,,M,,*6E
06/12/2014	05:06:35.804	$GPGGA,050636,2543.8836,N,08009.7283,W,1,10,1.6,21,M,,M,,*69
06/12/2014	05:06:36.817	$GPGGA,050637,2543.8835,N,08009.7284,W,1,10,1.6,21,M,,M,,*6C
06/12/2014	05:06:37.791	$GPGGA,050638,2543.8836,N,08009.7284,W,1,10,1.6,21,M,,M,,*60
06/12/2014	05:06:38.836	$GPGGA,050639,2543.8837,N,08009.7284,W,1,10,1.6,21,M,,M,,*60
06/12/2014	05:06:39.810	$GPGGA,050640,2543.8837,N,08009.7284,W,1,10,1.6,21,M,,M,,*6E
06/12/2014	05:06:40.794	$GPGGA,050641,2543.8837,N,08009.7285,W,1,10,1.6,21,M,,M,,*6E
06/12/2014	05:06:41.808	$GPGGA,050642,2543.8837,N,08009.7285,W,1,10,1.6,21,M,,M,,*6D
06/12/2014	05:06:42.832	$GPGGA,050643,2543.8837,N,08009.7285,W,1,10,1.6,21,M,,M,,*6C
06/12/2014	05:06:43.816	$GPGGA,050644,2543.8837,N,08009.7285,W,1,10,1.6,21,M,,M,,*6B
06/12/2014	05:06:44.801	$GPGGA,050645,2543.8837,N,08009.7285,W,1,10,1.6,21,M,,M,,*6A
06/12/2014	05:06:45.552	$GPGGA,050646,2543.8837,N,08009.7285,W,1,10,1.6,21,M,,M,,*69
06/12/2014	05:06:46.576	$GPGGA,050647,2543.8839,N,08009.7285,W,1,10,1.6,21,M,,M,,*66
06/12/2014	05:06:47.561	$GPGGA,050648,2543.8838,N,08009.7285,W,1,10,1.6,21,M,,M,,*68
06/12/2014	05:06:48.585	$GPGGA,050649,2543.8839,N,08009.7285,W,1,10,1.6,21,M,,M,,*68
06/12/2014	05:06:49.559	$GPGGA,050650,2543.8838,N,08009.7285,W,1,10,1.6,21,M,,M,,*61
06/12/2014	05:06:50.593	$GPGGA,050651,2543.8839,N,08009.7285,W,1,10,1.6,21,M,,M,,*61
06/12/2014	05:06:51.587	$GPGGA,050652,2543.8838,N,08009.7285,W,1,10,1.6,21,M,,M,,*63
06/12/2014	05:06:52.582	$GPGGA,050653,2543.8840,N,08009.7285,W,1,10,1.6,21,M,,M,,*6D
06/12/2014	05:06:53.585	$GPGGA,050654,2543.8839,N,08009.7287,W,1,10,1.6,21,M,,M,,*66
06/12/2014	05:06:54.569	$GPGGA,050655,2543.8840,N,08009.7286,W,1,10,1.6,21,M,,M,,*68
06/12/2014	05:06:55.573	$GPGGA,050656,2543.8840,N,08009.7287,W,1,10,1.6,21,M,,M,,*6A
06/12/2014	05:06:56.617	$GPGGA,050657,2543.8840,N,08009.7285,W,1,10,1.6,21,M,,M,,*69
06/12/2014	05:06:57.581	$GPGGA,050658,2543.8840,N,08009.7285,W,1,10,1.6,21,M,,M,,*66
06/12/2014	05:06:58.569	$GPGGA,050659,2543.8840,N,08009.7285,W,1,10,1.6,21,M,,M,,*67
06/12/2014	05:06:59.610	$GPGGA,050700,2543.8842,N,08009.7285,W,1,10,1.6,21,M,,M,,*68
06/12/2014	05:07:00.604	$GPGGA,050701,2543.8841,N,08009.7285,W,1,10,1.6,20,M,,M,,*6B
06/12/2014	05:07:01.608	$GPGGA,050702,2543.8840,N,08009.7285,W,1,10,1.6,20,M,,M,,*69
06/12/2014	05:07:02.613	$GPGGA,050703,2543.8840,N,08009.7285,W,1,10,1.6,20,M,,M,,*68
06/12/2014	05:07:03.597	$GPGGA,050704,2543.8842,N,08009.7285,W,1,10,1.6,20,M,,M,,*6D
06/12/2014	05:07:04.621	$GPGGA,050705,2543.8841,N,08009.7287,W,1,9,1.7,20,M,,M,,*54
06/12/2014	05:07:05.587	$GPGGA,050706,2543.8842,N,08009.7286,W,1,9,1.7,20,M,,M,,*55
06/12/2014	05:07:06.609	$GPGGA,050707,2543.8841,N,08009.7287,W,1,9,1.7,20,M,,M,,*56
06/12/2014	05:07:07.608	$GPGGA,050708,2543.8842,N,08009.7286,W,1,9,1.7,20,M,,M,,*5B
06/12/2014	05:07:08.588	$GPGGA,050709,2543.8841,N,08009.7287,W,1,9,1.7,20,M,,M,,*58
06/12/2014	05:07:09.618	$GPGGA,050710,2543.8842,N,08009.7286,W,1,9,1.7,20,M,,M,,*52
06/12/2014	05:07:10.609	$GPGGA,050711,2543.8841,N,08009.7287,W,1,9,1.7,20,M,,M,,*51
06/12/2014	05:07:11.614	$GPGGA,050712,2543.8843,N,08009.7286,W,1,9,1.7,20,M,,M,,*51
06/12/2014	05:07:12.593	$GPGGA,050713,2543.8842,N,08009.7287,W,1,9,1.7,20,M,,M,,*50
06/12/2014	05:07:13.629	$GPGGA,050714,2543.8841,N,08009.7286,W,1,9,1.7,19,M,,M,,*5F
06/12/2014	05:07:14.722	$GPGGA,050715,2543.8842,N,08009.7287,W,1,9,1.7,19,M,,M,,*5C
06/12/2014	05:07:15.616	$GPGGA,050716,2543.8841,N,08009.7287,W,1,9,1.7,19,M,,M,,*5C
06/12/2014	05:07:16.620	$GPGGA,050717,2543.8842,N,08009.7287,W,1,9,1.7,19,M,,M,,*5E
06/12/2014	05:07:17.705	$GPGGA,050718,2543.8841,N,08009.7286,W,1,9,1.7,19,M,,M,,*53
06/12/2014	05:07:18.739	$GPGGA,050719,2543.8842,N,08009.7287,W,1,9,1.7,19,M,,M,,*50
06/12/2014	05:07:19.633	$GPGGA,050720,2543.8841,N,08009.7286,W,1,9,1.7,19,M,,M,,*58
06/12/2014	05:07:20.717	$GPGGA,050721,2543.8842,N,08009.7287,W,1,9,1.7,19,M,,M,,*5B
06/12/2014	05:07:21.621	$GPGGA,050722,2543.8840,N,08009.7286,W,1,9,1.7,19,M,,M,,*5B
06/12/2014	05:07:22.645	$GPGGA,050723,2543.8839,N,08009.7287,W,1,8,2.0,19,M,,M,,*50
06/12/2014	05:07:23.649	$GPGGA,050724,2543.8843,N,08009.7287,W,1,8,2.0,19,M,,M,,*5A
06/12/2014	05:07:24.734	$GPGGA,050725,2543.8844,N,08009.7286,W,1,9,1.7,19,M,,M,,*58
06/12/2014	05:07:25.629	$GPGGA,050726,2543.8844,N,08009.7287,W,1,9,1.7,18,M,,M,,*5B
06/12/2014	05:07:26.763	$GPGGA,050727,2543.8844,N,08009.7286,W,1,8,2.0,18,M,,M,,*5E
06/12/2014	05:07:27.646	$GPGGA,050728,2543.8842,N,08009.7287,W,1,8,2.0,18,M,,M,,*56
06/12/2014	05:07:28.730	$GPGGA,050729,2543.8843,N,08009.7286,W,1,8,2.0,18,M,,M,,*57
06/12/2014	05:07:29.744	$GPGGA,050730,2543.8841,N,08009.7287,W,1,8,2.0,18,M,,M,,*5C
06/12/2014	05:07:30.758	$GPGGA,050731,2543.8840,N,08009.7286,W,1,8,2.0,18,M,,M,,*5D
06/12/2014	05:07:31.752	$GPGGA,050732,2543.8840,N,08009.7287,W,1,8,2.0,18,M,,M,,*5F
06/12/2014	05:07:32.767	$GPGGA,050733,2543.8839,N,08009.7286,W,1,8,2.0,18,M,,M,,*51
06/12/2014	05:07:33.751	$GPGGA,050734,2543.8840,N,08009.7287,W,1,8,2.0,18,M,,M,,*59
06/12/2014	05:07:34.775	$GPGGA,050735,2543.8838,N,08009.7286,W,1,8,2.0,18,M,,M,,*56
06/12/2014	05:07:35.769	$GPGGA,050736,2543.8839,N,08009.7287,W,1,8,1.6,18,M,,M,,*50
06/12/2014	05:07:36.773	$GPGGA,050737,2543.8837,N,08009.7286,W,1,9,1.6,18,M,,M,,*5F
06/12/2014	05:07:37.747	$GPGGA,050738,2543.8837,N,08009.7287,W,1,9,1.6,18,M,,M,,*51
06/12/2014	05:07:38.772	$GPGGA,050739,2543.8834,N,08009.7286,W,1,9,1.6,18,M,,M,,*52
06/12/2014	05:07:39.776	$GPGGA,050740,2543.8833,N,08009.7287,W,1,9,1.6,18,M,,M,,*5A
06/12/2014	05:07:40.760	$GPGGA,050741,2543.8831,N,08009.7286,W,1,9,1.6,18,M,,M,,*58
06/12/2014	05:07:41.774	$GPGGA,050742,2543.8830,N,08009.7287,W,1,9,1.6,18,M,,M,,*5B
06/12/2014	05:07:42.789	$GPGGA,050743,2543.8829,N,08009.7286,W,1,9,1.6,18,M,,M,,*53
06/12/2014	05:07:43.783	$GPGGA,050744,2543.8828,N,08009.7287,W,1,9,1.6,18,M,,M,,*54
06/12/2014	05:07:44.807	$GPGGA,050745,2543.8826,N,08009.7287,W,1,9,1.6,18,M,,M,,*5B
06/12/2014	05:07:45.520	$GPGGA,050746,2543.8826,N,08009.7287,W,1,9,1.6,18,M,,M,,*58
06/12/2014	05:07:46.553	$GPGGA,050747,2543.8826,N,08009.7287,W,1,9,1.6,18,M,,M,,*59
06/12/2014	05:07:47.537	$GPGGA,050748,2543.8824,N,08009.7287,W,1,9,1.6,18,M,,M,,*54
06/12/2014	05:07:48.532	$GPGGA,050749,2543.8823,N,08009.7287,W,1,9,1.6,19,M,,M,,*53
06/12/2014	05:07:49.526	$GPGGA,050750,2543.8822,N,08009.7287,W,1,9,1.6,19,M,,M,,*5A
06/12/2014	05:07:50.530	$GPGGA,050751,2543.8822,N,08009.7287,W,1,9,1.6,19,M,,M,,*5B
06/12/2014	05:07:51.564	$GPGGA,050752,2543.8821,N,08009.7286,W,1,9,1.6,19,M,,M,,*5A
06/12/2014	05:07:52.528	$GPGGA,050753,2543.8822,N,08009.7287,W,1,9,1.6,19,M,,M,,*59
06/12/2014	05:07:53.553	$GPGGA,050754,2543.8821,N,08009.7286,W,1,9,1.6,19,M,,M,,*5C
06/12/2014	05:07:54.567	$GPGGA,050755,2543.8822,N,08009.7287,W,1,9,1.6,19,M,,M,,*5F
06/12/2014	05:07:55.571	$GPGGA,050756,2543.8821,N,08009.7286,W,1,9,1.6,20,M,,M,,*54
06/12/2014	05:07:56.595	$GPGGA,050757,2543.8822,N,08009.7287,W,1,9,1.6,20,M,,M,,*57
06/12/2014	05:07:57.559	$GPGGA,050758,2543.8821,N,08009.7286,W,1,9,1.6,20,M,,M,,*5A
06/12/2014	05:07:58.574	$GPGGA,050759,2543.8822,N,08009.7287,W,1,9,1.6,20,M,,M,,*59
06/12/2014	05:07:59.588	$GPGGA,050800,2543.8821,N,08009.7286,W,1,9,1.6,20,M,,M,,*58
06/12/2014	05:08:00.564	$GPGGA,050801,2543.8822,N,08009.7287,W,1,9,1.6,20,M,,M,,*5B
06/12/2014	05:08:01.576	$GPGGA,050802,2543.8821,N,08009.7286,W,1,9,1.6,20,M,,M,,*5A
06/12/2014	05:08:02.575	$GPGGA,050803,2543.8822,N,08009.7287,W,1,9,1.6,20,M,,M,,*59
06/12/2014	05:08:03.577	$GPGGA,050804,2543.8822,N,08009.7286,W,1,9,1.6,20,M,,M,,*5F
06/12/2014	05:08:04.578	$GPGGA,050805,2543.8822,N,08009.7287,W,1,9,1.6,20,M,,M,,*5F
06/12/2014	05:08:05.662	$GPGGA,050806,2543.8822,N,08009.7285,W,1,9,1.6,20,M,,M,,*5E
06/12/2014	05:08:06.687	$GPGGA,050807,2543.8822,N,08009.7285,W,1,9,1.6,21,M,,M,,*5E
06/12/2014	05:08:07.590	$GPGGA,050808,2543.8822,N,08009.7287,W,1,9,1.6,21,M,,M,,*53
06/12/2014	05:08:08.584	$GPGGA,050809,2543.8824,N,08009.7286,W,1,9,1.6,21,M,,M,,*55
06/12/2014	05:08:09.579	$GPGGA,050810,2543.8823,N,08009.7287,W,1,9,1.6,21,M,,M,,*5B
06/12/2014	05:08:10.583	$GPGGA,050811,2543.8825,N,08009.7286,W,1,9,1.6,21,M,,M,,*5D
06/12/2014	05:08:11.687	$GPGGA,050812,2543.8824,N,08009.7287,W,1,9,1.6,21,M,,M,,*5E
06/12/2014	05:08:12.581	$GPGGA,050813,2543.8825,N,08009.7286,W,1,9,1.6,21,M,,M,,*5F
06/12/2014	05:08:13.687	$GPGGA,050814,2543.8826,N,08009.7287,W,1,9,1.6,21,M,,M,,*5A
06/12/2014	05:08:14.690	$GPGGA,050815,2543.8826,N,08009.7286,W,1,9,1.6,21,M,,M,,*5A
06/12/2014	05:08:15.694	$GPGGA,050816,2543.8826,N,08009.7287,W,1,9,1.6,21,M,,M,,*58
06/12/2014	05:08:16.699	$GPGGA,050817,2543.8826,N,08009.7286,W,1,9,1.6,21,M,,M,,*58
06/12/2014	05:08:17.693	$GPGGA,050818,2543.8826,N,08009.7287,W,1,9,1.6,21,M,,M,,*56
06/12/2014	05:08:18.687	$GPGGA,050819,2543.8826,N,08009.7286,W,1,9,1.6,21,M,,M,,*56
06/12/2014	05:08:19.711	$GPGGA,050820,2543.8826,N,08009.7285,W,1,9,1.6,21,M,,M,,*5F
06/12/2014	05:08:20.695	$GPGGA,050821,2543.8828,N,08009.7285,W,1,9,1.6,21,M,,M,,*50
06/12/2014	05:08:21.688	$GPGGA,050822,2543.8829,N,08009.7285,W,1,9,2.0,21,M,,M,,*57
06/12/2014	05:08:22.692	$GPGGA,050823,2543.8829,N,08009.7285,W,1,8,2.0,21,M,,M,,*57
06/12/2014	05:08:23.707	$GPGGA,050824,2543.8829,N,08009.7285,W,1,8,2.0,21,M,,M,,*50
06/12/2014	05:08:24.731	$GPGGA,050825,2543.8829,N,08009.7285,W,1,8,2.0,21,M,,M,,*51
06/12/2014	05:08:25.705	$GPGGA,050826,2543.8829,N,08009.7285,W,1,8,2.0,21,M,,M,,*52
06/12/2014	05:08:26.729	$GPGGA,050827,2543.8830,N,08009.7284,W,1,8,2.0,21,M,,M,,*5A
06/12/2014	05:08:27.713	$GPGGA,050828,2543.8830,N,08009.7284,W,1,8,2.0,21,M,,M,,*55
06/12/2014	05:08:28.728	$GPGGA,050829,2543.8830,N,08009.7284,W,1,8,2.0,21,M,,M,,*54
06/12/2014	05:08:29.702	$GPGGA,050830,2543.8832,N,08009.7284,W,1,8,2.0,21,M,,M,,*5E
06/12/2014	05:08:30.736	$GPGGA,050831,2543.8831,N,08009.7284,W,1,8,2.0,21,M,,M,,*5C
06/12/2014	05:08:31.740	$GPGGA,050832,2543.8832,N,08009.7285,W,1,8,2.0,20,M,,M,,*5C
06/12/2014	05:08:32.714	$GPGGA,050833,2543.8831,N,08009.7284,W,1,8,2.0,20,M,,M,,*5F
06/12/2014	05:08:33.729	$GPGGA,050834,2543.8832,N,08009.7285,W,1,8,2.0,20,M,,M,,*5A
06/12/2014	05:08:34.753	$GPGGA,050835,2543.8833,N,08009.7285,W,1,8,2.0,20,M,,M,,*5A
06/12/2014	05:08:35.747	$GPGGA,050836,2543.8833,N,08009.7285,W,1,8,2.0,20,M,,M,,*59
06/12/2014	05:08:36.741	$GPGGA,050837,2543.8833,N,08009.7285,W,1,8,2.0,20,M,,M,,*58
06/12/2014	05:08:37.725	$GPGGA,050838,2543.8833,N,08009.7285,W,1,8,2.0,20,M,,M,,*57
06/12/2014	05:08:38.759	$GPGGA,050839,2543.8833,N,08009.7285,W,1,8,2.0,20,M,,M,,*56
06/12/2014	05:08:39.743	$GPGGA,050840,2543.8833,N,08009.7285,W,1,8,2.0,20,M,,M,,*58
06/12/2014	05:08:40.731	$GPGGA,050841,2543.8833,N,08009.7285,W,1,8,2.0,20,M,,M,,*59
06/12/2014	05:08:41.751	$GPGGA,050842,2543.8833,N,08009.7285,W,1,8,2.0,20,M,,M,,*5A
06/12/2014	05:08:42.747	$GPGGA,050843,2543.8833,N,08009.7285,W,1,8,2.0,20,M,,M,,*5B
06/12/2014	05:08:43.760	$GPGGA,050844,2543.8835,N,08009.7287,W,1,8,2.0,20,M,,M,,*58
06/12/2014	05:08:44.754	$GPGGA,050845,2543.8834,N,08009.7286,W,1,8,2.0,20,M,,M,,*59
06/12/2014	05:08:45.500	$GPGGA,050846,2543.8836,N,08009.7287,W,1,8,2.0,20,M,,M,,*59
06/12/2014	05:08:46.615	$GPGGA,050847,2543.8835,N,08009.7286,W,1,8,2.0,20,M,,M,,*5A
06/12/2014	05:08:47.513	$GPGGA,050848,2543.8836,N,08009.7287,W,1,8,2.0,20,M,,M,,*57
06/12/2014	05:08:48.621	$GPGGA,050849,2543.8837,N,08009.7287,W,1,8,2.0,20,M,,M,,*57
06/12/2014	05:08:49.505	$GPGGA,050850,2543.8837,N,08009.7287,W,1,8,2.0,20,M,,M,,*5F
06/12/2014	05:08:50.509	$GPGGA,050851,2543.8837,N,08009.7286,W,1,8,2.0,20,M,,M,,*5F
06/12/2014	05:08:51.527	$GPGGA,050852,2543.8837,N,08009.7287,W,1,8,2.0,20,M,,M,,*5D
06/12/2014	05:08:52.531	$GPGGA,050853,2543.8837,N,08009.7287,W,1,8,2.0,20,M,,M,,*5C
06/12/2014	05:08:53.634	$GPGGA,050854,2543.8837,N,08009.7287,W,1,8,2.0,20,M,,M,,*5B
06/12/2014	05:08:54.542	$GPGGA,050855,2543.8837,N,08009.7286,W,1,8,2.0,20,M,,M,,*5B
06/12/2014	05:08:55.542	$GPGGA,050856,2543.8837,N,08009.7287,W,1,8,2.0,20,M,,M,,*59
06/12/2014	05:08:56.624	$GPGGA,050857,2543.8837,N,08009.7286,W,1,8,2.0,20,M,,M,,*59
06/12/2014	05:08:57.618	$GPGGA,050858,2543.8837,N,08009.7287,W,1,8,2.0,19,M,,M,,*5D
06/12/2014	05:08:58.521	$GPGGA,050859,2543.8839,N,08009.7286,W,1,8,2.0,19,M,,M,,*53
06/12/2014	05:08:59.676	$GPGGA,050900,2543.8835,N,08009.7287,W,1,8,2.0,19,M,,M,,*53
06/12/2014	05:09:00.640	$GPGGA,050901,2543.8833,N,08009.7287,W,1,9,1.6,20,M,,M,,*5A
06/12/2014	05:09:01.554	$GPGGA,050902,2543.8831,N,08009.7287,W,1,9,1.6,20,M,,M,,*5B
06/12/2014	05:09:02.640	$GPGGA,050903,2543.8830,N,08009.7287,W,1,9,1.6,20,M,,M,,*5B
06/12/2014	05:09:03.552	$GPGGA,050904,2543.8828,N,08009.7287,W,1,9,1.6,20,M,,M,,*55
06/12/2014	05:09:04.627	$GPGGA,050905,2543.8827,N,08009.7287,W,1,9,1.6,20,M,,M,,*5B
06/12/2014	05:09:05.631	$GPGGA,050906,2543.8826,N,08009.7287,W,1,9,1.6,20,M,,M,,*59
06/12/2014	05:09:06.696	$GPGGA,050907,2543.8824,N,08009.7287,W,1,9,1.6,20,M,,M,,*5A
06/12/2014	05:09:07.650	$GPGGA,050908,2543.8825,N,08009.7287,W,1,9,1.6,20,M,,M,,*54
06/12/2014	05:09:08.664	$GPGGA,050909,2543.8823,N,08009.7287,W,1,9,1.6,21,M,,M,,*52
06/12/2014	05:09:09.648	$GPGGA,050910,2543.8822,N,08009.7287,W,1,9,1.6,21,M,,M,,*5B
06/12/2014	05:09:10.642	$GPGGA,050911,2543.8821,N,08009.7287,W,1,9,1.6,21,M,,M,,*59
06/12/2014	05:09:11.666	$GPGGA,050912,2543.8822,N,08009.7286,W,1,9,1.6,21,M,,M,,*58
06/12/2014	05:09:12.671	$GPGGA,050913,2543.8821,N,08009.7287,W,1,9,1.6,21,M,,M,,*5B
06/12/2014	05:09:13.654	$GPGGA,050914,2543.8820,N,08009.7286,W,1,9,1.6,21,M,,M,,*5C
06/12/2014	05:09:14.679	$GPGGA,050915,2543.8822,N,08009.7287,W,1,9,1.6,22,M,,M,,*5D
06/12/2014	05:09:15.672	$GPGGA,050916,2543.8820,N,08009.7287,W,1,9,1.6,22,M,,M,,*5C
06/12/2014	05:09:16.686	$GPGGA,050917,2543.8821,N,08009.7287,W,1,9,1.6,22,M,,M,,*5C
06/12/2014	05:09:17.660	$GPGGA,050918,2543.8822,N,08009.7287,W,1,9,1.6,22,M,,M,,*50
06/12/2014	05:09:18.685	$GPGGA,050919,2543.8821,N,08009.7287,W,1,9,1.6,22,M,,M,,*52
06/12/2014	05:09:19.679	$GPGGA,050920,2543.8822,N,08009.7287,W,1,9,1.6,22,M,,M,,*5B
06/12/2014	05:09:20.673	$GPGGA,050921,2543.8826,N,08009.7287,W,1,9,1.6,22,M,,M,,*5E
06/12/2014	05:09:21.687	$GPGGA,050922,2543.8826,N,08009.7286,W,1,9,1.5,22,M,,M,,*5F
06/12/2014	05:09:22.691	$GPGGA,050923,2543.8829,N,08009.7287,W,1,10,1.5,22,M,,M,,*68
06/12/2014	05:09:23.696	$GPGGA,050924,2543.8830,N,08009.7287,W,1,10,1.5,22,M,,M,,*67
06/12/2014	05:09:24.720	$GPGGA,050925,2543.8832,N,08009.7287,W,1,10,1.5,22,M,,M,,*64
06/12/2014	05:09:25.684	$GPGGA,050926,2543.8833,N,08009.7286,W,1,10,1.5,22,M,,M,,*67
06/12/2014	05:09:26.688	$GPGGA,050927,2543.8833,N,08009.7287,W,1,10,1.5,22,M,,M,,*67
06/12/2014	05:09:27.712	$GPGGA,050928,2543.8836,N,08009.7286,W,1,10,1.5,22,M,,M,,*6C
06/12/2014	05:09:28.697	$GPGGA,050929,2543.8835,N,08009.7287,W,1,10,1.5,22,M,,M,,*6F
06/12/2014	05:09:29.701	$GPGGA,050930,2543.8837,N,08009.7286,W,1,10,1.5,22,M,,M,,*64
06/12/2014	05:09:30.689	$GPGGA,050931,2543.8839,N,08009.7287,W,1,10,1.5,22,M,,M,,*6A
06/12/2014	05:09:31.718	$GPGGA,050932,2543.8840,N,08009.7286,W,1,10,1.5,22,M,,M,,*66
06/12/2014	05:09:32.703	$GPGGA,050933,2543.8839,N,08009.7287,W,1,10,1.5,22,M,,M,,*68
06/12/2014	05:09:33.817	$GPGGA,050934,2543.8840,N,08009.7286,W,1,10,1.5,22,M,,M,,*60
06/12/2014	05:09:34.821	$GPGGA,050935,2543.8838,N,08009.7287,W,1,10,1.5,22,M,,M,,*6F
06/12/2014	05:09:35.725	$GPGGA,050936,2543.8839,N,08009.7287,W,1,10,1.5,22,M,,M,,*6D
06/12/2014	05:09:36.850	$GPGGA,050937,2543.8838,N,08009.7287,W,1,10,1.5,22,M,,M,,*6D
06/12/2014	05:09:37.723	$GPGGA,050938,2543.8839,N,08009.7287,W,1,10,1.5,22,M,,M,,*63
06/12/2014	05:09:38.728	$GPGGA,050939,2543.8838,N,08009.7287,W,1,10,1.5,22,M,,M,,*63
06/12/2014	05:09:39.842	$GPGGA,050940,2543.8839,N,08009.7288,W,1,10,1.5,22,M,,M,,*63
06/12/2014	05:09:40.716	$GPGGA,050941,2543.8838,N,08009.7288,W,1,10,1.5,22,M,,M,,*63
06/12/2014	05:09:41.831	$GPGGA,050942,2543.8839,N,08009.7288,W,1,10,1.5,22,M,,M,,*61
06/12/2014	05:09:42.741	$GPGGA,050943,2543.8837,N,08009.7288,W,1,10,1.5,22,M,,M,,*6E
06/12/2014	05:09:43.859	$GPGGA,050944,2543.8839,N,08009.7288,W,1,10,1.5,22,M,,M,,*67
06/12/2014	05:09:44.853	$GPGGA,050945,2543.8837,N,08009.7288,W,1,10,1.5,22,M,,M,,*68
06/12/2014	05:09:45.577	$GPGGA,050946,2543.8837,N,08009.7290,W,1,10,1.5,22,M,,M,,*62
06/12/2014	05:09:46.622	$GPGGA,050947,2543.8837,N,08009.7289,W,1,10,1.5,22,M,,M,,*6B
06/12/2014	05:09:47.597	$GPGGA,050948,2543.8837,N,08009.7290,W,1,10,1.5,22,M,,M,,*6C
06/12/2014	05:09:48.590	$GPGGA,050949,2543.8837,N,08009.7289,W,1,10,1.5,22,M,,M,,*65
06/12/2014	05:09:49.593	$GPGGA,050950,2543.8837,N,08009.7290,W,1,10,1.5,22,M,,M,,*65
06/12/2014	05:09:50.597	$GPGGA,050951,2543.8837,N,08009.7290,W,1,10,1.5,22,M,,M,,*64
06/12/2014	05:09:51.611	$GPGGA,050952,2543.8837,N,08009.7290,W,1,10,1.5,22,M,,M,,*67
06/12/2014	05:09:52.616	$GPGGA,050953,2543.8837,N,08009.7290,W,1,10,1.5,22,M,,M,,*66
06/12/2014	05:09:53.600	$GPGGA,050954,2543.8837,N,08009.7290,W,1,10,1.5,22,M,,M,,*61
06/12/2014	05:09:54.604	$GPGGA,050955,2543.8837,N,08009.7290,W,1,10,1.5,22,M,,M,,*60
06/12/2014	05:09:55.618	$GPGGA,050956,2543.8837,N,08009.7290,W,1,10,1.5,22,M,,M,,*63
06/12/2014	05:09:56.592	$GPGGA,050957,2543.8837,N,08009.7289,W,1,10,1.5,22,M,,M,,*6A
06/12/2014	05:09:57.607	$GPGGA,050958,2543.8837,N,08009.7290,W,1,10,1.5,22,M,,M,,*6D
06/12/2014	05:09:58.621	$GPGGA,050959,2543.8837,N,08009.7290,W,1,10,1.5,22,M,,M,,*6C
06/12/2014	05:09:59.635	$GPGGA,051000,2543.8837,N,08009.7289,W,1,10,1.5,22,M,,M,,*60
06/12/2014	05:10:00.629	$GPGGA,051001,2543.8837,N,08009.7290,W,1,10,1.5,22,M,,M,,*69
06/12/2014	05:10:01.623	$GPGGA,051002,2543.8837,N,08009.7289,W,1,10,1.5,22,M,,M,,*62
06/12/2014	05:10:02.639	$GPGGA,051003,2543.8837,N,08009.7290,W,1,10,1.5,22,M,,M,,*6B
06/12/2014	05:10:03.642	$GPGGA,051004,2543.8837,N,08009.7289,W,1,10,1.5,22,M,,M,,*64
06/12/2014	05:10:04.616	$GPGGA,051005,2543.8837,N,08009.7290,W,1,10,1.5,22,M,,M,,*6D
06/12/2014	05:10:05.619	$GPGGA,051006,2543.8837,N,08009.7289,W,1,10,1.5,22,M,,M,,*66
06/12/2014	05:10:06.623	$GPGGA,051007,2543.8837,N,08009.7290,W,1,10,1.5,22,M,,M,,*6F
06/12/2014	05:10:07.658	$GPGGA,051008,2543.8837,N,08009.7289,W,1,10,1.5,22,M,,M,,*68
06/12/2014	05:10:08.632	$GPGGA,051009,2543.8835,N,08009.7290,W,1,10,1.5,22,M,,M,,*63
06/12/2014	05:10:09.636	$GPGGA,051010,2543.8836,N,08009.7289,W,1,10,1.5,22,M,,M,,*60
06/12/2014	05:10:10.630	$GPGGA,051011,2543.8835,N,08009.7290,W,1,10,1.5,22,M,,M,,*6A
06/12/2014	05:10:11.694	$GPGGA,051012,2543.8836,N,08009.7289,W,1,10,1.5,22,M,,M,,*62
06/12/2014	05:10:12.638	$GPGGA,051013,2543.8834,N,08009.7288,W,1,10,1.5,22,M,,M,,*60
06/12/2014	05:10:13.653	$GPGGA,051014,2543.8835,N,08009.7288,W,1,10,1.5,22,M,,M,,*66
06/12/2014	05:10:14.647	$GPGGA,051015,2543.8834,N,08009.7288,W,1,10,1.5,22,M,,M,,*66
06/12/2014	05:10:15.651	$GPGGA,051016,2543.8835,N,08009.7288,W,1,10,1.5,22,M,,M,,*64
06/12/2014	05:10:16.645	$GPGGA,051017,2543.8834,N,08009.7288,W,1,10,1.5,22,M,,M,,*64
06/12/2014	05:10:17.669	$GPGGA,051018,2543.8835,N,08009.7288,W,1,10,1.5,22,M,,M,,*6A
06/12/2014	05:10:18.654	$GPGGA,051019,2543.8834,N,08009.7288,W,1,10,1.5,22,M,,M,,*6A
06/12/2014	05:10:19.668	$GPGGA,051020,2543.8835,N,08009.7287,W,1,10,1.5,22,M,,M,,*6E
06/12/2014	05:10:20.772	$GPGGA,051021,2543.8834,N,08009.7287,W,1,10,1.5,22,M,,M,,*6E
06/12/2014	05:10:21.667	$GPGGA,051022,2543.8834,N,08009.7287,W,1,10,1.5,22,M,,M,,*6D
06/12/2014	05:10:22.690	$GPGGA,051023,2543.8834,N,08009.7287,W,1,10,1.5,22,M,,M,,*6C
06/12/2014	05:10:23.684	$GPGGA,051024,2543.8835,N,08009.7287,W,1,10,1.5,22,M,,M,,*6A
06/12/2014	05:10:24.688	$GPGGA,051025,2543.8834,N,08009.7287,W,1,10,1.5,22,M,,M,,*6A
06/12/2014	05:10:25.682	$GPGGA,051026,2543.8835,N,08009.7287,W,1,10,1.5,22,M,,M,,*68
06/12/2014	05:10:26.667	$GPGGA,051027,2543.8834,N,08009.7287,W,1,10,1.5,22,M,,M,,*68
06/12/2014	05:10:27.801	$GPGGA,051028,2543.8835,N,08009.7287,W,1,10,1.5,22,M,,M,,*66
06/12/2014	05:10:28.792	$GPGGA,051029,2543.8834,N,08009.7287,W,1,10,1.5,22,M,,M,,*66
06/12/2014	05:10:29.689	$GPGGA,051030,2543.8835,N,08009.7287,W,1,10,1.5,22,M,,M,,*6F
06/12/2014	05:10:30.703	$GPGGA,051031,2543.8834,N,08009.7286,W,1,10,1.5,22,M,,M,,*6E
06/12/2014	05:10:31.707	$GPGGA,051032,2543.8835,N,08009.7287,W,1,10,1.5,22,M,,M,,*6D
06/12/2014	05:10:32.796	$GPGGA,051033,2543.8836,N,08009.7286,W,1,10,1.5,22,M,,M,,*6E
06/12/2014	05:10:33.698	$GPGGA,051034,2543.8835,N,08009.7287,W,1,10,1.5,22,M,,M,,*6B
06/12/2014	05:10:34.790	$GPGGA,051035,2543.8836,N,08009.7286,W,1,10,1.5,22,M,,M,,*68
06/12/2014	05:10:35.717	$GPGGA,051036,2543.8837,N,08009.7285,W,1,10,1.5,22,M,,M,,*69
06/12/2014	05:10:36.798	$GPGGA,051037,2543.8837,N,08009.7285,W,1,10,1.5,22,M,,M,,*68
06/12/2014	05:10:37.793	$GPGGA,051038,2543.8837,N,08009.7285,W,1,10,1.5,22,M,,M,,*67
06/12/2014	05:10:38.787	$GPGGA,051039,2543.8839,N,08009.7284,W,1,10,1.7,22,M,,M,,*6B
06/12/2014	05:10:39.734	$GPGGA,051040,2543.8840,N,08009.7284,W,1,10,1.7,22,M,,M,,*6B
06/12/2014	05:10:40.794	$GPGGA,051041,2543.8840,N,08009.7284,W,1,9,1.7,22,M,,M,,*52
06/12/2014	05:10:41.808	$GPGGA,051042,2543.8840,N,08009.7284,W,1,9,1.7,22,M,,M,,*51
06/12/2014	05:10:42.803	$GPGGA,051043,2543.8842,N,08009.7284,W,1,9,1.7,22,M,,M,,*52
06/12/2014	05:10:43.817	$GPGGA,051044,2543.8843,N,08009.7284,W,1,9,1.7,22,M,,M,,*54
06/12/2014	05:10:44.821	$GPGGA,051045,2543.8844,N,08009.7283,W,1,9,1.7,22,M,,M,,*55
06/12/2014	05:10:45.554	$GPGGA,051046,2543.8844,N,08009.7283,W,1,9,1.7,22,M,,M,,*56
06/12/2014	05:10:46.558	$GPGGA,051047,2543.8844,N,08009.7283,W,1,9,1.7,21,M,,M,,*54
06/12/2014	05:10:47.563	$GPGGA,051048,2543.8844,N,08009.7283,W,1,9,1.7,21,M,,M,,*5B
06/12/2014	05:10:48.577	$GPGGA,051049,2543.8846,N,08009.7283,W,1,9,1.7,21,M,,M,,*58
06/12/2014	05:10:49.561	$GPGGA,051050,2543.8845,N,08009.7283,W,1,9,1.7,21,M,,M,,*53
06/12/2014	05:10:50.555	$GPGGA,051051,2543.8846,N,08009.7283,W,1,9,1.7,21,M,,M,,*51
06/12/2014	05:10:51.589	$GPGGA,051052,2543.8847,N,08009.7283,W,1,9,1.7,21,M,,M,,*53
06/12/2014	05:10:52.584	$GPGGA,051053,2543.8846,N,08009.7283,W,1,9,1.7,21,M,,M,,*53
06/12/2014	05:10:53.558	$GPGGA,051054,2543.8847,N,08009.7283,W,1,9,1.7,21,M,,M,,*55
06/12/2014	05:10:54.592	$GPGGA,051055,2543.8846,N,08009.7283,W,1,9,1.7,21,M,,M,,*55
06/12/2014	05:10:55.576	$GPGGA,051056,2543.8848,N,08009.7283,W,1,9,1.7,20,M,,M,,*59
06/12/2014	05:10:56.610	$GPGGA,051057,2543.8848,N,08009.7283,W,1,9,1.7,20,M,,M,,*58
06/12/2014	05:10:57.574	$GPGGA,051058,2543.8848,N,08009.7283,W,1,9,1.7,20,M,,M,,*57
06/12/2014	05:10:58.618	$GPGGA,051059,2543.8848,N,08009.7283,W,1,9,1.7,20,M,,M,,*56
06/12/2014	05:10:59.601	$GPGGA,051100,2543.8848,N,08009.7283,W,1,9,1.7,20,M,,M,,*5B
06/12/2014	05:11:00.574	$GPGGA,051101,2543.8848,N,08009.7283,W,1,9,1.7,20,M,,M,,*5A
06/12/2014	05:11:01.587	$GPGGA,051102,2543.8848,N,08009.7283,W,1,9,1.7,20,M,,M,,*59
06/12/2014	05:11:02.580	$GPGGA,051103,2543.8848,N,08009.7283,W,1,9,1.7,20,M,,M,,*58
06/12/2014	05:11:03.604	$GPGGA,051104,2543.8848,N,08009.7282,W,1,9,1.7,20,M,,M,,*5E
06/12/2014	05:11:04.577	$GPGGA,051105,2543.8848,N,08009.7283,W,1,9,1.7,20,M,,M,,*5E
06/12/2014	05:11:05.580	$GPGGA,051106,2543.8848,N,08009.7282,W,1,9,1.7,19,M,,M,,*56
06/12/2014	05:11:06.583	$GPGGA,051107,2543.8850,N,08009.7283,W,1,9,1.7,19,M,,M,,*5F
06/12/2014	05:11:07.606	$GPGGA,051108,2543.8851,N,08009.7282,W,1,9,1.7,19,M,,M,,*50
06/12/2014	05:11:08.590	$GPGGA,051109,2543.8850,N,08009.7283,W,1,9,1.7,19,M,,M,,*51
06/12/2014	05:11:09.592	$GPGGA,051110,2543.8851,N,08009.7281,W,1,9,1.7,19,M,,M,,*5A
06/12/2014	05:11:10.605	$GPGGA,051111,2543.8851,N,08009.7283,W,1,9,1.7,19,M,,M,,*59
06/12/2014	05:11:11.598	$GPGGA,051112,2543.8853,N,08009.7282,W,1,9,1.7,19,M,,M,,*59
06/12/2014	05:11:12.601	$GPGGA,051113,2543.8852,N,08009.7281,W,1,9,1.7,19,M,,M,,*5A
06/12/2014	05:11:13.605	$GPGGA,051114,2543.8853,N,08009.7281,W,1,9,1.7,19,M,,M,,*5C
06/12/2014	05:11:14.589	$GPGGA,051115,2543.8852,N,08009.7281,W,1,9,1.7,19,M,,M,,*5C
06/12/2014	05:11:15.720	$GPGGA,051116,2543.8853,N,08009.7281,W,1,9,1.7,19,M,,M,,*5E
06/12/2014	05:11:16.713	$GPGGA,051117,2543.8852,N,08009.7281,W,1,9,1.7,19,M,,M,,*5E
06/12/2014	05:11:17.596	$GPGGA,051118,2543.8854,N,08009.7281,W,1,9,1.7,19,M,,M,,*57
06/12/2014	05:11:18.722	$GPGGA,051119,2543.8853,N,08009.7280,W,1,9,1.7,19,M,,M,,*50
06/12/2014	05:11:19.602	$GPGGA,051120,2543.8854,N,08009.7280,W,1,9,1.7,19,M,,M,,*5D
06/12/2014	05:11:20.705	$GPGGA,051121,2543.8853,N,08009.7280,W,1,9,1.7,18,M,,M,,*5A
06/12/2014	05:11:21.628	$GPGGA,051122,2543.8854,N,08009.7280,W,1,9,1.7,18,M,,M,,*5E
06/12/2014	05:11:22.611	$GPGGA,051123,2543.8853,N,08009.7280,W,1,9,1.7,18,M,,M,,*58
06/12/2014	05:11:23.725	$GPGGA,051124,2543.8854,N,08009.7280,W,1,9,1.7,18,M,,M,,*58
06/12/2014	05:11:24.630	$GPGGA,051125,2543.8853,N,08009.7280,W,1,9,1.7,18,M,,M,,*5E
06/12/2014	05:11:25.701	$GPGGA,051126,2543.8854,N,08009.7280,W,1,9,1.7,18,M,,M,,*5A
06/12/2014	05:11:26.614	$GPGGA,051127,2543.8853,N,08009.7280,W,1,9,1.7,18,M,,M,,*5C
06/12/2014	05:11:27.717	$GPGGA,051128,2543.8854,N,08009.7280,W,1,9,1.7,18,M,,M,,*54
06/12/2014	05:11:28.720	$GPGGA,051129,2543.8852,N,08009.7280,W,1,9,1.7,18,M,,M,,*53
06/12/2014	05:11:29.703	$GPGGA,051130,2543.8853,N,08009.7280,W,1,9,1.7,18,M,,M,,*5A
06/12/2014	05:11:30.737	$GPGGA,051131,2543.8852,N,08009.7279,W,1,9,1.7,18,M,,M,,*5C
06/12/2014	05:11:31.730	$GPGGA,051132,2543.8853,N,08009.7280,W,1,9,1.7,18,M,,M,,*58
06/12/2014	05:11:32.723	$GPGGA,051133,2543.8850,N,08009.7280,W,1,9,1.7,18,M,,M,,*5A
06/12/2014	05:11:33.705	$GPGGA,051134,2543.8849,N,08009.7280,W,1,9,1.5,18,M,,M,,*57
06/12/2014	05:11:34.728	$GPGGA,051135,2543.8850,N,08009.7280,W,1,10,1.5,18,M,,M,,*66
06/12/2014	05:11:35.731	$GPGGA,051136,2543.8848,N,08009.7280,W,1,10,1.7,18,M,,M,,*6E
06/12/2014	05:11:36.744	$GPGGA,051137,2543.8846,N,08009.7280,W,1,10,1.5,18,M,,M,,*63
06/12/2014	05:11:37.717	$GPGGA,051138,2543.8844,N,08009.7280,W,1,10,1.5,18,M,,M,,*6E
06/12/2014	05:11:38.740	$GPGGA,051139,2543.8844,N,08009.7281,W,1,10,1.5,18,M,,M,,*6E
06/12/2014	05:11:39.744	$GPGGA,051140,2543.8842,N,08009.7281,W,1,10,1.5,18,M,,M,,*66
06/12/2014	05:11:40.726	$GPGGA,051141,2543.8841,N,08009.7283,W,1,10,1.5,18,M,,M,,*66
06/12/2014	05:11:41.729	$GPGGA,051142,2543.8839,N,08009.7282,W,1,10,1.5,18,M,,M,,*6B
06/12/2014	05:11:42.743	$GPGGA,051143,2543.8838,N,08009.7283,W,1,10,1.5,18,M,,M,,*6A
06/12/2014	05:11:43.746	$GPGGA,051144,2543.8837,N,08009.7283,W,1,10,1.5,18,M,,M,,*62
