Software Version Number: 1	Data File Format Number: 1	Build Version Number: 1	Error Count Since VI Started: 0	Manufacturer: Raytheon	 Model Number: RayMarine 120	 S/N: 	 Cal Date: 	 Wind Direction Offset: 0.00	 Slope (M)1: 0.00	 Offset (B)1: 0.00	 Slope (M)2: 0.00	 Offset (B)2: 0.00	 Slope (M)3: 0.00	 Offset (B)3: 0.00	 Slope (M)4: 0.00	 Offset (B)4: 0.00	 Slope (M)5: 0.00	 Offset (B)5: 0.00	 Slope (M)6: 0.00	 Offset (B)6: 0.00
Computer Date	Computer Time	GGA String
06/07/2014	11:00:00.702	$GPGGA,110001,2421.5351,N,08114.8200,W,1,7,2.3,11,M,,M,,*56
06/07/2014	11:00:01.725	$GPGGA,110002,2421.5340,N,08114.8196,W,1,7,2.3,11,M,,M,,*59
06/07/2014	11:00:02.706	$GPGGA,110003,2421.5327,N,08114.8192,W,1,7,2.3,11,M,,M,,*5D
06/07/2014	11:00:03.713	$GPGGA,110004,2421.5314,N,08114.8187,W,1,7,2.3,11,M,,M,,*5E
06/07/2014	11:00:04.720	$GPGGA,110005,2421.5303,N,08114.8184,W,1,7,2.3,11,M,,M,,*5A
06/07/2014	11:00:05.718	$GPGGA,110006,2421.5291,N,08114.8180,W,1,7,2.3,11,M,,M,,*57
06/07/2014	11:00:06.837	$GPGGA,110007,2421.5280,N,08114.8178,W,1,8,2.3,11,M,,M,,*5E
06/07/2014	11:00:07.743	$GPGGA,110008,2421.5268,N,08114.8174,W,1,8,2.3,11,M,,M,,*5B
06/07/2014	11:00:08.861	$GPGGA,110009,2421.5257,N,08114.8170,W,1,8,2.3,11,M,,M,,*52
06/07/2014	11:00:09.747	$GPGGA,110010,2421.5244,N,08114.8167,W,1,8,2.3,11,M,,M,,*5E
06/07/2014	11:00:10.725	$GPGGA,110011,2421.5232,N,08114.8163,W,1,8,2.3,11,M,,M,,*5A
06/07/2014	11:00:11.752	$GPGGA,110012,2421.5220,N,08114.8159,W,1,8,2.3,11,M,,M,,*53
06/07/2014	11:00:12.749	$GPGGA,110013,2421.5208,N,08114.8156,W,1,8,2.3,11,M,,M,,*57
06/07/2014	11:00:13.848	$GPGGA,110014,2421.5196,N,08114.8153,W,1,8,2.3,10,M,,M,,*50
06/07/2014	11:00:14.865	$GPGGA,110015,2421.5184,N,08114.8150,W,1,8,2.3,10,M,,M,,*51
06/07/2014	11:00:15.781	$GPGGA,110016,2421.5172,N,08114.8148,W,1,8,2.3,10,M,,M,,*52
06/07/2014	11:00:16.889	$GPGGA,110017,2421.5160,N,08114.8144,W,1,8,2.3,10,M,,M,,*5C
06/07/2014	11:00:17.866	$GPGGA,110018,2421.5148,N,08114.8141,W,1,8,2.3,10,M,,M,,*5C
06/07/2014	11:00:18.884	$GPGGA,110019,2421.5136,N,08114.8138,W,1,8,2.3,10,M,,M,,*5A
06/07/2014	11:00:19.921	$GPGGA,110020,2421.5124,N,08114.8135,W,1,8,2.3,10,M,,M,,*5E
06/07/2014	11:00:20.908	$GPGGA,110021,2421.5113,N,08114.8132,W,1,8,2.3,10,M,,M,,*5C
06/07/2014	11:00:21.893	$GPGGA,110022,2421.5102,N,08114.8130,W,1,8,2.3,10,M,,M,,*5D
06/07/2014	11:00:22.918	$GPGGA,110023,2421.5090,N,08114.8128,W,1,8,2.3,10,M,,M,,*5F
06/07/2014	11:00:23.912	$GPGGA,110024,2421.5078,N,08114.8125,W,1,8,2.3,10,M,,M,,*53
06/07/2014	11:00:24.926	$GPGGA,110025,2421.5066,N,08114.8122,W,1,8,2.3,10,M,,M,,*5A
06/07/2014	11:00:25.901	$GPGGA,110026,2421.5054,N,08114.8120,W,1,8,2.3,10,M,,M,,*5A
06/07/2014	11:00:26.925	$GPGGA,110027,2421.5042,N,08114.8117,W,1,8,2.3,10,M,,M,,*58
06/07/2014	11:00:27.949	$GPGGA,110028,2421.5031,N,08114.8114,W,1,8,2.3,10,M,,M,,*50
06/07/2014	11:00:28.944	$GPGGA,110029,2421.5019,N,08114.8111,W,1,8,2.3,10,M,,M,,*5E
06/07/2014	11:00:29.898	$GPGGA,110030,2421.5007,N,08114.8108,W,1,8,2.3,10,M,,M,,*51
06/07/2014	11:00:30.902	$GPGGA,110031,2421.4996,N,08114.8106,W,1,8,3.1,10,M,,M,,*5D
06/07/2014	11:00:31.926	$GPGGA,110032,2421.4984,N,08114.8104,W,1,8,3.1,10,M,,M,,*5F
06/07/2014	11:00:32.942	$GPGGA,110033,2421.4973,N,08114.8101,W,1,7,3.1,10,M,,M,,*5C
06/07/2014	11:00:33.914	$GPGGA,110034,2421.4959,N,08114.8098,W,1,7,2.3,11,M,,M,,*50
06/07/2014	11:00:34.958	$GPGGA,110035,2421.4948,N,08114.8095,W,1,8,3.1,11,M,,M,,*50
06/07/2014	11:00:35.963	$GPGGA,110036,2421.4936,N,08114.8093,W,1,8,3.1,11,M,,M,,*5C
06/07/2014	11:00:36.937	$GPGGA,110037,2421.4924,N,08114.8091,W,1,7,2.3,11,M,,M,,*50
06/07/2014	11:00:37.549	$GPGGA,110038,2421.4910,N,08114.8088,W,1,7,2.3,11,M,,M,,*50
06/07/2014	11:00:38.563	$GPGGA,110039,2421.4899,N,08114.8085,W,1,8,3.1,11,M,,M,,*50
06/07/2014	11:00:39.557	$GPGGA,110040,2421.4888,N,08114.8083,W,1,8,2.3,11,M,,M,,*5B
06/07/2014	11:00:40.572	$GPGGA,110041,2421.4876,N,08114.8080,W,1,8,2.3,11,M,,M,,*58
06/07/2014	11:00:41.556	$GPGGA,110042,2421.4863,N,08114.8078,W,1,8,2.3,11,M,,M,,*58
06/07/2014	11:00:42.570	$GPGGA,110043,2421.4850,N,08114.8075,W,1,8,2.3,11,M,,M,,*54
06/07/2014	11:00:43.564	$GPGGA,110044,2421.4837,N,08114.8073,W,1,8,2.3,11,M,,M,,*54
06/07/2014	11:00:44.579	$GPGGA,110045,2421.4824,N,08114.8070,W,1,8,2.3,11,M,,M,,*54
06/07/2014	11:00:45.553	$GPGGA,110046,2421.4811,N,08114.8068,W,1,8,2.3,11,M,,M,,*58
06/07/2014	11:00:46.567	$GPGGA,110047,2421.4799,N,08114.8066,W,1,8,2.3,11,M,,M,,*58
06/07/2014	11:00:47.572	$GPGGA,110048,2421.4787,N,08114.8063,W,1,8,2.3,12,M,,M,,*5E
06/07/2014	11:00:48.586	$GPGGA,110049,2421.4774,N,08114.8061,W,1,8,2.3,12,M,,M,,*51
06/07/2014	11:00:49.650	$GPGGA,110050,2421.4763,N,08114.8058,W,1,8,2.3,12,M,,M,,*55
06/07/2014	11:00:50.583	$GPGGA,110051,2421.4751,N,08114.8056,W,1,8,2.3,12,M,,M,,*5B
06/07/2014	11:00:51.698	$GPGGA,110052,2421.4738,N,08114.8053,W,1,8,2.3,12,M,,M,,*52
06/07/2014	11:00:52.582	$GPGGA,110053,2421.4726,N,08114.8051,W,1,8,2.3,12,M,,M,,*5E
06/07/2014	11:00:53.567	$GPGGA,110054,2421.4715,N,08114.8049,W,1,8,2.3,12,M,,M,,*50
06/07/2014	11:00:54.691	$GPGGA,110055,2421.4701,N,08114.8046,W,1,8,2.3,13,M,,M,,*5A
06/07/2014	11:00:55.605	$GPGGA,110056,2421.4689,N,08114.8044,W,1,8,2.3,13,M,,M,,*5A
06/07/2014	11:00:56.599	$GPGGA,110057,2421.4678,N,08114.8041,W,1,8,2.3,13,M,,M,,*50
06/07/2014	11:00:57.593	$GPGGA,110058,2421.4665,N,08114.8039,W,1,8,2.3,13,M,,M,,*5C
06/07/2014	11:00:58.598	$GPGGA,110059,2421.4653,N,08114.8036,W,1,8,2.3,13,M,,M,,*57
06/07/2014	11:00:59.692	$GPGGA,110100,2421.4641,N,08114.8034,W,1,8,2.3,13,M,,M,,*5B
06/07/2014	11:01:00.596	$GPGGA,110101,2421.4628,N,08114.8030,W,1,8,2.3,13,M,,M,,*51
06/07/2014	11:01:01.601	$GPGGA,110102,2421.4617,N,08114.8028,W,1,8,2.3,13,M,,M,,*57
06/07/2014	11:01:02.730	$GPGGA,110103,2421.4604,N,08114.8026,W,1,8,2.3,13,M,,M,,*5A
06/07/2014	11:01:03.710	$GPGGA,110104,2421.4592,N,08114.8022,W,1,8,2.3,13,M,,M,,*55
06/07/2014	11:01:04.726	$GPGGA,110105,2421.4579,N,08114.8019,W,1,8,2.3,13,M,,M,,*59
06/07/2014	11:01:05.698	$GPGGA,110106,2421.4567,N,08114.8016,W,1,8,2.3,14,M,,M,,*5D
06/07/2014	11:01:06.702	$GPGGA,110107,2421.4554,N,08114.8013,W,1,8,2.3,14,M,,M,,*59
06/07/2014	11:01:07.707	$GPGGA,110108,2421.4542,N,08114.8010,W,1,8,2.3,14,M,,M,,*52
06/07/2014	11:01:08.720	$GPGGA,110109,2421.4530,N,08114.8007,W,1,8,2.3,14,M,,M,,*50
06/07/2014	11:01:09.704	$GPGGA,110110,2421.4518,N,08114.8004,W,1,8,2.3,14,M,,M,,*51
06/07/2014	11:01:10.699	$GPGGA,110111,2421.4505,N,08114.8001,W,1,8,2.3,14,M,,M,,*59
06/07/2014	11:01:11.723	$GPGGA,110112,2421.4493,N,08114.7998,W,1,8,2.3,14,M,,M,,*52
06/07/2014	11:01:12.727	$GPGGA,110113,2421.4480,N,08114.7995,W,1,8,2.3,14,M,,M,,*5C
06/07/2014	11:01:13.701	$GPGGA,110114,2421.4469,N,08114.7991,W,1,8,2.3,14,M,,M,,*58
06/07/2014	11:01:14.736	$GPGGA,110115,2421.4456,N,08114.7988,W,1,8,2.3,14,M,,M,,*5D
06/07/2014	11:01:15.730	$GPGGA,110116,2421.4444,N,08114.7984,W,1,8,2.3,14,M,,M,,*51
06/07/2014	11:01:16.744	$GPGGA,110117,2421.4430,N,08114.7981,W,1,8,2.3,14,M,,M,,*56
06/07/2014	11:01:17.719	$GPGGA,110118,2421.4418,N,08114.7978,W,1,8,2.3,14,M,,M,,*55
06/07/2014	11:01:18.753	$GPGGA,110119,2421.4406,N,08114.7975,W,1,8,2.3,14,M,,M,,*56
06/07/2014	11:01:19.747	$GPGGA,110120,2421.4394,N,08114.7971,W,1,8,2.3,14,M,,M,,*54
06/07/2014	11:01:20.752	$GPGGA,110121,2421.4382,N,08114.7968,W,1,8,2.3,14,M,,M,,*5A
06/07/2014	11:01:21.726	$GPGGA,110122,2421.4369,N,08114.7965,W,1,8,2.3,14,M,,M,,*51
06/07/2014	11:01:22.730	$GPGGA,110123,2421.4357,N,08114.7961,W,1,8,2.3,14,M,,M,,*59
06/07/2014	11:01:23.754	$GPGGA,110124,2421.4344,N,08114.7957,W,1,8,2.3,14,M,,M,,*59
06/07/2014	11:01:24.759	$GPGGA,110125,2421.4332,N,08114.7954,W,1,8,2.3,14,M,,M,,*5A
06/07/2014	11:01:25.732	$GPGGA,110126,2421.4321,N,08114.7951,W,1,8,2.3,14,M,,M,,*5E
06/07/2014	11:01:26.746	$GPGGA,110127,2421.4308,N,08114.7948,W,1,8,2.3,14,M,,M,,*5C
06/07/2014	11:01:27.761	$GPGGA,110128,2421.4296,N,08114.7945,W,1,8,2.3,14,M,,M,,*58
06/07/2014	11:01:28.775	$GPGGA,110129,2421.4283,N,08114.7942,W,1,8,2.3,14,M,,M,,*5A
06/07/2014	11:01:29.749	$GPGGA,110130,2421.4271,N,08114.7939,W,1,8,2.3,14,M,,M,,*53
06/07/2014	11:01:30.774	$GPGGA,110131,2421.4259,N,08114.7936,W,1,8,2.3,14,M,,M,,*57
06/07/2014	11:01:31.758	$GPGGA,110132,2421.4247,N,08114.7934,W,1,8,2.3,14,M,,M,,*59
06/07/2014	11:01:32.752	$GPGGA,110133,2421.4235,N,08114.7930,W,1,8,2.3,14,M,,M,,*59
06/07/2014	11:01:33.766	$GPGGA,110134,2421.4223,N,08114.7928,W,1,8,2.3,14,M,,M,,*50
06/07/2014	11:01:34.761	$GPGGA,110135,2421.4211,N,08114.7925,W,1,8,2.3,14,M,,M,,*5D
06/07/2014	11:01:35.885	$GPGGA,110136,2421.4199,N,08114.7921,W,1,8,2.3,14,M,,M,,*59
06/07/2014	11:01:36.779	$GPGGA,110137,2421.4186,N,08114.7918,W,1,8,2.3,14,M,,M,,*5C
06/07/2014	11:01:37.518	$GPGGA,110138,2421.4174,N,08114.7916,W,1,8,2.3,14,M,,M,,*50
06/07/2014	11:01:39.657	$GPGGA,110140,2421.4149,N,08114.7909,W,1,8,2.3,14,M,,M,,*5F
06/07/2014	11:01:40.521	$GPGGA,110141,2421.4137,N,08114.7907,W,1,8,2.3,14,M,,M,,*59
06/07/2014	11:01:41.516	$GPGGA,110142,2421.4124,N,08114.7904,W,1,8,2.3,14,M,,M,,*5B
06/07/2014	11:01:42.542	$GPGGA,110143,2421.4112,N,08114.7901,W,1,8,2.3,14,M,,M,,*5A
06/07/2014	11:01:43.633	$GPGGA,110144,2421.4100,N,08114.7898,W,1,8,2.3,14,M,,M,,*5F
06/07/2014	11:01:44.516	$GPGGA,110145,2421.4087,N,08114.7895,W,1,8,2.3,14,M,,M,,*5D
06/07/2014	11:01:45.641	$GPGGA,110146,2421.4075,N,08114.7892,W,1,8,2.3,14,M,,M,,*54
06/07/2014	11:01:46.535	$GPGGA,110147,2421.4063,N,08114.7889,W,1,8,2.3,14,M,,M,,*58
06/07/2014	11:01:47.630	$GPGGA,110148,2421.4050,N,08114.7886,W,1,8,2.3,14,M,,M,,*58
06/07/2014	11:01:48.544	$GPGGA,110149,2421.4039,N,08114.7884,W,1,8,2.3,14,M,,M,,*54
06/07/2014	11:01:49.638	$GPGGA,110150,2421.4026,N,08114.7881,W,1,8,2.3,14,M,,M,,*57
06/07/2014	11:01:50.633	$GPGGA,110151,2421.4014,N,08114.7878,W,1,8,2.3,14,M,,M,,*51
06/07/2014	11:01:51.658	$GPGGA,110152,2421.4003,N,08114.7876,W,1,8,2.3,14,M,,M,,*5A
06/07/2014	11:01:52.671	$GPGGA,110153,2421.3990,N,08114.7873,W,1,8,2.3,14,M,,M,,*5A
06/07/2014	11:01:53.636	$GPGGA,110154,2421.3979,N,08114.7870,W,1,8,2.3,14,M,,M,,*59
06/07/2014	11:01:54.670	$GPGGA,110155,2421.3967,N,08114.7868,W,1,8,2.3,14,M,,M,,*5E
06/07/2014	11:01:55.664	$GPGGA,110156,2421.3954,N,08114.7865,W,1,8,2.3,14,M,,M,,*50
06/07/2014	11:01:56.658	$GPGGA,110157,2421.3943,N,08114.7863,W,1,8,2.3,14,M,,M,,*51
06/07/2014	11:01:57.663	$GPGGA,110158,2421.3931,N,08114.7860,W,1,8,2.3,14,M,,M,,*58
06/07/2014	11:01:58.657	$GPGGA,110159,2421.3920,N,08114.7858,W,1,8,2.3,13,M,,M,,*55
06/07/2014	11:01:59.681	$GPGGA,110200,2421.3909,N,08114.7856,W,1,8,2.3,13,M,,M,,*5F
06/07/2014	11:02:00.665	$GPGGA,110201,2421.3898,N,08114.7853,W,1,8,2.3,13,M,,M,,*52
06/07/2014	11:02:01.659	$GPGGA,110202,2421.3886,N,08114.7850,W,1,8,2.3,13,M,,M,,*5D
06/07/2014	11:02:02.683	$GPGGA,110203,2421.3875,N,08114.7849,W,1,7,3.1,13,M,,M,,*54
06/07/2014	11:02:03.677	$GPGGA,110204,2421.3866,N,08114.7846,W,1,7,2.3,13,M,,M,,*5D
06/07/2014	11:02:04.692	$GPGGA,110205,2421.3855,N,08114.7843,W,1,7,3.1,13,M,,M,,*5A
06/07/2014	11:02:05.676	$GPGGA,110206,2421.3840,N,08114.7841,W,1,7,3.1,13,M,,M,,*5F
06/07/2014	11:02:06.690	$GPGGA,110207,2421.3828,N,08114.7839,W,1,8,2.3,13,M,,M,,*53
06/07/2014	11:02:07.695	$GPGGA,110208,2421.3815,N,08114.7836,W,1,8,2.3,13,M,,M,,*5D
06/07/2014	11:02:08.709	$GPGGA,110209,2421.3802,N,08114.7834,W,1,8,2.3,12,M,,M,,*59
06/07/2014	11:02:09.697	$GPGGA,110210,2421.3790,N,08114.7832,W,1,8,2.3,12,M,,M,,*53
06/07/2014	11:02:10.758	$GPGGA,110211,2421.3777,N,08114.7830,W,1,8,2.3,12,M,,M,,*59
06/07/2014	11:02:11.799	$GPGGA,110212,2421.3765,N,08114.7827,W,1,8,2.3,12,M,,M,,*5F
06/07/2014	11:02:12.815	$GPGGA,110213,2421.3754,N,08114.7825,W,1,8,2.3,12,M,,M,,*5E
06/07/2014	11:02:13.863	$GPGGA,110214,2421.3740,N,08114.7823,W,1,8,2.3,12,M,,M,,*5A
06/07/2014	11:02:14.932	$GPGGA,110215,2421.3728,N,08114.7821,W,1,8,2.3,12,M,,M,,*57
06/07/2014	11:02:15.951	$GPGGA,110216,2421.3716,N,08114.7819,W,1,8,2.3,13,M,,M,,*53
06/07/2014	11:02:17.012	$GPGGA,110217,2421.3704,N,08114.7816,W,1,8,2.3,13,M,,M,,*5E
06/07/2014	11:02:18.018	$GPGGA,110218,2421.3692,N,08114.7814,W,1,8,2.3,13,M,,M,,*5D
06/07/2014	11:02:19.046	$GPGGA,110219,2421.3680,N,08114.7812,W,1,8,2.3,13,M,,M,,*59
06/07/2014	11:02:20.112	$GPGGA,110220,2421.3668,N,08114.7810,W,1,8,2.3,13,M,,M,,*57
06/07/2014	11:02:21.137	$GPGGA,110221,2421.3656,N,08114.7807,W,1,8,2.3,13,M,,M,,*5D
06/07/2014	11:02:22.181	$GPGGA,110222,2421.3643,N,08114.7806,W,1,8,2.3,13,M,,M,,*5B
06/07/2014	11:02:23.193	$GPGGA,110223,2421.3631,N,08114.7803,W,1,8,2.3,13,M,,M,,*5A
06/07/2014	11:02:24.264	$GPGGA,110224,2421.3620,N,08114.7801,W,1,8,2.3,13,M,,M,,*5F
06/07/2014	11:02:25.290	$GPGGA,110225,2421.3609,N,08114.7799,W,1,8,2.3,13,M,,M,,*5B
06/07/2014	11:02:26.304	$GPGGA,110226,2421.3596,N,08114.7797,W,1,8,2.3,13,M,,M,,*53
06/07/2014	11:02:27.345	$GPGGA,110227,2421.3584,N,08114.7795,W,1,8,2.3,14,M,,M,,*54
06/07/2014	11:02:28.410	$GPGGA,110228,2421.3573,N,08114.7794,W,1,8,2.3,14,M,,M,,*52
06/07/2014	11:02:29.436	$GPGGA,110229,2421.3561,N,08114.7791,W,1,8,2.3,14,M,,M,,*55
06/07/2014	11:02:30.570	$GPGGA,110230,2421.3550,N,08114.7788,W,1,8,2.3,14,M,,M,,*57
06/07/2014	11:02:31.651	$GPGGA,110231,2421.3538,N,08114.7787,W,1,8,2.3,14,M,,M,,*57
06/07/2014	11:02:32.693	$GPGGA,110232,2421.3527,N,08114.7785,W,1,8,2.3,14,M,,M,,*58
06/07/2014	11:02:33.610	$GPGGA,110233,2421.3515,N,08114.7782,W,1,8,2.3,14,M,,M,,*5F
06/07/2014	11:02:34.618	$GPGGA,110234,2421.3504,N,08114.7781,W,1,8,2.3,14,M,,M,,*5B
06/07/2014	11:02:35.763	$GPGGA,110235,2421.3492,N,08114.7779,W,1,8,2.3,14,M,,M,,*53
06/07/2014	11:02:36.719	$GPGGA,110236,2421.3480,N,08114.7776,W,1,8,2.3,14,M,,M,,*5C
06/07/2014	11:02:37.855	$GPGGA,110237,2421.3469,N,08114.7775,W,1,8,2.3,14,M,,M,,*59
06/07/2014	11:02:37.509	$GPGGA,110238,2421.3457,N,08114.7774,W,1,8,2.3,14,M,,M,,*5A
06/07/2014	11:02:38.664	$GPGGA,110239,2421.3447,N,08114.7771,W,1,8,2.3,14,M,,M,,*5F
06/07/2014	11:02:39.715	$GPGGA,110240,2421.3436,N,08114.7768,W,1,8,2.3,14,M,,M,,*5F
06/07/2014	11:02:40.714	$GPGGA,110241,2421.3423,N,08114.7767,W,1,8,2.2,14,M,,M,,*54
06/07/2014	11:02:41.756	$GPGGA,110242,2421.3412,N,08114.7765,W,1,8,2.2,14,M,,M,,*57
06/07/2014	11:02:42.816	$GPGGA,110243,2421.3400,N,08114.7762,W,1,8,2.2,14,M,,M,,*52
06/07/2014	11:02:43.857	$GPGGA,110244,2421.3389,N,08114.7761,W,1,8,2.2,14,M,,M,,*50
06/07/2014	11:02:44.877	$GPGGA,110245,2421.3378,N,08114.7759,W,1,8,2.2,14,M,,M,,*54
06/07/2014	11:02:45.917	$GPGGA,110246,2421.3367,N,08114.7756,W,1,8,2.2,14,M,,M,,*56
06/07/2014	11:02:46.968	$GPGGA,110247,2421.3355,N,08114.7754,W,1,8,2.3,14,M,,M,,*55
06/07/2014	11:02:48.019	$GPGGA,110248,2421.3343,N,08114.7753,W,1,8,2.3,14,M,,M,,*5A
06/07/2014	11:02:49.050	$GPGGA,110249,2421.3332,N,08114.7750,W,1,8,2.3,14,M,,M,,*5E
06/07/2014	11:02:50.068	$GPGGA,110250,2421.3321,N,08114.7747,W,1,8,2.3,14,M,,M,,*52
06/07/2014	11:02:51.141	$GPGGA,110251,2421.3309,N,08114.7745,W,1,7,3.1,14,M,,M,,*57
06/07/2014	11:02:52.161	$GPGGA,110252,2421.3298,N,08114.7744,W,1,7,2.3,14,M,,M,,*5F
06/07/2014	11:02:53.180	$GPGGA,110253,2421.3288,N,08114.7740,W,1,8,2.2,14,M,,M,,*55
06/07/2014	11:02:54.220	$GPGGA,110254,2421.3277,N,08114.7738,W,1,8,2.2,14,M,,M,,*5D
06/07/2014	11:02:55.271	$GPGGA,110255,2421.3266,N,08114.7736,W,1,8,2.2,13,M,,M,,*55
06/07/2014	11:02:56.312	$GPGGA,110256,2421.3255,N,08114.7734,W,1,8,2.2,13,M,,M,,*54
06/07/2014	11:02:57.333	$GPGGA,110257,2421.3241,N,08114.7731,W,1,8,2.2,13,M,,M,,*55
06/07/2014	11:02:58.383	$GPGGA,110258,2421.3230,N,08114.7728,W,1,8,2.2,13,M,,M,,*54
06/07/2014	11:02:59.444	$GPGGA,110259,2421.3217,N,08114.7727,W,1,8,2.2,13,M,,M,,*5F
06/07/2014	11:03:00.464	$GPGGA,110300,2421.3205,N,08114.7724,W,1,8,2.2,13,M,,M,,*52
06/07/2014	11:03:01.525	$GPGGA,110301,2421.3192,N,08114.7721,W,1,8,2.2,13,M,,M,,*5B
06/07/2014	11:03:02.524	$GPGGA,110302,2421.3180,N,08114.7719,W,1,8,2.2,13,M,,M,,*50
06/07/2014	11:03:03.596	$GPGGA,110303,2421.3168,N,08114.7716,W,1,8,2.2,13,M,,M,,*58
06/07/2014	11:03:04.616	$GPGGA,110304,2421.3156,N,08114.7714,W,1,8,2.2,13,M,,M,,*50
06/07/2014	11:03:05.688	$GPGGA,110305,2421.3144,N,08114.7711,W,1,8,2.2,13,M,,M,,*57
06/07/2014	11:03:06.676	$GPGGA,110306,2421.3132,N,08114.7709,W,1,8,2.2,13,M,,M,,*5C
06/07/2014	11:03:07.761	$GPGGA,110307,2421.3120,N,08114.7706,W,1,8,2.2,12,M,,M,,*50
06/07/2014	11:03:08.789	$GPGGA,110308,2421.3108,N,08114.7704,W,1,8,2.2,12,M,,M,,*57
06/07/2014	11:03:09.808	$GPGGA,110309,2421.3097,N,08114.7702,W,1,8,2.2,12,M,,M,,*57
06/07/2014	11:03:10.849	$GPGGA,110310,2421.3085,N,08114.7699,W,1,8,2.2,12,M,,M,,*5F
06/07/2014	11:03:11.891	$GPGGA,110311,2421.3073,N,08114.7696,W,1,8,2.2,12,M,,M,,*58
06/07/2014	11:03:12.919	$GPGGA,110312,2421.3061,N,08114.7694,W,1,8,2.2,12,M,,M,,*5A
06/07/2014	11:03:13.970	$GPGGA,110313,2421.3050,N,08114.7691,W,1,8,2.2,12,M,,M,,*5C
06/07/2014	11:03:15.167	$GPGGA,110314,2421.3038,N,08114.7689,W,1,8,2.2,12,M,,M,,*5C
06/07/2014	11:03:16.021	$GPGGA,110315,2421.3026,N,08114.7686,W,1,8,2.2,12,M,,M,,*5D
06/07/2014	11:03:17.102	$GPGGA,110316,2421.3014,N,08114.7682,W,1,8,2.2,12,M,,M,,*5B
06/07/2014	11:03:18.101	$GPGGA,110317,2421.3001,N,08114.7680,W,1,8,2.2,12,M,,M,,*5C
06/07/2014	11:03:19.246	$GPGGA,110318,2421.2989,N,08114.7677,W,1,8,2.2,12,M,,M,,*53
06/07/2014	11:03:20.203	$GPGGA,110319,2421.2977,N,08114.7675,W,1,8,2.2,12,M,,M,,*51
06/07/2014	11:03:21.233	$GPGGA,110320,2421.2966,N,08114.7672,W,1,8,2.2,12,M,,M,,*5C
06/07/2014	11:03:22.253	$GPGGA,110321,2421.2953,N,08114.7670,W,1,8,2.2,12,M,,M,,*59
06/07/2014	11:03:23.398	$GPGGA,110322,2421.2941,N,08114.7667,W,1,8,2.2,12,M,,M,,*5F
06/07/2014	11:03:24.356	$GPGGA,110323,2421.2930,N,08114.7664,W,1,8,2.2,12,M,,M,,*5B
06/07/2014	11:03:25.396	$GPGGA,110324,2421.2917,N,08114.7663,W,1,8,2.2,12,M,,M,,*5E
06/07/2014	11:03:26.415	$GPGGA,110325,2421.2906,N,08114.7660,W,1,8,2.2,12,M,,M,,*5C
06/07/2014	11:03:27.633	$GPGGA,110326,2421.2894,N,08114.7657,W,1,8,2.2,12,M,,M,,*51
06/07/2014	11:03:28.694	$GPGGA,110327,2421.2883,N,08114.7656,W,1,8,2.2,12,M,,M,,*57
06/07/2014	11:03:29.640	$GPGGA,110328,2421.2872,N,08114.7654,W,1,8,2.2,12,M,,M,,*54
06/07/2014	11:03:30.722	$GPGGA,110329,2421.2859,N,08114.7651,W,1,8,2.2,12,M,,M,,*59
06/07/2014	11:03:31.794	$GPGGA,110330,2421.2847,N,08114.7648,W,1,8,2.2,12,M,,M,,*56
06/07/2014	11:03:32.783	$GPGGA,110331,2421.2836,N,08114.7647,W,1,8,2.2,12,M,,M,,*5E
06/07/2014	11:03:33.886	$GPGGA,110332,2421.2822,N,08114.7644,W,1,8,2.2,12,M,,M,,*5B
06/07/2014	11:03:34.864	$GPGGA,110333,2421.2811,N,08114.7642,W,1,8,2.2,12,M,,M,,*5C
06/07/2014	11:03:35.863	$GPGGA,110334,2421.2800,N,08114.7640,W,1,8,2.2,11,M,,M,,*5A
06/07/2014	11:03:36.935	$GPGGA,110335,2421.2787,N,08114.7637,W,1,8,2.2,11,M,,M,,*5B
06/07/2014	11:03:38.027	$GPGGA,110336,2421.2775,N,08114.7635,W,1,8,2.2,11,M,,M,,*57
06/07/2014	11:03:39.055	$GPGGA,110337,2421.2764,N,08114.7632,W,1,8,2.2,11,M,,M,,*51
06/07/2014	11:03:37.654	$GPGGA,110338,2421.2751,N,08114.7630,W,1,8,2.2,11,M,,M,,*5A
06/07/2014	11:03:38.684	$GPGGA,110339,2421.2738,N,08114.7628,W,1,8,2.2,12,M,,M,,*5E
06/07/2014	11:03:39.756	$GPGGA,110340,2421.2726,N,08114.7625,W,1,8,2.2,12,M,,M,,*52
06/07/2014	11:03:40.692	$GPGGA,110341,2421.2714,N,08114.7623,W,1,8,2.2,12,M,,M,,*54
06/07/2014	11:03:41.819	$GPGGA,110342,2421.2702,N,08114.7621,W,1,8,2.2,12,M,,M,,*52
06/07/2014	11:03:42.847	$GPGGA,110343,2421.2691,N,08114.7619,W,1,8,2.2,12,M,,M,,*53
06/07/2014	11:03:43.890	$GPGGA,110344,2421.2679,N,08114.7617,W,1,8,2.2,12,M,,M,,*5C
06/07/2014	11:03:44.896	$GPGGA,110345,2421.2667,N,08114.7615,W,1,8,2.2,12,M,,M,,*50
06/07/2014	11:03:45.946	$GPGGA,110346,2421.2656,N,08114.7613,W,1,8,2.2,12,M,,M,,*57
06/07/2014	11:03:46.987	$GPGGA,110347,2421.2645,N,08114.7611,W,1,8,2.2,12,M,,M,,*56
06/07/2014	11:03:48.038	$GPGGA,110348,2421.2632,N,08114.7609,W,1,8,2.2,12,M,,M,,*50
06/07/2014	11:03:49.058	$GPGGA,110349,2421.2620,N,08114.7607,W,1,8,2.2,12,M,,M,,*5C
06/07/2014	11:03:50.052	$GPGGA,110350,2421.2608,N,08114.7604,W,1,8,2.2,12,M,,M,,*5D
06/07/2014	11:03:51.129	$GPGGA,110351,2421.2596,N,08114.7602,W,1,8,2.2,12,M,,M,,*5E
06/07/2014	11:03:52.200	$GPGGA,110352,2421.2585,N,08114.7600,W,1,8,2.2,12,M,,M,,*5D
06/07/2014	11:03:53.199	$GPGGA,110353,2421.2573,N,08114.7598,W,1,8,2.2,12,M,,M,,*57
06/07/2014	11:03:54.261	$GPGGA,110354,2421.2561,N,08114.7596,W,1,8,2.2,12,M,,M,,*5D
06/07/2014	11:03:55.291	$GPGGA,110355,2421.2551,N,08114.7594,W,1,8,2.2,12,M,,M,,*5D
06/07/2014	11:03:56.342	$GPGGA,110356,2421.2538,N,08114.7592,W,1,8,2.2,12,M,,M,,*57
06/07/2014	11:03:57.300	$GPGGA,110357,2421.2526,N,08114.7589,W,1,8,2.2,12,M,,M,,*53
06/07/2014	11:03:58.413	$GPGGA,110358,2421.2514,N,08114.7587,W,1,8,2.2,12,M,,M,,*53
06/07/2014	11:03:59.422	$GPGGA,110359,2421.2502,N,08114.7586,W,1,8,2.2,12,M,,M,,*54
06/07/2014	11:04:00.525	$GPGGA,110400,2421.2491,N,08114.7583,W,1,8,2.2,12,M,,M,,*51
06/07/2014	11:04:01.585	$GPGGA,110401,2421.2479,N,08114.7580,W,1,8,2.2,12,M,,M,,*55
06/07/2014	11:04:02.502	$GPGGA,110402,2421.2468,N,08114.7579,W,1,8,2.2,12,M,,M,,*50
06/07/2014	11:04:03.677	$GPGGA,110403,2421.2457,N,08114.7576,W,1,8,2.2,13,M,,M,,*53
06/07/2014	11:04:04.718	$GPGGA,110404,2421.2444,N,08114.7574,W,1,8,2.2,13,M,,M,,*54
06/07/2014	11:04:05.686	$GPGGA,110405,2421.2433,N,08114.7572,W,1,8,2.2,13,M,,M,,*53
06/07/2014	11:04:06.726	$GPGGA,110406,2421.2421,N,08114.7570,W,1,8,2.2,13,M,,M,,*51
06/07/2014	11:04:07.736	$GPGGA,110407,2421.2410,N,08114.7568,W,1,8,2.2,13,M,,M,,*5B
06/07/2014	11:04:08.745	$GPGGA,110408,2421.2397,N,08114.7565,W,1,8,2.2,13,M,,M,,*51
06/07/2014	11:04:09.921	$GPGGA,110409,2421.2386,N,08114.7563,W,1,8,2.2,13,M,,M,,*56
06/07/2014	11:04:10.909	$GPGGA,110410,2421.2374,N,08114.7561,W,1,8,2.2,13,M,,M,,*51
06/07/2014	11:04:11.950	$GPGGA,110411,2421.2363,N,08114.7558,W,1,8,2.2,13,M,,M,,*5C
06/07/2014	11:04:13.001	$GPGGA,110412,2421.2350,N,08114.7556,W,1,8,2.2,13,M,,M,,*51
06/07/2014	11:04:14.031	$GPGGA,110413,2421.2338,N,08114.7553,W,1,8,2.2,13,M,,M,,*5B
06/07/2014	11:04:15.082	$GPGGA,110414,2421.2327,N,08114.7550,W,1,8,2.2,13,M,,M,,*51
06/07/2014	11:04:16.102	$GPGGA,110415,2421.2316,N,08114.7548,W,1,8,2.2,13,M,,M,,*5B
06/07/2014	11:04:17.154	$GPGGA,110416,2421.2303,N,08114.7546,W,1,8,2.2,13,M,,M,,*52
06/07/2014	11:04:18.204	$GPGGA,110417,2421.2292,N,08114.7543,W,1,8,2.2,13,M,,M,,*5F
06/07/2014	11:04:19.234	$GPGGA,110418,2421.2280,N,08114.7541,W,1,8,2.2,13,M,,M,,*51
06/07/2014	11:04:20.285	$GPGGA,110419,2421.2269,N,08114.7539,W,1,8,2.2,13,M,,M,,*58
06/07/2014	11:04:21.326	$GPGGA,110420,2421.2256,N,08114.7536,W,1,8,2.2,13,M,,M,,*51
06/07/2014	11:04:22.345	$GPGGA,110421,2421.2244,N,08114.7533,W,1,8,2.2,13,M,,M,,*56
06/07/2014	11:04:23.376	$GPGGA,110422,2421.2233,N,08114.7530,W,1,8,2.2,13,M,,M,,*56
06/07/2014	11:04:24.415	$GPGGA,110423,2421.2222,N,08114.7528,W,1,8,2.2,13,M,,M,,*5E
06/07/2014	11:04:25.466	$GPGGA,110424,2421.2209,N,08114.7525,W,1,8,2.2,13,M,,M,,*5D
06/07/2014	11:04:26.517	$GPGGA,110425,2421.2197,N,08114.7522,W,1,8,2.2,13,M,,M,,*5F
06/07/2014	11:04:27.528	$GPGGA,110426,2421.2186,N,08114.7519,W,1,8,2.2,13,M,,M,,*54
06/07/2014	11:04:28.599	$GPGGA,110427,2421.2173,N,08114.7516,W,1,8,2.2,13,M,,M,,*50
06/07/2014	11:04:29.702	$GPGGA,110428,2421.2161,N,08114.7514,W,1,8,2.2,13,M,,M,,*5E
06/07/2014	11:04:30.702	$GPGGA,110429,2421.2150,N,08114.7510,W,1,8,2.2,13,M,,M,,*59
06/07/2014	11:04:31.689	$GPGGA,110430,2421.2137,N,08114.7507,W,1,8,2.2,13,M,,M,,*56
06/07/2014	11:04:32.751	$GPGGA,110431,2421.2125,N,08114.7505,W,1,8,2.2,13,M,,M,,*56
06/07/2014	11:04:33.781	$GPGGA,110432,2421.2113,N,08114.7501,W,1,8,2.2,13,M,,M,,*54
06/07/2014	11:04:34.832	$GPGGA,110433,2421.2101,N,08114.7499,W,1,8,2.2,13,M,,M,,*56
06/07/2014	11:04:35.841	$GPGGA,110434,2421.2101,N,08114.7499,W,1,8,2.2,13,M,,M,,*51
06/07/2014	11:04:36.892	$GPGGA,110435,2421.2076,N,08114.7493,W,1,8,2.2,13,M,,M,,*5B
06/07/2014	11:04:37.964	$GPGGA,110436,2421.2076,N,08114.7493,W,1,8,2.2,13,M,,M,,*58
06/07/2014	11:04:38.984	$GPGGA,110437,2421.2053,N,08114.7488,W,1,8,2.2,13,M,,M,,*54
06/07/2014	11:04:37.580	$GPGGA,110438,2421.2041,N,08114.7485,W,1,8,2.2,13,M,,M,,*55
06/07/2014	11:04:38.652	$GPGGA,110439,2421.2029,N,08114.7481,W,1,8,2.2,13,M,,M,,*5E
06/07/2014	11:04:39.692	$GPGGA,110440,2421.2029,N,08114.7481,W,1,8,2.2,13,M,,M,,*50
06/07/2014	11:04:40.702	$GPGGA,110441,2421.2006,N,08114.7477,W,1,8,2.2,13,M,,M,,*55
06/07/2014	11:04:41.711	$GPGGA,110442,2421.2006,N,08114.7477,W,1,8,2.2,13,M,,M,,*56
06/07/2014	11:04:42.772	$GPGGA,110443,2421.1981,N,08114.7470,W,1,8,2.2,13,M,,M,,*55
06/07/2014	11:04:43.834	$GPGGA,110444,2421.1969,N,08114.7468,W,1,8,2.2,13,M,,M,,*5D
06/07/2014	11:04:44.854	$GPGGA,110445,2421.1958,N,08114.7465,W,1,8,2.2,13,M,,M,,*53
06/07/2014	11:04:45.873	$GPGGA,110446,2421.1958,N,08114.7465,W,1,8,2.2,13,M,,M,,*50
06/07/2014	11:04:46.914	$GPGGA,110447,2421.1934,N,08114.7459,W,1,8,2.2,13,M,,M,,*54
06/07/2014	11:04:48.007	$GPGGA,110448,2421.1922,N,08114.7456,W,1,8,2.2,13,M,,M,,*53
06/07/2014	11:04:48.974	$GPGGA,110449,2421.1911,N,08114.7453,W,1,8,2.2,13,M,,M,,*57
06/07/2014	11:04:50.029	$GPGGA,110450,2421.1911,N,08114.7453,W,1,8,2.2,13,M,,M,,*5F
06/07/2014	11:04:51.056	$GPGGA,110451,2421.1887,N,08114.7447,W,1,8,2.2,13,M,,M,,*55
06/07/2014	11:04:52.148	$GPGGA,110452,2421.1887,N,08114.7447,W,1,8,2.2,13,M,,M,,*56
06/07/2014	11:04:53.241	$GPGGA,110453,2421.1864,N,08114.7441,W,1,8,2.2,13,M,,M,,*5C
06/07/2014	11:04:54.177	$GPGGA,110454,2421.1852,N,08114.7439,W,1,8,2.2,13,M,,M,,*51
06/07/2014	11:04:55.198	$GPGGA,110455,2421.1841,N,08114.7436,W,1,8,2.2,13,M,,M,,*5D
06/07/2014	11:04:56.382	$GPGGA,110456,2421.1829,N,08114.7434,W,1,8,2.2,13,M,,M,,*52
06/07/2014	11:04:57.298	$GPGGA,110457,2421.1817,N,08114.7432,W,1,8,2.2,13,M,,M,,*58
06/07/2014	11:04:58.339	$GPGGA,110458,2421.1817,N,08114.7432,W,1,8,2.2,13,M,,M,,*57
06/07/2014	11:04:59.473	$GPGGA,110459,2421.1794,N,08114.7426,W,1,8,2.2,13,M,,M,,*57
06/07/2014	11:05:00.451	$GPGGA,110500,2421.1783,N,08114.7424,W,1,8,2.2,13,M,,M,,*5E
06/07/2014	11:05:01.565	$GPGGA,110501,2421.1771,N,08114.7421,W,1,8,2.2,13,M,,M,,*57
06/07/2014	11:05:02.595	$GPGGA,110502,2421.1759,N,08114.7419,W,1,8,2.2,13,M,,M,,*55
06/07/2014	11:05:03.656	$GPGGA,110503,2421.1747,N,08114.7416,W,1,8,2.2,13,M,,M,,*54
06/07/2014	11:05:04.676	$GPGGA,110504,2421.1735,N,08114.7413,W,1,8,2.2,13,M,,M,,*53
06/07/2014	11:05:05.706	$GPGGA,110505,2421.1724,N,08114.7411,W,1,8,2.2,13,M,,M,,*50
06/07/2014	11:05:06.736	$GPGGA,110506,2421.1712,N,08114.7409,W,1,8,2.2,13,M,,M,,*5F
06/07/2014	11:05:07.798	$GPGGA,110507,2421.1700,N,08114.7406,W,1,8,2.2,13,M,,M,,*52
06/07/2014	11:05:08.818	$GPGGA,110508,2421.1688,N,08114.7404,W,1,8,2.2,13,M,,M,,*5E
06/07/2014	11:05:09.848	$GPGGA,110509,2421.1676,N,08114.7402,W,1,8,2.2,13,M,,M,,*58
06/07/2014	11:05:10.878	$GPGGA,110510,2421.1664,N,08114.7399,W,1,8,2.2,13,M,,M,,*56
06/07/2014	11:05:11.950	$GPGGA,110511,2421.1652,N,08114.7397,W,1,8,2.2,13,M,,M,,*5C
06/07/2014	11:05:12.990	$GPGGA,110512,2421.1641,N,08114.7395,W,1,8,2.2,13,M,,M,,*5F
06/07/2014	11:05:14.030	$GPGGA,110513,2421.1629,N,08114.7392,W,1,8,2.2,13,M,,M,,*57
06/07/2014	11:05:15.039	$GPGGA,110514,2421.1617,N,08114.7390,W,1,8,2.2,13,M,,M,,*5F
06/07/2014	11:05:16.090	$GPGGA,110515,2421.1605,N,08114.7388,W,1,8,2.2,13,M,,M,,*54
06/07/2014	11:05:17.131	$GPGGA,110516,2421.1593,N,08114.7386,W,1,8,2.2,13,M,,M,,*55
06/07/2014	11:05:18.161	$GPGGA,110517,2421.1581,N,08114.7384,W,1,8,2.2,13,M,,M,,*55
06/07/2014	11:05:19.191	$GPGGA,110518,2421.1569,N,08114.7382,W,1,8,2.2,13,M,,M,,*5A
06/07/2014	11:05:20.232	$GPGGA,110519,2421.1557,N,08114.7380,W,1,8,2.2,13,M,,M,,*54
06/07/2014	11:05:21.293	$GPGGA,110520,2421.1545,N,08114.7377,W,1,8,2.2,13,M,,M,,*55
06/07/2014	11:05:22.344	$GPGGA,110521,2421.1533,N,08114.7375,W,1,8,2.2,13,M,,M,,*57
06/07/2014	11:05:23.364	$GPGGA,110522,2421.1521,N,08114.7373,W,1,8,2.2,13,M,,M,,*51
06/07/2014	11:05:24.426	$GPGGA,110523,2421.1508,N,08114.7370,W,1,8,2.2,13,M,,M,,*58
06/07/2014	11:05:25.456	$GPGGA,110524,2421.1497,N,08114.7369,W,1,8,2.2,13,M,,M,,*50
06/07/2014	11:05:26.465	$GPGGA,110525,2421.1485,N,08114.7367,W,1,8,2.2,13,M,,M,,*5C
06/07/2014	11:05:27.506	$GPGGA,110526,2421.1472,N,08114.7364,W,1,8,2.2,13,M,,M,,*54
06/07/2014	11:05:28.536	$GPGGA,110527,2421.1460,N,08114.7361,W,1,8,2.2,13,M,,M,,*53
06/07/2014	11:05:29.597	$GPGGA,110528,2421.1449,N,08114.7360,W,1,8,2.2,13,M,,M,,*56
06/07/2014	11:05:30.648	$GPGGA,110529,2421.1436,N,08114.7358,W,1,8,2.2,13,M,,M,,*54
06/07/2014	11:05:31.647	$GPGGA,110530,2421.1424,N,08114.7355,W,1,8,2.2,13,M,,M,,*52
06/07/2014	11:05:32.687	$GPGGA,110531,2421.1413,N,08114.7353,W,1,8,2.2,13,M,,M,,*51
06/07/2014	11:05:33.759	$GPGGA,110532,2421.1402,N,08114.7351,W,1,8,2.2,13,M,,M,,*50
06/07/2014	11:05:34.774	$GPGGA,110533,2421.1389,N,08114.7348,W,1,8,2.2,13,M,,M,,*5D
06/07/2014	11:05:35.809	$GPGGA,110534,2421.1376,N,08114.7345,W,1,8,2.2,13,M,,M,,*57
06/07/2014	11:05:36.953	$GPGGA,110535,2421.1366,N,08114.7343,W,1,8,2.2,13,M,,M,,*51
06/07/2014	11:05:37.900	$GPGGA,110536,2421.1353,N,08114.7341,W,1,8,2.2,13,M,,M,,*56
06/07/2014	11:05:38.920	$GPGGA,110537,2421.1341,N,08114.7338,W,1,8,2.2,13,M,,M,,*5A
06/07/2014	11:05:37.537	$GPGGA,110538,2421.1329,N,08114.7335,W,1,8,2.2,13,M,,M,,*56
06/07/2014	11:05:38.588	$GPGGA,110539,2421.1317,N,08114.7333,W,1,8,2.2,13,M,,M,,*5C
06/07/2014	11:05:39.639	$GPGGA,110540,2421.1305,N,08114.7330,W,1,8,2.2,13,M,,M,,*52
06/07/2014	11:05:40.659	$GPGGA,110541,2421.1293,N,08114.7326,W,1,8,2.2,13,M,,M,,*5A
06/07/2014	11:05:41.700	$GPGGA,110542,2421.1281,N,08114.7324,W,1,8,2.2,13,M,,M,,*58
06/07/2014	11:05:42.869	$GPGGA,110543,2421.1269,N,08114.7321,W,1,8,2.2,13,M,,M,,*5A
06/07/2014	11:05:43.898	$GPGGA,110544,2421.1257,N,08114.7318,W,1,8,2.2,13,M,,M,,*5A
06/07/2014	11:05:44.811	$GPGGA,110545,2421.1245,N,08114.7316,W,1,8,2.2,13,M,,M,,*56
06/07/2014	11:05:45.841	$GPGGA,110546,2421.1234,N,08114.7313,W,1,8,2.2,13,M,,M,,*56
06/07/2014	11:05:46.975	$GPGGA,110547,2421.1222,N,08114.7310,W,1,8,2.2,13,M,,M,,*53
06/07/2014	11:05:48.047	$GPGGA,110548,2421.1210,N,08114.7307,W,1,8,2.2,13,M,,M,,*5B
06/07/2014	11:05:48.962	$GPGGA,110549,2421.1198,N,08114.7304,W,1,8,2.2,13,M,,M,,*5A
06/07/2014	11:05:50.096	$GPGGA,110550,2421.1185,N,08114.7301,W,1,8,2.2,13,M,,M,,*5B
06/07/2014	11:05:51.126	$GPGGA,110551,2421.1174,N,08114.7298,W,1,8,2.2,13,M,,M,,*55
06/07/2014	11:05:52.188	$GPGGA,110552,2421.1162,N,08114.7295,W,1,8,2.2,13,M,,M,,*5C
06/07/2014	11:05:53.208	$GPGGA,110553,2421.1149,N,08114.7292,W,1,8,2.2,13,M,,M,,*53
06/07/2014	11:05:54.248	$GPGGA,110554,2421.1138,N,08114.7289,W,1,8,2.2,13,M,,M,,*58
06/07/2014	11:05:55.278	$GPGGA,110555,2421.1125,N,08114.7286,W,1,8,2.2,13,M,,M,,*5A
06/07/2014	11:05:56.340	$GPGGA,110556,2421.1114,N,08114.7282,W,1,8,2.2,13,M,,M,,*5F
06/07/2014	11:05:57.349	$GPGGA,110557,2421.1102,N,08114.7279,W,1,8,2.2,13,M,,M,,*5D
06/07/2014	11:05:58.390	$GPGGA,110558,2421.1091,N,08114.7276,W,1,8,2.2,13,M,,M,,*56
06/07/2014	11:05:59.462	$GPGGA,110559,2421.1078,N,08114.7273,W,1,8,2.2,13,M,,M,,*55
06/07/2014	11:06:00.502	$GPGGA,110600,2421.1066,N,08114.7270,W,1,8,2.2,13,M,,M,,*56
06/07/2014	11:06:01.532	$GPGGA,110601,2421.1055,N,08114.7266,W,1,8,2.2,13,M,,M,,*50
06/07/2014	11:06:02.552	$GPGGA,110602,2421.1042,N,08114.7264,W,1,8,2.2,13,M,,M,,*57
06/07/2014	11:06:03.614	$GPGGA,110603,2421.1031,N,08114.7261,W,1,8,2.2,13,M,,M,,*57
06/07/2014	11:06:04.654	$GPGGA,110604,2421.1019,N,08114.7257,W,1,8,2.2,13,M,,M,,*5F
06/07/2014	11:06:05.685	$GPGGA,110605,2421.1008,N,08114.7255,W,1,8,2.2,13,M,,M,,*5C
06/07/2014	11:06:06.713	$GPGGA,110606,2421.0995,N,08114.7252,W,1,8,2.2,13,M,,M,,*54
06/07/2014	11:06:07.775	$GPGGA,110607,2421.0983,N,08114.7249,W,1,8,2.2,13,M,,M,,*58
06/07/2014	11:06:08.805	$GPGGA,110608,2421.0972,N,08114.7246,W,1,8,2.2,13,M,,M,,*56
06/07/2014	11:06:09.856	$GPGGA,110609,2421.0961,N,08114.7244,W,1,7,2.3,13,M,,M,,*59
06/07/2014	11:06:10.855	$GPGGA,110610,2421.0949,N,08114.7241,W,1,7,2.2,13,M,,M,,*5F
06/07/2014	11:06:11.927	$GPGGA,110611,2421.0938,N,08114.7238,W,1,8,2.2,13,M,,M,,*59
06/07/2014	11:06:12.957	$GPGGA,110612,2421.0927,N,08114.7235,W,1,8,2.2,13,M,,M,,*59
06/07/2014	11:06:13.977	$GPGGA,110613,2421.0916,N,08114.7232,W,1,8,2.2,13,M,,M,,*5D
06/07/2014	11:06:15.017	$GPGGA,110614,2421.0904,N,08114.7228,W,1,8,2.2,13,M,,M,,*52
06/07/2014	11:06:16.079	$GPGGA,110615,2421.0894,N,08114.7225,W,1,8,2.2,13,M,,M,,*56
06/07/2014	11:06:17.103	$GPGGA,110616,2421.0882,N,08114.7223,W,1,8,2.2,13,M,,M,,*54
06/07/2014	11:06:18.160	$GPGGA,110617,2421.0871,N,08114.7220,W,1,8,2.2,13,M,,M,,*5A
06/07/2014	11:06:19.159	$GPGGA,110618,2421.0858,N,08114.7218,W,1,8,2.2,13,M,,M,,*55
06/07/2014	11:06:20.201	$GPGGA,110619,2421.0847,N,08114.7215,W,1,8,2.2,13,M,,M,,*57
06/07/2014	11:06:21.386	$GPGGA,110620,2421.0835,N,08114.7211,W,1,8,2.2,13,M,,M,,*5C
06/07/2014	11:06:22.406	$GPGGA,110621,2421.0822,N,08114.7209,W,1,8,2.2,13,M,,M,,*52
06/07/2014	11:06:23.332	$GPGGA,110622,2421.0810,N,08114.7206,W,1,8,2.2,13,M,,M,,*5F
06/07/2014	11:06:24.371	$GPGGA,110623,2421.0798,N,08114.7203,W,1,8,2.2,13,M,,M,,*54
06/07/2014	11:06:25.433	$GPGGA,110624,2421.0785,N,08114.7200,W,1,8,2.2,13,M,,M,,*5C
06/07/2014	11:06:26.453	$GPGGA,110625,2421.0773,N,08114.7198,W,1,8,2.2,13,M,,M,,*56
06/07/2014	11:06:27.576	$GPGGA,110626,2421.0761,N,08114.7196,W,1,8,2.2,13,M,,M,,*58
06/07/2014	11:06:28.641	$GPGGA,110627,2421.0749,N,08114.7193,W,1,8,2.2,13,M,,M,,*56
06/07/2014	11:06:29.574	$GPGGA,110628,2421.0737,N,08114.7190,W,1,8,2.2,13,M,,M,,*53
06/07/2014	11:06:30.615	$GPGGA,110629,2421.0725,N,08114.7188,W,1,8,2.2,13,M,,M,,*58
06/07/2014	11:06:31.728	$GPGGA,110630,2421.0713,N,08114.7185,W,1,8,2.2,13,M,,M,,*58
06/07/2014	11:06:32.769	$GPGGA,110631,2421.0701,N,08114.7183,W,1,8,2.2,14,M,,M,,*5B
06/07/2014	11:06:33.716	$GPGGA,110632,2421.0690,N,08114.7179,W,1,8,2.2,14,M,,M,,*54
06/07/2014	11:06:34.861	$GPGGA,110633,2421.0677,N,08114.7176,W,1,8,2.2,14,M,,M,,*53
06/07/2014	11:06:35.787	$GPGGA,110634,2421.0665,N,08114.7174,W,1,8,2.2,14,M,,M,,*55
06/07/2014	11:06:36.827	$GPGGA,110635,2421.0654,N,08114.7171,W,1,8,2.2,14,M,,M,,*53
06/07/2014	11:06:37.878	$GPGGA,110636,2421.0640,N,08114.7169,W,1,8,2.2,14,M,,M,,*5C
06/07/2014	11:06:39.002	$GPGGA,110637,2421.0629,N,08114.7167,W,1,8,2.2,14,M,,M,,*5C
06/07/2014	11:06:37.609	$GPGGA,110638,2421.0616,N,08114.7164,W,1,8,2.2,14,M,,M,,*5C
06/07/2014	11:06:38.650	$GPGGA,110639,2421.0603,N,08114.7161,W,1,8,2.2,14,M,,M,,*5C
06/07/2014	11:06:39.701	$GPGGA,110640,2421.0591,N,08114.7159,W,1,8,2.2,14,M,,M,,*51
06/07/2014	11:06:40.761	$GPGGA,110641,2421.0580,N,08114.7157,W,1,8,2.2,14,M,,M,,*5E
06/07/2014	11:06:41.760	$GPGGA,110642,2421.0567,N,08114.7154,W,1,8,2.2,14,M,,M,,*57
06/07/2014	11:06:42.821	$GPGGA,110643,2421.0555,N,08114.7151,W,1,8,2.2,14,M,,M,,*52
06/07/2014	11:06:43.842	$GPGGA,110644,2421.0543,N,08114.7150,W,1,8,2.2,14,M,,M,,*53
06/07/2014	11:06:44.882	$GPGGA,110645,2421.0531,N,08114.7147,W,1,8,2.2,14,M,,M,,*51
06/07/2014	11:06:45.901	$GPGGA,110646,2421.0519,N,08114.7144,W,1,8,2.2,14,M,,M,,*5B
06/07/2014	11:06:46.973	$GPGGA,110647,2421.0507,N,08114.7142,W,1,8,2.2,14,M,,M,,*53
06/07/2014	11:06:48.003	$GPGGA,110648,2421.0495,N,08114.7139,W,1,8,2.2,14,M,,M,,*5A
06/07/2014	11:06:49.065	$GPGGA,110649,2421.0484,N,08114.7137,W,1,8,2.2,14,M,,M,,*55
06/07/2014	11:06:50.062	$GPGGA,110650,2421.0471,N,08114.7134,W,1,8,2.2,14,M,,M,,*54
06/07/2014	11:06:51.125	$GPGGA,110651,2421.0459,N,08114.7132,W,1,8,2.2,14,M,,M,,*59
06/07/2014	11:06:52.166	$GPGGA,110652,2421.0446,N,08114.7129,W,1,8,2.2,14,M,,M,,*5E
06/07/2014	11:06:53.186	$GPGGA,110653,2421.0434,N,08114.7127,W,1,8,2.2,14,M,,M,,*54
06/07/2014	11:06:54.226	$GPGGA,110654,2421.0423,N,08114.7124,W,1,8,2.2,14,M,,M,,*56
06/07/2014	11:06:55.288	$GPGGA,110655,2421.0410,N,08114.7121,W,1,8,2.2,14,M,,M,,*52
06/07/2014	11:06:56.297	$GPGGA,110656,2421.0398,N,08114.7119,W,1,8,2.2,14,M,,M,,*5D
06/07/2014	11:06:57.358	$GPGGA,110657,2421.0387,N,08114.7117,W,1,8,2.2,14,M,,M,,*5C
06/07/2014	11:06:58.367	$GPGGA,110658,2421.0374,N,08114.7114,W,1,8,2.2,14,M,,M,,*5C
06/07/2014	11:06:59.407	$GPGGA,110659,2421.0362,N,08114.7111,W,1,8,2.2,14,M,,M,,*5F
06/07/2014	11:07:00.469	$GPGGA,110700,2421.0350,N,08114.7109,W,1,8,2.2,14,M,,M,,*5A
06/07/2014	11:07:01.489	$GPGGA,110701,2421.0338,N,08114.7106,W,1,8,2.2,14,M,,M,,*5A
06/07/2014	11:07:02.540	$GPGGA,110702,2421.0326,N,08114.7104,W,1,8,2.2,14,M,,M,,*54
06/07/2014	11:07:03.559	$GPGGA,110703,2421.0313,N,08114.7101,W,1,8,2.2,14,M,,M,,*56
06/07/2014	11:07:04.610	$GPGGA,110704,2421.0301,N,08114.7099,W,1,8,2.2,14,M,,M,,*52
06/07/2014	11:07:05.651	$GPGGA,110705,2421.0289,N,08114.7096,W,1,8,2.2,14,M,,M,,*5D
06/07/2014	11:07:06.681	$GPGGA,110706,2421.0276,N,08114.7093,W,1,8,2.2,14,M,,M,,*5B
06/07/2014	11:07:07.722	$GPGGA,110707,2421.0264,N,08114.7091,W,1,8,2.2,14,M,,M,,*5B
06/07/2014	11:07:08.762	$GPGGA,110708,2421.0253,N,08114.7088,W,1,8,2.2,14,M,,M,,*58
06/07/2014	11:07:09.801	$GPGGA,110709,2421.0240,N,08114.7085,W,1,8,2.2,14,M,,M,,*56
06/07/2014	11:07:10.828	$GPGGA,110710,2421.0228,N,08114.7082,W,1,8,2.2,14,M,,M,,*57
06/07/2014	11:07:11.844	$GPGGA,110711,2421.0217,N,08114.7080,W,1,8,2.2,14,M,,M,,*58
06/07/2014	11:07:12.870	$GPGGA,110712,2421.0203,N,08114.7077,W,1,8,2.2,14,M,,M,,*56
06/07/2014	11:07:13.876	$GPGGA,110713,2421.0190,N,08114.7074,W,1,8,2.2,14,M,,M,,*5D
06/07/2014	11:07:14.885	$GPGGA,110714,2421.0178,N,08114.7071,W,1,8,2.2,14,M,,M,,*59
06/07/2014	11:07:16.021	$GPGGA,110715,2421.0167,N,08114.7068,W,1,8,2.2,14,M,,M,,*5E
06/07/2014	11:07:17.042	$GPGGA,110716,2421.0154,N,08114.7065,W,1,8,2.2,14,M,,M,,*50
06/07/2014	11:07:18.011	$GPGGA,110717,2421.0141,N,08114.7063,W,1,8,2.2,14,M,,M,,*53
06/07/2014	11:07:18.926	$GPGGA,110718,2421.0130,N,08114.7060,W,1,8,2.2,14,M,,M,,*59
06/07/2014	11:07:20.034	$GPGGA,110719,2421.0116,N,08114.7056,W,1,8,2.2,14,M,,M,,*59
06/07/2014	11:07:21.091	$GPGGA,110720,2421.0105,N,08114.7053,W,1,8,2.2,14,M,,M,,*54
06/07/2014	11:07:22.108	$GPGGA,110721,2421.0094,N,08114.7051,W,1,8,2.2,14,M,,M,,*5E
06/07/2014	11:07:23.092	$GPGGA,110722,2421.0080,N,08114.7047,W,1,8,2.2,14,M,,M,,*5F
06/07/2014	11:07:24.109	$GPGGA,110723,2421.0069,N,08114.7044,W,1,8,2.2,14,M,,M,,*5A
06/07/2014	11:07:25.135	$GPGGA,110724,2421.0056,N,08114.7041,W,1,8,2.2,14,M,,M,,*54
06/07/2014	11:07:26.151	$GPGGA,110725,2421.0044,N,08114.7038,W,1,8,2.2,14,M,,M,,*58
06/07/2014	11:07:27.147	$GPGGA,110726,2421.0033,N,08114.7035,W,1,8,2.2,14,M,,M,,*56
06/07/2014	11:07:28.163	$GPGGA,110727,2421.0020,N,08114.7032,W,1,8,2.2,14,M,,M,,*52
06/07/2014	11:07:29.191	$GPGGA,110728,2421.0008,N,08114.7029,W,1,8,2.2,14,M,,M,,*5D
06/07/2014	11:07:30.206	$GPGGA,110729,2420.9996,N,08114.7026,W,1,8,2.2,14,M,,M,,*55
06/07/2014	11:07:31.202	$GPGGA,110730,2420.9984,N,08114.7023,W,1,8,2.2,14,M,,M,,*5B
06/07/2014	11:07:32.228	$GPGGA,110731,2420.9972,N,08114.7019,W,1,8,2.2,14,M,,M,,*5A
06/07/2014	11:07:33.244	$GPGGA,110732,2420.9960,N,08114.7016,W,1,8,2.2,14,M,,M,,*55
06/07/2014	11:07:34.239	$GPGGA,110733,2420.9948,N,08114.7014,W,1,8,2.2,14,M,,M,,*5C
06/07/2014	11:07:35.245	$GPGGA,110734,2420.9937,N,08114.7010,W,1,8,2.2,14,M,,M,,*57
06/07/2014	11:07:36.292	$GPGGA,110735,2420.9925,N,08114.7007,W,1,8,2.2,14,M,,M,,*53
06/07/2014	11:07:37.308	$GPGGA,110736,2420.9912,N,08114.7005,W,1,8,2.2,14,M,,M,,*56
06/07/2014	11:07:38.334	$GPGGA,110737,2420.9901,N,08114.7002,W,1,8,2.2,14,M,,M,,*52
06/07/2014	11:07:37.568	$GPGGA,110738,2420.9889,N,08114.6998,W,1,8,2.2,14,M,,M,,*57
06/07/2014	11:07:38.625	$GPGGA,110739,2420.9877,N,08114.6995,W,1,8,2.2,14,M,,M,,*5A
06/07/2014	11:07:39.601	$GPGGA,110740,2420.9865,N,08114.6992,W,1,8,2.2,14,M,,M,,*50
06/07/2014	11:07:40.627	$GPGGA,110741,2420.9853,N,08114.6989,W,1,8,2.2,14,M,,M,,*5E
06/07/2014	11:07:41.613	$GPGGA,110742,2420.9841,N,08114.6986,W,1,8,2.2,15,M,,M,,*50
06/07/2014	11:07:42.629	$GPGGA,110743,2420.9828,N,08114.6983,W,1,8,2.2,15,M,,M,,*5B
06/07/2014	11:07:43.655	$GPGGA,110744,2420.9816,N,08114.6980,W,1,8,2.2,15,M,,M,,*52
06/07/2014	11:07:44.672	$GPGGA,110745,2420.9805,N,08114.6976,W,1,8,2.2,15,M,,M,,*58
06/07/2014	11:07:45.698	$GPGGA,110746,2420.9792,N,08114.6974,W,1,8,2.2,15,M,,M,,*58
06/07/2014	11:07:46.704	$GPGGA,110747,2420.9780,N,08114.6971,W,1,8,2.2,15,M,,M,,*5F
06/07/2014	11:07:47.720	$GPGGA,110748,2420.9769,N,08114.6967,W,1,8,2.2,15,M,,M,,*50
06/07/2014	11:07:48.716	$GPGGA,110749,2420.9755,N,08114.6964,W,1,8,2.2,15,M,,M,,*5D
06/07/2014	11:07:49.732	$GPGGA,110750,2420.9743,N,08114.6962,W,1,8,2.2,15,M,,M,,*54
06/07/2014	11:07:50.747	$GPGGA,110751,2420.9731,N,08114.6959,W,1,8,2.2,15,M,,M,,*58
06/07/2014	11:07:51.764	$GPGGA,110752,2420.9718,N,08114.6956,W,1,8,2.2,15,M,,M,,*5F
06/07/2014	11:07:52.780	$GPGGA,110753,2420.9706,N,08114.6953,W,1,8,2.2,15,M,,M,,*54
06/07/2014	11:07:53.796	$GPGGA,110754,2420.9694,N,08114.6950,W,1,8,2.2,15,M,,M,,*5A
06/07/2014	11:07:54.812	$GPGGA,110755,2420.9682,N,08114.6946,W,1,8,2.2,15,M,,M,,*5B
06/07/2014	11:07:55.818	$GPGGA,110756,2420.9669,N,08114.6944,W,1,8,2.2,15,M,,M,,*5F
06/07/2014	11:07:56.824	$GPGGA,110757,2420.9657,N,08114.6941,W,1,8,2.2,15,M,,M,,*56
06/07/2014	11:07:57.830	$GPGGA,110758,2420.9644,N,08114.6937,W,1,8,2.2,15,M,,M,,*5A
06/07/2014	11:07:58.846	$GPGGA,110759,2420.9632,N,08114.6934,W,1,8,2.2,15,M,,M,,*59
06/07/2014	11:07:59.903	$GPGGA,110800,2420.9621,N,08114.6932,W,1,8,2.2,15,M,,M,,*5E
06/07/2014	11:08:00.879	$GPGGA,110801,2420.9608,N,08114.6929,W,1,8,2.2,15,M,,M,,*5E
06/07/2014	11:08:01.915	$GPGGA,110802,2420.9595,N,08114.6926,W,1,8,2.2,15,M,,M,,*55
06/07/2014	11:08:02.911	$GPGGA,110803,2420.9583,N,08114.6922,W,1,8,2.2,15,M,,M,,*57
06/07/2014	11:08:04.069	$GPGGA,110804,2420.9572,N,08114.6920,W,1,8,2.2,16,M,,M,,*5F
06/07/2014	11:08:04.964	$GPGGA,110805,2420.9560,N,08114.6917,W,1,8,2.2,16,M,,M,,*59
06/07/2014	11:08:06.088	$GPGGA,110806,2420.9547,N,08114.6913,W,1,8,2.2,16,M,,M,,*5B
06/07/2014	11:08:06.976	$GPGGA,110807,2420.9535,N,08114.6910,W,1,8,2.2,16,M,,M,,*5C
06/07/2014	11:08:08.001	$GPGGA,110808,2420.9523,N,08114.6908,W,1,8,2.2,16,M,,M,,*5D
06/07/2014	11:08:09.109	$GPGGA,110809,2420.9511,N,08114.6905,W,1,8,2.2,16,M,,M,,*50
06/07/2014	11:08:10.024	$GPGGA,110810,2420.9499,N,08114.6902,W,1,8,2.2,16,M,,M,,*5E
06/07/2014	11:08:11.172	$GPGGA,110811,2420.9487,N,08114.6899,W,1,8,2.2,16,M,,M,,*53
06/07/2014	11:08:12.158	$GPGGA,110812,2420.9475,N,08114.6896,W,1,8,2.2,16,M,,M,,*52
06/07/2014	11:08:13.186	$GPGGA,110813,2420.9463,N,08114.6894,W,1,8,2.2,16,M,,M,,*56
06/07/2014	11:08:14.170	$GPGGA,110814,2420.9451,N,08114.6891,W,1,8,2.2,16,M,,M,,*55
06/07/2014	11:08:15.206	$GPGGA,110815,2420.9440,N,08114.6888,W,1,8,2.2,16,M,,M,,*5C
06/07/2014	11:08:16.212	$GPGGA,110816,2420.9428,N,08114.6885,W,1,8,2.2,16,M,,M,,*5C
06/07/2014	11:08:17.229	$GPGGA,110817,2420.9416,N,08114.6883,W,1,8,2.2,16,M,,M,,*56
06/07/2014	11:08:18.224	$GPGGA,110818,2420.9404,N,08114.6880,W,1,8,2.2,16,M,,M,,*59
06/07/2014	11:08:19.251	$GPGGA,110819,2420.9393,N,08114.6877,W,1,8,2.2,16,M,,M,,*59
06/07/2014	11:08:20.267	$GPGGA,110820,2420.9381,N,08114.6875,W,1,8,2.2,16,M,,M,,*52
06/07/2014	11:08:21.283	$GPGGA,110821,2420.9369,N,08114.6872,W,1,8,2.2,16,M,,M,,*52
06/07/2014	11:08:22.279	$GPGGA,110822,2420.9357,N,08114.6869,W,1,8,2.2,16,M,,M,,*56
06/07/2014	11:08:23.316	$GPGGA,110823,2420.9346,N,08114.6867,W,1,8,2.2,16,M,,M,,*59
06/07/2014	11:08:24.322	$GPGGA,110824,2420.9333,N,08114.6864,W,1,8,2.2,16,M,,M,,*5F
06/07/2014	11:08:25.318	$GPGGA,110825,2420.9322,N,08114.6860,W,1,8,2.2,16,M,,M,,*5A
06/07/2014	11:08:26.353	$GPGGA,110826,2420.9310,N,08114.6859,W,1,8,2.2,16,M,,M,,*52
06/07/2014	11:08:27.369	$GPGGA,110827,2420.9299,N,08114.6856,W,1,8,2.2,16,M,,M,,*5C
06/07/2014	11:08:28.375	$GPGGA,110828,2420.9286,N,08114.6853,W,1,8,2.2,16,M,,M,,*58
06/07/2014	11:08:29.422	$GPGGA,110829,2420.9274,N,08114.6850,W,1,8,2.2,16,M,,M,,*57
06/07/2014	11:08:30.387	$GPGGA,110830,2420.9263,N,08114.6847,W,1,8,2.2,16,M,,M,,*5F
06/07/2014	11:08:31.414	$GPGGA,110831,2420.9250,N,08114.6844,W,1,8,2.2,16,M,,M,,*5D
06/07/2014	11:08:32.440	$GPGGA,110832,2420.9238,N,08114.6841,W,1,8,2.2,16,M,,M,,*55
06/07/2014	11:08:33.477	$GPGGA,110833,2420.9227,N,08114.6838,W,1,8,2.2,16,M,,M,,*54
06/07/2014	11:08:34.442	$GPGGA,110834,2420.9216,N,08114.6835,W,1,8,2.2,16,M,,M,,*5C
06/07/2014	11:08:35.478	$GPGGA,110835,2420.9203,N,08114.6832,W,1,8,2.2,16,M,,M,,*5E
06/07/2014	11:08:36.495	$GPGGA,110836,2420.9191,N,08114.6828,W,1,8,2.2,16,M,,M,,*5E
06/07/2014	11:08:37.491	$GPGGA,110837,2420.9180,N,08114.6826,W,1,8,2.2,16,M,,M,,*51
06/07/2014	11:08:38.507	$GPGGA,110838,2420.9167,N,08114.6822,W,1,8,2.2,16,M,,M,,*53
06/07/2014	11:08:39.523	$GPGGA,110839,2420.9155,N,08114.6819,W,1,8,2.2,16,M,,M,,*5B
06/07/2014	11:08:40.559	$GPGGA,110840,2420.9144,N,08114.6816,W,1,8,2.2,16,M,,M,,*5A
06/07/2014	11:08:41.657	$GPGGA,110841,2420.9131,N,08114.6813,W,1,8,2.2,16,M,,M,,*5C
06/07/2014	11:08:42.561	$GPGGA,110842,2420.9119,N,08114.6810,W,1,8,2.2,16,M,,M,,*56
06/07/2014	11:08:43.587	$GPGGA,110843,2420.9108,N,08114.6807,W,1,8,2.2,16,M,,M,,*51
06/07/2014	11:08:44.613	$GPGGA,110844,2420.9095,N,08114.6803,W,1,8,2.2,16,M,,M,,*57
06/07/2014	11:08:45.611	$GPGGA,110845,2420.9084,N,08114.6800,W,1,8,2.2,17,M,,M,,*54
06/07/2014	11:08:46.717	$GPGGA,110846,2420.9072,N,08114.6798,W,1,8,2.2,17,M,,M,,*50
06/07/2014	11:08:47.652	$GPGGA,110847,2420.9059,N,08114.6794,W,1,8,2.2,17,M,,M,,*54
06/07/2014	11:08:48.678	$GPGGA,110848,2420.9047,N,08114.6791,W,1,8,2.2,17,M,,M,,*51
06/07/2014	11:08:49.653	$GPGGA,110849,2420.9036,N,08114.6788,W,1,8,2.2,17,M,,M,,*5E
06/07/2014	11:08:50.792	$GPGGA,110850,2420.9025,N,08114.6785,W,1,8,2.2,17,M,,M,,*59
06/07/2014	11:08:51.697	$GPGGA,110851,2420.9012,N,08114.6781,W,1,8,2.2,17,M,,M,,*58
06/07/2014	11:08:52.844	$GPGGA,110852,2420.9000,N,08114.6778,W,1,8,2.2,17,M,,M,,*5E
06/07/2014	11:08:53.749	$GPGGA,110853,2420.8989,N,08114.6775,W,1,8,2.2,17,M,,M,,*5B
06/07/2014	11:08:54.836	$GPGGA,110854,2420.8978,N,08114.6773,W,1,8,2.2,17,M,,M,,*54
06/07/2014	11:08:55.873	$GPGGA,110855,2420.8965,N,08114.6770,W,1,8,2.2,17,M,,M,,*5A
06/07/2014	11:08:56.929	$GPGGA,110856,2420.8953,N,08114.6765,W,1,8,2.2,17,M,,M,,*58
06/07/2014	11:08:57.887	$GPGGA,110857,2420.8941,N,08114.6762,W,1,8,2.2,17,M,,M,,*5D
06/07/2014	11:08:58.881	$GPGGA,110858,2420.8931,N,08114.6759,W,1,8,2.2,17,M,,M,,*5D
06/07/2014	11:08:59.907	$GPGGA,110859,2420.8918,N,08114.6756,W,1,8,2.2,17,M,,M,,*58
06/07/2014	11:09:00.934	$GPGGA,110900,2420.8906,N,08114.6752,W,1,8,2.2,17,M,,M,,*5E
06/07/2014	11:09:01.969	$GPGGA,110901,2420.8895,N,08114.6749,W,1,8,2.2,17,M,,M,,*5E
06/07/2014	11:09:02.944	$GPGGA,110902,2420.8882,N,08114.6746,W,1,8,2.2,17,M,,M,,*54
06/07/2014	11:09:03.961	$GPGGA,110903,2420.8870,N,08114.6742,W,1,8,2.2,17,M,,M,,*5C
06/07/2014	11:09:04.977	$GPGGA,110904,2420.8858,N,08114.6739,W,1,8,2.2,17,M,,M,,*5D
06/07/2014	11:09:06.026	$GPGGA,110905,2420.8848,N,08114.6736,W,1,8,2.2,17,M,,M,,*52
06/07/2014	11:09:07.009	$GPGGA,110906,2420.8835,N,08114.6732,W,1,8,2.2,17,M,,M,,*5F
06/07/2014	11:09:08.005	$GPGGA,110907,2420.8823,N,08114.6729,W,1,8,2.2,17,M,,M,,*53
06/07/2014	11:09:09.042	$GPGGA,110908,2420.8811,N,08114.6726,W,1,8,2.2,17,M,,M,,*52
06/07/2014	11:09:10.068	$GPGGA,110909,2420.8799,N,08114.6722,W,1,8,2.2,17,M,,M,,*58
06/07/2014	11:09:11.064	$GPGGA,110910,2420.8787,N,08114.6719,W,1,8,2.2,17,M,,M,,*57
06/07/2014	11:09:12.090	$GPGGA,110911,2420.8775,N,08114.6717,W,1,8,2.2,17,M,,M,,*55
06/07/2014	11:09:13.096	$GPGGA,110912,2420.8763,N,08114.6713,W,1,8,2.2,17,M,,M,,*55
06/07/2014	11:09:14.123	$GPGGA,110913,2420.8751,N,08114.6709,W,1,8,2.2,17,M,,M,,*5E
06/07/2014	11:09:15.110	$GPGGA,110914,2420.8739,N,08114.6707,W,1,8,2.2,17,M,,M,,*59
06/07/2014	11:09:16.155	$GPGGA,110915,2420.8728,N,08114.6704,W,1,8,2.2,17,M,,M,,*5B
06/07/2014	11:09:17.161	$GPGGA,110916,2420.8716,N,08114.6700,W,1,8,2.2,17,M,,M,,*51
06/07/2014	11:09:18.157	$GPGGA,110917,2420.8704,N,08114.6697,W,1,8,2.2,17,M,,M,,*5C
06/07/2014	11:09:19.172	$GPGGA,110918,2420.8692,N,08114.6695,W,1,8,2.2,17,M,,M,,*5F
06/07/2014	11:09:20.219	$GPGGA,110919,2420.8680,N,08114.6691,W,1,8,2.2,17,M,,M,,*59
06/07/2014	11:09:21.215	$GPGGA,110920,2420.8668,N,08114.6688,W,1,8,2.2,17,M,,M,,*5D
06/07/2014	11:09:22.231	$GPGGA,110921,2420.8657,N,08114.6685,W,1,8,2.2,17,M,,M,,*5D
06/07/2014	11:09:23.227	$GPGGA,110922,2420.8646,N,08114.6682,W,1,8,2.2,17,M,,M,,*59
06/07/2014	11:09:24.243	$GPGGA,110923,2420.8634,N,08114.6679,W,1,8,2.2,17,M,,M,,*59
06/07/2014	11:09:25.269	$GPGGA,110924,2420.8622,N,08114.6676,W,1,8,2.2,17,M,,M,,*56
06/07/2014	11:09:26.306	$GPGGA,110925,2420.8611,N,08114.6673,W,1,8,2.2,17,M,,M,,*52
06/07/2014	11:09:27.281	$GPGGA,110926,2420.8599,N,08114.6670,W,1,8,2.2,17,M,,M,,*51
06/07/2014	11:09:28.287	$GPGGA,110927,2420.8587,N,08114.6667,W,1,8,2.2,17,M,,M,,*59
06/07/2014	11:09:29.334	$GPGGA,110928,2420.8577,N,08114.6664,W,1,8,2.2,17,M,,M,,*5A
06/07/2014	11:09:30.330	$GPGGA,110929,2420.8564,N,08114.6661,W,1,8,2.2,17,M,,M,,*5C
06/07/2014	11:09:31.348	$GPGGA,110930,2420.8552,N,08114.6658,W,1,8,2.2,17,M,,M,,*5B
06/07/2014	11:09:32.372	$GPGGA,110931,2420.8540,N,08114.6655,W,1,8,2.2,17,M,,M,,*54
06/07/2014	11:09:33.378	$GPGGA,110932,2420.8530,N,08114.6653,W,1,8,2.2,17,M,,M,,*56
06/07/2014	11:09:34.378	$GPGGA,110933,2420.8519,N,08114.6650,W,1,8,2.2,17,M,,M,,*5F
06/07/2014	11:09:35.401	$GPGGA,110934,2420.8506,N,08114.6647,W,1,8,2.2,17,M,,M,,*50
06/07/2014	11:09:36.397	$GPGGA,110935,2420.8494,N,08114.6644,W,1,8,2.2,17,M,,M,,*58
06/07/2014	11:09:37.546	$GPGGA,110936,2420.8483,N,08114.6641,W,1,8,2.2,17,M,,M,,*58
06/07/2014	11:09:38.438	$GPGGA,110937,2420.8472,N,08114.6639,W,1,8,2.2,17,M,,M,,*58
06/07/2014	11:09:29.181	$GPGGA,110938,2420.8459,N,08114.6636,W,1,8,2.2,17,M,,M,,*51
06/07/2014	11:09:30.124	$GPGGA,110939,2420.8448,N,08114.6633,W,1,8,2.2,17,M,,M,,*55
06/07/2014	11:09:31.125	$GPGGA,110940,2420.8436,N,08114.6630,W,1,8,2.2,17,M,,M,,*51
06/07/2014	11:09:32.129	$GPGGA,110941,2420.8425,N,08114.6628,W,1,8,2.2,17,M,,M,,*5B
06/07/2014	11:09:33.235	$GPGGA,110942,2420.8414,N,08114.6625,W,1,8,2.2,17,M,,M,,*57
06/07/2014	11:09:34.252	$GPGGA,110943,2420.8400,N,08114.6622,W,1,8,2.2,17,M,,M,,*54
06/07/2014	11:09:35.187	$GPGGA,110944,2420.8389,N,08114.6620,W,1,8,2.2,17,M,,M,,*57
06/07/2014	11:09:36.325	$GPGGA,110945,2420.8378,N,08114.6617,W,1,8,2.2,17,M,,M,,*5C
06/07/2014	11:09:37.300	$GPGGA,110946,2420.8367,N,08114.6614,W,1,8,2.2,17,M,,M,,*52
06/07/2014	11:09:38.316	$GPGGA,110947,2420.8354,N,08114.6612,W,1,8,2.2,17,M,,M,,*55
06/07/2014	11:09:39.343	$GPGGA,110948,2420.8342,N,08114.6610,W,1,8,2.2,17,M,,M,,*5F
06/07/2014	11:09:40.359	$GPGGA,110949,2420.8331,N,08114.6608,W,1,8,2.2,17,M,,M,,*53
06/07/2014	11:09:41.355	$GPGGA,110950,2420.8320,N,08114.6605,W,1,8,2.2,17,M,,M,,*56
06/07/2014	11:09:42.361	$GPGGA,110951,2420.8307,N,08114.6602,W,1,8,2.2,17,M,,M,,*55
06/07/2014	11:09:43.397	$GPGGA,110952,2420.8295,N,08114.6599,W,1,8,2.2,17,M,,M,,*5D
06/07/2014	11:09:44.392	$GPGGA,110953,2420.8284,N,08114.6597,W,1,8,2.2,17,M,,M,,*52
06/07/2014	11:09:45.408	$GPGGA,110954,2420.8273,N,08114.6594,W,1,8,2.2,17,M,,M,,*5E
06/07/2014	11:09:46.445	$GPGGA,110955,2420.8260,N,08114.6592,W,1,8,2.2,17,M,,M,,*5B
06/07/2014	11:09:47.451	$GPGGA,110956,2420.8248,N,08114.6589,W,1,8,2.2,17,M,,M,,*58
06/07/2014	11:09:48.477	$GPGGA,110957,2420.8237,N,08114.6586,W,1,8,2.2,17,M,,M,,*5E
06/07/2014	11:09:49.473	$GPGGA,110958,2420.8225,N,08114.6584,W,1,8,2.2,16,M,,M,,*51
06/07/2014	11:09:50.469	$GPGGA,110959,2420.8213,N,08114.6582,W,1,8,2.2,16,M,,M,,*53
06/07/2014	11:09:51.526	$GPGGA,111000,2420.8201,N,08114.6579,W,1,8,2.2,16,M,,M,,*50
06/07/2014	11:09:52.542	$GPGGA,111001,2420.8190,N,08114.6577,W,1,8,2.2,16,M,,M,,*54
06/07/2014	11:09:53.518	$GPGGA,111002,2420.8178,N,08114.6575,W,1,8,2.2,16,M,,M,,*53
06/07/2014	11:09:54.554	$GPGGA,111003,2420.8166,N,08114.6572,W,1,8,2.2,16,M,,M,,*5A
06/07/2014	11:09:55.560	$GPGGA,111004,2420.8154,N,08114.6569,W,1,8,2.2,16,M,,M,,*56
06/07/2014	11:09:56.556	$GPGGA,111005,2420.8143,N,08114.6567,W,1,8,2.2,16,M,,M,,*5F
06/07/2014	11:09:57.583	$GPGGA,111006,2420.8129,N,08114.6564,W,1,8,2.2,16,M,,M,,*53
06/07/2014	11:09:58.620	$GPGGA,111007,2420.8118,N,08114.6561,W,1,8,2.2,16,M,,M,,*55
06/07/2014	11:09:59.635	$GPGGA,111008,2420.8107,N,08114.6559,W,1,8,2.2,16,M,,M,,*5F
06/07/2014	11:10:00.631	$GPGGA,111009,2420.8094,N,08114.6556,W,1,8,2.2,16,M,,M,,*5A
06/07/2014	11:10:01.637	$GPGGA,111010,2420.8083,N,08114.6554,W,1,8,2.2,16,M,,M,,*56
06/07/2014	11:10:02.642	$GPGGA,111011,2420.8071,N,08114.6551,W,1,8,2.2,16,M,,M,,*5F
06/07/2014	11:10:03.679	$GPGGA,111012,2420.8060,N,08114.6548,W,1,8,2.2,16,M,,M,,*54
06/07/2014	11:10:04.715	$GPGGA,111013,2420.8047,N,08114.6546,W,1,8,2.2,16,M,,M,,*5E
06/07/2014	11:10:05.701	$GPGGA,111014,2420.8036,N,08114.6543,W,1,8,2.2,16,M,,M,,*5A
06/07/2014	11:10:06.707	$GPGGA,111015,2420.8024,N,08114.6541,W,1,8,2.2,16,M,,M,,*5A
06/07/2014	11:10:07.845	$GPGGA,111016,2420.8013,N,08114.6538,W,1,8,2.2,16,M,,M,,*53
06/07/2014	11:10:08.750	$GPGGA,111017,2420.8001,N,08114.6535,W,1,8,2.2,16,M,,M,,*5C
06/07/2014	11:10:09.756	$GPGGA,111018,2420.7989,N,08114.6533,W,1,8,2.2,16,M,,M,,*53
06/07/2014	11:10:10.802	$GPGGA,111019,2420.7977,N,08114.6530,W,1,8,2.2,16,M,,M,,*50
06/07/2014	11:10:11.788	$GPGGA,111020,2420.7966,N,08114.6527,W,1,8,2.2,16,M,,M,,*5C
06/07/2014	11:10:12.784	$GPGGA,111021,2420.7955,N,08114.6524,W,1,8,2.2,16,M,,M,,*5E
06/07/2014	11:10:13.812	$GPGGA,111022,2420.7943,N,08114.6522,W,1,8,2.2,16,M,,M,,*5C
06/07/2014	11:10:14.918	$GPGGA,111023,2420.7931,N,08114.6520,W,1,8,2.2,15,M,,M,,*59
06/07/2014	11:10:15.843	$GPGGA,111024,2420.7920,N,08114.6517,W,1,8,2.2,15,M,,M,,*5A
06/07/2014	11:10:16.840	$GPGGA,111025,2420.7908,N,08114.6514,W,1,8,2.2,15,M,,M,,*52
06/07/2014	11:10:17.956	$GPGGA,111026,2420.7897,N,08114.6512,W,1,8,2.2,15,M,,M,,*50
06/07/2014	11:10:18.892	$GPGGA,111027,2420.7885,N,08114.6509,W,1,8,2.2,15,M,,M,,*58
06/07/2014	11:10:19.886	$GPGGA,111028,2420.7873,N,08114.6505,W,1,8,2.2,15,M,,M,,*52
06/07/2014	11:10:21.034	$GPGGA,111029,2420.7862,N,08114.6503,W,1,8,2.2,15,M,,M,,*55
06/07/2014	11:10:21.929	$GPGGA,111030,2420.7850,N,08114.6501,W,1,8,2.2,15,M,,M,,*5E
06/07/2014	11:10:22.935	$GPGGA,111031,2420.7840,N,08114.6498,W,1,8,2.2,15,M,,M,,*5F
06/07/2014	11:10:24.053	$GPGGA,111032,2420.7827,N,08114.6495,W,1,8,2.2,15,M,,M,,*50
06/07/2014	11:10:25.059	$GPGGA,111033,2420.7815,N,08114.6492,W,1,8,2.2,15,M,,M,,*57
06/07/2014	11:10:25.974	$GPGGA,111034,2420.7804,N,08114.6490,W,1,8,2.2,15,M,,M,,*52
06/07/2014	11:10:27.081	$GPGGA,111035,2420.7793,N,08114.6488,W,1,8,2.2,15,M,,M,,*5B
06/07/2014	11:10:28.107	$GPGGA,111036,2420.7780,N,08114.6485,W,1,8,2.2,15,M,,M,,*57
06/07/2014	11:10:29.154	$GPGGA,111037,2420.7768,N,08114.6482,W,1,8,2.2,15,M,,M,,*57
06/07/2014	11:10:29.159	$GPGGA,111038,2420.7757,N,08114.6480,W,1,8,2.2,15,M,,M,,*56
06/07/2014	11:10:30.165	$GPGGA,111039,2420.7746,N,08114.6477,W,1,8,2.2,15,M,,M,,*5F
06/07/2014	11:10:31.202	$GPGGA,111040,2420.7735,N,08114.6475,W,1,8,2.2,15,M,,M,,*57
06/07/2014	11:10:32.218	$GPGGA,111041,2420.7722,N,08114.6472,W,1,8,2.1,14,M,,M,,*55
06/07/2014	11:10:33.214	$GPGGA,111042,2420.7711,N,08114.6470,W,1,8,2.1,14,M,,M,,*54
06/07/2014	11:10:34.251	$GPGGA,111043,2420.7699,N,08114.6467,W,1,8,2.1,14,M,,M,,*52
06/07/2014	11:10:35.257	$GPGGA,111044,2420.7688,N,08114.6465,W,1,8,2.1,14,M,,M,,*57
06/07/2014	11:10:36.282	$GPGGA,111045,2420.7677,N,08114.6463,W,1,8,2.1,14,M,,M,,*50
06/07/2014	11:10:37.278	$GPGGA,111046,2420.7664,N,08114.6460,W,1,8,2.1,14,M,,M,,*52
06/07/2014	11:10:38.314	$GPGGA,111047,2420.7652,N,08114.6458,W,1,8,2.1,14,M,,M,,*5D
06/07/2014	11:10:39.320	$GPGGA,111048,2420.7641,N,08114.6456,W,1,8,2.1,14,M,,M,,*5E
06/07/2014	11:10:40.337	$GPGGA,111049,2420.7630,N,08114.6454,W,1,8,2.1,14,M,,M,,*5B
06/07/2014	11:10:41.332	$GPGGA,111050,2420.7617,N,08114.6451,W,1,8,2.1,14,M,,M,,*53
06/07/2014	11:10:42.339	$GPGGA,111051,2420.7606,N,08114.6449,W,1,8,2.1,14,M,,M,,*5B
06/07/2014	11:10:43.375	$GPGGA,111052,2420.7594,N,08114.6447,W,1,8,2.1,14,M,,M,,*5E
06/07/2014	11:10:44.391	$GPGGA,111053,2420.7583,N,08114.6445,W,1,8,2.1,14,M,,M,,*5B
06/07/2014	11:10:45.387	$GPGGA,111054,2420.7570,N,08114.6441,W,1,8,2.1,14,M,,M,,*54
06/07/2014	11:10:46.434	$GPGGA,111055,2420.7559,N,08114.6439,W,1,8,2.1,14,M,,M,,*51
06/07/2014	11:10:47.430	$GPGGA,111056,2420.7547,N,08114.6437,W,1,8,2.1,14,M,,M,,*53
06/07/2014	11:10:48.466	$GPGGA,111057,2420.7537,N,08114.6434,W,1,8,2.1,14,M,,M,,*56
06/07/2014	11:10:49.432	$GPGGA,111058,2420.7525,N,08114.6431,W,1,8,3.1,14,M,,M,,*5E
06/07/2014	11:10:50.448	$GPGGA,111059,2420.7512,N,08114.6428,W,1,8,2.1,14,M,,M,,*52
06/07/2014	11:10:51.515	$GPGGA,111100,2420.7500,N,08114.6426,W,1,8,2.1,14,M,,M,,*52
06/07/2014	11:10:52.521	$GPGGA,111101,2420.7486,N,08114.6423,W,1,8,2.1,14,M,,M,,*59
06/07/2014	11:10:53.496	$GPGGA,111102,2420.7473,N,08114.6420,W,1,8,2.1,14,M,,M,,*53
06/07/2014	11:10:54.694	$GPGGA,111103,2420.7460,N,08114.6417,W,1,8,2.1,14,M,,M,,*54
06/07/2014	11:10:55.528	$GPGGA,111104,2420.7448,N,08114.6414,W,1,8,2.1,14,M,,M,,*5A
06/07/2014	11:10:56.534	$GPGGA,111105,2420.7437,N,08114.6412,W,1,8,2.1,14,M,,M,,*55
06/07/2014	11:10:57.550	$GPGGA,111106,2420.7424,N,08114.6409,W,1,8,2.1,14,M,,M,,*5E
06/07/2014	11:10:58.597	$GPGGA,111107,2420.7413,N,08114.6406,W,1,8,2.1,14,M,,M,,*54
06/07/2014	11:10:59.593	$GPGGA,111108,2420.7401,N,08114.6404,W,1,8,2.1,14,M,,M,,*5A
06/07/2014	11:11:00.782	$GPGGA,111109,2420.7390,N,08114.6401,W,1,8,2.1,15,M,,M,,*50
06/07/2014	11:11:01.615	$GPGGA,111110,2420.7378,N,08114.6398,W,1,8,2.1,15,M,,M,,*59
06/07/2014	11:11:02.641	$GPGGA,111111,2420.7367,N,08114.6395,W,1,8,2.1,15,M,,M,,*5B
06/07/2014	11:11:03.800	$GPGGA,111112,2420.7356,N,08114.6393,W,1,8,2.1,15,M,,M,,*5C
06/07/2014	11:11:04.674	$GPGGA,111113,2420.7345,N,08114.6390,W,1,8,2.1,15,M,,M,,*5C
06/07/2014	11:11:05.680	$GPGGA,111114,2420.7334,N,08114.6387,W,1,8,2.1,15,M,,M,,*5B
06/07/2014	11:11:06.687	$GPGGA,111115,2420.7321,N,08114.6384,W,1,8,2.1,15,M,,M,,*5D
06/07/2014	11:11:07.692	$GPGGA,111116,2420.7309,N,08114.6382,W,1,8,2.1,15,M,,M,,*52
06/07/2014	11:11:08.708	$GPGGA,111117,2420.7298,N,08114.6379,W,1,8,2.1,15,M,,M,,*5E
06/07/2014	11:11:09.851	$GPGGA,111118,2420.7287,N,08114.6377,W,1,8,2.1,16,M,,M,,*52
06/07/2014	11:11:10.945	$GPGGA,111119,2420.7276,N,08114.6373,W,1,8,2.1,16,M,,M,,*59
06/07/2014	11:11:11.860	$GPGGA,111120,2420.7265,N,08114.6371,W,1,8,2.1,16,M,,M,,*53
06/07/2014	11:11:12.955	$GPGGA,111121,2420.7253,N,08114.6368,W,1,8,2.1,16,M,,M,,*5F
06/07/2014	11:11:13.869	$GPGGA,111122,2420.7241,N,08114.6365,W,1,8,2.1,16,M,,M,,*52
06/07/2014	11:11:14.885	$GPGGA,111123,2420.7230,N,08114.6363,W,1,8,2.1,16,M,,M,,*53
06/07/2014	11:11:15.963	$GPGGA,111124,2420.7218,N,08114.6360,W,1,8,2.1,16,M,,M,,*5D
06/07/2014	11:11:17.030	$GPGGA,111125,2420.7207,N,08114.6357,W,1,8,2.1,16,M,,M,,*56
06/07/2014	11:11:17.924	$GPGGA,111126,2420.7197,N,08114.6354,W,1,8,2.1,16,M,,M,,*5C
06/07/2014	11:11:19.052	$GPGGA,111127,2420.7184,N,08114.6352,W,1,8,2.1,16,M,,M,,*59
06/07/2014	11:11:20.027	$GPGGA,111128,2420.7173,N,08114.6349,W,1,8,2.1,16,M,,M,,*54
06/07/2014	11:11:20.972	$GPGGA,111129,2420.7161,N,08114.6347,W,1,8,2.1,16,M,,M,,*58
06/07/2014	11:11:22.019	$GPGGA,111130,2420.7150,N,08114.6345,W,1,8,2.1,16,M,,M,,*50
06/07/2014	11:11:23.117	$GPGGA,111131,2420.7140,N,08114.6342,W,1,8,2.1,16,M,,M,,*57
06/07/2014	11:11:24.089	$GPGGA,111132,2420.7130,N,08114.6340,W,1,8,3.1,16,M,,M,,*50
06/07/2014	11:11:25.139	$GPGGA,111133,2420.7118,N,08114.6338,W,1,7,2.1,16,M,,M,,*5A
06/07/2014	11:11:26.074	$GPGGA,111134,2420.7105,N,08114.6335,W,1,7,2.1,16,M,,M,,*5C
06/07/2014	11:11:27.151	$GPGGA,111135,2420.7093,N,08114.6331,W,1,8,2.1,16,M,,M,,*58
06/07/2014	11:11:28.119	$GPGGA,111136,2420.7081,N,08114.6330,W,1,8,2.1,15,M,,M,,*5A
06/07/2014	11:11:29.153	$GPGGA,111137,2420.7071,N,08114.6326,W,1,8,2.1,15,M,,M,,*53
06/07/2014	11:11:29.127	$GPGGA,111138,2420.7060,N,08114.6324,W,1,8,2.1,15,M,,M,,*5E
06/07/2014	11:11:30.153	$GPGGA,111139,2420.7049,N,08114.6322,W,1,7,3.1,15,M,,M,,*5C
06/07/2014	11:11:31.200	$GPGGA,111140,2420.7038,N,08114.6319,W,1,7,2.1,15,M,,M,,*5D
06/07/2014	11:11:32.287	$GPGGA,111141,2420.7025,N,08114.6316,W,1,8,2.1,15,M,,M,,*50
06/07/2014	11:11:33.232	$GPGGA,111142,2420.7013,N,08114.6313,W,1,8,2.1,15,M,,M,,*53
06/07/2014	11:11:34.330	$GPGGA,111143,2420.7001,N,08114.6311,W,1,8,2.1,15,M,,M,,*53
06/07/2014	11:11:35.224	$GPGGA,111144,2420.6991,N,08114.6308,W,1,8,2.1,15,M,,M,,*5D
06/07/2014	11:11:36.342	$GPGGA,111145,2420.6980,N,08114.6305,W,1,7,3.1,15,M,,M,,*5F
06/07/2014	11:11:37.246	$GPGGA,111146,2420.6967,N,08114.6302,W,1,7,3.1,15,M,,M,,*52
06/07/2014	11:11:38.364	$GPGGA,111147,2420.6955,N,08114.6300,W,1,8,2.1,15,M,,M,,*5E
06/07/2014	11:11:39.309	$GPGGA,111148,2420.6944,N,08114.6297,W,1,8,2.1,15,M,,M,,*5E
06/07/2014	11:11:40.427	$GPGGA,111149,2420.6933,N,08114.6294,W,1,8,2.1,15,M,,M,,*5C
