Software Version Number: 1	Data File Format Number: 1	Build Version Number: 1	Error Count Since VI Started: 0	Manufacturer: Raytheon	 Model Number: RayMarine 120	 S/N: 	 Cal Date: 	 Wind Direction Offset: 0.00	 Slope (M)1: 0.00	 Offset (B)1: 0.00	 Slope (M)2: 0.00	 Offset (B)2: 0.00	 Slope (M)3: 0.00	 Offset (B)3: 0.00	 Slope (M)4: 0.00	 Offset (B)4: 0.00	 Slope (M)5: 0.00	 Offset (B)5: 0.00	 Slope (M)6: 0.00	 Offset (B)6: 0.00
Computer Date	Computer Time	GGA String
06/14/2014	07:00:00.591	$GPGGA,070001,2428.0129,N,08100.5510,W,1,8,2.1,21,M,,M,,*50
06/14/2014	07:00:01.565	$GPGGA,070002,2428.0141,N,08100.5492,W,1,8,2.1,21,M,,M,,*56
06/14/2014	07:00:02.557	$GPGGA,070003,2428.0152,N,08100.5470,W,1,8,2.1,21,M,,M,,*59
06/14/2014	07:00:03.590	$GPGGA,070004,2428.0163,N,08100.5449,W,1,8,2.4,21,M,,M,,*53
06/14/2014	07:00:04.592	$GPGGA,070005,2428.0174,N,08100.5431,W,1,8,2.1,21,M,,M,,*5E
06/14/2014	07:00:05.545	$GPGGA,070006,2428.0188,N,08100.5411,W,1,8,2.4,21,M,,M,,*59
06/14/2014	07:00:06.548	$GPGGA,070007,2428.0197,N,08100.5389,W,1,8,2.1,21,M,,M,,*55
06/14/2014	07:00:07.690	$GPGGA,070008,2428.0210,N,08100.5370,W,1,8,2.4,21,M,,M,,*55
06/14/2014	07:00:08.583	$GPGGA,070009,2428.0221,N,08100.5352,W,1,8,2.1,21,M,,M,,*53
06/14/2014	07:00:09.565	$GPGGA,070010,2428.0231,N,08100.5329,W,1,8,2.1,21,M,,M,,*56
06/14/2014	07:00:10.568	$GPGGA,070011,2428.0241,N,08100.5308,W,1,8,2.1,21,M,,M,,*53
06/14/2014	07:00:11.581	$GPGGA,070012,2428.0253,N,08100.5290,W,1,8,2.1,21,M,,M,,*53
06/14/2014	07:00:12.553	$GPGGA,070013,2428.0266,N,08100.5271,W,1,8,2.1,20,M,,M,,*5A
06/14/2014	07:00:13.656	$GPGGA,070014,2428.0275,N,08100.5249,W,1,8,2.1,20,M,,M,,*54
06/14/2014	07:00:14.558	$GPGGA,070015,2428.0285,N,08100.5227,W,1,7,2.4,20,M,,M,,*58
06/14/2014	07:00:15.671	$GPGGA,070016,2428.0300,N,08100.5211,W,1,7,2.1,20,M,,M,,*57
06/14/2014	07:00:16.562	$GPGGA,070017,2428.0313,N,08100.5192,W,1,8,2.1,20,M,,M,,*53
06/14/2014	07:00:17.565	$GPGGA,070018,2428.0322,N,08100.5169,W,1,8,2.1,20,M,,M,,*5A
06/14/2014	07:00:18.578	$GPGGA,070019,2428.0332,N,08100.5149,W,1,8,2.1,20,M,,M,,*58
06/14/2014	07:00:19.671	$GPGGA,070020,2428.0345,N,08100.5131,W,1,8,2.1,20,M,,M,,*5D
06/14/2014	07:00:20.573	$GPGGA,070021,2428.0356,N,08100.5110,W,1,7,2.4,21,M,,M,,*56
06/14/2014	07:00:21.657	$GPGGA,070022,2428.0365,N,08100.5090,W,1,7,2.4,21,M,,M,,*5C
06/14/2014	07:00:22.568	$GPGGA,070023,2428.0376,N,08100.5069,W,1,8,2.1,21,M,,M,,*53
06/14/2014	07:00:23.671	$GPGGA,070024,2428.0387,N,08100.5049,W,1,8,2.1,21,M,,M,,*58
06/14/2014	07:00:24.666	$GPGGA,070025,2428.0397,N,08100.5029,W,1,8,2.1,21,M,,M,,*5E
06/14/2014	07:00:25.666	$GPGGA,070026,2428.0408,N,08100.5009,W,1,8,2.4,20,M,,M,,*5A
06/14/2014	07:00:26.709	$GPGGA,070027,2428.0419,N,08100.4987,W,1,7,2.4,20,M,,M,,*5A
06/14/2014	07:00:27.681	$GPGGA,070028,2428.0430,N,08100.4966,W,1,7,2.1,20,M,,M,,*54
06/14/2014	07:00:28.654	$GPGGA,070029,2428.0440,N,08100.4946,W,1,8,2.1,20,M,,M,,*5F
06/14/2014	07:00:29.657	$GPGGA,070030,2428.0448,N,08100.4928,W,1,8,2.2,20,M,,M,,*54
06/14/2014	07:00:30.679	$GPGGA,070031,2428.0459,N,08100.4907,W,1,8,2.1,20,M,,M,,*5B
06/14/2014	07:00:31.692	$GPGGA,070032,2428.0468,N,08100.4887,W,1,8,2.4,20,M,,M,,*56
06/14/2014	07:00:32.684	$GPGGA,070033,2428.0479,N,08100.4869,W,1,8,2.1,20,M,,M,,*52
06/14/2014	07:00:33.678	$GPGGA,070034,2428.0491,N,08100.4848,W,1,8,2.1,20,M,,M,,*50
06/14/2014	07:00:34.679	$GPGGA,070035,2428.0498,N,08100.4829,W,1,8,2.1,20,M,,M,,*5F
06/14/2014	07:00:35.682	$GPGGA,070036,2428.0506,N,08100.4809,W,1,8,2.3,20,M,,M,,*5A
06/14/2014	07:00:36.664	$GPGGA,070037,2428.0517,N,08100.4788,W,1,8,2.1,20,M,,M,,*5F
06/14/2014	07:00:37.676	$GPGGA,070038,2428.0528,N,08100.4769,W,1,8,2.1,20,M,,M,,*53
06/14/2014	07:00:38.692	$GPGGA,070039,2428.0540,N,08100.4749,W,1,8,2.1,20,M,,M,,*5E
06/14/2014	07:00:39.691	$GPGGA,070040,2428.0549,N,08100.4726,W,1,8,2.1,20,M,,M,,*50
06/14/2014	07:00:40.674	$GPGGA,070041,2428.0562,N,08100.4705,W,1,8,2.1,20,M,,M,,*59
06/14/2014	07:00:41.677	$GPGGA,070042,2428.0573,N,08100.4688,W,1,8,2.1,20,M,,M,,*5E
06/14/2014	07:00:42.709	$GPGGA,070043,2428.0582,N,08100.4669,W,1,8,2.1,20,M,,M,,*5E
06/14/2014	07:00:43.692	$GPGGA,070044,2428.0595,N,08100.4647,W,1,8,2.1,20,M,,M,,*53
06/14/2014	07:00:44.674	$GPGGA,070045,2428.0605,N,08100.4627,W,1,8,2.1,20,M,,M,,*5E
06/14/2014	07:00:45.677	$GPGGA,070046,2428.0617,N,08100.4608,W,1,8,2.1,20,M,,M,,*53
06/14/2014	07:00:46.700	$GPGGA,070047,2428.0629,N,08100.4590,W,1,8,2.1,20,M,,M,,*5D
06/14/2014	07:00:47.682	$GPGGA,070048,2428.0639,N,08100.4570,W,1,8,2.1,20,M,,M,,*5D
06/14/2014	07:00:48.541	$GPGGA,070049,2428.0649,N,08100.4548,W,1,8,2.1,20,M,,M,,*50
06/14/2014	07:00:49.513	$GPGGA,070050,2428.0661,N,08100.4529,W,1,8,2.1,20,M,,M,,*55
06/14/2014	07:00:50.516	$GPGGA,070051,2428.0672,N,08100.4511,W,1,8,2.1,21,M,,M,,*5C
06/14/2014	07:00:51.548	$GPGGA,070052,2428.0683,N,08100.4491,W,1,8,2.1,21,M,,M,,*58
06/14/2014	07:00:52.560	$GPGGA,070053,2428.0694,N,08100.4470,W,1,8,2.1,21,M,,M,,*50
06/14/2014	07:00:53.533	$GPGGA,070054,2428.0704,N,08100.4451,W,1,8,2.1,21,M,,M,,*5C
06/14/2014	07:00:54.525	$GPGGA,070055,2428.0717,N,08100.4433,W,1,8,2.1,21,M,,M,,*5B
06/14/2014	07:00:55.558	$GPGGA,070056,2428.0728,N,08100.4412,W,1,8,2.1,21,M,,M,,*57
06/14/2014	07:00:56.521	$GPGGA,070057,2428.0737,N,08100.4392,W,1,8,2.1,21,M,,M,,*57
06/14/2014	07:00:57.533	$GPGGA,070058,2428.0748,N,08100.4373,W,1,8,2.1,21,M,,M,,*5F
06/14/2014	07:00:58.546	$GPGGA,070059,2428.0762,N,08100.4353,W,1,8,2.1,21,M,,M,,*54
06/14/2014	07:00:59.538	$GPGGA,070100,2428.0772,N,08100.4332,W,1,8,2.1,21,M,,M,,*5F
06/14/2014	07:01:00.521	$GPGGA,070101,2428.0781,N,08100.4314,W,1,8,2.1,21,M,,M,,*56
06/14/2014	07:01:01.644	$GPGGA,070102,2428.0795,N,08100.4294,W,1,8,2.1,21,M,,M,,*59
06/14/2014	07:01:02.656	$GPGGA,070103,2428.0806,N,08100.4273,W,1,8,2.1,21,M,,M,,*54
06/14/2014	07:01:03.539	$GPGGA,070104,2428.0816,N,08100.4254,W,1,8,2.1,21,M,,M,,*57
06/14/2014	07:01:04.552	$GPGGA,070105,2428.0827,N,08100.4233,W,1,8,2.1,21,M,,M,,*55
06/14/2014	07:01:05.524	$GPGGA,070106,2428.0838,N,08100.4213,W,1,8,2.1,21,M,,M,,*5A
06/14/2014	07:01:06.526	$GPGGA,070107,2428.0849,N,08100.4194,W,1,8,2.1,21,M,,M,,*51
06/14/2014	07:01:07.659	$GPGGA,070108,2428.0862,N,08100.4174,W,1,8,2.1,21,M,,M,,*59
06/14/2014	07:01:08.661	$GPGGA,070109,2428.0874,N,08100.4152,W,1,8,2.1,21,M,,M,,*5B
06/14/2014	07:01:09.533	$GPGGA,070110,2428.0884,N,08100.4132,W,1,8,2.1,21,M,,M,,*5A
06/14/2014	07:01:10.666	$GPGGA,070111,2428.0893,N,08100.4115,W,1,8,2.4,21,M,,M,,*5D
06/14/2014	07:01:11.649	$GPGGA,070112,2428.0905,N,08100.4094,W,1,8,2.1,21,M,,M,,*5D
06/14/2014	07:01:12.672	$GPGGA,070113,2428.0916,N,08100.4073,W,1,8,2.1,21,M,,M,,*57
06/14/2014	07:01:13.654	$GPGGA,070114,2428.0925,N,08100.4054,W,1,8,2.1,21,M,,M,,*55
06/14/2014	07:01:14.657	$GPGGA,070115,2428.0938,N,08100.4035,W,1,8,2.4,21,M,,M,,*5A
06/14/2014	07:01:15.649	$GPGGA,070116,2428.0947,N,08100.4016,W,1,8,2.1,21,M,,M,,*55
06/14/2014	07:01:16.652	$GPGGA,070117,2428.0957,N,08100.3996,W,1,8,2.5,21,M,,M,,*57
06/14/2014	07:01:17.634	$GPGGA,070118,2428.0968,N,08100.3976,W,1,8,2.1,20,M,,M,,*5F
06/14/2014	07:01:18.657	$GPGGA,070119,2428.0979,N,08100.3957,W,1,8,2.1,20,M,,M,,*5D
06/14/2014	07:01:19.649	$GPGGA,070120,2428.0990,N,08100.3937,W,1,8,2.1,20,M,,M,,*56
06/14/2014	07:01:20.662	$GPGGA,070121,2428.1001,N,08100.3918,W,1,8,2.1,20,M,,M,,*5A
06/14/2014	07:01:21.645	$GPGGA,070122,2428.1012,N,08100.3898,W,1,8,2.1,20,M,,M,,*52
06/14/2014	07:01:22.647	$GPGGA,070123,2428.1023,N,08100.3878,W,1,8,2.1,20,M,,M,,*5F
06/14/2014	07:01:23.652	$GPGGA,070124,2428.1035,N,08100.3858,W,1,8,2.1,20,M,,M,,*5D
06/14/2014	07:01:24.652	$GPGGA,070125,2428.1046,N,08100.3839,W,1,8,2.5,19,M,,M,,*51
06/14/2014	07:01:25.646	$GPGGA,070126,2428.1059,N,08100.3820,W,1,8,2.1,19,M,,M,,*50
06/14/2014	07:01:26.647	$GPGGA,070127,2428.1070,N,08100.3801,W,1,8,2.1,19,M,,M,,*59
06/14/2014	07:01:27.659	$GPGGA,070128,2428.1083,N,08100.3780,W,1,8,2.1,19,M,,M,,*5C
06/14/2014	07:01:28.672	$GPGGA,070129,2428.1095,N,08100.3760,W,1,8,2.5,19,M,,M,,*50
06/14/2014	07:01:29.645	$GPGGA,070130,2428.1105,N,08100.3743,W,1,8,2.5,19,M,,M,,*51
06/14/2014	07:01:30.647	$GPGGA,070131,2428.1116,N,08100.3723,W,1,7,2.1,19,M,,M,,*5F
06/14/2014	07:01:31.670	$GPGGA,070132,2428.1130,N,08100.3701,W,1,7,2.1,19,M,,M,,*58
06/14/2014	07:01:32.685	$GPGGA,070133,2428.1140,N,08100.3684,W,1,8,2.5,19,M,,M,,*59
06/14/2014	07:01:33.645	$GPGGA,070134,2428.1152,N,08100.3665,W,1,8,2.5,19,M,,M,,*52
06/14/2014	07:01:34.690	$GPGGA,070135,2428.1163,N,08100.3644,W,1,7,2.1,19,M,,M,,*59
06/14/2014	07:01:35.660	$GPGGA,070136,2428.1174,N,08100.3627,W,1,7,2.1,19,M,,M,,*59
06/14/2014	07:01:36.673	$GPGGA,070137,2428.1185,N,08100.3607,W,1,8,2.1,19,M,,M,,*5B
06/14/2014	07:01:37.655	$GPGGA,070138,2428.1196,N,08100.3587,W,1,8,2.1,19,M,,M,,*5D
06/14/2014	07:01:38.659	$GPGGA,070139,2428.1207,N,08100.3569,W,1,8,2.5,19,M,,M,,*53
06/14/2014	07:01:39.680	$GPGGA,070140,2428.1220,N,08100.3551,W,1,8,2.1,19,M,,M,,*57
06/14/2014	07:01:40.684	$GPGGA,070141,2428.1232,N,08100.3530,W,1,8,2.1,19,M,,M,,*52
06/14/2014	07:01:41.646	$GPGGA,070142,2428.1242,N,08100.3511,W,1,8,2.1,19,M,,M,,*55
06/14/2014	07:01:42.638	$GPGGA,070143,2428.1254,N,08100.3493,W,1,8,2.1,19,M,,M,,*58
06/14/2014	07:01:43.690	$GPGGA,070144,2428.1267,N,08100.3474,W,1,8,2.1,19,M,,M,,*56
06/14/2014	07:01:44.682	$GPGGA,070145,2428.1275,N,08100.3454,W,1,8,2.5,19,M,,M,,*52
06/14/2014	07:01:45.645	$GPGGA,070146,2428.1288,N,08100.3436,W,1,8,2.1,19,M,,M,,*53
06/14/2014	07:01:46.688	$GPGGA,070147,2428.1300,N,08100.3417,W,1,8,2.1,19,M,,M,,*50
06/14/2014	07:01:47.690	$GPGGA,070148,2428.1311,N,08100.3397,W,1,8,2.5,19,M,,M,,*54
06/14/2014	07:01:48.489	$GPGGA,070149,2428.1322,N,08100.3377,W,1,7,2.1,19,M,,M,,*50
06/14/2014	07:01:49.622	$GPGGA,070150,2428.1333,N,08100.3359,W,1,7,2.1,19,M,,M,,*54
06/14/2014	07:01:50.504	$GPGGA,070151,2428.1346,N,08100.3340,W,1,8,2.1,19,M,,M,,*50
06/14/2014	07:01:51.627	$GPGGA,070152,2428.1355,N,08100.3320,W,1,8,2.1,19,M,,M,,*57
06/14/2014	07:01:52.539	$GPGGA,070153,2428.1368,N,08100.3300,W,1,8,2.1,19,M,,M,,*5A
06/14/2014	07:01:53.502	$GPGGA,070154,2428.1380,N,08100.3281,W,1,8,2.1,19,M,,M,,*53
06/14/2014	07:01:54.524	$GPGGA,070155,2428.1391,N,08100.3263,W,1,8,2.5,19,M,,M,,*5A
06/14/2014	07:01:55.607	$GPGGA,070156,2428.1402,N,08100.3243,W,1,8,2.5,19,M,,M,,*56
06/14/2014	07:01:56.640	$GPGGA,070157,2428.1413,N,08100.3222,W,1,7,2.1,19,M,,M,,*5B
06/14/2014	07:01:57.612	$GPGGA,070158,2428.1424,N,08100.3204,W,1,7,2.1,19,M,,M,,*54
06/14/2014	07:01:58.615	$GPGGA,070159,2428.1437,N,08100.3184,W,1,8,2.5,19,M,,M,,*57
06/14/2014	07:01:59.638	$GPGGA,070200,2428.1448,N,08100.3164,W,1,8,2.5,19,M,,M,,*5E
06/14/2014	07:02:00.598	$GPGGA,070201,2428.1459,N,08100.3145,W,1,7,2.5,19,M,,M,,*53
06/14/2014	07:02:01.592	$GPGGA,070202,2428.1470,N,08100.3126,W,1,7,2.5,19,M,,M,,*5E
06/14/2014	07:02:02.634	$GPGGA,070203,2428.1483,N,08100.3105,W,1,8,2.1,19,M,,M,,*59
06/14/2014	07:02:03.617	$GPGGA,070204,2428.1495,N,08100.3086,W,1,8,2.1,19,M,,M,,*53
06/14/2014	07:02:04.620	$GPGGA,070205,2428.1507,N,08100.3068,W,1,8,2.1,19,M,,M,,*58
06/14/2014	07:02:05.612	$GPGGA,070206,2428.1520,N,08100.3048,W,1,8,2.1,19,M,,M,,*5C
06/14/2014	07:02:06.625	$GPGGA,070207,2428.1531,N,08100.3027,W,1,8,2.1,19,M,,M,,*54
06/14/2014	07:02:07.627	$GPGGA,070208,2428.1543,N,08100.3009,W,1,8,2.1,19,M,,M,,*52
06/14/2014	07:02:08.630	$GPGGA,070209,2428.1556,N,08100.2991,W,1,7,2.5,19,M,,M,,*55
06/14/2014	07:02:09.602	$GPGGA,070210,2428.1568,N,08100.2970,W,1,7,2.1,19,M,,M,,*5B
06/14/2014	07:02:10.615	$GPGGA,070211,2428.1581,N,08100.2951,W,1,8,2.1,19,M,,M,,*51
06/14/2014	07:02:11.618	$GPGGA,070212,2428.1592,N,08100.2933,W,1,8,2.1,19,M,,M,,*54
06/14/2014	07:02:12.623	$GPGGA,070213,2428.1604,N,08100.2913,W,1,7,2.5,19,M,,M,,*50
06/14/2014	07:02:13.604	$GPGGA,070214,2428.1615,N,08100.2893,W,1,7,2.5,19,M,,M,,*5E
06/14/2014	07:02:14.605	$GPGGA,070215,2428.1626,N,08100.2874,W,1,8,2.1,19,M,,M,,*5D
06/14/2014	07:02:15.628	$GPGGA,070216,2428.1640,N,08100.2857,W,1,8,2.5,19,M,,M,,*5B
06/14/2014	07:02:16.641	$GPGGA,070217,2428.1651,N,08100.2837,W,1,8,2.1,19,M,,M,,*58
06/14/2014	07:02:17.613	$GPGGA,070218,2428.1664,N,08100.2816,W,1,8,2.1,19,M,,M,,*52
06/14/2014	07:02:18.635	$GPGGA,070219,2428.1676,N,08100.2800,W,1,8,2.1,19,M,,M,,*57
06/14/2014	07:02:19.627	$GPGGA,070220,2428.1690,N,08100.2783,W,1,8,2.1,19,M,,M,,*51
06/14/2014	07:02:20.610	$GPGGA,070221,2428.1701,N,08100.2762,W,1,8,2.1,19,M,,M,,*56
06/14/2014	07:02:21.623	$GPGGA,070222,2428.1712,N,08100.2743,W,1,8,2.1,19,M,,M,,*54
06/14/2014	07:02:22.645	$GPGGA,070223,2428.1725,N,08100.2726,W,1,8,2.1,19,M,,M,,*52
06/14/2014	07:02:23.628	$GPGGA,070224,2428.1738,N,08100.2709,W,1,8,2.1,19,M,,M,,*54
06/14/2014	07:02:24.610	$GPGGA,070225,2428.1749,N,08100.2690,W,1,8,2.1,19,M,,M,,*52
06/14/2014	07:02:25.623	$GPGGA,070226,2428.1759,N,08100.2671,W,1,8,2.1,19,M,,M,,*5F
06/14/2014	07:02:26.665	$GPGGA,070227,2428.1772,N,08100.2652,W,1,8,2.1,19,M,,M,,*56
06/14/2014	07:02:27.760	$GPGGA,070228,2428.1785,N,08100.2635,W,1,8,2.5,19,M,,M,,*54
06/14/2014	07:02:28.866	$GPGGA,070229,2428.1796,N,08100.2617,W,1,8,2.1,19,M,,M,,*53
06/14/2014	07:02:29.927	$GPGGA,070230,2428.1806,N,08100.2596,W,1,8,2.1,20,M,,M,,*5D
06/14/2014	07:02:31.054	$GPGGA,070231,2428.1819,N,08100.2579,W,1,7,2.5,20,M,,M,,*58
06/14/2014	07:02:32.127	$GPGGA,070232,2428.1832,N,08100.2563,W,1,7,2.5,20,M,,M,,*59
06/14/2014	07:02:33.189	$GPGGA,070233,2428.1843,N,08100.2542,W,1,8,2.1,20,M,,M,,*56
06/14/2014	07:02:34.393	$GPGGA,070234,2428.1853,N,08100.2522,W,1,8,2.1,20,M,,M,,*56
06/14/2014	07:02:35.509	$GPGGA,070235,2428.1866,N,08100.2506,W,1,8,2.1,20,M,,M,,*57
06/14/2014	07:02:36.484	$GPGGA,070236,2428.1879,N,08100.2489,W,1,8,2.1,20,M,,M,,*5C
06/14/2014	07:02:37.555	$GPGGA,070237,2428.1889,N,08100.2468,W,1,8,2.1,20,M,,M,,*5D
06/14/2014	07:02:38.781	$GPGGA,070238,2428.1900,N,08100.2448,W,1,8,2.5,20,M,,M,,*54
06/14/2014	07:02:39.744	$GPGGA,070239,2428.1913,N,08100.2431,W,1,7,2.5,20,M,,M,,*56
06/14/2014	07:02:40.861	$GPGGA,070240,2428.1926,N,08100.2414,W,1,7,2.1,20,M,,M,,*5D
06/14/2014	07:02:41.934	$GPGGA,070241,2428.1936,N,08100.2394,W,1,8,2.1,20,M,,M,,*5D
06/14/2014	07:02:43.130	$GPGGA,070242,2428.1946,N,08100.2374,W,1,8,2.5,20,M,,M,,*53
06/14/2014	07:02:44.232	$GPGGA,070243,2428.1955,N,08100.2356,W,1,8,2.1,20,M,,M,,*54
06/14/2014	07:02:45.239	$GPGGA,070244,2428.1968,N,08100.2338,W,1,8,2.1,19,M,,M,,*5F
06/14/2014	07:02:46.312	$GPGGA,070245,2428.1979,N,08100.2319,W,1,8,2.1,19,M,,M,,*5D
06/14/2014	07:02:47.505	$GPGGA,070246,2428.1990,N,08100.2299,W,1,8,2.1,19,M,,M,,*50
06/14/2014	07:02:48.633	$GPGGA,070247,2428.2000,N,08100.2279,W,1,8,2.1,19,M,,M,,*5C
06/14/2014	07:02:49.727	$GPGGA,070248,2428.2012,N,08100.2261,W,1,8,2.1,19,M,,M,,*59
06/14/2014	07:02:48.552	$GPGGA,070249,2428.2023,N,08100.2242,W,1,8,2.1,19,M,,M,,*5B
06/14/2014	07:02:49.746	$GPGGA,070250,2428.2037,N,08100.2223,W,1,8,2.5,19,M,,M,,*55
06/14/2014	07:02:50.851	$GPGGA,070251,2428.2048,N,08100.2203,W,1,8,2.1,19,M,,M,,*5A
06/14/2014	07:02:51.946	$GPGGA,070252,2428.2059,N,08100.2184,W,1,8,2.1,19,M,,M,,*55
06/14/2014	07:02:53.033	$GPGGA,070253,2428.2070,N,08100.2165,W,1,8,2.1,19,M,,M,,*50
06/14/2014	07:02:54.127	$GPGGA,070254,2428.2081,N,08100.2146,W,1,8,2.5,19,M,,M,,*5C
06/14/2014	07:02:55.228	$GPGGA,070255,2428.2095,N,08100.2126,W,1,7,2.5,19,M,,M,,*51
06/14/2014	07:02:56.323	$GPGGA,070256,2428.2106,N,08100.2107,W,1,7,2.1,19,M,,M,,*5E
06/14/2014	07:02:57.418	$GPGGA,070257,2428.2117,N,08100.2088,W,1,8,2.1,19,M,,M,,*56
06/14/2014	07:02:58.479	$GPGGA,070258,2428.2130,N,08100.2068,W,1,8,2.1,19,M,,M,,*52
06/14/2014	07:02:59.596	$GPGGA,070259,2428.2141,N,08100.2049,W,1,8,2.1,19,M,,M,,*56
06/14/2014	07:03:00.701	$GPGGA,070300,2428.2150,N,08100.2029,W,1,8,2.5,19,M,,M,,*59
06/14/2014	07:03:01.785	$GPGGA,070301,2428.2163,N,08100.2010,W,1,7,2.5,19,M,,M,,*5D
06/14/2014	07:03:02.847	$GPGGA,070302,2428.2175,N,08100.1990,W,1,7,2.5,19,M,,M,,*5B
06/14/2014	07:03:03.974	$GPGGA,070303,2428.2185,N,08100.1970,W,1,8,2.1,19,M,,M,,*50
06/14/2014	07:03:05.047	$GPGGA,070304,2428.2197,N,08100.1951,W,1,8,2.1,19,M,,M,,*57
06/14/2014	07:03:06.142	$GPGGA,070305,2428.2210,N,08100.1932,W,1,8,2.1,19,M,,M,,*5F
06/14/2014	07:03:07.225	$GPGGA,070306,2428.2220,N,08100.1911,W,1,8,2.5,19,M,,M,,*5A
06/14/2014	07:03:08.354	$GPGGA,070307,2428.2229,N,08100.1889,W,1,8,2.1,19,M,,M,,*56
06/14/2014	07:03:09.425	$GPGGA,070308,2428.2240,N,08100.1869,W,1,8,2.5,19,M,,M,,*5C
06/14/2014	07:03:10.521	$GPGGA,070309,2428.2254,N,08100.1851,W,1,8,2.1,19,M,,M,,*57
06/14/2014	07:03:11.604	$GPGGA,070310,2428.2265,N,08100.1832,W,1,8,2.2,19,M,,M,,*5B
06/14/2014	07:03:12.721	$GPGGA,070311,2428.2276,N,08100.1811,W,1,7,2.2,19,M,,M,,*56
06/14/2014	07:03:13.793	$GPGGA,070312,2428.2289,N,08100.1791,W,1,7,2.1,19,M,,M,,*51
06/14/2014	07:03:14.908	$GPGGA,070313,2428.2301,N,08100.1772,W,1,8,2.1,19,M,,M,,*53
06/14/2014	07:03:15.959	$GPGGA,070314,2428.2312,N,08100.1753,W,1,8,2.1,19,M,,M,,*55
06/14/2014	07:03:17.076	$GPGGA,070315,2428.2323,N,08100.1732,W,1,8,2.1,19,M,,M,,*51
06/14/2014	07:03:18.148	$GPGGA,070316,2428.2336,N,08100.1712,W,1,8,2.1,19,M,,M,,*54
06/14/2014	07:03:19.232	$GPGGA,070317,2428.2347,N,08100.1693,W,1,8,2.1,19,M,,M,,*5B
06/14/2014	07:03:20.327	$GPGGA,070318,2428.2359,N,08100.1674,W,1,8,2.1,19,M,,M,,*52
06/14/2014	07:03:21.465	$GPGGA,070319,2428.2370,N,08100.1654,W,1,8,2.1,19,M,,M,,*5A
06/14/2014	07:03:22.527	$GPGGA,070320,2428.2381,N,08100.1633,W,1,8,2.1,19,M,,M,,*5F
06/14/2014	07:03:23.632	$GPGGA,070321,2428.2392,N,08100.1613,W,1,8,2.1,19,M,,M,,*5E
06/14/2014	07:03:24.694	$GPGGA,070322,2428.2405,N,08100.1593,W,1,8,2.1,19,M,,M,,*5F
06/14/2014	07:03:25.789	$GPGGA,070323,2428.2417,N,08100.1575,W,1,8,2.1,19,M,,M,,*55
06/14/2014	07:03:26.905	$GPGGA,070324,2428.2431,N,08100.1556,W,1,8,2.1,19,M,,M,,*57
06/14/2014	07:03:27.967	$GPGGA,070325,2428.2442,N,08100.1534,W,1,7,2.2,19,M,,M,,*5A
06/14/2014	07:03:29.182	$GPGGA,070326,2428.2453,N,08100.1514,W,1,7,2.1,19,M,,M,,*58
06/14/2014	07:03:30.167	$GPGGA,070327,2428.2466,N,08100.1496,W,1,8,2.1,19,M,,M,,*5B
06/14/2014	07:03:31.404	$GPGGA,070328,2428.2478,N,08100.1477,W,1,8,2.1,19,M,,M,,*54
06/14/2014	07:03:32.432	$GPGGA,070329,2428.2489,N,08100.1455,W,1,8,2.1,19,M,,M,,*5B
06/14/2014	07:03:33.428	$GPGGA,070330,2428.2499,N,08100.1434,W,1,8,2.1,19,M,,M,,*55
06/14/2014	07:03:34.654	$GPGGA,070331,2428.2511,N,08100.1416,W,1,8,2.1,19,M,,M,,*55
06/14/2014	07:03:35.628	$GPGGA,070332,2428.2525,N,08100.1398,W,1,8,2.1,19,M,,M,,*50
06/14/2014	07:03:36.854	$GPGGA,070333,2428.2536,N,08100.1377,W,1,7,2.2,19,M,,M,,*5E
06/14/2014	07:03:37.861	$GPGGA,070334,2428.2547,N,08100.1357,W,1,7,2.1,19,M,,M,,*5E
06/14/2014	07:03:38.912	$GPGGA,070335,2428.2558,N,08100.1339,W,1,8,2.1,19,M,,M,,*56
06/14/2014	07:03:40.138	$GPGGA,070336,2428.2572,N,08100.1321,W,1,8,2.1,19,M,,M,,*54
06/14/2014	07:03:41.190	$GPGGA,070337,2428.2583,N,08100.1300,W,1,7,2.2,19,M,,M,,*54
06/14/2014	07:03:42.294	$GPGGA,070338,2428.2594,N,08100.1280,W,1,7,2.1,19,M,,M,,*57
06/14/2014	07:03:43.421	$GPGGA,070339,2428.2605,N,08100.1262,W,1,8,2.1,19,M,,M,,*5E
06/14/2014	07:03:44.472	$GPGGA,070340,2428.2619,N,08100.1242,W,1,8,2.1,19,M,,M,,*5F
06/14/2014	07:03:45.567	$GPGGA,070341,2428.2630,N,08100.1221,W,1,8,2.1,19,M,,M,,*50
06/14/2014	07:03:46.661	$GPGGA,070342,2428.2640,N,08100.1202,W,1,8,2.1,19,M,,M,,*55
06/14/2014	07:03:47.748	$GPGGA,070343,2428.2652,N,08100.1183,W,1,8,2.1,19,M,,M,,*5D
06/14/2014	07:03:48.862	$GPGGA,070344,2428.2663,N,08100.1163,W,1,8,2.5,19,M,,M,,*52
06/14/2014	07:03:49.956	$GPGGA,070345,2428.2674,N,08100.1143,W,1,8,2.1,19,M,,M,,*53
06/14/2014	07:03:51.037	$GPGGA,070346,2428.2687,N,08100.1124,W,1,8,2.1,19,M,,M,,*5D
06/14/2014	07:03:52.144	$GPGGA,070347,2428.2698,N,08100.1104,W,1,8,2.1,19,M,,M,,*50
06/14/2014	07:03:53.217	$GPGGA,070348,2428.2708,N,08100.1084,W,1,8,2.1,19,M,,M,,*5E
06/14/2014	07:03:48.703	$GPGGA,070349,2428.2720,N,08100.1064,W,1,8,2.1,19,M,,M,,*5B
06/14/2014	07:03:49.710	$GPGGA,070350,2428.2731,N,08100.1044,W,1,8,2.1,19,M,,M,,*51
06/14/2014	07:03:50.827	$GPGGA,070351,2428.2742,N,08100.1024,W,1,8,2.1,19,M,,M,,*52
06/14/2014	07:03:51.912	$GPGGA,070352,2428.2753,N,08100.1004,W,1,8,2.1,19,M,,M,,*53
06/14/2014	07:03:53.028	$GPGGA,070353,2428.2766,N,08100.0984,W,1,8,2.1,19,M,,M,,*54
06/14/2014	07:03:54.089	$GPGGA,070354,2428.2775,N,08100.0964,W,1,8,2.1,19,M,,M,,*5F
06/14/2014	07:03:55.205	$GPGGA,070355,2428.2785,N,08100.0943,W,1,7,2.5,19,M,,M,,*5F
06/14/2014	07:03:56.290	$GPGGA,070356,2428.2800,N,08100.0923,W,1,7,2.5,19,M,,M,,*58
06/14/2014	07:03:57.396	$GPGGA,070357,2428.2811,N,08100.0905,W,1,8,2.1,19,M,,M,,*56
06/14/2014	07:03:58.467	$GPGGA,070358,2428.2822,N,08100.0885,W,1,8,2.1,19,M,,M,,*50
06/14/2014	07:03:59.585	$GPGGA,070359,2428.2832,N,08100.0862,W,1,8,2.1,19,M,,M,,*59
06/14/2014	07:04:00.656	$GPGGA,070400,2428.2845,N,08100.0843,W,1,8,2.1,19,M,,M,,*51
06/14/2014	07:04:01.762	$GPGGA,070401,2428.2856,N,08100.0825,W,1,7,2.5,19,M,,M,,*59
06/14/2014	07:04:02.847	$GPGGA,070402,2428.2865,N,08100.0804,W,1,7,2.1,19,M,,M,,*5D
06/14/2014	07:04:05.056	$GPGGA,070404,2428.2887,N,08100.0763,W,1,7,2.1,19,M,,M,,*59
06/14/2014	07:04:06.106	$GPGGA,070405,2428.2897,N,08100.0744,W,1,8,2.2,19,M,,M,,*50
06/14/2014	07:04:07.201	$GPGGA,070406,2428.2911,N,08100.0726,W,1,8,2.5,19,M,,M,,*5F
06/14/2014	07:04:08.285	$GPGGA,070407,2428.2921,N,08100.0704,W,1,8,2.2,19,M,,M,,*5A
06/14/2014	07:04:09.401	$GPGGA,070408,2428.2930,N,08100.0683,W,1,8,2.5,19,M,,M,,*5C
06/14/2014	07:04:10.474	$GPGGA,070409,2428.2940,N,08100.0664,W,1,8,2.2,19,M,,M,,*54
06/14/2014	07:04:11.558	$GPGGA,070410,2428.2952,N,08100.0645,W,1,8,2.5,19,M,,M,,*5B
06/14/2014	07:04:12.827	$GPGGA,070411,2428.2963,N,08100.0624,W,1,8,2.2,19,M,,M,,*58
06/14/2014	07:04:13.769	$GPGGA,070412,2428.2973,N,08100.0605,W,1,8,2.2,19,M,,M,,*59
06/14/2014	07:04:14.830	$GPGGA,070413,2428.2984,N,08100.0584,W,1,8,2.2,19,M,,M,,*5A
06/14/2014	07:04:16.144	$GPGGA,070414,2428.2995,N,08100.0564,W,1,8,2.2,19,M,,M,,*53
06/14/2014	07:04:17.020	$GPGGA,070415,2428.3006,N,08100.0545,W,1,8,2.2,19,M,,M,,*53
06/14/2014	07:04:18.235	$GPGGA,070416,2428.3019,N,08100.0525,W,1,8,2.2,19,M,,M,,*58
06/14/2014	07:04:19.209	$GPGGA,070417,2428.3028,N,08100.0504,W,1,8,2.2,19,M,,M,,*58
06/14/2014	07:04:20.402	$GPGGA,070418,2428.3038,N,08100.0484,W,1,8,2.2,19,M,,M,,*5F
06/14/2014	07:04:21.574	$GPGGA,070419,2428.3051,N,08100.0463,W,1,8,2.2,20,M,,M,,*52
06/14/2014	07:04:22.690	$GPGGA,070420,2428.3062,N,08100.0443,W,1,8,2.2,20,M,,M,,*5A
06/14/2014	07:04:23.588	$GPGGA,070421,2428.3073,N,08100.0423,W,1,7,2.5,20,M,,M,,*55
06/14/2014	07:04:24.856	$GPGGA,070422,2428.3085,N,08100.0403,W,1,7,2.2,20,M,,M,,*5A
06/14/2014	07:04:25.907	$GPGGA,070423,2428.3095,N,08100.0381,W,1,8,2.2,20,M,,M,,*58
06/14/2014	07:04:27.122	$GPGGA,070424,2428.3106,N,08100.0360,W,1,8,2.2,20,M,,M,,*5B
06/14/2014	07:04:28.165	$GPGGA,070425,2428.3118,N,08100.0341,W,1,8,2.2,19,M,,M,,*5C
06/14/2014	07:04:29.223	$GPGGA,070426,2428.3132,N,08100.0321,W,1,8,2.2,19,M,,M,,*51
06/14/2014	07:04:30.263	$GPGGA,070427,2428.3140,N,08100.0300,W,1,8,2.2,19,M,,M,,*56
06/14/2014	07:04:31.448	$GPGGA,070428,2428.3153,N,08100.0278,W,1,8,2.2,19,M,,M,,*55
06/14/2014	07:04:32.463	$GPGGA,070429,2428.3165,N,08100.0258,W,1,8,2.2,19,M,,M,,*53
06/14/2014	07:04:33.602	$GPGGA,070430,2428.3178,N,08100.0239,W,1,8,2.2,19,M,,M,,*50
06/14/2014	07:04:34.653	$GPGGA,070431,2428.3186,N,08100.0217,W,1,7,2.2,19,M,,M,,*53
06/14/2014	07:04:35.791	$GPGGA,070432,2428.3199,N,08100.0195,W,1,7,2.2,19,M,,M,,*57
06/14/2014	07:04:36.842	$GPGGA,070433,2428.3211,N,08100.0175,W,1,8,2.2,20,M,,M,,*5E
06/14/2014	07:04:37.882	$GPGGA,070434,2428.3222,N,08100.0155,W,1,8,2.2,20,M,,M,,*5B
06/14/2014	07:04:39.032	$GPGGA,070435,2428.3233,N,08100.0134,W,1,8,2.2,20,M,,M,,*5D
06/14/2014	07:04:40.084	$GPGGA,070436,2428.3246,N,08100.0113,W,1,8,2.2,20,M,,M,,*59
06/14/2014	07:04:41.209	$GPGGA,070437,2428.3258,N,08100.0093,W,1,8,2.2,20,M,,M,,*5E
06/14/2014	07:04:42.260	$GPGGA,070438,2428.3270,N,08100.0074,W,1,8,2.2,20,M,,M,,*52
06/14/2014	07:04:43.397	$GPGGA,070439,2428.3281,N,08100.0053,W,1,8,2.2,20,M,,M,,*58
06/14/2014	07:04:44.514	$GPGGA,070440,2428.3293,N,08100.0031,W,1,8,2.2,20,M,,M,,*51
06/14/2014	07:04:45.630	$GPGGA,070441,2428.3305,N,08100.0011,W,1,8,2.2,20,M,,M,,*5C
06/14/2014	07:04:46.703	$GPGGA,070442,2428.3317,N,08059.9994,W,1,8,2.2,20,M,,M,,*5C
06/14/2014	07:04:47.776	$GPGGA,070443,2428.3330,N,08059.9972,W,1,8,2.2,20,M,,M,,*50
06/14/2014	07:04:48.816	$GPGGA,070444,2428.3340,N,08059.9950,W,1,8,2.2,20,M,,M,,*50
06/14/2014	07:04:49.998	$GPGGA,070445,2428.3351,N,08059.9930,W,1,8,2.2,20,M,,M,,*57
06/14/2014	07:04:50.994	$GPGGA,070446,2428.3364,N,08059.9912,W,1,8,2.2,20,M,,M,,*52
06/14/2014	07:04:52.154	$GPGGA,070447,2428.3377,N,08059.9892,W,1,8,2.2,20,M,,M,,*58
06/14/2014	07:04:53.194	$GPGGA,070448,2428.3385,N,08059.9870,W,1,8,2.2,20,M,,M,,*56
06/14/2014	07:04:48.647	$GPGGA,070449,2428.3396,N,08059.9848,W,1,8,2.2,20,M,,M,,*5E
06/14/2014	07:04:49.687	$GPGGA,070450,2428.3410,N,08059.9829,W,1,8,2.5,20,M,,M,,*5F
06/14/2014	07:04:50.782	$GPGGA,070451,2428.3421,N,08059.9811,W,1,8,2.2,20,M,,M,,*50
06/14/2014	07:04:51.953	$GPGGA,070452,2428.3435,N,08059.9790,W,1,8,2.2,20,M,,M,,*50
06/14/2014	07:04:52.960	$GPGGA,070453,2428.3446,N,08059.9769,W,1,7,2.2,20,M,,M,,*5C
06/14/2014	07:04:54.130	$GPGGA,070454,2428.3457,N,08059.9748,W,1,7,2.2,20,M,,M,,*58
06/14/2014	07:04:55.215	$GPGGA,070455,2428.3468,N,08059.9728,W,1,8,2.2,20,M,,M,,*5C
06/14/2014	07:04:56.321	$GPGGA,070456,2428.3481,N,08059.9707,W,1,8,2.2,20,M,,M,,*55
06/14/2014	07:04:57.370	$GPGGA,070457,2428.3492,N,08059.9687,W,1,8,2.2,20,M,,M,,*5F
06/14/2014	07:04:58.421	$GPGGA,070458,2428.3503,N,08059.9665,W,1,8,2.2,20,M,,M,,*55
06/14/2014	07:04:59.516	$GPGGA,070459,2428.3515,N,08059.9645,W,1,8,2.2,20,M,,M,,*51
06/14/2014	07:05:00.731	$GPGGA,070500,2428.3526,N,08059.9624,W,1,8,2.2,19,M,,M,,*51
06/14/2014	07:05:01.749	$GPGGA,070501,2428.3537,N,08059.9602,W,1,8,2.2,19,M,,M,,*54
06/14/2014	07:05:02.800	$GPGGA,070502,2428.3548,N,08059.9582,W,1,8,2.2,19,M,,M,,*54
06/14/2014	07:05:03.938	$GPGGA,070503,2428.3562,N,08059.9562,W,1,8,2.2,19,M,,M,,*53
06/14/2014	07:05:04.989	$GPGGA,070504,2428.3573,N,08059.9541,W,1,8,2.2,19,M,,M,,*55
06/14/2014	07:05:06.069	$GPGGA,070505,2428.3584,N,08059.9519,W,1,8,2.2,19,M,,M,,*51
06/14/2014	07:05:07.233	$GPGGA,070506,2428.3595,N,08059.9498,W,1,8,2.5,19,M,,M,,*5D
06/14/2014	07:05:08.327	$GPGGA,070507,2428.3609,N,08059.9479,W,1,7,2.2,19,M,,M,,*5D
06/14/2014	07:05:09.488	$GPGGA,070508,2428.3620,N,08059.9458,W,1,7,2.2,19,M,,M,,*5A
06/14/2014	07:05:10.571	$GPGGA,070509,2428.3629,N,08059.9434,W,1,8,2.2,19,M,,M,,*57
06/14/2014	07:05:11.611	$GPGGA,070510,2428.3640,N,08059.9413,W,1,8,2.2,19,M,,M,,*55
06/14/2014	07:05:12.739	$GPGGA,070511,2428.3653,N,08059.9395,W,1,8,2.2,19,M,,M,,*5F
06/14/2014	07:05:13.844	$GPGGA,070512,2428.3665,N,08059.9374,W,1,8,2.2,19,M,,M,,*56
06/14/2014	07:05:14.928	$GPGGA,070513,2428.3674,N,08059.9350,W,1,8,2.2,19,M,,M,,*51
06/14/2014	07:05:16.021	$GPGGA,070514,2428.3685,N,08059.9328,W,1,8,2.5,19,M,,M,,*50
06/14/2014	07:05:17.138	$GPGGA,070515,2428.3699,N,08059.9310,W,1,7,2.2,19,M,,M,,*5F
06/14/2014	07:05:18.210	$GPGGA,070516,2428.3710,N,08059.9287,W,1,7,1.5,19,M,,M,,*57
06/14/2014	07:05:19.316	$GPGGA,070517,2428.3721,N,08059.9263,W,1,8,1.5,19,M,,M,,*51
06/14/2014	07:05:20.400	$GPGGA,070518,2428.3734,N,08059.9240,W,1,8,1.5,19,M,,M,,*5B
06/14/2014	07:05:21.494	$GPGGA,070519,2428.3746,N,08059.9219,W,1,8,1.7,19,M,,M,,*51
06/14/2014	07:05:22.589	$GPGGA,070520,2428.3757,N,08059.9197,W,1,8,1.5,19,M,,M,,*5C
06/14/2014	07:05:23.683	$GPGGA,070521,2428.3768,N,08059.9175,W,1,8,1.5,19,M,,M,,*5D
06/14/2014	07:05:24.765	$GPGGA,070522,2428.3779,N,08059.9152,W,1,8,1.5,19,M,,M,,*5B
06/14/2014	07:05:25.873	$GPGGA,070523,2428.3792,N,08059.9130,W,1,8,1.5,19,M,,M,,*5B
06/14/2014	07:05:26.978	$GPGGA,070524,2428.3804,N,08059.9112,W,1,8,1.5,19,M,,M,,*5C
06/14/2014	07:05:28.055	$GPGGA,070525,2428.3815,N,08059.9092,W,1,8,2.2,19,M,,M,,*50
06/14/2014	07:05:29.156	$GPGGA,070526,2428.3826,N,08059.9067,W,1,8,1.5,20,M,,M,,*57
06/14/2014	07:05:30.251	$GPGGA,070527,2428.3837,N,08059.9047,W,1,8,1.5,20,M,,M,,*54
06/14/2014	07:05:31.324	$GPGGA,070528,2428.3848,N,08059.9028,W,1,8,2.2,20,M,,M,,*5E
06/14/2014	07:05:32.440	$GPGGA,070529,2428.3858,N,08059.9004,W,1,8,2.2,20,M,,M,,*50
06/14/2014	07:05:33.502	$GPGGA,070530,2428.3858,N,08059.9004,W,1,8,1.5,20,M,,M,,*5C
06/14/2014	07:05:34.598	$GPGGA,070531,2428.3880,N,08059.8963,W,1,7,2.2,20,M,,M,,*5A
06/14/2014	07:05:35.712	$GPGGA,070532,2428.3893,N,08059.8942,W,1,7,2.2,20,M,,M,,*58
06/14/2014	07:05:36.786	$GPGGA,070533,2428.3902,N,08059.8922,W,1,8,2.2,20,M,,M,,*59
06/14/2014	07:05:37.901	$GPGGA,070534,2428.3915,N,08059.8904,W,1,8,2.2,21,M,,M,,*5D
06/14/2014	07:05:38.985	$GPGGA,070535,2428.3927,N,08059.8884,W,1,8,2.2,21,M,,M,,*54
06/14/2014	07:05:40.070	$GPGGA,070536,2428.3927,N,08059.8884,W,1,8,2.2,21,M,,M,,*57
06/14/2014	07:05:41.174	$GPGGA,070537,2428.3949,N,08059.8841,W,1,8,1.5,21,M,,M,,*53
06/14/2014	07:05:42.236	$GPGGA,070538,2428.3949,N,08059.8841,W,1,8,1.5,21,M,,M,,*5C
06/14/2014	07:05:43.363	$GPGGA,070539,2428.3974,N,08059.8805,W,1,8,1.5,21,M,,M,,*53
06/14/2014	07:05:44.436	$GPGGA,070540,2428.3985,N,08059.8780,W,1,8,1.5,21,M,,M,,*51
06/14/2014	07:05:45.498	$GPGGA,070541,2428.3996,N,08059.8758,W,1,8,1.5,21,M,,M,,*57
06/14/2014	07:05:46.702	$GPGGA,070542,2428.4007,N,08059.8740,W,1,8,1.5,21,M,,M,,*5B
06/14/2014	07:05:47.720	$GPGGA,070543,2428.4021,N,08059.8720,W,1,8,1.5,21,M,,M,,*58
06/14/2014	07:05:48.924	$GPGGA,070544,2428.4030,N,08059.8697,W,1,8,1.5,21,M,,M,,*52
06/14/2014	07:05:49.898	$GPGGA,070545,2428.4041,N,08059.8677,W,1,8,1.5,21,M,,M,,*5B
06/14/2014	07:05:51.069	$GPGGA,070546,2428.4053,N,08059.8660,W,1,8,2.2,21,M,,M,,*59
06/14/2014	07:05:52.164	$GPGGA,070547,2428.4066,N,08059.8641,W,1,9,1.5,21,M,,M,,*58
06/14/2014	07:05:53.182	$GPGGA,070548,2428.4066,N,08059.8641,W,1,9,1.5,22,M,,M,,*54
06/14/2014	07:05:48.579	$GPGGA,070549,2428.4086,N,08059.8598,W,1,9,1.5,22,M,,M,,*5C
06/14/2014	07:05:49.783	$GPGGA,070550,2428.4100,N,08059.8582,W,1,9,1.5,22,M,,M,,*50
06/14/2014	07:05:50.899	$GPGGA,070551,2428.4111,N,08059.8562,W,1,9,1.5,22,M,,M,,*5F
06/14/2014	07:05:51.994	$GPGGA,070552,2428.4122,N,08059.8540,W,1,9,1.5,22,M,,M,,*5C
06/14/2014	07:05:53.045	$GPGGA,070553,2428.4133,N,08059.8521,W,1,8,2.2,22,M,,M,,*5F
06/14/2014	07:05:54.150	$GPGGA,070554,2428.4146,N,08059.8503,W,1,8,1.5,22,M,,M,,*5E
06/14/2014	07:05:55.267	$GPGGA,070555,2428.4158,N,08059.8483,W,1,9,1.5,22,M,,M,,*58
06/14/2014	07:05:56.361	$GPGGA,070556,2428.4169,N,08059.8462,W,1,9,1.5,22,M,,M,,*56
06/14/2014	07:05:57.412	$GPGGA,070557,2428.4180,N,08059.8439,W,1,8,2.2,22,M,,M,,*5B
06/14/2014	07:05:58.518	$GPGGA,070558,2428.4193,N,08059.8420,W,1,8,1.5,22,M,,M,,*5A
06/14/2014	07:05:59.623	$GPGGA,070559,2428.4205,N,08059.8402,W,1,9,1.5,22,M,,M,,*56
06/14/2014	07:06:00.729	$GPGGA,070600,2428.4205,N,08059.8402,W,1,9,1.5,22,M,,M,,*59
06/14/2014	07:06:01.790	$GPGGA,070601,2428.4227,N,08059.8359,W,1,9,1.5,22,M,,M,,*51
06/14/2014	07:06:02.896	$GPGGA,070602,2428.4240,N,08059.8341,W,1,9,1.5,22,M,,M,,*5A
06/14/2014	07:06:03.991	$GPGGA,070603,2428.4252,N,08059.8321,W,1,9,1.5,22,M,,M,,*5E
06/14/2014	07:06:05.085	$GPGGA,070604,2428.4263,N,08059.8299,W,1,9,1.5,22,M,,M,,*59
06/14/2014	07:06:06.180	$GPGGA,070605,2428.4274,N,08059.8278,W,1,9,1.5,22,M,,M,,*51
06/14/2014	07:06:07.254	$GPGGA,070606,2428.4285,N,08059.8258,W,1,9,1.5,22,M,,M,,*5E
06/14/2014	07:06:08.336	$GPGGA,070607,2428.4298,N,08059.8237,W,1,8,1.6,22,M,,M,,*58
06/14/2014	07:06:09.451	$GPGGA,070608,2428.4310,N,08059.8217,W,1,8,1.5,23,M,,M,,*56
06/14/2014	07:06:10.526	$GPGGA,070609,2428.4323,N,08059.8199,W,1,8,1.7,23,M,,M,,*50
06/14/2014	07:06:11.630	$GPGGA,070610,2428.4332,N,08059.8180,W,1,8,1.5,23,M,,M,,*52
06/14/2014	07:06:12.724	$GPGGA,070611,2428.4342,N,08059.8157,W,1,7,2.5,23,M,,M,,*52
06/14/2014	07:06:13.830	$GPGGA,070612,2428.4356,N,08059.8139,W,1,7,1.7,23,M,,M,,*5D
06/14/2014	07:06:14.924	$GPGGA,070613,2428.4371,N,08059.8122,W,1,9,1.5,23,M,,M,,*5F
06/14/2014	07:06:15.986	$GPGGA,070614,2428.4381,N,08059.8100,W,1,9,1.5,23,M,,M,,*57
06/14/2014	07:06:17.120	$GPGGA,070615,2428.4389,N,08059.8079,W,1,9,1.5,23,M,,M,,*51
06/14/2014	07:06:18.190	$GPGGA,070616,2428.4404,N,08059.8061,W,1,9,1.5,23,M,,M,,*59
06/14/2014	07:06:19.303	$GPGGA,070617,2428.4417,N,08059.8042,W,1,9,1.5,23,M,,M,,*5B
06/14/2014	07:06:20.365	$GPGGA,070618,2428.4426,N,08059.8020,W,1,9,1.5,23,M,,M,,*52
06/14/2014	07:06:21.461	$GPGGA,070619,2428.4436,N,08059.7999,W,1,9,1.5,23,M,,M,,*56
06/14/2014	07:06:22.576	$GPGGA,070620,2428.4449,N,08059.7980,W,1,9,1.5,23,M,,M,,*5C
06/14/2014	07:06:23.637	$GPGGA,070621,2428.4460,N,08059.7959,W,1,9,1.5,23,M,,M,,*52
06/14/2014	07:06:24.732	$GPGGA,070622,2428.4472,N,08059.7939,W,1,9,1.5,23,M,,M,,*54
06/14/2014	07:06:25.839	$GPGGA,070623,2428.4482,N,08059.7918,W,1,9,1.5,23,M,,M,,*59
06/14/2014	07:06:26.920	$GPGGA,070624,2428.4493,N,08059.7896,W,1,9,1.5,23,M,,M,,*59
06/14/2014	07:06:28.004	$GPGGA,070625,2428.4505,N,08059.7877,W,1,9,1.5,23,M,,M,,*59
06/14/2014	07:06:29.110	$GPGGA,070626,2428.4516,N,08059.7856,W,1,9,1.5,23,M,,M,,*5B
06/14/2014	07:06:30.313	$GPGGA,070627,2428.4527,N,08059.7833,W,1,9,1.5,23,M,,M,,*5B
06/14/2014	07:06:31.311	$GPGGA,070628,2428.4538,N,08059.7813,W,1,9,1.5,23,M,,M,,*58
06/14/2014	07:06:32.382	$GPGGA,070629,2428.4551,N,08059.7795,W,1,9,1.5,23,M,,M,,*57
06/14/2014	07:06:33.466	$GPGGA,070630,2428.4563,N,08059.7773,W,1,9,1.5,24,M,,M,,*51
06/14/2014	07:06:34.550	$GPGGA,070631,2428.4572,N,08059.7751,W,1,9,1.5,24,M,,M,,*50
06/14/2014	07:06:35.677	$GPGGA,070632,2428.4584,N,08059.7734,W,1,9,1.5,24,M,,M,,*59
06/14/2014	07:06:36.750	$GPGGA,070633,2428.4596,N,08059.7715,W,1,9,1.5,24,M,,M,,*58
06/14/2014	07:06:37.954	$GPGGA,070634,2428.4608,N,08059.7694,W,1,9,1.5,24,M,,M,,*53
06/14/2014	07:06:39.026	$GPGGA,070635,2428.4617,N,08059.7671,W,1,9,1.5,24,M,,M,,*57
06/14/2014	07:06:40.044	$GPGGA,070636,2428.4628,N,08059.7653,W,1,9,1.5,24,M,,M,,*58
06/14/2014	07:06:41.116	$GPGGA,070637,2428.4642,N,08059.7637,W,1,9,1.5,23,M,,M,,*50
06/14/2014	07:06:42.212	$GPGGA,070638,2428.4653,N,08059.7616,W,1,9,1.5,23,M,,M,,*5C
06/14/2014	07:06:43.307	$GPGGA,070639,2428.4661,N,08059.7594,W,1,8,2.2,23,M,,M,,*50
06/14/2014	07:06:44.413	$GPGGA,070640,2428.4673,N,08059.7575,W,1,8,2.2,23,M,,M,,*52
06/14/2014	07:06:45.485	$GPGGA,070641,2428.4686,N,08059.7556,W,1,9,1.5,23,M,,M,,*5D
06/14/2014	07:06:46.677	$GPGGA,070642,2428.4697,N,08059.7533,W,1,9,1.5,23,M,,M,,*5D
06/14/2014	07:06:47.782	$GPGGA,070643,2428.4706,N,08059.7510,W,1,8,1.6,23,M,,M,,*56
06/14/2014	07:06:48.778	$GPGGA,070644,2428.4717,N,08059.7493,W,1,8,1.5,23,M,,M,,*58
06/14/2014	07:06:49.993	$GPGGA,070645,2428.4729,N,08059.7474,W,1,9,1.5,24,M,,M,,*5B
06/14/2014	07:06:51.053	$GPGGA,070646,2428.4740,N,08059.7453,W,1,9,1.5,24,M,,M,,*52
06/14/2014	07:06:52.161	$GPGGA,070647,2428.4750,N,08059.7433,W,1,9,1.5,24,M,,M,,*54
06/14/2014	07:06:53.255	$GPGGA,070648,2428.4762,N,08059.7414,W,1,9,1.5,24,M,,M,,*5F
06/14/2014	07:06:48.665	$GPGGA,070649,2428.4775,N,08059.7395,W,1,9,1.5,24,M,,M,,*56
06/14/2014	07:06:49.749	$GPGGA,070650,2428.4785,N,08059.7375,W,1,9,1.5,24,M,,M,,*5F
06/14/2014	07:06:50.832	$GPGGA,070651,2428.4798,N,08059.7356,W,1,8,1.6,24,M,,M,,*51
06/14/2014	07:06:51.949	$GPGGA,070652,2428.4809,N,08059.7335,W,1,8,1.5,24,M,,M,,*53
06/14/2014	07:06:53.054	$GPGGA,070653,2428.4819,N,08059.7315,W,1,9,1.5,24,M,,M,,*50
06/14/2014	07:06:54.115	$GPGGA,070654,2428.4832,N,08059.7295,W,1,9,1.7,24,M,,M,,*55
06/14/2014	07:06:55.216	$GPGGA,070655,2428.4845,N,08059.7276,W,1,9,1.5,24,M,,M,,*5B
06/14/2014	07:06:56.316	$GPGGA,070656,2428.4855,N,08059.7255,W,1,9,1.5,24,M,,M,,*58
06/14/2014	07:06:57.422	$GPGGA,070657,2428.4867,N,08059.7236,W,1,9,1.5,24,M,,M,,*5D
06/14/2014	07:06:58.502	$GPGGA,070658,2428.4881,N,08059.7216,W,1,9,1.5,24,M,,M,,*58
06/14/2014	07:06:59.610	$GPGGA,070659,2428.4895,N,08059.7197,W,1,9,1.5,24,M,,M,,*56
06/14/2014	07:07:00.704	$GPGGA,070700,2428.4906,N,08059.7178,W,1,9,1.5,24,M,,M,,*51
06/14/2014	07:07:01.787	$GPGGA,070701,2428.4917,N,08059.7156,W,1,8,1.6,24,M,,M,,*5E
06/14/2014	07:07:02.850	$GPGGA,070702,2428.4930,N,08059.7136,W,1,8,1.5,24,M,,M,,*5D
06/14/2014	07:07:03.958	$GPGGA,070703,2428.4942,N,08059.7116,W,1,8,2.2,24,M,,M,,*5F
06/14/2014	07:07:05.059	$GPGGA,070704,2428.4953,N,08059.7094,W,1,8,1.5,23,M,,M,,*50
06/14/2014	07:07:06.134	$GPGGA,070705,2428.4964,N,08059.7072,W,1,9,1.5,23,M,,M,,*5C
06/14/2014	07:07:07.228	$GPGGA,070706,2428.4975,N,08059.7052,W,1,9,1.5,23,M,,M,,*5D
06/14/2014	07:07:08.312	$GPGGA,070707,2428.4989,N,08059.7031,W,1,9,1.5,23,M,,M,,*5A
06/14/2014	07:07:09.439	$GPGGA,070708,2428.5000,N,08059.7010,W,1,9,1.5,23,M,,M,,*5F
06/14/2014	07:07:10.512	$GPGGA,070709,2428.5011,N,08059.6990,W,1,8,2.2,23,M,,M,,*5B
06/14/2014	07:07:11.609	$GPGGA,070710,2428.5025,N,08059.6972,W,1,8,2.2,23,M,,M,,*58
06/14/2014	07:07:12.726	$GPGGA,070711,2428.5038,N,08059.6951,W,1,8,2.2,23,M,,M,,*54
06/14/2014	07:07:13.796	$GPGGA,070712,2428.5049,N,08059.6929,W,1,8,2.2,23,M,,M,,*5E
06/14/2014	07:07:14.904	$GPGGA,070713,2428.5060,N,08059.6908,W,1,9,1.5,23,M,,M,,*52
06/14/2014	07:07:16.084	$GPGGA,070714,2428.5072,N,08059.6886,W,1,9,1.5,23,M,,M,,*51
06/14/2014	07:07:17.058	$GPGGA,070715,2428.5086,N,08059.6864,W,1,9,1.5,23,M,,M,,*57
06/14/2014	07:07:18.164	$GPGGA,070716,2428.5096,N,08059.6842,W,1,9,1.5,23,M,,M,,*51
06/14/2014	07:07:19.366	$GPGGA,070717,2428.5108,N,08059.6821,W,1,9,1.5,23,M,,M,,*53
06/14/2014	07:07:20.330	$GPGGA,070718,2428.5122,N,08059.6800,W,1,9,1.5,23,M,,M,,*57
06/14/2014	07:07:21.424	$GPGGA,070719,2428.5133,N,08059.6776,W,1,8,1.7,23,M,,M,,*5B
06/14/2014	07:07:22.519	$GPGGA,070720,2428.5144,N,08059.6755,W,1,8,1.5,23,M,,M,,*52
06/14/2014	07:07:23.613	$GPGGA,070721,2428.5158,N,08059.6736,W,1,9,1.5,23,M,,M,,*5A
06/14/2014	07:07:24.697	$GPGGA,070722,2428.5170,N,08059.6714,W,1,9,1.5,23,M,,M,,*53
06/14/2014	07:07:25.934	$GPGGA,070723,2428.5184,N,08059.6694,W,1,9,1.5,23,M,,M,,*50
06/14/2014	07:07:26.897	$GPGGA,070724,2428.5197,N,08059.6673,W,1,9,1.5,24,M,,M,,*5B
06/14/2014	07:07:27.981	$GPGGA,070725,2428.5206,N,08059.6651,W,1,9,1.5,24,M,,M,,*51
06/14/2014	07:07:29.067	$GPGGA,070726,2428.5219,N,08059.6629,W,1,9,1.5,24,M,,M,,*53
06/14/2014	07:07:30.287	$GPGGA,070727,2428.5234,N,08059.6611,W,1,8,1.7,24,M,,M,,*55
06/14/2014	07:07:31.293	$GPGGA,070728,2428.5246,N,08059.6587,W,1,8,1.5,24,M,,M,,*51
06/14/2014	07:07:32.317	$GPGGA,070729,2428.5257,N,08059.6565,W,1,9,1.5,24,M,,M,,*5D
06/14/2014	07:07:33.249	$GPGGA,070730,2428.5270,N,08059.6548,W,1,9,1.5,24,M,,M,,*5F
06/14/2014	07:07:34.388	$GPGGA,070731,2428.5284,N,08059.6528,W,1,9,1.5,24,M,,M,,*53
06/14/2014	07:07:35.434	$GPGGA,070732,2428.5295,N,08059.6505,W,1,9,1.5,24,M,,M,,*5F
06/14/2014	07:07:36.481	$GPGGA,070733,2428.5306,N,08059.6485,W,1,9,1.5,24,M,,M,,*5C
06/14/2014	07:07:37.484	$GPGGA,070734,2428.5321,N,08059.6467,W,1,9,1.5,24,M,,M,,*52
06/14/2014	07:07:38.530	$GPGGA,070735,2428.5332,N,08059.6445,W,1,9,1.5,25,M,,M,,*50
06/14/2014	07:07:39.576	$GPGGA,070736,2428.5343,N,08059.6423,W,1,9,1.5,25,M,,M,,*55
06/14/2014	07:07:40.601	$GPGGA,070737,2428.5358,N,08059.6407,W,1,9,1.5,25,M,,M,,*58
06/14/2014	07:07:41.613	$GPGGA,070738,2428.5371,N,08059.6389,W,1,9,2.2,25,M,,M,,*59
06/14/2014	07:07:42.662	$GPGGA,070739,2428.5380,N,08059.6364,W,1,9,1.5,25,M,,M,,*51
06/14/2014	07:07:43.697	$GPGGA,070740,2428.5394,N,08059.6344,W,1,9,1.5,25,M,,M,,*58
06/14/2014	07:07:44.733	$GPGGA,070741,2428.5407,N,08059.6327,W,1,9,1.5,25,M,,M,,*51
06/14/2014	07:07:45.755	$GPGGA,070742,2428.5419,N,08059.6305,W,1,9,1.5,25,M,,M,,*5D
06/14/2014	07:07:46.794	$GPGGA,070743,2428.5430,N,08059.6282,W,1,9,1.5,25,M,,M,,*59
06/14/2014	07:07:47.824	$GPGGA,070744,2428.5441,N,08059.6264,W,1,9,1.5,25,M,,M,,*50
06/14/2014	07:07:48.875	$GPGGA,070745,2428.5455,N,08059.6244,W,1,9,1.5,25,M,,M,,*56
06/14/2014	07:07:49.888	$GPGGA,070746,2428.5466,N,08059.6224,W,1,9,1.5,25,M,,M,,*53
06/14/2014	07:07:50.908	$GPGGA,070747,2428.5479,N,08059.6204,W,1,9,1.5,24,M,,M,,*5F
06/14/2014	07:07:51.955	$GPGGA,070748,2428.5491,N,08059.6182,W,1,9,1.5,24,M,,M,,*5B
06/14/2014	07:07:48.588	$GPGGA,070749,2428.5504,N,08059.6163,W,1,9,1.5,24,M,,M,,*58
06/14/2014	07:07:49.605	$GPGGA,070750,2428.5517,N,08059.6145,W,1,9,2.2,24,M,,M,,*52
06/14/2014	07:07:50.637	$GPGGA,070751,2428.5530,N,08059.6123,W,1,9,1.5,24,M,,M,,*52
06/14/2014	07:07:51.683	$GPGGA,070752,2428.5541,N,08059.6100,W,1,9,1.5,24,M,,M,,*56
06/14/2014	07:07:52.726	$GPGGA,070753,2428.5553,N,08059.6080,W,1,9,1.5,24,M,,M,,*5D
06/14/2014	07:07:53.733	$GPGGA,070754,2428.5566,N,08059.6059,W,1,9,1.5,24,M,,M,,*58
06/14/2014	07:07:54.800	$GPGGA,070755,2428.5578,N,08059.6038,W,1,9,1.5,24,M,,M,,*51
06/14/2014	07:07:55.815	$GPGGA,070756,2428.5589,N,08059.6016,W,1,9,1.5,24,M,,M,,*50
06/14/2014	07:07:56.954	$GPGGA,070757,2428.5602,N,08059.5996,W,1,9,1.5,24,M,,M,,*53
06/14/2014	07:07:57.886	$GPGGA,070758,2428.5616,N,08059.5975,W,1,9,1.5,24,M,,M,,*54
06/14/2014	07:07:58.943	$GPGGA,070759,2428.5628,N,08059.5954,W,1,9,1.5,24,M,,M,,*5B
06/14/2014	07:07:59.957	$GPGGA,070800,2428.5639,N,08059.5932,W,1,9,1.5,24,M,,M,,*58
06/14/2014	07:08:00.972	$GPGGA,070801,2428.5653,N,08059.5912,W,1,9,1.5,24,M,,M,,*57
06/14/2014	07:08:02.132	$GPGGA,070802,2428.5665,N,08059.5894,W,1,9,1.5,24,M,,M,,*5E
06/14/2014	07:08:03.064	$GPGGA,070803,2428.5676,N,08059.5872,W,1,9,1.5,24,M,,M,,*55
06/14/2014	07:08:04.100	$GPGGA,070804,2428.5689,N,08059.5850,W,1,9,1.5,24,M,,M,,*52
06/14/2014	07:08:05.104	$GPGGA,070805,2428.5701,N,08059.5831,W,1,9,1.5,24,M,,M,,*55
06/14/2014	07:08:06.130	$GPGGA,070806,2428.5714,N,08059.5811,W,1,9,1.5,24,M,,M,,*50
06/14/2014	07:08:07.222	$GPGGA,070807,2428.5726,N,08059.5791,W,1,9,1.5,24,M,,M,,*57
06/14/2014	07:08:08.232	$GPGGA,070808,2428.5737,N,08059.5770,W,1,9,2.2,24,M,,M,,*53
06/14/2014	07:08:09.246	$GPGGA,070809,2428.5748,N,08059.5749,W,1,9,1.5,24,M,,M,,*54
06/14/2014	07:08:10.303	$GPGGA,070810,2428.5762,N,08059.5728,W,1,9,1.5,24,M,,M,,*53
06/14/2014	07:08:11.317	$GPGGA,070811,2428.5775,N,08059.5708,W,1,9,1.5,24,M,,M,,*56
06/14/2014	07:08:12.446	$GPGGA,070812,2428.5786,N,08059.5685,W,1,9,1.5,24,M,,M,,*5D
06/14/2014	07:08:13.388	$GPGGA,070813,2428.5795,N,08059.5662,W,1,9,1.5,24,M,,M,,*57
06/14/2014	07:08:14.413	$GPGGA,070814,2428.5809,N,08059.5643,W,1,9,1.7,24,M,,M,,*5B
06/14/2014	07:08:15.542	$GPGGA,070815,2428.5824,N,08059.5624,W,1,9,1.5,24,M,,M,,*56
06/14/2014	07:08:16.495	$GPGGA,070816,2428.5835,N,08059.5600,W,1,9,1.5,24,M,,M,,*53
06/14/2014	07:08:17.510	$GPGGA,070817,2428.5845,N,08059.5577,W,1,9,1.5,24,M,,M,,*56
06/14/2014	07:08:18.545	$GPGGA,070818,2428.5860,N,08059.5559,W,1,9,1.7,24,M,,M,,*50
06/14/2014	07:08:19.695	$GPGGA,070819,2428.5873,N,08059.5538,W,1,9,1.5,24,M,,M,,*56
06/14/2014	07:08:20.741	$GPGGA,070820,2428.5882,N,08059.5515,W,1,9,1.5,24,M,,M,,*5D
06/14/2014	07:08:21.652	$GPGGA,070821,2428.5892,N,08059.5494,W,1,8,1.7,24,M,,M,,*56
06/14/2014	07:08:22.771	$GPGGA,070822,2428.5907,N,08059.5473,W,1,8,1.7,24,M,,M,,*51
06/14/2014	07:08:23.858	$GPGGA,070823,2428.5918,N,08059.5454,W,1,9,1.5,24,M,,M,,*58
06/14/2014	07:08:24.883	$GPGGA,070824,2428.5929,N,08059.5435,W,1,9,1.5,24,M,,M,,*5A
06/14/2014	07:08:25.888	$GPGGA,070825,2428.5943,N,08059.5411,W,1,8,1.6,24,M,,M,,*53
06/14/2014	07:08:26.905	$GPGGA,070826,2428.5950,N,08059.5391,W,1,8,1.5,24,M,,M,,*5E
06/14/2014	07:08:27.938	$GPGGA,070827,2428.5961,N,08059.5371,W,1,8,1.7,24,M,,M,,*51
06/14/2014	07:08:28.983	$GPGGA,070828,2428.5975,N,08059.5349,W,1,8,1.5,24,M,,M,,*52
06/14/2014	07:08:30.050	$GPGGA,070829,2428.5985,N,08059.5329,W,1,9,1.5,24,M,,M,,*5B
06/14/2014	07:08:31.096	$GPGGA,070830,2428.5994,N,08059.5308,W,1,9,1.5,24,M,,M,,*50
06/14/2014	07:08:32.104	$GPGGA,070831,2428.6007,N,08059.5286,W,1,9,1.5,24,M,,M,,*56
06/14/2014	07:08:33.132	$GPGGA,070832,2428.6018,N,08059.5266,W,1,9,1.5,24,M,,M,,*55
06/14/2014	07:08:34.146	$GPGGA,070833,2428.6028,N,08059.5246,W,1,9,1.5,24,M,,M,,*55
06/14/2014	07:08:35.189	$GPGGA,070834,2428.6039,N,08059.5225,W,1,9,1.5,24,M,,M,,*57
06/14/2014	07:08:36.253	$GPGGA,070835,2428.6051,N,08059.5203,W,1,9,1.5,24,M,,M,,*5C
06/14/2014	07:08:37.249	$GPGGA,070836,2428.6062,N,08059.5184,W,1,9,1.5,24,M,,M,,*53
06/14/2014	07:08:38.304	$GPGGA,070837,2428.6073,N,08059.5162,W,1,8,2.2,23,M,,M,,*58
06/14/2014	07:08:39.329	$GPGGA,070838,2428.6086,N,08059.5141,W,1,8,1.6,23,M,,M,,*5B
06/14/2014	07:08:40.375	$GPGGA,070839,2428.6098,N,08059.5121,W,1,9,1.5,23,M,,M,,*51
06/14/2014	07:08:41.403	$GPGGA,070840,2428.6109,N,08059.5100,W,1,9,1.5,23,M,,M,,*55
06/14/2014	07:08:42.436	$GPGGA,070841,2428.6120,N,08059.5079,W,1,9,1.5,23,M,,M,,*50
06/14/2014	07:08:43.451	$GPGGA,070842,2428.6133,N,08059.5060,W,1,9,2.2,23,M,,M,,*5D
06/14/2014	07:08:44.476	$GPGGA,070843,2428.6147,N,08059.5039,W,1,9,1.5,23,M,,M,,*57
06/14/2014	07:08:45.531	$GPGGA,070844,2428.6159,N,08059.5017,W,1,9,1.5,23,M,,M,,*53
06/14/2014	07:08:46.598	$GPGGA,070845,2428.6171,N,08059.4997,W,1,8,1.7,23,M,,M,,*5B
06/14/2014	07:08:47.582	$GPGGA,070846,2428.6184,N,08059.4978,W,1,8,1.5,23,M,,M,,*51
06/14/2014	07:08:48.627	$GPGGA,070847,2428.6196,N,08059.4958,W,1,9,1.5,23,M,,M,,*50
06/14/2014	07:08:49.653	$GPGGA,070848,2428.6209,N,08059.4936,W,1,9,1.5,23,M,,M,,*52
06/14/2014	07:08:48.544	$GPGGA,070849,2428.6223,N,08059.4916,W,1,9,1.5,23,M,,M,,*59
06/14/2014	07:08:49.590	$GPGGA,070850,2428.6236,N,08059.4898,W,1,9,1.5,23,M,,M,,*52
06/14/2014	07:08:50.657	$GPGGA,070851,2428.6247,N,08059.4878,W,1,8,2.2,23,M,,M,,*5E
06/14/2014	07:08:51.673	$GPGGA,070852,2428.6261,N,08059.4858,W,1,8,2.2,23,M,,M,,*5B
06/14/2014	07:08:52.800	$GPGGA,070853,2428.6275,N,08059.4839,W,1,9,1.5,23,M,,M,,*5D
06/14/2014	07:08:53.712	$GPGGA,070854,2428.6288,N,08059.4818,W,1,9,1.5,23,M,,M,,*5B
06/14/2014	07:08:54.904	$GPGGA,070855,2428.6300,N,08059.4798,W,1,8,1.5,23,M,,M,,*5D
06/14/2014	07:08:55.783	$GPGGA,070856,2428.6312,N,08059.4780,W,1,8,1.5,23,M,,M,,*54
06/14/2014	07:08:56.963	$GPGGA,070857,2428.6326,N,08059.4760,W,1,9,1.5,22,M,,M,,*5C
06/14/2014	07:08:57.854	$GPGGA,070858,2428.6340,N,08059.4739,W,1,9,1.5,22,M,,M,,*5F
06/14/2014	07:08:58.900	$GPGGA,070859,2428.6351,N,08059.4717,W,1,9,1.5,22,M,,M,,*52
06/14/2014	07:09:01.384	$GPGGA,070901,2428.6377,N,08059.4677,W,1,9,1.5,22,M,,M,,*5D
06/14/2014	07:09:02.089	$GPGGA,070902,2428.6391,N,08059.4656,W,1,9,1.5,22,M,,M,,*55
06/14/2014	07:09:03.145	$GPGGA,070903,2428.6402,N,08059.4633,W,1,9,1.5,22,M,,M,,*5A
06/14/2014	07:09:04.068	$GPGGA,070904,2428.6416,N,08059.4612,W,1,9,1.5,22,M,,M,,*5B
06/14/2014	07:09:05.216	$GPGGA,070905,2428.6429,N,08059.4594,W,1,9,1.5,22,M,,M,,*5B
06/14/2014	07:09:06.119	$GPGGA,070906,2428.6441,N,08059.4572,W,1,9,1.5,22,M,,M,,*5E
06/14/2014	07:09:07.287	$GPGGA,070907,2428.6452,N,08059.4550,W,1,9,1.5,22,M,,M,,*5D
06/14/2014	07:09:08.313	$GPGGA,070908,2428.6465,N,08059.4531,W,1,9,1.5,22,M,,M,,*51
06/14/2014	07:09:09.338	$GPGGA,070909,2428.6478,N,08059.4511,W,1,9,1.5,22,M,,M,,*5E
06/14/2014	07:09:10.353	$GPGGA,070910,2428.6489,N,08059.4489,W,1,9,1.5,22,M,,M,,*58
06/14/2014	07:09:11.399	$GPGGA,070911,2428.6502,N,08059.4471,W,1,9,1.5,22,M,,M,,*5C
06/14/2014	07:09:12.424	$GPGGA,070912,2428.6514,N,08059.4450,W,1,9,1.5,22,M,,M,,*5B
06/14/2014	07:09:13.460	$GPGGA,070913,2428.6527,N,08059.4429,W,1,9,2.2,22,M,,M,,*50
06/14/2014	07:09:14.485	$GPGGA,070914,2428.6538,N,08059.4409,W,1,9,1.5,22,M,,M,,*5F
06/14/2014	07:09:15.541	$GPGGA,070915,2428.6550,N,08059.4389,W,1,9,1.5,22,M,,M,,*5F
06/14/2014	07:09:16.566	$GPGGA,070916,2428.6561,N,08059.4367,W,1,9,2.2,22,M,,M,,*5A
06/14/2014	07:09:17.602	$GPGGA,070917,2428.6572,N,08059.4346,W,1,8,1.5,22,M,,M,,*5F
06/14/2014	07:09:18.617	$GPGGA,070918,2428.6585,N,08059.4329,W,1,8,2.2,22,M,,M,,*55
06/14/2014	07:09:19.682	$GPGGA,070919,2428.6597,N,08059.4309,W,1,8,2.2,22,M,,M,,*55
06/14/2014	07:09:20.697	$GPGGA,070920,2428.6607,N,08059.4286,W,1,8,1.7,22,M,,M,,*55
06/14/2014	07:09:21.713	$GPGGA,070921,2428.6617,N,08059.4267,W,1,8,1.7,22,M,,M,,*5A
06/14/2014	07:09:22.758	$GPGGA,070922,2428.6628,N,08059.4248,W,1,8,1.5,22,M,,M,,*5A
06/14/2014	07:09:23.814	$GPGGA,070923,2428.6639,N,08059.4226,W,1,9,1.5,21,M,,M,,*51
06/14/2014	07:09:24.840	$GPGGA,070924,2428.6647,N,08059.4204,W,1,9,1.5,21,M,,M,,*5F
06/14/2014	07:09:25.865	$GPGGA,070925,2428.6658,N,08059.4184,W,1,9,1.5,21,M,,M,,*5B
06/14/2014	07:09:26.890	$GPGGA,070926,2428.6671,N,08059.4164,W,1,9,1.5,21,M,,M,,*5D
06/14/2014	07:09:27.926	$GPGGA,070927,2428.6682,N,08059.4142,W,1,9,1.5,21,M,,M,,*54
06/14/2014	07:09:28.992	$GPGGA,070928,2428.6691,N,08059.4122,W,1,9,1.5,21,M,,M,,*5F
06/14/2014	07:09:29.987	$GPGGA,070929,2428.6704,N,08059.4105,W,1,9,2.2,21,M,,M,,*52
06/14/2014	07:09:31.035	$GPGGA,070930,2428.6716,N,08059.4083,W,1,9,1.5,21,M,,M,,*52
06/14/2014	07:09:32.083	$GPGGA,070931,2428.6727,N,08059.4062,W,1,9,1.5,21,M,,M,,*5E
06/14/2014	07:09:33.118	$GPGGA,070932,2428.6738,N,08059.4043,W,1,9,1.5,21,M,,M,,*50
06/14/2014	07:09:34.150	$GPGGA,070933,2428.6751,N,08059.4022,W,1,9,1.6,21,M,,M,,*5A
06/14/2014	07:09:35.154	$GPGGA,070934,2428.6763,N,08059.4001,W,1,9,1.5,21,M,,M,,*5E
06/14/2014	07:09:36.208	$GPGGA,070935,2428.6774,N,08059.3982,W,1,9,1.5,21,M,,M,,*5C
06/14/2014	07:09:37.256	$GPGGA,070936,2428.6785,N,08059.3962,W,1,9,1.5,21,M,,M,,*5F
06/14/2014	07:09:38.260	$GPGGA,070937,2428.6798,N,08059.3941,W,1,9,1.7,21,M,,M,,*51
06/14/2014	07:09:39.410	$GPGGA,070938,2428.6810,N,08059.3922,W,1,9,1.6,21,M,,M,,*55
06/14/2014	07:09:40.352	$GPGGA,070939,2428.6821,N,08059.3902,W,1,8,1.5,21,M,,M,,*56
06/14/2014	07:09:41.398	$GPGGA,070940,2428.6834,N,08059.3883,W,1,8,1.5,21,M,,M,,*54
06/14/2014	07:09:42.423	$GPGGA,070941,2428.6845,N,08059.3863,W,1,9,1.7,21,M,,M,,*5E
06/14/2014	07:09:43.417	$GPGGA,070942,2428.6856,N,08059.3842,W,1,9,1.5,21,M,,M,,*5E
06/14/2014	07:09:44.475	$GPGGA,070943,2428.6867,N,08059.3821,W,1,9,2.2,21,M,,M,,*5C
06/14/2014	07:09:45.540	$GPGGA,070944,2428.6879,N,08059.3802,W,1,9,1.5,21,M,,M,,*51
06/14/2014	07:09:46.524	$GPGGA,070945,2428.6890,N,08059.3784,W,1,9,1.5,21,M,,M,,*56
06/14/2014	07:09:47.570	$GPGGA,070946,2428.6903,N,08059.3762,W,1,9,1.5,21,M,,M,,*56
06/14/2014	07:09:48.606	$GPGGA,070947,2428.6914,N,08059.3742,W,1,9,1.5,21,M,,M,,*53
06/14/2014	07:09:49.641	$GPGGA,070948,2428.6926,N,08059.3723,W,1,9,1.6,21,M,,M,,*59
06/14/2014	07:09:48.522	$GPGGA,070949,2428.6939,N,08059.3703,W,1,8,1.5,21,M,,M,,*56
06/14/2014	07:09:49.661	$GPGGA,070950,2428.6950,N,08059.3682,W,1,8,1.5,21,M,,M,,*59
06/14/2014	07:09:50.687	$GPGGA,070951,2428.6961,N,08059.3661,W,1,9,1.5,21,M,,M,,*56
06/14/2014	07:09:51.743	$GPGGA,070952,2428.6973,N,08059.3640,W,1,9,1.5,21,M,,M,,*55
06/14/2014	07:09:52.768	$GPGGA,070953,2428.6984,N,08059.3619,W,1,9,1.5,21,M,,M,,*50
06/14/2014	07:09:53.792	$GPGGA,070954,2428.6997,N,08059.3599,W,1,9,1.5,21,M,,M,,*5E
06/14/2014	07:09:54.849	$GPGGA,070955,2428.7009,N,08059.3577,W,1,9,1.5,21,M,,M,,*50
06/14/2014	07:09:55.874	$GPGGA,070956,2428.7022,N,08059.3557,W,1,9,1.6,21,M,,M,,*5B
06/14/2014	07:09:56.899	$GPGGA,070957,2428.7034,N,08059.3537,W,1,9,1.5,21,M,,M,,*58
06/14/2014	07:09:57.924	$GPGGA,070958,2428.7047,N,08059.3514,W,1,9,1.5,21,M,,M,,*52
06/14/2014	07:09:58.981	$GPGGA,070959,2428.7058,N,08059.3493,W,1,9,1.5,21,M,,M,,*53
06/14/2014	07:10:00.016	$GPGGA,071000,2428.7070,N,08059.3473,W,1,9,1.5,21,M,,M,,*53
06/14/2014	07:10:01.042	$GPGGA,071001,2428.7084,N,08059.3451,W,1,9,1.5,21,M,,M,,*59
06/14/2014	07:10:02.065	$GPGGA,071002,2428.7094,N,08059.3429,W,1,9,1.5,21,M,,M,,*54
06/14/2014	07:10:03.123	$GPGGA,071003,2428.7106,N,08059.3409,W,1,9,1.5,21,M,,M,,*5D
06/14/2014	07:10:04.137	$GPGGA,071004,2428.7120,N,08059.3388,W,1,9,1.5,21,M,,M,,*50
06/14/2014	07:10:05.174	$GPGGA,071005,2428.7132,N,08059.3368,W,1,9,1.5,21,M,,M,,*5C
06/14/2014	07:10:06.189	$GPGGA,071006,2428.7142,N,08059.3349,W,1,9,2.2,21,M,,M,,*5F
06/14/2014	07:10:07.234	$GPGGA,071007,2428.7156,N,08059.3328,W,1,9,2.2,21,M,,M,,*5C
06/14/2014	07:10:08.280	$GPGGA,071008,2428.7168,N,08059.3307,W,1,9,2.2,21,M,,M,,*53
06/14/2014	07:10:09.316	$GPGGA,071009,2428.7181,N,08059.3288,W,1,8,2.2,21,M,,M,,*52
06/14/2014	07:10:10.335	$GPGGA,071010,2428.7192,N,08059.3268,W,1,8,2.2,21,M,,M,,*56
06/14/2014	07:10:11.376	$GPGGA,071011,2428.7204,N,08059.3244,W,1,9,1.5,21,M,,M,,*50
06/14/2014	07:10:12.411	$GPGGA,071012,2428.7218,N,08059.3222,W,1,9,1.5,21,M,,M,,*5E
06/14/2014	07:10:13.437	$GPGGA,071013,2428.7229,N,08059.3203,W,1,9,1.5,21,M,,M,,*5E
06/14/2014	07:10:14.462	$GPGGA,071014,2428.7240,N,08059.3182,W,1,9,1.5,21,M,,M,,*5C
06/14/2014	07:10:15.518	$GPGGA,071015,2428.7254,N,08059.3159,W,1,9,1.5,21,M,,M,,*5E
06/14/2014	07:10:16.543	$GPGGA,071016,2428.7265,N,08059.3139,W,1,9,1.5,21,M,,M,,*59
06/14/2014	07:10:17.558	$GPGGA,071017,2428.7278,N,08059.3119,W,1,9,1.5,21,M,,M,,*56
06/14/2014	07:10:18.594	$GPGGA,071018,2428.7290,N,08059.3099,W,1,9,1.5,22,M,,M,,*55
06/14/2014	07:10:19.640	$GPGGA,071019,2428.7303,N,08059.3078,W,1,9,1.5,22,M,,M,,*50
06/14/2014	07:10:20.682	$GPGGA,071020,2428.7314,N,08059.3056,W,1,9,1.5,22,M,,M,,*50
06/14/2014	07:10:21.690	$GPGGA,071021,2428.7326,N,08059.3037,W,1,9,1.5,22,M,,M,,*57
06/14/2014	07:10:22.716	$GPGGA,071022,2428.7338,N,08059.3017,W,1,9,1.5,22,M,,M,,*59
06/14/2014	07:10:23.786	$GPGGA,071023,2428.7352,N,08059.2996,W,1,9,1.5,22,M,,M,,*55
06/14/2014	07:10:24.818	$GPGGA,071024,2428.7363,N,08059.2975,W,1,9,1.5,22,M,,M,,*5D
06/14/2014	07:10:25.833	$GPGGA,071025,2428.7377,N,08059.2955,W,1,9,1.5,22,M,,M,,*5B
06/14/2014	07:10:26.858	$GPGGA,071026,2428.7388,N,08059.2936,W,1,9,1.5,22,M,,M,,*5D
06/14/2014	07:10:27.915	$GPGGA,071027,2428.7401,N,08059.2914,W,1,9,1.5,22,M,,M,,*5A
06/14/2014	07:10:28.940	$GPGGA,071028,2428.7413,N,08059.2892,W,1,9,1.5,22,M,,M,,*59
06/14/2014	07:10:29.965	$GPGGA,071029,2428.7426,N,08059.2874,W,1,9,1.5,23,M,,M,,*57
06/14/2014	07:10:30.989	$GPGGA,071030,2428.7439,N,08059.2854,W,1,9,1.5,23,M,,M,,*53
06/14/2014	07:10:32.045	$GPGGA,071031,2428.7450,N,08059.2831,W,1,9,1.5,23,M,,M,,*5E
06/14/2014	07:10:33.081	$GPGGA,071032,2428.7464,N,08059.2811,W,1,9,1.5,23,M,,M,,*58
06/14/2014	07:10:34.189	$GPGGA,071033,2428.7478,N,08059.2794,W,1,9,1.5,23,M,,M,,*56
06/14/2014	07:10:35.235	$GPGGA,071034,2428.7489,N,08059.2772,W,1,9,1.5,23,M,,M,,*57
06/14/2014	07:10:36.177	$GPGGA,071035,2428.7502,N,08059.2749,W,1,9,1.5,23,M,,M,,*5C
06/14/2014	07:10:37.327	$GPGGA,071036,2428.7514,N,08059.2730,W,1,9,1.5,23,M,,M,,*56
06/14/2014	07:10:38.331	$GPGGA,071037,2428.7529,N,08059.2711,W,1,8,1.6,23,M,,M,,*58
06/14/2014	07:10:39.367	$GPGGA,071038,2428.7540,N,08059.2689,W,1,8,1.5,23,M,,M,,*5B
06/14/2014	07:10:40.423	$GPGGA,071039,2428.7551,N,08059.2667,W,1,9,1.5,23,M,,M,,*5B
06/14/2014	07:10:41.459	$GPGGA,071040,2428.7565,N,08059.2649,W,1,9,2.2,23,M,,M,,*5A
06/14/2014	07:10:42.474	$GPGGA,071041,2428.7579,N,08059.2629,W,1,8,2.2,23,M,,M,,*51
06/14/2014	07:10:43.520	$GPGGA,071042,2428.7592,N,08059.2605,W,1,8,1.5,23,M,,M,,*5D
06/14/2014	07:10:44.524	$GPGGA,071043,2428.7603,N,08059.2582,W,1,9,1.5,23,M,,M,,*5A
06/14/2014	07:10:45.477	$GPGGA,071044,2428.7612,N,08059.2562,W,1,9,1.5,23,M,,M,,*53
06/14/2014	07:10:46.616	$GPGGA,071045,2428.7627,N,08059.2542,W,1,9,1.5,23,M,,M,,*56
06/14/2014	07:10:47.630	$GPGGA,071046,2428.7640,N,08059.2520,W,1,9,1.5,23,M,,M,,*50
06/14/2014	07:10:48.707	$GPGGA,071047,2428.7650,N,08059.2498,W,1,9,1.5,23,M,,M,,*52
06/14/2014	07:10:49.712	$GPGGA,071048,2428.7662,N,08059.2476,W,1,9,1.5,23,M,,M,,*5C
06/14/2014	07:10:48.593	$GPGGA,071049,2428.7676,N,08059.2455,W,1,9,1.5,23,M,,M,,*59
06/14/2014	07:10:49.628	$GPGGA,071050,2428.7687,N,08059.2433,W,1,9,1.7,23,M,,M,,*5D
06/14/2014	07:10:50.653	$GPGGA,071051,2428.7698,N,08059.2412,W,1,8,1.7,23,M,,M,,*50
06/14/2014	07:10:51.720	$GPGGA,071052,2428.7710,N,08059.2389,W,1,8,1.5,24,M,,M,,*52
06/14/2014	07:10:52.745	$GPGGA,071053,2428.7724,N,08059.2369,W,1,9,1.5,24,M,,M,,*5B
06/14/2014	07:10:53.760	$GPGGA,071054,2428.7737,N,08059.2349,W,1,9,1.5,24,M,,M,,*5C
06/14/2014	07:10:54.827	$GPGGA,071055,2428.7749,N,08059.2327,W,1,9,1.5,24,M,,M,,*5C
06/14/2014	07:10:55.842	$GPGGA,071056,2428.7762,N,08059.2303,W,1,9,1.5,24,M,,M,,*50
06/14/2014	07:10:56.888	$GPGGA,071057,2428.7775,N,08059.2283,W,1,9,1.5,24,M,,M,,*5E
06/14/2014	07:10:57.904	$GPGGA,071058,2428.7786,N,08059.2261,W,1,9,1.5,24,M,,M,,*51
06/14/2014	07:10:58.959	$GPGGA,071059,2428.7800,N,08059.2240,W,1,8,1.7,24,M,,M,,*51
06/14/2014	07:10:59.995	$GPGGA,071100,2428.7811,N,08059.2216,W,1,8,2.6,24,M,,M,,*5D
06/14/2014	07:11:01.009	$GPGGA,071101,2428.7821,N,08059.2198,W,1,8,1.7,24,M,,M,,*58
06/14/2014	07:11:02.047	$GPGGA,071102,2428.7836,N,08059.2176,W,1,8,2.6,24,M,,M,,*5F
06/14/2014	07:11:03.103	$GPGGA,071103,2428.7849,N,08059.2153,W,1,8,1.7,24,M,,M,,*53
06/14/2014	07:11:04.138	$GPGGA,071104,2428.7858,N,08059.2131,W,1,8,1.7,24,M,,M,,*50
06/14/2014	07:11:05.120	$GPGGA,071105,2428.7872,N,08059.2112,W,1,7,2.6,24,M,,M,,*55
06/14/2014	07:11:06.166	$GPGGA,071106,2428.7887,N,08059.2091,W,1,7,2.6,24,M,,M,,*56
06/14/2014	07:11:07.232	$GPGGA,071107,2428.7898,N,08059.2069,W,1,8,1.7,24,M,,M,,*53
06/14/2014	07:11:08.237	$GPGGA,071108,2428.7911,N,08059.2047,W,1,8,1.7,24,M,,M,,*50
06/14/2014	07:11:09.291	$GPGGA,071109,2428.7923,N,08059.2027,W,1,7,2.6,24,M,,M,,*5B
06/14/2014	07:11:10.298	$GPGGA,071110,2428.7937,N,08059.2008,W,1,7,1.8,24,M,,M,,*56
06/14/2014	07:11:11.344	$GPGGA,071111,2428.7951,N,08059.1986,W,1,8,1.7,24,M,,M,,*5B
06/14/2014	07:11:12.390	$GPGGA,071112,2428.7963,N,08059.1966,W,1,8,1.7,24,M,,M,,*57
06/14/2014	07:11:13.405	$GPGGA,071113,2428.7977,N,08059.1946,W,1,8,1.7,23,M,,M,,*56
06/14/2014	07:11:14.440	$GPGGA,071114,2428.7988,N,08059.1923,W,1,8,1.7,23,M,,M,,*52
06/14/2014	07:11:15.507	$GPGGA,071115,2428.8002,N,08059.1902,W,1,8,1.7,23,M,,M,,*54
06/14/2014	07:11:16.522	$GPGGA,071116,2428.8017,N,08059.1883,W,1,8,1.7,23,M,,M,,*5B
06/14/2014	07:11:17.568	$GPGGA,071117,2428.8028,N,08059.1861,W,1,8,1.7,23,M,,M,,*5A
06/14/2014	07:11:18.584	$GPGGA,071118,2428.8042,N,08059.1838,W,1,8,1.7,23,M,,M,,*55
06/14/2014	07:11:19.597	$GPGGA,071119,2428.8057,N,08059.1818,W,1,8,1.7,23,M,,M,,*52
06/14/2014	07:11:20.768	$GPGGA,071120,2428.8070,N,08059.1798,W,1,8,1.7,23,M,,M,,*5A
06/14/2014	07:11:21.657	$GPGGA,071121,2428.8082,N,08059.1777,W,1,8,1.7,23,M,,M,,*57
06/14/2014	07:11:22.714	$GPGGA,071122,2428.8098,N,08059.1756,W,1,8,2.6,23,M,,M,,*5E
06/14/2014	07:11:23.749	$GPGGA,071123,2428.8111,N,08059.1736,W,1,8,1.7,23,M,,M,,*5B
06/14/2014	07:11:24.774	$GPGGA,071124,2428.8125,N,08059.1712,W,1,8,1.7,22,M,,M,,*5C
06/14/2014	07:11:25.800	$GPGGA,071125,2428.8139,N,08059.1691,W,1,8,1.7,22,M,,M,,*5A
06/14/2014	07:11:26.825	$GPGGA,071126,2428.8154,N,08059.1675,W,1,8,1.7,22,M,,M,,*58
06/14/2014	07:11:27.860	$GPGGA,071127,2428.8167,N,08059.1653,W,1,7,2.6,22,M,,M,,*50
06/14/2014	07:11:29.011	$GPGGA,071128,2428.8179,N,08059.1629,W,1,7,1.7,22,M,,M,,*5F
06/14/2014	07:11:30.046	$GPGGA,071129,2428.8193,N,08059.1608,W,1,8,1.7,22,M,,M,,*56
06/14/2014	07:11:30.978	$GPGGA,071130,2428.8208,N,08059.1589,W,1,8,1.7,22,M,,M,,*55
06/14/2014	07:11:32.106	$GPGGA,071131,2428.8222,N,08059.1568,W,1,8,1.7,22,M,,M,,*53
06/14/2014	07:11:33.049	$GPGGA,071132,2428.8233,N,08059.1544,W,1,8,1.7,22,M,,M,,*5E
06/14/2014	07:11:34.198	$GPGGA,071133,2428.8248,N,08059.1521,W,1,8,1.7,22,M,,M,,*50
06/14/2014	07:11:35.213	$GPGGA,071134,2428.8262,N,08059.1504,W,1,8,1.7,22,M,,M,,*58
06/14/2014	07:11:36.259	$GPGGA,071135,2428.8277,N,08059.1483,W,1,8,1.7,22,M,,M,,*53
06/14/2014	07:11:37.284	$GPGGA,071136,2428.8290,N,08059.1460,W,1,8,1.7,22,M,,M,,*54
06/14/2014	07:11:38.351	$GPGGA,071137,2428.8301,N,08059.1439,W,1,8,1.7,22,M,,M,,*50
06/14/2014	07:11:39.335	$GPGGA,071138,2428.8315,N,08059.1420,W,1,8,1.7,22,M,,M,,*52
06/14/2014	07:11:40.401	$GPGGA,071139,2428.8330,N,08059.1398,W,1,8,1.7,22,M,,M,,*50
06/14/2014	07:11:41.405	$GPGGA,071140,2428.8341,N,08059.1376,W,1,8,1.7,22,M,,M,,*58
06/14/2014	07:11:42.441	$GPGGA,071141,2428.8351,N,08059.1355,W,1,8,1.7,22,M,,M,,*59
06/14/2014	07:11:43.476	$GPGGA,071142,2428.8367,N,08059.1335,W,1,8,1.7,22,M,,M,,*59
06/14/2014	07:11:44.522	$GPGGA,071143,2428.8378,N,08059.1314,W,1,8,1.7,22,M,,M,,*55
06/14/2014	07:11:45.568	$GPGGA,071144,2428.8389,N,08059.1292,W,1,8,1.7,22,M,,M,,*53
06/14/2014	07:11:46.593	$GPGGA,071145,2428.8403,N,08059.1270,W,1,8,1.7,22,M,,M,,*5B
06/14/2014	07:11:47.598	$GPGGA,071146,2428.8416,N,08059.1250,W,1,8,1.7,22,M,,M,,*5E
06/14/2014	07:11:48.654	$GPGGA,071147,2428.8427,N,08059.1229,W,1,8,1.7,22,M,,M,,*53
06/14/2014	07:11:49.690	$GPGGA,071148,2428.8438,N,08059.1208,W,1,8,1.7,22,M,,M,,*51
06/14/2014	07:11:48.580	$GPGGA,071149,2428.8452,N,08059.1186,W,1,8,1.7,22,M,,M,,*59
06/14/2014	07:11:49.605	$GPGGA,071150,2428.8464,N,08059.1164,W,1,8,1.7,22,M,,M,,*58
