Software Version Number: 1	Data File Format Number: 1	Build Version Number: 1	Error Count Since VI Started: 0	Manufacturer: Raytheon	 Model Number: RayMarine 120	 S/N: 	 Cal Date: 	 Wind Direction Offset: 0.00	 Slope (M)1: 0.00	 Offset (B)1: 0.00	 Slope (M)2: 0.00	 Offset (B)2: 0.00	 Slope (M)3: 0.00	 Offset (B)3: 0.00	 Slope (M)4: 0.00	 Offset (B)4: 0.00	 Slope (M)5: 0.00	 Offset (B)5: 0.00	 Slope (M)6: 0.00	 Offset (B)6: 0.00
Computer Date	Computer Time	GGA String
05/28/2014	23:00:00.206	$GPGGA,230000,2558.5438,N,07958.1640,W,1,9,1.5,16,M,,M,,*5B
05/28/2014	23:00:01.222	$GPGGA,230001,2558.5443,N,07958.1632,W,1,9,1.5,16,M,,M,,*53
05/28/2014	23:00:02.228	$GPGGA,230002,2558.5448,N,07958.1625,W,1,9,1.5,16,M,,M,,*5D
05/28/2014	23:00:03.246	$GPGGA,230003,2558.5453,N,07958.1618,W,1,9,1.5,16,M,,M,,*58
05/28/2014	23:00:04.293	$GPGGA,230004,2558.5459,N,07958.1610,W,1,9,1.5,15,M,,M,,*5E
05/28/2014	23:00:05.311	$GPGGA,230005,2558.5463,N,07958.1603,W,1,9,1.5,15,M,,M,,*54
05/28/2014	23:00:06.329	$GPGGA,230006,2558.5468,N,07958.1596,W,1,9,1.5,15,M,,M,,*53
05/28/2014	23:00:07.376	$GPGGA,230007,2558.5474,N,07958.1588,W,1,9,1.5,15,M,,M,,*50
05/28/2014	23:00:08.383	$GPGGA,230008,2558.5479,N,07958.1581,W,1,9,1.5,15,M,,M,,*5B
05/28/2014	23:00:09.390	$GPGGA,230009,2558.5482,N,07958.1574,W,1,9,1.5,15,M,,M,,*54
05/28/2014	23:00:10.429	$GPGGA,230010,2558.5488,N,07958.1566,W,1,9,1.5,15,M,,M,,*55
05/28/2014	23:00:11.464	$GPGGA,230011,2558.5493,N,07958.1557,W,1,9,1.5,15,M,,M,,*5C
05/28/2014	23:00:12.502	$GPGGA,230012,2558.5497,N,07958.1550,W,1,9,1.5,15,M,,M,,*5C
05/28/2014	23:00:13.509	$GPGGA,230013,2558.5503,N,07958.1544,W,1,9,1.5,15,M,,M,,*54
05/28/2014	23:00:14.516	$GPGGA,230014,2558.5507,N,07958.1535,W,1,9,1.5,15,M,,M,,*51
05/28/2014	23:00:15.575	$GPGGA,230015,2558.5513,N,07958.1528,W,1,9,1.5,15,M,,M,,*59
05/28/2014	23:00:16.592	$GPGGA,230016,2558.5518,N,07958.1521,W,1,9,1.5,15,M,,M,,*58
05/28/2014	23:00:17.629	$GPGGA,230017,2558.5522,N,07958.1513,W,1,9,1.5,15,M,,M,,*51
05/28/2014	23:00:18.626	$GPGGA,230018,2558.5528,N,07958.1506,W,1,9,1.5,15,M,,M,,*50
05/28/2014	23:00:19.684	$GPGGA,230019,2558.5533,N,07958.1498,W,1,9,1.5,15,M,,M,,*5D
05/28/2014	23:00:20.702	$GPGGA,230020,2558.5539,N,07958.1490,W,1,9,1.5,15,M,,M,,*55
05/28/2014	23:00:21.698	$GPGGA,230021,2558.5544,N,07958.1483,W,1,9,1.5,15,M,,M,,*5C
05/28/2014	23:00:22.726	$GPGGA,230022,2558.5549,N,07958.1475,W,1,9,1.5,15,M,,M,,*5B
05/28/2014	23:00:23.774	$GPGGA,230023,2558.5555,N,07958.1468,W,1,9,1.5,15,M,,M,,*5B
05/28/2014	23:00:24.791	$GPGGA,230024,2558.5560,N,07958.1461,W,1,9,1.5,15,M,,M,,*53
05/28/2014	23:00:25.808	$GPGGA,230025,2558.5565,N,07958.1453,W,1,9,1.5,15,M,,M,,*56
05/28/2014	23:00:26.825	$GPGGA,230026,2558.5571,N,07958.1446,W,1,9,1.5,15,M,,M,,*54
05/28/2014	23:00:27.863	$GPGGA,230027,2558.5576,N,07958.1439,W,1,9,1.5,15,M,,M,,*5A
05/28/2014	23:00:28.891	$GPGGA,230028,2558.5580,N,07958.1431,W,1,9,1.5,15,M,,M,,*54
05/28/2014	23:00:29.907	$GPGGA,230029,2558.5587,N,07958.1424,W,1,9,1.5,15,M,,M,,*56
05/28/2014	23:00:31.068	$GPGGA,230030,2558.5591,N,07958.1417,W,1,9,1.5,15,M,,M,,*59
05/28/2014	23:00:31.972	$GPGGA,230031,2558.5597,N,07958.1409,W,1,9,1.5,15,M,,M,,*51
05/28/2014	23:00:32.989	$GPGGA,230032,2558.5602,N,07958.1401,W,1,9,1.5,15,M,,M,,*55
05/28/2014	23:00:34.099	$GPGGA,230033,2558.5608,N,07958.1394,W,1,9,1.5,15,M,,M,,*55
05/28/2014	23:00:35.044	$GPGGA,230034,2558.5612,N,07958.1387,W,1,9,1.5,15,M,,M,,*5B
05/28/2014	23:00:36.052	$GPGGA,230035,2558.5618,N,07958.1380,W,1,9,1.5,15,M,,M,,*57
05/28/2014	23:00:37.243	$GPGGA,230036,2558.5622,N,07958.1373,W,1,9,1.5,15,M,,M,,*51
05/28/2014	23:00:38.302	$GPGGA,230037,2558.5627,N,07958.1366,W,1,9,1.5,15,M,,M,,*51
05/28/2014	23:00:39.268	$GPGGA,230038,2558.5634,N,07958.1358,W,1,9,1.5,15,M,,M,,*51
05/28/2014	23:00:40.357	$GPGGA,230039,2558.5638,N,07958.1351,W,1,9,1.5,15,M,,M,,*55
05/28/2014	23:00:39.558	$GPGGA,230040,2558.5643,N,07958.1344,W,1,9,1.5,15,M,,M,,*53
05/28/2014	23:00:40.661	$GPGGA,230041,2558.5648,N,07958.1338,W,1,9,1.5,14,M,,M,,*53
05/28/2014	23:00:41.689	$GPGGA,230042,2558.5655,N,07958.1331,W,1,9,1.5,14,M,,M,,*55
05/28/2014	23:00:42.613	$GPGGA,230043,2558.5661,N,07958.1323,W,1,9,1.5,14,M,,M,,*50
05/28/2014	23:00:43.795	$GPGGA,230044,2558.5666,N,07958.1317,W,1,9,1.5,14,M,,M,,*57
05/28/2014	23:00:44.864	$GPGGA,230045,2558.5670,N,07958.1311,W,1,9,1.5,14,M,,M,,*57
05/28/2014	23:00:45.821	$GPGGA,230046,2558.5677,N,07958.1304,W,1,9,1.5,14,M,,M,,*57
05/28/2014	23:00:46.804	$GPGGA,230047,2558.5683,N,07958.1297,W,1,9,1.5,14,M,,M,,*56
05/28/2014	23:00:47.852	$GPGGA,230048,2558.5688,N,07958.1291,W,1,9,1.5,14,M,,M,,*54
05/28/2014	23:00:48.973	$GPGGA,230049,2558.5692,N,07958.1285,W,1,9,1.5,14,M,,M,,*5B
05/28/2014	23:00:49.888	$GPGGA,230050,2558.5699,N,07958.1278,W,1,9,1.5,14,M,,M,,*5A
05/28/2014	23:00:51.028	$GPGGA,230051,2558.5706,N,07958.1271,W,1,9,1.5,14,M,,M,,*55
05/28/2014	23:00:51.983	$GPGGA,230052,2558.5710,N,07958.1264,W,1,9,1.5,14,M,,M,,*55
05/28/2014	23:00:53.031	$GPGGA,230053,2558.5716,N,07958.1259,W,1,9,1.5,14,M,,M,,*5C
05/28/2014	23:00:54.017	$GPGGA,230054,2558.5721,N,07958.1252,W,1,9,1.5,14,M,,M,,*54
05/28/2014	23:00:55.106	$GPGGA,230055,2558.5728,N,07958.1245,W,1,9,1.5,14,M,,M,,*5A
05/28/2014	23:00:56.094	$GPGGA,230056,2558.5732,N,07958.1239,W,1,9,1.5,14,M,,M,,*59
05/28/2014	23:00:57.059	$GPGGA,230057,2558.5738,N,07958.1233,W,1,9,1.5,14,M,,M,,*58
05/28/2014	23:00:58.117	$GPGGA,230058,2558.5743,N,07958.1226,W,1,9,1.5,14,M,,M,,*5F
05/28/2014	23:00:59.227	$GPGGA,230059,2558.5750,N,07958.1220,W,1,9,1.5,14,M,,M,,*5A
05/28/2014	23:01:00.211	$GPGGA,230100,2558.5753,N,07958.1214,W,1,9,1.5,14,M,,M,,*53
05/28/2014	23:01:01.158	$GPGGA,230101,2558.5759,N,07958.1207,W,1,9,1.5,14,M,,M,,*5A
05/28/2014	23:01:02.217	$GPGGA,230102,2558.5764,N,07958.1201,W,1,9,1.5,14,M,,M,,*51
05/28/2014	23:01:03.213	$GPGGA,230103,2558.5771,N,07958.1195,W,1,9,1.5,14,M,,M,,*5A
05/28/2014	23:01:04.291	$GPGGA,230104,2558.5777,N,07958.1189,W,1,9,1.5,14,M,,M,,*56
05/28/2014	23:01:05.267	$GPGGA,230105,2558.5782,N,07958.1183,W,1,9,1.5,14,M,,M,,*57
05/28/2014	23:01:06.295	$GPGGA,230106,2558.5789,N,07958.1177,W,1,9,1.5,14,M,,M,,*54
05/28/2014	23:01:07.405	$GPGGA,230107,2558.5793,N,07958.1171,W,1,9,1.5,14,M,,M,,*58
05/28/2014	23:01:08.391	$GPGGA,230108,2558.5800,N,07958.1164,W,1,9,1.5,14,M,,M,,*56
05/28/2014	23:01:09.398	$GPGGA,230109,2558.5804,N,07958.1158,W,1,9,1.5,14,M,,M,,*5C
05/28/2014	23:01:10.395	$GPGGA,230110,2558.5810,N,07958.1153,W,1,9,1.5,14,M,,M,,*5A
05/28/2014	23:01:11.515	$GPGGA,230111,2558.5815,N,07958.1147,W,1,9,1.5,14,M,,M,,*5B
05/28/2014	23:01:12.491	$GPGGA,230112,2558.5822,N,07958.1140,W,1,9,1.5,14,M,,M,,*5B
05/28/2014	23:01:13.559	$GPGGA,230113,2558.5829,N,07958.1134,W,1,9,1.5,14,M,,M,,*52
05/28/2014	23:01:14.546	$GPGGA,230114,2558.5833,N,07958.1129,W,1,9,1.5,14,M,,M,,*52
05/28/2014	23:01:15.605	$GPGGA,230115,2558.5839,N,07958.1122,W,1,9,1.5,14,M,,M,,*52
05/28/2014	23:01:16.590	$GPGGA,230116,2558.5846,N,07958.1116,W,1,9,1.5,14,M,,M,,*5E
05/28/2014	23:01:17.680	$GPGGA,230117,2558.5851,N,07958.1110,W,1,9,1.5,14,M,,M,,*5F
05/28/2014	23:01:18.717	$GPGGA,230118,2558.5855,N,07958.1104,W,1,9,1.5,14,M,,M,,*51
05/28/2014	23:01:19.765	$GPGGA,230119,2558.5862,N,07958.1098,W,1,9,1.5,14,M,,M,,*50
05/28/2014	23:01:20.700	$GPGGA,230120,2558.5868,N,07958.1092,W,1,9,1.5,14,M,,M,,*5A
05/28/2014	23:01:21.809	$GPGGA,230121,2558.5872,N,07958.1086,W,1,9,1.5,14,M,,M,,*55
05/28/2014	23:01:22.734	$GPGGA,230122,2558.5880,N,07958.1080,W,1,9,1.5,14,M,,M,,*5D
05/28/2014	23:01:23.864	$GPGGA,230123,2558.5886,N,07958.1074,W,1,9,1.5,14,M,,M,,*51
05/28/2014	23:01:24.799	$GPGGA,230124,2558.5890,N,07958.1068,W,1,9,1.5,14,M,,M,,*5C
05/28/2014	23:01:25.888	$GPGGA,230125,2558.5896,N,07958.1062,W,1,9,1.5,14,M,,M,,*51
05/28/2014	23:01:26.823	$GPGGA,230126,2558.5901,N,07958.1055,W,1,9,1.5,14,M,,M,,*59
05/28/2014	23:01:27.964	$GPGGA,230127,2558.5907,N,07958.1050,W,1,9,1.5,14,M,,M,,*5B
05/28/2014	23:01:28.909	$GPGGA,230128,2558.5912,N,07958.1043,W,1,9,1.5,14,M,,M,,*52
05/28/2014	23:01:30.019	$GPGGA,230129,2558.5919,N,07958.1036,W,1,9,1.5,14,M,,M,,*5A
05/28/2014	23:01:30.944	$GPGGA,230130,2558.5923,N,07958.1031,W,1,9,1.5,14,M,,M,,*5C
05/28/2014	23:01:32.084	$GPGGA,230131,2558.5930,N,07958.1025,W,1,9,1.5,14,M,,M,,*5A
05/28/2014	23:01:33.073	$GPGGA,230132,2558.5937,N,07958.1018,W,1,9,1.5,14,M,,M,,*50
05/28/2014	23:01:34.112	$GPGGA,230133,2558.5941,N,07958.1013,W,1,9,1.5,14,M,,M,,*5B
05/28/2014	23:01:35.106	$GPGGA,230134,2558.5948,N,07958.1007,W,1,9,1.5,14,M,,M,,*50
05/28/2014	23:01:36.176	$GPGGA,230135,2558.5954,N,07958.1000,W,1,9,1.5,14,M,,M,,*5B
05/28/2014	23:01:37.160	$GPGGA,230136,2558.5961,N,07958.0994,W,1,9,1.5,14,M,,M,,*5B
05/28/2014	23:01:38.172	$GPGGA,230137,2558.5966,N,07958.0989,W,1,9,1.5,14,M,,M,,*51
05/28/2014	23:01:39.163	$GPGGA,230138,2558.5970,N,07958.0982,W,1,9,1.5,14,M,,M,,*52
05/28/2014	23:01:40.174	$GPGGA,230139,2558.5977,N,07958.0976,W,1,9,1.5,14,M,,M,,*5F
05/28/2014	23:01:39.619	$GPGGA,230140,2558.5983,N,07958.0970,W,1,9,1.5,14,M,,M,,*5C
05/28/2014	23:01:40.641	$GPGGA,230141,2558.5988,N,07958.0964,W,1,9,1.5,14,M,,M,,*53
05/28/2014	23:01:41.611	$GPGGA,230142,2558.5994,N,07958.0959,W,1,9,1.5,14,M,,M,,*53
05/28/2014	23:01:42.653	$GPGGA,230143,2558.6001,N,07958.0952,W,1,9,1.5,14,M,,M,,*5F
05/28/2014	23:01:43.644	$GPGGA,230144,2558.6006,N,07958.0946,W,1,9,1.5,14,M,,M,,*5A
05/28/2014	23:01:44.676	$GPGGA,230145,2558.6010,N,07958.0940,W,1,9,1.5,15,M,,M,,*5B
05/28/2014	23:01:45.667	$GPGGA,230146,2558.6017,N,07958.0934,W,1,9,1.5,15,M,,M,,*5C
05/28/2014	23:01:46.679	$GPGGA,230147,2558.6023,N,07958.0928,W,1,9,1.5,15,M,,M,,*57
05/28/2014	23:01:47.690	$GPGGA,230148,2558.6027,N,07958.0922,W,1,9,1.5,15,M,,M,,*56
05/28/2014	23:01:48.722	$GPGGA,230149,2558.6032,N,07958.0916,W,1,9,1.5,15,M,,M,,*54
05/28/2014	23:01:49.703	$GPGGA,230150,2558.6039,N,07958.0910,W,1,9,1.5,15,M,,M,,*51
05/28/2014	23:01:50.745	$GPGGA,230151,2558.6039,N,07958.0910,W,1,9,1.5,15,M,,M,,*50
05/28/2014	23:01:51.727	$GPGGA,230152,2558.6050,N,07958.0898,W,1,9,1.5,15,M,,M,,*5D
05/28/2014	23:01:52.782	$GPGGA,230153,2558.6057,N,07958.0892,W,1,9,1.5,15,M,,M,,*51
05/28/2014	23:01:53.729	$GPGGA,230154,2558.6061,N,07958.0886,W,1,9,1.5,15,M,,M,,*56
05/28/2014	23:01:54.781	$GPGGA,230155,2558.6068,N,07958.0880,W,1,9,1.5,15,M,,M,,*58
05/28/2014	23:01:55.761	$GPGGA,230156,2558.6074,N,07958.0873,W,1,9,1.5,15,M,,M,,*5A
05/28/2014	23:01:56.884	$GPGGA,230157,2558.6078,N,07958.0867,W,1,9,1.5,15,M,,M,,*52
05/28/2014	23:01:57.764	$GPGGA,230158,2558.6084,N,07958.0862,W,1,9,1.5,15,M,,M,,*5B
05/28/2014	23:01:58.816	$GPGGA,230159,2558.6091,N,07958.0855,W,1,9,1.5,15,M,,M,,*5A
05/28/2014	23:01:59.828	$GPGGA,230200,2558.6097,N,07958.0848,W,1,9,1.5,15,M,,M,,*5F
05/28/2014	23:02:00.819	$GPGGA,230201,2558.6097,N,07958.0848,W,1,9,1.5,15,M,,M,,*5E
05/28/2014	23:02:01.800	$GPGGA,230202,2558.6107,N,07958.0837,W,1,9,1.5,15,M,,M,,*5D
05/28/2014	23:02:02.821	$GPGGA,230203,2558.6107,N,07958.0837,W,1,9,1.5,15,M,,M,,*5C
05/28/2014	23:02:03.853	$GPGGA,230204,2558.6118,N,07958.0824,W,1,9,1.5,15,M,,M,,*57
05/28/2014	23:02:04.895	$GPGGA,230205,2558.6125,N,07958.0818,W,1,9,1.5,15,M,,M,,*57
05/28/2014	23:02:05.846	$GPGGA,230206,2558.6131,N,07958.0812,W,1,9,1.5,15,M,,M,,*5B
05/28/2014	23:02:06.919	$GPGGA,230207,2558.6136,N,07958.0806,W,1,9,1.5,15,M,,M,,*58
05/28/2014	23:02:07.869	$GPGGA,230208,2558.6142,N,07958.0800,W,1,9,1.5,15,M,,M,,*52
05/28/2014	23:02:08.981	$GPGGA,230209,2558.6149,N,07958.0793,W,1,9,1.5,15,M,,M,,*5D
05/28/2014	23:02:09.983	$GPGGA,230210,2558.6154,N,07958.0787,W,1,9,1.5,15,M,,M,,*5C
05/28/2014	23:02:10.964	$GPGGA,230211,2558.6160,N,07958.0782,W,1,9,1.5,15,M,,M,,*5F
05/28/2014	23:02:12.026	$GPGGA,230212,2558.6165,N,07958.0775,W,1,9,1.5,15,M,,M,,*51
05/28/2014	23:02:13.007	$GPGGA,230213,2558.6171,N,07958.0770,W,1,9,1.5,15,M,,M,,*50
05/28/2014	23:02:13.919	$GPGGA,230214,2558.6176,N,07958.0763,W,1,9,1.5,15,M,,M,,*52
05/28/2014	23:02:15.019	$GPGGA,230215,2558.6183,N,07958.0757,W,1,9,1.5,15,M,,M,,*5E
05/28/2014	23:02:16.056	$GPGGA,230216,2558.6187,N,07958.0751,W,1,9,1.5,15,M,,M,,*5F
05/28/2014	23:02:17.073	$GPGGA,230217,2558.6193,N,07958.0746,W,1,9,1.5,15,M,,M,,*5D
05/28/2014	23:02:18.044	$GPGGA,230218,2558.6198,N,07958.0739,W,1,9,1.5,15,M,,M,,*51
05/28/2014	23:02:19.065	$GPGGA,230219,2558.6205,N,07958.0733,W,1,9,1.5,15,M,,M,,*5D
05/28/2014	23:02:20.077	$GPGGA,230220,2558.6211,N,07958.0727,W,1,9,1.5,16,M,,M,,*54
05/28/2014	23:02:21.068	$GPGGA,230221,2558.6215,N,07958.0721,W,1,9,1.5,16,M,,M,,*57
05/28/2014	23:02:22.089	$GPGGA,230222,2558.6222,N,07958.0714,W,1,9,1.5,16,M,,M,,*56
05/28/2014	23:02:23.102	$GPGGA,230223,2558.6227,N,07958.0707,W,1,9,1.5,16,M,,M,,*50
05/28/2014	23:02:24.112	$GPGGA,230224,2558.6232,N,07958.0702,W,1,9,1.5,16,M,,M,,*56
05/28/2014	23:02:25.134	$GPGGA,230225,2558.6237,N,07958.0696,W,1,9,1.5,16,M,,M,,*5E
05/28/2014	23:02:26.125	$GPGGA,230226,2558.6245,N,07958.0688,W,1,9,1.5,16,M,,M,,*57
05/28/2014	23:02:27.167	$GPGGA,230227,2558.6250,N,07958.0683,W,1,9,1.5,16,M,,M,,*59
05/28/2014	23:02:28.169	$GPGGA,230228,2558.6255,N,07958.0678,W,1,9,1.5,16,M,,M,,*57
05/28/2014	23:02:29.195	$GPGGA,230229,2558.6261,N,07958.0670,W,1,9,1.5,16,M,,M,,*59
05/28/2014	23:02:30.161	$GPGGA,230230,2558.6266,N,07958.0664,W,1,9,1.5,16,M,,M,,*53
05/28/2014	23:02:31.202	$GPGGA,230231,2558.6272,N,07958.0659,W,1,9,1.5,16,M,,M,,*59
05/28/2014	23:02:32.203	$GPGGA,230232,2558.6277,N,07958.0652,W,1,9,1.5,16,M,,M,,*54
05/28/2014	23:02:33.206	$GPGGA,230233,2558.6284,N,07958.0645,W,1,9,1.5,16,M,,M,,*5F
05/28/2014	23:02:34.206	$GPGGA,230234,2558.6288,N,07958.0640,W,1,9,1.5,16,M,,M,,*51
05/28/2014	23:02:35.228	$GPGGA,230235,2558.6294,N,07958.0634,W,1,9,1.5,16,M,,M,,*5E
05/28/2014	23:02:36.219	$GPGGA,230236,2558.6302,N,07958.0627,W,1,9,1.5,16,M,,M,,*51
05/28/2014	23:02:37.231	$GPGGA,230237,2558.6306,N,07958.0621,W,1,9,1.5,16,M,,M,,*52
05/28/2014	23:02:38.232	$GPGGA,230238,2558.6310,N,07958.0616,W,1,9,1.5,16,M,,M,,*5E
05/28/2014	23:02:39.245	$GPGGA,230239,2558.6316,N,07958.0609,W,1,9,1.5,16,M,,M,,*57
05/28/2014	23:02:39.586	$GPGGA,230240,2558.6323,N,07958.0602,W,1,9,1.5,16,M,,M,,*54
05/28/2014	23:02:40.588	$GPGGA,230241,2558.6328,N,07958.0596,W,1,9,1.5,16,M,,M,,*50
05/28/2014	23:02:41.599	$GPGGA,230242,2558.6333,N,07958.0590,W,1,9,1.5,16,M,,M,,*5F
05/28/2014	23:02:42.601	$GPGGA,230243,2558.6339,N,07958.0584,W,1,9,1.5,16,M,,M,,*51
05/28/2014	23:02:43.622	$GPGGA,230244,2558.6345,N,07958.0578,W,1,9,1.5,16,M,,M,,*5E
05/28/2014	23:02:44.634	$GPGGA,230245,2558.6350,N,07958.0572,W,1,9,1.5,16,M,,M,,*51
05/28/2014	23:02:45.615	$GPGGA,230246,2558.6356,N,07958.0566,W,1,9,1.5,16,M,,M,,*51
05/28/2014	23:02:46.636	$GPGGA,230247,2558.6360,N,07958.0560,W,1,9,1.5,16,M,,M,,*53
05/28/2014	23:02:47.668	$GPGGA,230248,2558.6367,N,07958.0553,W,1,9,1.5,16,M,,M,,*5B
05/28/2014	23:02:48.679	$GPGGA,230249,2558.6373,N,07958.0547,W,1,9,1.5,16,M,,M,,*5A
05/28/2014	23:02:49.690	$GPGGA,230250,2558.6378,N,07958.0542,W,1,9,1.5,16,M,,M,,*5C
05/28/2014	23:02:50.681	$GPGGA,230251,2558.6382,N,07958.0536,W,1,9,1.5,16,M,,M,,*5B
05/28/2014	23:02:51.703	$GPGGA,230252,2558.6389,N,07958.0530,W,1,9,1.5,16,M,,M,,*55
05/28/2014	23:02:52.715	$GPGGA,230253,2558.6395,N,07958.0524,W,1,9,1.5,16,M,,M,,*5C
05/28/2014	23:02:53.698	$GPGGA,230254,2558.6400,N,07958.0519,W,1,9,1.5,16,M,,M,,*5E
05/28/2014	23:02:54.700	$GPGGA,230255,2558.6406,N,07958.0513,W,1,9,1.5,16,M,,M,,*53
05/28/2014	23:02:55.820	$GPGGA,230256,2558.6411,N,07958.0506,W,1,9,1.5,16,M,,M,,*52
05/28/2014	23:02:56.750	$GPGGA,230257,2558.6417,N,07958.0501,W,1,9,1.5,16,M,,M,,*52
05/28/2014	23:02:57.734	$GPGGA,230258,2558.6422,N,07958.0496,W,1,9,1.5,16,M,,M,,*54
05/28/2014	23:02:58.875	$GPGGA,230259,2558.6428,N,07958.0489,W,1,9,1.5,16,M,,M,,*51
05/28/2014	23:02:59.785	$GPGGA,230300,2558.6432,N,07958.0483,W,1,9,1.5,16,M,,M,,*5D
05/28/2014	23:03:00.877	$GPGGA,230301,2558.6439,N,07958.0478,W,1,9,1.5,16,M,,M,,*53
05/28/2014	23:03:01.787	$GPGGA,230302,2558.6443,N,07958.0472,W,1,9,1.5,16,M,,M,,*57
05/28/2014	23:03:02.893	$GPGGA,230303,2558.6449,N,07958.0466,W,1,9,1.5,16,M,,M,,*59
05/28/2014	23:03:03.892	$GPGGA,230304,2558.6454,N,07958.0460,W,1,9,1.5,16,M,,M,,*54
05/28/2014	23:03:04.923	$GPGGA,230305,2558.6461,N,07958.0454,W,1,9,1.5,16,M,,M,,*54
05/28/2014	23:03:05.903	$GPGGA,230306,2558.6465,N,07958.0448,W,1,9,1.5,16,M,,M,,*5E
05/28/2014	23:03:06.915	$GPGGA,230307,2558.6469,N,07958.0442,W,1,9,1.5,16,M,,M,,*59
05/28/2014	23:03:07.948	$GPGGA,230308,2558.6476,N,07958.0437,W,1,9,1.5,16,M,,M,,*5A
05/28/2014	23:03:08.960	$GPGGA,230309,2558.6483,N,07958.0432,W,1,8,1.6,16,M,,M,,*56
05/28/2014	23:03:09.949	$GPGGA,230310,2558.6487,N,07958.0426,W,1,8,1.5,16,M,,M,,*5C
05/28/2014	23:03:10.988	$GPGGA,230311,2558.6494,N,07958.0423,W,1,9,1.7,16,M,,M,,*59
05/28/2014	23:03:11.993	$GPGGA,230312,2558.6501,N,07958.0419,W,1,9,1.6,16,M,,M,,*5F
05/28/2014	23:03:12.965	$GPGGA,230313,2558.6505,N,07958.0414,W,1,9,1.5,17,M,,M,,*55
05/28/2014	23:03:13.996	$GPGGA,230314,2558.6512,N,07958.0410,W,1,9,1.5,17,M,,M,,*50
05/28/2014	23:03:14.997	$GPGGA,230315,2558.6516,N,07958.0404,W,1,9,1.5,17,M,,M,,*50
05/28/2014	23:03:16.009	$GPGGA,230316,2558.6522,N,07958.0399,W,1,9,1.7,17,M,,M,,*55
05/28/2014	23:03:17.040	$GPGGA,230317,2558.6529,N,07958.0395,W,1,8,1.6,17,M,,M,,*53
05/28/2014	23:03:18.021	$GPGGA,230318,2558.6534,N,07958.0389,W,1,8,1.5,17,M,,M,,*5E
05/28/2014	23:03:19.053	$GPGGA,230319,2558.6540,N,07958.0384,W,1,9,1.5,17,M,,M,,*50
05/28/2014	23:03:20.054	$GPGGA,230320,2558.6544,N,07958.0377,W,1,9,1.5,18,M,,M,,*5D
05/28/2014	23:03:21.077	$GPGGA,230321,2558.6550,N,07958.0372,W,1,9,1.5,18,M,,M,,*5C
05/28/2014	23:03:22.047	$GPGGA,230322,2558.6555,N,07958.0368,W,1,9,1.5,18,M,,M,,*51
05/28/2014	23:03:23.088	$GPGGA,230323,2558.6563,N,07958.0363,W,1,8,1.6,18,M,,M,,*5C
05/28/2014	23:03:24.079	$GPGGA,230324,2558.6570,N,07958.0358,W,1,8,1.5,18,M,,M,,*52
05/28/2014	23:03:25.080	$GPGGA,230325,2558.6574,N,07958.0355,W,1,9,1.5,18,M,,M,,*5B
05/28/2014	23:03:26.102	$GPGGA,230326,2558.6580,N,07958.0348,W,1,9,1.5,19,M,,M,,*5E
05/28/2014	23:03:27.094	$GPGGA,230327,2558.6586,N,07958.0342,W,1,8,1.6,19,M,,M,,*51
05/28/2014	23:03:28.125	$GPGGA,230328,2558.6591,N,07958.0337,W,1,8,1.5,19,M,,M,,*59
05/28/2014	23:03:29.126	$GPGGA,230329,2558.6595,N,07958.0332,W,1,9,1.5,19,M,,M,,*58
05/28/2014	23:03:30.128	$GPGGA,230330,2558.6601,N,07958.0325,W,1,9,1.6,19,M,,M,,*5B
05/28/2014	23:03:31.180	$GPGGA,230331,2558.6606,N,07958.0321,W,1,9,1.5,19,M,,M,,*5A
05/28/2014	23:03:32.171	$GPGGA,230332,2558.6612,N,07958.0316,W,1,9,1.5,19,M,,M,,*58
05/28/2014	23:03:33.162	$GPGGA,230333,2558.6617,N,07958.0309,W,1,9,1.5,19,M,,M,,*52
05/28/2014	23:03:34.174	$GPGGA,230334,2558.6622,N,07958.0303,W,1,9,1.5,19,M,,M,,*59
05/28/2014	23:03:35.177	$GPGGA,230335,2558.6626,N,07958.0299,W,1,9,1.5,20,M,,M,,*54
05/28/2014	23:03:36.207	$GPGGA,230336,2558.6631,N,07958.0293,W,1,9,1.5,20,M,,M,,*5B
05/28/2014	23:03:37.200	$GPGGA,230337,2558.6638,N,07958.0287,W,1,9,1.5,20,M,,M,,*56
05/28/2014	23:03:38.212	$GPGGA,230338,2558.6642,N,07958.0282,W,1,9,1.5,20,M,,M,,*51
05/28/2014	23:03:39.221	$GPGGA,230339,2558.6646,N,07958.0277,W,1,9,1.5,20,M,,M,,*5E
05/28/2014	23:03:39.667	$GPGGA,230340,2558.6653,N,07958.0271,W,1,9,1.5,20,M,,M,,*52
05/28/2014	23:03:40.565	$GPGGA,230341,2558.6659,N,07958.0266,W,1,9,1.5,20,M,,M,,*5F
05/28/2014	23:03:41.557	$GPGGA,230342,2558.6663,N,07958.0260,W,1,9,1.5,20,M,,M,,*53
05/28/2014	23:03:42.559	$GPGGA,230343,2558.6669,N,07958.0254,W,1,9,1.5,20,M,,M,,*5F
05/28/2014	23:03:43.701	$GPGGA,230344,2558.6673,N,07958.0248,W,1,9,1.5,20,M,,M,,*5E
05/28/2014	23:03:44.682	$GPGGA,230345,2558.6678,N,07958.0243,W,1,9,1.7,20,M,,M,,*5D
05/28/2014	23:03:45.604	$GPGGA,230346,2558.6684,N,07958.0238,W,1,9,1.5,20,M,,M,,*53
05/28/2014	23:03:46.736	$GPGGA,230347,2558.6688,N,07958.0233,W,1,9,1.5,20,M,,M,,*55
05/28/2014	23:03:47.727	$GPGGA,230348,2558.6693,N,07958.0228,W,1,9,1.5,20,M,,M,,*5A
05/28/2014	23:03:48.718	$GPGGA,230349,2558.6699,N,07958.0222,W,1,9,1.5,20,M,,M,,*5B
05/28/2014	23:03:49.730	$GPGGA,230350,2558.6703,N,07958.0217,W,1,9,1.5,20,M,,M,,*57
05/28/2014	23:03:50.741	$GPGGA,230351,2558.6707,N,07958.0212,W,1,9,1.5,20,M,,M,,*57
05/28/2014	23:03:51.763	$GPGGA,230352,2558.6713,N,07958.0206,W,1,9,1.5,20,M,,M,,*54
05/28/2014	23:03:52.805	$GPGGA,230353,2558.6718,N,07958.0199,W,1,9,1.5,20,M,,M,,*5B
05/28/2014	23:03:53.776	$GPGGA,230354,2558.6722,N,07958.0195,W,1,9,1.5,20,M,,M,,*59
05/28/2014	23:03:54.807	$GPGGA,230355,2558.6727,N,07958.0190,W,1,9,1.5,20,M,,M,,*58
05/28/2014	23:03:55.813	$GPGGA,230356,2558.6734,N,07958.0183,W,1,9,1.5,20,M,,M,,*5B
05/28/2014	23:03:56.831	$GPGGA,230357,2558.6739,N,07958.0177,W,1,9,1.5,20,M,,M,,*5C
05/28/2014	23:03:57.810	$GPGGA,230358,2558.6742,N,07958.0174,W,1,9,1.5,20,M,,M,,*5C
05/28/2014	23:03:58.812	$GPGGA,230359,2558.6747,N,07958.0167,W,1,9,1.5,20,M,,M,,*5A
05/28/2014	23:03:59.854	$GPGGA,230400,2558.6754,N,07958.0160,W,1,9,1.5,20,M,,M,,*54
05/28/2014	23:04:00.845	$GPGGA,230401,2558.6758,N,07958.0155,W,1,9,1.5,20,M,,M,,*5F
05/28/2014	23:04:01.846	$GPGGA,230402,2558.6761,N,07958.0151,W,1,9,1.5,20,M,,M,,*52
05/28/2014	23:04:02.848	$GPGGA,230403,2558.6768,N,07958.0143,W,1,9,1.5,20,M,,M,,*59
05/28/2014	23:04:03.869	$GPGGA,230404,2558.6772,N,07958.0137,W,1,9,1.5,20,M,,M,,*56
05/28/2014	23:04:04.901	$GPGGA,230405,2558.6776,N,07958.0133,W,1,9,1.5,20,M,,M,,*57
05/28/2014	23:04:05.872	$GPGGA,230406,2558.6782,N,07958.0127,W,1,9,1.5,20,M,,M,,*5A
05/28/2014	23:04:06.924	$GPGGA,230407,2558.6787,N,07958.0121,W,1,9,1.5,20,M,,M,,*58
05/28/2014	23:04:07.905	$GPGGA,230408,2558.6794,N,07958.0116,W,1,9,1.5,20,M,,M,,*51
05/28/2014	23:04:08.947	$GPGGA,230409,2558.6799,N,07958.0111,W,1,9,1.5,20,M,,M,,*5A
05/28/2014	23:04:09.918	$GPGGA,230410,2558.6804,N,07958.0105,W,1,9,1.5,20,M,,M,,*5C
05/28/2014	23:04:10.950	$GPGGA,230411,2558.6808,N,07958.0099,W,1,9,1.5,20,M,,M,,*55
05/28/2014	23:04:11.951	$GPGGA,230412,2558.6812,N,07958.0094,W,1,9,1.6,20,M,,M,,*53
05/28/2014	23:04:12.973	$GPGGA,230413,2558.6816,N,07958.0087,W,1,8,1.6,20,M,,M,,*55
05/28/2014	23:04:13.954	$GPGGA,230414,2558.6822,N,07958.0082,W,1,8,1.5,20,M,,M,,*53
05/28/2014	23:04:14.976	$GPGGA,230415,2558.6826,N,07958.0077,W,1,9,1.5,20,M,,M,,*5D
05/28/2014	23:04:15.976	$GPGGA,230416,2558.6832,N,07958.0071,W,1,9,1.5,19,M,,M,,*57
05/28/2014	23:04:17.008	$GPGGA,230417,2558.6837,N,07958.0066,W,1,9,1.5,19,M,,M,,*55
05/28/2014	23:04:17.999	$GPGGA,230418,2558.6843,N,07958.0061,W,1,9,1.5,19,M,,M,,*5E
05/28/2014	23:04:19.112	$GPGGA,230419,2558.6848,N,07958.0056,W,1,9,1.5,19,M,,M,,*50
05/28/2014	23:04:20.153	$GPGGA,230420,2558.6854,N,07958.0050,W,1,9,1.5,19,M,,M,,*51
05/28/2014	23:04:21.023	$GPGGA,230421,2558.6859,N,07958.0045,W,1,9,1.5,19,M,,M,,*59
05/28/2014	23:04:22.119	$GPGGA,230422,2558.6863,N,07958.0040,W,1,9,1.5,19,M,,M,,*56
05/28/2014	23:04:23.031	$GPGGA,230423,2558.6869,N,07958.0034,W,1,9,1.5,19,M,,M,,*5E
05/28/2014	23:04:24.179	$GPGGA,230424,2558.6873,N,07958.0028,W,1,9,1.5,19,M,,M,,*5F
05/28/2014	23:04:25.079	$GPGGA,230425,2558.6879,N,07958.0023,W,1,9,1.5,19,M,,M,,*5F
05/28/2014	23:04:26.167	$GPGGA,230426,2558.6887,N,07958.0020,W,1,9,1.6,19,M,,M,,*5D
05/28/2014	23:04:27.174	$GPGGA,230427,2558.6891,N,07958.0013,W,1,9,1.5,19,M,,M,,*58
05/28/2014	23:04:28.104	$GPGGA,230428,2558.6895,N,07958.0009,W,1,9,1.5,19,M,,M,,*58
05/28/2014	23:04:29.109	$GPGGA,230429,2558.6901,N,07958.0003,W,1,9,1.5,19,M,,M,,*5F
05/28/2014	23:04:30.117	$GPGGA,230430,2558.6906,N,07957.9999,W,1,9,1.5,19,M,,M,,*5C
05/28/2014	23:04:31.239	$GPGGA,230431,2558.6912,N,07957.9993,W,1,9,1.5,19,M,,M,,*52
05/28/2014	23:04:32.140	$GPGGA,230432,2558.6917,N,07957.9987,W,1,9,1.5,19,M,,M,,*51
05/28/2014	23:04:33.231	$GPGGA,230433,2558.6922,N,07957.9982,W,1,9,1.5,19,M,,M,,*53
05/28/2014	23:04:34.243	$GPGGA,230434,2558.6926,N,07957.9977,W,1,9,1.5,19,M,,M,,*5A
05/28/2014	23:04:35.272	$GPGGA,230435,2558.6931,N,07957.9971,W,1,9,1.5,19,M,,M,,*5B
05/28/2014	23:04:36.286	$GPGGA,230436,2558.6935,N,07957.9965,W,1,9,1.5,19,M,,M,,*59
05/28/2014	23:04:37.277	$GPGGA,230437,2558.6940,N,07957.9959,W,1,9,1.5,19,M,,M,,*55
05/28/2014	23:04:38.188	$GPGGA,230438,2558.6945,N,07957.9954,W,1,9,1.5,19,M,,M,,*52
05/28/2014	23:04:39.189	$GPGGA,230439,2558.6951,N,07957.9948,W,1,9,1.5,19,M,,M,,*5B
05/28/2014	23:04:39.627	$GPGGA,230440,2558.6955,N,07957.9941,W,1,9,1.5,18,M,,M,,*59
05/28/2014	23:04:40.645	$GPGGA,230441,2558.6960,N,07957.9936,W,1,9,1.5,18,M,,M,,*5E
05/28/2014	23:04:41.637	$GPGGA,230442,2558.6964,N,07957.9931,W,1,9,1.5,18,M,,M,,*5E
05/28/2014	23:04:42.658	$GPGGA,230443,2558.6970,N,07957.9924,W,1,9,1.5,18,M,,M,,*5E
05/28/2014	23:04:43.660	$GPGGA,230444,2558.6975,N,07957.9918,W,1,9,1.5,18,M,,M,,*53
05/28/2014	23:04:44.671	$GPGGA,230445,2558.6981,N,07957.9914,W,1,9,1.5,18,M,,M,,*55
05/28/2014	23:04:45.672	$GPGGA,230446,2558.6985,N,07957.9908,W,1,9,1.5,18,M,,M,,*5F
05/28/2014	23:04:46.714	$GPGGA,230447,2558.6991,N,07957.9901,W,1,9,1.5,18,M,,M,,*52
05/28/2014	23:04:47.695	$GPGGA,230448,2558.6996,N,07957.9896,W,1,9,1.5,18,M,,M,,*55
05/28/2014	23:04:48.717	$GPGGA,230449,2558.7000,N,07957.9892,W,1,9,1.5,18,M,,M,,*57
05/28/2014	23:04:49.708	$GPGGA,230450,2558.7006,N,07957.9886,W,1,9,1.5,18,M,,M,,*5C
05/28/2014	23:04:50.729	$GPGGA,230451,2558.7011,N,07957.9879,W,1,9,1.5,18,M,,M,,*5B
05/28/2014	23:04:51.740	$GPGGA,230452,2558.7016,N,07957.9875,W,1,9,1.5,18,M,,M,,*53
05/28/2014	23:04:52.762	$GPGGA,230453,2558.7021,N,07957.9869,W,1,9,1.5,18,M,,M,,*5B
05/28/2014	23:04:53.733	$GPGGA,230454,2558.7027,N,07957.9863,W,1,9,1.5,18,M,,M,,*50
05/28/2014	23:04:54.745	$GPGGA,230455,2558.7032,N,07957.9858,W,1,9,1.5,18,M,,M,,*5D
05/28/2014	23:04:55.776	$GPGGA,230456,2558.7036,N,07957.9853,W,1,9,1.5,18,M,,M,,*51
05/28/2014	23:04:56.789	$GPGGA,230457,2558.7042,N,07957.9847,W,1,9,1.5,18,M,,M,,*56
05/28/2014	23:04:57.779	$GPGGA,230458,2558.7049,N,07957.9842,W,1,9,1.5,17,M,,M,,*58
05/28/2014	23:04:58.831	$GPGGA,230459,2558.7053,N,07957.9837,W,1,9,1.5,17,M,,M,,*50
05/28/2014	23:04:59.822	$GPGGA,230500,2558.7058,N,07957.9832,W,1,9,1.5,17,M,,M,,*53
05/28/2014	23:05:00.803	$GPGGA,230501,2558.7065,N,07957.9826,W,1,9,1.5,17,M,,M,,*59
05/28/2014	23:05:01.826	$GPGGA,230502,2558.7070,N,07957.9820,W,1,9,1.5,17,M,,M,,*58
05/28/2014	23:05:02.826	$GPGGA,230503,2558.7075,N,07957.9815,W,1,9,1.5,17,M,,M,,*5A
05/28/2014	23:05:03.858	$GPGGA,230504,2558.7081,N,07957.9809,W,1,9,1.5,17,M,,M,,*5B
05/28/2014	23:05:04.839	$GPGGA,230505,2558.7086,N,07957.9804,W,1,9,1.5,17,M,,M,,*50
05/28/2014	23:05:05.871	$GPGGA,230506,2558.7092,N,07957.9799,W,1,9,1.5,17,M,,M,,*5D
05/28/2014	23:05:06.852	$GPGGA,230507,2558.7097,N,07957.9794,W,1,9,1.5,17,M,,M,,*54
05/28/2014	23:05:07.883	$GPGGA,230508,2558.7101,N,07957.9789,W,1,9,1.5,17,M,,M,,*59
05/28/2014	23:05:08.925	$GPGGA,230509,2558.7107,N,07957.9783,W,1,9,1.5,17,M,,M,,*54
05/28/2014	23:05:09.906	$GPGGA,230510,2558.7112,N,07957.9778,W,1,9,1.5,17,M,,M,,*5C
05/28/2014	23:05:10.917	$GPGGA,230511,2558.7119,N,07957.9772,W,1,9,1.5,17,M,,M,,*5C
05/28/2014	23:05:11.919	$GPGGA,230512,2558.7122,N,07957.9767,W,1,9,1.5,16,M,,M,,*52
05/28/2014	23:05:13.042	$GPGGA,230513,2558.7128,N,07957.9762,W,1,9,1.5,16,M,,M,,*5C
05/28/2014	23:05:13.922	$GPGGA,230514,2558.7133,N,07957.9756,W,1,9,1.5,16,M,,M,,*56
05/28/2014	23:05:14.943	$GPGGA,230515,2558.7137,N,07957.9750,W,1,9,1.5,16,M,,M,,*55
05/28/2014	23:05:16.076	$GPGGA,230516,2558.7144,N,07957.9745,W,1,9,1.5,16,M,,M,,*56
05/28/2014	23:05:16.947	$GPGGA,230517,2558.7150,N,07957.9741,W,1,9,1.5,16,M,,M,,*56
05/28/2014	23:05:18.062	$GPGGA,230518,2558.7155,N,07957.9735,W,1,9,1.5,16,M,,M,,*5F
05/28/2014	23:05:18.989	$GPGGA,230519,2558.7159,N,07957.9730,W,1,9,1.5,16,M,,M,,*57
05/28/2014	23:05:20.106	$GPGGA,230520,2558.7166,N,07957.9724,W,1,9,1.5,16,M,,M,,*54
05/28/2014	23:05:21.003	$GPGGA,230521,2558.7172,N,07957.9720,W,1,9,1.5,16,M,,M,,*54
05/28/2014	23:05:22.109	$GPGGA,230522,2558.7177,N,07957.9714,W,1,9,1.5,16,M,,M,,*55
05/28/2014	23:05:23.107	$GPGGA,230523,2558.7183,N,07957.9709,W,1,9,1.5,16,M,,M,,*53
05/28/2014	23:05:24.168	$GPGGA,230524,2558.7188,N,07957.9704,W,1,9,1.5,16,M,,M,,*52
05/28/2014	23:05:25.162	$GPGGA,230525,2558.7194,N,07957.9699,W,1,9,1.5,16,M,,M,,*5B
05/28/2014	23:05:26.150	$GPGGA,230526,2558.7199,N,07957.9693,W,1,9,1.5,16,M,,M,,*5F
05/28/2014	23:05:27.184	$GPGGA,230527,2558.7205,N,07957.9689,W,1,9,1.5,16,M,,M,,*53
05/28/2014	23:05:28.173	$GPGGA,230528,2558.7209,N,07957.9684,W,1,9,1.5,16,M,,M,,*5D
05/28/2014	23:05:29.185	$GPGGA,230529,2558.7216,N,07957.9678,W,1,9,1.5,16,M,,M,,*51
05/28/2014	23:05:30.175	$GPGGA,230530,2558.7222,N,07957.9672,W,1,9,1.5,16,M,,M,,*54
05/28/2014	23:05:31.197	$GPGGA,230531,2558.7226,N,07957.9668,W,1,9,1.6,16,M,,M,,*59
05/28/2014	23:05:32.229	$GPGGA,230532,2558.7231,N,07957.9661,W,1,9,1.5,16,M,,M,,*56
05/28/2014	23:05:33.201	$GPGGA,230533,2558.7237,N,07957.9656,W,1,9,1.5,16,M,,M,,*55
05/28/2014	23:05:34.221	$GPGGA,230534,2558.7242,N,07957.9651,W,1,9,1.5,16,M,,M,,*57
05/28/2014	23:05:35.253	$GPGGA,230535,2558.7248,N,07957.9644,W,1,9,1.5,16,M,,M,,*58
05/28/2014	23:05:36.244	$GPGGA,230536,2558.7253,N,07957.9638,W,1,9,1.5,16,M,,M,,*5A
05/28/2014	23:05:37.236	$GPGGA,230537,2558.7258,N,07957.9633,W,1,9,1.5,15,M,,M,,*58
05/28/2014	23:05:38.268	$GPGGA,230538,2558.7263,N,07957.9627,W,1,9,1.5,15,M,,M,,*5A
05/28/2014	23:05:39.289	$GPGGA,230539,2558.7269,N,07957.9622,W,1,9,1.5,15,M,,M,,*54
05/28/2014	23:05:39.613	$GPGGA,230540,2558.7274,N,07957.9617,W,1,9,1.6,15,M,,M,,*53
05/28/2014	23:05:40.615	$GPGGA,230541,2558.7281,N,07957.9611,W,1,8,1.5,15,M,,M,,*5C
05/28/2014	23:05:41.615	$GPGGA,230542,2558.7285,N,07957.9605,W,1,8,1.5,15,M,,M,,*5E
05/28/2014	23:05:42.646	$GPGGA,230543,2558.7291,N,07957.9601,W,1,9,1.5,15,M,,M,,*5F
05/28/2014	23:05:43.637	$GPGGA,230544,2558.7296,N,07957.9596,W,1,9,1.5,15,M,,M,,*52
05/28/2014	23:05:44.669	$GPGGA,230545,2558.7302,N,07957.9591,W,1,9,1.5,15,M,,M,,*58
05/28/2014	23:05:45.640	$GPGGA,230546,2558.7307,N,07957.9585,W,1,9,1.5,15,M,,M,,*5B
05/28/2014	23:05:46.662	$GPGGA,230547,2558.7313,N,07957.9579,W,1,9,1.5,15,M,,M,,*5C
05/28/2014	23:05:47.683	$GPGGA,230548,2558.7318,N,07957.9574,W,1,9,1.5,15,M,,M,,*55
05/28/2014	23:05:48.664	$GPGGA,230549,2558.7323,N,07957.9568,W,1,9,1.5,15,M,,M,,*51
05/28/2014	23:05:49.716	$GPGGA,230550,2558.7328,N,07957.9563,W,1,9,1.5,15,M,,M,,*59
05/28/2014	23:05:50.708	$GPGGA,230551,2558.7334,N,07957.9558,W,1,9,1.5,15,M,,M,,*5D
05/28/2014	23:05:51.719	$GPGGA,230552,2558.7339,N,07957.9553,W,1,9,1.5,15,M,,M,,*58
05/28/2014	23:05:52.700	$GPGGA,230553,2558.7345,N,07957.9547,W,1,9,1.5,15,M,,M,,*57
05/28/2014	23:05:53.813	$GPGGA,230554,2558.7350,N,07957.9542,W,1,9,1.5,15,M,,M,,*51
05/28/2014	23:05:54.754	$GPGGA,230555,2558.7354,N,07957.9537,W,1,9,1.5,14,M,,M,,*57
05/28/2014	23:05:55.745	$GPGGA,230556,2558.7361,N,07957.9532,W,1,9,1.5,14,M,,M,,*57
05/28/2014	23:05:56.777	$GPGGA,230557,2558.7367,N,07957.9526,W,1,9,1.5,14,M,,M,,*55
05/28/2014	23:05:57.758	$GPGGA,230558,2558.7372,N,07957.9520,W,1,9,1.5,14,M,,M,,*58
05/28/2014	23:05:58.790	$GPGGA,230559,2558.7376,N,07957.9516,W,1,9,1.5,14,M,,M,,*58
05/28/2014	23:05:59.856	$GPGGA,230600,2558.7383,N,07957.9510,W,1,9,1.5,14,M,,M,,*5B
05/28/2014	23:06:01.625	$GPGGA,230601,2558.7388,N,07957.9504,W,1,9,1.5,14,M,,M,,*54
05/28/2014	23:06:01.803	$GPGGA,230602,2558.7393,N,07957.9500,W,1,9,1.5,14,M,,M,,*59
05/28/2014	23:06:02.915	$GPGGA,230603,2558.7397,N,07957.9494,W,1,9,1.5,14,M,,M,,*50
05/28/2014	23:06:03.836	$GPGGA,230604,2558.7404,N,07957.9488,W,1,9,1.5,14,M,,M,,*57
05/28/2014	23:06:04.827	$GPGGA,230605,2558.7408,N,07957.9483,W,1,9,1.5,14,M,,M,,*51
05/28/2014	23:06:05.920	$GPGGA,230606,2558.7412,N,07957.9479,W,1,9,1.5,14,M,,M,,*5C
05/28/2014	23:06:06.850	$GPGGA,230607,2558.7419,N,07957.9471,W,1,9,1.7,14,M,,M,,*5C
05/28/2014	23:06:07.973	$GPGGA,230608,2558.7425,N,07957.9465,W,1,9,1.7,14,M,,M,,*59
05/28/2014	23:06:08.975	$GPGGA,230609,2558.7430,N,07957.9460,W,1,9,1.7,14,M,,M,,*59
05/28/2014	23:06:09.996	$GPGGA,230610,2558.7435,N,07957.9455,W,1,9,1.7,14,M,,M,,*52
05/28/2014	23:06:10.978	$GPGGA,230611,2558.7440,N,07957.9448,W,1,9,1.7,14,M,,M,,*5D
05/28/2014	23:06:12.007	$GPGGA,230612,2558.7446,N,07957.9443,W,1,9,1.7,14,M,,M,,*53
05/28/2014	23:06:12.980	$GPGGA,230613,2558.7451,N,07957.9438,W,1,9,1.7,14,M,,M,,*58
05/28/2014	23:06:14.001	$GPGGA,230614,2558.7455,N,07957.9431,W,1,9,1.7,14,M,,M,,*52
05/28/2014	23:06:15.033	$GPGGA,230615,2558.7462,N,07957.9426,W,1,9,1.7,14,M,,M,,*51
05/28/2014	23:06:16.037	$GPGGA,230616,2558.7466,N,07957.9420,W,1,9,1.7,14,M,,M,,*50
05/28/2014	23:06:17.078	$GPGGA,230617,2558.7473,N,07957.9414,W,1,9,1.7,14,M,,M,,*52
05/28/2014	23:06:18.036	$GPGGA,230618,2558.7477,N,07957.9408,W,1,9,1.7,14,M,,M,,*54
05/28/2014	23:06:19.098	$GPGGA,230619,2558.7483,N,07957.9403,W,1,9,1.7,14,M,,M,,*55
05/28/2014	23:06:20.069	$GPGGA,230620,2558.7487,N,07957.9397,W,1,9,1.7,14,M,,M,,*51
05/28/2014	23:06:21.081	$GPGGA,230621,2558.7494,N,07957.9391,W,1,9,1.7,13,M,,M,,*53
05/28/2014	23:06:22.072	$GPGGA,230622,2558.7498,N,07957.9386,W,1,9,1.7,13,M,,M,,*5A
05/28/2014	23:06:23.074	$GPGGA,230623,2558.7504,N,07957.9380,W,1,9,1.5,13,M,,M,,*5B
05/28/2014	23:06:24.096	$GPGGA,230624,2558.7509,N,07957.9376,W,1,9,1.7,13,M,,M,,*5A
05/28/2014	23:06:25.117	$GPGGA,230625,2558.7515,N,07957.9371,W,1,9,1.5,13,M,,M,,*53
05/28/2014	23:06:26.108	$GPGGA,230626,2558.7520,N,07957.9365,W,1,9,1.7,13,M,,M,,*51
05/28/2014	23:06:27.140	$GPGGA,230627,2558.7526,N,07957.9358,W,1,9,1.7,13,M,,M,,*58
05/28/2014	23:06:28.141	$GPGGA,230628,2558.7531,N,07957.9353,W,1,9,1.7,13,M,,M,,*5A
05/28/2014	23:06:29.173	$GPGGA,230629,2558.7537,N,07957.9348,W,1,9,1.7,13,M,,M,,*57
05/28/2014	23:06:30.154	$GPGGA,230630,2558.7542,N,07957.9341,W,1,9,1.7,13,M,,M,,*54
05/28/2014	23:06:31.156	$GPGGA,230631,2558.7549,N,07957.9335,W,1,9,1.7,13,M,,M,,*5D
05/28/2014	23:06:32.187	$GPGGA,230632,2558.7552,N,07957.9331,W,1,9,1.7,13,M,,M,,*50
05/28/2014	23:06:33.199	$GPGGA,230633,2558.7560,N,07957.9325,W,1,9,1.7,13,M,,M,,*55
05/28/2014	23:06:34.181	$GPGGA,230634,2558.7565,N,07957.9319,W,1,9,1.7,13,M,,M,,*58
05/28/2014	23:06:35.191	$GPGGA,230635,2558.7567,N,07957.9317,W,1,9,1.7,13,M,,M,,*55
05/28/2014	23:06:36.229	$GPGGA,230636,2558.7574,N,07957.9312,W,1,9,1.5,13,M,,M,,*53
05/28/2014	23:06:37.235	$GPGGA,230637,2558.7578,N,07957.9308,W,1,9,1.7,13,M,,M,,*57
05/28/2014	23:06:38.200	$GPGGA,230638,2558.7584,N,07957.9303,W,1,9,1.5,13,M,,M,,*52
05/28/2014	23:06:39.216	$GPGGA,230639,2558.7589,N,07957.9299,W,1,9,1.5,13,M,,M,,*5C
05/28/2014	23:06:39.565	$GPGGA,230640,2558.7595,N,07957.9293,W,1,9,1.5,13,M,,M,,*55
05/28/2014	23:06:40.581	$GPGGA,230641,2558.7599,N,07957.9288,W,1,9,1.5,13,M,,M,,*52
05/28/2014	23:06:41.556	$GPGGA,230642,2558.7605,N,07957.9283,W,1,9,1.5,13,M,,M,,*5C
05/28/2014	23:06:42.684	$GPGGA,230643,2558.7610,N,07957.9278,W,1,9,1.5,13,M,,M,,*5D
05/28/2014	23:06:43.578	$GPGGA,230644,2558.7616,N,07957.9272,W,1,9,1.5,13,M,,M,,*56
05/28/2014	23:06:44.664	$GPGGA,230645,2558.7620,N,07957.9267,W,1,9,1.5,13,M,,M,,*56
05/28/2014	23:06:45.569	$GPGGA,230646,2558.7625,N,07957.9263,W,1,9,1.5,14,M,,M,,*53
05/28/2014	23:06:46.566	$GPGGA,230647,2558.7631,N,07957.9257,W,1,9,1.5,14,M,,M,,*50
05/28/2014	23:06:47.591	$GPGGA,230648,2558.7636,N,07957.9252,W,1,9,1.5,14,M,,M,,*5D
05/28/2014	23:06:48.687	$GPGGA,230649,2558.7642,N,07957.9247,W,1,9,1.5,14,M,,M,,*5B
05/28/2014	23:06:49.585	$GPGGA,230650,2558.7646,N,07957.9242,W,1,9,1.5,14,M,,M,,*52
05/28/2014	23:06:50.608	$GPGGA,230651,2558.7653,N,07957.9236,W,1,9,1.5,14,M,,M,,*54
05/28/2014	23:06:51.695	$GPGGA,230652,2558.7657,N,07957.9231,W,1,9,1.5,14,M,,M,,*54
05/28/2014	23:06:52.599	$GPGGA,230653,2558.7661,N,07957.9227,W,1,9,1.5,14,M,,M,,*57
05/28/2014	23:06:53.695	$GPGGA,230654,2558.7667,N,07957.9221,W,1,9,1.5,14,M,,M,,*50
05/28/2014	23:06:54.621	$GPGGA,230655,2558.7672,N,07957.9215,W,1,9,1.5,14,M,,M,,*52
05/28/2014	23:06:55.626	$GPGGA,230656,2558.7677,N,07957.9211,W,1,9,1.6,14,M,,M,,*53
05/28/2014	23:06:56.753	$GPGGA,230657,2558.7682,N,07957.9206,W,1,9,1.5,15,M,,M,,*5C
05/28/2014	23:06:57.708	$GPGGA,230658,2558.7688,N,07957.9200,W,1,9,1.5,15,M,,M,,*5F
05/28/2014	23:06:58.715	$GPGGA,230659,2558.7693,N,07957.9194,W,1,9,1.5,15,M,,M,,*5A
05/28/2014	23:06:59.750	$GPGGA,230700,2558.7697,N,07957.9190,W,1,9,1.5,15,M,,M,,*57
05/28/2014	23:07:00.756	$GPGGA,230701,2558.7703,N,07957.9184,W,1,9,1.5,15,M,,M,,*5F
05/28/2014	23:07:01.732	$GPGGA,230702,2558.7708,N,07957.9178,W,1,9,1.5,15,M,,M,,*54
05/28/2014	23:07:02.747	$GPGGA,230703,2558.7712,N,07957.9173,W,1,9,1.5,15,M,,M,,*55
05/28/2014	23:07:03.757	$GPGGA,230704,2558.7717,N,07957.9168,W,1,9,1.5,15,M,,M,,*5D
05/28/2014	23:07:04.749	$GPGGA,230705,2558.7722,N,07957.9162,W,1,9,1.5,15,M,,M,,*50
05/28/2014	23:07:05.735	$GPGGA,230706,2558.7728,N,07957.9156,W,1,9,1.5,15,M,,M,,*5E
05/28/2014	23:07:06.752	$GPGGA,230707,2558.7733,N,07957.9151,W,1,9,1.5,15,M,,M,,*52
05/28/2014	23:07:07.766	$GPGGA,230708,2558.7739,N,07957.9146,W,1,9,1.5,15,M,,M,,*51
05/28/2014	23:07:08.772	$GPGGA,230709,2558.7744,N,07957.9140,W,1,9,1.5,16,M,,M,,*5F
05/28/2014	23:07:09.758	$GPGGA,230710,2558.7750,N,07957.9134,W,1,9,1.5,16,M,,M,,*51
05/28/2014	23:07:10.783	$GPGGA,230711,2558.7755,N,07957.9129,W,1,9,1.5,16,M,,M,,*59
05/28/2014	23:07:11.789	$GPGGA,230712,2558.7760,N,07957.9123,W,1,9,1.5,16,M,,M,,*56
05/28/2014	23:07:12.774	$GPGGA,230713,2558.7765,N,07957.9117,W,1,9,1.5,16,M,,M,,*55
05/28/2014	23:07:13.780	$GPGGA,230714,2558.7771,N,07957.9111,W,1,9,1.5,16,M,,M,,*51
05/28/2014	23:07:14.766	$GPGGA,230715,2558.7776,N,07957.9107,W,1,9,1.5,16,M,,M,,*50
05/28/2014	23:07:15.802	$GPGGA,230716,2558.7780,N,07957.9100,W,1,9,1.5,16,M,,M,,*5D
05/28/2014	23:07:16.787	$GPGGA,230717,2558.7787,N,07957.9094,W,1,9,1.5,16,M,,M,,*57
05/28/2014	23:07:17.793	$GPGGA,230718,2558.7791,N,07957.9089,W,1,9,1.5,16,M,,M,,*53
05/28/2014	23:07:18.819	$GPGGA,230719,2558.7795,N,07957.9084,W,1,9,1.5,16,M,,M,,*5B
05/28/2014	23:07:19.815	$GPGGA,230720,2558.7802,N,07957.9078,W,1,9,1.5,16,M,,M,,*53
05/28/2014	23:07:20.811	$GPGGA,230721,2558.7807,N,07957.9072,W,1,9,1.5,16,M,,M,,*5D
05/28/2014	23:07:21.797	$GPGGA,230722,2558.7812,N,07957.9067,W,1,9,1.5,16,M,,M,,*5E
05/28/2014	23:07:22.822	$GPGGA,230723,2558.7818,N,07957.9060,W,1,9,1.5,16,M,,M,,*52
05/28/2014	23:07:23.818	$GPGGA,230724,2558.7823,N,07957.9054,W,1,9,1.5,16,M,,M,,*5A
05/28/2014	23:07:24.804	$GPGGA,230725,2558.7827,N,07957.9050,W,1,9,1.5,16,M,,M,,*5B
05/28/2014	23:07:25.830	$GPGGA,230726,2558.7833,N,07957.9044,W,1,9,1.5,16,M,,M,,*58
05/28/2014	23:07:26.835	$GPGGA,230727,2558.7838,N,07957.9037,W,1,9,1.5,16,M,,M,,*56
05/28/2014	23:07:27.830	$GPGGA,230728,2558.7844,N,07957.9032,W,1,9,1.5,16,M,,M,,*57
05/28/2014	23:07:28.947	$GPGGA,230729,2558.7849,N,07957.9027,W,1,9,1.5,16,M,,M,,*5F
05/28/2014	23:07:29.822	$GPGGA,230730,2558.7855,N,07957.9021,W,1,9,1.5,16,M,,M,,*5C
05/28/2014	23:07:30.848	$GPGGA,230731,2558.7859,N,07957.9015,W,1,9,1.5,16,M,,M,,*56
05/28/2014	23:07:31.843	$GPGGA,230732,2558.7866,N,07957.9009,W,1,9,1.5,16,M,,M,,*54
05/28/2014	23:07:32.859	$GPGGA,230733,2558.7870,N,07957.9004,W,1,9,1.5,16,M,,M,,*5F
05/28/2014	23:07:33.835	$GPGGA,230734,2558.7876,N,07957.8998,W,1,9,1.5,16,M,,M,,*53
05/28/2014	23:07:34.841	$GPGGA,230735,2558.7881,N,07957.8993,W,1,9,1.5,16,M,,M,,*51
05/28/2014	23:07:35.987	$GPGGA,230736,2558.7887,N,07957.8987,W,1,9,1.5,16,M,,M,,*51
05/28/2014	23:07:36.852	$GPGGA,230737,2558.7892,N,07957.8981,W,1,9,1.5,16,M,,M,,*52
05/28/2014	23:07:37.979	$GPGGA,230738,2558.7896,N,07957.8976,W,1,9,1.5,16,M,,M,,*51
05/28/2014	23:07:38.964	$GPGGA,230739,2558.7903,N,07957.8970,W,1,9,1.5,16,M,,M,,*5B
05/28/2014	23:07:39.653	$GPGGA,230740,2558.7907,N,07957.8964,W,1,9,1.5,16,M,,M,,*54
05/28/2014	23:07:40.528	$GPGGA,230741,2558.7912,N,07957.8959,W,1,9,1.5,16,M,,M,,*5F
05/28/2014	23:07:41.637	$GPGGA,230742,2558.7917,N,07957.8953,W,1,9,1.5,16,M,,M,,*53
05/28/2014	23:07:42.644	$GPGGA,230743,2558.7924,N,07957.8948,W,1,9,1.5,16,M,,M,,*58
05/28/2014	23:07:43.676	$GPGGA,230744,2558.7928,N,07957.8942,W,1,9,1.5,16,M,,M,,*59
05/28/2014	23:07:44.655	$GPGGA,230745,2558.7932,N,07957.8936,W,1,9,1.5,16,M,,M,,*50
05/28/2014	23:07:45.637	$GPGGA,230746,2558.7939,N,07957.8931,W,1,9,1.5,16,M,,M,,*5F
05/28/2014	23:07:46.643	$GPGGA,230747,2558.7943,N,07957.8925,W,1,9,1.5,16,M,,M,,*56
05/28/2014	23:07:47.659	$GPGGA,230748,2558.7949,N,07957.8920,W,1,9,1.5,16,M,,M,,*56
05/28/2014	23:07:48.664	$GPGGA,230749,2558.7954,N,07957.8914,W,1,9,1.5,16,M,,M,,*5C
05/28/2014	23:07:49.660	$GPGGA,230750,2558.7961,N,07957.8908,W,1,9,1.5,16,M,,M,,*5F
05/28/2014	23:07:50.657	$GPGGA,230751,2558.7964,N,07957.8903,W,1,9,1.5,16,M,,M,,*50
05/28/2014	23:07:51.682	$GPGGA,230752,2558.7971,N,07957.8898,W,1,9,1.5,16,M,,M,,*54
05/28/2014	23:07:52.667	$GPGGA,230753,2558.7977,N,07957.8891,W,1,9,1.5,16,M,,M,,*5A
05/28/2014	23:07:53.673	$GPGGA,230754,2558.7982,N,07957.8886,W,1,9,1.5,16,M,,M,,*51
05/28/2014	23:07:54.689	$GPGGA,230755,2558.7986,N,07957.8881,W,1,9,1.5,16,M,,M,,*53
05/28/2014	23:07:55.695	$GPGGA,230756,2558.7993,N,07957.8876,W,1,9,1.5,16,M,,M,,*5C
05/28/2014	23:07:56.701	$GPGGA,230757,2558.7999,N,07957.8870,W,1,9,1.5,16,M,,M,,*51
05/28/2014	23:07:57.686	$GPGGA,230758,2558.8004,N,07957.8865,W,1,9,1.5,16,M,,M,,*58
05/28/2014	23:07:58.703	$GPGGA,230759,2558.8008,N,07957.8860,W,1,9,1.5,16,M,,M,,*50
05/28/2014	23:07:59.719	$GPGGA,230800,2558.8015,N,07957.8853,W,1,9,1.5,16,M,,M,,*5F
05/28/2014	23:08:00.714	$GPGGA,230801,2558.8021,N,07957.8848,W,1,9,1.5,16,M,,M,,*53
05/28/2014	23:08:01.709	$GPGGA,230802,2558.8025,N,07957.8844,W,1,9,1.5,16,M,,M,,*58
05/28/2014	23:08:02.704	$GPGGA,230803,2558.8032,N,07957.8838,W,1,9,1.5,16,M,,M,,*54
05/28/2014	23:08:03.720	$GPGGA,230804,2558.8036,N,07957.8831,W,1,9,1.5,16,M,,M,,*5E
05/28/2014	23:08:04.716	$GPGGA,230805,2558.8042,N,07957.8826,W,1,9,1.5,16,M,,M,,*5A
05/28/2014	23:08:05.713	$GPGGA,230806,2558.8047,N,07957.8821,W,1,9,1.5,16,M,,M,,*5B
05/28/2014	23:08:06.758	$GPGGA,230807,2558.8053,N,07957.8815,W,1,9,1.5,16,M,,M,,*58
05/28/2014	23:08:07.724	$GPGGA,230808,2558.8058,N,07957.8810,W,1,9,1.5,16,M,,M,,*59
05/28/2014	23:08:08.760	$GPGGA,230809,2558.8062,N,07957.8805,W,1,9,1.5,16,M,,M,,*55
05/28/2014	23:08:09.735	$GPGGA,230810,2558.8068,N,07957.8799,W,1,9,1.5,16,M,,M,,*5D
05/28/2014	23:08:10.721	$GPGGA,230811,2558.8075,N,07957.8793,W,1,9,1.5,16,M,,M,,*5A
05/28/2014	23:08:11.746	$GPGGA,230812,2558.8080,N,07957.8788,W,1,9,1.5,16,M,,M,,*59
05/28/2014	23:08:12.772	$GPGGA,230813,2558.8084,N,07957.8782,W,1,9,1.5,16,M,,M,,*56
05/28/2014	23:08:13.758	$GPGGA,230814,2558.8090,N,07957.8777,W,1,9,1.5,16,M,,M,,*5E
05/28/2014	23:08:14.884	$GPGGA,230815,2558.8094,N,07957.8771,W,1,9,1.5,16,M,,M,,*5D
05/28/2014	23:08:15.780	$GPGGA,230816,2558.8101,N,07957.8766,W,1,9,1.5,16,M,,M,,*55
05/28/2014	23:08:16.776	$GPGGA,230817,2558.8105,N,07957.8761,W,1,9,1.5,16,M,,M,,*57
05/28/2014	23:08:17.751	$GPGGA,230818,2558.8109,N,07957.8755,W,1,9,1.5,16,M,,M,,*53
05/28/2014	23:08:18.787	$GPGGA,230819,2558.8116,N,07957.8749,W,1,9,1.5,16,M,,M,,*51
05/28/2014	23:08:19.948	$GPGGA,230820,2558.8120,N,07957.8744,W,1,9,1.5,16,M,,M,,*53
05/28/2014	23:08:20.788	$GPGGA,230821,2558.8125,N,07957.8739,W,1,9,1.5,16,M,,M,,*5D
05/28/2014	23:08:21.866	$GPGGA,230822,2558.8130,N,07957.8733,W,1,9,1.5,16,M,,M,,*50
05/28/2014	23:08:22.772	$GPGGA,230823,2558.8137,N,07957.8726,W,1,9,1.5,16,M,,M,,*52
05/28/2014	23:08:24.018	$GPGGA,230824,2558.8141,N,07957.8722,W,1,9,1.5,16,M,,M,,*50
05/28/2014	23:08:24.898	$GPGGA,230825,2558.8145,N,07957.8716,W,1,9,1.5,16,M,,M,,*52
05/28/2014	23:08:25.962	$GPGGA,230826,2558.8152,N,07957.8710,W,1,9,1.5,16,M,,M,,*51
05/28/2014	23:08:27.133	$GPGGA,230827,2558.8156,N,07957.8704,W,1,9,1.5,16,M,,M,,*51
05/28/2014	23:08:28.132	$GPGGA,230828,2558.8161,N,07957.8699,W,1,9,1.5,16,M,,M,,*5F
05/28/2014	23:08:29.335	$GPGGA,230829,2558.8167,N,07957.8694,W,1,9,1.5,16,M,,M,,*55
05/28/2014	23:08:30.260	$GPGGA,230830,2558.8174,N,07957.8688,W,1,9,1.5,16,M,,M,,*52
05/28/2014	23:08:31.496	$GPGGA,230831,2558.8177,N,07957.8683,W,1,9,1.5,16,M,,M,,*5B
05/28/2014	23:08:32.591	$GPGGA,230832,2558.8184,N,07957.8677,W,1,9,1.5,16,M,,M,,*5F
05/28/2014	23:08:33.568	$GPGGA,230833,2558.8190,N,07957.8671,W,1,9,1.5,16,M,,M,,*5D
05/28/2014	23:08:34.718	$GPGGA,230834,2558.8195,N,07957.8665,W,1,9,1.5,16,M,,M,,*5A
05/28/2014	23:08:35.782	$GPGGA,230835,2558.8199,N,07957.8660,W,1,9,1.5,16,M,,M,,*52
05/28/2014	23:08:36.888	$GPGGA,230836,2558.8205,N,07957.8655,W,1,9,1.5,16,M,,M,,*51
05/28/2014	23:08:37.909	$GPGGA,230837,2558.8210,N,07957.8648,W,1,9,1.5,16,M,,M,,*58
05/28/2014	23:08:38.929	$GPGGA,230838,2558.8216,N,07957.8643,W,1,9,1.5,16,M,,M,,*5A
05/28/2014	23:08:40.003	$GPGGA,230839,2558.8221,N,07957.8638,W,1,9,1.5,16,M,,M,,*53
05/28/2014	23:08:39.655	$GPGGA,230840,2558.8227,N,07957.8632,W,1,9,1.5,16,M,,M,,*51
05/28/2014	23:08:40.794	$GPGGA,230841,2558.8232,N,07957.8626,W,1,9,1.5,16,M,,M,,*51
05/28/2014	23:08:41.847	$GPGGA,230842,2558.8237,N,07957.8621,W,1,9,1.5,16,M,,M,,*50
05/28/2014	23:08:42.900	$GPGGA,230843,2558.8243,N,07957.8615,W,1,9,1.5,16,M,,M,,*55
05/28/2014	23:08:44.017	$GPGGA,230844,2558.8249,N,07957.8609,W,1,9,1.5,16,M,,M,,*55
05/28/2014	23:08:45.038	$GPGGA,230845,2558.8253,N,07957.8605,W,1,9,1.5,16,M,,M,,*53
05/28/2014	23:08:46.139	$GPGGA,230846,2558.8259,N,07957.8599,W,1,9,1.5,16,M,,M,,*5C
05/28/2014	23:08:47.201	$GPGGA,230847,2558.8264,N,07957.8593,W,1,9,1.5,16,M,,M,,*59
05/28/2014	23:08:48.293	$GPGGA,230848,2558.8270,N,07957.8589,W,1,9,1.5,16,M,,M,,*58
05/28/2014	23:08:49.360	$GPGGA,230849,2558.8275,N,07957.8583,W,1,9,1.5,16,M,,M,,*56
05/28/2014	23:08:50.356	$GPGGA,230850,2558.8282,N,07957.8577,W,1,9,1.5,16,M,,M,,*5D
05/28/2014	23:08:51.506	$GPGGA,230851,2558.8286,N,07957.8572,W,1,9,1.5,16,M,,M,,*5D
05/28/2014	23:08:52.580	$GPGGA,230852,2558.8290,N,07957.8567,W,1,9,1.5,16,M,,M,,*5D
05/28/2014	23:08:53.579	$GPGGA,230853,2558.8297,N,07957.8561,W,1,9,1.5,16,M,,M,,*5D
05/28/2014	23:08:54.718	$GPGGA,230854,2558.8303,N,07957.8556,W,1,9,1.5,16,M,,M,,*52
05/28/2014	23:08:55.783	$GPGGA,230855,2558.8307,N,07957.8551,W,1,9,1.5,16,M,,M,,*50
05/28/2014	23:08:56.812	$GPGGA,230856,2558.8311,N,07957.8545,W,1,9,1.5,16,M,,M,,*51
05/28/2014	23:08:57.865	$GPGGA,230857,2558.8317,N,07957.8539,W,1,9,1.5,16,M,,M,,*5D
05/28/2014	23:08:58.939	$GPGGA,230858,2558.8322,N,07957.8535,W,1,9,1.5,16,M,,M,,*58
05/28/2014	23:09:00.035	$GPGGA,230859,2558.8328,N,07957.8530,W,1,9,1.5,16,M,,M,,*56
05/28/2014	23:09:01.165	$GPGGA,230900,2558.8333,N,07957.8524,W,1,9,1.5,16,M,,M,,*54
05/28/2014	23:09:02.238	$GPGGA,230901,2558.8340,N,07957.8521,W,1,8,1.5,16,M,,M,,*55
05/28/2014	23:09:03.280	$GPGGA,230902,2558.8344,N,07957.8516,W,1,8,1.5,16,M,,M,,*56
05/28/2014	23:09:04.333	$GPGGA,230903,2558.8349,N,07957.8511,W,1,9,1.5,16,M,,M,,*5C
05/28/2014	23:09:05.465	$GPGGA,230904,2558.8354,N,07957.8506,W,1,9,1.5,16,M,,M,,*51
05/28/2014	23:09:06.439	$GPGGA,230905,2558.8360,N,07957.8500,W,1,9,1.5,16,M,,M,,*51
05/28/2014	23:09:07.578	$GPGGA,230906,2558.8367,N,07957.8495,W,1,9,1.5,16,M,,M,,*58
05/28/2014	23:09:08.631	$GPGGA,230907,2558.8372,N,07957.8490,W,1,9,1.5,16,M,,M,,*58
05/28/2014	23:09:09.803	$GPGGA,230908,2558.8378,N,07957.8486,W,1,9,1.5,16,M,,M,,*5A
05/28/2014	23:09:10.779	$GPGGA,230909,2558.8383,N,07957.8480,W,1,9,1.5,16,M,,M,,*59
05/28/2014	23:09:11.800	$GPGGA,230910,2558.8389,N,07957.8475,W,1,9,1.5,16,M,,M,,*51
05/28/2014	23:09:13.003	$GPGGA,230911,2558.8394,N,07957.8471,W,1,9,1.5,16,M,,M,,*58
05/28/2014	23:09:13.960	$GPGGA,230912,2558.8401,N,07957.8466,W,1,9,1.5,16,M,,M,,*56
05/28/2014	23:09:15.130	$GPGGA,230913,2558.8405,N,07957.8460,W,1,9,1.5,16,M,,M,,*55
05/28/2014	23:09:16.161	$GPGGA,230914,2558.8412,N,07957.8455,W,1,9,1.5,16,M,,M,,*52
05/28/2014	23:09:17.301	$GPGGA,230915,2558.8418,N,07957.8449,W,1,9,1.5,16,M,,M,,*54
05/28/2014	23:09:18.374	$GPGGA,230916,2558.8423,N,07957.8444,W,1,9,1.5,16,M,,M,,*52
05/28/2014	23:09:19.422	$GPGGA,230917,2558.8427,N,07957.8439,W,1,9,1.5,16,M,,M,,*5D
05/28/2014	23:09:20.448	$GPGGA,230918,2558.8434,N,07957.8434,W,1,9,1.5,16,M,,M,,*5D
05/28/2014	23:09:21.533	$GPGGA,230919,2558.8438,N,07957.8427,W,1,9,1.5,16,M,,M,,*52
05/28/2014	23:09:22.650	$GPGGA,230920,2558.8444,N,07957.8423,W,1,9,1.5,16,M,,M,,*57
05/28/2014	23:09:23.672	$GPGGA,230921,2558.8448,N,07957.8417,W,1,9,1.6,16,M,,M,,*5E
05/28/2014	23:09:24.797	$GPGGA,230922,2558.8448,N,07957.8417,W,1,9,1.6,16,M,,M,,*5D
05/28/2014	23:09:25.852	$GPGGA,230923,2558.8461,N,07957.8407,W,1,9,1.5,16,M,,M,,*55
05/28/2014	23:09:26.959	$GPGGA,230924,2558.8466,N,07957.8402,W,1,9,1.6,16,M,,M,,*53
05/28/2014	23:09:28.025	$GPGGA,230925,2558.8470,N,07957.8396,W,1,8,1.5,16,M,,M,,*5D
05/28/2014	23:09:29.075	$GPGGA,230926,2558.8474,N,07957.8390,W,1,8,1.6,16,M,,M,,*5F
05/28/2014	23:09:30.140	$GPGGA,230927,2558.8481,N,07957.8385,W,1,8,1.5,16,M,,M,,*53
05/28/2014	23:09:31.236	$GPGGA,230928,2558.8487,N,07957.8380,W,1,8,1.5,16,M,,M,,*5F
05/28/2014	23:09:32.331	$GPGGA,230929,2558.8492,N,07957.8375,W,1,9,1.5,16,M,,M,,*51
05/28/2014	23:09:33.384	$GPGGA,230930,2558.8498,N,07957.8371,W,1,9,1.5,16,M,,M,,*57
05/28/2014	23:09:34.457	$GPGGA,230931,2558.8502,N,07957.8365,W,1,9,1.6,16,M,,M,,*52
05/28/2014	23:09:35.510	$GPGGA,230932,2558.8506,N,07957.8359,W,1,9,1.5,16,M,,M,,*59
05/28/2014	23:09:36.595	$GPGGA,230933,2558.8512,N,07957.8354,W,1,9,1.5,16,M,,M,,*50
05/28/2014	23:09:37.691	$GPGGA,230934,2558.8517,N,07957.8348,W,1,9,1.5,16,M,,M,,*5F
05/28/2014	23:09:38.735	$GPGGA,230935,2558.8523,N,07957.8343,W,1,9,1.5,16,M,,M,,*52
05/28/2014	23:09:39.807	$GPGGA,230936,2558.8528,N,07957.8338,W,1,9,1.5,16,M,,M,,*56
05/28/2014	23:09:40.893	$GPGGA,230937,2558.8534,N,07957.8331,W,1,9,1.5,16,M,,M,,*53
05/28/2014	23:09:41.988	$GPGGA,230938,2558.8538,N,07957.8326,W,1,9,1.5,16,M,,M,,*56
05/28/2014	23:09:43.031	$GPGGA,230939,2558.8542,N,07957.8321,W,1,9,1.5,16,M,,M,,*5D
05/28/2014	23:09:39.675	$GPGGA,230940,2558.8542,N,07957.8321,W,1,9,1.5,16,M,,M,,*53
05/28/2014	23:09:40.717	$GPGGA,230941,2558.8553,N,07957.8309,W,1,9,1.5,16,M,,M,,*58
05/28/2014	23:09:41.760	$GPGGA,230942,2558.8553,N,07957.8309,W,1,9,1.5,16,M,,M,,*5B
05/28/2014	23:09:42.856	$GPGGA,230943,2558.8564,N,07957.8298,W,1,9,1.5,16,M,,M,,*57
05/28/2014	23:09:43.919	$GPGGA,230944,2558.8564,N,07957.8298,W,1,9,1.5,16,M,,M,,*50
05/28/2014	23:09:45.004	$GPGGA,230945,2558.8573,N,07957.8287,W,1,9,1.6,16,M,,M,,*5A
05/28/2014	23:09:46.068	$GPGGA,230946,2558.8573,N,07957.8287,W,1,9,1.6,16,M,,M,,*59
05/28/2014	23:09:47.142	$GPGGA,230947,2558.8584,N,07957.8276,W,1,9,1.5,16,M,,M,,*5D
05/28/2014	23:09:48.205	$GPGGA,230948,2558.8584,N,07957.8276,W,1,9,1.5,16,M,,M,,*52
05/28/2014	23:09:49.301	$GPGGA,230949,2558.8593,N,07957.8267,W,1,9,1.5,16,M,,M,,*55
05/28/2014	23:09:50.375	$GPGGA,230950,2558.8600,N,07957.8262,W,1,9,1.5,16,M,,M,,*51
05/28/2014	23:09:51.417	$GPGGA,230951,2558.8606,N,07957.8257,W,1,9,1.5,16,M,,M,,*50
05/28/2014	23:09:52.513	$GPGGA,230952,2558.8611,N,07957.8253,W,1,9,1.5,16,M,,M,,*51
05/28/2014	23:09:53.588	$GPGGA,230953,2558.8611,N,07957.8253,W,1,9,1.5,16,M,,M,,*50
05/28/2014	23:09:54.727	$GPGGA,230954,2558.8624,N,07957.8243,W,1,9,1.5,16,M,,M,,*50
05/28/2014	23:09:55.758	$GPGGA,230955,2558.8624,N,07957.8243,W,1,9,1.5,16,M,,M,,*51
05/28/2014	23:09:56.832	$GPGGA,230956,2558.8633,N,07957.8232,W,1,9,1.5,16,M,,M,,*52
05/28/2014	23:09:57.875	$GPGGA,230957,2558.8633,N,07957.8232,W,1,9,1.5,16,M,,M,,*53
05/28/2014	23:09:58.927	$GPGGA,230958,2558.8638,N,07957.8225,W,1,9,1.6,16,M,,M,,*52
05/28/2014	23:09:59.980	$GPGGA,230959,2558.8649,N,07957.8212,W,1,9,1.5,16,M,,M,,*52
05/28/2014	23:10:01.205	$GPGGA,231000,2558.8654,N,07957.8209,W,1,9,1.6,16,M,,M,,*53
05/28/2014	23:10:02.130	$GPGGA,231001,2558.8658,N,07957.8203,W,1,9,1.5,16,M,,M,,*57
05/28/2014	23:10:03.300	$GPGGA,231002,2558.8665,N,07957.8198,W,1,9,1.5,16,M,,M,,*5B
05/28/2014	23:10:04.282	$GPGGA,231003,2558.8669,N,07957.8193,W,1,9,1.5,16,M,,M,,*5D
05/28/2014	23:10:05.465	$GPGGA,231004,2558.8674,N,07957.8188,W,1,9,1.5,16,M,,M,,*5C
05/28/2014	23:10:06.523	$GPGGA,231005,2558.8680,N,07957.8182,W,1,9,1.5,16,M,,M,,*5C
05/28/2014	23:10:07.608	$GPGGA,231006,2558.8686,N,07957.8176,W,1,9,1.5,17,M,,M,,*53
05/28/2014	23:10:08.663	$GPGGA,231007,2558.8690,N,07957.8171,W,1,9,1.5,17,M,,M,,*52
05/28/2014	23:10:09.756	$GPGGA,231008,2558.8694,N,07957.8165,W,1,9,1.5,17,M,,M,,*5C
05/28/2014	23:10:10.841	$GPGGA,231009,2558.8701,N,07957.8160,W,1,9,1.5,17,M,,M,,*55
05/28/2014	23:10:11.897	$GPGGA,231010,2558.8705,N,07957.8155,W,1,9,1.5,17,M,,M,,*5F
05/28/2014	23:10:12.981	$GPGGA,231011,2558.8712,N,07957.8149,W,1,9,1.5,17,M,,M,,*55
05/28/2014	23:10:14.056	$GPGGA,231012,2558.8716,N,07957.8143,W,1,9,1.5,17,M,,M,,*58
05/28/2014	23:10:15.130	$GPGGA,231013,2558.8721,N,07957.8138,W,1,9,1.5,17,M,,M,,*51
05/28/2014	23:10:16.171	$GPGGA,231014,2558.8727,N,07957.8133,W,1,9,1.5,17,M,,M,,*5B
05/28/2014	23:10:17.245	$GPGGA,231015,2558.8732,N,07957.8126,W,1,9,1.5,17,M,,M,,*5A
05/28/2014	23:10:18.343	$GPGGA,231016,2558.8736,N,07957.8121,W,1,9,1.6,18,M,,M,,*56
05/28/2014	23:10:19.383	$GPGGA,231017,2558.8740,N,07957.8117,W,1,9,1.5,18,M,,M,,*50
05/28/2014	23:10:20.457	$GPGGA,231018,2558.8745,N,07957.8110,W,1,9,1.5,18,M,,M,,*5D
05/28/2014	23:10:21.553	$GPGGA,231019,2558.8751,N,07957.8104,W,1,9,1.5,18,M,,M,,*5C
05/28/2014	23:10:22.617	$GPGGA,231020,2558.8754,N,07957.8099,W,1,9,1.5,18,M,,M,,*56
05/28/2014	23:10:23.681	$GPGGA,231021,2558.8759,N,07957.8091,W,1,8,1.6,18,M,,M,,*50
05/28/2014	23:10:24.745	$GPGGA,231022,2558.8765,N,07957.8085,W,1,8,1.5,18,M,,M,,*5A
05/28/2014	23:10:25.851	$GPGGA,231023,2558.8769,N,07957.8079,W,1,9,1.5,18,M,,M,,*55
05/28/2014	23:10:26.903	$GPGGA,231024,2558.8773,N,07957.8073,W,1,9,1.5,18,M,,M,,*53
05/28/2014	23:10:27.988	$GPGGA,231025,2558.8779,N,07957.8066,W,1,9,1.5,18,M,,M,,*5C
05/28/2014	23:10:29.041	$GPGGA,231026,2558.8784,N,07957.8061,W,1,9,1.5,18,M,,M,,*5A
05/28/2014	23:10:30.104	$GPGGA,231027,2558.8790,N,07957.8055,W,1,9,1.5,18,M,,M,,*59
05/28/2014	23:10:31.200	$GPGGA,231028,2558.8795,N,07957.8049,W,1,9,1.5,18,M,,M,,*5E
05/28/2014	23:10:32.296	$GPGGA,231029,2558.8802,N,07957.8043,W,1,9,1.5,18,M,,M,,*54
05/28/2014	23:10:33.317	$GPGGA,231030,2558.8806,N,07957.8037,W,1,9,1.5,18,M,,M,,*5B
05/28/2014	23:10:34.423	$GPGGA,231031,2558.8813,N,07957.8031,W,1,9,1.5,18,M,,M,,*58
05/28/2014	23:10:35.476	$GPGGA,231032,2558.8819,N,07957.8025,W,1,9,1.5,18,M,,M,,*54
05/28/2014	23:10:36.573	$GPGGA,231033,2558.8823,N,07957.8019,W,1,9,1.5,18,M,,M,,*53
05/28/2014	23:10:37.604	$GPGGA,231034,2558.8828,N,07957.8013,W,1,9,1.5,19,M,,M,,*54
05/28/2014	23:10:38.689	$GPGGA,231035,2558.8834,N,07957.8007,W,1,9,1.5,19,M,,M,,*5D
05/28/2014	23:10:39.817	$GPGGA,231036,2558.8839,N,07957.8001,W,1,9,1.5,19,M,,M,,*55
05/28/2014	23:10:40.838	$GPGGA,231037,2558.8842,N,07957.7995,W,1,9,1.5,19,M,,M,,*53
05/28/2014	23:10:41.912	$GPGGA,231038,2558.8849,N,07957.7989,W,1,9,1.5,19,M,,M,,*5A
05/28/2014	23:10:43.105	$GPGGA,231039,2558.8853,N,07957.7983,W,1,9,1.5,19,M,,M,,*5A
05/28/2014	23:10:39.587	$GPGGA,231040,2558.8859,N,07957.7977,W,1,9,1.5,19,M,,M,,*55
05/28/2014	23:10:40.800	$GPGGA,231041,2558.8864,N,07957.7971,W,1,9,1.5,19,M,,M,,*5C
05/28/2014	23:10:41.735	$GPGGA,231042,2558.8867,N,07957.7966,W,1,9,1.5,19,M,,M,,*5A
05/28/2014	23:10:42.927	$GPGGA,231043,2558.8873,N,07957.7960,W,1,9,1.5,19,M,,M,,*58
05/28/2014	23:10:44.013	$GPGGA,231044,2558.8877,N,07957.7954,W,1,9,1.5,19,M,,M,,*5C
05/28/2014	23:10:45.087	$GPGGA,231045,2558.8882,N,07957.7948,W,1,9,1.5,19,M,,M,,*5A
05/28/2014	23:10:46.043	$GPGGA,231046,2558.8886,N,07957.7942,W,1,9,1.5,19,M,,M,,*57
05/28/2014	23:10:47.197	$GPGGA,231047,2558.8892,N,07957.7936,W,1,9,1.5,19,M,,M,,*50
05/28/2014	23:10:48.181	$GPGGA,231048,2558.8896,N,07957.7930,W,1,9,1.5,19,M,,M,,*5D
05/28/2014	23:10:49.242	$GPGGA,231049,2558.8900,N,07957.7925,W,1,9,1.5,19,M,,M,,*56
05/28/2014	23:10:50.416	$GPGGA,231050,2558.8906,N,07957.7918,W,1,9,1.5,19,M,,M,,*56
05/28/2014	23:10:51.512	$GPGGA,231051,2558.8910,N,07957.7911,W,1,9,1.5,19,M,,M,,*59
05/28/2014	23:10:52.490	$GPGGA,231052,2558.8914,N,07957.7906,W,1,9,1.5,19,M,,M,,*58
05/28/2014	23:10:53.629	$GPGGA,231053,2558.8918,N,07957.7899,W,1,9,1.5,19,M,,M,,*52
05/28/2014	23:10:54.714	$GPGGA,231054,2558.8924,N,07957.7892,W,1,9,1.5,19,M,,M,,*51
05/28/2014	23:10:55.799	$GPGGA,231055,2558.8929,N,07957.7887,W,1,9,1.5,19,M,,M,,*59
05/28/2014	23:10:56.873	$GPGGA,231056,2558.8933,N,07957.7881,W,1,9,1.5,19,M,,M,,*57
05/28/2014	23:10:57.915	$GPGGA,231057,2558.8939,N,07957.7874,W,1,9,1.5,19,M,,M,,*56
05/28/2014	23:10:58.989	$GPGGA,231058,2558.8943,N,07957.7868,W,1,9,1.5,19,M,,M,,*59
05/28/2014	23:11:00.063	$GPGGA,231059,2558.8947,N,07957.7863,W,1,9,1.5,19,M,,M,,*57
05/28/2014	23:11:01.170	$GPGGA,231100,2558.8954,N,07957.7857,W,1,9,1.6,19,M,,M,,*5C
05/28/2014	23:11:02.276	$GPGGA,231101,2558.8960,N,07957.7851,W,1,9,1.5,19,M,,M,,*5F
05/28/2014	23:11:03.276	$GPGGA,231102,2558.8962,N,07957.7847,W,1,9,1.5,19,M,,M,,*59
05/28/2014	23:11:04.382	$GPGGA,231103,2558.8968,N,07957.7839,W,1,9,1.5,19,M,,M,,*5B
05/28/2014	23:11:05.427	$GPGGA,231104,2558.8972,N,07957.7832,W,1,9,1.6,19,M,,M,,*5F
05/28/2014	23:11:06.509	$GPGGA,231105,2558.8976,N,07957.7826,W,1,8,1.6,19,M,,M,,*5E
05/28/2014	23:11:07.562	$GPGGA,231106,2558.8980,N,07957.7819,W,1,8,1.5,19,M,,M,,*5B
05/28/2014	23:11:08.637	$GPGGA,231107,2558.8986,N,07957.7812,W,1,8,1.6,19,M,,M,,*54
05/28/2014	23:11:09.733	$GPGGA,231108,2558.8990,N,07957.7805,W,1,8,1.5,19,M,,M,,*59
05/28/2014	23:11:10.796	$GPGGA,231109,2558.8994,N,07957.7800,W,1,9,1.5,19,M,,M,,*58
05/28/2014	23:11:11.860	$GPGGA,231110,2558.9000,N,07957.7794,W,1,9,1.6,19,M,,M,,*54
05/28/2014	23:11:12.924	$GPGGA,231111,2558.9007,N,07957.7789,W,1,9,1.5,19,M,,M,,*5D
05/28/2014	23:11:14.020	$GPGGA,231112,2558.9012,N,07957.7783,W,1,9,1.5,19,M,,M,,*50
05/28/2014	23:11:15.072	$GPGGA,231113,2558.9016,N,07957.7779,W,1,9,1.5,18,M,,M,,*51
05/28/2014	23:11:16.136	$GPGGA,231114,2558.9022,N,07957.7773,W,1,9,1.5,18,M,,M,,*5B
05/28/2014	23:11:17.211	$GPGGA,231115,2558.9027,N,07957.7768,W,1,9,1.5,18,M,,M,,*55
05/28/2014	23:11:18.295	$GPGGA,231116,2558.9034,N,07957.7763,W,1,9,1.5,18,M,,M,,*5F
05/28/2014	23:11:19.390	$GPGGA,231117,2558.9037,N,07957.7757,W,1,9,1.5,18,M,,M,,*5A
05/28/2014	23:11:20.444	$GPGGA,231118,2558.9041,N,07957.7749,W,1,9,1.5,18,M,,M,,*5B
05/28/2014	23:11:21.507	$GPGGA,231119,2558.9048,N,07957.7743,W,1,8,1.6,18,M,,M,,*5B
05/28/2014	23:11:22.593	$GPGGA,231120,2558.9052,N,07957.7737,W,1,8,1.5,18,M,,M,,*5A
05/28/2014	23:11:23.656	$GPGGA,231121,2558.9058,N,07957.7732,W,1,8,1.6,18,M,,M,,*57
05/28/2014	23:11:24.720	$GPGGA,231122,2558.9062,N,07957.7725,W,1,8,1.5,18,M,,M,,*58
05/28/2014	23:11:25.806	$GPGGA,231123,2558.9068,N,07957.7719,W,1,9,1.5,18,M,,M,,*5D
05/28/2014	23:11:26.879	$GPGGA,231124,2558.9073,N,07957.7713,W,1,9,1.5,18,M,,M,,*5A
05/28/2014	23:11:28.072	$GPGGA,231125,2558.9077,N,07957.7707,W,1,9,1.5,18,M,,M,,*5A
05/28/2014	23:11:29.006	$GPGGA,231126,2558.9083,N,07957.7700,W,1,9,1.5,18,M,,M,,*55
05/28/2014	23:11:30.074	$GPGGA,231127,2558.9088,N,07957.7695,W,1,9,1.5,18,M,,M,,*52
05/28/2014	23:11:31.177	$GPGGA,231128,2558.9092,N,07957.7689,W,1,9,1.5,18,M,,M,,*5B
05/28/2014	23:11:32.230	$GPGGA,231129,2558.9097,N,07957.7683,W,1,9,1.5,18,M,,M,,*55
05/28/2014	23:11:33.293	$GPGGA,231130,2558.9102,N,07957.7677,W,1,9,1.5,18,M,,M,,*5B
05/28/2014	23:11:34.497	$GPGGA,231131,2558.9108,N,07957.7671,W,1,9,1.5,18,M,,M,,*56
05/28/2014	23:11:35.464	$GPGGA,231132,2558.9113,N,07957.7666,W,1,9,1.5,18,M,,M,,*59
05/28/2014	23:11:36.623	$GPGGA,231133,2558.9117,N,07957.7661,W,1,9,1.5,18,M,,M,,*5B
05/28/2014	23:11:37.708	$GPGGA,231134,2558.9123,N,07957.7655,W,1,9,1.5,18,M,,M,,*5C
05/28/2014	23:11:38.782	$GPGGA,231135,2558.9128,N,07957.7648,W,1,9,1.5,18,M,,M,,*5A
05/28/2014	23:11:39.739	$GPGGA,231136,2558.9133,N,07957.7643,W,1,9,1.5,18,M,,M,,*58
05/28/2014	23:11:40.901	$GPGGA,231137,2558.9138,N,07957.7638,W,1,9,1.5,18,M,,M,,*5E
05/28/2014	23:11:41.984	$GPGGA,231138,2558.9144,N,07957.7632,W,1,9,1.5,18,M,,M,,*50
05/28/2014	23:11:43.061	$GPGGA,231139,2558.9149,N,07957.7626,W,1,9,1.5,18,M,,M,,*59
05/28/2014	23:11:39.574	$GPGGA,231140,2558.9153,N,07957.7621,W,1,9,1.5,18,M,,M,,*5B
05/28/2014	23:11:40.724	$GPGGA,231141,2558.9159,N,07957.7616,W,1,9,1.5,18,M,,M,,*54
05/28/2014	23:11:41.798	$GPGGA,231142,2558.9164,N,07957.7609,W,1,9,1.5,18,M,,M,,*57
05/28/2014	23:11:42.916	$GPGGA,231143,2558.9170,N,07957.7603,W,1,9,1.5,18,M,,M,,*59
05/28/2014	23:11:43.970	$GPGGA,231144,2558.9174,N,07957.7597,W,1,9,1.5,18,M,,M,,*54
05/28/2014	23:11:45.021	$GPGGA,231145,2558.9180,N,07957.7592,W,1,9,1.5,18,M,,M,,*5B
05/28/2014	23:11:46.096	$GPGGA,231146,2558.9185,N,07957.7586,W,1,9,1.5,18,M,,M,,*58
05/28/2014	23:11:47.181	$GPGGA,231147,2558.9189,N,07957.7581,W,1,9,1.5,18,M,,M,,*52
