Software Version Number: 1	Data File Format Number: 1	Build Version Number: 1	Error Count Since VI Started: 0	Manufacturer: Raytheon	 Model Number: RayMarine 120	 S/N: 	 Cal Date: 	 Wind Direction Offset: 0.00	 Slope (M)1: 0.00	 Offset (B)1: 0.00	 Slope (M)2: 0.00	 Offset (B)2: 0.00	 Slope (M)3: 0.00	 Offset (B)3: 0.00	 Slope (M)4: 0.00	 Offset (B)4: 0.00	 Slope (M)5: 0.00	 Offset (B)5: 0.00	 Slope (M)6: 0.00	 Offset (B)6: 0.00
Computer Date	Computer Time	GGA String
05/28/2014	05:00:00.671	$GPGGA,050001,2543.8833,N,08009.7276,W,1,9,1.7,9,M,,M,,*67
05/28/2014	05:00:01.652	$GPGGA,050002,2543.8834,N,08009.7276,W,1,9,1.7,9,M,,M,,*63
05/28/2014	05:00:02.675	$GPGGA,050003,2543.8833,N,08009.7276,W,1,9,1.7,9,M,,M,,*65
05/28/2014	05:00:03.667	$GPGGA,050004,2543.8834,N,08009.7276,W,1,9,1.7,9,M,,M,,*65
05/28/2014	05:00:04.691	$GPGGA,050005,2543.8833,N,08009.7276,W,1,9,1.7,9,M,,M,,*63
05/28/2014	05:00:05.673	$GPGGA,050006,2543.8834,N,08009.7275,W,1,9,1.7,9,M,,M,,*64
05/28/2014	05:00:06.665	$GPGGA,050007,2543.8833,N,08009.7276,W,1,9,1.7,9,M,,M,,*61
05/28/2014	05:00:07.688	$GPGGA,050008,2543.8834,N,08009.7275,W,1,9,1.7,9,M,,M,,*6A
05/28/2014	05:00:08.690	$GPGGA,050009,2543.8833,N,08009.7276,W,1,9,1.7,9,M,,M,,*6F
05/28/2014	05:00:09.663	$GPGGA,050010,2543.8834,N,08009.7275,W,1,9,1.7,9,M,,M,,*63
05/28/2014	05:00:10.655	$GPGGA,050011,2543.8833,N,08009.7276,W,1,9,1.7,9,M,,M,,*66
05/28/2014	05:00:11.688	$GPGGA,050012,2543.8834,N,08009.7275,W,1,9,1.7,9,M,,M,,*61
05/28/2014	05:00:12.681	$GPGGA,050013,2543.8833,N,08009.7276,W,1,9,1.7,9,M,,M,,*64
05/28/2014	05:00:13.673	$GPGGA,050014,2543.8834,N,08009.7276,W,1,9,1.7,9,M,,M,,*64
05/28/2014	05:00:14.686	$GPGGA,050015,2543.8832,N,08009.7276,W,1,9,1.7,9,M,,M,,*63
05/28/2014	05:00:15.689	$GPGGA,050016,2543.8833,N,08009.7276,W,1,9,1.7,9,M,,M,,*61
05/28/2014	05:00:16.691	$GPGGA,050017,2543.8832,N,08009.7276,W,1,9,1.7,9,M,,M,,*61
05/28/2014	05:00:17.674	$GPGGA,050018,2543.8833,N,08009.7276,W,1,9,1.7,9,M,,M,,*6F
05/28/2014	05:00:18.695	$GPGGA,050019,2543.8834,N,08009.7277,W,1,9,1.7,9,M,,M,,*68
05/28/2014	05:00:19.688	$GPGGA,050020,2543.8833,N,08009.7276,W,1,9,1.7,9,M,,M,,*64
05/28/2014	05:00:20.670	$GPGGA,050021,2543.8834,N,08009.7276,W,1,9,1.7,9,M,,M,,*62
05/28/2014	05:00:21.683	$GPGGA,050022,2543.8833,N,08009.7276,W,1,9,1.7,9,M,,M,,*66
05/28/2014	05:00:22.706	$GPGGA,050023,2543.8834,N,08009.7276,W,1,9,1.7,9,M,,M,,*60
05/28/2014	05:00:23.678	$GPGGA,050024,2543.8833,N,08009.7276,W,1,9,1.7,9,M,,M,,*60
05/28/2014	05:00:24.701	$GPGGA,050025,2543.8834,N,08009.7277,W,1,9,1.7,9,M,,M,,*67
05/28/2014	05:00:25.683	$GPGGA,050026,2543.8833,N,08009.7276,W,1,9,1.7,9,M,,M,,*62
05/28/2014	05:00:26.706	$GPGGA,050027,2543.8834,N,08009.7276,W,1,9,1.7,9,M,,M,,*64
05/28/2014	05:00:27.679	$GPGGA,050028,2543.8833,N,08009.7276,W,1,9,1.7,9,M,,M,,*6C
05/28/2014	05:00:28.695	$GPGGA,050029,2543.8834,N,08009.7276,W,1,9,1.8,9,M,,M,,*65
05/28/2014	05:00:29.684	$GPGGA,050030,2543.8833,N,08009.7277,W,1,9,1.8,9,M,,M,,*6B
05/28/2014	05:00:30.666	$GPGGA,050031,2543.8834,N,08009.7277,W,1,9,1.8,9,M,,M,,*6D
05/28/2014	05:00:31.699	$GPGGA,050032,2543.8835,N,08009.7277,W,1,9,1.8,10,M,,M,,*57
05/28/2014	05:00:32.692	$GPGGA,050033,2543.8835,N,08009.7277,W,1,9,1.8,10,M,,M,,*56
05/28/2014	05:00:33.674	$GPGGA,050034,2543.8833,N,08009.7277,W,1,9,1.8,10,M,,M,,*57
05/28/2014	05:00:34.697	$GPGGA,050035,2543.8835,N,08009.7277,W,1,9,1.8,10,M,,M,,*50
05/28/2014	05:00:35.790	$GPGGA,050036,2543.8835,N,08009.7277,W,1,9,1.8,10,M,,M,,*53
05/28/2014	05:00:36.791	$GPGGA,050037,2543.8835,N,08009.7277,W,1,9,1.8,10,M,,M,,*52
05/28/2014	05:00:37.684	$GPGGA,050038,2543.8835,N,08009.7279,W,1,9,1.8,10,M,,M,,*53
05/28/2014	05:00:38.541	$GPGGA,050039,2543.8835,N,08009.7277,W,1,9,1.8,10,M,,M,,*5C
05/28/2014	05:00:39.534	$GPGGA,050040,2543.8835,N,08009.7279,W,1,9,1.8,10,M,,M,,*5C
05/28/2014	05:00:40.546	$GPGGA,050041,2543.8835,N,08009.7278,W,1,9,1.8,10,M,,M,,*5C
05/28/2014	05:00:41.529	$GPGGA,050042,2543.8835,N,08009.7279,W,1,9,1.8,10,M,,M,,*5E
05/28/2014	05:00:42.521	$GPGGA,050043,2543.8835,N,08009.7278,W,1,9,1.8,10,M,,M,,*5E
05/28/2014	05:00:43.634	$GPGGA,050044,2543.8835,N,08009.7279,W,1,9,1.8,10,M,,M,,*58
05/28/2014	05:00:44.547	$GPGGA,050045,2543.8835,N,08009.7278,W,1,9,1.8,10,M,,M,,*58
05/28/2014	05:00:45.620	$GPGGA,050046,2543.8835,N,08009.7279,W,1,9,1.8,10,M,,M,,*5A
05/28/2014	05:00:46.632	$GPGGA,050047,2543.8835,N,08009.7278,W,1,9,1.8,10,M,,M,,*5A
05/28/2014	05:00:47.545	$GPGGA,050048,2543.8835,N,08009.7277,W,1,9,1.8,10,M,,M,,*5A
05/28/2014	05:00:48.627	$GPGGA,050049,2543.8835,N,08009.7277,W,1,9,1.8,10,M,,M,,*5B
05/28/2014	05:00:49.630	$GPGGA,050050,2543.8835,N,08009.7277,W,1,9,1.8,10,M,,M,,*53
05/28/2014	05:00:50.623	$GPGGA,050051,2543.8835,N,08009.7277,W,1,9,1.8,10,M,,M,,*52
05/28/2014	05:00:51.645	$GPGGA,050052,2543.8835,N,08009.7277,W,1,9,1.8,10,M,,M,,*51
05/28/2014	05:00:52.648	$GPGGA,050053,2543.8835,N,08009.7277,W,1,9,1.8,10,M,,M,,*50
05/28/2014	05:00:53.629	$GPGGA,050054,2543.8835,N,08009.7276,W,1,9,1.8,10,M,,M,,*56
05/28/2014	05:00:54.632	$GPGGA,050055,2543.8835,N,08009.7276,W,1,9,1.8,10,M,,M,,*57
05/28/2014	05:00:55.634	$GPGGA,050056,2543.8835,N,08009.7277,W,1,9,1.8,11,M,,M,,*54
05/28/2014	05:00:56.668	$GPGGA,050057,2543.8835,N,08009.7277,W,1,9,1.8,11,M,,M,,*55
05/28/2014	05:00:57.640	$GPGGA,050058,2543.8835,N,08009.7277,W,1,9,1.8,11,M,,M,,*5A
05/28/2014	05:00:58.652	$GPGGA,050059,2543.8835,N,08009.7277,W,1,9,1.8,11,M,,M,,*5B
05/28/2014	05:00:59.645	$GPGGA,050100,2543.8835,N,08009.7277,W,1,9,1.8,11,M,,M,,*56
05/28/2014	05:01:00.627	$GPGGA,050101,2543.8835,N,08009.7277,W,1,9,1.8,11,M,,M,,*57
05/28/2014	05:01:01.640	$GPGGA,050102,2543.8835,N,08009.7277,W,1,9,1.8,11,M,,M,,*54
05/28/2014	05:01:02.663	$GPGGA,050103,2543.8835,N,08009.7277,W,1,9,1.8,11,M,,M,,*55
05/28/2014	05:01:03.655	$GPGGA,050104,2543.8835,N,08009.7277,W,1,9,1.8,11,M,,M,,*52
05/28/2014	05:01:04.629	$GPGGA,050105,2543.8833,N,08009.7277,W,1,9,1.8,11,M,,M,,*55
05/28/2014	05:01:05.640	$GPGGA,050106,2543.8835,N,08009.7277,W,1,9,1.8,11,M,,M,,*50
05/28/2014	05:01:06.643	$GPGGA,050107,2543.8835,N,08009.7277,W,1,9,1.8,11,M,,M,,*51
05/28/2014	05:01:07.646	$GPGGA,050108,2543.8835,N,08009.7277,W,1,9,1.8,11,M,,M,,*5E
05/28/2014	05:01:08.668	$GPGGA,050109,2543.8835,N,08009.7277,W,1,9,1.8,11,M,,M,,*5F
05/28/2014	05:01:09.632	$GPGGA,050110,2543.8835,N,08009.7277,W,1,9,1.8,11,M,,M,,*57
05/28/2014	05:01:10.644	$GPGGA,050111,2543.8835,N,08009.7277,W,1,9,1.8,11,M,,M,,*56
05/28/2014	05:01:11.655	$GPGGA,050112,2543.8835,N,08009.7277,W,1,9,1.8,11,M,,M,,*55
05/28/2014	05:01:12.638	$GPGGA,050113,2543.8835,N,08009.7277,W,1,9,1.8,11,M,,M,,*54
05/28/2014	05:01:13.650	$GPGGA,050114,2543.8835,N,08009.7279,W,1,9,1.8,11,M,,M,,*5D
05/28/2014	05:01:14.633	$GPGGA,050115,2543.8835,N,08009.7278,W,1,9,1.8,11,M,,M,,*5D
05/28/2014	05:01:15.655	$GPGGA,050116,2543.8835,N,08009.7279,W,1,9,1.8,11,M,,M,,*5F
05/28/2014	05:01:16.648	$GPGGA,050117,2543.8835,N,08009.7277,W,1,9,1.8,11,M,,M,,*50
05/28/2014	05:01:17.641	$GPGGA,050118,2543.8835,N,08009.7277,W,1,9,1.8,11,M,,M,,*5F
05/28/2014	05:01:18.683	$GPGGA,050119,2543.8835,N,08009.7277,W,1,9,1.8,11,M,,M,,*5E
05/28/2014	05:01:19.666	$GPGGA,050120,2543.8835,N,08009.7277,W,1,9,1.8,11,M,,M,,*54
05/28/2014	05:01:20.769	$GPGGA,050121,2543.8835,N,08009.7277,W,1,9,1.8,11,M,,M,,*55
05/28/2014	05:01:21.651	$GPGGA,050122,2543.8835,N,08009.7277,W,1,9,1.8,11,M,,M,,*56
05/28/2014	05:01:22.644	$GPGGA,050123,2543.8837,N,08009.7277,W,1,9,1.8,11,M,,M,,*55
05/28/2014	05:01:23.676	$GPGGA,050124,2543.8836,N,08009.7277,W,1,9,1.8,11,M,,M,,*53
05/28/2014	05:01:24.649	$GPGGA,050125,2543.8837,N,08009.7277,W,1,9,1.8,11,M,,M,,*53
05/28/2014	05:01:25.742	$GPGGA,050126,2543.8836,N,08009.7277,W,1,9,1.8,11,M,,M,,*51
05/28/2014	05:01:26.644	$GPGGA,050127,2543.8837,N,08009.7277,W,1,9,1.8,11,M,,M,,*51
05/28/2014	05:01:27.757	$GPGGA,050128,2543.8836,N,08009.7277,W,1,9,1.8,11,M,,M,,*5F
05/28/2014	05:01:28.748	$GPGGA,050129,2543.8838,N,08009.7277,W,1,9,1.8,11,M,,M,,*50
05/28/2014	05:01:29.661	$GPGGA,050130,2543.8837,N,08009.7277,W,1,9,1.8,11,M,,M,,*57
05/28/2014	05:01:30.644	$GPGGA,050131,2543.8838,N,08009.7277,W,1,9,1.8,11,M,,M,,*59
05/28/2014	05:01:31.786	$GPGGA,050132,2543.8837,N,08009.7277,W,1,9,1.8,11,M,,M,,*55
05/28/2014	05:01:32.779	$GPGGA,050133,2543.8838,N,08009.7277,W,1,9,1.8,11,M,,M,,*5B
05/28/2014	05:01:33.661	$GPGGA,050134,2543.8837,N,08009.7277,W,1,9,1.8,11,M,,M,,*53
05/28/2014	05:01:34.754	$GPGGA,050135,2543.8838,N,08009.7277,W,1,9,1.8,11,M,,M,,*5D
05/28/2014	05:01:35.676	$GPGGA,050136,2543.8837,N,08009.7277,W,1,9,1.8,11,M,,M,,*51
05/28/2014	05:01:36.769	$GPGGA,050137,2543.8838,N,08009.7277,W,1,9,1.8,11,M,,M,,*5F
05/28/2014	05:01:37.661	$GPGGA,050138,2543.8837,N,08009.7277,W,1,9,1.8,11,M,,M,,*5F
05/28/2014	05:01:38.600	$GPGGA,050139,2543.8836,N,08009.7277,W,1,9,1.8,11,M,,M,,*5F
05/28/2014	05:01:39.513	$GPGGA,050140,2543.8837,N,08009.7277,W,1,9,1.8,11,M,,M,,*50
05/28/2014	05:01:40.616	$GPGGA,050141,2543.8836,N,08009.7279,W,1,9,1.8,11,M,,M,,*5E
05/28/2014	05:01:41.598	$GPGGA,050142,2543.8837,N,08009.7278,W,1,9,1.8,11,M,,M,,*5D
05/28/2014	05:01:42.611	$GPGGA,050143,2543.8836,N,08009.7279,W,1,9,1.8,11,M,,M,,*5C
05/28/2014	05:01:43.613	$GPGGA,050144,2543.8837,N,08009.7278,W,1,9,1.8,11,M,,M,,*5B
05/28/2014	05:01:44.616	$GPGGA,050145,2543.8836,N,08009.7279,W,1,9,1.8,11,M,,M,,*5A
05/28/2014	05:01:45.598	$GPGGA,050146,2543.8835,N,08009.7278,W,1,9,1.8,11,M,,M,,*5B
05/28/2014	05:01:46.620	$GPGGA,050147,2543.8835,N,08009.7279,W,1,9,1.8,11,M,,M,,*5B
05/28/2014	05:01:47.623	$GPGGA,050148,2543.8835,N,08009.7277,W,1,9,1.8,11,M,,M,,*5A
05/28/2014	05:01:48.625	$GPGGA,050149,2543.8835,N,08009.7277,W,1,9,1.8,11,M,,M,,*5B
05/28/2014	05:01:49.608	$GPGGA,050150,2543.8835,N,08009.7277,W,1,9,1.8,11,M,,M,,*53
05/28/2014	05:01:50.610	$GPGGA,050151,2543.8835,N,08009.7277,W,1,9,1.8,11,M,,M,,*52
05/28/2014	05:01:51.633	$GPGGA,050152,2543.8835,N,08009.7277,W,1,9,1.8,11,M,,M,,*51
05/28/2014	05:01:52.636	$GPGGA,050153,2543.8835,N,08009.7276,W,1,9,1.8,11,M,,M,,*51
05/28/2014	05:01:53.599	$GPGGA,050154,2543.8835,N,08009.7276,W,1,9,1.8,11,M,,M,,*56
05/28/2014	05:01:54.621	$GPGGA,050155,2543.8835,N,08009.7276,W,1,9,1.8,11,M,,M,,*57
05/28/2014	05:01:55.613	$GPGGA,050156,2543.8835,N,08009.7276,W,1,9,1.8,11,M,,M,,*54
05/28/2014	05:01:56.646	$GPGGA,050157,2543.8835,N,08009.7276,W,1,9,1.8,11,M,,M,,*55
05/28/2014	05:01:57.599	$GPGGA,050158,2543.8835,N,08009.7276,W,1,9,1.8,11,M,,M,,*5A
05/28/2014	05:01:58.601	$GPGGA,050159,2543.8835,N,08009.7276,W,1,9,1.8,11,M,,M,,*5B
05/28/2014	05:01:59.634	$GPGGA,050200,2543.8835,N,08009.7276,W,1,9,1.8,11,M,,M,,*54
05/28/2014	05:02:00.646	$GPGGA,050201,2543.8835,N,08009.7276,W,1,9,1.8,10,M,,M,,*54
05/28/2014	05:02:01.619	$GPGGA,050202,2543.8835,N,08009.7276,W,1,9,1.8,10,M,,M,,*57
05/28/2014	05:02:02.632	$GPGGA,050203,2543.8835,N,08009.7275,W,1,9,1.8,10,M,,M,,*55
05/28/2014	05:02:03.624	$GPGGA,050204,2543.8835,N,08009.7276,W,1,9,1.8,10,M,,M,,*51
05/28/2014	05:02:04.626	$GPGGA,050205,2543.8833,N,08009.7275,W,1,9,1.8,10,M,,M,,*55
05/28/2014	05:02:05.608	$GPGGA,050206,2543.8834,N,08009.7276,W,1,9,1.8,10,M,,M,,*52
05/28/2014	05:02:06.611	$GPGGA,050207,2543.8833,N,08009.7276,W,1,9,1.8,10,M,,M,,*54
05/28/2014	05:02:07.745	$GPGGA,050208,2543.8834,N,08009.7275,W,1,9,1.8,10,M,,M,,*5F
05/28/2014	05:02:08.626	$GPGGA,050209,2543.8833,N,08009.7276,W,1,9,1.8,10,M,,M,,*5A
05/28/2014	05:02:09.609	$GPGGA,050210,2543.8834,N,08009.7275,W,1,9,1.8,10,M,,M,,*56
05/28/2014	05:02:10.621	$GPGGA,050211,2543.8833,N,08009.7276,W,1,9,1.8,10,M,,M,,*53
05/28/2014	05:02:11.734	$GPGGA,050212,2543.8834,N,08009.7275,W,1,9,1.8,10,M,,M,,*54
05/28/2014	05:02:12.637	$GPGGA,050213,2543.8833,N,08009.7276,W,1,9,1.8,10,M,,M,,*51
05/28/2014	05:02:13.729	$GPGGA,050214,2543.8834,N,08009.7275,W,1,9,1.8,10,M,,M,,*52
05/28/2014	05:02:14.632	$GPGGA,050215,2543.8833,N,08009.7274,W,1,9,1.8,10,M,,M,,*55
05/28/2014	05:02:15.746	$GPGGA,050216,2543.8834,N,08009.7274,W,1,9,1.8,10,M,,M,,*51
05/28/2014	05:02:16.637	$GPGGA,050217,2543.8833,N,08009.7274,W,1,9,1.8,10,M,,M,,*57
05/28/2014	05:02:17.720	$GPGGA,050218,2543.8834,N,08009.7274,W,1,9,1.8,10,M,,M,,*5F
05/28/2014	05:02:18.742	$GPGGA,050219,2543.8833,N,08009.7274,W,1,9,1.8,11,M,,M,,*58
05/28/2014	05:02:19.735	$GPGGA,050220,2543.8834,N,08009.7274,W,1,9,1.8,11,M,,M,,*55
05/28/2014	05:02:20.758	$GPGGA,050221,2543.8833,N,08009.7274,W,1,9,1.8,11,M,,M,,*53
05/28/2014	05:02:21.719	$GPGGA,050222,2543.8834,N,08009.7274,W,1,9,1.8,11,M,,M,,*57
05/28/2014	05:02:22.762	$GPGGA,050223,2543.8835,N,08009.7274,W,1,9,1.8,11,M,,M,,*57
05/28/2014	05:02:23.734	$GPGGA,050224,2543.8835,N,08009.7273,W,1,9,1.8,11,M,,M,,*57
05/28/2014	05:02:24.748	$GPGGA,050225,2543.8835,N,08009.7273,W,1,9,1.8,11,M,,M,,*56
05/28/2014	05:02:25.720	$GPGGA,050226,2543.8835,N,08009.7273,W,1,9,1.8,11,M,,M,,*55
05/28/2014	05:02:26.732	$GPGGA,050227,2543.8835,N,08009.7273,W,1,9,1.8,11,M,,M,,*54
05/28/2014	05:02:27.735	$GPGGA,050228,2543.8835,N,08009.7274,W,1,9,1.8,11,M,,M,,*5C
05/28/2014	05:02:28.747	$GPGGA,050229,2543.8835,N,08009.7273,W,1,9,1.8,11,M,,M,,*5A
05/28/2014	05:02:29.730	$GPGGA,050230,2543.8835,N,08009.7273,W,1,9,1.8,11,M,,M,,*52
05/28/2014	05:02:30.743	$GPGGA,050231,2543.8835,N,08009.7273,W,1,9,1.8,11,M,,M,,*53
05/28/2014	05:02:31.745	$GPGGA,050232,2543.8835,N,08009.7273,W,1,9,1.8,11,M,,M,,*50
05/28/2014	05:02:32.758	$GPGGA,050233,2543.8835,N,08009.7273,W,1,9,1.8,11,M,,M,,*51
05/28/2014	05:02:33.730	$GPGGA,050234,2543.8835,N,08009.7273,W,1,9,1.8,11,M,,M,,*56
05/28/2014	05:02:34.723	$GPGGA,050235,2543.8835,N,08009.7273,W,1,9,1.8,11,M,,M,,*57
05/28/2014	05:02:35.746	$GPGGA,050236,2543.8835,N,08009.7273,W,1,9,1.8,11,M,,M,,*54
05/28/2014	05:02:36.759	$GPGGA,050237,2543.8835,N,08009.7273,W,1,9,1.8,11,M,,M,,*55
05/28/2014	05:02:37.731	$GPGGA,050238,2543.8835,N,08009.7273,W,1,9,1.8,11,M,,M,,*5A
05/28/2014	05:02:38.597	$GPGGA,050239,2543.8835,N,08009.7273,W,1,9,1.8,11,M,,M,,*5B
05/28/2014	05:02:39.590	$GPGGA,050240,2543.8835,N,08009.7273,W,1,9,1.8,11,M,,M,,*55
05/28/2014	05:02:40.603	$GPGGA,050241,2543.8835,N,08009.7273,W,1,9,1.8,11,M,,M,,*54
05/28/2014	05:02:41.585	$GPGGA,050242,2543.8835,N,08009.7273,W,1,9,1.8,11,M,,M,,*57
05/28/2014	05:02:42.588	$GPGGA,050243,2543.8835,N,08009.7273,W,1,9,1.8,11,M,,M,,*56
05/28/2014	05:02:43.590	$GPGGA,050244,2543.8835,N,08009.7273,W,1,9,1.8,11,M,,M,,*51
05/28/2014	05:02:44.573	$GPGGA,050245,2543.8835,N,08009.7273,W,1,9,1.8,11,M,,M,,*50
05/28/2014	05:02:45.587	$GPGGA,050246,2543.8835,N,08009.7273,W,1,9,1.8,11,M,,M,,*53
05/28/2014	05:02:46.618	$GPGGA,050247,2543.8835,N,08009.7273,W,1,9,1.8,11,M,,M,,*52
05/28/2014	05:02:47.611	$GPGGA,050248,2543.8835,N,08009.7273,W,1,9,1.8,12,M,,M,,*5E
05/28/2014	05:02:48.583	$GPGGA,050249,2543.8835,N,08009.7273,W,1,9,1.8,12,M,,M,,*5F
05/28/2014	05:02:49.596	$GPGGA,050250,2543.8837,N,08009.7273,W,1,9,1.8,12,M,,M,,*55
05/28/2014	05:02:50.608	$GPGGA,050251,2543.8835,N,08009.7273,W,1,9,1.8,12,M,,M,,*56
05/28/2014	05:02:51.601	$GPGGA,050252,2543.8835,N,08009.7273,W,1,9,1.8,12,M,,M,,*55
05/28/2014	05:02:52.634	$GPGGA,050253,2543.8837,N,08009.7273,W,1,9,1.8,12,M,,M,,*56
05/28/2014	05:02:53.596	$GPGGA,050254,2543.8836,N,08009.7273,W,1,9,1.8,12,M,,M,,*50
05/28/2014	05:02:54.619	$GPGGA,050255,2543.8837,N,08009.7273,W,1,9,1.8,12,M,,M,,*50
05/28/2014	05:02:55.602	$GPGGA,050256,2543.8836,N,08009.7273,W,1,9,1.8,12,M,,M,,*52
05/28/2014	05:02:56.613	$GPGGA,050257,2543.8838,N,08009.7273,W,1,9,1.8,12,M,,M,,*5D
05/28/2014	05:02:57.676	$GPGGA,050258,2543.8837,N,08009.7274,W,1,9,1.8,12,M,,M,,*5A
05/28/2014	05:02:58.618	$GPGGA,050259,2543.8838,N,08009.7274,W,1,9,1.8,12,M,,M,,*54
05/28/2014	05:02:59.631	$GPGGA,050300,2543.8837,N,08009.7274,W,1,9,1.8,12,M,,M,,*56
05/28/2014	05:03:00.623	$GPGGA,050301,2543.8839,N,08009.7274,W,1,9,1.8,12,M,,M,,*59
05/28/2014	05:03:01.606	$GPGGA,050302,2543.8839,N,08009.7274,W,1,9,1.8,12,M,,M,,*5A
05/28/2014	05:03:02.619	$GPGGA,050303,2543.8839,N,08009.7274,W,1,9,1.8,12,M,,M,,*5B
05/28/2014	05:03:03.601	$GPGGA,050304,2543.8839,N,08009.7274,W,1,9,1.8,12,M,,M,,*5C
05/28/2014	05:03:04.604	$GPGGA,050305,2543.8839,N,08009.7274,W,1,9,1.8,12,M,,M,,*5D
05/28/2014	05:03:05.687	$GPGGA,050306,2543.8839,N,08009.7274,W,1,9,1.8,12,M,,M,,*5E
05/28/2014	05:03:06.619	$GPGGA,050307,2543.8839,N,08009.7274,W,1,9,1.8,12,M,,M,,*5F
05/28/2014	05:03:07.692	$GPGGA,050308,2543.8839,N,08009.7274,W,1,9,1.8,12,M,,M,,*50
05/28/2014	05:03:08.704	$GPGGA,050309,2543.8839,N,08009.7273,W,1,9,1.8,12,M,,M,,*56
05/28/2014	05:03:09.687	$GPGGA,050310,2543.8837,N,08009.7273,W,1,9,1.8,12,M,,M,,*50
05/28/2014	05:03:10.690	$GPGGA,050311,2543.8838,N,08009.7273,W,1,9,1.8,12,M,,M,,*5E
05/28/2014	05:03:11.633	$GPGGA,050312,2543.8837,N,08009.7273,W,1,9,1.8,12,M,,M,,*52
05/28/2014	05:03:12.695	$GPGGA,050313,2543.8838,N,08009.7273,W,1,9,1.8,12,M,,M,,*5C
05/28/2014	05:03:13.706	$GPGGA,050314,2543.8837,N,08009.7273,W,1,9,1.8,12,M,,M,,*54
05/28/2014	05:03:14.730	$GPGGA,050315,2543.8838,N,08009.7273,W,1,9,1.8,12,M,,M,,*5A
05/28/2014	05:03:15.722	$GPGGA,050316,2543.8837,N,08009.7273,W,1,9,1.8,12,M,,M,,*56
05/28/2014	05:03:16.714	$GPGGA,050317,2543.8838,N,08009.7273,W,1,9,1.8,12,M,,M,,*58
05/28/2014	05:03:17.697	$GPGGA,050318,2543.8837,N,08009.7273,W,1,9,1.8,12,M,,M,,*58
05/28/2014	05:03:18.699	$GPGGA,050319,2543.8838,N,08009.7273,W,1,9,1.8,13,M,,M,,*57
05/28/2014	05:03:19.712	$GPGGA,050320,2543.8837,N,08009.7273,W,1,9,1.8,13,M,,M,,*52
05/28/2014	05:03:20.694	$GPGGA,050321,2543.8838,N,08009.7273,W,1,9,1.8,13,M,,M,,*5C
05/28/2014	05:03:21.697	$GPGGA,050322,2543.8839,N,08009.7273,W,1,9,1.8,13,M,,M,,*5E
05/28/2014	05:03:22.700	$GPGGA,050323,2543.8839,N,08009.7273,W,1,9,1.8,13,M,,M,,*5F
05/28/2014	05:03:23.712	$GPGGA,050324,2543.8839,N,08009.7273,W,1,9,1.8,13,M,,M,,*58
05/28/2014	05:03:24.715	$GPGGA,050325,2543.8839,N,08009.7273,W,1,9,1.8,13,M,,M,,*59
05/28/2014	05:03:25.707	$GPGGA,050326,2543.8839,N,08009.7273,W,1,9,1.8,13,M,,M,,*5A
05/28/2014	05:03:26.710	$GPGGA,050327,2543.8839,N,08009.7273,W,1,9,1.8,13,M,,M,,*5B
05/28/2014	05:03:27.723	$GPGGA,050328,2543.8839,N,08009.7273,W,1,9,1.8,13,M,,M,,*54
05/28/2014	05:03:28.695	$GPGGA,050329,2543.8839,N,08009.7273,W,1,9,1.8,13,M,,M,,*55
05/28/2014	05:03:29.708	$GPGGA,050330,2543.8839,N,08009.7273,W,1,9,1.8,13,M,,M,,*5D
05/28/2014	05:03:30.720	$GPGGA,050331,2543.8839,N,08009.7273,W,1,9,1.8,13,M,,M,,*5C
05/28/2014	05:03:31.722	$GPGGA,050332,2543.8839,N,08009.7272,W,1,9,1.8,13,M,,M,,*5E
05/28/2014	05:03:32.735	$GPGGA,050333,2543.8839,N,08009.7272,W,1,9,1.8,13,M,,M,,*5F
05/28/2014	05:03:33.717	$GPGGA,050334,2543.8839,N,08009.7272,W,1,9,1.8,13,M,,M,,*58
05/28/2014	05:03:34.700	$GPGGA,050335,2543.8839,N,08009.7272,W,1,9,1.8,13,M,,M,,*59
05/28/2014	05:03:35.722	$GPGGA,050336,2543.8839,N,08009.7272,W,1,9,1.8,13,M,,M,,*5A
05/28/2014	05:03:36.745	$GPGGA,050337,2543.8839,N,08009.7272,W,1,9,1.8,13,M,,M,,*5B
05/28/2014	05:03:37.698	$GPGGA,050338,2543.8839,N,08009.7272,W,1,9,1.8,13,M,,M,,*54
05/28/2014	05:03:38.565	$GPGGA,050339,2543.8839,N,08009.7272,W,1,9,1.8,13,M,,M,,*55
05/28/2014	05:03:39.688	$GPGGA,050340,2543.8839,N,08009.7272,W,1,9,1.8,13,M,,M,,*5B
05/28/2014	05:03:40.580	$GPGGA,050341,2543.8839,N,08009.7272,W,1,9,1.8,14,M,,M,,*5D
05/28/2014	05:03:41.563	$GPGGA,050342,2543.8839,N,08009.7272,W,1,9,1.8,14,M,,M,,*5E
05/28/2014	05:03:42.566	$GPGGA,050343,2543.8839,N,08009.7272,W,1,9,1.8,14,M,,M,,*5F
05/28/2014	05:03:43.578	$GPGGA,050344,2543.8839,N,08009.7272,W,1,9,1.8,14,M,,M,,*58
05/28/2014	05:03:44.571	$GPGGA,050345,2543.8839,N,08009.7272,W,1,9,1.8,14,M,,M,,*59
05/28/2014	05:03:45.543	$GPGGA,050346,2543.8839,N,08009.7272,W,1,9,1.8,14,M,,M,,*5A
05/28/2014	05:03:46.676	$GPGGA,050347,2543.8839,N,08009.7271,W,1,9,1.8,14,M,,M,,*58
05/28/2014	05:03:47.569	$GPGGA,050348,2543.8839,N,08009.7272,W,1,9,1.8,14,M,,M,,*54
05/28/2014	05:03:48.660	$GPGGA,050349,2543.8839,N,08009.7271,W,1,9,1.8,14,M,,M,,*56
05/28/2014	05:03:49.563	$GPGGA,050350,2543.8839,N,08009.7272,W,1,9,1.8,14,M,,M,,*5D
05/28/2014	05:03:50.565	$GPGGA,050351,2543.8839,N,08009.7271,W,1,9,1.8,14,M,,M,,*5F
05/28/2014	05:03:51.688	$GPGGA,050352,2543.8839,N,08009.7272,W,1,9,1.8,14,M,,M,,*5F
05/28/2014	05:03:52.701	$GPGGA,050353,2543.8839,N,08009.7271,W,1,9,1.8,14,M,,M,,*5D
05/28/2014	05:03:53.563	$GPGGA,050354,2543.8839,N,08009.7272,W,1,9,1.8,14,M,,M,,*59
05/28/2014	05:03:54.576	$GPGGA,050355,2543.8839,N,08009.7271,W,1,9,1.8,14,M,,M,,*5B
05/28/2014	05:03:55.669	$GPGGA,050356,2543.8839,N,08009.7270,W,1,9,1.8,15,M,,M,,*58
05/28/2014	05:03:56.691	$GPGGA,050357,2543.8839,N,08009.7270,W,1,9,1.8,15,M,,M,,*59
05/28/2014	05:03:57.664	$GPGGA,050358,2543.8839,N,08009.7270,W,1,9,1.8,15,M,,M,,*56
05/28/2014	05:03:58.666	$GPGGA,050359,2543.8839,N,08009.7270,W,1,9,1.8,15,M,,M,,*57
05/28/2014	05:03:59.689	$GPGGA,050400,2543.8839,N,08009.7270,W,1,9,1.8,15,M,,M,,*5C
05/28/2014	05:04:00.692	$GPGGA,050401,2543.8839,N,08009.7270,W,1,9,1.8,15,M,,M,,*5D
05/28/2014	05:04:01.664	$GPGGA,050402,2543.8837,N,08009.7269,W,1,9,1.8,15,M,,M,,*58
05/28/2014	05:04:02.657	$GPGGA,050403,2543.8838,N,08009.7269,W,1,9,1.8,15,M,,M,,*56
05/28/2014	05:04:03.679	$GPGGA,050404,2543.8837,N,08009.7269,W,1,9,1.8,15,M,,M,,*5E
05/28/2014	05:04:04.662	$GPGGA,050405,2543.8838,N,08009.7269,W,1,9,1.8,15,M,,M,,*50
05/28/2014	05:04:05.674	$GPGGA,050406,2543.8837,N,08009.7269,W,1,9,1.8,15,M,,M,,*5C
05/28/2014	05:04:06.676	$GPGGA,050407,2543.8838,N,08009.7269,W,1,9,1.8,15,M,,M,,*52
05/28/2014	05:04:07.679	$GPGGA,050408,2543.8836,N,08009.7269,W,1,9,1.8,15,M,,M,,*53
05/28/2014	05:04:08.661	$GPGGA,050409,2543.8837,N,08009.7269,W,1,9,1.8,15,M,,M,,*53
05/28/2014	05:04:09.674	$GPGGA,050410,2543.8836,N,08009.7269,W,1,9,1.8,15,M,,M,,*5A
05/28/2014	05:04:10.698	$GPGGA,050411,2543.8837,N,08009.7269,W,1,9,1.8,15,M,,M,,*5A
05/28/2014	05:04:11.689	$GPGGA,050412,2543.8836,N,08009.7269,W,1,9,1.8,15,M,,M,,*58
05/28/2014	05:04:12.682	$GPGGA,050413,2543.8837,N,08009.7268,W,1,9,1.8,15,M,,M,,*59
05/28/2014	05:04:13.674	$GPGGA,050414,2543.8835,N,08009.7269,W,1,9,1.8,15,M,,M,,*5D
05/28/2014	05:04:14.707	$GPGGA,050415,2543.8835,N,08009.7268,W,1,9,1.8,15,M,,M,,*5D
05/28/2014	05:04:17.083	$GPGGA,050417,2543.8835,N,08009.7268,W,1,9,1.8,16,M,,M,,*5C
05/28/2014	05:04:17.675	$GPGGA,050418,2543.8835,N,08009.7269,W,1,9,1.8,16,M,,M,,*52
05/28/2014	05:04:18.688	$GPGGA,050419,2543.8835,N,08009.7269,W,1,9,1.8,16,M,,M,,*53
05/28/2014	05:04:19.690	$GPGGA,050420,2543.8835,N,08009.7269,W,1,9,1.8,16,M,,M,,*59
05/28/2014	05:04:20.672	$GPGGA,050421,2543.8835,N,08009.7270,W,1,9,1.8,16,M,,M,,*50
05/28/2014	05:04:21.675	$GPGGA,050422,2543.8835,N,08009.7270,W,1,9,1.8,16,M,,M,,*53
05/28/2014	05:04:22.718	$GPGGA,050423,2543.8835,N,08009.7270,W,1,9,1.8,16,M,,M,,*52
05/28/2014	05:04:23.689	$GPGGA,050424,2543.8835,N,08009.7270,W,1,9,1.8,16,M,,M,,*55
05/28/2014	05:04:24.682	$GPGGA,050425,2543.8835,N,08009.7270,W,1,9,1.8,16,M,,M,,*54
05/28/2014	05:04:25.674	$GPGGA,050426,2543.8835,N,08009.7270,W,1,9,1.8,16,M,,M,,*57
05/28/2014	05:04:26.667	$GPGGA,050427,2543.8835,N,08009.7270,W,1,9,1.8,16,M,,M,,*56
05/28/2014	05:04:27.700	$GPGGA,050428,2543.8835,N,08009.7270,W,1,9,1.8,16,M,,M,,*59
05/28/2014	05:04:28.682	$GPGGA,050429,2543.8835,N,08009.7270,W,1,9,1.8,16,M,,M,,*58
05/28/2014	05:04:29.685	$GPGGA,050430,2543.8835,N,08009.7272,W,1,9,1.8,16,M,,M,,*52
05/28/2014	05:04:30.707	$GPGGA,050431,2543.8835,N,08009.7271,W,1,9,1.8,16,M,,M,,*50
05/28/2014	05:04:31.700	$GPGGA,050432,2543.8835,N,08009.7272,W,1,9,1.8,16,M,,M,,*50
05/28/2014	05:04:32.703	$GPGGA,050433,2543.8835,N,08009.7271,W,1,9,1.8,16,M,,M,,*52
05/28/2014	05:04:33.675	$GPGGA,050434,2543.8835,N,08009.7272,W,1,9,1.8,16,M,,M,,*56
05/28/2014	05:04:34.688	$GPGGA,050435,2543.8835,N,08009.7271,W,1,9,1.8,16,M,,M,,*54
05/28/2014	05:04:35.811	$GPGGA,050436,2543.8835,N,08009.7272,W,1,9,1.8,16,M,,M,,*54
05/28/2014	05:04:36.684	$GPGGA,050437,2543.8835,N,08009.7271,W,1,9,1.8,16,M,,M,,*56
05/28/2014	05:04:37.796	$GPGGA,050438,2543.8835,N,08009.7272,W,1,9,1.8,16,M,,M,,*5A
05/28/2014	05:04:38.624	$GPGGA,050439,2543.8835,N,08009.7271,W,1,9,1.8,16,M,,M,,*58
05/28/2014	05:04:39.557	$GPGGA,050440,2543.8835,N,08009.7272,W,1,9,1.8,16,M,,M,,*55
05/28/2014	05:04:40.538	$GPGGA,050441,2543.8835,N,08009.7272,W,1,9,1.8,16,M,,M,,*54
05/28/2014	05:04:41.621	$GPGGA,050442,2543.8835,N,08009.7272,W,1,9,1.8,16,M,,M,,*57
05/28/2014	05:04:42.534	$GPGGA,050443,2543.8835,N,08009.7272,W,1,9,1.8,16,M,,M,,*56
05/28/2014	05:04:43.646	$GPGGA,050444,2543.8835,N,08009.7272,W,1,9,1.8,16,M,,M,,*51
05/28/2014	05:04:44.670	$GPGGA,050445,2543.8835,N,08009.7272,W,1,9,1.8,16,M,,M,,*50
05/28/2014	05:04:45.622	$GPGGA,050446,2543.8835,N,08009.7272,W,1,9,1.8,16,M,,M,,*53
05/28/2014	05:04:46.654	$GPGGA,050447,2543.8835,N,08009.7272,W,1,9,1.8,16,M,,M,,*52
05/28/2014	05:04:47.547	$GPGGA,050448,2543.8835,N,08009.7272,W,1,9,1.8,16,M,,M,,*5D
05/28/2014	05:04:48.640	$GPGGA,050449,2543.8835,N,08009.7272,W,1,9,1.8,16,M,,M,,*5C
05/28/2014	05:04:49.632	$GPGGA,050450,2543.8835,N,08009.7272,W,1,9,1.8,16,M,,M,,*54
05/28/2014	05:04:50.665	$GPGGA,050451,2543.8835,N,08009.7272,W,1,9,1.8,16,M,,M,,*55
05/28/2014	05:04:51.637	$GPGGA,050452,2543.8835,N,08009.7272,W,1,9,1.8,16,M,,M,,*56
05/28/2014	05:04:52.661	$GPGGA,050453,2543.8835,N,08009.7272,W,1,9,1.8,16,M,,M,,*57
05/28/2014	05:04:53.642	$GPGGA,050454,2543.8835,N,08009.7272,W,1,9,1.8,16,M,,M,,*50
05/28/2014	05:04:54.645	$GPGGA,050455,2543.8835,N,08009.7272,W,1,9,1.8,16,M,,M,,*51
05/28/2014	05:04:55.668	$GPGGA,050456,2543.8835,N,08009.7272,W,1,9,1.8,16,M,,M,,*52
05/28/2014	05:04:56.660	$GPGGA,050457,2543.8835,N,08009.7272,W,1,9,1.8,16,M,,M,,*53
05/28/2014	05:04:57.644	$GPGGA,050458,2543.8835,N,08009.7272,W,1,9,1.8,16,M,,M,,*5C
05/28/2014	05:04:58.654	$GPGGA,050459,2543.8835,N,08009.7273,W,1,9,1.8,16,M,,M,,*5C
05/28/2014	05:04:59.667	$GPGGA,050500,2543.8835,N,08009.7272,W,1,9,1.8,16,M,,M,,*50
05/28/2014	05:05:00.639	$GPGGA,050501,2543.8835,N,08009.7272,W,1,9,1.8,16,M,,M,,*51
05/28/2014	05:05:01.632	$GPGGA,050502,2543.8835,N,08009.7272,W,1,9,1.8,16,M,,M,,*52
05/28/2014	05:05:02.645	$GPGGA,050503,2543.8835,N,08009.7273,W,1,9,1.8,16,M,,M,,*52
05/28/2014	05:05:03.657	$GPGGA,050504,2543.8835,N,08009.7273,W,1,9,1.8,16,M,,M,,*55
05/28/2014	05:05:04.660	$GPGGA,050505,2543.8835,N,08009.7273,W,1,9,1.8,16,M,,M,,*54
05/28/2014	05:05:05.642	$GPGGA,050506,2543.8835,N,08009.7272,W,1,9,1.8,16,M,,M,,*56
05/28/2014	05:05:06.665	$GPGGA,050507,2543.8835,N,08009.7273,W,1,9,1.8,16,M,,M,,*56
05/28/2014	05:05:07.658	$GPGGA,050508,2543.8833,N,08009.7272,W,1,9,1.8,16,M,,M,,*5E
05/28/2014	05:05:08.670	$GPGGA,050509,2543.8834,N,08009.7272,W,1,9,1.8,16,M,,M,,*58
05/28/2014	05:05:09.643	$GPGGA,050510,2543.8833,N,08009.7272,W,1,9,1.8,16,M,,M,,*57
05/28/2014	05:05:10.646	$GPGGA,050511,2543.8832,N,08009.7272,W,1,9,1.8,16,M,,M,,*57
05/28/2014	05:05:11.668	$GPGGA,050512,2543.8833,N,08009.7272,W,1,9,1.8,16,M,,M,,*55
05/28/2014	05:05:12.651	$GPGGA,050513,2543.8832,N,08009.7273,W,1,9,1.8,16,M,,M,,*54
05/28/2014	05:05:13.653	$GPGGA,050514,2543.8831,N,08009.7273,W,1,9,1.8,16,M,,M,,*50
05/28/2014	05:05:14.636	$GPGGA,050515,2543.8831,N,08009.7273,W,1,9,1.8,16,M,,M,,*51
05/28/2014	05:05:15.667	$GPGGA,050516,2543.8831,N,08009.7273,W,1,9,1.8,16,M,,M,,*52
05/28/2014	05:05:16.690	$GPGGA,050517,2543.8831,N,08009.7273,W,1,9,1.8,16,M,,M,,*53
05/28/2014	05:05:17.643	$GPGGA,050518,2543.8831,N,08009.7274,W,1,9,1.8,16,M,,M,,*5B
05/28/2014	05:05:18.665	$GPGGA,050519,2543.8831,N,08009.7273,W,1,9,1.8,16,M,,M,,*5D
05/28/2014	05:05:19.658	$GPGGA,050520,2543.8830,N,08009.7274,W,1,9,1.8,16,M,,M,,*51
05/28/2014	05:05:20.811	$GPGGA,050521,2543.8831,N,08009.7274,W,1,9,1.8,16,M,,M,,*51
05/28/2014	05:05:21.644	$GPGGA,050522,2543.8830,N,08009.7274,W,1,9,1.8,16,M,,M,,*53
05/28/2014	05:05:22.656	$GPGGA,050523,2543.8829,N,08009.7274,W,1,9,1.8,16,M,,M,,*5A
05/28/2014	05:05:23.658	$GPGGA,050524,2543.8830,N,08009.7273,W,1,9,1.8,16,M,,M,,*52
05/28/2014	05:05:24.741	$GPGGA,050525,2543.8829,N,08009.7274,W,1,9,1.8,16,M,,M,,*5C
05/28/2014	05:05:25.744	$GPGGA,050526,2543.8830,N,08009.7273,W,1,9,1.8,16,M,,M,,*50
05/28/2014	05:05:26.746	$GPGGA,050527,2543.8829,N,08009.7273,W,1,9,1.8,16,M,,M,,*59
05/28/2014	05:05:27.660	$GPGGA,050528,2543.8830,N,08009.7273,W,1,9,1.8,16,M,,M,,*5E
05/28/2014	05:05:28.771	$GPGGA,050529,2543.8829,N,08009.7273,W,1,9,1.8,16,M,,M,,*57
05/28/2014	05:05:29.654	$GPGGA,050530,2543.8830,N,08009.7273,W,1,9,1.8,16,M,,M,,*57
05/28/2014	05:05:30.747	$GPGGA,050531,2543.8829,N,08009.7273,W,1,9,1.8,16,M,,M,,*5E
05/28/2014	05:05:31.839	$GPGGA,050532,2543.8830,N,08009.7273,W,1,9,1.8,15,M,,M,,*56
05/28/2014	05:05:32.663	$GPGGA,050533,2543.8829,N,08009.7273,W,1,9,1.8,15,M,,M,,*5F
05/28/2014	05:05:33.824	$GPGGA,050534,2543.8830,N,08009.7273,W,1,9,1.8,15,M,,M,,*50
05/28/2014	05:05:34.656	$GPGGA,050535,2543.8829,N,08009.7274,W,1,9,1.8,15,M,,M,,*5E
05/28/2014	05:05:35.668	$GPGGA,050536,2543.8830,N,08009.7274,W,1,9,1.8,15,M,,M,,*55
05/28/2014	05:05:36.841	$GPGGA,050537,2543.8829,N,08009.7274,W,1,9,1.8,15,M,,M,,*5C
05/28/2014	05:05:37.824	$GPGGA,050538,2543.8830,N,08009.7274,W,1,9,1.8,15,M,,M,,*5B
05/28/2014	05:05:38.501	$GPGGA,050539,2543.8829,N,08009.7274,W,1,9,1.8,15,M,,M,,*52
05/28/2014	05:05:39.684	$GPGGA,050540,2543.8830,N,08009.7276,W,1,9,1.8,15,M,,M,,*56
05/28/2014	05:05:40.518	$GPGGA,050541,2543.8829,N,08009.7275,W,1,9,1.8,15,M,,M,,*5C
05/28/2014	05:05:41.679	$GPGGA,050542,2543.8830,N,08009.7276,W,1,9,1.8,15,M,,M,,*54
05/28/2014	05:05:42.652	$GPGGA,050543,2543.8829,N,08009.7275,W,1,9,1.8,15,M,,M,,*5E
05/28/2014	05:05:43.685	$GPGGA,050544,2543.8830,N,08009.7276,W,1,9,1.8,15,M,,M,,*52
05/28/2014	05:05:44.647	$GPGGA,050545,2543.8829,N,08009.7276,W,1,9,1.8,15,M,,M,,*5B
05/28/2014	05:05:45.660	$GPGGA,050546,2543.8830,N,08009.7276,W,1,9,1.8,14,M,,M,,*51
05/28/2014	05:05:46.652	$GPGGA,050547,2543.8829,N,08009.7276,W,1,9,1.8,14,M,,M,,*58
05/28/2014	05:05:47.695	$GPGGA,050548,2543.8830,N,08009.7276,W,1,9,1.8,14,M,,M,,*5F
05/28/2014	05:05:48.647	$GPGGA,050549,2543.8831,N,08009.7276,W,1,9,1.8,14,M,,M,,*5F
05/28/2014	05:05:49.680	$GPGGA,050550,2543.8830,N,08009.7276,W,1,9,1.8,14,M,,M,,*56
05/28/2014	05:05:50.652	$GPGGA,050551,2543.8831,N,08009.7276,W,1,9,1.8,14,M,,M,,*56
05/28/2014	05:05:51.674	$GPGGA,050552,2543.8830,N,08009.7276,W,1,9,1.8,14,M,,M,,*54
05/28/2014	05:05:52.607	$GPGGA,050553,2543.8831,N,08009.7276,W,1,9,1.8,14,M,,M,,*54
05/28/2014	05:05:53.669	$GPGGA,050554,2543.8830,N,08009.7276,W,1,9,1.8,14,M,,M,,*52
05/28/2014	05:05:54.663	$GPGGA,050555,2543.8831,N,08009.7276,W,1,9,1.8,14,M,,M,,*52
05/28/2014	05:05:55.675	$GPGGA,050556,2543.8830,N,08009.7276,W,1,9,1.8,14,M,,M,,*50
05/28/2014	05:05:56.667	$GPGGA,050557,2543.8831,N,08009.7276,W,1,9,1.8,14,M,,M,,*50
05/28/2014	05:05:57.670	$GPGGA,050558,2543.8830,N,08009.7277,W,1,9,1.8,14,M,,M,,*5F
05/28/2014	05:05:58.613	$GPGGA,050559,2543.8831,N,08009.7277,W,1,9,1.8,14,M,,M,,*5F
05/28/2014	05:05:59.716	$GPGGA,050600,2543.8830,N,08009.7277,W,1,9,1.8,14,M,,M,,*51
05/28/2014	05:06:00.608	$GPGGA,050601,2543.8831,N,08009.7277,W,1,9,1.8,14,M,,M,,*51
05/28/2014	05:06:01.670	$GPGGA,050602,2543.8830,N,08009.7279,W,1,9,1.8,14,M,,M,,*5D
05/28/2014	05:06:02.613	$GPGGA,050603,2543.8831,N,08009.7277,W,1,9,1.8,14,M,,M,,*53
05/28/2014	05:06:03.685	$GPGGA,050604,2543.8831,N,08009.7277,W,1,9,1.8,14,M,,M,,*54
05/28/2014	05:06:04.658	$GPGGA,050605,2543.8831,N,08009.7279,W,1,9,1.8,14,M,,M,,*5B
05/28/2014	05:06:05.681	$GPGGA,050606,2543.8831,N,08009.7278,W,1,9,1.8,14,M,,M,,*59
05/28/2014	05:06:06.653	$GPGGA,050607,2543.8831,N,08009.7279,W,1,9,1.8,14,M,,M,,*59
05/28/2014	05:06:07.686	$GPGGA,050608,2543.8833,N,08009.7278,W,1,9,1.8,14,M,,M,,*55
05/28/2014	05:06:08.707	$GPGGA,050609,2543.8832,N,08009.7279,W,1,9,1.8,14,M,,M,,*54
05/28/2014	05:06:09.680	$GPGGA,050610,2543.8833,N,08009.7280,W,1,9,1.8,14,M,,M,,*5B
05/28/2014	05:06:10.735	$GPGGA,050611,2543.8832,N,08009.7278,W,1,9,1.8,14,M,,M,,*5C
05/28/2014	05:06:11.685	$GPGGA,050612,2543.8834,N,08009.7279,W,1,9,1.8,14,M,,M,,*58
05/28/2014	05:06:12.678	$GPGGA,050613,2543.8833,N,08009.7278,W,1,9,1.8,14,M,,M,,*5F
05/28/2014	05:06:13.680	$GPGGA,050614,2543.8834,N,08009.7279,W,1,9,1.8,14,M,,M,,*5E
05/28/2014	05:06:14.734	$GPGGA,050615,2543.8833,N,08009.7278,W,1,9,1.8,13,M,,M,,*5E
05/28/2014	05:06:15.756	$GPGGA,050616,2543.8834,N,08009.7279,W,1,9,1.8,13,M,,M,,*5B
05/28/2014	05:06:16.688	$GPGGA,050617,2543.8833,N,08009.7278,W,1,9,1.8,13,M,,M,,*5C
05/28/2014	05:06:17.691	$GPGGA,050618,2543.8834,N,08009.7280,W,1,9,1.8,13,M,,M,,*53
05/28/2014	05:06:18.733	$GPGGA,050619,2543.8833,N,08009.7279,W,1,9,1.8,13,M,,M,,*53
05/28/2014	05:06:19.756	$GPGGA,050620,2543.8834,N,08009.7280,W,1,9,1.8,13,M,,M,,*58
05/28/2014	05:06:20.739	$GPGGA,050621,2543.8835,N,08009.7279,W,1,9,2.0,13,M,,M,,*55
05/28/2014	05:06:21.691	$GPGGA,050622,2543.8835,N,08009.7280,W,1,9,2.0,13,M,,M,,*50
05/28/2014	05:06:22.694	$GPGGA,050623,2543.8835,N,08009.7280,W,1,8,2.0,13,M,,M,,*50
05/28/2014	05:06:23.636	$GPGGA,050624,2543.8835,N,08009.7280,W,1,8,2.0,13,M,,M,,*57
05/28/2014	05:06:24.729	$GPGGA,050625,2543.8835,N,08009.7280,W,1,8,2.0,13,M,,M,,*56
05/28/2014	05:06:25.721	$GPGGA,050626,2543.8835,N,08009.7280,W,1,8,2.0,13,M,,M,,*55
05/28/2014	05:06:26.724	$GPGGA,050627,2543.8835,N,08009.7280,W,1,8,2.0,13,M,,M,,*54
05/28/2014	05:06:27.746	$GPGGA,050628,2543.8835,N,08009.7280,W,1,8,2.0,13,M,,M,,*5B
05/28/2014	05:06:28.758	$GPGGA,050629,2543.8835,N,08009.7280,W,1,8,2.0,13,M,,M,,*5A
05/28/2014	05:06:29.721	$GPGGA,050630,2543.8835,N,08009.7280,W,1,8,2.0,13,M,,M,,*52
05/28/2014	05:06:30.765	$GPGGA,050631,2543.8835,N,08009.7280,W,1,8,2.0,13,M,,M,,*53
05/28/2014	05:06:31.746	$GPGGA,050632,2543.8835,N,08009.7280,W,1,8,2.0,13,M,,M,,*50
05/28/2014	05:06:32.769	$GPGGA,050633,2543.8835,N,08009.7280,W,1,8,2.0,13,M,,M,,*51
05/28/2014	05:06:33.731	$GPGGA,050634,2543.8835,N,08009.7281,W,1,8,2.0,13,M,,M,,*57
05/28/2014	05:06:34.754	$GPGGA,050635,2543.8835,N,08009.7281,W,1,8,2.0,13,M,,M,,*56
05/28/2014	05:06:35.747	$GPGGA,050636,2543.8835,N,08009.7280,W,1,8,2.0,13,M,,M,,*54
05/28/2014	05:06:36.749	$GPGGA,050637,2543.8835,N,08009.7281,W,1,8,2.0,13,M,,M,,*54
05/28/2014	05:06:37.742	$GPGGA,050638,2543.8835,N,08009.7281,W,1,8,2.0,13,M,,M,,*5B
05/28/2014	05:06:38.610	$GPGGA,050639,2543.8835,N,08009.7281,W,1,8,2.0,13,M,,M,,*5A
05/28/2014	05:06:39.613	$GPGGA,050640,2543.8837,N,08009.7281,W,1,8,1.8,13,M,,M,,*5D
05/28/2014	05:06:40.595	$GPGGA,050641,2543.8836,N,08009.7283,W,1,9,2.0,13,M,,M,,*55
05/28/2014	05:06:41.588	$GPGGA,050642,2543.8837,N,08009.7282,W,1,9,1.8,13,M,,M,,*5D
05/28/2014	05:06:42.611	$GPGGA,050643,2543.8839,N,08009.7283,W,1,9,1.8,13,M,,M,,*53
05/28/2014	05:06:43.592	$GPGGA,050644,2543.8841,N,08009.7282,W,1,9,1.8,13,M,,M,,*5A
05/28/2014	05:06:44.595	$GPGGA,050645,2543.8842,N,08009.7283,W,1,9,1.8,13,M,,M,,*59
05/28/2014	05:06:45.587	$GPGGA,050646,2543.8842,N,08009.7283,W,1,9,1.8,13,M,,M,,*5A
05/28/2014	05:06:46.610	$GPGGA,050647,2543.8846,N,08009.7281,W,1,9,1.8,13,M,,M,,*5D
05/28/2014	05:06:47.593	$GPGGA,050648,2543.8846,N,08009.7281,W,1,9,1.8,13,M,,M,,*52
05/28/2014	05:06:48.595	$GPGGA,050649,2543.8849,N,08009.7281,W,1,9,1.8,14,M,,M,,*5B
05/28/2014	05:06:49.608	$GPGGA,050650,2543.8850,N,08009.7281,W,1,9,1.8,14,M,,M,,*5B
05/28/2014	05:06:50.632	$GPGGA,050651,2543.8852,N,08009.7281,W,1,9,1.8,14,M,,M,,*58
05/28/2014	05:06:51.623	$GPGGA,050652,2543.8852,N,08009.7281,W,1,9,1.8,14,M,,M,,*5B
05/28/2014	05:06:52.626	$GPGGA,050653,2543.8853,N,08009.7281,W,1,9,1.8,14,M,,M,,*5B
05/28/2014	05:06:53.608	$GPGGA,050654,2543.8853,N,08009.7281,W,1,9,1.8,14,M,,M,,*5C
05/28/2014	05:06:54.611	$GPGGA,050655,2543.8856,N,08009.7281,W,1,9,1.8,14,M,,M,,*58
05/28/2014	05:06:55.603	$GPGGA,050656,2543.8856,N,08009.7281,W,1,9,1.8,15,M,,M,,*5A
05/28/2014	05:06:56.606	$GPGGA,050657,2543.8857,N,08009.7281,W,1,9,1.8,15,M,,M,,*5A
05/28/2014	05:06:57.689	$GPGGA,050658,2543.8857,N,08009.7281,W,1,9,1.8,15,M,,M,,*55
05/28/2014	05:06:58.601	$GPGGA,050659,2543.8857,N,08009.7281,W,1,9,1.8,15,M,,M,,*54
05/28/2014	05:07:00.097	$GPGGA,050700,2543.8859,N,08009.7281,W,1,9,1.8,16,M,,M,,*54
05/28/2014	05:07:00.606	$GPGGA,050701,2543.8858,N,08009.7281,W,1,9,1.8,16,M,,M,,*54
05/28/2014	05:07:01.579	$GPGGA,050702,2543.8858,N,08009.7281,W,1,9,1.8,16,M,,M,,*57
05/28/2014	05:07:02.711	$GPGGA,050703,2543.8860,N,08009.7281,W,1,9,1.8,16,M,,M,,*5D
05/28/2014	05:07:03.603	$GPGGA,050704,2543.8860,N,08009.7281,W,1,9,1.8,16,M,,M,,*5A
05/28/2014	05:07:04.686	$GPGGA,050705,2543.8860,N,08009.7281,W,1,9,1.8,16,M,,M,,*5B
05/28/2014	05:07:05.608	$GPGGA,050706,2543.8860,N,08009.7281,W,1,9,1.8,16,M,,M,,*58
05/28/2014	05:07:06.601	$GPGGA,050707,2543.8860,N,08009.7283,W,1,9,1.8,16,M,,M,,*5B
05/28/2014	05:07:07.704	$GPGGA,050708,2543.8859,N,08009.7282,W,1,9,1.8,17,M,,M,,*5E
05/28/2014	05:07:08.726	$GPGGA,050709,2543.8858,N,08009.7283,W,1,9,1.8,17,M,,M,,*5F
05/28/2014	05:07:09.599	$GPGGA,050710,2543.8858,N,08009.7283,W,1,9,1.8,17,M,,M,,*57
05/28/2014	05:07:10.722	$GPGGA,050711,2543.8858,N,08009.7283,W,1,9,1.8,17,M,,M,,*56
05/28/2014	05:07:11.715	$GPGGA,050712,2543.8859,N,08009.7283,W,1,9,1.8,17,M,,M,,*54
05/28/2014	05:07:12.697	$GPGGA,050713,2543.8858,N,08009.7283,W,1,9,1.8,17,M,,M,,*54
05/28/2014	05:07:13.699	$GPGGA,050714,2543.8859,N,08009.7283,W,1,9,1.8,17,M,,M,,*52
05/28/2014	05:07:14.692	$GPGGA,050715,2543.8858,N,08009.7283,W,1,9,1.8,17,M,,M,,*52
05/28/2014	05:07:15.614	$GPGGA,050716,2543.8858,N,08009.7283,W,1,9,1.8,17,M,,M,,*51
05/28/2014	05:07:16.607	$GPGGA,050717,2543.8858,N,08009.7283,W,1,9,1.8,17,M,,M,,*50
05/28/2014	05:07:17.710	$GPGGA,050718,2543.8859,N,08009.7283,W,1,9,1.8,18,M,,M,,*51
05/28/2014	05:07:18.731	$GPGGA,050719,2543.8858,N,08009.7283,W,1,9,1.8,18,M,,M,,*51
05/28/2014	05:07:19.724	$GPGGA,050720,2543.8859,N,08009.7283,W,1,9,1.8,18,M,,M,,*5A
05/28/2014	05:07:20.696	$GPGGA,050721,2543.8858,N,08009.7283,W,1,9,1.8,18,M,,M,,*5A
05/28/2014	05:07:21.699	$GPGGA,050722,2543.8859,N,08009.7283,W,1,9,1.8,18,M,,M,,*58
05/28/2014	05:07:22.702	$GPGGA,050723,2543.8858,N,08009.7283,W,1,9,1.8,18,M,,M,,*58
05/28/2014	05:07:23.724	$GPGGA,050724,2543.8859,N,08009.7283,W,1,9,1.8,18,M,,M,,*5E
05/28/2014	05:07:24.717	$GPGGA,050725,2543.8858,N,08009.7283,W,1,9,1.8,18,M,,M,,*5E
05/28/2014	05:07:25.699	$GPGGA,050726,2543.8857,N,08009.7283,W,1,9,1.8,18,M,,M,,*52
05/28/2014	05:07:26.722	$GPGGA,050727,2543.8857,N,08009.7284,W,1,9,1.8,18,M,,M,,*54
05/28/2014	05:07:27.715	$GPGGA,050728,2543.8859,N,08009.7284,W,1,9,1.8,18,M,,M,,*55
05/28/2014	05:07:28.707	$GPGGA,050729,2543.8858,N,08009.7284,W,1,9,1.8,18,M,,M,,*55
05/28/2014	05:07:29.710	$GPGGA,050730,2543.8859,N,08009.7284,W,1,9,1.8,18,M,,M,,*5C
05/28/2014	05:07:30.702	$GPGGA,050731,2543.8858,N,08009.7283,W,1,9,1.8,18,M,,M,,*5B
05/28/2014	05:07:31.725	$GPGGA,050732,2543.8857,N,08009.7284,W,1,9,1.8,18,M,,M,,*50
05/28/2014	05:07:32.718	$GPGGA,050733,2543.8857,N,08009.7284,W,1,9,1.8,18,M,,M,,*51
05/28/2014	05:07:33.700	$GPGGA,050734,2543.8857,N,08009.7284,W,1,9,1.8,19,M,,M,,*57
05/28/2014	05:07:34.703	$GPGGA,050735,2543.8855,N,08009.7284,W,1,9,1.8,19,M,,M,,*54
05/28/2014	05:07:35.724	$GPGGA,050736,2543.8856,N,08009.7284,W,1,9,1.8,19,M,,M,,*54
05/28/2014	05:07:36.727	$GPGGA,050737,2543.8854,N,08009.7284,W,1,9,1.8,19,M,,M,,*57
05/28/2014	05:07:37.700	$GPGGA,050738,2543.8853,N,08009.7284,W,1,9,1.8,19,M,,M,,*5F
05/28/2014	05:07:38.547	$GPGGA,050739,2543.8853,N,08009.7284,W,1,9,1.8,19,M,,M,,*5E
05/28/2014	05:07:39.580	$GPGGA,050740,2543.8853,N,08009.7284,W,1,9,1.8,19,M,,M,,*50
05/28/2014	05:07:40.592	$GPGGA,050741,2543.8853,N,08009.7285,W,1,9,1.8,19,M,,M,,*50
05/28/2014	05:07:41.545	$GPGGA,050742,2543.8853,N,08009.7285,W,1,9,1.8,19,M,,M,,*53
05/28/2014	05:07:42.588	$GPGGA,050743,2543.8851,N,08009.7284,W,1,9,1.8,19,M,,M,,*51
05/28/2014	05:07:43.560	$GPGGA,050744,2543.8852,N,08009.7284,W,1,9,1.8,19,M,,M,,*55
05/28/2014	05:07:44.593	$GPGGA,050745,2543.8850,N,08009.7284,W,1,9,1.8,19,M,,M,,*56
05/28/2014	05:07:45.566	$GPGGA,050746,2543.8848,N,08009.7283,W,1,9,1.8,18,M,,M,,*5A
05/28/2014	05:07:46.559	$GPGGA,050747,2543.8847,N,08009.7283,W,1,8,2.0,18,M,,M,,*5E
05/28/2014	05:07:47.571	$GPGGA,050748,2543.8846,N,08009.7283,W,1,8,2.0,18,M,,M,,*50
05/28/2014	05:07:48.563	$GPGGA,050749,2543.8844,N,08009.7282,W,1,8,2.0,18,M,,M,,*52
05/28/2014	05:07:49.566	$GPGGA,050750,2543.8843,N,08009.7283,W,1,8,2.0,18,M,,M,,*5C
05/28/2014	05:07:50.549	$GPGGA,050751,2543.8842,N,08009.7282,W,1,8,2.0,18,M,,M,,*5D
05/28/2014	05:07:51.581	$GPGGA,050752,2543.8842,N,08009.7281,W,1,8,2.0,18,M,,M,,*5D
05/28/2014	05:07:52.595	$GPGGA,050753,2543.8840,N,08009.7283,W,1,8,2.0,18,M,,M,,*5C
05/28/2014	05:07:53.565	$GPGGA,050754,2543.8839,N,08009.7281,W,1,8,2.0,17,M,,M,,*58
05/28/2014	05:07:54.568	$GPGGA,050755,2543.8839,N,08009.7281,W,1,8,2.0,17,M,,M,,*59
05/28/2014	05:07:55.691	$GPGGA,050756,2543.8839,N,08009.7281,W,1,8,2.0,17,M,,M,,*5A
05/28/2014	05:07:56.563	$GPGGA,050757,2543.8837,N,08009.7281,W,1,8,2.0,17,M,,M,,*55
05/28/2014	05:07:57.676	$GPGGA,050758,2543.8838,N,08009.7281,W,1,8,2.0,17,M,,M,,*55
05/28/2014	05:07:58.568	$GPGGA,050759,2543.8836,N,08009.7280,W,1,8,2.0,17,M,,M,,*5B
05/28/2014	05:07:59.601	$GPGGA,050800,2543.8837,N,08009.7280,W,1,8,2.0,16,M,,M,,*58
05/28/2014	05:08:00.704	$GPGGA,050801,2543.8835,N,08009.7280,W,1,8,2.0,16,M,,M,,*5B
05/28/2014	05:08:01.676	$GPGGA,050802,2543.8835,N,08009.7280,W,1,8,2.0,16,M,,M,,*58
05/28/2014	05:08:02.679	$GPGGA,050803,2543.8835,N,08009.7280,W,1,8,2.0,16,M,,M,,*59
05/28/2014	05:08:03.671	$GPGGA,050804,2543.8835,N,08009.7280,W,1,8,2.0,16,M,,M,,*5E
05/28/2014	05:08:04.574	$GPGGA,050805,2543.8833,N,08009.7280,W,1,8,2.0,16,M,,M,,*59
05/28/2014	05:08:05.667	$GPGGA,050806,2543.8834,N,08009.7280,W,1,8,2.0,15,M,,M,,*5E
05/28/2014	05:08:06.679	$GPGGA,050807,2543.8833,N,08009.7280,W,1,8,2.0,15,M,,M,,*58
05/28/2014	05:08:07.682	$GPGGA,050808,2543.8832,N,08009.7280,W,1,8,2.0,15,M,,M,,*56
05/28/2014	05:08:08.714	$GPGGA,050809,2543.8833,N,08009.7280,W,1,8,2.0,15,M,,M,,*56
05/28/2014	05:08:09.677	$GPGGA,050810,2543.8834,N,08009.7280,W,1,8,2.0,15,M,,M,,*59
05/28/2014	05:08:10.699	$GPGGA,050811,2543.8833,N,08009.7279,W,1,9,1.8,14,M,,M,,*52
05/28/2014	05:08:11.691	$GPGGA,050812,2543.8835,N,08009.7280,W,1,9,1.8,14,M,,M,,*51
05/28/2014	05:08:12.684	$GPGGA,050813,2543.8833,N,08009.7279,W,1,9,1.8,14,M,,M,,*50
05/28/2014	05:08:13.666	$GPGGA,050814,2543.8834,N,08009.7280,W,1,9,1.8,14,M,,M,,*56
05/28/2014	05:08:14.709	$GPGGA,050815,2543.8832,N,08009.7278,W,1,9,1.8,14,M,,M,,*56
05/28/2014	05:08:15.681	$GPGGA,050816,2543.8833,N,08009.7279,W,1,9,1.8,14,M,,M,,*55
05/28/2014	05:08:16.684	$GPGGA,050817,2543.8832,N,08009.7278,W,1,9,1.8,14,M,,M,,*54
05/28/2014	05:08:17.677	$GPGGA,050818,2543.8833,N,08009.7279,W,1,9,1.8,14,M,,M,,*5B
05/28/2014	05:08:18.699	$GPGGA,050819,2543.8832,N,08009.7277,W,1,9,1.8,14,M,,M,,*55
05/28/2014	05:08:19.692	$GPGGA,050820,2543.8833,N,08009.7277,W,1,9,1.8,13,M,,M,,*59
05/28/2014	05:08:20.705	$GPGGA,050821,2543.8832,N,08009.7277,W,1,9,1.8,13,M,,M,,*59
05/28/2014	05:08:21.677	$GPGGA,050822,2543.8833,N,08009.7277,W,1,9,1.8,13,M,,M,,*5B
05/28/2014	05:08:22.700	$GPGGA,050823,2543.8832,N,08009.7277,W,1,9,1.8,13,M,,M,,*5B
05/28/2014	05:08:23.692	$GPGGA,050824,2543.8831,N,08009.7277,W,1,9,1.8,13,M,,M,,*5F
05/28/2014	05:08:24.705	$GPGGA,050825,2543.8831,N,08009.7277,W,1,9,1.8,13,M,,M,,*5E
05/28/2014	05:08:25.687	$GPGGA,050826,2543.8831,N,08009.7277,W,1,9,1.8,13,M,,M,,*5D
05/28/2014	05:08:26.670	$GPGGA,050827,2543.8831,N,08009.7277,W,1,9,1.8,13,M,,M,,*5C
05/28/2014	05:08:27.703	$GPGGA,050828,2543.8831,N,08009.7277,W,1,9,1.8,13,M,,M,,*53
05/28/2014	05:08:28.714	$GPGGA,050829,2543.8831,N,08009.7277,W,1,9,1.8,13,M,,M,,*52
05/28/2014	05:08:29.687	$GPGGA,050830,2543.8831,N,08009.7277,W,1,9,1.8,13,M,,M,,*5A
05/28/2014	05:08:30.699	$GPGGA,050831,2543.8831,N,08009.7277,W,1,9,1.8,13,M,,M,,*5B
05/28/2014	05:08:31.692	$GPGGA,050832,2543.8831,N,08009.7277,W,1,9,1.8,13,M,,M,,*58
05/28/2014	05:08:32.705	$GPGGA,050833,2543.8831,N,08009.7277,W,1,9,1.8,13,M,,M,,*59
05/28/2014	05:08:33.687	$GPGGA,050834,2543.8831,N,08009.7276,W,1,9,1.8,13,M,,M,,*5F
05/28/2014	05:08:34.701	$GPGGA,050835,2543.8831,N,08009.7276,W,1,9,1.8,13,M,,M,,*5E
05/28/2014	05:08:35.702	$GPGGA,050836,2543.8831,N,08009.7276,W,1,9,1.8,12,M,,M,,*5C
05/28/2014	05:08:36.675	$GPGGA,050837,2543.8831,N,08009.7276,W,1,9,1.8,12,M,,M,,*5D
05/28/2014	05:08:37.778	$GPGGA,050838,2543.8831,N,08009.7276,W,1,9,1.8,12,M,,M,,*52
05/28/2014	05:08:38.665	$GPGGA,050839,2543.8831,N,08009.7276,W,1,9,1.8,12,M,,M,,*53
05/28/2014	05:08:39.549	$GPGGA,050840,2543.8831,N,08009.7277,W,1,9,1.8,12,M,,M,,*5C
05/28/2014	05:08:40.551	$GPGGA,050841,2543.8831,N,08009.7277,W,1,9,1.8,12,M,,M,,*5D
05/28/2014	05:08:41.523	$GPGGA,050842,2543.8831,N,08009.7277,W,1,9,1.8,12,M,,M,,*5E
05/28/2014	05:08:42.646	$GPGGA,050843,2543.8833,N,08009.7277,W,1,9,1.8,12,M,,M,,*5D
05/28/2014	05:08:43.638	$GPGGA,050844,2543.8832,N,08009.7277,W,1,9,1.8,12,M,,M,,*5B
05/28/2014	05:08:44.631	$GPGGA,050845,2543.8831,N,08009.7277,W,1,9,1.8,12,M,,M,,*59
05/28/2014	05:08:45.532	$GPGGA,050846,2543.8831,N,08009.7277,W,1,9,1.8,12,M,,M,,*5A
05/28/2014	05:08:46.545	$GPGGA,050847,2543.8831,N,08009.7277,W,1,9,1.8,12,M,,M,,*5B
05/28/2014	05:08:47.659	$GPGGA,050848,2543.8833,N,08009.7276,W,1,9,1.8,12,M,,M,,*57
05/28/2014	05:08:48.640	$GPGGA,050849,2543.8832,N,08009.7276,W,1,9,1.8,12,M,,M,,*57
05/28/2014	05:08:49.634	$GPGGA,050850,2543.8833,N,08009.7276,W,1,9,1.8,12,M,,M,,*5E
05/28/2014	05:08:50.646	$GPGGA,050851,2543.8832,N,08009.7276,W,1,9,1.8,12,M,,M,,*5E
05/28/2014	05:08:51.658	$GPGGA,050852,2543.8833,N,08009.7276,W,1,9,1.8,12,M,,M,,*5C
05/28/2014	05:08:52.682	$GPGGA,050853,2543.8832,N,08009.7276,W,1,9,1.8,12,M,,M,,*5C
05/28/2014	05:08:53.633	$GPGGA,050854,2543.8833,N,08009.7276,W,1,9,1.8,12,M,,M,,*5A
05/28/2014	05:08:54.646	$GPGGA,050855,2543.8832,N,08009.7277,W,1,9,1.8,12,M,,M,,*5B
05/28/2014	05:08:55.659	$GPGGA,050856,2543.8833,N,08009.7277,W,1,9,1.8,12,M,,M,,*59
05/28/2014	05:08:56.661	$GPGGA,050857,2543.8832,N,08009.7277,W,1,9,1.8,12,M,,M,,*59
05/28/2014	05:08:57.634	$GPGGA,050858,2543.8833,N,08009.7277,W,1,9,1.8,12,M,,M,,*57
05/28/2014	05:08:58.656	$GPGGA,050859,2543.8832,N,08009.7277,W,1,9,1.8,12,M,,M,,*57
05/28/2014	05:08:59.670	$GPGGA,050900,2543.8833,N,08009.7277,W,1,9,1.8,12,M,,M,,*5B
05/28/2014	05:09:00.662	$GPGGA,050901,2543.8834,N,08009.7277,W,1,9,1.8,12,M,,M,,*5D
05/28/2014	05:09:01.654	$GPGGA,050902,2543.8833,N,08009.7277,W,1,9,1.8,12,M,,M,,*59
05/28/2014	05:09:02.667	$GPGGA,050903,2543.8834,N,08009.7277,W,1,9,1.8,12,M,,M,,*5F
05/28/2014	05:09:03.658	$GPGGA,050904,2543.8833,N,08009.7277,W,1,9,1.8,12,M,,M,,*5F
05/28/2014	05:09:04.651	$GPGGA,050905,2543.8834,N,08009.7279,W,1,9,1.8,12,M,,M,,*57
05/28/2014	05:09:05.643	$GPGGA,050906,2543.8833,N,08009.7278,W,1,9,1.8,12,M,,M,,*52
05/28/2014	05:09:06.676	$GPGGA,050907,2543.8834,N,08009.7280,W,1,9,1.8,12,M,,M,,*53
05/28/2014	05:09:07.659	$GPGGA,050908,2543.8833,N,08009.7279,W,1,9,1.8,12,M,,M,,*5D
05/28/2014	05:09:08.661	$GPGGA,050909,2543.8834,N,08009.7280,W,1,9,1.8,12,M,,M,,*5D
05/28/2014	05:09:09.644	$GPGGA,050910,2543.8833,N,08009.7279,W,1,9,1.8,12,M,,M,,*54
05/28/2014	05:09:10.666	$GPGGA,050911,2543.8834,N,08009.7280,W,1,9,1.8,12,M,,M,,*54
05/28/2014	05:09:11.659	$GPGGA,050912,2543.8833,N,08009.7280,W,1,9,1.8,12,M,,M,,*50
05/28/2014	05:09:12.682	$GPGGA,050913,2543.8834,N,08009.7280,W,1,9,1.8,12,M,,M,,*56
05/28/2014	05:09:13.644	$GPGGA,050914,2543.8835,N,08009.7280,W,1,9,1.8,12,M,,M,,*50
05/28/2014	05:09:14.687	$GPGGA,050915,2543.8835,N,08009.7280,W,1,9,1.8,12,M,,M,,*51
05/28/2014	05:09:15.649	$GPGGA,050916,2543.8835,N,08009.7280,W,1,9,1.8,13,M,,M,,*53
05/28/2014	05:09:16.642	$GPGGA,050917,2543.8835,N,08009.7280,W,1,9,1.8,13,M,,M,,*52
05/28/2014	05:09:17.665	$GPGGA,050918,2543.8835,N,08009.7281,W,1,9,1.8,13,M,,M,,*5C
05/28/2014	05:09:18.767	$GPGGA,050919,2543.8835,N,08009.7281,W,1,9,1.8,13,M,,M,,*5D
05/28/2014	05:09:19.780	$GPGGA,050920,2543.8835,N,08009.7281,W,1,9,1.8,13,M,,M,,*57
05/28/2014	05:09:20.671	$GPGGA,050921,2543.8835,N,08009.7283,W,1,9,1.8,13,M,,M,,*54
05/28/2014	05:09:21.644	$GPGGA,050922,2543.8835,N,08009.7282,W,1,9,1.8,13,M,,M,,*56
05/28/2014	05:09:22.667	$GPGGA,050923,2543.8835,N,08009.7283,W,1,9,1.8,13,M,,M,,*56
05/28/2014	05:09:23.779	$GPGGA,050924,2543.8835,N,08009.7283,W,1,9,1.8,13,M,,M,,*51
05/28/2014	05:09:24.653	$GPGGA,050925,2543.8835,N,08009.7283,W,1,9,1.8,13,M,,M,,*50
05/28/2014	05:09:25.664	$GPGGA,050926,2543.8835,N,08009.7283,W,1,9,1.8,13,M,,M,,*53
05/28/2014	05:09:26.687	$GPGGA,050927,2543.8835,N,08009.7283,W,1,9,1.8,13,M,,M,,*52
05/28/2014	05:09:27.681	$GPGGA,050928,2543.8835,N,08009.7283,W,1,9,1.8,13,M,,M,,*5D
05/28/2014	05:09:28.753	$GPGGA,050929,2543.8837,N,08009.7283,W,1,9,1.8,13,M,,M,,*5E
05/28/2014	05:09:29.645	$GPGGA,050930,2543.8836,N,08009.7283,W,1,9,1.8,13,M,,M,,*57
05/28/2014	05:09:30.667	$GPGGA,050931,2543.8837,N,08009.7284,W,1,9,1.8,13,M,,M,,*50
05/28/2014	05:09:31.670	$GPGGA,050932,2543.8838,N,08009.7284,W,1,9,1.8,13,M,,M,,*5C
05/28/2014	05:09:32.652	$GPGGA,050933,2543.8837,N,08009.7284,W,1,9,1.8,13,M,,M,,*52
05/28/2014	05:09:33.755	$GPGGA,050934,2543.8838,N,08009.7284,W,1,9,1.8,14,M,,M,,*5D
05/28/2014	05:09:34.758	$GPGGA,050935,2543.8839,N,08009.7285,W,1,9,1.8,14,M,,M,,*5C
05/28/2014	05:09:35.680	$GPGGA,050936,2543.8839,N,08009.7285,W,1,9,1.8,14,M,,M,,*5F
05/28/2014	05:09:36.753	$GPGGA,050937,2543.8837,N,08009.7285,W,1,9,1.8,14,M,,M,,*50
05/28/2014	05:09:37.766	$GPGGA,050938,2543.8839,N,08009.7285,W,1,9,1.8,14,M,,M,,*51
05/28/2014	05:09:38.603	$GPGGA,050939,2543.8839,N,08009.7285,W,1,9,1.8,14,M,,M,,*50
05/28/2014	05:09:39.526	$GPGGA,050940,2543.8839,N,08009.7285,W,1,9,1.8,14,M,,M,,*5E
05/28/2014	05:09:40.518	$GPGGA,050941,2543.8839,N,08009.7287,W,1,9,1.8,14,M,,M,,*5D
05/28/2014	05:09:41.611	$GPGGA,050942,2543.8839,N,08009.7286,W,1,9,1.8,14,M,,M,,*5F
05/28/2014	05:09:42.624	$GPGGA,050943,2543.8839,N,08009.7287,W,1,9,1.8,14,M,,M,,*5F
05/28/2014	05:09:43.626	$GPGGA,050944,2543.8839,N,08009.7286,W,1,9,1.8,14,M,,M,,*59
05/28/2014	05:09:44.629	$GPGGA,050945,2543.8839,N,08009.7287,W,1,9,1.8,14,M,,M,,*59
05/28/2014	05:09:45.622	$GPGGA,050946,2543.8839,N,08009.7286,W,1,9,1.8,14,M,,M,,*5B
05/28/2014	05:09:46.644	$GPGGA,050947,2543.8839,N,08009.7287,W,1,9,1.8,14,M,,M,,*5B
05/28/2014	05:09:47.627	$GPGGA,050948,2543.8839,N,08009.7287,W,1,9,1.8,14,M,,M,,*54
05/28/2014	05:09:48.629	$GPGGA,050949,2543.8839,N,08009.7287,W,1,9,1.8,14,M,,M,,*55
05/28/2014	05:09:49.622	$GPGGA,050950,2543.8837,N,08009.7286,W,1,9,1.8,14,M,,M,,*52
05/28/2014	05:09:50.604	$GPGGA,050951,2543.8838,N,08009.7287,W,1,9,1.8,14,M,,M,,*5D
05/28/2014	05:09:51.627	$GPGGA,050952,2543.8839,N,08009.7287,W,1,9,1.8,14,M,,M,,*5F
05/28/2014	05:09:52.640	$GPGGA,050953,2543.8839,N,08009.7287,W,1,9,1.8,14,M,,M,,*5E
05/28/2014	05:09:53.622	$GPGGA,050954,2543.8839,N,08009.7287,W,1,9,1.8,14,M,,M,,*59
05/28/2014	05:09:54.625	$GPGGA,050955,2543.8839,N,08009.7287,W,1,9,1.8,14,M,,M,,*58
05/28/2014	05:09:55.626	$GPGGA,050956,2543.8839,N,08009.7287,W,1,9,1.8,14,M,,M,,*5B
05/28/2014	05:09:56.629	$GPGGA,050957,2543.8839,N,08009.7287,W,1,9,1.8,14,M,,M,,*5A
05/28/2014	05:09:57.622	$GPGGA,050958,2543.8837,N,08009.7287,W,1,9,1.8,14,M,,M,,*5B
05/28/2014	05:09:58.614	$GPGGA,050959,2543.8838,N,08009.7287,W,1,9,1.8,14,M,,M,,*55
05/28/2014	05:09:59.637	$GPGGA,051000,2543.8837,N,08009.7287,W,1,9,1.8,14,M,,M,,*5E
05/28/2014	05:10:00.639	$GPGGA,051001,2543.8838,N,08009.7287,W,1,9,1.8,14,M,,M,,*50
05/28/2014	05:10:01.622	$GPGGA,051002,2543.8837,N,08009.7287,W,1,9,1.8,14,M,,M,,*5C
05/28/2014	05:10:02.645	$GPGGA,051003,2543.8838,N,08009.7287,W,1,9,1.8,14,M,,M,,*52
05/28/2014	05:10:03.637	$GPGGA,051004,2543.8837,N,08009.7287,W,1,9,1.8,14,M,,M,,*5A
05/28/2014	05:10:04.650	$GPGGA,051005,2543.8838,N,08009.7287,W,1,9,1.8,14,M,,M,,*54
05/28/2014	05:10:05.612	$GPGGA,051006,2543.8837,N,08009.7287,W,1,9,1.8,14,M,,M,,*58
05/28/2014	05:10:06.615	$GPGGA,051007,2543.8836,N,08009.7287,W,1,9,1.8,14,M,,M,,*58
05/28/2014	05:10:07.638	$GPGGA,051008,2543.8837,N,08009.7287,W,1,9,1.8,14,M,,M,,*56
05/28/2014	05:10:08.660	$GPGGA,051009,2543.8836,N,08009.7287,W,1,9,1.8,14,M,,M,,*56
05/28/2014	05:10:09.625	$GPGGA,051010,2543.8837,N,08009.7287,W,1,9,1.8,14,M,,M,,*5F
05/28/2014	05:10:10.626	$GPGGA,051011,2543.8835,N,08009.7288,W,1,9,1.8,14,M,,M,,*53
05/28/2014	05:10:11.648	$GPGGA,051012,2543.8835,N,08009.7288,W,1,9,1.8,14,M,,M,,*50
05/28/2014	05:10:12.621	$GPGGA,051013,2543.8835,N,08009.7288,W,1,9,1.8,14,M,,M,,*51
05/28/2014	05:10:13.632	$GPGGA,051014,2543.8835,N,08009.7287,W,1,9,1.8,14,M,,M,,*59
05/28/2014	05:10:14.635	$GPGGA,051015,2543.8835,N,08009.7287,W,1,8,2.0,14,M,,M,,*52
05/28/2014	05:10:15.657	$GPGGA,051016,2543.8835,N,08009.7287,W,1,8,2.0,14,M,,M,,*51
05/28/2014	05:10:16.660	$GPGGA,051017,2543.8835,N,08009.7287,W,1,8,2.0,14,M,,M,,*50
05/28/2014	05:10:17.633	$GPGGA,051018,2543.8833,N,08009.7287,W,1,8,2.0,14,M,,M,,*59
05/28/2014	05:10:18.755	$GPGGA,051019,2543.8834,N,08009.7287,W,1,8,2.0,14,M,,M,,*5F
05/28/2014	05:10:19.649	$GPGGA,051020,2543.8833,N,08009.7286,W,1,8,2.0,14,M,,M,,*53
05/28/2014	05:10:20.771	$GPGGA,051021,2543.8834,N,08009.7287,W,1,8,2.0,14,M,,M,,*54
05/28/2014	05:10:21.643	$GPGGA,051022,2543.8833,N,08009.7286,W,1,8,2.0,14,M,,M,,*51
05/28/2014	05:10:22.646	$GPGGA,051023,2543.8832,N,08009.7287,W,1,8,2.0,14,M,,M,,*50
05/28/2014	05:10:23.648	$GPGGA,051024,2543.8833,N,08009.7286,W,1,8,2.0,14,M,,M,,*57
05/28/2014	05:10:24.731	$GPGGA,051025,2543.8832,N,08009.7287,W,1,8,2.0,14,M,,M,,*56
05/28/2014	05:10:25.623	$GPGGA,051026,2543.8833,N,08009.7286,W,1,8,2.0,14,M,,M,,*55
05/28/2014	05:10:26.626	$GPGGA,051027,2543.8832,N,08009.7287,W,1,8,2.0,14,M,,M,,*54
05/28/2014	05:10:27.649	$GPGGA,051028,2543.8833,N,08009.7286,W,1,8,2.0,14,M,,M,,*5B
05/28/2014	05:10:28.641	$GPGGA,051029,2543.8832,N,08009.7287,W,1,8,2.0,14,M,,M,,*5A
05/28/2014	05:10:29.734	$GPGGA,051030,2543.8833,N,08009.7285,W,1,8,2.0,14,M,,M,,*51
05/28/2014	05:10:30.736	$GPGGA,051031,2543.8832,N,08009.7285,W,1,8,2.0,14,M,,M,,*51
05/28/2014	05:10:31.648	$GPGGA,051032,2543.8833,N,08009.7287,W,1,8,2.0,14,M,,M,,*51
05/28/2014	05:10:32.731	$GPGGA,051033,2543.8832,N,08009.7286,W,1,8,2.0,14,M,,M,,*50
05/28/2014	05:10:33.733	$GPGGA,051034,2543.8830,N,08009.7291,W,1,8,1.8,14,M,,M,,*58
05/28/2014	05:10:34.766	$GPGGA,051035,2543.8831,N,08009.7291,W,1,9,2.0,14,M,,M,,*52
05/28/2014	05:10:35.759	$GPGGA,051036,2543.8831,N,08009.7290,W,1,9,2.0,14,M,,M,,*50
05/28/2014	05:10:36.761	$GPGGA,051037,2543.8831,N,08009.7290,W,1,8,2.0,14,M,,M,,*50
05/28/2014	05:10:37.744	$GPGGA,051038,2543.8831,N,08009.7289,W,1,8,2.0,14,M,,M,,*57
05/28/2014	05:10:38.611	$GPGGA,051039,2543.8831,N,08009.7290,W,1,8,2.0,14,M,,M,,*5E
05/28/2014	05:10:39.594	$GPGGA,051040,2543.8831,N,08009.7289,W,1,8,2.0,14,M,,M,,*58
05/28/2014	05:10:40.586	$GPGGA,051041,2543.8831,N,08009.7290,W,1,8,2.0,14,M,,M,,*51
05/28/2014	05:10:41.589	$GPGGA,051042,2543.8831,N,08009.7289,W,1,8,2.0,14,M,,M,,*5A
05/28/2014	05:10:42.582	$GPGGA,051043,2543.8830,N,08009.7290,W,1,8,2.0,14,M,,M,,*52
05/28/2014	05:10:43.604	$GPGGA,051044,2543.8831,N,08009.7288,W,1,8,2.0,14,M,,M,,*5D
05/28/2014	05:10:44.617	$GPGGA,051045,2543.8830,N,08009.7288,W,1,8,2.0,14,M,,M,,*5D
05/28/2014	05:10:45.589	$GPGGA,051046,2543.8831,N,08009.7288,W,1,8,2.0,14,M,,M,,*5F
05/28/2014	05:10:46.602	$GPGGA,051047,2543.8831,N,08009.7288,W,1,8,2.0,14,M,,M,,*5E
05/28/2014	05:10:47.594	$GPGGA,051048,2543.8830,N,08009.7288,W,1,8,2.0,15,M,,M,,*51
05/28/2014	05:10:48.606	$GPGGA,051049,2543.8831,N,08009.7288,W,1,8,2.0,14,M,,M,,*50
05/28/2014	05:10:49.588	$GPGGA,051050,2543.8830,N,08009.7288,W,1,8,2.0,14,M,,M,,*59
05/28/2014	05:10:50.621	$GPGGA,051051,2543.8831,N,08009.7288,W,1,8,2.0,14,M,,M,,*59
05/28/2014	05:10:51.603	$GPGGA,051052,2543.8830,N,08009.7288,W,1,8,2.0,14,M,,M,,*5B
05/28/2014	05:10:52.596	$GPGGA,051053,2543.8831,N,08009.7288,W,1,8,2.0,14,M,,M,,*5B
05/28/2014	05:10:53.598	$GPGGA,051054,2543.8830,N,08009.7288,W,1,8,2.0,14,M,,M,,*5D
05/28/2014	05:10:54.621	$GPGGA,051055,2543.8831,N,08009.7288,W,1,8,2.0,14,M,,M,,*5D
05/28/2014	05:10:55.613	$GPGGA,051056,2543.8831,N,08009.7288,W,1,8,2.0,14,M,,M,,*5E
05/28/2014	05:10:56.586	$GPGGA,051057,2543.8831,N,08009.7288,W,1,8,2.0,14,M,,M,,*5F
05/28/2014	05:10:57.598	$GPGGA,051058,2543.8831,N,08009.7288,W,1,8,2.0,14,M,,M,,*50
05/28/2014	05:10:58.611	$GPGGA,051059,2543.8831,N,08009.7288,W,1,8,2.0,14,M,,M,,*51
05/28/2014	05:10:59.633	$GPGGA,051100,2543.8831,N,08009.7288,W,1,8,2.0,14,M,,M,,*5C
05/28/2014	05:11:00.636	$GPGGA,051101,2543.8830,N,08009.7288,W,1,8,2.0,14,M,,M,,*5C
05/28/2014	05:11:01.588	$GPGGA,051102,2543.8831,N,08009.7288,W,1,8,2.0,14,M,,M,,*5E
05/28/2014	05:11:02.600	$GPGGA,051103,2543.8830,N,08009.7288,W,1,8,2.0,14,M,,M,,*5E
05/28/2014	05:11:03.613	$GPGGA,051104,2543.8831,N,08009.7288,W,1,8,2.0,14,M,,M,,*58
05/28/2014	05:11:04.636	$GPGGA,051105,2543.8829,N,08009.7288,W,1,8,2.0,14,M,,M,,*50
05/28/2014	05:11:05.607	$GPGGA,051106,2543.8830,N,08009.7288,W,1,8,2.0,14,M,,M,,*5B
05/28/2014	05:11:06.629	$GPGGA,051107,2543.8829,N,08009.7288,W,1,8,2.0,14,M,,M,,*52
05/28/2014	05:11:07.602	$GPGGA,051108,2543.8830,N,08009.7288,W,1,8,2.0,14,M,,M,,*55
05/28/2014	05:11:08.594	$GPGGA,051109,2543.8829,N,08009.7287,W,1,8,2.0,14,M,,M,,*53
05/28/2014	05:11:09.707	$GPGGA,051110,2543.8828,N,08009.7288,W,1,8,2.0,14,M,,M,,*55
05/28/2014	05:11:10.619	$GPGGA,051111,2543.8828,N,08009.7288,W,1,8,2.0,14,M,,M,,*54
05/28/2014	05:11:11.722	$GPGGA,051112,2543.8828,N,08009.7288,W,1,8,2.0,14,M,,M,,*57
05/28/2014	05:11:12.705	$GPGGA,051113,2543.8828,N,08009.7288,W,1,8,2.0,14,M,,M,,*56
05/28/2014	05:11:13.697	$GPGGA,051114,2543.8828,N,08009.7290,W,1,8,2.0,14,M,,M,,*58
05/28/2014	05:11:14.599	$GPGGA,051115,2543.8828,N,08009.7289,W,1,8,2.0,14,M,,M,,*51
05/28/2014	05:11:15.722	$GPGGA,051116,2543.8828,N,08009.7290,W,1,8,2.0,14,M,,M,,*5A
05/28/2014	05:11:17.617	$GPGGA,051118,2543.8828,N,08009.7290,W,1,8,2.1,15,M,,M,,*54
05/28/2014	05:11:18.700	$GPGGA,051119,2543.8828,N,08009.7290,W,1,8,2.1,15,M,,M,,*55
05/28/2014	05:11:19.643	$GPGGA,051120,2543.8828,N,08009.7290,W,1,8,2.1,15,M,,M,,*5F
05/28/2014	05:11:20.725	$GPGGA,051121,2543.8828,N,08009.7290,W,1,8,2.1,15,M,,M,,*5E
05/28/2014	05:11:21.697	$GPGGA,051122,2543.8828,N,08009.7290,W,1,8,2.1,15,M,,M,,*5D
05/28/2014	05:11:22.730	$GPGGA,051123,2543.8828,N,08009.7290,W,1,8,2.1,15,M,,M,,*5C
05/28/2014	05:11:23.711	$GPGGA,051124,2543.8828,N,08009.7290,W,1,8,2.1,15,M,,M,,*5B
05/28/2014	05:11:24.734	$GPGGA,051125,2543.8828,N,08009.7290,W,1,8,2.1,15,M,,M,,*5A
05/28/2014	05:11:25.696	$GPGGA,051126,2543.8828,N,08009.7290,W,1,8,2.1,15,M,,M,,*59
05/28/2014	05:11:26.729	$GPGGA,051127,2543.8828,N,08009.7290,W,1,8,2.1,15,M,,M,,*58
05/28/2014	05:11:27.721	$GPGGA,051128,2543.8826,N,08009.7290,W,1,8,2.1,15,M,,M,,*59
05/28/2014	05:11:28.724	$GPGGA,051129,2543.8827,N,08009.7290,W,1,8,2.1,15,M,,M,,*59
05/28/2014	05:11:29.706	$GPGGA,051130,2543.8826,N,08009.7290,W,1,8,2.1,15,M,,M,,*50
05/28/2014	05:11:30.709	$GPGGA,051131,2543.8827,N,08009.7290,W,1,8,2.1,15,M,,M,,*50
05/28/2014	05:11:31.721	$GPGGA,051132,2543.8826,N,08009.7290,W,1,8,2.1,15,M,,M,,*52
05/28/2014	05:11:32.724	$GPGGA,051133,2543.8827,N,08009.7290,W,1,8,2.1,15,M,,M,,*52
05/28/2014	05:11:33.706	$GPGGA,051134,2543.8826,N,08009.7291,W,1,8,2.1,15,M,,M,,*55
05/28/2014	05:11:34.729	$GPGGA,051135,2543.8827,N,08009.7290,W,1,8,2.1,15,M,,M,,*54
05/28/2014	05:11:35.721	$GPGGA,051136,2543.8826,N,08009.7290,W,1,8,2.1,15,M,,M,,*56
05/28/2014	05:11:36.724	$GPGGA,051137,2543.8828,N,08009.7291,W,1,8,2.1,15,M,,M,,*58
05/28/2014	05:11:37.706	$GPGGA,051138,2543.8828,N,08009.7290,W,1,8,2.1,15,M,,M,,*56
05/28/2014	05:11:38.580	$GPGGA,051139,2543.8828,N,08009.7290,W,1,8,2.1,15,M,,M,,*57
05/28/2014	05:11:39.563	$GPGGA,051140,2543.8828,N,08009.7290,W,1,8,2.1,15,M,,M,,*59
05/28/2014	05:11:40.594	$GPGGA,051141,2543.8828,N,08009.7290,W,1,8,2.1,15,M,,M,,*58
05/28/2014	05:11:41.557	$GPGGA,051142,2543.8828,N,08009.7290,W,1,8,2.1,15,M,,M,,*5B
05/28/2014	05:11:42.569	$GPGGA,051143,2543.8828,N,08009.7290,W,1,8,2.1,15,M,,M,,*5A
05/28/2014	05:11:43.572	$GPGGA,051144,2543.8828,N,08009.7290,W,1,8,2.1,15,M,,M,,*5D
05/28/2014	05:11:44.594	$GPGGA,051145,2543.8828,N,08009.7290,W,1,8,2.1,15,M,,M,,*5C
05/28/2014	05:11:45.567	$GPGGA,051146,2543.8828,N,08009.7290,W,1,8,2.1,15,M,,M,,*5F
05/28/2014	05:11:46.569	$GPGGA,051147,2543.8828,N,08009.7290,W,1,8,2.1,15,M,,M,,*5E
05/28/2014	05:11:47.572	$GPGGA,051148,2543.8828,N,08009.7290,W,1,8,2.1,15,M,,M,,*51
05/28/2014	05:11:48.604	$GPGGA,051149,2543.8828,N,08009.7290,W,1,8,2.1,15,M,,M,,*50
05/28/2014	05:11:49.577	$GPGGA,051150,2543.8828,N,08009.7290,W,1,8,2.1,15,M,,M,,*58
05/28/2014	05:11:50.679	$GPGGA,051151,2543.8828,N,08009.7289,W,1,8,2.1,15,M,,M,,*51
