Software Version Number: 1	Data File Format Number: 1	Build Version Number: 1	Error Count Since VI Started: 0	Manufacturer: Raytheon	 Model Number: RayMarine 120	 S/N: 	 Cal Date: 	 Wind Direction Offset: 0.00	 Slope (M)1: 0.00	 Offset (B)1: 0.00	 Slope (M)2: 0.00	 Offset (B)2: 0.00	 Slope (M)3: 0.00	 Offset (B)3: 0.00	 Slope (M)4: 0.00	 Offset (B)4: 0.00	 Slope (M)5: 0.00	 Offset (B)5: 0.00	 Slope (M)6: 0.00	 Offset (B)6: 0.00
Computer Date	Computer Time	GGA String
06/14/2014	19:00:00.839	$GPGGA,190000,2513.6058,N,08004.8131,W,1,11,1.6,15,M,,M,,*62
06/14/2014	19:00:01.810	$GPGGA,190001,2513.6088,N,08004.8121,W,1,11,1.6,15,M,,M,,*6F
06/14/2014	19:00:02.874	$GPGGA,190002,2513.6119,N,08004.8110,W,1,11,1.6,15,M,,M,,*67
06/14/2014	19:00:04.070	$GPGGA,190003,2513.6149,N,08004.8099,W,1,11,1.6,15,M,,M,,*63
06/14/2014	19:00:05.134	$GPGGA,190004,2513.6178,N,08004.8090,W,1,11,1.6,15,M,,M,,*6F
06/14/2014	19:00:06.144	$GPGGA,190005,2513.6210,N,08004.8079,W,1,11,1.6,15,M,,M,,*64
06/14/2014	19:00:07.249	$GPGGA,190006,2513.6239,N,08004.8067,W,1,11,1.6,15,M,,M,,*63
06/14/2014	19:00:08.392	$GPGGA,190007,2513.6271,N,08004.8057,W,1,11,1.6,15,M,,M,,*6D
06/14/2014	19:00:09.533	$GPGGA,190008,2513.6301,N,08004.8048,W,1,11,1.6,15,M,,M,,*6A
06/14/2014	19:00:10.564	$GPGGA,190009,2513.6332,N,08004.8038,W,1,10,1.6,15,M,,M,,*6D
06/14/2014	19:00:11.748	$GPGGA,190010,2513.6362,N,08004.8026,W,1,10,1.6,15,M,,M,,*6F
06/14/2014	19:00:12.768	$GPGGA,190011,2513.6391,N,08004.8017,W,1,11,1.6,15,M,,M,,*61
06/14/2014	19:00:13.898	$GPGGA,190012,2513.6423,N,08004.8006,W,1,11,1.6,15,M,,M,,*6C
06/14/2014	19:00:14.962	$GPGGA,190013,2513.6452,N,08004.7996,W,1,11,1.6,15,M,,M,,*64
06/14/2014	19:00:16.004	$GPGGA,190014,2513.6484,N,08004.7987,W,1,11,1.6,15,M,,M,,*68
06/14/2014	19:00:17.171	$GPGGA,190015,2513.6514,N,08004.7977,W,1,11,1.6,15,M,,M,,*6E
06/14/2014	19:00:18.275	$GPGGA,190016,2513.6546,N,08004.7967,W,1,11,1.6,14,M,,M,,*6A
06/14/2014	19:00:19.349	$GPGGA,190017,2513.6575,N,08004.7957,W,1,11,1.6,14,M,,M,,*68
06/14/2014	19:00:20.380	$GPGGA,190018,2513.6607,N,08004.7947,W,1,11,1.6,14,M,,M,,*60
06/14/2014	19:00:21.554	$GPGGA,190019,2513.6637,N,08004.7937,W,1,11,1.6,14,M,,M,,*65
06/14/2014	19:00:22.586	$GPGGA,190020,2513.6668,N,08004.7927,W,1,11,1.6,14,M,,M,,*64
06/14/2014	19:00:23.660	$GPGGA,190021,2513.6698,N,08004.7917,W,1,10,1.6,14,M,,M,,*68
06/14/2014	19:00:24.756	$GPGGA,190022,2513.6729,N,08004.7907,W,1,10,1.6,14,M,,M,,*61
06/14/2014	19:00:25.919	$GPGGA,190023,2513.6758,N,08004.7896,W,1,11,1.6,14,M,,M,,*6E
06/14/2014	19:00:26.961	$GPGGA,190024,2513.6788,N,08004.7886,W,1,11,1.6,14,M,,M,,*65
06/14/2014	19:00:28.098	$GPGGA,190025,2513.6819,N,08004.7875,W,1,11,1.6,14,M,,M,,*6F
06/14/2014	19:00:29.210	$GPGGA,190026,2513.6849,N,08004.7866,W,1,11,1.6,14,M,,M,,*6B
06/14/2014	19:00:30.296	$GPGGA,190027,2513.6879,N,08004.7856,W,1,11,1.6,14,M,,M,,*6A
06/14/2014	19:00:31.404	$GPGGA,190028,2513.6910,N,08004.7846,W,1,11,1.6,14,M,,M,,*6A
06/14/2014	19:00:32.479	$GPGGA,190029,2513.6940,N,08004.7836,W,1,10,1.6,14,M,,M,,*68
06/14/2014	19:00:33.587	$GPGGA,190030,2513.6971,N,08004.7825,W,1,10,1.6,15,M,,M,,*61
06/14/2014	19:00:34.651	$GPGGA,190031,2513.7001,N,08004.7817,W,1,11,1.6,15,M,,M,,*6F
06/14/2014	19:00:35.715	$GPGGA,190032,2513.7031,N,08004.7809,W,1,11,1.6,15,M,,M,,*60
06/14/2014	19:00:36.910	$GPGGA,190033,2513.7062,N,08004.7797,W,1,10,1.6,15,M,,M,,*6E
06/14/2014	19:00:37.969	$GPGGA,190034,2513.7092,N,08004.7785,W,1,10,1.6,15,M,,M,,*65
06/14/2014	19:00:39.059	$GPGGA,190035,2513.7123,N,08004.7777,W,1,11,1.6,15,M,,M,,*63
06/14/2014	19:00:40.189	$GPGGA,190036,2513.7153,N,08004.7767,W,1,11,1.6,15,M,,M,,*66
06/14/2014	19:00:41.209	$GPGGA,190037,2513.7184,N,08004.7756,W,1,11,1.6,15,M,,M,,*6F
06/14/2014	19:00:42.383	$GPGGA,190038,2513.7211,N,08004.7743,W,1,11,1.6,15,M,,M,,*6B
06/14/2014	19:00:43.370	$GPGGA,190039,2513.7240,N,08004.7733,W,1,11,1.6,15,M,,M,,*69
06/14/2014	19:00:44.609	$GPGGA,190040,2513.7271,N,08004.7721,W,1,11,1.6,15,M,,M,,*66
06/14/2014	19:00:45.673	$GPGGA,190041,2513.7301,N,08004.7711,W,1,11,1.6,15,M,,M,,*62
06/14/2014	19:00:46.650	$GPGGA,190042,2513.7332,N,08004.7702,W,1,11,1.6,15,M,,M,,*63
06/14/2014	19:00:47.790	$GPGGA,190043,2513.7362,N,08004.7690,W,1,10,1.6,15,M,,M,,*6C
06/14/2014	19:00:48.933	$GPGGA,190044,2513.7392,N,08004.7679,W,1,10,1.6,15,M,,M,,*63
06/14/2014	19:00:50.019	$GPGGA,190045,2513.7423,N,08004.7669,W,1,11,1.6,15,M,,M,,*6F
06/14/2014	19:00:51.144	$GPGGA,190046,2513.7455,N,08004.7661,W,1,11,1.6,15,M,,M,,*65
06/14/2014	19:00:52.156	$GPGGA,190047,2513.7485,N,08004.7650,W,1,10,1.6,15,M,,M,,*6A
06/14/2014	19:00:53.363	$GPGGA,190048,2513.7514,N,08004.7638,W,1,10,1.6,15,M,,M,,*62
06/14/2014	19:00:48.649	$GPGGA,190049,2513.7546,N,08004.7629,W,1,11,1.6,15,M,,M,,*65
06/14/2014	19:00:49.702	$GPGGA,190050,2513.7576,N,08004.7620,W,1,11,1.6,15,M,,M,,*67
06/14/2014	19:00:50.830	$GPGGA,190051,2513.7607,N,08004.7607,W,1,11,1.6,15,M,,M,,*66
06/14/2014	19:00:51.915	$GPGGA,190052,2513.7637,N,08004.7598,W,1,11,1.6,15,M,,M,,*63
06/14/2014	19:00:53.023	$GPGGA,190053,2513.7668,N,08004.7587,W,1,11,1.6,15,M,,M,,*66
06/14/2014	19:00:54.099	$GPGGA,190054,2513.7698,N,08004.7575,W,1,11,1.6,15,M,,M,,*63
06/14/2014	19:00:55.217	$GPGGA,190055,2513.7728,N,08004.7565,W,1,11,1.6,15,M,,M,,*69
06/14/2014	19:00:56.292	$GPGGA,190056,2513.7759,N,08004.7555,W,1,11,1.6,15,M,,M,,*6F
06/14/2014	19:00:57.400	$GPGGA,190057,2513.7789,N,08004.7543,W,1,11,1.6,15,M,,M,,*64
06/14/2014	19:00:58.464	$GPGGA,190058,2513.7789,N,08004.7543,W,1,11,1.6,15,M,,M,,*6B
06/14/2014	19:00:59.583	$GPGGA,190059,2513.7850,N,08004.7524,W,1,11,1.6,15,M,,M,,*60
06/14/2014	19:01:00.690	$GPGGA,190100,2513.7879,N,08004.7512,W,1,11,1.6,15,M,,M,,*63
06/14/2014	19:01:01.765	$GPGGA,190101,2513.7911,N,08004.7498,W,1,11,1.6,15,M,,M,,*6E
06/14/2014	19:01:02.851	$GPGGA,190102,2513.7941,N,08004.7489,W,1,11,1.6,15,M,,M,,*68
06/14/2014	19:01:03.970	$GPGGA,190103,2513.7972,N,08004.7480,W,1,11,1.6,15,M,,M,,*60
06/14/2014	19:01:05.100	$GPGGA,190104,2513.8002,N,08004.7467,W,1,11,1.6,15,M,,M,,*6F
06/14/2014	19:01:06.131	$GPGGA,190105,2513.8002,N,08004.7467,W,1,11,1.6,15,M,,M,,*6E
06/14/2014	19:01:07.261	$GPGGA,190106,2513.8063,N,08004.7447,W,1,11,1.6,15,M,,M,,*68
06/14/2014	19:01:08.362	$GPGGA,190107,2513.8092,N,08004.7435,W,1,11,1.6,15,M,,M,,*62
06/14/2014	19:01:09.444	$GPGGA,190108,2513.8124,N,08004.7423,W,1,11,1.6,15,M,,M,,*66
06/14/2014	19:01:10.541	$GPGGA,190109,2513.8154,N,08004.7415,W,1,11,1.6,15,M,,M,,*65
06/14/2014	19:01:11.629	$GPGGA,190110,2513.8185,N,08004.7404,W,1,11,1.6,15,M,,M,,*61
06/14/2014	19:01:12.703	$GPGGA,190111,2513.8215,N,08004.7392,W,1,11,1.6,15,M,,M,,*62
06/14/2014	19:01:13.863	$GPGGA,190112,2513.8244,N,08004.7381,W,1,11,1.6,15,M,,M,,*67
06/14/2014	19:01:14.916	$GPGGA,190113,2513.8276,N,08004.7372,W,1,11,1.6,15,M,,M,,*6B
06/14/2014	19:01:16.054	$GPGGA,190114,2513.8276,N,08004.7372,W,1,11,1.6,15,M,,M,,*6C
06/14/2014	19:01:17.066	$GPGGA,190115,2513.8335,N,08004.7349,W,1,11,1.6,15,M,,M,,*63
06/14/2014	19:01:18.316	$GPGGA,190116,2513.8367,N,08004.7338,W,1,11,1.6,15,M,,M,,*61
06/14/2014	19:01:19.282	$GPGGA,190117,2513.8396,N,08004.7328,W,1,11,1.6,15,M,,M,,*6F
06/14/2014	19:01:20.368	$GPGGA,190118,2513.8428,N,08004.7318,W,1,11,1.6,15,M,,M,,*61
06/14/2014	19:01:21.465	$GPGGA,190119,2513.8457,N,08004.7306,W,1,11,1.6,15,M,,M,,*67
06/14/2014	19:01:22.693	$GPGGA,190120,2513.8489,N,08004.7295,W,1,11,1.6,15,M,,M,,*65
06/14/2014	19:01:23.647	$GPGGA,190121,2513.8519,N,08004.7285,W,1,11,1.6,15,M,,M,,*6D
06/14/2014	19:01:24.777	$GPGGA,190122,2513.8519,N,08004.7285,W,1,11,1.6,15,M,,M,,*6E
06/14/2014	19:01:25.973	$GPGGA,190123,2513.8580,N,08004.7262,W,1,11,1.6,15,M,,M,,*66
06/14/2014	19:01:27.048	$GPGGA,190124,2513.8609,N,08004.7252,W,1,11,1.6,16,M,,M,,*63
06/14/2014	19:01:28.035	$GPGGA,190125,2513.8641,N,08004.7241,W,1,11,1.6,16,M,,M,,*6C
06/14/2014	19:01:29.231	$GPGGA,190126,2513.8671,N,08004.7229,W,1,11,1.6,16,M,,M,,*62
06/14/2014	19:01:30.359	$GPGGA,190127,2513.8702,N,08004.7218,W,1,11,1.6,16,M,,M,,*64
06/14/2014	19:01:31.325	$GPGGA,190128,2513.8702,N,08004.7218,W,1,11,1.6,16,M,,M,,*6B
06/14/2014	19:01:32.443	$GPGGA,190129,2513.8763,N,08004.7197,W,1,11,1.6,16,M,,M,,*69
06/14/2014	19:01:33.551	$GPGGA,190130,2513.8763,N,08004.7197,W,1,11,1.6,16,M,,M,,*61
06/14/2014	19:01:34.703	$GPGGA,190131,2513.8824,N,08004.7175,W,1,11,1.6,16,M,,M,,*60
06/14/2014	19:01:35.723	$GPGGA,190132,2513.8824,N,08004.7175,W,1,11,1.6,16,M,,M,,*63
06/14/2014	19:01:36.886	$GPGGA,190133,2513.8884,N,08004.7153,W,1,11,1.6,16,M,,M,,*6C
06/14/2014	19:01:37.983	$GPGGA,190134,2513.8916,N,08004.7142,W,1,11,1.6,16,M,,M,,*61
06/14/2014	19:01:39.113	$GPGGA,190135,2513.8945,N,08004.7132,W,1,11,1.6,16,M,,M,,*61
06/14/2014	19:01:40.188	$GPGGA,190136,2513.8977,N,08004.7122,W,1,11,1.6,16,M,,M,,*62
06/14/2014	19:01:41.284	$GPGGA,190137,2513.9007,N,08004.7110,W,1,11,1.6,16,M,,M,,*6D
06/14/2014	19:01:42.370	$GPGGA,190138,2513.9039,N,08004.7100,W,1,11,1.6,16,M,,M,,*6E
06/14/2014	19:01:43.467	$GPGGA,190139,2513.9070,N,08004.7091,W,1,11,1.6,16,M,,M,,*6B
06/14/2014	19:01:44.575	$GPGGA,190140,2513.9100,N,08004.7079,W,1,11,1.6,16,M,,M,,*65
06/14/2014	19:01:45.661	$GPGGA,190141,2513.9130,N,08004.7068,W,1,11,1.6,16,M,,M,,*67
06/14/2014	19:01:46.747	$GPGGA,190142,2513.9162,N,08004.7059,W,1,11,1.6,16,M,,M,,*61
06/14/2014	19:01:47.855	$GPGGA,190143,2513.9191,N,08004.7048,W,1,11,1.6,16,M,,M,,*6C
06/14/2014	19:01:48.952	$GPGGA,190144,2513.9223,N,08004.7037,W,1,11,1.6,16,M,,M,,*69
06/14/2014	19:01:50.047	$GPGGA,190145,2513.9252,N,08004.7027,W,1,11,1.6,16,M,,M,,*6F
06/14/2014	19:01:51.130	$GPGGA,190146,2513.9284,N,08004.7017,W,1,11,1.6,16,M,,M,,*64
06/14/2014	19:01:52.230	$GPGGA,190147,2513.9314,N,08004.7006,W,1,11,1.6,16,M,,M,,*6D
06/14/2014	19:01:53.327	$GPGGA,190148,2513.9345,N,08004.6996,W,1,11,1.6,16,M,,M,,*67
06/14/2014	19:01:48.622	$GPGGA,190149,2513.9375,N,08004.6986,W,1,11,1.6,15,M,,M,,*67
06/14/2014	19:01:49.686	$GPGGA,190150,2513.9407,N,08004.6975,W,1,11,1.6,15,M,,M,,*61
06/14/2014	19:01:50.785	$GPGGA,190151,2513.9436,N,08004.6964,W,1,11,1.6,15,M,,M,,*62
06/14/2014	19:01:51.891	$GPGGA,190152,2513.9468,N,08004.6955,W,1,11,1.6,15,M,,M,,*68
06/14/2014	19:01:52.988	$GPGGA,190153,2513.9500,N,08004.6947,W,1,11,1.6,15,M,,M,,*65
06/14/2014	19:01:54.063	$GPGGA,190154,2513.9530,N,08004.6937,W,1,11,1.6,15,M,,M,,*66
06/14/2014	19:01:55.172	$GPGGA,190155,2513.9561,N,08004.6925,W,1,11,1.6,15,M,,M,,*60
06/14/2014	19:01:56.268	$GPGGA,190156,2513.9591,N,08004.6916,W,1,11,1.6,15,M,,M,,*6C
06/14/2014	19:01:57.387	$GPGGA,190157,2513.9621,N,08004.6907,W,1,11,1.6,15,M,,M,,*65
06/14/2014	19:01:58.440	$GPGGA,190158,2513.9650,N,08004.6896,W,1,11,1.6,15,M,,M,,*65
06/14/2014	19:01:59.572	$GPGGA,190159,2513.9682,N,08004.6885,W,1,11,1.6,15,M,,M,,*69
06/14/2014	19:02:00.677	$GPGGA,190200,2513.9711,N,08004.6876,W,1,11,1.6,15,M,,M,,*61
06/14/2014	19:02:01.719	$GPGGA,190201,2513.9743,N,08004.6865,W,1,11,1.6,15,M,,M,,*65
06/14/2014	19:02:02.837	$GPGGA,190202,2513.9773,N,08004.6854,W,1,11,1.6,15,M,,M,,*67
06/14/2014	19:02:03.923	$GPGGA,190203,2513.9805,N,08004.6846,W,1,10,1.6,15,M,,M,,*6A
06/14/2014	19:02:05.047	$GPGGA,190204,2513.9837,N,08004.6838,W,1,10,1.6,15,M,,M,,*65
06/14/2014	19:02:06.139	$GPGGA,190205,2513.9866,N,08004.6828,W,1,10,1.6,15,M,,M,,*61
06/14/2014	19:02:07.214	$GPGGA,190206,2513.9897,N,08004.6818,W,1,10,1.6,15,M,,M,,*6F
06/14/2014	19:02:08.300	$GPGGA,190207,2513.9928,N,08004.6808,W,1,11,1.6,15,M,,M,,*6B
06/14/2014	19:02:09.418	$GPGGA,190208,2513.9959,N,08004.6798,W,1,11,1.6,15,M,,M,,*64
06/14/2014	19:02:10.482	$GPGGA,190209,2513.9989,N,08004.6790,W,1,11,1.6,15,M,,M,,*60
06/14/2014	19:02:11.601	$GPGGA,190210,2514.0021,N,08004.6781,W,1,11,1.6,15,M,,M,,*6D
06/14/2014	19:02:12.676	$GPGGA,190211,2514.0051,N,08004.6769,W,1,11,1.6,15,M,,M,,*6D
06/14/2014	19:02:13.784	$GPGGA,190212,2514.0080,N,08004.6759,W,1,11,1.6,15,M,,M,,*61
06/14/2014	19:02:14.859	$GPGGA,190213,2514.0111,N,08004.6750,W,1,11,1.6,15,M,,M,,*60
06/14/2014	19:02:16.066	$GPGGA,190214,2514.0141,N,08004.6739,W,1,11,1.6,15,M,,M,,*6D
06/14/2014	19:02:17.166	$GPGGA,190215,2514.0172,N,08004.6729,W,1,11,1.6,15,M,,M,,*6D
06/14/2014	19:02:18.161	$GPGGA,190216,2514.0202,N,08004.6718,W,1,11,1.6,15,M,,M,,*68
06/14/2014	19:02:19.269	$GPGGA,190217,2514.0233,N,08004.6708,W,1,11,1.6,15,M,,M,,*6A
06/14/2014	19:02:20.442	$GPGGA,190218,2514.0263,N,08004.6697,W,1,11,1.6,15,M,,M,,*67
06/14/2014	19:02:21.562	$GPGGA,190219,2514.0293,N,08004.6686,W,1,11,1.6,15,M,,M,,*69
06/14/2014	19:02:22.536	$GPGGA,190220,2514.0324,N,08004.6677,W,1,11,1.6,15,M,,M,,*60
06/14/2014	19:02:23.732	$GPGGA,190221,2514.0354,N,08004.6664,W,1,11,1.6,15,M,,M,,*64
06/14/2014	19:02:24.818	$GPGGA,190222,2514.0385,N,08004.6654,W,1,11,1.6,15,M,,M,,*68
06/14/2014	19:02:25.926	$GPGGA,190223,2514.0416,N,08004.6647,W,1,10,1.6,15,M,,M,,*67
06/14/2014	19:02:27.034	$GPGGA,190224,2514.0448,N,08004.6636,W,1,10,1.6,14,M,,M,,*6C
06/14/2014	19:02:28.103	$GPGGA,190225,2514.0479,N,08004.6623,W,1,11,1.6,14,M,,M,,*6A
06/14/2014	19:02:29.194	$GPGGA,190226,2514.0510,N,08004.6616,W,1,11,1.6,14,M,,M,,*61
06/14/2014	19:02:30.313	$GPGGA,190227,2514.0541,N,08004.6605,W,1,11,1.6,14,M,,M,,*66
06/14/2014	19:02:31.410	$GPGGA,190228,2514.0571,N,08004.6591,W,1,11,1.6,15,M,,M,,*65
06/14/2014	19:02:32.485	$GPGGA,190229,2514.0602,N,08004.6581,W,1,11,1.6,14,M,,M,,*63
06/14/2014	19:02:33.577	$GPGGA,190230,2514.0632,N,08004.6572,W,1,11,1.6,14,M,,M,,*64
06/14/2014	19:02:34.690	$GPGGA,190231,2514.0661,N,08004.6559,W,1,11,1.6,15,M,,M,,*6B
06/14/2014	19:02:35.787	$GPGGA,190232,2514.0690,N,08004.6546,W,1,11,1.6,15,M,,M,,*68
06/14/2014	19:02:36.873	$GPGGA,190233,2514.0722,N,08004.6536,W,1,11,1.6,15,M,,M,,*66
06/14/2014	19:02:37.963	$GPGGA,190234,2514.0751,N,08004.6526,W,1,11,1.6,15,M,,M,,*64
06/14/2014	19:02:39.084	$GPGGA,190235,2514.0781,N,08004.6515,W,1,11,1.6,15,M,,M,,*68
06/14/2014	19:02:40.170	$GPGGA,190236,2514.0812,N,08004.6503,W,1,11,1.6,15,M,,M,,*69
06/14/2014	19:02:41.259	$GPGGA,190237,2514.0842,N,08004.6492,W,1,11,1.6,15,M,,M,,*64
06/14/2014	19:02:42.353	$GPGGA,190238,2514.0871,N,08004.6481,W,1,11,1.6,15,M,,M,,*69
06/14/2014	19:02:43.475	$GPGGA,190239,2514.0903,N,08004.6470,W,1,11,1.6,15,M,,M,,*62
06/14/2014	19:02:44.541	$GPGGA,190240,2514.0932,N,08004.6456,W,1,11,1.6,15,M,,M,,*6A
06/14/2014	19:02:45.614	$GPGGA,190241,2514.0961,N,08004.6445,W,1,10,1.8,15,M,,M,,*60
06/14/2014	19:02:46.711	$GPGGA,190242,2514.0993,N,08004.6435,W,1,10,1.6,15,M,,M,,*67
06/14/2014	19:02:47.841	$GPGGA,190243,2514.1022,N,08004.6422,W,1,11,1.6,15,M,,M,,*63
06/14/2014	19:02:48.916	$GPGGA,190244,2514.1054,N,08004.6411,W,1,11,1.6,15,M,,M,,*65
06/14/2014	19:02:50.032	$GPGGA,190245,2514.1084,N,08004.6401,W,1,11,1.6,15,M,,M,,*68
06/14/2014	19:02:51.087	$GPGGA,190246,2514.1115,N,08004.6389,W,1,11,1.6,15,M,,M,,*65
06/14/2014	19:02:52.221	$GPGGA,190247,2514.1144,N,08004.6377,W,1,11,1.6,15,M,,M,,*61
06/14/2014	19:02:53.303	$GPGGA,190248,2514.1174,N,08004.6367,W,1,11,1.6,15,M,,M,,*6C
06/14/2014	19:02:48.565	$GPGGA,190249,2514.1205,N,08004.6357,W,1,11,1.6,15,M,,M,,*6B
06/14/2014	19:02:49.673	$GPGGA,190250,2514.1236,N,08004.6344,W,1,11,1.6,15,M,,M,,*61
06/14/2014	19:02:50.792	$GPGGA,190251,2514.1267,N,08004.6332,W,1,11,1.6,16,M,,M,,*66
06/14/2014	19:02:51.867	$GPGGA,190252,2514.1297,N,08004.6323,W,1,11,1.6,16,M,,M,,*6A
06/14/2014	19:02:53.075	$GPGGA,190253,2514.1328,N,08004.6312,W,1,11,1.6,16,M,,M,,*6C
06/14/2014	19:02:54.039	$GPGGA,190254,2514.1358,N,08004.6300,W,1,11,1.6,16,M,,M,,*6F
06/14/2014	19:02:55.146	$GPGGA,190255,2514.1389,N,08004.6290,W,1,11,1.6,16,M,,M,,*6A
06/14/2014	19:02:56.268	$GPGGA,190256,2514.1419,N,08004.6279,W,1,11,1.6,16,M,,M,,*60
06/14/2014	19:02:57.328	$GPGGA,190257,2514.1449,N,08004.6267,W,1,11,1.6,16,M,,M,,*6B
06/14/2014	19:02:58.425	$GPGGA,190258,2514.1481,N,08004.6257,W,1,11,1.6,16,M,,M,,*63
06/14/2014	19:02:59.500	$GPGGA,190259,2514.1512,N,08004.6247,W,1,11,1.6,16,M,,M,,*68
06/14/2014	19:03:00.752	$GPGGA,190300,2514.1543,N,08004.6235,W,1,11,1.6,16,M,,M,,*64
06/14/2014	19:03:01.837	$GPGGA,190301,2514.1572,N,08004.6223,W,1,10,1.6,16,M,,M,,*61
06/14/2014	19:03:02.791	$GPGGA,190302,2514.1604,N,08004.6214,W,1,10,1.6,16,M,,M,,*64
06/14/2014	19:03:04.009	$GPGGA,190303,2514.1633,N,08004.6202,W,1,10,1.6,16,M,,M,,*66
06/14/2014	19:03:04.996	$GPGGA,190304,2514.1664,N,08004.6191,W,1,10,1.6,17,M,,M,,*6B
06/14/2014	19:03:06.104	$GPGGA,190305,2514.1694,N,08004.6180,W,1,11,1.6,17,M,,M,,*64
06/14/2014	19:03:07.277	$GPGGA,190306,2514.1726,N,08004.6170,W,1,11,1.6,17,M,,M,,*60
06/14/2014	19:03:08.286	$GPGGA,190307,2514.1756,N,08004.6159,W,1,11,1.6,17,M,,M,,*6D
06/14/2014	19:03:09.482	$GPGGA,190308,2514.1787,N,08004.6149,W,1,11,1.6,17,M,,M,,*6F
06/14/2014	19:03:10.579	$GPGGA,190309,2514.1817,N,08004.6140,W,1,11,1.6,17,M,,M,,*61
06/14/2014	19:03:11.555	$GPGGA,190310,2514.1848,N,08004.6131,W,1,11,1.6,17,M,,M,,*65
06/14/2014	19:03:12.784	$GPGGA,190311,2514.1879,N,08004.6120,W,1,10,1.6,17,M,,M,,*67
06/14/2014	19:03:13.869	$GPGGA,190312,2514.1910,N,08004.6110,W,1,10,1.6,17,M,,M,,*69
06/14/2014	19:03:14.971	$GPGGA,190313,2514.1942,N,08004.6101,W,1,11,1.6,17,M,,M,,*6E
06/14/2014	19:03:15.965	$GPGGA,190314,2514.1973,N,08004.6092,W,1,11,1.6,17,M,,M,,*60
06/14/2014	19:03:17.043	$GPGGA,190315,2514.2001,N,08004.6079,W,1,10,1.6,17,M,,M,,*6A
06/14/2014	19:03:18.054	$GPGGA,190316,2514.2031,N,08004.6069,W,1,10,1.6,17,M,,M,,*6B
06/14/2014	19:03:19.100	$GPGGA,190317,2514.2063,N,08004.6061,W,1,11,1.6,17,M,,M,,*64
06/14/2014	19:03:20.140	$GPGGA,190318,2514.2094,N,08004.6050,W,1,11,1.6,17,M,,M,,*61
06/14/2014	19:03:23.262	$GPGGA,190321,2514.2186,N,08004.6020,W,1,11,1.6,18,M,,M,,*61
06/14/2014	19:03:24.247	$GPGGA,190322,2514.2217,N,08004.6009,W,1,11,1.6,18,M,,M,,*62
06/14/2014	19:03:25.293	$GPGGA,190323,2514.2247,N,08004.5998,W,1,11,1.6,18,M,,M,,*64
06/14/2014	19:03:26.329	$GPGGA,190324,2514.2278,N,08004.5989,W,1,11,1.6,18,M,,M,,*6F
06/14/2014	19:03:27.350	$GPGGA,190325,2514.2309,N,08004.5979,W,1,11,1.6,18,M,,M,,*66
06/14/2014	19:03:28.388	$GPGGA,190326,2514.2340,N,08004.5970,W,1,11,1.6,18,M,,M,,*61
06/14/2014	19:03:29.439	$GPGGA,190327,2514.2370,N,08004.5961,W,1,11,1.6,18,M,,M,,*63
06/14/2014	19:03:30.475	$GPGGA,190328,2514.2402,N,08004.5951,W,1,11,1.6,18,M,,M,,*6D
06/14/2014	19:03:31.496	$GPGGA,190329,2514.2432,N,08004.5942,W,1,11,1.6,18,M,,M,,*6D
06/14/2014	19:03:32.536	$GPGGA,190330,2514.2464,N,08004.5934,W,1,11,1.6,18,M,,M,,*67
06/14/2014	19:03:33.594	$GPGGA,190331,2514.2496,N,08004.5923,W,1,11,1.6,18,M,,M,,*6D
06/14/2014	19:03:34.611	$GPGGA,190332,2514.2528,N,08004.5914,W,1,11,1.6,18,M,,M,,*6E
06/14/2014	19:03:35.615	$GPGGA,190333,2514.2558,N,08004.5905,W,1,11,1.6,18,M,,M,,*68
06/14/2014	19:03:36.661	$GPGGA,190334,2514.2590,N,08004.5895,W,1,11,1.6,18,M,,M,,*63
06/14/2014	19:03:37.739	$GPGGA,190335,2514.2619,N,08004.5884,W,1,11,1.6,17,M,,M,,*6F
06/14/2014	19:03:38.734	$GPGGA,190336,2514.2651,N,08004.5875,W,1,11,1.6,17,M,,M,,*6E
06/14/2014	19:03:39.791	$GPGGA,190337,2514.2683,N,08004.5865,W,1,11,1.6,17,M,,M,,*61
06/14/2014	19:03:40.786	$GPGGA,190338,2514.2713,N,08004.5854,W,1,11,1.6,17,M,,M,,*64
06/14/2014	19:03:41.823	$GPGGA,190339,2514.2746,N,08004.5844,W,1,11,1.6,17,M,,M,,*64
06/14/2014	19:03:42.880	$GPGGA,190340,2514.2777,N,08004.5834,W,1,11,1.6,17,M,,M,,*6F
06/14/2014	19:03:43.895	$GPGGA,190341,2514.2807,N,08004.5824,W,1,11,1.6,17,M,,M,,*67
06/14/2014	19:03:44.942	$GPGGA,190342,2514.2838,N,08004.5813,W,1,11,1.6,17,M,,M,,*6C
06/14/2014	19:03:45.968	$GPGGA,190343,2514.2868,N,08004.5804,W,1,11,1.6,17,M,,M,,*6E
06/14/2014	19:03:47.129	$GPGGA,190344,2514.2898,N,08004.5792,W,1,11,1.6,17,M,,M,,*66
06/14/2014	19:03:48.051	$GPGGA,190345,2514.2930,N,08004.5782,W,1,11,1.6,17,M,,M,,*65
06/14/2014	19:03:49.077	$GPGGA,190346,2514.2961,N,08004.5772,W,1,11,1.9,17,M,,M,,*62
06/14/2014	19:03:50.113	$GPGGA,190347,2514.2991,N,08004.5760,W,1,11,1.6,17,M,,M,,*60
06/14/2014	19:03:51.274	$GPGGA,190348,2514.3022,N,08004.5748,W,1,11,1.6,17,M,,M,,*65
06/14/2014	19:03:48.634	$GPGGA,190349,2514.3053,N,08004.5738,W,1,11,1.6,17,M,,M,,*65
06/14/2014	19:03:49.556	$GPGGA,190350,2514.3082,N,08004.5727,W,1,11,1.6,17,M,,M,,*6F
06/14/2014	19:03:50.593	$GPGGA,190351,2514.3114,N,08004.5716,W,1,11,1.6,17,M,,M,,*62
06/14/2014	19:03:51.639	$GPGGA,190352,2514.3143,N,08004.5706,W,1,11,1.6,17,M,,M,,*62
06/14/2014	19:03:52.769	$GPGGA,190353,2514.3175,N,08004.5694,W,1,11,1.6,17,M,,M,,*6C
06/14/2014	19:03:53.713	$GPGGA,190354,2514.3207,N,08004.5683,W,1,11,1.6,17,M,,M,,*6B
06/14/2014	19:03:54.748	$GPGGA,190355,2514.3237,N,08004.5672,W,1,11,1.6,17,M,,M,,*67
06/14/2014	19:03:55.878	$GPGGA,190356,2514.3269,N,08004.5661,W,1,11,1.6,17,M,,M,,*6D
06/14/2014	19:03:56.915	$GPGGA,190357,2514.3299,N,08004.5650,W,1,11,1.6,17,M,,M,,*61
06/14/2014	19:03:57.941	$GPGGA,190358,2514.3330,N,08004.5639,W,1,11,1.6,17,M,,M,,*63
06/14/2014	19:03:58.987	$GPGGA,190359,2514.3360,N,08004.5627,W,1,11,1.6,17,M,,M,,*68
06/14/2014	19:03:59.930	$GPGGA,190400,2514.3389,N,08004.5615,W,1,11,1.6,17,M,,M,,*65
06/14/2014	19:04:01.039	$GPGGA,190401,2514.3420,N,08004.5605,W,1,11,1.6,17,M,,M,,*61
06/14/2014	19:04:02.084	$GPGGA,190402,2514.3450,N,08004.5592,W,1,11,1.6,17,M,,M,,*68
06/14/2014	19:04:03.130	$GPGGA,190403,2514.3481,N,08004.5582,W,1,11,1.6,17,M,,M,,*64
06/14/2014	19:04:04.159	$GPGGA,190404,2514.3512,N,08004.5573,W,1,11,1.6,17,M,,M,,*66
06/14/2014	19:04:05.185	$GPGGA,190405,2514.3544,N,08004.5562,W,1,10,1.6,18,M,,M,,*6A
06/14/2014	19:04:06.220	$GPGGA,190406,2514.3575,N,08004.5551,W,1,10,1.6,18,M,,M,,*6B
06/14/2014	19:04:07.267	$GPGGA,190407,2514.3605,N,08004.5540,W,1,11,1.6,18,M,,M,,*6F
06/14/2014	19:04:08.304	$GPGGA,190408,2514.3635,N,08004.5530,W,1,11,1.6,18,M,,M,,*64
06/14/2014	19:04:09.340	$GPGGA,190409,2514.3667,N,08004.5518,W,1,11,1.6,18,M,,M,,*68
06/14/2014	19:04:10.356	$GPGGA,190410,2514.3696,N,08004.5507,W,1,11,1.6,18,M,,M,,*60
06/14/2014	19:04:11.402	$GPGGA,190411,2514.3728,N,08004.5496,W,1,11,1.6,18,M,,M,,*6C
06/14/2014	19:04:12.470	$GPGGA,190412,2514.3759,N,08004.5485,W,1,11,1.6,18,M,,M,,*6B
06/14/2014	19:04:13.444	$GPGGA,190413,2514.3790,N,08004.5473,W,1,11,1.6,18,M,,M,,*66
06/14/2014	19:04:14.501	$GPGGA,190414,2514.3821,N,08004.5463,W,1,11,1.6,18,M,,M,,*65
06/14/2014	19:04:15.548	$GPGGA,190415,2514.3851,N,08004.5452,W,1,11,1.6,18,M,,M,,*61
06/14/2014	19:04:16.564	$GPGGA,190416,2514.3883,N,08004.5441,W,1,11,1.6,18,M,,M,,*6F
06/14/2014	19:04:17.621	$GPGGA,190417,2514.3913,N,08004.5429,W,1,11,1.6,18,M,,M,,*68
06/14/2014	19:04:18.616	$GPGGA,190418,2514.3944,N,08004.5419,W,1,11,1.6,18,M,,M,,*66
06/14/2014	19:04:19.684	$GPGGA,190419,2514.3974,N,08004.5409,W,1,11,1.6,18,M,,M,,*65
06/14/2014	19:04:20.699	$GPGGA,190420,2514.4005,N,08004.5397,W,1,11,1.6,18,M,,M,,*67
06/14/2014	19:04:21.756	$GPGGA,190421,2514.4035,N,08004.5386,W,1,11,1.6,18,M,,M,,*65
06/14/2014	19:04:22.773	$GPGGA,190422,2514.4067,N,08004.5375,W,1,11,1.6,18,M,,M,,*6D
06/14/2014	19:04:23.807	$GPGGA,190423,2514.4099,N,08004.5364,W,1,11,1.6,18,M,,M,,*6D
06/14/2014	19:04:24.833	$GPGGA,190424,2514.4129,N,08004.5354,W,1,11,1.6,18,M,,M,,*63
06/14/2014	19:04:25.890	$GPGGA,190425,2514.4161,N,08004.5345,W,1,11,1.6,18,M,,M,,*6E
06/14/2014	19:04:26.896	$GPGGA,190426,2514.4191,N,08004.5333,W,1,11,1.6,18,M,,M,,*63
06/14/2014	19:04:27.973	$GPGGA,190427,2514.4223,N,08004.5322,W,1,11,1.6,18,M,,M,,*68
06/14/2014	19:04:28.979	$GPGGA,190428,2514.4254,N,08004.5314,W,1,11,1.6,18,M,,M,,*62
06/14/2014	19:04:30.005	$GPGGA,190429,2514.4285,N,08004.5304,W,1,11,1.6,18,M,,M,,*6E
06/14/2014	19:04:31.041	$GPGGA,190430,2514.4314,N,08004.5292,W,1,11,1.6,18,M,,M,,*61
06/14/2014	19:04:32.106	$GPGGA,190431,2514.4346,N,08004.5281,W,1,11,1.6,17,M,,M,,*6A
06/14/2014	19:04:33.124	$GPGGA,190432,2514.4378,N,08004.5271,W,1,11,1.6,17,M,,M,,*6B
06/14/2014	19:04:34.130	$GPGGA,190433,2514.4410,N,08004.5261,W,1,11,1.6,17,M,,M,,*62
06/14/2014	19:04:35.187	$GPGGA,190434,2514.4440,N,08004.5250,W,1,11,1.6,17,M,,M,,*62
06/14/2014	19:04:36.254	$GPGGA,190435,2514.4471,N,08004.5240,W,1,11,1.6,17,M,,M,,*60
06/14/2014	19:04:37.249	$GPGGA,190436,2514.4501,N,08004.5229,W,1,11,1.6,17,M,,M,,*6A
06/14/2014	19:04:38.286	$GPGGA,190437,2514.4531,N,08004.5218,W,1,11,1.6,17,M,,M,,*6A
06/14/2014	19:04:39.405	$GPGGA,190438,2514.4562,N,08004.5207,W,1,11,1.6,17,M,,M,,*6D
06/14/2014	19:04:40.358	$GPGGA,190439,2514.4592,N,08004.5196,W,1,11,1.6,17,M,,M,,*68
06/14/2014	19:04:41.394	$GPGGA,190440,2514.4624,N,08004.5186,W,1,11,1.6,17,M,,M,,*69
06/14/2014	19:04:42.409	$GPGGA,190441,2514.4655,N,08004.5175,W,1,11,1.6,17,M,,M,,*62
06/14/2014	19:04:43.549	$GPGGA,190442,2514.4686,N,08004.5164,W,1,11,1.6,17,M,,M,,*6F
06/14/2014	19:04:44.524	$GPGGA,190443,2514.4718,N,08004.5155,W,1,11,1.6,17,M,,M,,*6A
06/14/2014	19:04:45.519	$GPGGA,190444,2514.4749,N,08004.5147,W,1,11,1.6,17,M,,M,,*6A
06/14/2014	19:04:46.565	$GPGGA,190445,2514.4780,N,08004.5137,W,1,10,1.6,17,M,,M,,*68
06/14/2014	19:04:47.591	$GPGGA,190446,2514.4811,N,08004.5127,W,1,10,1.6,17,M,,M,,*6D
06/14/2014	19:04:48.752	$GPGGA,190447,2514.4841,N,08004.5118,W,1,11,1.6,17,M,,M,,*64
06/14/2014	19:04:49.768	$GPGGA,190448,2514.4872,N,08004.5110,W,1,11,1.6,17,M,,M,,*63
06/14/2014	19:04:48.611	$GPGGA,190449,2514.4902,N,08004.5100,W,1,10,1.6,17,M,,M,,*64
06/14/2014	19:04:49.647	$GPGGA,190450,2514.4934,N,08004.5089,W,1,10,1.6,17,M,,M,,*69
06/14/2014	19:04:50.704	$GPGGA,190451,2514.4964,N,08004.5079,W,1,11,1.6,17,M,,M,,*63
06/14/2014	19:04:51.730	$GPGGA,190452,2514.4996,N,08004.5071,W,1,11,1.6,17,M,,M,,*65
06/14/2014	19:04:52.736	$GPGGA,190453,2514.5028,N,08004.5063,W,1,10,1.6,17,M,,M,,*6B
06/14/2014	19:04:53.783	$GPGGA,190454,2514.5058,N,08004.5053,W,1,10,1.6,17,M,,M,,*68
06/14/2014	19:04:54.819	$GPGGA,190455,2514.5090,N,08004.5044,W,1,11,1.6,17,M,,M,,*6A
06/14/2014	19:04:55.752	$GPGGA,190456,2514.5121,N,08004.5036,W,1,11,1.6,17,M,,M,,*67
06/14/2014	19:04:56.880	$GPGGA,190457,2514.5152,N,08004.5028,W,1,10,1.6,17,M,,M,,*6C
06/14/2014	19:04:57.917	$GPGGA,190458,2514.5184,N,08004.5019,W,1,10,1.6,17,M,,M,,*6A
06/14/2014	19:04:58.964	$GPGGA,190459,2514.5215,N,08004.5011,W,1,10,1.6,17,M,,M,,*68
06/14/2014	19:05:00.010	$GPGGA,190500,2514.5246,N,08004.5003,W,1,10,1.6,17,M,,M,,*60
06/14/2014	19:05:01.036	$GPGGA,190501,2514.5278,N,08004.4995,W,1,11,1.6,17,M,,M,,*6A
06/14/2014	19:05:02.045	$GPGGA,190502,2514.5309,N,08004.4986,W,1,11,1.6,16,M,,M,,*6D
06/14/2014	19:05:03.104	$GPGGA,190503,2514.5340,N,08004.4978,W,1,11,1.6,16,M,,M,,*60
06/14/2014	19:05:04.139	$GPGGA,190504,2514.5372,N,08004.4970,W,1,11,1.6,16,M,,M,,*6E
06/14/2014	19:05:05.182	$GPGGA,190505,2514.5403,N,08004.4962,W,1,11,1.6,16,M,,M,,*6D
06/14/2014	19:05:06.204	$GPGGA,190506,2514.5434,N,08004.4954,W,1,11,1.6,16,M,,M,,*6F
06/14/2014	19:05:07.234	$GPGGA,190507,2514.5466,N,08004.4946,W,1,11,1.6,16,M,,M,,*6A
06/14/2014	19:05:08.270	$GPGGA,190508,2514.5497,N,08004.4937,W,1,11,1.6,16,M,,M,,*6D
06/14/2014	19:05:09.307	$GPGGA,190509,2514.5528,N,08004.4929,W,1,11,1.6,16,M,,M,,*66
06/14/2014	19:05:10.333	$GPGGA,190510,2514.5560,N,08004.4922,W,1,11,1.6,16,M,,M,,*69
06/14/2014	19:05:11.400	$GPGGA,190511,2514.5591,N,08004.4913,W,1,11,1.6,16,M,,M,,*64
06/14/2014	19:05:12.406	$GPGGA,190512,2514.5621,N,08004.4905,W,1,11,1.6,16,M,,M,,*68
06/14/2014	19:05:13.433	$GPGGA,190513,2514.5652,N,08004.4898,W,1,11,1.6,16,M,,M,,*68
06/14/2014	19:05:14.470	$GPGGA,190514,2514.5683,N,08004.4890,W,1,11,1.6,16,M,,M,,*6B
06/14/2014	19:05:15.524	$GPGGA,190515,2514.5715,N,08004.4882,W,1,10,1.6,16,M,,M,,*66
06/14/2014	19:05:16.550	$GPGGA,190516,2514.5748,N,08004.4875,W,1,10,1.6,16,M,,M,,*65
06/14/2014	19:05:17.566	$GPGGA,190517,2514.5779,N,08004.4867,W,1,11,1.6,16,M,,M,,*64
06/14/2014	19:05:18.633	$GPGGA,190518,2514.5809,N,08004.4857,W,1,11,1.6,16,M,,M,,*60
06/14/2014	19:05:19.670	$GPGGA,190519,2514.5841,N,08004.4850,W,1,11,1.6,16,M,,M,,*6A
06/14/2014	19:05:20.717	$GPGGA,190520,2514.5871,N,08004.4842,W,1,11,1.6,16,M,,M,,*60
06/14/2014	19:05:21.701	$GPGGA,190521,2514.5902,N,08004.4833,W,1,11,1.6,16,M,,M,,*62
06/14/2014	19:05:22.769	$GPGGA,190522,2514.5932,N,08004.4826,W,1,11,1.6,16,M,,M,,*66
06/14/2014	19:05:23.774	$GPGGA,190523,2514.5964,N,08004.4817,W,1,11,1.6,16,M,,M,,*66
06/14/2014	19:05:24.841	$GPGGA,190524,2514.5996,N,08004.4808,W,1,11,1.6,16,M,,M,,*62
06/14/2014	19:05:25.847	$GPGGA,190525,2514.6028,N,08004.4801,W,1,11,1.6,16,M,,M,,*65
06/14/2014	19:05:26.893	$GPGGA,190526,2514.6059,N,08004.4792,W,1,11,1.6,16,M,,M,,*65
06/14/2014	19:05:28.002	$GPGGA,190527,2514.6091,N,08004.4781,W,1,11,1.6,16,M,,M,,*62
06/14/2014	19:05:28.978	$GPGGA,190528,2514.6122,N,08004.4775,W,1,11,1.6,16,M,,M,,*6F
06/14/2014	19:05:29.972	$GPGGA,190529,2514.6152,N,08004.4768,W,1,10,1.6,16,M,,M,,*64
06/14/2014	19:05:31.029	$GPGGA,190530,2514.6184,N,08004.4756,W,1,10,1.6,16,M,,M,,*6A
06/14/2014	19:05:32.181	$GPGGA,190531,2514.6214,N,08004.4746,W,1,11,1.6,16,M,,M,,*61
06/14/2014	19:05:33.214	$GPGGA,190532,2514.6246,N,08004.4739,W,1,11,1.6,15,M,,M,,*6E
06/14/2014	19:05:34.241	$GPGGA,190533,2514.6277,N,08004.4730,W,1,10,1.6,15,M,,M,,*65
06/14/2014	19:05:35.256	$GPGGA,190534,2514.6307,N,08004.4718,W,1,10,1.6,15,M,,M,,*6E
06/14/2014	19:05:36.303	$GPGGA,190535,2514.6337,N,08004.4708,W,1,11,1.6,15,M,,M,,*6C
06/14/2014	19:05:37.256	$GPGGA,190536,2514.6369,N,08004.4699,W,1,11,1.6,15,M,,M,,*6D
06/14/2014	19:05:38.262	$GPGGA,190537,2514.6398,N,08004.4689,W,1,11,1.6,15,M,,M,,*63
06/14/2014	19:05:39.381	$GPGGA,190538,2514.6430,N,08004.4678,W,1,11,1.6,15,M,,M,,*67
06/14/2014	19:05:40.417	$GPGGA,190539,2514.6460,N,08004.4669,W,1,11,1.6,15,M,,M,,*63
06/14/2014	19:05:41.475	$GPGGA,190540,2514.6491,N,08004.4658,W,1,11,1.6,15,M,,M,,*61
06/14/2014	19:05:42.501	$GPGGA,190541,2514.6523,N,08004.4647,W,1,11,1.6,15,M,,M,,*66
06/14/2014	19:05:43.537	$GPGGA,190542,2514.6553,N,08004.4638,W,1,11,1.6,15,M,,M,,*6A
06/14/2014	19:05:44.553	$GPGGA,190543,2514.6585,N,08004.4628,W,1,11,1.6,15,M,,M,,*61
06/14/2014	19:05:45.610	$GPGGA,190544,2514.6615,N,08004.4616,W,1,11,1.6,15,M,,M,,*61
06/14/2014	19:05:46.625	$GPGGA,190545,2514.6646,N,08004.4606,W,1,11,1.6,15,M,,M,,*67
06/14/2014	19:05:47.672	$GPGGA,190546,2514.6676,N,08004.4597,W,1,11,1.6,15,M,,M,,*6C
06/14/2014	19:05:48.698	$GPGGA,190547,2514.6708,N,08004.4585,W,1,11,1.6,15,M,,M,,*66
06/14/2014	19:05:49.745	$GPGGA,190548,2514.6738,N,08004.4573,W,1,11,1.6,15,M,,M,,*63
06/14/2014	19:05:48.589	$GPGGA,190549,2514.6769,N,08004.4564,W,1,11,1.6,15,M,,M,,*60
06/14/2014	19:05:49.614	$GPGGA,190550,2514.6799,N,08004.4554,W,1,11,1.6,15,M,,M,,*64
06/14/2014	19:05:50.651	$GPGGA,190551,2514.6830,N,08004.4539,W,1,11,1.8,15,M,,M,,*6C
06/14/2014	19:05:51.697	$GPGGA,190552,2514.6861,N,08004.4529,W,1,11,1.8,15,M,,M,,*6A
06/14/2014	19:05:52.734	$GPGGA,190553,2514.6892,N,08004.4519,W,1,11,1.6,16,M,,M,,*69
06/14/2014	19:05:53.761	$GPGGA,190554,2514.6922,N,08004.4507,W,1,11,1.6,16,M,,M,,*6B
06/14/2014	19:05:54.817	$GPGGA,190555,2514.6953,N,08004.4497,W,1,11,1.6,16,M,,M,,*64
06/14/2014	19:05:55.833	$GPGGA,190556,2514.6983,N,08004.4486,W,1,11,1.6,16,M,,M,,*6A
06/14/2014	19:05:56.890	$GPGGA,190557,2514.7014,N,08004.4475,W,1,11,1.6,16,M,,M,,*61
06/14/2014	19:05:57.896	$GPGGA,190558,2514.7045,N,08004.4464,W,1,11,1.6,16,M,,M,,*6A
06/14/2014	19:05:58.922	$GPGGA,190559,2514.7077,N,08004.4453,W,1,11,1.6,16,M,,M,,*6E
06/14/2014	19:05:59.988	$GPGGA,190600,2514.7108,N,08004.4442,W,1,11,1.6,16,M,,M,,*68
06/14/2014	19:06:01.025	$GPGGA,190601,2514.7139,N,08004.4433,W,1,11,1.6,16,M,,M,,*6D
06/14/2014	19:06:02.042	$GPGGA,190602,2514.7170,N,08004.4420,W,1,11,1.6,16,M,,M,,*61
06/14/2014	19:06:03.097	$GPGGA,190603,2514.7200,N,08004.4410,W,1,11,1.6,16,M,,M,,*67
06/14/2014	19:06:04.118	$GPGGA,190604,2514.7233,N,08004.4402,W,1,11,1.6,16,M,,M,,*63
06/14/2014	19:06:05.129	$GPGGA,190605,2514.7264,N,08004.4391,W,1,10,1.6,16,M,,M,,*6C
06/14/2014	19:06:06.176	$GPGGA,190606,2514.7294,N,08004.4381,W,1,10,1.6,16,M,,M,,*61
06/14/2014	19:06:07.230	$GPGGA,190607,2514.7326,N,08004.4373,W,1,10,1.6,16,M,,M,,*65
06/14/2014	19:06:08.258	$GPGGA,190608,2514.7358,N,08004.4364,W,1,10,1.6,16,M,,M,,*65
06/14/2014	19:06:09.263	$GPGGA,190609,2514.7390,N,08004.4354,W,1,11,1.6,16,M,,M,,*62
06/14/2014	19:06:10.310	$GPGGA,190610,2514.7421,N,08004.4343,W,1,11,1.6,16,M,,M,,*61
06/14/2014	19:06:11.326	$GPGGA,190611,2514.7453,N,08004.4333,W,1,10,1.6,16,M,,M,,*63
06/14/2014	19:06:12.383	$GPGGA,190612,2514.7485,N,08004.4326,W,1,10,1.6,16,M,,M,,*6F
06/14/2014	19:06:13.398	$GPGGA,190613,2514.7514,N,08004.4315,W,1,10,1.6,16,M,,M,,*67
06/14/2014	19:06:14.445	$GPGGA,190614,2514.7546,N,08004.4305,W,1,10,1.6,16,M,,M,,*66
06/14/2014	19:06:15.575	$GPGGA,190615,2514.7576,N,08004.4295,W,1,10,1.6,16,M,,M,,*6C
06/14/2014	19:06:16.528	$GPGGA,190616,2514.7607,N,08004.4285,W,1,10,1.6,16,M,,M,,*6B
06/14/2014	19:06:17.658	$GPGGA,190617,2514.7637,N,08004.4275,W,1,11,1.6,16,M,,M,,*67
06/14/2014	19:06:18.570	$GPGGA,190618,2514.7666,N,08004.4265,W,1,11,1.6,16,M,,M,,*6D
06/14/2014	19:06:19.608	$GPGGA,190619,2514.7698,N,08004.4255,W,1,11,1.6,16,M,,M,,*6E
06/14/2014	19:06:20.757	$GPGGA,190620,2514.7728,N,08004.4246,W,1,11,1.6,16,M,,M,,*6C
06/14/2014	19:06:21.815	$GPGGA,190621,2514.7760,N,08004.4238,W,1,11,1.6,16,M,,M,,*68
06/14/2014	19:06:22.717	$GPGGA,190622,2514.7791,N,08004.4229,W,1,11,1.6,16,M,,M,,*65
06/14/2014	19:06:23.856	$GPGGA,190623,2514.7822,N,08004.4220,W,1,11,1.6,16,M,,M,,*6A
06/14/2014	19:06:24.901	$GPGGA,190624,2514.7853,N,08004.4213,W,1,11,1.6,16,M,,M,,*6B
06/14/2014	19:06:25.835	$GPGGA,190625,2514.7885,N,08004.4206,W,1,11,1.6,16,M,,M,,*65
06/14/2014	19:06:26.860	$GPGGA,190626,2514.7915,N,08004.4198,W,1,11,1.6,16,M,,M,,*6A
06/14/2014	19:06:28.011	$GPGGA,190627,2514.7948,N,08004.4190,W,1,11,1.6,16,M,,M,,*6B
06/14/2014	19:06:28.933	$GPGGA,190628,2514.7980,N,08004.4184,W,1,11,1.6,16,M,,M,,*65
06/14/2014	19:06:30.062	$GPGGA,190629,2514.8012,N,08004.4177,W,1,11,1.6,16,M,,M,,*65
06/14/2014	19:06:30.996	$GPGGA,190630,2514.8044,N,08004.4169,W,1,11,1.6,16,M,,M,,*61
06/14/2014	19:06:32.126	$GPGGA,190631,2514.8077,N,08004.4164,W,1,11,1.6,16,M,,M,,*6D
06/14/2014	19:06:33.172	$GPGGA,190632,2514.8107,N,08004.4158,W,1,11,1.6,16,M,,M,,*67
06/14/2014	19:06:34.229	$GPGGA,190633,2514.8138,N,08004.4150,W,1,10,1.6,16,M,,M,,*63
06/14/2014	19:06:35.226	$GPGGA,190634,2514.8169,N,08004.4143,W,1,10,1.6,16,M,,M,,*62
06/14/2014	19:06:36.281	$GPGGA,190635,2514.8201,N,08004.4137,W,1,11,1.6,16,M,,M,,*6C
06/14/2014	19:06:37.307	$GPGGA,190636,2514.8233,N,08004.4131,W,1,11,1.6,16,M,,M,,*68
06/14/2014	19:06:38.364	$GPGGA,190637,2514.8265,N,08004.4125,W,1,11,1.6,16,M,,M,,*6F
06/14/2014	19:06:39.359	$GPGGA,190638,2514.8295,N,08004.4119,W,1,11,1.6,16,M,,M,,*60
06/14/2014	19:06:40.427	$GPGGA,190639,2514.8327,N,08004.4112,W,1,11,1.6,16,M,,M,,*62
06/14/2014	19:06:41.453	$GPGGA,190640,2514.8359,N,08004.4106,W,1,11,1.6,16,M,,M,,*60
06/14/2014	19:06:42.510	$GPGGA,190641,2514.8389,N,08004.4100,W,1,11,1.6,16,M,,M,,*6A
06/14/2014	19:06:43.507	$GPGGA,190642,2514.8421,N,08004.4093,W,1,11,1.6,16,M,,M,,*67
06/14/2014	19:06:44.551	$GPGGA,190643,2514.8452,N,08004.4085,W,1,11,1.6,16,M,,M,,*65
06/14/2014	19:06:45.583	$GPGGA,190644,2514.8483,N,08004.4079,W,1,11,1.6,16,M,,M,,*6D
06/14/2014	19:06:46.644	$GPGGA,190645,2514.8515,N,08004.4072,W,1,11,1.6,16,M,,M,,*69
06/14/2014	19:06:47.639	$GPGGA,190646,2514.8546,N,08004.4064,W,1,11,1.6,16,M,,M,,*6B
06/14/2014	19:06:48.696	$GPGGA,190647,2514.8577,N,08004.4058,W,1,11,1.6,16,M,,M,,*67
06/14/2014	19:06:49.722	$GPGGA,190648,2514.8609,N,08004.4052,W,1,11,1.6,16,M,,M,,*68
06/14/2014	19:06:48.586	$GPGGA,190649,2514.8638,N,08004.4043,W,1,10,1.6,16,M,,M,,*6A
06/14/2014	19:06:49.592	$GPGGA,190650,2514.8671,N,08004.4036,W,1,10,1.6,16,M,,M,,*6D
06/14/2014	19:06:50.617	$GPGGA,190651,2514.8702,N,08004.4030,W,1,11,1.6,16,M,,M,,*6E
06/14/2014	19:06:51.685	$GPGGA,190652,2514.8735,N,08004.4024,W,1,11,1.6,16,M,,M,,*6C
06/14/2014	19:06:52.733	$GPGGA,190653,2514.8767,N,08004.4017,W,1,11,1.6,16,M,,M,,*6A
06/14/2014	19:06:53.726	$GPGGA,190654,2514.8799,N,08004.4012,W,1,11,1.6,16,M,,M,,*69
06/14/2014	19:06:54.800	$GPGGA,190655,2514.8829,N,08004.4005,W,1,11,1.6,16,M,,M,,*6A
06/14/2014	19:06:55.838	$GPGGA,190656,2514.8862,N,08004.3998,W,1,11,1.6,16,M,,M,,*6C
06/14/2014	19:06:56.825	$GPGGA,190657,2514.8891,N,08004.3991,W,1,11,1.6,16,M,,M,,*68
06/14/2014	19:06:57.873	$GPGGA,190658,2514.8923,N,08004.3985,W,1,11,1.6,16,M,,M,,*6A
06/14/2014	19:06:58.899	$GPGGA,190659,2514.8955,N,08004.3977,W,1,10,1.6,16,M,,M,,*66
06/14/2014	19:06:59.971	$GPGGA,190700,2514.8985,N,08004.3970,W,1,10,1.6,16,M,,M,,*61
06/14/2014	19:07:00.970	$GPGGA,190701,2514.9018,N,08004.3964,W,1,11,1.6,16,M,,M,,*68
06/14/2014	19:07:02.100	$GPGGA,190702,2514.9050,N,08004.3957,W,1,11,1.6,16,M,,M,,*67
06/14/2014	19:07:03.136	$GPGGA,190703,2514.9079,N,08004.3949,W,1,11,1.6,16,M,,M,,*62
06/14/2014	19:07:04.079	$GPGGA,190704,2514.9111,N,08004.3943,W,1,11,1.6,16,M,,M,,*60
06/14/2014	19:07:05.095	$GPGGA,190705,2514.9142,N,08004.3935,W,1,11,1.6,16,M,,M,,*66
06/14/2014	19:07:06.152	$GPGGA,190706,2514.9173,N,08004.3928,W,1,11,1.6,16,M,,M,,*6B
06/14/2014	19:07:07.188	$GPGGA,190707,2514.9205,N,08004.3921,W,1,11,1.6,16,M,,M,,*61
06/14/2014	19:07:08.339	$GPGGA,190708,2514.9238,N,08004.3915,W,1,11,1.6,16,M,,M,,*67
06/14/2014	19:07:09.261	$GPGGA,190709,2514.9270,N,08004.3907,W,1,11,1.6,16,M,,M,,*69
06/14/2014	19:07:10.266	$GPGGA,190710,2514.9302,N,08004.3898,W,1,11,1.6,16,M,,M,,*62
06/14/2014	19:07:11.334	$GPGGA,190711,2514.9334,N,08004.3892,W,1,11,1.6,16,M,,M,,*6C
06/14/2014	19:07:12.464	$GPGGA,190712,2514.9364,N,08004.3885,W,1,11,1.6,16,M,,M,,*6C
06/14/2014	19:07:13.531	$GPGGA,190713,2514.9397,N,08004.3877,W,1,11,1.6,16,M,,M,,*6C
06/14/2014	19:07:14.507	$GPGGA,190714,2514.9426,N,08004.3868,W,1,11,1.6,16,M,,M,,*68
06/14/2014	19:07:15.583	$GPGGA,190715,2514.9458,N,08004.3860,W,1,11,1.6,16,M,,M,,*68
06/14/2014	19:07:16.588	$GPGGA,190716,2514.9490,N,08004.3853,W,1,11,1.6,16,M,,M,,*6F
06/14/2014	19:07:17.634	$GPGGA,190717,2514.9522,N,08004.3844,W,1,10,1.6,16,M,,M,,*61
06/14/2014	19:07:18.660	$GPGGA,190718,2514.9554,N,08004.3836,W,1,10,1.6,16,M,,M,,*6A
06/14/2014	19:07:19.728	$GPGGA,190719,2514.9585,N,08004.3827,W,1,11,1.6,16,M,,M,,*66
06/14/2014	19:07:20.640	$GPGGA,190720,2514.9617,N,08004.3819,W,1,11,1.6,16,M,,M,,*69
06/14/2014	19:07:21.780	$GPGGA,190721,2514.9649,N,08004.3810,W,1,10,1.6,16,M,,M,,*6B
06/14/2014	19:07:22.785	$GPGGA,190722,2514.9679,N,08004.3802,W,1,10,1.6,16,M,,M,,*68
06/14/2014	19:07:23.819	$GPGGA,190723,2514.9711,N,08004.3792,W,1,10,1.6,16,M,,M,,*60
06/14/2014	19:07:24.879	$GPGGA,190724,2514.9742,N,08004.3783,W,1,10,1.6,16,M,,M,,*61
06/14/2014	19:07:25.915	$GPGGA,190725,2514.9775,N,08004.3777,W,1,11,1.6,16,M,,M,,*6E
06/14/2014	19:07:26.937	$GPGGA,190726,2514.9807,N,08004.3770,W,1,11,1.6,16,M,,M,,*60
06/14/2014	19:07:27.977	$GPGGA,190727,2514.9838,N,08004.3761,W,1,11,1.6,16,M,,M,,*6D
06/14/2014	19:07:29.008	$GPGGA,190728,2514.9870,N,08004.3752,W,1,11,1.6,16,M,,M,,*6E
06/14/2014	19:07:30.056	$GPGGA,190729,2514.9901,N,08004.3745,W,1,11,1.6,16,M,,M,,*6E
06/14/2014	19:07:31.079	$GPGGA,190730,2514.9931,N,08004.3737,W,1,11,1.6,16,M,,M,,*60
06/14/2014	19:07:32.134	$GPGGA,190731,2514.9964,N,08004.3728,W,1,11,1.6,16,M,,M,,*6F
06/14/2014	19:07:33.156	$GPGGA,190732,2514.9995,N,08004.3720,W,1,11,1.6,16,M,,M,,*6A
06/14/2014	19:07:34.217	$GPGGA,190733,2515.0025,N,08004.3711,W,1,11,1.6,15,M,,M,,*60
06/14/2014	19:07:35.208	$GPGGA,190734,2515.0057,N,08004.3703,W,1,11,1.6,15,M,,M,,*61
06/14/2014	19:07:36.226	$GPGGA,190735,2515.0087,N,08004.3695,W,1,11,1.6,15,M,,M,,*63
06/14/2014	19:07:37.293	$GPGGA,190736,2515.0119,N,08004.3686,W,1,11,1.6,15,M,,M,,*64
06/14/2014	19:07:38.330	$GPGGA,190737,2515.0150,N,08004.3678,W,1,11,1.6,15,M,,M,,*69
06/14/2014	19:07:39.325	$GPGGA,190738,2515.0181,N,08004.3670,W,1,11,1.6,15,M,,M,,*62
06/14/2014	19:07:40.404	$GPGGA,190739,2515.0212,N,08004.3662,W,1,11,1.6,15,M,,M,,*69
06/14/2014	19:07:41.408	$GPGGA,190740,2515.0242,N,08004.3655,W,1,11,1.6,15,M,,M,,*66
06/14/2014	19:07:42.463	$GPGGA,190741,2515.0274,N,08004.3646,W,1,11,1.6,15,M,,M,,*60
06/14/2014	19:07:43.494	$GPGGA,190742,2515.0304,N,08004.3639,W,1,11,1.6,15,M,,M,,*6D
06/14/2014	19:07:44.507	$GPGGA,190743,2515.0336,N,08004.3632,W,1,11,1.6,15,M,,M,,*66
06/14/2014	19:07:45.578	$GPGGA,190744,2515.0368,N,08004.3623,W,1,11,1.6,15,M,,M,,*6A
06/14/2014	19:07:46.580	$GPGGA,190745,2515.0398,N,08004.3616,W,1,11,1.6,15,M,,M,,*62
06/14/2014	19:07:47.641	$GPGGA,190746,2515.0430,N,08004.3611,W,1,11,1.6,15,M,,M,,*63
06/14/2014	19:07:48.689	$GPGGA,190747,2515.0461,N,08004.3602,W,1,11,1.6,15,M,,M,,*64
06/14/2014	19:07:49.699	$GPGGA,190748,2515.0491,N,08004.3593,W,1,11,1.6,15,M,,M,,*6F
06/14/2014	19:07:48.543	$GPGGA,190749,2515.0524,N,08004.3588,W,1,11,1.6,15,M,,M,,*6B
06/14/2014	19:07:49.568	$GPGGA,190750,2515.0555,N,08004.3581,W,1,11,1.6,15,M,,M,,*6C
06/14/2014	19:07:50.605	$GPGGA,190751,2515.0585,N,08004.3572,W,1,11,1.6,15,M,,M,,*6C
06/14/2014	19:07:51.806	$GPGGA,190752,2515.0614,N,08004.3563,W,1,11,1.6,15,M,,M,,*64
06/14/2014	19:07:52.666	$GPGGA,190753,2515.0646,N,08004.3556,W,1,11,1.6,15,M,,M,,*64
06/14/2014	19:07:53.723	$GPGGA,190754,2515.0676,N,08004.3547,W,1,11,1.6,15,M,,M,,*60
06/14/2014	19:07:54.936	$GPGGA,190755,2515.0708,N,08004.3539,W,1,11,1.6,15,M,,M,,*60
06/14/2014	19:07:55.786	$GPGGA,190756,2515.0740,N,08004.3532,W,1,11,1.6,15,M,,M,,*64
06/14/2014	19:07:56.812	$GPGGA,190757,2515.0770,N,08004.3524,W,1,11,1.6,15,M,,M,,*61
06/14/2014	19:07:57.838	$GPGGA,190758,2515.0802,N,08004.3515,W,1,11,1.6,15,M,,M,,*66
06/14/2014	19:07:58.895	$GPGGA,190759,2515.0834,N,08004.3509,W,1,11,1.6,15,M,,M,,*6F
06/14/2014	19:08:00.114	$GPGGA,190800,2515.0864,N,08004.3503,W,1,11,1.6,15,M,,M,,*63
06/14/2014	19:08:01.154	$GPGGA,190801,2515.0896,N,08004.3495,W,1,11,1.6,15,M,,M,,*61
06/14/2014	19:08:01.994	$GPGGA,190802,2515.0928,N,08004.3487,W,1,11,1.6,15,M,,M,,*65
06/14/2014	19:08:03.020	$GPGGA,190803,2515.0958,N,08004.3479,W,1,11,1.6,15,M,,M,,*62
06/14/2014	19:08:04.222	$GPGGA,190804,2515.0990,N,08004.3471,W,1,11,1.6,15,M,,M,,*69
06/14/2014	19:08:05.290	$GPGGA,190805,2515.1021,N,08004.3464,W,1,11,1.6,15,M,,M,,*6E
06/14/2014	19:08:06.212	$GPGGA,190806,2515.1053,N,08004.3456,W,1,11,1.6,15,M,,M,,*69
06/14/2014	19:08:07.362	$GPGGA,190807,2515.1084,N,08004.3448,W,1,11,1.6,15,M,,M,,*6D
06/14/2014	19:08:08.326	$GPGGA,190808,2515.1115,N,08004.3440,W,1,11,1.6,15,M,,M,,*63
06/14/2014	19:08:09.434	$GPGGA,190809,2515.1145,N,08004.3431,W,1,11,1.6,15,M,,M,,*61
06/14/2014	19:08:10.348	$GPGGA,190810,2515.1177,N,08004.3424,W,1,11,1.6,15,M,,M,,*6C
06/14/2014	19:08:11.487	$GPGGA,190811,2515.1210,N,08004.3418,W,1,11,1.6,15,M,,M,,*60
06/14/2014	19:08:12.471	$GPGGA,190812,2515.1239,N,08004.3410,W,1,11,1.6,15,M,,M,,*60
06/14/2014	19:08:13.515	$GPGGA,190813,2515.1272,N,08004.3401,W,1,11,1.6,15,M,,M,,*6E
06/14/2014	19:08:14.499	$GPGGA,190814,2515.1303,N,08004.3394,W,1,11,1.6,15,M,,M,,*65
06/14/2014	19:08:15.585	$GPGGA,190815,2515.1333,N,08004.3388,W,1,11,1.6,15,M,,M,,*6A
06/14/2014	19:08:16.539	$GPGGA,190816,2515.1366,N,08004.3381,W,1,11,1.6,15,M,,M,,*60
06/14/2014	19:08:17.498	$GPGGA,190817,2515.1398,N,08004.3371,W,1,11,1.6,15,M,,M,,*6F
06/14/2014	19:08:18.538	$GPGGA,190818,2515.1429,N,08004.3363,W,1,11,1.6,15,M,,M,,*6E
06/14/2014	19:08:19.593	$GPGGA,190819,2515.1460,N,08004.3357,W,1,11,1.6,15,M,,M,,*65
06/14/2014	19:08:20.587	$GPGGA,190820,2515.1492,N,08004.3349,W,1,11,1.6,15,M,,M,,*6D
06/14/2014	19:08:21.683	$GPGGA,190821,2515.1524,N,08004.3341,W,1,11,1.6,15,M,,M,,*68
06/14/2014	19:08:22.589	$GPGGA,190822,2515.1556,N,08004.3333,W,1,11,1.6,15,M,,M,,*6B
06/14/2014	19:08:23.693	$GPGGA,190823,2515.1586,N,08004.3326,W,1,11,1.6,15,M,,M,,*63
06/14/2014	19:08:24.636	$GPGGA,190824,2515.1618,N,08004.3318,W,1,11,1.6,15,M,,M,,*6D
06/14/2014	19:08:25.604	$GPGGA,190825,2515.1650,N,08004.3309,W,1,11,1.6,15,M,,M,,*60
06/14/2014	19:08:26.645	$GPGGA,190826,2515.1682,N,08004.3300,W,1,11,1.6,15,M,,M,,*65
06/14/2014	19:08:27.700	$GPGGA,190827,2515.1713,N,08004.3293,W,1,11,1.6,15,M,,M,,*66
06/14/2014	19:08:28.656	$GPGGA,190828,2515.1745,N,08004.3284,W,1,11,2.0,14,M,,M,,*68
06/14/2014	19:08:29.759	$GPGGA,190829,2515.1776,N,08004.3275,W,1,11,1.6,14,M,,M,,*62
06/14/2014	19:08:30.662	$GPGGA,190830,2515.1806,N,08004.3267,W,1,11,1.6,14,M,,M,,*61
06/14/2014	19:08:31.779	$GPGGA,190831,2515.1838,N,08004.3259,W,1,11,1.6,15,M,,M,,*61
06/14/2014	19:08:32.753	$GPGGA,190832,2515.1868,N,08004.3252,W,1,11,1.6,15,M,,M,,*6C
06/14/2014	19:08:33.778	$GPGGA,190833,2515.1900,N,08004.3244,W,1,11,1.6,15,M,,M,,*65
06/14/2014	19:08:34.711	$GPGGA,190834,2515.1931,N,08004.3235,W,1,11,1.6,15,M,,M,,*66
06/14/2014	19:08:35.848	$GPGGA,190835,2515.1964,N,08004.3228,W,1,11,1.6,15,M,,M,,*6B
06/14/2014	19:08:36.796	$GPGGA,190836,2515.1996,N,08004.3222,W,1,11,1.6,15,M,,M,,*6F
06/14/2014	19:08:37.826	$GPGGA,190837,2515.2027,N,08004.3213,W,1,10,1.6,15,M,,M,,*6D
06/14/2014	19:08:38.893	$GPGGA,190838,2515.2059,N,08004.3205,W,1,10,1.6,15,M,,M,,*6C
06/14/2014	19:08:39.876	$GPGGA,190839,2515.2091,N,08004.3197,W,1,11,1.6,16,M,,M,,*63
06/14/2014	19:08:40.834	$GPGGA,190840,2515.2123,N,08004.3189,W,1,11,1.6,16,M,,M,,*6A
06/14/2014	19:08:41.895	$GPGGA,190841,2515.2153,N,08004.3183,W,1,10,1.6,16,M,,M,,*67
06/14/2014	19:08:42.819	$GPGGA,190842,2515.2185,N,08004.3174,W,1,10,1.6,16,M,,M,,*67
06/14/2014	19:08:43.925	$GPGGA,190843,2515.2217,N,08004.3164,W,1,11,1.6,16,M,,M,,*6E
06/14/2014	19:08:44.969	$GPGGA,190844,2515.2249,N,08004.3159,W,1,11,1.6,16,M,,M,,*6C
06/14/2014	19:08:45.994	$GPGGA,190845,2515.2282,N,08004.3153,W,1,11,1.6,16,M,,M,,*60
06/14/2014	19:08:46.907	$GPGGA,190846,2515.2314,N,08004.3143,W,1,11,1.6,16,M,,M,,*6C
06/14/2014	19:08:49.425	$GPGGA,190848,2515.2377,N,08004.3132,W,1,11,1.6,17,M,,M,,*60
06/14/2014	19:08:48.668	$GPGGA,190849,2515.2410,N,08004.3126,W,1,11,1.6,17,M,,M,,*62
06/14/2014	19:08:49.622	$GPGGA,190850,2515.2441,N,08004.3119,W,1,11,1.6,17,M,,M,,*62
06/14/2014	19:08:50.627	$GPGGA,190851,2515.2473,N,08004.3111,W,1,11,1.6,17,M,,M,,*6A
06/14/2014	19:08:51.580	$GPGGA,190852,2515.2504,N,08004.3103,W,1,11,1.6,17,M,,M,,*6B
06/14/2014	19:08:52.646	$GPGGA,190853,2515.2536,N,08004.3098,W,1,11,1.6,17,M,,M,,*68
06/14/2014	19:08:53.671	$GPGGA,190854,2515.2568,N,08004.3089,W,1,11,1.6,17,M,,M,,*64
06/14/2014	19:08:54.675	$GPGGA,190855,2515.2598,N,08004.3080,W,1,11,1.6,17,M,,M,,*63
06/14/2014	19:08:55.710	$GPGGA,190856,2515.2630,N,08004.3072,W,1,11,1.6,17,M,,M,,*6C
06/14/2014	19:08:56.715	$GPGGA,190857,2515.2661,N,08004.3064,W,1,11,1.6,17,M,,M,,*6E
06/14/2014	19:08:57.719	$GPGGA,190858,2515.2691,N,08004.3056,W,1,11,1.6,18,M,,M,,*60
06/14/2014	19:08:58.754	$GPGGA,190859,2515.2724,N,08004.3049,W,1,11,1.6,18,M,,M,,*60
06/14/2014	19:08:59.779	$GPGGA,190900,2515.2756,N,08004.3041,W,1,11,1.6,18,M,,M,,*60
06/14/2014	19:09:00.825	$GPGGA,190901,2515.2786,N,08004.3033,W,1,11,1.6,18,M,,M,,*69
06/14/2014	19:09:01.767	$GPGGA,190902,2515.2818,N,08004.3026,W,1,11,1.6,18,M,,M,,*66
06/14/2014	19:09:02.832	$GPGGA,190903,2515.2850,N,08004.3018,W,1,11,1.6,18,M,,M,,*66
06/14/2014	19:09:03.806	$GPGGA,190904,2515.2882,N,08004.3011,W,1,11,1.6,18,M,,M,,*67
06/14/2014	19:09:04.841	$GPGGA,190905,2515.2915,N,08004.3004,W,1,11,1.6,18,M,,M,,*6D
06/14/2014	19:09:05.826	$GPGGA,190906,2515.2945,N,08004.2996,W,1,11,1.6,18,M,,M,,*68
06/14/2014	19:09:06.861	$GPGGA,190907,2515.2977,N,08004.2988,W,1,11,1.6,18,M,,M,,*67
06/14/2014	19:09:07.855	$GPGGA,190908,2515.3009,N,08004.2981,W,1,11,1.6,18,M,,M,,*60
06/14/2014	19:09:08.931	$GPGGA,190909,2515.3042,N,08004.2973,W,1,11,1.6,18,M,,M,,*63
06/14/2014	19:09:09.875	$GPGGA,190910,2515.3074,N,08004.2965,W,1,11,1.6,18,M,,M,,*69
06/14/2014	19:09:10.930	$GPGGA,190911,2515.3106,N,08004.2957,W,1,11,1.6,18,M,,M,,*6D
06/14/2014	19:09:11.904	$GPGGA,190912,2515.3136,N,08004.2949,W,1,11,1.6,18,M,,M,,*62
06/14/2014	19:09:12.949	$GPGGA,190913,2515.3168,N,08004.2941,W,1,11,1.6,18,M,,M,,*60
06/14/2014	19:09:13.935	$GPGGA,190914,2515.3201,N,08004.2934,W,1,11,1.6,18,M,,M,,*69
06/14/2014	19:09:14.968	$GPGGA,190915,2515.3234,N,08004.2927,W,1,11,1.6,18,M,,M,,*6C
06/14/2014	19:09:15.964	$GPGGA,190916,2515.3266,N,08004.2919,W,1,11,1.6,18,M,,M,,*65
06/14/2014	19:09:16.998	$GPGGA,190917,2515.3298,N,08004.2913,W,1,11,1.6,18,M,,M,,*6F
06/14/2014	19:09:17.972	$GPGGA,190918,2515.3331,N,08004.2907,W,1,11,1.6,18,M,,M,,*67
06/14/2014	19:09:19.026	$GPGGA,190919,2515.3331,N,08004.2907,W,1,11,1.6,18,M,,M,,*66
06/14/2014	19:09:20.022	$GPGGA,190920,2515.3395,N,08004.2890,W,1,11,1.6,18,M,,M,,*6D
06/14/2014	19:09:21.071	$GPGGA,190921,2515.3395,N,08004.2890,W,1,11,1.6,18,M,,M,,*6C
06/14/2014	19:09:22.029	$GPGGA,190922,2515.3460,N,08004.2877,W,1,11,1.6,18,M,,M,,*6B
06/14/2014	19:09:23.105	$GPGGA,190923,2515.3492,N,08004.2868,W,1,11,1.6,18,M,,M,,*69
06/14/2014	19:09:24.182	$GPGGA,190924,2515.3522,N,08004.2861,W,1,11,1.6,18,M,,M,,*6D
06/14/2014	19:09:25.128	$GPGGA,190925,2515.3555,N,08004.2854,W,1,11,1.6,18,M,,M,,*6A
06/14/2014	19:09:26.068	$GPGGA,190926,2515.3555,N,08004.2854,W,1,11,1.6,18,M,,M,,*69
06/14/2014	19:09:27.103	$GPGGA,190927,2515.3587,N,08004.2846,W,1,11,1.6,18,M,,M,,*64
06/14/2014	19:09:28.130	$GPGGA,190928,2515.3652,N,08004.2831,W,1,11,1.6,18,M,,M,,*60
06/14/2014	19:09:29.234	$GPGGA,190929,2515.3685,N,08004.2825,W,1,10,1.6,18,M,,M,,*6F
06/14/2014	19:09:30.117	$GPGGA,190930,2515.3717,N,08004.2816,W,1,10,1.6,18,M,,M,,*6D
06/14/2014	19:09:31.131	$GPGGA,190931,2515.3749,N,08004.2809,W,1,11,1.6,18,M,,M,,*68
06/14/2014	19:09:32.268	$GPGGA,190932,2515.3781,N,08004.2801,W,1,11,1.6,17,M,,M,,*68
06/14/2014	19:09:33.204	$GPGGA,190933,2515.3781,N,08004.2801,W,1,11,1.6,17,M,,M,,*69
06/14/2014	19:09:34.166	$GPGGA,190934,2515.3844,N,08004.2786,W,1,11,1.6,17,M,,M,,*68
06/14/2014	19:09:35.312	$GPGGA,190935,2515.3844,N,08004.2786,W,1,11,1.6,17,M,,M,,*69
06/14/2014	19:09:36.215	$GPGGA,190936,2515.3909,N,08004.2771,W,1,11,1.6,17,M,,M,,*6A
06/14/2014	19:09:37.351	$GPGGA,190937,2515.3941,N,08004.2763,W,1,11,1.6,17,M,,M,,*64
06/14/2014	19:09:38.336	$GPGGA,190938,2515.3974,N,08004.2756,W,1,11,1.6,17,M,,M,,*6B
06/14/2014	19:09:39.370	$GPGGA,190939,2515.3974,N,08004.2756,W,1,11,1.6,17,M,,M,,*6A
06/14/2014	19:09:40.263	$GPGGA,190940,2515.4006,N,08004.2747,W,1,11,1.6,17,M,,M,,*6F
06/14/2014	19:09:41.399	$GPGGA,190941,2515.4038,N,08004.2739,W,1,11,1.6,16,M,,M,,*6B
06/14/2014	19:09:42.363	$GPGGA,190942,2515.4100,N,08004.2723,W,1,11,1.6,16,M,,M,,*69
06/14/2014	19:09:43.388	$GPGGA,190943,2515.4130,N,08004.2713,W,1,11,1.6,16,M,,M,,*68
06/14/2014	19:09:44.413	$GPGGA,190944,2515.4162,N,08004.2705,W,1,11,1.6,16,M,,M,,*6F
06/14/2014	19:09:45.438	$GPGGA,190945,2515.4194,N,08004.2697,W,1,11,1.6,16,M,,M,,*6D
06/14/2014	19:09:46.422	$GPGGA,190946,2515.4227,N,08004.2689,W,1,11,1.6,16,M,,M,,*6A
06/14/2014	19:09:47.467	$GPGGA,190947,2515.4259,N,08004.2680,W,1,11,1.6,16,M,,M,,*6B
06/14/2014	19:09:48.461	$GPGGA,190948,2515.4291,N,08004.2671,W,1,11,1.6,16,M,,M,,*6E
06/14/2014	19:09:48.606	$GPGGA,190949,2515.4321,N,08004.2662,W,1,10,1.6,16,M,,M,,*66
06/14/2014	19:09:49.601	$GPGGA,190950,2515.4353,N,08004.2654,W,1,10,1.6,16,M,,M,,*6E
06/14/2014	19:09:50.597	$GPGGA,190951,2515.4386,N,08004.2645,W,1,11,1.6,16,M,,M,,*66
06/14/2014	19:09:51.630	$GPGGA,190952,2515.4418,N,08004.2637,W,1,11,1.6,16,M,,M,,*60
06/14/2014	19:09:52.655	$GPGGA,190953,2515.4450,N,08004.2630,W,1,11,1.6,16,M,,M,,*6A
06/14/2014	19:09:53.648	$GPGGA,190954,2515.4482,N,08004.2620,W,1,11,1.6,15,M,,M,,*60
06/14/2014	19:09:54.673	$GPGGA,190955,2515.4512,N,08004.2610,W,1,11,1.6,15,M,,M,,*6A
06/14/2014	19:09:55.678	$GPGGA,190956,2515.4545,N,08004.2602,W,1,11,1.6,15,M,,M,,*68
06/14/2014	19:09:56.713	$GPGGA,190957,2515.4576,N,08004.2593,W,1,11,1.6,15,M,,M,,*62
06/14/2014	19:09:57.707	$GPGGA,190958,2515.4608,N,08004.2585,W,1,11,1.6,15,M,,M,,*60
06/14/2014	19:09:58.732	$GPGGA,190959,2515.4639,N,08004.2576,W,1,11,1.6,15,M,,M,,*6F
06/14/2014	19:09:59.726	$GPGGA,191000,2515.4671,N,08004.2567,W,1,11,1.6,15,M,,M,,*67
06/14/2014	19:10:00.734	$GPGGA,191001,2515.4703,N,08004.2559,W,1,11,1.6,15,M,,M,,*6F
06/14/2014	19:10:01.756	$GPGGA,191002,2515.4733,N,08004.2550,W,1,11,1.6,15,M,,M,,*66
06/14/2014	19:10:02.774	$GPGGA,191003,2515.4765,N,08004.2541,W,1,11,1.6,15,M,,M,,*64
06/14/2014	19:10:03.786	$GPGGA,191004,2515.4798,N,08004.2534,W,1,11,1.6,15,M,,M,,*63
06/14/2014	19:10:04.780	$GPGGA,191005,2515.4830,N,08004.2526,W,1,11,1.6,15,M,,M,,*6C
06/14/2014	19:10:05.794	$GPGGA,191006,2515.4862,N,08004.2516,W,1,11,1.6,15,M,,M,,*6B
06/14/2014	19:10:06.809	$GPGGA,191007,2515.4895,N,08004.2508,W,1,11,1.6,15,M,,M,,*6D
06/14/2014	19:10:07.835	$GPGGA,191008,2515.4926,N,08004.2503,W,1,11,1.6,15,M,,M,,*60
06/14/2014	19:10:08.838	$GPGGA,191009,2515.4957,N,08004.2493,W,1,10,1.6,15,M,,M,,*6E
06/14/2014	19:10:09.843	$GPGGA,191010,2515.4989,N,08004.2483,W,1,10,1.6,15,M,,M,,*64
06/14/2014	19:10:10.888	$GPGGA,191011,2515.5021,N,08004.2477,W,1,11,1.6,15,M,,M,,*65
06/14/2014	19:10:11.892	$GPGGA,191012,2515.5051,N,08004.2471,W,1,11,1.6,15,M,,M,,*67
06/14/2014	19:10:12.906	$GPGGA,191013,2515.5083,N,08004.2461,W,1,11,1.6,15,M,,M,,*68
06/14/2014	19:10:13.891	$GPGGA,191014,2515.5116,N,08004.2452,W,1,11,1.6,14,M,,M,,*63
06/14/2014	19:10:14.915	$GPGGA,191015,2515.5148,N,08004.2445,W,1,11,1.6,14,M,,M,,*6F
06/14/2014	19:10:15.940	$GPGGA,191016,2515.5180,N,08004.2438,W,1,11,1.6,14,M,,M,,*62
06/14/2014	19:10:17.072	$GPGGA,191017,2515.5210,N,08004.2430,W,1,11,1.6,14,M,,M,,*61
06/14/2014	19:10:18.051	$GPGGA,191018,2515.5241,N,08004.2421,W,1,11,1.6,14,M,,M,,*6A
06/14/2014	19:10:18.974	$GPGGA,191019,2515.5273,N,08004.2412,W,1,11,1.6,14,M,,M,,*6A
06/14/2014	19:10:19.989	$GPGGA,191020,2515.5303,N,08004.2406,W,1,11,1.6,14,M,,M,,*63
06/14/2014	19:10:21.125	$GPGGA,191021,2515.5336,N,08004.2396,W,1,11,1.6,14,M,,M,,*6A
06/14/2014	19:10:21.998	$GPGGA,191022,2515.5368,N,08004.2388,W,1,11,1.6,14,M,,M,,*6D
06/14/2014	19:10:23.134	$GPGGA,191023,2515.5400,N,08004.2380,W,1,10,1.6,14,M,,M,,*6C
06/14/2014	19:10:24.149	$GPGGA,191024,2515.5433,N,08004.2373,W,1,10,1.6,14,M,,M,,*67
06/14/2014	19:10:25.062	$GPGGA,191025,2515.5465,N,08004.2364,W,1,11,1.6,14,M,,M,,*62
06/14/2014	19:10:26.058	$GPGGA,191026,2515.5497,N,08004.2355,W,1,11,1.6,14,M,,M,,*6E
06/14/2014	19:10:27.061	$GPGGA,191027,2515.5527,N,08004.2347,W,1,11,1.6,14,M,,M,,*66
06/14/2014	19:10:28.086	$GPGGA,191028,2515.5559,N,08004.2338,W,1,11,1.6,14,M,,M,,*68
06/14/2014	19:10:29.111	$GPGGA,191029,2515.5591,N,08004.2330,W,1,11,1.6,14,M,,M,,*65
06/14/2014	19:10:30.206	$GPGGA,191030,2515.5621,N,08004.2322,W,1,11,1.6,14,M,,M,,*66
06/14/2014	19:10:31.221	$GPGGA,191031,2515.5654,N,08004.2313,W,1,11,1.6,14,M,,M,,*67
06/14/2014	19:10:32.245	$GPGGA,191032,2515.5686,N,08004.2305,W,1,11,1.6,14,M,,M,,*6C
06/14/2014	19:10:33.270	$GPGGA,191033,2515.5718,N,08004.2298,W,1,11,1.6,14,M,,M,,*6E
06/14/2014	19:10:34.244	$GPGGA,191034,2515.5748,N,08004.2289,W,1,11,1.6,14,M,,M,,*6C
06/14/2014	19:10:35.291	$GPGGA,191035,2515.5780,N,08004.2281,W,1,11,1.6,14,M,,M,,*61
06/14/2014	19:10:36.284	$GPGGA,191036,2515.5812,N,08004.2273,W,1,11,1.6,14,M,,M,,*6B
06/14/2014	19:10:37.319	$GPGGA,191037,2515.5842,N,08004.2264,W,1,11,1.6,14,M,,M,,*69
06/14/2014	19:10:38.303	$GPGGA,191038,2515.5874,N,08004.2257,W,1,11,1.6,14,M,,M,,*63
06/14/2014	19:10:39.318	$GPGGA,191039,2515.5907,N,08004.2248,W,1,11,1.6,14,M,,M,,*69
06/14/2014	19:10:40.343	$GPGGA,191040,2515.5939,N,08004.2239,W,1,11,1.6,14,M,,M,,*6C
06/14/2014	19:10:41.337	$GPGGA,191041,2515.5970,N,08004.2232,W,1,11,1.6,14,M,,M,,*6B
06/14/2014	19:10:42.352	$GPGGA,191042,2515.6003,N,08004.2223,W,1,11,1.6,14,M,,M,,*66
06/14/2014	19:10:43.356	$GPGGA,191043,2515.6033,N,08004.2214,W,1,11,1.6,14,M,,M,,*60
06/14/2014	19:10:44.391	$GPGGA,191044,2515.6066,N,08004.2207,W,1,11,1.6,14,M,,M,,*65
06/14/2014	19:10:45.416	$GPGGA,191045,2515.6098,N,08004.2199,W,1,11,1.6,14,M,,M,,*61
06/14/2014	19:10:46.401	$GPGGA,191046,2515.6129,N,08004.2191,W,1,11,1.6,14,M,,M,,*61
06/14/2014	19:10:47.445	$GPGGA,191047,2515.6160,N,08004.2183,W,1,11,1.6,14,M,,M,,*6E
06/14/2014	19:10:48.439	$GPGGA,191048,2515.6192,N,08004.2176,W,1,11,1.6,14,M,,M,,*66
06/14/2014	19:10:48.552	$GPGGA,191049,2515.6225,N,08004.2168,W,1,11,1.6,14,M,,M,,*67
06/14/2014	19:10:49.573	$GPGGA,191050,2515.6257,N,08004.2159,W,1,11,1.6,14,M,,M,,*68
06/14/2014	19:10:50.602	$GPGGA,191051,2515.6289,N,08004.2151,W,1,11,1.6,14,M,,M,,*62
06/14/2014	19:10:51.603	$GPGGA,191052,2515.6321,N,08004.2145,W,1,11,1.6,14,M,,M,,*67
06/14/2014	19:10:52.642	$GPGGA,191053,2515.6351,N,08004.2137,W,1,11,1.6,14,M,,M,,*64
06/14/2014	19:10:53.636	$GPGGA,191054,2515.6383,N,08004.2127,W,1,11,1.6,14,M,,M,,*6D
06/14/2014	19:10:54.631	$GPGGA,191055,2515.6413,N,08004.2120,W,1,11,1.6,14,M,,M,,*65
06/14/2014	19:10:55.666	$GPGGA,191056,2515.6447,N,08004.2113,W,1,11,1.6,14,M,,M,,*67
06/14/2014	19:10:56.670	$GPGGA,191057,2515.6478,N,08004.2104,W,1,11,1.6,14,M,,M,,*6C
06/14/2014	19:10:57.685	$GPGGA,191058,2515.6510,N,08004.2094,W,1,11,1.6,14,M,,M,,*64
06/14/2014	19:10:58.679	$GPGGA,191059,2515.6541,N,08004.2087,W,1,11,1.6,14,M,,M,,*63
06/14/2014	19:10:59.745	$GPGGA,191100,2515.6572,N,08004.2079,W,1,11,1.6,14,M,,M,,*6F
06/14/2014	19:11:00.709	$GPGGA,191101,2515.6604,N,08004.2071,W,1,11,1.6,14,M,,M,,*64
06/14/2014	19:11:01.723	$GPGGA,191102,2515.6635,N,08004.2061,W,1,11,1.6,14,M,,M,,*64
06/14/2014	19:11:02.862	$GPGGA,191103,2515.6666,N,08004.2053,W,1,11,1.6,14,M,,M,,*62
06/14/2014	19:11:03.772	$GPGGA,191104,2515.6698,N,08004.2044,W,1,11,1.6,14,M,,M,,*62
06/14/2014	19:11:04.766	$GPGGA,191105,2515.6730,N,08004.2035,W,1,11,1.6,14,M,,M,,*66
06/14/2014	19:11:05.771	$GPGGA,191106,2515.6762,N,08004.2026,W,1,11,1.6,14,M,,M,,*60
06/14/2014	19:11:06.796	$GPGGA,191107,2515.6792,N,08004.2018,W,1,11,1.6,14,M,,M,,*63
06/14/2014	19:11:07.810	$GPGGA,191108,2515.6825,N,08004.2011,W,1,11,1.6,14,M,,M,,*66
06/14/2014	19:11:08.835	$GPGGA,191109,2515.6857,N,08004.2002,W,1,11,1.6,14,M,,M,,*60
06/14/2014	19:11:09.820	$GPGGA,191110,2515.6889,N,08004.1993,W,1,11,1.6,14,M,,M,,*69
06/14/2014	19:11:10.946	$GPGGA,191111,2515.6921,N,08004.1986,W,1,11,1.6,14,M,,M,,*6F
06/14/2014	19:11:11.869	$GPGGA,191112,2515.6951,N,08004.1978,W,1,11,1.6,14,M,,M,,*6A
06/14/2014	19:11:12.955	$GPGGA,191113,2515.6983,N,08004.1969,W,1,11,1.6,14,M,,M,,*64
06/14/2014	19:11:13.878	$GPGGA,191114,2515.7016,N,08004.1961,W,1,11,1.6,14,M,,M,,*6F
06/14/2014	19:11:15.015	$GPGGA,191115,2515.7048,N,08004.1953,W,1,11,1.6,14,M,,M,,*64
06/14/2014	19:11:15.908	$GPGGA,191116,2515.7081,N,08004.1944,W,1,11,1.6,14,M,,M,,*64
06/14/2014	19:11:16.922	$GPGGA,191117,2515.7113,N,08004.1938,W,1,11,1.6,14,M,,M,,*64
06/14/2014	19:11:18.018	$GPGGA,191118,2515.7145,N,08004.1930,W,1,11,1.6,14,M,,M,,*60
06/14/2014	19:11:19.053	$GPGGA,191119,2515.7177,N,08004.1920,W,1,11,1.6,14,M,,M,,*61
06/14/2014	19:11:20.069	$GPGGA,191120,2515.7207,N,08004.1912,W,1,11,1.6,14,M,,M,,*6E
06/14/2014	19:11:23.101	$GPGGA,191123,2515.7303,N,08004.1886,W,1,11,1.6,14,M,,M,,*64
06/14/2014	19:11:24.116	$GPGGA,191124,2515.7336,N,08004.1879,W,1,11,1.6,14,M,,M,,*65
06/14/2014	19:11:25.130	$GPGGA,191125,2515.7369,N,08004.1872,W,1,11,1.6,14,M,,M,,*65
06/14/2014	19:11:26.127	$GPGGA,191126,2515.7402,N,08004.1863,W,1,11,1.6,14,M,,M,,*6C
06/14/2014	19:11:27.151	$GPGGA,191127,2515.7435,N,08004.1855,W,1,11,1.6,14,M,,M,,*6C
06/14/2014	19:11:28.164	$GPGGA,191128,2515.7467,N,08004.1848,W,1,11,1.6,14,M,,M,,*68
06/14/2014	19:11:29.179	$GPGGA,191129,2515.7500,N,08004.1841,W,1,11,1.6,14,M,,M,,*60
06/14/2014	19:11:30.176	$GPGGA,191130,2515.7532,N,08004.1832,W,1,11,1.6,14,M,,M,,*6D
06/14/2014	19:11:31.208	$GPGGA,191131,2515.7562,N,08004.1823,W,1,11,1.6,14,M,,M,,*69
06/14/2014	19:11:32.209	$GPGGA,191132,2515.7594,N,08004.1815,W,1,11,1.6,14,M,,M,,*66
06/14/2014	19:11:33.228	$GPGGA,191133,2515.7627,N,08004.1807,W,1,11,1.6,14,M,,M,,*6F
06/14/2014	19:11:34.232	$GPGGA,191134,2515.7661,N,08004.1800,W,1,11,1.6,14,M,,M,,*6D
06/14/2014	19:11:35.237	$GPGGA,191135,2515.7694,N,08004.1792,W,1,11,1.6,14,M,,M,,*62
06/14/2014	19:11:36.272	$GPGGA,191136,2515.7727,N,08004.1784,W,1,11,1.6,14,M,,M,,*6F
06/14/2014	19:11:37.264	$GPGGA,191137,2515.7757,N,08004.1774,W,1,11,1.6,14,M,,M,,*66
06/14/2014	19:11:38.281	$GPGGA,191138,2515.7789,N,08004.1767,W,1,11,1.6,14,M,,M,,*68
06/14/2014	19:11:39.288	$GPGGA,191139,2515.7821,N,08004.1759,W,1,11,1.6,14,M,,M,,*69
06/14/2014	19:11:40.319	$GPGGA,191140,2515.7851,N,08004.1748,W,1,11,1.6,14,M,,M,,*60
06/14/2014	19:11:41.324	$GPGGA,191141,2515.7883,N,08004.1739,W,1,11,1.6,14,M,,M,,*68
06/14/2014	19:11:42.318	$GPGGA,191142,2515.7916,N,08004.1733,W,1,11,1.6,14,M,,M,,*6C
06/14/2014	19:11:43.364	$GPGGA,191143,2515.7948,N,08004.1723,W,1,11,1.6,14,M,,M,,*67
06/14/2014	19:11:44.368	$GPGGA,191144,2515.7980,N,08004.1712,W,1,11,1.6,14,M,,M,,*66
