Software Version Number: 1	Data File Format Number: 1	Build Version Number: 1	Error Count Since VI Started: 0	Manufacturer: Raytheon	 Model Number: RayMarine 120	 S/N: 	 Cal Date: 	 Wind Direction Offset: 0.00	 Slope (M)1: 0.00	 Offset (B)1: 0.00	 Slope (M)2: 0.00	 Offset (B)2: 0.00	 Slope (M)3: 0.00	 Offset (B)3: 0.00	 Slope (M)4: 0.00	 Offset (B)4: 0.00	 Slope (M)5: 0.00	 Offset (B)5: 0.00	 Slope (M)6: 0.00	 Offset (B)6: 0.00
Computer Date	Computer Time	GGA String
06/12/2014	12:00:00.582	$GPGGA,120001,2543.8840,N,08009.7275,W,1,8,1.9,13,M,,M,,*52
06/12/2014	12:00:01.619	$GPGGA,120002,2543.8842,N,08009.7276,W,1,8,1.9,13,M,,M,,*50
06/12/2014	12:00:02.664	$GPGGA,120003,2543.8841,N,08009.7276,W,1,8,1.9,13,M,,M,,*52
06/12/2014	12:00:03.720	$GPGGA,120004,2543.8842,N,08009.7276,W,1,8,1.9,13,M,,M,,*56
06/12/2014	12:00:04.685	$GPGGA,120005,2543.8843,N,08009.7276,W,1,8,1.9,13,M,,M,,*56
06/12/2014	12:00:05.681	$GPGGA,120006,2543.8842,N,08009.7276,W,1,8,1.9,13,M,,M,,*54
06/12/2014	12:00:06.707	$GPGGA,120007,2543.8841,N,08009.7276,W,1,8,1.9,13,M,,M,,*56
06/12/2014	12:00:07.713	$GPGGA,120008,2543.8842,N,08009.7276,W,1,8,1.9,13,M,,M,,*5A
06/12/2014	12:00:08.718	$GPGGA,120009,2543.8841,N,08009.7276,W,1,8,1.9,13,M,,M,,*58
06/12/2014	12:00:09.693	$GPGGA,120010,2543.8842,N,08009.7276,W,1,8,1.9,13,M,,M,,*53
06/12/2014	12:00:10.719	$GPGGA,120011,2543.8841,N,08009.7276,W,1,8,1.9,13,M,,M,,*51
06/12/2014	12:00:11.724	$GPGGA,120012,2543.8842,N,08009.7276,W,1,8,1.9,13,M,,M,,*51
06/12/2014	12:00:12.729	$GPGGA,120013,2543.8841,N,08009.7276,W,1,8,1.9,13,M,,M,,*53
06/12/2014	12:00:13.715	$GPGGA,120014,2543.8842,N,08009.7276,W,1,8,1.9,13,M,,M,,*57
06/12/2014	12:00:14.740	$GPGGA,120015,2543.8841,N,08009.7276,W,1,8,1.9,13,M,,M,,*55
06/12/2014	12:00:15.735	$GPGGA,120016,2543.8842,N,08009.7276,W,1,8,1.9,13,M,,M,,*55
06/12/2014	12:00:16.740	$GPGGA,120017,2543.8841,N,08009.7275,W,1,8,1.9,13,M,,M,,*54
06/12/2014	12:00:17.746	$GPGGA,120018,2543.8842,N,08009.7276,W,1,8,1.9,13,M,,M,,*5B
06/12/2014	12:00:18.750	$GPGGA,120019,2543.8841,N,08009.7275,W,1,8,1.9,13,M,,M,,*5A
06/12/2014	12:00:19.736	$GPGGA,120020,2543.8842,N,08009.7276,W,1,8,1.9,13,M,,M,,*50
06/12/2014	12:00:20.731	$GPGGA,120021,2543.8841,N,08009.7275,W,1,8,1.9,13,M,,M,,*51
06/12/2014	12:00:21.745	$GPGGA,120022,2543.8842,N,08009.7276,W,1,8,1.9,13,M,,M,,*52
06/12/2014	12:00:22.780	$GPGGA,120023,2543.8841,N,08009.7275,W,1,8,1.9,13,M,,M,,*53
06/12/2014	12:00:23.765	$GPGGA,120024,2543.8840,N,08009.7276,W,1,8,1.9,13,M,,M,,*56
06/12/2014	12:00:24.782	$GPGGA,120025,2543.8840,N,08009.7275,W,1,8,1.9,13,M,,M,,*54
06/12/2014	12:00:25.756	$GPGGA,120026,2543.8839,N,08009.7276,W,1,8,1.9,13,M,,M,,*5A
06/12/2014	12:00:26.791	$GPGGA,120027,2543.8840,N,08009.7275,W,1,8,1.9,14,M,,M,,*51
06/12/2014	12:00:27.766	$GPGGA,120028,2543.8840,N,08009.7276,W,1,8,1.9,14,M,,M,,*5D
06/12/2014	12:00:28.771	$GPGGA,120029,2543.8840,N,08009.7275,W,1,8,1.9,14,M,,M,,*5F
06/12/2014	12:00:29.756	$GPGGA,120030,2543.8839,N,08009.7276,W,1,8,1.9,14,M,,M,,*5A
06/12/2014	12:00:30.761	$GPGGA,120031,2543.8840,N,08009.7275,W,1,8,1.9,14,M,,M,,*56
06/12/2014	12:00:31.777	$GPGGA,120032,2543.8839,N,08009.7276,W,1,8,1.9,14,M,,M,,*58
06/12/2014	12:00:32.792	$GPGGA,120033,2543.8840,N,08009.7275,W,1,8,1.9,14,M,,M,,*54
06/12/2014	12:00:33.777	$GPGGA,120034,2543.8839,N,08009.7276,W,1,8,1.9,14,M,,M,,*5E
06/12/2014	12:00:34.792	$GPGGA,120035,2543.8840,N,08009.7275,W,1,8,1.9,14,M,,M,,*52
06/12/2014	12:00:35.908	$GPGGA,120036,2543.8838,N,08009.7276,W,1,8,1.9,14,M,,M,,*5D
06/12/2014	12:00:36.803	$GPGGA,120037,2543.8839,N,08009.7275,W,1,8,1.9,14,M,,M,,*5E
06/12/2014	12:00:37.788	$GPGGA,120038,2543.8838,N,08009.7276,W,1,8,1.9,14,M,,M,,*53
06/12/2014	12:00:38.803	$GPGGA,120039,2543.8839,N,08009.7275,W,1,8,1.9,14,M,,M,,*50
06/12/2014	12:00:39.797	$GPGGA,120040,2543.8838,N,08009.7276,W,1,8,1.9,14,M,,M,,*5C
06/12/2014	12:00:40.812	$GPGGA,120041,2543.8839,N,08009.7275,W,1,8,1.9,14,M,,M,,*5F
06/12/2014	12:00:41.798	$GPGGA,120042,2543.8838,N,08009.7276,W,1,8,1.9,14,M,,M,,*5E
06/12/2014	12:00:42.933	$GPGGA,120043,2543.8839,N,08009.7275,W,1,8,1.9,15,M,,M,,*5C
06/12/2014	12:00:43.939	$GPGGA,120044,2543.8838,N,08009.7276,W,1,8,1.9,15,M,,M,,*59
06/12/2014	12:00:44.813	$GPGGA,120045,2543.8839,N,08009.7275,W,1,8,1.9,15,M,,M,,*5A
06/12/2014	12:00:45.499	$GPGGA,120046,2543.8838,N,08009.7276,W,1,8,1.9,15,M,,M,,*5B
06/12/2014	12:00:46.595	$GPGGA,120047,2543.8839,N,08009.7275,W,1,8,1.9,15,M,,M,,*58
06/12/2014	12:00:47.520	$GPGGA,120048,2543.8838,N,08009.7276,W,1,8,1.9,15,M,,M,,*55
06/12/2014	12:00:48.505	$GPGGA,120049,2543.8839,N,08009.7275,W,1,8,1.9,15,M,,M,,*56
06/12/2014	12:00:49.601	$GPGGA,120050,2543.8838,N,08009.7276,W,1,8,1.9,15,M,,M,,*5C
06/12/2014	12:00:50.606	$GPGGA,120051,2543.8837,N,08009.7276,W,1,8,1.9,15,M,,M,,*52
06/12/2014	12:00:51.521	$GPGGA,120052,2543.8839,N,08009.7276,W,1,8,1.9,15,M,,M,,*5F
06/12/2014	12:00:52.516	$GPGGA,120053,2543.8837,N,08009.7276,W,1,8,1.9,15,M,,M,,*50
06/12/2014	12:00:53.611	$GPGGA,120054,2543.8837,N,08009.7276,W,1,8,1.9,15,M,,M,,*57
06/12/2014	12:00:54.627	$GPGGA,120055,2543.8837,N,08009.7276,W,1,8,1.9,15,M,,M,,*56
06/12/2014	12:00:55.642	$GPGGA,120056,2543.8837,N,08009.7276,W,1,8,1.9,15,M,,M,,*55
06/12/2014	12:00:56.646	$GPGGA,120057,2543.8837,N,08009.7276,W,1,8,1.9,15,M,,M,,*54
06/12/2014	12:00:57.621	$GPGGA,120058,2543.8839,N,08009.7276,W,1,8,1.9,15,M,,M,,*55
06/12/2014	12:00:58.667	$GPGGA,120059,2543.8837,N,08009.7276,W,1,8,1.9,15,M,,M,,*5A
06/12/2014	12:00:59.652	$GPGGA,120100,2543.8839,N,08009.7276,W,1,8,1.9,15,M,,M,,*59
06/12/2014	12:01:00.637	$GPGGA,120101,2543.8837,N,08009.7276,W,1,8,1.9,15,M,,M,,*56
06/12/2014	12:01:01.632	$GPGGA,120102,2543.8837,N,08009.7277,W,1,8,1.9,15,M,,M,,*54
06/12/2014	12:01:02.657	$GPGGA,120103,2543.8837,N,08009.7277,W,1,8,1.9,15,M,,M,,*55
06/12/2014	12:01:03.652	$GPGGA,120104,2543.8839,N,08009.7277,W,1,8,1.9,15,M,,M,,*5C
06/12/2014	12:01:04.668	$GPGGA,120105,2543.8838,N,08009.7277,W,1,8,1.9,15,M,,M,,*5C
06/12/2014	12:01:05.643	$GPGGA,120106,2543.8840,N,08009.7277,W,1,8,1.9,15,M,,M,,*50
06/12/2014	12:01:06.680	$GPGGA,120107,2543.8839,N,08009.7276,W,1,8,1.9,15,M,,M,,*5E
06/12/2014	12:01:07.673	$GPGGA,120108,2543.8840,N,08009.7277,W,1,8,1.9,15,M,,M,,*5E
06/12/2014	12:01:08.658	$GPGGA,120109,2543.8840,N,08009.7277,W,1,8,1.9,15,M,,M,,*5F
06/12/2014	12:01:09.674	$GPGGA,120110,2543.8840,N,08009.7277,W,1,8,1.9,15,M,,M,,*57
06/12/2014	12:01:10.689	$GPGGA,120111,2543.8840,N,08009.7277,W,1,8,1.9,15,M,,M,,*56
06/12/2014	12:01:11.684	$GPGGA,120112,2543.8840,N,08009.7277,W,1,8,1.9,15,M,,M,,*55
06/12/2014	12:01:12.709	$GPGGA,120113,2543.8840,N,08009.7276,W,1,8,1.9,15,M,,M,,*55
06/12/2014	12:01:13.674	$GPGGA,120114,2543.8842,N,08009.7277,W,1,8,1.9,15,M,,M,,*51
06/12/2014	12:01:14.709	$GPGGA,120115,2543.8841,N,08009.7277,W,1,8,1.9,15,M,,M,,*53
06/12/2014	12:01:15.695	$GPGGA,120116,2543.8842,N,08009.7277,W,1,8,1.9,15,M,,M,,*53
06/12/2014	12:01:16.699	$GPGGA,120117,2543.8841,N,08009.7277,W,1,8,1.9,15,M,,M,,*51
06/12/2014	12:01:17.694	$GPGGA,120118,2543.8842,N,08009.7277,W,1,8,1.9,15,M,,M,,*5D
06/12/2014	12:01:18.724	$GPGGA,120119,2543.8841,N,08009.7277,W,1,8,1.9,15,M,,M,,*5F
06/12/2014	12:01:19.704	$GPGGA,120120,2543.8842,N,08009.7277,W,1,8,1.9,15,M,,M,,*56
06/12/2014	12:01:20.730	$GPGGA,120121,2543.8841,N,08009.7277,W,1,8,1.9,15,M,,M,,*54
06/12/2014	12:01:21.735	$GPGGA,120122,2543.8843,N,08009.7277,W,1,8,1.9,15,M,,M,,*55
06/12/2014	12:01:22.740	$GPGGA,120123,2543.8842,N,08009.7277,W,1,8,1.9,15,M,,M,,*55
06/12/2014	12:01:23.836	$GPGGA,120124,2543.8843,N,08009.7277,W,1,8,1.9,15,M,,M,,*53
06/12/2014	12:01:24.851	$GPGGA,120125,2543.8842,N,08009.7279,W,1,8,1.9,15,M,,M,,*5D
06/12/2014	12:01:25.826	$GPGGA,120126,2543.8843,N,08009.7278,W,1,8,1.9,15,M,,M,,*5E
06/12/2014	12:01:26.751	$GPGGA,120127,2543.8842,N,08009.7279,W,1,7,1.9,15,M,,M,,*50
06/12/2014	12:01:27.736	$GPGGA,120128,2543.8844,N,08009.7278,W,1,7,1.9,15,M,,M,,*58
06/12/2014	12:01:28.731	$GPGGA,120129,2543.8844,N,08009.7279,W,1,7,1.9,15,M,,M,,*58
06/12/2014	12:01:29.746	$GPGGA,120130,2543.8844,N,08009.7278,W,1,7,1.9,15,M,,M,,*51
06/12/2014	12:01:30.862	$GPGGA,120131,2543.8844,N,08009.7279,W,1,7,1.9,15,M,,M,,*51
06/12/2014	12:01:31.757	$GPGGA,120132,2543.8844,N,08009.7278,W,1,7,1.9,15,M,,M,,*53
06/12/2014	12:01:32.731	$GPGGA,120133,2543.8844,N,08009.7280,W,1,7,1.9,15,M,,M,,*55
06/12/2014	12:01:33.837	$GPGGA,120134,2543.8844,N,08009.7280,W,1,7,1.9,15,M,,M,,*52
06/12/2014	12:01:34.852	$GPGGA,120135,2543.8846,N,08009.7279,W,1,7,1.9,15,M,,M,,*57
06/12/2014	12:01:35.877	$GPGGA,120136,2543.8845,N,08009.7280,W,1,7,1.9,15,M,,M,,*51
06/12/2014	12:01:36.852	$GPGGA,120137,2543.8846,N,08009.7279,W,1,7,1.9,15,M,,M,,*55
06/12/2014	12:01:37.757	$GPGGA,120138,2543.8847,N,08009.7280,W,1,7,1.9,15,M,,M,,*5D
06/12/2014	12:01:38.873	$GPGGA,120139,2543.8846,N,08009.7279,W,1,7,1.9,15,M,,M,,*5B
06/12/2014	12:01:39.807	$GPGGA,120140,2543.8847,N,08009.7280,W,1,7,1.9,15,M,,M,,*52
06/12/2014	12:01:40.883	$GPGGA,120141,2543.8846,N,08009.7279,W,1,7,1.9,15,M,,M,,*54
06/12/2014	12:01:41.858	$GPGGA,120142,2543.8847,N,08009.7278,W,1,7,1.9,15,M,,M,,*57
06/12/2014	12:01:42.883	$GPGGA,120143,2543.8846,N,08009.7280,W,1,7,1.9,15,M,,M,,*50
06/12/2014	12:01:43.889	$GPGGA,120144,2543.8847,N,08009.7279,W,1,7,1.9,15,M,,M,,*50
06/12/2014	12:01:44.783	$GPGGA,120145,2543.8846,N,08009.7280,W,1,7,1.9,15,M,,M,,*56
06/12/2014	12:01:45.579	$GPGGA,120146,2543.8848,N,08009.7278,W,1,7,1.9,15,M,,M,,*5C
06/12/2014	12:01:46.594	$GPGGA,120147,2543.8845,N,08009.7277,W,1,7,1.9,15,M,,M,,*5F
06/12/2014	12:01:47.589	$GPGGA,120148,2543.8847,N,08009.7277,W,1,7,1.9,15,M,,M,,*52
06/12/2014	12:01:48.595	$GPGGA,120149,2543.8845,N,08009.7277,W,1,7,1.9,15,M,,M,,*51
06/12/2014	12:01:49.586	$GPGGA,120150,2543.8846,N,08009.7277,W,1,7,1.9,15,M,,M,,*5A
06/12/2014	12:01:50.604	$GPGGA,120151,2543.8845,N,08009.7277,W,1,7,1.9,15,M,,M,,*58
06/12/2014	12:01:51.609	$GPGGA,120152,2543.8844,N,08009.7276,W,1,7,1.9,15,M,,M,,*5B
06/12/2014	12:01:52.594	$GPGGA,120153,2543.8844,N,08009.7276,W,1,8,1.9,15,M,,M,,*55
06/12/2014	12:01:53.590	$GPGGA,120154,2543.8844,N,08009.7276,W,1,8,1.9,15,M,,M,,*52
06/12/2014	12:01:54.597	$GPGGA,120155,2543.8844,N,08009.7276,W,1,8,1.9,16,M,,M,,*50
06/12/2014	12:01:55.610	$GPGGA,120156,2543.8844,N,08009.7276,W,1,8,1.9,16,M,,M,,*53
06/12/2014	12:01:56.626	$GPGGA,120157,2543.8844,N,08009.7276,W,1,8,1.9,16,M,,M,,*52
06/12/2014	12:01:57.610	$GPGGA,120158,2543.8844,N,08009.7276,W,1,8,1.9,16,M,,M,,*5D
06/12/2014	12:01:58.605	$GPGGA,120159,2543.8844,N,08009.7275,W,1,8,1.9,16,M,,M,,*5F
06/12/2014	12:01:59.641	$GPGGA,120200,2543.8844,N,08009.7276,W,1,8,1.9,16,M,,M,,*53
06/12/2014	12:02:00.636	$GPGGA,120201,2543.8844,N,08009.7275,W,1,8,1.9,16,M,,M,,*51
06/12/2014	12:02:01.621	$GPGGA,120202,2543.8844,N,08009.7276,W,1,8,1.9,16,M,,M,,*51
06/12/2014	12:02:02.646	$GPGGA,120203,2543.8844,N,08009.7275,W,1,8,1.9,16,M,,M,,*53
06/12/2014	12:02:03.641	$GPGGA,120204,2543.8844,N,08009.7276,W,1,8,1.9,16,M,,M,,*57
06/12/2014	12:02:04.626	$GPGGA,120205,2543.8844,N,08009.7274,W,1,8,1.9,16,M,,M,,*54
06/12/2014	12:02:05.642	$GPGGA,120206,2543.8844,N,08009.7273,W,1,8,1.9,16,M,,M,,*50
06/12/2014	12:02:06.626	$GPGGA,120207,2543.8842,N,08009.7273,W,1,9,1.8,16,M,,M,,*57
06/12/2014	12:02:07.651	$GPGGA,120208,2543.8844,N,08009.7273,W,1,9,1.8,16,M,,M,,*5E
06/12/2014	12:02:08.636	$GPGGA,120209,2543.8844,N,08009.7272,W,1,9,1.8,16,M,,M,,*5E
06/12/2014	12:02:09.641	$GPGGA,120210,2543.8844,N,08009.7272,W,1,9,1.8,16,M,,M,,*56
06/12/2014	12:02:10.647	$GPGGA,120211,2543.8844,N,08009.7272,W,1,9,1.8,16,M,,M,,*57
06/12/2014	12:02:11.672	$GPGGA,120212,2543.8844,N,08009.7272,W,1,9,1.8,16,M,,M,,*54
06/12/2014	12:02:12.677	$GPGGA,120213,2543.8844,N,08009.7272,W,1,9,1.8,16,M,,M,,*55
06/12/2014	12:02:13.652	$GPGGA,120214,2543.8844,N,08009.7272,W,1,9,1.8,16,M,,M,,*52
06/12/2014	12:02:14.677	$GPGGA,120215,2543.8844,N,08009.7271,W,1,9,1.8,16,M,,M,,*50
06/12/2014	12:02:15.683	$GPGGA,120216,2543.8844,N,08009.7272,W,1,9,1.8,16,M,,M,,*50
06/12/2014	12:02:16.678	$GPGGA,120217,2543.8844,N,08009.7271,W,1,9,1.8,16,M,,M,,*52
06/12/2014	12:02:17.683	$GPGGA,120218,2543.8844,N,08009.7272,W,1,9,1.8,16,M,,M,,*5E
06/12/2014	12:02:18.688	$GPGGA,120219,2543.8844,N,08009.7270,W,1,9,1.8,16,M,,M,,*5D
06/12/2014	12:02:19.683	$GPGGA,120220,2543.8844,N,08009.7270,W,1,9,1.8,16,M,,M,,*57
06/12/2014	12:02:20.769	$GPGGA,120221,2543.8844,N,08009.7270,W,1,9,1.8,16,M,,M,,*56
06/12/2014	12:02:21.674	$GPGGA,120222,2543.8844,N,08009.7270,W,1,9,1.8,16,M,,M,,*55
06/12/2014	12:02:22.809	$GPGGA,120223,2543.8844,N,08009.7270,W,1,9,1.8,16,M,,M,,*54
06/12/2014	12:02:23.815	$GPGGA,120224,2543.8844,N,08009.7270,W,1,9,1.8,16,M,,M,,*53
06/12/2014	12:02:24.688	$GPGGA,120225,2543.8844,N,08009.7270,W,1,9,1.8,17,M,,M,,*53
06/12/2014	12:02:25.794	$GPGGA,120226,2543.8844,N,08009.7270,W,1,9,1.8,17,M,,M,,*50
06/12/2014	12:02:26.709	$GPGGA,120227,2543.8844,N,08009.7270,W,1,9,1.8,17,M,,M,,*51
06/12/2014	12:02:27.804	$GPGGA,120228,2543.8844,N,08009.7270,W,1,9,1.8,17,M,,M,,*5E
06/12/2014	12:02:28.810	$GPGGA,120229,2543.8844,N,08009.7270,W,1,9,1.8,17,M,,M,,*5F
06/12/2014	12:02:29.805	$GPGGA,120230,2543.8844,N,08009.7270,W,1,9,1.8,17,M,,M,,*57
06/12/2014	12:02:30.840	$GPGGA,120231,2543.8844,N,08009.7270,W,1,9,1.8,17,M,,M,,*56
06/12/2014	12:02:31.815	$GPGGA,120232,2543.8844,N,08009.7270,W,1,9,1.8,17,M,,M,,*55
06/12/2014	12:02:32.820	$GPGGA,120233,2543.8844,N,08009.7270,W,1,9,1.8,17,M,,M,,*54
06/12/2014	12:02:33.815	$GPGGA,120234,2543.8842,N,08009.7270,W,1,9,1.8,17,M,,M,,*55
06/12/2014	12:02:34.852	$GPGGA,120235,2543.8843,N,08009.7269,W,1,9,1.8,17,M,,M,,*5D
06/12/2014	12:02:35.846	$GPGGA,120236,2543.8842,N,08009.7269,W,1,9,1.8,17,M,,M,,*5F
06/12/2014	12:02:36.851	$GPGGA,120237,2543.8841,N,08009.7269,W,1,9,1.8,17,M,,M,,*5D
06/12/2014	12:02:37.846	$GPGGA,120238,2543.8842,N,08009.7269,W,1,9,1.8,17,M,,M,,*51
06/12/2014	12:02:38.841	$GPGGA,120239,2543.8841,N,08009.7269,W,1,9,1.8,17,M,,M,,*53
06/12/2014	12:02:39.847	$GPGGA,120240,2543.8840,N,08009.7269,W,1,9,1.8,16,M,,M,,*5D
06/12/2014	12:02:40.873	$GPGGA,120241,2543.8840,N,08009.7269,W,1,9,1.8,16,M,,M,,*5C
06/12/2014	12:02:41.846	$GPGGA,120242,2543.8839,N,08009.7269,W,1,9,1.8,16,M,,M,,*51
06/12/2014	12:02:42.891	$GPGGA,120243,2543.8840,N,08009.7269,W,1,9,1.8,16,M,,M,,*5E
06/12/2014	12:02:43.866	$GPGGA,120244,2543.8839,N,08009.7269,W,1,9,1.8,16,M,,M,,*57
06/12/2014	12:02:44.872	$GPGGA,120245,2543.8840,N,08009.7269,W,1,9,1.8,16,M,,M,,*58
06/12/2014	12:02:45.547	$GPGGA,120246,2543.8838,N,08009.7269,W,1,9,1.8,16,M,,M,,*54
06/12/2014	12:02:46.552	$GPGGA,120247,2543.8839,N,08009.7268,W,1,9,1.8,16,M,,M,,*55
06/12/2014	12:02:47.557	$GPGGA,120248,2543.8838,N,08009.7269,W,1,9,1.8,16,M,,M,,*5A
06/12/2014	12:02:48.562	$GPGGA,120249,2543.8839,N,08009.7268,W,1,9,1.8,16,M,,M,,*5B
06/12/2014	12:02:49.568	$GPGGA,120250,2543.8838,N,08009.7269,W,1,9,1.8,16,M,,M,,*53
06/12/2014	12:02:50.595	$GPGGA,120251,2543.8839,N,08009.7268,W,1,9,1.8,16,M,,M,,*52
06/12/2014	12:02:51.568	$GPGGA,120252,2543.8838,N,08009.7267,W,1,9,1.8,16,M,,M,,*5F
06/12/2014	12:02:52.614	$GPGGA,120253,2543.8839,N,08009.7267,W,1,9,1.8,16,M,,M,,*5F
06/12/2014	12:02:53.568	$GPGGA,120254,2543.8838,N,08009.7267,W,1,9,1.8,16,M,,M,,*59
06/12/2014	12:02:54.573	$GPGGA,120255,2543.8837,N,08009.7267,W,1,9,1.8,16,M,,M,,*57
06/12/2014	12:02:55.622	$GPGGA,120256,2543.8837,N,08009.7267,W,1,9,1.8,16,M,,M,,*54
06/12/2014	12:02:56.574	$GPGGA,120257,2543.8839,N,08009.7267,W,1,9,1.8,16,M,,M,,*5B
06/12/2014	12:02:57.589	$GPGGA,120258,2543.8837,N,08009.7267,W,1,9,1.8,16,M,,M,,*5A
06/12/2014	12:02:58.594	$GPGGA,120259,2543.8839,N,08009.7269,W,1,9,1.8,16,M,,M,,*5B
06/12/2014	12:02:59.608	$GPGGA,120300,2543.8838,N,08009.7268,W,1,9,1.8,16,M,,M,,*56
06/12/2014	12:03:00.594	$GPGGA,120301,2543.8839,N,08009.7267,W,1,9,1.8,16,M,,M,,*59
06/12/2014	12:03:01.609	$GPGGA,120302,2543.8838,N,08009.7267,W,1,9,1.8,16,M,,M,,*5B
06/12/2014	12:03:02.604	$GPGGA,120303,2543.8839,N,08009.7267,W,1,9,1.8,16,M,,M,,*5B
06/12/2014	12:03:03.629	$GPGGA,120304,2543.8838,N,08009.7267,W,1,9,1.8,16,M,,M,,*5D
06/12/2014	12:03:04.646	$GPGGA,120305,2543.8839,N,08009.7269,W,1,9,1.8,16,M,,M,,*53
06/12/2014	12:03:05.630	$GPGGA,120306,2543.8840,N,08009.7268,W,1,9,1.8,16,M,,M,,*5F
06/12/2014	12:03:06.645	$GPGGA,120307,2543.8839,N,08009.7269,W,1,9,1.8,16,M,,M,,*51
06/12/2014	12:03:07.640	$GPGGA,120308,2543.8840,N,08009.7268,W,1,9,1.8,16,M,,M,,*51
06/12/2014	12:03:08.615	$GPGGA,120309,2543.8839,N,08009.7269,W,1,9,1.8,16,M,,M,,*5F
06/12/2014	12:03:09.741	$GPGGA,120310,2543.8840,N,08009.7268,W,1,9,1.8,16,M,,M,,*58
06/12/2014	12:03:10.646	$GPGGA,120311,2543.8839,N,08009.7269,W,1,9,1.8,16,M,,M,,*56
06/12/2014	12:03:11.761	$GPGGA,120312,2543.8840,N,08009.7268,W,1,9,1.8,16,M,,M,,*5A
06/12/2014	12:03:12.736	$GPGGA,120313,2543.8840,N,08009.7269,W,1,9,1.8,16,M,,M,,*5A
06/12/2014	12:03:13.631	$GPGGA,120314,2543.8840,N,08009.7268,W,1,9,1.8,16,M,,M,,*5C
06/12/2014	12:03:14.636	$GPGGA,120315,2543.8840,N,08009.7269,W,1,9,1.8,16,M,,M,,*5C
06/12/2014	12:03:15.752	$GPGGA,120316,2543.8840,N,08009.7268,W,1,9,1.8,16,M,,M,,*5E
06/12/2014	12:03:16.786	$GPGGA,120317,2543.8840,N,08009.7269,W,1,9,1.8,16,M,,M,,*5E
06/12/2014	12:03:17.661	$GPGGA,120318,2543.8840,N,08009.7268,W,1,9,1.8,16,M,,M,,*50
06/12/2014	12:03:18.656	$GPGGA,120319,2543.8840,N,08009.7269,W,1,9,1.8,16,M,,M,,*50
06/12/2014	12:03:19.762	$GPGGA,120320,2543.8840,N,08009.7268,W,1,9,1.8,15,M,,M,,*58
06/12/2014	12:03:20.767	$GPGGA,120321,2543.8840,N,08009.7269,W,1,9,1.8,15,M,,M,,*58
06/12/2014	12:03:21.782	$GPGGA,120322,2543.8840,N,08009.7268,W,1,9,1.8,15,M,,M,,*5A
06/12/2014	12:03:22.767	$GPGGA,120323,2543.8840,N,08009.7267,W,1,9,1.8,15,M,,M,,*54
06/12/2014	12:03:23.783	$GPGGA,120324,2543.8840,N,08009.7267,W,1,9,1.8,15,M,,M,,*53
06/12/2014	12:03:24.769	$GPGGA,120325,2543.8840,N,08009.7269,W,1,9,1.8,15,M,,M,,*5C
06/12/2014	12:03:25.783	$GPGGA,120326,2543.8840,N,08009.7267,W,1,9,1.8,15,M,,M,,*51
06/12/2014	12:03:26.798	$GPGGA,120327,2543.8840,N,08009.7267,W,1,9,1.8,15,M,,M,,*50
06/12/2014	12:03:27.783	$GPGGA,120328,2543.8840,N,08009.7267,W,1,9,1.8,15,M,,M,,*5F
06/12/2014	12:03:28.789	$GPGGA,120329,2543.8840,N,08009.7267,W,1,9,1.8,15,M,,M,,*5E
06/12/2014	12:03:29.794	$GPGGA,120330,2543.8840,N,08009.7267,W,1,9,1.8,15,M,,M,,*56
06/12/2014	12:03:30.809	$GPGGA,120331,2543.8840,N,08009.7267,W,1,9,1.8,15,M,,M,,*57
06/12/2014	12:03:31.814	$GPGGA,120332,2543.8840,N,08009.7267,W,1,9,1.8,15,M,,M,,*54
06/12/2014	12:03:32.792	$GPGGA,120333,2543.8840,N,08009.7267,W,1,9,1.8,15,M,,M,,*55
06/12/2014	12:03:33.814	$GPGGA,120334,2543.8840,N,08009.7267,W,1,9,1.8,15,M,,M,,*52
06/12/2014	12:03:34.821	$GPGGA,120335,2543.8840,N,08009.7267,W,1,9,1.8,15,M,,M,,*53
06/12/2014	12:03:35.829	$GPGGA,120336,2543.8840,N,08009.7267,W,1,9,1.8,15,M,,M,,*50
06/12/2014	12:03:36.809	$GPGGA,120337,2543.8840,N,08009.7267,W,1,9,1.8,15,M,,M,,*51
06/12/2014	12:03:37.835	$GPGGA,120338,2543.8840,N,08009.7267,W,1,9,1.8,15,M,,M,,*5E
06/12/2014	12:03:38.842	$GPGGA,120339,2543.8840,N,08009.7267,W,1,9,1.8,15,M,,M,,*5F
06/12/2014	12:03:39.841	$GPGGA,120340,2543.8840,N,08009.7267,W,1,9,1.8,15,M,,M,,*51
06/12/2014	12:03:40.820	$GPGGA,120341,2543.8840,N,08009.7267,W,1,9,1.8,15,M,,M,,*50
06/12/2014	12:03:41.815	$GPGGA,120342,2543.8840,N,08009.7267,W,1,9,1.8,15,M,,M,,*53
06/12/2014	12:03:42.863	$GPGGA,120343,2543.8840,N,08009.7267,W,1,9,1.8,14,M,,M,,*53
06/12/2014	12:03:43.845	$GPGGA,120344,2543.8840,N,08009.7267,W,1,9,1.8,14,M,,M,,*54
06/12/2014	12:03:44.830	$GPGGA,120345,2543.8840,N,08009.7267,W,1,9,1.8,14,M,,M,,*55
06/12/2014	12:03:45.535	$GPGGA,120346,2543.8840,N,08009.7267,W,1,9,1.8,14,M,,M,,*56
06/12/2014	12:03:46.565	$GPGGA,120347,2543.8840,N,08009.7267,W,1,9,1.8,14,M,,M,,*57
06/12/2014	12:03:47.555	$GPGGA,120348,2543.8840,N,08009.7267,W,1,9,1.8,14,M,,M,,*58
06/12/2014	12:03:48.570	$GPGGA,120349,2543.8840,N,08009.7267,W,1,9,1.8,14,M,,M,,*59
06/12/2014	12:03:49.535	$GPGGA,120350,2543.8840,N,08009.7267,W,1,9,1.8,14,M,,M,,*51
06/12/2014	12:03:50.541	$GPGGA,120351,2543.8840,N,08009.7267,W,1,9,1.8,14,M,,M,,*50
06/12/2014	12:03:51.565	$GPGGA,120352,2543.8842,N,08009.7267,W,1,9,1.8,14,M,,M,,*51
06/12/2014	12:03:52.560	$GPGGA,120353,2543.8841,N,08009.7267,W,1,9,1.8,14,M,,M,,*53
06/12/2014	12:03:53.716	$GPGGA,120354,2543.8842,N,08009.7267,W,1,9,1.8,14,M,,M,,*57
06/12/2014	12:03:54.714	$GPGGA,120355,2543.8841,N,08009.7267,W,1,9,1.8,14,M,,M,,*55
06/12/2014	12:03:55.747	$GPGGA,120356,2543.8842,N,08009.7267,W,1,9,1.8,14,M,,M,,*55
06/12/2014	12:03:56.691	$GPGGA,120357,2543.8841,N,08009.7267,W,1,9,1.8,14,M,,M,,*57
06/12/2014	12:03:57.737	$GPGGA,120358,2543.8842,N,08009.7267,W,1,9,1.8,14,M,,M,,*5B
06/12/2014	12:03:58.712	$GPGGA,120359,2543.8841,N,08009.7267,W,1,9,1.8,14,M,,M,,*59
06/12/2014	12:03:59.596	$GPGGA,120400,2543.8843,N,08009.7267,W,1,9,1.8,14,M,,M,,*50
06/12/2014	12:04:00.582	$GPGGA,120401,2543.8842,N,08009.7267,W,1,9,1.8,14,M,,M,,*50
06/12/2014	12:04:01.567	$GPGGA,120402,2543.8843,N,08009.7267,W,1,9,1.8,14,M,,M,,*52
06/12/2014	12:04:02.743	$GPGGA,120403,2543.8842,N,08009.7267,W,1,9,1.8,14,M,,M,,*52
06/12/2014	12:04:03.768	$GPGGA,120404,2543.8843,N,08009.7267,W,1,9,1.8,14,M,,M,,*54
06/12/2014	12:04:04.602	$GPGGA,120405,2543.8842,N,08009.7267,W,1,9,1.8,14,M,,M,,*54
06/12/2014	12:04:05.688	$GPGGA,120406,2543.8844,N,08009.7267,W,1,9,1.8,14,M,,M,,*51
06/12/2014	12:04:06.778	$GPGGA,120407,2543.8844,N,08009.7267,W,1,9,1.8,14,M,,M,,*50
06/12/2014	12:04:07.782	$GPGGA,120408,2543.8844,N,08009.7267,W,1,9,1.8,14,M,,M,,*5F
06/12/2014	12:04:08.613	$GPGGA,120409,2543.8844,N,08009.7267,W,1,9,1.8,14,M,,M,,*5E
06/12/2014	12:04:09.768	$GPGGA,120410,2543.8844,N,08009.7267,W,1,9,1.8,13,M,,M,,*51
06/12/2014	12:04:10.703	$GPGGA,120411,2543.8844,N,08009.7266,W,1,9,1.8,13,M,,M,,*51
06/12/2014	12:04:11.793	$GPGGA,120412,2543.8844,N,08009.7266,W,1,9,1.8,13,M,,M,,*52
06/12/2014	12:04:12.743	$GPGGA,120413,2543.8844,N,08009.7266,W,1,9,1.8,13,M,,M,,*53
06/12/2014	12:04:13.709	$GPGGA,120414,2543.8844,N,08009.7266,W,1,9,1.8,13,M,,M,,*54
06/12/2014	12:04:14.764	$GPGGA,120415,2543.8844,N,08009.7266,W,1,9,1.8,13,M,,M,,*55
06/12/2014	12:04:15.815	$GPGGA,120416,2543.8844,N,08009.7266,W,1,9,1.8,13,M,,M,,*56
06/12/2014	12:04:16.725	$GPGGA,120417,2543.8844,N,08009.7266,W,1,9,1.8,13,M,,M,,*57
06/12/2014	12:04:17.790	$GPGGA,120418,2543.8844,N,08009.7266,W,1,9,1.8,13,M,,M,,*58
06/12/2014	12:04:18.775	$GPGGA,120419,2543.8844,N,08009.7266,W,1,9,1.8,13,M,,M,,*59
06/12/2014	12:04:19.810	$GPGGA,120420,2543.8844,N,08009.7266,W,1,9,1.8,13,M,,M,,*53
06/12/2014	12:04:20.775	$GPGGA,120421,2543.8844,N,08009.7266,W,1,9,1.8,13,M,,M,,*52
06/12/2014	12:04:21.790	$GPGGA,120422,2543.8844,N,08009.7266,W,1,9,1.8,13,M,,M,,*51
06/12/2014	12:04:22.785	$GPGGA,120423,2543.8844,N,08009.7265,W,1,9,1.8,13,M,,M,,*53
06/12/2014	12:04:23.831	$GPGGA,120424,2543.8844,N,08009.7265,W,1,9,1.8,13,M,,M,,*54
06/12/2014	12:04:24.796	$GPGGA,120425,2543.8844,N,08009.7265,W,1,9,1.8,13,M,,M,,*55
06/12/2014	12:04:25.751	$GPGGA,120426,2543.8844,N,08009.7265,W,1,9,1.8,13,M,,M,,*56
06/12/2014	12:04:26.795	$GPGGA,120427,2543.8844,N,08009.7265,W,1,9,1.8,13,M,,M,,*57
06/12/2014	12:04:27.820	$GPGGA,120428,2543.8844,N,08009.7265,W,1,9,1.8,13,M,,M,,*58
06/12/2014	12:04:28.806	$GPGGA,120429,2543.8844,N,08009.7265,W,1,9,1.8,13,M,,M,,*59
06/12/2014	12:04:29.821	$GPGGA,120430,2543.8844,N,08009.7265,W,1,9,1.8,13,M,,M,,*51
06/12/2014	12:04:30.766	$GPGGA,120431,2543.8844,N,08009.7265,W,1,9,1.8,13,M,,M,,*50
06/12/2014	12:04:31.842	$GPGGA,120432,2543.8844,N,08009.7264,W,1,9,1.8,13,M,,M,,*52
06/12/2014	12:04:32.826	$GPGGA,120433,2543.8844,N,08009.7265,W,1,9,1.8,13,M,,M,,*52
06/12/2014	12:04:33.832	$GPGGA,120434,2543.8844,N,08009.7264,W,1,9,1.8,13,M,,M,,*54
06/12/2014	12:04:34.818	$GPGGA,120435,2543.8844,N,08009.7265,W,1,9,1.8,13,M,,M,,*54
06/12/2014	12:04:35.862	$GPGGA,120436,2543.8844,N,08009.7264,W,1,9,1.8,13,M,,M,,*56
06/12/2014	12:04:36.787	$GPGGA,120437,2543.8844,N,08009.7265,W,1,9,1.8,13,M,,M,,*56
06/12/2014	12:04:37.792	$GPGGA,120438,2543.8844,N,08009.7264,W,1,9,1.8,13,M,,M,,*58
06/12/2014	12:04:38.839	$GPGGA,120439,2543.8844,N,08009.7265,W,1,9,1.8,13,M,,M,,*58
06/12/2014	12:04:39.812	$GPGGA,120440,2543.8844,N,08009.7264,W,1,9,1.8,13,M,,M,,*57
06/12/2014	12:04:40.828	$GPGGA,120441,2543.8844,N,08009.7265,W,1,9,1.8,13,M,,M,,*57
06/12/2014	12:04:41.803	$GPGGA,120442,2543.8844,N,08009.7264,W,1,9,1.8,13,M,,M,,*55
06/12/2014	12:04:42.868	$GPGGA,120443,2543.8842,N,08009.7265,W,1,9,1.8,13,M,,M,,*53
06/12/2014	12:04:43.894	$GPGGA,120444,2543.8844,N,08009.7264,W,1,9,1.8,13,M,,M,,*53
06/12/2014	12:04:44.878	$GPGGA,120445,2543.8844,N,08009.7265,W,1,9,1.8,13,M,,M,,*53
06/12/2014	12:04:45.563	$GPGGA,120446,2543.8844,N,08009.7264,W,1,9,1.8,13,M,,M,,*51
06/12/2014	12:04:46.618	$GPGGA,120447,2543.8844,N,08009.7265,W,1,9,1.8,13,M,,M,,*51
06/12/2014	12:04:47.523	$GPGGA,120448,2543.8844,N,08009.7264,W,1,9,1.8,13,M,,M,,*5F
06/12/2014	12:04:48.629	$GPGGA,120449,2543.8844,N,08009.7265,W,1,9,1.8,13,M,,M,,*5F
06/12/2014	12:04:49.513	$GPGGA,120450,2543.8842,N,08009.7263,W,1,9,1.8,13,M,,M,,*57
06/12/2014	12:04:50.559	$GPGGA,120451,2543.8843,N,08009.7263,W,1,9,1.8,13,M,,M,,*57
06/12/2014	12:04:51.604	$GPGGA,120452,2543.8842,N,08009.7263,W,1,9,1.8,13,M,,M,,*55
06/12/2014	12:04:52.660	$GPGGA,120453,2543.8843,N,08009.7263,W,1,9,1.8,13,M,,M,,*55
06/12/2014	12:04:53.534	$GPGGA,120454,2543.8842,N,08009.7263,W,1,9,1.8,13,M,,M,,*53
06/12/2014	12:04:54.539	$GPGGA,120455,2543.8843,N,08009.7263,W,1,9,1.8,13,M,,M,,*53
06/12/2014	12:04:55.655	$GPGGA,120456,2543.8842,N,08009.7265,W,1,9,1.8,13,M,,M,,*57
06/12/2014	12:04:56.620	$GPGGA,120457,2543.8843,N,08009.7263,W,1,9,1.8,13,M,,M,,*51
06/12/2014	12:04:57.615	$GPGGA,120458,2543.8842,N,08009.7263,W,1,9,1.8,13,M,,M,,*5F
06/12/2014	12:04:58.651	$GPGGA,120459,2543.8841,N,08009.7263,W,1,9,1.8,13,M,,M,,*5D
06/12/2014	12:04:59.676	$GPGGA,120500,2543.8843,N,08009.7263,W,1,9,1.8,13,M,,M,,*52
06/12/2014	12:05:00.691	$GPGGA,120501,2543.8841,N,08009.7265,W,1,9,1.8,12,M,,M,,*56
06/12/2014	12:05:01.625	$GPGGA,120502,2543.8842,N,08009.7263,W,1,9,1.8,12,M,,M,,*50
06/12/2014	12:05:02.690	$GPGGA,120503,2543.8841,N,08009.7263,W,1,9,1.8,12,M,,M,,*52
06/12/2014	12:05:03.686	$GPGGA,120504,2543.8842,N,08009.7263,W,1,9,1.8,12,M,,M,,*56
06/12/2014	12:05:04.681	$GPGGA,120505,2543.8841,N,08009.7265,W,1,9,1.8,12,M,,M,,*52
06/12/2014	12:05:05.686	$GPGGA,120506,2543.8842,N,08009.7264,W,1,9,1.8,12,M,,M,,*53
06/12/2014	12:05:06.711	$GPGGA,120507,2543.8840,N,08009.7265,W,1,9,1.8,12,M,,M,,*51
06/12/2014	12:05:07.696	$GPGGA,120508,2543.8840,N,08009.7264,W,1,9,1.8,12,M,,M,,*5F
06/12/2014	12:05:08.700	$GPGGA,120509,2543.8840,N,08009.7265,W,1,9,1.8,12,M,,M,,*5F
06/12/2014	12:05:09.673	$GPGGA,120510,2543.8840,N,08009.7264,W,1,9,1.8,12,M,,M,,*56
06/12/2014	12:05:10.707	$GPGGA,120511,2543.8840,N,08009.7265,W,1,9,1.8,12,M,,M,,*56
06/12/2014	12:05:11.721	$GPGGA,120512,2543.8840,N,08009.7264,W,1,9,1.8,12,M,,M,,*54
06/12/2014	12:05:12.684	$GPGGA,120513,2543.8840,N,08009.7265,W,1,9,1.8,12,M,,M,,*54
06/12/2014	12:05:13.697	$GPGGA,120514,2543.8840,N,08009.7265,W,1,9,1.8,12,M,,M,,*53
06/12/2014	12:05:14.701	$GPGGA,120515,2543.8840,N,08009.7265,W,1,9,1.8,12,M,,M,,*52
06/12/2014	12:05:15.714	$GPGGA,120516,2543.8840,N,08009.7266,W,1,9,1.8,12,M,,M,,*52
06/12/2014	12:05:16.708	$GPGGA,120517,2543.8839,N,08009.7266,W,1,9,1.8,12,M,,M,,*5D
06/12/2014	12:05:17.691	$GPGGA,120518,2543.8840,N,08009.7266,W,1,9,1.8,12,M,,M,,*5C
06/12/2014	12:05:18.755	$GPGGA,120519,2543.8839,N,08009.7266,W,1,9,1.8,12,M,,M,,*53
06/12/2014	12:05:19.717	$GPGGA,120520,2543.8840,N,08009.7266,W,1,9,1.8,12,M,,M,,*57
06/12/2014	12:05:20.722	$GPGGA,120521,2543.8839,N,08009.7267,W,1,9,1.8,12,M,,M,,*59
06/12/2014	12:05:21.694	$GPGGA,120522,2543.8839,N,08009.7267,W,1,9,1.8,12,M,,M,,*5A
06/12/2014	12:05:22.698	$GPGGA,120523,2543.8839,N,08009.7267,W,1,9,1.8,12,M,,M,,*5B
06/12/2014	12:05:23.721	$GPGGA,120524,2543.8839,N,08009.7267,W,1,9,1.8,12,M,,M,,*5C
06/12/2014	12:05:24.755	$GPGGA,120525,2543.8840,N,08009.7267,W,1,9,1.8,12,M,,M,,*53
06/12/2014	12:05:25.748	$GPGGA,120526,2543.8840,N,08009.7267,W,1,9,1.8,12,M,,M,,*50
06/12/2014	12:05:26.732	$GPGGA,120527,2543.8840,N,08009.7267,W,1,9,1.8,12,M,,M,,*51
06/12/2014	12:05:27.735	$GPGGA,120528,2543.8840,N,08009.7267,W,1,9,1.8,11,M,,M,,*5D
06/12/2014	12:05:28.729	$GPGGA,120529,2543.8840,N,08009.7267,W,1,9,1.8,11,M,,M,,*5C
06/12/2014	12:05:29.732	$GPGGA,120530,2543.8840,N,08009.7267,W,1,9,1.8,11,M,,M,,*54
06/12/2014	12:05:30.746	$GPGGA,120531,2543.8841,N,08009.7267,W,1,9,1.8,11,M,,M,,*54
06/12/2014	12:05:31.719	$GPGGA,120532,2543.8841,N,08009.7267,W,1,9,1.8,11,M,,M,,*57
06/12/2014	12:05:32.753	$GPGGA,120533,2543.8841,N,08009.7267,W,1,9,1.8,11,M,,M,,*56
06/12/2014	12:05:33.726	$GPGGA,120534,2543.8841,N,08009.7267,W,1,9,1.8,11,M,,M,,*51
06/12/2014	12:05:34.740	$GPGGA,120535,2543.8840,N,08009.7267,W,1,9,1.8,11,M,,M,,*51
06/12/2014	12:05:35.723	$GPGGA,120536,2543.8840,N,08009.7267,W,1,9,1.8,11,M,,M,,*52
06/12/2014	12:05:36.746	$GPGGA,120537,2543.8840,N,08009.7266,W,1,9,1.8,11,M,,M,,*52
06/12/2014	12:05:37.760	$GPGGA,120538,2543.8840,N,08009.7266,W,1,9,1.9,11,M,,M,,*5C
06/12/2014	12:05:38.863	$GPGGA,120539,2543.8843,N,08009.7264,W,1,8,1.9,11,M,,M,,*5D
06/12/2014	12:05:39.756	$GPGGA,120540,2543.8843,N,08009.7264,W,1,8,1.8,11,M,,M,,*52
06/12/2014	12:05:40.741	$GPGGA,120541,2543.8843,N,08009.7263,W,1,9,1.8,11,M,,M,,*55
06/12/2014	12:05:41.783	$GPGGA,120542,2543.8842,N,08009.7262,W,1,9,1.8,12,M,,M,,*55
06/12/2014	12:05:42.777	$GPGGA,120543,2543.8843,N,08009.7262,W,1,9,1.8,12,M,,M,,*55
06/12/2014	12:05:43.791	$GPGGA,120544,2543.8843,N,08009.7262,W,1,9,1.8,12,M,,M,,*52
06/12/2014	12:05:44.754	$GPGGA,120545,2543.8843,N,08009.7262,W,1,8,1.9,12,M,,M,,*53
06/12/2014	12:05:45.501	$GPGGA,120546,2543.8842,N,08009.7262,W,1,8,1.8,12,M,,M,,*50
06/12/2014	12:05:46.585	$GPGGA,120547,2543.8843,N,08009.7263,W,1,8,1.9,12,M,,M,,*50
06/12/2014	12:05:47.518	$GPGGA,120548,2543.8843,N,08009.7263,W,1,8,1.9,12,M,,M,,*5F
06/12/2014	12:05:48.592	$GPGGA,120549,2543.8841,N,08009.7263,W,1,8,1.9,12,M,,M,,*5C
06/12/2014	12:05:49.505	$GPGGA,120550,2543.8841,N,08009.7263,W,1,8,1.9,12,M,,M,,*54
06/12/2014	12:05:50.509	$GPGGA,120551,2543.8840,N,08009.7263,W,1,8,1.9,12,M,,M,,*54
06/12/2014	12:05:51.602	$GPGGA,120552,2543.8840,N,08009.7263,W,1,8,1.9,12,M,,M,,*57
06/12/2014	12:05:52.606	$GPGGA,120553,2543.8840,N,08009.7263,W,1,8,1.9,12,M,,M,,*56
06/12/2014	12:05:53.609	$GPGGA,120554,2543.8840,N,08009.7263,W,1,8,1.9,12,M,,M,,*51
06/12/2014	12:05:54.512	$GPGGA,120555,2543.8840,N,08009.7263,W,1,8,1.9,12,M,,M,,*50
06/12/2014	12:05:55.615	$GPGGA,120556,2543.8840,N,08009.7264,W,1,8,1.9,12,M,,M,,*54
06/12/2014	12:05:56.639	$GPGGA,120557,2543.8840,N,08009.7265,W,1,8,1.9,12,M,,M,,*54
06/12/2014	12:05:57.612	$GPGGA,120558,2543.8839,N,08009.7264,W,1,8,1.9,12,M,,M,,*54
06/12/2014	12:05:58.611	$GPGGA,120559,2543.8840,N,08009.7265,W,1,8,1.9,12,M,,M,,*5A
06/12/2014	12:05:59.629	$GPGGA,120600,2543.8840,N,08009.7264,W,1,8,1.9,12,M,,M,,*54
06/12/2014	12:06:00.633	$GPGGA,120601,2543.8840,N,08009.7265,W,1,8,1.9,12,M,,M,,*54
06/12/2014	12:06:01.619	$GPGGA,120602,2543.8840,N,08009.7265,W,1,8,1.9,12,M,,M,,*57
06/12/2014	12:06:02.640	$GPGGA,120603,2543.8840,N,08009.7265,W,1,8,1.9,12,M,,M,,*56
06/12/2014	12:06:03.627	$GPGGA,120604,2543.8840,N,08009.7265,W,1,8,1.9,12,M,,M,,*51
06/12/2014	12:06:04.627	$GPGGA,120605,2543.8840,N,08009.7265,W,1,8,1.9,12,M,,M,,*50
06/12/2014	12:06:05.622	$GPGGA,120606,2543.8840,N,08009.7265,W,1,8,1.9,12,M,,M,,*53
06/12/2014	12:06:06.636	$GPGGA,120607,2543.8840,N,08009.7265,W,1,8,1.9,12,M,,M,,*52
06/12/2014	12:06:07.634	$GPGGA,120608,2543.8840,N,08009.7265,W,1,8,1.9,12,M,,M,,*5D
06/12/2014	12:06:08.642	$GPGGA,120609,2543.8840,N,08009.7266,W,1,8,1.9,12,M,,M,,*5F
06/12/2014	12:06:09.614	$GPGGA,120610,2543.8840,N,08009.7266,W,1,8,1.9,12,M,,M,,*57
06/12/2014	12:06:10.618	$GPGGA,120611,2543.8840,N,08009.7266,W,1,8,1.9,12,M,,M,,*56
06/12/2014	12:06:11.640	$GPGGA,120612,2543.8840,N,08009.7266,W,1,8,1.9,12,M,,M,,*55
06/12/2014	12:06:12.657	$GPGGA,120613,2543.8839,N,08009.7266,W,1,8,1.9,12,M,,M,,*5A
06/12/2014	12:06:13.638	$GPGGA,120614,2543.8840,N,08009.7266,W,1,8,1.9,13,M,,M,,*52
06/12/2014	12:06:14.662	$GPGGA,120615,2543.8839,N,08009.7266,W,1,8,1.9,13,M,,M,,*5D
06/12/2014	12:06:15.644	$GPGGA,120616,2543.8840,N,08009.7266,W,1,8,1.9,13,M,,M,,*50
06/12/2014	12:06:16.638	$GPGGA,120617,2543.8839,N,08009.7266,W,1,8,1.9,13,M,,M,,*5F
06/12/2014	12:06:17.651	$GPGGA,120618,2543.8840,N,08009.7266,W,1,8,1.9,13,M,,M,,*5E
06/12/2014	12:06:18.635	$GPGGA,120619,2543.8839,N,08009.7266,W,1,8,1.9,13,M,,M,,*51
06/12/2014	12:06:19.669	$GPGGA,120620,2543.8840,N,08009.7266,W,1,8,1.9,13,M,,M,,*55
06/12/2014	12:06:20.662	$GPGGA,120621,2543.8839,N,08009.7267,W,1,8,1.9,13,M,,M,,*5B
06/12/2014	12:06:21.635	$GPGGA,120622,2543.8840,N,08009.7267,W,1,8,1.9,13,M,,M,,*56
06/12/2014	12:06:22.639	$GPGGA,120623,2543.8839,N,08009.7266,W,1,8,1.9,13,M,,M,,*58
06/12/2014	12:06:23.672	$GPGGA,120624,2543.8840,N,08009.7267,W,1,8,1.9,13,M,,M,,*50
06/12/2014	12:06:24.656	$GPGGA,120625,2543.8839,N,08009.7267,W,1,8,1.9,13,M,,M,,*5F
06/12/2014	12:06:25.639	$GPGGA,120626,2543.8840,N,08009.7266,W,1,8,1.9,13,M,,M,,*53
06/12/2014	12:06:26.685	$GPGGA,120627,2543.8839,N,08009.7266,W,1,8,1.9,13,M,,M,,*5C
06/12/2014	12:06:27.667	$GPGGA,120628,2543.8840,N,08009.7266,W,1,8,1.9,13,M,,M,,*5D
06/12/2014	12:06:28.670	$GPGGA,120629,2543.8838,N,08009.7266,W,1,8,1.9,13,M,,M,,*53
06/12/2014	12:06:29.773	$GPGGA,120630,2543.8839,N,08009.7266,W,1,8,1.9,13,M,,M,,*5A
06/12/2014	12:06:30.676	$GPGGA,120631,2543.8838,N,08009.7266,W,1,8,1.9,13,M,,M,,*5A
06/12/2014	12:06:31.669	$GPGGA,120632,2543.8839,N,08009.7266,W,1,8,1.9,13,M,,M,,*58
06/12/2014	12:06:32.753	$GPGGA,120633,2543.8838,N,08009.7266,W,1,8,1.9,13,M,,M,,*58
06/12/2014	12:06:33.666	$GPGGA,120634,2543.8839,N,08009.7266,W,1,8,1.9,13,M,,M,,*5E
06/12/2014	12:06:34.790	$GPGGA,120635,2543.8838,N,08009.7266,W,1,8,1.9,13,M,,M,,*5E
06/12/2014	12:06:35.684	$GPGGA,120636,2543.8839,N,08009.7266,W,1,8,1.9,13,M,,M,,*5C
06/12/2014	12:06:36.667	$GPGGA,120637,2543.8838,N,08009.7266,W,1,8,1.9,13,M,,M,,*5C
06/12/2014	12:06:37.680	$GPGGA,120638,2543.8839,N,08009.7266,W,1,8,1.9,13,M,,M,,*52
06/12/2014	12:06:38.814	$GPGGA,120639,2543.8838,N,08009.7266,W,1,8,1.9,13,M,,M,,*52
06/12/2014	12:06:39.697	$GPGGA,120640,2543.8839,N,08009.7266,W,1,8,1.9,13,M,,M,,*5D
06/12/2014	12:06:40.681	$GPGGA,120641,2543.8838,N,08009.7267,W,1,8,1.9,13,M,,M,,*5C
06/12/2014	12:06:41.764	$GPGGA,120642,2543.8839,N,08009.7267,W,1,8,1.9,13,M,,M,,*5E
06/12/2014	12:06:42.818	$GPGGA,120643,2543.8838,N,08009.7266,W,1,8,1.9,13,M,,M,,*5F
06/12/2014	12:06:43.802	$GPGGA,120644,2543.8839,N,08009.7267,W,1,8,1.9,13,M,,M,,*58
06/12/2014	12:06:44.775	$GPGGA,120645,2543.8838,N,08009.7266,W,1,8,1.9,13,M,,M,,*59
06/12/2014	12:06:45.569	$GPGGA,120646,2543.8839,N,08009.7266,W,1,8,1.9,13,M,,M,,*5B
06/12/2014	12:06:46.602	$GPGGA,120647,2543.8838,N,08009.7267,W,1,8,1.9,13,M,,M,,*5A
06/12/2014	12:06:47.585	$GPGGA,120648,2543.8839,N,08009.7267,W,1,8,1.9,13,M,,M,,*54
06/12/2014	12:06:48.599	$GPGGA,120649,2543.8838,N,08009.7267,W,1,8,1.9,13,M,,M,,*54
06/12/2014	12:06:49.582	$GPGGA,120650,2543.8839,N,08009.7267,W,1,8,1.9,13,M,,M,,*5D
06/12/2014	12:06:50.606	$GPGGA,120651,2543.8838,N,08009.7267,W,1,8,1.9,13,M,,M,,*5D
06/12/2014	12:06:51.599	$GPGGA,120652,2543.8839,N,08009.7267,W,1,8,1.9,13,M,,M,,*5F
06/12/2014	12:06:52.573	$GPGGA,120653,2543.8838,N,08009.7269,W,1,8,1.9,13,M,,M,,*51
06/12/2014	12:06:53.586	$GPGGA,120654,2543.8839,N,08009.7268,W,1,8,1.9,13,M,,M,,*56
06/12/2014	12:06:54.610	$GPGGA,120655,2543.8838,N,08009.7269,W,1,8,1.9,13,M,,M,,*57
06/12/2014	12:06:55.595	$GPGGA,120656,2543.8839,N,08009.7268,W,1,8,1.9,13,M,,M,,*54
06/12/2014	12:06:56.599	$GPGGA,120657,2543.8838,N,08009.7269,W,1,8,1.9,13,M,,M,,*55
06/12/2014	12:06:57.590	$GPGGA,120658,2543.8839,N,08009.7268,W,1,8,1.9,13,M,,M,,*5A
06/12/2014	12:06:58.605	$GPGGA,120659,2543.8838,N,08009.7269,W,1,8,1.9,13,M,,M,,*5B
06/12/2014	12:06:59.617	$GPGGA,120700,2543.8839,N,08009.7268,W,1,8,1.9,13,M,,M,,*56
06/12/2014	12:07:00.621	$GPGGA,120701,2543.8837,N,08009.7269,W,1,8,1.9,13,M,,M,,*58
06/12/2014	12:07:01.596	$GPGGA,120702,2543.8837,N,08009.7268,W,1,8,1.9,13,M,,M,,*5A
06/12/2014	12:07:02.618	$GPGGA,120703,2543.8837,N,08009.7269,W,1,8,1.9,13,M,,M,,*5A
06/12/2014	12:07:03.617	$GPGGA,120704,2543.8837,N,08009.7269,W,1,8,1.9,13,M,,M,,*5D
06/12/2014	12:07:04.594	$GPGGA,120705,2543.8837,N,08009.7269,W,1,8,1.9,13,M,,M,,*5C
06/12/2014	12:07:05.607	$GPGGA,120706,2543.8837,N,08009.7269,W,1,8,1.9,13,M,,M,,*5F
06/12/2014	12:07:06.625	$GPGGA,120707,2543.8837,N,08009.7269,W,1,8,1.9,13,M,,M,,*5E
06/12/2014	12:07:07.624	$GPGGA,120708,2543.8837,N,08009.7269,W,1,8,1.9,13,M,,M,,*51
06/12/2014	12:07:08.619	$GPGGA,120709,2543.8837,N,08009.7269,W,1,8,1.9,13,M,,M,,*50
06/12/2014	12:07:09.611	$GPGGA,120710,2543.8837,N,08009.7269,W,1,8,1.9,13,M,,M,,*58
06/12/2014	12:07:10.635	$GPGGA,120711,2543.8837,N,08009.7270,W,1,8,1.9,13,M,,M,,*51
06/12/2014	12:07:11.618	$GPGGA,120712,2543.8837,N,08009.7269,W,1,8,1.9,13,M,,M,,*5A
06/12/2014	12:07:12.644	$GPGGA,120713,2543.8837,N,08009.7270,W,1,8,1.9,13,M,,M,,*53
06/12/2014	12:07:13.625	$GPGGA,120714,2543.8837,N,08009.7270,W,1,8,1.9,13,M,,M,,*54
06/12/2014	12:07:14.629	$GPGGA,120715,2543.8837,N,08009.7269,W,1,8,1.9,13,M,,M,,*5D
06/12/2014	12:07:15.622	$GPGGA,120716,2543.8837,N,08009.7270,W,1,8,1.9,13,M,,M,,*56
06/12/2014	12:07:16.616	$GPGGA,120717,2543.8837,N,08009.7269,W,1,8,1.9,13,M,,M,,*5F
06/12/2014	12:07:17.629	$GPGGA,120718,2543.8837,N,08009.7270,W,1,8,1.9,13,M,,M,,*58
06/12/2014	12:07:18.613	$GPGGA,120719,2543.8837,N,08009.7270,W,1,8,1.9,14,M,,M,,*5E
06/12/2014	12:07:19.627	$GPGGA,120720,2543.8837,N,08009.7270,W,1,8,1.9,14,M,,M,,*54
06/12/2014	12:07:20.730	$GPGGA,120721,2543.8837,N,08009.7270,W,1,8,1.9,14,M,,M,,*55
06/12/2014	12:07:21.622	$GPGGA,120722,2543.8837,N,08009.7270,W,1,8,1.9,14,M,,M,,*56
06/12/2014	12:07:22.626	$GPGGA,120723,2543.8837,N,08009.7270,W,1,8,1.9,14,M,,M,,*57
06/12/2014	12:07:23.639	$GPGGA,120724,2543.8837,N,08009.7270,W,1,8,1.9,14,M,,M,,*50
06/12/2014	12:07:24.733	$GPGGA,120725,2543.8837,N,08009.7270,W,1,8,1.9,14,M,,M,,*51
06/12/2014	12:07:25.636	$GPGGA,120726,2543.8837,N,08009.7270,W,1,8,1.9,14,M,,M,,*52
06/12/2014	12:07:26.730	$GPGGA,120727,2543.8837,N,08009.7270,W,1,8,1.9,14,M,,M,,*53
06/12/2014	12:07:27.643	$GPGGA,120728,2543.8839,N,08009.7269,W,1,8,1.9,14,M,,M,,*5A
06/12/2014	12:07:28.647	$GPGGA,120729,2543.8838,N,08009.7269,W,1,8,1.9,14,M,,M,,*5A
06/12/2014	12:07:29.630	$GPGGA,120730,2543.8839,N,08009.7270,W,1,8,1.9,14,M,,M,,*5B
06/12/2014	12:07:30.734	$GPGGA,120731,2543.8838,N,08009.7269,W,1,8,1.9,14,M,,M,,*53
06/12/2014	12:07:31.657	$GPGGA,120732,2543.8839,N,08009.7269,W,1,8,1.9,14,M,,M,,*51
06/12/2014	12:07:32.741	$GPGGA,120733,2543.8838,N,08009.7269,W,1,8,1.9,14,M,,M,,*51
06/12/2014	12:07:33.734	$GPGGA,120734,2543.8839,N,08009.7269,W,1,8,1.9,14,M,,M,,*57
06/12/2014	12:07:34.738	$GPGGA,120735,2543.8838,N,08009.7269,W,1,8,1.9,14,M,,M,,*57
06/12/2014	12:07:35.761	$GPGGA,120736,2543.8839,N,08009.7269,W,1,8,1.9,14,M,,M,,*55
06/12/2014	12:07:36.775	$GPGGA,120737,2543.8840,N,08009.7269,W,1,8,1.9,14,M,,M,,*5A
06/12/2014	12:07:37.738	$GPGGA,120738,2543.8839,N,08009.7269,W,1,8,1.9,14,M,,M,,*5B
06/12/2014	12:07:38.772	$GPGGA,120739,2543.8840,N,08009.7269,W,1,8,1.9,14,M,,M,,*54
06/12/2014	12:07:39.764	$GPGGA,120740,2543.8839,N,08009.7269,W,1,8,1.9,14,M,,M,,*54
06/12/2014	12:07:40.758	$GPGGA,120741,2543.8840,N,08009.7269,W,1,8,1.9,14,M,,M,,*5B
06/12/2014	12:07:41.752	$GPGGA,120742,2543.8840,N,08009.7269,W,1,8,1.9,14,M,,M,,*58
06/12/2014	12:07:42.775	$GPGGA,120743,2543.8842,N,08009.7269,W,1,8,1.9,15,M,,M,,*5A
06/12/2014	12:07:43.768	$GPGGA,120744,2543.8841,N,08009.7269,W,1,8,1.9,15,M,,M,,*5E
06/12/2014	12:07:44.782	$GPGGA,120745,2543.8842,N,08009.7269,W,1,8,1.9,15,M,,M,,*5C
06/12/2014	12:07:45.547	$GPGGA,120746,2543.8843,N,08009.7268,W,1,8,1.7,15,M,,M,,*51
06/12/2014	12:07:46.571	$GPGGA,120747,2543.8844,N,08009.7267,W,1,9,1.8,15,M,,M,,*56
06/12/2014	12:07:47.574	$GPGGA,120748,2543.8844,N,08009.7266,W,1,9,1.8,15,M,,M,,*58
06/12/2014	12:07:48.568	$GPGGA,120749,2543.8846,N,08009.7265,W,1,9,1.8,15,M,,M,,*58
06/12/2014	12:07:49.561	$GPGGA,120750,2543.8845,N,08009.7265,W,1,9,1.8,15,M,,M,,*53
06/12/2014	12:07:50.585	$GPGGA,120751,2543.8846,N,08009.7264,W,1,9,1.8,15,M,,M,,*50
06/12/2014	12:07:51.578	$GPGGA,120752,2543.8847,N,08009.7263,W,1,9,1.8,15,M,,M,,*55
06/12/2014	12:07:52.592	$GPGGA,120753,2543.8846,N,08009.7262,W,1,9,1.7,15,M,,M,,*5B
06/12/2014	12:07:53.555	$GPGGA,120754,2543.8847,N,08009.7262,W,1,9,1.7,15,M,,M,,*5D
06/12/2014	12:07:54.559	$GPGGA,120755,2543.8846,N,08009.7262,W,1,9,1.7,15,M,,M,,*5D
06/12/2014	12:07:55.588	$GPGGA,120756,2543.8848,N,08009.7261,W,1,9,1.7,15,M,,M,,*53
06/12/2014	12:07:56.605	$GPGGA,120757,2543.8848,N,08009.7262,W,1,9,1.7,16,M,,M,,*52
06/12/2014	12:07:57.558	$GPGGA,120758,2543.8848,N,08009.7261,W,1,9,1.7,16,M,,M,,*5E
06/12/2014	12:07:58.602	$GPGGA,120759,2543.8848,N,08009.7262,W,1,9,1.7,16,M,,M,,*5C
06/12/2014	12:07:59.585	$GPGGA,120800,2543.8848,N,08009.7261,W,1,9,1.7,16,M,,M,,*5C
06/12/2014	12:08:00.569	$GPGGA,120801,2543.8848,N,08009.7262,W,1,9,1.7,16,M,,M,,*5E
06/12/2014	12:08:01.582	$GPGGA,120802,2543.8848,N,08009.7261,W,1,9,1.7,16,M,,M,,*5E
06/12/2014	12:08:02.576	$GPGGA,120803,2543.8848,N,08009.7262,W,1,9,1.7,16,M,,M,,*5C
06/12/2014	12:08:03.599	$GPGGA,120804,2543.8848,N,08009.7261,W,1,9,1.7,16,M,,M,,*58
06/12/2014	12:08:04.593	$GPGGA,120805,2543.8848,N,08009.7262,W,1,9,1.7,16,M,,M,,*5A
06/12/2014	12:08:05.596	$GPGGA,120806,2543.8848,N,08009.7261,W,1,9,1.7,16,M,,M,,*5A
06/12/2014	12:08:06.700	$GPGGA,120807,2543.8848,N,08009.7262,W,1,9,1.7,17,M,,M,,*59
06/12/2014	12:08:07.603	$GPGGA,120808,2543.8848,N,08009.7261,W,1,9,1.7,17,M,,M,,*55
06/12/2014	12:08:08.687	$GPGGA,120809,2543.8848,N,08009.7262,W,1,9,1.7,17,M,,M,,*57
06/12/2014	12:08:09.590	$GPGGA,120810,2543.8848,N,08009.7261,W,1,9,1.7,17,M,,M,,*5C
06/12/2014	12:08:10.686	$GPGGA,120811,2543.8848,N,08009.7262,W,1,9,1.7,17,M,,M,,*5E
06/12/2014	12:08:11.598	$GPGGA,120812,2543.8848,N,08009.7261,W,1,9,1.7,17,M,,M,,*5E
06/12/2014	12:08:12.611	$GPGGA,120813,2543.8848,N,08009.7262,W,1,9,1.7,17,M,,M,,*5C
06/12/2014	12:08:13.584	$GPGGA,120814,2543.8848,N,08009.7262,W,1,9,1.7,17,M,,M,,*5B
06/12/2014	12:08:14.587	$GPGGA,120815,2543.8848,N,08009.7261,W,1,9,1.7,17,M,,M,,*59
06/12/2014	12:08:15.741	$GPGGA,120816,2543.8848,N,08009.7262,W,1,9,1.7,17,M,,M,,*59
06/12/2014	12:08:16.694	$GPGGA,120817,2543.8848,N,08009.7261,W,1,9,1.7,17,M,,M,,*5B
06/12/2014	12:08:17.607	$GPGGA,120818,2543.8848,N,08009.7262,W,1,9,1.7,17,M,,M,,*57
06/12/2014	12:08:18.631	$GPGGA,120819,2543.8848,N,08009.7261,W,1,9,1.7,17,M,,M,,*55
06/12/2014	12:08:19.614	$GPGGA,120820,2543.8848,N,08009.7262,W,1,9,1.7,17,M,,M,,*5C
06/12/2014	12:08:20.608	$GPGGA,120821,2543.8848,N,08009.7261,W,1,9,1.7,17,M,,M,,*5E
06/12/2014	12:08:21.701	$GPGGA,120822,2543.8848,N,08009.7262,W,1,9,1.7,17,M,,M,,*5E
06/12/2014	12:08:22.705	$GPGGA,120823,2543.8848,N,08009.7261,W,1,9,1.7,17,M,,M,,*5C
06/12/2014	12:08:23.708	$GPGGA,120824,2543.8848,N,08009.7262,W,1,9,1.7,17,M,,M,,*58
06/12/2014	12:08:24.722	$GPGGA,120825,2543.8848,N,08009.7262,W,1,9,1.7,17,M,,M,,*59
06/12/2014	12:08:25.705	$GPGGA,120826,2543.8848,N,08009.7262,W,1,9,1.7,17,M,,M,,*5A
06/12/2014	12:08:26.719	$GPGGA,120827,2543.8848,N,08009.7262,W,1,9,1.7,17,M,,M,,*5B
06/12/2014	12:08:27.722	$GPGGA,120828,2543.8848,N,08009.7262,W,1,9,1.7,17,M,,M,,*54
06/12/2014	12:08:28.716	$GPGGA,120829,2543.8848,N,08009.7262,W,1,9,1.7,17,M,,M,,*55
06/12/2014	12:08:29.719	$GPGGA,120830,2543.8846,N,08009.7262,W,1,9,1.7,17,M,,M,,*53
06/12/2014	12:08:30.723	$GPGGA,120831,2543.8847,N,08009.7262,W,1,9,1.7,17,M,,M,,*53
06/12/2014	12:08:31.745	$GPGGA,120832,2543.8848,N,08009.7262,W,1,9,1.7,17,M,,M,,*5F
06/12/2014	12:08:32.739	$GPGGA,120833,2543.8848,N,08009.7262,W,1,9,1.7,17,M,,M,,*5E
06/12/2014	12:08:33.722	$GPGGA,120834,2543.8846,N,08009.7263,W,1,9,1.7,17,M,,M,,*56
06/12/2014	12:08:34.736	$GPGGA,120835,2543.8848,N,08009.7263,W,1,9,1.7,17,M,,M,,*59
06/12/2014	12:08:35.739	$GPGGA,120836,2543.8848,N,08009.7263,W,1,9,1.7,17,M,,M,,*5A
06/12/2014	12:08:36.743	$GPGGA,120837,2543.8848,N,08009.7263,W,1,9,1.7,17,M,,M,,*5B
06/12/2014	12:08:37.726	$GPGGA,120838,2543.8848,N,08009.7263,W,1,9,1.7,17,M,,M,,*54
06/12/2014	12:08:38.750	$GPGGA,120839,2543.8848,N,08009.7263,W,1,9,1.7,17,M,,M,,*55
06/12/2014	12:08:39.733	$GPGGA,120840,2543.8848,N,08009.7263,W,1,9,1.7,17,M,,M,,*5B
06/12/2014	12:08:40.757	$GPGGA,120841,2543.8848,N,08009.7265,W,1,9,1.7,17,M,,M,,*5C
06/12/2014	12:08:41.730	$GPGGA,120842,2543.8848,N,08009.7264,W,1,9,1.7,17,M,,M,,*5E
06/12/2014	12:08:42.744	$GPGGA,120843,2543.8848,N,08009.7265,W,1,9,1.7,17,M,,M,,*5E
06/12/2014	12:08:43.747	$GPGGA,120844,2543.8848,N,08009.7264,W,1,9,1.7,18,M,,M,,*57
06/12/2014	12:08:44.771	$GPGGA,120845,2543.8848,N,08009.7265,W,1,9,1.7,18,M,,M,,*57
06/12/2014	12:08:45.535	$GPGGA,120846,2543.8848,N,08009.7265,W,1,9,1.7,18,M,,M,,*54
06/12/2014	12:08:46.529	$GPGGA,120847,2543.8848,N,08009.7265,W,1,9,1.7,18,M,,M,,*55
06/12/2014	12:08:47.564	$GPGGA,120848,2543.8848,N,08009.7265,W,1,9,1.7,18,M,,M,,*5A
06/12/2014	12:08:48.535	$GPGGA,120849,2543.8848,N,08009.7265,W,1,9,1.7,18,M,,M,,*5B
06/12/2014	12:08:49.567	$GPGGA,120850,2543.8848,N,08009.7266,W,1,9,1.7,18,M,,M,,*50
06/12/2014	12:08:50.572	$GPGGA,120851,2543.8848,N,08009.7266,W,1,9,1.7,18,M,,M,,*51
06/12/2014	12:08:51.555	$GPGGA,120852,2543.8848,N,08009.7266,W,1,9,1.7,18,M,,M,,*52
06/12/2014	12:08:52.539	$GPGGA,120853,2543.8848,N,08009.7266,W,1,9,1.7,18,M,,M,,*53
06/12/2014	12:08:53.552	$GPGGA,120854,2543.8848,N,08009.7267,W,1,9,1.7,18,M,,M,,*55
06/12/2014	12:08:54.566	$GPGGA,120855,2543.8848,N,08009.7267,W,1,9,1.7,18,M,,M,,*54
06/12/2014	12:08:55.559	$GPGGA,120856,2543.8848,N,08009.7267,W,1,9,1.7,18,M,,M,,*57
06/12/2014	12:08:56.663	$GPGGA,120857,2543.8848,N,08009.7267,W,1,9,1.7,18,M,,M,,*56
06/12/2014	12:08:57.536	$GPGGA,120858,2543.8846,N,08009.7267,W,1,9,1.7,18,M,,M,,*57
06/12/2014	12:08:58.570	$GPGGA,120859,2543.8847,N,08009.7267,W,1,9,1.7,18,M,,M,,*57
06/12/2014	12:08:59.563	$GPGGA,120900,2543.8848,N,08009.7269,W,1,9,1.7,18,M,,M,,*5B
06/12/2014	12:09:00.557	$GPGGA,120901,2543.8846,N,08009.7268,W,1,9,1.7,18,M,,M,,*55
06/12/2014	12:09:01.661	$GPGGA,120902,2543.8847,N,08009.7269,W,1,9,1.7,18,M,,M,,*56
06/12/2014	12:09:02.554	$GPGGA,120903,2543.8846,N,08009.7269,W,1,9,1.7,18,M,,M,,*56
06/12/2014	12:09:03.688	$GPGGA,120904,2543.8847,N,08009.7269,W,1,9,1.7,18,M,,M,,*50
06/12/2014	12:09:04.671	$GPGGA,120905,2543.8846,N,08009.7269,W,1,9,1.7,18,M,,M,,*50
06/12/2014	12:09:05.575	$GPGGA,120906,2543.8847,N,08009.7269,W,1,9,1.7,18,M,,M,,*52
06/12/2014	12:09:06.577	$GPGGA,120907,2543.8846,N,08009.7270,W,1,9,1.7,18,M,,M,,*5A
06/12/2014	12:09:07.580	$GPGGA,120908,2543.8845,N,08009.7270,W,1,9,1.7,18,M,,M,,*56
06/12/2014	12:09:08.694	$GPGGA,120909,2543.8846,N,08009.7270,W,1,9,1.7,18,M,,M,,*54
06/12/2014	12:09:09.587	$GPGGA,120910,2543.8845,N,08009.7270,W,1,9,1.7,18,M,,M,,*5F
06/12/2014	12:09:10.571	$GPGGA,120911,2543.8846,N,08009.7270,W,1,9,1.7,18,M,,M,,*5D
06/12/2014	12:09:11.695	$GPGGA,120912,2543.8845,N,08009.7270,W,1,9,1.7,18,M,,M,,*5D
06/12/2014	12:09:12.698	$GPGGA,120913,2543.8846,N,08009.7270,W,1,9,1.7,18,M,,M,,*5F
06/12/2014	12:09:13.671	$GPGGA,120914,2543.8845,N,08009.7270,W,1,9,1.7,18,M,,M,,*5B
06/12/2014	12:09:14.675	$GPGGA,120915,2543.8846,N,08009.7270,W,1,9,1.7,18,M,,M,,*59
06/12/2014	12:09:15.719	$GPGGA,120916,2543.8845,N,08009.7270,W,1,9,1.7,18,M,,M,,*59
06/12/2014	12:09:16.682	$GPGGA,120917,2543.8846,N,08009.7270,W,1,9,1.7,18,M,,M,,*5B
06/12/2014	12:09:17.685	$GPGGA,120918,2543.8845,N,08009.7270,W,1,9,1.7,18,M,,M,,*57
06/12/2014	12:09:18.719	$GPGGA,120919,2543.8846,N,08009.7272,W,1,9,1.7,18,M,,M,,*57
06/12/2014	12:09:19.702	$GPGGA,120920,2543.8845,N,08009.7271,W,1,9,1.7,18,M,,M,,*5D
06/12/2014	12:09:20.696	$GPGGA,120921,2543.8846,N,08009.7272,W,1,9,1.7,18,M,,M,,*5C
06/12/2014	12:09:21.689	$GPGGA,120922,2543.8845,N,08009.7271,W,1,9,1.7,18,M,,M,,*5F
06/12/2014	12:09:22.703	$GPGGA,120923,2543.8846,N,08009.7272,W,1,9,1.7,18,M,,M,,*5E
06/12/2014	12:09:23.705	$GPGGA,120924,2543.8847,N,08009.7271,W,1,9,1.7,18,M,,M,,*5B
06/12/2014	12:09:24.709	$GPGGA,120925,2543.8846,N,08009.7272,W,1,9,1.7,18,M,,M,,*58
06/12/2014	12:09:25.693	$GPGGA,120926,2543.8847,N,08009.7272,W,1,9,1.7,18,M,,M,,*5A
06/12/2014	12:09:26.716	$GPGGA,120927,2543.8846,N,08009.7272,W,1,9,1.7,18,M,,M,,*5A
06/12/2014	12:09:27.709	$GPGGA,120928,2543.8847,N,08009.7272,W,1,9,1.7,18,M,,M,,*54
06/12/2014	12:09:28.693	$GPGGA,120929,2543.8846,N,08009.7272,W,1,9,1.7,18,M,,M,,*54
06/12/2014	12:09:29.709	$GPGGA,120930,2543.8847,N,08009.7272,W,1,9,1.7,18,M,,M,,*5D
06/12/2014	12:09:30.730	$GPGGA,120931,2543.8846,N,08009.7272,W,1,9,1.7,18,M,,M,,*5D
06/12/2014	12:09:31.716	$GPGGA,120932,2543.8847,N,08009.7273,W,1,9,1.7,18,M,,M,,*5E
06/12/2014	12:09:32.715	$GPGGA,120933,2543.8845,N,08009.7273,W,1,9,1.7,18,M,,M,,*5D
06/12/2014	12:09:33.700	$GPGGA,120934,2543.8846,N,08009.7273,W,1,9,1.7,18,M,,M,,*59
06/12/2014	12:09:34.704	$GPGGA,120935,2543.8845,N,08009.7273,W,1,9,1.7,17,M,,M,,*54
06/12/2014	12:09:35.725	$GPGGA,120936,2543.8846,N,08009.7273,W,1,9,1.7,17,M,,M,,*54
06/12/2014	12:09:36.701	$GPGGA,120937,2543.8844,N,08009.7274,W,1,9,1.7,17,M,,M,,*50
06/12/2014	12:09:37.714	$GPGGA,120938,2543.8844,N,08009.7274,W,1,9,1.7,17,M,,M,,*5F
06/12/2014	12:09:38.745	$GPGGA,120939,2543.8844,N,08009.7274,W,1,9,1.7,17,M,,M,,*5E
06/12/2014	12:09:39.740	$GPGGA,120940,2543.8844,N,08009.7274,W,1,9,1.7,17,M,,M,,*50
06/12/2014	12:09:40.705	$GPGGA,120941,2543.8844,N,08009.7274,W,1,9,1.7,17,M,,M,,*51
06/12/2014	12:09:41.717	$GPGGA,120942,2543.8844,N,08009.7274,W,1,9,1.7,17,M,,M,,*52
06/12/2014	12:09:42.750	$GPGGA,120943,2543.8844,N,08009.7274,W,1,9,1.7,17,M,,M,,*53
06/12/2014	12:09:43.757	$GPGGA,120944,2543.8844,N,08009.7274,W,1,9,1.7,17,M,,M,,*54
06/12/2014	12:09:44.763	$GPGGA,120945,2543.8844,N,08009.7274,W,1,9,1.7,17,M,,M,,*55
06/12/2014	12:09:45.513	$GPGGA,120946,2543.8844,N,08009.7274,W,1,9,1.7,17,M,,M,,*56
06/12/2014	12:09:46.527	$GPGGA,120947,2543.8844,N,08009.7276,W,1,9,1.7,17,M,,M,,*55
06/12/2014	12:09:47.540	$GPGGA,120948,2543.8844,N,08009.7275,W,1,9,1.7,17,M,,M,,*59
06/12/2014	12:09:48.544	$GPGGA,120949,2543.8844,N,08009.7276,W,1,9,1.7,17,M,,M,,*5B
06/12/2014	12:09:49.607	$GPGGA,120950,2543.8844,N,08009.7275,W,1,9,1.7,17,M,,M,,*50
06/12/2014	12:09:50.572	$GPGGA,120951,2543.8844,N,08009.7276,W,1,9,1.7,17,M,,M,,*52
06/12/2014	12:09:51.564	$GPGGA,120952,2543.8844,N,08009.7275,W,1,9,1.7,17,M,,M,,*52
06/12/2014	12:09:52.618	$GPGGA,120953,2543.8844,N,08009.7276,W,1,9,1.7,17,M,,M,,*50
06/12/2014	12:09:53.531	$GPGGA,120954,2543.8844,N,08009.7275,W,1,9,1.7,17,M,,M,,*54
06/12/2014	12:09:54.555	$GPGGA,120955,2543.8844,N,08009.7276,W,1,9,1.7,17,M,,M,,*56
06/12/2014	12:09:55.628	$GPGGA,120956,2543.8844,N,08009.7275,W,1,9,1.7,17,M,,M,,*56
06/12/2014	12:09:56.532	$GPGGA,120957,2543.8844,N,08009.7276,W,1,9,1.7,16,M,,M,,*55
06/12/2014	12:09:57.535	$GPGGA,120958,2543.8844,N,08009.7275,W,1,9,1.7,16,M,,M,,*59
06/12/2014	12:09:58.548	$GPGGA,120959,2543.8844,N,08009.7276,W,1,9,1.7,16,M,,M,,*5B
06/12/2014	12:09:59.672	$GPGGA,121000,2543.8844,N,08009.7275,W,1,9,1.7,16,M,,M,,*5C
06/12/2014	12:10:00.645	$GPGGA,121001,2543.8844,N,08009.7276,W,1,9,1.7,16,M,,M,,*5E
06/12/2014	12:10:01.638	$GPGGA,121002,2543.8844,N,08009.7275,W,1,9,1.7,16,M,,M,,*5E
06/12/2014	12:10:02.552	$GPGGA,121003,2543.8844,N,08009.7276,W,1,9,1.7,16,M,,M,,*5C
06/12/2014	12:10:03.645	$GPGGA,121004,2543.8844,N,08009.7275,W,1,9,1.7,16,M,,M,,*58
06/12/2014	12:10:04.639	$GPGGA,121005,2543.8844,N,08009.7276,W,1,9,1.7,16,M,,M,,*5A
06/12/2014	12:10:05.642	$GPGGA,121006,2543.8844,N,08009.7275,W,1,9,1.7,16,M,,M,,*5A
06/12/2014	12:10:06.656	$GPGGA,121007,2543.8844,N,08009.7276,W,1,9,1.7,16,M,,M,,*58
06/12/2014	12:10:07.659	$GPGGA,121008,2543.8844,N,08009.7275,W,1,9,1.7,16,M,,M,,*54
06/12/2014	12:10:08.662	$GPGGA,121009,2543.8842,N,08009.7276,W,1,9,1.7,16,M,,M,,*50
06/12/2014	12:10:09.637	$GPGGA,121010,2543.8844,N,08009.7275,W,1,9,1.7,16,M,,M,,*5D
06/12/2014	12:10:10.648	$GPGGA,121011,2543.8844,N,08009.7276,W,1,9,1.7,16,M,,M,,*5F
06/12/2014	12:10:11.671	$GPGGA,121012,2543.8844,N,08009.7274,W,1,9,1.7,16,M,,M,,*5E
06/12/2014	12:10:12.674	$GPGGA,121013,2543.8844,N,08009.7274,W,1,9,1.7,16,M,,M,,*5F
06/12/2014	12:10:13.647	$GPGGA,121014,2543.8844,N,08009.7274,W,1,9,1.7,15,M,,M,,*5B
06/12/2014	12:10:14.670	$GPGGA,121015,2543.8844,N,08009.7274,W,1,9,1.7,15,M,,M,,*5A
06/12/2014	12:10:15.663	$GPGGA,121016,2543.8844,N,08009.7274,W,1,9,1.7,15,M,,M,,*59
06/12/2014	12:10:16.675	$GPGGA,121017,2543.8844,N,08009.7274,W,1,9,1.7,15,M,,M,,*58
06/12/2014	12:10:17.647	$GPGGA,121018,2543.8842,N,08009.7274,W,1,9,1.7,15,M,,M,,*51
06/12/2014	12:10:18.652	$GPGGA,121019,2543.8843,N,08009.7274,W,1,9,1.7,15,M,,M,,*51
06/12/2014	12:10:19.665	$GPGGA,121020,2543.8842,N,08009.7274,W,1,9,1.7,15,M,,M,,*5A
06/12/2014	12:10:20.676	$GPGGA,121021,2543.8843,N,08009.7274,W,1,9,1.7,15,M,,M,,*5A
06/12/2014	12:10:21.649	$GPGGA,121022,2543.8841,N,08009.7274,W,1,9,1.7,15,M,,M,,*5B
06/12/2014	12:10:22.682	$GPGGA,121023,2543.8842,N,08009.7274,W,1,9,1.7,15,M,,M,,*59
06/12/2014	12:10:23.675	$GPGGA,121024,2543.8841,N,08009.7273,W,1,9,1.7,15,M,,M,,*5A
06/12/2014	12:10:24.658	$GPGGA,121025,2543.8842,N,08009.7273,W,1,9,1.7,15,M,,M,,*58
06/12/2014	12:10:25.674	$GPGGA,121026,2543.8841,N,08009.7273,W,1,9,1.7,15,M,,M,,*58
06/12/2014	12:10:26.653	$GPGGA,121027,2543.8842,N,08009.7273,W,1,9,1.7,15,M,,M,,*5A
06/12/2014	12:10:27.688	$GPGGA,121028,2543.8841,N,08009.7273,W,1,9,1.7,15,M,,M,,*56
06/12/2014	12:10:28.689	$GPGGA,121029,2543.8840,N,08009.7273,W,1,9,1.7,15,M,,M,,*56
06/12/2014	12:10:29.662	$GPGGA,121030,2543.8840,N,08009.7273,W,1,9,1.7,15,M,,M,,*5E
06/12/2014	12:10:30.655	$GPGGA,121031,2543.8840,N,08009.7273,W,1,9,1.7,15,M,,M,,*5F
06/12/2014	12:10:31.698	$GPGGA,121032,2543.8840,N,08009.7273,W,1,9,1.7,15,M,,M,,*5C
06/12/2014	12:10:32.696	$GPGGA,121033,2543.8840,N,08009.7274,W,1,9,1.7,14,M,,M,,*5B
06/12/2014	12:10:33.673	$GPGGA,121034,2543.8840,N,08009.7274,W,1,9,1.7,14,M,,M,,*5C
06/12/2014	12:10:34.686	$GPGGA,121035,2543.8840,N,08009.7274,W,1,9,1.7,14,M,,M,,*5D
06/12/2014	12:10:35.668	$GPGGA,121036,2543.8840,N,08009.7274,W,1,9,1.7,14,M,,M,,*5E
06/12/2014	12:10:36.792	$GPGGA,121037,2543.8840,N,08009.7274,W,1,9,1.7,14,M,,M,,*5F
06/12/2014	12:10:37.674	$GPGGA,121038,2543.8840,N,08009.7274,W,1,9,1.7,14,M,,M,,*50
06/12/2014	12:10:38.777	$GPGGA,121039,2543.8840,N,08009.7274,W,1,9,1.7,14,M,,M,,*51
06/12/2014	12:10:39.690	$GPGGA,121040,2543.8840,N,08009.7274,W,1,9,1.7,14,M,,M,,*5F
06/12/2014	12:10:40.663	$GPGGA,121041,2543.8840,N,08009.7273,W,1,9,1.7,14,M,,M,,*59
06/12/2014	12:10:41.786	$GPGGA,121042,2543.8840,N,08009.7273,W,1,9,1.7,14,M,,M,,*5A
06/12/2014	12:10:42.780	$GPGGA,121043,2543.8840,N,08009.7273,W,1,9,1.7,14,M,,M,,*5B
06/12/2014	12:10:43.802	$GPGGA,121044,2543.8840,N,08009.7273,W,1,9,1.7,14,M,,M,,*5C
06/12/2014	12:10:44.686	$GPGGA,121045,2543.8840,N,08009.7273,W,1,9,1.7,14,M,,M,,*5D
06/12/2014	12:10:45.581	$GPGGA,121046,2543.8842,N,08009.7273,W,1,9,1.7,14,M,,M,,*5C
06/12/2014	12:10:46.504	$GPGGA,121047,2543.8841,N,08009.7273,W,1,9,1.7,14,M,,M,,*5E
06/12/2014	12:10:47.597	$GPGGA,121048,2543.8842,N,08009.7273,W,1,9,1.7,14,M,,M,,*52
06/12/2014	12:10:48.630	$GPGGA,121049,2543.8841,N,08009.7273,W,1,9,1.7,14,M,,M,,*50
06/12/2014	12:10:49.593	$GPGGA,121050,2543.8843,N,08009.7273,W,1,9,1.7,14,M,,M,,*5A
06/12/2014	12:10:50.495	$GPGGA,121051,2543.8842,N,08009.7273,W,1,9,1.7,14,M,,M,,*5A
06/12/2014	12:10:51.618	$GPGGA,121052,2543.8843,N,08009.7273,W,1,9,1.7,14,M,,M,,*58
06/12/2014	12:10:52.500	$GPGGA,121053,2543.8842,N,08009.7274,W,1,9,1.7,14,M,,M,,*5F
06/12/2014	12:10:53.503	$GPGGA,121054,2543.8843,N,08009.7274,W,1,9,1.7,14,M,,M,,*59
06/12/2014	12:10:54.616	$GPGGA,121055,2543.8842,N,08009.7274,W,1,9,1.7,14,M,,M,,*59
06/12/2014	12:10:55.609	$GPGGA,121056,2543.8844,N,08009.7274,W,1,9,1.7,14,M,,M,,*5C
06/12/2014	12:10:56.622	$GPGGA,121057,2543.8844,N,08009.7274,W,1,9,1.7,14,M,,M,,*5D
06/12/2014	12:10:57.595	$GPGGA,121058,2543.8844,N,08009.7274,W,1,9,1.7,14,M,,M,,*52
06/12/2014	12:10:58.618	$GPGGA,121059,2543.8844,N,08009.7274,W,1,9,1.7,14,M,,M,,*53
06/12/2014	12:10:59.621	$GPGGA,121100,2543.8844,N,08009.7274,W,1,9,1.7,14,M,,M,,*5E
06/12/2014	12:11:00.634	$GPGGA,121101,2543.8844,N,08009.7274,W,1,9,1.7,14,M,,M,,*5F
06/12/2014	12:11:01.597	$GPGGA,121102,2543.8844,N,08009.7274,W,1,9,1.7,14,M,,M,,*5C
06/12/2014	12:11:02.620	$GPGGA,121103,2543.8842,N,08009.7276,W,1,9,1.7,14,M,,M,,*59
06/12/2014	12:11:03.622	$GPGGA,121104,2543.8843,N,08009.7275,W,1,9,1.7,14,M,,M,,*5C
06/12/2014	12:11:04.625	$GPGGA,121105,2543.8844,N,08009.7276,W,1,9,1.7,14,M,,M,,*59
06/12/2014	12:11:05.608	$GPGGA,121106,2543.8842,N,08009.7275,W,1,9,1.7,14,M,,M,,*5F
06/12/2014	12:11:06.621	$GPGGA,121107,2543.8844,N,08009.7276,W,1,9,1.7,14,M,,M,,*5B
06/12/2014	12:11:07.624	$GPGGA,121108,2543.8842,N,08009.7275,W,1,9,1.7,14,M,,M,,*51
06/12/2014	12:11:08.636	$GPGGA,121109,2543.8843,N,08009.7276,W,1,9,1.7,14,M,,M,,*52
06/12/2014	12:11:09.619	$GPGGA,121110,2543.8842,N,08009.7275,W,1,9,1.7,14,M,,M,,*58
06/12/2014	12:11:10.632	$GPGGA,121111,2543.8844,N,08009.7276,W,1,9,1.7,14,M,,M,,*5C
06/12/2014	12:11:12.668	$GPGGA,121113,2543.8843,N,08009.7276,W,1,9,1.7,14,M,,M,,*59
06/12/2014	12:11:13.610	$GPGGA,121114,2543.8842,N,08009.7276,W,1,9,1.7,14,M,,M,,*5F
06/12/2014	12:11:14.653	$GPGGA,121115,2543.8844,N,08009.7276,W,1,9,1.7,14,M,,M,,*58
06/12/2014	12:11:15.636	$GPGGA,121116,2543.8844,N,08009.7276,W,1,9,1.7,14,M,,M,,*5B
06/12/2014	12:11:16.609	$GPGGA,121117,2543.8844,N,08009.7276,W,1,9,1.7,14,M,,M,,*5A
06/12/2014	12:11:17.622	$GPGGA,121118,2543.8844,N,08009.7276,W,1,9,1.7,14,M,,M,,*55
06/12/2014	12:11:18.655	$GPGGA,121119,2543.8844,N,08009.7276,W,1,9,1.7,14,M,,M,,*54
06/12/2014	12:11:19.628	$GPGGA,121120,2543.8842,N,08009.7277,W,1,9,1.7,14,M,,M,,*59
06/12/2014	12:11:20.621	$GPGGA,121121,2543.8844,N,08009.7277,W,1,9,1.7,14,M,,M,,*5E
06/12/2014	12:11:21.637	$GPGGA,121122,2543.8844,N,08009.7277,W,1,9,1.7,14,M,,M,,*5D
06/12/2014	12:11:22.642	$GPGGA,121123,2543.8842,N,08009.7277,W,1,9,1.7,14,M,,M,,*5A
06/12/2014	12:11:23.639	$GPGGA,121124,2543.8843,N,08009.7277,W,1,9,1.7,14,M,,M,,*5C
06/12/2014	12:11:24.654	$GPGGA,121125,2543.8842,N,08009.7277,W,1,9,1.7,14,M,,M,,*5C
06/12/2014	12:11:25.626	$GPGGA,121126,2543.8843,N,08009.7277,W,1,9,1.7,14,M,,M,,*5E
06/12/2014	12:11:26.617	$GPGGA,121127,2543.8842,N,08009.7277,W,1,9,1.7,14,M,,M,,*5E
06/12/2014	12:11:27.650	$GPGGA,121128,2543.8844,N,08009.7277,W,1,9,1.7,14,M,,M,,*57
06/12/2014	12:11:28.623	$GPGGA,121129,2543.8844,N,08009.7277,W,1,9,1.7,14,M,,M,,*56
06/12/2014	12:11:29.626	$GPGGA,121130,2543.8844,N,08009.7277,W,1,9,1.7,14,M,,M,,*5E
06/12/2014	12:11:30.729	$GPGGA,121131,2543.8844,N,08009.7277,W,1,9,1.7,14,M,,M,,*5F
06/12/2014	12:11:31.651	$GPGGA,121132,2543.8844,N,08009.7277,W,1,9,1.7,14,M,,M,,*5C
06/12/2014	12:11:32.644	$GPGGA,121133,2543.8844,N,08009.7276,W,1,9,1.7,14,M,,M,,*5C
06/12/2014	12:11:33.727	$GPGGA,121134,2543.8844,N,08009.7276,W,1,9,1.7,14,M,,M,,*5B
06/12/2014	12:11:34.650	$GPGGA,121135,2543.8844,N,08009.7276,W,1,9,1.7,14,M,,M,,*5A
06/12/2014	12:11:35.763	$GPGGA,121136,2543.8844,N,08009.7276,W,1,9,1.7,14,M,,M,,*59
06/12/2014	12:11:36.736	$GPGGA,121137,2543.8844,N,08009.7276,W,1,9,1.7,14,M,,M,,*58
06/12/2014	12:11:37.629	$GPGGA,121138,2543.8844,N,08009.7275,W,1,9,1.7,14,M,,M,,*54
06/12/2014	12:11:38.762	$GPGGA,121139,2543.8844,N,08009.7276,W,1,9,1.7,14,M,,M,,*56
06/12/2014	12:11:39.745	$GPGGA,121140,2543.8844,N,08009.7275,W,1,9,1.7,14,M,,M,,*5B
06/12/2014	12:11:40.738	$GPGGA,121141,2543.8844,N,08009.7274,W,1,9,1.7,14,M,,M,,*5B
06/12/2014	12:11:41.640	$GPGGA,121142,2543.8844,N,08009.7274,W,1,9,1.7,14,M,,M,,*58
06/12/2014	12:11:42.764	$GPGGA,121143,2543.8844,N,08009.7274,W,1,9,1.7,14,M,,M,,*59
06/12/2014	12:11:43.755	$GPGGA,121144,2543.8842,N,08009.7273,W,1,9,1.7,14,M,,M,,*5F
06/12/2014	12:11:44.758	$GPGGA,121145,2543.8843,N,08009.7273,W,1,9,1.7,14,M,,M,,*5F
06/12/2014	12:11:45.579	$GPGGA,121146,2543.8842,N,08009.7273,W,1,9,1.7,14,M,,M,,*5D
06/12/2014	12:11:46.592	$GPGGA,121147,2543.8843,N,08009.7273,W,1,9,1.7,14,M,,M,,*5D
06/12/2014	12:11:47.595	$GPGGA,121148,2543.8841,N,08009.7273,W,1,9,1.7,14,M,,M,,*50
06/12/2014	12:11:48.578	$GPGGA,121149,2543.8842,N,08009.7272,W,1,9,1.7,14,M,,M,,*53
