Software Version Number: 1	Data File Format Number: 1	Build Version Number: 1	Error Count Since VI Started: 0	Manufacturer: Raytheon	 Model Number: RayMarine 120	 S/N: 	 Cal Date: 	 Wind Direction Offset: 0.00	 Slope (M)1: 0.00	 Offset (B)1: 0.00	 Slope (M)2: 0.00	 Offset (B)2: 0.00	 Slope (M)3: 0.00	 Offset (B)3: 0.00	 Slope (M)4: 0.00	 Offset (B)4: 0.00	 Slope (M)5: 0.00	 Offset (B)5: 0.00	 Slope (M)6: 0.00	 Offset (B)6: 0.00
Computer Date	Computer Time	GGA String
05/28/2014	14:00:00.847	$GPGGA,140001,2533.7477,N,08003.3331,W,1,8,2.1,22,M,,M,,*52
05/28/2014	14:00:01.746	$GPGGA,140002,2533.7480,N,08003.3322,W,1,8,2.1,22,M,,M,,*5B
05/28/2014	14:00:02.880	$GPGGA,140003,2533.7486,N,08003.3313,W,1,8,1.9,22,M,,M,,*55
05/28/2014	14:00:03.890	$GPGGA,140004,2533.7494,N,08003.3305,W,1,8,1.9,22,M,,M,,*56
05/28/2014	14:00:04.891	$GPGGA,140005,2533.7498,N,08003.3296,W,1,8,1.9,22,M,,M,,*50
05/28/2014	14:00:05.887	$GPGGA,140006,2533.7502,N,08003.3288,W,1,8,2.3,22,M,,M,,*57
05/28/2014	14:00:06.926	$GPGGA,140007,2533.7505,N,08003.3280,W,1,7,1.9,22,M,,M,,*5F
05/28/2014	14:00:07.937	$GPGGA,140008,2533.7511,N,08003.3272,W,1,7,1.9,22,M,,M,,*58
05/28/2014	14:00:08.927	$GPGGA,140009,2533.7515,N,08003.3263,W,1,7,1.9,22,M,,M,,*5D
05/28/2014	14:00:09.918	$GPGGA,140010,2533.7518,N,08003.3255,W,1,7,1.9,22,M,,M,,*5D
05/28/2014	14:00:10.943	$GPGGA,140011,2533.7520,N,08003.3248,W,1,8,1.9,22,M,,M,,*54
05/28/2014	14:00:11.981	$GPGGA,140012,2533.7524,N,08003.3240,W,1,8,1.9,22,M,,M,,*5B
05/28/2014	14:00:12.988	$GPGGA,140013,2533.7530,N,08003.3233,W,1,7,1.9,22,M,,M,,*54
05/28/2014	14:00:13.954	$GPGGA,140014,2533.7533,N,08003.3224,W,1,7,1.9,22,M,,M,,*56
05/28/2014	14:00:14.964	$GPGGA,140015,2533.7538,N,08003.3217,W,1,8,1.9,22,M,,M,,*53
05/28/2014	14:00:15.976	$GPGGA,140016,2533.7542,N,08003.3209,W,1,8,1.9,22,M,,M,,*52
05/28/2014	14:00:16.997	$GPGGA,140017,2533.7545,N,08003.3201,W,1,8,1.9,22,M,,M,,*5C
05/28/2014	14:00:17.988	$GPGGA,140018,2533.7548,N,08003.3193,W,1,8,1.9,22,M,,M,,*56
05/28/2014	14:00:19.044	$GPGGA,140019,2533.7551,N,08003.3188,W,1,8,1.9,22,M,,M,,*55
05/28/2014	14:00:20.021	$GPGGA,140020,2533.7555,N,08003.3180,W,1,8,1.9,22,M,,M,,*53
05/28/2014	14:00:21.055	$GPGGA,140021,2533.7558,N,08003.3172,W,1,8,1.9,22,M,,M,,*52
05/28/2014	14:00:22.024	$GPGGA,140022,2533.7560,N,08003.3166,W,1,8,1.9,22,M,,M,,*5F
05/28/2014	14:00:23.066	$GPGGA,140023,2533.7563,N,08003.3160,W,1,8,1.9,22,M,,M,,*5B
05/28/2014	14:00:24.067	$GPGGA,140024,2533.7566,N,08003.3151,W,1,8,1.9,22,M,,M,,*5B
05/28/2014	14:00:25.088	$GPGGA,140025,2533.7567,N,08003.3144,W,1,8,1.9,22,M,,M,,*5F
05/28/2014	14:00:26.069	$GPGGA,140026,2533.7570,N,08003.3140,W,1,8,1.9,22,M,,M,,*5E
05/28/2014	14:00:27.131	$GPGGA,140027,2533.7573,N,08003.3134,W,1,8,1.9,22,M,,M,,*5F
05/28/2014	14:00:28.086	$GPGGA,140028,2533.7576,N,08003.3126,W,1,8,1.9,22,M,,M,,*56
05/28/2014	14:00:29.103	$GPGGA,140029,2533.7578,N,08003.3120,W,1,8,1.9,22,M,,M,,*5F
05/28/2014	14:00:30.077	$GPGGA,140030,2533.7580,N,08003.3115,W,1,8,1.9,22,M,,M,,*56
05/28/2014	14:00:31.083	$GPGGA,140031,2533.7583,N,08003.3108,W,1,8,1.9,22,M,,M,,*58
05/28/2014	14:00:32.129	$GPGGA,140032,2533.7585,N,08003.3101,W,1,8,1.9,22,M,,M,,*54
05/28/2014	14:00:33.104	$GPGGA,140033,2533.7587,N,08003.3095,W,1,8,1.9,22,M,,M,,*5B
05/28/2014	14:00:34.209	$GPGGA,140034,2533.7589,N,08003.3089,W,1,8,1.9,22,M,,M,,*5F
05/28/2014	14:00:35.105	$GPGGA,140035,2533.7591,N,08003.3082,W,1,8,1.9,22,M,,M,,*5C
05/28/2014	14:00:36.130	$GPGGA,140036,2533.7594,N,08003.3076,W,1,8,1.9,22,M,,M,,*51
05/28/2014	14:00:37.106	$GPGGA,140037,2533.7595,N,08003.3070,W,1,8,1.9,22,M,,M,,*57
05/28/2014	14:00:38.132	$GPGGA,140038,2533.7596,N,08003.3064,W,1,8,1.9,22,M,,M,,*5E
05/28/2014	14:00:38.524	$GPGGA,140039,2533.7599,N,08003.3059,W,1,8,2.1,22,M,,M,,*55
05/28/2014	14:00:39.529	$GPGGA,140040,2533.7600,N,08003.3052,W,1,8,2.1,22,M,,M,,*53
05/28/2014	14:00:40.525	$GPGGA,140041,2533.7602,N,08003.3047,W,1,7,2.1,22,M,,M,,*5B
05/28/2014	14:00:41.601	$GPGGA,140042,2533.7603,N,08003.3043,W,1,7,2.1,22,M,,M,,*5D
05/28/2014	14:00:42.546	$GPGGA,140043,2533.7606,N,08003.3037,W,1,8,1.9,22,M,,M,,*5E
05/28/2014	14:00:43.653	$GPGGA,140044,2533.7607,N,08003.3033,W,1,8,1.9,22,M,,M,,*5C
05/28/2014	14:00:44.558	$GPGGA,140045,2533.7607,N,08003.3028,W,1,8,1.9,22,M,,M,,*57
05/28/2014	14:00:45.553	$GPGGA,140046,2533.7609,N,08003.3021,W,1,8,1.9,22,M,,M,,*53
05/28/2014	14:00:46.549	$GPGGA,140047,2533.7610,N,08003.3014,W,1,8,1.9,22,M,,M,,*5C
05/28/2014	14:00:47.647	$GPGGA,140048,2533.7612,N,08003.3009,W,1,8,1.9,22,M,,M,,*5D
05/28/2014	14:00:48.560	$GPGGA,140049,2533.7611,N,08003.3002,W,1,8,1.9,22,M,,M,,*54
05/28/2014	14:00:49.635	$GPGGA,140050,2533.7614,N,08003.2995,W,1,8,1.9,22,M,,M,,*5F
05/28/2014	14:00:50.651	$GPGGA,140051,2533.7614,N,08003.2990,W,1,8,1.9,22,M,,M,,*5B
05/28/2014	14:00:51.682	$GPGGA,140052,2533.7614,N,08003.2983,W,1,8,1.9,22,M,,M,,*5A
05/28/2014	14:00:52.643	$GPGGA,140053,2533.7616,N,08003.2977,W,1,8,1.9,22,M,,M,,*52
05/28/2014	14:00:53.658	$GPGGA,140054,2533.7617,N,08003.2970,W,1,8,1.9,22,M,,M,,*53
05/28/2014	14:00:54.654	$GPGGA,140055,2533.7617,N,08003.2963,W,1,8,2.1,22,M,,M,,*5B
05/28/2014	14:00:55.671	$GPGGA,140056,2533.7618,N,08003.2956,W,1,8,2.1,22,M,,M,,*51
05/28/2014	14:00:56.665	$GPGGA,140057,2533.7618,N,08003.2950,W,1,7,2.1,22,M,,M,,*59
05/28/2014	14:00:57.671	$GPGGA,140058,2533.7618,N,08003.2943,W,1,7,1.9,22,M,,M,,*5F
05/28/2014	14:00:58.677	$GPGGA,140059,2533.7621,N,08003.2936,W,1,8,1.9,22,M,,M,,*59
05/28/2014	14:00:59.703	$GPGGA,140100,2533.7621,N,08003.2929,W,1,8,1.9,22,M,,M,,*5A
05/28/2014	14:01:00.699	$GPGGA,140101,2533.7621,N,08003.2922,W,1,8,1.9,22,M,,M,,*50
05/28/2014	14:01:01.694	$GPGGA,140102,2533.7623,N,08003.2915,W,1,8,1.9,22,M,,M,,*55
05/28/2014	14:01:02.720	$GPGGA,140103,2533.7624,N,08003.2908,W,1,8,1.9,22,M,,M,,*5F
05/28/2014	14:01:03.706	$GPGGA,140104,2533.7625,N,08003.2901,W,1,8,1.9,22,M,,M,,*50
05/28/2014	14:01:04.691	$GPGGA,140105,2533.7623,N,08003.2895,W,1,8,1.9,22,M,,M,,*5B
05/28/2014	14:01:05.697	$GPGGA,140106,2533.7625,N,08003.2889,W,1,8,2.1,22,M,,M,,*58
05/28/2014	14:01:06.692	$GPGGA,140107,2533.7623,N,08003.2885,W,1,7,2.1,22,M,,M,,*5C
05/28/2014	14:01:07.717	$GPGGA,140108,2533.7624,N,08003.2878,W,1,7,1.9,22,M,,M,,*5D
05/28/2014	14:01:08.743	$GPGGA,140109,2533.7621,N,08003.2875,W,1,7,2.1,22,M,,M,,*5F
05/28/2014	14:01:09.708	$GPGGA,140110,2533.7618,N,08003.2871,W,1,7,1.9,22,M,,M,,*52
05/28/2014	14:01:10.744	$GPGGA,140111,2533.7618,N,08003.2865,W,1,8,1.9,22,M,,M,,*59
05/28/2014	14:01:11.730	$GPGGA,140112,2533.7620,N,08003.2858,W,1,8,1.9,22,M,,M,,*5F
05/28/2014	14:01:12.756	$GPGGA,140113,2533.7621,N,08003.2851,W,1,7,2.1,22,M,,M,,*52
05/28/2014	14:01:13.731	$GPGGA,140114,2533.7621,N,08003.2843,W,1,7,1.9,22,M,,M,,*5D
05/28/2014	14:01:14.757	$GPGGA,140115,2533.7624,N,08003.2836,W,1,8,1.9,22,M,,M,,*54
05/28/2014	14:01:15.753	$GPGGA,140116,2533.7623,N,08003.2831,W,1,8,1.9,22,M,,M,,*57
05/28/2014	14:01:16.729	$GPGGA,140117,2533.7624,N,08003.2823,W,1,8,1.9,22,M,,M,,*52
05/28/2014	14:01:17.754	$GPGGA,140118,2533.7625,N,08003.2815,W,1,8,1.9,22,M,,M,,*59
05/28/2014	14:01:18.760	$GPGGA,140119,2533.7627,N,08003.2809,W,1,7,2.1,22,M,,M,,*53
05/28/2014	14:01:19.765	$GPGGA,140120,2533.7626,N,08003.2802,W,1,7,1.9,22,M,,M,,*58
05/28/2014	14:01:20.772	$GPGGA,140121,2533.7628,N,08003.2793,W,1,8,1.9,22,M,,M,,*5F
05/28/2014	14:01:21.757	$GPGGA,140122,2533.7628,N,08003.2787,W,1,8,2.1,22,M,,M,,*52
05/28/2014	14:01:22.752	$GPGGA,140123,2533.7628,N,08003.2783,W,1,8,1.9,22,M,,M,,*5C
05/28/2014	14:01:23.788	$GPGGA,140124,2533.7626,N,08003.2778,W,1,8,1.9,22,M,,M,,*51
05/28/2014	14:01:24.893	$GPGGA,140125,2533.7628,N,08003.2771,W,1,8,1.9,22,M,,M,,*57
05/28/2014	14:01:25.879	$GPGGA,140126,2533.7630,N,08003.2764,W,1,8,1.9,22,M,,M,,*59
05/28/2014	14:01:26.774	$GPGGA,140127,2533.7631,N,08003.2757,W,1,8,1.9,22,M,,M,,*59
05/28/2014	14:01:27.790	$GPGGA,140128,2533.7630,N,08003.2750,W,1,8,1.9,23,M,,M,,*51
05/28/2014	14:01:28.916	$GPGGA,140129,2533.7632,N,08003.2743,W,1,8,1.9,23,M,,M,,*50
05/28/2014	14:01:29.781	$GPGGA,140130,2533.7634,N,08003.2736,W,1,8,2.1,23,M,,M,,*57
05/28/2014	14:01:30.797	$GPGGA,140131,2533.7635,N,08003.2729,W,1,8,1.9,23,M,,M,,*52
05/28/2014	14:01:31.895	$GPGGA,140132,2533.7635,N,08003.2721,W,1,8,1.9,23,M,,M,,*59
05/28/2014	14:01:32.889	$GPGGA,140133,2533.7638,N,08003.2715,W,1,7,2.1,23,M,,M,,*56
05/28/2014	14:01:33.904	$GPGGA,140134,2533.7637,N,08003.2708,W,1,7,1.9,23,M,,M,,*59
05/28/2014	14:01:34.914	$GPGGA,140135,2533.7639,N,08003.2701,W,1,8,1.9,23,M,,M,,*50
05/28/2014	14:01:35.825	$GPGGA,140136,2533.7639,N,08003.2694,W,1,8,2.1,23,M,,M,,*55
05/28/2014	14:01:36.911	$GPGGA,140137,2533.7641,N,08003.2686,W,1,8,1.9,23,M,,M,,*53
05/28/2014	14:01:37.917	$GPGGA,140138,2533.7640,N,08003.2680,W,1,8,2.1,23,M,,M,,*50
05/28/2014	14:01:38.594	$GPGGA,140139,2533.7641,N,08003.2674,W,1,8,1.9,23,M,,M,,*50
05/28/2014	14:01:39.598	$GPGGA,140140,2533.7642,N,08003.2666,W,1,8,1.9,23,M,,M,,*5E
05/28/2014	14:01:40.585	$GPGGA,140141,2533.7643,N,08003.2659,W,1,8,1.9,23,M,,M,,*52
05/28/2014	14:01:41.590	$GPGGA,140142,2533.7643,N,08003.2652,W,1,8,1.9,23,M,,M,,*5A
05/28/2014	14:01:42.599	$GPGGA,140143,2533.7645,N,08003.2645,W,1,8,1.9,23,M,,M,,*5B
05/28/2014	14:01:43.612	$GPGGA,140144,2533.7644,N,08003.2638,W,1,8,1.9,23,M,,M,,*57
05/28/2014	14:01:44.615	$GPGGA,140145,2533.7646,N,08003.2630,W,1,8,1.9,23,M,,M,,*5C
05/28/2014	14:01:45.602	$GPGGA,140146,2533.7646,N,08003.2623,W,1,8,1.9,23,M,,M,,*5D
05/28/2014	14:01:46.630	$GPGGA,140147,2533.7648,N,08003.2616,W,1,7,2.1,23,M,,M,,*50
05/28/2014	14:01:47.622	$GPGGA,140148,2533.7649,N,08003.2608,W,1,7,2.1,23,M,,M,,*51
05/28/2014	14:01:48.608	$GPGGA,140149,2533.7648,N,08003.2602,W,1,8,1.9,22,M,,M,,*5E
05/28/2014	14:01:49.614	$GPGGA,140150,2533.7650,N,08003.2596,W,1,8,1.9,22,M,,M,,*51
05/28/2014	14:01:50.639	$GPGGA,140151,2533.7652,N,08003.2588,W,1,8,1.9,22,M,,M,,*5D
05/28/2014	14:01:51.636	$GPGGA,140152,2533.7653,N,08003.2580,W,1,8,1.9,22,M,,M,,*57
05/28/2014	14:01:52.641	$GPGGA,140153,2533.7654,N,08003.2573,W,1,8,1.9,22,M,,M,,*5D
05/28/2014	14:01:53.626	$GPGGA,140154,2533.7654,N,08003.2566,W,1,8,1.9,22,M,,M,,*5E
05/28/2014	14:01:54.664	$GPGGA,140155,2533.7656,N,08003.2558,W,1,8,1.9,22,M,,M,,*50
05/28/2014	14:01:55.649	$GPGGA,140156,2533.7657,N,08003.2551,W,1,8,1.9,22,M,,M,,*5B
05/28/2014	14:01:56.665	$GPGGA,140157,2533.7657,N,08003.2545,W,1,8,1.9,22,M,,M,,*5F
05/28/2014	14:01:57.649	$GPGGA,140158,2533.7657,N,08003.2539,W,1,8,2.1,22,M,,M,,*50
05/28/2014	14:01:58.655	$GPGGA,140159,2533.7660,N,08003.2532,W,1,8,1.9,22,M,,M,,*55
05/28/2014	14:01:59.669	$GPGGA,140200,2533.7661,N,08003.2527,W,1,8,1.9,22,M,,M,,*5F
05/28/2014	14:02:00.655	$GPGGA,140201,2533.7659,N,08003.2520,W,1,8,1.9,22,M,,M,,*52
05/28/2014	14:02:01.671	$GPGGA,140202,2533.7661,N,08003.2512,W,1,8,1.9,22,M,,M,,*5B
05/28/2014	14:02:02.711	$GPGGA,140203,2533.7661,N,08003.2505,W,1,8,1.9,22,M,,M,,*5C
05/28/2014	14:02:03.673	$GPGGA,140204,2533.7661,N,08003.2497,W,1,8,1.9,22,M,,M,,*51
05/28/2014	14:02:05.718	$GPGGA,140206,2533.7661,N,08003.2481,W,1,8,1.9,22,M,,M,,*54
05/28/2014	14:02:06.689	$GPGGA,140207,2533.7661,N,08003.2475,W,1,8,1.9,22,M,,M,,*5E
05/28/2014	14:02:07.695	$GPGGA,140208,2533.7663,N,08003.2468,W,1,8,1.9,22,M,,M,,*5F
05/28/2014	14:02:08.701	$GPGGA,140209,2533.7664,N,08003.2461,W,1,8,1.9,21,M,,M,,*53
05/28/2014	14:02:09.686	$GPGGA,140210,2533.7663,N,08003.2454,W,1,8,1.9,21,M,,M,,*5A
05/28/2014	14:02:10.682	$GPGGA,140211,2533.7664,N,08003.2447,W,1,8,1.9,21,M,,M,,*5E
05/28/2014	14:02:11.818	$GPGGA,140212,2533.7665,N,08003.2439,W,1,8,1.9,21,M,,M,,*55
05/28/2014	14:02:12.683	$GPGGA,140213,2533.7665,N,08003.2433,W,1,8,1.9,21,M,,M,,*5E
05/28/2014	14:02:13.820	$GPGGA,140214,2533.7663,N,08003.2428,W,1,8,2.1,21,M,,M,,*5E
05/28/2014	14:02:14.739	$GPGGA,140215,2533.7664,N,08003.2421,W,1,8,1.9,21,M,,M,,*5A
05/28/2014	14:02:15.778	$GPGGA,140216,2533.7665,N,08003.2414,W,1,8,2.1,21,M,,M,,*55
05/28/2014	14:02:16.839	$GPGGA,140217,2533.7665,N,08003.2407,W,1,8,1.9,21,M,,M,,*5D
05/28/2014	14:02:18.017	$GPGGA,140218,2533.7667,N,08003.2399,W,1,8,1.9,21,M,,M,,*50
05/28/2014	14:02:18.993	$GPGGA,140219,2533.7668,N,08003.2393,W,1,8,1.9,21,M,,M,,*54
05/28/2014	14:02:20.193	$GPGGA,140220,2533.7666,N,08003.2387,W,1,8,1.9,21,M,,M,,*55
05/28/2014	14:02:21.136	$GPGGA,140221,2533.7667,N,08003.2381,W,1,8,1.9,21,M,,M,,*53
05/28/2014	14:02:22.304	$GPGGA,140222,2533.7668,N,08003.2373,W,1,8,1.9,21,M,,M,,*52
05/28/2014	14:02:23.384	$GPGGA,140223,2533.7668,N,08003.2365,W,1,7,2.1,21,M,,M,,*50
05/28/2014	14:02:24.459	$GPGGA,140224,2533.7668,N,08003.2358,W,1,7,2.1,21,M,,M,,*59
05/28/2014	14:02:25.509	$GPGGA,140225,2533.7672,N,08003.2351,W,1,8,1.9,21,M,,M,,*5E
05/28/2014	14:02:26.570	$GPGGA,140226,2533.7672,N,08003.2343,W,1,8,1.9,20,M,,M,,*5F
05/28/2014	14:02:27.643	$GPGGA,140227,2533.7672,N,08003.2335,W,1,8,1.9,20,M,,M,,*5F
05/28/2014	14:02:28.725	$GPGGA,140228,2533.7675,N,08003.2328,W,1,8,1.9,20,M,,M,,*5B
05/28/2014	14:02:29.786	$GPGGA,140229,2533.7675,N,08003.2321,W,1,8,1.9,20,M,,M,,*53
05/28/2014	14:02:30.860	$GPGGA,140230,2533.7677,N,08003.2315,W,1,8,1.9,20,M,,M,,*5E
05/28/2014	14:02:31.940	$GPGGA,140231,2533.7678,N,08003.2310,W,1,7,2.4,20,M,,M,,*54
05/28/2014	14:02:33.009	$GPGGA,140232,2533.7679,N,08003.2303,W,1,7,1.9,20,M,,M,,*5A
05/28/2014	14:02:34.085	$GPGGA,140233,2533.7677,N,08003.2296,W,1,8,1.9,20,M,,M,,*57
05/28/2014	14:02:35.117	$GPGGA,140234,2533.7678,N,08003.2291,W,1,8,1.9,20,M,,M,,*58
05/28/2014	14:02:36.237	$GPGGA,140235,2533.7677,N,08003.2286,W,1,8,1.9,20,M,,M,,*50
05/28/2014	14:02:37.264	$GPGGA,140236,2533.7678,N,08003.2280,W,1,8,1.9,20,M,,M,,*5A
05/28/2014	14:02:38.345	$GPGGA,140237,2533.7679,N,08003.2274,W,1,8,1.9,20,M,,M,,*51
05/28/2014	14:02:39.392	$GPGGA,140238,2533.7676,N,08003.2269,W,1,8,2.1,20,M,,M,,*56
05/28/2014	14:02:38.594	$GPGGA,140239,2533.7678,N,08003.2263,W,1,7,2.1,20,M,,M,,*5C
05/28/2014	14:02:39.632	$GPGGA,140240,2533.7681,N,08003.2257,W,1,7,2.1,20,M,,M,,*53
05/28/2014	14:02:40.723	$GPGGA,140241,2533.7679,N,08003.2252,W,1,8,1.9,20,M,,M,,*54
05/28/2014	14:02:41.760	$GPGGA,140242,2533.7679,N,08003.2247,W,1,8,2.1,20,M,,M,,*58
05/28/2014	14:02:42.829	$GPGGA,140243,2533.7681,N,08003.2238,W,1,8,1.9,20,M,,M,,*5D
05/28/2014	14:02:43.920	$GPGGA,140244,2533.7682,N,08003.2230,W,1,8,1.9,20,M,,M,,*51
05/28/2014	14:02:45.011	$GPGGA,140245,2533.7679,N,08003.2225,W,1,7,2.2,20,M,,M,,*57
05/28/2014	14:02:46.027	$GPGGA,140246,2533.7679,N,08003.2218,W,1,7,1.9,20,M,,M,,*52
05/28/2014	14:02:47.128	$GPGGA,140247,2533.7681,N,08003.2211,W,1,8,1.9,20,M,,M,,*52
05/28/2014	14:02:48.198	$GPGGA,140248,2533.7680,N,08003.2206,W,1,8,1.9,20,M,,M,,*5A
05/28/2014	14:02:49.267	$GPGGA,140249,2533.7682,N,08003.2197,W,1,8,1.9,20,M,,M,,*52
05/28/2014	14:02:50.294	$GPGGA,140250,2533.7681,N,08003.2194,W,1,8,2.2,20,M,,M,,*52
05/28/2014	14:02:51.406	$GPGGA,140251,2533.7682,N,08003.2188,W,1,8,1.9,20,M,,M,,*55
05/28/2014	14:02:52.443	$GPGGA,140252,2533.7682,N,08003.2180,W,1,8,1.9,21,M,,M,,*5F
05/28/2014	14:02:53.501	$GPGGA,140253,2533.7683,N,08003.2175,W,1,8,1.9,21,M,,M,,*55
05/28/2014	14:02:54.570	$GPGGA,140254,2533.7683,N,08003.2170,W,1,8,2.4,21,M,,M,,*59
05/28/2014	14:02:55.629	$GPGGA,140255,2533.7682,N,08003.2164,W,1,8,1.9,21,M,,M,,*52
05/28/2014	14:02:56.721	$GPGGA,140256,2533.7685,N,08003.2156,W,1,8,1.9,21,M,,M,,*57
05/28/2014	14:02:57.768	$GPGGA,140257,2533.7684,N,08003.2150,W,1,8,1.9,21,M,,M,,*51
05/28/2014	14:02:58.826	$GPGGA,140258,2533.7685,N,08003.2143,W,1,8,1.9,21,M,,M,,*5D
05/28/2014	14:02:59.896	$GPGGA,140259,2533.7686,N,08003.2136,W,1,8,1.9,21,M,,M,,*5D
05/28/2014	14:03:00.997	$GPGGA,140300,2533.7688,N,08003.2129,W,1,8,1.9,21,M,,M,,*50
05/28/2014	14:03:02.035	$GPGGA,140301,2533.7689,N,08003.2122,W,1,8,1.9,21,M,,M,,*5B
05/28/2014	14:03:03.115	$GPGGA,140302,2533.7688,N,08003.2116,W,1,8,1.9,21,M,,M,,*5E
05/28/2014	14:03:04.163	$GPGGA,140303,2533.7690,N,08003.2110,W,1,8,1.9,21,M,,M,,*50
05/28/2014	14:03:05.264	$GPGGA,140304,2533.7693,N,08003.2101,W,1,8,1.9,21,M,,M,,*54
05/28/2014	14:03:06.302	$GPGGA,140305,2533.7691,N,08003.2094,W,1,7,2.2,21,M,,M,,*5D
05/28/2014	14:03:07.565	$GPGGA,140306,2533.7693,N,08003.2089,W,1,7,1.9,21,M,,M,,*58
05/28/2014	14:03:08.551	$GPGGA,140307,2533.7692,N,08003.2082,W,1,8,1.9,21,M,,M,,*5C
05/28/2014	14:03:09.670	$GPGGA,140308,2533.7695,N,08003.2073,W,1,8,1.9,22,M,,M,,*59
05/28/2014	14:03:10.793	$GPGGA,140309,2533.7696,N,08003.2067,W,1,8,1.9,22,M,,M,,*5E
05/28/2014	14:03:11.647	$GPGGA,140310,2533.7695,N,08003.2061,W,1,8,1.9,22,M,,M,,*53
05/28/2014	14:03:12.931	$GPGGA,140311,2533.7697,N,08003.2053,W,1,8,1.9,22,M,,M,,*51
05/28/2014	14:03:13.947	$GPGGA,140312,2533.7697,N,08003.2047,W,1,8,1.9,22,M,,M,,*57
05/28/2014	14:03:15.048	$GPGGA,140313,2533.7697,N,08003.2040,W,1,8,1.9,22,M,,M,,*51
05/28/2014	14:03:16.043	$GPGGA,140314,2533.7699,N,08003.2033,W,1,8,1.9,22,M,,M,,*5C
05/28/2014	14:03:17.189	$GPGGA,140315,2533.7701,N,08003.2026,W,1,8,1.9,22,M,,M,,*59
05/28/2014	14:03:18.214	$GPGGA,140316,2533.7701,N,08003.2019,W,1,8,1.9,22,M,,M,,*56
05/28/2014	14:03:19.315	$GPGGA,140317,2533.7701,N,08003.2012,W,1,8,1.9,22,M,,M,,*5C
05/28/2014	14:03:20.311	$GPGGA,140318,2533.7703,N,08003.2005,W,1,8,1.9,22,M,,M,,*57
05/28/2014	14:03:21.347	$GPGGA,140319,2533.7704,N,08003.1998,W,1,8,1.9,23,M,,M,,*5E
05/28/2014	14:03:22.470	$GPGGA,140320,2533.7704,N,08003.1991,W,1,8,1.9,23,M,,M,,*5D
05/28/2014	14:03:23.486	$GPGGA,140321,2533.7707,N,08003.1985,W,1,8,1.9,23,M,,M,,*5A
05/28/2014	14:03:24.583	$GPGGA,140322,2533.7708,N,08003.1978,W,1,8,1.9,23,M,,M,,*54
05/28/2014	14:03:25.689	$GPGGA,140323,2533.7708,N,08003.1971,W,1,8,1.9,23,M,,M,,*5C
05/28/2014	14:03:28.257	$GPGGA,140325,2533.7710,N,08003.1959,W,1,8,1.9,23,M,,M,,*59
05/28/2014	14:03:28.811	$GPGGA,140326,2533.7711,N,08003.1951,W,1,8,1.9,23,M,,M,,*53
05/28/2014	14:03:30.008	$GPGGA,140327,2533.7712,N,08003.1944,W,1,8,1.9,23,M,,M,,*55
05/28/2014	14:03:31.004	$GPGGA,140328,2533.7711,N,08003.1939,W,1,8,1.9,23,M,,M,,*53
05/28/2014	14:03:32.126	$GPGGA,140329,2533.7712,N,08003.1932,W,1,8,1.9,23,M,,M,,*5A
05/28/2014	14:03:33.109	$GPGGA,140330,2533.7715,N,08003.1925,W,1,8,1.9,23,M,,M,,*53
05/28/2014	14:03:34.157	$GPGGA,140331,2533.7715,N,08003.1919,W,1,8,1.9,23,M,,M,,*5D
05/28/2014	14:03:35.227	$GPGGA,140332,2533.7715,N,08003.1913,W,1,8,1.9,24,M,,M,,*53
05/28/2014	14:03:36.392	$GPGGA,140333,2533.7715,N,08003.1905,W,1,8,1.9,24,M,,M,,*55
05/28/2014	14:03:37.355	$GPGGA,140334,2533.7719,N,08003.1898,W,1,8,1.9,24,M,,M,,*5B
05/28/2014	14:03:38.424	$GPGGA,140335,2533.7719,N,08003.1891,W,1,8,1.9,24,M,,M,,*53
05/28/2014	14:03:39.527	$GPGGA,140336,2533.7719,N,08003.1885,W,1,8,1.9,24,M,,M,,*55
05/28/2014	14:03:40.670	$GPGGA,140337,2533.7722,N,08003.1878,W,1,8,1.9,24,M,,M,,*5E
05/28/2014	14:03:41.664	$GPGGA,140338,2533.7722,N,08003.1872,W,1,8,1.9,24,M,,M,,*5B
05/28/2014	14:03:38.647	$GPGGA,140339,2533.7722,N,08003.1865,W,1,8,1.9,24,M,,M,,*5C
05/28/2014	14:03:39.641	$GPGGA,140340,2533.7724,N,08003.1858,W,1,8,1.9,24,M,,M,,*5A
05/28/2014	14:03:40.657	$GPGGA,140341,2533.7726,N,08003.1851,W,1,8,1.9,24,M,,M,,*50
05/28/2014	14:03:41.769	$GPGGA,140342,2533.7726,N,08003.1844,W,1,8,1.9,24,M,,M,,*57
05/28/2014	14:03:42.914	$GPGGA,140343,2533.7726,N,08003.1838,W,1,8,1.9,24,M,,M,,*5D
05/28/2014	14:03:43.908	$GPGGA,140344,2533.7728,N,08003.1831,W,1,8,1.9,24,M,,M,,*5D
05/28/2014	14:03:44.934	$GPGGA,140345,2533.7729,N,08003.1824,W,1,8,1.9,24,M,,M,,*59
05/28/2014	14:03:46.102	$GPGGA,140346,2533.7729,N,08003.1817,W,1,8,1.9,24,M,,M,,*5A
05/28/2014	14:03:47.161	$GPGGA,140347,2533.7729,N,08003.1810,W,1,8,1.9,24,M,,M,,*5C
05/28/2014	14:03:48.292	$GPGGA,140348,2533.7732,N,08003.1803,W,1,8,1.9,24,M,,M,,*5B
05/28/2014	14:03:49.288	$GPGGA,140349,2533.7733,N,08003.1796,W,1,8,1.9,24,M,,M,,*58
05/28/2014	14:03:50.259	$GPGGA,140350,2533.7733,N,08003.1789,W,1,8,1.9,24,M,,M,,*5E
05/28/2014	14:03:51.489	$GPGGA,140351,2533.7736,N,08003.1782,W,1,7,1.9,24,M,,M,,*5E
05/28/2014	14:03:52.453	$GPGGA,140352,2533.7737,N,08003.1776,W,1,7,1.9,24,M,,M,,*57
05/28/2014	14:03:53.564	$GPGGA,140353,2533.7737,N,08003.1769,W,1,8,1.9,24,M,,M,,*57
05/28/2014	14:03:54.580	$GPGGA,140354,2533.7739,N,08003.1761,W,1,8,1.9,24,M,,M,,*56
05/28/2014	14:03:55.714	$GPGGA,140355,2533.7740,N,08003.1754,W,1,8,1.9,24,M,,M,,*5F
05/28/2014	14:03:56.793	$GPGGA,140356,2533.7739,N,08003.1749,W,1,8,1.9,23,M,,M,,*59
05/28/2014	14:03:57.837	$GPGGA,140357,2533.7740,N,08003.1742,W,1,8,1.9,23,M,,M,,*5D
05/28/2014	14:03:58.912	$GPGGA,140358,2533.7742,N,08003.1735,W,1,8,1.9,23,M,,M,,*50
05/28/2014	14:03:59.987	$GPGGA,140359,2533.7743,N,08003.1729,W,1,8,1.9,23,M,,M,,*5D
05/28/2014	14:04:01.082	$GPGGA,140400,2533.7742,N,08003.1723,W,1,8,1.9,23,M,,M,,*5D
05/28/2014	14:04:02.173	$GPGGA,140401,2533.7744,N,08003.1716,W,1,8,1.9,23,M,,M,,*5C
05/28/2014	14:04:03.190	$GPGGA,140402,2533.7744,N,08003.1709,W,1,8,1.9,23,M,,M,,*51
05/28/2014	14:04:04.259	$GPGGA,140403,2533.7744,N,08003.1704,W,1,8,1.9,23,M,,M,,*5D
05/28/2014	14:04:05.326	$GPGGA,140404,2533.7746,N,08003.1697,W,1,8,1.9,23,M,,M,,*53
05/28/2014	14:04:06.449	$GPGGA,140405,2533.7745,N,08003.1690,W,1,8,1.9,23,M,,M,,*56
05/28/2014	14:04:07.454	$GPGGA,140406,2533.7746,N,08003.1684,W,1,8,1.9,23,M,,M,,*53
05/28/2014	14:04:08.547	$GPGGA,140407,2533.7747,N,08003.1678,W,1,8,1.9,23,M,,M,,*50
05/28/2014	14:04:09.597	$GPGGA,140408,2533.7748,N,08003.1671,W,1,8,1.9,23,M,,M,,*59
05/28/2014	14:04:10.673	$GPGGA,140409,2533.7748,N,08003.1665,W,1,8,2.1,23,M,,M,,*56
05/28/2014	14:04:11.732	$GPGGA,140410,2533.7748,N,08003.1665,W,1,8,2.1,23,M,,M,,*5E
05/28/2014	14:04:12.814	$GPGGA,140411,2533.7751,N,08003.1653,W,1,8,1.9,23,M,,M,,*59
05/28/2014	14:04:13.871	$GPGGA,140412,2533.7751,N,08003.1647,W,1,8,1.9,23,M,,M,,*5F
05/28/2014	14:04:14.941	$GPGGA,140413,2533.7751,N,08003.1640,W,1,8,1.9,23,M,,M,,*59
05/28/2014	14:04:15.978	$GPGGA,140414,2533.7754,N,08003.1633,W,1,8,1.9,23,M,,M,,*5F
05/28/2014	14:04:18.193	$GPGGA,140416,2533.7755,N,08003.1621,W,1,8,1.9,23,M,,M,,*5F
05/28/2014	14:04:19.233	$GPGGA,140417,2533.7755,N,08003.1614,W,1,8,1.9,23,M,,M,,*58
05/28/2014	14:04:20.244	$GPGGA,140418,2533.7757,N,08003.1607,W,1,8,1.9,23,M,,M,,*57
05/28/2014	14:04:21.382	$GPGGA,140419,2533.7758,N,08003.1600,W,1,8,1.9,23,M,,M,,*5E
05/28/2014	14:04:22.414	$GPGGA,140420,2533.7758,N,08003.1594,W,1,8,1.9,23,M,,M,,*5A
05/28/2014	14:04:23.484	$GPGGA,140421,2533.7758,N,08003.1594,W,1,8,1.9,23,M,,M,,*5B
05/28/2014	14:04:24.532	$GPGGA,140422,2533.7759,N,08003.1580,W,1,8,1.9,23,M,,M,,*5C
05/28/2014	14:04:25.651	$GPGGA,140423,2533.7761,N,08003.1573,W,1,8,1.9,23,M,,M,,*5A
05/28/2014	14:04:26.670	$GPGGA,140424,2533.7762,N,08003.1566,W,1,8,1.9,23,M,,M,,*5A
05/28/2014	14:04:27.772	$GPGGA,140425,2533.7762,N,08003.1566,W,1,8,1.9,23,M,,M,,*5B
05/28/2014	14:04:28.798	$GPGGA,140426,2533.7762,N,08003.1559,W,1,8,1.9,23,M,,M,,*54
05/28/2014	14:04:30.007	$GPGGA,140427,2533.7762,N,08003.1545,W,1,8,1.9,23,M,,M,,*58
05/28/2014	14:04:30.948	$GPGGA,140428,2533.7765,N,08003.1538,W,1,8,1.9,23,M,,M,,*5A
05/28/2014	14:04:32.052	$GPGGA,140429,2533.7764,N,08003.1531,W,1,8,1.9,23,M,,M,,*53
05/28/2014	14:04:33.076	$GPGGA,140430,2533.7765,N,08003.1524,W,1,8,1.9,23,M,,M,,*5E
05/28/2014	14:04:34.145	$GPGGA,140431,2533.7766,N,08003.1518,W,1,8,1.9,23,M,,M,,*53
05/28/2014	14:04:35.205	$GPGGA,140432,2533.7766,N,08003.1511,W,1,8,1.9,23,M,,M,,*59
05/28/2014	14:04:36.338	$GPGGA,140433,2533.7766,N,08003.1504,W,1,8,1.9,23,M,,M,,*5C
05/28/2014	14:04:37.343	$GPGGA,140434,2533.7768,N,08003.1496,W,1,8,1.9,23,M,,M,,*5F
05/28/2014	14:04:38.498	$GPGGA,140435,2533.7768,N,08003.1496,W,1,8,1.9,23,M,,M,,*5E
05/28/2014	14:04:39.471	$GPGGA,140436,2533.7769,N,08003.1483,W,1,8,1.9,23,M,,M,,*58
05/28/2014	14:04:40.561	$GPGGA,140437,2533.7771,N,08003.1476,W,1,8,1.9,23,M,,M,,*5A
05/28/2014	14:04:41.609	$GPGGA,140438,2533.7773,N,08003.1470,W,1,8,1.9,23,M,,M,,*51
05/28/2014	14:04:38.505	$GPGGA,140439,2533.7773,N,08003.1470,W,1,8,1.9,23,M,,M,,*50
05/28/2014	14:04:39.702	$GPGGA,140440,2533.7773,N,08003.1455,W,1,8,1.9,23,M,,M,,*59
05/28/2014	14:04:40.750	$GPGGA,140441,2533.7775,N,08003.1449,W,1,8,1.9,23,M,,M,,*53
05/28/2014	14:04:41.799	$GPGGA,140442,2533.7776,N,08003.1441,W,1,8,1.9,23,M,,M,,*5B
05/28/2014	14:04:42.900	$GPGGA,140443,2533.7777,N,08003.1434,W,1,8,1.9,22,M,,M,,*58
05/28/2014	14:04:43.852	$GPGGA,140444,2533.7777,N,08003.1428,W,1,8,1.9,22,M,,M,,*52
05/28/2014	14:04:45.039	$GPGGA,140445,2533.7779,N,08003.1421,W,1,8,1.9,22,M,,M,,*54
05/28/2014	14:04:46.078	$GPGGA,140446,2533.7780,N,08003.1414,W,1,8,1.9,22,M,,M,,*57
05/28/2014	14:04:47.159	$GPGGA,140447,2533.7782,N,08003.1407,W,1,8,1.9,22,M,,M,,*56
05/28/2014	14:04:48.225	$GPGGA,140448,2533.7781,N,08003.1400,W,1,8,1.9,22,M,,M,,*5D
05/28/2014	14:04:49.306	$GPGGA,140449,2533.7783,N,08003.1393,W,1,8,1.9,22,M,,M,,*53
05/28/2014	14:04:50.354	$GPGGA,140450,2533.7782,N,08003.1385,W,1,8,1.9,22,M,,M,,*5D
05/28/2014	14:04:51.414	$GPGGA,140451,2533.7784,N,08003.1379,W,1,8,1.9,22,M,,M,,*59
05/28/2014	14:04:52.503	$GPGGA,140452,2533.7786,N,08003.1373,W,1,8,1.9,22,M,,M,,*52
05/28/2014	14:04:53.583	$GPGGA,140453,2533.7785,N,08003.1365,W,1,8,1.6,22,M,,M,,*58
05/28/2014	14:04:54.610	$GPGGA,140454,2533.7787,N,08003.1357,W,1,8,1.6,22,M,,M,,*5C
05/28/2014	14:04:55.710	$GPGGA,140455,2533.7787,N,08003.1350,W,1,8,1.6,22,M,,M,,*5A
05/28/2014	14:04:56.769	$GPGGA,140456,2533.7789,N,08003.1343,W,1,8,1.6,22,M,,M,,*55
05/28/2014	14:04:57.838	$GPGGA,140457,2533.7788,N,08003.1336,W,1,8,1.6,22,M,,M,,*57
05/28/2014	14:04:58.886	$GPGGA,140458,2533.7790,N,08003.1329,W,1,8,1.6,22,M,,M,,*5F
05/28/2014	14:04:59.977	$GPGGA,140459,2533.7791,N,08003.1323,W,1,8,1.6,22,M,,M,,*55
05/28/2014	14:05:01.048	$GPGGA,140500,2533.7791,N,08003.1315,W,1,8,1.6,22,M,,M,,*5D
05/28/2014	14:05:02.084	$GPGGA,140501,2533.7791,N,08003.1308,W,1,8,1.6,21,M,,M,,*53
05/28/2014	14:05:03.196	$GPGGA,140502,2533.7791,N,08003.1301,W,1,8,1.6,21,M,,M,,*59
05/28/2014	14:05:04.244	$GPGGA,140503,2533.7793,N,08003.1293,W,1,8,1.6,21,M,,M,,*50
05/28/2014	14:05:05.292	$GPGGA,140504,2533.7794,N,08003.1287,W,1,8,1.6,21,M,,M,,*55
05/28/2014	14:05:06.383	$GPGGA,140505,2533.7791,N,08003.1280,W,1,8,1.9,21,M,,M,,*59
05/28/2014	14:05:07.420	$GPGGA,140506,2533.7793,N,08003.1272,W,1,8,1.6,21,M,,M,,*5A
05/28/2014	14:05:08.511	$GPGGA,140507,2533.7794,N,08003.1264,W,1,8,1.6,21,M,,M,,*5B
05/28/2014	14:05:09.559	$GPGGA,140508,2533.7794,N,08003.1257,W,1,8,1.8,21,M,,M,,*5A
05/28/2014	14:05:10.618	$GPGGA,140509,2533.7795,N,08003.1250,W,1,8,1.6,21,M,,M,,*53
05/28/2014	14:05:13.252	$GPGGA,140511,2533.7798,N,08003.1234,W,1,8,1.9,21,M,,M,,*5A
05/28/2014	14:05:13.836	$GPGGA,140512,2533.7801,N,08003.1227,W,1,8,1.6,21,M,,M,,*5B
05/28/2014	14:05:14.916	$GPGGA,140513,2533.7804,N,08003.1219,W,1,8,1.6,21,M,,M,,*52
05/28/2014	14:05:15.953	$GPGGA,140514,2533.7805,N,08003.1210,W,1,8,1.8,21,M,,M,,*53
05/28/2014	14:05:17.054	$GPGGA,140515,2533.7808,N,08003.1203,W,1,8,1.6,21,M,,M,,*53
05/28/2014	14:05:18.102	$GPGGA,140516,2533.7811,N,08003.1196,W,1,8,1.9,21,M,,M,,*58
05/28/2014	14:05:19.193	$GPGGA,140517,2533.7813,N,08003.1188,W,1,8,1.9,21,M,,M,,*54
05/28/2014	14:05:20.220	$GPGGA,140518,2533.7813,N,08003.1180,W,1,8,1.6,21,M,,M,,*5C
05/28/2014	14:05:21.300	$GPGGA,140519,2533.7816,N,08003.1172,W,1,7,1.8,21,M,,M,,*54
05/28/2014	14:05:22.380	$GPGGA,140520,2533.7816,N,08003.1165,W,1,7,1.6,21,M,,M,,*56
05/28/2014	14:05:23.556	$GPGGA,140521,2533.7814,N,08003.1162,W,1,7,1.6,21,M,,M,,*52
05/28/2014	14:05:24.508	$GPGGA,140522,2533.7815,N,08003.1158,W,1,7,1.7,21,M,,M,,*58
05/28/2014	14:05:25.577	$GPGGA,140523,2533.7819,N,08003.1150,W,1,7,1.7,21,M,,M,,*5D
05/28/2014	14:05:26.764	$GPGGA,140524,2533.7820,N,08003.1143,W,1,7,1.9,21,M,,M,,*5C
05/28/2014	14:05:27.706	$GPGGA,140525,2533.7822,N,08003.1138,W,1,8,1.9,22,M,,M,,*5F
05/28/2014	14:05:28.860	$GPGGA,140526,2533.7820,N,08003.1134,W,1,8,2.2,22,M,,M,,*5A
05/28/2014	14:05:29.930	$GPGGA,140527,2533.7823,N,08003.1125,W,1,7,1.7,22,M,,M,,*51
05/28/2014	14:05:31.031	$GPGGA,140528,2533.7827,N,08003.1117,W,1,7,1.6,22,M,,M,,*5A
05/28/2014	14:05:31.994	$GPGGA,140529,2533.7830,N,08003.1113,W,1,8,1.9,22,M,,M,,*59
05/28/2014	14:05:33.041	$GPGGA,140530,2533.7834,N,08003.1104,W,1,8,2.2,22,M,,M,,*5B
05/28/2014	14:05:34.249	$GPGGA,140531,2533.7836,N,08003.1096,W,1,7,1.9,22,M,,M,,*55
05/28/2014	14:05:35.201	$GPGGA,140532,2533.7838,N,08003.1090,W,1,7,2.2,22,M,,M,,*56
05/28/2014	14:05:36.378	$GPGGA,140533,2533.7841,N,08003.1084,W,1,8,1.9,22,M,,M,,*5B
05/28/2014	14:05:37.405	$GPGGA,140534,2533.7845,N,08003.1076,W,1,8,1.9,22,M,,M,,*55
05/28/2014	14:05:38.473	$GPGGA,140535,2533.7848,N,08003.1068,W,1,8,1.9,22,M,,M,,*56
05/28/2014	14:05:39.554	$GPGGA,140536,2533.7852,N,08003.1061,W,1,8,1.9,22,M,,M,,*57
05/28/2014	14:05:40.634	$GPGGA,140537,2533.7855,N,08003.1055,W,1,7,2.2,22,M,,M,,*51
05/28/2014	14:05:41.682	$GPGGA,140538,2533.7856,N,08003.1045,W,1,7,2.4,22,M,,M,,*5A
05/28/2014	14:05:38.610	$GPGGA,140539,2533.7859,N,08003.1036,W,1,8,1.9,22,M,,M,,*51
05/28/2014	14:05:39.672	$GPGGA,140540,2533.7865,N,08003.1028,W,1,8,1.9,22,M,,M,,*5F
05/28/2014	14:05:40.708	$GPGGA,140541,2533.7869,N,08003.1020,W,1,7,2.4,23,M,,M,,*5A
05/28/2014	14:05:41.776	$GPGGA,140542,2533.7873,N,08003.1012,W,1,7,1.9,23,M,,M,,*5D
05/28/2014	14:05:42.857	$GPGGA,140543,2533.7877,N,08003.1002,W,1,8,1.9,23,M,,M,,*56
05/28/2014	14:05:43.936	$GPGGA,140544,2533.7881,N,08003.0993,W,1,8,1.9,23,M,,M,,*58
05/28/2014	14:05:45.009	$GPGGA,140545,2533.7885,N,08003.0985,W,1,8,1.9,23,M,,M,,*5A
05/28/2014	14:05:46.043	$GPGGA,140546,2533.7891,N,08003.0975,W,1,8,1.9,23,M,,M,,*53
05/28/2014	14:05:47.144	$GPGGA,140547,2533.7895,N,08003.0965,W,1,8,1.9,23,M,,M,,*57
05/28/2014	14:05:48.191	$GPGGA,140548,2533.7899,N,08003.0956,W,1,8,1.9,23,M,,M,,*54
05/28/2014	14:05:49.272	$GPGGA,140549,2533.7903,N,08003.0947,W,1,8,1.9,23,M,,M,,*57
05/28/2014	14:05:50.319	$GPGGA,140550,2533.7907,N,08003.0938,W,1,8,1.9,23,M,,M,,*53
05/28/2014	14:05:51.422	$GPGGA,140551,2533.7913,N,08003.0929,W,1,8,1.9,23,M,,M,,*57
05/28/2014	14:05:52.469	$GPGGA,140552,2533.7914,N,08003.0920,W,1,8,2.4,23,M,,M,,*54
05/28/2014	14:05:53.563	$GPGGA,140553,2533.7921,N,08003.0910,W,1,7,2.2,23,M,,M,,*59
05/28/2014	14:05:54.586	$GPGGA,140554,2533.7927,N,08003.0901,W,1,7,1.9,23,M,,M,,*50
05/28/2014	14:05:55.655	$GPGGA,140555,2533.7930,N,08003.0891,W,1,7,2.4,23,M,,M,,*51
05/28/2014	14:05:56.746	$GPGGA,140556,2533.7932,N,08003.0882,W,1,7,1.9,23,M,,M,,*5C
05/28/2014	14:05:57.816	$GPGGA,140557,2533.7936,N,08003.0873,W,1,8,1.9,23,M,,M,,*58
05/28/2014	14:05:58.865	$GPGGA,140558,2533.7939,N,08003.0864,W,1,8,1.9,23,M,,M,,*5E
05/28/2014	14:05:59.944	$GPGGA,140559,2533.7943,N,08003.0855,W,1,8,1.9,23,M,,M,,*50
05/28/2014	14:06:01.002	$GPGGA,140600,2533.7946,N,08003.0845,W,1,8,1.9,23,M,,M,,*5B
05/28/2014	14:06:02.093	$GPGGA,140601,2533.7950,N,08003.0837,W,1,8,1.9,23,M,,M,,*58
05/28/2014	14:06:03.120	$GPGGA,140602,2533.7954,N,08003.0828,W,1,8,1.9,23,M,,M,,*51
05/28/2014	14:06:04.307	$GPGGA,140603,2533.7957,N,08003.0819,W,1,8,1.9,23,M,,M,,*51
05/28/2014	14:06:05.280	$GPGGA,140604,2533.7961,N,08003.0810,W,1,8,1.9,23,M,,M,,*5A
05/28/2014	14:06:06.327	$GPGGA,140605,2533.7967,N,08003.0801,W,1,8,1.9,23,M,,M,,*5D
05/28/2014	14:06:07.407	$GPGGA,140606,2533.7971,N,08003.0792,W,1,8,1.9,23,M,,M,,*5C
05/28/2014	14:06:08.583	$GPGGA,140607,2533.7974,N,08003.0783,W,1,8,1.9,23,M,,M,,*58
05/28/2014	14:06:09.557	$GPGGA,140608,2533.7979,N,08003.0776,W,1,8,1.9,23,M,,M,,*50
05/28/2014	14:06:10.615	$GPGGA,140609,2533.7982,N,08003.0768,W,1,8,1.9,23,M,,M,,*5A
05/28/2014	14:06:11.674	$GPGGA,140610,2533.7986,N,08003.0759,W,1,8,1.9,23,M,,M,,*54
05/28/2014	14:06:12.840	$GPGGA,140611,2533.7990,N,08003.0752,W,1,8,1.9,23,M,,M,,*59
05/28/2014	14:06:13.813	$GPGGA,140612,2533.7992,N,08003.0746,W,1,8,2.2,23,M,,M,,*55
05/28/2014	14:06:14.850	$GPGGA,140613,2533.7997,N,08003.0738,W,1,8,1.9,23,M,,M,,*50
05/28/2014	14:06:15.952	$GPGGA,140614,2533.8001,N,08003.0732,W,1,8,2.8,23,M,,M,,*56
05/28/2014	14:06:17.000	$GPGGA,140615,2533.8006,N,08003.0723,W,1,8,1.9,23,M,,M,,*52
05/28/2014	14:06:18.091	$GPGGA,140616,2533.8010,N,08003.0715,W,1,8,1.9,22,M,,M,,*52
05/28/2014	14:06:19.138	$GPGGA,140617,2533.8015,N,08003.0706,W,1,8,1.9,22,M,,M,,*54
05/28/2014	14:06:20.293	$GPGGA,140618,2533.8018,N,08003.0698,W,1,8,1.9,22,M,,M,,*50
05/28/2014	14:06:21.267	$GPGGA,140619,2533.8022,N,08003.0689,W,1,8,1.9,22,M,,M,,*58
05/28/2014	14:06:22.464	$GPGGA,140620,2533.8026,N,08003.0682,W,1,8,1.9,22,M,,M,,*5D
05/28/2014	14:06:23.405	$GPGGA,140621,2533.8032,N,08003.0673,W,1,8,1.9,22,M,,M,,*57
05/28/2014	14:06:24.570	$GPGGA,140622,2533.8036,N,08003.0664,W,1,8,1.9,22,M,,M,,*56
05/28/2014	14:06:25.540	$GPGGA,140623,2533.8039,N,08003.0657,W,1,8,1.9,22,M,,M,,*58
05/28/2014	14:06:26.709	$GPGGA,140624,2533.8042,N,08003.0652,W,1,8,1.9,22,M,,M,,*56
05/28/2014	14:06:27.799	$GPGGA,140625,2533.8047,N,08003.0644,W,1,7,1.9,22,M,,M,,*5A
05/28/2014	14:06:28.837	$GPGGA,140626,2533.8047,N,08003.0637,W,1,7,1.6,22,M,,M,,*52
05/28/2014	14:06:29.938	$GPGGA,140627,2533.8053,N,08003.0630,W,1,8,1.7,22,M,,M,,*5F
05/28/2014	14:06:30.986	$GPGGA,140628,2533.8055,N,08003.0623,W,1,8,2.2,22,M,,M,,*52
05/28/2014	14:06:32.069	$GPGGA,140629,2533.8060,N,08003.0615,W,1,7,2.2,22,M,,M,,*5F
05/28/2014	14:06:33.104	$GPGGA,140630,2533.8062,N,08003.0608,W,1,7,2.2,22,M,,M,,*59
05/28/2014	14:06:34.195	$GPGGA,140631,2533.8065,N,08003.0601,W,1,7,2.2,22,M,,M,,*56
05/28/2014	14:06:35.264	$GPGGA,140632,2533.8069,N,08003.0593,W,1,7,1.6,22,M,,M,,*56
05/28/2014	14:06:36.344	$GPGGA,140633,2533.8073,N,08003.0585,W,1,9,1.6,22,M,,M,,*55
05/28/2014	14:06:37.371	$GPGGA,140634,2533.8076,N,08003.0576,W,1,9,1.9,22,M,,M,,*54
05/28/2014	14:06:38.452	$GPGGA,140635,2533.8080,N,08003.0568,W,1,8,1.9,22,M,,M,,*52
05/28/2014	14:06:39.533	$GPGGA,140636,2533.8086,N,08003.0558,W,1,8,1.9,22,M,,M,,*54
05/28/2014	14:06:40.579	$GPGGA,140637,2533.8087,N,08003.0549,W,1,8,1.9,22,M,,M,,*54
05/28/2014	14:06:41.659	$GPGGA,140638,2533.8091,N,08003.0541,W,1,8,1.9,22,M,,M,,*54
05/28/2014	14:06:38.544	$GPGGA,140639,2533.8097,N,08003.0533,W,1,9,1.6,22,M,,M,,*58
05/28/2014	14:06:39.634	$GPGGA,140640,2533.8098,N,08003.0524,W,1,9,1.6,22,M,,M,,*5F
05/28/2014	14:06:40.683	$GPGGA,140641,2533.8100,N,08003.0516,W,1,8,1.7,22,M,,M,,*5F
05/28/2014	14:06:41.762	$GPGGA,140642,2533.8104,N,08003.0509,W,1,8,1.6,22,M,,M,,*57
05/28/2014	14:06:42.853	$GPGGA,140643,2533.8107,N,08003.0501,W,1,9,1.6,22,M,,M,,*5C
05/28/2014	14:06:43.890	$GPGGA,140644,2533.8109,N,08003.0492,W,1,9,1.6,22,M,,M,,*5E
05/28/2014	14:06:44.981	$GPGGA,140645,2533.8112,N,08003.0485,W,1,9,1.6,22,M,,M,,*53
05/28/2014	14:06:46.030	$GPGGA,140646,2533.8116,N,08003.0478,W,1,9,1.9,22,M,,M,,*59
05/28/2014	14:06:47.087	$GPGGA,140647,2533.8119,N,08003.0471,W,1,8,1.9,22,M,,M,,*5F
05/28/2014	14:06:48.178	$GPGGA,140648,2533.8122,N,08003.0463,W,1,8,1.6,22,M,,M,,*54
05/28/2014	14:06:49.227	$GPGGA,140649,2533.8126,N,08003.0457,W,1,7,2.1,22,M,,M,,*5D
05/28/2014	14:06:50.285	$GPGGA,140650,2533.8130,N,08003.0452,W,1,7,1.9,22,M,,M,,*5C
05/28/2014	14:06:51.365	$GPGGA,140651,2533.8133,N,08003.0445,W,1,8,1.9,22,M,,M,,*57
05/28/2014	14:06:52.434	$GPGGA,140652,2533.8136,N,08003.0439,W,1,8,1.9,22,M,,M,,*5A
05/28/2014	14:06:53.482	$GPGGA,140653,2533.8138,N,08003.0433,W,1,9,1.6,22,M,,M,,*51
05/28/2014	14:06:54.680	$GPGGA,140654,2533.8141,N,08003.0426,W,1,9,1.6,22,M,,M,,*5C
05/28/2014	14:06:55.622	$GPGGA,140655,2533.8144,N,08003.0418,W,1,9,1.6,22,M,,M,,*55
05/28/2014	14:06:56.723	$GPGGA,140656,2533.8145,N,08003.0412,W,1,9,1.6,23,M,,M,,*5C
05/28/2014	14:06:57.759	$GPGGA,140657,2533.8148,N,08003.0406,W,1,9,1.6,23,M,,M,,*55
05/28/2014	14:06:58.839	$GPGGA,140658,2533.8151,N,08003.0399,W,1,9,1.6,23,M,,M,,*53
05/28/2014	14:06:59.908	$GPGGA,140659,2533.8152,N,08003.0393,W,1,8,1.9,23,M,,M,,*55
05/28/2014	14:07:01.106	$GPGGA,140700,2533.8156,N,08003.0387,W,1,8,1.6,23,M,,M,,*56
05/28/2014	14:07:02.026	$GPGGA,140701,2533.8159,N,08003.0380,W,1,8,1.9,23,M,,M,,*50
05/28/2014	14:07:03.192	$GPGGA,140702,2533.8159,N,08003.0374,W,1,8,1.9,23,M,,M,,*58
05/28/2014	14:07:04.261	$GPGGA,140703,2533.8161,N,08003.0367,W,1,9,1.6,23,M,,M,,*5E
05/28/2014	14:07:05.255	$GPGGA,140704,2533.8163,N,08003.0360,W,1,9,1.6,23,M,,M,,*5C
05/28/2014	14:07:06.410	$GPGGA,140705,2533.8163,N,08003.0354,W,1,9,1.6,23,M,,M,,*5A
05/28/2014	14:07:07.469	$GPGGA,140706,2533.8163,N,08003.0348,W,1,9,1.6,23,M,,M,,*54
05/28/2014	14:07:08.549	$GPGGA,140707,2533.8166,N,08003.0341,W,1,9,1.6,24,M,,M,,*5E
05/28/2014	14:07:09.619	$GPGGA,140708,2533.8169,N,08003.0334,W,1,9,1.6,24,M,,M,,*5C
05/28/2014	14:07:10.699	$GPGGA,140709,2533.8170,N,08003.0328,W,1,9,1.6,24,M,,M,,*58
05/28/2014	14:07:11.747	$GPGGA,140710,2533.8172,N,08003.0322,W,1,9,1.6,24,M,,M,,*58
05/28/2014	14:07:12.827	$GPGGA,140711,2533.8176,N,08003.0314,W,1,9,1.6,24,M,,M,,*58
05/28/2014	14:07:13.886	$GPGGA,140712,2533.8177,N,08003.0308,W,1,9,1.6,24,M,,M,,*57
05/28/2014	14:07:14.966	$GPGGA,140713,2533.8178,N,08003.0302,W,1,9,1.6,24,M,,M,,*53
05/28/2014	14:07:16.014	$GPGGA,140714,2533.8181,N,08003.0295,W,1,9,1.6,24,M,,M,,*5D
05/28/2014	14:07:17.084	$GPGGA,140715,2533.8184,N,08003.0287,W,1,9,1.6,24,M,,M,,*5A
05/28/2014	14:07:18.151	$GPGGA,140716,2533.8187,N,08003.0280,W,1,9,1.8,24,M,,M,,*53
05/28/2014	14:07:19.264	$GPGGA,140717,2533.8188,N,08003.0274,W,1,7,2.1,24,M,,M,,*52
05/28/2014	14:07:20.282	$GPGGA,140718,2533.8191,N,08003.0266,W,1,7,1.6,24,M,,M,,*52
05/28/2014	14:07:21.360	$GPGGA,140719,2533.8194,N,08003.0259,W,1,9,1.6,24,M,,M,,*54
05/28/2014	14:07:22.431	$GPGGA,140720,2533.8196,N,08003.0253,W,1,9,1.9,24,M,,M,,*59
05/28/2014	14:07:23.501	$GPGGA,140721,2533.8199,N,08003.0245,W,1,8,1.9,24,M,,M,,*51
05/28/2014	14:07:24.557	$GPGGA,140722,2533.8203,N,08003.0238,W,1,8,1.9,24,M,,M,,*58
05/28/2014	14:07:25.648	$GPGGA,140723,2533.8203,N,08003.0234,W,1,8,1.6,24,M,,M,,*5A
05/28/2014	14:07:26.696	$GPGGA,140724,2533.8203,N,08003.0229,W,1,8,1.8,24,M,,M,,*5F
05/28/2014	14:07:27.733	$GPGGA,140725,2533.8210,N,08003.0218,W,1,8,1.8,24,M,,M,,*5E
05/28/2014	14:07:28.813	$GPGGA,140726,2533.8214,N,08003.0209,W,1,8,1.6,24,M,,M,,*57
05/28/2014	14:07:29.925	$GPGGA,140727,2533.8214,N,08003.0205,W,1,9,1.6,24,M,,M,,*5B
05/28/2014	14:07:30.963	$GPGGA,140728,2533.8214,N,08003.0200,W,1,9,2.2,24,M,,M,,*56
05/28/2014	14:07:32.043	$GPGGA,140729,2533.8214,N,08003.0196,W,1,7,2.2,24,M,,M,,*55
05/28/2014	14:07:33.092	$GPGGA,140730,2533.8216,N,08003.0192,W,1,7,1.6,24,M,,M,,*5C
05/28/2014	14:07:34.179	$GPGGA,140731,2533.8217,N,08003.0185,W,1,8,1.9,24,M,,M,,*5A
05/28/2014	14:07:35.184	$GPGGA,140732,2533.8220,N,08003.0179,W,1,8,1.6,24,M,,M,,*51
05/28/2014	14:07:36.190	$GPGGA,140733,2533.8223,N,08003.0172,W,1,8,1.9,24,M,,M,,*57
05/28/2014	14:07:37.228	$GPGGA,140734,2533.8225,N,08003.0165,W,1,8,1.9,24,M,,M,,*50
05/28/2014	14:07:38.284	$GPGGA,140735,2533.8228,N,08003.0159,W,1,7,2.2,24,M,,M,,*54
05/28/2014	14:07:39.290	$GPGGA,140736,2533.8231,N,08003.0153,W,1,7,1.9,24,M,,M,,*5D
05/28/2014	14:07:40.430	$GPGGA,140737,2533.8232,N,08003.0146,W,1,8,1.9,24,M,,M,,*54
05/28/2014	14:07:41.436	$GPGGA,140738,2533.8237,N,08003.0137,W,1,8,1.9,24,M,,M,,*58
05/28/2014	14:07:38.647	$GPGGA,140739,2533.8241,N,08003.0130,W,1,8,1.9,24,M,,M,,*5F
05/28/2014	14:07:39.551	$GPGGA,140740,2533.8242,N,08003.0123,W,1,8,1.9,24,M,,M,,*50
05/28/2014	14:07:40.577	$GPGGA,140741,2533.8246,N,08003.0115,W,1,8,1.9,24,M,,M,,*50
05/28/2014	14:07:41.593	$GPGGA,140742,2533.8250,N,08003.0107,W,1,8,1.9,24,M,,M,,*57
05/28/2014	14:07:42.620	$GPGGA,140743,2533.8253,N,08003.0100,W,1,8,1.9,24,M,,M,,*52
05/28/2014	14:07:43.770	$GPGGA,140744,2533.8257,N,08003.0092,W,1,8,1.9,24,M,,M,,*5B
05/28/2014	14:07:44.796	$GPGGA,140745,2533.8260,N,08003.0083,W,1,8,1.9,24,M,,M,,*5E
05/28/2014	14:07:45.679	$GPGGA,140746,2533.8264,N,08003.0076,W,1,8,1.9,24,M,,M,,*53
05/28/2014	14:07:46.726	$GPGGA,140747,2533.8268,N,08003.0068,W,1,8,1.9,24,M,,M,,*51
05/28/2014	14:07:47.876	$GPGGA,140748,2533.8273,N,08003.0059,W,1,8,1.9,24,M,,M,,*56
05/28/2014	14:07:48.882	$GPGGA,140749,2533.8277,N,08003.0050,W,1,8,1.9,24,M,,M,,*5A
05/28/2014	14:07:49.908	$GPGGA,140750,2533.8281,N,08003.0043,W,1,8,2.2,24,M,,M,,*51
05/28/2014	14:07:50.924	$GPGGA,140751,2533.8284,N,08003.0034,W,1,7,1.9,24,M,,M,,*52
05/28/2014	14:07:51.848	$GPGGA,140752,2533.8288,N,08003.0025,W,1,7,1.9,24,M,,M,,*5D
05/28/2014	14:07:52.967	$GPGGA,140753,2533.8293,N,08003.0016,W,1,8,2.2,24,M,,M,,*51
05/28/2014	14:07:53.984	$GPGGA,140754,2533.8293,N,08003.0009,W,1,8,1.9,24,M,,M,,*50
05/28/2014	14:07:55.020	$GPGGA,140755,2533.8297,N,08003.0001,W,1,8,1.9,23,M,,M,,*5A
05/28/2014	14:07:56.040	$GPGGA,140756,2533.8302,N,08002.9992,W,1,8,2.2,23,M,,M,,*57
05/28/2014	14:07:57.084	$GPGGA,140757,2533.8304,N,08002.9986,W,1,7,1.9,23,M,,M,,*52
05/28/2014	14:07:58.084	$GPGGA,140758,2533.8306,N,08002.9979,W,1,7,2.5,23,M,,M,,*50
05/28/2014	14:07:59.109	$GPGGA,140759,2533.8308,N,08002.9965,W,1,7,1.9,23,M,,M,,*5D
05/28/2014	14:08:00.153	$GPGGA,140800,2533.8313,N,08002.9956,W,1,7,1.9,23,M,,M,,*54
05/28/2014	14:08:01.149	$GPGGA,140801,2533.8315,N,08002.9949,W,1,8,1.9,23,M,,M,,*52
05/28/2014	14:08:02.180	$GPGGA,140802,2533.8317,N,08002.9941,W,1,8,1.6,23,M,,M,,*54
05/28/2014	14:08:03.223	$GPGGA,140803,2533.8320,N,08002.9932,W,1,9,1.6,23,M,,M,,*54
05/28/2014	14:08:04.239	$GPGGA,140804,2533.8321,N,08002.9926,W,1,9,1.8,24,M,,M,,*5E
05/28/2014	14:08:05.245	$GPGGA,140805,2533.8322,N,08002.9920,W,1,8,1.8,24,M,,M,,*5B
05/28/2014	14:08:06.285	$GPGGA,140806,2533.8326,N,08002.9912,W,1,8,1.9,24,M,,M,,*5C
05/28/2014	14:08:07.328	$GPGGA,140807,2533.8331,N,08002.9901,W,1,8,1.6,24,M,,M,,*56
05/28/2014	14:08:08.334	$GPGGA,140808,2533.8333,N,08002.9893,W,1,8,1.8,24,M,,M,,*5F
05/28/2014	14:08:09.353	$GPGGA,140809,2533.8336,N,08002.9885,W,1,8,2.2,24,M,,M,,*55
05/28/2014	14:08:10.377	$GPGGA,140810,2533.8337,N,08002.9877,W,1,8,2.3,24,M,,M,,*50
05/28/2014	14:08:11.416	$GPGGA,140811,2533.8342,N,08002.9869,W,1,6,1.8,24,M,,M,,*5A
05/28/2014	14:08:12.442	$GPGGA,140812,2533.8347,N,08002.9857,W,1,6,1.6,24,M,,M,,*5F
05/28/2014	14:08:13.479	$GPGGA,140813,2533.8353,N,08002.9845,W,1,9,1.6,24,M,,M,,*57
05/28/2014	14:08:14.474	$GPGGA,140814,2533.8358,N,08002.9834,W,1,9,1.9,24,M,,M,,*52
05/28/2014	14:08:15.531	$GPGGA,140815,2533.8362,N,08002.9824,W,1,8,1.8,24,M,,M,,*5B
05/28/2014	14:08:16.547	$GPGGA,140816,2533.8365,N,08002.9818,W,1,8,1.6,24,M,,M,,*5E
05/28/2014	14:08:17.553	$GPGGA,140817,2533.8367,N,08002.9810,W,1,9,1.6,24,M,,M,,*54
05/28/2014	14:08:18.581	$GPGGA,140818,2533.8371,N,08002.9800,W,1,9,1.8,24,M,,M,,*53
05/28/2014	14:08:19.617	$GPGGA,140819,2533.8375,N,08002.9791,W,1,8,1.8,24,M,,M,,*50
05/28/2014	14:08:20.643	$GPGGA,140820,2533.8376,N,08002.9785,W,1,8,1.9,24,M,,M,,*5D
05/28/2014	14:08:21.649	$GPGGA,140821,2533.8378,N,08002.9778,W,1,8,2.5,24,M,,M,,*5F
05/28/2014	14:08:22.677	$GPGGA,140822,2533.8380,N,08002.9770,W,1,8,1.9,24,M,,M,,*5C
05/28/2014	14:08:23.724	$GPGGA,140823,2533.8380,N,08002.9762,W,1,8,1.9,24,M,,M,,*5E
05/28/2014	14:08:24.842	$GPGGA,140824,2533.8383,N,08002.9755,W,1,8,1.9,24,M,,M,,*5E
05/28/2014	14:08:25.765	$GPGGA,140825,2533.8387,N,08002.9745,W,1,8,2.2,24,M,,M,,*52
05/28/2014	14:08:26.761	$GPGGA,140826,2533.8391,N,08002.9734,W,1,8,1.9,24,M,,M,,*58
05/28/2014	14:08:27.819	$GPGGA,140827,2533.8397,N,08002.9722,W,1,8,1.9,24,M,,M,,*58
05/28/2014	14:08:28.948	$GPGGA,140828,2533.8401,N,08002.9712,W,1,8,1.9,25,M,,M,,*5D
05/28/2014	14:08:29.841	$GPGGA,140829,2533.8408,N,08002.9701,W,1,8,1.9,25,M,,M,,*57
05/28/2014	14:08:30.980	$GPGGA,140830,2533.8412,N,08002.9691,W,1,8,1.9,24,M,,M,,*5D
05/28/2014	14:08:31.925	$GPGGA,140831,2533.8416,N,08002.9680,W,1,8,1.9,24,M,,M,,*58
05/28/2014	14:08:32.920	$GPGGA,140832,2533.8423,N,08002.9668,W,1,8,1.9,24,M,,M,,*5B
05/28/2014	14:08:33.968	$GPGGA,140833,2533.8429,N,08002.9657,W,1,7,1.9,24,M,,M,,*53
05/28/2014	14:08:35.057	$GPGGA,140834,2533.8434,N,08002.9647,W,1,7,1.9,24,M,,M,,*59
05/28/2014	14:08:36.082	$GPGGA,140835,2533.8436,N,08002.9638,W,1,8,1.9,24,M,,M,,*5D
05/28/2014	14:08:37.037	$GPGGA,140836,2533.8441,N,08002.9629,W,1,8,1.9,24,M,,M,,*5E
05/28/2014	14:08:38.137	$GPGGA,140837,2533.8445,N,08002.9619,W,1,8,1.9,24,M,,M,,*58
05/28/2014	14:08:39.162	$GPGGA,140838,2533.8447,N,08002.9611,W,1,8,1.9,24,M,,M,,*5D
05/28/2014	14:08:38.595	$GPGGA,140839,2533.8449,N,08002.9602,W,1,8,1.9,24,M,,M,,*50
05/28/2014	14:08:39.642	$GPGGA,140840,2533.8454,N,08002.9594,W,1,8,1.9,24,M,,M,,*5E
05/28/2014	14:08:40.648	$GPGGA,140841,2533.8458,N,08002.9585,W,1,8,2.2,24,M,,M,,*5B
05/28/2014	14:08:41.674	$GPGGA,140842,2533.8461,N,08002.9577,W,1,8,1.9,24,M,,M,,*57
05/28/2014	14:08:42.684	$GPGGA,140843,2533.8463,N,08002.9568,W,1,8,1.9,24,M,,M,,*5A
05/28/2014	14:08:43.727	$GPGGA,140844,2533.8466,N,08002.9560,W,1,8,1.9,24,M,,M,,*50
05/28/2014	14:08:44.774	$GPGGA,140845,2533.8469,N,08002.9553,W,1,8,1.9,24,M,,M,,*5E
05/28/2014	14:08:45.759	$GPGGA,140846,2533.8470,N,08002.9546,W,1,8,1.9,24,M,,M,,*51
05/28/2014	14:08:46.807	$GPGGA,140847,2533.8470,N,08002.9539,W,1,8,1.9,24,M,,M,,*58
05/28/2014	14:08:47.833	$GPGGA,140848,2533.8474,N,08002.9532,W,1,8,1.9,24,M,,M,,*58
05/28/2014	14:08:48.849	$GPGGA,140849,2533.8477,N,08002.9523,W,1,8,1.9,24,M,,M,,*5A
05/28/2014	14:08:49.862	$GPGGA,140850,2533.8479,N,08002.9515,W,1,8,1.9,24,M,,M,,*59
05/28/2014	14:08:50.903	$GPGGA,140851,2533.8481,N,08002.9508,W,1,8,1.9,24,M,,M,,*53
05/28/2014	14:08:51.922	$GPGGA,140852,2533.8485,N,08002.9501,W,1,8,1.9,24,M,,M,,*5D
05/28/2014	14:08:52.947	$GPGGA,140853,2533.8488,N,08002.9492,W,1,8,1.9,24,M,,M,,*5A
05/28/2014	14:08:53.965	$GPGGA,140854,2533.8491,N,08002.9485,W,1,8,1.9,24,M,,M,,*53
05/28/2014	14:08:55.000	$GPGGA,140855,2533.8495,N,08002.9477,W,1,8,1.9,24,M,,M,,*5B
05/28/2014	14:08:56.005	$GPGGA,140856,2533.8501,N,08002.9468,W,1,8,1.9,24,M,,M,,*5A
05/28/2014	14:08:57.032	$GPGGA,140857,2533.8500,N,08002.9462,W,1,7,2.2,25,M,,M,,*56
05/28/2014	14:08:58.058	$GPGGA,140858,2533.8503,N,08002.9455,W,1,7,1.9,25,M,,M,,*56
05/28/2014	14:08:59.095	$GPGGA,140859,2533.8510,N,08002.9445,W,1,7,2.2,25,M,,M,,*5C
05/28/2014	14:09:00.121	$GPGGA,140900,2533.8514,N,08002.9434,W,1,7,2.2,25,M,,M,,*53
05/28/2014	14:09:01.159	$GPGGA,140901,2533.8517,N,08002.9426,W,1,6,2.3,25,M,,M,,*52
05/28/2014	14:09:02.154	$GPGGA,140902,2533.8521,N,08002.9417,W,1,6,1.9,25,M,,M,,*5F
05/28/2014	14:09:03.190	$GPGGA,140903,2533.8523,N,08002.9410,W,1,7,1.9,25,M,,M,,*5A
05/28/2014	14:09:04.206	$GPGGA,140904,2533.8528,N,08002.9399,W,1,7,1.6,25,M,,M,,*5F
05/28/2014	14:09:06.650	$GPGGA,140905,2533.8532,N,08002.9390,W,1,7,2.2,25,M,,M,,*5B
05/28/2014	14:09:06.682	$GPGGA,140906,2533.8535,N,08002.9383,W,1,7,2.2,25,M,,M,,*5D
05/28/2014	14:09:07.307	$GPGGA,140907,2533.8541,N,08002.9375,W,1,7,1.9,25,M,,M,,*5E
05/28/2014	14:09:08.314	$GPGGA,140908,2533.8545,N,08002.9363,W,1,7,2.1,25,M,,M,,*59
05/28/2014	14:09:09.339	$GPGGA,140909,2533.8549,N,08002.9356,W,1,9,1.6,25,M,,M,,*58
05/28/2014	14:09:10.335	$GPGGA,140910,2533.8553,N,08002.9346,W,1,9,1.6,25,M,,M,,*5A
05/28/2014	14:09:11.394	$GPGGA,140911,2533.8556,N,08002.9339,W,1,8,1.6,25,M,,M,,*57
05/28/2014	14:09:12.399	$GPGGA,140912,2533.8557,N,08002.9335,W,1,8,1.8,25,M,,M,,*57
05/28/2014	14:09:13.415	$GPGGA,140913,2533.8557,N,08002.9330,W,1,8,1.9,25,M,,M,,*52
05/28/2014	14:09:14.462	$GPGGA,140914,2533.8560,N,08002.9322,W,1,8,1.6,25,M,,M,,*5D
05/28/2014	14:09:15.468	$GPGGA,140915,2533.8564,N,08002.9314,W,1,8,1.9,25,M,,M,,*52
05/28/2014	14:09:16.618	$GPGGA,140916,2533.8568,N,08002.9306,W,1,8,2.2,25,M,,M,,*56
05/28/2014	14:09:17.531	$GPGGA,140917,2533.8570,N,08002.9299,W,1,7,2.2,25,M,,M,,*56
05/28/2014	14:09:18.639	$GPGGA,140918,2533.8575,N,08002.9291,W,1,7,1.8,25,M,,M,,*5D
05/28/2014	14:09:19.697	$GPGGA,140919,2533.8579,N,08002.9282,W,1,9,1.6,25,M,,M,,*52
05/28/2014	14:09:20.621	$GPGGA,140920,2533.8582,N,08002.9279,W,1,9,1.9,25,M,,M,,*57
05/28/2014	14:09:21.750	$GPGGA,140921,2533.8584,N,08002.9268,W,1,7,2.5,25,M,,M,,*51
05/28/2014	14:09:22.664	$GPGGA,140922,2533.8586,N,08002.9257,W,1,7,2.3,25,M,,M,,*5A
05/28/2014	14:09:23.670	$GPGGA,140923,2533.8589,N,08002.9250,W,1,8,1.9,25,M,,M,,*55
05/28/2014	14:09:24.799	$GPGGA,140924,2533.8593,N,08002.9242,W,1,8,1.9,25,M,,M,,*5A
05/28/2014	14:09:25.836	$GPGGA,140925,2533.8596,N,08002.9233,W,1,7,2.5,25,M,,M,,*58
05/28/2014	14:09:26.832	$GPGGA,140926,2533.8600,N,08002.9226,W,1,7,1.9,25,M,,M,,*5C
05/28/2014	14:09:27.899	$GPGGA,140927,2533.8603,N,08002.9218,W,1,8,1.9,25,M,,M,,*5C
05/28/2014	14:09:28.803	$GPGGA,140928,2533.8609,N,08002.9208,W,1,8,2.5,25,M,,M,,*57
05/28/2014	14:09:29.943	$GPGGA,140929,2533.8611,N,08002.9201,W,1,7,2.2,25,M,,M,,*5E
05/28/2014	14:09:30.931	$GPGGA,140930,2533.8614,N,08002.9192,W,1,7,1.9,25,M,,M,,*52
05/28/2014	14:09:31.985	$GPGGA,140931,2533.8618,N,08002.9185,W,1,8,1.9,25,M,,M,,*56
05/28/2014	14:09:33.012	$GPGGA,140932,2533.8622,N,08002.9175,W,1,8,1.9,25,M,,M,,*53
05/28/2014	14:09:34.028	$GPGGA,140933,2533.8624,N,08002.9166,W,1,8,1.9,26,M,,M,,*55
05/28/2014	14:09:35.051	$GPGGA,140934,2533.8628,N,08002.9158,W,1,8,1.9,26,M,,M,,*53
05/28/2014	14:09:36.082	$GPGGA,140935,2533.8632,N,08002.9150,W,1,8,1.9,26,M,,M,,*51
05/28/2014	14:09:37.107	$GPGGA,140936,2533.8635,N,08002.9140,W,1,8,1.9,26,M,,M,,*54
05/28/2014	14:09:38.129	$GPGGA,140937,2533.8639,N,08002.9132,W,1,8,1.9,26,M,,M,,*5C
05/28/2014	14:09:39.134	$GPGGA,140938,2533.8643,N,08002.9123,W,1,8,1.9,26,M,,M,,*5E
05/28/2014	14:09:38.573	$GPGGA,140939,2533.8647,N,08002.9114,W,1,8,1.9,26,M,,M,,*5F
05/28/2014	14:09:39.598	$GPGGA,140940,2533.8651,N,08002.9105,W,1,8,1.9,26,M,,M,,*56
05/28/2014	14:09:40.635	$GPGGA,140941,2533.8654,N,08002.9096,W,1,8,1.9,26,M,,M,,*59
05/28/2014	14:09:41.643	$GPGGA,140942,2533.8658,N,08002.9087,W,1,8,1.9,26,M,,M,,*56
05/28/2014	14:09:42.667	$GPGGA,140943,2533.8661,N,08002.9077,W,1,8,1.9,26,M,,M,,*52
05/28/2014	14:09:43.704	$GPGGA,140944,2533.8665,N,08002.9068,W,1,8,1.9,27,M,,M,,*5E
05/28/2014	14:09:44.711	$GPGGA,140945,2533.8668,N,08002.9060,W,1,8,1.9,27,M,,M,,*5A
05/28/2014	14:09:45.737	$GPGGA,140946,2533.8672,N,08002.9050,W,1,8,1.9,27,M,,M,,*51
05/28/2014	14:09:46.763	$GPGGA,140947,2533.8678,N,08002.9040,W,1,7,2.2,27,M,,M,,*5C
05/28/2014	14:09:47.800	$GPGGA,140948,2533.8682,N,08002.9030,W,1,7,1.9,27,M,,M,,*59
05/28/2014	14:09:48.827	$GPGGA,140949,2533.8685,N,08002.9021,W,1,8,1.9,27,M,,M,,*50
05/28/2014	14:09:49.823	$GPGGA,140950,2533.8689,N,08002.9013,W,1,8,1.9,27,M,,M,,*55
05/28/2014	14:09:50.870	$GPGGA,140951,2533.8693,N,08002.9005,W,1,8,1.9,27,M,,M,,*58
05/28/2014	14:09:51.896	$GPGGA,140952,2533.8696,N,08002.8996,W,1,8,1.9,27,M,,M,,*5C
05/28/2014	14:09:52.922	$GPGGA,140953,2533.8698,N,08002.8987,W,1,8,1.9,27,M,,M,,*53
05/28/2014	14:09:53.938	$GPGGA,140954,2533.8704,N,08002.8980,W,1,8,1.9,27,M,,M,,*57
05/28/2014	14:09:54.975	$GPGGA,140955,2533.8708,N,08002.8971,W,1,8,1.9,27,M,,M,,*54
05/28/2014	14:09:55.992	$GPGGA,140956,2533.8712,N,08002.8962,W,1,8,1.9,27,M,,M,,*5E
05/28/2014	14:09:57.028	$GPGGA,140957,2533.8716,N,08002.8955,W,1,7,2.2,27,M,,M,,*58
05/28/2014	14:09:58.014	$GPGGA,140958,2533.8722,N,08002.8946,W,1,7,2.9,27,M,,M,,*59
05/28/2014	14:09:59.051	$GPGGA,140959,2533.8726,N,08002.8936,W,1,9,1.6,27,M,,M,,*59
05/28/2014	14:10:00.098	$GPGGA,141000,2533.8730,N,08002.8927,W,1,9,1.9,27,M,,M,,*55
05/28/2014	14:10:01.135	$GPGGA,141001,2533.8734,N,08002.8920,W,1,7,2.2,27,M,,M,,*51
05/28/2014	14:10:02.120	$GPGGA,141002,2533.8736,N,08002.8912,W,1,7,1.9,27,M,,M,,*59
05/28/2014	14:10:03.188	$GPGGA,141003,2533.8740,N,08002.8904,W,1,8,1.9,27,M,,M,,*51
05/28/2014	14:10:04.194	$GPGGA,141004,2533.8744,N,08002.8896,W,1,8,1.9,27,M,,M,,*58
05/28/2014	14:10:05.210	$GPGGA,141005,2533.8748,N,08002.8886,W,1,7,2.2,27,M,,M,,*53
05/28/2014	14:10:06.227	$GPGGA,141006,2533.8752,N,08002.8878,W,1,7,1.6,27,M,,M,,*5D
05/28/2014	14:10:07.243	$GPGGA,141007,2533.8755,N,08002.8870,W,1,9,1.6,27,M,,M,,*5D
05/28/2014	14:10:08.291	$GPGGA,141008,2533.8759,N,08002.8862,W,1,9,1.8,27,M,,M,,*53
05/28/2014	14:10:09.337	$GPGGA,141009,2533.8763,N,08002.8854,W,1,7,2.2,27,M,,M,,*59
05/28/2014	14:10:10.332	$GPGGA,141010,2533.8766,N,08002.8846,W,1,7,2.2,27,M,,M,,*57
05/28/2014	14:10:11.359	$GPGGA,141011,2533.8768,N,08002.8839,W,1,7,2.2,27,M,,M,,*50
05/28/2014	14:10:12.385	$GPGGA,141012,2533.8772,N,08002.8831,W,1,7,1.9,27,M,,M,,*58
05/28/2014	14:10:13.412	$GPGGA,141013,2533.8774,N,08002.8821,W,1,7,2.2,27,M,,M,,*56
05/28/2014	14:10:14.409	$GPGGA,141014,2533.8776,N,08002.8813,W,1,7,2.2,26,M,,M,,*53
05/28/2014	14:10:15.434	$GPGGA,141015,2533.8779,N,08002.8804,W,1,8,1.8,26,M,,M,,*5D
05/28/2014	14:10:16.605	$GPGGA,141016,2533.8783,N,08002.8795,W,1,8,1.9,26,M,,M,,*5D
05/28/2014	14:10:17.487	$GPGGA,141017,2533.8784,N,08002.8787,W,1,7,2.2,26,M,,M,,*5F
05/28/2014	14:10:18.606	$GPGGA,141018,2533.8788,N,08002.8775,W,1,7,1.8,26,M,,M,,*58
05/28/2014	14:10:19.530	$GPGGA,141019,2533.8790,N,08002.8767,W,1,8,1.6,26,M,,M,,*52
05/28/2014	14:10:20.567	$GPGGA,141020,2533.8794,N,08002.8759,W,1,8,1.8,26,M,,M,,*5F
05/28/2014	14:10:21.594	$GPGGA,141021,2533.8795,N,08002.8750,W,1,9,1.6,26,M,,M,,*59
05/28/2014	14:10:22.620	$GPGGA,141022,2533.8798,N,08002.8742,W,1,9,1.6,26,M,,M,,*54
05/28/2014	14:10:23.739	$GPGGA,141023,2533.8801,N,08002.8734,W,1,9,1.6,26,M,,M,,*5B
05/28/2014	14:10:24.776	$GPGGA,141024,2533.8803,N,08002.8727,W,1,9,1.8,26,M,,M,,*52
05/28/2014	14:10:25.700	$GPGGA,141025,2533.8806,N,08002.8719,W,1,8,1.8,26,M,,M,,*5A
05/28/2014	14:10:26.809	$GPGGA,141026,2533.8809,N,08002.8711,W,1,8,1.8,26,M,,M,,*5E
05/28/2014	14:10:27.835	$GPGGA,141027,2533.8810,N,08002.8703,W,1,7,2.2,26,M,,M,,*52
05/28/2014	14:10:28.871	$GPGGA,141028,2533.8815,N,08002.8694,W,1,7,1.8,26,M,,M,,*5E
05/28/2014	14:10:29.898	$GPGGA,141029,2533.8817,N,08002.8686,W,1,8,1.8,26,M,,M,,*51
05/28/2014	14:10:30.915	$GPGGA,141030,2533.8820,N,08002.8678,W,1,8,1.8,26,M,,M,,*5C
05/28/2014	14:10:31.931	$GPGGA,141031,2533.8821,N,08002.8670,W,1,8,1.8,26,M,,M,,*54
05/28/2014	14:10:32.969	$GPGGA,141032,2533.8826,N,08002.8660,W,1,8,1.8,25,M,,M,,*52
05/28/2014	14:10:33.994	$GPGGA,141033,2533.8828,N,08002.8651,W,1,8,1.8,25,M,,M,,*5F
05/28/2014	14:10:35.001	$GPGGA,141034,2533.8831,N,08002.8643,W,1,8,1.8,25,M,,M,,*53
05/28/2014	14:10:36.074	$GPGGA,141035,2533.8835,N,08002.8634,W,1,8,1.8,25,M,,M,,*56
05/28/2014	14:10:37.074	$GPGGA,141036,2533.8838,N,08002.8627,W,1,8,2.1,25,M,,M,,*50
05/28/2014	14:10:38.126	$GPGGA,141037,2533.8842,N,08002.8619,W,1,7,2.2,25,M,,M,,*5D
05/28/2014	14:10:39.117	$GPGGA,141038,2533.8846,N,08002.8609,W,1,7,1.8,25,M,,M,,*5E
05/28/2014	14:10:38.551	$GPGGA,141039,2533.8849,N,08002.8601,W,1,8,1.8,25,M,,M,,*57
05/28/2014	14:10:39.576	$GPGGA,141040,2533.8850,N,08002.8594,W,1,8,1.8,25,M,,M,,*5E
05/28/2014	14:10:40.603	$GPGGA,141041,2533.8853,N,08002.8585,W,1,8,1.8,25,M,,M,,*5C
05/28/2014	14:10:41.609	$GPGGA,141042,2533.8859,N,08002.8575,W,1,8,1.8,25,M,,M,,*5A
05/28/2014	14:10:42.656	$GPGGA,141043,2533.8863,N,08002.8566,W,1,8,1.8,25,M,,M,,*50
05/28/2014	14:10:43.684	$GPGGA,141044,2533.8866,N,08002.8557,W,1,8,1.8,25,M,,M,,*50
05/28/2014	14:10:44.677	$GPGGA,141045,2533.8870,N,08002.8548,W,1,8,1.8,25,M,,M,,*58
05/28/2014	14:10:45.735	$GPGGA,141046,2533.8874,N,08002.8538,W,1,8,1.8,25,M,,M,,*58
05/28/2014	14:10:46.761	$GPGGA,141047,2533.8875,N,08002.8529,W,1,8,1.8,25,M,,M,,*58
05/28/2014	14:10:47.778	$GPGGA,141048,2533.8880,N,08002.8520,W,1,8,1.9,25,M,,M,,*55
05/28/2014	14:10:48.834	$GPGGA,141049,2533.8885,N,08002.8511,W,1,8,1.8,25,M,,M,,*52
05/28/2014	14:10:49.800	$GPGGA,141050,2533.8886,N,08002.8501,W,1,8,2.2,25,M,,M,,*51
05/28/2014	14:10:50.858	$GPGGA,141051,2533.8889,N,08002.8492,W,1,8,1.8,25,M,,M,,*5D
05/28/2014	14:10:51.874	$GPGGA,141052,2533.8895,N,08002.8482,W,1,8,1.8,26,M,,M,,*51
05/28/2014	14:10:52.900	$GPGGA,141053,2533.8899,N,08002.8473,W,1,7,1.9,26,M,,M,,*5C
05/28/2014	14:10:54.073	$GPGGA,141054,2533.8902,N,08002.8465,W,1,7,1.6,26,M,,M,,*50
05/28/2014	14:10:54.943	$GPGGA,141055,2533.8904,N,08002.8455,W,1,8,1.7,26,M,,M,,*5A
05/28/2014	14:10:55.970	$GPGGA,141056,2533.8907,N,08002.8448,W,1,8,1.8,26,M,,M,,*59
05/28/2014	14:10:56.976	$GPGGA,141057,2533.8911,N,08002.8440,W,1,8,1.8,26,M,,M,,*57
05/28/2014	14:10:58.013	$GPGGA,141058,2533.8914,N,08002.8429,W,1,8,2.1,26,M,,M,,*58
05/28/2014	14:10:59.039	$GPGGA,141059,2533.8918,N,08002.8420,W,1,8,1.8,26,M,,M,,*56
05/28/2014	14:11:00.241	$GPGGA,141100,2533.8922,N,08002.8412,W,1,8,1.8,26,M,,M,,*53
05/28/2014	14:11:01.071	$GPGGA,141101,2533.8925,N,08002.8403,W,1,8,1.8,26,M,,M,,*55
05/28/2014	14:11:02.088	$GPGGA,141102,2533.8929,N,08002.8393,W,1,8,1.8,26,M,,M,,*54
05/28/2014	14:11:03.121	$GPGGA,141103,2533.8931,N,08002.8388,W,1,7,2.2,26,M,,M,,*50
05/28/2014	14:11:04.171	$GPGGA,141104,2533.8932,N,08002.8380,W,1,7,1.8,26,M,,M,,*55
05/28/2014	14:11:05.321	$GPGGA,141105,2533.8935,N,08002.8372,W,1,8,1.8,26,M,,M,,*51
05/28/2014	14:11:06.185	$GPGGA,141106,2533.8940,N,08002.8362,W,1,8,1.8,26,M,,M,,*51
05/28/2014	14:11:07.213	$GPGGA,141107,2533.8943,N,08002.8353,W,1,7,2.2,26,M,,M,,*57
05/28/2014	14:11:08.433	$GPGGA,141108,2533.8943,N,08002.8345,W,1,7,2.2,26,M,,M,,*5F
05/28/2014	14:11:09.407	$GPGGA,141109,2533.8949,N,08002.8337,W,1,9,1.8,27,M,,M,,*57
05/28/2014	14:11:10.465	$GPGGA,141110,2533.8953,N,08002.8327,W,1,9,1.8,27,M,,M,,*55
05/28/2014	14:11:11.327	$GPGGA,141111,2533.8956,N,08002.8319,W,1,8,1.8,27,M,,M,,*5D
05/28/2014	14:11:12.456	$GPGGA,141112,2533.8958,N,08002.8311,W,1,8,1.8,27,M,,M,,*58
05/28/2014	14:11:13.514	$GPGGA,141113,2533.8962,N,08002.8302,W,1,8,1.8,27,M,,M,,*52
05/28/2014	14:11:14.489	$GPGGA,141114,2533.8968,N,08002.8293,W,1,8,1.8,27,M,,M,,*56
05/28/2014	14:11:15.517	$GPGGA,141115,2533.8969,N,08002.8285,W,1,7,2.2,27,M,,M,,*57
05/28/2014	14:11:16.542	$GPGGA,141116,2533.8972,N,08002.8275,W,1,7,1.8,27,M,,M,,*58
05/28/2014	14:11:17.558	$GPGGA,141117,2533.8978,N,08002.8266,W,1,8,1.8,27,M,,M,,*5E
05/28/2014	14:11:18.586	$GPGGA,141118,2533.8983,N,08002.8258,W,1,8,1.8,27,M,,M,,*58
05/28/2014	14:11:19.642	$GPGGA,141119,2533.8983,N,08002.8248,W,1,8,2.2,27,M,,M,,*51
05/28/2014	14:11:20.637	$GPGGA,141120,2533.8989,N,08002.8239,W,1,8,2.2,27,M,,M,,*57
05/28/2014	14:11:21.705	$GPGGA,141121,2533.8996,N,08002.8230,W,1,9,1.6,27,M,,M,,*57
05/28/2014	14:11:22.680	$GPGGA,141122,2533.8998,N,08002.8221,W,1,9,1.6,27,M,,M,,*5A
05/28/2014	14:11:23.758	$GPGGA,141123,2533.9003,N,08002.8212,W,1,8,1.8,27,M,,M,,*5E
05/28/2014	14:11:24.805	$GPGGA,141124,2533.9005,N,08002.8205,W,1,8,1.8,27,M,,M,,*59
05/28/2014	14:11:25.801	$GPGGA,141125,2533.9007,N,08002.8197,W,1,8,1.8,27,M,,M,,*52
05/28/2014	14:11:26.786	$GPGGA,141126,2533.9011,N,08002.8189,W,1,8,1.8,27,M,,M,,*59
05/28/2014	14:11:27.854	$GPGGA,141127,2533.9012,N,08002.8181,W,1,8,1.9,27,M,,M,,*52
05/28/2014	14:11:28.911	$GPGGA,141128,2533.9016,N,08002.8173,W,1,8,1.9,27,M,,M,,*54
05/28/2014	14:11:29.948	$GPGGA,141129,2533.9019,N,08002.8164,W,1,8,1.8,27,M,,M,,*5D
05/28/2014	14:11:30.872	$GPGGA,141130,2533.9023,N,08002.8155,W,1,8,1.8,27,M,,M,,*5E
05/28/2014	14:11:31.930	$GPGGA,141131,2533.9026,N,08002.8146,W,1,8,1.8,27,M,,M,,*58
05/28/2014	14:11:33.018	$GPGGA,141132,2533.9030,N,08002.8137,W,1,8,1.8,27,M,,M,,*5A
05/28/2014	14:11:33.952	$GPGGA,141133,2533.9033,N,08002.8127,W,1,8,1.8,27,M,,M,,*59
05/28/2014	14:11:35.042	$GPGGA,141134,2533.9037,N,08002.8118,W,1,8,2.1,27,M,,M,,*5C
05/28/2014	14:11:35.995	$GPGGA,141135,2533.9037,N,08002.8107,W,1,7,2.1,27,M,,M,,*5C
05/28/2014	14:11:37.099	$GPGGA,141136,2533.9039,N,08002.8095,W,1,7,1.7,27,M,,M,,*5E
05/28/2014	14:11:38.112	$GPGGA,141137,2533.9041,N,08002.8085,W,1,8,2.5,27,M,,M,,*5F
05/28/2014	14:11:39.146	$GPGGA,141138,2533.9047,N,08002.8075,W,1,8,2.5,27,M,,M,,*59
05/28/2014	14:11:38.505	$GPGGA,141139,2533.9051,N,08002.8066,W,1,8,1.8,27,M,,M,,*53
05/28/2014	14:11:39.542	$GPGGA,141140,2533.9052,N,08002.8054,W,1,8,1.7,27,M,,M,,*50
05/28/2014	14:11:40.579	$GPGGA,141141,2533.9055,N,08002.8046,W,1,8,1.8,27,M,,M,,*5A
05/28/2014	14:11:41.698	$GPGGA,141142,2533.9059,N,08002.8036,W,1,8,1.6,27,M,,M,,*5C
05/28/2014	14:11:44.140	$GPGGA,141144,2533.9068,N,08002.8016,W,1,9,1.8,27,M,,M,,*55
05/28/2014	14:11:44.644	$GPGGA,141145,2533.9073,N,08002.8005,W,1,8,1.8,27,M,,M,,*5D
05/28/2014	14:11:45.745	$GPGGA,141146,2533.9079,N,08002.7995,W,1,8,1.4,27,M,,M,,*57
05/28/2014	14:11:46.821	$GPGGA,141147,2533.9081,N,08002.7986,W,1,9,1.5,27,M,,M,,*53
05/28/2014	14:11:47.796	$GPGGA,141148,2533.9084,N,08002.7977,W,1,9,1.5,27,M,,M,,*57
05/28/2014	14:11:48.782	$GPGGA,141149,2533.9088,N,08002.7968,W,1,8,1.8,27,M,,M,,*58
05/28/2014	14:11:49.767	$GPGGA,141150,2533.9092,N,08002.7959,W,1,8,1.8,27,M,,M,,*59
05/28/2014	14:11:50.794	$GPGGA,141151,2533.9097,N,08002.7950,W,1,8,1.8,27,M,,M,,*54
05/28/2014	14:11:51.905	$GPGGA,141152,2533.9099,N,08002.7941,W,1,8,1.4,27,M,,M,,*55
05/28/2014	14:11:52.909	$GPGGA,141153,2533.9102,N,08002.7932,W,1,9,1.8,27,M,,M,,*5E
