Software Version Number: 1	Data File Format Number: 1	Build Version Number: 1	Error Count Since VI Started: 0	Manufacturer: Raytheon	 Model Number: RayMarine 120	 S/N: 	 Cal Date: 	 Wind Direction Offset: 0.00	 Slope (M)1: 0.00	 Offset (B)1: 0.00	 Slope (M)2: 0.00	 Offset (B)2: 0.00	 Slope (M)3: 0.00	 Offset (B)3: 0.00	 Slope (M)4: 0.00	 Offset (B)4: 0.00	 Slope (M)5: 0.00	 Offset (B)5: 0.00	 Slope (M)6: 0.00	 Offset (B)6: 0.00
Computer Date	Computer Time	GGA String
06/13/2014	02:00:00.719	$GPGGA,020000,2515.5101,N,08004.7218,W,1,9,1.6,24,M,,M,,*5C
06/13/2014	02:00:01.873	$GPGGA,020001,2515.5095,N,08004.7220,W,1,9,1.6,24,M,,M,,*5A
06/13/2014	02:00:02.894	$GPGGA,020002,2515.5089,N,08004.7223,W,1,9,1.6,24,M,,M,,*57
06/13/2014	02:00:03.928	$GPGGA,020003,2515.5085,N,08004.7229,W,1,9,1.6,24,M,,M,,*50
06/13/2014	02:00:05.035	$GPGGA,020004,2515.5078,N,08004.7232,W,1,9,1.6,24,M,,M,,*5F
06/13/2014	02:00:06.133	$GPGGA,020005,2515.5073,N,08004.7233,W,1,9,1.6,24,M,,M,,*54
06/13/2014	02:00:07.193	$GPGGA,020006,2515.5069,N,08004.7237,W,1,9,1.6,24,M,,M,,*58
06/13/2014	02:00:08.303	$GPGGA,020007,2515.5062,N,08004.7241,W,1,9,1.6,24,M,,M,,*53
06/13/2014	02:00:09.377	$GPGGA,020008,2515.5056,N,08004.7244,W,1,9,1.6,24,M,,M,,*5E
06/13/2014	02:00:10.456	$GPGGA,020009,2515.5051,N,08004.7248,W,1,9,1.6,24,M,,M,,*54
06/13/2014	02:00:11.508	$GPGGA,020010,2515.5045,N,08004.7251,W,1,9,1.6,24,M,,M,,*51
06/13/2014	02:00:12.627	$GPGGA,020011,2515.5040,N,08004.7255,W,1,9,1.6,24,M,,M,,*51
06/13/2014	02:00:13.699	$GPGGA,020012,2515.5033,N,08004.7259,W,1,9,1.6,24,M,,M,,*5A
06/13/2014	02:00:14.795	$GPGGA,020013,2515.5027,N,08004.7262,W,1,9,1.6,24,M,,M,,*56
06/13/2014	02:00:15.858	$GPGGA,020014,2515.5022,N,08004.7266,W,1,9,1.6,24,M,,M,,*50
06/13/2014	02:00:16.954	$GPGGA,020015,2515.5015,N,08004.7269,W,1,9,1.6,24,M,,M,,*5A
06/13/2014	02:00:18.039	$GPGGA,020016,2515.5009,N,08004.7272,W,1,9,1.6,24,M,,M,,*5E
06/13/2014	02:00:19.113	$GPGGA,020017,2515.5004,N,08004.7276,W,1,9,1.6,24,M,,M,,*56
06/13/2014	02:00:20.197	$GPGGA,020018,2515.4997,N,08004.7280,W,1,9,1.6,24,M,,M,,*52
06/13/2014	02:00:21.293	$GPGGA,020019,2515.4991,N,08004.7283,W,1,9,1.6,24,M,,M,,*56
06/13/2014	02:00:22.367	$GPGGA,020020,2515.4986,N,08004.7287,W,1,9,1.6,24,M,,M,,*5E
06/13/2014	02:00:23.452	$GPGGA,020021,2515.4979,N,08004.7290,W,1,9,1.6,24,M,,M,,*59
06/13/2014	02:00:24.537	$GPGGA,020022,2515.4973,N,08004.7294,W,1,9,1.6,24,M,,M,,*54
06/13/2014	02:00:25.600	$GPGGA,020023,2515.4968,N,08004.7296,W,1,9,1.9,24,M,,M,,*52
06/13/2014	02:00:26.804	$GPGGA,020024,2515.4962,N,08004.7301,W,1,9,1.9,24,M,,M,,*50
06/13/2014	02:00:27.878	$GPGGA,020025,2515.4955,N,08004.7303,W,1,9,1.6,24,M,,M,,*58
06/13/2014	02:00:28.853	$GPGGA,020026,2515.4949,N,08004.7306,W,1,9,1.6,24,M,,M,,*53
06/13/2014	02:00:30.015	$GPGGA,020027,2515.4943,N,08004.7309,W,1,9,1.6,24,M,,M,,*57
06/13/2014	02:00:31.131	$GPGGA,020028,2515.4936,N,08004.7312,W,1,9,1.6,24,M,,M,,*50
06/13/2014	02:00:32.097	$GPGGA,020029,2515.4930,N,08004.7316,W,1,9,1.6,24,M,,M,,*53
06/13/2014	02:00:33.268	$GPGGA,020030,2515.4924,N,08004.7319,W,1,9,1.9,24,M,,M,,*5E
06/13/2014	02:00:34.386	$GPGGA,020031,2515.4918,N,08004.7323,W,1,8,1.9,23,M,,M,,*5F
06/13/2014	02:00:35.362	$GPGGA,020032,2515.4911,N,08004.7327,W,1,8,1.6,23,M,,M,,*5E
06/13/2014	02:00:36.533	$GPGGA,020033,2515.4906,N,08004.7330,W,1,9,1.6,23,M,,M,,*5E
06/13/2014	02:00:37.597	$GPGGA,020034,2515.4899,N,08004.7332,W,1,9,1.6,23,M,,M,,*5C
06/13/2014	02:00:38.681	$GPGGA,020035,2515.4893,N,08004.7335,W,1,9,1.6,23,M,,M,,*50
06/13/2014	02:00:39.777	$GPGGA,020036,2515.4886,N,08004.7338,W,1,9,1.6,23,M,,M,,*5A
06/13/2014	02:00:40.851	$GPGGA,020037,2515.4881,N,08004.7341,W,1,9,1.6,23,M,,M,,*52
06/13/2014	02:00:41.936	$GPGGA,020038,2515.4874,N,08004.7342,W,1,9,1.6,23,M,,M,,*54
06/13/2014	02:00:43.010	$GPGGA,020039,2515.4868,N,08004.7346,W,1,9,1.9,23,M,,M,,*53
06/13/2014	02:00:44.117	$GPGGA,020040,2515.4863,N,08004.7350,W,1,9,1.9,23,M,,M,,*51
06/13/2014	02:00:45.180	$GPGGA,020041,2515.4855,N,08004.7352,W,1,9,1.6,23,M,,M,,*58
06/13/2014	02:00:46.275	$GPGGA,020042,2515.4849,N,08004.7355,W,1,9,1.6,23,M,,M,,*51
06/13/2014	02:00:47.370	$GPGGA,020043,2515.4845,N,08004.7359,W,1,8,1.9,23,M,,M,,*5E
06/13/2014	02:00:48.433	$GPGGA,020044,2515.4838,N,08004.7361,W,1,8,1.6,23,M,,M,,*57
06/13/2014	02:00:49.528	$GPGGA,020045,2515.4831,N,08004.7364,W,1,9,1.6,23,M,,M,,*5B
06/13/2014	02:00:50.603	$GPGGA,020046,2515.4827,N,08004.7368,W,1,9,1.9,23,M,,M,,*5C
06/13/2014	02:00:46.612	$GPGGA,020047,2515.4820,N,08004.7370,W,1,8,1.6,23,M,,M,,*5D
06/13/2014	02:00:47.686	$GPGGA,020048,2515.4813,N,08004.7373,W,1,8,1.6,23,M,,M,,*51
06/13/2014	02:00:48.771	$GPGGA,020049,2515.4806,N,08004.7374,W,1,9,1.6,23,M,,M,,*52
06/13/2014	02:00:49.845	$GPGGA,020050,2515.4801,N,08004.7377,W,1,9,1.6,23,M,,M,,*5E
06/13/2014	02:00:50.942	$GPGGA,020051,2515.4795,N,08004.7378,W,1,9,1.6,23,M,,M,,*52
06/13/2014	02:00:52.014	$GPGGA,020052,2515.4789,N,08004.7381,W,1,9,1.6,23,M,,M,,*5A
06/13/2014	02:00:53.077	$GPGGA,020053,2515.4782,N,08004.7382,W,1,9,1.6,24,M,,M,,*54
06/13/2014	02:00:54.173	$GPGGA,020054,2515.4777,N,08004.7384,W,1,9,1.6,24,M,,M,,*5F
06/13/2014	02:00:55.269	$GPGGA,020055,2515.4771,N,08004.7388,W,1,8,1.7,24,M,,M,,*54
06/13/2014	02:00:56.357	$GPGGA,020056,2515.4763,N,08004.7389,W,1,8,1.7,24,M,,M,,*55
06/13/2014	02:00:57.417	$GPGGA,020057,2515.4758,N,08004.7392,W,1,9,1.6,24,M,,M,,*56
06/13/2014	02:00:58.501	$GPGGA,020058,2515.4752,N,08004.7396,W,1,9,1.6,24,M,,M,,*57
06/13/2014	02:00:59.575	$GPGGA,020059,2515.4748,N,08004.7399,W,1,8,1.7,24,M,,M,,*52
06/13/2014	02:01:00.697	$GPGGA,020100,2515.4742,N,08004.7402,W,1,8,1.6,24,M,,M,,*51
06/13/2014	02:01:01.781	$GPGGA,020101,2515.4736,N,08004.7406,W,1,9,1.6,24,M,,M,,*56
06/13/2014	02:01:02.829	$GPGGA,020102,2515.4729,N,08004.7406,W,1,9,1.7,24,M,,M,,*5A
06/13/2014	02:01:03.957	$GPGGA,020103,2515.4723,N,08004.7410,W,1,8,1.7,24,M,,M,,*57
06/13/2014	02:01:05.009	$GPGGA,020104,2515.4718,N,08004.7413,W,1,8,1.6,24,M,,M,,*5A
06/13/2014	02:01:06.105	$GPGGA,020105,2515.4712,N,08004.7415,W,1,9,1.6,24,M,,M,,*56
06/13/2014	02:01:07.179	$GPGGA,020106,2515.4706,N,08004.7417,W,1,9,1.6,24,M,,M,,*52
06/13/2014	02:01:08.242	$GPGGA,020107,2515.4700,N,08004.7421,W,1,9,1.6,25,M,,M,,*51
06/13/2014	02:01:09.348	$GPGGA,020108,2515.4694,N,08004.7424,W,1,9,1.6,25,M,,M,,*57
06/13/2014	02:01:10.422	$GPGGA,020109,2515.4687,N,08004.7425,W,1,9,1.6,25,M,,M,,*55
06/13/2014	02:01:11.496	$GPGGA,020110,2515.4682,N,08004.7428,W,1,9,1.6,25,M,,M,,*55
06/13/2014	02:01:12.592	$GPGGA,020111,2515.4675,N,08004.7431,W,1,9,1.6,25,M,,M,,*54
06/13/2014	02:01:13.796	$GPGGA,020112,2515.4668,N,08004.7432,W,1,9,1.6,25,M,,M,,*58
06/13/2014	02:01:14.859	$GPGGA,020113,2515.4661,N,08004.7435,W,1,9,1.6,25,M,,M,,*57
06/13/2014	02:01:15.825	$GPGGA,020114,2515.4655,N,08004.7438,W,1,9,1.6,25,M,,M,,*5A
06/13/2014	02:01:16.920	$GPGGA,020115,2515.4648,N,08004.7442,W,1,9,1.6,25,M,,M,,*5A
06/13/2014	02:01:18.124	$GPGGA,020116,2515.4640,N,08004.7442,W,1,9,1.7,25,M,,M,,*50
06/13/2014	02:01:19.198	$GPGGA,020117,2515.4633,N,08004.7443,W,1,9,1.6,25,M,,M,,*55
06/13/2014	02:01:20.154	$GPGGA,020118,2515.4628,N,08004.7449,W,1,9,1.6,25,M,,M,,*5A
06/13/2014	02:01:21.226	$GPGGA,020119,2515.4621,N,08004.7453,W,1,8,1.9,25,M,,M,,*57
06/13/2014	02:01:22.430	$GPGGA,020120,2515.4614,N,08004.7454,W,1,8,1.9,25,M,,M,,*5C
06/13/2014	02:01:23.406	$GPGGA,020121,2515.4608,N,08004.7460,W,1,9,1.6,25,M,,M,,*59
06/13/2014	02:01:24.480	$GPGGA,020122,2515.4601,N,08004.7464,W,1,9,1.6,25,M,,M,,*57
06/13/2014	02:01:25.717	$GPGGA,020123,2515.4593,N,08004.7465,W,1,7,2.2,25,M,,M,,*56
06/13/2014	02:01:26.769	$GPGGA,020124,2515.4586,N,08004.7467,W,1,7,1.9,25,M,,M,,*5F
06/13/2014	02:01:27.832	$GPGGA,020125,2515.4581,N,08004.7471,W,1,9,1.6,25,M,,M,,*5F
06/13/2014	02:01:28.917	$GPGGA,020126,2515.4574,N,08004.7471,W,1,9,1.6,25,M,,M,,*56
06/13/2014	02:01:30.034	$GPGGA,020127,2515.4567,N,08004.7473,W,1,9,1.6,25,M,,M,,*57
06/13/2014	02:01:31.089	$GPGGA,020128,2515.4560,N,08004.7478,W,1,9,1.6,25,M,,M,,*54
06/13/2014	02:01:32.193	$GPGGA,020129,2515.4554,N,08004.7482,W,1,8,1.9,25,M,,M,,*59
06/13/2014	02:01:33.251	$GPGGA,020130,2515.4548,N,08004.7485,W,1,8,1.6,25,M,,M,,*54
06/13/2014	02:01:34.330	$GPGGA,020131,2515.4541,N,08004.7487,W,1,9,1.6,25,M,,M,,*5F
06/13/2014	02:01:35.428	$GPGGA,020132,2515.4535,N,08004.7491,W,1,9,1.9,25,M,,M,,*57
06/13/2014	02:01:36.511	$GPGGA,020133,2515.4529,N,08004.7496,W,1,9,1.6,25,M,,M,,*53
06/13/2014	02:01:37.579	$GPGGA,020134,2515.4523,N,08004.7497,W,1,9,1.6,25,M,,M,,*5F
06/13/2014	02:01:38.680	$GPGGA,020135,2515.4516,N,08004.7500,W,1,9,1.6,25,M,,M,,*57
06/13/2014	02:01:39.764	$GPGGA,020136,2515.4511,N,08004.7505,W,1,9,1.6,25,M,,M,,*56
06/13/2014	02:01:40.838	$GPGGA,020137,2515.4505,N,08004.7507,W,1,9,1.6,24,M,,M,,*51
06/13/2014	02:01:41.912	$GPGGA,020138,2515.4498,N,08004.7511,W,1,9,1.6,24,M,,M,,*5C
06/13/2014	02:01:43.018	$GPGGA,020139,2515.4493,N,08004.7514,W,1,9,1.6,24,M,,M,,*53
06/13/2014	02:01:44.081	$GPGGA,020140,2515.4487,N,08004.7518,W,1,9,1.6,24,M,,M,,*54
06/13/2014	02:01:45.177	$GPGGA,020141,2515.4480,N,08004.7520,W,1,9,1.6,24,M,,M,,*59
06/13/2014	02:01:46.240	$GPGGA,020142,2515.4473,N,08004.7523,W,1,9,1.6,24,M,,M,,*55
06/13/2014	02:01:47.314	$GPGGA,020143,2515.4469,N,08004.7527,W,1,9,1.6,24,M,,M,,*5B
06/13/2014	02:01:48.431	$GPGGA,020144,2515.4462,N,08004.7529,W,1,9,1.6,24,M,,M,,*59
06/13/2014	02:01:49.473	$GPGGA,020145,2515.4455,N,08004.7533,W,1,9,1.6,24,M,,M,,*57
06/13/2014	02:01:50.569	$GPGGA,020146,2515.4451,N,08004.7536,W,1,9,1.6,24,M,,M,,*55
06/13/2014	02:01:46.599	$GPGGA,020147,2515.4444,N,08004.7540,W,1,9,1.6,24,M,,M,,*51
06/13/2014	02:01:47.651	$GPGGA,020148,2515.4437,N,08004.7543,W,1,9,1.6,24,M,,M,,*59
06/13/2014	02:01:48.736	$GPGGA,020149,2515.4433,N,08004.7547,W,1,9,1.6,24,M,,M,,*58
06/13/2014	02:01:49.810	$GPGGA,020150,2515.4426,N,08004.7550,W,1,9,1.6,24,M,,M,,*52
06/13/2014	02:01:50.884	$GPGGA,020151,2515.4419,N,08004.7554,W,1,9,1.6,24,M,,M,,*5B
06/13/2014	02:01:51.980	$GPGGA,020152,2515.4413,N,08004.7556,W,1,9,1.6,24,M,,M,,*50
06/13/2014	02:01:53.085	$GPGGA,020153,2515.4406,N,08004.7561,W,1,9,1.6,24,M,,M,,*51
06/13/2014	02:01:54.148	$GPGGA,020154,2515.4400,N,08004.7565,W,1,9,1.6,24,M,,M,,*54
06/13/2014	02:01:55.222	$GPGGA,020155,2515.4393,N,08004.7568,W,1,9,1.6,24,M,,M,,*55
06/13/2014	02:01:56.437	$GPGGA,020156,2515.4387,N,08004.7570,W,1,9,1.6,24,M,,M,,*5A
06/13/2014	02:01:57.402	$GPGGA,020157,2515.4382,N,08004.7574,W,1,9,1.6,24,M,,M,,*5A
06/13/2014	02:01:58.476	$GPGGA,020158,2515.4375,N,08004.7577,W,1,9,1.6,24,M,,M,,*5E
06/13/2014	02:01:59.681	$GPGGA,020159,2515.4369,N,08004.7580,W,1,9,1.6,24,M,,M,,*5A
06/13/2014	02:02:00.787	$GPGGA,020200,2515.4364,N,08004.7584,W,1,9,1.6,24,M,,M,,*5C
06/13/2014	02:02:01.850	$GPGGA,020201,2515.4357,N,08004.7588,W,1,9,1.6,24,M,,M,,*51
06/13/2014	02:02:02.794	$GPGGA,020202,2515.4350,N,08004.7591,W,1,9,1.6,24,M,,M,,*5D
06/13/2014	02:02:04.020	$GPGGA,020203,2515.4344,N,08004.7595,W,1,8,1.9,24,M,,M,,*53
06/13/2014	02:02:04.996	$GPGGA,020204,2515.4339,N,08004.7601,W,1,8,1.9,24,M,,M,,*50
06/13/2014	02:02:06.037	$GPGGA,020205,2515.4332,N,08004.7603,W,1,8,1.9,24,M,,M,,*58
06/13/2014	02:02:07.231	$GPGGA,020206,2515.4324,N,08004.7600,W,1,8,1.9,24,M,,M,,*5F
06/13/2014	02:02:08.348	$GPGGA,020207,2515.4318,N,08004.7605,W,1,9,1.6,24,M,,M,,*5A
06/13/2014	02:02:09.433	$GPGGA,020208,2515.4314,N,08004.7609,W,1,9,2.2,24,M,,M,,*52
06/13/2014	02:02:10.518	$GPGGA,020209,2515.4308,N,08004.7612,W,1,9,1.6,24,M,,M,,*53
06/13/2014	02:02:11.582	$GPGGA,020210,2515.4303,N,08004.7616,W,1,9,1.6,24,M,,M,,*54
06/13/2014	02:02:12.665	$GPGGA,020211,2515.4296,N,08004.7619,W,1,8,1.7,24,M,,M,,*57
06/13/2014	02:02:13.641	$GPGGA,020212,2515.4289,N,08004.7620,W,1,8,1.7,24,M,,M,,*50
06/13/2014	02:02:14.856	$GPGGA,020213,2515.4281,N,08004.7623,W,1,8,1.7,24,M,,M,,*5A
06/13/2014	02:02:15.897	$GPGGA,020214,2515.4277,N,08004.7627,W,1,8,1.7,24,M,,M,,*50
06/13/2014	02:02:16.971	$GPGGA,020215,2515.4271,N,08004.7630,W,1,9,1.6,24,M,,M,,*51
06/13/2014	02:02:18.073	$GPGGA,020216,2515.4264,N,08004.7631,W,1,9,1.7,24,M,,M,,*56
06/13/2014	02:02:19.162	$GPGGA,020217,2515.4257,N,08004.7634,W,1,8,1.7,24,M,,M,,*53
06/13/2014	02:02:20.226	$GPGGA,020218,2515.4251,N,08004.7635,W,1,8,1.7,24,M,,M,,*5B
06/13/2014	02:02:21.321	$GPGGA,020219,2515.4245,N,08004.7638,W,1,8,1.7,24,M,,M,,*52
06/13/2014	02:02:22.406	$GPGGA,020220,2515.4238,N,08004.7641,W,1,8,1.7,24,M,,M,,*5C
06/13/2014	02:02:23.502	$GPGGA,020221,2515.4231,N,08004.7642,W,1,8,1.7,24,M,,M,,*57
06/13/2014	02:02:24.586	$GPGGA,020222,2515.4224,N,08004.7645,W,1,8,1.7,24,M,,M,,*57
06/13/2014	02:02:25.650	$GPGGA,020223,2515.4217,N,08004.7648,W,1,9,1.6,24,M,,M,,*5B
06/13/2014	02:02:26.745	$GPGGA,020224,2515.4211,N,08004.7650,W,1,9,1.7,24,M,,M,,*52
06/13/2014	02:02:27.841	$GPGGA,020225,2515.4206,N,08004.7653,W,1,8,1.7,24,M,,M,,*57
06/13/2014	02:02:28.882	$GPGGA,020226,2515.4200,N,08004.7656,W,1,8,1.6,24,M,,M,,*56
06/13/2014	02:02:29.989	$GPGGA,020227,2515.4194,N,08004.7659,W,1,9,1.6,24,M,,M,,*57
06/13/2014	02:02:31.080	$GPGGA,020228,2515.4191,N,08004.7663,W,1,9,1.7,24,M,,M,,*55
06/13/2014	02:02:32.157	$GPGGA,020229,2515.4184,N,08004.7666,W,1,9,1.6,24,M,,M,,*54
06/13/2014	02:02:33.210	$GPGGA,020230,2515.4177,N,08004.7667,W,1,9,1.6,24,M,,M,,*51
06/13/2014	02:02:34.327	$GPGGA,020231,2515.4171,N,08004.7671,W,1,9,1.6,24,M,,M,,*51
06/13/2014	02:02:35.401	$GPGGA,020232,2515.4164,N,08004.7673,W,1,9,1.7,24,M,,M,,*55
06/13/2014	02:02:36.488	$GPGGA,020233,2515.4157,N,08004.7675,W,1,8,1.7,24,M,,M,,*53
06/13/2014	02:02:37.549	$GPGGA,020234,2515.4151,N,08004.7678,W,1,8,1.7,24,M,,M,,*5F
06/13/2014	02:02:38.644	$GPGGA,020235,2515.4144,N,08004.7681,W,1,8,1.7,24,M,,M,,*5C
06/13/2014	02:02:39.729	$GPGGA,020236,2515.4138,N,08004.7684,W,1,8,1.6,24,M,,M,,*50
06/13/2014	02:02:40.792	$GPGGA,020237,2515.4133,N,08004.7685,W,1,9,1.6,24,M,,M,,*5A
06/13/2014	02:02:41.888	$GPGGA,020238,2515.4127,N,08004.7691,W,1,9,1.9,24,M,,M,,*5A
06/13/2014	02:02:42.996	$GPGGA,020239,2515.4120,N,08004.7693,W,1,9,1.6,24,M,,M,,*51
06/13/2014	02:02:44.047	$GPGGA,020240,2515.4115,N,08004.7695,W,1,9,1.6,24,M,,M,,*5F
06/13/2014	02:02:45.131	$GPGGA,020241,2515.4109,N,08004.7699,W,1,9,1.6,25,M,,M,,*5E
06/13/2014	02:02:46.205	$GPGGA,020242,2515.4104,N,08004.7703,W,1,9,1.6,25,M,,M,,*52
06/13/2014	02:02:47.324	$GPGGA,020243,2515.4097,N,08004.7704,W,1,9,1.6,25,M,,M,,*5F
06/13/2014	02:02:48.375	$GPGGA,020244,2515.4091,N,08004.7709,W,1,9,1.6,25,M,,M,,*53
06/13/2014	02:02:49.471	$GPGGA,020245,2515.4086,N,08004.7711,W,1,8,1.9,25,M,,M,,*53
06/13/2014	02:02:50.544	$GPGGA,020246,2515.4080,N,08004.7713,W,1,8,1.6,25,M,,M,,*5B
06/13/2014	02:02:46.685	$GPGGA,020247,2515.4073,N,08004.7714,W,1,9,1.6,25,M,,M,,*50
06/13/2014	02:02:47.638	$GPGGA,020248,2515.4068,N,08004.7717,W,1,9,1.6,25,M,,M,,*56
06/13/2014	02:02:48.724	$GPGGA,020249,2515.4063,N,08004.7721,W,1,9,1.6,25,M,,M,,*59
06/13/2014	02:02:49.775	$GPGGA,020250,2515.4057,N,08004.7724,W,1,9,1.6,25,M,,M,,*53
06/13/2014	02:02:51.023	$GPGGA,020251,2515.4050,N,08004.7728,W,1,9,1.6,25,M,,M,,*59
06/13/2014	02:02:51.977	$GPGGA,020252,2515.4045,N,08004.7732,W,1,9,1.6,25,M,,M,,*55
06/13/2014	02:02:53.214	$GPGGA,020253,2515.4039,N,08004.7735,W,1,9,1.6,25,M,,M,,*58
06/13/2014	02:02:54.109	$GPGGA,020254,2515.4033,N,08004.7739,W,1,9,1.6,25,M,,M,,*59
06/13/2014	02:02:55.329	$GPGGA,020255,2515.4028,N,08004.7743,W,1,9,1.6,26,M,,M,,*5C
06/13/2014	02:02:56.284	$GPGGA,020256,2515.4022,N,08004.7747,W,1,9,1.6,26,M,,M,,*51
06/13/2014	02:02:57.369	$GPGGA,020257,2515.4016,N,08004.7751,W,1,9,1.6,26,M,,M,,*50
06/13/2014	02:02:58.454	$GPGGA,020258,2515.4010,N,08004.7756,W,1,9,1.6,26,M,,M,,*5E
06/13/2014	02:02:59.636	$GPGGA,020259,2515.4004,N,08004.7760,W,1,9,1.6,26,M,,M,,*5F
06/13/2014	02:03:00.818	$GPGGA,020300,2515.3999,N,08004.7764,W,1,9,1.6,26,M,,M,,*5C
06/13/2014	02:03:01.816	$GPGGA,020301,2515.3993,N,08004.7767,W,1,9,1.6,26,M,,M,,*54
06/13/2014	02:03:02.945	$GPGGA,020302,2515.3986,N,08004.7771,W,1,9,1.6,26,M,,M,,*54
06/13/2014	02:03:04.017	$GPGGA,020303,2515.3981,N,08004.7775,W,1,9,1.6,26,M,,M,,*56
06/13/2014	02:03:05.059	$GPGGA,020304,2515.3976,N,08004.7779,W,1,9,1.6,26,M,,M,,*55
06/13/2014	02:03:06.176	$GPGGA,020305,2515.3969,N,08004.7779,W,1,8,1.9,26,M,,M,,*54
06/13/2014	02:03:07.211	$GPGGA,020306,2515.3964,N,08004.7782,W,1,8,1.6,26,M,,M,,*51
06/13/2014	02:03:08.335	$GPGGA,020307,2515.3958,N,08004.7785,W,1,9,1.6,26,M,,M,,*59
06/13/2014	02:03:09.463	$GPGGA,020308,2515.3952,N,08004.7786,W,1,9,1.6,26,M,,M,,*5F
06/13/2014	02:03:10.494	$GPGGA,020309,2515.3946,N,08004.7789,W,1,9,1.6,26,M,,M,,*54
06/13/2014	02:03:11.611	$GPGGA,020310,2515.3940,N,08004.7793,W,1,9,1.6,26,M,,M,,*51
06/13/2014	02:03:12.663	$GPGGA,020311,2515.3934,N,08004.7796,W,1,9,1.6,26,M,,M,,*56
06/13/2014	02:03:13.710	$GPGGA,020312,2515.3929,N,08004.7800,W,1,9,1.6,26,M,,M,,*59
06/13/2014	02:03:14.876	$GPGGA,020313,2515.3922,N,08004.7803,W,1,9,1.6,26,M,,M,,*50
06/13/2014	02:03:15.939	$GPGGA,020314,2515.3916,N,08004.7807,W,1,9,1.6,26,M,,M,,*54
06/13/2014	02:03:16.992	$GPGGA,020315,2515.3910,N,08004.7809,W,1,9,1.6,26,M,,M,,*5D
06/13/2014	02:03:18.109	$GPGGA,020316,2515.3904,N,08004.7812,W,1,9,1.6,26,M,,M,,*51
06/13/2014	02:03:19.161	$GPGGA,020317,2515.3898,N,08004.7816,W,1,9,1.6,27,M,,M,,*51
06/13/2014	02:03:20.257	$GPGGA,020318,2515.3892,N,08004.7818,W,1,9,1.6,27,M,,M,,*5A
06/13/2014	02:03:21.277	$GPGGA,020319,2515.3886,N,08004.7822,W,1,9,1.6,27,M,,M,,*57
06/13/2014	02:03:22.448	$GPGGA,020320,2515.3880,N,08004.7826,W,1,9,1.6,27,M,,M,,*5F
06/13/2014	02:03:23.496	$GPGGA,020321,2515.3873,N,08004.7829,W,1,9,1.6,27,M,,M,,*5D
06/13/2014	02:03:24.519	$GPGGA,020322,2515.3866,N,08004.7832,W,1,9,1.6,27,M,,M,,*50
06/13/2014	02:03:25.659	$GPGGA,020323,2515.3860,N,08004.7836,W,1,9,1.6,27,M,,M,,*53
06/13/2014	02:03:26.776	$GPGGA,020324,2515.3855,N,08004.7840,W,1,9,1.6,27,M,,M,,*53
06/13/2014	02:03:27.774	$GPGGA,020325,2515.3848,N,08004.7841,W,1,9,1.6,27,M,,M,,*5F
06/13/2014	02:03:29.965	$GPGGA,020327,2515.3837,N,08004.7847,W,1,9,1.6,27,M,,M,,*53
06/13/2014	02:03:31.100	$GPGGA,020328,2515.3833,N,08004.7851,W,1,9,1.7,27,M,,M,,*5E
06/13/2014	02:03:32.124	$GPGGA,020329,2515.3826,N,08004.7854,W,1,9,1.6,27,M,,M,,*5F
06/13/2014	02:03:33.263	$GPGGA,020330,2515.3820,N,08004.7855,W,1,9,1.6,27,M,,M,,*50
06/13/2014	02:03:34.329	$GPGGA,020331,2515.3815,N,08004.7859,W,1,8,1.7,27,M,,M,,*5B
06/13/2014	02:03:35.432	$GPGGA,020332,2515.3809,N,08004.7861,W,1,8,1.6,27,M,,M,,*5F
06/13/2014	02:03:36.560	$GPGGA,020333,2515.3802,N,08004.7863,W,1,9,1.6,27,M,,M,,*56
06/13/2014	02:03:37.634	$GPGGA,020334,2515.3797,N,08004.7866,W,1,9,1.6,27,M,,M,,*57
06/13/2014	02:03:38.719	$GPGGA,020335,2515.3792,N,08004.7869,W,1,9,1.6,27,M,,M,,*5C
06/13/2014	02:03:39.771	$GPGGA,020336,2515.3786,N,08004.7872,W,1,9,1.6,27,M,,M,,*50
06/13/2014	02:03:40.759	$GPGGA,020337,2515.3779,N,08004.7874,W,1,9,1.6,27,M,,M,,*57
06/13/2014	02:03:41.915	$GPGGA,020338,2515.3773,N,08004.7876,W,1,9,1.6,27,M,,M,,*50
06/13/2014	02:03:42.946	$GPGGA,020339,2515.3768,N,08004.7879,W,1,9,1.6,27,M,,M,,*54
06/13/2014	02:03:44.018	$GPGGA,020340,2515.3761,N,08004.7881,W,1,9,1.7,26,M,,M,,*54
06/13/2014	02:03:45.083	$GPGGA,020341,2515.3754,N,08004.7883,W,1,8,1.7,26,M,,M,,*50
06/13/2014	02:03:45.991	$GPGGA,020342,2515.3745,N,08004.7886,W,1,8,1.7,26,M,,M,,*56
06/13/2014	02:03:47.168	$GPGGA,020343,2515.3738,N,08004.7888,W,1,8,1.7,26,M,,M,,*53
06/13/2014	02:03:48.141	$GPGGA,020344,2515.3732,N,08004.7891,W,1,8,1.7,26,M,,M,,*56
06/13/2014	02:03:49.129	$GPGGA,020345,2515.3725,N,08004.7894,W,1,8,1.7,26,M,,M,,*54
06/13/2014	02:03:50.243	$GPGGA,020346,2515.3718,N,08004.7895,W,1,8,1.7,26,M,,M,,*58
06/13/2014	02:03:46.508	$GPGGA,020347,2515.3712,N,08004.7899,W,1,8,1.7,26,M,,M,,*5F
06/13/2014	02:03:47.623	$GPGGA,020348,2515.3707,N,08004.7901,W,1,8,1.6,26,M,,M,,*55
06/13/2014	02:03:48.696	$GPGGA,020349,2515.3700,N,08004.7904,W,1,9,1.6,26,M,,M,,*57
06/13/2014	02:03:49.687	$GPGGA,020350,2515.3696,N,08004.7908,W,1,9,1.6,26,M,,M,,*5D
06/13/2014	02:03:50.709	$GPGGA,020351,2515.3689,N,08004.7910,W,1,9,1.7,26,M,,M,,*5A
06/13/2014	02:03:51.762	$GPGGA,020352,2515.3680,N,08004.7912,W,1,9,1.6,26,M,,M,,*53
06/13/2014	02:03:52.773	$GPGGA,020353,2515.3676,N,08004.7915,W,1,9,1.6,26,M,,M,,*5C
06/13/2014	02:03:53.805	$GPGGA,020354,2515.3672,N,08004.7920,W,1,9,1.6,26,M,,M,,*59
06/13/2014	02:03:54.827	$GPGGA,020355,2515.3664,N,08004.7923,W,1,9,1.7,26,M,,M,,*5D
06/13/2014	02:03:55.889	$GPGGA,020356,2515.3660,N,08004.7926,W,1,9,1.6,26,M,,M,,*5E
06/13/2014	02:03:56.912	$GPGGA,020357,2515.3654,N,08004.7930,W,1,9,1.6,26,M,,M,,*5F
06/13/2014	02:03:57.933	$GPGGA,020358,2515.3649,N,08004.7934,W,1,9,1.6,26,M,,M,,*58
06/13/2014	02:03:58.975	$GPGGA,020359,2515.3642,N,08004.7934,W,1,9,1.6,26,M,,M,,*52
06/13/2014	02:04:00.018	$GPGGA,020400,2515.3636,N,08004.7938,W,1,9,1.6,25,M,,M,,*55
06/13/2014	02:04:01.023	$GPGGA,020401,2515.3631,N,08004.7942,W,1,9,1.6,25,M,,M,,*5E
06/13/2014	02:04:02.055	$GPGGA,020402,2515.3625,N,08004.7944,W,1,9,1.6,25,M,,M,,*5E
06/13/2014	02:04:03.105	$GPGGA,020403,2515.3620,N,08004.7948,W,1,9,1.6,25,M,,M,,*56
06/13/2014	02:04:04.122	$GPGGA,020404,2515.3613,N,08004.7952,W,1,9,1.6,25,M,,M,,*5A
06/13/2014	02:04:05.157	$GPGGA,020405,2515.3609,N,08004.7955,W,1,9,1.6,25,M,,M,,*57
06/13/2014	02:04:06.186	$GPGGA,020406,2515.3602,N,08004.7957,W,1,9,1.6,25,M,,M,,*5D
06/13/2014	02:04:07.201	$GPGGA,020407,2515.3595,N,08004.7962,W,1,9,1.6,25,M,,M,,*57
06/13/2014	02:04:08.233	$GPGGA,020408,2515.3589,N,08004.7966,W,1,9,1.6,25,M,,M,,*51
06/13/2014	02:04:09.265	$GPGGA,020409,2515.3589,N,08004.7966,W,1,9,1.6,25,M,,M,,*50
06/13/2014	02:04:10.288	$GPGGA,020410,2515.3584,N,08004.7969,W,1,9,1.6,25,M,,M,,*5A
06/13/2014	02:04:11.340	$GPGGA,020411,2515.3573,N,08004.7977,W,1,9,1.9,25,M,,M,,*53
06/13/2014	02:04:12.342	$GPGGA,020412,2515.3573,N,08004.7977,W,1,9,1.9,25,M,,M,,*50
06/13/2014	02:04:13.403	$GPGGA,020413,2515.3560,N,08004.7981,W,1,9,1.6,25,M,,M,,*55
06/13/2014	02:04:14.445	$GPGGA,020414,2515.3555,N,08004.7985,W,1,9,1.6,25,M,,M,,*50
06/13/2014	02:04:15.467	$GPGGA,020415,2515.3549,N,08004.7988,W,1,9,1.6,25,M,,M,,*51
06/13/2014	02:04:16.499	$GPGGA,020416,2515.3544,N,08004.7991,W,1,9,1.6,25,M,,M,,*57
06/13/2014	02:04:17.522	$GPGGA,020417,2515.3538,N,08004.7995,W,1,9,1.6,25,M,,M,,*59
06/13/2014	02:04:18.636	$GPGGA,020418,2515.3532,N,08004.7999,W,1,9,1.6,25,M,,M,,*50
06/13/2014	02:04:19.668	$GPGGA,020419,2515.3527,N,08004.8000,W,1,9,1.6,25,M,,M,,*53
06/13/2014	02:04:20.597	$GPGGA,020420,2515.3527,N,08004.8000,W,1,9,1.6,25,M,,M,,*59
06/13/2014	02:04:21.599	$GPGGA,020421,2515.3515,N,08004.8009,W,1,9,1.6,25,M,,M,,*50
06/13/2014	02:04:22.672	$GPGGA,020422,2515.3508,N,08004.8010,W,1,9,1.6,25,M,,M,,*57
06/13/2014	02:04:23.672	$GPGGA,020423,2515.3503,N,08004.8014,W,1,9,1.6,25,M,,M,,*59
06/13/2014	02:04:24.828	$GPGGA,020424,2515.3497,N,08004.8020,W,1,9,1.6,25,M,,M,,*55
06/13/2014	02:04:25.736	$GPGGA,020425,2515.3491,N,08004.8020,W,1,9,1.6,25,M,,M,,*52
06/13/2014	02:04:26.802	$GPGGA,020426,2515.3485,N,08004.8024,W,1,9,1.6,26,M,,M,,*53
06/13/2014	02:04:27.780	$GPGGA,020427,2515.3480,N,08004.8028,W,1,9,1.6,26,M,,M,,*5B
06/13/2014	02:04:28.946	$GPGGA,020428,2515.3475,N,08004.8032,W,1,9,1.6,26,M,,M,,*55
06/13/2014	02:04:29.958	$GPGGA,020429,2515.3468,N,08004.8032,W,1,9,1.6,26,M,,M,,*58
06/13/2014	02:04:30.866	$GPGGA,020430,2515.3468,N,08004.8032,W,1,9,1.6,26,M,,M,,*50
06/13/2014	02:04:31.897	$GPGGA,020431,2515.3458,N,08004.8042,W,1,9,1.6,26,M,,M,,*55
06/13/2014	02:04:33.074	$GPGGA,020432,2515.3451,N,08004.8045,W,1,9,1.6,26,M,,M,,*58
06/13/2014	02:04:34.106	$GPGGA,020433,2515.3444,N,08004.8046,W,1,9,1.6,26,M,,M,,*5E
06/13/2014	02:04:35.100	$GPGGA,020434,2515.3440,N,08004.8050,W,1,9,1.6,26,M,,M,,*5A
06/13/2014	02:04:36.139	$GPGGA,020435,2515.3434,N,08004.8053,W,1,9,1.6,26,M,,M,,*5B
06/13/2014	02:04:37.088	$GPGGA,020436,2515.3427,N,08004.8056,W,1,9,1.6,26,M,,M,,*5F
06/13/2014	02:04:38.213	$GPGGA,020437,2515.3422,N,08004.8060,W,1,8,1.9,26,M,,M,,*50
06/13/2014	02:04:39.225	$GPGGA,020438,2515.3416,N,08004.8064,W,1,8,1.6,26,M,,M,,*53
06/13/2014	02:04:40.278	$GPGGA,020439,2515.3410,N,08004.8067,W,1,8,1.9,26,M,,M,,*58
06/13/2014	02:04:41.299	$GPGGA,020440,2515.3404,N,08004.8071,W,1,8,1.6,26,M,,M,,*5B
06/13/2014	02:04:42.311	$GPGGA,020441,2515.3397,N,08004.8074,W,1,9,1.6,26,M,,M,,*53
06/13/2014	02:04:43.343	$GPGGA,020442,2515.3391,N,08004.8078,W,1,9,1.7,26,M,,M,,*5B
06/13/2014	02:04:44.365	$GPGGA,020443,2515.3385,N,08004.8081,W,1,9,1.6,25,M,,M,,*5B
06/13/2014	02:04:45.407	$GPGGA,020444,2515.3378,N,08004.8083,W,1,9,1.6,25,M,,M,,*5C
06/13/2014	02:04:46.450	$GPGGA,020445,2515.3372,N,08004.8086,W,1,9,1.6,25,M,,M,,*52
06/13/2014	02:04:47.451	$GPGGA,020446,2515.3367,N,08004.8089,W,1,9,1.6,25,M,,M,,*5A
06/13/2014	02:04:46.569	$GPGGA,020447,2515.3360,N,08004.8092,W,1,9,1.6,25,M,,M,,*56
06/13/2014	02:04:47.631	$GPGGA,020448,2515.3354,N,08004.8093,W,1,9,1.6,25,M,,M,,*5F
06/13/2014	02:04:48.643	$GPGGA,020449,2515.3349,N,08004.8096,W,1,9,1.6,25,M,,M,,*57
06/13/2014	02:04:49.654	$GPGGA,020450,2515.3342,N,08004.8098,W,1,9,1.6,25,M,,M,,*5A
06/13/2014	02:04:50.676	$GPGGA,020451,2515.3336,N,08004.8101,W,1,9,1.6,24,M,,M,,*58
06/13/2014	02:04:51.729	$GPGGA,020452,2515.3331,N,08004.8103,W,1,9,1.6,24,M,,M,,*5E
06/13/2014	02:04:52.740	$GPGGA,020453,2515.3324,N,08004.8104,W,1,9,1.6,24,M,,M,,*5C
06/13/2014	02:04:53.772	$GPGGA,020454,2515.3318,N,08004.8108,W,1,9,1.6,24,M,,M,,*58
06/13/2014	02:04:54.835	$GPGGA,020455,2515.3313,N,08004.8111,W,1,9,1.6,24,M,,M,,*5A
06/13/2014	02:04:55.847	$GPGGA,020456,2515.3306,N,08004.8112,W,1,9,1.6,24,M,,M,,*5E
06/13/2014	02:04:56.889	$GPGGA,020457,2515.3300,N,08004.8114,W,1,9,1.6,24,M,,M,,*5F
06/13/2014	02:04:57.890	$GPGGA,020458,2515.3293,N,08004.8118,W,1,9,1.6,24,M,,M,,*57
06/13/2014	02:04:58.922	$GPGGA,020459,2515.3288,N,08004.8119,W,1,9,1.6,24,M,,M,,*5D
06/13/2014	02:04:59.981	$GPGGA,020500,2515.3281,N,08004.8122,W,1,9,1.6,24,M,,M,,*51
06/13/2014	02:05:01.007	$GPGGA,020501,2515.3274,N,08004.8123,W,1,8,1.9,24,M,,M,,*55
06/13/2014	02:05:02.031	$GPGGA,020502,2515.3268,N,08004.8126,W,1,8,1.7,24,M,,M,,*50
06/13/2014	02:05:03.040	$GPGGA,020503,2515.3261,N,08004.8129,W,1,7,2.2,24,M,,M,,*5E
06/13/2014	02:05:04.094	$GPGGA,020504,2515.3255,N,08004.8130,W,1,7,1.6,24,M,,M,,*51
06/13/2014	02:05:05.135	$GPGGA,020505,2515.3248,N,08004.8133,W,1,8,1.4,24,M,,M,,*52
06/13/2014	02:05:06.147	$GPGGA,020506,2515.3242,N,08004.8136,W,1,8,1.4,24,M,,M,,*5E
06/13/2014	02:05:07.189	$GPGGA,020507,2515.3234,N,08004.8139,W,1,9,1.3,24,M,,M,,*57
06/13/2014	02:05:08.221	$GPGGA,020508,2515.3230,N,08004.8140,W,1,9,1.7,24,M,,M,,*56
06/13/2014	02:05:09.232	$GPGGA,020509,2515.3225,N,08004.8143,W,1,8,1.4,24,M,,M,,*52
06/13/2014	02:05:10.244	$GPGGA,020510,2515.3219,N,08004.8145,W,1,8,1.3,24,M,,M,,*54
06/13/2014	02:05:11.286	$GPGGA,020511,2515.3212,N,08004.8147,W,1,8,1.4,24,M,,M,,*5B
06/13/2014	02:05:12.318	$GPGGA,020512,2515.3208,N,08004.8151,W,1,8,1.4,24,M,,M,,*54
06/13/2014	02:05:13.433	$GPGGA,020513,2515.3202,N,08004.8154,W,1,9,1.3,24,M,,M,,*5C
06/13/2014	02:05:14.372	$GPGGA,020514,2515.3197,N,08004.8157,W,1,9,1.3,24,M,,M,,*57
06/13/2014	02:05:15.394	$GPGGA,020515,2515.3192,N,08004.8159,W,1,9,1.3,24,M,,M,,*5D
06/13/2014	02:05:16.570	$GPGGA,020516,2515.3187,N,08004.8163,W,1,9,1.3,24,M,,M,,*53
06/13/2014	02:05:17.592	$GPGGA,020517,2515.3181,N,08004.8166,W,1,9,1.3,24,M,,M,,*51
06/13/2014	02:05:18.593	$GPGGA,020518,2515.3177,N,08004.8166,W,1,9,1.4,25,M,,M,,*51
06/13/2014	02:05:19.625	$GPGGA,020519,2515.3172,N,08004.8172,W,1,9,1.3,25,M,,M,,*57
06/13/2014	02:05:20.657	$GPGGA,020520,2515.3166,N,08004.8176,W,1,9,1.3,25,M,,M,,*5C
06/13/2014	02:05:21.586	$GPGGA,020521,2515.3159,N,08004.8177,W,1,9,1.3,25,M,,M,,*50
06/13/2014	02:05:22.711	$GPGGA,020522,2515.3154,N,08004.8181,W,1,9,1.3,25,M,,M,,*57
06/13/2014	02:05:23.753	$GPGGA,020523,2515.3147,N,08004.8186,W,1,9,1.3,25,M,,M,,*53
06/13/2014	02:05:24.785	$GPGGA,020524,2515.3141,N,08004.8188,W,1,9,1.3,25,M,,M,,*5C
06/13/2014	02:05:25.817	$GPGGA,020525,2515.3136,N,08004.8191,W,1,9,1.3,25,M,,M,,*55
06/13/2014	02:05:26.839	$GPGGA,020526,2515.3129,N,08004.8195,W,1,9,1.3,26,M,,M,,*5F
06/13/2014	02:05:27.860	$GPGGA,020527,2515.3123,N,08004.8199,W,1,9,1.3,26,M,,M,,*58
06/13/2014	02:05:28.903	$GPGGA,020528,2515.3116,N,08004.8202,W,1,9,1.3,26,M,,M,,*50
06/13/2014	02:05:29.945	$GPGGA,020529,2515.3111,N,08004.8206,W,1,9,1.3,26,M,,M,,*52
06/13/2014	02:05:30.946	$GPGGA,020530,2515.3105,N,08004.8210,W,1,9,1.3,26,M,,M,,*58
06/13/2014	02:05:32.000	$GPGGA,020531,2515.3098,N,08004.8213,W,1,9,1.3,26,M,,M,,*5F
06/13/2014	02:05:33.052	$GPGGA,020532,2515.3092,N,08004.8216,W,1,9,1.3,26,M,,M,,*53
06/13/2014	02:05:34.084	$GPGGA,020533,2515.3087,N,08004.8222,W,1,9,1.3,26,M,,M,,*51
06/13/2014	02:05:35.086	$GPGGA,020534,2515.3080,N,08004.8223,W,1,9,1.3,26,M,,M,,*50
06/13/2014	02:05:36.145	$GPGGA,020535,2515.3074,N,08004.8227,W,1,9,1.3,26,M,,M,,*5E
06/13/2014	02:05:37.142	$GPGGA,020536,2515.3068,N,08004.8233,W,1,9,1.3,26,M,,M,,*55
06/13/2014	02:05:38.202	$GPGGA,020537,2515.3064,N,08004.8235,W,1,9,1.3,26,M,,M,,*5E
06/13/2014	02:05:39.203	$GPGGA,020538,2515.3056,N,08004.8238,W,1,9,1.3,27,M,,M,,*5C
06/13/2014	02:05:40.246	$GPGGA,020539,2515.3051,N,08004.8244,W,1,9,1.3,27,M,,M,,*51
06/13/2014	02:05:41.275	$GPGGA,020540,2515.3046,N,08004.8248,W,1,9,1.3,27,M,,M,,*55
06/13/2014	02:05:42.278	$GPGGA,020541,2515.3039,N,08004.8251,W,1,9,1.3,27,M,,M,,*54
06/13/2014	02:05:43.310	$GPGGA,020542,2515.3033,N,08004.8255,W,1,9,1.3,27,M,,M,,*59
06/13/2014	02:05:44.342	$GPGGA,020543,2515.3027,N,08004.8259,W,1,9,1.3,27,M,,M,,*51
06/13/2014	02:05:45.395	$GPGGA,020544,2515.3021,N,08004.8262,W,1,9,1.3,27,M,,M,,*58
06/13/2014	02:05:46.437	$GPGGA,020545,2515.3015,N,08004.8266,W,1,9,1.3,27,M,,M,,*5A
06/13/2014	02:05:47.438	$GPGGA,020546,2515.3009,N,08004.8270,W,1,9,1.3,27,M,,M,,*53
06/13/2014	02:05:46.536	$GPGGA,020547,2515.3002,N,08004.8274,W,1,9,1.4,27,M,,M,,*5A
06/13/2014	02:05:47.589	$GPGGA,020548,2515.2996,N,08004.8278,W,1,9,1.4,27,M,,M,,*5C
06/13/2014	02:05:48.590	$GPGGA,020549,2515.2990,N,08004.8284,W,1,9,1.4,27,M,,M,,*58
06/13/2014	02:05:49.643	$GPGGA,020550,2515.2984,N,08004.8287,W,1,9,1.3,27,M,,M,,*51
06/13/2014	02:05:50.654	$GPGGA,020551,2515.2978,N,08004.8291,W,1,9,1.4,27,M,,M,,*53
06/13/2014	02:05:51.725	$GPGGA,020552,2515.2972,N,08004.8293,W,1,9,1.4,27,M,,M,,*58
06/13/2014	02:05:52.718	$GPGGA,020553,2515.2966,N,08004.8296,W,1,10,1.3,27,M,,M,,*66
06/13/2014	02:05:53.864	$GPGGA,020554,2515.2960,N,08004.8298,W,1,10,1.4,27,M,,M,,*6E
06/13/2014	02:05:54.818	$GPGGA,020555,2515.2954,N,08004.8302,W,1,10,1.3,27,M,,M,,*6D
06/13/2014	02:05:55.825	$GPGGA,020556,2515.2948,N,08004.8303,W,1,10,1.3,27,M,,M,,*62
06/13/2014	02:05:56.838	$GPGGA,020557,2515.2942,N,08004.8307,W,1,10,1.3,27,M,,M,,*6D
06/13/2014	02:05:57.868	$GPGGA,020558,2515.2934,N,08004.8311,W,1,10,1.4,27,M,,M,,*63
06/13/2014	02:05:58.900	$GPGGA,020559,2515.2930,N,08004.8314,W,1,8,1.7,27,M,,M,,*59
06/13/2014	02:05:59.952	$GPGGA,020600,2515.2924,N,08004.8317,W,1,8,1.3,27,M,,M,,*54
06/13/2014	02:06:00.954	$GPGGA,020601,2515.2919,N,08004.8320,W,1,9,1.4,27,M,,M,,*59
06/13/2014	02:06:01.996	$GPGGA,020602,2515.2912,N,08004.8324,W,1,9,1.4,27,M,,M,,*55
06/13/2014	02:06:03.038	$GPGGA,020603,2515.2906,N,08004.8325,W,1,10,1.3,27,M,,M,,*6F
06/13/2014	02:06:04.184	$GPGGA,020604,2515.2901,N,08004.8328,W,1,10,1.4,27,M,,M,,*65
06/13/2014	02:06:05.082	$GPGGA,020605,2515.2894,N,08004.8331,W,1,9,1.4,27,M,,M,,*59
06/13/2014	02:06:06.207	$GPGGA,020606,2515.2887,N,08004.8332,W,1,9,1.3,27,M,,M,,*5C
06/13/2014	02:06:07.260	$GPGGA,020607,2515.2880,N,08004.8335,W,1,9,1.4,27,M,,M,,*5A
06/13/2014	02:06:08.178	$GPGGA,020608,2515.2874,N,08004.8339,W,1,9,1.4,27,M,,M,,*52
06/13/2014	02:06:09.304	$GPGGA,020609,2515.2867,N,08004.8339,W,1,9,1.4,26,M,,M,,*50
06/13/2014	02:06:10.356	$GPGGA,020610,2515.2861,N,08004.8342,W,1,9,1.3,26,M,,M,,*55
06/13/2014	02:06:11.378	$GPGGA,020611,2515.2854,N,08004.8345,W,1,10,1.3,26,M,,M,,*6D
06/13/2014	02:06:12.420	$GPGGA,020612,2515.2847,N,08004.8344,W,1,10,1.3,26,M,,M,,*6D
06/13/2014	02:06:13.463	$GPGGA,020613,2515.2842,N,08004.8347,W,1,10,1.3,26,M,,M,,*6A
06/13/2014	02:06:14.443	$GPGGA,020614,2515.2836,N,08004.8352,W,1,10,1.3,26,M,,M,,*6A
06/13/2014	02:06:15.497	$GPGGA,020615,2515.2829,N,08004.8353,W,1,10,1.3,26,M,,M,,*64
06/13/2014	02:06:16.527	$GPGGA,020616,2515.2822,N,08004.8353,W,1,10,1.3,26,M,,M,,*6C
06/13/2014	02:06:17.590	$GPGGA,020617,2515.2816,N,08004.8358,W,1,10,1.3,26,M,,M,,*61
06/13/2014	02:06:18.570	$GPGGA,020618,2515.2809,N,08004.8360,W,1,10,1.9,26,M,,M,,*61
06/13/2014	02:06:19.592	$GPGGA,020619,2515.2802,N,08004.8361,W,1,9,1.4,26,M,,M,,*5F
06/13/2014	02:06:20.635	$GPGGA,020620,2515.2796,N,08004.8364,W,1,9,1.4,26,M,,M,,*52
06/13/2014	02:06:21.655	$GPGGA,020621,2515.2789,N,08004.8367,W,1,9,1.4,26,M,,M,,*5E
06/13/2014	02:06:22.689	$GPGGA,020622,2515.2782,N,08004.8370,W,1,9,1.4,26,M,,M,,*50
06/13/2014	02:06:23.741	$GPGGA,020623,2515.2777,N,08004.8368,W,1,9,1.4,26,M,,M,,*52
06/13/2014	02:06:24.763	$GPGGA,020624,2515.2771,N,08004.8371,W,1,9,1.3,26,M,,M,,*5C
06/13/2014	02:06:25.805	$GPGGA,020625,2515.2764,N,08004.8375,W,1,9,1.4,26,M,,M,,*5A
06/13/2014	02:06:26.796	$GPGGA,020626,2515.2757,N,08004.8378,W,1,9,1.3,26,M,,M,,*53
06/13/2014	02:06:27.859	$GPGGA,020627,2515.2750,N,08004.8379,W,1,10,1.3,26,M,,M,,*6C
06/13/2014	02:06:28.871	$GPGGA,020628,2515.2744,N,08004.8382,W,1,10,1.4,26,M,,M,,*65
06/13/2014	02:06:29.893	$GPGGA,020629,2515.2738,N,08004.8382,W,1,10,1.3,26,M,,M,,*68
06/13/2014	02:06:30.935	$GPGGA,020630,2515.2731,N,08004.8385,W,1,10,1.3,26,M,,M,,*6E
06/13/2014	02:06:31.946	$GPGGA,020631,2515.2726,N,08004.8389,W,1,9,1.4,26,M,,M,,*5A
06/13/2014	02:06:33.010	$GPGGA,020632,2515.2720,N,08004.8390,W,1,9,1.3,26,M,,M,,*50
06/13/2014	02:06:34.032	$GPGGA,020633,2515.2713,N,08004.8392,W,1,10,1.3,26,M,,M,,*6B
06/13/2014	02:06:35.052	$GPGGA,020634,2515.2707,N,08004.8394,W,1,10,1.3,26,M,,M,,*6F
06/13/2014	02:06:36.084	$GPGGA,020635,2515.2702,N,08004.8397,W,1,9,1.4,26,M,,M,,*57
06/13/2014	02:06:37.136	$GPGGA,020636,2515.2695,N,08004.8400,W,1,9,1.3,26,M,,M,,*55
06/13/2014	02:06:38.138	$GPGGA,020637,2515.2688,N,08004.8401,W,1,9,1.4,26,M,,M,,*5E
06/13/2014	02:06:39.170	$GPGGA,020638,2515.2682,N,08004.8405,W,1,9,1.3,26,M,,M,,*58
06/13/2014	02:06:40.213	$GPGGA,020639,2515.2677,N,08004.8408,W,1,9,1.4,26,M,,M,,*59
06/13/2014	02:06:41.245	$GPGGA,020640,2515.2671,N,08004.8411,W,1,9,1.3,26,M,,M,,*5E
06/13/2014	02:06:42.266	$GPGGA,020641,2515.2664,N,08004.8414,W,1,9,1.4,26,M,,M,,*59
06/13/2014	02:06:45.352	$GPGGA,020642,2515.2659,N,08004.8417,W,1,9,1.5,26,M,,M,,*56
06/13/2014	02:06:45.394	$GPGGA,020644,2515.2648,N,08004.8422,W,1,10,1.3,26,M,,M,,*68
06/13/2014	02:06:46.498	$GPGGA,020645,2515.2641,N,08004.8425,W,1,10,1.3,26,M,,M,,*67
06/13/2014	02:06:47.406	$GPGGA,020646,2515.2634,N,08004.8428,W,1,10,1.3,26,M,,M,,*6B
06/13/2014	02:06:46.648	$GPGGA,020647,2515.2630,N,08004.8432,W,1,10,1.3,26,M,,M,,*65
06/13/2014	02:06:47.566	$GPGGA,020648,2515.2623,N,08004.8436,W,1,10,1.3,26,M,,M,,*6C
06/13/2014	02:06:48.681	$GPGGA,020649,2515.2616,N,08004.8439,W,1,10,1.3,26,M,,M,,*64
06/13/2014	02:06:49.610	$GPGGA,020650,2515.2610,N,08004.8443,W,1,10,1.3,26,M,,M,,*67
06/13/2014	02:06:50.630	$GPGGA,020651,2515.2603,N,08004.8447,W,1,10,1.3,26,M,,M,,*60
06/13/2014	02:06:51.776	$GPGGA,020652,2515.2598,N,08004.8450,W,1,10,1.3,26,M,,M,,*64
06/13/2014	02:06:52.695	$GPGGA,020653,2515.2591,N,08004.8454,W,1,10,1.3,26,M,,M,,*68
06/13/2014	02:06:53.728	$GPGGA,020654,2515.2585,N,08004.8457,W,1,10,1.3,26,M,,M,,*69
06/13/2014	02:06:54.759	$GPGGA,020655,2515.2578,N,08004.8462,W,1,10,1.3,26,M,,M,,*6C
06/13/2014	02:06:55.894	$GPGGA,020656,2515.2573,N,08004.8466,W,1,10,1.3,26,M,,M,,*60
06/13/2014	02:06:56.824	$GPGGA,020657,2515.2567,N,08004.8469,W,1,10,1.3,26,M,,M,,*6B
06/13/2014	02:06:57.948	$GPGGA,020658,2515.2561,N,08004.8472,W,1,10,1.3,26,M,,M,,*68
06/13/2014	02:06:58.991	$GPGGA,020659,2515.2556,N,08004.8476,W,1,10,1.3,26,M,,M,,*69
06/13/2014	02:07:00.033	$GPGGA,020700,2515.2551,N,08004.8480,W,1,10,1.3,26,M,,M,,*6A
06/13/2014	02:07:01.056	$GPGGA,020701,2515.2544,N,08004.8483,W,1,10,1.3,26,M,,M,,*6C
06/13/2014	02:07:02.055	$GPGGA,020702,2515.2538,N,08004.8487,W,1,10,1.3,26,M,,M,,*60
06/13/2014	02:07:03.119	$GPGGA,020703,2515.2533,N,08004.8490,W,1,10,1.3,26,M,,M,,*6C
06/13/2014	02:07:04.141	$GPGGA,020704,2515.2526,N,08004.8494,W,1,10,1.3,26,M,,M,,*6B
06/13/2014	02:07:05.173	$GPGGA,020705,2515.2520,N,08004.8497,W,1,10,1.3,26,M,,M,,*6F
06/13/2014	02:07:06.184	$GPGGA,020706,2515.2514,N,08004.8501,W,1,10,1.3,26,M,,M,,*65
06/13/2014	02:07:07.237	$GPGGA,020707,2515.2508,N,08004.8504,W,1,10,1.3,26,M,,M,,*6C
06/13/2014	02:07:08.279	$GPGGA,020708,2515.2504,N,08004.8508,W,1,10,1.3,26,M,,M,,*63
06/13/2014	02:07:09.300	$GPGGA,020709,2515.2496,N,08004.8512,W,1,10,1.3,26,M,,M,,*63
06/13/2014	02:07:10.322	$GPGGA,020710,2515.2490,N,08004.8515,W,1,10,1.3,26,M,,M,,*6A
06/13/2014	02:07:11.375	$GPGGA,020711,2515.2486,N,08004.8519,W,1,10,1.3,26,M,,M,,*60
06/13/2014	02:07:12.386	$GPGGA,020712,2515.2479,N,08004.8522,W,1,10,1.3,26,M,,M,,*6B
06/13/2014	02:07:13.388	$GPGGA,020713,2515.2473,N,08004.8526,W,1,10,1.3,26,M,,M,,*64
06/13/2014	02:07:14.430	$GPGGA,020714,2515.2469,N,08004.8530,W,1,10,1.3,26,M,,M,,*6F
06/13/2014	02:07:15.441	$GPGGA,020715,2515.2462,N,08004.8533,W,1,10,1.3,26,M,,M,,*66
06/13/2014	02:07:16.494	$GPGGA,020716,2515.2457,N,08004.8535,W,1,10,1.3,26,M,,M,,*65
06/13/2014	02:07:17.516	$GPGGA,020717,2515.2453,N,08004.8540,W,1,10,1.3,26,M,,M,,*62
06/13/2014	02:07:18.548	$GPGGA,020718,2515.2446,N,08004.8544,W,1,10,1.3,26,M,,M,,*6D
06/13/2014	02:07:19.601	$GPGGA,020719,2515.2439,N,08004.8546,W,1,10,1.3,26,M,,M,,*66
06/13/2014	02:07:20.615	$GPGGA,020720,2515.2433,N,08004.8549,W,1,10,1.3,26,M,,M,,*69
06/13/2014	02:07:21.675	$GPGGA,020721,2515.2428,N,08004.8555,W,1,10,1.3,26,M,,M,,*6F
06/13/2014	02:07:22.671	$GPGGA,020722,2515.2421,N,08004.8556,W,1,10,1.3,26,M,,M,,*66
06/13/2014	02:07:23.822	$GPGGA,020723,2515.2417,N,08004.8559,W,1,9,1.3,25,M,,M,,*56
06/13/2014	02:07:24.731	$GPGGA,020724,2515.2411,N,08004.8563,W,1,9,1.3,25,M,,M,,*5E
06/13/2014	02:07:25.762	$GPGGA,020725,2515.2406,N,08004.8566,W,1,9,1.5,25,M,,M,,*5A
06/13/2014	02:07:26.793	$GPGGA,020726,2515.2399,N,08004.8569,W,1,9,1.5,25,M,,M,,*57
06/13/2014	02:07:27.816	$GPGGA,020727,2515.2392,N,08004.8571,W,1,9,1.5,25,M,,M,,*54
06/13/2014	02:07:28.868	$GPGGA,020728,2515.2386,N,08004.8576,W,1,9,1.5,25,M,,M,,*59
06/13/2014	02:07:29.869	$GPGGA,020729,2515.2379,N,08004.8577,W,1,9,1.5,25,M,,M,,*59
06/13/2014	02:07:31.025	$GPGGA,020730,2515.2372,N,08004.8580,W,1,9,1.3,25,M,,M,,*54
06/13/2014	02:07:32.057	$GPGGA,020731,2515.2367,N,08004.8584,W,1,10,1.3,25,M,,M,,*6D
06/13/2014	02:07:33.116	$GPGGA,020732,2515.2361,N,08004.8587,W,1,10,1.3,25,M,,M,,*6B
06/13/2014	02:07:34.122	$GPGGA,020733,2515.2356,N,08004.8588,W,1,10,1.3,25,M,,M,,*61
06/13/2014	02:07:35.019	$GPGGA,020734,2515.2352,N,08004.8592,W,1,10,1.3,25,M,,M,,*69
06/13/2014	02:07:36.061	$GPGGA,020735,2515.2345,N,08004.8595,W,1,10,1.3,25,M,,M,,*69
06/13/2014	02:07:37.094	$GPGGA,020736,2515.2341,N,08004.8598,W,1,10,1.3,25,M,,M,,*63
06/13/2014	02:07:38.229	$GPGGA,020737,2515.2335,N,08004.8600,W,1,10,1.3,25,M,,M,,*63
06/13/2014	02:07:39.147	$GPGGA,020738,2515.2328,N,08004.8605,W,1,10,1.3,25,M,,M,,*65
06/13/2014	02:07:40.303	$GPGGA,020739,2515.2321,N,08004.8605,W,1,10,1.3,25,M,,M,,*6D
06/13/2014	02:07:41.325	$GPGGA,020740,2515.2316,N,08004.8609,W,1,10,1.3,25,M,,M,,*6B
06/13/2014	02:07:42.357	$GPGGA,020741,2515.2310,N,08004.8613,W,1,10,1.3,25,M,,M,,*67
06/13/2014	02:07:43.369	$GPGGA,020742,2515.2305,N,08004.8614,W,1,10,1.3,25,M,,M,,*67
06/13/2014	02:07:44.410	$GPGGA,020743,2515.2298,N,08004.8616,W,1,10,1.3,25,M,,M,,*61
06/13/2014	02:07:45.473	$GPGGA,020744,2515.2291,N,08004.8620,W,1,10,1.3,25,M,,M,,*6A
06/13/2014	02:07:46.474	$GPGGA,020745,2515.2285,N,08004.8621,W,1,10,1.3,25,M,,M,,*6F
06/13/2014	02:07:47.486	$GPGGA,020746,2515.2278,N,08004.8625,W,1,10,1.3,25,M,,M,,*6A
06/13/2014	02:07:46.584	$GPGGA,020747,2515.2271,N,08004.8627,W,1,10,1.3,25,M,,M,,*60
06/13/2014	02:07:47.647	$GPGGA,020748,2515.2265,N,08004.8631,W,1,10,1.3,25,M,,M,,*6D
06/13/2014	02:07:48.668	$GPGGA,020749,2515.2258,N,08004.8634,W,1,10,1.5,25,M,,M,,*61
06/13/2014	02:07:49.680	$GPGGA,020750,2515.2251,N,08004.8636,W,1,10,1.3,25,M,,M,,*64
06/13/2014	02:07:50.733	$GPGGA,020751,2515.2242,N,08004.8638,W,1,10,1.3,25,M,,M,,*69
06/13/2014	02:07:51.765	$GPGGA,020752,2515.2236,N,08004.8642,W,1,10,1.3,25,M,,M,,*64
06/13/2014	02:07:52.787	$GPGGA,020753,2515.2229,N,08004.8643,W,1,10,1.3,25,M,,M,,*6A
06/13/2014	02:07:53.788	$GPGGA,020754,2515.2222,N,08004.8645,W,1,10,1.3,25,M,,M,,*60
06/13/2014	02:07:54.830	$GPGGA,020755,2515.2216,N,08004.8649,W,1,10,1.3,25,M,,M,,*6A
06/13/2014	02:07:55.872	$GPGGA,020756,2515.2211,N,08004.8652,W,1,10,1.3,25,M,,M,,*64
06/13/2014	02:07:56.916	$GPGGA,020757,2515.2204,N,08004.8654,W,1,10,1.3,25,M,,M,,*67
06/13/2014	02:07:57.916	$GPGGA,020758,2515.2197,N,08004.8657,W,1,10,1.3,25,M,,M,,*62
06/13/2014	02:07:58.979	$GPGGA,020759,2515.2190,N,08004.8660,W,1,10,1.3,25,M,,M,,*60
06/13/2014	02:08:00.010	$GPGGA,020800,2515.2184,N,08004.8663,W,1,10,1.3,25,M,,M,,*65
06/13/2014	02:08:01.032	$GPGGA,020801,2515.2178,N,08004.8664,W,1,10,1.3,25,M,,M,,*60
06/13/2014	02:08:02.044	$GPGGA,020802,2515.2171,N,08004.8667,W,1,10,1.3,25,M,,M,,*69
06/13/2014	02:08:03.090	$GPGGA,020803,2515.2165,N,08004.8671,W,1,10,1.3,25,M,,M,,*6A
06/13/2014	02:08:04.130	$GPGGA,020804,2515.2158,N,08004.8674,W,1,10,1.3,24,M,,M,,*67
06/13/2014	02:08:05.129	$GPGGA,020805,2515.2151,N,08004.8675,W,1,10,1.3,24,M,,M,,*6E
06/13/2014	02:08:06.161	$GPGGA,020806,2515.2146,N,08004.8679,W,1,10,1.3,24,M,,M,,*67
06/13/2014	02:08:07.183	$GPGGA,020807,2515.2140,N,08004.8682,W,1,10,1.3,24,M,,M,,*64
06/13/2014	02:08:08.236	$GPGGA,020808,2515.2133,N,08004.8685,W,1,10,1.3,24,M,,M,,*68
06/13/2014	02:08:09.363	$GPGGA,020809,2515.2128,N,08004.8689,W,1,10,1.3,24,M,,M,,*6F
06/13/2014	02:08:10.280	$GPGGA,020810,2515.2122,N,08004.8692,W,1,10,1.3,24,M,,M,,*67
06/13/2014	02:08:11.322	$GPGGA,020811,2515.2117,N,08004.8694,W,1,10,1.3,24,M,,M,,*66
06/13/2014	02:08:12.375	$GPGGA,020812,2515.2110,N,08004.8697,W,1,10,1.3,24,M,,M,,*61
06/13/2014	02:08:13.366	$GPGGA,020813,2515.2103,N,08004.8700,W,1,10,1.3,24,M,,M,,*6D
06/13/2014	02:08:14.522	$GPGGA,020814,2515.2097,N,08004.8706,W,1,10,1.3,24,M,,M,,*60
06/13/2014	02:08:15.481	$GPGGA,020815,2515.2092,N,08004.8708,W,1,10,1.3,24,M,,M,,*6A
06/13/2014	02:08:16.487	$GPGGA,020816,2515.2083,N,08004.8710,W,1,10,1.5,24,M,,M,,*66
06/13/2014	02:08:17.507	$GPGGA,020817,2515.2077,N,08004.8715,W,1,9,1.5,24,M,,M,,*51
06/13/2014	02:08:18.639	$GPGGA,020818,2515.2071,N,08004.8719,W,1,9,1.5,24,M,,M,,*54
06/13/2014	02:08:19.536	$GPGGA,020819,2515.2064,N,08004.8721,W,1,9,1.5,24,M,,M,,*5A
06/13/2014	02:08:20.620	$GPGGA,020820,2515.2057,N,08004.8725,W,1,9,1.5,24,M,,M,,*54
06/13/2014	02:08:21.704	$GPGGA,020821,2515.2052,N,08004.8729,W,1,9,1.5,24,M,,M,,*5C
06/13/2014	02:08:22.634	$GPGGA,020822,2515.2045,N,08004.8732,W,1,9,1.5,24,M,,M,,*53
06/13/2014	02:08:23.696	$GPGGA,020823,2515.2039,N,08004.8736,W,1,9,1.5,24,M,,M,,*5D
06/13/2014	02:08:24.718	$GPGGA,020824,2515.2032,N,08004.8739,W,1,9,1.5,24,M,,M,,*5E
06/13/2014	02:08:25.822	$GPGGA,020825,2515.2027,N,08004.8741,W,1,9,1.5,24,M,,M,,*54
06/13/2014	02:08:26.772	$GPGGA,020826,2515.2020,N,08004.8746,W,1,9,1.5,24,M,,M,,*57
06/13/2014	02:08:27.814	$GPGGA,020827,2515.2013,N,08004.8750,W,1,9,1.5,24,M,,M,,*51
06/13/2014	02:08:28.836	$GPGGA,020828,2515.2007,N,08004.8751,W,1,9,1.5,24,M,,M,,*5A
06/13/2014	02:08:29.847	$GPGGA,020829,2515.2000,N,08004.8755,W,1,9,1.5,24,M,,M,,*58
06/13/2014	02:08:30.890	$GPGGA,020830,2515.1994,N,08004.8758,W,1,9,1.5,24,M,,M,,*5A
06/13/2014	02:08:31.922	$GPGGA,020831,2515.1988,N,08004.8762,W,1,9,1.5,24,M,,M,,*5F
06/13/2014	02:08:32.974	$GPGGA,020832,2515.1982,N,08004.8765,W,1,9,1.5,23,M,,M,,*56
06/13/2014	02:08:34.110	$GPGGA,020833,2515.1974,N,08004.8768,W,1,9,1.5,23,M,,M,,*53
06/13/2014	02:08:35.085	$GPGGA,020834,2515.1969,N,08004.8772,W,1,9,1.5,23,M,,M,,*53
06/13/2014	02:08:36.152	$GPGGA,020835,2515.1963,N,08004.8775,W,1,9,1.5,23,M,,M,,*5F
06/13/2014	02:08:37.174	$GPGGA,020836,2515.1956,N,08004.8777,W,1,9,1.5,23,M,,M,,*58
06/13/2014	02:08:38.196	$GPGGA,020837,2515.1951,N,08004.8782,W,1,9,1.5,23,M,,M,,*54
06/13/2014	02:08:39.218	$GPGGA,020838,2515.1944,N,08004.8784,W,1,9,1.5,23,M,,M,,*59
06/13/2014	02:08:40.240	$GPGGA,020839,2515.1937,N,08004.8787,W,1,9,1.5,23,M,,M,,*5F
06/13/2014	02:08:41.253	$GPGGA,020840,2515.1931,N,08004.8790,W,1,9,1.5,23,M,,M,,*51
06/13/2014	02:08:42.276	$GPGGA,020841,2515.1924,N,08004.8793,W,1,9,1.5,23,M,,M,,*57
06/13/2014	02:08:43.279	$GPGGA,020842,2515.1918,N,08004.8797,W,1,9,1.5,23,M,,M,,*5F
06/13/2014	02:08:44.292	$GPGGA,020843,2515.1912,N,08004.8800,W,1,9,1.5,23,M,,M,,*55
06/13/2014	02:08:45.307	$GPGGA,020844,2515.1905,N,08004.8801,W,1,9,1.5,23,M,,M,,*55
06/13/2014	02:08:46.329	$GPGGA,020845,2515.1899,N,08004.8804,W,1,9,1.5,23,M,,M,,*55
06/13/2014	02:08:47.322	$GPGGA,020846,2515.1893,N,08004.8808,W,1,9,1.5,23,M,,M,,*50
06/13/2014	02:08:46.574	$GPGGA,020847,2515.1887,N,08004.8811,W,1,9,1.5,23,M,,M,,*5C
06/13/2014	02:08:47.577	$GPGGA,020848,2515.1881,N,08004.8813,W,1,9,1.5,23,M,,M,,*57
06/13/2014	02:08:48.610	$GPGGA,020849,2515.1875,N,08004.8816,W,1,9,1.5,23,M,,M,,*58
06/13/2014	02:08:49.589	$GPGGA,020850,2515.1868,N,08004.8819,W,1,9,1.5,23,M,,M,,*53
06/13/2014	02:08:50.606	$GPGGA,020851,2515.1865,N,08004.8820,W,1,8,1.8,23,M,,M,,*59
06/13/2014	02:08:51.619	$GPGGA,020852,2515.1861,N,08004.8822,W,1,8,1.5,23,M,,M,,*51
06/13/2014	02:08:52.651	$GPGGA,020853,2515.1857,N,08004.8823,W,1,9,1.5,23,M,,M,,*55
06/13/2014	02:08:53.624	$GPGGA,020854,2515.1851,N,08004.8824,W,1,9,1.5,23,M,,M,,*53
06/13/2014	02:08:54.667	$GPGGA,020855,2515.1846,N,08004.8827,W,1,9,1.5,23,M,,M,,*57
06/13/2014	02:08:55.673	$GPGGA,020856,2515.1839,N,08004.8830,W,1,9,1.5,23,M,,M,,*5A
06/13/2014	02:08:56.693	$GPGGA,020857,2515.1832,N,08004.8833,W,1,9,1.5,23,M,,M,,*53
06/13/2014	02:08:57.676	$GPGGA,020858,2515.1826,N,08004.8835,W,1,9,1.5,23,M,,M,,*5F
06/13/2014	02:08:58.720	$GPGGA,020859,2515.1821,N,08004.8838,W,1,9,1.5,23,M,,M,,*54
06/13/2014	02:08:59.715	$GPGGA,020900,2515.1814,N,08004.8840,W,1,9,1.5,23,M,,M,,*50
06/13/2014	02:09:00.705	$GPGGA,020901,2515.1807,N,08004.8842,W,1,9,1.5,23,M,,M,,*51
06/13/2014	02:09:01.729	$GPGGA,020902,2515.1801,N,08004.8847,W,1,9,1.5,23,M,,M,,*51
06/13/2014	02:09:02.762	$GPGGA,020903,2515.1796,N,08004.8849,W,1,9,1.5,23,M,,M,,*5F
06/13/2014	02:09:03.755	$GPGGA,020904,2515.1788,N,08004.8851,W,1,9,1.5,23,M,,M,,*5E
06/13/2014	02:09:04.748	$GPGGA,020905,2515.1782,N,08004.8853,W,1,9,1.5,23,M,,M,,*57
06/13/2014	02:09:05.761	$GPGGA,020906,2515.1776,N,08004.8858,W,1,9,1.5,23,M,,M,,*54
06/13/2014	02:09:06.794	$GPGGA,020907,2515.1770,N,08004.8859,W,1,9,1.5,23,M,,M,,*52
06/13/2014	02:09:07.807	$GPGGA,020908,2515.1764,N,08004.8862,W,1,9,1.5,23,M,,M,,*50
06/13/2014	02:09:08.790	$GPGGA,020909,2515.1758,N,08004.8866,W,1,9,1.5,23,M,,M,,*5A
06/13/2014	02:09:09.903	$GPGGA,020910,2515.1752,N,08004.8867,W,1,9,1.5,23,M,,M,,*59
06/13/2014	02:09:10.947	$GPGGA,020911,2515.1745,N,08004.8869,W,1,9,1.5,23,M,,M,,*50
06/13/2014	02:09:11.838	$GPGGA,020912,2515.1739,N,08004.8873,W,1,9,1.5,23,M,,M,,*53
06/13/2014	02:09:12.851	$GPGGA,020913,2515.1732,N,08004.8876,W,1,9,1.5,23,M,,M,,*5C
06/13/2014	02:09:13.844	$GPGGA,020914,2515.1725,N,08004.8878,W,1,9,1.5,23,M,,M,,*53
06/13/2014	02:09:14.857	$GPGGA,020915,2515.1718,N,08004.8883,W,1,8,1.8,23,M,,M,,*54
06/13/2014	02:09:15.982	$GPGGA,020916,2515.1712,N,08004.8884,W,1,8,1.8,23,M,,M,,*5A
06/13/2014	02:09:16.914	$GPGGA,020917,2515.1706,N,08004.8887,W,1,9,1.5,23,M,,M,,*51
06/13/2014	02:09:17.907	$GPGGA,020918,2515.1700,N,08004.8889,W,1,9,1.5,23,M,,M,,*56
06/13/2014	02:09:20.521	$GPGGA,020919,2515.1693,N,08004.8892,W,1,9,1.5,23,M,,M,,*56
06/13/2014	02:09:20.541	$GPGGA,020920,2515.1686,N,08004.8895,W,1,9,1.5,23,M,,M,,*5F
06/13/2014	02:09:21.027	$GPGGA,020921,2515.1680,N,08004.8899,W,1,8,1.8,23,M,,M,,*58
06/13/2014	02:09:21.949	$GPGGA,020922,2515.1673,N,08004.8902,W,1,8,1.8,23,M,,M,,*54
06/13/2014	02:09:22.952	$GPGGA,020923,2515.1665,N,08004.8906,W,1,8,1.8,23,M,,M,,*56
06/13/2014	02:09:23.975	$GPGGA,020924,2515.1658,N,08004.8910,W,1,8,1.8,23,M,,M,,*58
06/13/2014	02:09:25.066	$GPGGA,020925,2515.1652,N,08004.8912,W,1,8,1.8,23,M,,M,,*51
06/13/2014	02:09:26.084	$GPGGA,020926,2515.1646,N,08004.8916,W,1,8,1.5,22,M,,M,,*5F
06/13/2014	02:09:27.099	$GPGGA,020927,2515.1641,N,08004.8917,W,1,8,1.8,22,M,,M,,*55
06/13/2014	02:09:28.110	$GPGGA,020928,2515.1637,N,08004.8918,W,1,8,1.5,22,M,,M,,*59
06/13/2014	02:09:29.151	$GPGGA,020929,2515.1629,N,08004.8923,W,1,9,1.5,22,M,,M,,*5E
06/13/2014	02:09:30.130	$GPGGA,020930,2515.1626,N,08004.8924,W,1,9,1.8,22,M,,M,,*53
06/13/2014	02:09:31.147	$GPGGA,020931,2515.1619,N,08004.8927,W,1,9,1.5,22,M,,M,,*50
06/13/2014	02:09:32.170	$GPGGA,020932,2515.1615,N,08004.8930,W,1,9,1.5,22,M,,M,,*59
06/13/2014	02:09:33.184	$GPGGA,020933,2515.1609,N,08004.8932,W,1,9,1.5,22,M,,M,,*57
06/13/2014	02:09:34.172	$GPGGA,020934,2515.1604,N,08004.8934,W,1,9,1.5,22,M,,M,,*5B
06/13/2014	02:09:35.179	$GPGGA,020935,2515.1599,N,08004.8938,W,1,9,1.5,22,M,,M,,*51
06/13/2014	02:09:36.205	$GPGGA,020936,2515.1592,N,08004.8941,W,1,9,1.5,22,M,,M,,*57
06/13/2014	02:09:37.226	$GPGGA,020937,2515.1586,N,08004.8946,W,1,8,1.8,22,M,,M,,*58
06/13/2014	02:09:38.210	$GPGGA,020938,2515.1579,N,08004.8949,W,1,8,1.8,22,M,,M,,*58
06/13/2014	02:09:39.252	$GPGGA,020939,2515.1572,N,08004.8953,W,1,8,1.8,22,M,,M,,*59
06/13/2014	02:09:40.245	$GPGGA,020940,2515.1566,N,08004.8959,W,1,8,1.8,22,M,,M,,*58
06/13/2014	02:09:41.258	$GPGGA,020941,2515.1559,N,08004.8961,W,1,8,1.8,22,M,,M,,*5E
06/13/2014	02:09:42.263	$GPGGA,020942,2515.1553,N,08004.8963,W,1,8,1.8,22,M,,M,,*55
06/13/2014	02:09:43.295	$GPGGA,020943,2515.1547,N,08004.8968,W,1,9,1.5,22,M,,M,,*56
06/13/2014	02:09:44.297	$GPGGA,020944,2515.1541,N,08004.8972,W,1,9,1.8,22,M,,M,,*51
06/13/2014	02:09:45.319	$GPGGA,020945,2515.1534,N,08004.8975,W,1,8,1.8,22,M,,M,,*54
06/13/2014	02:09:46.292	$GPGGA,020946,2515.1527,N,08004.8979,W,1,8,1.8,22,M,,M,,*59
06/13/2014	02:09:46.521	$GPGGA,020947,2515.1521,N,08004.8985,W,1,8,1.8,22,M,,M,,*5D
06/13/2014	02:09:47.561	$GPGGA,020948,2515.1515,N,08004.8988,W,1,8,1.8,22,M,,M,,*58
06/13/2014	02:09:48.547	$GPGGA,020949,2515.1508,N,08004.8990,W,1,8,1.8,21,M,,M,,*5F
06/13/2014	02:09:49.570	$GPGGA,020950,2515.1503,N,08004.8996,W,1,8,1.8,21,M,,M,,*5A
06/13/2014	02:09:50.595	$GPGGA,020951,2515.1497,N,08004.8999,W,1,8,1.8,21,M,,M,,*58
06/13/2014	02:09:51.597	$GPGGA,020952,2515.1492,N,08004.9001,W,1,8,1.5,21,M,,M,,*5A
06/13/2014	02:09:52.630	$GPGGA,020953,2515.1485,N,08004.9006,W,1,9,1.5,21,M,,M,,*5B
06/13/2014	02:09:53.614	$GPGGA,020954,2515.1479,N,08004.9008,W,1,9,1.8,21,M,,M,,*5C
06/13/2014	02:09:54.605	$GPGGA,020955,2515.1474,N,08004.9011,W,1,9,1.5,21,M,,M,,*55
06/13/2014	02:09:55.649	$GPGGA,020956,2515.1468,N,08004.9014,W,1,9,1.5,21,M,,M,,*5E
06/13/2014	02:09:56.663	$GPGGA,020957,2515.1463,N,08004.9017,W,1,9,1.5,21,M,,M,,*57
06/13/2014	02:09:57.655	$GPGGA,020958,2515.1457,N,08004.9021,W,1,9,1.5,21,M,,M,,*5A
06/13/2014	02:09:58.668	$GPGGA,020959,2515.1451,N,08004.9024,W,1,9,1.5,21,M,,M,,*58
06/13/2014	02:09:59.704	$GPGGA,021000,2515.1445,N,08004.9026,W,1,9,1.5,21,M,,M,,*5B
06/13/2014	02:10:00.718	$GPGGA,021001,2515.1439,N,08004.9029,W,1,9,1.5,21,M,,M,,*5E
06/13/2014	02:10:01.809	$GPGGA,021002,2515.1434,N,08004.9032,W,1,9,1.5,21,M,,M,,*5A
06/13/2014	02:10:02.699	$GPGGA,021003,2515.1428,N,08004.9035,W,1,9,1.5,21,M,,M,,*51
06/13/2014	02:10:03.732	$GPGGA,021004,2515.1422,N,08004.9039,W,1,9,1.5,21,M,,M,,*50
06/13/2014	02:10:04.837	$GPGGA,021005,2515.1417,N,08004.9042,W,1,9,1.5,21,M,,M,,*5B
06/13/2014	02:10:05.728	$GPGGA,021006,2515.1413,N,08004.9044,W,1,9,1.5,21,M,,M,,*5A
06/13/2014	02:10:06.762	$GPGGA,021007,2515.1406,N,08004.9046,W,1,9,1.5,21,M,,M,,*5D
06/13/2014	02:10:07.886	$GPGGA,021008,2515.1402,N,08004.9050,W,1,9,1.5,21,M,,M,,*51
06/13/2014	02:10:08.768	$GPGGA,021009,2515.1395,N,08004.9053,W,1,9,1.5,21,M,,M,,*5A
06/13/2014	02:10:09.892	$GPGGA,021010,2515.1387,N,08004.9057,W,1,9,1.5,21,M,,M,,*55
06/13/2014	02:10:10.905	$GPGGA,021011,2515.1381,N,08004.9059,W,1,8,1.8,21,M,,M,,*50
06/13/2014	02:10:11.909	$GPGGA,021012,2515.1375,N,08004.9062,W,1,8,1.5,21,M,,M,,*5D
06/13/2014	02:10:12.810	$GPGGA,021013,2515.1370,N,08004.9064,W,1,9,1.5,21,M,,M,,*5E
06/13/2014	02:10:13.914	$GPGGA,021014,2515.1363,N,08004.9068,W,1,9,1.5,21,M,,M,,*57
06/13/2014	02:10:14.958	$GPGGA,021015,2515.1356,N,08004.9071,W,1,8,1.8,21,M,,M,,*54
06/13/2014	02:10:15.971	$GPGGA,021016,2515.1351,N,08004.9072,W,1,8,1.8,21,M,,M,,*53
06/13/2014	02:10:16.953	$GPGGA,021017,2515.1344,N,08004.9076,W,1,9,1.5,21,M,,M,,*5E
06/13/2014	02:10:17.875	$GPGGA,021018,2515.1337,N,08004.9080,W,1,9,1.8,21,M,,M,,*51
06/13/2014	02:10:18.972	$GPGGA,021019,2515.1329,N,08004.9082,W,1,8,1.8,21,M,,M,,*5C
06/13/2014	02:10:19.901	$GPGGA,021020,2515.1322,N,08004.9086,W,1,8,1.8,21,M,,M,,*59
06/13/2014	02:10:20.904	$GPGGA,021021,2515.1315,N,08004.9090,W,1,8,1.8,21,M,,M,,*5B
06/13/2014	02:10:22.012	$GPGGA,021022,2515.1308,N,08004.9093,W,1,8,1.8,21,M,,M,,*57
06/13/2014	02:10:23.034	$GPGGA,021023,2515.1301,N,08004.9097,W,1,8,1.8,21,M,,M,,*5B
06/13/2014	02:10:24.052	$GPGGA,021024,2515.1294,N,08004.9100,W,1,8,1.8,21,M,,M,,*5E
06/13/2014	02:10:25.061	$GPGGA,021025,2515.1287,N,08004.9102,W,1,8,1.8,21,M,,M,,*5F
06/13/2014	02:10:26.070	$GPGGA,021026,2515.1281,N,08004.9105,W,1,8,1.8,21,M,,M,,*5D
06/13/2014	02:10:27.097	$GPGGA,021027,2515.1273,N,08004.9108,W,1,8,1.8,20,M,,M,,*5D
06/13/2014	02:10:28.097	$GPGGA,021028,2515.1268,N,08004.9111,W,1,8,1.8,20,M,,M,,*50
06/13/2014	02:10:29.109	$GPGGA,021029,2515.1261,N,08004.9115,W,1,8,1.8,20,M,,M,,*5C
06/13/2014	02:10:30.139	$GPGGA,021030,2515.1254,N,08004.9116,W,1,8,1.8,20,M,,M,,*51
06/13/2014	02:10:31.133	$GPGGA,021031,2515.1246,N,08004.9120,W,1,8,1.8,20,M,,M,,*56
06/13/2014	02:10:32.143	$GPGGA,021032,2515.1239,N,08004.9123,W,1,8,1.8,20,M,,M,,*5E
06/13/2014	02:10:33.132	$GPGGA,021033,2515.1233,N,08004.9126,W,1,8,1.8,20,M,,M,,*50
06/13/2014	02:10:34.146	$GPGGA,021034,2515.1226,N,08004.9129,W,1,8,1.8,20,M,,M,,*5C
06/13/2014	02:10:35.192	$GPGGA,021035,2515.1221,N,08004.9130,W,1,8,1.8,20,M,,M,,*52
06/13/2014	02:10:36.185	$GPGGA,021036,2515.1214,N,08004.9133,W,1,8,1.8,20,M,,M,,*54
06/13/2014	02:10:37.188	$GPGGA,021037,2515.1208,N,08004.9134,W,1,9,1.5,20,M,,M,,*53
06/13/2014	02:10:38.211	$GPGGA,021038,2515.1201,N,08004.9138,W,1,9,1.8,20,M,,M,,*54
06/13/2014	02:10:39.219	$GPGGA,021039,2515.1193,N,08004.9141,W,1,9,1.5,20,M,,M,,*5E
06/13/2014	02:10:40.222	$GPGGA,021040,2515.1187,N,08004.9142,W,1,9,1.5,20,M,,M,,*56
06/13/2014	02:10:41.235	$GPGGA,021041,2515.1181,N,08004.9147,W,1,8,1.8,20,M,,M,,*58
06/13/2014	02:10:42.228	$GPGGA,021042,2515.1174,N,08004.9148,W,1,8,1.8,19,M,,M,,*54
06/13/2014	02:10:43.241	$GPGGA,021043,2515.1168,N,08004.9149,W,1,8,1.8,19,M,,M,,*59
06/13/2014	02:10:44.275	$GPGGA,021044,2515.1163,N,08004.9151,W,1,8,1.5,19,M,,M,,*51
06/13/2014	02:10:45.312	$GPGGA,021045,2515.1156,N,08004.9152,W,1,8,1.8,19,M,,M,,*58
06/13/2014	02:10:46.271	$GPGGA,021046,2515.1147,N,08004.9154,W,1,8,1.7,19,M,,M,,*52
06/13/2014	02:10:46.539	$GPGGA,021047,2515.1142,N,08004.9155,W,1,9,1.5,19,M,,M,,*54
06/13/2014	02:10:47.532	$GPGGA,021048,2515.1136,N,08004.9156,W,1,9,1.8,20,M,,M,,*5C
06/13/2014	02:10:48.515	$GPGGA,021049,2515.1131,N,08004.9159,W,1,9,1.5,20,M,,M,,*58
06/13/2014	02:10:49.548	$GPGGA,021050,2515.1125,N,08004.9162,W,1,9,1.5,20,M,,M,,*5D
06/13/2014	02:10:50.541	$GPGGA,021051,2515.1120,N,08004.9165,W,1,9,1.5,20,M,,M,,*5E
06/13/2014	02:10:51.574	$GPGGA,021052,2515.1113,N,08004.9167,W,1,9,1.5,20,M,,M,,*5F
06/13/2014	02:10:52.749	$GPGGA,021053,2515.1107,N,08004.9170,W,1,9,1.5,20,M,,M,,*5D
06/13/2014	02:10:53.570	$GPGGA,021054,2515.1100,N,08004.9173,W,1,9,1.5,20,M,,M,,*5E
06/13/2014	02:10:54.583	$GPGGA,021055,2515.1095,N,08004.9176,W,1,9,1.5,20,M,,M,,*57
06/13/2014	02:10:55.616	$GPGGA,021056,2515.1088,N,08004.9180,W,1,9,1.5,20,M,,M,,*51
06/13/2014	02:10:56.791	$GPGGA,021057,2515.1081,N,08004.9183,W,1,9,1.8,21,M,,M,,*56
06/13/2014	02:10:57.621	$GPGGA,021058,2515.1074,N,08004.9187,W,1,9,1.8,21,M,,M,,*57
06/13/2014	02:10:58.817	$GPGGA,021059,2515.1068,N,08004.9191,W,1,9,1.5,21,M,,M,,*51
06/13/2014	02:10:59.668	$GPGGA,021100,2515.1060,N,08004.9194,W,1,9,1.5,21,M,,M,,*51
06/13/2014	02:11:00.651	$GPGGA,021101,2515.1055,N,08004.9196,W,1,9,1.5,21,M,,M,,*54
06/13/2014	02:11:01.806	$GPGGA,021102,2515.1049,N,08004.9202,W,1,9,1.5,21,M,,M,,*54
06/13/2014	02:11:02.768	$GPGGA,021103,2515.1044,N,08004.9205,W,1,9,1.5,22,M,,M,,*5C
06/13/2014	02:11:03.801	$GPGGA,021104,2515.1037,N,08004.9205,W,1,9,1.5,22,M,,M,,*5F
06/13/2014	02:11:04.713	$GPGGA,021105,2515.1032,N,08004.9209,W,1,9,1.5,22,M,,M,,*57
06/13/2014	02:11:05.716	$GPGGA,021106,2515.1026,N,08004.9213,W,1,9,1.5,22,M,,M,,*5A
06/13/2014	02:11:06.922	$GPGGA,021107,2515.1020,N,08004.9216,W,1,8,1.5,23,M,,M,,*58
06/13/2014	02:11:07.874	$GPGGA,021108,2515.1014,N,08004.9219,W,1,8,1.5,23,M,,M,,*5F
06/13/2014	02:11:08.928	$GPGGA,021109,2515.1009,N,08004.9223,W,1,9,1.5,23,M,,M,,*5A
06/13/2014	02:11:09.880	$GPGGA,021110,2515.1001,N,08004.9227,W,1,9,1.8,23,M,,M,,*53
06/13/2014	02:11:10.866	$GPGGA,021111,2515.0997,N,08004.9228,W,1,8,1.8,23,M,,M,,*5B
06/13/2014	02:11:11.937	$GPGGA,021112,2515.0990,N,08004.9231,W,1,8,1.5,24,M,,M,,*5D
06/13/2014	02:11:12.999	$GPGGA,021113,2515.0984,N,08004.9234,W,1,9,1.5,24,M,,M,,*5D
06/13/2014	02:11:13.921	$GPGGA,021114,2515.0979,N,08004.9238,W,1,9,1.5,24,M,,M,,*54
06/13/2014	02:11:15.005	$GPGGA,021115,2515.0973,N,08004.9241,W,1,9,1.5,24,M,,M,,*51
06/13/2014	02:11:15.988	$GPGGA,021116,2515.0967,N,08004.9245,W,1,9,1.5,24,M,,M,,*53
06/13/2014	02:11:17.052	$GPGGA,021117,2515.0961,N,08004.9246,W,1,9,1.5,25,M,,M,,*56
06/13/2014	02:11:17.974	$GPGGA,021118,2515.0955,N,08004.9249,W,1,9,1.5,25,M,,M,,*51
06/13/2014	02:11:19.062	$GPGGA,021119,2515.0949,N,08004.9253,W,1,9,1.5,25,M,,M,,*56
06/13/2014	02:11:19.971	$GPGGA,021120,2515.0943,N,08004.9256,W,1,9,1.5,25,M,,M,,*53
06/13/2014	02:11:20.972	$GPGGA,021121,2515.0936,N,08004.9259,W,1,9,1.5,25,M,,M,,*5F
06/13/2014	02:11:22.006	$GPGGA,021122,2515.0929,N,08004.9263,W,1,9,1.5,26,M,,M,,*58
06/13/2014	02:11:23.059	$GPGGA,021123,2515.0923,N,08004.9267,W,1,9,1.5,26,M,,M,,*57
06/13/2014	02:11:24.017	$GPGGA,021124,2515.0916,N,08004.9270,W,1,9,1.5,26,M,,M,,*50
06/13/2014	02:11:25.116	$GPGGA,021125,2515.0910,N,08004.9271,W,1,9,1.5,26,M,,M,,*56
06/13/2014	02:11:26.055	$GPGGA,021126,2515.0905,N,08004.9277,W,1,9,1.5,26,M,,M,,*57
06/13/2014	02:11:27.031	$GPGGA,021127,2515.0898,N,08004.9278,W,1,9,1.5,26,M,,M,,*5C
06/13/2014	02:11:28.090	$GPGGA,021128,2515.0892,N,08004.9281,W,1,9,1.5,26,M,,M,,*5F
06/13/2014	02:11:29.128	$GPGGA,021129,2515.0886,N,08004.9285,W,1,9,1.5,26,M,,M,,*5F
06/13/2014	02:11:30.090	$GPGGA,021130,2515.0879,N,08004.9288,W,1,9,1.5,26,M,,M,,*5A
06/13/2014	02:11:31.183	$GPGGA,021131,2515.0873,N,08004.9290,W,1,9,1.5,26,M,,M,,*58
06/13/2014	02:11:32.142	$GPGGA,021132,2515.0867,N,08004.9293,W,1,9,1.5,26,M,,M,,*5D
06/13/2014	02:11:33.098	$GPGGA,021133,2515.0861,N,08004.9296,W,1,9,1.5,26,M,,M,,*5F
06/13/2014	02:11:34.152	$GPGGA,021134,2515.0855,N,08004.9299,W,1,9,1.5,27,M,,M,,*51
06/13/2014	02:11:35.216	$GPGGA,021135,2515.0849,N,08004.9301,W,1,9,1.5,27,M,,M,,*5D
06/13/2014	02:11:36.148	$GPGGA,021136,2515.0842,N,08004.9306,W,1,9,1.5,27,M,,M,,*52
06/13/2014	02:11:37.242	$GPGGA,021137,2515.0836,N,08004.9306,W,1,9,1.5,27,M,,M,,*50
06/13/2014	02:11:38.196	$GPGGA,021138,2515.0831,N,08004.9310,W,1,9,1.5,27,M,,M,,*5F
06/13/2014	02:11:39.278	$GPGGA,021139,2515.0824,N,08004.9314,W,1,9,1.5,27,M,,M,,*5E
06/13/2014	02:11:40.221	$GPGGA,021140,2515.0817,N,08004.9314,W,1,9,1.5,27,M,,M,,*50
06/13/2014	02:11:41.193	$GPGGA,021141,2515.0810,N,08004.9317,W,1,9,1.5,27,M,,M,,*55
06/13/2014	02:11:42.196	$GPGGA,021142,2515.0804,N,08004.9321,W,1,9,1.5,27,M,,M,,*56
06/13/2014	02:11:43.341	$GPGGA,021143,2515.0798,N,08004.9324,W,1,9,1.5,27,M,,M,,*58
06/13/2014	02:11:44.365	$GPGGA,021144,2515.0791,N,08004.9325,W,1,9,1.5,27,M,,M,,*57
06/13/2014	02:11:45.377	$GPGGA,021145,2515.0784,N,08004.9328,W,1,9,1.5,27,M,,M,,*5F
06/13/2014	02:11:46.269	$GPGGA,021146,2515.0778,N,08004.9332,W,1,9,1.5,27,M,,M,,*54
06/13/2014	02:11:46.590	$GPGGA,021147,2515.0771,N,08004.9335,W,1,9,1.5,27,M,,M,,*5B
06/13/2014	02:11:47.591	$GPGGA,021148,2515.0766,N,08004.9336,W,1,9,1.5,27,M,,M,,*51
