Software Version Number: 1	Data File Format Number: 1	Build Version Number: 1	Error Count Since VI Started: 0	Manufacturer: Raytheon	 Model Number: RayMarine 120	 S/N: 	 Cal Date: 	 Wind Direction Offset: 0.00	 Slope (M)1: 0.00	 Offset (B)1: 0.00	 Slope (M)2: 0.00	 Offset (B)2: 0.00	 Slope (M)3: 0.00	 Offset (B)3: 0.00	 Slope (M)4: 0.00	 Offset (B)4: 0.00	 Slope (M)5: 0.00	 Offset (B)5: 0.00	 Slope (M)6: 0.00	 Offset (B)6: 0.00
Computer Date	Computer Time	GGA String
06/08/2014	22:00:00.690	$GPGGA,220001,2456.4699,N,08020.0394,W,1,10,1.5,14,M,,M,,*62
06/08/2014	22:00:01.637	$GPGGA,220002,2456.4697,N,08020.0379,W,1,10,1.3,14,M,,M,,*6A
06/08/2014	22:00:02.544	$GPGGA,220003,2456.4693,N,08020.0364,W,1,10,1.3,14,M,,M,,*63
06/08/2014	22:00:03.677	$GPGGA,220004,2456.4689,N,08020.0347,W,1,10,1.3,14,M,,M,,*6E
06/08/2014	22:00:04.629	$GPGGA,220005,2456.4686,N,08020.0332,W,1,10,1.5,14,M,,M,,*64
06/08/2014	22:00:05.642	$GPGGA,220006,2456.4682,N,08020.0317,W,1,10,1.3,14,M,,M,,*62
06/08/2014	22:00:06.654	$GPGGA,220007,2456.4679,N,08020.0301,W,1,10,1.3,14,M,,M,,*60
06/08/2014	22:00:07.657	$GPGGA,220008,2456.4675,N,08020.0286,W,1,10,1.3,14,M,,M,,*6D
06/08/2014	22:00:08.639	$GPGGA,220009,2456.4672,N,08020.0270,W,1,10,1.3,14,M,,M,,*62
06/08/2014	22:00:09.652	$GPGGA,220010,2456.4668,N,08020.0255,W,1,10,1.3,14,M,,M,,*66
06/08/2014	22:00:10.664	$GPGGA,220011,2456.4664,N,08020.0240,W,1,10,1.3,14,M,,M,,*6F
06/08/2014	22:00:11.647	$GPGGA,220012,2456.4660,N,08020.0225,W,1,10,1.3,14,M,,M,,*6B
06/08/2014	22:00:12.669	$GPGGA,220013,2456.4657,N,08020.0210,W,1,10,1.3,15,M,,M,,*69
06/08/2014	22:00:13.632	$GPGGA,220014,2456.4653,N,08020.0194,W,1,10,1.3,15,M,,M,,*65
06/08/2014	22:00:14.664	$GPGGA,220015,2456.4650,N,08020.0179,W,1,10,1.3,15,M,,M,,*64
06/08/2014	22:00:15.656	$GPGGA,220016,2456.4646,N,08020.0163,W,1,10,1.3,15,M,,M,,*6B
06/08/2014	22:00:16.658	$GPGGA,220017,2456.4642,N,08020.0148,W,1,10,1.3,15,M,,M,,*67
06/08/2014	22:00:17.662	$GPGGA,220018,2456.4639,N,08020.0133,W,1,10,1.3,15,M,,M,,*68
06/08/2014	22:00:18.673	$GPGGA,220019,2456.4635,N,08020.0118,W,1,10,1.3,15,M,,M,,*6C
06/08/2014	22:00:19.656	$GPGGA,220020,2456.4630,N,08020.0103,W,1,10,1.3,15,M,,M,,*69
06/08/2014	22:00:20.668	$GPGGA,220021,2456.4628,N,08020.0086,W,1,10,1.3,15,M,,M,,*6D
06/08/2014	22:00:21.653	$GPGGA,220022,2456.4623,N,08020.0070,W,1,10,1.5,15,M,,M,,*6A
06/08/2014	22:00:22.664	$GPGGA,220023,2456.4621,N,08020.0054,W,1,10,1.5,15,M,,M,,*6F
06/08/2014	22:00:23.666	$GPGGA,220024,2456.4617,N,08020.0037,W,1,10,1.5,15,M,,M,,*68
06/08/2014	22:00:24.668	$GPGGA,220025,2456.4613,N,08020.0021,W,1,10,1.5,15,M,,M,,*6A
06/08/2014	22:00:25.661	$GPGGA,220026,2456.4610,N,08020.0006,W,1,10,1.5,15,M,,M,,*6F
06/08/2014	22:00:26.644	$GPGGA,220027,2456.4606,N,08019.9991,W,1,10,1.3,15,M,,M,,*6B
06/08/2014	22:00:27.656	$GPGGA,220028,2456.4603,N,08019.9976,W,1,10,1.3,15,M,,M,,*68
06/08/2014	22:00:28.678	$GPGGA,220029,2456.4599,N,08019.9960,W,1,10,1.3,15,M,,M,,*6E
06/08/2014	22:00:29.641	$GPGGA,220030,2456.4595,N,08019.9944,W,1,10,1.5,15,M,,M,,*6A
06/08/2014	22:00:30.693	$GPGGA,220031,2456.4592,N,08019.9928,W,1,10,1.5,15,M,,M,,*66
06/08/2014	22:00:31.677	$GPGGA,220032,2456.4587,N,08019.9913,W,1,10,1.3,15,M,,M,,*6F
06/08/2014	22:00:32.828	$GPGGA,220033,2456.4585,N,08019.9898,W,1,10,1.3,15,M,,M,,*6E
06/08/2014	22:00:33.661	$GPGGA,220034,2456.4581,N,08019.9882,W,1,10,1.3,15,M,,M,,*66
06/08/2014	22:00:34.673	$GPGGA,220035,2456.4576,N,08019.9867,W,1,10,1.3,15,M,,M,,*64
06/08/2014	22:00:35.675	$GPGGA,220036,2456.4572,N,08019.9853,W,1,10,1.3,15,M,,M,,*64
06/08/2014	22:00:36.873	$GPGGA,220037,2456.4568,N,08019.9838,W,1,10,1.3,15,M,,M,,*63
06/08/2014	22:00:37.736	$GPGGA,220038,2456.4564,N,08019.9823,W,1,10,1.3,15,M,,M,,*6A
06/08/2014	22:00:38.778	$GPGGA,220039,2456.4560,N,08019.9808,W,1,10,1.3,15,M,,M,,*66
06/08/2014	22:00:39.711	$GPGGA,220040,2456.4556,N,08019.9794,W,1,10,1.3,15,M,,M,,*67
06/08/2014	22:00:40.612	$GPGGA,220041,2456.4552,N,08019.9779,W,1,10,1.3,15,M,,M,,*61
06/08/2014	22:00:41.749	$GPGGA,220042,2456.4547,N,08019.9764,W,1,10,1.3,15,M,,M,,*6A
06/08/2014	22:00:42.707	$GPGGA,220043,2456.4543,N,08019.9750,W,1,10,1.3,15,M,,M,,*68
06/08/2014	22:00:43.770	$GPGGA,220044,2456.4539,N,08019.9735,W,1,10,1.3,15,M,,M,,*61
06/08/2014	22:00:44.988	$GPGGA,220045,2456.4535,N,08019.9721,W,1,10,1.3,15,M,,M,,*69
06/08/2014	22:00:45.844	$GPGGA,220046,2456.4531,N,08019.9706,W,1,10,1.3,15,M,,M,,*6B
06/08/2014	22:00:46.917	$GPGGA,220047,2456.4527,N,08019.9691,W,1,10,1.3,15,M,,M,,*62
06/08/2014	22:00:48.065	$GPGGA,220048,2456.4523,N,08019.9677,W,1,10,1.3,15,M,,M,,*61
06/08/2014	22:00:49.208	$GPGGA,220049,2456.4518,N,08019.9662,W,1,10,1.3,15,M,,M,,*6C
06/08/2014	22:00:50.202	$GPGGA,220050,2456.4513,N,08019.9647,W,1,10,1.3,15,M,,M,,*68
06/08/2014	22:00:51.316	$GPGGA,220051,2456.4509,N,08019.9633,W,1,10,1.3,15,M,,M,,*61
06/08/2014	22:00:52.316	$GPGGA,220052,2456.4505,N,08019.9619,W,1,10,1.3,15,M,,M,,*66
06/08/2014	22:00:53.421	$GPGGA,220053,2456.4500,N,08019.9604,W,1,10,1.3,15,M,,M,,*6E
06/08/2014	22:00:54.358	$GPGGA,220054,2456.4495,N,08019.9590,W,1,10,1.3,15,M,,M,,*6A
06/08/2014	22:00:55.500	$GPGGA,220055,2456.4491,N,08019.9575,W,1,10,1.3,14,M,,M,,*65
06/08/2014	22:00:56.463	$GPGGA,220056,2456.4485,N,08019.9560,W,1,10,1.3,14,M,,M,,*67
06/08/2014	22:00:57.618	$GPGGA,220057,2456.4481,N,08019.9546,W,1,10,1.3,14,M,,M,,*66
06/08/2014	22:00:58.590	$GPGGA,220058,2456.4476,N,08019.9531,W,1,10,1.3,14,M,,M,,*61
06/08/2014	22:00:59.695	$GPGGA,220059,2456.4471,N,08019.9517,W,1,10,1.3,14,M,,M,,*63
06/08/2014	22:01:00.705	$GPGGA,220100,2456.4466,N,08019.9502,W,1,10,1.3,14,M,,M,,*6C
06/08/2014	22:01:01.823	$GPGGA,220101,2456.4462,N,08019.9488,W,1,10,1.3,14,M,,M,,*6A
06/08/2014	22:01:02.800	$GPGGA,220102,2456.4456,N,08019.9473,W,1,10,1.3,14,M,,M,,*6A
06/08/2014	22:01:03.905	$GPGGA,220103,2456.4451,N,08019.9459,W,1,10,1.3,14,M,,M,,*64
06/08/2014	22:01:04.916	$GPGGA,220104,2456.4446,N,08019.9444,W,1,10,1.3,14,M,,M,,*69
06/08/2014	22:01:05.919	$GPGGA,220105,2456.4441,N,08019.9430,W,1,10,1.3,14,M,,M,,*6C
06/08/2014	22:01:07.000	$GPGGA,220106,2456.4436,N,08019.9415,W,1,10,1.3,14,M,,M,,*68
06/08/2014	22:01:08.127	$GPGGA,220107,2456.4431,N,08019.9400,W,1,10,1.3,14,M,,M,,*6A
06/08/2014	22:01:09.075	$GPGGA,220108,2456.4426,N,08019.9386,W,1,10,1.3,14,M,,M,,*6A
06/08/2014	22:01:10.220	$GPGGA,220109,2456.4422,N,08019.9371,W,1,10,1.3,14,M,,M,,*67
06/08/2014	22:01:11.167	$GPGGA,220110,2456.4416,N,08019.9357,W,1,10,1.3,14,M,,M,,*6C
06/08/2014	22:01:12.209	$GPGGA,220111,2456.4411,N,08019.9342,W,1,10,1.3,14,M,,M,,*6E
06/08/2014	22:01:13.304	$GPGGA,220112,2456.4405,N,08019.9328,W,1,10,1.3,14,M,,M,,*64
06/08/2014	22:01:14.430	$GPGGA,220113,2456.4400,N,08019.9313,W,1,10,1.3,14,M,,M,,*68
06/08/2014	22:01:15.389	$GPGGA,220114,2456.4395,N,08019.9298,W,1,10,1.3,14,M,,M,,*66
06/08/2014	22:01:16.535	$GPGGA,220115,2456.4390,N,08019.9283,W,1,10,1.3,14,M,,M,,*68
06/08/2014	22:01:17.483	$GPGGA,220116,2456.4386,N,08019.9269,W,1,10,1.3,14,M,,M,,*68
06/08/2014	22:01:18.641	$GPGGA,220117,2456.4381,N,08019.9255,W,1,10,1.3,14,M,,M,,*61
06/08/2014	22:01:19.567	$GPGGA,220118,2456.4376,N,08019.9240,W,1,10,1.3,14,M,,M,,*62
06/08/2014	22:01:20.704	$GPGGA,220119,2456.4370,N,08019.9225,W,1,10,1.3,14,M,,M,,*66
06/08/2014	22:01:21.716	$GPGGA,220120,2456.4365,N,08019.9211,W,1,10,1.3,14,M,,M,,*6F
06/08/2014	22:01:22.830	$GPGGA,220121,2456.4361,N,08019.9197,W,1,10,1.3,13,M,,M,,*60
06/08/2014	22:01:23.767	$GPGGA,220122,2456.4355,N,08019.9182,W,1,10,1.3,13,M,,M,,*60
06/08/2014	22:01:24.819	$GPGGA,220123,2456.4350,N,08019.9167,W,1,10,1.3,13,M,,M,,*6F
06/08/2014	22:01:25.926	$GPGGA,220124,2456.4346,N,08019.9152,W,1,10,1.3,13,M,,M,,*69
06/08/2014	22:01:27.051	$GPGGA,220125,2456.4340,N,08019.9137,W,1,10,1.3,13,M,,M,,*6D
06/08/2014	22:01:28.009	$GPGGA,220126,2456.4335,N,08019.9123,W,1,10,1.3,13,M,,M,,*69
06/08/2014	22:01:29.111	$GPGGA,220127,2456.4332,N,08019.9108,W,1,10,1.3,13,M,,M,,*66
06/08/2014	22:01:30.113	$GPGGA,220128,2456.4326,N,08019.9093,W,1,10,1.3,13,M,,M,,*6F
06/08/2014	22:01:31.123	$GPGGA,220129,2456.4321,N,08019.9078,W,1,10,1.3,13,M,,M,,*6C
06/08/2014	22:01:32.271	$GPGGA,220130,2456.4317,N,08019.9064,W,1,10,1.3,13,M,,M,,*6C
06/08/2014	22:01:33.355	$GPGGA,220131,2456.4312,N,08019.9048,W,1,10,1.3,13,M,,M,,*66
06/08/2014	22:01:34.324	$GPGGA,220132,2456.4307,N,08019.9034,W,1,10,1.3,13,M,,M,,*6A
06/08/2014	22:01:35.323	$GPGGA,220133,2456.4303,N,08019.9019,W,1,10,1.3,13,M,,M,,*60
06/08/2014	22:01:36.492	$GPGGA,220134,2456.4299,N,08019.9003,W,1,10,1.5,13,M,,M,,*68
06/08/2014	22:01:37.523	$GPGGA,220135,2456.4296,N,08019.8987,W,1,9,1.3,13,M,,M,,*5C
06/08/2014	22:01:38.523	$GPGGA,220136,2456.4292,N,08019.8972,W,1,9,1.3,13,M,,M,,*51
06/08/2014	22:01:39.618	$GPGGA,220137,2456.4287,N,08019.8957,W,1,10,1.5,13,M,,M,,*6D
06/08/2014	22:01:40.569	$GPGGA,220138,2456.4282,N,08019.8941,W,1,10,1.5,13,M,,M,,*60
06/08/2014	22:01:41.723	$GPGGA,220139,2456.4278,N,08019.8926,W,1,9,1.3,12,M,,M,,*5A
06/08/2014	22:01:39.580	$GPGGA,220140,2456.4274,N,08019.8911,W,1,9,1.5,12,M,,M,,*5A
06/08/2014	22:01:40.685	$GPGGA,220141,2456.4272,N,08019.8895,W,1,9,1.3,12,M,,M,,*56
06/08/2014	22:01:41.737	$GPGGA,220142,2456.4269,N,08019.8878,W,1,9,1.3,12,M,,M,,*5C
06/08/2014	22:01:42.800	$GPGGA,220143,2456.4267,N,08019.8862,W,1,10,1.3,12,M,,M,,*60
06/08/2014	22:01:43.842	$GPGGA,220144,2456.4263,N,08019.8846,W,1,10,1.5,12,M,,M,,*63
06/08/2014	22:01:44.926	$GPGGA,220145,2456.4260,N,08019.8832,W,1,10,1.3,12,M,,M,,*64
06/08/2014	22:01:45.936	$GPGGA,220146,2456.4257,N,08019.8815,W,1,10,1.5,12,M,,M,,*60
06/08/2014	22:01:46.989	$GPGGA,220147,2456.4253,N,08019.8799,W,1,10,1.5,13,M,,M,,*6F
06/08/2014	22:01:48.051	$GPGGA,220148,2456.4250,N,08019.8783,W,1,10,1.5,13,M,,M,,*68
06/08/2014	22:01:49.136	$GPGGA,220149,2456.4246,N,08019.8767,W,1,10,1.5,13,M,,M,,*64
06/08/2014	22:01:50.128	$GPGGA,220150,2456.4243,N,08019.8752,W,1,10,1.5,13,M,,M,,*6F
06/08/2014	22:01:51.210	$GPGGA,220151,2456.4238,N,08019.8737,W,1,10,1.5,13,M,,M,,*61
06/08/2014	22:01:52.246	$GPGGA,220152,2456.4235,N,08019.8721,W,1,10,1.5,13,M,,M,,*68
06/08/2014	22:01:53.315	$GPGGA,220153,2456.4231,N,08019.8705,W,1,10,1.5,13,M,,M,,*6B
06/08/2014	22:01:54.326	$GPGGA,220154,2456.4227,N,08019.8690,W,1,10,1.5,13,M,,M,,*66
06/08/2014	22:01:55.410	$GPGGA,220155,2456.4223,N,08019.8675,W,1,10,1.5,13,M,,M,,*68
06/08/2014	22:01:56.452	$GPGGA,220156,2456.4220,N,08019.8659,W,1,10,1.5,13,M,,M,,*66
06/08/2014	22:01:57.515	$GPGGA,220157,2456.4217,N,08019.8642,W,1,10,1.3,13,M,,M,,*6F
06/08/2014	22:01:58.536	$GPGGA,220158,2456.4213,N,08019.8626,W,1,10,1.3,13,M,,M,,*66
06/08/2014	22:01:59.620	$GPGGA,220159,2456.4209,N,08019.8610,W,1,10,1.3,13,M,,M,,*69
06/08/2014	22:02:00.662	$GPGGA,220200,2456.4206,N,08019.8595,W,1,10,1.3,13,M,,M,,*67
06/08/2014	22:02:01.715	$GPGGA,220201,2456.4206,N,08019.8595,W,1,10,1.3,13,M,,M,,*66
06/08/2014	22:02:02.745	$GPGGA,220202,2456.4196,N,08019.8566,W,1,10,1.5,13,M,,M,,*65
06/08/2014	22:02:03.809	$GPGGA,220203,2456.4192,N,08019.8552,W,1,9,1.5,12,M,,M,,*5E
06/08/2014	22:02:04.850	$GPGGA,220204,2456.4188,N,08019.8537,W,1,9,1.5,12,M,,M,,*51
06/08/2014	22:02:05.926	$GPGGA,220205,2456.4184,N,08019.8521,W,1,10,1.3,12,M,,M,,*65
06/08/2014	22:02:06.956	$GPGGA,220206,2456.4181,N,08019.8506,W,1,10,1.3,12,M,,M,,*66
06/08/2014	22:02:08.050	$GPGGA,220207,2456.4181,N,08019.8506,W,1,10,1.3,12,M,,M,,*67
06/08/2014	22:02:09.061	$GPGGA,220208,2456.4171,N,08019.8477,W,1,10,1.5,12,M,,M,,*66
06/08/2014	22:02:10.137	$GPGGA,220209,2456.4166,N,08019.8463,W,1,9,1.5,12,M,,M,,*5C
06/08/2014	22:02:11.156	$GPGGA,220210,2456.4162,N,08019.8448,W,1,9,1.3,12,M,,M,,*5F
06/08/2014	22:02:12.240	$GPGGA,220211,2456.4157,N,08019.8433,W,1,10,1.3,12,M,,M,,*6C
06/08/2014	22:02:13.250	$GPGGA,220212,2456.4152,N,08019.8418,W,1,10,1.3,12,M,,M,,*63
06/08/2014	22:02:14.398	$GPGGA,220213,2456.4152,N,08019.8418,W,1,9,1.5,12,M,,M,,*5C
06/08/2014	22:02:15.345	$GPGGA,220214,2456.4148,N,08019.8404,W,1,9,1.3,12,M,,M,,*5B
06/08/2014	22:02:16.545	$GPGGA,220215,2456.4140,N,08019.8373,W,1,9,1.5,12,M,,M,,*53
06/08/2014	22:02:17.450	$GPGGA,220216,2456.4137,N,08019.8358,W,1,9,1.3,12,M,,M,,*5F
06/08/2014	22:02:18.629	$GPGGA,220217,2456.4133,N,08019.8343,W,1,10,1.3,12,M,,M,,*68
06/08/2014	22:02:19.554	$GPGGA,220218,2456.4128,N,08019.8327,W,1,10,1.3,12,M,,M,,*6F
06/08/2014	22:02:20.617	$GPGGA,220219,2456.4128,N,08019.8327,W,1,10,1.3,12,M,,M,,*6E
06/08/2014	22:02:21.659	$GPGGA,220220,2456.4120,N,08019.8298,W,1,10,1.3,12,M,,M,,*69
06/08/2014	22:02:22.807	$GPGGA,220221,2456.4115,N,08019.8283,W,1,10,1.3,12,M,,M,,*64
06/08/2014	22:02:23.765	$GPGGA,220222,2456.4110,N,08019.8268,W,1,10,1.3,12,M,,M,,*67
06/08/2014	22:02:24.796	$GPGGA,220223,2456.4110,N,08019.8268,W,1,10,1.3,12,M,,M,,*66
06/08/2014	22:02:25.965	$GPGGA,220224,2456.4102,N,08019.8237,W,1,10,1.3,12,M,,M,,*68
06/08/2014	22:02:26.922	$GPGGA,220225,2456.4102,N,08019.8237,W,1,10,1.3,12,M,,M,,*69
06/08/2014	22:02:27.986	$GPGGA,220226,2456.4091,N,08019.8209,W,1,10,1.5,13,M,,M,,*6B
06/08/2014	22:02:29.082	$GPGGA,220227,2456.4091,N,08019.8209,W,1,9,1.5,13,M,,M,,*52
06/08/2014	22:02:30.059	$GPGGA,220228,2456.4080,N,08019.8180,W,1,9,1.3,13,M,,M,,*59
06/08/2014	22:02:31.207	$GPGGA,220229,2456.4075,N,08019.8166,W,1,10,1.3,13,M,,M,,*62
06/08/2014	22:02:32.259	$GPGGA,220230,2456.4070,N,08019.8151,W,1,10,1.3,13,M,,M,,*6B
06/08/2014	22:02:33.322	$GPGGA,220231,2456.4066,N,08019.8136,W,1,10,1.3,12,M,,M,,*6D
06/08/2014	22:02:34.365	$GPGGA,220232,2456.4061,N,08019.8121,W,1,10,1.3,12,M,,M,,*6F
06/08/2014	22:02:35.406	$GPGGA,220233,2456.4057,N,08019.8106,W,1,10,1.3,12,M,,M,,*6E
06/08/2014	22:02:36.459	$GPGGA,220234,2456.4051,N,08019.8091,W,1,10,1.3,12,M,,M,,*60
06/08/2014	22:02:37.512	$GPGGA,220235,2456.4046,N,08019.8076,W,1,10,1.3,12,M,,M,,*6E
06/08/2014	22:02:38.574	$GPGGA,220236,2456.4041,N,08019.8062,W,1,10,1.3,12,M,,M,,*6F
06/08/2014	22:02:39.626	$GPGGA,220237,2456.4036,N,08019.8047,W,1,10,1.3,12,M,,M,,*69
06/08/2014	22:02:40.658	$GPGGA,220238,2456.4032,N,08019.8032,W,1,10,1.3,12,M,,M,,*60
06/08/2014	22:02:41.731	$GPGGA,220239,2456.4027,N,08019.8017,W,1,10,1.3,12,M,,M,,*62
06/08/2014	22:02:39.620	$GPGGA,220240,2456.4022,N,08019.8002,W,1,10,1.3,12,M,,M,,*6D
06/08/2014	22:02:40.693	$GPGGA,220241,2456.4017,N,08019.7987,W,1,10,1.3,12,M,,M,,*61
06/08/2014	22:02:41.714	$GPGGA,220242,2456.4012,N,08019.7972,W,1,10,1.3,12,M,,M,,*6D
06/08/2014	22:02:42.777	$GPGGA,220243,2456.4007,N,08019.7957,W,1,10,1.3,12,M,,M,,*6F
06/08/2014	22:02:43.820	$GPGGA,220244,2456.4003,N,08019.7943,W,1,10,1.3,12,M,,M,,*69
06/08/2014	22:02:44.874	$GPGGA,220245,2456.3997,N,08019.7928,W,1,10,1.3,12,M,,M,,*66
06/08/2014	22:02:45.917	$GPGGA,220246,2456.3992,N,08019.7913,W,1,10,1.3,12,M,,M,,*68
06/08/2014	22:02:46.988	$GPGGA,220247,2456.3987,N,08019.7898,W,1,10,1.3,12,M,,M,,*6F
06/08/2014	22:02:48.019	$GPGGA,220248,2456.3982,N,08019.7883,W,1,10,1.3,12,M,,M,,*6F
06/08/2014	22:02:49.088	$GPGGA,220249,2456.3978,N,08019.7868,W,1,10,1.3,12,M,,M,,*6E
06/08/2014	22:02:50.104	$GPGGA,220250,2456.3974,N,08019.7853,W,1,10,1.3,12,M,,M,,*62
06/08/2014	22:02:51.156	$GPGGA,220251,2456.3968,N,08019.7839,W,1,10,1.3,12,M,,M,,*62
06/08/2014	22:02:52.230	$GPGGA,220252,2456.3963,N,08019.7823,W,1,10,1.3,12,M,,M,,*61
06/08/2014	22:02:53.294	$GPGGA,220253,2456.3958,N,08019.7808,W,1,10,1.3,12,M,,M,,*61
06/08/2014	22:02:54.324	$GPGGA,220254,2456.3953,N,08019.7793,W,1,10,1.3,12,M,,M,,*60
06/08/2014	22:02:55.399	$GPGGA,220255,2456.3947,N,08019.7778,W,1,10,1.3,12,M,,M,,*61
06/08/2014	22:02:56.429	$GPGGA,220256,2456.3943,N,08019.7763,W,1,10,1.3,12,M,,M,,*6C
06/08/2014	22:02:57.471	$GPGGA,220257,2456.3938,N,08019.7748,W,1,10,1.3,12,M,,M,,*68
06/08/2014	22:02:58.513	$GPGGA,220258,2456.3933,N,08019.7733,W,1,10,1.3,12,M,,M,,*60
06/08/2014	22:02:59.715	$GPGGA,220259,2456.3929,N,08019.7718,W,1,10,1.3,12,M,,M,,*63
06/08/2014	22:03:00.639	$GPGGA,220300,2456.3924,N,08019.7703,W,1,10,1.3,12,M,,M,,*69
06/08/2014	22:03:01.786	$GPGGA,220301,2456.3920,N,08019.7688,W,1,10,1.3,12,M,,M,,*6E
06/08/2014	22:03:02.713	$GPGGA,220302,2456.3915,N,08019.7673,W,1,10,1.3,12,M,,M,,*6F
06/08/2014	22:03:03.776	$GPGGA,220303,2456.3910,N,08019.7658,W,1,10,1.3,12,M,,M,,*62
06/08/2014	22:03:04.955	$GPGGA,220304,2456.3905,N,08019.7643,W,1,10,1.3,12,M,,M,,*6B
06/08/2014	22:03:05.997	$GPGGA,220305,2456.3902,N,08019.7628,W,1,10,1.3,12,M,,M,,*60
06/08/2014	22:03:06.912	$GPGGA,220306,2456.3898,N,08019.7612,W,1,10,1.3,12,M,,M,,*68
06/08/2014	22:03:07.997	$GPGGA,220307,2456.3892,N,08019.7597,W,1,10,1.3,12,M,,M,,*6D
06/08/2014	22:03:09.133	$GPGGA,220308,2456.3888,N,08019.7582,W,1,10,1.3,12,M,,M,,*6D
06/08/2014	22:03:10.070	$GPGGA,220309,2456.3884,N,08019.7567,W,1,10,1.3,12,M,,M,,*6B
06/08/2014	22:03:11.123	$GPGGA,220310,2456.3880,N,08019.7552,W,1,10,1.3,12,M,,M,,*61
06/08/2014	22:03:12.269	$GPGGA,220311,2456.3875,N,08019.7537,W,1,10,1.3,12,M,,M,,*69
06/08/2014	22:03:13.353	$GPGGA,220312,2456.3871,N,08019.7521,W,1,10,1.3,12,M,,M,,*69
06/08/2014	22:03:14.301	$GPGGA,220313,2456.3867,N,08019.7506,W,1,10,1.3,12,M,,M,,*6A
06/08/2014	22:03:15.311	$GPGGA,220314,2456.3863,N,08019.7491,W,1,10,1.3,12,M,,M,,*66
06/08/2014	22:03:16.374	$GPGGA,220315,2456.3859,N,08019.7476,W,1,9,1.4,12,M,,M,,*58
06/08/2014	22:03:17.543	$GPGGA,220316,2456.3855,N,08019.7460,W,1,9,1.3,12,M,,M,,*57
06/08/2014	22:03:18.500	$GPGGA,220317,2456.3851,N,08019.7445,W,1,10,1.3,12,M,,M,,*6D
06/08/2014	22:03:19.637	$GPGGA,220318,2456.3846,N,08019.7430,W,1,10,1.3,12,M,,M,,*66
06/08/2014	22:03:20.669	$GPGGA,220319,2456.3841,N,08019.7415,W,1,10,1.3,12,M,,M,,*67
06/08/2014	22:03:21.753	$GPGGA,220320,2456.3837,N,08019.7400,W,1,10,1.3,12,M,,M,,*68
06/08/2014	22:03:22.690	$GPGGA,220321,2456.3833,N,08019.7384,W,1,9,1.4,12,M,,M,,*59
06/08/2014	22:03:23.837	$GPGGA,220322,2456.3829,N,08019.7368,W,1,9,1.3,12,M,,M,,*54
06/08/2014	22:03:24.900	$GPGGA,220323,2456.3826,N,08019.7352,W,1,10,1.3,12,M,,M,,*6B
06/08/2014	22:03:25.953	$GPGGA,220324,2456.3821,N,08019.7337,W,1,10,1.3,12,M,,M,,*68
06/08/2014	22:03:26.995	$GPGGA,220325,2456.3817,N,08019.7322,W,1,10,1.3,12,M,,M,,*68
06/08/2014	22:03:28.028	$GPGGA,220326,2456.3812,N,08019.7307,W,1,10,1.3,12,M,,M,,*69
06/08/2014	22:03:29.100	$GPGGA,220327,2456.3808,N,08019.7292,W,1,9,1.5,12,M,,M,,*50
06/08/2014	22:03:30.141	$GPGGA,220328,2456.3802,N,08019.7276,W,1,9,1.5,12,M,,M,,*5F
06/08/2014	22:03:31.204	$GPGGA,220329,2456.3799,N,08019.7261,W,1,9,1.7,12,M,,M,,*57
06/08/2014	22:03:32.236	$GPGGA,220330,2456.3794,N,08019.7245,W,1,9,1.3,12,M,,M,,*50
06/08/2014	22:03:33.299	$GPGGA,220331,2456.3790,N,08019.7230,W,1,10,1.5,12,M,,M,,*69
06/08/2014	22:03:34.343	$GPGGA,220332,2456.3786,N,08019.7216,W,1,10,1.3,12,M,,M,,*6F
06/08/2014	22:03:35.373	$GPGGA,220333,2456.3781,N,08019.7200,W,1,9,1.5,12,M,,M,,*50
06/08/2014	22:03:36.449	$GPGGA,220334,2456.3777,N,08019.7185,W,1,9,1.3,12,M,,M,,*56
06/08/2014	22:03:37.478	$GPGGA,220335,2456.3773,N,08019.7170,W,1,9,1.7,12,M,,M,,*5D
06/08/2014	22:03:38.551	$GPGGA,220336,2456.3768,N,08019.7156,W,1,9,1.5,12,M,,M,,*52
06/08/2014	22:03:39.615	$GPGGA,220337,2456.3763,N,08019.7142,W,1,10,1.3,12,M,,M,,*63
06/08/2014	22:03:40.648	$GPGGA,220338,2456.3759,N,08019.7127,W,1,10,1.3,12,M,,M,,*66
06/08/2014	22:03:41.702	$GPGGA,220339,2456.3754,N,08019.7113,W,1,10,1.3,12,M,,M,,*6D
06/08/2014	22:03:39.608	$GPGGA,220340,2456.3750,N,08019.7098,W,1,10,1.3,12,M,,M,,*65
06/08/2014	22:03:40.671	$GPGGA,220341,2456.3746,N,08019.7083,W,1,10,1.3,12,M,,M,,*69
06/08/2014	22:03:41.671	$GPGGA,220342,2456.3743,N,08019.7068,W,1,10,1.4,12,M,,M,,*6D
06/08/2014	22:03:42.767	$GPGGA,220343,2456.3738,N,08019.7053,W,1,10,1.3,12,M,,M,,*6F
06/08/2014	22:03:43.809	$GPGGA,220344,2456.3733,N,08019.7038,W,1,10,1.3,12,M,,M,,*6E
06/08/2014	22:03:44.830	$GPGGA,220345,2456.3729,N,08019.7023,W,1,10,1.3,12,M,,M,,*6E
06/08/2014	22:03:45.891	$GPGGA,220346,2456.3725,N,08019.7007,W,1,10,1.3,12,M,,M,,*67
06/08/2014	22:03:46.975	$GPGGA,220347,2456.3721,N,08019.6992,W,1,10,1.3,13,M,,M,,*67
06/08/2014	22:03:48.007	$GPGGA,220348,2456.3716,N,08019.6977,W,1,10,1.3,13,M,,M,,*67
06/08/2014	22:03:49.028	$GPGGA,220349,2456.3712,N,08019.6961,W,1,10,1.3,13,M,,M,,*65
06/08/2014	22:03:50.080	$GPGGA,220350,2456.3708,N,08019.6946,W,1,10,1.3,13,M,,M,,*63
06/08/2014	22:03:51.176	$GPGGA,220351,2456.3704,N,08019.6930,W,1,10,1.3,13,M,,M,,*6F
06/08/2014	22:03:53.764	$GPGGA,220353,2456.3696,N,08019.6899,W,1,10,1.3,13,M,,M,,*65
06/08/2014	22:03:54.302	$GPGGA,220354,2456.3692,N,08019.6883,W,1,10,1.3,13,M,,M,,*6D
06/08/2014	22:03:55.448	$GPGGA,220355,2456.3687,N,08019.6868,W,1,10,1.3,13,M,,M,,*6D
06/08/2014	22:03:56.417	$GPGGA,220356,2456.3683,N,08019.6853,W,1,10,1.3,13,M,,M,,*62
06/08/2014	22:03:57.554	$GPGGA,220357,2456.3679,N,08019.6838,W,1,10,1.3,13,M,,M,,*6B
06/08/2014	22:03:58.501	$GPGGA,220358,2456.3675,N,08019.6823,W,1,10,1.3,13,M,,M,,*62
06/08/2014	22:03:59.659	$GPGGA,220359,2456.3671,N,08019.6808,W,1,10,1.3,13,M,,M,,*6E
06/08/2014	22:04:00.617	$GPGGA,220400,2456.3665,N,08019.6792,W,1,10,1.3,13,M,,M,,*6C
06/08/2014	22:04:01.743	$GPGGA,220401,2456.3661,N,08019.6777,W,1,10,1.3,13,M,,M,,*62
06/08/2014	22:04:02.796	$GPGGA,220402,2456.3656,N,08019.6762,W,1,10,1.3,13,M,,M,,*61
06/08/2014	22:04:03.837	$GPGGA,220403,2456.3651,N,08019.6747,W,1,10,1.3,13,M,,M,,*60
06/08/2014	22:04:04.900	$GPGGA,220404,2456.3647,N,08019.6732,W,1,10,1.3,13,M,,M,,*62
06/08/2014	22:04:05.942	$GPGGA,220405,2456.3643,N,08019.6717,W,1,10,1.3,13,M,,M,,*60
06/08/2014	22:04:07.005	$GPGGA,220406,2456.3638,N,08019.6701,W,1,10,1.3,13,M,,M,,*68
06/08/2014	22:04:08.068	$GPGGA,220407,2456.3634,N,08019.6687,W,1,10,1.3,13,M,,M,,*6A
06/08/2014	22:04:09.121	$GPGGA,220408,2456.3629,N,08019.6671,W,1,10,1.3,13,M,,M,,*60
06/08/2014	22:04:10.163	$GPGGA,220409,2456.3624,N,08019.6656,W,1,10,1.3,13,M,,M,,*69
06/08/2014	22:04:11.205	$GPGGA,220410,2456.3620,N,08019.6641,W,1,10,1.3,13,M,,M,,*63
06/08/2014	22:04:12.268	$GPGGA,220411,2456.3615,N,08019.6626,W,1,10,1.3,13,M,,M,,*65
06/08/2014	22:04:13.310	$GPGGA,220412,2456.3610,N,08019.6611,W,1,10,1.3,13,M,,M,,*67
06/08/2014	22:04:14.373	$GPGGA,220413,2456.3606,N,08019.6596,W,1,10,1.3,13,M,,M,,*6D
06/08/2014	22:04:15.405	$GPGGA,220414,2456.3602,N,08019.6581,W,1,10,1.3,13,M,,M,,*68
06/08/2014	22:04:16.468	$GPGGA,220415,2456.3597,N,08019.6566,W,1,10,1.3,13,M,,M,,*6F
06/08/2014	22:04:17.520	$GPGGA,220416,2456.3593,N,08019.6551,W,1,10,1.3,13,M,,M,,*6C
06/08/2014	22:04:18.573	$GPGGA,220417,2456.3588,N,08019.6536,W,1,10,1.3,12,M,,M,,*67
06/08/2014	22:04:19.609	$GPGGA,220418,2456.3584,N,08019.6520,W,1,10,1.3,12,M,,M,,*63
06/08/2014	22:04:20.678	$GPGGA,220419,2456.3580,N,08019.6506,W,1,10,1.3,12,M,,M,,*62
06/08/2014	22:04:21.720	$GPGGA,220420,2456.3575,N,08019.6490,W,1,10,1.3,12,M,,M,,*6C
06/08/2014	22:04:22.772	$GPGGA,220421,2456.3571,N,08019.6475,W,1,10,1.3,12,M,,M,,*62
06/08/2014	22:04:23.814	$GPGGA,220422,2456.3566,N,08019.6460,W,1,10,1.3,12,M,,M,,*63
06/08/2014	22:04:24.859	$GPGGA,220423,2456.3562,N,08019.6445,W,1,10,1.3,12,M,,M,,*61
06/08/2014	22:04:25.930	$GPGGA,220424,2456.3559,N,08019.6429,W,1,10,1.3,12,M,,M,,*64
06/08/2014	22:04:26.951	$GPGGA,220425,2456.3553,N,08019.6415,W,1,10,1.3,12,M,,M,,*60
06/08/2014	22:04:28.018	$GPGGA,220426,2456.3549,N,08019.6399,W,1,10,1.3,12,M,,M,,*6B
06/08/2014	22:04:29.092	$GPGGA,220427,2456.3545,N,08019.6384,W,1,10,1.3,12,M,,M,,*6A
06/08/2014	22:04:30.137	$GPGGA,220428,2456.3541,N,08019.6369,W,1,10,1.3,12,M,,M,,*62
06/08/2014	22:04:31.151	$GPGGA,220429,2456.3537,N,08019.6354,W,1,10,1.3,12,M,,M,,*6C
06/08/2014	22:04:32.229	$GPGGA,220430,2456.3532,N,08019.6338,W,1,10,1.3,12,M,,M,,*6B
06/08/2014	22:04:33.266	$GPGGA,220431,2456.3527,N,08019.6323,W,1,10,1.3,12,M,,M,,*64
06/08/2014	22:04:34.320	$GPGGA,220432,2456.3523,N,08019.6308,W,1,10,1.3,12,M,,M,,*6A
06/08/2014	22:04:35.393	$GPGGA,220433,2456.3519,N,08019.6293,W,1,10,1.3,12,M,,M,,*61
06/08/2014	22:04:36.403	$GPGGA,220434,2456.3514,N,08019.6278,W,1,10,1.3,12,M,,M,,*6E
06/08/2014	22:04:38.909	$GPGGA,220436,2456.3506,N,08019.6247,W,1,10,1.3,12,M,,M,,*63
06/08/2014	22:04:39.561	$GPGGA,220437,2456.3502,N,08019.6231,W,1,10,1.3,12,M,,M,,*67
06/08/2014	22:04:40.612	$GPGGA,220438,2456.3498,N,08019.6216,W,1,10,1.3,12,M,,M,,*6F
06/08/2014	22:04:41.686	$GPGGA,220439,2456.3494,N,08019.6201,W,1,10,1.3,12,M,,M,,*64
06/08/2014	22:04:39.563	$GPGGA,220440,2456.3491,N,08019.6186,W,1,10,1.3,12,M,,M,,*63
06/08/2014	22:04:40.605	$GPGGA,220441,2456.3487,N,08019.6170,W,1,10,1.3,12,M,,M,,*6C
06/08/2014	22:04:41.678	$GPGGA,220442,2456.3483,N,08019.6155,W,1,10,1.3,12,M,,M,,*6C
06/08/2014	22:04:42.699	$GPGGA,220443,2456.3479,N,08019.6140,W,1,10,1.3,12,M,,M,,*6C
06/08/2014	22:04:43.784	$GPGGA,220444,2456.3475,N,08019.6125,W,1,10,1.3,12,M,,M,,*64
06/08/2014	22:04:44.815	$GPGGA,220445,2456.3472,N,08019.6109,W,1,10,1.3,11,M,,M,,*6F
06/08/2014	22:04:45.983	$GPGGA,220446,2456.3468,N,08019.6095,W,1,10,1.3,11,M,,M,,*63
06/08/2014	22:04:47.036	$GPGGA,220447,2456.3465,N,08019.6079,W,1,10,1.3,11,M,,M,,*6D
06/08/2014	22:04:48.004	$GPGGA,220448,2456.3461,N,08019.6064,W,1,10,1.3,11,M,,M,,*6A
06/08/2014	22:04:49.004	$GPGGA,220449,2456.3457,N,08019.6049,W,1,10,1.3,11,M,,M,,*61
06/08/2014	22:04:50.162	$GPGGA,220450,2456.3452,N,08019.6033,W,1,10,1.3,11,M,,M,,*61
06/08/2014	22:04:51.141	$GPGGA,220451,2456.3449,N,08019.6018,W,1,10,1.3,11,M,,M,,*63
06/08/2014	22:04:52.278	$GPGGA,220452,2456.3445,N,08019.6002,W,1,10,1.3,11,M,,M,,*67
06/08/2014	22:04:53.215	$GPGGA,220453,2456.3441,N,08019.5986,W,1,10,1.3,11,M,,M,,*64
06/08/2014	22:04:54.267	$GPGGA,220454,2456.3438,N,08019.5971,W,1,10,1.3,11,M,,M,,*65
06/08/2014	22:04:55.331	$GPGGA,220455,2456.3434,N,08019.5956,W,1,10,1.3,11,M,,M,,*6D
06/08/2014	22:04:56.477	$GPGGA,220456,2456.3430,N,08019.5940,W,1,10,1.3,11,M,,M,,*6D
06/08/2014	22:04:57.529	$GPGGA,220457,2456.3427,N,08019.5925,W,1,10,1.3,11,M,,M,,*69
06/08/2014	22:04:58.571	$GPGGA,220458,2456.3423,N,08019.5910,W,1,10,1.3,11,M,,M,,*64
06/08/2014	22:05:01.108	$GPGGA,220500,2456.3415,N,08019.5879,W,1,10,1.3,11,M,,M,,*63
06/08/2014	22:05:01.750	$GPGGA,220501,2456.3411,N,08019.5864,W,1,10,1.3,11,M,,M,,*6A
06/08/2014	22:05:02.771	$GPGGA,220502,2456.3407,N,08019.5848,W,1,10,1.3,11,M,,M,,*60
06/08/2014	22:05:03.834	$GPGGA,220503,2456.3403,N,08019.5833,W,1,10,1.3,11,M,,M,,*69
06/08/2014	22:05:04.887	$GPGGA,220504,2456.3400,N,08019.5818,W,1,10,1.3,11,M,,M,,*64
06/08/2014	22:05:05.950	$GPGGA,220505,2456.3396,N,08019.5802,W,1,10,1.3,11,M,,M,,*66
06/08/2014	22:05:06.982	$GPGGA,220506,2456.3391,N,08019.5787,W,1,10,1.3,11,M,,M,,*60
06/08/2014	22:05:08.042	$GPGGA,220507,2456.3389,N,08019.5771,W,1,10,1.3,11,M,,M,,*61
06/08/2014	22:05:09.092	$GPGGA,220508,2456.3385,N,08019.5756,W,1,10,1.3,11,M,,M,,*67
06/08/2014	22:05:10.142	$GPGGA,220509,2456.3380,N,08019.5741,W,1,10,1.3,11,M,,M,,*65
06/08/2014	22:05:11.185	$GPGGA,220510,2456.3376,N,08019.5725,W,1,10,1.3,11,M,,M,,*66
06/08/2014	22:05:12.224	$GPGGA,220511,2456.3372,N,08019.5710,W,1,10,1.3,11,M,,M,,*65
06/08/2014	22:05:13.289	$GPGGA,220512,2456.3368,N,08019.5694,W,1,10,1.3,11,M,,M,,*60
06/08/2014	22:05:14.349	$GPGGA,220513,2456.3364,N,08019.5679,W,1,10,1.3,11,M,,M,,*6E
06/08/2014	22:05:15.391	$GPGGA,220514,2456.3360,N,08019.5664,W,1,10,1.3,11,M,,M,,*61
06/08/2014	22:05:16.446	$GPGGA,220515,2456.3356,N,08019.5648,W,1,10,1.3,11,M,,M,,*6B
06/08/2014	22:05:17.496	$GPGGA,220516,2456.3351,N,08019.5633,W,1,10,1.3,11,M,,M,,*63
06/08/2014	22:05:18.549	$GPGGA,220517,2456.3347,N,08019.5617,W,1,10,1.3,11,M,,M,,*63
06/08/2014	22:05:19.580	$GPGGA,220518,2456.3343,N,08019.5602,W,1,10,1.3,11,M,,M,,*6C
06/08/2014	22:05:20.633	$GPGGA,220519,2456.3339,N,08019.5586,W,1,10,1.3,11,M,,M,,*6F
06/08/2014	22:05:21.707	$GPGGA,220520,2456.3335,N,08019.5571,W,1,10,1.3,11,M,,M,,*61
06/08/2014	22:05:22.770	$GPGGA,220521,2456.3331,N,08019.5556,W,1,10,1.3,11,M,,M,,*61
06/08/2014	22:05:23.780	$GPGGA,220522,2456.3327,N,08019.5540,W,1,10,1.3,11,M,,M,,*62
06/08/2014	22:05:24.864	$GPGGA,220523,2456.3324,N,08019.5525,W,1,10,1.3,11,M,,M,,*63
06/08/2014	22:05:25.885	$GPGGA,220524,2456.3320,N,08019.5510,W,1,10,1.3,11,M,,M,,*66
06/08/2014	22:05:26.949	$GPGGA,220525,2456.3315,N,08019.5494,W,1,10,1.3,11,M,,M,,*6C
06/08/2014	22:05:27.980	$GPGGA,220526,2456.3310,N,08019.5479,W,1,10,1.3,11,M,,M,,*69
06/08/2014	22:05:29.172	$GPGGA,220527,2456.3306,N,08019.5464,W,1,10,1.3,11,M,,M,,*63
06/08/2014	22:05:30.120	$GPGGA,220528,2456.3302,N,08019.5448,W,1,10,1.3,11,M,,M,,*66
06/08/2014	22:05:31.276	$GPGGA,220529,2456.3298,N,08019.5433,W,1,10,1.3,11,M,,M,,*69
06/08/2014	22:05:32.180	$GPGGA,220530,2456.3295,N,08019.5418,W,1,10,1.3,11,M,,M,,*65
06/08/2014	22:05:33.368	$GPGGA,220531,2456.3290,N,08019.5402,W,1,10,1.3,11,M,,M,,*6A
06/08/2014	22:05:34.305	$GPGGA,220532,2456.3286,N,08019.5387,W,1,10,1.3,11,M,,M,,*64
06/08/2014	22:05:35.463	$GPGGA,220533,2456.3282,N,08019.5372,W,1,10,1.3,10,M,,M,,*6A
06/08/2014	22:05:36.379	$GPGGA,220534,2456.3278,N,08019.5357,W,1,10,1.3,10,M,,M,,*6F
06/08/2014	22:05:37.568	$GPGGA,220535,2456.3274,N,08019.5342,W,1,10,1.3,10,M,,M,,*66
06/08/2014	22:05:38.505	$GPGGA,220536,2456.3270,N,08019.5327,W,1,10,1.3,10,M,,M,,*62
06/08/2014	22:05:39.653	$GPGGA,220537,2456.3266,N,08019.5312,W,1,10,1.3,10,M,,M,,*62
06/08/2014	22:05:40.633	$GPGGA,220538,2456.3261,N,08019.5296,W,1,10,1.3,10,M,,M,,*67
06/08/2014	22:05:41.592	$GPGGA,220539,2456.3257,N,08019.5281,W,1,10,1.3,10,M,,M,,*65
06/08/2014	22:05:39.522	$GPGGA,220540,2456.3253,N,08019.5266,W,1,10,1.3,10,M,,M,,*66
06/08/2014	22:05:40.636	$GPGGA,220541,2456.3249,N,08019.5251,W,1,10,1.3,10,M,,M,,*68
06/08/2014	22:05:41.645	$GPGGA,220542,2456.3245,N,08019.5235,W,1,10,1.3,10,M,,M,,*65
06/08/2014	22:05:42.706	$GPGGA,220543,2456.3241,N,08019.5220,W,1,10,1.3,10,M,,M,,*64
06/08/2014	22:05:43.696	$GPGGA,220544,2456.3237,N,08019.5205,W,1,10,1.3,10,M,,M,,*65
06/08/2014	22:05:44.717	$GPGGA,220545,2456.3232,N,08019.5190,W,1,10,1.3,10,M,,M,,*6E
06/08/2014	22:05:45.717	$GPGGA,220546,2456.3228,N,08019.5174,W,1,10,1.3,10,M,,M,,*6C
06/08/2014	22:05:46.758	$GPGGA,220547,2456.3224,N,08019.5159,W,1,10,1.3,10,M,,M,,*6E
06/08/2014	22:05:47.767	$GPGGA,220548,2456.3220,N,08019.5144,W,1,10,1.3,10,M,,M,,*69
06/08/2014	22:05:48.808	$GPGGA,220549,2456.3216,N,08019.5128,W,1,10,1.3,10,M,,M,,*67
06/08/2014	22:05:49.787	$GPGGA,220550,2456.3212,N,08019.5113,W,1,10,1.3,10,M,,M,,*63
06/08/2014	22:05:50.839	$GPGGA,220551,2456.3208,N,08019.5098,W,1,10,1.3,10,M,,M,,*6B
06/08/2014	22:05:51.849	$GPGGA,220552,2456.3203,N,08019.5083,W,1,10,1.3,10,M,,M,,*69
06/08/2014	22:05:52.859	$GPGGA,220553,2456.3199,N,08019.5068,W,1,10,1.3,10,M,,M,,*6D
06/08/2014	22:05:53.890	$GPGGA,220554,2456.3194,N,08019.5053,W,1,10,1.3,10,M,,M,,*6F
06/08/2014	22:05:54.910	$GPGGA,220555,2456.3190,N,08019.5038,W,1,10,1.3,10,M,,M,,*67
06/08/2014	22:05:55.921	$GPGGA,220556,2456.3186,N,08019.5022,W,1,10,1.3,10,M,,M,,*68
06/08/2014	22:05:56.951	$GPGGA,220557,2456.3183,N,08019.5007,W,1,10,1.3,10,M,,M,,*6B
06/08/2014	22:05:57.941	$GPGGA,220558,2456.3177,N,08019.4992,W,1,10,1.3,10,M,,M,,*6B
06/08/2014	22:05:58.956	$GPGGA,220559,2456.3173,N,08019.4977,W,1,10,1.3,10,M,,M,,*65
06/08/2014	22:06:00.023	$GPGGA,220600,2456.3168,N,08019.4962,W,1,10,1.3,10,M,,M,,*64
06/08/2014	22:06:01.033	$GPGGA,220601,2456.3165,N,08019.4946,W,1,10,1.3,10,M,,M,,*6E
06/08/2014	22:06:02.016	$GPGGA,220602,2456.3159,N,08019.4931,W,1,10,1.3,10,M,,M,,*62
06/08/2014	22:06:03.051	$GPGGA,220603,2456.3155,N,08019.4916,W,1,10,1.3,10,M,,M,,*6A
06/08/2014	22:06:04.075	$GPGGA,220604,2456.3151,N,08019.4901,W,1,10,1.3,10,M,,M,,*6F
06/08/2014	22:06:05.065	$GPGGA,220605,2456.3147,N,08019.4886,W,1,10,1.3,10,M,,M,,*67
06/08/2014	22:06:06.085	$GPGGA,220606,2456.3143,N,08019.4871,W,1,10,1.3,10,M,,M,,*68
06/08/2014	22:06:07.130	$GPGGA,220607,2456.3137,N,08019.4856,W,1,10,1.3,10,M,,M,,*6F
06/08/2014	22:06:08.155	$GPGGA,220608,2456.3133,N,08019.4841,W,1,10,1.3,10,M,,M,,*62
06/08/2014	22:06:09.186	$GPGGA,220609,2456.3129,N,08019.4826,W,1,10,1.3,10,M,,M,,*69
06/08/2014	22:06:10.166	$GPGGA,220610,2456.3125,N,08019.4811,W,1,10,1.4,10,M,,M,,*6E
06/08/2014	22:06:11.214	$GPGGA,220611,2456.3119,N,08019.4796,W,1,10,1.4,10,M,,M,,*60
06/08/2014	22:06:12.219	$GPGGA,220612,2456.3114,N,08019.4781,W,1,10,1.4,10,M,,M,,*68
06/08/2014	22:06:13.237	$GPGGA,220613,2456.3111,N,08019.4766,W,1,10,1.4,10,M,,M,,*65
06/08/2014	22:06:14.268	$GPGGA,220614,2456.3105,N,08019.4751,W,1,10,1.4,10,M,,M,,*63
06/08/2014	22:06:15.279	$GPGGA,220615,2456.3101,N,08019.4736,W,1,10,1.4,10,M,,M,,*67
06/08/2014	22:06:16.306	$GPGGA,220616,2456.3096,N,08019.4721,W,1,10,1.4,10,M,,M,,*6D
06/08/2014	22:06:17.299	$GPGGA,220617,2456.3091,N,08019.4706,W,1,10,1.4,10,M,,M,,*6E
06/08/2014	22:06:18.320	$GPGGA,220618,2456.3087,N,08019.4691,W,1,10,1.4,10,M,,M,,*69
06/08/2014	22:06:19.363	$GPGGA,220619,2456.3082,N,08019.4676,W,1,10,1.4,10,M,,M,,*64
06/08/2014	22:06:20.371	$GPGGA,220620,2456.3078,N,08019.4661,W,1,10,1.4,10,M,,M,,*6D
06/08/2014	22:06:21.391	$GPGGA,220621,2456.3073,N,08019.4646,W,1,10,1.4,10,M,,M,,*62
06/08/2014	22:06:22.391	$GPGGA,220622,2456.3068,N,08019.4631,W,1,10,1.4,10,M,,M,,*6B
06/08/2014	22:06:23.523	$GPGGA,220623,2456.3064,N,08019.4616,W,1,10,1.4,10,M,,M,,*63
06/08/2014	22:06:24.474	$GPGGA,220624,2456.3060,N,08019.4601,W,1,10,1.4,10,M,,M,,*66
06/08/2014	22:06:25.462	$GPGGA,220625,2456.3055,N,08019.4586,W,1,10,1.4,10,M,,M,,*6D
06/08/2014	22:06:26.544	$GPGGA,220626,2456.3050,N,08019.4571,W,1,10,1.4,10,M,,M,,*63
06/08/2014	22:06:27.493	$GPGGA,220627,2456.3046,N,08019.4555,W,1,10,1.4,10,M,,M,,*63
06/08/2014	22:06:28.513	$GPGGA,220628,2456.3042,N,08019.4540,W,1,10,1.4,10,M,,M,,*6C
06/08/2014	22:06:29.626	$GPGGA,220629,2456.3037,N,08019.4525,W,1,10,1.4,10,M,,M,,*6C
06/08/2014	22:06:30.544	$GPGGA,220630,2456.3033,N,08019.4510,W,1,10,1.4,10,M,,M,,*66
06/08/2014	22:06:31.565	$GPGGA,220631,2456.3029,N,08019.4495,W,1,10,1.4,10,M,,M,,*60
06/08/2014	22:06:32.677	$GPGGA,220632,2456.3025,N,08019.4480,W,1,10,1.4,10,M,,M,,*6B
06/08/2014	22:06:33.677	$GPGGA,220633,2456.3021,N,08019.4464,W,1,10,1.4,10,M,,M,,*64
06/08/2014	22:06:34.626	$GPGGA,220634,2456.3017,N,08019.4449,W,1,10,1.4,10,M,,M,,*69
06/08/2014	22:06:35.749	$GPGGA,220635,2456.3013,N,08019.4434,W,1,10,1.4,10,M,,M,,*66
06/08/2014	22:06:36.759	$GPGGA,220636,2456.3008,N,08019.4418,W,1,10,1.4,10,M,,M,,*61
06/08/2014	22:06:37.769	$GPGGA,220637,2456.3006,N,08019.4403,W,1,10,1.4,10,M,,M,,*64
06/08/2014	22:06:38.780	$GPGGA,220638,2456.3000,N,08019.4387,W,1,10,1.4,10,M,,M,,*66
06/08/2014	22:06:39.800	$GPGGA,220639,2456.2996,N,08019.4372,W,1,10,1.4,10,M,,M,,*6A
06/08/2014	22:06:39.604	$GPGGA,220640,2456.2993,N,08019.4356,W,1,10,1.4,10,M,,M,,*67
06/08/2014	22:06:40.623	$GPGGA,220641,2456.2988,N,08019.4341,W,1,10,1.4,10,M,,M,,*6A
06/08/2014	22:06:41.623	$GPGGA,220642,2456.2984,N,08019.4325,W,1,10,1.4,10,M,,M,,*67
06/08/2014	22:06:42.664	$GPGGA,220643,2456.2981,N,08019.4310,W,1,10,1.4,10,M,,M,,*65
06/08/2014	22:06:43.675	$GPGGA,220644,2456.2977,N,08019.4294,W,1,10,1.4,10,M,,M,,*66
06/08/2014	22:06:44.675	$GPGGA,220645,2456.2972,N,08019.4279,W,1,10,1.4,10,M,,M,,*61
06/08/2014	22:06:45.695	$GPGGA,220646,2456.2970,N,08019.4263,W,1,10,1.4,10,M,,M,,*6B
06/08/2014	22:06:46.712	$GPGGA,220647,2456.2966,N,08019.4248,W,1,10,1.4,10,M,,M,,*64
06/08/2014	22:06:47.738	$GPGGA,220648,2456.2961,N,08019.4232,W,1,10,1.4,10,M,,M,,*61
06/08/2014	22:06:48.767	$GPGGA,220649,2456.2959,N,08019.4217,W,1,10,1.4,10,M,,M,,*6C
06/08/2014	22:06:49.787	$GPGGA,220650,2456.2954,N,08019.4202,W,1,10,1.4,10,M,,M,,*6D
06/08/2014	22:06:50.789	$GPGGA,220651,2456.2950,N,08019.4186,W,1,10,1.4,10,M,,M,,*67
06/08/2014	22:06:51.828	$GPGGA,220652,2456.2946,N,08019.4171,W,1,10,1.4,10,M,,M,,*6B
06/08/2014	22:06:52.859	$GPGGA,220653,2456.2942,N,08019.4156,W,1,10,1.4,10,M,,M,,*6B
06/08/2014	22:06:53.853	$GPGGA,220654,2456.2939,N,08019.4140,W,1,10,1.4,10,M,,M,,*67
06/08/2014	22:06:54.883	$GPGGA,220655,2456.2935,N,08019.4125,W,1,10,1.4,10,M,,M,,*69
06/08/2014	22:06:55.891	$GPGGA,220656,2456.2931,N,08019.4109,W,1,10,1.4,10,M,,M,,*60
06/08/2014	22:06:56.921	$GPGGA,220657,2456.2927,N,08019.4094,W,1,10,1.4,10,M,,M,,*63
06/08/2014	22:06:57.920	$GPGGA,220658,2456.2923,N,08019.4078,W,1,10,1.4,10,M,,M,,*6A
06/08/2014	22:06:58.940	$GPGGA,220659,2456.2919,N,08019.4063,W,1,10,1.4,10,M,,M,,*68
06/08/2014	22:06:59.982	$GPGGA,220700,2456.2915,N,08019.4048,W,1,10,1.4,10,M,,M,,*60
06/08/2014	22:07:00.971	$GPGGA,220701,2456.2912,N,08019.4032,W,1,10,1.4,10,M,,M,,*6B
06/08/2014	22:07:02.002	$GPGGA,220702,2456.2907,N,08019.4017,W,1,10,1.4,10,M,,M,,*6B
06/08/2014	22:07:03.002	$GPGGA,220703,2456.2903,N,08019.4002,W,1,10,1.4,10,M,,M,,*6A
06/08/2014	22:07:04.043	$GPGGA,220704,2456.2901,N,08019.3986,W,1,10,1.4,10,M,,M,,*6D
06/08/2014	22:07:05.043	$GPGGA,220705,2456.2896,N,08019.3971,W,1,10,1.4,10,M,,M,,*6B
06/08/2014	22:07:06.063	$GPGGA,220706,2456.2892,N,08019.3955,W,1,10,1.4,10,M,,M,,*6A
06/08/2014	22:07:07.104	$GPGGA,220707,2456.2888,N,08019.3940,W,1,10,1.4,10,M,,M,,*64
06/08/2014	22:07:08.115	$GPGGA,220708,2456.2884,N,08019.3924,W,1,10,1.4,10,M,,M,,*65
06/08/2014	22:07:09.135	$GPGGA,220709,2456.2881,N,08019.3909,W,1,10,1.4,10,M,,M,,*6E
06/08/2014	22:07:10.166	$GPGGA,220710,2456.2877,N,08019.3893,W,1,10,1.4,10,M,,M,,*6D
06/08/2014	22:07:11.156	$GPGGA,220711,2456.2873,N,08019.3878,W,1,10,1.4,10,M,,M,,*6D
06/08/2014	22:07:12.309	$GPGGA,220712,2456.2869,N,08019.3862,W,1,10,1.4,10,M,,M,,*6E
06/08/2014	22:07:13.186	$GPGGA,220713,2456.2865,N,08019.3847,W,1,10,1.4,10,M,,M,,*64
06/08/2014	22:07:14.329	$GPGGA,220714,2456.2861,N,08019.3831,W,1,10,1.4,10,M,,M,,*66
06/08/2014	22:07:15.238	$GPGGA,220715,2456.2858,N,08019.3816,W,1,10,1.4,10,M,,M,,*68
06/08/2014	22:07:16.267	$GPGGA,220716,2456.2854,N,08019.3800,W,1,10,1.4,10,M,,M,,*60
06/08/2014	22:07:17.359	$GPGGA,220717,2456.2850,N,08019.3785,W,1,10,1.4,10,M,,M,,*67
06/08/2014	22:07:18.278	$GPGGA,220718,2456.2847,N,08019.3770,W,1,10,1.4,10,M,,M,,*64
06/08/2014	22:07:19.441	$GPGGA,220719,2456.2842,N,08019.3754,W,1,10,1.4,10,M,,M,,*66
06/08/2014	22:07:20.339	$GPGGA,220720,2456.2840,N,08019.3740,W,1,10,1.4,10,M,,M,,*6B
06/08/2014	22:07:21.339	$GPGGA,220721,2456.2836,N,08019.3724,W,1,10,1.4,10,M,,M,,*69
06/08/2014	22:07:22.462	$GPGGA,220722,2456.2831,N,08019.3709,W,1,10,1.4,10,M,,M,,*62
06/08/2014	22:07:23.503	$GPGGA,220723,2456.2829,N,08019.3694,W,1,10,1.4,10,M,,M,,*6F
06/08/2014	22:07:24.513	$GPGGA,220724,2456.2824,N,08019.3679,W,1,10,1.4,10,M,,M,,*66
06/08/2014	22:07:25.523	$GPGGA,220725,2456.2820,N,08019.3663,W,1,10,1.4,10,M,,M,,*68
06/08/2014	22:07:26.524	$GPGGA,220726,2456.2816,N,08019.3648,W,1,10,1.4,10,M,,M,,*67
06/08/2014	22:07:27.574	$GPGGA,220727,2456.2812,N,08019.3633,W,1,10,1.4,10,M,,M,,*6E
06/08/2014	22:07:28.585	$GPGGA,220728,2456.2808,N,08019.3618,W,1,10,1.4,10,M,,M,,*63
06/08/2014	22:07:29.580	$GPGGA,220729,2456.2804,N,08019.3603,W,1,10,1.4,10,M,,M,,*64
06/08/2014	22:07:30.616	$GPGGA,220730,2456.2800,N,08019.3587,W,1,10,1.4,10,M,,M,,*67
06/08/2014	22:07:31.618	$GPGGA,220731,2456.2796,N,08019.3572,W,1,10,1.4,10,M,,M,,*6C
06/08/2014	22:07:34.074	$GPGGA,220732,2456.2793,N,08019.3557,W,1,10,1.4,10,M,,M,,*6D
06/08/2014	22:07:34.092	$GPGGA,220733,2456.2789,N,08019.3541,W,1,10,1.4,10,M,,M,,*60
06/08/2014	22:07:34.686	$GPGGA,220734,2456.2784,N,08019.3526,W,1,10,1.4,10,M,,M,,*6B
06/08/2014	22:07:35.697	$GPGGA,220735,2456.2779,N,08019.3511,W,1,10,1.4,10,M,,M,,*6C
06/08/2014	22:07:36.738	$GPGGA,220736,2456.2776,N,08019.3496,W,1,10,1.4,10,M,,M,,*6E
06/08/2014	22:07:37.748	$GPGGA,220737,2456.2771,N,08019.3480,W,1,10,1.4,10,M,,M,,*6F
06/08/2014	22:07:38.758	$GPGGA,220738,2456.2767,N,08019.3465,W,1,10,1.4,10,M,,M,,*6C
06/08/2014	22:07:39.789	$GPGGA,220739,2456.2764,N,08019.3450,W,1,10,1.4,10,M,,M,,*68
06/08/2014	22:07:39.581	$GPGGA,220740,2456.2760,N,08019.3435,W,1,10,1.4,10,M,,M,,*61
06/08/2014	22:07:40.581	$GPGGA,220741,2456.2755,N,08019.3419,W,1,10,1.4,10,M,,M,,*68
06/08/2014	22:07:41.613	$GPGGA,220742,2456.2751,N,08019.3404,W,1,10,1.4,10,M,,M,,*63
06/08/2014	22:07:42.633	$GPGGA,220743,2456.2747,N,08019.3389,W,1,10,1.4,10,M,,M,,*67
06/08/2014	22:07:43.663	$GPGGA,220744,2456.2742,N,08019.3374,W,1,10,1.4,10,M,,M,,*67
06/08/2014	22:07:44.653	$GPGGA,220745,2456.2738,N,08019.3359,W,1,10,1.4,10,M,,M,,*64
06/08/2014	22:07:45.674	$GPGGA,220746,2456.2733,N,08019.3344,W,1,10,1.4,10,M,,M,,*60
06/08/2014	22:07:46.725	$GPGGA,220747,2456.2729,N,08019.3329,W,1,10,1.4,10,M,,M,,*61
06/08/2014	22:07:47.725	$GPGGA,220748,2456.2724,N,08019.3314,W,1,10,1.4,10,M,,M,,*6D
06/08/2014	22:07:48.725	$GPGGA,220749,2456.2720,N,08019.3299,W,1,10,1.4,10,M,,M,,*6C
06/08/2014	22:07:49.756	$GPGGA,220750,2456.2717,N,08019.3284,W,1,10,1.4,10,M,,M,,*6C
06/08/2014	22:07:50.755	$GPGGA,220751,2456.2711,N,08019.3269,W,1,10,1.4,10,M,,M,,*68
06/08/2014	22:07:51.796	$GPGGA,220752,2456.2707,N,08019.3255,W,1,10,1.4,10,M,,M,,*63
06/08/2014	22:07:52.837	$GPGGA,220753,2456.2703,N,08019.3240,W,1,10,1.4,10,M,,M,,*62
06/08/2014	22:07:53.816	$GPGGA,220754,2456.2699,N,08019.3224,W,1,10,1.4,10,M,,M,,*65
06/08/2014	22:07:54.857	$GPGGA,220755,2456.2693,N,08019.3209,W,1,10,1.4,10,M,,M,,*61
06/08/2014	22:07:55.990	$GPGGA,220756,2456.2689,N,08019.3195,W,1,10,1.4,10,M,,M,,*6F
06/08/2014	22:07:57.010	$GPGGA,220757,2456.2684,N,08019.3179,W,1,10,1.4,10,M,,M,,*61
06/08/2014	22:07:57.898	$GPGGA,220758,2456.2681,N,08019.3164,W,1,10,1.4,10,M,,M,,*67
06/08/2014	22:07:59.041	$GPGGA,220759,2456.2677,N,08019.3150,W,1,10,1.4,10,M,,M,,*68
06/08/2014	22:07:59.960	$GPGGA,220800,2456.2671,N,08019.3135,W,1,10,1.4,10,M,,M,,*6E
06/08/2014	22:08:00.990	$GPGGA,220801,2456.2667,N,08019.3119,W,1,10,1.4,10,M,,M,,*66
06/08/2014	22:08:01.960	$GPGGA,220802,2456.2663,N,08019.3105,W,1,10,1.4,10,M,,M,,*6C
06/08/2014	22:08:03.011	$GPGGA,220803,2456.2659,N,08019.3089,W,1,10,1.4,10,M,,M,,*61
06/08/2014	22:08:04.031	$GPGGA,220804,2456.2654,N,08019.3074,W,1,10,1.4,10,M,,M,,*69
06/08/2014	22:08:05.021	$GPGGA,220805,2456.2649,N,08019.3059,W,1,10,1.4,10,M,,M,,*6B
06/08/2014	22:08:06.144	$GPGGA,220806,2456.2645,N,08019.3044,W,1,10,1.4,10,M,,M,,*68
06/08/2014	22:08:07.175	$GPGGA,220807,2456.2641,N,08019.3029,W,1,10,1.4,10,M,,M,,*66
06/08/2014	22:08:08.082	$GPGGA,220808,2456.2636,N,08019.3013,W,1,10,1.4,10,M,,M,,*60
06/08/2014	22:08:09.096	$GPGGA,220809,2456.2632,N,08019.2999,W,1,10,1.4,10,M,,M,,*6F
06/08/2014	22:08:10.215	$GPGGA,220810,2456.2628,N,08019.2983,W,1,10,1.4,10,M,,M,,*67
06/08/2014	22:08:11.145	$GPGGA,220811,2456.2624,N,08019.2968,W,1,10,1.4,10,M,,M,,*6F
06/08/2014	22:08:12.256	$GPGGA,220812,2456.2619,N,08019.2953,W,1,10,1.4,10,M,,M,,*6A
06/08/2014	22:08:13.307	$GPGGA,220813,2456.2616,N,08019.2938,W,1,10,1.4,10,M,,M,,*69
06/08/2014	22:08:14.286	$GPGGA,220814,2456.2612,N,08019.2923,W,1,10,1.4,10,M,,M,,*60
06/08/2014	22:08:15.317	$GPGGA,220815,2456.2607,N,08019.2908,W,1,10,1.4,10,M,,M,,*6C
06/08/2014	22:08:16.338	$GPGGA,220816,2456.2603,N,08019.2893,W,1,10,1.4,10,M,,M,,*68
06/08/2014	22:08:17.368	$GPGGA,220817,2456.2599,N,08019.2877,W,1,10,1.4,10,M,,M,,*63
06/08/2014	22:08:18.368	$GPGGA,220818,2456.2594,N,08019.2862,W,1,10,1.4,10,M,,M,,*65
06/08/2014	22:08:19.379	$GPGGA,220819,2456.2590,N,08019.2847,W,1,10,1.4,10,M,,M,,*67
06/08/2014	22:08:20.420	$GPGGA,220820,2456.2587,N,08019.2831,W,1,10,1.4,10,M,,M,,*6A
06/08/2014	22:08:21.420	$GPGGA,220821,2456.2583,N,08019.2816,W,1,10,1.4,10,M,,M,,*6A
06/08/2014	22:08:22.440	$GPGGA,220822,2456.2578,N,08019.2801,W,1,10,1.4,10,M,,M,,*6B
06/08/2014	22:08:23.481	$GPGGA,220823,2456.2574,N,08019.2785,W,1,10,1.4,10,M,,M,,*65
06/08/2014	22:08:24.491	$GPGGA,220824,2456.2570,N,08019.2770,W,1,10,1.4,10,M,,M,,*6C
06/08/2014	22:08:25.502	$GPGGA,220825,2456.2566,N,08019.2754,W,1,10,1.4,10,M,,M,,*6C
06/08/2014	22:08:26.521	$GPGGA,220826,2456.2562,N,08019.2739,W,1,10,1.4,10,M,,M,,*60
06/08/2014	22:08:27.552	$GPGGA,220827,2456.2558,N,08019.2724,W,1,10,1.4,10,M,,M,,*64
06/08/2014	22:08:28.552	$GPGGA,220828,2456.2554,N,08019.2708,W,1,10,1.4,10,M,,M,,*69
06/08/2014	22:08:29.603	$GPGGA,220829,2456.2551,N,08019.2693,W,1,10,1.4,10,M,,M,,*6E
06/08/2014	22:08:30.593	$GPGGA,220830,2456.2547,N,08019.2678,W,1,10,1.4,10,M,,M,,*64
06/08/2014	22:08:31.644	$GPGGA,220831,2456.2543,N,08019.2662,W,1,10,1.4,10,M,,M,,*6A
06/08/2014	22:08:32.634	$GPGGA,220832,2456.2540,N,08019.2647,W,1,10,1.4,10,M,,M,,*6D
06/08/2014	22:08:33.665	$GPGGA,220833,2456.2536,N,08019.2631,W,1,10,1.4,10,M,,M,,*6C
06/08/2014	22:08:34.677	$GPGGA,220834,2456.2533,N,08019.2616,W,1,10,1.4,10,M,,M,,*6B
06/08/2014	22:08:35.675	$GPGGA,220835,2456.2529,N,08019.2600,W,1,10,1.4,10,M,,M,,*66
06/08/2014	22:08:36.716	$GPGGA,220836,2456.2524,N,08019.2585,W,1,10,1.4,10,M,,M,,*66
06/08/2014	22:08:37.747	$GPGGA,220837,2456.2520,N,08019.2569,W,1,10,1.4,10,M,,M,,*61
06/08/2014	22:08:38.737	$GPGGA,220838,2456.2518,N,08019.2554,W,1,10,1.4,10,M,,M,,*6B
06/08/2014	22:08:39.747	$GPGGA,220839,2456.2513,N,08019.2538,W,1,10,1.4,10,M,,M,,*6B
06/08/2014	22:08:39.562	$GPGGA,220840,2456.2511,N,08019.2523,W,1,10,1.4,10,M,,M,,*6D
06/08/2014	22:08:40.713	$GPGGA,220841,2456.2506,N,08019.2507,W,1,10,1.4,10,M,,M,,*6C
06/08/2014	22:08:41.570	$GPGGA,220842,2456.2504,N,08019.2492,W,1,10,1.4,10,M,,M,,*60
06/08/2014	22:08:42.600	$GPGGA,220843,2456.2500,N,08019.2476,W,1,10,1.4,10,M,,M,,*6F
06/08/2014	22:08:43.804	$GPGGA,220844,2456.2495,N,08019.2461,W,1,10,1.4,10,M,,M,,*63
06/08/2014	22:08:44.651	$GPGGA,220845,2456.2493,N,08019.2445,W,1,10,1.4,10,M,,M,,*62
06/08/2014	22:08:45.753	$GPGGA,220846,2456.2489,N,08019.2430,W,1,10,1.4,10,M,,M,,*68
06/08/2014	22:08:46.835	$GPGGA,220847,2456.2486,N,08019.2414,W,1,10,1.4,10,M,,M,,*60
06/08/2014	22:08:47.713	$GPGGA,220848,2456.2482,N,08019.2399,W,1,10,1.4,10,M,,M,,*69
06/08/2014	22:08:48.713	$GPGGA,220849,2456.2478,N,08019.2383,W,1,10,1.4,10,M,,M,,*66
06/08/2014	22:08:49.825	$GPGGA,220850,2456.2475,N,08019.2368,W,1,10,1.4,10,M,,M,,*66
06/08/2014	22:08:50.743	$GPGGA,220851,2456.2471,N,08019.2353,W,1,10,1.4,10,M,,M,,*6B
06/08/2014	22:08:51.958	$GPGGA,220852,2456.2468,N,08019.2337,W,1,10,1.4,10,M,,M,,*62
06/08/2014	22:08:52.774	$GPGGA,220853,2456.2464,N,08019.2322,W,1,10,1.4,10,M,,M,,*6B
06/08/2014	22:08:53.805	$GPGGA,220854,2456.2461,N,08019.2306,W,1,10,1.4,10,M,,M,,*6F
06/08/2014	22:08:54.815	$GPGGA,220855,2456.2457,N,08019.2290,W,1,10,1.4,10,M,,M,,*65
06/08/2014	22:08:56.040	$GPGGA,220856,2456.2453,N,08019.2275,W,1,10,1.4,10,M,,M,,*69
06/08/2014	22:08:57.012	$GPGGA,220857,2456.2449,N,08019.2259,W,1,10,1.4,10,M,,M,,*6D
06/08/2014	22:08:57.887	$GPGGA,220858,2456.2446,N,08019.2243,W,1,10,1.4,10,M,,M,,*66
06/08/2014	22:08:59.054	$GPGGA,220859,2456.2442,N,08019.2228,W,1,10,1.4,10,M,,M,,*6E
06/08/2014	22:08:59.960	$GPGGA,220900,2456.2439,N,08019.2213,W,1,10,1.4,10,M,,M,,*67
06/08/2014	22:09:01.060	$GPGGA,220901,2456.2435,N,08019.2197,W,1,10,1.4,10,M,,M,,*65
06/08/2014	22:09:02.150	$GPGGA,220902,2456.2431,N,08019.2182,W,1,10,1.4,10,M,,M,,*66
06/08/2014	22:09:03.121	$GPGGA,220903,2456.2428,N,08019.2167,W,1,10,1.4,10,M,,M,,*64
06/08/2014	22:09:04.173	$GPGGA,220904,2456.2424,N,08019.2152,W,1,10,1.4,10,M,,M,,*69
06/08/2014	22:09:05.152	$GPGGA,220905,2456.2421,N,08019.2137,W,1,10,1.4,10,M,,M,,*6E
06/08/2014	22:09:06.121	$GPGGA,220906,2456.2417,N,08019.2121,W,1,10,1.4,10,M,,M,,*6F
06/08/2014	22:09:07.138	$GPGGA,220907,2456.2413,N,08019.2106,W,1,10,1.4,10,M,,M,,*6F
06/08/2014	22:09:08.244	$GPGGA,220908,2456.2410,N,08019.2091,W,1,10,1.4,10,M,,M,,*6C
06/08/2014	22:09:09.203	$GPGGA,220909,2456.2406,N,08019.2075,W,1,10,1.4,10,M,,M,,*60
06/08/2014	22:09:10.187	$GPGGA,220910,2456.2402,N,08019.2060,W,1,10,1.4,10,M,,M,,*68
06/08/2014	22:09:11.255	$GPGGA,220911,2456.2399,N,08019.2045,W,1,10,1.4,10,M,,M,,*6B
06/08/2014	22:09:12.234	$GPGGA,220912,2456.2394,N,08019.2030,W,1,10,1.4,10,M,,M,,*67
06/08/2014	22:09:13.285	$GPGGA,220913,2456.2390,N,08019.2015,W,1,10,1.4,10,M,,M,,*65
06/08/2014	22:09:14.326	$GPGGA,220914,2456.2386,N,08019.1999,W,1,10,1.4,10,M,,M,,*6B
06/08/2014	22:09:15.326	$GPGGA,220915,2456.2382,N,08019.1984,W,1,10,1.4,10,M,,M,,*62
06/08/2014	22:09:16.377	$GPGGA,220916,2456.2378,N,08019.1969,W,1,10,1.4,10,M,,M,,*67
06/08/2014	22:09:17.398	$GPGGA,220917,2456.2374,N,08019.1954,W,1,10,1.4,10,M,,M,,*64
06/08/2014	22:09:18.407	$GPGGA,220918,2456.2370,N,08019.1939,W,1,10,1.4,10,M,,M,,*64
06/08/2014	22:09:19.356	$GPGGA,220919,2456.2366,N,08019.1924,W,1,10,1.4,10,M,,M,,*6E
06/08/2014	22:09:20.448	$GPGGA,220920,2456.2363,N,08019.1909,W,1,10,1.4,10,M,,M,,*6E
06/08/2014	22:09:21.401	$GPGGA,220921,2456.2359,N,08019.1895,W,1,10,1.4,10,M,,M,,*62
06/08/2014	22:09:22.479	$GPGGA,220922,2456.2355,N,08019.1880,W,1,10,1.4,10,M,,M,,*69
06/08/2014	22:09:23.479	$GPGGA,220923,2456.2350,N,08019.1865,W,1,10,1.4,10,M,,M,,*66
06/08/2014	22:09:24.530	$GPGGA,220924,2456.2346,N,08019.1850,W,1,10,1.4,10,M,,M,,*60
06/08/2014	22:09:25.510	$GPGGA,220925,2456.2342,N,08019.1836,W,1,10,1.4,10,M,,M,,*65
06/08/2014	22:09:26.551	$GPGGA,220926,2456.2338,N,08019.1820,W,1,10,1.4,10,M,,M,,*6C
06/08/2014	22:09:27.561	$GPGGA,220927,2456.2334,N,08019.1806,W,1,10,1.4,10,M,,M,,*65
06/08/2014	22:09:28.592	$GPGGA,220928,2456.2330,N,08019.1791,W,1,10,1.4,10,M,,M,,*6F
06/08/2014	22:09:29.592	$GPGGA,220929,2456.2327,N,08019.1776,W,1,10,1.4,10,M,,M,,*61
06/08/2014	22:09:30.612	$GPGGA,220930,2456.2323,N,08019.1761,W,1,10,1.4,10,M,,M,,*6B
06/08/2014	22:09:31.612	$GPGGA,220931,2456.2318,N,08019.1746,W,1,10,1.4,10,M,,M,,*67
06/08/2014	22:09:32.631	$GPGGA,220932,2456.2314,N,08019.1731,W,1,10,1.4,10,M,,M,,*68
06/08/2014	22:09:33.644	$GPGGA,220933,2456.2310,N,08019.1716,W,1,10,1.4,10,M,,M,,*68
06/08/2014	22:09:34.694	$GPGGA,220934,2456.2306,N,08019.1701,W,1,10,1.4,10,M,,M,,*6E
06/08/2014	22:09:35.714	$GPGGA,220935,2456.2302,N,08019.1686,W,1,10,1.4,10,M,,M,,*65
06/08/2014	22:09:36.745	$GPGGA,220936,2456.2298,N,08019.1671,W,1,10,1.4,10,M,,M,,*6C
06/08/2014	22:09:37.806	$GPGGA,220937,2456.2294,N,08019.1656,W,1,10,1.4,10,M,,M,,*64
06/08/2014	22:09:38.704	$GPGGA,220938,2456.2290,N,08019.1641,W,1,10,1.4,10,M,,M,,*69
06/08/2014	22:09:39.725	$GPGGA,220939,2456.2285,N,08019.1626,W,1,10,1.4,10,M,,M,,*6D
06/08/2014	22:09:39.659	$GPGGA,220940,2456.2282,N,08019.1611,W,1,10,1.4,10,M,,M,,*60
06/08/2014	22:09:40.557	$GPGGA,220941,2456.2277,N,08019.1596,W,1,10,1.4,10,M,,M,,*67
06/08/2014	22:09:41.557	$GPGGA,220942,2456.2273,N,08019.1581,W,1,10,1.4,10,M,,M,,*66
06/08/2014	22:09:42.639	$GPGGA,220943,2456.2270,N,08019.1566,W,1,10,1.4,10,M,,M,,*6D
06/08/2014	22:09:43.700	$GPGGA,220944,2456.2265,N,08019.1551,W,1,10,1.4,10,M,,M,,*6A
06/08/2014	22:09:44.680	$GPGGA,220945,2456.2262,N,08019.1536,W,1,10,1.4,10,M,,M,,*6D
06/08/2014	22:09:45.700	$GPGGA,220946,2456.2258,N,08019.1521,W,1,10,1.4,10,M,,M,,*61
06/08/2014	22:09:46.670	$GPGGA,220947,2456.2253,N,08019.1505,W,1,10,1.4,10,M,,M,,*6D
06/08/2014	22:09:47.772	$GPGGA,220948,2456.2251,N,08019.1490,W,1,10,1.4,10,M,,M,,*6D
06/08/2014	22:09:48.802	$GPGGA,220949,2456.2247,N,08019.1475,W,1,10,1.4,10,M,,M,,*60
06/08/2014	22:09:49.803	$GPGGA,220950,2456.2241,N,08019.1460,W,1,10,1.4,10,M,,M,,*6A
06/08/2014	22:09:50.833	$GPGGA,220951,2456.2237,N,08019.1444,W,1,10,1.4,10,M,,M,,*6C
06/08/2014	22:09:51.865	$GPGGA,220952,2456.2233,N,08019.1429,W,1,10,1.6,10,M,,M,,*62
06/08/2014	22:09:52.863	$GPGGA,220953,2456.2229,N,08019.1414,W,1,10,1.4,10,M,,M,,*64
06/08/2014	22:09:53.843	$GPGGA,220954,2456.2225,N,08019.1398,W,1,10,1.6,10,M,,M,,*6E
06/08/2014	22:09:54.924	$GPGGA,220955,2456.2222,N,08019.1385,W,1,10,1.4,10,M,,M,,*66
06/08/2014	22:09:55.935	$GPGGA,220956,2456.2217,N,08019.1371,W,1,10,1.4,10,M,,M,,*68
06/08/2014	22:09:56.945	$GPGGA,220957,2456.2212,N,08019.1356,W,1,10,1.4,10,M,,M,,*69
06/08/2014	22:09:57.955	$GPGGA,220958,2456.2208,N,08019.1341,W,1,10,1.4,10,M,,M,,*6B
06/08/2014	22:09:58.966	$GPGGA,220959,2456.2204,N,08019.1326,W,1,10,1.4,10,M,,M,,*67
06/08/2014	22:10:00.027	$GPGGA,221000,2456.2200,N,08019.1310,W,1,10,1.4,10,M,,M,,*62
06/08/2014	22:10:01.027	$GPGGA,221001,2456.2197,N,08019.1295,W,1,10,1.4,10,M,,M,,*62
06/08/2014	22:10:02.024	$GPGGA,221002,2456.2193,N,08019.1280,W,1,10,1.4,10,M,,M,,*61
06/08/2014	22:10:03.059	$GPGGA,221003,2456.2189,N,08019.1265,W,1,10,1.4,10,M,,M,,*60
06/08/2014	22:10:04.088	$GPGGA,221004,2456.2186,N,08019.1250,W,1,10,1.4,10,M,,M,,*6E
06/08/2014	22:10:05.100	$GPGGA,221005,2456.2182,N,08019.1235,W,1,10,1.4,10,M,,M,,*68
06/08/2014	22:10:06.122	$GPGGA,221006,2456.2178,N,08019.1219,W,1,10,1.4,11,M,,M,,*61
06/08/2014	22:10:07.150	$GPGGA,221007,2456.2175,N,08019.1204,W,1,10,1.4,11,M,,M,,*61
06/08/2014	22:10:08.191	$GPGGA,221008,2456.2170,N,08019.1189,W,1,10,1.4,11,M,,M,,*6D
06/08/2014	22:10:09.171	$GPGGA,221009,2456.2166,N,08019.1173,W,1,10,1.4,11,M,,M,,*6E
06/08/2014	22:10:10.190	$GPGGA,221010,2456.2164,N,08019.1158,W,1,10,1.4,11,M,,M,,*6D
06/08/2014	22:10:11.213	$GPGGA,221011,2456.2159,N,08019.1142,W,1,10,1.4,11,M,,M,,*69
06/08/2014	22:10:12.225	$GPGGA,221012,2456.2157,N,08019.1126,W,1,10,1.4,11,M,,M,,*66
06/08/2014	22:10:13.272	$GPGGA,221013,2456.2152,N,08019.1111,W,1,10,1.4,11,M,,M,,*66
06/08/2014	22:10:14.263	$GPGGA,221014,2456.2148,N,08019.1095,W,1,10,1.4,11,M,,M,,*67
06/08/2014	22:10:15.286	$GPGGA,221015,2456.2146,N,08019.1080,W,1,10,1.4,11,M,,M,,*6C
06/08/2014	22:10:16.313	$GPGGA,221016,2456.2142,N,08019.1064,W,1,10,1.4,11,M,,M,,*61
06/08/2014	22:10:17.314	$GPGGA,221017,2456.2139,N,08019.1048,W,1,10,1.4,11,M,,M,,*62
06/08/2014	22:10:18.324	$GPGGA,221018,2456.2139,N,08019.1048,W,1,10,1.4,11,M,,M,,*6D
06/08/2014	22:10:19.375	$GPGGA,221019,2456.2135,N,08019.1032,W,1,10,1.4,11,M,,M,,*6D
06/08/2014	22:10:20.375	$GPGGA,221020,2456.2132,N,08019.1016,W,1,10,1.4,11,M,,M,,*66
06/08/2014	22:10:21.416	$GPGGA,221021,2456.2124,N,08019.0985,W,1,10,1.4,11,M,,M,,*62
06/08/2014	22:10:22.518	$GPGGA,221022,2456.2121,N,08019.0969,W,1,10,1.4,11,M,,M,,*66
06/08/2014	22:10:23.457	$GPGGA,221023,2456.2117,N,08019.0953,W,1,10,1.4,11,M,,M,,*6B
06/08/2014	22:10:24.458	$GPGGA,221024,2456.2114,N,08019.0938,W,1,10,1.4,11,M,,M,,*62
06/08/2014	22:10:25.584	$GPGGA,221025,2456.2110,N,08019.0921,W,1,10,1.4,11,M,,M,,*6F
06/08/2014	22:10:26.477	$GPGGA,221026,2456.2110,N,08019.0921,W,1,10,1.4,11,M,,M,,*6C
06/08/2014	22:10:27.478	$GPGGA,221027,2456.2103,N,08019.0889,W,1,10,1.4,11,M,,M,,*6C
06/08/2014	22:10:28.640	$GPGGA,221028,2456.2099,N,08019.0873,W,1,10,1.4,11,M,,M,,*64
06/08/2014	22:10:29.630	$GPGGA,221029,2456.2096,N,08019.0857,W,1,10,1.4,11,M,,M,,*6C
06/08/2014	22:10:30.548	$GPGGA,221030,2456.2096,N,08019.0857,W,1,10,1.4,11,M,,M,,*64
06/08/2014	22:10:31.650	$GPGGA,221031,2456.2089,N,08019.0825,W,1,10,1.4,11,M,,M,,*6E
06/08/2014	22:10:32.589	$GPGGA,221032,2456.2089,N,08019.0825,W,1,10,1.4,11,M,,M,,*6D
06/08/2014	22:10:33.620	$GPGGA,221033,2456.2082,N,08019.0793,W,1,10,1.4,11,M,,M,,*65
06/08/2014	22:10:34.712	$GPGGA,221034,2456.2078,N,08019.0777,W,1,10,1.4,11,M,,M,,*6D
06/08/2014	22:10:35.763	$GPGGA,221035,2456.2075,N,08019.0761,W,1,10,1.4,11,M,,M,,*66
06/08/2014	22:10:36.763	$GPGGA,221036,2456.2071,N,08019.0746,W,1,10,1.4,11,M,,M,,*64
06/08/2014	22:10:37.767	$GPGGA,221037,2456.2068,N,08019.0731,W,1,10,1.4,11,M,,M,,*6D
06/08/2014	22:10:38.775	$GPGGA,221038,2456.2065,N,08019.0715,W,1,10,1.4,11,M,,M,,*69
06/08/2014	22:10:39.804	$GPGGA,221039,2456.2061,N,08019.0699,W,1,10,1.4,11,M,,M,,*69
06/08/2014	22:10:39.606	$GPGGA,221040,2456.2061,N,08019.0699,W,1,10,1.4,11,M,,M,,*67
06/08/2014	22:10:40.595	$GPGGA,221041,2456.2054,N,08019.0668,W,1,10,1.4,11,M,,M,,*6E
06/08/2014	22:10:41.604	$GPGGA,221042,2456.2052,N,08019.0652,W,1,10,1.4,11,M,,M,,*62
06/08/2014	22:10:42.633	$GPGGA,221043,2456.2047,N,08019.0635,W,1,10,1.4,11,M,,M,,*66
06/08/2014	22:10:43.632	$GPGGA,221044,2456.2045,N,08019.0620,W,1,10,1.4,11,M,,M,,*67
06/08/2014	22:10:44.620	$GPGGA,221045,2456.2041,N,08019.0603,W,1,10,1.4,11,M,,M,,*63
06/08/2014	22:10:45.639	$GPGGA,221046,2456.2038,N,08019.0588,W,1,10,1.6,11,M,,M,,*6C
06/08/2014	22:10:46.658	$GPGGA,221047,2456.2034,N,08019.0574,W,1,10,1.4,11,M,,M,,*60
06/08/2014	22:10:47.657	$GPGGA,221048,2456.2029,N,08019.0559,W,1,10,1.4,11,M,,M,,*6C
06/08/2014	22:10:48.666	$GPGGA,221049,2456.2025,N,08019.0542,W,1,10,1.4,11,M,,M,,*6B
06/08/2014	22:10:49.665	$GPGGA,221050,2456.2023,N,08019.0525,W,1,10,1.6,11,M,,M,,*66
06/08/2014	22:10:50.674	$GPGGA,221051,2456.2018,N,08019.0509,W,1,10,1.4,11,M,,M,,*63
06/08/2014	22:10:51.683	$GPGGA,221052,2456.2014,N,08019.0493,W,1,10,1.4,11,M,,M,,*6E
06/08/2014	22:10:52.702	$GPGGA,221053,2456.2011,N,08019.0478,W,1,10,1.4,11,M,,M,,*6F
06/08/2014	22:10:53.691	$GPGGA,221054,2456.2007,N,08019.0463,W,1,10,1.4,11,M,,M,,*65
06/08/2014	22:10:54.690	$GPGGA,221055,2456.2003,N,08019.0448,W,1,10,1.4,11,M,,M,,*69
06/08/2014	22:10:55.719	$GPGGA,221056,2456.1999,N,08019.0432,W,1,10,1.4,11,M,,M,,*6E
06/08/2014	22:10:56.728	$GPGGA,221057,2456.1996,N,08019.0417,W,1,10,1.4,11,M,,M,,*67
06/08/2014	22:10:57.718	$GPGGA,221058,2456.1992,N,08019.0402,W,1,10,1.4,11,M,,M,,*68
06/08/2014	22:10:58.746	$GPGGA,221059,2456.1988,N,08019.0387,W,1,10,1.4,11,M,,M,,*68
06/08/2014	22:10:59.755	$GPGGA,221100,2456.1984,N,08019.0372,W,1,10,1.4,11,M,,M,,*63
06/08/2014	22:11:00.764	$GPGGA,221101,2456.1980,N,08019.0357,W,1,10,1.4,11,M,,M,,*61
06/08/2014	22:11:01.748	$GPGGA,221102,2456.1976,N,08019.0342,W,1,10,1.4,11,M,,M,,*6F
06/08/2014	22:11:02.781	$GPGGA,221103,2456.1973,N,08019.0327,W,1,10,1.4,11,M,,M,,*68
06/08/2014	22:11:03.774	$GPGGA,221104,2456.1969,N,08019.0312,W,1,10,1.4,11,M,,M,,*62
06/08/2014	22:11:04.758	$GPGGA,221105,2456.1964,N,08019.0296,W,1,10,1.4,11,M,,M,,*63
06/08/2014	22:11:05.784	$GPGGA,221106,2456.1960,N,08019.0282,W,1,10,1.4,11,M,,M,,*61
06/08/2014	22:11:06.788	$GPGGA,221107,2456.1956,N,08019.0267,W,1,10,1.4,11,M,,M,,*6E
06/08/2014	22:11:07.797	$GPGGA,221108,2456.1952,N,08019.0251,W,1,10,1.4,11,M,,M,,*60
06/08/2014	22:11:08.805	$GPGGA,221109,2456.1948,N,08019.0237,W,1,10,1.4,11,M,,M,,*6A
06/08/2014	22:11:09.803	$GPGGA,221110,2456.1944,N,08019.0222,W,1,10,1.4,11,M,,M,,*6A
06/08/2014	22:11:10.792	$GPGGA,221111,2456.1940,N,08019.0207,W,1,10,1.4,11,M,,M,,*68
06/08/2014	22:11:11.833	$GPGGA,221112,2456.1935,N,08019.0192,W,1,10,1.4,11,M,,M,,*66
06/08/2014	22:11:12.845	$GPGGA,221113,2456.1931,N,08019.0176,W,1,10,1.4,11,M,,M,,*69
06/08/2014	22:11:13.829	$GPGGA,221114,2456.1927,N,08019.0161,W,1,10,1.4,11,M,,M,,*6F
06/08/2014	22:11:14.848	$GPGGA,221115,2456.1922,N,08019.0146,W,1,10,1.4,11,M,,M,,*6E
06/08/2014	22:11:15.857	$GPGGA,221116,2456.1918,N,08019.0131,W,1,10,1.4,11,M,,M,,*64
06/08/2014	22:11:16.856	$GPGGA,221117,2456.1915,N,08019.0116,W,1,10,1.4,11,M,,M,,*6D
06/08/2014	22:11:17.855	$GPGGA,221118,2456.1911,N,08019.0101,W,1,10,1.4,11,M,,M,,*60
06/08/2014	22:11:18.864	$GPGGA,221119,2456.1906,N,08019.0086,W,1,10,1.4,11,M,,M,,*69
06/08/2014	22:11:19.974	$GPGGA,221120,2456.1902,N,08019.0071,W,1,10,1.4,11,M,,M,,*6F
06/08/2014	22:11:20.891	$GPGGA,221121,2456.1897,N,08019.0055,W,1,10,1.4,11,M,,M,,*65
06/08/2014	22:11:21.890	$GPGGA,221122,2456.1893,N,08019.0040,W,1,10,1.4,11,M,,M,,*66
06/08/2014	22:11:22.990	$GPGGA,221123,2456.1889,N,08019.0025,W,1,10,1.4,11,M,,M,,*6F
06/08/2014	22:11:23.918	$GPGGA,221124,2456.1886,N,08019.0009,W,1,10,1.4,11,M,,M,,*69
06/08/2014	22:11:24.897	$GPGGA,221125,2456.1881,N,08018.9994,W,1,10,1.4,12,M,,M,,*69
06/08/2014	22:11:26.007	$GPGGA,221126,2456.1877,N,08018.9979,W,1,10,1.4,12,M,,M,,*60
06/08/2014	22:11:26.915	$GPGGA,221127,2456.1873,N,08018.9963,W,1,10,1.4,12,M,,M,,*6E
06/08/2014	22:11:28.035	$GPGGA,221128,2456.1869,N,08018.9948,W,1,10,1.4,12,M,,M,,*63
06/08/2014	22:11:29.024	$GPGGA,221129,2456.1865,N,08018.9932,W,1,10,1.4,12,M,,M,,*63
06/08/2014	22:11:29.942	$GPGGA,221130,2456.1861,N,08018.9917,W,1,10,1.4,12,M,,M,,*68
06/08/2014	22:11:31.072	$GPGGA,221131,2456.1857,N,08018.9901,W,1,10,1.4,12,M,,M,,*6B
06/08/2014	22:11:32.061	$GPGGA,221132,2456.1854,N,08018.9886,W,1,10,1.4,12,M,,M,,*65
06/08/2014	22:11:33.070	$GPGGA,221133,2456.1850,N,08018.9871,W,1,10,1.4,12,M,,M,,*68
06/08/2014	22:11:34.065	$GPGGA,221134,2456.1846,N,08018.9855,W,1,10,1.4,12,M,,M,,*6E
06/08/2014	22:11:35.088	$GPGGA,221135,2456.1842,N,08018.9840,W,1,10,1.4,12,M,,M,,*6F
06/08/2014	22:11:36.080	$GPGGA,221136,2456.1839,N,08018.9824,W,1,10,1.4,12,M,,M,,*62
06/08/2014	22:11:37.094	$GPGGA,221137,2456.1835,N,08018.9808,W,1,10,1.4,12,M,,M,,*61
06/08/2014	22:11:38.098	$GPGGA,221138,2456.1832,N,08018.9793,W,1,10,1.4,12,M,,M,,*64
06/08/2014	22:11:39.101	$GPGGA,221139,2456.1828,N,08018.9777,W,1,10,1.4,12,M,,M,,*64
06/08/2014	22:11:39.584	$GPGGA,221140,2456.1825,N,08018.9761,W,1,10,1.4,12,M,,M,,*60
06/08/2014	22:11:40.563	$GPGGA,221141,2456.1822,N,08018.9746,W,1,10,1.4,12,M,,M,,*63
06/08/2014	22:11:41.576	$GPGGA,221142,2456.1818,N,08018.9731,W,1,10,1.4,12,M,,M,,*69
06/08/2014	22:11:42.601	$GPGGA,221143,2456.1814,N,08018.9715,W,1,10,1.4,12,M,,M,,*62
