Software Version Number: 1	Data File Format Number: 1	Build Version Number: 1	Error Count Since VI Started: 0	Manufacturer: Raytheon	 Model Number: RayMarine 120	 S/N: 	 Cal Date: 	 Wind Direction Offset: 0.00	 Slope (M)1: 0.00	 Offset (B)1: 0.00	 Slope (M)2: 0.00	 Offset (B)2: 0.00	 Slope (M)3: 0.00	 Offset (B)3: 0.00	 Slope (M)4: 0.00	 Offset (B)4: 0.00	 Slope (M)5: 0.00	 Offset (B)5: 0.00	 Slope (M)6: 0.00	 Offset (B)6: 0.00
Computer Date	Computer Time	GGA String
06/05/2014	06:00:00.663	$GPGGA,060001,2449.5802,N,08033.1750,W,1,9,1.9,21,M,,M,,*5A
06/05/2014	06:00:01.668	$GPGGA,060002,2449.5788,N,08033.1771,W,1,9,1.9,21,M,,M,,*57
06/05/2014	06:00:02.713	$GPGGA,060003,2449.5773,N,08033.1792,W,1,8,1.9,21,M,,M,,*5E
06/05/2014	06:00:03.678	$GPGGA,060004,2449.5759,N,08033.1813,W,1,8,1.9,21,M,,M,,*57
06/05/2014	06:00:04.693	$GPGGA,060005,2449.5745,N,08033.1835,W,1,9,1.9,21,M,,M,,*5E
06/05/2014	06:00:05.680	$GPGGA,060006,2449.5730,N,08033.1855,W,1,9,1.9,21,M,,M,,*59
06/05/2014	06:00:06.673	$GPGGA,060007,2449.5715,N,08033.1875,W,1,9,1.9,21,M,,M,,*5D
06/05/2014	06:00:07.708	$GPGGA,060008,2449.5701,N,08033.1897,W,1,9,1.9,21,M,,M,,*5B
06/05/2014	06:00:08.703	$GPGGA,060009,2449.5687,N,08033.1916,W,1,9,1.9,21,M,,M,,*5D
06/05/2014	06:00:09.678	$GPGGA,060010,2449.5672,N,08033.1936,W,1,9,1.9,21,M,,M,,*5D
06/05/2014	06:00:10.683	$GPGGA,060011,2449.5656,N,08033.1956,W,1,9,1.9,21,M,,M,,*5C
06/05/2014	06:00:11.719	$GPGGA,060012,2449.5643,N,08033.1976,W,1,9,1.9,21,M,,M,,*59
06/05/2014	06:00:12.734	$GPGGA,060013,2449.5626,N,08033.1996,W,1,9,1.9,21,M,,M,,*55
06/05/2014	06:00:13.699	$GPGGA,060014,2449.5611,N,08033.2016,W,1,9,1.9,21,M,,M,,*54
06/05/2014	06:00:14.704	$GPGGA,060015,2449.5596,N,08033.2038,W,1,9,1.9,21,M,,M,,*55
06/05/2014	06:00:15.720	$GPGGA,060016,2449.5582,N,08033.2059,W,1,9,1.9,21,M,,M,,*54
06/05/2014	06:00:16.736	$GPGGA,060017,2449.5566,N,08033.2077,W,1,9,1.9,21,M,,M,,*53
06/05/2014	06:00:17.720	$GPGGA,060018,2449.5553,N,08033.2099,W,1,9,1.9,20,M,,M,,*5B
06/05/2014	06:00:18.715	$GPGGA,060019,2449.5539,N,08033.2120,W,1,9,1.9,20,M,,M,,*55
06/05/2014	06:00:19.740	$GPGGA,060020,2449.5524,N,08033.2139,W,1,9,1.9,20,M,,M,,*5B
06/05/2014	06:00:20.756	$GPGGA,060021,2449.5508,N,08033.2160,W,1,9,1.9,20,M,,M,,*58
06/05/2014	06:00:21.721	$GPGGA,060022,2449.5495,N,08033.2182,W,1,9,1.9,20,M,,M,,*52
06/05/2014	06:00:22.746	$GPGGA,060023,2449.5481,N,08033.2202,W,1,9,1.9,20,M,,M,,*5D
06/05/2014	06:00:23.750	$GPGGA,060024,2449.5466,N,08033.2222,W,1,9,1.9,20,M,,M,,*51
06/05/2014	06:00:24.765	$GPGGA,060025,2449.5452,N,08033.2241,W,1,9,1.9,20,M,,M,,*52
06/05/2014	06:00:25.750	$GPGGA,060026,2449.5439,N,08033.2263,W,1,9,1.9,20,M,,M,,*5C
06/05/2014	06:00:26.776	$GPGGA,060027,2449.5426,N,08033.2284,W,1,9,1.9,20,M,,M,,*5A
06/05/2014	06:00:27.761	$GPGGA,060028,2449.5412,N,08033.2305,W,1,9,1.9,20,M,,M,,*5A
06/05/2014	06:00:28.766	$GPGGA,060029,2449.5397,N,08033.2323,W,1,8,1.9,20,M,,M,,*54
06/05/2014	06:00:29.761	$GPGGA,060030,2449.5383,N,08033.2345,W,1,8,1.9,20,M,,M,,*59
06/05/2014	06:00:30.766	$GPGGA,060031,2449.5367,N,08033.2366,W,1,9,1.9,20,M,,M,,*52
06/05/2014	06:00:31.772	$GPGGA,060032,2449.5354,N,08033.2388,W,1,9,1.9,20,M,,M,,*51
06/05/2014	06:00:32.476	$GPGGA,060033,2449.5340,N,08033.2408,W,1,9,1.9,20,M,,M,,*5A
06/05/2014	06:00:33.461	$GPGGA,060034,2449.5324,N,08033.2426,W,1,9,1.9,20,M,,M,,*53
06/05/2014	06:00:34.567	$GPGGA,060035,2449.5311,N,08033.2447,W,1,9,1.9,20,M,,M,,*53
06/05/2014	06:00:35.481	$GPGGA,060036,2449.5297,N,08033.2468,W,1,9,1.9,20,M,,M,,*52
06/05/2014	06:00:36.467	$GPGGA,060037,2449.5283,N,08033.2489,W,1,9,1.9,20,M,,M,,*59
06/05/2014	06:00:37.572	$GPGGA,060038,2449.5268,N,08033.2508,W,1,9,1.9,20,M,,M,,*5B
06/05/2014	06:00:38.467	$GPGGA,060039,2449.5254,N,08033.2529,W,1,9,1.9,20,M,,M,,*56
06/05/2014	06:00:39.482	$GPGGA,060040,2449.5240,N,08033.2551,W,1,9,1.9,20,M,,M,,*52
06/05/2014	06:00:40.487	$GPGGA,060041,2449.5226,N,08033.2572,W,1,9,1.9,20,M,,M,,*52
06/05/2014	06:00:41.491	$GPGGA,060042,2449.5211,N,08033.2592,W,1,9,1.9,20,M,,M,,*5B
06/05/2014	06:00:42.587	$GPGGA,060043,2449.5197,N,08033.2612,W,1,8,1.9,20,M,,M,,*5D
06/05/2014	06:00:43.502	$GPGGA,060044,2449.5184,N,08033.2633,W,1,8,1.9,20,M,,M,,*5B
06/05/2014	06:00:44.598	$GPGGA,060045,2449.5170,N,08033.2655,W,1,9,1.9,20,M,,M,,*50
06/05/2014	06:00:45.583	$GPGGA,060046,2449.5156,N,08033.2675,W,1,9,1.9,19,M,,M,,*5F
06/05/2014	06:00:47.653	$GPGGA,060048,2449.5130,N,08033.2717,W,1,8,1.9,19,M,,M,,*55
06/05/2014	06:00:48.630	$GPGGA,060049,2449.5116,N,08033.2738,W,1,9,1.9,19,M,,M,,*5C
06/05/2014	06:00:49.603	$GPGGA,060050,2449.5102,N,08033.2760,W,1,9,1.9,19,M,,M,,*5C
06/05/2014	06:00:50.619	$GPGGA,060051,2449.5090,N,08033.2783,W,1,9,1.9,19,M,,M,,*5A
06/05/2014	06:00:51.624	$GPGGA,060052,2449.5076,N,08033.2805,W,1,9,1.9,19,M,,M,,*50
06/05/2014	06:00:52.619	$GPGGA,060053,2449.5060,N,08033.2827,W,1,9,1.9,19,M,,M,,*56
06/05/2014	06:00:53.614	$GPGGA,060054,2449.5047,N,08033.2850,W,1,9,1.9,19,M,,M,,*54
06/05/2014	06:00:54.629	$GPGGA,060055,2449.5033,N,08033.2872,W,1,9,1.9,19,M,,M,,*56
06/05/2014	06:00:55.635	$GPGGA,060056,2449.5022,N,08033.2891,W,1,9,2.1,19,M,,M,,*53
06/05/2014	06:00:56.640	$GPGGA,060057,2449.5007,N,08033.2910,W,1,8,2.1,19,M,,M,,*5C
06/05/2014	06:00:57.645	$GPGGA,060058,2449.4994,N,08033.2931,W,1,8,1.9,19,M,,M,,*59
06/05/2014	06:00:58.619	$GPGGA,060059,2449.4982,N,08033.2952,W,1,8,1.9,19,M,,M,,*5A
06/05/2014	06:00:59.654	$GPGGA,060100,2449.4965,N,08033.2973,W,1,8,1.9,19,M,,M,,*5D
06/05/2014	06:01:00.660	$GPGGA,060101,2449.4949,N,08033.2995,W,1,9,1.9,19,M,,M,,*5B
06/05/2014	06:01:01.635	$GPGGA,060102,2449.4935,N,08033.3017,W,1,9,1.9,19,M,,M,,*51
06/05/2014	06:01:02.678	$GPGGA,060103,2449.4915,N,08033.3038,W,1,8,2.1,19,M,,M,,*55
06/05/2014	06:01:03.662	$GPGGA,060104,2449.4900,N,08033.3058,W,1,8,1.9,19,M,,M,,*5B
06/05/2014	06:01:04.635	$GPGGA,060105,2449.4888,N,08033.3079,W,1,9,1.9,20,M,,M,,*53
06/05/2014	06:01:05.649	$GPGGA,060106,2449.4874,N,08033.3098,W,1,9,1.9,20,M,,M,,*5C
06/05/2014	06:01:06.672	$GPGGA,060107,2449.4860,N,08033.3116,W,1,9,1.9,20,M,,M,,*5F
06/05/2014	06:01:07.666	$GPGGA,060108,2449.4846,N,08033.3136,W,1,9,1.9,20,M,,M,,*56
06/05/2014	06:01:08.679	$GPGGA,060109,2449.4832,N,08033.3157,W,1,9,1.9,20,M,,M,,*53
06/05/2014	06:01:09.643	$GPGGA,060110,2449.4818,N,08033.3176,W,1,9,1.9,20,M,,M,,*50
06/05/2014	06:01:10.686	$GPGGA,060111,2449.4803,N,08033.3197,W,1,9,1.9,20,M,,M,,*54
06/05/2014	06:01:11.660	$GPGGA,060112,2449.4787,N,08033.3219,W,1,9,1.9,20,M,,M,,*51
06/05/2014	06:01:12.683	$GPGGA,060113,2449.4770,N,08033.3241,W,1,9,1.9,20,M,,M,,*55
06/05/2014	06:01:13.647	$GPGGA,060114,2449.4755,N,08033.3262,W,1,9,1.9,20,M,,M,,*54
06/05/2014	06:01:14.670	$GPGGA,060115,2449.4740,N,08033.3284,W,1,9,1.9,21,M,,M,,*58
06/05/2014	06:01:15.674	$GPGGA,060116,2449.4726,N,08033.3302,W,1,9,1.9,21,M,,M,,*54
06/05/2014	06:01:16.676	$GPGGA,060117,2449.4713,N,08033.3321,W,1,9,1.9,21,M,,M,,*52
06/05/2014	06:01:17.680	$GPGGA,060118,2449.4700,N,08033.3340,W,1,9,1.9,21,M,,M,,*58
06/05/2014	06:01:18.773	$GPGGA,060119,2449.4686,N,08033.3358,W,1,9,1.9,21,M,,M,,*5F
06/05/2014	06:01:19.667	$GPGGA,060120,2449.4672,N,08033.3378,W,1,9,1.9,21,M,,M,,*5C
06/05/2014	06:01:20.690	$GPGGA,060121,2449.4658,N,08033.3401,W,1,8,1.9,21,M,,M,,*5D
06/05/2014	06:01:21.765	$GPGGA,060122,2449.4643,N,08033.3423,W,1,8,1.9,21,M,,M,,*54
06/05/2014	06:01:22.697	$GPGGA,060123,2449.4628,N,08033.3443,W,1,7,2.0,21,M,,M,,*5B
06/05/2014	06:01:23.681	$GPGGA,060124,2449.4614,N,08033.3465,W,1,7,1.9,21,M,,M,,*5D
06/05/2014	06:01:24.694	$GPGGA,060125,2449.4601,N,08033.3486,W,1,9,1.9,21,M,,M,,*5B
06/05/2014	06:01:25.667	$GPGGA,060126,2449.4588,N,08033.3506,W,1,9,2.1,21,M,,M,,*58
06/05/2014	06:01:26.801	$GPGGA,060127,2449.4575,N,08033.3526,W,1,8,2.1,22,M,,M,,*5B
06/05/2014	06:01:27.805	$GPGGA,060128,2449.4563,N,08033.3544,W,1,8,1.9,22,M,,M,,*5C
06/05/2014	06:01:28.808	$GPGGA,060129,2449.4552,N,08033.3563,W,1,9,1.9,22,M,,M,,*5B
06/05/2014	06:01:29.782	$GPGGA,060130,2449.4538,N,08033.3584,W,1,9,1.9,22,M,,M,,*56
06/05/2014	06:01:30.775	$GPGGA,060131,2449.4524,N,08033.3605,W,1,9,1.9,22,M,,M,,*50
06/05/2014	06:01:31.709	$GPGGA,060132,2449.4509,N,08033.3625,W,1,9,1.9,22,M,,M,,*5E
06/05/2014	06:01:32.434	$GPGGA,060133,2449.4494,N,08033.3649,W,1,9,1.9,22,M,,M,,*50
06/05/2014	06:01:33.436	$GPGGA,060134,2449.4480,N,08033.3674,W,1,9,1.9,22,M,,M,,*5C
06/05/2014	06:01:34.560	$GPGGA,060135,2449.4463,N,08033.3696,W,1,8,1.9,22,M,,M,,*5D
06/05/2014	06:01:35.544	$GPGGA,060136,2449.4449,N,08033.3717,W,1,8,1.9,22,M,,M,,*5E
06/05/2014	06:01:36.449	$GPGGA,060137,2449.4435,N,08033.3739,W,1,9,1.9,22,M,,M,,*59
06/05/2014	06:01:37.531	$GPGGA,060138,2449.4423,N,08033.3758,W,1,9,1.9,22,M,,M,,*56
06/05/2014	06:01:38.564	$GPGGA,060139,2449.4409,N,08033.3777,W,1,9,1.9,22,M,,M,,*52
06/05/2014	06:01:39.548	$GPGGA,060140,2449.4394,N,08033.3797,W,1,9,2.2,22,M,,M,,*59
06/05/2014	06:01:40.575	$GPGGA,060141,2449.4382,N,08033.3818,W,1,8,1.9,22,M,,M,,*5E
06/05/2014	06:01:41.535	$GPGGA,060142,2449.4368,N,08033.3840,W,1,8,1.9,22,M,,M,,*54
06/05/2014	06:01:42.558	$GPGGA,060143,2449.4351,N,08033.3860,W,1,9,1.9,22,M,,M,,*5C
06/05/2014	06:01:43.562	$GPGGA,060144,2449.4337,N,08033.3884,W,1,9,1.9,22,M,,M,,*51
06/05/2014	06:01:44.545	$GPGGA,060145,2449.4322,N,08033.3906,W,1,8,1.9,22,M,,M,,*5E
06/05/2014	06:01:45.549	$GPGGA,060146,2449.4307,N,08033.3927,W,1,8,1.9,22,M,,M,,*59
06/05/2014	06:01:46.562	$GPGGA,060147,2449.4293,N,08033.3949,W,1,9,1.9,22,M,,M,,*5D
06/05/2014	06:01:47.576	$GPGGA,060148,2449.4281,N,08033.3968,W,1,9,1.9,22,M,,M,,*52
06/05/2014	06:01:48.579	$GPGGA,060149,2449.4268,N,08033.3988,W,1,8,1.9,22,M,,M,,*5B
06/05/2014	06:01:49.543	$GPGGA,060150,2449.4256,N,08033.4008,W,1,8,1.9,22,M,,M,,*58
06/05/2014	06:01:50.546	$GPGGA,060151,2449.4243,N,08033.4028,W,1,8,1.9,22,M,,M,,*5F
06/05/2014	06:01:51.570	$GPGGA,060152,2449.4228,N,08033.4050,W,1,8,1.9,22,M,,M,,*5E
06/05/2014	06:01:52.592	$GPGGA,060153,2449.4213,N,08033.4071,W,1,8,1.9,22,M,,M,,*54
06/05/2014	06:01:53.546	$GPGGA,060154,2449.4200,N,08033.4093,W,1,8,1.9,22,M,,M,,*5D
06/05/2014	06:01:54.579	$GPGGA,060155,2449.4186,N,08033.4115,W,1,9,1.9,22,M,,M,,*5F
06/05/2014	06:01:55.563	$GPGGA,060156,2449.4173,N,08033.4137,W,1,9,1.9,22,M,,M,,*56
06/05/2014	06:01:56.556	$GPGGA,060157,2449.4156,N,08033.4159,W,1,9,1.9,22,M,,M,,*58
06/05/2014	06:01:57.560	$GPGGA,060158,2449.4142,N,08033.4181,W,1,9,1.9,22,M,,M,,*57
06/05/2014	06:01:58.593	$GPGGA,060159,2449.4129,N,08033.4203,W,1,9,1.9,22,M,,M,,*52
06/05/2014	06:01:59.587	$GPGGA,060200,2449.4115,N,08033.4224,W,1,9,1.9,22,M,,M,,*57
06/05/2014	06:02:00.570	$GPGGA,060201,2449.4102,N,08033.4243,W,1,9,1.9,22,M,,M,,*51
06/05/2014	06:02:01.574	$GPGGA,060202,2449.4090,N,08033.4263,W,1,9,1.9,22,M,,M,,*5A
06/05/2014	06:02:02.607	$GPGGA,060203,2449.4076,N,08033.4283,W,1,9,1.9,22,M,,M,,*5D
06/05/2014	06:02:03.581	$GPGGA,060204,2449.4062,N,08033.4303,W,1,9,1.9,22,M,,M,,*56
06/05/2014	06:02:04.584	$GPGGA,060205,2449.4050,N,08033.4325,W,1,9,1.9,22,M,,M,,*52
06/05/2014	06:02:05.577	$GPGGA,060206,2449.4034,N,08033.4346,W,1,9,1.9,22,M,,M,,*56
06/05/2014	06:02:06.591	$GPGGA,060207,2449.4021,N,08033.4368,W,1,8,1.9,22,M,,M,,*5E
06/05/2014	06:02:07.584	$GPGGA,060208,2449.4005,N,08033.4390,W,1,8,1.9,22,M,,M,,*50
06/05/2014	06:02:08.570	$GPGGA,060209,2449.3992,N,08033.4412,W,1,8,1.9,22,M,,M,,*5C
06/05/2014	06:02:09.580	$GPGGA,060210,2449.3976,N,08033.4433,W,1,8,1.9,22,M,,M,,*5D
06/05/2014	06:02:10.575	$GPGGA,060211,2449.3962,N,08033.4454,W,1,9,1.9,22,M,,M,,*59
06/05/2014	06:02:11.728	$GPGGA,060212,2449.3949,N,08033.4474,W,1,9,1.9,22,M,,M,,*51
06/05/2014	06:02:12.611	$GPGGA,060213,2449.3934,N,08033.4494,W,1,9,1.9,22,M,,M,,*54
06/05/2014	06:02:13.615	$GPGGA,060214,2449.3920,N,08033.4514,W,1,9,2.1,22,M,,M,,*54
06/05/2014	06:02:14.779	$GPGGA,060215,2449.3903,N,08033.4534,W,1,9,1.9,21,M,,M,,*5E
06/05/2014	06:02:15.596	$GPGGA,060216,2449.3887,N,08033.4556,W,1,9,1.9,21,M,,M,,*54
06/05/2014	06:02:16.596	$GPGGA,060217,2449.3873,N,08033.4577,W,1,9,1.9,21,M,,M,,*5D
06/05/2014	06:02:17.709	$GPGGA,060218,2449.3856,N,08033.4597,W,1,9,1.9,21,M,,M,,*5B
06/05/2014	06:02:18.632	$GPGGA,060219,2449.3841,N,08033.4620,W,1,9,1.9,21,M,,M,,*53
06/05/2014	06:02:19.746	$GPGGA,060220,2449.3826,N,08033.4640,W,1,9,2.1,21,M,,M,,*55
06/05/2014	06:02:20.780	$GPGGA,060221,2449.3811,N,08033.4660,W,1,8,2.1,21,M,,M,,*53
06/05/2014	06:02:21.723	$GPGGA,060222,2449.3798,N,08033.4680,W,1,8,1.9,21,M,,M,,*5B
06/05/2014	06:02:22.797	$GPGGA,060223,2449.3786,N,08033.4701,W,1,9,1.9,21,M,,M,,*5C
06/05/2014	06:02:23.720	$GPGGA,060224,2449.3770,N,08033.4719,W,1,9,1.9,21,M,,M,,*5B
06/05/2014	06:02:24.804	$GPGGA,060225,2449.3754,N,08033.4740,W,1,9,1.9,21,M,,M,,*50
06/05/2014	06:02:25.736	$GPGGA,060226,2449.3740,N,08033.4762,W,1,9,1.9,21,M,,M,,*56
06/05/2014	06:02:26.800	$GPGGA,060227,2449.3725,N,08033.4783,W,1,9,1.9,21,M,,M,,*5B
06/05/2014	06:02:27.753	$GPGGA,060228,2449.3708,N,08033.4803,W,1,9,1.9,21,M,,M,,*5C
06/05/2014	06:02:28.706	$GPGGA,060229,2449.3693,N,08033.4826,W,1,9,1.9,21,M,,M,,*59
06/05/2014	06:02:29.730	$GPGGA,060230,2449.3678,N,08033.4848,W,1,9,1.9,21,M,,M,,*5C
06/05/2014	06:02:30.783	$GPGGA,060231,2449.3664,N,08033.4867,W,1,9,1.9,21,M,,M,,*5D
06/05/2014	06:02:31.747	$GPGGA,060232,2449.3649,N,08033.4888,W,1,9,1.9,21,M,,M,,*50
06/05/2014	06:02:32.623	$GPGGA,060233,2449.3635,N,08033.4907,W,1,9,1.9,21,M,,M,,*5C
06/05/2014	06:02:33.505	$GPGGA,060234,2449.3621,N,08033.4928,W,1,9,1.9,21,M,,M,,*53
06/05/2014	06:02:34.588	$GPGGA,060235,2449.3606,N,08033.4949,W,1,9,1.9,21,M,,M,,*50
06/05/2014	06:02:35.562	$GPGGA,060236,2449.3593,N,08033.4969,W,1,9,1.9,21,M,,M,,*5E
06/05/2014	06:02:36.565	$GPGGA,060237,2449.3578,N,08033.4991,W,1,9,1.9,21,M,,M,,*5D
06/05/2014	06:02:37.549	$GPGGA,060238,2449.3564,N,08033.5012,W,1,9,1.9,21,M,,M,,*5C
06/05/2014	06:02:38.512	$GPGGA,060239,2449.3550,N,08033.5034,W,1,8,1.9,21,M,,M,,*5F
06/05/2014	06:02:39.546	$GPGGA,060240,2449.3537,N,08033.5056,W,1,8,1.9,21,M,,M,,*54
06/05/2014	06:02:40.569	$GPGGA,060241,2449.3521,N,08033.5079,W,1,9,1.9,21,M,,M,,*5E
06/05/2014	06:02:41.533	$GPGGA,060242,2449.3508,N,08033.5099,W,1,9,1.9,21,M,,M,,*58
06/05/2014	06:02:42.636	$GPGGA,060243,2449.3492,N,08033.5121,W,1,9,1.9,21,M,,M,,*59
06/05/2014	06:02:43.519	$GPGGA,060244,2449.3480,N,08033.5142,W,1,9,1.9,21,M,,M,,*58
06/05/2014	06:02:44.592	$GPGGA,060245,2449.3466,N,08033.5163,W,1,9,1.9,21,M,,M,,*52
06/05/2014	06:02:45.546	$GPGGA,060246,2449.3452,N,08033.5184,W,1,9,1.9,21,M,,M,,*5F
06/05/2014	06:02:46.519	$GPGGA,060247,2449.3439,N,08033.5204,W,1,7,1.9,21,M,,M,,*56
06/05/2014	06:02:47.583	$GPGGA,060248,2449.3425,N,08033.5227,W,1,7,1.9,21,M,,M,,*55
06/05/2014	06:02:48.626	$GPGGA,060249,2449.3410,N,08033.5247,W,1,8,1.9,21,M,,M,,*5B
06/05/2014	06:02:49.519	$GPGGA,060250,2449.3396,N,08033.5267,W,1,8,1.9,21,M,,M,,*58
06/05/2014	06:02:50.523	$GPGGA,060251,2449.3383,N,08033.5289,W,1,9,1.9,21,M,,M,,*5C
06/05/2014	06:02:51.577	$GPGGA,060252,2449.3369,N,08033.5311,W,1,9,2.1,21,M,,M,,*50
06/05/2014	06:02:52.640	$GPGGA,060253,2449.3354,N,08033.5332,W,1,8,1.9,21,M,,M,,*54
06/05/2014	06:02:53.564	$GPGGA,060254,2449.3340,N,08033.5354,W,1,8,1.9,21,M,,M,,*56
06/05/2014	06:02:54.627	$GPGGA,060255,2449.3328,N,08033.5376,W,1,9,1.9,21,M,,M,,*58
06/05/2014	06:02:55.661	$GPGGA,060256,2449.3316,N,08033.5397,W,1,9,2.1,21,M,,M,,*52
06/05/2014	06:02:56.634	$GPGGA,060257,2449.3302,N,08033.5416,W,1,8,1.9,21,M,,M,,*52
06/05/2014	06:02:57.648	$GPGGA,060258,2449.3288,N,08033.5437,W,1,8,1.9,21,M,,M,,*5D
06/05/2014	06:02:58.611	$GPGGA,060259,2449.3274,N,08033.5459,W,1,8,1.9,21,M,,M,,*57
06/05/2014	06:02:59.585	$GPGGA,060300,2449.3260,N,08033.5481,W,1,8,1.9,21,M,,M,,*5A
06/05/2014	06:03:00.617	$GPGGA,060301,2449.3246,N,08033.5503,W,1,9,2.1,22,M,,M,,*5D
06/05/2014	06:03:01.571	$GPGGA,060302,2449.3232,N,08033.5524,W,1,9,1.9,22,M,,M,,*53
06/05/2014	06:03:02.674	$GPGGA,060303,2449.3219,N,08033.5546,W,1,9,1.9,22,M,,M,,*5F
06/05/2014	06:03:03.598	$GPGGA,060304,2449.3208,N,08033.5567,W,1,9,1.9,22,M,,M,,*5B
06/05/2014	06:03:04.541	$GPGGA,060305,2449.3194,N,08033.5587,W,1,9,1.9,22,M,,M,,*52
06/05/2014	06:03:05.645	$GPGGA,060306,2449.3180,N,08033.5607,W,1,9,1.9,22,M,,M,,*5F
06/05/2014	06:03:06.688	$GPGGA,060307,2449.3165,N,08033.5626,W,1,9,1.9,22,M,,M,,*56
06/05/2014	06:03:07.681	$GPGGA,060308,2449.3152,N,08033.5647,W,1,9,1.9,22,M,,M,,*5A
06/05/2014	06:03:08.644	$GPGGA,060309,2449.3138,N,08033.5668,W,1,9,2.1,22,M,,M,,*51
06/05/2014	06:03:09.587	$GPGGA,060310,2449.3123,N,08033.5687,W,1,9,1.9,22,M,,M,,*59
06/05/2014	06:03:10.661	$GPGGA,060311,2449.3109,N,08033.5709,W,1,9,1.9,22,M,,M,,*57
06/05/2014	06:03:11.674	$GPGGA,060312,2449.3096,N,08033.5731,W,1,9,1.9,22,M,,M,,*58
06/05/2014	06:03:12.727	$GPGGA,060313,2449.3082,N,08033.5752,W,1,9,1.9,22,M,,M,,*59
06/05/2014	06:03:13.650	$GPGGA,060314,2449.3067,N,08033.5773,W,1,9,1.9,23,M,,M,,*57
06/05/2014	06:03:14.663	$GPGGA,060315,2449.3054,N,08033.5792,W,1,9,1.9,23,M,,M,,*59
06/05/2014	06:03:15.678	$GPGGA,060316,2449.3039,N,08033.5811,W,1,9,1.9,23,M,,M,,*55
06/05/2014	06:03:16.670	$GPGGA,060317,2449.3025,N,08033.5831,W,1,9,1.9,23,M,,M,,*5B
06/05/2014	06:03:17.674	$GPGGA,060318,2449.3010,N,08033.5853,W,1,9,2.1,23,M,,M,,*5D
06/05/2014	06:03:18.705	$GPGGA,060319,2449.2996,N,08033.5874,W,1,8,1.9,23,M,,M,,*55
06/05/2014	06:03:19.668	$GPGGA,060320,2449.2980,N,08033.5896,W,1,8,1.9,23,M,,M,,*54
06/05/2014	06:03:20.722	$GPGGA,060321,2449.2966,N,08033.5918,W,1,9,2.1,23,M,,M,,*50
06/05/2014	06:03:21.665	$GPGGA,060322,2449.2952,N,08033.5937,W,1,9,2.1,23,M,,M,,*59
06/05/2014	06:03:22.729	$GPGGA,060323,2449.2952,N,08033.5937,W,1,8,2.1,23,M,,M,,*59
06/05/2014	06:03:23.721	$GPGGA,060324,2449.2923,N,08033.5976,W,1,8,1.9,23,M,,M,,*56
06/05/2014	06:03:24.765	$GPGGA,060325,2449.2912,N,08033.5997,W,1,9,1.9,23,M,,M,,*5B
06/05/2014	06:03:25.748	$GPGGA,060326,2449.2897,N,08033.6017,W,1,9,1.9,23,M,,M,,*56
06/05/2014	06:03:26.841	$GPGGA,060327,2449.2883,N,08033.6037,W,1,9,2.1,23,M,,M,,*5B
06/05/2014	06:03:27.814	$GPGGA,060328,2449.2866,N,08033.6059,W,1,9,1.9,23,M,,M,,*5C
06/05/2014	06:03:28.846	$GPGGA,060329,2449.2850,N,08033.6080,W,1,9,1.9,23,M,,M,,*5C
06/05/2014	06:03:29.828	$GPGGA,060330,2449.2836,N,08033.6102,W,1,9,1.9,23,M,,M,,*5F
06/05/2014	06:03:30.882	$GPGGA,060331,2449.2822,N,08033.6123,W,1,9,2.1,23,M,,M,,*53
06/05/2014	06:03:31.884	$GPGGA,060332,2449.2807,N,08033.6143,W,1,9,1.9,23,M,,M,,*5A
06/05/2014	06:03:32.559	$GPGGA,060333,2449.2795,N,08033.6164,W,1,9,2.1,23,M,,M,,*51
06/05/2014	06:03:33.511	$GPGGA,060334,2449.2782,N,08033.6183,W,1,9,1.9,23,M,,M,,*52
06/05/2014	06:03:34.565	$GPGGA,060335,2449.2767,N,08033.6203,W,1,9,1.9,23,M,,M,,*53
06/05/2014	06:03:35.555	$GPGGA,060336,2449.2753,N,08033.6222,W,1,9,1.9,23,M,,M,,*54
06/05/2014	06:03:36.588	$GPGGA,060337,2449.2753,N,08033.6222,W,1,9,1.9,23,M,,M,,*55
06/05/2014	06:03:37.611	$GPGGA,060338,2449.2724,N,08033.6265,W,1,9,1.9,23,M,,M,,*59
06/05/2014	06:03:38.655	$GPGGA,060339,2449.2724,N,08033.6265,W,1,9,1.9,23,M,,M,,*58
06/05/2014	06:03:39.667	$GPGGA,060340,2449.2695,N,08033.6309,W,1,9,2.1,22,M,,M,,*5C
06/05/2014	06:03:40.680	$GPGGA,060341,2449.2695,N,08033.6309,W,1,8,2.1,22,M,,M,,*5C
06/05/2014	06:03:41.682	$GPGGA,060342,2449.2665,N,08033.6351,W,1,8,2.1,22,M,,M,,*5D
06/05/2014	06:03:42.757	$GPGGA,060343,2449.2665,N,08033.6351,W,1,8,2.1,22,M,,M,,*5C
06/05/2014	06:03:43.749	$GPGGA,060344,2449.2638,N,08033.6392,W,1,8,1.9,22,M,,M,,*57
06/05/2014	06:03:44.761	$GPGGA,060345,2449.2638,N,08033.6392,W,1,8,1.9,22,M,,M,,*56
06/05/2014	06:03:45.856	$GPGGA,060346,2449.2609,N,08033.6431,W,1,8,1.9,22,M,,M,,*59
06/05/2014	06:03:46.848	$GPGGA,060347,2449.2595,N,08033.6453,W,1,9,2.1,22,M,,M,,*50
06/05/2014	06:03:47.820	$GPGGA,060348,2449.2595,N,08033.6453,W,1,9,2.1,22,M,,M,,*5F
06/05/2014	06:03:48.945	$GPGGA,060349,2449.2561,N,08033.6496,W,1,9,1.9,22,M,,M,,*57
06/05/2014	06:03:49.835	$GPGGA,060350,2449.2547,N,08033.6517,W,1,9,1.9,22,M,,M,,*53
06/05/2014	06:03:50.929	$GPGGA,060351,2449.2531,N,08033.6539,W,1,8,1.9,22,M,,M,,*5E
06/05/2014	06:03:52.014	$GPGGA,060352,2449.2516,N,08033.6558,W,1,8,1.9,22,M,,M,,*5F
06/05/2014	06:03:53.047	$GPGGA,060353,2449.2501,N,08033.6579,W,1,9,1.9,22,M,,M,,*5A
06/05/2014	06:03:53.926	$GPGGA,060354,2449.2489,N,08033.6600,W,1,9,1.9,22,M,,M,,*51
06/05/2014	06:03:54.938	$GPGGA,060355,2449.2489,N,08033.6600,W,1,9,1.9,22,M,,M,,*50
06/05/2014	06:03:55.982	$GPGGA,060356,2449.2464,N,08033.6642,W,1,9,1.9,22,M,,M,,*56
06/05/2014	06:03:57.100	$GPGGA,060357,2449.2450,N,08033.6665,W,1,9,1.9,22,M,,M,,*55
06/05/2014	06:03:58.018	$GPGGA,060358,2449.2437,N,08033.6688,W,1,9,1.9,22,M,,M,,*58
06/05/2014	06:03:59.041	$GPGGA,060359,2449.2437,N,08033.6688,W,1,9,1.9,22,M,,M,,*59
06/05/2014	06:04:00.165	$GPGGA,060400,2449.2410,N,08033.6730,W,1,9,1.9,22,M,,M,,*55
06/05/2014	06:04:01.168	$GPGGA,060401,2449.2397,N,08033.6752,W,1,9,1.9,22,M,,M,,*58
06/05/2014	06:04:02.088	$GPGGA,060402,2449.2384,N,08033.6772,W,1,9,2.2,22,M,,M,,*53
06/05/2014	06:04:03.203	$GPGGA,060403,2449.2371,N,08033.6793,W,1,7,2.2,22,M,,M,,*59
06/05/2014	06:04:04.236	$GPGGA,060404,2449.2357,N,08033.6814,W,1,7,2.1,22,M,,M,,*59
06/05/2014	06:04:05.280	$GPGGA,060405,2449.2342,N,08033.6835,W,1,9,1.9,22,M,,M,,*5A
06/05/2014	06:04:06.262	$GPGGA,060406,2449.2330,N,08033.6857,W,1,9,1.9,21,M,,M,,*5B
06/05/2014	06:04:07.305	$GPGGA,060407,2449.2316,N,08033.6878,W,1,8,2.1,21,M,,M,,*59
06/05/2014	06:04:08.328	$GPGGA,060408,2449.2302,N,08033.6898,W,1,8,1.9,21,M,,M,,*56
06/05/2014	06:04:09.351	$GPGGA,060409,2449.2288,N,08033.6919,W,1,9,1.9,21,M,,M,,*5D
06/05/2014	06:04:10.364	$GPGGA,060410,2449.2274,N,08033.6941,W,1,9,1.9,21,M,,M,,*5B
06/05/2014	06:04:11.396	$GPGGA,060411,2449.2260,N,08033.6963,W,1,9,1.8,21,M,,M,,*5E
06/05/2014	06:04:12.419	$GPGGA,060412,2449.2247,N,08033.6985,W,1,9,1.8,21,M,,M,,*50
06/05/2014	06:04:13.441	$GPGGA,060413,2449.2233,N,08033.7008,W,1,8,1.9,21,M,,M,,*5F
06/05/2014	06:04:14.434	$GPGGA,060414,2449.2218,N,08033.7028,W,1,8,1.9,21,M,,M,,*53
06/05/2014	06:04:15.477	$GPGGA,060415,2449.2204,N,08033.7049,W,1,8,1.9,21,M,,M,,*58
06/05/2014	06:04:16.490	$GPGGA,060416,2449.2189,N,08033.7070,W,1,8,1.9,21,M,,M,,*57
06/05/2014	06:04:17.523	$GPGGA,060417,2449.2175,N,08033.7090,W,1,8,2.1,20,M,,M,,*51
06/05/2014	06:04:18.525	$GPGGA,060418,2449.2162,N,08033.7113,W,1,8,1.8,20,M,,M,,*58
06/05/2014	06:04:19.559	$GPGGA,060419,2449.2148,N,08033.7132,W,1,8,2.1,20,M,,M,,*58
06/05/2014	06:04:20.581	$GPGGA,060420,2449.2136,N,08033.7153,W,1,8,2.1,20,M,,M,,*5C
06/05/2014	06:04:21.625	$GPGGA,060421,2449.2122,N,08033.7172,W,1,9,1.8,20,M,,M,,*50
06/05/2014	06:04:22.607	$GPGGA,060422,2449.2108,N,08033.7191,W,1,9,1.8,21,M,,M,,*57
06/05/2014	06:04:23.670	$GPGGA,060423,2449.2093,N,08033.7211,W,1,9,1.8,21,M,,M,,*5E
06/05/2014	06:04:24.663	$GPGGA,060424,2449.2078,N,08033.7233,W,1,9,1.8,21,M,,M,,*5C
06/05/2014	06:04:25.706	$GPGGA,060425,2449.2063,N,08033.7254,W,1,8,1.9,21,M,,M,,*56
06/05/2014	06:04:26.688	$GPGGA,060426,2449.2047,N,08033.7277,W,1,8,1.8,21,M,,M,,*53
06/05/2014	06:04:27.732	$GPGGA,060427,2449.2032,N,08033.7299,W,1,9,1.8,21,M,,M,,*51
06/05/2014	06:04:28.776	$GPGGA,060428,2449.2018,N,08033.7320,W,1,9,2.1,21,M,,M,,*5F
06/05/2014	06:04:29.766	$GPGGA,060429,2449.2005,N,08033.7341,W,1,8,2.1,21,M,,M,,*54
06/05/2014	06:04:30.779	$GPGGA,060430,2449.1993,N,08033.7361,W,1,8,2.1,21,M,,M,,*5B
06/05/2014	06:04:31.802	$GPGGA,060431,2449.1980,N,08033.7381,W,1,7,2.3,21,M,,M,,*5B
06/05/2014	06:04:32.835	$GPGGA,060432,2449.1963,N,08033.7399,W,1,7,1.8,21,M,,M,,*54
06/05/2014	06:04:32.486	$GPGGA,060433,2449.1949,N,08033.7420,W,1,9,1.8,21,M,,M,,*56
06/05/2014	06:04:33.478	$GPGGA,060434,2449.1934,N,08033.7440,W,1,9,2.1,21,M,,M,,*57
06/05/2014	06:04:34.542	$GPGGA,060435,2449.1919,N,08033.7462,W,1,9,1.8,21,M,,M,,*53
06/05/2014	06:04:35.544	$GPGGA,060436,2449.1904,N,08033.7485,W,1,9,2.1,21,M,,M,,*5F
06/05/2014	06:04:36.567	$GPGGA,060437,2449.1889,N,08033.7507,W,1,9,1.8,21,M,,M,,*5B
06/05/2014	06:04:37.580	$GPGGA,060438,2449.1875,N,08033.7529,W,1,9,2.1,21,M,,M,,*51
06/05/2014	06:04:38.613	$GPGGA,060439,2449.1861,N,08033.7548,W,1,8,2.1,21,M,,M,,*53
06/05/2014	06:04:39.625	$GPGGA,060440,2449.1847,N,08033.7569,W,1,8,1.8,21,M,,M,,*50
06/05/2014	06:04:40.648	$GPGGA,060441,2449.1833,N,08033.7588,W,1,8,1.9,21,M,,M,,*5C
06/05/2014	06:04:41.763	$GPGGA,060442,2449.1819,N,08033.7608,W,1,8,1.9,21,M,,M,,*5C
06/05/2014	06:04:42.786	$GPGGA,060443,2449.1806,N,08033.7628,W,1,9,1.8,21,M,,M,,*51
06/05/2014	06:04:43.707	$GPGGA,060444,2449.1792,N,08033.7648,W,1,9,1.8,21,M,,M,,*52
06/05/2014	06:04:44.719	$GPGGA,060445,2449.1777,N,08033.7670,W,1,9,1.8,21,M,,M,,*53
06/05/2014	06:04:45.741	$GPGGA,060446,2449.1764,N,08033.7692,W,1,9,1.8,21,M,,M,,*5E
06/05/2014	06:04:46.887	$GPGGA,060447,2449.1749,N,08033.7714,W,1,9,1.8,21,M,,M,,*5F
06/05/2014	06:04:47.889	$GPGGA,060448,2449.1734,N,08033.7735,W,1,9,2.1,21,M,,M,,*53
06/05/2014	06:04:48.902	$GPGGA,060449,2449.1720,N,08033.7754,W,1,9,1.8,21,M,,M,,*5A
06/05/2014	06:04:49.915	$GPGGA,060450,2449.1705,N,08033.7775,W,1,9,1.8,21,M,,M,,*56
06/05/2014	06:04:50.938	$GPGGA,060451,2449.1689,N,08033.7794,W,1,9,1.8,21,M,,M,,*5D
06/05/2014	06:04:51.971	$GPGGA,060452,2449.1675,N,08033.7814,W,1,9,1.8,21,M,,M,,*5A
06/05/2014	06:04:53.004	$GPGGA,060453,2449.1662,N,08033.7836,W,1,8,2.1,21,M,,M,,*56
06/05/2014	06:04:53.986	$GPGGA,060454,2449.1646,N,08033.7855,W,1,8,2.1,21,M,,M,,*52
06/05/2014	06:04:55.039	$GPGGA,060455,2449.1633,N,08033.7876,W,1,8,2.1,21,M,,M,,*50
06/05/2014	06:04:56.052	$GPGGA,060456,2449.1619,N,08033.7897,W,1,8,2.1,21,M,,M,,*54
06/05/2014	06:04:57.075	$GPGGA,060457,2449.1604,N,08033.7916,W,1,8,2.1,21,M,,M,,*51
06/05/2014	06:04:58.088	$GPGGA,060458,2449.1590,N,08033.7938,W,1,8,2.1,21,M,,M,,*5C
06/05/2014	06:04:59.121	$GPGGA,060459,2449.1576,N,08033.7959,W,1,9,1.8,21,M,,M,,*59
06/05/2014	06:05:00.154	$GPGGA,060500,2449.1561,N,08033.7980,W,1,9,1.8,21,M,,M,,*56
06/05/2014	06:05:01.136	$GPGGA,060501,2449.1546,N,08033.8002,W,1,9,1.8,21,M,,M,,*5E
06/05/2014	06:05:02.170	$GPGGA,060502,2449.1533,N,08033.8022,W,1,9,1.8,21,M,,M,,*5D
06/05/2014	06:05:03.172	$GPGGA,060503,2449.1519,N,08033.8042,W,1,9,1.8,21,M,,M,,*52
06/05/2014	06:05:04.214	$GPGGA,060504,2449.1505,N,08033.8063,W,1,9,1.8,21,M,,M,,*5B
06/05/2014	06:05:05.247	$GPGGA,060505,2449.1492,N,08033.8082,W,1,8,1.9,21,M,,M,,*5A
06/05/2014	06:05:06.239	$GPGGA,060506,2449.1478,N,08033.8103,W,1,8,1.8,21,M,,M,,*54
06/05/2014	06:05:07.272	$GPGGA,060507,2449.1464,N,08033.8125,W,1,9,1.8,21,M,,M,,*5D
06/05/2014	06:05:08.316	$GPGGA,060508,2449.1449,N,08033.8145,W,1,9,1.8,21,M,,M,,*5B
06/05/2014	06:05:09.298	$GPGGA,060509,2449.1434,N,08033.8168,W,1,9,1.8,21,M,,M,,*5F
06/05/2014	06:05:10.341	$GPGGA,060510,2449.1421,N,08033.8188,W,1,9,1.8,21,M,,M,,*5D
06/05/2014	06:05:11.354	$GPGGA,060511,2449.1409,N,08033.8210,W,1,8,2.1,21,M,,M,,*5F
06/05/2014	06:05:12.377	$GPGGA,060512,2449.1395,N,08033.8230,W,1,8,1.8,21,M,,M,,*56
06/05/2014	06:05:13.389	$GPGGA,060513,2449.1381,N,08033.8249,W,1,7,2.1,21,M,,M,,*59
06/05/2014	06:05:14.412	$GPGGA,060514,2449.1367,N,08033.8271,W,1,7,2.3,21,M,,M,,*5F
06/05/2014	06:05:15.466	$GPGGA,060515,2449.1352,N,08033.8292,W,1,9,1.8,21,M,,M,,*53
06/05/2014	06:05:16.478	$GPGGA,060516,2449.1338,N,08033.8314,W,1,9,1.8,21,M,,M,,*53
06/05/2014	06:05:17.471	$GPGGA,060517,2449.1324,N,08033.8335,W,1,8,1.9,21,M,,M,,*5C
06/05/2014	06:05:18.514	$GPGGA,060518,2449.1309,N,08033.8356,W,1,8,1.8,21,M,,M,,*58
06/05/2014	06:05:19.527	$GPGGA,060519,2449.1295,N,08033.8376,W,1,9,1.8,21,M,,M,,*5E
06/05/2014	06:05:20.550	$GPGGA,060520,2449.1280,N,08033.8396,W,1,9,1.8,21,M,,M,,*5E
06/05/2014	06:05:21.571	$GPGGA,060521,2449.1265,N,08033.8418,W,1,7,2.1,21,M,,M,,*51
06/05/2014	06:05:22.584	$GPGGA,060522,2449.1251,N,08033.8439,W,1,7,1.9,21,M,,M,,*5D
06/05/2014	06:05:23.720	$GPGGA,060523,2449.1237,N,08033.8458,W,1,8,2.1,21,M,,M,,*5F
06/05/2014	06:05:24.640	$GPGGA,060524,2449.1222,N,08033.8480,W,1,8,1.8,21,M,,M,,*53
06/05/2014	06:05:25.745	$GPGGA,060525,2449.1208,N,08033.8501,W,1,9,1.8,21,M,,M,,*53
06/05/2014	06:05:26.676	$GPGGA,060526,2449.1193,N,08033.8522,W,1,9,1.8,21,M,,M,,*50
06/05/2014	06:05:27.781	$GPGGA,060527,2449.1178,N,08033.8541,W,1,9,1.8,21,M,,M,,*51
06/05/2014	06:05:28.834	$GPGGA,060528,2449.1165,N,08033.8562,W,1,9,1.8,21,M,,M,,*53
06/05/2014	06:05:29.857	$GPGGA,060529,2449.1151,N,08033.8584,W,1,9,1.8,21,M,,M,,*5D
06/05/2014	06:05:30.859	$GPGGA,060530,2449.1138,N,08033.8605,W,1,9,2.1,21,M,,M,,*5A
06/05/2014	06:05:31.903	$GPGGA,060531,2449.1122,N,08033.8627,W,1,8,2.1,21,M,,M,,*51
06/05/2014	06:05:32.803	$GPGGA,060532,2449.1110,N,08033.8647,W,1,8,2.1,21,M,,M,,*55
06/05/2014	06:05:32.545	$GPGGA,060533,2449.1098,N,08033.8668,W,1,9,1.8,21,M,,M,,*53
06/05/2014	06:05:33.455	$GPGGA,060534,2449.1085,N,08033.8689,W,1,9,1.8,21,M,,M,,*57
06/05/2014	06:05:34.478	$GPGGA,060535,2449.1070,N,08033.8710,W,1,9,1.8,21,M,,M,,*5D
06/05/2014	06:05:35.614	$GPGGA,060536,2449.1055,N,08033.8732,W,1,9,1.8,21,M,,M,,*59
06/05/2014	06:05:36.616	$GPGGA,060537,2449.1040,N,08033.8754,W,1,9,1.8,21,M,,M,,*5C
06/05/2014	06:05:37.639	$GPGGA,060538,2449.1026,N,08033.8775,W,1,9,2.1,21,M,,M,,*5A
06/05/2014	06:05:38.691	$GPGGA,060539,2449.1013,N,08033.8795,W,1,8,2.1,21,M,,M,,*52
06/05/2014	06:05:39.694	$GPGGA,060540,2449.0998,N,08033.8815,W,1,8,1.8,21,M,,M,,*5A
06/05/2014	06:05:40.707	$GPGGA,060541,2449.0983,N,08033.8835,W,1,9,1.8,21,M,,M,,*52
06/05/2014	06:05:41.740	$GPGGA,060542,2449.0967,N,08033.8856,W,1,9,1.8,21,M,,M,,*5E
06/05/2014	06:05:42.764	$GPGGA,060543,2449.0952,N,08033.8876,W,1,9,1.8,21,M,,M,,*5B
06/05/2014	06:05:43.775	$GPGGA,060544,2449.0937,N,08033.8898,W,1,9,1.8,21,M,,M,,*5F
06/05/2014	06:05:44.808	$GPGGA,060545,2449.0922,N,08033.8920,W,1,8,2.1,21,M,,M,,*53
06/05/2014	06:05:45.811	$GPGGA,060546,2449.0907,N,08033.8941,W,1,8,2.1,21,M,,M,,*50
06/05/2014	06:05:46.854	$GPGGA,060547,2449.0890,N,08033.8963,W,1,9,1.8,21,M,,M,,*55
06/05/2014	06:05:47.867	$GPGGA,060548,2449.0878,N,08033.8982,W,1,9,1.8,21,M,,M,,*53
06/05/2014	06:05:48.890	$GPGGA,060549,2449.0864,N,08033.9003,W,1,8,1.8,21,M,,M,,*5F
06/05/2014	06:05:49.882	$GPGGA,060550,2449.0853,N,08033.9021,W,1,8,2.1,21,M,,M,,*59
06/05/2014	06:05:50.936	$GPGGA,060551,2449.0842,N,08033.9043,W,1,7,2.2,21,M,,M,,*50
06/05/2014	06:05:51.948	$GPGGA,060552,2449.0826,N,08033.9064,W,1,7,1.8,21,M,,M,,*5D
06/05/2014	06:05:52.971	$GPGGA,060553,2449.0813,N,08033.9086,W,1,9,1.8,21,M,,M,,*58
06/05/2014	06:05:53.963	$GPGGA,060554,2449.0798,N,08033.9109,W,1,9,1.8,21,M,,M,,*55
06/05/2014	06:05:54.986	$GPGGA,060555,2449.0784,N,08033.9131,W,1,9,1.8,21,M,,M,,*52
06/05/2014	06:05:56.029	$GPGGA,060556,2449.0770,N,08033.9151,W,1,9,1.8,21,M,,M,,*5C
06/05/2014	06:05:57.062	$GPGGA,060557,2449.0756,N,08033.9173,W,1,9,1.8,21,M,,M,,*59
06/05/2014	06:05:58.054	$GPGGA,060558,2449.0744,N,08033.9196,W,1,9,2.1,21,M,,M,,*54
06/05/2014	06:05:59.077	$GPGGA,060559,2449.0730,N,08033.9216,W,1,9,1.8,21,M,,M,,*57
06/05/2014	06:06:00.130	$GPGGA,060600,2449.0715,N,08033.9236,W,1,9,2.1,21,M,,M,,*57
06/05/2014	06:06:01.143	$GPGGA,060601,2449.0703,N,08033.9257,W,1,9,1.8,21,M,,M,,*5C
06/05/2014	06:06:02.146	$GPGGA,060602,2449.0690,N,08033.9278,W,1,9,1.8,21,M,,M,,*59
06/05/2014	06:06:03.168	$GPGGA,060603,2449.0676,N,08033.9299,W,1,9,1.8,21,M,,M,,*5F
06/05/2014	06:06:04.191	$GPGGA,060604,2449.0662,N,08033.9321,W,1,9,1.8,21,M,,M,,*5F
06/05/2014	06:06:05.316	$GPGGA,060605,2449.0648,N,08033.9342,W,1,9,1.8,21,M,,M,,*53
06/05/2014	06:06:06.217	$GPGGA,060606,2449.0633,N,08033.9362,W,1,9,1.8,21,M,,M,,*5E
06/05/2014	06:06:07.260	$GPGGA,060607,2449.0619,N,08033.9383,W,1,9,1.8,21,M,,M,,*58
06/05/2014	06:06:08.283	$GPGGA,060608,2449.0605,N,08033.9405,W,1,9,1.8,21,M,,M,,*53
06/05/2014	06:06:09.275	$GPGGA,060609,2449.0590,N,08033.9426,W,1,9,1.8,21,M,,M,,*5C
06/05/2014	06:06:10.318	$GPGGA,060610,2449.0576,N,08033.9448,W,1,9,1.8,21,M,,M,,*54
06/05/2014	06:06:11.341	$GPGGA,060611,2449.0564,N,08033.9469,W,1,8,1.8,21,M,,M,,*54
06/05/2014	06:06:12.364	$GPGGA,060612,2449.0549,N,08033.9490,W,1,8,1.8,21,M,,M,,*5E
06/05/2014	06:06:13.397	$GPGGA,060613,2449.0535,N,08033.9509,W,1,9,1.8,21,M,,M,,*54
06/05/2014	06:06:14.399	$GPGGA,060614,2449.0522,N,08033.9530,W,1,9,1.8,21,M,,M,,*5F
06/05/2014	06:06:15.524	$GPGGA,060615,2449.0508,N,08033.9552,W,1,9,1.8,21,M,,M,,*52
06/05/2014	06:06:16.445	$GPGGA,060616,2449.0495,N,08033.9571,W,1,9,1.8,21,M,,M,,*55
06/05/2014	06:06:17.550	$GPGGA,060617,2449.0480,N,08033.9593,W,1,9,1.8,21,M,,M,,*5C
06/05/2014	06:06:18.480	$GPGGA,060618,2449.0466,N,08033.9617,W,1,9,1.8,21,M,,M,,*54
06/05/2014	06:06:19.493	$GPGGA,060619,2449.0452,N,08033.9639,W,1,9,1.8,20,M,,M,,*5F
06/05/2014	06:06:20.536	$GPGGA,060620,2449.0436,N,08033.9661,W,1,9,1.8,20,M,,M,,*5A
06/05/2014	06:06:21.569	$GPGGA,060621,2449.0421,N,08033.9682,W,1,8,2.1,20,M,,M,,*5B
06/05/2014	06:06:22.562	$GPGGA,060622,2449.0407,N,08033.9702,W,1,8,2.1,20,M,,M,,*55
06/05/2014	06:06:23.687	$GPGGA,060623,2449.0395,N,08033.9722,W,1,7,2.3,20,M,,M,,*57
06/05/2014	06:06:24.710	$GPGGA,060624,2449.0380,N,08033.9741,W,1,7,2.1,20,M,,M,,*53
06/05/2014	06:06:25.743	$GPGGA,060625,2449.0367,N,08033.9762,W,1,9,1.8,20,M,,M,,*5E
06/05/2014	06:06:26.745	$GPGGA,060626,2449.0354,N,08033.9783,W,1,9,1.8,20,M,,M,,*52
06/05/2014	06:06:27.809	$GPGGA,060627,2449.0338,N,08033.9802,W,1,8,2.1,20,M,,M,,*54
06/05/2014	06:06:28.791	$GPGGA,060628,2449.0324,N,08033.9826,W,1,8,1.8,20,M,,M,,*5A
06/05/2014	06:06:29.816	$GPGGA,060629,2449.0311,N,08033.9848,W,1,9,1.8,20,M,,M,,*54
06/05/2014	06:06:30.828	$GPGGA,060630,2449.0295,N,08033.9868,W,1,9,2.0,20,M,,M,,*58
06/05/2014	06:06:31.869	$GPGGA,060631,2449.0279,N,08033.9888,W,1,8,2.0,20,M,,M,,*54
06/05/2014	06:06:32.882	$GPGGA,060632,2449.0266,N,08033.9908,W,1,8,2.0,20,M,,M,,*50
06/05/2014	06:06:32.521	$GPGGA,060633,2449.0253,N,08033.9928,W,1,9,1.8,20,M,,M,,*5F
06/05/2014	06:06:33.534	$GPGGA,060634,2449.0237,N,08033.9947,W,1,9,1.8,20,M,,M,,*53
06/05/2014	06:06:34.567	$GPGGA,060635,2449.0222,N,08033.9967,W,1,8,1.8,20,M,,M,,*55
06/05/2014	06:06:35.590	$GPGGA,060636,2449.0207,N,08033.9989,W,1,8,1.8,20,M,,M,,*51
06/05/2014	06:06:36.613	$GPGGA,060637,2449.0192,N,08034.0009,W,1,9,1.8,20,M,,M,,*51
06/05/2014	06:06:37.626	$GPGGA,060638,2449.0177,N,08034.0032,W,1,9,1.8,20,M,,M,,*5D
06/05/2014	06:06:38.659	$GPGGA,060639,2449.0163,N,08034.0052,W,1,8,1.8,20,M,,M,,*5E
06/05/2014	06:06:39.661	$GPGGA,060640,2449.0148,N,08034.0072,W,1,8,1.8,20,M,,M,,*5B
06/05/2014	06:06:40.674	$GPGGA,060641,2449.0134,N,08034.0092,W,1,9,1.8,20,M,,M,,*5E
06/05/2014	06:06:41.707	$GPGGA,060642,2449.0121,N,08034.0112,W,1,9,2.0,20,M,,M,,*5B
06/05/2014	06:06:42.720	$GPGGA,060643,2449.0108,N,08034.0134,W,1,9,1.8,20,M,,M,,*5E
06/05/2014	06:06:43.753	$GPGGA,060644,2449.0094,N,08034.0153,W,1,9,2.0,20,M,,M,,*57
06/05/2014	06:06:44.755	$GPGGA,060645,2449.0076,N,08034.0173,W,1,8,2.0,20,M,,M,,*59
06/05/2014	06:06:45.788	$GPGGA,060646,2449.0060,N,08034.0193,W,1,8,1.8,20,M,,M,,*58
06/05/2014	06:06:46.842	$GPGGA,060647,2449.0045,N,08034.0215,W,1,9,1.8,20,M,,M,,*52
06/05/2014	06:06:47.834	$GPGGA,060648,2449.0031,N,08034.0236,W,1,9,1.8,20,M,,M,,*5F
06/05/2014	06:06:48.866	$GPGGA,060649,2449.0015,N,08034.0257,W,1,9,1.8,20,M,,M,,*5F
06/05/2014	06:06:49.879	$GPGGA,060650,2449.0001,N,08034.0278,W,1,9,1.8,20,M,,M,,*5F
06/05/2014	06:06:50.912	$GPGGA,060651,2448.9988,N,08034.0300,W,1,9,1.8,20,M,,M,,*50
06/05/2014	06:06:51.925	$GPGGA,060652,2448.9973,N,08034.0322,W,1,9,1.8,20,M,,M,,*57
06/05/2014	06:06:52.937	$GPGGA,060653,2448.9959,N,08034.0343,W,1,9,1.8,20,M,,M,,*59
06/05/2014	06:06:53.940	$GPGGA,060654,2448.9947,N,08034.0363,W,1,9,2.0,21,M,,M,,*59
06/05/2014	06:06:54.973	$GPGGA,060655,2448.9932,N,08034.0383,W,1,8,2.0,21,M,,M,,*55
06/05/2014	06:06:55.996	$GPGGA,060656,2448.9917,N,08034.0405,W,1,8,1.8,21,M,,M,,*53
06/05/2014	06:06:57.060	$GPGGA,060657,2448.9902,N,08034.0426,W,1,9,1.8,21,M,,M,,*56
06/05/2014	06:06:58.052	$GPGGA,060658,2448.9889,N,08034.0448,W,1,9,1.8,21,M,,M,,*53
06/05/2014	06:06:59.187	$GPGGA,060659,2448.9874,N,08034.0469,W,1,9,1.8,21,M,,M,,*53
06/05/2014	06:07:00.098	$GPGGA,060700,2448.9859,N,08034.0488,W,1,9,1.8,21,M,,M,,*5E
06/05/2014	06:07:01.213	$GPGGA,060701,2448.9846,N,08034.0510,W,1,9,1.8,21,M,,M,,*51
06/05/2014	06:07:02.225	$GPGGA,060702,2448.9832,N,08034.0531,W,1,9,1.8,21,M,,M,,*52
06/05/2014	06:07:03.137	$GPGGA,060703,2448.9818,N,08034.0553,W,1,9,1.8,21,M,,M,,*5F
06/05/2014	06:07:04.281	$GPGGA,060704,2448.9805,N,08034.0574,W,1,9,2.0,21,M,,M,,*5A
06/05/2014	06:07:05.222	$GPGGA,060705,2448.9792,N,08034.0594,W,1,8,2.0,21,M,,M,,*55
06/05/2014	06:07:06.193	$GPGGA,060706,2448.9780,N,08034.0615,W,1,8,1.8,21,M,,M,,*54
06/05/2014	06:07:07.226	$GPGGA,060707,2448.9767,N,08034.0636,W,1,8,1.8,21,M,,M,,*5D
06/05/2014	06:07:08.270	$GPGGA,060708,2448.9754,N,08034.0654,W,1,8,2.0,21,M,,M,,*5D
06/05/2014	06:07:09.262	$GPGGA,060709,2448.9741,N,08034.0673,W,1,8,2.0,21,M,,M,,*5D
06/05/2014	06:07:10.377	$GPGGA,060710,2448.9726,N,08034.0697,W,1,8,2.0,21,M,,M,,*5E
06/05/2014	06:07:11.410	$GPGGA,060711,2448.9711,N,08034.0719,W,1,8,2.0,21,M,,M,,*5C
06/05/2014	06:07:12.341	$GPGGA,060712,2448.9694,N,08034.0740,W,1,8,2.0,21,M,,M,,*5F
06/05/2014	06:07:13.476	$GPGGA,060713,2448.9679,N,08034.0760,W,1,8,2.0,22,M,,M,,*5C
06/05/2014	06:07:14.469	$GPGGA,060714,2448.9666,N,08034.0781,W,1,8,2.0,22,M,,M,,*5A
06/05/2014	06:07:15.522	$GPGGA,060715,2448.9651,N,08034.0802,W,1,8,1.8,22,M,,M,,*50
06/05/2014	06:07:16.545	$GPGGA,060716,2448.9636,N,08034.0820,W,1,8,1.8,22,M,,M,,*52
06/05/2014	06:07:17.547	$GPGGA,060717,2448.9621,N,08034.0838,W,1,8,1.8,22,M,,M,,*5C
06/05/2014	06:07:18.550	$GPGGA,060718,2448.9605,N,08034.0858,W,1,8,1.8,22,M,,M,,*53
06/05/2014	06:07:19.595	$GPGGA,060719,2448.9592,N,08034.0881,W,1,9,2.0,22,M,,M,,*51
06/05/2014	06:07:20.617	$GPGGA,060720,2448.9575,N,08034.0901,W,1,9,2.0,22,M,,M,,*5B
06/05/2014	06:07:21.598	$GPGGA,060721,2448.9558,N,08034.0922,W,1,8,1.8,22,M,,M,,*5E
06/05/2014	06:07:22.653	$GPGGA,060722,2448.9545,N,08034.0946,W,1,8,1.8,22,M,,M,,*53
06/05/2014	06:07:23.644	$GPGGA,060723,2448.9531,N,08034.0966,W,1,9,1.8,22,M,,M,,*52
06/05/2014	06:07:24.686	$GPGGA,060724,2448.9516,N,08034.0987,W,1,9,1.8,22,M,,M,,*5F
06/05/2014	06:07:25.689	$GPGGA,060725,2448.9501,N,08034.1006,W,1,9,1.8,22,M,,M,,*59
06/05/2014	06:07:26.712	$GPGGA,060726,2448.9487,N,08034.1027,W,1,9,1.8,21,M,,M,,*55
06/05/2014	06:07:27.734	$GPGGA,060727,2448.9475,N,08034.1048,W,1,8,2.0,21,M,,M,,*5A
06/05/2014	06:07:28.767	$GPGGA,060728,2448.9463,N,08034.1069,W,1,8,2.0,21,M,,M,,*51
06/05/2014	06:07:29.780	$GPGGA,060729,2448.9448,N,08034.1087,W,1,8,2.2,21,M,,M,,*5B
06/05/2014	06:07:30.803	$GPGGA,060730,2448.9435,N,08034.1109,W,1,8,1.8,22,M,,M,,*54
06/05/2014	06:07:31.816	$GPGGA,060731,2448.9422,N,08034.1129,W,1,9,1.8,22,M,,M,,*50
06/05/2014	06:07:32.849	$GPGGA,060732,2448.9409,N,08034.1150,W,1,9,1.8,22,M,,M,,*54
06/05/2014	06:07:32.478	$GPGGA,060733,2448.9394,N,08034.1171,W,1,9,1.8,22,M,,M,,*55
06/05/2014	06:07:33.511	$GPGGA,060734,2448.9380,N,08034.1192,W,1,9,1.8,22,M,,M,,*5A
06/05/2014	06:07:34.534	$GPGGA,060735,2448.9368,N,08034.1212,W,1,9,1.8,22,M,,M,,*56
06/05/2014	06:07:35.547	$GPGGA,060736,2448.9353,N,08034.1233,W,1,9,1.8,22,M,,M,,*5E
06/05/2014	06:07:36.601	$GPGGA,060737,2448.9340,N,08034.1254,W,1,9,1.8,22,M,,M,,*5C
06/05/2014	06:07:37.583	$GPGGA,060738,2448.9326,N,08034.1275,W,1,9,1.8,22,M,,M,,*50
06/05/2014	06:07:38.616	$GPGGA,060739,2448.9314,N,08034.1295,W,1,9,1.8,22,M,,M,,*5E
06/05/2014	06:07:39.669	$GPGGA,060740,2448.9299,N,08034.1316,W,1,9,1.8,22,M,,M,,*5E
06/05/2014	06:07:40.681	$GPGGA,060741,2448.9285,N,08034.1337,W,1,9,1.8,22,M,,M,,*51
06/05/2014	06:07:41.683	$GPGGA,060742,2448.9272,N,08034.1359,W,1,9,1.8,22,M,,M,,*52
06/05/2014	06:07:42.717	$GPGGA,060743,2448.9257,N,08034.1380,W,1,9,1.8,22,M,,M,,*50
06/05/2014	06:07:43.750	$GPGGA,060744,2448.9245,N,08034.1402,W,1,9,1.8,22,M,,M,,*59
06/05/2014	06:07:44.865	$GPGGA,060745,2448.9231,N,08034.1423,W,1,9,1.8,21,M,,M,,*5B
06/05/2014	06:07:45.755	$GPGGA,060746,2448.9217,N,08034.1445,W,1,9,2.0,21,M,,M,,*57
06/05/2014	06:07:46.808	$GPGGA,060747,2448.9203,N,08034.1464,W,1,8,1.8,21,M,,M,,*5A
06/05/2014	06:07:47.923	$GPGGA,060748,2448.9189,N,08034.1486,W,1,8,1.8,21,M,,M,,*58
06/05/2014	06:07:48.936	$GPGGA,060749,2448.9178,N,08034.1510,W,1,9,1.8,21,M,,M,,*58
06/05/2014	06:07:49.856	$GPGGA,060750,2448.9164,N,08034.1530,W,1,9,1.8,21,M,,M,,*5F
06/05/2014	06:07:50.961	$GPGGA,060751,2448.9151,N,08034.1551,W,1,9,1.8,21,M,,M,,*5F
06/05/2014	06:07:51.994	$GPGGA,060752,2448.9137,N,08034.1573,W,1,9,1.8,21,M,,M,,*5C
06/05/2014	06:07:52.956	$GPGGA,060753,2448.9123,N,08034.1594,W,1,9,2.0,21,M,,M,,*5A
06/05/2014	06:07:54.040	$GPGGA,060754,2448.9111,N,08034.1616,W,1,9,2.0,21,M,,M,,*55
06/05/2014	06:07:55.042	$GPGGA,060755,2448.9097,N,08034.1637,W,1,9,1.8,21,M,,M,,*53
06/05/2014	06:07:56.096	$GPGGA,060756,2448.9084,N,08034.1658,W,1,9,1.8,21,M,,M,,*5B
06/05/2014	06:07:57.109	$GPGGA,060757,2448.9070,N,08034.1680,W,1,9,1.8,21,M,,M,,*54
06/05/2014	06:07:58.101	$GPGGA,060758,2448.9057,N,08034.1701,W,1,9,1.8,21,M,,M,,*56
06/05/2014	06:07:59.133	$GPGGA,060759,2448.9043,N,08034.1721,W,1,9,1.8,21,M,,M,,*50
06/05/2014	06:08:00.187	$GPGGA,060800,2448.9029,N,08034.1741,W,1,9,1.8,20,M,,M,,*58
06/05/2014	06:08:01.169	$GPGGA,060801,2448.9014,N,08034.1761,W,1,9,1.8,20,M,,M,,*55
06/05/2014	06:08:02.181	$GPGGA,060802,2448.8999,N,08034.1782,W,1,9,1.8,20,M,,M,,*56
06/05/2014	06:08:03.204	$GPGGA,060803,2448.8985,N,08034.1804,W,1,9,1.8,20,M,,M,,*5B
06/05/2014	06:08:04.249	$GPGGA,060804,2448.8969,N,08034.1825,W,1,9,1.8,20,M,,M,,*5D
06/05/2014	06:08:05.270	$GPGGA,060805,2448.8954,N,08034.1846,W,1,9,1.8,20,M,,M,,*57
06/05/2014	06:08:06.263	$GPGGA,060806,2448.8939,N,08034.1868,W,1,9,1.8,20,M,,M,,*53
06/05/2014	06:08:07.296	$GPGGA,060807,2448.8927,N,08034.1889,W,1,9,2.0,20,M,,M,,*59
06/05/2014	06:08:08.329	$GPGGA,060808,2448.8913,N,08034.1908,W,1,9,2.0,20,M,,M,,*59
06/05/2014	06:08:09.362	$GPGGA,060809,2448.8898,N,08034.1929,W,1,9,1.8,20,M,,M,,*52
06/05/2014	06:08:10.344	$GPGGA,060810,2448.8884,N,08034.1948,W,1,9,1.8,20,M,,M,,*50
06/05/2014	06:08:11.387	$GPGGA,060811,2448.8871,N,08034.1969,W,1,9,1.8,20,M,,M,,*58
06/05/2014	06:08:12.410	$GPGGA,060812,2448.8871,N,08034.1969,W,1,9,1.8,20,M,,M,,*5B
06/05/2014	06:08:13.443	$GPGGA,060813,2448.8841,N,08034.2012,W,1,8,1.8,20,M,,M,,*5E
06/05/2014	06:08:14.446	$GPGGA,060814,2448.8826,N,08034.2034,W,1,8,1.8,20,M,,M,,*5C
06/05/2014	06:08:15.459	$GPGGA,060815,2448.8813,N,08034.2056,W,1,9,1.8,20,M,,M,,*5E
06/05/2014	06:08:16.480	$GPGGA,060816,2448.8797,N,08034.2077,W,1,9,1.8,20,M,,M,,*5D
06/05/2014	06:08:17.493	$GPGGA,060817,2448.8783,N,08034.2096,W,1,9,1.8,20,M,,M,,*56
06/05/2014	06:08:18.516	$GPGGA,060818,2448.8768,N,08034.2118,W,1,9,1.8,20,M,,M,,*5B
06/05/2014	06:08:19.539	$GPGGA,060819,2448.8754,N,08034.2139,W,1,9,1.8,20,M,,M,,*56
06/05/2014	06:08:20.592	$GPGGA,060820,2448.8739,N,08034.2157,W,1,9,1.8,20,M,,M,,*5F
06/05/2014	06:08:21.615	$GPGGA,060821,2448.8726,N,08034.2176,W,1,9,1.8,20,M,,M,,*53
06/05/2014	06:08:22.607	$GPGGA,060822,2448.8711,N,08034.2197,W,1,9,2.2,20,M,,M,,*52
06/05/2014	06:08:23.627	$GPGGA,060823,2448.8694,N,08034.2216,W,1,8,2.0,20,M,,M,,*56
06/05/2014	06:08:24.637	$GPGGA,060824,2448.8679,N,08034.2237,W,1,8,2.0,20,M,,M,,*51
06/05/2014	06:08:25.657	$GPGGA,060825,2448.8664,N,08034.2259,W,1,9,1.8,20,M,,M,,*5E
06/05/2014	06:08:26.637	$GPGGA,060826,2448.8649,N,08034.2281,W,1,9,1.8,20,M,,M,,*57
06/05/2014	06:08:27.637	$GPGGA,060827,2448.8633,N,08034.2302,W,1,8,1.8,20,M,,M,,*50
06/05/2014	06:08:28.667	$GPGGA,060828,2448.8617,N,08034.2323,W,1,8,1.8,21,M,,M,,*5B
06/05/2014	06:08:29.677	$GPGGA,060829,2448.8602,N,08034.2344,W,1,9,1.8,21,M,,M,,*5E
06/05/2014	06:08:30.656	$GPGGA,060830,2448.8589,N,08034.2363,W,1,9,2.0,21,M,,M,,*58
06/05/2014	06:08:31.686	$GPGGA,060831,2448.8574,N,08034.2384,W,1,9,1.8,21,M,,M,,*59
06/05/2014	06:08:32.686	$GPGGA,060832,2448.8560,N,08034.2402,W,1,9,1.8,21,M,,M,,*56
06/05/2014	06:08:32.573	$GPGGA,060833,2448.8546,N,08034.2424,W,1,8,1.8,21,M,,M,,*56
06/05/2014	06:08:33.582	$GPGGA,060834,2448.8531,N,08034.2446,W,1,8,1.8,21,M,,M,,*55
06/05/2014	06:08:34.491	$GPGGA,060835,2448.8516,N,08034.2467,W,1,8,1.8,21,M,,M,,*52
06/05/2014	06:08:35.500	$GPGGA,060836,2448.8502,N,08034.2490,W,1,8,1.8,21,M,,M,,*5C
06/05/2014	06:08:36.480	$GPGGA,060837,2448.8487,N,08034.2512,W,1,8,1.8,21,M,,M,,*5A
06/05/2014	06:08:37.500	$GPGGA,060838,2448.8472,N,08034.2534,W,1,8,2.0,21,M,,M,,*50
06/05/2014	06:08:38.591	$GPGGA,060839,2448.8459,N,08034.2555,W,1,9,1.8,21,M,,M,,*55
06/05/2014	06:08:39.621	$GPGGA,060840,2448.8445,N,08034.2576,W,1,9,1.8,21,M,,M,,*57
06/05/2014	06:08:40.521	$GPGGA,060841,2448.8430,N,08034.2595,W,1,9,1.8,21,M,,M,,*59
06/05/2014	06:08:41.620	$GPGGA,060842,2448.8416,N,08034.2616,W,1,9,2.0,21,M,,M,,*5D
06/05/2014	06:08:42.671	$GPGGA,060843,2448.8402,N,08034.2637,W,1,9,1.8,21,M,,M,,*51
06/05/2014	06:08:43.671	$GPGGA,060844,2448.8386,N,08034.2657,W,1,9,1.8,21,M,,M,,*5B
06/05/2014	06:08:44.660	$GPGGA,060845,2448.8371,N,08034.2678,W,1,8,1.8,21,M,,M,,*5E
06/05/2014	06:08:45.560	$GPGGA,060846,2448.8357,N,08034.2699,W,1,8,1.8,21,M,,M,,*56
06/05/2014	06:08:46.700	$GPGGA,060847,2448.8344,N,08034.2720,W,1,9,1.8,21,M,,M,,*57
06/05/2014	06:08:47.680	$GPGGA,060848,2448.8331,N,08034.2742,W,1,9,2.0,22,M,,M,,*56
06/05/2014	06:08:48.680	$GPGGA,060849,2448.8317,N,08034.2762,W,1,9,1.8,22,M,,M,,*5A
06/05/2014	06:08:49.710	$GPGGA,060850,2448.8304,N,08034.2785,W,1,9,1.8,22,M,,M,,*59
06/05/2014	06:08:50.698	$GPGGA,060851,2448.8290,N,08034.2804,W,1,7,2.2,22,M,,M,,*55
06/05/2014	06:08:51.718	$GPGGA,060852,2448.8273,N,08034.2825,W,1,7,1.8,22,M,,M,,*51
06/05/2014	06:08:52.718	$GPGGA,060853,2448.8259,N,08034.2847,W,1,9,1.8,22,M,,M,,*52
06/05/2014	06:08:53.718	$GPGGA,060854,2448.8246,N,08034.2868,W,1,9,1.8,21,M,,M,,*55
06/05/2014	06:08:54.718	$GPGGA,060855,2448.8232,N,08034.2887,W,1,9,1.8,21,M,,M,,*56
06/05/2014	06:08:55.738	$GPGGA,060856,2448.8219,N,08034.2908,W,1,9,1.8,21,M,,M,,*5A
06/05/2014	06:08:56.758	$GPGGA,060857,2448.8204,N,08034.2930,W,1,9,1.8,21,M,,M,,*5C
06/05/2014	06:08:57.758	$GPGGA,060858,2448.8190,N,08034.2949,W,1,9,1.8,21,M,,M,,*53
06/05/2014	06:08:58.757	$GPGGA,060859,2448.8176,N,08034.2971,W,1,9,1.8,21,M,,M,,*51
06/05/2014	06:08:59.788	$GPGGA,060900,2448.8161,N,08034.2993,W,1,9,1.8,21,M,,M,,*56
06/05/2014	06:09:00.767	$GPGGA,060901,2448.8147,N,08034.3016,W,1,8,1.8,21,M,,M,,*57
06/05/2014	06:09:01.787	$GPGGA,060902,2448.8133,N,08034.3036,W,1,8,1.8,21,M,,M,,*55
06/05/2014	06:09:02.827	$GPGGA,060903,2448.8120,N,08034.3060,W,1,8,1.8,21,M,,M,,*55
06/05/2014	06:09:03.807	$GPGGA,060904,2448.8107,N,08034.3081,W,1,8,1.8,21,M,,M,,*58
06/05/2014	06:09:04.827	$GPGGA,060905,2448.8093,N,08034.3100,W,1,9,1.8,21,M,,M,,*5C
06/05/2014	06:09:05.808	$GPGGA,060906,2448.8080,N,08034.3121,W,1,9,1.8,21,M,,M,,*5E
06/05/2014	06:09:06.847	$GPGGA,060907,2448.8068,N,08034.3143,W,1,9,1.8,21,M,,M,,*5D
06/05/2014	06:09:07.837	$GPGGA,060908,2448.8054,N,08034.3163,W,1,9,1.8,21,M,,M,,*5F
06/05/2014	06:09:08.855	$GPGGA,060909,2448.8040,N,08034.3183,W,1,9,1.8,21,M,,M,,*55
06/05/2014	06:09:09.835	$GPGGA,060910,2448.8025,N,08034.3205,W,1,9,2.0,21,M,,M,,*58
06/05/2014	06:09:10.885	$GPGGA,060911,2448.8010,N,08034.3228,W,1,9,1.8,21,M,,M,,*5B
06/05/2014	06:09:11.875	$GPGGA,060912,2448.7995,N,08034.3248,W,1,9,1.8,21,M,,M,,*55
06/05/2014	06:09:12.875	$GPGGA,060913,2448.7979,N,08034.3270,W,1,9,1.8,21,M,,M,,*5D
06/05/2014	06:09:13.875	$GPGGA,060914,2448.7966,N,08034.3291,W,1,9,1.8,21,M,,M,,*5B
06/05/2014	06:09:14.915	$GPGGA,060915,2448.7952,N,08034.3313,W,1,9,1.8,21,M,,M,,*56
06/05/2014	06:09:15.915	$GPGGA,060916,2448.7939,N,08034.3334,W,1,9,1.8,21,M,,M,,*5D
06/05/2014	06:09:16.914	$GPGGA,060917,2448.7925,N,08034.3353,W,1,9,1.8,21,M,,M,,*50
06/05/2014	06:09:17.914	$GPGGA,060918,2448.7910,N,08034.3374,W,1,9,1.8,21,M,,M,,*5C
06/05/2014	06:09:18.924	$GPGGA,060919,2448.7897,N,08034.3396,W,1,9,1.8,21,M,,M,,*5F
06/05/2014	06:09:19.944	$GPGGA,060920,2448.7883,N,08034.3419,W,1,9,1.8,21,M,,M,,*50
06/05/2014	06:09:20.964	$GPGGA,060921,2448.7868,N,08034.3440,W,1,9,1.8,21,M,,M,,*58
06/05/2014	06:09:21.944	$GPGGA,060922,2448.7854,N,08034.3462,W,1,9,1.8,21,M,,M,,*54
06/05/2014	06:09:23.075	$GPGGA,060923,2448.7838,N,08034.3484,W,1,9,1.8,21,M,,M,,*57
06/05/2014	06:09:23.974	$GPGGA,060924,2448.7825,N,08034.3505,W,1,9,1.8,21,M,,M,,*54
06/05/2014	06:09:24.973	$GPGGA,060925,2448.7811,N,08034.3526,W,1,9,1.8,21,M,,M,,*53
06/05/2014	06:09:25.972	$GPGGA,060926,2448.7797,N,08034.3545,W,1,9,1.8,21,M,,M,,*54
06/05/2014	06:09:27.093	$GPGGA,060927,2448.7784,N,08034.3566,W,1,9,1.8,21,M,,M,,*56
06/05/2014	06:09:28.113	$GPGGA,060928,2448.7771,N,08034.3585,W,1,9,1.8,21,M,,M,,*5E
06/05/2014	06:09:28.992	$GPGGA,060929,2448.7757,N,08034.3606,W,1,9,1.8,21,M,,M,,*53
06/05/2014	06:09:29.992	$GPGGA,060930,2448.7742,N,08034.3627,W,1,9,1.8,21,M,,M,,*5C
06/05/2014	06:09:31.012	$GPGGA,060931,2448.7726,N,08034.3649,W,1,9,1.8,21,M,,M,,*57
06/05/2014	06:09:32.143	$GPGGA,060932,2448.7710,N,08034.3668,W,1,9,2.0,21,M,,M,,*59
06/05/2014	06:09:32.549	$GPGGA,060933,2448.7695,N,08034.3689,W,1,8,2.0,21,M,,M,,*5A
06/05/2014	06:09:33.529	$GPGGA,060934,2448.7679,N,08034.3710,W,1,8,1.8,21,M,,M,,*55
06/05/2014	06:09:34.458	$GPGGA,060935,2448.7663,N,08034.3729,W,1,9,1.8,21,M,,M,,*54
06/05/2014	06:09:35.559	$GPGGA,060936,2448.7648,N,08034.3750,W,1,9,1.8,21,M,,M,,*50
06/05/2014	06:09:36.599	$GPGGA,060937,2448.7631,N,08034.3770,W,1,9,1.8,21,M,,M,,*5D
06/05/2014	06:09:37.569	$GPGGA,060938,2448.7616,N,08034.3790,W,1,9,1.8,21,M,,M,,*59
06/05/2014	06:09:38.569	$GPGGA,060939,2448.7602,N,08034.3811,W,1,9,1.8,21,M,,M,,*5B
06/05/2014	06:09:39.599	$GPGGA,060940,2448.7589,N,08034.3831,W,1,9,1.8,21,M,,M,,*57
06/05/2014	06:09:40.588	$GPGGA,060941,2448.7574,N,08034.3851,W,1,9,1.8,21,M,,M,,*52
06/05/2014	06:09:41.608	$GPGGA,060942,2448.7558,N,08034.3870,W,1,9,1.8,21,M,,M,,*5C
06/05/2014	06:09:42.628	$GPGGA,060943,2448.7544,N,08034.3892,W,1,9,1.8,21,M,,M,,*5C
06/05/2014	06:09:43.637	$GPGGA,060944,2448.7530,N,08034.3913,W,1,9,1.8,21,M,,M,,*50
06/05/2014	06:09:44.657	$GPGGA,060945,2448.7513,N,08034.3934,W,1,9,1.8,21,M,,M,,*55
06/05/2014	06:09:45.627	$GPGGA,060946,2448.7500,N,08034.3956,W,1,9,1.8,22,M,,M,,*53
06/05/2014	06:09:46.658	$GPGGA,060947,2448.7484,N,08034.3978,W,1,9,1.8,22,M,,M,,*53
06/05/2014	06:09:47.657	$GPGGA,060948,2448.7469,N,08034.3999,W,1,9,1.8,22,M,,M,,*50
06/05/2014	06:09:48.677	$GPGGA,060949,2448.7455,N,08034.4019,W,1,9,1.8,22,M,,M,,*58
06/05/2014	06:09:49.666	$GPGGA,060950,2448.7440,N,08034.4039,W,1,9,1.8,22,M,,M,,*56
06/05/2014	06:09:50.686	$GPGGA,060951,2448.7425,N,08034.4058,W,1,9,1.8,22,M,,M,,*53
06/05/2014	06:09:51.696	$GPGGA,060952,2448.7414,N,08034.4079,W,1,9,1.8,22,M,,M,,*51
06/05/2014	06:09:52.706	$GPGGA,060953,2448.7402,N,08034.4100,W,1,8,2.0,22,M,,M,,*52
06/05/2014	06:09:53.696	$GPGGA,060954,2448.7388,N,08034.4120,W,1,8,1.8,22,M,,M,,*59
06/05/2014	06:09:54.696	$GPGGA,060955,2448.7374,N,08034.4141,W,1,8,2.0,22,M,,M,,*57
06/05/2014	06:09:55.726	$GPGGA,060956,2448.7359,N,08034.4165,W,1,8,1.8,22,M,,M,,*56
06/05/2014	06:09:56.746	$GPGGA,060957,2448.7343,N,08034.4187,W,1,9,1.8,22,M,,M,,*51
06/05/2014	06:09:57.735	$GPGGA,060958,2448.7328,N,08034.4206,W,1,9,1.8,22,M,,M,,*59
06/05/2014	06:09:58.776	$GPGGA,060959,2448.7313,N,08034.4227,W,1,8,1.8,22,M,,M,,*52
06/05/2014	06:09:59.765	$GPGGA,061000,2448.7300,N,08034.4249,W,1,8,1.8,22,M,,M,,*5C
06/05/2014	06:10:00.744	$GPGGA,061001,2448.7288,N,08034.4270,W,1,9,1.8,22,M,,M,,*57
06/05/2014	06:10:01.754	$GPGGA,061002,2448.7274,N,08034.4288,W,1,9,1.8,22,M,,M,,*50
06/05/2014	06:10:02.764	$GPGGA,061003,2448.7260,N,08034.4310,W,1,9,1.8,22,M,,M,,*54
06/05/2014	06:10:03.804	$GPGGA,061004,2448.7248,N,08034.4332,W,1,9,1.8,22,M,,M,,*59
06/05/2014	06:10:04.804	$GPGGA,061005,2448.7235,N,08034.4353,W,1,9,1.8,22,M,,M,,*55
06/05/2014	06:10:05.783	$GPGGA,061006,2448.7220,N,08034.4373,W,1,9,1.8,22,M,,M,,*50
06/05/2014	06:10:06.813	$GPGGA,061007,2448.7207,N,08034.4394,W,1,9,1.8,22,M,,M,,*5D
06/05/2014	06:10:07.813	$GPGGA,061008,2448.7193,N,08034.4416,W,1,9,1.8,22,M,,M,,*51
06/05/2014	06:10:08.823	$GPGGA,061009,2448.7179,N,08034.4437,W,1,9,1.8,22,M,,M,,*57
06/05/2014	06:10:09.823	$GPGGA,061010,2448.7165,N,08034.4459,W,1,9,1.8,22,M,,M,,*5A
06/05/2014	06:10:10.974	$GPGGA,061011,2448.7151,N,08034.4480,W,1,9,1.8,22,M,,M,,*58
06/05/2014	06:10:11.843	$GPGGA,061012,2448.7139,N,08034.4501,W,1,9,1.8,22,M,,M,,*5D
06/05/2014	06:10:12.853	$GPGGA,061013,2448.7124,N,08034.4523,W,1,9,1.8,22,M,,M,,*50
06/05/2014	06:10:13.943	$GPGGA,061014,2448.7111,N,08034.4542,W,1,9,1.8,21,M,,M,,*55
06/05/2014	06:10:14.994	$GPGGA,061015,2448.7099,N,08034.4563,W,1,9,1.8,21,M,,M,,*56
06/05/2014	06:10:15.882	$GPGGA,061016,2448.7085,N,08034.4585,W,1,9,1.8,21,M,,M,,*50
06/05/2014	06:10:16.892	$GPGGA,061017,2448.7070,N,08034.4606,W,1,8,1.8,21,M,,M,,*52
06/05/2014	06:10:17.892	$GPGGA,061018,2448.7056,N,08034.4626,W,1,8,1.8,21,M,,M,,*5B
06/05/2014	06:10:19.012	$GPGGA,061019,2448.7042,N,08034.4650,W,1,9,1.8,21,M,,M,,*5F
06/05/2014	06:10:19.901	$GPGGA,061020,2448.7027,N,08034.4671,W,1,9,1.8,21,M,,M,,*55
06/05/2014	06:10:20.911	$GPGGA,061021,2448.7013,N,08034.4693,W,1,9,1.8,21,M,,M,,*5F
06/05/2014	06:10:22.001	$GPGGA,061022,2448.6999,N,08034.4715,W,1,9,1.8,21,M,,M,,*59
06/05/2014	06:10:23.072	$GPGGA,061023,2448.6987,N,08034.4736,W,1,9,1.8,21,M,,M,,*56
06/05/2014	06:10:23.960	$GPGGA,061024,2448.6973,N,08034.4756,W,1,9,1.8,21,M,,M,,*5C
06/05/2014	06:10:25.092	$GPGGA,061025,2448.6960,N,08034.4776,W,1,8,1.8,21,M,,M,,*5C
06/05/2014	06:10:27.537	$GPGGA,061027,2448.6934,N,08034.4817,W,1,9,1.8,21,M,,M,,*56
06/05/2014	06:10:28.141	$GPGGA,061028,2448.6919,N,08034.4839,W,1,9,1.8,21,M,,M,,*5A
06/05/2014	06:10:29.091	$GPGGA,061029,2448.6904,N,08034.4863,W,1,9,1.8,21,M,,M,,*58
06/05/2014	06:10:30.141	$GPGGA,061030,2448.6889,N,08034.4888,W,1,9,1.8,21,M,,M,,*51
06/05/2014	06:10:31.080	$GPGGA,061031,2448.6875,N,08034.4911,W,1,9,1.8,21,M,,M,,*52
06/05/2014	06:10:32.151	$GPGGA,061032,2448.6859,N,08034.4935,W,1,9,1.8,20,M,,M,,*58
06/05/2014	06:10:32.497	$GPGGA,061033,2448.6844,N,08034.4956,W,1,9,1.8,20,M,,M,,*50
06/05/2014	06:10:33.507	$GPGGA,061034,2448.6832,N,08034.4976,W,1,9,1.8,20,M,,M,,*54
06/05/2014	06:10:34.557	$GPGGA,061035,2448.6819,N,08034.4997,W,1,9,1.8,20,M,,M,,*53
06/05/2014	06:10:35.596	$GPGGA,061036,2448.6806,N,08034.5016,W,1,9,1.8,20,M,,M,,*5F
06/05/2014	06:10:36.566	$GPGGA,061037,2448.6793,N,08034.5038,W,1,9,1.8,20,M,,M,,*51
06/05/2014	06:10:37.616	$GPGGA,061038,2448.6781,N,08034.5061,W,1,9,1.8,20,M,,M,,*51
06/05/2014	06:10:38.596	$GPGGA,061039,2448.6764,N,08034.5083,W,1,8,1.8,20,M,,M,,*56
06/05/2014	06:10:39.626	$GPGGA,061040,2448.6749,N,08034.5105,W,1,8,2.0,20,M,,M,,*53
06/05/2014	06:10:40.616	$GPGGA,061041,2448.6734,N,08034.5127,W,1,8,2.0,20,M,,M,,*58
06/05/2014	06:10:41.646	$GPGGA,061042,2448.6720,N,08034.5148,W,1,8,2.0,20,M,,M,,*57
06/05/2014	06:10:42.656	$GPGGA,061043,2448.6705,N,08034.5168,W,1,8,1.8,20,M,,M,,*58
06/05/2014	06:10:43.696	$GPGGA,061044,2448.6693,N,08034.5188,W,1,8,1.8,20,M,,M,,*5F
06/05/2014	06:10:44.645	$GPGGA,061045,2448.6682,N,08034.5207,W,1,9,1.8,20,M,,M,,*5B
06/05/2014	06:10:45.665	$GPGGA,061046,2448.6669,N,08034.5228,W,1,9,1.8,20,M,,M,,*50
06/05/2014	06:10:46.705	$GPGGA,061047,2448.6655,N,08034.5249,W,1,9,1.8,20,M,,M,,*59
06/05/2014	06:10:47.695	$GPGGA,061048,2448.6639,N,08034.5269,W,1,9,1.8,20,M,,M,,*5E
06/05/2014	06:10:48.676	$GPGGA,061049,2448.6623,N,08034.5292,W,1,8,2.0,20,M,,M,,*5A
06/05/2014	06:10:49.695	$GPGGA,061050,2448.6608,N,08034.5311,W,1,8,2.0,20,M,,M,,*51
06/05/2014	06:10:50.674	$GPGGA,061051,2448.6593,N,08034.5332,W,1,8,2.0,20,M,,M,,*50
06/05/2014	06:10:51.714	$GPGGA,061052,2448.6579,N,08034.5352,W,1,8,2.0,20,M,,M,,*51
06/05/2014	06:10:52.654	$GPGGA,061053,2448.6564,N,08034.5372,W,1,8,2.0,20,M,,M,,*5E
06/05/2014	06:10:53.733	$GPGGA,061054,2448.6550,N,08034.5391,W,1,8,2.2,20,M,,M,,*51
06/05/2014	06:10:54.703	$GPGGA,061055,2448.6535,N,08034.5412,W,1,7,1.8,20,M,,M,,*59
06/05/2014	06:10:55.753	$GPGGA,061056,2448.6523,N,08034.5434,W,1,7,1.8,20,M,,M,,*59
06/05/2014	06:10:56.753	$GPGGA,061057,2448.6510,N,08034.5453,W,1,9,1.8,20,M,,M,,*57
06/05/2014	06:10:57.763	$GPGGA,061058,2448.6496,N,08034.5473,W,1,9,2.0,20,M,,M,,*5E
06/05/2014	06:10:58.833	$GPGGA,061059,2448.6481,N,08034.5495,W,1,7,1.8,20,M,,M,,*54
06/05/2014	06:10:59.793	$GPGGA,061100,2448.6465,N,08034.5514,W,1,7,1.8,20,M,,M,,*5B
06/05/2014	06:11:00.762	$GPGGA,061101,2448.6450,N,08034.5535,W,1,8,1.8,20,M,,M,,*50
06/05/2014	06:11:01.833	$GPGGA,061102,2448.6436,N,08034.5556,W,1,8,1.7,20,M,,M,,*59
06/05/2014	06:11:02.772	$GPGGA,061103,2448.6421,N,08034.5575,W,1,9,1.7,20,M,,M,,*5E
06/05/2014	06:11:03.812	$GPGGA,061104,2448.6407,N,08034.5596,W,1,9,1.7,20,M,,M,,*50
06/05/2014	06:11:04.802	$GPGGA,061105,2448.6391,N,08034.5616,W,1,9,1.7,20,M,,M,,*52
06/05/2014	06:11:05.862	$GPGGA,061106,2448.6377,N,08034.5639,W,1,9,1.7,20,M,,M,,*54
06/05/2014	06:11:06.801	$GPGGA,061107,2448.6362,N,08034.5659,W,1,9,1.7,20,M,,M,,*57
06/05/2014	06:11:07.853	$GPGGA,061108,2448.6346,N,08034.5679,W,1,9,1.7,20,M,,M,,*5C
06/05/2014	06:11:08.821	$GPGGA,061109,2448.6333,N,08034.5699,W,1,9,1.7,20,M,,M,,*51
06/05/2014	06:11:09.902	$GPGGA,061110,2448.6319,N,08034.5722,W,1,9,1.7,20,M,,M,,*50
06/05/2014	06:11:10.901	$GPGGA,061111,2448.6304,N,08034.5741,W,1,9,2.0,20,M,,M,,*5C
06/05/2014	06:11:11.890	$GPGGA,061112,2448.6288,N,08034.5762,W,1,9,2.0,20,M,,M,,*5B
06/05/2014	06:11:12.880	$GPGGA,061113,2448.6274,N,08034.5784,W,1,8,1.7,20,M,,M,,*54
06/05/2014	06:11:13.930	$GPGGA,061114,2448.6259,N,08034.5806,W,1,8,1.7,20,M,,M,,*59
06/05/2014	06:11:14.950	$GPGGA,061115,2448.6244,N,08034.5827,W,1,9,1.7,20,M,,M,,*56
06/05/2014	06:11:15.960	$GPGGA,061116,2448.6229,N,08034.5849,W,1,9,1.7,20,M,,M,,*56
06/05/2014	06:11:16.960	$GPGGA,061117,2448.6215,N,08034.5871,W,1,9,1.8,20,M,,M,,*5C
06/05/2014	06:11:17.980	$GPGGA,061118,2448.6201,N,08034.5892,W,1,9,1.7,20,M,,M,,*54
06/05/2014	06:11:19.000	$GPGGA,061119,2448.6187,N,08034.5914,W,1,9,1.7,20,M,,M,,*57
06/05/2014	06:11:19.990	$GPGGA,061120,2448.6174,N,08034.5934,W,1,9,1.8,20,M,,M,,*5C
06/05/2014	06:11:20.999	$GPGGA,061121,2448.6160,N,08034.5955,W,1,8,1.7,20,M,,M,,*51
06/05/2014	06:11:22.009	$GPGGA,061122,2448.6147,N,08034.5977,W,1,8,1.8,20,M,,M,,*58
06/05/2014	06:11:23.019	$GPGGA,061123,2448.6136,N,08034.5997,W,1,8,1.7,20,M,,M,,*5E
06/05/2014	06:11:24.036	$GPGGA,061124,2448.6136,N,08034.5997,W,1,8,1.7,20,M,,M,,*59
06/05/2014	06:11:25.049	$GPGGA,061125,2448.6109,N,08034.6038,W,1,9,1.7,20,M,,M,,*5A
06/05/2014	06:11:26.029	$GPGGA,061126,2448.6095,N,08034.6060,W,1,9,1.7,20,M,,M,,*50
06/05/2014	06:11:27.039	$GPGGA,061127,2448.6081,N,08034.6082,W,1,9,1.8,20,M,,M,,*57
06/05/2014	06:11:28.058	$GPGGA,061128,2448.6067,N,08034.6105,W,1,9,2.0,20,M,,M,,*55
06/05/2014	06:11:29.037	$GPGGA,061129,2448.6051,N,08034.6127,W,1,7,1.7,20,M,,M,,*5B
06/05/2014	06:11:30.057	$GPGGA,061130,2448.6037,N,08034.6149,W,1,7,1.8,20,M,,M,,*54
06/05/2014	06:11:31.077	$GPGGA,061131,2448.6024,N,08034.6171,W,1,8,1.8,20,M,,M,,*53
06/05/2014	06:11:32.087	$GPGGA,061132,2448.6012,N,08034.6189,W,1,8,1.7,20,M,,M,,*5D
06/05/2014	06:11:32.495	$GPGGA,061133,2448.5999,N,08034.6210,W,1,9,1.7,20,M,,M,,*57
06/05/2014	06:11:33.525	$GPGGA,061134,2448.5984,N,08034.6230,W,1,9,1.8,20,M,,M,,*51
06/05/2014	06:11:34.525	$GPGGA,061135,2448.5970,N,08034.6253,W,1,8,1.8,20,M,,M,,*5F
06/05/2014	06:11:35.565	$GPGGA,061136,2448.5970,N,08034.6253,W,1,8,1.8,20,M,,M,,*5C
06/05/2014	06:11:36.524	$GPGGA,061137,2448.5943,N,08034.6297,W,1,9,1.7,20,M,,M,,*5B
06/05/2014	06:11:37.524	$GPGGA,061138,2448.5927,N,08034.6318,W,1,9,1.7,20,M,,M,,*50
06/05/2014	06:11:38.544	$GPGGA,061139,2448.5912,N,08034.6340,W,1,9,1.7,20,M,,M,,*5A
06/05/2014	06:11:39.584	$GPGGA,061140,2448.5898,N,08034.6360,W,1,9,1.8,20,M,,M,,*5A
06/05/2014	06:11:40.564	$GPGGA,061141,2448.5898,N,08034.6360,W,1,8,1.8,20,M,,M,,*5A
06/05/2014	06:11:41.554	$GPGGA,061142,2448.5883,N,08034.6381,W,1,8,1.7,20,M,,M,,*53
06/05/2014	06:11:42.584	$GPGGA,061143,2448.5855,N,08034.6423,W,1,9,1.7,20,M,,M,,*57
06/05/2014	06:11:43.584	$GPGGA,061144,2448.5855,N,08034.6423,W,1,9,1.8,20,M,,M,,*5F
06/05/2014	06:11:44.624	$GPGGA,061145,2448.5826,N,08034.6467,W,1,9,1.7,20,M,,M,,*55
06/05/2014	06:11:45.602	$GPGGA,061146,2448.5826,N,08034.6467,W,1,9,1.7,20,M,,M,,*56
06/05/2014	06:11:46.592	$GPGGA,061147,2448.5799,N,08034.6510,W,1,9,1.7,20,M,,M,,*5D
06/05/2014	06:11:47.733	$GPGGA,061148,2448.5785,N,08034.6529,W,1,9,1.7,20,M,,M,,*55
06/05/2014	06:11:48.622	$GPGGA,061149,2448.5773,N,08034.6550,W,1,9,1.7,20,M,,M,,*53
06/05/2014	06:11:49.612	$GPGGA,061150,2448.5773,N,08034.6550,W,1,9,1.7,20,M,,M,,*5B
