Software Version Number: 1	Data File Format Number: 1	Build Version Number: 1	Error Count Since VI Started: 0	Manufacturer: Raytheon	 Model Number: RayMarine 120	 S/N: 	 Cal Date: 	 Wind Direction Offset: 0.00	 Slope (M)1: 0.00	 Offset (B)1: 0.00	 Slope (M)2: 0.00	 Offset (B)2: 0.00	 Slope (M)3: 0.00	 Offset (B)3: 0.00	 Slope (M)4: 0.00	 Offset (B)4: 0.00	 Slope (M)5: 0.00	 Offset (B)5: 0.00	 Slope (M)6: 0.00	 Offset (B)6: 0.00
Computer Date	Computer Time	GGA String
05/28/2014	09:00:00.185	$GPGGA,090000,2543.8831,N,08009.7273,W,1,9,1.5,17,M,,M,,*50
05/28/2014	09:00:01.212	$GPGGA,090001,2543.8833,N,08009.7274,W,1,9,1.5,17,M,,M,,*54
05/28/2014	09:00:02.208	$GPGGA,090002,2543.8832,N,08009.7274,W,1,9,1.5,17,M,,M,,*56
05/28/2014	09:00:03.265	$GPGGA,090003,2543.8833,N,08009.7274,W,1,9,1.5,17,M,,M,,*56
05/28/2014	09:00:04.282	$GPGGA,090004,2543.8832,N,08009.7274,W,1,9,1.5,17,M,,M,,*50
05/28/2014	09:00:05.288	$GPGGA,090005,2543.8833,N,08009.7274,W,1,9,1.5,17,M,,M,,*50
05/28/2014	09:00:06.325	$GPGGA,090006,2543.8832,N,08009.7274,W,1,9,1.6,17,M,,M,,*51
05/28/2014	09:00:07.331	$GPGGA,090007,2543.8833,N,08009.7273,W,1,9,1.5,17,M,,M,,*55
05/28/2014	09:00:08.367	$GPGGA,090008,2543.8834,N,08009.7273,W,1,9,1.5,17,M,,M,,*5D
05/28/2014	09:00:09.404	$GPGGA,090009,2543.8833,N,08009.7273,W,1,9,1.5,17,M,,M,,*5B
05/28/2014	09:00:10.420	$GPGGA,090010,2543.8835,N,08009.7272,W,1,9,1.5,17,M,,M,,*54
05/28/2014	09:00:11.426	$GPGGA,090011,2543.8835,N,08009.7271,W,1,9,1.5,17,M,,M,,*56
05/28/2014	09:00:12.463	$GPGGA,090012,2543.8835,N,08009.7270,W,1,9,1.5,17,M,,M,,*54
05/28/2014	09:00:13.490	$GPGGA,090013,2543.8835,N,08009.7270,W,1,9,1.5,17,M,,M,,*55
05/28/2014	09:00:14.517	$GPGGA,090014,2543.8837,N,08009.7270,W,1,9,1.5,17,M,,M,,*50
05/28/2014	09:00:15.554	$GPGGA,090015,2543.8836,N,08009.7269,W,1,9,1.5,17,M,,M,,*58
05/28/2014	09:00:16.570	$GPGGA,090016,2543.8837,N,08009.7269,W,1,9,1.5,17,M,,M,,*5A
05/28/2014	09:00:17.607	$GPGGA,090017,2543.8836,N,08009.7268,W,1,9,1.5,17,M,,M,,*5B
05/28/2014	09:00:18.613	$GPGGA,090018,2543.8837,N,08009.7269,W,1,9,1.5,17,M,,M,,*54
05/28/2014	09:00:19.630	$GPGGA,090019,2543.8836,N,08009.7268,W,1,9,1.5,17,M,,M,,*55
05/28/2014	09:00:20.677	$GPGGA,090020,2543.8837,N,08009.7267,W,1,9,1.5,17,M,,M,,*51
05/28/2014	09:00:21.714	$GPGGA,090021,2543.8836,N,08009.7267,W,1,9,1.5,17,M,,M,,*51
05/28/2014	09:00:22.700	$GPGGA,090022,2543.8837,N,08009.7267,W,1,9,1.5,17,M,,M,,*53
05/28/2014	09:00:23.767	$GPGGA,090023,2543.8836,N,08009.7267,W,1,9,1.5,17,M,,M,,*53
05/28/2014	09:00:24.773	$GPGGA,090024,2543.8837,N,08009.7267,W,1,9,1.5,17,M,,M,,*55
05/28/2014	09:00:25.820	$GPGGA,090025,2543.8836,N,08009.7267,W,1,9,1.5,17,M,,M,,*55
05/28/2014	09:00:26.805	$GPGGA,090026,2543.8837,N,08009.7267,W,1,9,1.5,17,M,,M,,*57
05/28/2014	09:00:27.832	$GPGGA,090027,2543.8836,N,08009.7267,W,1,9,1.5,17,M,,M,,*57
05/28/2014	09:00:28.879	$GPGGA,090028,2543.8837,N,08009.7267,W,1,9,1.5,17,M,,M,,*59
05/28/2014	09:00:29.917	$GPGGA,090029,2543.8836,N,08009.7267,W,1,9,1.5,17,M,,M,,*59
05/28/2014	09:00:30.912	$GPGGA,090030,2543.8838,N,08009.7267,W,1,9,1.5,17,M,,M,,*5F
05/28/2014	09:00:31.949	$GPGGA,090031,2543.8837,N,08009.7267,W,1,9,1.5,17,M,,M,,*51
05/28/2014	09:00:32.976	$GPGGA,090032,2543.8838,N,08009.7267,W,1,9,1.5,17,M,,M,,*5D
05/28/2014	09:00:33.972	$GPGGA,090033,2543.8839,N,08009.7267,W,1,9,1.5,17,M,,M,,*5D
05/28/2014	09:00:34.998	$GPGGA,090034,2543.8839,N,08009.7266,W,1,9,1.5,18,M,,M,,*54
05/28/2014	09:00:36.046	$GPGGA,090035,2543.8839,N,08009.7266,W,1,9,1.5,18,M,,M,,*55
05/28/2014	09:00:37.052	$GPGGA,090036,2543.8839,N,08009.7266,W,1,9,1.5,18,M,,M,,*56
05/28/2014	09:00:38.253	$GPGGA,090037,2543.8839,N,08009.7266,W,1,9,1.5,18,M,,M,,*57
05/28/2014	09:00:39.105	$GPGGA,090038,2543.8839,N,08009.7266,W,1,9,1.5,18,M,,M,,*58
05/28/2014	09:00:38.531	$GPGGA,090039,2543.8839,N,08009.7266,W,1,9,1.5,18,M,,M,,*59
05/28/2014	09:00:39.660	$GPGGA,090040,2543.8839,N,08009.7266,W,1,9,1.5,18,M,,M,,*57
05/28/2014	09:00:40.574	$GPGGA,090041,2543.8839,N,08009.7266,W,1,9,1.5,18,M,,M,,*56
05/28/2014	09:00:41.693	$GPGGA,090042,2543.8839,N,08009.7266,W,1,9,1.5,18,M,,M,,*55
05/28/2014	09:00:42.811	$GPGGA,090043,2543.8839,N,08009.7266,W,1,9,1.5,18,M,,M,,*54
05/28/2014	09:00:43.756	$GPGGA,090044,2543.8839,N,08009.7266,W,1,9,1.5,18,M,,M,,*53
05/28/2014	09:00:44.875	$GPGGA,090045,2543.8839,N,08009.7266,W,1,9,1.5,18,M,,M,,*52
05/28/2014	09:00:45.706	$GPGGA,090046,2543.8839,N,08009.7266,W,1,9,1.5,18,M,,M,,*51
05/28/2014	09:00:46.750	$GPGGA,090047,2543.8839,N,08009.7266,W,1,9,1.5,18,M,,M,,*50
05/28/2014	09:00:47.760	$GPGGA,090048,2543.8839,N,08009.7266,W,1,9,1.5,18,M,,M,,*5F
05/28/2014	09:00:48.870	$GPGGA,090049,2543.8839,N,08009.7265,W,1,9,1.5,18,M,,M,,*5D
05/28/2014	09:00:49.794	$GPGGA,090050,2543.8841,N,08009.7265,W,1,9,1.5,18,M,,M,,*5A
05/28/2014	09:00:50.973	$GPGGA,090051,2543.8840,N,08009.7265,W,1,9,1.5,18,M,,M,,*5A
05/28/2014	09:00:52.000	$GPGGA,090052,2543.8841,N,08009.7265,W,1,9,1.5,18,M,,M,,*58
05/28/2014	09:00:53.068	$GPGGA,090053,2543.8840,N,08009.7265,W,1,9,1.5,18,M,,M,,*58
05/28/2014	09:00:54.023	$GPGGA,090054,2543.8841,N,08009.7265,W,1,9,1.5,18,M,,M,,*5E
05/28/2014	09:00:55.121	$GPGGA,090055,2543.8842,N,08009.7265,W,1,9,1.5,18,M,,M,,*5C
05/28/2014	09:00:56.107	$GPGGA,090056,2543.8842,N,08009.7265,W,1,9,1.5,18,M,,M,,*5F
05/28/2014	09:00:57.062	$GPGGA,090057,2543.8842,N,08009.7265,W,1,9,1.5,18,M,,M,,*5E
05/28/2014	09:00:58.088	$GPGGA,090058,2543.8842,N,08009.7265,W,1,9,1.5,18,M,,M,,*51
05/28/2014	09:00:59.228	$GPGGA,090059,2543.8842,N,08009.7264,W,1,9,1.5,18,M,,M,,*51
05/28/2014	09:01:00.161	$GPGGA,090100,2543.8842,N,08009.7265,W,1,9,1.5,18,M,,M,,*5D
05/28/2014	09:01:01.219	$GPGGA,090101,2543.8842,N,08009.7264,W,1,9,1.5,18,M,,M,,*5D
05/28/2014	09:01:02.215	$GPGGA,090102,2543.8842,N,08009.7265,W,1,9,1.5,18,M,,M,,*5F
05/28/2014	09:01:03.284	$GPGGA,090103,2543.8842,N,08009.7263,W,1,9,1.5,19,M,,M,,*59
05/28/2014	09:01:04.300	$GPGGA,090104,2543.8842,N,08009.7263,W,1,9,1.5,19,M,,M,,*5E
05/28/2014	09:01:05.336	$GPGGA,090105,2543.8842,N,08009.7263,W,1,9,1.5,19,M,,M,,*5F
05/28/2014	09:01:06.311	$GPGGA,090106,2543.8842,N,08009.7263,W,1,9,1.5,19,M,,M,,*5C
05/28/2014	09:01:07.420	$GPGGA,090107,2543.8842,N,08009.7263,W,1,9,1.5,19,M,,M,,*5D
05/28/2014	09:01:08.375	$GPGGA,090108,2543.8842,N,08009.7263,W,1,9,1.5,19,M,,M,,*52
05/28/2014	09:01:09.361	$GPGGA,090109,2543.8842,N,08009.7263,W,1,9,1.5,19,M,,M,,*53
05/28/2014	09:01:10.428	$GPGGA,090110,2543.8842,N,08009.7263,W,1,9,1.5,19,M,,M,,*5B
05/28/2014	09:01:11.404	$GPGGA,090111,2543.8842,N,08009.7263,W,1,9,1.5,19,M,,M,,*5A
05/28/2014	09:01:12.492	$GPGGA,090112,2543.8842,N,08009.7263,W,1,9,1.5,19,M,,M,,*59
05/28/2014	09:01:13.467	$GPGGA,090113,2543.8842,N,08009.7265,W,1,9,1.5,19,M,,M,,*5E
05/28/2014	09:01:14.535	$GPGGA,090114,2543.8842,N,08009.7264,W,1,9,1.5,19,M,,M,,*58
05/28/2014	09:01:15.634	$GPGGA,090115,2543.8842,N,08009.7265,W,1,9,1.5,19,M,,M,,*58
05/28/2014	09:01:16.578	$GPGGA,090116,2543.8842,N,08009.7264,W,1,9,1.5,19,M,,M,,*5A
05/28/2014	09:01:17.687	$GPGGA,090117,2543.8842,N,08009.7265,W,1,9,1.5,19,M,,M,,*5A
05/28/2014	09:01:18.620	$GPGGA,090118,2543.8842,N,08009.7265,W,1,9,1.5,19,M,,M,,*55
05/28/2014	09:01:19.709	$GPGGA,090119,2543.8842,N,08009.7265,W,1,9,1.5,19,M,,M,,*54
05/28/2014	09:01:20.675	$GPGGA,090120,2543.8842,N,08009.7265,W,1,9,1.5,19,M,,M,,*5E
05/28/2014	09:01:21.731	$GPGGA,090121,2543.8842,N,08009.7265,W,1,9,1.5,19,M,,M,,*5F
05/28/2014	09:01:22.677	$GPGGA,090122,2543.8842,N,08009.7265,W,1,9,1.5,19,M,,M,,*5C
05/28/2014	09:01:23.826	$GPGGA,090123,2543.8840,N,08009.7265,W,1,9,1.5,19,M,,M,,*5F
05/28/2014	09:01:24.770	$GPGGA,090124,2543.8841,N,08009.7265,W,1,9,1.5,19,M,,M,,*59
05/28/2014	09:01:25.848	$GPGGA,090125,2543.8842,N,08009.7265,W,1,9,1.5,19,M,,M,,*5B
05/28/2014	09:01:26.803	$GPGGA,090126,2543.8842,N,08009.7265,W,1,9,1.5,19,M,,M,,*58
05/28/2014	09:01:27.810	$GPGGA,090127,2543.8842,N,08009.7265,W,1,9,1.5,19,M,,M,,*59
05/28/2014	09:01:28.887	$GPGGA,090128,2543.8840,N,08009.7265,W,1,9,1.6,19,M,,M,,*57
05/28/2014	09:01:29.935	$GPGGA,090129,2543.8841,N,08009.7265,W,1,8,1.6,19,M,,M,,*56
05/28/2014	09:01:30.901	$GPGGA,090130,2543.8840,N,08009.7266,W,1,8,1.6,19,M,,M,,*5C
05/28/2014	09:01:32.029	$GPGGA,090131,2543.8842,N,08009.7266,W,1,8,1.5,19,M,,M,,*5C
05/28/2014	09:01:32.984	$GPGGA,090132,2543.8842,N,08009.7265,W,1,8,1.5,19,M,,M,,*5C
05/28/2014	09:01:33.949	$GPGGA,090133,2543.8842,N,08009.7265,W,1,9,1.5,19,M,,M,,*5C
05/28/2014	09:01:35.007	$GPGGA,090134,2543.8844,N,08009.7264,W,1,9,1.5,19,M,,M,,*5C
05/28/2014	09:01:36.094	$GPGGA,090135,2543.8846,N,08009.7262,W,1,9,1.5,19,M,,M,,*59
05/28/2014	09:01:37.079	$GPGGA,090136,2543.8846,N,08009.7262,W,1,9,1.5,19,M,,M,,*5A
05/28/2014	09:01:38.147	$GPGGA,090137,2543.8846,N,08009.7262,W,1,9,1.6,19,M,,M,,*58
05/28/2014	09:01:39.071	$GPGGA,090138,2543.8846,N,08009.7261,W,1,9,1.6,19,M,,M,,*54
05/28/2014	09:01:38.642	$GPGGA,090139,2543.8846,N,08009.7262,W,1,9,1.6,19,M,,M,,*56
05/28/2014	09:01:39.638	$GPGGA,090140,2543.8848,N,08009.7261,W,1,9,1.5,19,M,,M,,*56
05/28/2014	09:01:40.716	$GPGGA,090141,2543.8847,N,08009.7260,W,1,9,1.5,19,M,,M,,*59
05/28/2014	09:01:41.671	$GPGGA,090142,2543.8848,N,08009.7261,W,1,9,1.5,19,M,,M,,*54
05/28/2014	09:01:42.708	$GPGGA,090143,2543.8847,N,08009.7260,W,1,9,1.6,19,M,,M,,*58
05/28/2014	09:01:43.744	$GPGGA,090144,2543.8846,N,08009.7262,W,1,9,1.6,19,M,,M,,*5C
05/28/2014	09:01:44.803	$GPGGA,090145,2543.8846,N,08009.7261,W,1,8,1.5,19,M,,M,,*5C
05/28/2014	09:01:45.777	$GPGGA,090146,2543.8846,N,08009.7262,W,1,8,1.6,19,M,,M,,*5F
05/28/2014	09:01:46.876	$GPGGA,090147,2543.8846,N,08009.7261,W,1,8,1.6,19,M,,M,,*5D
05/28/2014	09:01:47.841	$GPGGA,090148,2543.8846,N,08009.7262,W,1,8,1.6,19,M,,M,,*51
05/28/2014	09:01:48.919	$GPGGA,090149,2543.8846,N,08009.7262,W,1,8,1.6,19,M,,M,,*50
05/28/2014	09:01:49.874	$GPGGA,090150,2543.8846,N,08009.7262,W,1,8,1.6,19,M,,M,,*58
05/28/2014	09:01:50.952	$GPGGA,090151,2543.8846,N,08009.7262,W,1,8,1.6,19,M,,M,,*59
05/28/2014	09:01:51.939	$GPGGA,090152,2543.8846,N,08009.7262,W,1,8,1.6,19,M,,M,,*5A
05/28/2014	09:01:53.025	$GPGGA,090153,2543.8846,N,08009.7262,W,1,8,1.6,19,M,,M,,*5B
05/28/2014	09:01:53.969	$GPGGA,090154,2543.8846,N,08009.7262,W,1,8,1.6,19,M,,M,,*5C
05/28/2014	09:01:55.027	$GPGGA,090155,2543.8846,N,08009.7262,W,1,8,1.6,19,M,,M,,*5D
05/28/2014	09:01:56.043	$GPGGA,090156,2543.8846,N,08009.7262,W,1,8,1.6,19,M,,M,,*5E
05/28/2014	09:01:57.080	$GPGGA,090157,2543.8848,N,08009.7262,W,1,8,1.6,19,M,,M,,*51
05/28/2014	09:01:58.066	$GPGGA,090158,2543.8847,N,08009.7262,W,1,8,1.6,19,M,,M,,*51
05/28/2014	09:01:59.123	$GPGGA,090159,2543.8848,N,08009.7262,W,1,8,1.6,19,M,,M,,*5F
05/28/2014	09:02:00.140	$GPGGA,090200,2543.8847,N,08009.7262,W,1,8,1.6,19,M,,M,,*5F
05/28/2014	09:02:01.178	$GPGGA,090201,2543.8849,N,08009.7261,W,1,8,1.6,19,M,,M,,*53
05/28/2014	09:02:02.162	$GPGGA,090202,2543.8848,N,08009.7262,W,1,8,1.6,19,M,,M,,*52
05/28/2014	09:02:03.302	$GPGGA,090203,2543.8849,N,08009.7261,W,1,8,1.6,19,M,,M,,*51
05/28/2014	09:02:04.236	$GPGGA,090204,2543.8848,N,08009.7262,W,1,8,1.6,19,M,,M,,*54
05/28/2014	09:02:05.294	$GPGGA,090205,2543.8849,N,08009.7261,W,1,8,1.6,19,M,,M,,*57
05/28/2014	09:02:06.281	$GPGGA,090206,2543.8848,N,08009.7262,W,1,8,1.6,19,M,,M,,*56
05/28/2014	09:02:07.383	$GPGGA,090207,2543.8849,N,08009.7261,W,1,8,1.6,19,M,,M,,*55
05/28/2014	09:02:08.343	$GPGGA,090208,2543.8849,N,08009.7262,W,1,8,1.6,19,M,,M,,*59
05/28/2014	09:02:09.412	$GPGGA,090209,2543.8849,N,08009.7261,W,1,8,1.6,19,M,,M,,*5B
05/28/2014	09:02:10.385	$GPGGA,090210,2543.8849,N,08009.7262,W,1,8,1.6,19,M,,M,,*50
05/28/2014	09:02:11.443	$GPGGA,090211,2543.8849,N,08009.7262,W,1,8,1.6,19,M,,M,,*51
05/28/2014	09:02:12.439	$GPGGA,090212,2543.8852,N,08009.7260,W,1,8,1.6,19,M,,M,,*5A
05/28/2014	09:02:13.506	$GPGGA,090213,2543.8853,N,08009.7258,W,1,9,1.5,20,M,,M,,*59
05/28/2014	09:02:14.570	$GPGGA,090214,2543.8856,N,08009.7257,W,1,9,1.5,20,M,,M,,*54
05/28/2014	09:02:15.508	$GPGGA,090215,2543.8854,N,08009.7258,W,1,9,1.5,20,M,,M,,*58
05/28/2014	09:02:16.535	$GPGGA,090216,2543.8855,N,08009.7259,W,1,9,1.6,20,M,,M,,*58
05/28/2014	09:02:17.572	$GPGGA,090217,2543.8855,N,08009.7259,W,1,8,1.6,20,M,,M,,*58
05/28/2014	09:02:18.660	$GPGGA,090218,2543.8853,N,08009.7261,W,1,8,1.6,20,M,,M,,*5A
05/28/2014	09:02:19.605	$GPGGA,090219,2543.8853,N,08009.7261,W,1,8,1.6,20,M,,M,,*5B
05/28/2014	09:02:20.632	$GPGGA,090220,2543.8853,N,08009.7261,W,1,8,1.6,20,M,,M,,*51
05/28/2014	09:02:21.648	$GPGGA,090221,2543.8853,N,08009.7261,W,1,8,1.6,20,M,,M,,*50
05/28/2014	09:02:22.675	$GPGGA,090222,2543.8855,N,08009.7262,W,1,8,1.6,20,M,,M,,*56
05/28/2014	09:02:23.814	$GPGGA,090223,2543.8854,N,08009.7262,W,1,8,1.6,20,M,,M,,*56
05/28/2014	09:02:24.729	$GPGGA,090224,2543.8855,N,08009.7262,W,1,8,1.6,20,M,,M,,*50
05/28/2014	09:02:25.827	$GPGGA,090225,2543.8854,N,08009.7262,W,1,8,1.6,20,M,,M,,*50
05/28/2014	09:02:26.751	$GPGGA,090226,2543.8855,N,08009.7263,W,1,8,1.6,20,M,,M,,*53
05/28/2014	09:02:27.901	$GPGGA,090227,2543.8854,N,08009.7263,W,1,8,1.6,20,M,,M,,*53
05/28/2014	09:02:28.824	$GPGGA,090228,2543.8855,N,08009.7263,W,1,8,1.6,20,M,,M,,*5D
05/28/2014	09:02:29.840	$GPGGA,090229,2543.8855,N,08009.7263,W,1,8,1.6,20,M,,M,,*5C
05/28/2014	09:02:30.959	$GPGGA,090230,2543.8855,N,08009.7265,W,1,8,1.6,20,M,,M,,*52
05/28/2014	09:02:31.986	$GPGGA,090231,2543.8854,N,08009.7264,W,1,8,1.6,20,M,,M,,*53
05/28/2014	09:02:33.023	$GPGGA,090232,2543.8855,N,08009.7265,W,1,8,1.6,20,M,,M,,*50
05/28/2014	09:02:34.050	$GPGGA,090233,2543.8854,N,08009.7264,W,1,8,1.6,20,M,,M,,*51
05/28/2014	09:02:35.066	$GPGGA,090234,2543.8853,N,08009.7265,W,1,8,1.6,20,M,,M,,*50
05/28/2014	09:02:36.103	$GPGGA,090235,2543.8853,N,08009.7265,W,1,8,1.6,19,M,,M,,*5B
05/28/2014	09:02:37.130	$GPGGA,090236,2543.8855,N,08009.7265,W,1,8,1.6,19,M,,M,,*5E
05/28/2014	09:02:38.156	$GPGGA,090237,2543.8854,N,08009.7265,W,1,8,1.6,19,M,,M,,*5E
05/28/2014	09:02:39.163	$GPGGA,090238,2543.8855,N,08009.7265,W,1,8,1.6,19,M,,M,,*50
05/28/2014	09:02:38.579	$GPGGA,090239,2543.8853,N,08009.7265,W,1,8,1.6,19,M,,M,,*57
05/28/2014	09:02:39.616	$GPGGA,090240,2543.8853,N,08009.7265,W,1,8,1.6,19,M,,M,,*59
05/28/2014	09:02:40.653	$GPGGA,090241,2543.8853,N,08009.7265,W,1,8,1.6,19,M,,M,,*58
05/28/2014	09:02:41.659	$GPGGA,090242,2543.8853,N,08009.7265,W,1,8,1.6,19,M,,M,,*5B
05/28/2014	09:02:42.686	$GPGGA,090243,2543.8853,N,08009.7266,W,1,8,1.6,19,M,,M,,*59
05/28/2014	09:02:43.713	$GPGGA,090244,2543.8853,N,08009.7266,W,1,8,1.6,19,M,,M,,*5E
05/28/2014	09:02:44.749	$GPGGA,090245,2543.8853,N,08009.7266,W,1,8,1.6,19,M,,M,,*5F
05/28/2014	09:02:45.744	$GPGGA,090246,2543.8851,N,08009.7266,W,1,8,1.6,19,M,,M,,*5E
05/28/2014	09:02:46.802	$GPGGA,090247,2543.8852,N,08009.7267,W,1,7,1.9,19,M,,M,,*5D
05/28/2014	09:02:47.818	$GPGGA,090248,2543.8850,N,08009.7267,W,1,7,1.9,19,M,,M,,*50
05/28/2014	09:02:48.825	$GPGGA,090249,2543.8849,N,08009.7267,W,1,7,1.9,19,M,,M,,*59
05/28/2014	09:02:49.851	$GPGGA,090250,2543.8849,N,08009.7269,W,1,7,1.9,19,M,,M,,*5F
05/28/2014	09:02:50.888	$GPGGA,090251,2543.8848,N,08009.7268,W,1,7,1.9,19,M,,M,,*5E
05/28/2014	09:02:51.915	$GPGGA,090252,2543.8847,N,08009.7269,W,1,7,1.9,19,M,,M,,*53
05/28/2014	09:02:52.952	$GPGGA,090253,2543.8848,N,08009.7268,W,1,7,1.9,19,M,,M,,*5C
05/28/2014	09:02:53.937	$GPGGA,090254,2543.8846,N,08009.7269,W,1,7,1.9,19,M,,M,,*54
05/28/2014	09:02:55.005	$GPGGA,090255,2543.8846,N,08009.7268,W,1,7,1.9,19,M,,M,,*54
05/28/2014	09:02:56.011	$GPGGA,090256,2543.8846,N,08009.7269,W,1,7,1.9,19,M,,M,,*56
05/28/2014	09:02:57.059	$GPGGA,090257,2543.8844,N,08009.7267,W,1,7,1.9,19,M,,M,,*5B
05/28/2014	09:02:58.048	$GPGGA,090258,2543.8845,N,08009.7267,W,1,7,1.9,19,M,,M,,*55
05/28/2014	09:02:59.112	$GPGGA,090259,2543.8843,N,08009.7267,W,1,7,1.9,19,M,,M,,*52
05/28/2014	09:03:00.128	$GPGGA,090300,2543.8844,N,08009.7267,W,1,7,1.9,19,M,,M,,*58
05/28/2014	09:03:01.124	$GPGGA,090301,2543.8843,N,08009.7267,W,1,7,1.9,19,M,,M,,*5E
05/28/2014	09:03:02.141	$GPGGA,090302,2543.8842,N,08009.7267,W,1,7,1.9,19,M,,M,,*5C
05/28/2014	09:03:03.187	$GPGGA,090303,2543.8842,N,08009.7267,W,1,7,1.9,19,M,,M,,*5D
05/28/2014	09:03:04.206	$GPGGA,090304,2543.8849,N,08009.7265,W,1,7,1.9,19,M,,M,,*53
05/28/2014	09:03:05.240	$GPGGA,090305,2543.8848,N,08009.7265,W,1,8,1.6,19,M,,M,,*53
05/28/2014	09:03:06.248	$GPGGA,090306,2543.8847,N,08009.7265,W,1,8,1.9,19,M,,M,,*50
05/28/2014	09:03:07.304	$GPGGA,090307,2543.8846,N,08009.7265,W,1,7,1.9,19,M,,M,,*5F
05/28/2014	09:03:08.310	$GPGGA,090308,2543.8846,N,08009.7265,W,1,7,1.9,19,M,,M,,*50
05/28/2014	09:03:09.440	$GPGGA,090309,2543.8846,N,08009.7265,W,1,7,1.9,19,M,,M,,*51
05/28/2014	09:03:10.344	$GPGGA,090310,2543.8844,N,08009.7265,W,1,7,1.9,19,M,,M,,*5B
05/28/2014	09:03:11.472	$GPGGA,090311,2543.8849,N,08009.7263,W,1,7,1.9,19,M,,M,,*51
05/28/2014	09:03:12.397	$GPGGA,090312,2543.8853,N,08009.7261,W,1,7,1.6,19,M,,M,,*54
05/28/2014	09:03:13.433	$GPGGA,090313,2543.8850,N,08009.7262,W,1,8,1.6,19,M,,M,,*5A
05/28/2014	09:03:14.532	$GPGGA,090314,2543.8859,N,08009.7259,W,1,8,1.9,19,M,,M,,*53
05/28/2014	09:03:15.590	$GPGGA,090315,2543.8857,N,08009.7261,W,1,8,1.6,19,M,,M,,*58
05/28/2014	09:03:16.616	$GPGGA,090316,2543.8860,N,08009.7259,W,1,8,1.9,19,M,,M,,*5B
05/28/2014	09:03:17.612	$GPGGA,090317,2543.8863,N,08009.7257,W,1,8,1.6,19,M,,M,,*58
05/28/2014	09:03:18.546	$GPGGA,090318,2543.8867,N,08009.7255,W,1,8,1.6,19,M,,M,,*51
05/28/2014	09:03:19.696	$GPGGA,090319,2543.8864,N,08009.7256,W,1,8,1.6,20,M,,M,,*5A
05/28/2014	09:03:20.712	$GPGGA,090320,2543.8870,N,08009.7254,W,1,8,1.9,20,M,,M,,*58
05/28/2014	09:03:21.759	$GPGGA,090321,2543.8873,N,08009.7252,W,1,8,1.6,20,M,,M,,*53
05/28/2014	09:03:22.734	$GPGGA,090322,2543.8875,N,08009.7252,W,1,8,1.6,20,M,,M,,*56
05/28/2014	09:03:23.761	$GPGGA,090323,2543.8871,N,08009.7254,W,1,8,1.6,20,M,,M,,*55
05/28/2014	09:03:24.798	$GPGGA,090324,2543.8873,N,08009.7253,W,1,8,1.9,20,M,,M,,*58
05/28/2014	09:03:25.825	$GPGGA,090325,2543.8875,N,08009.7252,W,1,8,1.6,20,M,,M,,*51
05/28/2014	09:03:26.831	$GPGGA,090326,2543.8878,N,08009.7251,W,1,8,1.6,20,M,,M,,*5C
05/28/2014	09:03:27.858	$GPGGA,090327,2543.8878,N,08009.7250,W,1,8,1.6,21,M,,M,,*5D
05/28/2014	09:03:28.905	$GPGGA,090328,2543.8875,N,08009.7252,W,1,8,1.6,21,M,,M,,*5D
05/28/2014	09:03:29.932	$GPGGA,090329,2543.8871,N,08009.7254,W,1,7,1.9,21,M,,M,,*5E
05/28/2014	09:03:30.938	$GPGGA,090330,2543.8867,N,08009.7255,W,1,7,1.9,21,M,,M,,*50
05/28/2014	09:03:31.985	$GPGGA,090331,2543.8864,N,08009.7256,W,1,7,1.9,21,M,,M,,*51
05/28/2014	09:03:33.002	$GPGGA,090332,2543.8867,N,08009.7254,W,1,7,1.9,21,M,,M,,*53
05/28/2014	09:03:34.028	$GPGGA,090333,2543.8864,N,08009.7256,W,1,8,1.6,21,M,,M,,*53
05/28/2014	09:03:35.024	$GPGGA,090334,2543.8862,N,08009.7258,W,1,8,1.9,21,M,,M,,*53
05/28/2014	09:03:36.081	$GPGGA,090335,2543.8859,N,08009.7258,W,1,7,1.9,21,M,,M,,*55
05/28/2014	09:03:37.098	$GPGGA,090336,2543.8857,N,08009.7259,W,1,7,1.9,21,M,,M,,*59
05/28/2014	09:03:38.104	$GPGGA,090337,2543.8855,N,08009.7261,W,1,7,1.9,21,M,,M,,*51
05/28/2014	09:03:39.130	$GPGGA,090338,2543.8853,N,08009.7260,W,1,7,1.9,21,M,,M,,*59
05/28/2014	09:03:38.586	$GPGGA,090339,2543.8851,N,08009.7262,W,1,7,1.9,21,M,,M,,*58
05/28/2014	09:03:39.603	$GPGGA,090340,2543.8849,N,08009.7261,W,1,7,1.9,21,M,,M,,*5C
05/28/2014	09:03:40.640	$GPGGA,090341,2543.8848,N,08009.7262,W,1,7,1.9,21,M,,M,,*5F
05/28/2014	09:03:41.625	$GPGGA,090342,2543.8846,N,08009.7262,W,1,7,1.9,21,M,,M,,*52
05/28/2014	09:03:42.724	$GPGGA,090343,2543.8846,N,08009.7262,W,1,7,1.9,21,M,,M,,*53
05/28/2014	09:03:43.689	$GPGGA,090344,2543.8843,N,08009.7262,W,1,7,1.9,21,M,,M,,*51
05/28/2014	09:03:44.695	$GPGGA,090345,2543.8844,N,08009.7262,W,1,7,1.9,21,M,,M,,*57
05/28/2014	09:03:45.732	$GPGGA,090346,2543.8842,N,08009.7263,W,1,7,1.9,21,M,,M,,*53
05/28/2014	09:03:46.749	$GPGGA,090347,2543.8842,N,08009.7263,W,1,7,1.9,21,M,,M,,*52
05/28/2014	09:03:47.796	$GPGGA,090348,2543.8840,N,08009.7263,W,1,7,1.9,21,M,,M,,*5F
05/28/2014	09:03:48.792	$GPGGA,090349,2543.8839,N,08009.7263,W,1,7,1.9,21,M,,M,,*50
05/28/2014	09:03:49.829	$GPGGA,090350,2543.8839,N,08009.7263,W,1,7,1.9,21,M,,M,,*58
05/28/2014	09:03:50.866	$GPGGA,090351,2543.8839,N,08009.7265,W,1,7,1.9,21,M,,M,,*5F
05/28/2014	09:03:51.903	$GPGGA,090352,2543.8839,N,08009.7263,W,1,7,1.9,20,M,,M,,*5B
05/28/2014	09:03:52.909	$GPGGA,090353,2543.8837,N,08009.7263,W,1,7,1.9,20,M,,M,,*54
05/28/2014	09:03:53.925	$GPGGA,090354,2543.8838,N,08009.7263,W,1,7,1.9,20,M,,M,,*5C
05/28/2014	09:03:54.961	$GPGGA,090355,2543.8836,N,08009.7263,W,1,7,1.9,20,M,,M,,*53
05/28/2014	09:03:55.978	$GPGGA,090356,2543.8837,N,08009.7263,W,1,7,1.9,20,M,,M,,*51
05/28/2014	09:03:57.015	$GPGGA,090357,2543.8836,N,08009.7263,W,1,7,1.9,20,M,,M,,*51
05/28/2014	09:03:58.042	$GPGGA,090358,2543.8837,N,08009.7262,W,1,7,1.9,20,M,,M,,*5E
05/28/2014	09:03:59.059	$GPGGA,090359,2543.8836,N,08009.7262,W,1,7,1.9,20,M,,M,,*5E
05/28/2014	09:04:00.105	$GPGGA,090400,2543.8837,N,08009.7262,W,1,7,1.9,20,M,,M,,*54
05/28/2014	09:04:01.091	$GPGGA,090401,2543.8836,N,08009.7262,W,1,7,1.9,20,M,,M,,*54
05/28/2014	09:04:02.220	$GPGGA,090402,2543.8837,N,08009.7263,W,1,7,1.9,20,M,,M,,*57
05/28/2014	09:04:03.247	$GPGGA,090403,2543.8838,N,08009.7263,W,1,7,1.9,20,M,,M,,*59
05/28/2014	09:04:04.192	$GPGGA,090404,2543.8836,N,08009.7263,W,1,7,1.9,20,M,,M,,*50
05/28/2014	09:04:05.198	$GPGGA,090405,2543.8838,N,08009.7263,W,1,7,1.9,20,M,,M,,*5F
05/28/2014	09:04:06.316	$GPGGA,090406,2543.8837,N,08009.7263,W,1,7,1.9,20,M,,M,,*53
05/28/2014	09:04:07.374	$GPGGA,090407,2543.8838,N,08009.7263,W,1,7,1.9,20,M,,M,,*5D
05/28/2014	09:04:08.401	$GPGGA,090408,2543.8837,N,08009.7263,W,1,7,1.9,20,M,,M,,*5D
05/28/2014	09:04:09.438	$GPGGA,090409,2543.8838,N,08009.7263,W,1,7,1.9,20,M,,M,,*53
05/28/2014	09:04:10.423	$GPGGA,090410,2543.8836,N,08009.7263,W,1,7,1.9,20,M,,M,,*55
05/28/2014	09:04:11.440	$GPGGA,090411,2543.8838,N,08009.7263,W,1,7,1.9,20,M,,M,,*5A
05/28/2014	09:04:12.496	$GPGGA,090412,2543.8836,N,08009.7263,W,1,7,1.9,20,M,,M,,*57
05/28/2014	09:04:13.513	$GPGGA,090413,2543.8837,N,08009.7263,W,1,7,1.9,20,M,,M,,*57
05/28/2014	09:04:14.519	$GPGGA,090414,2543.8836,N,08009.7265,W,1,7,1.9,20,M,,M,,*57
05/28/2014	09:04:15.566	$GPGGA,090415,2543.8837,N,08009.7263,W,1,7,1.9,20,M,,M,,*51
05/28/2014	09:04:16.583	$GPGGA,090416,2543.8836,N,08009.7263,W,1,7,1.9,20,M,,M,,*53
05/28/2014	09:04:17.620	$GPGGA,090417,2543.8838,N,08009.7263,W,1,7,1.9,20,M,,M,,*5C
05/28/2014	09:04:18.626	$GPGGA,090418,2543.8839,N,08009.7262,W,1,7,1.9,20,M,,M,,*53
05/28/2014	09:04:19.632	$GPGGA,090419,2543.8839,N,08009.7262,W,1,8,1.6,20,M,,M,,*52
05/28/2014	09:04:20.680	$GPGGA,090420,2543.8841,N,08009.7262,W,1,8,1.6,20,M,,M,,*57
05/28/2014	09:04:21.706	$GPGGA,090421,2543.8842,N,08009.7261,W,1,8,1.6,20,M,,M,,*56
05/28/2014	09:04:22.712	$GPGGA,090422,2543.8842,N,08009.7262,W,1,8,1.6,20,M,,M,,*56
05/28/2014	09:04:23.759	$GPGGA,090423,2543.8842,N,08009.7261,W,1,8,1.6,20,M,,M,,*54
05/28/2014	09:04:24.786	$GPGGA,090424,2543.8840,N,08009.7262,W,1,8,1.6,20,M,,M,,*52
05/28/2014	09:04:25.782	$GPGGA,090425,2543.8841,N,08009.7261,W,1,8,1.6,20,M,,M,,*51
05/28/2014	09:04:26.819	$GPGGA,090426,2543.8840,N,08009.7262,W,1,8,1.6,20,M,,M,,*50
05/28/2014	09:04:27.866	$GPGGA,090427,2543.8841,N,08009.7261,W,1,8,1.6,20,M,,M,,*53
05/28/2014	09:04:28.882	$GPGGA,090428,2543.8840,N,08009.7262,W,1,8,1.6,20,M,,M,,*5E
05/28/2014	09:04:29.919	$GPGGA,090429,2543.8841,N,08009.7261,W,1,8,1.6,20,M,,M,,*5D
05/28/2014	09:04:30.914	$GPGGA,090430,2543.8842,N,08009.7262,W,1,8,1.6,20,M,,M,,*55
05/28/2014	09:04:31.951	$GPGGA,090431,2543.8842,N,08009.7261,W,1,8,1.6,20,M,,M,,*57
05/28/2014	09:04:32.988	$GPGGA,090432,2543.8842,N,08009.7260,W,1,8,1.6,20,M,,M,,*55
05/28/2014	09:04:34.015	$GPGGA,090433,2543.8842,N,08009.7261,W,1,8,1.6,20,M,,M,,*55
05/28/2014	09:04:35.021	$GPGGA,090434,2543.8842,N,08009.7260,W,1,8,1.6,20,M,,M,,*53
05/28/2014	09:04:36.068	$GPGGA,090435,2543.8842,N,08009.7261,W,1,8,1.6,20,M,,M,,*53
05/28/2014	09:04:37.064	$GPGGA,090436,2543.8842,N,08009.7260,W,1,8,1.6,20,M,,M,,*51
05/28/2014	09:04:38.083	$GPGGA,090437,2543.8842,N,08009.7261,W,1,8,1.6,20,M,,M,,*51
05/28/2014	09:04:39.127	$GPGGA,090438,2543.8842,N,08009.7260,W,1,8,1.6,20,M,,M,,*5F
05/28/2014	09:04:38.548	$GPGGA,090439,2543.8844,N,08009.7261,W,1,8,1.6,20,M,,M,,*59
05/28/2014	09:04:39.538	$GPGGA,090440,2543.8842,N,08009.7259,W,1,8,1.6,20,M,,M,,*5A
05/28/2014	09:04:40.580	$GPGGA,090441,2543.8842,N,08009.7259,W,1,8,1.6,21,M,,M,,*5A
05/28/2014	09:04:41.562	$GPGGA,090442,2543.8844,N,08009.7259,W,1,8,1.6,21,M,,M,,*5F
05/28/2014	09:04:42.582	$GPGGA,090443,2543.8843,N,08009.7259,W,1,8,1.6,21,M,,M,,*59
05/28/2014	09:04:43.583	$GPGGA,090444,2543.8844,N,08009.7258,W,1,8,1.6,21,M,,M,,*58
05/28/2014	09:04:44.605	$GPGGA,090445,2543.8843,N,08009.7258,W,1,8,1.6,21,M,,M,,*5E
05/28/2014	09:04:45.606	$GPGGA,090446,2543.8844,N,08009.7258,W,1,8,1.6,21,M,,M,,*5A
05/28/2014	09:04:46.727	$GPGGA,090447,2543.8843,N,08009.7258,W,1,8,1.6,21,M,,M,,*5C
05/28/2014	09:04:47.627	$GPGGA,090448,2543.8845,N,08009.7258,W,1,8,1.6,21,M,,M,,*55
05/28/2014	09:04:48.739	$GPGGA,090449,2543.8844,N,08009.7258,W,1,8,1.6,21,M,,M,,*55
05/28/2014	09:04:49.639	$GPGGA,090450,2543.8845,N,08009.7258,W,1,8,1.6,21,M,,M,,*5C
05/28/2014	09:04:50.772	$GPGGA,090451,2543.8844,N,08009.7258,W,1,8,1.6,21,M,,M,,*5C
05/28/2014	09:04:51.662	$GPGGA,090452,2543.8846,N,08009.7258,W,1,8,1.6,21,M,,M,,*5D
05/28/2014	09:04:52.678	$GPGGA,090453,2543.8846,N,08009.7258,W,1,8,1.6,21,M,,M,,*5C
05/28/2014	09:04:53.674	$GPGGA,090454,2543.8846,N,08009.7258,W,1,8,1.6,21,M,,M,,*5B
05/28/2014	09:04:54.766	$GPGGA,090455,2543.8846,N,08009.7259,W,1,8,1.6,21,M,,M,,*5B
05/28/2014	09:04:55.798	$GPGGA,090456,2543.8846,N,08009.7259,W,1,8,1.6,21,M,,M,,*58
05/28/2014	09:04:56.789	$GPGGA,090457,2543.8846,N,08009.7259,W,1,8,1.6,21,M,,M,,*59
05/28/2014	09:04:57.800	$GPGGA,090458,2543.8844,N,08009.7259,W,1,8,1.6,21,M,,M,,*54
05/28/2014	09:04:58.821	$GPGGA,090459,2543.8843,N,08009.7259,W,1,8,1.6,21,M,,M,,*52
05/28/2014	09:04:59.842	$GPGGA,090500,2543.8844,N,08009.7259,W,1,8,1.6,21,M,,M,,*58
05/28/2014	09:05:00.843	$GPGGA,090501,2543.8843,N,08009.7259,W,1,8,1.6,21,M,,M,,*5E
05/28/2014	09:05:01.834	$GPGGA,090502,2543.8844,N,08009.7259,W,1,8,1.6,21,M,,M,,*5A
05/28/2014	09:05:02.846	$GPGGA,090503,2543.8843,N,08009.7259,W,1,8,1.6,21,M,,M,,*5C
05/28/2014	09:05:03.867	$GPGGA,090504,2543.8844,N,08009.7258,W,1,8,1.6,21,M,,M,,*5D
05/28/2014	09:05:04.897	$GPGGA,090505,2543.8843,N,08009.7258,W,1,8,1.6,21,M,,M,,*5B
05/28/2014	09:05:05.878	$GPGGA,090506,2543.8844,N,08009.7258,W,1,8,1.6,21,M,,M,,*5F
05/28/2014	09:05:06.920	$GPGGA,090507,2543.8843,N,08009.7258,W,1,8,1.6,21,M,,M,,*59
05/28/2014	09:05:07.911	$GPGGA,090508,2543.8844,N,08009.7258,W,1,8,1.6,21,M,,M,,*51
05/28/2014	09:05:08.892	$GPGGA,090509,2543.8843,N,08009.7258,W,1,8,1.6,21,M,,M,,*57
05/28/2014	09:05:09.913	$GPGGA,090510,2543.8844,N,08009.7258,W,1,8,1.6,21,M,,M,,*58
05/28/2014	09:05:10.914	$GPGGA,090511,2543.8843,N,08009.7258,W,1,8,1.6,21,M,,M,,*5E
05/28/2014	09:05:11.935	$GPGGA,090512,2543.8844,N,08009.7259,W,1,8,1.6,21,M,,M,,*5B
05/28/2014	09:05:12.947	$GPGGA,090513,2543.8843,N,08009.7259,W,1,8,1.6,21,M,,M,,*5D
05/28/2014	09:05:13.937	$GPGGA,090514,2543.8845,N,08009.7259,W,1,8,1.6,21,M,,M,,*5C
05/28/2014	09:05:14.979	$GPGGA,090515,2543.8844,N,08009.7259,W,1,8,1.6,21,M,,M,,*5C
05/28/2014	09:05:15.980	$GPGGA,090516,2543.8845,N,08009.7259,W,1,8,1.6,21,M,,M,,*5E
05/28/2014	09:05:17.001	$GPGGA,090517,2543.8844,N,08009.7259,W,1,8,1.6,21,M,,M,,*5E
05/28/2014	09:05:17.982	$GPGGA,090518,2543.8845,N,08009.7261,W,1,8,1.6,21,M,,M,,*5B
05/28/2014	09:05:19.004	$GPGGA,090519,2543.8844,N,08009.7260,W,1,8,1.6,21,M,,M,,*5A
05/28/2014	09:05:20.015	$GPGGA,090520,2543.8845,N,08009.7261,W,1,8,1.6,21,M,,M,,*50
05/28/2014	09:05:21.036	$GPGGA,090521,2543.8844,N,08009.7260,W,1,8,1.6,21,M,,M,,*51
05/28/2014	09:05:22.016	$GPGGA,090522,2543.8845,N,08009.7261,W,1,8,1.6,21,M,,M,,*52
05/28/2014	09:05:23.068	$GPGGA,090523,2543.8844,N,08009.7260,W,1,8,1.6,21,M,,M,,*53
05/28/2014	09:05:24.059	$GPGGA,090524,2543.8845,N,08009.7262,W,1,8,1.6,21,M,,M,,*57
05/28/2014	09:05:25.050	$GPGGA,090525,2543.8844,N,08009.7261,W,1,8,1.6,21,M,,M,,*54
05/28/2014	09:05:26.051	$GPGGA,090526,2543.8845,N,08009.7262,W,1,8,1.6,21,M,,M,,*55
05/28/2014	09:05:27.062	$GPGGA,090527,2543.8844,N,08009.7261,W,1,8,1.6,21,M,,M,,*56
05/28/2014	09:05:28.205	$GPGGA,090528,2543.8845,N,08009.7262,W,1,8,1.6,21,M,,M,,*5B
05/28/2014	09:05:29.104	$GPGGA,090529,2543.8844,N,08009.7262,W,1,8,1.6,21,M,,M,,*5B
05/28/2014	09:05:30.085	$GPGGA,090530,2543.8845,N,08009.7262,W,1,8,1.6,21,M,,M,,*52
05/28/2014	09:05:31.099	$GPGGA,090531,2543.8844,N,08009.7263,W,1,8,1.6,21,M,,M,,*53
05/28/2014	09:05:32.128	$GPGGA,090532,2543.8845,N,08009.7263,W,1,8,1.6,21,M,,M,,*51
05/28/2014	09:05:34.152	$GPGGA,090534,2543.8845,N,08009.7263,W,1,8,1.6,21,M,,M,,*57
05/28/2014	09:05:35.273	$GPGGA,090535,2543.8844,N,08009.7263,W,1,8,1.6,21,M,,M,,*57
05/28/2014	09:05:36.165	$GPGGA,090536,2543.8846,N,08009.7265,W,1,8,1.6,21,M,,M,,*50
05/28/2014	09:05:37.154	$GPGGA,090537,2543.8846,N,08009.7264,W,1,8,1.6,21,M,,M,,*50
05/28/2014	09:05:38.256	$GPGGA,090538,2543.8846,N,08009.7265,W,1,8,1.6,20,M,,M,,*5F
05/28/2014	09:05:38.637	$GPGGA,090539,2543.8846,N,08009.7264,W,1,8,1.6,20,M,,M,,*5F
05/28/2014	09:05:39.540	$GPGGA,090540,2543.8846,N,08009.7265,W,1,8,1.6,20,M,,M,,*50
05/28/2014	09:05:40.527	$GPGGA,090541,2543.8846,N,08009.7264,W,1,8,1.6,20,M,,M,,*50
05/28/2014	09:05:41.650	$GPGGA,090542,2543.8846,N,08009.7265,W,1,8,1.6,20,M,,M,,*52
05/28/2014	09:05:42.540	$GPGGA,090543,2543.8846,N,08009.7264,W,1,8,1.6,20,M,,M,,*52
05/28/2014	09:05:43.672	$GPGGA,090544,2543.8846,N,08009.7265,W,1,8,1.6,20,M,,M,,*54
05/28/2014	09:05:44.663	$GPGGA,090545,2543.8846,N,08009.7264,W,1,8,1.6,20,M,,M,,*54
05/28/2014	09:05:45.573	$GPGGA,090546,2543.8846,N,08009.7265,W,1,8,1.6,20,M,,M,,*56
05/28/2014	09:05:46.676	$GPGGA,090547,2543.8846,N,08009.7265,W,1,8,1.6,20,M,,M,,*57
05/28/2014	09:05:47.697	$GPGGA,090548,2543.8846,N,08009.7266,W,1,8,1.6,20,M,,M,,*5B
05/28/2014	09:05:48.718	$GPGGA,090549,2543.8846,N,08009.7266,W,1,8,1.6,20,M,,M,,*5A
05/28/2014	09:05:49.709	$GPGGA,090550,2543.8846,N,08009.7266,W,1,8,1.6,20,M,,M,,*52
05/28/2014	09:05:50.730	$GPGGA,090551,2543.8844,N,08009.7266,W,1,8,1.6,20,M,,M,,*51
05/28/2014	09:05:51.772	$GPGGA,090552,2543.8845,N,08009.7267,W,1,8,1.6,20,M,,M,,*52
05/28/2014	09:05:52.753	$GPGGA,090553,2543.8844,N,08009.7267,W,1,8,1.6,20,M,,M,,*52
05/28/2014	09:05:53.744	$GPGGA,090554,2543.8845,N,08009.7267,W,1,8,1.6,20,M,,M,,*54
05/28/2014	09:05:54.765	$GPGGA,090555,2543.8843,N,08009.7267,W,1,8,1.6,20,M,,M,,*53
05/28/2014	09:05:55.807	$GPGGA,090556,2543.8844,N,08009.7267,W,1,8,1.6,20,M,,M,,*57
05/28/2014	09:05:56.787	$GPGGA,090557,2543.8843,N,08009.7267,W,1,8,1.6,20,M,,M,,*51
05/28/2014	09:05:57.767	$GPGGA,090558,2543.8844,N,08009.7267,W,1,8,1.6,20,M,,M,,*59
05/28/2014	09:05:58.809	$GPGGA,090559,2543.8843,N,08009.7267,W,1,8,1.6,20,M,,M,,*5F
05/28/2014	09:05:59.820	$GPGGA,090600,2543.8844,N,08009.7267,W,1,8,1.6,20,M,,M,,*57
05/28/2014	09:06:00.821	$GPGGA,090601,2543.8843,N,08009.7267,W,1,8,1.6,20,M,,M,,*51
05/28/2014	09:06:01.812	$GPGGA,090602,2543.8844,N,08009.7266,W,1,8,1.6,20,M,,M,,*54
05/28/2014	09:06:02.865	$GPGGA,090603,2543.8843,N,08009.7267,W,1,8,1.6,20,M,,M,,*53
05/28/2014	09:06:03.865	$GPGGA,090604,2543.8842,N,08009.7267,W,1,8,1.6,20,M,,M,,*55
05/28/2014	09:06:04.836	$GPGGA,090605,2543.8842,N,08009.7267,W,1,8,1.6,20,M,,M,,*54
05/28/2014	09:06:05.857	$GPGGA,090606,2543.8842,N,08009.7267,W,1,8,1.6,20,M,,M,,*57
05/28/2014	09:06:06.858	$GPGGA,090607,2543.8842,N,08009.7266,W,1,8,1.6,20,M,,M,,*57
05/28/2014	09:06:07.879	$GPGGA,090608,2543.8842,N,08009.7266,W,1,8,1.9,20,M,,M,,*57
05/28/2014	09:06:08.911	$GPGGA,090609,2543.8842,N,08009.7265,W,1,7,1.9,19,M,,M,,*50
05/28/2014	09:06:09.882	$GPGGA,090610,2543.8842,N,08009.7264,W,1,7,1.8,19,M,,M,,*58
05/28/2014	09:06:10.923	$GPGGA,090611,2543.8842,N,08009.7265,W,1,7,1.8,19,M,,M,,*58
05/28/2014	09:06:11.914	$GPGGA,090612,2543.8842,N,08009.7263,W,1,7,1.8,19,M,,M,,*5D
05/28/2014	09:06:12.945	$GPGGA,090613,2543.8842,N,08009.7262,W,1,7,1.8,19,M,,M,,*5D
05/28/2014	09:06:13.926	$GPGGA,090614,2543.8842,N,08009.7262,W,1,7,1.8,19,M,,M,,*5A
05/28/2014	09:06:14.926	$GPGGA,090615,2543.8842,N,08009.7261,W,1,7,1.8,19,M,,M,,*58
05/28/2014	09:06:15.958	$GPGGA,090616,2543.8842,N,08009.7260,W,1,7,1.8,19,M,,M,,*5A
05/28/2014	09:06:16.989	$GPGGA,090617,2543.8842,N,08009.7261,W,1,7,1.8,19,M,,M,,*5A
05/28/2014	09:06:17.980	$GPGGA,090618,2543.8842,N,08009.7260,W,1,7,1.8,19,M,,M,,*54
05/28/2014	09:06:19.093	$GPGGA,090619,2543.8842,N,08009.7259,W,1,7,1.8,19,M,,M,,*5F
05/28/2014	09:06:20.003	$GPGGA,090620,2543.8842,N,08009.7259,W,1,7,1.8,18,M,,M,,*54
05/28/2014	09:06:21.105	$GPGGA,090621,2543.8842,N,08009.7258,W,1,7,1.8,18,M,,M,,*54
05/28/2014	09:06:21.995	$GPGGA,090622,2543.8842,N,08009.7258,W,1,7,1.8,18,M,,M,,*57
05/28/2014	09:06:23.010	$GPGGA,090623,2543.8842,N,08009.7258,W,1,7,1.8,18,M,,M,,*56
05/28/2014	09:06:24.047	$GPGGA,090624,2543.8842,N,08009.7258,W,1,7,1.8,18,M,,M,,*51
05/28/2014	09:06:25.018	$GPGGA,090625,2543.8844,N,08009.7258,W,1,7,1.8,18,M,,M,,*56
05/28/2014	09:06:26.151	$GPGGA,090626,2543.8843,N,08009.7258,W,1,7,1.8,18,M,,M,,*52
05/28/2014	09:06:27.132	$GPGGA,090627,2543.8844,N,08009.7257,W,1,7,1.8,18,M,,M,,*5B
05/28/2014	09:06:28.082	$GPGGA,090628,2543.8843,N,08009.7258,W,1,7,1.8,18,M,,M,,*5C
05/28/2014	09:06:29.093	$GPGGA,090629,2543.8842,N,08009.7258,W,1,7,1.8,18,M,,M,,*5C
05/28/2014	09:06:30.165	$GPGGA,090630,2543.8842,N,08009.7258,W,1,7,1.8,18,M,,M,,*54
05/28/2014	09:06:31.176	$GPGGA,090631,2543.8842,N,08009.7258,W,1,7,1.8,18,M,,M,,*55
05/28/2014	09:06:32.116	$GPGGA,090632,2543.8842,N,08009.7258,W,1,7,1.8,18,M,,M,,*56
05/28/2014	09:06:33.117	$GPGGA,090633,2543.8842,N,08009.7258,W,1,7,1.8,18,M,,M,,*57
05/28/2014	09:06:34.199	$GPGGA,090634,2543.8842,N,08009.7258,W,1,7,1.8,18,M,,M,,*50
05/28/2014	09:06:35.230	$GPGGA,090635,2543.8842,N,08009.7258,W,1,7,1.8,18,M,,M,,*51
05/28/2014	09:06:36.163	$GPGGA,090636,2543.8842,N,08009.7259,W,1,7,1.8,17,M,,M,,*5C
05/28/2014	09:06:37.232	$GPGGA,090637,2543.8842,N,08009.7259,W,1,7,1.8,17,M,,M,,*5D
05/28/2014	09:06:38.244	$GPGGA,090638,2543.8840,N,08009.7259,W,1,7,1.8,17,M,,M,,*50
05/28/2014	09:06:38.594	$GPGGA,090639,2543.8841,N,08009.7259,W,1,7,1.8,17,M,,M,,*50
05/28/2014	09:06:39.605	$GPGGA,090640,2543.8840,N,08009.7259,W,1,7,1.8,17,M,,M,,*5F
05/28/2014	09:06:40.627	$GPGGA,090641,2543.8841,N,08009.7259,W,1,7,1.8,17,M,,M,,*5F
05/28/2014	09:06:41.607	$GPGGA,090642,2543.8839,N,08009.7261,W,1,7,1.8,17,M,,M,,*58
05/28/2014	09:06:42.639	$GPGGA,090643,2543.8839,N,08009.7260,W,1,7,1.8,17,M,,M,,*58
05/28/2014	09:06:43.640	$GPGGA,090644,2543.8839,N,08009.7261,W,1,7,1.8,17,M,,M,,*5E
05/28/2014	09:06:44.631	$GPGGA,090645,2543.8839,N,08009.7260,W,1,7,1.8,17,M,,M,,*5E
05/28/2014	09:06:45.632	$GPGGA,090646,2543.8837,N,08009.7261,W,1,7,1.8,17,M,,M,,*52
05/28/2014	09:06:46.673	$GPGGA,090647,2543.8838,N,08009.7262,W,1,7,1.8,17,M,,M,,*5F
05/28/2014	09:06:47.664	$GPGGA,090648,2543.8837,N,08009.7261,W,1,7,1.8,17,M,,M,,*5C
05/28/2014	09:06:48.706	$GPGGA,090649,2543.8836,N,08009.7262,W,1,7,1.8,17,M,,M,,*5F
05/28/2014	09:06:49.686	$GPGGA,090650,2543.8837,N,08009.7262,W,1,7,1.8,17,M,,M,,*56
05/28/2014	09:06:50.687	$GPGGA,090651,2543.8835,N,08009.7262,W,1,7,1.8,17,M,,M,,*55
05/28/2014	09:06:51.718	$GPGGA,090652,2543.8835,N,08009.7262,W,1,7,1.8,17,M,,M,,*56
05/28/2014	09:06:52.730	$GPGGA,090653,2543.8835,N,08009.7262,W,1,7,1.8,17,M,,M,,*57
05/28/2014	09:06:53.721	$GPGGA,090654,2543.8835,N,08009.7262,W,1,7,1.8,17,M,,M,,*50
05/28/2014	09:06:54.722	$GPGGA,090655,2543.8835,N,08009.7262,W,1,7,1.8,17,M,,M,,*51
05/28/2014	09:06:55.753	$GPGGA,090656,2543.8835,N,08009.7262,W,1,7,1.8,17,M,,M,,*52
05/28/2014	09:06:56.774	$GPGGA,090657,2543.8833,N,08009.7262,W,1,7,1.8,17,M,,M,,*55
05/28/2014	09:06:57.755	$GPGGA,090658,2543.8834,N,08009.7262,W,1,7,1.8,17,M,,M,,*5D
05/28/2014	09:06:58.807	$GPGGA,090659,2543.8833,N,08009.7262,W,1,7,1.8,17,M,,M,,*5B
05/28/2014	09:06:59.798	$GPGGA,090700,2543.8834,N,08009.7262,W,1,7,1.8,17,M,,M,,*51
05/28/2014	09:07:00.779	$GPGGA,090701,2543.8832,N,08009.7262,W,1,7,1.8,17,M,,M,,*56
05/28/2014	09:07:01.790	$GPGGA,090702,2543.8833,N,08009.7262,W,1,7,1.8,17,M,,M,,*54
05/28/2014	09:07:02.791	$GPGGA,090703,2543.8832,N,08009.7262,W,1,7,1.8,17,M,,M,,*54
05/28/2014	09:07:03.822	$GPGGA,090704,2543.8833,N,08009.7262,W,1,7,1.8,17,M,,M,,*52
05/28/2014	09:07:04.813	$GPGGA,090705,2543.8832,N,08009.7262,W,1,7,1.8,17,M,,M,,*52
05/28/2014	09:07:05.835	$GPGGA,090706,2543.8833,N,08009.7262,W,1,7,1.8,17,M,,M,,*50
05/28/2014	09:07:06.835	$GPGGA,090707,2543.8832,N,08009.7262,W,1,7,1.8,17,M,,M,,*50
05/28/2014	09:07:07.866	$GPGGA,090708,2543.8833,N,08009.7262,W,1,7,1.8,17,M,,M,,*5E
05/28/2014	09:07:08.968	$GPGGA,090709,2543.8832,N,08009.7262,W,1,7,1.8,17,M,,M,,*5E
05/28/2014	09:07:09.859	$GPGGA,090710,2543.8834,N,08009.7262,W,1,7,1.8,17,M,,M,,*50
05/28/2014	09:07:10.890	$GPGGA,090711,2543.8833,N,08009.7262,W,1,7,1.8,17,M,,M,,*56
05/28/2014	09:07:11.901	$GPGGA,090712,2543.8834,N,08009.7262,W,1,7,1.8,17,M,,M,,*52
05/28/2014	09:07:12.882	$GPGGA,090713,2543.8835,N,08009.7262,W,1,7,1.8,17,M,,M,,*52
05/28/2014	09:07:13.893	$GPGGA,090714,2543.8835,N,08009.7262,W,1,7,1.8,17,M,,M,,*55
05/28/2014	09:07:15.005	$GPGGA,090715,2543.8835,N,08009.7262,W,1,7,1.8,17,M,,M,,*54
05/28/2014	09:07:15.946	$GPGGA,090716,2543.8835,N,08009.7262,W,1,7,1.8,17,M,,M,,*57
05/28/2014	09:07:16.927	$GPGGA,090717,2543.8835,N,08009.7262,W,1,7,1.8,17,M,,M,,*56
05/28/2014	09:07:17.938	$GPGGA,090718,2543.8835,N,08009.7262,W,1,7,1.8,17,M,,M,,*59
05/28/2014	09:07:19.040	$GPGGA,090719,2543.8835,N,08009.7262,W,1,7,1.8,17,M,,M,,*58
05/28/2014	09:07:20.062	$GPGGA,090720,2543.8835,N,08009.7262,W,1,7,1.8,17,M,,M,,*52
05/28/2014	09:07:21.062	$GPGGA,090721,2543.8835,N,08009.7262,W,1,7,1.8,17,M,,M,,*53
05/28/2014	09:07:22.084	$GPGGA,090722,2543.8835,N,08009.7262,W,1,7,1.8,17,M,,M,,*50
05/28/2014	09:07:22.984	$GPGGA,090723,2543.8835,N,08009.7262,W,1,7,1.8,17,M,,M,,*51
05/28/2014	09:07:24.107	$GPGGA,090724,2543.8835,N,08009.7262,W,1,7,1.8,17,M,,M,,*56
05/28/2014	09:07:25.138	$GPGGA,090725,2543.8837,N,08009.7262,W,1,7,1.8,17,M,,M,,*55
05/28/2014	09:07:26.097	$GPGGA,090726,2543.8836,N,08009.7262,W,1,7,1.8,17,M,,M,,*57
05/28/2014	09:07:27.130	$GPGGA,090727,2543.8837,N,08009.7262,W,1,7,1.8,17,M,,M,,*57
05/28/2014	09:07:28.150	$GPGGA,090728,2543.8836,N,08009.7263,W,1,7,1.8,17,M,,M,,*58
05/28/2014	09:07:29.131	$GPGGA,090729,2543.8837,N,08009.7262,W,1,7,1.8,17,M,,M,,*59
05/28/2014	09:07:30.142	$GPGGA,090730,2543.8836,N,08009.7262,W,1,7,1.8,17,M,,M,,*50
05/28/2014	09:07:31.173	$GPGGA,090731,2543.8838,N,08009.7263,W,1,7,1.8,17,M,,M,,*5E
05/28/2014	09:07:32.195	$GPGGA,090732,2543.8837,N,08009.7263,W,1,7,1.8,17,M,,M,,*52
05/28/2014	09:07:33.186	$GPGGA,090733,2543.8838,N,08009.7263,W,1,7,1.8,17,M,,M,,*5C
05/28/2014	09:07:34.197	$GPGGA,090734,2543.8837,N,08009.7265,W,1,7,1.8,17,M,,M,,*52
05/28/2014	09:07:35.218	$GPGGA,090735,2543.8839,N,08009.7264,W,1,7,1.8,17,M,,M,,*5C
05/28/2014	09:07:36.219	$GPGGA,090736,2543.8837,N,08009.7265,W,1,7,1.8,17,M,,M,,*50
05/28/2014	09:07:37.200	$GPGGA,090737,2543.8838,N,08009.7264,W,1,7,1.8,17,M,,M,,*5F
05/28/2014	09:07:38.221	$GPGGA,090738,2543.8839,N,08009.7265,W,1,7,1.8,17,M,,M,,*50
05/28/2014	09:07:38.585	$GPGGA,090739,2543.8839,N,08009.7263,W,1,7,1.8,17,M,,M,,*57
05/28/2014	09:07:39.584	$GPGGA,090740,2543.8839,N,08009.7263,W,1,7,1.8,18,M,,M,,*56
05/28/2014	09:07:40.575	$GPGGA,090741,2543.8839,N,08009.7265,W,1,7,1.8,18,M,,M,,*51
05/28/2014	09:07:41.595	$GPGGA,090742,2543.8839,N,08009.7264,W,1,7,1.8,18,M,,M,,*53
05/28/2014	09:07:42.627	$GPGGA,090743,2543.8839,N,08009.7265,W,1,7,1.8,18,M,,M,,*53
05/28/2014	09:07:43.618	$GPGGA,090744,2543.8839,N,08009.7264,W,1,7,1.8,18,M,,M,,*55
05/28/2014	09:07:44.609	$GPGGA,090745,2543.8839,N,08009.7265,W,1,7,1.8,18,M,,M,,*55
05/28/2014	09:07:45.630	$GPGGA,090746,2543.8839,N,08009.7265,W,1,7,1.8,18,M,,M,,*56
05/28/2014	09:07:46.631	$GPGGA,090747,2543.8839,N,08009.7264,W,1,7,1.8,18,M,,M,,*56
05/28/2014	09:07:47.662	$GPGGA,090748,2543.8839,N,08009.7265,W,1,7,1.8,18,M,,M,,*58
05/28/2014	09:07:48.653	$GPGGA,090749,2543.8839,N,08009.7264,W,1,7,1.8,18,M,,M,,*58
05/28/2014	09:07:49.665	$GPGGA,090750,2543.8839,N,08009.7265,W,1,7,1.8,18,M,,M,,*51
05/28/2014	09:07:50.666	$GPGGA,090751,2543.8839,N,08009.7264,W,1,7,1.8,18,M,,M,,*51
05/28/2014	09:07:51.697	$GPGGA,090752,2543.8839,N,08009.7265,W,1,7,1.8,18,M,,M,,*53
05/28/2014	09:07:52.688	$GPGGA,090753,2543.8839,N,08009.7264,W,1,7,1.8,18,M,,M,,*53
05/28/2014	09:07:53.699	$GPGGA,090754,2543.8839,N,08009.7265,W,1,7,1.8,18,M,,M,,*55
05/28/2014	09:07:54.721	$GPGGA,090755,2543.8841,N,08009.7264,W,1,7,1.8,18,M,,M,,*5A
05/28/2014	09:07:55.742	$GPGGA,090756,2543.8840,N,08009.7265,W,1,7,1.8,18,M,,M,,*59
05/28/2014	09:07:56.844	$GPGGA,090757,2543.8841,N,08009.7264,W,1,7,1.8,18,M,,M,,*58
05/28/2014	09:07:57.734	$GPGGA,090758,2543.8840,N,08009.7265,W,1,7,1.8,18,M,,M,,*57
05/28/2014	09:07:58.765	$GPGGA,090759,2543.8841,N,08009.7264,W,1,7,1.8,18,M,,M,,*56
05/28/2014	09:07:59.776	$GPGGA,090800,2543.8840,N,08009.7263,W,1,7,1.8,18,M,,M,,*53
05/28/2014	09:08:00.757	$GPGGA,090801,2543.8841,N,08009.7263,W,1,7,1.8,18,M,,M,,*53
05/28/2014	09:08:01.859	$GPGGA,090802,2543.8840,N,08009.7263,W,1,7,1.8,18,M,,M,,*51
05/28/2014	09:08:02.789	$GPGGA,090803,2543.8841,N,08009.7263,W,1,7,1.8,18,M,,M,,*51
05/28/2014	09:08:03.831	$GPGGA,090804,2543.8842,N,08009.7263,W,1,7,1.8,18,M,,M,,*55
05/28/2014	09:08:04.791	$GPGGA,090805,2543.8842,N,08009.7263,W,1,7,1.8,18,M,,M,,*54
05/28/2014	09:08:05.903	$GPGGA,090806,2543.8842,N,08009.7262,W,1,7,1.8,18,M,,M,,*56
05/28/2014	09:08:06.834	$GPGGA,090807,2543.8842,N,08009.7262,W,1,7,1.8,18,M,,M,,*57
05/28/2014	09:08:07.926	$GPGGA,090808,2543.8842,N,08009.7262,W,1,7,1.8,18,M,,M,,*58
05/28/2014	09:08:08.948	$GPGGA,090809,2543.8842,N,08009.7262,W,1,7,1.8,18,M,,M,,*59
05/28/2014	09:08:09.848	$GPGGA,090810,2543.8842,N,08009.7262,W,1,7,1.8,18,M,,M,,*51
05/28/2014	09:08:10.859	$GPGGA,090811,2543.8844,N,08009.7262,W,1,7,1.8,18,M,,M,,*56
05/28/2014	09:08:11.971	$GPGGA,090812,2543.8843,N,08009.7262,W,1,7,1.8,18,M,,M,,*52
05/28/2014	09:08:13.002	$GPGGA,090813,2543.8844,N,08009.7262,W,1,7,1.8,18,M,,M,,*54
05/28/2014	09:08:13.973	$GPGGA,090814,2543.8845,N,08009.7262,W,1,7,1.8,18,M,,M,,*52
05/28/2014	09:08:15.006	$GPGGA,090815,2543.8844,N,08009.7261,W,1,7,1.8,18,M,,M,,*51
05/28/2014	09:08:16.027	$GPGGA,090816,2543.8845,N,08009.7262,W,1,7,1.8,18,M,,M,,*50
05/28/2014	09:08:17.016	$GPGGA,090817,2543.8846,N,08009.7261,W,1,7,1.8,18,M,,M,,*51
05/28/2014	09:08:18.017	$GPGGA,090818,2543.8846,N,08009.7262,W,1,7,1.8,18,M,,M,,*5D
05/28/2014	09:08:19.048	$GPGGA,090819,2543.8846,N,08009.7261,W,1,7,1.8,18,M,,M,,*5F
05/28/2014	09:08:20.049	$GPGGA,090820,2543.8846,N,08009.7262,W,1,7,1.8,18,M,,M,,*56
05/28/2014	09:08:21.060	$GPGGA,090821,2543.8846,N,08009.7261,W,1,7,1.8,18,M,,M,,*54
05/28/2014	09:08:22.051	$GPGGA,090822,2543.8846,N,08009.7262,W,1,7,1.8,18,M,,M,,*54
05/28/2014	09:08:23.083	$GPGGA,090823,2543.8848,N,08009.7261,W,1,7,1.8,18,M,,M,,*58
05/28/2014	09:08:24.104	$GPGGA,090824,2543.8846,N,08009.7262,W,1,7,1.8,18,M,,M,,*52
05/28/2014	09:08:25.075	$GPGGA,090825,2543.8848,N,08009.7261,W,1,7,1.8,18,M,,M,,*5E
05/28/2014	09:08:26.096	$GPGGA,090826,2543.8847,N,08009.7262,W,1,7,1.8,18,M,,M,,*51
05/28/2014	09:08:27.117	$GPGGA,090827,2543.8848,N,08009.7261,W,1,7,1.8,18,M,,M,,*5C
05/28/2014	09:08:28.120	$GPGGA,090828,2543.8847,N,08009.7262,W,1,7,1.8,18,M,,M,,*5F
05/28/2014	09:08:29.140	$GPGGA,090829,2543.8848,N,08009.7261,W,1,7,1.8,18,M,,M,,*52
05/28/2014	09:08:30.121	$GPGGA,090830,2543.8847,N,08009.7262,W,1,7,1.8,18,M,,M,,*56
05/28/2014	09:08:31.132	$GPGGA,090831,2543.8848,N,08009.7261,W,1,7,1.8,18,M,,M,,*5B
05/28/2014	09:08:32.153	$GPGGA,090832,2543.8847,N,08009.7262,W,1,7,1.8,18,M,,M,,*54
05/28/2014	09:08:33.175	$GPGGA,090833,2543.8846,N,08009.7261,W,1,7,1.8,18,M,,M,,*57
05/28/2014	09:08:34.155	$GPGGA,090834,2543.8846,N,08009.7262,W,1,7,1.8,18,M,,M,,*53
05/28/2014	09:08:35.186	$GPGGA,090835,2543.8846,N,08009.7261,W,1,7,1.8,18,M,,M,,*51
05/28/2014	09:08:36.197	$GPGGA,090836,2543.8846,N,08009.7262,W,1,7,1.8,18,M,,M,,*51
05/28/2014	09:08:37.188	$GPGGA,090837,2543.8846,N,08009.7261,W,1,7,1.8,18,M,,M,,*53
05/28/2014	09:08:38.219	$GPGGA,090838,2543.8846,N,08009.7262,W,1,7,1.8,18,M,,M,,*5F
05/28/2014	09:08:38.540	$GPGGA,090839,2543.8846,N,08009.7261,W,1,7,1.8,18,M,,M,,*5D
05/28/2014	09:08:39.552	$GPGGA,090840,2543.8846,N,08009.7262,W,1,7,1.8,18,M,,M,,*50
05/28/2014	09:08:40.583	$GPGGA,090841,2543.8846,N,08009.7261,W,1,7,1.8,18,M,,M,,*52
05/28/2014	09:08:41.574	$GPGGA,090842,2543.8846,N,08009.7262,W,1,7,1.8,18,M,,M,,*52
05/28/2014	09:08:42.616	$GPGGA,090843,2543.8846,N,08009.7261,W,1,7,1.8,18,M,,M,,*50
05/28/2014	09:08:43.596	$GPGGA,090844,2543.8846,N,08009.7262,W,1,7,1.8,18,M,,M,,*54
05/28/2014	09:08:44.597	$GPGGA,090845,2543.8846,N,08009.7261,W,1,7,1.8,18,M,,M,,*56
05/28/2014	09:08:45.590	$GPGGA,090846,2543.8846,N,08009.7262,W,1,7,1.8,18,M,,M,,*56
05/28/2014	09:08:46.751	$GPGGA,090847,2543.8846,N,08009.7262,W,1,7,1.8,18,M,,M,,*57
05/28/2014	09:08:47.641	$GPGGA,090848,2543.8846,N,08009.7262,W,1,7,1.8,18,M,,M,,*58
05/28/2014	09:08:48.632	$GPGGA,090849,2543.8846,N,08009.7262,W,1,7,1.8,18,M,,M,,*59
05/28/2014	09:08:49.734	$GPGGA,090850,2543.8846,N,08009.7262,W,1,7,1.8,18,M,,M,,*51
05/28/2014	09:08:50.655	$GPGGA,090851,2543.8846,N,08009.7263,W,1,7,1.8,18,M,,M,,*51
05/28/2014	09:08:51.665	$GPGGA,090852,2543.8844,N,08009.7263,W,1,7,1.8,18,M,,M,,*50
05/28/2014	09:08:52.656	$GPGGA,090853,2543.8845,N,08009.7263,W,1,7,1.8,18,M,,M,,*50
05/28/2014	09:08:53.869	$GPGGA,090854,2543.8844,N,08009.7263,W,1,7,1.8,18,M,,M,,*56
05/28/2014	09:08:54.779	$GPGGA,090855,2543.8845,N,08009.7263,W,1,7,1.8,18,M,,M,,*56
05/28/2014	09:08:55.710	$GPGGA,090856,2543.8844,N,08009.7263,W,1,7,1.8,18,M,,M,,*54
05/28/2014	09:08:56.721	$GPGGA,090857,2543.8845,N,08009.7263,W,1,7,1.8,18,M,,M,,*54
05/28/2014	09:08:57.702	$GPGGA,090858,2543.8844,N,08009.7263,W,1,7,1.8,18,M,,M,,*5A
05/28/2014	09:08:58.905	$GPGGA,090859,2543.8845,N,08009.7263,W,1,7,1.8,18,M,,M,,*5A
05/28/2014	09:08:59.916	$GPGGA,090900,2543.8844,N,08009.7263,W,1,7,1.8,18,M,,M,,*56
05/28/2014	09:09:00.917	$GPGGA,090901,2543.8845,N,08009.7263,W,1,7,1.8,18,M,,M,,*56
05/28/2014	09:09:01.757	$GPGGA,090902,2543.8843,N,08009.7263,W,1,7,1.8,18,M,,M,,*53
05/28/2014	09:09:02.758	$GPGGA,090903,2543.8845,N,08009.7263,W,1,7,1.8,18,M,,M,,*54
05/28/2014	09:09:03.951	$GPGGA,090904,2543.8844,N,08009.7265,W,1,7,1.8,18,M,,M,,*54
05/28/2014	09:09:04.891	$GPGGA,090905,2543.8845,N,08009.7264,W,1,7,1.8,18,M,,M,,*55
05/28/2014	09:09:05.882	$GPGGA,090906,2543.8844,N,08009.7263,W,1,7,1.8,18,M,,M,,*50
05/28/2014	09:09:06.934	$GPGGA,090907,2543.8845,N,08009.7265,W,1,7,1.8,18,M,,M,,*56
05/28/2014	09:09:07.986	$GPGGA,090908,2543.8844,N,08009.7264,W,1,7,1.8,18,M,,M,,*59
05/28/2014	09:09:08.906	$GPGGA,090909,2543.8845,N,08009.7263,W,1,7,1.8,18,M,,M,,*5E
05/28/2014	09:09:09.987	$GPGGA,090910,2543.8844,N,08009.7265,W,1,7,1.8,18,M,,M,,*51
05/28/2014	09:09:10.978	$GPGGA,090911,2543.8845,N,08009.7264,W,1,7,1.8,18,M,,M,,*50
05/28/2014	09:09:11.938	$GPGGA,090912,2543.8844,N,08009.7265,W,1,7,1.8,18,M,,M,,*53
05/28/2014	09:09:12.990	$GPGGA,090913,2543.8846,N,08009.7264,W,1,7,1.8,18,M,,M,,*51
05/28/2014	09:09:14.031	$GPGGA,090914,2543.8846,N,08009.7265,W,1,7,1.8,18,M,,M,,*57
05/28/2014	09:09:14.992	$GPGGA,090915,2543.8846,N,08009.7264,W,1,7,1.8,18,M,,M,,*57
05/28/2014	09:09:16.054	$GPGGA,090916,2543.8846,N,08009.7265,W,1,7,1.8,18,M,,M,,*55
05/28/2014	09:09:17.025	$GPGGA,090917,2543.8846,N,08009.7263,W,1,7,1.8,18,M,,M,,*52
05/28/2014	09:09:17.985	$GPGGA,090918,2543.8846,N,08009.7265,W,1,7,1.8,18,M,,M,,*5B
05/28/2014	09:09:19.007	$GPGGA,090919,2543.8846,N,08009.7263,W,1,7,1.8,18,M,,M,,*5C
05/28/2014	09:09:20.020	$GPGGA,090920,2543.8846,N,08009.7263,W,1,7,1.8,18,M,,M,,*56
05/28/2014	09:09:21.069	$GPGGA,090921,2543.8846,N,08009.7263,W,1,7,1.8,18,M,,M,,*57
05/28/2014	09:09:22.020	$GPGGA,090922,2543.8848,N,08009.7263,W,1,7,1.8,18,M,,M,,*5A
05/28/2014	09:09:23.112	$GPGGA,090923,2543.8847,N,08009.7263,W,1,7,1.8,18,M,,M,,*54
05/28/2014	09:09:24.133	$GPGGA,090924,2543.8849,N,08009.7263,W,1,7,1.8,18,M,,M,,*5D
05/28/2014	09:09:25.114	$GPGGA,090925,2543.8848,N,08009.7263,W,1,7,1.8,18,M,,M,,*5D
05/28/2014	09:09:26.065	$GPGGA,090926,2543.8849,N,08009.7263,W,1,7,1.8,18,M,,M,,*5F
05/28/2014	09:09:27.126	$GPGGA,090927,2543.8849,N,08009.7263,W,1,7,1.8,18,M,,M,,*5E
05/28/2014	09:09:28.157	$GPGGA,090928,2543.8849,N,08009.7263,W,1,7,1.8,18,M,,M,,*51
05/28/2014	09:09:29.087	$GPGGA,090929,2543.8850,N,08009.7263,W,1,7,1.8,18,M,,M,,*58
05/28/2014	09:09:30.159	$GPGGA,090930,2543.8850,N,08009.7263,W,1,7,1.8,18,M,,M,,*50
05/28/2014	09:09:31.140	$GPGGA,090931,2543.8850,N,08009.7263,W,1,7,1.8,18,M,,M,,*51
05/28/2014	09:09:32.131	$GPGGA,090932,2543.8852,N,08009.7263,W,1,7,1.8,18,M,,M,,*50
05/28/2014	09:09:33.183	$GPGGA,090933,2543.8853,N,08009.7262,W,1,7,1.8,19,M,,M,,*50
05/28/2014	09:09:34.194	$GPGGA,090934,2543.8853,N,08009.7261,W,1,7,1.7,19,M,,M,,*5B
05/28/2014	09:09:35.175	$GPGGA,090935,2543.8855,N,08009.7262,W,1,8,1.7,19,M,,M,,*50
05/28/2014	09:09:36.216	$GPGGA,090936,2543.8854,N,08009.7260,W,1,8,1.7,19,M,,M,,*50
05/28/2014	09:09:37.157	$GPGGA,090937,2543.8856,N,08009.7261,W,1,8,1.7,19,M,,M,,*52
05/28/2014	09:09:38.228	$GPGGA,090938,2543.8855,N,08009.7260,W,1,8,1.7,19,M,,M,,*5F
05/28/2014	09:09:38.506	$GPGGA,090939,2543.8857,N,08009.7261,W,1,8,1.7,19,M,,M,,*5D
05/28/2014	09:09:39.573	$GPGGA,090940,2543.8857,N,08009.7260,W,1,8,1.7,19,M,,M,,*52
05/28/2014	09:09:40.517	$GPGGA,090941,2543.8857,N,08009.7261,W,1,8,1.7,19,M,,M,,*52
05/28/2014	09:09:41.524	$GPGGA,090942,2543.8857,N,08009.7260,W,1,8,1.7,19,M,,M,,*50
05/28/2014	09:09:42.649	$GPGGA,090943,2543.8859,N,08009.7261,W,1,8,1.7,19,M,,M,,*5E
05/28/2014	09:09:43.605	$GPGGA,090944,2543.8860,N,08009.7260,W,1,8,1.7,19,M,,M,,*52
05/28/2014	09:09:44.529	$GPGGA,090945,2543.8859,N,08009.7261,W,1,8,1.7,19,M,,M,,*58
05/28/2014	09:09:45.625	$GPGGA,090946,2543.8860,N,08009.7260,W,1,8,1.7,19,M,,M,,*50
05/28/2014	09:09:46.641	$GPGGA,090947,2543.8860,N,08009.7261,W,1,8,1.7,19,M,,M,,*50
05/28/2014	09:09:47.676	$GPGGA,090948,2543.8860,N,08009.7262,W,1,8,1.7,19,M,,M,,*5C
05/28/2014	09:09:48.642	$GPGGA,090949,2543.8860,N,08009.7261,W,1,8,1.7,19,M,,M,,*5E
05/28/2014	09:09:49.658	$GPGGA,090950,2543.8860,N,08009.7262,W,1,8,1.7,20,M,,M,,*5F
05/28/2014	09:09:50.655	$GPGGA,090951,2543.8860,N,08009.7262,W,1,8,1.7,20,M,,M,,*5E
05/28/2014	09:09:51.660	$GPGGA,090952,2543.8862,N,08009.7262,W,1,8,1.7,20,M,,M,,*5F
05/28/2014	09:09:52.666	$GPGGA,090953,2543.8861,N,08009.7263,W,1,8,1.7,20,M,,M,,*5C
05/28/2014	09:09:53.672	$GPGGA,090954,2543.8862,N,08009.7263,W,1,8,1.7,20,M,,M,,*58
05/28/2014	09:09:54.687	$GPGGA,090955,2543.8860,N,08009.7263,W,1,8,1.7,20,M,,M,,*5B
05/28/2014	09:09:55.682	$GPGGA,090956,2543.8859,N,08009.7263,W,1,8,1.8,20,M,,M,,*5D
05/28/2014	09:09:56.688	$GPGGA,090957,2543.8858,N,08009.7265,W,1,7,1.8,20,M,,M,,*54
05/28/2014	09:09:57.684	$GPGGA,090958,2543.8857,N,08009.7264,W,1,7,1.8,20,M,,M,,*55
05/28/2014	09:09:58.699	$GPGGA,090959,2543.8857,N,08009.7265,W,1,7,1.8,20,M,,M,,*55
05/28/2014	09:09:59.735	$GPGGA,091000,2543.8857,N,08009.7265,W,1,7,1.8,20,M,,M,,*51
05/28/2014	09:10:00.711	$GPGGA,091001,2543.8857,N,08009.7266,W,1,7,1.8,20,M,,M,,*53
05/28/2014	09:10:01.695	$GPGGA,091002,2543.8855,N,08009.7266,W,1,7,1.8,20,M,,M,,*52
05/28/2014	09:10:02.721	$GPGGA,091003,2543.8856,N,08009.7267,W,1,7,1.8,20,M,,M,,*51
05/28/2014	09:10:03.727	$GPGGA,091004,2543.8855,N,08009.7267,W,1,7,1.8,20,M,,M,,*55
05/28/2014	09:10:04.732	$GPGGA,091005,2543.8854,N,08009.7267,W,1,7,1.8,20,M,,M,,*55
05/28/2014	09:10:05.738	$GPGGA,091006,2543.8855,N,08009.7267,W,1,7,1.8,20,M,,M,,*57
05/28/2014	09:10:06.704	$GPGGA,091007,2543.8853,N,08009.7269,W,1,7,1.8,20,M,,M,,*5E
05/28/2014	09:10:07.739	$GPGGA,091008,2543.8853,N,08009.7268,W,1,7,1.8,20,M,,M,,*50
05/28/2014	09:10:08.725	$GPGGA,091009,2543.8853,N,08009.7269,W,1,7,1.8,20,M,,M,,*50
05/28/2014	09:10:09.731	$GPGGA,091010,2543.8853,N,08009.7268,W,1,7,1.8,20,M,,M,,*59
05/28/2014	09:10:10.757	$GPGGA,091011,2543.8855,N,08009.7269,W,1,7,1.8,20,M,,M,,*5F
05/28/2014	09:10:11.742	$GPGGA,091012,2543.8854,N,08009.7269,W,1,7,1.8,19,M,,M,,*57
05/28/2014	09:10:12.758	$GPGGA,091013,2543.8855,N,08009.7269,W,1,7,1.8,19,M,,M,,*57
05/28/2014	09:10:13.754	$GPGGA,091014,2543.8854,N,08009.7269,W,1,7,1.8,19,M,,M,,*51
05/28/2014	09:10:14.779	$GPGGA,091015,2543.8855,N,08009.7269,W,1,7,1.8,19,M,,M,,*51
05/28/2014	09:10:15.765	$GPGGA,091016,2543.8856,N,08009.7268,W,1,7,1.8,19,M,,M,,*50
05/28/2014	09:10:16.791	$GPGGA,091017,2543.8855,N,08009.7269,W,1,7,1.8,19,M,,M,,*53
05/28/2014	09:10:17.776	$GPGGA,091018,2543.8855,N,08009.7269,W,1,7,1.8,19,M,,M,,*5C
05/28/2014	09:10:18.782	$GPGGA,091019,2543.8855,N,08009.7269,W,1,7,1.8,19,M,,M,,*5D
05/28/2014	09:10:19.767	$GPGGA,091020,2543.8855,N,08009.7269,W,1,7,1.8,19,M,,M,,*57
05/28/2014	09:10:20.792	$GPGGA,091021,2543.8855,N,08009.7267,W,1,7,1.8,19,M,,M,,*58
05/28/2014	09:10:21.768	$GPGGA,091022,2543.8855,N,08009.7267,W,1,7,1.8,19,M,,M,,*5B
05/28/2014	09:10:22.764	$GPGGA,091023,2543.8855,N,08009.7267,W,1,7,1.8,19,M,,M,,*5A
05/28/2014	09:10:23.910	$GPGGA,091024,2543.8854,N,08009.7266,W,1,7,1.8,19,M,,M,,*5D
05/28/2014	09:10:24.785	$GPGGA,091025,2543.8855,N,08009.7266,W,1,7,1.8,19,M,,M,,*5D
05/28/2014	09:10:25.791	$GPGGA,091026,2543.8855,N,08009.7266,W,1,7,1.8,19,M,,M,,*5E
05/28/2014	09:10:26.797	$GPGGA,091027,2543.8855,N,08009.7266,W,1,7,1.8,19,M,,M,,*5F
05/28/2014	09:10:27.832	$GPGGA,091028,2543.8853,N,08009.7266,W,1,7,1.8,19,M,,M,,*56
05/28/2014	09:10:28.908	$GPGGA,091029,2543.8853,N,08009.7266,W,1,7,1.8,19,M,,M,,*57
05/28/2014	09:10:29.794	$GPGGA,091030,2543.8853,N,08009.7266,W,1,7,1.8,19,M,,M,,*5F
05/28/2014	09:10:30.789	$GPGGA,091031,2543.8853,N,08009.7265,W,1,7,1.8,19,M,,M,,*5D
05/28/2014	09:10:31.936	$GPGGA,091032,2543.8853,N,08009.7265,W,1,7,1.8,19,M,,M,,*5E
05/28/2014	09:10:32.831	$GPGGA,091033,2543.8853,N,08009.7266,W,1,7,1.8,19,M,,M,,*5C
05/28/2014	09:10:33.846	$GPGGA,091034,2543.8853,N,08009.7266,W,1,7,1.8,19,M,,M,,*5B
05/28/2014	09:10:34.802	$GPGGA,091035,2543.8853,N,08009.7266,W,1,7,1.8,19,M,,M,,*5A
05/28/2014	09:10:35.928	$GPGGA,091036,2543.8853,N,08009.7266,W,1,7,1.8,19,M,,M,,*59
05/28/2014	09:10:36.834	$GPGGA,091037,2543.8853,N,08009.7266,W,1,7,1.8,19,M,,M,,*58
05/28/2014	09:10:37.929	$GPGGA,091038,2543.8853,N,08009.7265,W,1,7,1.8,19,M,,M,,*54
05/28/2014	09:10:38.494	$GPGGA,091039,2543.8853,N,08009.7265,W,1,7,1.8,19,M,,M,,*55
05/28/2014	09:10:39.610	$GPGGA,091040,2543.8853,N,08009.7265,W,1,7,1.8,19,M,,M,,*5B
05/28/2014	09:10:40.626	$GPGGA,091041,2543.8853,N,08009.7265,W,1,7,1.8,19,M,,M,,*5A
05/28/2014	09:10:41.601	$GPGGA,091042,2543.8853,N,08009.7265,W,1,7,1.8,19,M,,M,,*59
05/28/2014	09:10:42.617	$GPGGA,091043,2543.8853,N,08009.7265,W,1,7,1.8,19,M,,M,,*58
05/28/2014	09:10:43.623	$GPGGA,091044,2543.8853,N,08009.7266,W,1,7,1.8,19,M,,M,,*5C
05/28/2014	09:10:44.629	$GPGGA,091045,2543.8851,N,08009.7266,W,1,7,1.8,19,M,,M,,*5F
05/28/2014	09:10:45.624	$GPGGA,091046,2543.8852,N,08009.7266,W,1,7,1.8,19,M,,M,,*5F
05/28/2014	09:10:46.610	$GPGGA,091047,2543.8850,N,08009.7266,W,1,7,1.8,19,M,,M,,*5C
05/28/2014	09:10:47.637	$GPGGA,091048,2543.8857,N,08009.7266,W,1,7,1.7,19,M,,M,,*5B
05/28/2014	09:10:48.641	$GPGGA,091049,2543.8860,N,08009.7266,W,1,8,1.7,19,M,,M,,*51
05/28/2014	09:10:49.627	$GPGGA,091050,2543.8864,N,08009.7266,W,1,8,1.7,19,M,,M,,*5D
05/28/2014	09:10:50.643	$GPGGA,091051,2543.8866,N,08009.7266,W,1,8,1.7,19,M,,M,,*5E
05/28/2014	09:10:51.648	$GPGGA,091052,2543.8867,N,08009.7266,W,1,8,1.7,19,M,,M,,*5C
05/28/2014	09:10:52.664	$GPGGA,091053,2543.8870,N,08009.7266,W,1,8,1.7,19,M,,M,,*5B
05/28/2014	09:10:53.650	$GPGGA,091054,2543.8871,N,08009.7266,W,1,8,1.7,19,M,,M,,*5D
05/28/2014	09:10:54.674	$GPGGA,091055,2543.8874,N,08009.7267,W,1,8,1.7,19,M,,M,,*58
05/28/2014	09:10:55.670	$GPGGA,091056,2543.8873,N,08009.7267,W,1,8,1.7,19,M,,M,,*5C
05/28/2014	09:10:56.696	$GPGGA,091057,2543.8874,N,08009.7267,W,1,8,1.7,19,M,,M,,*5A
05/28/2014	09:10:57.663	$GPGGA,091058,2543.8872,N,08009.7267,W,1,8,1.7,19,M,,M,,*53
05/28/2014	09:10:58.657	$GPGGA,091059,2543.8871,N,08009.7267,W,1,8,1.7,19,M,,M,,*51
05/28/2014	09:10:59.694	$GPGGA,091100,2543.8871,N,08009.7267,W,1,8,1.7,20,M,,M,,*56
05/28/2014	09:11:00.691	$GPGGA,091101,2543.8869,N,08009.7267,W,1,8,1.7,20,M,,M,,*5E
05/28/2014	09:11:01.664	$GPGGA,091102,2543.8870,N,08009.7269,W,1,8,1.7,20,M,,M,,*5B
05/28/2014	09:11:02.680	$GPGGA,091103,2543.8868,N,08009.7268,W,1,8,1.7,20,M,,M,,*52
05/28/2014	09:11:03.696	$GPGGA,091104,2543.8867,N,08009.7269,W,1,8,1.7,20,M,,M,,*5B
05/28/2014	09:11:04.681	$GPGGA,091105,2543.8866,N,08009.7269,W,1,8,1.7,20,M,,M,,*5B
05/28/2014	09:11:05.697	$GPGGA,091106,2543.8865,N,08009.7269,W,1,8,1.7,20,M,,M,,*5B
05/28/2014	09:11:06.723	$GPGGA,091107,2543.8864,N,08009.7269,W,1,8,1.7,20,M,,M,,*5B
05/28/2014	09:11:07.718	$GPGGA,091108,2543.8864,N,08009.7269,W,1,8,1.7,20,M,,M,,*54
05/28/2014	09:11:08.805	$GPGGA,091109,2543.8864,N,08009.7270,W,1,8,1.7,20,M,,M,,*5D
05/28/2014	09:11:09.700	$GPGGA,091110,2543.8862,N,08009.7270,W,1,8,1.7,20,M,,M,,*53
05/28/2014	09:11:10.705	$GPGGA,091111,2543.8863,N,08009.7272,W,1,8,1.7,20,M,,M,,*51
05/28/2014	09:11:11.841	$GPGGA,091112,2543.8861,N,08009.7271,W,1,8,1.7,20,M,,M,,*53
05/28/2014	09:11:12.726	$GPGGA,091113,2543.8862,N,08009.7272,W,1,8,1.7,19,M,,M,,*58
05/28/2014	09:11:13.721	$GPGGA,091114,2543.8861,N,08009.7271,W,1,8,1.7,19,M,,M,,*5F
05/28/2014	09:11:14.838	$GPGGA,091115,2543.8862,N,08009.7272,W,1,8,1.7,19,M,,M,,*5E
05/28/2014	09:11:15.733	$GPGGA,091116,2543.8860,N,08009.7271,W,1,8,1.7,19,M,,M,,*5C
05/28/2014	09:11:16.749	$GPGGA,091117,2543.8860,N,08009.7272,W,1,8,1.7,19,M,,M,,*5E
05/28/2014	09:11:17.734	$GPGGA,091118,2543.8859,N,08009.7272,W,1,8,1.7,19,M,,M,,*5B
05/28/2014	09:11:18.731	$GPGGA,091119,2543.8860,N,08009.7272,W,1,8,1.7,19,M,,M,,*50
05/28/2014	09:11:19.766	$GPGGA,091120,2543.8858,N,08009.7272,W,1,8,1.7,19,M,,M,,*51
05/28/2014	09:11:20.742	$GPGGA,091121,2543.8859,N,08009.7272,W,1,8,1.7,19,M,,M,,*51
05/28/2014	09:11:21.868	$GPGGA,091122,2543.8858,N,08009.7272,W,1,8,1.7,19,M,,M,,*53
05/28/2014	09:11:22.883	$GPGGA,091123,2543.8859,N,08009.7273,W,1,8,1.7,19,M,,M,,*52
05/28/2014	09:11:23.859	$GPGGA,091124,2543.8858,N,08009.7273,W,1,8,1.7,19,M,,M,,*54
05/28/2014	09:11:24.895	$GPGGA,091125,2543.8859,N,08009.7274,W,1,8,1.7,19,M,,M,,*53
05/28/2014	09:11:25.850	$GPGGA,091126,2543.8858,N,08009.7274,W,1,8,1.7,19,M,,M,,*51
05/28/2014	09:11:26.857	$GPGGA,091127,2543.8860,N,08009.7274,W,1,8,1.7,19,M,,M,,*5B
05/28/2014	09:11:27.872	$GPGGA,091128,2543.8860,N,08009.7276,W,1,8,1.7,19,M,,M,,*56
05/28/2014	09:11:28.906	$GPGGA,091129,2543.8860,N,08009.7275,W,1,8,1.7,19,M,,M,,*54
05/28/2014	09:11:29.873	$GPGGA,091130,2543.8860,N,08009.7276,W,1,8,1.7,19,M,,M,,*5F
05/28/2014	09:11:30.889	$GPGGA,091131,2543.8862,N,08009.7276,W,1,8,1.7,19,M,,M,,*5C
05/28/2014	09:11:31.894	$GPGGA,091132,2543.8861,N,08009.7276,W,1,8,1.7,19,M,,M,,*5C
05/28/2014	09:11:32.889	$GPGGA,091133,2543.8863,N,08009.7276,W,1,8,1.7,19,M,,M,,*5F
05/28/2014	09:11:33.895	$GPGGA,091134,2543.8864,N,08009.7276,W,1,8,1.7,19,M,,M,,*5F
05/28/2014	09:11:34.901	$GPGGA,091135,2543.8864,N,08009.7276,W,1,8,1.7,19,M,,M,,*5E
05/28/2014	09:11:35.896	$GPGGA,091136,2543.8864,N,08009.7277,W,1,8,1.7,19,M,,M,,*5C
05/28/2014	09:11:36.912	$GPGGA,091137,2543.8864,N,08009.7277,W,1,8,1.7,19,M,,M,,*5D
05/28/2014	09:11:37.907	$GPGGA,091138,2543.8864,N,08009.7277,W,1,8,1.7,19,M,,M,,*52
05/28/2014	09:11:38.583	$GPGGA,091139,2543.8864,N,08009.7277,W,1,8,1.7,19,M,,M,,*53
05/28/2014	09:11:39.590	$GPGGA,091140,2543.8864,N,08009.7277,W,1,8,1.7,19,M,,M,,*5D
05/28/2014	09:11:40.595	$GPGGA,091141,2543.8864,N,08009.7277,W,1,8,1.7,19,M,,M,,*5C
05/28/2014	09:11:41.580	$GPGGA,091142,2543.8864,N,08009.7279,W,1,8,1.7,19,M,,M,,*51
05/28/2014	09:11:42.605	$GPGGA,091143,2543.8864,N,08009.7278,W,1,8,1.7,19,M,,M,,*51
05/28/2014	09:11:43.600	$GPGGA,091144,2543.8864,N,08009.7279,W,1,8,1.7,19,M,,M,,*57
05/28/2014	09:11:44.605	$GPGGA,091145,2543.8864,N,08009.7278,W,1,8,1.7,19,M,,M,,*57
05/28/2014	09:11:45.589	$GPGGA,091146,2543.8864,N,08009.7280,W,1,8,1.7,19,M,,M,,*53
05/28/2014	09:11:46.623	$GPGGA,091147,2543.8864,N,08009.7279,W,1,8,1.7,19,M,,M,,*54
05/28/2014	09:11:47.608	$GPGGA,091148,2543.8864,N,08009.7280,W,1,8,1.7,19,M,,M,,*5D
