Software Version Number: 1	Data File Format Number: 1	Build Version Number: 1	Error Count Since VI Started: 0	Manufacturer: Raytheon	 Model Number: RayMarine 120	 S/N: 	 Cal Date: 	 Wind Direction Offset: 0.00	 Slope (M)1: 0.00	 Offset (B)1: 0.00	 Slope (M)2: 0.00	 Offset (B)2: 0.00	 Slope (M)3: 0.00	 Offset (B)3: 0.00	 Slope (M)4: 0.00	 Offset (B)4: 0.00	 Slope (M)5: 0.00	 Offset (B)5: 0.00	 Slope (M)6: 0.00	 Offset (B)6: 0.00
Computer Date	Computer Time	GGA String
06/07/2014	10:00:00.240	$GPGGA,100009,2424.0408,N,08116.0256,W,1,9,1.5,9,M,,M,,*6F
06/07/2014	10:00:01.245	$GPGGA,100010,2424.0422,N,08116.0251,W,1,9,1.5,9,M,,M,,*68
06/07/2014	10:00:02.276	$GPGGA,100011,2424.0436,N,08116.0246,W,1,9,1.5,9,M,,M,,*6A
06/07/2014	10:00:03.238	$GPGGA,100012,2424.0448,N,08116.0241,W,1,9,1.5,9,M,,M,,*67
06/07/2014	10:00:04.224	$GPGGA,100013,2424.0462,N,08116.0236,W,1,9,1.5,9,M,,M,,*6E
06/07/2014	10:00:05.284	$GPGGA,100014,2424.0476,N,08116.0231,W,1,9,1.5,9,M,,M,,*6B
06/07/2014	10:00:06.276	$GPGGA,100015,2424.0488,N,08116.0225,W,1,9,1.5,9,M,,M,,*6E
06/07/2014	10:00:07.319	$GPGGA,100016,2424.0502,N,08116.0220,W,1,9,1.5,9,M,,M,,*6B
06/07/2014	10:00:08.233	$GPGGA,100017,2424.0516,N,08116.0216,W,1,9,1.5,9,M,,M,,*6A
06/07/2014	10:00:09.295	$GPGGA,100018,2424.0528,N,08116.0210,W,1,9,1.5,9,M,,M,,*6E
06/07/2014	10:00:10.278	$GPGGA,100019,2424.0542,N,08116.0205,W,1,9,1.5,9,M,,M,,*67
06/07/2014	10:00:11.244	$GPGGA,100020,2424.0555,N,08116.0200,W,1,9,1.5,9,M,,M,,*6E
06/07/2014	10:00:12.273	$GPGGA,100021,2424.0569,N,08116.0194,W,1,9,1.5,9,M,,M,,*6E
06/07/2014	10:00:13.296	$GPGGA,100022,2424.0582,N,08116.0189,W,1,9,1.5,9,M,,M,,*64
06/07/2014	10:00:14.280	$GPGGA,100023,2424.0595,N,08116.0184,W,1,9,1.5,9,M,,M,,*6E
06/07/2014	10:00:15.312	$GPGGA,100024,2424.0607,N,08116.0178,W,1,9,1.5,9,M,,M,,*62
06/07/2014	10:00:16.265	$GPGGA,100025,2424.0621,N,08116.0173,W,1,9,1.5,9,M,,M,,*6C
06/07/2014	10:00:17.288	$GPGGA,100026,2424.0635,N,08116.0168,W,1,9,1.5,9,M,,M,,*60
06/07/2014	10:00:18.281	$GPGGA,100027,2424.0647,N,08116.0163,W,1,9,1.5,9,M,,M,,*6F
06/07/2014	10:00:19.255	$GPGGA,100028,2424.0661,N,08116.0157,W,1,9,1.5,9,M,,M,,*63
06/07/2014	10:00:20.276	$GPGGA,100029,2424.0674,N,08116.0151,W,1,9,1.5,9,M,,M,,*60
06/07/2014	10:00:21.300	$GPGGA,100030,2424.0686,N,08116.0146,W,1,9,1.5,9,M,,M,,*63
06/07/2014	10:00:22.302	$GPGGA,100031,2424.0701,N,08116.0142,W,1,9,1.5,9,M,,M,,*68
06/07/2014	10:00:23.314	$GPGGA,100032,2424.0714,N,08116.0136,W,1,9,1.5,9,M,,M,,*6C
06/07/2014	10:00:24.279	$GPGGA,100033,2424.0726,N,08116.0130,W,1,9,1.5,9,M,,M,,*6A
06/07/2014	10:00:25.300	$GPGGA,100034,2424.0740,N,08116.0125,W,1,9,1.5,9,M,,M,,*69
06/07/2014	10:00:26.274	$GPGGA,100035,2424.0754,N,08116.0120,W,1,9,1.5,9,M,,M,,*68
06/07/2014	10:00:27.386	$GPGGA,100036,2424.0766,N,08116.0114,W,1,9,1.5,9,M,,M,,*6D
06/07/2014	10:00:28.309	$GPGGA,100037,2424.0779,N,08116.0109,W,1,9,1.5,9,M,,M,,*6E
06/07/2014	10:00:29.200	$GPGGA,100038,2424.0791,N,08116.0104,W,1,9,1.5,9,M,,M,,*6A
06/07/2014	10:00:30.072	$GPGGA,100039,2424.0806,N,08116.0099,W,1,9,1.5,9,M,,M,,*6F
06/07/2014	10:00:31.196	$GPGGA,100040,2424.0819,N,08116.0093,W,1,9,1.5,9,M,,M,,*65
06/07/2014	10:00:32.219	$GPGGA,100041,2424.0831,N,08116.0088,W,1,9,1.5,9,M,,M,,*64
06/07/2014	10:00:33.141	$GPGGA,100042,2424.0845,N,08116.0083,W,1,9,1.5,9,M,,M,,*6F
06/07/2014	10:00:34.148	$GPGGA,100043,2424.0858,N,08116.0078,W,1,9,1.5,9,M,,M,,*66
06/07/2014	10:00:35.157	$GPGGA,100044,2424.0871,N,08116.0071,W,1,9,1.5,9,M,,M,,*63
06/07/2014	10:00:36.210	$GPGGA,100045,2424.0884,N,08116.0066,W,1,9,1.5,9,M,,M,,*6E
06/07/2014	10:00:37.145	$GPGGA,100046,2424.0896,N,08116.0061,W,1,9,1.5,9,M,,M,,*69
06/07/2014	10:00:38.216	$GPGGA,100047,2424.0910,N,08116.0056,W,1,9,1.5,9,M,,M,,*63
06/07/2014	10:00:39.199	$GPGGA,100048,2424.0921,N,08116.0050,W,1,9,1.5,9,M,,M,,*68
06/07/2014	10:00:40.182	$GPGGA,100049,2424.0935,N,08116.0046,W,1,9,1.5,9,M,,M,,*6B
06/07/2014	10:00:41.184	$GPGGA,100050,2424.0947,N,08116.0041,W,1,9,1.5,9,M,,M,,*61
06/07/2014	10:00:42.208	$GPGGA,100051,2424.0961,N,08116.0036,W,1,9,1.5,9,M,,M,,*64
06/07/2014	10:00:43.199	$GPGGA,100052,2424.0975,N,08116.0030,W,1,9,1.5,9,M,,M,,*64
06/07/2014	10:00:44.212	$GPGGA,100053,2424.0986,N,08116.0025,W,1,9,1.5,9,M,,M,,*6D
06/07/2014	10:00:45.215	$GPGGA,100054,2424.1000,N,08116.0021,W,1,9,1.5,9,M,,M,,*68
06/07/2014	10:00:46.228	$GPGGA,100055,2424.1014,N,08116.0016,W,1,9,1.5,9,M,,M,,*68
06/07/2014	10:00:47.211	$GPGGA,100056,2424.1026,N,08116.0011,W,1,9,1.5,9,M,,M,,*6D
06/07/2014	10:00:48.214	$GPGGA,100057,2424.1040,N,08116.0006,W,1,9,1.5,9,M,,M,,*6A
06/07/2014	10:00:50.621	$GPGGA,100059,2424.1066,N,08115.9996,W,1,9,1.5,9,M,,M,,*6A
06/07/2014	10:00:51.223	$GPGGA,100100,2424.1079,N,08115.9991,W,1,9,1.5,9,M,,M,,*6E
06/07/2014	10:00:52.276	$GPGGA,100101,2424.1091,N,08115.9986,W,1,9,1.5,9,M,,M,,*6F
06/07/2014	10:00:53.208	$GPGGA,100102,2424.1105,N,08115.9981,W,1,9,1.5,9,M,,M,,*67
06/07/2014	10:00:54.207	$GPGGA,100103,2424.1119,N,08115.9976,W,1,9,1.5,9,M,,M,,*63
06/07/2014	10:00:55.214	$GPGGA,100104,2424.1119,N,08115.9976,W,1,9,1.5,9,M,,M,,*64
06/07/2014	10:00:56.217	$GPGGA,100105,2424.1145,N,08115.9966,W,1,9,1.5,9,M,,M,,*6D
06/07/2014	10:00:57.220	$GPGGA,100106,2424.1158,N,08115.9962,W,1,9,1.5,9,M,,M,,*66
06/07/2014	10:00:58.232	$GPGGA,100107,2424.1171,N,08115.9958,W,1,9,1.5,9,M,,M,,*65
06/07/2014	10:00:59.235	$GPGGA,100108,2424.1184,N,08115.9952,W,1,9,1.5,9,M,,M,,*6A
06/07/2014	10:01:00.228	$GPGGA,100109,2424.1196,N,08115.9947,W,1,9,1.5,9,M,,M,,*6C
06/07/2014	10:01:01.223	$GPGGA,100110,2424.1210,N,08115.9942,W,1,9,1.5,9,M,,M,,*6C
06/07/2014	10:01:02.243	$GPGGA,100111,2424.1223,N,08115.9937,W,1,9,1.5,9,M,,M,,*6F
06/07/2014	10:01:03.246	$GPGGA,100112,2424.1236,N,08115.9932,W,1,9,1.5,9,M,,M,,*6D
06/07/2014	10:01:04.215	$GPGGA,100113,2424.1249,N,08115.9927,W,1,9,1.5,9,M,,M,,*60
06/07/2014	10:01:05.252	$GPGGA,100114,2424.1261,N,08115.9922,W,1,9,1.5,9,M,,M,,*68
06/07/2014	10:01:06.235	$GPGGA,100115,2424.1275,N,08115.9917,W,1,9,1.5,9,M,,M,,*6A
06/07/2014	10:01:07.258	$GPGGA,100116,2424.1288,N,08115.9912,W,1,9,1.5,9,M,,M,,*6E
06/07/2014	10:01:08.241	$GPGGA,100117,2424.1301,N,08115.9907,W,1,9,1.5,9,M,,M,,*6B
06/07/2014	10:01:09.224	$GPGGA,100118,2424.1301,N,08115.9907,W,1,9,1.5,9,M,,M,,*64
06/07/2014	10:01:10.307	$GPGGA,100119,2424.1328,N,08115.9896,W,1,9,1.5,9,M,,M,,*67
06/07/2014	10:01:11.270	$GPGGA,100120,2424.1328,N,08115.9896,W,1,9,1.5,9,M,,M,,*6D
06/07/2014	10:01:12.242	$GPGGA,100121,2424.1354,N,08115.9886,W,1,9,1.5,9,M,,M,,*66
06/07/2014	10:01:13.253	$GPGGA,100122,2424.1366,N,08115.9881,W,1,9,1.5,9,M,,M,,*63
06/07/2014	10:01:14.208	$GPGGA,100123,2424.1380,N,08115.9875,W,1,9,1.5,9,M,,M,,*61
06/07/2014	10:01:15.281	$GPGGA,100124,2424.1393,N,08115.9870,W,1,9,1.5,9,M,,M,,*61
06/07/2014	10:01:16.233	$GPGGA,100125,2424.1405,N,08115.9865,W,1,9,1.5,9,M,,M,,*6C
06/07/2014	10:01:17.216	$GPGGA,100126,2424.1405,N,08115.9865,W,1,9,1.5,9,M,,M,,*6F
06/07/2014	10:01:18.239	$GPGGA,100127,2424.1433,N,08115.9854,W,1,9,1.5,9,M,,M,,*69
06/07/2014	10:01:20.485	$GPGGA,100129,2424.1459,N,08115.9844,W,1,9,1.5,9,M,,M,,*6A
06/07/2014	10:01:21.247	$GPGGA,100130,2424.1459,N,08115.9844,W,1,9,1.5,9,M,,M,,*62
06/07/2014	10:01:22.351	$GPGGA,100131,2424.1485,N,08115.9833,W,1,9,1.5,9,M,,M,,*62
06/07/2014	10:01:23.333	$GPGGA,100132,2424.1499,N,08115.9828,W,1,9,1.5,9,M,,M,,*66
06/07/2014	10:01:24.226	$GPGGA,100133,2424.1512,N,08115.9823,W,1,9,1.5,9,M,,M,,*6E
06/07/2014	10:01:25.319	$GPGGA,100134,2424.1525,N,08115.9818,W,1,9,1.5,9,M,,M,,*65
06/07/2014	10:01:26.322	$GPGGA,100135,2424.1538,N,08115.9812,W,1,9,1.5,9,M,,M,,*62
06/07/2014	10:01:27.345	$GPGGA,100136,2424.1550,N,08115.9807,W,1,9,1.5,9,M,,M,,*6B
06/07/2014	10:01:28.348	$GPGGA,100137,2424.1564,N,08115.9802,W,1,9,1.5,9,M,,M,,*68
06/07/2014	10:01:29.148	$GPGGA,100138,2424.1577,N,08115.9797,W,1,9,1.5,9,M,,M,,*66
06/07/2014	10:01:30.172	$GPGGA,100139,2424.1590,N,08115.9791,W,1,9,1.5,9,M,,M,,*68
06/07/2014	10:01:31.164	$GPGGA,100140,2424.1603,N,08115.9786,W,1,9,1.5,9,M,,M,,*69
06/07/2014	10:01:32.177	$GPGGA,100141,2424.1615,N,08115.9781,W,1,9,1.5,9,M,,M,,*68
06/07/2014	10:01:33.144	$GPGGA,100142,2424.1629,N,08115.9775,W,1,9,1.5,9,M,,M,,*6F
06/07/2014	10:01:34.171	$GPGGA,100143,2424.1643,N,08115.9770,W,1,9,1.5,9,M,,M,,*67
06/07/2014	10:01:35.174	$GPGGA,100144,2424.1655,N,08115.9765,W,1,9,1.5,9,M,,M,,*63
06/07/2014	10:01:36.177	$GPGGA,100145,2424.1669,N,08115.9760,W,1,9,1.5,9,M,,M,,*68
06/07/2014	10:01:37.150	$GPGGA,100146,2424.1682,N,08115.9754,W,1,9,1.5,9,M,,M,,*69
06/07/2014	10:01:38.173	$GPGGA,100147,2424.1694,N,08115.9749,W,1,9,1.5,9,M,,M,,*63
06/07/2014	10:01:39.176	$GPGGA,100148,2424.1708,N,08115.9744,W,1,9,1.5,9,M,,M,,*65
06/07/2014	10:01:40.160	$GPGGA,100149,2424.1720,N,08115.9739,W,1,9,1.5,9,M,,M,,*64
06/07/2014	10:01:41.156	$GPGGA,100150,2424.1734,N,08115.9733,W,1,9,1.5,9,M,,M,,*63
06/07/2014	10:01:42.184	$GPGGA,100151,2424.1747,N,08115.9729,W,1,9,1.5,9,M,,M,,*6D
06/07/2014	10:01:43.187	$GPGGA,100152,2424.1759,N,08115.9724,W,1,9,1.5,9,M,,M,,*6C
06/07/2014	10:01:44.190	$GPGGA,100153,2424.1773,N,08115.9718,W,1,9,1.5,9,M,,M,,*6A
06/07/2014	10:01:45.173	$GPGGA,100154,2424.1785,N,08115.9713,W,1,9,1.5,9,M,,M,,*6F
06/07/2014	10:01:46.196	$GPGGA,100155,2424.1799,N,08115.9708,W,1,9,1.5,9,M,,M,,*69
06/07/2014	10:01:47.179	$GPGGA,100156,2424.1812,N,08115.9703,W,1,9,1.5,9,M,,M,,*6D
06/07/2014	10:01:48.202	$GPGGA,100157,2424.1824,N,08115.9697,W,1,9,1.5,9,M,,M,,*65
06/07/2014	10:01:49.155	$GPGGA,100158,2424.1837,N,08115.9693,W,1,9,1.5,9,M,,M,,*6C
06/07/2014	10:01:50.182	$GPGGA,100159,2424.1850,N,08115.9688,W,1,9,1.5,9,M,,M,,*66
06/07/2014	10:01:51.210	$GPGGA,100200,2424.1863,N,08115.9683,W,1,9,1.5,9,M,,M,,*62
06/07/2014	10:01:52.180	$GPGGA,100201,2424.1875,N,08115.9677,W,1,9,1.5,9,M,,M,,*6F
06/07/2014	10:01:53.175	$GPGGA,100202,2424.1889,N,08115.9673,W,1,9,1.5,9,M,,M,,*6B
06/07/2014	10:01:54.200	$GPGGA,100203,2424.1902,N,08115.9668,W,1,9,1.5,9,M,,M,,*62
06/07/2014	10:01:55.181	$GPGGA,100204,2424.1915,N,08115.9662,W,1,9,1.5,9,M,,M,,*69
06/07/2014	10:01:56.289	$GPGGA,100205,2424.1926,N,08115.9657,W,1,9,1.5,9,M,,M,,*6E
06/07/2014	10:01:57.177	$GPGGA,100206,2424.1940,N,08115.9652,W,1,9,1.6,9,M,,M,,*6B
06/07/2014	10:01:58.191	$GPGGA,100207,2424.1953,N,08115.9647,W,1,9,1.5,9,M,,M,,*6F
06/07/2014	10:01:59.201	$GPGGA,100208,2424.1965,N,08115.9642,W,1,9,1.5,9,M,,M,,*60
06/07/2014	10:02:00.266	$GPGGA,100209,2424.1979,N,08115.9638,W,1,9,1.5,9,M,,M,,*61
06/07/2014	10:02:01.188	$GPGGA,100210,2424.1991,N,08115.9633,W,1,9,1.5,9,M,,M,,*64
06/07/2014	10:02:02.181	$GPGGA,100211,2424.2005,N,08115.9628,W,1,8,1.6,9,M,,M,,*6A
06/07/2014	10:02:03.316	$GPGGA,100212,2424.2020,N,08115.9623,W,1,8,1.5,9,M,,M,,*66
06/07/2014	10:02:04.209	$GPGGA,100213,2424.2034,N,08115.9619,W,1,9,1.5,9,M,,M,,*6A
06/07/2014	10:02:05.180	$GPGGA,100214,2424.2045,N,08115.9613,W,1,9,1.5,9,M,,M,,*61
06/07/2014	10:02:06.173	$GPGGA,100215,2424.2061,N,08115.9609,W,1,8,1.6,9,M,,M,,*6F
06/07/2014	10:02:07.306	$GPGGA,100216,2424.2074,N,08115.9604,W,1,8,1.5,9,M,,M,,*66
06/07/2014	10:02:08.235	$GPGGA,100217,2424.2085,N,08115.9599,W,1,9,1.5,9,M,,M,,*6F
06/07/2014	10:02:09.192	$GPGGA,100218,2424.2096,N,08115.9593,W,1,9,1.6,9,M,,M,,*6B
06/07/2014	10:02:10.274	$GPGGA,100219,2424.2110,N,08115.9588,W,1,8,1.6,9,M,,M,,*6E
06/07/2014	10:02:11.297	$GPGGA,100220,2424.2121,N,08115.9583,W,1,8,1.5,9,M,,M,,*6E
06/07/2014	10:02:12.310	$GPGGA,100221,2424.2135,N,08115.9578,W,1,9,1.5,9,M,,M,,*6F
06/07/2014	10:02:13.292	$GPGGA,100222,2424.2148,N,08115.9573,W,1,9,1.5,9,M,,M,,*6D
06/07/2014	10:02:14.285	$GPGGA,100223,2424.2160,N,08115.9568,W,1,9,1.5,9,M,,M,,*6C
06/07/2014	10:02:15.299	$GPGGA,100224,2424.2173,N,08115.9563,W,1,9,1.5,9,M,,M,,*62
06/07/2014	10:02:16.281	$GPGGA,100225,2424.2186,N,08115.9558,W,1,9,1.5,9,M,,M,,*61
06/07/2014	10:02:17.294	$GPGGA,100226,2424.2197,N,08115.9552,W,1,9,1.5,9,M,,M,,*68
06/07/2014	10:02:18.317	$GPGGA,100227,2424.2211,N,08115.9548,W,1,9,1.5,9,M,,M,,*6F
06/07/2014	10:02:19.300	$GPGGA,100228,2424.2224,N,08115.9542,W,1,9,1.5,9,M,,M,,*6C
06/07/2014	10:02:20.323	$GPGGA,100229,2424.2236,N,08115.9537,W,1,9,1.5,9,M,,M,,*6C
06/07/2014	10:02:21.286	$GPGGA,100230,2424.2250,N,08115.9533,W,1,9,1.5,9,M,,M,,*60
06/07/2014	10:02:22.288	$GPGGA,100231,2424.2262,N,08115.9528,W,1,9,1.5,9,M,,M,,*6A
06/07/2014	10:02:23.321	$GPGGA,100232,2424.2276,N,08115.9522,W,1,9,1.5,9,M,,M,,*66
06/07/2014	10:02:24.314	$GPGGA,100233,2424.2289,N,08115.9517,W,1,9,1.5,9,M,,M,,*61
06/07/2014	10:02:25.306	$GPGGA,100234,2424.2301,N,08115.9512,W,1,9,1.5,9,M,,M,,*62
06/07/2014	10:02:26.289	$GPGGA,100235,2424.2315,N,08115.9507,W,1,9,1.5,9,M,,M,,*62
06/07/2014	10:02:27.312	$GPGGA,100236,2424.2327,N,08115.9501,W,1,9,1.5,9,M,,M,,*66
06/07/2014	10:02:28.315	$GPGGA,100237,2424.2341,N,08115.9497,W,1,9,1.5,9,M,,M,,*69
06/07/2014	10:02:29.136	$GPGGA,100238,2424.2354,N,08115.9492,W,1,9,1.5,9,M,,M,,*67
06/07/2014	10:02:30.159	$GPGGA,100239,2424.2366,N,08115.9486,W,1,9,1.5,9,M,,M,,*62
06/07/2014	10:02:31.142	$GPGGA,100240,2424.2380,N,08115.9481,W,1,9,1.5,9,M,,M,,*63
06/07/2014	10:02:32.165	$GPGGA,100241,2424.2392,N,08115.9476,W,1,9,1.5,9,M,,M,,*69
06/07/2014	10:02:33.136	$GPGGA,100242,2424.2406,N,08115.9471,W,1,9,1.5,9,M,,M,,*67
06/07/2014	10:02:34.133	$GPGGA,100243,2424.2419,N,08115.9466,W,1,9,1.5,9,M,,M,,*6E
06/07/2014	10:02:35.153	$GPGGA,100244,2424.2431,N,08115.9461,W,1,9,1.5,9,M,,M,,*64
06/07/2014	10:02:36.140	$GPGGA,100245,2424.2445,N,08115.9456,W,1,9,1.5,9,M,,M,,*62
06/07/2014	10:02:37.119	$GPGGA,100246,2424.2457,N,08115.9450,W,1,9,1.5,9,M,,M,,*64
06/07/2014	10:02:38.134	$GPGGA,100247,2424.2471,N,08115.9445,W,1,9,1.5,9,M,,M,,*65
06/07/2014	10:02:39.155	$GPGGA,100248,2424.2484,N,08115.9440,W,1,9,1.5,9,M,,M,,*65
06/07/2014	10:02:40.158	$GPGGA,100249,2424.2496,N,08115.9435,W,1,9,1.5,9,M,,M,,*65
06/07/2014	10:02:41.150	$GPGGA,100250,2424.2511,N,08115.9429,W,1,9,1.5,9,M,,M,,*6E
06/07/2014	10:02:42.164	$GPGGA,100251,2424.2524,N,08115.9424,W,1,9,1.5,9,M,,M,,*64
06/07/2014	10:02:43.276	$GPGGA,100252,2424.2536,N,08115.9420,W,1,9,1.5,9,M,,M,,*60
06/07/2014	10:02:44.129	$GPGGA,100253,2424.2550,N,08115.9414,W,1,9,1.5,9,M,,M,,*66
06/07/2014	10:02:45.251	$GPGGA,100254,2424.2562,N,08115.9409,W,1,9,1.5,9,M,,M,,*6C
06/07/2014	10:02:46.254	$GPGGA,100255,2424.2576,N,08115.9404,W,1,9,1.5,9,M,,M,,*65
06/07/2014	10:02:47.173	$GPGGA,100256,2424.2589,N,08115.9398,W,1,9,1.5,9,M,,M,,*64
06/07/2014	10:02:48.140	$GPGGA,100257,2424.2603,N,08115.9393,W,1,9,1.5,9,M,,M,,*6F
06/07/2014	10:02:49.133	$GPGGA,100258,2424.2616,N,08115.9388,W,1,9,1.5,9,M,,M,,*6E
06/07/2014	10:02:50.156	$GPGGA,100259,2424.2627,N,08115.9382,W,1,9,1.5,9,M,,M,,*67
06/07/2014	10:02:51.279	$GPGGA,100300,2424.2641,N,08115.9377,W,1,9,1.5,9,M,,M,,*60
06/07/2014	10:02:52.141	$GPGGA,100301,2424.2654,N,08115.9372,W,1,9,1.5,9,M,,M,,*60
06/07/2014	10:02:53.244	$GPGGA,100302,2424.2666,N,08115.9367,W,1,9,1.5,9,M,,M,,*66
06/07/2014	10:02:54.257	$GPGGA,100303,2424.2681,N,08115.9362,W,1,9,1.5,9,M,,M,,*6B
06/07/2014	10:02:55.160	$GPGGA,100304,2424.2692,N,08115.9356,W,1,9,1.5,9,M,,M,,*69
06/07/2014	10:02:56.153	$GPGGA,100305,2424.2706,N,08115.9351,W,1,9,1.5,9,M,,M,,*63
06/07/2014	10:02:57.256	$GPGGA,100306,2424.2720,N,08115.9347,W,1,9,1.5,9,M,,M,,*63
06/07/2014	10:02:58.149	$GPGGA,100307,2424.2733,N,08115.9340,W,1,9,1.5,9,M,,M,,*67
06/07/2014	10:02:59.272	$GPGGA,100308,2424.2746,N,08115.9335,W,1,9,1.5,9,M,,M,,*68
06/07/2014	10:03:00.286	$GPGGA,100309,2424.2759,N,08115.9330,W,1,9,1.5,9,M,,M,,*62
06/07/2014	10:03:01.257	$GPGGA,100310,2424.2771,N,08115.9325,W,1,9,1.5,9,M,,M,,*64
06/07/2014	10:03:02.270	$GPGGA,100311,2424.2785,N,08115.9319,W,1,9,1.5,9,M,,M,,*61
06/07/2014	10:03:03.282	$GPGGA,100312,2424.2798,N,08115.9314,W,1,9,1.5,9,M,,M,,*63
06/07/2014	10:03:04.275	$GPGGA,100313,2424.2811,N,08115.9309,W,1,9,1.5,9,M,,M,,*60
06/07/2014	10:03:05.258	$GPGGA,100314,2424.2824,N,08115.9303,W,1,9,1.5,9,M,,M,,*6B
06/07/2014	10:03:06.261	$GPGGA,100315,2424.2836,N,08115.9298,W,1,9,1.5,9,M,,M,,*6A
06/07/2014	10:03:07.274	$GPGGA,100316,2424.2850,N,08115.9292,W,1,9,1.5,9,M,,M,,*63
06/07/2014	10:03:08.267	$GPGGA,100317,2424.2863,N,08115.9288,W,1,9,1.5,9,M,,M,,*69
06/07/2014	10:03:09.260	$GPGGA,100318,2424.2876,N,08115.9283,W,1,9,1.5,9,M,,M,,*69
06/07/2014	10:03:10.253	$GPGGA,100319,2424.2889,N,08115.9277,W,1,9,1.5,9,M,,M,,*63
06/07/2014	10:03:11.276	$GPGGA,100320,2424.2901,N,08115.9272,W,1,9,1.5,9,M,,M,,*6D
06/07/2014	10:03:12.279	$GPGGA,100321,2424.2915,N,08115.9267,W,1,9,1.5,9,M,,M,,*6D
06/07/2014	10:03:13.261	$GPGGA,100322,2424.2928,N,08115.9262,W,1,9,1.5,9,M,,M,,*65
06/07/2014	10:03:14.274	$GPGGA,100323,2424.2941,N,08115.9256,W,1,9,1.5,9,M,,M,,*6C
06/07/2014	10:03:15.267	$GPGGA,100324,2424.2955,N,08115.9251,W,1,9,1.5,9,M,,M,,*69
06/07/2014	10:03:16.280	$GPGGA,100325,2424.2968,N,08115.9247,W,1,9,1.5,9,M,,M,,*61
06/07/2014	10:03:17.263	$GPGGA,100326,2424.2980,N,08115.9241,W,1,9,1.5,9,M,,M,,*62
06/07/2014	10:03:18.285	$GPGGA,100327,2424.2994,N,08115.9236,W,1,9,1.5,9,M,,M,,*66
06/07/2014	10:03:19.278	$GPGGA,100328,2424.3008,N,08115.9231,W,1,9,1.5,9,M,,M,,*63
06/07/2014	10:03:20.281	$GPGGA,100329,2424.3020,N,08115.9226,W,1,9,1.5,9,M,,M,,*6E
06/07/2014	10:03:21.255	$GPGGA,100330,2424.3034,N,08115.9221,W,1,9,1.5,9,M,,M,,*64
06/07/2014	10:03:22.264	$GPGGA,100331,2424.3048,N,08115.9216,W,1,9,1.5,9,M,,M,,*6A
06/07/2014	10:03:23.289	$GPGGA,100332,2424.3060,N,08115.9210,W,1,9,1.5,9,M,,M,,*65
06/07/2014	10:03:24.279	$GPGGA,100333,2424.3074,N,08115.9205,W,1,9,1.5,9,M,,M,,*65
06/07/2014	10:03:25.275	$GPGGA,100334,2424.3087,N,08115.9200,W,1,9,1.5,9,M,,M,,*6B
06/07/2014	10:03:26.298	$GPGGA,100335,2424.3100,N,08115.9195,W,1,9,1.5,9,M,,M,,*6B
06/07/2014	10:03:27.291	$GPGGA,100336,2424.3113,N,08115.9190,W,1,9,1.5,9,M,,M,,*6F
06/07/2014	10:03:28.264	$GPGGA,100337,2424.3125,N,08115.9185,W,1,9,1.5,9,M,,M,,*6F
06/07/2014	10:03:29.132	$GPGGA,100338,2424.3139,N,08115.9180,W,1,9,1.5,9,M,,M,,*68
06/07/2014	10:03:30.136	$GPGGA,100339,2424.3153,N,08115.9175,W,1,9,1.5,9,M,,M,,*6F
06/07/2014	10:03:31.130	$GPGGA,100340,2424.3165,N,08115.9170,W,1,9,1.5,9,M,,M,,*61
06/07/2014	10:03:32.217	$GPGGA,100341,2424.3179,N,08115.9165,W,1,9,1.5,9,M,,M,,*69
06/07/2014	10:03:33.095	$GPGGA,100342,2424.3193,N,08115.9159,W,1,9,1.5,9,M,,M,,*61
06/07/2014	10:03:34.218	$GPGGA,100343,2424.3205,N,08115.9154,W,1,9,1.5,9,M,,M,,*61
06/07/2014	10:03:35.231	$GPGGA,100344,2424.3219,N,08115.9149,W,1,9,1.5,9,M,,M,,*67
06/07/2014	10:03:36.103	$GPGGA,100345,2424.3233,N,08115.9144,W,1,9,1.5,9,M,,M,,*63
06/07/2014	10:03:37.096	$GPGGA,100346,2424.3246,N,08115.9139,W,1,9,1.5,9,M,,M,,*68
06/07/2014	10:03:38.109	$GPGGA,100347,2424.3259,N,08115.9133,W,1,9,1.5,9,M,,M,,*6D
06/07/2014	10:03:39.121	$GPGGA,100348,2424.3272,N,08115.9127,W,1,9,1.5,9,M,,M,,*6E
06/07/2014	10:03:40.250	$GPGGA,100349,2424.3284,N,08115.9123,W,1,9,1.5,9,M,,M,,*62
06/07/2014	10:03:41.116	$GPGGA,100350,2424.3298,N,08115.9118,W,1,9,1.5,9,M,,M,,*6F
06/07/2014	10:03:42.861	$GPGGA,100351,2424.3312,N,08115.9112,W,1,9,1.5,9,M,,M,,*67
06/07/2014	10:03:43.112	$GPGGA,100352,2424.3324,N,08115.9107,W,1,9,1.5,9,M,,M,,*65
06/07/2014	10:03:44.114	$GPGGA,100353,2424.3338,N,08115.9102,W,1,9,1.5,9,M,,M,,*6C
06/07/2014	10:03:45.197	$GPGGA,100354,2424.3351,N,08115.9097,W,1,9,1.5,9,M,,M,,*69
06/07/2014	10:03:46.210	$GPGGA,100355,2424.3363,N,08115.9091,W,1,9,1.5,9,M,,M,,*6F
06/07/2014	10:03:47.223	$GPGGA,100356,2424.3378,N,08115.9086,W,1,9,1.5,9,M,,M,,*60
06/07/2014	10:03:48.216	$GPGGA,100357,2424.3391,N,08115.9081,W,1,9,1.5,9,M,,M,,*61
06/07/2014	10:03:49.218	$GPGGA,100358,2424.3403,N,08115.9076,W,1,9,1.5,9,M,,M,,*6A
06/07/2014	10:03:50.241	$GPGGA,100359,2424.3418,N,08115.9070,W,1,9,1.5,9,M,,M,,*67
06/07/2014	10:03:51.234	$GPGGA,100400,2424.3431,N,08115.9066,W,1,9,1.5,9,M,,M,,*60
06/07/2014	10:03:52.226	$GPGGA,100401,2424.3443,N,08115.9061,W,1,9,1.5,9,M,,M,,*63
06/07/2014	10:03:53.208	$GPGGA,100402,2424.3457,N,08115.9055,W,1,9,1.5,9,M,,M,,*62
06/07/2014	10:03:54.231	$GPGGA,100403,2424.3471,N,08115.9050,W,1,9,1.5,9,M,,M,,*62
06/07/2014	10:03:55.223	$GPGGA,100404,2424.3483,N,08115.9045,W,1,9,1.5,9,M,,M,,*6C
06/07/2014	10:03:56.226	$GPGGA,100405,2424.3497,N,08115.9040,W,1,9,1.5,9,M,,M,,*6D
06/07/2014	10:03:57.219	$GPGGA,100406,2424.3511,N,08115.9035,W,1,9,1.5,9,M,,M,,*63
06/07/2014	10:03:58.231	$GPGGA,100407,2424.3523,N,08115.9030,W,1,9,1.5,9,M,,M,,*66
06/07/2014	10:03:59.234	$GPGGA,100408,2424.3537,N,08115.9025,W,1,9,1.5,9,M,,M,,*68
06/07/2014	10:04:00.237	$GPGGA,100409,2424.3551,N,08115.9020,W,1,9,1.5,9,M,,M,,*6C
06/07/2014	10:04:01.220	$GPGGA,100410,2424.3564,N,08115.9014,W,1,9,1.5,9,M,,M,,*65
06/07/2014	10:04:02.252	$GPGGA,100411,2424.3577,N,08115.9009,W,1,9,1.5,9,M,,M,,*6A
06/07/2014	10:04:03.235	$GPGGA,100412,2424.3590,N,08115.9004,W,1,9,1.5,9,M,,M,,*6D
06/07/2014	10:04:04.212	$GPGGA,100413,2424.3604,N,08115.8999,W,1,9,1.5,9,M,,M,,*6E
06/07/2014	10:04:05.222	$GPGGA,100414,2424.3616,N,08115.8993,W,1,9,1.5,9,M,,M,,*60
06/07/2014	10:04:06.217	$GPGGA,100415,2424.3630,N,08115.8989,W,1,9,1.5,9,M,,M,,*6E
06/07/2014	10:04:07.226	$GPGGA,100416,2424.3642,N,08115.8984,W,1,9,1.5,9,M,,M,,*65
06/07/2014	10:04:08.238	$GPGGA,100417,2424.3656,N,08115.8978,W,1,9,1.5,9,M,,M,,*62
06/07/2014	10:04:09.225	$GPGGA,100418,2424.3669,N,08115.8972,W,1,9,1.5,9,M,,M,,*6B
06/07/2014	10:04:10.231	$GPGGA,100419,2424.3681,N,08115.8968,W,1,9,1.5,9,M,,M,,*67
06/07/2014	10:04:11.246	$GPGGA,100420,2424.3696,N,08115.8963,W,1,9,1.5,9,M,,M,,*60
06/07/2014	10:04:13.224	$GPGGA,100422,2424.3721,N,08115.8952,W,1,9,1.5,9,M,,M,,*6D
06/07/2014	10:04:14.224	$GPGGA,100423,2424.3735,N,08115.8947,W,1,9,1.5,9,M,,M,,*6D
06/07/2014	10:04:15.236	$GPGGA,100424,2424.3747,N,08115.8941,W,1,9,1.5,9,M,,M,,*69
06/07/2014	10:04:16.233	$GPGGA,100425,2424.3761,N,08115.8936,W,1,9,1.5,9,M,,M,,*6C
06/07/2014	10:04:17.322	$GPGGA,100426,2424.3774,N,08115.8931,W,1,9,1.5,9,M,,M,,*6C
06/07/2014	10:04:18.274	$GPGGA,100427,2424.3786,N,08115.8925,W,1,9,1.5,9,M,,M,,*65
06/07/2014	10:04:19.250	$GPGGA,100428,2424.3800,N,08115.8921,W,1,9,1.5,9,M,,M,,*6F
06/07/2014	10:04:20.270	$GPGGA,100429,2424.3814,N,08115.8916,W,1,9,1.5,9,M,,M,,*6F
06/07/2014	10:04:21.323	$GPGGA,100430,2424.3826,N,08115.8910,W,1,9,1.5,9,M,,M,,*60
06/07/2014	10:04:22.325	$GPGGA,100431,2424.3840,N,08115.8905,W,1,9,1.5,9,M,,M,,*65
06/07/2014	10:04:23.238	$GPGGA,100432,2424.3853,N,08115.8901,W,1,9,1.5,9,M,,M,,*60
06/07/2014	10:04:24.230	$GPGGA,100433,2424.3866,N,08115.8895,W,1,9,1.5,9,M,,M,,*6B
06/07/2014	10:04:25.223	$GPGGA,100434,2424.3879,N,08115.8890,W,1,9,1.5,9,M,,M,,*67
06/07/2014	10:04:26.246	$GPGGA,100435,2424.3891,N,08115.8885,W,1,9,1.5,9,M,,M,,*64
06/07/2014	10:04:27.362	$GPGGA,100436,2424.3905,N,08115.8880,W,1,9,1.5,9,M,,M,,*6E
06/07/2014	10:04:28.381	$GPGGA,100437,2424.3919,N,08115.8875,W,1,9,1.5,9,M,,M,,*68
06/07/2014	10:04:29.081	$GPGGA,100438,2424.3931,N,08115.8869,W,1,9,1.5,9,M,,M,,*60
06/07/2014	10:04:30.194	$GPGGA,100439,2424.3945,N,08115.8865,W,1,9,1.5,9,M,,M,,*6E
06/07/2014	10:04:31.097	$GPGGA,100440,2424.3958,N,08115.8859,W,1,9,1.5,9,M,,M,,*63
06/07/2014	10:04:32.081	$GPGGA,100441,2424.3970,N,08115.8854,W,1,9,1.5,9,M,,M,,*65
06/07/2014	10:04:33.172	$GPGGA,100442,2424.3984,N,08115.8849,W,1,9,1.5,9,M,,M,,*61
06/07/2014	10:04:34.205	$GPGGA,100443,2424.3996,N,08115.8844,W,1,9,1.5,9,M,,M,,*6E
06/07/2014	10:04:35.189	$GPGGA,100444,2424.4010,N,08115.8839,W,1,9,1.5,9,M,,M,,*63
06/07/2014	10:04:36.212	$GPGGA,100445,2424.4023,N,08115.8834,W,1,9,1.5,9,M,,M,,*6F
06/07/2014	10:04:37.193	$GPGGA,100446,2424.4035,N,08115.8829,W,1,9,1.5,9,M,,M,,*67
06/07/2014	10:04:38.216	$GPGGA,100447,2424.4049,N,08115.8824,W,1,9,1.5,9,M,,M,,*60
06/07/2014	10:04:39.199	$GPGGA,100448,2424.4061,N,08115.8819,W,1,9,1.5,9,M,,M,,*6B
06/07/2014	10:04:40.201	$GPGGA,100449,2424.4075,N,08115.8815,W,1,9,1.5,9,M,,M,,*63
06/07/2014	10:04:41.174	$GPGGA,100450,2424.4089,N,08115.8809,W,1,9,1.5,9,M,,M,,*65
06/07/2014	10:04:42.197	$GPGGA,100451,2424.4101,N,08115.8804,W,1,9,1.5,9,M,,M,,*68
06/07/2014	10:04:43.199	$GPGGA,100452,2424.4115,N,08115.8799,W,1,9,1.5,9,M,,M,,*65
06/07/2014	10:04:44.202	$GPGGA,100453,2424.4128,N,08115.8794,W,1,9,1.5,9,M,,M,,*67
06/07/2014	10:04:45.184	$GPGGA,100454,2424.4140,N,08115.8788,W,1,9,1.5,9,M,,M,,*63
06/07/2014	10:04:46.217	$GPGGA,100455,2424.4154,N,08115.8784,W,1,9,1.5,9,M,,M,,*6B
06/07/2014	10:04:47.199	$GPGGA,100456,2424.4166,N,08115.8779,W,1,9,1.5,9,M,,M,,*6B
06/07/2014	10:04:48.192	$GPGGA,100457,2424.4180,N,08115.8774,W,1,9,1.5,9,M,,M,,*6F
06/07/2014	10:04:49.195	$GPGGA,100458,2424.4191,N,08115.8769,W,1,9,1.5,9,M,,M,,*6C
06/07/2014	10:04:50.217	$GPGGA,100459,2424.4205,N,08115.8764,W,1,9,1.5,9,M,,M,,*6E
06/07/2014	10:04:51.210	$GPGGA,100500,2424.4219,N,08115.8759,W,1,9,1.5,9,M,,M,,*60
06/07/2014	10:04:52.203	$GPGGA,100501,2424.4231,N,08115.8754,W,1,9,1.5,9,M,,M,,*66
06/07/2014	10:04:54.651	$GPGGA,100503,2424.4258,N,08115.8744,W,1,9,1.5,9,M,,M,,*6A
06/07/2014	10:04:55.201	$GPGGA,100504,2424.4270,N,08115.8739,W,1,9,1.5,9,M,,M,,*6D
06/07/2014	10:04:56.194	$GPGGA,100505,2424.4283,N,08115.8733,W,1,9,1.5,9,M,,M,,*6A
06/07/2014	10:04:57.196	$GPGGA,100506,2424.4296,N,08115.8728,W,1,9,1.5,9,M,,M,,*67
06/07/2014	10:04:58.199	$GPGGA,100507,2424.4310,N,08115.8723,W,1,9,1.5,9,M,,M,,*62
06/07/2014	10:04:59.203	$GPGGA,100508,2424.4323,N,08115.8718,W,1,9,1.5,9,M,,M,,*65
06/07/2014	10:05:00.186	$GPGGA,100509,2424.4335,N,08115.8713,W,1,9,1.5,9,M,,M,,*68
06/07/2014	10:05:01.197	$GPGGA,100510,2424.4349,N,08115.8708,W,1,9,1.5,9,M,,M,,*61
06/07/2014	10:05:02.300	$GPGGA,100511,2424.4361,N,08115.8702,W,1,9,1.5,9,M,,M,,*60
06/07/2014	10:05:03.211	$GPGGA,100512,2424.4375,N,08115.8697,W,1,9,1.5,9,M,,M,,*6B
06/07/2014	10:05:04.207	$GPGGA,100513,2424.4389,N,08115.8692,W,1,9,1.5,9,M,,M,,*6C
06/07/2014	10:05:05.199	$GPGGA,100514,2424.4402,N,08115.8686,W,1,9,1.5,9,M,,M,,*6A
06/07/2014	10:05:06.190	$GPGGA,100515,2424.4415,N,08115.8681,W,1,9,1.5,9,M,,M,,*6A
06/07/2014	10:05:07.232	$GPGGA,100516,2424.4428,N,08115.8676,W,1,9,1.5,9,M,,M,,*6F
06/07/2014	10:05:08.315	$GPGGA,100517,2424.4440,N,08115.8671,W,1,9,1.5,9,M,,M,,*67
06/07/2014	10:05:09.209	$GPGGA,100518,2424.4454,N,08115.8666,W,1,9,1.5,9,M,,M,,*6B
06/07/2014	10:05:10.230	$GPGGA,100519,2424.4467,N,08115.8661,W,1,9,1.5,9,M,,M,,*6D
06/07/2014	10:05:11.217	$GPGGA,100520,2424.4480,N,08115.8655,W,1,9,1.5,9,M,,M,,*69
06/07/2014	10:05:12.316	$GPGGA,100521,2424.4493,N,08115.8650,W,1,9,1.5,9,M,,M,,*6F
06/07/2014	10:05:13.229	$GPGGA,100522,2424.4505,N,08115.8645,W,1,9,1.5,9,M,,M,,*66
06/07/2014	10:05:14.311	$GPGGA,100523,2424.4519,N,08115.8640,W,1,9,1.5,9,M,,M,,*6F
06/07/2014	10:05:15.234	$GPGGA,100524,2424.4530,N,08115.8634,W,1,9,1.5,9,M,,M,,*60
06/07/2014	10:05:16.327	$GPGGA,100525,2424.4544,N,08115.8630,W,1,9,1.5,9,M,,M,,*66
06/07/2014	10:05:17.219	$GPGGA,100526,2424.4556,N,08115.8626,W,1,9,1.5,9,M,,M,,*61
06/07/2014	10:05:18.313	$GPGGA,100527,2424.4570,N,08115.8620,W,1,9,1.5,9,M,,M,,*62
06/07/2014	10:05:19.305	$GPGGA,100528,2424.4583,N,08115.8614,W,1,9,1.5,9,M,,M,,*66
06/07/2014	10:05:20.296	$GPGGA,100529,2424.4595,N,08115.8610,W,1,9,1.5,9,M,,M,,*64
06/07/2014	10:05:21.309	$GPGGA,100530,2424.4609,N,08115.8605,W,1,9,1.5,9,M,,M,,*6E
06/07/2014	10:05:22.322	$GPGGA,100531,2424.4621,N,08115.8600,W,1,9,1.5,9,M,,M,,*60
06/07/2014	10:05:23.335	$GPGGA,100532,2424.4635,N,08115.8595,W,1,9,1.5,9,M,,M,,*69
06/07/2014	10:05:24.317	$GPGGA,100533,2424.4648,N,08115.8590,W,1,9,1.5,9,M,,M,,*67
06/07/2014	10:05:25.300	$GPGGA,100534,2424.4660,N,08115.8585,W,1,9,1.5,9,M,,M,,*6E
06/07/2014	10:05:26.303	$GPGGA,100535,2424.4673,N,08115.8580,W,1,9,1.5,9,M,,M,,*68
06/07/2014	10:05:27.315	$GPGGA,100536,2424.4686,N,08115.8574,W,1,9,1.5,9,M,,M,,*6A
06/07/2014	10:05:28.338	$GPGGA,100537,2424.4699,N,08115.8570,W,1,9,1.5,9,M,,M,,*61
06/07/2014	10:05:29.145	$GPGGA,100538,2424.4711,N,08115.8566,W,1,9,1.5,9,M,,M,,*68
06/07/2014	10:05:30.142	$GPGGA,100539,2424.4725,N,08115.8560,W,1,9,1.5,9,M,,M,,*68
06/07/2014	10:05:31.166	$GPGGA,100540,2424.4738,N,08115.8555,W,1,9,1.5,9,M,,M,,*6C
06/07/2014	10:05:32.149	$GPGGA,100541,2424.4751,N,08115.8551,W,1,9,1.5,9,M,,M,,*66
06/07/2014	10:05:33.151	$GPGGA,100542,2424.4764,N,08115.8545,W,1,9,1.5,9,M,,M,,*66
06/07/2014	10:05:34.164	$GPGGA,100543,2424.4776,N,08115.8540,W,1,9,1.5,9,M,,M,,*61
06/07/2014	10:05:35.167	$GPGGA,100544,2424.4789,N,08115.8536,W,1,9,1.5,9,M,,M,,*67
06/07/2014	10:05:36.170	$GPGGA,100545,2424.4801,N,08115.8532,W,1,9,1.5,9,M,,M,,*6D
06/07/2014	10:05:37.152	$GPGGA,100546,2424.4815,N,08115.8527,W,1,9,1.5,9,M,,M,,*6F
06/07/2014	10:05:38.174	$GPGGA,100547,2424.4827,N,08115.8522,W,1,9,1.5,9,M,,M,,*6A
06/07/2014	10:05:39.167	$GPGGA,100548,2424.4840,N,08115.8518,W,1,9,1.5,9,M,,M,,*6D
06/07/2014	10:05:40.159	$GPGGA,100549,2424.4852,N,08115.8512,W,1,9,1.5,9,M,,M,,*65
06/07/2014	10:05:41.172	$GPGGA,100550,2424.4866,N,08115.8508,W,1,9,1.5,9,M,,M,,*61
06/07/2014	10:05:42.185	$GPGGA,100551,2424.4877,N,08115.8503,W,1,9,1.5,9,M,,M,,*6B
06/07/2014	10:05:43.177	$GPGGA,100552,2424.4891,N,08115.8498,W,1,9,1.5,9,M,,M,,*63
06/07/2014	10:05:44.154	$GPGGA,100553,2424.4903,N,08115.8494,W,1,9,1.5,9,M,,M,,*64
06/07/2014	10:05:45.157	$GPGGA,100554,2424.4917,N,08115.8489,W,1,9,1.5,9,M,,M,,*6A
06/07/2014	10:05:46.165	$GPGGA,100555,2424.4928,N,08115.8484,W,1,9,1.5,9,M,,M,,*6A
06/07/2014	10:05:47.178	$GPGGA,100556,2424.4942,N,08115.8480,W,1,9,1.5,9,M,,M,,*61
06/07/2014	10:05:48.201	$GPGGA,100557,2424.4955,N,08115.8475,W,1,9,1.5,9,M,,M,,*6C
06/07/2014	10:05:49.166	$GPGGA,100558,2424.4967,N,08115.8471,W,1,9,1.5,9,M,,M,,*66
06/07/2014	10:05:50.182	$GPGGA,100559,2424.4980,N,08115.8466,W,1,9,1.5,9,M,,M,,*68
06/07/2014	10:05:51.180	$GPGGA,100600,2424.4993,N,08115.8461,W,1,9,1.5,9,M,,M,,*62
06/07/2014	10:05:52.186	$GPGGA,100601,2424.5006,N,08115.8456,W,1,9,1.5,9,M,,M,,*63
06/07/2014	10:05:53.170	$GPGGA,100602,2424.5018,N,08115.8452,W,1,9,1.5,9,M,,M,,*6B
06/07/2014	10:05:54.168	$GPGGA,100603,2424.5031,N,08115.8446,W,1,9,1.5,9,M,,M,,*64
06/07/2014	10:05:55.171	$GPGGA,100604,2424.5043,N,08115.8441,W,1,9,1.5,9,M,,M,,*61
06/07/2014	10:05:56.191	$GPGGA,100605,2424.5057,N,08115.8437,W,1,9,1.5,9,M,,M,,*64
06/07/2014	10:05:57.174	$GPGGA,100606,2424.5069,N,08115.8431,W,1,9,1.5,9,M,,M,,*6C
06/07/2014	10:05:58.277	$GPGGA,100607,2424.5083,N,08115.8426,W,1,9,1.5,9,M,,M,,*6F
06/07/2014	10:05:59.185	$GPGGA,100608,2424.5094,N,08115.8422,W,1,9,1.5,9,M,,M,,*62
06/07/2014	10:06:00.162	$GPGGA,100609,2424.5108,N,08115.8416,W,1,9,1.5,9,M,,M,,*60
06/07/2014	10:06:01.285	$GPGGA,100610,2424.5121,N,08115.8410,W,1,9,1.5,9,M,,M,,*65
06/07/2014	10:06:02.158	$GPGGA,100611,2424.5134,N,08115.8406,W,1,9,1.5,9,M,,M,,*67
06/07/2014	10:06:03.301	$GPGGA,100612,2424.5147,N,08115.8401,W,1,9,1.5,9,M,,M,,*67
06/07/2014	10:06:04.283	$GPGGA,100613,2424.5159,N,08115.8396,W,1,9,1.5,9,M,,M,,*60
06/07/2014	10:06:05.176	$GPGGA,100614,2424.5173,N,08115.8390,W,1,9,1.5,9,M,,M,,*69
06/07/2014	10:06:06.309	$GPGGA,100615,2424.5186,N,08115.8385,W,1,9,1.5,9,M,,M,,*66
06/07/2014	10:06:07.281	$GPGGA,100616,2424.5199,N,08115.8380,W,1,9,1.5,9,M,,M,,*6E
06/07/2014	10:06:08.285	$GPGGA,100617,2424.5212,N,08115.8375,W,1,9,1.5,9,M,,M,,*65
06/07/2014	10:06:09.176	$GPGGA,100618,2424.5224,N,08115.8369,W,1,9,1.5,9,M,,M,,*62
06/07/2014	10:06:10.290	$GPGGA,100619,2424.5237,N,08115.8365,W,1,9,1.5,9,M,,M,,*6D
06/07/2014	10:06:11.282	$GPGGA,100620,2424.5249,N,08115.8359,W,1,9,1.5,9,M,,M,,*61
06/07/2014	10:06:12.295	$GPGGA,100621,2424.5263,N,08115.8354,W,1,9,1.5,9,M,,M,,*65
06/07/2014	10:06:13.266	$GPGGA,100622,2424.5275,N,08115.8349,W,1,9,1.5,9,M,,M,,*6D
06/07/2014	10:06:14.279	$GPGGA,100623,2424.5289,N,08115.8344,W,1,9,1.5,9,M,,M,,*62
06/07/2014	10:06:15.282	$GPGGA,100624,2424.5303,N,08115.8338,W,1,9,1.5,9,M,,M,,*6D
06/07/2014	10:06:16.285	$GPGGA,100625,2424.5316,N,08115.8333,W,1,9,1.5,9,M,,M,,*63
06/07/2014	10:06:17.287	$GPGGA,100626,2424.5329,N,08115.8328,W,1,9,1.5,9,M,,M,,*66
06/07/2014	10:06:18.300	$GPGGA,100627,2424.5340,N,08115.8323,W,1,9,1.5,9,M,,M,,*63
06/07/2014	10:06:19.293	$GPGGA,100628,2424.5354,N,08115.8318,W,1,9,1.5,9,M,,M,,*61
06/07/2014	10:06:20.295	$GPGGA,100629,2424.5367,N,08115.8313,W,1,9,1.5,9,M,,M,,*6B
06/07/2014	10:06:21.278	$GPGGA,100630,2424.5379,N,08115.8308,W,1,9,1.5,9,M,,M,,*66
06/07/2014	10:06:22.271	$GPGGA,100631,2424.5393,N,08115.8302,W,1,9,1.5,9,M,,M,,*69
06/07/2014	10:06:23.293	$GPGGA,100632,2424.5405,N,08115.8297,W,1,9,1.5,9,M,,M,,*6F
06/07/2014	10:06:24.296	$GPGGA,100633,2424.5418,N,08115.8292,W,1,9,1.5,9,M,,M,,*67
06/07/2014	10:06:25.279	$GPGGA,100634,2424.5430,N,08115.8287,W,1,9,1.5,9,M,,M,,*6E
06/07/2014	10:06:26.302	$GPGGA,100635,2424.5444,N,08115.8281,W,1,9,1.5,9,M,,M,,*6A
06/07/2014	10:06:27.284	$GPGGA,100636,2424.5457,N,08115.8276,W,1,9,1.5,9,M,,M,,*63
06/07/2014	10:06:28.317	$GPGGA,100637,2424.5470,N,08115.8271,W,1,9,1.5,9,M,,M,,*60
06/07/2014	10:06:29.114	$GPGGA,100638,2424.5483,N,08115.8266,W,1,9,1.5,9,M,,M,,*65
06/07/2014	10:06:30.121	$GPGGA,100639,2424.5495,N,08115.8261,W,1,9,1.5,9,M,,M,,*64
06/07/2014	10:06:31.138	$GPGGA,100640,2424.5509,N,08115.8256,W,1,9,1.5,9,M,,M,,*6A
06/07/2014	10:06:32.127	$GPGGA,100641,2424.5520,N,08115.8251,W,1,9,1.5,9,M,,M,,*67
06/07/2014	10:06:33.131	$GPGGA,100642,2424.5534,N,08115.8246,W,1,9,1.5,9,M,,M,,*67
06/07/2014	10:06:34.151	$GPGGA,100643,2424.5546,N,08115.8241,W,1,9,1.5,9,M,,M,,*64
06/07/2014	10:06:35.152	$GPGGA,100644,2424.5560,N,08115.8236,W,1,9,1.5,9,M,,M,,*67
06/07/2014	10:06:36.126	$GPGGA,100645,2424.5573,N,08115.8231,W,1,9,1.5,9,M,,M,,*63
06/07/2014	10:06:37.123	$GPGGA,100646,2424.5585,N,08115.8226,W,1,9,1.5,9,M,,M,,*6F
06/07/2014	10:06:38.130	$GPGGA,100647,2424.5599,N,08115.8221,W,1,9,1.5,9,M,,M,,*64
06/07/2014	10:06:39.145	$GPGGA,100648,2424.5611,N,08115.8216,W,1,9,1.5,9,M,,M,,*6C
06/07/2014	10:06:40.157	$GPGGA,100649,2424.5625,N,08115.8211,W,1,9,1.5,9,M,,M,,*6D
06/07/2014	10:06:41.133	$GPGGA,100650,2424.5638,N,08115.8206,W,1,9,1.5,9,M,,M,,*6F
06/07/2014	10:06:42.144	$GPGGA,100651,2424.5650,N,08115.8202,W,1,9,1.5,9,M,,M,,*64
06/07/2014	10:06:43.155	$GPGGA,100652,2424.5663,N,08115.8197,W,1,9,1.5,9,M,,M,,*68
06/07/2014	10:06:44.140	$GPGGA,100653,2424.5676,N,08115.8192,W,1,9,1.5,9,M,,M,,*68
06/07/2014	10:06:45.131	$GPGGA,100654,2424.5689,N,08115.8187,W,1,9,1.5,9,M,,M,,*6B
06/07/2014	10:06:46.133	$GPGGA,100655,2424.5701,N,08115.8182,W,1,9,1.5,9,M,,M,,*6E
06/07/2014	10:06:47.147	$GPGGA,100656,2424.5715,N,08115.8177,W,1,9,1.5,9,M,,M,,*62
06/07/2014	10:06:48.128	$GPGGA,100657,2424.5726,N,08115.8173,W,1,9,1.5,9,M,,M,,*67
06/07/2014	10:06:49.140	$GPGGA,100658,2424.5740,N,08115.8168,W,1,9,1.5,9,M,,M,,*62
06/07/2014	10:06:50.123	$GPGGA,100659,2424.5752,N,08115.8163,W,1,9,1.5,9,M,,M,,*6B
06/07/2014	10:06:51.266	$GPGGA,100700,2424.5766,N,08115.8158,W,1,9,1.5,9,M,,M,,*69
06/07/2014	10:06:52.229	$GPGGA,100701,2424.5779,N,08115.8153,W,1,9,1.5,9,M,,M,,*6D
06/07/2014	10:06:53.131	$GPGGA,100702,2424.5791,N,08115.8149,W,1,9,1.5,9,M,,M,,*63
06/07/2014	10:06:54.265	$GPGGA,100703,2424.5804,N,08115.8145,W,1,9,1.5,9,M,,M,,*6D
06/07/2014	10:06:55.157	$GPGGA,100704,2424.5816,N,08115.8140,W,1,9,1.5,9,M,,M,,*6C
06/07/2014	10:06:56.139	$GPGGA,100705,2424.5830,N,08115.8135,W,1,9,1.5,9,M,,M,,*6B
06/07/2014	10:06:57.232	$GPGGA,100706,2424.5842,N,08115.8131,W,1,9,1.5,9,M,,M,,*69
06/07/2014	10:06:58.146	$GPGGA,100707,2424.5855,N,08115.8127,W,1,9,1.5,9,M,,M,,*69
06/07/2014	10:06:59.258	$GPGGA,100708,2424.5867,N,08115.8121,W,1,9,1.5,9,M,,M,,*61
06/07/2014	10:07:00.250	$GPGGA,100709,2424.5881,N,08115.8117,W,1,9,1.5,9,M,,M,,*6D
06/07/2014	10:07:01.233	$GPGGA,100710,2424.5892,N,08115.8113,W,1,9,1.5,9,M,,M,,*63
06/07/2014	10:07:02.256	$GPGGA,100711,2424.5906,N,08115.8108,W,1,9,1.5,9,M,,M,,*64
06/07/2014	10:07:03.269	$GPGGA,100712,2424.5918,N,08115.8103,W,1,9,1.5,9,M,,M,,*63
06/07/2014	10:07:04.243	$GPGGA,100713,2424.5932,N,08115.8099,W,1,9,1.5,9,M,,M,,*68
06/07/2014	10:07:05.243	$GPGGA,100714,2424.5945,N,08115.8095,W,1,9,1.5,9,M,,M,,*63
06/07/2014	10:07:06.235	$GPGGA,100715,2424.5957,N,08115.8089,W,1,9,1.5,9,M,,M,,*6C
06/07/2014	10:07:07.248	$GPGGA,100716,2424.5970,N,08115.8084,W,1,9,1.5,9,M,,M,,*67
06/07/2014	10:07:08.271	$GPGGA,100717,2424.5983,N,08115.8081,W,1,9,1.5,9,M,,M,,*6F
06/07/2014	10:07:09.264	$GPGGA,100718,2424.5996,N,08115.8076,W,1,9,1.5,9,M,,M,,*6C
06/07/2014	10:07:10.266	$GPGGA,100719,2424.6008,N,08115.8071,W,1,9,1.5,9,M,,M,,*67
06/07/2014	10:07:11.259	$GPGGA,100720,2424.6021,N,08115.8067,W,1,9,1.5,9,M,,M,,*61
06/07/2014	10:07:12.262	$GPGGA,100721,2424.6033,N,08115.8062,W,1,9,1.5,9,M,,M,,*66
06/07/2014	10:07:13.244	$GPGGA,100722,2424.6047,N,08115.8057,W,1,9,1.5,9,M,,M,,*60
06/07/2014	10:07:14.277	$GPGGA,100723,2424.6059,N,08115.8051,W,1,9,1.5,9,M,,M,,*68
06/07/2014	10:07:15.260	$GPGGA,100724,2424.6073,N,08115.8046,W,1,9,1.5,9,M,,M,,*61
06/07/2014	10:07:16.283	$GPGGA,100725,2424.6086,N,08115.8042,W,1,9,1.5,9,M,,M,,*6E
06/07/2014	10:07:17.238	$GPGGA,100726,2424.6098,N,08115.8037,W,1,9,1.5,9,M,,M,,*60
06/07/2014	10:07:18.240	$GPGGA,100727,2424.6112,N,08115.8031,W,1,9,1.5,9,M,,M,,*64
06/07/2014	10:07:19.261	$GPGGA,100728,2424.6124,N,08115.8026,W,1,9,1.5,9,M,,M,,*68
06/07/2014	10:07:20.239	$GPGGA,100729,2424.6138,N,08115.8021,W,1,9,1.5,9,M,,M,,*63
06/07/2014	10:07:21.256	$GPGGA,100730,2424.6149,N,08115.8016,W,1,9,1.5,9,M,,M,,*69
06/07/2014	10:07:22.279	$GPGGA,100731,2424.6163,N,08115.8011,W,1,9,1.5,9,M,,M,,*67
06/07/2014	10:07:23.270	$GPGGA,100732,2424.6176,N,08115.8006,W,1,9,1.5,9,M,,M,,*66
06/07/2014	10:07:24.256	$GPGGA,100733,2424.6189,N,08115.8001,W,1,9,1.5,9,M,,M,,*60
06/07/2014	10:07:25.260	$GPGGA,100734,2424.6200,N,08115.7996,W,1,9,1.5,9,M,,M,,*6D
06/07/2014	10:07:26.429	$GPGGA,100735,2424.6214,N,08115.7991,W,1,9,1.5,9,M,,M,,*6E
06/07/2014	10:07:27.271	$GPGGA,100736,2424.6227,N,08115.7986,W,1,9,1.5,9,M,,M,,*6B
06/07/2014	10:07:28.244	$GPGGA,100737,2424.6239,N,08115.7980,W,1,9,1.5,9,M,,M,,*63
06/07/2014	10:07:29.086	$GPGGA,100738,2424.6253,N,08115.7976,W,1,9,1.5,9,M,,M,,*69
06/07/2014	10:07:30.089	$GPGGA,100739,2424.6264,N,08115.7971,W,1,9,1.5,9,M,,M,,*6B
06/07/2014	10:07:31.131	$GPGGA,100740,2424.6278,N,08115.7965,W,1,9,1.5,9,M,,M,,*6D
06/07/2014	10:07:32.096	$GPGGA,100741,2424.6290,N,08115.7960,W,1,9,1.5,9,M,,M,,*6F
06/07/2014	10:07:33.088	$GPGGA,100742,2424.6304,N,08115.7955,W,1,9,1.5,9,M,,M,,*66
06/07/2014	10:07:34.090	$GPGGA,100743,2424.6317,N,08115.7951,W,1,9,1.5,9,M,,M,,*61
06/07/2014	10:07:35.117	$GPGGA,100744,2424.6329,N,08115.7945,W,1,9,1.5,9,M,,M,,*6E
06/07/2014	10:07:36.196	$GPGGA,100745,2424.6342,N,08115.7940,W,1,9,1.5,9,M,,M,,*67
06/07/2014	10:07:37.088	$GPGGA,100746,2424.6355,N,08115.7935,W,1,9,1.5,9,M,,M,,*60
06/07/2014	10:07:38.291	$GPGGA,100747,2424.6368,N,08115.7930,W,1,9,1.5,9,M,,M,,*6A
06/07/2014	10:07:39.204	$GPGGA,100748,2424.6380,N,08115.7924,W,1,9,1.5,9,M,,M,,*66
06/07/2014	10:07:40.115	$GPGGA,100749,2424.6394,N,08115.7920,W,1,9,1.5,9,M,,M,,*66
06/07/2014	10:07:41.228	$GPGGA,100750,2424.6406,N,08115.7915,W,1,9,1.5,9,M,,M,,*64
06/07/2014	10:07:42.201	$GPGGA,100751,2424.6420,N,08115.7909,W,1,9,1.5,9,M,,M,,*6C
06/07/2014	10:07:43.264	$GPGGA,100752,2424.6433,N,08115.7904,W,1,9,1.5,9,M,,M,,*60
06/07/2014	10:07:44.286	$GPGGA,100753,2424.6445,N,08115.7900,W,1,9,1.5,9,M,,M,,*64
06/07/2014	10:07:45.229	$GPGGA,100754,2424.6459,N,08115.7894,W,1,9,1.5,9,M,,M,,*62
06/07/2014	10:07:46.292	$GPGGA,100755,2424.6471,N,08115.7889,W,1,9,1.5,9,M,,M,,*65
06/07/2014	10:07:47.239	$GPGGA,100756,2424.6485,N,08115.7884,W,1,9,1.5,9,M,,M,,*60
06/07/2014	10:07:48.297	$GPGGA,100757,2424.6498,N,08115.7879,W,1,9,1.5,9,M,,M,,*6F
06/07/2014	10:07:49.200	$GPGGA,100758,2424.6513,N,08115.7873,W,1,9,1.5,9,M,,M,,*68
06/07/2014	10:07:50.303	$GPGGA,100759,2424.6525,N,08115.7868,W,1,9,1.4,9,M,,M,,*67
06/07/2014	10:07:51.245	$GPGGA,100800,2424.6539,N,08115.7863,W,1,9,1.4,9,M,,M,,*62
06/07/2014	10:07:52.308	$GPGGA,100801,2424.6553,N,08115.7857,W,1,9,1.4,9,M,,M,,*68
06/07/2014	10:07:53.240	$GPGGA,100802,2424.6566,N,08115.7852,W,1,9,1.4,9,M,,M,,*68
06/07/2014	10:07:54.313	$GPGGA,100803,2424.6578,N,08115.7847,W,1,9,1.5,9,M,,M,,*63
06/07/2014	10:07:55.246	$GPGGA,100804,2424.6590,N,08115.7843,W,1,9,1.5,9,M,,M,,*66
06/07/2014	10:07:56.282	$GPGGA,100805,2424.6603,N,08115.7838,W,1,9,1.5,9,M,,M,,*62
06/07/2014	10:07:57.233	$GPGGA,100806,2424.6615,N,08115.7834,W,1,9,1.5,9,M,,M,,*6A
06/07/2014	10:07:58.323	$GPGGA,100807,2424.6629,N,08115.7829,W,1,9,1.5,9,M,,M,,*68
06/07/2014	10:07:59.265	$GPGGA,100808,2424.6642,N,08115.7824,W,1,9,1.5,9,M,,M,,*67
06/07/2014	10:08:00.308	$GPGGA,100809,2424.6654,N,08115.7820,W,1,9,1.5,9,M,,M,,*65
06/07/2014	10:08:01.202	$GPGGA,100810,2424.6666,N,08115.7815,W,1,9,1.5,9,M,,M,,*6A
06/07/2014	10:08:02.273	$GPGGA,100811,2424.6679,N,08115.7811,W,1,9,1.5,9,M,,M,,*61
06/07/2014	10:08:03.286	$GPGGA,100812,2424.6691,N,08115.7806,W,1,9,1.5,9,M,,M,,*62
06/07/2014	10:08:04.298	$GPGGA,100813,2424.6705,N,08115.7801,W,1,9,1.5,9,M,,M,,*68
06/07/2014	10:08:05.209	$GPGGA,100814,2424.6718,N,08115.7797,W,1,9,1.5,9,M,,M,,*63
06/07/2014	10:08:06.304	$GPGGA,100815,2424.6730,N,08115.7792,W,1,9,1.5,9,M,,M,,*6D
06/07/2014	10:08:07.256	$GPGGA,100816,2424.6742,N,08115.7787,W,1,9,1.5,9,M,,M,,*6F
06/07/2014	10:08:08.299	$GPGGA,100817,2424.6756,N,08115.7782,W,1,9,1.5,9,M,,M,,*6E
06/07/2014	10:08:09.241	$GPGGA,100818,2424.6767,N,08115.7778,W,1,9,1.5,9,M,,M,,*66
06/07/2014	10:08:10.284	$GPGGA,100819,2424.6781,N,08115.7773,W,1,9,1.5,9,M,,M,,*64
06/07/2014	10:08:11.267	$GPGGA,100820,2424.6794,N,08115.7768,W,1,9,1.5,9,M,,M,,*60
06/07/2014	10:08:12.301	$GPGGA,100821,2424.6806,N,08115.7763,W,1,9,1.5,9,M,,M,,*6E
06/07/2014	10:08:13.252	$GPGGA,100822,2424.6820,N,08115.7759,W,1,9,1.5,9,M,,M,,*60
06/07/2014	10:08:14.220	$GPGGA,100823,2424.6832,N,08115.7754,W,1,9,1.5,9,M,,M,,*6F
06/07/2014	10:08:15.266	$GPGGA,100824,2424.6846,N,08115.7749,W,1,9,1.5,9,M,,M,,*67
06/07/2014	10:08:16.329	$GPGGA,100825,2424.6859,N,08115.7744,W,1,9,1.5,9,M,,M,,*65
06/07/2014	10:08:17.211	$GPGGA,100826,2424.6872,N,08115.7739,W,1,9,1.5,9,M,,M,,*65
06/07/2014	10:08:18.344	$GPGGA,100827,2424.6886,N,08115.7733,W,1,9,1.4,9,M,,M,,*64
06/07/2014	10:08:19.266	$GPGGA,100828,2424.6900,N,08115.7728,W,1,9,1.4,9,M,,M,,*6E
06/07/2014	10:08:20.309	$GPGGA,100829,2424.6913,N,08115.7722,W,1,9,1.4,9,M,,M,,*67
06/07/2014	10:08:21.261	$GPGGA,100830,2424.6926,N,08115.7718,W,1,9,1.4,9,M,,M,,*60
06/07/2014	10:08:22.364	$GPGGA,100831,2424.6940,N,08115.7713,W,1,9,1.4,9,M,,M,,*6A
06/07/2014	10:08:23.357	$GPGGA,100832,2424.6953,N,08115.7707,W,1,9,1.4,9,M,,M,,*6E
06/07/2014	10:08:24.329	$GPGGA,100833,2424.6967,N,08115.7702,W,1,9,1.4,9,M,,M,,*6D
06/07/2014	10:08:25.222	$GPGGA,100834,2424.6980,N,08115.7698,W,1,9,1.4,9,M,,M,,*61
06/07/2014	10:08:26.315	$GPGGA,100835,2424.6993,N,08115.7693,W,1,9,1.4,10,M,,M,,*51
06/07/2014	10:08:27.337	$GPGGA,100836,2424.7005,N,08115.7687,W,1,9,1.4,10,M,,M,,*50
06/07/2014	10:08:28.330	$GPGGA,100837,2424.7019,N,08115.7683,W,1,9,1.4,10,M,,M,,*58
06/07/2014	10:08:29.166	$GPGGA,100838,2424.7031,N,08115.7678,W,1,9,1.4,10,M,,M,,*59
06/07/2014	10:08:30.197	$GPGGA,100839,2424.7045,N,08115.7673,W,1,9,1.4,10,M,,M,,*50
06/07/2014	10:08:31.190	$GPGGA,100840,2424.7059,N,08115.7668,W,1,9,1.4,10,M,,M,,*59
06/07/2014	10:08:32.233	$GPGGA,100841,2424.7072,N,08115.7663,W,1,9,1.4,10,M,,M,,*5A
06/07/2014	10:08:33.174	$GPGGA,100842,2424.7085,N,08115.7659,W,1,9,1.4,10,M,,M,,*58
06/07/2014	10:08:34.213	$GPGGA,100843,2424.7098,N,08115.7653,W,1,9,1.4,10,M,,M,,*5F
06/07/2014	10:08:35.189	$GPGGA,100844,2424.7110,N,08115.7648,W,1,9,1.4,10,M,,M,,*53
06/07/2014	10:08:36.225	$GPGGA,100845,2424.7124,N,08115.7644,W,1,9,1.4,10,M,,M,,*59
06/07/2014	10:08:37.164	$GPGGA,100846,2424.7137,N,08115.7639,W,1,9,1.4,10,M,,M,,*52
06/07/2014	10:08:38.217	$GPGGA,100847,2424.7150,N,08115.7634,W,1,10,1.4,10,M,,M,,*67
06/07/2014	10:08:39.180	$GPGGA,100848,2424.7163,N,08115.7628,W,1,10,1.4,10,M,,M,,*65
06/07/2014	10:08:40.252	$GPGGA,100849,2424.7175,N,08115.7624,W,1,10,1.4,10,M,,M,,*6F
06/07/2014	10:08:41.175	$GPGGA,100850,2424.7188,N,08115.7619,W,1,10,1.4,10,M,,M,,*6B
06/07/2014	10:08:42.217	$GPGGA,100851,2424.7200,N,08115.7613,W,1,10,1.4,10,M,,M,,*63
06/07/2014	10:08:43.200	$GPGGA,100852,2424.7211,N,08115.7608,W,1,10,1.4,10,M,,M,,*6A
06/07/2014	10:08:44.203	$GPGGA,100853,2424.7224,N,08115.7604,W,1,10,1.4,10,M,,M,,*61
06/07/2014	10:08:45.185	$GPGGA,100854,2424.7236,N,08115.7599,W,1,10,1.4,10,M,,M,,*62
06/07/2014	10:08:46.188	$GPGGA,100855,2424.7236,N,08115.7599,W,1,10,1.4,10,M,,M,,*63
06/07/2014	10:08:47.190	$GPGGA,100856,2424.7258,N,08115.7588,W,1,10,1.4,10,M,,M,,*68
06/07/2014	10:08:48.233	$GPGGA,100857,2424.7269,N,08115.7584,W,1,10,1.4,10,M,,M,,*67
06/07/2014	10:08:49.186	$GPGGA,100858,2424.7280,N,08115.7579,W,1,10,1.4,10,M,,M,,*6D
06/07/2014	10:08:50.207	$GPGGA,100859,2424.7280,N,08115.7579,W,1,10,1.4,10,M,,M,,*6C
06/07/2014	10:08:51.211	$GPGGA,100900,2424.7290,N,08115.7574,W,1,10,1.4,10,M,,M,,*6D
06/07/2014	10:08:52.243	$GPGGA,100901,2424.7309,N,08115.7566,W,1,10,1.4,10,M,,M,,*6E
06/07/2014	10:08:53.215	$GPGGA,100902,2424.7319,N,08115.7561,W,1,10,1.4,10,M,,M,,*6B
06/07/2014	10:08:54.187	$GPGGA,100903,2424.7319,N,08115.7561,W,1,10,1.4,10,M,,M,,*6A
06/07/2014	10:08:55.201	$GPGGA,100904,2424.7330,N,08115.7556,W,1,10,1.4,10,M,,M,,*62
06/07/2014	10:08:56.243	$GPGGA,100905,2424.7350,N,08115.7548,W,1,10,1.4,10,M,,M,,*6A
06/07/2014	10:08:57.195	$GPGGA,100906,2424.7350,N,08115.7548,W,1,10,1.4,10,M,,M,,*69
06/07/2014	10:08:58.218	$GPGGA,100907,2424.7359,N,08115.7543,W,1,10,1.4,10,M,,M,,*6A
06/07/2014	10:08:59.200	$GPGGA,100908,2424.7377,N,08115.7533,W,1,10,1.4,10,M,,M,,*6E
06/07/2014	10:09:00.264	$GPGGA,100909,2424.7387,N,08115.7529,W,1,10,1.4,10,M,,M,,*6B
06/07/2014	10:09:01.197	$GPGGA,100910,2424.7395,N,08115.7524,W,1,10,1.4,10,M,,M,,*6D
06/07/2014	10:09:02.299	$GPGGA,100911,2424.7405,N,08115.7519,W,1,10,1.4,10,M,,M,,*6C
06/07/2014	10:09:03.197	$GPGGA,100912,2424.7413,N,08115.7515,W,1,10,1.4,10,M,,M,,*64
06/07/2014	10:09:04.213	$GPGGA,100913,2424.7413,N,08115.7515,W,1,10,1.4,10,M,,M,,*65
06/07/2014	10:09:05.176	$GPGGA,100914,2424.7431,N,08115.7505,W,1,10,1.4,10,M,,M,,*63
06/07/2014	10:09:06.212	$GPGGA,100915,2424.7431,N,08115.7505,W,1,10,1.4,10,M,,M,,*62
06/07/2014	10:09:07.221	$GPGGA,100916,2424.7446,N,08115.7496,W,1,10,1.5,10,M,,M,,*6B
06/07/2014	10:09:08.274	$GPGGA,100917,2424.7446,N,08115.7496,W,1,9,1.5,10,M,,M,,*52
06/07/2014	10:09:09.185	$GPGGA,100918,2424.7462,N,08115.7487,W,1,9,1.5,10,M,,M,,*5B
06/07/2014	10:09:10.188	$GPGGA,100919,2424.7471,N,08115.7482,W,1,9,1.5,10,M,,M,,*5D
06/07/2014	10:09:11.311	$GPGGA,100920,2424.7478,N,08115.7478,W,1,9,1.4,10,M,,M,,*5A
06/07/2014	10:09:12.303	$GPGGA,100921,2424.7486,N,08115.7472,W,1,9,1.5,10,M,,M,,*51
06/07/2014	10:09:13.286	$GPGGA,100922,2424.7495,N,08115.7467,W,1,9,1.4,10,M,,M,,*55
06/07/2014	10:09:14.289	$GPGGA,100923,2424.7503,N,08115.7462,W,1,10,1.4,10,M,,M,,*67
06/07/2014	10:09:15.301	$GPGGA,100924,2424.7511,N,08115.7457,W,1,10,1.4,10,M,,M,,*65
06/07/2014	10:09:16.324	$GPGGA,100925,2424.7518,N,08115.7452,W,1,10,1.4,10,M,,M,,*68
06/07/2014	10:09:17.296	$GPGGA,100926,2424.7525,N,08115.7447,W,1,10,1.4,10,M,,M,,*61
06/07/2014	10:09:18.322	$GPGGA,100927,2424.7533,N,08115.7442,W,1,10,1.4,10,M,,M,,*62
06/07/2014	10:09:19.312	$GPGGA,100928,2424.7540,N,08115.7437,W,1,10,1.4,10,M,,M,,*6B
06/07/2014	10:09:20.314	$GPGGA,100929,2424.7549,N,08115.7431,W,1,10,1.4,10,M,,M,,*65
06/07/2014	10:09:21.297	$GPGGA,100930,2424.7556,N,08115.7425,W,1,10,1.4,10,M,,M,,*66
06/07/2014	10:09:22.319	$GPGGA,100931,2424.7562,N,08115.7421,W,1,10,1.4,10,M,,M,,*64
06/07/2014	10:09:23.312	$GPGGA,100932,2424.7569,N,08115.7416,W,1,10,1.4,10,M,,M,,*68
06/07/2014	10:09:24.296	$GPGGA,100933,2424.7576,N,08115.7411,W,1,9,1.5,10,M,,M,,*59
06/07/2014	10:09:25.296	$GPGGA,100934,2424.7583,N,08115.7405,W,1,9,1.5,10,M,,M,,*51
06/07/2014	10:09:26.329	$GPGGA,100935,2424.7590,N,08115.7400,W,1,10,1.4,9,M,,M,,*56
06/07/2014	10:09:27.311	$GPGGA,100936,2424.7597,N,08115.7395,W,1,10,1.4,9,M,,M,,*59
06/07/2014	10:09:28.304	$GPGGA,100937,2424.7604,N,08115.7388,W,1,10,1.4,9,M,,M,,*5D
06/07/2014	10:09:29.143	$GPGGA,100938,2424.7611,N,08115.7383,W,1,10,1.4,9,M,,M,,*5D
06/07/2014	10:09:30.165	$GPGGA,100939,2424.7618,N,08115.7378,W,1,10,1.4,9,M,,M,,*51
06/07/2014	10:09:31.168	$GPGGA,100940,2424.7625,N,08115.7371,W,1,10,1.4,9,M,,M,,*58
06/07/2014	10:09:32.142	$GPGGA,100941,2424.7632,N,08115.7366,W,1,10,1.4,9,M,,M,,*59
06/07/2014	10:09:33.153	$GPGGA,100942,2424.7637,N,08115.7361,W,1,10,1.4,9,M,,M,,*58
06/07/2014	10:09:34.166	$GPGGA,100943,2424.7645,N,08115.7354,W,1,10,1.4,9,M,,M,,*5A
06/07/2014	10:09:35.168	$GPGGA,100944,2424.7652,N,08115.7348,W,1,10,1.4,9,M,,M,,*56
06/07/2014	10:09:36.141	$GPGGA,100945,2424.7658,N,08115.7343,W,1,10,1.4,9,M,,M,,*56
06/07/2014	10:09:37.153	$GPGGA,100946,2424.7665,N,08115.7337,W,1,10,1.4,9,M,,M,,*58
06/07/2014	10:09:38.176	$GPGGA,100947,2424.7670,N,08115.7330,W,1,10,1.4,9,M,,M,,*5A
06/07/2014	10:09:39.169	$GPGGA,100948,2424.7677,N,08115.7324,W,1,10,1.4,9,M,,M,,*57
06/07/2014	10:09:40.151	$GPGGA,100949,2424.7684,N,08115.7318,W,1,10,1.4,9,M,,M,,*55
06/07/2014	10:09:41.154	$GPGGA,100950,2424.7690,N,08115.7312,W,1,10,1.4,9,M,,M,,*52
06/07/2014	10:09:42.146	$GPGGA,100951,2424.7695,N,08115.7306,W,1,10,1.4,9,M,,M,,*53
06/07/2014	10:09:43.178	$GPGGA,100952,2424.7701,N,08115.7300,W,1,10,1.5,9,M,,M,,*5B
06/07/2014	10:09:44.181	$GPGGA,100953,2424.7706,N,08115.7294,W,1,9,1.5,9,M,,M,,*69
06/07/2014	10:09:45.153	$GPGGA,100954,2424.7712,N,08115.7288,W,1,9,1.5,9,M,,M,,*66
06/07/2014	10:09:46.157	$GPGGA,100955,2424.7719,N,08115.7282,W,1,9,1.5,9,M,,M,,*66
06/07/2014	10:09:47.168	$GPGGA,100956,2424.7726,N,08115.7275,W,1,9,1.4,9,M,,M,,*60
06/07/2014	10:09:48.171	$GPGGA,100957,2424.7731,N,08115.7268,W,1,10,1.4,9,M,,M,,*53
06/07/2014	10:09:49.153	$GPGGA,100958,2424.7735,N,08115.7262,W,1,10,1.5,9,M,,M,,*53
06/07/2014	10:09:50.156	$GPGGA,100959,2424.7742,N,08115.7256,W,1,9,1.5,9,M,,M,,*6D
06/07/2014	10:09:51.179	$GPGGA,101000,2424.7746,N,08115.7249,W,1,9,1.5,9,M,,M,,*63
06/07/2014	10:09:52.191	$GPGGA,101001,2424.7753,N,08115.7242,W,1,9,1.5,9,M,,M,,*6D
06/07/2014	10:09:53.184	$GPGGA,101002,2424.7759,N,08115.7237,W,1,9,1.5,9,M,,M,,*66
06/07/2014	10:09:54.146	$GPGGA,101003,2424.7764,N,08115.7230,W,1,9,1.5,9,M,,M,,*6E
06/07/2014	10:09:55.289	$GPGGA,101004,2424.7770,N,08115.7223,W,1,9,1.5,9,M,,M,,*6E
06/07/2014	10:09:56.272	$GPGGA,101005,2424.7775,N,08115.7217,W,1,9,1.5,9,M,,M,,*6D
06/07/2014	10:09:57.254	$GPGGA,101006,2424.7782,N,08115.7210,W,1,9,1.4,9,M,,M,,*60
06/07/2014	10:09:58.274	$GPGGA,101007,2424.7786,N,08115.7203,W,1,10,1.4,9,M,,M,,*5F
06/07/2014	10:09:59.179	$GPGGA,101008,2424.7793,N,08115.7196,W,1,10,1.4,9,M,,M,,*5B
06/07/2014	10:10:00.183	$GPGGA,101009,2424.7798,N,08115.7189,W,1,10,1.4,9,M,,M,,*5F
06/07/2014	10:10:01.254	$GPGGA,101010,2424.7803,N,08115.7182,W,1,10,1.5,9,M,,M,,*50
06/07/2014	10:10:02.266	$GPGGA,101011,2424.7811,N,08115.7174,W,1,9,1.5,9,M,,M,,*63
06/07/2014	10:10:03.269	$GPGGA,101012,2424.7818,N,08115.7166,W,1,9,1.4,9,M,,M,,*6B
06/07/2014	10:10:04.292	$GPGGA,101013,2424.7824,N,08115.7159,W,1,10,1.4,9,M,,M,,*51
06/07/2014	10:10:05.264	$GPGGA,101014,2424.7829,N,08115.7152,W,1,10,1.4,9,M,,M,,*50
06/07/2014	10:10:06.297	$GPGGA,101015,2424.7836,N,08115.7144,W,1,10,1.4,9,M,,M,,*58
06/07/2014	10:10:07.269	$GPGGA,101016,2424.7840,N,08115.7136,W,1,10,1.4,9,M,,M,,*5F
06/07/2014	10:10:08.302	$GPGGA,101017,2424.7847,N,08115.7129,W,1,10,1.4,9,M,,M,,*57
06/07/2014	10:10:09.275	$GPGGA,101018,2424.7853,N,08115.7121,W,1,10,1.4,9,M,,M,,*55
06/07/2014	10:10:10.277	$GPGGA,101019,2424.7858,N,08115.7113,W,1,10,1.4,10,M,,M,,*66
06/07/2014	10:10:11.280	$GPGGA,101020,2424.7863,N,08115.7106,W,1,10,1.4,10,M,,M,,*60
06/07/2014	10:10:12.282	$GPGGA,101021,2424.7868,N,08115.7098,W,1,10,1.4,10,M,,M,,*6C
06/07/2014	10:10:13.265	$GPGGA,101022,2424.7875,N,08115.7090,W,1,10,1.4,10,M,,M,,*6B
06/07/2014	10:10:14.268	$GPGGA,101023,2424.7879,N,08115.7083,W,1,10,1.4,10,M,,M,,*64
06/07/2014	10:10:15.280	$GPGGA,101024,2424.7885,N,08115.7075,W,1,10,1.4,10,M,,M,,*69
06/07/2014	10:10:16.273	$GPGGA,101025,2424.7890,N,08115.7067,W,1,10,1.4,10,M,,M,,*6F
06/07/2014	10:10:17.274	$GPGGA,101026,2424.7894,N,08115.7059,W,1,10,1.4,10,M,,M,,*65
06/07/2014	10:10:18.287	$GPGGA,101027,2424.7900,N,08115.7051,W,1,10,1.4,10,M,,M,,*60
06/07/2014	10:10:19.280	$GPGGA,101028,2424.7905,N,08115.7043,W,1,10,1.4,10,M,,M,,*69
06/07/2014	10:10:20.282	$GPGGA,101029,2424.7910,N,08115.7035,W,1,10,1.4,10,M,,M,,*6D
06/07/2014	10:10:21.265	$GPGGA,101030,2424.7914,N,08115.7028,W,1,10,1.4,10,M,,M,,*6D
06/07/2014	10:10:22.287	$GPGGA,101031,2424.7919,N,08115.7020,W,1,9,1.5,10,M,,M,,*50
06/07/2014	10:10:23.290	$GPGGA,101032,2424.7923,N,08115.7012,W,1,9,1.5,10,M,,M,,*5B
06/07/2014	10:10:24.262	$GPGGA,101033,2424.7930,N,08115.7003,W,1,9,1.5,10,M,,M,,*58
06/07/2014	10:10:25.275	$GPGGA,101034,2424.7934,N,08115.6995,W,1,9,1.4,10,M,,M,,*5D
06/07/2014	10:10:26.298	$GPGGA,101035,2424.7940,N,08115.6987,W,1,10,1.4,10,M,,M,,*64
06/07/2014	10:10:27.280	$GPGGA,101036,2424.7944,N,08115.6978,W,1,10,1.4,10,M,,M,,*63
06/07/2014	10:10:28.313	$GPGGA,101037,2424.7950,N,08115.6970,W,1,10,1.4,10,M,,M,,*6F
06/07/2014	10:10:29.126	$GPGGA,101038,2424.7955,N,08115.6962,W,1,10,1.4,10,M,,M,,*66
06/07/2014	10:10:30.233	$GPGGA,101039,2424.7961,N,08115.6953,W,1,10,1.4,10,M,,M,,*62
06/07/2014	10:10:31.152	$GPGGA,101040,2424.7966,N,08115.6945,W,1,10,1.4,10,M,,M,,*6C
06/07/2014	10:10:32.131	$GPGGA,101041,2424.7972,N,08115.6937,W,1,10,1.4,10,M,,M,,*6D
06/07/2014	10:10:33.123	$GPGGA,101042,2424.7977,N,08115.6929,W,1,10,1.4,10,M,,M,,*64
06/07/2014	10:10:34.132	$GPGGA,101043,2424.7983,N,08115.6920,W,1,10,1.4,11,M,,M,,*66
06/07/2014	10:10:35.132	$GPGGA,101044,2424.7988,N,08115.6911,W,1,10,1.4,11,M,,M,,*68
06/07/2014	10:10:36.138	$GPGGA,101045,2424.7994,N,08115.6904,W,1,10,1.4,11,M,,M,,*60
06/07/2014	10:10:37.132	$GPGGA,101046,2424.7999,N,08115.6895,W,1,10,1.4,11,M,,M,,*67
06/07/2014	10:10:38.253	$GPGGA,101047,2424.8004,N,08115.6888,W,1,9,1.7,11,M,,M,,*53
06/07/2014	10:10:39.246	$GPGGA,101048,2424.8009,N,08115.6880,W,1,9,1.4,11,M,,M,,*5A
06/07/2014	10:10:40.229	$GPGGA,101049,2424.8015,N,08115.6872,W,1,9,1.5,11,M,,M,,*5A
06/07/2014	10:10:41.211	$GPGGA,101050,2424.8020,N,08115.6863,W,1,9,1.5,11,M,,M,,*54
06/07/2014	10:10:42.123	$GPGGA,101051,2424.8027,N,08115.6856,W,1,10,1.4,11,M,,M,,*6D
06/07/2014	10:10:43.256	$GPGGA,101052,2424.8031,N,08115.6848,W,1,10,1.4,11,M,,M,,*66
06/07/2014	10:10:44.148	$GPGGA,101053,2424.8037,N,08115.6840,W,1,10,1.4,11,M,,M,,*69
06/07/2014	10:10:45.131	$GPGGA,101054,2424.8041,N,08115.6833,W,1,10,1.5,11,M,,M,,*6A
06/07/2014	10:10:46.146	$GPGGA,101055,2424.8049,N,08115.6825,W,1,9,1.5,11,M,,M,,*5C
06/07/2014	10:10:47.149	$GPGGA,101056,2424.8055,N,08115.6816,W,1,9,1.4,11,M,,M,,*53
06/07/2014	10:10:48.219	$GPGGA,101057,2424.8060,N,08115.6808,W,1,10,1.4,11,M,,M,,*63
06/07/2014	10:10:49.259	$GPGGA,101058,2424.8067,N,08115.6801,W,1,10,1.4,11,M,,M,,*62
06/07/2014	10:10:50.213	$GPGGA,101059,2424.8074,N,08115.6792,W,1,9,1.5,12,M,,M,,*5E
06/07/2014	10:10:51.403	$GPGGA,101100,2424.8080,N,08115.6784,W,1,9,1.4,12,M,,M,,*5E
06/07/2014	10:10:52.340	$GPGGA,101101,2424.8087,N,08115.6777,W,1,9,1.5,12,M,,M,,*55
06/07/2014	10:10:53.494	$GPGGA,101102,2424.8092,N,08115.6770,W,1,9,1.5,12,M,,M,,*55
06/07/2014	10:10:54.563	$GPGGA,101103,2424.8100,N,08115.6761,W,1,10,1.4,12,M,,M,,*67
06/07/2014	10:10:55.623	$GPGGA,101104,2424.8107,N,08115.6753,W,1,10,1.4,12,M,,M,,*66
06/07/2014	10:10:56.691	$GPGGA,101105,2424.8116,N,08115.6745,W,1,10,1.4,12,M,,M,,*60
06/07/2014	10:10:57.708	$GPGGA,101106,2424.8122,N,08115.6738,W,1,10,1.4,12,M,,M,,*6E
06/07/2014	10:10:58.777	$GPGGA,101107,2424.8129,N,08115.6730,W,1,10,1.4,12,M,,M,,*6C
06/07/2014	10:10:59.847	$GPGGA,101108,2424.8138,N,08115.6723,W,1,10,1.5,12,M,,M,,*60
06/07/2014	10:11:00.906	$GPGGA,101109,2424.8146,N,08115.6716,W,1,10,1.4,12,M,,M,,*6F
06/07/2014	10:11:01.954	$GPGGA,101110,2424.8153,N,08115.6709,W,1,10,1.4,12,M,,M,,*6D
06/07/2014	10:11:03.024	$GPGGA,101111,2424.8160,N,08115.6701,W,1,10,1.4,13,M,,M,,*65
06/07/2014	10:11:04.093	$GPGGA,101112,2424.8167,N,08115.6694,W,1,10,1.4,13,M,,M,,*6C
06/07/2014	10:11:05.131	$GPGGA,101113,2424.8175,N,08115.6688,W,1,10,1.4,13,M,,M,,*63
06/07/2014	10:11:06.169	$GPGGA,101114,2424.8182,N,08115.6681,W,1,10,1.4,13,M,,M,,*65
06/07/2014	10:11:07.260	$GPGGA,101115,2424.8189,N,08115.6674,W,1,10,1.4,13,M,,M,,*65
06/07/2014	10:11:08.298	$GPGGA,101116,2424.8196,N,08115.6667,W,1,10,1.4,13,M,,M,,*6A
06/07/2014	10:11:09.336	$GPGGA,101117,2424.8204,N,08115.6661,W,1,10,1.4,13,M,,M,,*65
06/07/2014	10:11:10.394	$GPGGA,101118,2424.8211,N,08115.6654,W,1,10,1.4,13,M,,M,,*68
06/07/2014	10:11:11.473	$GPGGA,101119,2424.8218,N,08115.6648,W,1,10,1.4,13,M,,M,,*6D
06/07/2014	10:11:12.510	$GPGGA,101120,2424.8225,N,08115.6641,W,1,10,1.5,13,M,,M,,*61
06/07/2014	10:11:13.601	$GPGGA,101121,2424.8232,N,08115.6636,W,1,10,1.4,13,M,,M,,*67
06/07/2014	10:11:14.628	$GPGGA,101122,2424.8239,N,08115.6630,W,1,10,1.4,13,M,,M,,*69
06/07/2014	10:11:15.708	$GPGGA,101123,2424.8244,N,08115.6622,W,1,9,1.4,13,M,,M,,*59
06/07/2014	10:11:16.746	$GPGGA,101124,2424.8251,N,08115.6616,W,1,9,1.4,13,M,,M,,*5D
06/07/2014	10:11:17.826	$GPGGA,101125,2424.8258,N,08115.6611,W,1,10,1.4,13,M,,M,,*6A
06/07/2014	10:11:18.853	$GPGGA,101126,2424.8265,N,08115.6603,W,1,10,1.4,14,M,,M,,*63
06/07/2014	10:11:20.029	$GPGGA,101127,2424.8270,N,08115.6596,W,1,10,1.4,14,M,,M,,*69
06/07/2014	10:11:20.982	$GPGGA,101128,2424.8277,N,08115.6591,W,1,10,1.4,14,M,,M,,*66
06/07/2014	10:11:22.030	$GPGGA,101129,2424.8284,N,08115.6584,W,1,10,1.4,14,M,,M,,*6F
06/07/2014	10:11:23.097	$GPGGA,101130,2424.8293,N,08115.6578,W,1,10,1.4,14,M,,M,,*62
06/07/2014	10:11:24.134	$GPGGA,101131,2424.8299,N,08115.6572,W,1,10,1.4,14,M,,M,,*63
06/07/2014	10:11:25.228	$GPGGA,101132,2424.8308,N,08115.6567,W,1,10,1.4,14,M,,M,,*6D
06/07/2014	10:11:26.350	$GPGGA,101133,2424.8315,N,08115.6561,W,1,10,1.4,14,M,,M,,*66
06/07/2014	10:11:27.297	$GPGGA,101134,2424.8322,N,08115.6554,W,1,10,1.4,14,M,,M,,*63
06/07/2014	10:11:28.468	$GPGGA,101135,2424.8330,N,08115.6548,W,1,10,1.4,14,M,,M,,*6C
06/07/2014	10:11:29.431	$GPGGA,101136,2424.8335,N,08115.6541,W,1,10,1.4,14,M,,M,,*63
06/07/2014	10:11:30.500	$GPGGA,101137,2424.8342,N,08115.6535,W,1,9,1.7,14,M,,M,,*5A
06/07/2014	10:11:29.235	$GPGGA,101138,2424.8349,N,08115.6528,W,1,9,1.4,14,M,,M,,*51
06/07/2014	10:11:30.206	$GPGGA,101139,2424.8356,N,08115.6521,W,1,10,1.4,14,M,,M,,*6F
06/07/2014	10:11:31.374	$GPGGA,101140,2424.8363,N,08115.6515,W,1,10,1.4,14,M,,M,,*60
06/07/2014	10:11:32.422	$GPGGA,101141,2424.8371,N,08115.6508,W,1,10,1.4,14,M,,M,,*6E
06/07/2014	10:11:33.386	$GPGGA,101142,2424.8378,N,08115.6501,W,1,10,1.4,14,M,,M,,*6D
06/07/2014	10:11:34.561	$GPGGA,101143,2424.8385,N,08115.6494,W,1,10,1.4,14,M,,M,,*63
06/07/2014	10:11:35.599	$GPGGA,101144,2424.8393,N,08115.6489,W,1,10,1.4,14,M,,M,,*6F
06/07/2014	10:11:36.638	$GPGGA,101145,2424.8400,N,08115.6481,W,1,10,1.4,14,M,,M,,*6B
06/07/2014	10:11:37.579	$GPGGA,101146,2424.8407,N,08115.6473,W,1,10,1.4,14,M,,M,,*62
06/07/2014	10:11:38.776	$GPGGA,101147,2424.8414,N,08115.6468,W,1,10,1.4,14,M,,M,,*6B
06/07/2014	10:11:39.813	$GPGGA,101148,2424.8423,N,08115.6461,W,1,10,1.4,14,M,,M,,*69
06/07/2014	10:11:40.872	$GPGGA,101149,2424.8428,N,08115.6453,W,1,10,1.4,14,M,,M,,*62
06/07/2014	10:11:41.921	$GPGGA,101150,2424.8436,N,08115.6447,W,1,10,1.4,14,M,,M,,*60
06/07/2014	10:11:42.969	$GPGGA,101151,2424.8443,N,08115.6441,W,1,9,1.5,14,M,,M,,*5C
06/07/2014	10:11:44.049	$GPGGA,101152,2424.8450,N,08115.6433,W,1,9,1.4,14,M,,M,,*59
06/07/2014	10:11:45.154	$GPGGA,101153,2424.8457,N,08115.6425,W,1,9,1.5,14,M,,M,,*59
06/07/2014	10:11:46.144	$GPGGA,101154,2424.8465,N,08115.6419,W,1,9,1.5,14,M,,M,,*50
06/07/2014	10:11:47.225	$GPGGA,101155,2424.8472,N,08115.6410,W,1,10,1.4,14,M,,M,,*67
06/07/2014	10:11:48.273	$GPGGA,101156,2424.8482,N,08115.6401,W,1,10,1.4,14,M,,M,,*6B
06/07/2014	10:11:49.321	$GPGGA,101157,2424.8490,N,08115.6393,W,1,10,1.4,14,M,,M,,*65
06/07/2014	10:11:50.380	$GPGGA,101158,2424.8497,N,08115.6385,W,1,10,1.4,14,M,,M,,*6A
06/07/2014	10:11:51.428	$GPGGA,101159,2424.8505,N,08115.6378,W,1,10,1.4,15,M,,M,,*62
06/07/2014	10:11:52.498	$GPGGA,101200,2424.8512,N,08115.6369,W,1,10,1.4,15,M,,M,,*6B
06/07/2014	10:11:53.567	$GPGGA,101201,2424.8518,N,08115.6362,W,1,9,1.5,15,M,,M,,*52
06/07/2014	10:11:54.595	$GPGGA,101202,2424.8526,N,08115.6356,W,1,9,1.5,15,M,,M,,*5B
06/07/2014	10:11:55.653	$GPGGA,101203,2424.8532,N,08115.6348,W,1,9,1.5,15,M,,M,,*50
06/07/2014	10:11:56.733	$GPGGA,101204,2424.8539,N,08115.6340,W,1,9,1.4,15,M,,M,,*55
06/07/2014	10:11:57.761	$GPGGA,101205,2424.8547,N,08115.6334,W,1,10,1.4,15,M,,M,,*66
