Software Version Number: 1	Data File Format Number: 1	Build Version Number: 1	Error Count Since VI Started: 0	Manufacturer: Raytheon	 Model Number: RayMarine 120	 S/N: 	 Cal Date: 	 Wind Direction Offset: 0.00	 Slope (M)1: 0.00	 Offset (B)1: 0.00	 Slope (M)2: 0.00	 Offset (B)2: 0.00	 Slope (M)3: 0.00	 Offset (B)3: 0.00	 Slope (M)4: 0.00	 Offset (B)4: 0.00	 Slope (M)5: 0.00	 Offset (B)5: 0.00	 Slope (M)6: 0.00	 Offset (B)6: 0.00
Computer Date	Computer Time	GGA String
06/06/2014	18:00:00.542	$GPGGA,180008,2423.4805,N,08142.9906,W,1,9,1.9,15,M,,M,,*53
06/06/2014	18:00:01.564	$GPGGA,180009,2423.4819,N,08142.9906,W,1,8,1.9,15,M,,M,,*5E
06/06/2014	18:00:02.585	$GPGGA,180010,2423.4836,N,08142.9904,W,1,8,1.4,15,M,,M,,*54
06/06/2014	18:00:03.615	$GPGGA,180011,2423.4852,N,08142.9901,W,1,9,1.4,15,M,,M,,*53
06/06/2014	18:00:04.626	$GPGGA,180012,2423.4870,N,08142.9899,W,1,9,1.4,15,M,,M,,*50
06/06/2014	18:00:05.637	$GPGGA,180013,2423.4885,N,08142.9897,W,1,9,1.4,15,M,,M,,*55
06/06/2014	18:00:06.627	$GPGGA,180014,2423.4902,N,08142.9896,W,1,9,1.4,15,M,,M,,*5D
06/06/2014	18:00:07.667	$GPGGA,180015,2423.4917,N,08142.9895,W,1,9,1.4,15,M,,M,,*5B
06/06/2014	18:00:08.677	$GPGGA,180016,2423.4917,N,08142.9895,W,1,9,1.4,15,M,,M,,*58
06/06/2014	18:00:09.738	$GPGGA,180017,2423.4946,N,08142.9895,W,1,9,1.4,15,M,,M,,*5D
06/06/2014	18:00:10.718	$GPGGA,180018,2423.4962,N,08142.9893,W,1,9,1.4,15,M,,M,,*52
06/06/2014	18:00:11.718	$GPGGA,180019,2423.4975,N,08142.9893,W,1,9,1.4,15,M,,M,,*55
06/06/2014	18:00:12.769	$GPGGA,180020,2423.4989,N,08142.9893,W,1,9,1.4,15,M,,M,,*5C
06/06/2014	18:00:13.790	$GPGGA,180021,2423.5004,N,08142.9892,W,1,9,1.4,15,M,,M,,*51
06/06/2014	18:00:14.770	$GPGGA,180022,2423.5004,N,08142.9892,W,1,9,1.4,15,M,,M,,*52
06/06/2014	18:00:15.820	$GPGGA,180023,2423.5033,N,08142.9891,W,1,8,1.8,15,M,,M,,*59
06/06/2014	18:00:16.851	$GPGGA,180024,2423.5046,N,08142.9889,W,1,8,1.7,15,M,,M,,*5A
06/06/2014	18:00:17.852	$GPGGA,180025,2423.5046,N,08142.9889,W,1,9,1.7,15,M,,M,,*5A
06/06/2014	18:00:18.881	$GPGGA,180026,2423.5060,N,08142.9888,W,1,9,1.4,15,M,,M,,*5F
06/06/2014	18:00:19.896	$GPGGA,180027,2423.5087,N,08142.9888,W,1,9,1.7,15,M,,M,,*54
06/06/2014	18:00:20.903	$GPGGA,180028,2423.5087,N,08142.9888,W,1,9,1.7,15,M,,M,,*5B
06/06/2014	18:00:21.922	$GPGGA,180029,2423.5118,N,08142.9886,W,1,9,1.7,15,M,,M,,*53
06/06/2014	18:00:23.024	$GPGGA,180030,2423.5130,N,08142.9885,W,1,9,1.4,15,M,,M,,*51
06/06/2014	18:00:23.943	$GPGGA,180031,2423.5145,N,08142.9883,W,1,10,1.4,15,M,,M,,*6C
06/06/2014	18:00:25.108	$GPGGA,180032,2423.5159,N,08142.9884,W,1,10,1.4,15,M,,M,,*65
06/06/2014	18:00:25.984	$GPGGA,180033,2423.5173,N,08142.9883,W,1,9,1.7,15,M,,M,,*50
06/06/2014	18:00:27.044	$GPGGA,180034,2423.5188,N,08142.9884,W,1,9,1.8,16,M,,M,,*58
06/06/2014	18:00:28.106	$GPGGA,180035,2423.5204,N,08142.9884,W,1,8,1.8,16,M,,M,,*5F
06/06/2014	18:00:29.105	$GPGGA,180036,2423.5217,N,08142.9884,W,1,8,1.8,16,M,,M,,*5E
06/06/2014	18:00:28.162	$GPGGA,180037,2423.5233,N,08142.9884,W,1,8,1.8,16,M,,M,,*59
06/06/2014	18:00:29.284	$GPGGA,180038,2423.5248,N,08142.9885,W,1,8,1.8,16,M,,M,,*5B
06/06/2014	18:00:30.316	$GPGGA,180039,2423.5260,N,08142.9889,W,1,8,1.8,16,M,,M,,*5C
06/06/2014	18:00:31.254	$GPGGA,180040,2423.5260,N,08142.9889,W,1,8,2.7,16,M,,M,,*5E
06/06/2014	18:00:32.234	$GPGGA,180041,2423.5289,N,08142.9889,W,1,9,1.4,16,M,,M,,*59
06/06/2014	18:00:33.305	$GPGGA,180042,2423.5304,N,08142.9891,W,1,9,1.8,16,M,,M,,*5B
06/06/2014	18:00:34.386	$GPGGA,180043,2423.5318,N,08142.9890,W,1,8,1.8,16,M,,M,,*57
06/06/2014	18:00:35.406	$GPGGA,180044,2423.5335,N,08142.9891,W,1,8,1.8,16,M,,M,,*5E
06/06/2014	18:00:36.396	$GPGGA,180045,2423.5349,N,08142.9889,W,1,8,1.8,16,M,,M,,*5D
06/06/2014	18:00:37.407	$GPGGA,180046,2423.5365,N,08142.9889,W,1,8,1.8,16,M,,M,,*50
06/06/2014	18:00:38.437	$GPGGA,180047,2423.5379,N,08142.9888,W,1,8,1.8,16,M,,M,,*5D
06/06/2014	18:00:39.468	$GPGGA,180048,2423.5396,N,08142.9888,W,1,8,1.8,16,M,,M,,*53
06/06/2014	18:00:40.468	$GPGGA,180049,2423.5411,N,08142.9888,W,1,9,1.4,16,M,,M,,*57
06/06/2014	18:00:41.489	$GPGGA,180050,2423.5426,N,08142.9887,W,1,9,1.8,16,M,,M,,*58
06/06/2014	18:00:42.529	$GPGGA,180051,2423.5441,N,08142.9886,W,1,9,1.4,16,M,,M,,*55
06/06/2014	18:00:43.530	$GPGGA,180052,2423.5455,N,08142.9885,W,1,9,1.4,16,M,,M,,*50
06/06/2014	18:00:44.560	$GPGGA,180053,2423.5470,N,08142.9885,W,1,9,1.4,16,M,,M,,*56
06/06/2014	18:00:45.550	$GPGGA,180054,2423.5484,N,08142.9883,W,1,9,1.4,16,M,,M,,*5C
06/06/2014	18:00:46.602	$GPGGA,180055,2423.5498,N,08142.9884,W,1,10,1.4,16,M,,M,,*6F
06/06/2014	18:00:47.612	$GPGGA,180056,2423.5512,N,08142.9883,W,1,10,1.4,16,M,,M,,*68
06/06/2014	18:00:48.632	$GPGGA,180057,2423.5526,N,08142.9882,W,1,10,1.4,16,M,,M,,*6F
06/06/2014	18:00:49.622	$GPGGA,180058,2423.5541,N,08142.9882,W,1,10,1.4,16,M,,M,,*61
06/06/2014	18:00:50.663	$GPGGA,180059,2423.5555,N,08142.9882,W,1,10,1.4,16,M,,M,,*65
06/06/2014	18:00:51.694	$GPGGA,180100,2423.5570,N,08142.9882,W,1,10,1.4,16,M,,M,,*6F
06/06/2014	18:00:52.713	$GPGGA,180101,2423.5584,N,08142.9882,W,1,10,1.4,16,M,,M,,*65
06/06/2014	18:00:53.703	$GPGGA,180102,2423.5599,N,08142.9881,W,1,10,1.4,16,M,,M,,*69
06/06/2014	18:00:54.734	$GPGGA,180103,2423.5613,N,08142.9881,W,1,10,1.4,16,M,,M,,*69
06/06/2014	18:00:55.775	$GPGGA,180104,2423.5628,N,08142.9881,W,1,10,1.4,16,M,,M,,*66
06/06/2014	18:00:56.795	$GPGGA,180105,2423.5643,N,08142.9879,W,1,9,1.4,16,M,,M,,*55
06/06/2014	18:00:57.764	$GPGGA,180106,2423.5658,N,08142.9879,W,1,9,1.4,16,M,,M,,*5C
06/06/2014	18:00:58.826	$GPGGA,180107,2423.5674,N,08142.9879,W,1,9,1.4,16,M,,M,,*53
06/06/2014	18:00:59.828	$GPGGA,180108,2423.5690,N,08142.9878,W,1,9,1.4,16,M,,M,,*57
06/06/2014	18:01:00.838	$GPGGA,180109,2423.5705,N,08142.9877,W,1,10,1.4,16,M,,M,,*6C
06/06/2014	18:01:01.846	$GPGGA,180110,2423.5721,N,08142.9877,W,1,10,1.4,16,M,,M,,*62
06/06/2014	18:01:02.877	$GPGGA,180111,2423.5734,N,08142.9877,W,1,9,1.4,16,M,,M,,*5F
06/06/2014	18:01:03.901	$GPGGA,180112,2423.5751,N,08142.9876,W,1,9,1.4,16,M,,M,,*5E
06/06/2014	18:01:04.923	$GPGGA,180113,2423.5765,N,08142.9875,W,1,10,1.4,16,M,,M,,*63
06/06/2014	18:01:06.051	$GPGGA,180114,2423.5777,N,08142.9875,W,1,10,1.4,16,M,,M,,*67
06/06/2014	18:01:06.959	$GPGGA,180115,2423.5791,N,08142.9877,W,1,10,1.4,16,M,,M,,*6C
06/06/2014	18:01:08.095	$GPGGA,180116,2423.5806,N,08142.9875,W,1,10,1.9,16,M,,M,,*61
06/06/2014	18:01:08.970	$GPGGA,180117,2423.5822,N,08142.9874,W,1,10,1.4,16,M,,M,,*6A
06/06/2014	18:01:10.009	$GPGGA,180118,2423.5835,N,08142.9874,W,1,10,1.4,16,M,,M,,*63
06/06/2014	18:01:11.030	$GPGGA,180119,2423.5851,N,08142.9874,W,1,10,1.4,16,M,,M,,*60
06/06/2014	18:01:12.164	$GPGGA,180120,2423.5866,N,08142.9873,W,1,10,1.4,16,M,,M,,*69
06/06/2014	18:01:13.563	$GPGGA,180121,2423.5881,N,08142.9871,W,1,10,1.4,16,M,,M,,*63
06/06/2014	18:01:14.091	$GPGGA,180122,2423.5895,N,08142.9873,W,1,10,1.4,16,M,,M,,*67
06/06/2014	18:01:15.183	$GPGGA,180123,2423.5907,N,08142.9874,W,1,9,1.5,16,M,,M,,*52
06/06/2014	18:01:16.112	$GPGGA,180124,2423.5925,N,08142.9870,W,1,9,1.9,16,M,,M,,*5D
06/06/2014	18:01:17.133	$GPGGA,180125,2423.5942,N,08142.9868,W,1,10,1.4,16,M,,M,,*61
06/06/2014	18:01:18.245	$GPGGA,180126,2423.5957,N,08142.9867,W,1,10,1.4,16,M,,M,,*69
06/06/2014	18:01:19.255	$GPGGA,180127,2423.5972,N,08142.9865,W,1,10,1.4,16,M,,M,,*6D
06/06/2014	18:01:20.306	$GPGGA,180128,2423.5988,N,08142.9864,W,1,10,1.4,16,M,,M,,*66
06/06/2014	18:01:21.307	$GPGGA,180129,2423.6003,N,08142.9864,W,1,9,1.5,16,M,,M,,*57
06/06/2014	18:01:22.306	$GPGGA,180130,2423.6019,N,08142.9863,W,1,9,1.4,16,M,,M,,*52
06/06/2014	18:01:23.327	$GPGGA,180131,2423.6033,N,08142.9862,W,1,10,1.4,16,M,,M,,*62
06/06/2014	18:01:24.368	$GPGGA,180132,2423.6048,N,08142.9861,W,1,10,1.4,16,M,,M,,*6E
06/06/2014	18:01:25.368	$GPGGA,180133,2423.6062,N,08142.9861,W,1,10,1.4,16,M,,M,,*67
06/06/2014	18:01:26.390	$GPGGA,180134,2423.6079,N,08142.9860,W,1,10,1.5,16,M,,M,,*6A
06/06/2014	18:01:27.409	$GPGGA,180135,2423.6094,N,08142.9859,W,1,10,1.4,16,M,,M,,*63
06/06/2014	18:01:28.439	$GPGGA,180136,2423.6109,N,08142.9858,W,1,10,1.4,16,M,,M,,*64
06/06/2014	18:01:28.230	$GPGGA,180137,2423.6124,N,08142.9857,W,1,10,1.4,16,M,,M,,*65
06/06/2014	18:01:29.251	$GPGGA,180138,2423.6138,N,08142.9856,W,1,10,1.4,16,M,,M,,*66
06/06/2014	18:01:30.271	$GPGGA,180139,2423.6153,N,08142.9855,W,1,10,1.4,16,M,,M,,*69
06/06/2014	18:01:31.292	$GPGGA,180140,2423.6169,N,08142.9854,W,1,10,1.4,16,M,,M,,*6F
06/06/2014	18:01:32.282	$GPGGA,180141,2423.6182,N,08142.9855,W,1,10,1.4,16,M,,M,,*6A
06/06/2014	18:01:33.302	$GPGGA,180142,2423.6198,N,08142.9854,W,1,10,1.7,16,M,,M,,*60
06/06/2014	18:01:34.333	$GPGGA,180143,2423.6213,N,08142.9855,W,1,10,1.4,16,M,,M,,*63
06/06/2014	18:01:35.353	$GPGGA,180144,2423.6228,N,08142.9854,W,1,10,1.4,16,M,,M,,*6D
06/06/2014	18:01:36.353	$GPGGA,180145,2423.6242,N,08142.9855,W,1,10,1.4,16,M,,M,,*61
06/06/2014	18:01:37.384	$GPGGA,180146,2423.6257,N,08142.9854,W,1,10,1.4,16,M,,M,,*67
06/06/2014	18:01:38.425	$GPGGA,180147,2423.6271,N,08142.9855,W,1,9,1.7,16,M,,M,,*58
06/06/2014	18:01:39.425	$GPGGA,180148,2423.6285,N,08142.9853,W,1,9,1.7,16,M,,M,,*5A
06/06/2014	18:01:40.456	$GPGGA,180149,2423.6299,N,08142.9851,W,1,8,1.8,16,M,,M,,*5A
06/06/2014	18:01:41.447	$GPGGA,180150,2423.6312,N,08142.9852,W,1,8,1.8,16,M,,M,,*53
06/06/2014	18:01:42.497	$GPGGA,180151,2423.6326,N,08142.9853,W,1,8,1.8,16,M,,M,,*54
06/06/2014	18:01:43.497	$GPGGA,180152,2423.6340,N,08142.9852,W,1,8,1.8,16,M,,M,,*56
06/06/2014	18:01:44.537	$GPGGA,180153,2423.6354,N,08142.9853,W,1,8,1.8,16,M,,M,,*53
06/06/2014	18:01:45.527	$GPGGA,180154,2423.6368,N,08142.9853,W,1,8,1.8,16,M,,M,,*5B
06/06/2014	18:01:46.557	$GPGGA,180155,2423.6382,N,08142.9853,W,1,8,1.8,16,M,,M,,*5E
06/06/2014	18:01:47.569	$GPGGA,180156,2423.6395,N,08142.9852,W,1,8,1.7,16,M,,M,,*55
06/06/2014	18:01:48.578	$GPGGA,180157,2423.6408,N,08142.9855,W,1,9,1.5,16,M,,M,,*53
06/06/2014	18:01:49.588	$GPGGA,180158,2423.6422,N,08142.9856,W,1,9,1.7,16,M,,M,,*55
06/06/2014	18:01:50.629	$GPGGA,180159,2423.6438,N,08142.9856,W,1,8,1.8,16,M,,M,,*51
06/06/2014	18:01:51.660	$GPGGA,180200,2423.6454,N,08142.9855,W,1,8,1.7,16,M,,M,,*58
06/06/2014	18:01:52.680	$GPGGA,180201,2423.6467,N,08142.9856,W,1,9,1.7,16,M,,M,,*5B
06/06/2014	18:01:53.670	$GPGGA,180202,2423.6483,N,08142.9855,W,1,9,1.8,16,M,,M,,*5E
06/06/2014	18:01:54.814	$GPGGA,180203,2423.6496,N,08142.9855,W,1,8,1.8,16,M,,M,,*5A
06/06/2014	18:01:55.711	$GPGGA,180204,2423.6509,N,08142.9853,W,1,8,1.8,16,M,,M,,*5C
06/06/2014	18:01:56.813	$GPGGA,180205,2423.6523,N,08142.9853,W,1,9,1.4,16,M,,M,,*58
06/06/2014	18:01:57.732	$GPGGA,180206,2423.6536,N,08142.9855,W,1,9,1.8,16,M,,M,,*55
06/06/2014	18:01:58.752	$GPGGA,180207,2423.6552,N,08142.9853,W,1,8,1.8,16,M,,M,,*51
06/06/2014	18:01:59.793	$GPGGA,180208,2423.6566,N,08142.9855,W,1,8,1.8,16,M,,M,,*5F
06/06/2014	18:02:00.803	$GPGGA,180209,2423.6581,N,08142.9854,W,1,8,1.8,16,M,,M,,*56
06/06/2014	18:02:01.915	$GPGGA,180210,2423.6596,N,08142.9855,W,1,8,1.7,16,M,,M,,*56
06/06/2014	18:02:02.966	$GPGGA,180211,2423.6611,N,08142.9854,W,1,9,1.7,16,M,,M,,*5B
06/06/2014	18:02:03.854	$GPGGA,180212,2423.6626,N,08142.9853,W,1,9,1.4,16,M,,M,,*58
06/06/2014	18:02:04.976	$GPGGA,180213,2423.6640,N,08142.9855,W,1,10,1.4,16,M,,M,,*67
06/06/2014	18:02:05.987	$GPGGA,180214,2423.6657,N,08142.9854,W,1,10,2.1,16,M,,M,,*61
06/06/2014	18:02:07.017	$GPGGA,180215,2423.6671,N,08142.9855,W,1,10,1.4,16,M,,M,,*63
06/06/2014	18:02:08.048	$GPGGA,180216,2423.6686,N,08142.9855,W,1,10,1.4,16,M,,M,,*68
06/06/2014	18:02:09.058	$GPGGA,180217,2423.6701,N,08142.9855,W,1,10,1.4,16,M,,M,,*67
06/06/2014	18:02:10.058	$GPGGA,180218,2423.6716,N,08142.9854,W,1,10,1.4,16,M,,M,,*6F
06/06/2014	18:02:11.079	$GPGGA,180219,2423.6729,N,08142.9852,W,1,9,1.7,16,M,,M,,*5F
06/06/2014	18:02:12.120	$GPGGA,180220,2423.6742,N,08142.9850,W,1,9,1.4,16,M,,M,,*59
06/06/2014	18:02:13.140	$GPGGA,180221,2423.6756,N,08142.9850,W,1,10,1.4,16,M,,M,,*65
06/06/2014	18:02:14.140	$GPGGA,180222,2423.6770,N,08142.9849,W,1,10,1.4,16,M,,M,,*6A
06/06/2014	18:02:15.161	$GPGGA,180223,2423.6785,N,08142.9847,W,1,9,1.4,16,M,,M,,*57
06/06/2014	18:02:16.181	$GPGGA,180224,2423.6799,N,08142.9846,W,1,9,1.4,16,M,,M,,*5C
06/06/2014	18:02:17.177	$GPGGA,180225,2423.6814,N,08142.9846,W,1,9,1.4,16,M,,M,,*57
06/06/2014	18:02:18.202	$GPGGA,180226,2423.6827,N,08142.9846,W,1,9,1.4,16,M,,M,,*54
06/06/2014	18:02:19.217	$GPGGA,180227,2423.6841,N,08142.9845,W,1,9,1.4,16,M,,M,,*56
06/06/2014	18:02:20.262	$GPGGA,180228,2423.6855,N,08142.9845,W,1,9,1.4,16,M,,M,,*5C
06/06/2014	18:02:21.283	$GPGGA,180229,2423.6870,N,08142.9845,W,1,9,1.4,16,M,,M,,*5A
06/06/2014	18:02:22.273	$GPGGA,180230,2423.6886,N,08142.9844,W,1,9,1.4,17,M,,M,,*5B
06/06/2014	18:02:23.293	$GPGGA,180231,2423.6900,N,08142.9845,W,1,10,1.4,17,M,,M,,*6C
06/06/2014	18:02:24.334	$GPGGA,180232,2423.6914,N,08142.9844,W,1,10,1.4,17,M,,M,,*6B
06/06/2014	18:02:25.365	$GPGGA,180233,2423.6928,N,08142.9845,W,1,9,1.4,17,M,,M,,*5C
06/06/2014	18:02:26.355	$GPGGA,180234,2423.6943,N,08142.9843,W,1,9,1.4,17,M,,M,,*50
06/06/2014	18:02:27.365	$GPGGA,180235,2423.6957,N,08142.9844,W,1,9,1.4,17,M,,M,,*53
06/06/2014	18:02:28.406	$GPGGA,180236,2423.6971,N,08142.9842,W,1,9,1.4,17,M,,M,,*52
06/06/2014	18:02:28.168	$GPGGA,180237,2423.6984,N,08142.9842,W,1,9,1.4,17,M,,M,,*59
06/06/2014	18:02:29.206	$GPGGA,180238,2423.6998,N,08142.9842,W,1,9,1.4,17,M,,M,,*5B
06/06/2014	18:02:30.242	$GPGGA,180239,2423.7015,N,08142.9841,W,1,9,1.4,17,M,,M,,*54
06/06/2014	18:02:31.244	$GPGGA,180240,2423.7030,N,08142.9841,W,1,9,1.4,17,M,,M,,*5D
06/06/2014	18:02:32.280	$GPGGA,180241,2423.7044,N,08142.9842,W,1,10,1.4,17,M,,M,,*64
06/06/2014	18:02:33.270	$GPGGA,180242,2423.7058,N,08142.9840,W,1,10,1.5,17,M,,M,,*69
06/06/2014	18:02:34.306	$GPGGA,180243,2423.7074,N,08142.9839,W,1,9,1.7,17,M,,M,,*52
06/06/2014	18:02:35.444	$GPGGA,180244,2423.7088,N,08142.9837,W,1,9,1.4,17,M,,M,,*5B
06/06/2014	18:02:36.322	$GPGGA,180245,2423.7105,N,08142.9837,W,1,10,1.4,17,M,,M,,*66
06/06/2014	18:02:37.443	$GPGGA,180246,2423.7121,N,08142.9836,W,1,10,1.7,17,M,,M,,*61
06/06/2014	18:02:38.392	$GPGGA,180247,2423.7135,N,08142.9837,W,1,9,1.7,17,M,,M,,*5C
06/06/2014	18:02:39.382	$GPGGA,180248,2423.7150,N,08142.9839,W,1,9,2.1,17,M,,M,,*5B
06/06/2014	18:02:40.494	$GPGGA,180249,2423.7166,N,08142.9838,W,1,8,2.1,17,M,,M,,*5F
06/06/2014	18:02:41.423	$GPGGA,180250,2423.7181,N,08142.9837,W,1,8,1.7,17,M,,M,,*54
06/06/2014	18:02:42.444	$GPGGA,180251,2423.7195,N,08142.9837,W,1,9,1.7,17,M,,M,,*51
06/06/2014	18:02:43.566	$GPGGA,180252,2423.7210,N,08142.9836,W,1,9,1.8,17,M,,M,,*52
06/06/2014	18:02:44.607	$GPGGA,180253,2423.7225,N,08142.9838,W,1,8,1.8,17,M,,M,,*5A
06/06/2014	18:02:45.495	$GPGGA,180254,2423.7240,N,08142.9838,W,1,8,1.8,17,M,,M,,*5E
06/06/2014	18:02:46.496	$GPGGA,180255,2423.7255,N,08142.9838,W,1,9,1.7,17,M,,M,,*55
06/06/2014	18:02:47.648	$GPGGA,180256,2423.7271,N,08142.9838,W,1,9,1.8,17,M,,M,,*5F
06/06/2014	18:02:48.669	$GPGGA,180257,2423.7285,N,08142.9839,W,1,8,1.8,17,M,,M,,*55
06/06/2014	18:02:49.669	$GPGGA,180258,2423.7300,N,08142.9839,W,1,8,1.8,17,M,,M,,*56
06/06/2014	18:02:50.690	$GPGGA,180259,2423.7312,N,08142.9836,W,1,9,1.4,17,M,,M,,*56
06/06/2014	18:02:51.710	$GPGGA,180300,2423.7327,N,08142.9837,W,1,9,1.4,17,M,,M,,*5C
06/06/2014	18:02:52.730	$GPGGA,180301,2423.7341,N,08142.9837,W,1,8,1.8,17,M,,M,,*50
06/06/2014	18:02:53.741	$GPGGA,180302,2423.7356,N,08142.9838,W,1,8,1.8,17,M,,M,,*5A
06/06/2014	18:02:54.780	$GPGGA,180303,2423.7370,N,08142.9838,W,1,8,1.8,17,M,,M,,*5F
06/06/2014	18:02:55.770	$GPGGA,180304,2423.7385,N,08142.9839,W,1,8,1.8,17,M,,M,,*53
06/06/2014	18:02:56.781	$GPGGA,180305,2423.7401,N,08142.9839,W,1,8,1.8,17,M,,M,,*59
06/06/2014	18:02:57.811	$GPGGA,180306,2423.7415,N,08142.9839,W,1,8,1.8,17,M,,M,,*5F
06/06/2014	18:02:58.852	$GPGGA,180307,2423.7430,N,08142.9841,W,1,8,1.8,17,M,,M,,*56
06/06/2014	18:02:59.852	$GPGGA,180308,2423.7444,N,08142.9840,W,1,8,1.8,17,M,,M,,*5B
06/06/2014	18:03:00.852	$GPGGA,180309,2423.7459,N,08142.9841,W,1,8,1.8,17,M,,M,,*57
06/06/2014	18:03:01.883	$GPGGA,180310,2423.7474,N,08142.9841,W,1,8,1.8,17,M,,M,,*50
06/06/2014	18:03:02.893	$GPGGA,180311,2423.7489,N,08142.9841,W,1,8,1.8,17,M,,M,,*53
06/06/2014	18:03:03.924	$GPGGA,180312,2423.7503,N,08142.9841,W,1,8,1.8,17,M,,M,,*53
06/06/2014	18:03:04.945	$GPGGA,180313,2423.7518,N,08142.9842,W,1,8,1.8,17,M,,M,,*5B
06/06/2014	18:03:05.945	$GPGGA,180314,2423.7532,N,08142.9844,W,1,8,1.8,17,M,,M,,*52
06/06/2014	18:03:06.986	$GPGGA,180315,2423.7547,N,08142.9843,W,1,8,1.8,17,M,,M,,*56
06/06/2014	18:03:08.006	$GPGGA,180316,2423.7561,N,08142.9845,W,1,8,1.7,17,M,,M,,*58
06/06/2014	18:03:09.012	$GPGGA,180317,2423.7575,N,08142.9843,W,1,9,1.7,17,M,,M,,*5B
06/06/2014	18:03:10.023	$GPGGA,180318,2423.7589,N,08142.9845,W,1,9,1.7,17,M,,M,,*51
06/06/2014	18:03:11.082	$GPGGA,180319,2423.7604,N,08142.9845,W,1,9,1.7,17,M,,M,,*56
06/06/2014	18:03:12.076	$GPGGA,180320,2423.7619,N,08142.9845,W,1,9,1.7,17,M,,M,,*50
06/06/2014	18:03:13.067	$GPGGA,180321,2423.7633,N,08142.9846,W,1,9,1.7,17,M,,M,,*5A
06/06/2014	18:03:14.118	$GPGGA,180322,2423.7648,N,08142.9848,W,1,9,2.1,17,M,,M,,*5E
06/06/2014	18:03:15.108	$GPGGA,180323,2423.7663,N,08142.9848,W,1,8,2.1,17,M,,M,,*57
06/06/2014	18:03:16.261	$GPGGA,180324,2423.7677,N,08142.9850,W,1,8,1.7,16,M,,M,,*58
06/06/2014	18:03:17.178	$GPGGA,180325,2423.7691,N,08142.9852,W,1,9,1.7,16,M,,M,,*52
06/06/2014	18:03:18.160	$GPGGA,180326,2423.7706,N,08142.9851,W,1,9,1.7,16,M,,M,,*5D
06/06/2014	18:03:19.180	$GPGGA,180327,2423.7720,N,08142.9852,W,1,9,1.7,16,M,,M,,*5B
06/06/2014	18:03:20.338	$GPGGA,180328,2423.7735,N,08142.9851,W,1,9,1.4,16,M,,M,,*50
06/06/2014	18:03:21.347	$GPGGA,180329,2423.7751,N,08142.9850,W,1,10,1.4,16,M,,M,,*6A
06/06/2014	18:03:22.364	$GPGGA,180330,2423.7766,N,08142.9852,W,1,10,1.4,16,M,,M,,*64
06/06/2014	18:03:23.364	$GPGGA,180331,2423.7781,N,08142.9850,W,1,10,1.4,16,M,,M,,*6E
06/06/2014	18:03:24.405	$GPGGA,180332,2423.7795,N,08142.9848,W,1,10,1.4,16,M,,M,,*61
06/06/2014	18:03:25.417	$GPGGA,180333,2423.7809,N,08142.9848,W,1,10,1.4,16,M,,M,,*6A
06/06/2014	18:03:26.323	$GPGGA,180334,2423.7822,N,08142.9846,W,1,10,1.4,16,M,,M,,*6A
06/06/2014	18:03:27.334	$GPGGA,180335,2423.7838,N,08142.9845,W,1,10,1.4,16,M,,M,,*63
06/06/2014	18:03:28.489	$GPGGA,180336,2423.7851,N,08142.9845,W,1,10,1.4,15,M,,M,,*6C
06/06/2014	18:03:28.268	$GPGGA,180337,2423.7865,N,08142.9845,W,1,9,1.4,15,M,,M,,*52
06/06/2014	18:03:29.267	$GPGGA,180338,2423.7880,N,08142.9844,W,1,9,1.4,15,M,,M,,*57
06/06/2014	18:03:30.320	$GPGGA,180339,2423.7896,N,08142.9845,W,1,9,1.4,15,M,,M,,*50
06/06/2014	18:03:31.206	$GPGGA,180340,2423.7910,N,08142.9844,W,1,9,1.4,15,M,,M,,*50
06/06/2014	18:03:32.216	$GPGGA,180341,2423.7923,N,08142.9843,W,1,9,1.4,15,M,,M,,*56
06/06/2014	18:03:33.339	$GPGGA,180342,2423.7939,N,08142.9844,W,1,9,1.4,15,M,,M,,*59
06/06/2014	18:03:34.369	$GPGGA,180343,2423.7952,N,08142.9843,W,1,9,1.4,15,M,,M,,*52
06/06/2014	18:03:35.380	$GPGGA,180344,2423.7966,N,08142.9842,W,1,9,1.4,15,M,,M,,*53
06/06/2014	18:03:36.410	$GPGGA,180345,2423.7981,N,08142.9841,W,1,10,1.4,15,M,,M,,*60
06/06/2014	18:03:37.411	$GPGGA,180346,2423.7995,N,08142.9841,W,1,10,1.4,15,M,,M,,*66
06/06/2014	18:03:38.441	$GPGGA,180347,2423.8010,N,08142.9841,W,1,9,1.4,15,M,,M,,*54
06/06/2014	18:03:39.462	$GPGGA,180348,2423.8024,N,08142.9840,W,1,9,1.4,15,M,,M,,*5D
06/06/2014	18:03:40.482	$GPGGA,180349,2423.8038,N,08142.9839,W,1,9,1.4,15,M,,M,,*5F
06/06/2014	18:03:41.493	$GPGGA,180350,2423.8053,N,08142.9839,W,1,9,1.4,15,M,,M,,*5A
06/06/2014	18:03:42.513	$GPGGA,180351,2423.8067,N,08142.9839,W,1,9,1.4,15,M,,M,,*5C
06/06/2014	18:03:43.513	$GPGGA,180352,2423.8082,N,08142.9838,W,1,9,1.4,15,M,,M,,*55
06/06/2014	18:03:44.565	$GPGGA,180353,2423.8098,N,08142.9838,W,1,9,1.4,15,M,,M,,*5F
06/06/2014	18:03:45.555	$GPGGA,180354,2423.8113,N,08142.9837,W,1,9,1.4,15,M,,M,,*55
06/06/2014	18:03:46.594	$GPGGA,180355,2423.8128,N,08142.9837,W,1,9,1.4,15,M,,M,,*5C
06/06/2014	18:03:47.604	$GPGGA,180356,2423.8143,N,08142.9836,W,1,9,1.4,15,M,,M,,*53
06/06/2014	18:03:49.951	$GPGGA,180358,2423.8176,N,08142.9837,W,1,9,1.7,15,M,,M,,*59
06/06/2014	18:03:50.676	$GPGGA,180359,2423.8190,N,08142.9837,W,1,9,1.8,15,M,,M,,*5F
06/06/2014	18:03:51.666	$GPGGA,180400,2423.8204,N,08142.9837,W,1,9,1.4,15,M,,M,,*56
06/06/2014	18:03:52.707	$GPGGA,180401,2423.8219,N,08142.9837,W,1,9,1.4,15,M,,M,,*5B
06/06/2014	18:03:53.697	$GPGGA,180402,2423.8236,N,08142.9836,W,1,9,1.7,15,M,,M,,*57
06/06/2014	18:03:54.738	$GPGGA,180403,2423.8251,N,08142.9837,W,1,9,1.7,15,M,,M,,*56
06/06/2014	18:03:55.748	$GPGGA,180404,2423.8266,N,08142.9836,W,1,9,1.7,15,M,,M,,*54
06/06/2014	18:03:56.754	$GPGGA,180405,2423.8283,N,08142.9837,W,1,9,1.7,15,M,,M,,*5F
06/06/2014	18:03:57.768	$GPGGA,180406,2423.8298,N,08142.9836,W,1,9,1.7,15,M,,M,,*57
06/06/2014	18:03:58.799	$GPGGA,180407,2423.8313,N,08142.9837,W,1,9,1.7,15,M,,M,,*55
06/06/2014	18:03:59.830	$GPGGA,180408,2423.8329,N,08142.9837,W,1,9,1.7,15,M,,M,,*53
06/06/2014	18:04:00.850	$GPGGA,180409,2423.8344,N,08142.9837,W,1,9,1.7,15,M,,M,,*59
06/06/2014	18:04:01.853	$GPGGA,180410,2423.8359,N,08142.9838,W,1,9,1.7,15,M,,M,,*52
06/06/2014	18:04:02.977	$GPGGA,180411,2423.8374,N,08142.9837,W,1,9,1.7,15,M,,M,,*53
06/06/2014	18:04:03.922	$GPGGA,180412,2423.8388,N,08142.9837,W,1,9,1.7,15,M,,M,,*53
06/06/2014	18:04:04.921	$GPGGA,180413,2423.8403,N,08142.9838,W,1,9,1.7,15,M,,M,,*59
06/06/2014	18:04:05.921	$GPGGA,180414,2423.8418,N,08142.9839,W,1,9,1.7,15,M,,M,,*55
06/06/2014	18:04:06.932	$GPGGA,180415,2423.8432,N,08142.9839,W,1,9,2.7,15,M,,M,,*5F
06/06/2014	18:04:07.962	$GPGGA,180416,2423.8445,N,08142.9841,W,1,9,2.7,15,M,,M,,*53
06/06/2014	18:04:09.003	$GPGGA,180417,2423.8461,N,08142.9839,W,1,7,1.8,14,M,,M,,*58
06/06/2014	18:04:10.085	$GPGGA,180418,2423.8475,N,08142.9836,W,1,7,1.4,14,M,,M,,*51
06/06/2014	18:04:11.014	$GPGGA,180419,2423.8490,N,08142.9834,W,1,10,1.8,15,M,,M,,*62
06/06/2014	18:04:12.136	$GPGGA,180420,2423.8505,N,08142.9832,W,1,10,1.8,15,M,,M,,*63
06/06/2014	18:04:13.065	$GPGGA,180421,2423.8522,N,08142.9831,W,1,8,1.8,15,M,,M,,*5D
06/06/2014	18:04:14.157	$GPGGA,180422,2423.8539,N,08142.9830,W,1,8,1.8,15,M,,M,,*55
06/06/2014	18:04:15.085	$GPGGA,180423,2423.8554,N,08142.9828,W,1,9,1.8,15,M,,M,,*57
06/06/2014	18:04:16.208	$GPGGA,180424,2423.8569,N,08142.9827,W,1,9,1.8,15,M,,M,,*51
06/06/2014	18:04:17.239	$GPGGA,180425,2423.8584,N,08142.9827,W,1,8,1.8,15,M,,M,,*52
06/06/2014	18:04:18.239	$GPGGA,180426,2423.8598,N,08142.9825,W,1,8,1.8,15,M,,M,,*5E
06/06/2014	18:04:19.239	$GPGGA,180427,2423.8612,N,08142.9824,W,1,9,1.4,15,M,,M,,*52
06/06/2014	18:04:20.178	$GPGGA,180428,2423.8612,N,08142.9824,W,1,9,1.4,15,M,,M,,*5D
06/06/2014	18:04:21.310	$GPGGA,180429,2423.8640,N,08142.9826,W,1,7,2.7,15,M,,M,,*57
06/06/2014	18:04:22.309	$GPGGA,180430,2423.8655,N,08142.9824,W,1,7,1.7,16,M,,M,,*59
06/06/2014	18:04:23.320	$GPGGA,180431,2423.8670,N,08142.9823,W,1,9,1.8,16,M,,M,,*59
06/06/2014	18:04:24.350	$GPGGA,180432,2423.8682,N,08142.9821,W,1,9,1.8,16,M,,M,,*55
06/06/2014	18:04:25.381	$GPGGA,180433,2423.8696,N,08142.9820,W,1,9,1.4,16,M,,M,,*5C
06/06/2014	18:04:26.381	$GPGGA,180434,2423.8712,N,08142.9821,W,1,9,1.4,16,M,,M,,*57
06/06/2014	18:04:27.432	$GPGGA,180435,2423.8727,N,08142.9821,W,1,9,1.7,16,M,,M,,*53
06/06/2014	18:04:28.432	$GPGGA,180436,2423.8742,N,08142.9823,W,1,9,1.7,16,M,,M,,*51
06/06/2014	18:04:28.205	$GPGGA,180437,2423.8757,N,08142.9824,W,1,8,1.8,16,M,,M,,*5D
06/06/2014	18:04:29.215	$GPGGA,180438,2423.8768,N,08142.9822,W,1,8,1.7,16,M,,M,,*57
06/06/2014	18:04:30.276	$GPGGA,180439,2423.8785,N,08142.9823,W,1,10,1.4,17,M,,M,,*6F
06/06/2014	18:04:31.266	$GPGGA,180440,2423.8800,N,08142.9823,W,1,10,1.8,17,M,,M,,*6F
06/06/2014	18:04:32.297	$GPGGA,180441,2423.8815,N,08142.9824,W,1,9,1.7,17,M,,M,,*5A
06/06/2014	18:04:33.297	$GPGGA,180442,2423.8829,N,08142.9824,W,1,9,1.7,17,M,,M,,*56
06/06/2014	18:04:34.328	$GPGGA,180443,2423.8846,N,08142.9823,W,1,9,1.7,17,M,,M,,*59
06/06/2014	18:04:35.338	$GPGGA,180444,2423.8862,N,08142.9824,W,1,9,1.7,17,M,,M,,*5F
06/06/2014	18:04:36.369	$GPGGA,180445,2423.8876,N,08142.9827,W,1,9,1.7,17,M,,M,,*58
06/06/2014	18:04:37.379	$GPGGA,180446,2423.8893,N,08142.9825,W,1,9,1.7,17,M,,M,,*52
06/06/2014	18:04:38.430	$GPGGA,180447,2423.8902,N,08142.9819,W,1,9,1.7,17,M,,M,,*55
06/06/2014	18:04:39.419	$GPGGA,180448,2423.8916,N,08142.9818,W,1,9,1.4,17,M,,M,,*5D
06/06/2014	18:04:40.421	$GPGGA,180449,2423.8933,N,08142.9819,W,1,10,1.4,17,M,,M,,*62
06/06/2014	18:04:41.439	$GPGGA,180450,2423.8949,N,08142.9819,W,1,10,1.7,17,M,,M,,*64
06/06/2014	18:04:42.462	$GPGGA,180451,2423.8963,N,08142.9819,W,1,9,1.7,17,M,,M,,*55
06/06/2014	18:04:43.501	$GPGGA,180452,2423.8976,N,08142.9820,W,1,9,1.4,17,M,,M,,*5B
06/06/2014	18:04:44.532	$GPGGA,180453,2423.8992,N,08142.9820,W,1,8,1.8,17,M,,M,,*5D
06/06/2014	18:04:45.518	$GPGGA,180454,2423.9007,N,08142.9821,W,1,8,1.7,17,M,,M,,*50
06/06/2014	18:04:46.542	$GPGGA,180455,2423.9018,N,08142.9820,W,1,8,1.8,17,M,,M,,*51
06/06/2014	18:04:47.583	$GPGGA,180456,2423.9032,N,08142.9820,W,1,8,1.4,17,M,,M,,*56
06/06/2014	18:04:48.685	$GPGGA,180457,2423.9048,N,08142.9820,W,1,8,1.8,17,M,,M,,*56
06/06/2014	18:04:49.587	$GPGGA,180458,2423.9061,N,08142.9821,W,1,8,1.8,17,M,,M,,*53
06/06/2014	18:04:50.687	$GPGGA,180459,2423.9077,N,08142.9823,W,1,8,1.8,17,M,,M,,*57
06/06/2014	18:04:51.615	$GPGGA,180500,2423.9090,N,08142.9822,W,1,8,1.8,17,M,,M,,*52
06/06/2014	18:04:52.620	$GPGGA,180501,2423.9106,N,08142.9823,W,1,9,1.4,17,M,,M,,*51
06/06/2014	18:04:53.623	$GPGGA,180502,2423.9121,N,08142.9823,W,1,9,1.4,17,M,,M,,*57
06/06/2014	18:04:54.748	$GPGGA,180503,2423.9135,N,08142.9824,W,1,9,1.4,17,M,,M,,*54
06/06/2014	18:04:55.641	$GPGGA,180504,2423.9150,N,08142.9824,W,1,9,1.4,17,M,,M,,*50
06/06/2014	18:04:56.740	$GPGGA,180505,2423.9165,N,08142.9826,W,1,8,1.8,17,M,,M,,*58
06/06/2014	18:04:57.628	$GPGGA,180506,2423.9180,N,08142.9825,W,1,8,1.7,17,M,,M,,*5C
06/06/2014	18:04:58.758	$GPGGA,180507,2423.9194,N,08142.9826,W,1,8,1.8,17,M,,M,,*54
06/06/2014	18:04:59.757	$GPGGA,180508,2423.9209,N,08142.9825,W,1,8,1.8,17,M,,M,,*5F
06/06/2014	18:05:00.786	$GPGGA,180509,2423.9223,N,08142.9826,W,1,8,1.8,17,M,,M,,*55
06/06/2014	18:05:01.755	$GPGGA,180510,2423.9238,N,08142.9827,W,1,8,1.8,17,M,,M,,*56
06/06/2014	18:05:02.784	$GPGGA,180511,2423.9252,N,08142.9825,W,1,8,1.8,17,M,,M,,*59
06/06/2014	18:05:03.793	$GPGGA,180512,2423.9266,N,08142.9826,W,1,8,1.8,17,M,,M,,*5E
06/06/2014	18:05:04.812	$GPGGA,180513,2423.9281,N,08142.9827,W,1,8,1.8,17,M,,M,,*57
06/06/2014	18:05:05.780	$GPGGA,180514,2423.9296,N,08142.9826,W,1,8,1.7,17,M,,M,,*58
06/06/2014	18:05:06.789	$GPGGA,180515,2423.9312,N,08142.9827,W,1,9,1.7,17,M,,M,,*54
06/06/2014	18:05:07.819	$GPGGA,180516,2423.9325,N,08142.9826,W,1,9,1.8,16,M,,M,,*5C
06/06/2014	18:05:08.838	$GPGGA,180517,2423.9339,N,08142.9827,W,1,8,1.8,16,M,,M,,*50
06/06/2014	18:05:09.806	$GPGGA,180518,2423.9353,N,08142.9825,W,1,8,1.8,16,M,,M,,*51
06/06/2014	18:05:10.856	$GPGGA,180519,2423.9370,N,08142.9827,W,1,8,1.8,16,M,,M,,*53
06/06/2014	18:05:11.846	$GPGGA,180520,2423.9382,N,08142.9823,W,1,8,1.7,16,M,,M,,*5F
06/06/2014	18:05:12.854	$GPGGA,180521,2423.9396,N,08142.9822,W,1,9,1.4,16,M,,M,,*58
06/06/2014	18:05:13.842	$GPGGA,180522,2423.9410,N,08142.9821,W,1,9,1.4,16,M,,M,,*51
06/06/2014	18:05:14.871	$GPGGA,180523,2423.9425,N,08142.9823,W,1,9,1.4,16,M,,M,,*54
06/06/2014	18:05:15.869	$GPGGA,180524,2423.9440,N,08142.9822,W,1,9,1.8,16,M,,M,,*5D
06/06/2014	18:05:16.889	$GPGGA,180525,2423.9454,N,08142.9823,W,1,8,1.8,16,M,,M,,*59
06/06/2014	18:05:17.867	$GPGGA,180526,2423.9469,N,08142.9823,W,1,8,1.8,16,M,,M,,*54
06/06/2014	18:05:18.896	$GPGGA,180527,2423.9483,N,08142.9822,W,1,8,1.8,16,M,,M,,*50
06/06/2014	18:05:19.895	$GPGGA,180528,2423.9498,N,08142.9823,W,1,8,1.4,16,M,,M,,*58
06/06/2014	18:05:20.884	$GPGGA,180529,2423.9515,N,08142.9823,W,1,8,1.8,16,M,,M,,*51
06/06/2014	18:05:21.903	$GPGGA,180530,2423.9530,N,08142.9823,W,1,8,1.7,16,M,,M,,*51
06/06/2014	18:05:22.932	$GPGGA,180531,2423.9545,N,08142.9824,W,1,9,1.7,16,M,,M,,*54
06/06/2014	18:05:23.911	$GPGGA,180532,2423.9559,N,08142.9822,W,1,9,1.8,16,M,,M,,*53
06/06/2014	18:05:24.950	$GPGGA,180533,2423.9574,N,08142.9823,W,1,10,1.4,16,M,,M,,*68
06/06/2014	18:05:25.919	$GPGGA,180534,2423.9590,N,08142.9823,W,1,10,1.7,16,M,,M,,*66
06/06/2014	18:05:26.938	$GPGGA,180535,2423.9605,N,08142.9824,W,1,9,1.7,16,M,,M,,*57
06/06/2014	18:05:27.937	$GPGGA,180536,2423.9620,N,08142.9826,W,1,9,1.7,16,M,,M,,*51
06/06/2014	18:05:28.195	$GPGGA,180537,2423.9635,N,08142.9825,W,1,9,1.7,16,M,,M,,*57
06/06/2014	18:05:29.291	$GPGGA,180538,2423.9650,N,08142.9827,W,1,9,1.7,16,M,,M,,*59
06/06/2014	18:05:30.296	$GPGGA,180539,2423.9664,N,08142.9827,W,1,9,1.7,16,M,,M,,*5F
06/06/2014	18:05:31.200	$GPGGA,180540,2423.9675,N,08142.9824,W,1,9,1.7,16,M,,M,,*52
06/06/2014	18:05:32.215	$GPGGA,180541,2423.9692,N,08142.9826,W,1,10,1.4,16,M,,M,,*63
06/06/2014	18:05:33.188	$GPGGA,180542,2423.9707,N,08142.9827,W,1,10,1.7,16,M,,M,,*6F
06/06/2014	18:05:34.298	$GPGGA,180543,2423.9722,N,08142.9826,W,1,9,1.7,16,M,,M,,*50
06/06/2014	18:05:35.331	$GPGGA,180544,2423.9736,N,08142.9828,W,1,9,1.7,16,M,,M,,*5C
06/06/2014	18:05:36.356	$GPGGA,180545,2423.9751,N,08142.9830,W,1,9,1.7,16,M,,M,,*55
06/06/2014	18:05:37.224	$GPGGA,180546,2423.9765,N,08142.9829,W,1,9,1.7,16,M,,M,,*59
06/06/2014	18:05:38.324	$GPGGA,180547,2423.9780,N,08142.9830,W,1,9,1.7,16,M,,M,,*5B
06/06/2014	18:05:39.242	$GPGGA,180548,2423.9794,N,08142.9831,W,1,9,1.7,16,M,,M,,*50
06/06/2014	18:05:40.342	$GPGGA,180549,2423.9809,N,08142.9831,W,1,9,1.7,16,M,,M,,*5A
06/06/2014	18:05:41.260	$GPGGA,180550,2423.9823,N,08142.9831,W,1,9,1.7,16,M,,M,,*5A
06/06/2014	18:05:42.380	$GPGGA,180551,2423.9838,N,08142.9831,W,1,9,1.7,16,M,,M,,*51
06/06/2014	18:05:43.278	$GPGGA,180552,2423.9855,N,08142.9834,W,1,9,1.7,16,M,,M,,*5C
06/06/2014	18:05:44.267	$GPGGA,180553,2423.9867,N,08142.9832,W,1,10,1.4,16,M,,M,,*61
06/06/2014	18:05:45.367	$GPGGA,180554,2423.9883,N,08142.9832,W,1,10,1.4,16,M,,M,,*6C
06/06/2014	18:05:46.285	$GPGGA,180555,2423.9898,N,08142.9832,W,1,9,1.7,16,M,,M,,*5C
06/06/2014	18:05:47.405	$GPGGA,180556,2423.9913,N,08142.9834,W,1,9,1.7,16,M,,M,,*5B
06/06/2014	18:05:48.394	$GPGGA,180557,2423.9924,N,08142.9828,W,1,9,1.7,16,M,,M,,*53
06/06/2014	18:05:49.402	$GPGGA,180558,2423.9938,N,08142.9827,W,1,9,1.4,16,M,,M,,*5D
06/06/2014	18:05:50.431	$GPGGA,180559,2423.9950,N,08142.9823,W,1,10,1.4,16,M,,M,,*6E
06/06/2014	18:05:51.440	$GPGGA,180600,2423.9966,N,08142.9824,W,1,10,1.4,16,M,,M,,*63
06/06/2014	18:05:52.449	$GPGGA,180601,2423.9981,N,08142.9827,W,1,9,1.7,16,M,,M,,*53
06/06/2014	18:05:53.428	$GPGGA,180602,2423.9996,N,08142.9827,W,1,9,1.7,16,M,,M,,*56
06/06/2014	18:05:54.457	$GPGGA,180603,2424.0011,N,08142.9827,W,1,9,1.7,16,M,,M,,*5F
06/06/2014	18:05:55.456	$GPGGA,180604,2424.0025,N,08142.9828,W,1,9,1.7,16,M,,M,,*50
06/06/2014	18:05:56.465	$GPGGA,180605,2424.0040,N,08142.9830,W,1,9,1.7,16,M,,M,,*5B
06/06/2014	18:05:57.444	$GPGGA,180606,2424.0054,N,08142.9829,W,1,9,1.7,16,M,,M,,*55
06/06/2014	18:05:58.473	$GPGGA,180607,2424.0069,N,08142.9830,W,1,9,1.7,16,M,,M,,*52
06/06/2014	18:05:59.482	$GPGGA,180608,2424.0085,N,08142.9830,W,1,9,1.7,16,M,,M,,*5F
06/06/2014	18:06:00.501	$GPGGA,180609,2424.0098,N,08142.9831,W,1,9,1.7,16,M,,M,,*53
06/06/2014	18:06:01.480	$GPGGA,180610,2424.0114,N,08142.9832,W,1,9,1.7,16,M,,M,,*5D
06/06/2014	18:06:02.509	$GPGGA,180611,2424.0129,N,08142.9835,W,1,8,2.0,16,M,,M,,*50
06/06/2014	18:06:03.508	$GPGGA,180612,2424.0141,N,08142.9832,W,1,8,2.0,16,M,,M,,*5A
06/06/2014	18:06:04.537	$GPGGA,180613,2424.0156,N,08142.9834,W,1,10,1.4,16,M,,M,,*65
06/06/2014	18:06:05.505	$GPGGA,180614,2424.0172,N,08142.9835,W,1,10,2.0,16,M,,M,,*62
06/06/2014	18:06:06.545	$GPGGA,180615,2424.0187,N,08142.9835,W,1,9,1.7,16,M,,M,,*55
06/06/2014	18:06:07.533	$GPGGA,180616,2424.0202,N,08142.9837,W,1,9,1.7,16,M,,M,,*5A
06/06/2014	18:06:08.542	$GPGGA,180617,2424.0215,N,08142.9835,W,1,8,2.0,16,M,,M,,*5A
06/06/2014	18:06:09.530	$GPGGA,180618,2424.0230,N,08142.9837,W,1,8,1.7,16,M,,M,,*54
06/06/2014	18:06:10.570	$GPGGA,180619,2424.0246,N,08142.9841,W,1,9,1.7,16,M,,M,,*54
06/06/2014	18:06:11.558	$GPGGA,180620,2424.0259,N,08142.9840,W,1,9,1.7,16,M,,M,,*51
06/06/2014	18:06:12.578	$GPGGA,180621,2424.0274,N,08142.9842,W,1,10,1.4,17,M,,M,,*67
06/06/2014	18:06:13.576	$GPGGA,180622,2424.0289,N,08142.9842,W,1,10,2.0,17,M,,M,,*61
06/06/2014	18:06:14.565	$GPGGA,180623,2424.0304,N,08142.9844,W,1,10,1.4,17,M,,M,,*65
06/06/2014	18:06:15.605	$GPGGA,180624,2424.0320,N,08142.9846,W,1,10,1.7,17,M,,M,,*65
06/06/2014	18:06:16.593	$GPGGA,180625,2424.0336,N,08142.9848,W,1,7,2.4,17,M,,M,,*5B
06/06/2014	18:06:17.604	$GPGGA,180626,2424.0351,N,08142.9845,W,1,7,2.4,17,M,,M,,*54
06/06/2014	18:06:18.783	$GPGGA,180627,2424.0365,N,08142.9844,W,1,8,1.8,17,M,,M,,*53
06/06/2014	18:06:19.610	$GPGGA,180628,2424.0380,N,08142.9846,W,1,8,1.8,17,M,,M,,*55
06/06/2014	18:06:20.801	$GPGGA,180629,2424.0397,N,08142.9848,W,1,9,2.4,17,M,,M,,*52
06/06/2014	18:06:21.618	$GPGGA,180630,2424.0412,N,08142.9847,W,1,9,2.4,17,M,,M,,*5F
06/06/2014	18:06:22.728	$GPGGA,180631,2424.0426,N,08142.9850,W,1,8,2.1,18,M,,M,,*54
06/06/2014	18:06:23.737	$GPGGA,180632,2424.0437,N,08142.9846,W,1,8,2.0,18,M,,M,,*51
06/06/2014	18:06:24.634	$GPGGA,180633,2424.0452,N,08142.9848,W,1,10,1.4,18,M,,M,,*63
06/06/2014	18:06:25.794	$GPGGA,180634,2424.0469,N,08142.9849,W,1,10,2.4,18,M,,M,,*6E
06/06/2014	18:06:26.642	$GPGGA,180635,2424.0484,N,08142.9852,W,1,8,1.8,18,M,,M,,*50
06/06/2014	18:06:27.661	$GPGGA,180636,2424.0499,N,08142.9847,W,1,8,2.4,18,M,,M,,*54
06/06/2014	18:06:28.313	$GPGGA,180637,2424.0513,N,08142.9844,W,1,8,1.7,18,M,,M,,*55
06/06/2014	18:06:29.130	$GPGGA,180638,2424.0530,N,08142.9850,W,1,8,1.7,18,M,,M,,*5E
06/06/2014	18:06:30.331	$GPGGA,180639,2424.0546,N,08142.9852,W,1,9,1.7,19,M,,M,,*5C
06/06/2014	18:06:31.299	$GPGGA,180640,2424.0560,N,08142.9849,W,1,9,1.7,19,M,,M,,*5C
06/06/2014	18:06:32.349	$GPGGA,180641,2424.0575,N,08142.9850,W,1,9,2.0,19,M,,M,,*55
06/06/2014	18:06:33.257	$GPGGA,180642,2424.0592,N,08142.9855,W,1,9,2.0,19,M,,M,,*5A
06/06/2014	18:06:34.357	$GPGGA,180643,2424.0610,N,08142.9855,W,1,9,1.7,19,M,,M,,*56
06/06/2014	18:06:35.331	$GPGGA,180644,2424.0625,N,08142.9855,W,1,9,2.0,19,M,,M,,*53
06/06/2014	18:06:36.365	$GPGGA,180645,2424.0642,N,08142.9856,W,1,8,2.0,20,M,,M,,*5B
06/06/2014	18:06:37.284	$GPGGA,180646,2424.0658,N,08142.9856,W,1,8,2.0,20,M,,M,,*53
06/06/2014	18:06:38.393	$GPGGA,180647,2424.0675,N,08142.9860,W,1,8,1.8,20,M,,M,,*53
06/06/2014	18:06:39.331	$GPGGA,180648,2424.0687,N,08142.9857,W,1,8,1.8,20,M,,M,,*55
06/06/2014	18:06:40.380	$GPGGA,180649,2424.0704,N,08142.9857,W,1,9,1.7,20,M,,M,,*50
06/06/2014	18:06:41.338	$GPGGA,180650,2424.0719,N,08142.9859,W,1,9,1.8,20,M,,M,,*55
06/06/2014	18:06:42.377	$GPGGA,180651,2424.0732,N,08142.9856,W,1,8,1.8,20,M,,M,,*53
06/06/2014	18:06:43.326	$GPGGA,180652,2424.0748,N,08142.9856,W,1,8,1.4,20,M,,M,,*51
06/06/2014	18:06:44.436	$GPGGA,180653,2424.0766,N,08142.9859,W,1,8,1.8,20,M,,M,,*5F
06/06/2014	18:06:45.334	$GPGGA,180654,2424.0783,N,08142.9860,W,1,8,1.4,20,M,,M,,*55
06/06/2014	18:06:46.403	$GPGGA,180655,2424.0798,N,08142.9861,W,1,10,1.4,20,M,,M,,*66
06/06/2014	18:06:47.392	$GPGGA,180656,2424.0812,N,08142.9858,W,1,10,1.4,20,M,,M,,*62
06/06/2014	18:06:48.350	$GPGGA,180657,2424.0827,N,08142.9859,W,1,10,1.4,20,M,,M,,*64
06/06/2014	18:06:49.390	$GPGGA,180658,2424.0844,N,08142.9861,W,1,10,1.7,20,M,,M,,*66
06/06/2014	18:06:50.479	$GPGGA,180659,2424.0860,N,08142.9863,W,1,9,1.4,20,M,,M,,*58
06/06/2014	18:06:51.438	$GPGGA,180700,2424.0876,N,08142.9862,W,1,9,1.4,20,M,,M,,*53
06/06/2014	18:06:52.386	$GPGGA,180701,2424.0891,N,08142.9863,W,1,10,1.4,20,M,,M,,*62
06/06/2014	18:06:53.426	$GPGGA,180702,2424.0907,N,08142.9864,W,1,10,1.4,20,M,,M,,*68
06/06/2014	18:06:54.403	$GPGGA,180703,2424.0924,N,08142.9866,W,1,9,1.7,20,M,,M,,*51
06/06/2014	18:06:55.413	$GPGGA,180704,2424.0941,N,08142.9866,W,1,9,1.7,20,M,,M,,*55
06/06/2014	18:06:56.526	$GPGGA,180705,2424.0957,N,08142.9866,W,1,9,1.7,20,M,,M,,*53
06/06/2014	18:06:57.411	$GPGGA,180706,2424.0972,N,08142.9867,W,1,9,1.7,20,M,,M,,*56
06/06/2014	18:06:58.533	$GPGGA,180707,2424.0988,N,08142.9867,W,1,9,1.7,20,M,,M,,*52
06/06/2014	18:06:59.469	$GPGGA,180708,2424.1004,N,08142.9867,W,1,9,1.7,20,M,,M,,*51
06/06/2014	18:07:00.518	$GPGGA,180709,2424.1022,N,08142.9873,W,1,9,1.4,20,M,,M,,*52
06/06/2014	18:07:01.466	$GPGGA,180710,2424.1039,N,08142.9874,W,1,9,1.4,20,M,,M,,*57
06/06/2014	18:07:02.556	$GPGGA,180711,2424.1054,N,08142.9873,W,1,10,1.7,20,M,,M,,*61
06/06/2014	18:07:03.505	$GPGGA,180712,2424.1069,N,08142.9872,W,1,10,1.7,20,M,,M,,*6D
06/06/2014	18:07:04.544	$GPGGA,180713,2424.1084,N,08142.9874,W,1,9,1.7,20,M,,M,,*51
06/06/2014	18:07:05.462	$GPGGA,180714,2424.1101,N,08142.9873,W,1,9,1.7,20,M,,M,,*5D
06/06/2014	18:07:06.471	$GPGGA,180715,2424.1116,N,08142.9872,W,1,9,1.7,20,M,,M,,*5B
06/06/2014	18:07:07.612	$GPGGA,180716,2424.1131,N,08142.9873,W,1,9,1.8,20,M,,M,,*53
06/06/2014	18:07:08.600	$GPGGA,180717,2424.1147,N,08142.9872,W,1,8,1.8,20,M,,M,,*53
06/06/2014	18:07:09.528	$GPGGA,180718,2424.1162,N,08142.9873,W,1,8,1.8,20,M,,M,,*5A
06/06/2014	18:07:10.598	$GPGGA,180719,2424.1178,N,08142.9872,W,1,8,1.8,20,M,,M,,*51
06/06/2014	18:07:11.516	$GPGGA,180720,2424.1192,N,08142.9873,W,1,8,1.8,20,M,,M,,*5E
06/06/2014	18:07:12.666	$GPGGA,180721,2424.1207,N,08142.9870,W,1,8,1.4,19,M,,M,,*55
06/06/2014	18:07:13.645	$GPGGA,180722,2424.1223,N,08142.9871,W,1,8,1.8,19,M,,M,,*5D
06/06/2014	18:07:16.067	$GPGGA,180724,2424.1254,N,08142.9873,W,1,8,1.8,19,M,,M,,*59
06/06/2014	18:07:16.651	$GPGGA,180725,2424.1268,N,08142.9869,W,1,8,1.4,19,M,,M,,*50
06/06/2014	18:07:17.661	$GPGGA,180726,2424.1283,N,08142.9870,W,1,8,1.8,19,M,,M,,*52
06/06/2014	18:07:18.699	$GPGGA,180727,2424.1299,N,08142.9871,W,1,8,1.8,19,M,,M,,*59
06/06/2014	18:07:19.678	$GPGGA,180728,2424.1314,N,08142.9870,W,1,8,1.4,19,M,,M,,*5F
06/06/2014	18:07:20.717	$GPGGA,180729,2424.1329,N,08142.9871,W,1,9,1.7,19,M,,M,,*53
06/06/2014	18:07:21.686	$GPGGA,180730,2424.1342,N,08142.9870,W,1,9,1.4,19,M,,M,,*54
06/06/2014	18:07:22.725	$GPGGA,180731,2424.1355,N,08142.9869,W,1,10,1.4,19,M,,M,,*63
06/06/2014	18:07:23.704	$GPGGA,180732,2424.1371,N,08142.9870,W,1,10,1.7,19,M,,M,,*6D
06/06/2014	18:07:24.733	$GPGGA,180733,2424.1386,N,08142.9870,W,1,9,1.4,19,M,,M,,*5F
06/06/2014	18:07:25.702	$GPGGA,180734,2424.1401,N,08142.9870,W,1,9,1.4,19,M,,M,,*50
06/06/2014	18:07:26.751	$GPGGA,180735,2424.1415,N,08142.9869,W,1,10,1.4,19,M,,M,,*64
06/06/2014	18:07:27.740	$GPGGA,180736,2424.1431,N,08142.9870,W,1,10,1.7,19,M,,M,,*6A
06/06/2014	18:07:28.231	$GPGGA,180737,2424.1448,N,08142.9871,W,1,9,1.7,19,M,,M,,*5C
06/06/2014	18:07:29.190	$GPGGA,180738,2424.1463,N,08142.9873,W,1,9,1.4,19,M,,M,,*5B
06/06/2014	18:07:30.250	$GPGGA,180739,2424.1480,N,08142.9874,W,1,10,1.4,19,M,,M,,*68
06/06/2014	18:07:31.228	$GPGGA,180740,2424.1496,N,08142.9874,W,1,10,1.7,19,M,,M,,*62
06/06/2014	18:07:32.298	$GPGGA,180741,2424.1512,N,08142.9874,W,1,9,1.4,19,M,,M,,*55
06/06/2014	18:07:33.226	$GPGGA,180742,2424.1528,N,08142.9877,W,1,9,1.7,19,M,,M,,*5F
06/06/2014	18:07:34.294	$GPGGA,180743,2424.1545,N,08142.9877,W,1,9,1.7,19,M,,M,,*55
06/06/2014	18:07:35.253	$GPGGA,180744,2424.1559,N,08142.9874,W,1,9,1.7,19,M,,M,,*5C
06/06/2014	18:07:36.302	$GPGGA,180745,2424.1572,N,08142.9872,W,1,10,1.4,19,M,,M,,*69
06/06/2014	18:07:37.271	$GPGGA,180746,2424.1588,N,08142.9870,W,1,10,1.4,19,M,,M,,*6D
06/06/2014	18:07:38.320	$GPGGA,180747,2424.1603,N,08142.9870,W,1,10,1.4,19,M,,M,,*6C
06/06/2014	18:07:39.289	$GPGGA,180748,2424.1618,N,08142.9869,W,1,10,1.4,19,M,,M,,*61
06/06/2014	18:07:40.378	$GPGGA,180749,2424.1633,N,08142.9870,W,1,10,1.4,19,M,,M,,*61
06/06/2014	18:07:41.276	$GPGGA,180750,2424.1648,N,08142.9868,W,1,10,1.4,19,M,,M,,*6C
06/06/2014	18:07:42.300	$GPGGA,180751,2424.1648,N,08142.9868,W,1,10,1.4,19,M,,M,,*6D
06/06/2014	18:07:43.415	$GPGGA,180752,2424.1680,N,08142.9870,W,1,10,1.4,19,M,,M,,*63
06/06/2014	18:07:44.315	$GPGGA,180753,2424.1680,N,08142.9870,W,1,9,1.7,19,M,,M,,*59
06/06/2014	18:07:45.312	$GPGGA,180754,2424.1697,N,08142.9869,W,1,9,1.4,19,M,,M,,*53
06/06/2014	18:07:46.321	$GPGGA,180755,2424.1713,N,08142.9871,W,1,9,1.7,19,M,,M,,*55
06/06/2014	18:07:47.441	$GPGGA,180756,2424.1745,N,08142.9873,W,1,9,1.4,19,M,,M,,*54
06/06/2014	18:07:48.410	$GPGGA,180757,2424.1763,N,08142.9874,W,1,10,1.4,19,M,,M,,*6E
06/06/2014	18:07:49.429	$GPGGA,180758,2424.1780,N,08142.9877,W,1,10,1.4,19,M,,M,,*6F
06/06/2014	18:07:50.347	$GPGGA,180759,2424.1780,N,08142.9877,W,1,10,1.4,19,M,,M,,*6E
06/06/2014	18:07:51.375	$GPGGA,180800,2424.1812,N,08142.9875,W,1,10,1.4,19,M,,M,,*6B
06/06/2014	18:07:52.489	$GPGGA,180801,2424.1827,N,08142.9877,W,1,10,1.4,19,M,,M,,*6E
06/06/2014	18:07:53.363	$GPGGA,180802,2424.1842,N,08142.9876,W,1,10,1.4,19,M,,M,,*6F
06/06/2014	18:07:54.372	$GPGGA,180803,2424.1842,N,08142.9876,W,1,10,1.4,19,M,,M,,*6E
06/06/2014	18:07:55.391	$GPGGA,180804,2424.1859,N,08142.9877,W,1,10,1.7,18,M,,M,,*60
06/06/2014	18:07:56.390	$GPGGA,180805,2424.1878,N,08142.9881,W,1,10,1.4,18,M,,M,,*68
06/06/2014	18:07:57.480	$GPGGA,180806,2424.1907,N,08142.9879,W,1,10,1.4,18,M,,M,,*65
06/06/2014	18:07:58.499	$GPGGA,180807,2424.1922,N,08142.9879,W,1,9,1.7,18,M,,M,,*58
06/06/2014	18:07:59.508	$GPGGA,180808,2424.1936,N,08142.9878,W,1,9,1.4,18,M,,M,,*50
06/06/2014	18:08:00.507	$GPGGA,180809,2424.1951,N,08142.9878,W,1,10,1.4,18,M,,M,,*68
06/06/2014	18:08:01.516	$GPGGA,180810,2424.1967,N,08142.9878,W,1,10,1.4,18,M,,M,,*65
06/06/2014	18:08:02.545	$GPGGA,180811,2424.1984,N,08142.9881,W,1,8,1.8,18,M,,M,,*5A
06/06/2014	18:08:03.534	$GPGGA,180812,2424.2001,N,08142.9882,W,1,8,1.7,18,M,,M,,*52
06/06/2014	18:08:04.523	$GPGGA,180813,2424.2016,N,08142.9884,W,1,9,1.7,18,M,,M,,*52
06/06/2014	18:08:05.542	$GPGGA,180814,2424.2033,N,08142.9884,W,1,9,1.7,18,M,,M,,*52
06/06/2014	18:08:06.541	$GPGGA,180815,2424.2048,N,08142.9884,W,1,9,1.7,18,M,,M,,*5F
06/06/2014	18:08:07.560	$GPGGA,180816,2424.2061,N,08142.9880,W,1,9,1.4,18,M,,M,,*50
06/06/2014	18:08:08.579	$GPGGA,180817,2424.2077,N,08142.9881,W,1,10,1.4,18,M,,M,,*6F
06/06/2014	18:08:09.557	$GPGGA,180818,2424.2094,N,08142.9882,W,1,10,1.7,18,M,,M,,*6D
06/06/2014	18:08:10.596	$GPGGA,180819,2424.2110,N,08142.9884,W,1,9,1.7,18,M,,M,,*5F
06/06/2014	18:08:11.585	$GPGGA,180820,2424.2124,N,08142.9884,W,1,9,1.7,18,M,,M,,*52
06/06/2014	18:08:12.615	$GPGGA,180821,2424.2141,N,08142.9883,W,1,10,1.4,18,M,,M,,*6C
06/06/2014	18:08:13.583	$GPGGA,180822,2424.2157,N,08142.9884,W,1,10,1.4,18,M,,M,,*6F
06/06/2014	18:08:14.592	$GPGGA,180823,2424.2174,N,08142.9885,W,1,9,1.7,18,M,,M,,*55
06/06/2014	18:08:15.631	$GPGGA,180824,2424.2189,N,08142.9884,W,1,9,1.7,18,M,,M,,*51
06/06/2014	18:08:16.650	$GPGGA,180825,2424.2204,N,08142.9883,W,1,10,1.4,18,M,,M,,*6A
06/06/2014	18:08:17.619	$GPGGA,180826,2424.2221,N,08142.9884,W,1,10,1.4,18,M,,M,,*69
06/06/2014	18:08:18.648	$GPGGA,180827,2424.2236,N,08142.9885,W,1,9,1.7,18,M,,M,,*54
06/06/2014	18:08:19.647	$GPGGA,180828,2424.2254,N,08142.9886,W,1,9,1.7,18,M,,M,,*5C
06/06/2014	18:08:20.676	$GPGGA,180829,2424.2269,N,08142.9888,W,1,9,1.7,18,M,,M,,*5D
06/06/2014	18:08:21.636	$GPGGA,180830,2424.2283,N,08142.9886,W,1,9,1.7,18,M,,M,,*5F
06/06/2014	18:08:22.674	$GPGGA,180831,2424.2300,N,08142.9886,W,1,10,1.4,18,M,,M,,*6F
06/06/2014	18:08:23.662	$GPGGA,180832,2424.2316,N,08142.9888,W,1,10,1.7,18,M,,M,,*66
06/06/2014	18:08:24.803	$GPGGA,180833,2424.2333,N,08142.9888,W,1,9,1.7,17,M,,M,,*57
06/06/2014	18:08:25.680	$GPGGA,180834,2424.2348,N,08142.9889,W,1,9,1.7,17,M,,M,,*5D
06/06/2014	18:08:26.699	$GPGGA,180835,2424.2366,N,08142.9892,W,1,9,1.7,17,M,,M,,*5A
06/06/2014	18:08:27.719	$GPGGA,180836,2424.2381,N,08142.9891,W,1,9,1.7,17,M,,M,,*53
06/06/2014	18:08:28.188	$GPGGA,180837,2424.2398,N,08142.9892,W,1,9,1.7,17,M,,M,,*59
06/06/2014	18:08:29.171	$GPGGA,180838,2424.2415,N,08142.9893,W,1,9,1.7,17,M,,M,,*55
06/06/2014	18:08:30.180	$GPGGA,180839,2424.2428,N,08142.9891,W,1,10,1.4,17,M,,M,,*63
06/06/2014	18:08:31.316	$GPGGA,180840,2424.2442,N,08142.9889,W,1,10,1.4,17,M,,M,,*68
06/06/2014	18:08:32.309	$GPGGA,180841,2424.2460,N,08142.9892,W,1,9,1.4,17,M,,M,,*5B
06/06/2014	18:08:33.182	$GPGGA,180842,2424.2475,N,08142.9890,W,1,9,1.7,17,M,,M,,*5D
06/06/2014	18:08:34.225	$GPGGA,180843,2424.2492,N,08142.9892,W,1,10,1.4,17,M,,M,,*6C
06/06/2014	18:08:35.210	$GPGGA,180844,2424.2507,N,08142.9892,W,1,10,1.4,17,M,,M,,*66
06/06/2014	18:08:36.310	$GPGGA,180845,2424.2524,N,08142.9893,W,1,10,1.4,17,M,,M,,*67
06/06/2014	18:08:37.319	$GPGGA,180846,2424.2540,N,08142.9893,W,1,10,1.4,17,M,,M,,*66
06/06/2014	18:08:38.318	$GPGGA,180847,2424.2554,N,08142.9893,W,1,10,1.4,17,M,,M,,*62
06/06/2014	18:08:39.246	$GPGGA,180848,2424.2571,N,08142.9895,W,1,10,1.4,17,M,,M,,*6C
06/06/2014	18:08:40.246	$GPGGA,180849,2424.2587,N,08142.9896,W,1,10,1.4,17,M,,M,,*67
06/06/2014	18:08:41.345	$GPGGA,180850,2424.2601,N,08142.9895,W,1,10,1.7,17,M,,M,,*62
06/06/2014	18:08:42.374	$GPGGA,180851,2424.2616,N,08142.9895,W,1,10,1.4,17,M,,M,,*66
06/06/2014	18:08:43.374	$GPGGA,180852,2424.2630,N,08142.9895,W,1,10,1.4,17,M,,M,,*61
06/06/2014	18:08:44.391	$GPGGA,180853,2424.2647,N,08142.9896,W,1,10,1.4,17,M,,M,,*63
06/06/2014	18:08:45.360	$GPGGA,180854,2424.2663,N,08142.9899,W,1,10,1.7,17,M,,M,,*6E
06/06/2014	18:08:46.399	$GPGGA,180855,2424.2679,N,08142.9900,W,1,10,1.4,17,M,,M,,*66
06/06/2014	18:08:47.388	$GPGGA,180856,2424.2695,N,08142.9899,W,1,10,1.4,17,M,,M,,*66
06/06/2014	18:08:48.407	$GPGGA,180857,2424.2712,N,08142.9902,W,1,10,1.4,17,M,,M,,*6A
06/06/2014	18:08:49.396	$GPGGA,180858,2424.2727,N,08142.9902,W,1,10,1.7,17,M,,M,,*60
06/06/2014	18:08:50.395	$GPGGA,180859,2424.2744,N,08142.9906,W,1,9,1.7,17,M,,M,,*58
06/06/2014	18:08:51.424	$GPGGA,180900,2424.2760,N,08142.9908,W,1,9,1.9,17,M,,M,,*53
06/06/2014	18:08:52.433	$GPGGA,180901,2424.2778,N,08142.9911,W,1,8,2.0,17,M,,M,,*58
06/06/2014	18:08:53.412	$GPGGA,180902,2424.2793,N,08142.9913,W,1,8,1.7,17,M,,M,,*58
06/06/2014	18:08:54.421	$GPGGA,180903,2424.2810,N,08142.9912,W,1,9,1.7,17,M,,M,,*5D
06/06/2014	18:08:55.440	$GPGGA,180904,2424.2825,N,08142.9913,W,1,9,1.7,17,M,,M,,*5D
06/06/2014	18:08:56.469	$GPGGA,180905,2424.2842,N,08142.9915,W,1,9,1.7,17,M,,M,,*5B
06/06/2014	18:08:57.458	$GPGGA,180906,2424.2858,N,08142.9917,W,1,9,2.0,17,M,,M,,*55
06/06/2014	18:08:58.487	$GPGGA,180907,2424.2872,N,08142.9916,W,1,9,1.7,17,M,,M,,*59
06/06/2014	18:08:59.476	$GPGGA,180908,2424.2887,N,08142.9915,W,1,9,1.7,17,M,,M,,*5F
06/06/2014	18:09:00.485	$GPGGA,180909,2424.2901,N,08142.9917,W,1,9,1.7,17,M,,M,,*53
06/06/2014	18:09:01.472	$GPGGA,180910,2424.2918,N,08142.9917,W,1,9,1.7,17,M,,M,,*53
06/06/2014	18:09:02.512	$GPGGA,180911,2424.2933,N,08142.9918,W,1,9,1.7,17,M,,M,,*54
06/06/2014	18:09:03.511	$GPGGA,180912,2424.2948,N,08142.9918,W,1,9,1.7,17,M,,M,,*5B
06/06/2014	18:09:04.489	$GPGGA,180913,2424.2963,N,08142.9920,W,1,9,1.7,17,M,,M,,*58
06/06/2014	18:09:05.508	$GPGGA,180914,2424.2979,N,08142.9919,W,1,9,1.7,17,M,,M,,*5E
06/06/2014	18:09:06.538	$GPGGA,180915,2424.2995,N,08142.9921,W,1,9,1.7,17,M,,M,,*56
06/06/2014	18:09:07.537	$GPGGA,180916,2424.3009,N,08142.9920,W,1,9,1.7,17,M,,M,,*59
06/06/2014	18:09:08.532	$GPGGA,180917,2424.3026,N,08142.9921,W,1,9,1.7,17,M,,M,,*54
06/06/2014	18:09:09.534	$GPGGA,180918,2424.3041,N,08142.9921,W,1,9,1.7,17,M,,M,,*5A
06/06/2014	18:09:10.553	$GPGGA,180919,2424.3056,N,08142.9921,W,1,9,1.7,17,M,,M,,*5D
06/06/2014	18:09:11.542	$GPGGA,180920,2424.3071,N,08142.9921,W,1,9,1.7,17,M,,M,,*52
06/06/2014	18:09:12.659	$GPGGA,180921,2424.3088,N,08142.9924,W,1,9,1.7,17,M,,M,,*50
06/06/2014	18:09:13.570	$GPGGA,180922,2424.3103,N,08142.9922,W,1,9,2.0,17,M,,M,,*53
06/06/2014	18:09:14.579	$GPGGA,180923,2424.3118,N,08142.9922,W,1,9,1.7,17,M,,M,,*5C
06/06/2014	18:09:15.573	$GPGGA,180924,2424.3132,N,08142.9921,W,1,9,1.7,17,M,,M,,*50
06/06/2014	18:09:16.579	$GPGGA,180925,2424.3147,N,08142.9922,W,1,9,1.7,17,M,,M,,*50
06/06/2014	18:09:17.709	$GPGGA,180926,2424.3164,N,08142.9924,W,1,9,1.7,17,M,,M,,*54
06/06/2014	18:09:18.716	$GPGGA,180927,2424.3181,N,08142.9925,W,1,8,2.0,17,M,,M,,*5A
06/06/2014	18:09:19.617	$GPGGA,180928,2424.3197,N,08142.9926,W,1,8,2.0,17,M,,M,,*51
06/06/2014	18:09:20.736	$GPGGA,180929,2424.3212,N,08142.9926,W,1,9,1.7,17,M,,M,,*5B
06/06/2014	18:09:21.611	$GPGGA,180930,2424.3228,N,08142.9926,W,1,9,1.7,17,M,,M,,*5A
06/06/2014	18:09:22.620	$GPGGA,180931,2424.3244,N,08142.9928,W,1,9,1.7,17,M,,M,,*5F
06/06/2014	18:09:23.639	$GPGGA,180932,2424.3259,N,08142.9927,W,1,9,1.7,17,M,,M,,*5F
06/06/2014	18:09:24.719	$GPGGA,180933,2424.3273,N,08142.9928,W,1,9,1.7,17,M,,M,,*59
06/06/2014	18:09:25.728	$GPGGA,180934,2424.3288,N,08142.9926,W,1,9,1.7,17,M,,M,,*54
06/06/2014	18:09:26.646	$GPGGA,180935,2424.3305,N,08142.9928,W,1,9,1.7,17,M,,M,,*5F
06/06/2014	18:09:27.766	$GPGGA,180936,2424.3320,N,08142.9926,W,1,9,1.7,17,M,,M,,*55
06/06/2014	18:09:28.126	$GPGGA,180937,2424.3337,N,08142.9928,W,1,9,1.7,17,M,,M,,*5C
06/06/2014	18:09:29.216	$GPGGA,180938,2424.3353,N,08142.9929,W,1,9,2.0,17,M,,M,,*54
06/06/2014	18:09:30.255	$GPGGA,180939,2424.3369,N,08142.9931,W,1,8,2.0,17,M,,M,,*54
06/06/2014	18:09:31.254	$GPGGA,180940,2424.3385,N,08142.9932,W,1,8,2.0,17,M,,M,,*5B
06/06/2014	18:09:32.243	$GPGGA,180941,2424.3400,N,08142.9930,W,1,8,2.0,17,M,,M,,*52
06/06/2014	18:09:33.252	$GPGGA,180942,2424.3416,N,08142.9932,W,1,8,1.7,17,M,,M,,*50
06/06/2014	18:09:34.261	$GPGGA,180943,2424.3432,N,08142.9935,W,1,7,2.4,17,M,,M,,*5F
06/06/2014	18:09:35.281	$GPGGA,180944,2424.3447,N,08142.9938,W,1,7,2.4,17,M,,M,,*57
06/06/2014	18:09:36.288	$GPGGA,180945,2424.3464,N,08142.9939,W,1,7,2.4,17,M,,M,,*56
06/06/2014	18:09:37.277	$GPGGA,180946,2424.3479,N,08142.9942,W,1,7,2.4,17,M,,M,,*55
06/06/2014	18:09:38.306	$GPGGA,180947,2424.3496,N,08142.9943,W,1,7,2.4,16,M,,M,,*55
06/06/2014	18:09:39.305	$GPGGA,180948,2424.3512,N,08142.9944,W,1,7,2.4,16,M,,M,,*50
06/06/2014	18:09:40.314	$GPGGA,180949,2424.3526,N,08142.9941,W,1,7,2.4,16,M,,M,,*53
06/06/2014	18:09:41.303	$GPGGA,180950,2424.3540,N,08142.9940,W,1,7,1.9,16,M,,M,,*54
06/06/2014	18:09:42.332	$GPGGA,180951,2424.3557,N,08142.9942,W,1,9,1.7,16,M,,M,,*51
06/06/2014	18:09:43.331	$GPGGA,180952,2424.3573,N,08142.9943,W,1,9,2.4,16,M,,M,,*55
06/06/2014	18:09:44.340	$GPGGA,180953,2424.3588,N,08142.9944,W,1,7,2.4,16,M,,M,,*59
06/06/2014	18:09:45.339	$GPGGA,180954,2424.3604,N,08142.9946,W,1,7,1.9,15,M,,M,,*56
06/06/2014	18:09:46.368	$GPGGA,180955,2424.3620,N,08142.9940,W,1,8,1.9,15,M,,M,,*58
06/06/2014	18:09:47.346	$GPGGA,180956,2424.3637,N,08142.9943,W,1,8,2.0,15,M,,M,,*54
06/06/2014	18:09:48.387	$GPGGA,180957,2424.3652,N,08142.9946,W,1,7,2.4,15,M,,M,,*58
06/06/2014	18:09:49.352	$GPGGA,180958,2424.3667,N,08142.9945,W,1,7,2.4,15,M,,M,,*52
06/06/2014	18:09:50.387	$GPGGA,180959,2424.3685,N,08142.9946,W,1,8,1.9,15,M,,M,,*5D
06/06/2014	18:09:51.382	$GPGGA,181000,2424.3699,N,08142.9944,W,1,8,2.4,15,M,,M,,*58
06/06/2014	18:09:52.357	$GPGGA,181001,2424.3714,N,08142.9947,W,1,8,1.9,15,M,,M,,*50
06/06/2014	18:09:53.376	$GPGGA,181002,2424.3728,N,08142.9946,W,1,8,2.0,15,M,,M,,*57
06/06/2014	18:09:54.369	$GPGGA,181003,2424.3745,N,08142.9949,W,1,8,1.9,15,M,,M,,*58
06/06/2014	18:09:55.392	$GPGGA,181004,2424.3761,N,08142.9948,W,1,8,2.4,15,M,,M,,*56
06/06/2014	18:09:56.416	$GPGGA,181005,2424.3778,N,08142.9951,W,1,8,1.9,15,M,,M,,*59
06/06/2014	18:09:57.471	$GPGGA,181006,2424.3794,N,08142.9954,W,1,8,1.9,14,M,,M,,*5C
06/06/2014	18:09:58.516	$GPGGA,181007,2424.3811,N,08142.9954,W,1,8,1.9,14,M,,M,,*5F
06/06/2014	18:09:59.501	$GPGGA,181008,2424.3826,N,08142.9956,W,1,8,1.9,14,M,,M,,*56
06/06/2014	18:10:00.375	$GPGGA,181009,2424.3840,N,08142.9955,W,1,8,1.9,14,M,,M,,*54
06/06/2014	18:10:01.490	$GPGGA,181010,2424.3857,N,08142.9957,W,1,8,1.9,14,M,,M,,*58
06/06/2014	18:10:02.385	$GPGGA,181011,2424.3873,N,08142.9957,W,1,7,2.4,14,M,,M,,*5E
06/06/2014	18:10:03.520	$GPGGA,181012,2424.3890,N,08142.9952,W,1,7,1.9,14,M,,M,,*5B
06/06/2014	18:10:04.496	$GPGGA,181013,2424.3905,N,08142.9953,W,1,8,2.0,14,M,,M,,*53
06/06/2014	18:10:06.796	$GPGGA,181015,2424.3936,N,08142.9953,W,1,8,1.9,14,M,,M,,*5F
06/06/2014	18:10:07.510	$GPGGA,181016,2424.3951,N,08142.9951,W,1,8,1.9,14,M,,M,,*5F
06/06/2014	18:10:08.515	$GPGGA,181017,2424.3966,N,08142.9951,W,1,8,1.9,14,M,,M,,*5A
06/06/2014	18:10:09.409	$GPGGA,181018,2424.3981,N,08142.9949,W,1,8,1.9,14,M,,M,,*55
06/06/2014	18:10:10.545	$GPGGA,181019,2424.3996,N,08142.9949,W,1,9,1.7,14,M,,M,,*5D
06/06/2014	18:10:11.428	$GPGGA,181020,2424.4013,N,08142.9949,W,1,9,1.9,14,M,,M,,*5A
06/06/2014	18:10:12.513	$GPGGA,181021,2424.4028,N,08142.9948,W,1,8,1.9,14,M,,M,,*53
06/06/2014	18:10:13.508	$GPGGA,181022,2424.4043,N,08142.9949,W,1,8,1.7,14,M,,M,,*52
06/06/2014	18:10:14.553	$GPGGA,181023,2424.4060,N,08142.9948,W,1,8,2.0,14,M,,M,,*57
06/06/2014	18:10:15.528	$GPGGA,181024,2424.4075,N,08142.9946,W,1,8,1.7,14,M,,M,,*5E
06/06/2014	18:10:16.553	$GPGGA,181025,2424.4089,N,08142.9945,W,1,9,1.7,14,M,,M,,*5E
06/06/2014	18:10:17.527	$GPGGA,181026,2424.4107,N,08142.9942,W,1,9,1.9,14,M,,M,,*53
06/06/2014	18:10:18.543	$GPGGA,181027,2424.4122,N,08142.9941,W,1,9,1.7,15,M,,M,,*59
06/06/2014	18:10:19.557	$GPGGA,181028,2424.4139,N,08142.9942,W,1,9,1.7,15,M,,M,,*5F
06/06/2014	18:10:20.532	$GPGGA,181029,2424.4155,N,08142.9942,W,1,9,1.7,15,M,,M,,*54
06/06/2014	18:10:21.537	$GPGGA,181030,2424.4171,N,08142.9942,W,1,9,1.7,15,M,,M,,*5A
06/06/2014	18:10:22.542	$GPGGA,181031,2424.4187,N,08142.9942,W,1,9,1.7,15,M,,M,,*52
06/06/2014	18:10:23.557	$GPGGA,181032,2424.4202,N,08142.9943,W,1,9,1.7,15,M,,M,,*5E
06/06/2014	18:10:24.563	$GPGGA,181033,2424.4218,N,08142.9944,W,1,9,1.7,16,M,,M,,*50
06/06/2014	18:10:25.547	$GPGGA,181034,2424.4234,N,08142.9946,W,1,9,1.7,16,M,,M,,*5B
06/06/2014	18:10:26.551	$GPGGA,181035,2424.4249,N,08142.9945,W,1,8,2.0,16,M,,M,,*56
06/06/2014	18:10:27.587	$GPGGA,181036,2424.4265,N,08142.9946,W,1,8,1.7,16,M,,M,,*5C
06/06/2014	18:10:28.211	$GPGGA,181037,2424.4281,N,08142.9947,W,1,9,1.7,16,M,,M,,*57
06/06/2014	18:10:29.186	$GPGGA,181038,2424.4296,N,08142.9947,W,1,9,1.7,16,M,,M,,*5E
06/06/2014	18:10:30.201	$GPGGA,181039,2424.4312,N,08142.9947,W,1,9,1.7,17,M,,M,,*53
06/06/2014	18:10:31.206	$GPGGA,181040,2424.4328,N,08142.9949,W,1,9,1.7,17,M,,M,,*5A
06/06/2014	18:10:32.251	$GPGGA,181041,2424.4343,N,08142.9949,W,1,9,1.7,17,M,,M,,*56
06/06/2014	18:10:33.190	$GPGGA,181042,2424.4359,N,08142.9950,W,1,9,1.7,17,M,,M,,*56
06/06/2014	18:10:34.321	$GPGGA,181043,2424.4375,N,08142.9951,W,1,9,1.7,17,M,,M,,*58
06/06/2014	18:10:35.202	$GPGGA,181044,2424.4389,N,08142.9953,W,1,9,1.7,17,M,,M,,*5E
06/06/2014	18:10:36.220	$GPGGA,181045,2424.4406,N,08142.9954,W,1,9,1.7,17,M,,M,,*58
06/06/2014	18:10:37.198	$GPGGA,181046,2424.4422,N,08142.9954,W,1,9,1.7,17,M,,M,,*5D
06/06/2014	18:10:38.250	$GPGGA,181047,2424.4437,N,08142.9956,W,1,9,1.7,18,M,,M,,*55
06/06/2014	18:10:39.335	$GPGGA,181048,2424.4453,N,08142.9955,W,1,9,1.7,18,M,,M,,*5B
06/06/2014	18:10:40.225	$GPGGA,181049,2424.4469,N,08142.9957,W,1,9,1.7,18,M,,M,,*51
06/06/2014	18:10:41.224	$GPGGA,181050,2424.4483,N,08142.9957,W,1,9,1.7,18,M,,M,,*5D
06/06/2014	18:10:42.236	$GPGGA,181051,2424.4498,N,08142.9957,W,1,9,1.7,18,M,,M,,*56
06/06/2014	18:10:43.224	$GPGGA,181052,2424.4515,N,08142.9958,W,1,9,1.7,18,M,,M,,*5E
06/06/2014	18:10:44.241	$GPGGA,181053,2424.4530,N,08142.9960,W,1,9,1.7,18,M,,M,,*53
06/06/2014	18:10:45.225	$GPGGA,181054,2424.4545,N,08142.9959,W,1,9,1.7,18,M,,M,,*5C
06/06/2014	18:10:46.358	$GPGGA,181055,2424.4561,N,08142.9960,W,1,9,1.7,18,M,,M,,*51
06/06/2014	18:10:47.245	$GPGGA,181056,2424.4577,N,08142.9961,W,1,9,1.7,18,M,,M,,*54
06/06/2014	18:10:48.238	$GPGGA,181057,2424.4592,N,08142.9962,W,1,9,1.7,18,M,,M,,*5D
06/06/2014	18:10:49.222	$GPGGA,181058,2424.4608,N,08142.9962,W,1,9,1.7,18,M,,M,,*52
06/06/2014	18:10:50.362	$GPGGA,181059,2424.4624,N,08142.9964,W,1,9,1.7,18,M,,M,,*5B
06/06/2014	18:10:51.383	$GPGGA,181100,2424.4639,N,08142.9965,W,1,9,1.7,19,M,,M,,*5A
06/06/2014	18:10:52.358	$GPGGA,181101,2424.4655,N,08142.9967,W,1,9,1.7,19,M,,M,,*53
06/06/2014	18:10:53.242	$GPGGA,181102,2424.4670,N,08142.9967,W,1,9,1.7,19,M,,M,,*57
06/06/2014	18:10:54.347	$GPGGA,181103,2424.4686,N,08142.9968,W,1,9,1.7,19,M,,M,,*50
06/06/2014	18:10:55.393	$GPGGA,181104,2424.4702,N,08142.9969,W,1,9,1.7,19,M,,M,,*5B
06/06/2014	18:10:56.357	$GPGGA,181105,2424.4717,N,08142.9971,W,1,9,1.9,19,M,,M,,*59
06/06/2014	18:10:57.372	$GPGGA,181106,2424.4732,N,08142.9975,W,1,9,2.4,19,M,,M,,*57
06/06/2014	18:10:58.377	$GPGGA,181107,2424.4744,N,08142.9973,W,1,7,1.7,18,M,,M,,*5E
06/06/2014	18:10:59.372	$GPGGA,181108,2424.4761,N,08142.9975,W,1,7,1.7,18,M,,M,,*50
06/06/2014	18:11:00.387	$GPGGA,181109,2424.4776,N,08142.9974,W,1,9,1.9,18,M,,M,,*56
06/06/2014	18:11:01.362	$GPGGA,181110,2424.4791,N,08142.9975,W,1,9,2.0,18,M,,M,,*5C
06/06/2014	18:11:02.397	$GPGGA,181111,2424.4809,N,08142.9976,W,1,8,1.7,18,M,,M,,*55
06/06/2014	18:11:03.401	$GPGGA,181112,2424.4825,N,08142.9978,W,1,8,2.0,18,M,,M,,*52
06/06/2014	18:11:04.395	$GPGGA,181113,2424.4840,N,08142.9980,W,1,8,2.4,18,M,,M,,*53
06/06/2014	18:11:05.380	$GPGGA,181114,2424.4858,N,08142.9978,W,1,8,1.7,18,M,,M,,*5A
06/06/2014	18:11:06.395	$GPGGA,181115,2424.4874,N,08142.9977,W,1,9,1.7,18,M,,M,,*5B
06/06/2014	18:11:07.390	$GPGGA,181116,2424.4890,N,08142.9980,W,1,9,2.4,18,M,,M,,*5A
06/06/2014	18:11:08.385	$GPGGA,181117,2424.4905,N,08142.9983,W,1,7,2.4,18,M,,M,,*5B
06/06/2014	18:11:09.390	$GPGGA,181118,2424.4920,N,08142.9986,W,1,7,2.4,18,M,,M,,*56
06/06/2014	18:11:10.385	$GPGGA,181119,2424.4935,N,08142.9987,W,1,7,2.4,18,M,,M,,*52
06/06/2014	18:11:11.400	$GPGGA,181120,2424.4952,N,08142.9985,W,1,7,2.0,18,M,,M,,*5F
06/06/2014	18:11:12.435	$GPGGA,181121,2424.4967,N,08142.9989,W,1,8,2.4,18,M,,M,,*5F
06/06/2014	18:11:13.399	$GPGGA,181122,2424.4984,N,08142.9986,W,1,8,2.0,18,M,,M,,*5A
06/06/2014	18:11:14.424	$GPGGA,181123,2424.5000,N,08142.9986,W,1,8,2.0,18,M,,M,,*5F
06/06/2014	18:11:15.419	$GPGGA,181124,2424.5015,N,08142.9989,W,1,8,2.0,18,M,,M,,*53
06/06/2014	18:11:16.424	$GPGGA,181125,2424.5032,N,08142.9989,W,1,8,1.7,18,M,,M,,*53
06/06/2014	18:11:17.403	$GPGGA,181126,2424.5047,N,08142.9991,W,1,8,2.4,18,M,,M,,*5B
06/06/2014	18:11:18.444	$GPGGA,181127,2424.5062,N,08142.9993,W,1,7,2.4,18,M,,M,,*50
06/06/2014	18:11:19.429	$GPGGA,181128,2424.5079,N,08142.9996,W,1,7,2.4,18,M,,M,,*50
06/06/2014	18:11:20.418	$GPGGA,181129,2424.5094,N,08142.9994,W,1,7,1.7,18,M,,M,,*50
06/06/2014	18:11:21.448	$GPGGA,181130,2424.5111,N,08142.9996,W,1,7,1.7,17,M,,M,,*59
06/06/2014	18:11:22.452	$GPGGA,181131,2424.5126,N,08142.9998,W,1,9,2.4,17,M,,M,,*5C
06/06/2014	18:11:23.431	$GPGGA,181132,2424.5141,N,08143.0000,W,1,9,2.4,17,M,,M,,*5E
06/06/2014	18:11:24.533	$GPGGA,181133,2424.5159,N,08142.9996,W,1,7,2.0,17,M,,M,,*52
06/06/2014	18:11:25.432	$GPGGA,181134,2424.5177,N,08142.9997,W,1,7,1.7,17,M,,M,,*5C
06/06/2014	18:11:26.462	$GPGGA,181135,2424.5191,N,08143.0000,W,1,9,1.9,17,M,,M,,*5A
06/06/2014	18:11:27.467	$GPGGA,181136,2424.5206,N,08143.0000,W,1,9,1.9,17,M,,M,,*54
06/06/2014	18:11:28.160	$GPGGA,181137,2424.5221,N,08143.0001,W,1,8,1.9,17,M,,M,,*50
06/06/2014	18:11:29.155	$GPGGA,181138,2424.5235,N,08143.0003,W,1,8,1.9,17,M,,M,,*58
06/06/2014	18:11:30.180	$GPGGA,181139,2424.5252,N,08143.0004,W,1,8,1.9,17,M,,M,,*5F
06/06/2014	18:11:31.184	$GPGGA,181140,2424.5266,N,08143.0003,W,1,8,1.9,17,M,,M,,*51
06/06/2014	18:11:32.181	$GPGGA,181141,2424.5282,N,08143.0005,W,1,8,1.9,17,M,,M,,*5C
06/06/2014	18:11:33.255	$GPGGA,181142,2424.5299,N,08143.0005,W,1,8,1.9,17,M,,M,,*55
06/06/2014	18:11:34.159	$GPGGA,181143,2424.5316,N,08143.0004,W,1,9,1.7,17,M,,M,,*5C
06/06/2014	18:11:35.200	$GPGGA,181144,2424.5332,N,08143.0003,W,1,9,1.7,17,M,,M,,*5A
06/06/2014	18:11:36.180	$GPGGA,181145,2424.5349,N,08143.0004,W,1,9,1.7,17,M,,M,,*50
06/06/2014	18:11:37.276	$GPGGA,181146,2424.5365,N,08143.0004,W,1,9,1.7,17,M,,M,,*5D
06/06/2014	18:11:38.349	$GPGGA,181147,2424.5382,N,08143.0004,W,1,9,1.7,17,M,,M,,*55
06/06/2014	18:11:39.412	$GPGGA,181148,2424.5397,N,08143.0004,W,1,9,1.7,17,M,,M,,*5E
06/06/2014	18:11:40.444	$GPGGA,181149,2424.5414,N,08143.0005,W,1,9,1.7,17,M,,M,,*52
06/06/2014	18:11:41.496	$GPGGA,181150,2424.5430,N,08143.0005,W,1,9,1.7,17,M,,M,,*5C
06/06/2014	18:11:42.538	$GPGGA,181151,2424.5445,N,08143.0007,W,1,9,1.7,17,M,,M,,*5D
06/06/2014	18:11:43.602	$GPGGA,181152,2424.5462,N,08143.0006,W,1,9,1.7,17,M,,M,,*5A
06/06/2014	18:11:44.665	$GPGGA,181153,2424.5479,N,08143.0007,W,1,9,1.7,17,M,,M,,*50
06/06/2014	18:11:45.686	$GPGGA,181154,2424.5495,N,08143.0008,W,1,9,1.7,17,M,,M,,*5A
06/06/2014	18:11:46.770	$GPGGA,181155,2424.5509,N,08143.0009,W,1,9,1.7,17,M,,M,,*5E
06/06/2014	18:11:47.802	$GPGGA,181156,2424.5526,N,08143.0011,W,1,9,1.7,17,M,,M,,*59
