Software Version Number: 1	Data File Format Number: 1	Build Version Number: 1	Error Count Since VI Started: 0	Manufacturer: Raytheon	 Model Number: RayMarine 120	 S/N: 	 Cal Date: 	 Wind Direction Offset: 0.00	 Slope (M)1: 0.00	 Offset (B)1: 0.00	 Slope (M)2: 0.00	 Offset (B)2: 0.00	 Slope (M)3: 0.00	 Offset (B)3: 0.00	 Slope (M)4: 0.00	 Offset (B)4: 0.00	 Slope (M)5: 0.00	 Offset (B)5: 0.00	 Slope (M)6: 0.00	 Offset (B)6: 0.00
Computer Date	Computer Time	GGA String
06/08/2014	20:00:00.700	$GPGGA,200001,2451.4536,N,08023.2866,W,1,9,1.7,11,M,,M,,*59
06/08/2014	20:00:01.714	$GPGGA,200002,2451.4540,N,08023.2872,W,1,9,1.7,11,M,,M,,*5E
06/08/2014	20:00:02.776	$GPGGA,200003,2451.4541,N,08023.2879,W,1,9,1.7,11,M,,M,,*55
06/08/2014	20:00:03.733	$GPGGA,200004,2451.4544,N,08023.2884,W,1,9,1.7,11,M,,M,,*55
06/08/2014	20:00:04.747	$GPGGA,200005,2451.4545,N,08023.2890,W,1,9,1.7,11,M,,M,,*50
06/08/2014	20:00:05.712	$GPGGA,200006,2451.4547,N,08023.2895,W,1,9,1.9,11,M,,M,,*5A
06/08/2014	20:00:06.737	$GPGGA,200007,2451.4548,N,08023.2901,W,1,9,1.7,11,M,,M,,*56
06/08/2014	20:00:07.742	$GPGGA,200008,2451.4549,N,08023.2906,W,1,9,1.7,11,M,,M,,*5F
06/08/2014	20:00:08.726	$GPGGA,200009,2451.4551,N,08023.2912,W,1,8,1.9,11,M,,M,,*5D
06/08/2014	20:00:09.741	$GPGGA,200010,2451.4552,N,08023.2917,W,1,8,1.9,11,M,,M,,*53
06/08/2014	20:00:11.158	$GPGGA,200011,2451.4555,N,08023.2923,W,1,8,1.9,11,M,,M,,*52
06/08/2014	20:00:11.741	$GPGGA,200012,2451.4558,N,08023.2928,W,1,8,1.7,11,M,,M,,*59
06/08/2014	20:00:12.755	$GPGGA,200013,2451.4559,N,08023.2934,W,1,9,1.7,11,M,,M,,*55
06/08/2014	20:00:13.739	$GPGGA,200014,2451.4559,N,08023.2939,W,1,9,1.9,11,M,,M,,*51
06/08/2014	20:00:14.774	$GPGGA,200015,2451.4561,N,08023.2945,W,1,8,1.9,11,M,,M,,*51
06/08/2014	20:00:15.759	$GPGGA,200016,2451.4562,N,08023.2952,W,1,8,1.7,11,M,,M,,*59
06/08/2014	20:00:16.894	$GPGGA,200017,2451.4563,N,08023.2956,W,1,8,1.6,11,M,,M,,*5C
06/08/2014	20:00:17.748	$GPGGA,200018,2451.4565,N,08023.2962,W,1,8,1.6,11,M,,M,,*52
06/08/2014	20:00:18.753	$GPGGA,200019,2451.4569,N,08023.2969,W,1,8,1.9,11,M,,M,,*5B
06/08/2014	20:00:19.778	$GPGGA,200020,2451.4570,N,08023.2973,W,1,8,1.6,11,M,,M,,*5D
06/08/2014	20:00:20.773	$GPGGA,200021,2451.4570,N,08023.2980,W,1,9,1.6,11,M,,M,,*51
06/08/2014	20:00:21.928	$GPGGA,200022,2451.4574,N,08023.2984,W,1,9,1.6,11,M,,M,,*52
06/08/2014	20:00:22.772	$GPGGA,200023,2451.4577,N,08023.2991,W,1,9,1.6,11,M,,M,,*54
06/08/2014	20:00:23.974	$GPGGA,200024,2451.4579,N,08023.2995,W,1,9,1.6,11,M,,M,,*59
06/08/2014	20:00:24.943	$GPGGA,200025,2451.4578,N,08023.3000,W,1,9,1.9,11,M,,M,,*52
06/08/2014	20:00:25.767	$GPGGA,200026,2451.4580,N,08023.3006,W,1,9,1.9,11,M,,M,,*50
06/08/2014	20:00:26.772	$GPGGA,200027,2451.4581,N,08023.3013,W,1,8,1.9,11,M,,M,,*55
06/08/2014	20:00:27.887	$GPGGA,200028,2451.4584,N,08023.3017,W,1,8,1.9,11,M,,M,,*5B
06/08/2014	20:00:28.884	$GPGGA,200029,2451.4587,N,08023.3022,W,1,9,1.6,11,M,,M,,*51
06/08/2014	20:00:29.877	$GPGGA,200030,2451.4586,N,08023.3028,W,1,9,1.6,11,M,,M,,*52
06/08/2014	20:00:30.961	$GPGGA,200031,2451.4587,N,08023.3035,W,1,8,2.0,11,M,,M,,*5A
06/08/2014	20:00:31.975	$GPGGA,200032,2451.4588,N,08023.3039,W,1,8,2.0,11,M,,M,,*5A
06/08/2014	20:00:32.960	$GPGGA,200033,2451.4591,N,08023.3045,W,1,8,1.9,11,M,,M,,*52
06/08/2014	20:00:33.975	$GPGGA,200034,2451.4592,N,08023.3049,W,1,8,1.9,11,M,,M,,*5A
06/08/2014	20:00:34.940	$GPGGA,200035,2451.4595,N,08023.3054,W,1,8,1.9,11,M,,M,,*50
06/08/2014	20:00:35.995	$GPGGA,200036,2451.4598,N,08023.3058,W,1,8,1.6,11,M,,M,,*5D
06/08/2014	20:00:36.989	$GPGGA,200037,2451.4599,N,08023.3064,W,1,8,1.9,11,M,,M,,*5D
06/08/2014	20:00:37.984	$GPGGA,200038,2451.4602,N,08023.3069,W,1,8,1.9,11,M,,M,,*5E
06/08/2014	20:00:38.620	$GPGGA,200039,2451.4603,N,08023.3074,W,1,8,1.9,11,M,,M,,*52
06/08/2014	20:00:39.615	$GPGGA,200040,2451.4603,N,08023.3079,W,1,8,1.9,11,M,,M,,*51
06/08/2014	20:00:40.589	$GPGGA,200041,2451.4606,N,08023.3085,W,1,8,1.9,11,M,,M,,*56
06/08/2014	20:00:41.614	$GPGGA,200042,2451.4606,N,08023.3092,W,1,8,1.9,11,M,,M,,*53
06/08/2014	20:00:42.589	$GPGGA,200043,2451.4608,N,08023.3096,W,1,8,1.9,11,M,,M,,*58
06/08/2014	20:00:43.634	$GPGGA,200044,2451.4610,N,08023.3101,W,1,8,1.6,11,M,,M,,*56
06/08/2014	20:00:44.548	$GPGGA,200045,2451.4610,N,08023.3107,W,1,9,1.6,11,M,,M,,*50
06/08/2014	20:00:45.633	$GPGGA,200046,2451.4610,N,08023.3114,W,1,9,1.6,11,M,,M,,*51
06/08/2014	20:00:46.588	$GPGGA,200047,2451.4610,N,08023.3121,W,1,8,1.6,11,M,,M,,*57
06/08/2014	20:00:47.573	$GPGGA,200048,2451.4612,N,08023.3125,W,1,8,1.6,11,M,,M,,*5E
06/08/2014	20:00:48.677	$GPGGA,200049,2451.4613,N,08023.3132,W,1,9,1.9,11,M,,M,,*56
06/08/2014	20:00:49.562	$GPGGA,200050,2451.4614,N,08023.3136,W,1,9,1.9,11,M,,M,,*5D
06/08/2014	20:00:50.646	$GPGGA,200051,2451.4616,N,08023.3143,W,1,8,1.6,11,M,,M,,*52
06/08/2014	20:00:51.641	$GPGGA,200052,2451.4619,N,08023.3147,W,1,8,1.6,11,M,,M,,*5A
06/08/2014	20:00:52.576	$GPGGA,200053,2451.4621,N,08023.3154,W,1,9,1.6,11,M,,M,,*53
06/08/2014	20:00:53.661	$GPGGA,200054,2451.4621,N,08023.3158,W,1,9,1.6,11,M,,M,,*58
06/08/2014	20:00:54.585	$GPGGA,200055,2451.4624,N,08023.3163,W,1,9,1.6,11,M,,M,,*54
06/08/2014	20:00:55.600	$GPGGA,200056,2451.4626,N,08023.3169,W,1,9,1.6,11,M,,M,,*5F
06/08/2014	20:00:56.647	$GPGGA,200057,2451.4628,N,08023.3175,W,1,9,1.6,11,M,,M,,*5D
06/08/2014	20:00:57.590	$GPGGA,200058,2451.4628,N,08023.3179,W,1,9,1.6,11,M,,M,,*5E
06/08/2014	20:00:58.655	$GPGGA,200059,2451.4630,N,08023.3186,W,1,9,1.6,11,M,,M,,*56
06/08/2014	20:00:59.680	$GPGGA,200100,2451.4632,N,08023.3191,W,1,9,1.6,11,M,,M,,*5F
06/08/2014	20:01:00.644	$GPGGA,200101,2451.4632,N,08023.3197,W,1,9,1.6,11,M,,M,,*58
06/08/2014	20:01:01.599	$GPGGA,200102,2451.4634,N,08023.3202,W,1,9,1.6,11,M,,M,,*52
06/08/2014	20:01:02.594	$GPGGA,200103,2451.4635,N,08023.3208,W,1,9,1.6,11,M,,M,,*58
06/08/2014	20:01:03.680	$GPGGA,200104,2451.4635,N,08023.3213,W,1,9,1.6,11,M,,M,,*55
06/08/2014	20:01:04.723	$GPGGA,200105,2451.4638,N,08023.3219,W,1,9,1.6,11,M,,M,,*53
06/08/2014	20:01:05.609	$GPGGA,200106,2451.4639,N,08023.3223,W,1,9,1.6,11,M,,M,,*58
06/08/2014	20:01:06.652	$GPGGA,200107,2451.4641,N,08023.3228,W,1,9,1.6,11,M,,M,,*5D
06/08/2014	20:01:07.697	$GPGGA,200108,2451.4642,N,08023.3233,W,1,9,1.6,11,M,,M,,*5B
06/08/2014	20:01:08.661	$GPGGA,200109,2451.4642,N,08023.3240,W,1,9,1.7,11,M,,M,,*5F
06/08/2014	20:01:09.616	$GPGGA,200110,2451.4643,N,08023.3244,W,1,9,1.7,11,M,,M,,*52
06/08/2014	20:01:10.681	$GPGGA,200111,2451.4646,N,08023.3251,W,1,9,1.6,11,M,,M,,*53
06/08/2014	20:01:11.756	$GPGGA,200112,2451.4646,N,08023.3255,W,1,9,1.6,11,M,,M,,*54
06/08/2014	20:01:12.661	$GPGGA,200113,2451.4646,N,08023.3260,W,1,9,1.6,11,M,,M,,*53
06/08/2014	20:01:13.716	$GPGGA,200114,2451.4648,N,08023.3266,W,1,9,1.6,11,M,,M,,*5C
06/08/2014	20:01:14.750	$GPGGA,200115,2451.4649,N,08023.3273,W,1,9,1.7,11,M,,M,,*59
06/08/2014	20:01:15.765	$GPGGA,200116,2451.4650,N,08023.3277,W,1,9,1.6,11,M,,M,,*57
06/08/2014	20:01:16.740	$GPGGA,200117,2451.4650,N,08023.3282,W,1,9,1.6,11,M,,M,,*5C
06/08/2014	20:01:17.745	$GPGGA,200118,2451.4652,N,08023.3288,W,1,9,1.6,11,M,,M,,*5B
06/08/2014	20:01:18.770	$GPGGA,200119,2451.4653,N,08023.3293,W,1,9,1.6,11,M,,M,,*51
06/08/2014	20:01:19.777	$GPGGA,200120,2451.4653,N,08023.3298,W,1,9,1.6,11,M,,M,,*50
06/08/2014	20:01:20.779	$GPGGA,200121,2451.4655,N,08023.3305,W,1,9,1.7,11,M,,M,,*53
06/08/2014	20:01:21.764	$GPGGA,200122,2451.4657,N,08023.3309,W,1,9,1.6,11,M,,M,,*5F
06/08/2014	20:01:22.758	$GPGGA,200123,2451.4657,N,08023.3313,W,1,9,1.6,11,M,,M,,*55
06/08/2014	20:01:23.783	$GPGGA,200124,2451.4660,N,08023.3317,W,1,9,1.6,11,M,,M,,*52
06/08/2014	20:01:24.795	$GPGGA,200125,2451.4661,N,08023.3322,W,1,9,1.6,11,M,,M,,*54
06/08/2014	20:01:25.763	$GPGGA,200126,2451.4663,N,08023.3327,W,1,9,1.6,11,M,,M,,*50
06/08/2014	20:01:26.787	$GPGGA,200127,2451.4664,N,08023.3332,W,1,9,1.6,11,M,,M,,*52
06/08/2014	20:01:27.812	$GPGGA,200128,2451.4667,N,08023.3338,W,1,9,1.6,11,M,,M,,*54
06/08/2014	20:01:28.847	$GPGGA,200129,2451.4668,N,08023.3342,W,1,9,1.6,11,M,,M,,*57
06/08/2014	20:01:29.801	$GPGGA,200130,2451.4670,N,08023.3346,W,1,9,1.6,11,M,,M,,*52
06/08/2014	20:01:30.796	$GPGGA,200131,2451.4671,N,08023.3350,W,1,9,1.6,11,M,,M,,*55
06/08/2014	20:01:31.801	$GPGGA,200132,2451.4674,N,08023.3356,W,1,9,1.6,11,M,,M,,*55
06/08/2014	20:01:32.796	$GPGGA,200133,2451.4675,N,08023.3360,W,1,9,1.6,11,M,,M,,*50
06/08/2014	20:01:33.811	$GPGGA,200134,2451.4677,N,08023.3363,W,1,9,1.6,11,M,,M,,*56
06/08/2014	20:01:34.825	$GPGGA,200135,2451.4678,N,08023.3367,W,1,9,1.6,11,M,,M,,*5C
06/08/2014	20:01:35.820	$GPGGA,200136,2451.4678,N,08023.3367,W,1,9,1.6,11,M,,M,,*5F
06/08/2014	20:01:36.825	$GPGGA,200137,2451.4682,N,08023.3375,W,1,9,1.6,11,M,,M,,*58
06/08/2014	20:01:37.820	$GPGGA,200138,2451.4684,N,08023.3379,W,1,9,1.9,11,M,,M,,*52
06/08/2014	20:01:38.583	$GPGGA,200139,2451.4686,N,08023.3382,W,1,9,1.6,11,M,,M,,*5A
06/08/2014	20:01:39.552	$GPGGA,200140,2451.4689,N,08023.3385,W,1,9,1.6,11,M,,M,,*5C
06/08/2014	20:01:40.528	$GPGGA,200141,2451.4692,N,08023.3389,W,1,10,1.7,11,M,,M,,*62
06/08/2014	20:01:41.572	$GPGGA,200142,2451.4695,N,08023.3392,W,1,10,1.7,11,M,,M,,*6C
06/08/2014	20:01:42.557	$GPGGA,200143,2451.4696,N,08023.3396,W,1,9,1.9,12,M,,M,,*5F
06/08/2014	20:01:43.551	$GPGGA,200144,2451.4696,N,08023.3396,W,1,9,1.9,12,M,,M,,*58
06/08/2014	20:01:44.546	$GPGGA,200145,2451.4702,N,08023.3401,W,1,9,1.7,12,M,,M,,*52
06/08/2014	20:01:45.551	$GPGGA,200146,2451.4702,N,08023.3401,W,1,9,1.6,12,M,,M,,*50
06/08/2014	20:01:46.646	$GPGGA,200147,2451.4707,N,08023.3407,W,1,9,1.7,12,M,,M,,*53
06/08/2014	20:01:47.601	$GPGGA,200148,2451.4711,N,08023.3411,W,1,9,1.7,12,M,,M,,*5C
06/08/2014	20:01:48.565	$GPGGA,200149,2451.4715,N,08023.3412,W,1,9,1.7,12,M,,M,,*5A
06/08/2014	20:01:49.570	$GPGGA,200150,2451.4718,N,08023.3414,W,1,9,1.6,12,M,,M,,*58
06/08/2014	20:01:50.555	$GPGGA,200151,2451.4722,N,08023.3418,W,1,10,1.6,12,M,,M,,*64
06/08/2014	20:01:51.690	$GPGGA,200152,2451.4725,N,08023.3421,W,1,10,1.7,12,M,,M,,*6B
06/08/2014	20:01:52.585	$GPGGA,200153,2451.4726,N,08023.3423,W,1,9,1.7,12,M,,M,,*53
06/08/2014	20:01:53.569	$GPGGA,200154,2451.4729,N,08023.3425,W,1,9,1.7,12,M,,M,,*5D
06/08/2014	20:01:54.564	$GPGGA,200155,2451.4733,N,08023.3428,W,1,9,1.9,12,M,,M,,*54
06/08/2014	20:01:55.579	$GPGGA,200156,2451.4736,N,08023.3430,W,1,9,1.7,12,M,,M,,*55
06/08/2014	20:01:56.684	$GPGGA,200157,2451.4738,N,08023.3433,W,1,9,1.7,12,M,,M,,*59
06/08/2014	20:01:57.609	$GPGGA,200158,2451.4738,N,08023.3433,W,1,9,1.7,12,M,,M,,*56
06/08/2014	20:01:58.592	$GPGGA,200159,2451.4746,N,08023.3437,W,1,10,1.6,12,M,,M,,*63
06/08/2014	20:01:59.719	$GPGGA,200200,2451.4747,N,08023.3440,W,1,10,1.7,12,M,,M,,*6C
06/08/2014	20:02:00.583	$GPGGA,200201,2451.4749,N,08023.3443,W,1,8,2.0,12,M,,M,,*5D
06/08/2014	20:02:01.587	$GPGGA,200202,2451.4749,N,08023.3443,W,1,8,2.0,12,M,,M,,*5E
06/08/2014	20:02:02.632	$GPGGA,200203,2451.4754,N,08023.3447,W,1,8,1.7,12,M,,M,,*53
06/08/2014	20:02:03.740	$GPGGA,200204,2451.4760,N,08023.3448,W,1,8,1.7,12,M,,M,,*5C
06/08/2014	20:02:04.655	$GPGGA,200205,2451.4764,N,08023.3450,W,1,9,1.7,12,M,,M,,*51
06/08/2014	20:02:05.728	$GPGGA,200206,2451.4764,N,08023.3450,W,1,9,1.9,12,M,,M,,*5C
06/08/2014	20:02:06.905	$GPGGA,200207,2451.4771,N,08023.3454,W,1,9,1.7,13,M,,M,,*52
06/08/2014	20:02:07.936	$GPGGA,200208,2451.4772,N,08023.3457,W,1,9,2.0,13,M,,M,,*59
06/08/2014	20:02:08.998	$GPGGA,200209,2451.4775,N,08023.3459,W,1,8,2.0,12,M,,M,,*51
06/08/2014	20:02:10.007	$GPGGA,200210,2451.4776,N,08023.3461,W,1,8,2.0,12,M,,M,,*51
06/08/2014	20:02:11.106	$GPGGA,200211,2451.4779,N,08023.3464,W,1,8,2.0,12,M,,M,,*5A
06/08/2014	20:02:12.131	$GPGGA,200212,2451.4782,N,08023.3465,W,1,8,2.0,12,M,,M,,*5C
06/08/2014	20:02:13.172	$GPGGA,200213,2451.4785,N,08023.3466,W,1,8,2.0,12,M,,M,,*59
06/08/2014	20:02:14.203	$GPGGA,200214,2451.4787,N,08023.3468,W,1,8,2.0,12,M,,M,,*52
06/08/2014	20:02:15.274	$GPGGA,200215,2451.4790,N,08023.3469,W,1,8,2.0,12,M,,M,,*54
06/08/2014	20:02:16.326	$GPGGA,200216,2451.4793,N,08023.3472,W,1,8,2.0,12,M,,M,,*5E
06/08/2014	20:02:17.393	$GPGGA,200217,2451.4796,N,08023.3473,W,1,8,2.0,12,M,,M,,*5B
06/08/2014	20:02:18.408	$GPGGA,200218,2451.4800,N,08023.3473,W,1,8,2.0,12,M,,M,,*54
06/08/2014	20:02:19.502	$GPGGA,200219,2451.4804,N,08023.3475,W,1,9,1.7,12,M,,M,,*52
06/08/2014	20:02:20.553	$GPGGA,200220,2451.4807,N,08023.3476,W,1,9,1.9,12,M,,M,,*56
06/08/2014	20:02:21.573	$GPGGA,200221,2451.4812,N,08023.3477,W,1,8,2.0,12,M,,M,,*59
06/08/2014	20:02:22.593	$GPGGA,200222,2451.4818,N,08023.3477,W,1,8,1.6,12,M,,M,,*55
06/08/2014	20:02:23.665	$GPGGA,200223,2451.4823,N,08023.3479,W,1,10,1.6,11,M,,M,,*68
06/08/2014	20:02:24.727	$GPGGA,200224,2451.4827,N,08023.3478,W,1,10,1.6,11,M,,M,,*6A
06/08/2014	20:02:25.748	$GPGGA,200225,2451.4833,N,08023.3479,W,1,9,1.9,11,M,,M,,*58
06/08/2014	20:02:26.809	$GPGGA,200226,2451.4837,N,08023.3479,W,1,9,1.6,11,M,,M,,*50
06/08/2014	20:02:27.882	$GPGGA,200227,2451.4843,N,08023.3479,W,1,10,1.6,11,M,,M,,*6A
06/08/2014	20:02:28.923	$GPGGA,200228,2451.4848,N,08023.3480,W,1,10,1.6,11,M,,M,,*68
06/08/2014	20:02:29.943	$GPGGA,200229,2451.4852,N,08023.3480,W,1,10,1.6,11,M,,M,,*62
06/08/2014	20:02:31.015	$GPGGA,200230,2451.4858,N,08023.3482,W,1,10,1.6,11,M,,M,,*62
06/08/2014	20:02:32.089	$GPGGA,200231,2451.4862,N,08023.3481,W,1,10,1.6,12,M,,M,,*6A
06/08/2014	20:02:33.108	$GPGGA,200232,2451.4866,N,08023.3483,W,1,10,1.6,12,M,,M,,*6F
06/08/2014	20:02:34.169	$GPGGA,200233,2451.4870,N,08023.3483,W,1,11,1.5,12,M,,M,,*6B
06/08/2014	20:02:35.294	$GPGGA,200234,2451.4876,N,08023.3484,W,1,11,1.5,12,M,,M,,*6D
06/08/2014	20:02:36.240	$GPGGA,200235,2451.4880,N,08023.3484,W,1,11,1.5,12,M,,M,,*65
06/08/2014	20:02:37.324	$GPGGA,200236,2451.4884,N,08023.3486,W,1,11,1.5,12,M,,M,,*60
06/08/2014	20:02:38.343	$GPGGA,200237,2451.4888,N,08023.3486,W,1,11,1.5,12,M,,M,,*6D
06/08/2014	20:02:39.416	$GPGGA,200238,2451.4892,N,08023.3487,W,1,11,1.5,12,M,,M,,*68
06/08/2014	20:02:38.609	$GPGGA,200239,2451.4897,N,08023.3487,W,1,11,1.5,12,M,,M,,*6C
06/08/2014	20:02:39.566	$GPGGA,200240,2451.4901,N,08023.3488,W,1,11,1.5,12,M,,M,,*63
06/08/2014	20:02:40.691	$GPGGA,200241,2451.4905,N,08023.3490,W,1,11,1.5,12,M,,M,,*6F
06/08/2014	20:02:41.742	$GPGGA,200242,2451.4910,N,08023.3490,W,1,11,1.5,12,M,,M,,*68
06/08/2014	20:02:42.689	$GPGGA,200243,2451.4913,N,08023.3490,W,1,11,1.5,12,M,,M,,*6A
06/08/2014	20:02:43.856	$GPGGA,200244,2451.4917,N,08023.3491,W,1,11,1.5,12,M,,M,,*68
06/08/2014	20:02:44.897	$GPGGA,200245,2451.4921,N,08023.3493,W,1,11,1.5,12,M,,M,,*6E
06/08/2014	20:02:45.938	$GPGGA,200246,2451.4927,N,08023.3492,W,1,11,1.5,12,M,,M,,*6A
06/08/2014	20:02:47.021	$GPGGA,200247,2451.4930,N,08023.3493,W,1,11,1.5,13,M,,M,,*6D
06/08/2014	20:02:48.072	$GPGGA,200248,2451.4932,N,08023.3493,W,1,11,1.6,13,M,,M,,*63
06/08/2014	20:02:49.134	$GPGGA,200249,2451.4937,N,08023.3494,W,1,11,1.5,13,M,,M,,*63
06/08/2014	20:02:50.134	$GPGGA,200250,2451.4941,N,08023.3494,W,1,11,1.5,13,M,,M,,*6A
06/08/2014	20:02:51.226	$GPGGA,200251,2451.4944,N,08023.3494,W,1,11,1.5,13,M,,M,,*6E
06/08/2014	20:02:52.247	$GPGGA,200252,2451.4949,N,08023.3495,W,1,11,1.6,12,M,,M,,*63
06/08/2014	20:02:53.276	$GPGGA,200253,2451.4953,N,08023.3495,W,1,11,1.5,12,M,,M,,*6A
06/08/2014	20:02:54.338	$GPGGA,200254,2451.4956,N,08023.3495,W,1,11,1.6,12,M,,M,,*6B
06/08/2014	20:02:55.400	$GPGGA,200255,2451.4960,N,08023.3495,W,1,9,1.9,12,M,,M,,*59
06/08/2014	20:02:56.441	$GPGGA,200256,2451.4964,N,08023.3495,W,1,9,1.6,12,M,,M,,*51
06/08/2014	20:02:57.496	$GPGGA,200257,2451.4970,N,08023.3497,W,1,10,1.6,12,M,,M,,*6F
06/08/2014	20:02:58.534	$GPGGA,200258,2451.4974,N,08023.3496,W,1,10,1.5,12,M,,M,,*66
06/08/2014	20:02:59.585	$GPGGA,200259,2451.4978,N,08023.3495,W,1,10,1.6,12,M,,M,,*6B
06/08/2014	20:03:00.658	$GPGGA,200300,2451.4982,N,08023.3497,W,1,10,1.6,12,M,,M,,*61
06/08/2014	20:03:01.699	$GPGGA,200301,2451.4986,N,08023.3496,W,1,10,1.6,12,M,,M,,*65
06/08/2014	20:03:02.740	$GPGGA,200302,2451.4991,N,08023.3497,W,1,10,1.5,12,M,,M,,*62
06/08/2014	20:03:03.803	$GPGGA,200303,2451.4996,N,08023.3497,W,1,11,1.5,12,M,,M,,*65
06/08/2014	20:03:04.855	$GPGGA,200304,2451.5000,N,08023.3497,W,1,11,1.5,13,M,,M,,*64
06/08/2014	20:03:05.905	$GPGGA,200305,2451.5004,N,08023.3497,W,1,11,1.5,13,M,,M,,*61
06/08/2014	20:03:06.925	$GPGGA,200306,2451.5007,N,08023.3497,W,1,11,1.5,13,M,,M,,*61
06/08/2014	20:03:07.997	$GPGGA,200307,2451.5013,N,08023.3497,W,1,11,1.5,13,M,,M,,*65
06/08/2014	20:03:09.037	$GPGGA,200308,2451.5017,N,08023.3497,W,1,11,1.6,13,M,,M,,*6D
06/08/2014	20:03:10.112	$GPGGA,200309,2451.5021,N,08023.3497,W,1,11,1.5,13,M,,M,,*6A
06/08/2014	20:03:11.130	$GPGGA,200310,2451.5025,N,08023.3498,W,1,11,1.5,13,M,,M,,*69
06/08/2014	20:03:12.182	$GPGGA,200311,2451.5029,N,08023.3497,W,1,11,1.5,13,M,,M,,*6B
06/08/2014	20:03:13.254	$GPGGA,200312,2451.5033,N,08023.3497,W,1,11,1.6,13,M,,M,,*60
06/08/2014	20:03:14.305	$GPGGA,200313,2451.5038,N,08023.3497,W,1,11,1.5,13,M,,M,,*69
06/08/2014	20:03:15.315	$GPGGA,200314,2451.5043,N,08023.3497,W,1,11,1.5,13,M,,M,,*62
06/08/2014	20:03:16.408	$GPGGA,200315,2451.5047,N,08023.3497,W,1,11,1.5,13,M,,M,,*67
06/08/2014	20:03:17.428	$GPGGA,200316,2451.5051,N,08023.3496,W,1,11,1.6,13,M,,M,,*61
06/08/2014	20:03:18.469	$GPGGA,200317,2451.5056,N,08023.3497,W,1,11,1.5,13,M,,M,,*65
06/08/2014	20:03:19.531	$GPGGA,200318,2451.5061,N,08023.3497,W,1,11,1.5,13,M,,M,,*6E
06/08/2014	20:03:20.593	$GPGGA,200319,2451.5064,N,08023.3496,W,1,10,1.6,13,M,,M,,*69
06/08/2014	20:03:21.624	$GPGGA,200320,2451.5067,N,08023.3497,W,1,10,1.6,13,M,,M,,*61
06/08/2014	20:03:22.759	$GPGGA,200321,2451.5072,N,08023.3496,W,1,11,1.5,13,M,,M,,*67
06/08/2014	20:03:23.737	$GPGGA,200322,2451.5076,N,08023.3497,W,1,11,1.5,13,M,,M,,*61
06/08/2014	20:03:24.862	$GPGGA,200323,2451.5079,N,08023.3495,W,1,11,1.5,13,M,,M,,*6D
06/08/2014	20:03:25.966	$GPGGA,200324,2451.5083,N,08023.3495,W,1,11,1.6,13,M,,M,,*6C
06/08/2014	20:03:26.975	$GPGGA,200325,2451.5087,N,08023.3494,W,1,10,1.6,13,M,,M,,*69
06/08/2014	20:03:27.911	$GPGGA,200326,2451.5092,N,08023.3494,W,1,10,1.6,13,M,,M,,*6E
06/08/2014	20:03:29.071	$GPGGA,200327,2451.5096,N,08023.3493,W,1,10,1.6,13,M,,M,,*6C
06/08/2014	20:03:30.129	$GPGGA,200328,2451.5100,N,08023.3493,W,1,10,1.6,13,M,,M,,*6D
06/08/2014	20:03:31.202	$GPGGA,200329,2451.5104,N,08023.3493,W,1,10,1.6,13,M,,M,,*68
06/08/2014	20:03:32.222	$GPGGA,200330,2451.5108,N,08023.3492,W,1,10,1.6,13,M,,M,,*6D
06/08/2014	20:03:33.158	$GPGGA,200331,2451.5114,N,08023.3493,W,1,11,1.5,13,M,,M,,*62
06/08/2014	20:03:34.241	$GPGGA,200332,2451.5116,N,08023.3491,W,1,11,1.6,13,M,,M,,*62
06/08/2014	20:03:35.397	$GPGGA,200333,2451.5122,N,08023.3491,W,1,10,1.6,13,M,,M,,*65
06/08/2014	20:03:36.312	$GPGGA,200334,2451.5127,N,08023.3491,W,1,10,1.5,13,M,,M,,*64
06/08/2014	20:03:37.458	$GPGGA,200335,2451.5132,N,08023.3491,W,1,11,1.5,13,M,,M,,*60
06/08/2014	20:03:38.531	$GPGGA,200336,2451.5136,N,08023.3490,W,1,11,1.6,13,M,,M,,*65
06/08/2014	20:03:39.572	$GPGGA,200337,2451.5141,N,08023.3490,W,1,10,1.6,13,M,,M,,*65
06/08/2014	20:03:40.624	$GPGGA,200338,2451.5145,N,08023.3490,W,1,10,1.5,13,M,,M,,*6D
06/08/2014	20:03:38.589	$GPGGA,200339,2451.5150,N,08023.3489,W,1,11,1.5,13,M,,M,,*61
06/08/2014	20:03:39.638	$GPGGA,200340,2451.5152,N,08023.3490,W,1,11,1.5,13,M,,M,,*65
06/08/2014	20:03:40.677	$GPGGA,200341,2451.5158,N,08023.3488,W,1,10,1.6,14,M,,M,,*62
06/08/2014	20:03:41.722	$GPGGA,200342,2451.5162,N,08023.3488,W,1,10,1.6,14,M,,M,,*68
06/08/2014	20:03:42.788	$GPGGA,200343,2451.5166,N,08023.3487,W,1,11,1.5,14,M,,M,,*60
06/08/2014	20:03:43.835	$GPGGA,200344,2451.5172,N,08023.3486,W,1,11,1.5,14,M,,M,,*63
06/08/2014	20:03:44.884	$GPGGA,200345,2451.5176,N,08023.3486,W,1,11,1.5,14,M,,M,,*66
06/08/2014	20:03:45.915	$GPGGA,200346,2451.5181,N,08023.3485,W,1,11,1.6,14,M,,M,,*6D
06/08/2014	20:03:46.987	$GPGGA,200347,2451.5188,N,08023.3486,W,1,11,1.5,14,M,,M,,*65
06/08/2014	20:03:48.034	$GPGGA,200348,2451.5194,N,08023.3485,W,1,11,1.5,14,M,,M,,*64
06/08/2014	20:03:49.093	$GPGGA,200349,2451.5198,N,08023.3484,W,1,11,1.5,14,M,,M,,*68
06/08/2014	20:03:50.110	$GPGGA,200350,2451.5204,N,08023.3484,W,1,11,1.6,14,M,,M,,*65
06/08/2014	20:03:51.162	$GPGGA,200351,2451.5208,N,08023.3484,W,1,11,1.5,14,M,,M,,*6B
06/08/2014	20:03:52.237	$GPGGA,200352,2451.5213,N,08023.3482,W,1,11,1.6,14,M,,M,,*67
06/08/2014	20:03:53.296	$GPGGA,200353,2451.5220,N,08023.3481,W,1,11,1.5,14,M,,M,,*66
06/08/2014	20:03:54.306	$GPGGA,200354,2451.5224,N,08023.3480,W,1,11,1.5,14,M,,M,,*64
06/08/2014	20:03:55.357	$GPGGA,200355,2451.5230,N,08023.3479,W,1,11,1.5,15,M,,M,,*67
06/08/2014	20:03:56.409	$GPGGA,200356,2451.5234,N,08023.3478,W,1,11,1.5,15,M,,M,,*61
06/08/2014	20:03:57.492	$GPGGA,200357,2451.5238,N,08023.3476,W,1,10,1.6,15,M,,M,,*60
06/08/2014	20:03:58.502	$GPGGA,200358,2451.5242,N,08023.3475,W,1,10,1.6,15,M,,M,,*61
06/08/2014	20:03:59.584	$GPGGA,200359,2451.5248,N,08023.3475,W,1,11,1.5,15,M,,M,,*68
06/08/2014	20:04:00.635	$GPGGA,200400,2451.5252,N,08023.3474,W,1,11,1.5,15,M,,M,,*69
06/08/2014	20:04:01.656	$GPGGA,200401,2451.5256,N,08023.3473,W,1,10,1.6,15,M,,M,,*69
06/08/2014	20:04:02.717	$GPGGA,200402,2451.5260,N,08023.3473,W,1,10,1.6,16,M,,M,,*6C
06/08/2014	20:04:03.779	$GPGGA,200403,2451.5263,N,08023.3471,W,1,10,1.6,16,M,,M,,*6C
06/08/2014	20:04:04.820	$GPGGA,200404,2451.5267,N,08023.3472,W,1,10,1.6,16,M,,M,,*6C
06/08/2014	20:04:05.861	$GPGGA,200405,2451.5271,N,08023.3470,W,1,10,1.6,16,M,,M,,*68
06/08/2014	20:04:06.902	$GPGGA,200406,2451.5275,N,08023.3469,W,1,10,1.6,16,M,,M,,*67
06/08/2014	20:04:07.964	$GPGGA,200407,2451.5280,N,08023.3469,W,1,10,1.6,16,M,,M,,*6C
06/08/2014	20:04:09.026	$GPGGA,200408,2451.5284,N,08023.3468,W,1,10,1.6,16,M,,M,,*66
06/08/2014	20:04:10.056	$GPGGA,200409,2451.5289,N,08023.3467,W,1,10,1.6,16,M,,M,,*65
06/08/2014	20:04:11.108	$GPGGA,200410,2451.5293,N,08023.3466,W,1,10,1.6,16,M,,M,,*67
06/08/2014	20:04:12.275	$GPGGA,200411,2451.5296,N,08023.3465,W,1,10,1.6,16,M,,M,,*60
06/08/2014	20:04:13.222	$GPGGA,200412,2451.5302,N,08023.3465,W,1,10,1.6,16,M,,M,,*6F
06/08/2014	20:04:14.241	$GPGGA,200413,2451.5306,N,08023.3465,W,1,10,1.6,16,M,,M,,*6A
06/08/2014	20:04:15.293	$GPGGA,200414,2451.5311,N,08023.3464,W,1,10,1.6,16,M,,M,,*6A
06/08/2014	20:04:16.355	$GPGGA,200415,2451.5314,N,08023.3463,W,1,10,1.6,16,M,,M,,*69
06/08/2014	20:04:17.396	$GPGGA,200416,2451.5320,N,08023.3464,W,1,10,1.6,16,M,,M,,*6A
06/08/2014	20:04:18.552	$GPGGA,200417,2451.5324,N,08023.3462,W,1,10,1.6,16,M,,M,,*69
06/08/2014	20:04:19.603	$GPGGA,200418,2451.5329,N,08023.3461,W,1,10,1.6,15,M,,M,,*6B
06/08/2014	20:04:20.644	$GPGGA,200419,2451.5332,N,08023.3461,W,1,10,1.6,15,M,,M,,*60
06/08/2014	20:04:21.611	$GPGGA,200420,2451.5339,N,08023.3460,W,1,10,1.6,15,M,,M,,*60
06/08/2014	20:04:22.778	$GPGGA,200421,2451.5343,N,08023.3461,W,1,9,1.6,15,M,,M,,*55
06/08/2014	20:04:23.792	$GPGGA,200422,2451.5350,N,08023.3460,W,1,9,1.5,15,M,,M,,*56
06/08/2014	20:04:24.839	$GPGGA,200423,2451.5356,N,08023.3461,W,1,11,1.5,15,M,,M,,*69
06/08/2014	20:04:25.922	$GPGGA,200424,2451.5361,N,08023.3459,W,1,11,1.6,15,M,,M,,*62
06/08/2014	20:04:26.932	$GPGGA,200425,2451.5367,N,08023.3459,W,1,11,1.5,15,M,,M,,*66
06/08/2014	20:04:27.994	$GPGGA,200426,2451.5372,N,08023.3458,W,1,11,1.6,15,M,,M,,*63
06/08/2014	20:04:29.087	$GPGGA,200427,2451.5378,N,08023.3458,W,1,10,1.6,15,M,,M,,*69
06/08/2014	20:04:30.002	$GPGGA,200428,2451.5382,N,08023.3457,W,1,10,1.5,15,M,,M,,*6F
06/08/2014	20:04:31.152	$GPGGA,200429,2451.5387,N,08023.3456,W,1,9,1.6,15,M,,M,,*51
06/08/2014	20:04:32.192	$GPGGA,200430,2451.5390,N,08023.3454,W,1,9,1.6,15,M,,M,,*5D
06/08/2014	20:04:33.262	$GPGGA,200431,2451.5396,N,08023.3453,W,1,10,1.6,15,M,,M,,*65
06/08/2014	20:04:34.303	$GPGGA,200432,2451.5403,N,08023.3454,W,1,10,1.6,15,M,,M,,*6A
06/08/2014	20:04:35.375	$GPGGA,200433,2451.5407,N,08023.3453,W,1,11,1.5,15,M,,M,,*6A
06/08/2014	20:04:36.395	$GPGGA,200434,2451.5412,N,08023.3452,W,1,11,1.5,15,M,,M,,*68
06/08/2014	20:04:37.456	$GPGGA,200435,2451.5416,N,08023.3451,W,1,10,1.6,15,M,,M,,*6C
06/08/2014	20:04:38.518	$GPGGA,200436,2451.5422,N,08023.3450,W,1,10,1.6,15,M,,M,,*69
06/08/2014	20:04:39.528	$GPGGA,200437,2451.5426,N,08023.3449,W,1,10,1.6,15,M,,M,,*64
06/08/2014	20:04:40.590	$GPGGA,200438,2451.5432,N,08023.3448,W,1,10,1.6,15,M,,M,,*6F
06/08/2014	20:04:38.597	$GPGGA,200439,2451.5437,N,08023.3447,W,1,11,1.5,15,M,,M,,*66
06/08/2014	20:04:39.605	$GPGGA,200440,2451.5441,N,08023.3447,W,1,11,1.5,15,M,,M,,*69
06/08/2014	20:04:40.635	$GPGGA,200441,2451.5445,N,08023.3445,W,1,10,1.6,15,M,,M,,*6C
06/08/2014	20:04:41.697	$GPGGA,200442,2451.5451,N,08023.3444,W,1,10,1.6,15,M,,M,,*6B
06/08/2014	20:04:42.772	$GPGGA,200443,2451.5455,N,08023.3443,W,1,10,1.6,15,M,,M,,*69
06/08/2014	20:04:43.811	$GPGGA,200444,2451.5459,N,08023.3442,W,1,10,1.6,15,M,,M,,*63
06/08/2014	20:04:44.874	$GPGGA,200445,2451.5465,N,08023.3441,W,1,10,1.6,15,M,,M,,*6E
06/08/2014	20:04:45.882	$GPGGA,200446,2451.5470,N,08023.3440,W,1,10,1.6,15,M,,M,,*68
06/08/2014	20:04:46.976	$GPGGA,200447,2451.5473,N,08023.3439,W,1,10,1.6,15,M,,M,,*64
06/08/2014	20:04:48.006	$GPGGA,200448,2451.5480,N,08023.3438,W,1,10,1.5,15,M,,M,,*65
06/08/2014	20:04:49.038	$GPGGA,200449,2451.5484,N,08023.3439,W,1,11,1.5,15,M,,M,,*60
06/08/2014	20:04:50.099	$GPGGA,200450,2451.5490,N,08023.3437,W,1,11,1.6,15,M,,M,,*60
06/08/2014	20:04:51.172	$GPGGA,200451,2451.5495,N,08023.3436,W,1,10,1.6,15,M,,M,,*64
06/08/2014	20:04:52.202	$GPGGA,200452,2451.5501,N,08023.3435,W,1,10,1.6,15,M,,M,,*68
06/08/2014	20:04:53.263	$GPGGA,200453,2451.5505,N,08023.3436,W,1,11,1.5,15,M,,M,,*6C
06/08/2014	20:04:54.283	$GPGGA,200454,2451.5509,N,08023.3434,W,1,11,1.8,14,M,,M,,*69
06/08/2014	20:04:55.366	$GPGGA,200455,2451.5513,N,08023.3432,W,1,10,1.6,14,M,,M,,*6A
06/08/2014	20:04:56.417	$GPGGA,200456,2451.5520,N,08023.3431,W,1,10,1.5,14,M,,M,,*69
06/08/2014	20:04:57.437	$GPGGA,200457,2451.5526,N,08023.3429,W,1,11,1.5,14,M,,M,,*66
06/08/2014	20:04:58.604	$GPGGA,200458,2451.5531,N,08023.3427,W,1,11,1.6,14,M,,M,,*62
06/08/2014	20:04:59.687	$GPGGA,200459,2451.5537,N,08023.3426,W,1,10,1.5,14,M,,M,,*66
06/08/2014	20:05:00.602	$GPGGA,200500,2451.5542,N,08023.3424,W,1,10,1.5,14,M,,M,,*6B
06/08/2014	20:05:01.622	$GPGGA,200501,2451.5546,N,08023.3423,W,1,10,1.6,14,M,,M,,*6A
06/08/2014	20:05:02.789	$GPGGA,200502,2451.5552,N,08023.3422,W,1,10,1.5,14,M,,M,,*6E
06/08/2014	20:05:03.746	$GPGGA,200503,2451.5556,N,08023.3421,W,1,11,1.5,14,M,,M,,*69
06/08/2014	20:05:04.934	$GPGGA,200504,2451.5560,N,08023.3420,W,1,11,1.6,15,M,,M,,*68
06/08/2014	20:05:05.849	$GPGGA,200505,2451.5566,N,08023.3419,W,1,10,1.6,15,M,,M,,*64
06/08/2014	20:05:06.985	$GPGGA,200506,2451.5571,N,08023.3418,W,1,10,1.5,15,M,,M,,*63
06/08/2014	20:05:07.931	$GPGGA,200507,2451.5575,N,08023.3418,W,1,11,1.5,15,M,,M,,*67
06/08/2014	20:05:09.109	$GPGGA,200508,2451.5581,N,08023.3417,W,1,11,1.6,14,M,,M,,*6E
06/08/2014	20:05:10.181	$GPGGA,200509,2451.5585,N,08023.3416,W,1,10,1.5,14,M,,M,,*68
06/08/2014	20:05:11.179	$GPGGA,200510,2451.5589,N,08023.3415,W,1,10,1.5,14,M,,M,,*6F
06/08/2014	20:05:12.132	$GPGGA,200511,2451.5595,N,08023.3414,W,1,11,1.5,14,M,,M,,*63
06/08/2014	20:05:13.293	$GPGGA,200512,2451.5600,N,08023.3412,W,1,11,1.6,14,M,,M,,*6A
06/08/2014	20:05:14.334	$GPGGA,200513,2451.5605,N,08023.3411,W,1,10,1.6,14,M,,M,,*6C
06/08/2014	20:05:15.396	$GPGGA,200514,2451.5609,N,08023.3411,W,1,10,1.6,14,M,,M,,*67
06/08/2014	20:05:16.458	$GPGGA,200515,2451.5614,N,08023.3410,W,1,10,1.6,14,M,,M,,*6B
06/08/2014	20:05:17.509	$GPGGA,200516,2451.5618,N,08023.3409,W,1,10,1.8,14,M,,M,,*62
06/08/2014	20:05:18.561	$GPGGA,200517,2451.5621,N,08023.3408,W,1,9,1.8,14,M,,M,,*50
06/08/2014	20:05:19.475	$GPGGA,200518,2451.5625,N,08023.3407,W,1,9,1.8,14,M,,M,,*54
06/08/2014	20:05:20.695	$GPGGA,200519,2451.5632,N,08023.3406,W,1,9,1.6,14,M,,M,,*5C
06/08/2014	20:05:21.705	$GPGGA,200520,2451.5636,N,08023.3407,W,1,9,1.6,14,M,,M,,*53
06/08/2014	20:05:22.738	$GPGGA,200521,2451.5643,N,08023.3404,W,1,10,1.6,14,M,,M,,*6B
06/08/2014	20:05:23.776	$GPGGA,200522,2451.5647,N,08023.3403,W,1,10,1.5,14,M,,M,,*68
06/08/2014	20:05:24.838	$GPGGA,200523,2451.5652,N,08023.3401,W,1,11,1.5,14,M,,M,,*6E
06/08/2014	20:05:25.900	$GPGGA,200524,2451.5657,N,08023.3400,W,1,11,1.5,14,M,,M,,*6D
06/08/2014	20:05:26.910	$GPGGA,200525,2451.5661,N,08023.3399,W,1,11,1.5,14,M,,M,,*6E
06/08/2014	20:05:27.972	$GPGGA,200526,2451.5667,N,08023.3398,W,1,11,1.5,14,M,,M,,*6A
06/08/2014	20:05:29.050	$GPGGA,200527,2451.5672,N,08023.3397,W,1,11,1.5,14,M,,M,,*60
06/08/2014	20:05:30.102	$GPGGA,200528,2451.5676,N,08023.3396,W,1,11,1.5,13,M,,M,,*6D
06/08/2014	20:05:31.157	$GPGGA,200529,2451.5681,N,08023.3395,W,1,11,1.5,13,M,,M,,*67
06/08/2014	20:05:32.166	$GPGGA,200530,2451.5686,N,08023.3394,W,1,11,1.5,13,M,,M,,*69
06/08/2014	20:05:33.207	$GPGGA,200531,2451.5690,N,08023.3392,W,1,11,1.5,13,M,,M,,*69
06/08/2014	20:05:34.279	$GPGGA,200532,2451.5694,N,08023.3391,W,1,11,1.5,13,M,,M,,*6D
06/08/2014	20:05:35.343	$GPGGA,200533,2451.5700,N,08023.3390,W,1,11,1.5,13,M,,M,,*61
06/08/2014	20:05:36.372	$GPGGA,200534,2451.5704,N,08023.3388,W,1,11,1.5,13,M,,M,,*6B
06/08/2014	20:05:37.446	$GPGGA,200535,2451.5708,N,08023.3387,W,1,11,1.5,13,M,,M,,*69
06/08/2014	20:05:38.464	$GPGGA,200536,2451.5715,N,08023.3386,W,1,11,1.5,13,M,,M,,*67
06/08/2014	20:05:39.528	$GPGGA,200537,2451.5719,N,08023.3385,W,1,11,1.5,13,M,,M,,*69
06/08/2014	20:05:40.578	$GPGGA,200538,2451.5719,N,08023.3385,W,1,11,1.5,13,M,,M,,*66
06/08/2014	20:05:38.572	$GPGGA,200539,2451.5726,N,08023.3382,W,1,10,1.5,13,M,,M,,*6D
06/08/2014	20:05:39.592	$GPGGA,200540,2451.5733,N,08023.3380,W,1,10,1.5,13,M,,M,,*65
06/08/2014	20:05:40.644	$GPGGA,200541,2451.5737,N,08023.3378,W,1,10,1.5,13,M,,M,,*67
06/08/2014	20:05:41.674	$GPGGA,200542,2451.5743,N,08023.3377,W,1,10,1.5,13,M,,M,,*68
06/08/2014	20:05:42.736	$GPGGA,200543,2451.5748,N,08023.3375,W,1,10,1.5,13,M,,M,,*60
06/08/2014	20:05:43.789	$GPGGA,200544,2451.5754,N,08023.3373,W,1,10,1.5,13,M,,M,,*6C
06/08/2014	20:05:44.933	$GPGGA,200545,2451.5759,N,08023.3372,W,1,11,1.5,13,M,,M,,*60
06/08/2014	20:05:45.889	$GPGGA,200546,2451.5766,N,08023.3369,W,1,11,1.5,12,M,,M,,*64
06/08/2014	20:05:46.909	$GPGGA,200547,2451.5770,N,08023.3368,W,1,11,1.5,12,M,,M,,*63
06/08/2014	20:05:48.003	$GPGGA,200548,2451.5776,N,08023.3367,W,1,11,1.5,12,M,,M,,*65
06/08/2014	20:05:49.044	$GPGGA,200549,2451.5781,N,08023.3365,W,1,11,1.5,12,M,,M,,*6E
06/08/2014	20:05:50.058	$GPGGA,200550,2451.5787,N,08023.3364,W,1,11,1.5,12,M,,M,,*61
06/08/2014	20:05:51.147	$GPGGA,200551,2451.5791,N,08023.3362,W,1,11,1.5,12,M,,M,,*61
06/08/2014	20:05:52.188	$GPGGA,200552,2451.5798,N,08023.3360,W,1,11,1.9,12,M,,M,,*65
06/08/2014	20:05:53.229	$GPGGA,200553,2451.5802,N,08023.3360,W,1,10,1.5,12,M,,M,,*65
06/08/2014	20:05:54.365	$GPGGA,200554,2451.5808,N,08023.3358,W,1,10,1.5,12,M,,M,,*63
06/08/2014	20:05:55.321	$GPGGA,200555,2451.5812,N,08023.3358,W,1,11,1.5,12,M,,M,,*68
06/08/2014	20:05:56.469	$GPGGA,200556,2451.5816,N,08023.3357,W,1,11,1.5,12,M,,M,,*60
06/08/2014	20:05:57.414	$GPGGA,200557,2451.5820,N,08023.3357,W,1,11,1.5,12,M,,M,,*64
06/08/2014	20:05:58.554	$GPGGA,200558,2451.5826,N,08023.3356,W,1,11,1.5,12,M,,M,,*6C
06/08/2014	20:05:59.664	$GPGGA,200559,2451.5830,N,08023.3355,W,1,11,1.5,12,M,,M,,*69
06/08/2014	20:06:00.684	$GPGGA,200600,2451.5835,N,08023.3356,W,1,11,1.5,12,M,,M,,*60
06/08/2014	20:06:01.747	$GPGGA,200601,2451.5840,N,08023.3354,W,1,11,1.5,12,M,,M,,*61
06/08/2014	20:06:02.759	$GPGGA,200602,2451.5844,N,08023.3353,W,1,11,1.5,12,M,,M,,*61
06/08/2014	20:06:03.848	$GPGGA,200603,2451.5849,N,08023.3352,W,1,11,1.5,12,M,,M,,*6C
06/08/2014	20:06:04.868	$GPGGA,200604,2451.5853,N,08023.3351,W,1,11,1.5,12,M,,M,,*63
06/08/2014	20:06:05.898	$GPGGA,200605,2451.5859,N,08023.3350,W,1,11,1.5,12,M,,M,,*69
06/08/2014	20:06:06.960	$GPGGA,200606,2451.5863,N,08023.3349,W,1,11,1.5,12,M,,M,,*6B
06/08/2014	20:06:08.001	$GPGGA,200607,2451.5867,N,08023.3348,W,1,11,1.5,12,M,,M,,*6F
06/08/2014	20:06:09.077	$GPGGA,200608,2451.5873,N,08023.3347,W,1,11,1.5,12,M,,M,,*6A
06/08/2014	20:06:10.094	$GPGGA,200609,2451.5878,N,08023.3346,W,1,11,1.5,12,M,,M,,*61
06/08/2014	20:06:11.174	$GPGGA,200610,2451.5882,N,08023.3345,W,1,11,1.5,12,M,,M,,*6F
06/08/2014	20:06:12.222	$GPGGA,200611,2451.5888,N,08023.3343,W,1,11,1.5,12,M,,M,,*62
06/08/2014	20:06:13.273	$GPGGA,200612,2451.5892,N,08023.3341,W,1,11,1.5,12,M,,M,,*68
06/08/2014	20:06:14.300	$GPGGA,200613,2451.5896,N,08023.3342,W,1,11,1.5,12,M,,M,,*6E
06/08/2014	20:06:15.363	$GPGGA,200614,2451.5903,N,08023.3339,W,1,11,1.5,12,M,,M,,*68
06/08/2014	20:06:16.434	$GPGGA,200615,2451.5907,N,08023.3337,W,1,11,1.5,12,M,,M,,*63
06/08/2014	20:06:17.467	$GPGGA,200616,2451.5913,N,08023.3335,W,1,11,1.5,12,M,,M,,*67
06/08/2014	20:06:18.495	$GPGGA,200617,2451.5918,N,08023.3335,W,1,11,1.5,12,M,,M,,*6D
06/08/2014	20:06:19.547	$GPGGA,200618,2451.5923,N,08023.3333,W,1,11,1.5,12,M,,M,,*6C
06/08/2014	20:06:20.598	$GPGGA,200619,2451.5928,N,08023.3332,W,1,11,1.5,12,M,,M,,*67
06/08/2014	20:06:21.671	$GPGGA,200620,2451.5932,N,08023.3330,W,1,11,1.5,12,M,,M,,*64
06/08/2014	20:06:22.690	$GPGGA,200621,2451.5938,N,08023.3329,W,1,11,1.5,12,M,,M,,*67
06/08/2014	20:06:23.762	$GPGGA,200622,2451.5943,N,08023.3328,W,1,11,1.5,12,M,,M,,*69
06/08/2014	20:06:24.793	$GPGGA,200623,2451.5949,N,08023.3327,W,1,11,1.5,12,M,,M,,*6D
06/08/2014	20:06:25.877	$GPGGA,200624,2451.5953,N,08023.3326,W,1,11,1.5,12,M,,M,,*60
06/08/2014	20:06:26.906	$GPGGA,200625,2451.5957,N,08023.3324,W,1,11,1.5,12,M,,M,,*67
06/08/2014	20:06:27.958	$GPGGA,200626,2451.5963,N,08023.3323,W,1,11,1.5,12,M,,M,,*64
06/08/2014	20:06:29.020	$GPGGA,200627,2451.5968,N,08023.3322,W,1,11,1.5,12,M,,M,,*6F
06/08/2014	20:06:30.050	$GPGGA,200628,2451.5974,N,08023.3319,W,1,11,1.5,12,M,,M,,*65
06/08/2014	20:06:31.103	$GPGGA,200629,2451.5979,N,08023.3317,W,1,11,1.5,12,M,,M,,*67
06/08/2014	20:06:32.258	$GPGGA,200630,2451.5983,N,08023.3316,W,1,11,1.5,12,M,,M,,*6B
06/08/2014	20:06:33.185	$GPGGA,200631,2451.5990,N,08023.3315,W,1,11,1.5,12,M,,M,,*6B
06/08/2014	20:06:34.235	$GPGGA,200632,2451.5993,N,08023.3313,W,1,11,1.5,12,M,,M,,*6D
06/08/2014	20:06:35.297	$GPGGA,200633,2451.6000,N,08023.3311,W,1,11,1.5,12,M,,M,,*6E
06/08/2014	20:06:36.338	$GPGGA,200634,2451.6004,N,08023.3310,W,1,11,1.5,12,M,,M,,*6C
06/08/2014	20:06:37.516	$GPGGA,200635,2451.6010,N,08023.3309,W,1,11,1.4,12,M,,M,,*61
06/08/2014	20:06:38.452	$GPGGA,200636,2451.6015,N,08023.3307,W,1,11,1.4,12,M,,M,,*69
06/08/2014	20:06:39.482	$GPGGA,200637,2451.6021,N,08023.3306,W,1,11,1.4,12,M,,M,,*6E
06/08/2014	20:06:40.533	$GPGGA,200638,2451.6026,N,08023.3304,W,1,11,1.4,12,M,,M,,*64
06/08/2014	20:06:38.613	$GPGGA,200639,2451.6030,N,08023.3303,W,1,11,1.4,12,M,,M,,*65
06/08/2014	20:06:39.653	$GPGGA,200640,2451.6036,N,08023.3301,W,1,11,1.4,12,M,,M,,*6F
06/08/2014	20:06:40.694	$GPGGA,200641,2451.6040,N,08023.3299,W,1,11,1.4,12,M,,M,,*6F
06/08/2014	20:06:41.745	$GPGGA,200642,2451.6046,N,08023.3298,W,1,11,1.4,12,M,,M,,*6B
06/08/2014	20:06:42.818	$GPGGA,200643,2451.6051,N,08023.3297,W,1,11,1.4,12,M,,M,,*63
06/08/2014	20:06:43.869	$GPGGA,200644,2451.6055,N,08023.3295,W,1,11,1.5,12,M,,M,,*63
06/08/2014	20:06:44.931	$GPGGA,200645,2451.6061,N,08023.3294,W,1,11,1.4,12,M,,M,,*65
06/08/2014	20:06:45.941	$GPGGA,200646,2451.6066,N,08023.3292,W,1,11,1.4,12,M,,M,,*67
06/08/2014	20:06:46.992	$GPGGA,200647,2451.6072,N,08023.3291,W,1,11,1.4,12,M,,M,,*60
06/08/2014	20:06:48.059	$GPGGA,200648,2451.6077,N,08023.3289,W,1,11,1.4,12,M,,M,,*63
06/08/2014	20:06:49.109	$GPGGA,200649,2451.6082,N,08023.3287,W,1,11,1.4,12,M,,M,,*66
06/08/2014	20:06:50.137	$GPGGA,200650,2451.6087,N,08023.3286,W,1,11,1.4,12,M,,M,,*6A
06/08/2014	20:06:51.189	$GPGGA,200651,2451.6091,N,08023.3284,W,1,11,1.4,12,M,,M,,*6E
06/08/2014	20:06:52.250	$GPGGA,200652,2451.6097,N,08023.3281,W,1,11,1.4,12,M,,M,,*6E
06/08/2014	20:06:53.285	$GPGGA,200653,2451.6102,N,08023.3280,W,1,11,1.4,12,M,,M,,*63
06/08/2014	20:06:54.345	$GPGGA,200654,2451.6106,N,08023.3278,W,1,11,1.4,12,M,,M,,*67
06/08/2014	20:06:55.383	$GPGGA,200655,2451.6112,N,08023.3276,W,1,11,1.4,12,M,,M,,*6D
06/08/2014	20:06:56.455	$GPGGA,200656,2451.6116,N,08023.3274,W,1,11,1.4,12,M,,M,,*68
06/08/2014	20:06:57.496	$GPGGA,200657,2451.6122,N,08023.3272,W,1,10,1.6,12,M,,M,,*6B
06/08/2014	20:06:58.526	$GPGGA,200658,2451.6127,N,08023.3270,W,1,10,1.6,12,M,,M,,*63
06/08/2014	20:06:59.620	$GPGGA,200659,2451.6133,N,08023.3267,W,1,10,1.6,12,M,,M,,*61
06/08/2014	20:07:00.661	$GPGGA,200700,2451.6138,N,08023.3264,W,1,10,1.4,12,M,,M,,*66
06/08/2014	20:07:01.733	$GPGGA,200701,2451.6142,N,08023.3263,W,1,11,1.4,12,M,,M,,*6C
06/08/2014	20:07:02.732	$GPGGA,200702,2451.6149,N,08023.3261,W,1,11,1.6,12,M,,M,,*64
06/08/2014	20:07:03.805	$GPGGA,200703,2451.6153,N,08023.3259,W,1,11,1.4,12,M,,M,,*67
06/08/2014	20:07:04.824	$GPGGA,200704,2451.6159,N,08023.3257,W,1,11,1.4,12,M,,M,,*64
06/08/2014	20:07:05.855	$GPGGA,200705,2451.6163,N,08023.3255,W,1,11,1.4,12,M,,M,,*6E
06/08/2014	20:07:06.844	$GPGGA,200706,2451.6169,N,08023.3254,W,1,11,1.4,12,M,,M,,*66
06/08/2014	20:07:07.865	$GPGGA,200707,2451.6174,N,08023.3252,W,1,11,1.4,12,M,,M,,*6D
06/08/2014	20:07:08.884	$GPGGA,200708,2451.6180,N,08023.3250,W,1,11,1.4,12,M,,M,,*6B
06/08/2014	20:07:09.945	$GPGGA,200709,2451.6185,N,08023.3249,W,1,11,1.4,12,M,,M,,*67
06/08/2014	20:07:10.915	$GPGGA,200710,2451.6189,N,08023.3247,W,1,11,1.4,12,M,,M,,*6D
06/08/2014	20:07:11.934	$GPGGA,200711,2451.6196,N,08023.3245,W,1,11,1.4,12,M,,M,,*60
06/08/2014	20:07:12.976	$GPGGA,200712,2451.6200,N,08023.3244,W,1,11,1.4,12,M,,M,,*6E
06/08/2014	20:07:13.983	$GPGGA,200713,2451.6206,N,08023.3242,W,1,11,1.4,12,M,,M,,*6F
06/08/2014	20:07:15.036	$GPGGA,200714,2451.6212,N,08023.3240,W,1,11,1.4,12,M,,M,,*6F
06/08/2014	20:07:16.024	$GPGGA,200715,2451.6217,N,08023.3239,W,1,11,1.4,12,M,,M,,*65
06/08/2014	20:07:17.044	$GPGGA,200716,2451.6223,N,08023.3238,W,1,11,1.4,12,M,,M,,*60
06/08/2014	20:07:18.033	$GPGGA,200717,2451.6228,N,08023.3236,W,1,11,1.4,12,M,,M,,*64
06/08/2014	20:07:19.063	$GPGGA,200718,2451.6232,N,08023.3235,W,1,11,1.4,12,M,,M,,*63
06/08/2014	20:07:20.073	$GPGGA,200719,2451.6239,N,08023.3234,W,1,11,1.4,12,M,,M,,*68
06/08/2014	20:07:21.104	$GPGGA,200720,2451.6243,N,08023.3232,W,1,11,1.4,12,M,,M,,*69
06/08/2014	20:07:22.236	$GPGGA,200721,2451.6250,N,08023.3230,W,1,11,1.4,12,M,,M,,*68
06/08/2014	20:07:23.154	$GPGGA,200722,2451.6256,N,08023.3229,W,1,11,1.4,12,M,,M,,*65
06/08/2014	20:07:24.276	$GPGGA,200723,2451.6261,N,08023.3227,W,1,11,1.4,12,M,,M,,*6E
06/08/2014	20:07:25.276	$GPGGA,200724,2451.6265,N,08023.3225,W,1,11,1.4,12,M,,M,,*6F
06/08/2014	20:07:26.204	$GPGGA,200725,2451.6272,N,08023.3224,W,1,11,1.4,12,M,,M,,*69
06/08/2014	20:07:27.194	$GPGGA,200726,2451.6278,N,08023.3223,W,1,11,1.4,12,M,,M,,*67
06/08/2014	20:07:28.326	$GPGGA,200727,2451.6283,N,08023.3220,W,1,11,1.4,12,M,,M,,*61
06/08/2014	20:07:29.244	$GPGGA,200728,2451.6289,N,08023.3218,W,1,11,1.4,12,M,,M,,*6F
06/08/2014	20:07:30.397	$GPGGA,200729,2451.6294,N,08023.3217,W,1,11,1.4,12,M,,M,,*6D
06/08/2014	20:07:31.283	$GPGGA,200730,2451.6300,N,08023.3215,W,1,11,1.4,12,M,,M,,*6B
06/08/2014	20:07:32.395	$GPGGA,200731,2451.6304,N,08023.3213,W,1,11,1.4,12,M,,M,,*68
06/08/2014	20:07:33.323	$GPGGA,200732,2451.6311,N,08023.3211,W,1,11,1.4,12,M,,M,,*6D
06/08/2014	20:07:34.466	$GPGGA,200733,2451.6317,N,08023.3210,W,1,11,1.4,12,M,,M,,*6B
06/08/2014	20:07:35.455	$GPGGA,200734,2451.6322,N,08023.3209,W,1,11,1.4,12,M,,M,,*62
06/08/2014	20:07:36.463	$GPGGA,200735,2451.6328,N,08023.3206,W,1,11,1.4,12,M,,M,,*66
06/08/2014	20:07:37.506	$GPGGA,200736,2451.6333,N,08023.3204,W,1,11,1.4,12,M,,M,,*6D
06/08/2014	20:07:38.506	$GPGGA,200737,2451.6339,N,08023.3203,W,1,11,1.4,12,M,,M,,*61
06/08/2014	20:07:39.515	$GPGGA,200738,2451.6344,N,08023.3201,W,1,11,1.4,12,M,,M,,*66
06/08/2014	20:07:38.599	$GPGGA,200739,2451.6350,N,08023.3199,W,1,11,1.4,12,M,,M,,*60
06/08/2014	20:07:39.607	$GPGGA,200740,2451.6355,N,08023.3198,W,1,11,1.4,12,M,,M,,*6A
06/08/2014	20:07:40.597	$GPGGA,200741,2451.6361,N,08023.3196,W,1,11,1.4,12,M,,M,,*62
06/08/2014	20:07:41.617	$GPGGA,200742,2451.6366,N,08023.3194,W,1,11,1.4,12,M,,M,,*64
06/08/2014	20:07:42.658	$GPGGA,200743,2451.6373,N,08023.3193,W,1,11,1.4,12,M,,M,,*66
06/08/2014	20:07:43.678	$GPGGA,200744,2451.6377,N,08023.3191,W,1,11,1.4,12,M,,M,,*67
06/08/2014	20:07:44.689	$GPGGA,200745,2451.6383,N,08023.3189,W,1,11,1.4,12,M,,M,,*64
06/08/2014	20:07:45.697	$GPGGA,200746,2451.6390,N,08023.3188,W,1,11,1.4,12,M,,M,,*64
06/08/2014	20:07:46.708	$GPGGA,200747,2451.6395,N,08023.3186,W,1,11,1.4,12,M,,M,,*6E
06/08/2014	20:07:47.750	$GPGGA,200748,2451.6401,N,08023.3184,W,1,11,1.4,12,M,,M,,*69
06/08/2014	20:07:48.777	$GPGGA,200749,2451.6405,N,08023.3182,W,1,11,1.4,12,M,,M,,*6A
06/08/2014	20:07:49.767	$GPGGA,200750,2451.6413,N,08023.3183,W,1,11,1.5,12,M,,M,,*65
06/08/2014	20:07:50.817	$GPGGA,200751,2451.6419,N,08023.3180,W,1,11,1.4,12,M,,M,,*6C
06/08/2014	20:07:51.807	$GPGGA,200752,2451.6424,N,08023.3179,W,1,11,1.4,12,M,,M,,*67
06/08/2014	20:07:52.817	$GPGGA,200753,2451.6431,N,08023.3178,W,1,11,1.4,11,M,,M,,*60
06/08/2014	20:07:53.857	$GPGGA,200754,2451.6438,N,08023.3176,W,1,11,1.4,11,M,,M,,*60
06/08/2014	20:07:54.867	$GPGGA,200755,2451.6444,N,08023.3175,W,1,11,1.4,11,M,,M,,*69
06/08/2014	20:07:55.897	$GPGGA,200756,2451.6449,N,08023.3174,W,1,11,1.4,11,M,,M,,*66
06/08/2014	20:07:56.887	$GPGGA,200757,2451.6456,N,08023.3173,W,1,11,1.4,11,M,,M,,*6E
06/08/2014	20:07:57.917	$GPGGA,200758,2451.6462,N,08023.3171,W,1,11,1.4,11,M,,M,,*64
06/08/2014	20:07:58.927	$GPGGA,200759,2451.6467,N,08023.3169,W,1,10,1.5,11,M,,M,,*69
06/08/2014	20:07:59.978	$GPGGA,200800,2451.6474,N,08023.3168,W,1,10,1.4,11,M,,M,,*68
06/08/2014	20:08:00.957	$GPGGA,200801,2451.6480,N,08023.3165,W,1,11,1.4,11,M,,M,,*6E
06/08/2014	20:08:01.999	$GPGGA,200802,2451.6487,N,08023.3163,W,1,11,1.4,11,M,,M,,*6C
06/08/2014	20:08:03.040	$GPGGA,200803,2451.6492,N,08023.3161,W,1,11,1.4,11,M,,M,,*6B
06/08/2014	20:08:04.028	$GPGGA,200804,2451.6499,N,08023.3158,W,1,11,1.4,11,M,,M,,*6D
06/08/2014	20:08:05.057	$GPGGA,200805,2451.6503,N,08023.3156,W,1,11,1.4,11,M,,M,,*60
06/08/2014	20:08:06.046	$GPGGA,200806,2451.6510,N,08023.3154,W,1,11,1.4,11,M,,M,,*63
06/08/2014	20:08:07.077	$GPGGA,200807,2451.6516,N,08023.3152,W,1,11,1.4,11,M,,M,,*62
06/08/2014	20:08:08.250	$GPGGA,200808,2451.6521,N,08023.3150,W,1,11,1.4,11,M,,M,,*6B
06/08/2014	20:08:09.127	$GPGGA,200809,2451.6528,N,08023.3148,W,1,11,1.4,11,M,,M,,*6A
06/08/2014	20:08:10.120	$GPGGA,200810,2451.6532,N,08023.3146,W,1,11,1.4,11,M,,M,,*67
06/08/2014	20:08:11.157	$GPGGA,200811,2451.6539,N,08023.3144,W,1,11,1.4,11,M,,M,,*6F
06/08/2014	20:08:12.269	$GPGGA,200812,2451.6545,N,08023.3142,W,1,11,1.4,11,M,,M,,*61
06/08/2014	20:08:13.371	$GPGGA,200813,2451.6550,N,08023.3140,W,1,11,1.4,11,M,,M,,*66
06/08/2014	20:08:14.217	$GPGGA,200814,2451.6557,N,08023.3139,W,1,11,1.4,11,M,,M,,*68
06/08/2014	20:08:15.421	$GPGGA,200815,2451.6561,N,08023.3136,W,1,11,1.4,11,M,,M,,*63
06/08/2014	20:08:16.258	$GPGGA,200816,2451.6568,N,08023.3135,W,1,11,1.4,11,M,,M,,*6A
06/08/2014	20:08:17.451	$GPGGA,200817,2451.6574,N,08023.3133,W,1,11,1.4,11,M,,M,,*60
06/08/2014	20:08:18.400	$GPGGA,200818,2451.6579,N,08023.3131,W,1,11,1.4,11,M,,M,,*60
06/08/2014	20:08:19.491	$GPGGA,200819,2451.6585,N,08023.3129,W,1,11,1.4,11,M,,M,,*6B
06/08/2014	20:08:20.318	$GPGGA,200820,2451.6590,N,08023.3126,W,1,11,1.4,11,M,,M,,*6A
06/08/2014	20:08:21.419	$GPGGA,200821,2451.6597,N,08023.3124,W,1,11,1.4,11,M,,M,,*6E
06/08/2014	20:08:22.460	$GPGGA,200822,2451.6600,N,08023.3125,W,1,11,1.4,11,M,,M,,*61
06/08/2014	20:08:23.552	$GPGGA,200823,2451.6607,N,08023.3121,W,1,11,1.4,11,M,,M,,*63
06/08/2014	20:08:24.397	$GPGGA,200824,2451.6613,N,08023.3119,W,1,11,1.4,11,M,,M,,*6A
06/08/2014	20:08:25.407	$GPGGA,200825,2451.6618,N,08023.3117,W,1,10,1.8,11,M,,M,,*63
06/08/2014	20:08:26.511	$GPGGA,200826,2451.6625,N,08023.3115,W,1,10,1.8,11,M,,M,,*6C
06/08/2014	20:08:27.651	$GPGGA,200827,2451.6629,N,08023.3114,W,1,11,1.4,11,M,,M,,*6D
06/08/2014	20:08:28.620	$GPGGA,200828,2451.6635,N,08023.3112,W,1,11,1.4,11,M,,M,,*69
06/08/2014	20:08:29.661	$GPGGA,200829,2451.6640,N,08023.3110,W,1,11,1.4,11,M,,M,,*68
06/08/2014	20:08:30.620	$GPGGA,200830,2451.6646,N,08023.3108,W,1,11,1.4,11,M,,M,,*6F
06/08/2014	20:08:31.712	$GPGGA,200831,2451.6653,N,08023.3105,W,1,10,1.5,11,M,,M,,*67
06/08/2014	20:08:32.670	$GPGGA,200832,2451.6658,N,08023.3102,W,1,10,1.4,11,M,,M,,*69
06/08/2014	20:08:33.711	$GPGGA,200833,2451.6665,N,08023.3100,W,1,11,1.4,11,M,,M,,*65
06/08/2014	20:08:34.690	$GPGGA,200834,2451.6671,N,08023.3098,W,1,11,1.4,11,M,,M,,*67
06/08/2014	20:08:35.669	$GPGGA,200835,2451.6676,N,08023.3096,W,1,11,1.4,11,M,,M,,*6F
06/08/2014	20:08:36.740	$GPGGA,200836,2451.6683,N,08023.3094,W,1,11,1.4,11,M,,M,,*64
06/08/2014	20:08:37.824	$GPGGA,200837,2451.6689,N,08023.3092,W,1,11,1.4,11,M,,M,,*69
06/08/2014	20:08:38.760	$GPGGA,200838,2451.6694,N,08023.3089,W,1,11,1.4,11,M,,M,,*60
06/08/2014	20:08:38.665	$GPGGA,200839,2451.6700,N,08023.3088,W,1,11,1.4,11,M,,M,,*6C
06/08/2014	20:08:39.605	$GPGGA,200840,2451.6705,N,08023.3086,W,1,11,1.4,11,M,,M,,*69
06/08/2014	20:08:40.687	$GPGGA,200841,2451.6711,N,08023.3084,W,1,10,1.4,11,M,,M,,*6E
06/08/2014	20:08:41.625	$GPGGA,200842,2451.6716,N,08023.3082,W,1,10,1.4,11,M,,M,,*6C
06/08/2014	20:08:42.615	$GPGGA,200843,2451.6723,N,08023.3080,W,1,11,1.4,11,M,,M,,*68
06/08/2014	20:08:43.686	$GPGGA,200844,2451.6730,N,08023.3078,W,1,11,1.4,11,M,,M,,*6A
06/08/2014	20:08:44.645	$GPGGA,200845,2451.6734,N,08023.3076,W,1,11,1.4,11,M,,M,,*61
06/08/2014	20:08:45.716	$GPGGA,200846,2451.6740,N,08023.3074,W,1,11,1.4,11,M,,M,,*63
06/08/2014	20:08:46.695	$GPGGA,200847,2451.6745,N,08023.3072,W,1,11,1.4,11,M,,M,,*61
06/08/2014	20:08:47.756	$GPGGA,200848,2451.6751,N,08023.3070,W,1,11,1.4,11,M,,M,,*69
06/08/2014	20:08:48.827	$GPGGA,200849,2451.6756,N,08023.3068,W,1,11,1.4,11,M,,M,,*66
06/08/2014	20:08:49.776	$GPGGA,200850,2451.6762,N,08023.3066,W,1,11,1.4,11,M,,M,,*67
06/08/2014	20:08:50.857	$GPGGA,200851,2451.6767,N,08023.3064,W,1,11,1.4,11,M,,M,,*61
06/08/2014	20:08:51.826	$GPGGA,200852,2451.6773,N,08023.3062,W,1,11,1.4,11,M,,M,,*61
06/08/2014	20:08:52.908	$GPGGA,200853,2451.6778,N,08023.3060,W,1,11,1.4,11,M,,M,,*69
06/08/2014	20:08:53.836	$GPGGA,200854,2451.6785,N,08023.3058,W,1,11,1.4,11,M,,M,,*67
06/08/2014	20:08:54.907	$GPGGA,200855,2451.6790,N,08023.3056,W,1,11,1.4,11,M,,M,,*6C
06/08/2014	20:08:55.886	$GPGGA,200856,2451.6796,N,08023.3054,W,1,11,1.4,11,M,,M,,*6B
06/08/2014	20:08:56.866	$GPGGA,200857,2451.6802,N,08023.3052,W,1,11,1.4,11,M,,M,,*6E
06/08/2014	20:08:58.007	$GPGGA,200858,2451.6806,N,08023.3051,W,1,11,1.5,11,M,,M,,*67
06/08/2014	20:08:59.027	$GPGGA,200859,2451.6813,N,08023.3047,W,1,10,1.4,11,M,,M,,*65
06/08/2014	20:08:59.980	$GPGGA,200900,2451.6819,N,08023.3044,W,1,10,1.8,11,M,,M,,*6D
06/08/2014	20:09:01.057	$GPGGA,200901,2451.6825,N,08023.3043,W,1,10,1.4,11,M,,M,,*68
06/08/2014	20:09:01.985	$GPGGA,200902,2451.6831,N,08023.3042,W,1,10,1.5,11,M,,M,,*6E
06/08/2014	20:09:03.128	$GPGGA,200903,2451.6837,N,08023.3039,W,1,10,1.4,11,M,,M,,*64
06/08/2014	20:09:04.046	$GPGGA,200904,2451.6842,N,08023.3037,W,1,10,1.4,11,M,,M,,*6F
06/08/2014	20:09:05.168	$GPGGA,200905,2451.6848,N,08023.3038,W,1,11,1.5,11,M,,M,,*6B
06/08/2014	20:09:06.056	$GPGGA,200906,2451.6853,N,08023.3035,W,1,11,1.5,11,M,,M,,*6F
06/08/2014	20:09:07.137	$GPGGA,200907,2451.6857,N,08023.3033,W,1,10,1.5,11,M,,M,,*6D
06/08/2014	20:09:08.177	$GPGGA,200908,2451.6864,N,08023.3032,W,1,10,1.4,11,M,,M,,*62
06/08/2014	20:09:09.182	$GPGGA,200909,2451.6870,N,08023.3031,W,1,11,1.4,12,M,,M,,*67
06/08/2014	20:09:10.218	$GPGGA,200910,2451.6875,N,08023.3029,W,1,11,1.4,12,M,,M,,*63
06/08/2014	20:09:11.289	$GPGGA,200911,2451.6881,N,08023.3027,W,1,11,1.4,12,M,,M,,*67
06/08/2014	20:09:12.258	$GPGGA,200912,2451.6886,N,08023.3026,W,1,11,1.4,12,M,,M,,*62
06/08/2014	20:09:13.278	$GPGGA,200913,2451.6893,N,08023.3024,W,1,11,1.4,12,M,,M,,*65
06/08/2014	20:09:14.278	$GPGGA,200914,2451.6899,N,08023.3021,W,1,11,1.4,12,M,,M,,*6D
06/08/2014	20:09:15.327	$GPGGA,200915,2451.6904,N,08023.3020,W,1,11,1.4,12,M,,M,,*68
06/08/2014	20:09:16.337	$GPGGA,200916,2451.6910,N,08023.3019,W,1,11,1.4,12,M,,M,,*64
06/08/2014	20:09:17.337	$GPGGA,200917,2451.6915,N,08023.3017,W,1,11,1.4,12,M,,M,,*6E
06/08/2014	20:09:18.357	$GPGGA,200918,2451.6921,N,08023.3016,W,1,11,1.5,12,M,,M,,*66
06/08/2014	20:09:19.408	$GPGGA,200919,2451.6928,N,08023.3013,W,1,10,1.8,12,M,,M,,*67
06/08/2014	20:09:20.397	$GPGGA,200920,2451.6933,N,08023.3011,W,1,10,2.0,13,M,,M,,*6F
06/08/2014	20:09:21.438	$GPGGA,200921,2451.6940,N,08023.3008,W,1,9,2.0,13,M,,M,,*5A
06/08/2014	20:09:22.417	$GPGGA,200922,2451.6946,N,08023.3007,W,1,9,1.8,13,M,,M,,*5B
06/08/2014	20:09:23.478	$GPGGA,200923,2451.6954,N,08023.3004,W,1,9,1.5,13,M,,M,,*57
06/08/2014	20:09:24.467	$GPGGA,200924,2451.6960,N,08023.3002,W,1,9,1.8,13,M,,M,,*5C
06/08/2014	20:09:25.528	$GPGGA,200925,2451.6965,N,08023.3000,W,1,9,1.8,13,M,,M,,*5A
06/08/2014	20:09:26.508	$GPGGA,200926,2451.6975,N,08023.2994,W,1,9,1.5,13,M,,M,,*50
06/08/2014	20:09:27.538	$GPGGA,200927,2451.6982,N,08023.2991,W,1,10,1.6,13,M,,M,,*67
06/08/2014	20:09:28.548	$GPGGA,200928,2451.6987,N,08023.2989,W,1,10,1.5,14,M,,M,,*60
06/08/2014	20:09:29.561	$GPGGA,200929,2451.6994,N,08023.2986,W,1,10,1.6,14,M,,M,,*6F
06/08/2014	20:09:30.571	$GPGGA,200930,2451.7000,N,08023.2984,W,1,10,1.6,14,M,,M,,*60
06/08/2014	20:09:31.588	$GPGGA,200931,2451.7005,N,08023.2982,W,1,9,1.6,14,M,,M,,*5A
06/08/2014	20:09:32.608	$GPGGA,200932,2451.7012,N,08023.2979,W,1,9,1.6,14,M,,M,,*5B
06/08/2014	20:09:33.657	$GPGGA,200933,2451.7018,N,08023.2977,W,1,9,1.6,14,M,,M,,*5E
06/08/2014	20:09:34.627	$GPGGA,200934,2451.7023,N,08023.2975,W,1,9,1.6,14,M,,M,,*53
06/08/2014	20:09:35.687	$GPGGA,200935,2451.7030,N,08023.2972,W,1,9,1.6,15,M,,M,,*56
06/08/2014	20:09:36.697	$GPGGA,200936,2451.7037,N,08023.2970,W,1,9,1.4,15,M,,M,,*52
06/08/2014	20:09:37.730	$GPGGA,200937,2451.7043,N,08023.2968,W,1,10,1.4,15,M,,M,,*61
06/08/2014	20:09:38.717	$GPGGA,200938,2451.7048,N,08023.2965,W,1,10,1.4,15,M,,M,,*68
06/08/2014	20:09:38.588	$GPGGA,200939,2451.7048,N,08023.2965,W,1,10,1.4,15,M,,M,,*69
06/08/2014	20:09:39.553	$GPGGA,200940,2451.7062,N,08023.2959,W,1,10,1.4,15,M,,M,,*60
06/08/2014	20:09:40.573	$GPGGA,200941,2451.7062,N,08023.2959,W,1,11,1.4,15,M,,M,,*60
06/08/2014	20:09:41.583	$GPGGA,200942,2451.7074,N,08023.2954,W,1,11,1.4,15,M,,M,,*69
06/08/2014	20:09:42.654	$GPGGA,200943,2451.7080,N,08023.2951,W,1,11,1.4,15,M,,M,,*66
06/08/2014	20:09:43.634	$GPGGA,200944,2451.7085,N,08023.2948,W,1,11,1.4,15,M,,M,,*6C
06/08/2014	20:09:44.644	$GPGGA,200945,2451.7085,N,08023.2948,W,1,11,1.4,16,M,,M,,*6E
06/08/2014	20:09:45.643	$GPGGA,200946,2451.7098,N,08023.2944,W,1,11,1.4,16,M,,M,,*6D
06/08/2014	20:09:46.694	$GPGGA,200947,2451.7103,N,08023.2941,W,1,11,1.4,16,M,,M,,*6A
06/08/2014	20:09:47.704	$GPGGA,200948,2451.7109,N,08023.2939,W,1,11,1.4,16,M,,M,,*60
06/08/2014	20:09:48.765	$GPGGA,200949,2451.7114,N,08023.2936,W,1,11,1.4,16,M,,M,,*62
06/08/2014	20:09:49.723	$GPGGA,200950,2451.7120,N,08023.2934,W,1,11,1.4,16,M,,M,,*6F
06/08/2014	20:09:50.875	$GPGGA,200951,2451.7124,N,08023.2932,W,1,11,1.4,16,M,,M,,*6C
06/08/2014	20:09:51.773	$GPGGA,200952,2451.7131,N,08023.2930,W,1,11,1.4,16,M,,M,,*69
06/08/2014	20:09:52.783	$GPGGA,200953,2451.7131,N,08023.2930,W,1,11,1.4,16,M,,M,,*68
06/08/2014	20:09:53.895	$GPGGA,200954,2451.7142,N,08023.2925,W,1,11,1.4,16,M,,M,,*6F
06/08/2014	20:09:54.925	$GPGGA,200955,2451.7146,N,08023.2922,W,1,11,1.4,16,M,,M,,*6D
06/08/2014	20:09:55.843	$GPGGA,200956,2451.7152,N,08023.2920,W,1,11,1.4,16,M,,M,,*69
06/08/2014	20:09:56.945	$GPGGA,200957,2451.7152,N,08023.2920,W,1,11,1.4,16,M,,M,,*68
06/08/2014	20:09:57.955	$GPGGA,200958,2451.7163,N,08023.2916,W,1,11,1.4,16,M,,M,,*60
06/08/2014	20:09:58.995	$GPGGA,200959,2451.7168,N,08023.2913,W,1,11,1.4,16,M,,M,,*6F
06/08/2014	20:10:00.026	$GPGGA,201000,2451.7174,N,08023.2911,W,1,11,1.4,16,M,,M,,*64
06/08/2014	20:10:01.056	$GPGGA,201001,2451.7179,N,08023.2909,W,1,11,1.4,16,M,,M,,*61
06/08/2014	20:10:02.050	$GPGGA,201002,2451.7185,N,08023.2906,W,1,11,1.4,16,M,,M,,*6E
06/08/2014	20:10:03.075	$GPGGA,201003,2451.7189,N,08023.2904,W,1,11,1.4,16,M,,M,,*61
06/08/2014	20:10:04.083	$GPGGA,201004,2451.7196,N,08023.2901,W,1,11,1.4,16,M,,M,,*6D
06/08/2014	20:10:05.119	$GPGGA,201005,2451.7202,N,08023.2899,W,1,11,1.4,16,M,,M,,*62
06/08/2014	20:10:06.117	$GPGGA,201006,2451.7207,N,08023.2896,W,1,11,1.5,16,M,,M,,*6A
06/08/2014	20:10:07.135	$GPGGA,201007,2451.7213,N,08023.2894,W,1,10,1.5,16,M,,M,,*6D
06/08/2014	20:10:08.155	$GPGGA,201008,2451.7220,N,08023.2892,W,1,10,1.5,15,M,,M,,*67
06/08/2014	20:10:09.195	$GPGGA,201009,2451.7225,N,08023.2890,W,1,11,1.4,15,M,,M,,*61
06/08/2014	20:10:10.176	$GPGGA,201010,2451.7229,N,08023.2887,W,1,11,1.4,15,M,,M,,*63
06/08/2014	20:10:11.215	$GPGGA,201011,2451.7235,N,08023.2885,W,1,10,1.5,15,M,,M,,*6D
06/08/2014	20:10:12.235	$GPGGA,201012,2451.7240,N,08023.2883,W,1,10,1.4,15,M,,M,,*6B
06/08/2014	20:10:13.255	$GPGGA,201013,2451.7246,N,08023.2880,W,1,11,1.4,15,M,,M,,*6E
06/08/2014	20:10:14.245	$GPGGA,201014,2451.7251,N,08023.2877,W,1,11,1.4,15,M,,M,,*67
06/08/2014	20:10:15.300	$GPGGA,201015,2451.7258,N,08023.2875,W,1,11,1.4,15,M,,M,,*6D
06/08/2014	20:10:16.296	$GPGGA,201016,2451.7264,N,08023.2873,W,1,11,1.4,15,M,,M,,*67
06/08/2014	20:10:17.326	$GPGGA,201017,2451.7269,N,08023.2870,W,1,11,1.4,15,M,,M,,*68
06/08/2014	20:10:18.315	$GPGGA,201018,2451.7273,N,08023.2868,W,1,11,1.4,15,M,,M,,*65
06/08/2014	20:10:19.366	$GPGGA,201019,2451.7280,N,08023.2867,W,1,11,1.4,15,M,,M,,*67
06/08/2014	20:10:20.377	$GPGGA,201020,2451.7285,N,08023.2865,W,1,11,1.5,15,M,,M,,*6B
06/08/2014	20:10:21.402	$GPGGA,201021,2451.7289,N,08023.2863,W,1,10,1.5,15,M,,M,,*61
06/08/2014	20:10:22.396	$GPGGA,201022,2451.7294,N,08023.2862,W,1,10,1.5,15,M,,M,,*6F
06/08/2014	20:10:23.456	$GPGGA,201023,2451.7301,N,08023.2860,W,1,10,1.4,15,M,,M,,*60
06/08/2014	20:10:24.458	$GPGGA,201024,2451.7307,N,08023.2857,W,1,10,1.4,14,M,,M,,*64
06/08/2014	20:10:25.485	$GPGGA,201025,2451.7312,N,08023.2855,W,1,11,1.4,14,M,,M,,*62
06/08/2014	20:10:26.476	$GPGGA,201026,2451.7319,N,08023.2853,W,1,11,1.4,14,M,,M,,*6C
06/08/2014	20:10:27.475	$GPGGA,201027,2451.7323,N,08023.2851,W,1,11,1.4,14,M,,M,,*66
06/08/2014	20:10:28.525	$GPGGA,201028,2451.7330,N,08023.2849,W,1,11,1.4,14,M,,M,,*62
06/08/2014	20:10:29.546	$GPGGA,201029,2451.7336,N,08023.2847,W,1,11,1.4,14,M,,M,,*6B
06/08/2014	20:10:30.535	$GPGGA,201030,2451.7341,N,08023.2844,W,1,11,1.4,14,M,,M,,*60
06/08/2014	20:10:31.565	$GPGGA,201031,2451.7347,N,08023.2842,W,1,11,1.4,14,M,,M,,*61
06/08/2014	20:10:32.596	$GPGGA,201032,2451.7352,N,08023.2839,W,1,11,1.4,14,M,,M,,*6A
06/08/2014	20:10:33.637	$GPGGA,201033,2451.7358,N,08023.2837,W,1,11,1.4,14,M,,M,,*6F
06/08/2014	20:10:34.605	$GPGGA,201034,2451.7363,N,08023.2835,W,1,11,1.4,14,M,,M,,*62
06/08/2014	20:10:35.646	$GPGGA,201035,2451.7369,N,08023.2833,W,1,11,1.4,13,M,,M,,*68
06/08/2014	20:10:36.676	$GPGGA,201036,2451.7374,N,08023.2830,W,1,11,1.4,13,M,,M,,*64
06/08/2014	20:10:37.696	$GPGGA,201037,2451.7379,N,08023.2828,W,1,11,1.4,13,M,,M,,*61
06/08/2014	20:10:38.675	$GPGGA,201038,2451.7384,N,08023.2826,W,1,11,1.4,13,M,,M,,*62
06/08/2014	20:10:39.706	$GPGGA,201039,2451.7390,N,08023.2824,W,1,10,1.5,13,M,,M,,*64
06/08/2014	20:10:39.644	$GPGGA,201040,2451.7395,N,08023.2820,W,1,10,1.4,13,M,,M,,*6A
06/08/2014	20:10:40.541	$GPGGA,201041,2451.7401,N,08023.2818,W,1,11,1.4,13,M,,M,,*6B
06/08/2014	20:10:41.642	$GPGGA,201042,2451.7406,N,08023.2815,W,1,11,1.4,13,M,,M,,*62
06/08/2014	20:10:42.662	$GPGGA,201043,2451.7412,N,08023.2812,W,1,11,1.4,13,M,,M,,*61
06/08/2014	20:10:43.702	$GPGGA,201044,2451.7417,N,08023.2810,W,1,11,1.4,13,M,,M,,*61
06/08/2014	20:10:44.712	$GPGGA,201045,2451.7423,N,08023.2808,W,1,11,1.4,13,M,,M,,*6E
06/08/2014	20:10:45.722	$GPGGA,201046,2451.7428,N,08023.2806,W,1,11,1.4,13,M,,M,,*68
06/08/2014	20:10:46.650	$GPGGA,201047,2451.7434,N,08023.2803,W,1,11,1.4,13,M,,M,,*61
06/08/2014	20:10:47.772	$GPGGA,201048,2451.7439,N,08023.2801,W,1,11,1.4,13,M,,M,,*61
06/08/2014	20:10:48.782	$GPGGA,201049,2451.7445,N,08023.2799,W,1,11,1.4,13,M,,M,,*65
06/08/2014	20:10:49.792	$GPGGA,201050,2451.7450,N,08023.2796,W,1,11,1.4,13,M,,M,,*66
06/08/2014	20:10:50.843	$GPGGA,201051,2451.7456,N,08023.2794,W,1,11,1.4,13,M,,M,,*63
06/08/2014	20:10:51.853	$GPGGA,201052,2451.7460,N,08023.2791,W,1,11,1.4,12,M,,M,,*61
06/08/2014	20:10:52.852	$GPGGA,201053,2451.7467,N,08023.2789,W,1,11,1.4,12,M,,M,,*6E
06/08/2014	20:10:53.873	$GPGGA,201054,2451.7471,N,08023.2786,W,1,11,1.4,12,M,,M,,*61
06/08/2014	20:10:54.893	$GPGGA,201055,2451.7478,N,08023.2784,W,1,11,1.4,12,M,,M,,*6B
06/08/2014	20:10:56.974	$GPGGA,201057,2451.7488,N,08023.2780,W,1,11,1.4,12,M,,M,,*62
06/08/2014	20:10:57.937	$GPGGA,201058,2451.7493,N,08023.2777,W,1,11,1.4,12,M,,M,,*6F
06/08/2014	20:10:58.953	$GPGGA,201059,2451.7497,N,08023.2776,W,1,11,1.4,12,M,,M,,*6B
06/08/2014	20:11:00.002	$GPGGA,201100,2451.7504,N,08023.2773,W,1,11,1.4,12,M,,M,,*68
06/08/2014	20:11:01.033	$GPGGA,201101,2451.7509,N,08023.2771,W,1,11,1.4,12,M,,M,,*66
06/08/2014	20:11:02.002	$GPGGA,201102,2451.7514,N,08023.2769,W,1,11,1.4,12,M,,M,,*60
06/08/2014	20:11:03.022	$GPGGA,201103,2451.7520,N,08023.2766,W,1,10,1.5,12,M,,M,,*69
06/08/2014	20:11:04.069	$GPGGA,201104,2451.7525,N,08023.2764,W,1,10,1.4,12,M,,M,,*68
06/08/2014	20:11:05.062	$GPGGA,201105,2451.7531,N,08023.2762,W,1,11,1.4,12,M,,M,,*6B
06/08/2014	20:11:06.095	$GPGGA,201106,2451.7536,N,08023.2760,W,1,11,1.4,12,M,,M,,*6D
06/08/2014	20:11:07.102	$GPGGA,201107,2451.7542,N,08023.2757,W,1,11,1.4,12,M,,M,,*6B
06/08/2014	20:11:08.134	$GPGGA,201108,2451.7547,N,08023.2755,W,1,11,1.4,12,M,,M,,*63
06/08/2014	20:11:09.132	$GPGGA,201109,2451.7554,N,08023.2753,W,1,11,1.4,12,M,,M,,*66
06/08/2014	20:11:10.162	$GPGGA,201110,2451.7558,N,08023.2751,W,1,11,1.4,12,M,,M,,*60
06/08/2014	20:11:11.162	$GPGGA,201111,2451.7564,N,08023.2749,W,1,11,1.4,12,M,,M,,*67
06/08/2014	20:11:12.213	$GPGGA,201112,2451.7569,N,08023.2748,W,1,11,1.4,12,M,,M,,*68
06/08/2014	20:11:13.202	$GPGGA,201113,2451.7575,N,08023.2745,W,1,11,1.4,12,M,,M,,*69
06/08/2014	20:11:14.233	$GPGGA,201114,2451.7580,N,08023.2744,W,1,11,1.4,12,M,,M,,*65
06/08/2014	20:11:15.263	$GPGGA,201115,2451.7586,N,08023.2741,W,1,11,1.4,12,M,,M,,*67
06/08/2014	20:11:16.284	$GPGGA,201116,2451.7592,N,08023.2739,W,1,11,1.4,12,M,,M,,*6E
06/08/2014	20:11:17.272	$GPGGA,201117,2451.7598,N,08023.2737,W,1,11,1.4,12,M,,M,,*6B
06/08/2014	20:11:18.312	$GPGGA,201118,2451.7603,N,08023.2735,W,1,11,1.4,12,M,,M,,*67
06/08/2014	20:11:19.312	$GPGGA,201119,2451.7608,N,08023.2733,W,1,11,1.4,12,M,,M,,*6B
06/08/2014	20:11:20.352	$GPGGA,201120,2451.7615,N,08023.2731,W,1,11,1.4,12,M,,M,,*6F
06/08/2014	20:11:21.485	$GPGGA,201121,2451.7619,N,08023.2729,W,1,11,1.4,12,M,,M,,*6B
06/08/2014	20:11:22.372	$GPGGA,201122,2451.7626,N,08023.2726,W,1,11,1.4,12,M,,M,,*6B
06/08/2014	20:11:23.494	$GPGGA,201123,2451.7630,N,08023.2724,W,1,11,1.4,12,M,,M,,*6F
06/08/2014	20:11:24.433	$GPGGA,201124,2451.7637,N,08023.2722,W,1,11,1.4,12,M,,M,,*69
06/08/2014	20:11:25.534	$GPGGA,201125,2451.7641,N,08023.2720,W,1,11,1.4,11,M,,M,,*68
06/08/2014	20:11:26.432	$GPGGA,201126,2451.7648,N,08023.2718,W,1,11,1.4,11,M,,M,,*69
06/08/2014	20:11:27.554	$GPGGA,201127,2451.7652,N,08023.2716,W,1,11,1.4,11,M,,M,,*6D
06/08/2014	20:11:28.493	$GPGGA,201128,2451.7659,N,08023.2713,W,1,11,1.4,11,M,,M,,*6C
06/08/2014	20:11:29.625	$GPGGA,201129,2451.7665,N,08023.2711,W,1,11,1.4,11,M,,M,,*60
06/08/2014	20:11:30.625	$GPGGA,201130,2451.7670,N,08023.2709,W,1,11,1.4,11,M,,M,,*65
06/08/2014	20:11:31.645	$GPGGA,201131,2451.7674,N,08023.2707,W,1,11,1.4,11,M,,M,,*6E
06/08/2014	20:11:32.583	$GPGGA,201132,2451.7681,N,08023.2704,W,1,11,1.4,11,M,,M,,*64
06/08/2014	20:11:33.573	$GPGGA,201133,2451.7687,N,08023.2703,W,1,11,1.4,11,M,,M,,*64
06/08/2014	20:11:34.685	$GPGGA,201134,2451.7691,N,08023.2701,W,1,11,1.4,11,M,,M,,*66
06/08/2014	20:11:35.704	$GPGGA,201135,2451.7697,N,08023.2698,W,1,11,1.4,11,M,,M,,*60
06/08/2014	20:11:36.734	$GPGGA,201136,2451.7702,N,08023.2696,W,1,11,1.4,11,M,,M,,*60
06/08/2014	20:11:37.734	$GPGGA,201137,2451.7708,N,08023.2694,W,1,11,1.4,11,M,,M,,*69
06/08/2014	20:11:38.764	$GPGGA,201138,2451.7713,N,08023.2691,W,1,11,1.4,11,M,,M,,*69
06/08/2014	20:11:38.589	$GPGGA,201139,2451.7719,N,08023.2689,W,1,11,1.4,11,M,,M,,*6B
06/08/2014	20:11:39.600	$GPGGA,201140,2451.7724,N,08023.2687,W,1,11,1.4,11,M,,M,,*65
06/08/2014	20:11:40.620	$GPGGA,201141,2451.7728,N,08023.2684,W,1,11,1.4,11,M,,M,,*6B
06/08/2014	20:11:41.630	$GPGGA,201142,2451.7735,N,08023.2682,W,1,11,1.4,11,M,,M,,*62
06/08/2014	20:11:42.650	$GPGGA,201143,2451.7739,N,08023.2680,W,1,11,1.4,11,M,,M,,*6D
