Software Version Number: 1	Data File Format Number: 1	Build Version Number: 1	Error Count Since VI Started: 0	Manufacturer: Raytheon	 Model Number: RayMarine 120	 S/N: 	 Cal Date: 	 Wind Direction Offset: 0.00	 Slope (M)1: 0.00	 Offset (B)1: 0.00	 Slope (M)2: 0.00	 Offset (B)2: 0.00	 Slope (M)3: 0.00	 Offset (B)3: 0.00	 Slope (M)4: 0.00	 Offset (B)4: 0.00	 Slope (M)5: 0.00	 Offset (B)5: 0.00	 Slope (M)6: 0.00	 Offset (B)6: 0.00
Computer Date	Computer Time	GGA String
06/06/2014	13:00:00.520	$GPGGA,130001,2421.7269,N,08132.6814,W,1,9,1.5,14,M,,M,,*57
06/06/2014	13:00:01.613	$GPGGA,130002,2421.7251,N,08132.6828,W,1,9,1.5,14,M,,M,,*50
06/06/2014	13:00:02.605	$GPGGA,130003,2421.7233,N,08132.6842,W,1,9,1.5,14,M,,M,,*59
06/06/2014	13:00:03.528	$GPGGA,130004,2421.7216,N,08132.6855,W,1,9,1.5,14,M,,M,,*5F
06/06/2014	13:00:04.651	$GPGGA,130005,2421.7198,N,08132.6868,W,1,9,1.5,14,M,,M,,*55
06/06/2014	13:00:05.604	$GPGGA,130006,2421.7180,N,08132.6882,W,1,9,1.5,14,M,,M,,*5B
06/06/2014	13:00:06.626	$GPGGA,130007,2421.7164,N,08132.6895,W,1,9,1.5,14,M,,M,,*56
06/06/2014	13:00:07.629	$GPGGA,130008,2421.7146,N,08132.6909,W,1,9,1.5,14,M,,M,,*5D
06/06/2014	13:00:08.632	$GPGGA,130009,2421.7128,N,08132.6923,W,1,8,1.6,14,M,,M,,*5E
06/06/2014	13:00:09.614	$GPGGA,130010,2421.7110,N,08132.6936,W,1,8,1.5,14,M,,M,,*5A
06/06/2014	13:00:10.637	$GPGGA,130011,2421.7092,N,08132.6948,W,1,9,1.5,14,M,,M,,*58
06/06/2014	13:00:11.630	$GPGGA,130012,2421.7074,N,08132.6962,W,1,9,1.5,14,M,,M,,*5B
06/06/2014	13:00:12.622	$GPGGA,130013,2421.7056,N,08132.6974,W,1,9,1.5,14,M,,M,,*5D
06/06/2014	13:00:13.625	$GPGGA,130014,2421.7038,N,08132.6988,W,1,9,1.5,14,M,,M,,*51
06/06/2014	13:00:14.638	$GPGGA,130015,2421.7020,N,08132.7001,W,1,9,1.5,14,M,,M,,*50
06/06/2014	13:00:15.630	$GPGGA,130016,2421.7000,N,08132.7014,W,1,9,1.5,15,M,,M,,*54
06/06/2014	13:00:16.614	$GPGGA,130017,2421.6982,N,08132.7027,W,1,9,1.5,15,M,,M,,*57
06/06/2014	13:00:17.615	$GPGGA,130018,2421.6963,N,08132.7041,W,1,9,1.5,15,M,,M,,*57
06/06/2014	13:00:18.638	$GPGGA,130019,2421.6944,N,08132.7055,W,1,9,1.5,15,M,,M,,*56
06/06/2014	13:00:19.630	$GPGGA,130020,2421.6926,N,08132.7066,W,1,9,1.5,15,M,,M,,*58
06/06/2014	13:00:20.653	$GPGGA,130021,2421.6908,N,08132.7081,W,1,9,1.5,15,M,,M,,*5C
06/06/2014	13:00:21.616	$GPGGA,130022,2421.6888,N,08132.7093,W,1,9,1.5,15,M,,M,,*55
06/06/2014	13:00:22.648	$GPGGA,130023,2421.6869,N,08132.7106,W,1,9,1.5,15,M,,M,,*56
06/06/2014	13:00:23.631	$GPGGA,130024,2421.6851,N,08132.7118,W,1,9,1.5,15,M,,M,,*55
06/06/2014	13:00:24.614	$GPGGA,130025,2421.6832,N,08132.7131,W,1,9,1.5,15,M,,M,,*5A
06/06/2014	13:00:25.626	$GPGGA,130026,2421.6814,N,08132.7143,W,1,9,1.5,14,M,,M,,*59
06/06/2014	13:00:26.659	$GPGGA,130027,2421.6796,N,08132.7155,W,1,9,1.5,14,M,,M,,*5A
06/06/2014	13:00:27.642	$GPGGA,130028,2421.6777,N,08132.7168,W,1,9,1.5,14,M,,M,,*54
06/06/2014	13:00:28.614	$GPGGA,130029,2421.6758,N,08132.7182,W,1,9,1.5,14,M,,M,,*5C
06/06/2014	13:00:29.637	$GPGGA,130030,2421.6739,N,08132.7193,W,1,9,1.5,14,M,,M,,*53
06/06/2014	13:00:30.611	$GPGGA,130031,2421.6721,N,08132.7205,W,1,9,1.5,14,M,,M,,*57
06/06/2014	13:00:31.643	$GPGGA,130032,2421.6702,N,08132.7218,W,1,9,1.5,14,M,,M,,*59
06/06/2014	13:00:32.646	$GPGGA,130033,2421.6684,N,08132.7232,W,1,9,1.5,14,M,,M,,*5F
06/06/2014	13:00:33.638	$GPGGA,130034,2421.6664,N,08132.7244,W,1,9,1.5,14,M,,M,,*57
06/06/2014	13:00:34.631	$GPGGA,130035,2421.6645,N,08132.7256,W,1,9,1.5,14,M,,M,,*56
06/06/2014	13:00:35.642	$GPGGA,130036,2421.6626,N,08132.7269,W,1,9,1.5,14,M,,M,,*5C
06/06/2014	13:00:36.485	$GPGGA,130037,2421.6608,N,08132.7283,W,1,9,1.5,14,M,,M,,*55
06/06/2014	13:00:37.468	$GPGGA,130038,2421.6588,N,08132.7294,W,1,9,1.5,14,M,,M,,*57
06/06/2014	13:00:38.480	$GPGGA,130039,2421.6570,N,08132.7308,W,1,9,1.5,14,M,,M,,*55
06/06/2014	13:00:39.473	$GPGGA,130040,2421.6552,N,08132.7320,W,1,9,1.5,14,M,,M,,*51
06/06/2014	13:00:40.486	$GPGGA,130041,2421.6534,N,08132.7334,W,1,9,1.5,14,M,,M,,*55
06/06/2014	13:00:41.478	$GPGGA,130042,2421.6516,N,08132.7345,W,1,9,1.5,14,M,,M,,*50
06/06/2014	13:00:42.481	$GPGGA,130043,2421.6497,N,08132.7359,W,1,9,1.5,14,M,,M,,*54
06/06/2014	13:00:43.484	$GPGGA,130044,2421.6479,N,08132.7373,W,1,9,1.5,14,M,,M,,*5B
06/06/2014	13:00:44.487	$GPGGA,130045,2421.6461,N,08132.7385,W,1,9,1.5,14,M,,M,,*5A
06/06/2014	13:00:45.479	$GPGGA,130046,2421.6442,N,08132.7397,W,1,9,1.6,14,M,,M,,*58
06/06/2014	13:00:46.472	$GPGGA,130047,2421.6424,N,08132.7410,W,1,9,1.5,14,M,,M,,*52
06/06/2014	13:00:47.605	$GPGGA,130048,2421.6406,N,08132.7424,W,1,9,1.5,14,M,,M,,*5A
06/06/2014	13:00:48.568	$GPGGA,130049,2421.6388,N,08132.7438,W,1,9,1.5,14,M,,M,,*57
06/06/2014	13:00:49.570	$GPGGA,130050,2421.6370,N,08132.7449,W,1,9,1.5,14,M,,M,,*5E
06/06/2014	13:00:50.593	$GPGGA,130051,2421.6352,N,08132.7464,W,1,9,1.5,14,M,,M,,*50
06/06/2014	13:00:51.586	$GPGGA,130052,2421.6335,N,08132.7476,W,1,9,1.5,14,M,,M,,*51
06/06/2014	13:00:52.597	$GPGGA,130053,2421.6317,N,08132.7489,W,1,9,1.5,14,M,,M,,*50
06/06/2014	13:00:53.580	$GPGGA,130054,2421.6299,N,08132.7504,W,1,9,1.5,14,M,,M,,*54
06/06/2014	13:00:54.603	$GPGGA,130055,2421.6283,N,08132.7518,W,1,9,1.5,14,M,,M,,*53
06/06/2014	13:00:55.589	$GPGGA,130056,2421.6265,N,08132.7530,W,1,9,1.5,14,M,,M,,*52
06/06/2014	13:00:56.608	$GPGGA,130057,2421.6247,N,08132.7544,W,1,8,1.6,14,M,,M,,*52
06/06/2014	13:00:57.581	$GPGGA,130058,2421.6230,N,08132.7558,W,1,8,1.5,14,M,,M,,*53
06/06/2014	13:00:58.594	$GPGGA,130059,2421.6212,N,08132.7572,W,1,9,1.5,14,M,,M,,*5B
06/06/2014	13:00:59.596	$GPGGA,130100,2421.6196,N,08132.7585,W,1,9,1.5,14,M,,M,,*51
06/06/2014	13:01:00.591	$GPGGA,130101,2421.6178,N,08132.7599,W,1,9,1.5,14,M,,M,,*5D
06/06/2014	13:01:01.582	$GPGGA,130102,2421.6160,N,08132.7613,W,1,9,1.5,14,M,,M,,*56
06/06/2014	13:01:02.604	$GPGGA,130103,2421.6142,N,08132.7627,W,1,9,1.5,14,M,,M,,*50
06/06/2014	13:01:03.587	$GPGGA,130104,2421.6125,N,08132.7641,W,1,9,1.5,14,M,,M,,*56
06/06/2014	13:01:04.600	$GPGGA,130105,2421.6107,N,08132.7655,W,1,9,1.5,14,M,,M,,*52
06/06/2014	13:01:05.572	$GPGGA,130106,2421.6089,N,08132.7670,W,1,9,1.5,14,M,,M,,*51
06/06/2014	13:01:06.606	$GPGGA,130107,2421.6073,N,08132.7682,W,1,9,1.5,14,M,,M,,*58
06/06/2014	13:01:07.598	$GPGGA,130108,2421.6055,N,08132.7697,W,1,9,1.5,14,M,,M,,*57
06/06/2014	13:01:08.613	$GPGGA,130109,2421.6037,N,08132.7711,W,1,9,1.5,14,M,,M,,*5D
06/06/2014	13:01:09.583	$GPGGA,130110,2421.6019,N,08132.7725,W,1,9,1.5,14,M,,M,,*5E
06/06/2014	13:01:10.585	$GPGGA,130111,2421.6001,N,08132.7739,W,1,9,1.5,14,M,,M,,*5B
06/06/2014	13:01:11.608	$GPGGA,130112,2421.5981,N,08132.7753,W,1,9,1.5,14,M,,M,,*56
06/06/2014	13:01:12.620	$GPGGA,130113,2421.5965,N,08132.7767,W,1,8,1.6,14,M,,M,,*58
06/06/2014	13:01:13.583	$GPGGA,130114,2421.5947,N,08132.7782,W,1,8,1.5,14,M,,M,,*57
06/06/2014	13:01:14.576	$GPGGA,130115,2421.5928,N,08132.7794,W,1,8,1.6,14,M,,M,,*5B
06/06/2014	13:01:15.608	$GPGGA,130116,2421.5910,N,08132.7807,W,1,8,1.5,14,M,,M,,*55
06/06/2014	13:01:16.621	$GPGGA,130117,2421.5892,N,08132.7821,W,1,9,1.5,14,M,,M,,*5A
06/06/2014	13:01:17.594	$GPGGA,130118,2421.5874,N,08132.7833,W,1,9,1.5,14,M,,M,,*5E
06/06/2014	13:01:18.596	$GPGGA,130119,2421.5855,N,08132.7847,W,1,9,1.5,14,M,,M,,*5F
06/06/2014	13:01:19.609	$GPGGA,130120,2421.5837,N,08132.7861,W,1,9,1.5,14,M,,M,,*55
06/06/2014	13:01:20.582	$GPGGA,130121,2421.5818,N,08132.7874,W,1,8,1.6,14,M,,M,,*5F
06/06/2014	13:01:21.685	$GPGGA,130122,2421.5799,N,08132.7888,W,1,8,1.5,14,M,,M,,*5A
06/06/2014	13:01:22.697	$GPGGA,130123,2421.5782,N,08132.7902,W,1,9,1.5,14,M,,M,,*53
06/06/2014	13:01:23.600	$GPGGA,130124,2421.5763,N,08132.7915,W,1,9,1.8,14,M,,M,,*50
06/06/2014	13:01:24.604	$GPGGA,130125,2421.5744,N,08132.7930,W,1,9,1.5,14,M,,M,,*5E
06/06/2014	13:01:25.605	$GPGGA,130126,2421.5726,N,08132.7944,W,1,9,1.5,14,M,,M,,*5A
06/06/2014	13:01:26.608	$GPGGA,130127,2421.5708,N,08132.7956,W,1,9,1.5,14,M,,M,,*54
06/06/2014	13:01:27.600	$GPGGA,130128,2421.5688,N,08132.7970,W,1,9,1.8,14,M,,M,,*5B
06/06/2014	13:01:28.602	$GPGGA,130129,2421.5668,N,08132.7982,W,1,9,1.5,14,M,,M,,*54
06/06/2014	13:01:29.685	$GPGGA,130130,2421.5650,N,08132.7995,W,1,9,1.5,14,M,,M,,*51
06/06/2014	13:01:30.608	$GPGGA,130131,2421.5631,N,08132.8009,W,1,9,1.5,14,M,,M,,*54
06/06/2014	13:01:31.701	$GPGGA,130132,2421.5613,N,08132.8021,W,1,9,1.5,14,M,,M,,*5D
06/06/2014	13:01:32.703	$GPGGA,130133,2421.5594,N,08132.8035,W,1,9,1.5,14,M,,M,,*55
06/06/2014	13:01:33.696	$GPGGA,130134,2421.5575,N,08132.8047,W,1,9,1.5,14,M,,M,,*58
06/06/2014	13:01:34.609	$GPGGA,130135,2421.5556,N,08132.8060,W,1,9,1.5,14,M,,M,,*5D
06/06/2014	13:01:35.567	$GPGGA,130136,2421.5537,N,08132.8074,W,1,9,1.5,14,M,,M,,*5C
06/06/2014	13:01:36.443	$GPGGA,130137,2421.5519,N,08132.8086,W,1,9,1.5,14,M,,M,,*5C
06/06/2014	13:01:37.536	$GPGGA,130138,2421.5500,N,08132.8098,W,1,9,1.8,14,M,,M,,*59
06/06/2014	13:01:38.559	$GPGGA,130139,2421.5481,N,08132.8112,W,1,9,1.5,14,M,,M,,*5E
06/06/2014	13:01:39.551	$GPGGA,130140,2421.5461,N,08132.8128,W,1,9,1.5,15,M,,M,,*56
06/06/2014	13:01:40.534	$GPGGA,130141,2421.5442,N,08132.8141,W,1,9,1.5,15,M,,M,,*59
06/06/2014	13:01:41.557	$GPGGA,130142,2421.5423,N,08132.8154,W,1,9,1.5,15,M,,M,,*59
06/06/2014	13:01:42.529	$GPGGA,130143,2421.5403,N,08132.8168,W,1,9,1.5,15,M,,M,,*55
06/06/2014	13:01:43.552	$GPGGA,130144,2421.5387,N,08132.8180,W,1,9,1.5,15,M,,M,,*5F
06/06/2014	13:01:44.535	$GPGGA,130145,2421.5368,N,08132.8193,W,1,8,1.8,15,M,,M,,*51
06/06/2014	13:01:45.546	$GPGGA,130146,2421.5349,N,08132.8205,W,1,8,1.8,15,M,,M,,*5D
06/06/2014	13:01:46.539	$GPGGA,130147,2421.5330,N,08132.8219,W,1,9,1.5,15,M,,M,,*53
06/06/2014	13:01:48.936	$GPGGA,130149,2421.5294,N,08132.8244,W,1,9,1.5,15,M,,M,,*5A
06/06/2014	13:01:49.547	$GPGGA,130150,2421.5276,N,08132.8258,W,1,9,1.5,15,M,,M,,*53
06/06/2014	13:01:50.560	$GPGGA,130151,2421.5258,N,08132.8270,W,1,9,1.5,15,M,,M,,*54
06/06/2014	13:01:51.563	$GPGGA,130152,2421.5240,N,08132.8284,W,1,9,1.6,15,M,,M,,*56
06/06/2014	13:01:52.545	$GPGGA,130153,2421.5221,N,08132.8296,W,1,9,1.5,15,M,,M,,*50
06/06/2014	13:01:53.548	$GPGGA,130154,2421.5203,N,08132.8309,W,1,9,1.5,15,M,,M,,*50
06/06/2014	13:01:54.541	$GPGGA,130155,2421.5185,N,08132.8321,W,1,9,1.5,15,M,,M,,*56
06/06/2014	13:01:55.563	$GPGGA,130156,2421.5167,N,08132.8335,W,1,9,1.5,15,M,,M,,*5C
06/06/2014	13:01:56.576	$GPGGA,130157,2421.5148,N,08132.8349,W,1,8,1.6,15,M,,M,,*59
06/06/2014	13:01:57.549	$GPGGA,130158,2421.5131,N,08132.8364,W,1,8,1.6,15,M,,M,,*57
06/06/2014	13:01:58.561	$GPGGA,130159,2421.5113,N,08132.8378,W,1,9,1.5,15,M,,M,,*59
06/06/2014	13:01:59.554	$GPGGA,130200,2421.5096,N,08132.8393,W,1,9,2.4,15,M,,M,,*5D
06/06/2014	13:02:00.537	$GPGGA,130201,2421.5080,N,08132.8407,W,1,9,1.5,15,M,,M,,*53
06/06/2014	13:02:01.550	$GPGGA,130202,2421.5063,N,08132.8421,W,1,9,1.7,15,M,,M,,*5B
06/06/2014	13:02:02.541	$GPGGA,130203,2421.5048,N,08132.8434,W,1,8,1.7,15,M,,M,,*56
06/06/2014	13:02:03.564	$GPGGA,130204,2421.5031,N,08132.8448,W,1,8,1.7,15,M,,M,,*54
06/06/2014	13:02:04.547	$GPGGA,130205,2421.5014,N,08132.8461,W,1,8,1.7,15,M,,M,,*59
06/06/2014	13:02:05.559	$GPGGA,130206,2421.4996,N,08132.8475,W,1,8,1.5,15,M,,M,,*5F
06/06/2014	13:02:06.572	$GPGGA,130207,2421.4980,N,08132.8488,W,1,8,1.6,15,M,,M,,*58
06/06/2014	13:02:07.565	$GPGGA,130208,2421.4964,N,08132.8502,W,1,8,1.6,15,M,,M,,*5E
06/06/2014	13:02:08.668	$GPGGA,130209,2421.4946,N,08132.8516,W,1,9,1.5,15,M,,M,,*58
06/06/2014	13:02:09.560	$GPGGA,130210,2421.4928,N,08132.8530,W,1,9,1.5,15,M,,M,,*5C
06/06/2014	13:02:10.573	$GPGGA,130211,2421.4910,N,08132.8546,W,1,9,1.5,15,M,,M,,*57
06/06/2014	13:02:11.566	$GPGGA,130212,2421.4892,N,08132.8562,W,1,9,1.7,15,M,,M,,*5B
06/06/2014	13:02:12.689	$GPGGA,130213,2421.4874,N,08132.8576,W,1,8,1.7,16,M,,M,,*55
06/06/2014	13:02:13.552	$GPGGA,130214,2421.4855,N,08132.8589,W,1,8,1.7,16,M,,M,,*51
06/06/2014	13:02:14.554	$GPGGA,130215,2421.4838,N,08132.8605,W,1,9,1.5,16,M,,M,,*5F
06/06/2014	13:02:15.576	$GPGGA,130216,2421.4819,N,08132.8620,W,1,9,1.5,16,M,,M,,*58
06/06/2014	13:02:16.659	$GPGGA,130217,2421.4800,N,08132.8632,W,1,8,1.6,16,M,,M,,*50
06/06/2014	13:02:17.662	$GPGGA,130218,2421.4782,N,08132.8645,W,1,8,1.5,16,M,,M,,*59
06/06/2014	13:02:18.564	$GPGGA,130219,2421.4764,N,08132.8660,W,1,9,1.5,16,M,,M,,*56
06/06/2014	13:02:19.686	$GPGGA,130220,2421.4747,N,08132.8672,W,1,9,1.5,16,M,,M,,*5E
06/06/2014	13:02:20.559	$GPGGA,130221,2421.4729,N,08132.8688,W,1,9,1.5,16,M,,M,,*52
06/06/2014	13:02:21.672	$GPGGA,130222,2421.4711,N,08132.8700,W,1,9,1.6,16,M,,M,,*58
06/06/2014	13:02:22.684	$GPGGA,130223,2421.4693,N,08132.8714,W,1,8,1.5,16,M,,M,,*55
06/06/2014	13:02:23.677	$GPGGA,130224,2421.4675,N,08132.8728,W,1,8,1.5,16,M,,M,,*55
06/06/2014	13:02:24.680	$GPGGA,130225,2421.4657,N,08132.8740,W,1,9,1.5,16,M,,M,,*5B
06/06/2014	13:02:25.662	$GPGGA,130226,2421.4639,N,08132.8754,W,1,9,1.5,16,M,,M,,*55
06/06/2014	13:02:26.695	$GPGGA,130227,2421.4619,N,08132.8765,W,1,9,1.5,16,M,,M,,*54
06/06/2014	13:02:27.668	$GPGGA,130228,2421.4600,N,08132.8777,W,1,9,1.5,16,M,,M,,*50
06/06/2014	13:02:28.651	$GPGGA,130229,2421.4582,N,08132.8790,W,1,9,1.5,16,M,,M,,*51
06/06/2014	13:02:29.653	$GPGGA,130230,2421.4563,N,08132.8804,W,1,9,1.5,16,M,,M,,*54
06/06/2014	13:02:30.676	$GPGGA,130231,2421.4543,N,08132.8815,W,1,9,1.5,16,M,,M,,*57
06/06/2014	13:02:31.679	$GPGGA,130232,2421.4525,N,08132.8827,W,1,9,1.5,17,M,,M,,*54
06/06/2014	13:02:32.681	$GPGGA,130233,2421.4506,N,08132.8840,W,1,9,1.5,17,M,,M,,*55
06/06/2014	13:02:33.678	$GPGGA,130234,2421.4487,N,08132.8852,W,1,9,1.5,17,M,,M,,*59
06/06/2014	13:02:34.687	$GPGGA,130235,2421.4469,N,08132.8865,W,1,9,1.5,17,M,,M,,*5C
06/06/2014	13:02:35.689	$GPGGA,130236,2421.4451,N,08132.8878,W,1,9,1.5,17,M,,M,,*58
06/06/2014	13:02:36.522	$GPGGA,130237,2421.4433,N,08132.8891,W,1,9,1.5,17,M,,M,,*5A
06/06/2014	13:02:37.505	$GPGGA,130238,2421.4413,N,08132.8903,W,1,9,1.5,17,M,,M,,*5D
06/06/2014	13:02:38.537	$GPGGA,130239,2421.4394,N,08132.8916,W,1,9,1.5,17,M,,M,,*50
06/06/2014	13:02:39.529	$GPGGA,130240,2421.4375,N,08132.8928,W,1,9,1.5,17,M,,M,,*5C
06/06/2014	13:02:40.533	$GPGGA,130241,2421.4357,N,08132.8941,W,1,9,1.5,17,M,,M,,*52
06/06/2014	13:02:41.515	$GPGGA,130242,2421.4337,N,08132.8954,W,1,9,1.5,17,M,,M,,*53
06/06/2014	13:02:42.517	$GPGGA,130243,2421.4318,N,08132.8967,W,1,9,1.7,17,M,,M,,*5D
06/06/2014	13:02:43.530	$GPGGA,130244,2421.4299,N,08132.8979,W,1,9,1.5,17,M,,M,,*5F
06/06/2014	13:02:44.533	$GPGGA,130245,2421.4281,N,08132.8992,W,1,9,1.5,17,M,,M,,*52
06/06/2014	13:02:45.515	$GPGGA,130246,2421.4261,N,08132.9006,W,1,9,1.5,17,M,,M,,*5A
06/06/2014	13:02:46.548	$GPGGA,130247,2421.4242,N,08132.9017,W,1,9,1.5,17,M,,M,,*5A
06/06/2014	13:02:47.531	$GPGGA,130248,2421.4223,N,08132.9030,W,1,9,1.6,17,M,,M,,*54
06/06/2014	13:02:48.544	$GPGGA,130249,2421.4204,N,08132.9043,W,1,8,1.5,17,M,,M,,*56
06/06/2014	13:02:49.516	$GPGGA,130250,2421.4185,N,08132.9055,W,1,8,1.6,17,M,,M,,*50
06/06/2014	13:02:50.539	$GPGGA,130251,2421.4167,N,08132.9068,W,1,8,1.5,17,M,,M,,*50
06/06/2014	13:02:51.532	$GPGGA,130252,2421.4149,N,08132.9082,W,1,8,1.5,17,M,,M,,*5B
06/06/2014	13:02:52.534	$GPGGA,130253,2421.4131,N,08132.9094,W,1,9,1.5,17,M,,M,,*53
06/06/2014	13:02:53.517	$GPGGA,130254,2421.4113,N,08132.9108,W,1,9,1.5,17,M,,M,,*50
06/06/2014	13:02:54.521	$GPGGA,130255,2421.4095,N,08132.9120,W,1,9,1.5,17,M,,M,,*54
06/06/2014	13:02:55.642	$GPGGA,130256,2421.4077,N,08132.9133,W,1,9,1.5,17,M,,M,,*59
06/06/2014	13:02:56.544	$GPGGA,130257,2421.4058,N,08132.9147,W,1,9,1.6,17,M,,M,,*55
06/06/2014	13:02:57.527	$GPGGA,130258,2421.4040,N,08132.9159,W,1,9,1.6,17,M,,M,,*5C
06/06/2014	13:02:58.539	$GPGGA,130259,2421.4022,N,08132.9173,W,1,8,1.5,17,M,,M,,*53
06/06/2014	13:02:59.552	$GPGGA,130300,2421.4004,N,08132.9187,W,1,8,1.5,17,M,,M,,*51
06/06/2014	13:03:00.525	$GPGGA,130301,2421.3986,N,08132.9202,W,1,9,1.7,17,M,,M,,*59
06/06/2014	13:03:01.527	$GPGGA,130302,2421.3968,N,08132.9216,W,1,9,1.7,17,M,,M,,*5F
06/06/2014	13:03:02.620	$GPGGA,130303,2421.3949,N,08132.9230,W,1,8,2.1,17,M,,M,,*5D
06/06/2014	13:03:03.633	$GPGGA,130304,2421.3932,N,08132.9242,W,1,8,1.7,17,M,,M,,*56
06/06/2014	13:03:04.546	$GPGGA,130305,2421.3913,N,08132.9253,W,1,8,1.7,17,M,,M,,*54
06/06/2014	13:03:05.538	$GPGGA,130306,2421.3895,N,08132.9267,W,1,8,1.5,17,M,,M,,*5D
06/06/2014	13:03:06.641	$GPGGA,130307,2421.3877,N,08132.9281,W,1,9,1.5,17,M,,M,,*59
06/06/2014	13:03:07.644	$GPGGA,130308,2421.3859,N,08132.9293,W,1,9,1.7,17,M,,M,,*5B
06/06/2014	13:03:08.657	$GPGGA,130309,2421.3840,N,08132.9307,W,1,8,1.7,17,M,,M,,*5F
06/06/2014	13:03:09.539	$GPGGA,130310,2421.3822,N,08132.9321,W,1,8,1.7,17,M,,M,,*57
06/06/2014	13:03:10.632	$GPGGA,130311,2421.3805,N,08132.9335,W,1,8,1.7,17,M,,M,,*56
06/06/2014	13:03:11.655	$GPGGA,130312,2421.3786,N,08132.9350,W,1,8,1.7,17,M,,M,,*52
06/06/2014	13:03:12.636	$GPGGA,130313,2421.3769,N,08132.9361,W,1,8,1.5,17,M,,M,,*52
06/06/2014	13:03:13.629	$GPGGA,130314,2421.3750,N,08132.9379,W,1,8,1.5,17,M,,M,,*56
06/06/2014	13:03:14.632	$GPGGA,130315,2421.3733,N,08132.9394,W,1,9,1.5,17,M,,M,,*50
06/06/2014	13:03:15.644	$GPGGA,130316,2421.3717,N,08132.9409,W,1,9,1.5,17,M,,M,,*56
06/06/2014	13:03:16.637	$GPGGA,130317,2421.3701,N,08132.9423,W,1,9,1.5,17,M,,M,,*58
06/06/2014	13:03:17.621	$GPGGA,130318,2421.3687,N,08132.9437,W,1,9,1.5,17,M,,M,,*5D
06/06/2014	13:03:18.623	$GPGGA,130319,2421.3674,N,08132.9452,W,1,9,1.5,17,M,,M,,*53
06/06/2014	13:03:19.645	$GPGGA,130320,2421.3660,N,08132.9466,W,1,9,1.5,17,M,,M,,*5B
06/06/2014	13:03:20.648	$GPGGA,130321,2421.3646,N,08132.9481,W,1,9,1.5,17,M,,M,,*57
06/06/2014	13:03:21.631	$GPGGA,130322,2421.3635,N,08132.9496,W,1,9,1.5,17,M,,M,,*56
06/06/2014	13:03:22.643	$GPGGA,130323,2421.3624,N,08132.9512,W,1,9,1.5,17,M,,M,,*5A
06/06/2014	13:03:23.636	$GPGGA,130324,2421.3614,N,08132.9527,W,1,9,1.5,17,M,,M,,*58
06/06/2014	13:03:24.659	$GPGGA,130325,2421.3606,N,08132.9542,W,1,9,1.5,17,M,,M,,*59
06/06/2014	13:03:25.631	$GPGGA,130326,2421.3598,N,08132.9557,W,1,9,1.5,17,M,,M,,*5A
06/06/2014	13:03:26.655	$GPGGA,130327,2421.3591,N,08132.9574,W,1,9,1.5,17,M,,M,,*53
06/06/2014	13:03:27.647	$GPGGA,130328,2421.3584,N,08132.9592,W,1,9,1.5,17,M,,M,,*50
06/06/2014	13:03:28.660	$GPGGA,130329,2421.3577,N,08132.9608,W,1,9,1.5,17,M,,M,,*5D
06/06/2014	13:03:29.641	$GPGGA,130330,2421.3573,N,08132.9625,W,1,9,1.5,17,M,,M,,*5E
06/06/2014	13:03:30.664	$GPGGA,130331,2421.3568,N,08132.9642,W,1,9,1.5,17,M,,M,,*54
06/06/2014	13:03:31.637	$GPGGA,130332,2421.3566,N,08132.9660,W,1,9,1.5,17,M,,M,,*59
06/06/2014	13:03:32.629	$GPGGA,130333,2421.3563,N,08132.9678,W,1,9,1.5,17,M,,M,,*54
06/06/2014	13:03:33.642	$GPGGA,130334,2421.3562,N,08132.9694,W,1,9,1.7,17,M,,M,,*52
06/06/2014	13:03:34.644	$GPGGA,130335,2421.3561,N,08132.9712,W,1,8,1.7,17,M,,M,,*5E
06/06/2014	13:03:35.647	$GPGGA,130336,2421.3562,N,08132.9729,W,1,8,1.7,17,M,,M,,*56
06/06/2014	13:03:36.470	$GPGGA,130337,2421.3564,N,08132.9747,W,1,9,1.5,17,M,,M,,*5A
06/06/2014	13:03:37.593	$GPGGA,130338,2421.3566,N,08132.9763,W,1,9,1.5,17,M,,M,,*51
06/06/2014	13:03:38.475	$GPGGA,130339,2421.3569,N,08132.9780,W,1,9,1.5,17,M,,M,,*52
06/06/2014	13:03:39.488	$GPGGA,130340,2421.3573,N,08132.9796,W,1,9,1.5,17,M,,M,,*50
06/06/2014	13:03:40.490	$GPGGA,130341,2421.3579,N,08132.9812,W,1,9,1.5,17,M,,M,,*58
06/06/2014	13:03:41.473	$GPGGA,130342,2421.3584,N,08132.9828,W,1,9,1.5,17,M,,M,,*50
06/06/2014	13:03:42.496	$GPGGA,130343,2421.3590,N,08132.9845,W,1,8,1.7,17,M,,M,,*5C
06/06/2014	13:03:43.608	$GPGGA,130344,2421.3597,N,08132.9860,W,1,8,1.7,17,M,,M,,*5B
06/06/2014	13:03:44.501	$GPGGA,130345,2421.3605,N,08132.9877,W,1,8,1.7,17,M,,M,,*54
06/06/2014	13:03:45.483	$GPGGA,130346,2421.3613,N,08132.9892,W,1,8,1.5,17,M,,M,,*59
06/06/2014	13:03:46.606	$GPGGA,130347,2421.3623,N,08132.9906,W,1,8,1.7,17,M,,M,,*55
06/06/2014	13:03:47.498	$GPGGA,130348,2421.3634,N,08132.9920,W,1,8,1.5,17,M,,M,,*5A
06/06/2014	13:03:48.490	$GPGGA,130349,2421.3645,N,08132.9933,W,1,9,1.5,17,M,,M,,*5E
06/06/2014	13:03:49.473	$GPGGA,130350,2421.3658,N,08132.9946,W,1,9,1.5,17,M,,M,,*58
06/06/2014	13:03:50.575	$GPGGA,130351,2421.3671,N,08132.9958,W,1,9,1.5,17,M,,M,,*5D
06/06/2014	13:03:51.588	$GPGGA,130352,2421.3685,N,08132.9971,W,1,9,1.5,17,M,,M,,*5E
06/06/2014	13:03:52.480	$GPGGA,130353,2421.3700,N,08132.9985,W,1,9,1.5,18,M,,M,,*57
06/06/2014	13:03:53.573	$GPGGA,130354,2421.3716,N,08132.9998,W,1,9,1.5,18,M,,M,,*5B
06/06/2014	13:03:54.576	$GPGGA,130355,2421.3731,N,08133.0012,W,1,9,1.5,18,M,,M,,*5C
06/06/2014	13:03:55.599	$GPGGA,130356,2421.3746,N,08133.0027,W,1,9,1.5,18,M,,M,,*59
06/06/2014	13:03:56.611	$GPGGA,130357,2421.3761,N,08133.0043,W,1,9,1.5,18,M,,M,,*5F
06/06/2014	13:03:57.594	$GPGGA,130358,2421.3775,N,08133.0058,W,1,9,1.5,18,M,,M,,*5F
06/06/2014	13:03:58.576	$GPGGA,130359,2421.3790,N,08133.0073,W,1,9,1.5,19,M,,M,,*5D
06/06/2014	13:03:59.599	$GPGGA,130400,2421.3807,N,08133.0088,W,1,9,1.5,19,M,,M,,*53
06/06/2014	13:04:02.617	$GPGGA,130401,2421.3822,N,08133.0103,W,1,9,1.5,19,M,,M,,*57
06/06/2014	13:04:02.658	$GPGGA,130403,2421.3853,N,08133.0134,W,1,9,1.5,19,M,,M,,*57
06/06/2014	13:04:03.599	$GPGGA,130404,2421.3868,N,08133.0150,W,1,9,1.5,19,M,,M,,*5A
06/06/2014	13:04:04.601	$GPGGA,130405,2421.3884,N,08133.0166,W,1,9,1.5,19,M,,M,,*5C
06/06/2014	13:04:05.583	$GPGGA,130406,2421.3901,N,08133.0182,W,1,9,1.5,19,M,,M,,*59
06/06/2014	13:04:06.606	$GPGGA,130407,2421.3918,N,08133.0199,W,1,9,1.5,19,M,,M,,*5A
06/06/2014	13:04:07.599	$GPGGA,130408,2421.3934,N,08133.0215,W,1,9,1.5,19,M,,M,,*5C
06/06/2014	13:04:08.604	$GPGGA,130409,2421.3951,N,08133.0232,W,1,9,1.5,19,M,,M,,*5B
06/06/2014	13:04:09.584	$GPGGA,130410,2421.3967,N,08133.0249,W,1,9,1.5,19,M,,M,,*5A
06/06/2014	13:04:10.576	$GPGGA,130411,2421.3981,N,08133.0265,W,1,9,1.5,19,M,,M,,*5D
06/06/2014	13:04:11.609	$GPGGA,130412,2421.3996,N,08133.0283,W,1,9,1.5,19,M,,M,,*50
06/06/2014	13:04:12.612	$GPGGA,130413,2421.4013,N,08133.0300,W,1,8,1.7,19,M,,M,,*5B
06/06/2014	13:04:13.595	$GPGGA,130414,2421.4028,N,08133.0316,W,1,8,1.7,19,M,,M,,*53
06/06/2014	13:04:14.587	$GPGGA,130415,2421.4043,N,08133.0334,W,1,8,1.7,19,M,,M,,*5F
06/06/2014	13:04:15.609	$GPGGA,130416,2421.4059,N,08133.0352,W,1,8,1.7,19,M,,M,,*57
06/06/2014	13:04:16.622	$GPGGA,130417,2421.4074,N,08133.0368,W,1,7,2.1,19,M,,M,,*5A
06/06/2014	13:04:17.605	$GPGGA,130418,2421.4088,N,08133.0387,W,1,7,1.5,19,M,,M,,*50
06/06/2014	13:04:18.597	$GPGGA,130419,2421.4101,N,08133.0404,W,1,8,1.7,19,M,,M,,*50
06/06/2014	13:04:19.610	$GPGGA,130420,2421.4115,N,08133.0420,W,1,8,1.7,19,M,,M,,*59
06/06/2014	13:04:20.612	$GPGGA,130421,2421.4129,N,08133.0437,W,1,9,1.5,19,M,,M,,*52
06/06/2014	13:04:21.585	$GPGGA,130422,2421.4140,N,08133.0455,W,1,9,1.5,19,M,,M,,*5A
06/06/2014	13:04:22.617	$GPGGA,130423,2421.4151,N,08133.0473,W,1,9,1.5,19,M,,M,,*5F
06/06/2014	13:04:23.719	$GPGGA,130424,2421.4162,N,08133.0491,W,1,9,1.7,19,M,,M,,*56
06/06/2014	13:04:24.582	$GPGGA,130425,2421.4172,N,08133.0511,W,1,8,1.7,19,M,,M,,*5E
06/06/2014	13:04:25.705	$GPGGA,130426,2421.4180,N,08133.0529,W,1,8,2.1,19,M,,M,,*5E
06/06/2014	13:04:26.607	$GPGGA,130427,2421.4190,N,08133.0549,W,1,8,1.7,19,M,,M,,*5D
06/06/2014	13:04:27.720	$GPGGA,130428,2421.4198,N,08133.0569,W,1,8,1.5,19,M,,M,,*5A
06/06/2014	13:04:28.602	$GPGGA,130429,2421.4208,N,08133.0589,W,1,9,1.5,19,M,,M,,*5E
06/06/2014	13:04:29.585	$GPGGA,130430,2421.4216,N,08133.0610,W,1,9,1.5,18,M,,M,,*5B
06/06/2014	13:04:30.627	$GPGGA,130431,2421.4223,N,08133.0629,W,1,9,1.5,18,M,,M,,*56
06/06/2014	13:04:31.720	$GPGGA,130432,2421.4231,N,08133.0650,W,1,9,1.5,18,M,,M,,*58
06/06/2014	13:04:32.612	$GPGGA,130433,2421.4240,N,08133.0672,W,1,9,1.5,18,M,,M,,*5F
06/06/2014	13:04:33.605	$GPGGA,130434,2421.4248,N,08133.0693,W,1,9,1.5,18,M,,M,,*5F
06/06/2014	13:04:34.608	$GPGGA,130435,2421.4256,N,08133.0713,W,1,9,1.5,18,M,,M,,*58
06/06/2014	13:04:35.571	$GPGGA,130436,2421.4263,N,08133.0735,W,1,9,1.5,18,M,,M,,*59
06/06/2014	13:04:36.568	$GPGGA,130437,2421.4270,N,08133.0758,W,1,9,1.5,18,M,,M,,*51
06/06/2014	13:04:37.450	$GPGGA,130438,2421.4278,N,08133.0778,W,1,9,1.5,18,M,,M,,*54
06/06/2014	13:04:38.453	$GPGGA,130439,2421.4287,N,08133.0802,W,1,9,1.5,18,M,,M,,*57
06/06/2014	13:04:39.575	$GPGGA,130440,2421.4294,N,08133.0822,W,1,9,1.7,18,M,,M,,*5B
06/06/2014	13:04:40.558	$GPGGA,130441,2421.4302,N,08133.0842,W,1,9,1.5,18,M,,M,,*50
06/06/2014	13:04:41.550	$GPGGA,130442,2421.4309,N,08133.0865,W,1,9,1.5,18,M,,M,,*5D
06/06/2014	13:04:42.543	$GPGGA,130443,2421.4316,N,08133.0887,W,1,8,1.7,18,M,,M,,*5D
06/06/2014	13:04:43.555	$GPGGA,130444,2421.4323,N,08133.0910,W,1,8,1.7,17,M,,M,,*5C
06/06/2014	13:04:44.588	$GPGGA,130445,2421.4330,N,08133.0932,W,1,8,1.7,17,M,,M,,*5F
06/06/2014	13:04:45.560	$GPGGA,130446,2421.4338,N,08133.0954,W,1,8,1.5,17,M,,M,,*56
06/06/2014	13:04:46.543	$GPGGA,130447,2421.4345,N,08133.0975,W,1,9,1.5,17,M,,M,,*5F
06/06/2014	13:04:47.556	$GPGGA,130448,2421.4353,N,08133.0997,W,1,9,1.5,17,M,,M,,*5B
06/06/2014	13:04:48.568	$GPGGA,130449,2421.4361,N,08133.1019,W,1,9,1.5,17,M,,M,,*55
06/06/2014	13:04:49.542	$GPGGA,130450,2421.4368,N,08133.1040,W,1,9,1.5,17,M,,M,,*58
06/06/2014	13:04:50.563	$GPGGA,130451,2421.4377,N,08133.1063,W,1,9,1.5,17,M,,M,,*56
06/06/2014	13:04:51.566	$GPGGA,130452,2421.4385,N,08133.1085,W,1,9,1.7,17,M,,M,,*52
06/06/2014	13:04:52.579	$GPGGA,130453,2421.4393,N,08133.1107,W,1,8,1.6,17,M,,M,,*5F
06/06/2014	13:04:53.551	$GPGGA,130454,2421.4400,N,08133.1129,W,1,8,1.6,17,M,,M,,*59
06/06/2014	13:04:54.566	$GPGGA,130455,2421.4408,N,08133.1150,W,1,8,1.6,17,M,,M,,*5E
06/06/2014	13:04:55.566	$GPGGA,130456,2421.4418,N,08133.1171,W,1,8,1.6,16,M,,M,,*5E
06/06/2014	13:04:56.549	$GPGGA,130457,2421.4426,N,08133.1193,W,1,8,1.6,16,M,,M,,*5E
06/06/2014	13:04:57.551	$GPGGA,130458,2421.4433,N,08133.1214,W,1,8,1.6,16,M,,M,,*59
06/06/2014	13:04:58.573	$GPGGA,130459,2421.4443,N,08133.1236,W,1,8,1.6,16,M,,M,,*5F
06/06/2014	13:04:59.576	$GPGGA,130500,2421.4451,N,08133.1255,W,1,8,2.1,16,M,,M,,*50
06/06/2014	13:05:00.578	$GPGGA,130501,2421.4460,N,08133.1277,W,1,8,1.6,16,M,,M,,*57
06/06/2014	13:05:01.561	$GPGGA,130502,2421.4469,N,08133.1297,W,1,8,1.6,16,M,,M,,*53
06/06/2014	13:05:02.544	$GPGGA,130503,2421.4478,N,08133.1319,W,1,8,1.6,16,M,,M,,*55
06/06/2014	13:05:03.566	$GPGGA,130504,2421.4487,N,08133.1340,W,1,8,1.6,16,M,,M,,*5E
06/06/2014	13:05:04.599	$GPGGA,130505,2421.4497,N,08133.1359,W,1,8,1.6,16,M,,M,,*56
06/06/2014	13:05:05.551	$GPGGA,130506,2421.4507,N,08133.1380,W,1,8,1.6,16,M,,M,,*59
06/06/2014	13:05:06.594	$GPGGA,130507,2421.4515,N,08133.1400,W,1,7,2.3,16,M,,M,,*5D
06/06/2014	13:05:07.557	$GPGGA,130508,2421.4527,N,08133.1421,W,1,7,1.6,15,M,,M,,*55
06/06/2014	13:05:08.569	$GPGGA,130509,2421.4538,N,08133.1442,W,1,8,1.6,15,M,,M,,*50
06/06/2014	13:05:09.572	$GPGGA,130510,2421.4548,N,08133.1463,W,1,8,1.6,16,M,,M,,*5F
06/06/2014	13:05:10.574	$GPGGA,130511,2421.4561,N,08133.1483,W,1,8,1.6,16,M,,M,,*5B
06/06/2014	13:05:11.577	$GPGGA,130512,2421.4572,N,08133.1504,W,1,8,1.6,16,M,,M,,*54
06/06/2014	13:05:12.570	$GPGGA,130513,2421.4583,N,08133.1525,W,1,8,1.6,16,M,,M,,*58
06/06/2014	13:05:14.564	$GPGGA,130515,2421.4606,N,08133.1564,W,1,8,1.6,16,M,,M,,*55
06/06/2014	13:05:15.717	$GPGGA,130516,2421.4617,N,08133.1583,W,1,8,1.5,16,M,,M,,*5C
06/06/2014	13:05:16.739	$GPGGA,130517,2421.4627,N,08133.1605,W,1,9,1.5,16,M,,M,,*52
06/06/2014	13:05:17.652	$GPGGA,130518,2421.4638,N,08133.1626,W,1,9,1.5,16,M,,M,,*52
06/06/2014	13:05:18.755	$GPGGA,130519,2421.4646,N,08133.1647,W,1,9,1.5,17,M,,M,,*5C
06/06/2014	13:05:19.567	$GPGGA,130520,2421.4657,N,08133.1669,W,1,9,1.5,17,M,,M,,*5A
06/06/2014	13:05:20.569	$GPGGA,130521,2421.4666,N,08133.1689,W,1,9,1.5,17,M,,M,,*57
06/06/2014	13:05:21.552	$GPGGA,130522,2421.4675,N,08133.1710,W,1,9,1.5,17,M,,M,,*57
06/06/2014	13:05:22.745	$GPGGA,130523,2421.4685,N,08133.1731,W,1,8,1.6,17,M,,M,,*58
06/06/2014	13:05:23.577	$GPGGA,130524,2421.4696,N,08133.1752,W,1,8,1.5,17,M,,M,,*5B
06/06/2014	13:05:24.580	$GPGGA,130525,2421.4704,N,08133.1774,W,1,9,1.5,17,M,,M,,*55
06/06/2014	13:05:25.703	$GPGGA,130526,2421.4714,N,08133.1796,W,1,9,1.6,17,M,,M,,*58
06/06/2014	13:05:26.755	$GPGGA,130527,2421.4722,N,08133.1818,W,1,8,1.6,17,M,,M,,*54
06/06/2014	13:05:27.577	$GPGGA,130528,2421.4732,N,08133.1839,W,1,8,1.6,17,M,,M,,*59
06/06/2014	13:05:28.750	$GPGGA,130529,2421.4740,N,08133.1861,W,1,8,1.6,17,M,,M,,*50
06/06/2014	13:05:29.693	$GPGGA,130530,2421.4749,N,08133.1882,W,1,8,1.6,17,M,,M,,*5C
06/06/2014	13:05:30.766	$GPGGA,130531,2421.4758,N,08133.1904,W,1,8,1.6,18,M,,M,,*5D
06/06/2014	13:05:31.668	$GPGGA,130532,2421.4767,N,08133.1925,W,1,8,1.6,18,M,,M,,*51
06/06/2014	13:05:32.770	$GPGGA,130533,2421.4775,N,08133.1947,W,1,8,1.6,18,M,,M,,*57
06/06/2014	13:05:33.692	$GPGGA,130534,2421.4783,N,08133.1969,W,1,8,1.6,18,M,,M,,*55
06/06/2014	13:05:34.775	$GPGGA,130535,2421.4791,N,08133.1991,W,1,8,1.6,18,M,,M,,*50
06/06/2014	13:05:35.570	$GPGGA,130536,2421.4801,N,08133.2012,W,1,8,1.6,18,M,,M,,*54
06/06/2014	13:05:36.606	$GPGGA,130537,2421.4809,N,08133.2034,W,1,8,1.6,18,M,,M,,*59
06/06/2014	13:05:37.539	$GPGGA,130538,2421.4816,N,08133.2056,W,1,8,1.6,18,M,,M,,*5C
06/06/2014	13:05:38.621	$GPGGA,130539,2421.4825,N,08133.2077,W,1,8,1.6,18,M,,M,,*5E
06/06/2014	13:05:39.574	$GPGGA,130540,2421.4833,N,08133.2099,W,1,8,1.6,18,M,,M,,*57
06/06/2014	13:05:40.577	$GPGGA,130541,2421.4841,N,08133.2121,W,1,8,1.6,18,M,,M,,*51
06/06/2014	13:05:41.539	$GPGGA,130542,2421.4850,N,08133.2142,W,1,8,1.6,17,M,,M,,*58
06/06/2014	13:05:42.572	$GPGGA,130543,2421.4858,N,08133.2164,W,1,9,1.5,17,M,,M,,*57
06/06/2014	13:05:43.524	$GPGGA,130544,2421.4865,N,08133.2186,W,1,9,1.5,17,M,,M,,*52
06/06/2014	13:05:44.627	$GPGGA,130545,2421.4873,N,08133.2208,W,1,9,1.5,17,M,,M,,*51
06/06/2014	13:05:45.541	$GPGGA,130546,2421.4881,N,08133.2230,W,1,9,1.5,17,M,,M,,*54
06/06/2014	13:05:46.512	$GPGGA,130547,2421.4888,N,08133.2251,W,1,9,1.5,17,M,,M,,*5B
06/06/2014	13:05:47.565	$GPGGA,130548,2421.4898,N,08133.2273,W,1,9,1.5,17,M,,M,,*55
06/06/2014	13:05:48.627	$GPGGA,130549,2421.4905,N,08133.2295,W,1,9,1.5,17,M,,M,,*59
06/06/2014	13:05:49.509	$GPGGA,130550,2421.4913,N,08133.2317,W,1,9,1.5,17,M,,M,,*5D
06/06/2014	13:05:50.632	$GPGGA,130551,2421.4921,N,08133.2339,W,1,9,1.5,17,M,,M,,*51
06/06/2014	13:05:51.524	$GPGGA,130552,2421.4930,N,08133.2360,W,1,9,1.5,17,M,,M,,*5E
06/06/2014	13:05:52.607	$GPGGA,130553,2421.4937,N,08133.2382,W,1,9,1.5,17,M,,M,,*54
06/06/2014	13:05:53.629	$GPGGA,130554,2421.4945,N,08133.2403,W,1,9,1.5,17,M,,M,,*58
06/06/2014	13:05:54.632	$GPGGA,130555,2421.4953,N,08133.2425,W,1,9,1.5,17,M,,M,,*5A
06/06/2014	13:05:55.524	$GPGGA,130556,2421.4960,N,08133.2447,W,1,9,1.5,17,M,,M,,*5D
06/06/2014	13:05:56.517	$GPGGA,130557,2421.4968,N,08133.2469,W,1,8,1.6,17,M,,M,,*5A
06/06/2014	13:05:57.640	$GPGGA,130558,2421.4978,N,08133.2491,W,1,8,1.5,17,M,,M,,*50
06/06/2014	13:05:58.652	$GPGGA,130559,2421.4986,N,08133.2512,W,1,9,1.5,17,M,,M,,*5B
06/06/2014	13:05:59.575	$GPGGA,130600,2421.4995,N,08133.2534,W,1,9,1.6,17,M,,M,,*51
06/06/2014	13:06:00.577	$GPGGA,130601,2421.5003,N,08133.2555,W,1,8,1.6,17,M,,M,,*51
06/06/2014	13:06:01.540	$GPGGA,130602,2421.5011,N,08133.2577,W,1,8,1.6,17,M,,M,,*51
06/06/2014	13:06:02.603	$GPGGA,130603,2421.5018,N,08133.2599,W,1,8,1.6,17,M,,M,,*59
06/06/2014	13:06:03.635	$GPGGA,130604,2421.5027,N,08133.2621,W,1,8,1.6,17,M,,M,,*52
06/06/2014	13:06:04.518	$GPGGA,130605,2421.5035,N,08133.2644,W,1,8,1.6,17,M,,M,,*53
06/06/2014	13:06:05.560	$GPGGA,130606,2421.5043,N,08133.2666,W,1,8,1.6,16,M,,M,,*50
06/06/2014	13:06:06.623	$GPGGA,130607,2421.5051,N,08133.2688,W,1,8,1.6,16,M,,M,,*52
06/06/2014	13:06:07.635	$GPGGA,130608,2421.5058,N,08133.2709,W,1,8,1.6,16,M,,M,,*5C
06/06/2014	13:06:08.627	$GPGGA,130609,2421.5067,N,08133.2729,W,1,8,1.6,16,M,,M,,*53
06/06/2014	13:06:09.620	$GPGGA,130610,2421.5076,N,08133.2751,W,1,8,1.6,16,M,,M,,*54
06/06/2014	13:06:10.643	$GPGGA,130611,2421.5083,N,08133.2774,W,1,8,1.6,16,M,,M,,*58
06/06/2014	13:06:11.575	$GPGGA,130612,2421.5093,N,08133.2794,W,1,8,1.6,16,M,,M,,*54
06/06/2014	13:06:12.628	$GPGGA,130613,2421.5101,N,08133.2815,W,1,8,1.6,16,M,,M,,*59
06/06/2014	13:06:13.550	$GPGGA,130614,2421.5109,N,08133.2837,W,1,8,1.6,16,M,,M,,*56
06/06/2014	13:06:14.683	$GPGGA,130615,2421.5119,N,08133.2858,W,1,8,1.6,16,M,,M,,*5F
06/06/2014	13:06:15.645	$GPGGA,130616,2421.5127,N,08133.2880,W,1,8,1.6,16,M,,M,,*54
06/06/2014	13:06:16.678	$GPGGA,130617,2421.5137,N,08133.2901,W,1,8,2.0,16,M,,M,,*59
06/06/2014	13:06:17.631	$GPGGA,130618,2421.5147,N,08133.2923,W,1,8,1.6,16,M,,M,,*54
06/06/2014	13:06:18.663	$GPGGA,130619,2421.5155,N,08133.2944,W,1,8,1.6,16,M,,M,,*57
06/06/2014	13:06:19.646	$GPGGA,130620,2421.5165,N,08133.2966,W,1,8,1.6,16,M,,M,,*5E
06/06/2014	13:06:20.679	$GPGGA,130621,2421.5173,N,08133.2986,W,1,8,1.6,16,M,,M,,*56
06/06/2014	13:06:21.641	$GPGGA,130622,2421.5181,N,08133.3007,W,1,8,1.6,16,M,,M,,*59
06/06/2014	13:06:22.664	$GPGGA,130623,2421.5190,N,08133.3029,W,1,8,2.0,16,M,,M,,*51
06/06/2014	13:06:23.646	$GPGGA,130624,2421.5199,N,08133.3051,W,1,8,1.6,16,M,,M,,*55
06/06/2014	13:06:24.698	$GPGGA,130625,2421.5208,N,08133.3072,W,1,8,1.6,16,M,,M,,*5E
06/06/2014	13:06:25.640	$GPGGA,130626,2421.5217,N,08133.3093,W,1,8,1.6,16,M,,M,,*5C
06/06/2014	13:06:26.663	$GPGGA,130627,2421.5226,N,08133.3114,W,1,8,1.6,16,M,,M,,*51
06/06/2014	13:06:27.647	$GPGGA,130628,2421.5235,N,08133.3136,W,1,8,1.6,16,M,,M,,*5C
06/06/2014	13:06:28.668	$GPGGA,130629,2421.5245,N,08133.3157,W,1,8,2.3,16,M,,M,,*5B
06/06/2014	13:06:29.631	$GPGGA,130630,2421.5253,N,08133.3179,W,1,8,1.6,16,M,,M,,*5E
06/06/2014	13:06:30.673	$GPGGA,130631,2421.5262,N,08133.3201,W,1,8,1.6,16,M,,M,,*51
06/06/2014	13:06:31.646	$GPGGA,130632,2421.5271,N,08133.3220,W,1,8,1.5,16,M,,M,,*50
06/06/2014	13:06:32.679	$GPGGA,130633,2421.5281,N,08133.3241,W,1,9,1.6,16,M,,M,,*5B
06/06/2014	13:06:33.651	$GPGGA,130634,2421.5291,N,08133.3262,W,1,9,1.6,16,M,,M,,*5C
06/06/2014	13:06:34.684	$GPGGA,130635,2421.5300,N,08133.3282,W,1,8,1.5,16,M,,M,,*58
06/06/2014	13:06:35.656	$GPGGA,130636,2421.5311,N,08133.3303,W,1,8,1.5,16,M,,M,,*53
06/06/2014	13:06:36.544	$GPGGA,130637,2421.5321,N,08133.3324,W,1,9,1.5,16,M,,M,,*55
06/06/2014	13:06:37.497	$GPGGA,130638,2421.5329,N,08133.3345,W,1,9,1.5,16,M,,M,,*55
06/06/2014	13:06:38.529	$GPGGA,130639,2421.5340,N,08133.3367,W,1,8,1.5,16,M,,M,,*5A
06/06/2014	13:06:39.512	$GPGGA,130640,2421.5350,N,08133.3385,W,1,8,1.3,16,M,,M,,*5F
06/06/2014	13:06:40.544	$GPGGA,130641,2421.5350,N,08133.3385,W,1,9,1.3,16,M,,M,,*5F
06/06/2014	13:06:41.607	$GPGGA,130642,2421.5368,N,08133.3428,W,1,9,1.3,16,M,,M,,*57
06/06/2014	13:06:42.519	$GPGGA,130643,2421.5368,N,08133.3428,W,1,9,1.3,17,M,,M,,*57
06/06/2014	13:06:43.591	$GPGGA,130644,2421.5387,N,08133.3469,W,1,9,1.3,17,M,,M,,*54
06/06/2014	13:06:44.624	$GPGGA,130645,2421.5397,N,08133.3493,W,1,9,1.3,17,M,,M,,*51
06/06/2014	13:06:45.577	$GPGGA,130646,2421.5405,N,08133.3515,W,1,9,1.4,17,M,,M,,*56
06/06/2014	13:06:46.549	$GPGGA,130647,2421.5405,N,08133.3515,W,1,9,1.4,17,M,,M,,*57
06/06/2014	13:06:47.512	$GPGGA,130648,2421.5423,N,08133.3560,W,1,9,1.4,17,M,,M,,*5E
06/06/2014	13:06:48.504	$GPGGA,130649,2421.5423,N,08133.3560,W,1,9,1.4,17,M,,M,,*5F
06/06/2014	13:06:49.577	$GPGGA,130650,2421.5441,N,08133.3603,W,1,9,1.4,17,M,,M,,*55
06/06/2014	13:06:50.620	$GPGGA,130651,2421.5450,N,08133.3624,W,1,9,1.4,17,M,,M,,*51
06/06/2014	13:06:51.592	$GPGGA,130652,2421.5459,N,08133.3645,W,1,9,1.3,17,M,,M,,*5B
06/06/2014	13:06:52.625	$GPGGA,130653,2421.5469,N,08133.3667,W,1,10,1.3,17,M,,M,,*61
06/06/2014	13:06:53.597	$GPGGA,130654,2421.5477,N,08133.3689,W,1,10,1.4,17,M,,M,,*6E
06/06/2014	13:06:54.600	$GPGGA,130655,2421.5487,N,08133.3710,W,1,9,1.4,17,M,,M,,*59
06/06/2014	13:06:55.502	$GPGGA,130656,2421.5495,N,08133.3732,W,1,9,1.4,17,M,,M,,*59
06/06/2014	13:06:56.495	$GPGGA,130657,2421.5495,N,08133.3732,W,1,9,1.4,17,M,,M,,*58
06/06/2014	13:06:57.588	$GPGGA,130658,2421.5513,N,08133.3776,W,1,9,1.4,17,M,,M,,*58
06/06/2014	13:06:58.610	$GPGGA,130659,2421.5522,N,08133.3797,W,1,9,1.4,17,M,,M,,*54
06/06/2014	13:06:59.632	$GPGGA,130700,2421.5531,N,08133.3819,W,1,9,1.4,17,M,,M,,*52
06/06/2014	13:07:00.584	$GPGGA,130701,2421.5540,N,08133.3840,W,1,8,1.6,17,M,,M,,*5A
06/06/2014	13:07:01.587	$GPGGA,130702,2421.5548,N,08133.3862,W,1,8,1.6,17,M,,M,,*51
06/06/2014	13:07:02.590	$GPGGA,130703,2421.5556,N,08133.3883,W,1,9,1.4,17,M,,M,,*53
06/06/2014	13:07:03.602	$GPGGA,130704,2421.5564,N,08133.3903,W,1,9,1.4,17,M,,M,,*5C
06/06/2014	13:07:04.615	$GPGGA,130705,2421.5564,N,08133.3903,W,1,9,1.4,17,M,,M,,*5D
06/06/2014	13:07:05.587	$GPGGA,130706,2421.5582,N,08133.3946,W,1,9,1.4,17,M,,M,,*57
06/06/2014	13:07:06.610	$GPGGA,130707,2421.5591,N,08133.3967,W,1,9,1.4,17,M,,M,,*57
06/06/2014	13:07:07.613	$GPGGA,130708,2421.5600,N,08133.3989,W,1,9,1.4,17,M,,M,,*53
06/06/2014	13:07:08.585	$GPGGA,130709,2421.5607,N,08133.4010,W,1,9,1.4,17,M,,M,,*5B
06/06/2014	13:07:09.598	$GPGGA,130710,2421.5617,N,08133.4032,W,1,9,1.4,17,M,,M,,*52
06/06/2014	13:07:10.600	$GPGGA,130711,2421.5625,N,08133.4053,W,1,9,1.4,17,M,,M,,*55
06/06/2014	13:07:11.603	$GPGGA,130712,2421.5634,N,08133.4075,W,1,9,1.4,17,M,,M,,*52
06/06/2014	13:07:12.626	$GPGGA,130713,2421.5643,N,08133.4097,W,1,9,1.4,17,M,,M,,*5F
06/06/2014	13:07:13.598	$GPGGA,130714,2421.5652,N,08133.4118,W,1,9,1.4,17,M,,M,,*5E
06/06/2014	13:07:14.631	$GPGGA,130715,2421.5660,N,08133.4140,W,1,9,1.4,17,M,,M,,*53
06/06/2014	13:07:15.615	$GPGGA,130716,2421.5668,N,08133.4162,W,1,9,1.4,16,M,,M,,*59
06/06/2014	13:07:16.647	$GPGGA,130717,2421.5676,N,08133.4184,W,1,9,1.4,16,M,,M,,*5F
06/06/2014	13:07:17.588	$GPGGA,130718,2421.5686,N,08133.4205,W,1,9,1.4,16,M,,M,,*55
06/06/2014	13:07:18.621	$GPGGA,130719,2421.5694,N,08133.4227,W,1,9,1.4,16,M,,M,,*57
06/06/2014	13:07:19.623	$GPGGA,130720,2421.5703,N,08133.4249,W,1,9,1.4,16,M,,M,,*5A
06/06/2014	13:07:20.595	$GPGGA,130721,2421.5711,N,08133.4270,W,1,9,1.4,16,M,,M,,*52
06/06/2014	13:07:21.609	$GPGGA,130722,2421.5719,N,08133.4290,W,1,9,1.4,16,M,,M,,*57
06/06/2014	13:07:22.601	$GPGGA,130723,2421.5728,N,08133.4313,W,1,9,1.4,16,M,,M,,*5E
06/06/2014	13:07:23.613	$GPGGA,130724,2421.5736,N,08133.4333,W,1,9,1.4,16,M,,M,,*54
06/06/2014	13:07:24.636	$GPGGA,130725,2421.5744,N,08133.4355,W,1,9,1.4,16,M,,M,,*50
06/06/2014	13:07:25.598	$GPGGA,130726,2421.5754,N,08133.4376,W,1,9,1.4,16,M,,M,,*53
06/06/2014	13:07:26.631	$GPGGA,130727,2421.5762,N,08133.4398,W,1,9,1.4,16,M,,M,,*57
06/06/2014	13:07:27.614	$GPGGA,130728,2421.5770,N,08133.4419,W,1,9,1.4,16,M,,M,,*55
06/06/2014	13:07:28.616	$GPGGA,130729,2421.5779,N,08133.4441,W,1,9,1.4,16,M,,M,,*50
06/06/2014	13:07:29.599	$GPGGA,130730,2421.5788,N,08133.4462,W,1,9,1.4,15,M,,M,,*54
06/06/2014	13:07:30.621	$GPGGA,130731,2421.5797,N,08133.4483,W,1,10,1.3,15,M,,M,,*6B
06/06/2014	13:07:31.624	$GPGGA,130732,2421.5806,N,08133.4505,W,1,10,1.4,15,M,,M,,*67
06/06/2014	13:07:32.627	$GPGGA,130733,2421.5815,N,08133.4527,W,1,9,1.4,15,M,,M,,*5C
06/06/2014	13:07:33.699	$GPGGA,130734,2421.5823,N,08133.4548,W,1,9,1.4,15,M,,M,,*57
06/06/2014	13:07:34.701	$GPGGA,130735,2421.5831,N,08133.4570,W,1,9,1.4,15,M,,M,,*5E
06/06/2014	13:07:35.623	$GPGGA,130736,2421.5841,N,08133.4592,W,1,9,1.4,15,M,,M,,*56
06/06/2014	13:07:36.462	$GPGGA,130737,2421.5849,N,08133.4613,W,1,10,1.3,15,M,,M,,*6A
06/06/2014	13:07:37.545	$GPGGA,130738,2421.5858,N,08133.4633,W,1,10,1.3,15,M,,M,,*67
06/06/2014	13:07:38.577	$GPGGA,130739,2421.5867,N,08133.4654,W,1,10,1.3,15,M,,M,,*6B
06/06/2014	13:07:39.560	$GPGGA,130740,2421.5876,N,08133.4675,W,1,10,1.3,15,M,,M,,*66
06/06/2014	13:07:40.573	$GPGGA,130741,2421.5885,N,08133.4697,W,1,10,1.3,15,M,,M,,*67
06/06/2014	13:07:41.555	$GPGGA,130742,2421.5895,N,08133.4718,W,1,10,1.3,15,M,,M,,*63
06/06/2014	13:07:42.548	$GPGGA,130743,2421.5903,N,08133.4740,W,1,9,1.4,15,M,,M,,*5E
06/06/2014	13:07:43.560	$GPGGA,130744,2421.5911,N,08133.4762,W,1,9,1.4,15,M,,M,,*5A
06/06/2014	13:07:44.574	$GPGGA,130745,2421.5921,N,08133.4783,W,1,9,1.4,14,M,,M,,*56
06/06/2014	13:07:45.565	$GPGGA,130746,2421.5929,N,08133.4803,W,1,9,1.4,14,M,,M,,*5A
06/06/2014	13:07:46.558	$GPGGA,130747,2421.5939,N,08133.4824,W,1,9,1.4,14,M,,M,,*5F
06/06/2014	13:07:47.571	$GPGGA,130748,2421.5947,N,08133.4845,W,1,9,1.4,14,M,,M,,*5E
06/06/2014	13:07:48.573	$GPGGA,130749,2421.5956,N,08133.4866,W,1,10,1.3,14,M,,M,,*61
06/06/2014	13:07:49.566	$GPGGA,130750,2421.5965,N,08133.4886,W,1,10,1.3,14,M,,M,,*67
06/06/2014	13:07:50.578	$GPGGA,130751,2421.5975,N,08133.4907,W,1,10,1.3,14,M,,M,,*6F
06/06/2014	13:07:51.561	$GPGGA,130752,2421.5983,N,08133.4928,W,1,10,1.3,14,M,,M,,*68
06/06/2014	13:07:52.583	$GPGGA,130753,2421.5993,N,08133.4950,W,1,10,1.3,14,M,,M,,*67
06/06/2014	13:07:53.555	$GPGGA,130754,2421.6001,N,08133.4971,W,1,10,1.3,14,M,,M,,*62
06/06/2014	13:07:54.588	$GPGGA,130755,2421.6011,N,08133.4993,W,1,10,1.3,14,M,,M,,*6E
06/06/2014	13:07:55.580	$GPGGA,130756,2421.6019,N,08133.5014,W,1,10,1.3,14,M,,M,,*62
06/06/2014	13:07:56.583	$GPGGA,130757,2421.6029,N,08133.5036,W,1,9,1.4,14,M,,M,,*5F
06/06/2014	13:07:57.556	$GPGGA,130758,2421.6037,N,08133.5058,W,1,9,1.4,14,M,,M,,*57
06/06/2014	13:07:58.588	$GPGGA,130759,2421.6047,N,08133.5079,W,1,10,1.3,14,M,,M,,*6D
06/06/2014	13:07:59.581	$GPGGA,130800,2421.6055,N,08133.5101,W,1,10,1.3,14,M,,M,,*63
06/06/2014	13:08:00.593	$GPGGA,130801,2421.6065,N,08133.5123,W,1,10,1.3,14,M,,M,,*61
06/06/2014	13:08:01.576	$GPGGA,130802,2421.6075,N,08133.5144,W,1,10,1.3,14,M,,M,,*62
06/06/2014	13:08:02.559	$GPGGA,130803,2421.6083,N,08133.5164,W,1,10,1.3,14,M,,M,,*68
06/06/2014	13:08:03.591	$GPGGA,130804,2421.6091,N,08133.5186,W,1,10,1.4,14,M,,M,,*67
06/06/2014	13:08:04.555	$GPGGA,130805,2421.6102,N,08133.5207,W,1,9,1.4,14,M,,M,,*5F
06/06/2014	13:08:05.576	$GPGGA,130806,2421.6111,N,08133.5228,W,1,9,1.4,14,M,,M,,*53
06/06/2014	13:08:06.689	$GPGGA,130807,2421.6120,N,08133.5249,W,1,10,1.3,14,M,,M,,*68
06/06/2014	13:08:07.572	$GPGGA,130808,2421.6129,N,08133.5271,W,1,10,1.3,14,M,,M,,*65
06/06/2014	13:08:08.555	$GPGGA,130809,2421.6138,N,08133.5293,W,1,9,1.4,14,M,,M,,*57
06/06/2014	13:08:09.686	$GPGGA,130810,2421.6145,N,08133.5314,W,1,9,1.4,14,M,,M,,*5B
06/06/2014	13:08:10.558	$GPGGA,130811,2421.6155,N,08133.5337,W,1,9,1.4,14,M,,M,,*5A
06/06/2014	13:08:11.591	$GPGGA,130812,2421.6163,N,08133.5359,W,1,9,1.4,14,M,,M,,*54
06/06/2014	13:08:12.564	$GPGGA,130813,2421.6173,N,08133.5381,W,1,9,1.4,13,M,,M,,*56
06/06/2014	13:08:13.566	$GPGGA,130814,2421.6181,N,08133.5404,W,1,9,1.4,13,M,,M,,*56
06/06/2014	13:08:14.659	$GPGGA,130815,2421.6191,N,08133.5426,W,1,9,1.4,13,M,,M,,*56
06/06/2014	13:08:15.571	$GPGGA,130816,2421.6199,N,08133.5448,W,1,9,1.4,13,M,,M,,*55
06/06/2014	13:08:16.584	$GPGGA,130817,2421.6207,N,08133.5469,W,1,9,1.4,13,M,,M,,*53
06/06/2014	13:08:17.566	$GPGGA,130818,2421.6217,N,08133.5491,W,1,9,1.4,13,M,,M,,*5A
06/06/2014	13:08:18.579	$GPGGA,130819,2421.6225,N,08133.5511,W,1,9,1.4,13,M,,M,,*53
06/06/2014	13:08:19.702	$GPGGA,130820,2421.6234,N,08133.5533,W,1,9,1.4,13,M,,M,,*59
06/06/2014	13:08:20.574	$GPGGA,130821,2421.6243,N,08133.5556,W,1,9,1.4,13,M,,M,,*5B
06/06/2014	13:08:21.677	$GPGGA,130822,2421.6252,N,08133.5578,W,1,9,1.4,13,M,,M,,*54
06/06/2014	13:08:22.680	$GPGGA,130823,2421.6261,N,08133.5600,W,1,9,1.4,13,M,,M,,*59
06/06/2014	13:08:23.682	$GPGGA,130824,2421.6268,N,08133.5621,W,1,9,1.3,13,M,,M,,*53
06/06/2014	13:08:24.675	$GPGGA,130825,2421.6278,N,08133.5643,W,1,10,1.3,13,M,,M,,*6F
06/06/2014	13:08:25.678	$GPGGA,130826,2421.6286,N,08133.5665,W,1,10,1.4,13,M,,M,,*6E
06/06/2014	13:08:26.570	$GPGGA,130827,2421.6293,N,08133.5686,W,1,10,1.3,13,M,,M,,*61
06/06/2014	13:08:27.682	$GPGGA,130828,2421.6303,N,08133.5708,W,1,10,1.3,13,M,,M,,*61
06/06/2014	13:08:28.694	$GPGGA,130829,2421.6311,N,08133.5728,W,1,10,1.3,13,M,,M,,*61
06/06/2014	13:08:29.577	$GPGGA,130830,2421.6319,N,08133.5751,W,1,10,1.3,13,M,,M,,*6F
06/06/2014	13:08:30.690	$GPGGA,130831,2421.6326,N,08133.5770,W,1,9,1.4,13,M,,M,,*5E
06/06/2014	13:08:31.692	$GPGGA,130832,2421.6336,N,08133.5792,W,1,9,1.3,13,M,,M,,*57
06/06/2014	13:08:32.675	$GPGGA,130833,2421.6344,N,08133.5816,W,1,9,1.4,13,M,,M,,*57
06/06/2014	13:08:33.677	$GPGGA,130834,2421.6353,N,08133.5835,W,1,9,1.4,13,M,,M,,*57
06/06/2014	13:08:34.680	$GPGGA,130835,2421.6362,N,08133.5857,W,1,10,1.3,13,M,,M,,*6F
06/06/2014	13:08:35.692	$GPGGA,130836,2421.6369,N,08133.5878,W,1,10,1.4,13,M,,M,,*6D
06/06/2014	13:08:36.551	$GPGGA,130837,2421.6379,N,08133.5900,W,1,10,1.3,13,M,,M,,*64
06/06/2014	13:08:37.534	$GPGGA,130838,2421.6387,N,08133.5922,W,1,10,1.4,13,M,,M,,*6D
06/06/2014	13:08:38.526	$GPGGA,130839,2421.6395,N,08133.5946,W,1,8,1.8,13,M,,M,,*58
06/06/2014	13:08:39.529	$GPGGA,130840,2421.6404,N,08133.5965,W,1,8,1.4,13,M,,M,,*54
06/06/2014	13:08:40.551	$GPGGA,130841,2421.6413,N,08133.5986,W,1,9,1.7,13,M,,M,,*5C
06/06/2014	13:08:41.525	$GPGGA,130842,2421.6422,N,08133.6006,W,1,9,1.7,13,M,,M,,*5F
06/06/2014	13:08:42.557	$GPGGA,130843,2421.6431,N,08133.6026,W,1,9,1.7,13,M,,M,,*5E
06/06/2014	13:08:43.539	$GPGGA,130844,2421.6438,N,08133.6048,W,1,9,1.3,13,M,,M,,*5C
06/06/2014	13:08:44.521	$GPGGA,130845,2421.6449,N,08133.6069,W,1,10,1.3,14,M,,M,,*67
06/06/2014	13:08:45.533	$GPGGA,130846,2421.6458,N,08133.6089,W,1,10,1.3,14,M,,M,,*6A
06/06/2014	13:08:46.526	$GPGGA,130847,2421.6466,N,08133.6110,W,1,10,1.3,14,M,,M,,*67
06/06/2014	13:08:47.549	$GPGGA,130848,2421.6476,N,08133.6131,W,1,10,1.3,14,M,,M,,*6A
06/06/2014	13:08:48.561	$GPGGA,130849,2421.6485,N,08133.6152,W,1,10,1.3,14,M,,M,,*62
06/06/2014	13:08:49.534	$GPGGA,130850,2421.6494,N,08133.6174,W,1,10,1.3,14,M,,M,,*6E
06/06/2014	13:08:50.566	$GPGGA,130851,2421.6503,N,08133.6196,W,1,10,1.3,14,M,,M,,*6C
06/06/2014	13:08:51.539	$GPGGA,130852,2421.6513,N,08133.6217,W,1,10,1.4,14,M,,M,,*63
06/06/2014	13:08:52.544	$GPGGA,130853,2421.6523,N,08133.6239,W,1,10,1.3,14,M,,M,,*6A
06/06/2014	13:08:53.534	$GPGGA,130854,2421.6532,N,08133.6261,W,1,10,1.3,14,M,,M,,*60
06/06/2014	13:08:54.557	$GPGGA,130855,2421.6542,N,08133.6283,W,1,10,1.3,14,M,,M,,*6A
06/06/2014	13:08:55.549	$GPGGA,130856,2421.6553,N,08133.6304,W,1,10,1.3,14,M,,M,,*67
06/06/2014	13:08:56.552	$GPGGA,130857,2421.6561,N,08133.6326,W,1,10,1.3,15,M,,M,,*66
06/06/2014	13:08:57.535	$GPGGA,130858,2421.6570,N,08133.6348,W,1,10,1.3,15,M,,M,,*61
06/06/2014	13:08:58.637	$GPGGA,130859,2421.6579,N,08133.6369,W,1,9,1.4,15,M,,M,,*55
06/06/2014	13:08:59.551	$GPGGA,130900,2421.6588,N,08133.6391,W,1,9,1.3,15,M,,M,,*56
06/06/2014	13:09:00.532	$GPGGA,130901,2421.6599,N,08133.6412,W,1,10,1.3,15,M,,M,,*63
06/06/2014	13:09:01.645	$GPGGA,130902,2421.6608,N,08133.6432,W,1,10,1.5,15,M,,M,,*6F
06/06/2014	13:09:02.547	$GPGGA,130903,2421.6618,N,08133.6454,W,1,9,1.5,15,M,,M,,*57
06/06/2014	13:09:03.639	$GPGGA,130904,2421.6626,N,08133.6477,W,1,9,1.3,15,M,,M,,*5A
06/06/2014	13:09:04.642	$GPGGA,130905,2421.6635,N,08133.6499,W,1,10,1.3,15,M,,M,,*61
06/06/2014	13:09:05.625	$GPGGA,130906,2421.6644,N,08133.6521,W,1,10,1.8,15,M,,M,,*6D
06/06/2014	13:09:06.547	$GPGGA,130907,2421.6651,N,08133.6543,W,1,9,1.4,15,M,,M,,*58
06/06/2014	13:09:07.570	$GPGGA,130908,2421.6658,N,08133.6565,W,1,9,1.3,15,M,,M,,*5D
06/06/2014	13:09:08.542	$GPGGA,130909,2421.6666,N,08133.6586,W,1,9,1.4,16,M,,M,,*58
06/06/2014	13:09:11.049	$GPGGA,130910,2421.6676,N,08133.6608,W,1,9,1.4,16,M,,M,,*54
06/06/2014	13:09:11.069	$GPGGA,130911,2421.6684,N,08133.6630,W,1,9,1.4,16,M,,M,,*53
06/06/2014	13:09:11.650	$GPGGA,130912,2421.6694,N,08133.6652,W,1,9,1.4,16,M,,M,,*55
06/06/2014	13:09:12.633	$GPGGA,130913,2421.6702,N,08133.6673,W,1,9,1.4,16,M,,M,,*59
06/06/2014	13:09:13.545	$GPGGA,130914,2421.6712,N,08133.6695,W,1,9,1.4,16,M,,M,,*57
06/06/2014	13:09:14.658	$GPGGA,130915,2421.6722,N,08133.6716,W,1,9,1.4,16,M,,M,,*5F
06/06/2014	13:09:15.651	$GPGGA,130916,2421.6730,N,08133.6738,W,1,9,1.4,16,M,,M,,*53
06/06/2014	13:09:16.633	$GPGGA,130917,2421.6740,N,08133.6759,W,1,9,1.4,16,M,,M,,*52
06/06/2014	13:09:17.626	$GPGGA,130918,2421.6749,N,08133.6777,W,1,9,1.4,16,M,,M,,*58
06/06/2014	13:09:18.659	$GPGGA,130919,2421.6759,N,08133.6799,W,1,10,1.3,16,M,,M,,*67
06/06/2014	13:09:19.650	$GPGGA,130920,2421.6767,N,08133.6821,W,1,10,1.4,16,M,,M,,*6B
06/06/2014	13:09:20.652	$GPGGA,130921,2421.6777,N,08133.6842,W,1,9,1.4,16,M,,M,,*56
06/06/2014	13:09:21.635	$GPGGA,130922,2421.6785,N,08133.6864,W,1,9,1.4,16,M,,M,,*5C
06/06/2014	13:09:22.658	$GPGGA,130923,2421.6796,N,08133.6886,W,1,9,1.4,16,M,,M,,*53
06/06/2014	13:09:23.650	$GPGGA,130924,2421.6805,N,08133.6907,W,1,9,1.4,16,M,,M,,*59
06/06/2014	13:09:24.663	$GPGGA,130925,2421.6814,N,08133.6927,W,1,9,1.4,16,M,,M,,*5A
06/06/2014	13:09:25.635	$GPGGA,130926,2421.6821,N,08133.6948,W,1,9,1.5,16,M,,M,,*57
06/06/2014	13:09:26.658	$GPGGA,130927,2421.6830,N,08133.6970,W,1,10,1.3,16,M,,M,,*63
06/06/2014	13:09:27.671	$GPGGA,130928,2421.6839,N,08133.6992,W,1,10,1.3,16,M,,M,,*69
06/06/2014	13:09:28.663	$GPGGA,130929,2421.6848,N,08133.7014,W,1,10,1.3,16,M,,M,,*68
06/06/2014	13:09:29.646	$GPGGA,130930,2421.6857,N,08133.7037,W,1,10,1.3,16,M,,M,,*6F
06/06/2014	13:09:30.638	$GPGGA,130931,2421.6866,N,08133.7056,W,1,9,1.4,16,M,,M,,*54
06/06/2014	13:09:31.681	$GPGGA,130932,2421.6875,N,08133.7077,W,1,9,1.3,16,M,,M,,*51
06/06/2014	13:09:32.644	$GPGGA,130933,2421.6884,N,08133.7099,W,1,10,1.3,16,M,,M,,*66
06/06/2014	13:09:33.656	$GPGGA,130934,2421.6893,N,08133.7121,W,1,10,1.3,16,M,,M,,*65
06/06/2014	13:09:34.679	$GPGGA,130935,2421.6903,N,08133.7142,W,1,9,1.5,16,M,,M,,*57
06/06/2014	13:09:35.661	$GPGGA,130936,2421.6914,N,08133.7162,W,1,9,1.3,16,M,,M,,*56
06/06/2014	13:09:36.490	$GPGGA,130937,2421.6924,N,08133.7184,W,1,10,1.3,16,M,,M,,*64
06/06/2014	13:09:37.511	$GPGGA,130938,2421.6933,N,08133.7205,W,1,10,1.3,16,M,,M,,*67
06/06/2014	13:09:38.533	$GPGGA,130939,2421.6943,N,08133.7226,W,1,10,1.3,16,M,,M,,*60
06/06/2014	13:09:39.516	$GPGGA,130940,2421.6953,N,08133.7248,W,1,10,1.3,16,M,,M,,*67
06/06/2014	13:09:40.489	$GPGGA,130941,2421.6962,N,08133.7269,W,1,10,1.3,16,M,,M,,*67
06/06/2014	13:09:41.511	$GPGGA,130942,2421.6972,N,08133.7290,W,1,10,1.3,16,M,,M,,*63
06/06/2014	13:09:42.624	$GPGGA,130943,2421.6980,N,08133.7312,W,1,10,1.3,16,M,,M,,*64
06/06/2014	13:09:43.616	$GPGGA,130944,2421.6989,N,08133.7332,W,1,10,1.3,16,M,,M,,*68
06/06/2014	13:09:44.509	$GPGGA,130945,2421.6998,N,08133.7353,W,1,10,1.3,16,M,,M,,*6E
06/06/2014	13:09:45.592	$GPGGA,130946,2421.7005,N,08133.7375,W,1,10,1.4,16,M,,M,,*62
06/06/2014	13:09:46.624	$GPGGA,130947,2421.7015,N,08133.7395,W,1,9,1.3,16,M,,M,,*53
06/06/2014	13:09:47.527	$GPGGA,130948,2421.7023,N,08133.7417,W,1,9,1.3,16,M,,M,,*54
06/06/2014	13:09:48.509	$GPGGA,130949,2421.7031,N,08133.7439,W,1,9,1.4,16,M,,M,,*5D
06/06/2014	13:09:49.513	$GPGGA,130950,2421.7040,N,08133.7460,W,1,9,1.4,16,M,,M,,*5F
06/06/2014	13:09:50.504	$GPGGA,130951,2421.7048,N,08133.7482,W,1,9,1.4,16,M,,M,,*5A
06/06/2014	13:09:51.518	$GPGGA,130952,2421.7056,N,08133.7504,W,1,9,1.4,16,M,,M,,*59
06/06/2014	13:09:52.620	$GPGGA,130953,2421.7065,N,08133.7525,W,1,9,1.4,16,M,,M,,*5B
06/06/2014	13:09:53.602	$GPGGA,130954,2421.7074,N,08133.7547,W,1,9,1.4,16,M,,M,,*58
06/06/2014	13:09:54.494	$GPGGA,130955,2421.7081,N,08133.7569,W,1,9,1.4,16,M,,M,,*5F
06/06/2014	13:09:55.627	$GPGGA,130956,2421.7090,N,08133.7591,W,1,9,1.4,16,M,,M,,*5B
06/06/2014	13:09:56.619	$GPGGA,130957,2421.7099,N,08133.7613,W,1,9,1.4,16,M,,M,,*5A
06/06/2014	13:09:57.602	$GPGGA,130958,2421.7106,N,08133.7635,W,1,9,1.4,16,M,,M,,*56
06/06/2014	13:09:58.604	$GPGGA,130959,2421.7114,N,08133.7657,W,1,9,1.4,16,M,,M,,*50
06/06/2014	13:09:59.627	$GPGGA,131000,2421.7123,N,08133.7681,W,1,9,1.4,16,M,,M,,*5B
06/06/2014	13:10:00.609	$GPGGA,131001,2421.7131,N,08133.7702,W,1,9,1.4,16,M,,M,,*53
06/06/2014	13:10:01.612	$GPGGA,131002,2421.7139,N,08133.7724,W,1,9,1.4,16,M,,M,,*5C
06/06/2014	13:10:02.625	$GPGGA,131003,2421.7146,N,08133.7746,W,1,9,1.4,16,M,,M,,*51
06/06/2014	13:10:03.627	$GPGGA,131004,2421.7155,N,08133.7767,W,1,9,1.4,16,M,,M,,*57
06/06/2014	13:10:04.630	$GPGGA,131005,2421.7163,N,08133.7789,W,1,9,1.4,16,M,,M,,*53
06/06/2014	13:10:05.602	$GPGGA,131006,2421.7171,N,08133.7811,W,1,9,1.4,16,M,,M,,*5D
06/06/2014	13:10:06.635	$GPGGA,131007,2421.7179,N,08133.7832,W,1,9,1.4,16,M,,M,,*55
06/06/2014	13:10:07.618	$GPGGA,131008,2421.7188,N,08133.7850,W,1,9,1.3,16,M,,M,,*57
06/06/2014	13:10:08.620	$GPGGA,131009,2421.7197,N,08133.7872,W,1,10,1.3,16,M,,M,,*60
06/06/2014	13:10:09.613	$GPGGA,131010,2421.7206,N,08133.7894,W,1,10,1.7,16,M,,M,,*6F
06/06/2014	13:10:10.625	$GPGGA,131011,2421.7214,N,08133.7915,W,1,9,1.7,16,M,,M,,*5D
06/06/2014	13:10:11.618	$GPGGA,131012,2421.7222,N,08133.7937,W,1,9,1.8,16,M,,M,,*54
06/06/2014	13:10:12.620	$GPGGA,131013,2421.7231,N,08133.7959,W,1,8,1.7,16,M,,M,,*51
06/06/2014	13:10:13.606	$GPGGA,131014,2421.7239,N,08133.7981,W,1,8,1.7,16,M,,M,,*5B
06/06/2014	13:10:14.625	$GPGGA,131015,2421.7247,N,08133.8002,W,1,9,1.7,16,M,,M,,*5F
06/06/2014	13:10:15.637	$GPGGA,131016,2421.7257,N,08133.8024,W,1,9,1.7,16,M,,M,,*59
06/06/2014	13:10:16.630	$GPGGA,131017,2421.7265,N,08133.8046,W,1,9,1.7,16,M,,M,,*5D
06/06/2014	13:10:17.603	$GPGGA,131018,2421.7273,N,08133.8067,W,1,9,1.7,16,M,,M,,*56
06/06/2014	13:10:18.625	$GPGGA,131019,2421.7283,N,08133.8089,W,1,9,1.7,16,M,,M,,*58
06/06/2014	13:10:19.628	$GPGGA,131020,2421.7293,N,08133.8110,W,1,9,1.7,16,M,,M,,*52
06/06/2014	13:10:20.640	$GPGGA,131021,2421.7301,N,08133.8132,W,1,9,1.7,16,M,,M,,*59
06/06/2014	13:10:21.603	$GPGGA,131022,2421.7309,N,08133.8152,W,1,9,1.7,16,M,,M,,*54
06/06/2014	13:10:22.606	$GPGGA,131023,2421.7319,N,08133.8175,W,1,9,1.7,16,M,,M,,*51
06/06/2014	13:10:23.618	$GPGGA,131024,2421.7327,N,08133.8195,W,1,9,1.7,16,M,,M,,*55
06/06/2014	13:10:24.611	$GPGGA,131025,2421.7337,N,08133.8216,W,1,9,1.7,16,M,,M,,*5D
06/06/2014	13:10:25.623	$GPGGA,131026,2421.7345,N,08133.8237,W,1,9,1.7,16,M,,M,,*58
06/06/2014	13:10:26.626	$GPGGA,131027,2421.7355,N,08133.8259,W,1,9,1.7,16,M,,M,,*50
06/06/2014	13:10:27.629	$GPGGA,131028,2421.7365,N,08133.8280,W,1,9,1.7,16,M,,M,,*58
06/06/2014	13:10:28.641	$GPGGA,131029,2421.7374,N,08133.8302,W,1,9,1.7,16,M,,M,,*52
06/06/2014	13:10:29.723	$GPGGA,131030,2421.7383,N,08133.8322,W,1,9,1.7,16,M,,M,,*50
06/06/2014	13:10:30.726	$GPGGA,131031,2421.7392,N,08133.8343,W,1,9,1.7,16,M,,M,,*56
06/06/2014	13:10:31.638	$GPGGA,131032,2421.7402,N,08133.8365,W,1,9,1.8,16,M,,M,,*50
06/06/2014	13:10:32.641	$GPGGA,131033,2421.7410,N,08133.8386,W,1,8,1.8,16,M,,M,,*5E
06/06/2014	13:10:33.613	$GPGGA,131034,2421.7421,N,08133.8407,W,1,8,1.7,16,M,,M,,*5A
06/06/2014	13:10:34.706	$GPGGA,131035,2421.7430,N,08133.8426,W,1,9,1.7,16,M,,M,,*59
06/06/2014	13:10:35.638	$GPGGA,131036,2421.7439,N,08133.8447,W,1,9,1.7,16,M,,M,,*54
06/06/2014	13:10:36.457	$GPGGA,131037,2421.7449,N,08133.8468,W,1,9,1.7,16,M,,M,,*5F
06/06/2014	13:10:37.480	$GPGGA,131038,2421.7457,N,08133.8490,W,1,9,1.7,16,M,,M,,*58
06/06/2014	13:10:38.562	$GPGGA,131039,2421.7467,N,08133.8509,W,1,9,1.7,16,M,,M,,*5B
06/06/2014	13:10:39.585	$GPGGA,131040,2421.7475,N,08133.8530,W,1,9,1.7,16,M,,M,,*5C
06/06/2014	13:10:40.588	$GPGGA,131041,2421.7485,N,08133.8552,W,1,9,1.8,16,M,,M,,*59
06/06/2014	13:10:41.480	$GPGGA,131042,2421.7493,N,08133.8576,W,1,9,1.7,16,M,,M,,*54
06/06/2014	13:10:42.563	$GPGGA,131043,2421.7504,N,08133.8598,W,1,9,1.7,16,M,,M,,*5A
06/06/2014	13:10:43.495	$GPGGA,131044,2421.7513,N,08133.8621,W,1,9,1.7,16,M,,M,,*5A
06/06/2014	13:10:44.468	$GPGGA,131045,2421.7521,N,08133.8645,W,1,9,1.8,16,M,,M,,*57
06/06/2014	13:10:45.560	$GPGGA,131046,2421.7531,N,08133.8667,W,1,9,1.7,16,M,,M,,*5A
06/06/2014	13:10:46.562	$GPGGA,131047,2421.7540,N,08133.8689,W,1,9,1.7,16,M,,M,,*5D
06/06/2014	13:10:47.575	$GPGGA,131048,2421.7549,N,08133.8710,W,1,9,1.7,16,M,,M,,*5A
06/06/2014	13:10:48.597	$GPGGA,131049,2421.7558,N,08133.8729,W,1,9,1.7,16,M,,M,,*51
06/06/2014	13:10:49.570	$GPGGA,131050,2421.7567,N,08133.8751,W,1,9,1.8,16,M,,M,,*55
06/06/2014	13:10:50.603	$GPGGA,131051,2421.7575,N,08133.8772,W,1,8,1.8,16,M,,M,,*57
06/06/2014	13:10:51.575	$GPGGA,131052,2421.7583,N,08133.8793,W,1,8,1.7,16,M,,M,,*5D
06/06/2014	13:10:52.588	$GPGGA,131053,2421.7594,N,08133.8813,W,1,9,1.7,15,M,,M,,*5F
06/06/2014	13:10:53.560	$GPGGA,131054,2421.7603,N,08133.8834,W,1,9,1.7,15,M,,M,,*50
06/06/2014	13:10:54.563	$GPGGA,131055,2421.7611,N,08133.8855,W,1,8,1.8,15,M,,M,,*5B
06/06/2014	13:10:55.575	$GPGGA,131056,2421.7619,N,08133.8876,W,1,8,1.8,15,M,,M,,*51
06/06/2014	13:10:56.588	$GPGGA,131057,2421.7630,N,08133.8898,W,1,9,1.7,15,M,,M,,*55
06/06/2014	13:10:57.571	$GPGGA,131058,2421.7639,N,08133.8918,W,1,9,1.7,15,M,,M,,*5A
06/06/2014	13:10:58.583	$GPGGA,131059,2421.7648,N,08133.8939,W,1,9,1.7,15,M,,M,,*5E
06/06/2014	13:10:59.596	$GPGGA,131100,2421.7656,N,08133.8961,W,1,9,1.8,15,M,,M,,*5E
06/06/2014	13:11:00.588	$GPGGA,131101,2421.7666,N,08133.8982,W,1,8,1.8,15,M,,M,,*50
06/06/2014	13:11:01.571	$GPGGA,131102,2421.7676,N,08133.9004,W,1,8,1.8,15,M,,M,,*54
06/06/2014	13:11:02.584	$GPGGA,131103,2421.7684,N,08133.9025,W,1,8,1.8,15,M,,M,,*5B
06/06/2014	13:11:03.596	$GPGGA,131104,2421.7692,N,08133.9047,W,1,8,1.8,15,M,,M,,*5F
06/06/2014	13:11:04.598	$GPGGA,131105,2421.7702,N,08133.9068,W,1,8,1.8,15,M,,M,,*5B
06/06/2014	13:11:05.580	$GPGGA,131106,2421.7710,N,08133.9090,W,1,8,1.8,15,M,,M,,*5C
06/06/2014	13:11:06.603	$GPGGA,131107,2421.7717,N,08133.9111,W,1,8,1.8,15,M,,M,,*52
06/06/2014	13:11:07.586	$GPGGA,131108,2421.7727,N,08133.9133,W,1,8,1.8,15,M,,M,,*5E
06/06/2014	13:11:08.618	$GPGGA,131109,2421.7735,N,08133.9155,W,1,8,1.8,15,M,,M,,*5C
06/06/2014	13:11:09.561	$GPGGA,131110,2421.7742,N,08133.9176,W,1,8,1.8,15,M,,M,,*55
06/06/2014	13:11:10.573	$GPGGA,131111,2421.7752,N,08133.9198,W,1,8,1.8,15,M,,M,,*55
06/06/2014	13:11:11.586	$GPGGA,131112,2421.7760,N,08133.9220,W,1,8,1.8,15,M,,M,,*57
06/06/2014	13:11:12.609	$GPGGA,131113,2421.7767,N,08133.9241,W,1,8,1.8,15,M,,M,,*56
06/06/2014	13:11:13.571	$GPGGA,131114,2421.7775,N,08133.9263,W,1,8,1.8,15,M,,M,,*52
06/06/2014	13:11:14.585	$GPGGA,131115,2421.7784,N,08133.9283,W,1,8,1.8,15,M,,M,,*53
06/06/2014	13:11:15.576	$GPGGA,131116,2421.7792,N,08133.9306,W,1,8,1.8,15,M,,M,,*5B
06/06/2014	13:11:16.579	$GPGGA,131117,2421.7800,N,08133.9328,W,1,8,1.8,15,M,,M,,*52
06/06/2014	13:11:17.582	$GPGGA,131118,2421.7807,N,08133.9350,W,1,8,1.8,15,M,,M,,*55
06/06/2014	13:11:18.694	$GPGGA,131119,2421.7817,N,08133.9371,W,1,8,1.8,15,M,,M,,*56
06/06/2014	13:11:19.597	$GPGGA,131120,2421.7825,N,08133.9393,W,1,8,1.8,15,M,,M,,*51
06/06/2014	13:11:20.590	$GPGGA,131121,2421.7832,N,08133.9415,W,1,8,1.8,15,M,,M,,*5F
06/06/2014	13:11:21.592	$GPGGA,131122,2421.7840,N,08133.9436,W,1,8,1.8,15,M,,M,,*58
06/06/2014	13:11:22.694	$GPGGA,131123,2421.7849,N,08133.9458,W,1,8,1.8,15,M,,M,,*58
06/06/2014	13:11:23.606	$GPGGA,131124,2421.7858,N,08133.9478,W,1,8,1.8,15,M,,M,,*5D
06/06/2014	13:11:24.599	$GPGGA,131125,2421.7865,N,08133.9499,W,1,8,1.8,15,M,,M,,*5D
06/06/2014	13:11:25.671	$GPGGA,131126,2421.7875,N,08133.9521,W,1,8,1.8,15,M,,M,,*5D
06/06/2014	13:11:26.594	$GPGGA,131127,2421.7883,N,08133.9542,W,1,9,1.7,15,M,,M,,*5E
06/06/2014	13:11:27.687	$GPGGA,131128,2421.7892,N,08133.9563,W,1,9,1.7,15,M,,M,,*52
06/06/2014	13:11:28.579	$GPGGA,131129,2421.7900,N,08133.9585,W,1,9,1.7,15,M,,M,,*51
06/06/2014	13:11:29.682	$GPGGA,131130,2421.7908,N,08133.9604,W,1,9,1.7,15,M,,M,,*5B
06/06/2014	13:11:30.684	$GPGGA,131131,2421.7918,N,08133.9625,W,1,9,1.7,15,M,,M,,*58
06/06/2014	13:11:31.597	$GPGGA,131132,2421.7926,N,08133.9646,W,1,9,1.7,15,M,,M,,*53
06/06/2014	13:11:32.599	$GPGGA,131133,2421.7934,N,08133.9667,W,1,9,1.7,15,M,,M,,*52
06/06/2014	13:11:33.592	$GPGGA,131134,2421.7944,N,08133.9687,W,1,9,1.7,15,M,,M,,*5C
06/06/2014	13:11:34.715	$GPGGA,131135,2421.7954,N,08133.9708,W,1,9,1.7,15,M,,M,,*5A
06/06/2014	13:11:35.697	$GPGGA,131136,2421.7962,N,08133.9729,W,1,9,1.7,15,M,,M,,*5F
06/06/2014	13:11:36.525	$GPGGA,131137,2421.7972,N,08133.9751,W,1,9,1.7,15,M,,M,,*50
06/06/2014	13:11:37.528	$GPGGA,131138,2421.7980,N,08133.9772,W,1,9,1.7,15,M,,M,,*53
06/06/2014	13:11:38.530	$GPGGA,131139,2421.7990,N,08133.9792,W,1,9,1.7,15,M,,M,,*5D
06/06/2014	13:11:39.552	$GPGGA,131140,2421.7999,N,08133.9813,W,1,9,1.7,16,M,,M,,*5F
06/06/2014	13:11:40.554	$GPGGA,131141,2421.8008,N,08133.9834,W,1,9,1.7,16,M,,M,,*55
06/06/2014	13:11:41.527	$GPGGA,131142,2421.8017,N,08133.9855,W,1,9,1.8,16,M,,M,,*50
06/06/2014	13:11:42.550	$GPGGA,131143,2421.8027,N,08133.9877,W,1,8,1.8,16,M,,M,,*53
06/06/2014	13:11:43.542	$GPGGA,131144,2421.8035,N,08133.9896,W,1,8,1.8,16,M,,M,,*58
06/06/2014	13:11:44.545	$GPGGA,131145,2421.8045,N,08133.9917,W,1,9,1.7,16,M,,M,,*58
06/06/2014	13:11:45.537	$GPGGA,131146,2421.8055,N,08133.9940,W,1,9,1.7,16,M,,M,,*58
06/06/2014	13:11:46.550	$GPGGA,131147,2421.8064,N,08133.9960,W,1,9,1.7,16,M,,M,,*59
06/06/2014	13:11:47.553	$GPGGA,131148,2421.8073,N,08133.9982,W,1,9,1.7,16,M,,M,,*5C
06/06/2014	13:11:48.555	$GPGGA,131149,2421.8082,N,08134.0004,W,1,8,1.8,16,M,,M,,*54
06/06/2014	13:11:49.538	$GPGGA,131150,2421.8092,N,08134.0026,W,1,8,1.8,16,M,,M,,*5D
