Software Version Number: 1	Data File Format Number: 1	Build Version Number: 1	Error Count Since VI Started: 0	Manufacturer: Raytheon	 Model Number: RayMarine 120	 S/N: 	 Cal Date: 	 Wind Direction Offset: 0.00	 Slope (M)1: 0.00	 Offset (B)1: 0.00	 Slope (M)2: 0.00	 Offset (B)2: 0.00	 Slope (M)3: 0.00	 Offset (B)3: 0.00	 Slope (M)4: 0.00	 Offset (B)4: 0.00	 Slope (M)5: 0.00	 Offset (B)5: 0.00	 Slope (M)6: 0.00	 Offset (B)6: 0.00
Computer Date	Computer Time	GGA String
06/06/2014	01:00:00.861	$GPGGA,010001,2428.6577,N,08117.1518,W,1,7,2.1,25,M,,M,,*5E
06/06/2014	01:00:01.833	$GPGGA,010002,2428.6599,N,08117.1503,W,1,7,2.1,26,M,,M,,*54
06/06/2014	01:00:02.804	$GPGGA,010003,2428.6619,N,08117.1489,W,1,7,2.1,26,M,,M,,*5D
06/06/2014	01:00:03.847	$GPGGA,010004,2428.6642,N,08117.1475,W,1,7,2.1,26,M,,M,,*57
06/06/2014	01:00:04.819	$GPGGA,010005,2428.6664,N,08117.1461,W,1,7,2.1,26,M,,M,,*57
06/06/2014	01:00:05.842	$GPGGA,010006,2428.6686,N,08117.1446,W,1,7,2.1,26,M,,M,,*5D
06/06/2014	01:00:06.843	$GPGGA,010007,2428.6707,N,08117.1432,W,1,7,2.1,26,M,,M,,*57
06/06/2014	01:00:07.886	$GPGGA,010008,2428.6730,N,08117.1417,W,1,7,2.1,26,M,,M,,*5B
06/06/2014	01:00:08.959	$GPGGA,010009,2428.6751,N,08117.1403,W,1,7,2.1,26,M,,M,,*58
06/06/2014	01:00:09.900	$GPGGA,010010,2428.6773,N,08117.1388,W,1,7,2.9,26,M,,M,,*5C
06/06/2014	01:00:10.953	$GPGGA,010011,2428.6796,N,08117.1372,W,1,6,2.9,26,M,,M,,*52
06/06/2014	01:00:11.864	$GPGGA,010012,2428.6817,N,08117.1355,W,1,6,2.9,26,M,,M,,*52
06/06/2014	01:00:12.896	$GPGGA,010013,2428.6837,N,08117.1344,W,1,6,2.1,25,M,,M,,*5A
06/06/2014	01:00:13.969	$GPGGA,010014,2428.6857,N,08117.1334,W,1,6,2.1,25,M,,M,,*5C
06/06/2014	01:00:14.951	$GPGGA,010015,2428.6879,N,08117.1319,W,1,7,2.1,25,M,,M,,*5F
06/06/2014	01:00:17.470	$GPGGA,010017,2428.6922,N,08117.1287,W,1,6,2.1,25,M,,M,,*55
06/06/2014	01:00:18.017	$GPGGA,010018,2428.6940,N,08117.1278,W,1,6,2.1,25,M,,M,,*5E
06/06/2014	01:00:18.988	$GPGGA,010019,2428.6962,N,08117.1265,W,1,7,2.1,26,M,,M,,*51
06/06/2014	01:00:20.041	$GPGGA,010020,2428.6983,N,08117.1249,W,1,7,2.9,26,M,,M,,*52
06/06/2014	01:00:21.053	$GPGGA,010021,2428.7005,N,08117.1232,W,1,6,2.9,26,M,,M,,*58
06/06/2014	01:00:22.066	$GPGGA,010022,2428.7029,N,08117.1216,W,1,6,2.9,26,M,,M,,*53
06/06/2014	01:00:23.068	$GPGGA,010023,2428.7052,N,08117.1201,W,1,6,2.1,25,M,,M,,*53
06/06/2014	01:00:24.090	$GPGGA,010024,2428.7072,N,08117.1185,W,1,6,2.1,25,M,,M,,*59
06/06/2014	01:00:25.122	$GPGGA,010025,2428.7095,N,08117.1169,W,1,7,2.9,25,M,,M,,*5A
06/06/2014	01:00:26.094	$GPGGA,010026,2428.7117,N,08117.1154,W,1,7,2.9,25,M,,M,,*5C
06/06/2014	01:00:27.127	$GPGGA,010027,2428.7138,N,08117.1139,W,1,6,2.9,25,M,,M,,*5A
06/06/2014	01:00:28.129	$GPGGA,010028,2428.7160,N,08117.1124,W,1,6,2.9,25,M,,M,,*54
06/06/2014	01:00:29.151	$GPGGA,010029,2428.7182,N,08117.1108,W,1,6,2.9,24,M,,M,,*56
06/06/2014	01:00:30.163	$GPGGA,010030,2428.7203,N,08117.1094,W,1,6,2.1,24,M,,M,,*58
06/06/2014	01:00:31.175	$GPGGA,010031,2428.7224,N,08117.1079,W,1,7,2.1,24,M,,M,,*5E
06/06/2014	01:00:32.169	$GPGGA,010032,2428.7246,N,08117.1063,W,1,7,2.1,24,M,,M,,*52
06/06/2014	01:00:33.172	$GPGGA,010033,2428.7265,N,08117.1048,W,1,7,2.1,24,M,,M,,*5B
06/06/2014	01:00:34.176	$GPGGA,010034,2428.7287,N,08117.1034,W,1,7,2.1,24,M,,M,,*5B
06/06/2014	01:00:35.181	$GPGGA,010035,2428.7308,N,08117.1019,W,1,7,2.1,23,M,,M,,*54
06/06/2014	01:00:35.502	$GPGGA,010036,2428.7329,N,08117.1004,W,1,7,2.1,23,M,,M,,*58
06/06/2014	01:00:36.479	$GPGGA,010037,2428.7348,N,08117.0990,W,1,7,2.1,23,M,,M,,*5B
06/06/2014	01:00:37.494	$GPGGA,010038,2428.7370,N,08117.0975,W,1,7,2.1,23,M,,M,,*54
06/06/2014	01:00:38.510	$GPGGA,010039,2428.7391,N,08117.0961,W,1,7,2.1,23,M,,M,,*5F
06/06/2014	01:00:39.516	$GPGGA,010040,2428.7412,N,08117.0947,W,1,7,2.1,23,M,,M,,*59
06/06/2014	01:00:40.512	$GPGGA,010041,2428.7432,N,08117.0931,W,1,7,2.1,23,M,,M,,*5B
06/06/2014	01:00:41.508	$GPGGA,010042,2428.7453,N,08117.0916,W,1,7,2.1,23,M,,M,,*5A
06/06/2014	01:00:42.544	$GPGGA,010043,2428.7475,N,08117.0903,W,1,7,2.1,23,M,,M,,*5B
06/06/2014	01:00:43.550	$GPGGA,010044,2428.7475,N,08117.0903,W,1,7,2.1,23,M,,M,,*5C
06/06/2014	01:00:44.527	$GPGGA,010045,2428.7517,N,08117.0873,W,1,7,2.1,23,M,,M,,*5E
06/06/2014	01:00:45.522	$GPGGA,010046,2428.7536,N,08117.0858,W,1,7,2.1,23,M,,M,,*57
06/06/2014	01:00:46.528	$GPGGA,010047,2428.7558,N,08117.0844,W,1,7,2.1,23,M,,M,,*53
06/06/2014	01:00:47.564	$GPGGA,010048,2428.7579,N,08117.0829,W,1,7,2.1,23,M,,M,,*54
06/06/2014	01:00:48.530	$GPGGA,010049,2428.7600,N,08117.0814,W,1,7,2.1,23,M,,M,,*56
06/06/2014	01:00:49.567	$GPGGA,010050,2428.7622,N,08117.0797,W,1,7,2.9,23,M,,M,,*52
06/06/2014	01:00:50.532	$GPGGA,010051,2428.7644,N,08117.0781,W,1,6,2.9,23,M,,M,,*55
06/06/2014	01:00:51.548	$GPGGA,010052,2428.7644,N,08117.0781,W,1,6,2.9,23,M,,M,,*56
06/06/2014	01:00:52.542	$GPGGA,010053,2428.7688,N,08117.0749,W,1,7,2.1,23,M,,M,,*5A
06/06/2014	01:00:53.579	$GPGGA,010054,2428.7708,N,08117.0737,W,1,7,2.1,23,M,,M,,*5D
06/06/2014	01:00:54.544	$GPGGA,010055,2428.7730,N,08117.0722,W,1,7,2.1,23,M,,M,,*53
06/06/2014	01:00:55.601	$GPGGA,010056,2428.7749,N,08117.0710,W,1,7,2.1,23,M,,M,,*5F
06/06/2014	01:00:56.536	$GPGGA,010057,2428.7770,N,08117.0698,W,1,7,2.1,23,M,,M,,*55
06/06/2014	01:00:57.663	$GPGGA,010058,2428.7792,N,08117.0682,W,1,7,2.1,23,M,,M,,*5D
06/06/2014	01:00:58.679	$GPGGA,010059,2428.7814,N,08117.0666,W,1,6,2.9,23,M,,M,,*5E
06/06/2014	01:00:59.695	$GPGGA,010100,2428.7836,N,08117.0650,W,1,6,2.9,23,M,,M,,*56
06/06/2014	01:01:00.661	$GPGGA,010101,2428.7860,N,08117.0635,W,1,6,2.9,23,M,,M,,*57
06/06/2014	01:01:01.586	$GPGGA,010102,2428.7860,N,08117.0635,W,1,6,2.9,23,M,,M,,*54
06/06/2014	01:01:02.693	$GPGGA,010103,2428.7903,N,08117.0605,W,1,6,2.9,23,M,,M,,*52
06/06/2014	01:01:03.699	$GPGGA,010104,2428.7923,N,08117.0594,W,1,6,2.1,23,M,,M,,*54
06/06/2014	01:01:04.705	$GPGGA,010105,2428.7944,N,08117.0582,W,1,7,2.1,23,M,,M,,*52
06/06/2014	01:01:05.701	$GPGGA,010106,2428.7965,N,08117.0567,W,1,7,2.1,23,M,,M,,*59
06/06/2014	01:01:06.717	$GPGGA,010107,2428.7986,N,08117.0555,W,1,7,2.1,23,M,,M,,*54
06/06/2014	01:01:07.703	$GPGGA,010108,2428.8008,N,08117.0543,W,1,7,2.1,24,M,,M,,*5B
06/06/2014	01:01:08.730	$GPGGA,010109,2428.8027,N,08117.0527,W,1,7,2.1,24,M,,M,,*55
06/06/2014	01:01:09.704	$GPGGA,010110,2428.8051,N,08117.0515,W,1,7,2.1,24,M,,M,,*5D
06/06/2014	01:01:10.720	$GPGGA,010111,2428.8073,N,08117.0503,W,1,7,2.1,24,M,,M,,*5B
06/06/2014	01:01:11.716	$GPGGA,010112,2428.8092,N,08117.0489,W,1,7,2.1,24,M,,M,,*54
06/06/2014	01:01:12.722	$GPGGA,010113,2428.8114,N,08117.0474,W,1,7,2.1,24,M,,M,,*58
06/06/2014	01:01:13.708	$GPGGA,010114,2428.8139,N,08117.0460,W,1,7,2.9,24,M,,M,,*5D
06/06/2014	01:01:14.734	$GPGGA,010115,2428.8158,N,08117.0445,W,1,6,2.9,24,M,,M,,*5D
06/06/2014	01:01:15.730	$GPGGA,010116,2428.8178,N,08117.0434,W,1,6,2.1,24,M,,M,,*52
06/06/2014	01:01:16.746	$GPGGA,010117,2428.8200,N,08117.0423,W,1,7,2.1,24,M,,M,,*58
06/06/2014	01:01:17.732	$GPGGA,010118,2428.8223,N,08117.0407,W,1,7,2.1,25,M,,M,,*51
06/06/2014	01:01:18.758	$GPGGA,010119,2428.8244,N,08117.0390,W,1,6,2.9,25,M,,M,,*51
06/06/2014	01:01:19.754	$GPGGA,010120,2428.8266,N,08117.0378,W,1,6,2.9,25,M,,M,,*5D
06/06/2014	01:01:20.770	$GPGGA,010121,2428.8287,N,08117.0365,W,1,7,2.1,25,M,,M,,*56
06/06/2014	01:01:21.756	$GPGGA,010122,2428.8308,N,08117.0351,W,1,7,2.1,25,M,,M,,*54
06/06/2014	01:01:22.752	$GPGGA,010123,2428.8330,N,08117.0337,W,1,7,2.1,25,M,,M,,*5E
06/06/2014	01:01:23.778	$GPGGA,010124,2428.8352,N,08117.0321,W,1,7,2.1,25,M,,M,,*5A
06/06/2014	01:01:24.784	$GPGGA,010125,2428.8374,N,08117.0305,W,1,6,2.9,25,M,,M,,*50
06/06/2014	01:01:25.760	$GPGGA,010126,2428.8396,N,08117.0289,W,1,6,2.1,25,M,,M,,*52
06/06/2014	01:01:26.756	$GPGGA,010127,2428.8418,N,08117.0273,W,1,6,2.9,25,M,,M,,*5F
06/06/2014	01:01:27.791	$GPGGA,010128,2428.8438,N,08117.0261,W,1,6,2.9,25,M,,M,,*51
06/06/2014	01:01:28.807	$GPGGA,010129,2428.8461,N,08117.0244,W,1,7,2.1,25,M,,M,,*52
06/06/2014	01:01:29.774	$GPGGA,010130,2428.8481,N,08117.0228,W,1,7,2.9,25,M,,M,,*56
06/06/2014	01:01:30.799	$GPGGA,010131,2428.8501,N,08117.0217,W,1,7,2.1,24,M,,M,,*5B
06/06/2014	01:01:31.795	$GPGGA,010132,2428.8522,N,08117.0204,W,1,7,2.1,24,M,,M,,*5B
06/06/2014	01:01:32.821	$GPGGA,010133,2428.8543,N,08117.0187,W,1,7,2.1,24,M,,M,,*55
06/06/2014	01:01:33.807	$GPGGA,010134,2428.8562,N,08117.0174,W,1,7,2.1,24,M,,M,,*5D
06/06/2014	01:01:34.813	$GPGGA,010135,2428.8584,N,08117.0162,W,1,7,2.1,24,M,,M,,*53
06/06/2014	01:01:35.450	$GPGGA,010136,2428.8605,N,08117.0146,W,1,7,2.1,24,M,,M,,*5C
06/06/2014	01:01:36.476	$GPGGA,010137,2428.8624,N,08117.0130,W,1,7,2.1,24,M,,M,,*5F
06/06/2014	01:01:37.441	$GPGGA,010138,2428.8645,N,08117.0116,W,1,7,2.1,24,M,,M,,*53
06/06/2014	01:01:38.447	$GPGGA,010139,2428.8667,N,08117.0100,W,1,7,2.1,24,M,,M,,*55
06/06/2014	01:01:39.484	$GPGGA,010140,2428.8687,N,08117.0085,W,1,7,2.1,24,M,,M,,*59
06/06/2014	01:01:40.480	$GPGGA,010141,2428.8707,N,08117.0070,W,1,7,2.1,24,M,,M,,*5B
06/06/2014	01:01:41.556	$GPGGA,010142,2428.8730,N,08117.0055,W,1,7,2.1,24,M,,M,,*5B
06/06/2014	01:01:42.481	$GPGGA,010143,2428.8749,N,08117.0039,W,1,7,2.1,24,M,,M,,*5E
06/06/2014	01:01:43.498	$GPGGA,010144,2428.8768,N,08117.0026,W,1,7,2.1,25,M,,M,,*55
06/06/2014	01:01:44.482	$GPGGA,010145,2428.8790,N,08117.0011,W,1,7,2.1,25,M,,M,,*57
06/06/2014	01:01:45.488	$GPGGA,010146,2428.8812,N,08116.9994,W,1,7,2.1,25,M,,M,,*5D
06/06/2014	01:01:46.474	$GPGGA,010147,2428.8833,N,08116.9980,W,1,6,2.9,25,M,,M,,*53
06/06/2014	01:01:47.500	$GPGGA,010148,2428.8854,N,08116.9966,W,1,6,2.1,25,M,,M,,*5D
06/06/2014	01:01:48.587	$GPGGA,010149,2428.8876,N,08116.9949,W,1,7,2.1,25,M,,M,,*50
06/06/2014	01:01:49.603	$GPGGA,010150,2428.8898,N,08116.9932,W,1,7,2.9,25,M,,M,,*5C
06/06/2014	01:01:50.589	$GPGGA,010151,2428.8920,N,08116.9917,W,1,6,2.9,25,M,,M,,*59
06/06/2014	01:01:51.616	$GPGGA,010152,2428.8941,N,08116.9901,W,1,6,2.1,25,M,,M,,*52
06/06/2014	01:01:52.631	$GPGGA,010153,2428.8963,N,08116.9886,W,1,7,2.1,25,M,,M,,*5C
06/06/2014	01:01:53.536	$GPGGA,010154,2428.8984,N,08116.9871,W,1,7,2.1,25,M,,M,,*5A
06/06/2014	01:01:54.643	$GPGGA,010155,2428.9007,N,08116.9856,W,1,7,2.1,25,M,,M,,*5D
06/06/2014	01:01:55.649	$GPGGA,010156,2428.9028,N,08116.9841,W,1,7,2.9,25,M,,M,,*5D
06/06/2014	01:01:56.655	$GPGGA,010157,2428.9049,N,08116.9825,W,1,7,2.1,24,M,,M,,*50
06/06/2014	01:01:57.621	$GPGGA,010158,2428.9071,N,08116.9810,W,1,7,2.9,24,M,,M,,*5A
06/06/2014	01:01:58.647	$GPGGA,010159,2428.9093,N,08116.9796,W,1,6,2.9,24,M,,M,,*57
06/06/2014	01:01:59.653	$GPGGA,010200,2428.9113,N,08116.9783,W,1,6,2.9,24,M,,M,,*55
06/06/2014	01:02:00.659	$GPGGA,010201,2428.9135,N,08116.9769,W,1,7,2.1,24,M,,M,,*5D
06/06/2014	01:02:01.645	$GPGGA,010202,2428.9157,N,08116.9753,W,1,7,2.1,24,M,,M,,*53
06/06/2014	01:02:02.650	$GPGGA,010203,2428.9179,N,08116.9739,W,1,6,2.9,24,M,,M,,*5B
06/06/2014	01:02:03.656	$GPGGA,010204,2428.9202,N,08116.9725,W,1,6,2.9,24,M,,M,,*5E
06/06/2014	01:02:04.662	$GPGGA,010205,2428.9223,N,08116.9711,W,1,6,2.9,24,M,,M,,*5B
06/06/2014	01:02:05.668	$GPGGA,010206,2428.9245,N,08116.9695,W,1,6,2.9,23,M,,M,,*52
06/06/2014	01:02:06.674	$GPGGA,010207,2428.9267,N,08116.9681,W,1,6,2.9,23,M,,M,,*56
06/06/2014	01:02:07.680	$GPGGA,010208,2428.9290,N,08116.9668,W,1,6,2.9,23,M,,M,,*56
06/06/2014	01:02:08.696	$GPGGA,010209,2428.9310,N,08116.9653,W,1,6,2.9,23,M,,M,,*56
06/06/2014	01:02:09.692	$GPGGA,010210,2428.9332,N,08116.9638,W,1,6,2.1,23,M,,M,,*5B
06/06/2014	01:02:10.688	$GPGGA,010211,2428.9353,N,08116.9627,W,1,6,2.9,23,M,,M,,*5B
06/06/2014	01:02:11.695	$GPGGA,010212,2428.9375,N,08116.9611,W,1,6,2.1,23,M,,M,,*51
06/06/2014	01:02:12.700	$GPGGA,010213,2428.9397,N,08116.9597,W,1,6,2.9,23,M,,M,,*59
06/06/2014	01:02:13.686	$GPGGA,010214,2428.9419,N,08116.9583,W,1,6,2.9,23,M,,M,,*5A
06/06/2014	01:02:14.682	$GPGGA,010215,2428.9440,N,08116.9568,W,1,6,2.9,22,M,,M,,*53
06/06/2014	01:02:15.718	$GPGGA,010216,2428.9462,N,08116.9554,W,1,6,2.1,22,M,,M,,*57
06/06/2014	01:02:16.734	$GPGGA,010217,2428.9486,N,08116.9540,W,1,7,2.1,22,M,,M,,*58
06/06/2014	01:02:17.720	$GPGGA,010218,2428.9507,N,08116.9526,W,1,7,2.9,22,M,,M,,*57
06/06/2014	01:02:18.716	$GPGGA,010219,2428.9527,N,08116.9513,W,1,7,2.1,22,M,,M,,*5A
06/06/2014	01:02:19.721	$GPGGA,010220,2428.9551,N,08116.9498,W,1,7,2.1,22,M,,M,,*53
06/06/2014	01:02:20.737	$GPGGA,010221,2428.9572,N,08116.9486,W,1,6,2.9,22,M,,M,,*55
06/06/2014	01:02:21.712	$GPGGA,010222,2428.9592,N,08116.9472,W,1,6,2.1,22,M,,M,,*5B
06/06/2014	01:02:22.718	$GPGGA,010223,2428.9614,N,08116.9457,W,1,7,2.1,22,M,,M,,*51
06/06/2014	01:02:23.855	$GPGGA,010224,2428.9638,N,08116.9442,W,1,7,2.9,22,M,,M,,*54
06/06/2014	01:02:24.841	$GPGGA,010225,2428.9660,N,08116.9427,W,1,6,2.9,22,M,,M,,*5A
06/06/2014	01:02:25.726	$GPGGA,010226,2428.9681,N,08116.9412,W,1,6,2.9,22,M,,M,,*50
06/06/2014	01:02:26.732	$GPGGA,010227,2428.9703,N,08116.9398,W,1,7,2.1,22,M,,M,,*56
06/06/2014	01:02:27.759	$GPGGA,010228,2428.9725,N,08116.9384,W,1,7,2.1,22,M,,M,,*50
06/06/2014	01:02:28.875	$GPGGA,010229,2428.9746,N,08116.9369,W,1,7,2.1,22,M,,M,,*57
06/06/2014	01:02:29.750	$GPGGA,010230,2428.9767,N,08116.9355,W,1,7,2.1,22,M,,M,,*53
06/06/2014	01:02:30.877	$GPGGA,010231,2428.9789,N,08116.9342,W,1,7,2.1,22,M,,M,,*54
06/06/2014	01:02:31.762	$GPGGA,010232,2428.9809,N,08116.9327,W,1,7,2.1,22,M,,M,,*53
06/06/2014	01:02:32.758	$GPGGA,010233,2428.9832,N,08116.9313,W,1,7,2.1,22,M,,M,,*5D
06/06/2014	01:02:33.885	$GPGGA,010234,2428.9852,N,08116.9298,W,1,7,2.1,22,M,,M,,*5E
06/06/2014	01:02:34.780	$GPGGA,010235,2428.9874,N,08116.9283,W,1,7,2.1,22,M,,M,,*51
06/06/2014	01:02:35.437	$GPGGA,010236,2428.9895,N,08116.9269,W,1,7,2.1,22,M,,M,,*59
06/06/2014	01:02:36.513	$GPGGA,010237,2428.9917,N,08116.9254,W,1,7,2.1,22,M,,M,,*5D
06/06/2014	01:02:37.519	$GPGGA,010238,2428.9937,N,08116.9239,W,1,7,2.1,22,M,,M,,*5B
06/06/2014	01:02:38.525	$GPGGA,010239,2428.9957,N,08116.9224,W,1,7,2.1,22,M,,M,,*50
06/06/2014	01:02:39.561	$GPGGA,010240,2428.9980,N,08116.9210,W,1,7,2.1,22,M,,M,,*53
06/06/2014	01:02:40.436	$GPGGA,010241,2429.0000,N,08116.9195,W,1,7,2.1,22,M,,M,,*55
06/06/2014	01:02:41.533	$GPGGA,010242,2429.0021,N,08116.9180,W,1,7,2.1,22,M,,M,,*51
06/06/2014	01:02:42.539	$GPGGA,010243,2429.0042,N,08116.9165,W,1,7,2.1,22,M,,M,,*5E
06/06/2014	01:02:43.555	$GPGGA,010244,2429.0062,N,08116.9150,W,1,7,2.1,22,M,,M,,*5D
06/06/2014	01:02:44.551	$GPGGA,010245,2429.0083,N,08116.9135,W,1,7,2.1,22,M,,M,,*50
06/06/2014	01:02:45.547	$GPGGA,010246,2429.0105,N,08116.9119,W,1,7,2.1,22,M,,M,,*52
06/06/2014	01:02:46.583	$GPGGA,010247,2429.0126,N,08116.9103,W,1,7,2.1,22,M,,M,,*59
06/06/2014	01:02:47.579	$GPGGA,010248,2429.0147,N,08116.9088,W,1,7,2.1,22,M,,M,,*53
06/06/2014	01:02:48.556	$GPGGA,010249,2429.0168,N,08116.9072,W,1,7,2.1,22,M,,M,,*5A
06/06/2014	01:02:49.571	$GPGGA,010250,2429.0190,N,08116.9056,W,1,7,2.1,22,M,,M,,*53
06/06/2014	01:02:50.587	$GPGGA,010251,2429.0210,N,08116.9041,W,1,7,2.1,22,M,,M,,*5F
06/06/2014	01:02:51.593	$GPGGA,010252,2429.0231,N,08116.9026,W,1,7,2.1,22,M,,M,,*5E
06/06/2014	01:02:52.599	$GPGGA,010253,2429.0253,N,08116.9010,W,1,7,2.1,23,M,,M,,*5F
06/06/2014	01:02:53.586	$GPGGA,010254,2429.0274,N,08116.8994,W,1,7,2.1,23,M,,M,,*59
06/06/2014	01:02:54.600	$GPGGA,010255,2429.0295,N,08116.8979,W,1,7,2.1,23,M,,M,,*54
06/06/2014	01:02:55.606	$GPGGA,010256,2429.0317,N,08116.8964,W,1,7,2.1,23,M,,M,,*50
06/06/2014	01:02:56.612	$GPGGA,010257,2429.0339,N,08116.8948,W,1,7,2.1,23,M,,M,,*53
06/06/2014	01:02:57.608	$GPGGA,010258,2429.0358,N,08116.8933,W,1,7,2.1,23,M,,M,,*57
06/06/2014	01:02:58.594	$GPGGA,010259,2429.0379,N,08116.8919,W,1,7,2.1,23,M,,M,,*5D
06/06/2014	01:02:59.630	$GPGGA,010300,2429.0401,N,08116.8902,W,1,7,2.1,23,M,,M,,*52
06/06/2014	01:03:00.618	$GPGGA,010301,2429.0423,N,08116.8888,W,1,6,2.9,23,M,,M,,*59
06/06/2014	01:03:01.622	$GPGGA,010302,2429.0444,N,08116.8873,W,1,6,2.1,23,M,,M,,*57
06/06/2014	01:03:02.649	$GPGGA,010303,2429.0466,N,08116.8858,W,1,7,2.1,23,M,,M,,*5E
06/06/2014	01:03:03.634	$GPGGA,010304,2429.0487,N,08116.8844,W,1,7,2.1,23,M,,M,,*5B
06/06/2014	01:03:04.621	$GPGGA,010305,2429.0508,N,08116.8830,W,1,7,2.1,23,M,,M,,*5F
06/06/2014	01:03:05.626	$GPGGA,010306,2429.0528,N,08116.8816,W,1,7,2.1,23,M,,M,,*5A
06/06/2014	01:03:06.662	$GPGGA,010307,2429.0549,N,08116.8800,W,1,7,2.1,23,M,,M,,*5B
06/06/2014	01:03:07.658	$GPGGA,010308,2429.0571,N,08116.8785,W,1,7,2.1,23,M,,M,,*5D
06/06/2014	01:03:08.674	$GPGGA,010309,2429.0592,N,08116.8772,W,1,6,2.9,23,M,,M,,*50
06/06/2014	01:03:09.639	$GPGGA,010310,2429.0614,N,08116.8758,W,1,6,2.1,23,M,,M,,*55
06/06/2014	01:03:10.686	$GPGGA,010311,2429.0636,N,08116.8741,W,1,7,2.1,23,M,,M,,*5D
06/06/2014	01:03:11.681	$GPGGA,010312,2429.0658,N,08116.8726,W,1,7,2.1,23,M,,M,,*57
06/06/2014	01:03:12.767	$GPGGA,010313,2429.0679,N,08116.8715,W,1,6,2.9,23,M,,M,,*5C
06/06/2014	01:03:13.653	$GPGGA,010314,2429.0701,N,08116.8700,W,1,6,2.1,23,M,,M,,*59
06/06/2014	01:03:14.658	$GPGGA,010315,2429.0723,N,08116.8685,W,1,7,2.1,23,M,,M,,*55
06/06/2014	01:03:15.795	$GPGGA,010316,2429.0746,N,08116.8671,W,1,7,2.1,23,M,,M,,*5E
06/06/2014	01:03:16.670	$GPGGA,010317,2429.0769,N,08116.8657,W,1,6,2.9,23,M,,M,,*5F
06/06/2014	01:03:17.676	$GPGGA,010318,2429.0790,N,08116.8643,W,1,6,2.9,23,M,,M,,*53
06/06/2014	01:03:18.672	$GPGGA,010319,2429.0812,N,08116.8630,W,1,7,2.1,23,M,,M,,*5A
06/06/2014	01:03:19.819	$GPGGA,010320,2429.0835,N,08116.8616,W,1,7,2.1,23,M,,M,,*51
06/06/2014	01:03:20.694	$GPGGA,010321,2429.0856,N,08116.8601,W,1,6,2.9,23,M,,M,,*5A
06/06/2014	01:03:21.781	$GPGGA,010322,2429.0878,N,08116.8588,W,1,6,2.9,23,M,,M,,*57
06/06/2014	01:03:22.817	$GPGGA,010323,2429.0900,N,08116.8575,W,1,7,2.1,23,M,,M,,*53
06/06/2014	01:03:23.722	$GPGGA,010324,2429.0920,N,08116.8562,W,1,7,2.1,23,M,,M,,*50
06/06/2014	01:03:24.718	$GPGGA,010325,2429.0943,N,08116.8547,W,1,7,2.1,23,M,,M,,*53
06/06/2014	01:03:25.724	$GPGGA,010326,2429.0964,N,08116.8533,W,1,7,2.9,23,M,,M,,*5E
06/06/2014	01:03:26.841	$GPGGA,010327,2429.0983,N,08116.8522,W,1,7,2.1,23,M,,M,,*5E
06/06/2014	01:03:27.847	$GPGGA,010328,2429.1007,N,08116.8508,W,1,7,2.1,23,M,,M,,*5D
06/06/2014	01:03:28.732	$GPGGA,010329,2429.1029,N,08116.8492,W,1,7,2.1,23,M,,M,,*52
06/06/2014	01:03:29.828	$GPGGA,010330,2429.1048,N,08116.8480,W,1,7,2.9,23,M,,M,,*56
06/06/2014	01:03:30.824	$GPGGA,010331,2429.1069,N,08116.8468,W,1,7,2.1,23,M,,M,,*5A
06/06/2014	01:03:31.850	$GPGGA,010332,2429.1091,N,08116.8455,W,1,7,2.1,23,M,,M,,*50
06/06/2014	01:03:32.846	$GPGGA,010333,2429.1113,N,08116.8443,W,1,7,2.1,23,M,,M,,*5D
06/06/2014	01:03:33.852	$GPGGA,010334,2429.1134,N,08116.8427,W,1,7,2.1,23,M,,M,,*5D
06/06/2014	01:03:34.838	$GPGGA,010335,2429.1156,N,08116.8414,W,1,6,2.9,23,M,,M,,*51
06/06/2014	01:03:35.526	$GPGGA,010336,2429.1178,N,08116.8400,W,1,6,2.1,23,M,,M,,*53
06/06/2014	01:03:36.512	$GPGGA,010337,2429.1202,N,08116.8385,W,1,6,2.9,23,M,,M,,*5E
06/06/2014	01:03:37.498	$GPGGA,010338,2429.1223,N,08116.8372,W,1,6,2.9,23,M,,M,,*5A
06/06/2014	01:03:38.504	$GPGGA,010339,2429.1243,N,08116.8359,W,1,7,2.1,23,M,,M,,*5D
06/06/2014	01:03:39.520	$GPGGA,010340,2429.1264,N,08116.8346,W,1,7,2.1,23,M,,M,,*58
06/06/2014	01:03:40.508	$GPGGA,010341,2429.1286,N,08116.8331,W,1,7,2.1,23,M,,M,,*55
06/06/2014	01:03:41.522	$GPGGA,010342,2429.1308,N,08116.8316,W,1,7,2.1,23,M,,M,,*54
06/06/2014	01:03:42.528	$GPGGA,010343,2429.1329,N,08116.8301,W,1,7,2.1,23,M,,M,,*50
06/06/2014	01:03:43.554	$GPGGA,010344,2429.1351,N,08116.8287,W,1,7,2.1,23,M,,M,,*57
06/06/2014	01:03:44.530	$GPGGA,010345,2429.1373,N,08116.8273,W,1,7,2.1,23,M,,M,,*5D
06/06/2014	01:03:45.538	$GPGGA,010346,2429.1394,N,08116.8257,W,1,7,2.1,23,M,,M,,*51
06/06/2014	01:03:46.551	$GPGGA,010347,2429.1416,N,08116.8243,W,1,7,2.1,23,M,,M,,*58
06/06/2014	01:03:47.558	$GPGGA,010348,2429.1438,N,08116.8229,W,1,7,2.1,23,M,,M,,*57
06/06/2014	01:03:48.573	$GPGGA,010349,2429.1459,N,08116.8214,W,1,7,2.1,23,M,,M,,*5F
06/06/2014	01:03:49.549	$GPGGA,010350,2429.1480,N,08116.8198,W,1,7,2.1,23,M,,M,,*54
06/06/2014	01:03:50.545	$GPGGA,010351,2429.1501,N,08116.8184,W,1,7,2.1,23,M,,M,,*50
06/06/2014	01:03:51.561	$GPGGA,010352,2429.1524,N,08116.8169,W,1,7,2.1,23,M,,M,,*57
06/06/2014	01:03:52.587	$GPGGA,010353,2429.1545,N,08116.8155,W,1,7,2.1,23,M,,M,,*5E
06/06/2014	01:03:53.563	$GPGGA,010354,2429.1567,N,08116.8138,W,1,7,2.1,23,M,,M,,*52
06/06/2014	01:03:54.599	$GPGGA,010355,2429.1588,N,08116.8122,W,1,7,2.1,23,M,,M,,*59
06/06/2014	01:03:55.586	$GPGGA,010356,2429.1611,N,08116.8108,W,1,7,2.1,23,M,,M,,*51
06/06/2014	01:03:56.571	$GPGGA,010357,2429.1633,N,08116.8092,W,1,7,2.1,23,M,,M,,*52
06/06/2014	01:03:57.577	$GPGGA,010358,2429.1654,N,08116.8076,W,1,7,2.1,23,M,,M,,*56
06/06/2014	01:03:58.603	$GPGGA,010359,2429.1675,N,08116.8061,W,1,7,2.1,23,M,,M,,*52
06/06/2014	01:03:59.609	$GPGGA,010400,2429.1697,N,08116.8046,W,1,7,2.1,23,M,,M,,*50
06/06/2014	01:04:00.628	$GPGGA,010401,2429.1718,N,08116.8031,W,1,7,2.1,23,M,,M,,*57
06/06/2014	01:04:01.601	$GPGGA,010402,2429.1738,N,08116.8015,W,1,7,2.1,23,M,,M,,*50
06/06/2014	01:04:02.596	$GPGGA,010403,2429.1760,N,08116.8000,W,1,7,2.1,23,M,,M,,*58
06/06/2014	01:04:03.613	$GPGGA,010404,2429.1781,N,08116.7984,W,1,7,2.1,23,M,,M,,*5A
06/06/2014	01:04:04.618	$GPGGA,010405,2429.1803,N,08116.7969,W,1,7,2.1,23,M,,M,,*5D
06/06/2014	01:04:05.603	$GPGGA,010406,2429.1824,N,08116.7953,W,1,7,2.1,23,M,,M,,*52
06/06/2014	01:04:06.630	$GPGGA,010407,2429.1846,N,08116.7938,W,1,7,2.1,23,M,,M,,*5A
06/06/2014	01:04:07.636	$GPGGA,010408,2429.1868,N,08116.7923,W,1,7,2.1,23,M,,M,,*53
06/06/2014	01:04:08.611	$GPGGA,010409,2429.1889,N,08116.7907,W,1,7,2.1,23,M,,M,,*5B
06/06/2014	01:04:09.748	$GPGGA,010410,2429.1911,N,08116.7892,W,1,7,2.1,23,M,,M,,*5E
06/06/2014	01:04:10.613	$GPGGA,010411,2429.1933,N,08116.7878,W,1,7,2.1,23,M,,M,,*5B
06/06/2014	01:04:11.760	$GPGGA,010412,2429.1954,N,08116.7862,W,1,7,2.1,23,M,,M,,*52
06/06/2014	01:04:12.766	$GPGGA,010413,2429.1975,N,08116.7847,W,1,7,2.1,23,M,,M,,*57
06/06/2014	01:04:13.742	$GPGGA,010414,2429.1998,N,08116.7832,W,1,7,2.1,23,M,,M,,*51
06/06/2014	01:04:14.748	$GPGGA,010415,2429.2018,N,08116.7817,W,1,7,2.1,23,M,,M,,*55
06/06/2014	01:04:15.754	$GPGGA,010416,2429.2040,N,08116.7803,W,1,7,2.1,23,M,,M,,*5E
06/06/2014	01:04:16.780	$GPGGA,010417,2429.2061,N,08116.7787,W,1,7,2.1,23,M,,M,,*5F
06/06/2014	01:04:17.756	$GPGGA,010418,2429.2081,N,08116.7773,W,1,7,2.1,23,M,,M,,*55
06/06/2014	01:04:18.772	$GPGGA,010419,2429.2103,N,08116.7759,W,1,7,2.1,23,M,,M,,*57
06/06/2014	01:04:19.778	$GPGGA,010420,2429.2126,N,08116.7743,W,1,7,2.1,23,M,,M,,*51
06/06/2014	01:04:20.784	$GPGGA,010421,2429.2146,N,08116.7729,W,1,7,2.1,23,M,,M,,*5A
06/06/2014	01:04:21.769	$GPGGA,010422,2429.2168,N,08116.7716,W,1,7,2.1,23,M,,M,,*59
06/06/2014	01:04:22.795	$GPGGA,010423,2429.2191,N,08116.7700,W,1,7,2.1,23,M,,M,,*59
06/06/2014	01:04:23.791	$GPGGA,010424,2429.2211,N,08116.7686,W,1,7,2.1,23,M,,M,,*5A
06/06/2014	01:04:24.797	$GPGGA,010425,2429.2233,N,08116.7673,W,1,7,2.1,23,M,,M,,*51
06/06/2014	01:04:25.793	$GPGGA,010426,2429.2257,N,08116.7658,W,1,7,2.1,23,M,,M,,*59
06/06/2014	01:04:26.819	$GPGGA,010427,2429.2278,N,08116.7644,W,1,7,2.1,23,M,,M,,*58
06/06/2014	01:04:27.805	$GPGGA,010428,2429.2300,N,08116.7631,W,1,7,2.1,23,M,,M,,*5B
06/06/2014	01:04:28.821	$GPGGA,010429,2429.2322,N,08116.7617,W,1,7,2.1,23,M,,M,,*5E
06/06/2014	01:04:29.807	$GPGGA,010430,2429.2345,N,08116.7603,W,1,7,2.9,23,M,,M,,*5A
06/06/2014	01:04:30.833	$GPGGA,010431,2429.2365,N,08116.7592,W,1,6,2.1,23,M,,M,,*5B
06/06/2014	01:04:31.829	$GPGGA,010432,2429.2385,N,08116.7580,W,1,6,2.1,23,M,,M,,*55
06/06/2014	01:04:32.825	$GPGGA,010433,2429.2406,N,08116.7569,W,1,7,2.1,23,M,,M,,*5E
06/06/2014	01:04:33.831	$GPGGA,010434,2429.2427,N,08116.7558,W,1,7,2.1,23,M,,M,,*58
06/06/2014	01:04:34.847	$GPGGA,010435,2429.2449,N,08116.7545,W,1,7,2.1,23,M,,M,,*5D
06/06/2014	01:04:35.484	$GPGGA,010436,2429.2471,N,08116.7533,W,1,7,2.1,23,M,,M,,*54
06/06/2014	01:04:36.490	$GPGGA,010437,2429.2492,N,08116.7520,W,1,7,2.1,23,M,,M,,*5A
06/06/2014	01:04:37.482	$GPGGA,010438,2429.2514,N,08116.7505,W,1,7,2.9,24,M,,M,,*52
06/06/2014	01:04:38.502	$GPGGA,010439,2429.2538,N,08116.7491,W,1,6,2.9,24,M,,M,,*50
06/06/2014	01:04:39.507	$GPGGA,010440,2429.2561,N,08116.7476,W,1,6,2.9,24,M,,M,,*5B
06/06/2014	01:04:40.483	$GPGGA,010441,2429.2582,N,08116.7462,W,1,6,2.1,24,M,,M,,*5A
06/06/2014	01:04:41.499	$GPGGA,010442,2429.2605,N,08116.7448,W,1,6,2.9,24,M,,M,,*55
06/06/2014	01:04:42.505	$GPGGA,010443,2429.2627,N,08116.7434,W,1,6,2.9,23,M,,M,,*58
06/06/2014	01:04:43.521	$GPGGA,010444,2429.2650,N,08116.7421,W,1,6,2.1,23,M,,M,,*53
06/06/2014	01:04:44.528	$GPGGA,010445,2429.2673,N,08116.7405,W,1,7,2.9,23,M,,M,,*5C
06/06/2014	01:04:45.513	$GPGGA,010446,2429.2694,N,08116.7393,W,1,7,2.1,23,M,,M,,*56
06/06/2014	01:04:46.539	$GPGGA,010447,2429.2715,N,08116.7381,W,1,7,2.1,23,M,,M,,*5C
06/06/2014	01:04:47.515	$GPGGA,010448,2429.2737,N,08116.7368,W,1,7,2.1,23,M,,M,,*54
06/06/2014	01:04:48.521	$GPGGA,010449,2429.2757,N,08116.7353,W,1,7,2.1,23,M,,M,,*5B
06/06/2014	01:04:49.527	$GPGGA,010450,2429.2778,N,08116.7341,W,1,7,2.1,23,M,,M,,*5D
06/06/2014	01:04:50.643	$GPGGA,010451,2429.2802,N,08116.7328,W,1,7,2.1,23,M,,M,,*51
06/06/2014	01:04:51.564	$GPGGA,010452,2429.2822,N,08116.7314,W,1,7,2.1,23,M,,M,,*5F
06/06/2014	01:04:52.645	$GPGGA,010453,2429.2843,N,08116.7301,W,1,7,2.1,23,M,,M,,*5D
06/06/2014	01:04:53.551	$GPGGA,010454,2429.2867,N,08116.7286,W,1,7,2.1,23,M,,M,,*52
06/06/2014	01:04:54.536	$GPGGA,010455,2429.2887,N,08116.7272,W,1,7,2.1,23,M,,M,,*56
06/06/2014	01:04:55.673	$GPGGA,010456,2429.2908,N,08116.7258,W,1,7,2.1,23,M,,M,,*5B
06/06/2014	01:04:56.547	$GPGGA,010457,2429.2930,N,08116.7243,W,1,7,2.1,23,M,,M,,*5B
06/06/2014	01:04:57.644	$GPGGA,010458,2429.2952,N,08116.7228,W,1,7,2.1,23,M,,M,,*5D
06/06/2014	01:04:58.559	$GPGGA,010459,2429.2973,N,08116.7214,W,1,7,2.1,23,M,,M,,*50
06/06/2014	01:04:59.686	$GPGGA,010500,2429.2995,N,08116.7200,W,1,7,2.1,23,M,,M,,*50
06/06/2014	01:05:00.591	$GPGGA,010501,2429.3017,N,08116.7185,W,1,7,2.1,23,M,,M,,*5D
06/06/2014	01:05:01.577	$GPGGA,010502,2429.3038,N,08116.7169,W,1,7,2.1,23,M,,M,,*51
06/06/2014	01:05:02.674	$GPGGA,010503,2429.3060,N,08116.7155,W,1,7,2.1,23,M,,M,,*52
06/06/2014	01:05:03.690	$GPGGA,010504,2429.3081,N,08116.7140,W,1,7,2.1,23,M,,M,,*5E
06/06/2014	01:05:04.706	$GPGGA,010505,2429.3103,N,08116.7124,W,1,7,2.1,23,M,,M,,*56
06/06/2014	01:05:05.673	$GPGGA,010506,2429.3124,N,08116.7110,W,1,7,2.1,23,M,,M,,*57
06/06/2014	01:05:06.708	$GPGGA,010507,2429.3145,N,08116.7095,W,1,7,2.1,23,M,,M,,*5D
06/06/2014	01:05:07.714	$GPGGA,010508,2429.3165,N,08116.7077,W,1,7,2.1,23,M,,M,,*5C
06/06/2014	01:05:08.700	$GPGGA,010509,2429.3186,N,08116.7062,W,1,6,2.6,23,M,,M,,*52
06/06/2014	01:05:09.696	$GPGGA,010510,2429.3208,N,08116.7047,W,1,6,2.1,23,M,,M,,*5F
06/06/2014	01:05:10.712	$GPGGA,010511,2429.3230,N,08116.7029,W,1,7,2.1,23,M,,M,,*5C
06/06/2014	01:05:11.738	$GPGGA,010512,2429.3250,N,08116.7012,W,1,7,2.1,23,M,,M,,*51
06/06/2014	01:05:12.714	$GPGGA,010513,2429.3270,N,08116.6997,W,1,6,2.1,24,M,,M,,*51
06/06/2014	01:05:13.710	$GPGGA,010514,2429.3293,N,08116.6981,W,1,6,2.1,24,M,,M,,*5C
06/06/2014	01:05:14.735	$GPGGA,010515,2429.3312,N,08116.6965,W,1,7,2.1,24,M,,M,,*5E
06/06/2014	01:05:15.731	$GPGGA,010516,2429.3334,N,08116.6949,W,1,7,2.1,24,M,,M,,*57
06/06/2014	01:05:16.737	$GPGGA,010517,2429.3356,N,08116.6934,W,1,7,2.1,24,M,,M,,*58
06/06/2014	01:05:17.723	$GPGGA,010518,2429.3377,N,08116.6920,W,1,7,2.1,24,M,,M,,*51
06/06/2014	01:05:18.749	$GPGGA,010519,2429.3399,N,08116.6904,W,1,7,2.1,24,M,,M,,*56
06/06/2014	01:05:19.745	$GPGGA,010520,2429.3420,N,08116.6887,W,1,7,2.1,24,M,,M,,*53
06/06/2014	01:05:20.751	$GPGGA,010521,2429.3441,N,08116.6873,W,1,7,2.1,24,M,,M,,*5E
06/06/2014	01:05:21.747	$GPGGA,010522,2429.3461,N,08116.6858,W,1,7,2.1,24,M,,M,,*56
06/06/2014	01:05:22.743	$GPGGA,010523,2429.3483,N,08116.6843,W,1,7,2.1,25,M,,M,,*50
06/06/2014	01:05:23.759	$GPGGA,010524,2429.3504,N,08116.6826,W,1,7,2.1,25,M,,M,,*5A
06/06/2014	01:05:24.765	$GPGGA,010525,2429.3525,N,08116.6813,W,1,7,2.1,25,M,,M,,*5E
06/06/2014	01:05:25.751	$GPGGA,010526,2429.3547,N,08116.6799,W,1,7,2.1,25,M,,M,,*54
06/06/2014	01:05:26.787	$GPGGA,010527,2429.3569,N,08116.6783,W,1,7,2.1,25,M,,M,,*52
06/06/2014	01:05:27.783	$GPGGA,010528,2429.3590,N,08116.6769,W,1,7,2.1,25,M,,M,,*5F
06/06/2014	01:05:28.799	$GPGGA,010529,2429.3611,N,08116.6756,W,1,7,2.1,25,M,,M,,*58
06/06/2014	01:05:29.775	$GPGGA,010530,2429.3633,N,08116.6742,W,1,7,2.1,25,M,,M,,*55
06/06/2014	01:05:30.770	$GPGGA,010531,2429.3655,N,08116.6726,W,1,7,2.1,25,M,,M,,*56
06/06/2014	01:05:31.804	$GPGGA,010532,2429.3676,N,08116.6713,W,1,7,2.9,25,M,,M,,*5A
06/06/2014	01:05:32.788	$GPGGA,010533,2429.3698,N,08116.6700,W,1,7,2.1,25,M,,M,,*51
06/06/2014	01:05:33.782	$GPGGA,010534,2429.3720,N,08116.6685,W,1,7,2.1,25,M,,M,,*58
06/06/2014	01:05:34.816	$GPGGA,010535,2429.3741,N,08116.6670,W,1,7,2.1,25,M,,M,,*54
06/06/2014	01:05:35.449	$GPGGA,010536,2429.3763,N,08116.6657,W,1,7,2.1,25,M,,M,,*52
06/06/2014	01:05:36.433	$GPGGA,010537,2429.3783,N,08116.6642,W,1,6,2.9,25,M,,M,,*50
06/06/2014	01:05:37.437	$GPGGA,010538,2429.3806,N,08116.6629,W,1,6,2.1,25,M,,M,,*58
06/06/2014	01:05:38.451	$GPGGA,010539,2429.3828,N,08116.6615,W,1,7,2.1,25,M,,M,,*5B
06/06/2014	01:05:39.455	$GPGGA,010540,2429.3848,N,08116.6600,W,1,7,2.1,25,M,,M,,*57
06/06/2014	01:05:41.703	$GPGGA,010541,2429.3871,N,08116.6588,W,1,6,2.9,25,M,,M,,*56
06/06/2014	01:05:41.723	$GPGGA,010542,2429.3893,N,08116.6575,W,1,6,2.1,25,M,,M,,*53
06/06/2014	01:05:42.446	$GPGGA,010543,2429.3915,N,08116.6562,W,1,7,2.1,25,M,,M,,*5A
06/06/2014	01:05:43.580	$GPGGA,010544,2429.3936,N,08116.6550,W,1,7,2.1,25,M,,M,,*5D
06/06/2014	01:05:44.454	$GPGGA,010545,2429.3956,N,08116.6538,W,1,7,2.1,26,M,,M,,*57
06/06/2014	01:05:45.467	$GPGGA,010546,2429.3978,N,08116.6527,W,1,7,2.1,26,M,,M,,*56
06/06/2014	01:05:46.451	$GPGGA,010547,2429.4001,N,08116.6512,W,1,7,2.1,26,M,,M,,*51
06/06/2014	01:05:47.585	$GPGGA,010548,2429.4023,N,08116.6497,W,1,7,2.9,26,M,,M,,*5A
06/06/2014	01:05:48.569	$GPGGA,010549,2429.4045,N,08116.6483,W,1,6,2.9,26,M,,M,,*5F
06/06/2014	01:05:49.572	$GPGGA,010550,2429.4068,N,08116.6470,W,1,6,2.1,26,M,,M,,*5C
06/06/2014	01:05:50.455	$GPGGA,010551,2429.4090,N,08116.6456,W,1,7,2.1,26,M,,M,,*5F
06/06/2014	01:05:51.479	$GPGGA,010552,2429.4111,N,08116.6444,W,1,7,2.9,26,M,,M,,*5F
06/06/2014	01:05:52.463	$GPGGA,010553,2429.4133,N,08116.6431,W,1,7,2.1,26,M,,M,,*54
06/06/2014	01:05:53.577	$GPGGA,010554,2429.4155,N,08116.6418,W,1,7,2.1,26,M,,M,,*58
06/06/2014	01:05:54.561	$GPGGA,010555,2429.4176,N,08116.6405,W,1,7,2.1,26,M,,M,,*54
06/06/2014	01:05:55.585	$GPGGA,010556,2429.4197,N,08116.6393,W,1,7,2.1,26,M,,M,,*50
06/06/2014	01:05:56.588	$GPGGA,010557,2429.4220,N,08116.6380,W,1,7,2.1,26,M,,M,,*5C
06/06/2014	01:05:57.572	$GPGGA,010558,2429.4241,N,08116.6366,W,1,7,2.1,26,M,,M,,*5C
06/06/2014	01:05:58.586	$GPGGA,010559,2429.4263,N,08116.6354,W,1,7,2.1,26,M,,M,,*5C
06/06/2014	01:05:59.600	$GPGGA,010600,2429.4285,N,08116.6340,W,1,7,2.1,26,M,,M,,*5E
06/06/2014	01:06:00.594	$GPGGA,010601,2429.4306,N,08116.6327,W,1,7,2.1,26,M,,M,,*54
06/06/2014	01:06:01.587	$GPGGA,010602,2429.4328,N,08116.6313,W,1,7,2.1,26,M,,M,,*5C
06/06/2014	01:06:02.601	$GPGGA,010603,2429.4350,N,08116.6300,W,1,7,2.1,26,M,,M,,*50
06/06/2014	01:06:03.595	$GPGGA,010604,2429.4370,N,08116.6287,W,1,7,2.1,26,M,,M,,*5B
06/06/2014	01:06:04.609	$GPGGA,010605,2429.4393,N,08116.6273,W,1,7,2.1,26,M,,M,,*5C
06/06/2014	01:06:05.583	$GPGGA,010606,2429.4414,N,08116.6258,W,1,7,2.1,26,M,,M,,*5E
06/06/2014	01:06:06.605	$GPGGA,010607,2429.4435,N,08116.6243,W,1,7,2.1,26,M,,M,,*56
06/06/2014	01:06:07.609	$GPGGA,010608,2429.4455,N,08116.6231,W,1,7,2.1,26,M,,M,,*5A
06/06/2014	01:06:08.613	$GPGGA,010609,2429.4476,N,08116.6216,W,1,7,2.1,26,M,,M,,*5F
06/06/2014	01:06:09.587	$GPGGA,010610,2429.4498,N,08116.6200,W,1,7,2.1,26,M,,M,,*50
06/06/2014	01:06:10.590	$GPGGA,010611,2429.4519,N,08116.6187,W,1,7,2.1,26,M,,M,,*55
06/06/2014	01:06:11.604	$GPGGA,010612,2429.4541,N,08116.6173,W,1,7,2.1,26,M,,M,,*50
06/06/2014	01:06:12.618	$GPGGA,010613,2429.4563,N,08116.6157,W,1,7,2.1,26,M,,M,,*57
06/06/2014	01:06:13.642	$GPGGA,010614,2429.4583,N,08116.6141,W,1,7,2.1,26,M,,M,,*59
06/06/2014	01:06:14.616	$GPGGA,010615,2429.4603,N,08116.6128,W,1,6,2.6,26,M,,M,,*5A
06/06/2014	01:06:15.620	$GPGGA,010616,2429.4624,N,08116.6113,W,1,6,2.1,26,M,,M,,*53
06/06/2014	01:06:16.643	$GPGGA,010617,2429.4646,N,08116.6097,W,1,7,2.1,26,M,,M,,*5A
06/06/2014	01:06:17.597	$GPGGA,010618,2429.4667,N,08116.6081,W,1,7,2.1,26,M,,M,,*51
06/06/2014	01:06:18.641	$GPGGA,010619,2429.4688,N,08116.6067,W,1,7,2.1,26,M,,M,,*59
06/06/2014	01:06:19.625	$GPGGA,010620,2429.4708,N,08116.6052,W,1,7,2.1,26,M,,M,,*5C
06/06/2014	01:06:20.649	$GPGGA,010621,2429.4729,N,08116.6036,W,1,7,2.1,26,M,,M,,*5C
06/06/2014	01:06:21.612	$GPGGA,010622,2429.4751,N,08116.6021,W,1,7,2.1,26,M,,M,,*56
06/06/2014	01:06:22.726	$GPGGA,010623,2429.4772,N,08116.6007,W,1,7,2.1,26,M,,M,,*52
06/06/2014	01:06:23.620	$GPGGA,010624,2429.4794,N,08116.5991,W,1,7,2.1,26,M,,M,,*58
06/06/2014	01:06:24.657	$GPGGA,010625,2429.4815,N,08116.5977,W,1,7,2.1,26,M,,M,,*57
06/06/2014	01:06:25.626	$GPGGA,010626,2429.4836,N,08116.5963,W,1,7,2.1,27,M,,M,,*51
06/06/2014	01:06:26.630	$GPGGA,010627,2429.4858,N,08116.5948,W,1,7,2.1,27,M,,M,,*51
06/06/2014	01:06:27.634	$GPGGA,010628,2429.4879,N,08116.5933,W,1,7,2.1,27,M,,M,,*51
06/06/2014	01:06:28.718	$GPGGA,010629,2429.4901,N,08116.5919,W,1,7,2.1,27,M,,M,,*56
06/06/2014	01:06:29.632	$GPGGA,010630,2429.4921,N,08116.5905,W,1,7,2.1,27,M,,M,,*51
06/06/2014	01:06:30.756	$GPGGA,010631,2429.4944,N,08116.5890,W,1,7,2.1,27,M,,M,,*5E
06/06/2014	01:06:31.639	$GPGGA,010632,2429.4964,N,08116.5876,W,1,7,2.1,27,M,,M,,*57
06/06/2014	01:06:32.753	$GPGGA,010633,2429.4986,N,08116.5861,W,1,7,2.1,27,M,,M,,*5C
06/06/2014	01:06:33.637	$GPGGA,010634,2429.5010,N,08116.5846,W,1,7,2.1,27,M,,M,,*59
06/06/2014	01:06:34.671	$GPGGA,010635,2429.5031,N,08116.5833,W,1,7,2.1,27,M,,M,,*59
06/06/2014	01:06:35.519	$GPGGA,010636,2429.5053,N,08116.5819,W,1,7,2.1,27,M,,M,,*56
06/06/2014	01:06:36.512	$GPGGA,010637,2429.5075,N,08116.5804,W,1,7,2.1,27,M,,M,,*5F
06/06/2014	01:06:37.426	$GPGGA,010638,2429.5096,N,08116.5790,W,1,7,2.1,27,M,,M,,*5F
06/06/2014	01:06:38.550	$GPGGA,010639,2429.5116,N,08116.5777,W,1,7,2.1,27,M,,M,,*5E
06/06/2014	01:06:39.544	$GPGGA,010640,2429.5140,N,08116.5763,W,1,7,2.1,27,M,,M,,*56
06/06/2014	01:06:40.518	$GPGGA,010641,2429.5162,N,08116.5748,W,1,7,2.1,27,M,,M,,*5E
06/06/2014	01:06:41.530	$GPGGA,010642,2429.5181,N,08116.5735,W,1,7,2.1,27,M,,M,,*5A
06/06/2014	01:06:42.544	$GPGGA,010643,2429.5204,N,08116.5722,W,1,7,2.1,27,M,,M,,*53
06/06/2014	01:06:43.558	$GPGGA,010644,2429.5226,N,08116.5707,W,1,7,2.1,27,M,,M,,*53
06/06/2014	01:06:44.532	$GPGGA,010645,2429.5246,N,08116.5693,W,1,7,2.1,27,M,,M,,*58
06/06/2014	01:06:45.536	$GPGGA,010646,2429.5268,N,08116.5681,W,1,7,2.1,27,M,,M,,*54
06/06/2014	01:06:46.559	$GPGGA,010647,2429.5289,N,08116.5667,W,1,7,2.1,27,M,,M,,*52
06/06/2014	01:06:47.543	$GPGGA,010648,2429.5311,N,08116.5652,W,1,7,2.1,27,M,,M,,*5B
06/06/2014	01:06:48.557	$GPGGA,010649,2429.5333,N,08116.5639,W,1,7,2.1,26,M,,M,,*56
06/06/2014	01:06:49.531	$GPGGA,010650,2429.5354,N,08116.5626,W,1,7,2.1,26,M,,M,,*51
06/06/2014	01:06:50.545	$GPGGA,010651,2429.5376,N,08116.5612,W,1,7,2.1,26,M,,M,,*57
06/06/2014	01:06:51.558	$GPGGA,010652,2429.5400,N,08116.5598,W,1,7,2.1,26,M,,M,,*53
06/06/2014	01:06:52.542	$GPGGA,010653,2429.5421,N,08116.5585,W,1,7,2.1,26,M,,M,,*5D
06/06/2014	01:06:53.546	$GPGGA,010654,2429.5443,N,08116.5571,W,1,7,2.1,26,M,,M,,*55
06/06/2014	01:06:54.550	$GPGGA,010655,2429.5466,N,08116.5559,W,1,7,2.1,26,M,,M,,*59
06/06/2014	01:06:55.554	$GPGGA,010656,2429.5487,N,08116.5545,W,1,7,2.1,26,M,,M,,*58
06/06/2014	01:06:56.557	$GPGGA,010657,2429.5508,N,08116.5531,W,1,7,2.1,26,M,,M,,*5C
06/06/2014	01:06:57.551	$GPGGA,010658,2429.5531,N,08116.5517,W,1,7,2.1,26,M,,M,,*5D
06/06/2014	01:06:58.575	$GPGGA,010659,2429.5553,N,08116.5505,W,1,7,2.1,26,M,,M,,*5B
06/06/2014	01:06:59.578	$GPGGA,010700,2429.5574,N,08116.5490,W,1,7,2.1,26,M,,M,,*5E
06/06/2014	01:07:00.563	$GPGGA,010701,2429.5596,N,08116.5476,W,1,7,2.1,25,M,,M,,*58
06/06/2014	01:07:01.555	$GPGGA,010702,2429.5618,N,08116.5463,W,1,7,2.1,25,M,,M,,*5A
06/06/2014	01:07:02.549	$GPGGA,010703,2429.5640,N,08116.5450,W,1,7,2.1,25,M,,M,,*56
06/06/2014	01:07:03.573	$GPGGA,010704,2429.5664,N,08116.5435,W,1,7,2.1,25,M,,M,,*54
06/06/2014	01:07:04.587	$GPGGA,010705,2429.5685,N,08116.5421,W,1,7,2.1,25,M,,M,,*5F
06/06/2014	01:07:05.570	$GPGGA,010706,2429.5707,N,08116.5409,W,1,7,2.1,25,M,,M,,*5D
06/06/2014	01:07:06.594	$GPGGA,010707,2429.5729,N,08116.5395,W,1,7,2.1,25,M,,M,,*52
06/06/2014	01:07:07.578	$GPGGA,010708,2429.5751,N,08116.5380,W,1,7,2.1,25,M,,M,,*56
06/06/2014	01:07:08.562	$GPGGA,010709,2429.5772,N,08116.5367,W,1,7,2.1,25,M,,M,,*5F
06/06/2014	01:07:09.576	$GPGGA,010710,2429.5795,N,08116.5353,W,1,7,2.1,24,M,,M,,*58
06/06/2014	01:07:10.589	$GPGGA,010711,2429.5816,N,08116.5339,W,1,7,2.1,24,M,,M,,*51
06/06/2014	01:07:11.583	$GPGGA,010712,2429.5835,N,08116.5324,W,1,7,2.1,24,M,,M,,*5F
06/06/2014	01:07:12.597	$GPGGA,010713,2429.5858,N,08116.5310,W,1,7,1.9,24,M,,M,,*59
06/06/2014	01:07:13.572	$GPGGA,010714,2429.5878,N,08116.5295,W,1,7,1.9,24,M,,M,,*50
06/06/2014	01:07:14.585	$GPGGA,010715,2429.5900,N,08116.5281,W,1,7,1.9,24,M,,M,,*5A
06/06/2014	01:07:15.608	$GPGGA,010716,2429.5921,N,08116.5268,W,1,7,2.1,24,M,,M,,*56
06/06/2014	01:07:16.671	$GPGGA,010717,2429.5943,N,08116.5254,W,1,7,1.9,24,M,,M,,*57
06/06/2014	01:07:17.575	$GPGGA,010718,2429.5965,N,08116.5239,W,1,7,1.9,24,M,,M,,*57
06/06/2014	01:07:18.589	$GPGGA,010719,2429.5986,N,08116.5225,W,1,7,2.1,24,M,,M,,*5D
06/06/2014	01:07:19.593	$GPGGA,010720,2429.6008,N,08116.5211,W,1,7,1.9,24,M,,M,,*57
06/06/2014	01:07:20.576	$GPGGA,010721,2429.6030,N,08116.5196,W,1,7,1.9,24,M,,M,,*51
06/06/2014	01:07:21.680	$GPGGA,010722,2429.6051,N,08116.5181,W,1,7,1.9,24,M,,M,,*53
06/06/2014	01:07:22.584	$GPGGA,010723,2429.6073,N,08116.5167,W,1,7,1.9,24,M,,M,,*5A
06/06/2014	01:07:23.698	$GPGGA,010724,2429.6095,N,08116.5153,W,1,7,1.9,24,M,,M,,*52
06/06/2014	01:07:24.782	$GPGGA,010725,2429.6116,N,08116.5138,W,1,7,1.9,24,M,,M,,*54
06/06/2014	01:07:25.595	$GPGGA,010726,2429.6138,N,08116.5123,W,1,7,1.9,24,M,,M,,*51
06/06/2014	01:07:26.609	$GPGGA,010727,2429.6160,N,08116.5109,W,1,7,1.9,24,M,,M,,*55
06/06/2014	01:07:27.753	$GPGGA,010728,2429.6184,N,08116.5094,W,1,7,1.5,24,M,,M,,*59
06/06/2014	01:07:28.807	$GPGGA,010729,2429.6207,N,08116.5079,W,1,7,1.5,24,M,,M,,*53
06/06/2014	01:07:29.731	$GPGGA,010730,2429.6230,N,08116.5065,W,1,7,1.5,24,M,,M,,*52
06/06/2014	01:07:30.795	$GPGGA,010731,2429.6252,N,08116.5051,W,1,7,1.5,24,M,,M,,*50
06/06/2014	01:07:31.770	$GPGGA,010732,2429.6274,N,08116.5035,W,1,7,1.5,24,M,,M,,*55
06/06/2014	01:07:32.813	$GPGGA,010733,2429.6297,N,08116.5020,W,1,7,1.5,24,M,,M,,*5D
06/06/2014	01:07:33.756	$GPGGA,010734,2429.6318,N,08116.5003,W,1,7,1.5,24,M,,M,,*5D
06/06/2014	01:07:34.829	$GPGGA,010735,2429.6340,N,08116.4988,W,1,7,1.5,24,M,,M,,*5A
06/06/2014	01:07:35.540	$GPGGA,010736,2429.6362,N,08116.4974,W,1,7,1.5,24,M,,M,,*5A
06/06/2014	01:07:36.641	$GPGGA,010737,2429.6384,N,08116.4958,W,1,7,1.5,24,M,,M,,*5D
06/06/2014	01:07:37.578	$GPGGA,010738,2429.6405,N,08116.4943,W,1,7,1.5,24,M,,M,,*56
06/06/2014	01:07:38.669	$GPGGA,010739,2429.6427,N,08116.4929,W,1,7,1.5,25,M,,M,,*5A
06/06/2014	01:07:39.667	$GPGGA,010740,2429.6449,N,08116.4914,W,1,7,1.5,25,M,,M,,*52
06/06/2014	01:07:40.634	$GPGGA,010741,2429.6470,N,08116.4899,W,1,7,1.5,25,M,,M,,*5D
06/06/2014	01:07:41.683	$GPGGA,010742,2429.6492,N,08116.4884,W,1,7,1.5,25,M,,M,,*5E
06/06/2014	01:07:42.805	$GPGGA,010743,2429.6514,N,08116.4870,W,1,7,1.5,25,M,,M,,*5B
06/06/2014	01:07:43.752	$GPGGA,010744,2429.6536,N,08116.4856,W,1,7,1.5,25,M,,M,,*58
06/06/2014	01:07:44.853	$GPGGA,010745,2429.6559,N,08116.4840,W,1,7,1.5,25,M,,M,,*57
06/06/2014	01:07:45.769	$GPGGA,010746,2429.6579,N,08116.4827,W,1,7,1.5,25,M,,M,,*57
06/06/2014	01:07:46.911	$GPGGA,010747,2429.6600,N,08116.4813,W,1,8,1.5,25,M,,M,,*53
06/06/2014	01:07:47.868	$GPGGA,010748,2429.6622,N,08116.4799,W,1,8,1.5,25,M,,M,,*51
06/06/2014	01:07:48.939	$GPGGA,010749,2429.6644,N,08116.4784,W,1,9,1.5,25,M,,M,,*5D
06/06/2014	01:07:49.905	$GPGGA,010750,2429.6666,N,08116.4770,W,1,9,1.5,25,M,,M,,*5E
06/06/2014	01:07:51.017	$GPGGA,010751,2429.6689,N,08116.4756,W,1,9,1.5,25,M,,M,,*5A
06/06/2014	01:07:51.931	$GPGGA,010752,2429.6709,N,08116.4743,W,1,9,1.5,25,M,,M,,*54
06/06/2014	01:07:53.053	$GPGGA,010753,2429.6731,N,08116.4729,W,1,9,1.5,25,M,,M,,*52
06/06/2014	01:07:54.010	$GPGGA,010754,2429.6752,N,08116.4715,W,1,9,1.5,25,M,,M,,*5F
06/06/2014	01:07:55.090	$GPGGA,010755,2429.6774,N,08116.4701,W,1,9,1.5,25,M,,M,,*5F
06/06/2014	01:07:56.078	$GPGGA,010756,2429.6796,N,08116.4687,W,1,9,1.5,25,M,,M,,*5F
06/06/2014	01:07:57.179	$GPGGA,010757,2429.6817,N,08116.4673,W,1,9,1.5,25,M,,M,,*53
06/06/2014	01:07:58.085	$GPGGA,010758,2429.6839,N,08116.4659,W,1,9,1.5,25,M,,M,,*58
06/06/2014	01:07:59.114	$GPGGA,010759,2429.6860,N,08116.4645,W,1,9,1.5,25,M,,M,,*58
06/06/2014	01:08:00.287	$GPGGA,010800,2429.6882,N,08116.4631,W,1,9,1.6,25,M,,M,,*57
06/06/2014	01:08:01.264	$GPGGA,010801,2429.6904,N,08116.4617,W,1,8,1.9,25,M,,M,,*53
06/06/2014	01:08:02.233	$GPGGA,010802,2429.6926,N,08116.4603,W,1,8,1.5,25,M,,M,,*59
06/06/2014	01:08:03.353	$GPGGA,010803,2429.6949,N,08116.4589,W,1,9,1.6,25,M,,M,,*52
06/06/2014	01:08:04.310	$GPGGA,010804,2429.6971,N,08116.4576,W,1,9,1.5,26,M,,M,,*5E
06/06/2014	01:08:05.277	$GPGGA,010805,2429.6991,N,08116.4561,W,1,9,1.5,26,M,,M,,*57
06/06/2014	01:08:06.420	$GPGGA,010806,2429.7012,N,08116.4547,W,1,9,1.6,26,M,,M,,*50
06/06/2014	01:08:07.469	$GPGGA,010807,2429.7034,N,08116.4534,W,1,8,1.5,26,M,,M,,*53
06/06/2014	01:08:08.488	$GPGGA,010808,2429.7056,N,08116.4521,W,1,8,1.5,26,M,,M,,*5C
06/06/2014	01:08:09.476	$GPGGA,010809,2429.7079,N,08116.4507,W,1,9,1.5,26,M,,M,,*55
06/06/2014	01:08:10.514	$GPGGA,010810,2429.7101,N,08116.4494,W,1,9,1.5,26,M,,M,,*58
06/06/2014	01:08:11.533	$GPGGA,010811,2429.7123,N,08116.4481,W,1,9,1.5,26,M,,M,,*5D
06/06/2014	01:08:12.593	$GPGGA,010812,2429.7145,N,08116.4466,W,1,9,1.5,26,M,,M,,*57
06/06/2014	01:08:13.591	$GPGGA,010813,2429.7166,N,08116.4453,W,1,9,1.6,26,M,,M,,*52
06/06/2014	01:08:14.630	$GPGGA,010814,2429.7188,N,08116.4439,W,1,9,1.5,26,M,,M,,*5A
06/06/2014	01:08:15.649	$GPGGA,010815,2429.7208,N,08116.4424,W,1,9,1.6,26,M,,M,,*5F
06/06/2014	01:08:16.678	$GPGGA,010816,2429.7229,N,08116.4410,W,1,9,1.6,26,M,,M,,*58
06/06/2014	01:08:17.748	$GPGGA,010817,2429.7251,N,08116.4396,W,1,8,1.5,26,M,,M,,*5D
06/06/2014	01:08:18.725	$GPGGA,010818,2429.7272,N,08116.4382,W,1,8,1.9,26,M,,M,,*5A
06/06/2014	01:08:19.765	$GPGGA,010819,2429.7291,N,08116.4369,W,1,8,1.6,26,M,,M,,*5C
06/06/2014	01:08:20.804	$GPGGA,010820,2429.7312,N,08116.4354,W,1,8,1.5,26,M,,M,,*51
06/06/2014	01:08:21.864	$GPGGA,010821,2429.7334,N,08116.4340,W,1,9,1.5,26,M,,M,,*50
06/06/2014	01:08:22.841	$GPGGA,010822,2429.7355,N,08116.4328,W,1,9,1.5,26,M,,M,,*5A
06/06/2014	01:08:23.891	$GPGGA,010823,2429.7377,N,08116.4315,W,1,9,1.6,26,M,,M,,*56
06/06/2014	01:08:24.910	$GPGGA,010824,2429.7399,N,08116.4301,W,1,9,1.5,26,M,,M,,*57
06/06/2014	01:08:25.949	$GPGGA,010825,2429.7421,N,08116.4288,W,1,9,1.5,26,M,,M,,*52
06/06/2014	01:08:26.947	$GPGGA,010826,2429.7442,N,08116.4275,W,1,9,1.6,26,M,,M,,*55
06/06/2014	01:08:28.047	$GPGGA,010827,2429.7464,N,08116.4261,W,1,8,1.5,26,M,,M,,*57
06/06/2014	01:08:29.014	$GPGGA,010828,2429.7486,N,08116.4247,W,1,8,1.5,26,M,,M,,*50
06/06/2014	01:08:30.054	$GPGGA,010829,2429.7507,N,08116.4234,W,1,9,1.5,26,M,,M,,*5C
06/06/2014	01:08:31.072	$GPGGA,010830,2429.7529,N,08116.4221,W,1,9,1.6,26,M,,M,,*5F
06/06/2014	01:08:32.101	$GPGGA,010831,2429.7551,N,08116.4208,W,1,8,1.6,26,M,,M,,*5B
06/06/2014	01:08:33.120	$GPGGA,010832,2429.7572,N,08116.4193,W,1,8,1.5,26,M,,M,,*5B
06/06/2014	01:08:34.159	$GPGGA,010833,2429.7572,N,08116.4193,W,1,9,1.5,26,M,,M,,*5B
06/06/2014	01:08:35.158	$GPGGA,010834,2429.7619,N,08116.4168,W,1,9,1.5,26,M,,M,,*56
06/06/2014	01:08:36.238	$GPGGA,010835,2429.7641,N,08116.4154,W,1,9,1.5,26,M,,M,,*55
06/06/2014	01:08:35.487	$GPGGA,010836,2429.7663,N,08116.4140,W,1,9,1.5,26,M,,M,,*53
06/06/2014	01:08:36.536	$GPGGA,010837,2429.7684,N,08116.4127,W,1,9,1.6,26,M,,M,,*59
06/06/2014	01:08:37.545	$GPGGA,010838,2429.7705,N,08116.4112,W,1,9,1.5,26,M,,M,,*5B
06/06/2014	01:08:38.584	$GPGGA,010839,2429.7705,N,08116.4112,W,1,9,1.5,26,M,,M,,*5A
06/06/2014	01:08:39.613	$GPGGA,010840,2429.7748,N,08116.4084,W,1,9,1.6,26,M,,M,,*50
06/06/2014	01:08:40.673	$GPGGA,010841,2429.7771,N,08116.4070,W,1,8,1.6,26,M,,M,,*51
06/06/2014	01:08:41.640	$GPGGA,010842,2429.7792,N,08116.4057,W,1,8,1.5,26,M,,M,,*59
06/06/2014	01:08:42.722	$GPGGA,010843,2429.7813,N,08116.4042,W,1,9,2.1,26,M,,M,,*5C
06/06/2014	01:08:43.719	$GPGGA,010844,2429.7835,N,08116.4028,W,1,9,1.6,26,M,,M,,*57
06/06/2014	01:08:44.860	$GPGGA,010845,2429.7854,N,08116.4015,W,1,8,1.6,26,M,,M,,*5E
06/06/2014	01:08:45.755	$GPGGA,010846,2429.7876,N,08116.4001,W,1,8,1.5,26,M,,M,,*5B
06/06/2014	01:08:46.908	$GPGGA,010847,2429.7897,N,08116.3985,W,1,9,1.5,26,M,,M,,*56
06/06/2014	01:08:47.803	$GPGGA,010848,2429.7919,N,08116.3972,W,1,9,2.1,26,M,,M,,*51
06/06/2014	01:08:48.883	$GPGGA,010849,2429.7943,N,08116.3960,W,1,8,1.5,25,M,,M,,*59
06/06/2014	01:08:49.861	$GPGGA,010850,2429.7943,N,08116.3960,W,1,8,1.5,25,M,,M,,*51
06/06/2014	01:08:50.993	$GPGGA,010851,2429.7986,N,08116.3932,W,1,9,1.5,25,M,,M,,*5F
06/06/2014	01:08:51.919	$GPGGA,010852,2429.8006,N,08116.3918,W,1,9,1.5,25,M,,M,,*5A
06/06/2014	01:08:52.948	$GPGGA,010853,2429.8006,N,08116.3918,W,1,9,1.5,25,M,,M,,*5B
06/06/2014	01:08:54.049	$GPGGA,010854,2429.8051,N,08116.3891,W,1,9,1.6,25,M,,M,,*5D
06/06/2014	01:08:55.088	$GPGGA,010855,2429.8071,N,08116.3876,W,1,9,1.5,25,M,,M,,*54
06/06/2014	01:08:56.128	$GPGGA,010856,2429.8092,N,08116.3862,W,1,9,1.5,25,M,,M,,*5F
06/06/2014	01:08:57.177	$GPGGA,010857,2429.8092,N,08116.3862,W,1,8,1.5,25,M,,M,,*5F
06/06/2014	01:08:58.165	$GPGGA,010858,2429.8136,N,08116.3833,W,1,8,1.5,25,M,,M,,*5B
06/06/2014	01:08:59.194	$GPGGA,010859,2429.8158,N,08116.3819,W,1,9,1.5,25,M,,M,,*5B
06/06/2014	01:09:00.141	$GPGGA,010900,2429.8181,N,08116.3807,W,1,9,1.5,25,M,,M,,*5D
06/06/2014	01:09:01.252	$GPGGA,010901,2429.8203,N,08116.3792,W,1,9,1.5,25,M,,M,,*56
06/06/2014	01:09:02.270	$GPGGA,010902,2429.8223,N,08116.3776,W,1,9,1.5,25,M,,M,,*5D
06/06/2014	01:09:03.309	$GPGGA,010903,2429.8244,N,08116.3763,W,1,7,1.8,25,M,,M,,*5A
06/06/2014	01:09:04.348	$GPGGA,010904,2429.8268,N,08116.3750,W,1,7,1.9,25,M,,M,,*52
06/06/2014	01:09:05.357	$GPGGA,010905,2429.8290,N,08116.3735,W,1,9,1.5,25,M,,M,,*55
06/06/2014	01:09:06.386	$GPGGA,010906,2429.8309,N,08116.3720,W,1,9,1.5,25,M,,M,,*53
06/06/2014	01:09:07.415	$GPGGA,010907,2429.8331,N,08116.3706,W,1,8,1.9,25,M,,M,,*50
06/06/2014	01:09:08.454	$GPGGA,010908,2429.8353,N,08116.3691,W,1,8,1.5,25,M,,M,,*58
06/06/2014	01:09:09.483	$GPGGA,010909,2429.8374,N,08116.3676,W,1,9,1.5,25,M,,M,,*54
06/06/2014	01:09:10.491	$GPGGA,010910,2429.8393,N,08116.3662,W,1,9,1.6,25,M,,M,,*53
06/06/2014	01:09:11.510	$GPGGA,010911,2429.8414,N,08116.3648,W,1,7,2.1,25,M,,M,,*58
06/06/2014	01:09:12.560	$GPGGA,010912,2429.8436,N,08116.3634,W,1,7,1.9,25,M,,M,,*5B
06/06/2014	01:09:13.589	$GPGGA,010913,2429.8457,N,08116.3620,W,1,9,1.5,25,M,,M,,*5A
06/06/2014	01:09:14.597	$GPGGA,010914,2429.8479,N,08116.3606,W,1,9,1.6,25,M,,M,,*56
06/06/2014	01:09:15.647	$GPGGA,010915,2429.8501,N,08116.3591,W,1,8,1.6,25,M,,M,,*55
06/06/2014	01:09:16.665	$GPGGA,010916,2429.8522,N,08116.3578,W,1,8,1.5,25,M,,M,,*53
06/06/2014	01:09:17.674	$GPGGA,010917,2429.8544,N,08116.3565,W,1,9,1.5,25,M,,M,,*5F
06/06/2014	01:09:18.703	$GPGGA,010918,2429.8566,N,08116.3551,W,1,9,2.1,25,M,,M,,*50
06/06/2014	01:09:19.763	$GPGGA,010919,2429.8587,N,08116.3537,W,1,9,1.5,25,M,,M,,*59
06/06/2014	01:09:20.770	$GPGGA,010920,2429.8609,N,08116.3524,W,1,9,1.5,26,M,,M,,*57
06/06/2014	01:09:21.778	$GPGGA,010921,2429.8631,N,08116.3511,W,1,7,2.1,26,M,,M,,*52
06/06/2014	01:09:22.818	$GPGGA,010922,2429.8652,N,08116.3497,W,1,7,1.5,26,M,,M,,*5C
06/06/2014	01:09:23.867	$GPGGA,010923,2429.8676,N,08116.3484,W,1,9,1.5,26,M,,M,,*57
06/06/2014	01:09:24.865	$GPGGA,010924,2429.8698,N,08116.3470,W,1,9,1.5,26,M,,M,,*5B
06/06/2014	01:09:25.902	$GPGGA,010925,2429.8718,N,08116.3457,W,1,9,1.5,26,M,,M,,*56
06/06/2014	01:09:26.934	$GPGGA,010926,2429.8741,N,08116.3443,W,1,9,1.6,26,M,,M,,*5F
06/06/2014	01:09:27.983	$GPGGA,010927,2429.8764,N,08116.3430,W,1,9,1.5,26,M,,M,,*5E
06/06/2014	01:09:28.981	$GPGGA,010928,2429.8786,N,08116.3416,W,1,9,1.5,26,M,,M,,*59
06/06/2014	01:09:29.990	$GPGGA,010929,2429.8807,N,08116.3403,W,1,9,1.5,26,M,,M,,*5A
06/06/2014	01:09:31.029	$GPGGA,010930,2429.8829,N,08116.3390,W,1,9,1.5,26,M,,M,,*53
06/06/2014	01:09:32.058	$GPGGA,010931,2429.8851,N,08116.3376,W,1,9,1.5,26,M,,M,,*55
06/06/2014	01:09:33.097	$GPGGA,010932,2429.8873,N,08116.3363,W,1,9,1.5,26,M,,M,,*52
06/06/2014	01:09:34.230	$GPGGA,010933,2429.8894,N,08116.3349,W,1,9,1.5,26,M,,M,,*52
06/06/2014	01:09:35.135	$GPGGA,010934,2429.8916,N,08116.3336,W,1,9,1.5,26,M,,M,,*56
06/06/2014	01:09:36.164	$GPGGA,010935,2429.8938,N,08116.3323,W,1,9,1.5,26,M,,M,,*5F
06/06/2014	01:09:35.579	$GPGGA,010936,2429.8960,N,08116.3310,W,1,9,1.5,26,M,,M,,*51
06/06/2014	01:09:36.606	$GPGGA,010937,2429.8981,N,08116.3297,W,1,9,1.5,26,M,,M,,*51
06/06/2014	01:09:37.512	$GPGGA,010938,2429.9003,N,08116.3283,W,1,9,1.5,26,M,,M,,*59
06/06/2014	01:09:38.654	$GPGGA,010939,2429.9025,N,08116.3269,W,1,9,1.5,26,M,,M,,*58
06/06/2014	01:09:39.570	$GPGGA,010940,2429.9046,N,08116.3257,W,1,9,1.6,26,M,,M,,*5D
06/06/2014	01:09:40.600	$GPGGA,010941,2429.9068,N,08116.3243,W,1,9,1.5,26,M,,M,,*56
06/06/2014	01:09:41.607	$GPGGA,010942,2429.9093,N,08116.3229,W,1,9,1.6,26,M,,M,,*5E
06/06/2014	01:09:42.626	$GPGGA,010943,2429.9114,N,08116.3218,W,1,9,1.5,26,M,,M,,*50
06/06/2014	01:09:43.799	$GPGGA,010944,2429.9136,N,08116.3205,W,1,9,1.6,26,M,,M,,*58
06/06/2014	01:09:44.787	$GPGGA,010945,2429.9158,N,08116.3190,W,1,9,1.5,26,M,,M,,*5D
06/06/2014	01:09:45.724	$GPGGA,010946,2429.9179,N,08116.3177,W,1,9,1.5,26,M,,M,,*54
06/06/2014	01:09:46.763	$GPGGA,010947,2429.9201,N,08116.3164,W,1,9,1.5,26,M,,M,,*5B
06/06/2014	01:09:47.884	$GPGGA,010948,2429.9223,N,08116.3151,W,1,9,1.5,26,M,,M,,*52
06/06/2014	01:09:48.893	$GPGGA,010949,2429.9245,N,08116.3138,W,1,9,1.5,26,M,,M,,*5C
06/06/2014	01:09:49.932	$GPGGA,010950,2429.9267,N,08116.3124,W,1,9,1.5,26,M,,M,,*59
06/06/2014	01:09:50.961	$GPGGA,010951,2429.9288,N,08116.3110,W,1,9,1.5,26,M,,M,,*5E
06/06/2014	01:09:51.990	$GPGGA,010952,2429.9310,N,08116.3098,W,1,9,1.5,26,M,,M,,*5C
06/06/2014	01:09:53.040	$GPGGA,010953,2429.9332,N,08116.3084,W,1,8,1.6,26,M,,M,,*52
06/06/2014	01:09:54.038	$GPGGA,010954,2429.9353,N,08116.3069,W,1,8,1.5,26,M,,M,,*52
06/06/2014	01:09:55.066	$GPGGA,010955,2429.9375,N,08116.3056,W,1,9,1.5,26,M,,M,,*5A
06/06/2014	01:09:56.105	$GPGGA,010956,2429.9397,N,08116.3043,W,1,9,1.5,26,M,,M,,*51
06/06/2014	01:09:57.124	$GPGGA,010957,2429.9418,N,08116.3028,W,1,9,1.5,26,M,,M,,*5D
06/06/2014	01:09:58.142	$GPGGA,010958,2429.9440,N,08116.3013,W,1,9,1.5,26,M,,M,,*57
06/06/2014	01:09:59.161	$GPGGA,010959,2429.9461,N,08116.3000,W,1,9,1.5,26,M,,M,,*57
06/06/2014	01:10:00.241	$GPGGA,011000,2429.9482,N,08116.2985,W,1,9,1.5,26,M,,M,,*5B
06/06/2014	01:10:01.240	$GPGGA,011001,2429.9505,N,08116.2972,W,1,8,1.5,26,M,,M,,*5D
06/06/2014	01:10:02.258	$GPGGA,011002,2429.9527,N,08116.2959,W,1,8,1.5,26,M,,M,,*57
06/06/2014	01:10:03.278	$GPGGA,011003,2429.9548,N,08116.2944,W,1,9,1.5,26,M,,M,,*52
06/06/2014	01:10:04.306	$GPGGA,011004,2429.9570,N,08116.2928,W,1,9,1.5,26,M,,M,,*54
06/06/2014	01:10:05.325	$GPGGA,011005,2429.9592,N,08116.2915,W,1,8,1.5,26,M,,M,,*56
06/06/2014	01:10:06.364	$GPGGA,011006,2429.9613,N,08116.2901,W,1,8,1.5,26,M,,M,,*5A
06/06/2014	01:10:07.403	$GPGGA,011007,2429.9635,N,08116.2886,W,1,9,1.5,26,M,,M,,*50
06/06/2014	01:10:08.422	$GPGGA,011008,2429.9657,N,08116.2872,W,1,9,1.5,26,M,,M,,*50
06/06/2014	01:10:09.461	$GPGGA,011009,2429.9678,N,08116.2858,W,1,9,1.5,26,M,,M,,*54
06/06/2014	01:10:10.480	$GPGGA,011010,2429.9700,N,08116.2844,W,1,9,1.5,26,M,,M,,*5F
06/06/2014	01:10:11.489	$GPGGA,011011,2429.9722,N,08116.2830,W,1,9,1.5,26,M,,M,,*5D
06/06/2014	01:10:12.537	$GPGGA,011012,2429.9743,N,08116.2814,W,1,9,1.5,26,M,,M,,*5F
06/06/2014	01:10:13.566	$GPGGA,011013,2429.9764,N,08116.2797,W,1,8,1.5,26,M,,M,,*5E
06/06/2014	01:10:14.585	$GPGGA,011014,2429.9785,N,08116.2783,W,1,8,1.5,26,M,,M,,*53
06/06/2014	01:10:15.634	$GPGGA,011015,2429.9805,N,08116.2768,W,1,9,1.5,26,M,,M,,*51
06/06/2014	01:10:16.644	$GPGGA,011016,2429.9827,N,08116.2753,W,1,9,1.5,26,M,,M,,*5A
06/06/2014	01:10:17.692	$GPGGA,011017,2429.9848,N,08116.2741,W,1,8,1.5,26,M,,M,,*50
06/06/2014	01:10:18.680	$GPGGA,011018,2429.9870,N,08116.2727,W,1,8,1.5,26,M,,M,,*54
06/06/2014	01:10:19.823	$GPGGA,011019,2429.9892,N,08116.2713,W,1,9,1.5,26,M,,M,,*5F
06/06/2014	01:10:20.748	$GPGGA,011020,2429.9913,N,08116.2700,W,1,9,1.5,26,M,,M,,*5F
06/06/2014	01:10:21.767	$GPGGA,011021,2429.9934,N,08116.2686,W,1,9,1.5,26,M,,M,,*54
06/06/2014	01:10:22.776	$GPGGA,011022,2429.9955,N,08116.2671,W,1,9,1.6,26,M,,M,,*5B
06/06/2014	01:10:23.825	$GPGGA,011023,2429.9977,N,08116.2657,W,1,9,1.5,26,M,,M,,*5D
06/06/2014	01:10:24.854	$GPGGA,011024,2429.9996,N,08116.2644,W,1,9,1.5,26,M,,M,,*57
06/06/2014	01:10:25.884	$GPGGA,011025,2430.0020,N,08116.2630,W,1,9,1.5,26,M,,M,,*50
06/06/2014	01:10:26.902	$GPGGA,011026,2430.0042,N,08116.2616,W,1,9,1.5,26,M,,M,,*53
06/06/2014	01:10:28.023	$GPGGA,011027,2430.0062,N,08116.2604,W,1,9,1.5,26,M,,M,,*53
06/06/2014	01:10:28.971	$GPGGA,011028,2430.0085,N,08116.2592,W,1,9,1.5,26,M,,M,,*59
06/06/2014	01:10:29.989	$GPGGA,011029,2430.0107,N,08116.2578,W,1,8,1.6,26,M,,M,,*55
06/06/2014	01:10:31.007	$GPGGA,011030,2430.0127,N,08116.2564,W,1,8,1.6,26,M,,M,,*52
06/06/2014	01:10:32.128	$GPGGA,011031,2430.0150,N,08116.2552,W,1,8,1.6,26,M,,M,,*56
06/06/2014	01:10:33.157	$GPGGA,011032,2430.0172,N,08116.2539,W,1,8,1.6,26,M,,M,,*58
06/06/2014	01:10:34.073	$GPGGA,011033,2430.0194,N,08116.2525,W,1,8,1.6,26,M,,M,,*5C
06/06/2014	01:10:35.112	$GPGGA,011034,2430.0215,N,08116.2512,W,1,8,1.6,26,M,,M,,*55
06/06/2014	01:10:36.141	$GPGGA,011035,2430.0238,N,08116.2499,W,1,9,1.5,26,M,,M,,*5B
06/06/2014	01:10:35.442	$GPGGA,011036,2430.0260,N,08116.2486,W,1,9,1.5,26,M,,M,,*5B
06/06/2014	01:10:36.460	$GPGGA,011037,2430.0282,N,08116.2473,W,1,8,1.6,26,M,,M,,*5E
06/06/2014	01:10:37.489	$GPGGA,011038,2430.0303,N,08116.2459,W,1,8,1.6,26,M,,M,,*51
06/06/2014	01:10:38.601	$GPGGA,011039,2430.0325,N,08116.2447,W,1,8,1.6,26,M,,M,,*5B
06/06/2014	01:10:39.650	$GPGGA,011040,2430.0349,N,08116.2435,W,1,8,1.6,26,M,,M,,*5A
06/06/2014	01:10:40.648	$GPGGA,011041,2430.0371,N,08116.2422,W,1,8,1.6,26,M,,M,,*56
06/06/2014	01:10:41.677	$GPGGA,011042,2430.0393,N,08116.2407,W,1,8,1.6,26,M,,M,,*5E
06/06/2014	01:10:42.717	$GPGGA,011043,2430.0414,N,08116.2396,W,1,8,1.6,26,M,,M,,*58
06/06/2014	01:10:43.746	$GPGGA,011044,2430.0437,N,08116.2383,W,1,8,1.5,26,M,,M,,*59
06/06/2014	01:10:44.785	$GPGGA,011045,2430.0459,N,08116.2368,W,1,8,1.6,26,M,,M,,*56
06/06/2014	01:10:45.783	$GPGGA,011046,2430.0480,N,08116.2356,W,1,8,1.6,26,M,,M,,*5C
06/06/2014	01:10:46.842	$GPGGA,011047,2430.0502,N,08116.2344,W,1,9,1.5,26,M,,M,,*57
06/06/2014	01:10:47.861	$GPGGA,011048,2430.0524,N,08116.2331,W,1,9,1.6,26,M,,M,,*5D
06/06/2014	01:10:48.900	$GPGGA,011049,2430.0546,N,08116.2318,W,1,8,1.6,26,M,,M,,*52
06/06/2014	01:10:49.898	$GPGGA,011050,2430.0569,N,08116.2306,W,1,8,1.6,26,M,,M,,*58
06/06/2014	01:10:50.958	$GPGGA,011051,2430.0591,N,08116.2293,W,1,9,1.5,26,M,,M,,*51
06/06/2014	01:10:51.966	$GPGGA,011052,2430.0613,N,08116.2278,W,1,9,1.5,26,M,,M,,*5E
06/06/2014	01:10:52.975	$GPGGA,011053,2430.0635,N,08116.2266,W,1,8,1.6,26,M,,M,,*56
06/06/2014	01:10:54.014	$GPGGA,011054,2430.0658,N,08116.2255,W,1,8,1.6,26,M,,M,,*5A
06/06/2014	01:10:55.064	$GPGGA,011055,2430.0679,N,08116.2241,W,1,8,1.6,26,M,,M,,*5D
06/06/2014	01:10:56.082	$GPGGA,011056,2430.0701,N,08116.2226,W,1,8,1.5,26,M,,M,,*52
06/06/2014	01:10:57.080	$GPGGA,011057,2430.0723,N,08116.2214,W,1,9,1.5,26,M,,M,,*53
06/06/2014	01:10:58.121	$GPGGA,011058,2430.0744,N,08116.2200,W,1,9,1.6,26,M,,M,,*5B
06/06/2014	01:10:59.169	$GPGGA,011059,2430.0766,N,08116.2186,W,1,9,1.5,26,M,,M,,*54
06/06/2014	01:11:00.198	$GPGGA,011100,2430.0788,N,08116.2173,W,1,9,1.6,26,M,,M,,*50
06/06/2014	01:11:01.187	$GPGGA,011101,2430.0811,N,08116.2158,W,1,9,1.5,26,M,,M,,*54
06/06/2014	01:11:02.215	$GPGGA,011102,2430.0831,N,08116.2145,W,1,9,1.5,26,M,,M,,*59
06/06/2014	01:11:03.368	$GPGGA,011103,2430.0853,N,08116.2130,W,1,8,1.5,26,M,,M,,*5F
06/06/2014	01:11:04.303	$GPGGA,011104,2430.0876,N,08116.2114,W,1,8,1.5,26,M,,M,,*59
06/06/2014	01:11:05.342	$GPGGA,011105,2430.0896,N,08116.2100,W,1,9,1.5,26,M,,M,,*52
06/06/2014	01:11:06.320	$GPGGA,011106,2430.0920,N,08116.2087,W,1,9,1.9,26,M,,M,,*5F
06/06/2014	01:11:07.390	$GPGGA,011107,2430.0943,N,08116.2072,W,1,9,1.5,26,M,,M,,*5D
06/06/2014	01:11:08.398	$GPGGA,011108,2430.0964,N,08116.2057,W,1,9,1.5,26,M,,M,,*50
06/06/2014	01:11:09.417	$GPGGA,011109,2430.0986,N,08116.2043,W,1,7,2.0,26,M,,M,,*50
06/06/2014	01:11:10.436	$GPGGA,011110,2430.1008,N,08116.2029,W,1,7,1.5,26,M,,M,,*5C
06/06/2014	01:11:11.465	$GPGGA,011111,2430.1030,N,08116.2014,W,1,9,1.5,26,M,,M,,*56
06/06/2014	01:11:12.617	$GPGGA,011112,2430.1048,N,08116.1999,W,1,9,1.9,26,M,,M,,*59
06/06/2014	01:11:13.636	$GPGGA,011113,2430.1070,N,08116.1986,W,1,8,1.9,26,M,,M,,*5C
06/06/2014	01:11:14.552	$GPGGA,011114,2430.1091,N,08116.1973,W,1,8,1.5,26,M,,M,,*52
06/06/2014	01:11:15.570	$GPGGA,011115,2430.1113,N,08116.1957,W,1,8,1.9,26,M,,M,,*52
06/06/2014	01:11:16.599	$GPGGA,011116,2430.1135,N,08116.1943,W,1,8,1.5,26,M,,M,,*5C
06/06/2014	01:11:17.628	$GPGGA,011117,2430.1158,N,08116.1931,W,1,9,1.5,26,M,,M,,*52
06/06/2014	01:11:18.657	$GPGGA,011118,2430.1180,N,08116.1915,W,1,9,1.5,26,M,,M,,*5E
06/06/2014	01:11:19.676	$GPGGA,011119,2430.1199,N,08116.1900,W,1,8,1.5,26,M,,M,,*52
06/06/2014	01:11:20.849	$GPGGA,011120,2430.1221,N,08116.1888,W,1,8,1.5,26,M,,M,,*59
06/06/2014	01:11:21.837	$GPGGA,011121,2430.1245,N,08116.1874,W,1,9,1.5,26,M,,M,,*58
06/06/2014	01:11:22.772	$GPGGA,011122,2430.1265,N,08116.1859,W,1,9,1.5,26,M,,M,,*56
06/06/2014	01:11:23.925	$GPGGA,011123,2430.1286,N,08116.1845,W,1,9,1.5,26,M,,M,,*57
06/06/2014	01:11:24.933	$GPGGA,011124,2430.1308,N,08116.1833,W,1,9,1.5,26,M,,M,,*56
06/06/2014	01:11:25.942	$GPGGA,011125,2430.1329,N,08116.1818,W,1,9,1.5,26,M,,M,,*5D
06/06/2014	01:11:26.971	$GPGGA,011126,2430.1351,N,08116.1803,W,1,9,1.5,26,M,,M,,*5B
06/06/2014	01:11:27.897	$GPGGA,011127,2430.1372,N,08116.1790,W,1,9,1.5,26,M,,M,,*5E
06/06/2014	01:11:29.039	$GPGGA,011128,2430.1394,N,08116.1778,W,1,9,1.5,26,M,,M,,*5F
06/06/2014	01:11:30.089	$GPGGA,011129,2430.1413,N,08116.1766,W,1,9,1.5,26,M,,M,,*59
06/06/2014	01:11:31.077	$GPGGA,011130,2430.1436,N,08116.1752,W,1,9,1.5,26,M,,M,,*51
06/06/2014	01:11:32.106	$GPGGA,011131,2430.1458,N,08116.1739,W,1,9,1.5,26,M,,M,,*55
06/06/2014	01:11:33.145	$GPGGA,011132,2430.1480,N,08116.1726,W,1,9,1.5,26,M,,M,,*5D
06/06/2014	01:11:34.153	$GPGGA,011133,2430.1501,N,08116.1713,W,1,9,1.5,26,M,,M,,*52
06/06/2014	01:11:35.182	$GPGGA,011134,2430.1523,N,08116.1700,W,1,9,1.5,26,M,,M,,*57
06/06/2014	01:11:36.211	$GPGGA,011135,2430.1545,N,08116.1686,W,1,8,1.6,26,M,,M,,*5B
06/06/2014	01:11:35.511	$GPGGA,011136,2430.1566,N,08116.1672,W,1,8,1.6,26,M,,M,,*52
06/06/2014	01:11:36.540	$GPGGA,011137,2430.1586,N,08116.1658,W,1,8,1.6,26,M,,M,,*55
06/06/2014	01:11:37.559	$GPGGA,011138,2430.1607,N,08116.1644,W,1,8,1.6,26,M,,M,,*5D
06/06/2014	01:11:38.587	$GPGGA,011139,2430.1626,N,08116.1630,W,1,9,1.5,26,M,,M,,*5E
06/06/2014	01:11:39.616	$GPGGA,011140,2430.1648,N,08116.1618,W,1,9,1.5,27,M,,M,,*53
06/06/2014	01:11:40.635	$GPGGA,011141,2430.1671,N,08116.1605,W,1,8,1.6,27,M,,M,,*56
06/06/2014	01:11:41.675	$GPGGA,011142,2430.1693,N,08116.1592,W,1,8,1.6,27,M,,M,,*54
06/06/2014	01:11:42.713	$GPGGA,011143,2430.1715,N,08116.1578,W,1,9,1.5,27,M,,M,,*5C
06/06/2014	01:11:43.732	$GPGGA,011144,2430.1738,N,08116.1567,W,1,9,1.5,27,M,,M,,*5A
06/06/2014	01:11:44.771	$GPGGA,011145,2430.1759,N,08116.1554,W,1,8,1.6,27,M,,M,,*5E
06/06/2014	01:11:45.780	$GPGGA,011146,2430.1781,N,08116.1539,W,1,8,1.6,27,M,,M,,*53
06/06/2014	01:11:46.788	$GPGGA,011147,2430.1803,N,08116.1527,W,1,8,1.6,27,M,,M,,*58
06/06/2014	01:11:47.838	$GPGGA,011148,2430.1825,N,08116.1516,W,1,8,1.5,27,M,,M,,*52
06/06/2014	01:11:48.887	$GPGGA,011149,2430.1848,N,08116.1502,W,1,8,1.6,28,M,,M,,*51
