Software Version Number: 1	Data File Format Number: 1	Build Version Number: 1	Error Count Since VI Started: 0	Manufacturer: Raytheon	 Model Number: RayMarine 120	 S/N: 	 Cal Date: 	 Wind Direction Offset: 0.00	 Slope (M)1: 0.00	 Offset (B)1: 0.00	 Slope (M)2: 0.00	 Offset (B)2: 0.00	 Slope (M)3: 0.00	 Offset (B)3: 0.00	 Slope (M)4: 0.00	 Offset (B)4: 0.00	 Slope (M)5: 0.00	 Offset (B)5: 0.00	 Slope (M)6: 0.00	 Offset (B)6: 0.00
Computer Date	Computer Time	GGA String
06/13/2014	09:00:00.720	$GPGGA,090001,2455.6978,N,08016.8822,W,1,9,1.5,18,M,,M,,*55
06/13/2014	09:00:01.715	$GPGGA,090002,2455.6969,N,08016.8824,W,1,9,1.5,18,M,,M,,*50
06/13/2014	09:00:02.735	$GPGGA,090003,2455.6962,N,08016.8831,W,1,9,1.5,18,M,,M,,*5E
06/13/2014	09:00:03.738	$GPGGA,090004,2455.6956,N,08016.8840,W,1,9,1.7,18,M,,M,,*5A
06/13/2014	09:00:04.751	$GPGGA,090005,2455.6948,N,08016.8845,W,1,9,1.5,18,M,,M,,*53
06/13/2014	09:00:05.754	$GPGGA,090006,2455.6940,N,08016.8851,W,1,9,1.5,18,M,,M,,*5D
06/13/2014	09:00:06.777	$GPGGA,090007,2455.6933,N,08016.8856,W,1,9,1.5,18,M,,M,,*5F
06/13/2014	09:00:07.952	$GPGGA,090008,2455.6927,N,08016.8865,W,1,9,1.5,18,M,,M,,*55
06/13/2014	09:00:08.934	$GPGGA,090009,2455.6920,N,08016.8870,W,1,9,1.5,18,M,,M,,*57
06/13/2014	09:00:09.887	$GPGGA,090010,2455.6911,N,08016.8874,W,1,9,1.5,18,M,,M,,*59
06/13/2014	09:00:10.940	$GPGGA,090011,2455.6905,N,08016.8881,W,1,9,1.5,18,M,,M,,*57
06/13/2014	09:00:11.852	$GPGGA,090012,2455.6899,N,08016.8889,W,1,9,1.5,18,M,,M,,*58
06/13/2014	09:00:12.915	$GPGGA,090013,2455.6890,N,08016.8895,W,1,9,1.5,18,M,,M,,*5D
06/13/2014	09:00:13.928	$GPGGA,090014,2455.6883,N,08016.8900,W,1,9,1.7,18,M,,M,,*57
06/13/2014	09:00:14.992	$GPGGA,090015,2455.6876,N,08016.8906,W,1,9,1.5,18,M,,M,,*58
06/13/2014	09:00:16.035	$GPGGA,090016,2455.6868,N,08016.8912,W,1,9,1.5,18,M,,M,,*51
06/13/2014	09:00:16.998	$GPGGA,090017,2455.6861,N,08016.8916,W,1,9,1.5,18,M,,M,,*5D
06/13/2014	09:00:18.040	$GPGGA,090018,2455.6852,N,08016.8923,W,1,9,1.5,18,M,,M,,*54
06/13/2014	09:00:19.012	$GPGGA,090019,2455.6844,N,08016.8930,W,1,9,1.5,18,M,,M,,*50
06/13/2014	09:00:20.005	$GPGGA,090020,2455.6837,N,08016.8935,W,1,9,1.5,18,M,,M,,*5B
06/13/2014	09:00:21.080	$GPGGA,090021,2455.6829,N,08016.8941,W,1,8,1.5,18,M,,M,,*57
06/13/2014	09:00:22.086	$GPGGA,090022,2455.6823,N,08016.8947,W,1,8,1.5,18,M,,M,,*58
06/13/2014	09:00:22.932	$GPGGA,090023,2455.6816,N,08016.8956,W,1,9,1.5,18,M,,M,,*5E
06/13/2014	09:00:24.046	$GPGGA,090024,2455.6808,N,08016.8960,W,1,9,1.7,18,M,,M,,*51
06/13/2014	09:00:25.080	$GPGGA,090025,2455.6800,N,08016.8964,W,1,9,1.5,18,M,,M,,*5E
06/13/2014	09:00:26.132	$GPGGA,090026,2455.6793,N,08016.8972,W,1,9,1.5,18,M,,M,,*5F
06/13/2014	09:00:27.115	$GPGGA,090027,2455.6786,N,08016.8978,W,1,9,1.5,18,M,,M,,*50
06/13/2014	09:00:28.087	$GPGGA,090028,2455.6778,N,08016.8985,W,1,9,1.5,18,M,,M,,*5C
06/13/2014	09:00:29.171	$GPGGA,090029,2455.6770,N,08016.8990,W,1,8,1.5,18,M,,M,,*50
06/13/2014	09:00:30.178	$GPGGA,090030,2455.6763,N,08016.8997,W,1,8,1.5,18,M,,M,,*5D
06/13/2014	09:00:31.116	$GPGGA,090031,2455.6756,N,08016.9001,W,1,8,1.7,18,M,,M,,*5F
06/13/2014	09:00:32.210	$GPGGA,090032,2455.6747,N,08016.9007,W,1,8,1.5,18,M,,M,,*58
06/13/2014	09:00:33.182	$GPGGA,090033,2455.6740,N,08016.9015,W,1,9,1.5,18,M,,M,,*5C
06/13/2014	09:00:34.205	$GPGGA,090034,2455.6734,N,08016.9024,W,1,9,1.5,18,M,,M,,*5A
06/13/2014	09:00:35.209	$GPGGA,090035,2455.6727,N,08016.9028,W,1,9,1.5,18,M,,M,,*55
06/13/2014	09:00:36.240	$GPGGA,090036,2455.6716,N,08016.9029,W,1,9,1.5,18,M,,M,,*55
06/13/2014	09:00:37.233	$GPGGA,090037,2455.6710,N,08016.9042,W,1,9,1.5,18,M,,M,,*5F
06/13/2014	09:00:38.246	$GPGGA,090038,2455.6703,N,08016.9048,W,1,9,1.5,18,M,,M,,*58
06/13/2014	09:00:39.199	$GPGGA,090039,2455.6696,N,08016.9053,W,1,9,1.5,18,M,,M,,*5E
06/13/2014	09:00:40.282	$GPGGA,090040,2455.6686,N,08016.9057,W,1,9,1.5,18,M,,M,,*55
06/13/2014	09:00:41.215	$GPGGA,090041,2455.6680,N,08016.9065,W,1,9,1.5,18,M,,M,,*53
06/13/2014	09:00:42.287	$GPGGA,090042,2455.6673,N,08016.9072,W,1,9,1.5,18,M,,M,,*5A
06/13/2014	09:00:43.300	$GPGGA,090043,2455.6666,N,08016.9077,W,1,9,1.5,18,M,,M,,*5A
06/13/2014	09:00:44.323	$GPGGA,090044,2455.6658,N,08016.9083,W,1,9,1.7,18,M,,M,,*59
06/13/2014	09:00:45.326	$GPGGA,090045,2455.6651,N,08016.9090,W,1,8,1.7,18,M,,M,,*52
06/13/2014	09:00:46.339	$GPGGA,090046,2455.6645,N,08016.9097,W,1,8,1.7,18,M,,M,,*53
06/13/2014	09:00:46.540	$GPGGA,090047,2455.6637,N,08016.9102,W,1,8,1.7,18,M,,M,,*5A
06/13/2014	09:00:47.603	$GPGGA,090048,2455.6629,N,08016.9108,W,1,8,1.5,18,M,,M,,*52
06/13/2014	09:00:48.585	$GPGGA,090049,2455.6622,N,08016.9113,W,1,9,1.5,18,M,,M,,*53
06/13/2014	09:00:49.598	$GPGGA,090050,2455.6615,N,08016.9122,W,1,9,1.5,18,M,,M,,*5D
06/13/2014	09:00:50.601	$GPGGA,090051,2455.6608,N,08016.9126,W,1,9,1.5,18,M,,M,,*54
06/13/2014	09:00:51.573	$GPGGA,090052,2455.6599,N,08016.9131,W,1,9,1.5,18,M,,M,,*5A
06/13/2014	09:00:52.586	$GPGGA,090053,2455.6593,N,08016.9140,W,1,8,1.7,18,M,,M,,*54
06/13/2014	09:00:53.598	$GPGGA,090054,2455.6587,N,08016.9147,W,1,8,1.5,18,M,,M,,*53
06/13/2014	09:00:54.729	$GPGGA,090055,2455.6579,N,08016.9155,W,1,9,1.5,17,M,,M,,*5E
06/13/2014	09:00:55.742	$GPGGA,090056,2455.6572,N,08016.9159,W,1,9,1.7,17,M,,M,,*58
06/13/2014	09:00:56.762	$GPGGA,090057,2455.6566,N,08016.9169,W,1,8,1.7,17,M,,M,,*5E
06/13/2014	09:00:57.700	$GPGGA,090058,2455.6557,N,08016.9173,W,1,8,1.5,17,M,,M,,*5A
06/13/2014	09:00:58.683	$GPGGA,090059,2455.6548,N,08016.9177,W,1,9,1.7,17,M,,M,,*52
06/13/2014	09:00:59.736	$GPGGA,090100,2455.6543,N,08016.9184,W,1,9,1.7,17,M,,M,,*58
06/13/2014	09:01:00.719	$GPGGA,090101,2455.6533,N,08016.9189,W,1,8,1.5,17,M,,M,,*50
06/13/2014	09:01:01.773	$GPGGA,090102,2455.6525,N,08016.9194,W,1,8,1.5,17,M,,M,,*58
06/13/2014	09:01:02.724	$GPGGA,090103,2455.6518,N,08016.9201,W,1,9,1.7,17,M,,M,,*5B
06/13/2014	09:01:03.808	$GPGGA,090104,2455.6511,N,08016.9207,W,1,9,1.5,17,M,,M,,*51
06/13/2014	09:01:04.844	$GPGGA,090105,2455.6503,N,08016.9213,W,1,9,1.5,17,M,,M,,*56
06/13/2014	09:01:05.783	$GPGGA,090106,2455.6496,N,08016.9220,W,1,9,1.5,17,M,,M,,*58
06/13/2014	09:01:06.857	$GPGGA,090107,2455.6488,N,08016.9225,W,1,9,1.5,17,M,,M,,*53
06/13/2014	09:01:07.860	$GPGGA,090108,2455.6480,N,08016.9231,W,1,9,1.5,17,M,,M,,*51
06/13/2014	09:01:08.862	$GPGGA,090109,2455.6474,N,08016.9238,W,1,9,1.5,17,M,,M,,*52
06/13/2014	09:01:09.885	$GPGGA,090110,2455.6465,N,08016.9245,W,1,9,1.5,17,M,,M,,*50
06/13/2014	09:01:10.888	$GPGGA,090111,2455.6458,N,08016.9252,W,1,9,1.5,17,M,,M,,*59
06/13/2014	09:01:11.900	$GPGGA,090112,2455.6451,N,08016.9257,W,1,9,1.5,17,M,,M,,*56
06/13/2014	09:01:12.923	$GPGGA,090113,2455.6445,N,08016.9264,W,1,9,1.5,17,M,,M,,*52
06/13/2014	09:01:13.906	$GPGGA,090114,2455.6436,N,08016.9271,W,1,9,1.5,17,M,,M,,*55
06/13/2014	09:01:14.959	$GPGGA,090115,2455.6429,N,08016.9277,W,1,9,1.5,17,M,,M,,*5C
06/13/2014	09:01:15.942	$GPGGA,090116,2455.6422,N,08016.9285,W,1,9,1.5,17,M,,M,,*59
06/13/2014	09:01:16.975	$GPGGA,090117,2455.6414,N,08016.9292,W,1,9,1.5,17,M,,M,,*5B
06/13/2014	09:01:17.947	$GPGGA,090118,2455.6407,N,08016.9299,W,1,9,1.5,17,M,,M,,*5D
06/13/2014	09:01:18.980	$GPGGA,090119,2455.6399,N,08016.9304,W,1,9,1.5,17,M,,M,,*59
06/13/2014	09:01:19.993	$GPGGA,090120,2455.6393,N,08016.9311,W,1,9,1.7,17,M,,M,,*5F
06/13/2014	09:01:20.996	$GPGGA,090121,2455.6385,N,08016.9318,W,1,8,1.5,17,M,,M,,*53
06/13/2014	09:01:22.009	$GPGGA,090122,2455.6377,N,08016.9325,W,1,8,1.5,17,M,,M,,*53
06/13/2014	09:01:23.012	$GPGGA,090123,2455.6370,N,08016.9332,W,1,9,1.5,17,M,,M,,*52
06/13/2014	09:01:24.045	$GPGGA,090124,2455.6364,N,08016.9340,W,1,9,1.5,17,M,,M,,*55
06/13/2014	09:01:25.048	$GPGGA,090125,2455.6357,N,08016.9348,W,1,9,1.5,17,M,,M,,*5C
06/13/2014	09:01:26.040	$GPGGA,090126,2455.6349,N,08016.9354,W,1,9,1.5,16,M,,M,,*5C
06/13/2014	09:01:27.073	$GPGGA,090127,2455.6344,N,08016.9361,W,1,9,1.5,16,M,,M,,*56
06/13/2014	09:01:28.086	$GPGGA,090128,2455.6337,N,08016.9368,W,1,9,1.5,16,M,,M,,*54
06/13/2014	09:01:29.088	$GPGGA,090129,2455.6328,N,08016.9375,W,1,9,1.5,16,M,,M,,*57
06/13/2014	09:01:30.121	$GPGGA,090130,2455.6320,N,08016.9380,W,1,9,1.5,16,M,,M,,*5D
06/13/2014	09:01:31.104	$GPGGA,090131,2455.6313,N,08016.9387,W,1,9,1.7,16,M,,M,,*59
06/13/2014	09:01:32.897	$GPGGA,090132,2455.6304,N,08016.9391,W,1,9,1.5,16,M,,M,,*59
06/13/2014	09:01:33.140	$GPGGA,090133,2455.6295,N,08016.9397,W,1,9,1.7,16,M,,M,,*55
06/13/2014	09:01:34.132	$GPGGA,090134,2455.6295,N,08016.9397,W,1,9,1.7,16,M,,M,,*52
06/13/2014	09:01:35.176	$GPGGA,090135,2455.6280,N,08016.9411,W,1,9,1.5,16,M,,M,,*5C
06/13/2014	09:01:36.178	$GPGGA,090136,2455.6273,N,08016.9416,W,1,9,1.5,16,M,,M,,*54
06/13/2014	09:01:37.164	$GPGGA,090137,2455.6263,N,08016.9420,W,1,9,1.5,16,M,,M,,*51
06/13/2014	09:01:38.184	$GPGGA,090138,2455.6263,N,08016.9420,W,1,9,1.5,16,M,,M,,*5E
06/13/2014	09:01:39.197	$GPGGA,090139,2455.6248,N,08016.9433,W,1,9,1.5,16,M,,M,,*54
06/13/2014	09:01:40.321	$GPGGA,090140,2455.6243,N,08016.9440,W,1,9,1.6,16,M,,M,,*56
06/13/2014	09:01:41.223	$GPGGA,090141,2455.6234,N,08016.9444,W,1,9,1.5,16,M,,M,,*50
06/13/2014	09:01:42.344	$GPGGA,090142,2455.6226,N,08016.9449,W,1,9,1.5,16,M,,M,,*5D
06/13/2014	09:01:43.230	$GPGGA,090143,2455.6221,N,08016.9458,W,1,8,1.6,16,M,,M,,*59
06/13/2014	09:01:44.364	$GPGGA,090144,2455.6214,N,08016.9463,W,1,8,1.5,16,M,,M,,*53
06/13/2014	09:01:45.371	$GPGGA,090145,2455.6203,N,08016.9467,W,1,8,1.6,16,M,,M,,*53
06/13/2014	09:01:46.257	$GPGGA,090146,2455.6203,N,08016.9467,W,1,8,1.6,16,M,,M,,*50
06/13/2014	09:01:46.533	$GPGGA,090147,2455.6191,N,08016.9480,W,1,9,1.6,16,M,,M,,*51
06/13/2014	09:01:47.559	$GPGGA,090148,2455.6181,N,08016.9487,W,1,9,1.6,16,M,,M,,*58
06/13/2014	09:01:48.511	$GPGGA,090149,2455.6172,N,08016.9491,W,1,8,1.6,16,M,,M,,*53
06/13/2014	09:01:49.625	$GPGGA,090150,2455.6164,N,08016.9496,W,1,8,1.6,16,M,,M,,*5B
06/13/2014	09:01:50.628	$GPGGA,090151,2455.6157,N,08016.9502,W,1,9,1.5,16,M,,M,,*54
06/13/2014	09:01:51.651	$GPGGA,090152,2455.6149,N,08016.9508,W,1,9,1.5,16,M,,M,,*52
06/13/2014	09:01:52.664	$GPGGA,090153,2455.6142,N,08016.9512,W,1,9,1.5,16,M,,M,,*53
06/13/2014	09:01:53.576	$GPGGA,090154,2455.6142,N,08016.9512,W,1,9,1.5,16,M,,M,,*54
06/13/2014	09:01:54.671	$GPGGA,090155,2455.6125,N,08016.9523,W,1,9,1.5,16,M,,M,,*56
06/13/2014	09:01:55.713	$GPGGA,090156,2455.6118,N,08016.9528,W,1,9,1.5,16,M,,M,,*50
06/13/2014	09:01:56.716	$GPGGA,090157,2455.6113,N,08016.9534,W,1,9,1.5,16,M,,M,,*57
06/13/2014	09:01:57.617	$GPGGA,090158,2455.6113,N,08016.9534,W,1,9,1.5,16,M,,M,,*58
06/13/2014	09:01:58.721	$GPGGA,090159,2455.6095,N,08016.9541,W,1,8,1.6,16,M,,M,,*56
06/13/2014	09:01:59.775	$GPGGA,090200,2455.6087,N,08016.9549,W,1,8,1.5,16,M,,M,,*51
06/13/2014	09:02:00.757	$GPGGA,090201,2455.6078,N,08016.9553,W,1,9,1.5,16,M,,M,,*5A
06/13/2014	09:02:01.750	$GPGGA,090202,2455.6069,N,08016.9556,W,1,9,1.5,16,M,,M,,*5C
06/13/2014	09:02:02.783	$GPGGA,090203,2455.6064,N,08016.9563,W,1,9,1.5,16,M,,M,,*56
06/13/2014	09:02:03.795	$GPGGA,090204,2455.6057,N,08016.9570,W,1,9,1.5,16,M,,M,,*53
06/13/2014	09:02:04.808	$GPGGA,090205,2455.6048,N,08016.9572,W,1,9,1.5,16,M,,M,,*5E
06/13/2014	09:02:05.800	$GPGGA,090206,2455.6039,N,08016.9578,W,1,9,1.5,16,M,,M,,*51
06/13/2014	09:02:06.813	$GPGGA,090207,2455.6031,N,08016.9585,W,1,8,1.6,16,M,,M,,*58
06/13/2014	09:02:07.836	$GPGGA,090208,2455.6022,N,08016.9590,W,1,8,1.6,16,M,,M,,*51
06/13/2014	09:02:08.850	$GPGGA,090209,2455.6013,N,08016.9595,W,1,9,1.5,16,M,,M,,*55
06/13/2014	09:02:09.852	$GPGGA,090210,2455.6005,N,08016.9599,W,1,9,1.5,16,M,,M,,*56
06/13/2014	09:02:10.875	$GPGGA,090211,2455.5998,N,08016.9606,W,1,9,1.5,16,M,,M,,*5C
06/13/2014	09:02:11.878	$GPGGA,090212,2455.5990,N,08016.9610,W,1,9,1.5,16,M,,M,,*50
06/13/2014	09:02:12.891	$GPGGA,090213,2455.5980,N,08016.9613,W,1,9,1.5,16,M,,M,,*53
06/13/2014	09:02:13.894	$GPGGA,090214,2455.5974,N,08016.9618,W,1,9,1.5,16,M,,M,,*54
06/13/2014	09:02:14.906	$GPGGA,090215,2455.5969,N,08016.9626,W,1,9,1.5,16,M,,M,,*54
06/13/2014	09:02:15.929	$GPGGA,090216,2455.5959,N,08016.9631,W,1,9,1.5,16,M,,M,,*52
06/13/2014	09:02:16.912	$GPGGA,090217,2455.5950,N,08016.9632,W,1,9,1.5,16,M,,M,,*59
06/13/2014	09:02:17.931	$GPGGA,090218,2455.5944,N,08016.9639,W,1,9,1.5,16,M,,M,,*58
06/13/2014	09:02:18.978	$GPGGA,090219,2455.5936,N,08016.9646,W,1,9,1.5,16,M,,M,,*54
06/13/2014	09:02:19.971	$GPGGA,090220,2455.5928,N,08016.9649,W,1,9,1.5,16,M,,M,,*5E
06/13/2014	09:02:20.963	$GPGGA,090221,2455.5919,N,08016.9651,W,1,9,1.5,16,M,,M,,*54
06/13/2014	09:02:21.970	$GPGGA,090222,2455.5912,N,08016.9657,W,1,9,1.5,16,M,,M,,*5A
06/13/2014	09:02:22.986	$GPGGA,090223,2455.5907,N,08016.9664,W,1,9,1.5,16,M,,M,,*5F
06/13/2014	09:02:24.022	$GPGGA,090224,2455.5898,N,08016.9668,W,1,9,1.5,16,M,,M,,*53
06/13/2014	09:02:24.997	$GPGGA,090225,2455.5887,N,08016.9671,W,1,9,1.5,16,M,,M,,*54
06/13/2014	09:02:26.135	$GPGGA,090226,2455.5885,N,08016.9676,W,1,9,1.6,16,M,,M,,*51
06/13/2014	09:02:27.059	$GPGGA,090227,2455.5876,N,08016.9683,W,1,9,1.5,16,M,,M,,*55
06/13/2014	09:02:28.059	$GPGGA,090228,2455.5871,N,08016.9686,W,1,9,1.6,16,M,,M,,*5B
06/13/2014	09:02:29.073	$GPGGA,090229,2455.5862,N,08016.9690,W,1,9,1.5,16,M,,M,,*5C
06/13/2014	09:02:30.051	$GPGGA,090230,2455.5854,N,08016.9697,W,1,9,1.6,16,M,,M,,*55
06/13/2014	09:02:31.075	$GPGGA,090231,2455.5845,N,08016.9702,W,1,8,1.6,16,M,,M,,*58
06/13/2014	09:02:32.104	$GPGGA,090232,2455.5836,N,08016.9707,W,1,8,1.5,16,M,,M,,*59
06/13/2014	09:02:33.077	$GPGGA,090233,2455.5829,N,08016.9711,W,1,9,1.5,16,M,,M,,*50
06/13/2014	09:02:34.220	$GPGGA,090234,2455.5822,N,08016.9718,W,1,9,1.5,16,M,,M,,*55
06/13/2014	09:02:35.224	$GPGGA,090235,2455.5811,N,08016.9718,W,1,8,1.7,16,M,,M,,*57
06/13/2014	09:02:36.155	$GPGGA,090236,2455.5803,N,08016.9722,W,1,8,1.5,16,M,,M,,*5C
06/13/2014	09:02:37.168	$GPGGA,090237,2455.5796,N,08016.9729,W,1,9,1.5,16,M,,M,,*54
06/13/2014	09:02:38.243	$GPGGA,090238,2455.5789,N,08016.9734,W,1,9,1.5,16,M,,M,,*59
06/13/2014	09:02:39.209	$GPGGA,090239,2455.5780,N,08016.9737,W,1,9,1.5,16,M,,M,,*52
06/13/2014	09:02:40.176	$GPGGA,090240,2455.5774,N,08016.9743,W,1,9,1.5,16,M,,M,,*54
06/13/2014	09:02:41.270	$GPGGA,090241,2455.5767,N,08016.9751,W,1,9,1.5,16,M,,M,,*54
06/13/2014	09:02:42.293	$GPGGA,090242,2455.5759,N,08016.9754,W,1,9,1.7,16,M,,M,,*5D
06/13/2014	09:02:43.296	$GPGGA,090243,2455.5752,N,08016.9759,W,1,9,1.5,16,M,,M,,*58
06/13/2014	09:02:44.228	$GPGGA,090244,2455.5745,N,08016.9766,W,1,9,1.5,16,M,,M,,*55
06/13/2014	09:02:45.221	$GPGGA,090245,2455.5738,N,08016.9772,W,1,9,1.5,16,M,,M,,*5B
06/13/2014	09:02:46.325	$GPGGA,090246,2455.5730,N,08016.9777,W,1,9,1.7,16,M,,M,,*57
06/13/2014	09:02:46.565	$GPGGA,090247,2455.5723,N,08016.9783,W,1,9,1.5,16,M,,M,,*5D
06/13/2014	09:02:47.599	$GPGGA,090248,2455.5716,N,08016.9790,W,1,9,1.5,16,M,,M,,*56
06/13/2014	09:02:48.622	$GPGGA,090249,2455.5708,N,08016.9794,W,1,9,1.5,16,M,,M,,*5C
06/13/2014	09:02:49.594	$GPGGA,090250,2455.5699,N,08016.9798,W,1,9,1.7,16,M,,M,,*53
06/13/2014	09:02:50.637	$GPGGA,090251,2455.5692,N,08016.9805,W,1,9,1.5,16,M,,M,,*50
06/13/2014	09:02:51.640	$GPGGA,090252,2455.5684,N,08016.9809,W,1,9,1.5,16,M,,M,,*58
06/13/2014	09:02:52.633	$GPGGA,090253,2455.5677,N,08016.9814,W,1,9,1.5,16,M,,M,,*59
06/13/2014	09:02:53.646	$GPGGA,090254,2455.5669,N,08016.9820,W,1,9,1.5,16,M,,M,,*56
06/13/2014	09:02:54.679	$GPGGA,090255,2455.5661,N,08016.9826,W,1,9,1.5,16,M,,M,,*59
06/13/2014	09:02:55.681	$GPGGA,090256,2455.5654,N,08016.9831,W,1,9,1.5,16,M,,M,,*5A
06/13/2014	09:02:56.683	$GPGGA,090257,2455.5645,N,08016.9837,W,1,9,1.5,16,M,,M,,*5D
06/13/2014	09:02:57.686	$GPGGA,090258,2455.5637,N,08016.9844,W,1,9,1.5,16,M,,M,,*53
06/13/2014	09:02:58.729	$GPGGA,090259,2455.5629,N,08016.9848,W,1,9,1.5,16,M,,M,,*51
06/13/2014	09:02:59.722	$GPGGA,090300,2455.5621,N,08016.9853,W,1,9,1.5,16,M,,M,,*5E
06/13/2014	09:03:00.715	$GPGGA,090301,2455.5613,N,08016.9860,W,1,9,1.5,16,M,,M,,*5E
06/13/2014	09:03:01.738	$GPGGA,090302,2455.5607,N,08016.9867,W,1,9,1.5,16,M,,M,,*5F
06/13/2014	09:03:02.751	$GPGGA,090303,2455.5597,N,08016.9870,W,1,9,1.5,16,M,,M,,*52
06/13/2014	09:03:03.774	$GPGGA,090304,2455.5589,N,08016.9877,W,1,9,1.5,16,M,,M,,*5D
06/13/2014	09:03:04.766	$GPGGA,090305,2455.5582,N,08016.9885,W,1,9,1.5,16,M,,M,,*5A
06/13/2014	09:03:05.779	$GPGGA,090306,2455.5573,N,08016.9889,W,1,9,1.5,16,M,,M,,*5B
06/13/2014	09:03:06.812	$GPGGA,090307,2455.5564,N,08016.9893,W,1,8,1.6,16,M,,M,,*55
06/13/2014	09:03:07.805	$GPGGA,090308,2455.5555,N,08016.9902,W,1,8,1.6,16,M,,M,,*51
06/13/2014	09:03:08.828	$GPGGA,090309,2455.5549,N,08016.9907,W,1,8,1.6,16,M,,M,,*58
06/13/2014	09:03:09.821	$GPGGA,090310,2455.5539,N,08016.9910,W,1,8,1.5,16,M,,M,,*52
06/13/2014	09:03:10.834	$GPGGA,090311,2455.5532,N,08016.9915,W,1,8,1.6,16,M,,M,,*5E
06/13/2014	09:03:11.857	$GPGGA,090312,2455.5526,N,08016.9922,W,1,8,1.5,16,M,,M,,*5F
06/13/2014	09:03:12.971	$GPGGA,090313,2455.5519,N,08016.9928,W,1,9,1.5,16,M,,M,,*59
06/13/2014	09:03:13.871	$GPGGA,090314,2455.5510,N,08016.9929,W,1,9,1.5,16,M,,M,,*56
06/13/2014	09:03:14.894	$GPGGA,090315,2455.5503,N,08016.9936,W,1,9,1.5,16,M,,M,,*5B
06/13/2014	09:03:15.907	$GPGGA,090316,2455.5497,N,08016.9943,W,1,9,1.6,15,M,,M,,*56
06/13/2014	09:03:16.890	$GPGGA,090317,2455.5490,N,08016.9946,W,1,9,1.5,15,M,,M,,*56
06/13/2014	09:03:18.024	$GPGGA,090318,2455.5484,N,08016.9949,W,1,9,1.5,15,M,,M,,*53
06/13/2014	09:03:18.906	$GPGGA,090319,2455.5477,N,08016.9954,W,1,9,1.5,15,M,,M,,*52
06/13/2014	09:03:20.075	$GPGGA,090320,2455.5468,N,08016.9960,W,1,9,1.5,15,M,,M,,*51
06/13/2014	09:03:20.948	$GPGGA,090321,2455.5460,N,08016.9964,W,1,9,1.5,15,M,,M,,*5C
06/13/2014	09:03:21.944	$GPGGA,090322,2455.5452,N,08016.9967,W,1,9,1.5,15,M,,M,,*5D
06/13/2014	09:03:22.967	$GPGGA,090323,2455.5444,N,08016.9971,W,1,9,1.5,15,M,,M,,*5C
06/13/2014	09:03:25.398	$GPGGA,090325,2455.5428,N,08016.9982,W,1,9,1.5,15,M,,M,,*5C
06/13/2014	09:03:26.087	$GPGGA,090326,2455.5419,N,08016.9986,W,1,9,1.5,15,M,,M,,*59
06/13/2014	09:03:27.130	$GPGGA,090327,2455.5410,N,08016.9990,W,1,9,1.5,15,M,,M,,*56
06/13/2014	09:03:28.039	$GPGGA,090328,2455.5403,N,08016.9996,W,1,9,1.5,15,M,,M,,*5D
06/13/2014	09:03:29.035	$GPGGA,090329,2455.5395,N,08017.0000,W,1,9,1.5,15,M,,M,,*5A
06/13/2014	09:03:30.128	$GPGGA,090330,2455.5387,N,08017.0004,W,1,9,1.5,15,M,,M,,*55
06/13/2014	09:03:31.049	$GPGGA,090331,2455.5378,N,08017.0011,W,1,9,1.5,15,M,,M,,*50
06/13/2014	09:03:32.094	$GPGGA,090332,2455.5369,N,08017.0016,W,1,9,1.5,15,M,,M,,*54
06/13/2014	09:03:33.065	$GPGGA,090333,2455.5363,N,08017.0020,W,1,8,1.6,15,M,,M,,*58
06/13/2014	09:03:34.169	$GPGGA,090334,2455.5358,N,08017.0026,W,1,8,1.5,15,M,,M,,*52
06/13/2014	09:03:35.192	$GPGGA,090335,2455.5347,N,08017.0032,W,1,9,1.5,15,M,,M,,*59
06/13/2014	09:03:36.215	$GPGGA,090336,2455.5337,N,08017.0036,W,1,9,1.5,15,M,,M,,*59
06/13/2014	09:03:37.238	$GPGGA,090337,2455.5331,N,08017.0043,W,1,8,1.6,15,M,,M,,*5E
06/13/2014	09:03:38.220	$GPGGA,090338,2455.5322,N,08017.0047,W,1,8,1.5,15,M,,M,,*54
06/13/2014	09:03:39.254	$GPGGA,090339,2455.5311,N,08017.0051,W,1,9,1.5,15,M,,M,,*53
06/13/2014	09:03:40.256	$GPGGA,090340,2455.5304,N,08017.0058,W,1,9,1.5,15,M,,M,,*50
06/13/2014	09:03:41.249	$GPGGA,090341,2455.5297,N,08017.0063,W,1,9,1.5,15,M,,M,,*52
06/13/2014	09:03:42.262	$GPGGA,090342,2455.5289,N,08017.0068,W,1,9,1.5,15,M,,M,,*55
06/13/2014	09:03:43.265	$GPGGA,090343,2455.5280,N,08017.0072,W,1,9,1.5,15,M,,M,,*56
06/13/2014	09:03:44.308	$GPGGA,090344,2455.5273,N,08017.0079,W,1,9,1.5,15,M,,M,,*56
06/13/2014	09:03:45.311	$GPGGA,090345,2455.5264,N,08017.0084,W,1,9,1.5,15,M,,M,,*53
06/13/2014	09:03:46.303	$GPGGA,090346,2455.5257,N,08017.0088,W,1,9,1.6,15,M,,M,,*5F
06/13/2014	09:03:46.564	$GPGGA,090347,2455.5249,N,08017.0094,W,1,9,1.5,15,M,,M,,*5F
06/13/2014	09:03:47.577	$GPGGA,090348,2455.5242,N,08017.0099,W,1,9,1.5,15,M,,M,,*56
06/13/2014	09:03:48.555	$GPGGA,090349,2455.5235,N,08017.0105,W,1,9,1.5,15,M,,M,,*53
06/13/2014	09:03:49.571	$GPGGA,090350,2455.5228,N,08017.0109,W,1,9,1.5,15,M,,M,,*5B
06/13/2014	09:03:50.587	$GPGGA,090351,2455.5220,N,08017.0113,W,1,9,1.5,15,M,,M,,*59
06/13/2014	09:03:51.595	$GPGGA,090352,2455.5213,N,08017.0119,W,1,9,1.5,15,M,,M,,*50
06/13/2014	09:03:52.570	$GPGGA,090353,2455.5206,N,08017.0124,W,1,9,1.5,15,M,,M,,*5B
06/13/2014	09:03:53.596	$GPGGA,090354,2455.5197,N,08017.0130,W,1,9,1.5,15,M,,M,,*52
06/13/2014	09:03:54.613	$GPGGA,090355,2455.5189,N,08017.0133,W,1,9,1.5,15,M,,M,,*5F
06/13/2014	09:03:55.599	$GPGGA,090356,2455.5182,N,08017.0137,W,1,9,1.5,15,M,,M,,*53
06/13/2014	09:03:56.605	$GPGGA,090357,2455.5177,N,08017.0145,W,1,9,1.5,15,M,,M,,*5D
06/13/2014	09:03:57.601	$GPGGA,090358,2455.5167,N,08017.0148,W,1,9,1.5,15,M,,M,,*5E
06/13/2014	09:03:58.638	$GPGGA,090359,2455.5159,N,08017.0150,W,1,9,1.5,15,M,,M,,*5B
06/13/2014	09:03:59.634	$GPGGA,090400,2455.5152,N,08017.0157,W,1,9,1.5,15,M,,M,,*5C
06/13/2014	09:04:00.640	$GPGGA,090401,2455.5145,N,08017.0163,W,1,9,1.5,15,M,,M,,*5C
06/13/2014	09:04:01.616	$GPGGA,090402,2455.5137,N,08017.0167,W,1,9,1.5,15,M,,M,,*5E
06/13/2014	09:04:02.633	$GPGGA,090403,2455.5130,N,08017.0170,W,1,9,1.5,15,M,,M,,*5E
06/13/2014	09:04:03.639	$GPGGA,090404,2455.5121,N,08017.0175,W,1,9,1.5,15,M,,M,,*5C
06/13/2014	09:04:04.625	$GPGGA,090405,2455.5116,N,08017.0184,W,1,9,1.5,15,M,,M,,*57
06/13/2014	09:04:05.751	$GPGGA,090406,2455.5107,N,08017.0188,W,1,9,1.5,15,M,,M,,*58
06/13/2014	09:04:06.748	$GPGGA,090407,2455.5098,N,08017.0191,W,1,9,1.5,15,M,,M,,*56
06/13/2014	09:04:07.663	$GPGGA,090408,2455.5091,N,08017.0197,W,1,9,1.5,15,M,,M,,*56
06/13/2014	09:04:08.657	$GPGGA,090409,2455.5084,N,08017.0203,W,1,9,1.5,15,M,,M,,*5D
06/13/2014	09:04:09.666	$GPGGA,090410,2455.5074,N,08017.0207,W,1,9,1.5,15,M,,M,,*5E
06/13/2014	09:04:10.672	$GPGGA,090411,2455.5066,N,08017.0210,W,1,9,1.5,15,M,,M,,*5A
06/13/2014	09:04:11.678	$GPGGA,090412,2455.5059,N,08017.0217,W,1,9,1.5,15,M,,M,,*52
06/13/2014	09:04:12.795	$GPGGA,090413,2455.5051,N,08017.0222,W,1,9,1.5,15,M,,M,,*5D
06/13/2014	09:04:13.783	$GPGGA,090414,2455.5042,N,08017.0225,W,1,9,1.5,15,M,,M,,*5F
06/13/2014	09:04:14.768	$GPGGA,090415,2455.5036,N,08017.0229,W,1,9,1.5,15,M,,M,,*51
06/13/2014	09:04:15.685	$GPGGA,090416,2455.5026,N,08017.0235,W,1,9,1.5,15,M,,M,,*5E
06/13/2014	09:04:16.680	$GPGGA,090417,2455.5018,N,08017.0239,W,1,9,1.5,15,M,,M,,*5E
06/13/2014	09:04:17.787	$GPGGA,090418,2455.5011,N,08017.0243,W,1,9,1.5,15,M,,M,,*55
06/13/2014	09:04:18.793	$GPGGA,090419,2455.5002,N,08017.0249,W,1,9,1.5,15,M,,M,,*5C
06/13/2014	09:04:19.719	$GPGGA,090420,2455.4994,N,08017.0253,W,1,9,1.5,15,M,,M,,*5A
06/13/2014	09:04:20.705	$GPGGA,090421,2455.4986,N,08017.0257,W,1,9,1.5,15,M,,M,,*5C
06/13/2014	09:04:21.701	$GPGGA,090422,2455.4977,N,08017.0261,W,1,9,1.5,15,M,,M,,*54
06/13/2014	09:04:22.708	$GPGGA,090423,2455.4969,N,08017.0267,W,1,9,1.5,15,M,,M,,*5C
06/13/2014	09:04:23.824	$GPGGA,090424,2455.4961,N,08017.0271,W,1,9,1.5,15,M,,M,,*54
06/13/2014	09:04:24.851	$GPGGA,090425,2455.4953,N,08017.0275,W,1,9,1.5,15,M,,M,,*50
06/13/2014	09:04:25.816	$GPGGA,090426,2455.4944,N,08017.0279,W,1,9,1.5,15,M,,M,,*59
06/13/2014	09:04:26.842	$GPGGA,090427,2455.4936,N,08017.0285,W,1,9,1.5,15,M,,M,,*5E
06/13/2014	09:04:27.839	$GPGGA,090428,2455.4928,N,08017.0289,W,1,9,1.5,15,M,,M,,*52
06/13/2014	09:04:28.845	$GPGGA,090429,2455.4918,N,08017.0293,W,1,9,1.5,15,M,,M,,*5B
06/13/2014	09:04:29.842	$GPGGA,090430,2455.4911,N,08017.0300,W,1,9,1.5,15,M,,M,,*51
06/13/2014	09:04:30.858	$GPGGA,090431,2455.4901,N,08017.0304,W,1,9,1.5,15,M,,M,,*55
06/13/2014	09:04:31.865	$GPGGA,090432,2455.4892,N,08017.0307,W,1,9,1.5,15,M,,M,,*5E
06/13/2014	09:04:32.870	$GPGGA,090433,2455.4884,N,08017.0312,W,1,9,1.5,15,M,,M,,*5C
06/13/2014	09:04:33.856	$GPGGA,090434,2455.4877,N,08017.0318,W,1,9,1.5,15,M,,M,,*5D
06/13/2014	09:04:34.873	$GPGGA,090435,2455.4868,N,08017.0323,W,1,9,1.5,15,M,,M,,*5A
06/13/2014	09:04:35.879	$GPGGA,090436,2455.4859,N,08017.0326,W,1,9,1.5,15,M,,M,,*5E
06/13/2014	09:04:36.885	$GPGGA,090437,2455.4852,N,08017.0332,W,1,9,1.5,15,M,,M,,*51
06/13/2014	09:04:37.871	$GPGGA,090438,2455.4843,N,08017.0337,W,1,9,1.5,15,M,,M,,*5B
06/13/2014	09:04:38.888	$GPGGA,090439,2455.4834,N,08017.0341,W,1,9,1.5,15,M,,M,,*5B
06/13/2014	09:04:39.884	$GPGGA,090440,2455.4825,N,08017.0344,W,1,9,1.6,15,M,,M,,*53
06/13/2014	09:04:40.909	$GPGGA,090441,2455.4819,N,08017.0350,W,1,9,1.5,15,M,,M,,*5B
06/13/2014	09:04:41.896	$GPGGA,090442,2455.4810,N,08017.0357,W,1,9,1.5,15,M,,M,,*56
06/13/2014	09:04:42.913	$GPGGA,090443,2455.4801,N,08017.0359,W,1,9,1.5,15,M,,M,,*59
06/13/2014	09:04:43.908	$GPGGA,090444,2455.4792,N,08017.0365,W,1,9,1.5,15,M,,M,,*54
06/13/2014	09:04:44.894	$GPGGA,090445,2455.4783,N,08017.0370,W,1,8,1.6,15,M,,M,,*53
06/13/2014	09:04:45.911	$GPGGA,090446,2455.4773,N,08017.0376,W,1,8,1.6,15,M,,M,,*59
06/13/2014	09:04:46.552	$GPGGA,090447,2455.4763,N,08017.0380,W,1,8,1.6,15,M,,M,,*50
06/13/2014	09:04:47.538	$GPGGA,090448,2455.4754,N,08017.0387,W,1,8,1.6,15,M,,M,,*5C
06/13/2014	09:04:48.564	$GPGGA,090449,2455.4747,N,08017.0390,W,1,8,1.6,15,M,,M,,*59
06/13/2014	09:04:49.533	$GPGGA,090450,2455.4738,N,08017.0395,W,1,8,1.5,15,M,,M,,*5F
06/13/2014	09:04:50.557	$GPGGA,090451,2455.4729,N,08017.0401,W,1,8,1.6,15,M,,M,,*57
06/13/2014	09:04:51.553	$GPGGA,090452,2455.4720,N,08017.0406,W,1,8,1.6,15,M,,M,,*5A
06/13/2014	09:04:53.939	$GPGGA,090454,2455.4704,N,08017.0416,W,1,9,1.5,15,M,,M,,*59
06/13/2014	09:04:54.582	$GPGGA,090455,2455.4694,N,08017.0421,W,1,9,1.5,15,M,,M,,*54
06/13/2014	09:04:55.574	$GPGGA,090456,2455.4688,N,08017.0426,W,1,9,1.5,15,M,,M,,*5D
06/13/2014	09:04:56.685	$GPGGA,090457,2455.4678,N,08017.0433,W,1,9,1.6,15,M,,M,,*54
06/13/2014	09:04:57.562	$GPGGA,090458,2455.4668,N,08017.0437,W,1,9,1.6,15,M,,M,,*5E
06/13/2014	09:04:58.717	$GPGGA,090459,2455.4660,N,08017.0442,W,1,8,1.6,15,M,,M,,*54
06/13/2014	09:04:59.613	$GPGGA,090500,2455.4652,N,08017.0448,W,1,8,1.6,15,M,,M,,*52
06/13/2014	09:05:00.604	$GPGGA,090501,2455.4647,N,08017.0452,W,1,9,1.5,15,M,,M,,*5E
06/13/2014	09:05:01.699	$GPGGA,090502,2455.4640,N,08017.0457,W,1,9,1.5,15,M,,M,,*5F
06/13/2014	09:05:02.722	$GPGGA,090503,2455.4632,N,08017.0462,W,1,9,1.6,15,M,,M,,*5E
06/13/2014	09:05:03.718	$GPGGA,090504,2455.4621,N,08017.0467,W,1,9,1.6,14,M,,M,,*5F
06/13/2014	09:05:04.725	$GPGGA,090505,2455.4615,N,08017.0473,W,1,8,1.5,14,M,,M,,*5E
06/13/2014	09:05:05.600	$GPGGA,090506,2455.4605,N,08017.0478,W,1,8,1.5,14,M,,M,,*57
06/13/2014	09:05:06.727	$GPGGA,090507,2455.4595,N,08017.0482,W,1,8,1.6,14,M,,M,,*5A
06/13/2014	09:05:07.613	$GPGGA,090508,2455.4587,N,08017.0488,W,1,8,1.6,14,M,,M,,*5C
06/13/2014	09:05:08.619	$GPGGA,090509,2455.4581,N,08017.0495,W,1,9,1.5,14,M,,M,,*55
06/13/2014	09:05:09.726	$GPGGA,090510,2455.4570,N,08017.0499,W,1,9,1.5,14,M,,M,,*5F
06/13/2014	09:05:10.742	$GPGGA,090511,2455.4559,N,08017.0502,W,1,9,1.5,14,M,,M,,*56
06/13/2014	09:05:11.779	$GPGGA,090512,2455.4554,N,08017.0509,W,1,9,1.6,14,M,,M,,*50
06/13/2014	09:05:12.755	$GPGGA,090513,2455.4545,N,08017.0517,W,1,8,1.7,14,M,,M,,*5E
06/13/2014	09:05:13.650	$GPGGA,090514,2455.4532,N,08017.0517,W,1,8,1.7,14,M,,M,,*59
06/13/2014	09:05:14.768	$GPGGA,090515,2455.4525,N,08017.0521,W,1,9,1.5,14,M,,M,,*58
06/13/2014	09:05:15.773	$GPGGA,090516,2455.4520,N,08017.0529,W,1,9,1.6,14,M,,M,,*55
06/13/2014	09:05:16.769	$GPGGA,090517,2455.4511,N,08017.0531,W,1,8,1.7,14,M,,M,,*5F
06/13/2014	09:05:17.755	$GPGGA,090518,2455.4502,N,08017.0532,W,1,8,1.5,14,M,,M,,*53
06/13/2014	09:05:18.792	$GPGGA,090519,2455.4495,N,08017.0538,W,1,9,1.5,14,M,,M,,*56
06/13/2014	09:05:19.808	$GPGGA,090520,2455.4489,N,08017.0545,W,1,9,1.5,14,M,,M,,*5B
06/13/2014	09:05:20.774	$GPGGA,090521,2455.4481,N,08017.0549,W,1,9,1.5,14,M,,M,,*5E
06/13/2014	09:05:21.770	$GPGGA,090522,2455.4473,N,08017.0550,W,1,9,1.5,14,M,,M,,*58
06/13/2014	09:05:22.787	$GPGGA,090523,2455.4466,N,08017.0554,W,1,9,1.5,14,M,,M,,*59
06/13/2014	09:05:23.813	$GPGGA,090524,2455.4459,N,08017.0560,W,1,9,1.5,14,M,,M,,*55
06/13/2014	09:05:24.799	$GPGGA,090525,2455.4451,N,08017.0565,W,1,9,1.5,14,M,,M,,*59
06/13/2014	09:05:25.785	$GPGGA,090526,2455.4442,N,08017.0568,W,1,9,1.5,14,M,,M,,*55
06/13/2014	09:05:26.822	$GPGGA,090527,2455.4433,N,08017.0572,W,1,9,1.5,14,M,,M,,*59
06/13/2014	09:05:27.808	$GPGGA,090528,2455.4426,N,08017.0578,W,1,9,1.5,15,M,,M,,*59
06/13/2014	09:05:28.835	$GPGGA,090529,2455.4418,N,08017.0585,W,1,9,1.5,15,M,,M,,*57
06/13/2014	09:05:29.801	$GPGGA,090530,2455.4409,N,08017.0587,W,1,9,1.5,15,M,,M,,*5D
06/13/2014	09:05:30.837	$GPGGA,090531,2455.4399,N,08017.0592,W,1,9,1.5,15,M,,M,,*56
06/13/2014	09:05:31.823	$GPGGA,090532,2455.4393,N,08017.0597,W,1,9,1.5,15,M,,M,,*5A
06/13/2014	09:05:32.830	$GPGGA,090533,2455.4386,N,08017.0603,W,1,9,1.5,15,M,,M,,*51
06/13/2014	09:05:33.815	$GPGGA,090534,2455.4375,N,08017.0605,W,1,9,1.5,15,M,,M,,*5C
06/13/2014	09:05:34.821	$GPGGA,090535,2455.4368,N,08017.0610,W,1,9,1.5,15,M,,M,,*55
06/13/2014	09:05:35.868	$GPGGA,090536,2455.4361,N,08017.0615,W,1,9,1.5,15,M,,M,,*5A
06/13/2014	09:05:36.864	$GPGGA,090537,2455.4351,N,08017.0621,W,1,9,1.5,15,M,,M,,*5F
06/13/2014	09:05:37.840	$GPGGA,090538,2455.4342,N,08017.0622,W,1,9,1.5,15,M,,M,,*51
06/13/2014	09:05:38.866	$GPGGA,090539,2455.4335,N,08017.0625,W,1,9,1.5,15,M,,M,,*57
06/13/2014	09:05:39.863	$GPGGA,090540,2455.4328,N,08017.0632,W,1,9,1.5,16,M,,M,,*50
06/13/2014	09:05:40.853	$GPGGA,090541,2455.4318,N,08017.0636,W,1,9,1.5,16,M,,M,,*56
06/13/2014	09:05:41.860	$GPGGA,090542,2455.4310,N,08017.0639,W,1,9,1.5,16,M,,M,,*52
06/13/2014	09:05:42.871	$GPGGA,090543,2455.4303,N,08017.0644,W,1,9,1.5,16,M,,M,,*5B
06/13/2014	09:05:43.988	$GPGGA,090544,2455.4293,N,08017.0650,W,1,9,1.5,16,M,,M,,*51
06/13/2014	09:05:44.985	$GPGGA,090545,2455.4285,N,08017.0652,W,1,9,1.5,16,M,,M,,*55
06/13/2014	09:05:45.860	$GPGGA,090546,2455.4276,N,08017.0657,W,1,9,1.5,16,M,,M,,*5F
06/13/2014	09:05:46.544	$GPGGA,090547,2455.4269,N,08017.0663,W,1,9,1.5,16,M,,M,,*57
06/13/2014	09:05:47.627	$GPGGA,090548,2455.4258,N,08017.0668,W,1,9,1.5,16,M,,M,,*51
06/13/2014	09:05:48.605	$GPGGA,090549,2455.4247,N,08017.0672,W,1,8,1.6,16,M,,M,,*57
06/13/2014	09:05:49.508	$GPGGA,090550,2455.4240,N,08017.0679,W,1,8,1.5,16,M,,M,,*50
06/13/2014	09:05:50.524	$GPGGA,090551,2455.4234,N,08017.0686,W,1,9,1.5,16,M,,M,,*53
06/13/2014	09:05:51.550	$GPGGA,090552,2455.4224,N,08017.0688,W,1,9,1.5,16,M,,M,,*5F
06/13/2014	09:05:52.583	$GPGGA,090553,2455.4216,N,08017.0691,W,1,9,1.5,16,M,,M,,*57
06/13/2014	09:05:53.789	$GPGGA,090554,2455.4210,N,08017.0699,W,1,9,1.5,16,M,,M,,*5E
06/13/2014	09:05:54.788	$GPGGA,090555,2455.4200,N,08017.0705,W,1,9,1.6,16,M,,M,,*59
06/13/2014	09:05:55.939	$GPGGA,090556,2455.4191,N,08017.0708,W,1,9,1.6,16,M,,M,,*5C
06/13/2014	09:05:57.024	$GPGGA,090557,2455.4184,N,08017.0715,W,1,9,1.5,16,M,,M,,*56
06/13/2014	09:05:58.121	$GPGGA,090558,2455.4177,N,08017.0720,W,1,9,1.7,16,M,,M,,*51
06/13/2014	09:05:59.099	$GPGGA,090559,2455.4169,N,08017.0724,W,1,8,1.5,16,M,,M,,*58
06/13/2014	09:06:00.305	$GPGGA,090600,2455.4162,N,08017.0728,W,1,8,1.5,16,M,,M,,*50
06/13/2014	09:06:01.346	$GPGGA,090601,2455.4156,N,08017.0733,W,1,9,1.5,16,M,,M,,*5D
06/13/2014	09:06:02.432	$GPGGA,090602,2455.4149,N,08017.0740,W,1,9,1.5,16,M,,M,,*54
06/13/2014	09:06:03.528	$GPGGA,090603,2455.4141,N,08017.0744,W,1,9,1.5,16,M,,M,,*59
06/13/2014	09:06:04.625	$GPGGA,090604,2455.4133,N,08017.0748,W,1,9,1.5,16,M,,M,,*57
06/13/2014	09:06:05.678	$GPGGA,090605,2455.4123,N,08017.0753,W,1,9,1.6,16,M,,M,,*5E
06/13/2014	09:06:06.765	$GPGGA,090606,2455.4115,N,08017.0759,W,1,9,1.6,16,M,,M,,*52
06/13/2014	09:06:07.872	$GPGGA,090607,2455.4104,N,08017.0763,W,1,8,1.6,16,M,,M,,*5B
06/13/2014	09:06:08.957	$GPGGA,090608,2455.4095,N,08017.0769,W,1,8,1.6,16,M,,M,,*57
06/13/2014	09:06:10.042	$GPGGA,090609,2455.4086,N,08017.0773,W,1,9,1.5,17,M,,M,,*5C
06/13/2014	09:06:11.117	$GPGGA,090610,2455.4079,N,08017.0780,W,1,9,1.6,17,M,,M,,*5B
06/13/2014	09:06:12.215	$GPGGA,090611,2455.4068,N,08017.0784,W,1,9,1.5,17,M,,M,,*5D
06/13/2014	09:06:13.289	$GPGGA,090612,2455.4059,N,08017.0788,W,1,9,1.6,17,M,,M,,*53
06/13/2014	09:06:14.374	$GPGGA,090613,2455.4050,N,08017.0793,W,1,9,1.5,17,M,,M,,*52
06/13/2014	09:06:15.438	$GPGGA,090614,2455.4043,N,08017.0800,W,1,9,1.6,17,M,,M,,*51
06/13/2014	09:06:16.535	$GPGGA,090615,2455.4032,N,08017.0805,W,1,8,1.6,17,M,,M,,*52
06/13/2014	09:06:17.621	$GPGGA,090616,2455.4023,N,08017.0810,W,1,8,1.6,17,M,,M,,*55
06/13/2014	09:06:18.718	$GPGGA,090617,2455.4019,N,08017.0814,W,1,8,1.6,17,M,,M,,*59
06/13/2014	09:06:19.782	$GPGGA,090618,2455.4010,N,08017.0820,W,1,8,1.5,17,M,,M,,*5B
06/13/2014	09:06:20.889	$GPGGA,090619,2455.4003,N,08017.0827,W,1,8,1.6,17,M,,M,,*5C
06/13/2014	09:06:21.964	$GPGGA,090620,2455.3992,N,08017.0831,W,1,8,1.6,17,M,,M,,*57
06/13/2014	09:06:23.017	$GPGGA,090621,2455.3985,N,08017.0835,W,1,8,1.6,17,M,,M,,*54
06/13/2014	09:06:24.114	$GPGGA,090622,2455.3978,N,08017.0840,W,1,8,1.5,17,M,,M,,*54
06/13/2014	09:06:25.232	$GPGGA,090623,2455.3970,N,08017.0846,W,1,9,1.5,17,M,,M,,*5A
06/13/2014	09:06:26.286	$GPGGA,090624,2455.3962,N,08017.0849,W,1,9,1.5,17,M,,M,,*51
06/13/2014	09:06:27.372	$GPGGA,090625,2455.3954,N,08017.0853,W,1,9,1.5,17,M,,M,,*5E
06/13/2014	09:06:28.445	$GPGGA,090626,2455.3949,N,08017.0860,W,1,9,1.5,17,M,,M,,*51
06/13/2014	09:06:29.542	$GPGGA,090627,2455.3940,N,08017.0865,W,1,9,1.5,17,M,,M,,*5C
06/13/2014	09:06:30.629	$GPGGA,090628,2455.3932,N,08017.0867,W,1,9,1.5,17,M,,M,,*54
06/13/2014	09:06:31.692	$GPGGA,090629,2455.3924,N,08017.0872,W,1,9,1.5,17,M,,M,,*56
06/13/2014	09:06:32.778	$GPGGA,090630,2455.3918,N,08017.0881,W,1,9,1.5,17,M,,M,,*5D
06/13/2014	09:06:33.874	$GPGGA,090631,2455.3909,N,08017.0883,W,1,9,1.5,17,M,,M,,*5E
06/13/2014	09:06:34.971	$GPGGA,090632,2455.3900,N,08017.0887,W,1,9,1.5,17,M,,M,,*50
06/13/2014	09:06:36.021	$GPGGA,090633,2455.3893,N,08017.0893,W,1,9,1.5,17,M,,M,,*5F
06/13/2014	09:06:37.127	$GPGGA,090634,2455.3886,N,08017.0899,W,1,9,1.5,17,M,,M,,*56
06/13/2014	09:06:38.196	$GPGGA,090635,2455.3877,N,08017.0903,W,1,9,1.5,17,M,,M,,*5B
06/13/2014	09:06:39.303	$GPGGA,090636,2455.3868,N,08017.0907,W,1,9,1.5,17,M,,M,,*52
06/13/2014	09:06:40.356	$GPGGA,090637,2455.3860,N,08017.0911,W,1,9,1.5,17,M,,M,,*5C
06/13/2014	09:06:41.551	$GPGGA,090638,2455.3852,N,08017.0918,W,1,9,1.5,17,M,,M,,*5B
06/13/2014	09:06:42.551	$GPGGA,090639,2455.3844,N,08017.0922,W,1,9,1.5,17,M,,M,,*54
06/13/2014	09:06:43.733	$GPGGA,090640,2455.3834,N,08017.0926,W,1,9,1.5,17,M,,M,,*59
06/13/2014	09:06:44.852	$GPGGA,090641,2455.3826,N,08017.0930,W,1,9,1.5,17,M,,M,,*5C
06/13/2014	09:06:45.894	$GPGGA,090642,2455.3819,N,08017.0936,W,1,9,1.5,17,M,,M,,*55
06/13/2014	09:06:47.005	$GPGGA,090643,2455.3810,N,08017.0941,W,1,9,1.5,16,M,,M,,*5C
06/13/2014	09:06:48.097	$GPGGA,090644,2455.3801,N,08017.0944,W,1,9,1.5,16,M,,M,,*5E
06/13/2014	09:06:49.150	$GPGGA,090645,2455.3793,N,08017.0948,W,1,9,1.5,16,M,,M,,*57
06/13/2014	09:06:50.128	$GPGGA,090646,2455.3786,N,08017.0955,W,1,9,1.5,16,M,,M,,*5C
06/13/2014	09:06:51.203	$GPGGA,090647,2455.3776,N,08017.0959,W,1,9,1.5,16,M,,M,,*5E
06/13/2014	09:06:47.572	$GPGGA,090648,2455.3768,N,08017.0962,W,1,9,1.5,16,M,,M,,*56
06/13/2014	09:06:48.766	$GPGGA,090649,2455.3759,N,08017.0968,W,1,9,1.5,16,M,,M,,*5F
06/13/2014	09:06:49.830	$GPGGA,090650,2455.3751,N,08017.0972,W,1,9,1.5,16,M,,M,,*54
06/13/2014	09:06:50.916	$GPGGA,090651,2455.3743,N,08017.0976,W,1,9,1.5,16,M,,M,,*52
06/13/2014	09:06:52.013	$GPGGA,090652,2455.3734,N,08017.0980,W,1,9,1.5,16,M,,M,,*58
06/13/2014	09:06:53.099	$GPGGA,090653,2455.3726,N,08017.0986,W,1,9,1.5,16,M,,M,,*5C
06/13/2014	09:06:54.173	$GPGGA,090654,2455.3717,N,08017.0990,W,1,9,1.5,16,M,,M,,*5E
06/13/2014	09:06:55.237	$GPGGA,090655,2455.3708,N,08017.0993,W,1,9,1.5,16,M,,M,,*52
06/13/2014	09:06:56.345	$GPGGA,090656,2455.3700,N,08017.0998,W,1,9,1.5,16,M,,M,,*52
06/13/2014	09:06:57.442	$GPGGA,090657,2455.3692,N,08017.1004,W,1,9,1.5,16,M,,M,,*54
06/13/2014	09:06:58.495	$GPGGA,090658,2455.3683,N,08017.1008,W,1,9,1.5,16,M,,M,,*57
06/13/2014	09:06:59.570	$GPGGA,090659,2455.3674,N,08017.1011,W,1,9,1.5,16,M,,M,,*56
06/13/2014	09:07:00.688	$GPGGA,090700,2455.3665,N,08017.1015,W,1,9,1.5,16,M,,M,,*5F
06/13/2014	09:07:01.762	$GPGGA,090701,2455.3660,N,08017.1022,W,1,9,1.5,16,M,,M,,*5F
06/13/2014	09:07:02.837	$GPGGA,090702,2455.3651,N,08017.1027,W,1,9,1.5,16,M,,M,,*5B
06/13/2014	09:07:03.944	$GPGGA,090703,2455.3640,N,08017.1030,W,1,9,1.5,16,M,,M,,*5C
06/13/2014	09:07:05.010	$GPGGA,090704,2455.3633,N,08017.1037,W,1,9,1.6,16,M,,M,,*5B
06/13/2014	09:07:06.105	$GPGGA,090705,2455.3625,N,08017.1044,W,1,8,1.6,16,M,,M,,*58
06/13/2014	09:07:07.158	$GPGGA,090706,2455.3618,N,08017.1048,W,1,8,1.7,16,M,,M,,*58
06/13/2014	09:07:08.277	$GPGGA,090707,2455.3611,N,08017.1055,W,1,9,1.5,16,M,,M,,*5F
06/13/2014	09:07:09.341	$GPGGA,090708,2455.3602,N,08017.1059,W,1,9,1.5,16,M,,M,,*5E
06/13/2014	09:07:10.427	$GPGGA,090709,2455.3595,N,08017.1066,W,1,8,1.6,16,M,,M,,*5C
06/13/2014	09:07:11.502	$GPGGA,090710,2455.3588,N,08017.1071,W,1,8,1.5,16,M,,M,,*5D
06/13/2014	09:07:12.620	$GPGGA,090711,2455.3580,N,08017.1076,W,1,9,1.5,16,M,,M,,*52
06/13/2014	09:07:13.684	$GPGGA,090712,2455.3573,N,08017.1080,W,1,9,1.5,16,M,,M,,*54
06/13/2014	09:07:14.781	$GPGGA,090713,2455.3566,N,08017.1087,W,1,9,1.5,16,M,,M,,*56
06/13/2014	09:07:15.834	$GPGGA,090714,2455.3555,N,08017.1091,W,1,9,1.5,16,M,,M,,*56
06/13/2014	09:07:16.941	$GPGGA,090715,2455.3548,N,08017.1095,W,1,9,1.5,16,M,,M,,*5F
06/13/2014	09:07:18.016	$GPGGA,090716,2455.3538,N,08017.1099,W,1,9,1.5,16,M,,M,,*57
06/13/2014	09:07:19.107	$GPGGA,090717,2455.3530,N,08017.1105,W,1,8,1.6,16,M,,M,,*58
06/13/2014	09:07:20.188	$GPGGA,090718,2455.3521,N,08017.1109,W,1,8,1.5,16,M,,M,,*58
06/13/2014	09:07:21.284	$GPGGA,090719,2455.3512,N,08017.1116,W,1,8,1.6,16,M,,M,,*54
06/13/2014	09:07:22.359	$GPGGA,090720,2455.3508,N,08017.1121,W,1,8,1.6,16,M,,M,,*51
06/13/2014	09:07:23.412	$GPGGA,090721,2455.3502,N,08017.1127,W,1,9,1.5,16,M,,M,,*5E
06/13/2014	09:07:24.541	$GPGGA,090722,2455.3493,N,08017.1131,W,1,9,1.7,16,M,,M,,*51
06/13/2014	09:07:25.605	$GPGGA,090723,2455.3483,N,08017.1138,W,1,8,1.6,16,M,,M,,*58
06/13/2014	09:07:26.691	$GPGGA,090724,2455.3475,N,08017.1142,W,1,8,1.6,16,M,,M,,*5B
06/13/2014	09:07:27.766	$GPGGA,090725,2455.3472,N,08017.1147,W,1,9,1.5,16,M,,M,,*5A
06/13/2014	09:07:28.940	$GPGGA,090726,2455.3463,N,08017.1154,W,1,9,1.7,16,M,,M,,*59
06/13/2014	09:07:30.054	$GPGGA,090727,2455.3452,N,08017.1157,W,1,8,1.6,16,M,,M,,*59
06/13/2014	09:07:31.012	$GPGGA,090728,2455.3445,N,08017.1161,W,1,8,1.6,16,M,,M,,*55
06/13/2014	09:07:32.101	$GPGGA,090729,2455.3436,N,08017.1167,W,1,9,1.5,16,M,,M,,*54
06/13/2014	09:07:33.271	$GPGGA,090730,2455.3427,N,08017.1174,W,1,9,1.6,17,M,,M,,*5C
06/13/2014	09:07:34.372	$GPGGA,090731,2455.3418,N,08017.1178,W,1,8,1.7,17,M,,M,,*5D
06/13/2014	09:07:35.362	$GPGGA,090732,2455.3412,N,08017.1185,W,1,8,1.6,16,M,,M,,*56
06/13/2014	09:07:36.431	$GPGGA,090733,2455.3402,N,08017.1192,W,1,9,1.5,16,M,,M,,*52
06/13/2014	09:07:37.615	$GPGGA,090734,2455.3396,N,08017.1196,W,1,9,1.6,16,M,,M,,*58
06/13/2014	09:07:38.732	$GPGGA,090735,2455.3387,N,08017.1203,W,1,9,1.5,16,M,,M,,*55
06/13/2014	09:07:39.806	$GPGGA,090736,2455.3379,N,08017.1207,W,1,9,1.5,16,M,,M,,*53
06/13/2014	09:07:40.870	$GPGGA,090737,2455.3372,N,08017.1212,W,1,9,1.5,16,M,,M,,*5D
06/13/2014	09:07:41.945	$GPGGA,090738,2455.3364,N,08017.1217,W,1,9,1.5,16,M,,M,,*50
06/13/2014	09:07:43.042	$GPGGA,090739,2455.3356,N,08017.1222,W,1,9,1.5,16,M,,M,,*56
06/13/2014	09:07:44.139	$GPGGA,090740,2455.3349,N,08017.1228,W,1,9,1.5,16,M,,M,,*5C
06/13/2014	09:07:45.224	$GPGGA,090741,2455.3340,N,08017.1232,W,1,9,1.5,16,M,,M,,*5F
06/13/2014	09:07:46.278	$GPGGA,090742,2455.3331,N,08017.1235,W,1,9,1.5,16,M,,M,,*5D
06/13/2014	09:07:47.374	$GPGGA,090743,2455.3324,N,08017.1240,W,1,9,1.5,16,M,,M,,*5A
06/13/2014	09:07:48.471	$GPGGA,090744,2455.3314,N,08017.1246,W,1,9,1.5,16,M,,M,,*58
06/13/2014	09:07:49.535	$GPGGA,090745,2455.3306,N,08017.1248,W,1,9,1.5,15,M,,M,,*57
06/13/2014	09:07:50.621	$GPGGA,090746,2455.3297,N,08017.1254,W,1,9,1.5,15,M,,M,,*50
06/13/2014	09:07:46.582	$GPGGA,090747,2455.3289,N,08017.1258,W,1,9,1.5,15,M,,M,,*52
06/13/2014	09:07:47.647	$GPGGA,090748,2455.3279,N,08017.1261,W,1,9,1.5,15,M,,M,,*58
06/13/2014	09:07:48.743	$GPGGA,090749,2455.3270,N,08017.1268,W,1,9,1.5,15,M,,M,,*59
06/13/2014	09:07:49.796	$GPGGA,090750,2455.3262,N,08017.1272,W,1,9,1.5,15,M,,M,,*59
06/13/2014	09:07:50.893	$GPGGA,090751,2455.3252,N,08017.1275,W,1,9,1.5,15,M,,M,,*5C
06/13/2014	09:07:51.991	$GPGGA,090752,2455.3244,N,08017.1279,W,1,9,1.5,15,M,,M,,*54
06/13/2014	09:07:53.085	$GPGGA,090753,2455.3237,N,08017.1286,W,1,9,1.5,15,M,,M,,*51
06/13/2014	09:07:54.139	$GPGGA,090754,2455.3228,N,08017.1290,W,1,9,1.5,15,M,,M,,*5F
06/13/2014	09:07:55.213	$GPGGA,090755,2455.3217,N,08017.1293,W,1,9,1.5,15,M,,M,,*51
06/13/2014	09:07:56.321	$GPGGA,090756,2455.3209,N,08017.1297,W,1,9,1.5,15,M,,M,,*59
06/13/2014	09:07:57.418	$GPGGA,090757,2455.3202,N,08017.1304,W,1,9,1.5,15,M,,M,,*58
06/13/2014	09:07:58.460	$GPGGA,090758,2455.3192,N,08017.1306,W,1,9,1.5,15,M,,M,,*5F
06/13/2014	09:07:59.546	$GPGGA,090759,2455.3183,N,08017.1309,W,1,9,1.5,15,M,,M,,*51
06/13/2014	09:08:00.675	$GPGGA,090800,2455.3176,N,08017.1315,W,1,9,1.5,15,M,,M,,*55
06/13/2014	09:08:01.924	$GPGGA,090801,2455.3166,N,08017.1320,W,1,9,1.5,15,M,,M,,*53
06/13/2014	09:08:02.803	$GPGGA,090802,2455.3158,N,08017.1323,W,1,9,1.5,15,M,,M,,*5E
06/13/2014	09:08:03.889	$GPGGA,090803,2455.3150,N,08017.1327,W,1,9,1.5,15,M,,M,,*53
06/13/2014	09:08:04.986	$GPGGA,090804,2455.3143,N,08017.1333,W,1,9,1.5,15,M,,M,,*53
06/13/2014	09:08:06.082	$GPGGA,090805,2455.3133,N,08017.1337,W,1,9,1.5,15,M,,M,,*51
06/13/2014	09:08:07.146	$GPGGA,090806,2455.3125,N,08017.1340,W,1,9,1.5,15,M,,M,,*55
06/13/2014	09:08:08.254	$GPGGA,090807,2455.3118,N,08017.1347,W,1,9,1.5,15,M,,M,,*5D
06/13/2014	09:08:09.329	$GPGGA,090808,2455.3107,N,08017.1351,W,1,9,1.7,15,M,,M,,*59
06/13/2014	09:08:10.382	$GPGGA,090809,2455.3096,N,08017.1352,W,1,8,1.7,15,M,,M,,*53
06/13/2014	09:08:11.620	$GPGGA,090810,2455.3089,N,08017.1358,W,1,8,1.6,15,M,,M,,*5E
06/13/2014	09:08:12.574	$GPGGA,090811,2455.3082,N,08017.1363,W,1,9,1.5,15,M,,M,,*5E
06/13/2014	09:08:13.682	$GPGGA,090812,2455.3072,N,08017.1366,W,1,9,1.5,15,M,,M,,*57
06/13/2014	09:08:14.735	$GPGGA,090813,2455.3064,N,08017.1369,W,1,9,1.5,15,M,,M,,*5E
06/13/2014	09:08:15.951	$GPGGA,090814,2455.3056,N,08017.1376,W,1,9,1.5,15,M,,M,,*56
06/13/2014	09:08:16.994	$GPGGA,090815,2455.3049,N,08017.1383,W,1,9,1.5,15,M,,M,,*53
06/13/2014	09:08:17.982	$GPGGA,090816,2455.3039,N,08017.1384,W,1,9,1.5,15,M,,M,,*50
06/13/2014	09:08:19.252	$GPGGA,090817,2455.3031,N,08017.1388,W,1,9,1.5,15,M,,M,,*55
06/13/2014	09:08:20.240	$GPGGA,090818,2455.3024,N,08017.1396,W,1,9,1.5,15,M,,M,,*51
06/13/2014	09:08:21.326	$GPGGA,090819,2455.3014,N,08017.1400,W,1,9,1.5,15,M,,M,,*5B
06/13/2014	09:08:22.314	$GPGGA,090820,2455.3008,N,08017.1405,W,1,9,1.6,15,M,,M,,*5A
06/13/2014	09:08:23.497	$GPGGA,090821,2455.3001,N,08017.1410,W,1,9,1.5,15,M,,M,,*55
06/13/2014	09:08:24.616	$GPGGA,090822,2455.2995,N,08017.1416,W,1,9,1.5,15,M,,M,,*55
06/13/2014	09:08:25.778	$GPGGA,090823,2455.2985,N,08017.1420,W,1,9,1.5,15,M,,M,,*50
06/13/2014	09:08:26.820	$GPGGA,090824,2455.2978,N,08017.1425,W,1,9,1.5,15,M,,M,,*50
06/13/2014	09:08:27.950	$GPGGA,090825,2455.2971,N,08017.1431,W,1,9,1.5,15,M,,M,,*5D
06/13/2014	09:08:28.818	$GPGGA,090826,2455.2962,N,08017.1436,W,1,9,1.5,15,M,,M,,*5B
06/13/2014	09:08:30.121	$GPGGA,090827,2455.2952,N,08017.1439,W,1,8,1.5,15,M,,M,,*57
06/13/2014	09:08:31.097	$GPGGA,090828,2455.2945,N,08017.1445,W,1,8,1.5,15,M,,M,,*55
06/13/2014	09:08:32.270	$GPGGA,090829,2455.2938,N,08017.1452,W,1,9,1.7,16,M,,M,,*58
06/13/2014	09:08:33.279	$GPGGA,090830,2455.2930,N,08017.1456,W,1,9,1.7,16,M,,M,,*5C
06/13/2014	09:08:34.452	$GPGGA,090831,2455.2923,N,08017.1461,W,1,8,1.7,16,M,,M,,*5A
06/13/2014	09:08:35.473	$GPGGA,090832,2455.2914,N,08017.1467,W,1,8,1.7,16,M,,M,,*5B
06/13/2014	09:08:36.493	$GPGGA,090833,2455.2905,N,08017.1472,W,1,9,1.5,16,M,,M,,*5D
06/13/2014	09:08:37.579	$GPGGA,090834,2455.2897,N,08017.1478,W,1,9,1.7,16,M,,M,,*58
06/13/2014	09:08:38.665	$GPGGA,090835,2455.2888,N,08017.1482,W,1,9,1.5,16,M,,M,,*50
06/13/2014	09:08:39.816	$GPGGA,090836,2455.2878,N,08017.1488,W,1,9,1.6,16,M,,M,,*55
06/13/2014	09:08:40.945	$GPGGA,090837,2455.2868,N,08017.1492,W,1,8,1.5,16,M,,M,,*5C
06/13/2014	09:08:41.944	$GPGGA,090838,2455.2859,N,08017.1497,W,1,8,1.5,16,M,,M,,*54
06/13/2014	09:08:43.117	$GPGGA,090839,2455.2849,N,08017.1503,W,1,8,1.6,16,M,,M,,*5B
06/13/2014	09:08:44.094	$GPGGA,090840,2455.2840,N,08017.1507,W,1,8,1.6,16,M,,M,,*58
06/13/2014	09:08:45.267	$GPGGA,090841,2455.2833,N,08017.1512,W,1,8,1.5,16,M,,M,,*5A
06/13/2014	09:08:46.276	$GPGGA,090842,2455.2826,N,08017.1517,W,1,8,1.5,16,M,,M,,*58
06/13/2014	09:08:47.449	$GPGGA,090843,2455.2819,N,08017.1521,W,1,9,1.5,16,M,,M,,*51
06/13/2014	09:08:48.470	$GPGGA,090844,2455.2811,N,08017.1525,W,1,9,1.5,16,M,,M,,*5A
06/13/2014	09:08:49.632	$GPGGA,090845,2455.2804,N,08017.1532,W,1,9,1.5,16,M,,M,,*59
06/13/2014	09:08:50.586	$GPGGA,090846,2455.2797,N,08017.1536,W,1,9,1.5,16,M,,M,,*5B
06/13/2014	09:08:46.603	$GPGGA,090847,2455.2789,N,08017.1540,W,1,9,1.5,16,M,,M,,*54
06/13/2014	09:08:47.665	$GPGGA,090848,2455.2778,N,08017.1546,W,1,9,1.6,16,M,,M,,*50
06/13/2014	09:08:48.772	$GPGGA,090849,2455.2771,N,08017.1553,W,1,8,1.5,16,M,,M,,*5E
06/13/2014	09:08:49.815	$GPGGA,090850,2455.2760,N,08017.1557,W,1,8,1.6,16,M,,M,,*51
06/13/2014	09:08:50.945	$GPGGA,090851,2455.2750,N,08017.1562,W,1,8,1.6,16,M,,M,,*55
06/13/2014	09:08:51.997	$GPGGA,090852,2455.2742,N,08017.1569,W,1,8,1.6,16,M,,M,,*5E
06/13/2014	09:08:53.021	$GPGGA,090853,2455.2733,N,08017.1573,W,1,9,1.5,16,M,,M,,*50
06/13/2014	09:08:54.234	$GPGGA,090854,2455.2724,N,08017.1577,W,1,9,1.5,16,M,,M,,*55
06/13/2014	09:08:55.313	$GPGGA,090855,2455.2715,N,08017.1584,W,1,9,1.5,16,M,,M,,*5A
06/13/2014	09:08:56.319	$GPGGA,090856,2455.2706,N,08017.1591,W,1,9,1.5,16,M,,M,,*5F
06/13/2014	09:08:57.482	$GPGGA,090857,2455.2699,N,08017.1595,W,1,9,1.5,16,M,,M,,*5D
06/13/2014	09:08:58.480	$GPGGA,090858,2455.2689,N,08017.1600,W,1,9,1.5,16,M,,M,,*5C
06/13/2014	09:08:59.609	$GPGGA,090859,2455.2681,N,08017.1604,W,1,9,1.5,16,M,,M,,*51
06/13/2014	09:09:00.760	$GPGGA,090900,2455.2674,N,08017.1611,W,1,9,1.5,16,M,,M,,*52
06/13/2014	09:09:01.791	$GPGGA,090901,2455.2665,N,08017.1616,W,1,9,1.5,16,M,,M,,*54
06/13/2014	09:09:02.812	$GPGGA,090902,2455.2656,N,08017.1619,W,1,9,1.5,16,M,,M,,*58
06/13/2014	09:09:03.965	$GPGGA,090903,2455.2648,N,08017.1626,W,1,9,1.5,16,M,,M,,*5A
06/13/2014	09:09:04.955	$GPGGA,090904,2455.2641,N,08017.1631,W,1,9,1.5,16,M,,M,,*52
06/13/2014	09:09:06.122	$GPGGA,090905,2455.2632,N,08017.1634,W,1,9,1.5,16,M,,M,,*52
06/13/2014	09:09:07.219	$GPGGA,090906,2455.2623,N,08017.1640,W,1,9,1.5,16,M,,M,,*52
06/13/2014	09:09:08.359	$GPGGA,090907,2455.2616,N,08017.1644,W,1,9,1.5,16,M,,M,,*51
06/13/2014	09:09:09.425	$GPGGA,090908,2455.2608,N,08017.1651,W,1,9,1.7,16,M,,M,,*57
06/13/2014	09:09:10.531	$GPGGA,090909,2455.2600,N,08017.1655,W,1,8,1.5,16,M,,M,,*59
06/13/2014	09:09:11.553	$GPGGA,090910,2455.2592,N,08017.1659,W,1,8,1.5,16,M,,M,,*55
06/13/2014	09:09:12.692	$GPGGA,090911,2455.2584,N,08017.1665,W,1,9,1.5,16,M,,M,,*5D
06/13/2014	09:09:13.734	$GPGGA,090912,2455.2576,N,08017.1671,W,1,9,1.5,16,M,,M,,*56
06/13/2014	09:09:14.809	$GPGGA,090913,2455.2569,N,08017.1676,W,1,9,1.5,16,M,,M,,*5E
06/13/2014	09:09:15.895	$GPGGA,090914,2455.2559,N,08017.1680,W,1,9,1.5,16,M,,M,,*53
06/13/2014	09:09:16.980	$GPGGA,090915,2455.2551,N,08017.1684,W,1,9,1.5,16,M,,M,,*5E
06/13/2014	09:09:18.080	$GPGGA,090916,2455.2542,N,08017.1688,W,1,9,1.5,16,M,,M,,*53
06/13/2014	09:09:19.141	$GPGGA,090917,2455.2534,N,08017.1694,W,1,9,1.5,16,M,,M,,*5E
06/13/2014	09:09:20.227	$GPGGA,090918,2455.2525,N,08017.1698,W,1,9,1.5,16,M,,M,,*5D
06/13/2014	09:09:21.346	$GPGGA,090919,2455.2518,N,08017.1702,W,1,9,1.5,16,M,,M,,*50
06/13/2014	09:09:22.399	$GPGGA,090920,2455.2509,N,08017.1706,W,1,9,1.5,16,M,,M,,*5E
06/13/2014	09:09:23.526	$GPGGA,090921,2455.2500,N,08017.1710,W,1,9,1.5,16,M,,M,,*51
06/13/2014	09:09:24.558	$GPGGA,090922,2455.2493,N,08017.1716,W,1,9,1.5,16,M,,M,,*5F
06/13/2014	09:09:25.655	$GPGGA,090923,2455.2486,N,08017.1721,W,1,9,1.7,16,M,,M,,*5C
06/13/2014	09:09:26.741	$GPGGA,090924,2455.2476,N,08017.1725,W,1,9,1.5,16,M,,M,,*52
06/13/2014	09:09:27.848	$GPGGA,090925,2455.2469,N,08017.1728,W,1,9,1.7,16,M,,M,,*52
06/13/2014	09:09:28.901	$GPGGA,090926,2455.2461,N,08017.1734,W,1,9,1.5,16,M,,M,,*56
06/13/2014	09:09:30.022	$GPGGA,090927,2455.2454,N,08017.1739,W,1,9,1.7,16,M,,M,,*5E
06/13/2014	09:09:31.073	$GPGGA,090928,2455.2446,N,08017.1743,W,1,9,1.6,16,M,,M,,*5E
06/13/2014	09:09:32.181	$GPGGA,090929,2455.2435,N,08017.1745,W,1,8,1.6,16,M,,M,,*5C
06/13/2014	09:09:33.234	$GPGGA,090930,2455.2428,N,08017.1752,W,1,8,1.6,16,M,,M,,*5E
06/13/2014	09:09:34.393	$GPGGA,090931,2455.2418,N,08017.1759,W,1,8,1.6,16,M,,M,,*57
06/13/2014	09:09:35.416	$GPGGA,090932,2455.2408,N,08017.1761,W,1,8,1.6,16,M,,M,,*5E
06/13/2014	09:09:36.513	$GPGGA,090933,2455.2399,N,08017.1766,W,1,8,1.6,16,M,,M,,*57
06/13/2014	09:09:37.555	$GPGGA,090934,2455.2392,N,08017.1774,W,1,8,1.6,16,M,,M,,*58
06/13/2014	09:09:38.686	$GPGGA,090935,2455.2383,N,08017.1778,W,1,8,1.6,16,M,,M,,*55
06/13/2014	09:09:39.738	$GPGGA,090936,2455.2372,N,08017.1781,W,1,8,1.6,16,M,,M,,*5E
06/13/2014	09:09:40.824	$GPGGA,090937,2455.2372,N,08017.1781,W,1,8,1.6,16,M,,M,,*5F
06/13/2014	09:09:41.908	$GPGGA,090938,2455.2357,N,08017.1793,W,1,8,1.6,16,M,,M,,*54
06/13/2014	09:09:43.016	$GPGGA,090939,2455.2346,N,08017.1796,W,1,8,1.6,16,M,,M,,*50
06/13/2014	09:09:44.080	$GPGGA,090940,2455.2337,N,08017.1800,W,1,8,1.6,16,M,,M,,*58
06/13/2014	09:09:45.210	$GPGGA,090941,2455.2331,N,08017.1808,W,1,8,1.6,16,M,,M,,*57
06/13/2014	09:09:46.241	$GPGGA,090942,2455.2321,N,08017.1813,W,1,8,1.6,16,M,,M,,*5F
06/13/2014	09:09:47.370	$GPGGA,090943,2455.2311,N,08017.1814,W,1,8,1.6,16,M,,M,,*5A
06/13/2014	09:09:48.423	$GPGGA,090944,2455.2311,N,08017.1814,W,1,8,1.6,16,M,,M,,*5D
06/13/2014	09:09:49.552	$GPGGA,090945,2455.2298,N,08017.1828,W,1,8,1.6,16,M,,M,,*53
06/13/2014	09:09:50.569	$GPGGA,090946,2455.2287,N,08017.1829,W,1,8,1.6,16,M,,M,,*5F
06/13/2014	09:09:46.567	$GPGGA,090947,2455.2278,N,08017.1833,W,1,8,1.6,15,M,,M,,*56
06/13/2014	09:09:47.729	$GPGGA,090948,2455.2272,N,08017.1839,W,1,8,1.6,15,M,,M,,*59
06/13/2014	09:09:48.739	$GPGGA,090949,2455.2265,N,08017.1844,W,1,8,1.9,15,M,,M,,*5B
06/13/2014	09:09:49.846	$GPGGA,090950,2455.2256,N,08017.1846,W,1,8,1.9,15,M,,M,,*51
06/13/2014	09:09:50.867	$GPGGA,090951,2455.2256,N,08017.1846,W,1,8,1.6,15,M,,M,,*5F
06/13/2014	09:09:51.931	$GPGGA,090952,2455.2242,N,08017.1857,W,1,8,1.6,15,M,,M,,*59
06/13/2014	09:09:53.017	$GPGGA,090953,2455.2242,N,08017.1857,W,1,8,1.6,15,M,,M,,*58
06/13/2014	09:09:54.191	$GPGGA,090954,2455.2225,N,08017.1866,W,1,8,1.6,15,M,,M,,*5C
06/13/2014	09:09:55.288	$GPGGA,090955,2455.2218,N,08017.1869,W,1,8,1.6,15,M,,M,,*5C
06/13/2014	09:09:56.284	$GPGGA,090956,2455.2211,N,08017.1875,W,1,8,1.6,15,M,,M,,*5B
06/13/2014	09:09:57.474	$GPGGA,090957,2455.2204,N,08017.1882,W,1,7,1.9,15,M,,M,,*56
06/13/2014	09:09:58.412	$GPGGA,090958,2455.2195,N,08017.1886,W,1,7,1.9,15,M,,M,,*56
06/13/2014	09:09:59.633	$GPGGA,090959,2455.2186,N,08017.1889,W,1,8,1.6,15,M,,M,,*5A
06/13/2014	09:10:00.747	$GPGGA,091000,2455.2179,N,08017.1894,W,1,8,1.6,15,M,,M,,*52
06/13/2014	09:10:01.800	$GPGGA,091001,2455.2172,N,08017.1901,W,1,8,1.6,15,M,,M,,*55
06/13/2014	09:10:02.886	$GPGGA,091002,2455.2164,N,08017.1905,W,1,8,1.9,15,M,,M,,*5A
06/13/2014	09:10:03.950	$GPGGA,091003,2455.2155,N,08017.1909,W,1,7,1.9,15,M,,M,,*5A
06/13/2014	09:10:05.046	$GPGGA,091004,2455.2150,N,08017.1915,W,1,7,1.6,15,M,,M,,*5A
06/13/2014	09:10:06.144	$GPGGA,091005,2455.2141,N,08017.1922,W,1,7,1.9,15,M,,M,,*50
06/13/2014	09:10:07.207	$GPGGA,091006,2455.2132,N,08017.1925,W,1,7,1.9,15,M,,M,,*50
06/13/2014	09:10:08.271	$GPGGA,091007,2455.2124,N,08017.1930,W,1,8,1.6,15,M,,M,,*52
06/13/2014	09:10:09.379	$GPGGA,091008,2455.2117,N,08017.1937,W,1,8,1.6,15,M,,M,,*5A
06/13/2014	09:10:10.509	$GPGGA,091009,2455.2108,N,08017.1940,W,1,8,1.6,15,M,,M,,*55
06/13/2014	09:10:11.529	$GPGGA,091010,2455.2101,N,08017.1947,W,1,8,1.6,15,M,,M,,*53
06/13/2014	09:10:12.636	$GPGGA,091011,2455.2093,N,08017.1954,W,1,7,1.9,15,M,,M,,*5A
06/13/2014	09:10:13.712	$GPGGA,091012,2455.2085,N,08017.1958,W,1,7,1.9,15,M,,M,,*52
06/13/2014	09:10:14.807	$GPGGA,091013,2455.2076,N,08017.1960,W,1,8,1.6,15,M,,M,,*54
06/13/2014	09:10:15.860	$GPGGA,091014,2455.2068,N,08017.1965,W,1,8,1.6,15,M,,M,,*59
06/13/2014	09:10:16.967	$GPGGA,091015,2455.2061,N,08017.1970,W,1,8,1.6,15,M,,M,,*55
06/13/2014	09:10:18.042	$GPGGA,091016,2455.2052,N,08017.1974,W,1,8,1.6,15,M,,M,,*52
06/13/2014	09:10:19.139	$GPGGA,091017,2455.2043,N,08017.1977,W,1,8,1.6,15,M,,M,,*50
06/13/2014	09:10:20.192	$GPGGA,091018,2455.2038,N,08017.1983,W,1,8,1.6,15,M,,M,,*58
06/13/2014	09:10:21.311	$GPGGA,091019,2455.2029,N,08017.1990,W,1,6,2.2,15,M,,M,,*52
06/13/2014	09:10:22.375	$GPGGA,091020,2455.2020,N,08017.1991,W,1,6,1.6,15,M,,M,,*57
06/13/2014	09:10:23.471	$GPGGA,091021,2455.2010,N,08017.1994,W,1,8,1.6,15,M,,M,,*5E
06/13/2014	09:10:24.535	$GPGGA,091022,2455.2005,N,08017.2001,W,1,8,1.6,15,M,,M,,*5F
06/13/2014	09:10:25.632	$GPGGA,091023,2455.1996,N,08017.2005,W,1,8,1.6,15,M,,M,,*5A
06/13/2014	09:10:26.718	$GPGGA,091024,2455.1987,N,08017.2006,W,1,8,1.6,15,M,,M,,*5E
06/13/2014	09:10:27.825	$GPGGA,091025,2455.1980,N,08017.2012,W,1,8,1.6,15,M,,M,,*5D
06/13/2014	09:10:28.879	$GPGGA,091026,2455.1973,N,08017.2019,W,1,8,1.6,15,M,,M,,*59
06/13/2014	09:10:29.954	$GPGGA,091027,2455.1963,N,08017.2023,W,1,8,1.6,15,M,,M,,*50
06/13/2014	09:10:31.050	$GPGGA,091028,2455.1955,N,08017.2027,W,1,8,1.9,15,M,,M,,*51
06/13/2014	09:10:32.147	$GPGGA,091029,2455.1948,N,08017.2031,W,1,8,1.6,15,M,,M,,*54
06/13/2014	09:10:33.211	$GPGGA,091030,2455.1940,N,08017.2037,W,1,8,1.8,15,M,,M,,*5C
06/13/2014	09:10:34.296	$GPGGA,091031,2455.1931,N,08017.2041,W,1,8,1.6,15,M,,M,,*54
06/13/2014	09:10:35.371	$GPGGA,091032,2455.1923,N,08017.2046,W,1,8,1.6,15,M,,M,,*53
06/13/2014	09:10:36.489	$GPGGA,091033,2455.1913,N,08017.2048,W,1,7,1.9,15,M,,M,,*5F
06/13/2014	09:10:37.531	$GPGGA,091034,2455.1904,N,08017.2052,W,1,7,1.6,15,M,,M,,*5A
06/13/2014	09:10:38.650	$GPGGA,091035,2455.1897,N,08017.2057,W,1,8,1.6,15,M,,M,,*5A
06/13/2014	09:10:39.725	$GPGGA,091036,2455.1889,N,08017.2061,W,1,8,1.6,15,M,,M,,*53
06/13/2014	09:10:40.778	$GPGGA,091037,2455.1880,N,08017.2064,W,1,7,1.8,16,M,,M,,*5C
06/13/2014	09:10:41.994	$GPGGA,091038,2455.1872,N,08017.2072,W,1,7,1.6,16,M,,M,,*57
06/13/2014	09:10:42.949	$GPGGA,091039,2455.1864,N,08017.2078,W,1,8,1.6,16,M,,M,,*54
06/13/2014	09:10:44.054	$GPGGA,091040,2455.1854,N,08017.2081,W,1,8,1.6,16,M,,M,,*5F
06/13/2014	09:10:45.129	$GPGGA,091041,2455.1846,N,08017.2085,W,1,8,1.6,16,M,,M,,*59
06/13/2014	09:10:46.305	$GPGGA,091042,2455.1839,N,08017.2092,W,1,8,1.6,16,M,,M,,*54
06/13/2014	09:10:47.423	$GPGGA,091043,2455.1830,N,08017.2096,W,1,8,1.6,16,M,,M,,*58
06/13/2014	09:10:48.400	$GPGGA,091044,2455.1822,N,08017.2099,W,1,8,1.6,16,M,,M,,*53
06/13/2014	09:10:49.453	$GPGGA,091045,2455.1814,N,08017.2103,W,1,7,1.8,16,M,,M,,*54
06/13/2014	09:10:50.637	$GPGGA,091046,2455.1807,N,08017.2110,W,1,7,1.6,16,M,,M,,*59
06/13/2014	09:10:51.646	$GPGGA,091047,2455.1800,N,08017.2114,W,1,7,1.9,16,M,,M,,*54
06/13/2014	09:10:47.683	$GPGGA,091048,2455.1790,N,08017.2115,W,1,7,1.6,16,M,,M,,*53
06/13/2014	09:10:48.747	$GPGGA,091049,2455.1782,N,08017.2121,W,1,8,1.6,16,M,,M,,*59
06/13/2014	09:10:49.844	$GPGGA,091050,2455.1776,N,08017.2128,W,1,8,1.6,16,M,,M,,*53
06/13/2014	09:10:50.930	$GPGGA,091051,2455.1768,N,08017.2132,W,1,8,1.6,16,M,,M,,*56
06/13/2014	09:10:52.016	$GPGGA,091052,2455.1758,N,08017.2135,W,1,8,1.6,16,M,,M,,*51
06/13/2014	09:10:53.037	$GPGGA,091053,2455.1752,N,08017.2140,W,1,8,1.6,16,M,,M,,*58
06/13/2014	09:10:54.069	$GPGGA,091054,2455.1745,N,08017.2146,W,1,8,1.6,16,M,,M,,*5F
06/13/2014	09:10:55.112	$GPGGA,091055,2455.1736,N,08017.2149,W,1,8,1.6,16,M,,M,,*55
06/13/2014	09:10:56.170	$GPGGA,091056,2455.1728,N,08017.2153,W,1,8,1.8,16,M,,M,,*5C
06/13/2014	09:10:57.156	$GPGGA,091057,2455.1718,N,08017.2161,W,1,7,1.8,16,M,,M,,*50
06/13/2014	09:10:58.189	$GPGGA,091058,2455.1709,N,08017.2168,W,1,7,1.6,16,M,,M,,*58
06/13/2014	09:10:59.242	$GPGGA,091059,2455.1700,N,08017.2171,W,1,7,2.0,16,M,,M,,*5D
06/13/2014	09:11:00.274	$GPGGA,091100,2455.1691,N,08017.2176,W,1,7,1.6,16,M,,M,,*5B
06/13/2014	09:11:01.296	$GPGGA,091101,2455.1684,N,08017.2183,W,1,8,1.6,16,M,,M,,*5B
06/13/2014	09:11:02.318	$GPGGA,091102,2455.1676,N,08017.2187,W,1,8,1.6,16,M,,M,,*51
06/13/2014	09:11:03.352	$GPGGA,091103,2455.1667,N,08017.2193,W,1,7,1.8,16,M,,M,,*54
06/13/2014	09:11:04.393	$GPGGA,091104,2455.1660,N,08017.2197,W,1,7,1.6,16,M,,M,,*5E
06/13/2014	09:11:05.437	$GPGGA,091105,2455.1652,N,08017.2200,W,1,7,1.8,16,M,,M,,*5D
06/13/2014	09:11:06.436	$GPGGA,091106,2455.1644,N,08017.2208,W,1,7,1.6,16,M,,M,,*5F
06/13/2014	09:11:07.479	$GPGGA,091107,2455.1634,N,08017.2211,W,1,7,2.0,16,M,,M,,*54
06/13/2014	09:11:08.501	$GPGGA,091108,2455.1626,N,08017.2214,W,1,7,1.6,16,M,,M,,*58
06/13/2014	09:11:09.513	$GPGGA,091109,2455.1617,N,08017.2218,W,1,8,1.6,16,M,,M,,*58
06/13/2014	09:11:10.556	$GPGGA,091110,2455.1610,N,08017.2223,W,1,8,1.6,16,M,,M,,*5F
06/13/2014	09:11:11.619	$GPGGA,091111,2455.1601,N,08017.2229,W,1,8,1.6,16,M,,M,,*54
06/13/2014	09:11:12.621	$GPGGA,091112,2455.1592,N,08017.2233,W,1,8,2.0,16,M,,M,,*50
06/13/2014	09:11:13.674	$GPGGA,091113,2455.1586,N,08017.2240,W,1,8,1.6,16,M,,M,,*55
06/13/2014	09:11:14.685	$GPGGA,091114,2455.1579,N,08017.2245,W,1,8,1.6,16,M,,M,,*57
06/13/2014	09:11:15.738	$GPGGA,091115,2455.1569,N,08017.2249,W,1,8,1.6,16,M,,M,,*5B
06/13/2014	09:11:16.760	$GPGGA,091116,2455.1561,N,08017.2254,W,1,8,1.6,16,M,,M,,*5C
06/13/2014	09:11:17.762	$GPGGA,091117,2455.1555,N,08017.2259,W,1,8,1.6,16,M,,M,,*57
06/13/2014	09:11:18.805	$GPGGA,091118,2455.1547,N,08017.2265,W,1,8,2.0,16,M,,M,,*51
06/13/2014	09:11:19.827	$GPGGA,091119,2455.1539,N,08017.2269,W,1,8,1.6,16,M,,M,,*50
06/13/2014	09:11:20.880	$GPGGA,091120,2455.1533,N,08017.2276,W,1,8,1.6,16,M,,M,,*5E
06/13/2014	09:11:21.902	$GPGGA,091121,2455.1525,N,08017.2279,W,1,7,2.0,16,M,,M,,*5D
06/13/2014	09:11:22.917	$GPGGA,091122,2455.1516,N,08017.2283,W,1,7,1.6,16,M,,M,,*5E
06/13/2014	09:11:23.955	$GPGGA,091123,2455.1510,N,08017.2290,W,1,8,1.6,16,M,,M,,*54
06/13/2014	09:11:25.112	$GPGGA,091124,2455.1503,N,08017.2294,W,1,8,2.0,16,M,,M,,*50
06/13/2014	09:11:26.020	$GPGGA,091125,2455.1494,N,08017.2298,W,1,7,2.0,16,M,,M,,*5D
06/13/2014	09:11:27.060	$GPGGA,091126,2455.1486,N,08017.2303,W,1,7,1.6,16,M,,M,,*5B
06/13/2014	09:11:28.082	$GPGGA,091127,2455.1479,N,08017.2309,W,1,7,2.0,16,M,,M,,*55
06/13/2014	09:11:29.251	$GPGGA,091128,2455.1471,N,08017.2312,W,1,7,2.0,16,M,,M,,*58
06/13/2014	09:11:30.142	$GPGGA,091129,2455.1463,N,08017.2319,W,1,8,1.6,16,M,,M,,*5B
06/13/2014	09:11:31.265	$GPGGA,091130,2455.1456,N,08017.2323,W,1,8,1.6,16,M,,M,,*5C
06/13/2014	09:11:32.209	$GPGGA,091131,2455.1449,N,08017.2330,W,1,8,1.6,16,M,,M,,*51
06/13/2014	09:11:33.237	$GPGGA,091132,2455.1439,N,08017.2335,W,1,8,1.6,16,M,,M,,*50
06/13/2014	09:11:34.269	$GPGGA,091133,2455.1432,N,08017.2339,W,1,8,1.6,15,M,,M,,*55
06/13/2014	09:11:35.281	$GPGGA,091134,2455.1423,N,08017.2345,W,1,8,1.8,15,M,,M,,*57
06/13/2014	09:11:36.406	$GPGGA,091135,2455.1415,N,08017.2348,W,1,8,1.6,15,M,,M,,*50
06/13/2014	09:11:37.459	$GPGGA,091136,2455.1404,N,08017.2355,W,1,8,1.8,15,M,,M,,*51
06/13/2014	09:11:38.378	$GPGGA,091137,2455.1395,N,08017.2363,W,1,8,1.6,15,M,,M,,*54
06/13/2014	09:11:39.401	$GPGGA,091138,2455.1384,N,08017.2366,W,1,8,1.6,15,M,,M,,*5E
06/13/2014	09:11:40.432	$GPGGA,091139,2455.1374,N,08017.2370,W,1,8,1.6,15,M,,M,,*57
06/13/2014	09:11:41.579	$GPGGA,091140,2455.1366,N,08017.2377,W,1,8,1.6,15,M,,M,,*5D
06/13/2014	09:11:42.599	$GPGGA,091141,2455.1357,N,08017.2382,W,1,8,1.6,15,M,,M,,*54
06/13/2014	09:11:43.632	$GPGGA,091142,2455.1348,N,08017.2384,W,1,8,2.0,15,M,,M,,*5A
06/13/2014	09:11:44.664	$GPGGA,091143,2455.1338,N,08017.2389,W,1,7,1.8,15,M,,M,,*55
06/13/2014	09:11:45.697	$GPGGA,091144,2455.1333,N,08017.2395,W,1,7,1.6,15,M,,M,,*5A
06/13/2014	09:11:46.739	$GPGGA,091145,2455.1323,N,08017.2399,W,1,7,1.8,15,M,,M,,*58
06/13/2014	09:11:47.751	$GPGGA,091146,2455.1315,N,08017.2400,W,1,7,1.6,15,M,,M,,*57
06/13/2014	09:11:46.570	$GPGGA,091147,2455.1308,N,08017.2404,W,1,8,1.6,15,M,,M,,*51
06/13/2014	09:11:47.603	$GPGGA,091148,2455.1302,N,08017.2410,W,1,8,1.6,15,M,,M,,*51
06/13/2014	09:11:48.625	$GPGGA,091149,2455.1295,N,08017.2414,W,1,8,1.6,15,M,,M,,*5B
06/13/2014	09:11:50.700	$GPGGA,091151,2455.1279,N,08017.2421,W,1,8,1.6,15,M,,M,,*56
