Software Version Number: 1	Data File Format Number: 1	Build Version Number: 1	Error Count Since VI Started: 0	Manufacturer: Raytheon	 Model Number: RayMarine 120	 S/N: 	 Cal Date: 	 Wind Direction Offset: 0.00	 Slope (M)1: 0.00	 Offset (B)1: 0.00	 Slope (M)2: 0.00	 Offset (B)2: 0.00	 Slope (M)3: 0.00	 Offset (B)3: 0.00	 Slope (M)4: 0.00	 Offset (B)4: 0.00	 Slope (M)5: 0.00	 Offset (B)5: 0.00	 Slope (M)6: 0.00	 Offset (B)6: 0.00
Computer Date	Computer Time	GGA String
06/03/2014	13:00:00.614	$GPGGA,130009,2543.8846,N,08009.7267,W,1,9,1.6,16,M,,M,,*55
06/03/2014	13:00:01.597	$GPGGA,130010,2543.8846,N,08009.7267,W,1,9,1.6,16,M,,M,,*5D
06/03/2014	13:00:02.616	$GPGGA,130011,2543.8846,N,08009.7267,W,1,9,1.6,16,M,,M,,*5C
06/03/2014	13:00:03.612	$GPGGA,130012,2543.8846,N,08009.7267,W,1,9,1.6,16,M,,M,,*5F
06/03/2014	13:00:04.604	$GPGGA,130013,2543.8846,N,08009.7267,W,1,9,1.6,16,M,,M,,*5E
06/03/2014	13:00:05.598	$GPGGA,130014,2543.8846,N,08009.7267,W,1,9,1.6,16,M,,M,,*59
06/03/2014	13:00:06.618	$GPGGA,130015,2543.8846,N,08009.7269,W,1,9,1.6,16,M,,M,,*56
06/03/2014	13:00:07.601	$GPGGA,130016,2543.8846,N,08009.7268,W,1,9,1.6,16,M,,M,,*54
06/03/2014	13:00:08.593	$GPGGA,130017,2543.8846,N,08009.7269,W,1,9,1.6,16,M,,M,,*54
06/03/2014	13:00:09.607	$GPGGA,130018,2543.8846,N,08009.7268,W,1,9,1.6,16,M,,M,,*5A
06/03/2014	13:00:10.630	$GPGGA,130019,2543.8846,N,08009.7269,W,1,9,1.6,16,M,,M,,*5A
06/03/2014	13:00:11.635	$GPGGA,130020,2543.8846,N,08009.7268,W,1,9,1.6,16,M,,M,,*51
06/03/2014	13:00:12.613	$GPGGA,130021,2543.8846,N,08009.7269,W,1,9,1.6,16,M,,M,,*51
06/03/2014	13:00:13.606	$GPGGA,130022,2543.8846,N,08009.7268,W,1,9,1.6,16,M,,M,,*53
06/03/2014	13:00:14.628	$GPGGA,130023,2543.8846,N,08009.7269,W,1,9,1.6,16,M,,M,,*53
06/03/2014	13:00:15.621	$GPGGA,130024,2543.8846,N,08009.7268,W,1,9,1.6,16,M,,M,,*55
06/03/2014	13:00:16.655	$GPGGA,130025,2543.8844,N,08009.7269,W,1,9,1.6,16,M,,M,,*57
06/03/2014	13:00:18.618	$GPGGA,130026,2543.8845,N,08009.7269,W,1,9,1.6,16,M,,M,,*55
06/03/2014	13:00:18.638	$GPGGA,130027,2543.8844,N,08009.7269,W,1,9,1.6,16,M,,M,,*55
06/03/2014	13:00:19.621	$GPGGA,130028,2543.8845,N,08009.7269,W,1,9,1.6,16,M,,M,,*5B
06/03/2014	13:00:20.603	$GPGGA,130029,2543.8844,N,08009.7270,W,1,9,1.6,16,M,,M,,*53
06/03/2014	13:00:21.626	$GPGGA,130030,2543.8845,N,08009.7270,W,1,9,1.6,16,M,,M,,*5A
06/03/2014	13:00:22.490	$GPGGA,130031,2543.8844,N,08009.7270,W,1,9,1.6,16,M,,M,,*5A
06/03/2014	13:00:23.473	$GPGGA,130032,2543.8845,N,08009.7270,W,1,9,1.6,16,M,,M,,*58
06/03/2014	13:00:24.455	$GPGGA,130033,2543.8844,N,08009.7270,W,1,9,1.6,16,M,,M,,*58
06/03/2014	13:00:25.467	$GPGGA,130034,2543.8845,N,08009.7270,W,1,9,1.6,16,M,,M,,*5E
06/03/2014	13:00:26.479	$GPGGA,130035,2543.8844,N,08009.7272,W,1,9,1.6,16,M,,M,,*5C
06/03/2014	13:00:27.482	$GPGGA,130036,2543.8845,N,08009.7271,W,1,9,1.6,16,M,,M,,*5D
06/03/2014	13:00:28.454	$GPGGA,130037,2543.8846,N,08009.7272,W,1,9,1.6,16,M,,M,,*5C
06/03/2014	13:00:29.577	$GPGGA,130038,2543.8846,N,08009.7271,W,1,9,1.6,16,M,,M,,*50
06/03/2014	13:00:30.459	$GPGGA,130039,2543.8846,N,08009.7272,W,1,9,1.6,16,M,,M,,*52
06/03/2014	13:00:31.582	$GPGGA,130040,2543.8846,N,08009.7271,W,1,9,1.6,16,M,,M,,*5F
06/03/2014	13:00:32.564	$GPGGA,130041,2543.8846,N,08009.7272,W,1,9,1.6,16,M,,M,,*5D
06/03/2014	13:00:33.477	$GPGGA,130042,2543.8846,N,08009.7271,W,1,9,1.6,16,M,,M,,*5D
06/03/2014	13:00:34.549	$GPGGA,130043,2543.8848,N,08009.7272,W,1,9,1.6,16,M,,M,,*51
06/03/2014	13:00:35.592	$GPGGA,130044,2543.8847,N,08009.7271,W,1,9,1.6,16,M,,M,,*5A
06/03/2014	13:00:36.594	$GPGGA,130045,2543.8848,N,08009.7272,W,1,9,1.6,16,M,,M,,*57
06/03/2014	13:00:37.476	$GPGGA,130046,2543.8847,N,08009.7271,W,1,9,1.6,16,M,,M,,*58
06/03/2014	13:00:38.589	$GPGGA,130047,2543.8848,N,08009.7272,W,1,9,1.6,16,M,,M,,*55
06/03/2014	13:00:39.582	$GPGGA,130048,2543.8847,N,08009.7271,W,1,9,1.6,16,M,,M,,*56
06/03/2014	13:00:40.584	$GPGGA,130049,2543.8848,N,08009.7272,W,1,9,1.6,16,M,,M,,*5B
06/03/2014	13:00:41.556	$GPGGA,130050,2543.8847,N,08009.7271,W,1,9,1.6,16,M,,M,,*5F
06/03/2014	13:00:42.575	$GPGGA,130051,2543.8848,N,08009.7272,W,1,9,1.6,16,M,,M,,*52
06/03/2014	13:00:43.581	$GPGGA,130052,2543.8847,N,08009.7271,W,1,9,1.6,16,M,,M,,*5D
06/03/2014	13:00:44.583	$GPGGA,130053,2543.8848,N,08009.7272,W,1,9,1.6,16,M,,M,,*50
06/03/2014	13:00:45.556	$GPGGA,130054,2543.8846,N,08009.7272,W,1,9,1.6,16,M,,M,,*59
06/03/2014	13:00:46.578	$GPGGA,130055,2543.8846,N,08009.7271,W,1,9,1.6,16,M,,M,,*5B
06/03/2014	13:00:47.581	$GPGGA,130056,2543.8846,N,08009.7272,W,1,9,1.6,16,M,,M,,*5B
06/03/2014	13:00:48.573	$GPGGA,130057,2543.8846,N,08009.7271,W,1,9,1.6,16,M,,M,,*59
06/03/2014	13:00:49.556	$GPGGA,130058,2543.8846,N,08009.7272,W,1,9,1.6,16,M,,M,,*55
06/03/2014	13:00:50.568	$GPGGA,130059,2543.8846,N,08009.7271,W,1,9,1.6,16,M,,M,,*57
06/03/2014	13:00:51.593	$GPGGA,130100,2543.8846,N,08009.7272,W,1,9,1.6,16,M,,M,,*59
06/03/2014	13:00:52.563	$GPGGA,130101,2543.8846,N,08009.7271,W,1,9,1.6,16,M,,M,,*5B
06/03/2014	13:00:53.576	$GPGGA,130102,2543.8848,N,08009.7272,W,1,9,1.6,16,M,,M,,*55
06/03/2014	13:00:54.589	$GPGGA,130103,2543.8847,N,08009.7271,W,1,9,1.6,16,M,,M,,*58
06/03/2014	13:00:55.571	$GPGGA,130104,2543.8848,N,08009.7272,W,1,9,1.6,16,M,,M,,*53
06/03/2014	13:00:56.603	$GPGGA,130105,2543.8847,N,08009.7271,W,1,9,1.6,16,M,,M,,*5E
06/03/2014	13:00:57.576	$GPGGA,130106,2543.8848,N,08009.7272,W,1,9,1.6,16,M,,M,,*51
06/03/2014	13:00:58.578	$GPGGA,130107,2543.8849,N,08009.7271,W,1,9,1.6,16,M,,M,,*52
06/03/2014	13:00:59.590	$GPGGA,130108,2543.8848,N,08009.7272,W,1,9,1.6,16,M,,M,,*5F
06/03/2014	13:01:00.592	$GPGGA,130109,2543.8849,N,08009.7271,W,1,9,1.6,16,M,,M,,*5C
06/03/2014	13:01:01.565	$GPGGA,130110,2543.8848,N,08009.7272,W,1,9,1.6,16,M,,M,,*56
06/03/2014	13:01:02.607	$GPGGA,130111,2543.8849,N,08009.7271,W,1,9,1.6,16,M,,M,,*55
06/03/2014	13:01:03.590	$GPGGA,130112,2543.8848,N,08009.7272,W,1,9,1.6,16,M,,M,,*54
06/03/2014	13:01:04.582	$GPGGA,130113,2543.8849,N,08009.7271,W,1,9,1.6,16,M,,M,,*57
06/03/2014	13:01:05.575	$GPGGA,130114,2543.8848,N,08009.7272,W,1,9,1.6,16,M,,M,,*52
06/03/2014	13:01:06.567	$GPGGA,130115,2543.8849,N,08009.7271,W,1,9,1.6,16,M,,M,,*51
06/03/2014	13:01:07.590	$GPGGA,130116,2543.8848,N,08009.7272,W,1,9,1.6,16,M,,M,,*50
06/03/2014	13:01:08.582	$GPGGA,130117,2543.8849,N,08009.7271,W,1,9,1.6,16,M,,M,,*53
06/03/2014	13:01:09.564	$GPGGA,130118,2543.8848,N,08009.7272,W,1,9,1.6,16,M,,M,,*5E
06/03/2014	13:01:10.697	$GPGGA,130119,2543.8849,N,08009.7271,W,1,9,1.6,16,M,,M,,*5D
06/03/2014	13:01:11.600	$GPGGA,130120,2543.8848,N,08009.7272,W,1,9,1.6,16,M,,M,,*55
06/03/2014	13:01:12.582	$GPGGA,130121,2543.8849,N,08009.7272,W,1,9,1.6,16,M,,M,,*55
06/03/2014	13:01:13.585	$GPGGA,130122,2543.8848,N,08009.7272,W,1,9,1.6,16,M,,M,,*57
06/03/2014	13:01:14.587	$GPGGA,130123,2543.8849,N,08009.7272,W,1,9,1.6,16,M,,M,,*57
06/03/2014	13:01:15.700	$GPGGA,130124,2543.8848,N,08009.7272,W,1,9,1.6,16,M,,M,,*51
06/03/2014	13:01:16.711	$GPGGA,130125,2543.8849,N,08009.7272,W,1,9,1.6,16,M,,M,,*51
06/03/2014	13:01:17.583	$GPGGA,130126,2543.8848,N,08009.7272,W,1,9,1.6,16,M,,M,,*53
06/03/2014	13:01:18.696	$GPGGA,130127,2543.8849,N,08009.7272,W,1,9,1.6,16,M,,M,,*53
06/03/2014	13:01:19.709	$GPGGA,130128,2543.8848,N,08009.7272,W,1,9,1.6,16,M,,M,,*5D
06/03/2014	13:01:20.681	$GPGGA,130129,2543.8849,N,08009.7273,W,1,9,1.6,16,M,,M,,*5C
06/03/2014	13:01:21.573	$GPGGA,130130,2543.8848,N,08009.7273,W,1,9,1.6,16,M,,M,,*55
06/03/2014	13:01:22.537	$GPGGA,130131,2543.8849,N,08009.7273,W,1,9,1.6,16,M,,M,,*55
06/03/2014	13:01:23.540	$GPGGA,130132,2543.8848,N,08009.7273,W,1,9,1.6,16,M,,M,,*57
06/03/2014	13:01:24.542	$GPGGA,130133,2543.8849,N,08009.7273,W,1,9,1.6,16,M,,M,,*57
06/03/2014	13:01:25.525	$GPGGA,130134,2543.8848,N,08009.7273,W,1,9,1.6,16,M,,M,,*51
06/03/2014	13:01:26.567	$GPGGA,130135,2543.8849,N,08009.7273,W,1,9,1.6,16,M,,M,,*51
06/03/2014	13:01:27.550	$GPGGA,130136,2543.8848,N,08009.7273,W,1,9,1.6,16,M,,M,,*53
06/03/2014	13:01:28.542	$GPGGA,130137,2543.8849,N,08009.7273,W,1,9,1.6,16,M,,M,,*53
06/03/2014	13:01:29.535	$GPGGA,130138,2543.8848,N,08009.7273,W,1,9,1.6,16,M,,M,,*5D
06/03/2014	13:01:30.557	$GPGGA,130139,2543.8849,N,08009.7273,W,1,9,1.6,16,M,,M,,*5D
06/03/2014	13:01:31.570	$GPGGA,130140,2543.8848,N,08009.7273,W,1,9,1.6,16,M,,M,,*52
06/03/2014	13:01:32.542	$GPGGA,130141,2543.8849,N,08009.7273,W,1,9,1.6,16,M,,M,,*52
06/03/2014	13:01:33.538	$GPGGA,130142,2543.8848,N,08009.7273,W,1,9,1.6,16,M,,M,,*50
06/03/2014	13:01:34.547	$GPGGA,130143,2543.8849,N,08009.7273,W,1,9,1.6,16,M,,M,,*50
06/03/2014	13:01:35.549	$GPGGA,130144,2543.8848,N,08009.7273,W,1,9,1.6,16,M,,M,,*56
06/03/2014	13:01:36.561	$GPGGA,130145,2543.8849,N,08009.7273,W,1,9,1.6,16,M,,M,,*56
06/03/2014	13:01:37.545	$GPGGA,130146,2543.8848,N,08009.7273,W,1,9,1.6,16,M,,M,,*54
06/03/2014	13:01:38.547	$GPGGA,130147,2543.8849,N,08009.7273,W,1,9,1.6,16,M,,M,,*54
06/03/2014	13:01:39.551	$GPGGA,130148,2543.8848,N,08009.7273,W,1,9,1.6,16,M,,M,,*5A
06/03/2014	13:01:40.571	$GPGGA,130149,2543.8849,N,08009.7273,W,1,9,1.6,16,M,,M,,*5A
06/03/2014	13:01:41.534	$GPGGA,130150,2543.8848,N,08009.7274,W,1,9,1.6,16,M,,M,,*54
06/03/2014	13:01:42.556	$GPGGA,130151,2543.8849,N,08009.7274,W,1,9,1.6,16,M,,M,,*54
06/03/2014	13:01:43.539	$GPGGA,130152,2543.8849,N,08009.7274,W,1,9,1.6,16,M,,M,,*57
06/03/2014	13:01:44.561	$GPGGA,130153,2543.8849,N,08009.7274,W,1,9,1.6,16,M,,M,,*56
06/03/2014	13:01:45.544	$GPGGA,130154,2543.8849,N,08009.7274,W,1,9,1.6,16,M,,M,,*51
06/03/2014	13:01:46.567	$GPGGA,130155,2543.8849,N,08009.7274,W,1,9,1.6,16,M,,M,,*50
06/03/2014	13:01:47.559	$GPGGA,130156,2543.8849,N,08009.7274,W,1,9,1.6,16,M,,M,,*53
06/03/2014	13:01:48.541	$GPGGA,130157,2543.8849,N,08009.7274,W,1,9,1.6,16,M,,M,,*52
06/03/2014	13:01:49.555	$GPGGA,130158,2543.8849,N,08009.7274,W,1,9,1.6,16,M,,M,,*5D
06/03/2014	13:01:50.546	$GPGGA,130159,2543.8849,N,08009.7274,W,1,9,1.6,16,M,,M,,*5C
06/03/2014	13:01:51.568	$GPGGA,130200,2543.8848,N,08009.7274,W,1,9,1.6,16,M,,M,,*52
06/03/2014	13:01:52.572	$GPGGA,130201,2543.8849,N,08009.7276,W,1,9,1.6,16,M,,M,,*50
06/03/2014	13:01:53.543	$GPGGA,130202,2543.8848,N,08009.7275,W,1,9,1.6,16,M,,M,,*51
06/03/2014	13:01:54.565	$GPGGA,130203,2543.8849,N,08009.7276,W,1,9,1.6,16,M,,M,,*52
06/03/2014	13:01:55.568	$GPGGA,130204,2543.8848,N,08009.7275,W,1,9,1.6,16,M,,M,,*57
06/03/2014	13:01:56.591	$GPGGA,130205,2543.8847,N,08009.7276,W,1,9,1.6,16,M,,M,,*5A
06/03/2014	13:01:57.543	$GPGGA,130206,2543.8848,N,08009.7275,W,1,9,1.6,16,M,,M,,*55
06/03/2014	13:01:58.555	$GPGGA,130207,2543.8847,N,08009.7276,W,1,9,1.6,16,M,,M,,*58
06/03/2014	13:01:59.668	$GPGGA,130208,2543.8848,N,08009.7275,W,1,9,1.6,16,M,,M,,*5B
06/03/2014	13:02:00.570	$GPGGA,130209,2543.8847,N,08009.7276,W,1,9,1.6,16,M,,M,,*56
06/03/2014	13:02:01.563	$GPGGA,130210,2543.8848,N,08009.7275,W,1,9,1.6,16,M,,M,,*52
06/03/2014	13:02:02.645	$GPGGA,130211,2543.8846,N,08009.7276,W,1,9,1.6,16,M,,M,,*5E
06/03/2014	13:02:03.568	$GPGGA,130212,2543.8846,N,08009.7276,W,1,9,1.6,16,M,,M,,*5D
06/03/2014	13:02:04.660	$GPGGA,130213,2543.8846,N,08009.7276,W,1,9,1.6,16,M,,M,,*5C
06/03/2014	13:02:05.563	$GPGGA,130214,2543.8846,N,08009.7276,W,1,9,1.6,16,M,,M,,*5B
06/03/2014	13:02:06.606	$GPGGA,130215,2543.8846,N,08009.7276,W,1,9,1.6,16,M,,M,,*5A
06/03/2014	13:02:07.578	$GPGGA,130216,2543.8846,N,08009.7276,W,1,9,1.6,16,M,,M,,*59
06/03/2014	13:02:08.580	$GPGGA,130217,2543.8846,N,08009.7276,W,1,9,1.6,16,M,,M,,*58
06/03/2014	13:02:09.652	$GPGGA,130218,2543.8846,N,08009.7276,W,1,9,1.6,16,M,,M,,*57
06/03/2014	13:02:10.654	$GPGGA,130219,2543.8846,N,08009.7276,W,1,9,1.6,16,M,,M,,*56
06/03/2014	13:02:11.597	$GPGGA,130220,2543.8846,N,08009.7276,W,1,9,1.6,16,M,,M,,*5C
06/03/2014	13:02:12.559	$GPGGA,130221,2543.8848,N,08009.7276,W,1,9,1.6,16,M,,M,,*53
06/03/2014	13:02:13.561	$GPGGA,130222,2543.8847,N,08009.7276,W,1,9,1.6,16,M,,M,,*5F
06/03/2014	13:02:14.644	$GPGGA,130223,2543.8848,N,08009.7276,W,1,9,1.6,16,M,,M,,*51
06/03/2014	13:02:15.667	$GPGGA,130224,2543.8847,N,08009.7277,W,1,9,1.6,16,M,,M,,*58
06/03/2014	13:02:16.669	$GPGGA,130225,2543.8848,N,08009.7277,W,1,9,1.6,16,M,,M,,*56
06/03/2014	13:02:17.652	$GPGGA,130226,2543.8847,N,08009.7277,W,1,9,1.6,16,M,,M,,*5A
06/03/2014	13:02:18.650	$GPGGA,130227,2543.8848,N,08009.7277,W,1,9,1.6,16,M,,M,,*54
06/03/2014	13:02:19.657	$GPGGA,130228,2543.8847,N,08009.7279,W,1,9,1.6,16,M,,M,,*5A
06/03/2014	13:02:20.669	$GPGGA,130229,2543.8848,N,08009.7278,W,1,9,1.6,16,M,,M,,*55
06/03/2014	13:02:21.655	$GPGGA,130230,2543.8847,N,08009.7279,W,1,9,1.6,16,M,,M,,*53
06/03/2014	13:02:22.528	$GPGGA,130231,2543.8849,N,08009.7278,W,1,9,1.6,16,M,,M,,*5D
06/03/2014	13:02:23.519	$GPGGA,130232,2543.8848,N,08009.7280,W,1,9,1.6,16,M,,M,,*58
06/03/2014	13:02:24.502	$GPGGA,130233,2543.8849,N,08009.7279,W,1,9,1.6,16,M,,M,,*5E
06/03/2014	13:02:25.522	$GPGGA,130234,2543.8849,N,08009.7280,W,1,9,1.6,16,M,,M,,*5F
06/03/2014	13:02:26.505	$GPGGA,130235,2543.8850,N,08009.7280,W,1,9,1.6,16,M,,M,,*56
06/03/2014	13:02:27.521	$GPGGA,130236,2543.8850,N,08009.7280,W,1,9,1.6,16,M,,M,,*55
06/03/2014	13:02:28.520	$GPGGA,130237,2543.8850,N,08009.7280,W,1,9,1.6,16,M,,M,,*54
06/03/2014	13:02:29.523	$GPGGA,130238,2543.8852,N,08009.7280,W,1,9,1.6,16,M,,M,,*59
06/03/2014	13:02:30.545	$GPGGA,130239,2543.8851,N,08009.7281,W,1,9,1.6,16,M,,M,,*5A
06/03/2014	13:02:31.518	$GPGGA,130240,2543.8852,N,08009.7281,W,1,9,1.6,16,M,,M,,*57
06/03/2014	13:02:32.533	$GPGGA,130241,2543.8853,N,08009.7281,W,1,9,1.6,16,M,,M,,*57
06/03/2014	13:02:33.503	$GPGGA,130242,2543.8853,N,08009.7281,W,1,9,1.6,16,M,,M,,*54
06/03/2014	13:02:34.505	$GPGGA,130243,2543.8853,N,08009.7281,W,1,9,1.6,16,M,,M,,*55
06/03/2014	13:02:35.578	$GPGGA,130244,2543.8853,N,08009.7281,W,1,9,1.6,16,M,,M,,*52
06/03/2014	13:02:36.510	$GPGGA,130245,2543.8853,N,08009.7281,W,1,9,1.6,16,M,,M,,*53
06/03/2014	13:02:37.523	$GPGGA,130246,2543.8853,N,08009.7281,W,1,9,1.6,16,M,,M,,*50
06/03/2014	13:02:38.535	$GPGGA,130247,2543.8853,N,08009.7281,W,1,9,1.6,16,M,,M,,*51
06/03/2014	13:02:39.538	$GPGGA,130248,2543.8853,N,08009.7281,W,1,9,1.6,16,M,,M,,*5E
06/03/2014	13:02:40.510	$GPGGA,130249,2543.8853,N,08009.7281,W,1,9,1.6,16,M,,M,,*5F
06/03/2014	13:02:42.726	$GPGGA,130250,2543.8853,N,08009.7281,W,1,9,1.6,16,M,,M,,*57
06/03/2014	13:02:42.746	$GPGGA,130251,2543.8853,N,08009.7281,W,1,9,1.6,16,M,,M,,*56
06/03/2014	13:02:43.539	$GPGGA,130252,2543.8853,N,08009.7281,W,1,9,1.6,16,M,,M,,*55
06/03/2014	13:02:44.509	$GPGGA,130253,2543.8853,N,08009.7281,W,1,9,1.6,16,M,,M,,*54
06/03/2014	13:02:45.532	$GPGGA,130254,2543.8853,N,08009.7281,W,1,9,1.6,16,M,,M,,*53
06/03/2014	13:02:46.534	$GPGGA,130255,2543.8853,N,08009.7281,W,1,9,1.6,16,M,,M,,*52
06/03/2014	13:02:47.517	$GPGGA,130256,2543.8853,N,08009.7281,W,1,9,1.6,16,M,,M,,*51
06/03/2014	13:02:48.519	$GPGGA,130257,2543.8853,N,08009.7281,W,1,9,1.6,16,M,,M,,*50
06/03/2014	13:02:49.632	$GPGGA,130258,2543.8853,N,08009.7281,W,1,9,1.6,16,M,,M,,*5F
06/03/2014	13:02:50.534	$GPGGA,130259,2543.8853,N,08009.7281,W,1,9,1.6,16,M,,M,,*5E
06/03/2014	13:02:51.557	$GPGGA,130300,2543.8853,N,08009.7281,W,1,9,1.6,16,M,,M,,*53
06/03/2014	13:02:52.529	$GPGGA,130301,2543.8853,N,08009.7281,W,1,9,1.6,16,M,,M,,*52
06/03/2014	13:02:53.612	$GPGGA,130302,2543.8853,N,08009.7281,W,1,9,1.6,16,M,,M,,*51
06/03/2014	13:02:54.504	$GPGGA,130303,2543.8853,N,08009.7281,W,1,9,1.6,16,M,,M,,*50
06/03/2014	13:02:55.617	$GPGGA,130304,2543.8853,N,08009.7281,W,1,9,1.6,16,M,,M,,*57
06/03/2014	13:02:56.549	$GPGGA,130305,2543.8853,N,08009.7281,W,1,9,1.6,16,M,,M,,*56
06/03/2014	13:02:57.521	$GPGGA,130306,2543.8851,N,08009.7281,W,1,9,1.6,16,M,,M,,*57
06/03/2014	13:02:58.614	$GPGGA,130307,2543.8852,N,08009.7281,W,1,9,1.6,16,M,,M,,*55
06/03/2014	13:02:59.637	$GPGGA,130308,2543.8850,N,08009.7281,W,1,9,1.6,16,M,,M,,*58
06/03/2014	13:03:00.619	$GPGGA,130309,2543.8850,N,08009.7281,W,1,9,1.6,16,M,,M,,*59
06/03/2014	13:03:01.530	$GPGGA,130310,2543.8850,N,08009.7281,W,1,9,1.6,16,M,,M,,*51
06/03/2014	13:03:02.613	$GPGGA,130311,2543.8850,N,08009.7281,W,1,9,1.6,16,M,,M,,*50
06/03/2014	13:03:03.636	$GPGGA,130312,2543.8850,N,08009.7281,W,1,9,1.6,16,M,,M,,*53
06/03/2014	13:03:04.648	$GPGGA,130313,2543.8852,N,08009.7281,W,1,9,1.6,16,M,,M,,*50
06/03/2014	13:03:05.612	$GPGGA,130314,2543.8851,N,08009.7281,W,1,9,1.6,16,M,,M,,*54
06/03/2014	13:03:06.643	$GPGGA,130315,2543.8852,N,08009.7281,W,1,9,1.6,16,M,,M,,*56
06/03/2014	13:03:07.628	$GPGGA,130316,2543.8851,N,08009.7281,W,1,9,1.6,16,M,,M,,*56
06/03/2014	13:03:08.638	$GPGGA,130317,2543.8852,N,08009.7281,W,1,9,1.6,16,M,,M,,*54
06/03/2014	13:03:09.625	$GPGGA,130318,2543.8851,N,08009.7281,W,1,9,1.6,16,M,,M,,*58
06/03/2014	13:03:10.653	$GPGGA,130319,2543.8852,N,08009.7281,W,1,9,1.6,16,M,,M,,*5A
06/03/2014	13:03:11.626	$GPGGA,130320,2543.8851,N,08009.7283,W,1,9,1.6,16,M,,M,,*51
06/03/2014	13:03:12.642	$GPGGA,130321,2543.8852,N,08009.7282,W,1,9,1.6,16,M,,M,,*52
06/03/2014	13:03:13.612	$GPGGA,130322,2543.8851,N,08009.7283,W,1,9,1.6,16,M,,M,,*53
06/03/2014	13:03:14.633	$GPGGA,130323,2543.8852,N,08009.7282,W,1,9,1.6,16,M,,M,,*50
06/03/2014	13:03:15.636	$GPGGA,130324,2543.8851,N,08009.7283,W,1,9,1.6,16,M,,M,,*55
06/03/2014	13:03:16.618	$GPGGA,130325,2543.8853,N,08009.7282,W,1,9,1.6,16,M,,M,,*57
06/03/2014	13:03:17.648	$GPGGA,130326,2543.8851,N,08009.7283,W,1,9,1.6,16,M,,M,,*57
06/03/2014	13:03:18.652	$GPGGA,130327,2543.8852,N,08009.7283,W,1,9,1.6,16,M,,M,,*55
06/03/2014	13:03:19.625	$GPGGA,130328,2543.8851,N,08009.7283,W,1,9,1.6,16,M,,M,,*59
06/03/2014	13:03:20.648	$GPGGA,130329,2543.8852,N,08009.7283,W,1,9,1.6,16,M,,M,,*5B
06/03/2014	13:03:21.630	$GPGGA,130330,2543.8851,N,08009.7283,W,1,9,1.6,16,M,,M,,*50
06/03/2014	13:03:22.464	$GPGGA,130331,2543.8852,N,08009.7283,W,1,9,1.6,16,M,,M,,*52
06/03/2014	13:03:23.497	$GPGGA,130332,2543.8851,N,08009.7283,W,1,9,1.6,16,M,,M,,*52
06/03/2014	13:03:24.509	$GPGGA,130333,2543.8852,N,08009.7283,W,1,9,1.6,16,M,,M,,*50
06/03/2014	13:03:25.472	$GPGGA,130334,2543.8851,N,08009.7283,W,1,9,1.6,16,M,,M,,*54
06/03/2014	13:03:26.518	$GPGGA,130335,2543.8852,N,08009.7282,W,1,9,1.6,16,M,,M,,*57
06/03/2014	13:03:27.487	$GPGGA,130336,2543.8851,N,08009.7283,W,1,9,1.6,16,M,,M,,*56
06/03/2014	13:03:28.499	$GPGGA,130337,2543.8850,N,08009.7282,W,1,9,1.6,16,M,,M,,*57
06/03/2014	13:03:29.492	$GPGGA,130338,2543.8850,N,08009.7283,W,1,9,1.6,16,M,,M,,*59
06/03/2014	13:03:30.494	$GPGGA,130339,2543.8850,N,08009.7283,W,1,9,1.6,16,M,,M,,*58
06/03/2014	13:03:31.497	$GPGGA,130340,2543.8850,N,08009.7282,W,1,9,1.6,16,M,,M,,*57
06/03/2014	13:03:32.489	$GPGGA,130341,2543.8850,N,08009.7283,W,1,9,1.6,16,M,,M,,*57
06/03/2014	13:03:33.492	$GPGGA,130342,2543.8850,N,08009.7282,W,1,9,1.6,16,M,,M,,*55
06/03/2014	13:03:34.494	$GPGGA,130343,2543.8850,N,08009.7283,W,1,9,1.6,16,M,,M,,*55
06/03/2014	13:03:35.607	$GPGGA,130344,2543.8849,N,08009.7282,W,1,9,1.6,16,M,,M,,*5B
06/03/2014	13:03:36.608	$GPGGA,130345,2543.8849,N,08009.7283,W,1,9,1.6,16,M,,M,,*5B
06/03/2014	13:03:37.491	$GPGGA,130346,2543.8848,N,08009.7282,W,1,9,1.6,16,M,,M,,*58
06/03/2014	13:03:38.493	$GPGGA,130347,2543.8849,N,08009.7283,W,1,9,1.6,16,M,,M,,*59
06/03/2014	13:03:39.496	$GPGGA,130348,2543.8849,N,08009.7282,W,1,9,1.6,15,M,,M,,*54
06/03/2014	13:03:40.588	$GPGGA,130349,2543.8848,N,08009.7283,W,1,9,1.6,15,M,,M,,*55
06/03/2014	13:03:41.490	$GPGGA,130350,2543.8849,N,08009.7282,W,1,9,1.6,15,M,,M,,*5D
06/03/2014	13:03:42.613	$GPGGA,130351,2543.8848,N,08009.7283,W,1,9,1.6,15,M,,M,,*5C
06/03/2014	13:03:43.616	$GPGGA,130352,2543.8849,N,08009.7282,W,1,9,1.6,15,M,,M,,*5F
06/03/2014	13:03:44.598	$GPGGA,130353,2543.8848,N,08009.7281,W,1,9,1.6,15,M,,M,,*5C
06/03/2014	13:03:45.591	$GPGGA,130354,2543.8849,N,08009.7281,W,1,9,1.6,15,M,,M,,*5A
06/03/2014	13:03:46.503	$GPGGA,130355,2543.8848,N,08009.7281,W,1,9,1.6,15,M,,M,,*5A
06/03/2014	13:03:47.596	$GPGGA,130356,2543.8847,N,08009.7281,W,1,9,1.6,15,M,,M,,*56
06/03/2014	13:03:48.598	$GPGGA,130357,2543.8848,N,08009.7281,W,1,9,1.6,15,M,,M,,*58
06/03/2014	13:03:49.591	$GPGGA,130358,2543.8847,N,08009.7281,W,1,9,1.6,15,M,,M,,*58
06/03/2014	13:03:50.603	$GPGGA,130359,2543.8848,N,08009.7281,W,1,9,1.6,15,M,,M,,*56
06/03/2014	13:03:51.606	$GPGGA,130400,2543.8847,N,08009.7281,W,1,9,1.6,15,M,,M,,*52
06/03/2014	13:03:52.608	$GPGGA,130401,2543.8848,N,08009.7281,W,1,9,1.6,15,M,,M,,*5C
06/03/2014	13:03:53.580	$GPGGA,130402,2543.8847,N,08009.7281,W,1,9,1.6,15,M,,M,,*50
06/03/2014	13:03:54.592	$GPGGA,130403,2543.8848,N,08009.7281,W,1,9,1.6,15,M,,M,,*5E
06/03/2014	13:03:55.595	$GPGGA,130404,2543.8847,N,08009.7281,W,1,9,1.6,15,M,,M,,*56
06/03/2014	13:03:56.607	$GPGGA,130405,2543.8848,N,08009.7281,W,1,9,1.6,15,M,,M,,*58
06/03/2014	13:03:57.590	$GPGGA,130406,2543.8847,N,08009.7281,W,1,9,1.6,15,M,,M,,*54
06/03/2014	13:03:58.622	$GPGGA,130407,2543.8849,N,08009.7280,W,1,9,1.6,15,M,,M,,*5A
06/03/2014	13:03:59.605	$GPGGA,130408,2543.8848,N,08009.7280,W,1,9,1.6,15,M,,M,,*54
06/03/2014	13:04:00.607	$GPGGA,130409,2543.8849,N,08009.7280,W,1,9,1.6,15,M,,M,,*54
06/03/2014	13:04:01.590	$GPGGA,130410,2543.8848,N,08009.7280,W,1,9,1.6,15,M,,M,,*5D
06/03/2014	13:04:02.603	$GPGGA,130411,2543.8849,N,08009.7280,W,1,9,1.6,15,M,,M,,*5D
06/03/2014	13:04:03.605	$GPGGA,130412,2543.8848,N,08009.7280,W,1,9,1.6,15,M,,M,,*5F
06/03/2014	13:04:04.587	$GPGGA,130413,2543.8849,N,08009.7280,W,1,9,1.6,15,M,,M,,*5F
06/03/2014	13:04:05.600	$GPGGA,130414,2543.8848,N,08009.7280,W,1,9,1.6,15,M,,M,,*59
06/03/2014	13:04:06.582	$GPGGA,130415,2543.8849,N,08009.7280,W,1,9,1.6,15,M,,M,,*59
06/03/2014	13:04:07.615	$GPGGA,130416,2543.8849,N,08009.7280,W,1,9,1.6,15,M,,M,,*5A
06/03/2014	13:04:08.607	$GPGGA,130417,2543.8848,N,08009.7280,W,1,9,1.6,15,M,,M,,*5A
06/03/2014	13:04:09.600	$GPGGA,130418,2543.8849,N,08009.7280,W,1,9,1.6,14,M,,M,,*55
06/03/2014	13:04:10.623	$GPGGA,130419,2543.8848,N,08009.7280,W,1,9,1.6,14,M,,M,,*55
06/03/2014	13:04:11.624	$GPGGA,130420,2543.8849,N,08009.7280,W,1,9,1.6,14,M,,M,,*5E
06/03/2014	13:04:12.636	$GPGGA,130421,2543.8848,N,08009.7280,W,1,9,1.6,14,M,,M,,*5E
06/03/2014	13:04:13.589	$GPGGA,130422,2543.8849,N,08009.7280,W,1,9,1.6,14,M,,M,,*5C
06/03/2014	13:04:14.611	$GPGGA,130423,2543.8848,N,08009.7280,W,1,9,1.6,14,M,,M,,*5C
06/03/2014	13:04:15.614	$GPGGA,130424,2543.8849,N,08009.7280,W,1,9,1.6,14,M,,M,,*5A
06/03/2014	13:04:16.616	$GPGGA,130425,2543.8848,N,08009.7280,W,1,9,1.6,14,M,,M,,*5A
06/03/2014	13:04:17.599	$GPGGA,130426,2543.8849,N,08009.7280,W,1,9,1.6,14,M,,M,,*58
06/03/2014	13:04:18.621	$GPGGA,130427,2543.8848,N,08009.7280,W,1,9,1.6,14,M,,M,,*58
06/03/2014	13:04:19.614	$GPGGA,130428,2543.8849,N,08009.7280,W,1,9,1.6,14,M,,M,,*56
06/03/2014	13:04:20.606	$GPGGA,130429,2543.8848,N,08009.7280,W,1,9,1.6,14,M,,M,,*56
06/03/2014	13:04:21.609	$GPGGA,130430,2543.8849,N,08009.7281,W,1,9,1.6,14,M,,M,,*5E
06/03/2014	13:04:22.452	$GPGGA,130431,2543.8848,N,08009.7281,W,1,9,1.6,14,M,,M,,*5E
06/03/2014	13:04:23.475	$GPGGA,130432,2543.8849,N,08009.7281,W,1,9,1.6,14,M,,M,,*5C
06/03/2014	13:04:24.629	$GPGGA,130433,2543.8848,N,08009.7283,W,1,9,1.6,14,M,,M,,*5E
06/03/2014	13:04:25.460	$GPGGA,130434,2543.8849,N,08009.7282,W,1,9,1.6,14,M,,M,,*59
06/03/2014	13:04:26.472	$GPGGA,130435,2543.8848,N,08009.7283,W,1,9,1.6,14,M,,M,,*58
06/03/2014	13:04:28.877	$GPGGA,130437,2543.8848,N,08009.7283,W,1,9,1.6,14,M,,M,,*5A
06/03/2014	13:04:29.458	$GPGGA,130438,2543.8849,N,08009.7282,W,1,9,1.6,14,M,,M,,*55
06/03/2014	13:04:30.461	$GPGGA,130439,2543.8849,N,08009.7283,W,1,9,1.6,14,M,,M,,*55
06/03/2014	13:04:31.484	$GPGGA,130440,2543.8849,N,08009.7283,W,1,9,1.6,14,M,,M,,*5B
06/03/2014	13:04:32.466	$GPGGA,130441,2543.8849,N,08009.7284,W,1,9,1.6,14,M,,M,,*5D
06/03/2014	13:04:33.599	$GPGGA,130442,2543.8849,N,08009.7284,W,1,9,1.6,14,M,,M,,*5E
06/03/2014	13:04:34.561	$GPGGA,130443,2543.8849,N,08009.7285,W,1,9,1.6,14,M,,M,,*5E
06/03/2014	13:04:35.473	$GPGGA,130444,2543.8849,N,08009.7285,W,1,9,1.6,14,M,,M,,*59
06/03/2014	13:04:36.556	$GPGGA,130445,2543.8849,N,08009.7285,W,1,9,1.6,14,M,,M,,*58
06/03/2014	13:04:37.468	$GPGGA,130446,2543.8850,N,08009.7285,W,1,9,1.6,14,M,,M,,*53
06/03/2014	13:04:38.663	$GPGGA,130447,2543.8850,N,08009.7285,W,1,9,1.6,14,M,,M,,*52
06/03/2014	13:04:39.604	$GPGGA,130448,2543.8850,N,08009.7285,W,1,9,1.6,14,M,,M,,*5D
06/03/2014	13:04:40.556	$GPGGA,130449,2543.8850,N,08009.7285,W,1,9,1.6,14,M,,M,,*5C
06/03/2014	13:04:41.599	$GPGGA,130450,2543.8852,N,08009.7285,W,1,9,1.6,14,M,,M,,*56
06/03/2014	13:04:42.666	$GPGGA,130451,2543.8851,N,08009.7285,W,1,9,1.6,14,M,,M,,*54
06/03/2014	13:04:43.604	$GPGGA,130452,2543.8852,N,08009.7285,W,1,9,1.6,14,M,,M,,*54
06/03/2014	13:04:44.556	$GPGGA,130453,2543.8851,N,08009.7285,W,1,9,1.6,14,M,,M,,*56
06/03/2014	13:04:45.549	$GPGGA,130454,2543.8852,N,08009.7285,W,1,9,1.6,14,M,,M,,*52
06/03/2014	13:04:46.666	$GPGGA,130455,2543.8851,N,08009.7285,W,1,9,1.6,14,M,,M,,*50
06/03/2014	13:04:47.603	$GPGGA,130456,2543.8853,N,08009.7285,W,1,9,1.6,14,M,,M,,*51
06/03/2014	13:04:48.676	$GPGGA,130457,2543.8853,N,08009.7285,W,1,9,1.6,14,M,,M,,*50
06/03/2014	13:04:49.558	$GPGGA,130458,2543.8853,N,08009.7285,W,1,9,1.6,14,M,,M,,*5F
06/03/2014	13:04:50.673	$GPGGA,130459,2543.8853,N,08009.7285,W,1,9,1.6,13,M,,M,,*59
06/03/2014	13:04:51.613	$GPGGA,130500,2543.8853,N,08009.7285,W,1,9,1.6,13,M,,M,,*54
06/03/2014	13:04:52.665	$GPGGA,130501,2543.8853,N,08009.7287,W,1,9,1.6,13,M,,M,,*57
06/03/2014	13:04:53.558	$GPGGA,130502,2543.8853,N,08009.7285,W,1,9,1.6,13,M,,M,,*56
06/03/2014	13:04:54.694	$GPGGA,130503,2543.8853,N,08009.7285,W,1,9,1.6,13,M,,M,,*57
06/03/2014	13:04:55.573	$GPGGA,130504,2543.8853,N,08009.7285,W,1,9,1.6,13,M,,M,,*50
06/03/2014	13:04:56.675	$GPGGA,130505,2543.8853,N,08009.7285,W,1,9,1.6,13,M,,M,,*51
06/03/2014	13:04:57.558	$GPGGA,130506,2543.8853,N,08009.7285,W,1,9,1.6,13,M,,M,,*52
06/03/2014	13:04:58.560	$GPGGA,130507,2543.8853,N,08009.7285,W,1,9,1.6,13,M,,M,,*53
06/03/2014	13:04:59.613	$GPGGA,130508,2543.8853,N,08009.7285,W,1,9,1.6,13,M,,M,,*5C
06/03/2014	13:05:00.645	$GPGGA,130509,2543.8853,N,08009.7285,W,1,9,1.6,13,M,,M,,*5D
06/03/2014	13:05:01.598	$GPGGA,130510,2543.8853,N,08009.7285,W,1,9,1.6,13,M,,M,,*55
06/03/2014	13:05:02.670	$GPGGA,130511,2543.8853,N,08009.7285,W,1,9,1.6,13,M,,M,,*54
06/03/2014	13:05:03.612	$GPGGA,130512,2543.8853,N,08009.7285,W,1,9,1.6,13,M,,M,,*57
06/03/2014	13:05:04.564	$GPGGA,130513,2543.8853,N,08009.7285,W,1,9,1.6,13,M,,M,,*56
06/03/2014	13:05:05.597	$GPGGA,130514,2543.8853,N,08009.7284,W,1,9,1.6,13,M,,M,,*50
06/03/2014	13:05:06.689	$GPGGA,130515,2543.8853,N,08009.7284,W,1,9,1.6,13,M,,M,,*51
06/03/2014	13:05:07.572	$GPGGA,130516,2543.8853,N,08009.7284,W,1,9,1.6,13,M,,M,,*52
06/03/2014	13:05:08.684	$GPGGA,130517,2543.8853,N,08009.7284,W,1,9,1.6,13,M,,M,,*53
06/03/2014	13:05:09.607	$GPGGA,130518,2543.8853,N,08009.7284,W,1,9,1.6,13,M,,M,,*5C
06/03/2014	13:05:10.669	$GPGGA,130519,2543.8851,N,08009.7283,W,1,9,1.6,13,M,,M,,*58
06/03/2014	13:05:11.612	$GPGGA,130520,2543.8852,N,08009.7283,W,1,9,1.6,13,M,,M,,*51
06/03/2014	13:05:12.564	$GPGGA,130521,2543.8851,N,08009.7283,W,1,9,1.6,13,M,,M,,*53
06/03/2014	13:05:13.607	$GPGGA,130522,2543.8852,N,08009.7283,W,1,9,1.6,13,M,,M,,*53
06/03/2014	13:05:14.699	$GPGGA,130523,2543.8850,N,08009.7283,W,1,9,1.6,13,M,,M,,*50
06/03/2014	13:05:15.612	$GPGGA,130524,2543.8850,N,08009.7283,W,1,9,1.6,13,M,,M,,*57
06/03/2014	13:05:16.684	$GPGGA,130525,2543.8850,N,08009.7282,W,1,9,1.6,13,M,,M,,*57
06/03/2014	13:05:17.607	$GPGGA,130526,2543.8850,N,08009.7283,W,1,9,1.6,13,M,,M,,*55
06/03/2014	13:05:18.679	$GPGGA,130527,2543.8850,N,08009.7282,W,1,9,1.6,13,M,,M,,*55
06/03/2014	13:05:19.622	$GPGGA,130528,2543.8850,N,08009.7281,W,1,9,1.6,13,M,,M,,*59
06/03/2014	13:05:20.724	$GPGGA,130529,2543.8850,N,08009.7281,W,1,9,1.6,13,M,,M,,*58
06/03/2014	13:05:21.676	$GPGGA,130530,2543.8849,N,08009.7281,W,1,9,1.6,13,M,,M,,*58
06/03/2014	13:05:22.540	$GPGGA,130531,2543.8850,N,08009.7280,W,1,9,1.6,13,M,,M,,*50
06/03/2014	13:05:23.483	$GPGGA,130532,2543.8849,N,08009.7280,W,1,9,1.6,13,M,,M,,*5B
06/03/2014	13:05:24.575	$GPGGA,130533,2543.8850,N,08009.7280,W,1,9,1.6,13,M,,M,,*52
06/03/2014	13:05:25.518	$GPGGA,130534,2543.8849,N,08009.7280,W,1,9,1.6,13,M,,M,,*5D
06/03/2014	13:05:26.560	$GPGGA,130535,2543.8849,N,08009.7280,W,1,9,1.6,13,M,,M,,*5C
06/03/2014	13:05:27.533	$GPGGA,130536,2543.8849,N,08009.7280,W,1,9,1.6,13,M,,M,,*5F
06/03/2014	13:05:28.545	$GPGGA,130537,2543.8849,N,08009.7280,W,1,9,1.6,13,M,,M,,*5E
06/03/2014	13:05:29.528	$GPGGA,130538,2543.8849,N,08009.7279,W,1,9,1.6,13,M,,M,,*57
06/03/2014	13:05:30.550	$GPGGA,130539,2543.8849,N,08009.7280,W,1,9,1.6,13,M,,M,,*50
06/03/2014	13:05:31.543	$GPGGA,130540,2543.8849,N,08009.7279,W,1,9,1.6,13,M,,M,,*58
06/03/2014	13:05:32.605	$GPGGA,130541,2543.8849,N,08009.7280,W,1,9,1.6,13,M,,M,,*5F
06/03/2014	13:05:33.538	$GPGGA,130542,2543.8849,N,08009.7279,W,1,9,1.6,13,M,,M,,*5A
06/03/2014	13:05:34.570	$GPGGA,130543,2543.8849,N,08009.7280,W,1,9,1.6,13,M,,M,,*5D
06/03/2014	13:05:35.543	$GPGGA,130544,2543.8849,N,08009.7278,W,1,9,1.6,13,M,,M,,*5D
06/03/2014	13:05:36.565	$GPGGA,130545,2543.8848,N,08009.7279,W,1,9,1.6,13,M,,M,,*5C
06/03/2014	13:05:37.548	$GPGGA,130546,2543.8849,N,08009.7278,W,1,9,1.6,13,M,,M,,*5F
06/03/2014	13:05:38.549	$GPGGA,130547,2543.8848,N,08009.7279,W,1,9,1.6,13,M,,M,,*5E
06/03/2014	13:05:39.552	$GPGGA,130548,2543.8848,N,08009.7279,W,1,9,1.6,13,M,,M,,*51
06/03/2014	13:05:40.584	$GPGGA,130549,2543.8849,N,08009.7277,W,1,9,1.6,13,M,,M,,*5F
06/03/2014	13:05:41.527	$GPGGA,130550,2543.8849,N,08009.7277,W,1,9,1.6,13,M,,M,,*57
06/03/2014	13:05:42.569	$GPGGA,130551,2543.8849,N,08009.7277,W,1,9,1.6,13,M,,M,,*56
06/03/2014	13:05:43.542	$GPGGA,130552,2543.8849,N,08009.7276,W,1,9,1.6,13,M,,M,,*54
06/03/2014	13:05:44.574	$GPGGA,130553,2543.8849,N,08009.7276,W,1,9,1.6,13,M,,M,,*55
06/03/2014	13:05:45.527	$GPGGA,130554,2543.8849,N,08009.7276,W,1,9,1.6,13,M,,M,,*52
06/03/2014	13:05:46.570	$GPGGA,130555,2543.8849,N,08009.7276,W,1,9,1.6,13,M,,M,,*53
06/03/2014	13:05:47.662	$GPGGA,130556,2543.8848,N,08009.7277,W,1,9,1.6,13,M,,M,,*50
06/03/2014	13:05:48.594	$GPGGA,130557,2543.8849,N,08009.7277,W,1,9,1.6,13,M,,M,,*50
06/03/2014	13:05:49.547	$GPGGA,130558,2543.8849,N,08009.7276,W,1,9,1.6,13,M,,M,,*5E
06/03/2014	13:05:50.589	$GPGGA,130559,2543.8848,N,08009.7276,W,1,9,1.6,13,M,,M,,*5E
06/03/2014	13:05:51.578	$GPGGA,130600,2543.8849,N,08009.7276,W,1,9,1.6,13,M,,M,,*50
06/03/2014	13:05:52.594	$GPGGA,130601,2543.8849,N,08009.7276,W,1,9,1.6,13,M,,M,,*51
06/03/2014	13:05:53.557	$GPGGA,130602,2543.8849,N,08009.7276,W,1,9,1.6,13,M,,M,,*52
06/03/2014	13:05:54.550	$GPGGA,130603,2543.8849,N,08009.7276,W,1,9,1.6,13,M,,M,,*53
06/03/2014	13:05:55.573	$GPGGA,130604,2543.8849,N,08009.7276,W,1,9,1.6,13,M,,M,,*54
06/03/2014	13:05:56.593	$GPGGA,130605,2543.8849,N,08009.7276,W,1,9,1.6,13,M,,M,,*55
06/03/2014	13:05:57.546	$GPGGA,130606,2543.8849,N,08009.7276,W,1,9,1.6,13,M,,M,,*56
06/03/2014	13:05:58.618	$GPGGA,130607,2543.8848,N,08009.7276,W,1,9,1.6,13,M,,M,,*56
06/03/2014	13:05:59.571	$GPGGA,130608,2543.8849,N,08009.7276,W,1,9,1.6,13,M,,M,,*58
06/03/2014	13:06:00.553	$GPGGA,130609,2543.8849,N,08009.7276,W,1,9,1.6,13,M,,M,,*59
06/03/2014	13:06:01.636	$GPGGA,130610,2543.8848,N,08009.7276,W,1,9,1.6,13,M,,M,,*50
06/03/2014	13:06:02.558	$GPGGA,130611,2543.8848,N,08009.7276,W,1,9,1.6,13,M,,M,,*51
06/03/2014	13:06:03.561	$GPGGA,130612,2543.8848,N,08009.7276,W,1,9,1.6,13,M,,M,,*52
06/03/2014	13:06:04.683	$GPGGA,130613,2543.8848,N,08009.7276,W,1,9,1.6,13,M,,M,,*53
06/03/2014	13:06:05.566	$GPGGA,130614,2543.8847,N,08009.7276,W,1,9,1.6,13,M,,M,,*5B
06/03/2014	13:06:06.578	$GPGGA,130615,2543.8847,N,08009.7275,W,1,9,1.6,13,M,,M,,*59
06/03/2014	13:06:07.560	$GPGGA,130616,2543.8848,N,08009.7276,W,1,9,1.6,13,M,,M,,*56
06/03/2014	13:06:08.563	$GPGGA,130617,2543.8848,N,08009.7276,W,1,9,1.6,13,M,,M,,*57
06/03/2014	13:06:09.646	$GPGGA,130618,2543.8849,N,08009.7276,W,1,9,1.6,13,M,,M,,*59
06/03/2014	13:06:10.648	$GPGGA,130619,2543.8848,N,08009.7275,W,1,9,1.6,13,M,,M,,*5A
06/03/2014	13:06:11.601	$GPGGA,130620,2543.8849,N,08009.7276,W,1,9,1.6,13,M,,M,,*52
06/03/2014	13:06:12.663	$GPGGA,130621,2543.8849,N,08009.7275,W,1,9,1.6,13,M,,M,,*50
06/03/2014	13:06:13.645	$GPGGA,130622,2543.8849,N,08009.7276,W,1,9,1.6,13,M,,M,,*50
06/03/2014	13:06:14.657	$GPGGA,130623,2543.8849,N,08009.7275,W,1,9,1.6,13,M,,M,,*52
06/03/2014	13:06:15.660	$GPGGA,130624,2543.8849,N,08009.7276,W,1,9,1.6,13,M,,M,,*56
06/03/2014	13:06:16.662	$GPGGA,130625,2543.8849,N,08009.7275,W,1,9,1.6,13,M,,M,,*54
06/03/2014	13:06:17.645	$GPGGA,130626,2543.8848,N,08009.7276,W,1,9,1.6,13,M,,M,,*55
06/03/2014	13:06:18.667	$GPGGA,130627,2543.8849,N,08009.7275,W,1,9,1.6,13,M,,M,,*56
06/03/2014	13:06:19.660	$GPGGA,130628,2543.8848,N,08009.7276,W,1,9,1.6,13,M,,M,,*5B
06/03/2014	13:06:20.682	$GPGGA,130629,2543.8849,N,08009.7275,W,1,9,1.6,13,M,,M,,*58
06/03/2014	13:06:21.665	$GPGGA,130630,2543.8848,N,08009.7276,W,1,9,1.6,13,M,,M,,*52
06/03/2014	13:06:22.518	$GPGGA,130631,2543.8849,N,08009.7275,W,1,9,1.6,13,M,,M,,*51
06/03/2014	13:06:23.511	$GPGGA,130632,2543.8848,N,08009.7276,W,1,9,1.6,13,M,,M,,*50
06/03/2014	13:06:24.493	$GPGGA,130633,2543.8849,N,08009.7275,W,1,9,1.6,13,M,,M,,*53
06/03/2014	13:06:25.506	$GPGGA,130634,2543.8848,N,08009.7276,W,1,9,1.6,13,M,,M,,*56
06/03/2014	13:06:26.528	$GPGGA,130635,2543.8849,N,08009.7275,W,1,9,1.6,13,M,,M,,*55
06/03/2014	13:06:27.527	$GPGGA,130636,2543.8848,N,08009.7276,W,1,9,1.6,13,M,,M,,*54
06/03/2014	13:06:28.493	$GPGGA,130637,2543.8849,N,08009.7274,W,1,9,1.6,13,M,,M,,*56
06/03/2014	13:06:29.506	$GPGGA,130638,2543.8847,N,08009.7274,W,1,9,1.6,13,M,,M,,*57
06/03/2014	13:06:30.529	$GPGGA,130639,2543.8848,N,08009.7274,W,1,9,1.6,13,M,,M,,*59
06/03/2014	13:06:31.530	$GPGGA,130640,2543.8847,N,08009.7274,W,1,9,1.6,13,M,,M,,*58
06/03/2014	13:06:32.528	$GPGGA,130641,2543.8848,N,08009.7274,W,1,9,1.6,13,M,,M,,*56
06/03/2014	13:06:33.515	$GPGGA,130642,2543.8847,N,08009.7274,W,1,9,1.6,13,M,,M,,*5A
06/03/2014	13:06:34.542	$GPGGA,130643,2543.8848,N,08009.7274,W,1,9,1.6,13,M,,M,,*54
06/03/2014	13:06:35.520	$GPGGA,130644,2543.8847,N,08009.7274,W,1,9,1.6,13,M,,M,,*5C
06/03/2014	13:06:36.544	$GPGGA,130645,2543.8846,N,08009.7273,W,1,9,1.6,12,M,,M,,*5A
06/03/2014	13:06:37.515	$GPGGA,130646,2543.8846,N,08009.7273,W,1,9,1.6,12,M,,M,,*59
06/03/2014	13:06:38.527	$GPGGA,130647,2543.8846,N,08009.7273,W,1,9,1.6,12,M,,M,,*58
06/03/2014	13:06:39.520	$GPGGA,130648,2543.8846,N,08009.7273,W,1,9,1.6,12,M,,M,,*57
06/03/2014	13:06:40.532	$GPGGA,130649,2543.8848,N,08009.7273,W,1,9,1.6,12,M,,M,,*58
06/03/2014	13:06:41.525	$GPGGA,130650,2543.8847,N,08009.7273,W,1,9,1.6,12,M,,M,,*5F
06/03/2014	13:06:42.527	$GPGGA,130651,2543.8848,N,08009.7273,W,1,9,1.6,12,M,,M,,*51
06/03/2014	13:06:43.520	$GPGGA,130652,2543.8847,N,08009.7273,W,1,9,1.6,12,M,,M,,*5D
06/03/2014	13:06:44.532	$GPGGA,130653,2543.8848,N,08009.7274,W,1,9,1.6,12,M,,M,,*54
06/03/2014	13:06:45.515	$GPGGA,130654,2543.8847,N,08009.7274,W,1,9,1.6,12,M,,M,,*5C
06/03/2014	13:06:46.537	$GPGGA,130655,2543.8848,N,08009.7274,W,1,9,1.6,12,M,,M,,*52
06/03/2014	13:06:47.520	$GPGGA,130656,2543.8847,N,08009.7274,W,1,9,1.6,12,M,,M,,*5E
06/03/2014	13:06:48.501	$GPGGA,130657,2543.8848,N,08009.7276,W,1,9,1.6,12,M,,M,,*52
06/03/2014	13:06:49.604	$GPGGA,130658,2543.8847,N,08009.7275,W,1,9,1.6,12,M,,M,,*51
06/03/2014	13:06:50.516	$GPGGA,130659,2543.8848,N,08009.7276,W,1,9,1.6,12,M,,M,,*5C
06/03/2014	13:06:51.649	$GPGGA,130700,2543.8847,N,08009.7275,W,1,9,1.6,12,M,,M,,*5D
06/03/2014	13:06:52.531	$GPGGA,130701,2543.8848,N,08009.7276,W,1,9,1.6,12,M,,M,,*50
06/03/2014	13:06:53.624	$GPGGA,130702,2543.8847,N,08009.7275,W,1,9,1.6,12,M,,M,,*5F
06/03/2014	13:06:54.636	$GPGGA,130703,2543.8848,N,08009.7276,W,1,9,1.6,12,M,,M,,*52
06/03/2014	13:06:55.528	$GPGGA,130704,2543.8847,N,08009.7275,W,1,9,1.6,12,M,,M,,*59
06/03/2014	13:06:56.551	$GPGGA,130705,2543.8848,N,08009.7276,W,1,9,1.6,12,M,,M,,*54
06/03/2014	13:06:57.513	$GPGGA,130706,2543.8847,N,08009.7274,W,1,9,1.6,12,M,,M,,*5A
06/03/2014	13:06:58.616	$GPGGA,130707,2543.8848,N,08009.7274,W,1,9,1.6,12,M,,M,,*54
06/03/2014	13:06:59.629	$GPGGA,130708,2543.8847,N,08009.7274,W,1,9,1.6,12,M,,M,,*54
06/03/2014	13:07:00.621	$GPGGA,130709,2543.8848,N,08009.7274,W,1,9,1.6,11,M,,M,,*59
06/03/2014	13:07:01.614	$GPGGA,130710,2543.8847,N,08009.7274,W,1,9,1.6,11,M,,M,,*5E
06/03/2014	13:07:04.137	$GPGGA,130711,2543.8848,N,08009.7274,W,1,9,1.6,11,M,,M,,*50
06/03/2014	13:07:04.156	$GPGGA,130712,2543.8847,N,08009.7274,W,1,9,1.6,11,M,,M,,*5C
06/03/2014	13:07:04.621	$GPGGA,130713,2543.8848,N,08009.7274,W,1,9,1.6,11,M,,M,,*52
06/03/2014	13:07:05.624	$GPGGA,130714,2543.8847,N,08009.7274,W,1,9,1.6,11,M,,M,,*5A
06/03/2014	13:07:06.645	$GPGGA,130715,2543.8848,N,08009.7274,W,1,9,1.6,11,M,,M,,*54
06/03/2014	13:07:07.628	$GPGGA,130716,2543.8847,N,08009.7274,W,1,9,1.6,11,M,,M,,*58
06/03/2014	13:07:08.640	$GPGGA,130717,2543.8848,N,08009.7274,W,1,9,1.5,11,M,,M,,*55
06/03/2014	13:07:09.613	$GPGGA,130718,2543.8847,N,08009.7274,W,1,9,1.5,11,M,,M,,*55
06/03/2014	13:07:10.635	$GPGGA,130719,2543.8846,N,08009.7274,W,1,9,1.5,11,M,,M,,*55
06/03/2014	13:07:11.638	$GPGGA,130720,2543.8846,N,08009.7273,W,1,9,1.5,11,M,,M,,*58
06/03/2014	13:07:12.650	$GPGGA,130721,2543.8846,N,08009.7273,W,1,9,1.5,11,M,,M,,*59
06/03/2014	13:07:13.613	$GPGGA,130722,2543.8846,N,08009.7273,W,1,9,1.5,11,M,,M,,*5A
06/03/2014	13:07:14.615	$GPGGA,130723,2543.8846,N,08009.7273,W,1,9,1.5,11,M,,M,,*5B
06/03/2014	13:07:15.631	$GPGGA,130724,2543.8846,N,08009.7273,W,1,9,1.5,11,M,,M,,*5C
06/03/2014	13:07:16.670	$GPGGA,130725,2543.8846,N,08009.7273,W,1,9,1.5,11,M,,M,,*5D
06/03/2014	13:07:17.623	$GPGGA,130726,2543.8844,N,08009.7272,W,1,9,1.5,11,M,,M,,*5D
06/03/2014	13:07:18.615	$GPGGA,130727,2543.8845,N,08009.7272,W,1,9,1.5,11,M,,M,,*5D
06/03/2014	13:07:19.638	$GPGGA,130728,2543.8844,N,08009.7272,W,1,9,1.5,11,M,,M,,*53
06/03/2014	13:07:20.610	$GPGGA,130729,2543.8845,N,08009.7272,W,1,9,1.5,11,M,,M,,*53
06/03/2014	13:07:21.653	$GPGGA,130730,2543.8843,N,08009.7272,W,1,9,1.5,11,M,,M,,*5D
06/03/2014	13:07:22.467	$GPGGA,130731,2543.8844,N,08009.7272,W,1,9,1.5,11,M,,M,,*5B
06/03/2014	13:07:23.489	$GPGGA,130732,2543.8843,N,08009.7272,W,1,9,1.5,11,M,,M,,*5F
06/03/2014	13:07:24.501	$GPGGA,130733,2543.8844,N,08009.7272,W,1,9,1.5,11,M,,M,,*59
06/03/2014	13:07:25.484	$GPGGA,130734,2543.8843,N,08009.7272,W,1,9,1.5,11,M,,M,,*59
06/03/2014	13:07:26.486	$GPGGA,130735,2543.8844,N,08009.7271,W,1,9,1.5,11,M,,M,,*5C
06/03/2014	13:07:27.489	$GPGGA,130736,2543.8842,N,08009.7272,W,1,9,1.5,11,M,,M,,*5A
06/03/2014	13:07:28.512	$GPGGA,130737,2543.8844,N,08009.7271,W,1,9,1.5,11,M,,M,,*5E
06/03/2014	13:07:29.494	$GPGGA,130738,2543.8842,N,08009.7272,W,1,9,1.5,11,M,,M,,*54
06/03/2014	13:07:30.476	$GPGGA,130739,2543.8842,N,08009.7271,W,1,9,1.5,11,M,,M,,*56
06/03/2014	13:07:31.499	$GPGGA,130740,2543.8842,N,08009.7272,W,1,9,1.5,11,M,,M,,*5B
06/03/2014	13:07:32.471	$GPGGA,130741,2543.8842,N,08009.7271,W,1,9,1.5,11,M,,M,,*59
06/03/2014	13:07:33.564	$GPGGA,130742,2543.8842,N,08009.7272,W,1,9,1.5,11,M,,M,,*59
06/03/2014	13:07:34.486	$GPGGA,130743,2543.8842,N,08009.7271,W,1,9,1.5,11,M,,M,,*5B
06/03/2014	13:07:35.489	$GPGGA,130744,2543.8842,N,08009.7272,W,1,9,1.5,11,M,,M,,*5F
06/03/2014	13:07:36.621	$GPGGA,130745,2543.8842,N,08009.7271,W,1,9,1.5,11,M,,M,,*5D
06/03/2014	13:07:37.494	$GPGGA,130746,2543.8842,N,08009.7270,W,1,9,1.5,11,M,,M,,*5F
06/03/2014	13:07:38.586	$GPGGA,130747,2543.8840,N,08009.7270,W,1,9,1.5,11,M,,M,,*5C
06/03/2014	13:07:39.499	$GPGGA,130748,2543.8841,N,08009.7270,W,1,9,1.5,11,M,,M,,*52
06/03/2014	13:07:40.591	$GPGGA,130749,2543.8840,N,08009.7270,W,1,9,1.5,11,M,,M,,*52
06/03/2014	13:07:41.623	$GPGGA,130750,2543.8839,N,08009.7270,W,1,9,1.5,11,M,,M,,*54
06/03/2014	13:07:42.575	$GPGGA,130751,2543.8839,N,08009.7270,W,1,9,1.5,11,M,,M,,*55
06/03/2014	13:07:43.528	$GPGGA,130752,2543.8839,N,08009.7270,W,1,9,1.5,11,M,,M,,*56
06/03/2014	13:07:44.600	$GPGGA,130753,2543.8839,N,08009.7270,W,1,9,1.5,11,M,,M,,*57
06/03/2014	13:07:45.492	$GPGGA,130754,2543.8839,N,08009.7270,W,1,9,1.5,11,M,,M,,*50
06/03/2014	13:07:46.615	$GPGGA,130755,2543.8837,N,08009.7270,W,1,9,1.5,11,M,,M,,*5F
06/03/2014	13:07:47.588	$GPGGA,130756,2543.8838,N,08009.7269,W,1,9,1.5,11,M,,M,,*5B
06/03/2014	13:07:48.610	$GPGGA,130757,2543.8837,N,08009.7269,W,1,9,1.5,11,M,,M,,*55
06/03/2014	13:07:49.593	$GPGGA,130758,2543.8838,N,08009.7269,W,1,9,1.5,11,M,,M,,*55
06/03/2014	13:07:50.615	$GPGGA,130759,2543.8837,N,08009.7269,W,1,9,1.5,11,M,,M,,*5B
06/03/2014	13:07:51.598	$GPGGA,130800,2543.8838,N,08009.7269,W,1,9,1.5,11,M,,M,,*57
06/03/2014	13:07:52.620	$GPGGA,130801,2543.8837,N,08009.7270,W,1,9,1.5,11,M,,M,,*51
06/03/2014	13:07:53.585	$GPGGA,130802,2543.8838,N,08009.7270,W,1,9,1.5,11,M,,M,,*5D
06/03/2014	13:07:54.605	$GPGGA,130803,2543.8837,N,08009.7270,W,1,9,1.5,11,M,,M,,*53
06/03/2014	13:07:55.588	$GPGGA,130804,2543.8838,N,08009.7269,W,1,9,1.5,11,M,,M,,*53
06/03/2014	13:07:56.581	$GPGGA,130805,2543.8837,N,08009.7269,W,1,9,1.5,11,M,,M,,*5D
06/03/2014	13:07:57.595	$GPGGA,130806,2543.8838,N,08009.7269,W,1,9,1.5,11,M,,M,,*51
06/03/2014	13:07:58.604	$GPGGA,130807,2543.8837,N,08009.7270,W,1,9,1.5,11,M,,M,,*57
06/03/2014	13:07:59.607	$GPGGA,130808,2543.8838,N,08009.7269,W,1,9,1.5,11,M,,M,,*5F
06/03/2014	13:08:00.619	$GPGGA,130809,2543.8839,N,08009.7269,W,1,9,1.5,11,M,,M,,*5F
06/03/2014	13:08:01.592	$GPGGA,130810,2543.8839,N,08009.7269,W,1,9,1.5,11,M,,M,,*57
06/03/2014	13:08:02.604	$GPGGA,130811,2543.8839,N,08009.7269,W,1,9,1.5,11,M,,M,,*56
06/03/2014	13:08:03.607	$GPGGA,130812,2543.8839,N,08009.7268,W,1,9,1.5,11,M,,M,,*54
06/03/2014	13:08:04.611	$GPGGA,130813,2543.8839,N,08009.7269,W,1,9,1.5,11,M,,M,,*54
06/03/2014	13:08:05.592	$GPGGA,130814,2543.8839,N,08009.7269,W,1,9,1.5,11,M,,M,,*53
06/03/2014	13:08:06.624	$GPGGA,130815,2543.8841,N,08009.7269,W,1,9,1.5,11,M,,M,,*5D
06/03/2014	13:08:07.597	$GPGGA,130816,2543.8840,N,08009.7269,W,1,9,1.5,11,M,,M,,*5F
06/03/2014	13:08:08.629	$GPGGA,130817,2543.8841,N,08009.7269,W,1,9,1.5,11,M,,M,,*5F
06/03/2014	13:08:09.592	$GPGGA,130818,2543.8840,N,08009.7270,W,1,9,1.5,11,M,,M,,*59
06/03/2014	13:08:10.594	$GPGGA,130819,2543.8841,N,08009.7269,W,1,9,1.5,11,M,,M,,*51
06/03/2014	13:08:11.607	$GPGGA,130820,2543.8842,N,08009.7270,W,1,9,1.5,11,M,,M,,*50
06/03/2014	13:08:12.629	$GPGGA,130821,2543.8842,N,08009.7270,W,1,9,1.5,11,M,,M,,*51
06/03/2014	13:08:13.582	$GPGGA,130822,2543.8842,N,08009.7270,W,1,9,1.5,11,M,,M,,*52
06/03/2014	13:08:14.605	$GPGGA,130823,2543.8842,N,08009.7270,W,1,9,1.5,11,M,,M,,*53
06/03/2014	13:08:15.618	$GPGGA,130824,2543.8842,N,08009.7270,W,1,9,1.5,11,M,,M,,*54
06/03/2014	13:08:16.598	$GPGGA,130825,2543.8842,N,08009.7270,W,1,9,1.5,11,M,,M,,*55
06/03/2014	13:08:17.591	$GPGGA,130826,2543.8842,N,08009.7270,W,1,9,1.5,11,M,,M,,*56
06/03/2014	13:08:18.613	$GPGGA,130827,2543.8842,N,08009.7270,W,1,9,1.5,11,M,,M,,*57
06/03/2014	13:08:19.606	$GPGGA,130828,2543.8842,N,08009.7270,W,1,9,1.5,11,M,,M,,*58
06/03/2014	13:08:20.598	$GPGGA,130829,2543.8842,N,08009.7270,W,1,9,1.5,11,M,,M,,*59
06/03/2014	13:08:21.691	$GPGGA,130830,2543.8842,N,08009.7270,W,1,9,1.5,11,M,,M,,*51
06/03/2014	13:08:22.435	$GPGGA,130831,2543.8842,N,08009.7270,W,1,9,1.5,11,M,,M,,*50
06/03/2014	13:08:23.468	$GPGGA,130832,2543.8840,N,08009.7270,W,1,9,1.5,11,M,,M,,*51
06/03/2014	13:08:24.460	$GPGGA,130833,2543.8841,N,08009.7270,W,1,9,1.5,11,M,,M,,*51
06/03/2014	13:08:25.442	$GPGGA,130834,2543.8840,N,08009.7270,W,1,9,1.5,12,M,,M,,*54
06/03/2014	13:08:26.565	$GPGGA,130835,2543.8841,N,08009.7270,W,1,9,1.5,12,M,,M,,*54
06/03/2014	13:08:27.578	$GPGGA,130836,2543.8839,N,08009.7270,W,1,9,1.5,12,M,,M,,*58
06/03/2014	13:08:28.580	$GPGGA,130837,2543.8839,N,08009.7270,W,1,9,1.5,12,M,,M,,*59
06/03/2014	13:08:29.543	$GPGGA,130838,2543.8839,N,08009.7270,W,1,9,1.5,12,M,,M,,*56
06/03/2014	13:08:30.565	$GPGGA,130839,2543.8839,N,08009.7270,W,1,9,1.5,12,M,,M,,*57
06/03/2014	13:08:31.568	$GPGGA,130840,2543.8839,N,08009.7272,W,1,9,1.5,12,M,,M,,*5B
06/03/2014	13:08:32.580	$GPGGA,130841,2543.8839,N,08009.7271,W,1,9,1.5,12,M,,M,,*59
06/03/2014	13:08:33.552	$GPGGA,130842,2543.8839,N,08009.7272,W,1,9,1.5,12,M,,M,,*59
06/03/2014	13:08:34.574	$GPGGA,130843,2543.8839,N,08009.7270,W,1,9,1.5,12,M,,M,,*5A
06/03/2014	13:08:35.567	$GPGGA,130844,2543.8839,N,08009.7270,W,1,9,1.5,12,M,,M,,*5D
06/03/2014	13:08:36.559	$GPGGA,130845,2543.8839,N,08009.7270,W,1,9,1.5,12,M,,M,,*5C
06/03/2014	13:08:37.562	$GPGGA,130846,2543.8839,N,08009.7272,W,1,9,1.5,12,M,,M,,*5D
06/03/2014	13:08:38.564	$GPGGA,130847,2543.8839,N,08009.7271,W,1,9,1.5,12,M,,M,,*5F
06/03/2014	13:08:39.577	$GPGGA,130848,2543.8839,N,08009.7272,W,1,9,1.5,12,M,,M,,*53
06/03/2014	13:08:40.579	$GPGGA,130849,2543.8839,N,08009.7271,W,1,9,1.5,12,M,,M,,*51
06/03/2014	13:08:41.562	$GPGGA,130850,2543.8839,N,08009.7272,W,1,9,1.5,12,M,,M,,*5A
06/03/2014	13:08:42.594	$GPGGA,130851,2543.8839,N,08009.7271,W,1,9,1.5,12,M,,M,,*58
06/03/2014	13:08:43.577	$GPGGA,130852,2543.8839,N,08009.7272,W,1,9,1.5,12,M,,M,,*58
06/03/2014	13:08:44.599	$GPGGA,130853,2543.8839,N,08009.7271,W,1,9,1.5,12,M,,M,,*5A
06/03/2014	13:08:45.552	$GPGGA,130854,2543.8839,N,08009.7272,W,1,9,1.5,12,M,,M,,*5E
06/03/2014	13:08:46.584	$GPGGA,130855,2543.8839,N,08009.7271,W,1,9,1.5,12,M,,M,,*5C
06/03/2014	13:08:47.577	$GPGGA,130856,2543.8839,N,08009.7270,W,1,9,1.5,12,M,,M,,*5E
06/03/2014	13:08:48.589	$GPGGA,130857,2543.8839,N,08009.7270,W,1,9,1.5,12,M,,M,,*5F
06/03/2014	13:08:49.552	$GPGGA,130858,2543.8839,N,08009.7270,W,1,9,1.5,12,M,,M,,*50
06/03/2014	13:08:50.545	$GPGGA,130859,2543.8839,N,08009.7270,W,1,9,1.5,12,M,,M,,*51
06/03/2014	13:08:51.586	$GPGGA,130900,2543.8839,N,08009.7270,W,1,9,1.5,12,M,,M,,*5C
06/03/2014	13:08:52.588	$GPGGA,130901,2543.8839,N,08009.7270,W,1,9,1.5,12,M,,M,,*5D
06/03/2014	13:08:53.561	$GPGGA,130902,2543.8839,N,08009.7270,W,1,9,1.5,12,M,,M,,*5E
06/03/2014	13:08:54.553	$GPGGA,130903,2543.8839,N,08009.7270,W,1,9,1.5,12,M,,M,,*5F
06/03/2014	13:08:55.576	$GPGGA,130904,2543.8839,N,08009.7270,W,1,9,1.5,12,M,,M,,*58
06/03/2014	13:08:56.548	$GPGGA,130905,2543.8839,N,08009.7270,W,1,9,1.5,12,M,,M,,*59
06/03/2014	13:08:58.976	$GPGGA,130907,2543.8839,N,08009.7270,W,1,9,1.5,12,M,,M,,*5B
06/03/2014	13:08:59.576	$GPGGA,130908,2543.8839,N,08009.7270,W,1,9,1.5,12,M,,M,,*54
06/03/2014	13:09:00.558	$GPGGA,130909,2543.8839,N,08009.7272,W,1,9,1.5,12,M,,M,,*57
06/03/2014	13:09:01.571	$GPGGA,130910,2543.8839,N,08009.7271,W,1,9,1.5,12,M,,M,,*5C
06/03/2014	13:09:02.573	$GPGGA,130911,2543.8839,N,08009.7272,W,1,9,1.5,12,M,,M,,*5E
06/03/2014	13:09:03.576	$GPGGA,130912,2543.8839,N,08009.7271,W,1,9,1.5,13,M,,M,,*5F
06/03/2014	13:09:04.569	$GPGGA,130913,2543.8839,N,08009.7272,W,1,9,1.5,13,M,,M,,*5D
06/03/2014	13:09:05.571	$GPGGA,130914,2543.8839,N,08009.7272,W,1,9,1.5,13,M,,M,,*5A
06/03/2014	13:09:06.593	$GPGGA,130915,2543.8839,N,08009.7272,W,1,9,1.5,13,M,,M,,*5B
06/03/2014	13:09:07.566	$GPGGA,130916,2543.8839,N,08009.7272,W,1,9,1.5,13,M,,M,,*58
06/03/2014	13:09:08.577	$GPGGA,130917,2543.8839,N,08009.7272,W,1,9,1.5,13,M,,M,,*59
06/03/2014	13:09:09.559	$GPGGA,130918,2543.8841,N,08009.7272,W,1,9,1.5,13,M,,M,,*59
06/03/2014	13:09:10.562	$GPGGA,130919,2543.8840,N,08009.7272,W,1,9,1.5,13,M,,M,,*59
06/03/2014	13:09:11.595	$GPGGA,130920,2543.8841,N,08009.7273,W,1,9,1.5,13,M,,M,,*53
06/03/2014	13:09:12.667	$GPGGA,130921,2543.8840,N,08009.7273,W,1,9,1.5,13,M,,M,,*53
06/03/2014	13:09:13.569	$GPGGA,130922,2543.8841,N,08009.7273,W,1,9,1.5,13,M,,M,,*51
06/03/2014	13:09:14.592	$GPGGA,130923,2543.8840,N,08009.7274,W,1,9,1.5,13,M,,M,,*56
06/03/2014	13:09:15.705	$GPGGA,130924,2543.8841,N,08009.7274,W,1,9,1.5,13,M,,M,,*50
06/03/2014	13:09:16.687	$GPGGA,130925,2543.8840,N,08009.7274,W,1,9,1.5,13,M,,M,,*50
06/03/2014	13:09:17.569	$GPGGA,130926,2543.8841,N,08009.7274,W,1,9,1.5,13,M,,M,,*52
06/03/2014	13:09:18.672	$GPGGA,130927,2543.8842,N,08009.7274,W,1,9,1.5,13,M,,M,,*50
06/03/2014	13:09:19.705	$GPGGA,130928,2543.8840,N,08009.7274,W,1,9,1.5,13,M,,M,,*5D
06/03/2014	13:09:20.697	$GPGGA,130929,2543.8841,N,08009.7274,W,1,9,1.5,13,M,,M,,*5D
06/03/2014	13:09:21.670	$GPGGA,130930,2543.8840,N,08009.7276,W,1,9,1.5,13,M,,M,,*56
06/03/2014	13:09:22.533	$GPGGA,130931,2543.8841,N,08009.7275,W,1,9,1.5,13,M,,M,,*55
06/03/2014	13:09:23.435	$GPGGA,130932,2543.8840,N,08009.7274,W,1,9,1.5,13,M,,M,,*56
06/03/2014	13:09:24.548	$GPGGA,130933,2543.8841,N,08009.7276,W,1,9,1.5,13,M,,M,,*54
06/03/2014	13:09:25.521	$GPGGA,130934,2543.8840,N,08009.7275,W,1,9,1.5,13,M,,M,,*51
06/03/2014	13:09:26.542	$GPGGA,130935,2543.8841,N,08009.7276,W,1,9,1.5,13,M,,M,,*52
06/03/2014	13:09:27.555	$GPGGA,130936,2543.8840,N,08009.7275,W,1,9,1.5,13,M,,M,,*53
06/03/2014	13:09:28.547	$GPGGA,130937,2543.8841,N,08009.7276,W,1,9,1.5,13,M,,M,,*50
06/03/2014	13:09:29.520	$GPGGA,130938,2543.8840,N,08009.7275,W,1,9,1.5,13,M,,M,,*5D
06/03/2014	13:09:30.542	$GPGGA,130939,2543.8841,N,08009.7276,W,1,9,1.5,13,M,,M,,*5E
06/03/2014	13:09:31.535	$GPGGA,130940,2543.8840,N,08009.7275,W,1,9,1.5,13,M,,M,,*52
06/03/2014	13:09:32.547	$GPGGA,130941,2543.8841,N,08009.7276,W,1,9,1.5,13,M,,M,,*51
06/03/2014	13:09:33.530	$GPGGA,130942,2543.8840,N,08009.7275,W,1,9,1.5,13,M,,M,,*50
06/03/2014	13:09:34.552	$GPGGA,130943,2543.8841,N,08009.7276,W,1,9,1.5,13,M,,M,,*53
06/03/2014	13:09:35.545	$GPGGA,130944,2543.8840,N,08009.7274,W,1,9,1.5,13,M,,M,,*57
06/03/2014	13:09:36.557	$GPGGA,130945,2543.8842,N,08009.7276,W,1,9,1.5,13,M,,M,,*56
06/03/2014	13:09:37.520	$GPGGA,130946,2543.8842,N,08009.7274,W,1,9,1.5,13,M,,M,,*57
06/03/2014	13:09:38.552	$GPGGA,130947,2543.8842,N,08009.7274,W,1,9,1.5,13,M,,M,,*56
06/03/2014	13:09:39.565	$GPGGA,130948,2543.8842,N,08009.7274,W,1,9,1.5,13,M,,M,,*59
06/03/2014	13:09:40.517	$GPGGA,130949,2543.8842,N,08009.7274,W,1,9,1.5,13,M,,M,,*58
06/03/2014	13:09:41.530	$GPGGA,130950,2543.8842,N,08009.7274,W,1,9,1.5,13,M,,M,,*50
06/03/2014	13:09:42.532	$GPGGA,130951,2543.8842,N,08009.7276,W,1,9,1.5,13,M,,M,,*53
06/03/2014	13:09:43.554	$GPGGA,130952,2543.8842,N,08009.7275,W,1,9,1.5,13,M,,M,,*53
06/03/2014	13:09:44.526	$GPGGA,130953,2543.8842,N,08009.7276,W,1,9,1.5,13,M,,M,,*51
06/03/2014	13:09:45.539	$GPGGA,130954,2543.8842,N,08009.7274,W,1,9,1.5,13,M,,M,,*54
06/03/2014	13:09:46.581	$GPGGA,130955,2543.8842,N,08009.7274,W,1,9,1.5,13,M,,M,,*55
06/03/2014	13:09:47.554	$GPGGA,130956,2543.8842,N,08009.7276,W,1,9,1.5,13,M,,M,,*54
06/03/2014	13:09:48.546	$GPGGA,130957,2543.8842,N,08009.7274,W,1,9,1.5,13,M,,M,,*57
06/03/2014	13:09:49.529	$GPGGA,130958,2543.8842,N,08009.7274,W,1,9,1.5,13,M,,M,,*58
06/03/2014	13:09:50.563	$GPGGA,130959,2543.8842,N,08009.7274,W,1,9,1.5,13,M,,M,,*59
06/03/2014	13:09:51.594	$GPGGA,131000,2543.8842,N,08009.7276,W,1,9,1.5,13,M,,M,,*5F
06/03/2014	13:09:52.636	$GPGGA,131001,2543.8842,N,08009.7274,W,1,9,1.5,13,M,,M,,*5C
06/03/2014	13:09:53.539	$GPGGA,131002,2543.8842,N,08009.7274,W,1,9,1.5,13,M,,M,,*5F
06/03/2014	13:09:54.551	$GPGGA,131003,2543.8842,N,08009.7274,W,1,9,1.5,13,M,,M,,*5E
06/03/2014	13:09:55.574	$GPGGA,131004,2543.8842,N,08009.7274,W,1,9,1.5,13,M,,M,,*59
06/03/2014	13:09:56.626	$GPGGA,131005,2543.8842,N,08009.7274,W,1,9,1.5,13,M,,M,,*58
06/03/2014	13:09:57.549	$GPGGA,131006,2543.8842,N,08009.7274,W,1,9,1.5,13,M,,M,,*5B
06/03/2014	13:09:58.562	$GPGGA,131007,2543.8842,N,08009.7274,W,1,9,1.5,13,M,,M,,*5A
06/03/2014	13:09:59.555	$GPGGA,131008,2543.8842,N,08009.7274,W,1,9,1.5,13,M,,M,,*55
06/03/2014	13:10:00.557	$GPGGA,131009,2543.8842,N,08009.7274,W,1,9,1.5,13,M,,M,,*54
06/03/2014	13:10:01.558	$GPGGA,131010,2543.8842,N,08009.7274,W,1,9,1.5,14,M,,M,,*5B
06/03/2014	13:10:02.660	$GPGGA,131011,2543.8842,N,08009.7274,W,1,9,1.5,14,M,,M,,*5A
06/03/2014	13:10:03.663	$GPGGA,131012,2543.8842,N,08009.7274,W,1,9,1.5,14,M,,M,,*59
06/03/2014	13:10:04.635	$GPGGA,131013,2543.8840,N,08009.7274,W,1,9,1.5,14,M,,M,,*5A
06/03/2014	13:10:05.557	$GPGGA,131014,2543.8841,N,08009.7274,W,1,9,1.5,14,M,,M,,*5C
06/03/2014	13:10:06.630	$GPGGA,131015,2543.8840,N,08009.7276,W,1,9,1.5,14,M,,M,,*5E
06/03/2014	13:10:07.643	$GPGGA,131016,2543.8841,N,08009.7275,W,1,9,1.5,14,M,,M,,*5F
06/03/2014	13:10:08.645	$GPGGA,131017,2543.8840,N,08009.7276,W,1,9,1.5,14,M,,M,,*5C
06/03/2014	13:10:09.638	$GPGGA,131018,2543.8839,N,08009.7276,W,1,9,1.5,14,M,,M,,*5D
06/03/2014	13:10:10.650	$GPGGA,131019,2543.8839,N,08009.7276,W,1,9,1.5,14,M,,M,,*5C
06/03/2014	13:10:11.653	$GPGGA,131020,2543.8839,N,08009.7276,W,1,9,1.5,14,M,,M,,*56
06/03/2014	13:10:12.645	$GPGGA,131021,2543.8839,N,08009.7276,W,1,9,1.5,14,M,,M,,*57
06/03/2014	13:10:13.648	$GPGGA,131022,2543.8841,N,08009.7276,W,1,9,1.5,14,M,,M,,*5B
06/03/2014	13:10:14.640	$GPGGA,131023,2543.8840,N,08009.7276,W,1,9,1.5,14,M,,M,,*5B
06/03/2014	13:10:15.653	$GPGGA,131024,2543.8841,N,08009.7276,W,1,9,1.5,14,M,,M,,*5D
06/03/2014	13:10:16.655	$GPGGA,131025,2543.8840,N,08009.7276,W,1,9,1.5,14,M,,M,,*5D
06/03/2014	13:10:17.648	$GPGGA,131026,2543.8841,N,08009.7276,W,1,9,1.5,14,M,,M,,*5F
06/03/2014	13:10:18.649	$GPGGA,131027,2543.8840,N,08009.7276,W,1,9,1.5,14,M,,M,,*5F
06/03/2014	13:10:19.652	$GPGGA,131028,2543.8841,N,08009.7276,W,1,9,1.5,14,M,,M,,*51
06/03/2014	13:10:20.664	$GPGGA,131029,2543.8840,N,08009.7276,W,1,9,1.5,14,M,,M,,*51
06/03/2014	13:10:21.647	$GPGGA,131030,2543.8841,N,08009.7276,W,1,9,1.5,14,M,,M,,*58
06/03/2014	13:10:22.521	$GPGGA,131031,2543.8840,N,08009.7277,W,1,9,1.5,14,M,,M,,*59
06/03/2014	13:10:23.524	$GPGGA,131032,2543.8841,N,08009.7276,W,1,9,1.5,14,M,,M,,*5A
06/03/2014	13:10:24.486	$GPGGA,131033,2543.8840,N,08009.7276,W,1,9,1.5,14,M,,M,,*5A
06/03/2014	13:10:25.489	$GPGGA,131034,2543.8842,N,08009.7276,W,1,9,1.5,14,M,,M,,*5F
06/03/2014	13:10:26.521	$GPGGA,131035,2543.8842,N,08009.7276,W,1,9,1.5,14,M,,M,,*5E
06/03/2014	13:10:27.534	$GPGGA,131036,2543.8842,N,08009.7276,W,1,9,1.5,14,M,,M,,*5D
06/03/2014	13:10:28.496	$GPGGA,131037,2543.8842,N,08009.7275,W,1,9,1.5,14,M,,M,,*5F
06/03/2014	13:10:29.501	$GPGGA,131038,2543.8842,N,08009.7276,W,1,9,1.5,14,M,,M,,*53
06/03/2014	13:10:30.491	$GPGGA,131039,2543.8842,N,08009.7275,W,1,9,1.5,14,M,,M,,*51
06/03/2014	13:10:31.519	$GPGGA,131040,2543.8842,N,08009.7276,W,1,9,1.5,14,M,,M,,*5C
06/03/2014	13:10:32.526	$GPGGA,131041,2543.8842,N,08009.7275,W,1,9,1.5,14,M,,M,,*5E
06/03/2014	13:10:33.499	$GPGGA,131042,2543.8842,N,08009.7276,W,1,9,1.5,14,M,,M,,*5E
06/03/2014	13:10:34.491	$GPGGA,131043,2543.8842,N,08009.7275,W,1,9,1.5,14,M,,M,,*5C
06/03/2014	13:10:35.514	$GPGGA,131044,2543.8842,N,08009.7276,W,1,9,1.5,14,M,,M,,*58
06/03/2014	13:10:36.515	$GPGGA,131045,2543.8842,N,08009.7276,W,1,9,1.5,14,M,,M,,*59
06/03/2014	13:10:37.508	$GPGGA,131046,2543.8840,N,08009.7276,W,1,9,1.5,14,M,,M,,*58
06/03/2014	13:10:38.490	$GPGGA,131047,2543.8842,N,08009.7276,W,1,9,1.5,14,M,,M,,*5B
06/03/2014	13:10:39.523	$GPGGA,131048,2543.8840,N,08009.7276,W,1,9,1.5,14,M,,M,,*56
06/03/2014	13:10:40.525	$GPGGA,131049,2543.8841,N,08009.7276,W,1,9,1.5,14,M,,M,,*56
06/03/2014	13:10:41.618	$GPGGA,131050,2543.8840,N,08009.7277,W,1,9,1.5,15,M,,M,,*5F
06/03/2014	13:10:42.620	$GPGGA,131051,2543.8841,N,08009.7277,W,1,9,1.5,15,M,,M,,*5F
06/03/2014	13:10:43.523	$GPGGA,131052,2543.8840,N,08009.7277,W,1,9,1.5,15,M,,M,,*5D
06/03/2014	13:10:44.495	$GPGGA,131053,2543.8839,N,08009.7277,W,1,9,1.5,15,M,,M,,*52
06/03/2014	13:10:45.497	$GPGGA,131054,2543.8839,N,08009.7279,W,1,9,1.5,15,M,,M,,*5B
06/03/2014	13:10:46.510	$GPGGA,131055,2543.8839,N,08009.7278,W,1,9,1.5,15,M,,M,,*5B
06/03/2014	13:10:47.533	$GPGGA,131056,2543.8839,N,08009.7279,W,1,9,1.5,15,M,,M,,*59
06/03/2014	13:10:48.495	$GPGGA,131057,2543.8839,N,08009.7278,W,1,9,1.5,15,M,,M,,*59
06/03/2014	13:10:49.598	$GPGGA,131058,2543.8839,N,08009.7279,W,1,9,1.5,15,M,,M,,*57
06/03/2014	13:10:50.630	$GPGGA,131059,2543.8839,N,08009.7278,W,1,9,1.5,15,M,,M,,*57
06/03/2014	13:10:51.523	$GPGGA,131100,2543.8839,N,08009.7279,W,1,9,1.5,15,M,,M,,*5B
06/03/2014	13:10:52.635	$GPGGA,131101,2543.8839,N,08009.7278,W,1,9,1.5,15,M,,M,,*5B
06/03/2014	13:10:53.516	$GPGGA,131102,2543.8839,N,08009.7279,W,1,9,1.5,15,M,,M,,*59
06/03/2014	13:10:54.609	$GPGGA,131103,2543.8839,N,08009.7278,W,1,9,1.5,15,M,,M,,*59
06/03/2014	13:10:55.612	$GPGGA,131104,2543.8839,N,08009.7279,W,1,9,1.5,15,M,,M,,*5F
06/03/2014	13:10:56.525	$GPGGA,131105,2543.8839,N,08009.7278,W,1,9,1.5,15,M,,M,,*5F
06/03/2014	13:10:57.607	$GPGGA,131106,2543.8839,N,08009.7279,W,1,9,1.5,15,M,,M,,*5D
06/03/2014	13:10:58.629	$GPGGA,131107,2543.8839,N,08009.7278,W,1,9,1.5,15,M,,M,,*5D
06/03/2014	13:10:59.622	$GPGGA,131108,2543.8839,N,08009.7279,W,1,9,1.5,15,M,,M,,*53
06/03/2014	13:11:00.634	$GPGGA,131109,2543.8839,N,08009.7278,W,1,9,1.5,15,M,,M,,*53
06/03/2014	13:11:01.607	$GPGGA,131110,2543.8839,N,08009.7279,W,1,9,1.5,15,M,,M,,*5A
06/03/2014	13:11:02.609	$GPGGA,131111,2543.8839,N,08009.7277,W,1,9,1.5,15,M,,M,,*55
06/03/2014	13:11:03.622	$GPGGA,131112,2543.8841,N,08009.7277,W,1,9,1.5,15,M,,M,,*59
06/03/2014	13:11:04.634	$GPGGA,131113,2543.8840,N,08009.7277,W,1,9,1.5,15,M,,M,,*59
06/03/2014	13:11:05.607	$GPGGA,131114,2543.8839,N,08009.7277,W,1,9,1.5,15,M,,M,,*50
06/03/2014	13:11:06.639	$GPGGA,131115,2543.8839,N,08009.7277,W,1,9,1.5,15,M,,M,,*51
06/03/2014	13:11:07.632	$GPGGA,131116,2543.8839,N,08009.7277,W,1,9,1.5,15,M,,M,,*52
06/03/2014	13:11:08.644	$GPGGA,131117,2543.8841,N,08009.7277,W,1,9,1.5,15,M,,M,,*5C
06/03/2014	13:11:09.620	$GPGGA,131118,2543.8840,N,08009.7277,W,1,9,1.5,15,M,,M,,*52
06/03/2014	13:11:10.629	$GPGGA,131119,2543.8841,N,08009.7276,W,1,9,1.5,15,M,,M,,*53
06/03/2014	13:11:11.641	$GPGGA,131120,2543.8840,N,08009.7276,W,1,9,1.5,15,M,,M,,*58
06/03/2014	13:11:12.643	$GPGGA,131121,2543.8841,N,08009.7275,W,1,9,1.5,15,M,,M,,*5B
06/03/2014	13:11:13.606	$GPGGA,131122,2543.8840,N,08009.7276,W,1,9,1.5,15,M,,M,,*5A
06/03/2014	13:11:14.648	$GPGGA,131123,2543.8841,N,08009.7275,W,1,9,1.5,15,M,,M,,*59
06/03/2014	13:11:15.626	$GPGGA,131124,2543.8840,N,08009.7276,W,1,9,1.5,15,M,,M,,*5C
06/03/2014	13:11:16.613	$GPGGA,131125,2543.8841,N,08009.7276,W,1,9,1.5,15,M,,M,,*5C
06/03/2014	13:11:17.626	$GPGGA,131126,2543.8840,N,08009.7276,W,1,9,1.5,15,M,,M,,*5E
06/03/2014	13:11:18.658	$GPGGA,131127,2543.8842,N,08009.7276,W,1,9,1.5,15,M,,M,,*5D
06/03/2014	13:11:19.635	$GPGGA,131128,2543.8842,N,08009.7276,W,1,9,1.5,15,M,,M,,*52
06/03/2014	13:11:20.613	$GPGGA,131129,2543.8842,N,08009.7276,W,1,9,1.5,15,M,,M,,*53
06/03/2014	13:11:21.616	$GPGGA,131130,2543.8842,N,08009.7276,W,1,9,1.5,15,M,,M,,*5B
06/03/2014	13:11:22.459	$GPGGA,131131,2543.8842,N,08009.7276,W,1,9,1.5,15,M,,M,,*5A
06/03/2014	13:11:23.472	$GPGGA,131132,2543.8842,N,08009.7276,W,1,9,1.5,15,M,,M,,*59
06/03/2014	13:11:24.484	$GPGGA,131133,2543.8842,N,08009.7276,W,1,9,1.5,15,M,,M,,*58
06/03/2014	13:11:25.456	$GPGGA,131134,2543.8840,N,08009.7276,W,1,9,1.5,15,M,,M,,*5D
06/03/2014	13:11:26.479	$GPGGA,131135,2543.8842,N,08009.7276,W,1,9,1.5,15,M,,M,,*5E
06/03/2014	13:11:27.492	$GPGGA,131136,2543.8842,N,08009.7276,W,1,9,1.5,15,M,,M,,*5D
06/03/2014	13:11:28.464	$GPGGA,131137,2543.8842,N,08009.7276,W,1,9,1.5,15,M,,M,,*5C
06/03/2014	13:11:29.586	$GPGGA,131138,2543.8842,N,08009.7276,W,1,9,1.5,15,M,,M,,*53
06/03/2014	13:11:30.568	$GPGGA,131139,2543.8842,N,08009.7276,W,1,9,1.5,15,M,,M,,*52
06/03/2014	13:11:31.491	$GPGGA,131140,2543.8842,N,08009.7276,W,1,9,1.5,15,M,,M,,*5C
06/03/2014	13:11:32.463	$GPGGA,131141,2543.8842,N,08009.7276,W,1,9,1.5,15,M,,M,,*5D
06/03/2014	13:11:33.486	$GPGGA,131142,2543.8842,N,08009.7275,W,1,9,1.5,15,M,,M,,*5D
06/03/2014	13:11:34.488	$GPGGA,131143,2543.8842,N,08009.7276,W,1,9,1.5,15,M,,M,,*5F
06/03/2014	13:11:35.470	$GPGGA,131144,2543.8842,N,08009.7275,W,1,9,1.5,15,M,,M,,*5B
06/03/2014	13:11:36.603	$GPGGA,131145,2543.8842,N,08009.7276,W,1,9,1.5,15,M,,M,,*59
06/03/2014	13:11:37.475	$GPGGA,131146,2543.8842,N,08009.7275,W,1,9,1.5,15,M,,M,,*59
06/03/2014	13:11:38.468	$GPGGA,131147,2543.8842,N,08009.7276,W,1,9,1.5,15,M,,M,,*5B
06/03/2014	13:11:39.581	$GPGGA,131148,2543.8842,N,08009.7275,W,1,9,1.5,15,M,,M,,*57
06/03/2014	13:11:40.473	$GPGGA,131149,2543.8844,N,08009.7276,W,1,9,1.5,15,M,,M,,*53
06/03/2014	13:11:41.566	$GPGGA,131150,2543.8842,N,08009.7275,W,1,9,1.5,15,M,,M,,*5E
06/03/2014	13:11:42.578	$GPGGA,131151,2543.8842,N,08009.7276,W,1,9,1.5,15,M,,M,,*5C
06/03/2014	13:11:43.500	$GPGGA,131152,2543.8844,N,08009.7275,W,1,9,1.5,15,M,,M,,*5A
06/03/2014	13:11:44.583	$GPGGA,131153,2543.8843,N,08009.7274,W,1,9,1.5,15,M,,M,,*5D
06/03/2014	13:11:45.585	$GPGGA,131154,2543.8844,N,08009.7274,W,1,9,1.5,15,M,,M,,*5D
06/03/2014	13:11:46.577	$GPGGA,131155,2543.8843,N,08009.7274,W,1,9,1.5,15,M,,M,,*5B
06/03/2014	13:11:47.590	$GPGGA,131156,2543.8845,N,08009.7276,W,1,9,1.5,15,M,,M,,*5C
06/03/2014	13:11:48.582	$GPGGA,131157,2543.8844,N,08009.7274,W,1,9,1.5,15,M,,M,,*5E
06/03/2014	13:11:49.595	$GPGGA,131158,2543.8845,N,08009.7276,W,1,9,1.5,15,M,,M,,*52
