Software Version Number: 1	Data File Format Number: 1	Build Version Number: 1	Error Count Since VI Started: 0	Manufacturer: Raytheon	 Model Number: RayMarine 120	 S/N: 	 Cal Date: 	 Wind Direction Offset: 0.00	 Slope (M)1: 0.00	 Offset (B)1: 0.00	 Slope (M)2: 0.00	 Offset (B)2: 0.00	 Slope (M)3: 0.00	 Offset (B)3: 0.00	 Slope (M)4: 0.00	 Offset (B)4: 0.00	 Slope (M)5: 0.00	 Offset (B)5: 0.00	 Slope (M)6: 0.00	 Offset (B)6: 0.00
Computer Date	Computer Time	GGA String
05/31/2014	06:00:00.689	$GPGGA,060001,2521.9124,N,07925.4878,W,1,10,1.4,14,M,,M,,*66
05/31/2014	06:00:01.648	$GPGGA,060002,2521.9106,N,07925.4865,W,1,10,1.4,14,M,,M,,*69
05/31/2014	06:00:02.668	$GPGGA,060003,2521.9088,N,07925.4853,W,1,10,1.4,14,M,,M,,*6A
05/31/2014	06:00:03.658	$GPGGA,060004,2521.9070,N,07925.4840,W,1,10,1.4,14,M,,M,,*68
05/31/2014	06:00:04.678	$GPGGA,060005,2521.9052,N,07925.4827,W,1,10,1.4,15,M,,M,,*69
05/31/2014	06:00:05.648	$GPGGA,060006,2521.9034,N,07925.4815,W,1,10,1.4,15,M,,M,,*6B
05/31/2014	06:00:06.638	$GPGGA,060007,2521.9016,N,07925.4802,W,1,10,1.4,15,M,,M,,*6C
05/31/2014	06:00:07.658	$GPGGA,060008,2521.8998,N,07925.4789,W,1,10,1.4,15,M,,M,,*61
05/31/2014	06:00:08.678	$GPGGA,060009,2521.8979,N,07925.4777,W,1,10,1.4,15,M,,M,,*6E
05/31/2014	06:00:09.628	$GPGGA,060010,2521.8961,N,07925.4764,W,1,10,1.4,15,M,,M,,*6D
05/31/2014	06:00:10.658	$GPGGA,060011,2521.8943,N,07925.4752,W,1,10,1.4,15,M,,M,,*69
05/31/2014	06:00:11.658	$GPGGA,060012,2521.8925,N,07925.4740,W,1,10,1.4,15,M,,M,,*69
05/31/2014	06:00:12.668	$GPGGA,060013,2521.8907,N,07925.4728,W,1,10,1.4,15,M,,M,,*66
05/31/2014	06:00:13.748	$GPGGA,060014,2521.8889,N,07925.4716,W,1,10,1.4,15,M,,M,,*6B
05/31/2014	06:00:14.638	$GPGGA,060015,2521.8869,N,07925.4704,W,1,10,1.4,15,M,,M,,*67
05/31/2014	06:00:15.648	$GPGGA,060016,2521.8851,N,07925.4692,W,1,10,1.4,15,M,,M,,*61
05/31/2014	06:00:16.739	$GPGGA,060017,2521.8832,N,07925.4680,W,1,10,1.4,15,M,,M,,*66
05/31/2014	06:00:17.709	$GPGGA,060018,2521.8814,N,07925.4668,W,1,10,1.4,15,M,,M,,*6B
05/31/2014	06:00:18.628	$GPGGA,060019,2521.8796,N,07925.4656,W,1,10,1.4,15,M,,M,,*62
05/31/2014	06:00:19.628	$GPGGA,060020,2521.8777,N,07925.4645,W,1,10,1.4,15,M,,M,,*65
05/31/2014	06:00:20.608	$GPGGA,060021,2521.8759,N,07925.4634,W,1,10,1.4,15,M,,M,,*6E
05/31/2014	06:00:21.708	$GPGGA,060022,2521.8741,N,07925.4622,W,1,10,1.4,15,M,,M,,*63
05/31/2014	06:00:22.718	$GPGGA,060023,2521.8723,N,07925.4610,W,1,10,1.4,15,M,,M,,*67
05/31/2014	06:00:23.628	$GPGGA,060024,2521.8705,N,07925.4599,W,1,10,1.4,15,M,,M,,*66
05/31/2014	06:00:24.708	$GPGGA,060025,2521.8687,N,07925.4587,W,1,10,1.4,15,M,,M,,*63
05/31/2014	06:00:25.608	$GPGGA,060026,2521.8669,N,07925.4575,W,1,10,1.4,15,M,,M,,*6D
05/31/2014	06:00:26.708	$GPGGA,060027,2521.8649,N,07925.4564,W,1,10,1.4,15,M,,M,,*6E
05/31/2014	06:00:27.618	$GPGGA,060028,2521.8631,N,07925.4553,W,1,10,1.4,15,M,,M,,*6A
05/31/2014	06:00:28.708	$GPGGA,060029,2521.8612,N,07925.4541,W,1,10,1.4,15,M,,M,,*69
05/31/2014	06:00:29.698	$GPGGA,060030,2521.8594,N,07925.4529,W,1,10,1.4,15,M,,M,,*62
05/31/2014	06:00:30.708	$GPGGA,060031,2521.8575,N,07925.4518,W,1,10,1.4,15,M,,M,,*6E
05/31/2014	06:00:31.708	$GPGGA,060032,2521.8557,N,07925.4507,W,1,10,1.4,15,M,,M,,*63
05/31/2014	06:00:32.688	$GPGGA,060033,2521.8539,N,07925.4495,W,1,10,1.4,15,M,,M,,*60
05/31/2014	06:00:33.678	$GPGGA,060034,2521.8521,N,07925.4484,W,1,10,1.4,15,M,,M,,*6E
05/31/2014	06:00:34.699	$GPGGA,060035,2521.8501,N,07925.4472,W,1,10,1.4,15,M,,M,,*64
05/31/2014	06:00:35.700	$GPGGA,060036,2521.8483,N,07925.4461,W,1,10,1.4,14,M,,M,,*6F
05/31/2014	06:00:36.688	$GPGGA,060037,2521.8464,N,07925.4450,W,1,10,1.4,14,M,,M,,*65
05/31/2014	06:00:37.678	$GPGGA,060038,2521.8446,N,07925.4438,W,1,10,1.4,14,M,,M,,*64
05/31/2014	06:00:38.668	$GPGGA,060039,2521.8428,N,07925.4426,W,1,10,1.4,14,M,,M,,*62
05/31/2014	06:00:39.708	$GPGGA,060040,2521.8409,N,07925.4415,W,1,10,1.4,14,M,,M,,*6F
05/31/2014	06:00:40.698	$GPGGA,060041,2521.8391,N,07925.4403,W,1,10,1.4,14,M,,M,,*6F
05/31/2014	06:00:41.668	$GPGGA,060042,2521.8372,N,07925.4391,W,1,10,1.4,14,M,,M,,*6D
05/31/2014	06:00:42.688	$GPGGA,060043,2521.8353,N,07925.4379,W,1,10,1.4,14,M,,M,,*69
05/31/2014	06:00:43.678	$GPGGA,060044,2521.8336,N,07925.4367,W,1,10,1.4,14,M,,M,,*62
05/31/2014	06:00:44.658	$GPGGA,060045,2521.8317,N,07925.4355,W,1,10,1.4,14,M,,M,,*61
05/31/2014	06:00:45.668	$GPGGA,060046,2521.8299,N,07925.4343,W,1,10,1.4,14,M,,M,,*62
05/31/2014	06:00:46.688	$GPGGA,060047,2521.8281,N,07925.4331,W,1,10,1.4,14,M,,M,,*6F
05/31/2014	06:00:47.668	$GPGGA,060048,2521.8264,N,07925.4319,W,1,10,1.4,14,M,,M,,*61
05/31/2014	06:00:48.678	$GPGGA,060049,2521.8246,N,07925.4306,W,1,10,1.4,14,M,,M,,*6E
05/31/2014	06:00:49.648	$GPGGA,060050,2521.8228,N,07925.4294,W,1,10,1.4,14,M,,M,,*64
05/31/2014	06:00:50.648	$GPGGA,060051,2521.8210,N,07925.4281,W,1,10,1.4,14,M,,M,,*6A
05/31/2014	06:00:51.659	$GPGGA,060052,2521.8192,N,07925.4269,W,1,10,1.4,14,M,,M,,*66
05/31/2014	06:00:52.670	$GPGGA,060053,2521.8172,N,07925.4257,W,1,10,1.4,14,M,,M,,*64
05/31/2014	06:00:53.648	$GPGGA,060054,2521.8154,N,07925.4244,W,1,10,1.4,14,M,,M,,*65
05/31/2014	06:00:54.658	$GPGGA,060055,2521.8136,N,07925.4231,W,1,10,1.4,14,M,,M,,*62
05/31/2014	06:00:55.658	$GPGGA,060056,2521.8117,N,07925.4219,W,1,10,1.4,14,M,,M,,*68
05/31/2014	06:00:56.628	$GPGGA,060057,2521.8099,N,07925.4206,W,1,10,1.4,14,M,,M,,*60
05/31/2014	06:00:57.638	$GPGGA,060058,2521.8081,N,07925.4193,W,1,10,1.4,14,M,,M,,*69
05/31/2014	06:00:58.628	$GPGGA,060059,2521.8062,N,07925.4181,W,1,10,1.4,14,M,,M,,*66
05/31/2014	06:00:59.658	$GPGGA,060100,2521.8044,N,07925.4167,W,1,10,1.4,14,M,,M,,*67
05/31/2014	06:01:00.638	$GPGGA,060101,2521.8027,N,07925.4154,W,1,10,1.4,14,M,,M,,*63
05/31/2014	06:01:01.628	$GPGGA,060102,2521.8008,N,07925.4141,W,1,10,1.4,14,M,,M,,*69
05/31/2014	06:01:02.628	$GPGGA,060103,2521.7991,N,07925.4128,W,1,10,1.4,14,M,,M,,*61
05/31/2014	06:01:03.758	$GPGGA,060104,2521.7973,N,07925.4115,W,1,10,1.4,14,M,,M,,*64
05/31/2014	06:01:04.738	$GPGGA,060105,2521.7955,N,07925.4103,W,1,10,1.4,14,M,,M,,*66
05/31/2014	06:01:05.628	$GPGGA,060106,2521.7937,N,07925.4089,W,1,10,1.4,14,M,,M,,*62
05/31/2014	06:01:06.728	$GPGGA,060107,2521.7919,N,07925.4077,W,1,10,1.4,14,M,,M,,*6E
05/31/2014	06:01:07.638	$GPGGA,060108,2521.7903,N,07925.4064,W,1,10,1.4,14,M,,M,,*68
05/31/2014	06:01:08.628	$GPGGA,060109,2521.7885,N,07925.4051,W,1,10,1.4,14,M,,M,,*60
05/31/2014	06:01:09.710	$GPGGA,060110,2521.7867,N,07925.4039,W,1,10,1.4,14,M,,M,,*6A
05/31/2014	06:01:10.711	$GPGGA,060111,2521.7849,N,07925.4026,W,1,10,1.4,14,M,,M,,*69
05/31/2014	06:01:11.618	$GPGGA,060112,2521.7829,N,07925.4013,W,1,10,1.4,14,M,,M,,*6A
05/31/2014	06:01:12.708	$GPGGA,060113,2521.7811,N,07925.4000,W,1,10,1.4,14,M,,M,,*62
05/31/2014	06:01:13.598	$GPGGA,060114,2521.7793,N,07925.3988,W,1,10,1.4,14,M,,M,,*6E
05/31/2014	06:01:14.698	$GPGGA,060115,2521.7775,N,07925.3975,W,1,10,1.4,14,M,,M,,*65
05/31/2014	06:01:15.708	$GPGGA,060116,2521.7756,N,07925.3963,W,1,10,1.4,14,M,,M,,*60
05/31/2014	06:01:16.688	$GPGGA,060117,2521.7738,N,07925.3950,W,1,10,1.4,14,M,,M,,*69
05/31/2014	06:01:17.688	$GPGGA,060118,2521.7719,N,07925.3937,W,1,10,1.4,14,M,,M,,*64
05/31/2014	06:01:18.598	$GPGGA,060119,2521.7701,N,07925.3925,W,1,10,1.4,14,M,,M,,*6F
05/31/2014	06:01:20.739	$GPGGA,060121,2521.7664,N,07925.3901,W,1,10,1.4,14,M,,M,,*60
05/31/2014	06:01:21.678	$GPGGA,060122,2521.7646,N,07925.3888,W,1,10,1.4,14,M,,M,,*63
05/31/2014	06:01:22.708	$GPGGA,060123,2521.7627,N,07925.3877,W,1,10,1.4,14,M,,M,,*65
05/31/2014	06:01:23.698	$GPGGA,060124,2521.7609,N,07925.3865,W,1,10,1.4,14,M,,M,,*6D
05/31/2014	06:01:24.728	$GPGGA,060125,2521.7592,N,07925.3852,W,1,10,1.4,14,M,,M,,*69
05/31/2014	06:01:25.678	$GPGGA,060126,2521.7571,N,07925.3841,W,1,10,1.4,14,M,,M,,*65
05/31/2014	06:01:26.670	$GPGGA,060127,2521.7553,N,07925.3829,W,1,10,1.4,14,M,,M,,*6A
05/31/2014	06:01:27.690	$GPGGA,060128,2521.7534,N,07925.3817,W,1,10,1.4,14,M,,M,,*69
05/31/2014	06:01:28.698	$GPGGA,060129,2521.7515,N,07925.3805,W,1,10,1.4,14,M,,M,,*68
05/31/2014	06:01:29.678	$GPGGA,060130,2521.7497,N,07925.3794,W,1,10,1.4,14,M,,M,,*6C
05/31/2014	06:01:30.688	$GPGGA,060131,2521.7478,N,07925.3782,W,1,10,1.4,14,M,,M,,*6B
05/31/2014	06:01:31.688	$GPGGA,060132,2521.7460,N,07925.3770,W,1,10,1.4,14,M,,M,,*6C
05/31/2014	06:01:32.658	$GPGGA,060133,2521.7441,N,07925.3759,W,1,10,1.4,14,M,,M,,*65
05/31/2014	06:01:33.668	$GPGGA,060134,2521.7422,N,07925.3748,W,1,10,1.4,14,M,,M,,*67
05/31/2014	06:01:34.678	$GPGGA,060135,2521.7404,N,07925.3736,W,1,10,1.4,14,M,,M,,*6B
05/31/2014	06:01:35.668	$GPGGA,060136,2521.7385,N,07925.3725,W,1,10,1.4,14,M,,M,,*64
05/31/2014	06:01:36.678	$GPGGA,060137,2521.7366,N,07925.3713,W,1,10,1.4,14,M,,M,,*6D
05/31/2014	06:01:37.658	$GPGGA,060138,2521.7347,N,07925.3702,W,1,10,1.4,14,M,,M,,*61
05/31/2014	06:01:38.648	$GPGGA,060139,2521.7329,N,07925.3690,W,1,10,1.4,14,M,,M,,*62
05/31/2014	06:01:39.679	$GPGGA,060140,2521.7309,N,07925.3679,W,1,10,1.4,14,M,,M,,*69
05/31/2014	06:01:40.678	$GPGGA,060141,2521.7291,N,07925.3667,W,1,10,1.4,14,M,,M,,*67
05/31/2014	06:01:41.658	$GPGGA,060142,2521.7272,N,07925.3656,W,1,10,1.4,14,M,,M,,*6B
05/31/2014	06:01:42.658	$GPGGA,060143,2521.7253,N,07925.3645,W,1,10,1.4,14,M,,M,,*6B
05/31/2014	06:01:43.659	$GPGGA,060144,2521.7235,N,07925.3634,W,1,10,1.4,14,M,,M,,*6A
05/31/2014	06:01:44.649	$GPGGA,060145,2521.7216,N,07925.3623,W,1,10,1.4,14,M,,M,,*6C
05/31/2014	06:01:45.629	$GPGGA,060146,2521.7198,N,07925.3612,W,1,10,1.4,13,M,,M,,*6F
05/31/2014	06:01:46.638	$GPGGA,060147,2521.7179,N,07925.3600,W,1,10,1.4,13,M,,M,,*62
05/31/2014	06:01:47.658	$GPGGA,060148,2521.7161,N,07925.3589,W,1,10,1.4,13,M,,M,,*66
05/31/2014	06:01:48.628	$GPGGA,060149,2521.7142,N,07925.3577,W,1,10,1.4,13,M,,M,,*67
05/31/2014	06:01:49.638	$GPGGA,060150,2521.7123,N,07925.3566,W,1,10,1.4,13,M,,M,,*68
05/31/2014	06:01:50.728	$GPGGA,060151,2521.7105,N,07925.3554,W,1,10,1.4,13,M,,M,,*6C
05/31/2014	06:01:51.648	$GPGGA,060152,2521.7086,N,07925.3542,W,1,10,1.4,13,M,,M,,*62
05/31/2014	06:01:52.638	$GPGGA,060153,2521.7068,N,07925.3531,W,1,10,1.4,13,M,,M,,*67
05/31/2014	06:01:53.618	$GPGGA,060154,2521.7049,N,07925.3519,W,1,10,1.5,13,M,,M,,*68
05/31/2014	06:01:54.638	$GPGGA,060155,2521.7031,N,07925.3506,W,1,10,1.4,13,M,,M,,*69
05/31/2014	06:01:55.628	$GPGGA,060156,2521.7014,N,07925.3494,W,1,10,1.4,13,M,,M,,*67
05/31/2014	06:01:56.748	$GPGGA,060157,2521.6994,N,07925.3481,W,1,10,1.4,13,M,,M,,*62
05/31/2014	06:01:57.608	$GPGGA,060158,2521.6976,N,07925.3469,W,1,10,1.4,13,M,,M,,*67
05/31/2014	06:01:58.608	$GPGGA,060159,2521.6958,N,07925.3456,W,1,10,1.4,13,M,,M,,*66
05/31/2014	06:01:59.648	$GPGGA,060200,2521.6939,N,07925.3444,W,1,10,1.4,13,M,,M,,*6D
05/31/2014	06:02:00.638	$GPGGA,060201,2521.6921,N,07925.3431,W,1,10,1.4,13,M,,M,,*67
05/31/2014	06:02:01.709	$GPGGA,060202,2521.6903,N,07925.3418,W,1,10,1.4,14,M,,M,,*68
05/31/2014	06:02:02.609	$GPGGA,060203,2521.6885,N,07925.3406,W,1,10,1.4,14,M,,M,,*69
05/31/2014	06:02:03.608	$GPGGA,060204,2521.6867,N,07925.3393,W,1,10,1.4,14,M,,M,,*69
05/31/2014	06:02:04.588	$GPGGA,060205,2521.6849,N,07925.3380,W,1,10,1.4,14,M,,M,,*66
05/31/2014	06:02:05.698	$GPGGA,060206,2521.6830,N,07925.3369,W,1,10,1.4,14,M,,M,,*6C
05/31/2014	06:02:06.708	$GPGGA,060207,2521.6812,N,07925.3356,W,1,10,1.4,14,M,,M,,*61
05/31/2014	06:02:07.708	$GPGGA,060208,2521.6794,N,07925.3344,W,1,10,1.4,14,M,,M,,*6C
05/31/2014	06:02:08.708	$GPGGA,060209,2521.6776,N,07925.3331,W,1,10,1.4,14,M,,M,,*63
05/31/2014	06:02:09.688	$GPGGA,060210,2521.6758,N,07925.3319,W,1,10,1.4,14,M,,M,,*6D
05/31/2014	06:02:10.709	$GPGGA,060211,2521.6740,N,07925.3307,W,1,10,1.4,14,M,,M,,*6A
05/31/2014	06:02:11.688	$GPGGA,060212,2521.6722,N,07925.3294,W,1,10,1.4,14,M,,M,,*66
05/31/2014	06:02:12.718	$GPGGA,060213,2521.6703,N,07925.3282,W,1,10,1.4,14,M,,M,,*63
05/31/2014	06:02:13.678	$GPGGA,060214,2521.6685,N,07925.3270,W,1,10,1.4,14,M,,M,,*66
05/31/2014	06:02:14.698	$GPGGA,060215,2521.6667,N,07925.3258,W,1,10,1.4,14,M,,M,,*61
05/31/2014	06:02:15.698	$GPGGA,060216,2521.6649,N,07925.3246,W,1,10,1.4,14,M,,M,,*61
05/31/2014	06:02:16.698	$GPGGA,060217,2521.6631,N,07925.3233,W,1,10,1.4,14,M,,M,,*6D
05/31/2014	06:02:17.668	$GPGGA,060218,2521.6613,N,07925.3221,W,1,10,1.4,14,M,,M,,*61
05/31/2014	06:02:18.689	$GPGGA,060219,2521.6595,N,07925.3208,W,1,10,1.4,14,M,,M,,*66
05/31/2014	06:02:19.709	$GPGGA,060220,2521.6577,N,07925.3196,W,1,10,1.4,14,M,,M,,*64
05/31/2014	06:02:20.689	$GPGGA,060221,2521.6557,N,07925.3184,W,1,10,1.4,14,M,,M,,*64
05/31/2014	06:02:21.658	$GPGGA,060222,2521.6539,N,07925.3172,W,1,10,1.4,14,M,,M,,*66
05/31/2014	06:02:22.698	$GPGGA,060223,2521.6521,N,07925.3160,W,1,10,1.4,15,M,,M,,*6C
05/31/2014	06:02:23.678	$GPGGA,060224,2521.6502,N,07925.3147,W,1,10,1.4,15,M,,M,,*6F
05/31/2014	06:02:24.688	$GPGGA,060225,2521.6484,N,07925.3136,W,1,10,1.4,15,M,,M,,*67
05/31/2014	06:02:25.668	$GPGGA,060226,2521.6467,N,07925.3123,W,1,10,1.4,15,M,,M,,*6D
05/31/2014	06:02:26.658	$GPGGA,060227,2521.6447,N,07925.3111,W,1,10,1.4,15,M,,M,,*6F
05/31/2014	06:02:27.678	$GPGGA,060228,2521.6429,N,07925.3100,W,1,10,1.4,15,M,,M,,*68
05/31/2014	06:02:28.648	$GPGGA,060229,2521.6411,N,07925.3087,W,1,10,1.4,15,M,,M,,*6C
05/31/2014	06:02:29.738	$GPGGA,060230,2521.6393,N,07925.3076,W,1,10,1.4,15,M,,M,,*67
05/31/2014	06:02:30.668	$GPGGA,060231,2521.6373,N,07925.3064,W,1,10,1.4,15,M,,M,,*6B
05/31/2014	06:02:31.668	$GPGGA,060232,2521.6355,N,07925.3052,W,1,10,1.4,15,M,,M,,*69
05/31/2014	06:02:32.658	$GPGGA,060233,2521.6336,N,07925.3041,W,1,10,1.4,15,M,,M,,*6F
05/31/2014	06:02:33.648	$GPGGA,060234,2521.6318,N,07925.3029,W,1,10,1.4,15,M,,M,,*6A
05/31/2014	06:02:34.658	$GPGGA,060235,2521.6299,N,07925.3018,W,1,10,1.4,15,M,,M,,*61
05/31/2014	06:02:35.768	$GPGGA,060236,2521.6281,N,07925.3007,W,1,10,1.4,15,M,,M,,*65
05/31/2014	06:02:36.759	$GPGGA,060237,2521.6261,N,07925.2995,W,1,10,1.4,15,M,,M,,*69
05/31/2014	06:02:37.639	$GPGGA,060238,2521.6242,N,07925.2984,W,1,10,1.4,15,M,,M,,*67
05/31/2014	06:02:38.648	$GPGGA,060239,2521.6223,N,07925.2973,W,1,10,1.4,15,M,,M,,*69
05/31/2014	06:02:39.658	$GPGGA,060240,2521.6205,N,07925.2962,W,1,10,1.4,15,M,,M,,*63
05/31/2014	06:02:40.718	$GPGGA,060241,2521.6187,N,07925.2951,W,1,10,1.4,15,M,,M,,*6B
05/31/2014	06:02:41.638	$GPGGA,060242,2521.6166,N,07925.2941,W,1,10,1.4,15,M,,M,,*66
05/31/2014	06:02:42.638	$GPGGA,060243,2521.6148,N,07925.2930,W,1,10,1.4,15,M,,M,,*6D
05/31/2014	06:02:43.718	$GPGGA,060244,2521.6129,N,07925.2919,W,1,10,1.4,15,M,,M,,*66
05/31/2014	06:02:44.722	$GPGGA,060245,2521.6111,N,07925.2909,W,1,10,1.4,15,M,,M,,*6D
05/31/2014	06:02:45.628	$GPGGA,060246,2521.6091,N,07925.2899,W,1,10,1.4,15,M,,M,,*6F
05/31/2014	06:02:46.738	$GPGGA,060247,2521.6073,N,07925.2888,W,1,10,1.4,15,M,,M,,*62
05/31/2014	06:02:47.738	$GPGGA,060248,2521.6054,N,07925.2878,W,1,10,1.4,15,M,,M,,*67
05/31/2014	06:02:48.718	$GPGGA,060249,2521.6035,N,07925.2867,W,1,10,1.4,15,M,,M,,*6F
05/31/2014	06:02:49.708	$GPGGA,060250,2521.6017,N,07925.2856,W,1,10,1.4,15,M,,M,,*65
05/31/2014	06:02:50.708	$GPGGA,060251,2521.5999,N,07925.2845,W,1,10,1.4,15,M,,M,,*6A
05/31/2014	06:02:51.708	$GPGGA,060252,2521.5979,N,07925.2835,W,1,10,1.4,15,M,,M,,*60
05/31/2014	06:02:52.698	$GPGGA,060253,2521.5961,N,07925.2824,W,1,10,1.4,15,M,,M,,*68
05/31/2014	06:02:53.700	$GPGGA,060254,2521.5942,N,07925.2813,W,1,10,1.4,15,M,,M,,*6A
05/31/2014	06:02:54.729	$GPGGA,060255,2521.5923,N,07925.2802,W,1,10,1.4,15,M,,M,,*6C
05/31/2014	06:02:55.709	$GPGGA,060256,2521.5905,N,07925.2792,W,1,10,1.4,15,M,,M,,*6D
05/31/2014	06:02:56.708	$GPGGA,060257,2521.5887,N,07925.2781,W,1,10,1.4,15,M,,M,,*65
05/31/2014	06:02:57.688	$GPGGA,060258,2521.5869,N,07925.2770,W,1,10,1.4,15,M,,M,,*64
05/31/2014	06:02:58.678	$GPGGA,060259,2521.5851,N,07925.2760,W,1,10,1.4,15,M,,M,,*6F
05/31/2014	06:02:59.708	$GPGGA,060300,2521.5830,N,07925.2749,W,1,10,1.4,15,M,,M,,*6E
05/31/2014	06:03:00.688	$GPGGA,060301,2521.5812,N,07925.2738,W,1,10,1.4,15,M,,M,,*69
05/31/2014	06:03:01.678	$GPGGA,060302,2521.5794,N,07925.2727,W,1,10,1.4,15,M,,M,,*65
05/31/2014	06:03:02.698	$GPGGA,060303,2521.5775,N,07925.2716,W,1,10,1.4,15,M,,M,,*69
05/31/2014	06:03:03.688	$GPGGA,060304,2521.5757,N,07925.2705,W,1,10,1.4,15,M,,M,,*6C
05/31/2014	06:03:04.668	$GPGGA,060305,2521.5739,N,07925.2693,W,1,10,1.4,15,M,,M,,*6B
05/31/2014	06:03:05.678	$GPGGA,060306,2521.5719,N,07925.2682,W,1,10,1.4,15,M,,M,,*6A
05/31/2014	06:03:06.688	$GPGGA,060307,2521.5700,N,07925.2671,W,1,10,1.4,15,M,,M,,*6F
05/31/2014	06:03:07.698	$GPGGA,060308,2521.5681,N,07925.2660,W,1,10,1.4,15,M,,M,,*68
05/31/2014	06:03:08.658	$GPGGA,060309,2521.5663,N,07925.2649,W,1,10,1.4,15,M,,M,,*6E
05/31/2014	06:03:09.658	$GPGGA,060310,2521.5645,N,07925.2638,W,1,10,1.4,15,M,,M,,*64
05/31/2014	06:03:10.658	$GPGGA,060311,2521.5627,N,07925.2627,W,1,10,1.4,15,M,,M,,*6F
05/31/2014	06:03:11.669	$GPGGA,060312,2521.5607,N,07925.2616,W,1,10,1.4,15,M,,M,,*6C
05/31/2014	06:03:12.649	$GPGGA,060313,2521.5588,N,07925.2604,W,1,10,1.4,15,M,,M,,*6A
05/31/2014	06:03:13.658	$GPGGA,060314,2521.5569,N,07925.2593,W,1,10,1.4,15,M,,M,,*6F
05/31/2014	06:03:14.648	$GPGGA,060315,2521.5551,N,07925.2582,W,1,10,1.4,15,M,,M,,*65
05/31/2014	06:03:15.668	$GPGGA,060316,2521.5533,N,07925.2571,W,1,10,1.4,15,M,,M,,*6E
05/31/2014	06:03:16.648	$GPGGA,060317,2521.5513,N,07925.2559,W,1,10,1.4,15,M,,M,,*67
05/31/2014	06:03:17.658	$GPGGA,060318,2521.5494,N,07925.2549,W,1,10,1.4,15,M,,M,,*67
05/31/2014	06:03:18.648	$GPGGA,060319,2521.5476,N,07925.2538,W,1,10,1.4,15,M,,M,,*6C
05/31/2014	06:03:19.668	$GPGGA,060320,2521.5457,N,07925.2526,W,1,10,1.4,15,M,,M,,*6A
05/31/2014	06:03:20.668	$GPGGA,060321,2521.5439,N,07925.2516,W,1,10,1.4,15,M,,M,,*60
05/31/2014	06:03:21.758	$GPGGA,060322,2521.5421,N,07925.2504,W,1,10,1.4,15,M,,M,,*69
05/31/2014	06:03:22.628	$GPGGA,060323,2521.5401,N,07925.2493,W,1,10,1.4,15,M,,M,,*65
05/31/2014	06:03:23.768	$GPGGA,060324,2521.5382,N,07925.2482,W,1,10,1.4,15,M,,M,,*6E
05/31/2014	06:03:24.658	$GPGGA,060325,2521.5363,N,07925.2470,W,1,10,1.4,15,M,,M,,*6D
05/31/2014	06:03:25.728	$GPGGA,060326,2521.5345,N,07925.2458,W,1,10,1.4,15,M,,M,,*60
05/31/2014	06:03:26.638	$GPGGA,060327,2521.5327,N,07925.2447,W,1,10,1.4,15,M,,M,,*6B
05/31/2014	06:03:27.638	$GPGGA,060328,2521.5307,N,07925.2436,W,1,10,1.4,15,M,,M,,*60
05/31/2014	06:03:28.639	$GPGGA,060329,2521.5289,N,07925.2425,W,1,10,1.4,15,M,,M,,*64
05/31/2014	06:03:29.610	$GPGGA,060330,2521.5270,N,07925.2413,W,1,10,1.4,15,M,,M,,*6F
05/31/2014	06:03:30.639	$GPGGA,060331,2521.5251,N,07925.2402,W,1,10,1.4,15,M,,M,,*6D
05/31/2014	06:03:31.628	$GPGGA,060332,2521.5233,N,07925.2390,W,1,10,1.4,15,M,,M,,*66
05/31/2014	06:03:32.718	$GPGGA,060333,2521.5215,N,07925.2378,W,1,10,1.4,15,M,,M,,*65
05/31/2014	06:03:33.608	$GPGGA,060334,2521.5197,N,07925.2367,W,1,10,1.4,15,M,,M,,*65
05/31/2014	06:03:34.728	$GPGGA,060335,2521.5179,N,07925.2354,W,1,9,1.7,15,M,,M,,*5F
05/31/2014	06:03:35.620	$GPGGA,060336,2521.5159,N,07925.2342,W,1,9,1.7,15,M,,M,,*59
05/31/2014	06:03:36.628	$GPGGA,060337,2521.5141,N,07925.2331,W,1,9,1.7,15,M,,M,,*55
05/31/2014	06:03:37.598	$GPGGA,060338,2521.5123,N,07925.2319,W,1,9,1.7,15,M,,M,,*54
05/31/2014	06:03:38.698	$GPGGA,060339,2521.5105,N,07925.2307,W,1,9,1.7,15,M,,M,,*5E
05/31/2014	06:03:39.628	$GPGGA,060340,2521.5086,N,07925.2296,W,1,9,1.7,15,M,,M,,*53
05/31/2014	06:03:40.688	$GPGGA,060341,2521.5067,N,07925.2284,W,1,9,1.7,15,M,,M,,*5E
05/31/2014	06:03:43.108	$GPGGA,060343,2521.5031,N,07925.2262,W,1,9,1.7,14,M,,M,,*56
05/31/2014	06:03:43.708	$GPGGA,060344,2521.5013,N,07925.2250,W,1,9,1.7,14,M,,M,,*50
05/31/2014	06:03:44.728	$GPGGA,060345,2521.4992,N,07925.2239,W,1,9,1.7,14,M,,M,,*5F
05/31/2014	06:03:45.698	$GPGGA,060346,2521.4974,N,07925.2228,W,1,9,1.7,14,M,,M,,*54
05/31/2014	06:03:46.715	$GPGGA,060347,2521.4955,N,07925.2216,W,1,9,1.7,14,M,,M,,*5B
05/31/2014	06:03:47.699	$GPGGA,060348,2521.4937,N,07925.2206,W,1,9,1.7,14,M,,M,,*51
05/31/2014	06:03:48.708	$GPGGA,060349,2521.4919,N,07925.2195,W,1,9,1.7,14,M,,M,,*55
05/31/2014	06:03:49.668	$GPGGA,060350,2521.4899,N,07925.2185,W,1,9,1.7,14,M,,M,,*55
05/31/2014	06:03:50.698	$GPGGA,060351,2521.4880,N,07925.2174,W,1,9,1.7,14,M,,M,,*52
05/31/2014	06:03:51.688	$GPGGA,060352,2521.4861,N,07925.2165,W,1,9,1.7,14,M,,M,,*5E
05/31/2014	06:03:52.688	$GPGGA,060353,2521.4843,N,07925.2154,W,1,9,1.7,14,M,,M,,*5D
05/31/2014	06:03:53.668	$GPGGA,060354,2521.4825,N,07925.2144,W,1,9,1.7,14,M,,M,,*5B
05/31/2014	06:03:54.688	$GPGGA,060355,2521.4805,N,07925.2134,W,1,9,1.7,14,M,,M,,*5F
05/31/2014	06:03:55.678	$GPGGA,060356,2521.4787,N,07925.2124,W,1,9,1.7,14,M,,M,,*58
05/31/2014	06:03:56.659	$GPGGA,060357,2521.4767,N,07925.2114,W,1,9,1.7,14,M,,M,,*54
05/31/2014	06:03:57.648	$GPGGA,060358,2521.4749,N,07925.2105,W,1,9,1.7,14,M,,M,,*57
05/31/2014	06:03:58.678	$GPGGA,060359,2521.4729,N,07925.2095,W,1,9,1.7,14,M,,M,,*58
05/31/2014	06:03:59.668	$GPGGA,060400,2521.4709,N,07925.2086,W,1,9,1.7,14,M,,M,,*53
05/31/2014	06:04:00.688	$GPGGA,060401,2521.4691,N,07925.2077,W,1,9,1.7,14,M,,M,,*5C
05/31/2014	06:04:01.648	$GPGGA,060402,2521.4671,N,07925.2068,W,1,9,1.7,14,M,,M,,*5F
05/31/2014	06:04:02.678	$GPGGA,060403,2521.4651,N,07925.2059,W,1,9,1.7,13,M,,M,,*59
05/31/2014	06:04:03.659	$GPGGA,060404,2521.4633,N,07925.2050,W,1,9,1.7,13,M,,M,,*53
05/31/2014	06:04:04.669	$GPGGA,060405,2521.4613,N,07925.2042,W,1,9,1.7,13,M,,M,,*53
05/31/2014	06:04:05.649	$GPGGA,060406,2521.4594,N,07925.2032,W,1,9,1.8,13,M,,M,,*54
05/31/2014	06:04:06.638	$GPGGA,060407,2521.4574,N,07925.2022,W,1,9,1.7,13,M,,M,,*55
05/31/2014	06:04:07.658	$GPGGA,060408,2521.4554,N,07925.2012,W,1,9,1.7,13,M,,M,,*5B
05/31/2014	06:04:08.638	$GPGGA,060409,2521.4534,N,07925.2002,W,1,9,1.7,14,M,,M,,*5A
05/31/2014	06:04:09.648	$GPGGA,060410,2521.4515,N,07925.1993,W,1,9,1.7,14,M,,M,,*53
05/31/2014	06:04:10.638	$GPGGA,060411,2521.4496,N,07925.1983,W,1,9,1.7,14,M,,M,,*59
05/31/2014	06:04:11.638	$GPGGA,060412,2521.4475,N,07925.1974,W,1,9,1.7,14,M,,M,,*5F
05/31/2014	06:04:12.668	$GPGGA,060413,2521.4456,N,07925.1964,W,1,9,1.7,14,M,,M,,*5E
05/31/2014	06:04:13.638	$GPGGA,060414,2521.4436,N,07925.1955,W,1,9,1.7,14,M,,M,,*5D
05/31/2014	06:04:14.648	$GPGGA,060415,2521.4417,N,07925.1946,W,1,9,1.7,14,M,,M,,*5D
05/31/2014	06:04:15.636	$GPGGA,060416,2521.4397,N,07925.1936,W,1,9,1.7,14,M,,M,,*56
05/31/2014	06:04:16.738	$GPGGA,060417,2521.4377,N,07925.1925,W,1,8,1.7,14,M,,M,,*5A
05/31/2014	06:04:17.618	$GPGGA,060418,2521.4359,N,07925.1915,W,1,8,1.7,14,M,,M,,*5A
05/31/2014	06:04:18.728	$GPGGA,060419,2521.4339,N,07925.1905,W,1,9,1.7,14,M,,M,,*5D
05/31/2014	06:04:19.638	$GPGGA,060420,2521.4320,N,07925.1894,W,1,9,1.7,14,M,,M,,*56
05/31/2014	06:04:20.619	$GPGGA,060421,2521.4301,N,07925.1884,W,1,9,1.7,15,M,,M,,*54
05/31/2014	06:04:21.710	$GPGGA,060422,2521.4281,N,07925.1874,W,1,9,1.7,15,M,,M,,*51
05/31/2014	06:04:22.739	$GPGGA,060423,2521.4263,N,07925.1863,W,1,9,1.7,15,M,,M,,*5A
05/31/2014	06:04:23.638	$GPGGA,060424,2521.4243,N,07925.1853,W,1,9,1.7,15,M,,M,,*5C
05/31/2014	06:04:24.618	$GPGGA,060425,2521.4225,N,07925.1842,W,1,9,1.7,15,M,,M,,*5D
05/31/2014	06:04:25.598	$GPGGA,060426,2521.4205,N,07925.1831,W,1,9,1.7,15,M,,M,,*58
05/31/2014	06:04:26.698	$GPGGA,060427,2521.4185,N,07925.1821,W,1,9,1.7,15,M,,M,,*53
05/31/2014	06:04:27.608	$GPGGA,060428,2521.4167,N,07925.1810,W,1,9,1.7,15,M,,M,,*52
05/31/2014	06:04:28.688	$GPGGA,060429,2521.4149,N,07925.1799,W,1,9,1.7,15,M,,M,,*51
05/31/2014	06:04:29.598	$GPGGA,060430,2521.4129,N,07925.1788,W,1,9,1.7,15,M,,M,,*5F
05/31/2014	06:04:30.598	$GPGGA,060431,2521.4111,N,07925.1778,W,1,9,1.7,16,M,,M,,*59
05/31/2014	06:04:31.708	$GPGGA,060432,2521.4092,N,07925.1766,W,1,9,1.7,16,M,,M,,*5F
05/31/2014	06:04:32.688	$GPGGA,060433,2521.4073,N,07925.1755,W,1,9,1.7,16,M,,M,,*51
05/31/2014	06:04:33.688	$GPGGA,060434,2521.4054,N,07925.1744,W,1,9,1.7,16,M,,M,,*53
05/31/2014	06:04:34.708	$GPGGA,060435,2521.4036,N,07925.1732,W,1,9,1.7,16,M,,M,,*57
05/31/2014	06:04:35.688	$GPGGA,060436,2521.4017,N,07925.1721,W,1,9,1.7,16,M,,M,,*55
05/31/2014	06:04:36.698	$GPGGA,060437,2521.3999,N,07925.1710,W,1,9,1.7,16,M,,M,,*5E
05/31/2014	06:04:37.678	$GPGGA,060438,2521.3980,N,07925.1699,W,1,9,1.7,16,M,,M,,*59
05/31/2014	06:04:38.699	$GPGGA,060439,2521.3962,N,07925.1687,W,1,9,1.7,16,M,,M,,*5B
05/31/2014	06:04:39.719	$GPGGA,060440,2521.3943,N,07925.1676,W,1,9,1.7,16,M,,M,,*58
05/31/2014	06:04:40.708	$GPGGA,060441,2521.3924,N,07925.1664,W,1,9,1.7,16,M,,M,,*5B
05/31/2014	06:04:41.668	$GPGGA,060442,2521.3906,N,07925.1652,W,1,9,1.7,16,M,,M,,*5D
05/31/2014	06:04:42.688	$GPGGA,060443,2521.3886,N,07925.1641,W,1,9,1.7,16,M,,M,,*57
05/31/2014	06:04:43.688	$GPGGA,060444,2521.3868,N,07925.1629,W,1,9,1.7,16,M,,M,,*5E
05/31/2014	06:04:44.678	$GPGGA,060445,2521.3849,N,07925.1618,W,1,9,1.7,16,M,,M,,*5E
05/31/2014	06:04:45.668	$GPGGA,060446,2521.3831,N,07925.1606,W,1,9,1.7,16,M,,M,,*5D
05/31/2014	06:04:46.648	$GPGGA,060447,2521.3812,N,07925.1595,W,1,9,1.7,16,M,,M,,*54
05/31/2014	06:04:47.668	$GPGGA,060448,2521.3793,N,07925.1584,W,1,9,1.7,16,M,,M,,*5D
05/31/2014	06:04:48.688	$GPGGA,060449,2521.3775,N,07925.1572,W,1,9,1.7,16,M,,M,,*5D
05/31/2014	06:04:49.658	$GPGGA,060450,2521.3756,N,07925.1560,W,1,9,1.7,16,M,,M,,*57
05/31/2014	06:04:50.648	$GPGGA,060451,2521.3737,N,07925.1550,W,1,9,1.7,16,M,,M,,*52
05/31/2014	06:04:51.668	$GPGGA,060452,2521.3719,N,07925.1538,W,1,9,1.7,16,M,,M,,*53
05/31/2014	06:04:52.678	$GPGGA,060453,2521.3700,N,07925.1527,W,1,9,1.7,16,M,,M,,*54
05/31/2014	06:04:53.638	$GPGGA,060454,2521.3682,N,07925.1516,W,1,9,1.7,16,M,,M,,*5A
05/31/2014	06:04:54.678	$GPGGA,060455,2521.3663,N,07925.1505,W,1,9,1.7,17,M,,M,,*57
05/31/2014	06:04:55.668	$GPGGA,060456,2521.3645,N,07925.1495,W,1,9,1.7,17,M,,M,,*58
05/31/2014	06:04:56.639	$GPGGA,060457,2521.3626,N,07925.1484,W,1,9,1.7,17,M,,M,,*5C
05/31/2014	06:04:57.639	$GPGGA,060458,2521.3607,N,07925.1473,W,1,9,1.7,17,M,,M,,*58
05/31/2014	06:04:58.628	$GPGGA,060459,2521.3589,N,07925.1463,W,1,9,1.7,17,M,,M,,*5D
05/31/2014	06:04:59.658	$GPGGA,060500,2521.3569,N,07925.1452,W,1,9,1.7,17,M,,M,,*5C
05/31/2014	06:05:00.638	$GPGGA,060501,2521.3551,N,07925.1443,W,1,9,1.7,17,M,,M,,*56
05/31/2014	06:05:01.622	$GPGGA,060502,2521.3532,N,07925.1433,W,1,9,1.7,17,M,,M,,*57
05/31/2014	06:05:02.658	$GPGGA,060503,2521.3513,N,07925.1423,W,1,9,1.7,17,M,,M,,*54
05/31/2014	06:05:03.638	$GPGGA,060504,2521.3494,N,07925.1413,W,1,9,1.7,17,M,,M,,*5E
05/31/2014	06:05:04.798	$GPGGA,060505,2521.3475,N,07925.1403,W,1,9,1.7,17,M,,M,,*51
05/31/2014	06:05:05.662	$GPGGA,060506,2521.3456,N,07925.1393,W,1,9,1.7,17,M,,M,,*5D
05/31/2014	06:05:06.798	$GPGGA,060507,2521.3438,N,07925.1384,W,1,9,1.7,17,M,,M,,*52
05/31/2014	06:05:07.628	$GPGGA,060508,2521.3418,N,07925.1374,W,1,9,1.7,17,M,,M,,*50
05/31/2014	06:05:08.798	$GPGGA,060509,2521.3398,N,07925.1365,W,1,9,1.7,17,M,,M,,*5E
05/31/2014	06:05:09.618	$GPGGA,060510,2521.3380,N,07925.1355,W,1,9,1.7,17,M,,M,,*5C
05/31/2014	06:05:10.668	$GPGGA,060511,2521.3360,N,07925.1346,W,1,9,1.7,17,M,,M,,*51
05/31/2014	06:05:11.758	$GPGGA,060512,2521.3340,N,07925.1337,W,1,9,1.7,17,M,,M,,*56
05/31/2014	06:05:12.608	$GPGGA,060513,2521.3322,N,07925.1328,W,1,9,1.7,17,M,,M,,*5D
05/31/2014	06:05:13.700	$GPGGA,060514,2521.3301,N,07925.1318,W,1,9,1.7,17,M,,M,,*58
05/31/2014	06:05:14.789	$GPGGA,060515,2521.3281,N,07925.1309,W,1,9,1.7,17,M,,M,,*50
05/31/2014	06:05:15.620	$GPGGA,060516,2521.3262,N,07925.1300,W,1,9,1.7,17,M,,M,,*57
05/31/2014	06:05:16.608	$GPGGA,060517,2521.3242,N,07925.1291,W,1,9,1.7,17,M,,M,,*5D
05/31/2014	06:05:17.598	$GPGGA,060518,2521.3224,N,07925.1282,W,1,9,1.7,17,M,,M,,*50
05/31/2014	06:05:18.598	$GPGGA,060519,2521.3204,N,07925.1272,W,1,9,1.7,17,M,,M,,*5C
05/31/2014	06:05:19.698	$GPGGA,060520,2521.3185,N,07925.1263,W,1,9,1.7,17,M,,M,,*5C
05/31/2014	06:05:20.788	$GPGGA,060521,2521.3165,N,07925.1254,W,1,9,1.7,17,M,,M,,*57
05/31/2014	06:05:21.688	$GPGGA,060522,2521.3146,N,07925.1244,W,1,9,1.7,17,M,,M,,*54
05/31/2014	06:05:22.788	$GPGGA,060523,2521.3127,N,07925.1235,W,1,9,1.7,17,M,,M,,*54
05/31/2014	06:05:23.748	$GPGGA,060524,2521.3107,N,07925.1225,W,1,9,1.7,17,M,,M,,*50
05/31/2014	06:05:24.788	$GPGGA,060525,2521.3088,N,07925.1216,W,1,9,1.7,17,M,,M,,*57
05/31/2014	06:05:25.728	$GPGGA,060526,2521.3069,N,07925.1206,W,1,9,1.7,17,M,,M,,*5A
05/31/2014	06:05:26.778	$GPGGA,060527,2521.3049,N,07925.1197,W,1,9,1.7,17,M,,M,,*52
05/31/2014	06:05:27.728	$GPGGA,060528,2521.3030,N,07925.1188,W,1,9,1.7,17,M,,M,,*5D
05/31/2014	06:05:28.668	$GPGGA,060529,2521.3011,N,07925.1178,W,1,9,1.7,17,M,,M,,*50
05/31/2014	06:05:29.712	$GPGGA,060530,2521.2991,N,07925.1168,W,1,9,1.7,17,M,,M,,*59
05/31/2014	06:05:30.768	$GPGGA,060531,2521.2972,N,07925.1159,W,1,9,1.7,17,M,,M,,*57
05/31/2014	06:05:31.710	$GPGGA,060532,2521.2953,N,07925.1149,W,1,9,1.7,17,M,,M,,*56
05/31/2014	06:05:32.769	$GPGGA,060533,2521.2934,N,07925.1138,W,1,9,1.7,17,M,,M,,*50
05/31/2014	06:05:33.688	$GPGGA,060534,2521.2914,N,07925.1129,W,1,9,1.7,17,M,,M,,*55
05/31/2014	06:05:34.778	$GPGGA,060535,2521.2896,N,07925.1119,W,1,9,1.7,17,M,,M,,*5C
05/31/2014	06:05:35.688	$GPGGA,060536,2521.2876,N,07925.1108,W,1,9,1.7,17,M,,M,,*51
05/31/2014	06:05:36.648	$GPGGA,060537,2521.2856,N,07925.1098,W,1,9,1.7,17,M,,M,,*5A
05/31/2014	06:05:37.678	$GPGGA,060538,2521.2838,N,07925.1087,W,1,9,1.7,17,M,,M,,*53
05/31/2014	06:05:38.748	$GPGGA,060539,2521.2820,N,07925.1076,W,1,9,1.7,17,M,,M,,*55
05/31/2014	06:05:39.698	$GPGGA,060540,2521.2800,N,07925.1064,W,1,9,1.7,17,M,,M,,*5A
05/31/2014	06:05:40.768	$GPGGA,060541,2521.2782,N,07925.1053,W,1,9,1.7,17,M,,M,,*5A
05/31/2014	06:05:41.678	$GPGGA,060542,2521.2763,N,07925.1041,W,1,9,1.7,16,M,,M,,*54
05/31/2014	06:05:42.748	$GPGGA,060543,2521.2745,N,07925.1029,W,1,9,1.7,16,M,,M,,*5F
05/31/2014	06:05:43.678	$GPGGA,060544,2521.2727,N,07925.1018,W,1,9,1.7,16,M,,M,,*5E
05/31/2014	06:05:44.758	$GPGGA,060545,2521.2708,N,07925.1005,W,1,9,1.7,16,M,,M,,*5E
05/31/2014	06:05:45.678	$GPGGA,060546,2521.2690,N,07925.0994,W,1,9,1.7,16,M,,M,,*5D
05/31/2014	06:05:46.623	$GPGGA,060547,2521.2672,N,07925.0982,W,1,9,1.7,16,M,,M,,*57
05/31/2014	06:05:47.638	$GPGGA,060548,2521.2652,N,07925.0971,W,1,9,1.7,16,M,,M,,*56
05/31/2014	06:05:48.629	$GPGGA,060549,2521.2634,N,07925.0958,W,1,9,1.7,16,M,,M,,*5C
05/31/2014	06:05:49.670	$GPGGA,060550,2521.2616,N,07925.0947,W,1,9,1.7,16,M,,M,,*5A
05/31/2014	06:05:50.698	$GPGGA,060551,2521.2597,N,07925.0936,W,1,9,1.7,16,M,,M,,*57
05/31/2014	06:05:51.758	$GPGGA,060552,2521.2578,N,07925.0923,W,1,9,1.4,16,M,,M,,*52
05/31/2014	06:05:52.738	$GPGGA,060553,2521.2560,N,07925.0911,W,1,9,1.4,16,M,,M,,*5B
05/31/2014	06:05:53.619	$GPGGA,060554,2521.2540,N,07925.0899,W,1,9,1.4,16,M,,M,,*5F
05/31/2014	06:05:54.608	$GPGGA,060555,2521.2521,N,07925.0886,W,1,9,1.4,16,M,,M,,*57
05/31/2014	06:05:55.668	$GPGGA,060556,2521.2502,N,07925.0874,W,1,9,1.4,15,M,,M,,*5B
05/31/2014	06:05:56.709	$GPGGA,060557,2521.2482,N,07925.0862,W,1,9,1.4,15,M,,M,,*54
05/31/2014	06:05:57.658	$GPGGA,060558,2521.2463,N,07925.0850,W,1,9,1.4,15,M,,M,,*55
05/31/2014	06:05:58.748	$GPGGA,060559,2521.2444,N,07925.0837,W,1,9,1.4,15,M,,M,,*50
05/31/2014	06:05:59.668	$GPGGA,060600,2521.2426,N,07925.0825,W,1,9,1.4,15,M,,M,,*58
05/31/2014	06:06:00.748	$GPGGA,060601,2521.2406,N,07925.0813,W,1,9,1.4,15,M,,M,,*5E
05/31/2014	06:06:01.638	$GPGGA,060602,2521.2387,N,07925.0800,W,1,9,1.4,15,M,,M,,*51
05/31/2014	06:06:02.738	$GPGGA,060603,2521.2369,N,07925.0788,W,1,9,1.4,15,M,,M,,*5F
05/31/2014	06:06:03.708	$GPGGA,060604,2521.2350,N,07925.0775,W,1,9,1.4,15,M,,M,,*50
05/31/2014	06:06:04.723	$GPGGA,060605,2521.2332,N,07925.0763,W,1,9,1.4,15,M,,M,,*52
05/31/2014	06:06:05.638	$GPGGA,060606,2521.2314,N,07925.0751,W,1,9,1.4,15,M,,M,,*54
05/31/2014	06:06:06.699	$GPGGA,060607,2521.2294,N,07925.0739,W,1,9,1.4,15,M,,M,,*52
05/31/2014	06:06:07.700	$GPGGA,060608,2521.2275,N,07925.0727,W,1,9,1.4,15,M,,M,,*5D
05/31/2014	06:06:08.738	$GPGGA,060609,2521.2257,N,07925.0716,W,1,9,1.4,15,M,,M,,*5E
05/31/2014	06:06:09.688	$GPGGA,060610,2521.2238,N,07925.0704,W,1,9,1.4,15,M,,M,,*5C
05/31/2014	06:06:10.698	$GPGGA,060611,2521.2220,N,07925.0693,W,1,9,1.4,15,M,,M,,*5B
05/31/2014	06:06:11.698	$GPGGA,060612,2521.2202,N,07925.0682,W,1,9,1.4,15,M,,M,,*58
05/31/2014	06:06:12.698	$GPGGA,060613,2521.2182,N,07925.0671,W,1,9,1.4,15,M,,M,,*5E
05/31/2014	06:06:13.678	$GPGGA,060614,2521.2163,N,07925.0660,W,1,9,1.4,15,M,,M,,*56
05/31/2014	06:06:14.738	$GPGGA,060615,2521.2144,N,07925.0649,W,1,9,1.4,15,M,,M,,*59
05/31/2014	06:06:15.688	$GPGGA,060616,2521.2124,N,07925.0638,W,1,9,1.4,15,M,,M,,*5A
05/31/2014	06:06:16.738	$GPGGA,060617,2521.2105,N,07925.0628,W,1,9,1.4,15,M,,M,,*59
05/31/2014	06:06:17.668	$GPGGA,060618,2521.2086,N,07925.0617,W,1,9,1.4,15,M,,M,,*50
05/31/2014	06:06:18.688	$GPGGA,060619,2521.2066,N,07925.0606,W,1,9,1.4,15,M,,M,,*5F
05/31/2014	06:06:19.688	$GPGGA,060620,2521.2048,N,07925.0596,W,1,9,1.4,15,M,,M,,*53
05/31/2014	06:06:20.728	$GPGGA,060621,2521.2029,N,07925.0586,W,1,9,1.4,15,M,,M,,*54
05/31/2014	06:06:21.658	$GPGGA,060622,2521.2010,N,07925.0576,W,1,9,1.4,15,M,,M,,*52
05/31/2014	06:06:22.688	$GPGGA,060623,2521.1991,N,07925.0566,W,1,9,1.4,15,M,,M,,*51
05/31/2014	06:06:23.669	$GPGGA,060624,2521.1972,N,07925.0556,W,1,9,1.4,15,M,,M,,*58
05/31/2014	06:06:24.699	$GPGGA,060625,2521.1953,N,07925.0546,W,1,9,1.4,15,M,,M,,*5B
05/31/2014	06:06:25.648	$GPGGA,060626,2521.1933,N,07925.0536,W,1,9,1.4,15,M,,M,,*59
05/31/2014	06:06:26.748	$GPGGA,060627,2521.1913,N,07925.0526,W,1,9,1.4,15,M,,M,,*5B
05/31/2014	06:06:27.658	$GPGGA,060628,2521.1913,N,07925.0526,W,1,9,1.4,15,M,,M,,*54
05/31/2014	06:06:28.718	$GPGGA,060629,2521.1875,N,07925.0507,W,1,9,1.4,15,M,,M,,*57
05/31/2014	06:06:29.678	$GPGGA,060630,2521.1855,N,07925.0497,W,1,9,1.4,15,M,,M,,*55
05/31/2014	06:06:30.698	$GPGGA,060631,2521.1837,N,07925.0488,W,1,9,1.4,15,M,,M,,*5E
05/31/2014	06:06:31.668	$GPGGA,060632,2521.1816,N,07925.0478,W,1,9,1.4,15,M,,M,,*51
05/31/2014	06:06:32.708	$GPGGA,060633,2521.1797,N,07925.0468,W,1,9,1.4,15,M,,M,,*57
05/31/2014	06:06:33.638	$GPGGA,060634,2521.1778,N,07925.0458,W,1,9,1.4,15,M,,M,,*52
05/31/2014	06:06:34.678	$GPGGA,060635,2521.1759,N,07925.0448,W,1,9,1.4,15,M,,M,,*51
05/31/2014	06:06:35.648	$GPGGA,060636,2521.1740,N,07925.0439,W,1,9,1.4,15,M,,M,,*5C
05/31/2014	06:06:36.648	$GPGGA,060637,2521.1740,N,07925.0439,W,1,9,1.4,15,M,,M,,*5D
05/31/2014	06:06:37.638	$GPGGA,060638,2521.1701,N,07925.0419,W,1,9,1.4,15,M,,M,,*55
05/31/2014	06:06:38.718	$GPGGA,060639,2521.1701,N,07925.0419,W,1,9,1.4,15,M,,M,,*54
05/31/2014	06:06:39.628	$GPGGA,060640,2521.1662,N,07925.0399,W,1,9,1.4,15,M,,M,,*51
05/31/2014	06:06:40.678	$GPGGA,060641,2521.1662,N,07925.0399,W,1,9,1.4,15,M,,M,,*50
05/31/2014	06:06:41.619	$GPGGA,060642,2521.1624,N,07925.0379,W,1,9,1.4,15,M,,M,,*5F
05/31/2014	06:06:42.749	$GPGGA,060643,2521.1604,N,07925.0369,W,1,9,1.4,15,M,,M,,*5D
05/31/2014	06:06:43.628	$GPGGA,060644,2521.1585,N,07925.0359,W,1,9,1.4,15,M,,M,,*53
05/31/2014	06:06:44.638	$GPGGA,060645,2521.1585,N,07925.0359,W,1,9,1.4,15,M,,M,,*52
05/31/2014	06:06:45.628	$GPGGA,060646,2521.1546,N,07925.0338,W,1,9,1.4,15,M,,M,,*59
05/31/2014	06:06:46.638	$GPGGA,060647,2521.1546,N,07925.0338,W,1,10,1.4,15,M,,M,,*60
05/31/2014	06:06:47.618	$GPGGA,060648,2521.1508,N,07925.0316,W,1,10,1.4,15,M,,M,,*69
05/31/2014	06:06:48.628	$GPGGA,060649,2521.1508,N,07925.0316,W,1,10,1.4,15,M,,M,,*68
05/31/2014	06:06:49.698	$GPGGA,060650,2521.1470,N,07925.0295,W,1,10,1.4,15,M,,M,,*64
05/31/2014	06:06:50.728	$GPGGA,060651,2521.1452,N,07925.0283,W,1,10,1.4,15,M,,M,,*62
05/31/2014	06:06:51.628	$GPGGA,060652,2521.1433,N,07925.0273,W,1,10,1.4,15,M,,M,,*69
05/31/2014	06:06:52.718	$GPGGA,060653,2521.1414,N,07925.0262,W,1,10,1.4,15,M,,M,,*6D
05/31/2014	06:06:53.688	$GPGGA,060654,2521.1395,N,07925.0250,W,1,10,1.4,15,M,,M,,*65
05/31/2014	06:06:54.708	$GPGGA,060655,2521.1377,N,07925.0238,W,1,10,1.4,15,M,,M,,*66
05/31/2014	06:06:55.708	$GPGGA,060656,2521.1358,N,07925.0227,W,1,10,1.4,15,M,,M,,*66
05/31/2014	06:06:56.721	$GPGGA,060657,2521.1340,N,07925.0216,W,1,10,1.4,15,M,,M,,*6C
05/31/2014	06:06:57.688	$GPGGA,060658,2521.1321,N,07925.0204,W,1,10,1.4,15,M,,M,,*67
05/31/2014	06:06:58.700	$GPGGA,060659,2521.1302,N,07925.0192,W,1,10,1.4,15,M,,M,,*6B
05/31/2014	06:06:59.710	$GPGGA,060700,2521.1283,N,07925.0181,W,1,10,1.4,15,M,,M,,*6C
05/31/2014	06:07:00.710	$GPGGA,060701,2521.1265,N,07925.0169,W,1,10,1.4,15,M,,M,,*63
05/31/2014	06:07:01.678	$GPGGA,060702,2521.1246,N,07925.0157,W,1,10,1.4,15,M,,M,,*6C
05/31/2014	06:07:02.708	$GPGGA,060703,2521.1228,N,07925.0146,W,1,10,1.4,15,M,,M,,*65
05/31/2014	06:07:03.698	$GPGGA,060704,2521.1210,N,07925.0134,W,1,10,1.4,15,M,,M,,*6C
05/31/2014	06:07:04.698	$GPGGA,060705,2521.1191,N,07925.0123,W,1,10,1.4,15,M,,M,,*61
05/31/2014	06:07:05.668	$GPGGA,060706,2521.1173,N,07925.0111,W,1,10,1.4,15,M,,M,,*6F
05/31/2014	06:07:06.698	$GPGGA,060707,2521.1155,N,07925.0100,W,1,10,1.4,15,M,,M,,*6A
05/31/2014	06:07:07.678	$GPGGA,060708,2521.1136,N,07925.0087,W,1,10,1.4,15,M,,M,,*6E
05/31/2014	06:07:08.658	$GPGGA,060709,2521.1118,N,07925.0075,W,1,10,1.4,15,M,,M,,*6E
05/31/2014	06:07:09.668	$GPGGA,060710,2521.1100,N,07925.0063,W,1,10,1.4,15,M,,M,,*68
05/31/2014	06:07:10.658	$GPGGA,060711,2521.1080,N,07925.0052,W,1,10,1.4,15,M,,M,,*62
05/31/2014	06:07:11.678	$GPGGA,060712,2521.1062,N,07925.0040,W,1,10,1.4,15,M,,M,,*6E
05/31/2014	06:07:12.688	$GPGGA,060713,2521.1043,N,07925.0028,W,1,10,1.4,15,M,,M,,*62
05/31/2014	06:07:13.648	$GPGGA,060714,2521.1025,N,07925.0016,W,1,10,1.4,15,M,,M,,*68
05/31/2014	06:07:14.689	$GPGGA,060715,2521.1006,N,07925.0005,W,1,10,1.4,15,M,,M,,*6A
05/31/2014	06:07:15.668	$GPGGA,060716,2521.0988,N,07924.9993,W,1,10,1.4,15,M,,M,,*69
05/31/2014	06:07:16.670	$GPGGA,060717,2521.0970,N,07924.9982,W,1,10,1.4,15,M,,M,,*6F
05/31/2014	06:07:17.649	$GPGGA,060718,2521.0952,N,07924.9970,W,1,10,1.4,15,M,,M,,*6D
05/31/2014	06:07:18.679	$GPGGA,060719,2521.0934,N,07924.9959,W,1,9,1.7,15,M,,M,,*5C
05/31/2014	06:07:19.658	$GPGGA,060720,2521.0913,N,07924.9947,W,1,9,1.4,15,M,,M,,*5F
05/31/2014	06:07:20.668	$GPGGA,060721,2521.0894,N,07924.9935,W,1,10,1.4,15,M,,M,,*6D
05/31/2014	06:07:21.638	$GPGGA,060722,2521.0873,N,07924.9922,W,1,10,1.4,15,M,,M,,*61
05/31/2014	06:07:22.668	$GPGGA,060723,2521.0853,N,07924.9912,W,1,10,1.4,15,M,,M,,*61
05/31/2014	06:07:23.658	$GPGGA,060724,2521.0834,N,07924.9900,W,1,10,1.4,15,M,,M,,*64
05/31/2014	06:07:24.638	$GPGGA,060725,2521.0815,N,07924.9889,W,1,10,1.4,15,M,,M,,*66
05/31/2014	06:07:25.628	$GPGGA,060726,2521.0795,N,07924.9878,W,1,10,1.4,15,M,,M,,*6C
05/31/2014	06:07:26.748	$GPGGA,060727,2521.0775,N,07924.9867,W,1,10,1.4,15,M,,M,,*6D
05/31/2014	06:07:27.638	$GPGGA,060728,2521.0757,N,07924.9856,W,1,10,1.4,15,M,,M,,*60
05/31/2014	06:07:28.648	$GPGGA,060729,2521.0737,N,07924.9845,W,1,10,1.4,15,M,,M,,*65
05/31/2014	06:07:29.719	$GPGGA,060730,2521.0717,N,07924.9835,W,1,10,1.4,15,M,,M,,*68
05/31/2014	06:07:30.738	$GPGGA,060731,2521.0699,N,07924.9825,W,1,10,1.4,15,M,,M,,*6F
05/31/2014	06:07:31.648	$GPGGA,060732,2521.0679,N,07924.9814,W,1,10,1.4,15,M,,M,,*60
05/31/2014	06:07:32.618	$GPGGA,060733,2521.0660,N,07924.9804,W,1,10,1.4,16,M,,M,,*6B
05/31/2014	06:07:33.611	$GPGGA,060734,2521.0641,N,07924.9794,W,1,10,1.4,16,M,,M,,*69
05/31/2014	06:07:34.639	$GPGGA,060735,2521.0622,N,07924.9783,W,1,10,1.4,16,M,,M,,*6B
05/31/2014	06:07:35.718	$GPGGA,060736,2521.0602,N,07924.9773,W,1,10,1.4,16,M,,M,,*65
05/31/2014	06:07:36.618	$GPGGA,060737,2521.0583,N,07924.9763,W,1,10,1.4,16,M,,M,,*6F
05/31/2014	06:07:37.608	$GPGGA,060738,2521.0564,N,07924.9753,W,1,10,1.4,16,M,,M,,*6A
05/31/2014	06:07:38.738	$GPGGA,060739,2521.0544,N,07924.9743,W,1,10,1.4,16,M,,M,,*68
05/31/2014	06:07:39.708	$GPGGA,060740,2521.0526,N,07924.9733,W,1,10,1.4,16,M,,M,,*65
05/31/2014	06:07:40.698	$GPGGA,060741,2521.0506,N,07924.9723,W,1,10,1.4,16,M,,M,,*67
05/31/2014	06:07:41.698	$GPGGA,060742,2521.0487,N,07924.9713,W,1,10,1.4,16,M,,M,,*6F
05/31/2014	06:07:42.698	$GPGGA,060743,2521.0468,N,07924.9702,W,1,10,1.4,16,M,,M,,*6F
05/31/2014	06:07:43.708	$GPGGA,060744,2521.0448,N,07924.9693,W,1,10,1.4,16,M,,M,,*63
05/31/2014	06:07:44.718	$GPGGA,060745,2521.0429,N,07924.9683,W,1,10,1.4,16,M,,M,,*64
05/31/2014	06:07:45.698	$GPGGA,060746,2521.0410,N,07924.9672,W,1,10,1.4,16,M,,M,,*63
05/31/2014	06:07:46.708	$GPGGA,060747,2521.0392,N,07924.9663,W,1,10,1.4,16,M,,M,,*6F
05/31/2014	06:07:47.708	$GPGGA,060748,2521.0372,N,07924.9653,W,1,10,1.4,16,M,,M,,*6D
05/31/2014	06:07:48.708	$GPGGA,060749,2521.0353,N,07924.9642,W,1,10,1.4,16,M,,M,,*6F
05/31/2014	06:07:49.688	$GPGGA,060750,2521.0333,N,07924.9632,W,1,10,1.4,16,M,,M,,*66
05/31/2014	06:07:50.678	$GPGGA,060751,2521.0314,N,07924.9622,W,1,10,1.4,16,M,,M,,*63
05/31/2014	06:07:51.699	$GPGGA,060752,2521.0295,N,07924.9611,W,1,10,1.4,16,M,,M,,*68
05/31/2014	06:07:52.699	$GPGGA,060753,2521.0276,N,07924.9600,W,1,10,1.4,16,M,,M,,*64
05/31/2014	06:07:53.668	$GPGGA,060754,2521.0257,N,07924.9590,W,1,10,1.4,16,M,,M,,*6A
05/31/2014	06:07:54.668	$GPGGA,060755,2521.0239,N,07924.9579,W,1,10,1.4,16,M,,M,,*64
05/31/2014	06:07:55.678	$GPGGA,060756,2521.0220,N,07924.9569,W,1,10,1.4,16,M,,M,,*6E
05/31/2014	06:07:56.688	$GPGGA,060757,2521.0202,N,07924.9558,W,1,10,1.4,16,M,,M,,*6D
05/31/2014	06:07:57.678	$GPGGA,060758,2521.0183,N,07924.9547,W,1,10,1.4,17,M,,M,,*67
05/31/2014	06:07:58.658	$GPGGA,060759,2521.0166,N,07924.9537,W,1,10,1.4,17,M,,M,,*6A
05/31/2014	06:07:59.688	$GPGGA,060800,2521.0148,N,07924.9526,W,1,10,1.7,17,M,,M,,*66
05/31/2014	06:08:00.688	$GPGGA,060801,2521.0127,N,07924.9514,W,1,9,1.7,17,M,,M,,*57
05/31/2014	06:08:01.658	$GPGGA,060802,2521.0108,N,07924.9502,W,1,9,1.4,17,M,,M,,*5D
05/31/2014	06:08:02.658	$GPGGA,060803,2521.0089,N,07924.9490,W,1,10,1.4,17,M,,M,,*66
05/31/2014	06:08:03.678	$GPGGA,060804,2521.0070,N,07924.9479,W,1,10,1.4,17,M,,M,,*60
05/31/2014	06:08:04.648	$GPGGA,060805,2521.0051,N,07924.9468,W,1,10,1.4,17,M,,M,,*62
05/31/2014	06:08:05.658	$GPGGA,060806,2521.0033,N,07924.9456,W,1,10,1.4,17,M,,M,,*68
05/31/2014	06:08:06.638	$GPGGA,060807,2521.0014,N,07924.9445,W,1,10,1.4,17,M,,M,,*6E
05/31/2014	06:08:07.668	$GPGGA,060808,2520.9996,N,07924.9434,W,1,10,1.4,17,M,,M,,*6C
05/31/2014	06:08:08.639	$GPGGA,060809,2520.9978,N,07924.9422,W,1,10,1.4,17,M,,M,,*6A
05/31/2014	06:08:09.649	$GPGGA,060810,2520.9959,N,07924.9411,W,1,10,1.4,17,M,,M,,*61
05/31/2014	06:08:10.628	$GPGGA,060811,2520.9941,N,07924.9400,W,1,10,1.4,17,M,,M,,*69
05/31/2014	06:08:11.768	$GPGGA,060812,2520.9922,N,07924.9388,W,1,10,1.4,17,M,,M,,*68
05/31/2014	06:08:12.628	$GPGGA,060813,2520.9904,N,07924.9377,W,1,10,1.4,17,M,,M,,*6D
05/31/2014	06:08:13.648	$GPGGA,060814,2520.9886,N,07924.9365,W,1,10,1.4,17,M,,M,,*62
05/31/2014	06:08:14.628	$GPGGA,060815,2520.9868,N,07924.9353,W,1,10,1.4,17,M,,M,,*66
05/31/2014	06:08:15.648	$GPGGA,060816,2520.9850,N,07924.9342,W,1,10,1.4,17,M,,M,,*6E
05/31/2014	06:08:16.648	$GPGGA,060817,2520.9832,N,07924.9331,W,1,10,1.4,17,M,,M,,*6F
05/31/2014	06:08:17.618	$GPGGA,060818,2520.9814,N,07924.9319,W,1,10,1.4,17,M,,M,,*6E
05/31/2014	06:08:18.638	$GPGGA,060819,2520.9796,N,07924.9308,W,1,10,1.4,17,M,,M,,*6A
05/31/2014	06:08:19.638	$GPGGA,060820,2520.9778,N,07924.9296,W,1,10,1.4,17,M,,M,,*66
05/31/2014	06:08:20.718	$GPGGA,060821,2520.9758,N,07924.9284,W,1,10,1.4,17,M,,M,,*66
05/31/2014	06:08:21.628	$GPGGA,060822,2520.9740,N,07924.9273,W,1,10,1.4,17,M,,M,,*64
05/31/2014	06:08:22.628	$GPGGA,060823,2520.9721,N,07924.9262,W,1,10,1.4,17,M,,M,,*62
05/31/2014	06:08:23.718	$GPGGA,060824,2520.9703,N,07924.9250,W,1,10,1.4,17,M,,M,,*64
05/31/2014	06:08:24.618	$GPGGA,060825,2520.9685,N,07924.9239,W,1,10,1.4,17,M,,M,,*65
05/31/2014	06:08:25.621	$GPGGA,060826,2520.9666,N,07924.9228,W,1,10,1.4,17,M,,M,,*6B
05/31/2014	06:08:26.710	$GPGGA,060827,2520.9649,N,07924.9217,W,1,10,1.4,17,M,,M,,*6B
05/31/2014	06:08:27.620	$GPGGA,060828,2520.9630,N,07924.9205,W,1,10,1.4,17,M,,M,,*69
05/31/2014	06:08:28.718	$GPGGA,060829,2520.9612,N,07924.9194,W,1,10,1.4,16,M,,M,,*62
05/31/2014	06:08:29.698	$GPGGA,060830,2520.9594,N,07924.9184,W,1,10,1.4,16,M,,M,,*66
05/31/2014	06:08:30.698	$GPGGA,060831,2520.9574,N,07924.9172,W,1,10,1.4,16,M,,M,,*60
05/31/2014	06:08:31.708	$GPGGA,060832,2520.9556,N,07924.9161,W,1,10,1.4,16,M,,M,,*61
05/31/2014	06:08:32.718	$GPGGA,060833,2520.9537,N,07924.9151,W,1,10,1.4,16,M,,M,,*64
05/31/2014	06:08:33.688	$GPGGA,060834,2520.9518,N,07924.9140,W,1,10,1.4,16,M,,M,,*6E
05/31/2014	06:08:34.698	$GPGGA,060835,2520.9500,N,07924.9129,W,1,10,1.4,16,M,,M,,*69
05/31/2014	06:08:35.698	$GPGGA,060836,2520.9482,N,07924.9118,W,1,10,1.4,16,M,,M,,*63
05/31/2014	06:08:36.688	$GPGGA,060837,2520.9462,N,07924.9108,W,1,10,1.4,16,M,,M,,*6D
05/31/2014	06:08:37.678	$GPGGA,060838,2520.9444,N,07924.9097,W,1,10,1.4,16,M,,M,,*61
05/31/2014	06:08:38.698	$GPGGA,060839,2520.9425,N,07924.9087,W,1,10,1.4,16,M,,M,,*66
05/31/2014	06:08:39.698	$GPGGA,060840,2520.9406,N,07924.9076,W,1,10,1.4,16,M,,M,,*67
05/31/2014	06:08:40.688	$GPGGA,060841,2520.9388,N,07924.9066,W,1,10,1.4,16,M,,M,,*66
05/31/2014	06:08:41.678	$GPGGA,060842,2520.9368,N,07924.9055,W,1,10,1.4,16,M,,M,,*6B
05/31/2014	06:08:42.698	$GPGGA,060843,2520.9349,N,07924.9045,W,1,10,1.4,16,M,,M,,*68
05/31/2014	06:08:43.689	$GPGGA,060844,2520.9330,N,07924.9036,W,1,10,1.4,16,M,,M,,*65
05/31/2014	06:08:45.708	$GPGGA,060846,2520.9292,N,07924.9015,W,1,10,1.4,16,M,,M,,*6F
05/31/2014	06:08:46.658	$GPGGA,060847,2520.9273,N,07924.9005,W,1,10,1.4,16,M,,M,,*60
05/31/2014	06:08:47.678	$GPGGA,060848,2520.9254,N,07924.8995,W,1,10,1.4,16,M,,M,,*6B
05/31/2014	06:08:48.658	$GPGGA,060849,2520.9236,N,07924.8985,W,1,10,1.4,16,M,,M,,*6F
05/31/2014	06:08:49.668	$GPGGA,060850,2520.9216,N,07924.8976,W,1,10,1.4,16,M,,M,,*69
05/31/2014	06:08:50.648	$GPGGA,060851,2520.9197,N,07924.8966,W,1,10,1.4,16,M,,M,,*63
05/31/2014	06:08:51.678	$GPGGA,060852,2520.9178,N,07924.8956,W,1,10,1.4,16,M,,M,,*62
05/31/2014	06:08:52.648	$GPGGA,060853,2520.9160,N,07924.8946,W,1,10,1.4,16,M,,M,,*6B
05/31/2014	06:08:53.658	$GPGGA,060854,2520.9140,N,07924.8937,W,1,10,1.4,16,M,,M,,*68
05/31/2014	06:08:54.658	$GPGGA,060855,2520.9121,N,07924.8927,W,1,10,1.4,16,M,,M,,*6F
05/31/2014	06:08:55.648	$GPGGA,060856,2520.9101,N,07924.8918,W,1,10,1.4,16,M,,M,,*62
05/31/2014	06:08:56.648	$GPGGA,060857,2520.9082,N,07924.8908,W,1,10,1.4,15,M,,M,,*6B
05/31/2014	06:08:57.648	$GPGGA,060858,2520.9063,N,07924.8898,W,1,10,1.4,15,M,,M,,*63
05/31/2014	06:08:58.638	$GPGGA,060859,2520.9044,N,07924.8889,W,1,10,1.4,15,M,,M,,*67
05/31/2014	06:09:01.069	$GPGGA,060901,2520.9006,N,07924.8869,W,1,10,1.4,15,M,,M,,*63
05/31/2014	06:09:01.649	$GPGGA,060902,2520.8987,N,07924.8859,W,1,10,1.4,15,M,,M,,*62
05/31/2014	06:09:02.649	$GPGGA,060903,2520.8967,N,07924.8849,W,1,10,1.4,15,M,,M,,*6C
05/31/2014	06:09:03.758	$GPGGA,060904,2520.8948,N,07924.8839,W,1,10,1.4,15,M,,M,,*61
05/31/2014	06:09:04.638	$GPGGA,060905,2520.8929,N,07924.8829,W,1,10,1.4,15,M,,M,,*66
05/31/2014	06:09:05.718	$GPGGA,060906,2520.8909,N,07924.8819,W,1,10,1.4,15,M,,M,,*64
05/31/2014	06:09:06.748	$GPGGA,060907,2520.8890,N,07924.8808,W,1,10,1.4,15,M,,M,,*64
05/31/2014	06:09:07.648	$GPGGA,060908,2520.8871,N,07924.8798,W,1,10,1.4,15,M,,M,,*62
05/31/2014	06:09:08.638	$GPGGA,060909,2520.8853,N,07924.8788,W,1,10,1.4,15,M,,M,,*62
05/31/2014	06:09:09.628	$GPGGA,060910,2520.8835,N,07924.8777,W,1,10,1.4,15,M,,M,,*6A
05/31/2014	06:09:10.748	$GPGGA,060911,2520.8815,N,07924.8767,W,1,10,1.4,15,M,,M,,*68
05/31/2014	06:09:11.728	$GPGGA,060912,2520.8796,N,07924.8756,W,1,10,1.4,15,M,,M,,*6D
05/31/2014	06:09:12.718	$GPGGA,060913,2520.8777,N,07924.8745,W,1,10,1.4,15,M,,M,,*61
05/31/2014	06:09:13.618	$GPGGA,060914,2520.8759,N,07924.8733,W,1,10,1.4,15,M,,M,,*6B
05/31/2014	06:09:14.738	$GPGGA,060915,2520.8741,N,07924.8722,W,1,10,1.4,15,M,,M,,*63
05/31/2014	06:09:15.718	$GPGGA,060916,2520.8721,N,07924.8711,W,1,10,1.4,15,M,,M,,*66
05/31/2014	06:09:16.738	$GPGGA,060917,2520.8702,N,07924.8700,W,1,10,1.4,15,M,,M,,*66
05/31/2014	06:09:17.709	$GPGGA,060918,2520.8684,N,07924.8688,W,1,10,1.4,15,M,,M,,*67
05/31/2014	06:09:18.709	$GPGGA,060919,2520.8666,N,07924.8677,W,1,10,1.4,15,M,,M,,*6A
05/31/2014	06:09:19.709	$GPGGA,060920,2520.8647,N,07924.8666,W,1,10,1.4,15,M,,M,,*63
05/31/2014	06:09:20.698	$GPGGA,060921,2520.8629,N,07924.8655,W,1,10,1.4,15,M,,M,,*6A
05/31/2014	06:09:21.698	$GPGGA,060922,2520.8609,N,07924.8643,W,1,10,1.4,15,M,,M,,*6C
05/31/2014	06:09:22.708	$GPGGA,060923,2520.8591,N,07924.8632,W,1,10,1.4,15,M,,M,,*69
05/31/2014	06:09:23.708	$GPGGA,060924,2520.8572,N,07924.8621,W,1,10,1.4,15,M,,M,,*61
05/31/2014	06:09:24.708	$GPGGA,060925,2520.8553,N,07924.8609,W,1,10,1.4,15,M,,M,,*69
05/31/2014	06:09:25.698	$GPGGA,060926,2520.8535,N,07924.8598,W,1,10,1.4,15,M,,M,,*61
05/31/2014	06:09:26.698	$GPGGA,060927,2520.8517,N,07924.8587,W,1,10,1.4,15,M,,M,,*6E
05/31/2014	06:09:27.698	$GPGGA,060928,2520.8499,N,07924.8575,W,1,10,1.4,15,M,,M,,*6B
05/31/2014	06:09:28.678	$GPGGA,060929,2520.8479,N,07924.8564,W,1,10,1.4,15,M,,M,,*64
05/31/2014	06:09:29.678	$GPGGA,060930,2520.8460,N,07924.8554,W,1,10,1.4,15,M,,M,,*67
05/31/2014	06:09:30.698	$GPGGA,060931,2520.8442,N,07924.8542,W,1,10,1.4,15,M,,M,,*61
05/31/2014	06:09:31.688	$GPGGA,060932,2520.8423,N,07924.8530,W,1,10,1.4,15,M,,M,,*60
05/31/2014	06:09:32.698	$GPGGA,060933,2520.8405,N,07924.8520,W,1,10,1.4,15,M,,M,,*64
05/31/2014	06:09:33.658	$GPGGA,060934,2520.8385,N,07924.8509,W,1,10,1.4,15,M,,M,,*67
05/31/2014	06:09:34.658	$GPGGA,060935,2520.8367,N,07924.8497,W,1,10,1.4,15,M,,M,,*6C
05/31/2014	06:09:35.678	$GPGGA,060936,2520.8347,N,07924.8486,W,1,10,1.4,15,M,,M,,*6D
05/31/2014	06:09:36.689	$GPGGA,060937,2520.8329,N,07924.8476,W,1,10,1.4,15,M,,M,,*6B
05/31/2014	06:09:37.659	$GPGGA,060938,2520.8309,N,07924.8465,W,1,10,1.4,15,M,,M,,*64
05/31/2014	06:09:38.659	$GPGGA,060939,2520.8289,N,07924.8454,W,1,10,1.4,15,M,,M,,*6E
05/31/2014	06:09:39.668	$GPGGA,060940,2520.8270,N,07924.8444,W,1,10,1.4,15,M,,M,,*67
05/31/2014	06:09:40.648	$GPGGA,060941,2520.8250,N,07924.8434,W,1,9,2.2,15,M,,M,,*5E
05/31/2014	06:09:41.658	$GPGGA,060942,2520.8232,N,07924.8424,W,1,9,2.2,15,M,,M,,*58
05/31/2014	06:09:42.638	$GPGGA,060943,2520.8212,N,07924.8414,W,1,9,2.2,15,M,,M,,*58
05/31/2014	06:09:43.658	$GPGGA,060944,2520.8192,N,07924.8403,W,1,9,2.2,15,M,,M,,*52
05/31/2014	06:09:44.638	$GPGGA,060945,2520.8174,N,07924.8393,W,1,9,2.2,15,M,,M,,*55
05/31/2014	06:09:45.648	$GPGGA,060946,2520.8153,N,07924.8383,W,1,9,2.2,15,M,,M,,*52
05/31/2014	06:09:46.648	$GPGGA,060947,2520.8134,N,07924.8372,W,1,9,2.2,15,M,,M,,*5C
05/31/2014	06:09:47.659	$GPGGA,060948,2520.8114,N,07924.8362,W,1,9,2.2,15,M,,M,,*50
05/31/2014	06:09:48.658	$GPGGA,060949,2520.8095,N,07924.8352,W,1,9,2.2,16,M,,M,,*59
05/31/2014	06:09:49.628	$GPGGA,060950,2520.8075,N,07924.8343,W,1,9,2.2,16,M,,M,,*5F
05/31/2014	06:09:50.648	$GPGGA,060951,2520.8056,N,07924.8333,W,1,9,2.2,16,M,,M,,*58
05/31/2014	06:09:51.658	$GPGGA,060952,2520.8036,N,07924.8323,W,1,9,2.2,16,M,,M,,*5C
05/31/2014	06:09:52.638	$GPGGA,060953,2520.8017,N,07924.8313,W,1,9,2.1,16,M,,M,,*5E
05/31/2014	06:09:53.629	$GPGGA,060954,2520.7997,N,07924.8303,W,1,9,2.1,16,M,,M,,*56
05/31/2014	06:09:54.720	$GPGGA,060955,2520.7979,N,07924.8293,W,1,9,2.1,16,M,,M,,*5F
05/31/2014	06:09:55.638	$GPGGA,060956,2520.7959,N,07924.8284,W,1,9,2.1,16,M,,M,,*58
05/31/2014	06:09:56.728	$GPGGA,060957,2520.7940,N,07924.8274,W,1,9,2.1,16,M,,M,,*5E
05/31/2014	06:09:57.628	$GPGGA,060958,2520.7919,N,07924.8264,W,1,9,2.1,16,M,,M,,*5C
05/31/2014	06:09:58.638	$GPGGA,060959,2520.7900,N,07924.8255,W,1,9,2.1,16,M,,M,,*57
05/31/2014	06:09:59.638	$GPGGA,061000,2520.7881,N,07924.8244,W,1,9,2.1,16,M,,M,,*5B
05/31/2014	06:10:00.738	$GPGGA,061001,2520.7861,N,07924.8236,W,1,9,2.1,16,M,,M,,*51
05/31/2014	06:10:01.708	$GPGGA,061002,2520.7842,N,07924.8225,W,1,9,2.1,16,M,,M,,*51
05/31/2014	06:10:02.728	$GPGGA,061003,2520.7822,N,07924.8215,W,1,9,2.1,16,M,,M,,*55
05/31/2014	06:10:03.748	$GPGGA,061004,2520.7803,N,07924.8205,W,1,9,2.1,16,M,,M,,*50
05/31/2014	06:10:04.738	$GPGGA,061005,2520.7784,N,07924.8196,W,1,9,2.1,16,M,,M,,*58
05/31/2014	06:10:05.698	$GPGGA,061006,2520.7764,N,07924.8185,W,1,9,2.1,16,M,,M,,*57
05/31/2014	06:10:06.728	$GPGGA,061007,2520.7745,N,07924.8174,W,1,9,2.4,16,M,,M,,*5E
05/31/2014	06:10:07.708	$GPGGA,061008,2520.7728,N,07924.8165,W,1,9,2.1,16,M,,M,,*5F
05/31/2014	06:10:08.688	$GPGGA,061009,2520.7709,N,07924.8154,W,1,9,2.1,16,M,,M,,*5F
05/31/2014	06:10:09.698	$GPGGA,061010,2520.7690,N,07924.8144,W,1,9,2.1,16,M,,M,,*57
05/31/2014	06:10:10.700	$GPGGA,061011,2520.7672,N,07924.8134,W,1,9,2.1,16,M,,M,,*5D
05/31/2014	06:10:11.729	$GPGGA,061012,2520.7651,N,07924.8124,W,1,9,2.1,16,M,,M,,*5E
05/31/2014	06:10:12.709	$GPGGA,061013,2520.7632,N,07924.8113,W,1,9,2.1,16,M,,M,,*5E
05/31/2014	06:10:13.688	$GPGGA,061014,2520.7614,N,07924.8102,W,1,9,2.1,16,M,,M,,*5D
05/31/2014	06:10:14.708	$GPGGA,061015,2520.7593,N,07924.8092,W,1,9,2.1,16,M,,M,,*58
05/31/2014	06:10:15.688	$GPGGA,061016,2520.7574,N,07924.8081,W,1,9,2.1,16,M,,M,,*50
05/31/2014	06:10:16.708	$GPGGA,061017,2520.7554,N,07924.8070,W,1,9,2.1,16,M,,M,,*5D
05/31/2014	06:10:17.688	$GPGGA,061018,2520.7534,N,07924.8058,W,1,9,2.1,16,M,,M,,*5E
05/31/2014	06:10:18.698	$GPGGA,061019,2520.7515,N,07924.8047,W,1,9,2.1,16,M,,M,,*52
05/31/2014	06:10:19.688	$GPGGA,061020,2520.7496,N,07924.8035,W,1,9,2.1,16,M,,M,,*57
05/31/2014	06:10:20.698	$GPGGA,061021,2520.7477,N,07924.8024,W,1,9,2.1,16,M,,M,,*59
05/31/2014	06:10:21.668	$GPGGA,061022,2520.7457,N,07924.8013,W,1,9,2.1,16,M,,M,,*5C
05/31/2014	06:10:22.668	$GPGGA,061023,2520.7438,N,07924.8002,W,1,9,2.1,16,M,,M,,*54
05/31/2014	06:10:23.698	$GPGGA,061024,2520.7419,N,07924.7990,W,1,9,2.1,16,M,,M,,*5D
05/31/2014	06:10:24.678	$GPGGA,061025,2520.7401,N,07924.7979,W,1,9,2.1,17,M,,M,,*53
05/31/2014	06:10:25.658	$GPGGA,061026,2520.7381,N,07924.7967,W,1,9,2.1,17,M,,M,,*50
05/31/2014	06:10:26.668	$GPGGA,061027,2520.7362,N,07924.7956,W,1,9,2.1,17,M,,M,,*5E
05/31/2014	06:10:27.668	$GPGGA,061028,2520.7343,N,07924.7944,W,1,9,2.1,17,M,,M,,*51
05/31/2014	06:10:28.659	$GPGGA,061029,2520.7325,N,07924.7933,W,1,9,2.1,17,M,,M,,*50
05/31/2014	06:10:29.659	$GPGGA,061030,2520.7305,N,07924.7922,W,1,9,2.1,17,M,,M,,*5A
05/31/2014	06:10:30.648	$GPGGA,061031,2520.7286,N,07924.7910,W,1,9,2.1,17,M,,M,,*50
05/31/2014	06:10:31.669	$GPGGA,061032,2520.7286,N,07924.7910,W,1,9,2.1,17,M,,M,,*53
05/31/2014	06:10:32.638	$GPGGA,061033,2520.7247,N,07924.7888,W,1,9,2.1,17,M,,M,,*5F
05/31/2014	06:10:33.658	$GPGGA,061034,2520.7229,N,07924.7877,W,1,9,2.1,17,M,,M,,*50
05/31/2014	06:10:34.668	$GPGGA,061035,2520.7210,N,07924.7865,W,1,9,2.1,17,M,,M,,*58
05/31/2014	06:10:35.668	$GPGGA,061036,2520.7191,N,07924.7854,W,1,9,2.1,17,M,,M,,*53
05/31/2014	06:10:36.658	$GPGGA,061037,2520.7173,N,07924.7843,W,1,9,2.1,17,M,,M,,*58
05/31/2014	06:10:37.638	$GPGGA,061038,2520.7153,N,07924.7833,W,1,9,2.1,17,M,,M,,*52
05/31/2014	06:10:38.658	$GPGGA,061039,2520.7134,N,07924.7822,W,1,9,2.1,17,M,,M,,*52
05/31/2014	06:10:39.658	$GPGGA,061040,2520.7116,N,07924.7811,W,1,9,2.1,17,M,,M,,*5C
05/31/2014	06:10:40.648	$GPGGA,061041,2520.7096,N,07924.7800,W,1,9,2.1,18,M,,M,,*5B
05/31/2014	06:10:41.638	$GPGGA,061042,2520.7077,N,07924.7790,W,1,9,2.1,18,M,,M,,*51
05/31/2014	06:10:42.628	$GPGGA,061043,2520.7059,N,07924.7779,W,1,9,2.1,18,M,,M,,*5B
05/31/2014	06:10:43.638	$GPGGA,061044,2520.7040,N,07924.7769,W,1,9,2.1,18,M,,M,,*55
05/31/2014	06:10:44.718	$GPGGA,061045,2520.7020,N,07924.7758,W,1,9,2.1,18,M,,M,,*50
05/31/2014	06:10:45.639	$GPGGA,061046,2520.7002,N,07924.7748,W,1,9,2.1,18,M,,M,,*52
05/31/2014	06:10:46.739	$GPGGA,061047,2520.6982,N,07924.7737,W,1,9,2.1,18,M,,M,,*5B
05/31/2014	06:10:47.649	$GPGGA,061048,2520.6964,N,07924.7728,W,1,9,2.1,18,M,,M,,*52
05/31/2014	06:10:48.719	$GPGGA,061049,2520.6945,N,07924.7717,W,1,9,2.1,18,M,,M,,*5C
05/31/2014	06:10:49.628	$GPGGA,061050,2520.6925,N,07924.7707,W,1,9,2.1,18,M,,M,,*53
05/31/2014	06:10:50.718	$GPGGA,061051,2520.6906,N,07924.7697,W,1,9,2.1,18,M,,M,,*5B
05/31/2014	06:10:51.648	$GPGGA,061052,2520.6888,N,07924.7687,W,1,9,2.1,18,M,,M,,*5E
05/31/2014	06:10:52.708	$GPGGA,061053,2520.6868,N,07924.7677,W,1,9,2.1,18,M,,M,,*5E
05/31/2014	06:10:53.708	$GPGGA,061054,2520.6849,N,07924.7667,W,1,9,2.1,18,M,,M,,*5B
05/31/2014	06:10:54.708	$GPGGA,061055,2520.6830,N,07924.7657,W,1,9,2.1,18,M,,M,,*57
05/31/2014	06:10:55.708	$GPGGA,061056,2520.6812,N,07924.7647,W,1,9,2.1,18,M,,M,,*55
05/31/2014	06:10:56.698	$GPGGA,061057,2520.6792,N,07924.7637,W,1,9,2.1,18,M,,M,,*54
05/31/2014	06:10:57.698	$GPGGA,061058,2520.6773,N,07924.7627,W,1,9,2.1,18,M,,M,,*55
05/31/2014	06:10:58.698	$GPGGA,061059,2520.6754,N,07924.7617,W,1,9,2.1,18,M,,M,,*52
05/31/2014	06:10:59.718	$GPGGA,061100,2520.6734,N,07924.7607,W,1,9,2.1,18,M,,M,,*58
05/31/2014	06:11:00.718	$GPGGA,061101,2520.6715,N,07924.7597,W,1,9,2.1,18,M,,M,,*50
05/31/2014	06:11:01.688	$GPGGA,061102,2520.6695,N,07924.7588,W,1,9,2.1,18,M,,M,,*54
05/31/2014	06:11:02.678	$GPGGA,061103,2520.6676,N,07924.7578,W,1,9,2.1,18,M,,M,,*57
05/31/2014	06:11:03.689	$GPGGA,061104,2520.6657,N,07924.7568,W,1,9,2.1,18,M,,M,,*52
05/31/2014	06:11:04.670	$GPGGA,061105,2520.6638,N,07924.7558,W,1,9,2.1,18,M,,M,,*59
05/31/2014	06:11:05.678	$GPGGA,061106,2520.6619,N,07924.7549,W,1,9,2.1,18,M,,M,,*59
05/31/2014	06:11:06.668	$GPGGA,061107,2520.6600,N,07924.7538,W,1,9,2.1,18,M,,M,,*56
05/31/2014	06:11:07.688	$GPGGA,061108,2520.6581,N,07924.7529,W,1,9,2.1,18,M,,M,,*53
05/31/2014	06:11:08.689	$GPGGA,061109,2520.6563,N,07924.7519,W,1,9,2.1,18,M,,M,,*5D
05/31/2014	06:11:09.658	$GPGGA,061110,2520.6542,N,07924.7508,W,1,9,2.1,18,M,,M,,*56
05/31/2014	06:11:10.688	$GPGGA,061111,2520.6523,N,07924.7499,W,1,9,2.1,18,M,,M,,*59
05/31/2014	06:11:11.678	$GPGGA,061112,2520.6505,N,07924.7489,W,1,9,2.1,18,M,,M,,*5F
05/31/2014	06:11:12.698	$GPGGA,061113,2520.6485,N,07924.7480,W,1,9,2.1,18,M,,M,,*5E
05/31/2014	06:11:13.648	$GPGGA,061114,2520.6466,N,07924.7469,W,1,9,2.1,18,M,,M,,*53
05/31/2014	06:11:14.658	$GPGGA,061115,2520.6447,N,07924.7460,W,1,9,2.1,18,M,,M,,*58
05/31/2014	06:11:15.678	$GPGGA,061116,2520.6427,N,07924.7450,W,1,9,2.1,18,M,,M,,*5E
05/31/2014	06:11:16.688	$GPGGA,061117,2520.6408,N,07924.7439,W,1,9,2.1,18,M,,M,,*5D
05/31/2014	06:11:17.638	$GPGGA,061118,2520.6389,N,07924.7429,W,1,9,2.1,18,M,,M,,*5D
05/31/2014	06:11:18.678	$GPGGA,061119,2520.6369,N,07924.7419,W,1,9,2.1,18,M,,M,,*51
05/31/2014	06:11:19.658	$GPGGA,061120,2520.6350,N,07924.7409,W,1,9,2.1,18,M,,M,,*50
05/31/2014	06:11:20.669	$GPGGA,061121,2520.6331,N,07924.7399,W,1,9,2.1,18,M,,M,,*58
05/31/2014	06:11:21.639	$GPGGA,061122,2520.6312,N,07924.7390,W,1,9,2.1,18,M,,M,,*53
05/31/2014	06:11:22.639	$GPGGA,061123,2520.6293,N,07924.7379,W,1,9,2.1,18,M,,M,,*5D
05/31/2014	06:11:23.768	$GPGGA,061124,2520.6274,N,07924.7369,W,1,9,2.1,18,M,,M,,*52
05/31/2014	06:11:24.768	$GPGGA,061125,2520.6255,N,07924.7359,W,1,9,2.1,18,M,,M,,*53
05/31/2014	06:11:25.638	$GPGGA,061126,2520.6236,N,07924.7349,W,1,9,2.1,18,M,,M,,*54
05/31/2014	06:11:26.748	$GPGGA,061127,2520.6216,N,07924.7339,W,1,9,2.1,18,M,,M,,*50
05/31/2014	06:11:27.638	$GPGGA,061128,2520.6198,N,07924.7328,W,1,9,2.1,18,M,,M,,*5A
05/31/2014	06:11:28.758	$GPGGA,061129,2520.6178,N,07924.7318,W,1,9,2.1,18,M,,M,,*56
05/31/2014	06:11:29.618	$GPGGA,061130,2520.6159,N,07924.7308,W,1,9,2.1,18,M,,M,,*5C
05/31/2014	06:11:30.638	$GPGGA,061131,2520.6140,N,07924.7297,W,1,9,2.1,18,M,,M,,*52
05/31/2014	06:11:31.728	$GPGGA,061132,2520.6122,N,07924.7286,W,1,9,2.1,18,M,,M,,*55
05/31/2014	06:11:32.711	$GPGGA,061133,2520.6104,N,07924.7275,W,1,9,2.1,18,M,,M,,*5C
05/31/2014	06:11:33.628	$GPGGA,061134,2520.6084,N,07924.7265,W,1,9,2.1,18,M,,M,,*53
05/31/2014	06:11:34.608	$GPGGA,061135,2520.6066,N,07924.7254,W,1,9,2.1,18,M,,M,,*5C
05/31/2014	06:11:35.718	$GPGGA,061136,2520.6047,N,07924.7243,W,1,9,2.1,18,M,,M,,*5A
05/31/2014	06:11:36.708	$GPGGA,061137,2520.6028,N,07924.7232,W,1,9,2.1,18,M,,M,,*54
05/31/2014	06:11:37.618	$GPGGA,061138,2520.6010,N,07924.7220,W,1,9,2.1,18,M,,M,,*53
05/31/2014	06:11:38.610	$GPGGA,061139,2520.5992,N,07924.7210,W,1,9,2.1,18,M,,M,,*51
05/31/2014	06:11:39.719	$GPGGA,061140,2520.5974,N,07924.7199,W,1,9,2.1,18,M,,M,,*55
05/31/2014	06:11:40.698	$GPGGA,061141,2520.5954,N,07924.7187,W,1,9,2.1,18,M,,M,,*59
05/31/2014	06:11:41.698	$GPGGA,061142,2520.5936,N,07924.7177,W,1,9,2.1,18,M,,M,,*51
05/31/2014	06:11:42.738	$GPGGA,061143,2520.5917,N,07924.7166,W,1,9,2.1,18,M,,M,,*53
05/31/2014	06:11:43.708	$GPGGA,061144,2520.5899,N,07924.7155,W,1,9,2.1,18,M,,M,,*53
05/31/2014	06:11:44.708	$GPGGA,061145,2520.5880,N,07924.7144,W,1,9,2.1,18,M,,M,,*5A
05/31/2014	06:11:45.698	$GPGGA,061146,2520.5862,N,07924.7133,W,1,9,2.1,18,M,,M,,*55
05/31/2014	06:11:46.698	$GPGGA,061147,2520.5842,N,07924.7122,W,1,9,2.1,18,M,,M,,*56
05/31/2014	06:11:47.708	$GPGGA,061148,2520.5823,N,07924.7111,W,1,9,2.1,18,M,,M,,*5E
