Software Version Number: 1	Data File Format Number: 1	Build Version Number: 1	Error Count Since VI Started: 0	Manufacturer: Raytheon	 Model Number: RayMarine 120	 S/N: 	 Cal Date: 	 Wind Direction Offset: 0.00	 Slope (M)1: 0.00	 Offset (B)1: 0.00	 Slope (M)2: 0.00	 Offset (B)2: 0.00	 Slope (M)3: 0.00	 Offset (B)3: 0.00	 Slope (M)4: 0.00	 Offset (B)4: 0.00	 Slope (M)5: 0.00	 Offset (B)5: 0.00	 Slope (M)6: 0.00	 Offset (B)6: 0.00
Computer Date	Computer Time	GGA String
06/09/2014	18:00:00.719	$GPGGA,180000,2528.5313,N,08001.5983,W,1,10,1.4,14,M,,M,,*6F
06/09/2014	18:00:01.706	$GPGGA,180001,2528.5318,N,08001.5984,W,1,10,1.4,14,M,,M,,*62
06/09/2014	18:00:02.774	$GPGGA,180002,2528.5322,N,08001.5986,W,1,10,1.4,14,M,,M,,*6A
06/09/2014	18:00:03.833	$GPGGA,180003,2528.5329,N,08001.5987,W,1,10,1.4,14,M,,M,,*61
06/09/2014	18:00:04.891	$GPGGA,180004,2528.5335,N,08001.5990,W,1,10,1.4,14,M,,M,,*6D
06/09/2014	18:00:05.938	$GPGGA,180005,2528.5340,N,08001.5990,W,1,10,1.4,14,M,,M,,*6E
06/09/2014	18:00:07.007	$GPGGA,180006,2528.5346,N,08001.5993,W,1,10,1.4,14,M,,M,,*68
06/09/2014	18:00:08.183	$GPGGA,180007,2528.5350,N,08001.5993,W,1,10,1.4,14,M,,M,,*6E
06/09/2014	18:00:09.134	$GPGGA,180008,2528.5356,N,08001.5995,W,1,10,1.5,14,M,,M,,*60
06/09/2014	18:00:10.172	$GPGGA,180009,2528.5361,N,08001.5997,W,1,10,1.4,14,M,,M,,*66
06/09/2014	18:00:11.219	$GPGGA,180010,2528.5367,N,08001.5998,W,1,10,1.4,14,M,,M,,*67
06/09/2014	18:00:12.276	$GPGGA,180011,2528.5372,N,08001.6001,W,1,10,1.4,14,M,,M,,*68
06/09/2014	18:00:13.345	$GPGGA,180012,2528.5376,N,08001.6001,W,1,10,1.4,14,M,,M,,*6F
06/09/2014	18:00:14.403	$GPGGA,180013,2528.5383,N,08001.6004,W,1,10,1.4,14,M,,M,,*61
06/09/2014	18:00:15.440	$GPGGA,180014,2528.5389,N,08001.6004,W,1,10,1.4,14,M,,M,,*6C
06/09/2014	18:00:16.604	$GPGGA,180015,2528.5394,N,08001.6005,W,1,10,1.4,14,M,,M,,*60
06/09/2014	18:00:17.673	$GPGGA,180016,2528.5400,N,08001.6006,W,1,10,1.4,14,M,,M,,*6A
06/09/2014	18:00:18.752	$GPGGA,180017,2528.5405,N,08001.6008,W,1,10,1.4,14,M,,M,,*60
06/09/2014	18:00:19.779	$GPGGA,180018,2528.5412,N,08001.6008,W,1,10,1.5,14,M,,M,,*68
06/09/2014	18:00:20.826	$GPGGA,180019,2528.5418,N,08001.6006,W,1,10,1.4,14,M,,M,,*6C
06/09/2014	18:00:21.800	$GPGGA,180020,2528.5423,N,08001.6008,W,1,10,1.4,14,M,,M,,*60
06/09/2014	18:00:22.932	$GPGGA,180021,2528.5430,N,08001.6008,W,1,9,1.5,14,M,,M,,*5A
06/09/2014	18:00:23.990	$GPGGA,180022,2528.5434,N,08001.6009,W,1,9,1.4,14,M,,M,,*5D
06/09/2014	18:00:25.059	$GPGGA,180023,2528.5441,N,08001.6011,W,1,10,1.4,14,M,,M,,*6F
06/09/2014	18:00:26.128	$GPGGA,180024,2528.5445,N,08001.6012,W,1,10,1.4,14,M,,M,,*6F
06/09/2014	18:00:27.161	$GPGGA,180025,2528.5451,N,08001.6015,W,1,9,1.5,14,M,,M,,*55
06/09/2014	18:00:28.212	$GPGGA,180026,2528.5455,N,08001.6017,W,1,9,1.4,14,M,,M,,*51
06/09/2014	18:00:29.292	$GPGGA,180027,2528.5459,N,08001.6019,W,1,10,1.4,14,M,,M,,*6A
06/09/2014	18:00:30.350	$GPGGA,180028,2528.5465,N,08001.6020,W,1,10,1.4,14,M,,M,,*60
06/09/2014	18:00:31.407	$GPGGA,180029,2528.5470,N,08001.6022,W,1,9,1.5,14,M,,M,,*5E
06/09/2014	18:00:32.444	$GPGGA,180030,2528.5476,N,08001.6024,W,1,9,1.4,14,M,,M,,*57
06/09/2014	18:00:33.523	$GPGGA,180031,2528.5480,N,08001.6026,W,1,10,1.4,14,M,,M,,*65
06/09/2014	18:00:34.571	$GPGGA,180032,2528.5486,N,08001.6029,W,1,10,1.4,14,M,,M,,*6F
06/09/2014	18:00:35.629	$GPGGA,180033,2528.5491,N,08001.6030,W,1,10,1.4,14,M,,M,,*60
06/09/2014	18:00:36.667	$GPGGA,180034,2528.5497,N,08001.6031,W,1,10,1.4,14,M,,M,,*60
06/09/2014	18:00:37.746	$GPGGA,180035,2528.5506,N,08001.6027,W,1,9,1.5,14,M,,M,,*56
06/09/2014	18:00:38.793	$GPGGA,180036,2528.5510,N,08001.6030,W,1,9,1.4,14,M,,M,,*55
06/09/2014	18:00:39.862	$GPGGA,180037,2528.5517,N,08001.6030,W,1,10,1.4,14,M,,M,,*6B
06/09/2014	18:00:40.910	$GPGGA,180038,2528.5522,N,08001.6031,W,1,10,1.4,14,M,,M,,*63
06/09/2014	18:00:41.962	$GPGGA,180039,2528.5527,N,08001.6033,W,1,10,1.4,14,M,,M,,*65
06/09/2014	18:00:43.008	$GPGGA,180040,2528.5533,N,08001.6034,W,1,10,1.4,15,M,,M,,*68
06/09/2014	18:00:40.593	$GPGGA,180041,2528.5538,N,08001.6035,W,1,10,1.4,15,M,,M,,*63
06/09/2014	18:00:41.620	$GPGGA,180042,2528.5545,N,08001.6037,W,1,10,1.4,15,M,,M,,*68
06/09/2014	18:00:42.720	$GPGGA,180043,2528.5549,N,08001.6038,W,1,10,1.4,15,M,,M,,*6A
06/09/2014	18:00:43.760	$GPGGA,180044,2528.5555,N,08001.6040,W,1,10,1.4,15,M,,M,,*6F
06/09/2014	18:00:44.806	$GPGGA,180045,2528.5560,N,08001.6041,W,1,10,1.4,15,M,,M,,*69
06/09/2014	18:00:45.841	$GPGGA,180046,2528.5564,N,08001.6044,W,1,10,1.4,15,M,,M,,*6B
06/09/2014	18:00:46.942	$GPGGA,180047,2528.5571,N,08001.6044,W,1,10,1.4,15,M,,M,,*6E
06/09/2014	18:00:47.968	$GPGGA,180048,2528.5575,N,08001.6046,W,1,10,1.4,15,M,,M,,*67
06/09/2014	18:00:49.076	$GPGGA,180049,2528.5581,N,08001.6048,W,1,10,1.4,15,M,,M,,*63
06/09/2014	18:00:50.074	$GPGGA,180050,2528.5585,N,08001.6049,W,1,10,1.4,15,M,,M,,*6E
06/09/2014	18:00:51.248	$GPGGA,180051,2528.5591,N,08001.6051,W,1,10,1.4,15,M,,M,,*63
06/09/2014	18:00:52.212	$GPGGA,180052,2528.5596,N,08001.6053,W,1,10,1.5,15,M,,M,,*64
06/09/2014	18:00:53.354	$GPGGA,180053,2528.5602,N,08001.6053,W,1,9,1.5,15,M,,M,,*53
06/09/2014	18:00:54.285	$GPGGA,180054,2528.5607,N,08001.6055,W,1,9,1.4,15,M,,M,,*56
06/09/2014	18:00:55.460	$GPGGA,180055,2528.5614,N,08001.6055,W,1,10,1.4,15,M,,M,,*6D
06/09/2014	18:00:56.423	$GPGGA,180056,2528.5618,N,08001.6056,W,1,10,1.4,15,M,,M,,*61
06/09/2014	18:00:57.598	$GPGGA,180057,2528.5624,N,08001.6058,W,1,10,1.4,16,M,,M,,*62
06/09/2014	18:00:58.529	$GPGGA,180058,2528.5629,N,08001.6059,W,1,10,1.4,16,M,,M,,*61
06/09/2014	18:00:59.598	$GPGGA,180059,2528.5634,N,08001.6062,W,1,9,1.7,16,M,,M,,*5F
06/09/2014	18:01:00.666	$GPGGA,180100,2528.5639,N,08001.6061,W,1,9,1.9,16,M,,M,,*52
06/09/2014	18:01:01.693	$GPGGA,180101,2528.5646,N,08001.6062,W,1,9,1.7,16,M,,M,,*56
06/09/2014	18:01:02.847	$GPGGA,180102,2528.5650,N,08001.6064,W,1,9,1.7,16,M,,M,,*54
06/09/2014	18:01:03.903	$GPGGA,180103,2528.5654,N,08001.6066,W,1,8,1.9,16,M,,M,,*5C
06/09/2014	18:01:04.877	$GPGGA,180104,2528.5661,N,08001.6066,W,1,8,1.7,16,M,,M,,*53
06/09/2014	18:01:06.009	$GPGGA,180105,2528.5667,N,08001.6067,W,1,9,1.7,16,M,,M,,*54
06/09/2014	18:01:07.078	$GPGGA,180106,2528.5672,N,08001.6069,W,1,9,1.7,16,M,,M,,*5D
06/09/2014	18:01:08.030	$GPGGA,180107,2528.5676,N,08001.6070,W,1,9,1.7,16,M,,M,,*50
06/09/2014	18:01:09.205	$GPGGA,180108,2528.5682,N,08001.6073,W,1,9,1.7,16,M,,M,,*57
06/09/2014	18:01:10.253	$GPGGA,180109,2528.5686,N,08001.6074,W,1,9,1.7,16,M,,M,,*55
06/09/2014	18:01:11.300	$GPGGA,180110,2528.5692,N,08001.6077,W,1,9,1.7,17,M,,M,,*5A
06/09/2014	18:01:12.348	$GPGGA,180111,2528.5697,N,08001.6078,W,1,9,1.7,17,M,,M,,*51
06/09/2014	18:01:13.417	$GPGGA,180112,2528.5701,N,08001.6080,W,1,9,1.7,17,M,,M,,*5B
06/09/2014	18:01:14.464	$GPGGA,180113,2528.5707,N,08001.6081,W,1,9,1.7,17,M,,M,,*5D
06/09/2014	18:01:15.512	$GPGGA,180114,2528.5712,N,08001.6082,W,1,9,1.7,17,M,,M,,*5D
06/09/2014	18:01:16.612	$GPGGA,180115,2528.5717,N,08001.6084,W,1,9,1.7,17,M,,M,,*5F
06/09/2014	18:01:17.649	$GPGGA,180116,2528.5722,N,08001.6087,W,1,9,1.7,17,M,,M,,*59
06/09/2014	18:01:18.709	$GPGGA,180117,2528.5726,N,08001.6087,W,1,9,1.7,17,M,,M,,*5C
06/09/2014	18:01:19.745	$GPGGA,180118,2528.5733,N,08001.6088,W,1,9,1.7,17,M,,M,,*58
06/09/2014	18:01:20.824	$GPGGA,180119,2528.5737,N,08001.6089,W,1,9,1.7,17,M,,M,,*5C
06/09/2014	18:01:21.914	$GPGGA,180120,2528.5743,N,08001.6091,W,1,9,1.7,17,M,,M,,*5C
06/09/2014	18:01:22.939	$GPGGA,180121,2528.5748,N,08001.6092,W,1,9,1.7,17,M,,M,,*55
06/09/2014	18:01:23.957	$GPGGA,180122,2528.5752,N,08001.6094,W,1,9,1.7,17,M,,M,,*5B
06/09/2014	18:01:25.016	$GPGGA,180123,2528.5759,N,08001.6095,W,1,9,1.7,17,M,,M,,*50
06/09/2014	18:01:26.103	$GPGGA,180124,2528.5764,N,08001.6096,W,1,9,1.7,17,M,,M,,*5A
06/09/2014	18:01:27.151	$GPGGA,180125,2528.5770,N,08001.6098,W,1,9,1.7,17,M,,M,,*50
06/09/2014	18:01:28.189	$GPGGA,180126,2528.5775,N,08001.6098,W,1,9,1.7,17,M,,M,,*56
06/09/2014	18:01:29.289	$GPGGA,180127,2528.5780,N,08001.6100,W,1,9,1.7,17,M,,M,,*5D
06/09/2014	18:01:30.326	$GPGGA,180128,2528.5786,N,08001.6102,W,1,9,1.7,17,M,,M,,*56
06/09/2014	18:01:31.394	$GPGGA,180129,2528.5791,N,08001.6102,W,1,9,1.7,17,M,,M,,*51
06/09/2014	18:01:32.410	$GPGGA,180130,2528.5795,N,08001.6105,W,1,9,1.7,17,M,,M,,*5A
06/09/2014	18:01:33.500	$GPGGA,180131,2528.5801,N,08001.6105,W,1,9,1.7,17,M,,M,,*59
06/09/2014	18:01:34.540	$GPGGA,180132,2528.5806,N,08001.6107,W,1,9,1.7,17,M,,M,,*5F
06/09/2014	18:01:35.617	$GPGGA,180133,2528.5812,N,08001.6109,W,1,9,1.7,17,M,,M,,*55
06/09/2014	18:01:36.664	$GPGGA,180134,2528.5817,N,08001.6110,W,1,9,1.7,17,M,,M,,*5F
06/09/2014	18:01:37.703	$GPGGA,180135,2528.5823,N,08001.6113,W,1,9,1.7,17,M,,M,,*5A
06/09/2014	18:01:38.759	$GPGGA,180136,2528.5827,N,08001.6113,W,1,9,1.7,17,M,,M,,*5D
06/09/2014	18:01:39.840	$GPGGA,180137,2528.5833,N,08001.6114,W,1,9,1.7,17,M,,M,,*5E
06/09/2014	18:01:40.875	$GPGGA,180138,2528.5838,N,08001.6116,W,1,9,1.7,17,M,,M,,*58
06/09/2014	18:01:41.933	$GPGGA,180139,2528.5844,N,08001.6117,W,1,9,1.7,16,M,,M,,*52
06/09/2014	18:01:42.981	$GPGGA,180140,2528.5849,N,08001.6118,W,1,9,1.7,16,M,,M,,*5E
06/09/2014	18:01:40.561	$GPGGA,180141,2528.5853,N,08001.6120,W,1,9,1.7,16,M,,M,,*5F
06/09/2014	18:01:41.597	$GPGGA,180142,2528.5860,N,08001.6123,W,1,9,1.7,16,M,,M,,*5F
06/09/2014	18:01:42.803	$GPGGA,180143,2528.5864,N,08001.6124,W,1,9,1.7,16,M,,M,,*5D
06/09/2014	18:01:43.723	$GPGGA,180144,2528.5870,N,08001.6125,W,1,9,1.7,16,M,,M,,*5E
06/09/2014	18:01:46.221	$GPGGA,180146,2528.5881,N,08001.6128,W,1,9,1.7,16,M,,M,,*5F
06/09/2014	18:01:46.898	$GPGGA,180147,2528.5885,N,08001.6129,W,1,9,1.5,16,M,,M,,*59
06/09/2014	18:01:47.935	$GPGGA,180148,2528.5889,N,08001.6131,W,1,9,1.5,16,M,,M,,*53
06/09/2014	18:01:48.983	$GPGGA,180149,2528.5895,N,08001.6132,W,1,9,1.5,16,M,,M,,*5C
06/09/2014	18:01:50.231	$GPGGA,180150,2528.5900,N,08001.6134,W,1,9,1.5,16,M,,M,,*5F
06/09/2014	18:01:51.110	$GPGGA,180151,2528.5906,N,08001.6134,W,1,9,1.5,16,M,,M,,*58
06/09/2014	18:01:52.348	$GPGGA,180152,2528.5910,N,08001.6136,W,1,9,1.5,16,M,,M,,*5E
06/09/2014	18:01:53.311	$GPGGA,180153,2528.5916,N,08001.6138,W,1,9,1.5,16,M,,M,,*57
06/09/2014	18:01:54.369	$GPGGA,180154,2528.5921,N,08001.6139,W,1,9,1.5,16,M,,M,,*55
06/09/2014	18:01:55.535	$GPGGA,180155,2528.5927,N,08001.6141,W,1,9,1.5,16,M,,M,,*5D
06/09/2014	18:01:56.569	$GPGGA,180156,2528.5932,N,08001.6142,W,1,9,1.5,16,M,,M,,*59
06/09/2014	18:01:57.585	$GPGGA,180157,2528.5936,N,08001.6142,W,1,9,1.5,16,M,,M,,*5C
06/09/2014	18:01:58.590	$GPGGA,180158,2528.5941,N,08001.6145,W,1,9,1.5,16,M,,M,,*54
06/09/2014	18:01:59.680	$GPGGA,180159,2528.5947,N,08001.6145,W,1,9,1.5,16,M,,M,,*53
06/09/2014	18:02:00.834	$GPGGA,180200,2528.5952,N,08001.6146,W,1,9,1.5,16,M,,M,,*5B
06/09/2014	18:02:01.807	$GPGGA,180201,2528.5957,N,08001.6149,W,1,9,1.5,16,M,,M,,*50
06/09/2014	18:02:02.812	$GPGGA,180202,2528.5961,N,08001.6149,W,1,9,1.5,16,M,,M,,*56
06/09/2014	18:02:03.925	$GPGGA,180203,2528.5968,N,08001.6150,W,1,9,1.5,16,M,,M,,*56
06/09/2014	18:02:05.008	$GPGGA,180204,2528.5972,N,08001.6152,W,1,9,1.5,16,M,,M,,*58
06/09/2014	18:02:06.065	$GPGGA,180205,2528.5978,N,08001.6153,W,1,9,1.5,16,M,,M,,*52
06/09/2014	18:02:07.098	$GPGGA,180206,2528.5983,N,08001.6154,W,1,9,1.5,16,M,,M,,*52
06/09/2014	18:02:08.146	$GPGGA,180207,2528.5988,N,08001.6156,W,1,9,1.5,16,M,,M,,*5A
06/09/2014	18:02:09.236	$GPGGA,180208,2528.5993,N,08001.6156,W,1,9,1.5,16,M,,M,,*5F
06/09/2014	18:02:10.253	$GPGGA,180209,2528.5997,N,08001.6157,W,1,9,1.5,16,M,,M,,*5B
06/09/2014	18:02:11.352	$GPGGA,180210,2528.6004,N,08001.6158,W,1,9,1.5,16,M,,M,,*5C
06/09/2014	18:02:12.291	$GPGGA,180211,2528.6008,N,08001.6160,W,1,9,1.5,16,M,,M,,*5A
06/09/2014	18:02:13.396	$GPGGA,180212,2528.6014,N,08001.6159,W,1,9,1.5,16,M,,M,,*5E
06/09/2014	18:02:14.417	$GPGGA,180213,2528.6019,N,08001.6160,W,1,9,1.5,16,M,,M,,*58
06/09/2014	18:02:15.368	$GPGGA,180214,2528.6025,N,08001.6161,W,1,9,1.5,16,M,,M,,*51
06/09/2014	18:02:16.442	$GPGGA,180215,2528.6030,N,08001.6163,W,1,9,1.5,16,M,,M,,*56
06/09/2014	18:02:17.464	$GPGGA,180216,2528.6035,N,08001.6163,W,1,9,1.7,16,M,,M,,*52
06/09/2014	18:02:18.477	$GPGGA,180217,2528.6040,N,08001.6165,W,1,8,1.7,16,M,,M,,*56
06/09/2014	18:02:19.438	$GPGGA,180218,2528.6044,N,08001.6167,W,1,8,1.7,16,M,,M,,*5F
06/09/2014	18:02:20.460	$GPGGA,180219,2528.6044,N,08001.6167,W,1,8,1.7,16,M,,M,,*5E
06/09/2014	18:02:21.585	$GPGGA,180220,2528.6053,N,08001.6170,W,1,8,1.5,16,M,,M,,*56
06/09/2014	18:02:22.556	$GPGGA,180221,2528.6059,N,08001.6171,W,1,7,3.1,16,M,,M,,*55
06/09/2014	18:02:23.517	$GPGGA,180222,2528.6066,N,08001.6172,W,1,7,1.7,16,M,,M,,*5D
06/09/2014	18:02:24.571	$GPGGA,180223,2528.6072,N,08001.6174,W,1,8,1.7,15,M,,M,,*53
06/09/2014	18:02:25.634	$GPGGA,180224,2528.6079,N,08001.6176,W,1,8,1.7,15,M,,M,,*5D
06/09/2014	18:02:26.616	$GPGGA,180225,2528.6086,N,08001.6178,W,1,8,1.7,15,M,,M,,*52
06/09/2014	18:02:27.597	$GPGGA,180226,2528.6091,N,08001.6179,W,1,8,1.7,15,M,,M,,*56
06/09/2014	18:02:28.620	$GPGGA,180227,2528.6098,N,08001.6181,W,1,8,1.7,15,M,,M,,*59
06/09/2014	18:02:29.775	$GPGGA,180228,2528.6105,N,08001.6183,W,1,8,1.7,15,M,,M,,*51
06/09/2014	18:02:30.726	$GPGGA,180229,2528.6112,N,08001.6185,W,1,8,1.7,15,M,,M,,*50
06/09/2014	18:02:31.677	$GPGGA,180230,2528.6117,N,08001.6186,W,1,8,1.7,16,M,,M,,*5D
06/09/2014	18:02:32.709	$GPGGA,180231,2528.6124,N,08001.6188,W,1,8,1.7,16,M,,M,,*52
06/09/2014	18:02:33.803	$GPGGA,180232,2528.6131,N,08001.6189,W,1,8,1.7,16,M,,M,,*54
06/09/2014	18:02:34.866	$GPGGA,180233,2528.6138,N,08001.6192,W,1,8,1.7,16,M,,M,,*56
06/09/2014	18:02:35.889	$GPGGA,180234,2528.6144,N,08001.6192,W,1,8,1.7,16,M,,M,,*5A
06/09/2014	18:02:36.829	$GPGGA,180235,2528.6149,N,08001.6194,W,1,8,1.7,16,M,,M,,*50
06/09/2014	18:02:37.923	$GPGGA,180236,2528.6156,N,08001.6196,W,1,8,1.7,16,M,,M,,*5F
06/09/2014	18:02:38.966	$GPGGA,180237,2528.6160,N,08001.6199,W,1,8,1.7,16,M,,M,,*54
06/09/2014	18:02:39.917	$GPGGA,180238,2528.6167,N,08001.6199,W,1,8,1.7,16,M,,M,,*5C
06/09/2014	18:02:40.971	$GPGGA,180239,2528.6171,N,08001.6201,W,1,8,1.7,16,M,,M,,*58
06/09/2014	18:02:41.962	$GPGGA,180240,2528.6178,N,08001.6203,W,1,8,1.7,16,M,,M,,*5D
06/09/2014	18:02:40.593	$GPGGA,180241,2528.6182,N,08001.6203,W,1,8,1.7,17,M,,M,,*58
06/09/2014	18:02:41.564	$GPGGA,180242,2528.6188,N,08001.6206,W,1,8,1.7,17,M,,M,,*54
06/09/2014	18:02:42.648	$GPGGA,180243,2528.6192,N,08001.6207,W,1,8,1.7,17,M,,M,,*5F
06/09/2014	18:02:43.681	$GPGGA,180244,2528.6198,N,08001.6207,W,1,8,1.7,17,M,,M,,*52
06/09/2014	18:02:44.714	$GPGGA,180245,2528.6203,N,08001.6210,W,1,8,1.7,17,M,,M,,*54
06/09/2014	18:02:45.746	$GPGGA,180246,2528.6209,N,08001.6211,W,1,8,1.7,17,M,,M,,*5C
06/09/2014	18:02:46.718	$GPGGA,180247,2528.6214,N,08001.6212,W,1,9,1.7,17,M,,M,,*53
06/09/2014	18:02:47.739	$GPGGA,180248,2528.6220,N,08001.6214,W,1,9,1.7,17,M,,M,,*5D
06/09/2014	18:02:48.772	$GPGGA,180249,2528.6225,N,08001.6214,W,1,9,1.7,17,M,,M,,*59
06/09/2014	18:02:49.764	$GPGGA,180250,2528.6230,N,08001.6215,W,1,9,1.7,17,M,,M,,*54
06/09/2014	18:02:50.807	$GPGGA,180251,2528.6235,N,08001.6217,W,1,9,1.7,17,M,,M,,*52
06/09/2014	18:02:51.829	$GPGGA,180252,2528.6239,N,08001.6218,W,1,9,1.9,17,M,,M,,*5C
06/09/2014	18:02:52.852	$GPGGA,180253,2528.6245,N,08001.6219,W,1,8,1.7,17,M,,M,,*58
06/09/2014	18:02:53.905	$GPGGA,180254,2528.6245,N,08001.6219,W,1,8,1.7,17,M,,M,,*5F
06/09/2014	18:02:54.876	$GPGGA,180255,2528.6254,N,08001.6222,W,1,9,1.7,17,M,,M,,*57
06/09/2014	18:02:55.909	$GPGGA,180256,2528.6260,N,08001.6223,W,1,9,1.7,17,M,,M,,*52
06/09/2014	18:02:56.942	$GPGGA,180257,2528.6264,N,08001.6225,W,1,9,1.7,17,M,,M,,*51
06/09/2014	18:02:57.935	$GPGGA,180258,2528.6271,N,08001.6226,W,1,9,1.7,17,M,,M,,*59
06/09/2014	18:02:58.977	$GPGGA,180259,2528.6275,N,08001.6228,W,1,9,1.7,17,M,,M,,*52
06/09/2014	18:03:00.009	$GPGGA,180300,2528.6281,N,08001.6229,W,1,9,1.9,17,M,,M,,*5B
06/09/2014	18:03:01.022	$GPGGA,180301,2528.6285,N,08001.6230,W,1,8,1.9,17,M,,M,,*57
06/09/2014	18:03:02.013	$GPGGA,180302,2528.6290,N,08001.6232,W,1,8,1.9,17,M,,M,,*52
06/09/2014	18:03:03.064	$GPGGA,180303,2528.6296,N,08001.6235,W,1,8,1.9,17,M,,M,,*52
06/09/2014	18:03:04.086	$GPGGA,180304,2528.6301,N,08001.6236,W,1,8,1.9,17,M,,M,,*59
06/09/2014	18:03:05.108	$GPGGA,180305,2528.6306,N,08001.6237,W,1,8,1.9,17,M,,M,,*5E
06/09/2014	18:03:06.117	$GPGGA,180306,2528.6311,N,08001.6239,W,1,8,1.7,17,M,,M,,*5B
06/09/2014	18:03:07.148	$GPGGA,180307,2528.6315,N,08001.6240,W,1,9,1.7,17,M,,M,,*51
06/09/2014	18:03:08.159	$GPGGA,180308,2528.6315,N,08001.6240,W,1,9,1.7,17,M,,M,,*5E
06/09/2014	18:03:09.172	$GPGGA,180309,2528.6326,N,08001.6243,W,1,9,1.7,17,M,,M,,*5C
06/09/2014	18:03:10.182	$GPGGA,180310,2528.6326,N,08001.6243,W,1,9,1.7,17,M,,M,,*54
06/09/2014	18:03:11.226	$GPGGA,180311,2528.6335,N,08001.6244,W,1,9,1.7,17,M,,M,,*50
06/09/2014	18:03:12.268	$GPGGA,180312,2528.6340,N,08001.6247,W,1,9,1.9,17,M,,M,,*5C
06/09/2014	18:03:13.250	$GPGGA,180313,2528.6344,N,08001.6250,W,1,8,1.9,17,M,,M,,*5E
06/09/2014	18:03:14.298	$GPGGA,180314,2528.6344,N,08001.6250,W,1,8,1.9,17,M,,M,,*59
06/09/2014	18:03:15.296	$GPGGA,180315,2528.6355,N,08001.6253,W,1,8,1.9,17,M,,M,,*5B
06/09/2014	18:03:16.358	$GPGGA,180316,2528.6355,N,08001.6253,W,1,8,1.9,17,M,,M,,*58
06/09/2014	18:03:17.340	$GPGGA,180317,2528.6365,N,08001.6253,W,1,8,1.9,17,M,,M,,*5A
06/09/2014	18:03:18.343	$GPGGA,180318,2528.6365,N,08001.6253,W,1,8,1.7,17,M,,M,,*5B
06/09/2014	18:03:19.374	$GPGGA,180319,2528.6375,N,08001.6257,W,1,8,1.9,17,M,,M,,*51
06/09/2014	18:03:20.438	$GPGGA,180320,2528.6380,N,08001.6258,W,1,8,1.9,17,M,,M,,*5E
06/09/2014	18:03:21.419	$GPGGA,180321,2528.6384,N,08001.6259,W,1,8,1.9,17,M,,M,,*5A
06/09/2014	18:03:22.463	$GPGGA,180322,2528.6384,N,08001.6259,W,1,8,1.9,17,M,,M,,*59
06/09/2014	18:03:23.443	$GPGGA,180323,2528.6395,N,08001.6261,W,1,9,1.7,17,M,,M,,*5C
06/09/2014	18:03:24.486	$GPGGA,180324,2528.6395,N,08001.6261,W,1,9,1.9,16,M,,M,,*54
06/09/2014	18:03:25.488	$GPGGA,180325,2528.6405,N,08001.6264,W,1,8,1.9,16,M,,M,,*5F
06/09/2014	18:03:26.602	$GPGGA,180326,2528.6411,N,08001.6265,W,1,8,1.9,16,M,,M,,*58
06/09/2014	18:03:27.645	$GPGGA,180327,2528.6416,N,08001.6268,W,1,8,1.9,16,M,,M,,*53
06/09/2014	18:03:28.566	$GPGGA,180328,2528.6420,N,08001.6268,W,1,8,1.9,16,M,,M,,*59
06/09/2014	18:03:29.670	$GPGGA,180329,2528.6426,N,08001.6269,W,1,8,1.9,16,M,,M,,*5F
06/09/2014	18:03:30.713	$GPGGA,180330,2528.6431,N,08001.6270,W,1,8,1.9,16,M,,M,,*59
06/09/2014	18:03:31.746	$GPGGA,180331,2528.6436,N,08001.6272,W,1,8,1.9,16,M,,M,,*5D
06/09/2014	18:03:32.748	$GPGGA,180332,2528.6441,N,08001.6273,W,1,8,1.9,16,M,,M,,*5F
06/09/2014	18:03:33.750	$GPGGA,180333,2528.6445,N,08001.6275,W,1,9,1.7,16,M,,M,,*53
06/09/2014	18:03:34.772	$GPGGA,180334,2528.6451,N,08001.6275,W,1,9,1.9,16,M,,M,,*5F
06/09/2014	18:03:35.795	$GPGGA,180335,2528.6456,N,08001.6276,W,1,8,1.9,16,M,,M,,*5B
06/09/2014	18:03:36.827	$GPGGA,180336,2528.6460,N,08001.6279,W,1,8,1.7,16,M,,M,,*5C
06/09/2014	18:03:37.850	$GPGGA,180337,2528.6466,N,08001.6279,W,1,9,1.7,16,M,,M,,*5A
06/09/2014	18:03:38.842	$GPGGA,180338,2528.6470,N,08001.6279,W,1,9,1.7,16,M,,M,,*52
06/09/2014	18:03:39.895	$GPGGA,180339,2528.6474,N,08001.6279,W,1,9,1.7,16,M,,M,,*57
06/09/2014	18:03:40.918	$GPGGA,180340,2528.6480,N,08001.6279,W,1,9,1.7,16,M,,M,,*52
06/09/2014	18:03:40.560	$GPGGA,180341,2528.6485,N,08001.6280,W,1,9,1.7,16,M,,M,,*50
06/09/2014	18:03:41.593	$GPGGA,180342,2528.6489,N,08001.6280,W,1,9,1.7,16,M,,M,,*5F
06/09/2014	18:03:42.626	$GPGGA,180343,2528.6494,N,08001.6282,W,1,9,1.7,16,M,,M,,*50
06/09/2014	18:03:43.638	$GPGGA,180344,2528.6499,N,08001.6283,W,1,9,1.7,16,M,,M,,*5B
06/09/2014	18:03:44.660	$GPGGA,180345,2528.6503,N,08001.6283,W,1,9,1.7,16,M,,M,,*58
06/09/2014	18:03:45.663	$GPGGA,180346,2528.6509,N,08001.6284,W,1,9,1.7,16,M,,M,,*56
06/09/2014	18:03:46.716	$GPGGA,180347,2528.6514,N,08001.6286,W,1,9,1.7,16,M,,M,,*59
06/09/2014	18:03:47.718	$GPGGA,180348,2528.6518,N,08001.6287,W,1,9,1.7,16,M,,M,,*5B
06/09/2014	18:03:48.735	$GPGGA,180349,2528.6524,N,08001.6287,W,1,9,1.7,16,M,,M,,*55
06/09/2014	18:03:49.743	$GPGGA,180350,2528.6528,N,08001.6290,W,1,9,1.7,16,M,,M,,*57
06/09/2014	18:03:50.775	$GPGGA,180351,2528.6534,N,08001.6291,W,1,9,1.7,16,M,,M,,*5A
06/09/2014	18:03:51.808	$GPGGA,180352,2528.6541,N,08001.6293,W,1,9,1.7,16,M,,M,,*59
06/09/2014	18:03:52.840	$GPGGA,180353,2528.6545,N,08001.6293,W,1,10,1.5,16,M,,M,,*66
06/09/2014	18:03:53.833	$GPGGA,180354,2528.6550,N,08001.6295,W,1,10,1.5,16,M,,M,,*63
06/09/2014	18:03:54.896	$GPGGA,180355,2528.6556,N,08001.6297,W,1,10,1.5,16,M,,M,,*66
06/09/2014	18:03:55.888	$GPGGA,180356,2528.6561,N,08001.6297,W,1,10,1.5,16,M,,M,,*61
06/09/2014	18:03:56.910	$GPGGA,180357,2528.6566,N,08001.6298,W,1,10,1.5,16,M,,M,,*68
06/09/2014	18:03:57.901	$GPGGA,180358,2528.6571,N,08001.6301,W,1,10,1.5,16,M,,M,,*60
06/09/2014	18:03:58.934	$GPGGA,180359,2528.6577,N,08001.6302,W,1,10,1.5,16,M,,M,,*64
06/09/2014	18:04:00.101	$GPGGA,180400,2528.6582,N,08001.6304,W,1,10,1.5,16,M,,M,,*63
06/09/2014	18:04:01.071	$GPGGA,180401,2528.6586,N,08001.6304,W,1,10,1.5,17,M,,M,,*67
06/09/2014	18:04:01.991	$GPGGA,180402,2528.6593,N,08001.6305,W,1,10,1.5,17,M,,M,,*61
06/09/2014	18:04:03.024	$GPGGA,180403,2528.6597,N,08001.6306,W,1,10,1.5,17,M,,M,,*67
06/09/2014	18:04:04.138	$GPGGA,180404,2528.6603,N,08001.6308,W,1,10,1.5,17,M,,M,,*60
06/09/2014	18:04:05.084	$GPGGA,180405,2528.6608,N,08001.6308,W,1,10,1.5,17,M,,M,,*6A
06/09/2014	18:04:06.081	$GPGGA,180406,2528.6614,N,08001.6311,W,1,10,1.5,17,M,,M,,*6C
06/09/2014	18:04:07.227	$GPGGA,180407,2528.6618,N,08001.6310,W,1,10,1.5,17,M,,M,,*60
06/09/2014	18:04:08.136	$GPGGA,180408,2528.6625,N,08001.6311,W,1,10,1.5,17,M,,M,,*60
06/09/2014	18:04:09.230	$GPGGA,180409,2528.6629,N,08001.6312,W,1,10,1.5,17,M,,M,,*6E
06/09/2014	18:04:10.171	$GPGGA,180410,2528.6635,N,08001.6313,W,1,10,1.5,17,M,,M,,*6A
06/09/2014	18:04:11.296	$GPGGA,180411,2528.6640,N,08001.6315,W,1,10,1.5,17,M,,M,,*6F
06/09/2014	18:04:12.216	$GPGGA,180412,2528.6644,N,08001.6316,W,1,10,1.5,17,M,,M,,*6B
06/09/2014	18:04:13.218	$GPGGA,180413,2528.6650,N,08001.6318,W,1,10,1.5,17,M,,M,,*61
06/09/2014	18:04:14.343	$GPGGA,180414,2528.6655,N,08001.6319,W,1,10,1.5,17,M,,M,,*62
06/09/2014	18:04:15.263	$GPGGA,180415,2528.6661,N,08001.6320,W,1,10,1.5,17,M,,M,,*6E
06/09/2014	18:04:16.387	$GPGGA,180416,2528.6666,N,08001.6322,W,1,10,1.5,17,M,,M,,*68
06/09/2014	18:04:17.317	$GPGGA,180417,2528.6672,N,08001.6323,W,1,10,1.5,17,M,,M,,*6D
06/09/2014	18:04:18.421	$GPGGA,180418,2528.6676,N,08001.6326,W,1,10,1.5,17,M,,M,,*63
06/09/2014	18:04:19.475	$GPGGA,180419,2528.6683,N,08001.6326,W,1,10,1.5,17,M,,M,,*68
06/09/2014	18:04:20.477	$GPGGA,180420,2528.6687,N,08001.6327,W,1,10,1.5,17,M,,M,,*67
06/09/2014	18:04:21.479	$GPGGA,180421,2528.6693,N,08001.6329,W,1,10,1.5,17,M,,M,,*6D
06/09/2014	18:04:22.491	$GPGGA,180422,2528.6697,N,08001.6330,W,1,10,1.7,17,M,,M,,*60
06/09/2014	18:04:23.534	$GPGGA,180423,2528.6702,N,08001.6333,W,1,9,1.7,17,M,,M,,*57
06/09/2014	18:04:24.556	$GPGGA,180424,2528.6708,N,08001.6333,W,1,9,1.5,17,M,,M,,*58
06/09/2014	18:04:25.589	$GPGGA,180425,2528.6713,N,08001.6335,W,1,10,1.5,17,M,,M,,*6D
06/09/2014	18:04:26.581	$GPGGA,180426,2528.6719,N,08001.6337,W,1,10,1.5,17,M,,M,,*66
06/09/2014	18:04:27.614	$GPGGA,180427,2528.6723,N,08001.6338,W,1,10,1.5,17,M,,M,,*61
06/09/2014	18:04:28.636	$GPGGA,180428,2528.6729,N,08001.6340,W,1,10,1.5,17,M,,M,,*6B
06/09/2014	18:04:29.638	$GPGGA,180429,2528.6734,N,08001.6340,W,1,10,1.5,17,M,,M,,*66
06/09/2014	18:04:30.671	$GPGGA,180430,2528.6740,N,08001.6342,W,1,10,1.5,17,M,,M,,*6F
06/09/2014	18:04:31.675	$GPGGA,180431,2528.6745,N,08001.6344,W,1,10,1.5,17,M,,M,,*6D
06/09/2014	18:04:32.716	$GPGGA,180432,2528.6749,N,08001.6345,W,1,10,1.5,17,M,,M,,*63
06/09/2014	18:04:33.748	$GPGGA,180433,2528.6755,N,08001.6348,W,1,10,1.5,17,M,,M,,*62
06/09/2014	18:04:34.750	$GPGGA,180434,2528.6759,N,08001.6348,W,1,10,1.5,17,M,,M,,*69
06/09/2014	18:04:35.813	$GPGGA,180435,2528.6766,N,08001.6351,W,1,10,1.5,17,M,,M,,*6C
06/09/2014	18:04:36.805	$GPGGA,180436,2528.6770,N,08001.6352,W,1,10,1.5,17,M,,M,,*6B
06/09/2014	18:04:37.807	$GPGGA,180437,2528.6776,N,08001.6355,W,1,10,1.5,17,M,,M,,*6B
06/09/2014	18:04:38.829	$GPGGA,180438,2528.6781,N,08001.6355,W,1,10,1.5,17,M,,M,,*6C
06/09/2014	18:04:39.842	$GPGGA,180439,2528.6787,N,08001.6358,W,1,10,1.5,17,M,,M,,*66
06/09/2014	18:04:40.885	$GPGGA,180440,2528.6792,N,08001.6359,W,1,10,1.5,17,M,,M,,*6D
06/09/2014	18:04:40.539	$GPGGA,180441,2528.6796,N,08001.6362,W,1,10,1.5,17,M,,M,,*60
06/09/2014	18:04:41.561	$GPGGA,180442,2528.6801,N,08001.6363,W,1,10,1.5,17,M,,M,,*63
06/09/2014	18:04:42.625	$GPGGA,180443,2528.6806,N,08001.6365,W,1,10,1.5,17,M,,M,,*63
06/09/2014	18:04:43.617	$GPGGA,180444,2528.6812,N,08001.6366,W,1,10,1.5,17,M,,M,,*62
06/09/2014	18:04:44.619	$GPGGA,180445,2528.6817,N,08001.6369,W,1,10,1.5,17,M,,M,,*69
06/09/2014	18:04:45.754	$GPGGA,180446,2528.6821,N,08001.6369,W,1,10,1.5,17,M,,M,,*6F
06/09/2014	18:04:46.694	$GPGGA,180447,2528.6827,N,08001.6371,W,1,10,1.5,17,M,,M,,*61
06/09/2014	18:04:47.697	$GPGGA,180448,2528.6832,N,08001.6373,W,1,10,1.5,16,M,,M,,*69
06/09/2014	18:04:48.730	$GPGGA,180449,2528.6837,N,08001.6376,W,1,10,1.5,16,M,,M,,*68
06/09/2014	18:04:49.731	$GPGGA,180450,2528.6841,N,08001.6376,W,1,10,1.5,16,M,,M,,*61
06/09/2014	18:04:50.855	$GPGGA,180451,2528.6846,N,08001.6378,W,1,10,1.5,16,M,,M,,*69
06/09/2014	18:04:51.787	$GPGGA,180452,2528.6853,N,08001.6381,W,1,10,1.7,16,M,,M,,*6A
06/09/2014	18:04:52.777	$GPGGA,180453,2528.6859,N,08001.6384,W,1,10,1.5,16,M,,M,,*66
06/09/2014	18:04:53.800	$GPGGA,180454,2528.6864,N,08001.6387,W,1,10,1.5,16,M,,M,,*6C
06/09/2014	18:04:54.822	$GPGGA,180455,2528.6871,N,08001.6388,W,1,10,1.5,16,M,,M,,*66
06/09/2014	18:04:55.856	$GPGGA,180456,2528.6877,N,08001.6391,W,1,10,1.5,16,M,,M,,*6B
06/09/2014	18:04:56.959	$GPGGA,180457,2528.6882,N,08001.6394,W,1,10,1.5,16,M,,M,,*65
06/09/2014	18:04:57.982	$GPGGA,180458,2528.6888,N,08001.6395,W,1,10,1.5,16,M,,M,,*61
06/09/2014	18:04:58.912	$GPGGA,180459,2528.6893,N,08001.6396,W,1,10,1.5,16,M,,M,,*69
06/09/2014	18:05:00.107	$GPGGA,180500,2528.6897,N,08001.6398,W,1,10,1.7,16,M,,M,,*6C
06/09/2014	18:05:00.957	$GPGGA,180501,2528.6903,N,08001.6400,W,1,10,1.5,16,M,,M,,*65
06/09/2014	18:05:02.061	$GPGGA,180502,2528.6908,N,08001.6402,W,1,10,1.5,16,M,,M,,*6F
06/09/2014	18:05:02.992	$GPGGA,180503,2528.6914,N,08001.6405,W,1,10,1.5,16,M,,M,,*64
06/09/2014	18:05:04.117	$GPGGA,180504,2528.6918,N,08001.6406,W,1,10,1.5,16,M,,M,,*6C
06/09/2014	18:05:05.139	$GPGGA,180505,2528.6924,N,08001.6409,W,1,10,1.5,16,M,,M,,*6D
06/09/2014	18:05:06.151	$GPGGA,180506,2528.6929,N,08001.6410,W,1,10,1.5,16,M,,M,,*6B
06/09/2014	18:05:07.205	$GPGGA,180507,2528.6935,N,08001.6413,W,1,10,1.5,16,M,,M,,*64
06/09/2014	18:05:08.206	$GPGGA,180508,2528.6940,N,08001.6414,W,1,10,1.5,16,M,,M,,*6E
06/09/2014	18:05:09.218	$GPGGA,180509,2528.6946,N,08001.6416,W,1,10,1.5,16,M,,M,,*6B
06/09/2014	18:05:10.240	$GPGGA,180510,2528.6950,N,08001.6418,W,1,10,1.5,16,M,,M,,*6A
06/09/2014	18:05:11.253	$GPGGA,180511,2528.6954,N,08001.6420,W,1,9,1.7,16,M,,M,,*5E
06/09/2014	18:05:12.285	$GPGGA,180512,2528.6958,N,08001.6420,W,1,9,1.7,16,M,,M,,*51
06/09/2014	18:05:13.277	$GPGGA,180513,2528.6964,N,08001.6423,W,1,9,1.7,15,M,,M,,*5F
06/09/2014	18:05:14.310	$GPGGA,180514,2528.6969,N,08001.6423,W,1,9,1.5,15,M,,M,,*57
06/09/2014	18:05:15.363	$GPGGA,180515,2528.6973,N,08001.6425,W,1,10,1.5,15,M,,M,,*63
06/09/2014	18:05:16.365	$GPGGA,180516,2528.6979,N,08001.6427,W,1,10,1.5,15,M,,M,,*68
06/09/2014	18:05:17.398	$GPGGA,180517,2528.6983,N,08001.6428,W,1,10,1.5,15,M,,M,,*63
06/09/2014	18:05:18.400	$GPGGA,180518,2528.6989,N,08001.6430,W,1,10,1.5,15,M,,M,,*6F
06/09/2014	18:05:19.433	$GPGGA,180519,2528.6993,N,08001.6431,W,1,9,1.7,15,M,,M,,*5E
06/09/2014	18:05:20.455	$GPGGA,180520,2528.6998,N,08001.6434,W,1,9,1.5,15,M,,M,,*58
06/09/2014	18:05:21.467	$GPGGA,180521,2528.7005,N,08001.6435,W,1,10,1.5,15,M,,M,,*6C
06/09/2014	18:05:22.480	$GPGGA,180522,2528.7011,N,08001.6438,W,1,10,1.5,15,M,,M,,*67
06/09/2014	18:05:23.512	$GPGGA,180523,2528.7018,N,08001.6439,W,1,9,1.7,15,M,,M,,*54
06/09/2014	18:05:24.545	$GPGGA,180524,2528.7023,N,08001.6442,W,1,9,1.5,15,M,,M,,*55
06/09/2014	18:05:25.568	$GPGGA,180525,2528.7030,N,08001.6445,W,1,10,1.5,14,M,,M,,*68
06/09/2014	18:05:26.548	$GPGGA,180526,2528.7037,N,08001.6449,W,1,10,1.5,14,M,,M,,*60
06/09/2014	18:05:27.612	$GPGGA,180527,2528.7043,N,08001.6452,W,1,10,1.5,14,M,,M,,*68
06/09/2014	18:05:28.614	$GPGGA,180528,2528.7048,N,08001.6453,W,1,10,1.5,14,M,,M,,*6D
06/09/2014	18:05:29.657	$GPGGA,180529,2528.7055,N,08001.6456,W,1,10,1.5,14,M,,M,,*65
06/09/2014	18:05:30.628	$GPGGA,180530,2528.7061,N,08001.6457,W,1,10,1.5,14,M,,M,,*6B
06/09/2014	18:05:31.650	$GPGGA,180531,2528.7065,N,08001.6457,W,1,10,1.5,14,M,,M,,*6E
06/09/2014	18:05:32.704	$GPGGA,180532,2528.7070,N,08001.6459,W,1,10,1.7,14,M,,M,,*65
06/09/2014	18:05:33.695	$GPGGA,180533,2528.7073,N,08001.6460,W,1,10,1.5,14,M,,M,,*6F
06/09/2014	18:05:34.731	$GPGGA,180534,2528.7081,N,08001.6464,W,1,10,1.7,14,M,,M,,*63
06/09/2014	18:05:35.792	$GPGGA,180535,2528.7085,N,08001.6464,W,1,10,1.5,14,M,,M,,*64
06/09/2014	18:05:36.896	$GPGGA,180536,2528.7088,N,08001.6465,W,1,10,1.7,14,M,,M,,*69
06/09/2014	18:05:37.785	$GPGGA,180537,2528.7095,N,08001.6468,W,1,9,1.7,14,M,,M,,*51
06/09/2014	18:05:38.808	$GPGGA,180538,2528.7099,N,08001.6468,W,1,9,1.5,14,M,,M,,*50
06/09/2014	18:05:39.810	$GPGGA,180539,2528.7105,N,08001.6470,W,1,9,1.7,14,M,,M,,*5E
06/09/2014	18:05:40.863	$GPGGA,180540,2528.7110,N,08001.6471,W,1,9,1.7,14,M,,M,,*55
06/09/2014	18:05:40.527	$GPGGA,180541,2528.7114,N,08001.6472,W,1,10,1.5,14,M,,M,,*69
06/09/2014	18:05:41.631	$GPGGA,180542,2528.7121,N,08001.6475,W,1,10,1.7,14,M,,M,,*69
06/09/2014	18:05:42.550	$GPGGA,180543,2528.7124,N,08001.6475,W,1,10,1.5,14,M,,M,,*6F
06/09/2014	18:05:43.705	$GPGGA,180544,2528.7128,N,08001.6478,W,1,10,1.7,14,M,,M,,*6B
06/09/2014	18:05:44.615	$GPGGA,180545,2528.7137,N,08001.6481,W,1,9,1.7,14,M,,M,,*5A
06/09/2014	18:05:45.607	$GPGGA,180546,2528.7143,N,08001.6485,W,1,9,1.5,14,M,,M,,*5C
06/09/2014	18:05:46.640	$GPGGA,180547,2528.7150,N,08001.6488,W,1,10,1.5,14,M,,M,,*6A
06/09/2014	18:05:47.765	$GPGGA,180548,2528.7155,N,08001.6489,W,1,10,1.5,14,M,,M,,*61
06/09/2014	18:05:48.685	$GPGGA,180549,2528.7160,N,08001.6492,W,1,10,1.5,14,M,,M,,*6C
06/09/2014	18:05:49.789	$GPGGA,180550,2528.7166,N,08001.6493,W,1,10,1.5,15,M,,M,,*62
06/09/2014	18:05:50.812	$GPGGA,180551,2528.7171,N,08001.6496,W,1,10,1.5,15,M,,M,,*60
06/09/2014	18:05:51.855	$GPGGA,180552,2528.7175,N,08001.6496,W,1,10,1.5,15,M,,M,,*67
06/09/2014	18:05:52.765	$GPGGA,180553,2528.7178,N,08001.6496,W,1,9,1.7,15,M,,M,,*51
06/09/2014	18:05:53.879	$GPGGA,180554,2528.7182,N,08001.6497,W,1,9,1.7,15,M,,M,,*52
06/09/2014	18:05:54.912	$GPGGA,180555,2528.7186,N,08001.6499,W,1,9,1.7,15,M,,M,,*59
06/09/2014	18:05:55.935	$GPGGA,180556,2528.7193,N,08001.6501,W,1,9,1.5,14,M,,M,,*5D
06/09/2014	18:05:56.947	$GPGGA,180557,2528.7197,N,08001.6503,W,1,10,1.5,14,M,,M,,*62
06/09/2014	18:05:57.949	$GPGGA,180558,2528.7202,N,08001.6503,W,1,10,1.7,14,M,,M,,*60
06/09/2014	18:05:58.982	$GPGGA,180559,2528.7206,N,08001.6506,W,1,9,1.7,14,M,,M,,*58
06/09/2014	18:06:00.071	$GPGGA,180600,2528.7211,N,08001.6507,W,1,9,1.7,14,M,,M,,*50
06/09/2014	18:06:01.036	$GPGGA,180601,2528.7217,N,08001.6510,W,1,10,1.5,14,M,,M,,*6B
06/09/2014	18:06:02.048	$GPGGA,180602,2528.7222,N,08001.6511,W,1,10,1.7,14,M,,M,,*6D
06/09/2014	18:06:03.072	$GPGGA,180603,2528.7226,N,08001.6512,W,1,9,1.7,14,M,,M,,*53
06/09/2014	18:06:04.097	$GPGGA,180604,2528.7231,N,08001.6514,W,1,9,1.7,14,M,,M,,*54
06/09/2014	18:06:05.136	$GPGGA,180605,2528.7236,N,08001.6517,W,1,9,1.7,14,M,,M,,*51
06/09/2014	18:06:06.128	$GPGGA,180606,2528.7244,N,08001.6521,W,1,9,3.2,14,M,,M,,*55
06/09/2014	18:06:07.161	$GPGGA,180607,2528.7253,N,08001.6524,W,1,9,1.7,14,M,,M,,*50
06/09/2014	18:06:08.175	$GPGGA,180608,2528.7260,N,08001.6526,W,1,9,1.7,14,M,,M,,*5D
06/09/2014	18:06:09.181	$GPGGA,180609,2528.7267,N,08001.6528,W,1,9,1.7,14,M,,M,,*55
06/09/2014	18:06:10.210	$GPGGA,180610,2528.7272,N,08001.6532,W,1,9,1.5,14,M,,M,,*50
06/09/2014	18:06:11.251	$GPGGA,180611,2528.7279,N,08001.6533,W,1,10,1.5,14,M,,M,,*63
06/09/2014	18:06:12.263	$GPGGA,180612,2528.7285,N,08001.6535,W,1,10,1.7,14,M,,M,,*67
06/09/2014	18:06:13.256	$GPGGA,180613,2528.7291,N,08001.6539,W,1,10,1.5,14,M,,M,,*6D
06/09/2014	18:06:14.295	$GPGGA,180614,2528.7298,N,08001.6543,W,1,10,1.7,14,M,,M,,*6C
06/09/2014	18:06:15.307	$GPGGA,180615,2528.7305,N,08001.6546,W,1,10,1.5,15,M,,M,,*6E
06/09/2014	18:06:16.356	$GPGGA,180616,2528.7312,N,08001.6548,W,1,10,1.5,15,M,,M,,*65
06/09/2014	18:06:17.361	$GPGGA,180617,2528.7318,N,08001.6551,W,1,10,1.5,15,M,,M,,*66
06/09/2014	18:06:18.367	$GPGGA,180618,2528.7323,N,08001.6553,W,1,10,1.5,15,M,,M,,*63
06/09/2014	18:06:19.378	$GPGGA,180619,2528.7329,N,08001.6557,W,1,9,1.7,15,M,,M,,*56
06/09/2014	18:06:20.434	$GPGGA,180620,2528.7334,N,08001.6558,W,1,9,1.5,15,M,,M,,*5D
06/09/2014	18:06:21.455	$GPGGA,180621,2528.7338,N,08001.6561,W,1,9,1.7,15,M,,M,,*58
06/09/2014	18:06:22.457	$GPGGA,180622,2528.7344,N,08001.6564,W,1,9,1.7,16,M,,M,,*56
06/09/2014	18:06:23.584	$GPGGA,180623,2528.7348,N,08001.6566,W,1,9,1.7,16,M,,M,,*59
06/09/2014	18:06:24.491	$GPGGA,180624,2528.7358,N,08001.6569,W,1,9,1.7,16,M,,M,,*50
06/09/2014	18:06:25.526	$GPGGA,180625,2528.7365,N,08001.6573,W,1,9,1.7,16,M,,M,,*54
06/09/2014	18:06:26.526	$GPGGA,180626,2528.7370,N,08001.6575,W,1,9,1.5,16,M,,M,,*57
06/09/2014	18:06:27.681	$GPGGA,180627,2528.7374,N,08001.6577,W,1,9,1.7,16,M,,M,,*52
06/09/2014	18:06:28.704	$GPGGA,180628,2528.7377,N,08001.6579,W,1,9,1.7,17,M,,M,,*51
06/09/2014	18:06:29.706	$GPGGA,180629,2528.7383,N,08001.6582,W,1,9,1.7,17,M,,M,,*5F
06/09/2014	18:06:30.605	$GPGGA,180630,2528.7388,N,08001.6584,W,1,9,1.7,17,M,,M,,*5A
06/09/2014	18:06:31.628	$GPGGA,180631,2528.7392,N,08001.6587,W,1,9,1.7,17,M,,M,,*53
06/09/2014	18:06:32.783	$GPGGA,180632,2528.7398,N,08001.6590,W,1,9,1.5,17,M,,M,,*5E
06/09/2014	18:06:33.683	$GPGGA,180633,2528.7403,N,08001.6593,W,1,10,1.5,17,M,,M,,*61
06/09/2014	18:06:34.798	$GPGGA,180634,2528.7408,N,08001.6595,W,1,10,1.5,17,M,,M,,*6B
06/09/2014	18:06:35.718	$GPGGA,180635,2528.7412,N,08001.6598,W,1,10,1.5,17,M,,M,,*6C
06/09/2014	18:06:36.872	$GPGGA,180636,2528.7417,N,08001.6601,W,1,10,1.7,17,M,,M,,*6B
06/09/2014	18:06:37.875	$GPGGA,180637,2528.7421,N,08001.6604,W,1,9,1.7,17,M,,M,,*52
06/09/2014	18:06:38.876	$GPGGA,180638,2528.7427,N,08001.6605,W,1,9,1.7,17,M,,M,,*5A
06/09/2014	18:06:39.930	$GPGGA,180639,2528.7432,N,08001.6608,W,1,9,1.7,17,M,,M,,*52
06/09/2014	18:06:40.963	$GPGGA,180640,2528.7438,N,08001.6611,W,1,9,1.7,17,M,,M,,*5E
06/09/2014	18:06:40.616	$GPGGA,180641,2528.7442,N,08001.6613,W,1,9,1.7,17,M,,M,,*50
06/09/2014	18:06:41.598	$GPGGA,180642,2528.7449,N,08001.6616,W,1,9,1.7,17,M,,M,,*5D
06/09/2014	18:06:42.651	$GPGGA,180643,2528.7453,N,08001.6619,W,1,9,1.7,17,M,,M,,*58
06/09/2014	18:06:43.664	$GPGGA,180644,2528.7460,N,08001.6622,W,1,9,1.7,17,M,,M,,*57
06/09/2014	18:06:44.696	$GPGGA,180645,2528.7464,N,08001.6624,W,1,9,1.7,17,M,,M,,*54
06/09/2014	18:06:45.698	$GPGGA,180646,2528.7471,N,08001.6627,W,1,9,1.7,17,M,,M,,*50
06/09/2014	18:06:46.741	$GPGGA,180647,2528.7475,N,08001.6630,W,1,9,1.7,17,M,,M,,*53
06/09/2014	18:06:47.743	$GPGGA,180648,2528.7481,N,08001.6633,W,1,9,1.5,17,M,,M,,*56
06/09/2014	18:06:48.766	$GPGGA,180649,2528.7486,N,08001.6636,W,1,10,1.5,17,M,,M,,*6D
06/09/2014	18:06:49.799	$GPGGA,180650,2528.7493,N,08001.6638,W,1,10,1.5,17,M,,M,,*6F
06/09/2014	18:06:50.811	$GPGGA,180651,2528.7500,N,08001.6641,W,1,10,1.5,17,M,,M,,*6B
06/09/2014	18:06:51.834	$GPGGA,180652,2528.7504,N,08001.6644,W,1,10,1.5,17,M,,M,,*69
06/09/2014	18:06:52.856	$GPGGA,180653,2528.7511,N,08001.6647,W,1,10,1.7,17,M,,M,,*6D
06/09/2014	18:06:53.867	$GPGGA,180654,2528.7517,N,08001.6648,W,1,10,1.5,17,M,,M,,*61
06/09/2014	18:06:54.911	$GPGGA,180655,2528.7524,N,08001.6652,W,1,10,1.5,17,M,,M,,*6B
06/09/2014	18:06:55.902	$GPGGA,180656,2528.7529,N,08001.6655,W,1,10,1.5,17,M,,M,,*62
06/09/2014	18:06:56.955	$GPGGA,180657,2528.7536,N,08001.6658,W,1,10,1.5,17,M,,M,,*60
06/09/2014	18:06:57.926	$GPGGA,180658,2528.7542,N,08001.6662,W,1,10,1.5,17,M,,M,,*65
06/09/2014	18:06:58.959	$GPGGA,180659,2528.7547,N,08001.6665,W,1,10,1.5,17,M,,M,,*66
06/09/2014	18:07:00.033	$GPGGA,180700,2528.7553,N,08001.6666,W,1,10,1.5,17,M,,M,,*6D
06/09/2014	18:07:00.989	$GPGGA,180701,2528.7558,N,08001.6669,W,1,10,1.5,17,M,,M,,*68
06/09/2014	18:07:02.027	$GPGGA,180702,2528.7564,N,08001.6673,W,1,10,1.5,17,M,,M,,*6F
06/09/2014	18:07:03.070	$GPGGA,180703,2528.7569,N,08001.6676,W,1,10,1.5,17,M,,M,,*66
06/09/2014	18:07:04.079	$GPGGA,180704,2528.7574,N,08001.6678,W,1,10,1.5,17,M,,M,,*63
06/09/2014	18:07:05.117	$GPGGA,180705,2528.7579,N,08001.6681,W,1,10,1.5,17,M,,M,,*69
06/09/2014	18:07:06.101	$GPGGA,180706,2528.7586,N,08001.6684,W,1,10,1.5,17,M,,M,,*6F
06/09/2014	18:07:07.149	$GPGGA,180707,2528.7590,N,08001.6687,W,1,10,1.5,17,M,,M,,*6A
06/09/2014	18:07:08.154	$GPGGA,180708,2528.7596,N,08001.6691,W,1,10,1.7,17,M,,M,,*66
06/09/2014	18:07:09.165	$GPGGA,180709,2528.7601,N,08001.6694,W,1,9,1.7,17,M,,M,,*57
06/09/2014	18:07:10.288	$GPGGA,180710,2528.7605,N,08001.6696,W,1,9,1.7,17,M,,M,,*59
06/09/2014	18:07:11.211	$GPGGA,180711,2528.7609,N,08001.6699,W,1,9,1.7,17,M,,M,,*5B
06/09/2014	18:07:12.209	$GPGGA,180712,2528.7615,N,08001.6702,W,1,9,1.7,17,M,,M,,*56
06/09/2014	18:07:13.236	$GPGGA,180713,2528.7619,N,08001.6705,W,1,9,1.7,17,M,,M,,*5C
06/09/2014	18:07:14.218	$GPGGA,180714,2528.7625,N,08001.6707,W,1,9,1.7,17,M,,M,,*56
06/09/2014	18:07:15.218	$GPGGA,180715,2528.7629,N,08001.6710,W,1,9,1.7,17,M,,M,,*5D
06/09/2014	18:07:16.366	$GPGGA,180716,2528.7634,N,08001.6712,W,1,9,1.7,17,M,,M,,*50
06/09/2014	18:07:17.270	$GPGGA,180717,2528.7640,N,08001.6716,W,1,9,1.7,17,M,,M,,*56
06/09/2014	18:07:18.238	$GPGGA,180718,2528.7645,N,08001.6719,W,1,9,1.7,17,M,,M,,*53
06/09/2014	18:07:19.380	$GPGGA,180719,2528.7651,N,08001.6721,W,1,9,1.7,16,M,,M,,*5D
06/09/2014	18:07:20.317	$GPGGA,180720,2528.7655,N,08001.6724,W,1,9,1.5,16,M,,M,,*54
06/09/2014	18:07:21.387	$GPGGA,180721,2528.7662,N,08001.6727,W,1,10,1.5,16,M,,M,,*6A
06/09/2014	18:07:22.286	$GPGGA,180722,2528.7666,N,08001.6730,W,1,10,1.5,16,M,,M,,*6B
06/09/2014	18:07:23.305	$GPGGA,180723,2528.7672,N,08001.6732,W,1,10,1.6,16,M,,M,,*6E
06/09/2014	18:07:24.315	$GPGGA,180724,2528.7677,N,08001.6736,W,1,10,1.6,16,M,,M,,*68
06/09/2014	18:07:25.315	$GPGGA,180725,2528.7684,N,08001.6738,W,1,9,1.5,16,M,,M,,*50
06/09/2014	18:07:26.405	$GPGGA,180726,2528.7686,N,08001.6741,W,1,9,1.7,16,M,,M,,*5D
06/09/2014	18:07:27.405	$GPGGA,180727,2528.7695,N,08001.6745,W,1,9,1.7,16,M,,M,,*5A
06/09/2014	18:07:28.434	$GPGGA,180728,2528.7702,N,08001.6749,W,1,9,1.7,16,M,,M,,*56
06/09/2014	18:07:29.443	$GPGGA,180729,2528.7710,N,08001.6752,W,1,9,1.7,16,M,,M,,*5E
06/09/2014	18:07:30.423	$GPGGA,180730,2528.7720,N,08001.6757,W,1,9,1.7,16,M,,M,,*50
06/09/2014	18:07:31.453	$GPGGA,180731,2528.7727,N,08001.6761,W,1,9,1.7,16,M,,M,,*53
06/09/2014	18:07:32.462	$GPGGA,180732,2528.7734,N,08001.6764,W,1,9,1.7,16,M,,M,,*57
06/09/2014	18:07:33.452	$GPGGA,180733,2528.7739,N,08001.6768,W,1,9,1.7,17,M,,M,,*56
06/09/2014	18:07:34.452	$GPGGA,180734,2528.7745,N,08001.6771,W,1,9,1.7,17,M,,M,,*52
06/09/2014	18:07:35.492	$GPGGA,180735,2528.7749,N,08001.6775,W,1,10,1.5,17,M,,M,,*61
06/09/2014	18:07:36.491	$GPGGA,180736,2528.7753,N,08001.6778,W,1,10,1.5,17,M,,M,,*64
06/09/2014	18:07:37.501	$GPGGA,180737,2528.7757,N,08001.6781,W,1,10,1.5,17,M,,M,,*67
06/09/2014	18:07:38.500	$GPGGA,180738,2528.7763,N,08001.6785,W,1,10,1.5,17,M,,M,,*6B
06/09/2014	18:07:39.531	$GPGGA,180739,2528.7767,N,08001.6788,W,1,10,1.5,17,M,,M,,*63
06/09/2014	18:07:40.530	$GPGGA,180740,2528.7773,N,08001.6790,W,1,10,1.5,17,M,,M,,*61
06/09/2014	18:07:40.574	$GPGGA,180741,2528.7778,N,08001.6793,W,1,10,1.5,17,M,,M,,*68
06/09/2014	18:07:41.553	$GPGGA,180742,2528.7784,N,08001.6796,W,1,10,1.5,17,M,,M,,*6D
06/09/2014	18:07:42.593	$GPGGA,180743,2528.7789,N,08001.6799,W,1,10,1.5,17,M,,M,,*6E
06/09/2014	18:07:43.593	$GPGGA,180744,2528.7795,N,08001.6803,W,1,10,1.5,17,M,,M,,*68
06/09/2014	18:07:44.579	$GPGGA,180745,2528.7800,N,08001.6804,W,1,9,1.7,18,M,,M,,*58
06/09/2014	18:07:45.591	$GPGGA,180746,2528.7802,N,08001.6806,W,1,9,1.7,18,M,,M,,*5B
06/09/2014	18:07:46.599	$GPGGA,180747,2528.7806,N,08001.6810,W,1,8,3.2,18,M,,M,,*5F
06/09/2014	18:07:47.621	$GPGGA,180748,2528.7809,N,08001.6813,W,1,8,1.7,18,M,,M,,*5B
06/09/2014	18:07:48.640	$GPGGA,180749,2528.7813,N,08001.6814,W,1,10,1.5,18,M,,M,,*6D
06/09/2014	18:07:49.630	$GPGGA,180750,2528.7817,N,08001.6817,W,1,10,1.5,18,M,,M,,*62
06/09/2014	18:07:50.660	$GPGGA,180751,2528.7827,N,08001.6821,W,1,10,1.5,18,M,,M,,*65
06/09/2014	18:07:51.649	$GPGGA,180752,2528.7832,N,08001.6824,W,1,10,1.5,18,M,,M,,*67
06/09/2014	18:07:52.650	$GPGGA,180753,2528.7836,N,08001.6826,W,1,10,1.5,18,M,,M,,*60
06/09/2014	18:07:53.638	$GPGGA,180754,2528.7840,N,08001.6829,W,1,10,1.5,18,M,,M,,*69
06/09/2014	18:07:54.769	$GPGGA,180755,2528.7843,N,08001.6832,W,1,10,1.5,18,M,,M,,*61
06/09/2014	18:07:55.670	$GPGGA,180756,2528.7847,N,08001.6835,W,1,10,1.5,18,M,,M,,*61
06/09/2014	18:07:56.692	$GPGGA,180757,2528.7850,N,08001.6837,W,1,9,1.6,18,M,,M,,*5F
06/09/2014	18:07:57.667	$GPGGA,180758,2528.7854,N,08001.6840,W,1,9,1.6,18,M,,M,,*54
06/09/2014	18:07:58.799	$GPGGA,180759,2528.7858,N,08001.6842,W,1,9,1.6,18,M,,M,,*5B
06/09/2014	18:07:59.717	$GPGGA,180800,2528.7861,N,08001.6844,W,1,9,1.6,18,M,,M,,*54
06/09/2014	18:08:00.717	$GPGGA,180801,2528.7865,N,08001.6847,W,1,9,1.6,18,M,,M,,*52
06/09/2014	18:08:01.696	$GPGGA,180802,2528.7871,N,08001.6850,W,1,9,1.6,18,M,,M,,*52
06/09/2014	18:08:02.715	$GPGGA,180803,2528.7875,N,08001.6853,W,1,9,1.6,18,M,,M,,*54
06/09/2014	18:08:03.856	$GPGGA,180804,2528.7879,N,08001.6855,W,1,9,1.5,18,M,,M,,*5A
06/09/2014	18:08:04.744	$GPGGA,180805,2528.7883,N,08001.6860,W,1,9,1.6,18,M,,M,,*5B
06/09/2014	18:08:05.835	$GPGGA,180806,2528.7887,N,08001.6861,W,1,9,1.6,18,M,,M,,*5D
06/09/2014	18:08:06.865	$GPGGA,180807,2528.7892,N,08001.6864,W,1,9,1.6,18,M,,M,,*5D
06/09/2014	18:08:07.773	$GPGGA,180808,2528.7894,N,08001.6866,W,1,9,1.6,18,M,,M,,*56
06/09/2014	18:08:08.773	$GPGGA,180809,2528.7900,N,08001.6869,W,1,10,1.5,18,M,,M,,*6F
06/09/2014	18:08:09.863	$GPGGA,180810,2528.7904,N,08001.6872,W,1,10,1.6,18,M,,M,,*6A
06/09/2014	18:08:10.873	$GPGGA,180811,2528.7908,N,08001.6875,W,1,9,1.6,18,M,,M,,*58
06/09/2014	18:08:11.903	$GPGGA,180812,2528.7912,N,08001.6878,W,1,9,1.6,18,M,,M,,*5D
06/09/2014	18:08:12.903	$GPGGA,180813,2528.7919,N,08001.6882,W,1,10,1.5,18,M,,M,,*69
06/09/2014	18:08:13.902	$GPGGA,180814,2528.7925,N,08001.6886,W,1,10,1.5,18,M,,M,,*65
06/09/2014	18:08:14.913	$GPGGA,180815,2528.7930,N,08001.6889,W,1,10,1.5,18,M,,M,,*6F
06/09/2014	18:08:15.942	$GPGGA,180816,2528.7934,N,08001.6891,W,1,10,1.5,18,M,,M,,*61
06/09/2014	18:08:16.931	$GPGGA,180817,2528.7939,N,08001.6894,W,1,10,1.5,18,M,,M,,*68
06/09/2014	18:08:17.941	$GPGGA,180818,2528.7943,N,08001.6897,W,1,10,1.5,18,M,,M,,*69
06/09/2014	18:08:18.941	$GPGGA,180819,2528.7948,N,08001.6900,W,1,10,1.5,18,M,,M,,*6C
06/09/2014	18:08:20.004	$GPGGA,180820,2528.7952,N,08001.6904,W,1,10,1.5,18,M,,M,,*69
06/09/2014	18:08:20.969	$GPGGA,180821,2528.7957,N,08001.6907,W,1,10,1.5,18,M,,M,,*6E
06/09/2014	18:08:21.969	$GPGGA,180822,2528.7961,N,08001.6909,W,1,10,1.5,18,M,,M,,*66
06/09/2014	18:08:22.969	$GPGGA,180823,2528.7965,N,08001.6911,W,1,10,1.5,18,M,,M,,*6A
06/09/2014	18:08:23.988	$GPGGA,180824,2528.7969,N,08001.6915,W,1,10,1.5,18,M,,M,,*65
06/09/2014	18:08:25.008	$GPGGA,180825,2528.7973,N,08001.6916,W,1,10,1.5,18,M,,M,,*6C
06/09/2014	18:08:25.987	$GPGGA,180826,2528.7977,N,08001.6919,W,1,10,1.5,18,M,,M,,*64
06/09/2014	18:08:27.027	$GPGGA,180827,2528.7980,N,08001.6922,W,1,10,1.5,18,M,,M,,*65
06/09/2014	18:08:28.027	$GPGGA,180828,2528.7984,N,08001.6925,W,1,10,1.5,18,M,,M,,*69
06/09/2014	18:08:30.339	$GPGGA,180830,2528.7992,N,08001.6929,W,1,10,1.5,17,M,,M,,*64
06/09/2014	18:08:31.056	$GPGGA,180831,2528.7997,N,08001.6933,W,1,10,1.5,17,M,,M,,*6B
06/09/2014	18:08:32.038	$GPGGA,180832,2528.8001,N,08001.6934,W,1,10,1.5,17,M,,M,,*66
06/09/2014	18:08:33.065	$GPGGA,180833,2528.8005,N,08001.6936,W,1,10,1.5,17,M,,M,,*61
06/09/2014	18:08:34.057	$GPGGA,180834,2528.8008,N,08001.6940,W,1,10,1.5,17,M,,M,,*6A
06/09/2014	18:08:35.085	$GPGGA,180835,2528.8012,N,08001.6941,W,1,10,1.5,17,M,,M,,*61
06/09/2014	18:08:36.087	$GPGGA,180836,2528.8015,N,08001.6944,W,1,10,1.5,17,M,,M,,*60
06/09/2014	18:08:37.104	$GPGGA,180837,2528.8019,N,08001.6947,W,1,10,1.5,17,M,,M,,*6E
06/09/2014	18:08:38.094	$GPGGA,180838,2528.8022,N,08001.6948,W,1,10,1.6,17,M,,M,,*65
06/09/2014	18:08:39.110	$GPGGA,180839,2528.8024,N,08001.6949,W,1,9,1.6,17,M,,M,,*5B
06/09/2014	18:08:40.113	$GPGGA,180840,2528.8027,N,08001.6951,W,1,9,1.5,17,M,,M,,*5C
06/09/2014	18:08:40.552	$GPGGA,180841,2528.8031,N,08001.6954,W,1,10,1.5,17,M,,M,,*67
06/09/2014	18:08:41.532	$GPGGA,180842,2528.8035,N,08001.6955,W,1,10,1.5,17,M,,M,,*61
06/09/2014	18:08:42.561	$GPGGA,180843,2528.8038,N,08001.6958,W,1,10,1.5,17,M,,M,,*60
06/09/2014	18:08:43.555	$GPGGA,180844,2528.8042,N,08001.6959,W,1,10,1.5,17,M,,M,,*6B
06/09/2014	18:08:44.561	$GPGGA,180845,2528.8046,N,08001.6962,W,1,10,1.5,17,M,,M,,*66
06/09/2014	18:08:45.570	$GPGGA,180846,2528.8049,N,08001.6965,W,1,10,1.5,17,M,,M,,*6D
06/09/2014	18:08:46.610	$GPGGA,180847,2528.8053,N,08001.6966,W,1,10,1.5,17,M,,M,,*64
06/09/2014	18:08:47.604	$GPGGA,180848,2528.8056,N,08001.6969,W,1,10,1.5,17,M,,M,,*61
06/09/2014	18:08:48.625	$GPGGA,180849,2528.8060,N,08001.6970,W,1,9,1.6,17,M,,M,,*56
06/09/2014	18:08:49.600	$GPGGA,180850,2528.8063,N,08001.6973,W,1,9,1.6,17,M,,M,,*5E
06/09/2014	18:08:50.608	$GPGGA,180851,2528.8066,N,08001.6974,W,1,10,1.5,17,M,,M,,*66
06/09/2014	18:08:51.618	$GPGGA,180852,2528.8069,N,08001.6976,W,1,10,1.5,17,M,,M,,*68
06/09/2014	18:08:52.720	$GPGGA,180853,2528.8071,N,08001.6977,W,1,10,1.5,16,M,,M,,*60
06/09/2014	18:08:53.617	$GPGGA,180854,2528.8074,N,08001.6980,W,1,10,1.5,16,M,,M,,*6A
06/09/2014	18:08:54.666	$GPGGA,180855,2528.8078,N,08001.6981,W,1,10,1.5,16,M,,M,,*66
06/09/2014	18:08:55.646	$GPGGA,180856,2528.8082,N,08001.6983,W,1,10,1.5,16,M,,M,,*62
06/09/2014	18:08:56.655	$GPGGA,180857,2528.8085,N,08001.6985,W,1,10,1.5,16,M,,M,,*62
06/09/2014	18:08:57.655	$GPGGA,180858,2528.8089,N,08001.6987,W,1,10,1.5,16,M,,M,,*63
06/09/2014	18:08:58.766	$GPGGA,180859,2528.8092,N,08001.6990,W,1,10,1.5,16,M,,M,,*6E
06/09/2014	18:08:59.826	$GPGGA,180900,2528.8096,N,08001.6991,W,1,10,1.5,16,M,,M,,*66
06/09/2014	18:09:00.684	$GPGGA,180901,2528.8100,N,08001.6994,W,1,10,1.5,16,M,,M,,*6C
06/09/2014	18:09:01.684	$GPGGA,180902,2528.8103,N,08001.6996,W,1,10,1.5,16,M,,M,,*6E
06/09/2014	18:09:02.825	$GPGGA,180903,2528.8107,N,08001.6998,W,1,10,1.5,16,M,,M,,*65
06/09/2014	18:09:03.804	$GPGGA,180904,2528.8111,N,08001.7001,W,1,10,1.5,16,M,,M,,*6D
06/09/2014	18:09:04.824	$GPGGA,180905,2528.8114,N,08001.7002,W,1,10,1.5,16,M,,M,,*6A
06/09/2014	18:09:05.823	$GPGGA,180906,2528.8118,N,08001.7005,W,1,10,1.5,16,M,,M,,*62
06/09/2014	18:09:06.833	$GPGGA,180907,2528.8121,N,08001.7006,W,1,10,1.5,16,M,,M,,*6A
06/09/2014	18:09:07.853	$GPGGA,180908,2528.8125,N,08001.7008,W,1,10,1.5,16,M,,M,,*6F
06/09/2014	18:09:08.864	$GPGGA,180909,2528.8128,N,08001.7009,W,1,10,1.5,16,M,,M,,*62
06/09/2014	18:09:09.852	$GPGGA,180910,2528.8132,N,08001.7012,W,1,10,1.6,15,M,,M,,*6B
06/09/2014	18:09:10.862	$GPGGA,180911,2528.8136,N,08001.7013,W,1,9,1.6,15,M,,M,,*57
06/09/2014	18:09:11.872	$GPGGA,180912,2528.8139,N,08001.7016,W,1,9,1.5,15,M,,M,,*5D
06/09/2014	18:09:12.890	$GPGGA,180913,2528.8142,N,08001.7016,W,1,10,1.5,15,M,,M,,*68
06/09/2014	18:09:13.880	$GPGGA,180914,2528.8147,N,08001.7016,W,1,10,1.7,15,M,,M,,*68
06/09/2014	18:09:14.890	$GPGGA,180915,2528.8150,N,08001.7017,W,1,10,1.5,15,M,,M,,*6C
06/09/2014	18:09:15.909	$GPGGA,180916,2528.8153,N,08001.7019,W,1,10,1.7,15,M,,M,,*60
06/09/2014	18:09:16.909	$GPGGA,180917,2528.8156,N,08001.7020,W,1,9,1.7,15,M,,M,,*56
06/09/2014	18:09:17.919	$GPGGA,180918,2528.8158,N,08001.7020,W,1,9,1.7,16,M,,M,,*54
06/09/2014	18:09:18.928	$GPGGA,180919,2528.8161,N,08001.7021,W,1,9,1.7,16,M,,M,,*5E
06/09/2014	18:09:19.938	$GPGGA,180920,2528.8164,N,08001.7023,W,1,9,1.7,16,M,,M,,*53
06/09/2014	18:09:20.948	$GPGGA,180921,2528.8168,N,08001.7023,W,1,9,1.7,16,M,,M,,*5E
06/09/2014	18:09:21.933	$GPGGA,180922,2528.8171,N,08001.7024,W,1,9,1.7,16,M,,M,,*52
06/09/2014	18:09:22.977	$GPGGA,180923,2528.8174,N,08001.7025,W,1,9,1.7,16,M,,M,,*57
06/09/2014	18:09:23.967	$GPGGA,180924,2528.8176,N,08001.7027,W,1,9,1.7,16,M,,M,,*50
06/09/2014	18:09:24.969	$GPGGA,180925,2528.8179,N,08001.7027,W,1,9,1.7,16,M,,M,,*5E
06/09/2014	18:09:25.976	$GPGGA,180926,2528.8183,N,08001.7028,W,1,9,1.7,16,M,,M,,*57
06/09/2014	18:09:27.006	$GPGGA,180927,2528.8185,N,08001.7030,W,1,9,1.7,16,M,,M,,*59
06/09/2014	18:09:28.026	$GPGGA,180928,2528.8189,N,08001.7030,W,1,9,1.7,16,M,,M,,*5A
06/09/2014	18:09:29.015	$GPGGA,180929,2528.8192,N,08001.7031,W,1,9,1.7,16,M,,M,,*50
06/09/2014	18:09:30.003	$GPGGA,180930,2528.8194,N,08001.7034,W,1,9,1.7,16,M,,M,,*5B
06/09/2014	18:09:31.019	$GPGGA,180931,2528.8197,N,08001.7034,W,1,9,1.7,16,M,,M,,*59
06/09/2014	18:09:32.050	$GPGGA,180932,2528.8201,N,08001.7035,W,1,9,1.7,16,M,,M,,*57
06/09/2014	18:09:33.041	$GPGGA,180933,2528.8204,N,08001.7037,W,1,9,1.7,16,M,,M,,*51
06/09/2014	18:09:34.022	$GPGGA,180934,2528.8207,N,08001.7038,W,1,9,1.7,16,M,,M,,*5A
06/09/2014	18:09:35.022	$GPGGA,180935,2528.8210,N,08001.7039,W,1,9,1.7,16,M,,M,,*5C
06/09/2014	18:09:36.183	$GPGGA,180936,2528.8212,N,08001.7041,W,1,9,1.7,16,M,,M,,*52
06/09/2014	18:09:37.072	$GPGGA,180937,2528.8215,N,08001.7041,W,1,9,1.7,16,M,,M,,*54
06/09/2014	18:09:38.061	$GPGGA,180938,2528.8219,N,08001.7042,W,1,9,1.7,16,M,,M,,*54
06/09/2014	18:09:39.082	$GPGGA,180939,2528.8223,N,08001.7045,W,1,9,1.7,17,M,,M,,*5A
06/09/2014	18:09:40.093	$GPGGA,180940,2528.8226,N,08001.7045,W,1,9,1.7,17,M,,M,,*51
06/09/2014	18:09:40.510	$GPGGA,180941,2528.8229,N,08001.7048,W,1,9,1.7,17,M,,M,,*52
06/09/2014	18:09:41.520	$GPGGA,180942,2528.8233,N,08001.7048,W,1,9,1.7,17,M,,M,,*5A
06/09/2014	18:09:42.610	$GPGGA,180943,2528.8236,N,08001.7049,W,1,9,1.7,17,M,,M,,*5F
06/09/2014	18:09:43.529	$GPGGA,180944,2528.8239,N,08001.7052,W,1,9,1.7,17,M,,M,,*5D
06/09/2014	18:09:44.549	$GPGGA,180945,2528.8243,N,08001.7052,W,1,9,1.7,17,M,,M,,*51
06/09/2014	18:09:45.529	$GPGGA,180946,2528.8246,N,08001.7053,W,1,9,1.7,17,M,,M,,*56
06/09/2014	18:09:46.730	$GPGGA,180947,2528.8248,N,08001.7056,W,1,9,1.7,17,M,,M,,*5C
06/09/2014	18:09:47.567	$GPGGA,180948,2528.8252,N,08001.7056,W,1,9,1.7,17,M,,M,,*58
06/09/2014	18:09:48.748	$GPGGA,180949,2528.8255,N,08001.7057,W,1,9,1.7,17,M,,M,,*5F
06/09/2014	18:09:49.577	$GPGGA,180950,2528.8259,N,08001.7059,W,1,9,1.7,17,M,,M,,*55
06/09/2014	18:09:50.667	$GPGGA,180951,2528.8262,N,08001.7061,W,1,9,1.7,17,M,,M,,*57
06/09/2014	18:09:51.596	$GPGGA,180952,2528.8266,N,08001.7063,W,1,9,1.7,17,M,,M,,*52
06/09/2014	18:09:52.686	$GPGGA,180953,2528.8270,N,08001.7064,W,1,9,1.7,17,M,,M,,*53
06/09/2014	18:09:53.726	$GPGGA,180954,2528.8273,N,08001.7066,W,1,9,1.5,17,M,,M,,*57
06/09/2014	18:09:54.807	$GPGGA,180955,2528.8277,N,08001.7067,W,1,10,1.5,17,M,,M,,*6B
06/09/2014	18:09:55.715	$GPGGA,180956,2528.8281,N,08001.7068,W,1,10,1.5,17,M,,M,,*6E
06/09/2014	18:09:56.826	$GPGGA,180957,2528.8284,N,08001.7070,W,1,10,1.5,17,M,,M,,*63
06/09/2014	18:09:57.725	$GPGGA,180958,2528.8288,N,08001.7074,W,1,10,1.5,17,M,,M,,*64
06/09/2014	18:09:58.835	$GPGGA,180959,2528.8293,N,08001.7074,W,1,9,1.7,17,M,,M,,*55
06/09/2014	18:09:59.784	$GPGGA,181000,2528.8298,N,08001.7077,W,1,9,1.7,17,M,,M,,*59
06/09/2014	18:10:00.855	$GPGGA,181001,2528.8297,N,08001.7077,W,1,8,3.2,17,M,,M,,*51
06/09/2014	18:10:01.814	$GPGGA,181002,2528.8299,N,08001.7079,W,1,8,1.7,16,M,,M,,*54
06/09/2014	18:10:02.874	$GPGGA,181003,2528.8304,N,08001.7081,W,1,9,1.7,16,M,,M,,*56
06/09/2014	18:10:03.783	$GPGGA,181004,2528.8308,N,08001.7085,W,1,9,1.7,16,M,,M,,*59
06/09/2014	18:10:04.893	$GPGGA,181005,2528.8313,N,08001.7088,W,1,9,1.7,16,M,,M,,*5F
06/09/2014	18:10:05.811	$GPGGA,181006,2528.8319,N,08001.7092,W,1,9,1.7,16,M,,M,,*5D
06/09/2014	18:10:06.882	$GPGGA,181007,2528.8322,N,08001.7095,W,1,9,1.7,16,M,,M,,*53
06/09/2014	18:10:07.841	$GPGGA,181008,2528.8326,N,08001.7099,W,1,9,1.7,16,M,,M,,*54
06/09/2014	18:10:08.820	$GPGGA,181009,2528.8329,N,08001.7102,W,1,9,1.7,16,M,,M,,*59
06/09/2014	18:10:09.810	$GPGGA,181010,2528.8331,N,08001.7104,W,1,9,1.7,16,M,,M,,*5E
06/09/2014	18:10:10.931	$GPGGA,181011,2528.8335,N,08001.7107,W,1,9,1.7,16,M,,M,,*58
06/09/2014	18:10:11.839	$GPGGA,181012,2528.8340,N,08001.7111,W,1,9,1.7,16,M,,M,,*5E
06/09/2014	18:10:12.930	$GPGGA,181013,2528.8345,N,08001.7115,W,1,9,1.7,16,M,,M,,*5E
06/09/2014	18:10:13.869	$GPGGA,181014,2528.8349,N,08001.7120,W,1,9,1.7,16,M,,M,,*53
06/09/2014	18:10:14.929	$GPGGA,181015,2528.8353,N,08001.7122,W,1,9,1.7,16,M,,M,,*5B
06/09/2014	18:10:15.918	$GPGGA,181016,2528.8358,N,08001.7126,W,1,9,1.7,16,M,,M,,*57
06/09/2014	18:10:16.969	$GPGGA,181017,2528.8363,N,08001.7131,W,1,9,3.2,16,M,,M,,*5F
06/09/2014	18:10:17.908	$GPGGA,181018,2528.8366,N,08001.7133,W,1,9,3.2,16,M,,M,,*57
06/09/2014	18:10:18.877	$GPGGA,181019,2528.8369,N,08001.7136,W,1,9,1.7,16,M,,M,,*5B
06/09/2014	18:10:19.947	$GPGGA,181020,2528.8371,N,08001.7140,W,1,9,1.7,16,M,,M,,*59
06/09/2014	18:10:21.009	$GPGGA,181021,2528.8376,N,08001.7144,W,1,9,1.7,16,M,,M,,*5B
06/09/2014	18:10:21.936	$GPGGA,181022,2528.8380,N,08001.7149,W,1,9,1.7,16,M,,M,,*5C
06/09/2014	18:10:23.030	$GPGGA,181023,2528.8384,N,08001.7151,W,1,9,1.7,16,M,,M,,*50
06/09/2014	18:10:23.976	$GPGGA,181024,2528.8388,N,08001.7155,W,1,9,1.7,16,M,,M,,*5F
06/09/2014	18:10:25.037	$GPGGA,181025,2528.8392,N,08001.7160,W,1,9,1.7,16,M,,M,,*53
06/09/2014	18:10:25.964	$GPGGA,181026,2528.8396,N,08001.7164,W,1,9,1.7,16,M,,M,,*50
06/09/2014	18:10:27.024	$GPGGA,181027,2528.8399,N,08001.7168,W,1,9,1.7,16,M,,M,,*52
06/09/2014	18:10:28.064	$GPGGA,181028,2528.8403,N,08001.7172,W,1,9,1.7,16,M,,M,,*52
06/09/2014	18:10:29.074	$GPGGA,181029,2528.8407,N,08001.7178,W,1,9,1.7,16,M,,M,,*5D
06/09/2014	18:10:30.013	$GPGGA,181030,2528.8411,N,08001.7182,W,1,9,1.7,16,M,,M,,*57
06/09/2014	18:10:31.083	$GPGGA,181031,2528.8416,N,08001.7186,W,1,9,1.7,16,M,,M,,*55
06/09/2014	18:10:31.992	$GPGGA,181032,2528.8420,N,08001.7191,W,1,9,1.7,16,M,,M,,*55
06/09/2014	18:10:32.991	$GPGGA,181033,2528.8424,N,08001.7196,W,1,9,1.7,16,M,,M,,*57
06/09/2014	18:10:34.102	$GPGGA,181034,2528.8428,N,08001.7200,W,1,9,1.7,16,M,,M,,*50
06/09/2014	18:10:35.172	$GPGGA,181035,2528.8432,N,08001.7205,W,1,9,1.7,16,M,,M,,*5F
06/09/2014	18:10:36.142	$GPGGA,181036,2528.8436,N,08001.7211,W,1,9,1.7,16,M,,M,,*5D
06/09/2014	18:10:37.121	$GPGGA,181037,2528.8439,N,08001.7215,W,1,9,1.7,16,M,,M,,*57
06/09/2014	18:10:38.131	$GPGGA,181038,2528.8443,N,08001.7220,W,1,9,1.7,16,M,,M,,*53
06/09/2014	18:10:39.193	$GPGGA,181039,2528.8447,N,08001.7225,W,1,9,1.7,16,M,,M,,*53
06/09/2014	18:10:40.149	$GPGGA,181040,2528.8452,N,08001.7229,W,1,9,1.7,16,M,,M,,*55
06/09/2014	18:10:40.579	$GPGGA,181041,2528.8456,N,08001.7236,W,1,9,1.7,16,M,,M,,*5E
06/09/2014	18:10:41.578	$GPGGA,181042,2528.8460,N,08001.7240,W,1,9,1.7,16,M,,M,,*59
06/09/2014	18:10:42.607	$GPGGA,181043,2528.8464,N,08001.7245,W,1,9,1.7,16,M,,M,,*59
06/09/2014	18:10:43.607	$GPGGA,181044,2528.8468,N,08001.7251,W,1,9,1.7,16,M,,M,,*57
06/09/2014	18:10:44.627	$GPGGA,181045,2528.8472,N,08001.7255,W,1,9,1.7,16,M,,M,,*59
06/09/2014	18:10:45.617	$GPGGA,181046,2528.8475,N,08001.7261,W,1,9,1.7,16,M,,M,,*5A
06/09/2014	18:10:46.646	$GPGGA,181047,2528.8481,N,08001.7265,W,1,9,1.7,16,M,,M,,*54
06/09/2014	18:10:47.636	$GPGGA,181048,2528.8483,N,08001.7270,W,1,9,1.7,16,M,,M,,*5D
06/09/2014	18:10:48.666	$GPGGA,181049,2528.8488,N,08001.7276,W,1,9,1.7,16,M,,M,,*51
06/09/2014	18:10:49.655	$GPGGA,181050,2528.8493,N,08001.7281,W,1,9,1.7,16,M,,M,,*5B
06/09/2014	18:10:50.675	$GPGGA,181051,2528.8497,N,08001.7287,W,1,9,1.7,16,M,,M,,*58
06/09/2014	18:10:51.664	$GPGGA,181052,2528.8501,N,08001.7292,W,1,9,1.7,16,M,,M,,*51
06/09/2014	18:10:52.694	$GPGGA,181053,2528.8507,N,08001.7298,W,1,9,1.7,16,M,,M,,*5C
06/09/2014	18:10:53.664	$GPGGA,181054,2528.8511,N,08001.7303,W,1,9,1.7,16,M,,M,,*5F
06/09/2014	18:10:56.016	$GPGGA,181056,2528.8519,N,08001.7314,W,1,9,1.7,16,M,,M,,*53
06/09/2014	18:10:56.743	$GPGGA,181057,2528.8523,N,08001.7320,W,1,9,1.7,16,M,,M,,*5C
06/09/2014	18:10:57.712	$GPGGA,181058,2528.8529,N,08001.7326,W,1,9,1.7,16,M,,M,,*5F
06/09/2014	18:10:58.752	$GPGGA,181059,2528.8533,N,08001.7331,W,1,9,1.7,16,M,,M,,*53
06/09/2014	18:10:59.761	$GPGGA,181100,2528.8539,N,08001.7337,W,1,9,1.7,16,M,,M,,*52
06/09/2014	18:11:00.781	$GPGGA,181101,2528.8539,N,08001.7337,W,1,9,1.7,16,M,,M,,*53
06/09/2014	18:11:01.734	$GPGGA,181102,2528.8548,N,08001.7349,W,1,9,3.2,16,M,,M,,*58
06/09/2014	18:11:02.780	$GPGGA,181103,2528.8548,N,08001.7349,W,1,8,3.2,16,M,,M,,*58
06/09/2014	18:11:03.760	$GPGGA,181104,2528.8559,N,08001.7363,W,1,8,1.7,16,M,,M,,*50
06/09/2014	18:11:04.790	$GPGGA,181105,2528.8559,N,08001.7363,W,1,9,1.7,16,M,,M,,*50
06/09/2014	18:11:05.760	$GPGGA,181106,2528.8570,N,08001.7374,W,1,9,1.7,16,M,,M,,*5E
06/09/2014	18:11:06.849	$GPGGA,181107,2528.8570,N,08001.7374,W,1,9,1.7,16,M,,M,,*5F
06/09/2014	18:11:07.789	$GPGGA,181108,2528.8582,N,08001.7386,W,1,9,1.7,16,M,,M,,*50
06/09/2014	18:11:08.849	$GPGGA,181109,2528.8587,N,08001.7393,W,1,9,1.7,16,M,,M,,*50
06/09/2014	18:11:09.904	$GPGGA,181110,2528.8591,N,08001.7399,W,1,9,1.7,16,M,,M,,*55
06/09/2014	18:11:10.929	$GPGGA,181111,2528.8597,N,08001.7406,W,1,9,1.7,16,M,,M,,*53
06/09/2014	18:11:11.818	$GPGGA,181112,2528.8602,N,08001.7413,W,1,9,3.2,17,M,,M,,*5D
06/09/2014	18:11:12.948	$GPGGA,181113,2528.8609,N,08001.7420,W,1,8,3.2,17,M,,M,,*56
06/09/2014	18:11:13.816	$GPGGA,181114,2528.8616,N,08001.7425,W,1,8,1.7,17,M,,M,,*5D
06/09/2014	18:11:14.859	$GPGGA,181115,2528.8616,N,08001.7425,W,1,9,1.7,17,M,,M,,*5D
06/09/2014	18:11:15.874	$GPGGA,181116,2528.8622,N,08001.7432,W,1,9,1.7,17,M,,M,,*5F
06/09/2014	18:11:16.854	$GPGGA,181117,2528.8629,N,08001.7439,W,1,9,1.7,17,M,,M,,*5E
06/09/2014	18:11:17.884	$GPGGA,181118,2528.8641,N,08001.7453,W,1,9,1.7,17,M,,M,,*53
06/09/2014	18:11:18.874	$GPGGA,181119,2528.8641,N,08001.7453,W,1,9,1.7,17,M,,M,,*52
06/09/2014	18:11:19.997	$GPGGA,181120,2528.8653,N,08001.7465,W,1,9,1.7,17,M,,M,,*5E
06/09/2014	18:11:20.964	$GPGGA,181121,2528.8660,N,08001.7471,W,1,9,1.7,17,M,,M,,*5A
06/09/2014	18:11:21.974	$GPGGA,181122,2528.8666,N,08001.7478,W,1,9,1.7,17,M,,M,,*56
06/09/2014	18:11:22.914	$GPGGA,181123,2528.8666,N,08001.7478,W,1,9,1.7,17,M,,M,,*57
06/09/2014	18:11:23.912	$GPGGA,181124,2528.8678,N,08001.7491,W,1,9,1.7,17,M,,M,,*58
06/09/2014	18:11:25.003	$GPGGA,181125,2528.8685,N,08001.7498,W,1,9,1.7,17,M,,M,,*52
06/09/2014	18:11:26.002	$GPGGA,181126,2528.8692,N,08001.7505,W,1,9,1.9,17,M,,M,,*5C
06/09/2014	18:11:27.070	$GPGGA,181127,2528.8692,N,08001.7505,W,1,8,1.9,17,M,,M,,*5C
06/09/2014	18:11:28.042	$GPGGA,181128,2528.8703,N,08001.7518,W,1,8,1.9,17,M,,M,,*56
06/09/2014	18:11:29.042	$GPGGA,181129,2528.8710,N,08001.7525,W,1,8,1.9,17,M,,M,,*5B
06/09/2014	18:11:30.051	$GPGGA,181130,2528.8717,N,08001.7532,W,1,8,1.9,17,M,,M,,*52
06/09/2014	18:11:31.091	$GPGGA,181131,2528.8725,N,08001.7538,W,1,9,1.7,17,M,,M,,*57
06/09/2014	18:11:32.083	$GPGGA,181132,2528.8732,N,08001.7544,W,1,9,1.7,17,M,,M,,*59
06/09/2014	18:11:33.089	$GPGGA,181133,2528.8739,N,08001.7551,W,1,9,1.7,17,M,,M,,*57
06/09/2014	18:11:34.079	$GPGGA,181134,2528.8745,N,08001.7556,W,1,9,1.7,17,M,,M,,*5C
06/09/2014	18:11:35.109	$GPGGA,181135,2528.8750,N,08001.7562,W,1,9,1.7,17,M,,M,,*5E
06/09/2014	18:11:36.098	$GPGGA,181136,2528.8759,N,08001.7569,W,1,9,1.7,17,M,,M,,*5F
06/09/2014	18:11:37.128	$GPGGA,181137,2528.8764,N,08001.7573,W,1,9,1.7,17,M,,M,,*5B
06/09/2014	18:11:38.104	$GPGGA,181138,2528.8771,N,08001.7579,W,1,9,1.7,17,M,,M,,*5A
06/09/2014	18:11:39.127	$GPGGA,181139,2528.8779,N,08001.7584,W,1,9,1.7,17,M,,M,,*51
06/09/2014	18:11:40.127	$GPGGA,181140,2528.8783,N,08001.7587,W,1,9,3.2,17,M,,M,,*5E
06/09/2014	18:11:40.567	$GPGGA,181141,2528.8788,N,08001.7591,W,1,9,1.7,17,M,,M,,*54
06/09/2014	18:11:41.566	$GPGGA,181142,2528.8793,N,08001.7597,W,1,9,1.7,17,M,,M,,*5B
06/09/2014	18:11:42.556	$GPGGA,181143,2528.8801,N,08001.7601,W,1,9,1.7,17,M,,M,,*52
06/09/2014	18:11:43.586	$GPGGA,181144,2528.8808,N,08001.7605,W,1,9,1.7,17,M,,M,,*58
06/09/2014	18:11:44.575	$GPGGA,181145,2528.8815,N,08001.7610,W,1,9,1.7,17,M,,M,,*51
06/09/2014	18:11:45.585	$GPGGA,181146,2528.8822,N,08001.7616,W,1,9,1.7,17,M,,M,,*50
06/09/2014	18:11:46.605	$GPGGA,181147,2528.8829,N,08001.7621,W,1,9,1.7,17,M,,M,,*5E
