Software Version Number: 1	Data File Format Number: 1	Build Version Number: 1	Error Count Since VI Started: 0	Manufacturer: Raytheon	 Model Number: RayMarine 120	 S/N: 	 Cal Date: 	 Wind Direction Offset: 0.00	 Slope (M)1: 0.00	 Offset (B)1: 0.00	 Slope (M)2: 0.00	 Offset (B)2: 0.00	 Slope (M)3: 0.00	 Offset (B)3: 0.00	 Slope (M)4: 0.00	 Offset (B)4: 0.00	 Slope (M)5: 0.00	 Offset (B)5: 0.00	 Slope (M)6: 0.00	 Offset (B)6: 0.00
Computer Date	Computer Time	GGA String
05/28/2014	11:00:00.161	$GPGGA,110000,2542.8615,N,08010.6326,W,1,10,1.4,16,M,,M,,*60
05/28/2014	11:00:01.147	$GPGGA,110001,2542.8606,N,08010.6351,W,1,10,1.4,16,M,,M,,*63
05/28/2014	11:00:02.194	$GPGGA,110002,2542.8597,N,08010.6376,W,1,10,1.4,16,M,,M,,*6E
05/28/2014	11:00:03.221	$GPGGA,110003,2542.8589,N,08010.6402,W,1,10,1.4,16,M,,M,,*64
05/28/2014	11:00:04.238	$GPGGA,110004,2542.8582,N,08010.6427,W,1,10,1.4,16,M,,M,,*6F
05/28/2014	11:00:05.286	$GPGGA,110005,2542.8575,N,08010.6452,W,1,10,1.4,16,M,,M,,*64
05/28/2014	11:00:06.271	$GPGGA,110006,2542.8565,N,08010.6478,W,1,10,1.4,15,M,,M,,*6D
05/28/2014	11:00:07.340	$GPGGA,110007,2542.8557,N,08010.6503,W,1,10,1.4,15,M,,M,,*60
05/28/2014	11:00:08.346	$GPGGA,110008,2542.8548,N,08010.6528,W,1,10,1.4,15,M,,M,,*68
05/28/2014	11:00:09.373	$GPGGA,110009,2542.8540,N,08010.6553,W,1,9,1.8,15,M,,M,,*59
05/28/2014	11:00:10.390	$GPGGA,110010,2542.8531,N,08010.6579,W,1,9,1.8,15,M,,M,,*5F
05/28/2014	11:00:11.426	$GPGGA,110011,2542.8521,N,08010.6604,W,1,9,1.8,15,M,,M,,*56
05/28/2014	11:00:12.432	$GPGGA,110012,2542.8510,N,08010.6629,W,1,9,2.1,15,M,,M,,*52
05/28/2014	11:00:13.490	$GPGGA,110013,2542.8499,N,08010.6652,W,1,9,1.8,15,M,,M,,*55
05/28/2014	11:00:14.466	$GPGGA,110014,2542.8489,N,08010.6677,W,1,9,2.3,15,M,,M,,*5C
05/28/2014	11:00:15.503	$GPGGA,110015,2542.8481,N,08010.6703,W,1,9,1.8,15,M,,M,,*5F
05/28/2014	11:00:16.540	$GPGGA,110016,2542.8471,N,08010.6727,W,1,9,1.8,15,M,,M,,*55
05/28/2014	11:00:17.656	$GPGGA,110017,2542.8464,N,08010.6750,W,1,8,2.3,15,M,,M,,*59
05/28/2014	11:00:18.565	$GPGGA,110018,2542.8456,N,08010.6774,W,1,8,1.8,15,M,,M,,*59
05/28/2014	11:00:19.611	$GPGGA,110019,2542.8448,N,08010.6799,W,1,9,1.8,15,M,,M,,*55
05/28/2014	11:00:20.639	$GPGGA,110020,2542.8441,N,08010.6822,W,1,9,1.8,15,M,,M,,*59
05/28/2014	11:00:21.747	$GPGGA,110021,2542.8432,N,08010.6847,W,1,9,1.8,16,M,,M,,*5C
05/28/2014	11:00:22.797	$GPGGA,110022,2542.8423,N,08010.6872,W,1,9,1.8,16,M,,M,,*59
05/28/2014	11:00:23.712	$GPGGA,110023,2542.8416,N,08010.6897,W,1,9,1.8,16,M,,M,,*55
05/28/2014	11:00:24.854	$GPGGA,110024,2542.8407,N,08010.6922,W,1,9,1.8,16,M,,M,,*5D
05/28/2014	11:00:25.753	$GPGGA,110025,2542.8399,N,08010.6947,W,1,9,1.8,16,M,,M,,*5F
05/28/2014	11:00:26.899	$GPGGA,110026,2542.8391,N,08010.6972,W,1,9,1.8,16,M,,M,,*52
05/28/2014	11:00:27.922	$GPGGA,110027,2542.8382,N,08010.6996,W,1,9,1.8,16,M,,M,,*5B
05/28/2014	11:00:28.853	$GPGGA,110028,2542.8373,N,08010.7020,W,1,9,1.8,16,M,,M,,*5F
05/28/2014	11:00:29.962	$GPGGA,110029,2542.8364,N,08010.7045,W,1,9,1.8,16,M,,M,,*5B
05/28/2014	11:00:30.876	$GPGGA,110030,2542.8356,N,08010.7070,W,1,9,1.8,16,M,,M,,*54
05/28/2014	11:00:32.006	$GPGGA,110031,2542.8348,N,08010.7095,W,1,9,1.8,16,M,,M,,*51
05/28/2014	11:00:33.033	$GPGGA,110032,2542.8340,N,08010.7121,W,1,9,1.8,16,M,,M,,*54
05/28/2014	11:00:34.050	$GPGGA,110033,2542.8333,N,08010.7146,W,1,9,1.8,16,M,,M,,*50
05/28/2014	11:00:35.077	$GPGGA,110034,2542.8323,N,08010.7171,W,1,9,2.2,16,M,,M,,*5B
05/28/2014	11:00:36.104	$GPGGA,110035,2542.8315,N,08010.7194,W,1,9,1.8,16,M,,M,,*5D
05/28/2014	11:00:37.141	$GPGGA,110036,2542.8306,N,08010.7219,W,1,9,1.8,16,M,,M,,*5A
05/28/2014	11:00:38.168	$GPGGA,110037,2542.8299,N,08010.7244,W,1,9,1.8,16,M,,M,,*54
05/28/2014	11:00:39.174	$GPGGA,110038,2542.8293,N,08010.7269,W,1,9,2.2,16,M,,M,,*57
05/28/2014	11:00:38.572	$GPGGA,110039,2542.8284,N,08010.7294,W,1,8,2.2,16,M,,M,,*53
05/28/2014	11:00:39.620	$GPGGA,110040,2542.8273,N,08010.7319,W,1,8,2.2,15,M,,M,,*52
05/28/2014	11:00:40.636	$GPGGA,110041,2542.8264,N,08010.7345,W,1,9,1.8,15,M,,M,,*54
05/28/2014	11:00:41.663	$GPGGA,110042,2542.8254,N,08010.7370,W,1,9,1.8,15,M,,M,,*52
05/28/2014	11:00:42.690	$GPGGA,110043,2542.8246,N,08010.7395,W,1,9,1.8,15,M,,M,,*5B
05/28/2014	11:00:43.717	$GPGGA,110044,2542.8236,N,08010.7420,W,1,9,1.8,15,M,,M,,*52
05/28/2014	11:00:44.744	$GPGGA,110045,2542.8228,N,08010.7444,W,1,9,1.8,15,M,,M,,*5E
05/28/2014	11:00:45.760	$GPGGA,110046,2542.8219,N,08010.7469,W,1,9,1.8,15,M,,M,,*50
05/28/2014	11:00:46.767	$GPGGA,110047,2542.8210,N,08010.7493,W,1,9,1.8,15,M,,M,,*5D
05/28/2014	11:00:47.814	$GPGGA,110048,2542.8203,N,08010.7518,W,1,9,1.8,15,M,,M,,*52
05/28/2014	11:00:48.851	$GPGGA,110049,2542.8193,N,08010.7543,W,1,9,1.8,15,M,,M,,*57
05/28/2014	11:00:49.858	$GPGGA,110050,2542.8185,N,08010.7569,W,1,9,1.8,15,M,,M,,*50
05/28/2014	11:00:50.875	$GPGGA,110051,2542.8175,N,08010.7594,W,1,9,1.8,15,M,,M,,*5C
05/28/2014	11:00:51.922	$GPGGA,110052,2542.8165,N,08010.7619,W,1,9,1.8,15,M,,M,,*58
05/28/2014	11:00:52.939	$GPGGA,110053,2542.8156,N,08010.7644,W,1,9,1.8,15,M,,M,,*51
05/28/2014	11:00:53.956	$GPGGA,110054,2542.8147,N,08010.7668,W,1,9,1.8,15,M,,M,,*58
05/28/2014	11:00:55.003	$GPGGA,110055,2542.8139,N,08010.7693,W,1,9,1.8,15,M,,M,,*54
05/28/2014	11:00:56.010	$GPGGA,110056,2542.8130,N,08010.7718,W,1,9,2.3,15,M,,M,,*54
05/28/2014	11:00:57.037	$GPGGA,110057,2542.8121,N,08010.7743,W,1,8,2.3,15,M,,M,,*5A
05/28/2014	11:00:58.046	$GPGGA,110058,2542.8112,N,08010.7771,W,1,8,2.3,15,M,,M,,*54
05/28/2014	11:00:59.101	$GPGGA,110059,2542.8105,N,08010.7796,W,1,9,1.8,15,M,,M,,*53
05/28/2014	11:01:00.128	$GPGGA,110100,2542.8095,N,08010.7822,W,1,9,1.8,16,M,,M,,*55
05/28/2014	11:01:01.134	$GPGGA,110101,2542.8087,N,08010.7845,W,1,9,1.8,16,M,,M,,*56
05/28/2014	11:01:02.161	$GPGGA,110102,2542.8080,N,08010.7872,W,1,9,1.8,16,M,,M,,*56
05/28/2014	11:01:03.300	$GPGGA,110103,2542.8070,N,08010.7897,W,1,9,1.8,16,M,,M,,*53
05/28/2014	11:01:04.214	$GPGGA,110104,2542.8062,N,08010.7923,W,1,9,1.8,16,M,,M,,*59
05/28/2014	11:01:05.252	$GPGGA,110105,2542.8055,N,08010.7948,W,1,9,1.8,16,M,,M,,*51
05/28/2014	11:01:06.238	$GPGGA,110106,2542.8047,N,08010.7973,W,1,9,1.8,16,M,,M,,*59
05/28/2014	11:01:07.285	$GPGGA,110107,2542.8040,N,08010.7999,W,1,8,1.8,16,M,,M,,*5A
05/28/2014	11:01:08.322	$GPGGA,110108,2542.8031,N,08010.8025,W,1,8,1.8,16,M,,M,,*52
05/28/2014	11:01:09.339	$GPGGA,110109,2542.8023,N,08010.8050,W,1,8,1.8,16,M,,M,,*52
05/28/2014	11:01:10.363	$GPGGA,110110,2542.8015,N,08010.8076,W,1,8,1.8,16,M,,M,,*5B
05/28/2014	11:01:11.476	$GPGGA,110111,2542.8006,N,08010.8103,W,1,8,1.8,16,M,,M,,*5B
05/28/2014	11:01:12.410	$GPGGA,110112,2542.7998,N,08010.8128,W,1,8,1.8,16,M,,M,,*50
05/28/2014	11:01:13.447	$GPGGA,110113,2542.7990,N,08010.8154,W,1,8,1.8,16,M,,M,,*52
05/28/2014	11:01:14.470	$GPGGA,110114,2542.7981,N,08010.8179,W,1,8,1.8,16,M,,M,,*5A
05/28/2014	11:01:15.614	$GPGGA,110115,2542.7973,N,08010.8204,W,1,8,1.8,16,M,,M,,*5F
05/28/2014	11:01:16.519	$GPGGA,110116,2542.7965,N,08010.8228,W,1,8,1.8,16,M,,M,,*55
05/28/2014	11:01:17.524	$GPGGA,110117,2542.7958,N,08010.8255,W,1,8,1.8,16,M,,M,,*50
05/28/2014	11:01:18.654	$GPGGA,110118,2542.7951,N,08010.8280,W,1,8,1.8,16,M,,M,,*5E
05/28/2014	11:01:19.671	$GPGGA,110119,2542.7943,N,08010.8305,W,1,9,1.8,16,M,,M,,*51
05/28/2014	11:01:20.719	$GPGGA,110120,2542.7936,N,08010.8331,W,1,9,1.8,15,M,,M,,*5D
05/28/2014	11:01:21.744	$GPGGA,110121,2542.7928,N,08010.8356,W,1,9,1.8,15,M,,M,,*52
05/28/2014	11:01:22.751	$GPGGA,110122,2542.7921,N,08010.8381,W,1,9,1.8,15,M,,M,,*52
05/28/2014	11:01:23.808	$GPGGA,110123,2542.7912,N,08010.8404,W,1,9,1.8,15,M,,M,,*59
05/28/2014	11:01:24.816	$GPGGA,110124,2542.7904,N,08010.8429,W,1,9,1.8,15,M,,M,,*56
05/28/2014	11:01:25.833	$GPGGA,110125,2542.7897,N,08010.8454,W,1,9,1.8,15,M,,M,,*56
05/28/2014	11:01:26.860	$GPGGA,110126,2542.7888,N,08010.8479,W,1,9,1.8,15,M,,M,,*54
05/28/2014	11:01:27.886	$GPGGA,110127,2542.7880,N,08010.8504,W,1,9,1.8,15,M,,M,,*56
05/28/2014	11:01:28.902	$GPGGA,110128,2542.7872,N,08010.8527,W,1,9,1.8,15,M,,M,,*55
05/28/2014	11:01:29.950	$GPGGA,110129,2542.7864,N,08010.8552,W,1,9,1.8,15,M,,M,,*51
05/28/2014	11:01:30.946	$GPGGA,110130,2542.7856,N,08010.8577,W,1,9,1.8,15,M,,M,,*5F
05/28/2014	11:01:31.994	$GPGGA,110131,2542.7847,N,08010.8600,W,1,9,1.8,16,M,,M,,*5E
05/28/2014	11:01:33.010	$GPGGA,110132,2542.7838,N,08010.8625,W,1,9,1.8,16,M,,M,,*52
05/28/2014	11:01:34.049	$GPGGA,110133,2542.7831,N,08010.8649,W,1,9,1.8,16,M,,M,,*50
05/28/2014	11:01:35.054	$GPGGA,110134,2542.7820,N,08010.8674,W,1,9,1.8,16,M,,M,,*59
05/28/2014	11:01:36.091	$GPGGA,110135,2542.7813,N,08010.8697,W,1,9,1.8,16,M,,M,,*55
05/28/2014	11:01:37.098	$GPGGA,110136,2542.7803,N,08010.8722,W,1,9,1.8,16,M,,M,,*58
05/28/2014	11:01:38.135	$GPGGA,110137,2542.7793,N,08010.8746,W,1,9,1.8,16,M,,M,,*5D
05/28/2014	11:01:39.141	$GPGGA,110138,2542.7784,N,08010.8772,W,1,9,1.8,16,M,,M,,*53
05/28/2014	11:01:38.580	$GPGGA,110139,2542.7776,N,08010.8797,W,1,9,1.8,16,M,,M,,*54
05/28/2014	11:01:39.597	$GPGGA,110140,2542.7766,N,08010.8820,W,1,9,1.8,16,M,,M,,*58
05/28/2014	11:01:40.624	$GPGGA,110141,2542.7757,N,08010.8844,W,1,9,1.8,16,M,,M,,*59
05/28/2014	11:01:41.620	$GPGGA,110142,2542.7748,N,08010.8869,W,1,9,1.8,16,M,,M,,*5B
05/28/2014	11:01:42.699	$GPGGA,110143,2542.7739,N,08010.8894,W,1,9,1.8,16,M,,M,,*5E
05/28/2014	11:01:43.685	$GPGGA,110144,2542.7730,N,08010.8917,W,1,9,1.8,16,M,,M,,*5A
05/28/2014	11:01:44.693	$GPGGA,110145,2542.7720,N,08010.8941,W,1,9,1.8,16,M,,M,,*59
05/28/2014	11:01:45.739	$GPGGA,110146,2542.7711,N,08010.8967,W,1,9,1.8,16,M,,M,,*5C
05/28/2014	11:01:46.766	$GPGGA,110147,2542.7701,N,08010.8990,W,1,9,1.8,16,M,,M,,*54
05/28/2014	11:01:47.782	$GPGGA,110148,2542.7692,N,08010.9014,W,1,9,1.8,16,M,,M,,*54
05/28/2014	11:01:48.830	$GPGGA,110149,2542.7682,N,08010.9039,W,1,9,1.8,16,M,,M,,*5B
05/28/2014	11:01:49.821	$GPGGA,110150,2542.7673,N,08010.9064,W,1,9,1.8,16,M,,M,,*55
05/28/2014	11:01:50.874	$GPGGA,110151,2542.7663,N,08010.9087,W,1,9,1.8,16,M,,M,,*58
05/28/2014	11:01:51.890	$GPGGA,110152,2542.7654,N,08010.9111,W,1,9,1.8,16,M,,M,,*51
05/28/2014	11:01:53.061	$GPGGA,110153,2542.7644,N,08010.9137,W,1,9,1.8,16,M,,M,,*55
05/28/2014	11:01:53.934	$GPGGA,110154,2542.7635,N,08010.9160,W,1,9,1.8,16,M,,M,,*56
05/28/2014	11:01:54.971	$GPGGA,110155,2542.7625,N,08010.9184,W,1,9,1.8,16,M,,M,,*5C
05/28/2014	11:01:55.997	$GPGGA,110156,2542.7615,N,08010.9209,W,1,9,1.8,16,M,,M,,*5A
05/28/2014	11:01:57.096	$GPGGA,110157,2542.7605,N,08010.9234,W,1,9,1.8,16,M,,M,,*54
05/28/2014	11:01:58.195	$GPGGA,110158,2542.7596,N,08010.9257,W,1,9,1.8,16,M,,M,,*57
05/28/2014	11:01:59.083	$GPGGA,110159,2542.7586,N,08010.9281,W,1,9,1.8,16,M,,M,,*5C
05/28/2014	11:02:00.270	$GPGGA,110200,2542.7576,N,08010.9306,W,1,9,1.8,16,M,,M,,*52
05/28/2014	11:02:01.115	$GPGGA,110201,2542.7567,N,08010.9331,W,1,9,1.8,16,M,,M,,*57
05/28/2014	11:02:02.118	$GPGGA,110202,2542.7557,N,08010.9354,W,1,9,1.8,16,M,,M,,*54
05/28/2014	11:02:03.248	$GPGGA,110203,2542.7547,N,08010.9379,W,1,9,1.8,16,M,,M,,*5B
05/28/2014	11:02:04.203	$GPGGA,110204,2542.7538,N,08010.9404,W,1,9,1.8,16,M,,M,,*59
05/28/2014	11:02:05.302	$GPGGA,110205,2542.7528,N,08010.9427,W,1,9,1.8,16,M,,M,,*58
05/28/2014	11:02:06.227	$GPGGA,110206,2542.7520,N,08010.9452,W,1,9,1.8,16,M,,M,,*51
05/28/2014	11:02:07.253	$GPGGA,110207,2542.7510,N,08010.9477,W,1,9,1.8,16,M,,M,,*54
05/28/2014	11:02:08.456	$GPGGA,110208,2542.7500,N,08010.9501,W,1,9,1.8,16,M,,M,,*5A
05/28/2014	11:02:09.400	$GPGGA,110209,2542.7491,N,08010.9527,W,1,9,1.8,16,M,,M,,*56
05/28/2014	11:02:10.416	$GPGGA,110210,2542.7482,N,08010.9550,W,1,9,1.8,16,M,,M,,*5C
05/28/2014	11:02:11.505	$GPGGA,110211,2542.7473,N,08010.9575,W,1,9,1.8,16,M,,M,,*54
05/28/2014	11:02:13.825	$GPGGA,110213,2542.7455,N,08010.9624,W,1,9,1.8,16,M,,M,,*55
05/28/2014	11:02:14.595	$GPGGA,110214,2542.7446,N,08010.9649,W,1,9,1.8,16,M,,M,,*5B
05/28/2014	11:02:15.591	$GPGGA,110215,2542.7437,N,08010.9673,W,1,9,1.8,16,M,,M,,*55
05/28/2014	11:02:16.577	$GPGGA,110216,2542.7428,N,08010.9697,W,1,9,1.8,16,M,,M,,*52
05/28/2014	11:02:17.654	$GPGGA,110217,2542.7419,N,08010.9722,W,1,9,1.8,16,M,,M,,*5E
05/28/2014	11:02:18.621	$GPGGA,110218,2542.7410,N,08010.9747,W,1,9,1.8,16,M,,M,,*5B
05/28/2014	11:02:19.701	$GPGGA,110219,2542.7401,N,08010.9770,W,1,8,1.5,16,M,,M,,*52
05/28/2014	11:02:20.737	$GPGGA,110220,2542.7393,N,08010.9795,W,1,8,1.4,16,M,,M,,*5E
05/28/2014	11:02:21.743	$GPGGA,110221,2542.7385,N,08010.9820,W,1,10,1.4,16,M,,M,,*60
05/28/2014	11:02:22.780	$GPGGA,110222,2542.7375,N,08010.9845,W,1,10,1.4,16,M,,M,,*6F
05/28/2014	11:02:23.797	$GPGGA,110223,2542.7366,N,08010.9870,W,1,10,1.6,16,M,,M,,*68
05/28/2014	11:02:24.783	$GPGGA,110224,2542.7356,N,08010.9895,W,1,10,1.6,16,M,,M,,*67
05/28/2014	11:02:25.852	$GPGGA,110225,2542.7351,N,08010.9918,W,1,10,1.4,16,M,,M,,*67
05/28/2014	11:02:26.827	$GPGGA,110226,2542.7344,N,08010.9943,W,1,10,1.4,16,M,,M,,*6E
05/28/2014	11:02:27.905	$GPGGA,110227,2542.7337,N,08010.9968,W,1,10,1.4,16,M,,M,,*62
05/28/2014	11:02:28.963	$GPGGA,110228,2542.7330,N,08010.9993,W,1,10,1.4,16,M,,M,,*6E
05/28/2014	11:02:29.887	$GPGGA,110229,2542.7322,N,08011.0018,W,1,10,1.4,16,M,,M,,*6E
05/28/2014	11:02:30.987	$GPGGA,110230,2542.7315,N,08011.0043,W,1,10,1.4,16,M,,M,,*6C
05/28/2014	11:02:32.002	$GPGGA,110231,2542.7308,N,08011.0069,W,1,10,1.4,16,M,,M,,*69
05/28/2014	11:02:33.039	$GPGGA,110232,2542.7300,N,08011.0094,W,1,10,1.4,16,M,,M,,*60
05/28/2014	11:02:34.077	$GPGGA,110233,2542.7292,N,08011.0119,W,1,10,1.4,16,M,,M,,*6F
05/28/2014	11:02:35.093	$GPGGA,110234,2542.7283,N,08011.0144,W,1,10,1.6,16,M,,M,,*62
05/28/2014	11:02:36.089	$GPGGA,110235,2542.7276,N,08011.0168,W,1,9,1.4,16,M,,M,,*5D
05/28/2014	11:02:37.147	$GPGGA,110236,2542.7271,N,08011.0193,W,1,9,1.4,16,M,,M,,*5D
05/28/2014	11:02:38.092	$GPGGA,110237,2542.7263,N,08011.0218,W,1,10,1.4,16,M,,M,,*67
05/28/2014	11:02:39.201	$GPGGA,110238,2542.7256,N,08011.0242,W,1,10,1.4,16,M,,M,,*61
05/28/2014	11:02:38.528	$GPGGA,110239,2542.7249,N,08011.0267,W,1,10,1.4,16,M,,M,,*69
05/28/2014	11:02:39.627	$GPGGA,110240,2542.7242,N,08011.0293,W,1,10,1.4,15,M,,M,,*64
05/28/2014	11:02:40.705	$GPGGA,110241,2542.7232,N,08011.0316,W,1,10,1.5,15,M,,M,,*6F
05/28/2014	11:02:41.671	$GPGGA,110242,2542.7224,N,08011.0341,W,1,10,1.5,15,M,,M,,*69
05/28/2014	11:02:42.759	$GPGGA,110243,2542.7216,N,08011.0365,W,1,9,1.5,15,M,,M,,*57
05/28/2014	11:02:43.735	$GPGGA,110244,2542.7208,N,08011.0390,W,1,9,1.5,15,M,,M,,*55
05/28/2014	11:02:44.670	$GPGGA,110245,2542.7199,N,08011.0415,W,1,9,1.5,15,M,,M,,*55
05/28/2014	11:02:45.768	$GPGGA,110246,2542.7189,N,08011.0441,W,1,9,1.6,15,M,,M,,*55
05/28/2014	11:02:46.867	$GPGGA,110247,2542.7179,N,08011.0464,W,1,9,1.6,15,M,,M,,*5C
05/28/2014	11:02:47.821	$GPGGA,110248,2542.7169,N,08011.0489,W,1,9,1.6,15,M,,M,,*51
05/28/2014	11:02:48.838	$GPGGA,110249,2542.7159,N,08011.0514,W,1,9,1.4,15,M,,M,,*54
05/28/2014	11:02:49.916	$GPGGA,110250,2542.7151,N,08011.0539,W,1,9,1.4,15,M,,M,,*5B
05/28/2014	11:02:50.923	$GPGGA,110251,2542.7142,N,08011.0564,W,1,10,1.4,15,M,,M,,*68
05/28/2014	11:02:51.960	$GPGGA,110252,2542.7133,N,08011.0589,W,1,10,1.4,15,M,,M,,*6E
05/28/2014	11:02:52.946	$GPGGA,110253,2542.7124,N,08011.0614,W,1,10,1.4,15,M,,M,,*6E
05/28/2014	11:02:54.004	$GPGGA,110254,2542.7115,N,08011.0637,W,1,10,1.4,15,M,,M,,*6A
05/28/2014	11:02:55.031	$GPGGA,110255,2542.7106,N,08011.0662,W,1,10,1.4,15,M,,M,,*69
05/28/2014	11:02:56.080	$GPGGA,110256,2542.7096,N,08011.0686,W,1,10,1.4,15,M,,M,,*68
05/28/2014	11:02:57.086	$GPGGA,110257,2542.7087,N,08011.0712,W,1,10,1.4,15,M,,M,,*65
05/28/2014	11:02:58.123	$GPGGA,110258,2542.7077,N,08011.0735,W,1,10,1.4,15,M,,M,,*60
05/28/2014	11:02:59.159	$GPGGA,110259,2542.7068,N,08011.0759,W,1,10,1.4,15,M,,M,,*65
05/28/2014	11:03:00.186	$GPGGA,110300,2542.7058,N,08011.0784,W,1,10,1.4,15,M,,M,,*6B
05/28/2014	11:03:01.224	$GPGGA,110301,2542.7048,N,08011.0809,W,1,10,1.4,15,M,,M,,*61
05/28/2014	11:03:02.210	$GPGGA,110302,2542.7039,N,08011.0834,W,1,10,1.4,15,M,,M,,*6A
05/28/2014	11:03:03.247	$GPGGA,110303,2542.7029,N,08011.0857,W,1,10,1.4,15,M,,M,,*6F
05/28/2014	11:03:04.284	$GPGGA,110304,2542.7019,N,08011.0882,W,1,10,1.4,15,M,,M,,*63
05/28/2014	11:03:05.301	$GPGGA,110305,2542.7010,N,08011.0907,W,1,10,1.4,15,M,,M,,*67
05/28/2014	11:03:06.317	$GPGGA,110306,2542.7000,N,08011.0930,W,1,10,1.4,15,M,,M,,*61
05/28/2014	11:03:07.374	$GPGGA,110307,2542.6990,N,08011.0955,W,1,10,1.4,15,M,,M,,*62
05/28/2014	11:03:08.381	$GPGGA,110308,2542.6980,N,08011.0979,W,1,10,1.4,15,M,,M,,*62
05/28/2014	11:03:09.409	$GPGGA,110309,2542.6971,N,08011.1004,W,1,10,1.4,15,M,,M,,*6F
05/28/2014	11:03:10.435	$GPGGA,110310,2542.6961,N,08011.1027,W,1,10,1.4,15,M,,M,,*67
05/28/2014	11:03:11.431	$GPGGA,110311,2542.6951,N,08011.1051,W,1,10,1.4,15,M,,M,,*64
05/28/2014	11:03:12.489	$GPGGA,110312,2542.6942,N,08011.1076,W,1,10,1.4,15,M,,M,,*60
05/28/2014	11:03:13.526	$GPGGA,110313,2542.6931,N,08011.1099,W,1,10,1.4,15,M,,M,,*64
05/28/2014	11:03:14.522	$GPGGA,110314,2542.6931,N,08011.1099,W,1,10,1.4,15,M,,M,,*63
05/28/2014	11:03:15.539	$GPGGA,110315,2542.6911,N,08011.1147,W,1,10,1.4,15,M,,M,,*62
05/28/2014	11:03:16.587	$GPGGA,110316,2542.6902,N,08011.1171,W,1,10,1.4,15,M,,M,,*66
05/28/2014	11:03:17.625	$GPGGA,110317,2542.6891,N,08011.1196,W,1,10,1.4,15,M,,M,,*65
05/28/2014	11:03:18.610	$GPGGA,110318,2542.6881,N,08011.1219,W,1,10,1.8,15,M,,M,,*63
05/28/2014	11:03:19.657	$GPGGA,110319,2542.6871,N,08011.1241,W,1,9,1.8,15,M,,M,,*58
05/28/2014	11:03:20.705	$GPGGA,110320,2542.6862,N,08011.1262,W,1,9,1.4,15,M,,M,,*5D
05/28/2014	11:03:21.711	$GPGGA,110321,2542.6852,N,08011.1284,W,1,10,1.4,15,M,,M,,*6F
05/28/2014	11:03:22.728	$GPGGA,110322,2542.6841,N,08011.1306,W,1,10,1.4,15,M,,M,,*65
05/28/2014	11:03:23.744	$GPGGA,110323,2542.6830,N,08011.1329,W,1,10,1.4,15,M,,M,,*6F
05/28/2014	11:03:24.771	$GPGGA,110324,2542.6830,N,08011.1329,W,1,10,1.5,15,M,,M,,*69
05/28/2014	11:03:25.798	$GPGGA,110325,2542.6807,N,08011.1373,W,1,9,1.5,15,M,,M,,*5B
05/28/2014	11:03:26.814	$GPGGA,110326,2542.6807,N,08011.1373,W,1,9,1.5,15,M,,M,,*58
05/28/2014	11:03:27.841	$GPGGA,110327,2542.6783,N,08011.1420,W,1,9,1.5,15,M,,M,,*5B
05/28/2014	11:03:28.961	$GPGGA,110328,2542.6772,N,08011.1442,W,1,9,1.4,15,M,,M,,*5F
05/28/2014	11:03:30.008	$GPGGA,110329,2542.6759,N,08011.1464,W,1,10,1.4,15,M,,M,,*6B
05/28/2014	11:03:30.892	$GPGGA,110330,2542.6747,N,08011.1486,W,1,10,1.4,15,M,,M,,*60
05/28/2014	11:03:31.939	$GPGGA,110331,2542.6733,N,08011.1508,W,1,10,1.4,15,M,,M,,*65
05/28/2014	11:03:32.997	$GPGGA,110332,2542.6721,N,08011.1532,W,1,10,1.5,15,M,,M,,*6D
05/28/2014	11:03:33.962	$GPGGA,110333,2542.6709,N,08011.1553,W,1,9,1.5,15,M,,M,,*59
05/28/2014	11:03:35.119	$GPGGA,110334,2542.6697,N,08011.1575,W,1,9,1.7,15,M,,M,,*5E
05/28/2014	11:03:36.043	$GPGGA,110335,2542.6685,N,08011.1597,W,1,9,1.7,15,M,,M,,*50
05/28/2014	11:03:37.159	$GPGGA,110336,2542.6672,N,08011.1618,W,1,9,1.7,15,M,,M,,*5F
05/28/2014	11:03:38.097	$GPGGA,110337,2542.6660,N,08011.1640,W,1,9,1.5,15,M,,M,,*52
05/28/2014	11:03:39.190	$GPGGA,110338,2542.6646,N,08011.1662,W,1,9,1.5,15,M,,M,,*59
05/28/2014	11:03:38.505	$GPGGA,110339,2542.6633,N,08011.1683,W,1,9,1.5,15,M,,M,,*55
05/28/2014	11:03:39.634	$GPGGA,110340,2542.6619,N,08011.1703,W,1,9,1.5,15,M,,M,,*5A
05/28/2014	11:03:40.692	$GPGGA,110341,2542.6604,N,08011.1725,W,1,9,1.5,15,M,,M,,*53
05/28/2014	11:03:41.678	$GPGGA,110342,2542.6588,N,08011.1748,W,1,9,1.4,15,M,,M,,*5D
05/28/2014	11:03:42.715	$GPGGA,110343,2542.6573,N,08011.1768,W,1,10,1.4,15,M,,M,,*62
05/28/2014	11:03:43.742	$GPGGA,110344,2542.6559,N,08011.1789,W,1,10,1.4,15,M,,M,,*62
05/28/2014	11:03:44.769	$GPGGA,110345,2542.6544,N,08011.1810,W,1,10,1.4,15,M,,M,,*60
05/28/2014	11:03:45.776	$GPGGA,110346,2542.6530,N,08011.1831,W,1,10,1.4,15,M,,M,,*63
05/28/2014	11:03:46.823	$GPGGA,110347,2542.6514,N,08011.1850,W,1,10,1.4,15,M,,M,,*63
05/28/2014	11:03:47.850	$GPGGA,110348,2542.6499,N,08011.1871,W,1,10,1.4,15,M,,M,,*6B
05/28/2014	11:03:48.847	$GPGGA,110349,2542.6485,N,08011.1890,W,1,9,1.5,15,M,,M,,*51
05/28/2014	11:03:49.884	$GPGGA,110350,2542.6470,N,08011.1909,W,1,9,1.4,15,M,,M,,*53
05/28/2014	11:03:50.931	$GPGGA,110351,2542.6455,N,08011.1929,W,1,10,1.4,15,M,,M,,*6F
05/28/2014	11:03:51.948	$GPGGA,110352,2542.6440,N,08011.1948,W,1,10,1.5,15,M,,M,,*6E
05/28/2014	11:03:52.965	$GPGGA,110353,2542.6422,N,08011.1967,W,1,10,1.4,15,M,,M,,*67
05/28/2014	11:03:53.981	$GPGGA,110354,2542.6409,N,08011.1985,W,1,10,1.7,15,M,,M,,*66
05/28/2014	11:03:55.019	$GPGGA,110355,2542.6394,N,08011.2003,W,1,9,1.6,15,M,,M,,*59
05/28/2014	11:03:56.046	$GPGGA,110356,2542.6377,N,08011.2023,W,1,9,1.6,15,M,,M,,*55
05/28/2014	11:03:57.083	$GPGGA,110357,2542.6360,N,08011.2041,W,1,8,1.7,15,M,,M,,*56
05/28/2014	11:03:58.088	$GPGGA,110358,2542.6346,N,08011.2060,W,1,8,1.4,15,M,,M,,*5D
05/28/2014	11:03:59.095	$GPGGA,110359,2542.6330,N,08011.2077,W,1,10,1.4,15,M,,M,,*62
05/28/2014	11:04:00.163	$GPGGA,110400,2542.6314,N,08011.2095,W,1,10,1.4,15,M,,M,,*63
05/28/2014	11:04:01.138	$GPGGA,110401,2542.6299,N,08011.2114,W,1,8,1.6,15,M,,M,,*55
05/28/2014	11:04:02.176	$GPGGA,110402,2542.6281,N,08011.2132,W,1,8,1.6,15,M,,M,,*5B
05/28/2014	11:04:03.234	$GPGGA,110403,2542.6265,N,08011.2150,W,1,8,1.6,15,M,,M,,*54
05/28/2014	11:04:04.250	$GPGGA,110404,2542.6248,N,08011.2167,W,1,8,1.5,15,M,,M,,*5B
05/28/2014	11:04:05.288	$GPGGA,110405,2542.6231,N,08011.2184,W,1,9,1.5,15,M,,M,,*58
05/28/2014	11:04:06.272	$GPGGA,110406,2542.6213,N,08011.2201,W,1,9,1.6,15,M,,M,,*56
05/28/2014	11:04:07.304	$GPGGA,110407,2542.6196,N,08011.2219,W,1,8,1.6,15,M,,M,,*51
05/28/2014	11:04:08.305	$GPGGA,110408,2542.6180,N,08011.2236,W,1,8,1.4,15,M,,M,,*56
05/28/2014	11:04:09.306	$GPGGA,110409,2542.6161,N,08011.2254,W,1,9,1.5,15,M,,M,,*5C
05/28/2014	11:04:10.328	$GPGGA,110410,2542.6143,N,08011.2270,W,1,9,1.4,14,M,,M,,*52
05/28/2014	11:04:11.319	$GPGGA,110411,2542.6126,N,08011.2287,W,1,10,1.4,14,M,,M,,*60
05/28/2014	11:04:12.360	$GPGGA,110412,2542.6109,N,08011.2303,W,1,10,1.4,14,M,,M,,*63
05/28/2014	11:04:13.334	$GPGGA,110413,2542.6091,N,08011.2319,W,1,10,1.4,14,M,,M,,*69
05/28/2014	11:04:14.447	$GPGGA,110414,2542.6075,N,08011.2335,W,1,10,1.4,14,M,,M,,*6A
05/28/2014	11:04:15.354	$GPGGA,110415,2542.6057,N,08011.2350,W,1,10,1.4,14,M,,M,,*68
05/28/2014	11:04:16.384	$GPGGA,110416,2542.6039,N,08011.2366,W,1,10,1.7,14,M,,M,,*65
05/28/2014	11:04:17.507	$GPGGA,110417,2542.6022,N,08011.2381,W,1,9,1.7,14,M,,M,,*5F
05/28/2014	11:04:18.397	$GPGGA,110418,2542.6003,N,08011.2396,W,1,9,1.7,14,M,,M,,*55
05/28/2014	11:04:19.407	$GPGGA,110419,2542.5983,N,08011.2413,W,1,10,1.4,14,M,,M,,*67
05/28/2014	11:04:20.430	$GPGGA,110420,2542.5963,N,08011.2428,W,1,10,1.4,14,M,,M,,*6B
05/28/2014	11:04:21.431	$GPGGA,110421,2542.5942,N,08011.2443,W,1,10,1.4,14,M,,M,,*64
05/28/2014	11:04:22.422	$GPGGA,110422,2542.5923,N,08011.2458,W,1,10,1.4,14,M,,M,,*6A
05/28/2014	11:04:23.453	$GPGGA,110423,2542.5905,N,08011.2472,W,1,10,1.4,14,M,,M,,*67
05/28/2014	11:04:24.456	$GPGGA,110424,2542.5887,N,08011.2486,W,1,10,1.7,14,M,,M,,*63
05/28/2014	11:04:25.482	$GPGGA,110425,2542.5869,N,08011.2500,W,1,8,1.7,14,M,,M,,*54
05/28/2014	11:04:26.467	$GPGGA,110426,2542.5849,N,08011.2514,W,1,8,1.7,14,M,,M,,*50
05/28/2014	11:04:27.458	$GPGGA,110427,2542.5830,N,08011.2526,W,1,8,1.7,14,M,,M,,*5E
05/28/2014	11:04:28.603	$GPGGA,110428,2542.5811,N,08011.2540,W,1,8,1.7,14,M,,M,,*52
05/28/2014	11:04:29.533	$GPGGA,110429,2542.5793,N,08011.2554,W,1,8,1.7,13,M,,M,,*54
05/28/2014	11:04:30.594	$GPGGA,110430,2542.5772,N,08011.2566,W,1,8,1.7,13,M,,M,,*52
05/28/2014	11:04:31.636	$GPGGA,110431,2542.5753,N,08011.2579,W,1,8,1.7,13,M,,M,,*5E
05/28/2014	11:04:32.626	$GPGGA,110432,2542.5733,N,08011.2592,W,1,8,1.7,13,M,,M,,*5E
05/28/2014	11:04:33.525	$GPGGA,110433,2542.5714,N,08011.2606,W,1,7,1.8,13,M,,M,,*54
05/28/2014	11:04:34.627	$GPGGA,110434,2542.5694,N,08011.2620,W,1,7,1.6,13,M,,M,,*50
05/28/2014	11:04:35.669	$GPGGA,110435,2542.5674,N,08011.2635,W,1,9,1.5,13,M,,M,,*56
05/28/2014	11:04:36.661	$GPGGA,110436,2542.5653,N,08011.2649,W,1,9,1.5,13,M,,M,,*5B
05/28/2014	11:04:37.651	$GPGGA,110437,2542.5632,N,08011.2663,W,1,9,1.5,13,M,,M,,*55
05/28/2014	11:04:38.672	$GPGGA,110438,2542.5612,N,08011.2677,W,1,9,1.5,13,M,,M,,*5D
05/28/2014	11:04:38.590	$GPGGA,110439,2542.5592,N,08011.2691,W,1,9,1.5,13,M,,M,,*5F
05/28/2014	11:04:39.601	$GPGGA,110440,2542.5571,N,08011.2704,W,1,9,1.4,13,M,,M,,*50
05/28/2014	11:04:40.612	$GPGGA,110441,2542.5552,N,08011.2718,W,1,10,1.4,13,M,,M,,*65
05/28/2014	11:04:41.603	$GPGGA,110442,2542.5533,N,08011.2731,W,1,10,1.5,13,M,,M,,*6B
05/28/2014	11:04:42.628	$GPGGA,110443,2542.5511,N,08011.2745,W,1,9,1.5,14,M,,M,,*56
05/28/2014	11:04:43.646	$GPGGA,110444,2542.5492,N,08011.2757,W,1,9,1.6,14,M,,M,,*5B
05/28/2014	11:04:44.658	$GPGGA,110445,2542.5473,N,08011.2771,W,1,9,1.5,14,M,,M,,*52
05/28/2014	11:04:45.639	$GPGGA,110446,2542.5453,N,08011.2785,W,1,9,1.5,14,M,,M,,*58
05/28/2014	11:04:46.670	$GPGGA,110447,2542.5433,N,08011.2796,W,1,9,1.5,14,M,,M,,*5D
05/28/2014	11:04:47.671	$GPGGA,110448,2542.5412,N,08011.2809,W,1,9,1.5,14,M,,M,,*58
05/28/2014	11:04:48.693	$GPGGA,110449,2542.5390,N,08011.2822,W,1,10,1.4,14,M,,M,,*64
05/28/2014	11:04:49.673	$GPGGA,110450,2542.5369,N,08011.2833,W,1,10,1.6,14,M,,M,,*68
05/28/2014	11:04:50.704	$GPGGA,110451,2542.5349,N,08011.2847,W,1,8,1.6,14,M,,M,,*51
05/28/2014	11:04:51.696	$GPGGA,110452,2542.5327,N,08011.2858,W,1,8,1.6,14,M,,M,,*54
05/28/2014	11:04:52.727	$GPGGA,110453,2542.5306,N,08011.2870,W,1,8,1.6,15,M,,M,,*5D
05/28/2014	11:04:53.719	$GPGGA,110454,2542.5285,N,08011.2883,W,1,8,1.6,15,M,,M,,*5C
05/28/2014	11:04:54.719	$GPGGA,110455,2542.5264,N,08011.2894,W,1,8,1.6,15,M,,M,,*54
05/28/2014	11:04:55.751	$GPGGA,110456,2542.5244,N,08011.2905,W,1,8,1.5,15,M,,M,,*5F
05/28/2014	11:04:56.772	$GPGGA,110457,2542.5222,N,08011.2917,W,1,9,1.5,15,M,,M,,*5C
05/28/2014	11:04:57.753	$GPGGA,110458,2542.5201,N,08011.2928,W,1,9,1.5,15,M,,M,,*5E
05/28/2014	11:04:58.754	$GPGGA,110459,2542.5180,N,08011.2941,W,1,9,1.5,15,M,,M,,*5A
05/28/2014	11:04:59.796	$GPGGA,110500,2542.5158,N,08011.2952,W,1,9,1.5,15,M,,M,,*50
05/28/2014	11:05:00.898	$GPGGA,110501,2542.5137,N,08011.2962,W,1,9,1.5,15,M,,M,,*5B
05/28/2014	11:05:01.778	$GPGGA,110502,2542.5116,N,08011.2973,W,1,9,1.5,15,M,,M,,*5B
05/28/2014	11:05:02.921	$GPGGA,110503,2542.5096,N,08011.2984,W,1,9,1.5,15,M,,M,,*5B
05/28/2014	11:05:03.811	$GPGGA,110504,2542.5074,N,08011.2995,W,1,9,1.5,15,M,,M,,*50
05/28/2014	11:05:04.803	$GPGGA,110505,2542.5053,N,08011.3006,W,1,9,1.5,15,M,,M,,*56
05/28/2014	11:05:05.934	$GPGGA,110506,2542.5031,N,08011.3017,W,1,9,1.5,15,M,,M,,*51
05/28/2014	11:05:06.946	$GPGGA,110507,2542.5010,N,08011.3027,W,1,9,1.5,16,M,,M,,*53
05/28/2014	11:05:07.855	$GPGGA,110508,2542.4989,N,08011.3038,W,1,9,1.5,16,M,,M,,*5A
05/28/2014	11:05:08.987	$GPGGA,110509,2542.4968,N,08011.3047,W,1,9,1.5,16,M,,M,,*5C
05/28/2014	11:05:09.857	$GPGGA,110510,2542.4948,N,08011.3057,W,1,9,1.5,16,M,,M,,*57
05/28/2014	11:05:10.992	$GPGGA,110511,2542.4926,N,08011.3067,W,1,9,1.5,16,M,,M,,*5D
05/28/2014	11:05:11.890	$GPGGA,110512,2542.4906,N,08011.3075,W,1,9,1.5,16,M,,M,,*5F
05/28/2014	11:05:12.997	$GPGGA,110513,2542.4885,N,08011.3085,W,1,10,1.4,16,M,,M,,*62
05/28/2014	11:05:14.007	$GPGGA,110514,2542.4865,N,08011.3094,W,1,10,1.4,16,M,,M,,*6B
05/28/2014	11:05:15.005	$GPGGA,110515,2542.4843,N,08011.3103,W,1,10,1.4,16,M,,M,,*61
05/28/2014	11:05:16.027	$GPGGA,110516,2542.4821,N,08011.3114,W,1,10,1.4,16,M,,M,,*60
05/28/2014	11:05:17.017	$GPGGA,110517,2542.4800,N,08011.3121,W,1,10,1.4,16,M,,M,,*64
05/28/2014	11:05:18.028	$GPGGA,110518,2542.4779,N,08011.3130,W,1,10,1.4,16,M,,M,,*6A
05/28/2014	11:05:19.073	$GPGGA,110519,2542.4757,N,08011.3139,W,1,10,1.4,16,M,,M,,*6E
05/28/2014	11:05:20.061	$GPGGA,110520,2542.4735,N,08011.3148,W,1,10,1.4,16,M,,M,,*66
05/28/2014	11:05:21.084	$GPGGA,110521,2542.4713,N,08011.3158,W,1,10,1.4,16,M,,M,,*62
05/28/2014	11:05:22.075	$GPGGA,110522,2542.4691,N,08011.3165,W,1,10,1.4,16,M,,M,,*64
05/28/2014	11:05:23.075	$GPGGA,110523,2542.4669,N,08011.3173,W,1,10,1.4,16,M,,M,,*65
05/28/2014	11:05:24.106	$GPGGA,110524,2542.4648,N,08011.3183,W,1,10,1.4,16,M,,M,,*6E
05/28/2014	11:05:25.117	$GPGGA,110525,2542.4626,N,08011.3190,W,1,10,1.4,16,M,,M,,*65
05/28/2014	11:05:26.108	$GPGGA,110526,2542.4604,N,08011.3197,W,1,10,1.4,16,M,,M,,*61
05/28/2014	11:05:27.139	$GPGGA,110527,2542.4583,N,08011.3205,W,1,10,1.4,16,M,,M,,*64
05/28/2014	11:05:28.140	$GPGGA,110528,2542.4561,N,08011.3212,W,1,10,1.4,16,M,,M,,*61
05/28/2014	11:05:29.162	$GPGGA,110529,2542.4539,N,08011.3220,W,1,10,1.4,16,M,,M,,*6C
05/28/2014	11:05:30.144	$GPGGA,110530,2542.4518,N,08011.3227,W,1,10,1.4,16,M,,M,,*60
05/28/2014	11:05:31.154	$GPGGA,110531,2542.4496,N,08011.3234,W,1,10,1.4,16,M,,M,,*64
05/28/2014	11:05:32.186	$GPGGA,110532,2542.4474,N,08011.3242,W,1,10,1.4,16,M,,M,,*6A
05/28/2014	11:05:33.207	$GPGGA,110533,2542.4453,N,08011.3249,W,1,10,1.4,16,M,,M,,*65
05/28/2014	11:05:34.188	$GPGGA,110534,2542.4431,N,08011.3256,W,1,10,1.4,16,M,,M,,*68
05/28/2014	11:05:35.230	$GPGGA,110535,2542.4407,N,08011.3263,W,1,10,1.4,16,M,,M,,*6A
05/28/2014	11:05:36.211	$GPGGA,110536,2542.4385,N,08011.3270,W,1,10,1.4,16,M,,M,,*66
05/28/2014	11:05:37.252	$GPGGA,110537,2542.4363,N,08011.3277,W,1,10,1.4,16,M,,M,,*68
05/28/2014	11:05:38.223	$GPGGA,110538,2542.4341,N,08011.3282,W,1,10,1.4,16,M,,M,,*6D
05/28/2014	11:05:38.548	$GPGGA,110539,2542.4319,N,08011.3289,W,1,10,1.4,16,M,,M,,*6A
05/28/2014	11:05:39.580	$GPGGA,110540,2542.4296,N,08011.3298,W,1,10,1.8,16,M,,M,,*6E
05/28/2014	11:05:40.571	$GPGGA,110541,2542.4274,N,08011.3303,W,1,10,1.4,16,M,,M,,*6C
05/28/2014	11:05:41.572	$GPGGA,110542,2542.4251,N,08011.3309,W,1,10,1.4,16,M,,M,,*62
05/28/2014	11:05:42.582	$GPGGA,110543,2542.4229,N,08011.3314,W,1,10,1.4,16,M,,M,,*60
05/28/2014	11:05:43.615	$GPGGA,110544,2542.4207,N,08011.3320,W,1,10,1.5,16,M,,M,,*6D
05/28/2014	11:05:44.615	$GPGGA,110545,2542.4184,N,08011.3324,W,1,9,1.5,16,M,,M,,*58
05/28/2014	11:05:45.637	$GPGGA,110546,2542.4162,N,08011.3328,W,1,9,1.5,16,M,,M,,*5F
05/28/2014	11:05:46.759	$GPGGA,110547,2542.4139,N,08011.3334,W,1,10,1.4,16,M,,M,,*64
05/28/2014	11:05:47.770	$GPGGA,110548,2542.4117,N,08011.3338,W,1,10,1.4,16,M,,M,,*6B
05/28/2014	11:05:48.650	$GPGGA,110549,2542.4095,N,08011.3342,W,1,10,1.4,16,M,,M,,*6C
05/28/2014	11:05:49.643	$GPGGA,110550,2542.4072,N,08011.3346,W,1,10,1.4,16,M,,M,,*69
05/28/2014	11:05:50.653	$GPGGA,110551,2542.4050,N,08011.3350,W,1,10,1.4,16,M,,M,,*6F
05/28/2014	11:05:51.778	$GPGGA,110552,2542.4028,N,08011.3354,W,1,10,1.4,16,M,,M,,*67
05/28/2014	11:05:52.677	$GPGGA,110553,2542.4005,N,08011.3358,W,1,10,1.4,16,M,,M,,*65
05/28/2014	11:05:53.697	$GPGGA,110554,2542.3983,N,08011.3363,W,1,10,1.4,16,M,,M,,*6A
05/28/2014	11:05:54.702	$GPGGA,110555,2542.3960,N,08011.3367,W,1,10,1.4,16,M,,M,,*62
05/28/2014	11:05:55.830	$GPGGA,110556,2542.3937,N,08011.3371,W,1,10,1.4,16,M,,M,,*64
05/28/2014	11:05:56.730	$GPGGA,110557,2542.3914,N,08011.3376,W,1,10,1.4,16,M,,M,,*63
05/28/2014	11:05:57.724	$GPGGA,110558,2542.3893,N,08011.3381,W,1,10,1.4,16,M,,M,,*6A
05/28/2014	11:05:58.834	$GPGGA,110559,2542.3869,N,08011.3383,W,1,10,1.4,16,M,,M,,*6C
05/28/2014	11:05:59.905	$GPGGA,110600,2542.3846,N,08011.3387,W,1,10,1.4,16,M,,M,,*6A
05/28/2014	11:06:00.765	$GPGGA,110601,2542.3824,N,08011.3390,W,1,10,1.4,16,M,,M,,*69
05/28/2014	11:06:01.858	$GPGGA,110602,2542.3801,N,08011.3394,W,1,10,1.4,17,M,,M,,*68
05/28/2014	11:06:02.868	$GPGGA,110603,2542.3778,N,08011.3397,W,1,10,1.4,17,M,,M,,*6B
05/28/2014	11:06:03.890	$GPGGA,110604,2542.3755,N,08011.3400,W,1,10,1.4,17,M,,M,,*6A
05/28/2014	11:06:04.891	$GPGGA,110605,2542.3732,N,08011.3404,W,1,10,1.4,17,M,,M,,*6E
05/28/2014	11:06:05.913	$GPGGA,110606,2542.3710,N,08011.3407,W,1,10,1.4,17,M,,M,,*6E
05/28/2014	11:06:06.913	$GPGGA,110607,2542.3687,N,08011.3410,W,1,9,1.5,17,M,,M,,*5F
05/28/2014	11:06:07.942	$GPGGA,110608,2542.3665,N,08011.3414,W,1,9,1.4,17,M,,M,,*59
05/28/2014	11:06:08.976	$GPGGA,110609,2542.3641,N,08011.3417,W,1,10,1.4,17,M,,M,,*65
05/28/2014	11:06:09.927	$GPGGA,110610,2542.3618,N,08011.3419,W,1,10,1.5,17,M,,M,,*6E
05/28/2014	11:06:10.938	$GPGGA,110611,2542.3597,N,08011.3422,W,1,9,1.5,17,M,,M,,*5B
05/28/2014	11:06:11.970	$GPGGA,110612,2542.3575,N,08011.3425,W,1,9,1.5,17,M,,M,,*53
05/28/2014	11:06:12.981	$GPGGA,110613,2542.3554,N,08011.3426,W,1,9,1.5,17,M,,M,,*52
05/28/2014	11:06:13.972	$GPGGA,110614,2542.3532,N,08011.3428,W,1,9,1.5,17,M,,M,,*5B
05/28/2014	11:06:14.984	$GPGGA,110615,2542.3510,N,08011.3430,W,1,9,1.5,17,M,,M,,*53
05/28/2014	11:06:15.995	$GPGGA,110616,2542.3488,N,08011.3432,W,1,9,1.5,17,M,,M,,*52
05/28/2014	11:06:17.016	$GPGGA,110617,2542.3465,N,08011.3434,W,1,9,1.5,17,M,,M,,*56
05/28/2014	11:06:17.996	$GPGGA,110618,2542.3442,N,08011.3437,W,1,9,1.5,17,M,,M,,*5F
05/28/2014	11:06:19.007	$GPGGA,110619,2542.3419,N,08011.3439,W,1,9,1.5,17,M,,M,,*5E
05/28/2014	11:06:20.039	$GPGGA,110620,2542.3396,N,08011.3441,W,1,9,1.5,17,M,,M,,*5B
05/28/2014	11:06:21.061	$GPGGA,110621,2542.3373,N,08011.3443,W,1,9,1.5,17,M,,M,,*53
05/28/2014	11:06:22.051	$GPGGA,110622,2542.3351,N,08011.3446,W,1,9,1.5,17,M,,M,,*55
05/28/2014	11:06:23.073	$GPGGA,110623,2542.3327,N,08011.3447,W,1,9,1.5,17,M,,M,,*54
05/28/2014	11:06:24.074	$GPGGA,110624,2542.3304,N,08011.3450,W,1,9,1.5,17,M,,M,,*54
05/28/2014	11:06:25.075	$GPGGA,110625,2542.3281,N,08011.3452,W,1,9,1.5,17,M,,M,,*5B
05/28/2014	11:06:26.097	$GPGGA,110626,2542.3259,N,08011.3454,W,1,9,1.5,17,M,,M,,*5B
05/28/2014	11:06:27.099	$GPGGA,110627,2542.3236,N,08011.3457,W,1,9,1.5,17,M,,M,,*50
05/28/2014	11:06:28.109	$GPGGA,110628,2542.3214,N,08011.3458,W,1,9,1.5,17,M,,M,,*50
05/28/2014	11:06:29.100	$GPGGA,110629,2542.3193,N,08011.3461,W,1,8,1.8,17,M,,M,,*5B
05/28/2014	11:06:30.122	$GPGGA,110630,2542.3172,N,08011.3465,W,1,8,1.8,17,M,,M,,*58
05/28/2014	11:06:31.164	$GPGGA,110631,2542.3150,N,08011.3468,W,1,9,1.8,17,M,,M,,*55
05/28/2014	11:06:32.154	$GPGGA,110632,2542.3127,N,08011.3469,W,1,9,1.8,17,M,,M,,*57
05/28/2014	11:06:33.166	$GPGGA,110633,2542.3105,N,08011.3472,W,1,9,1.8,17,M,,M,,*5C
05/28/2014	11:06:34.157	$GPGGA,110634,2542.3083,N,08011.3475,W,1,9,1.8,17,M,,M,,*53
05/28/2014	11:06:35.197	$GPGGA,110635,2542.3060,N,08011.3476,W,1,9,1.8,17,M,,M,,*5C
05/28/2014	11:06:36.178	$GPGGA,110636,2542.3038,N,08011.3477,W,1,9,1.8,17,M,,M,,*53
05/28/2014	11:06:37.190	$GPGGA,110637,2542.3015,N,08011.3479,W,1,9,1.8,17,M,,M,,*53
05/28/2014	11:06:38.191	$GPGGA,110638,2542.2992,N,08011.3480,W,1,9,1.8,17,M,,M,,*5D
05/28/2014	11:06:38.516	$GPGGA,110639,2542.2969,N,08011.3482,W,1,9,1.8,17,M,,M,,*5A
05/28/2014	11:06:39.558	$GPGGA,110640,2542.2946,N,08011.3481,W,1,9,1.9,17,M,,M,,*5B
05/28/2014	11:06:40.560	$GPGGA,110641,2542.2923,N,08011.3483,W,1,8,1.9,17,M,,M,,*5A
05/28/2014	11:06:41.541	$GPGGA,110642,2542.2900,N,08011.3483,W,1,8,1.9,17,M,,M,,*58
05/28/2014	11:06:42.554	$GPGGA,110643,2542.2876,N,08011.3484,W,1,8,1.9,17,M,,M,,*5E
05/28/2014	11:06:43.583	$GPGGA,110644,2542.2853,N,08011.3484,W,1,8,1.9,16,M,,M,,*5F
05/28/2014	11:06:44.695	$GPGGA,110645,2542.2831,N,08011.3486,W,1,8,1.8,16,M,,M,,*59
05/28/2014	11:06:45.586	$GPGGA,110646,2542.2809,N,08011.3487,W,1,8,1.8,16,M,,M,,*50
05/28/2014	11:06:46.707	$GPGGA,110647,2542.2785,N,08011.3488,W,1,9,1.8,16,M,,M,,*54
05/28/2014	11:06:47.608	$GPGGA,110648,2542.2763,N,08011.3490,W,1,9,1.8,16,M,,M,,*5A
05/28/2014	11:06:48.631	$GPGGA,110649,2542.2740,N,08011.3491,W,1,9,1.8,16,M,,M,,*5B
05/28/2014	11:06:49.721	$GPGGA,110650,2542.2717,N,08011.3493,W,1,9,1.8,16,M,,M,,*53
05/28/2014	11:06:50.643	$GPGGA,110651,2542.2695,N,08011.3495,W,1,9,1.8,16,M,,M,,*5F
05/28/2014	11:06:51.764	$GPGGA,110652,2542.2672,N,08011.3497,W,1,9,1.8,16,M,,M,,*57
05/28/2014	11:06:52.784	$GPGGA,110653,2542.2650,N,08011.3498,W,1,9,1.8,16,M,,M,,*59
05/28/2014	11:06:53.765	$GPGGA,110654,2542.2626,N,08011.3501,W,1,9,1.9,16,M,,M,,*5F
05/28/2014	11:06:54.767	$GPGGA,110655,2542.2604,N,08011.3502,W,1,8,1.8,16,M,,M,,*5D
05/28/2014	11:06:55.809	$GPGGA,110656,2542.2580,N,08011.3504,W,1,8,1.9,16,M,,M,,*56
05/28/2014	11:06:56.799	$GPGGA,110657,2542.2557,N,08011.3505,W,1,8,1.9,16,M,,M,,*5C
05/28/2014	11:06:57.800	$GPGGA,110658,2542.2534,N,08011.3506,W,1,8,1.9,16,M,,M,,*55
05/28/2014	11:06:58.843	$GPGGA,110659,2542.2510,N,08011.3508,W,1,8,1.9,16,M,,M,,*5C
05/28/2014	11:06:59.863	$GPGGA,110700,2542.2487,N,08011.3509,W,1,8,1.9,16,M,,M,,*5F
05/28/2014	11:07:00.855	$GPGGA,110701,2542.2464,N,08011.3512,W,1,8,1.9,15,M,,M,,*5A
05/28/2014	11:07:01.847	$GPGGA,110702,2542.2441,N,08011.3513,W,1,8,1.9,15,M,,M,,*5F
05/28/2014	11:07:02.878	$GPGGA,110703,2542.2419,N,08011.3515,W,1,8,1.9,15,M,,M,,*55
05/28/2014	11:07:03.878	$GPGGA,110704,2542.2401,N,08011.3520,W,1,8,1.8,15,M,,M,,*5C
05/28/2014	11:07:04.880	$GPGGA,110705,2542.2379,N,08011.3522,W,1,9,1.9,15,M,,M,,*57
05/28/2014	11:07:05.881	$GPGGA,110706,2542.2354,N,08011.3524,W,1,9,1.9,15,M,,M,,*5D
05/28/2014	11:07:06.902	$GPGGA,110707,2542.2332,N,08011.3526,W,1,8,1.9,15,M,,M,,*5F
05/28/2014	11:07:07.893	$GPGGA,110708,2542.2308,N,08011.3527,W,1,8,1.9,15,M,,M,,*58
05/28/2014	11:07:08.905	$GPGGA,110709,2542.2285,N,08011.3530,W,1,8,1.9,15,M,,M,,*5B
05/28/2014	11:07:09.915	$GPGGA,110710,2542.2262,N,08011.3531,W,1,8,1.9,15,M,,M,,*5B
05/28/2014	11:07:10.916	$GPGGA,110711,2542.2238,N,08011.3533,W,1,8,1.9,15,M,,M,,*57
05/28/2014	11:07:11.937	$GPGGA,110712,2542.2216,N,08011.3535,W,1,8,1.9,14,M,,M,,*5F
05/28/2014	11:07:12.959	$GPGGA,110713,2542.2192,N,08011.3537,W,1,8,1.9,14,M,,M,,*53
05/28/2014	11:07:13.980	$GPGGA,110714,2542.2169,N,08011.3538,W,1,8,1.9,14,M,,M,,*5F
05/28/2014	11:07:14.981	$GPGGA,110715,2542.2146,N,08011.3540,W,1,8,1.9,14,M,,M,,*5C
05/28/2014	11:07:15.983	$GPGGA,110716,2542.2123,N,08011.3542,W,1,8,1.9,14,M,,M,,*5E
05/28/2014	11:07:16.974	$GPGGA,110717,2542.2101,N,08011.3544,W,1,8,1.9,14,M,,M,,*59
05/28/2014	11:07:17.995	$GPGGA,110718,2542.2077,N,08011.3546,W,1,8,1.9,14,M,,M,,*54
05/28/2014	11:07:19.047	$GPGGA,110719,2542.2054,N,08011.3548,W,1,8,1.9,14,M,,M,,*5A
05/28/2014	11:07:20.028	$GPGGA,110720,2542.2031,N,08011.3551,W,1,8,1.9,14,M,,M,,*5B
05/28/2014	11:07:21.039	$GPGGA,110721,2542.2008,N,08011.3551,W,1,8,1.9,14,M,,M,,*50
05/28/2014	11:07:22.030	$GPGGA,110722,2542.1985,N,08011.3553,W,1,8,1.9,13,M,,M,,*59
05/28/2014	11:07:23.062	$GPGGA,110723,2542.1962,N,08011.3555,W,1,8,1.9,13,M,,M,,*57
05/28/2014	11:07:24.063	$GPGGA,110724,2542.1942,N,08011.3559,W,1,8,1.8,13,M,,M,,*5F
05/28/2014	11:07:25.074	$GPGGA,110725,2542.1920,N,08011.3560,W,1,9,1.8,13,M,,M,,*51
05/28/2014	11:07:26.057	$GPGGA,110726,2542.1899,N,08011.3563,W,1,9,1.8,13,M,,M,,*52
05/28/2014	11:07:27.107	$GPGGA,110727,2542.1877,N,08011.3564,W,1,9,1.8,13,M,,M,,*54
05/28/2014	11:07:28.107	$GPGGA,110728,2542.1855,N,08011.3566,W,1,9,1.8,13,M,,M,,*59
05/28/2014	11:07:29.199	$GPGGA,110729,2542.1831,N,08011.3569,W,1,9,1.8,13,M,,M,,*55
05/28/2014	11:07:30.109	$GPGGA,110730,2542.1809,N,08011.3569,W,1,9,1.8,13,M,,M,,*56
05/28/2014	11:07:31.103	$GPGGA,110731,2542.1786,N,08011.3570,W,1,9,1.8,13,M,,M,,*57
05/28/2014	11:07:32.243	$GPGGA,110732,2542.1763,N,08011.3571,W,1,9,1.8,13,M,,M,,*5E
05/28/2014	11:07:33.224	$GPGGA,110733,2542.1741,N,08011.3571,W,1,9,1.8,13,M,,M,,*5F
05/28/2014	11:07:34.145	$GPGGA,110734,2542.1718,N,08011.3573,W,1,9,1.9,13,M,,M,,*57
05/28/2014	11:07:35.166	$GPGGA,110735,2542.1694,N,08011.3572,W,1,8,1.9,13,M,,M,,*53
05/28/2014	11:07:36.177	$GPGGA,110736,2542.1671,N,08011.3573,W,1,8,1.8,12,M,,M,,*5A
05/28/2014	11:07:37.171	$GPGGA,110737,2542.1647,N,08011.3573,W,1,9,1.9,12,M,,M,,*5E
05/28/2014	11:07:38.171	$GPGGA,110738,2542.1625,N,08011.3574,W,1,9,1.8,12,M,,M,,*53
05/28/2014	11:07:38.514	$GPGGA,110739,2542.1602,N,08011.3576,W,1,9,1.9,12,M,,M,,*54
05/28/2014	11:07:39.616	$GPGGA,110740,2542.1579,N,08011.3575,W,1,9,1.9,12,M,,M,,*56
05/28/2014	11:07:40.648	$GPGGA,110741,2542.1556,N,08011.3577,W,1,9,1.8,12,M,,M,,*59
05/28/2014	11:07:41.629	$GPGGA,110742,2542.1534,N,08011.3576,W,1,9,1.8,12,M,,M,,*5F
05/28/2014	11:07:42.630	$GPGGA,110743,2542.1509,N,08011.3577,W,1,8,1.8,12,M,,M,,*50
05/28/2014	11:07:43.661	$GPGGA,110744,2542.1487,N,08011.3577,W,1,8,1.8,12,M,,M,,*50
05/28/2014	11:07:44.651	$GPGGA,110745,2542.1465,N,08011.3578,W,1,9,1.8,12,M,,M,,*53
05/28/2014	11:07:45.673	$GPGGA,110746,2542.1443,N,08011.3580,W,1,9,1.8,12,M,,M,,*53
05/28/2014	11:07:46.674	$GPGGA,110747,2542.1420,N,08011.3580,W,1,9,1.8,12,M,,M,,*57
05/28/2014	11:07:47.696	$GPGGA,110748,2542.1398,N,08011.3581,W,1,9,1.8,12,M,,M,,*5D
05/28/2014	11:07:48.707	$GPGGA,110749,2542.1376,N,08011.3582,W,1,9,1.8,12,M,,M,,*5F
05/28/2014	11:07:49.708	$GPGGA,110750,2542.1354,N,08011.3584,W,1,9,1.8,12,M,,M,,*51
05/28/2014	11:07:50.729	$GPGGA,110751,2542.1331,N,08011.3585,W,1,9,1.8,12,M,,M,,*52
05/28/2014	11:07:51.731	$GPGGA,110752,2542.1308,N,08011.3585,W,1,9,1.8,12,M,,M,,*5B
05/28/2014	11:07:52.742	$GPGGA,110753,2542.1285,N,08011.3587,W,1,9,1.8,12,M,,M,,*5C
05/28/2014	11:07:53.745	$GPGGA,110754,2542.1261,N,08011.3587,W,1,9,1.8,12,M,,M,,*51
05/28/2014	11:07:54.764	$GPGGA,110755,2542.1238,N,08011.3588,W,1,8,1.9,12,M,,M,,*53
05/28/2014	11:07:55.776	$GPGGA,110756,2542.1214,N,08011.3588,W,1,8,1.9,12,M,,M,,*5E
05/28/2014	11:07:56.787	$GPGGA,110757,2542.1191,N,08011.3589,W,1,8,1.9,12,M,,M,,*50
05/28/2014	11:07:57.778	$GPGGA,110758,2542.1169,N,08011.3591,W,1,8,1.9,12,M,,M,,*51
05/28/2014	11:07:58.800	$GPGGA,110759,2542.1144,N,08011.3591,W,1,8,1.9,12,M,,M,,*5F
05/28/2014	11:07:59.811	$GPGGA,110800,2542.1122,N,08011.3592,W,1,8,1.9,11,M,,M,,*5C
05/28/2014	11:08:00.812	$GPGGA,110801,2542.1100,N,08011.3594,W,1,8,1.9,11,M,,M,,*5B
05/28/2014	11:08:01.803	$GPGGA,110802,2542.1075,N,08011.3595,W,1,8,1.9,11,M,,M,,*5A
05/28/2014	11:08:02.834	$GPGGA,110803,2542.1055,N,08011.3598,W,1,8,1.9,11,M,,M,,*54
05/28/2014	11:08:03.845	$GPGGA,110804,2542.1032,N,08011.3600,W,1,8,1.8,11,M,,M,,*51
05/28/2014	11:08:04.826	$GPGGA,110805,2542.1010,N,08011.3602,W,1,9,1.8,11,M,,M,,*53
05/28/2014	11:08:05.847	$GPGGA,110806,2542.0988,N,08011.3605,W,1,9,1.8,11,M,,M,,*5E
05/28/2014	11:08:06.879	$GPGGA,110807,2542.0965,N,08011.3609,W,1,9,1.8,11,M,,M,,*50
05/28/2014	11:08:07.880	$GPGGA,110808,2542.0942,N,08011.3611,W,1,9,1.8,11,M,,M,,*53
05/28/2014	11:08:08.871	$GPGGA,110809,2542.0919,N,08011.3614,W,1,9,1.8,11,M,,M,,*59
05/28/2014	11:08:09.893	$GPGGA,110810,2542.0896,N,08011.3616,W,1,9,1.8,11,M,,M,,*55
05/28/2014	11:08:10.894	$GPGGA,110811,2542.0874,N,08011.3618,W,1,8,1.9,11,M,,M,,*56
05/28/2014	11:08:11.915	$GPGGA,110812,2542.0851,N,08011.3620,W,1,8,1.9,11,M,,M,,*59
05/28/2014	11:08:12.926	$GPGGA,110813,2542.0829,N,08011.3621,W,1,8,1.9,11,M,,M,,*56
05/28/2014	11:08:13.907	$GPGGA,110814,2542.0805,N,08011.3624,W,1,8,1.9,11,M,,M,,*5A
05/28/2014	11:08:15.050	$GPGGA,110815,2542.0783,N,08011.3625,W,1,8,1.9,11,M,,M,,*5B
05/28/2014	11:08:15.940	$GPGGA,110816,2542.0760,N,08011.3627,W,1,8,1.9,11,M,,M,,*57
05/28/2014	11:08:16.951	$GPGGA,110817,2542.0737,N,08011.3629,W,1,8,1.9,11,M,,M,,*5A
05/28/2014	11:08:17.962	$GPGGA,110818,2542.0717,N,08011.3632,W,1,8,1.9,11,M,,M,,*5D
05/28/2014	11:08:19.081	$GPGGA,110819,2542.0693,N,08011.3634,W,1,9,1.8,11,M,,M,,*57
05/28/2014	11:08:19.994	$GPGGA,110820,2542.0670,N,08011.3636,W,1,9,1.9,11,M,,M,,*53
05/28/2014	11:08:20.985	$GPGGA,110821,2542.0647,N,08011.3638,W,1,8,1.9,11,M,,M,,*59
05/28/2014	11:08:22.093	$GPGGA,110822,2542.0624,N,08011.3641,W,1,8,1.9,11,M,,M,,*51
05/28/2014	11:08:23.019	$GPGGA,110823,2542.0602,N,08011.3642,W,1,8,1.9,11,M,,M,,*57
05/28/2014	11:08:24.022	$GPGGA,110824,2542.0580,N,08011.3645,W,1,8,1.9,11,M,,M,,*5E
05/28/2014	11:08:25.122	$GPGGA,110825,2542.0557,N,08011.3645,W,1,8,1.9,11,M,,M,,*55
05/28/2014	11:08:26.022	$GPGGA,110826,2542.0534,N,08011.3647,W,1,8,1.9,11,M,,M,,*51
05/28/2014	11:08:27.045	$GPGGA,110827,2542.0512,N,08011.3649,W,1,8,1.9,11,M,,M,,*5A
05/28/2014	11:08:28.156	$GPGGA,110828,2542.0490,N,08011.3652,W,1,8,1.9,11,M,,M,,*54
05/28/2014	11:08:29.066	$GPGGA,110829,2542.0468,N,08011.3653,W,1,8,1.9,11,M,,M,,*53
05/28/2014	11:08:30.179	$GPGGA,110830,2542.0445,N,08011.3656,W,1,8,1.9,11,M,,M,,*51
05/28/2014	11:08:31.089	$GPGGA,110831,2542.0422,N,08011.3657,W,1,8,1.9,11,M,,M,,*50
05/28/2014	11:08:32.204	$GPGGA,110832,2542.0400,N,08011.3660,W,1,8,1.9,11,M,,M,,*57
05/28/2014	11:08:33.218	$GPGGA,110833,2542.0378,N,08011.3661,W,1,8,1.9,11,M,,M,,*5F
05/28/2014	11:08:34.193	$GPGGA,110834,2542.0354,N,08011.3664,W,1,8,1.9,11,M,,M,,*53
05/28/2014	11:08:35.245	$GPGGA,110835,2542.0332,N,08011.3667,W,1,8,1.9,11,M,,M,,*51
05/28/2014	11:08:36.236	$GPGGA,110836,2542.0309,N,08011.3668,W,1,8,1.9,11,M,,M,,*55
05/28/2014	11:08:37.237	$GPGGA,110837,2542.0287,N,08011.3671,W,1,8,1.9,11,M,,M,,*5B
05/28/2014	11:08:38.237	$GPGGA,110838,2542.0266,N,08011.3672,W,1,8,1.9,11,M,,M,,*58
05/28/2014	11:08:38.603	$GPGGA,110839,2542.0242,N,08011.3674,W,1,8,1.9,11,M,,M,,*59
05/28/2014	11:08:39.634	$GPGGA,110840,2542.0220,N,08011.3676,W,1,8,1.9,11,M,,M,,*51
05/28/2014	11:08:40.605	$GPGGA,110841,2542.0197,N,08011.3678,W,1,8,1.9,11,M,,M,,*51
05/28/2014	11:08:41.606	$GPGGA,110842,2542.0175,N,08011.3681,W,1,8,1.9,11,M,,M,,*58
05/28/2014	11:08:42.630	$GPGGA,110843,2542.0154,N,08011.3683,W,1,8,1.9,11,M,,M,,*58
05/28/2014	11:08:43.629	$GPGGA,110844,2542.0132,N,08011.3686,W,1,8,1.8,11,M,,M,,*5B
05/28/2014	11:08:44.640	$GPGGA,110845,2542.0109,N,08011.3688,W,1,9,1.8,11,M,,M,,*5D
05/28/2014	11:08:45.642	$GPGGA,110846,2542.0087,N,08011.3689,W,1,9,1.9,11,M,,M,,*59
05/28/2014	11:08:46.673	$GPGGA,110847,2542.0067,N,08011.3692,W,1,9,1.8,11,M,,M,,*5D
05/28/2014	11:08:47.674	$GPGGA,110848,2542.0045,N,08011.3693,W,1,9,1.8,11,M,,M,,*53
05/28/2014	11:08:48.696	$GPGGA,110849,2542.0023,N,08011.3696,W,1,8,2.4,11,M,,M,,*59
05/28/2014	11:08:49.677	$GPGGA,110850,2542.0002,N,08011.3696,W,1,8,2.4,11,M,,M,,*52
05/28/2014	11:08:50.708	$GPGGA,110851,2541.9980,N,08011.3699,W,1,8,2.4,11,M,,M,,*55
05/28/2014	11:08:53.115	$GPGGA,110853,2541.9937,N,08011.3701,W,1,8,2.4,11,M,,M,,*5B
05/28/2014	11:08:53.722	$GPGGA,110854,2541.9915,N,08011.3703,W,1,8,2.4,11,M,,M,,*5E
05/28/2014	11:08:54.762	$GPGGA,110855,2541.9893,N,08011.3704,W,1,8,2.4,11,M,,M,,*57
05/28/2014	11:08:55.743	$GPGGA,110856,2541.9872,N,08011.3706,W,1,8,1.8,11,M,,M,,*56
05/28/2014	11:08:56.735	$GPGGA,110857,2541.9850,N,08011.3707,W,1,9,1.8,11,M,,M,,*57
05/28/2014	11:08:57.756	$GPGGA,110858,2541.9827,N,08011.3708,W,1,9,1.8,11,M,,M,,*57
05/28/2014	11:08:58.757	$GPGGA,110859,2541.9804,N,08011.3710,W,1,9,1.8,11,M,,M,,*5E
05/28/2014	11:08:59.799	$GPGGA,110900,2541.9785,N,08011.3712,W,1,9,1.9,11,M,,M,,*56
05/28/2014	11:09:00.800	$GPGGA,110901,2541.9761,N,08011.3714,W,1,9,1.8,12,M,,M,,*59
05/28/2014	11:09:01.791	$GPGGA,110902,2541.9738,N,08011.3715,W,1,9,1.9,12,M,,M,,*56
05/28/2014	11:09:02.812	$GPGGA,110903,2541.9715,N,08011.3717,W,1,8,1.9,12,M,,M,,*5B
05/28/2014	11:09:03.814	$GPGGA,110904,2541.9692,N,08011.3717,W,1,8,1.9,12,M,,M,,*52
05/28/2014	11:09:04.835	$GPGGA,110905,2541.9670,N,08011.3718,W,1,8,1.9,12,M,,M,,*50
05/28/2014	11:09:05.946	$GPGGA,110906,2541.9648,N,08011.3718,W,1,8,1.9,12,M,,M,,*58
05/28/2014	11:09:06.952	$GPGGA,110907,2541.9624,N,08011.3719,W,1,8,1.9,12,M,,M,,*52
05/28/2014	11:09:07.857	$GPGGA,110908,2541.9601,N,08011.3721,W,1,8,1.9,12,M,,M,,*51
05/28/2014	11:09:08.828	$GPGGA,110909,2541.9579,N,08011.3721,W,1,8,1.9,13,M,,M,,*5D
05/28/2014	11:09:09.828	$GPGGA,110910,2541.9556,N,08011.3722,W,1,8,1.9,13,M,,M,,*5B
05/28/2014	11:09:10.945	$GPGGA,110911,2541.9534,N,08011.3722,W,1,8,1.9,13,M,,M,,*5E
05/28/2014	11:09:11.853	$GPGGA,110912,2541.9511,N,08011.3723,W,1,8,1.9,13,M,,M,,*5B
05/28/2014	11:09:12.975	$GPGGA,110913,2541.9489,N,08011.3725,W,1,8,1.9,13,M,,M,,*5C
05/28/2014	11:09:13.941	$GPGGA,110914,2541.9467,N,08011.3725,W,1,8,1.9,13,M,,M,,*5B
05/28/2014	11:09:14.946	$GPGGA,110915,2541.9443,N,08011.3726,W,1,8,1.9,13,M,,M,,*5F
05/28/2014	11:09:15.982	$GPGGA,110916,2541.9420,N,08011.3728,W,1,8,1.9,13,M,,M,,*57
05/28/2014	11:09:16.958	$GPGGA,110917,2541.9398,N,08011.3729,W,1,8,1.9,13,M,,M,,*53
05/28/2014	11:09:17.964	$GPGGA,110918,2541.9375,N,08011.3730,W,1,8,1.9,14,M,,M,,*50
05/28/2014	11:09:18.989	$GPGGA,110919,2541.9352,N,08011.3732,W,1,8,1.9,14,M,,M,,*56
05/28/2014	11:09:19.995	$GPGGA,110920,2541.9330,N,08011.3733,W,1,8,1.9,14,M,,M,,*59
05/28/2014	11:09:20.971	$GPGGA,110921,2541.9307,N,08011.3735,W,1,8,1.9,14,M,,M,,*5A
05/28/2014	11:09:21.976	$GPGGA,110922,2541.9285,N,08011.3736,W,1,8,1.9,14,M,,M,,*51
05/28/2014	11:09:23.003	$GPGGA,110923,2541.9262,N,08011.3736,W,1,8,1.9,14,M,,M,,*59
05/28/2014	11:09:23.998	$GPGGA,110924,2541.9240,N,08011.3739,W,1,8,1.9,14,M,,M,,*51
05/28/2014	11:09:24.993	$GPGGA,110925,2541.9218,N,08011.3739,W,1,8,1.9,14,M,,M,,*5D
05/28/2014	11:09:25.999	$GPGGA,110926,2541.9194,N,08011.3740,W,1,8,1.9,14,M,,M,,*57
05/28/2014	11:09:26.995	$GPGGA,110927,2541.9172,N,08011.3743,W,1,8,1.9,14,M,,M,,*5D
05/28/2014	11:09:28.010	$GPGGA,110928,2541.9149,N,08011.3743,W,1,8,1.9,14,M,,M,,*5A
05/28/2014	11:09:29.026	$GPGGA,110929,2541.9126,N,08011.3746,W,1,8,1.9,14,M,,M,,*57
05/28/2014	11:09:30.001	$GPGGA,110930,2541.9104,N,08011.3746,W,1,8,1.9,14,M,,M,,*5F
05/28/2014	11:09:31.037	$GPGGA,110931,2541.9081,N,08011.3748,W,1,8,1.9,14,M,,M,,*5C
05/28/2014	11:09:32.032	$GPGGA,110932,2541.9059,N,08011.3750,W,1,8,1.9,14,M,,M,,*53
05/28/2014	11:09:33.008	$GPGGA,110933,2541.9036,N,08011.3750,W,1,8,1.9,14,M,,M,,*5B
05/28/2014	11:09:34.014	$GPGGA,110934,2541.9013,N,08011.3753,W,1,8,1.9,14,M,,M,,*58
05/28/2014	11:09:35.049	$GPGGA,110935,2541.8990,N,08011.3754,W,1,8,1.9,14,M,,M,,*5D
05/28/2014	11:09:36.045	$GPGGA,110936,2541.8969,N,08011.3757,W,1,8,1.9,14,M,,M,,*5B
05/28/2014	11:09:37.051	$GPGGA,110937,2541.8945,N,08011.3757,W,1,8,1.9,14,M,,M,,*54
05/28/2014	11:09:38.026	$GPGGA,110938,2541.8923,N,08011.3759,W,1,8,1.9,14,M,,M,,*55
05/28/2014	11:09:38.550	$GPGGA,110939,2541.8900,N,08011.3761,W,1,8,1.9,14,M,,M,,*5E
05/28/2014	11:09:39.566	$GPGGA,110940,2541.8878,N,08011.3764,W,1,8,1.9,14,M,,M,,*5B
05/28/2014	11:09:40.541	$GPGGA,110941,2541.8855,N,08011.3765,W,1,8,1.9,14,M,,M,,*54
05/28/2014	11:09:41.567	$GPGGA,110942,2541.8835,N,08011.3768,W,1,8,1.9,14,M,,M,,*5C
05/28/2014	11:09:42.573	$GPGGA,110943,2541.8814,N,08011.3772,W,1,9,1.8,14,M,,M,,*55
05/28/2014	11:09:43.568	$GPGGA,110944,2541.8793,N,08011.3775,W,1,9,1.8,14,M,,M,,*55
05/28/2014	11:09:44.564	$GPGGA,110945,2541.8771,N,08011.3779,W,1,9,1.8,14,M,,M,,*54
05/28/2014	11:09:45.579	$GPGGA,110946,2541.8749,N,08011.3782,W,1,9,1.8,14,M,,M,,*58
05/28/2014	11:09:46.726	$GPGGA,110947,2541.8727,N,08011.3784,W,1,9,1.8,14,M,,M,,*57
05/28/2014	11:09:47.600	$GPGGA,110948,2541.8706,N,08011.3787,W,1,9,1.8,14,M,,M,,*58
05/28/2014	11:09:48.626	$GPGGA,110949,2541.8683,N,08011.3790,W,1,9,1.8,14,M,,M,,*53
05/28/2014	11:09:49.591	$GPGGA,110950,2541.8661,N,08011.3793,W,1,9,1.8,14,M,,M,,*54
05/28/2014	11:09:50.607	$GPGGA,110951,2541.8640,N,08011.3795,W,1,9,1.8,14,M,,M,,*50
05/28/2014	11:09:51.743	$GPGGA,110952,2541.8617,N,08011.3798,W,1,9,1.8,14,M,,M,,*5C
05/28/2014	11:09:52.779	$GPGGA,110953,2541.8594,N,08011.3801,W,1,9,1.8,14,M,,M,,*5A
05/28/2014	11:09:53.609	$GPGGA,110954,2541.8572,N,08011.3804,W,1,9,1.8,14,M,,M,,*50
05/28/2014	11:09:54.609	$GPGGA,110955,2541.8550,N,08011.3808,W,1,9,1.8,14,M,,M,,*5D
05/28/2014	11:09:55.777	$GPGGA,110956,2541.8528,N,08011.3811,W,1,9,1.8,14,M,,M,,*59
05/28/2014	11:09:56.802	$GPGGA,110957,2541.8505,N,08011.3813,W,1,9,1.8,14,M,,M,,*55
05/28/2014	11:09:57.627	$GPGGA,110958,2541.8483,N,08011.3816,W,1,9,1.8,14,M,,M,,*50
05/28/2014	11:09:58.814	$GPGGA,110959,2541.8461,N,08011.3819,W,1,9,1.8,14,M,,M,,*52
05/28/2014	11:09:59.648	$GPGGA,111000,2541.8438,N,08011.3822,W,1,9,1.8,14,M,,M,,*52
05/28/2014	11:10:00.634	$GPGGA,111001,2541.8416,N,08011.3824,W,1,9,1.8,14,M,,M,,*59
05/28/2014	11:10:01.770	$GPGGA,111002,2541.8394,N,08011.3827,W,1,9,1.8,14,M,,M,,*54
05/28/2014	11:10:02.826	$GPGGA,111003,2541.8371,N,08011.3830,W,1,9,1.8,14,M,,M,,*58
05/28/2014	11:10:03.651	$GPGGA,111004,2541.8349,N,08011.3833,W,1,9,1.8,14,M,,M,,*57
05/28/2014	11:10:04.736	$GPGGA,111005,2541.8326,N,08011.3835,W,1,9,1.8,14,M,,M,,*59
05/28/2014	11:10:05.742	$GPGGA,111006,2541.8304,N,08011.3838,W,1,9,1.8,14,M,,M,,*57
05/28/2014	11:10:06.858	$GPGGA,111007,2541.8282,N,08011.3841,W,1,9,1.8,13,M,,M,,*50
05/28/2014	11:10:07.813	$GPGGA,111008,2541.8259,N,08011.3844,W,1,9,1.8,13,M,,M,,*5C
05/28/2014	11:10:08.849	$GPGGA,111009,2541.8237,N,08011.3847,W,1,9,1.8,13,M,,M,,*56
05/28/2014	11:10:09.774	$GPGGA,111010,2541.8214,N,08011.3848,W,1,9,1.8,13,M,,M,,*50
05/28/2014	11:10:10.882	$GPGGA,111011,2541.8192,N,08011.3851,W,1,9,1.8,13,M,,M,,*54
05/28/2014	11:10:11.806	$GPGGA,111012,2541.8169,N,08011.3853,W,1,9,1.8,13,M,,M,,*51
05/28/2014	11:10:12.852	$GPGGA,111013,2541.8147,N,08011.3855,W,1,9,1.8,13,M,,M,,*5A
05/28/2014	11:10:13.800	$GPGGA,111014,2541.8125,N,08011.3858,W,1,9,1.8,13,M,,M,,*54
05/28/2014	11:10:14.883	$GPGGA,111015,2541.8103,N,08011.3860,W,1,9,1.8,13,M,,M,,*5A
05/28/2014	11:10:15.788	$GPGGA,111016,2541.8080,N,08011.3862,W,1,9,1.8,13,M,,M,,*51
05/28/2014	11:10:16.895	$GPGGA,111017,2541.8058,N,08011.3866,W,1,9,1.8,13,M,,M,,*51
05/28/2014	11:10:17.780	$GPGGA,111018,2541.8035,N,08011.3867,W,1,9,1.8,13,M,,M,,*54
05/28/2014	11:10:18.906	$GPGGA,111019,2541.8012,N,08011.3869,W,1,9,1.8,13,M,,M,,*5E
05/28/2014	11:10:19.831	$GPGGA,111020,2541.7990,N,08011.3870,W,1,9,1.8,13,M,,M,,*50
05/28/2014	11:10:20.928	$GPGGA,111021,2541.7966,N,08011.3873,W,1,9,1.9,12,M,,M,,*5B
05/28/2014	11:10:21.833	$GPGGA,111022,2541.7943,N,08011.3874,W,1,9,1.9,12,M,,M,,*58
05/28/2014	11:10:22.860	$GPGGA,111023,2541.7921,N,08011.3876,W,1,8,1.9,12,M,,M,,*5E
05/28/2014	11:10:23.853	$GPGGA,111024,2541.7898,N,08011.3877,W,1,8,1.9,12,M,,M,,*5B
05/28/2014	11:10:24.919	$GPGGA,111025,2541.7875,N,08011.3880,W,1,8,1.9,12,M,,M,,*51
05/28/2014	11:10:25.804	$GPGGA,111026,2541.7852,N,08011.3880,W,1,8,1.9,12,M,,M,,*57
05/28/2014	11:10:26.921	$GPGGA,111027,2541.7829,N,08011.3881,W,1,8,1.9,12,M,,M,,*5B
05/28/2014	11:10:27.856	$GPGGA,111028,2541.7806,N,08011.3884,W,1,8,1.9,12,M,,M,,*5C
05/28/2014	11:10:28.821	$GPGGA,111029,2541.7784,N,08011.3884,W,1,8,1.9,12,M,,M,,*58
05/28/2014	11:10:29.867	$GPGGA,111030,2541.7762,N,08011.3885,W,1,8,1.9,12,M,,M,,*59
05/28/2014	11:10:30.943	$GPGGA,111031,2541.7738,N,08011.3887,W,1,8,1.9,12,M,,M,,*55
05/28/2014	11:10:31.838	$GPGGA,111032,2541.7716,N,08011.3887,W,1,8,1.9,12,M,,M,,*5A
05/28/2014	11:10:32.915	$GPGGA,111033,2541.7693,N,08011.3888,W,1,8,1.9,12,M,,M,,*58
05/28/2014	11:10:33.840	$GPGGA,111034,2541.7672,N,08011.3889,W,1,8,1.9,12,M,,M,,*51
05/28/2014	11:10:34.845	$GPGGA,111035,2541.7650,N,08011.3891,W,1,8,1.9,12,M,,M,,*59
05/28/2014	11:10:35.901	$GPGGA,111036,2541.7626,N,08011.3890,W,1,8,1.9,12,M,,M,,*5A
05/28/2014	11:10:36.957	$GPGGA,111037,2541.7603,N,08011.3892,W,1,8,1.9,12,M,,M,,*5E
05/28/2014	11:10:37.853	$GPGGA,111038,2541.7581,N,08011.3894,W,1,8,1.9,12,M,,M,,*5E
05/28/2014	11:10:38.648	$GPGGA,111039,2541.7560,N,08011.3895,W,1,8,1.9,12,M,,M,,*51
05/28/2014	11:10:39.582	$GPGGA,111040,2541.7536,N,08011.3895,W,1,8,1.9,12,M,,M,,*5C
05/28/2014	11:10:40.518	$GPGGA,111041,2541.7514,N,08011.3896,W,1,8,1.9,12,M,,M,,*5E
05/28/2014	11:10:41.624	$GPGGA,111042,2541.7491,N,08011.3896,W,1,8,1.9,12,M,,M,,*51
05/28/2014	11:10:42.622	$GPGGA,111043,2541.7469,N,08011.3898,W,1,8,1.9,12,M,,M,,*59
05/28/2014	11:10:43.545	$GPGGA,111044,2541.7446,N,08011.3899,W,1,8,1.9,12,M,,M,,*52
05/28/2014	11:10:44.691	$GPGGA,111045,2541.7424,N,08011.3900,W,1,8,1.9,11,M,,M,,*55
05/28/2014	11:10:45.647	$GPGGA,111046,2541.7402,N,08011.3902,W,1,8,1.9,11,M,,M,,*50
05/28/2014	11:10:46.632	$GPGGA,111047,2541.7380,N,08011.3902,W,1,8,1.9,11,M,,M,,*5C
05/28/2014	11:10:47.598	$GPGGA,111048,2541.7357,N,08011.3903,W,1,8,1.9,11,M,,M,,*58
05/28/2014	11:10:48.684	$GPGGA,111049,2541.7336,N,08011.3905,W,1,8,1.9,11,M,,M,,*58
05/28/2014	11:10:49.589	$GPGGA,111050,2541.7314,N,08011.3905,W,1,8,1.9,11,M,,M,,*50
05/28/2014	11:10:50.655	$GPGGA,111051,2541.7290,N,08011.3906,W,1,8,1.9,11,M,,M,,*5F
05/28/2014	11:10:51.691	$GPGGA,111052,2541.7268,N,08011.3909,W,1,8,1.9,11,M,,M,,*54
05/28/2014	11:10:52.727	$GPGGA,111053,2541.7246,N,08011.3910,W,1,8,1.9,11,M,,M,,*51
05/28/2014	11:10:53.612	$GPGGA,111054,2541.7224,N,08011.3913,W,1,8,1.9,11,M,,M,,*51
05/28/2014	11:10:54.678	$GPGGA,111055,2541.7202,N,08011.3914,W,1,8,1.8,11,M,,M,,*52
05/28/2014	11:10:55.714	$GPGGA,111056,2541.7179,N,08011.3916,W,1,8,1.8,11,M,,M,,*5C
05/28/2014	11:10:56.740	$GPGGA,111057,2541.7159,N,08011.3918,W,1,9,1.8,11,M,,M,,*50
05/28/2014	11:10:57.694	$GPGGA,111058,2541.7137,N,08011.3920,W,1,9,1.8,11,M,,M,,*5C
05/28/2014	11:10:58.701	$GPGGA,111059,2541.7114,N,08011.3923,W,1,9,1.8,11,M,,M,,*5F
05/28/2014	11:10:59.725	$GPGGA,111100,2541.7092,N,08011.3927,W,1,9,1.8,11,M,,M,,*59
05/28/2014	11:11:00.761	$GPGGA,111101,2541.7072,N,08011.3928,W,1,9,1.8,11,M,,M,,*59
05/28/2014	11:11:01.708	$GPGGA,111102,2541.7049,N,08011.3931,W,1,9,1.8,11,M,,M,,*5A
05/28/2014	11:11:02.804	$GPGGA,111103,2541.7027,N,08011.3934,W,1,9,1.8,11,M,,M,,*56
05/28/2014	11:11:03.728	$GPGGA,111104,2541.7005,N,08011.3938,W,1,9,1.8,11,M,,M,,*5D
05/28/2014	11:11:04.744	$GPGGA,111105,2541.6984,N,08011.3941,W,1,9,1.8,11,M,,M,,*53
05/28/2014	11:11:05.719	$GPGGA,111106,2541.6962,N,08011.3945,W,1,9,1.8,11,M,,M,,*5C
05/28/2014	11:11:06.806	$GPGGA,111107,2541.6942,N,08011.3949,W,1,9,1.8,11,M,,M,,*53
05/28/2014	11:11:07.741	$GPGGA,111108,2541.6920,N,08011.3952,W,1,9,1.8,11,M,,M,,*52
05/28/2014	11:11:08.767	$GPGGA,111109,2541.6899,N,08011.3956,W,1,9,1.8,11,M,,M,,*54
05/28/2014	11:11:09.747	$GPGGA,111110,2541.6877,N,08011.3960,W,1,9,1.8,11,M,,M,,*59
05/28/2014	11:11:10.839	$GPGGA,111111,2541.6856,N,08011.3963,W,1,9,1.8,11,M,,M,,*58
05/28/2014	11:11:11.921	$GPGGA,111112,2541.6834,N,08011.3968,W,1,9,1.8,11,M,,M,,*54
05/28/2014	11:11:12.960	$GPGGA,111113,2541.6834,N,08011.3968,W,1,9,1.8,11,M,,M,,*55
05/28/2014	11:11:14.009	$GPGGA,111114,2541.6791,N,08011.3977,W,1,9,1.8,11,M,,M,,*5C
05/28/2014	11:11:15.135	$GPGGA,111115,2541.6769,N,08011.3981,W,1,9,1.8,11,M,,M,,*53
05/28/2014	11:11:16.171	$GPGGA,111116,2541.6747,N,08011.3986,W,1,9,1.8,11,M,,M,,*5B
05/28/2014	11:11:17.220	$GPGGA,111117,2541.6747,N,08011.3986,W,1,9,1.8,11,M,,M,,*5A
05/28/2014	11:11:18.291	$GPGGA,111118,2541.6704,N,08011.3996,W,1,9,1.8,10,M,,M,,*52
05/28/2014	11:11:19.394	$GPGGA,111119,2541.6704,N,08011.3996,W,1,9,1.8,10,M,,M,,*53
05/28/2014	11:11:20.444	$GPGGA,111120,2541.6661,N,08011.4006,W,1,9,1.8,10,M,,M,,*5C
05/28/2014	11:11:21.536	$GPGGA,111121,2541.6661,N,08011.4006,W,1,9,1.8,10,M,,M,,*5D
05/28/2014	11:11:22.575	$GPGGA,111122,2541.6617,N,08011.4015,W,1,9,1.8,10,M,,M,,*5D
05/28/2014	11:11:23.731	$GPGGA,111123,2541.6595,N,08011.4021,W,1,9,1.8,10,M,,M,,*52
05/28/2014	11:11:24.737	$GPGGA,111124,2541.6595,N,08011.4021,W,1,9,1.8,10,M,,M,,*55
05/28/2014	11:11:25.851	$GPGGA,111125,2541.6552,N,08011.4030,W,1,9,1.8,10,M,,M,,*5F
05/28/2014	11:11:26.836	$GPGGA,111126,2541.6530,N,08011.4035,W,1,9,1.8,10,M,,M,,*5D
05/28/2014	11:11:27.971	$GPGGA,111127,2541.6508,N,08011.4040,W,1,9,1.8,10,M,,M,,*55
05/28/2014	11:11:29.000	$GPGGA,111128,2541.6487,N,08011.4046,W,1,9,1.8,10,M,,M,,*5A
05/28/2014	11:11:30.059	$GPGGA,111129,2541.6487,N,08011.4046,W,1,9,1.8,10,M,,M,,*5B
05/28/2014	11:11:31.119	$GPGGA,111130,2541.6442,N,08011.4054,W,1,9,1.8,10,M,,M,,*59
05/28/2014	11:11:32.190	$GPGGA,111131,2541.6442,N,08011.4054,W,1,9,1.8,10,M,,M,,*58
05/28/2014	11:11:33.250	$GPGGA,111132,2541.6400,N,08011.4064,W,1,9,1.8,10,M,,M,,*5E
05/28/2014	11:11:34.459	$GPGGA,111133,2541.6376,N,08011.4068,W,1,9,1.8,10,M,,M,,*55
05/28/2014	11:11:35.401	$GPGGA,111134,2541.6376,N,08011.4068,W,1,9,1.8,10,M,,M,,*52
05/28/2014	11:11:36.601	$GPGGA,111135,2541.6333,N,08011.4077,W,1,9,1.8,10,M,,M,,*5C
05/28/2014	11:11:37.543	$GPGGA,111136,2541.6311,N,08011.4082,W,1,9,1.8,10,M,,M,,*55
05/28/2014	11:11:38.710	$GPGGA,111137,2541.6289,N,08011.4086,W,1,9,1.8,10,M,,M,,*50
05/28/2014	11:11:39.759	$GPGGA,111138,2541.6267,N,08011.4090,W,1,9,1.8,10,M,,M,,*58
05/28/2014	11:11:38.625	$GPGGA,111139,2541.6245,N,08011.4093,W,1,9,1.8,9,M,,M,,*62
05/28/2014	11:11:39.606	$GPGGA,111140,2541.6223,N,08011.4097,W,1,9,1.8,9,M,,M,,*68
05/28/2014	11:11:40.794	$GPGGA,111141,2541.6200,N,08011.4100,W,1,9,1.8,9,M,,M,,*67
05/28/2014	11:11:41.822	$GPGGA,111142,2541.6177,N,08011.4104,W,1,9,1.8,9,M,,M,,*63
05/28/2014	11:11:42.893	$GPGGA,111143,2541.6155,N,08011.4107,W,1,9,1.8,9,M,,M,,*61
05/28/2014	11:11:43.975	$GPGGA,111144,2541.6133,N,08011.4109,W,1,9,1.8,9,M,,M,,*68
05/28/2014	11:11:45.035	$GPGGA,111145,2541.6111,N,08011.4112,W,1,9,1.8,9,M,,M,,*63
05/28/2014	11:11:46.095	$GPGGA,111146,2541.6089,N,08011.4115,W,1,9,1.8,9,M,,M,,*67
05/28/2014	11:11:47.189	$GPGGA,111147,2541.6066,N,08011.4118,W,1,9,1.8,9,M,,M,,*6A
05/28/2014	11:11:48.258	$GPGGA,111148,2541.6044,N,08011.4120,W,1,9,1.8,9,M,,M,,*6E
