Software Version Number: 1	Data File Format Number: 1	Build Version Number: 1	Error Count Since VI Started: 0	Manufacturer: Raytheon	 Model Number: RayMarine 120	 S/N: 	 Cal Date: 	 Wind Direction Offset: 0.00	 Slope (M)1: 0.00	 Offset (B)1: 0.00	 Slope (M)2: 0.00	 Offset (B)2: 0.00	 Slope (M)3: 0.00	 Offset (B)3: 0.00	 Slope (M)4: 0.00	 Offset (B)4: 0.00	 Slope (M)5: 0.00	 Offset (B)5: 0.00	 Slope (M)6: 0.00	 Offset (B)6: 0.00
Computer Date	Computer Time	GGA String
06/11/2014	12:00:00.948	$GPGGA,120001,2539.1244,N,08008.7460,W,1,7,2.0,18,M,,M,,*55
06/11/2014	12:00:01.985	$GPGGA,120002,2539.1236,N,08008.7438,W,1,7,2.3,17,M,,M,,*52
06/11/2014	12:00:03.078	$GPGGA,120003,2539.1227,N,08008.7417,W,1,7,2.3,17,M,,M,,*5E
06/11/2014	12:00:04.152	$GPGGA,120004,2539.1219,N,08008.7395,W,1,7,2.3,17,M,,M,,*59
06/11/2014	12:00:05.262	$GPGGA,120005,2539.1210,N,08008.7373,W,1,7,2.3,17,M,,M,,*59
06/11/2014	12:00:06.261	$GPGGA,120006,2539.1203,N,08008.7349,W,1,7,2.3,17,M,,M,,*51
06/11/2014	12:00:07.344	$GPGGA,120007,2539.1194,N,08008.7327,W,1,8,1.9,17,M,,M,,*53
06/11/2014	12:00:08.416	$GPGGA,120008,2539.1187,N,08008.7305,W,1,8,2.3,17,M,,M,,*57
06/11/2014	12:00:09.488	$GPGGA,120009,2539.1179,N,08008.7283,W,1,7,2.3,17,M,,M,,*57
06/11/2014	12:00:10.647	$GPGGA,120010,2539.1171,N,08008.7261,W,1,7,2.3,17,M,,M,,*5B
06/11/2014	12:00:11.772	$GPGGA,120011,2539.1164,N,08008.7238,W,1,7,2.3,17,M,,M,,*52
06/11/2014	12:00:12.694	$GPGGA,120012,2539.1158,N,08008.7215,W,1,7,2.3,17,M,,M,,*51
06/11/2014	12:00:13.895	$GPGGA,120013,2539.1151,N,08008.7193,W,1,7,3.3,17,M,,M,,*55
06/11/2014	12:00:14.924	$GPGGA,120014,2539.1143,N,08008.7169,W,1,7,3.3,17,M,,M,,*54
06/11/2014	12:00:16.050	$GPGGA,120015,2539.1136,N,08008.7144,W,1,7,2.3,17,M,,M,,*59
06/11/2014	12:00:16.982	$GPGGA,120016,2539.1129,N,08008.7119,W,1,7,2.3,17,M,,M,,*5C
06/11/2014	12:00:18.033	$GPGGA,120017,2539.1122,N,08008.7095,W,1,7,2.3,17,M,,M,,*53
06/11/2014	12:00:19.202	$GPGGA,120018,2539.1116,N,08008.7072,W,1,7,1.9,17,M,,M,,*5B
06/11/2014	12:00:20.177	$GPGGA,120019,2539.1110,N,08008.7048,W,1,7,2.3,17,M,,M,,*5C
06/11/2014	12:00:21.432	$GPGGA,120020,2539.1105,N,08008.7023,W,1,7,1.9,17,M,,M,,*56
06/11/2014	12:00:22.449	$GPGGA,120021,2539.1100,N,08008.6999,W,1,9,1.9,17,M,,M,,*55
06/11/2014	12:00:23.553	$GPGGA,120022,2539.1096,N,08008.6975,W,1,9,1.9,17,M,,M,,*5A
06/11/2014	12:00:24.550	$GPGGA,120023,2539.1092,N,08008.6951,W,1,9,1.9,17,M,,M,,*59
06/11/2014	12:00:25.719	$GPGGA,120024,2539.1088,N,08008.6927,W,1,9,1.9,17,M,,M,,*54
06/11/2014	12:00:26.760	$GPGGA,120025,2539.1084,N,08008.6904,W,1,9,1.9,17,M,,M,,*58
06/11/2014	12:00:27.831	$GPGGA,120026,2539.1078,N,08008.6881,W,1,9,2.0,17,M,,M,,*5E
06/11/2014	12:00:28.882	$GPGGA,120027,2539.1073,N,08008.6859,W,1,8,2.0,17,M,,M,,*50
06/11/2014	12:00:29.998	$GPGGA,120028,2539.1068,N,08008.6839,W,1,8,3.3,17,M,,M,,*51
06/11/2014	12:00:31.037	$GPGGA,120029,2539.1062,N,08008.6817,W,1,6,3.3,17,M,,M,,*58
06/11/2014	12:00:32.044	$GPGGA,120030,2539.1055,N,08008.6795,W,1,6,2.3,17,M,,M,,*50
06/11/2014	12:00:33.149	$GPGGA,120031,2539.1048,N,08008.6774,W,1,7,3.3,18,M,,M,,*5D
06/11/2014	12:00:34.274	$GPGGA,120032,2539.1041,N,08008.6753,W,1,7,3.3,18,M,,M,,*52
06/11/2014	12:00:35.251	$GPGGA,120033,2539.1034,N,08008.6730,W,1,6,3.3,18,M,,M,,*55
06/11/2014	12:00:36.311	$GPGGA,120034,2539.1026,N,08008.6706,W,1,6,2.3,18,M,,M,,*55
06/11/2014	12:00:37.437	$GPGGA,120035,2539.1019,N,08008.6682,W,1,7,2.0,18,M,,M,,*57
06/11/2014	12:00:38.466	$GPGGA,120036,2539.1009,N,08008.6659,W,1,7,2.0,18,M,,M,,*53
06/11/2014	12:00:39.529	$GPGGA,120037,2539.1001,N,08008.6636,W,1,8,2.0,18,M,,M,,*5C
06/11/2014	12:00:40.664	$GPGGA,120038,2539.0991,N,08008.6614,W,1,8,1.9,18,M,,M,,*58
06/11/2014	12:00:41.724	$GPGGA,120039,2539.0983,N,08008.6592,W,1,9,1.9,18,M,,M,,*56
06/11/2014	12:00:42.808	$GPGGA,120040,2539.0973,N,08008.6570,W,1,9,2.0,18,M,,M,,*51
06/11/2014	12:00:43.879	$GPGGA,120041,2539.0965,N,08008.6548,W,1,8,2.0,18,M,,M,,*5D
06/11/2014	12:00:44.876	$GPGGA,120042,2539.0955,N,08008.6527,W,1,8,1.9,18,M,,M,,*5E
06/11/2014	12:00:46.034	$GPGGA,120043,2539.0944,N,08008.6506,W,1,8,1.9,18,M,,M,,*5C
06/11/2014	12:00:47.096	$GPGGA,120044,2539.0934,N,08008.6484,W,1,8,1.9,18,M,,M,,*57
06/11/2014	12:00:44.571	$GPGGA,120045,2539.0923,N,08008.6464,W,1,9,1.9,18,M,,M,,*5F
06/11/2014	12:00:45.611	$GPGGA,120046,2539.0912,N,08008.6443,W,1,9,1.9,18,M,,M,,*5B
06/11/2014	12:00:46.683	$GPGGA,120047,2539.0901,N,08008.6423,W,1,8,1.9,18,M,,M,,*5F
06/11/2014	12:00:47.830	$GPGGA,120048,2539.0890,N,08008.6402,W,1,8,1.9,18,M,,M,,*5A
06/11/2014	12:00:48.859	$GPGGA,120049,2539.0878,N,08008.6381,W,1,8,1.9,18,M,,M,,*51
06/11/2014	12:00:49.996	$GPGGA,120050,2539.0867,N,08008.6360,W,1,8,1.9,18,M,,M,,*58
06/11/2014	12:00:51.003	$GPGGA,120051,2539.0856,N,08008.6340,W,1,8,1.9,18,M,,M,,*59
06/11/2014	12:00:52.118	$GPGGA,120052,2539.0844,N,08008.6319,W,1,8,1.9,18,M,,M,,*55
06/11/2014	12:00:53.224	$GPGGA,120053,2539.0833,N,08008.6297,W,1,8,1.9,18,M,,M,,*53
06/11/2014	12:00:54.241	$GPGGA,120054,2539.0822,N,08008.6276,W,1,8,1.9,18,M,,M,,*5B
06/11/2014	12:00:55.313	$GPGGA,120055,2539.0813,N,08008.6255,W,1,8,1.9,18,M,,M,,*59
06/11/2014	12:00:56.321	$GPGGA,120056,2539.0800,N,08008.6233,W,1,8,1.9,18,M,,M,,*58
06/11/2014	12:00:57.425	$GPGGA,120057,2539.0789,N,08008.6212,W,1,8,1.9,18,M,,M,,*54
06/11/2014	12:00:58.582	$GPGGA,120058,2539.0777,N,08008.6191,W,1,8,1.9,18,M,,M,,*52
06/11/2014	12:00:59.568	$GPGGA,120059,2539.0766,N,08008.6170,W,1,8,1.9,18,M,,M,,*5C
06/11/2014	12:01:00.705	$GPGGA,120100,2539.0755,N,08008.6149,W,1,8,1.9,18,M,,M,,*5B
06/11/2014	12:01:01.734	$GPGGA,120101,2539.0743,N,08008.6127,W,1,8,1.9,17,M,,M,,*5A
06/11/2014	12:01:02.827	$GPGGA,120102,2539.0732,N,08008.6106,W,1,8,1.9,17,M,,M,,*5C
06/11/2014	12:01:03.835	$GPGGA,120103,2539.0720,N,08008.6085,W,1,8,1.8,17,M,,M,,*55
06/11/2014	12:01:04.982	$GPGGA,120104,2539.0709,N,08008.6064,W,1,8,1.8,17,M,,M,,*56
06/11/2014	12:01:05.969	$GPGGA,120105,2539.0697,N,08008.6042,W,1,9,1.8,17,M,,M,,*54
06/11/2014	12:01:07.130	$GPGGA,120106,2539.0686,N,08008.6021,W,1,9,1.9,17,M,,M,,*53
06/11/2014	12:01:08.177	$GPGGA,120107,2539.0676,N,08008.5999,W,1,8,1.9,18,M,,M,,*5A
06/11/2014	12:01:09.271	$GPGGA,120108,2539.0665,N,08008.5978,W,1,8,1.8,18,M,,M,,*59
06/11/2014	12:01:10.354	$GPGGA,120109,2539.0654,N,08008.5956,W,1,9,1.8,18,M,,M,,*57
06/11/2014	12:01:11.404	$GPGGA,120110,2539.0643,N,08008.5935,W,1,9,1.8,18,M,,M,,*5C
06/11/2014	12:01:12.476	$GPGGA,120111,2539.0632,N,08008.5913,W,1,9,1.8,18,M,,M,,*5F
06/11/2014	12:01:13.559	$GPGGA,120112,2539.0621,N,08008.5892,W,1,9,1.9,18,M,,M,,*57
06/11/2014	12:01:14.653	$GPGGA,120113,2539.0611,N,08008.5870,W,1,8,1.9,18,M,,M,,*58
06/11/2014	12:01:15.713	$GPGGA,120114,2539.0600,N,08008.5848,W,1,8,1.9,18,M,,M,,*54
06/11/2014	12:01:16.764	$GPGGA,120115,2539.0589,N,08008.5827,W,1,8,1.9,18,M,,M,,*5E
06/11/2014	12:01:17.857	$GPGGA,120116,2539.0589,N,08008.5827,W,1,8,1.9,18,M,,M,,*5D
06/11/2014	12:01:18.897	$GPGGA,120117,2539.0565,N,08008.5784,W,1,9,1.8,18,M,,M,,*58
06/11/2014	12:01:19.969	$GPGGA,120118,2539.0553,N,08008.5763,W,1,9,1.8,18,M,,M,,*5B
06/11/2014	12:01:21.074	$GPGGA,120119,2539.0542,N,08008.5742,W,1,9,1.8,18,M,,M,,*59
06/11/2014	12:01:22.140	$GPGGA,120120,2539.0529,N,08008.5720,W,1,9,1.8,18,M,,M,,*5A
06/11/2014	12:01:23.186	$GPGGA,120121,2539.0518,N,08008.5699,W,1,9,1.8,18,M,,M,,*5A
06/11/2014	12:01:24.237	$GPGGA,120122,2539.0506,N,08008.5678,W,1,9,1.8,18,M,,M,,*59
06/11/2014	12:01:25.320	$GPGGA,120123,2539.0495,N,08008.5656,W,1,9,1.9,18,M,,M,,*5E
06/11/2014	12:01:26.423	$GPGGA,120124,2539.0495,N,08008.5656,W,1,9,1.9,18,M,,M,,*59
06/11/2014	12:01:27.442	$GPGGA,120125,2539.0484,N,08008.5635,W,1,8,1.9,18,M,,M,,*5C
06/11/2014	12:01:28.525	$GPGGA,120126,2539.0461,N,08008.5593,W,1,8,1.9,18,M,,M,,*5B
06/11/2014	12:01:29.607	$GPGGA,120127,2539.0450,N,08008.5572,W,1,8,1.9,18,M,,M,,*57
06/11/2014	12:01:30.680	$GPGGA,120128,2539.0439,N,08008.5550,W,1,8,1.9,18,M,,M,,*57
06/11/2014	12:01:31.731	$GPGGA,120129,2539.0428,N,08008.5529,W,1,8,1.9,18,M,,M,,*58
06/11/2014	12:01:32.818	$GPGGA,120130,2539.0417,N,08008.5507,W,1,8,1.9,18,M,,M,,*50
06/11/2014	12:01:33.895	$GPGGA,120131,2539.0406,N,08008.5486,W,1,8,1.9,18,M,,M,,*59
06/11/2014	12:01:34.967	$GPGGA,120132,2539.0406,N,08008.5486,W,1,8,1.9,18,M,,M,,*5A
06/11/2014	12:01:36.149	$GPGGA,120133,2539.0384,N,08008.5443,W,1,8,1.9,18,M,,M,,*5F
06/11/2014	12:01:37.197	$GPGGA,120134,2539.0374,N,08008.5423,W,1,8,1.9,18,M,,M,,*51
06/11/2014	12:01:38.152	$GPGGA,120135,2539.0363,N,08008.5402,W,1,9,1.8,18,M,,M,,*55
06/11/2014	12:01:39.266	$GPGGA,120136,2539.0351,N,08008.5382,W,1,9,1.8,18,M,,M,,*58
06/11/2014	12:01:40.295	$GPGGA,120137,2539.0340,N,08008.5362,W,1,9,1.8,18,M,,M,,*57
06/11/2014	12:01:41.389	$GPGGA,120138,2539.0329,N,08008.5342,W,1,9,1.9,18,M,,M,,*54
06/11/2014	12:01:42.429	$GPGGA,120139,2539.0315,N,08008.5325,W,1,7,1.9,18,M,,M,,*55
06/11/2014	12:01:43.608	$GPGGA,120140,2539.0301,N,08008.5307,W,1,7,1.8,18,M,,M,,*5F
06/11/2014	12:01:44.702	$GPGGA,120141,2539.0287,N,08008.5288,W,1,9,1.8,18,M,,M,,*59
06/11/2014	12:01:45.645	$GPGGA,120142,2539.0273,N,08008.5270,W,1,9,1.8,18,M,,M,,*56
06/11/2014	12:01:46.739	$GPGGA,120143,2539.0273,N,08008.5270,W,1,9,1.8,18,M,,M,,*57
06/11/2014	12:01:47.886	$GPGGA,120144,2539.0246,N,08008.5233,W,1,9,1.8,18,M,,M,,*51
06/11/2014	12:01:44.515	$GPGGA,120145,2539.0230,N,08008.5215,W,1,9,1.8,18,M,,M,,*55
06/11/2014	12:01:45.716	$GPGGA,120146,2539.0217,N,08008.5196,W,1,9,1.8,18,M,,M,,*5B
06/11/2014	12:01:46.659	$GPGGA,120147,2539.0202,N,08008.5176,W,1,9,1.8,18,M,,M,,*50
06/11/2014	12:01:47.860	$GPGGA,120148,2539.0188,N,08008.5157,W,1,9,1.8,18,M,,M,,*5D
06/11/2014	12:01:48.824	$GPGGA,120149,2539.0173,N,08008.5138,W,1,9,1.8,18,M,,M,,*51
06/11/2014	12:01:49.874	$GPGGA,120150,2539.0173,N,08008.5138,W,1,9,1.9,18,M,,M,,*58
06/11/2014	12:01:51.032	$GPGGA,120151,2539.0146,N,08008.5099,W,1,8,1.9,18,M,,M,,*54
06/11/2014	12:01:52.040	$GPGGA,120152,2539.0146,N,08008.5099,W,1,8,1.9,18,M,,M,,*57
06/11/2014	12:01:53.176	$GPGGA,120153,2539.0119,N,08008.5058,W,1,7,1.9,18,M,,M,,*5E
06/11/2014	12:01:54.270	$GPGGA,120154,2539.0106,N,08008.5039,W,1,7,1.9,18,M,,M,,*50
06/11/2014	12:01:55.331	$GPGGA,120155,2539.0094,N,08008.5019,W,1,6,2.0,18,M,,M,,*52
06/11/2014	12:01:56.425	$GPGGA,120156,2539.0080,N,08008.5003,W,1,6,1.9,18,M,,M,,*55
06/11/2014	12:01:57.454	$GPGGA,120157,2539.0067,N,08008.4983,W,1,8,1.9,18,M,,M,,*53
06/11/2014	12:01:58.526	$GPGGA,120158,2539.0054,N,08008.4963,W,1,8,1.8,18,M,,M,,*53
06/11/2014	12:01:59.630	$GPGGA,120159,2539.0041,N,08008.4943,W,1,9,1.8,17,M,,M,,*5A
06/11/2014	12:02:00.703	$GPGGA,120200,2539.0029,N,08008.4924,W,1,9,1.8,17,M,,M,,*5A
06/11/2014	12:02:01.753	$GPGGA,120201,2539.0014,N,08008.4905,W,1,9,1.8,17,M,,M,,*56
06/11/2014	12:02:02.815	$GPGGA,120202,2539.0001,N,08008.4885,W,1,9,1.8,17,M,,M,,*58
06/11/2014	12:02:03.897	$GPGGA,120203,2538.9987,N,08008.4865,W,1,9,1.8,17,M,,M,,*58
06/11/2014	12:02:05.002	$GPGGA,120204,2538.9975,N,08008.4845,W,1,9,1.9,17,M,,M,,*51
06/11/2014	12:02:06.031	$GPGGA,120205,2538.9961,N,08008.4824,W,1,8,1.9,17,M,,M,,*53
06/11/2014	12:02:07.103	$GPGGA,120206,2538.9948,N,08008.4804,W,1,8,1.9,17,M,,M,,*59
06/11/2014	12:02:08.174	$GPGGA,120207,2538.9935,N,08008.4783,W,1,8,1.9,17,M,,M,,*52
06/11/2014	12:02:09.235	$GPGGA,120208,2538.9924,N,08008.4762,W,1,8,1.9,17,M,,M,,*52
06/11/2014	12:02:10.318	$GPGGA,120209,2538.9910,N,08008.4742,W,1,8,1.9,17,M,,M,,*56
06/11/2014	12:02:11.369	$GPGGA,120210,2538.9897,N,08008.4721,W,1,8,1.9,17,M,,M,,*55
06/11/2014	12:02:12.452	$GPGGA,120211,2538.9885,N,08008.4700,W,1,8,1.9,17,M,,M,,*54
06/11/2014	12:02:13.514	$GPGGA,120212,2538.9872,N,08008.4680,W,1,8,1.9,17,M,,M,,*56
06/11/2014	12:02:14.574	$GPGGA,120213,2538.9860,N,08008.4659,W,1,8,1.9,17,M,,M,,*50
06/11/2014	12:02:15.657	$GPGGA,120214,2538.9847,N,08008.4638,W,1,8,1.9,17,M,,M,,*55
06/11/2014	12:02:16.762	$GPGGA,120215,2538.9835,N,08008.4617,W,1,8,1.9,17,M,,M,,*5C
06/11/2014	12:02:17.791	$GPGGA,120216,2538.9823,N,08008.4596,W,1,8,1.9,17,M,,M,,*52
06/11/2014	12:02:18.884	$GPGGA,120217,2538.9811,N,08008.4576,W,1,8,1.9,17,M,,M,,*5C
06/11/2014	12:02:19.914	$GPGGA,120218,2538.9799,N,08008.4555,W,1,8,1.9,17,M,,M,,*5D
06/11/2014	12:02:21.007	$GPGGA,120219,2538.9787,N,08008.4534,W,1,8,1.9,16,M,,M,,*55
06/11/2014	12:02:22.068	$GPGGA,120220,2538.9776,N,08008.4513,W,1,8,1.9,16,M,,M,,*54
06/11/2014	12:02:23.130	$GPGGA,120221,2538.9764,N,08008.4492,W,1,8,1.9,16,M,,M,,*5E
06/11/2014	12:02:24.321	$GPGGA,120222,2538.9752,N,08008.4471,W,1,8,1.9,16,M,,M,,*55
06/11/2014	12:02:25.317	$GPGGA,120223,2538.9741,N,08008.4450,W,1,9,1.8,16,M,,M,,*55
06/11/2014	12:02:26.367	$GPGGA,120224,2538.9729,N,08008.4429,W,1,9,1.8,16,M,,M,,*52
06/11/2014	12:02:27.417	$GPGGA,120225,2538.9718,N,08008.4408,W,1,9,1.8,16,M,,M,,*52
06/11/2014	12:02:28.468	$GPGGA,120226,2538.9707,N,08008.4387,W,1,9,1.8,16,M,,M,,*5F
06/11/2014	12:02:29.561	$GPGGA,120227,2538.9695,N,08008.4366,W,1,9,1.8,16,M,,M,,*5B
06/11/2014	12:02:30.644	$GPGGA,120228,2538.9684,N,08008.4345,W,1,9,1.8,16,M,,M,,*55
06/11/2014	12:02:31.706	$GPGGA,120229,2538.9673,N,08008.4324,W,1,9,1.8,16,M,,M,,*5B
06/11/2014	12:02:32.863	$GPGGA,120230,2538.9662,N,08008.4303,W,1,9,1.8,16,M,,M,,*56
06/11/2014	12:02:33.850	$GPGGA,120231,2538.9650,N,08008.4282,W,1,9,1.8,16,M,,M,,*5E
06/11/2014	12:02:35.040	$GPGGA,120232,2538.9639,N,08008.4260,W,1,9,1.8,16,M,,M,,*5E
06/11/2014	12:02:36.112	$GPGGA,120233,2538.9628,N,08008.4239,W,1,9,1.8,16,M,,M,,*53
06/11/2014	12:02:37.152	$GPGGA,120234,2538.9617,N,08008.4218,W,1,9,1.8,16,M,,M,,*5B
06/11/2014	12:02:38.256	$GPGGA,120235,2538.9606,N,08008.4198,W,1,9,1.8,16,M,,M,,*51
06/11/2014	12:02:39.307	$GPGGA,120236,2538.9595,N,08008.4177,W,1,9,1.8,16,M,,M,,*5A
06/11/2014	12:02:40.347	$GPGGA,120237,2538.9585,N,08008.4156,W,1,9,1.8,16,M,,M,,*59
06/11/2014	12:02:41.419	$GPGGA,120238,2538.9574,N,08008.4135,W,1,9,1.8,16,M,,M,,*5D
06/11/2014	12:02:42.512	$GPGGA,120239,2538.9563,N,08008.4114,W,1,9,1.8,16,M,,M,,*59
06/11/2014	12:02:43.584	$GPGGA,120240,2538.9552,N,08008.4093,W,1,9,1.8,16,M,,M,,*5B
06/11/2014	12:02:44.634	$GPGGA,120241,2538.9540,N,08008.4072,W,1,9,1.8,16,M,,M,,*56
06/11/2014	12:02:45.695	$GPGGA,120242,2538.9530,N,08008.4051,W,1,9,1.8,16,M,,M,,*53
06/11/2014	12:02:46.810	$GPGGA,120243,2538.9520,N,08008.4030,W,1,8,1.9,16,M,,M,,*54
06/11/2014	12:02:47.861	$GPGGA,120244,2538.9509,N,08008.4009,W,1,8,1.9,16,M,,M,,*52
06/11/2014	12:02:44.620	$GPGGA,120245,2538.9496,N,08008.3987,W,1,9,1.8,16,M,,M,,*5C
06/11/2014	12:02:45.660	$GPGGA,120246,2538.9487,N,08008.3965,W,1,9,1.8,16,M,,M,,*53
06/11/2014	12:02:46.753	$GPGGA,120247,2538.9475,N,08008.3944,W,1,8,1.9,16,M,,M,,*5C
06/11/2014	12:02:47.815	$GPGGA,120248,2538.9465,N,08008.3923,W,1,8,1.9,16,M,,M,,*53
06/11/2014	12:02:48.876	$GPGGA,120249,2538.9455,N,08008.3901,W,1,8,1.9,16,M,,M,,*51
06/11/2014	12:02:49.938	$GPGGA,120250,2538.9444,N,08008.3880,W,1,8,1.8,16,M,,M,,*50
06/11/2014	12:02:51.020	$GPGGA,120251,2538.9433,N,08008.3859,W,1,9,1.8,16,M,,M,,*54
06/11/2014	12:02:52.095	$GPGGA,120252,2538.9423,N,08008.3839,W,1,9,1.9,16,M,,M,,*51
06/11/2014	12:02:53.175	$GPGGA,120253,2538.9412,N,08008.3818,W,1,9,1.8,16,M,,M,,*50
06/11/2014	12:02:54.237	$GPGGA,120254,2538.9401,N,08008.3797,W,1,9,1.8,16,M,,M,,*5D
06/11/2014	12:02:55.289	$GPGGA,120255,2538.9390,N,08008.3776,W,1,9,1.8,17,M,,M,,*5D
06/11/2014	12:02:56.370	$GPGGA,120256,2538.9380,N,08008.3755,W,1,9,1.8,17,M,,M,,*5E
06/11/2014	12:02:57.464	$GPGGA,120257,2538.9369,N,08008.3735,W,1,9,1.8,17,M,,M,,*5E
06/11/2014	12:02:58.506	$GPGGA,120258,2538.9358,N,08008.3713,W,1,9,1.8,17,M,,M,,*57
06/11/2014	12:02:59.564	$GPGGA,120259,2538.9347,N,08008.3693,W,1,9,1.8,17,M,,M,,*51
06/11/2014	12:03:00.668	$GPGGA,120300,2538.9336,N,08008.3672,W,1,9,1.8,17,M,,M,,*55
06/11/2014	12:03:01.730	$GPGGA,120301,2538.9325,N,08008.3651,W,1,9,1.8,17,M,,M,,*57
06/11/2014	12:03:02.804	$GPGGA,120302,2538.9314,N,08008.3630,W,1,9,1.8,17,M,,M,,*51
06/11/2014	12:03:03.875	$GPGGA,120303,2538.9304,N,08008.3610,W,1,9,1.8,17,M,,M,,*53
06/11/2014	12:03:04.935	$GPGGA,120304,2538.9293,N,08008.3589,W,1,9,1.8,17,M,,M,,*58
06/11/2014	12:03:05.997	$GPGGA,120305,2538.9282,N,08008.3568,W,1,9,1.8,17,M,,M,,*56
06/11/2014	12:03:07.058	$GPGGA,120306,2538.9271,N,08008.3547,W,1,9,1.8,17,M,,M,,*54
06/11/2014	12:03:08.141	$GPGGA,120307,2538.9260,N,08008.3527,W,1,8,1.9,17,M,,M,,*53
06/11/2014	12:03:09.214	$GPGGA,120308,2538.9249,N,08008.3506,W,1,8,1.9,17,M,,M,,*54
06/11/2014	12:03:10.263	$GPGGA,120309,2538.9239,N,08008.3485,W,1,8,1.9,17,M,,M,,*58
06/11/2014	12:03:11.346	$GPGGA,120310,2538.9228,N,08008.3465,W,1,8,1.9,17,M,,M,,*5E
06/11/2014	12:03:12.526	$GPGGA,120311,2538.9216,N,08008.3444,W,1,8,1.9,17,M,,M,,*51
06/11/2014	12:03:13.480	$GPGGA,120312,2538.9205,N,08008.3422,W,1,8,1.8,17,M,,M,,*51
06/11/2014	12:03:14.563	$GPGGA,120313,2538.9194,N,08008.3401,W,1,9,1.8,17,M,,M,,*5B
06/11/2014	12:03:15.613	$GPGGA,120314,2538.9182,N,08008.3379,W,1,9,1.8,17,M,,M,,*53
06/11/2014	12:03:16.826	$GPGGA,120315,2538.9170,N,08008.3358,W,1,9,1.8,17,M,,M,,*5C
06/11/2014	12:03:17.778	$GPGGA,120316,2538.9159,N,08008.3336,W,1,9,1.8,17,M,,M,,*5C
06/11/2014	12:03:18.839	$GPGGA,120317,2538.9148,N,08008.3315,W,1,9,1.8,16,M,,M,,*5D
06/11/2014	12:03:19.890	$GPGGA,120318,2538.9137,N,08008.3294,W,1,9,1.8,16,M,,M,,*52
06/11/2014	12:03:21.069	$GPGGA,120319,2538.9124,N,08008.3272,W,1,9,1.8,16,M,,M,,*59
06/11/2014	12:03:22.173	$GPGGA,120320,2538.9113,N,08008.3251,W,1,9,1.8,16,M,,M,,*56
06/11/2014	12:03:23.106	$GPGGA,120321,2538.9101,N,08008.3229,W,1,9,1.8,16,M,,M,,*5B
06/11/2014	12:03:24.275	$GPGGA,120322,2538.9090,N,08008.3208,W,1,9,1.8,16,M,,M,,*52
06/11/2014	12:03:25.379	$GPGGA,120323,2538.9079,N,08008.3187,W,1,8,1.9,16,M,,M,,*50
06/11/2014	12:03:26.451	$GPGGA,120324,2538.9068,N,08008.3165,W,1,8,1.9,16,M,,M,,*5B
06/11/2014	12:03:27.502	$GPGGA,120325,2538.9057,N,08008.3144,W,1,8,1.9,16,M,,M,,*55
06/11/2014	12:03:28.574	$GPGGA,120326,2538.9046,N,08008.3122,W,1,8,1.9,16,M,,M,,*56
06/11/2014	12:03:29.667	$GPGGA,120327,2538.9035,N,08008.3101,W,1,8,1.9,16,M,,M,,*52
06/11/2014	12:03:30.707	$GPGGA,120328,2538.9023,N,08008.3079,W,1,8,1.9,16,M,,M,,*54
06/11/2014	12:03:31.801	$GPGGA,120329,2538.9012,N,08008.3057,W,1,8,1.9,16,M,,M,,*5B
06/11/2014	12:03:32.830	$GPGGA,120330,2538.9001,N,08008.3036,W,1,8,1.9,16,M,,M,,*56
06/11/2014	12:03:33.924	$GPGGA,120331,2538.8990,N,08008.3014,W,1,8,1.9,16,M,,M,,*57
06/11/2014	12:03:34.996	$GPGGA,120332,2538.8979,N,08008.2992,W,1,8,1.9,16,M,,M,,*55
06/11/2014	12:03:36.068	$GPGGA,120333,2538.8968,N,08008.2971,W,1,8,1.9,16,M,,M,,*59
06/11/2014	12:03:37.123	$GPGGA,120334,2538.8957,N,08008.2949,W,1,8,1.9,16,M,,M,,*59
06/11/2014	12:03:38.179	$GPGGA,120335,2538.8946,N,08008.2927,W,1,9,1.8,16,M,,M,,*50
06/11/2014	12:03:39.272	$GPGGA,120336,2538.8935,N,08008.2905,W,1,9,1.8,16,M,,M,,*57
06/11/2014	12:03:40.344	$GPGGA,120337,2538.8924,N,08008.2883,W,1,9,1.8,16,M,,M,,*59
06/11/2014	12:03:41.395	$GPGGA,120338,2538.8913,N,08008.2861,W,1,9,1.8,16,M,,M,,*5E
06/11/2014	12:03:42.489	$GPGGA,120339,2538.8903,N,08008.2839,W,1,9,1.8,16,M,,M,,*53
06/11/2014	12:03:43.550	$GPGGA,120340,2538.8892,N,08008.2818,W,1,9,1.8,16,M,,M,,*57
06/11/2014	12:03:44.633	$GPGGA,120341,2538.8881,N,08008.2796,W,1,9,1.8,16,M,,M,,*5D
06/11/2014	12:03:45.662	$GPGGA,120342,2538.8870,N,08008.2774,W,1,9,1.8,16,M,,M,,*5C
06/11/2014	12:03:46.745	$GPGGA,120343,2538.8860,N,08008.2752,W,1,9,1.8,16,M,,M,,*58
06/11/2014	12:03:47.830	$GPGGA,120344,2538.8849,N,08008.2730,W,1,9,1.9,16,M,,M,,*51
06/11/2014	12:03:44.556	$GPGGA,120345,2538.8839,N,08008.2708,W,1,8,1.9,16,M,,M,,*5D
06/11/2014	12:03:45.648	$GPGGA,120346,2538.8829,N,08008.2685,W,1,8,1.9,16,M,,M,,*5B
06/11/2014	12:03:46.688	$GPGGA,120347,2538.8819,N,08008.2664,W,1,9,1.8,16,M,,M,,*56
06/11/2014	12:03:47.792	$GPGGA,120348,2538.8808,N,08008.2642,W,1,9,1.8,16,M,,M,,*5D
06/11/2014	12:03:48.832	$GPGGA,120349,2538.8798,N,08008.2620,W,1,9,1.8,16,M,,M,,*5E
06/11/2014	12:03:49.915	$GPGGA,120350,2538.8787,N,08008.2599,W,1,9,1.8,16,M,,M,,*59
06/11/2014	12:03:50.975	$GPGGA,120351,2538.8776,N,08008.2577,W,1,9,1.8,16,M,,M,,*56
06/11/2014	12:03:52.048	$GPGGA,120352,2538.8766,N,08008.2555,W,1,9,1.8,16,M,,M,,*54
06/11/2014	12:03:53.131	$GPGGA,120353,2538.8755,N,08008.2533,W,1,8,1.9,16,M,,M,,*55
06/11/2014	12:03:54.181	$GPGGA,120354,2538.8743,N,08008.2512,W,1,8,1.9,16,M,,M,,*56
06/11/2014	12:03:55.383	$GPGGA,120355,2538.8732,N,08008.2490,W,1,8,1.9,16,M,,M,,*5A
06/11/2014	12:03:56.357	$GPGGA,120356,2538.8721,N,08008.2469,W,1,8,1.9,16,M,,M,,*5D
06/11/2014	12:03:57.515	$GPGGA,120357,2538.8709,N,08008.2447,W,1,8,1.9,16,M,,M,,*5A
06/11/2014	12:03:58.587	$GPGGA,120358,2538.8698,N,08008.2426,W,1,8,1.9,16,M,,M,,*5B
06/11/2014	12:03:59.531	$GPGGA,120359,2538.8687,N,08008.2404,W,1,8,1.9,16,M,,M,,*54
06/11/2014	12:04:00.765	$GPGGA,120400,2538.8676,N,08008.2382,W,1,8,1.9,16,M,,M,,*58
06/11/2014	12:04:01.696	$GPGGA,120401,2538.8664,N,08008.2361,W,1,8,1.9,16,M,,M,,*57
06/11/2014	12:04:02.736	$GPGGA,120402,2538.8653,N,08008.2339,W,1,8,1.9,16,M,,M,,*5D
06/11/2014	12:04:03.926	$GPGGA,120403,2538.8642,N,08008.2318,W,1,8,1.9,16,M,,M,,*5F
06/11/2014	12:04:05.020	$GPGGA,120404,2538.8631,N,08008.2297,W,1,8,1.9,16,M,,M,,*5A
06/11/2014	12:04:06.070	$GPGGA,120405,2538.8620,N,08008.2275,W,1,8,1.9,16,M,,M,,*57
06/11/2014	12:04:07.015	$GPGGA,120406,2538.8609,N,08008.2254,W,1,8,1.9,16,M,,M,,*5C
06/11/2014	12:04:08.225	$GPGGA,120407,2538.8597,N,08008.2232,W,1,8,1.9,16,M,,M,,*59
06/11/2014	12:04:09.180	$GPGGA,120408,2538.8586,N,08008.2210,W,1,8,1.9,16,M,,M,,*56
06/11/2014	12:04:10.240	$GPGGA,120409,2538.8574,N,08008.2189,W,1,8,1.9,16,M,,M,,*59
06/11/2014	12:04:11.408	$GPGGA,120410,2538.8563,N,08008.2168,W,1,8,1.9,16,M,,M,,*58
06/11/2014	12:04:12.513	$GPGGA,120411,2538.8552,N,08008.2147,W,1,8,1.9,16,M,,M,,*56
06/11/2014	12:04:13.585	$GPGGA,120412,2538.8541,N,08008.2126,W,1,8,1.9,16,M,,M,,*50
06/11/2014	12:04:14.625	$GPGGA,120413,2538.8530,N,08008.2104,W,1,8,1.9,16,M,,M,,*57
06/11/2014	12:04:15.686	$GPGGA,120414,2538.8519,N,08008.2083,W,1,8,1.9,16,M,,M,,*55
06/11/2014	12:04:16.758	$GPGGA,120415,2538.8508,N,08008.2062,W,1,8,1.9,16,M,,M,,*5B
06/11/2014	12:04:17.830	$GPGGA,120416,2538.8497,N,08008.2041,W,1,8,1.9,16,M,,M,,*5E
06/11/2014	12:04:18.902	$GPGGA,120417,2538.8485,N,08008.2020,W,1,8,1.9,16,M,,M,,*5B
06/11/2014	12:04:19.974	$GPGGA,120418,2538.8475,N,08008.1999,W,1,8,1.9,16,M,,M,,*53
06/11/2014	12:04:21.057	$GPGGA,120419,2538.8465,N,08008.1977,W,1,8,1.9,16,M,,M,,*53
06/11/2014	12:04:22.120	$GPGGA,120420,2538.8454,N,08008.1956,W,1,8,1.9,16,M,,M,,*58
06/11/2014	12:04:23.180	$GPGGA,120421,2538.8443,N,08008.1935,W,1,8,1.9,16,M,,M,,*5A
06/11/2014	12:04:24.252	$GPGGA,120422,2538.8432,N,08008.1914,W,1,8,1.9,16,M,,M,,*5C
06/11/2014	12:04:25.335	$GPGGA,120423,2538.8420,N,08008.1893,W,1,8,1.9,16,M,,M,,*50
06/11/2014	12:04:26.396	$GPGGA,120424,2538.8409,N,08008.1873,W,1,8,1.9,16,M,,M,,*52
06/11/2014	12:04:27.479	$GPGGA,120425,2538.8398,N,08008.1852,W,1,8,1.9,16,M,,M,,*5F
06/11/2014	12:04:28.518	$GPGGA,120426,2538.8387,N,08008.1831,W,1,8,1.8,16,M,,M,,*56
06/11/2014	12:04:29.622	$GPGGA,120427,2538.8375,N,08008.1811,W,1,9,1.8,16,M,,M,,*59
06/11/2014	12:04:30.673	$GPGGA,120428,2538.8363,N,08008.1791,W,1,9,1.8,16,M,,M,,*56
06/11/2014	12:04:31.724	$GPGGA,120429,2538.8353,N,08008.1771,W,1,9,1.8,16,M,,M,,*5A
06/11/2014	12:04:32.796	$GPGGA,120430,2538.8339,N,08008.1751,W,1,9,1.8,16,M,,M,,*5C
06/11/2014	12:04:33.891	$GPGGA,120431,2538.8327,N,08008.1731,W,1,8,1.8,16,M,,M,,*55
06/11/2014	12:04:34.951	$GPGGA,120432,2538.8314,N,08008.1711,W,1,8,2.2,16,M,,M,,*5D
06/11/2014	12:04:36.027	$GPGGA,120433,2538.8302,N,08008.1691,W,1,7,2.2,16,M,,M,,*5D
06/11/2014	12:04:37.084	$GPGGA,120434,2538.8288,N,08008.1674,W,1,7,1.8,16,M,,M,,*5B
06/11/2014	12:04:38.146	$GPGGA,120435,2538.8274,N,08008.1658,W,1,9,1.8,16,M,,M,,*59
06/11/2014	12:04:39.239	$GPGGA,120436,2538.8260,N,08008.1640,W,1,9,1.8,16,M,,M,,*56
06/11/2014	12:04:40.300	$GPGGA,120437,2538.8246,N,08008.1621,W,1,9,1.8,16,M,,M,,*54
06/11/2014	12:04:41.373	$GPGGA,120438,2538.8232,N,08008.1603,W,1,9,1.8,16,M,,M,,*58
06/11/2014	12:04:42.423	$GPGGA,120439,2538.8219,N,08008.1585,W,1,9,1.8,16,M,,M,,*5D
06/11/2014	12:04:43.538	$GPGGA,120440,2538.8204,N,08008.1567,W,1,9,1.8,16,M,,M,,*53
06/11/2014	12:04:44.589	$GPGGA,120441,2538.8191,N,08008.1549,W,1,8,1.8,16,M,,M,,*50
06/11/2014	12:04:45.639	$GPGGA,120442,2538.8176,N,08008.1529,W,1,8,1.8,16,M,,M,,*5C
06/11/2014	12:04:46.831	$GPGGA,120443,2538.8161,N,08008.1513,W,1,8,1.8,16,M,,M,,*52
06/11/2014	12:04:47.911	$GPGGA,120444,2538.8147,N,08008.1493,W,1,8,1.8,16,M,,M,,*58
06/11/2014	12:04:44.671	$GPGGA,120445,2538.8133,N,08008.1472,W,1,9,1.8,17,M,,M,,*55
06/11/2014	12:04:45.602	$GPGGA,120446,2538.8119,N,08008.1452,W,1,9,1.8,17,M,,M,,*5C
06/11/2014	12:04:46.674	$GPGGA,120447,2538.8105,N,08008.1433,W,1,8,1.8,17,M,,M,,*56
06/11/2014	12:04:47.768	$GPGGA,120448,2538.8091,N,08008.1414,W,1,8,1.8,17,M,,M,,*50
06/11/2014	12:04:48.915	$GPGGA,120449,2538.8078,N,08008.1395,W,1,8,1.8,17,M,,M,,*58
06/11/2014	12:04:49.880	$GPGGA,120450,2538.8064,N,08008.1376,W,1,8,1.8,17,M,,M,,*50
06/11/2014	12:04:50.941	$GPGGA,120451,2538.8049,N,08008.1357,W,1,8,1.8,17,M,,M,,*5D
06/11/2014	12:04:52.152	$GPGGA,120452,2538.8035,N,08008.1337,W,1,8,2.0,17,M,,M,,*58
06/11/2014	12:04:53.225	$GPGGA,120453,2538.8019,N,08008.1319,W,1,8,2.0,17,M,,M,,*5B
06/11/2014	12:04:54.157	$GPGGA,120454,2538.8006,N,08008.1300,W,1,8,2.0,17,M,,M,,*5A
06/11/2014	12:04:55.358	$GPGGA,120455,2538.7991,N,08008.1282,W,1,8,2.0,17,M,,M,,*58
06/11/2014	12:04:56.419	$GPGGA,120456,2538.7977,N,08008.1263,W,1,8,2.0,18,M,,M,,*53
06/11/2014	12:04:57.348	$GPGGA,120457,2538.7961,N,08008.1245,W,1,8,2.0,18,M,,M,,*51
06/11/2014	12:04:58.457	$GPGGA,120458,2538.7946,N,08008.1227,W,1,8,2.3,18,M,,M,,*5C
06/11/2014	12:04:59.505	$GPGGA,120459,2538.7931,N,08008.1209,W,1,7,2.3,18,M,,M,,*5E
06/11/2014	12:05:00.533	$GPGGA,120500,2538.7915,N,08008.1191,W,1,7,2.3,18,M,,M,,*57
06/11/2014	12:05:01.549	$GPGGA,120501,2538.7901,N,08008.1173,W,1,7,2.3,18,M,,M,,*5F
06/11/2014	12:05:02.556	$GPGGA,120502,2538.7884,N,08008.1154,W,1,7,2.3,18,M,,M,,*55
06/11/2014	12:05:03.604	$GPGGA,120503,2538.7869,N,08008.1135,W,1,7,2.3,18,M,,M,,*50
06/11/2014	12:05:04.621	$GPGGA,120504,2538.7855,N,08008.1114,W,1,7,1.9,18,M,,M,,*52
06/11/2014	12:05:05.618	$GPGGA,120505,2538.7840,N,08008.1095,W,1,8,1.9,18,M,,M,,*50
06/11/2014	12:05:06.656	$GPGGA,120506,2538.7823,N,08008.1076,W,1,8,1.9,18,M,,M,,*5B
06/11/2014	12:05:07.704	$GPGGA,120507,2538.7807,N,08008.1056,W,1,8,1.9,18,M,,M,,*5E
06/11/2014	12:05:08.721	$GPGGA,120508,2538.7791,N,08008.1037,W,1,8,1.9,18,M,,M,,*56
06/11/2014	12:05:09.749	$GPGGA,120509,2538.7775,N,08008.1017,W,1,8,1.9,18,M,,M,,*5F
06/11/2014	12:05:10.757	$GPGGA,120510,2538.7760,N,08008.0998,W,1,8,1.9,18,M,,M,,*5C
06/11/2014	12:05:11.804	$GPGGA,120511,2538.7743,N,08008.0979,W,1,8,2.3,18,M,,M,,*5A
06/11/2014	12:05:12.821	$GPGGA,120512,2538.7728,N,08008.0961,W,1,8,2.0,18,M,,M,,*5E
06/11/2014	12:05:13.848	$GPGGA,120513,2538.7710,N,08008.0942,W,1,8,2.0,18,M,,M,,*55
06/11/2014	12:05:14.848	$GPGGA,120514,2538.7693,N,08008.0925,W,1,8,1.8,18,M,,M,,*52
06/11/2014	12:05:15.903	$GPGGA,120515,2538.7677,N,08008.0908,W,1,8,1.9,18,M,,M,,*57
06/11/2014	12:05:16.931	$GPGGA,120516,2538.7660,N,08008.0890,W,1,8,1.9,18,M,,M,,*52
06/11/2014	12:05:17.969	$GPGGA,120517,2538.7643,N,08008.0871,W,1,8,1.9,18,M,,M,,*5D
06/11/2014	12:05:18.965	$GPGGA,120518,2538.7624,N,08008.0853,W,1,8,1.8,18,M,,M,,*52
06/11/2014	12:05:20.012	$GPGGA,120519,2538.7607,N,08008.0835,W,1,9,1.8,18,M,,M,,*53
06/11/2014	12:05:21.041	$GPGGA,120520,2538.7590,N,08008.0816,W,1,9,1.8,18,M,,M,,*55
06/11/2014	12:05:22.079	$GPGGA,120521,2538.7573,N,08008.0799,W,1,9,1.8,18,M,,M,,*51
06/11/2014	12:05:23.055	$GPGGA,120522,2538.7556,N,08008.0780,W,1,9,1.8,18,M,,M,,*5D
06/11/2014	12:05:24.106	$GPGGA,120523,2538.7540,N,08008.0762,W,1,9,1.8,18,M,,M,,*57
06/11/2014	12:05:25.150	$GPGGA,120524,2538.7522,N,08008.0744,W,1,9,1.8,18,M,,M,,*50
06/11/2014	12:05:26.167	$GPGGA,120525,2538.7505,N,08008.0726,W,1,9,1.8,18,M,,M,,*50
06/11/2014	12:05:27.188	$GPGGA,120526,2538.7488,N,08008.0709,W,1,9,1.8,18,M,,M,,*5A
06/11/2014	12:05:28.304	$GPGGA,120527,2538.7471,N,08008.0692,W,1,9,1.9,18,M,,M,,*5F
06/11/2014	12:05:29.239	$GPGGA,120528,2538.7454,N,08008.0674,W,1,9,1.9,18,M,,M,,*5F
06/11/2014	12:05:30.236	$GPGGA,120529,2538.7437,N,08008.0656,W,1,8,1.9,18,M,,M,,*5A
06/11/2014	12:05:31.253	$GPGGA,120530,2538.7419,N,08008.0639,W,1,8,1.9,18,M,,M,,*57
06/11/2014	12:05:32.312	$GPGGA,120531,2538.7403,N,08008.0622,W,1,8,1.9,19,M,,M,,*56
06/11/2014	12:05:33.352	$GPGGA,120532,2538.7386,N,08008.0604,W,1,8,1.9,19,M,,M,,*5B
06/11/2014	12:05:34.438	$GPGGA,120533,2538.7368,N,08008.0587,W,1,8,1.9,19,M,,M,,*52
06/11/2014	12:05:35.373	$GPGGA,120534,2538.7352,N,08008.0570,W,1,8,1.9,19,M,,M,,*54
06/11/2014	12:05:36.421	$GPGGA,120535,2538.7334,N,08008.0553,W,1,8,1.9,19,M,,M,,*54
06/11/2014	12:05:37.520	$GPGGA,120536,2538.7316,N,08008.0536,W,1,8,1.9,19,M,,M,,*54
06/11/2014	12:05:38.475	$GPGGA,120537,2538.7298,N,08008.0519,W,1,8,1.9,19,M,,M,,*5F
06/11/2014	12:05:39.493	$GPGGA,120538,2538.7281,N,08008.0502,W,1,8,1.9,19,M,,M,,*52
06/11/2014	12:05:40.500	$GPGGA,120539,2538.7263,N,08008.0485,W,1,8,1.9,19,M,,M,,*51
06/11/2014	12:05:41.558	$GPGGA,120540,2538.7245,N,08008.0469,W,1,8,1.9,19,M,,M,,*59
06/11/2014	12:05:42.555	$GPGGA,120541,2538.7227,N,08008.0452,W,1,8,1.9,19,M,,M,,*54
06/11/2014	12:05:43.664	$GPGGA,120542,2538.7211,N,08008.0435,W,1,8,1.9,19,M,,M,,*53
06/11/2014	12:05:44.611	$GPGGA,120543,2538.7193,N,08008.0418,W,1,8,1.9,19,M,,M,,*54
06/11/2014	12:05:45.730	$GPGGA,120544,2538.7175,N,08008.0401,W,1,8,1.9,19,M,,M,,*53
06/11/2014	12:05:44.602	$GPGGA,120545,2538.7157,N,08008.0384,W,1,8,1.9,19,M,,M,,*58
06/11/2014	12:05:45.619	$GPGGA,120546,2538.7139,N,08008.0368,W,1,8,1.8,19,M,,M,,*50
06/11/2014	12:05:46.657	$GPGGA,120547,2538.7121,N,08008.0351,W,1,9,1.8,19,M,,M,,*53
06/11/2014	12:05:47.664	$GPGGA,120548,2538.7104,N,08008.0335,W,1,9,1.8,19,M,,M,,*59
06/11/2014	12:05:48.691	$GPGGA,120549,2538.7085,N,08008.0318,W,1,8,1.8,19,M,,M,,*5E
06/11/2014	12:05:49.709	$GPGGA,120550,2538.7068,N,08008.0302,W,1,8,1.8,19,M,,M,,*5E
06/11/2014	12:05:50.718	$GPGGA,120551,2538.7050,N,08008.0286,W,1,8,1.8,19,M,,M,,*59
06/11/2014	12:05:51.774	$GPGGA,120552,2538.7032,N,08008.0270,W,1,8,1.8,19,M,,M,,*57
06/11/2014	12:05:52.801	$GPGGA,120553,2538.7014,N,08008.0254,W,1,8,1.8,19,M,,M,,*54
06/11/2014	12:05:53.799	$GPGGA,120554,2538.6996,N,08008.0239,W,1,8,1.8,19,M,,M,,*5A
06/11/2014	12:05:54.845	$GPGGA,120555,2538.6978,N,08008.0227,W,1,8,1.8,19,M,,M,,*54
06/11/2014	12:05:55.873	$GPGGA,120556,2538.6959,N,08008.0211,W,1,8,1.8,19,M,,M,,*51
06/11/2014	12:05:56.871	$GPGGA,120557,2538.6941,N,08008.0195,W,1,8,1.8,19,M,,M,,*56
06/11/2014	12:05:57.910	$GPGGA,120558,2538.6922,N,08008.0179,W,1,8,1.8,19,M,,M,,*5E
06/11/2014	12:05:58.945	$GPGGA,120559,2538.6904,N,08008.0163,W,1,8,1.8,19,M,,M,,*50
06/11/2014	12:05:59.972	$GPGGA,120600,2538.6886,N,08008.0148,W,1,8,1.8,19,M,,M,,*5D
06/11/2014	12:06:01.010	$GPGGA,120601,2538.6868,N,08008.0132,W,1,8,1.8,19,M,,M,,*51
06/11/2014	12:06:02.017	$GPGGA,120602,2538.6850,N,08008.0116,W,1,8,1.8,19,M,,M,,*5F
06/11/2014	12:06:03.024	$GPGGA,120603,2538.6832,N,08008.0101,W,1,8,1.8,19,M,,M,,*5C
06/11/2014	12:06:04.078	$GPGGA,120604,2538.6812,N,08008.0085,W,1,8,1.8,19,M,,M,,*54
06/11/2014	12:06:05.129	$GPGGA,120605,2538.6794,N,08008.0070,W,1,8,1.8,19,M,,M,,*5E
06/11/2014	12:06:06.106	$GPGGA,120606,2538.6776,N,08008.0054,W,1,8,1.8,19,M,,M,,*57
06/11/2014	12:06:07.154	$GPGGA,120607,2538.6758,N,08008.0038,W,1,8,1.8,19,M,,M,,*50
06/11/2014	12:06:08.181	$GPGGA,120608,2538.6740,N,08008.0022,W,1,8,1.8,19,M,,M,,*5D
06/11/2014	12:06:09.180	$GPGGA,120609,2538.6722,N,08008.0007,W,1,8,1.8,19,M,,M,,*5F
06/11/2014	12:06:11.479	$GPGGA,120611,2538.6688,N,08007.9976,W,1,8,1.8,18,M,,M,,*5F
06/11/2014	12:06:12.271	$GPGGA,120612,2538.6670,N,08007.9961,W,1,8,1.8,18,M,,M,,*5D
06/11/2014	12:06:13.308	$GPGGA,120613,2538.6652,N,08007.9945,W,1,8,1.8,18,M,,M,,*5A
06/11/2014	12:06:14.305	$GPGGA,120614,2538.6634,N,08007.9929,W,1,8,1.8,18,M,,M,,*57
06/11/2014	12:06:15.456	$GPGGA,120615,2538.6616,N,08007.9913,W,1,8,1.8,18,M,,M,,*5F
06/11/2014	12:06:16.380	$GPGGA,120616,2538.6598,N,08007.9897,W,1,8,1.8,18,M,,M,,*54
06/11/2014	12:06:17.377	$GPGGA,120617,2538.6580,N,08007.9882,W,1,8,1.8,18,M,,M,,*58
06/11/2014	12:06:18.425	$GPGGA,120618,2538.6562,N,08007.9865,W,1,8,1.8,18,M,,M,,*52
06/11/2014	12:06:19.453	$GPGGA,120619,2538.6544,N,08007.9849,W,1,8,1.8,18,M,,M,,*59
06/11/2014	12:06:20.470	$GPGGA,120620,2538.6526,N,08007.9834,W,1,8,1.8,18,M,,M,,*5D
06/11/2014	12:06:21.477	$GPGGA,120621,2538.6508,N,08007.9818,W,1,8,1.8,18,M,,M,,*5E
06/11/2014	12:06:22.607	$GPGGA,120622,2538.6490,N,08007.9802,W,1,8,1.8,18,M,,M,,*56
06/11/2014	12:06:23.676	$GPGGA,120623,2538.6471,N,08007.9786,W,1,8,1.8,18,M,,M,,*5B
06/11/2014	12:06:24.580	$GPGGA,120624,2538.6453,N,08007.9769,W,1,8,1.8,18,M,,M,,*5D
06/11/2014	12:06:25.720	$GPGGA,120625,2538.6435,N,08007.9754,W,1,8,1.8,18,M,,M,,*52
06/11/2014	12:06:26.625	$GPGGA,120626,2538.6416,N,08007.9738,W,1,8,1.8,18,M,,M,,*5A
06/11/2014	12:06:27.734	$GPGGA,120627,2538.6398,N,08007.9722,W,1,7,1.8,18,M,,M,,*5E
06/11/2014	12:06:28.691	$GPGGA,120628,2538.6380,N,08007.9706,W,1,7,1.8,18,M,,M,,*5E
06/11/2014	12:06:29.799	$GPGGA,120629,2538.6362,N,08007.9689,W,1,8,1.8,18,M,,M,,*5A
06/11/2014	12:06:30.826	$GPGGA,120630,2538.6342,N,08007.9673,W,1,8,1.8,18,M,,M,,*55
06/11/2014	12:06:31.855	$GPGGA,120631,2538.6324,N,08007.9657,W,1,8,1.8,18,M,,M,,*52
06/11/2014	12:06:32.881	$GPGGA,120632,2538.6305,N,08007.9640,W,1,8,1.8,18,M,,M,,*54
06/11/2014	12:06:33.909	$GPGGA,120633,2538.6286,N,08007.9624,W,1,8,1.8,17,M,,M,,*52
06/11/2014	12:06:34.936	$GPGGA,120634,2538.6268,N,08007.9608,W,1,8,1.8,17,M,,M,,*5B
06/11/2014	12:06:35.974	$GPGGA,120635,2538.6250,N,08007.9592,W,1,8,1.8,17,M,,M,,*51
06/11/2014	12:06:36.981	$GPGGA,120636,2538.6230,N,08007.9576,W,1,8,1.8,17,M,,M,,*5E
06/11/2014	12:06:38.008	$GPGGA,120637,2538.6212,N,08007.9559,W,1,8,1.8,17,M,,M,,*52
06/11/2014	12:06:39.036	$GPGGA,120638,2538.6193,N,08007.9542,W,1,8,1.8,17,M,,M,,*5D
06/11/2014	12:06:40.053	$GPGGA,120639,2538.6175,N,08007.9525,W,1,8,1.8,17,M,,M,,*55
06/11/2014	12:06:41.081	$GPGGA,120640,2538.6156,N,08007.9509,W,1,8,1.8,17,M,,M,,*54
06/11/2014	12:06:42.118	$GPGGA,120641,2538.6138,N,08007.9492,W,1,8,1.8,17,M,,M,,*5E
06/11/2014	12:06:43.121	$GPGGA,120642,2538.6120,N,08007.9475,W,1,8,1.8,17,M,,M,,*5D
06/11/2014	12:06:44.173	$GPGGA,120643,2538.6102,N,08007.9459,W,1,8,1.8,17,M,,M,,*52
06/11/2014	12:06:45.190	$GPGGA,120644,2538.6082,N,08007.9442,W,1,8,1.8,17,M,,M,,*56
06/11/2014	12:06:44.570	$GPGGA,120645,2538.6063,N,08007.9427,W,1,9,1.8,17,M,,M,,*5A
06/11/2014	12:06:45.568	$GPGGA,120646,2538.6045,N,08007.9411,W,1,9,1.8,17,M,,M,,*58
06/11/2014	12:06:46.603	$GPGGA,120647,2538.6027,N,08007.9394,W,1,8,1.8,17,M,,M,,*56
06/11/2014	12:06:47.641	$GPGGA,120648,2538.6008,N,08007.9378,W,1,8,1.8,17,M,,M,,*56
06/11/2014	12:06:48.679	$GPGGA,120649,2538.5990,N,08007.9363,W,1,8,1.8,16,M,,M,,*57
06/11/2014	12:06:49.688	$GPGGA,120650,2538.5972,N,08007.9346,W,1,8,1.9,16,M,,M,,*55
06/11/2014	12:06:50.724	$GPGGA,120651,2538.5954,N,08007.9330,W,1,8,1.8,16,M,,M,,*50
06/11/2014	12:06:51.731	$GPGGA,120652,2538.5934,N,08007.9314,W,1,8,1.8,16,M,,M,,*53
06/11/2014	12:06:52.762	$GPGGA,120653,2538.5916,N,08007.9298,W,1,8,1.8,16,M,,M,,*57
06/11/2014	12:06:53.765	$GPGGA,120654,2538.5897,N,08007.9282,W,1,8,1.8,16,M,,M,,*53
06/11/2014	12:06:54.821	$GPGGA,120655,2538.5878,N,08007.9266,W,1,8,1.8,16,M,,M,,*59
06/11/2014	12:06:55.851	$GPGGA,120656,2538.5860,N,08007.9250,W,1,8,1.8,16,M,,M,,*56
06/11/2014	12:06:56.848	$GPGGA,120657,2538.5842,N,08007.9234,W,1,8,1.8,16,M,,M,,*55
06/11/2014	12:06:57.885	$GPGGA,120658,2538.5824,N,08007.9218,W,1,8,1.8,16,M,,M,,*54
06/11/2014	12:06:58.954	$GPGGA,120659,2538.5806,N,08007.9202,W,1,8,1.8,16,M,,M,,*5E
06/11/2014	12:06:59.961	$GPGGA,120700,2538.5786,N,08007.9186,W,1,8,1.8,16,M,,M,,*5B
06/11/2014	12:07:00.948	$GPGGA,120701,2538.5767,N,08007.9170,W,1,8,1.8,16,M,,M,,*5C
06/11/2014	12:07:01.985	$GPGGA,120702,2538.5749,N,08007.9155,W,1,8,1.8,16,M,,M,,*54
06/11/2014	12:07:03.023	$GPGGA,120703,2538.5731,N,08007.9139,W,1,8,1.8,16,M,,M,,*50
06/11/2014	12:07:04.063	$GPGGA,120704,2538.5713,N,08007.9123,W,1,8,1.8,16,M,,M,,*5C
06/11/2014	12:07:05.090	$GPGGA,120705,2538.5694,N,08007.9107,W,1,7,1.8,15,M,,M,,*59
06/11/2014	12:07:06.094	$GPGGA,120706,2538.5676,N,08007.9091,W,1,7,1.8,15,M,,M,,*58
06/11/2014	12:07:07.122	$GPGGA,120707,2538.5658,N,08007.9074,W,1,7,1.8,15,M,,M,,*5E
06/11/2014	12:07:08.149	$GPGGA,120708,2538.5638,N,08007.9058,W,1,7,1.8,15,M,,M,,*59
06/11/2014	12:07:09.156	$GPGGA,120709,2538.5619,N,08007.9041,W,1,8,1.8,15,M,,M,,*5C
06/11/2014	12:07:10.276	$GPGGA,120710,2538.5600,N,08007.9023,W,1,8,1.8,15,M,,M,,*58
06/11/2014	12:07:11.211	$GPGGA,120711,2538.5582,N,08007.9007,W,1,8,1.8,15,M,,M,,*56
06/11/2014	12:07:12.341	$GPGGA,120712,2538.5562,N,08007.8990,W,1,8,1.8,15,M,,M,,*5D
06/11/2014	12:07:13.379	$GPGGA,120713,2538.5543,N,08007.8974,W,1,8,1.8,15,M,,M,,*55
06/11/2014	12:07:14.387	$GPGGA,120714,2538.5524,N,08007.8958,W,1,8,1.8,15,M,,M,,*5D
06/11/2014	12:07:15.403	$GPGGA,120715,2538.5506,N,08007.8940,W,1,8,1.8,15,M,,M,,*55
06/11/2014	12:07:16.451	$GPGGA,120716,2538.5488,N,08007.8924,W,1,8,1.8,15,M,,M,,*53
06/11/2014	12:07:17.468	$GPGGA,120717,2538.5470,N,08007.8907,W,1,9,1.8,15,M,,M,,*55
06/11/2014	12:07:18.486	$GPGGA,120718,2538.5450,N,08007.8891,W,1,9,1.8,15,M,,M,,*56
06/11/2014	12:07:19.554	$GPGGA,120719,2538.5432,N,08007.8873,W,1,8,1.8,15,M,,M,,*5E
06/11/2014	12:07:20.551	$GPGGA,120720,2538.5414,N,08007.8857,W,1,8,1.8,15,M,,M,,*56
06/11/2014	12:07:21.577	$GPGGA,120721,2538.5396,N,08007.8841,W,1,8,1.8,15,M,,M,,*5D
06/11/2014	12:07:22.584	$GPGGA,120722,2538.5378,N,08007.8827,W,1,8,1.8,15,M,,M,,*5E
06/11/2014	12:07:23.602	$GPGGA,120723,2538.5360,N,08007.8811,W,1,9,1.8,14,M,,M,,*53
06/11/2014	12:07:24.639	$GPGGA,120724,2538.5342,N,08007.8795,W,1,9,1.8,14,M,,M,,*57
06/11/2014	12:07:25.687	$GPGGA,120725,2538.5324,N,08007.8778,W,1,9,1.8,14,M,,M,,*55
06/11/2014	12:07:26.673	$GPGGA,120726,2538.5307,N,08007.8762,W,1,9,1.8,14,M,,M,,*5C
06/11/2014	12:07:27.722	$GPGGA,120727,2538.5289,N,08007.8745,W,1,9,1.8,14,M,,M,,*5F
06/11/2014	12:07:28.749	$GPGGA,120728,2538.5271,N,08007.8728,W,1,9,1.8,14,M,,M,,*5C
06/11/2014	12:07:29.777	$GPGGA,120729,2538.5253,N,08007.8712,W,1,9,1.8,14,M,,M,,*54
06/11/2014	12:07:30.785	$GPGGA,120730,2538.5235,N,08007.8695,W,1,9,1.8,14,M,,M,,*52
06/11/2014	12:07:31.811	$GPGGA,120731,2538.5218,N,08007.8677,W,1,8,1.8,14,M,,M,,*51
06/11/2014	12:07:32.849	$GPGGA,120732,2538.5201,N,08007.8661,W,1,8,1.8,14,M,,M,,*5D
06/11/2014	12:07:33.877	$GPGGA,120733,2538.5183,N,08007.8645,W,1,9,1.8,14,M,,M,,*52
06/11/2014	12:07:34.889	$GPGGA,120734,2538.5165,N,08007.8629,W,1,9,1.8,14,M,,M,,*57
06/11/2014	12:07:35.911	$GPGGA,120735,2538.5148,N,08007.8611,W,1,9,1.8,14,M,,M,,*52
06/11/2014	12:07:36.959	$GPGGA,120736,2538.5131,N,08007.8595,W,1,9,1.8,14,M,,M,,*50
06/11/2014	12:07:37.970	$GPGGA,120737,2538.5113,N,08007.8578,W,1,9,1.8,14,M,,M,,*52
06/11/2014	12:07:38.983	$GPGGA,120738,2538.5095,N,08007.8562,W,1,9,1.8,14,M,,M,,*59
06/11/2014	12:07:40.046	$GPGGA,120739,2538.5078,N,08007.8544,W,1,9,1.8,14,M,,M,,*5F
06/11/2014	12:07:41.039	$GPGGA,120740,2538.5060,N,08007.8527,W,1,9,1.8,14,M,,M,,*5D
06/11/2014	12:07:42.108	$GPGGA,120741,2538.5043,N,08007.8510,W,1,9,1.8,14,M,,M,,*59
06/11/2014	12:07:43.082	$GPGGA,120742,2538.5025,N,08007.8493,W,1,9,1.8,14,M,,M,,*50
06/11/2014	12:07:44.131	$GPGGA,120743,2538.5007,N,08007.8476,W,1,9,1.8,14,M,,M,,*5A
06/11/2014	12:07:45.159	$GPGGA,120744,2538.4989,N,08007.8458,W,1,9,1.8,13,M,,M,,*58
06/11/2014	12:07:44.517	$GPGGA,120745,2538.4972,N,08007.8440,W,1,8,1.8,13,M,,M,,*55
06/11/2014	12:07:45.534	$GPGGA,120746,2538.4953,N,08007.8423,W,1,8,1.8,13,M,,M,,*50
06/11/2014	12:07:46.572	$GPGGA,120747,2538.4935,N,08007.8406,W,1,8,1.8,13,M,,M,,*56
06/11/2014	12:07:47.743	$GPGGA,120748,2538.4917,N,08007.8388,W,1,8,1.8,13,M,,M,,*58
06/11/2014	12:07:48.660	$GPGGA,120749,2538.4899,N,08007.8371,W,1,8,1.8,13,M,,M,,*58
06/11/2014	12:07:49.644	$GPGGA,120750,2538.4881,N,08007.8355,W,1,8,1.8,13,M,,M,,*5F
06/11/2014	12:07:50.866	$GPGGA,120751,2538.4863,N,08007.8338,W,1,8,1.8,13,M,,M,,*59
06/11/2014	12:07:51.719	$GPGGA,120752,2538.4845,N,08007.8322,W,1,8,1.8,13,M,,M,,*55
06/11/2014	12:07:52.726	$GPGGA,120753,2538.4827,N,08007.8306,W,1,8,1.8,13,M,,M,,*56
06/11/2014	12:07:53.836	$GPGGA,120754,2538.4809,N,08007.8289,W,1,8,1.8,13,M,,M,,*5B
06/11/2014	12:07:54.863	$GPGGA,120755,2538.4790,N,08007.8273,W,1,8,1.8,13,M,,M,,*50
06/11/2014	12:07:55.952	$GPGGA,120756,2538.4771,N,08007.8257,W,1,8,1.8,13,M,,M,,*5A
06/11/2014	12:07:56.825	$GPGGA,120757,2538.4753,N,08007.8240,W,1,7,1.8,13,M,,M,,*52
06/11/2014	12:07:57.842	$GPGGA,120758,2538.4735,N,08007.8224,W,1,7,1.8,13,M,,M,,*5F
06/11/2014	12:07:59.075	$GPGGA,120759,2538.4716,N,08007.8208,W,1,8,1.8,13,M,,M,,*5E
06/11/2014	12:07:59.928	$GPGGA,120800,2538.4698,N,08007.8192,W,1,8,1.8,13,M,,M,,*5A
06/11/2014	12:08:01.112	$GPGGA,120801,2538.4678,N,08007.8176,W,1,8,1.8,13,M,,M,,*5F
06/11/2014	12:08:02.077	$GPGGA,120802,2538.4660,N,08007.8160,W,1,8,1.8,13,M,,M,,*52
06/11/2014	12:08:03.175	$GPGGA,120803,2538.4640,N,08007.8148,W,1,8,1.8,13,M,,M,,*5B
06/11/2014	12:08:04.141	$GPGGA,120804,2538.4621,N,08007.8132,W,1,8,1.8,13,M,,M,,*56
06/11/2014	12:08:05.220	$GPGGA,120805,2538.4603,N,08007.8116,W,1,9,1.8,13,M,,M,,*50
06/11/2014	12:08:06.208	$GPGGA,120806,2538.4583,N,08007.8100,W,1,9,1.8,13,M,,M,,*5F
06/11/2014	12:08:07.275	$GPGGA,120807,2538.4564,N,08007.8086,W,1,8,1.8,13,M,,M,,*59
06/11/2014	12:08:08.261	$GPGGA,120808,2538.4546,N,08007.8069,W,1,8,1.8,13,M,,M,,*57
06/11/2014	12:08:09.330	$GPGGA,120809,2538.4527,N,08007.8053,W,1,8,1.8,13,M,,M,,*58
06/11/2014	12:08:10.244	$GPGGA,120810,2538.4507,N,08007.8040,W,1,8,1.8,13,M,,M,,*50
06/11/2014	12:08:11.385	$GPGGA,120811,2538.4489,N,08007.8024,W,1,9,1.8,13,M,,M,,*55
06/11/2014	12:08:12.350	$GPGGA,120812,2538.4470,N,08007.8008,W,1,9,1.8,13,M,,M,,*5E
06/11/2014	12:08:13.439	$GPGGA,120813,2538.4452,N,08007.7992,W,1,8,1.8,13,M,,M,,*5B
06/11/2014	12:08:14.384	$GPGGA,120814,2538.4433,N,08007.7976,W,1,8,1.8,13,M,,M,,*51
06/11/2014	12:08:15.463	$GPGGA,120815,2538.4415,N,08007.7961,W,1,8,1.8,13,M,,M,,*52
06/11/2014	12:08:16.439	$GPGGA,120816,2538.4397,N,08007.7945,W,1,8,1.8,13,M,,M,,*5A
06/11/2014	12:08:17.507	$GPGGA,120817,2538.4379,N,08007.7930,W,1,8,1.8,13,M,,M,,*59
06/11/2014	12:08:18.484	$GPGGA,120818,2538.4359,N,08007.7915,W,1,8,1.8,13,M,,M,,*53
06/11/2014	12:08:19.593	$GPGGA,120819,2538.4341,N,08007.7899,W,1,8,1.8,13,M,,M,,*5E
06/11/2014	12:08:20.559	$GPGGA,120820,2538.4323,N,08007.7884,W,1,8,1.8,13,M,,M,,*5C
06/11/2014	12:08:21.642	$GPGGA,120821,2538.4304,N,08007.7869,W,1,8,1.8,13,M,,M,,*5B
06/11/2014	12:08:22.583	$GPGGA,120822,2538.4286,N,08007.7853,W,1,8,1.8,13,M,,M,,*5A
06/11/2014	12:08:23.642	$GPGGA,120823,2538.4268,N,08007.7837,W,1,8,1.8,13,M,,M,,*59
06/11/2014	12:08:24.659	$GPGGA,120824,2538.4250,N,08007.7822,W,1,8,1.8,13,M,,M,,*51
06/11/2014	12:08:25.748	$GPGGA,120825,2538.4231,N,08007.7805,W,1,8,1.8,13,M,,M,,*52
06/11/2014	12:08:26.652	$GPGGA,120826,2538.4213,N,08007.7790,W,1,8,1.8,13,M,,M,,*52
06/11/2014	12:08:27.794	$GPGGA,120827,2538.4194,N,08007.7774,W,1,8,1.8,13,M,,M,,*55
06/11/2014	12:08:28.738	$GPGGA,120828,2538.4176,N,08007.7758,W,1,8,1.8,13,M,,M,,*58
06/11/2014	12:08:29.858	$GPGGA,120829,2538.4158,N,08007.7742,W,1,8,1.8,13,M,,M,,*5E
06/11/2014	12:08:30.752	$GPGGA,120830,2538.4140,N,08007.7725,W,1,8,1.8,13,M,,M,,*5E
06/11/2014	12:08:31.892	$GPGGA,120831,2538.4122,N,08007.7712,W,1,8,1.8,13,M,,M,,*5F
06/11/2014	12:08:32.868	$GPGGA,120832,2538.4104,N,08007.7696,W,1,8,1.8,13,M,,M,,*55
06/11/2014	12:08:33.916	$GPGGA,120833,2538.4086,N,08007.7680,W,1,9,1.8,13,M,,M,,*59
06/11/2014	12:08:36.330	$GPGGA,120834,2538.4068,N,08007.7664,W,1,9,1.8,13,M,,M,,*54
06/11/2014	12:08:36.351	$GPGGA,120835,2538.4050,N,08007.7646,W,1,9,1.8,12,M,,M,,*5F
06/11/2014	12:08:37.042	$GPGGA,120836,2538.4033,N,08007.7631,W,1,9,1.8,12,M,,M,,*59
06/11/2014	12:08:38.016	$GPGGA,120837,2538.4015,N,08007.7614,W,1,9,1.8,12,M,,M,,*5B
06/11/2014	12:08:38.996	$GPGGA,120838,2538.3998,N,08007.7597,W,1,9,1.8,12,M,,M,,*57
06/11/2014	12:08:40.070	$GPGGA,120839,2538.3980,N,08007.7580,W,1,9,1.8,12,M,,M,,*59
06/11/2014	12:08:41.129	$GPGGA,120840,2538.3963,N,08007.7564,W,1,9,1.8,12,M,,M,,*50
06/11/2014	12:08:42.114	$GPGGA,120841,2538.3946,N,08007.7547,W,1,9,1.8,12,M,,M,,*57
06/11/2014	12:08:43.163	$GPGGA,120842,2538.3928,N,08007.7529,W,1,9,1.8,12,M,,M,,*54
06/11/2014	12:08:44.170	$GPGGA,120843,2538.3911,N,08007.7513,W,1,9,1.8,12,M,,M,,*56
06/11/2014	12:08:45.218	$GPGGA,120844,2538.3893,N,08007.7497,W,1,9,1.8,12,M,,M,,*57
06/11/2014	12:08:44.627	$GPGGA,120845,2538.3876,N,08007.7480,W,1,9,1.8,12,M,,M,,*5B
06/11/2014	12:08:45.614	$GPGGA,120846,2538.3858,N,08007.7463,W,1,9,1.8,12,M,,M,,*59
06/11/2014	12:08:46.641	$GPGGA,120847,2538.3840,N,08007.7446,W,1,9,1.8,12,M,,M,,*56
06/11/2014	12:08:47.679	$GPGGA,120848,2538.3822,N,08007.7428,W,1,9,1.8,12,M,,M,,*55
06/11/2014	12:08:48.706	$GPGGA,120849,2538.3805,N,08007.7409,W,1,8,1.8,12,M,,M,,*53
06/11/2014	12:08:49.713	$GPGGA,120850,2538.3787,N,08007.7393,W,1,8,1.8,12,M,,M,,*5A
06/11/2014	12:08:50.781	$GPGGA,120851,2538.3769,N,08007.7375,W,1,8,1.9,12,M,,M,,*52
06/11/2014	12:08:51.778	$GPGGA,120852,2538.3751,N,08007.7358,W,1,8,1.8,12,M,,M,,*54
06/11/2014	12:08:52.836	$GPGGA,120853,2538.3734,N,08007.7340,W,1,8,1.8,12,M,,M,,*5F
06/11/2014	12:08:53.812	$GPGGA,120854,2538.3716,N,08007.7323,W,1,8,1.8,12,M,,M,,*5D
06/11/2014	12:08:54.850	$GPGGA,120855,2538.3698,N,08007.7305,W,1,8,1.8,12,M,,M,,*5F
06/11/2014	12:08:55.888	$GPGGA,120856,2538.3681,N,08007.7289,W,1,8,1.8,12,M,,M,,*51
06/11/2014	12:08:56.926	$GPGGA,120857,2538.3663,N,08007.7272,W,1,8,1.8,12,M,,M,,*58
06/11/2014	12:08:57.912	$GPGGA,120858,2538.3645,N,08007.7254,W,1,8,1.8,12,M,,M,,*57
06/11/2014	12:08:58.991	$GPGGA,120859,2538.3627,N,08007.7237,W,1,8,1.8,12,M,,M,,*57
06/11/2014	12:08:59.998	$GPGGA,120900,2538.3609,N,08007.7221,W,1,8,1.8,12,M,,M,,*51
06/11/2014	12:09:01.046	$GPGGA,120901,2538.3591,N,08007.7203,W,1,8,1.8,12,M,,M,,*52
06/11/2014	12:09:02.022	$GPGGA,120902,2538.3573,N,08007.7187,W,1,8,1.8,12,M,,M,,*52
06/11/2014	12:09:03.134	$GPGGA,120903,2538.3555,N,08007.7170,W,1,8,1.8,12,M,,M,,*5F
06/11/2014	12:09:04.085	$GPGGA,120904,2538.3537,N,08007.7153,W,1,8,1.8,12,M,,M,,*5D
06/11/2014	12:09:05.125	$GPGGA,120905,2538.3519,N,08007.7137,W,1,8,1.8,12,M,,M,,*52
06/11/2014	12:09:06.126	$GPGGA,120906,2538.3501,N,08007.7121,W,1,8,1.8,12,M,,M,,*5F
06/11/2014	12:09:07.190	$GPGGA,120907,2538.3483,N,08007.7104,W,1,8,1.8,12,M,,M,,*52
06/11/2014	12:09:08.196	$GPGGA,120908,2538.3465,N,08007.7088,W,1,8,1.8,12,M,,M,,*50
06/11/2014	12:09:09.224	$GPGGA,120909,2538.3465,N,08007.7088,W,1,8,1.8,12,M,,M,,*51
06/11/2014	12:09:10.231	$GPGGA,120910,2538.3427,N,08007.7056,W,1,8,1.8,12,M,,M,,*5C
06/11/2014	12:09:11.310	$GPGGA,120911,2538.3408,N,08007.7040,W,1,8,1.8,12,M,,M,,*57
06/11/2014	12:09:12.286	$GPGGA,120912,2538.3390,N,08007.7025,W,1,8,1.8,12,M,,M,,*51
06/11/2014	12:09:13.354	$GPGGA,120913,2538.3371,N,08007.7009,W,1,9,1.8,12,M,,M,,*50
06/11/2014	12:09:14.349	$GPGGA,120914,2538.3353,N,08007.6994,W,1,9,1.8,12,M,,M,,*5B
06/11/2014	12:09:15.409	$GPGGA,120915,2538.3333,N,08007.6980,W,1,8,1.8,12,M,,M,,*58
06/11/2014	12:09:16.399	$GPGGA,120916,2538.3315,N,08007.6964,W,1,8,1.8,12,M,,M,,*55
06/11/2014	12:09:17.464	$GPGGA,120917,2538.3296,N,08007.6950,W,1,8,1.8,12,M,,M,,*59
06/11/2014	12:09:18.430	$GPGGA,120918,2538.3277,N,08007.6936,W,1,8,1.8,12,M,,M,,*59
06/11/2014	12:09:19.577	$GPGGA,120919,2538.3259,N,08007.6922,W,1,9,1.8,12,M,,M,,*50
06/11/2014	12:09:20.475	$GPGGA,120920,2538.3239,N,08007.6907,W,1,9,1.8,12,M,,M,,*5B
06/11/2014	12:09:21.667	$GPGGA,120921,2538.3239,N,08007.6907,W,1,9,1.8,12,M,,M,,*5A
06/11/2014	12:09:22.541	$GPGGA,120922,2538.3201,N,08007.6879,W,1,9,1.8,12,M,,M,,*5A
06/11/2014	12:09:23.682	$GPGGA,120923,2538.3201,N,08007.6879,W,1,9,1.8,12,M,,M,,*5B
06/11/2014	12:09:24.604	$GPGGA,120924,2538.3163,N,08007.6850,W,1,9,1.8,12,M,,M,,*50
06/11/2014	12:09:25.611	$GPGGA,120925,2538.3163,N,08007.6850,W,1,9,1.8,12,M,,M,,*51
06/11/2014	12:09:26.721	$GPGGA,120926,2538.3125,N,08007.6820,W,1,9,1.8,12,M,,M,,*57
06/11/2014	12:09:27.656	$GPGGA,120927,2538.3125,N,08007.6820,W,1,9,1.8,12,M,,M,,*56
06/11/2014	12:09:28.694	$GPGGA,120928,2538.3089,N,08007.6788,W,1,9,1.8,12,M,,M,,*53
06/11/2014	12:09:29.793	$GPGGA,120929,2538.3069,N,08007.6774,W,1,8,1.8,12,M,,M,,*5E
06/11/2014	12:09:30.718	$GPGGA,120930,2538.3051,N,08007.6758,W,1,8,1.8,12,M,,M,,*53
06/11/2014	12:09:31.766	$GPGGA,120931,2538.3051,N,08007.6758,W,1,9,1.8,12,M,,M,,*53
06/11/2014	12:09:32.896	$GPGGA,120932,2538.3014,N,08007.6729,W,1,9,1.8,12,M,,M,,*57
06/11/2014	12:09:33.924	$GPGGA,120933,2538.2995,N,08007.6714,W,1,9,1.8,12,M,,M,,*59
06/11/2014	12:09:34.828	$GPGGA,120934,2538.2977,N,08007.6697,W,1,9,1.8,12,M,,M,,*58
06/11/2014	12:09:35.958	$GPGGA,120935,2538.2959,N,08007.6681,W,1,8,1.8,12,M,,M,,*53
06/11/2014	12:09:36.996	$GPGGA,120936,2538.2941,N,08007.6666,W,1,8,1.8,12,M,,M,,*50
06/11/2014	12:09:38.035	$GPGGA,120937,2538.2923,N,08007.6649,W,1,9,1.8,12,M,,M,,*59
06/11/2014	12:09:39.031	$GPGGA,120938,2538.2905,N,08007.6632,W,1,9,1.8,12,M,,M,,*5E
06/11/2014	12:09:40.054	$GPGGA,120939,2538.2887,N,08007.6616,W,1,8,1.8,12,M,,M,,*53
06/11/2014	12:09:41.096	$GPGGA,120940,2538.2867,N,08007.6600,W,1,8,1.8,12,M,,M,,*54
06/11/2014	12:09:42.105	$GPGGA,120941,2538.2849,N,08007.6584,W,1,9,1.8,12,M,,M,,*57
06/11/2014	12:09:43.131	$GPGGA,120942,2538.2831,N,08007.6567,W,1,9,1.8,12,M,,M,,*56
06/11/2014	12:09:44.177	$GPGGA,120943,2538.2813,N,08007.6550,W,1,8,1.8,12,M,,M,,*52
06/11/2014	12:09:45.196	$GPGGA,120944,2538.2795,N,08007.6533,W,1,8,1.8,12,M,,M,,*51
06/11/2014	12:09:44.553	$GPGGA,120945,2538.2777,N,08007.6516,W,1,8,1.8,12,M,,M,,*5B
06/11/2014	12:09:45.591	$GPGGA,120946,2538.2760,N,08007.6499,W,1,8,1.8,12,M,,M,,*58
06/11/2014	12:09:46.629	$GPGGA,120947,2538.2742,N,08007.6483,W,1,8,1.8,12,M,,M,,*52
06/11/2014	12:09:47.646	$GPGGA,120948,2538.2724,N,08007.6466,W,1,8,1.8,12,M,,M,,*56
06/11/2014	12:09:48.705	$GPGGA,120949,2538.2706,N,08007.6449,W,1,8,1.8,12,M,,M,,*5A
06/11/2014	12:09:49.681	$GPGGA,120950,2538.2688,N,08007.6432,W,1,8,1.8,12,M,,M,,*59
06/11/2014	12:09:50.760	$GPGGA,120951,2538.2670,N,08007.6415,W,1,8,1.8,12,M,,M,,*5A
06/11/2014	12:09:51.746	$GPGGA,120952,2538.2653,N,08007.6399,W,1,8,1.8,12,M,,M,,*5B
06/11/2014	12:09:52.794	$GPGGA,120953,2538.2635,N,08007.6383,W,1,9,1.8,12,M,,M,,*50
06/11/2014	12:09:53.791	$GPGGA,120954,2538.2617,N,08007.6364,W,1,9,1.8,12,M,,M,,*5E
06/11/2014	12:09:54.810	$GPGGA,120955,2538.2599,N,08007.6348,W,1,9,1.8,12,M,,M,,*54
06/11/2014	12:09:55.856	$GPGGA,120956,2538.2581,N,08007.6331,W,1,9,1.8,12,M,,M,,*50
06/11/2014	12:09:56.839	$GPGGA,120957,2538.2563,N,08007.6312,W,1,7,1.8,12,M,,M,,*52
06/11/2014	12:09:57.870	$GPGGA,120958,2538.2547,N,08007.6295,W,1,7,1.8,12,M,,M,,*55
06/11/2014	12:09:58.862	$GPGGA,120959,2538.2529,N,08007.6278,W,1,7,1.8,12,M,,M,,*5F
06/11/2014	12:09:59.903	$GPGGA,121000,2538.2511,N,08007.6263,W,1,7,1.8,12,M,,M,,*5A
06/11/2014	12:10:00.924	$GPGGA,121001,2538.2494,N,08007.6245,W,1,8,1.8,12,M,,M,,*5C
06/11/2014	12:10:01.906	$GPGGA,121002,2538.2476,N,08007.6228,W,1,8,1.8,12,M,,M,,*58
06/11/2014	12:10:02.907	$GPGGA,121003,2538.2459,N,08007.6211,W,1,8,1.8,12,M,,M,,*5E
06/11/2014	12:10:03.932	$GPGGA,121004,2538.2441,N,08007.6193,W,1,8,1.8,12,M,,M,,*59
06/11/2014	12:10:05.084	$GPGGA,121005,2538.2424,N,08007.6176,W,1,8,1.8,12,M,,M,,*50
06/11/2014	12:10:05.931	$GPGGA,121006,2538.2406,N,08007.6158,W,1,8,1.8,12,M,,M,,*5F
06/11/2014	12:10:06.966	$GPGGA,121007,2538.2388,N,08007.6141,W,1,8,1.8,12,M,,M,,*57
06/11/2014	12:10:07.975	$GPGGA,121008,2538.2370,N,08007.6124,W,1,8,1.8,12,M,,M,,*5C
06/11/2014	12:10:09.094	$GPGGA,121009,2538.2352,N,08007.6107,W,1,8,1.8,12,M,,M,,*5C
06/11/2014	12:10:09.988	$GPGGA,121010,2538.2334,N,08007.6090,W,1,8,1.8,12,M,,M,,*5B
06/11/2014	12:10:10.999	$GPGGA,121011,2538.2316,N,08007.6073,W,1,8,1.8,12,M,,M,,*57
06/11/2014	12:10:12.002	$GPGGA,121012,2538.2299,N,08007.6056,W,1,8,1.8,12,M,,M,,*55
06/11/2014	12:10:13.025	$GPGGA,121013,2538.2281,N,08007.6039,W,1,8,1.8,12,M,,M,,*54
06/11/2014	12:10:14.024	$GPGGA,121014,2538.2263,N,08007.6022,W,1,8,1.8,12,M,,M,,*55
06/11/2014	12:10:15.045	$GPGGA,121015,2538.2245,N,08007.6006,W,1,8,1.8,12,M,,M,,*56
06/11/2014	12:10:16.136	$GPGGA,121016,2538.2227,N,08007.5989,W,1,8,1.8,12,M,,M,,*5C
06/11/2014	12:10:17.168	$GPGGA,121017,2538.2208,N,08007.5972,W,1,8,1.8,12,M,,M,,*54
06/11/2014	12:10:18.139	$GPGGA,121018,2538.2190,N,08007.5956,W,1,8,1.8,12,M,,M,,*5F
06/11/2014	12:10:19.151	$GPGGA,121019,2538.2173,N,08007.5939,W,1,8,1.8,12,M,,M,,*5A
06/11/2014	12:10:20.183	$GPGGA,121020,2538.2154,N,08007.5924,W,1,8,1.8,12,M,,M,,*59
06/11/2014	12:10:21.194	$GPGGA,121021,2538.2136,N,08007.5909,W,1,8,1.8,12,M,,M,,*53
06/11/2014	12:10:22.185	$GPGGA,121022,2538.2118,N,08007.5892,W,1,8,1.8,12,M,,M,,*5F
06/11/2014	12:10:23.197	$GPGGA,121023,2538.2099,N,08007.5878,W,1,8,1.8,12,M,,M,,*52
06/11/2014	12:10:24.218	$GPGGA,121024,2538.2081,N,08007.5863,W,1,8,1.8,12,M,,M,,*56
06/11/2014	12:10:25.230	$GPGGA,121025,2538.2063,N,08007.5847,W,1,9,1.8,12,M,,M,,*5C
06/11/2014	12:10:26.221	$GPGGA,121026,2538.2045,N,08007.5831,W,1,9,1.8,12,M,,M,,*5A
06/11/2014	12:10:27.243	$GPGGA,121027,2538.2027,N,08007.5817,W,1,8,1.8,12,M,,M,,*5A
06/11/2014	12:10:28.254	$GPGGA,121028,2538.2009,N,08007.5801,W,1,8,1.8,12,M,,M,,*5E
06/11/2014	12:10:29.266	$GPGGA,121029,2538.1991,N,08007.5786,W,1,9,1.8,12,M,,M,,*55
06/11/2014	12:10:30.257	$GPGGA,121030,2538.1971,N,08007.5772,W,1,9,1.8,12,M,,M,,*58
06/11/2014	12:10:31.289	$GPGGA,121031,2538.1953,N,08007.5755,W,1,9,1.8,12,M,,M,,*5C
06/11/2014	12:10:32.290	$GPGGA,121032,2538.1935,N,08007.5740,W,1,9,1.8,12,M,,M,,*5B
06/11/2014	12:10:33.311	$GPGGA,121033,2538.1916,N,08007.5725,W,1,9,1.8,12,M,,M,,*58
06/11/2014	12:10:34.302	$GPGGA,121034,2538.1898,N,08007.5709,W,1,9,1.8,13,M,,M,,*57
06/11/2014	12:10:35.303	$GPGGA,121035,2538.1880,N,08007.5692,W,1,9,1.8,13,M,,M,,*5C
06/11/2014	12:10:36.325	$GPGGA,121036,2538.1861,N,08007.5677,W,1,9,1.8,13,M,,M,,*5B
06/11/2014	12:10:37.387	$GPGGA,121037,2538.1843,N,08007.5661,W,1,9,1.8,13,M,,M,,*5D
06/11/2014	12:10:38.318	$GPGGA,121038,2538.1824,N,08007.5645,W,1,9,1.8,13,M,,M,,*55
06/11/2014	12:10:39.330	$GPGGA,121039,2538.1806,N,08007.5630,W,1,9,1.8,13,M,,M,,*56
06/11/2014	12:10:40.361	$GPGGA,121040,2538.1787,N,08007.5615,W,1,9,1.8,13,M,,M,,*59
06/11/2014	12:10:41.382	$GPGGA,121041,2538.1768,N,08007.5599,W,1,9,1.8,13,M,,M,,*5E
06/11/2014	12:10:42.364	$GPGGA,121042,2538.1749,N,08007.5584,W,1,9,1.8,13,M,,M,,*52
06/11/2014	12:10:43.405	$GPGGA,121043,2538.1731,N,08007.5569,W,1,9,1.8,13,M,,M,,*5F
06/11/2014	12:10:44.407	$GPGGA,121044,2538.1713,N,08007.5553,W,1,9,1.8,13,M,,M,,*51
06/11/2014	12:10:44.555	$GPGGA,121045,2538.1694,N,08007.5538,W,1,9,1.8,13,M,,M,,*53
06/11/2014	12:10:45.543	$GPGGA,121046,2538.1675,N,08007.5523,W,1,9,1.8,13,M,,M,,*55
06/11/2014	12:10:46.578	$GPGGA,121047,2538.1657,N,08007.5507,W,1,9,1.8,13,M,,M,,*52
06/11/2014	12:10:47.558	$GPGGA,121048,2538.1638,N,08007.5492,W,1,9,1.8,13,M,,M,,*59
06/11/2014	12:10:48.561	$GPGGA,121049,2538.1619,N,08007.5477,W,1,9,1.8,13,M,,M,,*50
06/11/2014	12:10:49.562	$GPGGA,121050,2538.1601,N,08007.5460,W,1,9,1.8,13,M,,M,,*57
06/11/2014	12:10:50.609	$GPGGA,121051,2538.1582,N,08007.5446,W,1,8,1.8,13,M,,M,,*5B
06/11/2014	12:10:51.726	$GPGGA,121052,2538.1563,N,08007.5432,W,1,8,1.8,13,M,,M,,*54
06/11/2014	12:10:52.595	$GPGGA,121053,2538.1545,N,08007.5415,W,1,9,1.8,13,M,,M,,*55
06/11/2014	12:10:53.718	$GPGGA,121054,2538.1527,N,08007.5398,W,1,9,1.8,13,M,,M,,*54
06/11/2014	12:10:54.720	$GPGGA,121055,2538.1510,N,08007.5382,W,1,8,1.8,13,M,,M,,*5B
06/11/2014	12:10:55.731	$GPGGA,121056,2538.1492,N,08007.5364,W,1,8,1.8,13,M,,M,,*5B
06/11/2014	12:10:56.641	$GPGGA,121057,2538.1474,N,08007.5347,W,1,8,1.8,13,M,,M,,*53
06/11/2014	12:10:57.633	$GPGGA,121058,2538.1456,N,08007.5332,W,1,8,1.8,13,M,,M,,*5E
06/11/2014	12:10:58.675	$GPGGA,121059,2538.1438,N,08007.5314,W,1,9,1.8,13,M,,M,,*52
06/11/2014	12:10:59.800	$GPGGA,121100,2538.1420,N,08007.5298,W,1,9,1.8,13,M,,M,,*53
06/11/2014	12:11:00.789	$GPGGA,121101,2538.1402,N,08007.5281,W,1,9,1.8,13,M,,M,,*5A
06/11/2014	12:11:01.699	$GPGGA,121102,2538.1384,N,08007.5264,W,1,9,1.8,13,M,,M,,*5B
06/11/2014	12:11:02.801	$GPGGA,121103,2538.1366,N,08007.5247,W,1,8,1.8,13,M,,M,,*56
06/11/2014	12:11:03.712	$GPGGA,121104,2538.1348,N,08007.5231,W,1,8,1.8,13,M,,M,,*5C
06/11/2014	12:11:04.846	$GPGGA,121105,2538.1331,N,08007.5213,W,1,8,1.8,13,M,,M,,*53
06/11/2014	12:11:05.725	$GPGGA,121106,2538.1313,N,08007.5196,W,1,8,1.8,13,M,,M,,*5E
06/11/2014	12:11:06.737	$GPGGA,121107,2538.1295,N,08007.5179,W,1,8,1.8,13,M,,M,,*51
06/11/2014	12:11:07.868	$GPGGA,121108,2538.1277,N,08007.5160,W,1,8,1.8,13,M,,M,,*5A
06/11/2014	12:11:08.859	$GPGGA,121109,2538.1259,N,08007.5142,W,1,8,1.8,13,M,,M,,*57
06/11/2014	12:11:09.851	$GPGGA,121110,2538.1241,N,08007.5124,W,1,8,1.8,13,M,,M,,*56
06/11/2014	12:11:10.892	$GPGGA,121111,2538.1223,N,08007.5106,W,1,8,1.8,13,M,,M,,*53
06/11/2014	12:11:11.894	$GPGGA,121112,2538.1205,N,08007.5088,W,1,8,1.8,13,M,,M,,*53
06/11/2014	12:11:12.875	$GPGGA,121113,2538.1189,N,08007.5070,W,1,8,1.8,13,M,,M,,*52
06/11/2014	12:11:13.897	$GPGGA,121114,2538.1171,N,08007.5053,W,1,8,1.8,13,M,,M,,*53
06/11/2014	12:11:14.918	$GPGGA,121115,2538.1152,N,08007.5038,W,1,8,1.8,13,M,,M,,*5E
06/11/2014	12:11:15.930	$GPGGA,121116,2538.1134,N,08007.5020,W,1,8,1.8,13,M,,M,,*54
06/11/2014	12:11:16.941	$GPGGA,121117,2538.1117,N,08007.5003,W,1,8,1.8,13,M,,M,,*55
06/11/2014	12:11:17.922	$GPGGA,121118,2538.1099,N,08007.4985,W,1,8,1.8,13,M,,M,,*5B
06/11/2014	12:11:18.954	$GPGGA,121119,2538.1081,N,08007.4967,W,1,8,1.8,13,M,,M,,*5F
06/11/2014	12:11:19.956	$GPGGA,121120,2538.1063,N,08007.4949,W,1,8,1.8,13,M,,M,,*55
06/11/2014	12:11:20.977	$GPGGA,121121,2538.1045,N,08007.4931,W,1,8,1.8,13,M,,M,,*5F
06/11/2014	12:11:21.958	$GPGGA,121122,2538.1027,N,08007.4914,W,1,8,1.8,13,M,,M,,*5F
06/11/2014	12:11:23.000	$GPGGA,121123,2538.1010,N,08007.4896,W,1,8,1.8,13,M,,M,,*51
06/11/2014	12:11:24.002	$GPGGA,121124,2538.0991,N,08007.4879,W,1,8,1.8,13,M,,M,,*56
06/11/2014	12:11:24.983	$GPGGA,121125,2538.0973,N,08007.4861,W,1,8,1.8,13,M,,M,,*52
06/11/2014	12:11:26.003	$GPGGA,121126,2538.0955,N,08007.4844,W,1,8,1.8,13,M,,M,,*52
06/11/2014	12:11:27.035	$GPGGA,121127,2538.0936,N,08007.4832,W,1,8,1.8,13,M,,M,,*57
06/11/2014	12:11:28.040	$GPGGA,121128,2538.0918,N,08007.4817,W,1,8,1.8,13,M,,M,,*53
06/11/2014	12:11:29.061	$GPGGA,121129,2538.0901,N,08007.4799,W,1,9,1.8,13,M,,M,,*52
06/11/2014	12:11:30.046	$GPGGA,121130,2538.0882,N,08007.4782,W,1,9,1.8,13,M,,M,,*5A
06/11/2014	12:11:31.093	$GPGGA,121131,2538.0864,N,08007.4767,W,1,8,1.8,13,M,,M,,*59
06/11/2014	12:11:32.081	$GPGGA,121132,2538.0846,N,08007.4751,W,1,8,1.8,13,M,,M,,*5F
06/11/2014	12:11:33.103	$GPGGA,121133,2538.0828,N,08007.4734,W,1,9,1.8,13,M,,M,,*54
06/11/2014	12:11:34.075	$GPGGA,121134,2538.0809,N,08007.4720,W,1,9,1.8,13,M,,M,,*55
06/11/2014	12:11:35.087	$GPGGA,121135,2538.0791,N,08007.4703,W,1,9,1.8,13,M,,M,,*5B
06/11/2014	12:11:36.221	$GPGGA,121136,2538.0773,N,08007.4686,W,1,9,1.8,13,M,,M,,*58
06/11/2014	12:11:37.137	$GPGGA,121137,2538.0755,N,08007.4671,W,1,8,1.8,13,M,,M,,*54
06/11/2014	12:11:38.121	$GPGGA,121138,2538.0737,N,08007.4655,W,1,8,1.8,13,M,,M,,*59
06/11/2014	12:11:39.123	$GPGGA,121139,2538.0719,N,08007.4639,W,1,9,1.8,13,M,,M,,*5F
06/11/2014	12:11:40.155	$GPGGA,121140,2538.0701,N,08007.4623,W,1,9,1.8,13,M,,M,,*53
06/11/2014	12:11:41.156	$GPGGA,121141,2538.0681,N,08007.4608,W,1,9,1.8,13,M,,M,,*52
06/11/2014	12:11:42.147	$GPGGA,121142,2538.0663,N,08007.4592,W,1,9,1.8,13,M,,M,,*5D
06/11/2014	12:11:43.269	$GPGGA,121143,2538.0645,N,08007.4578,W,1,9,1.8,13,M,,M,,*5C
06/11/2014	12:11:44.303	$GPGGA,121144,2538.0626,N,08007.4563,W,1,9,1.8,13,M,,M,,*54
06/11/2014	12:11:44.512	$GPGGA,121145,2538.0608,N,08007.4547,W,1,9,1.8,13,M,,M,,*5F
06/11/2014	12:11:45.523	$GPGGA,121146,2538.0589,N,08007.4532,W,1,9,1.8,13,M,,M,,*54
06/11/2014	12:11:46.605	$GPGGA,121147,2538.0571,N,08007.4517,W,1,9,1.8,13,M,,M,,*55
06/11/2014	12:11:47.627	$GPGGA,121148,2538.0551,N,08007.4501,W,1,9,1.8,13,M,,M,,*5F
06/11/2014	12:11:48.638	$GPGGA,121149,2538.0533,N,08007.4485,W,1,9,1.8,13,M,,M,,*57
