Software Version Number: 1	Data File Format Number: 1	Build Version Number: 1	Error Count Since VI Started: 0	Manufacturer: Raytheon	 Model Number: RayMarine 120	 S/N: 	 Cal Date: 	 Wind Direction Offset: 0.00	 Slope (M)1: 0.00	 Offset (B)1: 0.00	 Slope (M)2: 0.00	 Offset (B)2: 0.00	 Slope (M)3: 0.00	 Offset (B)3: 0.00	 Slope (M)4: 0.00	 Offset (B)4: 0.00	 Slope (M)5: 0.00	 Offset (B)5: 0.00	 Slope (M)6: 0.00	 Offset (B)6: 0.00
Computer Date	Computer Time	GGA String
05/28/2014	22:00:00.686	$GPGGA,220001,2556.4275,N,08001.8134,W,1,9,1.2,16,M,,M,,*5B
05/28/2014	22:00:01.637	$GPGGA,220002,2556.4282,N,08001.8108,W,1,9,1.2,16,M,,M,,*5F
05/28/2014	22:00:02.692	$GPGGA,220003,2556.4286,N,08001.8083,W,1,10,1.2,16,M,,M,,*60
05/28/2014	22:00:03.692	$GPGGA,220004,2556.4294,N,08001.8056,W,1,10,1.3,16,M,,M,,*6D
05/28/2014	22:00:04.697	$GPGGA,220005,2556.4301,N,08001.8031,W,1,9,1.2,16,M,,M,,*59
05/28/2014	22:00:05.647	$GPGGA,220006,2556.4307,N,08001.8004,W,1,9,1.2,16,M,,M,,*5A
05/28/2014	22:00:06.680	$GPGGA,220007,2556.4314,N,08001.7978,W,1,10,1.2,16,M,,M,,*6C
05/28/2014	22:00:07.662	$GPGGA,220008,2556.4319,N,08001.7952,W,1,10,1.2,16,M,,M,,*66
05/28/2014	22:00:08.713	$GPGGA,220009,2556.4326,N,08001.7925,W,1,10,1.3,16,M,,M,,*6A
05/28/2014	22:00:09.647	$GPGGA,220010,2556.4333,N,08001.7899,W,1,10,1.2,16,M,,M,,*61
05/28/2014	22:00:10.709	$GPGGA,220011,2556.4340,N,08001.7873,W,1,10,1.2,16,M,,M,,*60
05/28/2014	22:00:11.672	$GPGGA,220012,2556.4346,N,08001.7847,W,1,10,1.2,16,M,,M,,*62
05/28/2014	22:00:12.735	$GPGGA,220013,2556.4354,N,08001.7821,W,1,10,1.3,17,M,,M,,*60
05/28/2014	22:00:13.667	$GPGGA,220014,2556.4362,N,08001.7794,W,1,10,1.3,17,M,,M,,*63
05/28/2014	22:00:14.690	$GPGGA,220015,2556.4369,N,08001.7767,W,1,10,1.2,17,M,,M,,*64
05/28/2014	22:00:15.652	$GPGGA,220016,2556.4375,N,08001.7742,W,1,10,1.2,17,M,,M,,*6D
05/28/2014	22:00:16.705	$GPGGA,220017,2556.4383,N,08001.7716,W,1,10,1.2,17,M,,M,,*64
05/28/2014	22:00:17.667	$GPGGA,220018,2556.4390,N,08001.7691,W,1,10,1.2,17,M,,M,,*67
05/28/2014	22:00:18.710	$GPGGA,220019,2556.4395,N,08001.7665,W,1,10,1.2,17,M,,M,,*68
05/28/2014	22:00:19.663	$GPGGA,220020,2556.4402,N,08001.7639,W,1,10,1.2,17,M,,M,,*62
05/28/2014	22:00:20.717	$GPGGA,220021,2556.4409,N,08001.7614,W,1,10,1.2,17,M,,M,,*67
05/28/2014	22:00:21.669	$GPGGA,220022,2556.4409,N,08001.7614,W,1,10,1.2,17,M,,M,,*64
05/28/2014	22:00:22.781	$GPGGA,220023,2556.4424,N,08001.7562,W,1,10,1.2,17,M,,M,,*68
05/28/2014	22:00:23.730	$GPGGA,220024,2556.4431,N,08001.7535,W,1,10,1.2,17,M,,M,,*69
05/28/2014	22:00:24.901	$GPGGA,220025,2556.4438,N,08001.7509,W,1,10,1.2,17,M,,M,,*6E
05/28/2014	22:00:25.858	$GPGGA,220026,2556.4438,N,08001.7509,W,1,10,1.2,17,M,,M,,*6D
05/28/2014	22:00:26.922	$GPGGA,220027,2556.4453,N,08001.7457,W,1,10,1.2,17,M,,M,,*6B
05/28/2014	22:00:28.008	$GPGGA,220028,2556.4460,N,08001.7431,W,1,10,1.2,17,M,,M,,*64
05/28/2014	22:00:29.094	$GPGGA,220029,2556.4460,N,08001.7431,W,1,10,1.2,17,M,,M,,*65
05/28/2014	22:00:30.255	$GPGGA,220030,2556.4474,N,08001.7378,W,1,10,1.2,17,M,,M,,*62
05/28/2014	22:00:31.224	$GPGGA,220031,2556.4474,N,08001.7378,W,1,10,1.2,17,M,,M,,*63
05/28/2014	22:00:32.398	$GPGGA,220032,2556.4489,N,08001.7327,W,1,10,1.2,17,M,,M,,*68
05/28/2014	22:00:33.384	$GPGGA,220033,2556.4489,N,08001.7327,W,1,10,1.2,17,M,,M,,*69
05/28/2014	22:00:34.449	$GPGGA,220034,2556.4503,N,08001.7274,W,1,10,1.2,17,M,,M,,*6A
05/28/2014	22:00:35.611	$GPGGA,220035,2556.4510,N,08001.7248,W,1,10,1.2,17,M,,M,,*66
05/28/2014	22:00:36.696	$GPGGA,220036,2556.4517,N,08001.7222,W,1,10,1.2,17,M,,M,,*6E
05/28/2014	22:00:37.793	$GPGGA,220037,2556.4525,N,08001.7195,W,1,10,1.2,17,M,,M,,*61
05/28/2014	22:00:38.814	$GPGGA,220038,2556.4532,N,08001.7169,W,1,10,1.2,17,M,,M,,*6B
05/28/2014	22:00:39.912	$GPGGA,220039,2556.4539,N,08001.7143,W,1,10,1.2,17,M,,M,,*69
05/28/2014	22:00:39.683	$GPGGA,220040,2556.4546,N,08001.7116,W,1,10,1.2,17,M,,M,,*6F
05/28/2014	22:00:40.769	$GPGGA,220041,2556.4553,N,08001.7090,W,1,10,1.2,17,M,,M,,*65
05/28/2014	22:00:41.822	$GPGGA,220042,2556.4560,N,08001.7064,W,1,10,1.2,17,M,,M,,*6D
05/28/2014	22:00:42.875	$GPGGA,220043,2556.4568,N,08001.7037,W,1,10,1.2,17,M,,M,,*62
05/28/2014	22:00:43.972	$GPGGA,220044,2556.4575,N,08001.7012,W,1,10,1.2,17,M,,M,,*6E
05/28/2014	22:00:45.046	$GPGGA,220045,2556.4582,N,08001.6985,W,1,10,1.2,17,M,,M,,*61
05/28/2014	22:00:46.111	$GPGGA,220046,2556.4589,N,08001.6959,W,1,10,1.2,17,M,,M,,*68
05/28/2014	22:00:47.210	$GPGGA,220047,2556.4597,N,08001.6933,W,1,10,1.2,17,M,,M,,*6A
05/28/2014	22:00:48.272	$GPGGA,220048,2556.4604,N,08001.6907,W,1,10,1.2,17,M,,M,,*6B
05/28/2014	22:00:49.348	$GPGGA,220049,2556.4610,N,08001.6880,W,1,10,1.2,17,M,,M,,*61
05/28/2014	22:00:50.401	$GPGGA,220050,2556.4618,N,08001.6855,W,1,10,1.2,17,M,,M,,*69
05/28/2014	22:00:51.455	$GPGGA,220051,2556.4626,N,08001.6829,W,1,10,1.2,17,M,,M,,*6E
05/28/2014	22:00:52.552	$GPGGA,220052,2556.4633,N,08001.6802,W,1,10,1.2,17,M,,M,,*60
05/28/2014	22:00:53.606	$GPGGA,220053,2556.4640,N,08001.6777,W,1,10,1.2,17,M,,M,,*68
05/28/2014	22:00:54.682	$GPGGA,220054,2556.4647,N,08001.6750,W,1,10,1.2,17,M,,M,,*6D
05/28/2014	22:00:55.778	$GPGGA,220055,2556.4655,N,08001.6725,W,1,10,1.2,17,M,,M,,*6D
05/28/2014	22:00:56.853	$GPGGA,220056,2556.4662,N,08001.6699,W,1,10,1.2,17,M,,M,,*6C
05/28/2014	22:00:57.939	$GPGGA,220057,2556.4669,N,08001.6673,W,1,10,1.2,17,M,,M,,*62
05/28/2014	22:00:58.972	$GPGGA,220058,2556.4677,N,08001.6648,W,1,10,1.2,17,M,,M,,*6A
05/28/2014	22:01:00.101	$GPGGA,220059,2556.4684,N,08001.6622,W,1,10,1.2,17,M,,M,,*6B
05/28/2014	22:01:01.154	$GPGGA,220100,2556.4691,N,08001.6596,W,1,10,1.2,17,M,,M,,*6E
05/28/2014	22:01:02.240	$GPGGA,220101,2556.4698,N,08001.6571,W,1,10,1.2,17,M,,M,,*6F
05/28/2014	22:01:03.261	$GPGGA,220102,2556.4706,N,08001.6544,W,1,10,1.2,17,M,,M,,*6C
05/28/2014	22:01:04.379	$GPGGA,220103,2556.4713,N,08001.6518,W,1,10,1.2,17,M,,M,,*60
05/28/2014	22:01:05.423	$GPGGA,220104,2556.4722,N,08001.6492,W,1,10,1.2,17,M,,M,,*66
05/28/2014	22:01:06.498	$GPGGA,220105,2556.4729,N,08001.6466,W,1,10,1.2,17,M,,M,,*67
05/28/2014	22:01:07.562	$GPGGA,220106,2556.4734,N,08001.6439,W,1,10,1.2,17,M,,M,,*62
05/28/2014	22:01:08.637	$GPGGA,220107,2556.4742,N,08001.6414,W,1,10,1.2,17,M,,M,,*6D
05/28/2014	22:01:09.723	$GPGGA,220108,2556.4751,N,08001.6387,W,1,10,1.2,17,M,,M,,*6D
05/28/2014	22:01:10.799	$GPGGA,220109,2556.4758,N,08001.6361,W,1,9,1.3,17,M,,M,,*54
05/28/2014	22:01:11.971	$GPGGA,220110,2556.4767,N,08001.6336,W,1,9,1.2,17,M,,M,,*53
05/28/2014	22:01:12.939	$GPGGA,220111,2556.4776,N,08001.6309,W,1,10,1.2,17,M,,M,,*66
05/28/2014	22:01:14.132	$GPGGA,220112,2556.4782,N,08001.6283,W,1,10,1.2,17,M,,M,,*6D
05/28/2014	22:01:15.087	$GPGGA,220113,2556.4791,N,08001.6257,W,1,10,1.2,17,M,,M,,*67
05/28/2014	22:01:16.145	$GPGGA,220114,2556.4798,N,08001.6231,W,1,10,1.2,17,M,,M,,*69
05/28/2014	22:01:17.233	$GPGGA,220115,2556.4806,N,08001.6205,W,1,10,1.2,17,M,,M,,*67
05/28/2014	22:01:18.294	$GPGGA,220116,2556.4813,N,08001.6179,W,1,10,1.2,17,M,,M,,*68
05/28/2014	22:01:19.484	$GPGGA,220117,2556.4820,N,08001.6153,W,1,10,1.2,17,M,,M,,*61
05/28/2014	22:01:20.445	$GPGGA,220118,2556.4828,N,08001.6126,W,1,10,1.2,17,M,,M,,*64
05/28/2014	22:01:21.628	$GPGGA,220119,2556.4835,N,08001.6100,W,1,10,1.2,17,M,,M,,*6D
05/28/2014	22:01:22.594	$GPGGA,220120,2556.4842,N,08001.6074,W,1,10,1.2,17,M,,M,,*65
05/28/2014	22:01:23.769	$GPGGA,220121,2556.4847,N,08001.6048,W,1,10,1.2,17,M,,M,,*6E
05/28/2014	22:01:24.738	$GPGGA,220122,2556.4854,N,08001.6022,W,1,10,1.2,17,M,,M,,*63
05/28/2014	22:01:25.949	$GPGGA,220123,2556.4861,N,08001.5996,W,1,10,1.2,17,M,,M,,*61
05/28/2014	22:01:26.927	$GPGGA,220124,2556.4868,N,08001.5970,W,1,10,1.3,17,M,,M,,*66
05/28/2014	22:01:28.056	$GPGGA,220125,2556.4875,N,08001.5944,W,1,10,1.2,17,M,,M,,*6D
05/28/2014	22:01:29.121	$GPGGA,220126,2556.4883,N,08001.5918,W,1,10,1.2,17,M,,M,,*6E
05/28/2014	22:01:30.226	$GPGGA,220127,2556.4890,N,08001.5890,W,1,10,1.2,17,M,,M,,*6C
05/28/2014	22:01:31.302	$GPGGA,220128,2556.4897,N,08001.5865,W,1,10,1.2,17,M,,M,,*6E
05/28/2014	22:01:32.381	$GPGGA,220129,2556.4904,N,08001.5839,W,1,10,1.2,17,M,,M,,*6D
05/28/2014	22:01:33.422	$GPGGA,220130,2556.4910,N,08001.5812,W,1,10,1.2,17,M,,M,,*69
05/28/2014	22:01:34.497	$GPGGA,220131,2556.4917,N,08001.5787,W,1,10,1.2,17,M,,M,,*6C
05/28/2014	22:01:35.584	$GPGGA,220132,2556.4924,N,08001.5760,W,1,10,1.2,17,M,,M,,*66
05/28/2014	22:01:36.660	$GPGGA,220133,2556.4930,N,08001.5733,W,1,10,1.2,17,M,,M,,*64
05/28/2014	22:01:37.703	$GPGGA,220134,2556.4937,N,08001.5707,W,1,10,1.2,17,M,,M,,*63
05/28/2014	22:01:38.799	$GPGGA,220135,2556.4944,N,08001.5680,W,1,10,1.2,17,M,,M,,*68
05/28/2014	22:01:39.874	$GPGGA,220136,2556.4951,N,08001.5655,W,1,10,1.2,17,M,,M,,*67
05/28/2014	22:01:40.948	$GPGGA,220137,2556.4958,N,08001.5628,W,1,10,1.2,17,M,,M,,*65
05/28/2014	22:01:42.002	$GPGGA,220138,2556.4965,N,08001.5602,W,1,10,1.2,17,M,,M,,*6C
05/28/2014	22:01:43.099	$GPGGA,220139,2556.4972,N,08001.5576,W,1,10,1.2,17,M,,M,,*6B
05/28/2014	22:01:39.646	$GPGGA,220140,2556.4977,N,08001.5550,W,1,10,1.2,17,M,,M,,*64
05/28/2014	22:01:40.723	$GPGGA,220141,2556.4984,N,08001.5524,W,1,10,1.2,17,M,,M,,*6A
05/28/2014	22:01:41.775	$GPGGA,220142,2556.4993,N,08001.5498,W,1,10,1.2,17,M,,M,,*69
05/28/2014	22:01:42.883	$GPGGA,220143,2556.4998,N,08001.5471,W,1,10,1.2,17,M,,M,,*64
05/28/2014	22:01:43.958	$GPGGA,220144,2556.5005,N,08001.5445,W,1,10,1.2,17,M,,M,,*68
05/28/2014	22:01:45.034	$GPGGA,220145,2556.5013,N,08001.5420,W,1,10,1.2,17,M,,M,,*6D
05/28/2014	22:01:46.060	$GPGGA,220146,2556.5020,N,08001.5393,W,1,10,1.2,17,M,,M,,*61
05/28/2014	22:01:47.174	$GPGGA,220147,2556.5027,N,08001.5367,W,1,10,1.2,17,M,,M,,*6C
05/28/2014	22:01:48.227	$GPGGA,220148,2556.5034,N,08001.5341,W,1,10,1.2,17,M,,M,,*65
05/28/2014	22:01:49.325	$GPGGA,220149,2556.5042,N,08001.5315,W,1,10,1.2,17,M,,M,,*64
05/28/2014	22:01:50.356	$GPGGA,220150,2556.5049,N,08001.5289,W,1,10,1.2,17,M,,M,,*63
05/28/2014	22:01:51.421	$GPGGA,220151,2556.5056,N,08001.5263,W,1,10,1.2,17,M,,M,,*68
05/28/2014	22:01:52.528	$GPGGA,220152,2556.5063,N,08001.5237,W,1,10,1.2,17,M,,M,,*6C
05/28/2014	22:01:53.614	$GPGGA,220153,2556.5070,N,08001.5211,W,1,10,1.2,17,M,,M,,*6B
05/28/2014	22:01:54.668	$GPGGA,220154,2556.5078,N,08001.5185,W,1,10,1.2,17,M,,M,,*6A
05/28/2014	22:01:55.742	$GPGGA,220155,2556.5085,N,08001.5159,W,1,10,1.2,17,M,,M,,*68
05/28/2014	22:01:56.818	$GPGGA,220156,2556.5092,N,08001.5133,W,1,10,1.2,17,M,,M,,*61
05/28/2014	22:01:57.872	$GPGGA,220157,2556.5099,N,08001.5106,W,1,10,1.2,17,M,,M,,*6D
05/28/2014	22:01:59.050	$GPGGA,220158,2556.5106,N,08001.5080,W,1,10,1.2,17,M,,M,,*6A
05/28/2014	22:02:00.033	$GPGGA,220159,2556.5114,N,08001.5054,W,1,10,1.2,17,M,,M,,*61
05/28/2014	22:02:01.119	$GPGGA,220200,2556.5121,N,08001.5027,W,1,10,1.2,17,M,,M,,*6C
05/28/2014	22:02:02.164	$GPGGA,220201,2556.5128,N,08001.5001,W,1,9,1.3,17,M,,M,,*59
05/28/2014	22:02:03.336	$GPGGA,220202,2556.5135,N,08001.4975,W,1,9,1.3,17,M,,M,,*5D
05/28/2014	22:02:04.323	$GPGGA,220203,2556.5143,N,08001.4948,W,1,10,1.2,17,M,,M,,*6A
05/28/2014	22:02:05.421	$GPGGA,220204,2556.5152,N,08001.4922,W,1,10,1.2,17,M,,M,,*61
05/28/2014	22:02:06.561	$GPGGA,220205,2556.5157,N,08001.4896,W,1,9,1.3,17,M,,M,,*52
05/28/2014	22:02:07.532	$GPGGA,220206,2556.5164,N,08001.4870,W,1,9,1.2,17,M,,M,,*58
05/28/2014	22:02:08.732	$GPGGA,220207,2556.5172,N,08001.4844,W,1,10,1.2,17,M,,M,,*61
05/28/2014	22:02:09.700	$GPGGA,220208,2556.5181,N,08001.4819,W,1,10,1.2,17,M,,M,,*6A
05/28/2014	22:02:10.883	$GPGGA,220209,2556.5188,N,08001.4792,W,1,10,1.2,17,M,,M,,*6E
05/28/2014	22:02:11.829	$GPGGA,220210,2556.5195,N,08001.4765,W,1,10,1.3,17,M,,M,,*63
05/28/2014	22:02:13.024	$GPGGA,220211,2556.5204,N,08001.4740,W,1,10,1.2,17,M,,M,,*6F
05/28/2014	22:02:13.968	$GPGGA,220212,2556.5212,N,08001.4713,W,1,10,1.2,17,M,,M,,*6D
05/28/2014	22:02:15.140	$GPGGA,220213,2556.5219,N,08001.4686,W,1,9,1.3,17,M,,M,,*53
05/28/2014	22:02:16.215	$GPGGA,220214,2556.5225,N,08001.4662,W,1,9,1.2,17,M,,M,,*50
05/28/2014	22:02:17.194	$GPGGA,220215,2556.5232,N,08001.4636,W,1,10,1.2,17,M,,M,,*6E
05/28/2014	22:02:18.269	$GPGGA,220216,2556.5237,N,08001.4610,W,1,10,1.3,17,M,,M,,*6D
05/28/2014	22:02:19.452	$GPGGA,220217,2556.5244,N,08001.4585,W,1,9,1.3,17,M,,M,,*5F
05/28/2014	22:02:20.516	$GPGGA,220218,2556.5253,N,08001.4559,W,1,9,1.2,17,M,,M,,*56
05/28/2014	22:02:21.581	$GPGGA,220219,2556.5261,N,08001.4533,W,1,10,1.2,17,M,,M,,*62
05/28/2014	22:02:22.667	$GPGGA,220220,2556.5266,N,08001.4506,W,1,10,1.2,17,M,,M,,*69
05/28/2014	22:02:23.753	$GPGGA,220221,2556.5273,N,08001.4481,W,1,10,1.2,17,M,,M,,*62
05/28/2014	22:02:24.807	$GPGGA,220222,2556.5280,N,08001.4454,W,1,10,1.2,17,M,,M,,*65
05/28/2014	22:02:25.893	$GPGGA,220223,2556.5287,N,08001.4426,W,1,9,1.4,17,M,,M,,*58
05/28/2014	22:02:26.958	$GPGGA,220224,2556.5293,N,08001.4400,W,1,9,1.2,17,M,,M,,*58
05/28/2014	22:02:28.065	$GPGGA,220225,2556.5300,N,08001.4373,W,1,10,1.2,18,M,,M,,*66
05/28/2014	22:02:29.097	$GPGGA,220226,2556.5307,N,08001.4347,W,1,10,1.2,18,M,,M,,*65
05/28/2014	22:02:30.151	$GPGGA,220227,2556.5313,N,08001.4320,W,1,9,1.4,18,M,,M,,*5E
05/28/2014	22:02:31.280	$GPGGA,220228,2556.5319,N,08001.4295,W,1,9,1.4,18,M,,M,,*54
05/28/2014	22:02:32.355	$GPGGA,220229,2556.5324,N,08001.4267,W,1,9,1.4,18,M,,M,,*56
05/28/2014	22:02:33.387	$GPGGA,220230,2556.5331,N,08001.4241,W,1,9,1.2,18,M,,M,,*58
05/28/2014	22:02:34.451	$GPGGA,220231,2556.5340,N,08001.4215,W,1,9,1.3,18,M,,M,,*5F
05/28/2014	22:02:35.548	$GPGGA,220232,2556.5347,N,08001.4188,W,1,9,1.4,18,M,,M,,*5B
05/28/2014	22:02:36.645	$GPGGA,220233,2556.5352,N,08001.4163,W,1,9,1.4,18,M,,M,,*5B
05/28/2014	22:02:37.666	$GPGGA,220234,2556.5359,N,08001.4136,W,1,9,1.4,18,M,,M,,*57
05/28/2014	22:02:38.774	$GPGGA,220235,2556.5367,N,08001.4110,W,1,9,1.4,18,M,,M,,*5F
05/28/2014	22:02:39.850	$GPGGA,220236,2556.5372,N,08001.4083,W,1,9,1.4,18,M,,M,,*53
05/28/2014	22:02:40.892	$GPGGA,220237,2556.5378,N,08001.4057,W,1,10,1.2,18,M,,M,,*6F
05/28/2014	22:02:41.967	$GPGGA,220238,2556.5385,N,08001.4031,W,1,10,1.2,18,M,,M,,*62
05/28/2014	22:02:43.075	$GPGGA,220239,2556.5391,N,08001.4004,W,1,9,1.4,18,M,,M,,*5E
05/28/2014	22:02:39.602	$GPGGA,220240,2556.5398,N,08001.3979,W,1,9,1.4,18,M,,M,,*5D
05/28/2014	22:02:40.667	$GPGGA,220241,2556.5406,N,08001.3952,W,1,9,1.4,18,M,,M,,*55
05/28/2014	22:02:41.753	$GPGGA,220242,2556.5410,N,08001.3926,W,1,9,1.4,18,M,,M,,*52
05/28/2014	22:02:42.806	$GPGGA,220243,2556.5417,N,08001.3900,W,1,9,1.4,18,M,,M,,*50
05/28/2014	22:02:43.893	$GPGGA,220244,2556.5424,N,08001.3874,W,1,9,1.4,18,M,,M,,*55
05/28/2014	22:02:45.000	$GPGGA,220245,2556.5431,N,08001.3848,W,1,9,1.4,18,M,,M,,*5F
05/28/2014	22:02:46.035	$GPGGA,220246,2556.5436,N,08001.3821,W,1,9,1.4,18,M,,M,,*54
05/28/2014	22:02:47.107	$GPGGA,220247,2556.5443,N,08001.3795,W,1,9,1.4,18,M,,M,,*57
05/28/2014	22:02:48.332	$GPGGA,220248,2556.5452,N,08001.3768,W,1,9,1.4,18,M,,M,,*5A
05/28/2014	22:02:49.279	$GPGGA,220249,2556.5457,N,08001.3741,W,1,9,1.4,18,M,,M,,*55
05/28/2014	22:02:50.311	$GPGGA,220250,2556.5464,N,08001.3715,W,1,9,1.4,18,M,,M,,*5C
05/28/2014	22:02:51.386	$GPGGA,220251,2556.5471,N,08001.3689,W,1,8,1.5,18,M,,M,,*5D
05/28/2014	22:02:52.592	$GPGGA,220252,2556.5479,N,08001.3662,W,1,8,1.4,18,M,,M,,*52
05/28/2014	22:02:53.677	$GPGGA,220253,2556.5484,N,08001.3635,W,1,9,1.4,18,M,,M,,*52
05/28/2014	22:02:54.634	$GPGGA,220254,2556.5492,N,08001.3610,W,1,9,1.4,18,M,,M,,*55
05/28/2014	22:02:55.688	$GPGGA,220255,2556.5499,N,08001.3582,W,1,9,1.4,18,M,,M,,*57
05/28/2014	22:02:56.881	$GPGGA,220256,2556.5504,N,08001.3556,W,1,9,1.2,18,M,,M,,*5E
05/28/2014	22:02:57.978	$GPGGA,220257,2556.5511,N,08001.3531,W,1,10,1.2,18,M,,M,,*62
05/28/2014	22:02:59.021	$GPGGA,220258,2556.5518,N,08001.3504,W,1,10,1.2,18,M,,M,,*62
05/28/2014	22:03:00.139	$GPGGA,220259,2556.5526,N,08001.3479,W,1,10,1.2,18,M,,M,,*65
05/28/2014	22:03:01.204	$GPGGA,220300,2556.5533,N,08001.3453,W,1,10,1.2,18,M,,M,,*64
05/28/2014	22:03:02.247	$GPGGA,220301,2556.5540,N,08001.3426,W,1,10,1.2,18,M,,M,,*63
05/28/2014	22:03:03.301	$GPGGA,220302,2556.5547,N,08001.3401,W,1,10,1.2,18,M,,M,,*62
05/28/2014	22:03:04.397	$GPGGA,220303,2556.5554,N,08001.3375,W,1,9,1.3,18,M,,M,,*5C
05/28/2014	22:03:05.461	$GPGGA,220304,2556.5562,N,08001.3349,W,1,9,1.2,18,M,,M,,*50
05/28/2014	22:03:06.547	$GPGGA,220305,2556.5569,N,08001.3323,W,1,10,1.2,18,M,,M,,*6E
05/28/2014	22:03:07.622	$GPGGA,220306,2556.5578,N,08001.3296,W,1,10,1.3,19,M,,M,,*62
05/28/2014	22:03:08.676	$GPGGA,220307,2556.5586,N,08001.3269,W,1,9,1.3,19,M,,M,,*5A
05/28/2014	22:03:09.762	$GPGGA,220308,2556.5594,N,08001.3243,W,1,9,1.3,19,M,,M,,*5E
05/28/2014	22:03:10.848	$GPGGA,220309,2556.5602,N,08001.3216,W,1,9,1.3,19,M,,M,,*53
05/28/2014	22:03:11.892	$GPGGA,220310,2556.5609,N,08001.3190,W,1,9,1.3,19,M,,M,,*5D
05/28/2014	22:03:12.966	$GPGGA,220311,2556.5618,N,08001.3163,W,1,9,1.3,19,M,,M,,*50
05/28/2014	22:03:14.063	$GPGGA,220312,2556.5627,N,08001.3137,W,1,9,1.3,19,M,,M,,*5E
05/28/2014	22:03:15.117	$GPGGA,220313,2556.5634,N,08001.3111,W,1,9,1.3,19,M,,M,,*59
05/28/2014	22:03:16.182	$GPGGA,220314,2556.5641,N,08001.3084,W,1,9,1.3,19,M,,M,,*51
05/28/2014	22:03:17.257	$GPGGA,220315,2556.5651,N,08001.3058,W,1,9,1.3,19,M,,M,,*50
05/28/2014	22:03:18.355	$GPGGA,220316,2556.5656,N,08001.3035,W,1,9,1.3,19,M,,M,,*5F
05/28/2014	22:03:19.397	$GPGGA,220317,2556.5665,N,08001.3007,W,1,10,1.2,19,M,,M,,*66
05/28/2014	22:03:20.472	$GPGGA,220318,2556.5673,N,08001.2982,W,1,10,1.3,19,M,,M,,*6A
05/28/2014	22:03:21.569	$GPGGA,220319,2556.5681,N,08001.2955,W,1,9,1.3,19,M,,M,,*54
05/28/2014	22:03:22.623	$GPGGA,220320,2556.5690,N,08001.2929,W,1,9,1.3,18,M,,M,,*54
05/28/2014	22:03:23.687	$GPGGA,220321,2556.5699,N,08001.2903,W,1,9,1.3,18,M,,M,,*54
05/28/2014	22:03:24.761	$GPGGA,220322,2556.5706,N,08001.2876,W,1,9,1.3,18,M,,M,,*53
05/28/2014	22:03:25.837	$GPGGA,220323,2556.5714,N,08001.2849,W,1,9,1.3,18,M,,M,,*5D
05/28/2014	22:03:26.935	$GPGGA,220324,2556.5723,N,08001.2823,W,1,9,1.3,18,M,,M,,*52
05/28/2014	22:03:27.977	$GPGGA,220325,2556.5731,N,08001.2797,W,1,9,1.3,18,M,,M,,*50
05/28/2014	22:03:29.063	$GPGGA,220326,2556.5738,N,08001.2769,W,1,9,1.3,18,M,,M,,*5B
05/28/2014	22:03:30.181	$GPGGA,220327,2556.5746,N,08001.2743,W,1,9,1.3,18,M,,M,,*5B
05/28/2014	22:03:31.224	$GPGGA,220328,2556.5753,N,08001.2716,W,1,9,1.3,18,M,,M,,*50
05/28/2014	22:03:32.321	$GPGGA,220329,2556.5761,N,08001.2690,W,1,9,1.3,18,M,,M,,*5F
05/28/2014	22:03:33.353	$GPGGA,220330,2556.5768,N,08001.2663,W,1,9,1.3,18,M,,M,,*52
05/28/2014	22:03:34.450	$GPGGA,220331,2556.5777,N,08001.2637,W,1,9,1.3,18,M,,M,,*5C
05/28/2014	22:03:35.504	$GPGGA,220332,2556.5785,N,08001.2611,W,1,9,1.3,18,M,,M,,*56
05/28/2014	22:03:36.590	$GPGGA,220333,2556.5792,N,08001.2585,W,1,10,1.2,18,M,,M,,*66
05/28/2014	22:03:37.654	$GPGGA,220334,2556.5797,N,08001.2559,W,1,10,1.2,18,M,,M,,*65
05/28/2014	22:03:38.708	$GPGGA,220335,2556.5807,N,08001.2534,W,1,10,1.2,18,M,,M,,*69
05/28/2014	22:03:39.816	$GPGGA,220336,2556.5814,N,08001.2507,W,1,10,1.4,18,M,,M,,*6E
05/28/2014	22:03:40.880	$GPGGA,220337,2556.5820,N,08001.2481,W,1,9,1.4,18,M,,M,,*5F
05/28/2014	22:03:42.042	$GPGGA,220338,2556.5825,N,08001.2454,W,1,9,1.2,18,M,,M,,*5B
05/28/2014	22:03:43.128	$GPGGA,220339,2556.5832,N,08001.2427,W,1,10,1.2,18,M,,M,,*60
05/28/2014	22:03:39.583	$GPGGA,220340,2556.5837,N,08001.2399,W,1,10,1.2,18,M,,M,,*69
05/28/2014	22:03:40.643	$GPGGA,220341,2556.5844,N,08001.2373,W,1,10,1.2,18,M,,M,,*68
05/28/2014	22:03:41.707	$GPGGA,220342,2556.5851,N,08001.2346,W,1,10,1.2,18,M,,M,,*69
05/28/2014	22:03:42.903	$GPGGA,220343,2556.5858,N,08001.2319,W,1,9,1.2,18,M,,M,,*53
05/28/2014	22:03:43.976	$GPGGA,220344,2556.5864,N,08001.2293,W,1,9,1.2,18,M,,M,,*58
05/28/2014	22:03:44.949	$GPGGA,220345,2556.5871,N,08001.2267,W,1,10,1.2,18,M,,M,,*6E
05/28/2014	22:03:46.116	$GPGGA,220346,2556.5876,N,08001.2240,W,1,10,1.2,18,M,,M,,*6F
05/28/2014	22:03:47.219	$GPGGA,220347,2556.5882,N,08001.2214,W,1,10,1.2,18,M,,M,,*64
05/28/2014	22:03:48.268	$GPGGA,220348,2556.5890,N,08001.2188,W,1,10,1.2,18,M,,M,,*6E
05/28/2014	22:03:49.372	$GPGGA,220349,2556.5896,N,08001.2161,W,1,10,1.2,18,M,,M,,*6E
05/28/2014	22:03:50.417	$GPGGA,220350,2556.5901,N,08001.2135,W,1,10,1.2,18,M,,M,,*68
05/28/2014	22:03:51.508	$GPGGA,220351,2556.5911,N,08001.2108,W,1,10,1.2,18,M,,M,,*66
05/28/2014	22:03:52.581	$GPGGA,220352,2556.5918,N,08001.2082,W,1,10,1.2,18,M,,M,,*6F
05/28/2014	22:03:53.643	$GPGGA,220353,2556.5923,N,08001.2055,W,1,10,1.2,18,M,,M,,*6C
05/28/2014	22:03:54.687	$GPGGA,220354,2556.5930,N,08001.2029,W,1,10,1.2,18,M,,M,,*62
05/28/2014	22:03:55.794	$GPGGA,220355,2556.5938,N,08001.2003,W,1,10,1.2,18,M,,M,,*63
05/28/2014	22:03:56.848	$GPGGA,220356,2556.5943,N,08001.1974,W,1,10,1.2,18,M,,M,,*66
05/28/2014	22:03:57.943	$GPGGA,220357,2556.5949,N,08001.1948,W,1,10,1.2,18,M,,M,,*62
05/28/2014	22:03:58.986	$GPGGA,220358,2556.5958,N,08001.1922,W,1,10,1.4,18,M,,M,,*67
05/28/2014	22:04:00.073	$GPGGA,220359,2556.5963,N,08001.1895,W,1,9,1.2,18,M,,M,,*5D
05/28/2014	22:04:01.184	$GPGGA,220400,2556.5970,N,08001.1870,W,1,9,1.4,18,M,,M,,*59
05/28/2014	22:04:02.223	$GPGGA,220401,2556.5979,N,08001.1844,W,1,9,1.4,18,M,,M,,*56
05/28/2014	22:04:03.266	$GPGGA,220402,2556.5985,N,08001.1817,W,1,9,1.2,18,M,,M,,*56
05/28/2014	22:04:04.363	$GPGGA,220403,2556.5992,N,08001.1791,W,1,10,1.4,18,M,,M,,*6E
05/28/2014	22:04:05.438	$GPGGA,220404,2556.5999,N,08001.1765,W,1,10,1.4,18,M,,M,,*69
05/28/2014	22:04:06.514	$GPGGA,220405,2556.6006,N,08001.1740,W,1,9,1.4,18,M,,M,,*5B
05/28/2014	22:04:07.578	$GPGGA,220406,2556.6014,N,08001.1717,W,1,9,1.4,18,M,,M,,*59
05/28/2014	22:04:08.653	$GPGGA,220407,2556.6021,N,08001.1694,W,1,9,1.5,18,M,,M,,*55
05/28/2014	22:04:09.751	$GPGGA,220408,2556.6028,N,08001.1671,W,1,9,1.4,18,M,,M,,*59
05/28/2014	22:04:10.815	$GPGGA,220409,2556.6037,N,08001.1650,W,1,9,1.4,18,M,,M,,*55
05/28/2014	22:04:11.858	$GPGGA,220410,2556.6044,N,08001.1628,W,1,9,1.5,18,M,,M,,*57
05/28/2014	22:04:12.944	$GPGGA,220411,2556.6050,N,08001.1608,W,1,8,1.5,18,M,,M,,*50
05/28/2014	22:04:14.051	$GPGGA,220412,2556.6059,N,08001.1587,W,1,8,1.2,18,M,,M,,*59
05/28/2014	22:04:15.087	$GPGGA,220413,2556.6066,N,08001.1567,W,1,10,1.4,18,M,,M,,*65
05/28/2014	22:04:16.149	$GPGGA,220414,2556.6074,N,08001.1548,W,1,10,1.2,18,M,,M,,*6A
05/28/2014	22:04:17.228	$GPGGA,220415,2556.6082,N,08001.1529,W,1,10,1.2,18,M,,M,,*65
05/28/2014	22:04:18.341	$GPGGA,220416,2556.6089,N,08001.1511,W,1,10,1.2,18,M,,M,,*66
05/28/2014	22:04:19.366	$GPGGA,220417,2556.6096,N,08001.1492,W,1,10,1.2,18,M,,M,,*63
05/28/2014	22:04:20.459	$GPGGA,220418,2556.6104,N,08001.1474,W,1,10,1.2,18,M,,M,,*6E
05/28/2014	22:04:21.556	$GPGGA,220419,2556.6111,N,08001.1458,W,1,10,1.4,18,M,,M,,*63
05/28/2014	22:04:22.642	$GPGGA,220420,2556.6121,N,08001.1442,W,1,10,1.2,18,M,,M,,*67
05/28/2014	22:04:23.803	$GPGGA,220421,2556.6129,N,08001.1428,W,1,10,1.2,18,M,,M,,*62
05/28/2014	22:04:24.739	$GPGGA,220422,2556.6136,N,08001.1411,W,1,10,1.2,18,M,,M,,*65
05/28/2014	22:04:25.825	$GPGGA,220423,2556.6143,N,08001.1395,W,1,10,1.2,18,M,,M,,*6D
05/28/2014	22:04:27.008	$GPGGA,220424,2556.6153,N,08001.1380,W,1,10,1.2,18,M,,M,,*6F
05/28/2014	22:04:27.957	$GPGGA,220425,2556.6160,N,08001.1364,W,1,10,1.4,18,M,,M,,*62
05/28/2014	22:04:29.045	$GPGGA,220426,2556.6167,N,08001.1349,W,1,10,1.2,18,M,,M,,*6F
05/28/2014	22:04:30.234	$GPGGA,220427,2556.6175,N,08001.1336,W,1,10,1.2,18,M,,M,,*65
05/28/2014	22:04:31.223	$GPGGA,220428,2556.6183,N,08001.1319,W,1,10,1.2,18,M,,M,,*6E
05/28/2014	22:04:32.375	$GPGGA,220429,2556.6190,N,08001.1306,W,1,10,1.2,18,M,,M,,*63
05/28/2014	22:04:33.427	$GPGGA,220430,2556.6198,N,08001.1293,W,1,10,1.2,17,M,,M,,*61
05/28/2014	22:04:34.535	$GPGGA,220431,2556.6205,N,08001.1278,W,1,10,1.4,17,M,,M,,*64
05/28/2014	22:04:35.598	$GPGGA,220432,2556.6212,N,08001.1265,W,1,10,1.5,17,M,,M,,*6C
05/28/2014	22:04:36.663	$GPGGA,220433,2556.6221,N,08001.1253,W,1,8,1.5,17,M,,M,,*51
05/28/2014	22:04:37.641	$GPGGA,220434,2556.6230,N,08001.1239,W,1,8,1.4,17,M,,M,,*5B
05/28/2014	22:04:38.819	$GPGGA,220435,2556.6238,N,08001.1227,W,1,9,1.4,17,M,,M,,*5C
05/28/2014	22:04:39.879	$GPGGA,220436,2556.6245,N,08001.1214,W,1,9,1.4,17,M,,M,,*55
05/28/2014	22:04:40.964	$GPGGA,220437,2556.6255,N,08001.1202,W,1,9,1.4,17,M,,M,,*52
05/28/2014	22:04:41.997	$GPGGA,220438,2556.6265,N,08001.1190,W,1,9,1.2,17,M,,M,,*50
05/28/2014	22:04:43.104	$GPGGA,220439,2556.6273,N,08001.1177,W,1,10,1.2,17,M,,M,,*67
05/28/2014	22:04:39.662	$GPGGA,220440,2556.6280,N,08001.1166,W,1,10,1.4,17,M,,M,,*63
05/28/2014	22:04:40.749	$GPGGA,220441,2556.6288,N,08001.1155,W,1,10,1.2,17,M,,M,,*6C
05/28/2014	22:04:41.781	$GPGGA,220442,2556.6299,N,08001.1143,W,1,10,1.3,17,M,,M,,*69
05/28/2014	22:04:42.877	$GPGGA,220443,2556.6306,N,08001.1132,W,1,10,1.2,17,M,,M,,*68
05/28/2014	22:04:43.931	$GPGGA,220444,2556.6313,N,08001.1119,W,1,10,1.2,17,M,,M,,*62
05/28/2014	22:04:45.017	$GPGGA,220445,2556.6323,N,08001.1107,W,1,9,1.3,17,M,,M,,*56
05/28/2014	22:04:46.082	$GPGGA,220446,2556.6331,N,08001.1097,W,1,9,1.2,17,M,,M,,*5F
05/28/2014	22:04:47.168	$GPGGA,220447,2556.6337,N,08001.1085,W,1,10,1.2,18,M,,M,,*6C
05/28/2014	22:04:48.232	$GPGGA,220448,2556.6344,N,08001.1074,W,1,10,1.2,18,M,,M,,*69
05/28/2014	22:04:49.296	$GPGGA,220449,2556.6352,N,08001.1063,W,1,10,1.2,18,M,,M,,*69
05/28/2014	22:04:50.371	$GPGGA,220450,2556.6360,N,08001.1052,W,1,10,1.2,18,M,,M,,*62
05/28/2014	22:04:51.436	$GPGGA,220451,2556.6367,N,08001.1040,W,1,10,1.2,18,M,,M,,*67
05/28/2014	22:04:52.523	$GPGGA,220452,2556.6375,N,08001.1029,W,1,10,1.2,18,M,,M,,*68
05/28/2014	22:04:53.597	$GPGGA,220453,2556.6382,N,08001.1019,W,1,10,1.2,18,M,,M,,*62
05/28/2014	22:04:54.673	$GPGGA,220454,2556.6391,N,08001.1008,W,1,10,1.2,18,M,,M,,*67
05/28/2014	22:04:55.769	$GPGGA,220455,2556.6398,N,08001.0997,W,1,10,1.2,18,M,,M,,*61
05/28/2014	22:04:56.835	$GPGGA,220456,2556.6404,N,08001.0988,W,1,10,1.2,18,M,,M,,*6E
05/28/2014	22:04:57.866	$GPGGA,220457,2556.6411,N,08001.0978,W,1,10,1.2,18,M,,M,,*64
05/28/2014	22:04:58.952	$GPGGA,220458,2556.6418,N,08001.0966,W,1,10,1.3,18,M,,M,,*6C
05/28/2014	22:05:00.038	$GPGGA,220459,2556.6425,N,08001.0958,W,1,8,1.3,18,M,,M,,*57
05/28/2014	22:05:01.124	$GPGGA,220500,2556.6432,N,08001.0948,W,1,8,1.4,18,M,,M,,*5A
05/28/2014	22:05:02.189	$GPGGA,220501,2556.6440,N,08001.0937,W,1,8,1.5,18,M,,M,,*57
05/28/2014	22:05:03.253	$GPGGA,220502,2556.6447,N,08001.0928,W,1,8,1.2,18,M,,M,,*5A
05/28/2014	22:05:04.308	$GPGGA,220503,2556.6454,N,08001.0918,W,1,10,1.2,18,M,,M,,*63
05/28/2014	22:05:05.533	$GPGGA,220504,2556.6461,N,08001.0908,W,1,10,1.2,18,M,,M,,*63
05/28/2014	22:05:06.468	$GPGGA,220505,2556.6467,N,08001.0898,W,1,10,1.2,18,M,,M,,*6C
05/28/2014	22:05:07.523	$GPGGA,220506,2556.6475,N,08001.0887,W,1,10,1.4,18,M,,M,,*64
05/28/2014	22:05:08.720	$GPGGA,220507,2556.6483,N,08001.0877,W,1,10,1.2,18,M,,M,,*65
05/28/2014	22:05:09.822	$GPGGA,220508,2556.6487,N,08001.0867,W,1,10,1.2,18,M,,M,,*6F
05/28/2014	22:05:10.769	$GPGGA,220509,2556.6496,N,08001.0856,W,1,9,1.4,18,M,,M,,*52
05/28/2014	22:05:11.830	$GPGGA,220510,2556.6501,N,08001.0847,W,1,9,1.2,18,M,,M,,*53
05/28/2014	22:05:13.042	$GPGGA,220511,2556.6507,N,08001.0838,W,1,9,1.4,18,M,,M,,*5A
05/28/2014	22:05:14.002	$GPGGA,220512,2556.6516,N,08001.0827,W,1,9,1.4,18,M,,M,,*57
05/28/2014	22:05:15.037	$GPGGA,220513,2556.6523,N,08001.0818,W,1,10,1.2,18,M,,M,,*62
05/28/2014	22:05:16.124	$GPGGA,220514,2556.6529,N,08001.0808,W,1,10,1.4,18,M,,M,,*68
05/28/2014	22:05:17.296	$GPGGA,220515,2556.6536,N,08001.0797,W,1,10,1.2,18,M,,M,,*68
05/28/2014	22:05:18.385	$GPGGA,220516,2556.6545,N,08001.0787,W,1,10,1.2,18,M,,M,,*6E
05/28/2014	22:05:19.471	$GPGGA,220517,2556.6552,N,08001.0777,W,1,10,1.2,18,M,,M,,*66
05/28/2014	22:05:20.521	$GPGGA,220518,2556.6559,N,08001.0767,W,1,10,1.2,18,M,,M,,*63
05/28/2014	22:05:21.618	$GPGGA,220519,2556.6569,N,08001.0756,W,1,10,1.2,18,M,,M,,*63
05/28/2014	22:05:22.672	$GPGGA,220520,2556.6577,N,08001.0746,W,1,10,1.2,19,M,,M,,*66
05/28/2014	22:05:23.772	$GPGGA,220521,2556.6583,N,08001.0735,W,1,10,1.2,19,M,,M,,*68
05/28/2014	22:05:24.813	$GPGGA,220522,2556.6591,N,08001.0724,W,1,10,1.2,19,M,,M,,*68
05/28/2014	22:05:25.912	$GPGGA,220523,2556.6599,N,08001.0714,W,1,10,1.2,19,M,,M,,*62
05/28/2014	22:05:26.941	$GPGGA,220524,2556.6606,N,08001.0704,W,1,10,1.3,19,M,,M,,*60
05/28/2014	22:05:27.980	$GPGGA,220525,2556.6613,N,08001.0693,W,1,9,1.3,19,M,,M,,*52
05/28/2014	22:05:28.978	$GPGGA,220526,2556.6622,N,08001.0683,W,1,9,1.3,19,M,,M,,*52
05/28/2014	22:05:30.017	$GPGGA,220527,2556.6628,N,08001.0673,W,1,10,1.2,19,M,,M,,*6F
05/28/2014	22:05:31.045	$GPGGA,220528,2556.6637,N,08001.0662,W,1,10,1.2,19,M,,M,,*6E
05/28/2014	22:05:32.074	$GPGGA,220529,2556.6644,N,08001.0652,W,1,10,1.2,19,M,,M,,*68
05/28/2014	22:05:33.093	$GPGGA,220530,2556.6652,N,08001.0642,W,1,10,1.2,19,M,,M,,*66
05/28/2014	22:05:34.101	$GPGGA,220531,2556.6659,N,08001.0631,W,1,10,1.2,19,M,,M,,*68
05/28/2014	22:05:35.140	$GPGGA,220532,2556.6667,N,08001.0621,W,1,10,1.4,19,M,,M,,*61
05/28/2014	22:05:36.179	$GPGGA,220533,2556.6675,N,08001.0611,W,1,9,1.4,19,M,,M,,*58
05/28/2014	22:05:37.176	$GPGGA,220534,2556.6684,N,08001.0601,W,1,9,1.5,19,M,,M,,*51
05/28/2014	22:05:38.226	$GPGGA,220535,2556.6692,N,08001.0590,W,1,8,1.5,19,M,,M,,*5D
05/28/2014	22:05:39.254	$GPGGA,220536,2556.6700,N,08001.0580,W,1,8,1.5,19,M,,M,,*55
05/28/2014	22:05:40.283	$GPGGA,220537,2556.6709,N,08001.0570,W,1,8,1.5,19,M,,M,,*52
05/28/2014	22:05:41.291	$GPGGA,220538,2556.6718,N,08001.0559,W,1,8,1.5,19,M,,M,,*56
05/28/2014	22:05:42.331	$GPGGA,220539,2556.6725,N,08001.0549,W,1,8,1.5,19,M,,M,,*58
05/28/2014	22:05:39.581	$GPGGA,220540,2556.6732,N,08001.0539,W,1,8,1.5,19,M,,M,,*57
05/28/2014	22:05:40.630	$GPGGA,220541,2556.6740,N,08001.0526,W,1,9,1.4,19,M,,M,,*5D
05/28/2014	22:05:41.617	$GPGGA,220542,2556.6747,N,08001.0516,W,1,9,1.3,19,M,,M,,*5D
05/28/2014	22:05:42.667	$GPGGA,220543,2556.6754,N,08001.0504,W,1,8,1.5,19,M,,M,,*5A
05/28/2014	22:05:43.695	$GPGGA,220544,2556.6761,N,08001.0494,W,1,8,1.2,19,M,,M,,*54
05/28/2014	22:05:44.703	$GPGGA,220545,2556.6771,N,08001.0482,W,1,10,1.2,19,M,,M,,*6A
05/28/2014	22:05:45.732	$GPGGA,220546,2556.6776,N,08001.0471,W,1,10,1.3,19,M,,M,,*63
05/28/2014	22:05:46.781	$GPGGA,220547,2556.6783,N,08001.0461,W,1,10,1.2,19,M,,M,,*68
05/28/2014	22:05:47.913	$GPGGA,220548,2556.6793,N,08001.0451,W,1,10,1.2,19,M,,M,,*65
05/28/2014	22:05:48.808	$GPGGA,220549,2556.6801,N,08001.0441,W,1,10,1.2,19,M,,M,,*61
05/28/2014	22:05:49.847	$GPGGA,220550,2556.6808,N,08001.0430,W,1,10,1.2,19,M,,M,,*66
05/28/2014	22:05:50.875	$GPGGA,220551,2556.6815,N,08001.0419,W,1,10,1.2,19,M,,M,,*60
05/28/2014	22:05:51.997	$GPGGA,220552,2556.6825,N,08001.0409,W,1,10,1.3,19,M,,M,,*60
05/28/2014	22:05:52.933	$GPGGA,220553,2556.6833,N,08001.0398,W,1,10,1.2,19,M,,M,,*68
05/28/2014	22:05:54.046	$GPGGA,220554,2556.6840,N,08001.0388,W,1,10,1.2,19,M,,M,,*6A
05/28/2014	22:05:55.099	$GPGGA,220555,2556.6848,N,08001.0377,W,1,10,1.2,19,M,,M,,*63
05/28/2014	22:05:56.125	$GPGGA,220556,2556.6855,N,08001.0366,W,1,10,1.2,19,M,,M,,*6C
05/28/2014	22:05:57.032	$GPGGA,220557,2556.6863,N,08001.0356,W,1,10,1.2,19,M,,M,,*6B
05/28/2014	22:05:58.152	$GPGGA,220558,2556.6872,N,08001.0346,W,1,10,1.2,19,M,,M,,*65
05/28/2014	22:05:59.073	$GPGGA,220559,2556.6879,N,08001.0336,W,1,10,1.2,19,M,,M,,*68
05/28/2014	22:06:00.227	$GPGGA,220600,2556.6887,N,08001.0326,W,1,10,1.2,19,M,,M,,*67
05/28/2014	22:06:01.267	$GPGGA,220601,2556.6895,N,08001.0315,W,1,10,1.2,19,M,,M,,*65
05/28/2014	22:06:02.264	$GPGGA,220602,2556.6902,N,08001.0305,W,1,10,1.2,19,M,,M,,*68
05/28/2014	22:06:03.291	$GPGGA,220603,2556.6912,N,08001.0295,W,1,10,1.2,19,M,,M,,*60
05/28/2014	22:06:04.319	$GPGGA,220604,2556.6920,N,08001.0284,W,1,10,1.2,19,M,,M,,*66
05/28/2014	22:06:05.349	$GPGGA,220605,2556.6927,N,08001.0273,W,1,10,1.2,19,M,,M,,*68
05/28/2014	22:06:06.367	$GPGGA,220606,2556.6935,N,08001.0263,W,1,10,1.2,19,M,,M,,*69
05/28/2014	22:06:07.405	$GPGGA,220607,2556.6944,N,08001.0252,W,1,10,1.2,19,M,,M,,*6C
05/28/2014	22:06:08.424	$GPGGA,220608,2556.6952,N,08001.0243,W,1,10,1.2,19,M,,M,,*64
05/28/2014	22:06:09.433	$GPGGA,220609,2556.6960,N,08001.0233,W,1,10,1.2,19,M,,M,,*63
05/28/2014	22:06:10.471	$GPGGA,220610,2556.6967,N,08001.0222,W,1,10,1.2,19,M,,M,,*6C
05/28/2014	22:06:11.500	$GPGGA,220611,2556.6975,N,08001.0211,W,1,10,1.2,19,M,,M,,*6E
05/28/2014	22:06:12.528	$GPGGA,220612,2556.6984,N,08001.0201,W,1,10,1.2,19,M,,M,,*62
05/28/2014	22:06:13.587	$GPGGA,220613,2556.6992,N,08001.0191,W,1,9,1.3,19,M,,M,,*57
05/28/2014	22:06:14.565	$GPGGA,220614,2556.7000,N,08001.0180,W,1,9,1.2,19,M,,M,,*52
05/28/2014	22:06:15.615	$GPGGA,220615,2556.7007,N,08001.0171,W,1,10,1.2,19,M,,M,,*62
05/28/2014	22:06:16.643	$GPGGA,220616,2556.7016,N,08001.0160,W,1,10,1.2,19,M,,M,,*61
05/28/2014	22:06:17.672	$GPGGA,220617,2556.7024,N,08001.0150,W,1,10,1.2,19,M,,M,,*62
05/28/2014	22:06:18.689	$GPGGA,220618,2556.7029,N,08001.0140,W,1,10,1.2,19,M,,M,,*61
05/28/2014	22:06:19.729	$GPGGA,220619,2556.7039,N,08001.0130,W,1,10,1.2,19,M,,M,,*66
05/28/2014	22:06:20.737	$GPGGA,220620,2556.7047,N,08001.0120,W,1,10,1.2,19,M,,M,,*64
05/28/2014	22:06:21.775	$GPGGA,220621,2556.7054,N,08001.0110,W,1,10,1.2,19,M,,M,,*64
05/28/2014	22:06:22.773	$GPGGA,220622,2556.7061,N,08001.0100,W,1,10,1.2,19,M,,M,,*60
05/28/2014	22:06:23.843	$GPGGA,220623,2556.7070,N,08001.0090,W,1,10,1.2,19,M,,M,,*69
05/28/2014	22:06:24.841	$GPGGA,220624,2556.7078,N,08001.0080,W,1,10,1.2,19,M,,M,,*67
05/28/2014	22:06:25.859	$GPGGA,220625,2556.7086,N,08001.0070,W,1,10,1.2,19,M,,M,,*68
05/28/2014	22:06:26.878	$GPGGA,220626,2556.7093,N,08001.0060,W,1,10,1.2,19,M,,M,,*6E
05/28/2014	22:06:27.906	$GPGGA,220627,2556.7101,N,08001.0050,W,1,10,1.2,19,M,,M,,*66
05/28/2014	22:06:28.976	$GPGGA,220628,2556.7108,N,08001.0040,W,1,10,1.2,19,M,,M,,*61
05/28/2014	22:06:29.974	$GPGGA,220629,2556.7117,N,08001.0029,W,1,10,1.2,19,M,,M,,*61
05/28/2014	22:06:30.985	$GPGGA,220630,2556.7123,N,08001.0019,W,1,10,1.2,19,M,,M,,*6D
05/28/2014	22:06:32.032	$GPGGA,220631,2556.7132,N,08001.0010,W,1,10,1.2,19,M,,M,,*65
05/28/2014	22:06:33.060	$GPGGA,220632,2556.7140,N,08001.0000,W,1,10,1.2,19,M,,M,,*62
05/28/2014	22:06:34.074	$GPGGA,220633,2556.7147,N,08000.9989,W,1,10,1.2,19,M,,M,,*64
05/28/2014	22:06:35.283	$GPGGA,220634,2556.7154,N,08000.9980,W,1,10,1.2,19,M,,M,,*68
05/28/2014	22:06:36.258	$GPGGA,220635,2556.7162,N,08000.9970,W,1,10,1.2,19,M,,M,,*63
05/28/2014	22:06:37.339	$GPGGA,220636,2556.7170,N,08000.9960,W,1,10,1.2,19,M,,M,,*62
05/28/2014	22:06:38.184	$GPGGA,220637,2556.7177,N,08000.9951,W,1,10,1.2,19,M,,M,,*66
05/28/2014	22:06:39.312	$GPGGA,220638,2556.7184,N,08000.9941,W,1,10,1.2,19,M,,M,,*64
05/28/2014	22:06:40.250	$GPGGA,220639,2556.7194,N,08000.9931,W,1,10,1.2,19,M,,M,,*63
05/28/2014	22:06:39.558	$GPGGA,220640,2556.7199,N,08000.9921,W,1,10,1.2,19,M,,M,,*61
05/28/2014	22:06:40.659	$GPGGA,220641,2556.7208,N,08000.9912,W,1,10,1.2,19,M,,M,,*6B
05/28/2014	22:06:41.759	$GPGGA,220642,2556.7216,N,08000.9902,W,1,10,1.2,19,M,,M,,*66
05/28/2014	22:06:42.757	$GPGGA,220643,2556.7223,N,08000.9892,W,1,10,1.2,18,M,,M,,*68
05/28/2014	22:06:43.748	$GPGGA,220644,2556.7231,N,08000.9882,W,1,10,1.2,18,M,,M,,*6D
05/28/2014	22:06:44.835	$GPGGA,220645,2556.7238,N,08000.9873,W,1,10,1.2,18,M,,M,,*6B
05/28/2014	22:06:45.874	$GPGGA,220646,2556.7245,N,08000.9862,W,1,10,1.2,18,M,,M,,*62
05/28/2014	22:06:46.864	$GPGGA,220647,2556.7253,N,08000.9853,W,1,10,1.2,18,M,,M,,*66
05/28/2014	22:06:47.876	$GPGGA,220648,2556.7262,N,08000.9843,W,1,10,1.2,18,M,,M,,*6A
05/28/2014	22:06:48.912	$GPGGA,220649,2556.7270,N,08000.9834,W,1,10,1.2,18,M,,M,,*68
05/28/2014	22:06:49.978	$GPGGA,220650,2556.7276,N,08000.9824,W,1,10,1.2,18,M,,M,,*67
05/28/2014	22:06:50.925	$GPGGA,220651,2556.7284,N,08000.9814,W,1,10,1.2,18,M,,M,,*68
05/28/2014	22:06:52.024	$GPGGA,220652,2556.7292,N,08000.9804,W,1,10,1.2,18,M,,M,,*6D
05/28/2014	22:06:53.063	$GPGGA,220653,2556.7299,N,08000.9793,W,1,10,1.2,18,M,,M,,*66
05/28/2014	22:06:53.999	$GPGGA,220654,2556.7307,N,08000.9784,W,1,10,1.2,18,M,,M,,*61
05/28/2014	22:06:55.028	$GPGGA,220655,2556.7314,N,08000.9774,W,1,10,1.2,18,M,,M,,*6D
05/28/2014	22:06:56.067	$GPGGA,220656,2556.7323,N,08000.9764,W,1,10,1.2,18,M,,M,,*6B
05/28/2014	22:06:57.087	$GPGGA,220657,2556.7328,N,08000.9755,W,1,9,1.3,18,M,,M,,*5A
05/28/2014	22:06:58.197	$GPGGA,220658,2556.7336,N,08000.9745,W,1,9,1.4,18,M,,M,,*5C
05/28/2014	22:06:59.133	$GPGGA,220659,2556.7343,N,08000.9735,W,1,9,1.4,18,M,,M,,*58
05/28/2014	22:07:00.264	$GPGGA,220700,2556.7352,N,08000.9725,W,1,9,1.5,18,M,,M,,*55
05/28/2014	22:07:01.191	$GPGGA,220701,2556.7357,N,08000.9716,W,1,8,1.5,18,M,,M,,*50
05/28/2014	22:07:02.282	$GPGGA,220702,2556.7365,N,08000.9705,W,1,8,1.2,18,M,,M,,*57
05/28/2014	22:07:03.278	$GPGGA,220703,2556.7372,N,08000.9693,W,1,10,1.2,18,M,,M,,*67
05/28/2014	22:07:04.369	$GPGGA,220704,2556.7378,N,08000.9683,W,1,10,1.2,18,M,,M,,*6B
05/28/2014	22:07:05.355	$GPGGA,220705,2556.7386,N,08000.9674,W,1,9,1.3,18,M,,M,,*5A
05/28/2014	22:07:06.398	$GPGGA,220706,2556.7396,N,08000.9664,W,1,9,1.5,18,M,,M,,*5F
05/28/2014	22:07:07.441	$GPGGA,220707,2556.7401,N,08000.9655,W,1,8,1.3,18,M,,M,,*52
05/28/2014	22:07:08.473	$GPGGA,220708,2556.7410,N,08000.9647,W,1,8,1.3,18,M,,M,,*5E
05/28/2014	22:07:09.478	$GPGGA,220709,2556.7419,N,08000.9638,W,1,9,1.4,18,M,,M,,*58
05/28/2014	22:07:10.489	$GPGGA,220710,2556.7425,N,08000.9630,W,1,9,1.2,18,M,,M,,*51
05/28/2014	22:07:11.455	$GPGGA,220711,2556.7432,N,08000.9622,W,1,10,1.2,18,M,,M,,*6D
05/28/2014	22:07:12.560	$GPGGA,220712,2556.7440,N,08000.9614,W,1,10,1.2,18,M,,M,,*6E
05/28/2014	22:07:13.513	$GPGGA,220713,2556.7447,N,08000.9607,W,1,10,1.2,18,M,,M,,*6A
05/28/2014	22:07:14.614	$GPGGA,220714,2556.7454,N,08000.9600,W,1,10,1.2,18,M,,M,,*68
05/28/2014	22:07:15.634	$GPGGA,220715,2556.7461,N,08000.9594,W,1,10,1.2,18,M,,M,,*61
05/28/2014	22:07:16.683	$GPGGA,220716,2556.7468,N,08000.9587,W,1,10,1.2,18,M,,M,,*69
05/28/2014	22:07:17.669	$GPGGA,220717,2556.7476,N,08000.9581,W,1,10,1.2,18,M,,M,,*61
05/28/2014	22:07:18.708	$GPGGA,220718,2556.7484,N,08000.9573,W,1,10,1.2,18,M,,M,,*6E
05/28/2014	22:07:19.765	$GPGGA,220719,2556.7491,N,08000.9567,W,1,9,1.2,18,M,,M,,*56
05/28/2014	22:07:20.703	$GPGGA,220720,2556.7498,N,08000.9560,W,1,9,1.2,18,M,,M,,*52
05/28/2014	22:07:21.826	$GPGGA,220721,2556.7505,N,08000.9553,W,1,9,1.2,19,M,,M,,*57
05/28/2014	22:07:22.802	$GPGGA,220722,2556.7513,N,08000.9546,W,1,9,1.2,19,M,,M,,*57
05/28/2014	22:07:23.913	$GPGGA,220723,2556.7523,N,08000.9540,W,1,10,1.2,19,M,,M,,*6B
05/28/2014	22:07:24.913	$GPGGA,220724,2556.7530,N,08000.9534,W,1,10,1.3,19,M,,M,,*6C
05/28/2014	22:07:25.950	$GPGGA,220725,2556.7536,N,08000.9529,W,1,9,1.2,19,M,,M,,*5E
05/28/2014	22:07:26.907	$GPGGA,220726,2556.7544,N,08000.9523,W,1,9,1.2,19,M,,M,,*52
05/28/2014	22:07:28.017	$GPGGA,220727,2556.7552,N,08000.9517,W,1,10,1.2,19,M,,M,,*6B
05/28/2014	22:07:28.983	$GPGGA,220728,2556.7559,N,08000.9512,W,1,10,1.2,19,M,,M,,*6A
05/28/2014	22:07:30.052	$GPGGA,220729,2556.7566,N,08000.9506,W,1,9,1.2,19,M,,M,,*5A
05/28/2014	22:07:31.061	$GPGGA,220730,2556.7574,N,08000.9501,W,1,9,1.3,19,M,,M,,*57
05/28/2014	22:07:32.050	$GPGGA,220731,2556.7583,N,08000.9495,W,1,9,1.2,19,M,,M,,*53
05/28/2014	22:07:33.088	$GPGGA,220732,2556.7589,N,08000.9489,W,1,9,1.4,19,M,,M,,*51
05/28/2014	22:07:34.137	$GPGGA,220733,2556.7598,N,08000.9484,W,1,9,1.5,19,M,,M,,*5C
05/28/2014	22:07:35.135	$GPGGA,220734,2556.7606,N,08000.9479,W,1,9,1.5,19,M,,M,,*5D
05/28/2014	22:07:36.229	$GPGGA,220735,2556.7614,N,08000.9474,W,1,8,1.2,19,M,,M,,*54
05/28/2014	22:07:37.255	$GPGGA,220736,2556.7618,N,08000.9469,W,1,8,1.4,19,M,,M,,*51
05/28/2014	22:07:38.286	$GPGGA,220737,2556.7627,N,08000.9465,W,1,9,1.4,19,M,,M,,*51
05/28/2014	22:07:39.229	$GPGGA,220738,2556.7635,N,08000.9460,W,1,9,1.4,19,M,,M,,*58
05/28/2014	22:07:40.323	$GPGGA,220739,2556.7643,N,08000.9454,W,1,9,1.2,19,M,,M,,*59
05/28/2014	22:07:39.618	$GPGGA,220740,2556.7649,N,08000.9449,W,1,9,1.4,19,M,,M,,*57
05/28/2014	22:07:40.637	$GPGGA,220741,2556.7656,N,08000.9444,W,1,9,1.4,19,M,,M,,*55
05/28/2014	22:07:41.677	$GPGGA,220742,2556.7664,N,08000.9440,W,1,9,1.2,19,M,,M,,*55
05/28/2014	22:07:42.733	$GPGGA,220743,2556.7674,N,08000.9436,W,1,10,1.2,19,M,,M,,*6C
05/28/2014	22:07:43.742	$GPGGA,220744,2556.7683,N,08000.9431,W,1,10,1.2,19,M,,M,,*64
05/28/2014	22:07:44.774	$GPGGA,220745,2556.7693,N,08000.9427,W,1,10,1.4,19,M,,M,,*65
05/28/2014	22:07:45.803	$GPGGA,220746,2556.7704,N,08000.9425,W,1,10,1.2,19,M,,M,,*6D
05/28/2014	22:07:46.808	$GPGGA,220747,2556.7712,N,08000.9422,W,1,10,1.2,20,M,,M,,*66
05/28/2014	22:07:47.848	$GPGGA,220748,2556.7722,N,08000.9417,W,1,10,1.2,20,M,,M,,*6C
05/28/2014	22:07:48.921	$GPGGA,220749,2556.7732,N,08000.9416,W,1,9,1.2,20,M,,M,,*55
05/28/2014	22:07:49.874	$GPGGA,220750,2556.7740,N,08000.9413,W,1,9,1.2,20,M,,M,,*5D
05/28/2014	22:07:50.945	$GPGGA,220751,2556.7747,N,08000.9409,W,1,10,1.2,20,M,,M,,*68
05/28/2014	22:07:51.951	$GPGGA,220752,2556.7751,N,08000.9406,W,1,10,1.9,20,M,,M,,*68
05/28/2014	22:07:52.960	$GPGGA,220753,2556.7760,N,08000.9404,W,1,8,1.2,20,M,,M,,*5B
05/28/2014	22:07:54.009	$GPGGA,220754,2556.7766,N,08000.9401,W,1,8,1.4,20,M,,M,,*59
05/28/2014	22:07:54.996	$GPGGA,220755,2556.7775,N,08000.9398,W,1,9,1.4,20,M,,M,,*5C
05/28/2014	22:07:56.056	$GPGGA,220756,2556.7775,N,08000.9398,W,1,9,1.2,20,M,,M,,*59
05/28/2014	22:07:57.064	$GPGGA,220757,2556.7790,N,08000.9394,W,1,10,1.2,20,M,,M,,*67
05/28/2014	22:07:58.114	$GPGGA,220758,2556.7798,N,08000.9390,W,1,10,1.2,20,M,,M,,*64
05/28/2014	22:07:59.176	$GPGGA,220759,2556.7807,N,08000.9387,W,1,10,1.2,20,M,,M,,*6A
05/28/2014	22:08:00.273	$GPGGA,220800,2556.7815,N,08000.9386,W,1,10,1.2,20,M,,M,,*6B
05/28/2014	22:08:01.210	$GPGGA,220801,2556.7823,N,08000.9383,W,1,10,1.2,20,M,,M,,*6A
05/28/2014	22:08:02.217	$GPGGA,220802,2556.7831,N,08000.9380,W,1,10,1.2,20,M,,M,,*69
05/28/2014	22:08:03.235	$GPGGA,220803,2556.7838,N,08000.9377,W,1,10,1.2,20,M,,M,,*69
05/28/2014	22:08:04.284	$GPGGA,220804,2556.7838,N,08000.9377,W,1,10,1.2,20,M,,M,,*6E
05/28/2014	22:08:05.272	$GPGGA,220805,2556.7855,N,08000.9372,W,1,10,1.2,21,M,,M,,*60
05/28/2014	22:08:06.424	$GPGGA,220806,2556.7862,N,08000.9368,W,1,10,1.3,21,M,,M,,*6D
05/28/2014	22:08:07.442	$GPGGA,220807,2556.7869,N,08000.9366,W,1,10,1.2,21,M,,M,,*68
05/28/2014	22:08:08.368	$GPGGA,220808,2556.7869,N,08000.9366,W,1,10,1.2,21,M,,M,,*67
05/28/2014	22:08:09.397	$GPGGA,220809,2556.7887,N,08000.9358,W,1,9,1.3,21,M,,M,,*52
05/28/2014	22:08:10.407	$GPGGA,220810,2556.7892,N,08000.9355,W,1,9,1.2,21,M,,M,,*52
05/28/2014	22:08:11.534	$GPGGA,220811,2556.7902,N,08000.9351,W,1,10,1.2,21,M,,M,,*67
05/28/2014	22:08:12.586	$GPGGA,220812,2556.7910,N,08000.9347,W,1,10,1.2,21,M,,M,,*60
05/28/2014	22:08:13.481	$GPGGA,220813,2556.7917,N,08000.9343,W,1,10,1.2,21,M,,M,,*62
05/28/2014	22:08:14.582	$GPGGA,220814,2556.7917,N,08000.9343,W,1,10,1.3,21,M,,M,,*64
05/28/2014	22:08:15.643	$GPGGA,220815,2556.7934,N,08000.9335,W,1,9,1.3,20,M,,M,,*5C
05/28/2014	22:08:16.588	$GPGGA,220816,2556.7934,N,08000.9335,W,1,9,1.2,20,M,,M,,*5E
05/28/2014	22:08:17.606	$GPGGA,220817,2556.7949,N,08000.9325,W,1,9,1.3,20,M,,M,,*55
05/28/2014	22:08:18.720	$GPGGA,220818,2556.7957,N,08000.9320,W,1,9,1.3,20,M,,M,,*50
05/28/2014	22:08:19.734	$GPGGA,220819,2556.7967,N,08000.9315,W,1,9,1.3,20,M,,M,,*54
05/28/2014	22:08:20.791	$GPGGA,220820,2556.7974,N,08000.9310,W,1,9,1.3,20,M,,M,,*59
05/28/2014	22:08:21.793	$GPGGA,220821,2556.7982,N,08000.9305,W,1,9,1.3,20,M,,M,,*55
05/28/2014	22:08:22.835	$GPGGA,220822,2556.7990,N,08000.9300,W,1,9,1.3,20,M,,M,,*50
05/28/2014	22:08:23.850	$GPGGA,220823,2556.7999,N,08000.9294,W,1,9,1.3,20,M,,M,,*54
05/28/2014	22:08:24.890	$GPGGA,220824,2556.8007,N,08000.9289,W,1,9,1.4,20,M,,M,,*59
05/28/2014	22:08:25.896	$GPGGA,220825,2556.8015,N,08000.9284,W,1,9,1.3,20,M,,M,,*51
05/28/2014	22:08:26.936	$GPGGA,220826,2556.8026,N,08000.9279,W,1,9,1.3,20,M,,M,,*50
05/28/2014	22:08:27.965	$GPGGA,220827,2556.8033,N,08000.9274,W,1,9,1.3,20,M,,M,,*58
05/28/2014	22:08:29.004	$GPGGA,220828,2556.8040,N,08000.9269,W,1,9,1.3,20,M,,M,,*5F
05/28/2014	22:08:30.045	$GPGGA,220829,2556.8050,N,08000.9263,W,1,9,1.3,20,M,,M,,*55
05/28/2014	22:08:31.030	$GPGGA,220830,2556.8058,N,08000.9258,W,1,9,1.3,20,M,,M,,*5D
05/28/2014	22:08:32.048	$GPGGA,220831,2556.8066,N,08000.9252,W,1,9,1.3,20,M,,M,,*5B
05/28/2014	22:08:33.087	$GPGGA,220832,2556.8073,N,08000.9247,W,1,9,1.3,20,M,,M,,*58
05/28/2014	22:08:34.126	$GPGGA,220833,2556.8082,N,08000.9241,W,1,9,1.3,20,M,,M,,*51
05/28/2014	22:08:35.134	$GPGGA,220834,2556.8087,N,08000.9236,W,1,9,1.5,20,M,,M,,*55
05/28/2014	22:08:36.173	$GPGGA,220835,2556.8096,N,08000.9231,W,1,9,1.3,20,M,,M,,*55
05/28/2014	22:08:37.202	$GPGGA,220836,2556.8102,N,08000.9225,W,1,9,1.3,20,M,,M,,*5F
05/28/2014	22:08:38.209	$GPGGA,220837,2556.8112,N,08000.9219,W,1,9,1.3,20,M,,M,,*50
05/28/2014	22:08:39.268	$GPGGA,220838,2556.8120,N,08000.9213,W,1,9,1.3,20,M,,M,,*54
05/28/2014	22:08:40.256	$GPGGA,220839,2556.8127,N,08000.9207,W,1,9,1.3,20,M,,M,,*57
05/28/2014	22:08:39.585	$GPGGA,220840,2556.8134,N,08000.9201,W,1,9,1.3,20,M,,M,,*5D
05/28/2014	22:08:40.635	$GPGGA,220841,2556.8144,N,08000.9195,W,1,9,1.3,20,M,,M,,*55
05/28/2014	22:08:41.622	$GPGGA,220842,2556.8151,N,08000.9189,W,1,9,1.3,20,M,,M,,*5F
05/28/2014	22:08:42.692	$GPGGA,220843,2556.8159,N,08000.9183,W,1,9,1.3,20,M,,M,,*5C
05/28/2014	22:08:43.701	$GPGGA,220844,2556.8167,N,08000.9176,W,1,9,1.3,20,M,,M,,*5C
05/28/2014	22:08:44.739	$GPGGA,220845,2556.8174,N,08000.9170,W,1,9,1.3,20,M,,M,,*59
05/28/2014	22:08:45.737	$GPGGA,220846,2556.8181,N,08000.9165,W,1,9,1.3,20,M,,M,,*54
05/28/2014	22:08:46.755	$GPGGA,220847,2556.8188,N,08000.9158,W,1,10,1.3,20,M,,M,,*6A
05/28/2014	22:08:47.805	$GPGGA,220848,2556.8198,N,08000.9151,W,1,10,1.3,20,M,,M,,*6D
05/28/2014	22:08:48.813	$GPGGA,220849,2556.8203,N,08000.9145,W,1,10,1.3,20,M,,M,,*68
05/28/2014	22:08:49.852	$GPGGA,220850,2556.8210,N,08000.9139,W,1,10,1.3,20,M,,M,,*69
05/28/2014	22:08:50.901	$GPGGA,220851,2556.8219,N,08000.9132,W,1,10,1.3,19,M,,M,,*60
05/28/2014	22:08:51.899	$GPGGA,220852,2556.8225,N,08000.9125,W,1,10,1.3,19,M,,M,,*6A
05/28/2014	22:08:52.948	$GPGGA,220853,2556.8231,N,08000.9119,W,1,10,1.3,19,M,,M,,*61
05/28/2014	22:08:53.945	$GPGGA,220854,2556.8239,N,08000.9112,W,1,10,1.3,19,M,,M,,*65
05/28/2014	22:08:55.090	$GPGGA,220855,2556.8246,N,08000.9104,W,1,10,1.3,19,M,,M,,*6B
05/28/2014	22:08:56.023	$GPGGA,220856,2556.8253,N,08000.9098,W,1,10,1.3,19,M,,M,,*68
05/28/2014	22:08:57.021	$GPGGA,220857,2556.8259,N,08000.9092,W,1,10,1.3,19,M,,M,,*69
05/28/2014	22:08:58.080	$GPGGA,220858,2556.8267,N,08000.9084,W,1,10,1.5,19,M,,M,,*6A
05/28/2014	22:09:00.148	$GPGGA,220900,2556.8279,N,08000.9071,W,1,10,1.3,19,M,,M,,*65
05/28/2014	22:09:01.132	$GPGGA,220901,2556.8286,N,08000.9063,W,1,10,1.3,19,M,,M,,*67
05/28/2014	22:09:02.278	$GPGGA,220902,2556.8293,N,08000.9055,W,1,10,1.3,19,M,,M,,*65
05/28/2014	22:09:03.288	$GPGGA,220903,2556.8300,N,08000.9049,W,1,10,1.3,19,M,,M,,*62
05/28/2014	22:09:04.345	$GPGGA,220904,2556.8306,N,08000.9041,W,1,10,1.3,19,M,,M,,*6B
05/28/2014	22:09:05.384	$GPGGA,220905,2556.8313,N,08000.9034,W,1,10,1.3,19,M,,M,,*6C
05/28/2014	22:09:06.373	$GPGGA,220906,2556.8318,N,08000.9027,W,1,10,1.3,19,M,,M,,*66
05/28/2014	22:09:07.391	$GPGGA,220907,2556.8325,N,08000.9019,W,1,10,1.3,19,M,,M,,*64
05/28/2014	22:09:08.347	$GPGGA,220908,2556.8332,N,08000.9011,W,1,10,1.3,19,M,,M,,*65
05/28/2014	22:09:09.468	$GPGGA,220909,2556.8339,N,08000.9004,W,1,10,1.3,19,M,,M,,*6B
05/28/2014	22:09:10.466	$GPGGA,220910,2556.8344,N,08000.8997,W,1,10,1.3,19,M,,M,,*6B
05/28/2014	22:09:11.536	$GPGGA,220911,2556.8350,N,08000.8989,W,1,10,1.3,19,M,,M,,*60
05/28/2014	22:09:12.532	$GPGGA,220912,2556.8357,N,08000.8982,W,1,10,1.5,19,M,,M,,*69
05/28/2014	22:09:13.551	$GPGGA,220913,2556.8362,N,08000.8975,W,1,10,1.3,19,M,,M,,*60
05/28/2014	22:09:14.580	$GPGGA,220914,2556.8369,N,08000.8967,W,1,10,1.3,19,M,,M,,*6F
05/28/2014	22:09:15.631	$GPGGA,220915,2556.8375,N,08000.8959,W,1,10,1.3,19,M,,M,,*6E
05/28/2014	22:09:16.647	$GPGGA,220916,2556.8380,N,08000.8952,W,1,10,1.3,19,M,,M,,*6C
05/28/2014	22:09:17.656	$GPGGA,220917,2556.8387,N,08000.8944,W,1,10,1.3,19,M,,M,,*6D
05/28/2014	22:09:18.684	$GPGGA,220918,2556.8394,N,08000.8936,W,1,10,1.3,19,M,,M,,*65
05/28/2014	22:09:19.748	$GPGGA,220919,2556.8398,N,08000.8929,W,1,10,1.3,19,M,,M,,*66
05/28/2014	22:09:20.752	$GPGGA,220920,2556.8405,N,08000.8921,W,1,10,1.3,19,M,,M,,*67
05/28/2014	22:09:21.770	$GPGGA,220921,2556.8411,N,08000.8913,W,1,10,1.3,19,M,,M,,*62
05/28/2014	22:09:22.789	$GPGGA,220922,2556.8416,N,08000.8906,W,1,10,1.3,19,M,,M,,*62
05/28/2014	22:09:23.817	$GPGGA,220923,2556.8423,N,08000.8898,W,1,9,1.5,18,M,,M,,*5C
05/28/2014	22:09:24.857	$GPGGA,220924,2556.8429,N,08000.8889,W,1,9,1.7,18,M,,M,,*53
05/28/2014	22:09:25.886	$GPGGA,220925,2556.8434,N,08000.8882,W,1,9,1.5,18,M,,M,,*57
05/28/2014	22:09:26.883	$GPGGA,220926,2556.8441,N,08000.8873,W,1,9,1.5,18,M,,M,,*58
05/28/2014	22:09:27.953	$GPGGA,220927,2556.8447,N,08000.8863,W,1,10,1.3,18,M,,M,,*60
05/28/2014	22:09:28.951	$GPGGA,220928,2556.8452,N,08000.8855,W,1,10,1.3,18,M,,M,,*6E
05/28/2014	22:09:30.000	$GPGGA,220929,2556.8458,N,08000.8847,W,1,9,1.5,18,M,,M,,*58
05/28/2014	22:09:30.986	$GPGGA,220930,2556.8463,N,08000.8839,W,1,9,1.3,18,M,,M,,*57
05/28/2014	22:09:32.056	$GPGGA,220931,2556.8467,N,08000.8831,W,1,9,1.6,18,M,,M,,*5F
05/28/2014	22:09:33.064	$GPGGA,220932,2556.8473,N,08000.8823,W,1,9,1.3,18,M,,M,,*5F
05/28/2014	22:09:34.114	$GPGGA,220933,2556.8477,N,08000.8817,W,1,8,1.9,19,M,,M,,*57
05/28/2014	22:09:35.104	$GPGGA,220934,2556.8484,N,08000.8808,W,1,8,1.5,19,M,,M,,*5E
05/28/2014	22:09:36.140	$GPGGA,220935,2556.8488,N,08000.8800,W,1,9,1.6,19,M,,M,,*59
05/28/2014	22:09:37.169	$GPGGA,220936,2556.8492,N,08000.8795,W,1,9,1.9,19,M,,M,,*5D
05/28/2014	22:09:38.218	$GPGGA,220937,2556.8499,N,08000.8787,W,1,10,1.3,19,M,,M,,*66
05/28/2014	22:09:39.226	$GPGGA,220938,2556.8503,N,08000.8780,W,1,10,1.6,19,M,,M,,*69
05/28/2014	22:09:40.255	$GPGGA,220939,2556.8508,N,08000.8772,W,1,10,1.3,19,M,,M,,*6B
05/28/2014	22:09:39.573	$GPGGA,220940,2556.8513,N,08000.8765,W,1,10,1.6,19,M,,M,,*6C
05/28/2014	22:09:40.571	$GPGGA,220941,2556.8520,N,08000.8757,W,1,9,1.6,19,M,,M,,*54
05/28/2014	22:09:41.610	$GPGGA,220942,2556.8527,N,08000.8749,W,1,9,1.9,19,M,,M,,*50
05/28/2014	22:09:42.618	$GPGGA,220943,2556.8531,N,08000.8742,W,1,8,1.8,19,M,,M,,*5D
05/28/2014	22:09:43.760	$GPGGA,220944,2556.8539,N,08000.8733,W,1,8,1.6,19,M,,M,,*5A
05/28/2014	22:09:44.676	$GPGGA,220945,2556.8545,N,08000.8725,W,1,10,1.3,19,M,,M,,*6B
05/28/2014	22:09:45.714	$GPGGA,220946,2556.8549,N,08000.8718,W,1,10,1.3,19,M,,M,,*6A
05/28/2014	22:09:46.855	$GPGGA,220947,2556.8553,N,08000.8711,W,1,10,1.3,19,M,,M,,*69
05/28/2014	22:09:47.781	$GPGGA,220948,2556.8560,N,08000.8701,W,1,10,1.6,19,M,,M,,*62
05/28/2014	22:09:48.912	$GPGGA,220949,2556.8563,N,08000.8694,W,1,10,1.3,19,M,,M,,*68
05/28/2014	22:09:49.911	$GPGGA,220950,2556.8567,N,08000.8688,W,1,10,1.3,19,M,,M,,*69
05/28/2014	22:09:50.941	$GPGGA,220951,2556.8571,N,08000.8680,W,1,10,1.3,19,M,,M,,*67
05/28/2014	22:09:51.885	$GPGGA,220952,2556.8577,N,08000.8672,W,1,10,1.3,19,M,,M,,*6F
05/28/2014	22:09:53.007	$GPGGA,220953,2556.8581,N,08000.8665,W,1,9,1.6,19,M,,M,,*5C
05/28/2014	22:09:54.029	$GPGGA,220954,2556.8586,N,08000.8657,W,1,9,1.9,20,M,,M,,*58
05/28/2014	22:09:55.056	$GPGGA,220955,2556.8589,N,08000.8651,W,1,8,1.9,20,M,,M,,*51
05/28/2014	22:09:55.984	$GPGGA,220956,2556.8595,N,08000.8644,W,1,8,1.3,20,M,,M,,*51
05/28/2014	22:09:57.132	$GPGGA,220957,2556.8599,N,08000.8635,W,1,8,1.9,20,M,,M,,*50
05/28/2014	22:09:58.027	$GPGGA,220958,2556.8604,N,08000.8626,W,1,8,1.6,20,M,,M,,*55
05/28/2014	22:09:59.158	$GPGGA,220959,2556.8609,N,08000.8617,W,1,9,1.6,20,M,,M,,*5A
05/28/2014	22:10:00.119	$GPGGA,221000,2556.8614,N,08000.8610,W,1,9,1.6,20,M,,M,,*55
05/28/2014	22:10:01.228	$GPGGA,221001,2556.8620,N,08000.8601,W,1,8,1.9,20,M,,M,,*5D
05/28/2014	22:10:02.234	$GPGGA,221002,2556.8625,N,08000.8592,W,1,8,1.9,20,M,,M,,*52
05/28/2014	22:10:03.294	$GPGGA,221003,2556.8629,N,08000.8584,W,1,9,1.6,20,M,,M,,*56
05/28/2014	22:10:04.291	$GPGGA,221004,2556.8636,N,08000.8575,W,1,9,1.9,20,M,,M,,*5E
05/28/2014	22:10:05.330	$GPGGA,221005,2556.8643,N,08000.8567,W,1,9,1.5,20,M,,M,,*52
05/28/2014	22:10:06.338	$GPGGA,221006,2556.8649,N,08000.8558,W,1,9,1.5,20,M,,M,,*57
05/28/2014	22:10:07.357	$GPGGA,221007,2556.8651,N,08000.8552,W,1,8,1.9,20,M,,M,,*58
05/28/2014	22:10:08.395	$GPGGA,221008,2556.8658,N,08000.8543,W,1,8,1.5,20,M,,M,,*52
05/28/2014	22:10:09.403	$GPGGA,221009,2556.8664,N,08000.8534,W,1,9,1.5,20,M,,M,,*5D
05/28/2014	22:10:10.432	$GPGGA,221010,2556.8669,N,08000.8527,W,1,9,1.5,20,M,,M,,*5A
05/28/2014	22:10:11.461	$GPGGA,221011,2556.8675,N,08000.8518,W,1,10,1.3,20,M,,M,,*64
05/28/2014	22:10:12.510	$GPGGA,221012,2556.8680,N,08000.8509,W,1,10,1.5,20,M,,M,,*6B
05/28/2014	22:10:13.540	$GPGGA,221013,2556.8683,N,08000.8503,W,1,10,1.3,20,M,,M,,*65
05/28/2014	22:10:14.547	$GPGGA,221014,2556.8690,N,08000.8495,W,1,10,1.5,20,M,,M,,*68
05/28/2014	22:10:15.565	$GPGGA,221015,2556.8697,N,08000.8486,W,1,10,1.3,20,M,,M,,*6A
05/28/2014	22:10:16.614	$GPGGA,221016,2556.8703,N,08000.8477,W,1,10,1.5,20,M,,M,,*6D
05/28/2014	22:10:17.665	$GPGGA,221017,2556.8709,N,08000.8468,W,1,10,1.3,20,M,,M,,*6E
05/28/2014	22:10:18.662	$GPGGA,221018,2556.8718,N,08000.8459,W,1,10,1.3,20,M,,M,,*63
05/28/2014	22:10:19.680	$GPGGA,221019,2556.8723,N,08000.8451,W,1,10,1.3,20,M,,M,,*62
05/28/2014	22:10:20.719	$GPGGA,221020,2556.8732,N,08000.8445,W,1,10,1.5,20,M,,M,,*6B
05/28/2014	22:10:21.758	$GPGGA,221021,2556.8737,N,08000.8434,W,1,10,1.3,20,M,,M,,*6F
05/28/2014	22:10:22.744	$GPGGA,221022,2556.8743,N,08000.8423,W,1,10,1.3,20,M,,M,,*69
05/28/2014	22:10:23.804	$GPGGA,221023,2556.8748,N,08000.8414,W,1,10,1.3,20,M,,M,,*67
05/28/2014	22:10:24.833	$GPGGA,221024,2556.8752,N,08000.8404,W,1,10,1.3,20,M,,M,,*6A
05/28/2014	22:10:25.824	$GPGGA,221025,2556.8759,N,08000.8395,W,1,10,1.3,20,M,,M,,*6F
05/28/2014	22:10:26.826	$GPGGA,221026,2556.8766,N,08000.8386,W,1,10,1.5,20,M,,M,,*64
05/28/2014	22:10:27.858	$GPGGA,221027,2556.8770,N,08000.8376,W,1,10,1.3,20,M,,M,,*6B
05/28/2014	22:10:28.859	$GPGGA,221028,2556.8776,N,08000.8368,W,1,10,1.3,20,M,,M,,*6D
05/28/2014	22:10:29.871	$GPGGA,221029,2556.8784,N,08000.8360,W,1,9,1.5,21,M,,M,,*56
05/28/2014	22:10:30.854	$GPGGA,221030,2556.8788,N,08000.8352,W,1,9,1.3,21,M,,M,,*55
05/28/2014	22:10:31.865	$GPGGA,221031,2556.8794,N,08000.8343,W,1,10,1.3,21,M,,M,,*61
05/28/2014	22:10:33.008	$GPGGA,221032,2556.8799,N,08000.8333,W,1,10,1.5,21,M,,M,,*6E
05/28/2014	22:10:34.010	$GPGGA,221033,2556.8806,N,08000.8325,W,1,10,1.3,21,M,,M,,*67
05/28/2014	22:10:34.992	$GPGGA,221034,2556.8809,N,08000.8315,W,1,10,1.5,21,M,,M,,*6A
05/28/2014	22:10:35.923	$GPGGA,221035,2556.8813,N,08000.8307,W,1,9,1.6,21,M,,M,,*58
05/28/2014	22:10:37.056	$GPGGA,221036,2556.8820,N,08000.8299,W,1,9,1.5,21,M,,M,,*5E
05/28/2014	22:10:38.068	$GPGGA,221037,2556.8828,N,08000.8290,W,1,9,1.5,21,M,,M,,*5E
05/28/2014	22:10:38.948	$GPGGA,221038,2556.8833,N,08000.8282,W,1,9,1.6,21,M,,M,,*5B
05/28/2014	22:10:40.060	$GPGGA,221039,2556.8838,N,08000.8276,W,1,9,1.6,21,M,,M,,*5A
05/28/2014	22:10:39.526	$GPGGA,221040,2556.8845,N,08000.8267,W,1,9,1.3,21,M,,M,,*5B
05/28/2014	22:10:40.630	$GPGGA,221041,2556.8849,N,08000.8258,W,1,9,1.6,21,M,,M,,*5F
05/28/2014	22:10:41.532	$GPGGA,221042,2556.8852,N,08000.8252,W,1,9,1.6,21,M,,M,,*5C
05/28/2014	22:10:42.644	$GPGGA,221043,2556.8857,N,08000.8243,W,1,9,1.5,21,M,,M,,*5B
05/28/2014	22:10:43.659	$GPGGA,221044,2556.8864,N,08000.8234,W,1,9,1.9,21,M,,M,,*50
05/28/2014	22:10:44.689	$GPGGA,221045,2556.8870,N,08000.8226,W,1,9,1.6,21,M,,M,,*58
05/28/2014	22:10:45.649	$GPGGA,221046,2556.8875,N,08000.8217,W,1,9,1.6,21,M,,M,,*5C
05/28/2014	22:10:46.661	$GPGGA,221047,2556.8881,N,08000.8208,W,1,8,1.9,21,M,,M,,*56
05/28/2014	22:10:47.714	$GPGGA,221048,2556.8885,N,08000.8200,W,1,8,1.9,21,M,,M,,*55
05/28/2014	22:10:48.706	$GPGGA,221049,2556.8892,N,08000.8191,W,1,8,1.9,21,M,,M,,*59
05/28/2014	22:10:49.697	$GPGGA,221050,2556.8898,N,08000.8183,W,1,8,1.9,21,M,,M,,*58
05/28/2014	22:10:50.730	$GPGGA,221051,2556.8900,N,08000.8175,W,1,8,1.9,21,M,,M,,*50
05/28/2014	22:10:51.721	$GPGGA,221052,2556.8906,N,08000.8166,W,1,8,1.9,21,M,,M,,*57
05/28/2014	22:10:52.723	$GPGGA,221053,2556.8913,N,08000.8157,W,1,9,1.6,21,M,,M,,*5E
05/28/2014	22:10:53.745	$GPGGA,221054,2556.8918,N,08000.8149,W,1,9,1.9,21,M,,M,,*52
05/28/2014	22:10:54.736	$GPGGA,221055,2556.8922,N,08000.8143,W,1,9,1.6,21,M,,M,,*5F
05/28/2014	22:10:55.768	$GPGGA,221056,2556.8929,N,08000.8135,W,1,9,1.3,21,M,,M,,*53
05/28/2014	22:10:56.800	$GPGGA,221057,2556.8933,N,08000.8126,W,1,9,1.6,21,M,,M,,*5E
05/28/2014	22:10:57.781	$GPGGA,221058,2556.8939,N,08000.8117,W,1,9,1.9,21,M,,M,,*56
05/28/2014	22:10:58.803	$GPGGA,221059,2556.8943,N,08000.8109,W,1,8,1.9,21,M,,M,,*54
05/28/2014	22:10:59.815	$GPGGA,221100,2556.8947,N,08000.8099,W,1,8,1.3,21,M,,M,,*5F
05/28/2014	22:11:00.797	$GPGGA,221101,2556.8951,N,08000.8090,W,1,9,1.6,21,M,,M,,*54
05/28/2014	22:11:01.819	$GPGGA,221102,2556.8957,N,08000.8082,W,1,9,1.6,21,M,,M,,*52
05/28/2014	22:11:02.830	$GPGGA,221103,2556.8962,N,08000.8073,W,1,9,1.5,21,M,,M,,*58
05/28/2014	22:11:03.852	$GPGGA,221104,2556.8969,N,08000.8064,W,1,9,1.5,21,M,,M,,*52
05/28/2014	22:11:04.854	$GPGGA,221105,2556.8975,N,08000.8056,W,1,8,1.9,21,M,,M,,*52
05/28/2014	22:11:05.846	$GPGGA,221106,2556.8980,N,08000.8048,W,1,8,1.5,21,M,,M,,*58
05/28/2014	22:11:06.868	$GPGGA,221107,2556.8987,N,08000.8038,W,1,9,1.5,21,M,,M,,*58
05/28/2014	22:11:07.891	$GPGGA,221108,2556.8993,N,08000.8030,W,1,9,1.5,21,M,,M,,*5A
05/28/2014	22:11:08.902	$GPGGA,221109,2556.8997,N,08000.8023,W,1,9,1.5,21,M,,M,,*5D
05/28/2014	22:11:09.883	$GPGGA,221110,2556.9001,N,08000.8013,W,1,9,1.3,21,M,,M,,*57
05/28/2014	22:11:10.905	$GPGGA,221111,2556.9008,N,08000.8006,W,1,10,1.3,21,M,,M,,*63
05/28/2014	22:11:11.927	$GPGGA,221112,2556.9014,N,08000.7998,W,1,10,1.3,21,M,,M,,*6C
05/28/2014	22:11:12.920	$GPGGA,221113,2556.9019,N,08000.7989,W,1,10,1.3,21,M,,M,,*60
05/28/2014	22:11:13.950	$GPGGA,221114,2556.9023,N,08000.7981,W,1,10,1.3,21,M,,M,,*66
05/28/2014	22:11:14.932	$GPGGA,221115,2556.9030,N,08000.7973,W,1,9,1.5,20,M,,M,,*57
05/28/2014	22:11:16.075	$GPGGA,221116,2556.9034,N,08000.7963,W,1,9,1.3,20,M,,M,,*57
05/28/2014	22:11:17.087	$GPGGA,221117,2556.9040,N,08000.7955,W,1,10,1.3,20,M,,M,,*68
05/28/2014	22:11:17.977	$GPGGA,221118,2556.9044,N,08000.7946,W,1,10,1.3,20,M,,M,,*61
05/28/2014	22:11:19.001	$GPGGA,221119,2556.9051,N,08000.7938,W,1,10,1.3,20,M,,M,,*6D
05/28/2014	22:11:19.992	$GPGGA,221120,2556.9057,N,08000.7930,W,1,10,1.3,20,M,,M,,*69
05/28/2014	22:11:21.013	$GPGGA,221121,2556.9063,N,08000.7921,W,1,10,1.3,20,M,,M,,*6F
05/28/2014	22:11:22.025	$GPGGA,221122,2556.9069,N,08000.7913,W,1,10,1.3,20,M,,M,,*67
05/28/2014	22:11:23.148	$GPGGA,221123,2556.9073,N,08000.7905,W,1,10,1.3,20,M,,M,,*6A
05/28/2014	22:11:24.170	$GPGGA,221124,2556.9080,N,08000.7896,W,1,10,1.3,20,M,,M,,*6A
05/28/2014	22:11:25.164	$GPGGA,221125,2556.9084,N,08000.7888,W,1,10,1.5,20,M,,M,,*66
05/28/2014	22:11:26.086	$GPGGA,221126,2556.9090,N,08000.7879,W,1,10,1.5,20,M,,M,,*6E
05/28/2014	22:11:27.177	$GPGGA,221127,2556.9095,N,08000.7871,W,1,10,1.3,20,M,,M,,*64
05/28/2014	22:11:28.188	$GPGGA,221128,2556.9102,N,08000.7862,W,1,10,1.5,20,M,,M,,*60
05/28/2014	22:11:29.191	$GPGGA,221129,2556.9106,N,08000.7854,W,1,9,1.5,20,M,,M,,*58
05/28/2014	22:11:30.191	$GPGGA,221130,2556.9113,N,08000.7847,W,1,9,1.3,20,M,,M,,*50
05/28/2014	22:11:31.213	$GPGGA,221131,2556.9120,N,08000.7839,W,1,10,1.5,20,M,,M,,*66
05/28/2014	22:11:32.226	$GPGGA,221132,2556.9124,N,08000.7830,W,1,10,1.5,20,M,,M,,*68
05/28/2014	22:11:33.206	$GPGGA,221133,2556.9128,N,08000.7821,W,1,9,1.3,20,M,,M,,*5B
05/28/2014	22:11:34.229	$GPGGA,221134,2556.9135,N,08000.7814,W,1,9,1.3,20,M,,M,,*56
05/28/2014	22:11:35.250	$GPGGA,221135,2556.9142,N,08000.7805,W,1,10,1.3,20,M,,M,,*6F
05/28/2014	22:11:36.262	$GPGGA,221136,2556.9146,N,08000.7796,W,1,10,1.9,20,M,,M,,*67
05/28/2014	22:11:37.275	$GPGGA,221137,2556.9149,N,08000.7787,W,1,8,1.6,20,M,,M,,*5F
05/28/2014	22:11:38.255	$GPGGA,221138,2556.9156,N,08000.7779,W,1,8,1.6,20,M,,M,,*5F
05/28/2014	22:11:39.287	$GPGGA,221139,2556.9163,N,08000.7771,W,1,9,1.6,19,M,,M,,*5B
05/28/2014	22:11:39.586	$GPGGA,221140,2556.9167,N,08000.7763,W,1,9,1.9,19,M,,M,,*5D
05/28/2014	22:11:40.628	$GPGGA,221141,2556.9174,N,08000.7754,W,1,8,1.5,19,M,,M,,*57
05/28/2014	22:11:41.591	$GPGGA,221142,2556.9180,N,08000.7745,W,1,8,1.6,19,M,,M,,*5C
05/28/2014	22:11:42.623	$GPGGA,221143,2556.9185,N,08000.7736,W,1,9,1.9,19,M,,M,,*52
05/28/2014	22:11:43.624	$GPGGA,221144,2556.9189,N,08000.7729,W,1,9,1.9,19,M,,M,,*57
