Software Version Number: 1	Data File Format Number: 1	Build Version Number: 1	Error Count Since VI Started: 0	Manufacturer: Raytheon	 Model Number: RayMarine 120	 S/N: 	 Cal Date: 	 Wind Direction Offset: 0.00	 Slope (M)1: 0.00	 Offset (B)1: 0.00	 Slope (M)2: 0.00	 Offset (B)2: 0.00	 Slope (M)3: 0.00	 Offset (B)3: 0.00	 Slope (M)4: 0.00	 Offset (B)4: 0.00	 Slope (M)5: 0.00	 Offset (B)5: 0.00	 Slope (M)6: 0.00	 Offset (B)6: 0.00
Computer Date	Computer Time	GGA String
06/11/2014	01:00:00.650	$GPGGA,010000,2543.8842,N,08009.7276,W,1,9,1.5,11,M,,M,,*5F
06/11/2014	01:00:01.712	$GPGGA,010001,2543.8844,N,08009.7276,W,1,9,1.5,11,M,,M,,*58
06/11/2014	01:00:02.854	$GPGGA,010002,2543.8844,N,08009.7275,W,1,9,1.5,11,M,,M,,*58
06/11/2014	01:00:03.841	$GPGGA,010003,2543.8844,N,08009.7276,W,1,9,1.5,11,M,,M,,*5A
06/11/2014	01:00:04.911	$GPGGA,010004,2543.8844,N,08009.7275,W,1,9,1.5,11,M,,M,,*5E
06/11/2014	01:00:06.043	$GPGGA,010005,2543.8844,N,08009.7276,W,1,9,1.5,11,M,,M,,*5C
06/11/2014	01:00:07.005	$GPGGA,010006,2543.8844,N,08009.7275,W,1,9,1.5,11,M,,M,,*5C
06/11/2014	01:00:08.116	$GPGGA,010007,2543.8844,N,08009.7276,W,1,9,1.5,11,M,,M,,*5E
06/11/2014	01:00:09.284	$GPGGA,010008,2543.8844,N,08009.7276,W,1,9,1.5,11,M,,M,,*51
06/11/2014	01:00:10.352	$GPGGA,010009,2543.8844,N,08009.7276,W,1,9,1.5,11,M,,M,,*50
06/11/2014	01:00:11.282	$GPGGA,010010,2543.8844,N,08009.7276,W,1,9,1.5,11,M,,M,,*58
06/11/2014	01:00:12.380	$GPGGA,010011,2543.8844,N,08009.7276,W,1,9,1.5,11,M,,M,,*59
06/11/2014	01:00:13.527	$GPGGA,010012,2543.8844,N,08009.7276,W,1,9,1.5,11,M,,M,,*5A
06/11/2014	01:00:14.586	$GPGGA,010013,2543.8844,N,08009.7276,W,1,9,1.5,11,M,,M,,*5B
06/11/2014	01:00:15.644	$GPGGA,010014,2543.8844,N,08009.7276,W,1,9,1.5,11,M,,M,,*5C
06/11/2014	01:00:16.747	$GPGGA,010015,2543.8844,N,08009.7276,W,1,9,1.5,11,M,,M,,*5D
06/11/2014	01:00:17.793	$GPGGA,010016,2543.8844,N,08009.7276,W,1,9,1.5,11,M,,M,,*5E
06/11/2014	01:00:18.863	$GPGGA,010017,2543.8844,N,08009.7276,W,1,9,1.5,11,M,,M,,*5F
06/11/2014	01:00:19.826	$GPGGA,010018,2543.8844,N,08009.7276,W,1,9,1.5,11,M,,M,,*50
06/11/2014	01:00:21.001	$GPGGA,010019,2543.8844,N,08009.7277,W,1,9,1.5,11,M,,M,,*50
06/11/2014	01:00:22.070	$GPGGA,010020,2543.8844,N,08009.7277,W,1,9,1.5,11,M,,M,,*5A
06/11/2014	01:00:23.118	$GPGGA,010021,2543.8844,N,08009.7277,W,1,9,1.5,11,M,,M,,*5B
06/11/2014	01:00:24.197	$GPGGA,010022,2543.8844,N,08009.7277,W,1,9,1.5,11,M,,M,,*58
06/11/2014	01:00:25.255	$GPGGA,010023,2543.8844,N,08009.7277,W,1,9,1.5,12,M,,M,,*5A
06/11/2014	01:00:26.335	$GPGGA,010024,2543.8844,N,08009.7277,W,1,9,1.5,12,M,,M,,*5D
06/11/2014	01:00:27.383	$GPGGA,010025,2543.8842,N,08009.7277,W,1,9,1.5,12,M,,M,,*5A
06/11/2014	01:00:28.452	$GPGGA,010026,2543.8843,N,08009.7277,W,1,9,1.5,12,M,,M,,*58
06/11/2014	01:00:29.543	$GPGGA,010027,2543.8842,N,08009.7277,W,1,9,1.5,12,M,,M,,*58
06/11/2014	01:00:30.601	$GPGGA,010028,2543.8843,N,08009.7277,W,1,9,1.5,12,M,,M,,*56
06/11/2014	01:00:31.681	$GPGGA,010029,2543.8842,N,08009.7277,W,1,9,1.5,12,M,,M,,*56
06/11/2014	01:00:32.729	$GPGGA,010030,2543.8843,N,08009.7277,W,1,9,1.5,12,M,,M,,*5F
06/11/2014	01:00:33.820	$GPGGA,010031,2543.8842,N,08009.7277,W,1,9,1.5,12,M,,M,,*5F
06/11/2014	01:00:34.878	$GPGGA,010032,2543.8843,N,08009.7276,W,1,9,1.5,12,M,,M,,*5C
06/11/2014	01:00:35.926	$GPGGA,010033,2543.8842,N,08009.7276,W,1,9,1.5,12,M,,M,,*5C
06/11/2014	01:00:36.995	$GPGGA,010034,2543.8843,N,08009.7276,W,1,9,1.5,12,M,,M,,*5A
06/11/2014	01:00:38.086	$GPGGA,010035,2543.8841,N,08009.7276,W,1,9,1.5,12,M,,M,,*59
06/11/2014	01:00:39.145	$GPGGA,010036,2543.8842,N,08009.7276,W,1,9,1.5,12,M,,M,,*59
06/11/2014	01:00:40.235	$GPGGA,010037,2543.8841,N,08009.7276,W,1,9,1.5,12,M,,M,,*5B
06/11/2014	01:00:41.261	$GPGGA,010038,2543.8842,N,08009.7276,W,1,9,1.5,12,M,,M,,*57
06/11/2014	01:00:42.341	$GPGGA,010039,2543.8840,N,08009.7276,W,1,9,1.5,12,M,,M,,*54
06/11/2014	01:00:43.399	$GPGGA,010040,2543.8840,N,08009.7275,W,1,9,1.5,12,M,,M,,*59
06/11/2014	01:00:44.457	$GPGGA,010041,2543.8842,N,08009.7276,W,1,9,1.5,12,M,,M,,*59
06/11/2014	01:00:45.526	$GPGGA,010042,2543.8841,N,08009.7275,W,1,9,1.5,12,M,,M,,*5A
06/11/2014	01:00:46.628	$GPGGA,010043,2543.8842,N,08009.7276,W,1,9,1.5,12,M,,M,,*5B
06/11/2014	01:00:43.535	$GPGGA,010044,2543.8841,N,08009.7275,W,1,9,1.5,12,M,,M,,*5C
06/11/2014	01:00:44.615	$GPGGA,010045,2543.8842,N,08009.7276,W,1,9,1.5,12,M,,M,,*5D
06/11/2014	01:00:45.644	$GPGGA,010046,2543.8840,N,08009.7275,W,1,9,1.5,13,M,,M,,*5E
06/11/2014	01:00:46.711	$GPGGA,010047,2543.8840,N,08009.7276,W,1,9,1.5,13,M,,M,,*5C
06/11/2014	01:00:47.801	$GPGGA,010048,2543.8840,N,08009.7275,W,1,9,1.5,13,M,,M,,*50
06/11/2014	01:00:48.881	$GPGGA,010049,2543.8840,N,08009.7276,W,1,9,1.5,13,M,,M,,*52
06/11/2014	01:00:49.918	$GPGGA,010050,2543.8840,N,08009.7275,W,1,9,1.5,13,M,,M,,*59
06/11/2014	01:00:51.020	$GPGGA,010051,2543.8840,N,08009.7276,W,1,9,1.5,13,M,,M,,*5B
06/11/2014	01:00:52.073	$GPGGA,010052,2543.8840,N,08009.7275,W,1,9,1.5,13,M,,M,,*5B
06/11/2014	01:00:53.139	$GPGGA,010053,2543.8840,N,08009.7276,W,1,9,1.5,13,M,,M,,*59
06/11/2014	01:00:54.291	$GPGGA,010054,2543.8839,N,08009.7275,W,1,9,1.5,13,M,,M,,*53
06/11/2014	01:00:55.243	$GPGGA,010055,2543.8840,N,08009.7276,W,1,9,1.5,13,M,,M,,*5F
06/11/2014	01:00:56.451	$GPGGA,010056,2543.8840,N,08009.7275,W,1,9,1.5,13,M,,M,,*5F
06/11/2014	01:00:57.510	$GPGGA,010057,2543.8840,N,08009.7274,W,1,9,1.5,13,M,,M,,*5F
06/11/2014	01:00:58.578	$GPGGA,010058,2543.8840,N,08009.7274,W,1,9,1.5,13,M,,M,,*50
06/11/2014	01:00:59.540	$GPGGA,010059,2543.8840,N,08009.7276,W,1,9,1.5,13,M,,M,,*53
06/11/2014	01:01:00.738	$GPGGA,010100,2543.8842,N,08009.7275,W,1,9,1.5,13,M,,M,,*5F
06/11/2014	01:01:01.775	$GPGGA,010101,2543.8841,N,08009.7276,W,1,9,1.5,13,M,,M,,*5E
06/11/2014	01:01:02.716	$GPGGA,010102,2543.8842,N,08009.7276,W,1,9,1.5,13,M,,M,,*5E
06/11/2014	01:01:03.796	$GPGGA,010103,2543.8841,N,08009.7276,W,1,9,1.5,13,M,,M,,*5C
06/11/2014	01:01:04.972	$GPGGA,010104,2543.8842,N,08009.7276,W,1,9,1.5,13,M,,M,,*58
06/11/2014	01:01:05.934	$GPGGA,010105,2543.8841,N,08009.7277,W,1,9,1.5,13,M,,M,,*5B
06/11/2014	01:01:07.089	$GPGGA,010106,2543.8842,N,08009.7277,W,1,9,1.5,13,M,,M,,*5B
06/11/2014	01:01:08.051	$GPGGA,010107,2543.8841,N,08009.7277,W,1,9,1.5,13,M,,M,,*59
06/11/2014	01:01:09.238	$GPGGA,010108,2543.8842,N,08009.7277,W,1,9,1.5,13,M,,M,,*55
06/11/2014	01:01:10.286	$GPGGA,010109,2543.8841,N,08009.7277,W,1,9,1.5,13,M,,M,,*57
06/11/2014	01:01:11.365	$GPGGA,010110,2543.8842,N,08009.7277,W,1,9,1.5,13,M,,M,,*5C
06/11/2014	01:01:12.467	$GPGGA,010111,2543.8841,N,08009.7279,W,1,9,1.5,13,M,,M,,*50
06/11/2014	01:01:13.515	$GPGGA,010112,2543.8842,N,08009.7278,W,1,9,1.5,13,M,,M,,*51
06/11/2014	01:01:14.573	$GPGGA,010113,2543.8841,N,08009.7279,W,1,9,1.5,13,M,,M,,*52
06/11/2014	01:01:15.632	$GPGGA,010114,2543.8842,N,08009.7278,W,1,9,1.5,13,M,,M,,*57
06/11/2014	01:01:16.689	$GPGGA,010115,2543.8841,N,08009.7280,W,1,9,1.5,13,M,,M,,*52
06/11/2014	01:01:17.769	$GPGGA,010116,2543.8842,N,08009.7279,W,1,9,1.5,13,M,,M,,*54
06/11/2014	01:01:18.861	$GPGGA,010117,2543.8841,N,08009.7280,W,1,9,1.5,13,M,,M,,*50
06/11/2014	01:01:19.897	$GPGGA,010118,2543.8842,N,08009.7280,W,1,9,1.5,13,M,,M,,*5C
06/11/2014	01:01:20.987	$GPGGA,010119,2543.8841,N,08009.7280,W,1,9,1.5,13,M,,M,,*5E
06/11/2014	01:01:22.046	$GPGGA,010120,2543.8842,N,08009.7280,W,1,9,1.5,13,M,,M,,*57
06/11/2014	01:01:23.136	$GPGGA,010121,2543.8843,N,08009.7280,W,1,9,1.5,13,M,,M,,*57
06/11/2014	01:01:24.163	$GPGGA,010122,2543.8842,N,08009.7280,W,1,9,1.5,13,M,,M,,*55
06/11/2014	01:01:25.253	$GPGGA,010123,2543.8843,N,08009.7280,W,1,9,1.5,13,M,,M,,*55
06/11/2014	01:01:26.312	$GPGGA,010124,2543.8842,N,08009.7280,W,1,9,1.5,13,M,,M,,*53
06/11/2014	01:01:27.392	$GPGGA,010125,2543.8843,N,08009.7280,W,1,9,1.5,13,M,,M,,*53
06/11/2014	01:01:28.482	$GPGGA,010126,2543.8842,N,08009.7280,W,1,9,1.5,13,M,,M,,*51
06/11/2014	01:01:29.530	$GPGGA,010127,2543.8843,N,08009.7281,W,1,9,1.5,13,M,,M,,*50
06/11/2014	01:01:30.578	$GPGGA,010128,2543.8842,N,08009.7281,W,1,9,1.5,13,M,,M,,*5E
06/11/2014	01:01:31.636	$GPGGA,010129,2543.8843,N,08009.7281,W,1,9,1.5,13,M,,M,,*5E
06/11/2014	01:01:32.716	$GPGGA,010130,2543.8841,N,08009.7281,W,1,9,1.5,13,M,,M,,*54
06/11/2014	01:01:33.775	$GPGGA,010131,2543.8842,N,08009.7281,W,1,9,1.5,13,M,,M,,*56
06/11/2014	01:01:34.854	$GPGGA,010132,2543.8841,N,08009.7281,W,1,9,1.5,13,M,,M,,*56
06/11/2014	01:01:35.901	$GPGGA,010133,2543.8842,N,08009.7281,W,1,9,1.5,13,M,,M,,*54
06/11/2014	01:01:36.971	$GPGGA,010134,2543.8841,N,08009.7281,W,1,9,1.5,13,M,,M,,*50
06/11/2014	01:01:38.035	$GPGGA,010135,2543.8843,N,08009.7281,W,1,9,1.5,13,M,,M,,*53
06/11/2014	01:01:39.132	$GPGGA,010136,2543.8842,N,08009.7281,W,1,9,1.5,13,M,,M,,*51
06/11/2014	01:01:40.168	$GPGGA,010137,2543.8843,N,08009.7281,W,1,9,1.5,13,M,,M,,*51
06/11/2014	01:01:41.247	$GPGGA,010138,2543.8841,N,08009.7281,W,1,9,1.5,13,M,,M,,*5C
06/11/2014	01:01:42.327	$GPGGA,010139,2543.8842,N,08009.7281,W,1,9,1.5,13,M,,M,,*5E
06/11/2014	01:01:43.386	$GPGGA,010140,2543.8841,N,08009.7283,W,1,9,1.5,13,M,,M,,*51
06/11/2014	01:01:44.444	$GPGGA,010141,2543.8842,N,08009.7282,W,1,9,1.5,13,M,,M,,*52
06/11/2014	01:01:45.610	$GPGGA,010142,2543.8841,N,08009.7283,W,1,9,1.5,13,M,,M,,*53
06/11/2014	01:01:46.711	$GPGGA,010143,2543.8842,N,08009.7282,W,1,9,1.5,13,M,,M,,*50
06/11/2014	01:01:43.526	$GPGGA,010144,2543.8841,N,08009.7283,W,1,9,1.5,13,M,,M,,*55
06/11/2014	01:01:44.582	$GPGGA,010145,2543.8842,N,08009.7282,W,1,9,1.5,13,M,,M,,*56
06/11/2014	01:01:45.619	$GPGGA,010146,2543.8841,N,08009.7283,W,1,9,1.5,13,M,,M,,*57
06/11/2014	01:01:46.827	$GPGGA,010147,2543.8842,N,08009.7282,W,1,9,1.5,13,M,,M,,*54
06/11/2014	01:01:47.790	$GPGGA,010148,2543.8843,N,08009.7283,W,1,9,1.5,13,M,,M,,*5B
06/11/2014	01:01:48.944	$GPGGA,010149,2543.8842,N,08009.7282,W,1,9,1.5,13,M,,M,,*5A
06/11/2014	01:01:50.012	$GPGGA,010150,2543.8843,N,08009.7283,W,1,9,1.5,13,M,,M,,*52
06/11/2014	01:01:50.964	$GPGGA,010151,2543.8842,N,08009.7282,W,1,9,1.5,13,M,,M,,*53
06/11/2014	01:01:52.163	$GPGGA,010152,2543.8843,N,08009.7281,W,1,9,1.5,13,M,,M,,*52
06/11/2014	01:01:53.113	$GPGGA,010153,2543.8842,N,08009.7281,W,1,9,1.5,13,M,,M,,*52
06/11/2014	01:01:54.268	$GPGGA,010154,2543.8843,N,08009.7281,W,1,9,1.5,13,M,,M,,*54
06/11/2014	01:01:55.230	$GPGGA,010155,2543.8844,N,08009.7281,W,1,9,1.5,13,M,,M,,*52
06/11/2014	01:01:56.407	$GPGGA,010156,2543.8844,N,08009.7281,W,1,9,1.5,13,M,,M,,*51
06/11/2014	01:01:57.486	$GPGGA,010157,2543.8844,N,08009.7281,W,1,9,1.5,13,M,,M,,*50
06/11/2014	01:01:58.534	$GPGGA,010158,2543.8844,N,08009.7281,W,1,9,1.5,13,M,,M,,*5F
06/11/2014	01:01:59.614	$GPGGA,010159,2543.8844,N,08009.7281,W,1,9,1.5,13,M,,M,,*5E
06/11/2014	01:02:00.683	$GPGGA,010200,2543.8844,N,08009.7281,W,1,9,1.5,13,M,,M,,*51
06/11/2014	01:02:01.742	$GPGGA,010201,2543.8844,N,08009.7281,W,1,9,1.5,13,M,,M,,*50
06/11/2014	01:02:02.800	$GPGGA,010202,2543.8844,N,08009.7281,W,1,9,1.5,13,M,,M,,*53
06/11/2014	01:02:03.891	$GPGGA,010203,2543.8844,N,08009.7281,W,1,9,1.5,13,M,,M,,*52
06/11/2014	01:02:04.949	$GPGGA,010204,2543.8844,N,08009.7281,W,1,9,1.5,13,M,,M,,*55
06/11/2014	01:02:06.018	$GPGGA,010205,2543.8844,N,08009.7281,W,1,9,1.5,12,M,,M,,*55
06/11/2014	01:02:07.062	$GPGGA,010206,2543.8844,N,08009.7280,W,1,9,1.5,12,M,,M,,*57
06/11/2014	01:02:08.166	$GPGGA,010207,2543.8846,N,08009.7281,W,1,9,1.5,12,M,,M,,*55
06/11/2014	01:02:10.700	$GPGGA,010209,2543.8846,N,08009.7281,W,1,9,1.5,12,M,,M,,*5B
06/11/2014	01:02:11.331	$GPGGA,010210,2543.8845,N,08009.7281,W,1,9,1.5,12,M,,M,,*50
06/11/2014	01:02:12.422	$GPGGA,010211,2543.8846,N,08009.7281,W,1,9,1.5,12,M,,M,,*52
06/11/2014	01:02:13.491	$GPGGA,010212,2543.8845,N,08009.7281,W,1,9,1.5,12,M,,M,,*52
06/11/2014	01:02:14.528	$GPGGA,010213,2543.8847,N,08009.7283,W,1,9,1.5,12,M,,M,,*53
06/11/2014	01:02:15.608	$GPGGA,010214,2543.8846,N,08009.7282,W,1,9,1.5,12,M,,M,,*54
06/11/2014	01:02:16.666	$GPGGA,010215,2543.8847,N,08009.7283,W,1,9,1.5,12,M,,M,,*55
06/11/2014	01:02:17.757	$GPGGA,010216,2543.8846,N,08009.7282,W,1,9,1.5,12,M,,M,,*56
06/11/2014	01:02:18.794	$GPGGA,010217,2543.8847,N,08009.7283,W,1,9,1.5,12,M,,M,,*57
06/11/2014	01:02:19.874	$GPGGA,010218,2543.8846,N,08009.7282,W,1,9,1.5,12,M,,M,,*58
06/11/2014	01:02:20.943	$GPGGA,010219,2543.8847,N,08009.7283,W,1,9,1.5,12,M,,M,,*59
06/11/2014	01:02:22.023	$GPGGA,010220,2543.8845,N,08009.7282,W,1,9,1.5,12,M,,M,,*50
06/11/2014	01:02:23.114	$GPGGA,010221,2543.8846,N,08009.7283,W,1,9,1.5,12,M,,M,,*53
06/11/2014	01:02:24.140	$GPGGA,010222,2543.8845,N,08009.7283,W,1,9,1.5,12,M,,M,,*53
06/11/2014	01:02:25.241	$GPGGA,010223,2543.8846,N,08009.7282,W,1,9,1.5,12,M,,M,,*50
06/11/2014	01:02:26.279	$GPGGA,010224,2543.8845,N,08009.7283,W,1,9,1.5,12,M,,M,,*55
06/11/2014	01:02:27.368	$GPGGA,010225,2543.8846,N,08009.7282,W,1,9,1.5,12,M,,M,,*56
06/11/2014	01:02:28.406	$GPGGA,010226,2543.8845,N,08009.7283,W,1,9,1.5,12,M,,M,,*57
06/11/2014	01:02:29.645	$GPGGA,010227,2543.8846,N,08009.7282,W,1,9,1.5,12,M,,M,,*54
06/11/2014	01:02:30.576	$GPGGA,010228,2543.8845,N,08009.7283,W,1,9,1.5,12,M,,M,,*59
06/11/2014	01:02:31.624	$GPGGA,010229,2543.8844,N,08009.7282,W,1,9,1.5,12,M,,M,,*58
06/11/2014	01:02:32.682	$GPGGA,010230,2543.8844,N,08009.7283,W,1,9,1.5,12,M,,M,,*51
06/11/2014	01:02:33.741	$GPGGA,010231,2543.8844,N,08009.7282,W,1,9,1.5,12,M,,M,,*51
06/11/2014	01:02:35.002	$GPGGA,010232,2543.8844,N,08009.7283,W,1,9,1.5,12,M,,M,,*53
06/11/2014	01:02:35.891	$GPGGA,010233,2543.8844,N,08009.7282,W,1,9,1.5,12,M,,M,,*53
06/11/2014	01:02:36.948	$GPGGA,010234,2543.8844,N,08009.7281,W,1,9,1.5,12,M,,M,,*57
06/11/2014	01:02:38.188	$GPGGA,010235,2543.8844,N,08009.7281,W,1,9,1.5,12,M,,M,,*56
06/11/2014	01:02:39.104	$GPGGA,010236,2543.8844,N,08009.7281,W,1,9,1.5,12,M,,M,,*55
06/11/2014	01:02:40.166	$GPGGA,010237,2543.8844,N,08009.7281,W,1,9,1.5,12,M,,M,,*54
06/11/2014	01:02:41.225	$GPGGA,010238,2543.8844,N,08009.7280,W,1,9,1.5,12,M,,M,,*5A
06/11/2014	01:02:42.273	$GPGGA,010239,2543.8844,N,08009.7280,W,1,9,1.5,12,M,,M,,*5B
06/11/2014	01:02:43.364	$GPGGA,010240,2543.8844,N,08009.7281,W,1,9,1.5,12,M,,M,,*54
06/11/2014	01:02:44.422	$GPGGA,010241,2543.8844,N,08009.7280,W,1,9,1.5,12,M,,M,,*54
06/11/2014	01:02:45.650	$GPGGA,010242,2543.8844,N,08009.7280,W,1,9,1.5,11,M,,M,,*54
06/11/2014	01:02:46.720	$GPGGA,010243,2543.8844,N,08009.7280,W,1,9,1.5,11,M,,M,,*55
06/11/2014	01:02:47.629	$GPGGA,010244,2543.8844,N,08009.7280,W,1,9,1.5,11,M,,M,,*52
06/11/2014	01:02:44.633	$GPGGA,010245,2543.8844,N,08009.7280,W,1,9,1.5,11,M,,M,,*53
06/11/2014	01:02:45.702	$GPGGA,010246,2543.8844,N,08009.7280,W,1,9,1.5,11,M,,M,,*50
06/11/2014	01:02:46.804	$GPGGA,010247,2543.8844,N,08009.7280,W,1,9,1.5,11,M,,M,,*51
06/11/2014	01:02:47.926	$GPGGA,010248,2543.8844,N,08009.7280,W,1,9,1.5,11,M,,M,,*5E
06/11/2014	01:02:48.963	$GPGGA,010249,2543.8844,N,08009.7279,W,1,9,1.5,11,M,,M,,*59
06/11/2014	01:02:49.968	$GPGGA,010250,2543.8844,N,08009.7280,W,1,9,1.5,11,M,,M,,*57
06/11/2014	01:02:51.070	$GPGGA,010251,2543.8844,N,08009.7279,W,1,9,1.5,11,M,,M,,*50
06/11/2014	01:02:52.203	$GPGGA,010252,2543.8844,N,08009.7280,W,1,9,1.5,11,M,,M,,*55
06/11/2014	01:02:53.165	$GPGGA,010253,2543.8844,N,08009.7278,W,1,9,1.5,11,M,,M,,*53
06/11/2014	01:02:54.288	$GPGGA,010254,2543.8844,N,08009.7279,W,1,9,1.5,11,M,,M,,*55
06/11/2014	01:02:55.347	$GPGGA,010255,2543.8844,N,08009.7278,W,1,9,1.5,11,M,,M,,*55
06/11/2014	01:02:56.469	$GPGGA,010256,2543.8844,N,08009.7279,W,1,9,1.5,11,M,,M,,*57
06/11/2014	01:02:57.485	$GPGGA,010257,2543.8844,N,08009.7278,W,1,9,1.5,11,M,,M,,*57
06/11/2014	01:02:58.555	$GPGGA,010258,2543.8844,N,08009.7279,W,1,9,1.5,11,M,,M,,*59
06/11/2014	01:02:59.623	$GPGGA,010259,2543.8846,N,08009.7277,W,1,9,1.5,11,M,,M,,*54
06/11/2014	01:03:00.724	$GPGGA,010300,2543.8845,N,08009.7277,W,1,9,1.5,11,M,,M,,*5A
06/11/2014	01:03:01.761	$GPGGA,010301,2543.8846,N,08009.7277,W,1,9,1.5,11,M,,M,,*58
06/11/2014	01:03:02.766	$GPGGA,010302,2543.8845,N,08009.7277,W,1,9,1.5,11,M,,M,,*58
06/11/2014	01:03:03.867	$GPGGA,010303,2543.8846,N,08009.7277,W,1,9,1.5,11,M,,M,,*5A
06/11/2014	01:03:05.000	$GPGGA,010304,2543.8845,N,08009.7277,W,1,9,1.5,11,M,,M,,*5E
06/11/2014	01:03:06.005	$GPGGA,010305,2543.8846,N,08009.7277,W,1,9,1.5,11,M,,M,,*5C
06/11/2014	01:03:07.107	$GPGGA,010306,2543.8845,N,08009.7277,W,1,9,1.5,11,M,,M,,*5C
06/11/2014	01:03:08.155	$GPGGA,010307,2543.8846,N,08009.7277,W,1,9,1.5,11,M,,M,,*5E
06/11/2014	01:03:09.256	$GPGGA,010308,2543.8844,N,08009.7276,W,1,9,1.5,11,M,,M,,*52
06/11/2014	01:03:10.239	$GPGGA,010309,2543.8844,N,08009.7277,W,1,9,1.5,11,M,,M,,*52
06/11/2014	01:03:11.373	$GPGGA,010310,2543.8844,N,08009.7276,W,1,9,1.5,11,M,,M,,*5B
06/11/2014	01:03:12.431	$GPGGA,010311,2543.8844,N,08009.7276,W,1,9,1.5,11,M,,M,,*5A
06/11/2014	01:03:13.511	$GPGGA,010312,2543.8844,N,08009.7276,W,1,9,1.5,11,M,,M,,*59
06/11/2014	01:03:14.559	$GPGGA,010313,2543.8842,N,08009.7276,W,1,9,1.5,11,M,,M,,*5E
06/11/2014	01:03:15.575	$GPGGA,010314,2543.8843,N,08009.7276,W,1,9,1.5,11,M,,M,,*58
06/11/2014	01:03:16.676	$GPGGA,010315,2543.8842,N,08009.7276,W,1,9,1.5,11,M,,M,,*58
06/11/2014	01:03:17.788	$GPGGA,010316,2543.8843,N,08009.7276,W,1,9,1.5,11,M,,M,,*5A
06/11/2014	01:03:18.813	$GPGGA,010317,2543.8842,N,08009.7276,W,1,9,1.5,11,M,,M,,*5A
06/11/2014	01:03:19.904	$GPGGA,010318,2543.8843,N,08009.7276,W,1,9,1.5,11,M,,M,,*54
06/11/2014	01:03:20.941	$GPGGA,010319,2543.8842,N,08009.7276,W,1,9,1.5,11,M,,M,,*54
06/11/2014	01:03:22.121	$GPGGA,010320,2543.8843,N,08009.7276,W,1,9,1.5,11,M,,M,,*5F
06/11/2014	01:03:23.177	$GPGGA,010321,2543.8842,N,08009.7276,W,1,9,1.5,11,M,,M,,*5F
06/11/2014	01:03:24.170	$GPGGA,010322,2543.8843,N,08009.7276,W,1,9,1.5,11,M,,M,,*5D
06/11/2014	01:03:25.282	$GPGGA,010323,2543.8842,N,08009.7276,W,1,9,1.5,11,M,,M,,*5D
06/11/2014	01:03:26.330	$GPGGA,010324,2543.8843,N,08009.7276,W,1,9,1.5,11,M,,M,,*5B
06/11/2014	01:03:27.447	$GPGGA,010325,2543.8842,N,08009.7276,W,1,9,1.5,11,M,,M,,*5B
06/11/2014	01:03:28.447	$GPGGA,010326,2543.8843,N,08009.7276,W,1,9,1.5,11,M,,M,,*59
06/11/2014	01:03:29.516	$GPGGA,010327,2543.8842,N,08009.7276,W,1,9,1.5,11,M,,M,,*59
06/11/2014	01:03:30.628	$GPGGA,010328,2543.8843,N,08009.7277,W,1,9,1.5,11,M,,M,,*56
06/11/2014	01:03:31.633	$GPGGA,010329,2543.8842,N,08009.7276,W,1,9,1.5,11,M,,M,,*57
06/11/2014	01:03:32.756	$GPGGA,010330,2543.8843,N,08009.7276,W,1,9,1.5,11,M,,M,,*5E
06/11/2014	01:03:33.825	$GPGGA,010331,2543.8842,N,08009.7276,W,1,9,1.5,11,M,,M,,*5E
06/11/2014	01:03:34.905	$GPGGA,010332,2543.8843,N,08009.7276,W,1,9,1.5,11,M,,M,,*5C
06/11/2014	01:03:35.921	$GPGGA,010333,2543.8842,N,08009.7276,W,1,9,1.5,11,M,,M,,*5C
06/11/2014	01:03:37.033	$GPGGA,010334,2543.8844,N,08009.7276,W,1,9,1.5,11,M,,M,,*5D
06/11/2014	01:03:38.111	$GPGGA,010335,2543.8844,N,08009.7276,W,1,9,1.5,11,M,,M,,*5C
06/11/2014	01:03:39.181	$GPGGA,010336,2543.8844,N,08009.7276,W,1,9,1.5,11,M,,M,,*5F
06/11/2014	01:03:40.271	$GPGGA,010337,2543.8844,N,08009.7276,W,1,9,1.5,11,M,,M,,*5E
06/11/2014	01:03:41.287	$GPGGA,010338,2543.8844,N,08009.7276,W,1,9,1.5,11,M,,M,,*51
06/11/2014	01:03:42.388	$GPGGA,010339,2543.8844,N,08009.7275,W,1,9,1.5,11,M,,M,,*53
06/11/2014	01:03:43.457	$GPGGA,010340,2543.8844,N,08009.7276,W,1,9,1.5,11,M,,M,,*5E
06/11/2014	01:03:44.494	$GPGGA,010341,2543.8846,N,08009.7275,W,1,9,1.5,11,M,,M,,*5E
06/11/2014	01:03:45.564	$GPGGA,010342,2543.8845,N,08009.7276,W,1,9,1.5,11,M,,M,,*5D
06/11/2014	01:03:46.654	$GPGGA,010343,2543.8846,N,08009.7274,W,1,9,1.5,11,M,,M,,*5D
06/11/2014	01:03:43.559	$GPGGA,010344,2543.8845,N,08009.7274,W,1,9,1.5,11,M,,M,,*59
06/11/2014	01:03:44.585	$GPGGA,010345,2543.8846,N,08009.7274,W,1,9,1.5,11,M,,M,,*5B
06/11/2014	01:03:45.581	$GPGGA,010346,2543.8845,N,08009.7273,W,1,9,2.0,11,M,,M,,*5A
06/11/2014	01:03:46.638	$GPGGA,010347,2543.8846,N,08009.7272,W,1,8,2.0,11,M,,M,,*58
06/11/2014	01:03:47.665	$GPGGA,010348,2543.8847,N,08009.7271,W,1,8,2.0,11,M,,M,,*55
06/11/2014	01:03:48.681	$GPGGA,010349,2543.8846,N,08009.7270,W,1,8,2.0,11,M,,M,,*54
06/11/2014	01:03:49.687	$GPGGA,010350,2543.8847,N,08009.7269,W,1,8,2.0,11,M,,M,,*55
06/11/2014	01:03:50.754	$GPGGA,010351,2543.8848,N,08009.7268,W,1,8,2.0,11,M,,M,,*5A
06/11/2014	01:03:51.759	$GPGGA,010352,2543.8846,N,08009.7267,W,1,8,2.0,10,M,,M,,*59
06/11/2014	01:03:52.786	$GPGGA,010353,2543.8848,N,08009.7266,W,1,8,2.0,10,M,,M,,*57
06/11/2014	01:03:53.802	$GPGGA,010354,2543.8846,N,08009.7267,W,1,8,1.5,10,M,,M,,*59
06/11/2014	01:03:54.818	$GPGGA,010355,2543.8845,N,08009.7269,W,1,9,1.5,10,M,,M,,*54
06/11/2014	01:03:55.865	$GPGGA,010356,2543.8844,N,08009.7269,W,1,9,1.5,10,M,,M,,*56
06/11/2014	01:03:56.892	$GPGGA,010357,2543.8844,N,08009.7270,W,1,9,1.5,10,M,,M,,*5F
06/11/2014	01:03:57.898	$GPGGA,010358,2543.8844,N,08009.7272,W,1,9,1.5,10,M,,M,,*52
06/11/2014	01:03:58.934	$GPGGA,010359,2543.8844,N,08009.7272,W,1,9,1.5,10,M,,M,,*53
06/11/2014	01:03:59.992	$GPGGA,010400,2543.8842,N,08009.7272,W,1,9,1.5,10,M,,M,,*5E
06/11/2014	01:04:00.957	$GPGGA,010401,2543.8841,N,08009.7273,W,1,9,1.5,10,M,,M,,*5D
06/11/2014	01:04:02.004	$GPGGA,010402,2543.8842,N,08009.7273,W,1,9,1.5,10,M,,M,,*5D
06/11/2014	01:04:03.040	$GPGGA,010403,2543.8840,N,08009.7273,W,1,9,1.5,10,M,,M,,*5E
06/11/2014	01:04:04.053	$GPGGA,010404,2543.8840,N,08009.7273,W,1,9,1.5,10,M,,M,,*59
06/11/2014	01:04:05.076	$GPGGA,010405,2543.8840,N,08009.7274,W,1,9,1.5,10,M,,M,,*5F
06/11/2014	01:04:06.113	$GPGGA,010406,2543.8839,N,08009.7276,W,1,9,1.5,10,M,,M,,*50
06/11/2014	01:04:07.150	$GPGGA,010407,2543.8840,N,08009.7275,W,1,9,1.5,10,M,,M,,*5C
06/11/2014	01:04:08.183	$GPGGA,010408,2543.8838,N,08009.7276,W,1,9,1.5,10,M,,M,,*5F
06/11/2014	01:04:09.159	$GPGGA,010409,2543.8837,N,08009.7276,W,1,9,1.5,10,M,,M,,*51
06/11/2014	01:04:10.301	$GPGGA,010410,2543.8837,N,08009.7277,W,1,9,1.5,10,M,,M,,*58
06/11/2014	01:04:11.328	$GPGGA,010411,2543.8837,N,08009.7279,W,1,9,1.5,10,M,,M,,*57
06/11/2014	01:04:12.247	$GPGGA,010412,2543.8837,N,08009.7279,W,1,9,1.5,10,M,,M,,*54
06/11/2014	01:04:13.243	$GPGGA,010413,2543.8836,N,08009.7280,W,1,9,1.5,10,M,,M,,*52
06/11/2014	01:04:14.269	$GPGGA,010414,2543.8835,N,08009.7280,W,1,9,1.5,10,M,,M,,*56
06/11/2014	01:04:15.296	$GPGGA,010415,2543.8834,N,08009.7280,W,1,9,1.5,10,M,,M,,*56
06/11/2014	01:04:16.343	$GPGGA,010416,2543.8834,N,08009.7280,W,1,9,1.5,11,M,,M,,*54
06/11/2014	01:04:17.441	$GPGGA,010417,2543.8833,N,08009.7281,W,1,9,1.5,11,M,,M,,*53
06/11/2014	01:04:18.478	$GPGGA,010418,2543.8833,N,08009.7281,W,1,9,1.5,11,M,,M,,*5C
06/11/2014	01:04:19.505	$GPGGA,010419,2543.8833,N,08009.7283,W,1,9,1.5,11,M,,M,,*5F
06/11/2014	01:04:20.480	$GPGGA,010420,2543.8833,N,08009.7283,W,1,9,1.5,11,M,,M,,*55
06/11/2014	01:04:21.579	$GPGGA,010421,2543.8833,N,08009.7283,W,1,9,1.5,11,M,,M,,*54
06/11/2014	01:04:22.584	$GPGGA,010422,2543.8833,N,08009.7282,W,1,9,1.5,11,M,,M,,*56
06/11/2014	01:04:23.590	$GPGGA,010423,2543.8833,N,08009.7283,W,1,9,1.5,11,M,,M,,*56
06/11/2014	01:04:24.637	$GPGGA,010424,2543.8833,N,08009.7282,W,1,9,1.5,11,M,,M,,*50
06/11/2014	01:04:25.674	$GPGGA,010425,2543.8833,N,08009.7283,W,1,9,1.5,11,M,,M,,*50
06/11/2014	01:04:26.659	$GPGGA,010426,2543.8833,N,08009.7283,W,1,9,1.5,11,M,,M,,*53
06/11/2014	01:04:27.705	$GPGGA,010427,2543.8833,N,08009.7283,W,1,9,1.5,11,M,,M,,*52
06/11/2014	01:04:28.732	$GPGGA,010428,2543.8833,N,08009.7283,W,1,9,1.5,11,M,,M,,*5D
06/11/2014	01:04:29.738	$GPGGA,010429,2543.8833,N,08009.7283,W,1,9,1.5,11,M,,M,,*5C
06/11/2014	01:04:30.764	$GPGGA,010430,2543.8833,N,08009.7283,W,1,9,1.5,11,M,,M,,*54
06/11/2014	01:04:31.811	$GPGGA,010431,2543.8833,N,08009.7283,W,1,9,1.5,11,M,,M,,*55
06/11/2014	01:04:32.838	$GPGGA,010432,2543.8833,N,08009.7283,W,1,9,1.5,11,M,,M,,*56
06/11/2014	01:04:33.854	$GPGGA,010433,2543.8833,N,08009.7283,W,1,9,1.5,11,M,,M,,*57
06/11/2014	01:04:34.860	$GPGGA,010434,2543.8833,N,08009.7283,W,1,9,1.5,11,M,,M,,*50
06/11/2014	01:04:35.907	$GPGGA,010435,2543.8833,N,08009.7283,W,1,9,1.5,11,M,,M,,*51
06/11/2014	01:04:36.933	$GPGGA,010436,2543.8833,N,08009.7283,W,1,9,1.5,11,M,,M,,*52
06/11/2014	01:04:37.980	$GPGGA,010437,2543.8833,N,08009.7283,W,1,9,1.5,11,M,,M,,*53
06/11/2014	01:04:38.976	$GPGGA,010438,2543.8833,N,08009.7283,W,1,9,1.5,11,M,,M,,*5C
06/11/2014	01:04:39.982	$GPGGA,010439,2543.8833,N,08009.7283,W,1,9,1.5,11,M,,M,,*5D
06/11/2014	01:04:41.029	$GPGGA,010440,2543.8833,N,08009.7283,W,1,9,1.5,11,M,,M,,*53
06/11/2014	01:04:42.066	$GPGGA,010441,2543.8833,N,08009.7283,W,1,9,1.5,11,M,,M,,*52
06/11/2014	01:04:43.058	$GPGGA,010442,2543.8833,N,08009.7283,W,1,9,1.5,11,M,,M,,*51
06/11/2014	01:04:44.109	$GPGGA,010443,2543.8833,N,08009.7283,W,1,9,1.5,11,M,,M,,*50
06/11/2014	01:04:43.552	$GPGGA,010444,2543.8833,N,08009.7283,W,1,9,1.5,11,M,,M,,*57
06/11/2014	01:04:44.542	$GPGGA,010445,2543.8833,N,08009.7283,W,1,9,1.5,11,M,,M,,*56
06/11/2014	01:04:45.579	$GPGGA,010446,2543.8833,N,08009.7283,W,1,9,1.5,12,M,,M,,*56
06/11/2014	01:04:46.585	$GPGGA,010447,2543.8833,N,08009.7283,W,1,9,1.5,12,M,,M,,*57
06/11/2014	01:04:47.632	$GPGGA,010448,2543.8835,N,08009.7282,W,1,9,1.5,12,M,,M,,*5F
06/11/2014	01:04:48.648	$GPGGA,010449,2543.8834,N,08009.7283,W,1,9,1.5,12,M,,M,,*5E
06/11/2014	01:04:49.664	$GPGGA,010450,2543.8835,N,08009.7282,W,1,9,1.5,12,M,,M,,*56
06/11/2014	01:04:50.711	$GPGGA,010451,2543.8836,N,08009.7283,W,1,9,1.5,12,M,,M,,*55
06/11/2014	01:04:51.727	$GPGGA,010452,2543.8835,N,08009.7282,W,1,9,1.5,12,M,,M,,*54
06/11/2014	01:04:52.764	$GPGGA,010453,2543.8836,N,08009.7283,W,1,9,1.5,12,M,,M,,*57
06/11/2014	01:04:53.770	$GPGGA,010454,2543.8837,N,08009.7282,W,1,9,1.5,12,M,,M,,*50
06/11/2014	01:04:54.902	$GPGGA,010455,2543.8837,N,08009.7283,W,1,9,1.5,12,M,,M,,*50
06/11/2014	01:04:55.833	$GPGGA,010456,2543.8837,N,08009.7282,W,1,9,1.5,12,M,,M,,*52
06/11/2014	01:04:56.850	$GPGGA,010457,2543.8837,N,08009.7283,W,1,9,1.5,12,M,,M,,*52
06/11/2014	01:04:57.869	$GPGGA,010458,2543.8837,N,08009.7282,W,1,9,1.5,12,M,,M,,*5C
06/11/2014	01:04:58.987	$GPGGA,010459,2543.8837,N,08009.7283,W,1,9,1.5,12,M,,M,,*5C
06/11/2014	01:04:59.950	$GPGGA,010500,2543.8837,N,08009.7282,W,1,9,1.5,12,M,,M,,*50
06/11/2014	01:05:00.948	$GPGGA,010501,2543.8837,N,08009.7283,W,1,9,1.5,12,M,,M,,*50
06/11/2014	01:05:02.053	$GPGGA,010502,2543.8839,N,08009.7282,W,1,9,1.5,12,M,,M,,*5C
06/11/2014	01:05:03.112	$GPGGA,010503,2543.8838,N,08009.7283,W,1,9,1.5,12,M,,M,,*5D
06/11/2014	01:05:04.031	$GPGGA,010504,2543.8839,N,08009.7282,W,1,9,1.5,12,M,,M,,*5A
06/11/2014	01:05:05.041	$GPGGA,010505,2543.8838,N,08009.7283,W,1,9,1.5,12,M,,M,,*5B
06/11/2014	01:05:06.169	$GPGGA,010506,2543.8840,N,08009.7282,W,1,9,1.5,12,M,,M,,*56
06/11/2014	01:05:07.093	$GPGGA,010507,2543.8839,N,08009.7283,W,1,9,1.5,12,M,,M,,*58
06/11/2014	01:05:08.131	$GPGGA,010508,2543.8840,N,08009.7282,W,1,9,1.5,12,M,,M,,*58
06/11/2014	01:05:09.228	$GPGGA,010509,2543.8839,N,08009.7283,W,1,9,1.5,12,M,,M,,*56
06/11/2014	01:05:10.173	$GPGGA,010510,2543.8840,N,08009.7282,W,1,9,1.5,12,M,,M,,*51
06/11/2014	01:05:11.302	$GPGGA,010511,2543.8840,N,08009.7281,W,1,9,1.5,12,M,,M,,*53
06/11/2014	01:05:12.318	$GPGGA,010512,2543.8840,N,08009.7281,W,1,9,1.5,12,M,,M,,*50
06/11/2014	01:05:13.334	$GPGGA,010513,2543.8840,N,08009.7281,W,1,9,1.5,12,M,,M,,*51
06/11/2014	01:05:14.350	$GPGGA,010514,2543.8840,N,08009.7281,W,1,9,1.5,12,M,,M,,*56
06/11/2014	01:05:15.408	$GPGGA,010515,2543.8840,N,08009.7280,W,1,9,1.5,12,M,,M,,*56
06/11/2014	01:05:16.414	$GPGGA,010516,2543.8840,N,08009.7280,W,1,9,1.5,12,M,,M,,*55
06/11/2014	01:05:17.420	$GPGGA,010517,2543.8842,N,08009.7280,W,1,9,1.5,12,M,,M,,*56
06/11/2014	01:05:18.456	$GPGGA,010518,2543.8841,N,08009.7279,W,1,9,1.5,12,M,,M,,*5C
06/11/2014	01:05:19.493	$GPGGA,010519,2543.8842,N,08009.7280,W,1,9,1.5,12,M,,M,,*58
06/11/2014	01:05:20.519	$GPGGA,010520,2543.8841,N,08009.7279,W,1,9,1.5,12,M,,M,,*57
06/11/2014	01:05:21.526	$GPGGA,010521,2543.8842,N,08009.7278,W,1,9,1.5,12,M,,M,,*54
06/11/2014	01:05:22.541	$GPGGA,010522,2543.8841,N,08009.7279,W,1,9,1.5,12,M,,M,,*55
06/11/2014	01:05:23.598	$GPGGA,010523,2543.8842,N,08009.7280,W,1,9,1.5,12,M,,M,,*51
06/11/2014	01:05:24.614	$GPGGA,010524,2543.8841,N,08009.7278,W,1,9,1.5,12,M,,M,,*52
06/11/2014	01:05:25.641	$GPGGA,010525,2543.8842,N,08009.7279,W,1,9,1.5,12,M,,M,,*51
06/11/2014	01:05:26.657	$GPGGA,010526,2543.8841,N,08009.7278,W,1,9,1.5,12,M,,M,,*50
06/11/2014	01:05:27.663	$GPGGA,010527,2543.8843,N,08009.7279,W,1,9,1.5,12,M,,M,,*52
06/11/2014	01:05:28.710	$GPGGA,010528,2543.8842,N,08009.7280,W,1,9,1.5,11,M,,M,,*59
06/11/2014	01:05:29.716	$GPGGA,010529,2543.8843,N,08009.7278,W,1,9,1.5,11,M,,M,,*5E
06/11/2014	01:05:30.743	$GPGGA,010530,2543.8844,N,08009.7280,W,1,9,1.5,11,M,,M,,*56
06/11/2014	01:05:31.800	$GPGGA,010531,2543.8844,N,08009.7279,W,1,9,1.5,11,M,,M,,*51
06/11/2014	01:05:32.816	$GPGGA,010532,2543.8844,N,08009.7280,W,1,9,1.5,11,M,,M,,*54
06/11/2014	01:05:33.812	$GPGGA,010533,2543.8844,N,08009.7279,W,1,9,1.5,11,M,,M,,*53
06/11/2014	01:05:34.849	$GPGGA,010534,2543.8844,N,08009.7280,W,1,9,1.5,11,M,,M,,*52
06/11/2014	01:05:35.906	$GPGGA,010535,2543.8844,N,08009.7280,W,1,9,1.5,11,M,,M,,*53
06/11/2014	01:05:36.902	$GPGGA,010536,2543.8844,N,08009.7279,W,1,9,1.5,11,M,,M,,*56
06/11/2014	01:05:37.907	$GPGGA,010537,2543.8844,N,08009.7280,W,1,9,1.5,11,M,,M,,*51
06/11/2014	01:05:38.943	$GPGGA,010538,2543.8844,N,08009.7280,W,1,9,1.5,11,M,,M,,*5E
06/11/2014	01:05:40.001	$GPGGA,010539,2543.8844,N,08009.7280,W,1,9,1.5,11,M,,M,,*5F
06/11/2014	01:05:41.007	$GPGGA,010540,2543.8844,N,08009.7280,W,1,9,1.5,11,M,,M,,*51
06/11/2014	01:05:42.043	$GPGGA,010541,2543.8844,N,08009.7279,W,1,9,1.5,11,M,,M,,*56
06/11/2014	01:05:43.068	$GPGGA,010542,2543.8844,N,08009.7280,W,1,9,1.5,11,M,,M,,*53
06/11/2014	01:05:44.081	$GPGGA,010543,2543.8844,N,08009.7279,W,1,9,1.5,11,M,,M,,*54
06/11/2014	01:05:43.540	$GPGGA,010544,2543.8844,N,08009.7280,W,1,9,1.5,11,M,,M,,*55
06/11/2014	01:05:44.540	$GPGGA,010545,2543.8844,N,08009.7279,W,1,9,1.5,11,M,,M,,*52
06/11/2014	01:05:45.547	$GPGGA,010546,2543.8844,N,08009.7280,W,1,9,1.5,11,M,,M,,*57
06/11/2014	01:05:46.573	$GPGGA,010547,2543.8844,N,08009.7279,W,1,9,1.5,11,M,,M,,*50
06/11/2014	01:05:47.732	$GPGGA,010548,2543.8844,N,08009.7280,W,1,9,1.5,11,M,,M,,*59
06/11/2014	01:05:48.728	$GPGGA,010549,2543.8844,N,08009.7279,W,1,9,1.5,11,M,,M,,*5E
06/11/2014	01:05:49.653	$GPGGA,010550,2543.8844,N,08009.7280,W,1,9,1.5,11,M,,M,,*50
06/11/2014	01:05:50.771	$GPGGA,010551,2543.8844,N,08009.7279,W,1,9,1.5,11,M,,M,,*57
06/11/2014	01:05:51.725	$GPGGA,010552,2543.8846,N,08009.7280,W,1,9,1.5,11,M,,M,,*50
06/11/2014	01:05:52.844	$GPGGA,010553,2543.8845,N,08009.7279,W,1,9,1.5,11,M,,M,,*54
06/11/2014	01:05:53.840	$GPGGA,010554,2543.8846,N,08009.7280,W,1,9,1.5,11,M,,M,,*56
06/11/2014	01:05:54.865	$GPGGA,010555,2543.8845,N,08009.7279,W,1,9,1.5,11,M,,M,,*52
06/11/2014	01:05:55.811	$GPGGA,010556,2543.8846,N,08009.7280,W,1,9,1.5,11,M,,M,,*54
06/11/2014	01:05:56.929	$GPGGA,010557,2543.8847,N,08009.7279,W,1,9,1.5,11,M,,M,,*52
06/11/2014	01:05:57.935	$GPGGA,010558,2543.8846,N,08009.7280,W,1,9,1.5,11,M,,M,,*5A
06/11/2014	01:05:58.961	$GPGGA,010559,2543.8847,N,08009.7279,W,1,9,1.5,11,M,,M,,*5C
06/11/2014	01:06:00.008	$GPGGA,010600,2543.8846,N,08009.7280,W,1,9,1.5,11,M,,M,,*54
06/11/2014	01:06:01.014	$GPGGA,010601,2543.8848,N,08009.7278,W,1,9,1.5,11,M,,M,,*5C
06/11/2014	01:06:02.030	$GPGGA,010602,2543.8848,N,08009.7280,W,1,9,1.5,11,M,,M,,*58
06/11/2014	01:06:03.077	$GPGGA,010603,2543.8848,N,08009.7279,W,1,9,1.5,11,M,,M,,*5F
06/11/2014	01:06:04.105	$GPGGA,010604,2543.8848,N,08009.7280,W,1,9,1.5,12,M,,M,,*5D
06/11/2014	01:06:05.130	$GPGGA,010605,2543.8848,N,08009.7279,W,1,9,1.5,12,M,,M,,*5A
06/11/2014	01:06:06.136	$GPGGA,010606,2543.8848,N,08009.7280,W,1,9,1.5,12,M,,M,,*5F
06/11/2014	01:06:07.163	$GPGGA,010607,2543.8848,N,08009.7279,W,1,9,1.5,12,M,,M,,*58
06/11/2014	01:06:08.200	$GPGGA,010608,2543.8848,N,08009.7280,W,1,9,1.5,12,M,,M,,*51
06/11/2014	01:06:09.227	$GPGGA,010609,2543.8850,N,08009.7279,W,1,9,1.5,12,M,,M,,*5F
06/11/2014	01:06:10.222	$GPGGA,010610,2543.8849,N,08009.7280,W,1,9,1.5,12,M,,M,,*59
06/11/2014	01:06:11.269	$GPGGA,010611,2543.8850,N,08009.7280,W,1,9,1.5,12,M,,M,,*50
06/11/2014	01:06:12.325	$GPGGA,010612,2543.8849,N,08009.7280,W,1,9,1.5,12,M,,M,,*5B
06/11/2014	01:06:13.331	$GPGGA,010613,2543.8850,N,08009.7279,W,1,9,1.5,12,M,,M,,*54
06/11/2014	01:06:14.317	$GPGGA,010614,2543.8851,N,08009.7280,W,1,9,1.5,12,M,,M,,*54
06/11/2014	01:06:15.374	$GPGGA,010615,2543.8850,N,08009.7279,W,1,9,1.5,12,M,,M,,*52
06/11/2014	01:06:16.400	$GPGGA,010616,2543.8851,N,08009.7280,W,1,9,1.5,12,M,,M,,*56
06/11/2014	01:06:17.447	$GPGGA,010617,2543.8850,N,08009.7279,W,1,9,1.5,12,M,,M,,*50
06/11/2014	01:06:18.433	$GPGGA,010618,2543.8851,N,08009.7280,W,1,9,1.5,12,M,,M,,*58
06/11/2014	01:06:19.449	$GPGGA,010619,2543.8850,N,08009.7280,W,1,9,1.5,12,M,,M,,*58
06/11/2014	01:06:20.496	$GPGGA,010620,2543.8851,N,08009.7281,W,1,9,1.5,12,M,,M,,*52
06/11/2014	01:06:21.512	$GPGGA,010621,2543.8851,N,08009.7281,W,1,9,1.5,13,M,,M,,*52
06/11/2014	01:06:22.529	$GPGGA,010622,2543.8851,N,08009.7281,W,1,9,1.5,13,M,,M,,*51
06/11/2014	01:06:23.576	$GPGGA,010623,2543.8851,N,08009.7281,W,1,9,1.5,13,M,,M,,*50
06/11/2014	01:06:24.592	$GPGGA,010624,2543.8851,N,08009.7281,W,1,9,1.5,13,M,,M,,*57
06/11/2014	01:06:25.588	$GPGGA,010625,2543.8851,N,08009.7281,W,1,9,1.5,13,M,,M,,*56
06/11/2014	01:06:26.635	$GPGGA,010626,2543.8851,N,08009.7281,W,1,9,1.5,13,M,,M,,*55
06/11/2014	01:06:27.764	$GPGGA,010627,2543.8851,N,08009.7281,W,1,9,1.5,13,M,,M,,*54
06/11/2014	01:06:28.688	$GPGGA,010628,2543.8851,N,08009.7281,W,1,9,1.5,13,M,,M,,*5B
06/11/2014	01:06:29.725	$GPGGA,010629,2543.8851,N,08009.7283,W,1,9,1.5,13,M,,M,,*58
06/11/2014	01:06:30.719	$GPGGA,010630,2543.8851,N,08009.7282,W,1,9,1.5,13,M,,M,,*51
06/11/2014	01:06:31.756	$GPGGA,010631,2543.8851,N,08009.7283,W,1,9,1.5,13,M,,M,,*51
06/11/2014	01:06:32.772	$GPGGA,010632,2543.8851,N,08009.7282,W,1,9,1.5,13,M,,M,,*53
06/11/2014	01:06:33.788	$GPGGA,010633,2543.8851,N,08009.7283,W,1,9,1.5,13,M,,M,,*53
06/11/2014	01:06:34.938	$GPGGA,010634,2543.8851,N,08009.7282,W,1,9,1.5,14,M,,M,,*52
06/11/2014	01:06:35.831	$GPGGA,010635,2543.8851,N,08009.7283,W,1,9,1.5,14,M,,M,,*52
06/11/2014	01:06:36.888	$GPGGA,010636,2543.8850,N,08009.7282,W,1,9,1.5,14,M,,M,,*51
06/11/2014	01:06:37.894	$GPGGA,010637,2543.8851,N,08009.7283,W,1,9,1.5,14,M,,M,,*50
06/11/2014	01:06:39.013	$GPGGA,010638,2543.8850,N,08009.7282,W,1,9,1.5,14,M,,M,,*5F
06/11/2014	01:06:40.079	$GPGGA,010639,2543.8851,N,08009.7283,W,1,9,1.5,14,M,,M,,*5E
06/11/2014	01:06:41.097	$GPGGA,010640,2543.8850,N,08009.7282,W,1,9,1.5,14,M,,M,,*50
06/11/2014	01:06:41.991	$GPGGA,010641,2543.8849,N,08009.7283,W,1,9,1.5,14,M,,M,,*58
06/11/2014	01:06:43.109	$GPGGA,010642,2543.8850,N,08009.7282,W,1,9,1.5,14,M,,M,,*52
06/11/2014	01:06:44.033	$GPGGA,010643,2543.8849,N,08009.7283,W,1,9,1.5,14,M,,M,,*5A
06/11/2014	01:06:43.524	$GPGGA,010644,2543.8850,N,08009.7282,W,1,9,1.5,14,M,,M,,*54
06/11/2014	01:06:44.508	$GPGGA,010645,2543.8849,N,08009.7283,W,1,9,1.5,15,M,,M,,*5D
06/11/2014	01:06:45.617	$GPGGA,010646,2543.8850,N,08009.7282,W,1,9,1.5,15,M,,M,,*57
06/11/2014	01:06:46.684	$GPGGA,010647,2543.8851,N,08009.7283,W,1,9,1.5,15,M,,M,,*56
06/11/2014	01:06:47.690	$GPGGA,010648,2543.8850,N,08009.7281,W,1,9,1.5,15,M,,M,,*5A
06/11/2014	01:06:48.695	$GPGGA,010649,2543.8851,N,08009.7281,W,1,9,1.5,15,M,,M,,*5A
06/11/2014	01:06:49.722	$GPGGA,010650,2543.8850,N,08009.7281,W,1,9,1.5,15,M,,M,,*53
06/11/2014	01:06:50.779	$GPGGA,010651,2543.8851,N,08009.7281,W,1,9,1.5,15,M,,M,,*53
06/11/2014	01:06:51.785	$GPGGA,010652,2543.8850,N,08009.7281,W,1,9,1.5,15,M,,M,,*51
06/11/2014	01:06:52.811	$GPGGA,010653,2543.8851,N,08009.7281,W,1,9,1.5,15,M,,M,,*51
06/11/2014	01:06:53.828	$GPGGA,010654,2543.8850,N,08009.7281,W,1,9,1.5,15,M,,M,,*57
06/11/2014	01:06:54.833	$GPGGA,010655,2543.8851,N,08009.7281,W,1,9,1.5,15,M,,M,,*57
06/11/2014	01:06:55.881	$GPGGA,010656,2543.8850,N,08009.7281,W,1,9,1.5,15,M,,M,,*55
06/11/2014	01:06:56.917	$GPGGA,010657,2543.8851,N,08009.7281,W,1,9,1.5,15,M,,M,,*55
06/11/2014	01:06:57.913	$GPGGA,010658,2543.8850,N,08009.7280,W,1,9,1.5,15,M,,M,,*5A
06/11/2014	01:06:58.961	$GPGGA,010659,2543.8851,N,08009.7280,W,1,9,1.5,15,M,,M,,*5A
06/11/2014	01:06:59.987	$GPGGA,010700,2543.8850,N,08009.7281,W,1,9,1.5,15,M,,M,,*57
06/11/2014	01:07:01.013	$GPGGA,010701,2543.8851,N,08009.7281,W,1,9,1.5,15,M,,M,,*57
06/11/2014	01:07:02.009	$GPGGA,010702,2543.8850,N,08009.7281,W,1,9,1.5,15,M,,M,,*55
06/11/2014	01:07:03.056	$GPGGA,010703,2543.8851,N,08009.7281,W,1,9,1.5,15,M,,M,,*55
06/11/2014	01:07:04.082	$GPGGA,010704,2543.8851,N,08009.7281,W,1,9,1.5,15,M,,M,,*52
06/11/2014	01:07:05.108	$GPGGA,010705,2543.8850,N,08009.7281,W,1,9,1.5,15,M,,M,,*52
06/11/2014	01:07:06.108	$GPGGA,010706,2543.8851,N,08009.7281,W,1,9,1.5,15,M,,M,,*50
06/11/2014	01:07:07.143	$GPGGA,010707,2543.8850,N,08009.7283,W,1,9,1.5,15,M,,M,,*52
06/11/2014	01:07:08.177	$GPGGA,010708,2543.8851,N,08009.7282,W,1,9,1.5,15,M,,M,,*5D
06/11/2014	01:07:09.203	$GPGGA,010709,2543.8850,N,08009.7283,W,1,9,1.5,15,M,,M,,*5C
06/11/2014	01:07:10.220	$GPGGA,010710,2543.8851,N,08009.7282,W,1,9,1.5,15,M,,M,,*54
06/11/2014	01:07:11.226	$GPGGA,010711,2543.8850,N,08009.7283,W,1,9,1.5,15,M,,M,,*55
06/11/2014	01:07:12.283	$GPGGA,010712,2543.8851,N,08009.7282,W,1,9,1.5,15,M,,M,,*56
06/11/2014	01:07:13.320	$GPGGA,010713,2543.8850,N,08009.7283,W,1,9,1.5,15,M,,M,,*57
06/11/2014	01:07:14.336	$GPGGA,010714,2543.8851,N,08009.7283,W,1,9,1.5,15,M,,M,,*51
06/11/2014	01:07:15.342	$GPGGA,010715,2543.8850,N,08009.7283,W,1,9,1.5,15,M,,M,,*51
06/11/2014	01:07:16.379	$GPGGA,010716,2543.8851,N,08009.7283,W,1,9,1.5,15,M,,M,,*53
06/11/2014	01:07:17.426	$GPGGA,010717,2543.8850,N,08009.7283,W,1,9,1.5,15,M,,M,,*53
06/11/2014	01:07:18.411	$GPGGA,010718,2543.8851,N,08009.7283,W,1,9,1.5,15,M,,M,,*5D
06/11/2014	01:07:19.468	$GPGGA,010719,2543.8850,N,08009.7283,W,1,9,1.5,15,M,,M,,*5D
06/11/2014	01:07:20.464	$GPGGA,010720,2543.8851,N,08009.7283,W,1,9,1.5,15,M,,M,,*56
06/11/2014	01:07:21.470	$GPGGA,010721,2543.8850,N,08009.7283,W,1,9,1.5,15,M,,M,,*56
06/11/2014	01:07:22.516	$GPGGA,010722,2543.8851,N,08009.7283,W,1,9,1.5,15,M,,M,,*54
06/11/2014	01:07:23.522	$GPGGA,010723,2543.8850,N,08009.7283,W,1,9,1.5,15,M,,M,,*54
06/11/2014	01:07:24.569	$GPGGA,010724,2543.8849,N,08009.7283,W,1,9,1.5,15,M,,M,,*5B
06/11/2014	01:07:25.585	$GPGGA,010725,2543.8850,N,08009.7283,W,1,9,1.5,15,M,,M,,*52
06/11/2014	01:07:26.612	$GPGGA,010726,2543.8849,N,08009.7282,W,1,9,1.5,15,M,,M,,*58
06/11/2014	01:07:27.762	$GPGGA,010727,2543.8850,N,08009.7283,W,1,9,1.5,15,M,,M,,*50
06/11/2014	01:07:28.655	$GPGGA,010728,2543.8849,N,08009.7281,W,1,9,1.5,15,M,,M,,*55
06/11/2014	01:07:29.671	$GPGGA,010729,2543.8850,N,08009.7283,W,1,9,1.5,15,M,,M,,*5E
06/11/2014	01:07:30.812	$GPGGA,010730,2543.8849,N,08009.7282,W,1,9,1.5,15,M,,M,,*5F
06/11/2014	01:07:31.826	$GPGGA,010731,2543.8850,N,08009.7283,W,1,9,1.5,15,M,,M,,*57
06/11/2014	01:07:32.750	$GPGGA,010732,2543.8849,N,08009.7282,W,1,9,1.5,15,M,,M,,*5D
06/11/2014	01:07:33.879	$GPGGA,010733,2543.8850,N,08009.7281,W,1,9,1.5,15,M,,M,,*57
06/11/2014	01:07:34.896	$GPGGA,010734,2543.8849,N,08009.7281,W,1,9,1.5,15,M,,M,,*58
06/11/2014	01:07:35.946	$GPGGA,010735,2543.8850,N,08009.7281,W,1,9,1.5,15,M,,M,,*51
06/11/2014	01:07:36.856	$GPGGA,010736,2543.8849,N,08009.7280,W,1,9,1.5,15,M,,M,,*5B
06/11/2014	01:07:37.965	$GPGGA,010737,2543.8850,N,08009.7280,W,1,9,1.5,15,M,,M,,*52
06/11/2014	01:07:38.991	$GPGGA,010738,2543.8849,N,08009.7280,W,1,9,1.5,15,M,,M,,*55
06/11/2014	01:07:40.056	$GPGGA,010739,2543.8850,N,08009.7280,W,1,9,1.5,15,M,,M,,*5C
06/11/2014	01:07:41.092	$GPGGA,010740,2543.8849,N,08009.7279,W,1,9,1.5,15,M,,M,,*5C
06/11/2014	01:07:42.107	$GPGGA,010741,2543.8850,N,08009.7280,W,1,9,1.5,15,M,,M,,*53
06/11/2014	01:07:43.086	$GPGGA,010742,2543.8849,N,08009.7279,W,1,9,1.5,15,M,,M,,*5E
06/11/2014	01:07:44.133	$GPGGA,010743,2543.8850,N,08009.7280,W,1,9,1.5,15,M,,M,,*51
06/11/2014	01:07:43.568	$GPGGA,010744,2543.8849,N,08009.7280,W,1,9,1.5,15,M,,M,,*5E
06/11/2014	01:07:44.597	$GPGGA,010745,2543.8850,N,08009.7280,W,1,9,1.5,15,M,,M,,*57
06/11/2014	01:07:45.594	$GPGGA,010746,2543.8848,N,08009.7280,W,1,9,1.5,15,M,,M,,*5D
06/11/2014	01:07:46.650	$GPGGA,010747,2543.8848,N,08009.7281,W,1,9,1.5,15,M,,M,,*5D
06/11/2014	01:07:47.656	$GPGGA,010748,2543.8848,N,08009.7281,W,1,9,1.5,15,M,,M,,*52
06/11/2014	01:07:48.703	$GPGGA,010749,2543.8848,N,08009.7281,W,1,9,1.5,15,M,,M,,*53
06/11/2014	01:07:49.699	$GPGGA,010750,2543.8848,N,08009.7281,W,1,9,1.5,15,M,,M,,*5B
06/11/2014	01:07:50.736	$GPGGA,010751,2543.8848,N,08009.7283,W,1,9,1.5,15,M,,M,,*58
06/11/2014	01:07:51.762	$GPGGA,010752,2543.8848,N,08009.7282,W,1,9,1.5,15,M,,M,,*5A
06/11/2014	01:07:52.789	$GPGGA,010753,2543.8848,N,08009.7283,W,1,9,1.5,15,M,,M,,*5A
06/11/2014	01:07:53.805	$GPGGA,010754,2543.8848,N,08009.7282,W,1,9,1.5,15,M,,M,,*5C
06/11/2014	01:07:54.852	$GPGGA,010755,2543.8848,N,08009.7283,W,1,9,1.5,15,M,,M,,*5C
06/11/2014	01:07:55.858	$GPGGA,010756,2543.8848,N,08009.7282,W,1,9,1.5,15,M,,M,,*5E
06/11/2014	01:07:56.894	$GPGGA,010757,2543.8848,N,08009.7283,W,1,9,1.5,15,M,,M,,*5E
06/11/2014	01:07:57.900	$GPGGA,010758,2543.8848,N,08009.7283,W,1,9,1.5,14,M,,M,,*50
06/11/2014	01:07:58.936	$GPGGA,010759,2543.8848,N,08009.7283,W,1,9,1.5,14,M,,M,,*51
06/11/2014	01:07:59.963	$GPGGA,010800,2543.8848,N,08009.7283,W,1,9,1.5,14,M,,M,,*52
06/11/2014	01:08:00.989	$GPGGA,010801,2543.8848,N,08009.7283,W,1,9,1.5,14,M,,M,,*53
06/11/2014	01:08:01.995	$GPGGA,010802,2543.8846,N,08009.7284,W,1,9,1.5,14,M,,M,,*59
06/11/2014	01:08:03.032	$GPGGA,010803,2543.8847,N,08009.7284,W,1,9,1.5,14,M,,M,,*59
06/11/2014	01:08:04.059	$GPGGA,010804,2543.8846,N,08009.7284,W,1,9,1.5,14,M,,M,,*5F
06/11/2014	01:08:05.095	$GPGGA,010805,2543.8847,N,08009.7284,W,1,9,1.5,14,M,,M,,*5F
06/11/2014	01:08:06.094	$GPGGA,010806,2543.8846,N,08009.7284,W,1,9,1.5,14,M,,M,,*5D
06/11/2014	01:08:07.138	$GPGGA,010807,2543.8847,N,08009.7284,W,1,9,1.5,14,M,,M,,*5D
06/11/2014	01:08:08.151	$GPGGA,010808,2543.8846,N,08009.7284,W,1,9,1.5,14,M,,M,,*53
06/11/2014	01:08:09.181	$GPGGA,010809,2543.8847,N,08009.7284,W,1,9,1.5,14,M,,M,,*53
06/11/2014	01:08:10.218	$GPGGA,010810,2543.8846,N,08009.7284,W,1,9,1.5,14,M,,M,,*5A
06/11/2014	01:08:11.244	$GPGGA,010811,2543.8847,N,08009.7284,W,1,9,1.5,14,M,,M,,*5A
06/11/2014	01:08:12.260	$GPGGA,010812,2543.8846,N,08009.7284,W,1,9,1.5,14,M,,M,,*58
06/11/2014	01:08:13.287	$GPGGA,010813,2543.8847,N,08009.7284,W,1,9,1.5,14,M,,M,,*58
06/11/2014	01:08:14.294	$GPGGA,010814,2543.8846,N,08009.7284,W,1,9,1.5,14,M,,M,,*5E
06/11/2014	01:08:15.339	$GPGGA,010815,2543.8847,N,08009.7284,W,1,9,1.5,14,M,,M,,*5E
06/11/2014	01:08:16.468	$GPGGA,010816,2543.8846,N,08009.7284,W,1,9,1.5,14,M,,M,,*5C
06/11/2014	01:08:17.384	$GPGGA,010817,2543.8847,N,08009.7284,W,1,9,1.5,14,M,,M,,*5C
06/11/2014	01:08:18.377	$GPGGA,010818,2543.8845,N,08009.7284,W,1,9,1.5,14,M,,M,,*51
06/11/2014	01:08:19.548	$GPGGA,010819,2543.8846,N,08009.7284,W,1,9,1.5,14,M,,M,,*53
06/11/2014	01:08:20.471	$GPGGA,010820,2543.8845,N,08009.7284,W,1,9,1.5,14,M,,M,,*5A
06/11/2014	01:08:21.549	$GPGGA,010821,2543.8846,N,08009.7284,W,1,9,1.5,14,M,,M,,*58
06/11/2014	01:08:22.503	$GPGGA,010822,2543.8845,N,08009.7285,W,1,9,1.5,14,M,,M,,*59
06/11/2014	01:08:23.521	$GPGGA,010823,2543.8846,N,08009.7285,W,1,9,1.5,14,M,,M,,*5B
06/11/2014	01:08:24.639	$GPGGA,010824,2543.8845,N,08009.7285,W,1,9,1.5,14,M,,M,,*5F
06/11/2014	01:08:25.563	$GPGGA,010825,2543.8846,N,08009.7285,W,1,9,1.5,14,M,,M,,*5D
06/11/2014	01:08:26.589	$GPGGA,010826,2543.8845,N,08009.7285,W,1,9,1.5,14,M,,M,,*5D
06/11/2014	01:08:27.698	$GPGGA,010827,2543.8844,N,08009.7284,W,1,9,1.5,14,M,,M,,*5C
06/11/2014	01:08:28.735	$GPGGA,010828,2543.8846,N,08009.7284,W,1,9,1.5,14,M,,M,,*51
06/11/2014	01:08:29.761	$GPGGA,010829,2543.8844,N,08009.7284,W,1,9,1.5,14,M,,M,,*52
06/11/2014	01:08:30.777	$GPGGA,010830,2543.8846,N,08009.7284,W,1,9,1.5,14,M,,M,,*58
06/11/2014	01:08:31.828	$GPGGA,010831,2543.8845,N,08009.7285,W,1,9,1.5,14,M,,M,,*5B
06/11/2014	01:08:32.840	$GPGGA,010832,2543.8846,N,08009.7285,W,1,9,1.5,14,M,,M,,*5B
06/11/2014	01:08:33.835	$GPGGA,010833,2543.8845,N,08009.7285,W,1,9,1.5,14,M,,M,,*59
06/11/2014	01:08:34.862	$GPGGA,010834,2543.8844,N,08009.7285,W,1,9,1.5,14,M,,M,,*5F
06/11/2014	01:08:35.919	$GPGGA,010835,2543.8844,N,08009.7285,W,1,9,1.5,14,M,,M,,*5E
06/11/2014	01:08:36.935	$GPGGA,010836,2543.8844,N,08009.7285,W,1,9,1.5,14,M,,M,,*5D
06/11/2014	01:08:37.962	$GPGGA,010837,2543.8844,N,08009.7287,W,1,9,1.5,14,M,,M,,*5E
06/11/2014	01:08:38.968	$GPGGA,010838,2543.8844,N,08009.7286,W,1,9,1.5,14,M,,M,,*50
06/11/2014	01:08:40.015	$GPGGA,010839,2543.8844,N,08009.7287,W,1,9,1.5,14,M,,M,,*50
06/11/2014	01:08:41.021	$GPGGA,010840,2543.8844,N,08009.7286,W,1,9,1.5,14,M,,M,,*5F
06/11/2014	01:08:42.058	$GPGGA,010841,2543.8844,N,08009.7287,W,1,9,1.5,14,M,,M,,*5F
06/11/2014	01:08:43.065	$GPGGA,010842,2543.8844,N,08009.7285,W,1,9,1.5,14,M,,M,,*5E
06/11/2014	01:08:44.101	$GPGGA,010843,2543.8844,N,08009.7285,W,1,9,1.5,14,M,,M,,*5F
06/11/2014	01:08:43.547	$GPGGA,010844,2543.8844,N,08009.7287,W,1,9,1.5,14,M,,M,,*5A
06/11/2014	01:08:44.549	$GPGGA,010845,2543.8844,N,08009.7286,W,1,9,1.5,14,M,,M,,*5A
06/11/2014	01:08:45.540	$GPGGA,010846,2543.8844,N,08009.7285,W,1,9,1.5,14,M,,M,,*5A
06/11/2014	01:08:46.551	$GPGGA,010847,2543.8844,N,08009.7285,W,1,9,1.5,14,M,,M,,*5B
06/11/2014	01:08:47.593	$GPGGA,010848,2543.8844,N,08009.7285,W,1,9,1.5,14,M,,M,,*54
06/11/2014	01:08:48.613	$GPGGA,010849,2543.8844,N,08009.7285,W,1,9,1.5,14,M,,M,,*55
06/11/2014	01:08:49.594	$GPGGA,010850,2543.8844,N,08009.7285,W,1,9,1.5,14,M,,M,,*5D
06/11/2014	01:08:50.625	$GPGGA,010851,2543.8844,N,08009.7285,W,1,9,1.5,14,M,,M,,*5C
06/11/2014	01:08:51.616	$GPGGA,010852,2543.8844,N,08009.7285,W,1,9,1.5,14,M,,M,,*5F
06/11/2014	01:08:52.617	$GPGGA,010853,2543.8842,N,08009.7285,W,1,9,1.5,14,M,,M,,*58
06/11/2014	01:08:53.628	$GPGGA,010854,2543.8843,N,08009.7285,W,1,9,1.5,14,M,,M,,*5E
06/11/2014	01:08:54.659	$GPGGA,010855,2543.8842,N,08009.7285,W,1,9,1.5,14,M,,M,,*5E
06/11/2014	01:08:55.640	$GPGGA,010856,2543.8843,N,08009.7287,W,1,9,1.5,14,M,,M,,*5E
06/11/2014	01:08:56.661	$GPGGA,010857,2543.8841,N,08009.7286,W,1,9,1.5,14,M,,M,,*5C
06/11/2014	01:08:57.652	$GPGGA,010858,2543.8842,N,08009.7287,W,1,9,1.5,14,M,,M,,*51
06/11/2014	01:08:58.673	$GPGGA,010859,2543.8841,N,08009.7286,W,1,9,1.5,14,M,,M,,*52
06/11/2014	01:08:59.684	$GPGGA,010900,2543.8842,N,08009.7287,W,1,9,1.5,14,M,,M,,*5D
06/11/2014	01:09:00.675	$GPGGA,010901,2543.8841,N,08009.7287,W,1,9,1.5,14,M,,M,,*5F
06/11/2014	01:09:01.696	$GPGGA,010902,2543.8842,N,08009.7287,W,1,9,1.5,14,M,,M,,*5F
06/11/2014	01:09:02.829	$GPGGA,010903,2543.8841,N,08009.7287,W,1,9,1.5,14,M,,M,,*5D
06/11/2014	01:09:03.719	$GPGGA,010904,2543.8840,N,08009.7287,W,1,9,1.5,14,M,,M,,*5B
06/11/2014	01:09:04.811	$GPGGA,010905,2543.8840,N,08009.7287,W,1,9,1.5,14,M,,M,,*5A
06/11/2014	01:09:05.722	$GPGGA,010906,2543.8840,N,08009.7288,W,1,9,1.5,14,M,,M,,*56
06/11/2014	01:09:06.732	$GPGGA,010907,2543.8840,N,08009.7287,W,1,9,1.5,14,M,,M,,*58
06/11/2014	01:09:07.843	$GPGGA,010908,2543.8840,N,08009.7287,W,1,9,1.5,14,M,,M,,*57
06/11/2014	01:09:08.743	$GPGGA,010909,2543.8840,N,08009.7288,W,1,9,1.5,14,M,,M,,*59
06/11/2014	01:09:09.855	$GPGGA,010910,2543.8840,N,08009.7288,W,1,9,1.5,14,M,,M,,*51
06/11/2014	01:09:10.775	$GPGGA,010911,2543.8840,N,08009.7288,W,1,9,1.5,14,M,,M,,*50
06/11/2014	01:09:11.796	$GPGGA,010912,2543.8840,N,08009.7288,W,1,9,1.5,14,M,,M,,*53
06/11/2014	01:09:12.888	$GPGGA,010913,2543.8840,N,08009.7288,W,1,9,1.5,14,M,,M,,*52
06/11/2014	01:09:13.808	$GPGGA,010914,2543.8840,N,08009.7288,W,1,9,1.5,14,M,,M,,*55
06/11/2014	01:09:14.921	$GPGGA,010915,2543.8840,N,08009.7288,W,1,9,1.5,14,M,,M,,*54
06/11/2014	01:09:15.942	$GPGGA,010916,2543.8839,N,08009.7288,W,1,9,1.5,15,M,,M,,*58
06/11/2014	01:09:16.943	$GPGGA,010917,2543.8840,N,08009.7287,W,1,9,1.5,15,M,,M,,*58
06/11/2014	01:09:17.934	$GPGGA,010918,2543.8839,N,08009.7287,W,1,9,1.5,15,M,,M,,*59
06/11/2014	01:09:18.945	$GPGGA,010919,2543.8840,N,08009.7287,W,1,9,1.5,15,M,,M,,*56
06/11/2014	01:09:19.956	$GPGGA,010920,2543.8839,N,08009.7287,W,1,9,1.5,15,M,,M,,*52
06/11/2014	01:09:20.987	$GPGGA,010921,2543.8840,N,08009.7287,W,1,9,1.5,15,M,,M,,*5D
06/11/2014	01:09:21.968	$GPGGA,010922,2543.8839,N,08009.7287,W,1,9,1.5,15,M,,M,,*50
06/11/2014	01:09:22.969	$GPGGA,010923,2543.8840,N,08009.7287,W,1,9,1.5,15,M,,M,,*5F
06/11/2014	01:09:23.999	$GPGGA,010924,2543.8839,N,08009.7288,W,1,9,1.5,15,M,,M,,*59
06/11/2014	01:09:25.031	$GPGGA,010925,2543.8840,N,08009.7288,W,1,9,1.5,15,M,,M,,*56
06/11/2014	01:09:26.001	$GPGGA,010926,2543.8839,N,08009.7287,W,1,9,1.5,15,M,,M,,*54
06/11/2014	01:09:27.033	$GPGGA,010927,2543.8840,N,08009.7287,W,1,9,1.5,15,M,,M,,*5B
06/11/2014	01:09:28.034	$GPGGA,010928,2543.8838,N,08009.7287,W,1,9,1.5,15,M,,M,,*5B
06/11/2014	01:09:29.055	$GPGGA,010929,2543.8839,N,08009.7287,W,1,9,1.5,15,M,,M,,*5B
06/11/2014	01:09:30.036	$GPGGA,010930,2543.8838,N,08009.7287,W,1,9,1.5,15,M,,M,,*52
06/11/2014	01:09:31.087	$GPGGA,010931,2543.8839,N,08009.7287,W,1,9,1.5,15,M,,M,,*52
06/11/2014	01:09:32.068	$GPGGA,010932,2543.8840,N,08009.7287,W,1,9,1.5,15,M,,M,,*5F
06/11/2014	01:09:33.071	$GPGGA,010933,2543.8839,N,08009.7287,W,1,9,1.5,15,M,,M,,*50
06/11/2014	01:09:34.090	$GPGGA,010934,2543.8840,N,08009.7286,W,1,9,1.5,15,M,,M,,*58
06/11/2014	01:09:35.101	$GPGGA,010935,2543.8839,N,08009.7287,W,1,9,1.5,15,M,,M,,*56
06/11/2014	01:09:36.112	$GPGGA,010936,2543.8840,N,08009.7285,W,1,9,1.5,15,M,,M,,*59
06/11/2014	01:09:37.144	$GPGGA,010937,2543.8839,N,08009.7285,W,1,9,1.5,15,M,,M,,*56
06/11/2014	01:09:38.114	$GPGGA,010938,2543.8840,N,08009.7285,W,1,9,1.5,15,M,,M,,*57
06/11/2014	01:09:39.156	$GPGGA,010939,2543.8839,N,08009.7284,W,1,9,1.5,15,M,,M,,*59
06/11/2014	01:09:40.147	$GPGGA,010940,2543.8840,N,08009.7284,W,1,9,1.5,15,M,,M,,*59
06/11/2014	01:09:42.471	$GPGGA,010941,2543.8840,N,08009.7283,W,1,9,1.5,15,M,,M,,*5F
06/11/2014	01:09:42.491	$GPGGA,010942,2543.8840,N,08009.7283,W,1,9,1.5,15,M,,M,,*5C
06/11/2014	01:09:43.169	$GPGGA,010943,2543.8840,N,08009.7282,W,1,9,1.5,15,M,,M,,*5C
06/11/2014	01:09:43.519	$GPGGA,010944,2543.8840,N,08009.7283,W,1,9,1.5,15,M,,M,,*5A
06/11/2014	01:09:44.515	$GPGGA,010945,2543.8840,N,08009.7282,W,1,9,1.5,15,M,,M,,*5A
06/11/2014	01:09:45.526	$GPGGA,010946,2543.8840,N,08009.7281,W,1,9,1.5,15,M,,M,,*5A
06/11/2014	01:09:46.537	$GPGGA,010947,2543.8840,N,08009.7281,W,1,9,1.5,15,M,,M,,*5B
06/11/2014	01:09:47.558	$GPGGA,010948,2543.8840,N,08009.7281,W,1,9,1.5,15,M,,M,,*54
06/11/2014	01:09:48.540	$GPGGA,010949,2543.8840,N,08009.7281,W,1,9,1.5,15,M,,M,,*55
06/11/2014	01:09:49.560	$GPGGA,010950,2543.8840,N,08009.7281,W,1,9,1.5,15,M,,M,,*5D
06/11/2014	01:09:50.693	$GPGGA,010951,2543.8842,N,08009.7281,W,1,9,1.5,15,M,,M,,*5E
06/11/2014	01:09:51.592	$GPGGA,010952,2543.8841,N,08009.7281,W,1,9,1.5,15,M,,M,,*5E
06/11/2014	01:09:52.604	$GPGGA,010953,2543.8842,N,08009.7281,W,1,9,1.5,15,M,,M,,*5C
06/11/2014	01:09:53.685	$GPGGA,010954,2543.8841,N,08009.7280,W,1,9,1.5,15,M,,M,,*59
06/11/2014	01:09:54.710	$GPGGA,010955,2543.8842,N,08009.7280,W,1,9,1.5,15,M,,M,,*5B
06/11/2014	01:09:55.617	$GPGGA,010956,2543.8841,N,08009.7280,W,1,9,1.5,15,M,,M,,*5B
06/11/2014	01:09:56.635	$GPGGA,010957,2543.8842,N,08009.7280,W,1,9,1.5,15,M,,M,,*59
06/11/2014	01:09:57.745	$GPGGA,010958,2543.8843,N,08009.7280,W,1,9,1.5,15,M,,M,,*57
06/11/2014	01:09:58.780	$GPGGA,010959,2543.8842,N,08009.7281,W,1,9,1.5,15,M,,M,,*56
06/11/2014	01:09:59.680	$GPGGA,011000,2543.8843,N,08009.7280,W,1,9,1.5,15,M,,M,,*52
06/11/2014	01:10:00.792	$GPGGA,011001,2543.8842,N,08009.7280,W,1,9,1.5,15,M,,M,,*52
06/11/2014	01:10:01.763	$GPGGA,011002,2543.8844,N,08009.7280,W,1,9,1.5,15,M,,M,,*57
06/11/2014	01:10:02.815	$GPGGA,011003,2543.8844,N,08009.7280,W,1,9,1.5,15,M,,M,,*56
06/11/2014	01:10:03.795	$GPGGA,011004,2543.8844,N,08009.7280,W,1,9,1.5,15,M,,M,,*51
06/11/2014	01:10:04.827	$GPGGA,011005,2543.8844,N,08009.7280,W,1,9,1.5,15,M,,M,,*50
06/11/2014	01:10:05.797	$GPGGA,011006,2543.8844,N,08009.7280,W,1,9,1.5,15,M,,M,,*53
06/11/2014	01:10:06.829	$GPGGA,011007,2543.8844,N,08009.7280,W,1,9,1.5,15,M,,M,,*52
06/11/2014	01:10:07.830	$GPGGA,011008,2543.8844,N,08009.7280,W,1,9,1.5,15,M,,M,,*5D
06/11/2014	01:10:08.851	$GPGGA,011009,2543.8844,N,08009.7280,W,1,9,1.5,15,M,,M,,*5C
06/11/2014	01:10:09.842	$GPGGA,011010,2543.8844,N,08009.7280,W,1,9,1.5,15,M,,M,,*54
06/11/2014	01:10:10.853	$GPGGA,011011,2543.8844,N,08009.7280,W,1,9,1.5,15,M,,M,,*55
06/11/2014	01:10:11.874	$GPGGA,011012,2543.8844,N,08009.7279,W,1,9,1.5,15,M,,M,,*50
06/11/2014	01:10:12.885	$GPGGA,011013,2543.8844,N,08009.7280,W,1,9,1.5,15,M,,M,,*57
06/11/2014	01:10:13.876	$GPGGA,011014,2543.8846,N,08009.7278,W,1,9,1.5,15,M,,M,,*55
06/11/2014	01:10:14.897	$GPGGA,011015,2543.8844,N,08009.7279,W,1,9,1.5,15,M,,M,,*57
06/11/2014	01:10:15.909	$GPGGA,011016,2543.8846,N,08009.7278,W,1,9,1.5,15,M,,M,,*57
06/11/2014	01:10:16.919	$GPGGA,011017,2543.8845,N,08009.7277,W,1,9,1.5,15,M,,M,,*5A
06/11/2014	01:10:17.909	$GPGGA,011018,2543.8846,N,08009.7277,W,1,9,1.5,15,M,,M,,*56
06/11/2014	01:10:18.910	$GPGGA,011019,2543.8845,N,08009.7277,W,1,9,1.5,15,M,,M,,*54
06/11/2014	01:10:19.952	$GPGGA,011020,2543.8846,N,08009.7277,W,1,9,1.5,15,M,,M,,*5D
06/11/2014	01:10:20.934	$GPGGA,011021,2543.8845,N,08009.7277,W,1,9,1.5,15,M,,M,,*5F
06/11/2014	01:10:21.954	$GPGGA,011022,2543.8846,N,08009.7277,W,1,9,1.5,15,M,,M,,*5F
06/11/2014	01:10:22.985	$GPGGA,011023,2543.8845,N,08009.7276,W,1,9,1.5,15,M,,M,,*5C
06/11/2014	01:10:23.976	$GPGGA,011024,2543.8846,N,08009.7276,W,1,9,1.5,15,M,,M,,*58
06/11/2014	01:10:25.007	$GPGGA,011025,2543.8845,N,08009.7276,W,1,9,1.5,15,M,,M,,*5A
06/11/2014	01:10:25.978	$GPGGA,011026,2543.8846,N,08009.7275,W,1,9,1.5,15,M,,M,,*59
06/11/2014	01:10:26.989	$GPGGA,011027,2543.8845,N,08009.7276,W,1,9,1.5,15,M,,M,,*58
06/11/2014	01:10:28.010	$GPGGA,011028,2543.8846,N,08009.7275,W,1,9,1.5,15,M,,M,,*57
06/11/2014	01:10:29.042	$GPGGA,011029,2543.8845,N,08009.7274,W,1,9,1.5,15,M,,M,,*54
06/11/2014	01:10:30.012	$GPGGA,011030,2543.8846,N,08009.7274,W,1,9,1.5,15,M,,M,,*5F
06/11/2014	01:10:31.044	$GPGGA,011031,2543.8845,N,08009.7274,W,1,9,1.5,15,M,,M,,*5D
06/11/2014	01:10:32.046	$GPGGA,011032,2543.8846,N,08009.7274,W,1,9,1.5,15,M,,M,,*5D
06/11/2014	01:10:33.067	$GPGGA,011033,2543.8847,N,08009.7274,W,1,9,1.5,15,M,,M,,*5D
06/11/2014	01:10:34.054	$GPGGA,011034,2543.8846,N,08009.7273,W,1,9,1.5,15,M,,M,,*5C
06/11/2014	01:10:35.057	$GPGGA,011035,2543.8847,N,08009.7273,W,1,9,1.5,15,M,,M,,*5C
06/11/2014	01:10:36.096	$GPGGA,011036,2543.8846,N,08009.7273,W,1,9,1.5,15,M,,M,,*5E
06/11/2014	01:10:37.111	$GPGGA,011037,2543.8845,N,08009.7273,W,1,9,1.5,15,M,,M,,*5C
06/11/2014	01:10:38.099	$GPGGA,011038,2543.8847,N,08009.7273,W,1,9,1.5,15,M,,M,,*51
06/11/2014	01:10:39.298	$GPGGA,011039,2543.8846,N,08009.7273,W,1,9,1.5,15,M,,M,,*51
06/11/2014	01:10:40.125	$GPGGA,011040,2543.8847,N,08009.7273,W,1,9,1.5,15,M,,M,,*5E
06/11/2014	01:10:41.117	$GPGGA,011041,2543.8846,N,08009.7273,W,1,9,1.5,15,M,,M,,*5E
06/11/2014	01:10:42.114	$GPGGA,011042,2543.8845,N,08009.7273,W,1,9,1.5,15,M,,M,,*5E
06/11/2014	01:10:43.146	$GPGGA,011043,2543.8846,N,08009.7273,W,1,9,1.5,15,M,,M,,*5C
06/11/2014	01:10:43.592	$GPGGA,011044,2543.8845,N,08009.7273,W,1,9,1.5,15,M,,M,,*58
06/11/2014	01:10:44.509	$GPGGA,011045,2543.8844,N,08009.7273,W,1,9,1.5,15,M,,M,,*58
06/11/2014	01:10:45.597	$GPGGA,011046,2543.8844,N,08009.7273,W,1,9,1.5,15,M,,M,,*5B
06/11/2014	01:10:46.497	$GPGGA,011047,2543.8844,N,08009.7273,W,1,9,1.5,15,M,,M,,*5A
06/11/2014	01:10:47.659	$GPGGA,011048,2543.8844,N,08009.7273,W,1,9,1.5,15,M,,M,,*55
06/11/2014	01:10:48.722	$GPGGA,011049,2543.8842,N,08009.7273,W,1,9,1.5,15,M,,M,,*52
06/11/2014	01:10:49.681	$GPGGA,011050,2543.8843,N,08009.7273,W,1,9,1.5,15,M,,M,,*5B
06/11/2014	01:10:50.551	$GPGGA,011051,2543.8841,N,08009.7273,W,1,9,1.5,15,M,,M,,*58
06/11/2014	01:10:51.713	$GPGGA,011052,2543.8842,N,08009.7273,W,1,9,1.5,15,M,,M,,*58
06/11/2014	01:10:52.744	$GPGGA,011053,2543.8841,N,08009.7273,W,1,9,1.5,15,M,,M,,*5A
06/11/2014	01:10:53.664	$GPGGA,011054,2543.8842,N,08009.7273,W,1,9,1.5,15,M,,M,,*5E
06/11/2014	01:10:54.675	$GPGGA,011055,2543.8841,N,08009.7273,W,1,9,1.5,15,M,,M,,*5C
06/11/2014	01:10:55.747	$GPGGA,011056,2543.8840,N,08009.7274,W,1,9,1.5,15,M,,M,,*59
06/11/2014	01:10:56.799	$GPGGA,011057,2543.8840,N,08009.7274,W,1,9,1.5,15,M,,M,,*58
06/11/2014	01:10:57.719	$GPGGA,011058,2543.8840,N,08009.7273,W,1,9,1.5,15,M,,M,,*50
06/11/2014	01:10:58.821	$GPGGA,011059,2543.8840,N,08009.7274,W,1,9,1.5,15,M,,M,,*56
06/11/2014	01:10:59.781	$GPGGA,011100,2543.8840,N,08009.7273,W,1,9,1.5,15,M,,M,,*5C
06/11/2014	01:11:00.833	$GPGGA,011101,2543.8840,N,08009.7273,W,1,9,1.5,15,M,,M,,*5D
06/11/2014	01:11:01.773	$GPGGA,011102,2543.8839,N,08009.7273,W,1,9,1.5,15,M,,M,,*50
06/11/2014	01:11:02.815	$GPGGA,011103,2543.8840,N,08009.7273,W,1,9,1.5,15,M,,M,,*5F
06/11/2014	01:11:03.808	$GPGGA,011104,2543.8839,N,08009.7273,W,1,9,1.5,15,M,,M,,*56
06/11/2014	01:11:04.877	$GPGGA,011105,2543.8840,N,08009.7273,W,1,9,1.5,15,M,,M,,*59
06/11/2014	01:11:05.808	$GPGGA,011106,2543.8839,N,08009.7273,W,1,9,1.5,15,M,,M,,*54
06/11/2014	01:11:06.889	$GPGGA,011107,2543.8840,N,08009.7273,W,1,9,1.5,15,M,,M,,*5B
06/11/2014	01:11:07.855	$GPGGA,011108,2543.8839,N,08009.7274,W,1,9,1.5,15,M,,M,,*5D
06/11/2014	01:11:08.911	$GPGGA,011109,2543.8840,N,08009.7274,W,1,9,1.5,15,M,,M,,*52
06/11/2014	01:11:09.841	$GPGGA,011110,2543.8839,N,08009.7274,W,1,9,1.5,15,M,,M,,*54
06/11/2014	01:11:10.822	$GPGGA,011111,2543.8840,N,08009.7274,W,1,9,1.5,15,M,,M,,*5B
06/11/2014	01:11:11.873	$GPGGA,011112,2543.8839,N,08009.7274,W,1,9,1.5,15,M,,M,,*56
06/11/2014	01:11:12.844	$GPGGA,011113,2543.8840,N,08009.7274,W,1,9,1.5,15,M,,M,,*59
06/11/2014	01:11:13.895	$GPGGA,011114,2543.8839,N,08009.7274,W,1,9,1.5,15,M,,M,,*50
06/11/2014	01:11:14.977	$GPGGA,011115,2543.8840,N,08009.7274,W,1,9,1.5,15,M,,M,,*5F
06/11/2014	01:11:15.877	$GPGGA,011116,2543.8839,N,08009.7274,W,1,9,1.5,16,M,,M,,*51
06/11/2014	01:11:16.989	$GPGGA,011117,2543.8840,N,08009.7276,W,1,9,1.5,16,M,,M,,*5C
06/11/2014	01:11:17.879	$GPGGA,011118,2543.8839,N,08009.7275,W,1,9,1.5,16,M,,M,,*5E
06/11/2014	01:11:19.012	$GPGGA,011119,2543.8840,N,08009.7276,W,1,9,1.5,16,M,,M,,*52
06/11/2014	01:11:19.952	$GPGGA,011120,2543.8838,N,08009.7276,W,1,9,1.5,16,M,,M,,*57
06/11/2014	01:11:20.912	$GPGGA,011121,2543.8839,N,08009.7276,W,1,9,1.5,16,M,,M,,*57
06/11/2014	01:11:21.944	$GPGGA,011122,2543.8838,N,08009.7276,W,1,9,1.5,16,M,,M,,*55
06/11/2014	01:11:23.066	$GPGGA,011123,2543.8839,N,08009.7276,W,1,9,1.5,16,M,,M,,*55
06/11/2014	01:11:23.946	$GPGGA,011124,2543.8838,N,08009.7276,W,1,9,1.5,16,M,,M,,*53
06/11/2014	01:11:25.052	$GPGGA,011125,2543.8839,N,08009.7276,W,1,9,1.5,16,M,,M,,*53
06/11/2014	01:11:25.978	$GPGGA,011126,2543.8838,N,08009.7276,W,1,9,1.5,16,M,,M,,*51
06/11/2014	01:11:27.049	$GPGGA,011127,2543.8839,N,08009.7276,W,1,9,1.5,16,M,,M,,*51
06/11/2014	01:11:27.989	$GPGGA,011128,2543.8838,N,08009.7277,W,1,9,1.5,16,M,,M,,*5E
06/11/2014	01:11:29.071	$GPGGA,011129,2543.8839,N,08009.7277,W,1,9,1.5,16,M,,M,,*5E
06/11/2014	01:11:30.021	$GPGGA,011130,2543.8838,N,08009.7276,W,1,9,1.5,16,M,,M,,*56
06/11/2014	01:11:31.084	$GPGGA,011131,2543.8839,N,08009.7276,W,1,9,1.5,16,M,,M,,*56
06/11/2014	01:11:32.148	$GPGGA,011132,2543.8840,N,08009.7276,W,1,9,1.5,16,M,,M,,*5B
06/11/2014	01:11:33.166	$GPGGA,011133,2543.8838,N,08009.7276,W,1,9,1.5,16,M,,M,,*55
06/11/2014	01:11:34.062	$GPGGA,011134,2543.8839,N,08009.7276,W,1,9,1.5,16,M,,M,,*53
06/11/2014	01:11:35.178	$GPGGA,011135,2543.8840,N,08009.7277,W,1,9,1.5,16,M,,M,,*5D
06/11/2014	01:11:36.103	$GPGGA,011136,2543.8838,N,08009.7277,W,1,9,1.5,16,M,,M,,*51
06/11/2014	01:11:37.150	$GPGGA,011137,2543.8840,N,08009.7277,W,1,9,1.5,16,M,,M,,*5F
06/11/2014	01:11:38.161	$GPGGA,011138,2543.8838,N,08009.7277,W,1,9,1.5,16,M,,M,,*5F
06/11/2014	01:11:39.172	$GPGGA,011139,2543.8839,N,08009.7279,W,1,9,1.5,16,M,,M,,*51
06/11/2014	01:11:40.149	$GPGGA,011140,2543.8838,N,08009.7278,W,1,9,1.5,16,M,,M,,*5F
06/11/2014	01:11:41.204	$GPGGA,011141,2543.8839,N,08009.7280,W,1,9,1.5,16,M,,M,,*58
06/11/2014	01:11:42.205	$GPGGA,011142,2543.8838,N,08009.7279,W,1,9,1.5,16,M,,M,,*5C
06/11/2014	01:11:43.267	$GPGGA,011143,2543.8839,N,08009.7280,W,1,9,1.5,16,M,,M,,*5A
06/11/2014	01:11:43.573	$GPGGA,011144,2543.8838,N,08009.7279,W,1,9,1.5,16,M,,M,,*5A
06/11/2014	01:11:44.594	$GPGGA,011145,2543.8839,N,08009.7280,W,1,9,1.5,16,M,,M,,*5C
06/11/2014	01:11:45.584	$GPGGA,011146,2543.8837,N,08009.7280,W,1,9,1.5,16,M,,M,,*51
06/11/2014	01:11:46.585	$GPGGA,011147,2543.8837,N,08009.7280,W,1,9,1.5,16,M,,M,,*50
06/11/2014	01:11:47.617	$GPGGA,011148,2543.8837,N,08009.7280,W,1,9,1.5,16,M,,M,,*5F
